timepoint,stationcode,longitude,latitude,area,positionname,primarypollutant,aqi,pm10,pm10_24h,pm2_5,pm2_5_24h,o3,o3_24h,o3_8h,o3_8h_24h,no2,no2_24h,so2,so2_24h,co,co_24h
2024-10-01T2300,2566A,102.1879,31.914,阿坝藏族羌族自治州,州农科所,,24,24,24,8,9,19,,56,39,11,14,6,7,0.1,0
2024-10-01T2300,2568A,102.2502,31.8896,阿坝藏族羌族自治州,马师校,,28,25,19,19,17,8,,50,30,8,10,5,4,0.3,0.3
2024-10-01T2300,3994A,102.2165,31.9024,阿坝藏族羌族自治州,马尔康中学西区,,22,22,21,11,16,11,,52,34,9,11,7,8,0.5,0.5
2024-10-01T2300,2695A,80.292,41.1694,阿克苏地区,电视台,颗粒物(PM10),89,127,97,36,26,61,,106,93,36,21,3,4,0.5,0.5
2024-10-01T2300,2696A,80.2613,41.1551,阿克苏地区,艺术中心,颗粒物(PM10),87,123,91,34,23,71,,111,96,31,22,3,4,0.5,0.4
2024-10-01T2300,2204A,105.6467,38.8363,阿拉善盟,西城区西花园,,33,30,44,23,24,85,,105,101,18,11,5,6,0.6,0.8
2024-10-01T2300,2205A,105.6985,38.8411,阿拉善盟,蒙二幼,,28,18,45,8,11,88,,96,94,7,7,2,2,0.5,0.5
2024-10-01T2300,2206A,105.724,38.8516,阿拉善盟,环保局新楼,,32,11,40,3,10,100,,93,93,4,5,8,8,0.4,0.5
2024-10-01T2300,2708A,88.1264,47.8517,阿勒泰地区,市站,颗粒物(PM10),54,58,28,3,8,33,,73,56,30,20,8,8,0.5,0.4
2024-10-01T2300,2630A,80.1161,32.5,阿里地区,阿里监测站,,32,12,10,3,4,102,,128,124,22,19,7,6,0.4,0.4
2024-10-01T2300,3192A,80.0903,32.5028,阿里地区,阿里藏医院,,39,8,13,3,4,122,,129,128,5,11,5,6,0.2,0.3
2024-10-01T2300,2642A,109.0318,32.6537,安康市,香溪洞,,24,24,21,3,4,31,,49,48,10,6,8,7,0.3,0.2
2024-10-01T2300,2643A,109.0281,32.6939,安康市,安康市监测站,,33,33,21,10,10,18,,48,40,17,12,17,10,0.5,0.4
2024-10-01T2300,2644A,109.0072,32.6975,安康市,汉滨区检察院,,43,43,34,7,7,25,,47,38,13,13,8,8,0.3,0.3
2024-10-01T2300,2291A,117.0809,30.5177,安庆市,环科院,,36,36,18,12,10,84,,90,90,18,12,8,7,0.5,0.6
2024-10-01T2300,2292A,117.0331,30.5119,安庆市,马山宾馆,,36,36,22,11,11,96,,94,94,18,14,10,9,0.2,0.3
2024-10-01T2300,2294A,116.9896,30.6145,安庆市,安庆大学,,29,29,17,11,8,91,,94,94,12,9,9,8,0.2,0.2
2024-10-01T2300,3173A,117.0598,30.5351,安庆市,市人大,,40,40,23,12,11,88,,88,88,19,12,9,8,0.6,0.6
2024-10-01T2300,3123A,105.9408,26.2431,安顺市,凤凰山,,22,8,5,7,2,69,,73,72,6,5,7,5,0.2,0.2
2024-10-01T2300,3124A,105.9439,26.2564,安顺市,金钟山,,21,,6,10,2,66,,72,70,7,5,9,8,0.6,0.6
2024-10-01T2300,3125A,105.8983,26.2481,安顺市,娄家坡,,23,12,7,11,6,72,,74,71,8,7,6,5,0.4,0.4
2024-10-01T2300,1819A,114.3551,36.1017,安阳市,红庙街,,38,38,64,11,16,60,,96,83,7,9,3,5,0.2,0.5
2024-10-01T2300,1820A,114.361,36.0681,安阳市,银杏小区,,47,47,64,6,7,64,,98,83,7,11,2,5,0.3,0.6
2024-10-01T2300,3141A,114.3922,36.0878,安阳市,信访局,,38,38,66,6,7,66,,102,88,9,10,3,5,0.4,0.6
2024-10-01T2300,3669A,114.4705,36.0637,安阳市,左辅环卫站,,46,46,68,8,9,56,,100,80,14,19,4,6,0.2,0.3
2024-10-01T2300,3703A,114.2917,36.0949,安阳市,安钢职工学校,颗粒物(PM10),54,57,70,11,15,50,,96,80,14,13,7,7,0.2,0.6
2024-10-01T2300,1748A,123.044,41.1196,鞍山市,深沟寺,,29,29,22,18,11,24,,58,46,28,18,5,7,0.9,0.8
2024-10-01T2300,1749A,123.011,41.0931,鞍山市,太阳城,,24,24,20,13,12,19,,59,45,24,17,6,9,0.4,0.6
2024-10-01T2300,1750A,123.0485,41.1442,鞍山市,太平,颗粒物(PM10),52,54,27,27,15,9,,58,35,33,25,8,12,1.0,0.9
2024-10-01T2300,1751A,122.9642,41.0971,鞍山市,铁西三道街,颗粒物(PM10),62,74,32,34,18,6,,57,32,42,25,6,8,0.7,0.8
2024-10-01T2300,1752A,122.9341,41.0833,鞍山市,铁西工业园区,,36,36,24,19,18,9,,61,30,30,21,6,7,0.6,0.6
2024-10-01T2300,1753A,123.022,41.0821,鞍山市,明达新区,,21,21,21,10,12,30,,53,39,15,17,6,8,0.4,0.6
2024-10-01T2300,2195A,107.4212,40.761,巴彦淖尔市,附二中,颗粒物(PM10),54,58,78,19,24,46,,73,60,29,13,4,4,0.4,0.3
2024-10-01T2300,2196A,107.37,40.7372,巴彦淖尔市,市环保大楼,,38,38,67,26,26,33,,82,57,27,11,2,2,0.5,0.5
2024-10-01T2300,1956A,86.1472,41.7538,巴音郭楞蒙古自治州,孔雀公园,颗粒物(PM10),73,95,108,17,19,68,,94,87,14,11,6,6,0.3,0.3
2024-10-01T2300,1957A,86.1972,41.7166,巴音郭楞蒙古自治州,棉纺厂,颗粒物(PM10),95,139,173,18,27,65,,94,87,20,14,5,5,0.3,0.2
2024-10-01T2300,1958A,86.2357,41.7173,巴音郭楞蒙古自治州,经济开发区,颗粒物(PM10),74,98,148,27,32,68,,93,87,16,12,8,7,0.3,0.2
2024-10-01T2300,2914A,106.7677,31.8794,巴中市,苏山坪,,23,14,17,3,6,73,,83,78,11,10,5,4,0.1,0.1
2024-10-01T2300,3182A,106.7656,31.8545,巴中市,丽阳花园,,22,22,21,10,10,42,,81,63,20,20,5,5,0.4,0.4
2024-10-01T2300,3183A,106.7418,31.8654,巴中市,圣泉水务公司,,20,20,17,10,8,40,,86,65,22,19,3,3,0.4,0.4
2024-10-01T2300,3616A,106.7616,31.8344,巴中市,市中心医院,,27,27,21,13,9,28,,82,59,27,18,5,5,0.4,0.4
2024-10-01T2300,2235A,122.7911,45.6077,白城市,洮北区环保局,,13,13,17,8,10,37,,66,49,6,10,2,3,0.5,0.5
2024-10-01T2300,2236A,122.8738,45.5725,白城市,市环保局,,15,,15,10,9,36,,64,50,11,12,3,3,0.3,0.3
2024-10-01T2300,2231A,126.4219,41.9171,白山市,喜丰,,17,17,13,3,4,36,,60,50,5,7,5,6,0.4,0.5
2024-10-01T2300,2232A,126.4077,41.9419,白山市,环保局,,26,26,21,6,7,27,,55,44,6,7,8,8,0.6,0.7
2024-10-01T2300,2647A,104.1724,36.5446,白银市,第三小学,,43,43,27,21,14,66,,95,89,24,18,26,23,0.7,0.5
2024-10-01T2300,2648A,104.1465,36.5482,白银市,动力公司,,32,32,22,18,13,31,,95,80,31,13,7,16,0.7,0.5
2024-10-01T2300,2512A,106.6103,23.9011,百色市,市监测站,,13,8,6,3,3,41,,45,44,6,6,6,6,0.6,0.5
2024-10-01T2300,3406A,106.6085,23.8798,百色市,祈福高中,,15,6,9,3,4,46,,49,48,10,5,3,3,0.5,0.5
2024-10-01T2300,2270A,117.396,32.939,蚌埠市,工人疗养院,颗粒物(PM10),58,66,35,15,10,93,,108,105,14,12,6,6,0.3,0.4
2024-10-01T2300,2271A,117.3605,32.9427,蚌埠市,百货大楼,颗粒物(PM10),58,66,35,17,9,90,,107,104,16,13,6,6,0.4,0.4
2024-10-01T2300,2273A,117.4185,32.8911,蚌埠市,蚌埠学院,颗粒物(PM10),54,58,25,17,12,95,,110,107,16,12,8,6,0.2,0.4
2024-10-01T2300,2274A,117.3533,32.9673,蚌埠市,淮上区政府,颗粒物(PM10),58,66,34,21,13,72,,97,88,21,13,6,6,0.2,0.3
2024-10-01T2300,2275A,117.3145,32.8977,蚌埠市,高新区,颗粒物(PM10),58,66,32,23,14,88,,106,100,18,16,10,7,0.2,0.3
2024-10-01T2300,3715A,117.3092,32.9314,蚌埠市,蚌埠田家炳中学,颗粒物(PM10),61,71,40,22,14,77,,104,95,23,14,7,6,0.3,0.3
2024-10-01T2300,1585A,109.8756,40.6532,包头市,市环境监测站,,38,38,13,14,6,6,,77,49,67,18,5,4,1.0,0.4
2024-10-01T2300,1587A,109.9991,40.5842,包头市,包头八中,,37,37,20,14,6,7,,76,52,68,21,2,2,0.7,0.5
2024-10-01T2300,1588A,109.8538,40.6821,包头市,青山宾馆,,32,32,12,10,4,5,,77,48,60,15,5,5,0.6,0.5
2024-10-01T2300,1589A,109.8642,40.6288,包头市,惠龙物流,,29,,22,16,6,13,,76,58,57,17,5,6,0.5,0.4
2024-10-01T2300,1590A,110.0377,40.5546,包头市,东河鸿龙湾,,33,33,18,16,6,18,,74,51,44,15,10,10,0.7,0.5
2024-10-01T2300,3283A,109.9154,40.5685,包头市,滨河大厦,,31,31,26,8,6,4,,76,54,62,20,8,10,0.5,0.4
2024-10-01T2300,3419A,109.9447,40.6261,包头市,包头市委党校,,33,29,20,6,5,6,,77,54,65,18,5,5,0.4,0.2
2024-10-01T2300,3683A,109.8331,40.6576,包头市,昆区政府,,26,26,16,11,5,28,,74,58,45,16,4,4,0.4,0.3
2024-10-01T2300,1930A,107.185,34.3063,宝鸡市,庙沟村,,25,25,31,8,8,73,,97,87,13,10,11,11,0.4,0.3
2024-10-01T2300,1931A,107.0708,34.3017,宝鸡市,竹园沟,,18,18,29,10,10,57,,101,78,11,12,6,7,0.4,0.5
2024-10-01T2300,1932A,107.1906,34.3672,宝鸡市,三陆医院,颗粒物(PM10),53,56,44,24,15,20,,97,65,48,31,10,8,0.5,0.1
2024-10-01T2300,1933A,107.1431,34.3547,宝鸡市,监测站,,29,29,36,16,13,51,,98,69,14,15,6,6,0.4,0.5
2024-10-01T2300,1934A,107.1186,34.3739,宝鸡市,技工学校,,27,27,37,14,14,47,,96,73,18,19,6,7,0.4,0.5
2024-10-01T2300,1935A,107.3906,34.3528,宝鸡市,陈仓区环保局家属楼,,42,42,35,20,12,14,,99,65,56,26,9,8,0.5,0.4
2024-10-01T2300,1936A,107.2058,34.3497,宝鸡市,文理学院,,35,35,36,10,6,47,,100,70,21,21,7,8,0.4,0.4
2024-10-01T2300,1937A,107.2386,34.3622,宝鸡市,三迪小学,,39,39,37,18,13,36,,98,69,40,28,8,8,0.4,0.4
2024-10-01T2300,1051A,115.493,38.8632,保定市,游泳馆,,23,23,28,3,4,52,,75,64,6,10,3,3,0.3,0.3
2024-10-01T2300,1052A,115.5213,38.8959,保定市,华电二区,,33,33,26,13,14,47,,70,58,16,13,2,2,0,0
2024-10-01T2300,1053A,115.4713,38.9108,保定市,接待中心,,20,20,24,3,6,42,,70,56,18,12,1,1,0.0,0.1
2024-10-01T2300,1054A,115.4612,38.8416,保定市,地表水厂,,29,29,28,8,8,22,,69,49,38,19,1,2,0,0
2024-10-01T2300,3581A,115.31981,38.95208,保定市,满城区生态环境分局,,19,19,20,3,4,43,,77,59,26,18,2,3,0.3,0.2
2024-10-01T2300,3582A,115.47694,38.76408,保定市,清苑区第二中学,,35,35,32,15,12,18,,70,45,36,14,3,2,0.4,0.3
2024-10-01T2300,3583A,115.62909,39.02311,保定市,徐水物探局,,12,11,15,3,1,27,,70,50,24,13,2,2,0.4,0.4
2024-10-01T2300,4004A,115.4202,38.8656,保定市,双鹰农机,,34,34,29,13,10,32,,76,56,26,14,1,2,0.2,0.2
2024-10-01T2300,4034A,115.5150,38.8590,保定市,植保所站,,30,30,27,18,14,53,,75,64,5,5,3,2,0.2,0.2
2024-10-01T2300,2594A,99.1678,25.1081,保山市,市环境监测站,,22,15,19,15,13,62,,68,64,7,6,6,5,0.4,0.5
2024-10-01T2300,2595A,99.1711,25.1328,保山市,市环保局,,27,27,22,16,12,68,,69,67,5,7,8,7,0.5,0.5
2024-10-01T2300,1867A,109.1436,21.4086,北海市,海滩公园,,28,28,43,10,18,52,,108,74,7,8,7,7,0.4,0.7
2024-10-01T2300,1868A,109.0981,21.4661,北海市,新市环保局,,18,18,38,9,18,53,,105,73,7,13,5,7,0.7,0.8
2024-10-01T2300,1869A,109.1778,21.5233,北海市,北海工业园,,18,16,38,12,23,52,,104,73,7,11,6,8,0.6,0.6
2024-10-01T2300,3400A,109.1911,21.4415,北海市,龙潭自来水厂,,24,24,33,11,23,56,,103,72,6,9,6,8,0.6,0.7
2024-10-01T2300,1001A,116.3621,39.8784,北京市,万寿西宫,,13,6,6,3,2,39,,61,49,7,14,1,2,0.2,0.2
2024-10-01T2300,1002A,116.2202,40.2915,北京市,定陵,,6,6,5,3,2,4,,48,34,5,5,2,2,0.1,0.1
2024-10-01T2300,1003A,116.4174,39.9289,北京市,东四,,13,12,9,3,3,41,,65,54,14,9,3,2,0.3,0.3
2024-10-01T2300,1004A,116.4072,39.8863,北京市,天坛,,12,6,6,3,3,37,,63,50,12,10,3,3,0.2,0.2
2024-10-01T2300,1005A,116.462,39.9365,北京市,农展馆,,13,7,7,3,2,39,,58,48,13,11,2,2,0.2,0.2
2024-10-01T2300,1006A,116.3392,39.9295,北京市,官园,,13,7,7,3,4,39,,60,49,8,6,7,6,0.4,0.4
2024-10-01T2300,1007A,116.2878,39.9611,北京市,海淀万柳,,13,8,8,3,2,40,,60,50,13,12,2,2,0.2,0.2
2024-10-01T2300,1008A,116.6636,40.135,北京市,顺义新城,,13,6,7,3,3,40,,58,51,13,17,3,3,0.2,0.2
2024-10-01T2300,1009A,116.6275,40.3275,北京市,怀柔镇,,18,6,4,3,2,55,,65,58,5,7,3,3,0.2,0.2
2024-10-01T2300,1010A,116.2296,40.217,北京市,昌平镇,,10,8,8,3,2,32,,54,39,5,11,3,3,0.2,0.2
2024-10-01T2300,1011A,116.3966,39.9821,北京市,奥体中心,,13,7,8,3,3,39,,57,46,19,19,1,1,0.2,0.2
2024-10-01T2300,1012A,116.184,39.9136,北京市,古城,,14,7,10,3,3,44,,58,51,10,7,3,3,0.3,0.3
2024-10-01T2300,3281A,115.9718,40.4529,北京市,延庆夏都,,12,6,5,3,2,37,,62,49,6,5,3,3,0.2,0.2
2024-10-01T2300,3417A,117.0709,40.1465,北京市,平谷新城,,12,12,12,7,6,18,,64,33,10,10,3,3,0.3,0.2
2024-10-01T2300,3418A,116.8336,40.4095,北京市,密云新城,,12,12,6,3,2,17,,62,42,7,5,3,3,0.2,0.2
2024-10-01T2300,3671A,116.088,39.9726,北京市,门头沟三家店,,15,10,10,3,2,46,,66,57,6,9,1,4,0.0,0.1
2024-10-01T2300,3672A,116.1541,39.8204,北京市,丰台云岗,,13,6,5,3,2,41,,57,47,6,6,2,2,0.2,0.2
2024-10-01T2300,3673A,116.6804,39.9081,北京市,通州东关,,15,8,10,3,3,45,,64,54,11,16,3,3,0.2,0.2
2024-10-01T2300,3674A,115.9577,39.7603,北京市,房山燕山,,16,6,4,3,2,50,,58,52,6,6,3,1,0.2,0.1
2024-10-01T2300,3675A,116.4672,39.7733,北京市,大兴旧宫,,13,7,7,3,2,39,,64,53,13,9,3,3,0.2,0.1
2024-10-01T2300,3694A,115.986,40.4563,北京市,延庆石河营,,11,8,5,3,2,34,,61,45,9,6,3,3,0.2,0.2
2024-10-01T2300,3695A,116.6151,40.3053,北京市,怀柔新城,,18,6,3,3,2,56,,66,59,2,2,3,3,0.1,0.1
2024-10-01T2300,3696A,116.2545,39.8768,北京市,丰台小屯,,13,9,9,3,3,41,,56,47,14,11,1,1,0.3,0.3
2024-10-01T2300,3697A,116.84,40.3844,北京市,密云镇,,11,11,8,3,3,17,,60,42,19,13,2,3,0.3,0.3
2024-10-01T2300,1761A,123.8275,41.3064,本溪市,大峪,,16,16,15,6,7,28,,56,42,14,17,9,10,0.5,0.6
2024-10-01T2300,1762A,123.7567,41.3325,本溪市,溪湖,,35,35,20,9,8,7,,55,28,29,22,9,10,0.5,0.6
2024-10-01T2300,1763A,123.7169,41.3094,本溪市,彩屯,,25,23,22,17,15,10,,55,34,28,20,8,10,0.4,0.5
2024-10-01T2300,1764A,123.7669,41.2864,本溪市,东明,,36,36,26,24,10,11,,61,35,44,30,5,7,0.8,0.8
2024-10-01T2300,1765A,123.7992,41.2664,本溪市,新立屯,,13,10,17,8,6,28,,63,37,25,24,5,6,0.4,0.5
2024-10-01T2300,1766A,123.8142,41.3472,本溪市,威宁,颗粒物(PM10),54,58,26,12,11,6,,63,26,36,21,9,9,0.4,0.4
2024-10-01T2300,2587A,105.2864,27.3125,毕节市,八中,,28,15,6,11,7,88,,82,76,6,6,6,6,0.3,0.3
2024-10-01T2300,2588A,105.31,27.2944,毕节市,师专,,29,16,7,11,5,90,,82,79,5,5,7,6,0.4,0.4
2024-10-01T2300,3537A,105.3631,27.3533,毕节市,长征村,,29,15,7,9,5,92,,89,85,4,4,6,6,0.4,0.4
2024-10-01T2300,1629A,118.0018,37.3617,滨州市,第二水厂,,18,12,23,3,9,57,,82,71,14,15,4,6,0.0,0.4
2024-10-01T2300,1630A,117.9776,37.393,滨州市,北中新校,,18,12,23,3,8,55,,82,70,8,9,6,6,0.2,0.4
2024-10-01T2300,3514A,117.9378,37.3956,滨州市,中海酒店,,17,17,20,7,12,53,,86,74,16,15,4,4,0.3,0.5
2024-10-01T2300,3515A,117.9378,37.3553,滨州市,开发区一中,,31,31,28,9,10,52,,82,69,18,19,13,10,0.5,0.7
2024-10-01T2300,3516A,118.0917,37.694,滨州市,金海六路,,19,19,20,3,6,32,,83,62,25,17,6,4,0.6,0.6
2024-10-01T2300,4028A,117.9956,37.3753,滨州市,滨州市西街道办事处,,18,12,16,7,13,56,,85,72,13,12,6,7,0.2,0.4
2024-10-01T2300,2311A,115.8072,33.8399,亳州市,污水处理厂,颗粒物(PM10),76,101,47,38,11,40,,103,81,42,18,15,6,0.4,0.3
2024-10-01T2300,2312A,115.7789,33.8518,亳州市,三国揽胜宫,颗粒物(PM10),68,86,38,30,13,63,,106,96,20,11,11,5,0.4,0.3
2024-10-01T2300,3332A,115.7633,33.8034,亳州市,亳州学院,颗粒物(PM10),76,102,42,21,8,81,,112,106,18,11,7,4,0.3,0.3
2024-10-01T2300,2693A,82.0485,44.8556,博尔塔拉蒙古自治州,市党校,颗粒物(PM10),51,52,36,13,18,60,,102,94,34,16,6,6,0.3,0.3
2024-10-01T2300,2694A,82.0806,44.8969,博尔塔拉蒙古自治州,市环保局,颗粒物(PM10),63,75,46,24,16,18,,99,80,49,17,6,5,0.8,0.4
2024-10-01T2300,1071A,116.8842,38.2991,沧州市,沧县城建局,,27,27,30,14,12,45,,75,66,14,18,2,2,0.2,0.3
2024-10-01T2300,1072A,116.8584,38.3254,沧州市,电视转播站,,29,29,27,3,7,48,,80,69,25,25,4,4,0.3,0.4
2024-10-01T2300,1073A,116.8709,38.3228,沧州市,市环保局,,30,29,31,21,19,44,,77,62,20,18,3,2,0.2,0.3
2024-10-01T2300,3324A,116.8136,38.3004,沧州市,河北水利电力学院,,20,14,21,14,16,47,,78,65,25,22,2,3,0.4,0.3
2024-10-01T2300,2622A,97.1806,31.1273,昌都市,昌都监测站,,19,19,8,10,6,33,,85,72,30,10,8,7,1.2,0.7
2024-10-01T2300,3719A,97.1714,31.1406,昌都市,昌都会议中心,,18,18,12,9,6,44,,86,70,16,7,7,8,0.4,0.4
2024-10-01T2300,2690A,88.1236,43.8886,昌吉回族自治州,天山天池,,19,19,14,8,4,59,,77,51,4,6,8,7,0.5,0.5
2024-10-01T2300,2692A,87.2717,44.0297,昌吉回族自治州,新区政务中心,颗粒物(PM10),67,84,53,37,27,2,,82,55,83,38,10,9,1.3,0.9
2024-10-01T2300,3613A,87.3095,44.0142,昌吉回族自治州,亚心广场,颗粒物(PM10),79,107,64,36,18,13,,81,57,80,42,7,6,1.1,0.9
2024-10-01T2300,1119A,125.3325,43.9166,长春市,食品厂,颗粒物(PM10),54,57,35,23,13,15,,49,24,39,27,6,6,0.3,0.3
2024-10-01T2300,1120A,125.2863,43.9027,长春市,客车厂,,42,42,21,26,12,21,,49,30,34,25,7,8,0.4,0.3
2024-10-01T2300,1121A,125.2841,43.8463,长春市,邮电学院,,43,43,17,18,7,12,,57,32,42,18,7,8,0.3,0.2
2024-10-01T2300,1122A,125.3716,43.8772,长春市,劳动公园,,45,45,24,15,6,21,,60,42,40,20,7,8,0.3,0.2
2024-10-01T2300,1123A,125.3297,43.8805,长春市,园林处,,41,41,17,12,5,22,,56,38,36,18,4,5,0.3,0.3
2024-10-01T2300,1124A,125.4605,43.79,长春市,净月潭,,31,31,19,9,3,19,,55,35,20,15,6,6,0.3,0.3
2024-10-01T2300,1126A,125.3863,43.8447,长春市,经开区环卫处,,50,50,18,19,6,10,,57,34,42,20,8,8,0.4,0.3
2024-10-01T2300,1127A,125.245,43.7783,长春市,高新区管委会,,32,32,19,19,9,12,,58,30,37,18,6,6,0.4,0.3
2024-10-01T2300,1128A,125.1761,43.8325,长春市,岱山公园,,40,40,23,17,8,24,,57,27,22,22,5,5,0.5,0.4
2024-10-01T2300,1335A,113.0833,28.2325,长沙市,经开区环保局,,43,43,38,10,13,93,,90,90,18,14,5,3,0.2,0.3
2024-10-01T2300,1336A,112.8872,28.2189,长沙市,高开区环保局,颗粒物(PM10),59,67,40,21,15,84,,86,86,11,7,6,5,0.3,0.3
2024-10-01T2300,1337A,113.0792,28.2053,长沙市,马坡岭,,42,42,39,13,12,90,,88,88,14,8,6,5,0.3,0.4
2024-10-01T2300,1338A,112.9394,28.19,长沙市,湖南师范大学,颗粒物(PM10),53,55,37,22,19,86,,88,88,13,9,9,6,0.3,0.4
2024-10-01T2300,1339A,113.0178,28.1322,长沙市,雨花区环保局,,44,44,36,16,20,83,,86,86,16,9,8,6,0.5,0.5
2024-10-01T2300,1340A,112.9792,28.2597,长沙市,伍家岭,颗粒物(PM10),52,53,38,19,14,71,,81,81,20,10,7,4,0.6,0.6
2024-10-01T2300,1341A,113.0014,28.1944,长沙市,火车新站,颗粒物(PM10),52,53,39,24,18,80,,82,82,18,11,7,5,0.4,0.5
2024-10-01T2300,1342A,112.9844,28.1178,长沙市,天心区环保局,颗粒物(PM10),54,58,41,20,19,76,,79,79,20,13,6,4,0.5,0.6
2024-10-01T2300,1343A,112.8908,28.1308,长沙市,湖南中医药大学,颗粒物(PM10),51,51,39,17,14,91,,91,91,10,8,7,5,0.7,0.7
2024-10-01T2300,1344A,112.9581,28.3611,长沙市,沙坪,,39,33,34,27,18,87,,90,90,7,5,10,8,0.4,0.5
2024-10-01T2300,1727A,113.1147,36.1547,长治市,清华站,颗粒物(PM10),54,58,48,27,10,37,,101,83,38,17,19,11,0.9,0.5
2024-10-01T2300,1728A,113.1031,36.1989,长治市,监测站,,48,48,47,22,14,41,,94,77,32,18,23,15,0.8,0.5
2024-10-01T2300,1730A,113.0886,36.2125,长治市,审计局,,42,42,48,12,10,50,,95,80,22,14,21,12,0.5,0.2
2024-10-01T2300,1731A,113.0844,36.1856,长治市,长治八中,颗粒物(PM10),55,60,58,14,12,60,,95,81,21,14,20,11,0.6,0.5
2024-10-01T2300,2845A,113.1569,36.1911,长治市,德盛苑,,50,50,47,12,12,58,,100,83,20,14,12,10,1.0,0.6
2024-10-01T2300,3568A,113.06,36.0464,长治市,向阳小学,颗粒物(PM10),55,60,63,19,16,46,,96,78,34,17,10,6,0.5,0.3
2024-10-01T2300,3569A,112.8792,36.3144,长治市,屯留一中,,38,38,54,15,12,56,,99,81,19,13,7,9,1.3,1.2
2024-10-01T2300,3570A,113.235,36.3489,长治市,潞城四中,,50,50,66,18,15,54,,105,83,25,18,7,9,0.2,0.4
2024-10-01T2300,1854A,111.6975,28.9703,常德市,市二中,,,71,36,31,9,,,101,,44,13,19,10,0.6,0.5
2024-10-01T2300,3138A,111.7153,29.0289,常德市,武陵区永安,颗粒物(PM10),56,61,28,30,12,76,,95,93,22,13,10,9,0.6,0.5
2024-10-01T2300,3139A,111.6892,28.9881,常德市,鼎城区玉霞,颗粒物(PM10),71,91,33,32,11,68,,101,95,26,11,21,11,0.6,0.5
2024-10-01T2300,3140A,111.6625,29.0531,常德市,武陵区长庚,颗粒物(PM10),59,68,31,24,12,67,,95,88,28,15,11,10,0.3,0.3
2024-10-01T2300,1196A,119.9633,31.762,常州市,市监测站,,25,17,21,10,12,79,,82,82,12,10,8,7,0.4,0.4
2024-10-01T2300,1200A,119.9468,31.7069,常州市,武进监测站,,26,22,26,7,10,82,,84,83,7,6,10,7,0.5,0.6
2024-10-01T2300,1201A,119.9255,31.9087,常州市,安家,,25,22,24,10,11,79,,81,79,16,13,10,8,0.4,0.4
2024-10-01T2300,3002A,119.9805,31.8174,常州市,行政中心,,23,23,24,10,10,72,,79,78,14,10,7,8,0.4,0.4
2024-10-01T2300,3003A,120.0522,31.7748,常州市,经开区,,24,23,21,8,8,76,,82,78,15,11,7,6,0.1,0
2024-10-01T2300,3010A,119.9025,31.7964,常州市,钟楼,,25,,14,10,10,78,,76,75,12,12,9,8,0.4,0.5
2024-10-01T2300,3429A,119.8598,31.7066,常州市,武进经发区,,22,22,24,11,12,62,,77,71,21,12,7,6,0.2,0.5
2024-10-01T2300,3430A,119.5826,31.7245,常州市,金坛城区,,25,22,23,12,11,80,,86,82,11,9,8,8,0.5,0.6
2024-10-01T2300,2220A,120.4318,41.5881,朝阳市,西梁,,35,30,29,24,12,21,,64,30,23,18,6,6,0.7,0.5
2024-10-01T2300,2221A,120.4521,41.5646,朝阳市,河畔小区,,18,18,17,11,7,37,,62,42,13,13,8,8,0.6,0.5
2024-10-01T2300,2222A,120.4176,41.5648,朝阳市,八里堡,,34,34,28,17,11,25,,65,33,26,23,9,9,0.7,0.6
2024-10-01T2300,2223A,120.3806,41.5969,朝阳市,农业园区,,22,22,14,11,8,15,,62,35,22,15,6,7,0.5,0.4
2024-10-01T2300,1705A,116.6367,23.6719,潮州市,西园路,,17,,15,10,10,52,,44,44,7,6,4,4,0.5,0.3
2024-10-01T2300,3026A,116.6183,23.6608,潮州市,市政府,,17,16,15,8,7,54,,49,49,6,5,5,5,0.5,0.3
2024-10-01T2300,4036A,116.6461,23.6761,潮州市,金山,,16,15,14,8,8,51,,47,47,5,4,6,6,0.6,0.5
2024-10-01T2300,2472A,113.0073,25.9061,郴州市,马头岭,,37,37,38,12,15,36,,51,48,9,8,7,7,0.4,0.3
2024-10-01T2300,2473A,113.0116,25.8226,郴州市,市职中,,33,23,33,23,22,51,,51,51,9,10,4,4,0.4,0.4
2024-10-01T2300,2474A,113.0161,25.8001,郴州市,兴隆步行街,,,29,36,26,19,52,,49,49,13,13,4,4,,0.5
2024-10-01T2300,2475A,113.0383,25.8071,郴州市,市审计局,,26,24,37,18,22,52,,49,48,7,9,5,4,0.4,0.4
2024-10-01T2300,2476A,113.0348,25.7759,郴州市,市环保局,,33,32,40,23,20,52,,47,47,7,9,4,4,0.5,0.5
2024-10-01T2300,1431A,103.9728,30.7236,成都市,金泉两河,,20,20,19,3,3,39,,96,75,22,18,3,3,0.4,0.4
2024-10-01T2300,1432A,104.176,30.6872,成都市,十里店,,20,12,15,3,7,42,,97,82,39,24,1,1,0.6,0.6
2024-10-01T2300,1433A,104.079,30.5706,成都市,三瓦窑,,31,31,25,9,15,55,,2,,30,38,4,4,0.6,0.6
2024-10-01T2300,1434A,104.1114,30.63,成都市,沙河铺,,23,23,28,16,11,30,,96,74,37,24,3,3,0.6,0.5
2024-10-01T2300,1437A,104.0786,30.6531,成都市,君平街,,30,30,23,8,10,42,,102,89,36,25,4,4,0.5,0.5
2024-10-01T2300,2880A,104.0239,30.65639,成都市,大石西路,,28,28,25,16,10,52,,104,89,25,22,4,3,0.4,0.4
2024-10-01T2300,3136A,104.2725,30.5589,成都市,龙泉驿区区政府,,24,17,16,7,8,75,,99,88,19,22,2,2,0.3,0.4
2024-10-01T2300,3357A,104.0106,30.6931,成都市,金博路,,20,12,20,3,5,62,,92,82,22,21,2,2,0.4,0.5
2024-10-01T2300,3359A,104.0578,30.5225,成都市,华阳,,27,27,26,12,15,52,,96,83,21,19,4,3,0.5,0.5
2024-10-01T2300,3487A,104.2394,30.5319,成都市,车城东七路,,28,15,21,8,12,87,,107,95,15,16,2,2,0.3,0.3
2024-10-01T2300,3488A,104.3853,30.7453,成都市,青白江技师分院,,24,,14,3,8,75,,102,83,16,17,2,2,0.4,0.6
2024-10-01T2300,3489A,104.0789,30.4072,成都市,科学城,,29,17,20,7,12,90,,108,96,10,20,4,4,0.3,0.4
2024-10-01T2300,4011A,103.8506,30.6947,成都市,光华大道三段,,23,23,20,14,9,54,,98,82,23,16,3,3,0.5,0.5
2024-10-01T2300,1062A,117.9531,40.9081,承德市,铁路,,8,8,17,3,6,18,,62,37,16,18,8,8,0.3,0.2
2024-10-01T2300,1063A,117.9392,40.9763,承德市,中国银行,,29,29,21,14,4,6,,62,40,26,17,5,5,0.4,0.3
2024-10-01T2300,1064A,117.9503,40.928,承德市,开发区,,25,25,22,14,10,11,,62,41,26,19,6,7,0.2,0.2
2024-10-01T2300,1065A,117.8051,40.9655,承德市,文化中心,,37,37,29,9,5,4,,62,32,30,20,8,9,0.4,0.3
2024-10-01T2300,1066A,117.9268,41.0026,承德市,离宫,,35,,2,24,19,18,,54,34,7,7,4,4,0.4,0.3
2024-10-01T2300,2314A,117.47,30.6618,池州市,池州学院,,36,36,25,17,12,49,,81,78,35,14,25,8,0.4,0.3
2024-10-01T2300,3237A,117.4918,30.6617,池州市,展览馆,,32,32,24,16,16,54,,81,77,24,10,8,5,0.4,0.3
2024-10-01T2300,3333A,117.5627,30.695,池州市,第八中学,,24,24,27,8,9,57,,79,76,17,12,6,4,0.5,0.5
2024-10-01T2300,3334A,117.5038,30.6243,池州市,第十二中学,,25,25,25,8,11,66,,80,79,18,15,6,5,0.5,0.5
2024-10-01T2300,1744A,118.9233,42.2816,赤峰市,松山一中,,18,18,15,10,6,50,,65,48,16,16,9,9,0.2,0.2
2024-10-01T2300,1745A,118.9576,42.2728,赤峰市,哈达街,,22,16,15,15,8,50,,66,51,12,12,6,7,0.4,0.3
2024-10-01T2300,1746A,118.8788,42.2554,赤峰市,天义路,,24,24,13,13,9,48,,57,45,10,14,7,7,0.2,0.2
2024-10-01T2300,3058A,119.2658,42.0353,赤峰市,银河街,,30,30,17,21,10,15,,63,41,31,17,13,14,0.6,0.4
2024-10-01T2300,3286A,118.9359,42.3147,赤峰市,桥北物流园区,,23,23,17,8,8,39,,69,39,17,19,11,9,0.7,0.6
2024-10-01T2300,2521A,107.3476,22.4136,崇左市,市环保局江州分局,,15,6,14,3,7,46,,45,45,3,4,2,2,0.7,0.6
2024-10-01T2300,2522A,107.3702,22.3707,崇左市,城南新区,,14,,12,3,8,43,,46,44,6,5,4,3,0.7,0.7
2024-10-01T2300,2298A,118.3093,32.3153,滁州市,老年大学,,37,37,26,17,15,79,,101,93,14,13,3,5,0.4,0.4
2024-10-01T2300,2299A,118.3244,32.2786,滁州市,人大宾馆,,40,40,31,13,12,90,,100,93,15,12,7,6,0.3,0.3
2024-10-01T2300,3207A,118.3118,32.3038,滁州市,市政府原办公楼,,38,38,25,19,19,81,,98,92,16,14,6,5,0.3,0.3
2024-10-01T2300,3331A,118.3267,32.2634,滁州市,图书馆,,37,37,21,13,11,92,,100,94,15,14,5,4,0.4,0.3
2024-10-01T2300,2605A,101.5482,25.0441,楚雄彝族自治州,州环境监测站,,17,11,7,3,4,52,,58,55,7,8,10,12,0.6,0.7
2024-10-01T2300,2606A,101.538,25.0492,楚雄彝族自治州,市经济开发区,,18,15,12,12,6,49,,57,54,10,10,7,9,0.7,0.6
2024-10-01T2300,2548A,107.5277,31.2827,达州市,达州职业技术学院,,24,20,24,7,6,3,,65,38,48,26,4,7,0.7,0.7
2024-10-01T2300,2549A,107.5086,31.2186,达州市,市环境监测站,,29,29,28,9,3,23,,67,51,37,28,6,9,0.4,0.5
2024-10-01T2300,2550A,107.4988,31.2132,达州市,凤凰小区,,24,24,23,7,6,31,,75,59,37,27,8,10,0.5,0.6
2024-10-01T2300,2551A,107.5082,31.1986,达州市,达县机关宾馆,,36,36,25,7,7,25,,69,49,45,33,6,7,0.4,0.4
2024-10-01T2300,2552A,107.4644,31.2124,达州市,市政中心,,35,35,32,9,7,19,,62,49,54,34,11,16,0.5,0.7
2024-10-01T2300,2614A,100.1542,25.7054,大理白族自治州,大理市环境监测站,,29,23,13,20,13,28,,67,56,24,7,9,7,0.8,0.7
2024-10-01T2300,2615A,100.2171,25.5811,大理白族自治州,大理古城,,24,24,14,6,8,42,,59,52,9,9,7,7,0.5,0.6
2024-10-01T2300,1109A,121.612,38.9741,大连市,甘井子,,22,8,9,6,4,69,,88,74,13,13,7,8,0.6,0.6
2024-10-01T2300,1110A,121.565,38.9511,大连市,周水子,,14,10,10,7,3,40,,53,53,28,15,7,7,0.5,0.4
2024-10-01T2300,1111A,121.5637,38.8845,大连市,星海三站,,23,10,11,3,4,72,,86,77,3,6,6,6,0.2,0.2
2024-10-01T2300,1112A,121.6302,38.9117,大连市,青泥洼桥,,17,13,10,6,4,53,,82,68,16,12,6,7,0.4,0.1
2024-10-01T2300,1113A,121.6251,38.8638,大连市,傅家庄,,20,8,7,3,3,63,,81,74,7,8,6,6,0.3,0.3
2024-10-01T2300,1114A,121.5213,38.8661,大连市,七贤岭,,21,12,10,3,3,67,,88,79,8,8,5,6,0.5,0.5
2024-10-01T2300,1115A,121.2529,38.8061,大连市,旅顺,,25,,7,3,4,78,,90,84,8,8,5,6,0.3,0.3
2024-10-01T2300,1116A,121.7485,39.1311,大连市,金州,,18,15,10,6,5,57,,84,74,11,13,5,7,0.4,0.4
2024-10-01T2300,1117A,121.7811,39.0496,大连市,开发区,,20,12,13,6,5,64,,82,72,11,9,11,11,0.1,0.1
2024-10-01T2300,1118A,121.9762,39.0631,大连市,双D港,,21,14,11,3,4,66,,88,74,13,12,6,6,0.5,0.6
2024-10-01T2300,1789A,124.81117,46.03138,大庆市,大同区,,19,18,18,13,14,39,,57,39,6,11,4,3,0.2,0.2
2024-10-01T2300,1790A,125.129,46.533,大庆市,龙凤区,,36,32,36,25,18,36,,58,42,18,17,3,4,0.5,0.4
2024-10-01T2300,1791A,124.902,46.408,大庆市,红岗区,,25,25,21,11,12,40,,56,43,9,17,5,6,0.3,0.3
2024-10-01T2300,1792A,125.153,46.586,大庆市,萨尔图区,,20,20,26,10,12,37,,53,38,17,17,6,6,0.3,0.3
2024-10-01T2300,3481A,125.141,46.634,大庆市,萨区政府监测点,,15,,17,10,10,38,,57,42,12,14,6,6,0.2,0.2
2024-10-01T2300,1721A,113.3819,40.1097,大同市,果树场,,16,14,12,3,6,10,,66,51,31,13,6,7,0.6,0.5
2024-10-01T2300,1723A,113.2994,40.0758,大同市,云冈宾馆,,34,34,14,9,6,18,,74,55,39,13,8,7,0.6,0.3
2024-10-01T2300,1724A,113.3444,40.0917,大同市,大同大学,,22,22,15,9,5,18,,72,48,36,12,16,10,0.7,0.4
2024-10-01T2300,1725A,113.2661,40.1269,大同市,安家小村,,23,23,12,3,4,17,,70,51,30,11,11,11,0.5,0.4
2024-10-01T2300,1726A,113.2711,40.0844,大同市,教育学院,,31,31,18,9,7,30,,66,46,28,19,12,8,0.5,0.4
2024-10-01T2300,3282A,113.3397,40.0597,大同市,大同市卫生学校,,18,18,16,3,5,36,,71,58,24,11,6,7,0.3,0.2
2024-10-01T2300,3565A,113.1367,40.1122,大同市,云冈站,,20,20,15,7,5,19,,74,50,26,12,9,9,0.3,0.2
2024-10-01T2300,3566A,113.1186,40.2556,大同市,图书馆,,20,20,11,9,5,26,,70,45,9,10,8,8,0.4,0.4
2024-10-01T2300,3567A,113.5931,40.0461,大同市,区一中,,21,21,16,3,2,27,,70,51,11,12,12,12,0.7,0.6
2024-10-01T2300,3676A,113.2802,40.0995,大同市,第二人民医院,,27,27,16,7,7,24,,72,52,31,11,14,11,0.6,0.4
2024-10-01T2300,2269A,124.1069,50.4097,大兴安岭地区,科技局,细颗粒物(PM2.5),54,41,32,38,27,35,,64,50,4,5,6,7,0.4,0.4
2024-10-01T2300,3663A,124.1164,50.4278,大兴安岭地区,红旗社区,细颗粒物(PM2.5),63,61,34,45,27,6,,60,31,31,14,5,3,0.8,0.6
2024-10-01T2300,1600A,124.3303,40.0625,丹东市,江湾东路,,13,11,9,3,4,40,,63,52,9,8,8,8,0.3,0.4
2024-10-01T2300,1601A,124.4256,40.1503,丹东市,临江后街,,15,15,11,3,3,40,,71,52,12,9,5,6,0.5,0.7
2024-10-01T2300,1602A,124.3933,40.1461,丹东市,元宝山,,17,10,10,7,8,52,,62,56,4,6,4,4,0.4,0.7
2024-10-01T2300,1603A,124.3633,40.1092,丹东市,民主桥,,16,14,14,3,3,50,,63,50,12,13,5,4,0.3,0.4
2024-10-01T2300,3541A,109.5726,19.5167,儋州市,第一中学子站,颗粒物(PM10),56,62,30,35,16,75,,81,81,3,3,5,4,0.8,0.6
2024-10-01T2300,3542A,109.5567,19.5187,儋州市,东坡学校子站,颗粒物(PM10),53,55,31,32,16,83,,91,91,5,4,5,4,0.7,0.6
2024-10-01T2300,2616A,98.5842,24.428,德宏傣族景颇族自治州,德宏州监测站,,24,24,21,10,10,52,,53,53,11,12,8,10,0.7,0.7
2024-10-01T2300,3677A,98.5881,24.4368,德宏傣族景颇族自治州,芒市人民政府综合楼,,20,20,22,7,10,55,,54,54,8,11,7,11,0.6,0.7
2024-10-01T2300,1901A,104.4239,31.1208,德阳市,东山公园,,22,19,21,8,10,69,,103,94,14,14,2,2,0.4,0.5
2024-10-01T2300,1902A,104.3826,31.1317,德阳市,西小区,,24,24,30,13,15,54,,104,90,25,23,1,2,0.4,0.5
2024-10-01T2300,1904A,104.3553,31.1091,德阳市,耐火材料厂,,23,23,29,13,14,43,,104,87,24,21,3,4,0.3,0.4
2024-10-01T2300,3639A,104.4019,31.1244,德阳市,市教育局,,28,28,27,13,13,52,,101,86,24,21,3,2,0.4,0.4
2024-10-01T2300,1622A,116.3032,37.4674,德州市,儿童乐园,,31,31,29,3,8,44,,82,64,24,18,10,8,0.4,0.4
2024-10-01T2300,1624A,116.2991,37.4451,德州市,监理站,,16,14,23,3,5,50,,84,70,21,16,6,7,0.3,0.4
2024-10-01T2300,3066A,116.2721,37.4379,德州市,九衢泉纯净水厂,,15,14,25,3,8,45,,82,69,25,16,8,9,0.3,0.4
2024-10-01T2300,3371A,116.3728,37.4403,德州市,开发区人民医院,,19,19,26,7,6,52,,88,72,25,15,8,8,0.3,0.4
2024-10-01T2300,3372A,116.3572,37.4094,德州市,太阳城中学,,22,22,27,7,6,34,,82,65,30,19,6,7,0.3,0.4
2024-10-01T2300,3511A,116.5652,37.3319,德州市,陵城艺术中心,,19,19,29,3,4,56,,84,73,16,23,9,9,0.5,0.5
2024-10-01T2300,2621A,99.7056,27.8317,迪庆藏族自治州,迪庆州站,,19,,16,13,10,47,,60,54,9,9,8,10,0.5,0.5
2024-10-01T2300,3180A,99.7136,27.8094,迪庆藏族自治州,质量技术监督局,,15,11,13,6,7,46,,63,54,8,8,6,6,0.5,0.5
2024-10-01T2300,2663A,104.6241,35.5734,定西市,东关小学,颗粒物(PM10),53,56,35,35,23,35,,104,85,26,13,5,6,0.5,0.3
2024-10-01T2300,2664A,104.6194,35.5934,定西市,供电公司,,39,39,32,23,18,12,,101,78,54,16,8,7,0.6,0.5
2024-10-01T2300,1389A,113.7547,23.0494,东莞市,莞城梨川,,29,29,33,12,15,57,,83,68,10,14,7,6,0.7,0.7
2024-10-01T2300,1390A,113.7944,23.0128,东莞市,东城石井,,21,21,23,10,13,58,,79,67,9,12,6,6,0.8,0.7
2024-10-01T2300,1391A,113.7383,22.9658,东莞市,南城西平,,25,25,30,11,14,60,,84,75,11,15,3,4,0.8,0.8
2024-10-01T2300,3319A,113.7338,23.0381,东莞市,万江金泰,,24,24,31,10,16,58,,85,69,8,13,8,9,0.5,0.5
2024-10-01T2300,3626A,113.7533,23.0202,东莞市,南城元岭,,29,29,31,10,12,57,,84,70,6,9,8,8,0.7,0.6
2024-10-01T2300,3627A,113.7875,23.0457,东莞市,东城主山,,22,22,26,12,15,60,,85,72,11,14,7,7,0.6,0.5
2024-10-01T2300,1666A,118.6614,37.4309,东营市,市环保局,,20,19,18,3,5,62,,95,82,27,21,4,3,0.4,0.3
2024-10-01T2300,3036A,118.6904,37.4338,东营市,开发区管委会,,24,24,22,3,8,60,,96,82,14,14,2,2,0.2,0.2
2024-10-01T2300,3365A,118.5719,37.565,东营市,垦利区民丰路,,15,14,17,3,6,48,,80,66,22,18,10,9,0,0.2
2024-10-01T2300,3498A,118.5055,37.8612,东营市,河口城区,,22,22,17,3,6,51,,81,69,22,22,5,6,0.2,0.3
2024-10-01T2300,3646A,118.4978,37.4623,东营市,胜利站,,18,18,22,3,7,50,,87,72,16,16,11,7,0.1,0.3
2024-10-01T2300,3734A,118.35,37.26,东营市,理想之城,,18,17,21,3,11,56,,87,74,15,19,5,4,0.1,0.2
2024-10-01T2300,1591A,110.0023,39.8129,鄂尔多斯市,综合楼,颗粒物(PM10),59,68,103,22,16,16,,90,67,64,13,20,9,0.7,0.4
2024-10-01T2300,1592A,109.9486,39.8261,鄂尔多斯市,巴音孟克林场办事处,颗粒物(PM10),53,56,94,19,20,16,,78,51,60,16,6,9,0.6,0.3
2024-10-01T2300,1593A,109.7736,39.5986,鄂尔多斯市,康泽苑,,22,22,85,9,20,31,,86,58,24,10,6,7,0.4,0.3
2024-10-01T2300,1594A,109.8119,39.5989,鄂尔多斯市,华泰汽车城,颗粒物(PM10),51,51,89,12,22,7,,83,46,42,12,9,8,0.8,0.4
2024-10-01T2300,1595A,109.9734,39.7884,鄂尔多斯市,奥林花园,,,,98,24,20,6,,81,49,60,19,7,5,0.8,0.4
2024-10-01T2300,2436A,114.8938,30.3994,鄂州市,市政府,,27,18,16,10,4,85,,99,97,21,13,9,9,0.5,0.4
2024-10-01T2300,2437A,114.8989,30.3714,鄂州市,赵家坝,,28,21,18,9,3,88,,101,99,17,11,10,10,0.4,0.4
2024-10-01T2300,3654A,114.8094,30.4089,鄂州市,精准医疗中心,,31,31,22,15,4,84,,103,99,14,9,5,5,0.5,0.5
2024-10-01T2300,2454A,109.4978,30.2981,恩施土家族苗族自治州,湖北民院,,40,40,19,21,8,26,,70,50,22,13,9,8,0.6,0.5
2024-10-01T2300,2455A,109.4707,30.2798,恩施土家族苗族自治州,州电力总公司,,31,31,15,19,7,29,,71,50,22,14,6,7,0.6,0.6
2024-10-01T2300,3549A,109.5061,30.3772,恩施土家族苗族自治州,龙凤新区,,25,24,11,17,7,31,,67,44,13,10,6,6,0.6,0.6
2024-10-01T2300,2499A,108.3411,21.6158,防城港市,沙万,,15,,22,8,17,47,,66,53,5,7,7,9,0.6,0.6
2024-10-01T2300,2500A,108.3514,21.7731,防城港市,防城档案局,,24,24,51,9,19,40,,47,43,8,13,8,8,0.6,0.7
2024-10-01T2300,2501A,108.3506,21.6414,防城港市,大海花园,,15,15,24,8,15,41,,60,46,6,8,6,7,0.7,0.8
2024-10-01T2300,1371A,113.1294,23.0067,佛山市,湾梁,,22,22,34,7,15,59,,110,80,16,20,8,8,0.6,0.7
2024-10-01T2300,1372A,113.1083,23.0478,佛山市,华材职中,,22,22,43,6,18,51,,100,71,18,28,9,9,0.5,0.5
2024-10-01T2300,1373A,113.144,23.0453,佛山市,南海气象局,,18,18,31,11,17,56,,103,76,12,14,8,9,0.5,0.5
2024-10-01T2300,1374A,113.2881,22.8094,佛山市,顺德苏岗,,17,16,29,3,14,53,,107,79,12,16,8,9,0.7,0.6
2024-10-01T2300,1376A,112.8383,22.8678,佛山市,高明孔堂,,20,19,37,8,19,62,,104,81,12,19,6,7,0.4,0.5
2024-10-01T2300,1377A,112.8836,23.1588,佛山市,三水监测站,,19,7,36,3,16,58,,92,73,13,27,6,8,0.5,0.5
2024-10-01T2300,1378A,112.867,23.185,佛山市,三水云东海,,17,10,36,6,20,54,,88,71,19,26,9,10,0.6,0.6
2024-10-01T2300,3625A,113.2544,22.7642,佛山市,容桂街道办,,18,14,28,7,17,56,,112,83,14,20,7,8,0.7,0.7
2024-10-01T2300,1282A,119.2681,26.0504,福州市,师大,,24,12,9,6,2,75,,54,54,5,4,1,1,0.3,0.3
2024-10-01T2300,1283A,119.2984,26.1028,福州市,五四北路,,24,13,8,3,2,75,,56,56,4,3,3,3,0.3,0.3
2024-10-01T2300,1284A,119.2648,26.0768,福州市,杨桥西路,,24,12,11,6,2,76,,56,56,5,5,3,3,0.4,0.3
2024-10-01T2300,1285A,119.317,26.0746,福州市,紫阳,,23,11,12,9,4,72,,49,49,5,9,5,5,0.4,0.4
2024-10-01T2300,3048A,119.5799,26.0936,福州市,九龙,,23,6,13,3,1,71,,50,50,2,3,6,6,0.4,0.4
2024-10-01T2300,3526A,119.5189,25.9664,福州市,吴航,,23,9,9,6,4,72,,54,54,4,3,6,6,0.5,0.4
2024-10-01T2300,1755A,123.7977,41.8491,抚顺市,望花区,,46,46,24,28,16,6,,53,30,28,20,7,7,0.9,0.6
2024-10-01T2300,1756A,123.9161,41.8822,抚顺市,顺城区,,31,31,28,21,17,7,,55,24,19,21,4,5,0.4,0.5
2024-10-01T2300,1757A,124.0436,41.8611,抚顺市,东洲区,,35,35,23,24,13,8,,48,27,15,16,6,7,0.4,0.5
2024-10-01T2300,1758A,123.9247,41.8642,抚顺市,新抚区,,49,49,27,17,13,6,,58,28,24,21,4,4,0.3,0.4
2024-10-01T2300,1759A,124.0972,41.8961,抚顺市,大伙房水库,,21,21,22,12,11,5,,51,28,25,15,6,7,0.4,0.5
2024-10-01T2300,1760A,123.7086,41.8391,抚顺市,沈抚新城,,39,39,21,21,13,4,,57,28,23,22,7,8,0.4,0.2
2024-10-01T2300,2376A,116.2127,28.0814,抚州市,桐源党溪,,32,32,50,11,17,84,,84,81,2,3,5,5,0.6,0.6
2024-10-01T2300,2377A,116.3544,27.9831,抚州市,市站,,27,27,45,14,17,72,,74,66,9,9,2,2,0.9,0.9
2024-10-01T2300,2378A,116.3565,27.963,抚州市,血防站,,28,28,43,10,16,77,,80,71,10,9,3,4,0.5,0.7
2024-10-01T2300,2379A,116.3564,28.0007,抚州市,采茶剧团,,24,24,44,12,18,76,,76,69,4,4,4,4,0.6,0.7
2024-10-01T2300,2380A,116.385,27.9647,抚州市,医学分院,,31,31,42,9,15,76,,78,71,6,6,4,4,0.5,0.7
2024-10-01T2300,2207A,121.6094,41.998,阜新市,工业园区,,43,43,28,28,16,5,,70,37,44,19,7,7,0.6,0.5
2024-10-01T2300,2208A,121.6697,42.0279,阜新市,长青街,,38,38,22,15,5,10,,67,38,24,15,6,6,0.6,0.4
2024-10-01T2300,2209A,121.6673,42.0705,阜新市,农业园区,,15,10,14,9,7,45,,65,56,16,11,5,5,0.4,0.3
2024-10-01T2300,2210A,121.6717,42.0224,阜新市,东苑,,36,36,25,18,8,19,,69,46,39,18,13,8,0.6,0.5
2024-10-01T2300,2211A,121.6506,42.0498,阜新市,玉龙新城,,39,39,26,9,9,6,,71,32,33,19,6,6,0.9,0.7
2024-10-01T2300,2301A,115.8277,32.8929,阜阳市,市监测站,颗粒物(PM10),62,73,33,25,11,81,,108,101,25,14,8,7,0.3,0.3
2024-10-01T2300,2303A,115.8554,32.8605,阜阳市,开发区,颗粒物(PM10),67,83,42,17,10,92,,110,105,18,13,8,7,0.5,0.5
2024-10-01T2300,2875A,115.784,32.8892,阜阳市,阜阳职业技术学院,颗粒物(PM10),61,71,35,22,12,94,,113,109,18,12,8,7,0.3,0.3
2024-10-01T2300,3468A,115.7901,32.8613,阜阳市,市规划展馆,颗粒物(PM10),61,71,30,13,7,98,,114,110,19,16,8,7,0.1,0.2
2024-10-01T2300,3469A,115.836,32.9183,阜阳市,枣园社区,颗粒物(PM10),66,82,32,22,7,72,,108,96,32,14,12,9,0.3,0.3
2024-10-01T2300,2669A,102.9099,34.9841,甘南藏族自治州,州政府,,28,24,18,19,15,14,,97,80,41,6,10,10,0.5,0.4
2024-10-01T2300,3380A,102.8914,34.9617,甘南藏族自治州,甘肃民族师范学院,颗粒物(PM10),54,58,13,22,7,5,,95,70,45,9,3,4,0.5,0.4
2024-10-01T2300,2570A,101.9603,30.0475,甘孜藏族自治州,水桥子,,17,,7,6,6,52,,79,64,14,5,5,5,0.4,0.3
2024-10-01T2300,3065A,101.9533,29.9972,甘孜藏族自治州,州环保局,,17,,8,3,4,53,,78,67,16,7,3,3,0.4,0.3
2024-10-01T2300,3414A,115.8347,28.932,赣江新区,桑海产业园,,29,29,47,3,10,86,,79,79,8,9,11,11,0.6,0.4
2024-10-01T2300,2362A,114.9017,25.9149,赣州市,通天岩,,46,46,41,20,22,96,,101,101,3,3,15,13,0.3,0.4
2024-10-01T2300,2363A,114.9367,25.8664,赣州市,地委,,36,36,41,14,23,85,,91,91,8,8,7,6,1.0,1.2
2024-10-01T2300,2364A,114.9461,25.8481,赣州市,气象台,,36,36,41,22,23,82,,86,86,7,6,1,3,0.5,0.5
2024-10-01T2300,2365A,114.9322,25.8333,赣州市,市图书馆,,37,37,46,16,22,90,,101,100,6,7,4,4,0.5,0.7
2024-10-01T2300,2366A,114.8905,25.8471,赣州市,华坚鞋城,,41,41,43,15,20,83,,87,87,6,7,4,4,0.5,0.5
2024-10-01T2300,3109A,115.0093,25.8613,赣州市,赣县区卫计委,,31,31,36,13,20,82,,87,87,8,11,5,6,0.5,0.6
2024-10-01T2300,2683A,106.2319,36.1417,固原市,马园,,45,45,34,17,10,18,,101,63,45,22,6,6,0.6,0.5
2024-10-01T2300,2684A,106.2792,36.0022,固原市,监测站,,42,42,43,21,15,27,,100,66,44,15,5,5,0.5,0.4
2024-10-01T2300,2685A,106.2375,36.0211,固原市,新区,,38,38,42,19,11,19,,103,60,56,17,5,6,0.4,0.3
2024-10-01T2300,3522A,106.2177,35.9959,固原市,原州区十五小,,33,33,44,14,13,68,,103,78,18,12,4,4,0.5,0.4
2024-10-01T2300,2544A,106.6303,30.4576,广安市,市委,,28,28,20,16,9,45,,85,65,24,16,3,2,0.3,0.3
2024-10-01T2300,2545A,106.6271,30.4663,广安市,友谊中学,,27,27,17,16,9,45,,83,67,23,15,2,2,0.3,0.4
2024-10-01T2300,2547A,106.6388,30.4551,广安市,广电花园,,,23,18,15,8,39,,83,62,,14,3,3,0.3,0.3
2024-10-01T2300,2902A,106.6351,30.4865,广安市,北辰小学,,30,30,20,13,8,50,,87,73,21,11,4,3,0.3,0.3
2024-10-01T2300,2523A,105.8945,32.4535,广元市,黑石坡,,15,12,15,7,7,45,,86,63,10,4,13,12,0.3,0.2
2024-10-01T2300,2524A,105.821,32.4444,广元市,老城,,23,23,16,11,7,45,,92,52,15,12,1,2,0.3,0.1
2024-10-01T2300,2526A,105.8628,32.4287,广元市,监测站,,25,25,15,16,8,43,,98,64,11,7,1,2,0.3,0.2
2024-10-01T2300,3617A,105.8047,32.4166,广元市,经开区,,34,34,21,19,9,17,,90,50,38,16,4,3,0.4,0.3
2024-10-01T2300,1345A,113.2347,23.1423,广州市,广雅中学,,18,18,35,8,18,45,,98,71,20,28,8,7,0.7,0.8
2024-10-01T2300,1346A,113.2612,23.105,广州市,市五中,,19,19,31,8,20,51,,108,77,13,16,8,7,0.5,0.5
2024-10-01T2300,1348A,113.3478,23.0916,广州市,广东商学院,,24,24,37,9,17,53,,96,70,15,21,5,6,0.7,0.6
2024-10-01T2300,1349A,113.4332,23.1047,广州市,市八十六中,,23,23,36,10,17,53,,96,76,15,13,4,4,0.6,0.5
2024-10-01T2300,1350A,113.3505,22.9483,广州市,番禺中学,,24,24,34,7,17,40,,74,56,14,13,7,7,0.6,0.6
2024-10-01T2300,1351A,113.2146,23.3916,广州市,花都师范,,19,10,26,3,13,58,,101,76,9,10,4,7,0.7,0.8
2024-10-01T2300,1352A,113.2597,23.1331,广州市,市监测站,,20,20,32,6,16,43,,94,69,18,25,7,6,0.5,0.6
2024-10-01T2300,1353A,113.5618,23.312,广州市,九龙镇镇龙,,19,14,29,6,16,60,,84,70,11,15,7,8,0.7,0.7
2024-10-01T2300,1354A,113.2765,23.1544,广州市,麓湖,,29,29,39,10,21,50,,104,75,17,24,7,6,0.4,0.5
2024-10-01T2300,1355A,113.443,23.3035,广州市,帽峰山森林公园,,20,7,18,6,12,61,,95,78,8,7,8,8,0.6,0.5
2024-10-01T2300,2846A,113.3221,23.1322,广州市,体育西,,18,18,31,7,18,50,,94,68,12,17,4,5,0.5,0.5
2024-10-01T2300,3298A,113.5717,23.5491,广州市,从化街口,,20,13,28,7,16,63,,87,72,7,16,8,10,0.5,0.6
2024-10-01T2300,3299A,113.3472,23.3692,广州市,白云竹料,,17,11,29,6,16,52,,95,72,12,17,6,6,0.3,0.4
2024-10-01T2300,3300A,113.2981,23.237,广州市,白云嘉禾,,19,19,42,8,19,51,,96,70,18,29,8,9,0.6,0.7
2024-10-01T2300,3301A,113.4256,23.1716,广州市,黄埔科学城,,19,19,28,8,18,55,,80,,20,13,8,9,0.5,0.6
2024-10-01T2300,3302A,113.3942,23.0483,广州市,番禺大学城,,20,20,26,9,16,49,,90,69,15,16,10,10,0.4,0.3
2024-10-01T2300,3303A,113.4922,22.8168,广州市,南沙黄阁,,19,18,33,12,18,58,,105,80,17,18,7,7,0.6,0.5
2024-10-01T2300,3304A,113.5342,22.7896,广州市,南沙街,,23,23,34,13,18,58,,101,76,14,17,7,9,0.7,0.7
2024-10-01T2300,3443A,113.2902,23.5544,广州市,花都梯面,,17,9,24,3,16,52,,97,71,9,10,6,8,0.6,0.6
2024-10-01T2300,3445A,113.7858,23.7478,广州市,从化良口,,19,15,23,8,15,60,,74,62,7,7,8,8,0.7,0.7
2024-10-01T2300,3446A,113.8051,23.2614,广州市,增城荔城,,20,17,23,9,14,63,,79,71,9,11,7,6,0.6,0.5
2024-10-01T2300,2506A,109.6047,23.0666,贵港市,江南子站,,19,17,61,3,28,58,,98,65,8,19,7,8,0.6,0.8
2024-10-01T2300,2507A,109.6014,23.0948,贵港市,贵城子站,,18,14,51,3,28,56,,95,62,8,16,8,7,0.6,0.6
2024-10-01T2300,2508A,109.5669,23.1065,贵港市,荷城子站,,19,14,47,3,20,60,,92,64,4,12,11,10,0.5,0.6
2024-10-01T2300,3405A,109.5886,23.1172,贵港市,新世纪学校,,22,22,46,6,21,57,,92,61,3,8,8,8,0.5,0.6
2024-10-01T2300,1439A,106.6899,26.5998,贵阳市,马鞍山,,15,6,3,3,0,46,,60,52,8,8,6,5,0.5,0.4
2024-10-01T2300,1440A,106.6971,26.5694,贵阳市,市环保站,,20,,1,3,2,63,,66,64,7,7,2,2,0.2,0.3
2024-10-01T2300,1442A,106.7487,26.6343,贵阳市,燕子冲,,,,1,2,4,63,,60,59,4,6,5,5,0.3,0.3
2024-10-01T2300,1443A,106.6555,26.4365,贵阳市,碧云窝,,19,14,6,3,1,59,,63,59,7,7,4,4,0.3,0.3
2024-10-01T2300,1444A,106.694,26.5161,贵阳市,中院村,,21,6,5,3,1,65,,66,62,6,7,5,6,0.5,0.5
2024-10-01T2300,1445A,106.7109,26.6027,贵阳市,红边门,,20,6,6,3,6,62,,64,60,8,9,2,2,0.2,0.1
2024-10-01T2300,1446A,106.7164,26.5699,贵阳市,新华路,,,,1,2,2,66,,66,65,5,7,5,5,0.3,0.2
2024-10-01T2300,1447A,106.674,26.5424,贵阳市,太慈桥,,17,6,1,3,1,53,,63,58,7,6,5,5,0.2,0.2
2024-10-01T2300,1862A,110.4144,25.3167,桂林市,电子科大尧山校区,,26,19,41,10,20,81,,92,72,5,6,4,4,0.5,0.6
2024-10-01T2300,1863A,110.2819,25.2697,桂林市,监测站,,24,13,34,13,18,75,,89,68,9,8,8,8,0.6,0.7
2024-10-01T2300,1864A,110.3089,25.2708,桂林市,龙隐路小学,,25,13,29,12,20,79,,92,72,5,6,6,8,0.5,0.6
2024-10-01T2300,1865A,110.2869,25.2178,桂林市,八中,,24,12,30,3,17,74,,88,68,6,7,6,7,0.4,0.5
2024-10-01T2300,3403A,110.1764,25.2381,桂林市,创业大厦,,22,22,39,14,25,64,,76,60,7,7,8,7,0.3,0.3
2024-10-01T2300,3531A,110.296,25.1253,桂林市,旅游学院,,25,12,31,7,18,78,,88,72,5,6,7,7,0.3,0.4
2024-10-01T2300,2674A,100.2561,34.4714,果洛藏族自治州,玛沁县大武镇,,31,31,35,16,17,94,,120,111,2,2,7,7,0.4,0.4
2024-10-01T2300,1129A,126.5422,45.755,哈尔滨市,岭北,,20,20,14,12,8,59,,85,73,15,11,14,14,0.3,0.1
2024-10-01T2300,1130A,126.561,45.8167,哈尔滨市,松北商大,,30,30,19,7,6,9,,61,31,42,22,7,7,0.4,0.4
2024-10-01T2300,1131A,126.979,45.5419,哈尔滨市,阿城会宁,,27,27,21,15,11,30,,60,42,21,16,11,10,0.4,0.4
2024-10-01T2300,1132A,126.599,45.7222,哈尔滨市,南岗学府路,,27,27,21,12,6,35,,66,51,21,16,6,6,0.3,0.3
2024-10-01T2300,1133A,126.689,45.7733,哈尔滨市,太平宏伟公园,,31,31,17,7,8,30,,62,51,24,15,6,7,0.6,0.4
2024-10-01T2300,1134A,126.635,45.7667,哈尔滨市,道外承德广场,,33,33,20,3,4,18,,58,45,43,24,4,5,0.1,0.3
2024-10-01T2300,1135A,126.685,45.7319,哈尔滨市,香坊红旗大街,颗粒物(PM10),51,51,25,23,10,16,,63,46,42,21,6,7,0.4,0.4
2024-10-01T2300,1136A,126.6411,45.7258,哈尔滨市,动力和平路,,33,33,21,7,6,29,,64,47,26,19,18,9,0.3,0.3
2024-10-01T2300,1137A,126.593,45.7478,哈尔滨市,道里建国路,,30,30,20,18,7,20,,61,44,37,19,8,10,0.3,0.2
2024-10-01T2300,1138A,126.615,45.61,哈尔滨市,平房东轻厂,,,,19,47,11,11,,41,,,27,,7,,0.4
2024-10-01T2300,1139A,126.595,45.9855,哈尔滨市,呼兰师专,,33,33,22,11,6,18,,52,31,35,23,3,4,0.5,0.5
2024-10-01T2300,1140A,126.6206,45.6842,哈尔滨市,省农科院,颗粒物(PM10),51,52,31,12,12,4,,51,22,48,31,7,6,0.6,0.5
2024-10-01T2300,2688A,93.5128,42.8172,哈密市,地区监测站,颗粒物(PM10),76,102,57,33,21,21,,102,84,79,36,4,5,1.1,0.3
2024-10-01T2300,2689A,93.4961,42.8328,哈密市,哈密师范学校,颗粒物(PM10),67,83,48,38,24,11,,98,73,84,38,4,5,1.1,0.5
2024-10-01T2300,2671A,100.9048,36.9639,海北藏族自治州,海晏县西海镇,,20,18,14,14,10,60,,102,88,8,6,12,15,0.6,0.4
2024-10-01T2300,3867A,102.0738,36.5056,海东市,平安区公安北苑,,44,44,37,15,11,71,,103,89,16,14,18,13,0.5,0.5
2024-10-01T2300,1410A,110.3232,20.0574,海口市,海南大学,,49,49,28,34,17,92,,97,97,8,13,3,3,0.6,0.4
2024-10-01T2300,1411A,110.283,20.0053,海口市,秀英海南医院,,50,35,29,35,19,88,,98,95,13,15,6,5,0.5,0.4
2024-10-01T2300,1412A,110.338,19.9969,海口市,海南师范大学,,46,35,29,32,18,94,,99,95,9,14,7,6,0.6,0.5
2024-10-01T2300,1413A,110.33,20.0356,海口市,龙华路环保局宿舍,,46,,25,32,17,93,,96,96,8,13,5,5,0.6,0.4
2024-10-01T2300,3539A,110.5111,19.9736,海口市,桂林洋子站,颗粒物(PM10),52,53,30,33,18,97,,103,96,7,12,7,7,0.4,0.4
2024-10-01T2300,2673A,100.6188,36.2866,海南藏族自治州,共和县恰卜恰镇,,40,40,28,8,10,43,,91,73,28,11,13,7,0.4,0.5
2024-10-01T2300,2676A,97.3731,37.3753,海西蒙古族藏族自治州,德令哈市,,23,,24,16,11,30,,107,80,42,14,7,9,0.5,0.4
2024-10-01T2300,1048A,114.5302,36.6116,邯郸市,东污水处理厂,,31,31,62,7,12,44,,75,63,13,12,1,2,0.4,0.4
2024-10-01T2300,1049A,114.4918,36.5713,邯郸市,矿院,,26,26,60,3,10,51,,81,70,10,14,3,4,0,0
2024-10-01T2300,1050A,114.484,36.6133,邯郸市,丛台公园,,23,23,50,7,10,52,,77,69,14,14,2,4,0.3,0.3
2024-10-01T2300,3458A,114.7895,36.5593,邯郸市,香泉濮院小区,,25,25,68,3,8,51,,85,74,15,14,3,4,0.1,0.3
2024-10-01T2300,3579A,114.50634,36.77178,邯郸市,永年区实验高中,,44,44,77,14,15,50,,86,79,18,20,5,3,0.2,0.2
2024-10-01T2300,3580A,114.20016,36.44293,邯郸市,峰峰矿区临水派出所,颗粒物(PM10),51,51,75,9,11,58,,94,82,10,12,3,4,0.8,0.8
2024-10-01T2300,2634A,106.9893,33.1842,汉中市,汉川机床厂子校,,16,16,22,3,6,47,,63,56,8,11,5,7,0.6,0.6
2024-10-01T2300,2635A,107.0154,33.0706,汉中市,市监测站,,25,25,26,14,12,45,,64,56,10,12,8,9,0.4,0.5
2024-10-01T2300,2636A,107.0089,33.1138,汉中市,鑫源开发区,,32,32,30,16,14,34,,55,49,17,20,10,13,0.5,0.5
2024-10-01T2300,2637A,107.007,33.0323,汉中市,南郑大河坎水厂,,26,26,23,14,10,40,,72,61,12,12,9,9,0.4,0.5
2024-10-01T2300,1223A,120.2072,30.2111,杭州市,滨江,,19,18,20,7,10,60,,56,56,10,13,5,4,0.5,0.6
2024-10-01T2300,1224A,120.0633,30.2747,杭州市,西溪,,20,7,15,6,7,63,,63,63,14,15,6,6,0.5,0.6
2024-10-01T2300,1226A,120.3461,30.3153,杭州市,下沙,,24,24,26,6,10,63,,58,58,25,26,6,6,0.5,0.6
2024-10-01T2300,1227A,120.1269,30.2456,杭州市,卧龙桥,,21,9,15,8,9,67,,67,67,14,14,6,5,0.4,0.5
2024-10-01T2300,1228A,120.1903,30.2692,杭州市,浙江农大,,21,21,20,11,12,58,,52,52,16,21,8,8,0.4,0.5
2024-10-01T2300,1230A,120.1197,30.3119,杭州市,和睦小学,,24,24,19,3,9,65,,68,68,14,14,7,7,0.5,0.6
2024-10-01T2300,1231A,120.3019,30.4183,杭州市,临平镇,,24,17,21,3,8,74,,62,62,10,12,5,5,0.5,0.7
2024-10-01T2300,1232A,120.2697,30.1819,杭州市,城厢镇,,19,14,19,9,11,59,,60,60,20,21,6,6,0.5,0.6
2024-10-01T2300,1233A,120.0883,30.1808,杭州市,云栖,,19,19,18,3,7,54,,51,51,9,11,6,7,0.6,0.7
2024-10-01T2300,3557A,119.9464,30.0494,杭州市,镇二中,,21,12,12,3,8,67,,60,60,13,15,8,8,0.5,0.6
2024-10-01T2300,3558A,119.7183,30.2367,杭州市,市府大楼,,,15,9,10,9,,,72,72,9,12,6,6,0.5,0.6
2024-10-01T2300,3656A,120.1556,30.2864,杭州市,消防大队,,21,13,20,8,11,66,,65,65,10,11,9,8,0.5,0.7
2024-10-01T2300,1270A,117.1959,31.7848,合肥市,明珠广场,,48,48,23,14,9,92,,104,102,18,13,8,6,0.6,0.7
2024-10-01T2300,1271A,117.3072,31.8764,合肥市,三里街,,41,41,27,14,10,77,,95,92,20,12,9,8,0.4,0.4
2024-10-01T2300,1272A,117.2588,31.8707,合肥市,琥珀山庄,颗粒物(PM10),51,51,29,14,12,82,,101,99,20,13,9,8,0.4,0.4
2024-10-01T2300,1273A,117.1604,31.9052,合肥市,董铺水库,颗粒物(PM10),52,53,25,9,8,72,,90,86,14,8,4,3,0.4,0.3
2024-10-01T2300,1274A,117.25,31.8571,合肥市,长江中路,颗粒物(PM10),53,56,33,18,14,84,,98,96,18,12,9,8,0.6,0.6
2024-10-01T2300,1275A,117.266,31.9436,合肥市,庐阳区,颗粒物(PM10),54,58,28,19,11,82,,106,102,15,10,4,4,0.5,0.5
2024-10-01T2300,1276A,117.336,31.8586,合肥市,瑶海区,颗粒物(PM10),52,53,33,13,12,79,,88,86,21,19,5,5,0.3,0.4
2024-10-01T2300,1277A,117.3027,31.7964,合肥市,包河区,,44,44,27,14,10,76,,89,86,24,15,3,3,0.5,0.5
2024-10-01T2300,1278A,117.2776,31.7385,合肥市,滨湖新区,,39,39,25,12,11,86,,93,92,16,14,6,5,0.5,0.5
2024-10-01T2300,1279A,117.1318,31.8403,合肥市,高新区,颗粒物(PM10),51,51,26,15,12,75,,91,87,18,10,10,9,0.7,0.6
2024-10-01T2300,3464A,117.3803,31.9147,合肥市,高教基地,,43,43,29,11,10,66,,99,92,13,10,5,4,0.4,0.4
2024-10-01T2300,3614A,79.924,37.0877,和田地区,地区环保局,颗粒物(PM10),266,396,394,166,96,56,,71,69,29,11,8,7,0.9,0.5
2024-10-01T2300,3615A,79.9131,37.113,和田地区,市环保局,颗粒物(PM10),193,336,352,127,88,40,,68,64,44,14,8,6,1.0,0.6
2024-10-01T2300,2516A,108.2011,24.715,河池市,东仁乐园,,,,8,4,7,62,,51,51,5,6,2,3,0.5,0.5
2024-10-01T2300,2517A,108.0497,24.6947,河池市,市环保站,,23,6,8,3,3,71,,60,60,6,8,10,10,0.4,0.6
2024-10-01T2300,2518A,108.0983,24.6989,河池市,市疾控中心,,24,,8,3,4,74,,61,61,6,10,10,9,0.4,0.5
2024-10-01T2300,1696A,114.6778,23.7569,河源市,源西,,27,23,26,15,15,85,,79,79,8,10,5,5,0.5,0.6
2024-10-01T2300,1697A,114.6944,23.7586,河源市,东埔,,33,,21,23,30,83,,78,78,10,13,2,3,0.7,0.6
2024-10-01T2300,1698A,114.6892,23.7233,河源市,老城,,33,33,27,10,13,85,,79,79,7,7,2,3,0.6,0.6
2024-10-01T2300,1718A,115.4208,35.2464,菏泽市,气象局,颗粒物(PM10),68,85,64,17,11,75,,106,98,21,13,2,3,0.3,0.3
2024-10-01T2300,1719A,115.4747,35.2375,菏泽市,市政协,颗粒物(PM10),68,86,64,19,12,59,,100,87,27,10,6,5,0.3,0.3
2024-10-01T2300,3374A,115.5564,35.0891,菏泽市,定陶老年大学,颗粒物(PM10),67,83,55,19,8,57,,102,88,22,12,7,8,0.2,0.2
2024-10-01T2300,3647A,115.4702,35.2706,菏泽市,菏泽医专,颗粒物(PM10),76,101,66,12,7,44,,98,84,47,19,9,4,0.5,0.5
2024-10-01T2300,2514A,111.5264,24.4172,贺州市,环保小区,,20,19,46,12,21,64,,74,64,8,10,5,7,0.5,0.6
2024-10-01T2300,2515A,111.5608,24.4078,贺州市,政协大楼,,29,27,50,20,24,62,,66,61,10,12,5,5,0.4,0.5
2024-10-01T2300,3534A,111.4744,24.4553,贺州市,西湾,,22,22,45,10,18,63,,73,63,9,9,6,7,0.5,0.6
2024-10-01T2300,2385A,114.17,35.9019,鹤壁市,市监测站,颗粒物(PM10),54,58,62,12,18,52,,105,84,29,24,11,5,0.6,0.6
2024-10-01T2300,2386A,114.2956,35.7511,鹤壁市,市交警支队,颗粒物(PM10),58,65,54,12,11,48,,109,91,25,28,3,5,0.2,0.6
2024-10-01T2300,2387A,114.2878,35.7306,鹤壁市,迎宾馆,颗粒物(PM10),59,68,57,13,14,53,,112,91,30,27,3,6,0.4,0.6
2024-10-01T2300,3474A,114.2617,35.6822,鹤壁市,大新区,颗粒物(PM10),66,81,59,16,10,55,,104,90,20,18,3,3,0.1,0.4
2024-10-01T2300,3596A,114.1572,35.9603,鹤壁市,南山宾馆,,42,42,51,14,14,52,,103,89,17,15,3,3,0.2,0.2
2024-10-01T2300,2244A,130.2537,47.3416,鹤岗市,哈啤分公司,,25,22,20,17,16,53,,60,47,2,7,15,15,0.3,0.7
2024-10-01T2300,2245A,130.2684,47.3086,鹤岗市,斯达机电,,36,25,23,25,17,42,,57,42,6,11,13,15,0.3,0.3
2024-10-01T2300,2246A,130.3114,47.3388,鹤岗市,东山纸板厂,颗粒物(PM10),133,215,72,36,18,13,,56,23,21,13,18,18,0.8,0.4
2024-10-01T2300,2247A,130.1097,47.3382,鹤岗市,五号水库,,17,13,14,8,12,52,,74,58,5,5,9,8,0.1,0.1
2024-10-01T2300,2263A,127.4833,50.2524,黑河市,交通局,,32,26,20,22,16,26,,55,28,13,13,7,7,0.4,0.3
2024-10-01T2300,2264A,127.5144,50.2341,黑河市,环保局,,36,36,17,22,14,39,,58,39,15,11,13,5,0.4,0.4
2024-10-01T2300,2265A,127.5291,50.2472,黑河市,大黑河岛,,,,,21,12,33,,54,40,18,12,1,2,0.2,0.1
2024-10-01T2300,1074A,115.6838,37.7541,衡水市,电机北厂,,33,33,29,3,10,50,,78,64,15,9,5,5,0.3,0.3
2024-10-01T2300,1075A,115.6303,37.7316,衡水市,市监测站,,16,16,30,3,6,50,,80,70,22,14,4,5,0.2,0.3
2024-10-01T2300,3188A,115.6683,37.7217,衡水市,市城管局,,19,14,24,3,12,60,,80,70,11,11,3,3,0.4,0.3
2024-10-01T2300,3459A,115.5989,37.5491,衡水市,地表水厂,,30,30,32,3,6,8,,83,55,45,15,6,7,0.3,0.3
2024-10-01T2300,2456A,112.5003,26.9167,衡阳市,原169医院,,36,36,27,15,17,70,,60,59,13,11,2,2,0.7,0.7
2024-10-01T2300,2457A,112.6194,26.9258,衡阳市,衡阳化工总厂,,38,38,27,23,17,70,,60,60,15,13,10,8,0.6,0.7
2024-10-01T2300,2458A,112.6211,26.8956,衡阳市,珠晖区环保局,,42,42,28,17,15,72,,63,63,14,9,8,7,0.6,0.5
2024-10-01T2300,2459A,112.6197,26.8733,衡阳市,市委党校,,40,40,26,15,13,67,,59,59,16,11,10,8,0.6,0.6
2024-10-01T2300,2460A,112.6006,26.8919,衡阳市,市监测站,,34,34,29,19,15,68,,63,63,13,8,9,7,0.7,0.6
2024-10-01T2300,2461A,112.5664,26.9056,衡阳市,真空机电公司,,36,36,28,19,20,58,,58,57,16,10,8,7,0.7,0.7
2024-10-01T2300,3399A,112.6703,26.882,衡阳市,师范学院,,43,43,33,30,22,74,,63,63,14,12,9,8,0.7,0.6
2024-10-01T2300,2608A,103.3772,23.3993,红河哈尼族彝族自治州,污水处理厂,,22,16,15,15,18,45,,53,50,13,9,39,9,0.6,0.5
2024-10-01T2300,2609A,103.3861,23.35,红河哈尼族彝族自治州,监测站,,32,,20,22,23,66,,63,63,6,9,10,12,0.4,0.6
2024-10-01T2300,3038A,103.3758,23.368,红河哈尼族彝族自治州,州图书馆,,15,11,13,9,11,48,,56,54,11,9,13,10,0.8,0.6
2024-10-01T2300,1090A,111.6507,40.7517,呼和浩特市,呼市一监,,44,44,10,30,6,17,,72,48,36,7,4,4,0.5,0.3
2024-10-01T2300,1091A,111.6572,40.8033,呼和浩特市,小召,,19,19,13,10,4,28,,68,48,37,15,7,7,0.3,0.2
2024-10-01T2300,1094A,111.7516,40.8369,呼和浩特市,如意水处理厂,,25,19,8,8,3,7,,66,42,49,12,6,6,0.3,0.2
2024-10-01T2300,1095A,111.7276,40.8062,呼和浩特市,二十九中,,30,26,8,10,3,9,,67,49,59,16,5,4,0.5,0.3
2024-10-01T2300,1096A,111.5512,40.7866,呼和浩特市,工大金川校区,,50,50,14,8,3,3,,68,42,58,15,3,3,0.5,0.4
2024-10-01T2300,1097A,111.717,40.7612,呼和浩特市,化肥厂生活区,,36,36,16,19,5,8,,69,44,47,14,7,7,0.5,0.3
2024-10-01T2300,3698A,111.5968,40.8178,呼和浩特市,红旗小学,,26,9,9,3,3,9,,71,53,52,16,3,2,0.3,0.2
2024-10-01T2300,3699A,111.6518,40.8389,呼和浩特市,海东办,,16,14,10,7,4,31,,70,45,31,15,2,3,0.4,0.3
2024-10-01T2300,2192A,119.7594,49.2261,呼伦贝尔市,区环保局,,30,24,22,21,15,46,,57,52,7,7,5,6,0.4,0.3
2024-10-01T2300,3061A,119.7512,49.1577,呼伦贝尔市,国华电力东,,17,17,17,11,14,47,,61,54,3,4,3,3,0.2,0.2
2024-10-01T2300,1250A,120.0751,30.8669,湖州市,城西水厂,,28,13,19,3,12,88,,71,71,11,21,5,4,0.3,0.3
2024-10-01T2300,2873A,120.0875,30.8955,湖州市,仁皇山新区,,26,11,19,6,13,82,,75,75,8,12,6,6,0.4,0.5
2024-10-01T2300,2907A,120.1844,30.8596,湖州市,吴兴区站,,25,22,21,6,11,80,,75,75,5,10,6,5,0.5,0.5
2024-10-01T2300,3562A,120.4148,30.8538,湖州市,南浔区站,,30,30,19,7,10,70,,68,68,12,12,6,6,0.3,0.4
2024-10-01T2300,1607A,120.9092,40.7136,葫芦岛市,龙港区,,18,17,16,8,7,26,,70,47,35,25,23,14,0.8,0.5
2024-10-01T2300,1608A,120.8392,40.7514,葫芦岛市,化工街,,24,17,18,3,10,12,,69,33,48,26,30,17,0.6,0.2
2024-10-01T2300,1609A,120.8341,40.7073,葫芦岛市,新区,,21,20,22,10,8,25,,72,44,42,30,9,12,0.4,0.4
2024-10-01T2300,1610A,120.8695,40.7677,葫芦岛市,东城区,,20,20,22,10,9,21,,64,34,31,21,12,18,0.2,0.2
2024-10-01T2300,2482A,109.5981,27.5721,怀化市,林科所,,12,12,8,7,6,32,,62,51,12,7,3,3,0.4,0.6
2024-10-01T2300,2483A,109.9453,27.5444,怀化市,河西地税局,,24,24,12,14,7,40,,63,57,9,7,11,9,0.6,0.5
2024-10-01T2300,2484A,109.9781,27.5342,怀化市,市四医院,,30,30,13,16,7,54,,64,62,5,3,17,8,0.6,0.6
2024-10-01T2300,2485A,109.9972,27.5578,怀化市,监测楼,,28,28,12,14,8,57,,65,64,8,6,27,10,0.4,0.4
2024-10-01T2300,2486A,110.0394,27.583,怀化市,市委党校,,28,28,15,17,9,43,,61,56,9,5,37,18,0.5,0.5
2024-10-01T2300,1210A,119.036,33.5981,淮安市,钵池山,颗粒物(PM10),51,51,20,19,14,65,,91,85,22,11,6,5,0.5,0.6
2024-10-01T2300,1211A,119.007,33.575,淮安市,北京南路,颗粒物(PM10),73,95,25,15,12,60,,94,85,27,18,8,6,0.5,0.5
2024-10-01T2300,1212A,118.989,33.6067,淮安市,市监测站,颗粒物(PM10),51,51,22,24,15,62,,99,74,29,26,8,7,0.4,0.4
2024-10-01T2300,1213A,119.135,33.5039,淮安市,楚州区监测站,,46,46,28,22,14,66,,96,87,28,14,7,6,0.5,0.6
2024-10-01T2300,1214A,119.0186,33.6297,淮安市,淮阴区监测站,颗粒物(PM10),53,56,26,18,15,59,,96,80,31,20,4,3,0.9,0.9
2024-10-01T2300,3426A,118.8755,33.2894,淮安市,新华书店,颗粒物(PM10),52,53,30,23,18,83,,106,94,19,17,9,8,0.5,0.5
2024-10-01T2300,2282A,116.8004,33.975,淮北市,监测站,颗粒物(PM10),59,67,28,8,11,68,,100,92,24,11,9,7,0.5,0.4
2024-10-01T2300,2283A,116.8091,33.9007,淮北市,烈山区政府,颗粒物(PM10),62,73,34,17,14,83,,105,99,15,11,6,5,0.2,0.3
2024-10-01T2300,3330A,116.8873,33.9836,淮北市,杜集区检察院,颗粒物(PM10),65,79,43,13,14,72,,108,96,11,7,8,8,0.4,0.5
2024-10-01T2300,4017A,116.7923,33.9535,淮北市,市博物馆,颗粒物(PM10),61,72,34,9,11,83,,104,99,19,12,8,7,0.4,0.5
2024-10-01T2300,2277A,116.8305,32.7727,淮南市,潘集区政府,颗粒物(PM10),68,86,38,30,16,73,,104,92,33,19,9,8,0.4,0.4
2024-10-01T2300,2278A,117.0067,32.6524,淮南市,师范学院,颗粒物(PM10),60,69,36,19,21,77,,106,97,18,12,6,6,0.6,0.6
2024-10-01T2300,2279A,116.8569,32.5951,淮南市,谢家集区政府,,49,49,30,23,16,72,,101,92,26,14,11,8,0.3,0.3
2024-10-01T2300,2280A,116.8281,32.633,淮南市,八公山区政府,颗粒物(PM10),56,61,36,18,13,84,,100,93,20,12,9,9,0.3,0.2
2024-10-01T2300,2281A,116.6325,32.6201,淮南市,焦岗湖风景区管理处,,48,48,21,17,6,74,,94,87,12,6,6,6,0.0,0
2024-10-01T2300,2894A,117.0566,32.6531,淮南市,经济技术开发区消防队,颗粒物(PM10),62,74,44,25,16,74,,104,96,16,9,6,5,0.3,0.3
2024-10-01T2300,3329A,117.0108,32.5893,淮南市,山南新区,颗粒物(PM10),55,60,33,9,7,99,,110,109,15,14,4,3,0.3,0.4
2024-10-01T2300,2446A,114.9028,30.4742,黄冈市,职工中心,,37,37,24,16,11,88,,100,98,10,8,8,7,0.4,0.3
2024-10-01T2300,2929A,114.8858,30.4519,黄冈市,红卫路,,33,33,19,16,8,91,,100,99,13,9,7,8,0.3,0.3
2024-10-01T2300,3398A,114.9136,30.4445,黄冈市,市林业局,,36,36,21,22,10,97,,113,110,12,8,8,8,0.5,0.4
2024-10-01T2300,2672A,102.0199,35.5102,黄南藏族自治州,同仁县隆务镇,,31,31,29,14,8,64,,93,82,2,3,6,7,0.5,0.5
2024-10-01T2300,2295A,118.2903,29.6963,黄山市,延安路89号,,28,14,23,10,6,89,,68,68,5,6,6,6,0.3,0.4
2024-10-01T2300,2296A,118.327,29.7178,黄山市,黄山东路89号,,26,20,17,8,9,82,,65,65,6,7,5,4,0.4,0.4
2024-10-01T2300,2297A,118.1371,30.2756,黄山市,黄山区政府5号楼,,13,13,28,3,14,30,,47,46,10,11,7,7,0.4,0.5
2024-10-01T2300,2423A,115.0601,30.2313,黄石市,沈家营,,35,26,20,3,3,110,,105,105,9,9,6,9,0.4,0.4
2024-10-01T2300,2424A,115.0817,30.2006,黄石市,陈家湾,,32,25,19,8,6,102,,100,100,13,7,10,10,0.5,0.5
2024-10-01T2300,2426A,114.8988,30.2019,黄石市,铁山,,36,24,24,10,8,115,,113,113,7,7,9,10,0.6,0.8
2024-10-01T2300,2427A,115.0307,30.2092,黄石市,团城山,,32,29,19,3,3,100,,97,95,7,8,4,6,0.5,0.5
2024-10-01T2300,3149A,115.0235,30.1578,黄石市,笔架山北路,,36,20,16,3,1,114,,106,106,8,9,6,7,0.4,0.6
2024-10-01T2300,1392A,114.4183,23.0528,惠州市,河南岸金山湖子站,,28,28,28,14,16,69,,74,71,9,8,5,6,0.5,0.4
2024-10-01T2300,1393A,114.4053,23.0822,惠州市,下埔横江三路子站,,28,28,25,19,15,84,,81,80,8,7,3,4,0.6,0.5
2024-10-01T2300,1394A,114.4103,23.1142,惠州市,江北云山西路子站,,28,28,25,16,13,80,,76,76,2,4,4,5,0.6,0.5
2024-10-01T2300,1395A,114.4645,22.7833,惠州市,惠阳区承修路船湖子站,,38,38,32,17,15,73,,75,69,10,12,6,7,0.5,0.5
2024-10-01T2300,1396A,114.5317,22.7422,惠州市,大亚湾管委会子站,,28,28,27,13,13,83,,80,79,8,9,7,8,0.4,0.4
2024-10-01T2300,3314A,114.4338,22.8134,惠州市,惠阳秋长,,24,24,24,13,14,71,,74,68,8,9,5,6,0.4,0.3
2024-10-01T2300,3452A,114.6517,22.775,惠州市,大亚湾霞涌,,30,30,25,3,19,77,,74,74,6,6,5,5,0.8,0.6
2024-10-01T2300,2240A,130.9762,45.3001,鸡西市,环保局,,21,21,10,9,5,20,,33,26,6,6,7,6,0.2,0.2
2024-10-01T2300,2243A,130.9429,45.3039,鸡西市,第一中学,,12,11,10,8,5,18,,32,24,7,9,5,5,0.1,0.1
2024-10-01T2300,3707A,131.0207,45.3073,鸡西市,欧美日汽修厂,,18,16,11,12,7,19,,37,28,12,10,5,6,0.2,0.3
2024-10-01T2300,3709A,130.9967,45.3106,鸡西市,市政设施管理处,,24,24,13,7,6,13,,33,23,15,12,7,6,0.1,0.1
2024-10-01T2300,2367A,114.9754,27.0803,吉安市,红声器材厂,,34,34,43,12,16,81,,96,90,16,14,16,13,0.4,0.5
2024-10-01T2300,2368A,114.9658,27.0999,吉安市,市森林工业局,,32,32,38,15,17,81,,94,92,12,15,9,12,0.6,0.6
2024-10-01T2300,2369A,114.99,27.1312,吉安市,市环境监测站,,32,32,37,13,15,82,,98,92,11,11,19,13,0.3,0.5
2024-10-01T2300,2370A,115.0093,27.0968,吉安市,青原区法院,,33,33,40,10,18,82,,99,93,16,14,14,12,0.6,0.7
2024-10-01T2300,1772A,126.54,43.8622,吉林市,哈达湾,,18,18,16,8,7,29,,43,34,18,17,6,6,0.5,0.5
2024-10-01T2300,1773A,126.5844,43.8358,吉林市,东局子,,20,20,15,9,7,27,,45,36,16,15,5,5,0.5,0.4
2024-10-01T2300,1774A,126.5052,43.8245,吉林市,电力学院,,19,19,16,10,7,22,,45,31,16,15,4,4,0.5,0.4
2024-10-01T2300,1775A,126.6133,43.8972,吉林市,江北,,20,20,24,10,8,28,,41,31,14,23,7,8,0.6,0.6
2024-10-01T2300,1776A,126.555,43.8306,吉林市,江南公园,,19,19,16,10,8,28,,45,36,19,16,6,6,0.5,0.5
2024-10-01T2300,1778A,126.7061,43.7133,吉林市,丰满,,12,8,6,7,4,36,,47,42,6,6,6,6,0.3,0.4
2024-10-01T2300,2868A,126.4739,43.953,吉林市,九站,,26,26,22,14,10,12,,45,26,31,18,7,7,0.6,0.5
2024-10-01T2300,1299A,116.9862,36.6114,济南市,科干所,,20,12,24,3,6,63,,94,82,18,16,6,6,0.5,0.6
2024-10-01T2300,1300A,116.9376,36.665,济南市,农科所,,16,15,27,3,6,49,,87,74,24,22,4,4,0.5,0.5
2024-10-01T2300,1301A,117.1265,36.6734,济南市,开发区,,20,12,24,3,13,62,,89,79,14,15,4,4,0.3,0.4
2024-10-01T2300,1303A,117.0624,36.6868,济南市,省种子仓库,,,19,27,,6,58,,88,76,12,11,2,3,0.1,0.3
2024-10-01T2300,1304A,116.9489,36.6447,济南市,机床二厂,,20,20,26,3,5,58,,95,82,26,20,4,4,0.5,0.5
2024-10-01T2300,1305A,117.0495,36.663,济南市,市监测站,,20,12,23,3,8,62,,90,79,19,18,3,4,0.4,0.5
2024-10-01T2300,1306A,116.7675,36.5484,济南市,长清党校,,22,22,29,3,9,63,,97,85,18,19,5,5,0.5,0.6
2024-10-01T2300,1616A,117.6795,36.229,济南市,技术学院,,20,17,19,3,7,63,,92,81,10,11,8,7,0.2,0.4
2024-10-01T2300,1961A,117.532,36.6868,济南市,东山小学,,22,22,28,3,10,63,,96,82,17,16,3,3,0.3,0.4
2024-10-01T2300,3059A,117.7161,36.2049,济南市,泰兴公司,,24,24,22,7,8,67,,93,82,9,11,5,6,0.1,0.3
2024-10-01T2300,3064A,117.6867,36.2171,济南市,莱芜战役纪念馆,,24,24,24,3,7,64,,92,81,11,11,5,5,0.3,0.4
2024-10-01T2300,3494A,117.1673,36.9782,济南市,济阳区政府,,22,22,25,3,4,40,,86,67,28,16,20,5,0.2,0.2
2024-10-01T2300,3495A,117.1171,36.63,济南市,锦屏中学,,21,10,19,3,6,66,,92,81,14,17,4,4,0.2,0.3
2024-10-01T2300,3682A,116.9814,36.6819,济南市,济南四建,,17,17,18,7,7,52,,83,70,21,18,2,3,0.2,0.3
2024-10-01T2300,1653A,116.6251,35.4302,济宁市,火炬城,颗粒物(PM10),55,59,36,9,12,57,,93,81,25,18,9,9,0.4,0.5
2024-10-01T2300,1655A,116.5491,35.4042,济宁市,电化厂,颗粒物(PM10),61,72,52,17,14,37,,91,77,39,15,16,11,0.4,0.4
2024-10-01T2300,3500A,116.5814,35.3707,济宁市,北湖一中,颗粒物(PM10),52,54,38,17,14,60,,94,83,30,16,2,3,0.3,0.4
2024-10-01T2300,3501A,116.8249,35.5593,济宁市,服务中心,颗粒物(PM10),56,61,36,12,9,42,,89,73,39,17,8,6,0.3,0.6
2024-10-01T2300,3678A,116.5907,35.4054,济宁市,市第七中学,颗粒物(PM10),55,59,39,12,12,57,,93,81,25,13,7,8,0.5,0.5
2024-10-01T2300,2255A,130.2751,46.8028,佳木斯市,佳纺,,21,21,11,8,4,38,,63,46,17,8,5,4,0.3,0.4
2024-10-01T2300,2256A,130.3995,46.8307,佳木斯市,发电厂,,15,15,8,9,4,45,,59,49,10,7,7,6,0.5,0.5
2024-10-01T2300,2257A,130.3258,46.7975,佳木斯市,环保局,,24,24,12,10,5,31,,58,43,19,9,8,8,0.3,0.3
2024-10-01T2300,2258A,130.3648,46.8032,佳木斯市,十一中,,21,21,12,10,5,33,,59,47,25,11,7,7,0.4,0.3
2024-10-01T2300,2259A,130.3794,46.7588,佳木斯市,四丰,,,,0,4,3,52,,59,52,6,6,1,1,0.1,0.1
2024-10-01T2300,1252A,120.7436,30.778,嘉兴市,清河小学,,24,24,20,8,9,65,,69,68,18,16,6,4,1.0,0.7
2024-10-01T2300,1253A,120.726,30.7478,嘉兴市,嘉兴学院,,22,20,22,7,9,69,,70,70,13,13,4,3,0.5,0.3
2024-10-01T2300,2872A,120.7846,30.7525,嘉兴市,南湖区残联,,24,22,21,6,8,74,,77,77,8,10,6,5,0.6,0.4
2024-10-01T2300,3407A,120.6916,30.7739,嘉兴市,秀洲住建,,22,20,18,8,10,70,,67,67,10,11,7,6,0.5,0.4
2024-10-01T2300,1945A,98.2908,39.7711,嘉峪关市,气象局,,23,17,32,3,10,72,,98,88,16,21,8,20,0.3,0.4
2024-10-01T2300,2884A,98.2672,39.7978,嘉峪关市,酒钢宾馆,,29,29,38,9,11,67,,101,92,14,14,21,31,0.3,0.6
2024-10-01T2300,3248A,98.2643,39.7724,嘉峪关市,雄关区,,23,23,29,12,14,60,,94,82,18,23,11,13,0.2,0.3
2024-10-01T2300,1383A,113.1064,22.6058,江门市,北街,,20,17,36,6,19,64,,122,88,11,21,5,7,0.7,0.7
2024-10-01T2300,1384A,113.0731,22.5835,江门市,西区,,20,,38,9,19,63,,120,87,10,25,7,9,0.4,0.5
2024-10-01T2300,1385A,113.0219,22.5311,江门市,圭峰西,,21,15,27,8,18,65,,115,89,9,12,4,5,0.7,0.7
2024-10-01T2300,1386A,113.0828,22.5947,江门市,东湖,,20,15,37,7,19,63,,120,87,8,20,5,7,0.4,0.5
2024-10-01T2300,3311A,113.1075,22.5647,江门市,江海富民,,42,42,43,10,19,66,,128,92,9,19,7,9,0.6,0.6
2024-10-01T2300,3449A,113.05,22.4667,江门市,新会银湖,,22,14,38,9,22,69,,125,95,7,15,7,8,0.8,0.9
2024-10-01T2300,1828A,113.227,35.2125,焦作市,市环保局,颗粒物(PM10),53,55,67,14,20,78,,86,84,12,20,3,5,0,0.2
2024-10-01T2300,1830A,113.1992,35.2590,焦作市,影视城,,45,45,58,24,28,89,,106,101,5,5,5,5,0.3,0.3
2024-10-01T2300,3169A,113.2725,35.2067,焦作市,太极体育中心,颗粒物(PM10),51,51,69,11,16,76,,90,84,14,18,3,4,0.1,0.3
2024-10-01T2300,3335A,113.3137,35.2641,焦作市,马村街道办,颗粒物(PM10),53,56,60,11,16,72,,94,88,16,15,2,3,0.2,0.3
2024-10-01T2300,3336A,113.2465,35.2373,焦作市,焦作技师学院,,40,40,62,9,22,75,,85,82,13,19,1,2,0.2,0.4
2024-10-01T2300,3477A,113.1656,35.2539,焦作市,中站许衡医院,,39,39,59,24,24,77,,89,84,12,17,2,2,0.3,0.6
2024-10-01T2300,3981A,113.2449,35.1803,焦作市,原李万街道办,颗粒物(PM10),51,52,62,10,16,79,,87,84,8,14,2,3,0.0,0.2
2024-10-01T2300,1708A,116.3701,23.5345,揭阳市,新兴,,26,26,23,15,13,54,,52,50,9,11,4,5,0.7,0.6
2024-10-01T2300,1709A,116.3264,23.5443,揭阳市,西马,,23,23,24,16,13,60,,57,55,4,6,5,5,0.6,0.5
2024-10-01T2300,1710A,116.3611,23.5626,揭阳市,东兴,,24,24,37,14,13,55,,51,50,8,10,5,5,0.7,0.6
2024-10-01T2300,1711A,116.4151,23.5294,揭阳市,渔湖,,18,18,18,10,8,55,,50,50,7,8,4,4,0.6,0.4
2024-10-01T2300,3320A,116.403,23.5699,揭阳市,曲溪,,19,16,18,13,11,52,,50,50,10,10,1,2,0.5,0.4
2024-10-01T2300,1944A,102.1692,38.5167,金昌市,天庆家园,,42,42,40,7,16,69,,107,82,12,20,9,18,0.3,0.5
2024-10-01T2300,3170A,102.1864,38.5253,金昌市,市委党校,,28,28,43,11,20,82,,116,96,19,22,6,16,0.6,0.6
2024-10-01T2300,4022A,102.1647,38.5371,金昌市,金川区人防中心,,40,40,42,9,19,80,,108,90,8,21,6,15,0.5,0.6
2024-10-01T2300,1262A,119.647,29.077,金华市,十五中,,,17,23,3,12,72,,70,59,,17,53,4,0.3,0.4
2024-10-01T2300,1263A,119.686,29.1029,金华市,监测站,,23,14,23,8,13,72,,68,58,9,19,2,2,0.4,0.5
2024-10-01T2300,3659A,119.656,29.1131,金华市,气象局,,22,12,21,3,7,68,,66,57,12,22,5,5,0.4,0.5
2024-10-01T2300,1767A,121.1115,41.0879,锦州市,南山,,46,39,19,32,13,18,,64,41,28,16,8,10,2.1,0.7
2024-10-01T2300,1768A,121.0533,40.8434,锦州市,开发区,颗粒物(PM10),67,83,42,18,11,5,,54,20,64,37,10,11,1.0,0.9
2024-10-01T2300,1769A,121.1836,41.1119,锦州市,百股街道,,42,42,19,19,9,14,,63,36,35,18,8,9,1.0,0.6
2024-10-01T2300,1770A,121.1178,41.1222,锦州市,天安街道,,37,37,23,23,11,45,,63,53,17,16,67,20,0.6,0.4
2024-10-01T2300,1771A,121.1303,41.1386,锦州市,北湖公园,,25,20,18,17,12,46,,67,56,14,13,14,12,0.5,0.4
2024-10-01T2300,2160A,112.85,35.5051,晋城市,自来水公司,颗粒物(PM10),51,52,59,7,11,77,,94,90,24,25,8,6,0.6,0.5
2024-10-01T2300,2161A,112.8318,35.4936,晋城市,白云商贸,颗粒物(PM10),52,54,69,3,11,73,,96,89,27,24,6,6,0.6,0.6
2024-10-01T2300,2162A,112.8508,35.4887,晋城市,市环保局,,48,48,58,9,13,78,,97,93,27,28,6,5,0.6,0.5
2024-10-01T2300,2163A,112.8676,35.4897,晋城市,技术学院,颗粒物(PM10),59,67,66,9,12,77,,98,93,24,23,6,5,0.6,0.5
2024-10-01T2300,3620A,112.8271,35.4828,晋城市,泽州一中,,50,50,60,9,11,80,,92,89,23,22,8,8,0.9,0.7
2024-10-01T2300,2171A,112.7532,37.6945,晋中市,锦纶小区,,44,44,103,12,15,41,,88,66,33,14,4,5,0.3,0.3
2024-10-01T2300,2173A,112.7249,37.7067,晋中市,南都小区,,46,46,94,22,22,41,,88,65,38,17,4,4,0.6,0.5
2024-10-01T2300,2174A,112.6991,37.6982,晋中市,榆次区政府,,44,44,97,15,18,41,,91,68,42,16,4,4,0.3,0.2
2024-10-01T2300,2865A,112.7195,37.6828,晋中市,榆次三中,,46,46,105,9,12,43,,89,68,30,14,6,7,0.4,0.4
2024-10-01T2300,2439A,112.2014,31.0481,荆门市,竹园小学,,50,50,34,13,10,71,,103,89,20,16,12,11,0.5,0.4
2024-10-01T2300,2440A,112.1969,30.9891,荆门市,掇刀,,48,48,33,15,10,76,,106,95,19,18,9,7,0.4,0.4
2024-10-01T2300,2441A,112.2213,31.0386,荆门市,石化一小,颗粒物(PM10),53,55,35,16,11,70,,105,90,24,14,18,17,0.3,0.3
2024-10-01T2300,3012A,112.1849,31.0362,荆门市,西山林语,颗粒物(PM10),51,52,28,14,9,78,,105,97,16,15,10,8,0.7,0.5
2024-10-01T2300,3547A,112.1632,31.0138,荆门市,龙泉中学南校,颗粒物(PM10),52,53,33,17,10,88,,106,98,14,13,11,10,0.3,0.4
2024-10-01T2300,1844A,112.2494,30.3197,荆州市,市图书馆,,48,48,28,21,11,87,,108,105,20,16,10,9,0.4,0.5
2024-10-01T2300,1845A,112.2008,30.3544,荆州市,市委党校,颗粒物(PM10),51,52,26,16,9,84,,113,108,18,13,8,7,0.3,0.3
2024-10-01T2300,3194A,112.2747,30.3122,荆州市,管委会,,39,39,25,16,10,94,,110,108,16,14,9,8,0.5,0.5
2024-10-01T2300,3548A,112.1655,30.3364,荆州市,学苑路,,49,49,28,15,10,84,,115,110,18,15,6,9,0.5,0.5
2024-10-01T2300,2343A,117.2117,29.2933,景德镇市,老干部活动中心,,24,19,24,14,14,75,,64,61,7,7,7,7,0.5,0.5
2024-10-01T2300,2344A,117.1894,29.2789,景德镇市,兽医站,,25,24,26,17,14,75,,67,63,7,6,8,6,0.5,0.5
2024-10-01T2300,2345A,117.1547,29.2617,景德镇市,台达陶瓷,,25,18,31,8,14,78,,66,63,5,6,6,6,0.4,0.4
2024-10-01T2300,2346A,117.2461,29.2956,景德镇市,陶研所,,27,12,30,9,12,86,,76,69,7,8,6,6,0.4,0.4
2024-10-01T2300,1803A,115.9872,29.6815,九江市,十里,,32,30,29,7,9,102,,92,92,12,13,9,9,0.4,0.5
2024-10-01T2300,1804A,115.9584,29.7046,九江市,茅山头,,30,28,25,10,10,95,,85,85,12,14,6,8,0.5,0.6
2024-10-01T2300,1805A,115.9877,29.7295,九江市,西园,,32,23,21,7,10,101,,96,96,13,12,9,9,0.3,0.4
2024-10-01T2300,1806A,116.0172,29.6547,九江市,五七二七厂,,30,23,28,7,8,96,,91,91,10,13,8,9,0.4,0.5
2024-10-01T2300,1808A,115.9114,29.6038,九江市,综合工业园,,34,21,25,10,9,107,,98,98,13,18,6,13,0.3,0.5
2024-10-01T2300,1809A,116.0721,29.7535,九江市,石化总厂,,29,27,29,15,12,90,,88,88,12,14,8,8,0.5,0.5
2024-10-01T2300,1810A,115.9773,29.5698,九江市,庐山气象台,,36,25,18,13,10,115,,107,107,3,6,8,9,0.4,0.6
2024-10-01T2300,3190A,116.0254,29.6994,九江市,外国语学校,,30,29,30,6,8,96,,89,89,11,13,9,8,0.7,0.7
2024-10-01T2300,2658A,98.5061,39.7443,酒泉市,仓门街子站,,27,27,30,17,15,47,,105,84,25,11,2,5,0.5,0.4
2024-10-01T2300,2659A,98.4989,39.7256,酒泉市,油田生活基地,,26,19,36,18,22,64,,108,93,18,14,1,5,0.3,0.4
2024-10-01T2300,2698A,76.0072,39.4467,喀什地区,巡警大队,颗粒物(PM10),163,275,208,41,31,62,,80,76,24,20,4,3,0.6,0.5
2024-10-01T2300,2699A,75.9755,39.4694,喀什地区,吾办,颗粒物(PM10),159,267,193,66,44,51,,80,71,34,17,4,4,0.6,0.5
2024-10-01T2300,4027A,75.9483,39.4689,喀什地区,老干局,颗粒物(PM10),169,287,209,45,27,50,,80,73,28,13,4,4,0.5,0.5
2024-10-01T2300,1824A,114.3389,34.7781,开封市,肿瘤医院,颗粒物(PM10),86,121,54,35,18,18,,106,79,77,22,4,6,0.3,0.3
2024-10-01T2300,1826A,114.2885,34.7965,开封市,世纪星幼儿园,颗粒物(PM10),70,90,53,21,10,44,,107,82,46,19,6,6,0.7,0.6
2024-10-01T2300,3147A,114.3438,34.8106,开封市,龙亭公园,颗粒物(PM10),84,117,57,28,16,25,,108,78,65,28,6,6,0.6,0.3
2024-10-01T2300,3210A,114.3644,34.7964,开封市,汴京公园,颗粒物(PM10),91,132,60,60,18,24,,99,66,55,21,3,3,0.5,0.4
2024-10-01T2300,3473A,114.2485,34.8306,开封市,技师学院,颗粒物(PM10),76,101,48,38,14,53,,107,93,40,19,8,8,0.6,0.5
2024-10-01T2300,3592A,114.4644,34.7556,开封市,祥符区生态环境局,颗粒物(PM10),91,132,58,39,16,17,,100,57,76,30,7,8,0.5,0.5
2024-10-01T2300,1951A,84.895,45.6094,克拉玛依市,长征新村,颗粒物(PM10),54,57,32,21,8,90,,102,101,18,15,7,6,0.4,0.3
2024-10-01T2300,1952A,84.8988,45.5893,克拉玛依市,南林小区,"颗粒物(PM10),细颗粒物(PM2.5)",58,66,31,41,19,37,,97,79,60,27,5,5,0.1,0.1
2024-10-01T2300,1954A,84.905,44.3396,克拉玛依市,独山子区,颗粒物(PM10),56,62,34,28,18,52,,92,80,26,19,8,10,0.5,0.4
2024-10-01T2300,1955A,85.6979,46.098,克拉玛依市,乌尔禾区商贸楼,细颗粒物(PM2.5),100,93,28,75,10,45,,98,89,40,17,14,10,1.2,0.5
2024-10-01T2300,3612A,85.1045,45.6899,克拉玛依市,白碱滩区新站,,47,47,33,12,7,112,,103,103,13,20,8,7,0.4,0.4
2024-10-01T2300,2697A,76.1454,39.7142,克孜勒苏柯尔克孜自治州,市人民政府,颗粒物(PM10),160,269,227,58,46,76,,93,86,15,10,3,2,0.7,0.6
2024-10-01T2300,3665A,76.1658,39.7157,克孜勒苏柯尔克孜自治州,克州文化中心,颗粒物(PM10),156,261,217,60,57,80,,94,91,15,8,5,6,0.6,0.5
2024-10-01T2300,1450A,102.8204,24.8886,昆明市,呈贡新区,,22,22,16,6,2,64,,64,64,7,6,5,4,0.4,0.5
2024-10-01T2300,1452A,102.7252,25.0902,昆明市,龙泉镇,,21,21,10,8,2,58,,63,58,10,8,8,7,0.6,0.6
2024-10-01T2300,1453A,102.7266,25.0375,昆明市,东风东路,,18,18,9,3,5,56,,62,56,12,8,5,5,0.4,0.4
2024-10-01T2300,1454A,102.6742,25.0669,昆明市,金鼎山,,21,,8,13,4,66,,65,63,6,6,3,3,0.4,0.4
2024-10-01T2300,1455A,102.6644,25.0401,昆明市,碧鸡广场,,28,,9,19,12,63,,62,60,8,9,7,7,0.5,0.5
2024-10-01T2300,3179A,102.7494,25.0119,昆明市,官渡区博物馆,,19,8,12,7,7,59,,59,58,15,14,6,6,0.4,0.5
2024-10-01T2300,3375A,102.8017,24.8336,昆明市,青年创业园,,22,8,5,3,2,70,,68,68,5,5,3,4,0.4,0.4
2024-10-01T2300,3550A,102.7997,24.9786,昆明市,昆明学院,,25,12,8,3,2,78,,76,76,6,7,5,5,0.3,0.4
2024-10-01T2300,3551A,102.5967,24.6736,昆明市,晋宁区生态环境分局,,23,13,15,3,4,72,,74,72,8,6,1,3,0.6,0.5
2024-10-01T2300,3552A,102.6678,24.9856,昆明市,云天化总部,,20,14,12,8,6,63,,64,63,13,11,5,5,0.4,0.4
2024-10-01T2300,1456A,91.1319,29.6514,拉萨市,八廓街,,34,11,15,7,9,106,,106,95,13,19,8,10,0.1,0.1
2024-10-01T2300,1457A,91.1221,29.6747,拉萨市,市环保局,,34,16,25,10,9,106,,106,99,12,21,6,8,0.4,0.4
2024-10-01T2300,1458A,91.0874,29.6475,拉萨市,区监测站,,34,11,16,9,8,107,,99,92,8,24,5,7,0,0.1
2024-10-01T2300,1459A,91.1774,29.6541,拉萨市,西藏大学,,33,13,12,8,7,104,,106,103,7,12,6,10,0.4,0.3
2024-10-01T2300,1460A,90.9798,29.6588,拉萨市,区辐射站,,29,18,18,17,8,92,,93,82,16,19,8,9,0.2,0.2
2024-10-01T2300,1461A,91.0834,29.6292,拉萨市,拉萨火车站,,34,,13,16,7,106,,95,94,5,21,5,6,0.3,0.4
2024-10-01T2300,2520A,109.2203,23.7256,来宾市,来宾技工学校,,18,8,36,3,20,55,,58,51,7,11,9,7,0.5,0.7
2024-10-01T2300,3535A,109.1781,23.7297,来宾市,兴宾区政府,,19,7,31,3,16,60,,65,56,4,6,6,7,0.9,0.9
2024-10-01T2300,4002A,109.2416,23.7461,来宾市,中南小学,,19,6,38,3,20,60,,64,57,4,9,7,8,0.6,0.8
2024-10-01T2300,1476A,103.631,36.1031,兰州市,兰炼宾馆,颗粒物(PM10),55,60,43,38,26,17,,133,86,75,30,7,10,0.9,0.5
2024-10-01T2300,1478A,103.8412,36.0726,兰州市,生物制品所,颗粒物(PM10),51,51,35,32,24,3,,91,64,76,32,8,13,0.5,0.4
2024-10-01T2300,1479A,103.831,36.0464,兰州市,铁路设计院,"颗粒物(PM10),细颗粒物(PM2.5)",54,58,41,38,27,1,,82,46,86,47,7,11,1.0,0.7
2024-10-01T2300,3186A,103.7158,36.1058,兰州市,教育港,颗粒物(PM10),54,57,46,34,28,28,,118,81,53,28,8,10,0.7,0.5
2024-10-01T2300,3241A,103.7439,36.0842,兰州市,百合公园,,50,50,39,31,21,6,,106,70,70,31,8,10,0.8,0.6
2024-10-01T2300,3242A,103.9611,35.998,兰州市,和平,,30,30,36,14,20,54,,91,77,23,22,9,13,0.4,0.5
2024-10-01T2300,3245A,103.6633,36.533,兰州新区,新区管委会,颗粒物(PM10),58,65,31,39,17,49,,102,86,29,15,12,12,0.6,0.5
2024-10-01T2300,3246A,103.6975,36.4789,兰州新区,舟曲中学,颗粒物(PM10),54,58,25,25,12,48,,106,90,47,19,22,13,0.5,0.3
2024-10-01T2300,1067A,116.6708,39.5111,廊坊市,药材公司,,15,15,17,3,5,37,,63,48,17,14,2,2,0.4,0.3
2024-10-01T2300,1068A,116.7214,39.5589,廊坊市,开发区,,15,14,20,10,6,37,,67,53,20,14,2,2,0.4,0.3
2024-10-01T2300,1070A,116.7244,39.5269,廊坊市,北华航天学院,,17,17,23,3,5,37,,62,49,17,12,2,2,0.3,0.2
2024-10-01T2300,2919A,116.7022,39.5453,廊坊市,河北工业大学,,13,11,22,9,7,39,,66,52,16,12,2,2,0.3,0.2
2024-10-01T2300,2535A,103.7723,29.5462,乐山市,花湖湾,,40,40,22,25,12,38,,101,85,19,15,3,2,0.7,0.5
2024-10-01T2300,2536A,103.7627,29.5844,乐山市,牛耳桥,颗粒物(PM10),56,61,23,30,11,47,,94,79,24,24,7,5,0.4,0.4
2024-10-01T2300,2537A,103.7508,29.6006,乐山市,市第三水厂,颗粒物(PM10),52,53,22,24,10,48,,103,89,25,20,6,4,0.6,0.4
2024-10-01T2300,2538A,103.7571,29.5664,乐山市,市监测站,,45,45,23,25,15,48,,98,80,20,17,7,4,0.5,0.6
2024-10-01T2300,3361A,103.7311,29.5628,乐山市,理工大学,,42,42,21,25,12,42,,98,80,26,18,12,3,0.6,0.4
2024-10-01T2300,2599A,100.2497,26.8802,丽江市,丽江古城,,19,15,16,13,11,51,,58,55,10,9,9,9,0.7,0.7
2024-10-01T2300,2600A,100.2203,26.8906,丽江市,市中心,,17,8,9,7,7,52,,55,54,10,10,6,6,0.8,0.8
2024-10-01T2300,1267A,119.914,28.4514,丽水市,监测站大楼,,20,7,16,3,6,64,,85,66,7,10,4,4,0.2,0.3
2024-10-01T2300,1268A,119.93,28.4586,丽水市,莲都小学,,20,6,15,3,4,63,,86,65,7,8,4,4,0.3,0.3
2024-10-01T2300,1269A,119.879,28.4231,丽水市,余庄前,,21,11,20,3,8,66,,68,59,6,9,4,3,0.5,0.4
2024-10-01T2300,1173A,119.176,34.5885,连云港市,市环境监测站,,44,44,24,9,8,87,,105,98,14,12,8,6,0.5,0.4
2024-10-01T2300,3000A,119.3581,34.6972,连云港市,德源药业,,36,36,20,9,7,92,,102,93,9,11,7,6,0.2,0.4
2024-10-01T2300,3007A,119.178,34.844,连云港市,新城一中,,28,28,17,18,12,76,,104,91,23,20,9,5,0.6,0.5
2024-10-01T2300,3008A,119.3608,34.7519,连云港市,胡沟管理处,,36,36,19,9,7,86,,101,98,12,10,12,10,0.5,0.7
2024-10-01T2300,3009A,119.1478,34.5911,连云港市,矿山设计院,,39,39,21,14,9,87,,102,95,16,13,7,5,0.6,0.5
2024-10-01T2300,3434A,119.2413,34.6539,连云港市,工贸学校,,30,30,21,13,11,89,,104,98,15,11,9,8,0.7,0.8
2024-10-01T2300,3664A,119.4172,34.7341,连云港市,连云街道,,39,39,24,9,9,75,,94,87,29,18,10,6,0.9,0.5
2024-10-01T2300,2571A,102.3431,27.8099,凉山彝族自治州,青龙寺,,13,13,7,3,1,36,,67,51,5,3,5,5,0.6,0.5
2024-10-01T2300,2572A,102.2721,27.8415,凉山彝族自治州,邛海宾馆,,15,6,4,3,2,48,,64,57,12,7,8,8,0.5,0.5
2024-10-01T2300,2573A,102.2625,27.898,凉山彝族自治州,西昌市政府,,17,6,3,3,2,53,,68,58,7,3,8,6,0.4,0.4
2024-10-01T2300,2574A,102.2685,27.8851,凉山彝族自治州,凉山州政府,,17,8,4,7,3,54,,66,58,7,5,6,6,0.6,0.5
2024-10-01T2300,2575A,102.237,27.8914,凉山彝族自治州,长安,,18,,3,3,3,55,,70,61,11,4,17,9,0.8,0.6
2024-10-01T2300,2212A,123.2,41.1953,辽阳市,宏伟区,,28,28,21,8,7,21,,55,38,18,16,4,5,0.4,0.5
2024-10-01T2300,2213A,123.1683,41.2495,辽阳市,新华园,,42,42,22,7,5,9,,55,36,39,20,10,13,0.8,0.8
2024-10-01T2300,2214A,123.2354,41.2639,辽阳市,滨河路,,42,42,19,20,12,5,,58,34,29,17,10,11,0.6,0.6
2024-10-01T2300,2215A,123.149,41.2991,辽阳市,铁西工业园,颗粒物(PM10),53,56,21,24,13,1,,48,24,38,16,12,13,0.9,0.7
2024-10-01T2300,2227A,125.1358,42.8845,辽源市,环保局,,26,26,18,15,8,13,,57,34,21,11,7,8,0.7,0.6
2024-10-01T2300,3239A,125.0764,42.9078,辽源市,银鹰制药,,29,29,20,13,10,5,,53,26,28,17,5,6,0.5,0.5
2024-10-01T2300,1625A,115.9848,36.4372,聊城市,区政府,,20,7,39,3,5,62,,90,77,19,20,8,8,0.4,0.4
2024-10-01T2300,2878A,116.0072,36.4343,聊城市,聊大东校,,20,19,43,3,8,64,,92,80,23,20,6,7,0.4,0.4
2024-10-01T2300,3200A,115.9819,36.4978,聊城市,监控中心,,39,39,42,7,7,32,,86,64,37,26,7,7,0.4,0.3
2024-10-01T2300,3513A,116.0445,36.4361,聊城市,九州社区,,21,21,40,3,5,54,,91,75,23,14,2,3,0.5,0.5
2024-10-01T2300,4018A,116.0567,36.4608,聊城市,星美广场,,48,48,49,3,5,42,,91,69,28,15,3,6,0.2,0.2
2024-10-01T2300,2632A,94.3681,29.6376,林芝市,林芝监测站,,16,,12,3,6,49,,67,65,4,4,10,10,0.3,0.2
2024-10-01T2300,2633A,94.3616,29.6616,林芝市,林芝人民医院,,15,6,12,3,4,47,,68,65,6,6,5,5,0.1,0.1
2024-10-01T2300,2603A,100.0781,23.8982,临沧市,市环保局,,20,,13,14,14,63,,63,63,6,8,4,4,0.4,0.5
2024-10-01T2300,2604A,100.0894,23.8822,临沧市,市气象局,,21,,14,11,13,65,,64,64,6,7,2,3,0.4,0.5
2024-10-01T2300,1733A,111.5531,36.0783,临汾市,临钢医院,颗粒物(PM10),53,56,84,20,14,4,,90,69,57,18,2,3,0.5,0.3
2024-10-01T2300,1734A,111.5028,36.0714,临汾市,技工学校,颗粒物(PM10),55,60,84,21,14,22,,89,72,57,14,3,4,0.6,0.4
2024-10-01T2300,1736A,111.5018,36.0855,临汾市,市委,颗粒物(PM10),52,53,77,19,12,35,,96,80,45,11,4,4,0.4,0.2
2024-10-01T2300,3018A,111.505,36.1014,临汾市,唐尧大酒店,颗粒物(PM10),54,57,70,17,13,44,,89,78,36,13,4,3,0.5,0.3
2024-10-01T2300,3668A,111.5036,36.0414,临汾市,城南,颗粒物(PM10),72,93,80,33,18,2,,91,63,50,10,4,4,0.4,0.2
2024-10-01T2300,2667A,103.2069,35.5993,临夏回族自治州,环保局,颗粒物(PM10),52,53,29,24,18,20,,92,65,35,13,10,8,0.9,0.4
2024-10-01T2300,2668A,103.2417,35.6057,临夏回族自治州,建设大厦,,50,50,24,24,15,16,,96,63,37,15,3,3,0.8,0.5
2024-10-01T2300,1618A,118.3429,35.0532,临沂市,沂河小区,,29,29,24,14,13,78,,101,95,12,9,7,7,0.3,0.3
2024-10-01T2300,1619A,118.295,35.0583,临沂市,鲁南制药厂,,29,29,24,3,5,75,,103,95,19,12,5,5,0.3,0.4
2024-10-01T2300,1620A,118.2794,34.9976,临沂市,新光毛纺厂,,27,27,23,8,7,67,,98,88,25,18,4,5,0.5,0.5
2024-10-01T2300,1621A,118.3956,35.0888,临沂市,河东保险公司,,27,22,18,6,6,86,,110,102,24,20,7,7,0.6,0.7
2024-10-01T2300,3370A,118.3564,35.0215,临沂市,十里堡居委,,26,24,16,7,7,83,,105,98,18,15,7,8,0.4,0.5
2024-10-01T2300,3496A,118.3604,35.1084,临沂市,南坊新区,,34,34,25,7,7,79,,103,95,18,15,8,7,0.3,0.4
2024-10-01T2300,3860A,118.3920,35.0300,临沂市,皇山花园小区,,27,24,20,9,10,84,,102,98,10,11,6,7,0,0.2
2024-10-01T2300,1870A,109.4856,24.3895,柳州市,柳东小学,,21,8,30,3,18,65,,67,58,4,7,7,8,0.5,0.7
2024-10-01T2300,1871A,109.4157,24.3277,柳州市,环保监测站,,,6,26,3,18,,,59,59,6,10,8,9,0.6,0.7
2024-10-01T2300,1872A,109.389,24.341,柳州市,河西水厂,,23,23,51,11,21,50,,40,39,21,22,20,23,1.7,2
2024-10-01T2300,1873A,109.4311,24.2921,柳州市,市四中,,,,27,4,18,70,,68,64,5,10,6,7,0.5,0.5
2024-10-01T2300,1874A,109.4006,24.3631,柳州市,市九中,,20,16,36,3,15,63,,58,58,10,13,6,7,0.9,0.9
2024-10-01T2300,1875A,109.4958,24.3134,柳州市,古亭山,,21,,29,7,19,67,,90,60,8,11,7,8,0.6,0.7
2024-10-01T2300,3402A,109.5422,24.3996,柳州市,市二中,,20,6,34,3,22,62,,90,54,8,11,8,9,0.4,0.5
2024-10-01T2300,2307A,116.5079,31.737,六安市,监测大楼,,49,49,22,20,11,88,,102,101,11,8,6,5,0.3,0.3
2024-10-01T2300,2308A,116.4738,31.7643,六安市,皖西学院,颗粒物(PM10),60,69,30,19,10,89,,104,102,14,10,6,5,0.3,0.3
2024-10-01T2300,2309A,116.4996,31.7905,六安市,朝阳厂,,44,44,18,17,11,84,,99,97,12,8,1,2,0.3,0.3
2024-10-01T2300,2310A,116.5567,31.7886,六安市,开发区,颗粒物(PM10),55,60,27,24,12,75,,97,90,14,11,2,2,0.4,0.4
2024-10-01T2300,2577A,104.83,26.5917,六盘水市,黄土坡,,29,24,9,20,8,67,,82,79,7,4,6,6,0.2,0.2
2024-10-01T2300,2578A,104.89,26.5939,六盘水市,水钢,,24,22,13,10,4,76,,74,72,5,16,7,6,0.1,0.1
2024-10-01T2300,2579A,104.8475,26.5894,六盘水市,民中,,21,19,9,9,4,65,,79,77,10,6,8,7,0.3,0.3
2024-10-01T2300,2580A,104.9544,26.5506,六盘水市,双水,,26,19,10,18,8,53,,74,63,21,12,12,8,0.4,0.4
2024-10-01T2300,2336A,117.0217,25.1033,龙岩市,龙岩市监测站,,19,,11,7,8,59,,47,46,8,7,6,7,0.4,0.3
2024-10-01T2300,2337A,117.0258,25.0661,龙岩市,闽西职业技术学院,,19,8,11,3,6,58,,49,48,4,3,4,4,0.4,0.4
2024-10-01T2300,2338A,117.0196,25.0306,龙岩市,龙岩学院,,18,,12,6,7,57,,47,44,5,4,7,3,0.3,0.2
2024-10-01T2300,2885A,104.9339,33.3826,陇南市,滨江中学,,33,33,34,23,17,45,,92,66,14,8,7,7,0.6,0.6
2024-10-01T2300,3247A,104.955,33.371,陇南市,市总工会,,37,37,29,3,5,45,,93,67,18,8,3,2,0.3,0.3
2024-10-01T2300,2487A,111.9589,27.8901,娄底市,电视发射台,,42,42,25,16,11,82,,82,82,6,6,6,6,0.5,0.5
2024-10-01T2300,2488A,111.9975,27.725,娄底市,市监测站,,,39,24,,10,92,,87,87,14,9,6,7,0.3,0.5
2024-10-01T2300,2489A,112.0194,27.7314,娄底市,市委党校,,46,46,26,16,13,93,,84,84,5,5,6,5,0.6,0.6
2024-10-01T2300,2490A,111.9561,27.7569,娄底市,涟钢,,36,36,24,12,12,75,,76,76,7,7,7,3,0.5,0.5
2024-10-01T2300,2491A,111.9892,27.7044,娄底市,市政府,,35,32,25,24,12,60,,77,76,11,8,5,5,0.3,0.3
2024-10-01T2300,1893A,105.4324,28.9634,泸州市,九狮山,,25,25,19,12,8,38,,51,44,19,17,5,5,0.3,0.3
2024-10-01T2300,1894A,105.4427,28.9063,泸州市,小市上码头,,25,25,17,6,5,53,,73,63,11,11,3,4,0.4,0.4
2024-10-01T2300,1895A,105.4241,28.8573,泸州市,兰田宪桥,,21,21,16,7,7,51,,73,61,7,9,3,3,0.4,0.4
2024-10-01T2300,1896A,105.4379,28.8833,泸州市,市环监站,,23,23,18,12,10,52,,66,60,9,10,3,3,0.4,0.4
2024-10-01T2300,3490A,105.3617,28.7703,泸州市,纳溪区环保局,,29,29,20,15,12,48,,70,54,9,12,7,5,0.3,0.3
2024-10-01T2300,2183A,111.1406,37.5211,吕梁市,环保局,颗粒物(PM10),53,55,102,12,20,15,,85,56,42,16,3,4,0.3,0.2
2024-10-01T2300,2185A,111.1297,37.5136,吕梁市,自来水公司,颗粒物(PM10),54,57,92,15,20,32,,84,68,24,12,1,2,0.3,0.2
2024-10-01T2300,2867A,111.1283,37.51,吕梁市,马茂庄小学,颗粒物(PM10),55,59,119,10,20,9,,88,53,53,23,3,2,0.3,0.3
2024-10-01T2300,1812A,112.3931,34.6516,洛阳市,市委党校,颗粒物(PM10),65,79,70,25,20,62,,86,80,20,13,8,8,0.4,0.3
2024-10-01T2300,1814A,112.4657,34.6871,洛阳市,豫西宾馆,颗粒物(PM10),79,107,89,28,19,32,,86,67,46,21,79,20,0.8,0.5
2024-10-01T2300,1815A,112.494,34.6886,洛阳市,河南林校,颗粒物(PM10),74,98,77,41,23,34,,89,72,40,19,54,11,0.8,0.5
2024-10-01T2300,1816A,112.3844,34.623,洛阳市,开发区管委会,颗粒物(PM10),66,81,66,28,19,56,,91,85,16,11,2,3,0.2,0.2
2024-10-01T2300,1817A,112.4267,34.6258,洛阳市,市委新办公区,颗粒物(PM10),68,86,70,27,22,61,,92,85,16,10,1,3,0,0
2024-10-01T2300,3340A,112.6005,34.6326,洛阳市,伊滨,颗粒物(PM10),61,71,55,22,18,56,,90,81,23,17,9,8,0.2,0.2
2024-10-01T2300,3341A,112.4951,34.6332,洛阳市,中移产业园,颗粒物(PM10),61,71,69,21,17,69,,95,88,18,14,2,3,0.2,0.2
2024-10-01T2300,3593A,112.5736,34.8993,洛阳市,吉利监测站,,45,45,67,12,14,48,,82,71,28,20,3,3,0.2,0.2
2024-10-01T2300,3635A,112.3677,34.662,洛阳市,河科大西苑校区,颗粒物(PM10),68,86,76,23,18,50,,90,79,26,12,6,6,0.4,0.4
2024-10-01T2300,3636A,112.4388,34.6781,洛阳市,英才小学,颗粒物(PM10),76,102,81,27,19,48,,89,75,34,19,52,13,0.6,0.4
2024-10-01T2300,2399A,114.051,33.5699,漯河市,三五一五工厂,颗粒物(PM10),86,122,66,39,19,65,,106,92,20,13,10,8,0.3,0.4
2024-10-01T2300,2400A,114.0055,33.5698,漯河市,漯河大学,颗粒物(PM10),85,119,68,31,18,66,,104,90,23,17,9,7,0.5,0.5
2024-10-01T2300,2401A,114.0138,33.5828,漯河市,市水利局,颗粒物(PM10),87,124,67,36,17,60,,103,86,24,14,10,7,0.5,0.5
2024-10-01T2300,2402A,114.0261,33.5698,漯河市,市广电局,颗粒物(PM10),84,117,67,38,18,67,,105,90,22,15,14,10,0.6,0.6
2024-10-01T2300,3478A,113.9749,33.5664,漯河市,市图书馆,颗粒物(PM10),90,130,65,48,17,66,,106,88,23,16,11,10,0.7,0.6
2024-10-01T2300,3479A,114.0967,33.5906,漯河市,召陵区卫健委,颗粒物(PM10),88,126,59,39,18,63,,104,84,17,13,9,8,0.4,0.4
2024-10-01T2300,1798A,118.5092,31.6837,马鞍山市,湖东路四小,,36,36,25,11,16,80,,95,92,24,20,7,11,0.5,1.1
2024-10-01T2300,1799A,118.5024,31.6449,马鞍山市,开发区,,30,30,27,12,13,82,,94,92,26,21,7,7,0.7,0.9
2024-10-01T2300,1800A,118.5228,31.7231,马鞍山市,慈湖,,32,32,29,14,16,60,,87,78,31,19,8,11,0.9,1.1
2024-10-01T2300,1802A,118.6245,31.7241,马鞍山市,濮塘,,34,34,29,12,16,53,,65,,5,12,7,9,0.8,0.8
2024-10-01T2300,3633A,118.4918,31.6809,马鞍山市,雨山,,38,38,27,14,15,66,,90,86,30,22,9,12,0.8,1.1
2024-10-01T2300,1686A,111.0286,21.4688,茂名市,电白南海,,44,44,44,19,23,80,,120,105,10,11,13,15,0.6,0.7
2024-10-01T2300,1687A,110.9294,21.6533,茂名市,茂石化七小,,29,29,40,12,24,71,,103,92,9,12,9,14,0.7,0.7
2024-10-01T2300,1688A,110.9107,21.6687,茂名市,健康路,,31,31,37,9,19,74,,110,98,5,8,16,22,0.9,1
2024-10-01T2300,1689A,110.8592,21.6828,茂名市,高岭,,39,39,44,19,23,70,,105,95,9,11,21,14,0.7,0.9
2024-10-01T2300,3450A,111.01,21.5165,茂名市,电白水东,,44,44,35,19,24,72,,101,90,9,10,33,22,1.0,1
2024-10-01T2300,2539A,104.0308,30.0478,眉山市,黑龙滩水库,,32,32,29,9,19,78,,120,106,6,6,3,2,0.3,0.3
2024-10-01T2300,2540A,103.8416,30.0874,眉山市,气象局,,37,37,28,17,13,25,,104,88,44,22,5,6,0.4,0.3
2024-10-01T2300,3137A,103.8578,30.0744,眉山市,市委党校,,39,39,22,17,9,37,,100,79,43,24,9,8,0.7,0.6
2024-10-01T2300,3148A,103.8291,30.0564,眉山市,区人社局,,25,24,23,17,8,42,,101,90,47,27,12,8,0.6,0.4
2024-10-01T2300,1690A,116.1231,24.3284,梅州市,梅江月梅,,24,13,21,6,10,74,,70,70,4,6,7,7,0.5,0.4
2024-10-01T2300,1691A,116.0797,24.2719,梅州市,梅县新城,,23,14,19,3,9,73,,68,68,6,7,4,4,0.6,0.5
2024-10-01T2300,1692A,116.1248,24.2654,梅州市,环境监控中心,,23,16,28,3,10,73,,67,67,6,14,4,5,0.5,0.5
2024-10-01T2300,3315A,116.1233,24.2991,梅州市,梅龙,,23,17,21,10,13,72,,67,67,5,10,9,10,0.6,0.5
2024-10-01T2300,1878A,104.7778,31.4741,绵阳市,富乐山,,23,9,23,7,16,73,,95,82,8,14,2,2,0.4,0.5
2024-10-01T2300,1879A,104.7563,31.4535,绵阳市,市人大,,20,20,31,9,14,47,,98,77,40,25,9,10,0.4,0.4
2024-10-01T2300,1880A,104.6697,31.4668,绵阳市,高新区自来水公司,,,34,33,12,16,26,,95,74,48,24,3,5,,0.4
2024-10-01T2300,1881A,104.7287,31.5075,绵阳市,三水厂,,28,28,32,11,19,10,,94,63,54,23,5,6,0.6,0.7
2024-10-01T2300,3491A,104.69,31.5322,绵阳市,西科大附属小学,,22,18,24,15,15,47,,99,76,28,20,2,5,0.5,0.5
2024-10-01T2300,3492A,104.5648,31.5343,绵阳市,安州区旅游局,,22,22,25,12,19,61,,105,87,17,15,8,9,0.3,0.4
2024-10-01T2300,1784A,129.61,44.561,牡丹江市,环保大楼,,33,,17,23,16,22,,34,31,8,10,6,7,0.3,0.3
2024-10-01T2300,1785A,129.6115,44.5782,牡丹江市,文化广场,,43,34,20,30,18,16,,29,26,13,12,8,8,0.4,0.4
2024-10-01T2300,1786A,129.5904,44.5963,牡丹江市,第一医院,,36,27,20,25,24,17,,34,28,15,10,6,6,0.3,0.3
2024-10-01T2300,1787A,129.6364,44.6075,牡丹江市,机车工厂,,29,28,17,20,20,15,,26,20,14,10,7,9,0.3,0.2
2024-10-01T2300,1788A,129.6386,44.5462,牡丹江市,第一中学,,19,19,19,12,15,9,,32,25,18,11,5,6,0.2,0.3
2024-10-01T2300,2531A,105.0703,29.61,内江市,市监测站,,33,33,26,12,12,59,,65,61,16,17,1,2,0.4,0.3
2024-10-01T2300,2532A,105.0717,29.5947,内江市,东兴区政府,,28,28,23,9,9,58,,72,67,19,18,2,2,0.5,0.4
2024-10-01T2300,2533A,105.0653,29.5817,内江市,内江二中,,33,33,24,18,15,54,,70,66,20,17,4,4,0.6,0.4
2024-10-01T2300,2534A,105.0406,29.5822,内江市,内江日报社,,37,37,30,3,2,52,,67,61,16,22,6,3,0.4,0.4
2024-10-01T2300,2628A,92.0657,31.4846,那曲市,那曲监测站,颗粒物(PM10),111,172,60,72,22,14,,100,70,33,15,10,8,1.2,0.7
2024-10-01T2300,3128A,92.0506,31.4797,那曲市,那曲会议中心,颗粒物(PM10),75,99,56,38,20,28,,114,90,43,18,4,4,0.6,0.6
2024-10-01T2300,1290A,115.8931,28.6843,南昌市,省外办,,37,37,61,17,20,94,,89,89,14,18,8,8,0.5,0.6
2024-10-01T2300,1291A,115.8886,28.7003,南昌市,省林业公司,,31,31,66,9,13,94,,88,88,10,10,7,6,0,0.5
2024-10-01T2300,1292A,115.8126,28.7442,南昌市,林科所,,32,19,46,9,10,100,,92,92,12,12,6,7,0.3,0.5
2024-10-01T2300,1294A,115.8518,28.687,南昌市,建工学校,,48,48,62,25,20,93,,88,88,13,11,8,7,0.4,0.5
2024-10-01T2300,1295A,115.8921,28.6424,南昌市,象湖,,33,31,51,15,15,104,,98,98,15,14,8,8,0.3,0.5
2024-10-01T2300,1296A,115.7423,28.7996,南昌市,武术学校,,32,,20,22,20,98,,88,88,6,6,3,4,0.3,0.4
2024-10-01T2300,1298A,115.9314,28.6842,南昌市,省站,,39,39,66,15,16,89,,85,85,15,12,10,9,0.5,0.6
2024-10-01T2300,3046A,115.9084,28.6062,南昌市,机电学校,,34,34,81,9,15,98,,92,92,18,16,10,10,0.5,0.5
2024-10-01T2300,3690A,115.9721,28.7031,南昌市,外国语学校,,32,32,62,16,17,86,,83,83,10,11,6,6,0.5,0.6
2024-10-01T2300,1905A,106.056,30.8064,南充市,西山风景区,,25,25,14,16,12,67,,80,71,10,9,2,2,0.6,0.5
2024-10-01T2300,1906A,106.0789,30.8023,南充市,南充市委,,37,37,24,20,11,60,,82,72,19,16,4,3,0.4,0.3
2024-10-01T2300,1907A,106.1031,30.8217,南充市,南充炼油厂,,48,48,31,21,16,69,,88,79,19,15,4,4,0.2,0.2
2024-10-01T2300,1908A,106.1064,30.7856,南充市,高坪区监测站,,38,38,27,18,14,62,,82,72,24,20,6,6,0.4,0.3
2024-10-01T2300,1909A,106.0642,30.7636,南充市,嘉陵区环保局,,38,38,29,14,10,60,,76,69,17,19,3,3,0.3,0.3
2024-10-01T2300,1910A,106.1087,30.8388,南充市,市环境监测站,,36,36,29,24,18,50,,80,67,28,15,4,4,0.2,0.2
2024-10-01T2300,1151A,118.8086,32.1065,南京市,迈皋桥,,27,27,18,17,13,50,,91,78,23,14,5,4,0.3,0.3
2024-10-01T2300,1152A,118.7538,32.0551,南京市,草场门,,36,36,21,14,12,65,,87,81,34,19,10,6,0.3,0.5
2024-10-01T2300,1153A,118.7794,32.0745,南京市,山西路,,39,39,23,19,16,98,,107,106,17,14,4,4,0.4,0.5
2024-10-01T2300,1154A,118.7752,32.0023,南京市,中华门,,31,31,24,17,12,66,,89,84,24,15,9,6,0.4,0.5
2024-10-01T2300,1155A,118.8109,32.0309,南京市,瑞金路,,29,29,21,14,14,59,,87,76,21,11,4,4,0.5,0.4
2024-10-01T2300,1156A,118.7997,32.0754,南京市,玄武湖,,34,34,25,17,10,55,,82,72,40,20,9,6,0.3,0.4
2024-10-01T2300,1157A,118.6414,32.0931,南京市,浦口,,40,40,24,20,14,73,,81,80,11,9,7,5,0.4,0.4
2024-10-01T2300,1158A,118.7356,31.9996,南京市,奥体中心,,35,34,22,24,16,77,,94,89,24,16,10,7,0.5,0.4
2024-10-01T2300,1159A,118.9125,32.1028,南京市,仙林大学城,,34,34,24,17,12,72,,90,85,24,17,6,5,0.4,0.5
2024-10-01T2300,3422A,118.8436,31.9198,南京市,江宁彩虹桥,,26,20,16,9,11,81,,94,92,18,8,3,4,0.6,0.5
2024-10-01T2300,3423A,119.0138,31.6494,南京市,溧水永阳,,27,27,17,16,12,72,,86,83,16,12,3,4,0.6,0.6
2024-10-01T2300,3424A,118.879,31.3302,南京市,高淳老职中,,25,20,38,14,17,79,,91,90,16,15,4,4,0.6,0.7
2024-10-01T2300,3427A,118.8554,32.3578,南京市,六合雄州,,29,29,23,12,12,55,,85,75,29,14,7,7,0.3,0.4
2024-10-01T2300,1401A,108.3103,22.7881,南宁市,二十一中,,13,6,30,3,17,40,,38,38,12,26,5,8,0.5,0.6
2024-10-01T2300,1402A,108.3141,22.8528,南宁市,北湖,,14,10,35,7,20,42,,38,37,11,21,6,13,0.7,0.9
2024-10-01T2300,1403A,108.3206,22.8225,南宁市,市监测站,,16,,33,11,23,42,,37,37,12,23,7,11,0.6,0.7
2024-10-01T2300,1404A,108.3829,22.8037,南宁市,大自然花园,,14,11,25,8,17,44,,37,37,12,20,8,9,0.6,0.7
2024-10-01T2300,1405A,108.4394,22.7904,南宁市,仙葫,,13,6,29,3,20,39,,40,38,13,23,6,10,0.7,0.8
2024-10-01T2300,1406A,108.2397,22.8467,南宁市,区农职院,,14,6,26,3,15,44,,38,38,6,13,4,10,0.8,0.9
2024-10-01T2300,1407A,108.3275,22.735,南宁市,英华嘉园,,13,6,28,3,17,41,,38,38,13,22,5,6,0.6,0.7
2024-10-01T2300,1408A,108.2257,22.7757,南宁市,沙井镇街道办,,15,12,31,7,18,45,,38,38,6,17,8,5,0.6,0.7
2024-10-01T2300,3401A,108.4834,22.7618,南宁市,红星社区,,14,,27,3,17,42,,42,41,7,18,2,3,0.6,0.7
2024-10-01T2300,2332A,118.1681,26.6369,南平市,南平市监测站,,24,12,12,3,4,74,,70,70,6,7,4,4,0.2,0.2
2024-10-01T2300,2333A,118.1825,26.6489,南平市,南平铝业有限公司,,25,8,13,3,5,79,,71,71,7,7,3,4,0.2,0.1
2024-10-01T2300,2334A,118.1756,26.6272,南平市,南平七中,,20,12,12,3,5,64,,67,67,9,7,2,4,0.5,0.5
2024-10-01T2300,1168A,120.9098,31.9663,南通市,狼山街道,,29,23,11,11,5,90,,80,80,8,4,7,6,0.3,0.5
2024-10-01T2300,1169A,120.86,32.0005,南通市,虹桥,,27,25,15,12,4,84,,76,76,10,5,8,6,0.5,0.5
2024-10-01T2300,1170A,120.87,32.02,南通市,城中,,33,33,18,9,5,86,,80,80,4,2,7,6,0.4,0.4
2024-10-01T2300,1171A,120.94,31.93,南通市,星湖花园,,28,21,11,7,4,89,,80,,11,8,6,6,0.3,0.3
2024-10-01T2300,1172A,120.81,32.0417,南通市,紫琅学院,,26,25,10,10,4,83,,76,76,6,6,8,7,0.2,0.1
2024-10-01T2300,3291A,121.067,32.062,南通市,通州监测站,,29,29,16,12,5,84,,81,80,8,6,2,2,0.4,0.5
2024-10-01T2300,3432A,120.9348,31.9883,南通市,环境教育馆,,29,27,17,8,3,91,,83,83,6,5,4,3,0.5,0.4
2024-10-01T2300,2404A,112.5224,33.0122,南阳市,瓦房庄,颗粒物(PM10),69,87,47,29,16,62,,105,84,27,22,6,4,0.5,0.6
2024-10-01T2300,2405A,112.5003,32.9735,南阳市,汉画馆,颗粒物(PM10),60,70,44,34,25,48,,105,80,28,24,6,6,0.5,0.6
2024-10-01T2300,2406A,112.5573,33.027,南阳市,气象站,颗粒物(PM10),64,77,48,27,14,63,,104,83,29,23,7,7,0.4,0.4
2024-10-01T2300,2407A,112.5481,32.9689,南阳市,理工学院,颗粒物(PM10),64,78,45,26,16,59,,104,76,26,22,7,7,0.3,0.4
2024-10-01T2300,4008A,112.5234,32.9922,南阳市,卧龙区政府,颗粒物(PM10),66,81,48,26,20,53,,110,84,36,22,6,5,0.4,0.5
2024-10-01T2300,1234A,121.8358,29.911,宁波市,区环保大楼,,28,20,23,11,14,88,,81,81,11,19,6,7,0.4,0.6
2024-10-01T2300,1235A,121.56,29.82,宁波市,万里学院,,27,18,21,7,12,85,,74,74,8,18,6,6,0.5,0.6
2024-10-01T2300,1236A,121.713,29.9572,宁波市,龙赛医院,,30,18,23,3,9,93,,82,82,6,21,8,9,0.4,0.6
2024-10-01T2300,1239A,121.633,29.7733,宁波市,钱湖水厂,,27,19,20,6,8,84,,76,76,7,15,8,8,0.5,0.6
2024-10-01T2300,1240A,121.5856,29.8635,宁波市,太古小学,,26,22,21,6,8,83,,74,74,11,20,8,7,0.6,0.7
2024-10-01T2300,1241A,121.524,29.8674,宁波市,市环境监测中心,,27,17,20,3,9,86,,74,74,9,18,4,5,0.5,0.7
2024-10-01T2300,2871A,121.6147,29.9017,宁波市,万里国际学校,,28,14,16,6,9,89,,80,80,10,20,7,8,0.5,0.6
2024-10-01T2300,3710A,121.5594,29.8975,宁波市,白沙活动中心,,28,17,25,3,8,88,,77,77,8,18,9,8,0.2,0.3
2024-10-01T2300,2341A,119.5388,26.6612,宁德市,宁德市监测站,,20,15,12,12,7,63,,43,43,9,13,6,6,0.5,0.4
2024-10-01T2300,3209A,119.5231,26.6562,宁德市,宁德一中,,21,15,13,3,7,66,,49,49,3,6,5,5,0.4,0.3
2024-10-01T2300,2618A,98.8601,25.8567,怒江傈僳族自治州,州监测站,,36,36,21,18,12,9,,50,32,26,11,4,5,0.6,0.4
2024-10-01T2300,2619A,98.8546,25.8417,怒江傈僳族自治州,泸水一中,,28,28,16,13,11,6,,38,20,21,14,6,6,0.6,0.5
2024-10-01T2300,1888A,101.6891,26.571,攀枝花市,弄弄坪,,30,30,25,10,7,35,,64,51,20,18,11,11,0.4,0.5
2024-10-01T2300,1889A,101.5769,26.5928,攀枝花市,河门口,,45,45,23,16,12,27,,57,44,20,21,9,12,1.0,1
2024-10-01T2300,1890A,101.7169,26.585,攀枝花市,炳草岗,,18,14,20,12,10,30,,67,54,24,20,9,11,0.5,0.5
2024-10-01T2300,1891A,101.7369,26.5008,攀枝花市,仁和,,22,22,17,11,8,30,,64,49,14,13,4,4,0.4,0.4
2024-10-01T2300,2835A,101.7227,26.567,攀枝花市,四十中小,,26,26,25,7,10,34,,67,55,28,20,8,5,0.7,0.8
2024-10-01T2300,1604A,122.0303,41.1489,盘锦市,开发区,,32,27,21,22,10,16,,71,41,37,21,8,11,0.2,0.2
2024-10-01T2300,1605A,122.0485,41.0883,盘锦市,兴隆台,,44,44,20,21,10,7,,72,44,53,27,6,6,0.4,0.3
2024-10-01T2300,1606A,121.8297,41.1028,盘锦市,新生街道,,30,27,18,21,11,13,,70,31,40,28,13,12,0.7,0.5
2024-10-01T2300,1832A,113.3257,33.742,平顶山市,新华旅馆,颗粒物(PM10),72,93,84,38,26,74,,93,86,18,14,8,9,0.2,0.3
2024-10-01T2300,1833A,113.2919,33.737,平顶山市,规划设计院,颗粒物(PM10),75,99,71,33,20,56,,97,87,30,15,10,10,0.5,0.5
2024-10-01T2300,1834A,113.182,33.774,平顶山市,平顶山工学院,颗粒物(PM10),68,86,67,22,16,67,,94,86,20,13,13,10,0.4,0.4
2024-10-01T2300,3204A,113.3025,33.73,平顶山市,规划局,颗粒物(PM10),79,107,80,32,26,62,,91,84,24,14,10,8,0.2,0.3
2024-10-01T2300,3594A,112.8867,33.9116,平顶山市,石龙区,颗粒物(PM10),70,89,102,22,19,66,,88,71,28,19,9,12,0.5,0.5
2024-10-01T2300,2656A,106.6692,35.5461,平凉市,聚贤嘉苑,,39,39,43,23,14,34,,112,82,53,24,5,5,0.4,0.4
2024-10-01T2300,2657A,106.7021,35.5307,平凉市,博物馆,,46,46,52,25,14,40,,114,80,46,18,6,6,0.3,0.3
2024-10-01T2300,2347A,114.0997,27.5002,萍乡市,武功山,,14,14,33,3,10,27,,49,39,6,8,6,8,0.4,0.4
2024-10-01T2300,2348A,113.8385,27.6434,萍乡市,中医院,,24,24,40,7,18,35,,48,46,16,16,7,11,0.5,0.8
2024-10-01T2300,2349A,113.8493,27.6253,萍乡市,市政府车库,,29,29,34,19,21,36,,46,42,17,14,12,11,0.6,0.6
2024-10-01T2300,2350A,113.8676,27.6435,萍乡市,市环保局,,24,24,38,13,19,37,,44,41,12,13,7,10,0.6,0.8
2024-10-01T2300,2351A,113.866,27.6198,萍乡市,安源区政府,,29,29,33,9,15,38,,49,46,15,15,4,5,0.4,0.4
2024-10-01T2300,2319A,119.0141,25.4325,莆田市,荔城区仓后路,,23,6,8,3,0,71,,52,52,8,7,7,7,0.7,0.7
2024-10-01T2300,2320A,119.0015,25.4553,莆田市,莆田市监测站,,,,8,0,2,78,,55,55,6,6,7,7,0.4,0.4
2024-10-01T2300,2321A,119.1119,25.4561,莆田市,涵江区六中,,24,6,9,3,1,75,,56,55,5,3,8,8,0.5,0.4
2024-10-01T2300,2322A,119.1013,25.3215,莆田市,秀屿区政府,,23,19,18,3,2,71,,54,53,3,2,6,7,0.6,0.5
2024-10-01T2300,2392A,115.0312,35.7636,濮阳市,环保局,,50,50,52,8,12,53,,94,81,21,24,2,8,0.1,0.3
2024-10-01T2300,2394A,115.0574,35.7609,濮阳市,油田运输公司,,,37,48,18,15,,,98,88,20,21,4,7,0.2,0.4
2024-10-01T2300,2395A,115.0866,35.7754,濮阳市,油田物探公司,,45,45,58,12,15,51,,98,81,21,18,4,5,0.1,0.3
2024-10-01T2300,3021A,115,35.7668,濮阳市,濮水河管理处,,50,50,48,10,14,57,,91,73,20,19,6,6,0.1,0.2
2024-10-01T2300,2601A,100.98,22.7633,普洱市,市环保局,,32,22,20,22,13,43,,51,49,10,7,4,4,0.5,0.5
2024-10-01T2300,2602A,100.9817,22.8322,普洱市,普洱第二中学,,18,18,18,6,10,57,,58,58,5,7,10,10,0.5,0.5
2024-10-01T2300,2262A,131.0518,45.8751,七台河市,新一中,,13,13,8,7,5,25,,54,38,10,8,9,9,1.1,1.1
2024-10-01T2300,3345A,131.0577,45.7879,七台河市,中波台,,11,11,9,6,5,31,,38,31,13,14,6,6,0.4,0.4
2024-10-01T2300,3637A,131.0176,45.7761,七台河市,人民广场,,13,10,13,9,8,30,,42,28,12,14,9,10,0.3,0.3
2024-10-01T2300,3684A,130.8781,45.8222,七台河市,新建矿广场,,36,36,15,19,14,11,,37,18,24,17,7,7,0.3,0.3
2024-10-01T2300,1779A,123.9305,47.3636,齐齐哈尔市,安居小区,,18,18,19,3,9,48,,62,52,6,7,10,10,0.3,0.3
2024-10-01T2300,1780A,123.9488,47.3386,齐齐哈尔市,中心广场,,15,11,16,6,4,48,,57,50,7,8,1,1,0.1,0.1
2024-10-01T2300,1781A,123.9483,47.3227,齐齐哈尔市,农牧车辆厂,,16,12,23,3,5,51,,61,54,3,5,8,8,0.4,0.5
2024-10-01T2300,1783A,123.945,47.2988,齐齐哈尔市,市环境监测站,,17,10,16,8,8,53,,61,56,4,5,7,8,0.1,0.1
2024-10-01T2300,3662A,123.6333,47.2075,齐齐哈尔市,富区青少年活动中心,,19,19,23,3,6,51,,58,51,7,9,5,5,0.2,0.3
2024-10-01T2300,2591A,107.9783,26.5747,黔东南苗族侗族自治州,市环境监测站,,27,10,4,8,6,84,,77,77,8,8,4,4,0.3,0.4
2024-10-01T2300,2881A,107.8908,26.5311,黔东南苗族侗族自治州,凯里学院,,26,12,5,6,6,83,,75,75,6,8,3,3,0.6,0.6
2024-10-01T2300,2593A,107.5228,26.2403,黔南布依族苗族自治州,小围寨,,24,12,3,3,1,75,,67,67,2,3,3,3,0.6,0.5
2024-10-01T2300,3538A,107.5175,26.2978,黔南布依族苗族自治州,沙坝,,28,11,6,3,1,88,,78,78,4,4,3,3,0.3,0.3
2024-10-01T2300,2589A,104.9022,25.0925,黔西南布依族苗族自治州,场坝街,,26,,15,18,8,60,,61,61,8,10,6,8,0.2,0.2
2024-10-01T2300,2590A,104.8811,25.0992,黔西南布依族苗族自治州,坪东大道,,21,14,16,11,8,66,,59,56,7,9,9,12,0.4,0.4
2024-10-01T2300,2502A,108.6236,21.9667,钦州市,市环保站,,14,14,36,3,14,41,,48,37,8,17,7,11,0.5,0.8
2024-10-01T2300,2503A,108.6549,21.9481,钦州市,沙埠小学,,22,22,48,6,17,48,,52,40,8,22,6,7,0.7,1.2
2024-10-01T2300,2504A,108.5989,21.7431,钦州市,港区一小,,17,17,47,6,16,34,,56,40,13,14,7,7,0.6,0.7
2024-10-01T2300,3404A,108.5959,21.9633,钦州市,北职校,,13,8,40,6,20,39,,48,40,9,16,6,8,0.6,0.7
2024-10-01T2300,1042A,119.5134,39.8207,秦皇岛市,北戴河环保局,,16,,14,6,6,49,,66,57,12,13,2,2,0.4,0.4
2024-10-01T2300,1043A,119.7493,40.0116,秦皇岛市,第一关,,32,,15,22,20,51,,70,54,15,18,1,1,0.3,0.3
2024-10-01T2300,1044A,119.5897,39.9499,秦皇岛市,监测站,,26,20,23,18,14,40,,66,43,13,20,3,3,0.4,0.3
2024-10-01T2300,1046A,119.5251,39.9041,秦皇岛市,建设大厦,,36,36,25,21,15,9,,67,36,38,25,3,3,0.4,0.3
2024-10-01T2300,3132A,119.610547,39.943889,秦皇岛市,文明里,,14,14,22,8,11,42,,70,49,17,21,3,3,0.5,0.5
2024-10-01T2300,1307A,120.6659,36.2403,青岛市,仰口,,28,13,16,9,10,87,,94,92,4,4,6,6,0.5,0.5
2024-10-01T2300,1310A,120.4134,36.0658,青岛市,市南区东部子站,,27,27,23,9,9,80,,95,88,26,20,6,6,0.7,0.6
2024-10-01T2300,1311A,120.3664,36.1032,青岛市,四方区子站,,27,22,19,9,8,84,,103,95,16,13,9,9,0.3,0.3
2024-10-01T2300,1312A,120.2994,36.054,青岛市,市南区西部子站,,28,22,22,3,6,89,,100,96,15,11,9,8,0.4,0.4
2024-10-01T2300,1313A,120.4581,36.0858,青岛市,崂山区子站,,26,12,12,3,3,83,,100,91,15,12,8,8,0.5,0.5
2024-10-01T2300,1314A,120.1983,35.9608,青岛市,黄岛区子站,,25,17,15,10,7,80,,98,90,16,14,8,8,0.4,0.4
2024-10-01T2300,1315A,120.3999,36.3083,青岛市,城阳区子站,,27,27,18,12,8,70,,100,85,25,15,8,7,0.5,0.5
2024-10-01T2300,1966A,120.0405,35.8735,青岛市,黄岛区4号,,24,24,17,3,4,70,,100,91,21,12,7,6,0.4,0.4
2024-10-01T2300,3362A,120.5014,36.4034,青岛市,即墨2号,,31,31,18,13,7,54,,88,70,29,12,7,6,0.4,0.4
2024-10-01T2300,3642A,120.3503,36.0736,青岛市,市北区南部,,26,21,16,3,5,81,,98,91,19,15,8,6,0.4,0.4
2024-10-01T2300,3643A,120.3948,36.1805,青岛市,李沧区北部,,24,24,21,9,13,72,,97,84,28,17,10,9,0.6,0.6
2024-10-01T2300,1702A,113.0426,23.691,清远市,环保大楼,,,9,26,3,10,53,,82,66,10,9,,7,0.6,0.7
2024-10-01T2300,1703A,113.0208,23.7106,清远市,凤城街办,,17,10,23,3,11,54,,84,67,5,5,7,9,0.6,0.7
2024-10-01T2300,3025A,113.0477,23.6344,清远市,技师学院,,,9,28,3,13,56,,87,69,,13,6,6,0.2,0.4
2024-10-01T2300,3318A,112.9903,23.7403,清远市,清新太和,,18,,23,3,12,56,,88,69,6,7,4,5,0.7,0.7
2024-10-01T2300,3455A,113.076,23.7198,清远市,清城东城,,18,9,22,3,11,57,,85,70,2,4,4,4,0.6,0.7
2024-10-01T2300,2661A,107.6325,35.7357,庆阳市,庆阳五中,,33,33,45,20,12,80,,96,89,17,8,6,6,0.3,0.3
2024-10-01T2300,2662A,107.6364,35.7067,庆阳市,市环保局,,34,34,46,7,9,96,,98,90,5,5,9,6,0.3,0.3
2024-10-01T2300,1916A,103.7897,25.5035,曲靖市,环境监测站,,20,18,9,3,4,64,,67,66,8,9,3,2,0.3,0.8
2024-10-01T2300,1917A,103.8,25.5364,曲靖市,烟厂办公区,,21,14,6,10,5,67,,74,69,4,5,3,4,0.3,0.4
2024-10-01T2300,3376A,103.7947,25.462,曲靖市,南苑二区,,21,14,5,9,4,65,,76,68,8,8,7,8,0.5,0.5
2024-10-01T2300,3377A,103.7444,25.5261,曲靖市,曲靖师范学院,,,14,6,6,2,,,80,77,5,4,5,5,0.3,0.4
2024-10-01T2300,1264A,118.8692,28.9398,衢州市,环保大楼,,15,6,22,3,15,46,,63,52,10,15,6,5,0.5,0.5
2024-10-01T2300,1265A,118.8709,28.9666,衢州市,实验学校,,15,9,24,3,16,48,,69,59,9,13,3,6,0.6,0.6
2024-10-01T2300,1266A,118.8621,28.9808,衢州市,衢州学院,,15,6,23,3,15,46,,71,58,12,15,7,8,0.6,0.6
2024-10-01T2300,1611A,118.5819,24.9117,泉州市,涂山街,,21,6,11,3,7,67,,58,52,5,5,2,2,0.5,0.5
2024-10-01T2300,1612A,118.5972,24.8978,泉州市,津头埔,,20,6,12,3,5,64,,55,48,5,4,4,3,0.7,0.6
2024-10-01T2300,1613A,118.6663,24.9424,泉州市,万安,,21,6,12,3,5,66,,55,50,3,3,2,2,0.2,0.2
2024-10-01T2300,3529A,118.6333,24.9264,泉州市,城华南路,,20,,10,10,7,63,,54,49,5,4,3,3,0.2,0.2
2024-10-01T2300,2626A,88.8876,29.2718,日喀则市,日喀则监测站,,22,22,23,11,9,56,,98,86,29,13,4,5,0.5,0.5
2024-10-01T2300,3726A,88.8781,29.2426,日喀则市,林业技术推广中心,,24,6,19,3,6,76,,96,90,5,14,6,6,0.3,0.6
2024-10-01T2300,1659A,119.471,35.4209,日照市,监测站,,29,29,17,10,9,81,,100,96,15,12,12,10,0.3,0.4
2024-10-01T2300,1660A,119.523,35.4216,日照市,市政府广场,,29,29,19,12,7,85,,105,100,14,12,6,6,0.3,0.3
2024-10-01T2300,1661A,119.5587,35.4044,日照市,港务局,,29,29,23,15,13,82,,106,101,27,16,8,8,0.5,0.5
2024-10-01T2300,3507A,119.5328,35.4625,日照市,职业技术学院,,34,34,20,12,8,75,,102,96,17,11,9,8,0.5,0.5
2024-10-01T2300,3604A,119.3266,35.1044,日照市,岚山环保分局,,48,48,25,11,10,85,,98,93,16,15,16,18,0.5,0.8
2024-10-01T2300,1835A,111.1922,34.7752,三门峡市,市政府,颗粒物(PM10),61,72,80,21,16,18,,95,61,55,27,11,11,0.5,0.5
2024-10-01T2300,1836A,111.1587,34.7942,三门峡市,开发区,颗粒物(PM10),73,95,87,40,16,49,,86,68,21,24,15,10,0.3,0.2
2024-10-01T2300,1838A,111.143,34.7955,三门峡市,风景区,颗粒物(PM10),67,83,106,32,22,57,,99,82,17,16,10,10,0.5,0.5
2024-10-01T2300,3039A,111.1911,34.7829,三门峡市,三门峡市第一小学,颗粒物(PM10),67,83,92,13,6,42,,92,71,30,24,12,10,0.4,0.4
2024-10-01T2300,3598A,111.1,34.7167,三门峡市,富达温泉假日酒店,颗粒物(PM10),63,75,90,23,21,41,,94,73,25,20,9,12,0.5,0.4
2024-10-01T2300,2324A,117.6211,26.2625,三明市,三钢,,21,,15,14,10,66,,56,56,7,10,5,7,0.4,0.4
2024-10-01T2300,2325A,117.635,26.2714,三明市,三明二中,,23,9,10,6,6,73,,60,60,4,7,2,4,0.3,0.3
2024-10-01T2300,2326A,117.6028,26.2378,三明市,三元区政府,,23,11,14,3,6,73,,58,58,7,10,3,4,0.6,0.5
2024-10-01T2300,1876A,109.5078,18.2489,三亚市,河东子站,,28,28,15,14,7,32,,58,48,11,8,4,4,0.4,0.3
2024-10-01T2300,1877A,109.4964,18.2681,三亚市,河西子站,,30,30,16,18,10,26,,55,41,13,9,4,3,0.4,0.3
2024-10-01T2300,3540A,109.7348,18.3443,三亚市,君悦子站,,20,20,18,9,8,64,,58,54,7,9,3,3,0.4,0.3
2024-10-01T2300,2624A,91.7608,29.2313,山南市,山南监测站,,28,28,18,3,6,86,,91,90,3,6,8,9,0.3,0.3
2024-10-01T2300,2625A,91.7706,29.2436,山南市,山南人民医院,,28,10,19,6,6,89,,93,93,5,8,9,9,0.2,0.2
2024-10-01T2300,1674A,116.6794,23.3667,汕头市,金平子站,,18,,20,12,10,56,,57,51,6,10,6,7,0.8,0.7
2024-10-01T2300,1675A,116.7244,23.3633,汕头市,龙湖子站,,16,10,17,9,8,49,,52,46,3,5,7,8,0.6,0.5
2024-10-01T2300,1676A,116.7258,23.2775,汕头市,濠江子站,,20,,18,14,14,47,,51,44,8,11,7,8,0.7,0.7
2024-10-01T2300,1677A,116.7519,23.4714,汕头市,澄海子站,,18,15,21,11,12,56,,53,48,7,11,5,6,0.8,0.7
2024-10-01T2300,1678A,116.6092,23.2539,汕头市,潮阳子站,,35,,25,24,14,56,,56,52,4,6,5,6,0.5,0.5
2024-10-01T2300,3444A,116.454,23.2684,汕头市,潮南峡山,,38,38,29,12,9,48,,61,48,6,6,6,6,0.7,0.4
2024-10-01T2300,3624A,116.4069,23.2533,汕头市,潮南子站,,,24,30,17,14,,,54,48,9,12,4,5,0.7,0.6
2024-10-01T2300,1693A,115.3653,22.775,汕尾市,市环保局,,35,,17,24,22,65,,61,61,5,5,8,8,0.7,0.6
2024-10-01T2300,1694A,115.3706,22.7898,汕尾市,市政府,,20,18,19,3,9,62,,60,60,6,5,7,8,0.6,0.4
2024-10-01T2300,1695A,115.3622,22.7925,汕尾市,新城中学,,22,22,17,13,11,62,,59,59,5,4,6,6,0.7,0.6
2024-10-01T2300,2645A,109.9154,33.8715,商洛市,监测站,颗粒物(PM10),52,53,47,18,15,43,,97,75,26,15,5,5,0.4,0.4
2024-10-01T2300,3045A,109.9643,33.8471,商洛市,商州区中学,,43,43,57,18,12,44,,103,82,30,18,4,6,0.5,0.5
2024-10-01T2300,2408A,115.6702,34.4285,商丘市,环境监测站,颗粒物(PM10),72,94,49,26,15,58,,100,89,29,16,4,6,0.3,0.4
2024-10-01T2300,2409A,115.6458,34.4045,商丘市,粮食局,颗粒物(PM10),58,66,45,22,19,72,,108,98,18,10,2,5,0.4,0.4
2024-10-01T2300,2410A,115.6293,34.3948,商丘市,睢阳区环保局,颗粒物(PM10),66,81,51,23,15,74,,90,87,19,12,6,6,0.3,0.3
2024-10-01T2300,3171A,115.6071,34.4465,商丘市,梁园区档案局,颗粒物(PM10),76,101,50,30,15,62,,98,84,24,13,6,7,0.4,0.5
2024-10-01T2300,1141A,121.4,31.238,上海市,普陀,,25,24,20,11,7,79,,75,75,8,12,5,5,0.6,0.6
2024-10-01T2300,1142A,121.478,31.2036,上海市,十五厂,,43,43,20,10,9,80,,83,83,19,14,9,8,0.4,0.4
2024-10-01T2300,1143A,121.467,31.3008,上海市,虹口,,27,27,18,11,7,73,,80,80,16,12,11,9,0.6,0.5
2024-10-01T2300,1144A,121.412,31.1654,上海市,徐汇上师大,,25,22,19,13,10,80,,81,81,19,18,8,7,0.6,0.6
2024-10-01T2300,1145A,121.536,31.2659,上海市,杨浦四漂,,26,23,20,10,8,82,,83,83,9,14,7,7,0.4,0.6
2024-10-01T2300,1147A,121.425,31.2261,上海市,静安监测站,,24,24,19,8,7,75,,77,77,20,15,7,6,0.4,0.4
2024-10-01T2300,1148A,121.703,31.1907,上海市,浦东川沙,,31,31,25,10,7,87,,84,84,10,16,6,6,0.5,0.5
2024-10-01T2300,1149A,121.533,31.2284,上海市,浦东新区监测站,,25,20,17,11,8,80,,81,81,13,16,6,6,0.6,0.7
2024-10-01T2300,1150A,121.577,31.2071,上海市,浦东张江,,25,19,17,3,7,77,,77,77,20,19,5,5,0.4,0.6
2024-10-01T2300,3265A,121.4316,31.3322,上海市,宝山庙行,,25,25,20,12,7,78,,76,76,15,14,10,8,0.8,0.8
2024-10-01T2300,3266A,121.8791,31.4662,上海市,崇明上实东滩,,31,15,14,6,6,97,,92,92,4,6,12,12,0.6,0.6
2024-10-01T2300,3268A,121.3162,31.2838,上海市,嘉定南翔,,25,16,17,12,7,78,,78,78,12,14,7,7,0.4,0.4
2024-10-01T2300,3269A,121.3359,30.7456,上海市,金山新城,,23,22,18,9,9,71,,75,75,14,14,5,5,0.3,0.4
2024-10-01T2300,3270A,121.4996,31.0739,上海市,闵行浦江,,27,21,17,9,8,86,,83,83,10,14,6,6,0.3,0.5
2024-10-01T2300,3271A,121.2886,31.1663,上海市,青浦徐泾,,24,24,21,12,9,69,,82,81,20,16,6,6,0.4,0.4
2024-10-01T2300,3272A,121.2186,31.0378,上海市,松江图书馆,,23,23,21,7,8,72,,78,78,19,18,5,4,0.4,0.5
2024-10-01T2300,3273A,121.3902,31.2059,上海市,长宁仙霞,,,17,17,,7,85,,72,,10,12,6,6,0.6,0.7
2024-10-01T2300,3274A,121.7965,31.0507,上海市,浦东惠南,,29,22,18,6,6,91,,84,84,13,15,9,8,0.6,0.7
2024-10-01T2300,3544A,121.4891,30.925,上海市,奉贤南桥新城,,,12,15,7,10,,,75,,14,16,8,8,0.4,0.7
2024-10-01T2300,2381A,118.005,28.4572,上饶市,百草园,,49,49,31,3,17,44,,61,54,7,11,4,8,0.6,0.6
2024-10-01T2300,2382A,117.9756,28.4436,上饶市,市监测站,,16,13,33,9,19,50,,71,63,8,11,2,8,0.7,0.7
2024-10-01T2300,2383A,117.9519,28.4628,上饶市,凤凰光学,,17,14,29,7,18,52,,72,64,6,9,4,9,0.7,0.8
2024-10-01T2300,3413A,118.1953,28.4401,上饶市,广丰区教体局,,15,,26,10,16,44,,76,60,9,10,1,4,0.6,0.7
2024-10-01T2300,3685A,117.897,28.4315,上饶市,双创科技城,,18,16,32,12,19,51,,73,65,6,12,2,10,0.6,0.6
2024-10-01T2300,1669A,113.5824,24.7733,韶关市,市八中,,17,6,19,3,10,54,,65,58,2,2,10,11,0.5,0.5
2024-10-01T2300,1671A,113.5917,24.7972,韶关市,园林处,,17,8,24,3,14,53,,64,58,4,4,9,11,0.4,0.5
2024-10-01T2300,1672A,113.6735,24.7791,韶关市,韶关学院,,15,8,20,3,12,47,,58,52,10,10,9,10,0.7,0.5
2024-10-01T2300,1673A,113.5971,24.6863,韶关市,曲江监测站,,16,7,27,3,12,51,,64,57,5,7,9,10,0.5,0.5
2024-10-01T2300,3622A,113.5556,24.8082,韶关市,碧湖山庄,,16,6,25,3,11,50,,62,57,5,5,8,10,0.4,0.4
2024-10-01T2300,2463A,111.4733,27.2317,邵阳市,市一中,,35,35,18,11,6,85,,83,83,10,9,9,6,0.4,0.4
2024-10-01T2300,2464A,111.5283,27.2442,邵阳市,市化工厂,,36,36,20,16,9,78,,76,76,9,9,9,6,0.5,0.5
2024-10-01T2300,2465A,111.4503,27.2537,邵阳市,市罐头厂,,33,33,21,12,7,83,,78,78,6,7,7,6,0.4,0.4
2024-10-01T2300,2466A,111.4328,27.2272,邵阳市,市环保局,,29,29,20,14,10,78,,78,78,9,6,5,4,0.5,0.5
2024-10-01T2300,1247A,120.6053,29.9928,绍兴市,城东开发委,,20,18,18,7,9,61,,60,60,18,16,8,7,0.5,0.6
2024-10-01T2300,2921A,120.5483,30.0003,绍兴市,树下王站,,20,7,15,3,8,64,,61,61,11,13,6,5,0.7,0.7
2024-10-01T2300,3408A,120.5683,29.9361,绍兴市,绍兴中专,,20,15,15,7,9,64,,62,62,15,14,5,4,0.5,0.6
2024-10-01T2300,3409A,120.4906,30.0861,绍兴市,柯桥区政府,,22,22,25,9,13,58,,58,58,17,21,8,7,0.4,0.5
2024-10-01T2300,3410A,120.8752,30.0249,绍兴市,重华小学,,23,15,19,3,10,73,,69,69,16,19,10,8,0.3,0.6
2024-10-01T2300,3411A,120.8369,30.0137,绍兴市,上虞中学,,23,16,24,6,14,72,,66,66,14,16,5,6,0.5,0.6
2024-10-01T2300,3560A,120.4722,30.0415,绍兴市,柯桥妇保,,21,13,21,3,10,65,,61,61,14,14,8,7,0.5,0.6
2024-10-01T2300,3658A,120.6153,30.0764,绍兴市,袍江中学,,19,13,19,3,10,59,,61,61,17,18,4,4,0.5,0.6
2024-10-01T2300,1356A,114.1063,22.5545,深圳市,通心岭子站,,23,23,26,13,14,69,,78,69,6,11,4,4,0.6,0.5
2024-10-01T2300,1357A,114.117,22.5625,深圳市,洪湖,,37,37,37,14,15,65,,79,68,10,21,7,8,0.5,0.4
2024-10-01T2300,1358A,113.987,22.5417,深圳市,华侨城,,31,31,26,18,14,62,,82,72,6,5,8,8,0.7,0.6
2024-10-01T2300,1359A,113.9181,22.5171,深圳市,南海子站,,41,41,39,21,18,60,,84,71,14,17,6,7,0.5,0.5
2024-10-01T2300,1360A,114.2458,22.5689,深圳市,盐田,,29,29,25,18,13,70,,73,70,8,10,8,8,0.7,0.6
