timepoint,stationcode,longitude,latitude,area,positionname,primarypollutant,aqi,pm10,pm10_24h,pm2_5,pm2_5_24h,o3,o3_24h,o3_8h,o3_8h_24h,no2,no2_24h,so2,so2_24h,co,co_24h
2024-09-27T2000,2566A,102.1879,31.914,阿坝藏族羌族自治州,州农科所,颗粒物(PM10),51,52,24,15,10,39,,62,56,15,12,7,8,0.1,0.1
2024-09-27T2000,2568A,102.2502,31.8896,阿坝藏族羌族自治州,马师校,,36,25,17,25,14,21,,63,57,22,8,4,4,0.4,0.3
2024-09-27T2000,3994A,102.2165,31.9024,阿坝藏族羌族自治州,马尔康中学西区,,32,25,19,22,15,32,,63,61,15,9,4,5,0.4,0.4
2024-09-27T2000,2695A,80.292,41.1694,阿克苏地区,电视台,颗粒物(PM10),84,117,97,26,31,123,,129,129,11,26,3,5,0.3,0.5
2024-09-27T2000,2696A,80.2613,41.1551,阿克苏地区,艺术中心,颗粒物(PM10),82,113,98,26,36,122,,124,124,8,27,3,4,0.4,0.8
2024-09-27T2000,2204A,105.6467,38.8363,阿拉善盟,西城区西花园,颗粒物(PM10),58,65,40,36,22,102,,129,127,16,10,10,11,1.1,0.9
2024-09-27T2000,2205A,105.6985,38.8411,阿拉善盟,蒙二幼,颗粒物(PM10),59,68,42,31,18,94,,114,113,20,10,7,7,0.8,0.6
2024-09-27T2000,2206A,105.724,38.8516,阿拉善盟,环保局新楼,,,50,37,27,16,108,,114,114,13,8,,9,0.6,0.5
2024-09-27T2000,2708A,88.1264,47.8517,阿勒泰地区,市站,,26,26,24,3,5,68,,68,68,5,11,8,8,0.1,0.3
2024-09-27T2000,2630A,80.1161,32.5,阿里地区,阿里监测站,,36,14,9,7,5,114,,115,115,4,9,6,8,0.3,0.3
2024-09-27T2000,3192A,80.0903,32.5028,阿里地区,阿里藏医院,,34,18,12,3,5,108,,109,109,3,5,7,7,0.3,0.3
2024-09-27T2000,2643A,109.0281,32.6939,安康市,安康市监测站,颗粒物(PM10),65,79,64,37,33,159,,169,167,11,11,9,13,0.7,0.7
2024-09-27T2000,2644A,109.0072,32.6975,安康市,汉滨区检察院,臭氧1小时,67,64,59,28,30,173,,174,174,9,11,9,10,0.6,0.5
2024-09-27T2000,2291A,117.0809,30.5177,安庆市,环科院,,28,28,40,12,31,82,,102,102,17,15,10,8,0.9,0.9
2024-09-27T2000,2292A,117.0331,30.5119,安庆市,马山宾馆,,26,22,39,9,31,83,,106,105,17,15,10,10,0.8,0.9
2024-09-27T2000,2294A,116.9896,30.6145,安庆市,安庆大学,,26,24,38,8,30,81,,90,90,10,12,8,8,0.4,0.6
2024-09-27T2000,3173A,117.0598,30.5351,安庆市,市人大,,24,20,38,13,33,76,,98,97,16,13,9,9,0.8,0.9
2024-09-27T2000,3123A,105.9408,26.2431,安顺市,凤凰山,细颗粒物(PM2.5),105,94,39,79,31,86,,97,97,9,6,5,5,1.2,0.6
2024-09-27T2000,3124A,105.9439,26.2564,安顺市,金钟山,细颗粒物(PM2.5),93,104,41,69,32,88,,100,100,9,5,8,7,0.8,0.6
2024-09-27T2000,3125A,105.8983,26.2481,安顺市,娄家坡,细颗粒物(PM2.5),62,51,36,44,31,88,,101,101,10,6,6,6,0.6,0.6
2024-09-27T2000,1819A,114.3551,36.1017,安阳市,红庙街,细颗粒物(PM2.5),92,98,108,68,83,153,,196,196,28,23,6,11,0.7,0.9
2024-09-27T2000,1820A,114.361,36.0681,安阳市,银杏小区,颗粒物(PM10),78,106,103,39,51,151,,188,188,23,17,4,7,0.9,0.9
2024-09-27T2000,3141A,114.3922,36.0878,安阳市,信访局,颗粒物(PM10),85,119,125,43,61,152,,200,199,33,24,5,7,1.0,1
2024-09-27T2000,3669A,114.4705,36.0637,安阳市,左辅环卫站,颗粒物(PM10),119,188,168,69,94,124,,187,183,51,26,5,8,0.7,0.8
2024-09-27T2000,3703A,114.2917,36.0949,安阳市,安钢职工学校,细颗粒物(PM2.5),88,103,117,65,90,169,,189,189,22,29,9,12,1.0,1.3
2024-09-27T2000,1748A,123.044,41.1196,鞍山市,深沟寺,,46,46,46,27,25,55,,95,90,26,30,5,7,0.7,0.9
2024-09-27T2000,1749A,123.011,41.0931,鞍山市,太阳城,,40,40,47,21,26,77,,103,100,21,28,8,10,0.5,0.9
2024-09-27T2000,1750A,123.0485,41.1442,鞍山市,太平,颗粒物(PM10),82,113,58,58,30,12,,96,79,89,46,10,11,1.6,1
2024-09-27T2000,1751A,122.9642,41.0971,鞍山市,铁西三道街,细颗粒物(PM2.5),112,171,84,84,38,8,,95,75,94,48,8,12,2.0,1.5
2024-09-27T2000,1752A,122.9341,41.0833,鞍山市,铁西工业园区,细颗粒物(PM2.5),115,170,88,87,42,9,,93,75,80,45,12,14,1.3,1.4
2024-09-27T2000,1753A,123.022,41.0821,鞍山市,明达新区,颗粒物(PM10),51,52,48,27,25,42,,95,87,33,29,6,8,0.7,0.9
2024-09-27T2000,2195A,107.4212,40.761,巴彦淖尔市,附二中,颗粒物(PM10),87,124,98,51,48,121,,143,142,20,16,35,8,0.8,0.8
2024-09-27T2000,2196A,107.37,40.7372,巴彦淖尔市,市环保大楼,颗粒物(PM10),75,99,87,40,32,131,,144,144,18,13,4,6,0.6,0.7
2024-09-27T2000,1956A,86.1472,41.7538,巴音郭楞蒙古自治州,孔雀公园,,41,41,47,3,10,101,,104,104,9,11,6,7,0.3,0.3
2024-09-27T2000,1957A,86.1972,41.7166,巴音郭楞蒙古自治州,棉纺厂,,,43,52,21,12,96,,99,99,,15,6,6,0.2,0.2
2024-09-27T2000,1958A,86.2357,41.7173,巴音郭楞蒙古自治州,经济开发区,,35,35,49,10,17,100,,103,103,8,9,9,14,0.4,0.4
2024-09-27T2000,2914A,106.7677,31.8794,巴中市,苏山坪,细颗粒物(PM2.5),67,57,56,48,44,155,,156,156,11,8,6,4,0.5,0.5
2024-09-27T2000,3182A,106.7656,31.8545,巴中市,丽阳花园,细颗粒物(PM2.5),89,85,60,66,49,81,,155,148,48,23,7,6,1.0,0.7
2024-09-27T2000,3183A,106.7418,31.8654,巴中市,圣泉水务公司,细颗粒物(PM2.5),72,71,58,52,47,70,,154,145,62,22,5,4,0.8,0.7
2024-09-27T2000,3616A,106.7616,31.8344,巴中市,市中心医院,细颗粒物(PM2.5),55,53,64,39,50,88,,156,151,43,24,6,6,0.8,0.7
2024-09-27T2000,2235A,122.7911,45.6077,白城市,洮北区环保局,,26,23,24,15,15,82,,101,97,15,15,2,3,0.1,0.1
2024-09-27T2000,2236A,122.8738,45.5725,白城市,市环保局,,34,34,22,14,13,53,,94,84,32,26,5,4,0.3,0.3
2024-09-27T2000,2231A,126.4219,41.9171,白山市,喜丰,颗粒物(PM10),63,76,39,25,13,29,,93,82,44,21,7,7,0.8,0.6
2024-09-27T2000,2232A,126.4077,41.9419,白山市,环保局,颗粒物(PM10),65,80,34,38,16,15,,80,67,48,21,8,8,1.1,0.7
2024-09-27T2000,2647A,104.1724,36.5446,白银市,第三小学,,,,46,,23,94,,94,94,,26,,46,,1
2024-09-27T2000,2648A,104.1465,36.5482,白银市,动力公司,,48,48,37,17,15,69,,87,87,26,21,31,15,0.5,0.7
2024-09-27T2000,2512A,106.6103,23.9011,百色市,市监测站,颗粒物(PM10),65,79,66,46,48,70,,117,116,19,16,7,13,0.9,0.8
2024-09-27T2000,2513A,106.6538,23.8859,百色市,市中心血站,,,,72,,48,92,,118,118,23,16,5,14,,0.8
2024-09-27T2000,3406A,106.6085,23.8798,百色市,祈福高中,细颗粒物(PM2.5),79,79,77,58,43,78,,124,124,25,20,4,11,1.0,0.9
2024-09-27T2000,2270A,117.396,32.939,蚌埠市,工人疗养院,,49,49,45,19,18,103,,142,130,17,18,6,8,0.3,0.4
2024-09-27T2000,2271A,117.3605,32.9427,蚌埠市,百货大楼,,48,48,41,20,17,100,,135,125,17,13,6,8,0.4,0.4
2024-09-27T2000,2273A,117.4185,32.8911,蚌埠市,蚌埠学院,,48,48,35,24,22,84,,137,124,32,18,7,7,0.4,0.4
2024-09-27T2000,2274A,117.3533,32.9673,蚌埠市,淮上区政府,,44,44,41,25,22,104,,130,119,12,14,6,6,0.3,0.4
2024-09-27T2000,2275A,117.3145,32.8977,蚌埠市,高新区,,44,44,33,17,18,74,,130,116,44,14,10,7,0.4,0.4
2024-09-27T2000,3715A,117.3092,32.9314,蚌埠市,蚌埠田家炳中学,,49,49,39,23,19,98,,135,127,17,8,6,6,0.4,0.3
2024-09-27T2000,1585A,109.8756,40.6532,包头市,市环境监测站,颗粒物(PM10),53,56,53,30,25,126,,143,143,33,35,11,14,0.8,0.9
2024-09-27T2000,1587A,109.9991,40.5842,包头市,包头八中,颗粒物(PM10),65,80,57,33,30,123,,140,140,29,25,8,11,0.8,0.8
2024-09-27T2000,1588A,109.8538,40.6821,包头市,青山宾馆,,50,50,47,27,31,130,,150,150,31,27,14,15,1.0,1
2024-09-27T2000,1589A,109.8642,40.6288,包头市,惠龙物流,颗粒物(PM10),56,62,52,30,25,128,,147,147,25,22,7,9,1.1,1.1
2024-09-27T2000,1590A,110.0377,40.5546,包头市,东河鸿龙湾,,,,52,,24,129,,145,145,18,22,13,18,,0.8
2024-09-27T2000,3283A,109.9154,40.5685,包头市,滨河大厦,颗粒物(PM10),57,63,48,33,26,130,,148,148,25,30,10,12,0.7,0.7
2024-09-27T2000,3419A,109.9447,40.6261,包头市,包头市委党校,颗粒物(PM10),60,69,56,36,28,128,,144,144,29,26,19,19,0.8,0.8
2024-09-27T2000,3683A,109.8331,40.6576,包头市,昆区政府,颗粒物(PM10),57,63,52,31,32,134,,146,146,24,25,11,12,0.7,0.8
2024-09-27T2000,1931A,107.0708,34.3017,宝鸡市,竹园沟,细颗粒物(PM2.5),93,120,93,69,63,133,,192,190,26,21,8,8,0.9,0.8
2024-09-27T2000,1932A,107.1906,34.3672,宝鸡市,三陆医院,颗粒物(PM10),90,130,124,59,73,188,,207,207,31,24,8,9,1.0,0.9
2024-09-27T2000,1933A,107.1431,34.3547,宝鸡市,监测站,细颗粒物(PM2.5),110,144,117,83,73,118,,198,193,39,24,7,8,1.0,0.9
2024-09-27T2000,1934A,107.1186,34.3739,宝鸡市,技工学校,细颗粒物(PM2.5),143,136,117,109,79,158,,199,199,31,25,10,10,1.1,0.9
2024-09-27T2000,1935A,107.3906,34.3528,宝鸡市,陈仓区环保局家属楼,细颗粒物(PM2.5),105,131,128,79,74,158,,208,207,57,38,10,11,0.9,0.9
2024-09-27T2000,1936A,107.2058,34.3497,宝鸡市,文理学院,颗粒物(PM10),93,135,126,64,73,136,,208,204,46,22,9,11,1.0,0.8
2024-09-27T2000,1937A,107.2386,34.3622,宝鸡市,三迪小学,颗粒物(PM10),94,138,122,57,76,173,,203,203,52,30,10,11,1.0,0.9
2024-09-27T2000,1051A,115.493,38.8632,保定市,游泳馆,,50,50,58,29,41,112,,138,138,25,24,5,4,0.3,0.4
2024-09-27T2000,1052A,115.5213,38.8959,保定市,华电二区,颗粒物(PM10),69,87,68,33,41,65,,129,125,52,41,5,3,0.2,0.3
2024-09-27T2000,1053A,115.4713,38.9108,保定市,接待中心,颗粒物(PM10),51,51,72,21,45,94,,134,133,36,41,3,3,0.3,0.4
2024-09-27T2000,1054A,115.4612,38.8416,保定市,地表水厂,颗粒物(PM10),65,80,69,36,37,100,,130,130,31,31,3,4,0.2,0.2
2024-09-27T2000,3581A,115.31981,38.95208,保定市,满城区生态环境分局,,,124,100,,58,66,,137,132,55,36,5,5,0.6,0.6
2024-09-27T2000,3582A,115.47694,38.76408,保定市,清苑区第二中学,颗粒物(PM10),70,90,67,32,39,83,,131,129,56,39,3,3,0.4,0.4
2024-09-27T2000,3583A,115.62909,39.02311,保定市,徐水物探局,颗粒物(PM10),60,69,64,22,38,68,,136,131,54,35,6,6,0.4,0.5
2024-09-27T2000,4004A,115.4202,38.8656,保定市,双鹰农机,颗粒物(PM10),53,55,72,30,37,128,,145,145,24,34,2,3,0.4,0.5
2024-09-27T2000,4034A,115.5150,38.8590,保定市,植保所站,颗粒物(PM10),66,82,70,32,43,84,,131,130,51,35,6,6,0.4,0.4
2024-09-27T2000,2594A,99.1678,25.1081,保山市,市环境监测站,,38,,25,26,14,38,,48,48,5,8,4,4,0.4,0.4
2024-09-27T2000,2595A,99.1711,25.1328,保山市,市环保局,,22,22,27,8,10,52,,56,56,3,6,6,6,0.4,0.4
2024-09-27T2000,1867A,109.1436,21.4086,北海市,海滩公园,,32,32,34,12,21,89,,120,105,5,7,5,5,0.6,0.6
2024-09-27T2000,1868A,109.0981,21.4661,北海市,新市环保局,,28,24,35,19,26,88,,116,110,7,8,4,4,0.7,0.8
2024-09-27T2000,1869A,109.1778,21.5233,北海市,北海工业园,,25,25,50,17,32,75,,123,114,9,17,5,6,0.6,0.7
2024-09-27T2000,3400A,109.1911,21.4415,北海市,龙潭自来水厂,,25,22,39,17,35,80,,111,103,8,12,5,5,0.6,0.7
2024-09-27T2000,1001A,116.3621,39.8784,北京市,万寿西宫,颗粒物(PM10),52,53,48,30,28,58,,86,85,35,34,2,2,0.7,0.6
2024-09-27T2000,1002A,116.2202,40.2915,北京市,定陵,,46,,36,32,38,36,,43,43,11,11,2,2,0.5,0.6
2024-09-27T2000,1003A,116.4174,39.9289,北京市,东四,颗粒物(PM10),51,52,50,24,27,42,,82,80,49,34,3,4,0.8,0.7
2024-09-27T2000,1004A,116.4072,39.8863,北京市,天坛,,49,49,43,27,26,57,,80,80,37,28,1,2,0.6,0.7
2024-09-27T2000,1005A,116.462,39.9365,北京市,农展馆,,46,46,49,18,24,36,,69,68,43,34,1,3,0.6,0.6
2024-09-27T2000,1006A,116.3392,39.9295,北京市,官园,颗粒物(PM10),51,52,45,24,25,48,,84,82,33,29,7,7,0.7,0.7
2024-09-27T2000,1007A,116.2878,39.9611,北京市,海淀万柳,,48,48,49,24,25,37,,68,66,38,36,3,4,0.5,0.5
2024-09-27T2000,1008A,116.6636,40.135,北京市,顺义新城,,26,26,57,13,31,58,,68,68,17,37,1,2,0.4,0.6
2024-09-27T2000,1009A,116.6275,40.3275,北京市,怀柔镇,,31,31,39,17,23,49,,63,63,24,25,1,3,0.6,0.6
2024-09-27T2000,1010A,116.2296,40.217,北京市,昌平镇,,48,48,49,26,28,30,,46,46,27,27,3,3,0.6,0.6
2024-09-27T2000,1011A,116.3966,39.9821,北京市,奥体中心,,43,43,47,22,25,52,,69,69,32,37,3,3,0.6,0.6
2024-09-27T2000,1012A,116.184,39.9136,北京市,古城,颗粒物(PM10),57,64,67,31,36,47,,68,68,32,41,3,3,0.7,0.7
2024-09-27T2000,3281A,115.9718,40.4529,北京市,延庆夏都,,40,40,48,23,31,71,,72,72,18,15,1,2,0.5,0.6
2024-09-27T2000,3417A,117.0709,40.1465,北京市,平谷新城,,44,44,43,26,26,63,,89,89,21,15,1,2,0.8,0.6
2024-09-27T2000,3418A,116.8336,40.4095,北京市,密云新城,,28,28,38,14,20,30,,61,59,9,14,3,2,0.4,0.5
2024-09-27T2000,3671A,116.088,39.9726,北京市,门头沟三家店,颗粒物(PM10),54,57,61,33,34,38,,55,55,29,33,7,7,0.5,0.6
2024-09-27T2000,3672A,116.1541,39.8204,北京市,丰台云岗,,42,42,55,24,35,30,,65,63,32,31,3,4,0.6,0.6
2024-09-27T2000,3673A,116.6804,39.9081,北京市,通州东关,颗粒物(PM10),54,57,54,25,27,45,,87,84,48,36,1,1,0.6,0.6
2024-09-27T2000,3674A,115.9577,39.7603,北京市,房山燕山,,34,34,55,17,34,67,,83,83,14,19,1,2,0.4,0.5
2024-09-27T2000,3675A,116.4672,39.7733,北京市,大兴旧宫,,48,48,43,28,25,58,,92,91,34,24,3,3,0.6,0.5
2024-09-27T2000,3694A,115.986,40.4563,北京市,延庆石河营,,38,33,45,26,34,61,,70,70,17,14,1,2,0.4,0.5
2024-09-27T2000,3695A,116.6151,40.3053,北京市,怀柔新城,,28,28,37,19,27,63,,65,65,10,20,3,2,0.5,0.6
2024-09-27T2000,3696A,116.2545,39.8768,北京市,丰台小屯,颗粒物(PM10),53,56,50,29,28,34,,66,65,35,35,1,2,0.7,0.7
2024-09-27T2000,3697A,116.84,40.3844,北京市,密云镇,,33,33,43,16,23,28,,53,52,41,28,3,3,0.5,0.5
2024-09-27T2000,1761A,123.8275,41.3064,本溪市,大峪,,23,23,27,10,10,65,,88,88,15,23,9,9,0.5,0.6
2024-09-27T2000,1762A,123.7567,41.3325,本溪市,溪湖,颗粒物(PM10),68,86,58,24,17,16,,81,72,63,33,7,8,0.8,0.9
2024-09-27T2000,1763A,123.7169,41.3094,本溪市,彩屯,,44,44,40,22,23,24,,77,70,47,35,8,10,0.8,1
2024-09-27T2000,1764A,123.7669,41.2864,本溪市,东明,颗粒物(PM10),61,71,44,33,18,20,,88,76,74,40,5,6,1.2,0.9
2024-09-27T2000,1765A,123.7992,41.2664,本溪市,新立屯,,34,34,27,12,10,33,,80,66,58,38,5,5,0.5,0.6
2024-09-27T2000,1766A,123.8142,41.3472,本溪市,威宁,颗粒物(PM10),66,82,47,22,19,8,,79,69,66,30,9,9,0.6,0.6
2024-09-27T2000,2587A,105.2864,27.3125,毕节市,八中,细颗粒物(PM2.5),52,52,42,36,29,84,,102,101,20,13,7,7,0.7,0.6
2024-09-27T2000,2588A,105.31,27.2944,毕节市,师专,,50,44,44,35,36,94,,104,104,14,16,8,8,0.6,0.7
2024-09-27T2000,3537A,105.3631,27.3533,毕节市,长征村,细颗粒物(PM2.5),74,66,62,54,50,104,,112,112,8,8,8,8,0.5,0.7
2024-09-27T2000,1629A,118.0018,37.3617,滨州市,第二水厂,,48,48,35,24,15,104,,130,129,24,27,12,16,0.3,0.5
2024-09-27T2000,1630A,117.9776,37.393,滨州市,北中新校,颗粒物(PM10),51,51,34,27,12,104,,135,134,19,16,9,20,0.4,0.7
2024-09-27T2000,3514A,117.9378,37.3956,滨州市,中海酒店,,44,44,31,27,18,113,,141,140,25,23,7,13,0.6,0.6
2024-09-27T2000,3515A,117.9378,37.3553,滨州市,开发区一中,,44,44,30,19,12,119,,,,25,25,16,10,0.7,0.6
2024-09-27T2000,3516A,118.0917,37.694,滨州市,金海六路,颗粒物(PM10),57,63,32,19,10,116,,127,127,14,10,4,6,0.5,0.5
2024-09-27T2000,4028A,117.9956,37.3753,滨州市,滨州市西街道办事处,,46,46,30,31,18,115,,140,140,22,21,12,25,0.4,0.5
2024-09-27T2000,2311A,115.8072,33.8399,亳州市,污水处理厂,颗粒物(PM10),62,73,57,37,36,94,,145,140,31,21,8,8,0.5,0.5
2024-09-27T2000,2312A,115.7789,33.8518,亳州市,三国揽胜宫,颗粒物(PM10),51,51,52,32,32,99,,140,136,21,17,5,6,0.6,0.6
2024-09-27T2000,3332A,115.7633,33.8034,亳州市,亳州学院,颗粒物(PM10),52,53,57,19,28,106,,144,141,24,13,4,4,0.5,0.5
2024-09-27T2000,2693A,82.0485,44.8556,博尔塔拉蒙古自治州,市党校,,28,28,21,17,12,54,,78,68,26,8,3,4,0.4,0.4
2024-09-27T2000,2694A,82.0806,44.8969,博尔塔拉蒙古自治州,市环保局,,,,23,,10,65,,74,67,11,8,4,4,0.3,0.3
2024-09-27T2000,1071A,116.8842,38.2991,沧州市,沧县城建局,颗粒物(PM10),60,69,36,24,19,79,,129,125,46,26,4,3,0.4,0.3
2024-09-27T2000,1072A,116.8584,38.3254,沧州市,电视转播站,,49,49,34,22,15,87,,139,135,40,23,2,2,0.3,0.2
2024-09-27T2000,1073A,116.8709,38.3228,沧州市,市环保局,颗粒物(PM10),54,57,37,31,23,77,,132,127,38,23,4,4,0.3,0.2
2024-09-27T2000,3324A,116.8136,38.3004,沧州市,河北水利电力学院,颗粒物(PM10),58,66,33,29,19,100,,140,139,35,22,4,5,0.3,0.2
2024-09-27T2000,2622A,97.1806,31.1273,昌都市,昌都监测站,,,,21,18,8,10,,53,48,,18,8,7,1.0,0.4
2024-09-27T2000,3719A,97.1714,31.1406,昌都市,昌都会议中心,,25,25,14,13,6,31,,65,62,27,9,8,8,0.4,0.2
2024-09-27T2000,2692A,87.2717,44.0297,昌吉回族自治州,新区政务中心,,33,26,16,23,17,50,,61,49,11,9,7,6,0.6,0.5
2024-09-27T2000,3613A,87.3095,44.0142,昌吉回族自治州,亚心广场,,19,19,18,7,4,49,,56,47,16,14,3,3,0.5,0.5
2024-09-27T2000,1119A,125.3325,43.9166,长春市,食品厂,细颗粒物(PM2.5),89,86,86,66,35,8,,87,71,82,45,6,7,1.3,0.7
2024-09-27T2000,1120A,125.2863,43.9027,长春市,客车厂,颗粒物(PM10),67,83,61,46,32,8,,75,59,95,52,9,8,1.4,0.8
2024-09-27T2000,1121A,125.2841,43.8463,长春市,邮电学院,,42,42,39,24,22,12,,81,68,60,33,7,8,0.6,0.5
2024-09-27T2000,1122A,125.3716,43.8772,长春市,劳动公园,细颗粒物(PM2.5),85,72,73,63,33,12,,88,74,77,42,8,9,0.8,0.6
2024-09-27T2000,1123A,125.3297,43.8805,长春市,园林处,细颗粒物(PM2.5),62,61,60,44,28,14,,84,73,75,43,5,6,1.1,0.7
2024-09-27T2000,1124A,125.4605,43.79,长春市,净月潭,,19,13,15,7,8,59,,87,82,8,8,6,6,0.3,0.3
2024-09-27T2000,1126A,125.3863,43.8447,长春市,经开区环卫处,颗粒物(PM10),58,66,47,23,20,4,,84,66,72,38,8,9,0.6,0.5
2024-09-27T2000,1127A,125.245,43.7783,长春市,高新区管委会,颗粒物(PM10),62,74,46,18,19,6,,84,68,66,36,6,6,0.7,0.6
2024-09-27T2000,1128A,125.1761,43.8325,长春市,岱山公园,,49,49,54,28,28,10,,78,69,84,51,5,5,0.7,0.7
2024-09-27T2000,1335A,113.0833,28.2325,长沙市,经开区环保局,细颗粒物(PM2.5),90,80,88,67,70,138,,190,187,28,29,2,4,0.7,0.7
2024-09-27T2000,1336A,112.8872,28.2189,长沙市,高开区环保局,细颗粒物(PM2.5),80,87,108,59,81,177,,226,225,15,31,4,6,0.7,0.8
2024-09-27T2000,1337A,113.0792,28.2053,长沙市,马坡岭,细颗粒物(PM2.5),82,92,92,60,65,140,,222,217,17,27,4,6,0.7,0.7
2024-09-27T2000,1338A,112.9394,28.19,长沙市,湖南师范大学,细颗粒物(PM2.5),74,85,94,54,64,145,,219,213,20,23,4,6,0.8,0.7
2024-09-27T2000,1339A,113.0178,28.1322,长沙市,雨花区环保局,细颗粒物(PM2.5),74,92,88,54,59,142,,210,205,18,31,6,7,0.7,0.8
2024-09-27T2000,1340A,112.9792,28.2597,长沙市,伍家岭,细颗粒物(PM2.5),73,77,94,53,69,114,,201,192,39,29,3,4,1.1,1
2024-09-27T2000,1341A,113.0014,28.1944,长沙市,火车新站,细颗粒物(PM2.5),77,102,95,56,64,137,,204,201,26,28,4,6,0.8,0.9
2024-09-27T2000,1342A,112.9844,28.1178,长沙市,天心区环保局,细颗粒物(PM2.5),75,80,91,55,68,135,,188,186,24,37,4,5,0.6,0.6
2024-09-27T2000,1343A,112.8908,28.1308,长沙市,湖南中医药大学,细颗粒物(PM2.5),99,106,106,74,74,86,,199,188,68,38,5,5,1.1,0.9
2024-09-27T2000,1344A,112.9581,28.3611,长沙市,沙坪,细颗粒物(PM2.5),89,,86,66,56,129,,188,183,11,10,6,7,0.3,0.4
2024-09-27T2000,1727A,113.1147,36.1547,长治市,清华站,细颗粒物(PM2.5),64,49,65,46,64,143,,135,135,16,19,7,7,0.7,1.1
2024-09-27T2000,1728A,113.1031,36.1989,长治市,监测站,细颗粒物(PM2.5),58,54,71,41,56,137,,123,123,17,24,8,11,0.7,1.2
2024-09-27T2000,1730A,113.0886,36.2125,长治市,审计局,细颗粒物(PM2.5),58,47,71,41,61,145,,129,129,15,28,5,9,0.4,0.9
2024-09-27T2000,1731A,113.0844,36.1856,长治市,长治八中,颗粒物(PM10),60,69,87,34,47,138,,129,129,15,23,7,8,0.8,1.2
2024-09-27T2000,2845A,113.1569,36.1911,长治市,德盛苑,细颗粒物(PM2.5),62,45,61,44,52,147,,136,136,11,15,3,4,1.1,1.2
2024-09-27T2000,3568A,113.06,36.0464,长治市,向阳小学,细颗粒物(PM2.5),83,70,83,61,59,135,,137,137,16,22,6,7,0.4,0.5
2024-09-27T2000,3569A,112.8792,36.3144,长治市,屯留一中,细颗粒物(PM2.5),87,86,86,64,77,109,,131,127,23,31,9,11,1.5,1.8
2024-09-27T2000,3570A,113.235,36.3489,长治市,潞城四中,细颗粒物(PM2.5),84,76,90,62,90,152,,166,160,13,15,7,6,0.6,0.8
2024-09-27T2000,1854A,111.6975,28.9703,常德市,市二中,细颗粒物(PM2.5),125,143,97,95,78,131,,180,174,21,23,12,11,1.3,1
2024-09-27T2000,3138A,111.7153,29.0289,常德市,武陵区永安,细颗粒物(PM2.5),127,126,117,96,88,129,,186,174,21,25,11,15,1.0,0.8
2024-09-27T2000,3139A,111.6892,28.9881,常德市,鼎城区玉霞,细颗粒物(PM2.5),107,119,112,80,79,143,,189,185,16,26,11,11,1.0,1
2024-09-27T2000,3140A,111.6625,29.0531,常德市,武陵区长庚,细颗粒物(PM2.5),114,122,126,86,100,144,,183,179,14,25,12,16,0.9,0.8
2024-09-27T2000,1196A,119.9633,31.762,常州市,市监测站,,39,39,35,14,17,114,,152,152,29,22,10,8,1.2,0.6
2024-09-27T2000,1200A,119.9468,31.7069,常州市,武进监测站,,37,37,32,24,17,118,,152,152,24,17,7,7,0.8,0.8
2024-09-27T2000,1201A,119.9255,31.9087,常州市,安家,,48,48,40,29,24,89,,142,140,38,25,10,10,0.5,0.6
2024-09-27T2000,3002A,119.9805,31.8174,常州市,行政中心,,,36,40,24,18,117,,150,150,26,22,,12,0.5,0.5
2024-09-27T2000,3003A,120.0522,31.7748,常州市,经开区,颗粒物(PM10),51,51,33,25,18,96,,152,150,39,33,8,7,1.0,0.5
2024-09-27T2000,3010A,119.9025,31.7964,常州市,钟楼,,34,28,29,21,15,108,,144,144,31,21,9,9,0.7,0.7
2024-09-27T2000,3429A,119.8598,31.7066,常州市,武进经发区,,47,47,31,21,14,109,,146,146,36,22,9,9,0.9,0.8
2024-09-27T2000,3430A,119.5826,31.7245,常州市,金坛城区,,49,49,31,33,19,86,,136,136,51,30,10,9,0.8,0.7
2024-09-27T2000,2220A,120.4318,41.5881,朝阳市,西梁,,42,31,47,29,20,113,,120,120,12,24,10,10,0.7,0.6
2024-09-27T2000,2221A,120.4521,41.5646,朝阳市,河畔小区,,39,27,38,23,18,122,,126,126,9,19,10,10,0.8,0.7
2024-09-27T2000,2222A,120.4176,41.5648,朝阳市,八里堡,,43,38,49,30,22,108,,119,119,18,29,9,10,0.9,0.8
2024-09-27T2000,2223A,120.3806,41.5969,朝阳市,农业园区,细颗粒物(PM2.5),53,38,39,37,24,106,,117,117,14,19,9,9,0.7,0.6
2024-09-27T2000,1705A,116.6367,23.6719,潮州市,西园路,,31,11,28,10,19,99,,40,,13,9,3,3,0.5,0.3
2024-09-27T2000,3026A,116.6183,23.6608,潮州市,市政府,,37,37,34,18,17,99,,80,77,13,10,6,7,0.5,0.5
2024-09-27T2000,4036A,116.6461,23.6761,潮州市,金山,,33,16,23,6,15,103,,70,70,9,6,7,6,0.7,0.7
2024-09-27T2000,2472A,113.0073,25.9061,郴州市,马头岭,,41,41,35,18,14,77,,95,95,12,10,7,7,0.3,0.3
2024-09-27T2000,2473A,113.0116,25.8226,郴州市,市职中,颗粒物(PM10),53,56,42,36,29,26,,94,86,40,15,5,5,0.8,0.7
2024-09-27T2000,2474A,113.0161,25.8001,郴州市,兴隆步行街,颗粒物(PM10),56,62,49,36,27,45,,93,89,36,19,4,4,0.8,0.8
2024-09-27T2000,2475A,113.0383,25.8071,郴州市,市审计局,,42,40,41,29,32,70,,98,96,14,14,4,4,0.6,0.7
2024-09-27T2000,2476A,113.0348,25.7759,郴州市,市环保局,,42,42,44,29,28,48,,94,90,33,16,5,5,0.7,0.7
2024-09-27T2000,1431A,103.9728,30.7236,成都市,金泉两河,,,83,76,,34,155,,206,205,22,29,4,6,0.8,0.8
2024-09-27T2000,1432A,104.176,30.6872,成都市,十里店,细颗粒物(PM2.5),55,54,80,39,54,115,,169,164,23,47,4,5,0.6,0.8
2024-09-27T2000,1433A,104.079,30.5706,成都市,三瓦窑,"颗粒物(PM10),细颗粒物(PM2.5)",52,53,67,36,50,134,,193,189,25,51,2,4,0.7,0.7
2024-09-27T2000,1434A,104.1114,30.63,成都市,沙河铺,细颗粒物(PM2.5),65,59,70,47,50,114,,172,166,29,45,3,4,1.4,0.9
2024-09-27T2000,1437A,104.0786,30.6531,成都市,君平街,细颗粒物(PM2.5),57,50,82,40,62,155,,199,196,23,37,3,5,0.8,0.9
2024-09-27T2000,2880A,104.0239,30.65639,成都市,大石西路,颗粒物(PM10),61,71,84,43,60,150,,197,195,27,35,3,6,0.8,0.9
2024-09-27T2000,3136A,104.2725,30.5589,成都市,龙泉驿区区政府,颗粒物(PM10),56,61,44,36,32,127,,158,154,17,12,2,2,0.7,0.6
2024-09-27T2000,3357A,104.0106,30.6931,成都市,金博路,颗粒物(PM10),61,72,81,42,52,166,,195,195,26,38,1,4,0.8,0.8
2024-09-27T2000,3359A,104.0578,30.5225,成都市,华阳,细颗粒物(PM2.5),62,56,66,44,47,123,,165,160,18,32,4,4,0.8,0.8
2024-09-27T2000,3487A,104.2394,30.5319,成都市,车城东七路,"颗粒物(PM10),细颗粒物(PM2.5)",57,63,57,40,43,118,,172,166,20,23,4,4,0.6,0.7
2024-09-27T2000,3488A,104.3853,30.7453,成都市,青白江技师分院,细颗粒物(PM2.5),68,66,46,49,36,51,,180,162,77,42,3,3,0.8,0.7
2024-09-27T2000,3489A,104.0789,30.4072,成都市,科学城,细颗粒物(PM2.5),58,57,59,41,47,150,,180,176,17,26,4,4,0.7,0.8
2024-09-27T2000,4011A,103.8506,30.6947,成都市,光华大道三段,细颗粒物(PM2.5),90,84,74,67,52,140,,218,214,19,22,4,7,0.7,0.7
2024-09-27T2000,1062A,117.9531,40.9081,承德市,铁路,,49,49,30,19,14,21,,63,61,61,30,9,9,0.6,0.4
2024-09-27T2000,1063A,117.9392,40.9763,承德市,中国银行,颗粒物(PM10),55,60,37,20,16,24,,88,82,31,23,6,6,0.8,0.5
2024-09-27T2000,1064A,117.9503,40.928,承德市,开发区,,49,49,36,21,17,14,,80,76,62,29,9,8,0.7,0.5
2024-09-27T2000,1065A,117.8051,40.9655,承德市,文化中心,颗粒物(PM10),61,71,47,28,17,12,,68,63,45,26,8,9,0.6,0.5
2024-09-27T2000,1066A,117.9268,41.0026,承德市,离宫,细颗粒物(PM2.5),58,50,37,41,28,16,,64,54,17,13,3,2,0.6,0.5
2024-09-27T2000,2314A,117.47,30.6618,池州市,池州学院,,27,19,37,10,25,84,,81,81,10,16,6,8,0.4,0.7
2024-09-27T2000,3237A,117.4918,30.6617,池州市,展览馆,,26,16,37,10,22,83,,80,80,9,15,5,6,0.4,0.8
2024-09-27T2000,3333A,117.5627,30.695,池州市,第八中学,,25,20,34,12,19,80,,77,77,10,17,4,5,0.5,0.7
2024-09-27T2000,3334A,117.5038,30.6243,池州市,第十二中学,,24,16,34,8,25,76,,78,78,12,15,5,5,0.8,0.9
2024-09-27T2000,1744A,118.9233,42.2816,赤峰市,松山一中,,47,47,32,24,15,89,,105,103,26,26,9,10,0.4,0.6
2024-09-27T2000,1745A,118.9576,42.2728,赤峰市,哈达街,颗粒物(PM10),53,55,29,35,20,84,,108,104,19,16,11,10,0.7,0.5
2024-09-27T2000,1746A,118.8788,42.2554,赤峰市,天义路,细颗粒物(PM2.5),64,63,26,46,18,82,,104,100,22,21,7,7,0.4,0.3
2024-09-27T2000,3058A,119.2658,42.0353,赤峰市,银河街,颗粒物(PM10),56,62,52,35,27,88,,111,110,17,20,15,25,0.6,0.7
2024-09-27T2000,3286A,118.9359,42.3147,赤峰市,桥北物流园区,颗粒物(PM10),63,76,45,31,25,75,,110,102,37,30,9,11,0.7,0.7
2024-09-27T2000,2521A,107.3476,22.4136,崇左市,市环保局江州分局,细颗粒物(PM2.5),90,113,57,67,37,70,,113,109,19,11,3,3,1.0,0.8
2024-09-27T2000,2522A,107.3702,22.3707,崇左市,城南新区,细颗粒物(PM2.5),59,60,44,42,32,77,,121,117,14,11,4,4,0.9,0.9
2024-09-27T2000,2298A,118.3093,32.3153,滁州市,老年大学,,38,38,34,23,22,119,,144,143,20,11,6,8,0.4,0.3
2024-09-27T2000,2299A,118.3244,32.2786,滁州市,人大宾馆,颗粒物(PM10),52,54,42,26,24,110,,143,141,22,12,6,7,0.3,0.4
2024-09-27T2000,3207A,118.3118,32.3038,滁州市,市政府原办公楼,,40,40,35,28,27,118,,142,141,16,12,6,6,0.4,0.4
2024-09-27T2000,3331A,118.3267,32.2634,滁州市,图书馆,,42,42,36,22,20,111,,144,143,17,11,6,6,0.4,0.3
2024-09-27T2000,2605A,101.5482,25.0441,楚雄彝族自治州,州环境监测站,,15,15,17,6,15,48,,54,52,4,13,9,12,0.6,0.6
2024-09-27T2000,2606A,101.538,25.0492,楚雄彝族自治州,市经济开发区,,22,22,19,10,14,45,,54,51,7,13,5,8,0.6,0.6
2024-09-27T2000,2548A,107.5277,31.2827,达州市,达州职业技术学院,细颗粒物(PM2.5),78,92,71,57,47,27,,134,122,98,35,7,9,0.9,0.8
2024-09-27T2000,2549A,107.5086,31.2186,达州市,市环境监测站,颗粒物(PM10),62,74,78,34,41,58,,139,130,68,36,8,8,0.8,0.6
2024-09-27T2000,2550A,107.4988,31.2132,达州市,凤凰小区,颗粒物(PM10),57,63,63,39,40,81,,150,142,52,31,9,9,0.8,0.6
2024-09-27T2000,2551A,107.5082,31.1986,达州市,达县机关宾馆,颗粒物(PM10),62,73,66,39,40,18,,140,126,105,45,7,8,0.9,0.6
2024-09-27T2000,2552A,107.4644,31.2124,达州市,市政中心,"颗粒物(PM10),细颗粒物(PM2.5)",58,66,67,41,44,91,,148,141,42,37,6,6,0.6,0.6
2024-09-27T2000,2614A,100.1542,25.7054,大理白族自治州,大理市环境监测站,颗粒物(PM10),56,61,20,16,12,46,,52,45,9,6,7,6,0.6,0.6
2024-09-27T2000,2615A,100.2171,25.5811,大理白族自治州,大理古城,,23,23,21,14,12,28,,67,60,20,10,7,7,0.4,0.4
2024-09-27T2000,1109A,121.612,38.9741,大连市,甘井子,,40,40,34,21,15,95,,129,126,35,20,9,9,0.9,0.5
2024-09-27T2000,1110A,121.565,38.9511,大连市,周水子,,45,45,33,21,16,54,,119,113,72,34,7,8,0.7,0.7
2024-09-27T2000,1111A,121.5637,38.8845,大连市,星海三站,,34,31,28,19,14,106,,137,136,20,15,8,8,0.4,0.3
2024-09-27T2000,1112A,121.6302,38.9117,大连市,青泥洼桥,,39,39,35,18,16,90,,126,123,37,26,8,8,0.3,0.1
2024-09-27T2000,1113A,121.6251,38.8638,大连市,傅家庄,,32,32,28,15,14,85,,116,114,27,16,8,8,0.5,0.3
2024-09-27T2000,1114A,121.5213,38.8661,大连市,七贤岭,颗粒物(PM10),55,59,30,26,16,86,,142,138,27,16,7,8,0.6,0.5
2024-09-27T2000,1115A,121.2529,38.8061,大连市,旅顺,,41,23,23,15,15,129,,136,136,13,13,7,7,0.5,0.4
2024-09-27T2000,1116A,121.7485,39.1311,大连市,金州,,26,25,27,15,17,82,,123,119,18,16,6,7,0.7,0.5
2024-09-27T2000,1117A,121.7811,39.0496,大连市,开发区,,,40,31,30,17,75,,119,113,43,15,,6,0.9,0.6
2024-09-27T2000,1118A,121.9762,39.0631,大连市,双D港,,35,32,31,10,15,112,,122,121,19,19,8,9,0.7,0.7
2024-09-27T2000,1789A,124.81117,46.03138,大庆市,大同区,,42,35,35,29,25,53,,87,76,25,18,4,4,0.5,0.5
2024-09-27T2000,1790A,125.129,46.533,大庆市,龙凤区,,50,50,50,23,24,67,,89,77,22,20,3,5,0.6,0.4
2024-09-27T2000,1791A,124.902,46.408,大庆市,红岗区,,31,31,29,20,20,74,,97,90,11,13,6,6,0.3,0.4
2024-09-27T2000,1792A,125.153,46.586,大庆市,萨尔图区,,47,47,32,14,15,63,,87,80,26,16,8,6,0.3,0.3
2024-09-27T2000,1793A,124.9042,46.6215,大庆市,让胡路区,,41,41,40,21,20,73,,96,86,13,16,4,7,0.3,0.3
2024-09-27T2000,3481A,125.141,46.634,大庆市,萨区政府监测点,,47,47,25,17,14,70,,96,88,19,13,9,7,0.2,0.2
2024-09-27T2000,1723A,113.2994,40.0758,大同市,云冈宾馆,细颗粒物(PM2.5),72,74,65,52,47,91,,129,122,28,24,7,8,0.8,0.8
2024-09-27T2000,1724A,113.3444,40.0917,大同市,大同大学,细颗粒物(PM2.5),64,64,52,46,40,100,,127,122,19,23,6,7,0.7,0.6
2024-09-27T2000,1725A,113.2661,40.1269,大同市,安家小村,颗粒物(PM10),63,76,66,44,44,91,,128,124,27,24,12,11,0.8,0.7
2024-09-27T2000,1726A,113.2711,40.0844,大同市,教育学院,细颗粒物(PM2.5),74,75,75,54,44,99,,125,122,26,34,8,9,0.8,0.8
2024-09-27T2000,3282A,113.3397,40.0597,大同市,大同市卫生学校,颗粒物(PM10),66,82,68,45,42,90,,127,120,26,21,9,7,0.6,0.7
2024-09-27T2000,3565A,113.1367,40.1122,大同市,云冈站,颗粒物(PM10),66,82,91,46,48,109,,134,132,19,22,10,10,0.6,0.6
2024-09-27T2000,3566A,113.1186,40.2556,大同市,图书馆,细颗粒物(PM2.5),64,68,68,46,49,96,,132,129,28,21,11,12,0.7,0.8
2024-09-27T2000,3567A,113.5931,40.0461,大同市,区一中,颗粒物(PM10),53,56,54,29,29,98,,127,122,24,13,6,8,0.8,0.8
2024-09-27T2000,3676A,113.2802,40.0995,大同市,第二人民医院,细颗粒物(PM2.5),64,71,64,46,42,101,,132,127,22,23,11,11,0.7,0.6
2024-09-27T2000,2269A,124.1069,50.4097,大兴安岭地区,科技局,,41,41,30,23,19,84,,93,93,7,8,6,7,0.3,0.3
2024-09-27T2000,3663A,124.1164,50.4278,大兴安岭地区,红旗社区,,39,39,31,10,20,89,,92,92,9,17,4,5,0.4,0.4
2024-09-27T2000,1600A,124.3303,40.0625,丹东市,江湾东路,,34,34,21,16,11,32,,88,81,48,16,10,11,0.7,0.6
2024-09-27T2000,1601A,124.4256,40.1503,丹东市,临江后街,颗粒物(PM10),68,85,23,32,9,19,,96,86,59,18,8,8,1.1,0.7
2024-09-27T2000,1602A,124.3933,40.1461,丹东市,元宝山,,24,22,18,8,9,75,,82,82,14,10,4,4,0.6,0.6
2024-09-27T2000,1603A,124.3633,40.1092,丹东市,民主桥,,45,45,22,30,8,10,,91,76,64,18,6,6,1.0,0.6
2024-09-27T2000,3541A,109.5726,19.5167,儋州市,第一中学子站,,33,33,24,16,15,59,,73,72,4,3,4,4,0.7,0.8
2024-09-27T2000,3542A,109.5567,19.5187,儋州市,东坡学校子站,,24,24,24,13,14,66,,87,85,5,5,5,5,0.6,0.6
2024-09-27T2000,2616A,98.5842,24.428,德宏傣族景颇族自治州,德宏州监测站,,22,22,26,10,13,45,,64,63,11,14,6,10,0.6,0.7
2024-09-27T2000,3677A,98.5881,24.4368,德宏傣族景颇族自治州,芒市人民政府综合楼,,25,25,19,11,12,48,,71,71,15,12,13,10,0.6,0.7
2024-09-27T2000,1901A,104.4239,31.1208,德阳市,东山公园,颗粒物(PM10),52,53,66,35,42,154,,172,172,19,21,4,4,0.7,0.8
2024-09-27T2000,1902A,104.3826,31.1317,德阳市,西小区,细颗粒物(PM2.5),73,61,74,53,53,121,,164,164,34,35,4,4,0.9,0.9
2024-09-27T2000,1904A,104.3553,31.1091,德阳市,耐火材料厂,细颗粒物(PM2.5),73,92,94,53,57,119,,156,156,46,43,5,7,0.8,0.9
2024-09-27T2000,3639A,104.4019,31.1244,德阳市,市教育局,颗粒物(PM10),56,61,69,38,45,132,,166,165,34,35,2,2,0.8,0.8
2024-09-27T2000,1622A,116.3032,37.4674,德州市,儿童乐园,细颗粒物(PM2.5),119,146,74,90,40,133,,185,185,50,27,11,12,1.0,0.7
2024-09-27T2000,1624A,116.2991,37.4451,德州市,监理站,细颗粒物(PM2.5),117,127,61,88,41,163,,202,202,36,24,12,12,0.9,0.6
2024-09-27T2000,3066A,116.2721,37.4379,德州市,九衢泉纯净水厂,细颗粒物(PM2.5),92,122,59,68,34,163,,195,195,34,24,11,11,1.1,0.7
2024-09-27T2000,3371A,116.3728,37.4403,德州市,开发区人民医院,,,,57,,30,136,,182,182,,24,11,12,,0.6
2024-09-27T2000,3372A,116.3572,37.4094,德州市,太阳城中学,细颗粒物(PM2.5),98,117,61,73,32,123,,180,179,61,32,10,11,0.9,0.7
2024-09-27T2000,3511A,116.5652,37.3319,德州市,陵城艺术中心,颗粒物(PM10),76,102,59,51,31,129,,180,178,40,27,13,14,0.8,0.7
2024-09-27T2000,2621A,99.7056,27.8317,迪庆藏族自治州,迪庆州站,,14,14,12,9,8,36,,46,44,9,8,8,8,0.4,0.4
2024-09-27T2000,3180A,99.7136,27.8094,迪庆藏族自治州,质量技术监督局,,15,15,15,7,6,36,,46,44,10,8,6,6,0.5,0.4
2024-09-27T2000,2663A,104.6241,35.5734,定西市,东关小学,细颗粒物(PM2.5),57,49,33,40,27,102,,104,104,10,10,6,5,0.4,0.3
2024-09-27T2000,2664A,104.6194,35.5934,定西市,供电公司,细颗粒物(PM2.5),58,60,39,41,29,108,,111,111,9,6,8,8,0.5,0.4
2024-09-27T2000,1389A,113.7547,23.0494,东莞市,莞城梨川,颗粒物(PM10),64,78,56,44,30,109,,171,171,32,43,6,6,1.0,0.9
2024-09-27T2000,1390A,113.7944,23.0128,东莞市,东城石井,,48,48,42,29,26,109,,182,179,17,28,5,7,0.8,0.8
2024-09-27T2000,1391A,113.7383,22.9658,东莞市,南城西平,臭氧1小时,59,66,46,39,27,167,,195,193,31,34,8,9,1.0,0.9
2024-09-27T2000,3319A,113.7338,23.0381,东莞市,万江金泰,颗粒物(PM10),56,61,52,33,28,113,,186,182,32,42,8,11,0.7,0.8
2024-09-27T2000,3626A,113.7533,23.0202,东莞市,南城元岭,颗粒物(PM10),54,58,49,30,26,132,,183,182,20,37,7,9,0.8,0.9
2024-09-27T2000,3627A,113.7875,23.0457,东莞市,东城主山,,50,50,48,32,29,124,,193,192,32,36,7,10,0.7,0.7
2024-09-27T2000,1666A,118.6614,37.4309,东营市,市环保局,,41,24,21,9,7,131,,145,145,13,13,4,6,0.2,0.2
2024-09-27T2000,3036A,118.6904,37.4338,东营市,开发区管委会,,40,27,24,14,11,127,,145,145,20,15,5,6,0.2,0.2
2024-09-27T2000,3365A,118.5719,37.565,东营市,垦利区民丰路,,31,29,20,14,8,99,,120,119,17,16,11,11,0.4,0.3
2024-09-27T2000,3498A,118.5055,37.8612,东营市,河口城区,,36,29,23,20,11,113,,126,126,12,11,6,6,0.2,0.2
2024-09-27T2000,3646A,118.4978,37.4623,东营市,胜利站,,38,,19,14,8,121,,130,130,16,14,7,8,0.2,0.1
2024-09-27T2000,3734A,118.35,37.26,东营市,理想之城,,35,27,22,17,12,112,,131,131,27,19,4,5,0.2,0.1
2024-09-27T2000,1591A,110.0023,39.8129,鄂尔多斯市,综合楼,,,,81,,36,118,,154,148,,16,,14,,0.8
2024-09-27T2000,1592A,109.9486,39.8261,鄂尔多斯市,巴音孟克林场办事处,颗粒物(PM10),71,92,84,41,40,116,,150,144,25,20,7,8,0.7,0.7
2024-09-27T2000,1593A,109.7736,39.5986,鄂尔多斯市,康泽苑,颗粒物(PM10),60,70,68,41,43,137,,157,154,16,16,10,10,0.9,0.9
2024-09-27T2000,1594A,109.8119,39.5989,鄂尔多斯市,华泰汽车城,细颗粒物(PM2.5),62,66,64,44,42,131,,144,141,12,17,11,10,0.6,0.7
2024-09-27T2000,1595A,109.9734,39.7884,鄂尔多斯市,奥林花园,颗粒物(PM10),62,73,77,39,40,108,,138,132,24,22,5,6,0.8,0.8
2024-09-27T2000,2436A,114.8938,30.3994,鄂州市,市政府,颗粒物(PM10),56,62,67,35,40,114,,166,156,27,26,10,15,0.8,1.2
2024-09-27T2000,2437A,114.8989,30.3714,鄂州市,赵家坝,细颗粒物(PM2.5),59,56,70,42,37,105,,164,152,28,25,12,14,0.9,0.8
2024-09-27T2000,3654A,114.8094,30.4089,鄂州市,精准医疗中心,颗粒物(PM10),54,58,68,36,42,120,,166,157,27,24,10,10,0.7,0.8
2024-09-27T2000,2454A,109.4978,30.2981,恩施土家族苗族自治州,湖北民院,细颗粒物(PM2.5),60,50,54,43,41,118,,151,146,19,19,10,10,0.7,0.7
2024-09-27T2000,2455A,109.4707,30.2798,恩施土家族苗族自治州,州电力总公司,细颗粒物(PM2.5),55,50,51,39,37,113,,140,136,21,24,8,8,0.8,0.7
2024-09-27T2000,3549A,109.5061,30.3772,恩施土家族苗族自治州,龙凤新区,,48,48,47,26,36,78,,151,139,24,16,6,6,1.0,0.8
2024-09-27T2000,2499A,108.3411,21.6158,防城港市,沙万,,33,30,45,23,28,75,,108,101,12,22,8,13,0.7,0.8
2024-09-27T2000,2500A,108.3514,21.7731,防城港市,防城档案局,,35,35,40,24,30,72,,102,100,11,11,9,10,0.7,0.8
2024-09-27T2000,2501A,108.3506,21.6414,防城港市,大海花园,,37,37,41,18,25,74,,107,101,11,12,6,12,0.9,1
2024-09-27T2000,1371A,113.1294,23.0067,佛山市,湾梁,,41,41,40,22,21,81,,147,143,34,35,8,10,0.8,0.8
2024-09-27T2000,1372A,113.1083,23.0478,佛山市,华材职中,颗粒物(PM10),52,53,50,28,26,37,,130,117,66,46,8,10,0.6,0.6
2024-09-27T2000,1373A,113.144,23.0453,佛山市,南海气象局,,36,32,40,25,25,76,,138,131,22,33,8,10,0.6,0.7
2024-09-27T2000,1374A,113.2881,22.8094,佛山市,顺德苏岗,,50,50,35,22,20,88,,148,140,29,27,8,8,0.9,0.8
2024-09-27T2000,1376A,112.8383,22.8678,佛山市,高明孔堂,颗粒物(PM10),52,53,32,22,19,73,,112,105,20,12,6,6,0.6,0.5
2024-09-27T2000,1377A,112.8836,23.1588,佛山市,三水监测站,,46,46,35,18,20,31,,112,101,50,38,8,9,0.6,0.6
2024-09-27T2000,1378A,112.867,23.185,佛山市,三水云东海,,42,42,36,28,22,23,,103,89,49,32,9,13,0.7,0.8
2024-09-27T2000,3625A,113.2544,22.7642,佛山市,容桂街道办,,44,44,30,27,21,76,,140,132,44,29,7,7,0.8,0.8
2024-09-27T2000,1282A,119.2681,26.0504,福州市,师大,,20,15,19,10,8,62,,84,80,11,10,1,1,0.3,0.3
2024-09-27T2000,1283A,119.2984,26.1028,福州市,五四北路,,22,18,21,15,9,52,,86,78,16,13,3,3,0.4,0.4
2024-09-27T2000,1284A,119.2648,26.0768,福州市,杨桥西路,,20,13,18,6,8,64,,88,83,12,10,3,3,0.4,0.4
2024-09-27T2000,1285A,119.317,26.0746,福州市,紫阳,,19,19,20,12,8,42,,74,67,24,17,4,4,0.5,0.5
2024-09-27T2000,3048A,119.5799,26.0936,福州市,九龙,,25,12,22,3,6,80,,87,87,1,6,5,6,0.3,0.4
2024-09-27T2000,3526A,119.5189,25.9664,福州市,吴航,,25,7,20,3,9,79,,82,82,3,11,6,6,0.3,0.4
2024-09-27T2000,1755A,123.7977,41.8491,抚顺市,望花区,细颗粒物(PM2.5),63,64,52,45,21,14,,94,82,61,28,7,18,0.8,0.5
2024-09-27T2000,1756A,123.9161,41.8822,抚顺市,顺城区,颗粒物(PM10),66,81,37,36,18,11,,89,72,61,28,6,7,0.7,0.6
2024-09-27T2000,1757A,124.0436,41.8611,抚顺市,东洲区,,45,45,25,28,14,36,,94,84,34,17,7,7,0.5,0.4
2024-09-27T2000,1758A,123.9247,41.8642,抚顺市,新抚区,颗粒物(PM10),65,80,33,22,11,7,,96,77,71,30,4,4,0.9,0.4
2024-09-27T2000,1759A,124.0972,41.8961,抚顺市,大伙房水库,颗粒物(PM10),58,65,24,13,14,62,,98,92,13,14,6,6,0.4,0.4
2024-09-27T2000,1760A,123.7086,41.8391,抚顺市,沈抚新城,细颗粒物(PM2.5),59,,26,42,24,30,,101,90,49,29,7,9,0.3,0.4
2024-09-27T2000,2377A,116.3544,27.9831,抚州市,市站,细颗粒物(PM2.5),59,58,40,42,23,71,,96,90,18,14,2,5,1.1,1
2024-09-27T2000,2378A,116.3565,27.963,抚州市,血防站,细颗粒物(PM2.5),64,54,39,46,32,78,,104,101,16,12,1,6,1.2,1
2024-09-27T2000,2379A,116.3564,28.0007,抚州市,采茶剧团,细颗粒物(PM2.5),58,56,37,41,25,73,,101,98,13,7,5,6,0.9,0.7
2024-09-27T2000,2380A,116.385,27.9647,抚州市,医学分院,颗粒物(PM10),52,54,35,30,20,66,,100,96,19,10,5,6,0.8,0.7
2024-09-27T2000,2207A,121.6094,41.998,阜新市,工业园区,颗粒物(PM10),67,83,59,25,16,72,,117,113,34,29,29,18,0.7,0.7
2024-09-27T2000,2208A,121.6697,42.0279,阜新市,长青街,,33,33,61,21,26,86,,111,110,18,29,8,16,0.5,0.8
2024-09-27T2000,2209A,121.6673,42.0705,阜新市,农业园区,,35,35,40,24,23,93,,109,107,22,16,10,21,0.4,0.4
2024-09-27T2000,2210A,121.6717,42.0224,阜新市,东苑,,46,46,70,21,29,89,,108,108,27,33,6,28,0.7,1
2024-09-27T2000,2211A,121.6506,42.0498,阜新市,玉龙新城,,45,45,42,26,17,89,,123,120,23,27,15,15,0.7,0.7
2024-09-27T2000,2301A,115.8277,32.8929,阜阳市,市监测站,,39,39,36,13,20,73,,107,104,26,15,8,7,0.6,0.5
2024-09-27T2000,2303A,115.8554,32.8605,阜阳市,开发区,颗粒物(PM10),56,62,45,25,22,63,,107,103,31,19,6,6,0.6,0.6
2024-09-27T2000,2875A,115.784,32.8892,阜阳市,阜阳职业技术学院,,37,37,33,16,16,88,,108,108,16,13,6,6,0.4,0.4
2024-09-27T2000,3468A,115.7901,32.8613,阜阳市,市规划展馆,,34,34,36,17,22,88,,110,110,22,16,6,7,0.5,0.5
2024-09-27T2000,3469A,115.836,32.9183,阜阳市,枣园社区,,31,31,37,21,23,81,,104,102,26,18,8,8,0.5,0.5
2024-09-27T2000,2669A,102.9099,34.9841,甘南藏族自治州,州政府,,50,50,44,27,20,56,,77,72,24,25,14,14,0.3,0.4
2024-09-27T2000,3380A,102.8914,34.9617,甘南藏族自治州,甘肃民族师范学院,颗粒物(PM10),68,86,52,29,19,3,,75,62,47,26,6,5,0.6,0.5
2024-09-27T2000,2570A,101.9603,30.0475,甘孜藏族自治州,水桥子,,,,20,,6,69,,73,73,5,16,6,6,0.4,0.3
2024-09-27T2000,3065A,101.9533,29.9972,甘孜藏族自治州,州环保局,,19,18,16,10,6,60,,68,68,15,15,3,3,0.4,0.2
2024-09-27T2000,3414A,115.8347,28.932,赣江新区,桑海产业园,颗粒物(PM10),53,56,59,32,38,95,,145,137,30,21,11,14,0.5,0.6
2024-09-27T2000,2362A,114.9017,25.9149,赣州市,通天岩,,40,36,28,28,21,36,,93,75,3,3,7,7,0.2,0.3
2024-09-27T2000,2363A,114.9367,25.8664,赣州市,地委,,37,37,24,19,18,40,,77,68,22,10,5,6,1.2,1.1
2024-09-27T2000,2364A,114.9461,25.8481,赣州市,气象台,,26,26,26,16,17,52,,75,68,7,7,8,19,0.5,0.5
2024-09-27T2000,2365A,114.9322,25.8333,赣州市,市图书馆,,31,31,25,14,15,48,,86,76,17,8,4,6,0.7,0.7
2024-09-27T2000,2366A,114.8905,25.8471,赣州市,华坚鞋城,,34,34,24,12,14,36,,78,68,23,8,5,3,0.6,0.5
2024-09-27T2000,3109A,115.0093,25.8613,赣州市,赣县区卫计委,,27,27,25,15,15,31,,78,69,24,12,6,7,0.8,0.7
2024-09-27T2000,2684A,106.2792,36.0022,固原市,监测站,细颗粒物(PM2.5),124,,54,94,47,150,,137,137,13,14,3,3,0.5,0.4
2024-09-27T2000,2685A,106.2375,36.0211,固原市,新区,细颗粒物(PM2.5),59,66,55,42,41,135,,129,129,18,13,5,5,0.8,0.6
2024-09-27T2000,3522A,106.2177,35.9959,固原市,原州区十五小,颗粒物(PM10),56,62,57,38,36,139,,132,132,18,13,6,5,0.9,0.8
2024-09-27T2000,2544A,106.6303,30.4576,广安市,市委,细颗粒物(PM2.5),60,65,74,43,51,122,,176,172,47,25,4,3,0.7,0.7
2024-09-27T2000,2545A,106.6271,30.4663,广安市,友谊中学,颗粒物(PM10),55,60,70,36,50,148,,171,170,29,32,6,5,0.7,0.8
2024-09-27T2000,2547A,106.6388,30.4551,广安市,广电花园,细颗粒物(PM2.5),58,63,75,41,48,134,,173,171,32,22,4,4,0.6,0.7
2024-09-27T2000,2902A,106.6351,30.4865,广安市,北辰小学,颗粒物(PM10),62,74,80,39,50,122,,166,162,44,23,8,8,0.7,0.7
2024-09-27T2000,2523A,105.8945,32.4535,广元市,黑石坡,,50,46,46,35,41,123,,142,142,12,12,15,18,0.5,0.6
2024-09-27T2000,2524A,105.821,32.4444,广元市,老城,细颗粒物(PM2.5),54,54,68,38,42,144,,154,154,19,37,2,7,1.2,1.3
2024-09-27T2000,2526A,105.8628,32.4287,广元市,监测站,细颗粒物(PM2.5),70,,56,51,46,136,,154,154,14,16,4,5,0.7,0.7
2024-09-27T2000,3617A,105.8047,32.4166,广元市,经开区,颗粒物(PM10),61,71,80,42,61,143,,153,153,18,31,5,14,0.8,0.9
2024-09-27T2000,1345A,113.2347,23.1423,广州市,广雅中学,,42,42,40,27,25,64,,154,141,40,43,6,7,1.0,0.9
2024-09-27T2000,1346A,113.2612,23.105,广州市,市五中,,43,43,38,30,27,92,,168,161,18,27,6,7,0.7,0.7
2024-09-27T2000,1348A,113.3478,23.0916,广州市,广东商学院,颗粒物(PM10),53,55,46,31,26,83,,171,163,46,46,4,6,0.7,0.8
2024-09-27T2000,1349A,113.4332,23.1047,广州市,市八十六中,,44,44,46,24,25,72,,160,153,34,42,3,5,0.6,0.7
2024-09-27T2000,1350A,113.3505,22.9483,广州市,番禺中学,,45,45,46,30,28,100,,177,174,33,38,7,7,0.8,0.8
2024-09-27T2000,1351A,113.2146,23.3916,广州市,花都师范,,31,31,41,19,23,71,,112,105,14,26,5,6,0.7,0.7
2024-09-27T2000,1352A,113.2597,23.1331,广州市,市监测站,,39,39,31,21,14,68,,155,145,36,43,5,6,0.8,0.8
2024-09-27T2000,1353A,113.5618,23.312,广州市,九龙镇镇龙,,,45,43,30,24,71,,131,127,22,29,,6,0.7,0.8
2024-09-27T2000,1354A,113.2765,23.1544,广州市,麓湖,,41,41,43,26,24,47,,152,135,44,34,6,6,0.6,0.7
2024-09-27T2000,1355A,113.443,23.3035,广州市,帽峰山森林公园,,32,32,28,19,15,84,,120,114,14,16,6,6,0.6,0.6
2024-09-27T2000,2846A,113.3221,23.1322,广州市,体育西,,48,48,38,32,22,79,,162,152,28,35,5,7,0.7,0.7
2024-09-27T2000,3298A,113.5717,23.5491,广州市,从化街口,,46,46,34,24,22,45,,113,102,29,23,9,8,0.7,0.7
2024-09-27T2000,3299A,113.3472,23.3692,广州市,白云竹料,颗粒物(PM10),52,54,56,30,30,49,,113,107,40,35,5,5,0.7,0.8
2024-09-27T2000,3300A,113.2981,23.237,广州市,白云嘉禾,颗粒物(PM10),51,52,58,24,28,67,,125,116,32,41,11,8,0.8,1
2024-09-27T2000,3301A,113.4256,23.1716,广州市,黄埔科学城,,41,41,41,23,24,68,,138,131,26,33,8,7,0.7,0.8
2024-09-27T2000,3302A,113.3942,23.0483,广州市,番禺大学城,,44,44,38,27,25,103,,180,174,26,40,8,9,0.4,0.4
2024-09-27T2000,3303A,113.4922,22.8168,广州市,南沙黄阁,颗粒物(PM10),56,62,44,35,24,101,,182,178,60,35,5,5,1.0,0.7
2024-09-27T2000,3304A,113.5342,22.7896,广州市,南沙街,颗粒物(PM10),56,61,41,36,22,133,,179,179,30,28,8,7,0.9,0.8
2024-09-27T2000,3443A,113.2902,23.5544,广州市,花都梯面,,42,42,29,24,16,27,,93,79,27,15,5,6,0.8,0.7
2024-09-27T2000,3445A,113.7858,23.7478,广州市,从化良口,,38,38,19,23,13,38,,76,70,11,9,7,7,0.8,0.8
2024-09-27T2000,3446A,113.8051,23.2614,广州市,增城荔城,,40,40,34,23,23,92,,142,140,20,16,5,5,0.6,0.6
2024-09-27T2000,2506A,109.6047,23.0666,贵港市,江南子站,颗粒物(PM10),96,141,77,51,39,89,,132,127,41,25,22,9,1.2,1
2024-09-27T2000,2507A,109.6014,23.0948,贵港市,贵城子站,细颗粒物(PM2.5),59,62,58,42,36,116,,132,132,25,21,9,8,0.9,0.9
2024-09-27T2000,2508A,109.5669,23.1065,贵港市,荷城子站,颗粒物(PM10),63,75,61,36,28,110,,127,126,18,21,11,10,0.8,0.7
2024-09-27T2000,3405A,109.5886,23.1172,贵港市,新世纪学校,"颗粒物(PM10),细颗粒物(PM2.5)",57,63,48,40,25,102,,131,129,14,18,7,8,0.9,0.8
2024-09-27T2000,1439A,106.6899,26.5998,贵阳市,马鞍山,,41,41,34,17,18,79,,98,96,12,12,10,9,0.5,0.5
2024-09-27T2000,1440A,106.6971,26.5694,贵阳市,市环保站,细颗粒物(PM2.5),53,51,43,37,32,75,,99,97,19,16,6,7,0.6,0.5
2024-09-27T2000,1441A,106.6243,26.6266,贵阳市,鉴湖路,,,48,43,27,24,74,,93,92,,10,,6,0.6,0.4
2024-09-27T2000,1442A,106.7487,26.6343,贵阳市,燕子冲,,35,31,30,24,28,79,,106,103,14,12,6,7,0.5,0.5
2024-09-27T2000,1443A,106.6555,26.4365,贵阳市,碧云窝,,48,48,45,22,25,77,,94,93,10,9,8,9,0.5,0.4
2024-09-27T2000,1444A,106.694,26.5161,贵阳市,中院村,颗粒物(PM10),53,56,43,29,29,64,,86,83,20,18,12,11,0.7,0.6
2024-09-27T2000,1445A,106.7109,26.6027,贵阳市,红边门,细颗粒物(PM2.5),52,46,44,36,33,64,,96,92,29,18,5,9,0.5,0.5
2024-09-27T2000,1446A,106.7164,26.5699,贵阳市,新华路,,42,36,34,29,26,73,,102,98,22,15,5,7,0.5,0.4
2024-09-27T2000,1447A,106.674,26.5424,贵阳市,太慈桥,,39,39,41,27,24,79,,98,96,12,17,8,7,0.5,0.5
2024-09-27T2000,1862A,110.4144,25.3167,桂林市,电子科大尧山校区,细颗粒物(PM2.5),55,42,37,39,29,40,,88,81,27,10,4,8,0.7,0.7
2024-09-27T2000,1863A,110.2819,25.2697,桂林市,监测站,,26,26,34,18,30,77,,99,96,20,13,12,9,0.8,0.7
2024-09-27T2000,1864A,110.3089,25.2708,桂林市,龙隐路小学,,30,30,30,18,25,77,,97,94,16,10,10,9,0.7,0.6
2024-09-27T2000,1865A,110.2869,25.2178,桂林市,八中,,41,41,31,23,22,56,,86,82,18,13,6,7,0.5,0.5
2024-09-27T2000,3403A,110.1764,25.2381,桂林市,创业大厦,,32,29,31,22,25,60,,86,84,17,17,7,8,0.6,0.5
2024-09-27T2000,3531A,110.296,25.1253,桂林市,旅游学院,,32,31,26,22,18,60,,90,86,19,13,7,10,0.4,0.4
2024-09-27T2000,2674A,100.2561,34.4714,果洛藏族自治州,玛沁县大武镇,,30,30,31,11,14,86,,88,88,1,10,7,7,0.3,0.4
2024-09-27T2000,1129A,126.5422,45.755,哈尔滨市,岭北,,33,33,48,19,31,55,,14,14,39,42,17,13,0.6,1.4
2024-09-27T2000,1130A,126.561,45.8167,哈尔滨市,松北商大,,33,33,70,16,24,24,,71,66,50,39,8,9,0.5,0.8
2024-09-27T2000,1131A,126.979,45.5419,哈尔滨市,阿城会宁,颗粒物(PM10),66,82,38,21,15,4,,74,54,56,27,10,11,0.5,0.5
2024-09-27T2000,1132A,126.599,45.7222,哈尔滨市,南岗学府路,,47,47,89,20,31,42,,83,76,41,37,8,9,0.5,1
2024-09-27T2000,1133A,126.689,45.7733,哈尔滨市,太平宏伟公园,颗粒物(PM10),69,87,98,21,33,10,,64,52,63,46,7,8,0.5,0.7
2024-09-27T2000,1134A,126.635,45.7667,哈尔滨市,道外承德广场,颗粒物(PM10),56,62,81,27,27,13,,65,56,72,53,7,8,0.6,1.1
2024-09-27T2000,1135A,126.685,45.7319,哈尔滨市,香坊红旗大街,颗粒物(PM10),65,80,96,33,35,18,,76,65,64,48,12,17,0.9,1.2
2024-09-27T2000,1136A,126.6411,45.7258,哈尔滨市,动力和平路,,35,35,64,12,27,45,,76,70,39,49,11,13,0.5,1
2024-09-27T2000,1137A,126.593,45.7478,哈尔滨市,道里建国路,,45,45,67,23,29,34,,78,71,50,52,15,22,0.7,1.2
2024-09-27T2000,1138A,126.615,45.61,哈尔滨市,平房东轻厂,颗粒物(PM10),64,78,58,14,20,29,,68,55,52,47,7,7,0.4,0.6
2024-09-27T2000,1139A,126.595,45.9855,哈尔滨市,呼兰师专,颗粒物(PM10),54,58,57,24,30,37,,67,60,44,37,6,6,0.6,0.8
2024-09-27T2000,1140A,126.6206,45.6842,哈尔滨市,省农科院,颗粒物(PM10),78,106,94,26,27,21,,75,63,57,50,4,9,0.5,0.8
2024-09-27T2000,2688A,93.5128,42.8172,哈密市,地区监测站,颗粒物(PM10),87,123,79,20,21,87,,99,99,12,18,9,6,0.4,0.3
2024-09-27T2000,2689A,93.4961,42.8328,哈密市,哈密师范学校,颗粒物(PM10),73,96,70,22,23,96,,106,106,9,17,4,5,0.3,0.4
2024-09-27T2000,2671A,100.9048,36.9639,海北藏族自治州,海晏县西海镇,颗粒物(PM10),54,57,29,20,17,99,,102,102,18,10,18,14,0.5,0.5
2024-09-27T2000,3867A,102.0738,36.5056,海东市,平安区公安北苑,颗粒物(PM10),68,86,67,34,31,106,,131,131,35,18,26,18,0.8,0.7
2024-09-27T2000,1410A,110.3232,20.0574,海口市,海南大学,,26,23,21,18,15,68,,98,86,12,11,3,3,0.5,0.4
2024-09-27T2000,1411A,110.283,20.0053,海口市,秀英海南医院,,,39,32,28,18,64,,96,86,,15,5,5,,0.4
2024-09-27T2000,1412A,110.338,19.9969,海口市,海南师范大学,,35,32,26,24,17,87,,98,93,9,12,6,6,0.3,0.3
2024-09-27T2000,1413A,110.33,20.0356,海口市,龙华路环保局宿舍,,25,23,24,17,14,71,,98,88,13,9,4,4,0.4,0.4
2024-09-27T2000,3539A,110.5111,19.9736,海口市,桂林洋子站,,33,32,24,23,15,52,,104,100,8,9,7,6,0.4,0.4
2024-09-27T2000,2673A,100.6188,36.2866,海南藏族自治州,共和县恰卜恰镇,,49,49,32,3,13,67,,77,76,12,19,14,10,0.5,0.6
2024-09-27T2000,2676A,97.3731,37.3753,海西蒙古族藏族自治州,德令哈市,,,,16,,12,66,,97,95,27,7,10,10,0.7,0.4
2024-09-27T2000,1048A,114.5302,36.6116,邯郸市,东污水处理厂,细颗粒物(PM2.5),140,148,126,107,103,126,,170,170,41,24,7,4,0.6,0.7
2024-09-27T2000,1049A,114.4918,36.5713,邯郸市,矿院,细颗粒物(PM2.5),117,140,137,88,101,144,,171,171,23,18,6,4,0.6,0.7
2024-09-27T2000,1050A,114.484,36.6133,邯郸市,丛台公园,细颗粒物(PM2.5),115,162,128,87,89,130,,170,170,32,21,6,5,0.6,0.7
2024-09-27T2000,3458A,114.7895,36.5593,邯郸市,香泉濮院小区,颗粒物(PM10),93,136,151,66,93,132,,177,177,38,27,3,4,0.6,0.8
2024-09-27T2000,3579A,114.50634,36.77178,邯郸市,永年区实验高中,细颗粒物(PM2.5),155,202,147,118,96,118,,172,,55,27,6,4,0.8,0.9
2024-09-27T2000,3580A,114.20016,36.44293,邯郸市,峰峰矿区临水派出所,颗粒物(PM10),102,154,126,69,75,160,,189,189,21,17,4,8,0.9,1.2
2024-09-27T2000,2635A,107.0154,33.0706,汉中市,市监测站,颗粒物(PM10),55,60,66,35,41,124,,175,167,18,14,9,9,0.8,0.7
2024-09-27T2000,2636A,107.0089,33.1138,汉中市,鑫源开发区,,50,49,64,35,40,128,,178,170,21,18,12,11,0.6,0.6
2024-09-27T2000,2637A,107.007,33.0323,汉中市,南郑大河坎水厂,颗粒物(PM10),53,55,65,34,42,120,,170,163,22,14,9,9,0.8,0.7
2024-09-27T2000,1223A,120.2072,30.2111,杭州市,滨江,,26,19,26,11,14,81,,89,89,16,24,5,5,0.6,0.7
2024-09-27T2000,1224A,120.0633,30.2747,杭州市,西溪,,23,23,31,11,16,70,,79,79,18,28,5,6,0.6,0.7
2024-09-27T2000,1226A,120.3461,30.3153,杭州市,下沙,,38,29,28,13,12,119,,102,102,30,41,8,6,0.7,0.6
2024-09-27T2000,1227A,120.1269,30.2456,杭州市,卧龙桥,,31,19,24,7,15,98,,98,98,12,23,5,5,0.5,0.6
2024-09-27T2000,1228A,120.1903,30.2692,杭州市,浙江农大,,30,23,26,11,15,94,,88,88,18,35,8,8,0.4,0.5
2024-09-27T2000,1230A,120.1197,30.3119,杭州市,和睦小学,,30,21,22,12,16,96,,94,94,16,31,6,6,0.5,0.6
2024-09-27T2000,1231A,120.3019,30.4183,杭州市,临平镇,,34,34,27,17,11,105,,99,99,18,24,5,5,0.7,0.7
2024-09-27T2000,1232A,120.2697,30.1819,杭州市,城厢镇,,28,28,26,14,13,74,,98,98,29,29,6,7,0.5,0.6
2024-09-27T2000,1233A,120.0883,30.1808,杭州市,云栖,,20,15,19,9,11,64,,82,81,11,18,7,7,0.6,0.7
2024-09-27T2000,3557A,119.9464,30.0494,杭州市,镇二中,,25,23,26,17,18,56,,98,96,26,24,8,8,0.7,0.7
2024-09-27T2000,3558A,119.7183,30.2367,杭州市,市府大楼,,22,11,18,7,14,70,,101,100,19,23,5,6,0.5,0.6
2024-09-27T2000,3656A,120.1556,30.2864,杭州市,消防大队,,33,23,27,12,16,104,,95,95,9,25,8,8,0.6,0.8
2024-09-27T2000,1270A,117.1959,31.7848,合肥市,明珠广场,,32,31,22,22,14,85,,102,102,28,19,7,6,0.9,0.8
2024-09-27T2000,1271A,117.3072,31.8764,合肥市,三里街,,,,20,,12,64,,92,91,,14,7,6,,0.5
2024-09-27T2000,1272A,117.2588,31.8707,合肥市,琥珀山庄,,34,34,21,18,18,82,,106,105,27,16,7,7,0.6,0.5
2024-09-27T2000,1274A,117.25,31.8571,合肥市,长江中路,,41,41,30,25,17,88,,102,102,22,14,7,7,0.7,0.6
2024-09-27T2000,1275A,117.266,31.9436,合肥市,庐阳区,,39,39,22,14,13,90,,107,106,27,15,4,4,0.6,0.5
2024-09-27T2000,1276A,117.336,31.8586,合肥市,瑶海区,,44,44,23,23,14,75,,100,97,36,17,4,3,0.6,0.6
2024-09-27T2000,1277A,117.3027,31.7964,合肥市,包河区,,44,44,23,22,13,43,,96,91,60,28,4,3,0.8,0.7
2024-09-27T2000,1278A,117.2776,31.7385,合肥市,滨湖新区,,34,34,24,19,14,95,,104,104,16,15,6,6,0.7,0.6
2024-09-27T2000,1279A,117.1318,31.8403,合肥市,高新区,,28,19,21,16,15,87,,99,99,18,14,9,8,0.8,0.8
2024-09-27T2000,3464A,117.3803,31.9147,合肥市,高教基地,,39,39,24,23,18,86,,101,101,16,11,3,4,0.4,0.4
2024-09-27T2000,3614A,79.924,37.0877,和田地区,地区环保局,颗粒物(PM10),180,310,308,94,87,84,,91,91,13,18,8,8,0.7,0.7
2024-09-27T2000,3615A,79.9131,37.113,和田地区,市环保局,颗粒物(PM10),175,300,328,99,85,76,,94,94,26,29,7,8,,0.6
2024-09-27T2000,2516A,108.2011,24.715,河池市,东仁乐园,,38,38,39,24,27,62,,87,83,9,12,5,6,0.6,0.7
2024-09-27T2000,2517A,108.0497,24.6947,河池市,市环保站,,42,,51,29,38,73,,96,92,8,12,15,12,0.6,0.5
2024-09-27T2000,2518A,108.0983,24.6989,河池市,市疾控中心,,45,37,40,31,27,58,,90,86,18,16,10,10,0.7,0.7
2024-09-27T2000,1696A,114.6778,23.7569,河源市,源西,,34,34,23,23,18,18,,56,47,31,17,5,4,0.9,0.8
2024-09-27T2000,1697A,114.6944,23.7586,河源市,东埔,,42,,21,29,14,33,,62,54,24,21,2,2,0.8,0.7
2024-09-27T2000,1698A,114.6892,23.7233,河源市,老城,,40,40,28,3,11,23,,69,58,19,15,2,2,0.8,0.7
2024-09-27T2000,1718A,115.4208,35.2464,菏泽市,气象局,"颗粒物(PM10),臭氧1小时",58,66,110,28,58,166,,194,192,17,25,3,6,0.4,0.6
2024-09-27T2000,3374A,115.5564,35.0891,菏泽市,定陶老年大学,颗粒物(PM10),60,70,112,29,58,126,,178,170,24,22,7,9,0.4,0.7
2024-09-27T2000,3647A,115.4702,35.2706,菏泽市,菏泽医专,颗粒物(PM10),63,75,117,30,72,148,,189,185,23,30,5,8,0.6,0.8
2024-09-27T2000,2514A,111.5264,24.4172,贺州市,环保小区,颗粒物(PM10),52,54,41,19,21,37,,56,56,28,21,7,6,0.8,0.8
2024-09-27T2000,2515A,111.5608,24.4078,贺州市,政协大楼,颗粒物(PM10),52,54,39,31,23,35,,71,71,33,22,8,7,0.7,0.7
2024-09-27T2000,3534A,111.4744,24.4553,贺州市,西湾,,38,38,29,19,16,51,,76,73,29,16,6,6,0.7,0.6
2024-09-27T2000,2385A,114.17,35.9019,鹤壁市,市监测站,细颗粒物(PM2.5),108,123,113,81,85,136,,198,192,30,22,5,9,1.1,1.3
2024-09-27T2000,2386A,114.2956,35.7511,鹤壁市,市交警支队,细颗粒物(PM2.5),84,103,121,62,81,155,,193,193,36,29,3,8,1.0,1.1
2024-09-27T2000,2387A,114.2878,35.7306,鹤壁市,迎宾馆,细颗粒物(PM2.5),100,125,142,75,94,152,,194,194,41,29,5,10,0.9,1.1
2024-09-27T2000,3474A,114.2617,35.6822,鹤壁市,大新区,细颗粒物(PM2.5),74,84,103,54,71,154,,187,187,31,26,8,13,0.9,1.2
2024-09-27T2000,3596A,114.1572,35.9603,鹤壁市,南山宾馆,细颗粒物(PM2.5),97,114,123,72,85,167,,202,200,13,14,4,7,0.8,1.2
2024-09-27T2000,2244A,130.2537,47.3416,鹤岗市,哈啤分公司,,36,36,22,20,16,41,,72,64,7,6,14,14,0.7,0.6
2024-09-27T2000,2245A,130.2684,47.3086,鹤岗市,斯达机电,,,41,21,26,14,45,,73,66,,10,14,13,0.1,0.1
2024-09-27T2000,2246A,130.3114,47.3388,鹤岗市,东山纸板厂,,,,36,33,19,14,,64,47,25,16,16,16,0.6,0.5
2024-09-27T2000,2247A,130.1097,47.3382,鹤岗市,五号水库,,15,15,13,9,7,39,,79,69,8,5,7,7,0.5,0.5
2024-09-27T2000,2263A,127.4833,50.2524,黑河市,交通局,,40,40,28,24,17,68,,73,73,16,15,8,8,0.4,0.4
2024-09-27T2000,2264A,127.5144,50.2341,黑河市,环保局,,27,23,21,18,13,86,,87,87,10,9,3,4,0.3,0.4
2024-09-27T2000,2265A,127.5291,50.2472,黑河市,大黑河岛,,,,,25,18,75,,70,70,13,12,2,2,0.1,0.1
2024-09-27T2000,1074A,115.6838,37.7541,衡水市,电机北厂,细颗粒物(PM2.5),110,143,72,83,49,101,,142,142,51,30,8,9,0.8,0.4
2024-09-27T2000,1075A,115.6303,37.7316,衡水市,市监测站,细颗粒物(PM2.5),104,123,70,78,41,104,,148,148,44,27,8,9,0.8,0.5
2024-09-27T2000,3188A,115.6683,37.7217,衡水市,市城管局,细颗粒物(PM2.5),110,139,70,83,45,132,,160,160,38,27,8,7,1.0,0.5
2024-09-27T2000,3459A,115.5989,37.5491,衡水市,地表水厂,细颗粒物(PM2.5),82,98,59,60,34,140,,142,142,23,31,9,8,0.6,0.4
2024-09-27T2000,2456A,112.5003,26.9167,衡阳市,原169医院,细颗粒物(PM2.5),64,70,65,46,40,88,,144,142,15,14,7,7,0.9,1
2024-09-27T2000,2457A,112.6194,26.9258,衡阳市,衡阳化工总厂,细颗粒物(PM2.5),70,68,69,51,52,77,,130,125,27,19,10,12,0.8,0.8
2024-09-27T2000,2458A,112.6211,26.8956,衡阳市,珠晖区环保局,,,70,64,,,94,,127,125,18,18,8,11,0.8,0.8
2024-09-27T2000,2459A,112.6197,26.8733,衡阳市,市委党校,细颗粒物(PM2.5),55,,62,39,40,105,,132,132,12,20,10,13,0.8,0.9
2024-09-27T2000,2460A,112.6006,26.8919,衡阳市,市监测站,细颗粒物(PM2.5),68,65,54,49,36,96,,138,134,18,16,9,12,0.9,1
2024-09-27T2000,2461A,112.5664,26.9056,衡阳市,真空机电公司,细颗粒物(PM2.5),55,50,62,39,41,99,,136,136,21,18,9,10,1.1,1.1
2024-09-27T2000,3399A,112.6703,26.882,衡阳市,师范学院,颗粒物(PM10),55,59,60,30,36,60,,126,120,27,15,9,11,1.0,0.9
2024-09-27T2000,2608A,103.3772,23.3993,红河哈尼族彝族自治州,污水处理厂,,32,32,32,17,26,44,,66,60,9,7,5,5,0.5,0.5
2024-09-27T2000,2609A,103.3861,23.35,红河哈尼族彝族自治州,监测站,,42,40,39,29,29,53,,66,60,9,5,11,8,0.5,0.5
2024-09-27T2000,3038A,103.3758,23.368,红河哈尼族彝族自治州,州图书馆,,30,30,33,10,18,50,,66,58,8,5,6,6,0.4,0.4
2024-09-27T2000,1090A,111.6507,40.7517,呼和浩特市,呼市一监,颗粒物(PM10),68,85,61,39,32,95,,125,125,31,24,8,8,0.8,0.6
2024-09-27T2000,1091A,111.6572,40.8033,呼和浩特市,小召,颗粒物(PM10),59,68,56,32,32,112,,124,124,26,28,8,8,0.8,0.6
2024-09-27T2000,1094A,111.7516,40.8369,呼和浩特市,如意水处理厂,颗粒物(PM10),63,76,71,34,30,98,,120,120,24,34,7,8,0.7,0.6
2024-09-27T2000,1095A,111.7276,40.8062,呼和浩特市,二十九中,颗粒物(PM10),65,79,57,46,39,114,,131,126,26,29,7,7,0.9,0.7
2024-09-27T2000,1096A,111.5512,40.7866,呼和浩特市,工大金川校区,颗粒物(PM10),78,106,76,42,38,65,,104,104,58,43,3,5,0.9,0.7
2024-09-27T2000,1097A,111.717,40.7612,呼和浩特市,化肥厂生活区,颗粒物(PM10),71,91,72,42,35,93,,118,118,34,28,10,10,0.8,0.7
2024-09-27T2000,3698A,111.5968,40.8178,呼和浩特市,红旗小学,颗粒物(PM10),89,127,78,42,37,41,,113,108,89,49,5,8,0.9,0.7
2024-09-27T2000,3699A,111.6518,40.8389,呼和浩特市,海东办,颗粒物(PM10),68,85,65,43,36,103,,122,122,30,36,6,7,0.8,0.6
2024-09-27T2000,2192A,119.7594,49.2261,呼伦贝尔市,区环保局,细颗粒物(PM2.5),53,54,37,37,21,49,,86,72,34,18,4,4,0.6,0.4
2024-09-27T2000,3061A,119.7512,49.1577,呼伦贝尔市,国华电力东,,39,39,33,26,19,41,,95,77,26,11,3,4,0.6,0.4
2024-09-27T2000,1250A,120.0751,30.8669,湖州市,城西水厂,,21,21,16,11,10,48,,98,90,38,21,4,5,0.3,0.3
2024-09-27T2000,2873A,120.0875,30.8955,湖州市,仁皇山新区,,27,27,14,17,8,71,,107,103,23,19,6,7,0.7,0.6
2024-09-27T2000,2907A,120.1844,30.8596,湖州市,吴兴区站,,28,28,20,13,9,46,,89,82,33,20,6,7,0.5,0.5
2024-09-27T2000,3562A,120.4148,30.8538,湖州市,南浔区站,,,,17,,9,73,,85,83,26,22,7,8,0.5,0.5
2024-09-27T2000,1607A,120.9092,40.7136,葫芦岛市,龙港区,,39,19,44,14,31,123,,134,134,15,35,11,30,0.5,0.8
2024-09-27T2000,1608A,120.8392,40.7514,葫芦岛市,化工街,,36,36,62,17,28,109,,132,132,28,40,14,27,0.5,0.6
2024-09-27T2000,1609A,120.8341,40.7073,葫芦岛市,新区,,39,35,48,22,35,122,,141,141,23,49,9,18,0.6,0.7
2024-09-27T2000,1610A,120.8695,40.7677,葫芦岛市,东城区,细颗粒物(PM2.5),53,48,54,37,37,93,,126,126,34,41,10,19,0.5,0.4
2024-09-27T2000,2482A,109.5981,27.5721,怀化市,林科所,,36,36,48,20,31,70,,122,112,19,19,1,9,1.0,0.7
2024-09-27T2000,2483A,109.9453,27.5444,怀化市,河西地税局,细颗粒物(PM2.5),60,51,60,43,42,59,,120,106,23,19,8,10,0.6,0.6
2024-09-27T2000,2484A,109.9781,27.5342,怀化市,市四医院,,43,39,71,30,46,79,,116,107,7,11,7,22,0.6,0.7
2024-09-27T2000,2485A,109.9972,27.5578,怀化市,监测楼,细颗粒物(PM2.5),52,52,68,36,40,81,,122,111,12,18,7,18,0.5,0.6
2024-09-27T2000,2486A,110.0394,27.583,怀化市,市委党校,颗粒物(PM10),56,61,71,24,45,79,,118,108,9,20,8,36,0.6,0.7
2024-09-27T2000,1210A,119.036,33.5981,淮安市,钵池山,,34,34,39,20,34,78,,122,114,25,14,5,4,0.5,0.6
2024-09-27T2000,1211A,119.007,33.575,淮安市,北京南路,,29,29,41,18,31,87,,122,114,22,16,6,6,0.5,0.5
2024-09-27T2000,1212A,118.989,33.6067,淮安市,市监测站,,34,34,39,19,27,97,,130,123,25,24,6,7,0.4,0.5
2024-09-27T2000,1213A,119.135,33.5039,淮安市,楚州区监测站,,39,39,48,14,24,88,,125,116,17,16,6,6,0.5,0.6
2024-09-27T2000,1214A,119.0186,33.6297,淮安市,淮阴区监测站,颗粒物(PM10),51,51,51,23,35,38,,125,104,75,29,2,2,0.5,0.5
2024-09-27T2000,3426A,118.8755,33.2894,淮安市,新华书店,,35,35,40,17,20,98,,137,128,18,17,7,7,0.5,0.6
2024-09-27T2000,2282A,116.8004,33.975,淮北市,监测站,,37,37,52,12,34,114,,147,137,12,11,6,7,0.4,0.5
2024-09-27T2000,2283A,116.8091,33.9007,淮北市,烈山区政府,,36,36,59,18,33,115,,156,146,14,10,5,6,0.4,0.5
2024-09-27T2000,3330A,116.8873,33.9836,淮北市,杜集区检察院,,41,31,58,10,39,130,,161,151,1,3,7,8,0.5,0.6
2024-09-27T2000,4017A,116.7923,33.9535,淮北市,市博物馆,,39,34,53,12,31,122,,156,148,10,10,6,6,0.5,0.7
2024-09-27T2000,2277A,116.8305,32.7727,淮南市,潘集区政府,颗粒物(PM10),53,55,30,36,22,86,,113,110,24,13,11,6,0.6,0.4
2024-09-27T2000,2278A,117.0067,32.6524,淮南市,师范学院,,41,41,28,28,20,98,,119,115,15,6,7,7,0.5,0.4
2024-09-27T2000,2279A,116.8569,32.5951,淮南市,谢家集区政府,,28,25,17,19,17,75,,103,98,22,14,7,8,0.3,0.2
2024-09-27T2000,2280A,116.8281,32.633,淮南市,八公山区政府,,45,45,30,24,17,82,,108,104,16,11,12,11,0.4,0.3
2024-09-27T2000,2894A,117.0566,32.6531,淮南市,经济技术开发区消防队,,28,21,22,19,11,79,,112,107,21,10,4,4,0.4,0.4
2024-09-27T2000,3329A,117.0108,32.5893,淮南市,山南新区,,35,35,25,14,11,97,,119,114,20,13,3,3,0.6,0.5
2024-09-27T2000,2446A,114.9028,30.4742,黄冈市,职工中心,颗粒物(PM10),67,84,69,38,43,107,,166,158,29,21,10,10,0.7,0.7
2024-09-27T2000,2929A,114.8858,30.4519,黄冈市,红卫路,颗粒物(PM10),59,67,64,38,42,103,,163,151,31,24,10,10,0.8,0.8
2024-09-27T2000,3398A,114.9136,30.4445,黄冈市,市林业局,颗粒物(PM10),60,70,83,33,42,111,,180,168,32,24,11,11,0.7,0.7
2024-09-27T2000,2672A,102.0199,35.5102,黄南藏族自治州,同仁县隆务镇,,45,45,36,13,14,72,,86,86,5,8,10,10,0.5,0.5
2024-09-27T2000,2295A,118.2903,29.6963,黄山市,延安路89号,,39,,27,27,9,49,,67,65,8,6,6,6,0.3,0.4
2024-09-27T2000,2296A,118.327,29.7178,黄山市,黄山东路89号,,26,26,26,3,13,44,,65,63,7,6,4,4,0.3,0.4
2024-09-27T2000,2297A,118.1371,30.2756,黄山市,黄山区政府5号楼,,29,29,30,10,22,49,,68,66,8,7,7,6,0.4,0.5
2024-09-27T2000,2423A,115.0601,30.2313,黄石市,沈家营,,44,44,72,23,36,126,,165,154,10,20,9,16,0.6,0.8
2024-09-27T2000,2424A,115.0817,30.2006,黄石市,陈家湾,,48,48,70,23,36,136,,164,157,9,21,9,11,0.9,1
2024-09-27T2000,2426A,114.8988,30.2019,黄石市,铁山,,49,49,57,27,39,119,,188,167,32,21,9,11,0.4,0.6
2024-09-27T2000,2427A,115.0307,30.2092,黄石市,团城山,,42,42,65,16,33,131,,174,164,11,15,8,20,0.6,0.8
2024-09-27T2000,3149A,115.0235,30.1578,黄石市,笔架山北路,,48,48,56,21,37,118,,171,156,13,14,8,10,0.8,0.9
2024-09-27T2000,1392A,114.4183,23.0528,惠州市,河南岸金山湖子站,,37,37,52,23,34,52,,124,108,32,21,4,5,0.7,0.7
2024-09-27T2000,1393A,114.4053,23.0822,惠州市,下埔横江三路子站,,,32,48,19,30,70,,127,115,15,19,3,4,,0.8
2024-09-27T2000,1394A,114.4103,23.1142,惠州市,江北云山西路子站,,28,28,43,10,26,46,,130,113,33,21,11,6,0.7,0.7
2024-09-27T2000,1395A,114.4645,22.7833,惠州市,惠阳区承修路船湖子站,细颗粒物(PM2.5),54,55,61,38,40,152,,172,172,26,30,6,6,0.9,0.9
2024-09-27T2000,1396A,114.5317,22.7422,惠州市,大亚湾管委会子站,,48,48,62,33,37,54,,191,177,60,37,7,7,0.7,0.8
2024-09-27T2000,3314A,114.4338,22.8134,惠州市,惠阳秋长,细颗粒物(PM2.5),59,66,63,42,40,148,,176,176,32,34,7,6,0.8,0.8
2024-09-27T2000,3452A,114.6517,22.775,惠州市,大亚湾霞涌,细颗粒物(PM2.5),54,,45,38,28,94,,201,194,20,16,4,4,0.7,0.8
2024-09-27T2000,2240A,130.9762,45.3001,鸡西市,环保局,颗粒物(PM10),58,66,26,21,8,5,,71,52,53,13,7,6,0.8,0.3
2024-09-27T2000,2243A,130.9429,45.3039,鸡西市,第一中学,颗粒物(PM10),85,119,32,30,10,4,,73,58,67,16,6,5,0.5,0.2
2024-09-27T2000,3707A,131.0207,45.3073,鸡西市,欧美日汽修厂,颗粒物(PM10),81,112,31,40,13,8,,74,57,40,20,8,5,0.6,0.2
2024-09-27T2000,3709A,130.9967,45.3106,鸡西市,市政设施管理处,颗粒物(PM10),60,69,36,30,12,3,,69,50,51,26,7,6,0.5,0.3
2024-09-27T2000,2367A,114.9754,27.0803,吉安市,红声器材厂,细颗粒物(PM2.5),59,64,54,42,32,69,,126,121,26,18,11,10,0.7,0.6
2024-09-27T2000,2368A,114.9658,27.0999,吉安市,市森林工业局,细颗粒物(PM2.5),58,62,50,41,34,67,,119,115,28,21,12,11,0.9,0.7
2024-09-27T2000,2369A,114.99,27.1312,吉安市,市环境监测站,细颗粒物(PM2.5),57,60,46,40,29,83,,124,121,19,18,24,18,0.8,0.8
2024-09-27T2000,2370A,115.0093,27.0968,吉安市,青原区法院,细颗粒物(PM2.5),64,56,49,46,33,58,,123,116,33,20,12,13,0.9,0.8
2024-09-27T2000,1772A,126.54,43.8622,吉林市,哈达湾,细颗粒物(PM2.5),69,59,30,50,18,42,,87,82,53,29,11,6,0.7,0.6
2024-09-27T2000,1773A,126.5844,43.8358,吉林市,东局子,颗粒物(PM10),56,62,33,25,18,6,,78,66,57,27,5,4,0.9,0.6
2024-09-27T2000,1774A,126.5052,43.8245,吉林市,电力学院,,,,38,76,25,7,,82,67,58,24,4,3,1.2,0.7
2024-09-27T2000,1775A,126.6133,43.8972,吉林市,江北,颗粒物(PM10),62,73,39,39,20,12,,96,66,46,28,6,6,0.9,0.7
2024-09-27T2000,1776A,126.555,43.8306,吉林市,江南公园,,28,28,35,15,20,43,,77,67,30,29,6,6,0.7,0.8
2024-09-27T2000,1778A,126.7061,43.7133,吉林市,丰满,,19,10,9,8,8,59,,80,76,3,4,5,5,0.4,0.6
2024-09-27T2000,2868A,126.4739,43.953,吉林市,九站,颗粒物(PM10),53,55,49,22,21,42,,94,88,35,28,8,8,0.7,0.6
2024-09-27T2000,1299A,116.9862,36.6114,济南市,科干所,颗粒物(PM10),87,124,99,54,44,175,,205,199,35,51,12,8,1.1,1
2024-09-27T2000,1300A,116.9376,36.665,济南市,农科所,颗粒物(PM10),80,110,88,51,38,134,,197,191,44,51,10,7,1.0,0.8
2024-09-27T2000,1301A,117.1265,36.6734,济南市,开发区,颗粒物(PM10),81,112,95,54,41,150,,201,201,38,56,14,8,0.8,0.8
2024-09-27T2000,1303A,117.0624,36.6868,济南市,省种子仓库,颗粒物(PM10),86,122,99,51,39,154,,207,207,35,46,12,8,0.7,0.7
2024-09-27T2000,1304A,116.9489,36.6447,济南市,机床二厂,颗粒物(PM10),78,105,98,46,37,155,,219,209,52,57,14,7,0.9,0.9
2024-09-27T2000,1305A,117.0495,36.663,济南市,市监测站,颗粒物(PM10),80,110,92,56,42,151,,207,206,44,56,14,8,0.9,0.9
2024-09-27T2000,1306A,116.7675,36.5484,济南市,长清党校,细颗粒物(PM2.5),98,144,107,73,60,171,,216,212,43,42,10,9,1.1,1
2024-09-27T2000,1616A,117.6795,36.229,济南市,技术学院,颗粒物(PM10),63,75,51,39,26,135,,179,175,32,23,9,10,0.9,0.8
2024-09-27T2000,1961A,117.532,36.6868,济南市,东山小学,颗粒物(PM10),80,110,96,39,33,105,,219,202,69,47,7,7,0.7,0.7
2024-09-27T2000,3059A,117.7161,36.2049,济南市,泰兴公司,颗粒物(PM10),80,110,50,44,24,68,,172,160,89,34,9,10,0.9,0.6
2024-09-27T2000,3064A,117.6867,36.2171,济南市,莱芜战役纪念馆,颗粒物(PM10),64,78,51,31,21,130,,175,171,40,26,4,5,0.9,0.7
2024-09-27T2000,3494A,117.1673,36.9782,济南市,济阳区政府,颗粒物(PM10),73,95,68,44,27,151,,213,209,24,24,9,14,0.6,0.7
2024-09-27T2000,3495A,117.1171,36.63,济南市,锦屏中学,细颗粒物(PM2.5),80,,64,59,45,108,,199,192,44,36,6,6,1.1,0.8
2024-09-27T2000,3682A,116.9814,36.6819,济南市,济南四建,颗粒物(PM10),80,110,87,51,35,133,,192,192,51,56,11,6,1.1,0.9
2024-09-27T2000,1653A,116.6251,35.4302,济宁市,火炬城,颗粒物(PM10),56,61,82,34,46,159,,185,183,16,16,10,12,0.8,0.9
2024-09-27T2000,1655A,116.5491,35.4042,济宁市,电化厂,颗粒物(PM10),54,58,102,24,42,157,,171,168,19,29,12,15,0.6,0.8
2024-09-27T2000,3500A,116.5814,35.3707,济宁市,北湖一中,颗粒物(PM10),54,57,75,31,53,157,,187,185,19,24,5,8,0.6,0.7
2024-09-27T2000,3501A,116.8249,35.5593,济宁市,服务中心,,,77,93,31,58,116,,169,160,39,41,9,10,,0.7
2024-09-27T2000,3678A,116.5907,35.4054,济宁市,市第七中学,,49,49,80,27,46,156,,184,182,20,27,8,11,0.7,0.9
2024-09-27T2000,2255A,130.2751,46.8028,佳木斯市,佳纺,颗粒物(PM10),54,57,23,24,11,9,,64,47,38,19,5,4,0.8,0.6
2024-09-27T2000,2256A,130.3995,46.8307,佳木斯市,发电厂,颗粒物(PM10),55,59,15,21,10,4,,65,45,59,17,6,5,0.9,0.5
2024-09-27T2000,2257A,130.3258,46.7975,佳木斯市,环保局,颗粒物(PM10),52,53,31,19,15,4,,53,38,56,32,10,8,1.5,0.7
2024-09-27T2000,2258A,130.3648,46.8032,佳木斯市,十一中,颗粒物(PM10),57,64,27,31,14,12,,64,50,63,28,10,8,1.6,0.6
2024-09-27T2000,2259A,130.3794,46.7588,佳木斯市,四丰,,19,19,14,8,8,48,,60,58,14,20,1,1,0.2,0.3
2024-09-27T2000,1252A,120.7436,30.778,嘉兴市,清河小学,,36,36,19,15,9,95,,100,100,27,25,4,4,0.6,0.6
2024-09-27T2000,1253A,120.726,30.7478,嘉兴市,嘉兴学院,,40,40,22,24,10,73,,80,80,31,22,3,3,0.5,0.4
2024-09-27T2000,2872A,120.7846,30.7525,嘉兴市,南湖区残联,,,,23,,8,100,,99,99,31,28,,5,0.4,0.4
2024-09-27T2000,3407A,120.6916,30.7739,嘉兴市,秀洲住建,,37,37,19,18,10,96,,98,98,25,24,5,5,0.6,0.6
2024-09-27T2000,1945A,98.2908,39.7711,嘉峪关市,气象局,颗粒物(PM10),56,61,58,19,20,101,,113,113,15,23,4,22,0.2,0.3
2024-09-27T2000,2884A,98.2672,39.7978,嘉峪关市,酒钢宾馆,颗粒物(PM10),59,68,61,14,20,97,,108,108,22,21,7,31,0.0,0.7
2024-09-27T2000,3248A,98.2643,39.7724,嘉峪关市,雄关区,颗粒物(PM10),55,60,55,26,22,93,,104,104,20,21,7,19,0,0.5
2024-09-27T2000,1383A,113.1064,22.6058,江门市,北街,,38,34,31,26,20,98,,126,123,22,14,4,5,1.0,0.8
2024-09-27T2000,1384A,113.0731,22.5835,江门市,西区,,49,49,33,28,19,70,,116,110,43,20,6,6,0.7,0.5
2024-09-27T2000,1385A,113.0219,22.5311,江门市,圭峰西,,36,,31,25,22,113,,115,115,8,10,3,3,0.8,0.8
2024-09-27T2000,1386A,113.0828,22.5947,江门市,东湖,,49,49,32,31,19,64,,116,111,33,15,5,5,0.8,0.5
2024-09-27T2000,3311A,113.1075,22.5647,江门市,江海富民,,50,50,41,18,20,81,,128,123,36,15,6,6,0.9,0.6
2024-09-27T2000,3449A,113.05,22.4667,江门市,新会银湖,,45,43,36,31,22,51,,114,106,23,10,6,6,1.0,0.9
2024-09-27T2000,1828A,113.227,35.2125,焦作市,市环保局,细颗粒物(PM2.5),90,113,124,67,81,151,,180,177,23,22,5,9,0.7,0.8
2024-09-27T2000,3169A,113.2725,35.2067,焦作市,太极体育中心,颗粒物(PM10),82,113,134,53,67,153,,176,174,16,19,4,9,0.7,0.8
2024-09-27T2000,3335A,113.3137,35.2641,焦作市,马村街道办,细颗粒物(PM2.5),104,100,100,78,85,140,,179,175,25,22,4,7,0.6,0.8
2024-09-27T2000,3336A,113.2465,35.2373,焦作市,焦作技师学院,细颗粒物(PM2.5),92,107,116,68,82,149,,180,176,25,22,2,5,0.7,0.9
2024-09-27T2000,3477A,113.1656,35.2539,焦作市,中站许衡医院,细颗粒物(PM2.5),69,66,93,50,65,170,,178,178,21,25,2,5,0.6,0.7
2024-09-27T2000,3981A,113.2449,35.1803,焦作市,原李万街道办,细颗粒物(PM2.5),89,115,127,66,80,153,,180,177,21,20,16,13,1.1,1
2024-09-27T2000,1708A,116.3701,23.5345,揭阳市,新兴,颗粒物(PM10),73,95,32,21,17,104,,80,80,19,13,6,5,1.0,0.7
2024-09-27T2000,1709A,116.3264,23.5443,揭阳市,西马,,43,43,32,26,17,76,,78,75,17,11,5,6,0.9,0.6
2024-09-27T2000,1710A,116.3611,23.5626,揭阳市,东兴,颗粒物(PM10),51,51,34,18,16,73,,81,76,18,12,6,6,1.0,0.9
2024-09-27T2000,1711A,116.4151,23.5294,揭阳市,渔湖,颗粒物(PM10),89,127,38,18,14,106,,86,85,20,14,4,4,0.8,0.7
2024-09-27T2000,3320A,116.403,23.5699,揭阳市,曲溪,,42,42,26,22,17,97,,85,81,20,15,1,3,0.7,0.6
2024-09-27T2000,3170A,102.1864,38.5253,金昌市,市委党校,颗粒物(PM10),84,117,78,35,26,104,,113,113,13,19,13,12,0.5,0.6
2024-09-27T2000,4022A,102.1647,38.5371,金昌市,金川区人防中心,颗粒物(PM10),79,107,71,31,23,99,,109,109,10,15,9,11,0.5,0.5
2024-09-27T2000,1262A,119.647,29.077,金华市,十五中,,25,25,35,15,22,57,,72,72,25,22,2,2,0.6,0.5
2024-09-27T2000,1263A,119.686,29.1029,金华市,监测站,,30,27,31,21,22,50,,72,71,29,24,3,2,0.5,0.6
2024-09-27T2000,3659A,119.656,29.1131,金华市,气象局,,29,27,31,20,17,38,,71,69,35,27,5,5,0.5,0.5
2024-09-27T2000,1767A,121.1115,41.0879,锦州市,南山,,43,,33,30,28,114,,119,119,23,30,8,13,0.6,0.7
2024-09-27T2000,1768A,121.0533,40.8434,锦州市,开发区,颗粒物(PM10),54,58,73,21,41,78,,132,125,58,54,7,22,0.8,1.2
2024-09-27T2000,1769A,121.1836,41.1119,锦州市,百股街道,,32,28,35,22,19,100,,113,113,18,27,7,15,0.7,0.8
2024-09-27T2000,1770A,121.1178,41.1222,锦州市,天安街道,,40,31,45,28,31,113,,118,118,21,33,9,16,0.7,0.8
2024-09-27T2000,1771A,121.1303,41.1386,锦州市,北湖公园,,42,30,43,29,28,109,,119,119,25,27,8,15,0.6,0.7
2024-09-27T2000,2160A,112.85,35.5051,晋城市,自来水公司,细颗粒物(PM2.5),85,,113,63,76,176,,175,175,24,31,7,7,0.9,1.1
2024-09-27T2000,2161A,112.8318,35.4936,晋城市,白云商贸,细颗粒物(PM2.5),94,101,109,70,72,177,,173,173,22,28,7,7,0.9,1
2024-09-27T2000,2162A,112.8508,35.4887,晋城市,市环保局,细颗粒物(PM2.5),83,104,114,61,71,176,,174,174,23,33,6,7,0.8,1
2024-09-27T2000,2163A,112.8676,35.4897,晋城市,技术学院,细颗粒物(PM2.5),89,109,120,66,73,178,,174,174,24,38,7,8,0.8,1.1
2024-09-27T2000,3620A,112.8271,35.4828,晋城市,泽州一中,细颗粒物(PM2.5),92,98,114,68,79,175,,171,171,21,32,8,9,1.0,1.1
2024-09-27T2000,2171A,112.7532,37.6945,晋中市,锦纶小区,细颗粒物(PM2.5),110,114,90,83,66,106,,104,104,15,19,8,7,0.8,0.8
2024-09-27T2000,2173A,112.7249,37.7067,晋中市,南都小区,细颗粒物(PM2.5),110,115,88,83,67,99,,104,104,20,22,6,5,1.0,0.9
2024-09-27T2000,2174A,112.6991,37.6982,晋中市,榆次区政府,细颗粒物(PM2.5),99,119,95,74,54,101,,105,105,20,24,6,6,0.8,0.7
2024-09-27T2000,2865A,112.7195,37.6828,晋中市,榆次三中,细颗粒物(PM2.5),98,117,93,73,59,102,,101,101,15,20,8,8,0.9,0.8
2024-09-27T2000,2439A,112.2014,31.0481,荆门市,竹园小学,颗粒物(PM10),59,68,97,38,61,166,,204,198,20,33,27,16,0.3,0.5
2024-09-27T2000,2440A,112.1969,30.9891,荆门市,掇刀,细颗粒物(PM2.5),68,82,106,49,75,141,,205,197,36,38,16,19,0.8,0.8
2024-09-27T2000,2441A,112.2213,31.0386,荆门市,石化一小,"颗粒物(PM10),细颗粒物(PM2.5)",60,70,108,43,64,143,,206,195,34,42,26,21,0.6,0.7
2024-09-27T2000,3012A,112.1849,31.0362,荆门市,西山林语,细颗粒物(PM2.5),55,58,95,39,64,160,,211,204,21,23,15,14,0.7,0.8
2024-09-27T2000,3547A,112.1632,31.0138,荆门市,龙泉中学南校,颗粒物(PM10),58,65,94,29,57,157,,213,206,24,34,12,15,0.7,0.8
2024-09-27T2000,1844A,112.2494,30.3197,荆州市,市图书馆,细颗粒物(PM2.5),80,73,97,59,74,139,,194,184,27,37,18,17,0.9,1
2024-09-27T2000,1845A,112.2008,30.3544,荆州市,市委党校,细颗粒物(PM2.5),75,86,97,55,70,131,,201,190,34,36,14,15,0.8,0.9
2024-09-27T2000,3194A,112.2747,30.3122,荆州市,管委会,细颗粒物(PM2.5),75,70,96,55,78,134,,196,186,33,35,19,19,0.8,1
2024-09-27T2000,3548A,112.1655,30.3364,荆州市,学苑路,细颗粒物(PM2.5),77,80,104,56,85,153,,211,200,25,35,15,8,0.8,0.9
2024-09-27T2000,2343A,117.2117,29.2933,景德镇市,老干部活动中心,,19,12,30,6,21,59,,76,68,6,14,7,8,0.3,0.5
2024-09-27T2000,2344A,117.1894,29.2789,景德镇市,兽医站,,20,17,34,13,22,62,,83,75,6,12,6,7,0.5,0.7
2024-09-27T2000,2345A,117.1547,29.2617,景德镇市,台达陶瓷,,19,13,40,6,24,60,,78,71,4,20,7,15,0.3,0.5
2024-09-27T2000,2346A,117.2461,29.2956,景德镇市,陶研所,,21,,33,7,19,66,,84,76,6,16,7,7,0.3,0.4
2024-09-27T2000,1803A,115.9872,29.6815,九江市,十里,,45,45,65,26,39,117,,134,133,19,18,8,11,0.8,0.9
2024-09-27T2000,1804A,115.9584,29.7046,九江市,茅山头,,47,47,60,24,39,108,,119,118,20,19,7,9,0.8,0.9
2024-09-27T2000,1805A,115.9877,29.7295,九江市,西园,,38,34,50,24,39,119,,130,130,17,17,10,11,0.6,0.8
2024-09-27T2000,1806A,116.0172,29.6547,九江市,五七二七厂,,39,,51,27,44,107,,124,123,13,15,8,10,0.8,1
2024-09-27T2000,1808A,115.9114,29.6038,九江市,综合工业园,,40,28,56,22,40,125,,139,138,21,33,8,14,0.9,0.9
2024-09-27T2000,1809A,116.0721,29.7535,九江市,石化总厂,,50,50,63,31,45,105,,118,118,28,22,9,9,0.8,0.9
2024-09-27T2000,3190A,116.0254,29.6994,九江市,外国语学校,,36,33,60,20,32,113,,130,130,20,18,7,10,0.7,0.8
2024-09-27T2000,2658A,98.5061,39.7443,酒泉市,仓门街子站,颗粒物(PM10),71,92,53,27,21,80,,108,105,26,16,249,23,0.6,0.4
2024-09-27T2000,2659A,98.4989,39.7256,酒泉市,油田生活基地,颗粒物(PM10),86,122,62,30,24,79,,113,110,33,16,15,6,0.6,0.4
2024-09-27T2000,2698A,76.0072,39.4467,喀什地区,巡警大队,颗粒物(PM10),143,235,137,8,14,82,,98,96,,21,3,5,,0.5
2024-09-27T2000,2699A,75.9755,39.4694,喀什地区,吾办,颗粒物(PM10),116,182,122,23,22,101,,104,104,10,20,4,5,0.3,0.5
2024-09-27T2000,4027A,75.9483,39.4689,喀什地区,老干局,颗粒物(PM10),148,245,138,21,14,91,,100,100,17,16,4,4,0.4,0.5
2024-09-27T2000,1824A,114.3389,34.7781,开封市,肿瘤医院,"颗粒物(PM10),细颗粒物(PM2.5)",80,109,140,59,104,146,,177,176,21,23,8,9,0.6,0.7
2024-09-27T2000,1826A,114.2885,34.7965,开封市,世纪星幼儿园,颗粒物(PM10),75,100,129,38,59,153,,181,181,21,19,7,9,0.9,0.9
2024-09-27T2000,3147A,114.3438,34.8106,开封市,龙亭公园,颗粒物(PM10),79,107,135,39,72,148,,171,171,20,23,6,7,1.0,1
2024-09-27T2000,3210A,114.3644,34.7964,开封市,汴京公园,颗粒物(PM10),88,126,156,58,104,136,,166,165,25,25,6,8,0.7,0.8
2024-09-27T2000,3473A,114.2485,34.8306,开封市,技师学院,颗粒物(PM10),66,81,142,36,57,163,,176,176,18,24,10,12,0.9,0.9
2024-09-27T2000,3592A,114.4644,34.7556,开封市,祥符区生态环境局,颗粒物(PM10),73,96,120,34,66,109,,157,153,44,35,9,11,0.6,1
2024-09-27T2000,1951A,84.895,45.6094,克拉玛依市,长征新村,,37,37,12,12,6,74,,70,70,3,3,6,6,0.2,0.2
2024-09-27T2000,1952A,84.8988,45.5893,克拉玛依市,南林小区,,24,19,11,15,8,74,,72,71,2,4,11,9,0.3,0.5
2024-09-27T2000,1954A,84.905,44.3396,克拉玛依市,独山子区,,20,11,8,6,5,64,,73,70,7,7,8,7,0.2,0.2
2024-09-27T2000,1955A,85.6979,46.098,克拉玛依市,乌尔禾区商贸楼,,40,40,14,8,6,81,,78,78,2,3,4,3,0.2,0.2
2024-09-27T2000,3612A,85.1045,45.6899,克拉玛依市,白碱滩区新站,颗粒物(PM10),60,69,27,6,6,78,,69,69,6,12,7,7,0.2,0.3
2024-09-27T2000,2697A,76.1454,39.7142,克孜勒苏柯尔克孜自治州,市人民政府,,,,66,,16,114,,113,113,5,6,3,7,,0.4
2024-09-27T2000,3665A,76.1658,39.7157,克孜勒苏柯尔克孜自治州,克州文化中心,,47,47,64,8,17,117,,115,115,2,3,7,9,0.4,0.4
2024-09-27T2000,1450A,102.8204,24.8886,昆明市,呈贡新区,,33,33,33,13,19,50,,73,69,12,18,5,8,0.6,0.6
2024-09-27T2000,1452A,102.7252,25.0902,昆明市,龙泉镇,,30,30,28,15,17,29,,72,67,18,16,6,8,0.7,0.8
2024-09-27T2000,1453A,102.7266,25.0375,昆明市,东风东路,,23,22,29,16,18,37,,64,61,18,17,5,8,0.5,0.5
2024-09-27T2000,1454A,102.6742,25.0669,昆明市,金鼎山,,28,28,32,8,21,37,,67,62,12,11,3,4,1.0,1
2024-09-27T2000,1455A,102.6644,25.0401,昆明市,碧鸡广场,,25,25,35,14,17,34,,62,59,19,17,6,8,0.7,0.7
2024-09-27T2000,3179A,102.7494,25.0119,昆明市,官渡区博物馆,,27,27,31,11,15,45,,72,69,14,15,7,8,0.6,0.6
2024-09-27T2000,3375A,102.8017,24.8336,昆明市,青年创业园,,29,29,29,20,19,50,,75,71,11,19,3,6,0.6,0.6
2024-09-27T2000,3550A,102.7997,24.9786,昆明市,昆明学院,,16,15,33,9,21,51,,76,73,10,17,6,7,0.5,0.6
2024-09-27T2000,3551A,102.5967,24.6736,昆明市,晋宁区生态环境分局,,18,12,31,12,19,53,,67,65,5,11,1,2,0.5,0.8
2024-09-27T2000,3552A,102.6678,24.9856,昆明市,云天化总部,,16,16,27,10,18,51,,69,68,8,14,7,7,0.4,0.5
2024-09-27T2000,1456A,91.1319,29.6514,拉萨市,八廓街,,18,10,10,7,7,56,,75,71,12,13,7,7,0.1,0.2
2024-09-27T2000,1457A,91.1221,29.6747,拉萨市,市环保局,,19,11,9,6,6,60,,73,72,10,11,8,8,0.5,0.5
2024-09-27T2000,1458A,91.0874,29.6475,拉萨市,区监测站,,17,17,9,7,6,50,,67,65,15,14,5,5,0.2,0.2
2024-09-27T2000,1459A,91.1774,29.6541,拉萨市,西藏大学,,16,11,8,7,6,50,,70,68,11,10,6,6,0.3,0.4
2024-09-27T2000,1460A,90.9798,29.6588,拉萨市,区辐射站,,18,12,9,6,6,55,,64,63,12,13,9,8,0.2,0.2
2024-09-27T2000,1461A,91.0834,29.6292,拉萨市,拉萨火车站,,16,11,8,9,6,51,,66,65,12,13,5,5,0.2,0.2
2024-09-27T2000,2520A,109.2203,23.7256,来宾市,来宾技工学校,,,,44,,32,83,,105,103,12,17,5,14,,0.9
2024-09-27T2000,3535A,109.1781,23.7297,来宾市,兴宾区政府,,41,41,31,24,20,81,,98,97,12,8,7,8,0.8,0.7
2024-09-27T2000,4002A,109.2416,23.7461,来宾市,中南小学,,46,46,43,32,24,91,,110,108,9,15,6,13,0.9,0.9
2024-09-27T2000,1476A,103.631,36.1031,兰州市,兰炼宾馆,颗粒物(PM10),79,107,65,45,36,53,,120,118,84,47,11,16,0.9,0.7
2024-09-27T2000,1478A,103.8412,36.0726,兰州市,生物制品所,细颗粒物(PM2.5),73,93,58,53,33,95,,137,137,67,50,12,12,0.9,0.7
2024-09-27T2000,1479A,103.831,36.0464,兰州市,铁路设计院,细颗粒物(PM2.5),80,83,65,59,36,52,,130,127,118,61,10,11,1.1,0.9
2024-09-27T2000,3186A,103.7158,36.1058,兰州市,教育港,颗粒物(PM10),79,108,71,56,35,103,,138,138,58,44,13,12,1.0,0.8
2024-09-27T2000,3241A,103.7439,36.0842,兰州市,百合公园,颗粒物(PM10),70,90,54,40,24,67,,141,139,93,37,8,12,0.8,0.6
2024-09-27T2000,3242A,103.9611,35.998,兰州市,和平,颗粒物(PM10),63,75,40,35,19,92,,123,123,63,23,12,11,0.7,0.3
2024-09-27T2000,3245A,103.6633,36.533,兰州新区,新区管委会,颗粒物(PM10),61,71,51,30,25,92,,108,108,22,24,10,10,0.5,0.5
2024-09-27T2000,3246A,103.6975,36.4789,兰州新区,舟曲中学,颗粒物(PM10),56,62,57,31,30,77,,118,118,58,37,13,17,0.5,0.4
2024-09-27T2000,1067A,116.6708,39.5111,廊坊市,药材公司,颗粒物(PM10),63,76,49,37,25,94,,120,120,28,25,5,6,0.5,0.5
2024-09-27T2000,1068A,116.7214,39.5589,廊坊市,开发区,颗粒物(PM10),61,71,52,39,23,67,,110,109,42,30,5,5,0.6,0.4
2024-09-27T2000,1070A,116.7244,39.5269,廊坊市,北华航天学院,颗粒物(PM10),61,71,57,28,23,66,,117,116,53,30,3,4,0.5,0.4
2024-09-27T2000,2919A,116.7022,39.5453,廊坊市,河北工业大学,颗粒物(PM10),55,60,42,32,24,82,,121,121,38,25,3,6,0.5,0.4
2024-09-27T2000,2535A,103.7723,29.5462,乐山市,花湖湾,,46,45,72,32,44,142,,163,163,17,27,1,4,0.7,1
2024-09-27T2000,2536A,103.7627,29.5844,乐山市,牛耳桥,细颗粒物(PM2.5),58,60,66,41,50,78,,163,154,56,31,3,4,0.9,0.8
2024-09-27T2000,2537A,103.7508,29.6006,乐山市,市第三水厂,细颗粒物(PM2.5),52,51,72,36,55,118,,170,165,35,32,3,4,0.7,0.8
2024-09-27T2000,2538A,103.7571,29.5664,乐山市,市监测站,细颗粒物(PM2.5),82,,73,60,60,159,,166,166,10,23,3,5,0.9,1.1
2024-09-27T2000,3361A,103.7311,29.5628,乐山市,理工大学,细颗粒物(PM2.5),59,43,66,42,54,153,,182,181,10,25,2,4,0.6,0.9
2024-09-27T2000,2599A,100.2497,26.8802,丽江市,丽江古城,,,17,22,16,17,24,,49,44,18,10,10,9,,0.7
2024-09-27T2000,2600A,100.2203,26.8906,丽江市,市中心,,12,10,14,8,9,24,,44,41,11,8,6,6,0.7,0.7
2024-09-27T2000,1267A,119.914,28.4514,丽水市,监测站大楼,,26,26,17,13,10,27,,57,54,24,16,4,4,0.5,0.5
2024-09-27T2000,1268A,119.93,28.4586,丽水市,莲都小学,,19,19,21,3,10,31,,58,55,21,17,4,4,0.4,0.4
2024-09-27T2000,1269A,119.879,28.4231,丽水市,余庄前,,21,21,20,6,8,11,,52,42,9,12,2,3,0.3,0.4
2024-09-27T2000,1173A,119.176,34.5885,连云港市,市环境监测站,,38,17,36,7,24,121,,142,133,12,14,6,6,0.2,0.4
2024-09-27T2000,3000A,119.3581,34.6972,连云港市,德源药业,,29,24,34,7,18,91,,134,122,23,14,5,5,0.2,0.3
2024-09-27T2000,3007A,119.178,34.844,连云港市,新城一中,,35,25,49,3,18,110,,133,128,29,34,4,6,0.3,0.7
2024-09-27T2000,3008A,119.3608,34.7519,连云港市,胡沟管理处,,30,27,33,7,14,93,,126,114,24,19,7,9,0.4,0.5
2024-09-27T2000,3009A,119.1478,34.5911,连云港市,矿山设计院,,37,22,43,12,29,117,,140,132,11,19,5,5,0.5,0.7
2024-09-27T2000,3434A,119.2413,34.6539,连云港市,工贸学校,,38,10,25,3,16,119,,136,129,12,14,6,7,0.6,0.7
2024-09-27T2000,3664A,119.4172,34.7341,连云港市,连云街道,,40,10,23,3,14,127,,139,128,10,12,4,5,0.2,0.3
2024-09-27T2000,2571A,102.3431,27.8099,凉山彝族自治州,青龙寺,,16,16,15,9,7,50,,91,88,6,5,5,6,0.5,0.6
2024-09-27T2000,2572A,102.2721,27.8415,凉山彝族自治州,邛海宾馆,,30,30,24,19,15,70,,82,81,13,14,11,11,0.6,0.7
2024-09-27T2000,2573A,102.2625,27.898,凉山彝族自治州,西昌市政府,,22,20,21,15,15,67,,77,77,10,10,10,13,0.7,0.8
2024-09-27T2000,2574A,102.2685,27.8851,凉山彝族自治州,凉山州政府,,43,37,25,30,15,77,,85,85,9,12,9,11,0.5,0.7
2024-09-27T2000,2575A,102.237,27.8914,凉山彝族自治州,长安,,38,38,28,22,16,79,,79,79,8,16,15,14,0.7,1.1
2024-09-27T2000,2212A,123.2,41.1953,辽阳市,宏伟区,颗粒物(PM10),58,66,52,24,25,35,,94,83,65,32,11,13,0.8,0.8
2024-09-27T2000,2213A,123.1683,41.2495,辽阳市,新华园,颗粒物(PM10),67,83,66,43,26,9,,89,80,92,38,12,15,1.4,0.9
2024-09-27T2000,2214A,123.2354,41.2639,辽阳市,滨河路,颗粒物(PM10),66,81,52,40,28,6,,96,81,76,31,11,13,0.8,0.8
2024-09-27T2000,2215A,123.149,41.2991,辽阳市,铁西工业园,"颗粒物(PM10),细颗粒物(PM2.5)",65,79,68,47,38,7,,83,72,74,30,10,13,0.8,0.9
2024-09-27T2000,2227A,125.1358,42.8845,辽源市,环保局,颗粒物(PM10),51,51,32,23,17,8,,82,67,53,20,8,9,1.1,0.8
2024-09-27T2000,3239A,125.0764,42.9078,辽源市,银鹰制药,颗粒物(PM10),75,100,43,32,21,3,,82,61,55,27,5,8,0.8,0.6
2024-09-27T2000,1625A,115.9848,36.4372,聊城市,区政府,"颗粒物(PM10),细颗粒物(PM2.5)",83,116,112,61,58,121,,215,206,41,37,10,14,1.2,0.8
2024-09-27T2000,2878A,116.0072,36.4343,聊城市,聊大东校,细颗粒物(PM2.5),90,112,107,67,61,139,,223,215,34,38,7,12,1.0,0.7
2024-09-27T2000,3200A,115.9819,36.4978,聊城市,监控中心,颗粒物(PM10),112,173,95,73,51,43,,212,190,130,34,9,12,1.1,0.8
2024-09-27T2000,3513A,116.0445,36.4361,聊城市,九州社区,颗粒物(PM10),94,138,111,67,58,111,,227,216,103,41,7,7,0.6,0.5
2024-09-27T2000,4018A,116.0567,36.4608,聊城市,星美广场,细颗粒物(PM2.5),108,137,88,81,50,52,,220,201,129,36,16,11,1.0,0.6
2024-09-27T2000,2632A,94.3681,29.6376,林芝市,林芝监测站,,14,6,5,3,4,44,,51,51,2,3,10,10,0.2,0.2
2024-09-27T2000,2633A,94.3616,29.6616,林芝市,林芝人民医院,,15,,8,6,11,46,,52,52,3,6,5,7,0.3,0.1
2024-09-27T2000,2603A,100.0781,23.8982,临沧市,市环保局,,23,18,18,16,14,24,,46,43,12,9,4,5,0.5,0.5
2024-09-27T2000,2604A,100.0894,23.8822,临沧市,市气象局,,18,15,20,12,17,40,,50,49,10,10,4,4,0.5,0.5
2024-09-27T2000,1733A,111.5531,36.0783,临汾市,临钢医院,颗粒物(PM10),73,95,117,34,59,136,,148,148,12,26,4,6,0.7,1
2024-09-27T2000,1734A,111.5028,36.0714,临汾市,技工学校,颗粒物(PM10),74,97,109,46,67,135,,155,153,20,31,5,7,0.6,0.9
2024-09-27T2000,1736A,111.5018,36.0855,临汾市,市委,颗粒物(PM10),71,92,106,41,69,141,,164,161,15,20,6,8,0.7,1
2024-09-27T2000,3018A,111.505,36.1014,临汾市,唐尧大酒店,细颗粒物(PM2.5),62,66,96,44,65,133,,150,148,14,21,4,6,0.7,0.9
2024-09-27T2000,3668A,111.5036,36.0414,临汾市,城南,细颗粒物(PM2.5),82,91,105,60,70,144,,164,163,11,21,5,7,0.7,1
2024-09-27T2000,2667A,103.2069,35.5993,临夏回族自治州,环保局,,38,38,38,21,17,56,,89,87,31,21,11,11,0.5,0.5
2024-09-27T2000,2668A,103.2417,35.6057,临夏回族自治州,建设大厦,颗粒物(PM10),61,72,49,24,21,49,,94,92,42,16,14,12,0.6,0.4
2024-09-27T2000,1618A,118.3429,35.0532,临沂市,沂河小区,,36,34,58,13,27,113,,148,143,16,22,7,8,0.3,0.5
2024-09-27T2000,1619A,118.295,35.0583,临沂市,鲁南制药厂,,,14,61,12,22,120,,158,153,,20,6,7,,0.6
2024-09-27T2000,1620A,118.2794,34.9976,临沂市,新光毛纺厂,,35,27,56,13,27,109,,157,149,17,24,5,7,0.5,0.8
2024-09-27T2000,1621A,118.3956,35.0888,临沂市,河东保险公司,,,24,52,7,25,119,,151,146,,36,6,8,,0.7
2024-09-27T2000,3370A,118.3564,35.0215,临沂市,十里堡居委,,36,14,46,12,26,115,,155,148,16,22,8,10,0.5,0.7
2024-09-27T2000,3496A,118.3604,35.1084,临沂市,南坊新区,,36,34,56,9,25,115,,154,149,18,23,7,8,0.4,0.7
2024-09-27T2000,3860A,118.3920,35.0300,临沂市,皇山花园小区,,35,24,58,12,34,111,,152,142,20,30,8,8,0.3,0.5
2024-09-27T2000,1870A,109.4856,24.3895,柳州市,柳东小学,,38,26,30,26,18,94,,133,131,5,15,7,9,0.8,0.9
2024-09-27T2000,1871A,109.4157,24.3277,柳州市,环保监测站,,36,36,47,23,27,90,,136,131,10,18,7,10,0.8,1
2024-09-27T2000,1872A,109.389,24.341,柳州市,河西水厂,,40,40,53,24,30,101,,137,136,10,21,7,11,0.9,1.3
2024-09-27T2000,1873A,109.4311,24.2921,柳州市,市四中,,40,37,43,28,24,102,,141,136,12,18,6,7,0.7,0.8
2024-09-27T2000,1874A,109.4006,24.3631,柳州市,市九中,,39,39,54,14,28,96,,138,136,10,26,5,5,0.9,1.1
2024-09-27T2000,1875A,109.4958,24.3134,柳州市,古亭山,,,,35,,19,59,,125,118,25,29,,8,,1
2024-09-27T2000,3402A,109.5422,24.3996,柳州市,市二中,,31,31,40,19,26,82,,140,135,14,25,8,9,0.7,0.8
2024-09-27T2000,2307A,116.5079,31.737,六安市,监测大楼,,31,,31,21,32,97,,102,102,7,11,5,5,0.5,0.6
2024-09-27T2000,2308A,116.4738,31.7643,六安市,皖西学院,,,22,43,16,34,97,,102,102,12,15,4,5,,0.5
2024-09-27T2000,2309A,116.4996,31.7905,六安市,朝阳厂,,29,14,31,14,34,92,,95,95,10,16,1,1,0.5,0.5
2024-09-27T2000,2310A,116.5567,31.7886,六安市,开发区,,36,36,42,17,23,83,,96,96,19,17,4,2,0.6,0.6
2024-09-27T2000,2577A,104.83,26.5917,六盘水市,黄土坡,,42,42,32,27,26,96,,101,101,14,15,6,8,0.5,0.6
2024-09-27T2000,2578A,104.89,26.5939,六盘水市,水钢,,42,42,36,25,23,115,,110,110,5,9,7,8,0.4,0.4
2024-09-27T2000,2579A,104.8475,26.5894,六盘水市,民中,,35,34,27,24,22,100,,103,103,17,15,7,7,0.5,0.5
2024-09-27T2000,2580A,104.9544,26.5506,六盘水市,双水,,41,41,36,28,26,106,,105,105,9,8,7,6,0.4,0.4
2024-09-27T2000,2336A,117.0217,25.1033,龙岩市,龙岩市监测站,,38,38,24,17,12,15,,63,58,37,19,5,7,0.9,0.6
2024-09-27T2000,2337A,117.0258,25.0661,龙岩市,闽西职业技术学院,,18,18,32,9,16,19,,68,60,25,16,4,8,0.7,0.6
2024-09-27T2000,2338A,117.0196,25.0306,龙岩市,龙岩学院,,13,13,22,8,10,30,,68,60,10,9,2,6,0.5,0.4
2024-09-27T2000,2885A,104.9339,33.3826,陇南市,滨江中学,颗粒物(PM10),55,60,52,28,19,114,,121,121,5,8,7,8,0.6,0.6
2024-09-27T2000,3247A,104.955,33.371,陇南市,市总工会,,47,47,45,25,19,118,,125,124,5,7,3,6,0.4,0.5
2024-09-27T2000,2487A,111.9589,27.8901,娄底市,电视发射台,细颗粒物(PM2.5),60,58,79,43,51,82,,146,135,7,9,6,7,0.7,0.9
2024-09-27T2000,2488A,111.9975,27.725,娄底市,市监测站,细颗粒物(PM2.5),67,58,86,48,57,121,,136,135,9,22,6,9,0.7,0.9
2024-09-27T2000,2489A,112.0194,27.7314,娄底市,市委党校,细颗粒物(PM2.5),77,73,80,56,57,102,,124,123,16,12,5,6,0.8,0.8
2024-09-27T2000,2490A,111.9561,27.7569,娄底市,涟钢,颗粒物(PM10),75,100,85,54,61,95,,107,107,21,22,11,9,0.5,0.8
2024-09-27T2000,2491A,111.9892,27.7044,娄底市,市政府,细颗粒物(PM2.5),63,49,68,45,53,114,,132,131,12,13,12,8,0.4,0.7
2024-09-27T2000,1893A,105.4324,28.9634,泸州市,九狮山,颗粒物(PM10),62,74,71,34,45,92,,148,144,21,23,5,6,0.1,0.1
2024-09-27T2000,1894A,105.4427,28.9063,泸州市,小市上码头,颗粒物(PM10),56,62,60,31,39,148,,167,167,15,21,6,7,0.6,0.7
2024-09-27T2000,1895A,105.4241,28.8573,泸州市,兰田宪桥,细颗粒物(PM2.5),57,51,61,40,50,138,,166,165,17,21,6,6,0.6,0.6
2024-09-27T2000,1896A,105.4379,28.8833,泸州市,市环监站,细颗粒物(PM2.5),55,55,53,39,44,142,,160,160,18,22,5,6,0.6,0.6
2024-09-27T2000,3490A,105.3617,28.7703,泸州市,纳溪区环保局,细颗粒物(PM2.5),67,65,64,48,52,68,,163,153,76,27,6,8,0.9,0.7
2024-09-27T2000,2183A,111.1406,37.5211,吕梁市,环保局,细颗粒物(PM2.5),83,86,87,61,54,101,,137,130,16,31,5,4,0.8,0.7
2024-09-27T2000,2185A,111.1297,37.5136,吕梁市,自来水公司,细颗粒物(PM2.5),78,70,72,57,44,107,,141,134,15,26,2,3,0.8,0.7
2024-09-27T2000,2867A,111.1283,37.51,吕梁市,马茂庄小学,细颗粒物(PM2.5),82,94,88,60,49,110,,145,137,16,30,3,3,0.7,0.7
2024-09-27T2000,1812A,112.3931,34.6516,洛阳市,市委党校,颗粒物(PM10),61,71,150,42,92,119,,156,150,18,25,6,10,0.6,0.8
2024-09-27T2000,1814A,112.4657,34.6871,洛阳市,豫西宾馆,颗粒物(PM10),75,99,127,29,86,110,,150,145,21,22,10,12,0.6,0.8
2024-09-27T2000,1815A,112.494,34.6886,洛阳市,河南林校,颗粒物(PM10),63,76,134,37,100,104,,155,145,24,27,7,9,0.5,0.8
2024-09-27T2000,1816A,112.3844,34.623,洛阳市,开发区管委会,颗粒物(PM10),60,69,148,41,105,113,,164,157,20,24,3,4,0.5,0.7
2024-09-27T2000,1817A,112.4267,34.6258,洛阳市,市委新办公区,颗粒物(PM10),61,72,149,43,98,101,,156,147,24,23,2,6,0.4,0.6
2024-09-27T2000,3340A,112.6005,34.6326,洛阳市,伊滨,颗粒物(PM10),108,166,115,60,93,95,,161,150,27,25,8,10,0.7,1
2024-09-27T2000,3341A,112.4951,34.6332,洛阳市,中移产业园,颗粒物(PM10),66,82,141,37,98,108,,168,158,26,27,3,6,0.8,0.9
2024-09-27T2000,3593A,112.5736,34.8993,洛阳市,吉利监测站,颗粒物(PM10),82,113,146,43,85,148,,161,161,15,22,4,7,0.5,0.8
2024-09-27T2000,3635A,112.3677,34.662,洛阳市,河科大西苑校区,颗粒物(PM10),64,78,144,26,65,122,,160,154,20,28,4,8,0.7,0.8
2024-09-27T2000,3636A,112.4388,34.6781,洛阳市,英才小学,颗粒物(PM10),67,84,144,40,73,108,,155,148,22,24,4,7,0.6,0.8
2024-09-27T2000,2399A,114.051,33.5699,漯河市,三五一五工厂,颗粒物(PM10),72,93,92,27,39,107,,136,135,24,22,7,8,0.6,0.6
2024-09-27T2000,2400A,114.0055,33.5698,漯河市,漯河大学,颗粒物(PM10),59,68,79,29,44,121,,141,141,19,20,4,6,0.7,0.7
2024-09-27T2000,2401A,114.0138,33.5828,漯河市,市水利局,颗粒物(PM10),63,75,90,27,44,118,,138,138,16,19,5,6,0.5,0.6
2024-09-27T2000,2402A,114.0261,33.5698,漯河市,市广电局,颗粒物(PM10),66,81,85,23,38,118,,140,140,19,17,8,10,0.7,0.7
2024-09-27T2000,3478A,113.9749,33.5664,漯河市,市图书馆,颗粒物(PM10),60,70,80,26,38,130,,146,146,18,21,11,12,0.7,0.7
2024-09-27T2000,3479A,114.0967,33.5906,漯河市,召陵区卫健委,颗粒物(PM10),67,84,109,36,58,86,,137,133,30,23,19,9,0.7,0.6
2024-09-27T2000,1798A,118.5092,31.6837,马鞍山市,湖东路四小,,47,47,28,28,15,131,,117,117,24,18,8,7,0.9,0.7
2024-09-27T2000,1799A,118.5024,31.6449,马鞍山市,开发区,颗粒物(PM10),51,52,28,27,15,125,,116,116,27,18,7,6,1.0,0.9
2024-09-27T2000,1800A,118.5228,31.7231,马鞍山市,慈湖,,44,42,33,20,18,138,,123,123,15,14,8,8,0,0.5
2024-09-27T2000,3633A,118.4918,31.6809,马鞍山市,雨山,颗粒物(PM10),51,52,25,24,14,134,,110,110,16,15,9,8,1.1,1
2024-09-27T2000,1686A,111.0286,21.4688,茂名市,电白南海,,48,48,42,29,22,129,,127,127,11,9,11,14,0.8,0.6
2024-09-27T2000,1687A,110.9294,21.6533,茂名市,茂石化七小,细颗粒物(PM2.5),52,51,41,36,26,116,,101,99,12,12,9,18,0.8,0.8
2024-09-27T2000,1688A,110.9107,21.6687,茂名市,健康路,,44,44,31,24,19,124,,103,102,10,9,12,28,0.9,0.9
2024-09-27T2000,1689A,110.8592,21.6828,茂名市,高岭,颗粒物(PM10),53,56,45,36,28,111,,95,93,20,17,7,15,0.8,0.8
2024-09-27T2000,3450A,111.01,21.5165,茂名市,电白水东,,45,41,29,31,21,120,,106,106,9,9,7,11,0.9,0.8
2024-09-27T2000,2539A,104.0308,30.0478,眉山市,黑龙滩水库,细颗粒物(PM2.5),88,,46,65,35,122,,164,162,4,4,2,2,0.5,0.5
2024-09-27T2000,2540A,103.8416,30.0874,眉山市,气象局,细颗粒物(PM2.5),67,50,59,48,50,122,,172,168,31,37,8,8,0.9,0.7
2024-09-27T2000,3137A,103.8578,30.0744,眉山市,市委党校,细颗粒物(PM2.5),64,66,71,46,45,117,,169,165,47,41,6,8,0.8,0.8
2024-09-27T2000,3148A,103.8291,30.0564,眉山市,区人社局,细颗粒物(PM2.5),67,49,60,48,43,131,,174,171,24,39,12,13,0.7,0.7
2024-09-27T2000,1690A,116.1231,24.3284,梅州市,梅江月梅,,36,36,28,20,9,20,,76,64,18,11,7,7,0.4,0.4
2024-09-27T2000,1691A,116.0797,24.2719,梅州市,梅县新城,,44,44,27,17,15,34,,69,62,15,14,5,4,0.7,0.6
2024-09-27T2000,1692A,116.1248,24.2654,梅州市,环境监控中心,,39,39,31,19,14,17,,70,61,32,18,5,4,0.8,0.6
2024-09-27T2000,3315A,116.1233,24.2991,梅州市,梅龙,,39,39,24,27,16,16,,78,66,24,14,9,9,0.9,0.7
2024-09-27T2000,1878A,104.7778,31.4741,绵阳市,富乐山,细颗粒物(PM2.5),78,67,78,57,64,146,,158,158,12,24,3,3,0.7,0.8
2024-09-27T2000,1879A,104.7563,31.4535,绵阳市,市人大,细颗粒物(PM2.5),78,78,85,57,60,78,,166,160,80,42,10,10,1.0,0.8
2024-09-27T2000,1880A,104.6697,31.4668,绵阳市,高新区自来水公司,细颗粒物(PM2.5),77,83,90,56,59,110,,180,177,54,48,4,5,0.9,0.9
2024-09-27T2000,1881A,104.7287,31.5075,绵阳市,三水厂,细颗粒物(PM2.5),77,73,87,56,65,73,,164,156,78,47,7,8,0.9,1
2024-09-27T2000,3491A,104.69,31.5322,绵阳市,西科大附属小学,细颗粒物(PM2.5),73,80,92,53,49,81,,175,170,67,41,4,6,0.8,0.8
2024-09-27T2000,3492A,104.5648,31.5343,绵阳市,安州区旅游局,细颗粒物(PM2.5),100,82,86,75,66,140,,194,194,25,22,4,7,1.0,0.8
2024-09-27T2000,1784A,129.61,44.561,牡丹江市,环保大楼,,38,38,25,21,19,25,,68,64,30,17,7,7,0.5,0.4
2024-09-27T2000,1785A,129.6115,44.5782,牡丹江市,文化广场,颗粒物(PM10),70,89,47,44,24,3,,60,52,50,26,15,9,0.9,0.6
2024-09-27T2000,1786A,129.5904,44.5963,牡丹江市,第一医院,细颗粒物(PM2.5),57,56,41,40,23,18,,58,53,35,20,7,7,0.6,0.4
2024-09-27T2000,1787A,129.6364,44.6075,牡丹江市,机车工厂,,39,39,36,23,22,26,,70,61,16,16,46,30,0.3,0.4
2024-09-27T2000,1788A,129.6386,44.5462,牡丹江市,第一中学,,40,33,22,28,16,28,,71,64,20,14,6,6,0.3,0.3
2024-09-27T2000,2531A,105.0703,29.61,内江市,市监测站,细颗粒物(PM2.5),83,,46,61,56,106,,177,171,67,28,5,6,0.8,0.7
2024-09-27T2000,2532A,105.0717,29.5947,内江市,东兴区政府,细颗粒物(PM2.5),74,75,52,54,50,144,,186,183,30,22,7,6,0.6,0.6
2024-09-27T2000,2533A,105.0653,29.5817,内江市,内江二中,细颗粒物(PM2.5),84,,60,62,57,156,,186,184,18,19,9,11,0.7,0.7
2024-09-27T2000,2534A,105.0406,29.5822,内江市,内江日报社,细颗粒物(PM2.5),88,77,56,65,53,116,,183,178,46,33,10,9,0.8,0.7
2024-09-27T2000,2628A,92.0657,31.4846,那曲市,那曲监测站,,27,27,25,11,11,43,,62,54,6,8,4,6,0.4,0.4
2024-09-27T2000,3128A,92.0506,31.4797,那曲市,那曲会议中心,,29,29,20,12,8,47,,73,61,9,9,3,3,0.4,0.4
2024-09-27T2000,1290A,115.8931,28.6843,南昌市,省外办,颗粒物(PM10),60,69,83,39,46,121,,138,134,12,23,7,11,0.8,0.9
2024-09-27T2000,1291A,115.8886,28.7003,南昌市,省林业公司,颗粒物(PM10),51,51,69,34,41,120,,151,145,18,21,5,9,0.8,0.9
2024-09-27T2000,1292A,115.8126,28.7442,南昌市,林科所,,39,39,51,24,32,113,,161,149,32,24,4,7,0.7,0.8
2024-09-27T2000,1294A,115.8518,28.687,南昌市,建工学校,颗粒物(PM10),56,62,61,38,40,121,,152,145,18,19,7,10,0.8,0.9
2024-09-27T2000,1295A,115.8921,28.6424,南昌市,象湖,,50,50,56,34,40,133,,159,153,16,17,7,11,1.2,1.2
2024-09-27T2000,1298A,115.9314,28.6842,南昌市,省站,,50,42,56,35,43,116,,132,129,15,20,9,11,0.8,0.9
2024-09-27T2000,3046A,115.9084,28.6062,南昌市,机电学校,颗粒物(PM10),53,55,69,31,39,128,,145,140,14,19,8,12,0.6,0.8
2024-09-27T2000,3690A,115.9721,28.7031,南昌市,外国语学校,颗粒物(PM10),57,64,67,36,39,102,,130,125,17,17,6,8,0.8,0.9
2024-09-27T2000,1905A,106.056,30.8064,南充市,西山风景区,臭氧1小时,94,38,59,33,54,195,,191,191,8,14,4,4,0.6,0.8
2024-09-27T2000,1906A,106.0789,30.8023,南充市,南充市委,臭氧1小时,69,61,76,36,54,175,,187,187,26,33,6,5,0.6,0.7
2024-09-27T2000,1907A,106.1031,30.8217,南充市,南充炼油厂,臭氧1小时,69,53,89,45,67,175,,199,198,32,22,5,5,0.6,0.5
2024-09-27T2000,1908A,106.1064,30.7856,南充市,高坪区监测站,臭氧1小时,78,56,78,35,58,182,,189,189,28,35,8,8,0.6,0.7
2024-09-27T2000,1909A,106.0642,30.7636,南充市,嘉陵区环保局,"颗粒物(PM10),细颗粒物(PM2.5)",52,54,85,36,57,153,,178,178,38,29,5,5,0.7,0.8
2024-09-27T2000,1910A,106.1087,30.8388,南充市,市环境监测站,臭氧1小时,73,52,91,38,63,178,,184,184,31,25,6,6,0.5,0.6
2024-09-27T2000,1151A,118.8086,32.1065,南京市,迈皋桥,,44,44,31,24,18,79,,122,119,25,14,4,4,0.4,0.3
2024-09-27T2000,1152A,118.7538,32.0551,南京市,草场门,,41,41,29,24,16,110,,116,116,26,22,5,5,0.3,0.2
2024-09-27T2000,1153A,118.7794,32.0745,南京市,山西路,,48,48,36,29,20,107,,115,115,29,20,3,4,0.5,0.4
2024-09-27T2000,1154A,118.7752,32.0023,南京市,中华门,,39,39,26,22,15,92,,113,113,33,21,5,4,0.5,0.4
2024-09-27T2000,1155A,118.8109,32.0309,南京市,瑞金路,颗粒物(PM10),51,51,30,29,15,87,,113,113,29,18,4,4,0.4,0.3
2024-09-27T2000,1156A,118.7997,32.0754,南京市,玄武湖,,43,43,34,19,16,72,,101,101,56,29,6,6,0.2,0.1
2024-09-27T2000,1157A,118.6414,32.0931,南京市,浦口,,44,44,30,25,18,81,,110,109,29,18,5,5,0.7,0.7
2024-09-27T2000,1158A,118.7356,31.9996,南京市,奥体中心,颗粒物(PM10),51,51,30,27,21,108,,125,125,26,19,5,5,0.5,0.4
2024-09-27T2000,1159A,118.9125,32.1028,南京市,仙林大学城,颗粒物(PM10),52,53,36,22,16,94,,129,128,32,21,6,6,0.6,0.5
2024-09-27T2000,3422A,118.8436,31.9198,南京市,江宁彩虹桥,,42,42,28,22,16,103,,127,127,26,16,3,4,0.6,0.5
2024-09-27T2000,3423A,119.0138,31.6494,南京市,溧水永阳,,46,41,29,32,15,126,,126,126,22,20,4,4,0.8,0.7
2024-09-27T2000,3424A,118.879,31.3302,南京市,高淳老职中,,,,32,18,15,108,,112,112,18,20,6,5,0.7,0.7
2024-09-27T2000,3427A,118.8554,32.3578,南京市,六合雄州,,36,36,34,17,19,104,,128,122,13,13,6,8,0.4,0.4
2024-09-27T2000,1401A,108.3103,22.7881,南宁市,二十一中,细颗粒物(PM2.5),60,56,52,43,34,130,,140,140,15,24,4,4,0.9,0.9
2024-09-27T2000,1402A,108.3141,22.8528,南宁市,北湖,细颗粒物(PM2.5),69,65,53,50,41,116,,139,139,23,28,3,14,1.0,0.9
2024-09-27T2000,1403A,108.3206,22.8225,南宁市,市监测站,细颗粒物(PM2.5),60,62,54,43,35,118,,138,138,26,25,6,10,0.8,0.8
2024-09-27T2000,1404A,108.3829,22.8037,南宁市,大自然花园,细颗粒物(PM2.5),53,54,48,37,29,118,,141,141,19,21,5,6,0.7,0.7
2024-09-27T2000,1405A,108.4394,22.7904,南宁市,仙葫,细颗粒物(PM2.5),70,60,49,51,37,124,,150,150,18,22,7,8,1.1,1
2024-09-27T2000,1406A,108.2397,22.8467,南宁市,区农职院,细颗粒物(PM2.5),65,69,56,47,35,99,,122,121,27,19,5,13,1.1,1
2024-09-27T2000,1407A,108.3275,22.735,南宁市,英华嘉园,细颗粒物(PM2.5),65,75,54,47,36,107,,125,125,23,29,5,5,0.8,0.8
2024-09-27T2000,1408A,108.2257,22.7757,南宁市,沙井镇街道办,颗粒物(PM10),79,108,59,47,35,39,,130,120,67,29,2,4,0.9,0.8
2024-09-27T2000,3401A,108.4834,22.7618,南宁市,红星社区,细颗粒物(PM2.5),62,71,48,44,32,107,,160,159,26,24,8,8,0.9,0.8
2024-09-27T2000,2332A,118.1681,26.6369,南平市,南平市监测站,,15,11,12,10,8,24,,58,50,13,10,5,4,0.6,0.6
2024-09-27T2000,2333A,118.1825,26.6489,南平市,南平铝业有限公司,,15,15,16,3,6,15,,55,45,17,10,4,4,0.7,0.6
2024-09-27T2000,2334A,118.1756,26.6272,南平市,南平七中,,13,13,15,9,7,13,,54,46,18,11,2,3,0.9,0.7
2024-09-27T2000,1168A,120.9098,31.9663,南通市,狼山街道,,36,30,23,11,11,113,,154,143,15,10,7,7,0.6,0.5
2024-09-27T2000,1169A,120.86,32.0005,南通市,虹桥,,37,32,23,18,11,116,,146,136,14,12,7,7,0.6,0.5
2024-09-27T2000,1170A,120.87,32.02,南通市,城中,,41,41,31,17,11,106,,141,131,19,14,6,7,0.7,0.6
2024-09-27T2000,1171A,120.94,31.93,南通市,星湖花园,,39,26,18,11,10,124,,158,147,16,14,6,6,0.4,0.4
2024-09-27T2000,1172A,120.81,32.0417,南通市,紫琅学院,,32,32,21,19,10,98,,145,132,25,14,7,7,0.3,0.3
2024-09-27T2000,3291A,121.067,32.062,南通市,通州监测站,,38,34,22,17,9,121,,150,142,11,8,3,3,0.7,0.6
2024-09-27T2000,3432A,120.9348,31.9883,南通市,环境教育馆,,,,27,20,10,111,,154,143,19,17,4,4,0.6,0.5
2024-09-27T2000,2404A,112.5224,33.0122,南阳市,瓦房庄,颗粒物(PM10),55,59,85,29,44,139,,156,152,15,20,2,5,0.6,0.7
2024-09-27T2000,2405A,112.5003,32.9735,南阳市,汉画馆,颗粒物(PM10),58,66,83,34,46,140,,159,156,14,18,6,7,0.7,0.7
2024-09-27T2000,2406A,112.5573,33.027,南阳市,气象站,颗粒物(PM10),59,67,88,27,45,134,,166,162,20,18,6,12,0.6,0.6
2024-09-27T2000,2407A,112.5481,32.9689,南阳市,理工学院,颗粒物(PM10),55,60,78,26,40,133,,160,157,15,17,6,8,0.6,0.6
2024-09-27T2000,4008A,112.5234,32.9922,南阳市,卧龙区政府,颗粒物(PM10),56,61,86,34,42,135,,163,160,16,16,4,6,0.7,0.7
2024-09-27T2000,1234A,121.8358,29.911,宁波市,区环保大楼,,35,35,28,18,12,45,,38,38,56,47,6,6,0.7,0.7
2024-09-27T2000,1235A,121.56,29.82,宁波市,万里学院,,32,27,33,22,17,16,,52,48,55,40,6,6,0.9,0.7
2024-09-27T2000,1236A,121.713,29.9572,宁波市,龙赛医院,,38,28,27,13,10,26,,50,39,75,40,10,9,0.7,0.6
2024-09-27T2000,1239A,121.633,29.7733,宁波市,钱湖水厂,,20,20,26,11,14,26,,39,39,40,31,8,8,0.8,0.7
2024-09-27T2000,1240A,121.5856,29.8635,宁波市,太古小学,,36,36,25,19,13,23,,52,48,54,43,7,8,1.0,0.9
2024-09-27T2000,1241A,121.524,29.8674,宁波市,市环境监测中心,,25,25,25,15,13,25,,55,51,45,37,4,4,0.8,0.7
2024-09-27T2000,2871A,121.6147,29.9017,宁波市,万里国际学校,,35,23,19,14,12,8,,52,45,69,48,8,8,0.7,0.6
2024-09-27T2000,3710A,121.5594,29.8975,宁波市,白沙活动中心,,31,30,18,14,9,11,,51,46,62,38,8,8,0.6,0.4
2024-09-27T2000,2341A,119.5388,26.6612,宁德市,宁德市监测站,,22,17,20,15,11,42,,70,62,18,16,6,6,0.7,0.6
2024-09-27T2000,3209A,119.5231,26.6562,宁德市,宁德一中,,19,19,22,11,8,43,,74,67,6,7,5,5,0.4,0.5
2024-09-27T2000,2618A,98.8601,25.8567,怒江傈僳族自治州,州监测站,,27,27,26,18,17,49,,67,66,11,10,5,5,0.5,0.5
2024-09-27T2000,2619A,98.8546,25.8417,怒江傈僳族自治州,泸水一中,,33,33,25,16,20,26,,58,55,30,14,6,6,0.7,0.5
2024-09-27T2000,1888A,101.6891,26.571,攀枝花市,弄弄坪,颗粒物(PM10),53,56,52,28,28,49,,98,96,39,25,13,12,0.7,0.7
2024-09-27T2000,1889A,101.5769,26.5928,攀枝花市,河门口,,50,50,38,28,22,67,,99,99,27,20,15,12,1.2,1.3
2024-09-27T2000,1890A,101.7169,26.585,攀枝花市,炳草岗,,33,33,91,18,45,59,,104,102,19,33,9,20,0.6,1.2
2024-09-27T2000,1891A,101.7369,26.5008,攀枝花市,仁和,,40,40,30,24,22,38,,89,84,18,13,5,6,0.6,0.6
2024-09-27T2000,2835A,101.7227,26.567,攀枝花市,四十中小,颗粒物(PM10),53,55,62,30,40,71,,104,104,24,28,17,20,1.0,1.3
2024-09-27T2000,1604A,122.0303,41.1489,盘锦市,开发区,细颗粒物(PM2.5),62,48,38,44,24,59,,128,119,50,35,8,12,0.4,0.3
2024-09-27T2000,1605A,122.0485,41.0883,盘锦市,兴隆台,细颗粒物(PM2.5),62,52,38,44,25,28,,124,106,95,50,5,9,0.6,0.4
2024-09-27T2000,1606A,121.8297,41.1028,盘锦市,新生街道,,28,22,27,19,19,51,,133,121,34,39,11,10,0.5,0.5
2024-09-27T2000,1832A,113.3257,33.742,平顶山市,新华旅馆,颗粒物(PM10),96,142,133,46,75,96,,133,133,30,26,5,7,0.4,0.5
2024-09-27T2000,1833A,113.2919,33.737,平顶山市,规划设计院,颗粒物(PM10),76,102,128,36,68,98,,136,136,32,25,6,7,0.7,0.7
2024-09-27T2000,1834A,113.182,33.774,平顶山市,平顶山工学院,颗粒物(PM10),55,59,132,17,75,122,,141,141,20,21,6,9,0.4,0.6
2024-09-27T2000,3204A,113.3025,33.73,平顶山市,规划局,颗粒物(PM10),96,141,138,38,68,104,,138,138,28,26,4,6,0.6,0.8
2024-09-27T2000,3594A,112.8867,33.9116,平顶山市,石龙区,颗粒物(PM10),71,91,142,29,68,108,,148,143,30,53,13,16,0.8,0.7
2024-09-27T2000,2656A,106.6692,35.5461,平凉市,聚贤嘉苑,臭氧1小时,89,102,90,52,52,191,,167,167,25,19,9,9,0.6,0.5
2024-09-27T2000,2657A,106.7021,35.5307,平凉市,博物馆,臭氧1小时,93,109,96,63,54,194,,170,170,28,26,8,8,0.9,0.7
2024-09-27T2000,2348A,113.8385,27.6434,萍乡市,中医院,细颗粒物(PM2.5),55,56,55,39,35,100,,127,120,13,15,5,11,0.9,0.9
2024-09-27T2000,2349A,113.8493,27.6253,萍乡市,市政府车库,颗粒物(PM10),56,61,47,27,38,86,,128,120,16,13,13,12,2.0,1.1
2024-09-27T2000,2350A,113.8676,27.6435,萍乡市,市环保局,,36,36,54,20,39,95,,113,109,7,12,3,8,0.7,0.8
2024-09-27T2000,2351A,113.866,27.6198,萍乡市,安源区政府,颗粒物(PM10),65,80,55,38,31,81,,130,120,36,18,8,10,0.6,0.9
2024-09-27T2000,2319A,119.0141,25.4325,莆田市,荔城区仓后路,,22,16,16,12,6,68,,74,74,19,12,8,7,0.7,0.7
2024-09-27T2000,2320A,119.0015,25.4553,莆田市,莆田市监测站,,21,12,15,10,4,66,,69,69,12,7,7,6,0.5,0.5
2024-09-27T2000,2321A,119.1119,25.4561,莆田市,涵江区六中,,25,14,16,9,8,78,,77,75,12,11,8,8,0.6,0.6
2024-09-27T2000,2322A,119.1013,25.3215,莆田市,秀屿区政府,,,,16,9,7,80,,82,81,4,7,6,7,0.6,0.6
2024-09-27T2000,2392A,115.0312,35.7636,濮阳市,环保局,"颗粒物(PM10),臭氧1小时",59,67,98,39,97,167,,190,189,29,27,9,13,0.7,0.8
2024-09-27T2000,2394A,115.0574,35.7609,濮阳市,油田运输公司,颗粒物(PM10),70,90,130,42,95,137,,188,183,39,27,6,10,0.7,0.8
2024-09-27T2000,2395A,115.0866,35.7754,濮阳市,油田物探公司,颗粒物(PM10),68,86,151,43,105,158,,190,187,29,29,6,8,0.6,0.8
2024-09-27T2000,3021A,115,35.7668,濮阳市,濮水河管理处,颗粒物(PM10),58,66,112,40,98,146,,178,176,23,23,7,8,0.5,0.7
2024-09-27T2000,2601A,100.98,22.7633,普洱市,市环保局,,,26,26,13,16,20,,50,46,,6,5,4,0.5,0.5
2024-09-27T2000,2602A,100.9817,22.8322,普洱市,普洱第二中学,,44,44,32,18,13,27,,49,47,15,10,9,9,0.6,0.5
2024-09-27T2000,2262A,131.0518,45.8751,七台河市,新一中,,15,13,13,6,8,46,,84,75,6,9,6,8,1.1,1.2
2024-09-27T2000,3345A,131.0577,45.7879,七台河市,中波台,,49,49,18,13,6,6,,65,52,59,27,6,6,0.6,0.4
2024-09-27T2000,3637A,131.0176,45.7761,七台河市,人民广场,颗粒物(PM10),73,96,26,40,13,5,,69,51,52,22,9,9,0.8,0.4
2024-09-27T2000,3684A,130.8781,45.8222,七台河市,新建矿广场,颗粒物(PM10),60,70,35,14,18,5,,66,54,49,19,8,6,0.7,0.5
2024-09-27T2000,1779A,123.9305,47.3636,齐齐哈尔市,安居小区,,27,26,29,12,13,85,,92,89,19,16,9,9,0.4,0.4
2024-09-27T2000,1780A,123.9488,47.3386,齐齐哈尔市,中心广场,,27,22,37,8,6,86,,90,88,14,15,2,2,0.3,0.2
2024-09-27T2000,1781A,123.9483,47.3227,齐齐哈尔市,农牧车辆厂,,39,39,36,7,8,93,,95,94,6,10,8,8,0.3,0.3
2024-09-27T2000,1783A,123.945,47.2988,齐齐哈尔市,市环境监测站,,29,21,27,9,15,92,,99,97,8,10,8,8,0.3,0.3
2024-09-27T2000,3662A,123.6333,47.2075,齐齐哈尔市,富区青少年活动中心,,25,25,34,12,11,76,,95,90,8,10,4,5,0.4,0.5
2024-09-27T2000,2591A,107.9783,26.5747,黔东南苗族侗族自治州,市环境监测站,,46,35,42,32,34,80,,94,93,17,26,4,4,0.5,0.6
2024-09-27T2000,2881A,107.8908,26.5311,黔东南苗族侗族自治州,凯里学院,,40,29,32,28,31,90,,98,97,4,14,3,3,0.7,0.7
2024-09-27T2000,2593A,107.5228,26.2403,黔南布依族苗族自治州,小围寨,,35,27,30,24,25,99,,104,104,4,10,5,5,0.6,0.6
2024-09-27T2000,3538A,107.5175,26.2978,黔南布依族苗族自治州,沙坝,,38,38,39,19,26,84,,91,90,6,14,4,4,0.6,0.6
2024-09-27T2000,2589A,104.9022,25.0925,黔西南布依族苗族自治州,场坝街,,45,43,39,31,27,58,,80,77,19,8,8,4,0.4,0.4
2024-09-27T2000,2590A,104.8811,25.0992,黔西南布依族苗族自治州,坪东大道,,39,39,38,20,26,54,,78,74,8,7,7,8,0.3,0.3
2024-09-27T2000,2502A,108.6236,21.9667,钦州市,市环保站,,36,36,49,19,27,80,,107,106,18,19,9,9,0.6,0.8
2024-09-27T2000,2503A,108.6549,21.9481,钦州市,沙埠小学,,40,39,63,28,35,87,,114,113,14,28,6,7,0.9,1.1
2024-09-27T2000,2504A,108.5989,21.7431,钦州市,港区一小,,,,78,19,29,77,,112,108,12,22,5,8,0.7,0.9
2024-09-27T2000,3404A,108.5959,21.9633,钦州市,北职校,颗粒物(PM10),53,55,57,25,34,86,,112,111,11,24,13,8,0.7,0.8
2024-09-27T2000,1042A,119.5134,39.8207,秦皇岛市,北戴河环保局,,38,23,31,9,10,119,,112,112,9,24,3,3,0.3,0.5
2024-09-27T2000,1043A,119.7493,40.0116,秦皇岛市,第一关,,50,43,41,33,24,11,,106,97,99,54,2,3,0.3,0.5
2024-09-27T2000,1044A,119.5897,39.9499,秦皇岛市,监测站,,36,36,43,25,26,80,,104,104,25,42,3,4,0.4,0.6
2024-09-27T2000,1046A,119.5251,39.9041,秦皇岛市,建设大厦,,47,47,49,17,16,92,,113,112,18,33,2,6,0.3,0.6
2024-09-27T2000,3132A,119.610547,39.943889,秦皇岛市,文明里,,35,35,52,10,16,91,,108,108,27,41,1,4,0.5,0.7
2024-09-27T2000,1310A,120.4134,36.0658,青岛市,市南区东部子站,,43,27,32,12,13,137,,141,141,18,26,6,7,0.6,0.6
2024-09-27T2000,1311A,120.3664,36.1032,青岛市,四方区子站,,40,29,35,12,13,125,,137,137,30,40,10,10,0.6,0.6
2024-09-27T2000,1312A,120.2994,36.054,青岛市,市南区西部子站,,43,24,34,7,8,137,,140,140,15,28,9,10,0.6,0.6
2024-09-27T2000,1313A,120.4581,36.0858,青岛市,崂山区子站,,48,22,24,7,8,152,,148,148,11,23,9,9,0.5,0.5
2024-09-27T2000,1314A,120.1983,35.9608,青岛市,黄岛区子站,,42,19,38,7,12,133,,141,141,15,46,9,10,0.4,0.5
2024-09-27T2000,1315A,120.3999,36.3083,青岛市,城阳区子站,颗粒物(PM10),51,51,29,12,11,100,,131,126,47,25,9,8,0.7,0.5
2024-09-27T2000,1966A,120.0405,35.8735,青岛市,黄岛区4号,,44,24,31,7,11,140,,139,139,10,35,7,7,0.5,0.5
2024-09-27T2000,3362A,120.5014,36.4034,青岛市,即墨2号,,40,38,27,13,12,126,,133,133,18,12,7,7,0.5,0.4
2024-09-27T2000,3642A,120.3503,36.0736,青岛市,市北区南部,,46,27,37,12,11,145,,146,146,16,36,6,8,0.4,0.4
2024-09-27T2000,3643A,120.3948,36.1805,青岛市,李沧区北部,颗粒物(PM10),51,51,27,24,13,108,,135,135,44,29,10,9,0.8,0.6
2024-09-27T2000,1702A,113.0426,23.691,清远市,环保大楼,颗粒物(PM10),56,61,43,22,18,51,,91,86,22,17,7,7,1.1,0.9
2024-09-27T2000,1703A,113.0208,23.7106,清远市,凤城街办,,37,37,29,22,18,36,,90,83,16,13,6,7,1.0,0.9
2024-09-27T2000,3025A,113.0477,23.6344,清远市,技师学院,颗粒物(PM10),54,57,37,34,19,38,,90,80,34,21,7,8,1.0,0.9
2024-09-27T2000,3318A,112.9903,23.7403,清远市,清新太和,,22,22,29,14,17,53,,89,86,7,11,1,2,0.7,0.8
2024-09-27T2000,3455A,113.076,23.7198,清远市,清城东城,,35,35,38,22,23,46,,111,103,9,8,2,3,0.9,0.8
2024-09-27T2000,2661A,107.6325,35.7357,庆阳市,庆阳五中,颗粒物(PM10),67,83,81,43,39,168,,164,164,10,11,7,8,0.6,0.6
2024-09-27T2000,2662A,107.6364,35.7067,庆阳市,市环保局,颗粒物(PM10),64,78,79,35,39,169,,166,166,11,11,8,8,0.5,0.5
2024-09-27T2000,1916A,103.7897,25.5035,曲靖市,环境监测站,,,,46,,25,65,,78,78,14,14,4,8,0.8,0.8
2024-09-27T2000,1917A,103.8,25.5364,曲靖市,烟厂办公区,,27,27,40,16,24,79,,84,84,10,13,4,4,0.5,0.5
2024-09-27T2000,3376A,103.7947,25.462,曲靖市,南苑二区,,21,18,42,12,26,67,,81,81,11,12,5,14,0.4,0.5
2024-09-27T2000,3377A,103.7444,25.5261,曲靖市,曲靖师范学院,,27,27,31,14,27,85,,94,94,9,11,6,9,0.6,0.6
2024-09-27T2000,1264A,118.8692,28.9398,衢州市,环保大楼,,26,24,28,18,23,64,,76,76,21,18,2,3,0.5,0.6
2024-09-27T2000,1265A,118.8709,28.9666,衢州市,实验学校,,22,20,31,15,26,52,,75,74,21,15,4,6,0.6,0.6
2024-09-27T2000,1266A,118.8621,28.9808,衢州市,衢州学院,,18,18,36,12,24,48,,73,71,26,19,7,7,0.5,0.6
2024-09-27T2000,1611A,118.5819,24.9117,泉州市,涂山街,,,18,19,12,11,72,,90,84,,11,,2,0.6,0.6
2024-09-27T2000,1612A,118.5972,24.8978,泉州市,津头埔,,22,21,21,9,9,69,,88,79,12,13,4,4,0.7,0.7
2024-09-27T2000,1613A,118.6663,24.9424,泉州市,万安,,24,16,20,10,8,76,,83,80,6,10,2,3,0.6,0.6
2024-09-27T2000,3529A,118.6333,24.9264,泉州市,城华南路,,26,,16,18,9,72,,83,76,9,8,3,3,0.3,0.3
2024-09-27T2000,2626A,88.8876,29.2718,日喀则市,日喀则监测站,,17,14,6,6,2,52,,67,59,6,5,5,5,0.4,0.4
2024-09-27T2000,3726A,88.8781,29.2426,日喀则市,林业技术推广中心,,16,16,7,3,1,50,,60,58,12,8,6,6,0.6,0.5
2024-09-27T2000,1659A,119.471,35.4209,日照市,监测站,,29,17,31,16,17,90,,129,125,33,24,11,12,0.5,0.5
2024-09-27T2000,1660A,119.523,35.4216,日照市,市政府广场,,45,22,33,9,15,141,,140,140,12,21,10,10,0.4,0.4
2024-09-27T2000,1661A,119.5587,35.4044,日照市,港务局,,48,17,31,13,20,151,,141,141,7,16,9,9,0.3,0.4
2024-09-27T2000,3507A,119.5328,35.4625,日照市,职业技术学院,,38,22,30,7,14,119,,133,133,15,20,8,10,0.5,0.5
2024-09-27T2000,3604A,119.3266,35.1044,日照市,岚山环保分局,,38,19,48,9,25,119,,132,131,14,32,9,22,0.5,1.8
2024-09-27T2000,1835A,111.1922,34.7752,三门峡市,市政府,颗粒物(PM10),65,79,109,34,57,143,,162,162,18,20,11,13,0.8,0.9
2024-09-27T2000,1836A,111.1587,34.7942,三门峡市,开发区,颗粒物(PM10),74,97,144,39,65,142,,158,158,18,19,9,12,0.5,0.7
2024-09-27T2000,1838A,111.143,34.7955,三门峡市,风景区,颗粒物(PM10),67,84,113,42,54,159,,178,178,16,18,9,12,0.8,0.9
2024-09-27T2000,3039A,111.1911,34.7829,三门峡市,三门峡市第一小学,颗粒物(PM10),67,84,111,36,57,144,,164,164,17,18,11,12,0.7,0.8
2024-09-27T2000,3598A,111.1,34.7167,三门峡市,富达温泉假日酒店,颗粒物(PM10),77,103,130,46,82,143,,165,165,28,24,12,15,0.9,1
2024-09-27T2000,2324A,117.6211,26.2625,三明市,三钢,,23,23,20,12,13,24,,62,56,22,17,8,8,0.9,0.9
2024-09-27T2000,2325A,117.635,26.2714,三明市,三明二中,,25,25,19,11,10,30,,66,59,18,15,3,4,0.9,1
2024-09-27T2000,2326A,117.6028,26.2378,三明市,三元区政府,,37,37,31,13,15,8,,55,47,34,21,5,6,0.7,0.7
2024-09-27T2000,1876A,109.5078,18.2489,三亚市,河东子站,,14,6,14,6,7,44,,34,,3,8,4,4,0,0.2
2024-09-27T2000,1877A,109.4964,18.2681,三亚市,河西子站,,15,,13,10,6,38,,44,43,5,9,3,3,0.3,0.4
2024-09-27T2000,3540A,109.7348,18.3443,三亚市,君悦子站,,12,6,14,3,4,36,,47,44,10,9,3,3,0.3,0.4
2024-09-27T2000,2624A,91.7608,29.2313,山南市,山南监测站,,17,6,10,3,6,52,,60,59,6,9,8,8,0.3,0.3
2024-09-27T2000,2625A,91.7706,29.2436,山南市,山南人民医院,,,8,13,,5,58,,61,61,8,10,8,9,0.4,0.4
2024-09-27T2000,1674A,116.6794,23.3667,汕头市,金平子站,,43,14,26,11,18,137,,137,137,6,9,4,5,0.8,1
2024-09-27T2000,1675A,116.7244,23.3633,汕头市,龙湖子站,,39,,28,16,17,124,,137,137,4,8,6,8,0.6,0.7
2024-09-27T2000,1676A,116.7258,23.2775,汕头市,濠江子站,,38,,26,14,21,119,,118,118,7,10,6,7,0.8,0.9
2024-09-27T2000,1677A,116.7519,23.4714,汕头市,澄海子站,,39,18,29,7,17,124,,137,137,10,11,5,7,0.8,0.8
2024-09-27T2000,1678A,116.6092,23.2539,汕头市,潮阳子站,,,43,26,,20,143,,128,128,5,5,6,5,0.6,0.6
2024-09-27T2000,3444A,116.454,23.2684,汕头市,潮南峡山,,47,41,31,28,22,150,,104,104,8,5,6,6,0.5,0.5
2024-09-27T2000,3624A,116.4069,23.2533,汕头市,潮南子站,颗粒物(PM10),61,72,36,31,21,152,,95,95,14,12,5,5,0.8,0.7
2024-09-27T2000,1693A,115.3653,22.775,汕尾市,市环保局,臭氧1小时,65,,35,15,28,172,,212,212,8,11,7,7,0.7,0.9
2024-09-27T2000,1694A,115.3706,22.7898,汕尾市,市政府,,48,21,34,16,24,152,,180,180,11,12,7,7,0.6,0.7
