timepoint,stationcode,longitude,latitude,area,positionname,primarypollutant,aqi,pm10,pm10_24h,pm2_5,pm2_5_24h,o3,o3_24h,o3_8h,o3_8h_24h,no2,no2_24h,so2,so2_24h,co,co_24h
2024-09-27T1600,2566A,102.1879,31.914,阿坝藏族羌族自治州,州农科所,,23,11,24,8,10,72,,61,61,18,15,7,8,1.4,0.1
2024-09-27T1600,2568A,102.2502,31.8896,阿坝藏族羌族自治州,马师校,,24,12,17,6,14,75,,56,56,6,8,4,4,0.3,0.3
2024-09-27T1600,3994A,102.2165,31.9024,阿坝藏族羌族自治州,马尔康中学西区,,,9,20,3,16,73,,51,51,5,8,,,0.3,0.3
2024-09-27T1600,2695A,80.292,41.1694,阿克苏地区,电视台,,44,39,111,11,36,140,,88,88,9,26,6,5,0.3,0.5
2024-09-27T1600,2696A,80.2613,41.1551,阿克苏地区,艺术中心,,47,47,110,15,40,130,,79,79,6,27,4,4,0.4,0.8
2024-09-27T1600,2204A,105.6467,38.8363,阿拉善盟,西城区西花园,颗粒物(PM10),55,59,38,32,21,138,,118,118,12,10,12,11,1.0,0.8
2024-09-27T1600,2205A,105.6985,38.8411,阿拉善盟,蒙二幼,颗粒物(PM10),53,56,39,28,16,123,,106,106,12,10,9,7,0.8,0.5
2024-09-27T1600,2206A,105.724,38.8516,阿拉善盟,环保局新楼,颗粒物(PM10),51,51,34,26,13,121,,108,108,12,8,10,9,0.7,0.5
2024-09-27T1600,2708A,88.1264,47.8517,阿勒泰地区,市站,,22,18,25,3,5,68,,60,60,7,12,8,8,0.1,0.4
2024-09-27T1600,2630A,80.1161,32.5,阿里地区,阿里监测站,,38,6,8,3,5,119,,103,103,3,9,7,8,0.3,0.4
2024-09-27T1600,3192A,80.0903,32.5028,阿里地区,阿里藏医院,,35,7,12,3,5,112,,103,103,4,5,6,6,0.3,0.2
2024-09-27T1600,2643A,109.0281,32.6939,安康市,安康市监测站,臭氧1小时,70,58,61,31,32,176,,157,157,8,12,9,13,0.6,0.7
2024-09-27T1600,2644A,109.0072,32.6975,安康市,汉滨区检察院,臭氧1小时,77,67,55,37,30,181,,157,157,9,11,10,10,0.4,0.5
2024-09-27T1600,2291A,117.0809,30.5177,安庆市,环科院,,43,17,47,13,37,136,,89,89,9,16,7,9,0.8,1
2024-09-27T1600,2292A,117.0331,30.5119,安庆市,马山宾馆,,44,28,45,10,37,138,,95,95,10,16,9,10,0.7,0.9
2024-09-27T1600,2294A,116.9896,30.6145,安庆市,安庆大学,,39,18,46,9,37,123,,80,80,9,12,8,8,0.4,0.6
2024-09-27T1600,3173A,117.0598,30.5351,安庆市,市人大,,42,22,45,14,39,134,,88,88,9,14,8,9,0.7,0.9
2024-09-27T1600,3123A,105.9408,26.2431,安顺市,凤凰山,,42,36,36,29,27,105,,95,91,4,6,6,5,0.5,0.5
2024-09-27T1600,3124A,105.9439,26.2564,安顺市,金钟山,,46,36,36,32,29,107,,97,93,4,6,7,7,0.7,0.6
2024-09-27T1600,3125A,105.8983,26.2481,安顺市,娄家坡,,45,36,34,31,29,109,,97,93,6,6,6,6,0.5,0.6
2024-09-27T1600,1819A,114.3551,36.1017,安阳市,红庙街,臭氧1小时,107,69,108,54,83,213,,164,164,9,24,7,12,0.6,0.8
2024-09-27T1600,1820A,114.361,36.0681,安阳市,银杏小区,臭氧1小时,104,70,106,33,51,207,,159,159,9,17,5,8,0.7,0.9
2024-09-27T1600,3141A,114.3922,36.0878,安阳市,信访局,臭氧1小时,111,86,127,39,62,221,,171,171,11,25,5,8,0.8,1
2024-09-27T1600,3669A,114.4705,36.0637,安阳市,左辅环卫站,臭氧1小时,101,120,167,43,94,201,,157,157,16,26,6,8,0.6,0.8
2024-09-27T1600,3703A,114.2917,36.0949,安阳市,安钢职工学校,臭氧1小时,97,76,118,34,91,197,,153,153,9,30,7,12,0.8,1.3
2024-09-27T1600,1748A,123.044,41.1196,鞍山市,深沟寺,,33,33,44,14,24,99,,81,81,13,30,8,7,0.6,0.9
2024-09-27T1600,1749A,123.011,41.0931,鞍山市,太阳城,,35,23,45,13,25,112,,86,86,12,29,9,10,0.5,0.9
2024-09-27T1600,1750A,123.0485,41.1442,鞍山市,太平,,36,31,50,16,26,113,,81,81,18,40,11,12,0.7,1
2024-09-27T1600,1751A,122.9642,41.0971,鞍山市,铁西三道街,,40,40,75,12,34,98,,80,80,27,44,14,13,1.1,1.5
2024-09-27T1600,1752A,122.9341,41.0833,鞍山市,铁西工业园区,,35,35,78,11,37,109,,78,78,26,42,15,13,0.9,1.3
2024-09-27T1600,1753A,123.022,41.0821,鞍山市,明达新区,,34,26,45,14,23,107,,85,85,13,29,7,8,0.5,0.9
2024-09-27T1600,2195A,107.4212,40.761,巴彦淖尔市,附二中,细颗粒物(PM2.5),73,90,94,53,42,149,,127,127,9,19,7,7,0.7,0.7
2024-09-27T1600,2196A,107.37,40.7372,巴彦淖尔市,市环保大楼,颗粒物(PM10),67,83,80,37,29,151,,130,130,9,13,5,6,0.6,0.6
2024-09-27T1600,1956A,86.1472,41.7538,巴音郭楞蒙古自治州,孔雀公园,,35,33,63,8,14,109,,103,102,4,12,6,7,0.2,0.3
2024-09-27T1600,1957A,86.1972,41.7166,巴音郭楞蒙古自治州,棉纺厂,,37,37,69,11,17,103,,94,94,9,15,5,6,0.2,0.2
2024-09-27T1600,1958A,86.2357,41.7173,巴音郭楞蒙古自治州,经济开发区,,45,45,64,10,21,106,,99,98,5,10,8,13,0.4,0.4
2024-09-27T1600,2914A,106.7677,31.8794,巴中市,苏山坪,,50,31,59,27,45,158,,135,135,7,8,4,4,0.5,0.5
2024-09-27T1600,3182A,106.7656,31.8545,巴中市,丽阳花园,臭氧1小时,54,34,62,27,51,163,,120,120,10,22,7,6,0.5,0.8
2024-09-27T1600,3183A,106.7418,31.8654,巴中市,圣泉水务公司,臭氧1小时,59,35,61,28,50,167,,122,122,7,21,5,4,0.5,0.7
2024-09-27T1600,3616A,106.7616,31.8344,巴中市,市中心医院,臭氧1小时,64,36,67,26,52,171,,123,123,7,24,7,6,0.5,0.8
2024-09-27T1600,2235A,122.7911,45.6077,白城市,洮北区环保局,,34,20,24,7,15,108,,96,96,9,17,2,3,0.0,0.2
2024-09-27T1600,2236A,122.8738,45.5725,白城市,市环保局,,31,17,20,7,12,98,,90,90,10,27,5,4,0.3,0.3
2024-09-27T1600,2231A,126.4219,41.9171,白山市,喜丰,,35,14,39,3,12,109,,75,75,8,19,6,7,0.5,0.5
2024-09-27T1600,2232A,126.4077,41.9419,白山市,环保局,,30,14,30,3,13,94,,69,69,15,17,9,8,0.6,0.7
2024-09-27T1600,2647A,104.1724,36.5446,白银市,第三小学,,32,26,45,20,22,102,,71,71,8,27,8,32,0.4,1
2024-09-27T1600,2648A,104.1465,36.5482,白银市,动力公司,,32,32,35,12,14,100,,73,73,7,21,6,10,0.4,0.7
2024-09-27T1600,2512A,106.6103,23.9011,百色市,市监测站,"颗粒物(PM10),细颗粒物(PM2.5)",54,57,64,38,48,144,,89,89,9,16,9,14,0.7,0.8
2024-09-27T1600,2513A,106.6538,23.8859,百色市,市中心血站,细颗粒物(PM2.5),62,66,70,44,47,118,,93,93,8,17,7,15,0.7,0.8
2024-09-27T1600,3406A,106.6085,23.8798,百色市,祈福高中,颗粒物(PM10),66,81,75,42,39,141,,92,92,13,20,9,12,0.9,0.9
2024-09-27T1600,2270A,117.396,32.939,蚌埠市,工人疗养院,,43,32,45,16,18,136,,142,142,6,16,6,8,0.3,0.4
2024-09-27T1600,2271A,117.3605,32.9427,蚌埠市,百货大楼,,40,36,42,15,17,128,,130,130,6,13,7,8,0.4,0.4
2024-09-27T1600,2273A,117.4185,32.8911,蚌埠市,蚌埠学院,,42,31,37,15,22,134,,127,127,4,18,6,8,0.4,0.4
2024-09-27T1600,2274A,117.3533,32.9673,蚌埠市,淮上区政府,,40,39,42,15,23,125,,125,125,7,13,6,6,0.3,0.4
2024-09-27T1600,2275A,117.3145,32.8977,蚌埠市,高新区,,,27,33,,18,126,,125,125,6,13,6,7,0.4,0.4
2024-09-27T1600,3715A,117.3092,32.9314,蚌埠市,蚌埠田家炳中学,,42,34,40,13,19,132,,132,132,2,8,5,6,0.3,0.3
2024-09-27T1600,1585A,109.8756,40.6532,包头市,市环境监测站,颗粒物(PM10),55,59,51,36,23,158,,128,128,24,36,11,12,0.8,0.8
2024-09-27T1600,1587A,109.9991,40.5842,包头市,包头八中,颗粒物(PM10),58,65,51,25,27,156,,122,122,20,25,8,9,0.8,0.8
2024-09-27T1600,1588A,109.8538,40.6821,包头市,青山宾馆,颗粒物(PM10),55,60,45,24,29,163,,134,134,20,28,13,14,0.9,1
2024-09-27T1600,1589A,109.8642,40.6288,包头市,惠龙物流,颗粒物(PM10),55,59,51,32,23,162,,129,129,14,24,6,9,1.1,1
2024-09-27T1600,1590A,110.0377,40.5546,包头市,东河鸿龙湾,颗粒物(PM10),58,65,48,31,22,158,,127,127,15,22,15,17,0.8,0.8
2024-09-27T1600,3283A,109.9154,40.5685,包头市,滨河大厦,臭氧1小时,57,54,45,27,22,165,,130,130,18,31,11,12,0.7,0.7
2024-09-27T1600,3419A,109.9447,40.6261,包头市,包头市委党校,颗粒物(PM10),58,65,50,23,25,155,,129,129,21,26,14,17,0.7,0.7
2024-09-27T1600,3683A,109.8331,40.6576,包头市,昆区政府,颗粒物(PM10),55,59,49,25,30,162,,132,132,18,26,8,11,0.7,0.7
2024-09-27T1600,1931A,107.0708,34.3017,宝鸡市,竹园沟,臭氧1小时,110,105,78,62,54,219,,153,153,19,19,10,8,0.9,0.7
2024-09-27T1600,1932A,107.1906,34.3672,宝鸡市,三陆医院,臭氧1小时,110,134,110,73,66,219,,173,173,26,24,9,9,0.9,0.9
2024-09-27T1600,1933A,107.1431,34.3547,宝鸡市,监测站,臭氧1小时,110,140,101,74,64,219,,163,163,23,22,9,8,0.9,0.8
2024-09-27T1600,1934A,107.1186,34.3739,宝鸡市,技工学校,臭氧1小时,108,123,101,80,67,216,,165,165,28,24,10,10,0.9,0.9
2024-09-27T1600,1935A,107.3906,34.3528,宝鸡市,陈仓区环保局家属楼,臭氧1小时,113,,111,73,69,226,,177,177,24,36,10,11,0.8,0.9
2024-09-27T1600,1936A,107.2058,34.3497,宝鸡市,文理学院,臭氧1小时,112,120,110,67,66,223,,174,174,21,20,11,11,0.8,0.8
2024-09-27T1600,1937A,107.2386,34.3622,宝鸡市,三迪小学,臭氧1小时,110,131,108,82,71,220,,172,172,27,28,11,11,0.9,0.8
2024-09-27T1600,1051A,115.493,38.8632,保定市,游泳馆,,47,47,62,27,47,150,,110,110,11,24,5,4,0.2,0.4
2024-09-27T1600,1052A,115.5213,38.8959,保定市,华电二区,,46,44,69,19,45,146,,96,96,12,40,2,3,0,0.4
2024-09-27T1600,1053A,115.4713,38.9108,保定市,接待中心,,46,40,78,18,49,145,,100,100,14,41,4,3,0.1,0.4
2024-09-27T1600,1054A,115.4612,38.8416,保定市,地表水厂,颗粒物(PM10),54,57,69,27,41,142,,102,102,15,32,3,4,0.0,0.3
2024-09-27T1600,3581A,115.31981,38.95208,保定市,满城区生态环境分局,颗粒物(PM10),52,53,102,22,62,158,,110,110,20,35,6,5,0.4,0.7
2024-09-27T1600,3582A,115.47694,38.76408,保定市,清苑区第二中学,,48,40,70,30,43,152,,104,104,11,39,3,3,0.3,0.5
2024-09-27T1600,3583A,115.62909,39.02311,保定市,徐水物探局,,49,43,67,19,41,155,,112,112,12,34,6,6,0.3,0.5
2024-09-27T1600,4004A,115.4202,38.8656,保定市,双鹰农机,,49,48,78,26,40,155,,112,112,22,35,3,3,0.3,0.5
2024-09-27T1600,4034A,115.5150,38.8590,保定市,植保所站,,49,49,72,19,48,148,,107,107,12,33,8,6,0.4,0.5
2024-09-27T1600,2594A,99.1678,25.1081,保山市,市环境监测站,,,14,26,9,14,51,,36,36,4,9,4,4,,0.4
2024-09-27T1600,2595A,99.1711,25.1328,保山市,市环保局,,19,14,29,6,10,58,,42,42,3,7,6,6,0.4,0.5
2024-09-27T1600,1867A,109.1436,21.4086,北海市,海滩公园,,38,37,35,20,22,119,,120,116,4,7,5,5,0.7,0.6
2024-09-27T1600,1868A,109.0981,21.4661,北海市,新市环保局,,40,34,35,27,27,128,,112,112,6,8,5,4,0.7,0.8
2024-09-27T1600,1869A,109.1778,21.5233,北海市,北海工业园,,48,48,49,32,32,148,,115,115,10,16,7,6,0.7,0.7
2024-09-27T1600,3400A,109.1911,21.4415,北海市,龙潭自来水厂,,39,33,39,25,36,124,,106,106,5,13,6,5,0.6,0.8
2024-09-27T1600,1001A,116.3621,39.8784,北京市,万寿西宫,,30,29,49,17,28,95,,70,70,21,33,3,2,0.4,0.7
2024-09-27T1600,1002A,116.2202,40.2915,北京市,定陵,细颗粒物(PM2.5),62,,36,44,35,46,,29,29,14,11,2,2,0.5,0.6
2024-09-27T1600,1003A,116.4174,39.9289,北京市,东四,,37,37,50,20,27,93,,67,67,23,31,3,4,0.6,0.7
2024-09-27T1600,1004A,116.4072,39.8863,北京市,天坛,,32,32,41,18,25,90,,65,65,20,25,1,2,0.4,0.7
2024-09-27T1600,1005A,116.462,39.9365,北京市,农展馆,,34,34,48,17,25,82,,53,53,21,32,2,4,0.4,0.6
2024-09-27T1600,1006A,116.3392,39.9295,北京市,官园,,32,32,46,16,26,96,,70,70,20,28,7,7,0.5,0.7
2024-09-27T1600,1007A,116.2878,39.9611,北京市,海淀万柳,,31,30,50,15,26,97,,60,60,17,35,4,4,0.3,0.5
2024-09-27T1600,1008A,116.6636,40.135,北京市,顺义新城,,27,27,58,15,32,83,,46,46,14,38,3,2,0.4,0.6
2024-09-27T1600,1009A,116.6275,40.3275,北京市,怀柔镇,,37,37,39,21,23,72,,46,46,21,25,3,3,0.5,0.6
2024-09-27T1600,1010A,116.2296,40.217,北京市,昌平镇,,45,45,49,24,27,55,,35,35,26,27,4,3,0.5,0.6
2024-09-27T1600,1011A,116.3966,39.9821,北京市,奥体中心,,28,28,47,13,26,79,,56,56,25,41,3,3,0.5,0.7
2024-09-27T1600,1012A,116.184,39.9136,北京市,古城,颗粒物(PM10),53,56,73,27,40,80,,54,54,29,42,4,3,0.7,0.7
2024-09-27T1600,3281A,115.9718,40.4529,北京市,延庆夏都,,45,45,50,30,32,83,,60,60,15,15,3,2,0.5,0.6
2024-09-27T1600,3417A,117.0709,40.1465,北京市,平谷新城,,32,23,42,14,26,101,,66,66,8,14,2,2,0.5,0.6
2024-09-27T1600,3418A,116.8336,40.4095,北京市,密云新城,,31,31,39,17,20,73,,46,46,13,15,1,2,0.4,0.5
2024-09-27T1600,3671A,116.088,39.9726,北京市,门头沟三家店,,42,42,61,24,34,79,,39,39,24,34,7,7,0.4,0.7
2024-09-27T1600,3672A,116.1541,39.8204,北京市,丰台云岗,,30,30,58,18,38,82,,53,53,15,30,4,4,0.4,0.6
2024-09-27T1600,3673A,116.6804,39.9081,北京市,通州东关,,35,35,52,19,27,107,,67,67,21,35,1,1,0.4,0.6
2024-09-27T1600,3674A,115.9577,39.7603,北京市,房山燕山,,40,40,60,22,38,102,,59,59,18,19,1,2,0.4,0.5
2024-09-27T1600,3675A,116.4672,39.7733,北京市,大兴旧宫,,36,22,42,12,24,113,,70,70,12,23,3,3,0.3,0.5
2024-09-27T1600,3694A,115.986,40.4563,北京市,延庆石河营,,45,42,48,31,35,79,,59,59,14,14,3,2,0.5,0.6
2024-09-27T1600,3695A,116.6151,40.3053,北京市,怀柔新城,,33,33,38,21,27,72,,45,45,16,20,2,3,0.5,0.6
2024-09-27T1600,3696A,116.2545,39.8768,北京市,丰台小屯,,30,30,52,17,29,84,,56,56,15,34,2,2,0.5,0.7
2024-09-27T1600,3697A,116.84,40.3844,北京市,密云镇,,31,31,44,20,24,66,,39,39,10,29,4,3,0.4,0.6
2024-09-27T1600,1761A,123.8275,41.3064,本溪市,大峪,,34,17,25,11,10,106,,68,68,16,22,11,9,0.6,0.6
2024-09-27T1600,1762A,123.7567,41.3325,本溪市,溪湖,,27,26,54,8,16,85,,67,67,39,30,12,8,1.1,0.9
2024-09-27T1600,1763A,123.7169,41.3094,本溪市,彩屯,,33,15,37,8,22,105,,65,65,18,34,9,10,0.6,0.9
2024-09-27T1600,1764A,123.7669,41.2864,本溪市,东明,,39,39,40,13,17,102,,73,73,28,37,12,6,1.0,0.9
2024-09-27T1600,1765A,123.7992,41.2664,本溪市,新立屯,,37,37,24,9,10,87,,76,76,29,36,8,5,0.9,0.6
2024-09-27T1600,1766A,123.8142,41.3472,本溪市,威宁,,34,27,42,7,18,107,,65,65,14,27,9,9,0.4,0.6
2024-09-27T1600,2587A,105.2864,27.3125,毕节市,八中,,40,40,40,25,28,105,,82,82,11,12,7,6,0.5,0.6
2024-09-27T1600,2588A,105.31,27.2944,毕节市,师专,,39,34,45,27,36,107,,82,82,9,17,8,8,0.6,0.7
2024-09-27T1600,3537A,105.3631,27.3533,毕节市,长征村,,49,43,70,34,56,116,,97,97,6,8,8,8,0.5,0.7
2024-09-27T1600,1629A,118.0018,37.3617,滨州市,第二水厂,,44,44,32,19,14,139,,113,113,13,26,9,15,0.4,0.5
2024-09-27T1600,1630A,117.9776,37.393,滨州市,北中新校,颗粒物(PM10),51,51,31,14,10,148,,125,125,11,14,10,21,0.4,0.7
2024-09-27T1600,3514A,117.9378,37.3956,滨州市,中海酒店,,49,44,27,24,17,154,,122,122,17,21,8,13,0.6,0.6
2024-09-27T1600,3516A,118.0917,37.694,滨州市,金海六路,,43,24,28,9,9,137,,113,113,6,10,8,6,0.5,0.5
2024-09-27T1600,4028A,117.9956,37.3753,滨州市,滨州市西街道办事处,,49,39,26,17,16,155,,122,122,11,19,10,25,0.5,0.5
2024-09-27T1600,2311A,115.8072,33.8399,亳州市,污水处理厂,臭氧1小时,54,45,56,20,36,163,,132,132,10,21,5,8,0.4,0.5
2024-09-27T1600,2312A,115.7789,33.8518,亳州市,三国揽胜宫,,49,37,52,21,32,155,,127,127,11,17,4,6,0.5,0.6
2024-09-27T1600,3332A,115.7633,33.8034,亳州市,亳州学院,,49,40,58,20,27,156,,129,129,8,12,2,5,0.5,0.6
2024-09-27T1600,2693A,82.0485,44.8556,博尔塔拉蒙古自治州,市党校,,23,13,22,9,11,73,,78,66,5,8,4,4,0.3,0.4
2024-09-27T1600,2694A,82.0806,44.8969,博尔塔拉蒙古自治州,市环保局,,,24,24,8,10,65,,74,62,8,8,5,4,,0.3
2024-09-27T1600,1071A,116.8842,38.2991,沧州市,沧县城建局,,49,41,31,27,17,156,,110,110,17,23,6,3,0.4,0.3
2024-09-27T1600,1072A,116.8584,38.3254,沧州市,电视转播站,,50,40,32,22,14,160,,118,118,18,22,2,2,0.3,0.3
2024-09-27T1600,1073A,116.8709,38.3228,沧州市,市环保局,,48,43,33,26,22,153,,112,112,15,21,6,4,0.3,0.2
2024-09-27T1600,3324A,116.8136,38.3004,沧州市,河北水利电力学院,臭氧1小时,58,53,29,30,18,166,,115,115,16,20,6,4,0.4,0.2
2024-09-27T1600,2622A,97.1806,31.1273,昌都市,昌都监测站,,,12,20,3,7,62,,44,44,,18,7,6,0.3,0.4
2024-09-27T1600,3719A,97.1714,31.1406,昌都市,昌都会议中心,,22,6,13,3,6,70,,53,53,2,8,7,8,0.1,0.2
2024-09-27T1600,2692A,87.2717,44.0297,昌吉回族自治州,新区政务中心,,23,17,16,16,15,47,,61,49,13,9,7,6,0.5,0.5
2024-09-27T1600,3613A,87.3095,44.0142,昌吉回族自治州,亚心广场,,22,22,19,7,4,43,,56,46,19,14,3,3,0.5,0.5
2024-09-27T1600,1119A,125.3325,43.9166,长春市,食品厂,,31,30,86,11,33,98,,77,77,10,45,7,7,0.3,0.7
2024-09-27T1600,1120A,125.2863,43.9027,长春市,客车厂,,33,,62,23,32,86,,68,68,18,50,8,8,0.3,0.8
2024-09-27T1600,1121A,125.2841,43.8463,长春市,邮电学院,,28,14,40,12,23,88,,73,73,11,31,8,8,0.2,0.5
2024-09-27T1600,1122A,125.3716,43.8772,长春市,劳动公园,,32,31,71,9,32,100,,77,77,13,42,9,9,0.2,0.6
2024-09-27T1600,1123A,125.3297,43.8805,长春市,园林处,,30,19,60,11,27,95,,80,80,13,42,6,6,0.4,0.7
2024-09-27T1600,1124A,125.4605,43.79,长春市,净月潭,,30,7,16,7,8,94,,82,82,5,8,6,6,0.3,0.3
2024-09-27T1600,1126A,125.3863,43.8447,长春市,经开区环卫处,,31,16,47,8,20,97,,76,76,10,37,8,9,0.3,0.5
2024-09-27T1600,1127A,125.245,43.7783,长春市,高新区管委会,,30,18,47,8,19,96,,72,72,12,37,6,6,0.4,0.6
2024-09-27T1600,1128A,125.1761,43.8325,长春市,岱山公园,,29,21,53,16,28,90,,69,69,13,51,5,5,0.3,0.7
2024-09-27T1600,1335A,113.0833,28.2325,长沙市,经开区环保局,臭氧1小时,102,60,91,37,71,203,,152,152,13,28,1,5,0.6,0.7
2024-09-27T1600,1336A,112.8872,28.2189,长沙市,高开区环保局,臭氧1小时,121,94,107,71,80,241,,177,177,12,32,4,6,0.7,0.7
2024-09-27T1600,1337A,113.0792,28.2053,长沙市,马坡岭,臭氧1小时,123,84,93,59,65,245,,172,172,7,27,4,6,0.7,0.7
2024-09-27T1600,1338A,112.9394,28.19,长沙市,湖南师范大学,臭氧1小时,122,97,96,50,65,244,,178,178,11,23,6,6,0.7,0.7
2024-09-27T1600,1339A,113.0178,28.1322,长沙市,雨花区环保局,臭氧1小时,117,85,88,56,59,233,,165,165,10,31,6,8,0.7,0.8
2024-09-27T1600,1340A,112.9792,28.2597,长沙市,伍家岭,臭氧1小时,95,71,97,35,73,196,,163,163,6,29,2,4,0.8,1
2024-09-27T1600,1341A,113.0014,28.1944,长沙市,火车新站,臭氧1小时,108,86,96,58,64,216,,161,161,12,27,4,6,0.8,0.8
2024-09-27T1600,1342A,112.9844,28.1178,长沙市,天心区环保局,臭氧1小时,108,76,93,52,66,215,,145,145,16,37,4,5,0.5,0.6
2024-09-27T1600,1343A,112.8908,28.1308,长沙市,湖南中医药大学,臭氧1小时,114,73,107,45,76,227,,163,163,11,36,5,6,0.7,0.9
2024-09-27T1600,1344A,112.9581,28.3611,长沙市,沙坪,臭氧1小时,104,51,89,35,58,208,,164,164,6,10,8,8,0.2,0.5
2024-09-27T1600,1727A,113.1147,36.1547,长治市,清华站,细颗粒物(PM2.5),62,,70,44,69,131,,113,113,13,21,7,8,0.8,1.2
2024-09-27T1600,1728A,113.1031,36.1989,长治市,监测站,细颗粒物(PM2.5),58,44,76,41,61,115,,110,110,20,26,10,12,0.9,1.3
2024-09-27T1600,1730A,113.0886,36.2125,长治市,审计局,细颗粒物(PM2.5),64,62,75,46,65,123,,106,106,18,29,6,9,0.6,1
2024-09-27T1600,1731A,113.0844,36.1856,长治市,长治八中,颗粒物(PM10),52,53,92,23,50,126,,108,108,14,25,7,8,0.9,1.3
2024-09-27T1600,2845A,113.1569,36.1911,长治市,德盛苑,细颗粒物(PM2.5),52,47,66,36,56,132,,116,116,14,16,4,5,1.0,1.2
2024-09-27T1600,3568A,113.06,36.0464,长治市,向阳小学,颗粒物(PM10),51,51,88,32,64,138,,118,118,13,23,5,8,0.2,0.6
2024-09-27T1600,3569A,112.8792,36.3144,长治市,屯留一中,细颗粒物(PM2.5),64,54,86,46,78,135,,118,118,13,32,9,12,1.3,1.9
2024-09-27T1600,3570A,113.235,36.3489,长治市,潞城四中,细颗粒物(PM2.5),109,92,90,82,92,168,,163,163,12,16,7,6,0.8,0.9
2024-09-27T1600,1854A,111.6975,28.9703,常德市,市二中,臭氧1小时,87,77,99,53,82,189,,150,150,10,24,11,11,0.9,1
2024-09-27T1600,3138A,111.7153,29.0289,常德市,武陵区永安,臭氧1小时,90,85,121,64,92,192,,167,167,10,26,10,16,0.7,0.8
2024-09-27T1600,3139A,111.6892,28.9881,常德市,鼎城区玉霞,臭氧1小时,99,94,116,61,83,199,,170,170,9,28,11,11,0.9,1
2024-09-27T1600,3140A,111.6625,29.0531,常德市,武陵区长庚,臭氧1小时,99,78,130,63,111,199,,158,158,11,27,11,17,0.7,0.8
2024-09-27T1600,1196A,119.9633,31.762,常州市,市监测站,臭氧1小时,75,29,33,19,16,180,,118,118,14,22,8,8,0.6,0.6
2024-09-27T1600,1200A,119.9468,31.7069,常州市,武进监测站,臭氧1小时,65,28,31,17,16,172,,121,121,7,18,7,7,0.8,0.8
2024-09-27T1600,1201A,119.9255,31.9087,常州市,安家,臭氧1小时,63,31,36,26,22,170,,126,126,18,22,13,10,0.7,0.5
2024-09-27T1600,3002A,119.9805,31.8174,常州市,行政中心,臭氧1小时,64,20,39,20,16,171,,120,120,10,22,12,13,0.5,0.5
2024-09-27T1600,3003A,120.0522,31.7748,常州市,经开区,臭氧1小时,77,32,29,18,16,181,,126,126,13,34,7,7,0.6,0.4
2024-09-27T1600,3010A,119.9025,31.7964,常州市,钟楼,臭氧1小时,60,28,28,13,15,168,,114,114,11,21,9,9,0.6,0.6
2024-09-27T1600,3429A,119.8598,31.7066,常州市,武进经发区,臭氧1小时,60,27,28,14,12,168,,116,116,11,23,9,9,0.8,0.8
2024-09-27T1600,3430A,119.5826,31.7245,常州市,金坛城区,臭氧1小时,60,25,29,16,17,168,,108,108,13,28,8,9,0.6,0.7
2024-09-27T1600,2220A,120.4318,41.5881,朝阳市,西梁,,39,29,47,14,20,122,,82,82,8,27,11,10,0.6,0.7
2024-09-27T1600,2221A,120.4521,41.5646,朝阳市,河畔小区,,41,39,36,19,16,129,,81,81,7,19,11,9,0.7,0.7
2024-09-27T1600,2222A,120.4176,41.5648,朝阳市,八里堡,,46,46,49,17,20,125,,87,87,14,34,10,10,0.9,0.8
2024-09-27T1600,2223A,120.3806,41.5969,朝阳市,农业园区,,39,38,36,22,21,122,,84,84,7,21,10,9,0.6,0.5
2024-09-27T1600,1705A,116.6367,23.6719,潮州市,西园路,,,,29,20,16,50,,40,,7,10,3,3,0.2,0.3
2024-09-27T1600,3026A,116.6183,23.6608,潮州市,市政府,,34,34,34,12,18,64,,80,78,6,10,5,7,0.3,0.5
2024-09-27T1600,4036A,116.6461,23.6761,潮州市,金山,,22,22,24,6,16,57,,62,62,3,7,6,6,0.7,0.7
2024-09-27T1600,2472A,113.0073,25.9061,郴州市,马头岭,,39,39,35,15,14,103,,66,66,11,11,7,7,0.3,0.3
2024-09-27T1600,2473A,113.0116,25.8226,郴州市,市职中,,35,,40,24,29,101,,71,71,6,14,5,5,0.5,0.7
2024-09-27T1600,2474A,113.0161,25.8001,郴州市,兴隆步行街,,40,40,48,15,27,98,,68,68,9,18,4,4,0.6,0.8
2024-09-27T1600,2475A,113.0383,25.8071,郴州市,市审计局,,38,27,41,26,32,106,,72,72,4,14,5,4,0.5,0.7
2024-09-27T1600,2476A,113.0348,25.7759,郴州市,市环保局,,33,31,45,18,29,104,,67,67,7,16,6,5,0.6,0.7
2024-09-27T1600,1431A,103.9728,30.7236,成都市,金泉两河,臭氧1小时,113,58,73,29,31,226,,153,153,14,29,3,6,0.7,0.8
2024-09-27T1600,1432A,104.176,30.6872,成都市,十里店,臭氧1小时,87,49,79,28,54,189,,130,130,8,46,4,5,0.6,0.8
2024-09-27T1600,1433A,104.079,30.5706,成都市,三瓦窑,臭氧1小时,107,51,67,42,50,213,,147,147,8,51,3,4,0.5,0.7
2024-09-27T1600,1434A,104.1114,30.63,成都市,沙河铺,臭氧1小时,89,65,70,29,49,191,,131,131,15,44,4,4,0.6,0.8
2024-09-27T1600,1437A,104.0786,30.6531,成都市,君平街,臭氧1小时,110,71,82,40,63,220,,153,153,15,36,3,5,0.7,0.9
2024-09-27T1600,2880A,104.0239,30.65639,成都市,大石西路,臭氧1小时,112,74,81,50,58,224,,152,152,14,34,4,6,0.7,0.8
2024-09-27T1600,3136A,104.2725,30.5589,成都市,龙泉驿区区政府,臭氧1小时,58,34,44,31,32,166,,138,138,7,13,3,2,0.5,0.6
2024-09-27T1600,3357A,104.0106,30.6931,成都市,金博路,臭氧1小时,106,60,76,39,50,211,,141,141,9,37,1,4,0.7,0.8
2024-09-27T1600,3359A,104.0578,30.5225,成都市,华阳,臭氧1小时,67,51,65,36,48,173,,130,130,6,32,4,4,0.7,0.8
2024-09-27T1600,3487A,104.2394,30.5319,成都市,车城东七路,臭氧1小时,72,51,54,34,41,177,,138,138,7,22,4,4,0.4,0.7
2024-09-27T1600,3488A,104.3853,30.7453,成都市,青白江技师分院,臭氧1小时,93,46,46,28,36,194,,147,147,8,42,4,3,0.6,0.7
2024-09-27T1600,3489A,104.0789,30.4072,成都市,科学城,臭氧1小时,65,48,56,40,45,172,,139,139,4,26,4,5,0.7,0.8
2024-09-27T1600,4011A,103.8506,30.6947,成都市,光华大道三段,臭氧1小时,120,74,67,55,47,240,,165,165,12,23,4,7,0.6,0.7
2024-09-27T1600,1062A,117.9531,40.9081,承德市,铁路,,44,44,30,25,12,83,,50,50,30,29,10,9,0.5,0.3
2024-09-27T1600,1063A,117.9392,40.9763,承德市,中国银行,,42,42,35,19,14,98,,69,69,19,24,8,6,0.6,0.5
2024-09-27T1600,1064A,117.9503,40.928,承德市,开发区,,48,48,34,20,15,97,,59,59,22,27,10,8,0.6,0.4
2024-09-27T1600,1065A,117.8051,40.9655,承德市,文化中心,细颗粒物(PM2.5),53,52,46,37,17,93,,54,54,13,27,9,10,0.5,0.5
2024-09-27T1600,1066A,117.9268,41.0026,承德市,离宫,颗粒物(PM10),55,60,35,27,27,70,,58,58,10,12,1,2,0.6,0.5
2024-09-27T1600,2314A,117.47,30.6618,池州市,池州学院,,28,16,48,8,32,88,,57,57,14,18,7,8,0.6,0.7
2024-09-27T1600,3237A,117.4918,30.6617,池州市,展览馆,,27,16,48,9,28,86,,62,62,16,17,9,6,0.6,0.9
2024-09-27T1600,3333A,117.5627,30.695,池州市,第八中学,,25,18,45,10,26,79,,53,53,18,18,6,5,0.8,0.7
2024-09-27T1600,3334A,117.5038,30.6243,池州市,第十二中学,,26,16,44,9,32,82,,55,55,17,15,6,5,0.8,0.9
2024-09-27T1600,1744A,118.9233,42.2816,赤峰市,松山一中,,31,25,29,13,13,98,,65,,20,28,10,10,0.4,0.6
2024-09-27T1600,1745A,118.9576,42.2728,赤峰市,哈达街,,35,28,27,24,17,106,,97,97,13,17,9,10,0.5,0.5
2024-09-27T1600,1746A,118.8788,42.2554,赤峰市,天义路,,32,13,20,11,14,100,,97,97,17,21,6,7,0.3,0.3
2024-09-27T1600,3058A,119.2658,42.0353,赤峰市,银河街,,40,28,49,19,25,126,,94,94,13,21,15,25,0.6,0.7
2024-09-27T1600,3286A,118.9359,42.3147,赤峰市,桥北物流园区,,43,,44,30,23,109,,96,96,17,34,10,14,0.6,0.8
2024-09-27T1600,2521A,107.3476,22.4136,崇左市,市环保局江州分局,细颗粒物(PM2.5),58,50,51,41,33,116,,88,88,4,11,4,3,0.8,0.8
2024-09-27T1600,2522A,107.3702,22.3707,崇左市,城南新区,细颗粒物(PM2.5),59,49,40,42,29,127,,99,99,4,11,4,4,0.9,0.9
2024-09-27T1600,2298A,118.3093,32.3153,滁州市,老年大学,臭氧1小时,53,38,34,22,21,162,,136,136,12,11,6,8,0.4,0.3
2024-09-27T1600,2299A,118.3244,32.2786,滁州市,人大宾馆,臭氧1小时,55,43,40,22,22,164,,129,129,12,12,7,6,0.4,0.4
2024-09-27T1600,3207A,118.3118,32.3038,滁州市,市政府原办公楼,臭氧1小时,52,34,34,29,26,161,,128,128,10,13,6,6,0.4,0.4
2024-09-27T1600,3331A,118.3267,32.2634,滁州市,图书馆,臭氧1小时,53,39,34,18,19,162,,128,128,9,10,5,6,0.4,0.3
2024-09-27T1600,2605A,101.5482,25.0441,楚雄彝族自治州,州环境监测站,,17,13,19,7,17,53,,51,51,3,15,9,13,0.5,0.6
2024-09-27T1600,2606A,101.538,25.0492,楚雄彝族自治州,市经济开发区,,17,10,21,9,15,53,,49,49,3,14,5,8,0.6,0.6
2024-09-27T1600,2548A,107.5277,31.2827,达州市,达州职业技术学院,,45,43,71,25,47,142,,113,113,9,36,6,8,0.7,0.8
2024-09-27T1600,2549A,107.5086,31.2186,达州市,市环境监测站,颗粒物(PM10),52,53,80,24,43,148,,116,116,14,37,7,8,0.4,0.7
2024-09-27T1600,2550A,107.4988,31.2132,达州市,凤凰小区,,50,44,65,19,43,157,,139,139,12,31,8,9,0.4,0.7
2024-09-27T1600,2551A,107.5082,31.1986,达州市,达县机关宾馆,,47,39,69,25,42,148,,123,123,18,46,6,7,0.4,0.6
2024-09-27T1600,2552A,107.4644,31.2124,达州市,市政中心,颗粒物(PM10),51,51,70,27,45,158,,122,122,11,39,5,7,0.3,0.7
2024-09-27T1600,2614A,100.1542,25.7054,大理白族自治州,大理市环境监测站,,22,22,16,3,13,44,,52,45,6,6,6,6,0.6,0.6
2024-09-27T1600,2615A,100.2171,25.5811,大理白族自治州,大理古城,,33,33,21,11,12,71,,63,63,11,10,8,7,0.4,0.4
2024-09-27T1600,1109A,121.612,38.9741,大连市,甘井子,,45,38,32,15,14,142,,123,123,15,20,9,8,0.7,0.4
2024-09-27T1600,1110A,121.565,38.9511,大连市,周水子,,42,42,30,14,14,130,,108,108,16,33,8,8,0.4,0.7
2024-09-27T1600,1111A,121.5637,38.8845,大连市,星海三站,臭氧1小时,53,27,26,14,13,162,,119,119,12,14,10,8,0.4,0.3
2024-09-27T1600,1112A,121.6302,38.9117,大连市,青泥洼桥,,44,20,32,10,15,140,,112,112,15,25,8,8,0.2,0.1
2024-09-27T1600,1113A,121.6251,38.8638,大连市,傅家庄,,39,23,27,10,13,122,,100,100,10,16,8,7,0.4,0.3
2024-09-27T1600,1114A,121.5213,38.8661,大连市,七贤岭,臭氧1小时,60,23,28,15,14,168,,130,130,16,14,9,7,0.5,0.5
2024-09-27T1600,1115A,121.2529,38.8061,大连市,旅顺,,42,20,21,12,14,134,,125,125,11,13,6,6,0.4,0.4
2024-09-27T1600,1116A,121.7485,39.1311,大连市,金州,,44,18,26,12,17,140,,113,113,14,16,8,7,0.5,0.5
2024-09-27T1600,1117A,121.7811,39.0496,大连市,开发区,,42,28,30,15,16,132,,113,113,15,14,2,5,0.5,0.5
2024-09-27T1600,1118A,121.9762,39.0631,大连市,双D港,,43,17,32,8,16,137,,116,116,13,18,7,9,0.6,0.7
2024-09-27T1600,1789A,124.81117,46.03138,大庆市,大同区,,27,18,37,16,25,86,,85,85,10,19,3,4,0.4,0.5
2024-09-27T1600,1790A,125.129,46.533,大庆市,龙凤区,,,,48,,23,90,,89,89,13,23,3,6,0.2,0.5
2024-09-27T1600,1791A,124.902,46.408,大庆市,红岗区,,31,21,30,8,21,98,,94,94,7,14,6,6,0.3,0.4
2024-09-27T1600,1792A,125.153,46.586,大庆市,萨尔图区,,29,23,32,11,16,92,,84,84,10,20,6,6,0.2,0.3
2024-09-27T1600,1793A,124.9042,46.6215,大庆市,让胡路区,,30,30,39,14,21,94,,96,96,11,17,4,9,0.3,0.3
2024-09-27T1600,3481A,125.141,46.634,大庆市,萨区政府监测点,,32,20,24,3,14,100,,94,94,6,14,6,7,0.2,0.2
2024-09-27T1600,1723A,113.2994,40.0758,大同市,云冈宾馆,细颗粒物(PM2.5),57,47,68,40,46,139,,118,118,16,25,8,8,0.8,0.8
2024-09-27T1600,1724A,113.3444,40.0917,大同市,大同大学,细颗粒物(PM2.5),52,42,53,36,39,136,,117,117,12,24,6,7,0.6,0.7
2024-09-27T1600,1725A,113.2661,40.1269,大同市,安家小村,,48,43,69,33,44,142,,119,119,14,24,11,12,0.7,0.7
2024-09-27T1600,1726A,113.2711,40.0844,大同市,教育学院,细颗粒物(PM2.5),57,48,78,40,44,136,,114,114,21,36,8,9,0.7,0.8
2024-09-27T1600,3282A,113.3397,40.0597,大同市,大同市卫生学校,颗粒物(PM10),53,56,68,34,41,135,,125,125,13,21,8,7,0.5,0.7
2024-09-27T1600,3565A,113.1367,40.1122,大同市,云冈站,颗粒物(PM10),64,78,94,36,49,138,,122,122,16,23,10,10,0.6,0.6
2024-09-27T1600,3566A,113.1186,40.2556,大同市,图书馆,细颗粒物(PM2.5),55,56,69,39,48,140,,115,115,17,22,9,13,0.7,0.8
2024-09-27T1600,3567A,113.5931,40.0461,大同市,区一中,,47,47,53,28,28,131,,120,120,12,16,7,8,0.8,0.8
2024-09-27T1600,3676A,113.2802,40.0995,大同市,第二人民医院,细颗粒物(PM2.5),54,55,66,38,41,142,,122,122,16,23,11,12,0.6,0.6
2024-09-27T1600,2269A,124.1069,50.4097,大兴安岭地区,科技局,,32,32,32,14,20,102,,76,76,5,9,7,7,0.4,0.4
2024-09-27T1600,3663A,124.1164,50.4278,大兴安岭地区,红旗社区,,32,29,30,19,21,102,,72,72,6,18,4,7,0.4,0.4
2024-09-27T1600,1600A,124.3303,40.0625,丹东市,江湾东路,,33,24,20,13,10,104,,80,80,8,15,10,10,0.4,0.6
2024-09-27T1600,1601A,124.4256,40.1503,丹东市,临江后街,,35,15,20,3,8,109,,85,85,5,16,7,8,0.5,0.6
2024-09-27T1600,1602A,124.3933,40.1461,丹东市,元宝山,,30,15,16,9,9,95,,72,72,6,9,4,4,0.6,0.6
2024-09-27T1600,1603A,124.3633,40.1092,丹东市,民主桥,,35,18,21,8,8,109,,81,81,11,19,6,5,0.5,0.6
2024-09-27T1600,3541A,109.5726,19.5167,儋州市,第一中学子站,,26,13,25,10,15,81,,71,71,1,3,4,4,0.8,0.8
2024-09-27T1600,3542A,109.5567,19.5187,儋州市,东坡学校子站,,32,16,24,8,15,100,,81,81,2,5,6,5,0.6,0.6
2024-09-27T1600,2616A,98.5842,24.428,德宏傣族景颇族自治州,德宏州监测站,,26,22,28,15,13,81,,50,50,8,15,14,9,0.5,0.7
2024-09-27T1600,3677A,98.5881,24.4368,德宏傣族景颇族自治州,芒市人民政府综合楼,,28,26,20,10,13,89,,59,59,8,13,12,9,0.4,0.8
2024-09-27T1600,1901A,104.4239,31.1208,德阳市,东山公园,臭氧1小时,67,48,66,28,41,173,,125,125,13,22,4,4,0.6,0.8
2024-09-27T1600,1902A,104.3826,31.1317,德阳市,西小区,臭氧1小时,62,44,74,33,53,169,,123,123,23,35,4,4,0.6,0.9
2024-09-27T1600,1904A,104.3553,31.1091,德阳市,耐火材料厂,臭氧1小时,54,55,94,31,57,163,,123,123,31,42,4,7,0.6,0.9
2024-09-27T1600,3639A,104.4019,31.1244,德阳市,市教育局,臭氧1小时,68,50,70,24,44,174,,128,128,10,33,2,2,0.6,0.8
2024-09-27T1600,1622A,116.3032,37.4674,德州市,儿童乐园,臭氧1小时,107,110,61,63,31,214,,143,143,19,26,12,12,0.8,0.6
2024-09-27T1600,1624A,116.2991,37.4451,德州市,监理站,臭氧1小时,112,100,51,73,33,224,,148,148,17,24,13,12,0.7,0.5
2024-09-27T1600,3066A,116.2721,37.4379,德州市,九衢泉纯净水厂,臭氧1小时,107,97,50,61,29,214,,140,140,18,26,11,11,0.9,0.6
2024-09-27T1600,3371A,116.3728,37.4403,德州市,开发区人民医院,臭氧1小时,108,97,49,56,25,215,,139,139,13,25,12,11,0.9,0.6
2024-09-27T1600,3372A,116.3572,37.4094,德州市,太阳城中学,臭氧1小时,106,97,50,51,26,212,,136,136,19,32,11,10,0.9,0.6
2024-09-27T1600,3511A,116.5652,37.3319,德州市,陵城艺术中心,臭氧1小时,102,100,46,63,24,204,,136,136,24,26,15,13,0.9,0.7
2024-09-27T1600,2621A,99.7056,27.8317,迪庆藏族自治州,迪庆州站,,15,13,12,3,9,45,,44,44,7,9,8,8,0.4,0.4
2024-09-27T1600,3180A,99.7136,27.8094,迪庆藏族自治州,质量技术监督局,,15,15,14,3,6,46,,45,45,7,9,6,6,0.4,0.5
2024-09-27T1600,2663A,104.6241,35.5734,定西市,东关小学,,34,34,30,19,25,106,,99,99,5,10,6,5,0.3,0.2
2024-09-27T1600,2664A,104.6194,35.5934,定西市,供电公司,,40,37,35,28,24,114,,104,104,2,6,9,7,0.4,0.4
2024-09-27T1600,1389A,113.7547,23.0494,东莞市,莞城梨川,臭氧1小时,95,54,52,26,29,196,,117,117,28,42,6,6,0.9,0.9
2024-09-27T1600,1390A,113.7944,23.0128,东莞市,东城石井,臭氧1小时,100,45,41,32,25,200,,141,141,17,28,8,7,0.8,0.8
2024-09-27T1600,1391A,113.7383,22.9658,东莞市,南城西平,臭氧1小时,101,55,43,41,25,202,,143,143,19,36,11,9,0.8,0.9
2024-09-27T1600,3319A,113.7338,23.0381,东莞市,万江金泰,臭氧1小时,108,56,50,32,27,215,,136,136,27,42,12,10,0.7,0.8
2024-09-27T1600,3626A,113.7533,23.0202,东莞市,南城元岭,臭氧1小时,95,66,48,38,25,196,,130,130,20,37,10,9,0.8,0.9
2024-09-27T1600,3627A,113.7875,23.0457,东莞市,东城主山,臭氧1小时,108,54,47,29,28,215,,141,141,24,37,11,10,0.7,0.7
2024-09-27T1600,1666A,118.6614,37.4309,东营市,市环保局,,50,36,18,9,5,160,,126,126,14,12,15,5,0.2,0.2
2024-09-27T1600,3036A,118.6904,37.4338,东营市,开发区管委会,臭氧1小时,52,44,21,14,9,161,,126,126,14,15,13,5,0.2,0.2
2024-09-27T1600,3365A,118.5719,37.565,东营市,垦利区民丰路,,42,22,18,12,8,134,,106,106,11,16,11,11,0.3,0.3
2024-09-27T1600,3498A,118.5055,37.8612,东营市,河口城区,,40,31,22,17,9,125,,113,113,9,11,6,6,0.1,0.2
2024-09-27T1600,3646A,118.4978,37.4623,东营市,胜利站,,45,,19,9,6,144,,112,112,14,14,11,8,0.1,0.1
2024-09-27T1600,3734A,118.35,37.26,东营市,理想之城,,,34,19,,11,147,,114,114,19,19,16,5,0.1,0.1
2024-09-27T1600,1591A,110.0023,39.8129,鄂尔多斯市,综合楼,颗粒物(PM10),71,92,74,39,33,156,,148,148,15,17,13,14,0.8,0.8
2024-09-27T1600,1592A,109.9486,39.8261,鄂尔多斯市,巴音孟克林场办事处,颗粒物(PM10),75,100,77,36,36,153,,143,143,17,20,8,8,0.7,0.7
2024-09-27T1600,1593A,109.7736,39.5986,鄂尔多斯市,康泽苑,细颗粒物(PM2.5),58,63,64,41,40,163,,150,150,12,15,11,10,0.9,0.9
2024-09-27T1600,1594A,109.8119,39.5989,鄂尔多斯市,华泰汽车城,细颗粒物(PM2.5),64,61,58,46,38,147,,136,136,11,17,10,10,0.7,0.7
2024-09-27T1600,1595A,109.9734,39.7884,鄂尔多斯市,奥林花园,颗粒物(PM10),68,85,72,34,36,140,,130,130,17,22,6,7,0.8,0.8
2024-09-27T1600,2436A,114.8938,30.3994,鄂州市,市政府,臭氧1小时,70,28,69,26,42,176,,149,149,13,27,13,15,1.1,1.2
2024-09-27T1600,2437A,114.8989,30.3714,鄂州市,赵家坝,臭氧1小时,54,38,73,21,38,163,,151,151,11,26,10,14,0.6,0.8
2024-09-27T1600,3654A,114.8094,30.4089,鄂州市,精准医疗中心,臭氧1小时,65,38,71,16,44,172,,151,151,12,25,6,9,0.6,0.8
2024-09-27T1600,2454A,109.4978,30.2981,恩施土家族苗族自治州,湖北民院,,49,42,55,34,41,150,,134,134,11,20,10,10,0.6,0.7
2024-09-27T1600,2455A,109.4707,30.2798,恩施土家族苗族自治州,州电力总公司,,44,40,52,28,38,140,,118,118,10,25,8,8,0.6,0.8
2024-09-27T1600,3549A,109.5061,30.3772,恩施土家族苗族自治州,龙凤新区,,50,45,48,35,35,157,,134,134,11,15,7,6,0.7,0.8
2024-09-27T1600,2499A,108.3411,21.6158,防城港市,沙万,颗粒物(PM10),60,70,42,32,28,116,,105,105,15,21,14,13,0.8,0.8
2024-09-27T1600,2500A,108.3514,21.7731,防城港市,防城档案局,细颗粒物(PM2.5),60,56,39,43,30,131,,90,90,26,10,18,11,1.4,0.8
2024-09-27T1600,2501A,108.3506,21.6414,防城港市,大海花园,颗粒物(PM10),67,83,38,31,25,111,,102,102,23,12,11,11,1.0,1
2024-09-27T1600,1371A,113.1294,23.0067,佛山市,湾梁,臭氧1小时,58,36,38,24,20,166,,118,118,16,35,8,10,0.7,0.8
2024-09-27T1600,1372A,113.1083,23.0478,佛山市,华材职中,,45,39,47,25,25,144,,110,110,27,44,8,10,0.5,0.6
2024-09-27T1600,1373A,113.144,23.0453,佛山市,南海气象局,,44,38,40,24,25,140,,115,115,9,33,7,10,0.5,0.7
2024-09-27T1600,1374A,113.2881,22.8094,佛山市,顺德苏岗,臭氧1小时,52,34,34,17,18,161,,122,122,12,27,8,8,0.7,0.8
2024-09-27T1600,1376A,112.8383,22.8678,佛山市,高明孔堂,,38,36,31,23,18,119,,98,98,9,12,5,6,0.5,0.5
2024-09-27T1600,1377A,112.8836,23.1588,佛山市,三水监测站,,41,34,36,16,19,129,,96,96,15,37,8,9,0.5,0.6
2024-09-27T1600,1378A,112.867,23.185,佛山市,三水云东海,,33,24,35,23,19,101,,101,101,22,31,9,13,0.6,0.9
2024-09-27T1600,3625A,113.2544,22.7642,佛山市,容桂街道办,臭氧1小时,57,24,29,22,21,165,,113,113,15,29,7,7,0.7,0.8
2024-09-27T1600,1282A,119.2681,26.0504,福州市,师大,,24,20,19,10,7,75,,80,80,8,11,1,1,0.3,0.4
2024-09-27T1600,1283A,119.2984,26.1028,福州市,五四北路,,28,28,19,18,7,74,,79,79,8,11,3,3,0.4,0.4
2024-09-27T1600,1284A,119.2648,26.0768,福州市,杨桥西路,,23,,18,12,7,72,,85,85,9,10,3,3,0.4,0.4
2024-09-27T1600,1285A,119.317,26.0746,福州市,紫阳,,22,19,20,15,7,46,,67,67,30,17,4,4,0.5,0.4
2024-09-27T1600,3048A,119.5799,26.0936,福州市,九龙,,30,16,22,10,5,93,,73,73,3,7,6,6,0.3,0.4
2024-09-27T1600,3526A,119.5189,25.9664,福州市,吴航,,28,16,19,9,9,89,,64,64,4,11,6,6,0.4,0.4
2024-09-27T1600,1755A,123.7977,41.8491,抚顺市,望花区,,35,16,50,11,19,111,,82,82,10,26,7,19,0.4,0.5
2024-09-27T1600,1756A,123.9161,41.8822,抚顺市,顺城区,,35,17,34,7,17,111,,79,79,9,25,7,7,0.4,0.5
2024-09-27T1600,1757A,124.0436,41.8611,抚顺市,东洲区,,35,14,23,3,12,109,,81,81,9,15,10,7,0.3,0.4
2024-09-27T1600,1758A,123.9247,41.8642,抚顺市,新抚区,,36,21,31,7,11,113,,86,86,17,27,4,4,0.2,0.4
2024-09-27T1600,1759A,124.0972,41.8961,抚顺市,大伙房水库,,35,19,22,6,14,112,,86,86,6,13,7,6,0.3,0.4
2024-09-27T1600,1760A,123.7086,41.8391,抚顺市,沈抚新城,,37,,27,17,21,117,,84,84,14,27,8,9,0.2,0.4
2024-09-27T1600,2377A,116.3544,27.9831,抚州市,市站,,48,48,36,28,21,106,,87,87,7,11,2,5,0.9,1
2024-09-27T1600,2378A,116.3565,27.963,抚州市,血防站,细颗粒物(PM2.5),53,42,36,37,31,112,,89,89,7,13,2,5,1.0,1
2024-09-27T1600,2379A,116.3564,28.0007,抚州市,采茶剧团,,45,42,34,31,23,109,,91,91,3,7,6,6,0.8,0.6
2024-09-27T1600,2380A,116.385,27.9647,抚州市,医学分院,,42,42,33,25,19,105,,88,88,6,10,4,6,0.8,0.7
2024-09-27T1600,2207A,121.6094,41.998,阜新市,工业园区,,40,33,62,10,15,128,,97,97,9,32,8,18,0.5,0.7
2024-09-27T1600,2208A,121.6697,42.0279,阜新市,长青街,,40,28,62,17,26,125,,95,95,12,30,10,18,0.4,0.8
2024-09-27T1600,2209A,121.6673,42.0705,阜新市,农业园区,,45,45,37,17,21,127,,100,100,13,16,12,24,0.3,0.4
2024-09-27T1600,2210A,121.6717,42.0224,阜新市,东苑,,38,35,69,11,30,121,,90,90,11,35,8,30,0.6,1
2024-09-27T1600,2211A,121.6506,42.0498,阜新市,玉龙新城,,44,28,46,20,17,138,,106,106,8,32,10,17,0.5,0.8
2024-09-27T1600,2301A,115.8277,32.8929,阜阳市,市监测站,,36,26,35,12,21,114,,96,96,9,14,6,8,0.5,0.5
2024-09-27T1600,2303A,115.8554,32.8605,阜阳市,开发区,,36,33,44,14,21,115,,94,94,12,18,5,7,0.5,0.5
2024-09-27T1600,2875A,115.784,32.8892,阜阳市,阜阳职业技术学院,,36,31,33,13,17,113,,94,94,10,13,6,7,0.4,0.4
2024-09-27T1600,3468A,115.7901,32.8613,阜阳市,市规划展馆,,37,27,36,11,22,117,,95,95,12,16,6,7,0.5,0.4
2024-09-27T1600,3469A,115.836,32.9183,阜阳市,枣园社区,,35,,36,16,22,109,,98,98,13,17,8,8,0.5,0.5
2024-09-27T1600,2669A,102.9099,34.9841,甘南藏族自治州,州政府,,27,15,43,7,19,84,,64,64,2,25,13,13,0.1,0.4
2024-09-27T1600,3380A,102.8914,34.9617,甘南藏族自治州,甘肃民族师范学院,,27,15,51,3,18,85,,61,61,5,26,4,5,0.3,0.4
2024-09-27T1600,2570A,101.9603,30.0475,甘孜藏族自治州,水桥子,,26,8,19,3,6,83,,39,39,3,20,5,6,0.2,0.3
2024-09-27T1600,3065A,101.9533,29.9972,甘孜藏族自治州,州环保局,,26,19,15,3,5,81,,43,43,7,16,3,3,0.2,0.2
2024-09-27T1600,3414A,115.8347,28.932,赣江新区,桑海产业园,,46,34,62,23,40,146,,137,137,10,22,10,14,0.4,0.6
2024-09-27T1600,2362A,114.9017,25.9149,赣州市,通天岩,,22,20,26,15,20,69,,90,90,3,3,7,6,0.4,0.3
2024-09-27T1600,2363A,114.9367,25.8664,赣州市,地委,,28,24,22,19,17,75,,73,73,6,8,5,5,1.1,1.1
2024-09-27T1600,2364A,114.9461,25.8481,赣州市,气象台,,29,29,24,18,17,71,,72,72,10,7,10,20,0.5,0.5
2024-09-27T1600,2365A,114.9322,25.8333,赣州市,市图书馆,,26,22,25,16,16,83,,83,83,5,6,4,6,0.6,0.7
2024-09-27T1600,2366A,114.8905,25.8471,赣州市,华坚鞋城,,27,27,23,11,14,74,,76,76,7,7,2,3,0.5,0.5
2024-09-27T1600,3109A,115.0093,25.8613,赣州市,赣县区卫计委,,28,23,24,19,15,75,,73,73,10,10,7,8,0.6,0.7
2024-09-27T1600,2684A,106.2792,36.0022,固原市,监测站,,,47,47,,37,142,,114,114,11,14,3,3,0.4,0.4
2024-09-27T1600,2685A,106.2375,36.0211,固原市,新区,颗粒物(PM10),54,58,48,36,36,134,,111,111,14,12,5,5,0.7,0.6
2024-09-27T1600,3522A,106.2177,35.9959,固原市,原州区十五小,细颗粒物(PM2.5),54,56,51,38,32,137,,111,111,12,12,6,5,0.9,0.7
2024-09-27T1600,2544A,106.6303,30.4576,广安市,市委,臭氧1小时,78,44,78,34,53,182,,145,145,8,24,4,3,0.4,0.7
2024-09-27T1600,2545A,106.6271,30.4663,广安市,友谊中学,臭氧1小时,70,42,73,34,51,176,,141,141,12,33,5,5,0.5,0.8
2024-09-27T1600,2547A,106.6388,30.4551,广安市,广电花园,臭氧1小时,75,42,78,28,51,180,,143,143,9,22,5,4,0.4,0.7
2024-09-27T1600,2902A,106.6351,30.4865,广安市,北辰小学,臭氧1小时,67,49,83,30,52,173,,142,142,18,21,8,8,0.4,0.7
2024-09-27T1600,2523A,105.8945,32.4535,广元市,黑石坡,细颗粒物(PM2.5),54,,48,38,44,141,,116,116,7,13,15,19,0.4,0.7
2024-09-27T1600,2524A,105.821,32.4444,广元市,老城,臭氧1小时,52,50,67,21,41,161,,109,109,6,37,2,7,1.0,1.3
2024-09-27T1600,2526A,105.8628,32.4287,广元市,监测站,,50,32,55,25,43,160,,114,114,6,17,4,5,0.5,0.7
2024-09-27T1600,3617A,105.8047,32.4166,广元市,经开区,细颗粒物(PM2.5),73,65,79,53,62,161,,107,107,11,31,6,14,0.6,0.9
2024-09-27T1600,1345A,113.2347,23.1423,广州市,广雅中学,臭氧1小时,65,44,38,26,23,172,,134,134,23,42,7,7,0.8,1
2024-09-27T1600,1346A,113.2612,23.105,广州市,市五中,臭氧1小时,90,44,36,30,26,192,,142,142,12,27,5,7,0.6,0.7
2024-09-27T1600,1348A,113.3478,23.0916,广州市,广东商学院,臭氧1小时,101,48,45,30,25,202,,143,143,21,46,5,6,0.7,0.8
2024-09-27T1600,1349A,113.4332,23.1047,广州市,市八十六中,臭氧1小时,80,43,45,25,24,184,,129,129,16,42,4,5,0.6,0.7
2024-09-27T1600,1350A,113.3505,22.9483,广州市,番禺中学,臭氧1小时,106,49,44,33,26,211,,132,132,18,38,6,7,0.7,0.8
2024-09-27T1600,1351A,113.2146,23.3916,广州市,花都师范,,40,36,40,25,22,127,,89,89,7,27,5,6,0.6,0.8
2024-09-27T1600,1352A,113.2597,23.1331,广州市,市监测站,臭氧1小时,73,36,30,18,12,178,,132,132,20,44,5,6,0.7,0.8
2024-09-27T1600,1353A,113.5618,23.312,广州市,九龙镇镇龙,,47,36,43,27,24,150,,109,109,13,30,7,6,0.7,0.8
2024-09-27T1600,1354A,113.2765,23.1544,广州市,麓湖,臭氧1小时,54,42,41,25,23,163,,131,131,14,33,6,6,0.6,0.7
2024-09-27T1600,1355A,113.443,23.3035,广州市,帽峰山森林公园,,38,27,28,14,15,121,,113,113,7,16,5,6,0.5,0.6
2024-09-27T1600,2846A,113.3221,23.1322,广州市,体育西,臭氧1小时,74,42,36,29,21,179,,135,135,16,35,6,7,0.7,0.7
2024-09-27T1600,3298A,113.5717,23.5491,广州市,从化街口,,40,26,33,19,21,128,,92,92,9,22,8,8,0.5,0.7
2024-09-27T1600,3299A,113.3472,23.3692,广州市,白云竹料,,48,48,54,21,28,131,,92,92,14,33,5,5,0.6,0.8
2024-09-27T1600,3300A,113.2981,23.237,广州市,白云嘉禾,,,38,57,18,28,132,,103,103,,42,7,8,0.7,1
2024-09-27T1600,3301A,113.4256,23.1716,广州市,黄埔科学城,,43,34,41,19,25,137,,113,113,11,34,7,7,0.7,0.8
2024-09-27T1600,3302A,113.3942,23.0483,广州市,番禺大学城,臭氧1小时,108,48,35,28,23,215,,145,145,17,40,8,9,0.4,0.4
2024-09-27T1600,3303A,113.4922,22.8168,广州市,南沙黄阁,臭氧1小时,99,44,46,29,21,199,,136,136,20,34,5,5,0.6,0.7
2024-09-27T1600,3304A,113.5342,22.7896,广州市,南沙街,臭氧1小时,82,48,40,25,20,185,,134,134,20,28,8,7,0.8,0.8
2024-09-27T1600,3443A,113.2902,23.5544,广州市,花都梯面,,30,25,28,17,15,94,,81,81,4,15,6,6,0.6,0.7
2024-09-27T1600,3445A,113.7858,23.7478,广州市,从化良口,,28,20,18,19,11,79,,67,67,7,9,8,7,0.7,0.8
2024-09-27T1600,3446A,113.8051,23.2614,广州市,增城荔城,臭氧1小时,63,39,35,26,25,170,,113,113,10,16,6,6,0.6,0.6
2024-09-27T1600,2506A,109.6047,23.0666,贵港市,江南子站,,44,44,71,25,38,132,,102,102,4,24,7,8,0.8,0.9
2024-09-27T1600,2507A,109.6014,23.0948,贵港市,贵城子站,,44,44,55,28,34,130,,102,102,7,20,7,8,0.7,0.8
2024-09-27T1600,2508A,109.5669,23.1065,贵港市,荷城子站,,44,44,57,24,25,129,,100,100,6,21,10,10,0.7,0.7
2024-09-27T1600,3405A,109.5886,23.1172,贵港市,新世纪学校,,43,41,43,26,22,135,,103,103,6,17,7,8,0.7,0.8
2024-09-27T1600,1439A,106.6899,26.5998,贵阳市,马鞍山,,34,29,34,17,18,107,,92,92,8,12,7,9,0.5,0.5
2024-09-27T1600,1440A,106.6971,26.5694,贵阳市,市环保站,,39,34,46,27,34,104,,93,93,14,17,5,7,0.5,0.5
2024-09-27T1600,1441A,106.6243,26.6266,贵阳市,鉴湖路,颗粒物(PM10),59,68,44,24,24,99,,88,88,5,12,4,7,0.4,0.4
2024-09-27T1600,1442A,106.7487,26.6343,贵阳市,燕子冲,,35,29,29,22,29,111,,99,99,7,13,5,7,0.5,0.5
2024-09-27T1600,1443A,106.6555,26.4365,贵阳市,碧云窝,,36,36,45,19,26,100,,90,90,5,10,6,9,0.4,0.4
2024-09-27T1600,1444A,106.694,26.5161,贵阳市,中院村,,31,31,43,19,29,90,,83,83,13,18,6,11,0.6,0.6
2024-09-27T1600,1445A,106.7109,26.6027,贵阳市,红边门,,49,36,45,34,33,102,,90,90,13,20,4,9,0.4,0.5
2024-09-27T1600,1446A,106.7164,26.5699,贵阳市,新华路,,34,,38,22,27,107,,98,98,7,16,4,8,0.4,0.4
2024-09-27T1600,1447A,106.674,26.5424,贵阳市,太慈桥,颗粒物(PM10),52,53,42,19,25,102,,93,93,9,20,4,7,0.4,0.5
2024-09-27T1600,1862A,110.4144,25.3167,桂林市,电子科大尧山校区,,32,,39,13,29,100,,76,76,3,9,3,8,0.6,0.7
2024-09-27T1600,1863A,110.2819,25.2697,桂林市,监测站,,45,,36,31,33,96,,78,78,5,12,7,9,0.6,0.7
2024-09-27T1600,1864A,110.3089,25.2708,桂林市,龙隐路小学,,32,25,31,22,27,97,,79,79,4,10,6,9,0.6,0.6
2024-09-27T1600,1865A,110.2869,25.2178,桂林市,八中,,26,24,33,18,23,82,,67,67,4,13,6,7,0.3,0.5
2024-09-27T1600,3403A,110.1764,25.2381,桂林市,创业大厦,,28,19,32,17,26,88,,67,67,6,17,6,8,0.5,0.5
2024-09-27T1600,3531A,110.296,25.1253,桂林市,旅游学院,,30,12,27,3,19,93,,73,73,3,12,5,11,0.3,0.4
2024-09-27T1600,2674A,100.2561,34.4714,果洛藏族自治州,玛沁县大武镇,,28,27,31,9,14,89,,73,73,3,10,7,8,0.4,0.4
2024-09-27T1600,1129A,126.5422,45.755,哈尔滨市,岭北,,,12,46,7,31,,,6,6,10,43,5,13,0.6,1.3
2024-09-27T1600,1130A,126.561,45.8167,哈尔滨市,松北商大,,25,25,73,16,23,79,,56,56,10,39,7,9,0.3,0.8
2024-09-27T1600,1131A,126.979,45.5419,哈尔滨市,阿城会宁,,25,14,37,8,15,79,,67,67,8,26,9,12,0.4,0.6
2024-09-27T1600,1132A,126.599,45.7222,哈尔滨市,南岗学府路,,30,30,92,3,32,92,,72,72,11,38,7,8,0.4,1
2024-09-27T1600,1133A,126.689,45.7733,哈尔滨市,太平宏伟公园,,26,26,97,15,34,74,,56,56,19,46,6,8,0.3,0.7
2024-09-27T1600,1134A,126.635,45.7667,哈尔滨市,道外承德广场,,32,32,81,10,28,71,,56,56,22,54,6,9,0.4,1.1
2024-09-27T1600,1135A,126.685,45.7319,哈尔滨市,香坊红旗大街,,27,17,101,9,35,86,,66,66,15,49,12,17,0.5,1.2
2024-09-27T1600,1136A,126.6411,45.7258,哈尔滨市,动力和平路,,27,26,64,12,26,84,,62,62,18,51,10,13,0.4,1
2024-09-27T1600,1137A,126.593,45.7478,哈尔滨市,道里建国路,,28,23,67,12,28,87,,66,66,10,54,16,22,0.3,1.2
2024-09-27T1600,1138A,126.615,45.61,哈尔滨市,平房东轻厂,,32,32,57,15,20,77,,63,63,23,49,6,7,0.2,0.6
2024-09-27T1600,1139A,126.595,45.9855,哈尔滨市,呼兰师专,,23,22,61,13,31,72,,60,60,17,38,6,6,0.4,0.9
2024-09-27T1600,1140A,126.6206,45.6842,哈尔滨市,省农科院,,26,22,92,9,27,82,,68,68,13,54,5,9,0.3,0.9
2024-09-27T1600,2688A,93.5128,42.8172,哈密市,地区监测站,颗粒物(PM10),77,104,72,20,20,108,,78,78,3,19,8,5,0.3,0.3
2024-09-27T1600,2689A,93.4961,42.8328,哈密市,哈密师范学校,颗粒物(PM10),66,82,68,21,24,115,,81,81,2,19,5,5,0.2,0.5
2024-09-27T1600,2671A,100.9048,36.9639,海北藏族自治州,海晏县西海镇,,33,19,26,14,17,104,,87,87,6,9,15,13,0.4,0.4
2024-09-27T1600,3867A,102.0738,36.5056,海东市,平安区公安北苑,颗粒物(PM10),57,64,66,19,29,149,,91,91,9,17,22,17,0.7,0.7
2024-09-27T1600,1410A,110.3232,20.0574,海口市,海南大学,,25,16,21,12,14,79,,95,95,7,12,3,3,0.4,0.4
2024-09-27T1600,1411A,110.283,20.0053,海口市,秀英海南医院,,,20,31,15,18,89,,93,93,9,15,,5,0.3,0.4
2024-09-27T1600,1412A,110.338,19.9969,海口市,海南师范大学,,31,21,25,15,16,97,,92,92,9,12,6,6,0.2,0.3
2024-09-27T1600,1413A,110.33,20.0356,海口市,龙华路环保局宿舍,,27,21,24,10,14,84,,95,95,5,9,4,4,0.3,0.4
2024-09-27T1600,3539A,110.5111,19.9736,海口市,桂林洋子站,,36,23,22,16,14,115,,92,92,4,9,7,6,0.4,0.4
2024-09-27T1600,2673A,100.6188,36.2866,海南藏族自治州,共和县恰卜恰镇,,25,,33,9,13,78,,66,66,3,19,3,11,0.3,0.6
2024-09-27T1600,2676A,97.3731,37.3753,海西蒙古族藏族自治州,德令哈市,,33,13,18,10,14,103,,92,92,6,7,9,10,0.4,0.4
2024-09-27T1600,1048A,114.5302,36.6116,邯郸市,东污水处理厂,臭氧1小时,97,109,123,68,98,197,,139,139,16,24,4,4,0.6,0.7
2024-09-27T1600,1049A,114.4918,36.5713,邯郸市,矿院,细颗粒物(PM2.5),100,109,133,75,98,195,,140,140,12,18,5,5,0.5,0.7
2024-09-27T1600,1050A,114.484,36.6133,邯郸市,丛台公园,臭氧1小时,94,87,123,61,86,195,,140,140,12,21,6,5,0.6,0.7
2024-09-27T1600,3458A,114.7895,36.5593,邯郸市,香泉濮院小区,臭氧1小时,102,114,149,56,94,203,,155,155,11,26,3,4,0.5,0.8
2024-09-27T1600,3580A,114.20016,36.44293,邯郸市,峰峰矿区临水派出所,臭氧1小时,103,108,124,58,74,205,,158,158,7,18,5,8,0.8,1.2
2024-09-27T1600,2635A,107.0154,33.0706,汉中市,市监测站,臭氧1小时,75,52,65,34,40,180,,161,161,5,15,9,9,0.6,0.7
2024-09-27T1600,2636A,107.0089,33.1138,汉中市,鑫源开发区,臭氧1小时,75,54,62,29,39,180,,160,160,6,19,10,11,0.5,0.6
2024-09-27T1600,2637A,107.007,33.0323,汉中市,南郑大河坎水厂,臭氧1小时,73,51,62,29,41,178,,148,148,6,15,9,9,0.6,0.7
2024-09-27T1600,1223A,120.2072,30.2111,杭州市,滨江,,33,16,29,10,15,104,,75,75,13,26,5,5,0.6,0.7
2024-09-27T1600,1224A,120.0633,30.2747,杭州市,西溪,,25,23,35,7,19,77,,59,59,20,30,5,6,0.6,0.8
2024-09-27T1600,1226A,120.3461,30.3153,杭州市,下沙,,31,24,29,11,12,98,,80,80,16,46,6,6,0.6,0.6
2024-09-27T1600,1227A,120.1269,30.2456,杭州市,卧龙桥,,36,20,27,7,20,114,,75,75,17,25,6,5,0.5,0.6
2024-09-27T1600,1228A,120.1903,30.2692,杭州市,浙江农大,,31,20,28,10,16,99,,67,67,26,40,8,8,0.4,0.5
2024-09-27T1600,1230A,120.1197,30.3119,杭州市,和睦小学,,36,17,26,12,18,115,,74,74,17,34,6,6,0.5,0.6
2024-09-27T1600,1231A,120.3019,30.4183,杭州市,临平镇,,33,10,27,9,10,105,,79,79,6,26,4,5,0.6,0.7
2024-09-27T1600,1232A,120.2697,30.1819,杭州市,城厢镇,,33,27,27,11,14,104,,92,92,18,34,7,7,0.4,0.6
2024-09-27T1600,1233A,120.0883,30.1808,杭州市,云栖,,29,18,20,9,13,91,,74,74,11,20,7,7,0.6,0.7
2024-09-27T1600,3557A,119.9464,30.0494,杭州市,镇二中,,44,24,28,17,19,138,,85,85,16,26,8,8,0.6,0.8
2024-09-27T1600,3558A,119.7183,30.2367,杭州市,市府大楼,,40,16,20,13,16,127,,82,82,18,23,6,6,0.6,0.7
2024-09-27T1600,3656A,120.1556,30.2864,杭州市,消防大队,,37,24,29,11,19,117,,74,74,14,29,8,8,0.7,0.8
2024-09-27T1600,1270A,117.1959,31.7848,合肥市,明珠广场,,38,22,25,9,16,119,,89,89,12,19,6,6,0.7,0.8
2024-09-27T1600,1271A,117.3072,31.8764,合肥市,三里街,,33,17,21,7,13,103,,82,82,10,14,6,7,0.5,0.5
2024-09-27T1600,1272A,117.2588,31.8707,合肥市,琥珀山庄,,37,22,22,8,21,116,,94,94,11,16,6,7,0.5,0.5
2024-09-27T1600,1274A,117.25,31.8571,合肥市,长江中路,,35,31,31,17,18,112,,90,90,12,15,7,7,0.6,0.6
2024-09-27T1600,1275A,117.266,31.9436,合肥市,庐阳区,,37,14,22,7,14,118,,98,98,12,15,5,5,0.5,0.6
2024-09-27T1600,1276A,117.336,31.8586,合肥市,瑶海区,,34,19,24,12,14,106,,90,90,10,16,3,3,0.6,0.6
2024-09-27T1600,1277A,117.3027,31.7964,合肥市,包河区,,32,14,23,7,14,102,,82,82,14,27,4,3,0.6,0.7
2024-09-27T1600,1278A,117.2776,31.7385,合肥市,滨湖新区,,34,19,26,3,16,108,,86,86,9,16,6,6,0.6,0.6
2024-09-27T1600,1279A,117.1318,31.8403,合肥市,高新区,,36,17,24,8,17,114,,86,86,8,15,8,8,0.7,0.8
2024-09-27T1600,3464A,117.3803,31.9147,合肥市,高教基地,,35,15,23,3,19,110,,88,88,7,11,4,4,0.4,0.4
2024-09-27T1600,3614A,79.924,37.0877,和田地区,地区环保局,颗粒物(PM10),125,200,302,58,87,95,,77,77,4,18,7,8,0.5,0.7
2024-09-27T1600,3615A,79.9131,37.113,和田地区,市环保局,颗粒物(PM10),144,238,316,48,86,101,,75,75,5,27,7,8,0.3,0.6
2024-09-27T1600,2516A,108.2011,24.715,河池市,东仁乐园,,49,49,42,26,30,88,,76,76,6,12,6,7,0.7,0.7
2024-09-27T1600,2517A,108.0497,24.6947,河池市,市环保站,,40,40,53,28,40,93,,79,79,6,13,10,12,0.5,0.5
2024-09-27T1600,2518A,108.0983,24.6989,河池市,市疾控中心,,36,36,42,22,28,83,,75,75,10,16,10,11,0.6,0.7
2024-09-27T1600,1696A,114.6778,23.7569,河源市,源西,,19,16,23,12,19,58,,52,52,4,16,4,4,0.6,0.8
2024-09-27T1600,1697A,114.6944,23.7586,河源市,东埔,,18,,22,10,14,57,,58,58,13,20,2,2,0.6,0.7
2024-09-27T1600,1698A,114.6892,23.7233,河源市,老城,,20,16,28,9,13,62,,62,62,4,14,2,2,0.6,0.7
2024-09-27T1600,1718A,115.4208,35.2464,菏泽市,气象局,臭氧1小时,101,60,124,29,64,202,,177,177,9,27,4,7,0.4,0.7
2024-09-27T1600,1719A,115.4747,35.2375,菏泽市,市政协,臭氧1小时,97,64,123,31,64,197,,170,170,12,28,6,8,0.4,0.6
2024-09-27T1600,3374A,115.5564,35.0891,菏泽市,定陶老年大学,臭氧1小时,84,61,117,31,60,187,,160,160,8,23,8,10,0.4,0.7
2024-09-27T1600,3647A,115.4702,35.2706,菏泽市,菏泽医专,臭氧1小时,99,66,130,24,79,199,,171,171,11,32,3,9,0.6,0.9
2024-09-27T1600,2514A,111.5264,24.4172,贺州市,环保小区,,26,24,40,18,21,57,,37,37,12,21,6,6,0.7,0.7
2024-09-27T1600,2515A,111.5608,24.4078,贺州市,政协大楼,,27,27,38,11,22,74,,51,51,9,22,4,7,0.6,0.7
2024-09-27T1600,3534A,111.4744,24.4553,贺州市,西湾,,25,22,28,15,17,77,,56,56,6,16,6,6,0.6,0.7
2024-09-27T1600,2385A,114.17,35.9019,鹤壁市,市监测站,臭氧1小时,108,89,116,48,87,215,,179,179,13,24,6,10,0.8,1.4
2024-09-27T1600,2386A,114.2956,35.7511,鹤壁市,市交警支队,臭氧1小时,107,88,124,59,83,213,,167,167,20,32,6,9,0.8,1.1
2024-09-27T1600,2387A,114.2878,35.7306,鹤壁市,迎宾馆,臭氧1小时,106,116,143,66,95,212,,168,168,20,30,5,10,0.8,1.1
2024-09-27T1600,3474A,114.2617,35.6822,鹤壁市,大新区,臭氧1小时,104,98,105,50,72,208,,166,166,18,27,8,13,0.8,1.2
2024-09-27T1600,3596A,114.1572,35.9603,鹤壁市,南山宾馆,臭氧1小时,104,84,128,55,87,208,,176,176,9,17,5,8,0.9,1.2
2024-09-27T1600,2244A,130.2537,47.3416,鹤岗市,哈啤分公司,,26,26,20,18,16,76,,70,70,7,6,14,14,0.6,0.6
2024-09-27T1600,2245A,130.2684,47.3086,鹤岗市,斯达机电,,,16,20,9,14,78,,69,69,,13,13,13,0,0.1
2024-09-27T1600,2246A,130.3114,47.3388,鹤岗市,东山纸板厂,,29,,38,20,17,66,,64,64,14,14,16,16,0.2,0.5
2024-09-27T1600,2247A,130.1097,47.3382,鹤岗市,五号水库,,26,21,11,7,7,81,,77,77,9,5,10,7,0.5,0.5
2024-09-27T1600,2263A,127.4833,50.2524,黑河市,交通局,,28,25,28,18,18,89,,64,64,12,15,7,7,0.4,0.4
2024-09-27T1600,2264A,127.5144,50.2341,黑河市,环保局,,31,25,22,8,14,97,,74,74,9,8,5,4,0.3,0.4
2024-09-27T1600,2265A,127.5291,50.2472,黑河市,大黑河岛,,,,,15,18,80,,54,54,12,11,1,2,0.1,0.1
2024-09-27T1600,1074A,115.6838,37.7541,衡水市,电机北厂,细颗粒物(PM2.5),93,92,65,69,45,178,,92,92,15,28,9,8,0.5,0.4
2024-09-27T1600,1075A,115.6303,37.7316,衡水市,市监测站,臭氧1小时,89,94,65,51,38,191,,106,106,18,27,10,9,0.6,0.5
2024-09-27T1600,3188A,115.6683,37.7217,衡水市,市城管局,臭氧1小时,95,94,63,54,41,196,,103,103,14,26,8,8,0.7,0.5
2024-09-27T1600,3459A,115.5989,37.5491,衡水市,地表水厂,,,82,56,44,32,160,,90,90,16,30,,7,0.5,0.4
2024-09-27T1600,2456A,112.5003,26.9167,衡阳市,原169医院,颗粒物(PM10),52,54,63,34,40,157,,117,117,13,14,5,7,0.8,1
2024-09-27T1600,2457A,112.6194,26.9258,衡阳市,衡阳化工总厂,颗粒物(PM10),52,54,68,31,53,143,,105,105,6,18,10,12,0.7,0.8
2024-09-27T1600,2458A,112.6211,26.8956,衡阳市,珠晖区环保局,,,38,62,,,129,,104,104,6,17,7,11,0.5,0.8
2024-09-27T1600,2459A,112.6197,26.8733,衡阳市,市委党校,,47,47,62,21,48,135,,99,99,5,20,9,12,0.7,0.9
2024-09-27T1600,2460A,112.6006,26.8919,衡阳市,市监测站,,43,30,54,6,35,135,,115,115,3,15,8,11,0.6,1
2024-09-27T1600,2461A,112.5664,26.9056,衡阳市,真空机电公司,颗粒物(PM10),51,51,62,32,41,146,,100,100,6,18,8,10,0.8,1.1
2024-09-27T1600,3399A,112.6703,26.882,衡阳市,师范学院,细颗粒物(PM2.5),58,41,60,41,35,142,,105,105,10,14,10,11,0.8,0.8
2024-09-27T1600,2608A,103.3772,23.3993,红河哈尼族彝族自治州,污水处理厂,,28,,33,19,28,62,,65,65,6,7,5,5,0.4,0.5
2024-09-27T1600,2609A,103.3861,23.35,红河哈尼族彝族自治州,监测站,,29,29,39,12,31,61,,65,65,4,6,9,8,0.5,0.5
2024-09-27T1600,3038A,103.3758,23.368,红河哈尼族彝族自治州,州图书馆,,20,20,34,10,20,62,,66,64,5,5,6,6,0.3,0.4
2024-09-27T1600,1090A,111.6507,40.7517,呼和浩特市,呼市一监,,48,48,59,24,30,151,,94,94,10,24,9,8,0.6,0.6
2024-09-27T1600,1091A,111.6572,40.8033,呼和浩特市,小召,颗粒物(PM10),53,56,55,26,31,138,,97,97,18,28,8,8,0.7,0.6
2024-09-27T1600,1094A,111.7516,40.8369,呼和浩特市,如意水处理厂,颗粒物(PM10),52,54,68,27,29,135,,94,94,15,34,8,8,0.6,0.6
2024-09-27T1600,1095A,111.7276,40.8062,呼和浩特市,二十九中,细颗粒物(PM2.5),53,53,54,37,34,144,,108,108,15,28,6,7,0.7,0.7
2024-09-27T1600,1096A,111.5512,40.7866,呼和浩特市,工大金川校区,细颗粒物(PM2.5),52,49,77,36,36,138,,81,81,15,43,4,6,0.6,0.7
2024-09-27T1600,1097A,111.717,40.7612,呼和浩特市,化肥厂生活区,颗粒物(PM10),56,61,67,31,31,138,,103,103,14,27,10,10,0.6,0.7
2024-09-27T1600,3698A,111.5968,40.8178,呼和浩特市,红旗小学,颗粒物(PM10),59,68,75,36,35,142,,95,95,20,46,6,8,0.6,0.6
2024-09-27T1600,3699A,111.6518,40.8389,呼和浩特市,海东办,颗粒物(PM10),56,61,63,37,33,144,,106,106,16,36,5,7,0.6,0.6
2024-09-27T1600,2192A,119.7594,49.2261,呼伦贝尔市,区环保局,,43,43,35,14,19,84,,84,84,19,16,4,4,0.4,0.4
2024-09-27T1600,3061A,119.7512,49.1577,呼伦贝尔市,国华电力东,,35,35,32,14,18,94,,92,92,8,10,4,4,0.4,0.3
2024-09-27T1600,1250A,120.0751,30.8669,湖州市,城西水厂,,37,18,15,10,10,116,,94,94,14,23,4,6,0.3,0.3
2024-09-27T1600,2873A,120.0875,30.8955,湖州市,仁皇山新区,,42,21,13,11,8,133,,97,97,14,19,7,7,0.6,0.6
2024-09-27T1600,2907A,120.1844,30.8596,湖州市,吴兴区站,,27,21,20,10,9,85,,84,84,19,20,5,7,0.5,0.5
2024-09-27T1600,3562A,120.4148,30.8538,湖州市,南浔区站,,32,20,16,9,9,100,,80,80,14,23,6,8,0.4,0.5
2024-09-27T1600,1607A,120.9092,40.7136,葫芦岛市,龙港区,,43,21,43,12,31,136,,102,102,20,34,13,30,0.5,0.7
2024-09-27T1600,1608A,120.8392,40.7514,葫芦岛市,化工街,,45,24,61,12,27,141,,97,97,14,40,15,27,0.4,0.6
2024-09-27T1600,1609A,120.8341,40.7073,葫芦岛市,新区,,47,39,46,23,33,150,,107,107,23,48,12,18,0.5,0.7
2024-09-27T1600,1610A,120.8695,40.7677,葫芦岛市,东城区,,,22,50,21,34,139,,112,112,12,41,,19,0.3,0.4
2024-09-27T1600,2482A,109.5981,27.5721,怀化市,林科所,,40,40,48,26,31,122,,114,114,12,18,1,9,0.7,0.7
2024-09-27T1600,2483A,109.9453,27.5444,怀化市,河西地税局,,40,38,62,28,42,121,,111,111,4,21,8,10,0.5,0.6
2024-09-27T1600,2484A,109.9781,27.5342,怀化市,市四医院,颗粒物(PM10),51,52,75,32,47,121,,109,109,2,11,7,23,0.5,0.7
2024-09-27T1600,2485A,109.9972,27.5578,怀化市,监测楼,,40,37,69,13,41,125,,114,114,6,18,6,18,0.5,0.6
2024-09-27T1600,2486A,110.0394,27.583,怀化市,市委党校,,39,36,71,27,46,120,,111,111,5,21,8,36,0.5,0.7
2024-09-27T1600,1210A,119.036,33.5981,淮安市,钵池山,,38,22,40,18,34,121,,121,121,6,14,4,5,0.5,0.6
2024-09-27T1600,1211A,119.007,33.575,淮安市,北京南路,,38,29,44,16,32,120,,121,121,10,16,6,6,0.4,0.5
2024-09-27T1600,1212A,118.989,33.6067,淮安市,市监测站,,40,27,42,12,29,128,,130,130,19,24,6,7,0.4,0.5
2024-09-27T1600,1213A,119.135,33.5039,淮安市,楚州区监测站,,40,34,51,13,26,127,,122,122,7,16,6,6,0.5,0.6
2024-09-27T1600,1214A,119.0186,33.6297,淮安市,淮阴区监测站,,39,39,53,22,36,115,,125,125,23,27,2,2,0.4,0.5
2024-09-27T1600,3426A,118.8755,33.2894,淮安市,新华书店,,,29,41,14,20,142,,133,133,,17,7,7,0.6,0.7
2024-09-27T1600,2282A,116.8004,33.975,淮北市,监测站,,45,33,55,16,36,142,,146,146,10,11,6,7,0.4,0.6
2024-09-27T1600,2283A,116.8091,33.9007,淮北市,烈山区政府,,49,41,63,20,34,154,,154,154,4,11,6,6,0.3,0.5
2024-09-27T1600,3330A,116.8873,33.9836,淮北市,杜集区检察院,,49,37,61,10,42,154,,160,160,2,3,8,8,0.5,0.7
2024-09-27T1600,4017A,116.7923,33.9535,淮北市,市博物馆,,49,44,55,15,34,156,,155,155,7,11,6,6,0.6,0.7
2024-09-27T1600,2277A,116.8305,32.7727,淮南市,潘集区政府,,40,37,30,15,20,127,,113,113,11,13,6,6,0.5,0.4
2024-09-27T1600,2278A,117.0067,32.6524,淮南市,师范学院,,48,,28,33,19,116,,115,115,3,7,6,7,0.4,0.4
2024-09-27T1600,2279A,116.8569,32.5951,淮南市,谢家集区政府,,35,,17,15,17,110,,100,100,11,13,6,7,0.1,0.2
2024-09-27T1600,2280A,116.8281,32.633,淮南市,八公山区政府,,36,23,30,12,16,115,,104,104,4,11,11,11,0.2,0.2
2024-09-27T1600,2894A,117.0566,32.6531,淮南市,经济技术开发区消防队,,35,22,25,10,11,112,,109,109,5,10,4,4,0.3,0.4
2024-09-27T1600,3329A,117.0108,32.5893,淮南市,山南新区,,37,22,25,14,10,116,,114,114,9,13,3,3,0.4,0.5
2024-09-27T1600,2446A,114.9028,30.4742,黄冈市,职工中心,臭氧1小时,72,48,70,31,44,177,,150,150,14,20,8,10,0.6,0.7
2024-09-27T1600,2929A,114.8858,30.4519,黄冈市,红卫路,臭氧1小时,63,41,65,25,43,170,,82,,11,22,8,10,0.6,0.8
2024-09-27T1600,3398A,114.9136,30.4445,黄冈市,市林业局,臭氧1小时,82,53,86,25,40,185,,163,163,12,24,8,11,0.6,0.7
2024-09-27T1600,2672A,102.0199,35.5102,黄南藏族自治州,同仁县隆务镇,,32,32,35,16,14,92,,72,72,12,8,9,10,0.6,0.5
2024-09-27T1600,2295A,118.2903,29.6963,黄山市,延安路89号,,24,9,37,3,14,74,,65,65,1,6,6,6,0.3,0.4
2024-09-27T1600,2296A,118.327,29.7178,黄山市,黄山东路89号,,22,17,30,3,17,70,,62,62,3,7,4,4,0.3,0.4
2024-09-27T1600,2297A,118.1371,30.2756,黄山市,黄山区政府5号楼,,26,18,35,12,25,82,,58,58,5,8,6,6,0.4,0.5
2024-09-27T1600,2423A,115.0601,30.2313,黄石市,沈家营,臭氧1小时,62,36,73,13,38,169,,156,156,11,22,12,18,0.6,0.8
2024-09-27T1600,2424A,115.0817,30.2006,黄石市,陈家湾,,48,37,70,26,37,152,,148,148,30,18,12,12,1.0,1
2024-09-27T1600,2426A,114.8988,30.2019,黄石市,铁山,臭氧1小时,95,46,59,23,41,196,,184,184,13,20,9,12,0.7,0.6
2024-09-27T1600,2427A,115.0307,30.2092,黄石市,团城山,臭氧1小时,68,38,66,15,34,174,,164,164,17,16,15,21,0.8,0.8
2024-09-27T1600,3149A,115.0235,30.1578,黄石市,笔架山北路,臭氧1小时,55,33,58,17,38,164,,170,170,7,14,9,11,0.7,0.9
2024-09-27T1600,1392A,114.4183,23.0528,惠州市,河南岸金山湖子站,,41,28,56,21,37,129,,109,109,5,22,5,5,0.5,0.7
2024-09-27T1600,1393A,114.4053,23.0822,惠州市,下埔横江三路子站,,,30,52,17,33,145,,114,114,8,19,,4,0.6,0.9
2024-09-27T1600,1394A,114.4103,23.1142,惠州市,江北云山西路子站,,44,23,47,19,28,138,,117,117,4,22,5,6,0.5,0.8
2024-09-27T1600,1395A,114.4645,22.7833,惠州市,惠阳区承修路船湖子站,臭氧1小时,77,28,63,21,40,181,,137,137,16,31,6,6,0.7,0.9
2024-09-27T1600,1396A,114.5317,22.7422,惠州市,大亚湾管委会子站,臭氧1小时,111,53,59,37,34,221,,167,167,21,36,7,7,0.6,0.8
2024-09-27T1600,3314A,114.4338,22.8134,惠州市,惠阳秋长,臭氧1小时,89,44,64,26,40,191,,138,138,17,34,5,6,0.6,0.8
2024-09-27T1600,3452A,114.6517,22.775,惠州市,大亚湾霞涌,臭氧1小时,121,,43,49,25,241,,163,163,14,15,4,4,0.7,0.8
2024-09-27T1600,2240A,130.9762,45.3001,鸡西市,环保局,,25,13,22,3,7,77,,66,66,3,9,5,5,0.1,0.2
2024-09-27T1600,2243A,130.9429,45.3039,鸡西市,第一中学,,25,15,24,6,9,80,,68,68,4,10,4,5,0.1,0.1
2024-09-27T1600,3707A,131.0207,45.3073,鸡西市,欧美日汽修厂,,24,19,26,3,12,76,,69,69,12,18,5,5,0.1,0.2
2024-09-27T1600,3709A,130.9967,45.3106,鸡西市,市政设施管理处,,25,21,33,9,10,78,,65,65,10,22,5,6,0.1,0.3
2024-09-27T1600,2367A,114.9754,27.0803,吉安市,红声器材厂,颗粒物(PM10),53,55,50,30,30,129,,104,104,10,18,10,10,0.5,0.6
2024-09-27T1600,2368A,114.9658,27.0999,吉安市,市森林工业局,,46,46,47,30,33,120,,97,97,18,22,8,12,0.6,0.7
2024-09-27T1600,2369A,114.99,27.1312,吉安市,市环境监测站,,45,45,44,26,27,133,,101,101,12,18,14,22,0.6,0.8
2024-09-27T1600,2370A,115.0093,27.0968,吉安市,青原区法院,,46,46,46,28,30,126,,100,100,12,20,9,13,0.8,0.8
2024-09-27T1600,1772A,126.54,43.8622,吉林市,哈达湾,,30,11,28,6,16,95,,70,70,10,27,5,6,0.4,0.6
2024-09-27T1600,1773A,126.5844,43.8358,吉林市,东局子,,29,11,32,10,18,90,,68,68,11,25,4,4,0.4,0.6
2024-09-27T1600,1774A,126.5052,43.8245,吉林市,电力学院,,30,,36,12,22,95,,72,72,6,22,2,3,0.4,0.6
2024-09-27T1600,1775A,126.6133,43.8972,吉林市,江北,,29,12,38,8,20,91,,96,96,7,26,6,6,0.5,0.7
2024-09-27T1600,1776A,126.555,43.8306,吉林市,江南公园,,29,12,35,11,21,92,,68,68,9,28,5,6,0.5,0.7
2024-09-27T1600,1778A,126.7061,43.7133,吉林市,丰满,,29,6,9,3,8,90,,74,74,3,4,5,5,0.3,0.6
2024-09-27T1600,2868A,126.4739,43.953,吉林市,九站,,37,22,50,10,22,116,,78,78,12,29,7,8,0.5,0.6
2024-09-27T1600,1299A,116.9862,36.6114,济南市,科干所,臭氧1小时,110,124,99,54,44,219,,174,174,37,51,10,9,1.1,1
2024-09-27T1600,1300A,116.9376,36.665,济南市,农科所,臭氧1小时,108,100,88,51,39,216,,154,154,33,51,7,8,0.9,0.8
2024-09-27T1600,1301A,117.1265,36.6734,济南市,开发区,臭氧1小时,114,100,92,46,40,228,,152,152,27,56,8,8,0.8,0.8
2024-09-27T1600,1303A,117.0624,36.6868,济南市,省种子仓库,臭氧1小时,118,110,97,48,38,235,,150,150,21,47,6,8,0.7,0.7
2024-09-27T1600,1304A,116.9489,36.6447,济南市,机床二厂,臭氧1小时,123,100,97,42,36,245,,217,217,30,57,7,7,0.9,0.9
2024-09-27T1600,1305A,117.0495,36.663,济南市,市监测站,臭氧1小时,119,100,90,54,42,237,,152,152,30,57,9,8,0.9,0.9
2024-09-27T1600,1306A,116.7675,36.5484,济南市,长清党校,臭氧1小时,111,90,107,46,61,221,,184,184,20,41,9,10,0.9,1
2024-09-27T1600,1616A,117.6795,36.229,济南市,技术学院,臭氧1小时,75,44,60,22,31,180,,152,152,9,24,10,11,0.7,0.8
2024-09-27T1600,1961A,117.532,36.6868,济南市,东山小学,臭氧1小时,122,100,91,49,32,243,,179,179,26,45,6,6,0.7,0.7
2024-09-27T1600,3059A,117.7161,36.2049,济南市,泰兴公司,臭氧1小时,73,41,55,22,27,178,,158,158,8,32,8,10,0.4,0.6
2024-09-27T1600,3494A,117.1673,36.9782,济南市,济阳区政府,臭氧1小时,120,90,63,42,25,239,,168,168,21,25,10,14,0.8,0.7
2024-09-27T1600,3495A,117.1171,36.63,济南市,锦屏中学,臭氧1小时,117,88,80,49,45,234,,170,170,24,36,8,7,0.8,0.8
2024-09-27T1600,3682A,116.9814,36.6819,济南市,济南四建,臭氧1小时,114,90,85,44,34,228,,135,135,30,57,6,7,0.9,0.9
2024-09-27T1600,1653A,116.6251,35.4302,济宁市,火炬城,臭氧1小时,85,54,87,24,47,188,,170,170,4,17,11,12,0.7,0.9
2024-09-27T1600,1655A,116.5491,35.4042,济宁市,电化厂,臭氧1小时,78,67,100,17,42,182,,169,169,20,28,13,15,0.5,0.8
2024-09-27T1600,3500A,116.5814,35.3707,济宁市,北湖一中,臭氧1小时,93,36,76,14,52,194,,172,172,10,27,6,8,0.5,0.7
2024-09-27T1600,3501A,116.8249,35.5593,济宁市,服务中心,臭氧1小时,60,39,100,11,63,168,,152,152,9,43,7,10,0.3,0.8
2024-09-27T1600,3678A,116.5907,35.4054,济宁市,市第七中学,臭氧1小时,88,47,81,19,47,190,,168,168,12,28,9,11,0.7,0.9
2024-09-27T1600,2255A,130.2751,46.8028,佳木斯市,佳纺,,24,12,23,3,11,75,,62,62,7,18,3,4,0.4,0.6
2024-09-27T1600,2256A,130.3995,46.8307,佳木斯市,发电厂,,25,9,12,6,9,78,,63,63,1,11,6,5,0.4,0.5
2024-09-27T1600,2257A,130.3258,46.7975,佳木斯市,环保局,,18,13,29,6,15,56,,53,53,18,29,7,8,0.6,0.6
2024-09-27T1600,2258A,130.3648,46.8032,佳木斯市,十一中,,24,9,25,3,13,76,,62,62,6,26,7,7,0.3,0.5
2024-09-27T1600,2259A,130.3794,46.7588,佳木斯市,四丰,,22,10,16,6,8,70,,55,55,15,20,1,1,0.2,0.3
2024-09-27T1600,1252A,120.7436,30.778,嘉兴市,清河小学,,30,17,16,8,8,95,,77,77,19,26,4,4,0.5,0.6
2024-09-27T1600,1253A,120.726,30.7478,嘉兴市,嘉兴学院,,24,18,19,9,8,76,,71,71,16,22,2,3,0.3,0.3
2024-09-27T1600,2872A,120.7846,30.7525,嘉兴市,南湖区残联,,30,23,21,8,7,95,,79,79,21,29,5,5,0.4,0.4
2024-09-27T1600,3407A,120.6916,30.7739,嘉兴市,秀洲住建,,26,18,16,10,9,83,,73,73,19,29,5,5,0.6,0.6
2024-09-27T1600,1945A,98.2908,39.7711,嘉峪关市,气象局,颗粒物(PM10),52,53,58,19,20,113,,100,100,10,24,10,23,0.4,0.3
2024-09-27T1600,2884A,98.2672,39.7978,嘉峪关市,酒钢宾馆,颗粒物(PM10),59,68,61,22,20,107,,96,96,17,22,75,29,1.1,0.7
2024-09-27T1600,3248A,98.2643,39.7724,嘉峪关市,雄关区,颗粒物(PM10),59,68,55,21,22,98,,93,93,24,20,28,22,1.0,0.7
2024-09-27T1600,1383A,113.1064,22.6058,江门市,北街,,43,38,31,29,19,137,,107,107,9,13,5,5,0.8,0.8
2024-09-27T1600,1384A,113.0731,22.5835,江门市,西区,,44,44,34,27,19,132,,112,112,13,21,6,6,0.5,0.6
2024-09-27T1600,1385A,113.0219,22.5311,江门市,圭峰西,,39,37,31,25,22,122,,100,100,6,10,4,3,0.7,0.8
2024-09-27T1600,1386A,113.0828,22.5947,江门市,东湖,,46,46,30,29,19,130,,104,104,10,15,5,5,0.5,0.5
2024-09-27T1600,3311A,113.1075,22.5647,江门市,江海富民,,49,49,40,21,21,140,,112,112,10,14,6,6,0.6,0.6
2024-09-27T1600,3449A,113.05,22.4667,江门市,新会银湖,,44,44,36,25,20,124,,103,103,6,10,7,5,0.9,0.9
2024-09-27T1600,1828A,113.227,35.2125,焦作市,市环保局,细颗粒物(PM2.5),85,95,126,63,81,187,,160,160,16,23,7,10,0.6,0.8
2024-09-27T1600,1830A,113.1992,35.2590,焦作市,影视城,臭氧1小时,102,105,94,59,68,203,,194,184,10,16,10,10,,3.2
2024-09-27T1600,3169A,113.2725,35.2067,焦作市,太极体育中心,臭氧1小时,78,92,138,54,68,182,,157,157,11,21,6,10,0.6,0.9
2024-09-27T1600,3335A,113.3137,35.2641,焦作市,马村街道办,细颗粒物(PM2.5),97,72,103,72,85,183,,159,159,16,25,5,8,0.5,0.9
2024-09-27T1600,3336A,113.2465,35.2373,焦作市,焦作技师学院,细颗粒物(PM2.5),89,94,119,66,83,187,,161,161,15,23,4,6,0.6,0.9
2024-09-27T1600,3477A,113.1656,35.2539,焦作市,中站许衡医院,细颗粒物(PM2.5),83,86,97,61,65,182,,165,165,18,28,3,7,0.6,0.8
2024-09-27T1600,3981A,113.2449,35.1803,焦作市,原李万街道办,臭氧1小时,84,92,124,55,79,187,,158,158,14,21,7,13,0.7,1
2024-09-27T1600,1708A,116.3701,23.5345,揭阳市,新兴,,25,16,32,16,16,79,,79,79,4,13,4,5,0.6,0.7
2024-09-27T1600,1709A,116.3264,23.5443,揭阳市,西马,,24,17,33,15,16,75,,75,75,4,11,4,6,0.5,0.6
2024-09-27T1600,1710A,116.3611,23.5626,揭阳市,东兴,,25,25,34,12,16,80,,79,79,4,11,4,6,0.8,0.9
2024-09-27T1600,1711A,116.4151,23.5294,揭阳市,渔湖,,26,19,37,3,15,81,,86,86,6,14,4,4,0.6,0.7
2024-09-27T1600,3320A,116.403,23.5699,揭阳市,曲溪,,26,14,26,7,17,82,,81,81,6,15,2,4,0.4,0.6
2024-09-27T1600,3170A,102.1864,38.5253,金昌市,市委党校,颗粒物(PM10),69,88,66,27,23,117,,100,100,6,21,13,16,0.5,0.6
2024-09-27T1600,4022A,102.1647,38.5371,金昌市,金川区人防中心,颗粒物(PM10),69,87,64,22,21,114,,96,96,6,18,10,14,0.5,0.6
2024-09-27T1600,1262A,119.647,29.077,金华市,十五中,,29,22,41,15,24,90,,62,62,16,23,2,2,0.5,0.6
2024-09-27T1600,1263A,119.686,29.1029,金华市,监测站,,28,20,37,17,25,89,,61,61,16,25,2,2,0.5,0.6
2024-09-27T1600,3659A,119.656,29.1131,金华市,气象局,,29,17,36,10,20,92,,57,57,15,27,5,5,0.4,0.5
2024-09-27T1600,1767A,121.1115,41.0879,锦州市,南山,,39,28,34,17,28,122,,91,91,12,32,8,13,0.4,0.7
2024-09-27T1600,1768A,121.0533,40.8434,锦州市,开发区,,47,47,77,24,40,140,,113,113,27,57,10,23,0.8,1.2
2024-09-27T1600,1769A,121.1836,41.1119,锦州市,百股街道,,38,20,35,9,18,121,,92,92,9,27,8,15,0.5,0.7
2024-09-27T1600,1770A,121.1178,41.1222,锦州市,天安街道,,40,27,46,12,31,125,,93,93,11,34,9,17,0.5,0.8
2024-09-27T1600,1771A,121.1303,41.1386,锦州市,北湖公园,,40,21,45,13,28,128,,100,100,13,27,8,15,0.5,0.7
2024-09-27T1600,2160A,112.85,35.5051,晋城市,自来水公司,细颗粒物(PM2.5),77,78,114,56,76,175,,138,138,17,31,6,8,0.8,1.1
2024-09-27T1600,2161A,112.8318,35.4936,晋城市,白云商贸,细颗粒物(PM2.5),79,94,111,58,71,173,,138,138,18,29,6,8,0.9,1.1
2024-09-27T1600,2162A,112.8508,35.4887,晋城市,市环保局,颗粒物(PM10),76,101,113,51,70,175,,141,141,18,34,6,7,0.8,1
2024-09-27T1600,2163A,112.8676,35.4897,晋城市,技术学院,细颗粒物(PM2.5),73,93,119,53,73,175,,136,136,21,38,6,8,0.8,1.1
2024-09-27T1600,3620A,112.8271,35.4828,晋城市,泽州一中,,,83,112,61,78,171,,134,134,,34,5,9,0.8,1.1
2024-09-27T1600,2171A,112.7532,37.6945,晋中市,锦纶小区,细颗粒物(PM2.5),73,78,81,53,60,106,,96,96,14,21,8,7,0.7,0.8
2024-09-27T1600,2173A,112.7249,37.7067,晋中市,南都小区,细颗粒物(PM2.5),82,84,79,60,63,104,,98,98,17,23,6,5,0.8,0.8
2024-09-27T1600,2174A,112.6991,37.6982,晋中市,榆次区政府,颗粒物(PM10),65,80,86,40,49,107,,97,97,17,26,6,6,0.6,0.7
2024-09-27T1600,2865A,112.7195,37.6828,晋中市,榆次三中,细颗粒物(PM2.5),70,80,84,51,55,105,,92,92,16,22,8,7,0.7,0.8
2024-09-27T1600,2439A,112.2014,31.0481,荆门市,竹园小学,臭氧1小时,102,58,98,29,62,204,,182,182,13,34,12,15,0.4,0.6
2024-09-27T1600,2440A,112.1969,30.9891,荆门市,掇刀,臭氧1小时,108,46,106,34,75,215,,190,190,16,40,14,19,0.6,0.8
2024-09-27T1600,2441A,112.2213,31.0386,荆门市,石化一小,臭氧1小时,101,59,108,36,64,202,,185,185,12,41,18,21,0.5,0.7
2024-09-27T1600,3012A,112.1849,31.0362,荆门市,西山林语,臭氧1小时,107,61,96,25,64,213,,191,191,12,23,11,14,0.6,0.8
2024-09-27T1600,3547A,112.1632,31.0138,荆门市,龙泉中学南校,臭氧1小时,112,62,97,37,59,223,,197,197,11,35,13,15,0.7,0.8
2024-09-27T1600,1844A,112.2494,30.3197,荆州市,市图书馆,臭氧1小时,101,70,95,46,72,201,,174,174,17,38,14,16,0.8,1
2024-09-27T1600,1845A,112.2008,30.3544,荆州市,市委党校,臭氧1小时,107,63,95,50,68,213,,183,183,14,36,20,15,0.7,0.9
2024-09-27T1600,3194A,112.2747,30.3122,荆州市,管委会,臭氧1小时,95,55,94,48,76,196,,178,178,12,35,14,18,0.8,1
2024-09-27T1600,3548A,112.1655,30.3364,荆州市,学苑路,臭氧1小时,113,77,101,55,82,226,,177,177,15,34,9,8,0.7,0.9
2024-09-27T1600,2343A,117.2117,29.2933,景德镇市,老干部活动中心,,22,11,34,11,25,68,,70,70,6,15,7,8,0.4,0.5
2024-09-27T1600,2344A,117.1894,29.2789,景德镇市,兽医站,,27,27,39,14,24,77,,76,76,5,15,6,8,0.6,0.8
2024-09-27T1600,2345A,117.1547,29.2617,景德镇市,台达陶瓷,,23,23,46,10,29,73,,70,70,5,26,6,19,0.4,0.6
2024-09-27T1600,2346A,117.2461,29.2956,景德镇市,陶研所,,23,19,37,15,21,73,,78,78,6,17,7,7,0.4,0.5
2024-09-27T1600,1803A,115.9872,29.6815,九江市,十里,,44,28,69,20,41,139,,114,114,12,19,9,12,0.7,0.9
2024-09-27T1600,1804A,115.9584,29.7046,九江市,茅山头,,39,30,62,20,41,123,,101,101,9,20,9,10,0.6,1
2024-09-27T1600,1805A,115.9877,29.7295,九江市,西园,,44,27,53,13,41,139,,113,113,11,17,10,12,0.5,0.8
2024-09-27T1600,1806A,116.0172,29.6547,九江市,五七二七厂,,41,22,55,20,45,130,,107,107,11,18,8,10,0.7,1
2024-09-27T1600,1808A,115.9114,29.6038,九江市,综合工业园,,45,26,61,13,42,142,,120,120,20,35,5,16,0.7,0.9
2024-09-27T1600,1809A,116.0721,29.7535,九江市,石化总厂,,46,46,65,15,47,128,,101,101,16,23,9,10,0.7,0.9
2024-09-27T1600,3190A,116.0254,29.6994,九江市,外国语学校,,44,31,64,15,35,140,,110,110,10,19,8,10,0.6,0.8
2024-09-27T1600,2658A,98.5061,39.7443,酒泉市,仓门街子站,,44,44,52,20,21,115,,101,101,3,16,3,17,0.3,0.4
2024-09-27T1600,2659A,98.4989,39.7256,酒泉市,油田生活基地,颗粒物(PM10),51,51,59,20,24,119,,102,102,5,16,3,6,0.4,0.4
2024-09-27T1600,2698A,76.0072,39.4467,喀什地区,巡警大队,,33,27,108,3,14,104,,82,82,9,21,4,5,0.4,0.5
2024-09-27T1600,2699A,75.9755,39.4694,喀什地区,吾办,,34,22,113,3,26,106,,77,77,6,22,4,5,0.3,0.5
2024-09-27T1600,4027A,75.9483,39.4689,喀什地区,老干局,,33,31,129,3,17,104,,76,76,4,16,4,4,0.4,0.5
2024-09-27T1600,1824A,114.3389,34.7781,开封市,肿瘤医院,臭氧1小时,78,57,147,35,109,182,,147,147,10,24,6,10,0.4,0.7
2024-09-27T1600,1826A,114.2885,34.7965,开封市,世纪星幼儿园,臭氧1小时,79,30,137,18,63,183,,151,151,5,20,4,10,0.7,1
2024-09-27T1600,3147A,114.3438,34.8106,开封市,龙亭公园,臭氧1小时,67,45,142,20,77,173,,141,141,11,25,5,8,0.8,1
2024-09-27T1600,3210A,114.3644,34.7964,开封市,汴京公园,臭氧1小时,65,65,168,29,109,172,,138,138,13,26,5,8,0.6,0.8
2024-09-27T1600,3473A,114.2485,34.8306,开封市,技师学院,臭氧1小时,67,80,151,18,60,173,,146,146,10,27,8,12,0.6,0.9
2024-09-27T1600,3592A,114.4644,34.7556,开封市,祥符区生态环境局,臭氧1小时,63,52,132,26,71,170,,133,133,20,34,6,12,0.6,1.1
2024-09-27T1600,1951A,84.895,45.6094,克拉玛依市,长征新村,,22,13,12,3,5,69,,68,62,2,6,6,6,0.1,0.2
2024-09-27T1600,1952A,84.8988,45.5893,克拉玛依市,南林小区,,22,13,11,8,7,69,,72,63,2,7,10,9,0.3,0.5
2024-09-27T1600,1954A,84.905,44.3396,克拉玛依市,独山子区,,23,,9,3,6,72,,73,71,6,7,7,7,0.2,0.3
2024-09-27T1600,1955A,85.6979,46.098,克拉玛依市,乌尔禾区商贸楼,,25,8,13,3,5,77,,71,66,1,3,4,3,0.2,0.2
2024-09-27T1600,3612A,85.1045,45.6899,克拉玛依市,白碱滩区新站,颗粒物(PM10),53,56,21,8,5,74,,68,51,6,14,7,7,0.2,0.3
2024-09-27T1600,2697A,76.1454,39.7142,克孜勒苏柯尔克孜自治州,市人民政府,,,84,70,27,19,115,,108,108,,5,5,7,0.4,0.4
2024-09-27T1600,3665A,76.1658,39.7157,克孜勒苏柯尔克孜自治州,克州文化中心,,45,45,64,30,20,119,,111,110,2,4,7,9,0.4,0.4
2024-09-27T1600,1450A,102.8204,24.8886,昆明市,呈贡新区,,24,16,34,8,20,76,,69,69,7,18,6,8,0.5,0.6
2024-09-27T1600,1452A,102.7252,25.0902,昆明市,龙泉镇,,26,12,31,11,18,81,,65,65,9,16,7,8,0.8,0.8
2024-09-27T1600,1453A,102.7266,25.0375,昆明市,东风东路,,23,17,31,12,20,72,,60,60,10,17,5,8,0.4,0.5
2024-09-27T1600,1454A,102.6742,25.0669,昆明市,金鼎山,,24,20,35,8,21,76,,61,61,6,13,3,4,1.0,0.9
2024-09-27T1600,1455A,102.6644,25.0401,昆明市,碧鸡广场,,23,17,37,6,18,71,,56,56,9,18,6,9,0.6,0.7
2024-09-27T1600,3179A,102.7494,25.0119,昆明市,官渡区博物馆,,25,15,32,11,16,77,,67,67,5,15,6,8,0.5,0.6
2024-09-27T1600,3375A,102.8017,24.8336,昆明市,青年创业园,,25,16,30,11,20,78,,70,70,3,21,4,6,0.6,0.6
2024-09-27T1600,3550A,102.7997,24.9786,昆明市,昆明学院,,26,18,35,12,21,83,,70,70,7,17,6,7,0.5,0.6
2024-09-27T1600,3551A,102.5967,24.6736,昆明市,晋宁区生态环境分局,,22,13,33,9,21,69,,62,62,4,11,2,2,0.6,0.8
2024-09-27T1600,3552A,102.6678,24.9856,昆明市,云天化总部,,25,14,29,8,19,78,,67,67,4,15,5,7,0.4,0.5
2024-09-27T1600,1456A,91.1319,29.6514,拉萨市,八廓街,,25,9,11,7,7,78,,73,73,7,14,7,7,0.0,0.3
2024-09-27T1600,1457A,91.1221,29.6747,拉萨市,市环保局,,24,9,9,3,6,76,,70,70,8,11,8,8,0.4,0.5
2024-09-27T1600,1458A,91.0874,29.6475,拉萨市,区监测站,,22,7,8,3,6,69,,62,62,6,15,5,5,0.2,0.2
2024-09-27T1600,1459A,91.1774,29.6541,拉萨市,西藏大学,,24,8,9,6,6,76,,66,66,6,11,5,5,0.2,0.5
2024-09-27T1600,1460A,90.9798,29.6588,拉萨市,区辐射站,,20,7,9,3,6,64,,62,62,9,14,8,8,0.2,0.2
2024-09-27T1600,1461A,91.0834,29.6292,拉萨市,拉萨火车站,,22,7,7,6,6,68,,60,60,7,13,5,5,0.2,0.2
2024-09-27T1600,2520A,109.2203,23.7256,来宾市,来宾技工学校,,42,41,42,29,30,111,,88,88,10,16,8,14,0.9,0.9
2024-09-27T1600,3535A,109.1781,23.7297,来宾市,兴宾区政府,,35,26,29,24,18,107,,81,81,8,8,14,7,0.6,0.7
2024-09-27T1600,4002A,109.2416,23.7461,来宾市,中南小学,,45,40,41,31,22,120,,92,92,6,16,11,13,0.9,0.9
2024-09-27T1600,1476A,103.631,36.1031,兰州市,兰炼宾馆,颗粒物(PM10),55,60,64,37,36,150,,79,79,17,49,13,15,0.7,0.7
2024-09-27T1600,1478A,103.8412,36.0726,兰州市,生物制品所,臭氧1小时,55,43,56,33,30,164,,92,92,25,50,13,13,0.6,0.8
2024-09-27T1600,1479A,103.831,36.0464,兰州市,铁路设计院,颗粒物(PM10),51,51,66,30,36,158,,86,86,37,64,11,12,0.6,1
2024-09-27T1600,3186A,103.7158,36.1058,兰州市,教育港,细颗粒物(PM2.5),53,54,70,37,34,139,,87,87,12,47,12,12,0.5,0.8
2024-09-27T1600,3242A,103.9611,35.998,兰州市,和平,,45,33,38,31,16,132,,86,86,14,21,11,11,0.4,0.3
2024-09-27T1600,3245A,103.6633,36.533,兰州新区,新区管委会,,41,41,48,22,23,126,,72,72,8,25,8,10,0.5,0.5
2024-09-27T1600,3246A,103.6975,36.4789,兰州新区,舟曲中学,,43,36,54,21,28,137,,79,79,8,36,12,17,0.3,0.4
2024-09-27T1600,1067A,116.6708,39.5111,廊坊市,药材公司,,45,37,52,17,25,143,,91,91,11,25,4,6,0.4,0.5
2024-09-27T1600,1068A,116.7214,39.5589,廊坊市,开发区,,45,44,52,21,23,141,,84,84,16,27,4,5,0.3,0.5
2024-09-27T1600,1070A,116.7244,39.5269,廊坊市,北华航天学院,,46,39,58,18,24,145,,90,90,15,27,3,5,0.3,0.4
2024-09-27T1600,2919A,116.7022,39.5453,廊坊市,河北工业大学,,46,38,44,19,24,147,,96,96,12,24,4,6,0.3,0.4
2024-09-27T1600,2535A,103.7723,29.5462,乐山市,花湖湾,,,49,72,27,43,166,,136,136,,26,9,4,0.6,1
2024-09-27T1600,2536A,103.7627,29.5844,乐山市,牛耳桥,臭氧1小时,58,44,66,30,50,166,,119,119,10,31,4,4,0.6,0.8
2024-09-27T1600,2537A,103.7508,29.6006,乐山市,市第三水厂,臭氧1小时,63,47,73,32,54,170,,132,132,8,32,3,4,0.6,0.8
2024-09-27T1600,2538A,103.7571,29.5664,乐山市,市监测站,细颗粒物(PM2.5),82,,72,60,55,162,,131,131,5,24,4,5,0.9,1.1
2024-09-27T1600,3361A,103.7311,29.5628,乐山市,理工大学,臭氧1小时,75,45,68,35,54,180,,137,137,6,26,2,4,0.6,0.9
2024-09-27T1600,2599A,100.2497,26.8802,丽江市,丽江古城,,15,15,22,7,18,48,,48,48,9,11,10,9,0.6,0.8
2024-09-27T1600,2600A,100.2203,26.8906,丽江市,市中心,,15,9,14,3,10,46,,43,43,4,9,6,6,0.6,0.7
2024-09-27T1600,1267A,119.914,28.4514,丽水市,监测站大楼,,,12,18,6,11,64,,50,50,7,17,,4,0.4,0.5
2024-09-27T1600,1268A,119.93,28.4586,丽水市,莲都小学,,21,8,24,3,13,65,,54,54,7,18,4,4,0.3,0.5
2024-09-27T1600,1269A,119.879,28.4231,丽水市,余庄前,,20,8,23,3,10,62,,51,51,7,13,3,3,0.3,0.5
2024-09-27T1600,1173A,119.176,34.5885,连云港市,市环境监测站,,44,24,44,9,29,138,,142,142,10,14,6,6,0.3,0.4
2024-09-27T1600,3000A,119.3581,34.6972,连云港市,德源药业,,42,19,41,3,23,134,,134,134,8,15,5,5,0.2,0.3
2024-09-27T1600,3007A,119.178,34.844,连云港市,新城一中,,43,36,54,6,22,135,,118,118,16,35,4,6,0.4,0.7
2024-09-27T1600,3008A,119.3608,34.7519,连云港市,胡沟管理处,,37,9,37,3,17,118,,126,122,14,20,8,9,0.4,0.5
2024-09-27T1600,3009A,119.1478,34.5911,连云港市,矿山设计院,,44,24,50,3,34,138,,140,140,8,20,5,5,0.6,0.7
2024-09-27T1600,3434A,119.2413,34.6539,连云港市,工贸学校,,41,11,31,6,20,130,,136,136,13,15,6,7,0.6,0.8
2024-09-27T1600,3664A,119.4172,34.7341,连云港市,连云街道,,41,12,28,6,17,129,,139,131,12,13,4,5,0.3,0.4
2024-09-27T1600,2571A,102.3431,27.8099,凉山彝族自治州,青龙寺,,34,11,16,9,7,107,,75,75,2,5,6,6,0.6,0.7
2024-09-27T1600,2572A,102.2721,27.8415,凉山彝族自治州,邛海宾馆,,29,29,24,18,15,86,,68,68,8,14,11,11,0.6,0.8
2024-09-27T1600,2573A,102.2625,27.898,凉山彝族自治州,西昌市政府,,24,20,21,16,14,75,,60,60,7,11,13,13,0.7,0.9
2024-09-27T1600,2574A,102.2685,27.8851,凉山彝族自治州,凉山州政府,,31,31,23,19,13,83,,66,66,7,13,11,12,0.4,0.8
2024-09-27T1600,2575A,102.237,27.8914,凉山彝族自治州,长安,,29,29,26,16,15,78,,65,65,9,16,16,13,1.0,1.2
2024-09-27T1600,2212A,123.2,41.1953,辽阳市,宏伟区,,34,30,49,17,24,106,,93,93,12,29,17,13,0.5,0.7
2024-09-27T1600,2213A,123.1683,41.2495,辽阳市,新华园,,46,46,63,21,23,98,,70,70,11,35,15,14,0.5,0.9
2024-09-27T1600,2214A,123.2354,41.2639,辽阳市,滨河路,,35,27,48,17,27,112,,80,80,11,28,16,13,0.5,0.8
2024-09-27T1600,2215A,123.149,41.2991,辽阳市,铁西工业园,,34,33,68,18,37,108,,68,68,10,29,14,13,0.7,0.9
2024-09-27T1600,2227A,125.1358,42.8845,辽源市,环保局,,29,11,31,10,17,90,,79,79,23,21,18,9,0.5,0.8
2024-09-27T1600,3239A,125.0764,42.9078,辽源市,银鹰制药,,30,13,42,9,22,95,,72,72,19,25,12,8,0.4,0.7
2024-09-27T1600,1625A,115.9848,36.4372,聊城市,区政府,臭氧1小时,118,100,118,47,61,236,,181,181,19,38,13,14,0.8,0.8
2024-09-27T1600,2878A,116.0072,36.4343,聊城市,聊大东校,臭氧1小时,123,97,111,58,64,246,,187,187,18,39,12,13,0.7,0.7
2024-09-27T1600,3200A,115.9819,36.4978,聊城市,监控中心,臭氧1小时,118,75,96,46,57,236,,207,207,17,27,10,13,0.7,0.8
2024-09-27T1600,3513A,116.0445,36.4361,聊城市,九州社区,臭氧1小时,122,90,115,47,61,244,,184,184,10,40,5,7,0.5,0.5
2024-09-27T1600,4018A,116.0567,36.4608,聊城市,星美广场,臭氧1小时,119,81,90,51,53,237,,199,199,13,33,12,11,0.7,0.6
2024-09-27T1600,2632A,94.3681,29.6376,林芝市,林芝监测站,,18,6,5,3,4,57,,42,42,2,3,10,10,0.2,0.2
2024-09-27T1600,2633A,94.3616,29.6616,林芝市,林芝人民医院,,29,,10,20,10,57,,42,42,5,6,5,8,0.3,0.1
2024-09-27T1600,2603A,100.0781,23.8982,临沧市,市环保局,,16,12,19,9,15,51,,38,38,6,9,4,5,0.4,0.5
2024-09-27T1600,2604A,100.0894,23.8822,临沧市,市气象局,,19,13,21,13,18,54,,38,38,6,10,3,4,0.5,0.5
2024-09-27T1600,1733A,111.5531,36.0783,临汾市,临钢医院,颗粒物(PM10),67,83,122,28,66,140,,121,121,13,28,4,7,0.7,1.1
2024-09-27T1600,1734A,111.5028,36.0714,临汾市,技工学校,"颗粒物(PM10),细颗粒物(PM2.5)",69,88,113,50,72,150,,139,139,19,33,6,7,0.7,1
2024-09-27T1600,1736A,111.5018,36.0855,临汾市,市委,颗粒物(PM10),63,76,110,41,75,160,,145,145,10,21,7,8,0.7,1
2024-09-27T1600,3018A,111.505,36.1014,临汾市,唐尧大酒店,颗粒物(PM10),64,77,101,40,71,138,,133,133,14,22,5,6,0.7,1
2024-09-27T1600,3668A,111.5036,36.0414,临汾市,城南,"颗粒物(PM10),细颗粒物(PM2.5)",74,98,109,54,74,166,,145,145,18,24,6,7,0.8,1.1
2024-09-27T1600,2667A,103.2069,35.5993,临夏回族自治州,环保局,,32,32,37,21,15,100,,66,66,2,21,12,10,0.4,0.5
2024-09-27T1600,2668A,103.2417,35.6057,临夏回族自治州,建设大厦,,34,34,48,16,20,104,,66,66,7,16,14,12,0.3,0.4
2024-09-27T1600,1618A,118.3429,35.0532,临沂市,沂河小区,,47,36,69,14,32,150,,131,131,14,23,7,9,0.3,0.6
2024-09-27T1600,1619A,118.295,35.0583,临沂市,鲁南制药厂,,,,69,14,26,162,,143,143,10,21,5,8,0.4,0.7
2024-09-27T1600,1620A,118.2794,34.9976,临沂市,新光毛纺厂,臭氧1小时,52,24,65,14,30,161,,142,142,13,26,4,8,0.5,0.8
2024-09-27T1600,1621A,118.3956,35.0888,临沂市,河东保险公司,,47,36,61,12,31,150,,134,134,17,39,7,9,0.5,0.8
2024-09-27T1600,3370A,118.3564,35.0215,临沂市,十里堡居委,,49,27,57,9,32,156,,138,138,11,24,8,11,0.5,0.8
2024-09-27T1600,3496A,118.3604,35.1084,临沂市,南坊新区,,48,31,66,12,31,152,,135,135,11,24,7,9,0.5,0.7
2024-09-27T1600,3860A,118.3920,35.0300,临沂市,皇山花园小区,,47,31,69,12,41,150,,140,140,12,32,7,10,0.3,0.6
2024-09-27T1600,1870A,109.4856,24.3895,柳州市,柳东小学,,48,43,28,28,16,153,,109,109,8,16,10,9,1.2,0.9
2024-09-27T1600,1871A,109.4157,24.3277,柳州市,环保监测站,,50,41,45,32,26,160,,115,115,8,18,10,10,1.0,1
2024-09-27T1600,1872A,109.389,24.341,柳州市,河西水厂,臭氧1小时,52,36,54,27,29,161,,115,115,7,22,10,11,1.2,1.3
2024-09-27T1600,1873A,109.4311,24.2921,柳州市,市四中,,50,49,41,29,22,157,,116,116,9,19,7,7,0.7,0.8
2024-09-27T1600,1874A,109.4006,24.3631,柳州市,市九中,,,51,52,24,26,165,,110,110,,27,7,5,1.0,1.1
2024-09-27T1600,1875A,109.4958,24.3134,柳州市,古亭山,颗粒物(PM10),52,54,30,27,17,138,,105,105,10,28,7,8,1.0,1
2024-09-27T1600,3402A,109.5422,24.3996,柳州市,市二中,臭氧1小时,64,49,37,28,24,171,,116,116,13,25,9,9,0.9,0.8
2024-09-27T1600,2307A,116.5079,31.737,六安市,监测大楼,,28,27,35,12,36,89,,73,73,9,12,5,5,0.5,0.6
2024-09-27T1600,2308A,116.4738,31.7643,六安市,皖西学院,,30,30,46,12,35,92,,72,72,9,15,4,5,0.4,0.5
2024-09-27T1600,2309A,116.4996,31.7905,六安市,朝阳厂,,30,30,34,12,37,85,,65,65,13,16,1,1,0.5,0.5
2024-09-27T1600,2310A,116.5567,31.7886,六安市,开发区,,31,31,48,13,26,89,,69,69,15,19,2,3,0.6,0.6
2024-09-27T1600,2577A,104.83,26.5917,六盘水市,黄土坡,,35,,29,24,26,103,,83,83,4,18,7,9,0.3,0.7
2024-09-27T1600,2578A,104.89,26.5939,六盘水市,水钢,,35,29,35,19,23,110,,89,89,6,12,9,8,0.4,0.5
2024-09-27T1600,2579A,104.8475,26.5894,六盘水市,民中,,33,24,27,14,21,103,,82,82,9,20,8,7,0.4,0.6
2024-09-27T1600,2580A,104.9544,26.5506,六盘水市,双水,,40,39,34,28,24,110,,86,86,7,9,7,6,0.4,0.4
2024-09-27T1600,2336A,117.0217,25.1033,龙岩市,龙岩市监测站,,26,21,21,10,11,81,,57,57,9,19,6,6,0.5,0.5
2024-09-27T1600,2337A,117.0258,25.0661,龙岩市,闽西职业技术学院,,25,24,32,17,15,73,,59,59,9,17,8,8,0.6,0.6
2024-09-27T1600,2338A,117.0196,25.0306,龙岩市,龙岩学院,,23,14,21,11,9,72,,58,58,6,8,7,5,0.4,0.4
2024-09-27T1600,2885A,104.9339,33.3826,陇南市,滨江中学,颗粒物(PM10),52,53,49,21,18,125,,98,98,5,8,7,8,0.6,0.6
2024-09-27T1600,3247A,104.955,33.371,陇南市,市总工会,,40,39,42,25,16,128,,110,110,4,7,4,7,0.5,0.5
2024-09-27T1600,2487A,111.9589,27.8901,娄底市,电视发射台,颗粒物(PM10),67,83,79,38,52,159,,132,132,7,9,8,7,0.9,0.9
2024-09-27T1600,2488A,111.9975,27.725,娄底市,市监测站,颗粒物(PM10),54,57,87,33,60,145,,114,114,5,22,6,9,0.6,0.9
2024-09-27T1600,2489A,112.0194,27.7314,娄底市,市委党校,,48,43,83,33,58,134,,104,104,6,12,6,6,0.6,0.7
2024-09-27T1600,2490A,111.9561,27.7569,娄底市,涟钢,颗粒物(PM10),55,60,86,26,64,110,,86,86,22,23,16,8,0.7,0.8
2024-09-27T1600,2491A,111.9892,27.7044,娄底市,市政府,,,57,71,30,55,139,,128,128,6,14,,8,0.5,0.7
2024-09-27T1600,1893A,105.4324,28.9634,泸州市,九狮山,细颗粒物(PM2.5),64,55,69,46,44,161,,119,119,14,24,6,6,0,0.3
2024-09-27T1600,1894A,105.4427,28.9063,泸州市,小市上码头,臭氧1小时,74,70,57,37,39,179,,154,154,12,22,6,7,0.6,0.7
2024-09-27T1600,1895A,105.4241,28.8573,泸州市,兰田宪桥,臭氧1小时,67,52,60,37,50,173,,130,130,12,21,7,6,0.5,0.6
2024-09-27T1600,1896A,105.4379,28.8833,泸州市,市环监站,"细颗粒物(PM2.5),臭氧1小时",55,55,51,39,43,164,,126,126,13,22,6,6,0.6,0.6
2024-09-27T1600,3490A,105.3617,28.7703,泸州市,纳溪区环保局,"细颗粒物(PM2.5),臭氧1小时",59,52,64,42,51,167,,126,126,15,25,7,8,0.6,0.7
2024-09-27T1600,2183A,111.1406,37.5211,吕梁市,环保局,细颗粒物(PM2.5),89,88,75,66,48,144,,114,114,9,31,4,4,0.7,0.7
2024-09-27T1600,2185A,111.1297,37.5136,吕梁市,自来水公司,细颗粒物(PM2.5),79,74,64,58,37,148,,115,115,10,26,2,3,0.7,0.7
2024-09-27T1600,2867A,111.1283,37.51,吕梁市,马茂庄小学,细颗粒物(PM2.5),95,96,79,71,43,146,,121,121,14,31,3,3,0.7,0.7
2024-09-27T1600,1812A,112.3931,34.6516,洛阳市,市委党校,细颗粒物(PM2.5),92,112,156,68,94,158,,147,147,19,26,7,11,0.7,0.9
2024-09-27T1600,1814A,112.4657,34.6871,洛阳市,豫西宾馆,细颗粒物(PM2.5),73,84,133,53,90,146,,142,142,12,22,8,12,0.6,0.8
2024-09-27T1600,1815A,112.494,34.6886,洛阳市,河南林校,颗粒物(PM10),66,81,141,46,104,149,,149,149,13,27,6,9,0.5,0.9
2024-09-27T1600,1816A,112.3844,34.623,洛阳市,开发区管委会,细颗粒物(PM2.5),93,110,152,69,107,174,,155,155,17,24,2,4,0.5,0.7
2024-09-27T1600,1817A,112.4267,34.6258,洛阳市,市委新办公区,细颗粒物(PM2.5),94,96,155,70,99,164,,147,147,15,23,4,6,0.5,0.7
2024-09-27T1600,3340A,112.6005,34.6326,洛阳市,伊滨,细颗粒物(PM2.5),73,77,112,53,95,162,,150,150,12,25,8,10,0.8,1
2024-09-27T1600,3341A,112.4951,34.6332,洛阳市,中移产业园,细颗粒物(PM2.5),87,103,146,64,100,178,,158,158,15,27,4,7,0.8,0.9
2024-09-27T1600,3593A,112.5736,34.8993,洛阳市,吉利监测站,,,,140,,83,163,,149,149,10,23,5,7,0.6,0.8
2024-09-27T1600,3635A,112.3677,34.662,洛阳市,河科大西苑校区,颗粒物(PM10),76,102,150,49,67,166,,151,151,18,29,5,9,0.7,0.9
2024-09-27T1600,3636A,112.4388,34.6781,洛阳市,英才小学,细颗粒物(PM2.5),74,96,151,54,75,154,,146,146,14,25,4,7,0.7,0.8
2024-09-27T1600,2399A,114.051,33.5699,漯河市,三五一五工厂,,49,49,92,22,39,144,,114,114,8,22,5,8,0.5,0.6
2024-09-27T1600,2400A,114.0055,33.5698,漯河市,漯河大学,,48,48,79,24,44,147,,116,116,8,20,4,6,0.6,0.7
2024-09-27T1600,2401A,114.0138,33.5828,漯河市,市水利局,,48,48,92,19,44,145,,115,115,4,20,4,6,0.4,0.6
2024-09-27T1600,2402A,114.0261,33.5698,漯河市,市广电局,颗粒物(PM10),51,51,87,17,38,146,,121,121,7,17,7,10,0.6,0.7
2024-09-27T1600,3478A,113.9749,33.5664,漯河市,市图书馆,,48,44,79,19,39,153,,122,122,9,21,10,11,0.6,0.7
2024-09-27T1600,3479A,114.0967,33.5906,漯河市,召陵区卫健委,颗粒物(PM10),62,74,112,24,57,146,,114,114,4,24,6,8,0.5,0.6
2024-09-27T1600,1798A,118.5092,31.6837,马鞍山市,湖东路四小,,39,37,23,11,14,122,,87,87,13,18,6,7,0.7,0.7
2024-09-27T1600,1799A,118.5024,31.6449,马鞍山市,开发区,,39,30,24,13,13,124,,86,86,13,18,6,6,0.8,0.9
2024-09-27T1600,1800A,118.5228,31.7231,马鞍山市,慈湖,,39,27,32,15,18,122,,91,91,10,14,8,8,0,0.6
2024-09-27T1600,3633A,118.4918,31.6809,马鞍山市,雨山,,37,28,21,13,13,118,,82,82,12,14,8,8,0.9,0.9
2024-09-27T1600,1686A,111.0286,21.4688,茂名市,电白南海,,39,39,40,22,20,120,,102,102,5,9,12,14,0.6,0.7
2024-09-27T1600,1687A,110.9294,21.6533,茂名市,茂石化七小,,29,22,40,14,26,92,,96,96,5,12,7,19,0.6,0.8
2024-09-27T1600,1688A,110.9107,21.6687,茂名市,健康路,,31,17,31,7,19,97,,99,99,4,9,12,28,0.8,0.9
2024-09-27T1600,1689A,110.8592,21.6828,茂名市,高岭,,31,31,45,14,28,92,,92,92,7,17,9,16,0.7,0.8
2024-09-27T1600,3450A,111.01,21.5165,茂名市,电白水东,,32,24,28,22,21,96,,88,88,6,9,6,10,0.6,0.8
2024-09-27T1600,2539A,104.0308,30.0478,眉山市,黑龙滩水库,臭氧1小时,62,43,45,30,33,169,,126,126,3,4,2,3,0.5,0.6
2024-09-27T1600,2540A,103.8416,30.0874,眉山市,气象局,臭氧1小时,89,42,58,39,48,191,,136,136,12,37,7,8,0.5,0.6
2024-09-27T1600,3137A,103.8578,30.0744,眉山市,市委党校,臭氧1小时,79,48,69,34,44,183,,135,135,13,40,6,8,0.6,0.8
2024-09-27T1600,3148A,103.8291,30.0564,眉山市,区人社局,臭氧1小时,94,49,58,36,42,195,,135,135,20,39,12,12,0.6,0.7
2024-09-27T1600,1690A,116.1231,24.3284,梅州市,梅江月梅,,25,24,28,3,10,78,,66,66,4,12,6,7,0.4,0.4
2024-09-27T1600,1691A,116.0797,24.2719,梅州市,梅县新城,,23,18,26,10,13,72,,60,60,5,13,4,4,0.6,0.6
2024-09-27T1600,1692A,116.1248,24.2654,梅州市,环境监控中心,,25,18,30,13,14,80,,59,59,8,17,4,4,0.6,0.6
2024-09-27T1600,3315A,116.1233,24.2991,梅州市,梅龙,,26,17,23,12,14,81,,68,68,4,13,8,9,0.6,0.7
2024-09-27T1600,1878A,104.7778,31.4741,绵阳市,富乐山,细颗粒物(PM2.5),77,70,77,56,64,168,,130,130,18,23,4,3,0.7,0.8
2024-09-27T1600,1879A,104.7563,31.4535,绵阳市,市人大,细颗粒物(PM2.5),72,70,83,52,58,176,,129,129,17,39,11,10,0.6,0.8
2024-09-27T1600,1880A,104.6697,31.4668,绵阳市,高新区自来水公司,臭氧1小时,89,68,89,41,58,191,,139,139,12,47,4,4,0.8,0.9
2024-09-27T1600,1881A,104.7287,31.5075,绵阳市,三水厂,臭氧1小时,79,59,86,52,64,183,,132,132,13,44,8,8,0.7,1
2024-09-27T1600,3491A,104.69,31.5322,绵阳市,西科大附属小学,臭氧1小时,85,54,91,43,49,188,,130,130,10,40,4,6,0.6,0.8
2024-09-27T1600,3492A,104.5648,31.5343,绵阳市,安州区旅游局,臭氧1小时,112,66,84,56,64,223,,146,146,14,23,7,7,0.7,0.8
2024-09-27T1600,1784A,129.61,44.561,牡丹江市,环保大楼,,26,13,24,10,20,81,,58,58,6,19,7,7,0.3,0.4
2024-09-27T1600,1785A,129.6115,44.5782,牡丹江市,文化广场,,28,28,43,16,23,74,,50,50,11,25,8,8,0.3,0.5
2024-09-27T1600,1786A,129.5904,44.5963,牡丹江市,第一医院,,24,18,40,7,24,74,,57,57,9,19,7,7,0.2,0.4
2024-09-27T1600,1787A,129.6364,44.6075,牡丹江市,机车工厂,,25,14,40,12,24,77,,59,59,5,17,5,24,0.2,0.4
2024-09-27T1600,1788A,129.6386,44.5462,牡丹江市,第一中学,,26,,22,13,15,82,,60,60,6,14,6,6,0.2,0.3
2024-09-27T1600,2531A,105.0703,29.61,内江市,市监测站,臭氧1小时,88,,46,46,55,190,,142,142,22,25,7,6,0.5,0.7
2024-09-27T1600,2532A,105.0717,29.5947,内江市,东兴区政府,臭氧1小时,102,,52,40,49,203,,151,151,16,21,8,6,0.4,0.6
2024-09-27T1600,2533A,105.0653,29.5817,内江市,内江二中,臭氧1小时,100,69,61,44,55,200,,152,152,14,19,10,10,0.5,0.7
2024-09-27T1600,2534A,105.0406,29.5822,内江市,内江日报社,臭氧1小时,97,,56,43,50,197,,144,144,18,32,10,8,0.5,0.7
2024-09-27T1600,2628A,92.0657,31.4846,那曲市,那曲监测站,,17,16,28,8,11,52,,62,62,5,8,4,6,0.4,0.4
2024-09-27T1600,3128A,92.0506,31.4797,那曲市,那曲会议中心,,21,21,25,3,8,57,,73,72,3,9,3,3,0.4,0.4
2024-09-27T1600,1290A,115.8931,28.6843,南昌市,省外办,,,76,82,39,46,143,,133,133,14,24,8,11,,0.9
2024-09-27T1600,1291A,115.8886,28.7003,南昌市,省林业公司,,49,44,69,27,41,156,,144,144,11,21,6,9,0.7,0.9
2024-09-27T1600,1292A,115.8126,28.7442,南昌市,林科所,臭氧1小时,63,41,53,24,33,170,,155,155,17,25,5,7,0.9,0.7
2024-09-27T1600,1294A,115.8518,28.687,南昌市,建工学校,,50,50,62,26,39,155,,147,147,11,20,8,10,0.7,0.9
2024-09-27T1600,1295A,115.8921,28.6424,南昌市,象湖,臭氧1小时,60,33,58,32,39,168,,152,152,9,19,8,11,1.1,1.2
2024-09-27T1600,1298A,115.9314,28.6842,南昌市,省站,,48,48,56,30,42,140,,126,126,19,21,9,11,0.8,0.9
2024-09-27T1600,3046A,115.9084,28.6062,南昌市,机电学校,,46,46,71,27,40,147,,139,139,10,19,9,12,0.6,0.8
2024-09-27T1600,3690A,115.9721,28.7031,南昌市,外国语学校,,42,42,65,25,37,133,,122,122,6,17,6,8,0.7,0.8
2024-09-27T1600,1905A,106.056,30.8064,南充市,西山风景区,臭氧1小时,95,40,59,34,54,196,,152,152,6,14,5,3,0.6,0.8
2024-09-27T1600,1906A,106.0789,30.8023,南充市,南充市委,臭氧1小时,92,66,76,40,55,193,,154,154,10,32,7,4,0.4,0.7
2024-09-27T1600,1907A,106.1031,30.8217,南充市,南充炼油厂,臭氧1小时,105,59,90,43,68,209,,176,176,11,21,7,5,0.4,0.5
2024-09-27T1600,1908A,106.1064,30.7856,南充市,高坪区监测站,臭氧1小时,89,44,78,36,58,191,,151,151,15,35,9,8,0.4,0.7
2024-09-27T1600,1909A,106.0642,30.7636,南充市,嘉陵区环保局,臭氧1小时,75,62,84,39,58,180,,144,144,12,30,6,5,0.5,0.8
2024-09-27T1600,1910A,106.1087,30.8388,南充市,市环境监测站,臭氧1小时,98,63,91,39,63,198,,156,156,16,24,8,6,0.4,0.6
2024-09-27T1600,1151A,118.8086,32.1065,南京市,迈皋桥,,42,19,30,12,17,134,,100,100,4,15,3,4,0.3,0.3
2024-09-27T1600,1152A,118.7538,32.0551,南京市,草场门,,38,19,27,12,16,119,,89,89,13,25,5,5,0.2,0.3
2024-09-27T1600,1153A,118.7794,32.0745,南京市,山西路,,38,,34,19,19,121,,98,98,10,22,4,4,0.4,0.4
2024-09-27T1600,1154A,118.7752,32.0023,南京市,中华门,,40,24,24,12,15,125,,84,84,11,26,4,4,0.4,0.4
2024-09-27T1600,1155A,118.8109,32.0309,南京市,瑞金路,,40,22,29,12,15,126,,86,86,8,21,4,4,0.3,0.3
2024-09-27T1600,1156A,118.7997,32.0754,南京市,玄武湖,,38,25,34,14,15,120,,86,86,8,29,5,6,0.0,0.1
2024-09-27T1600,1157A,118.6414,32.0931,南京市,浦口,,38,26,30,13,17,121,,90,90,10,20,5,5,0.6,0.7
2024-09-27T1600,1158A,118.7356,31.9996,南京市,奥体中心,,44,30,27,22,20,138,,93,93,10,21,5,5,0.4,0.4
2024-09-27T1600,1159A,118.9125,32.1028,南京市,仙林大学城,,46,31,34,14,15,145,,106,106,10,22,6,6,0.5,0.5
2024-09-27T1600,3422A,118.8436,31.9198,南京市,江宁彩虹桥,,46,32,25,14,15,146,,100,100,4,17,4,4,0.5,0.5
2024-09-27T1600,3423A,119.0138,31.6494,南京市,溧水永阳,,44,27,25,17,13,139,,84,84,12,19,4,4,0.7,0.7
2024-09-27T1600,3424A,118.879,31.3302,南京市,高淳老职中,颗粒物(PM10),68,85,25,13,15,125,,78,78,14,20,6,4,0.6,0.7
2024-09-27T1600,3427A,118.8554,32.3578,南京市,六合雄州,,43,,33,15,18,135,,123,123,11,12,6,8,0.4,0.4
2024-09-27T1600,1401A,108.3103,22.7881,南宁市,二十一中,颗粒物(PM10),57,63,48,36,31,150,,103,103,10,24,4,5,0.8,0.9
2024-09-27T1600,1402A,108.3141,22.8528,南宁市,北湖,细颗粒物(PM2.5),57,51,51,40,38,144,,107,107,8,28,4,14,0.8,0.9
2024-09-27T1600,1403A,108.3206,22.8225,南宁市,市监测站,颗粒物(PM10),56,62,49,38,32,141,,102,102,11,27,6,10,0.7,0.8
2024-09-27T1600,1404A,108.3829,22.8037,南宁市,大自然花园,颗粒物(PM10),51,52,43,32,27,147,,111,111,10,20,5,6,0.6,0.7
2024-09-27T1600,1405A,108.4394,22.7904,南宁市,仙葫,细颗粒物(PM2.5),60,53,44,43,33,162,,111,111,11,22,7,8,1.0,1
2024-09-27T1600,1406A,108.2397,22.8467,南宁市,区农职院,颗粒物(PM10),55,60,53,34,33,130,,96,96,8,19,5,13,0.9,1
2024-09-27T1600,1407A,108.3275,22.735,南宁市,英华嘉园,细颗粒物(PM2.5),55,50,51,39,33,134,,97,97,11,30,5,5,0.7,0.8
2024-09-27T1600,1408A,108.2257,22.7757,南宁市,沙井镇街道办,,50,50,55,34,33,137,,115,115,7,30,2,4,0.8,0.8
2024-09-27T1600,3401A,108.4834,22.7618,南宁市,红星社区,臭氧1小时,84,60,43,39,29,187,,127,127,11,24,8,8,0.8,0.9
2024-09-27T1600,2332A,118.1681,26.6369,南平市,南平市监测站,,22,8,12,7,8,69,,54,54,5,9,4,4,0.5,0.5
2024-09-27T1600,2333A,118.1825,26.6489,南平市,南平铝业有限公司,,18,10,17,3,6,57,,52,52,4,9,3,4,0.5,0.6
2024-09-27T1600,2334A,118.1756,26.6272,南平市,南平七中,,21,17,15,8,8,66,,50,50,6,10,2,4,0.7,0.7
2024-09-27T1600,1168A,120.9098,31.9663,南通市,狼山街道,,50,29,20,16,9,157,,153,153,5,9,7,6,0.6,0.5
2024-09-27T1600,1169A,120.86,32.0005,南通市,虹桥,,,29,21,11,9,146,,146,146,,11,7,7,,0.5
2024-09-27T1600,1170A,120.87,32.02,南通市,城中,,45,32,28,15,10,142,,140,140,8,13,7,7,0.6,0.6
2024-09-27T1600,1171A,120.94,31.93,南通市,星湖花园,,50,31,14,13,8,158,,158,158,10,13,8,6,0.6,0.4
2024-09-27T1600,1172A,120.81,32.0417,南通市,紫琅学院,,45,23,19,10,8,144,,144,144,8,13,7,7,0.2,0.3
2024-09-27T1600,3291A,121.067,32.062,南通市,通州监测站,,,,18,,8,148,,150,150,8,8,3,3,0.7,0.5
2024-09-27T1600,3432A,120.9348,31.9883,南通市,环境教育馆,,,36,25,10,9,157,,153,153,7,16,,3,0.5,0.5
2024-09-27T1600,2404A,112.5224,33.0122,南阳市,瓦房庄,颗粒物(PM10),53,56,89,31,45,156,,148,148,28,18,2,6,0.6,0.7
2024-09-27T1600,2405A,112.5003,32.9735,南阳市,汉画馆,颗粒物(PM10),59,67,86,32,46,165,,151,151,14,17,6,8,0.6,0.7
2024-09-27T1600,2406A,112.5573,33.027,南阳市,气象站,臭氧1小时,60,62,93,34,46,168,,152,152,12,18,6,12,0.5,0.6
2024-09-27T1600,2407A,112.5481,32.9689,南阳市,理工学院,臭氧1小时,57,55,82,27,41,165,,148,148,12,17,6,8,0.6,0.6
2024-09-27T1600,4008A,112.5234,32.9922,南阳市,卧龙区政府,臭氧1小时,58,62,90,33,42,166,,150,150,12,16,4,6,0.6,0.7
2024-09-27T1600,1234A,121.8358,29.911,宁波市,区环保大楼,,26,26,25,11,11,42,,32,32,40,45,6,6,0.7,0.6
2024-09-27T1600,1235A,121.56,29.82,宁波市,万里学院,,24,24,33,11,16,54,,43,43,29,37,6,6,0.7,0.7
2024-09-27T1600,1236A,121.713,29.9572,宁波市,龙赛医院,,26,26,26,11,9,39,,42,42,42,35,8,9,0.6,0.6
2024-09-27T1600,1239A,121.633,29.7733,宁波市,钱湖水厂,,15,12,25,6,13,46,,30,30,28,28,8,8,0.6,0.7
2024-09-27T1600,1240A,121.5856,29.8635,宁波市,太古小学,,16,14,22,9,12,51,,45,45,31,39,7,8,0.8,0.9
2024-09-27T1600,1241A,121.524,29.8674,宁波市,市环境监测中心,,19,19,25,8,12,57,,49,49,26,33,3,5,0.7,0.7
2024-09-27T1600,2871A,121.6147,29.9017,宁波市,万里国际学校,,17,13,18,9,12,53,,42,42,29,44,7,8,0.6,0.6
2024-09-27T1600,3710A,121.5594,29.8975,宁波市,白沙活动中心,,17,11,16,6,8,54,,45,45,26,34,8,8,0.4,0.4
2024-09-27T1600,2341A,119.5388,26.6612,宁德市,宁德市监测站,,20,16,21,10,11,62,,66,66,11,16,7,6,0.5,0.6
2024-09-27T1600,3209A,119.5231,26.6562,宁德市,宁德一中,,26,26,21,7,8,67,,70,70,7,7,7,5,0.5,0.5
2024-09-27T1600,2618A,98.8601,25.8567,怒江傈僳族自治州,州监测站,,24,20,27,12,18,76,,52,52,5,10,4,5,0.5,0.5
2024-09-27T1600,2619A,98.8546,25.8417,怒江傈僳族自治州,泸水一中,,,,24,37,21,66,,51,51,9,13,6,6,0.5,0.5
2024-09-27T1600,1888A,101.6891,26.571,攀枝花市,弄弄坪,颗粒物(PM10),52,53,51,30,28,110,,66,66,16,26,13,11,0.6,0.7
2024-09-27T1600,1889A,101.5769,26.5928,攀枝花市,河门口,,33,32,35,20,22,105,,74,74,15,22,20,13,1.2,1.5
2024-09-27T1600,1890A,101.7169,26.585,攀枝花市,炳草岗,,42,42,93,28,49,119,,73,73,12,37,12,20,0.7,1.3
2024-09-27T1600,1891A,101.7369,26.5008,攀枝花市,仁和,,43,37,33,30,25,102,,72,72,8,14,11,6,0.6,0.6
2024-09-27T1600,2835A,101.7227,26.567,攀枝花市,四十中小,颗粒物(PM10),54,58,57,36,38,118,,72,72,10,30,15,18,0.9,1.3
2024-09-27T1600,1604A,122.0303,41.1489,盘锦市,开发区,,46,37,38,13,23,146,,119,119,12,34,12,17,0.1,0.3
2024-09-27T1600,1605A,122.0485,41.0883,盘锦市,兴隆台,,46,26,36,15,22,147,,110,110,17,47,8,8,0.3,0.4
2024-09-27T1600,1606A,121.8297,41.1028,盘锦市,新生街道,,49,29,26,13,19,156,,118,118,14,38,9,9,0.4,0.5
2024-09-27T1600,1832A,113.3257,33.742,平顶山市,新华旅馆,颗粒物(PM10),54,58,132,36,76,142,,107,107,10,27,5,8,0.3,0.6
2024-09-27T1600,1833A,113.2919,33.737,平顶山市,规划设计院,,47,45,129,21,70,149,,110,110,11,25,6,8,0.5,0.8
2024-09-27T1600,1834A,113.182,33.774,平顶山市,平顶山工学院,,49,47,136,24,79,154,,115,115,11,22,6,9,0.4,0.6
2024-09-27T1600,3204A,113.3025,33.73,平顶山市,规划局,颗粒物(PM10),62,73,137,27,69,145,,108,108,10,27,4,7,0.6,0.8
2024-09-27T1600,3594A,112.8867,33.9116,平顶山市,石龙区,颗粒物(PM10),59,68,146,36,71,163,,123,123,13,53,9,15,0.5,0.7
2024-09-27T1600,2656A,106.6692,35.5461,平凉市,聚贤嘉苑,颗粒物(PM10),60,70,80,42,46,166,,147,136,18,19,10,9,0.5,0.5
2024-09-27T1600,2657A,106.7021,35.5307,平凉市,博物馆,颗粒物(PM10),63,75,86,40,47,168,,141,141,17,25,9,8,0.6,0.6
2024-09-27T1600,2348A,113.8385,27.6434,萍乡市,中医院,,37,35,57,17,36,116,,116,116,6,16,10,11,0.8,0.9
2024-09-27T1600,2349A,113.8493,27.6253,萍乡市,市政府车库,,38,35,48,15,39,120,,114,114,4,14,12,11,0.8,1
2024-09-27T1600,2350A,113.8676,27.6435,萍乡市,市环保局,,43,43,56,28,40,107,,101,101,3,13,7,8,0.7,0.8
2024-09-27T1600,2351A,113.866,27.6198,萍乡市,安源区政府,,47,47,56,19,32,120,,116,116,6,17,12,9,0.6,0.9
2024-09-27T1600,2319A,119.0141,25.4325,莆田市,荔城区仓后路,,23,,16,10,5,73,,72,72,12,12,8,7,0.7,0.7
2024-09-27T1600,2320A,119.0015,25.4553,莆田市,莆田市监测站,,,,14,6,4,70,,66,66,7,7,6,6,0.5,0.5
2024-09-27T1600,2321A,119.1119,25.4561,莆田市,涵江区六中,,22,10,16,7,7,69,,74,74,10,10,8,8,0.6,0.6
2024-09-27T1600,2322A,119.1013,25.3215,莆田市,秀屿区政府,,25,25,16,3,5,62,,76,76,7,7,6,7,0.6,0.6
2024-09-27T1600,2392A,115.0312,35.7636,濮阳市,环保局,臭氧1小时,93,48,108,23,107,194,,161,161,9,30,9,14,0.5,0.9
2024-09-27T1600,2394A,115.0574,35.7609,濮阳市,油田运输公司,臭氧1小时,90,50,141,29,103,192,,163,163,12,28,6,11,0.4,0.8
2024-09-27T1600,2395A,115.0866,35.7754,濮阳市,油田物探公司,臭氧1小时,92,54,164,26,114,193,,171,171,10,30,6,9,0.5,0.8
2024-09-27T1600,3021A,115,35.7668,濮阳市,濮水河管理处,臭氧1小时,82,42,123,27,107,185,,152,152,10,25,7,9,0.4,0.7
2024-09-27T1600,2601A,100.98,22.7633,普洱市,市环保局,,25,25,27,10,16,54,,47,47,5,6,4,4,0.4,0.5
2024-09-27T1600,2602A,100.9817,22.8322,普洱市,普洱第二中学,,21,21,31,3,14,55,,46,46,5,9,9,9,0.4,0.5
2024-09-27T1600,2262A,131.0518,45.8751,七台河市,新一中,,29,7,12,6,8,90,,80,80,6,9,8,8,1.1,1.2
2024-09-27T1600,3345A,131.0577,45.7879,七台河市,中波台,,22,,15,7,6,69,,61,61,7,24,6,6,0.3,0.4
2024-09-27T1600,3637A,131.0176,45.7761,七台河市,人民广场,,41,41,20,15,10,74,,64,64,7,19,8,8,0.4,0.4
2024-09-27T1600,3684A,130.8781,45.8222,七台河市,新建矿广场,颗粒物(PM10),58,66,30,17,18,70,,63,63,14,18,6,6,0.2,0.5
2024-09-27T1600,1779A,123.9305,47.3636,齐齐哈尔市,安居小区,,31,31,30,9,14,95,,88,88,13,18,9,10,0.3,0.4
2024-09-27T1600,1780A,123.9488,47.3386,齐齐哈尔市,中心广场,,33,33,39,3,8,90,,86,86,12,16,1,2,0.2,0.3
2024-09-27T1600,1781A,123.9483,47.3227,齐齐哈尔市,农牧车辆厂,,,,34,,8,97,,89,89,6,11,8,8,0.4,0.3
2024-09-27T1600,1783A,123.945,47.2988,齐齐哈尔市,市环境监测站,,32,22,28,12,16,102,,93,93,5,11,8,8,0.2,0.3
2024-09-27T1600,3662A,123.6333,47.2075,齐齐哈尔市,富区青少年活动中心,,35,35,34,3,11,100,,90,90,8,11,4,5,0.3,0.5
2024-09-27T1600,2591A,107.9783,26.5747,黔东南苗族侗族自治州,市环境监测站,,40,34,42,28,33,99,,80,80,7,28,4,4,0.5,0.6
2024-09-27T1600,2881A,107.8908,26.5311,黔东南苗族侗族自治州,凯里学院,,39,,34,27,31,101,,87,87,4,16,3,3,0.7,0.7
2024-09-27T1600,2593A,107.5228,26.2403,黔南布依族苗族自治州,小围寨,,33,17,30,12,25,105,,100,100,2,10,5,5,0.5,0.6
2024-09-27T1600,3538A,107.5175,26.2978,黔南布依族苗族自治州,沙坝,,30,23,39,7,26,96,,83,83,4,14,3,4,0.4,0.6
2024-09-27T1600,2589A,104.9022,25.0925,黔西南布依族苗族自治州,场坝街,,25,23,39,13,27,80,,78,78,5,8,2,4,0.3,0.4
2024-09-27T1600,2590A,104.8811,25.0992,黔西南布依族苗族自治州,坪东大道,,25,17,37,17,26,78,,75,75,5,7,6,8,0.2,0.3
2024-09-27T1600,2502A,108.6236,21.9667,钦州市,市环保站,,41,41,51,24,30,111,,92,92,7,19,6,9,0.6,0.8
2024-09-27T1600,2503A,108.6549,21.9481,钦州市,沙埠小学,细颗粒物(PM2.5),53,46,63,37,36,126,,97,97,8,28,5,7,0.9,1.1
2024-09-27T1600,2504A,108.5989,21.7431,钦州市,港区一小,颗粒物(PM10),65,79,79,29,31,114,,102,102,13,24,7,9,0.7,0.9
2024-09-27T1600,3404A,108.5959,21.9633,钦州市,北职校,,37,37,60,25,39,111,,93,93,5,26,5,8,0.7,0.9
2024-09-27T1600,1042A,119.5134,39.8207,秦皇岛市,北戴河环保局,,36,24,30,6,10,115,,80,80,8,24,2,3,0.3,0.5
2024-09-27T1600,1043A,119.7493,40.0116,秦皇岛市,第一关,,38,34,40,22,24,121,,82,82,10,55,3,3,0.3,0.5
2024-09-27T1600,1044A,119.5897,39.9499,秦皇岛市,监测站,,42,42,42,26,26,116,,70,70,9,42,3,4,0.3,0.6
2024-09-27T1600,1046A,119.5251,39.9041,秦皇岛市,建设大厦,,37,23,48,11,16,118,,84,84,6,33,3,6,0.3,0.6
2024-09-27T1600,3132A,119.610547,39.943889,秦皇岛市,文明里,,43,43,51,12,16,119,,73,73,9,41,1,4,0.4,0.7
2024-09-27T1600,1310A,120.4134,36.0658,青岛市,市南区东部子站,,45,19,38,3,16,143,,122,122,10,27,7,7,0.5,0.6
2024-09-27T1600,1311A,120.3664,36.1032,青岛市,四方区子站,,46,22,42,9,17,145,,104,104,20,42,10,10,0.5,0.6
2024-09-27T1600,1312A,120.2994,36.054,青岛市,市南区西部子站,,45,22,40,7,11,143,,112,112,11,28,9,10,0.5,0.6
2024-09-27T1600,1313A,120.4581,36.0858,青岛市,崂山区子站,,47,14,31,3,12,149,,113,113,9,25,9,9,0.5,0.6
2024-09-27T1600,1314A,120.1983,35.9608,青岛市,黄岛区子站,,46,12,44,7,16,146,,100,100,9,48,8,10,0.4,0.5
2024-09-27T1600,1315A,120.3999,36.3083,青岛市,城阳区子站,,45,24,28,10,11,143,,130,130,14,23,8,8,0.5,0.5
2024-09-27T1600,1966A,120.0405,35.8735,青岛市,黄岛区4号,,48,22,41,7,18,151,,104,104,12,37,6,7,0.5,0.5
2024-09-27T1600,3362A,120.5014,36.4034,青岛市,即墨2号,,45,23,29,11,12,141,,115,113,9,14,7,7,0.4,0.4
2024-09-27T1600,3642A,120.3503,36.0736,青岛市,市北区南部,,47,26,42,7,15,150,,112,112,15,36,7,8,0.3,0.4
2024-09-27T1600,3643A,120.3948,36.1805,青岛市,李沧区北部,,46,29,34,14,16,145,,116,116,22,31,10,9,0.6,0.6
2024-09-27T1600,1702A,113.0426,23.691,清远市,环保大楼,,39,39,40,18,17,92,,78,78,10,18,8,7,0.9,1
2024-09-27T1600,1703A,113.0208,23.7106,清远市,凤城街办,,40,29,26,28,16,107,,79,79,5,14,8,7,0.8,0.9
2024-09-27T1600,3025A,113.0477,23.6344,清远市,技师学院,,28,24,33,15,16,87,,78,78,3,20,8,7,0.8,0.9
2024-09-27T1600,3318A,112.9903,23.7403,清远市,清新太和,,37,37,27,22,16,111,,79,79,8,11,2,2,0.8,0.8
2024-09-27T1600,3455A,113.076,23.7198,清远市,清城东城,颗粒物(PM10),52,53,35,33,20,128,,92,92,4,8,3,3,0.8,0.8
2024-09-27T1600,2661A,107.6325,35.7357,庆阳市,庆阳五中,颗粒物(PM10),62,73,73,28,36,168,,155,155,9,10,7,7,0.6,0.5
2024-09-27T1600,2662A,107.6364,35.7067,庆阳市,市环保局,臭氧1小时,60,66,74,26,38,168,,153,153,11,11,7,8,0.5,0.5
2024-09-27T1600,1916A,103.7897,25.5035,曲靖市,环境监测站,,,40,47,13,25,77,,69,69,7,14,3,8,,0.8
2024-09-27T1600,1917A,103.8,25.5364,曲靖市,烟厂办公区,,30,30,42,19,25,87,,67,67,7,13,4,4,0.3,0.5
2024-09-27T1600,3376A,103.7947,25.462,曲靖市,南苑二区,,24,19,45,8,26,76,,69,69,7,12,6,14,0.4,0.5
2024-09-27T1600,3377A,103.7444,25.5261,曲靖市,曲靖师范学院,,28,26,34,17,28,88,,80,80,11,11,14,9,0.6,0.6
2024-09-27T1600,1264A,118.8692,28.9398,衢州市,环保大楼,,27,9,31,7,26,86,,64,64,9,18,3,3,0.4,0.6
2024-09-27T1600,1265A,118.8709,28.9666,衢州市,实验学校,,27,11,34,7,29,84,,66,66,7,16,7,6,0.5,0.7
2024-09-27T1600,1266A,118.8621,28.9808,衢州市,衢州学院,,26,9,40,6,27,83,,64,64,7,19,7,7,0.5,0.7
2024-09-27T1600,1611A,118.5819,24.9117,泉州市,涂山街,,26,17,18,8,10,81,,88,88,7,11,1,2,0.5,0.6
2024-09-27T1600,1612A,118.5972,24.8978,泉州市,津头埔,,23,21,19,8,8,73,,88,88,10,11,3,4,0.7,0.7
2024-09-27T1600,1613A,118.6663,24.9424,泉州市,万安,,22,22,18,9,7,66,,80,80,11,10,2,3,0.6,0.6
2024-09-27T1600,3529A,118.6333,24.9264,泉州市,城华南路,,21,14,14,9,9,66,,83,83,6,8,3,3,0.3,0.3
2024-09-27T1600,2626A,88.8876,29.2718,日喀则市,日喀则监测站,,20,6,4,3,2,64,,67,59,4,5,6,5,0.4,0.4
2024-09-27T1600,3726A,88.8781,29.2426,日喀则市,林业技术推广中心,,20,6,6,3,1,62,,60,54,6,7,6,6,0.5,0.5
2024-09-27T1600,1659A,119.471,35.4209,日照市,监测站,,41,14,38,9,22,130,,118,118,12,26,11,12,0.4,0.6
2024-09-27T1600,1660A,119.523,35.4216,日照市,市政府广场,,44,12,41,9,20,138,,118,118,8,22,9,11,0.3,0.5
2024-09-27T1600,1661A,119.5587,35.4044,日照市,港务局,,43,,38,12,24,136,,116,116,5,17,6,9,0.3,0.4
2024-09-27T1600,3507A,119.5328,35.4625,日照市,职业技术学院,,43,12,38,7,20,135,,120,120,8,22,9,10,0.4,0.6
2024-09-27T1600,3604A,119.3266,35.1044,日照市,岚山环保分局,,44,17,55,9,30,140,,122,122,9,35,9,23,0.5,1.9
2024-09-27T1600,1835A,111.1922,34.7752,三门峡市,市政府,臭氧1小时,70,82,109,38,59,176,,148,148,16,20,11,14,0.9,1
2024-09-27T1600,1836A,111.1587,34.7942,三门峡市,开发区,颗粒物(PM10),86,122,145,48,66,172,,150,147,18,19,12,12,0.6,0.7
2024-09-27T1600,1838A,111.143,34.7955,三门峡市,风景区,臭氧1小时,90,118,114,40,54,192,,171,171,18,18,12,12,0.9,0.9
2024-09-27T1600,3039A,111.1911,34.7829,三门峡市,三门峡市第一小学,颗粒物(PM10),76,101,111,46,58,180,,153,152,16,18,12,12,0.8,0.8
2024-09-27T1600,3598A,111.1,34.7167,三门峡市,富达温泉假日酒店,颗粒物(PM10),83,116,134,46,82,180,,153,153,22,24,11,16,0.9,1
2024-09-27T1600,2324A,117.6211,26.2625,三明市,三钢,,23,20,19,13,13,72,,54,54,14,17,10,8,1.3,0.8
2024-09-27T1600,2325A,117.635,26.2714,三明市,三明二中,,,25,20,10,10,75,,58,58,,15,4,4,1.2,1.1
2024-09-27T1600,2326A,117.6028,26.2378,三明市,三元区政府,,30,30,29,9,16,71,,46,46,21,19,17,5,1.6,0.7
2024-09-27T1600,1877A,109.4964,18.2681,三亚市,河西子站,,14,6,12,3,5,43,,40,40,4,9,3,3,0.3,0.4
2024-09-27T1600,3540A,109.7348,18.3443,三亚市,君悦子站,,14,8,14,3,4,44,,42,42,3,9,3,3,0.4,0.4
2024-09-27T1600,2624A,91.7608,29.2313,山南市,山南监测站,,20,,12,6,7,62,,53,53,6,10,8,8,0.3,0.3
2024-09-27T1600,2625A,91.7706,29.2436,山南市,山南人民医院,,20,19,14,3,5,64,,54,54,7,10,8,9,0.4,0.3
2024-09-27T1600,1674A,116.6794,23.3667,汕头市,金平子站,,34,31,26,3,22,107,,112,112,6,8,6,5,1.0,1
2024-09-27T1600,1675A,116.7244,23.3633,汕头市,龙湖子站,颗粒物(PM10),52,53,27,22,19,142,,113,113,6,8,8,8,0.6,0.7
2024-09-27T1600,1676A,116.7258,23.2775,汕头市,濠江子站,,33,29,26,12,24,103,,91,91,10,9,6,7,0.8,0.9
2024-09-27T1600,1677A,116.7519,23.4714,汕头市,澄海子站,臭氧1小时,72,36,27,17,19,177,,114,114,13,11,7,7,0.8,0.8
2024-09-27T1600,1678A,116.6092,23.2539,汕头市,潮阳子站,细颗粒物(PM2.5),54,,23,38,18,94,,99,99,2,4,5,5,0.6,0.6
2024-09-27T1600,3444A,116.454,23.2684,汕头市,潮南峡山,,29,,31,11,20,90,,91,91,1,5,6,6,0.5,0.5
2024-09-27T1600,3624A,116.4069,23.2533,汕头市,潮南子站,,29,28,33,9,20,92,,91,91,8,11,5,5,0.6,0.7
2024-09-27T1600,1693A,115.3653,22.775,汕尾市,市环保局,臭氧1小时,127,54,32,42,26,253,,177,177,12,11,7,7,0.9,0.9
2024-09-27T1600,1694A,115.3706,22.7898,汕尾市,市政府,臭氧1小时,108,61,30,34,22,215,,146,146,13,12,7,7,0.7,0.7
2024-09-27T1600,1695A,115.3622,22.7925,汕尾市,新城中学,臭氧1小时,111,62,37,41,24,221,,153,153,10,8,6,6,0.9,0.9
2024-09-27T1600,2645A,109.9154,33.8715,商洛市,监测站,颗粒物(PM10),54,57,58,25,29,155,,128,128,10,20,6,7,0.5,0.5
2024-09-27T1600,3045A,109.9643,33.8471,商洛市,商州区中学,颗粒物(PM10),61,72,66,30,28,152,,134,134,13,27,7,9,0.7,0.7
2024-09-27T1600,2408A,115.6702,34.4285,商丘市,环境监测站,臭氧1小时,63,48,83,25,46,170,,163,163,9,22,5,5,0.5,0.6
2024-09-27T1600,2409A,115.6458,34.4045,商丘市,粮食局,臭氧1小时,77,48,72,27,49,181,,176,176,6,14,5,5,0.6,0.7
2024-09-27T1600,2410A,115.6293,34.3948,商丘市,睢阳区环保局,臭氧1小时,68,53,73,26,42,174,,168,168,10,17,6,5,0.4,0.6
2024-09-27T1600,3171A,115.6071,34.4465,商丘市,梁园区档案局,颗粒物(PM10),51,51,73,26,41,151,,144,144,8,22,5,5,0.5,0.7
2024-09-27T1600,1141A,121.4,31.238,上海市,普陀,,42,34,17,16,8,134,,106,106,15,19,5,5,0.7,0.7
2024-09-27T1600,1142A,121.478,31.2036,上海市,十五厂,,45,39,20,21,11,142,,112,112,18,25,9,9,0.4,0.4
2024-09-27T1600,1143A,121.467,31.3008,上海市,虹口,,41,35,20,16,9,130,,108,108,18,27,10,9,0.5,0.5
2024-09-27T1600,1144A,121.412,31.1654,上海市,徐汇上师大,,45,36,19,15,13,141,,109,109,16,23,6,6,0.6,0.6
2024-09-27T1600,1145A,121.536,31.2659,上海市,杨浦四漂,,45,45,22,20,9,141,,117,117,16,22,7,7,0.5,0.5
2024-09-27T1600,1147A,121.425,31.2261,上海市,静安监测站,,43,34,16,17,9,136,,114,114,21,23,6,7,0.5,0.5
2024-09-27T1600,1148A,121.703,31.1907,上海市,浦东川沙,,45,34,21,14,6,144,,125,125,10,18,6,6,0.7,0.7
2024-09-27T1600,1149A,121.533,31.2284,上海市,浦东新区监测站,,43,32,18,18,9,137,,113,113,15,23,7,6,0.7,0.6
2024-09-27T1600,1150A,121.577,31.2071,上海市,浦东张江,,40,36,19,18,8,126,,108,108,14,25,5,5,0.8,0.7
2024-09-27T1600,3265A,121.4316,31.3322,上海市,宝山庙行,,43,37,22,15,10,136,,115,115,12,23,7,7,0.7,0.6
2024-09-27T1600,3266A,121.8791,31.4662,上海市,崇明上实东滩,,,,12,,5,152,,,,4,5,12,11,1.0,0.5
2024-09-27T1600,3268A,121.3162,31.2838,上海市,嘉定南翔,,42,32,18,15,9,132,,106,106,19,27,7,7,0.5,0.5
2024-09-27T1600,3269A,121.3359,30.7456,上海市,金山新城,,43,25,12,17,10,137,,92,92,13,18,5,5,0.4,0.4
2024-09-27T1600,3270A,121.4996,31.0739,上海市,闵行浦江,,44,31,17,16,9,140,,110,110,10,19,6,6,0.5,0.4
2024-09-27T1600,3271A,121.2886,31.1663,上海市,青浦徐泾,,45,29,16,16,11,144,,108,108,18,27,7,6,0.5,0.5
2024-09-27T1600,3272A,121.2186,31.0378,上海市,松江图书馆,,44,29,16,14,9,139,,98,98,18,26,4,4,0.5,0.5
2024-09-27T1600,3273A,121.3902,31.2059,上海市,长宁仙霞,,43,38,17,12,10,137,,106,106,21,24,9,9,0.8,0.8
2024-09-27T1600,3274A,121.7965,31.0507,上海市,浦东惠南,,44,33,21,15,9,140,,122,122,10,18,9,8,0.7,0.6
2024-09-27T1600,3544A,121.4891,30.925,上海市,奉贤南桥新城,,43,31,18,15,9,137,,104,104,13,18,8,8,0.6,0.6
2024-09-27T1600,2382A,117.9756,28.4436,上饶市,市监测站,,,8,29,3,20,82,,66,66,8,14,4,4,,0.7
2024-09-27T1600,2383A,117.9519,28.4628,上饶市,凤凰光学,,25,18,30,9,20,80,,62,62,9,12,6,7,0.7,0.8
2024-09-27T1600,3413A,118.1953,28.4401,上饶市,广丰区教体局,,25,10,30,3,20,79,,57,57,8,14,8,12,0.8,0.9
2024-09-27T1600,3685A,117.897,28.4315,上饶市,双创科技城,,26,13,32,7,20,82,,64,64,11,16,4,4,0.5,0.7
