timepoint,stationcode,longitude,latitude,area,positionname,primarypollutant,aqi,pm10,pm10_24h,pm2_5,pm2_5_24h,o3,o3_24h,o3_8h,o3_8h_24h,no2,no2_24h,so2,so2_24h,co,co_24h
2024-09-27T1700,2566A,102.1879,31.914,阿坝藏族羌族自治州,州农科所,,21,11,24,10,10,67,,62,62,9,14,7,8,0,0.1
2024-09-27T1700,2568A,102.2502,31.8896,阿坝藏族羌族自治州,马师校,,22,13,17,3,14,69,,62,62,8,8,4,4,0.3,0.3
2024-09-27T1700,3994A,102.2165,31.9024,阿坝藏族羌族自治州,马尔康中学西区,,24,,20,12,16,74,,58,58,4,8,6,6,0.3,0.3
2024-09-27T1700,2695A,80.292,41.1694,阿克苏地区,电视台,,43,36,106,10,35,137,,100,100,9,26,6,5,0.3,0.5
2024-09-27T1700,2696A,80.2613,41.1551,阿克苏地区,艺术中心,,42,42,105,13,39,129,,92,92,3,27,3,4,0.4,0.8
2024-09-27T1700,2204A,105.6467,38.8363,阿拉善盟,西城区西花园,颗粒物(PM10),54,58,39,30,22,136,,123,123,12,11,12,11,1.0,0.8
2024-09-27T1700,2205A,105.6985,38.8411,阿拉善盟,蒙二幼,颗粒物(PM10),52,54,40,24,16,114,,110,110,16,10,8,7,0.7,0.5
2024-09-27T1700,2206A,105.724,38.8516,阿拉善盟,环保局新楼,,,46,34,23,14,115,,110,110,,8,10,9,0.6,0.5
2024-09-27T1700,2708A,88.1264,47.8517,阿勒泰地区,市站,,21,17,25,3,5,66,,67,67,11,12,8,8,0.2,0.4
2024-09-27T1700,2630A,80.1161,32.5,阿里地区,阿里监测站,,36,10,8,3,5,115,,107,107,3,9,7,8,0.3,0.3
2024-09-27T1700,3192A,80.0903,32.5028,阿里地区,阿里藏医院,,35,8,12,3,5,110,,105,105,3,5,6,6,0.3,0.2
2024-09-27T1700,2643A,109.0281,32.6939,安康市,安康市监测站,颗粒物(PM10),56,61,62,31,32,164,,167,167,8,12,9,13,0.6,0.7
2024-09-27T1700,2644A,109.0072,32.6975,安康市,汉滨区检察院,臭氧1小时,68,65,57,34,30,174,,168,168,8,11,9,10,0.4,0.5
2024-09-27T1700,2291A,117.0809,30.5177,安庆市,环科院,,35,25,46,8,36,112,,97,97,11,16,7,9,0.8,1
2024-09-27T1700,2292A,117.0331,30.5119,安庆市,马山宾馆,,38,21,44,7,36,121,,102,102,11,16,9,10,0.7,0.9
2024-09-27T1700,2294A,116.9896,30.6145,安庆市,安庆大学,,29,19,45,6,35,92,,85,85,9,12,8,8,0.4,0.6
2024-09-27T1700,3173A,117.0598,30.5351,安庆市,市人大,,33,22,44,9,38,105,,94,94,10,14,8,9,0.7,0.9
2024-09-27T1700,3123A,105.9408,26.2431,安顺市,凤凰山,,43,36,36,30,28,108,,95,94,4,6,4,5,0.5,0.5
2024-09-27T1700,3124A,105.9439,26.2564,安顺市,金钟山,,45,35,36,31,29,109,,97,97,5,6,7,7,0.7,0.6
2024-09-27T1700,3125A,105.8983,26.2481,安顺市,娄家坡,,49,41,35,34,29,107,,97,96,8,6,6,6,0.5,0.6
2024-09-27T1700,1819A,114.3551,36.1017,安阳市,红庙街,臭氧1小时,108,71,107,52,83,215,,178,178,11,24,6,12,0.6,0.9
2024-09-27T1700,1820A,114.361,36.0681,安阳市,银杏小区,臭氧1小时,103,79,103,32,51,206,,172,172,10,17,4,8,0.7,0.9
2024-09-27T1700,3141A,114.3922,36.0878,安阳市,信访局,臭氧1小时,109,80,127,37,62,218,,184,184,15,25,5,8,0.8,1
2024-09-27T1700,3669A,114.4705,36.0637,安阳市,左辅环卫站,臭氧1小时,101,130,166,46,94,201,,171,171,16,26,6,8,0.6,0.8
2024-09-27T1700,3703A,114.2917,36.0949,安阳市,安钢职工学校,臭氧1小时,99,90,118,37,90,199,,166,166,10,29,7,12,0.7,1.3
2024-09-27T1700,1748A,123.044,41.1196,鞍山市,深沟寺,,32,32,45,14,24,82,,88,88,12,30,6,7,0.6,0.9
2024-09-27T1700,1749A,123.011,41.0931,鞍山市,太阳城,,32,24,45,16,25,100,,96,96,15,29,9,10,0.6,0.9
2024-09-27T1700,1750A,123.0485,41.1442,鞍山市,太平,,35,35,51,16,27,107,,92,92,24,40,12,12,0.6,1
2024-09-27T1700,1751A,122.9642,41.0971,鞍山市,铁西三道街,,41,41,75,13,34,97,,91,91,28,43,14,13,0.9,1.5
2024-09-27T1700,1752A,122.9341,41.0833,鞍山市,铁西工业园区,,35,35,78,11,37,102,,89,89,29,42,14,13,0.7,1.4
2024-09-27T1700,1753A,123.022,41.0821,鞍山市,明达新区,,33,33,46,19,23,98,,93,93,18,29,9,8,0.6,0.9
2024-09-27T1700,2195A,107.4212,40.761,巴彦淖尔市,附二中,颗粒物(PM10),72,93,96,48,43,146,,135,135,13,19,6,7,0.7,0.7
2024-09-27T1700,2196A,107.37,40.7372,巴彦淖尔市,市环保大楼,颗粒物(PM10),66,81,82,29,30,149,,138,138,12,13,4,6,0.6,0.6
2024-09-27T1700,1956A,86.1472,41.7538,巴音郭楞蒙古自治州,孔雀公园,,38,38,60,13,14,107,,103,102,6,12,6,7,0.3,0.3
2024-09-27T1700,1957A,86.1972,41.7166,巴音郭楞蒙古自治州,棉纺厂,,32,30,66,3,15,100,,96,96,9,15,5,6,0.2,0.2
2024-09-27T1700,1958A,86.2357,41.7173,巴音郭楞蒙古自治州,经济开发区,,43,43,61,12,20,101,,99,99,9,10,8,13,0.4,0.4
2024-09-27T1700,2914A,106.7677,31.8794,巴中市,苏山坪,臭氧1小时,65,34,58,29,44,172,,142,142,8,8,5,4,0.5,0.5
2024-09-27T1700,3182A,106.7656,31.8545,巴中市,丽阳花园,臭氧1小时,73,36,61,28,50,178,,138,138,10,22,7,6,0.6,0.8
2024-09-27T1700,3183A,106.7418,31.8654,巴中市,圣泉水务公司,臭氧1小时,69,38,61,30,49,175,,138,138,9,21,6,4,0.6,0.7
2024-09-27T1700,3616A,106.7616,31.8344,巴中市,市中心医院,臭氧1小时,73,38,67,29,52,178,,141,141,8,24,7,6,0.5,0.8
2024-09-27T1700,2235A,122.7911,45.6077,白城市,洮北区环保局,,30,21,24,8,16,96,,99,99,9,17,2,3,0.0,0.2
2024-09-27T1700,2236A,122.8738,45.5725,白城市,市环保局,,27,14,20,7,12,84,,94,94,11,27,4,4,0.3,0.3
2024-09-27T1700,2231A,126.4219,41.9171,白山市,喜丰,,31,21,39,6,12,97,,85,85,19,19,8,7,0.6,0.6
2024-09-27T1700,2232A,126.4077,41.9419,白山市,环保局,,28,28,31,9,13,83,,78,78,22,17,10,8,0.7,0.7
2024-09-27T1700,2647A,104.1724,36.5446,白银市,第三小学,,38,38,45,22,23,103,,81,81,10,27,16,33,0.4,1
2024-09-27T1700,2648A,104.1465,36.5482,白银市,动力公司,,35,35,36,13,14,102,,84,84,7,21,6,10,0.4,0.7
2024-09-27T1700,2512A,106.6103,23.9011,百色市,市监测站,颗粒物(PM10),57,64,64,39,48,126,,101,101,9,16,12,14,0.7,0.8
2024-09-27T1700,2513A,106.6538,23.8859,百色市,市中心血站,细颗粒物(PM2.5),63,72,72,45,47,111,,102,102,9,17,12,15,0.8,0.8
2024-09-27T1700,3406A,106.6085,23.8798,百色市,祈福高中,颗粒物(PM10),77,104,76,41,39,145,,106,106,15,20,16,12,1.0,0.9
2024-09-27T1700,2270A,117.396,32.939,蚌埠市,工人疗养院,,42,31,45,14,19,133,,142,141,6,16,6,8,0.4,0.4
2024-09-27T1700,2271A,117.3605,32.9427,蚌埠市,百货大楼,,40,38,42,12,18,128,,135,135,4,13,6,8,0.4,0.4
2024-09-27T1700,2273A,117.4185,32.8911,蚌埠市,蚌埠学院,,41,24,36,17,22,129,,133,133,5,18,6,7,0.4,0.4
2024-09-27T1700,2274A,117.3533,32.9673,蚌埠市,淮上区政府,,37,36,42,13,23,116,,130,130,11,13,6,6,0.3,0.4
2024-09-27T1700,2275A,117.3145,32.8977,蚌埠市,高新区,,39,29,33,7,18,122,,129,129,7,13,6,7,0.4,0.4
2024-09-27T1700,3715A,117.3092,32.9314,蚌埠市,蚌埠田家炳中学,,40,33,40,11,19,126,,135,135,4,8,5,6,0.3,0.3
2024-09-27T1700,1585A,109.8756,40.6532,包头市,市环境监测站,颗粒物(PM10),55,60,52,34,24,148,,138,138,31,36,16,13,0.9,0.8
2024-09-27T1700,1587A,109.9991,40.5842,包头市,包头八中,颗粒物(PM10),60,70,52,27,27,150,,133,133,22,25,8,9,0.8,0.8
2024-09-27T1700,1588A,109.8538,40.6821,包头市,青山宾馆,颗粒物(PM10),55,59,46,25,29,154,,142,142,27,28,17,14,1.0,1
2024-09-27T1700,1589A,109.8642,40.6288,包头市,惠龙物流,颗粒物(PM10),59,67,51,31,23,157,,140,140,17,23,7,8,1.1,1
2024-09-27T1700,1590A,110.0377,40.5546,包头市,东河鸿龙湾,颗粒物(PM10),59,68,49,26,22,152,,138,138,17,22,19,17,0.8,0.8
2024-09-27T1700,3283A,109.9154,40.5685,包头市,滨河大厦,颗粒物(PM10),55,59,45,31,23,154,,140,140,21,31,11,12,0.7,0.7
2024-09-27T1700,3419A,109.9447,40.6261,包头市,包头市委党校,颗粒物(PM10),61,72,51,30,26,148,,137,137,26,27,16,18,0.7,0.7
2024-09-27T1700,3683A,109.8331,40.6576,包头市,昆区政府,颗粒物(PM10),56,62,50,26,30,157,,143,143,21,26,10,11,0.8,0.7
2024-09-27T1700,1931A,107.0708,34.3017,宝鸡市,竹园沟,臭氧1小时,114,118,82,72,57,228,,176,176,21,20,10,8,0.9,0.8
2024-09-27T1700,1932A,107.1906,34.3672,宝鸡市,三陆医院,臭氧1小时,110,150,115,78,68,220,,187,187,30,24,9,9,1.0,0.9
2024-09-27T1700,1933A,107.1431,34.3547,宝鸡市,监测站,臭氧1小时,112,149,105,82,67,224,,183,183,26,22,9,8,1.0,0.8
2024-09-27T1700,1934A,107.1186,34.3739,宝鸡市,技工学校,细颗粒物(PM2.5),120,143,105,91,70,218,,183,183,32,25,10,10,0.9,0.9
2024-09-27T1700,1935A,107.3906,34.3528,宝鸡市,陈仓区环保局家属楼,颗粒物(PM10),117,183,117,70,70,232,,199,199,25,36,10,11,0.8,0.9
2024-09-27T1700,1936A,107.2058,34.3497,宝鸡市,文理学院,臭氧1小时,115,142,114,76,69,229,,190,190,22,20,11,11,0.9,0.8
2024-09-27T1700,1937A,107.2386,34.3622,宝鸡市,三迪小学,臭氧1小时,111,143,111,80,72,222,,187,187,30,28,11,11,0.9,0.8
2024-09-27T1700,1051A,115.493,38.8632,保定市,游泳馆,,48,48,61,20,45,151,,122,122,10,23,5,4,0.2,0.4
2024-09-27T1700,1052A,115.5213,38.8959,保定市,华电二区,,46,46,67,24,44,143,,112,112,14,39,4,3,0,0.4
2024-09-27T1700,1053A,115.4713,38.9108,保定市,接待中心,,46,42,76,29,48,145,,117,117,14,41,4,3,0.1,0.4
2024-09-27T1700,1054A,115.4612,38.8416,保定市,地表水厂,颗粒物(PM10),62,73,68,23,39,143,,115,115,14,31,3,4,0.0,0.2
2024-09-27T1700,3581A,115.31981,38.95208,保定市,满城区生态环境分局,颗粒物(PM10),54,58,101,24,60,152,,124,124,21,35,6,5,0.4,0.6
2024-09-27T1700,3582A,115.47694,38.76408,保定市,清苑区第二中学,,50,50,69,25,42,145,,117,117,14,39,2,3,0.3,0.5
2024-09-27T1700,3583A,115.62909,39.02311,保定市,徐水物探局,,50,47,67,24,41,159,,129,129,14,35,5,6,0.4,0.5
2024-09-27T1700,4004A,115.4202,38.8656,保定市,双鹰农机,颗粒物(PM10),51,51,76,24,40,148,,124,124,26,34,3,3,0.4,0.5
2024-09-27T1700,4034A,115.5150,38.8590,保定市,植保所站,,49,49,71,18,47,153,,122,122,14,33,6,6,0.3,0.5
2024-09-27T1700,2594A,99.1678,25.1081,保山市,市环境监测站,,,15,25,13,14,55,,42,42,5,9,3,4,,0.4
2024-09-27T1700,2595A,99.1711,25.1328,保山市,市环保局,,19,19,28,3,10,59,,48,48,3,7,6,6,0.4,0.5
2024-09-27T1700,1867A,109.1436,21.4086,北海市,海滩公园,,34,29,35,17,21,107,,120,116,4,7,5,5,0.6,0.6
2024-09-27T1700,1868A,109.0981,21.4661,北海市,新市环保局,,35,32,36,19,27,112,,116,116,6,8,4,4,0.7,0.8
2024-09-27T1700,1869A,109.1778,21.5233,北海市,北海工业园,,49,49,50,32,33,135,,123,123,9,16,7,6,0.7,0.7
2024-09-27T1700,3400A,109.1911,21.4415,北海市,龙潭自来水厂,,36,33,39,25,36,108,,111,111,4,12,6,5,0.6,0.7
2024-09-27T1700,1001A,116.3621,39.8784,北京市,万寿西宫,,33,33,48,18,27,100,,78,78,22,33,2,2,0.5,0.6
2024-09-27T1700,1002A,116.2202,40.2915,北京市,定陵,细颗粒物(PM2.5),57,,36,40,36,40,,32,32,14,11,1,2,0.5,0.6
2024-09-27T1700,1003A,116.4174,39.9289,北京市,东四,,42,42,50,21,27,93,,73,73,25,31,3,4,0.6,0.7
2024-09-27T1700,1004A,116.4072,39.8863,北京市,天坛,,32,32,41,18,26,100,,73,73,22,26,1,2,0.5,0.7
2024-09-27T1700,1005A,116.462,39.9365,北京市,农展馆,,36,36,48,17,25,82,,60,60,24,32,3,4,0.4,0.6
2024-09-27T1700,1006A,116.3392,39.9295,北京市,官园,,39,39,46,19,26,93,,76,76,24,28,7,7,0.6,0.7
2024-09-27T1700,1007A,116.2878,39.9611,北京市,海淀万柳,,28,28,49,13,26,87,,65,65,21,35,4,4,0.3,0.5
2024-09-27T1700,1008A,116.6636,40.135,北京市,顺义新城,,25,25,58,14,32,73,,55,55,16,38,2,2,0.4,0.6
2024-09-27T1700,1009A,116.6275,40.3275,北京市,怀柔镇,,25,21,39,11,23,80,,54,54,18,25,2,3,0.4,0.6
2024-09-27T1700,1010A,116.2296,40.217,北京市,昌平镇,,44,44,49,23,28,49,,40,40,25,27,4,3,0.5,0.6
2024-09-27T1700,1011A,116.3966,39.9821,北京市,奥体中心,,35,35,47,17,25,82,,61,61,28,41,3,3,0.6,0.6
2024-09-27T1700,1012A,116.184,39.9136,北京市,古城,颗粒物(PM10),52,54,71,26,39,73,,60,60,33,42,4,3,0.7,0.7
2024-09-27T1700,3281A,115.9718,40.4529,北京市,延庆夏都,,42,42,50,27,32,76,,65,65,17,15,1,2,0.5,0.6
2024-09-27T1700,3417A,117.0709,40.1465,北京市,平谷新城,,40,40,42,25,26,106,,76,76,13,15,3,2,0.7,0.6
2024-09-27T1700,3418A,116.8336,40.4095,北京市,密云新城,,25,25,39,13,20,75,,54,54,13,15,1,2,0.4,0.5
2024-09-27T1700,3671A,116.088,39.9726,北京市,门头沟三家店,颗粒物(PM10),54,58,61,34,34,41,,44,44,38,34,7,7,0.5,0.7
2024-09-27T1700,3672A,116.1541,39.8204,北京市,丰台云岗,,29,29,57,17,37,80,,61,61,16,30,5,4,0.4,0.6
2024-09-27T1700,3673A,116.6804,39.9081,北京市,通州东关,,39,37,52,19,27,124,,80,80,21,36,1,1,0.4,0.6
2024-09-27T1700,3674A,115.9577,39.7603,北京市,房山燕山,,41,41,59,21,37,98,,70,70,18,19,1,2,0.4,0.5
2024-09-27T1700,3675A,116.4672,39.7733,北京市,大兴旧宫,,33,29,42,16,24,105,,79,79,17,23,3,3,0.4,0.5
2024-09-27T1700,3694A,115.986,40.4563,北京市,延庆石河营,,42,39,47,29,35,76,,64,64,16,14,3,2,0.4,0.5
2024-09-27T1700,3695A,116.6151,40.3053,北京市,怀柔新城,,25,24,38,15,27,77,,51,51,14,20,1,2,0.4,0.6
2024-09-27T1700,3696A,116.2545,39.8768,北京市,丰台小屯,,26,25,51,13,29,83,,63,63,19,34,2,2,0.5,0.7
2024-09-27T1700,3697A,116.84,40.3844,北京市,密云镇,,25,25,44,15,24,69,,47,47,9,29,4,3,0.4,0.5
2024-09-27T1700,1761A,123.8275,41.3064,本溪市,大峪,,31,18,25,10,10,97,,78,78,19,22,10,9,0.5,0.6
2024-09-27T1700,1762A,123.7567,41.3325,本溪市,溪湖,,30,30,54,8,16,89,,76,76,31,31,12,8,0.8,0.9
2024-09-27T1700,1763A,123.7169,41.3094,本溪市,彩屯,,30,23,38,12,22,94,,75,75,28,34,8,10,0.6,0.9
2024-09-27T1700,1764A,123.7669,41.2864,本溪市,东明,,35,28,40,10,17,109,,84,84,19,38,7,6,0.6,0.9
2024-09-27T1700,1765A,123.7992,41.2664,本溪市,新立屯,颗粒物(PM10),54,58,25,12,10,52,,80,80,50,37,7,5,1.2,0.6
2024-09-27T1700,1766A,123.8142,41.3472,本溪市,威宁,,31,31,43,8,18,91,,74,74,24,28,9,9,0.4,0.6
2024-09-27T1700,2587A,105.2864,27.3125,毕节市,八中,,42,42,39,27,27,105,,93,93,13,12,7,6,0.6,0.6
2024-09-27T1700,2588A,105.31,27.2944,毕节市,师专,,43,36,44,30,35,107,,92,92,9,17,9,8,0.6,0.7
2024-09-27T1700,3537A,105.3631,27.3533,毕节市,长征村,细颗粒物(PM2.5),52,45,67,36,54,114,,108,108,5,8,8,8,0.5,0.7
2024-09-27T1700,1629A,118.0018,37.3617,滨州市,第二水厂,,44,44,33,9,14,131,,123,123,13,26,12,15,0.3,0.5
2024-09-27T1700,1630A,117.9776,37.393,滨州市,北中新校,,48,48,32,14,11,142,,127,127,10,14,11,21,0.3,0.7
2024-09-27T1700,3514A,117.9378,37.3956,滨州市,中海酒店,,46,41,28,19,17,146,,132,132,16,21,10,13,0.6,0.6
2024-09-27T1700,3516A,118.0917,37.694,滨州市,金海六路,,42,32,28,7,9,132,,121,121,6,10,5,6,0.5,0.5
2024-09-27T1700,4028A,117.9956,37.3753,滨州市,滨州市西街道办事处,,46,34,27,22,17,145,,133,133,12,20,13,25,0.5,0.5
2024-09-27T1700,2311A,115.8072,33.8399,亳州市,污水处理厂,,49,44,57,19,36,154,,141,141,12,21,4,8,0.4,0.5
2024-09-27T1700,2312A,115.7789,33.8518,亳州市,三国揽胜宫,,46,43,52,21,32,147,,137,137,11,17,3,6,0.5,0.6
2024-09-27T1700,3332A,115.7633,33.8034,亳州市,亳州学院,,48,35,58,19,27,152,,136,136,8,12,2,5,0.5,0.6
2024-09-27T1700,2693A,82.0485,44.8556,博尔塔拉蒙古自治州,市党校,,23,13,21,3,11,72,,78,67,5,8,4,4,0.3,0.4
2024-09-27T1700,2694A,82.0806,44.8969,博尔塔拉蒙古自治州,市环保局,,,19,24,12,10,68,,74,63,,8,4,4,0.3,0.3
2024-09-27T1700,1071A,116.8842,38.2991,沧州市,沧县城建局,,47,47,33,25,18,149,,122,122,19,24,7,3,0.4,0.3
2024-09-27T1700,1072A,116.8584,38.3254,沧州市,电视转播站,臭氧1小时,53,41,32,19,14,162,,130,130,18,22,3,2,0.3,0.3
2024-09-27T1700,1073A,116.8709,38.3228,沧州市,市环保局,,48,48,34,26,22,150,,124,124,17,21,6,4,0.3,0.2
2024-09-27T1700,3324A,116.8136,38.3004,沧州市,河北水利电力学院,,50,46,30,24,18,159,,126,126,18,20,7,5,0.3,0.2
2024-09-27T1700,2622A,97.1806,31.1273,昌都市,昌都监测站,,,11,21,9,7,59,,50,50,,18,7,6,0.3,0.4
2024-09-27T1700,3719A,97.1714,31.1406,昌都市,昌都会议中心,,22,6,13,3,6,68,,59,59,1,8,7,8,0.1,0.2
2024-09-27T1700,2692A,87.2717,44.0297,昌吉回族自治州,新区政务中心,,29,,16,20,16,48,,61,48,10,9,7,7,0.5,0.5
2024-09-27T1700,3613A,87.3095,44.0142,昌吉回族自治州,亚心广场,,15,14,19,7,4,46,,56,46,17,14,3,3,0.5,0.5
2024-09-27T1700,1119A,125.3325,43.9166,长春市,食品厂,,39,39,86,21,34,90,,86,86,13,45,5,7,0.3,0.7
2024-09-27T1700,1120A,125.2863,43.9027,长春市,客车厂,,26,24,62,18,32,72,,75,75,31,51,8,8,0.3,0.8
2024-09-27T1700,1121A,125.2841,43.8463,长春市,邮电学院,,24,23,39,13,23,74,,80,80,12,31,8,8,0.2,0.5
2024-09-27T1700,1122A,125.3716,43.8772,长春市,劳动公园,,29,23,71,9,32,90,,86,86,17,42,9,9,0.1,0.6
2024-09-27T1700,1123A,125.3297,43.8805,长春市,园林处,,28,25,60,11,27,87,,81,81,19,43,6,6,0.4,0.7
2024-09-27T1700,1124A,125.4605,43.79,长春市,净月潭,,26,14,16,7,8,82,,86,86,6,8,6,6,0.3,0.3
2024-09-27T1700,1126A,125.3863,43.8447,长春市,经开区环卫处,,29,13,47,9,20,90,,84,84,15,37,8,9,0.3,0.5
2024-09-27T1700,1127A,125.245,43.7783,长春市,高新区管委会,,30,20,47,10,19,94,,81,81,12,37,6,6,0.4,0.6
2024-09-27T1700,1128A,125.1761,43.8325,长春市,岱山公园,,24,21,53,16,28,76,,76,76,24,51,4,5,0.4,0.7
2024-09-27T1700,1335A,113.0833,28.2325,长沙市,经开区环保局,臭氧1小时,101,69,90,37,69,201,,170,170,16,28,2,4,0.6,0.7
2024-09-27T1700,1336A,112.8872,28.2189,长沙市,高开区环保局,臭氧1小时,120,101,108,67,80,239,,199,199,12,32,4,6,0.6,0.7
2024-09-27T1700,1337A,113.0792,28.2053,长沙市,马坡岭,臭氧1小时,121,79,93,58,65,242,,195,195,10,27,4,6,0.7,0.7
2024-09-27T1700,1338A,112.9394,28.19,长沙市,湖南师范大学,臭氧1小时,124,93,96,51,64,247,,202,202,13,23,6,6,0.7,0.7
2024-09-27T1700,1339A,113.0178,28.1322,长沙市,雨花区环保局,臭氧1小时,112,80,88,54,59,224,,188,188,11,31,6,8,0.7,0.8
2024-09-27T1700,1340A,112.9792,28.2597,长沙市,伍家岭,臭氧1小时,103,78,97,36,72,205,,183,183,8,29,3,4,0.8,1
2024-09-27T1700,1341A,113.0014,28.1944,长沙市,火车新站,臭氧1小时,108,78,96,56,64,215,,181,181,15,27,4,6,0.8,0.8
2024-09-27T1700,1342A,112.9844,28.1178,长沙市,天心区环保局,臭氧1小时,106,81,93,51,67,211,,166,166,21,36,4,5,0.5,0.6
2024-09-27T1700,1343A,112.8908,28.1308,长沙市,湖南中医药大学,臭氧1小时,112,78,107,45,75,223,,191,191,13,36,5,6,0.7,0.9
2024-09-27T1700,1344A,112.9581,28.3611,长沙市,沙坪,臭氧1小时,106,51,88,41,58,212,,180,180,7,10,8,8,0.2,0.5
2024-09-27T1700,1727A,113.1147,36.1547,长治市,清华站,,45,43,69,31,68,132,,126,126,10,20,6,8,0.6,1.2
2024-09-27T1700,1728A,113.1031,36.1989,长治市,监测站,,50,50,75,34,60,112,,117,117,22,25,10,12,0.9,1.3
2024-09-27T1700,1730A,113.0886,36.2125,长治市,审计局,颗粒物(PM10),56,62,74,36,64,128,,118,118,16,29,6,9,0.6,1
2024-09-27T1700,1731A,113.0844,36.1856,长治市,长治八中,颗粒物(PM10),54,58,91,34,50,125,,119,119,12,24,6,8,0.7,1.3
2024-09-27T1700,2845A,113.1569,36.1911,长治市,德盛苑,颗粒物(PM10),51,51,65,29,55,135,,125,125,11,16,4,5,0.8,1.2
2024-09-27T1700,3568A,113.06,36.0464,长治市,向阳小学,颗粒物(PM10),57,64,87,37,62,139,,133,133,15,23,6,7,0.2,0.5
2024-09-27T1700,3569A,112.8792,36.3144,长治市,屯留一中,细颗粒物(PM2.5),104,91,86,78,79,140,,127,127,19,32,11,12,1.8,1.9
2024-09-27T1700,3570A,113.235,36.3489,长治市,潞城四中,细颗粒物(PM2.5),95,85,91,71,92,162,,166,166,12,15,6,6,0.7,0.9
2024-09-27T1700,1854A,111.6975,28.9703,常德市,市二中,臭氧1小时,74,77,98,49,80,179,,168,168,11,24,11,11,0.9,1
2024-09-27T1700,3138A,111.7153,29.0289,常德市,武陵区永安,细颗粒物(PM2.5),78,84,120,57,92,180,,186,186,10,26,11,16,0.6,0.9
2024-09-27T1700,3139A,111.6892,28.9881,常德市,鼎城区玉霞,臭氧1小时,85,98,116,60,82,188,,187,187,9,28,11,11,0.8,1
2024-09-27T1700,3140A,111.6625,29.0531,常德市,武陵区长庚,臭氧1小时,82,92,129,52,108,185,,173,173,10,26,10,17,0.6,0.8
2024-09-27T1700,1196A,119.9633,31.762,常州市,市监测站,臭氧1小时,67,30,34,22,17,173,,134,134,16,22,9,8,0.7,0.6
2024-09-27T1700,1200A,119.9468,31.7069,常州市,武进监测站,臭氧1小时,63,28,31,20,16,170,,133,133,9,17,6,7,0.8,0.8
2024-09-27T1700,1201A,119.9255,31.9087,常州市,安家,,48,30,37,22,22,151,,135,135,22,22,13,10,0.7,0.5
2024-09-27T1700,3002A,119.9805,31.8174,常州市,行政中心,臭氧1小时,52,20,39,16,16,161,,132,132,14,21,11,12,0.5,0.5
2024-09-27T1700,3003A,120.0522,31.7748,常州市,经开区,臭氧1小时,57,33,29,20,16,165,,139,139,18,34,8,7,0.7,0.4
2024-09-27T1700,3010A,119.9025,31.7964,常州市,钟楼,臭氧1小时,55,27,28,17,15,164,,127,127,13,20,9,9,0.6,0.6
2024-09-27T1700,3429A,119.8598,31.7066,常州市,武进经发区,臭氧1小时,63,32,28,16,12,170,,128,128,14,23,9,9,0.9,0.8
2024-09-27T1700,3430A,119.5826,31.7245,常州市,金坛城区,臭氧1小时,67,25,29,17,17,173,,121,121,18,28,8,9,0.7,0.7
2024-09-27T1700,2220A,120.4318,41.5881,朝阳市,西梁,,42,40,48,20,21,134,,96,96,15,27,14,10,0.8,0.7
2024-09-27T1700,2221A,120.4521,41.5646,朝阳市,河畔小区,,46,36,36,23,17,146,,97,97,12,20,14,9,0.8,0.7
2024-09-27T1700,2222A,120.4176,41.5648,朝阳市,八里堡,颗粒物(PM10),62,73,51,21,20,137,,104,104,20,34,13,10,1.0,0.8
2024-09-27T1700,2223A,120.3806,41.5969,朝阳市,农业园区,,48,48,37,33,22,134,,99,99,16,21,13,9,0.7,0.6
2024-09-27T1700,1705A,116.6367,23.6719,潮州市,西园路,,,,28,29,17,50,,40,,7,9,2,3,0.3,0.3
2024-09-27T1700,3026A,116.6183,23.6608,潮州市,市政府,,20,18,32,12,17,62,,80,76,5,10,4,7,0.4,0.5
2024-09-27T1700,4036A,116.6461,23.6761,潮州市,金山,,18,,22,3,15,56,,62,62,4,6,6,6,0.7,0.7
2024-09-27T1700,2472A,113.0073,25.9061,郴州市,马头岭,,37,35,35,14,13,116,,78,78,7,11,7,7,0.3,0.3
2024-09-27T1700,2473A,113.0116,25.8226,郴州市,市职中,,38,26,40,24,29,119,,83,83,8,14,5,5,0.5,0.7
2024-09-27T1700,2474A,113.0161,25.8001,郴州市,兴隆步行街,,33,28,48,20,27,105,,79,79,9,18,4,4,0.6,0.8
2024-09-27T1700,2475A,113.0383,25.8071,郴州市,市审计局,,40,33,41,28,33,113,,85,85,4,13,4,4,0.4,0.7
2024-09-27T1700,2476A,113.0348,25.7759,郴州市,市环保局,,33,29,45,16,29,105,,79,79,6,16,5,5,0.5,0.7
2024-09-27T1700,1431A,103.9728,30.7236,成都市,金泉两河,臭氧1小时,113,66,74,28,31,226,,176,176,9,29,3,6,0.7,0.8
2024-09-27T1700,1432A,104.176,30.6872,成都市,十里店,臭氧1小时,79,68,80,43,54,183,,150,150,9,46,4,5,0.5,0.8
2024-09-27T1700,1433A,104.079,30.5706,成都市,三瓦窑,臭氧1小时,97,46,67,41,50,197,,168,168,6,51,3,4,0.4,0.7
2024-09-27T1700,1434A,104.1114,30.63,成都市,沙河铺,臭氧1小时,77,56,70,30,49,181,,152,152,19,44,4,4,0.6,0.8
2024-09-27T1700,1437A,104.0786,30.6531,成都市,君平街,臭氧1小时,114,74,83,50,63,228,,175,175,15,36,4,5,0.7,0.9
2024-09-27T1700,2880A,104.0239,30.65639,成都市,大石西路,臭氧1小时,116,64,81,40,58,231,,177,177,16,35,4,6,0.7,0.9
2024-09-27T1700,3136A,104.2725,30.5589,成都市,龙泉驿区区政府,臭氧1小时,54,31,44,31,32,163,,149,149,8,13,3,2,0.5,0.6
2024-09-27T1700,3357A,104.0106,30.6931,成都市,金博路,臭氧1小时,107,73,78,50,51,213,,166,166,10,37,1,4,0.6,0.8
2024-09-27T1700,3359A,104.0578,30.5225,成都市,华阳,臭氧1小时,55,56,65,31,47,164,,148,148,9,32,4,4,0.7,0.8
2024-09-27T1700,3487A,104.2394,30.5319,成都市,车城东七路,臭氧1小时,64,50,55,34,41,171,,154,154,6,22,4,4,0.4,0.7
2024-09-27T1700,3488A,104.3853,30.7453,成都市,青白江技师分院,臭氧1小时,100,35,46,34,36,200,,169,169,9,42,3,3,0.6,0.7
2024-09-27T1700,3489A,104.0789,30.4072,成都市,科学城,臭氧1小时,72,48,57,39,46,177,,159,159,4,26,4,4,0.6,0.8
2024-09-27T1700,4011A,103.8506,30.6947,成都市,光华大道三段,臭氧1小时,124,76,69,65,48,248,,191,191,16,23,4,7,0.7,0.7
2024-09-27T1700,1062A,117.9531,40.9081,承德市,铁路,,40,40,31,15,12,65,,56,56,42,30,9,9,0.5,0.4
2024-09-27T1700,1063A,117.9392,40.9763,承德市,中国银行,颗粒物(PM10),52,53,36,24,14,96,,80,80,19,24,7,6,0.6,0.5
2024-09-27T1700,1064A,117.9503,40.928,承德市,开发区,,47,47,34,21,16,86,,68,68,25,28,9,8,0.6,0.5
2024-09-27T1700,1065A,117.8051,40.9655,承德市,文化中心,,48,48,46,18,17,88,,63,63,12,26,9,9,0.6,0.5
2024-09-27T1700,1066A,117.9268,41.0026,承德市,离宫,,45,44,35,31,27,36,,61,61,8,12,1,2,0.6,0.5
2024-09-27T1700,2314A,117.47,30.6618,池州市,池州学院,,26,17,46,9,31,81,,65,65,17,18,8,8,0.7,0.7
2024-09-27T1700,3237A,117.4918,30.6617,池州市,展览馆,,25,16,46,10,27,78,,64,64,20,17,9,6,0.7,0.9
2024-09-27T1700,3333A,117.5627,30.695,池州市,第八中学,,23,17,43,10,25,72,,60,60,23,18,7,5,0.8,0.7
2024-09-27T1700,3334A,117.5038,30.6243,池州市,第十二中学,,25,18,42,9,31,77,,60,60,22,15,7,5,1.0,0.9
2024-09-27T1700,1744A,118.9233,42.2816,赤峰市,松山一中,,37,37,30,19,14,110,,65,,18,27,10,10,0.3,0.6
2024-09-27T1700,1745A,118.9576,42.2728,赤峰市,哈达街,,39,28,28,27,18,105,,104,104,16,17,9,10,0.5,0.5
2024-09-27T1700,1746A,118.8788,42.2554,赤峰市,天义路,,34,34,21,12,14,102,,102,102,21,21,7,7,0.3,0.3
2024-09-27T1700,3058A,119.2658,42.0353,赤峰市,银河街,,37,33,50,22,25,116,,103,103,14,22,14,25,0.6,0.7
2024-09-27T1700,3286A,118.9359,42.3147,赤峰市,桥北物流园区,,38,32,44,26,24,110,,108,108,18,33,9,13,0.6,0.8
2024-09-27T1700,2521A,107.3476,22.4136,崇左市,市环保局江州分局,细颗粒物(PM2.5),59,66,52,42,33,120,,101,101,5,11,3,3,0.8,0.8
2024-09-27T1700,2522A,107.3702,22.3707,崇左市,城南新区,细颗粒物(PM2.5),59,50,41,42,30,124,,111,111,4,11,4,4,0.9,0.9
2024-09-27T1700,2298A,118.3093,32.3153,滁州市,老年大学,,50,33,34,21,22,158,,138,138,14,11,6,8,0.4,0.3
2024-09-27T1700,2299A,118.3244,32.2786,滁州市,人大宾馆,臭氧1小时,52,41,40,21,23,161,,138,138,12,12,7,7,0.3,0.4
2024-09-27T1700,3207A,118.3118,32.3038,滁州市,市政府原办公楼,,47,35,34,29,26,150,,136,136,20,13,6,6,0.4,0.4
2024-09-27T1700,3331A,118.3267,32.2634,滁州市,图书馆,臭氧1小时,52,42,34,17,19,161,,137,137,10,10,5,6,0.3,0.3
2024-09-27T1700,2605A,101.5482,25.0441,楚雄彝族自治州,州环境监测站,,17,11,18,8,17,52,,54,54,3,15,9,13,0.5,0.6
2024-09-27T1700,2606A,101.538,25.0492,楚雄彝族自治州,市经济开发区,,16,11,21,10,15,51,,53,53,4,14,5,8,0.6,0.6
2024-09-27T1700,2548A,107.5277,31.2827,达州市,达州职业技术学院,,45,44,70,27,47,144,,126,126,9,36,10,8,0.7,0.8
2024-09-27T1700,2549A,107.5086,31.2186,达州市,市环境监测站,颗粒物(PM10),51,52,79,22,42,143,,130,130,15,37,7,8,0.4,0.7
2024-09-27T1700,2550A,107.4988,31.2132,达州市,凤凰小区,,49,39,65,17,42,154,,141,141,12,31,8,9,0.4,0.7
2024-09-27T1700,2551A,107.5082,31.1986,达州市,达县机关宾馆,,47,39,68,24,42,148,,134,134,15,46,5,7,0.4,0.6
2024-09-27T1700,2552A,107.4644,31.2124,达州市,市政中心,,47,41,70,22,45,149,,136,136,14,39,5,7,0.3,0.6
2024-09-27T1700,2614A,100.1542,25.7054,大理白族自治州,大理市环境监测站,,16,16,16,7,12,44,,52,45,8,6,7,6,0.6,0.6
2024-09-27T1700,2615A,100.2171,25.5811,大理白族自治州,大理古城,,24,24,21,13,13,65,,66,66,7,9,8,7,0.3,0.4
2024-09-27T1700,1109A,121.612,38.9741,大连市,甘井子,,44,38,32,14,14,140,,125,125,16,19,9,8,0.8,0.4
2024-09-27T1700,1110A,121.565,38.9511,大连市,周水子,,44,44,31,15,15,134,,115,115,16,33,7,8,0.5,0.7
2024-09-27T1700,1111A,121.5637,38.8845,大连市,星海三站,臭氧1小时,55,26,26,14,13,164,,128,128,11,14,9,8,0.3,0.3
2024-09-27T1700,1112A,121.6302,38.9117,大连市,青泥洼桥,,48,25,33,13,15,152,,122,122,18,25,8,8,0.2,0.1
2024-09-27T1700,1113A,121.6251,38.8638,大连市,傅家庄,,44,27,27,13,13,139,,108,108,11,16,8,7,0.3,0.3
2024-09-27T1700,1114A,121.5213,38.8661,大连市,七贤岭,,47,24,28,15,14,150,,136,136,16,14,8,7,0.5,0.5
2024-09-27T1700,1115A,121.2529,38.8061,大连市,旅顺,,45,27,22,18,14,144,,130,130,14,13,6,6,0.4,0.4
2024-09-27T1700,1116A,121.7485,39.1311,大连市,金州,,44,18,27,10,17,140,,120,120,15,16,8,7,0.5,0.5
2024-09-27T1700,1117A,121.7811,39.0496,大连市,开发区,,40,28,30,14,16,125,,117,117,19,14,7,5,0.5,0.5
2024-09-27T1700,1118A,121.9762,39.0631,大连市,双D港,,35,18,31,7,16,112,,120,120,22,18,7,9,0.6,0.7
2024-09-27T1700,1789A,124.81117,46.03138,大庆市,大同区,,26,26,37,16,25,78,,87,87,15,19,3,4,0.4,0.5
2024-09-27T1700,1790A,125.129,46.533,大庆市,龙凤区,颗粒物(PM10),51,52,48,31,24,81,,89,88,18,23,4,6,0.3,0.5
2024-09-27T1700,1791A,124.902,46.408,大庆市,红岗区,,29,26,30,13,20,92,,97,97,10,14,6,6,0.3,0.4
2024-09-27T1700,1792A,125.153,46.586,大庆市,萨尔图区,,32,32,32,13,16,78,,87,87,20,20,6,6,0.3,0.3
2024-09-27T1700,1793A,124.9042,46.6215,大庆市,让胡路区,,36,36,39,13,21,87,,96,95,14,17,4,9,0.3,0.3
2024-09-27T1700,3481A,125.141,46.634,大庆市,萨区政府监测点,,30,24,24,3,14,93,,96,96,9,13,6,7,0.2,0.2
2024-09-27T1700,1723A,113.2994,40.0758,大同市,云冈宾馆,细颗粒物(PM2.5),57,49,67,40,46,127,,126,126,18,24,8,8,0.8,0.8
2024-09-27T1700,1724A,113.3444,40.0917,大同市,大同大学,细颗粒物(PM2.5),58,,52,41,39,126,,125,125,12,23,7,7,0.7,0.7
2024-09-27T1700,1725A,113.2661,40.1269,大同市,安家小村,,50,50,68,33,43,131,,126,126,15,24,11,12,0.7,0.7
2024-09-27T1700,1726A,113.2711,40.0844,大同市,教育学院,,50,45,76,35,44,128,,122,122,21,35,8,9,0.7,0.8
2024-09-27T1700,3282A,113.3397,40.0597,大同市,大同市卫生学校,颗粒物(PM10),54,58,67,36,41,124,,125,125,14,21,7,7,0.5,0.7
2024-09-27T1700,3565A,113.1367,40.1122,大同市,云冈站,颗粒物(PM10),62,74,93,29,48,139,,130,130,15,22,10,10,0.6,0.6
2024-09-27T1700,3566A,113.1186,40.2556,大同市,图书馆,细颗粒物(PM2.5),60,53,68,43,49,136,,127,127,17,22,10,12,0.7,0.8
2024-09-27T1700,3567A,113.5931,40.0461,大同市,区一中,颗粒物(PM10),53,55,54,28,29,126,,125,125,14,16,8,8,0.8,0.8
2024-09-27T1700,3676A,113.2802,40.0995,大同市,第二人民医院,颗粒物(PM10),54,58,65,34,41,131,,129,129,16,23,10,12,0.6,0.6
2024-09-27T1700,2269A,124.1069,50.4097,大兴安岭地区,科技局,,32,27,32,13,20,100,,83,83,6,9,7,7,0.3,0.4
2024-09-27T1700,3663A,124.1164,50.4278,大兴安岭地区,红旗社区,,31,29,31,16,21,99,,81,81,8,17,4,6,0.4,0.4
2024-09-27T1700,1600A,124.3303,40.0625,丹东市,江湾东路,,31,25,20,15,10,99,,88,88,17,15,17,11,0.5,0.6
2024-09-27T1700,1601A,124.4256,40.1503,丹东市,临江后街,,33,24,20,7,8,105,,92,92,12,16,7,8,0.6,0.6
2024-09-27T1700,1602A,124.3933,40.1461,丹东市,元宝山,,30,17,17,9,9,94,,79,79,8,9,4,4,0.5,0.6
2024-09-27T1700,1603A,124.3633,40.1092,丹东市,民主桥,,33,19,21,9,8,103,,88,88,20,19,7,5,0.6,0.6
2024-09-27T1700,3541A,109.5726,19.5167,儋州市,第一中学子站,,22,12,25,9,15,68,,73,73,2,3,4,4,0.7,0.8
2024-09-27T1700,3542A,109.5567,19.5187,儋州市,东坡学校子站,,30,14,24,7,15,95,,87,87,3,5,7,5,0.6,0.6
2024-09-27T1700,2616A,98.5842,24.428,德宏傣族景颇族自治州,德宏州监测站,,20,17,28,10,13,64,,55,55,7,15,10,9,0.5,0.7
2024-09-27T1700,3677A,98.5881,24.4368,德宏傣族景颇族自治州,芒市人民政府综合楼,,24,15,19,9,13,75,,65,65,8,13,11,9,0.5,0.7
2024-09-27T1700,1901A,104.4239,31.1208,德阳市,东山公园,臭氧1小时,73,48,66,27,41,178,,143,143,10,22,4,4,0.6,0.8
2024-09-27T1700,1902A,104.3826,31.1317,德阳市,西小区,臭氧1小时,73,46,74,33,53,178,,142,142,9,35,3,4,0.6,0.9
2024-09-27T1700,1904A,104.3553,31.1091,德阳市,耐火材料厂,颗粒物(PM10),51,51,94,32,57,159,,140,140,26,42,4,7,0.6,0.9
2024-09-27T1700,3639A,104.4019,31.1244,德阳市,市教育局,臭氧1小时,69,54,69,37,44,175,,146,146,9,33,2,2,0.6,0.8
2024-09-27T1700,1622A,116.3032,37.4674,德州市,儿童乐园,臭氧1小时,104,124,64,70,33,208,,163,163,24,26,12,12,0.8,0.6
2024-09-27T1700,1624A,116.2991,37.4451,德州市,监理站,臭氧1小时,112,97,53,73,35,223,,169,169,17,24,12,12,0.7,0.5
2024-09-27T1700,3066A,116.2721,37.4379,德州市,九衢泉纯净水厂,臭氧1小时,107,95,51,56,30,213,,160,160,20,25,11,11,0.9,0.6
2024-09-27T1700,3371A,116.3728,37.4403,德州市,开发区人民医院,臭氧1小时,104,97,51,58,27,208,,159,159,15,25,11,11,0.9,0.6
2024-09-27T1700,3372A,116.3572,37.4094,德州市,太阳城中学,臭氧1小时,102,97,52,56,27,204,,156,156,22,32,11,11,0.9,0.6
2024-09-27T1700,3511A,116.5652,37.3319,德州市,陵城艺术中心,臭氧1小时,103,107,49,68,26,205,,156,156,24,27,15,13,0.9,0.7
2024-09-27T1700,2621A,99.7056,27.8317,迪庆藏族自治州,迪庆州站,,14,11,12,6,9,44,,46,46,8,9,8,8,0.4,0.4
2024-09-27T1700,3180A,99.7136,27.8094,迪庆藏族自治州,质量技术监督局,,16,16,14,6,6,44,,46,46,8,9,6,6,0.4,0.5
2024-09-27T1700,2663A,104.6241,35.5734,定西市,东关小学,,38,38,31,26,26,107,,102,102,5,10,6,5,0.3,0.2
2024-09-27T1700,2664A,104.6194,35.5934,定西市,供电公司,,40,40,36,28,25,112,,107,107,5,6,8,7,0.4,0.4
2024-09-27T1700,1389A,113.7547,23.0494,东莞市,莞城梨川,臭氧1小时,104,54,53,27,29,208,,141,141,27,42,6,6,0.9,0.9
2024-09-27T1700,1390A,113.7944,23.0128,东莞市,东城石井,臭氧1小时,103,44,41,32,26,205,,164,164,19,28,8,7,0.8,0.8
2024-09-27T1700,1391A,113.7383,22.9658,东莞市,南城西平,臭氧1小时,106,59,44,41,25,212,,167,167,23,36,12,9,0.9,0.9
2024-09-27T1700,3319A,113.7338,23.0381,东莞市,万江金泰,臭氧1小时,107,52,51,31,27,214,,161,161,29,42,11,10,0.7,0.8
2024-09-27T1700,3626A,113.7533,23.0202,东莞市,南城元岭,臭氧1小时,105,60,48,35,26,210,,154,154,21,37,8,9,0.8,0.9
2024-09-27T1700,3627A,113.7875,23.0457,东莞市,东城主山,臭氧1小时,112,52,47,28,28,224,,165,165,24,37,10,10,0.7,0.7
2024-09-27T1700,1666A,118.6614,37.4309,东营市,市环保局,臭氧1小时,53,29,19,14,5,162,,137,137,11,13,7,6,0.2,0.2
2024-09-27T1700,3036A,118.6904,37.4338,东营市,开发区管委会,臭氧1小时,55,37,22,14,10,164,,136,136,12,15,7,5,0.2,0.2
2024-09-27T1700,3365A,118.5719,37.565,东营市,垦利区民丰路,,41,29,18,9,8,131,,114,114,11,16,11,11,0.3,0.3
2024-09-27T1700,3498A,118.5055,37.8612,东营市,河口城区,,41,24,22,12,9,129,,119,119,11,11,6,6,0.1,0.2
2024-09-27T1700,3646A,118.4978,37.4623,东营市,胜利站,,,,19,17,7,146,,123,123,13,14,9,8,0.1,0.1
2024-09-27T1700,3734A,118.35,37.26,东营市,理想之城,,,34,20,,11,146,,123,123,20,19,8,5,0.1,0.1
2024-09-27T1700,1591A,110.0023,39.8129,鄂尔多斯市,综合楼,颗粒物(PM10),70,90,77,27,34,147,,152,152,19,17,14,14,0.8,0.8
2024-09-27T1700,1592A,109.9486,39.8261,鄂尔多斯市,巴音孟克林场办事处,颗粒物(PM10),71,92,79,36,37,148,,148,148,17,20,8,8,0.7,0.7
2024-09-27T1700,1593A,109.7736,39.5986,鄂尔多斯市,康泽苑,细颗粒物(PM2.5),64,66,66,46,41,157,,156,156,15,16,11,10,0.9,0.9
2024-09-27T1700,1594A,109.8119,39.5989,鄂尔多斯市,华泰汽车城,细颗粒物(PM2.5),64,66,60,46,39,144,,143,143,13,17,11,10,0.7,0.7
2024-09-27T1700,1595A,109.9734,39.7884,鄂尔多斯市,奥林花园,颗粒物(PM10),68,85,74,39,37,134,,135,135,17,22,6,6,0.8,0.8
2024-09-27T1700,2436A,114.8938,30.3994,鄂州市,市政府,臭氧1小时,57,35,69,21,41,165,,161,161,11,26,13,15,1.0,1.2
2024-09-27T1700,2437A,114.8989,30.3714,鄂州市,赵家坝,臭氧1小时,52,38,72,16,38,161,,160,160,9,26,10,14,0.6,0.8
2024-09-27T1700,3654A,114.8094,30.4089,鄂州市,精准医疗中心,臭氧1小时,52,38,70,27,44,161,,160,160,11,24,8,9,0.6,0.8
2024-09-27T1700,2454A,109.4978,30.2981,恩施土家族苗族自治州,湖北民院,,46,43,55,28,41,145,,145,145,11,20,10,10,0.6,0.7
2024-09-27T1700,2455A,109.4707,30.2798,恩施土家族苗族自治州,州电力总公司,,43,36,52,28,37,136,,130,130,10,25,8,8,0.6,0.7
2024-09-27T1700,3549A,109.5061,30.3772,恩施土家族苗族自治州,龙凤新区,细颗粒物(PM2.5),52,41,47,36,36,150,,145,145,11,15,7,6,0.7,0.8
2024-09-27T1700,2499A,108.3411,21.6158,防城港市,沙万,颗粒物(PM10),56,61,44,30,28,103,,108,108,16,21,12,13,0.7,0.8
2024-09-27T1700,2500A,108.3514,21.7731,防城港市,防城档案局,颗粒物(PM10),59,68,40,38,30,118,,98,98,24,11,16,11,1.0,0.8
2024-09-27T1700,2501A,108.3506,21.6414,防城港市,大海花园,颗粒物(PM10),60,70,40,28,25,105,,106,106,17,12,8,11,0.9,1
2024-09-27T1700,1371A,113.1294,23.0067,佛山市,湾梁,臭氧1小时,54,39,39,24,20,163,,133,133,17,35,8,10,0.7,0.8
2024-09-27T1700,1372A,113.1083,23.0478,佛山市,华材职中,,42,39,48,27,25,132,,122,122,34,45,8,10,0.5,0.6
2024-09-27T1700,1373A,113.144,23.0453,佛山市,南海气象局,,44,29,40,24,25,140,,128,128,10,33,7,10,0.5,0.7
2024-09-27T1700,1374A,113.2881,22.8094,佛山市,顺德苏岗,臭氧1小时,59,34,34,27,19,167,,138,138,15,27,8,8,0.7,0.8
2024-09-27T1700,1376A,112.8383,22.8678,佛山市,高明孔堂,,36,,30,21,18,114,,106,106,8,12,5,6,0.5,0.5
2024-09-27T1700,1377A,112.8836,23.1588,佛山市,三水监测站,,38,31,36,13,20,119,,109,109,15,37,8,9,0.5,0.6
2024-09-27T1700,1378A,112.867,23.185,佛山市,三水云东海,,30,23,36,21,20,95,,101,100,18,31,8,13,0.6,0.9
2024-09-27T1700,3625A,113.2544,22.7642,佛山市,容桂街道办,,50,27,29,22,21,160,,129,129,16,30,8,7,0.7,0.8
2024-09-27T1700,1282A,119.2681,26.0504,福州市,师大,,21,18,19,10,7,66,,83,83,13,11,1,1,0.3,0.3
2024-09-27T1700,1283A,119.2984,26.1028,福州市,五四北路,,25,25,20,16,8,65,,84,84,14,12,3,3,0.4,0.4
2024-09-27T1700,1284A,119.2648,26.0768,福州市,杨桥西路,,24,20,18,11,8,74,,88,88,13,10,3,3,0.4,0.4
2024-09-27T1700,1285A,119.317,26.0746,福州市,紫阳,,19,19,20,11,7,58,,72,72,23,17,4,4,0.4,0.5
2024-09-27T1700,3048A,119.5799,26.0936,福州市,九龙,,28,13,22,7,5,87,,79,79,2,7,6,6,0.3,0.4
2024-09-27T1700,3526A,119.5189,25.9664,福州市,吴航,,27,14,20,7,9,85,,70,70,3,11,6,6,0.3,0.4
2024-09-27T1700,1755A,123.7977,41.8491,抚顺市,望花区,,34,19,50,11,19,106,,94,94,14,26,7,19,0.4,0.5
2024-09-27T1700,1756A,123.9161,41.8822,抚顺市,顺城区,,43,43,35,10,17,100,,89,89,20,26,6,7,0.4,0.5
2024-09-27T1700,1757A,124.0436,41.8611,抚顺市,东洲区,,32,15,23,9,12,102,,90,90,14,15,8,7,0.3,0.4
2024-09-27T1700,1758A,123.9247,41.8642,抚顺市,新抚区,,34,17,30,7,11,106,,96,96,19,26,4,4,0.2,0.4
2024-09-27T1700,1759A,124.0972,41.8961,抚顺市,大伙房水库,,35,20,22,7,14,110,,94,94,6,13,7,6,0.4,0.4
2024-09-27T1700,1760A,123.7086,41.8391,抚顺市,沈抚新城,,35,,27,19,21,111,,95,95,17,27,8,9,0.2,0.4
2024-09-27T1700,2377A,116.3544,27.9831,抚州市,市站,,50,50,36,29,21,96,,93,93,9,11,2,5,1.0,1
2024-09-27T1700,2378A,116.3565,27.963,抚州市,血防站,细颗粒物(PM2.5),52,46,36,36,31,97,,97,97,8,13,4,5,1.1,1
2024-09-27T1700,2379A,116.3564,28.0007,抚州市,采茶剧团,,42,39,35,29,23,103,,100,100,3,7,5,6,0.8,0.6
2024-09-27T1700,2380A,116.385,27.9647,抚州市,医学分院,,42,42,33,28,19,97,,96,96,7,10,5,6,0.8,0.7
2024-09-27T1700,2207A,121.6094,41.998,阜新市,工业园区,,40,28,62,10,15,125,,109,109,11,32,8,17,0.5,0.7
2024-09-27T1700,2208A,121.6697,42.0279,阜新市,长青街,,36,24,62,16,26,113,,108,108,12,30,8,17,0.4,0.8
2024-09-27T1700,2209A,121.6673,42.0705,阜新市,农业园区,,36,36,38,14,22,110,,107,107,14,16,8,23,0.3,0.4
2024-09-27T1700,2210A,121.6717,42.0224,阜新市,东苑,,36,28,69,11,30,113,,101,101,13,35,8,30,0.6,1
2024-09-27T1700,2211A,121.6506,42.0498,阜新市,玉龙新城,,40,26,46,20,18,126,,117,117,10,32,9,16,0.6,0.8
2024-09-27T1700,2301A,115.8277,32.8929,阜阳市,市监测站,,38,30,35,12,21,120,,103,103,7,14,6,7,0.5,0.5
2024-09-27T1700,2303A,115.8554,32.8605,阜阳市,开发区,,38,36,45,14,21,119,,101,101,11,18,5,7,0.5,0.6
2024-09-27T1700,2875A,115.784,32.8892,阜阳市,阜阳职业技术学院,,38,18,33,8,16,119,,100,100,9,13,6,7,0.4,0.4
2024-09-27T1700,3468A,115.7901,32.8613,阜阳市,市规划展馆,,39,22,36,11,22,122,,102,102,11,16,6,7,0.5,0.4
2024-09-27T1700,3469A,115.836,32.9183,阜阳市,枣园社区,,36,20,35,12,22,114,,100,100,12,17,8,8,0.5,0.5
2024-09-27T1700,2669A,102.9099,34.9841,甘南藏族自治州,州政府,,27,,43,11,19,84,,72,72,2,25,14,13,0.2,0.4
2024-09-27T1700,3380A,102.8914,34.9617,甘南藏族自治州,甘肃民族师范学院,,26,6,51,3,18,82,,70,70,3,25,4,5,0.3,0.4
2024-09-27T1700,2570A,101.9603,30.0475,甘孜藏族自治州,水桥子,,27,17,19,3,6,85,,50,50,2,19,6,6,0.2,0.3
2024-09-27T1700,3065A,101.9533,29.9972,甘孜藏族自治州,州环保局,,26,17,15,10,6,82,,52,52,7,16,3,3,0.2,0.2
2024-09-27T1700,3414A,115.8347,28.932,赣江新区,桑海产业园,,45,,61,28,40,144,,143,143,8,22,11,14,0.4,0.6
2024-09-27T1700,2362A,114.9017,25.9149,赣州市,通天岩,,29,23,26,17,20,91,,93,93,3,3,9,6,0.4,0.3
2024-09-27T1700,2363A,114.9367,25.8664,赣州市,地委,,28,19,22,19,17,78,,77,77,6,8,8,5,1.1,1.1
2024-09-27T1700,2364A,114.9461,25.8481,赣州市,气象台,,30,30,25,13,17,74,,75,75,7,7,11,20,0.5,0.5
2024-09-27T1700,2365A,114.9322,25.8333,赣州市,市图书馆,,26,22,25,13,16,83,,86,86,4,6,4,6,0.6,0.7
2024-09-27T1700,2366A,114.8905,25.8471,赣州市,华坚鞋城,,28,28,23,10,14,74,,78,78,8,7,4,3,0.5,0.5
2024-09-27T1700,3109A,115.0093,25.8613,赣州市,赣县区卫计委,,25,25,25,14,15,69,,77,77,9,11,6,8,0.6,0.7
2024-09-27T1700,2684A,106.2792,36.0022,固原市,监测站,,,55,49,,38,143,,120,120,12,14,3,3,0.4,0.4
2024-09-27T1700,2685A,106.2375,36.0211,固原市,新区,颗粒物(PM10),57,63,50,33,37,136,,116,116,12,12,5,5,0.7,0.6
2024-09-27T1700,3522A,106.2177,35.9959,固原市,原州区十五小,细颗粒物(PM2.5),52,52,53,36,33,138,,118,118,10,12,6,5,0.9,0.8
2024-09-27T1700,2544A,106.6303,30.4576,广安市,市委,臭氧1小时,98,47,77,31,53,198,,159,159,10,24,5,3,0.5,0.7
2024-09-27T1700,2545A,106.6271,30.4663,广安市,友谊中学,臭氧1小时,89,44,72,35,51,191,,155,155,15,33,6,5,0.6,0.8
2024-09-27T1700,2547A,106.6388,30.4551,广安市,广电花园,臭氧1小时,97,47,77,29,51,197,,158,158,12,22,5,4,0.4,0.7
2024-09-27T1700,2902A,106.6351,30.4865,广安市,北辰小学,臭氧1小时,83,54,82,30,51,186,,154,154,18,21,8,8,0.5,0.7
2024-09-27T1700,2523A,105.8945,32.4535,广元市,黑石坡,,45,31,47,24,43,142,,126,126,7,12,17,19,0.4,0.7
2024-09-27T1700,2524A,105.821,32.4444,广元市,老城,颗粒物(PM10),52,53,67,25,41,158,,126,126,7,37,2,7,1.0,1.3
2024-09-27T1700,2526A,105.8628,32.4287,广元市,监测站,细颗粒物(PM2.5),57,46,56,40,44,159,,128,128,8,17,5,5,0.5,0.7
2024-09-27T1700,3617A,105.8047,32.4166,广元市,经开区,细颗粒物(PM2.5),69,64,80,50,62,159,,127,127,11,31,6,14,0.6,0.9
2024-09-27T1700,1345A,113.2347,23.1423,广州市,广雅中学,,46,38,38,23,23,145,,148,148,27,42,6,7,0.8,0.9
2024-09-27T1700,1346A,113.2612,23.105,广州市,市五中,臭氧1小时,60,39,36,27,26,168,,158,158,12,27,5,6,0.6,0.7
2024-09-27T1700,1348A,113.3478,23.0916,广州市,广东商学院,臭氧1小时,70,42,45,25,25,176,,160,160,22,46,5,6,0.6,0.8
2024-09-27T1700,1349A,113.4332,23.1047,广州市,市八十六中,臭氧1小时,57,38,45,22,24,165,,146,146,15,42,4,5,0.6,0.7
2024-09-27T1700,1350A,113.3505,22.9483,广州市,番禺中学,臭氧1小时,115,47,45,37,26,229,,156,156,21,38,6,7,0.7,0.8
2024-09-27T1700,1351A,113.2146,23.3916,广州市,花都师范,,38,34,41,22,22,120,,102,102,8,27,5,6,0.6,0.8
2024-09-27T1700,1352A,113.2597,23.1331,广州市,市监测站,,50,33,30,17,12,158,,147,147,20,44,5,6,0.7,0.8
2024-09-27T1700,1353A,113.5618,23.312,广州市,九龙镇镇龙,,43,33,43,26,24,137,,122,122,14,30,7,6,0.7,0.8
2024-09-27T1700,1354A,113.2765,23.1544,广州市,麓湖,,48,41,41,25,23,151,,147,147,17,33,6,6,0.7,0.7
2024-09-27T1700,1355A,113.443,23.3035,广州市,帽峰山森林公园,,29,20,28,15,15,91,,119,119,6,16,5,6,0.6,0.6
2024-09-27T1700,2846A,113.3221,23.1322,广州市,体育西,臭氧1小时,67,43,36,30,21,173,,153,153,17,35,5,7,0.6,0.7
2024-09-27T1700,3298A,113.5717,23.5491,广州市,从化街口,,41,27,33,20,21,131,,106,106,11,22,9,8,0.5,0.7
2024-09-27T1700,3299A,113.3472,23.3692,广州市,白云竹料,,50,50,54,23,28,126,,104,104,14,33,5,5,0.6,0.8
2024-09-27T1700,3300A,113.2981,23.237,广州市,白云嘉禾,,,41,57,19,28,131,,117,117,,43,6,8,0.7,1
2024-09-27T1700,3301A,113.4256,23.1716,广州市,黄埔科学城,,46,34,41,19,24,145,,128,128,11,34,7,7,0.6,0.8
2024-09-27T1700,3302A,113.3942,23.0483,广州市,番禺大学城,臭氧1小时,104,51,36,29,24,207,,166,166,18,40,8,9,0.4,0.4
2024-09-27T1700,3303A,113.4922,22.8168,广州市,南沙黄阁,臭氧1小时,105,44,46,28,21,209,,156,156,23,34,5,5,0.6,0.7
2024-09-27T1700,3304A,113.5342,22.7896,广州市,南沙街,臭氧1小时,92,48,40,26,20,193,,152,152,23,29,8,7,0.8,0.8
2024-09-27T1700,3443A,113.2902,23.5544,广州市,花都梯面,,29,28,28,20,15,91,,89,89,12,15,6,6,0.7,0.7
2024-09-27T1700,3445A,113.7858,23.7478,广州市,从化良口,,30,21,18,21,12,85,,76,76,6,9,8,7,0.7,0.8
2024-09-27T1700,3446A,113.8051,23.2614,广州市,增城荔城,臭氧1小时,75,40,35,27,24,180,,129,129,12,16,6,6,0.6,0.6
2024-09-27T1700,2506A,109.6047,23.0666,贵港市,江南子站,,44,44,71,25,37,134,,117,117,5,24,7,8,0.8,0.9
2024-09-27T1700,2507A,109.6014,23.0948,贵港市,贵城子站,,44,43,54,27,34,139,,116,116,6,20,7,8,0.7,0.8
2024-09-27T1700,2508A,109.5669,23.1065,贵港市,荷城子站,,48,48,57,27,25,129,,114,114,6,21,10,10,0.7,0.7
2024-09-27T1700,3405A,109.5886,23.1172,贵港市,新世纪学校,,48,48,44,27,23,139,,118,118,7,17,7,8,0.7,0.8
2024-09-27T1700,1439A,106.6899,26.5998,贵阳市,马鞍山,,33,29,34,17,18,103,,96,96,9,12,8,9,0.5,0.5
2024-09-27T1700,1440A,106.6971,26.5694,贵阳市,市环保站,,40,34,47,28,34,104,,97,97,12,17,5,7,0.5,0.5
2024-09-27T1700,1441A,106.6243,26.6266,贵阳市,鉴湖路,,41,41,43,24,24,99,,91,91,6,12,4,7,0.4,0.4
2024-09-27T1700,1442A,106.7487,26.6343,贵阳市,燕子冲,,35,27,30,19,29,110,,103,103,7,12,5,7,0.4,0.5
2024-09-27T1700,1443A,106.6555,26.4365,贵阳市,碧云窝,,32,31,45,14,26,100,,93,93,5,10,5,9,0.4,0.4
2024-09-27T1700,1444A,106.694,26.5161,贵阳市,中院村,,36,36,43,22,29,87,,85,85,16,18,6,11,0.6,0.6
2024-09-27T1700,1445A,106.7109,26.6027,贵阳市,红边门,细颗粒物(PM2.5),52,39,45,36,33,100,,94,94,15,20,4,9,0.4,0.5
2024-09-27T1700,1446A,106.7164,26.5699,贵阳市,新华路,,35,27,38,24,28,107,,101,101,10,16,4,7,0.4,0.4
2024-09-27T1700,1447A,106.674,26.5424,贵阳市,太慈桥,颗粒物(PM10),53,56,42,22,25,102,,96,96,9,19,6,7,0.4,0.5
2024-09-27T1700,1862A,110.4144,25.3167,桂林市,电子科大尧山校区,,,20,38,,29,92,,84,84,3,9,3,8,0.6,0.7
2024-09-27T1700,1863A,110.2819,25.2697,桂林市,监测站,,39,,36,27,32,94,,86,86,6,12,7,9,0.6,0.7
2024-09-27T1700,1864A,110.3089,25.2708,桂林市,龙隐路小学,,30,27,31,21,26,96,,88,88,4,10,6,9,0.5,0.6
2024-09-27T1700,1865A,110.2869,25.2178,桂林市,八中,,29,20,32,20,23,85,,76,76,5,13,6,7,0.3,0.5
2024-09-27T1700,3403A,110.1764,25.2381,桂林市,创业大厦,,29,22,32,17,26,92,,77,77,7,17,6,8,0.5,0.5
2024-09-27T1700,3531A,110.296,25.1253,桂林市,旅游学院,,30,14,26,7,18,94,,82,82,4,12,5,11,0.3,0.4
2024-09-27T1700,2674A,100.2561,34.4714,果洛藏族自治州,玛沁县大武镇,,29,26,32,8,14,91,,81,81,2,10,6,7,0.4,0.4
2024-09-27T1700,1129A,126.5422,45.755,哈尔滨市,岭北,,13,13,46,7,31,6,,6,6,12,43,5,13,0.4,1.3
2024-09-27T1700,1130A,126.561,45.8167,哈尔滨市,松北商大,,23,19,72,16,24,71,,64,64,13,39,8,9,0.3,0.8
2024-09-27T1700,1131A,126.979,45.5419,哈尔滨市,阿城会宁,,27,27,37,11,15,68,,74,74,16,26,9,11,0.4,0.6
2024-09-27T1700,1132A,126.599,45.7222,哈尔滨市,南岗学府路,,31,31,93,6,32,85,,80,80,13,38,7,8,0.4,1
2024-09-27T1700,1133A,126.689,45.7733,哈尔滨市,太平宏伟公园,,34,34,97,15,34,65,,64,64,24,46,6,8,0.3,0.7
2024-09-27T1700,1134A,126.635,45.7667,哈尔滨市,道外承德广场,,35,35,82,11,28,61,,63,63,32,54,6,9,0.4,1.1
2024-09-27T1700,1135A,126.685,45.7319,哈尔滨市,香坊红旗大街,,24,24,102,10,35,76,,73,73,18,49,10,17,0.5,1.2
2024-09-27T1700,1136A,126.6411,45.7258,哈尔滨市,动力和平路,,41,41,64,12,26,75,,71,71,26,51,12,13,0.5,1
2024-09-27T1700,1137A,126.593,45.7478,哈尔滨市,道里建国路,,25,24,68,14,28,80,,75,75,14,54,16,22,0.2,1.2
2024-09-27T1700,1138A,126.615,45.61,哈尔滨市,平房东轻厂,,38,38,57,14,20,67,,68,68,33,49,6,7,0.2,0.6
2024-09-27T1700,1139A,126.595,45.9855,哈尔滨市,呼兰师专,,28,28,61,15,31,65,,66,66,24,39,5,6,0.5,0.9
2024-09-27T1700,1140A,126.6206,45.6842,哈尔滨市,省农科院,,41,41,93,13,27,70,,74,74,26,54,5,9,0.4,0.9
2024-09-27T1700,2688A,93.5128,42.8172,哈密市,地区监测站,颗粒物(PM10),78,105,75,20,20,109,,86,86,6,19,9,5,0.3,0.3
2024-09-27T1700,2689A,93.4961,42.8328,哈密市,哈密师范学校,颗粒物(PM10),60,69,69,22,24,116,,90,90,4,18,5,5,0.2,0.4
2024-09-27T1700,2671A,100.9048,36.9639,海北藏族自治州,海晏县西海镇,,32,19,27,11,17,100,,94,94,6,9,14,14,0.4,0.5
2024-09-27T1700,3867A,102.0738,36.5056,海东市,平安区公安北苑,,47,41,66,18,29,148,,108,108,10,17,19,17,0.6,0.7
2024-09-27T1700,1410A,110.3232,20.0574,海口市,海南大学,,24,18,21,14,15,75,,98,98,8,12,3,3,0.4,0.4
2024-09-27T1700,1411A,110.283,20.0053,海口市,秀英海南医院,,,,32,,18,79,,96,96,15,15,,5,0.4,0.4
2024-09-27T1700,1412A,110.338,19.9969,海口市,海南师范大学,,29,22,25,15,16,91,,96,96,12,12,6,6,0.3,0.3
2024-09-27T1700,1413A,110.33,20.0356,海口市,龙华路环保局宿舍,,25,20,24,12,14,79,,98,98,7,9,4,4,0.3,0.4
2024-09-27T1700,3539A,110.5111,19.9736,海口市,桂林洋子站,,32,20,22,14,14,100,,100,100,4,9,7,6,0.3,0.4
2024-09-27T1700,2673A,100.6188,36.2866,海南藏族自治州,共和县恰卜恰镇,,,,32,11,13,76,,72,72,,20,2,10,0.3,0.6
2024-09-27T1700,2676A,97.3731,37.3753,海西蒙古族藏族自治州,德令哈市,,32,19,18,10,14,100,,94,94,5,7,9,9,0.4,0.4
2024-09-27T1700,1048A,114.5302,36.6116,邯郸市,东污水处理厂,臭氧1小时,95,98,124,70,100,196,,153,153,17,24,4,4,0.6,0.7
2024-09-27T1700,1049A,114.4918,36.5713,邯郸市,矿院,臭氧1小时,90,108,134,66,99,192,,152,152,12,18,4,5,0.6,0.7
2024-09-27T1700,1050A,114.484,36.6133,邯郸市,丛台公园,臭氧1小时,97,96,124,61,87,197,,153,153,14,21,6,5,0.6,0.7
2024-09-27T1700,3458A,114.7895,36.5593,邯郸市,香泉濮院小区,臭氧1小时,104,103,147,51,92,207,,163,163,12,25,3,4,0.6,0.8
2024-09-27T1700,3579A,114.50634,36.77178,邯郸市,永年区实验高中,,,,144,,92,,,165,165,,28,,4,,0.8
2024-09-27T1700,3580A,114.20016,36.44293,邯郸市,峰峰矿区临水派出所,臭氧1小时,104,113,124,55,74,208,,173,173,9,18,4,8,0.8,1.2
2024-09-27T1700,2635A,107.0154,33.0706,汉中市,市监测站,臭氧1小时,74,53,65,34,40,179,,170,170,5,15,9,9,0.6,0.7
2024-09-27T1700,2636A,107.0089,33.1138,汉中市,鑫源开发区,臭氧1小时,75,53,63,30,39,180,,172,172,6,19,11,11,0.5,0.6
2024-09-27T1700,2637A,107.007,33.0323,汉中市,南郑大河坎水厂,臭氧1小时,69,51,63,30,41,175,,164,164,7,15,9,9,0.6,0.7
2024-09-27T1700,1223A,120.2072,30.2111,杭州市,滨江,,24,17,29,11,15,75,,80,80,17,25,5,5,0.6,0.7
2024-09-27T1700,1224A,120.0633,30.2747,杭州市,西溪,,29,22,34,9,18,92,,68,68,18,29,6,6,0.5,0.8
2024-09-27T1700,1226A,120.3461,30.3153,杭州市,下沙,,27,25,28,9,12,85,,86,86,16,46,6,6,0.6,0.6
2024-09-27T1700,1227A,120.1269,30.2456,杭州市,卧龙桥,,32,20,27,7,19,101,,82,82,17,25,6,6,0.5,0.6
2024-09-27T1700,1228A,120.1903,30.2692,杭州市,浙江农大,,26,20,28,8,16,81,,74,74,20,39,8,8,0.4,0.5
2024-09-27T1700,1230A,120.1197,30.3119,杭州市,和睦小学,,33,17,25,12,18,104,,83,83,18,34,6,6,0.5,0.6
2024-09-27T1700,1231A,120.3019,30.4183,杭州市,临平镇,,26,12,27,11,11,82,,85,85,11,26,4,5,0.6,0.7
2024-09-27T1700,1232A,120.2697,30.1819,杭州市,城厢镇,,28,26,27,10,14,89,,98,98,19,33,6,7,0.4,0.6
2024-09-27T1700,1233A,120.0883,30.1808,杭州市,云栖,,27,19,21,10,13,84,,79,79,16,20,7,7,0.7,0.7
2024-09-27T1700,3557A,119.9464,30.0494,杭州市,镇二中,,37,25,27,17,19,116,,92,92,22,25,8,8,0.6,0.7
2024-09-27T1700,3558A,119.7183,30.2367,杭州市,市府大楼,,36,20,20,14,16,114,,92,92,27,23,6,6,0.6,0.6
2024-09-27T1700,3656A,120.1556,30.2864,杭州市,消防大队,,30,22,29,10,19,95,,82,82,13,28,8,8,0.7,0.8
2024-09-27T1700,1270A,117.1959,31.7848,合肥市,明珠广场,,33,12,23,12,15,103,,97,97,18,19,7,6,0.8,0.8
2024-09-27T1700,1271A,117.3072,31.8764,合肥市,三里街,,30,24,21,7,12,93,,87,87,13,14,6,7,0.5,0.5
2024-09-27T1700,1272A,117.2588,31.8707,合肥市,琥珀山庄,,34,17,21,7,20,107,,100,100,10,16,7,7,0.5,0.5
2024-09-27T1700,1274A,117.25,31.8571,合肥市,长江中路,,31,31,30,12,17,99,,96,96,13,14,7,7,0.6,0.6
2024-09-27T1700,1275A,117.266,31.9436,合肥市,庐阳区,,34,14,21,3,14,106,,103,103,11,15,4,5,0.5,0.6
2024-09-27T1700,1276A,117.336,31.8586,合肥市,瑶海区,,31,17,22,12,14,98,,94,94,11,16,3,3,0.5,0.6
2024-09-27T1700,1277A,117.3027,31.7964,合肥市,包河区,,32,22,22,12,13,101,,90,90,18,27,5,3,0.6,0.7
2024-09-27T1700,1278A,117.2776,31.7385,合肥市,滨湖新区,,33,12,25,3,15,105,,95,95,7,16,6,6,0.6,0.6
2024-09-27T1700,1279A,117.1318,31.8403,合肥市,高新区,,31,9,23,9,16,99,,92,92,9,15,8,8,0.7,0.8
2024-09-27T1700,3464A,117.3803,31.9147,合肥市,高教基地,,31,23,22,6,18,99,,94,94,6,11,4,4,0.4,0.4
2024-09-27T1700,3614A,79.924,37.0877,和田地区,地区环保局,颗粒物(PM10),140,230,301,71,85,97,,82,82,4,18,7,8,0.5,0.7
2024-09-27T1700,3615A,79.9131,37.113,和田地区,市环保局,颗粒物(PM10),146,241,316,47,84,104,,82,82,6,27,6,8,0.3,0.6
2024-09-27T1700,2516A,108.2011,24.715,河池市,东仁乐园,,44,44,41,24,29,90,,84,84,6,12,7,6,0.6,0.7
2024-09-27T1700,2517A,108.0497,24.6947,河池市,市环保站,颗粒物(PM10),52,54,53,28,40,83,,88,88,6,13,10,12,0.5,0.5
2024-09-27T1700,2518A,108.0983,24.6989,河池市,市疾控中心,,33,27,41,23,28,85,,82,82,8,16,11,11,0.6,0.7
2024-09-27T1700,1696A,114.6778,23.7569,河源市,源西,,20,20,23,12,19,54,,56,56,6,16,4,4,0.7,0.8
2024-09-27T1700,1697A,114.6944,23.7586,河源市,东埔,,19,,21,11,14,58,,62,62,12,20,2,2,0.7,0.7
2024-09-27T1700,1698A,114.6892,23.7233,河源市,老城,,21,21,27,8,13,64,,67,67,5,14,2,2,0.6,0.7
2024-09-27T1700,1718A,115.4208,35.2464,菏泽市,气象局,臭氧1小时,100,73,122,27,63,200,,185,185,11,27,4,7,0.4,0.7
2024-09-27T1700,1719A,115.4747,35.2375,菏泽市,市政协,臭氧1小时,100,62,121,29,63,200,,181,181,13,27,6,8,0.3,0.6
2024-09-27T1700,3374A,115.5564,35.0891,菏泽市,定陶老年大学,臭氧1小时,83,63,117,31,60,186,,171,171,10,23,8,9,0.4,0.7
2024-09-27T1700,3647A,115.4702,35.2706,菏泽市,菏泽医专,臭氧1小时,94,68,128,25,78,195,,181,181,14,32,3,9,0.6,0.9
2024-09-27T1700,2514A,111.5264,24.4172,贺州市,环保小区,,28,25,40,19,21,65,,44,44,8,21,5,6,0.7,0.7
2024-09-27T1700,2515A,111.5608,24.4078,贺州市,政协大楼,,27,27,38,12,22,84,,55,55,12,22,4,7,0.6,0.7
2024-09-27T1700,3534A,111.4744,24.4553,贺州市,西湾,,28,20,28,11,17,87,,65,65,7,16,6,6,0.6,0.7
2024-09-27T1700,2385A,114.17,35.9019,鹤壁市,市监测站,臭氧1小时,106,92,115,57,86,211,,190,190,16,23,4,10,1.0,1.4
2024-09-27T1700,2386A,114.2956,35.7511,鹤壁市,市交警支队,臭氧1小时,104,87,123,55,82,208,,180,180,20,31,5,9,0.6,1.1
2024-09-27T1700,2387A,114.2878,35.7306,鹤壁市,迎宾馆,臭氧1小时,105,114,143,67,95,209,,180,180,22,30,4,10,0.7,1.1
2024-09-27T1700,3474A,114.2617,35.6822,鹤壁市,大新区,臭氧1小时,95,85,104,48,72,196,,177,177,21,26,8,13,0.8,1.2
2024-09-27T1700,3596A,114.1572,35.9603,鹤壁市,南山宾馆,臭氧1小时,105,76,126,54,86,210,,188,188,8,16,5,7,0.8,1.2
2024-09-27T1700,2244A,130.2537,47.3416,鹤岗市,哈啤分公司,,33,33,21,15,16,71,,72,72,7,6,13,14,0.6,0.6
2024-09-27T1700,2245A,130.2684,47.3086,鹤岗市,斯达机电,,,19,20,14,14,75,,72,72,,13,13,13,0,0.1
2024-09-27T1700,2246A,130.3114,47.3388,鹤岗市,东山纸板厂,,36,,38,25,18,52,,64,64,23,14,16,16,0.3,0.5
2024-09-27T1700,2247A,130.1097,47.3382,鹤岗市,五号水库,,23,20,12,7,7,73,,79,79,7,5,8,7,0.5,0.4
2024-09-27T1700,2263A,127.4833,50.2524,黑河市,交通局,,32,30,27,22,18,76,,69,69,20,15,7,7,0.4,0.4
2024-09-27T1700,2264A,127.5144,50.2341,黑河市,环保局,,28,23,22,9,14,89,,81,81,15,8,5,4,0.3,0.4
2024-09-27T1700,2265A,127.5291,50.2472,黑河市,大黑河岛,,,,,15,18,86,,60,60,14,11,1,2,0.1,0.1
2024-09-27T1700,1074A,115.6838,37.7541,衡水市,电机北厂,细颗粒物(PM2.5),84,105,66,62,46,183,,110,110,17,28,9,8,0.6,0.4
2024-09-27T1700,1075A,115.6303,37.7316,衡水市,市监测站,臭氧1小时,92,89,66,54,39,193,,123,123,16,27,10,9,0.6,0.5
2024-09-27T1700,3188A,115.6683,37.7217,衡水市,市城管局,臭氧1小时,95,94,64,57,42,196,,122,122,15,26,7,7,0.7,0.5
2024-09-27T1700,3459A,115.5989,37.5491,衡水市,地表水厂,,,,55,,32,168,,108,108,18,31,10,7,0.6,0.4
2024-09-27T1700,2456A,112.5003,26.9167,衡阳市,原169医院,颗粒物(PM10),55,60,64,35,40,161,,132,132,13,14,6,7,0.8,1
2024-09-27T1700,2457A,112.6194,26.9258,衡阳市,衡阳化工总厂,颗粒物(PM10),53,55,68,25,52,139,,119,119,5,18,10,12,0.6,0.8
2024-09-27T1700,2458A,112.6211,26.8956,衡阳市,珠晖区环保局,,,47,62,,,139,,117,117,9,17,8,11,0.6,0.8
2024-09-27T1700,2459A,112.6197,26.8733,衡阳市,市委党校,,48,48,62,23,46,143,,114,114,6,20,10,12,0.7,0.9
2024-09-27T1700,2460A,112.6006,26.8919,衡阳市,市监测站,,46,33,53,15,35,146,,131,131,4,15,9,11,0.7,1
2024-09-27T1700,2461A,112.5664,26.9056,衡阳市,真空机电公司,,46,38,61,32,41,142,,115,115,5,18,9,10,0.9,1.1
2024-09-27T1700,3399A,112.6703,26.882,衡阳市,师范学院,细颗粒物(PM2.5),54,43,60,38,36,148,,123,123,9,14,10,11,0.7,0.9
2024-09-27T1700,2608A,103.3772,23.3993,红河哈尼族彝族自治州,污水处理厂,,20,16,33,14,27,61,,66,66,5,6,5,5,0.4,0.5
2024-09-27T1700,2609A,103.3861,23.35,红河哈尼族彝族自治州,监测站,,34,34,39,14,30,63,,66,66,5,5,9,8,0.5,0.5
2024-09-27T1700,3038A,103.3758,23.368,红河哈尼族彝族自治州,州图书馆,,20,20,34,8,19,58,,66,64,4,5,6,6,0.3,0.4
2024-09-27T1700,1090A,111.6507,40.7517,呼和浩特市,呼市一监,颗粒物(PM10),53,56,59,27,30,142,,106,106,14,24,8,7,0.6,0.6
2024-09-27T1700,1091A,111.6572,40.8033,呼和浩特市,小召,颗粒物(PM10),52,53,55,27,31,142,,106,106,19,28,8,8,0.6,0.6
2024-09-27T1700,1094A,111.7516,40.8369,呼和浩特市,如意水处理厂,颗粒物(PM10),52,53,68,26,29,133,,104,104,15,34,8,8,0.6,0.6
2024-09-27T1700,1095A,111.7276,40.8062,呼和浩特市,二十九中,颗粒物(PM10),54,58,55,36,35,139,,121,121,18,28,7,6,0.8,0.7
2024-09-27T1700,1096A,111.5512,40.7866,呼和浩特市,工大金川校区,颗粒物(PM10),56,62,77,34,36,129,,93,93,22,43,4,5,0.7,0.7
2024-09-27T1700,1097A,111.717,40.7612,呼和浩特市,化肥厂生活区,颗粒物(PM10),58,65,67,33,32,130,,113,113,17,27,11,10,0.7,0.7
2024-09-27T1700,3698A,111.5968,40.8178,呼和浩特市,红旗小学,颗粒物(PM10),63,75,75,35,35,140,,105,105,25,46,5,8,0.6,0.6
2024-09-27T1700,3699A,111.6518,40.8389,呼和浩特市,海东办,颗粒物(PM10),58,66,64,35,33,141,,111,111,19,36,6,7,0.6,0.6
2024-09-27T1700,2192A,119.7594,49.2261,呼伦贝尔市,区环保局,,48,48,36,19,19,79,,86,86,23,16,4,4,0.5,0.4
2024-09-27T1700,3061A,119.7512,49.1577,呼伦贝尔市,国华电力东,,38,38,33,22,19,90,,95,95,11,10,4,4,0.4,0.3
2024-09-27T1700,1250A,120.0751,30.8669,湖州市,城西水厂,,27,20,16,11,10,86,,96,96,25,23,4,5,0.3,0.3
2024-09-27T1700,2873A,120.0875,30.8955,湖州市,仁皇山新区,,38,24,13,13,8,120,,104,104,19,19,7,7,0.6,0.6
2024-09-27T1700,2907A,120.1844,30.8596,湖州市,吴兴区站,,26,18,20,8,9,82,,87,87,19,20,5,7,0.5,0.5
2024-09-27T1700,3562A,120.4148,30.8538,湖州市,南浔区站,,25,13,16,6,9,77,,83,83,14,22,6,8,0.4,0.5
2024-09-27T1700,1607A,120.9092,40.7136,葫芦岛市,龙港区,,47,18,43,11,31,148,,115,115,15,34,12,30,0.5,0.7
2024-09-27T1700,1608A,120.8392,40.7514,葫芦岛市,化工街,,45,31,62,12,27,142,,112,112,14,40,15,27,0.5,0.6
2024-09-27T1700,1609A,120.8341,40.7073,葫芦岛市,新区,,47,32,47,21,34,148,,123,123,21,48,11,18,0.5,0.7
2024-09-27T1700,1610A,120.8695,40.7677,葫芦岛市,东城区,,45,,51,26,35,142,,116,116,14,41,17,20,0.3,0.4
2024-09-27T1700,2482A,109.5981,27.5721,怀化市,林科所,,39,34,48,21,31,122,,120,120,12,18,3,9,0.6,0.7
2024-09-27T1700,2483A,109.9453,27.5444,怀化市,河西地税局,,39,38,62,26,42,122,,119,119,6,21,9,10,0.5,0.6
2024-09-27T1700,2484A,109.9781,27.5342,怀化市,市四医院,,43,36,75,30,48,115,,114,114,2,11,7,23,0.5,0.7
2024-09-27T1700,2485A,109.9972,27.5578,怀化市,监测楼,,44,44,70,20,41,121,,120,120,7,18,6,18,0.5,0.6
2024-09-27T1700,2486A,110.0394,27.583,怀化市,市委党校,,45,41,71,31,46,116,,117,117,5,21,8,36,0.5,0.7
2024-09-27T1700,1210A,119.036,33.5981,淮安市,钵池山,,38,31,40,18,34,120,,122,122,6,14,4,4,0.5,0.6
2024-09-27T1700,1211A,119.007,33.575,淮安市,北京南路,,37,31,43,17,32,116,,122,122,11,16,6,6,0.5,0.5
2024-09-27T1700,1212A,118.989,33.6067,淮安市,市监测站,,40,22,41,17,28,126,,130,130,20,24,6,7,0.4,0.5
2024-09-27T1700,1213A,119.135,33.5039,淮安市,楚州区监测站,,39,37,50,13,26,122,,125,125,10,16,6,6,0.5,0.6
2024-09-27T1700,1214A,119.0186,33.6297,淮安市,淮阴区监测站,,37,36,52,21,36,118,,125,125,20,26,2,2,0.4,0.5
2024-09-27T1700,3426A,118.8755,33.2894,淮安市,新华书店,,,35,41,14,20,137,,137,137,14,17,,7,,0.6
2024-09-27T1700,2282A,116.8004,33.975,淮北市,监测站,,41,33,54,12,36,131,,147,147,11,11,6,7,0.4,0.6
2024-09-27T1700,2283A,116.8091,33.9007,淮北市,烈山区政府,,45,41,63,17,34,141,,156,156,6,11,5,6,0.3,0.5
2024-09-27T1700,3330A,116.8873,33.9836,淮北市,杜集区检察院,,46,45,61,8,42,146,,161,161,1,3,7,8,0.4,0.7
2024-09-27T1700,4017A,116.7923,33.9535,淮北市,市博物馆,,45,39,55,11,33,141,,156,156,8,11,5,6,0.5,0.7
2024-09-27T1700,2277A,116.8305,32.7727,淮南市,潘集区政府,,36,21,29,15,20,113,,113,113,14,13,5,6,0.5,0.4
2024-09-27T1700,2278A,117.0067,32.6524,淮南市,师范学院,,38,26,28,22,19,119,,117,117,4,7,6,7,0.4,0.4
2024-09-27T1700,2279A,116.8569,32.5951,淮南市,谢家集区政府,,32,21,17,14,17,101,,103,103,15,13,7,7,0.2,0.2
2024-09-27T1700,2280A,116.8281,32.633,淮南市,八公山区政府,,34,26,30,15,17,107,,108,108,7,11,12,11,0.2,0.3
2024-09-27T1700,2894A,117.0566,32.6531,淮南市,经济技术开发区消防队,,36,23,25,3,11,115,,112,112,5,10,4,4,0.4,0.4
2024-09-27T1700,3329A,117.0108,32.5893,淮南市,山南新区,,39,23,26,12,10,122,,117,117,10,13,3,3,0.5,0.5
2024-09-27T1700,2446A,114.9028,30.4742,黄冈市,职工中心,臭氧1小时,63,49,69,30,44,170,,160,160,15,20,8,10,0.6,0.7
2024-09-27T1700,2929A,114.8858,30.4519,黄冈市,红卫路,,47,44,65,29,43,150,,82,,45,23,8,10,0.5,0.8
2024-09-27T1700,3398A,114.9136,30.4445,黄冈市,市林业局,臭氧1小时,77,51,86,25,40,181,,174,174,12,23,8,11,0.6,0.7
2024-09-27T1700,2672A,102.0199,35.5102,黄南藏族自治州,同仁县隆务镇,,38,38,35,12,14,93,,80,80,12,9,9,10,0.6,0.5
2024-09-27T1700,2295A,118.2903,29.6963,黄山市,延安路89号,,22,12,35,3,13,70,,66,66,1,6,6,6,0.3,0.4
2024-09-27T1700,2296A,118.327,29.7178,黄山市,黄山东路89号,,21,20,29,3,17,67,,63,63,4,7,4,4,0.3,0.4
2024-09-27T1700,2297A,118.1371,30.2756,黄山市,黄山区政府5号楼,,26,6,34,3,24,82,,65,65,6,8,7,6,0.3,0.5
2024-09-27T1700,2423A,115.0601,30.2313,黄石市,沈家营,,49,34,72,18,38,155,,163,163,21,22,11,18,0.6,0.8
2024-09-27T1700,2424A,115.0817,30.2006,黄石市,陈家湾,,47,47,70,23,37,143,,158,158,75,20,10,12,0.9,1
2024-09-27T1700,2426A,114.8988,30.2019,黄石市,铁山,臭氧1小时,74,34,59,21,40,179,,188,188,13,19,11,12,0.6,0.6
2024-09-27T1700,2427A,115.0307,30.2092,黄石市,团城山,,50,37,66,15,34,160,,172,172,12,16,14,21,0.7,0.8
2024-09-27T1700,3149A,115.0235,30.1578,黄石市,笔架山北路,,45,30,57,10,38,143,,171,171,7,14,8,10,0.7,0.9
2024-09-27T1700,1392A,114.4183,23.0528,惠州市,河南岸金山湖子站,,40,29,55,21,36,126,,119,119,8,22,4,5,0.5,0.7
2024-09-27T1700,1393A,114.4053,23.0822,惠州市,下埔横江三路子站,,,27,50,15,32,129,,124,124,,19,4,4,0.6,0.8
2024-09-27T1700,1394A,114.4103,23.1142,惠州市,江北云山西路子站,,40,22,46,19,28,125,,127,127,5,21,4,6,0.5,0.8
2024-09-27T1700,1395A,114.4645,22.7833,惠州市,惠阳区承修路船湖子站,臭氧1小时,83,32,63,23,40,186,,154,154,17,31,6,6,0.7,0.9
2024-09-27T1700,1396A,114.5317,22.7422,惠州市,大亚湾管委会子站,臭氧1小时,103,47,60,36,35,206,,190,190,24,36,7,7,0.6,0.8
2024-09-27T1700,3314A,114.4338,22.8134,惠州市,惠阳秋长,臭氧1小时,93,44,63,28,40,194,,156,156,18,34,5,6,0.6,0.8
2024-09-27T1700,3452A,114.6517,22.775,惠州市,大亚湾霞涌,臭氧1小时,104,46,44,33,25,207,,181,181,21,16,4,4,0.6,0.8
2024-09-27T1700,2240A,130.9762,45.3001,鸡西市,环保局,,22,15,22,3,7,68,,71,71,9,9,5,5,0.2,0.2
2024-09-27T1700,2243A,130.9429,45.3039,鸡西市,第一中学,,24,21,24,11,9,76,,73,73,10,10,5,5,0.1,0.1
2024-09-27T1700,3707A,131.0207,45.3073,鸡西市,欧美日汽修厂,,26,24,26,18,12,74,,74,74,12,18,4,5,0.1,0.2
2024-09-27T1700,3709A,130.9967,45.3106,鸡西市,市政设施管理处,,21,21,33,3,9,66,,69,69,15,22,6,6,0.1,0.3
2024-09-27T1700,2367A,114.9754,27.0803,吉安市,红声器材厂,颗粒物(PM10),53,56,50,32,30,137,,116,116,11,18,10,10,0.6,0.6
2024-09-27T1700,2368A,114.9658,27.0999,吉安市,市森林工业局,颗粒物(PM10),51,52,47,31,33,126,,108,108,13,22,10,12,0.7,0.7
2024-09-27T1700,2369A,114.99,27.1312,吉安市,市环境监测站,,45,45,44,31,27,137,,113,113,12,18,15,21,0.7,0.8
2024-09-27T1700,2370A,115.0093,27.0968,吉安市,青原区法院,,48,48,46,33,30,141,,113,113,12,20,11,12,0.8,0.8
2024-09-27T1700,1772A,126.54,43.8622,吉林市,哈达湾,,29,13,28,6,16,92,,79,79,13,27,6,6,0.4,0.6
2024-09-27T1700,1773A,126.5844,43.8358,吉林市,东局子,,25,13,32,9,18,79,,76,76,16,26,4,4,0.5,0.6
2024-09-27T1700,1774A,126.5052,43.8245,吉林市,电力学院,,29,,35,12,22,91,,81,81,8,22,2,3,0.4,0.6
2024-09-27T1700,1775A,126.6133,43.8972,吉林市,江北,,25,13,38,8,20,78,,96,93,13,27,6,6,0.6,0.7
2024-09-27T1700,1776A,126.555,43.8306,吉林市,江南公园,,25,13,35,12,20,79,,75,75,18,28,6,6,0.5,0.7
2024-09-27T1700,1778A,126.7061,43.7133,吉林市,丰满,,24,7,9,3,8,74,,80,80,8,4,5,5,0.4,0.6
2024-09-27T1700,2868A,126.4739,43.953,吉林市,九站,,35,22,50,10,22,109,,89,89,15,29,9,8,0.5,0.6
2024-09-27T1700,1299A,116.9862,36.6114,济南市,科干所,臭氧1小时,105,119,98,54,43,210,,197,197,41,51,9,8,1.1,1
2024-09-27T1700,1300A,116.9376,36.665,济南市,农科所,臭氧1小时,100,100,87,49,38,200,,176,176,34,51,7,8,0.9,0.8
2024-09-27T1700,1301A,117.1265,36.6734,济南市,开发区,臭氧1小时,111,112,92,49,39,221,,176,176,31,56,8,8,0.8,0.8
2024-09-27T1700,1303A,117.0624,36.6868,济南市,省种子仓库,臭氧1小时,114,114,96,53,37,228,,176,176,26,46,8,8,0.7,0.7
2024-09-27T1700,1304A,116.9489,36.6447,济南市,机床二厂,臭氧1小时,117,103,96,42,35,234,,219,219,35,57,7,7,0.9,0.9
2024-09-27T1700,1305A,117.0495,36.663,济南市,市监测站,臭氧1小时,113,103,90,46,41,225,,178,178,35,57,8,8,1.0,0.9
2024-09-27T1700,1306A,116.7675,36.5484,济南市,长清党校,臭氧1小时,115,107,106,54,60,230,,206,206,31,41,8,9,1.0,1
2024-09-27T1700,1616A,117.6795,36.229,济南市,技术学院,臭氧1小时,62,41,58,17,30,169,,164,164,11,24,9,11,0.6,0.8
2024-09-27T1700,1961A,117.532,36.6868,济南市,东山小学,臭氧1小时,116,105,91,42,32,232,,203,203,26,45,6,6,0.7,0.7
2024-09-27T1700,3059A,117.7161,36.2049,济南市,泰兴公司,臭氧1小时,68,44,53,22,27,174,,160,160,10,31,8,10,0.4,0.6
2024-09-27T1700,3064A,117.6867,36.2171,济南市,莱芜战役纪念馆,臭氧1小时,57,41,57,17,24,165,,156,156,13,27,4,6,0.6,0.7
2024-09-27T1700,3494A,117.1673,36.9782,济南市,济阳区政府,臭氧1小时,115,95,64,42,25,230,,191,191,17,25,12,14,0.8,0.7
2024-09-27T1700,3495A,117.1171,36.63,济南市,锦屏中学,臭氧1小时,117,,76,54,44,234,,187,187,26,35,8,7,0.8,0.8
2024-09-27T1700,3682A,116.9814,36.6819,济南市,济南四建,臭氧1小时,109,100,85,44,34,218,,160,160,34,57,5,6,1.0,0.9
2024-09-27T1700,1653A,116.6251,35.4302,济宁市,火炬城,臭氧1小时,93,44,86,24,47,194,,180,180,7,17,12,12,0.8,0.9
2024-09-27T1700,1655A,116.5491,35.4042,济宁市,电化厂,颗粒物(PM10),92,134,102,22,42,162,,171,171,41,28,13,15,0.5,0.8
2024-09-27T1700,3500A,116.5814,35.3707,济宁市,北湖一中,臭氧1小时,94,46,76,24,52,195,,181,181,12,26,6,8,0.5,0.7
2024-09-27T1700,3501A,116.8249,35.5593,济宁市,服务中心,臭氧1小时,68,42,98,19,62,174,,164,164,14,43,9,10,0.3,0.7
2024-09-27T1700,3678A,116.5907,35.4054,济宁市,市第七中学,臭氧1小时,92,49,81,24,47,193,,176,176,14,28,9,11,0.7,0.9
2024-09-27T1700,2255A,130.2751,46.8028,佳木斯市,佳纺,,16,12,23,6,11,51,,64,64,23,18,4,4,0.5,0.5
2024-09-27T1700,2256A,130.3995,46.8307,佳木斯市,发电厂,,18,,12,6,9,56,,65,65,11,11,5,5,0.5,0.5
2024-09-27T1700,2257A,130.3258,46.7975,佳木斯市,环保局,,17,15,29,3,15,52,,53,53,24,30,8,8,0.6,0.6
2024-09-27T1700,2258A,130.3648,46.8032,佳木斯市,十一中,,20,9,25,3,13,63,,64,64,15,25,7,7,0.4,0.5
2024-09-27T1700,2259A,130.3794,46.7588,佳木斯市,四丰,,19,9,16,7,8,58,,59,59,23,20,1,1,0.2,0.3
2024-09-27T1700,1252A,120.7436,30.778,嘉兴市,清河小学,,34,20,16,9,8,107,,85,85,18,26,4,4,0.5,0.6
2024-09-27T1700,1253A,120.726,30.7478,嘉兴市,嘉兴学院,,27,22,19,11,8,84,,75,75,17,22,2,3,0.4,0.3
2024-09-27T1700,2872A,120.7846,30.7525,嘉兴市,南湖区残联,,34,25,21,10,7,107,,87,87,23,28,5,5,0.4,0.4
2024-09-27T1700,3407A,120.6916,30.7739,嘉兴市,秀洲住建,,35,27,17,14,9,110,,82,82,15,28,6,5,0.6,0.6
2024-09-27T1700,1945A,98.2908,39.7711,嘉峪关市,气象局,,44,44,58,9,20,117,,106,106,6,24,5,23,0.1,0.3
2024-09-27T1700,2884A,98.2672,39.7978,嘉峪关市,酒钢宾馆,颗粒物(PM10),57,63,62,22,20,108,,100,100,15,23,63,31,0.8,0.7
2024-09-27T1700,3248A,98.2643,39.7724,嘉峪关市,雄关区,颗粒物(PM10),51,52,54,15,22,106,,97,97,14,21,17,20,0.3,0.6
2024-09-27T1700,1383A,113.1064,22.6058,江门市,北街,,43,38,31,30,19,135,,117,117,10,13,5,5,0.8,0.8
2024-09-27T1700,1384A,113.0731,22.5835,江门市,西区,,38,38,34,23,19,115,,112,112,15,21,5,6,0.5,0.6
2024-09-27T1700,1385A,113.0219,22.5311,江门市,圭峰西,,39,39,31,24,22,117,,109,109,7,10,3,3,0.8,0.8
2024-09-27T1700,1386A,113.0828,22.5947,江门市,东湖,,36,36,30,23,19,115,,111,111,10,15,4,5,0.5,0.5
2024-09-27T1700,3311A,113.1075,22.5647,江门市,江海富民,颗粒物(PM10),55,59,41,23,21,135,,122,122,14,14,6,6,0.6,0.6
2024-09-27T1700,3449A,113.05,22.4667,江门市,新会银湖,,43,43,36,27,20,120,,110,110,9,10,7,5,0.9,0.9
2024-09-27T1700,1828A,113.227,35.2125,焦作市,市环保局,细颗粒物(PM2.5),79,106,126,58,81,181,,170,170,17,23,5,10,0.6,0.8
2024-09-27T1700,3169A,113.2725,35.2067,焦作市,太极体育中心,颗粒物(PM10),82,114,137,55,67,180,,168,168,13,20,8,10,0.6,0.8
2024-09-27T1700,3335A,113.3137,35.2641,焦作市,马村街道办,细颗粒物(PM2.5),104,89,103,78,85,186,,170,170,16,24,4,7,0.5,0.9
2024-09-27T1700,3336A,113.2465,35.2373,焦作市,焦作技师学院,细颗粒物(PM2.5),83,100,119,61,83,183,,170,170,18,23,3,6,0.6,0.9
2024-09-27T1700,3477A,113.1656,35.2539,焦作市,中站许衡医院,细颗粒物(PM2.5),79,84,97,58,65,182,,174,174,19,28,3,6,0.6,0.8
2024-09-27T1700,3981A,113.2449,35.1803,焦作市,原李万街道办,臭氧1小时,83,108,124,56,79,186,,171,171,15,21,8,13,0.7,1
2024-09-27T1700,1708A,116.3701,23.5345,揭阳市,新兴,,24,23,30,15,16,74,,80,80,5,13,4,5,0.6,0.7
2024-09-27T1700,1709A,116.3264,23.5443,揭阳市,西马,,30,30,33,16,16,71,,78,78,8,11,5,6,0.5,0.6
2024-09-27T1700,1710A,116.3611,23.5626,揭阳市,东兴,,25,25,33,12,16,70,,81,81,7,11,4,6,0.8,0.9
2024-09-27T1700,1711A,116.4151,23.5294,揭阳市,渔湖,,25,17,34,6,15,78,,86,85,8,14,4,4,0.6,0.7
2024-09-27T1700,3320A,116.403,23.5699,揭阳市,曲溪,,24,21,26,6,17,76,,85,85,8,15,2,4,0.4,0.6
2024-09-27T1700,3170A,102.1864,38.5253,金昌市,市委党校,颗粒物(PM10),65,80,68,24,24,120,,107,107,6,21,13,16,0.4,0.6
2024-09-27T1700,4022A,102.1647,38.5371,金昌市,金川区人防中心,颗粒物(PM10),68,86,66,24,21,114,,102,102,7,18,10,14,0.5,0.6
2024-09-27T1700,1262A,119.647,29.077,金华市,十五中,,27,12,39,12,23,85,,66,66,11,22,2,2,0.4,0.6
2024-09-27T1700,1263A,119.686,29.1029,金华市,监测站,,28,15,35,12,24,88,,66,66,15,25,2,2,0.4,0.6
2024-09-27T1700,3659A,119.656,29.1131,金华市,气象局,,29,15,34,8,19,91,,63,63,13,26,5,5,0.4,0.5
2024-09-27T1700,1767A,121.1115,41.0879,锦州市,南山,,38,24,33,18,28,121,,102,102,13,32,8,13,0.4,0.7
2024-09-27T1700,1768A,121.0533,40.8434,锦州市,开发区,,45,30,75,22,40,142,,130,130,24,56,9,23,0.8,1.2
2024-09-27T1700,1769A,121.1836,41.1119,锦州市,百股街道,,38,21,35,7,18,119,,102,102,13,27,7,15,0.5,0.7
2024-09-27T1700,1770A,121.1178,41.1222,锦州市,天安街道,,38,25,46,13,31,121,,104,104,13,34,8,17,0.5,0.8
2024-09-27T1700,1771A,121.1303,41.1386,锦州市,北湖公园,,39,32,44,14,28,123,,110,110,16,27,8,15,0.5,0.7
2024-09-27T1700,2160A,112.85,35.5051,晋城市,自来水公司,臭氧1小时,77,91,114,51,76,181,,154,154,17,31,6,8,0.8,1.1
2024-09-27T1700,2161A,112.8318,35.4936,晋城市,白云商贸,细颗粒物(PM2.5),77,99,110,56,71,178,,152,152,18,28,6,7,0.9,1
2024-09-27T1700,2162A,112.8508,35.4887,晋城市,市环保局,细颗粒物(PM2.5),79,84,113,58,71,179,,155,155,18,34,6,7,0.8,1
2024-09-27T1700,2163A,112.8676,35.4897,晋城市,技术学院,臭氧1小时,75,95,120,48,73,180,,150,150,21,38,6,8,0.8,1.1
2024-09-27T1700,3620A,112.8271,35.4828,晋城市,泽州一中,,,,112,,78,173,,148,148,19,34,5,9,0.9,1.1
2024-09-27T1700,2171A,112.7532,37.6945,晋中市,锦纶小区,细颗粒物(PM2.5),94,100,84,70,62,92,,101,101,20,21,9,7,0.8,0.8
2024-09-27T1700,2173A,112.7249,37.7067,晋中市,南都小区,细颗粒物(PM2.5),72,91,81,52,64,91,,101,101,23,23,6,5,0.9,0.8
2024-09-27T1700,2174A,112.6991,37.6982,晋中市,榆次区政府,颗粒物(PM10),69,88,88,49,50,93,,101,101,22,26,7,6,0.7,0.7
2024-09-27T1700,2865A,112.7195,37.6828,晋中市,榆次三中,细颗粒物(PM2.5),83,100,86,61,56,86,,96,96,26,22,9,8,0.8,0.8
2024-09-27T1700,2439A,112.2014,31.0481,荆门市,竹园小学,臭氧1小时,94,60,99,29,62,195,,197,197,16,33,12,15,0.3,0.6
2024-09-27T1700,2440A,112.1969,30.9891,荆门市,掇刀,臭氧1小时,103,63,107,34,75,206,,198,198,16,39,15,19,0.6,0.8
2024-09-27T1700,2441A,112.2213,31.0386,荆门市,石化一小,臭氧1小时,100,62,108,36,64,200,,199,199,13,41,18,21,0.5,0.7
2024-09-27T1700,3012A,112.1849,31.0362,荆门市,西山林语,臭氧1小时,104,57,96,26,64,207,,204,204,13,23,12,14,0.7,0.8
2024-09-27T1700,3547A,112.1632,31.0138,荆门市,龙泉中学南校,臭氧1小时,106,58,96,36,58,212,,209,209,8,35,12,15,0.7,0.8
2024-09-27T1700,1844A,112.2494,30.3197,荆州市,市图书馆,臭氧1小时,93,74,96,47,72,194,,187,187,17,38,10,16,0.8,1
2024-09-27T1700,1845A,112.2008,30.3544,荆州市,市委党校,臭氧1小时,103,67,95,51,68,205,,196,196,12,36,8,15,0.7,0.9
2024-09-27T1700,3194A,112.2747,30.3122,荆州市,管委会,臭氧1小时,94,60,94,45,77,195,,189,189,13,35,11,18,0.8,1
2024-09-27T1700,3548A,112.1655,30.3364,荆州市,学苑路,臭氧1小时,108,76,102,58,83,215,,199,199,15,34,6,8,0.7,0.9
2024-09-27T1700,2343A,117.2117,29.2933,景德镇市,老干部活动中心,,22,12,33,9,24,68,,75,75,6,14,7,8,0.4,0.5
2024-09-27T1700,2344A,117.1894,29.2789,景德镇市,兽医站,,26,26,38,11,24,74,,81,81,4,14,6,8,0.6,0.7
2024-09-27T1700,2345A,117.1547,29.2617,景德镇市,台达陶瓷,,22,20,46,10,29,69,,75,75,4,25,8,19,0.4,0.6
2024-09-27T1700,2346A,117.2461,29.2956,景德镇市,陶研所,,24,,36,12,20,75,,83,83,5,17,6,7,0.4,0.5
2024-09-27T1700,1803A,115.9872,29.6815,九江市,十里,,45,30,68,19,40,144,,123,123,11,18,8,11,0.7,0.9
2024-09-27T1700,1804A,115.9584,29.7046,九江市,茅山头,,40,33,62,18,40,126,,110,110,13,20,8,10,0.7,0.9
2024-09-27T1700,1805A,115.9877,29.7295,九江市,西园,,44,28,53,15,40,140,,122,122,12,17,10,12,0.5,0.8
2024-09-27T1700,1806A,116.0172,29.6547,九江市,五七二七厂,,42,23,54,21,45,133,,116,116,10,17,9,10,0.7,1
2024-09-27T1700,1808A,115.9114,29.6038,九江市,综合工业园,,45,29,59,20,41,143,,130,130,18,35,6,16,0.8,0.9
2024-09-27T1700,1809A,116.0721,29.7535,九江市,石化总厂,颗粒物(PM10),51,52,65,16,47,124,,110,110,19,23,8,10,0.7,0.9
2024-09-27T1700,3190A,116.0254,29.6994,九江市,外国语学校,,44,43,63,16,34,138,,120,120,9,18,7,10,0.6,0.8
2024-09-27T1700,2658A,98.5061,39.7443,酒泉市,仓门街子站,,36,36,52,12,21,111,,106,106,3,16,2,16,0.3,0.4
2024-09-27T1700,2659A,98.4989,39.7256,酒泉市,油田生活基地,,48,48,60,22,24,117,,106,106,5,16,2,6,0.4,0.4
2024-09-27T1700,2698A,76.0072,39.4467,喀什地区,巡警大队,,48,48,105,3,12,100,,92,92,10,21,4,5,0.4,0.5
2024-09-27T1700,2699A,75.9755,39.4694,喀什地区,吾办,,39,39,109,3,24,104,,88,88,7,21,4,5,0.3,0.5
2024-09-27T1700,4027A,75.9483,39.4689,喀什地区,老干局,颗粒物(PM10),55,60,126,3,15,100,,84,84,6,16,4,4,0.4,0.5
2024-09-27T1700,1824A,114.3389,34.7781,开封市,肿瘤医院,臭氧1小时,92,82,146,42,108,193,,161,161,12,24,6,9,0.5,0.7
2024-09-27T1700,1826A,114.2885,34.7965,开封市,世纪星幼儿园,,,60,135,21,62,195,,164,164,6,20,,10,,1
2024-09-27T1700,3147A,114.3438,34.8106,开封市,龙亭公园,臭氧1小时,83,60,140,22,76,186,,154,154,10,24,5,8,0.8,1
2024-09-27T1700,3210A,114.3644,34.7964,开封市,汴京公园,臭氧1小时,79,79,166,35,108,183,,152,152,16,26,6,8,0.6,0.8
2024-09-27T1700,3473A,114.2485,34.8306,开封市,技师学院,臭氧1小时,83,78,150,23,59,186,,159,159,11,26,8,12,0.7,0.9
2024-09-27T1700,3592A,114.4644,34.7556,开封市,祥符区生态环境局,臭氧1小时,73,56,130,25,70,178,,147,147,22,34,7,12,0.6,1
2024-09-27T1700,1951A,84.895,45.6094,克拉玛依市,长征新村,,22,13,12,3,5,69,,68,63,2,5,6,6,0.2,0.2
2024-09-27T1700,1952A,84.8988,45.5893,克拉玛依市,南林小区,,22,,11,12,7,69,,72,65,2,6,10,9,0.3,0.5
2024-09-27T1700,1954A,84.905,44.3396,克拉玛依市,独山子区,,23,17,9,3,6,72,,73,71,6,7,8,7,0.2,0.3
2024-09-27T1700,1955A,85.6979,46.098,克拉玛依市,乌尔禾区商贸楼,,25,14,13,3,5,78,,71,67,1,3,5,3,0.2,0.2
2024-09-27T1700,3612A,85.1045,45.6899,克拉玛依市,白碱滩区新站,,41,41,22,3,6,74,,68,56,6,14,7,7,0.2,0.3
2024-09-27T1700,2697A,76.1454,39.7142,克孜勒苏柯尔克孜自治州,市人民政府,,,92,68,10,18,116,,110,110,,5,5,7,0.4,0.4
2024-09-27T1700,3665A,76.1658,39.7157,克孜勒苏柯尔克孜自治州,克州文化中心,颗粒物(PM10),102,154,66,22,19,123,,112,112,1,4,7,9,0.4,0.4
2024-09-27T1700,1450A,102.8204,24.8886,昆明市,呈贡新区,,23,17,34,7,20,72,,72,72,5,18,6,8,0.5,0.6
2024-09-27T1700,1452A,102.7252,25.0902,昆明市,龙泉镇,,,,30,9,18,80,,70,70,,16,,8,0.7,0.8
2024-09-27T1700,1453A,102.7266,25.0375,昆明市,东风东路,,21,16,30,11,19,66,,63,63,11,17,5,8,0.4,0.5
2024-09-27T1700,1454A,102.6742,25.0669,昆明市,金鼎山,,22,16,34,7,21,70,,65,65,7,13,3,4,0.9,0.9
2024-09-27T1700,1455A,102.6644,25.0401,昆明市,碧鸡广场,,20,14,36,3,18,64,,60,60,9,18,6,9,0.6,0.7
2024-09-27T1700,3179A,102.7494,25.0119,昆明市,官渡区博物馆,,24,22,32,8,16,75,,71,71,6,15,6,8,0.5,0.6
2024-09-27T1700,3375A,102.8017,24.8336,昆明市,青年创业园,,23,15,30,10,19,72,,74,74,4,21,3,6,0.6,0.6
2024-09-27T1700,3550A,102.7997,24.9786,昆明市,昆明学院,,25,16,35,10,21,77,,74,74,8,17,5,7,0.4,0.6
2024-09-27T1700,3551A,102.5967,24.6736,昆明市,晋宁区生态环境分局,,21,11,32,9,21,65,,65,65,5,11,1,2,0.6,0.8
2024-09-27T1700,3552A,102.6678,24.9856,昆明市,云天化总部,,23,12,29,7,19,72,,69,69,4,15,5,7,0.4,0.5
2024-09-27T1700,1456A,91.1319,29.6514,拉萨市,八廓街,,22,9,11,7,7,70,,75,75,8,14,7,7,0.0,0.3
2024-09-27T1700,1457A,91.1221,29.6747,拉萨市,市环保局,,22,8,9,3,6,70,,71,71,7,11,8,8,0.4,0.5
2024-09-27T1700,1458A,91.0874,29.6475,拉萨市,区监测站,,20,6,7,3,6,62,,65,65,8,15,5,5,0.2,0.2
2024-09-27T1700,1459A,91.1774,29.6541,拉萨市,西藏大学,,22,9,9,7,6,70,,69,69,6,10,5,5,0.2,0.4
2024-09-27T1700,1460A,90.9798,29.6588,拉萨市,区辐射站,,21,9,9,3,6,65,,63,63,10,14,8,8,0.2,0.2
2024-09-27T1700,1461A,91.0834,29.6292,拉萨市,拉萨火车站,,20,7,7,3,6,62,,63,63,8,13,5,5,0.2,0.2
2024-09-27T1700,2520A,109.2203,23.7256,来宾市,来宾技工学校,,,33,43,25,30,106,,98,98,,16,7,14,0.9,0.9
2024-09-27T1700,3535A,109.1781,23.7297,来宾市,兴宾区政府,,35,31,29,24,19,105,,91,91,6,8,12,8,0.7,0.7
2024-09-27T1700,4002A,109.2416,23.7461,来宾市,中南小学,,47,47,42,31,23,114,,102,102,6,16,8,13,0.9,0.9
2024-09-27T1700,1476A,103.631,36.1031,兰州市,兰炼宾馆,细颗粒物(PM2.5),60,61,65,43,37,150,,95,95,16,48,12,15,0.6,0.7
2024-09-27T1700,1478A,103.8412,36.0726,兰州市,生物制品所,颗粒物(PM10),55,59,57,35,31,157,,111,111,34,50,13,13,0.6,0.8
2024-09-27T1700,1479A,103.831,36.0464,兰州市,铁路设计院,颗粒物(PM10),54,58,66,34,36,148,,104,104,50,64,11,12,0.6,1
2024-09-27T1700,3186A,103.7158,36.1058,兰州市,教育港,颗粒物(PM10),56,61,71,39,34,157,,105,105,16,47,13,13,0.6,0.8
2024-09-27T1700,3241A,103.7439,36.0842,兰州市,百合公园,臭氧1小时,55,46,57,21,24,164,,,,14,49,17,14,0.5,0.9
2024-09-27T1700,3242A,103.9611,35.998,兰州市,和平,,46,44,38,32,17,134,,100,100,14,21,12,10,0.5,0.3
2024-09-27T1700,3245A,103.6633,36.533,兰州新区,新区管委会,颗粒物(PM10),53,55,49,26,24,128,,86,86,10,25,9,10,0.5,0.5
2024-09-27T1700,3246A,103.6975,36.4789,兰州新区,舟曲中学,,42,35,54,18,28,134,,94,94,10,36,11,17,0.3,0.4
2024-09-27T1700,1067A,116.6708,39.5111,廊坊市,药材公司,,44,40,51,15,25,139,,103,103,11,25,4,6,0.4,0.5
2024-09-27T1700,1068A,116.7214,39.5589,廊坊市,开发区,,41,40,52,20,23,130,,99,99,20,28,4,5,0.3,0.4
2024-09-27T1700,1070A,116.7244,39.5269,廊坊市,北华航天学院,,44,37,57,13,23,140,,104,104,18,28,3,4,0.3,0.4
2024-09-27T1700,2919A,116.7022,39.5453,廊坊市,河北工业大学,,46,30,43,20,24,146,,113,113,12,24,4,6,0.3,0.4
2024-09-27T1700,2535A,103.7723,29.5462,乐山市,花湖湾,,,44,73,26,43,166,,162,162,,26,3,4,0.6,1
2024-09-27T1700,2536A,103.7627,29.5844,乐山市,牛耳桥,臭氧1小时,53,42,66,29,50,162,,138,138,12,31,4,4,0.6,0.8
2024-09-27T1700,2537A,103.7508,29.6006,乐山市,市第三水厂,臭氧1小时,58,45,73,27,54,166,,152,152,8,32,4,4,0.6,0.8
2024-09-27T1700,2538A,103.7571,29.5664,乐山市,市监测站,细颗粒物(PM2.5),78,,73,57,56,160,,152,152,6,24,4,5,0.8,1.1
2024-09-27T1700,3361A,103.7311,29.5628,乐山市,理工大学,臭氧1小时,72,44,68,34,54,177,,156,156,5,26,2,4,0.6,0.9
2024-09-27T1700,2599A,100.2497,26.8802,丽江市,丽江古城,,15,15,22,3,18,41,,49,49,8,10,9,9,0.6,0.7
2024-09-27T1700,2600A,100.2203,26.8906,丽江市,市中心,,,,14,4,10,39,,44,44,5,9,6,6,0.6,0.7
2024-09-27T1700,1267A,119.914,28.4514,丽水市,监测站大楼,,26,26,18,3,11,65,,55,55,7,17,4,4,0.4,0.5
2024-09-27T1700,1268A,119.93,28.4586,丽水市,莲都小学,,21,9,24,3,13,65,,56,56,7,18,4,4,0.3,0.5
2024-09-27T1700,1269A,119.879,28.4231,丽水市,余庄前,,19,8,22,3,9,60,,52,52,10,13,2,3,0.3,0.4
2024-09-27T1700,1173A,119.176,34.5885,连云港市,市环境监测站,,42,19,42,3,28,134,,142,142,12,14,6,6,0.3,0.4
2024-09-27T1700,3000A,119.3581,34.6972,连云港市,德源药业,,40,17,39,7,22,128,,134,134,9,15,5,5,0.1,0.3
2024-09-27T1700,3007A,119.178,34.844,连云港市,新城一中,,41,32,53,6,21,130,,129,129,21,35,4,6,0.3,0.7
2024-09-27T1700,3008A,119.3608,34.7519,连云港市,胡沟管理处,,37,17,36,3,16,117,,126,121,12,20,8,9,0.4,0.5
2024-09-27T1700,3009A,119.1478,34.5911,连云港市,矿山设计院,,42,22,48,3,33,134,,140,140,9,20,5,5,0.6,0.7
2024-09-27T1700,3434A,119.2413,34.6539,连云港市,工贸学校,,42,10,29,3,19,132,,136,136,12,14,7,7,0.6,0.8
2024-09-27T1700,3664A,119.4172,34.7341,连云港市,连云街道,,40,11,26,6,16,128,,139,130,12,13,4,5,0.2,0.4
2024-09-27T1700,2571A,102.3431,27.8099,凉山彝族自治州,青龙寺,,32,10,15,9,7,101,,84,84,3,5,6,6,0.5,0.7
2024-09-27T1700,2572A,102.2721,27.8415,凉山彝族自治州,邛海宾馆,,29,29,23,18,14,75,,75,75,16,14,11,11,0.5,0.7
2024-09-27T1700,2573A,102.2625,27.898,凉山彝族自治州,西昌市政府,,25,18,20,14,14,80,,67,67,5,11,11,13,0.6,0.9
2024-09-27T1700,2574A,102.2685,27.8851,凉山彝族自治州,凉山州政府,,32,32,23,21,13,88,,74,74,6,13,9,12,0.3,0.8
2024-09-27T1700,2575A,102.237,27.8914,凉山彝族自治州,长安,,29,29,26,18,15,81,,67,67,7,16,20,13,0.5,1.1
2024-09-27T1700,2212A,123.2,41.1953,辽阳市,宏伟区,,29,29,50,16,24,92,,94,94,21,29,15,13,0.5,0.7
2024-09-27T1700,2213A,123.1683,41.2495,辽阳市,新华园,,39,39,64,21,24,104,,81,81,15,35,12,14,0.6,0.9
2024-09-27T1700,2214A,123.2354,41.2639,辽阳市,滨河路,,37,29,49,18,27,116,,92,92,14,28,13,13,0.5,0.8
2024-09-27T1700,2215A,123.149,41.2991,辽阳市,铁西工业园,,35,35,68,19,37,105,,80,80,14,30,13,13,0.7,0.9
2024-09-27T1700,2227A,125.1358,42.8845,辽源市,环保局,,30,13,31,9,17,93,,81,81,15,20,7,9,0.6,0.8
2024-09-27T1700,3239A,125.0764,42.9078,辽源市,银鹰制药,,30,14,41,8,22,95,,82,82,24,25,8,8,0.4,0.6
2024-09-27T1700,1625A,115.9848,36.4372,聊城市,区政府,臭氧1小时,116,100,116,50,60,232,,202,202,22,38,14,14,0.8,0.8
2024-09-27T1700,2878A,116.0072,36.4343,聊城市,聊大东校,臭氧1小时,121,100,110,52,63,242,,210,210,21,39,12,13,0.8,0.7
2024-09-27T1700,3200A,115.9819,36.4978,聊城市,监控中心,臭氧1小时,117,89,92,48,52,233,,211,211,22,27,11,12,0.7,0.7
2024-09-27T1700,3513A,116.0445,36.4361,聊城市,九州社区,臭氧1小时,121,98,113,52,60,242,,208,208,12,40,6,7,0.5,0.5
2024-09-27T1700,4018A,116.0567,36.4608,聊城市,星美广场,臭氧1小时,120,89,88,52,52,239,,204,204,14,33,12,11,0.7,0.6
2024-09-27T1700,2632A,94.3681,29.6376,林芝市,林芝监测站,,17,6,5,3,4,53,,46,46,2,3,9,10,0.2,0.2
2024-09-27T1700,2633A,94.3616,29.6616,林芝市,林芝人民医院,,18,,9,12,10,54,,46,46,4,6,5,8,0.3,0.1
2024-09-27T1700,2603A,100.0781,23.8982,临沧市,市环保局,,18,10,19,9,15,55,,43,43,7,9,4,5,0.4,0.5
2024-09-27T1700,2604A,100.0894,23.8822,临沧市,市气象局,,18,13,21,7,18,57,,43,43,7,9,3,4,0.5,0.5
2024-09-27T1700,1733A,111.5531,36.0783,临汾市,临钢医院,颗粒物(PM10),74,98,121,20,65,117,,131,131,14,28,4,7,0.6,1.1
2024-09-27T1700,1734A,111.5028,36.0714,临汾市,技工学校,颗粒物(PM10),61,72,113,38,71,130,,147,147,18,33,5,7,0.6,1
2024-09-27T1700,1736A,111.5018,36.0855,临汾市,市委,颗粒物(PM10),57,63,110,27,73,134,,155,155,10,21,6,8,0.6,1
2024-09-27T1700,3018A,111.505,36.1014,临汾市,唐尧大酒店,颗粒物(PM10),52,53,100,24,69,123,,142,142,10,22,4,6,0.6,1
2024-09-27T1700,3668A,111.5036,36.0414,临汾市,城南,颗粒物(PM10),68,86,108,42,74,137,,154,154,14,23,6,7,0.7,1.1
2024-09-27T1700,2667A,103.2069,35.5993,临夏回族自治州,环保局,,32,32,37,17,16,98,,77,77,7,21,11,10,0.4,0.5
2024-09-27T1700,2668A,103.2417,35.6057,临夏回族自治州,建设大厦,,40,40,49,18,20,103,,77,77,9,16,14,12,0.4,0.4
2024-09-27T1700,1618A,118.3429,35.0532,临沂市,沂河小区,,45,31,66,14,31,142,,142,142,14,23,6,9,0.3,0.5
2024-09-27T1700,1619A,118.295,35.0583,临沂市,鲁南制药厂,,,,68,12,25,150,,152,152,9,21,5,8,0.4,0.6
2024-09-27T1700,1620A,118.2794,34.9976,临沂市,新光毛纺厂,,47,31,63,12,30,150,,152,152,14,26,5,8,0.5,0.8
2024-09-27T1700,1621A,118.3956,35.0888,临沂市,河东保险公司,,46,31,60,9,30,145,,145,145,20,38,7,9,0.5,0.8
2024-09-27T1700,3370A,118.3564,35.0215,临沂市,十里堡居委,,47,29,55,9,31,149,,149,149,11,23,8,10,0.5,0.8
2024-09-27T1700,3496A,118.3604,35.1084,临沂市,南坊新区,,46,36,64,9,30,147,,146,146,12,24,7,9,0.4,0.7
2024-09-27T1700,3860A,118.3920,35.0300,临沂市,皇山花园小区,,45,36,66,13,40,141,,152,152,14,32,7,9,0.3,0.6
2024-09-27T1700,1870A,109.4856,24.3895,柳州市,柳东小学,,50,34,28,28,16,157,,125,125,8,16,8,9,1.1,0.9
2024-09-27T1700,1871A,109.4157,24.3277,柳州市,环保监测站,,45,37,45,29,26,143,,130,130,8,18,8,10,0.8,1
2024-09-27T1700,1872A,109.389,24.341,柳州市,河西水厂,,49,28,54,28,30,154,,130,130,8,22,8,11,1.1,1.3
2024-09-27T1700,1873A,109.4311,24.2921,柳州市,市四中,,46,43,42,29,23,145,,131,131,8,19,6,7,0.7,0.8
2024-09-27T1700,1874A,109.4006,24.3631,柳州市,市九中,,,49,53,27,27,161,,126,126,8,26,,5,1.0,1.1
2024-09-27T1700,1875A,109.4958,24.3134,柳州市,古亭山,,41,34,31,25,18,131,,118,118,10,28,7,8,1.0,1
2024-09-27T1700,3402A,109.5422,24.3996,柳州市,市二中,,48,46,38,23,25,152,,132,132,11,25,8,9,0.8,0.8
2024-09-27T1700,2307A,116.5079,31.737,六安市,监测大楼,,37,18,34,7,35,117,,84,84,8,12,4,5,0.5,0.6
2024-09-27T1700,2308A,116.4738,31.7643,六安市,皖西学院,,35,33,45,11,35,112,,82,82,14,15,4,5,0.4,0.5
2024-09-27T1700,2309A,116.4996,31.7905,六安市,朝阳厂,,35,15,33,12,36,110,,76,76,12,16,1,1,0.4,0.5
2024-09-27T1700,2310A,116.5567,31.7886,六安市,开发区,,38,19,47,15,25,120,,79,79,10,18,1,3,0.5,0.6
2024-09-27T1700,2577A,104.83,26.5917,六盘水市,黄土坡,,36,32,30,25,26,111,,92,92,8,18,7,9,0.4,0.7
2024-09-27T1700,2578A,104.89,26.5939,六盘水市,水钢,,41,41,36,20,23,119,,95,95,6,11,9,8,0.4,0.5
2024-09-27T1700,2579A,104.8475,26.5894,六盘水市,民中,,35,30,27,22,21,112,,89,89,11,19,8,7,0.5,0.6
2024-09-27T1700,2580A,104.9544,26.5506,六盘水市,双水,,39,34,34,27,24,112,,91,91,8,9,7,6,0.4,0.4
2024-09-27T1700,2336A,117.0217,25.1033,龙岩市,龙岩市监测站,,21,19,22,10,12,66,,62,62,12,19,6,6,0.5,0.6
2024-09-27T1700,2337A,117.0258,25.0661,龙岩市,闽西职业技术学院,,22,22,32,12,15,70,,66,66,8,17,4,8,0.6,0.6
2024-09-27T1700,2338A,117.0196,25.0306,龙岩市,龙岩学院,,21,21,21,11,10,67,,65,65,7,8,7,6,0.5,0.4
2024-09-27T1700,2885A,104.9339,33.3826,陇南市,滨江中学,颗粒物(PM10),56,61,50,20,18,121,,109,109,6,8,7,8,0.6,0.6
2024-09-27T1700,3247A,104.955,33.371,陇南市,市总工会,颗粒物(PM10),57,63,43,23,17,125,,112,112,5,7,3,7,0.5,0.5
2024-09-27T1700,2487A,111.9589,27.8901,娄底市,电视发射台,颗粒物(PM10),63,75,80,39,52,141,,144,144,6,9,7,7,0.8,0.9
2024-09-27T1700,2488A,111.9975,27.725,娄底市,市监测站,细颗粒物(PM2.5),55,56,87,39,60,143,,127,127,5,22,7,9,0.6,0.9
2024-09-27T1700,2489A,112.0194,27.7314,娄底市,市委党校,,50,46,82,35,58,130,,116,116,6,12,8,6,0.6,0.7
2024-09-27T1700,2490A,111.9561,27.7569,娄底市,涟钢,颗粒物(PM10),51,52,84,30,62,110,,94,94,20,23,16,9,0.9,0.8
2024-09-27T1700,2491A,111.9892,27.7044,娄底市,市政府,,,49,70,30,54,144,,131,131,7,14,7,8,,0.7
2024-09-27T1700,1893A,105.4324,28.9634,泸州市,九狮山,细颗粒物(PM2.5),55,54,70,39,45,158,,134,134,14,24,6,6,0,0.2
2024-09-27T1700,1894A,105.4427,28.9063,泸州市,小市上码头,臭氧1小时,65,62,58,34,39,172,,157,157,9,22,6,7,0.6,0.7
2024-09-27T1700,1895A,105.4241,28.8573,泸州市,兰田宪桥,臭氧1小时,69,51,61,33,50,175,,148,148,11,21,6,6,0.5,0.6
2024-09-27T1700,1896A,105.4379,28.8833,泸州市,市环监站,臭氧1小时,58,53,51,37,43,166,,142,142,11,23,5,6,0.6,0.6
2024-09-27T1700,3490A,105.3617,28.7703,泸州市,纳溪区环保局,臭氧1小时,64,45,64,40,52,171,,144,144,10,25,7,8,0.6,0.7
2024-09-27T1700,2183A,111.1406,37.5211,吕梁市,环保局,细颗粒物(PM2.5),93,97,78,69,50,134,,128,128,15,32,5,4,0.8,0.7
2024-09-27T1700,2185A,111.1297,37.5136,吕梁市,自来水公司,细颗粒物(PM2.5),99,,66,74,39,138,,132,132,15,27,2,3,0.8,0.7
2024-09-27T1700,2867A,111.1283,37.51,吕梁市,马茂庄小学,细颗粒物(PM2.5),100,100,82,75,45,146,,138,138,15,31,3,3,0.7,0.7
2024-09-27T1700,1812A,112.3931,34.6516,洛阳市,市委党校,颗粒物(PM10),73,96,155,51,94,147,,152,152,17,26,6,10,0.6,0.9
2024-09-27T1700,1814A,112.4657,34.6871,洛阳市,豫西宾馆,细颗粒物(PM2.5),67,82,132,48,90,134,,147,147,10,22,8,12,0.6,0.8
2024-09-27T1700,1815A,112.494,34.6886,洛阳市,河南林校,细颗粒物(PM2.5),59,65,140,42,104,137,,155,155,13,27,5,9,0.5,0.9
2024-09-27T1700,1816A,112.3844,34.623,洛阳市,开发区管委会,细颗粒物(PM2.5),75,89,152,55,107,160,,162,162,16,24,1,4,0.5,0.7
2024-09-27T1700,1817A,112.4267,34.6258,洛阳市,市委新办公区,细颗粒物(PM2.5),80,72,154,59,99,152,,153,153,13,23,3,6,0.4,0.7
2024-09-27T1700,3340A,112.6005,34.6326,洛阳市,伊滨,颗粒物(PM10),57,63,112,38,94,141,,157,157,8,25,8,10,0.7,1
2024-09-27T1700,3341A,112.4951,34.6332,洛阳市,中移产业园,颗粒物(PM10),65,80,146,46,101,154,,165,165,14,27,3,6,0.7,0.9
2024-09-27T1700,3593A,112.5736,34.8993,洛阳市,吉利监测站,,,,142,40,83,164,,157,157,13,23,5,7,,0.8
2024-09-27T1700,3635A,112.3677,34.662,洛阳市,河科大西苑校区,颗粒物(PM10),72,93,149,41,67,148,,157,157,19,29,4,9,0.6,0.9
2024-09-27T1700,3636A,112.4388,34.6781,洛阳市,英才小学,颗粒物(PM10),69,88,150,46,75,142,,152,152,14,25,3,7,0.6,0.8
2024-09-27T1700,2399A,114.051,33.5699,漯河市,三五一五工厂,颗粒物(PM10),55,59,92,21,39,145,,124,124,9,22,5,8,0.5,0.6
2024-09-27T1700,2400A,114.0055,33.5698,漯河市,漯河大学,颗粒物(PM10),51,52,79,19,44,149,,127,127,9,20,4,6,0.6,0.7
2024-09-27T1700,2401A,114.0138,33.5828,漯河市,市水利局,,48,48,93,22,44,147,,126,126,6,20,4,6,0.4,0.6
2024-09-27T1700,2402A,114.0261,33.5698,漯河市,市广电局,颗粒物(PM10),53,56,87,16,38,149,,134,134,7,17,6,10,0.6,0.7
2024-09-27T1700,3478A,113.9749,33.5664,漯河市,市图书馆,,49,49,79,16,39,152,,132,132,12,21,10,11,0.6,0.7
2024-09-27T1700,3479A,114.0967,33.5906,漯河市,召陵区卫健委,颗粒物(PM10),63,76,112,31,58,147,,126,126,6,24,6,8,0.5,0.6
2024-09-27T1700,1798A,118.5092,31.6837,马鞍山市,湖东路四小,,40,37,24,10,14,125,,93,93,15,18,6,7,0.7,0.7
2024-09-27T1700,1799A,118.5024,31.6449,马鞍山市,开发区,,40,24,25,12,13,126,,91,91,15,18,6,6,0.8,0.9
2024-09-27T1700,1800A,118.5228,31.7231,马鞍山市,慈湖,,42,28,32,15,18,134,,105,105,10,14,8,8,0,0.6
2024-09-27T1700,3633A,118.4918,31.6809,马鞍山市,雨山,,37,22,21,12,13,116,,87,87,16,14,8,8,0.9,0.9
2024-09-27T1700,1686A,111.0286,21.4688,茂名市,电白南海,,44,44,41,24,20,130,,111,111,6,9,12,14,0.6,0.7
2024-09-27T1700,1687A,110.9294,21.6533,茂名市,茂石化七小,,29,27,40,14,26,90,,99,99,6,12,7,19,0.6,0.8
2024-09-27T1700,1688A,110.9107,21.6687,茂名市,健康路,,29,17,31,17,19,92,,102,102,4,9,12,28,0.8,0.9
2024-09-27T1700,1689A,110.8592,21.6828,茂名市,高岭,,27,24,45,12,28,86,,94,94,8,17,9,16,0.7,0.8
2024-09-27T1700,3450A,111.01,21.5165,茂名市,电白水东,,32,31,28,19,21,101,,93,93,6,9,8,10,0.6,0.8
2024-09-27T1700,2539A,104.0308,30.0478,眉山市,黑龙滩水库,臭氧1小时,74,37,45,29,33,179,,145,145,5,4,2,3,0.5,0.5
2024-09-27T1700,2540A,103.8416,30.0874,眉山市,气象局,臭氧1小时,64,42,58,34,49,171,,154,154,10,37,7,8,0.5,0.6
2024-09-27T1700,3137A,103.8578,30.0744,眉山市,市委党校,,50,48,70,29,45,160,,151,151,13,40,6,8,0.5,0.8
2024-09-27T1700,3148A,103.8291,30.0564,眉山市,区人社局,臭氧1小时,64,52,59,29,43,171,,155,155,14,39,12,13,0.6,0.7
2024-09-27T1700,1690A,116.1231,24.3284,梅州市,梅江月梅,,26,26,28,3,10,76,,73,73,3,11,6,7,0.4,0.4
2024-09-27T1700,1691A,116.0797,24.2719,梅州市,梅县新城,,22,21,26,13,14,68,,66,66,8,13,4,4,0.6,0.6
2024-09-27T1700,1692A,116.1248,24.2654,梅州市,环境监控中心,,23,18,30,12,14,73,,66,66,9,17,4,4,0.6,0.6
2024-09-27T1700,3315A,116.1233,24.2991,梅州市,梅龙,,25,19,23,17,14,75,,76,76,7,13,8,9,0.7,0.7
2024-09-27T1700,1878A,104.7778,31.4741,绵阳市,富乐山,细颗粒物(PM2.5),77,72,77,56,64,145,,142,142,47,24,4,3,0.7,0.8
2024-09-27T1700,1879A,104.7563,31.4535,绵阳市,市人大,细颗粒物(PM2.5),72,71,83,52,59,172,,146,146,20,39,11,10,0.6,0.8
2024-09-27T1700,1880A,104.6697,31.4668,绵阳市,高新区自来水公司,,,66,89,,58,187,,156,156,12,47,5,4,0.7,1
2024-09-27T1700,1881A,104.7287,31.5075,绵阳市,三水厂,臭氧1小时,78,58,86,50,64,182,,152,152,10,44,8,8,0.7,1
2024-09-27T1700,3491A,104.69,31.5322,绵阳市,西科大附属小学,臭氧1小时,88,57,91,40,49,190,,149,149,11,39,5,6,0.6,0.8
2024-09-27T1700,3492A,104.5648,31.5343,绵阳市,安州区旅游局,臭氧1小时,115,65,84,56,65,229,,166,166,14,23,6,7,0.7,0.8
2024-09-27T1700,1784A,129.61,44.561,牡丹江市,环保大楼,,22,17,24,11,19,69,,65,65,15,19,7,7,0.3,0.4
2024-09-27T1700,1785A,129.6115,44.5782,牡丹江市,文化广场,,30,30,44,14,23,60,,57,57,22,25,8,8,0.4,0.5
2024-09-27T1700,1786A,129.5904,44.5963,牡丹江市,第一医院,,31,31,41,8,23,56,,57,57,25,20,7,7,0.3,0.4
2024-09-27T1700,1787A,129.6364,44.6075,牡丹江市,机车工厂,,23,17,37,16,24,63,,66,66,12,17,11,24,0.3,0.4
2024-09-27T1700,1788A,129.6386,44.5462,牡丹江市,第一中学,,24,16,22,13,15,74,,68,68,11,14,7,6,0.2,0.3
2024-09-27T1700,2531A,105.0703,29.61,内江市,市监测站,臭氧1小时,85,,45,49,55,188,,161,161,21,25,7,6,0.6,0.7
2024-09-27T1700,2532A,105.0717,29.5947,内江市,东兴区政府,臭氧1小时,98,,52,42,49,198,,169,169,16,21,7,6,0.4,0.6
2024-09-27T1700,2533A,105.0653,29.5817,内江市,内江二中,臭氧1小时,92,49,61,43,55,193,,167,167,13,19,10,10,0.6,0.7
2024-09-27T1700,2534A,105.0406,29.5822,内江市,内江日报社,臭氧1小时,100,,56,46,51,200,,166,166,18,32,9,9,0.6,0.7
2024-09-27T1700,2628A,92.0657,31.4846,那曲市,那曲监测站,,15,13,28,7,11,47,,62,61,4,8,5,6,0.4,0.4
2024-09-27T1700,3128A,92.0506,31.4797,那曲市,那曲会议中心,,18,6,23,3,8,57,,73,71,4,9,3,3,0.4,0.4
2024-09-27T1700,1290A,115.8931,28.6843,南昌市,省外办,颗粒物(PM10),56,61,83,34,46,136,,138,138,15,24,8,11,0.8,0.9
2024-09-27T1700,1291A,115.8886,28.7003,南昌市,省林业公司,,47,44,69,22,41,149,,149,149,11,21,6,9,0.7,0.9
2024-09-27T1700,1292A,115.8126,28.7442,南昌市,林科所,,50,36,53,19,32,160,,160,160,16,25,5,7,0.9,0.7
2024-09-27T1700,1294A,115.8518,28.687,南昌市,建工学校,,47,41,62,28,39,149,,151,151,10,20,8,10,0.7,0.9
2024-09-27T1700,1295A,115.8921,28.6424,南昌市,象湖,臭氧1小时,55,29,57,28,40,164,,157,157,9,19,8,11,1.0,1.2
2024-09-27T1700,1298A,115.9314,28.6842,南昌市,省站,,47,47,56,32,42,135,,130,130,19,21,9,11,0.8,0.9
2024-09-27T1700,3046A,115.9084,28.6062,南昌市,机电学校,,49,49,70,29,40,149,,144,144,10,19,9,12,0.6,0.8
2024-09-27T1700,3690A,115.9721,28.7031,南昌市,外国语学校,颗粒物(PM10),53,56,66,27,38,134,,127,127,12,17,6,8,0.7,0.9
2024-09-27T1700,1905A,106.056,30.8064,南充市,西山风景区,臭氧1小时,90,41,59,37,54,192,,167,167,6,14,4,4,0.6,0.8
2024-09-27T1700,1906A,106.0789,30.8023,南充市,南充市委,臭氧1小时,87,61,76,38,54,189,,171,171,11,32,6,4,0.4,0.7
2024-09-27T1700,1907A,106.1031,30.8217,南充市,南充炼油厂,臭氧1小时,102,54,90,34,67,203,,180,180,13,21,6,5,0.4,0.5
2024-09-27T1700,1908A,106.1064,30.7856,南充市,高坪区监测站,臭氧1小时,90,47,78,31,58,192,,167,167,18,35,10,8,0.5,0.7
2024-09-27T1700,1909A,106.0642,30.7636,南充市,嘉陵区环保局,臭氧1小时,79,59,84,34,58,183,,161,161,12,30,6,5,0.7,0.8
2024-09-27T1700,1910A,106.1087,30.8388,南充市,市环境监测站,臭氧1小时,87,60,91,39,63,189,,170,170,17,24,7,6,0.4,0.6
2024-09-27T1700,1151A,118.8086,32.1065,南京市,迈皋桥,,45,32,30,24,18,144,,109,109,10,15,4,4,0.3,0.3
2024-09-27T1700,1152A,118.7538,32.0551,南京市,草场门,,39,34,27,17,16,124,,96,96,16,24,5,5,0.3,0.2
2024-09-27T1700,1153A,118.7794,32.0745,南京市,山西路,,41,39,34,24,19,131,,103,103,13,21,4,4,0.5,0.4
2024-09-27T1700,1154A,118.7752,32.0023,南京市,中华门,,40,24,24,14,15,128,,94,94,11,25,5,4,0.4,0.4
2024-09-27T1700,1155A,118.8109,32.0309,南京市,瑞金路,,41,39,29,22,15,129,,96,96,12,20,3,4,0.3,0.3
2024-09-27T1700,1156A,118.7997,32.0754,南京市,玄武湖,,37,,34,22,16,118,,93,93,22,29,6,6,0.1,0.1
2024-09-27T1700,1157A,118.6414,32.0931,南京市,浦口,,38,,29,18,17,120,,98,98,12,19,5,5,0.7,0.7
2024-09-27T1700,1158A,118.7356,31.9996,南京市,奥体中心,,44,29,27,24,20,140,,102,102,11,21,5,5,0.4,0.4
2024-09-27T1700,1159A,118.9125,32.1028,南京市,仙林大学城,,47,41,34,19,15,150,,116,116,17,22,7,6,0.5,0.5
2024-09-27T1700,3422A,118.8436,31.9198,南京市,江宁彩虹桥,,47,33,25,19,15,148,,109,109,7,16,5,4,0.5,0.5
2024-09-27T1700,3423A,119.0138,31.6494,南京市,溧水永阳,,45,31,26,16,14,144,,95,95,15,19,4,4,0.7,0.7
2024-09-27T1700,3424A,118.879,31.3302,南京市,高淳老职中,,41,32,27,18,15,131,,87,87,13,20,5,4,0.6,0.7
2024-09-27T1700,3427A,118.8554,32.3578,南京市,六合雄州,,42,17,33,17,18,133,,127,127,14,12,7,8,0.4,0.4
2024-09-27T1700,1401A,108.3103,22.7881,南宁市,二十一中,颗粒物(PM10),53,56,50,36,32,143,,119,119,10,24,4,4,0.8,0.9
2024-09-27T1700,1402A,108.3141,22.8528,南宁市,北湖,"颗粒物(PM10),细颗粒物(PM2.5)",53,56,51,37,39,144,,122,122,10,28,3,14,0.8,0.9
2024-09-27T1700,1403A,108.3206,22.8225,南宁市,市监测站,颗粒物(PM10),60,69,51,39,33,150,,118,118,16,26,6,10,0.7,0.8
2024-09-27T1700,1404A,108.3829,22.8037,南宁市,大自然花园,颗粒物(PM10),57,64,45,33,28,154,,124,124,13,20,5,6,0.6,0.7
2024-09-27T1700,1405A,108.4394,22.7904,南宁市,仙葫,细颗粒物(PM2.5),62,58,45,44,34,163,,128,128,10,22,7,8,1.0,1
2024-09-27T1700,1406A,108.2397,22.8467,南宁市,区农职院,颗粒物(PM10),53,55,53,34,33,128,,110,110,7,19,4,13,0.9,1
2024-09-27T1700,1407A,108.3275,22.735,南宁市,英华嘉园,细颗粒物(PM2.5),53,46,52,37,34,130,,110,110,12,30,5,5,0.7,0.8
2024-09-27T1700,1408A,108.2257,22.7757,南宁市,沙井镇街道办,,,48,55,30,33,130,,117,117,,30,,4,0.8,0.8
2024-09-27T1700,3401A,108.4834,22.7618,南宁市,红星社区,颗粒物(PM10),60,70,45,38,30,166,,142,142,10,23,8,8,0.8,0.9
2024-09-27T1700,2332A,118.1681,26.6369,南平市,南平市监测站,,16,,11,11,8,51,,58,58,7,9,4,4,0.6,0.5
2024-09-27T1700,2333A,118.1825,26.6489,南平市,南平铝业有限公司,,20,20,17,3,6,47,,55,55,7,9,3,4,0.6,0.6
2024-09-27T1700,2334A,118.1756,26.6272,南平市,南平七中,,29,29,15,8,7,43,,53,53,6,10,2,4,0.7,0.7
2024-09-27T1700,1168A,120.9098,31.9663,南通市,狼山街道,,46,31,20,12,10,146,,154,154,7,10,8,7,0.7,0.5
2024-09-27T1700,1169A,120.86,32.0005,南通市,虹桥,,,23,21,14,10,137,,146,144,10,11,7,7,,0.5
2024-09-27T1700,1170A,120.87,32.02,南通市,城中,,41,29,28,12,10,130,,141,141,12,14,6,7,0.6,0.6
2024-09-27T1700,1171A,120.94,31.93,南通市,星湖花园,,43,21,15,12,8,136,,158,158,10,13,6,6,0.4,0.4
2024-09-27T1700,1172A,120.81,32.0417,南通市,紫琅学院,,43,21,19,10,9,136,,145,145,9,13,7,7,0.2,0.3
2024-09-27T1700,3291A,121.067,32.062,南通市,通州监测站,,44,19,19,7,8,140,,150,148,8,8,3,3,0.6,0.5
2024-09-27T1700,3432A,120.9348,31.9883,南通市,环境教育馆,,,34,25,11,9,145,,154,154,,16,3,3,0.6,0.5
2024-09-27T1700,2404A,112.5224,33.0122,南阳市,瓦房庄,颗粒物(PM10),55,59,88,31,45,140,,154,154,41,19,3,6,0.6,0.7
2024-09-27T1700,2405A,112.5003,32.9735,南阳市,汉画馆,颗粒物(PM10),62,74,86,32,46,151,,156,156,33,18,6,8,0.6,0.7
2024-09-27T1700,2406A,112.5573,33.027,南阳市,气象站,臭氧1小时,62,61,92,29,46,169,,160,160,12,18,6,12,0.5,0.6
2024-09-27T1700,2407A,112.5481,32.9689,南阳市,理工学院,颗粒物(PM10),54,58,82,25,41,159,,155,155,18,17,6,8,0.6,0.6
2024-09-27T1700,4008A,112.5234,32.9922,南阳市,卧龙区政府,颗粒物(PM10),57,64,89,31,42,164,,158,158,12,16,4,6,0.7,0.7
2024-09-27T1700,1234A,121.8358,29.911,宁波市,区环保大楼,,34,34,26,13,11,34,,36,36,48,46,7,7,0.7,0.6
2024-09-27T1700,1235A,121.56,29.82,宁波市,万里学院,,23,23,33,11,16,52,,49,49,31,38,5,6,0.6,0.7
2024-09-27T1700,1236A,121.713,29.9572,宁波市,龙赛医院,,27,27,26,12,9,50,,48,48,39,35,8,9,0.6,0.6
2024-09-27T1700,1239A,121.633,29.7733,宁波市,钱湖水厂,,14,11,25,3,13,42,,34,34,26,28,8,8,0.6,0.7
2024-09-27T1700,1240A,121.5856,29.8635,宁波市,太古小学,,18,18,23,10,12,49,,49,49,34,40,7,8,0.8,0.9
2024-09-27T1700,1241A,121.524,29.8674,宁波市,市环境监测中心,,21,21,25,10,12,46,,52,52,37,34,4,5,0.7,0.7
2024-09-27T1700,2871A,121.6147,29.9017,宁波市,万里国际学校,,17,13,18,10,12,48,,47,47,34,44,7,8,0.6,0.6
2024-09-27T1700,3710A,121.5594,29.8975,宁波市,白沙活动中心,,16,13,16,8,8,48,,49,49,32,35,8,8,0.5,0.4
2024-09-27T1700,2341A,119.5388,26.6612,宁德市,宁德市监测站,,18,12,21,9,11,57,,69,69,15,16,6,6,0.5,0.6
2024-09-27T1700,3209A,119.5231,26.6562,宁德市,宁德一中,,26,26,22,10,8,66,,73,73,7,7,5,5,0.4,0.5
2024-09-27T1700,2618A,98.8601,25.8567,怒江傈僳族自治州,州监测站,,23,19,27,10,18,73,,58,58,4,10,4,5,0.5,0.5
2024-09-27T1700,2619A,98.8546,25.8417,怒江傈僳族自治州,泸水一中,颗粒物(PM10),51,51,25,26,21,64,,57,57,10,13,6,6,0.5,0.5
2024-09-27T1700,1888A,101.6891,26.571,攀枝花市,弄弄坪,颗粒物(PM10),54,57,52,33,29,113,,79,79,15,26,14,12,0.6,0.7
2024-09-27T1700,1889A,101.5769,26.5928,攀枝花市,河门口,颗粒物(PM10),53,55,35,26,22,103,,85,85,15,22,15,13,0.9,1.4
2024-09-27T1700,1890A,101.7169,26.585,攀枝花市,炳草岗,颗粒物(PM10),52,53,93,29,48,121,,86,86,14,37,13,20,0.7,1.3
2024-09-27T1700,1891A,101.7369,26.5008,攀枝花市,仁和,,29,25,32,20,24,90,,81,81,7,14,7,6,0.5,0.6
2024-09-27T1700,2835A,101.7227,26.567,攀枝花市,四十中小,颗粒物(PM10),54,57,58,34,39,121,,86,86,12,29,15,18,0.9,1.3
2024-09-27T1700,1604A,122.0303,41.1489,盘锦市,开发区,,45,41,38,13,23,141,,127,127,14,34,10,16,0.1,0.3
2024-09-27T1700,1605A,122.0485,41.0883,盘锦市,兴隆台,,43,34,37,15,22,135,,120,120,23,47,8,8,0.3,0.4
2024-09-27T1700,1606A,121.8297,41.1028,盘锦市,新生街道,,45,32,26,14,19,144,,129,129,16,38,9,9,0.4,0.5
2024-09-27T1700,1832A,113.3257,33.742,平顶山市,新华旅馆,颗粒物(PM10),56,61,131,30,75,146,,118,118,10,27,4,8,0.3,0.6
2024-09-27T1700,1833A,113.2919,33.737,平顶山市,规划设计院,,47,47,129,23,69,143,,120,120,12,25,6,8,0.5,0.7
2024-09-27T1700,1834A,113.182,33.774,平顶山市,平顶山工学院,,49,49,135,17,78,145,,125,125,10,22,6,9,0.4,0.6
2024-09-27T1700,3204A,113.3025,33.73,平顶山市,规划局,颗粒物(PM10),60,70,137,23,68,147,,120,120,8,27,3,7,0.5,0.8
2024-09-27T1700,3594A,112.8867,33.9116,平顶山市,石龙区,颗粒物(PM10),63,75,146,31,71,160,,137,137,13,53,9,15,0.5,0.7
2024-09-27T1700,2656A,106.6692,35.5461,平凉市,聚贤嘉苑,臭氧1小时,63,69,82,43,48,170,,147,143,18,19,9,9,0.5,0.5
2024-09-27T1700,2657A,106.7021,35.5307,平凉市,博物馆,颗粒物(PM10),67,84,88,43,49,172,,148,148,18,25,10,8,0.6,0.6
2024-09-27T1700,2348A,113.8385,27.6434,萍乡市,中医院,,46,46,57,26,36,119,,127,127,8,16,14,11,0.9,0.9
2024-09-27T1700,2349A,113.8493,27.6253,萍乡市,市政府车库,,37,30,47,18,39,118,,124,124,6,14,15,12,0.7,1
2024-09-27T1700,2350A,113.8676,27.6435,萍乡市,市环保局,,38,35,56,26,40,110,,109,109,6,13,12,9,0.8,0.8
2024-09-27T1700,2351A,113.866,27.6198,萍乡市,安源区政府,,39,39,55,23,32,121,,125,125,9,17,13,9,0.5,0.9
2024-09-27T1700,2319A,119.0141,25.4325,莆田市,荔城区仓后路,,33,33,16,6,5,66,,72,72,18,12,8,7,0.8,0.7
2024-09-27T1700,2320A,119.0015,25.4553,莆田市,莆田市监测站,,,,15,7,4,58,,66,66,10,7,6,6,0.5,0.5
2024-09-27T1700,2321A,119.1119,25.4561,莆田市,涵江区六中,,22,15,16,12,7,70,,76,76,14,11,8,8,0.7,0.6
2024-09-27T1700,2322A,119.1013,25.3215,莆田市,秀屿区政府,,,,16,14,6,77,,79,79,6,7,8,7,0.7,0.6
2024-09-27T1700,2392A,115.0312,35.7636,濮阳市,环保局,臭氧1小时,87,46,105,22,104,189,,178,178,10,29,9,14,0.5,0.9
2024-09-27T1700,2394A,115.0574,35.7609,濮阳市,油田运输公司,臭氧1小时,79,49,138,27,101,183,,178,178,15,27,6,11,0.4,0.8
2024-09-27T1700,2395A,115.0866,35.7754,濮阳市,油田物探公司,臭氧1小时,77,56,161,27,112,181,,189,189,15,30,6,9,0.5,0.8
2024-09-27T1700,3021A,115,35.7668,濮阳市,濮水河管理处,臭氧1小时,67,44,119,26,105,173,,166,166,12,24,7,9,0.4,0.7
2024-09-27T1700,2601A,100.98,22.7633,普洱市,市环保局,,26,26,27,14,16,52,,49,49,7,6,4,4,0.4,0.5
2024-09-27T1700,2602A,100.9817,22.8322,普洱市,普洱第二中学,,25,25,31,6,14,48,,49,49,7,9,9,9,0.4,0.5
2024-09-27T1700,2262A,131.0518,45.8751,七台河市,新一中,,28,13,12,10,8,88,,84,84,6,9,8,8,1.1,1.2
2024-09-27T1700,3345A,131.0577,45.7879,七台河市,中波台,,21,7,15,3,6,67,,65,65,8,24,6,6,0.3,0.4
2024-09-27T1700,3637A,131.0176,45.7761,七台河市,人民广场,,30,30,21,3,10,64,,69,69,12,19,9,8,0.3,0.4
2024-09-27T1700,3684A,130.8781,45.8222,七台河市,新建矿广场,颗粒物(PM10),58,66,32,16,18,59,,65,65,20,18,6,6,0.4,0.5
2024-09-27T1700,1779A,123.9305,47.3636,齐齐哈尔市,安居小区,,29,29,30,10,13,85,,92,92,21,18,10,10,0.4,0.4
2024-09-27T1700,1780A,123.9488,47.3386,齐齐哈尔市,中心广场,,31,31,38,3,8,85,,90,90,17,16,2,2,0.3,0.3
2024-09-27T1700,1781A,123.9483,47.3227,齐齐哈尔市,农牧车辆厂,,,,33,,8,94,,95,95,8,11,7,8,0.4,0.3
2024-09-27T1700,1783A,123.945,47.2988,齐齐哈尔市,市环境监测站,,31,26,27,14,16,99,,98,98,7,11,8,8,0.2,0.3
2024-09-27T1700,3662A,123.6333,47.2075,齐齐哈尔市,富区青少年活动中心,,35,35,33,8,10,88,,94,94,12,11,4,5,0.4,0.5
2024-09-27T1700,2591A,107.9783,26.5747,黔东南苗族侗族自治州,市环境监测站,,43,34,42,30,33,98,,88,88,8,28,4,4,0.5,0.6
2024-09-27T1700,2881A,107.8908,26.5311,黔东南苗族侗族自治州,凯里学院,,39,27,33,27,31,103,,94,94,4,16,3,3,0.6,0.7
2024-09-27T1700,2593A,107.5228,26.2403,黔南布依族苗族自治州,小围寨,,33,19,30,17,26,103,,102,102,2,10,5,5,0.5,0.6
2024-09-27T1700,3538A,107.5175,26.2978,黔南布依族苗族自治州,沙坝,,31,31,39,9,25,91,,89,89,4,14,3,4,0.4,0.6
2024-09-27T1700,2589A,104.9022,25.0925,黔西南布依族苗族自治州,场坝街,,,29,40,16,27,84,,80,80,,8,,4,0.3,0.4
2024-09-27T1700,2590A,104.8811,25.0992,黔西南布依族苗族自治州,坪东大道,,25,20,37,17,26,78,,77,77,5,7,6,8,0.3,0.3
2024-09-27T1700,2502A,108.6236,21.9667,钦州市,市环保站,颗粒物(PM10),54,58,52,31,30,121,,99,99,12,20,7,9,0.7,0.8
2024-09-27T1700,2503A,108.6549,21.9481,钦州市,沙埠小学,颗粒物(PM10),59,67,64,37,36,128,,106,106,11,28,5,7,1.0,1.1
2024-09-27T1700,2504A,108.5989,21.7431,钦州市,港区一小,颗粒物(PM10),52,54,79,28,30,122,,108,108,7,24,6,9,0.7,0.9
2024-09-27T1700,3404A,108.5959,21.9633,钦州市,北职校,,44,44,60,28,39,123,,102,102,8,26,6,8,0.7,0.9
2024-09-27T1700,1042A,119.5134,39.8207,秦皇岛市,北戴河环保局,,36,20,31,9,10,115,,91,91,8,24,2,3,0.3,0.5
2024-09-27T1700,1043A,119.7493,40.0116,秦皇岛市,第一关,,37,37,41,23,24,116,,98,98,10,55,2,3,0.3,0.5
2024-09-27T1700,1044A,119.5897,39.9499,秦皇岛市,监测站,,37,32,42,20,26,116,,83,83,8,42,3,4,0.3,0.6
2024-09-27T1700,1046A,119.5251,39.9041,秦皇岛市,建设大厦,,38,32,48,14,16,120,,97,97,4,33,2,6,0.3,0.6
2024-09-27T1700,3132A,119.610547,39.943889,秦皇岛市,文明里,,37,35,52,12,16,118,,86,86,9,41,1,4,0.3,0.7
2024-09-27T1700,1310A,120.4134,36.0658,青岛市,市南区东部子站,,47,22,36,9,15,148,,126,126,12,26,7,7,0.5,0.6
2024-09-27T1700,1311A,120.3664,36.1032,青岛市,四方区子站,,45,27,39,7,16,144,,117,117,21,41,10,10,0.5,0.6
2024-09-27T1700,1312A,120.2994,36.054,青岛市,市南区西部子站,,45,22,38,3,10,144,,124,124,11,28,9,10,0.6,0.6
2024-09-27T1700,1313A,120.4581,36.0858,青岛市,崂山区子站,,50,17,29,7,11,157,,124,124,10,24,9,9,0.5,0.5
2024-09-27T1700,1314A,120.1983,35.9608,青岛市,黄岛区子站,,45,17,43,7,15,142,,114,114,9,47,8,10,0.4,0.5
2024-09-27T1700,1315A,120.3999,36.3083,青岛市,城阳区子站,,44,31,28,7,11,138,,131,131,20,23,8,8,0.5,0.5
2024-09-27T1700,1966A,120.0405,35.8735,青岛市,黄岛区4号,,47,17,38,7,16,149,,119,119,12,37,6,7,0.5,0.5
2024-09-27T1700,3362A,120.5014,36.4034,青岛市,即墨2号,,45,30,29,10,12,141,,121,121,12,13,7,7,0.4,0.4
2024-09-27T1700,3642A,120.3503,36.0736,青岛市,市北区南部,,48,29,40,9,14,151,,126,126,16,36,7,8,0.3,0.4
2024-09-27T1700,3643A,120.3948,36.1805,青岛市,李沧区北部,,44,31,32,12,15,139,,125,125,24,30,10,9,0.6,0.6
2024-09-27T1700,1702A,113.0426,23.691,清远市,环保大楼,,34,34,41,17,17,81,,85,85,13,18,8,7,1.0,1
2024-09-27T1700,1703A,113.0208,23.7106,清远市,凤城街办,,40,32,27,28,17,86,,86,86,10,14,9,7,0.8,0.9
2024-09-27T1700,3025A,113.0477,23.6344,清远市,技师学院,,26,26,34,15,17,83,,86,86,4,20,12,8,0.8,0.9
2024-09-27T1700,3318A,112.9903,23.7403,清远市,清新太和,,40,40,28,24,16,80,,85,85,10,11,2,2,0.8,0.8
2024-09-27T1700,3455A,113.076,23.7198,清远市,清城东城,颗粒物(PM10),53,55,36,35,21,122,,104,104,6,8,3,3,0.8,0.8
2024-09-27T1700,2661A,107.6325,35.7357,庆阳市,庆阳五中,颗粒物(PM10),59,68,76,27,37,160,,159,159,10,11,7,8,0.6,0.6
2024-09-27T1700,2662A,107.6364,35.7067,庆阳市,市环保局,颗粒物(PM10),56,61,76,24,38,164,,157,157,11,11,7,8,0.4,0.5
2024-09-27T1700,1916A,103.7897,25.5035,曲靖市,环境监测站,,,30,47,18,25,80,,75,75,11,14,3,8,,0.8
2024-09-27T1700,1917A,103.8,25.5364,曲靖市,烟厂办公区,,27,21,42,12,25,84,,73,73,9,13,4,4,0.4,0.5
2024-09-27T1700,3376A,103.7947,25.462,曲靖市,南苑二区,,27,27,45,14,26,82,,74,74,8,12,6,14,0.4,0.5
2024-09-27T1700,3377A,103.7444,25.5261,曲靖市,曲靖师范学院,,29,18,34,15,28,90,,85,85,9,11,6,9,0.6,0.6
2024-09-27T1700,1264A,118.8692,28.9398,衢州市,环保大楼,,30,10,30,8,25,93,,69,69,11,18,3,3,0.5,0.6
2024-09-27T1700,1265A,118.8709,28.9666,衢州市,实验学校,,29,15,34,11,28,91,,70,70,9,16,5,6,0.5,0.7
2024-09-27T1700,1266A,118.8621,28.9808,衢州市,衢州学院,,27,12,39,8,26,86,,68,68,8,19,6,7,0.5,0.6
2024-09-27T1700,1611A,118.5819,24.9117,泉州市,涂山街,,21,20,18,9,11,66,,90,90,8,11,2,2,0.6,0.6
2024-09-27T1700,1612A,118.5972,24.8978,泉州市,津头埔,,24,24,20,9,8,60,,88,87,16,11,3,4,0.7,0.7
2024-09-27T1700,1613A,118.6663,24.9424,泉州市,万安,,29,29,19,10,7,63,,81,81,11,10,2,3,0.6,0.6
2024-09-27T1700,3529A,118.6333,24.9264,泉州市,城华南路,,21,20,15,3,8,65,,83,83,7,8,3,3,0.3,0.3
2024-09-27T1700,2626A,88.8876,29.2718,日喀则市,日喀则监测站,,20,13,5,3,2,61,,67,60,4,5,5,5,0.4,0.4
2024-09-27T1700,3726A,88.8781,29.2426,日喀则市,林业技术推广中心,,19,6,6,3,1,60,,60,57,6,7,6,6,0.5,0.5
2024-09-27T1700,1659A,119.471,35.4209,日照市,监测站,,40,9,36,7,21,127,,125,125,13,26,11,12,0.4,0.6
2024-09-27T1700,1660A,119.523,35.4216,日照市,市政府广场,,44,9,39,6,19,140,,128,128,9,21,8,11,0.3,0.5
2024-09-27T1700,1661A,119.5587,35.4044,日照市,港务局,,44,17,36,12,23,138,,123,123,5,17,6,9,0.3,0.4
2024-09-27T1700,3507A,119.5328,35.4625,日照市,职业技术学院,,43,17,36,7,18,136,,128,128,8,21,9,10,0.4,0.6
2024-09-27T1700,3604A,119.3266,35.1044,日照市,岚山环保分局,,43,19,54,7,29,136,,131,131,9,34,9,23,0.5,1.9
2024-09-27T1700,1835A,111.1922,34.7752,三门峡市,市政府,颗粒物(PM10),67,83,109,38,58,170,,152,152,16,20,11,14,0.8,1
2024-09-27T1700,1836A,111.1587,34.7942,三门峡市,开发区,颗粒物(PM10),80,110,145,43,66,166,,151,151,17,19,11,12,0.6,0.7
2024-09-27T1700,1838A,111.143,34.7955,三门峡市,风景区,臭氧1小时,82,101,114,42,54,185,,175,175,16,18,11,12,0.8,0.9
2024-09-27T1700,3039A,111.1911,34.7829,三门峡市,三门峡市第一小学,颗粒物(PM10),74,98,110,45,58,173,,156,156,15,18,12,12,0.7,0.8
2024-09-27T1700,3598A,111.1,34.7167,三门峡市,富达温泉假日酒店,颗粒物(PM10),71,92,133,45,82,176,,158,158,22,24,11,16,0.9,1
2024-09-27T1700,2324A,117.6211,26.2625,三明市,三钢,,24,24,19,14,14,53,,60,60,22,17,13,7,1.6,0.8
2024-09-27T1700,2325A,117.635,26.2714,三明市,三明二中,,,22,20,11,10,63,,63,63,13,15,6,4,,1.1
2024-09-27T1700,2326A,117.6028,26.2378,三明市,三元区政府,,27,27,30,6,15,60,,52,52,18,20,22,6,0.6,0.8
2024-09-27T1700,1876A,109.5078,18.2489,三亚市,河东子站,,,,16,,8,,,30,,,9,,4,,0.3
2024-09-27T1700,1877A,109.4964,18.2681,三亚市,河西子站,,14,8,12,3,6,42,,43,43,4,9,3,3,0.2,0.4
2024-09-27T1700,3540A,109.7348,18.3443,三亚市,君悦子站,,16,6,14,3,4,50,,46,46,3,9,3,3,0.3,0.4
2024-09-27T1700,2624A,91.7608,29.2313,山南市,山南监测站,,20,,11,6,7,63,,56,56,4,9,8,8,0.3,0.3
2024-09-27T1700,2625A,91.7706,29.2436,山南市,山南人民医院,,20,11,13,3,5,62,,58,58,8,10,8,9,0.4,0.4
2024-09-27T1700,1674A,116.6794,23.3667,汕头市,金平子站,臭氧1小时,54,25,26,9,21,163,,123,123,9,9,6,5,0.9,1
2024-09-27T1700,1675A,116.7244,23.3633,汕头市,龙湖子站,臭氧1小时,83,46,26,33,18,186,,128,128,8,8,8,8,0.6,0.7
2024-09-27T1700,1676A,116.7258,23.2775,汕头市,濠江子站,颗粒物(PM10),51,52,26,24,23,157,,102,102,20,10,8,7,0.9,0.9
2024-09-27T1700,1677A,116.7519,23.4714,汕头市,澄海子站,臭氧1小时,64,53,28,14,19,171,,127,127,10,11,6,7,0.8,0.8
2024-09-27T1700,1678A,116.6092,23.2539,汕头市,潮阳子站,,,31,23,,18,140,,106,106,4,4,6,5,0.6,0.6
2024-09-27T1700,3444A,116.454,23.2684,汕头市,潮南峡山,,27,,30,13,20,86,,92,92,1,5,6,6,0.5,0.5
2024-09-27T1700,3624A,116.4069,23.2533,汕头市,潮南子站,,32,32,33,10,20,84,,92,92,13,11,5,5,0.7,0.7
2024-09-27T1700,1693A,115.3653,22.775,汕尾市,市环保局,臭氧1小时,128,52,34,33,27,255,,195,195,11,11,7,7,0.9,0.9
2024-09-27T1700,1694A,115.3706,22.7898,汕尾市,市政府,臭氧1小时,111,48,32,31,23,222,,162,162,14,12,7,7,0.7,0.7
2024-09-27T1700,1695A,115.3622,22.7925,汕尾市,新城中学,臭氧1小时,114,67,39,34,25,227,,169,169,10,9,6,6,0.9,0.9
2024-09-27T1700,2645A,109.9154,33.8715,商洛市,监测站,颗粒物(PM10),57,64,58,26,29,159,,142,142,11,20,6,7,0.5,0.5
2024-09-27T1700,3045A,109.9643,33.8471,商洛市,商州区中学,,,,65,31,28,159,,137,137,14,28,8,9,0.7,0.7
2024-09-27T1700,2408A,115.6702,34.4285,商丘市,环境监测站,臭氧1小时,65,45,84,31,47,172,,174,174,11,21,6,5,0.5,0.6
2024-09-27T1700,2409A,115.6458,34.4045,商丘市,粮食局,臭氧1小时,77,55,72,30,50,181,,185,185,7,14,6,5,0.6,0.7
2024-09-27T1700,2410A,115.6293,34.3948,商丘市,睢阳区环保局,臭氧1小时,62,58,73,25,42,169,,177,177,15,18,5,5,0.5,0.6
2024-09-27T1700,3171A,115.6071,34.4465,商丘市,梁园区档案局,颗粒物(PM10),53,55,73,25,41,149,,152,152,12,22,5,5,0.5,0.7
2024-09-27T1700,1141A,121.4,31.238,上海市,普陀,,42,39,18,15,9,133,,116,116,15,19,5,5,0.7,0.7
2024-09-27T1700,1142A,121.478,31.2036,上海市,十五厂,,44,42,21,19,12,138,,122,122,20,24,9,9,0.5,0.4
2024-09-27T1700,1143A,121.467,31.3008,上海市,虹口,,41,41,21,18,10,131,,117,117,17,27,12,9,0.7,0.5
2024-09-27T1700,1144A,121.412,31.1654,上海市,徐汇上师大,,43,40,20,18,13,137,,119,119,18,23,7,6,0.6,0.6
2024-09-27T1700,1145A,121.536,31.2659,上海市,杨浦四漂,,48,48,24,21,10,141,,126,126,16,21,7,7,0.5,0.5
2024-09-27T1700,1147A,121.425,31.2261,上海市,静安监测站,,42,35,17,19,10,133,,124,124,20,23,6,7,0.5,0.5
2024-09-27T1700,1148A,121.703,31.1907,上海市,浦东川沙,,47,42,22,14,7,148,,133,133,11,18,6,6,0.7,0.7
2024-09-27T1700,1149A,121.533,31.2284,上海市,浦东新区监测站,,44,38,19,23,10,138,,122,122,16,23,7,6,0.7,0.6
2024-09-27T1700,1150A,121.577,31.2071,上海市,浦东张江,,43,43,20,16,8,130,,117,117,14,25,5,5,0.8,0.7
2024-09-27T1700,3265A,121.4316,31.3322,上海市,宝山庙行,,44,44,23,14,10,135,,125,125,15,23,7,7,0.7,0.6
2024-09-27T1700,3266A,121.8791,31.4662,上海市,崇明上实东滩,,,22,13,12,5,140,,,,,5,10,11,,0.5
2024-09-27T1700,3268A,121.3162,31.2838,上海市,嘉定南翔,,41,35,19,18,10,130,,115,115,20,27,7,7,0.6,0.5
2024-09-27T1700,3269A,121.3359,30.7456,上海市,金山新城,,37,26,13,19,11,117,,100,100,26,18,5,5,0.4,0.4
2024-09-27T1700,3270A,121.4996,31.0739,上海市,闵行浦江,,44,32,18,20,9,139,,120,120,10,19,6,6,0.5,0.4
2024-09-27T1700,3271A,121.2886,31.1663,上海市,青浦徐泾,,44,32,17,20,11,140,,118,118,20,27,7,6,0.5,0.5
2024-09-27T1700,3272A,121.2186,31.0378,上海市,松江图书馆,,42,32,17,18,9,132,,108,108,20,26,5,4,0.5,0.5
2024-09-27T1700,3273A,121.3902,31.2059,上海市,长宁仙霞,,41,38,18,18,10,131,,115,115,21,24,9,9,0.8,0.8
2024-09-27T1700,3274A,121.7965,31.0507,上海市,浦东惠南,,43,40,22,17,10,135,,128,128,11,18,8,8,0.7,0.6
