timepoint,stationcode,longitude,latitude,area,positionname,primarypollutant,aqi,pm10,pm10_24h,pm2_5,pm2_5_24h,o3,o3_24h,o3_8h,o3_8h_24h,no2,no2_24h,so2,so2_24h,co,co_24h
2024-09-04T2000,2566A,102.1879,31.914,阿坝藏族羌族自治州,州农科所,,20,20,23,12,8,54,,85,81,19,14,7,7,0,0
2024-09-04T2000,2568A,102.2502,31.8896,阿坝藏族羌族自治州,马师校,,16,16,17,11,8,44,,89,82,26,12,4,4,0.4,0.4
2024-09-04T2000,3994A,102.2165,31.9024,阿坝藏族羌族自治州,马尔康中学西区,,25,19,12,17,11,63,,88,86,11,10,5,4,0.4,0.4
2024-09-04T2000,2695A,80.292,41.1694,阿克苏地区,电视台,颗粒物(PM10),71,91,71,38,27,114,,111,111,8,11,7,3,0.3,0.3
2024-09-04T2000,2696A,80.2613,41.1551,阿克苏地区,艺术中心,颗粒物(PM10),59,68,64,29,23,119,,112,112,3,6,4,4,0.4,0.3
2024-09-04T2000,2204A,105.6467,38.8363,阿拉善盟,西城区西花园,,33,26,69,16,26,103,,110,107,12,10,8,7,0.9,1.1
2024-09-04T2000,2205A,105.6985,38.8411,阿拉善盟,蒙二幼,,28,,47,7,16,88,,98,90,8,7,9,9,0.6,0.6
2024-09-04T2000,2206A,105.724,38.8516,阿拉善盟,环保局新楼,,30,10,30,3,14,94,,102,94,6,6,9,10,0.3,0.3
2024-09-04T2000,2708A,88.1264,47.8517,阿勒泰地区,市站,,23,13,13,3,4,72,,82,82,24,12,8,7,0.5,0.5
2024-09-04T2000,2630A,80.1161,32.5,阿里地区,阿里监测站,,38,6,4,3,2,119,,122,122,4,5,10,9,0.3,0.3
2024-09-04T2000,3192A,80.0903,32.5028,阿里地区,阿里藏医院,,35,10,6,3,0,110,,112,112,3,3,7,6,0.3,0.3
2024-09-04T2000,2642A,109.0318,32.6537,安康市,香溪洞,,38,38,35,18,11,91,,96,96,6,6,7,6,0.5,0.5
2024-09-04T2000,2643A,109.0281,32.6939,安康市,安康市监测站,,35,35,19,16,11,81,,94,92,7,6,6,7,0.6,0.6
2024-09-04T2000,2644A,109.0072,32.6975,安康市,汉滨区检察院,,27,27,19,18,13,86,,98,96,8,7,7,7,0.7,0.7
2024-09-04T2000,2291A,117.0809,30.5177,安庆市,环科院,,46,44,44,27,29,146,,159,157,13,12,7,8,0.9,0.9
2024-09-04T2000,2292A,117.0331,30.5119,安庆市,马山宾馆,,43,35,38,26,30,137,,170,167,10,13,9,10,0.7,0.7
2024-09-04T2000,2294A,116.9896,30.6145,安庆市,安庆大学,,49,44,40,34,29,139,,144,144,10,11,8,8,0.8,0.8
2024-09-04T2000,3173A,117.0598,30.5351,安庆市,市人大,,45,42,39,31,32,131,,153,150,11,9,8,8,1.3,1.3
2024-09-04T2000,3122A,105.9606,26.2611,安顺市,伍家关,,,,,,,,,,,,,,,,
2024-09-04T2000,3123A,105.9408,26.2431,安顺市,凤凰山,,32,,14,21,16,101,,113,111,9,7,9,9,0.5,0.3
2024-09-04T2000,3124A,105.9439,26.2564,安顺市,金钟山,,,15,16,10,8,107,,116,115,5,4,6,6,,0.2
2024-09-04T2000,3125A,105.8983,26.2481,安顺市,娄家坡,,33,20,14,16,10,104,,113,113,7,4,5,5,0.6,0.6
2024-09-04T2000,1818A,114.4839,36.0621,安阳市,棉研所,,,,,,,,,,,,,,,,
2024-09-04T2000,1819A,114.3551,36.1017,安阳市,红庙街,臭氧1小时,67,66,51,28,23,173,,184,184,18,17,4,6,0.6,0.5
2024-09-04T2000,1820A,114.361,36.0681,安阳市,银杏小区,,,64,51,,,171,,181,181,17,18,3,5,0.7,0.6
2024-09-04T2000,3141A,114.3922,36.0878,安阳市,信访局,臭氧1小时,83,62,50,35,24,186,,200,200,17,19,4,6,0.6,0.5
2024-09-04T2000,3669A,114.4705,36.0637,安阳市,左辅环卫站,颗粒物(PM10),51,52,57,24,25,160,,182,182,12,12,14,10,0.6,0.6
2024-09-04T2000,3703A,114.2917,36.0949,安阳市,安钢职工学校,颗粒物(PM10),55,60,54,33,25,154,,165,165,16,19,5,7,0.6,0.5
2024-09-04T2000,1748A,123.044,41.1196,鞍山市,深沟寺,,36,36,32,19,16,108,,99,99,24,12,11,5,1.3,0.8
2024-09-04T2000,1749A,123.011,41.0931,鞍山市,太阳城,,,30,29,,17,107,,99,99,,12,8,5,,0.6
2024-09-04T2000,1750A,123.0485,41.1442,鞍山市,太平,,44,44,40,22,19,108,,98,98,26,17,11,7,1.2,0.8
2024-09-04T2000,1751A,122.9642,41.0971,鞍山市,铁西三道街,颗粒物(PM10),52,54,53,31,24,110,,98,98,26,25,9,5,1.1,0.8
2024-09-04T2000,1752A,122.9341,41.0833,鞍山市,铁西工业园区,,39,35,44,20,22,124,,105,105,20,21,13,9,1.2,0.9
2024-09-04T2000,1753A,123.022,41.0821,鞍山市,明达新区,,40,40,31,23,19,103,,93,93,25,12,8,4,1.2,0.6
2024-09-04T2000,1754A,123.1289,41.0228,鞍山市,千山,,,,,,,,,,,,,,,,
2024-09-04T2000,2195A,107.4212,40.761,巴彦淖尔市,附二中,颗粒物(PM10),77,104,167,20,49,58,,78,56,14,12,6,6,0.5,0.6
2024-09-04T2000,2196A,107.37,40.7372,巴彦淖尔市,市环保大楼,颗粒物(PM10),59,68,170,12,38,62,,68,62,11,8,4,4,0.3,0.4
2024-09-04T2000,1956A,86.1472,41.7538,巴音郭楞蒙古自治州,孔雀公园,,28,27,29,18,11,89,,93,93,8,9,5,4,0.2,0.3
2024-09-04T2000,1957A,86.1972,41.7166,巴音郭楞蒙古自治州,棉纺厂,,30,19,22,9,10,93,,96,96,6,6,4,4,0.2,0.2
2024-09-04T2000,1958A,86.2357,41.7173,巴音郭楞蒙古自治州,经济开发区,,30,,20,15,12,93,,94,94,5,5,5,5,0.2,0.2
2024-09-04T2000,2914A,106.7677,31.8794,巴中市,苏山坪,细颗粒物(PM2.5),52,,21,36,18,126,,123,123,10,8,5,4,0.6,0.6
2024-09-04T2000,3182A,106.7656,31.8545,巴中市,丽阳花园,细颗粒物(PM2.5),69,65,31,50,22,75,,117,112,24,17,6,5,0.7,0.5
2024-09-04T2000,3183A,106.7418,31.8654,巴中市,圣泉水务公司,,36,36,22,24,16,69,,119,113,32,15,4,4,0.7,0.5
2024-09-04T2000,3616A,106.7616,31.8344,巴中市,市中心医院,,24,24,29,16,22,70,,118,113,25,19,5,4,0.6,0.6
2024-09-04T2000,2235A,122.7911,45.6077,白城市,洮北区环保局,,21,21,22,3,10,58,,90,83,16,13,5,6,0.1,0.1
2024-09-04T2000,2236A,122.8738,45.5725,白城市,市环保局,,23,21,26,9,10,72,,81,79,9,12,4,4,0.2,0.3
2024-09-04T2000,2231A,126.4219,41.9171,白山市,喜丰,,26,21,47,11,11,83,,79,78,5,15,4,9,0.5,0.8
2024-09-04T2000,2232A,126.4077,41.9419,白山市,环保局,,23,23,34,15,13,68,,62,62,11,19,10,10,0.8,0.7
2024-09-04T2000,2647A,104.1724,36.5446,白银市,第三小学,,27,8,37,3,9,84,,94,86,10,7,11,6,0.7,0.5
2024-09-04T2000,2648A,104.1465,36.5482,白银市,动力公司,,25,,30,7,13,80,,94,83,6,6,5,4,0.4,0.3
2024-09-04T2000,2512A,106.6103,23.9011,百色市,市监测站,,42,42,28,15,10,95,,121,121,17,13,7,7,0.6,0.5
2024-09-04T2000,2513A,106.6538,23.8859,百色市,市中心血站,颗粒物(PM10),52,53,35,14,12,97,,123,123,26,17,15,7,0.8,0.6
2024-09-04T2000,3406A,106.6085,23.8798,百色市,祈福高中,颗粒物(PM10),59,67,38,23,13,85,,118,118,37,16,6,6,0.8,0.7
2024-09-04T2000,2270A,117.396,32.939,蚌埠市,工人疗养院,颗粒物(PM10),57,63,38,21,14,115,,154,150,20,15,9,11,0.5,0.4
2024-09-04T2000,2271A,117.3605,32.9427,蚌埠市,百货大楼,颗粒物(PM10),52,54,39,21,16,134,,148,147,7,14,6,8,0.6,0.5
2024-09-04T2000,2273A,117.4185,32.8911,蚌埠市,蚌埠学院,颗粒物(PM10),51,51,31,19,14,71,,145,137,69,15,14,8,0.6,0.5
2024-09-04T2000,2274A,117.3533,32.9673,蚌埠市,淮上区政府,臭氧1小时,63,41,36,14,17,170,,160,160,6,9,7,9,0.8,0.7
2024-09-04T2000,2275A,117.3145,32.8977,蚌埠市,高新区,颗粒物(PM10),52,53,32,24,16,116,,145,142,20,12,6,8,0.7,0.6
2024-09-04T2000,3715A,117.3092,32.9314,蚌埠市,蚌埠田家炳中学,颗粒物(PM10),60,70,37,18,16,131,,148,146,9,9,5,6,0.6,0.5
2024-09-04T2000,1585A,109.8756,40.6532,包头市,市环境监测站,,19,12,21,11,14,40,,90,63,37,19,4,6,0.7,0.6
2024-09-04T2000,1587A,109.9991,40.5842,包头市,包头八中,,21,13,28,8,14,29,,84,56,42,20,5,9,0.7,0.7
2024-09-04T2000,1588A,109.8538,40.6821,包头市,青山宾馆,,13,9,21,3,10,32,,91,64,26,15,4,6,0.6,0.7
2024-09-04T2000,1589A,109.8642,40.6288,包头市,惠龙物流,,23,15,22,10,13,26,,91,63,45,17,12,8,0.9,0.6
2024-09-04T2000,1590A,110.0377,40.5546,包头市,东河鸿龙湾,,16,16,28,7,14,37,,78,53,30,18,7,5,0.5,0.5
2024-09-04T2000,3283A,109.9154,40.5685,包头市,滨河大厦,,15,,16,10,15,48,,83,62,19,17,9,8,0.7,0.6
2024-09-04T2000,3419A,109.9447,40.6261,包头市,包头市委党校,,21,21,26,6,15,40,,84,59,30,17,4,5,0.6,0.5
2024-09-04T2000,3683A,109.8331,40.6576,包头市,昆区政府,,25,11,19,3,10,36,,90,64,50,19,4,6,0.6,0.6
2024-09-04T2000,1930A,107.185,34.3063,宝鸡市,庙沟村,,28,,46,11,24,88,,82,81,6,13,8,9,0.2,0.4
2024-09-04T2000,1931A,107.0708,34.3017,宝鸡市,竹园沟,,19,,44,9,25,59,,74,66,12,14,9,9,0.3,0.5
2024-09-04T2000,1932A,107.1906,34.3672,宝鸡市,三陆医院,,18,9,52,6,26,57,,75,66,23,23,8,11,0.5,0.7
2024-09-04T2000,1933A,107.1431,34.3547,宝鸡市,监测站,,20,12,54,6,29,61,,74,67,18,21,6,7,0.5,0.6
2024-09-04T2000,1934A,107.1186,34.3739,宝鸡市,技工学校,,21,14,48,3,33,66,,77,71,16,17,7,9,0.4,0.7
2024-09-04T2000,1935A,107.3906,34.3528,宝鸡市,陈仓区环保局家属楼,,19,12,54,12,25,60,,81,68,22,25,8,9,0.4,0.6
2024-09-04T2000,1936A,107.2058,34.3497,宝鸡市,文理学院,,21,10,47,3,22,65,,80,73,19,20,9,10,0.4,0.6
2024-09-04T2000,1937A,107.2386,34.3622,宝鸡市,三迪小学,,23,13,50,3,26,36,,78,61,45,22,8,9,0.6,0.6
2024-09-04T2000,1051A,115.493,38.8632,保定市,游泳馆,颗粒物(PM10),64,78,55,39,28,150,,182,182,15,23,1,3,0.2,0.2
2024-09-04T2000,1052A,115.5213,38.8959,保定市,华电二区,细颗粒物(PM2.5),64,67,55,46,24,138,,178,176,12,17,5,4,0.4,0.3
2024-09-04T2000,1053A,115.4713,38.9108,保定市,接待中心,细颗粒物(PM2.5),62,61,50,44,31,137,,175,175,12,18,2,4,0.4,0.5
2024-09-04T2000,1054A,115.4612,38.8416,保定市,地表水厂,,,,56,,24,149,,181,181,,16,2,2,0.4,0.3
2024-09-04T2000,3581A,115.31981,38.95208,保定市,满城区生态环境分局,颗粒物(PM10),60,70,57,36,25,132,,168,166,19,18,3,5,0.5,0.5
2024-09-04T2000,3582A,115.47694,38.76408,保定市,清苑区第二中学,颗粒物(PM10),68,86,60,47,28,151,,180,180,9,14,1,4,0.5,0.5
2024-09-04T2000,3583A,115.62909,39.02311,保定市,徐水物探局,颗粒物(PM10),60,70,63,41,29,130,,174,173,16,21,6,8,0.6,0.6
2024-09-04T2000,4004A,115.4202,38.8656,保定市,双鹰农机,颗粒物(PM10),69,88,54,40,21,157,,194,194,13,19,4,6,0.1,0.1
2024-09-04T2000,4034A,115.5150,38.8590,保定市,植保所站,细颗粒物(PM2.5),62,69,55,44,28,159,,201,200,10,20,6,7,0.5,0.3
2024-09-04T2000,2594A,99.1678,25.1081,保山市,市环境监测站,,21,21,27,10,13,31,,49,47,6,8,6,6,0.4,0.4
2024-09-04T2000,2595A,99.1711,25.1328,保山市,市环保局,,37,37,30,7,9,38,,58,56,12,7,4,4,0.5,0.4
2024-09-04T2000,1866A,109.2262,21.588,北海市,牛尾岭水库,,,,,,,,,,,,,,,,
2024-09-04T2000,1867A,109.1436,21.4086,北海市,海滩公园,臭氧1小时,73,59,32,20,11,178,,179,179,9,11,4,5,1.0,0.8
2024-09-04T2000,1868A,109.0981,21.4661,北海市,新市环保局,臭氧1小时,54,45,28,24,16,163,,166,166,12,14,5,5,0.8,0.8
2024-09-04T2000,1869A,109.1778,21.5233,北海市,北海工业园,臭氧1小时,67,38,30,24,17,173,,178,178,13,11,7,8,0.8,0.6
2024-09-04T2000,3400A,109.1911,21.4415,北海市,龙潭自来水厂,臭氧1小时,74,41,25,25,18,179,,166,166,12,7,6,6,1.0,0.8
2024-09-04T2000,1001A,116.3621,39.8784,北京市,万寿西宫,细颗粒物(PM2.5),85,97,64,63,36,70,,83,82,26,24,3,3,0.9,0.7
2024-09-04T2000,1002A,116.2202,40.2915,北京市,定陵,细颗粒物(PM2.5),67,62,49,48,31,23,,81,69,6,10,3,4,0.7,0.6
2024-09-04T2000,1003A,116.4174,39.9289,北京市,东四,细颗粒物(PM2.5),102,101,66,76,38,89,,88,82,25,24,3,5,0.8,0.7
2024-09-04T2000,1004A,116.4072,39.8863,北京市,天坛,细颗粒物(PM2.5),88,86,55,65,33,77,,80,80,25,23,3,2,0.8,0.6
2024-09-04T2000,1005A,116.462,39.9365,北京市,农展馆,细颗粒物(PM2.5),84,91,67,62,34,68,,89,76,23,23,3,2,0.8,0.6
2024-09-04T2000,1006A,116.3392,39.9295,北京市,官园,细颗粒物(PM2.5),79,98,68,58,34,71,,80,72,27,23,4,6,0.9,0.7
2024-09-04T2000,1007A,116.2878,39.9611,北京市,海淀万柳,细颗粒物(PM2.5),92,103,68,68,37,63,,78,68,24,23,3,4,0.8,0.6
2024-09-04T2000,1008A,116.6636,40.135,北京市,顺义新城,颗粒物(PM10),66,81,66,40,35,58,,67,67,22,26,3,3,0.6,0.6
2024-09-04T2000,1009A,116.6275,40.3275,北京市,怀柔镇,细颗粒物(PM2.5),54,54,52,38,31,86,,87,87,18,22,7,8,0.8,0.7
2024-09-04T2000,1010A,116.2296,40.217,北京市,昌平镇,细颗粒物(PM2.5),82,82,63,60,35,50,,67,64,25,24,3,4,0.7,0.6
2024-09-04T2000,1011A,116.3966,39.9821,北京市,奥体中心,细颗粒物(PM2.5),84,88,62,62,36,83,,83,70,24,26,2,3,0.9,0.7
2024-09-04T2000,1012A,116.184,39.9136,北京市,古城,细颗粒物(PM2.5),89,123,82,66,40,56,,80,79,33,32,2,2,0.8,0.7
2024-09-04T2000,3281A,115.9718,40.4529,北京市,延庆夏都,细颗粒物(PM2.5),54,49,47,38,31,62,,100,95,9,8,3,2,0.5,0.5
2024-09-04T2000,3417A,117.0709,40.1465,北京市,平谷新城,颗粒物(PM10),53,56,47,36,25,60,,92,81,8,10,3,2,0.5,0.5
2024-09-04T2000,3418A,116.8336,40.4095,北京市,密云新城,颗粒物(PM10),51,52,47,34,27,60,,76,71,9,12,3,2,0.5,0.5
2024-09-04T2000,3671A,116.088,39.9726,北京市,门头沟三家店,细颗粒物(PM2.5),83,94,63,61,35,55,,70,70,14,18,3,3,0.8,0.7
2024-09-04T2000,3672A,116.1541,39.8204,北京市,丰台云岗,细颗粒物(PM2.5),105,91,62,79,39,43,,70,64,19,18,2,3,0.7,0.6
2024-09-04T2000,3673A,116.6804,39.9081,北京市,通州东关,细颗粒物(PM2.5),82,98,56,60,36,55,,79,78,28,24,1,2,0.6,0.6
2024-09-04T2000,3674A,115.9577,39.7603,北京市,房山燕山,颗粒物(PM10),58,66,58,39,29,54,,94,92,15,15,3,1,0.6,0.5
2024-09-04T2000,3675A,116.4672,39.7733,北京市,大兴旧宫,细颗粒物(PM2.5),83,92,56,61,33,50,,94,88,30,20,1,2,0.9,0.7
2024-09-04T2000,3694A,115.986,40.4563,北京市,延庆石河营,细颗粒物(PM2.5),55,45,46,39,30,54,,86,79,8,8,3,3,0.5,0.5
2024-09-04T2000,3695A,116.6151,40.3053,北京市,怀柔新城,细颗粒物(PM2.5),57,58,52,40,36,81,,78,78,12,19,3,3,0.6,0.6
2024-09-04T2000,3696A,116.2545,39.8768,北京市,丰台小屯,细颗粒物(PM2.5),92,105,70,68,37,60,,72,68,24,23,3,2,0.9,0.7
2024-09-04T2000,3697A,116.84,40.3844,北京市,密云镇,颗粒物(PM10),56,61,53,39,30,67,,78,78,14,14,3,3,0.6,0.6
2024-09-04T2000,1761A,123.8275,41.3064,本溪市,大峪,,30,20,29,11,16,94,,97,92,7,16,7,8,0.6,0.7
2024-09-04T2000,1762A,123.7567,41.3325,本溪市,溪湖,,39,39,41,20,19,68,,82,74,22,21,9,6,1.6,1.3
2024-09-04T2000,1763A,123.7169,41.3094,本溪市,彩屯,,46,46,39,31,22,62,,71,62,26,28,12,11,2.1,1.9
2024-09-04T2000,1764A,123.7669,41.2864,本溪市,东明,,28,26,29,12,14,88,,94,88,10,20,6,6,0.5,0.6
2024-09-04T2000,1765A,123.7992,41.2664,本溪市,新立屯,,32,24,25,10,9,100,,99,93,9,22,4,4,0.6,0.6
2024-09-04T2000,1766A,123.8142,41.3472,本溪市,威宁,,23,23,33,12,15,64,,68,65,12,18,8,8,0.6,0.6
2024-09-04T2000,2587A,105.2864,27.3125,毕节市,八中,,32,32,23,22,18,98,,111,111,21,14,7,7,0.6,0.5
2024-09-04T2000,2588A,105.31,27.2944,毕节市,师专,,41,19,23,13,17,129,,121,121,12,17,8,8,0.4,0.5
2024-09-04T2000,3537A,105.3631,27.3533,毕节市,长征村,,42,13,17,10,14,132,,127,127,5,9,6,8,0.4,0.4
2024-09-04T2000,1629A,118.0018,37.3617,滨州市,第二水厂,臭氧1小时,73,70,45,31,24,178,,215,212,25,20,7,8,1.0,0.8
2024-09-04T2000,1630A,117.9776,37.393,滨州市,北中新校,臭氧1小时,78,85,45,36,20,182,,226,222,36,19,11,15,1.1,0.9
2024-09-04T2000,3514A,117.9378,37.3956,滨州市,中海酒店,臭氧1小时,65,75,43,36,23,172,,224,221,41,17,10,15,1.1,0.8
2024-09-04T2000,3515A,117.9378,37.3553,滨州市,开发区一中,臭氧1小时,75,75,49,34,24,180,,227,223,32,24,13,14,0.9,0.7
2024-09-04T2000,3516A,118.0917,37.694,滨州市,金海六路,颗粒物(PM10),59,68,48,36,18,151,,212,207,32,15,10,9,0.8,0.6
2024-09-04T2000,4028A,117.9956,37.3753,滨州市,滨州市西街道办事处,臭氧1小时,88,75,42,46,26,190,,227,225,25,17,9,16,1.1,0.9
2024-09-04T2000,2311A,115.8072,33.8399,亳州市,污水处理厂,,49,49,43,23,21,134,,146,146,14,13,16,33,0.7,0.6
2024-09-04T2000,2312A,115.7789,33.8518,亳州市,三国揽胜宫,,48,39,44,21,22,152,,150,150,6,7,11,28,0.8,0.7
2024-09-04T2000,3332A,115.7633,33.8034,亳州市,亳州学院,,48,38,38,24,15,153,,155,155,8,10,20,14,0.7,0.6
2024-09-04T2000,2693A,82.0485,44.8556,博尔塔拉蒙古自治州,市党校,,35,35,29,6,10,111,,106,106,8,11,7,6,0.4,0.4
2024-09-04T2000,2694A,82.0806,44.8969,博尔塔拉蒙古自治州,市环保局,,33,24,34,11,11,105,,99,99,7,13,6,5,0.4,0.4
2024-09-04T2000,1071A,116.8842,38.2991,沧州市,沧县城建局,颗粒物(PM10),56,62,44,35,20,130,,167,163,27,21,4,5,0.8,0.6
2024-09-04T2000,1072A,116.8584,38.3254,沧州市,电视转播站,颗粒物(PM10),60,70,40,34,24,154,,184,182,18,17,4,8,0.6,0.5
2024-09-04T2000,1073A,116.8709,38.3228,沧州市,市环保局,颗粒物(PM10),52,53,45,28,19,142,,163,162,15,17,4,7,0.5,0.4
2024-09-04T2000,3324A,116.8136,38.3004,沧州市,河北水利电力学院,颗粒物(PM10),62,73,53,34,25,146,,174,172,26,20,5,9,0.6,0.5
2024-09-04T2000,2622A,97.1806,31.1273,昌都市,昌都监测站,,19,13,8,8,6,60,,79,68,16,11,6,6,0.7,0.6
2024-09-04T2000,3719A,97.1714,31.1406,昌都市,昌都会议中心,,24,9,9,3,5,74,,84,78,7,5,7,7,0.5,0.6
2024-09-04T2000,2690A,88.1236,43.8886,昌吉回族自治州,天山天池,,16,15,3,3,2,51,,84,80,5,3,4,3,0.5,0.4
2024-09-04T2000,2692A,87.2717,44.0297,昌吉回族自治州,新区政务中心,,,,22,,15,92,,91,91,9,31,,11,,0.9
2024-09-04T2000,3613A,87.3095,44.0142,昌吉回族自治州,亚心广场,,31,22,30,3,5,98,,94,94,12,31,2,4,0.4,0.5
2024-09-04T2000,1119A,125.3325,43.9166,长春市,食品厂,,26,15,48,15,19,83,,78,78,18,32,3,4,0.6,0.6
2024-09-04T2000,1120A,125.2863,43.9027,长春市,客车厂,,27,15,34,14,16,86,,80,80,16,28,6,7,0.6,0.7
2024-09-04T2000,1121A,125.2841,43.8463,长春市,邮电学院,,26,17,27,16,11,81,,79,79,18,24,6,6,0.5,0.5
2024-09-04T2000,1122A,125.3716,43.8772,长春市,劳动公园,,28,16,37,13,13,87,,83,83,17,28,7,7,0.6,0.7
2024-09-04T2000,1123A,125.3297,43.8805,长春市,园林处,,24,16,29,14,12,76,,78,78,13,23,4,4,0.6,0.6
2024-09-04T2000,1124A,125.4605,43.79,长春市,净月潭,,28,18,17,16,11,87,,80,80,6,6,6,6,0.5,0.5
2024-09-04T2000,1125A,125.7194,43.515,长春市,甩湾子,,,,,,,,,,,,,,,,
2024-09-04T2000,1126A,125.3863,43.8447,长春市,经开区环卫处,,25,18,31,12,10,78,,75,75,18,27,6,6,0.7,0.6
2024-09-04T2000,1127A,125.245,43.7783,长春市,高新区管委会,,26,17,24,17,10,82,,80,80,12,20,3,3,0.6,0.5
2024-09-04T2000,1128A,125.1761,43.8325,长春市,岱山公园,,24,17,40,15,18,74,,74,74,23,35,2,3,0.5,0.5
2024-09-04T2000,1335A,113.0833,28.2325,长沙市,经开区环保局,颗粒物(PM10),54,57,59,34,37,118,,133,130,17,12,2,3,0.7,0.7
2024-09-04T2000,1336A,112.8872,28.2189,长沙市,高开区环保局,颗粒物(PM10),54,57,63,33,41,132,,147,145,11,9,2,2,1.0,1
2024-09-04T2000,1337A,113.0792,28.2053,长沙市,马坡岭,颗粒物(PM10),59,67,61,30,39,125,,145,141,15,9,2,2,0.8,0.7
2024-09-04T2000,1338A,112.9394,28.19,长沙市,湖南师范大学,颗粒物(PM10),54,58,67,37,43,129,,157,150,7,7,3,3,0.8,0.8
2024-09-04T2000,1339A,113.0178,28.1322,长沙市,雨花区环保局,颗粒物(PM10),54,58,59,30,35,110,,155,149,14,19,4,4,0.6,0.6
2024-09-04T2000,1340A,112.9792,28.2597,长沙市,伍家岭,"颗粒物(PM10),细颗粒物(PM2.5)",53,55,64,37,41,118,,136,134,12,8,1,2,0.7,0.7
2024-09-04T2000,1341A,113.0014,28.1944,长沙市,火车新站,颗粒物(PM10),57,64,62,39,41,144,,149,149,9,6,3,3,0.7,0.7
2024-09-04T2000,1342A,112.9844,28.1178,长沙市,天心区环保局,细颗粒物(PM2.5),54,53,64,38,47,102,,140,136,14,13,4,4,1.2,1.2
2024-09-04T2000,1343A,112.8908,28.1308,长沙市,湖南中医药大学,细颗粒物(PM2.5),63,49,62,45,39,137,,171,166,11,7,5,4,1.0,1.1
2024-09-04T2000,1344A,112.9581,28.3611,长沙市,沙坪,,38,29,42,26,33,112,,134,132,7,7,7,12,0.7,1.2
2024-09-04T2000,1727A,113.1147,36.1547,长治市,清华站,,38,35,34,24,19,119,,144,137,18,9,7,6,0.6,0.5
2024-09-04T2000,1728A,113.1031,36.1989,长治市,监测站,,32,32,34,22,18,87,,127,116,27,16,8,8,0.7,0.6
2024-09-04T2000,1730A,113.0886,36.2125,长治市,审计局,,32,32,33,14,18,93,,127,118,15,13,6,5,0.5,0.5
2024-09-04T2000,1731A,113.0844,36.1856,长治市,长治八中,,39,39,39,19,19,106,,133,126,17,12,6,6,0.6,0.6
2024-09-04T2000,2845A,113.1569,36.1911,长治市,德盛苑,,39,39,34,22,17,118,,133,132,18,8,8,8,0.8,0.8
2024-09-04T2000,3568A,113.06,36.0464,长治市,向阳小学,细颗粒物(PM2.5),73,77,53,53,35,138,,150,150,25,13,7,7,0.8,0.5
2024-09-04T2000,3569A,112.8792,36.3144,长治市,屯留一中,,38,36,46,26,25,120,,132,128,6,8,7,7,0.4,0.5
2024-09-04T2000,3570A,113.235,36.3489,长治市,潞城四中,,43,43,39,19,24,83,,145,133,13,14,6,6,0.5,0.6
2024-09-04T2000,1854A,111.6975,28.9703,常德市,市二中,细颗粒物(PM2.5),83,61,57,61,46,99,,143,136,14,10,6,6,0.9,0.8
2024-09-04T2000,1857A,111.7158,29.1456,常德市,白鹤山,,,,,,,,,,,,,,,,
2024-09-04T2000,3138A,111.7153,29.0289,常德市,武陵区永安,细颗粒物(PM2.5),62,61,60,44,42,118,,137,134,9,10,7,7,0.8,0.9
2024-09-04T2000,3139A,111.6892,28.9881,常德市,鼎城区玉霞,细颗粒物(PM2.5),62,57,59,44,42,104,,139,134,9,11,6,6,0.8,0.9
2024-09-04T2000,3140A,111.6625,29.0531,常德市,武陵区长庚,,50,50,57,35,38,135,,150,148,5,10,7,8,0.7,0.8
2024-09-04T2000,1196A,119.9633,31.762,常州市,市监测站,臭氧1小时,58,43,32,31,15,166,,166,166,18,16,6,7,0.7,0.5
2024-09-04T2000,1200A,119.9468,31.7069,常州市,武进监测站,,50,36,30,27,14,158,,154,154,18,14,5,8,0.9,0.9
2024-09-04T2000,1201A,119.9255,31.9087,常州市,安家,颗粒物(PM10),55,60,36,36,19,120,,174,171,35,25,6,8,0.8,0.8
2024-09-04T2000,3002A,119.9805,31.8174,常州市,行政中心,臭氧1小时,57,44,30,30,19,165,,170,170,17,19,10,9,0.6,0.6
2024-09-04T2000,3003A,120.0522,31.7748,常州市,经开区,臭氧1小时,53,47,30,23,14,162,,169,169,16,17,10,11,0.7,0.7
2024-09-04T2000,3010A,119.9025,31.7964,常州市,钟楼,,50,33,29,20,14,159,,150,150,12,16,7,8,0.6,0.7
2024-09-04T2000,3429A,119.8598,31.7066,常州市,武进经发区,颗粒物(PM10),51,52,38,27,15,134,,149,149,33,20,11,12,0.5,0.6
2024-09-04T2000,3430A,119.5826,31.7245,常州市,金坛城区,臭氧1小时,73,44,31,28,18,178,,154,154,13,18,7,7,0.7,0.7
2024-09-04T2000,2220A,120.4318,41.5881,朝阳市,西梁,,39,30,32,27,17,89,,113,110,17,12,5,9,0.8,0.8
2024-09-04T2000,2221A,120.4521,41.5646,朝阳市,河畔小区,,41,41,31,25,17,95,,118,114,16,11,7,9,1.0,0.9
2024-09-04T2000,2222A,120.4176,41.5648,朝阳市,八里堡,,45,45,33,22,18,93,,118,113,16,14,8,9,1.0,1
2024-09-04T2000,2223A,120.3806,41.5969,朝阳市,农业园区,,43,31,36,30,22,74,,122,115,11,11,7,9,0.9,0.8
2024-09-04T2000,1705A,116.6367,23.6719,潮州市,西园路,颗粒物(PM10),52,53,36,11,19,81,,65,65,13,12,7,7,0.4,0.3
2024-09-04T2000,3026A,116.6183,23.6608,潮州市,市政府,,45,45,34,20,16,88,,74,74,9,8,6,7,0.8,0.6
2024-09-04T2000,4036A,116.6461,23.6761,潮州市,金山,,45,45,34,13,20,86,,69,69,14,10,7,7,0.6,0.7
2024-09-04T2000,2472A,113.0073,25.9061,郴州市,马头岭,,35,35,33,7,12,40,,107,96,15,8,6,8,0.4,0.5
2024-09-04T2000,2473A,113.0116,25.8226,郴州市,市职中,,26,26,30,15,21,65,,121,114,15,11,3,5,0.5,0.6
2024-09-04T2000,2474A,113.0161,25.8001,郴州市,兴隆步行街,,25,20,31,11,21,77,,120,115,11,11,6,9,0.5,0.6
2024-09-04T2000,2475A,113.0383,25.8071,郴州市,市审计局,,28,27,27,19,20,76,,124,118,15,12,3,10,0.5,0.5
2024-09-04T2000,2476A,113.0348,25.7759,郴州市,市环保局,,37,37,30,14,21,81,,124,119,15,12,4,8,0.7,0.6
2024-09-04T2000,1431A,103.9728,30.7236,成都市,金泉两河,,39,39,34,26,20,98,,198,188,9,10,1,1,0.4,0.5
2024-09-04T2000,1432A,104.176,30.6872,成都市,十里店,颗粒物(PM10),53,55,42,31,25,139,,190,186,18,12,5,5,0.5,0.5
2024-09-04T2000,1433A,104.079,30.5706,成都市,三瓦窑,细颗粒物(PM2.5),84,,43,62,29,116,,201,193,24,43,1,7,0.4,0.5
2024-09-04T2000,1434A,104.1114,30.63,成都市,沙河铺,,,55,42,37,27,137,,205,198,,25,,6,0.6,0.9
2024-09-04T2000,1437A,104.0786,30.6531,成都市,君平街,细颗粒物(PM2.5),58,55,41,41,26,122,,206,199,16,16,3,4,0.5,0.6
2024-09-04T2000,1438A,103.613,31.0283,成都市,灵岩寺,,,,,,,,,,,,,,,,
2024-09-04T2000,2880A,104.0239,30.65639,成都市,大石西路,,50,40,40,35,23,111,,195,188,16,17,5,6,0.7,0.8
2024-09-04T2000,3136A,104.2725,30.5589,成都市,龙泉驿区区政府,,39,39,42,27,29,115,,174,160,17,18,5,5,0.5,0.5
2024-09-04T2000,3357A,104.0106,30.6931,成都市,金博路,,38,34,30,26,17,100,,188,181,11,16,1,2,0.4,0.5
2024-09-04T2000,3359A,104.0578,30.5225,成都市,华阳,,41,39,48,19,24,129,,195,186,20,22,3,4,0.6,0.5
2024-09-04T2000,3487A,104.2394,30.5319,成都市,车城东七路,颗粒物(PM10),51,52,51,29,33,135,,181,174,24,18,3,3,0.7,0.7
2024-09-04T2000,3488A,104.3853,30.7453,成都市,青白江技师分院,,50,35,50,35,42,92,,192,171,43,35,3,5,0.6,0.7
2024-09-04T2000,3489A,104.0789,30.4072,成都市,科学城,,44,33,45,22,35,139,,177,172,14,18,3,4,0.5,0.6
2024-09-04T2000,4011A,103.8506,30.6947,成都市,光华大道三段,,34,25,36,10,20,108,,207,199,7,13,2,2,0.3,0.5
2024-09-04T2000,1062A,117.9531,40.9081,承德市,铁路,颗粒物(PM10),52,53,39,22,17,63,,107,92,26,24,9,12,0.6,0.5
2024-09-04T2000,1063A,117.9392,40.9763,承德市,中国银行,颗粒物(PM10),53,55,39,22,18,52,,91,84,22,20,4,6,0.6,0.5
2024-09-04T2000,1064A,117.9503,40.928,承德市,开发区,,39,39,34,24,19,68,,109,94,16,18,7,12,0.6,0.6
2024-09-04T2000,1065A,117.8051,40.9655,承德市,文化中心,颗粒物(PM10),52,54,40,22,16,56,,103,94,1,15,13,10,0.5,0.4
2024-09-04T2000,1066A,117.9268,41.0026,承德市,离宫,颗粒物(PM10),52,53,37,28,24,18,,64,48,7,9,3,3,0.5,0.4
2024-09-04T2000,2314A,117.47,30.6618,池州市,池州学院,"颗粒物(PM10),细颗粒物(PM2.5)",52,53,44,36,29,159,,174,173,18,11,16,7,0.9,0.8
2024-09-04T2000,3237A,117.4918,30.6617,池州市,展览馆,,48,47,43,26,26,153,,172,171,16,10,5,5,0.9,0.9
2024-09-04T2000,3333A,117.5627,30.695,池州市,第八中学,颗粒物(PM10),51,51,43,33,28,145,,176,175,18,11,4,4,0.8,0.8
2024-09-04T2000,3334A,117.5038,30.6243,池州市,第十二中学,,50,47,41,35,27,154,,177,177,14,11,4,4,1.0,1
2024-09-04T2000,1744A,118.9233,42.2816,赤峰市,松山一中,,26,26,24,10,11,56,,100,82,20,19,9,9,0.6,0.7
2024-09-04T2000,1745A,118.9576,42.2728,赤峰市,哈达街,,24,24,27,16,24,50,,92,78,17,13,8,8,0.4,0.4
2024-09-04T2000,1746A,118.8788,42.2554,赤峰市,天义路,,22,22,22,14,14,58,,98,81,16,14,7,7,0.3,0.4
2024-09-04T2000,3058A,119.2658,42.0353,赤峰市,银河街,,36,28,34,25,22,68,,88,81,13,13,14,14,0.5,0.5
2024-09-04T2000,3286A,118.9359,42.3147,赤峰市,桥北物流园区,,30,27,22,21,15,36,,88,69,21,14,7,7,0.6,0.7
2024-09-04T2000,2521A,107.3476,22.4136,崇左市,市环保局江州分局,,31,31,20,15,10,89,,106,106,7,4,6,6,0.6,0.5
2024-09-04T2000,2522A,107.3702,22.3707,崇左市,城南新区,,33,33,22,16,12,97,,114,114,15,6,7,5,0.7,0.5
2024-09-04T2000,2298A,118.3093,32.3153,滁州市,老年大学,臭氧1小时,58,44,36,26,19,166,,189,188,15,13,9,10,0.5,0.4
2024-09-04T2000,2299A,118.3244,32.2786,滁州市,人大宾馆,细颗粒物(PM2.5),53,52,38,37,23,154,,188,186,26,17,6,7,0.7,0.6
2024-09-04T2000,3207A,118.3118,32.3038,滁州市,市政府原办公楼,,50,50,34,30,22,158,,183,182,19,14,7,8,0.7,0.5
2024-09-04T2000,3331A,118.3267,32.2634,滁州市,图书馆,细颗粒物(PM2.5),59,42,33,42,20,160,,184,184,16,14,6,6,0.4,0.3
2024-09-04T2000,2605A,101.5482,25.0441,楚雄彝族自治州,州环境监测站,,17,17,21,3,15,47,,50,50,12,13,5,6,0.5,0.5
2024-09-04T2000,2606A,101.538,25.0492,楚雄彝族自治州,市经济开发区,,31,31,23,6,13,48,,47,47,12,12,5,6,0.5,0.6
2024-09-04T2000,2548A,107.5277,31.2827,达州市,达州职业技术学院,,30,30,45,10,28,36,,102,90,30,15,4,6,0.6,0.8
2024-09-04T2000,2549A,107.5086,31.2186,达州市,市环境监测站,颗粒物(PM10),53,56,41,3,20,42,,111,103,64,29,6,7,0.7,0.6
2024-09-04T2000,2550A,107.4988,31.2132,达州市,凤凰小区,,36,36,38,17,23,70,,122,115,42,24,6,7,0.6,0.5
2024-09-04T2000,2551A,107.5082,31.1986,达州市,达县机关宾馆,,33,29,50,11,22,44,,115,106,66,36,5,6,0.4,0.4
2024-09-04T2000,2552A,107.4644,31.2124,达州市,市政中心,,,,45,31,24,70,,122,115,43,32,,6,0.4,0.5
2024-09-04T2000,2614A,100.1542,25.7054,大理白族自治州,大理市环境监测站,,22,22,16,10,7,40,,46,46,10,6,3,3,0.5,0.5
2024-09-04T2000,2615A,100.2171,25.5811,大理白族自治州,大理古城,,30,24,17,21,7,34,,66,63,15,8,7,7,0.6,0.5
2024-09-04T2000,1109A,121.612,38.9741,大连市,甘井子,,47,29,26,24,15,148,,161,161,21,16,9,9,0.4,0.4
2024-09-04T2000,1110A,121.565,38.9511,大连市,周水子,,44,28,31,24,17,140,,152,152,22,19,8,8,0.5,0.5
2024-09-04T2000,1111A,121.5637,38.8845,大连市,星海三站,,45,31,24,24,16,142,,175,175,14,8,8,8,0.5,0.4
2024-09-04T2000,1112A,121.6302,38.9117,大连市,青泥洼桥,,44,33,25,20,17,138,,163,163,11,11,9,9,0.4,0.4
2024-09-04T2000,1113A,121.6251,38.8638,大连市,傅家庄,,50,23,24,19,17,157,,183,183,8,10,9,9,0.6,0.6
2024-09-04T2000,1114A,121.5213,38.8661,大连市,七贤岭,,45,42,26,28,17,144,,182,182,14,9,8,8,0.4,0.4
2024-09-04T2000,1115A,121.2529,38.8061,大连市,旅顺,,50,22,17,16,14,157,,189,189,21,12,8,8,0.5,0.5
2024-09-04T2000,1116A,121.7485,39.1311,大连市,金州,,45,28,22,22,17,143,,148,148,16,13,9,7,0.6,0.6
2024-09-04T2000,1117A,121.7811,39.0496,大连市,开发区,,44,32,25,26,17,138,,160,160,12,12,10,9,0.5,0.5
2024-09-04T2000,1118A,121.9762,39.0631,大连市,双D港,,33,23,18,19,15,105,,159,156,14,10,6,6,0.6,0.6
2024-09-04T2000,1789A,124.81117,46.03138,大庆市,大同区,颗粒物(PM10),51,51,29,34,20,47,,83,76,19,10,5,7,0.6,0.5
2024-09-04T2000,1790A,125.129,46.533,大庆市,龙凤区,颗粒物(PM10),51,52,42,27,15,48,,82,77,31,13,4,3,0.6,0.5
2024-09-04T2000,1791A,124.902,46.408,大庆市,红岗区,,34,34,29,19,17,54,,84,80,20,12,5,6,0.5,0.5
2024-09-04T2000,1792A,125.153,46.586,大庆市,萨尔图区,,46,46,30,21,12,53,,78,72,28,14,5,7,0.5,0.4
2024-09-04T2000,1793A,124.9042,46.6215,大庆市,让胡路区,,42,42,32,18,13,62,,82,78,14,12,4,5,0.5,0.4
2024-09-04T2000,3481A,125.141,46.634,大庆市,萨区政府监测点,,40,40,28,20,11,58,,87,81,17,11,6,6,0.3,0.3
2024-09-04T2000,1721A,113.3819,40.1097,大同市,果树场,,,,,,,,,,,,,,,,
2024-09-04T2000,1723A,113.2994,40.0758,大同市,云冈宾馆,,21,8,27,8,18,66,,74,74,12,20,7,7,0.4,0.5
2024-09-04T2000,1724A,113.3444,40.0917,大同市,大同大学,,17,16,22,10,14,53,,65,65,17,16,9,8,0.4,0.6
2024-09-04T2000,1725A,113.2661,40.1269,大同市,安家小村,,20,13,25,3,12,61,,78,78,13,15,9,10,0.7,0.8
2024-09-04T2000,1726A,113.2711,40.0844,大同市,教育学院,,19,13,27,13,16,60,,71,71,18,20,6,7,0.6,0.7
2024-09-04T2000,3282A,113.3397,40.0597,大同市,大同市卫生学校,,20,14,26,11,16,62,,70,70,14,20,8,7,0.6,0.9
2024-09-04T2000,3565A,113.1367,40.1122,大同市,云冈站,,17,15,27,8,15,53,,80,80,20,14,10,10,0.3,1.7
2024-09-04T2000,3566A,113.1186,40.2556,大同市,图书馆,,17,15,25,7,16,54,,77,77,16,16,10,11,0.9,0.8
2024-09-04T2000,3567A,113.5931,40.0461,大同市,区一中,,21,10,21,3,11,66,,59,59,19,14,9,9,0.5,0.6
2024-09-04T2000,3676A,113.2802,40.0995,大同市,第二人民医院,,21,17,25,3,17,67,,74,74,11,17,8,9,0.5,0.6
2024-09-04T2000,2269A,124.1069,50.4097,大兴安岭地区,科技局,,23,18,17,16,13,38,,66,58,8,5,5,5,0.3,0.3
2024-09-04T2000,3663A,124.1164,50.4278,大兴安岭地区,红旗社区,,17,17,11,8,5,28,,59,50,14,9,5,5,0.3,0.3
2024-09-04T2000,1600A,124.3303,40.0625,丹东市,江湾东路,,34,34,44,15,22,91,,90,90,5,13,2,5,0.6,0.8
2024-09-04T2000,1601A,124.4256,40.1503,丹东市,临江后街,,48,48,48,20,21,98,,106,104,5,8,5,7,0.9,0.8
2024-09-04T2000,1602A,124.3933,40.1461,丹东市,元宝山,,30,28,36,13,14,94,,94,94,10,12,2,3,0.8,0.7
2024-09-04T2000,1603A,124.3633,40.1092,丹东市,民主桥,,32,32,36,17,18,96,,94,94,7,17,2,3,0.6,0.7
2024-09-04T2000,3541A,109.5726,19.5167,儋州市,第一中学子站,,38,38,20,21,11,67,,84,82,4,3,4,4,0.7,0.7
2024-09-04T2000,3542A,109.5567,19.5187,儋州市,东坡学校子站,,28,22,16,19,10,75,,88,87,4,3,3,5,0.6,0.5
2024-09-04T2000,2616A,98.5842,24.428,德宏傣族景颇族自治州,德宏州监测站,,25,25,29,15,13,43,,59,59,13,10,11,9,0.6,0.6
2024-09-04T2000,3677A,98.5881,24.4368,德宏傣族景颇族自治州,芒市人民政府综合楼,,22,20,22,15,12,40,,65,63,14,12,7,7,0.8,0.7
2024-09-04T2000,1901A,104.4239,31.1208,德阳市,东山公园,,45,30,40,20,26,143,,157,156,12,14,5,8,0.5,0.6
2024-09-04T2000,1902A,104.3826,31.1317,德阳市,西小区,,43,34,43,27,28,136,,158,156,17,19,6,7,0.6,0.6
2024-09-04T2000,1904A,104.3553,31.1091,德阳市,耐火材料厂,,44,38,48,30,27,140,,150,148,13,24,6,6,0.6,0.7
2024-09-04T2000,3639A,104.4019,31.1244,德阳市,市教育局,,44,39,44,26,26,139,,157,156,16,15,5,7,0.7,0.7
2024-09-04T2000,1622A,116.3032,37.4674,德州市,儿童乐园,臭氧1小时,63,68,56,36,26,170,,187,187,17,15,10,14,0.8,0.6
2024-09-04T2000,1624A,116.2991,37.4451,德州市,监理站,臭氧1小时,68,61,51,27,26,174,,190,190,12,14,11,15,0.8,0.7
2024-09-04T2000,3066A,116.2721,37.4379,德州市,九衢泉纯净水厂,颗粒物(PM10),65,80,56,29,25,153,,178,176,27,24,8,12,0.9,0.7
2024-09-04T2000,3371A,116.3728,37.4403,德州市,开发区人民医院,颗粒物(PM10),57,63,56,24,23,163,,184,184,25,22,10,13,1.0,0.7
2024-09-04T2000,3372A,116.3572,37.4094,德州市,太阳城中学,颗粒物(PM10),56,61,55,24,25,126,,182,177,47,26,12,14,0.8,0.6
2024-09-04T2000,3511A,116.5652,37.3319,德州市,陵城艺术中心,,50,48,53,17,20,157,,192,189,17,24,11,14,0.6,0.6
2024-09-04T2000,2621A,99.7056,27.8317,迪庆藏族自治州,迪庆州站,,22,22,16,8,8,35,,67,60,18,10,7,7,0.7,0.5
2024-09-04T2000,3180A,99.7136,27.8094,迪庆藏族自治州,质量技术监督局,,24,24,14,9,8,36,,64,58,19,10,9,9,0.6,0.4
2024-09-04T2000,2663A,104.6241,35.5734,定西市,东关小学,,26,20,24,9,20,82,,81,81,5,4,2,3,0.2,0.2
2024-09-04T2000,2664A,104.6194,35.5934,定西市,供电公司,,,31,30,25,25,79,,82,81,,4,,6,0.2,0.2
2024-09-04T2000,1389A,113.7547,23.0494,东莞市,莞城梨川,,,38,29,25,18,77,,121,113,,16,4,5,0.7,0.8
2024-09-04T2000,1390A,113.7944,23.0128,东莞市,东城石井,,35,35,29,22,19,92,,126,116,13,16,5,5,0.7,0.7
2024-09-04T2000,1391A,113.7383,22.9658,东莞市,南城西平,,35,35,30,24,16,90,,125,117,17,21,3,4,0.7,0.7
2024-09-04T2000,3319A,113.7338,23.0381,东莞市,万江金泰,,35,32,29,24,19,76,,125,114,15,15,8,8,0.7,0.7
2024-09-04T2000,3626A,113.7533,23.0202,东莞市,南城元岭,,37,37,33,21,18,93,,140,129,11,16,8,7,0.7,0.6
2024-09-04T2000,3627A,113.7875,23.0457,东莞市,东城主山,,33,33,27,20,17,86,,130,121,14,14,8,8,0.8,0.7
2024-09-04T2000,1666A,118.6614,37.4309,东营市,市环保局,臭氧1小时,102,58,37,22,15,203,,223,222,22,21,9,10,0.9,0.4
2024-09-04T2000,3036A,118.6904,37.4338,东营市,开发区管委会,臭氧1小时,109,55,43,24,14,218,,222,222,18,17,12,9,0.8,0.4
2024-09-04T2000,3365A,118.5719,37.565,东营市,垦利区民丰路,颗粒物(PM10),60,70,40,27,15,143,,229,217,36,17,3,2,0.9,0.6
2024-09-04T2000,3498A,118.5055,37.8612,东营市,河口城区,颗粒物(PM10),52,53,37,24,16,159,,200,196,14,12,6,8,1.1,0.9
2024-09-04T2000,3646A,118.4978,37.4623,东营市,胜利站,臭氧1小时,60,25,33,19,16,168,,207,201,31,22,14,14,1.1,0.8
2024-09-04T2000,3734A,118.35,37.26,东营市,理想之城,臭氧1小时,57,61,37,29,20,165,,212,204,28,21,10,9,0.7,0.4
2024-09-04T2000,1591A,110.0023,39.8129,鄂尔多斯市,综合楼,,20,12,26,9,14,61,,87,75,28,17,14,10,0.6,0.7
2024-09-04T2000,1592A,109.9486,39.8261,鄂尔多斯市,巴音孟克林场办事处,,27,27,26,9,15,73,,86,81,11,12,5,7,0.6,0.7
2024-09-04T2000,1593A,109.7736,39.5986,鄂尔多斯市,康泽苑,,24,14,28,3,12,75,,89,85,6,10,6,6,0.5,0.7
2024-09-04T2000,1594A,109.8119,39.5989,鄂尔多斯市,华泰汽车城,,22,,28,12,18,70,,80,78,8,13,6,8,0.4,0.6
2024-09-04T2000,1595A,109.9734,39.7884,鄂尔多斯市,奥林花园,,,,28,7,14,72,,83,78,12,16,4,4,0.6,0.7
2024-09-04T2000,2436A,114.8938,30.3994,鄂州市,市政府,,46,46,44,28,20,114,,149,144,34,14,10,11,0.8,0.8
2024-09-04T2000,2437A,114.8989,30.3714,鄂州市,赵家坝,,,54,41,30,17,110,,151,148,26,14,,11,,1
2024-09-04T2000,3654A,114.8094,30.4089,鄂州市,精准医疗中心,,42,40,41,29,19,113,,158,152,19,12,9,9,0.8,1
2024-09-04T2000,2454A,109.4978,30.2981,恩施土家族苗族自治州,湖北民院,,27,24,32,17,25,86,,105,105,18,14,8,9,0.7,0.8
2024-09-04T2000,2455A,109.4707,30.2798,恩施土家族苗族自治州,州电力总公司,,29,11,30,7,23,92,,118,114,15,16,8,8,0.6,0.7
2024-09-04T2000,3549A,109.5061,30.3772,恩施土家族苗族自治州,龙凤新区,,24,20,30,3,24,75,,123,116,18,12,7,6,0.7,0.7
2024-09-04T2000,2499A,108.3411,21.6158,防城港市,沙万,,44,44,30,26,17,136,,145,145,17,15,9,8,0.7,0.6
2024-09-04T2000,2500A,108.3514,21.7731,防城港市,防城档案局,颗粒物(PM10),64,77,53,41,21,102,,96,96,12,16,8,7,0.8,0.5
2024-09-04T2000,2501A,108.3506,21.6414,防城港市,大海花园,,46,46,30,20,16,146,,143,143,15,14,9,8,0.7,0.5
2024-09-04T2000,1371A,113.1294,23.0067,佛山市,湾梁,颗粒物(PM10),51,51,41,22,23,93,,178,166,31,26,6,8,0.9,0.9
2024-09-04T2000,1372A,113.1083,23.0478,佛山市,华材职中,,44,44,51,23,27,84,,170,159,32,39,6,6,0.5,0.5
2024-09-04T2000,1373A,113.144,23.0453,佛山市,南海气象局,,35,32,40,24,27,90,,165,158,21,21,5,7,0.6,0.6
2024-09-04T2000,1374A,113.2881,22.8094,佛山市,顺德苏岗,,49,41,37,34,24,100,,205,200,27,22,8,8,0.8,0.8
2024-09-04T2000,1376A,112.8383,22.8678,佛山市,高明孔堂,,30,30,37,20,21,84,,185,181,12,16,4,5,0.7,0.7
2024-09-04T2000,1377A,112.8836,23.1588,佛山市,三水监测站,,32,27,34,14,26,101,,158,148,20,30,6,7,0.5,0.5
2024-09-04T2000,1378A,112.867,23.185,佛山市,三水云东海,,30,25,30,15,27,96,,151,143,15,23,9,10,0.6,0.6
2024-09-04T2000,3625A,113.2544,22.7642,佛山市,容桂街道办,,49,39,35,34,26,120,,214,209,32,25,8,7,0.9,0.8
2024-09-04T2000,1280A,119.3903,26.0543,福州市,鼓山,,,,,,,,,,,,,,,,
2024-09-04T2000,1282A,119.2681,26.0504,福州市,师大,,23,20,20,6,8,72,,86,84,5,6,5,5,0.3,0.3
2024-09-04T2000,1283A,119.2984,26.1028,福州市,五四北路,,,34,34,9,8,70,,89,84,8,6,,3,0.4,0.5
2024-09-04T2000,1284A,119.2648,26.0768,福州市,杨桥西路,,24,24,21,10,9,70,,91,86,6,5,3,3,0.3,0.4
2024-09-04T2000,1285A,119.317,26.0746,福州市,紫阳,,,,,,,,,,,,,,,,
2024-09-04T2000,3048A,119.5799,26.0936,福州市,九龙,,24,20,19,7,6,75,,82,80,1,3,5,5,0.4,0.4
2024-09-04T2000,3526A,119.5189,25.9664,福州市,吴航,,23,18,16,11,9,73,,80,78,2,2,6,6,0.6,0.6
2024-09-04T2000,1755A,123.7977,41.8491,抚顺市,望花区,,32,32,50,20,21,62,,70,66,21,30,10,12,0.9,1
2024-09-04T2000,1756A,123.9161,41.8822,抚顺市,顺城区,,29,28,41,20,17,71,,80,76,17,34,6,6,0.8,0.7
2024-09-04T2000,1757A,124.0436,41.8611,抚顺市,东洲区,,36,34,29,25,17,51,,72,63,18,14,8,7,1.3,0.7
2024-09-04T2000,1758A,123.9247,41.8642,抚顺市,新抚区,,28,21,44,19,16,65,,69,66,14,30,7,8,1.2,0.7
2024-09-04T2000,1759A,124.0972,41.8961,抚顺市,大伙房水库,,27,27,22,15,14,57,,84,74,11,9,4,5,0.9,0.7
2024-09-04T2000,1760A,123.7086,41.8391,抚顺市,沈抚新城,,30,25,37,21,22,86,,74,71,23,27,9,8,0.2,0.5
2024-09-04T2000,2376A,116.2127,28.0814,抚州市,桐源党溪,,49,49,47,34,33,87,,144,135,3,3,6,7,0.6,0.7
2024-09-04T2000,2377A,116.3544,27.9831,抚州市,市站,细颗粒物(PM2.5),52,46,45,36,29,103,,115,114,7,6,5,5,1.1,1.1
2024-09-04T2000,2378A,116.3565,27.963,抚州市,血防站,,50,50,45,35,31,103,,123,122,8,8,1,2,1.0,1
2024-09-04T2000,2379A,116.3564,28.0007,抚州市,采茶剧团,细颗粒物(PM2.5),57,59,45,40,30,87,,124,119,15,6,9,7,1.4,1.4
2024-09-04T2000,2380A,116.385,27.9647,抚州市,医学分院,,48,47,42,33,27,110,,137,136,7,6,5,6,0.8,0.8
2024-09-04T2000,2207A,121.6094,41.998,阜新市,工业园区,,36,36,33,13,14,95,,97,97,18,19,9,12,0.6,0.6
2024-09-04T2000,2208A,121.6697,42.0279,阜新市,长青街,,35,35,29,18,12,99,,96,95,19,18,12,19,0.6,0.6
2024-09-04T2000,2209A,121.6673,42.0705,阜新市,农业园区,,28,27,25,19,13,84,,97,88,18,15,7,8,0.5,0.5
2024-09-04T2000,2210A,121.6717,42.0224,阜新市,东苑,,36,36,28,24,18,95,,99,92,23,19,16,18,0.9,0.8
2024-09-04T2000,2211A,121.6506,42.0498,阜新市,玉龙新城,,27,25,28,13,14,85,,92,91,17,17,11,12,0.5,0.6
2024-09-04T2000,2301A,115.8277,32.8929,阜阳市,市监测站,,39,38,40,23,22,123,,146,143,11,12,6,8,0.7,0.6
2024-09-04T2000,2303A,115.8554,32.8605,阜阳市,开发区,颗粒物(PM10),55,59,49,27,16,134,,151,149,15,16,5,8,0.6,0.6
2024-09-04T2000,2875A,115.784,32.8892,阜阳市,阜阳职业技术学院,,46,45,42,21,19,146,,149,148,8,11,6,8,0.6,0.5
2024-09-04T2000,3468A,115.7901,32.8613,阜阳市,市规划展馆,,48,45,41,33,25,124,,148,145,17,13,6,10,0.7,0.6
2024-09-04T2000,3469A,115.836,32.9183,阜阳市,枣园社区,,50,,40,35,25,122,,145,140,14,15,6,7,0.7,0.6
2024-09-04T2000,2669A,102.9099,34.9841,甘南藏族自治州,州政府,,27,25,20,13,16,84,,78,78,6,6,8,9,0.4,0.4
2024-09-04T2000,3380A,102.8914,34.9617,甘南藏族自治州,甘肃民族师范学院,,28,6,14,3,10,89,,84,84,3,5,4,4,0.5,0.5
2024-09-04T2000,2570A,101.9603,30.0475,甘孜藏族自治州,水桥子,,27,,7,9,7,85,,87,87,3,18,4,5,0.3,0.3
2024-09-04T2000,3065A,101.9533,29.9972,甘孜藏族自治州,州环保局,,25,10,13,8,5,80,,86,86,12,23,3,3,0.3,0.2
2024-09-04T2000,3414A,115.8347,28.932,赣江新区,桑海产业园,,45,41,40,31,36,114,,131,130,11,10,11,12,0.4,0.5
2024-09-04T2000,2362A,114.9017,25.9149,赣州市,通天岩,,,,,,,,,,,,,,,,
2024-09-04T2000,2363A,114.9367,25.8664,赣州市,地委,,29,29,31,16,18,78,,99,96,15,10,8,6,1.0,1
2024-09-04T2000,2364A,114.9461,25.8481,赣州市,气象台,,34,34,36,17,21,73,,101,98,15,9,3,8,0.9,0.8
2024-09-04T2000,2365A,114.9322,25.8333,赣州市,市图书馆,,37,37,32,18,18,85,,114,111,16,8,4,4,1.0,1
2024-09-04T2000,2366A,114.8905,25.8471,赣州市,华坚鞋城,,35,35,34,15,18,71,,97,94,16,11,2,2,0.7,0.6
2024-09-04T2000,3109A,115.0093,25.8613,赣州市,赣县区卫计委,,32,,26,22,18,64,,101,96,20,12,6,6,0.7,0.7
2024-09-04T2000,2683A,106.2319,36.1417,固原市,马园,,23,,70,6,19,73,,79,75,13,14,5,5,0.7,0.7
2024-09-04T2000,2684A,106.2792,36.0022,固原市,监测站,,26,,59,7,22,82,,86,84,8,8,4,4,0.4,0.3
2024-09-04T2000,2685A,106.2375,36.0211,固原市,新区,,23,,55,9,19,73,,82,78,8,7,7,7,0.3,0.3
2024-09-04T2000,3522A,106.2177,35.9959,固原市,原州区十五小,,30,30,42,17,20,80,,88,85,9,7,8,8,0.4,0.4
2024-09-04T2000,2543A,106.6308,30.5278,广安市,小平旧居,,,,,,,,,,,,,,,,
2024-09-04T2000,2544A,106.6303,30.4576,广安市,市委,,42,,22,15,17,132,,141,140,15,20,5,5,0.3,0.4
2024-09-04T2000,2545A,106.6271,30.4663,广安市,友谊中学,,40,25,28,13,17,128,,137,136,19,20,3,4,0.4,0.5
2024-09-04T2000,2547A,106.6388,30.4551,广安市,广电花园,,41,16,28,10,18,130,,136,136,18,19,1,2,0.4,0.5
2024-09-04T2000,2902A,106.6351,30.4865,广安市,北辰小学,,37,37,31,16,16,105,,141,137,36,16,6,6,0.3,0.4
2024-09-04T2000,2523A,105.8945,32.4535,广元市,黑石坡,,31,,22,19,17,98,,116,114,6,10,6,6,0.3,0.4
2024-09-04T2000,2524A,105.821,32.4444,广元市,老城,,36,36,24,13,11,83,,135,130,31,26,3,2,0.5,0.5
2024-09-04T2000,2526A,105.8628,32.4287,广元市,监测站,,32,23,20,22,12,94,,130,126,15,12,5,6,0.7,0.6
2024-09-04T2000,3617A,105.8047,32.4166,广元市,经开区,,35,35,35,22,25,99,,134,131,18,22,4,6,0.7,0.7
2024-09-04T2000,1345A,113.2347,23.1423,广州市,广雅中学,,36,36,42,19,24,80,,157,146,27,36,4,6,0.9,0.9
2024-09-04T2000,1346A,113.2612,23.105,广州市,市五中,,40,38,41,28,30,88,,160,151,17,22,4,4,0.8,0.8
2024-09-04T2000,1348A,113.3478,23.0916,广州市,广东商学院,,35,35,44,22,27,81,,146,135,25,36,4,5,0.7,0.8
2024-09-04T2000,1349A,113.4332,23.1047,广州市,市八十六中,,38,38,43,23,24,75,,140,127,23,40,4,4,0.7,0.7
2024-09-04T2000,1350A,113.3505,22.9483,广州市,番禺中学,,37,37,40,23,25,88,,183,173,28,24,4,5,0.9,0.8
2024-09-04T2000,1351A,113.2146,23.3916,广州市,花都师范,,26,18,31,13,20,82,,132,121,14,17,3,4,0.9,0.8
2024-09-04T2000,1352A,113.2597,23.1331,广州市,市监测站,,33,33,38,22,25,72,,148,137,24,26,4,5,0.8,0.8
2024-09-04T2000,1353A,113.5618,23.312,广州市,九龙镇镇龙,,31,31,27,20,13,64,,104,96,18,18,6,6,0.7,0.7
2024-09-04T2000,1354A,113.2765,23.1544,广州市,麓湖,,36,36,39,19,23,74,,146,128,19,37,4,5,0.7,0.7
2024-09-04T2000,1355A,113.443,23.3035,广州市,帽峰山森林公园,,21,18,17,11,14,65,,123,113,6,8,5,5,0.5,0.5
2024-09-04T2000,2846A,113.3221,23.1322,广州市,体育西,,33,33,38,22,24,80,,140,131,11,20,6,7,0.7,0.8
2024-09-04T2000,3298A,113.5717,23.5491,广州市,从化街口,,38,38,28,16,16,45,,114,97,23,17,6,4,0.8,0.6
2024-09-04T2000,3299A,113.3472,23.3692,广州市,白云竹料,,36,28,39,25,24,74,,133,122,17,20,4,5,0.7,0.7
2024-09-04T2000,3300A,113.2981,23.237,广州市,白云嘉禾,,46,46,44,22,24,73,,140,123,28,40,5,5,0.9,0.9
2024-09-04T2000,3301A,113.4256,23.1716,广州市,黄埔科学城,,31,31,36,16,23,56,,136,122,25,28,4,5,0.7,0.6
2024-09-04T2000,3302A,113.3942,23.0483,广州市,番禺大学城,,35,35,39,24,24,77,,153,142,23,28,8,9,0.6,0.7
2024-09-04T2000,3303A,113.4922,22.8168,广州市,南沙黄阁,,35,35,45,24,26,56,,195,175,57,36,5,5,1.0,0.9
2024-09-04T2000,3304A,113.5342,22.7896,广州市,南沙街,,50,44,41,35,25,88,,192,183,32,26,6,6,0.8,0.8
2024-09-04T2000,3443A,113.2902,23.5544,广州市,花都梯面,,29,29,27,17,18,50,,110,102,19,19,4,6,0.7,0.6
2024-09-04T2000,3445A,113.7858,23.7478,广州市,从化良口,,25,25,25,16,17,35,,74,66,7,9,6,6,0.8,0.8
2024-09-04T2000,3446A,113.8051,23.2614,广州市,增城荔城,,40,39,19,28,13,68,,98,94,17,11,5,4,0.7,0.7
2024-09-04T2000,2505A,109.568,23.1478,贵港市,德智高中,,,,,,,,,,,,,,,,
2024-09-04T2000,2506A,109.6047,23.0666,贵港市,江南子站,,40,19,51,17,26,127,,144,141,8,19,7,10,0.5,0.7
2024-09-04T2000,2507A,109.6014,23.0948,贵港市,贵城子站,,38,23,42,17,24,121,,131,130,8,16,6,8,0.6,0.7
2024-09-04T2000,2508A,109.5669,23.1065,贵港市,荷城子站,,35,19,34,7,13,112,,123,122,7,14,10,11,0.4,0.5
2024-09-04T2000,3405A,109.5886,23.1172,贵港市,新世纪学校,,35,19,31,12,14,112,,126,126,8,12,8,9,0.6,0.6
2024-09-04T2000,1439A,106.6899,26.5998,贵阳市,马鞍山,,30,12,11,3,1,94,,111,109,13,11,4,5,0.5,0.5
2024-09-04T2000,1440A,106.6971,26.5694,贵阳市,市环保站,,30,17,24,16,14,93,,104,104,21,19,4,5,0.4,0.3
2024-09-04T2000,1441A,106.6243,26.6266,贵阳市,鉴湖路,,30,27,18,12,6,93,,111,110,11,8,6,9,0.3,0.3
2024-09-04T2000,1442A,106.7487,26.6343,贵阳市,燕子冲,,33,,9,14,9,103,,116,115,7,10,6,7,0.3,0.4
2024-09-04T2000,1443A,106.6555,26.4365,贵阳市,碧云窝,,39,39,21,9,5,86,,111,109,13,8,5,9,0.4,0.5
2024-09-04T2000,1444A,106.694,26.5161,贵阳市,中院村,,28,24,24,7,10,88,,104,102,16,12,7,10,0.4,0.3
2024-09-04T2000,1445A,106.7109,26.6027,贵阳市,红边门,,,,18,,15,95,,113,111,,16,,6,0.4,0.4
2024-09-04T2000,1446A,106.7164,26.5699,贵阳市,新华路,,32,22,19,7,8,102,,118,117,15,13,6,8,0.4,0.5
2024-09-04T2000,1447A,106.674,26.5424,贵阳市,太慈桥,,27,17,13,3,4,86,,105,101,16,11,4,5,0.4,0.3
2024-09-04T2000,1552A,106.805,26.3003,贵阳市,桐木岭,,,,,,,,,,,,,,,,
2024-09-04T2000,1862A,110.4144,25.3167,桂林市,电子科大尧山校区,,49,49,36,32,21,72,,111,107,8,6,4,15,0.7,0.6
2024-09-04T2000,1863A,110.2819,25.2697,桂林市,监测站,,45,45,32,20,16,72,,99,97,11,7,7,8,0.5,0.4
2024-09-04T2000,1864A,110.3089,25.2708,桂林市,龙隐路小学,,,,29,,16,72,,114,111,,7,7,9,,0.4
2024-09-04T2000,1865A,110.2869,25.2178,桂林市,八中,,47,47,27,28,14,64,,122,114,14,7,6,8,0.6,0.4
2024-09-04T2000,3403A,110.1764,25.2381,桂林市,创业大厦,,45,39,32,31,23,96,,126,126,13,9,7,12,0.4,0.3
2024-09-04T2000,3531A,110.296,25.1253,桂林市,旅游学院,,32,29,16,22,11,64,,116,112,8,6,6,6,0.5,0.4
2024-09-04T2000,2674A,100.2561,34.4714,果洛藏族自治州,玛沁县大武镇,,,,16,,9,,,54,,,6,,8,,0.4
2024-09-04T2000,1129A,126.5422,45.755,哈尔滨市,岭北,,27,23,24,17,14,85,,91,90,12,18,8,9,0.7,0.5
2024-09-04T2000,1130A,126.561,45.8167,哈尔滨市,松北商大,,18,18,22,12,7,53,,59,51,12,21,7,8,0.6,0.6
2024-09-04T2000,1131A,126.979,45.5419,哈尔滨市,阿城会宁,,19,15,23,10,10,59,,60,60,10,16,7,7,0.9,0.7
2024-09-04T2000,1132A,126.599,45.7222,哈尔滨市,南岗学府路,,31,31,41,11,11,62,,65,65,13,27,6,8,0.8,0.6
2024-09-04T2000,1133A,126.689,45.7733,哈尔滨市,太平宏伟公园,,22,22,32,11,12,48,,54,54,23,27,3,4,0.7,0.6
2024-09-04T2000,1134A,126.635,45.7667,哈尔滨市,道外承德广场,,33,25,30,23,12,42,,56,50,31,32,7,8,0.5,0.4
2024-09-04T2000,1135A,126.685,45.7319,哈尔滨市,香坊红旗大街,,38,34,35,26,15,54,,52,52,21,31,6,10,0.9,0.8
2024-09-04T2000,1136A,126.6411,45.7258,哈尔滨市,动力和平路,,23,23,31,16,16,56,,59,59,18,25,7,10,0.7,0.6
2024-09-04T2000,1137A,126.593,45.7478,哈尔滨市,道里建国路,,28,25,32,19,14,47,,61,53,20,28,11,12,0.8,1.5
2024-09-04T2000,1138A,126.615,45.61,哈尔滨市,平房东轻厂,,20,20,22,10,7,37,,58,56,32,17,5,6,0.7,0.4
2024-09-04T2000,1139A,126.595,45.9855,哈尔滨市,呼兰师专,,30,,29,21,15,49,,65,60,15,27,10,11,0.7,0.7
2024-09-04T2000,1140A,126.6206,45.6842,哈尔滨市,省农科院,,21,21,37,14,12,49,,49,48,20,34,6,9,0.6,0.5
2024-09-04T2000,2688A,93.5128,42.8172,哈密市,地区监测站,,,,32,,13,88,,102,102,17,8,4,5,0.3,0.3
2024-09-04T2000,2689A,93.4961,42.8328,哈密市,哈密师范学校,,29,21,28,3,12,90,,103,103,10,8,4,6,0.3,0.4
2024-09-04T2000,2671A,100.9048,36.9639,海北藏族自治州,海晏县西海镇,,26,15,16,6,15,81,,95,87,7,6,11,14,0.6,0.5
2024-09-04T2000,3867A,102.0738,36.5056,海东市,平安区公安北苑,,25,19,21,3,6,80,,82,78,9,7,7,11,0.4,0.6
2024-09-04T2000,1409A,110.576,19.9507,海口市,东寨港,,,,,,,,,,,,,,,,
2024-09-04T2000,1410A,110.3232,20.0574,海口市,海南大学,,31,22,22,12,11,98,,100,100,7,16,5,6,0.4,0.4
2024-09-04T2000,1411A,110.283,20.0053,海口市,秀英海南医院,,28,28,24,17,12,89,,100,100,11,16,5,4,0.4,0.4
2024-09-04T2000,1412A,110.338,19.9969,海口市,海南师范大学,,31,24,25,15,13,98,,106,106,8,13,5,6,0.5,0.5
2024-09-04T2000,1413A,110.33,20.0356,海口市,龙华路环保局宿舍,,30,22,24,12,12,96,,100,100,6,12,4,4,0.3,0.4
2024-09-04T2000,3539A,110.5111,19.9736,海口市,桂林洋子站,,,34,30,28,17,89,,109,107,,16,5,5,0.4,0.4
2024-09-04T2000,2673A,100.6188,36.2866,海南藏族自治州,共和县恰卜恰镇,,,19,15,,7,96,,95,91,,6,9,12,0.8,0.4
2024-09-04T2000,2676A,97.3731,37.3753,海西蒙古族藏族自治州,德令哈市,颗粒物(PM10),51,52,88,12,25,89,,94,94,14,9,8,9,0.5,0.4
2024-09-04T2000,1048A,114.5302,36.6116,邯郸市,东污水处理厂,颗粒物(PM10),55,59,54,19,21,149,,159,159,13,13,3,4,0.5,0.5
2024-09-04T2000,1049A,114.4918,36.5713,邯郸市,矿院,,48,43,49,17,23,153,,168,168,15,11,2,4,0.5,0.4
2024-09-04T2000,1050A,114.484,36.6133,邯郸市,丛台公园,,48,45,41,25,21,153,,161,161,12,9,4,5,0.5,0.4
2024-09-04T2000,3458A,114.7895,36.5593,邯郸市,香泉濮院小区,颗粒物(PM10),55,60,43,14,17,146,,154,154,10,12,1,3,0.5,0.4
2024-09-04T2000,3579A,114.50634,36.77178,邯郸市,永年区实验高中,臭氧1小时,60,61,59,33,26,168,,179,179,14,14,2,4,0.6,0.5
2024-09-04T2000,3580A,114.20016,36.44293,邯郸市,峰峰矿区临水派出所,臭氧1小时,58,48,39,24,20,166,,183,182,11,9,5,8,0.3,0.8
2024-09-04T2000,2634A,106.9893,33.1842,汉中市,汉川机床厂子校,,32,32,22,18,15,93,,111,111,6,7,4,4,0.7,0.8
2024-09-04T2000,2635A,107.0154,33.0706,汉中市,市监测站,,34,32,26,17,16,108,,115,115,10,4,8,7,0.7,0.7
2024-09-04T2000,2636A,107.0089,33.1138,汉中市,鑫源开发区,,49,,25,34,21,108,,118,118,12,5,9,9,0.6,0.6
2024-09-04T2000,2637A,107.007,33.0323,汉中市,南郑大河坎水厂,,31,28,27,19,16,98,,109,109,8,5,9,8,0.6,0.6
2024-09-04T2000,1223A,120.2072,30.2111,杭州市,滨江,,40,38,39,21,22,126,,159,159,18,16,5,5,0.8,0.7
2024-09-04T2000,1224A,120.0633,30.2747,杭州市,西溪,,45,32,33,22,21,142,,154,154,17,16,6,6,0.7,0.7
2024-09-04T2000,1226A,120.3461,30.3153,杭州市,下沙,,38,,36,19,21,121,,160,160,24,26,7,8,0.7,0.7
2024-09-04T2000,1227A,120.1269,30.2456,杭州市,卧龙桥,,48,35,35,21,24,153,,173,173,16,15,6,6,0.7,0.7
2024-09-04T2000,1228A,120.1903,30.2692,杭州市,浙江农大,,42,34,34,19,21,132,,159,159,16,20,9,9,0.7,0.6
2024-09-04T2000,1230A,120.1197,30.3119,杭州市,和睦小学,,44,29,30,24,18,140,,165,165,19,18,7,7,0.7,0.8
2024-09-04T2000,1231A,120.3019,30.4183,杭州市,临平镇,,39,27,36,12,18,124,,150,150,10,13,4,4,0.7,0.7
2024-09-04T2000,1232A,120.2697,30.1819,杭州市,城厢镇,,42,40,37,28,26,132,,171,171,24,22,7,7,0.6,0.6
2024-09-04T2000,1233A,120.0883,30.1808,杭州市,云栖,,49,27,28,19,18,154,,176,176,18,14,7,6,0.7,0.7
2024-09-04T2000,3557A,119.9464,30.0494,杭州市,镇二中,,47,40,31,27,23,150,,160,160,19,17,10,8,0.8,0.9
2024-09-04T2000,3558A,119.7183,30.2367,杭州市,市府大楼,臭氧1小时,68,54,32,38,29,174,,178,178,18,14,6,6,0.7,0.7
2024-09-04T2000,3656A,120.1556,30.2864,杭州市,消防大队,,46,30,37,19,23,145,,166,166,12,14,8,8,0.8,0.9
2024-09-04T2000,1270A,117.1959,31.7848,合肥市,明珠广场,细颗粒物(PM2.5),52,44,39,36,25,156,,159,159,15,19,7,8,0.7,0.6
2024-09-04T2000,1271A,117.3072,31.8764,合肥市,三里街,,49,48,42,27,22,156,,166,166,14,18,5,6,0.6,0.6
2024-09-04T2000,1272A,117.2588,31.8707,合肥市,琥珀山庄,臭氧1小时,53,53,41,34,26,162,,173,173,10,15,6,7,0.7,0.7
2024-09-04T2000,1273A,117.1604,31.9052,合肥市,董铺水库,细颗粒物(PM2.5),107,,42,80,21,141,,160,160,11,13,2,3,0.5,0.5
2024-09-04T2000,1274A,117.25,31.8571,合肥市,长江中路,细颗粒物(PM2.5),54,56,47,38,27,150,,166,166,19,19,8,8,0.9,0.8
2024-09-04T2000,1275A,117.266,31.9436,合肥市,庐阳区,颗粒物(PM10),53,56,42,34,20,150,,192,190,25,18,4,4,0.7,0.6
2024-09-04T2000,1276A,117.336,31.8586,合肥市,瑶海区,颗粒物(PM10),53,56,44,32,21,133,,162,161,24,23,5,6,0.7,0.6
2024-09-04T2000,1277A,117.3027,31.7964,合肥市,包河区,颗粒物(PM10),57,63,48,36,25,132,,159,158,24,26,6,7,0.6,0.6
2024-09-04T2000,1278A,117.2776,31.7385,合肥市,滨湖新区,,46,39,41,24,21,145,,155,155,9,13,6,6,0.6,0.6
2024-09-04T2000,1279A,117.1318,31.8403,合肥市,高新区,,48,48,44,33,22,130,,152,152,22,18,6,7,0.9,0.9
2024-09-04T2000,3464A,117.3803,31.9147,合肥市,高教基地,细颗粒物(PM2.5),52,47,34,36,22,119,,156,154,19,12,2,8,0.6,0.5
2024-09-04T2000,3614A,79.924,37.0877,和田地区,地区环保局,颗粒物(PM10),72,94,132,20,31,99,,87,87,7,7,7,7,0.7,0.7
2024-09-04T2000,3615A,79.9131,37.113,和田地区,市环保局,,49,49,96,23,33,96,,86,86,8,6,7,7,0.4,0.4
2024-09-04T2000,2516A,108.2011,24.715,河池市,东仁乐园,,26,26,25,14,11,66,,103,99,11,10,4,5,0.6,0.5
2024-09-04T2000,2517A,108.0497,24.6947,河池市,市环保站,,29,24,21,20,16,91,,118,116,6,11,8,9,0.5,0.5
2024-09-04T2000,2518A,108.0983,24.6989,河池市,市疾控中心,,42,,27,29,14,68,,121,116,21,16,9,9,0.6,0.6
2024-09-04T2000,1696A,114.6778,23.7569,河源市,源西,,29,27,23,20,15,44,,92,80,18,16,4,4,0.6,0.6
2024-09-04T2000,1697A,114.6944,23.7586,河源市,东埔,,42,,20,29,14,43,,93,80,19,13,2,2,0.7,0.7
2024-09-04T2000,1698A,114.6892,23.7233,河源市,老城,,29,29,18,12,9,49,,95,81,13,9,2,3,0.9,0.7
2024-09-04T2000,1718A,115.4208,35.2464,菏泽市,气象局,颗粒物(PM10),51,51,51,23,18,143,,166,163,10,11,6,5,0.3,0.3
2024-09-04T2000,1719A,115.4747,35.2375,菏泽市,市政协,,50,50,49,23,20,146,,165,161,8,10,5,6,0.3,0.4
2024-09-04T2000,3374A,115.5564,35.0891,菏泽市,定陶老年大学,,46,46,42,9,12,128,,157,153,10,11,5,6,0.5,0.4
2024-09-04T2000,3647A,115.4702,35.2706,菏泽市,菏泽医专,,48,48,52,16,17,149,,166,163,10,15,9,8,0.6,0.6
2024-09-04T2000,2514A,111.5264,24.4172,贺州市,环保小区,,41,41,26,13,11,46,,109,99,29,12,6,7,0.9,0.6
2024-09-04T2000,2515A,111.5608,24.4078,贺州市,政协大楼,,32,32,28,14,13,66,,118,112,25,13,6,7,0.6,0.5
2024-09-04T2000,3534A,111.4744,24.4553,贺州市,西湾,,28,28,24,14,12,59,,108,101,20,11,4,7,0.6,0.6
2024-09-04T2000,2385A,114.17,35.9019,鹤壁市,市监测站,臭氧1小时,60,63,54,40,24,168,,178,178,11,14,3,6,0.6,0.6
2024-09-04T2000,2386A,114.2956,35.7511,鹤壁市,市交警支队,臭氧1小时,62,68,54,26,22,169,,193,193,20,18,4,5,0.6,0.6
2024-09-04T2000,2387A,114.2878,35.7306,鹤壁市,迎宾馆,臭氧1小时,69,53,54,39,27,175,,200,200,20,19,4,5,0.8,0.7
2024-09-04T2000,3474A,114.2617,35.6822,鹤壁市,大新区,,,54,50,,21,157,,196,195,27,30,5,5,0.5,0.4
2024-09-04T2000,3596A,114.1572,35.9603,鹤壁市,南山宾馆,,47,43,40,24,19,150,,171,170,9,12,5,6,0.7,0.6
2024-09-04T2000,2244A,130.2537,47.3416,鹤岗市,哈啤分公司,,27,27,28,12,16,28,,50,39,17,15,14,14,0.5,0.5
2024-09-04T2000,2245A,130.2684,47.3086,鹤岗市,斯达机电,,,,31,,11,39,,58,47,13,17,,15,0.2,0.3
2024-09-04T2000,2246A,130.3114,47.3388,鹤岗市,东山纸板厂,,23,23,30,15,16,35,,52,39,10,20,16,15,0.4,0.5
2024-09-04T2000,2247A,130.1097,47.3382,鹤岗市,五号水库,,13,,12,7,6,41,,61,52,6,6,8,7,0.4,0.3
2024-09-04T2000,2263A,127.4833,50.2524,黑河市,交通局,,28,,22,19,11,41,,69,59,3,5,5,6,0.3,0.3
2024-09-04T2000,2264A,127.5144,50.2341,黑河市,环保局,,22,15,23,15,13,42,,79,62,3,6,3,4,0.2,0.3
2024-09-04T2000,2265A,127.5291,50.2472,黑河市,大黑河岛,,28,28,21,8,14,45,,63,57,2,4,2,2,0.0,0.1
2024-09-04T2000,1074A,115.6838,37.7541,衡水市,电机北厂,颗粒物(PM10),63,76,52,24,18,135,,174,171,16,13,6,9,0.4,0.4
2024-09-04T2000,1075A,115.6303,37.7316,衡水市,市监测站,颗粒物(PM10),53,56,52,24,18,142,,173,170,17,16,7,9,0.5,0.4
2024-09-04T2000,3188A,115.6683,37.7217,衡水市,市城管局,颗粒物(PM10),56,62,50,29,21,145,,178,176,14,14,7,8,0.5,0.5
2024-09-04T2000,3459A,115.5989,37.5491,衡水市,地表水厂,颗粒物(PM10),64,78,57,24,20,109,,168,157,26,20,4,5,0.5,0.4
2024-09-04T2000,2456A,112.5003,26.9167,衡阳市,原169医院,颗粒物(PM10),60,69,55,42,33,82,,149,141,18,16,6,8,1.0,0.8
2024-09-04T2000,2457A,112.6194,26.9258,衡阳市,衡阳化工总厂,,,52,56,,,80,,134,128,10,8,8,7,0.8,0.8
2024-09-04T2000,2458A,112.6211,26.8956,衡阳市,珠晖区环保局,,,45,47,,,54,,138,126,38,12,5,7,1.0,0.9
2024-09-04T2000,2459A,112.6197,26.8733,衡阳市,市委党校,,31,,45,21,28,97,,148,138,14,10,7,8,0.8,0.8
2024-09-04T2000,2460A,112.6006,26.8919,衡阳市,市监测站,颗粒物(PM10),54,58,48,31,33,86,,144,137,17,10,7,8,1.0,0.9
2024-09-04T2000,2461A,112.5664,26.9056,衡阳市,真空机电公司,细颗粒物(PM2.5),54,50,57,38,36,96,,141,136,10,11,7,14,1.0,1.2
2024-09-04T2000,3399A,112.6703,26.882,衡阳市,师范学院,,49,49,45,21,24,64,,136,124,17,11,6,9,0.8,0.8
2024-09-04T2000,2608A,103.3772,23.3993,红河哈尼族彝族自治州,污水处理厂,,27,27,21,13,16,32,,64,60,10,14,8,38,0.4,0.5
2024-09-04T2000,2609A,103.3861,23.35,红河哈尼族彝族自治州,监测站,,26,23,21,18,13,34,,66,58,7,13,6,12,0.5,0.5
2024-09-04T2000,3038A,103.3758,23.368,红河哈尼族彝族自治州,州图书馆,,19,19,23,12,10,37,,60,56,6,12,5,30,0.3,0.3
2024-09-04T2000,1090A,111.6507,40.7517,呼和浩特市,呼市一监,,24,,17,3,14,76,,76,71,6,15,4,4,0.4,0.6
2024-09-04T2000,1091A,111.6572,40.8033,呼和浩特市,小召,,24,,14,3,13,76,,70,68,13,21,6,6,0.5,0.7
2024-09-04T2000,1094A,111.7516,40.8369,呼和浩特市,如意水处理厂,,,,18,,9,68,,79,69,12,20,,5,,0.6
2024-09-04T2000,1095A,111.7276,40.8062,呼和浩特市,二十九中,,25,11,21,3,16,80,,82,79,12,20,4,4,0.5,0.7
2024-09-04T2000,1096A,111.5512,40.7866,呼和浩特市,工大金川校区,,24,7,19,3,12,75,,81,65,15,25,2,2,0.4,0.6
2024-09-04T2000,1097A,111.717,40.7612,呼和浩特市,化肥厂生活区,,24,7,24,3,14,75,,77,75,17,22,8,8,0.4,0.6
2024-09-04T2000,3698A,111.5968,40.8178,呼和浩特市,红旗小学,,23,6,12,3,10,72,,80,66,14,26,3,3,0.3,0.5
2024-09-04T2000,3699A,111.6518,40.8389,呼和浩特市,海东办,,25,,13,3,13,77,,85,77,13,24,7,5,0.4,0.6
2024-09-04T2000,2192A,119.7594,49.2261,呼伦贝尔市,区环保局,,39,39,28,22,16,40,,73,56,20,13,6,5,0.4,0.2
2024-09-04T2000,3061A,119.7512,49.1577,呼伦贝尔市,国华电力东,,32,32,27,15,14,51,,79,63,11,7,3,3,0.3,0.3
2024-09-04T2000,1250A,120.0751,30.8669,湖州市,城西水厂,,37,23,31,16,20,117,,150,149,16,13,5,4,0.4,0.4
2024-09-04T2000,2873A,120.0875,30.8955,湖州市,仁皇山新区,,,26,33,16,22,113,,148,147,15,16,,6,0.7,0.7
2024-09-04T2000,2907A,120.1844,30.8596,湖州市,吴兴区站,,30,27,31,14,18,95,,136,134,19,11,4,6,0.6,0.6
2024-09-04T2000,3562A,120.4148,30.8538,湖州市,南浔区站,,26,25,25,15,18,83,,126,122,21,14,11,5,0.6,0.6
2024-09-04T2000,1607A,120.9092,40.7136,葫芦岛市,龙港区,,39,,19,21,12,124,,132,132,12,8,8,9,0.6,0.5
2024-09-04T2000,1608A,120.8392,40.7514,葫芦岛市,化工街,,39,36,29,27,13,91,,124,121,34,23,8,10,0.7,0.4
2024-09-04T2000,1609A,120.8341,40.7073,葫芦岛市,新区,,36,27,22,25,12,111,,131,130,24,14,9,11,0.7,0.5
2024-09-04T2000,1610A,120.8695,40.7677,葫芦岛市,东城区,细颗粒物(PM2.5),53,47,27,37,15,72,,124,119,46,19,7,9,0.8,0.7
2024-09-04T2000,2482A,109.5981,27.5721,怀化市,林科所,,36,36,22,20,13,91,,112,108,8,12,5,7,0.4,0.3
2024-09-04T2000,2483A,109.9453,27.5444,怀化市,河西地税局,细颗粒物(PM2.5),55,45,25,39,19,91,,116,,11,9,5,6,0.4,0.5
2024-09-04T2000,2484A,109.9781,27.5342,怀化市,市四医院,,50,50,27,26,20,90,,117,112,13,11,6,8,0.5,0.4
2024-09-04T2000,2485A,109.9972,27.5578,怀化市,监测楼,,45,42,31,31,20,95,,121,117,10,11,4,5,0.6,0.7
2024-09-04T2000,2486A,110.0394,27.583,怀化市,市委党校,,40,40,38,24,19,98,,117,110,3,11,3,9,0.6,0.6
2024-09-04T2000,1210A,119.036,33.5981,淮安市,钵池山,,36,36,21,13,13,103,,133,130,21,19,7,7,0.7,0.6
2024-09-04T2000,1211A,119.007,33.575,淮安市,北京南路,,36,29,22,18,13,113,,128,128,11,12,5,6,0.7,0.5
2024-09-04T2000,1212A,118.989,33.6067,淮安市,市监测站,,39,29,21,22,13,124,,137,136,12,14,8,8,0.7,0.6
2024-09-04T2000,1213A,119.135,33.5039,淮安市,楚州区监测站,,39,39,31,20,12,91,,133,130,19,17,6,6,0.8,0.6
2024-09-04T2000,1214A,119.0186,33.6297,淮安市,淮阴区监测站,,41,41,26,14,11,103,,141,137,31,20,5,4,0.7,0.5
2024-09-04T2000,3426A,118.8755,33.2894,淮安市,新华书店,,43,43,27,21,13,117,,128,128,21,17,6,7,0.9,0.8
2024-09-04T2000,2282A,116.8004,33.975,淮北市,监测站,,47,42,40,20,18,148,,176,174,12,8,6,7,0.7,0.6
2024-09-04T2000,2283A,116.8091,33.9007,淮北市,烈山区政府,,46,44,44,18,21,145,,178,177,13,12,7,8,0.5,0.5
2024-09-04T2000,3330A,116.8873,33.9836,淮北市,杜集区检察院,颗粒物(PM10),53,55,44,24,21,138,,176,174,13,9,3,5,0.5,0.5
2024-09-04T2000,4017A,116.7923,33.9535,淮北市,市博物馆,,47,47,37,21,21,147,,181,178,16,11,5,7,0.7,0.7
2024-09-04T2000,2277A,116.8305,32.7727,淮南市,潘集区政府,颗粒物(PM10),55,60,43,38,24,114,,140,136,9,14,5,7,0.9,0.7
2024-09-04T2000,2278A,117.0067,32.6524,淮南市,师范学院,,48,48,42,23,22,133,,142,142,10,7,5,7,0.6,0.6
2024-09-04T2000,2279A,116.8569,32.5951,淮南市,谢家集区政府,,46,46,36,23,18,108,,139,136,32,13,7,9,0.7,0.7
2024-09-04T2000,2280A,116.8281,32.633,淮南市,八公山区政府,,39,38,39,27,21,111,,142,138,19,12,6,8,0.5,0.5
2024-09-04T2000,2281A,116.6325,32.6201,淮南市,焦岗湖风景区管理处,,27,26,32,9,13,85,,118,115,11,11,11,12,0.1,0.1
2024-09-04T2000,2894A,117.0566,32.6531,淮南市,经济技术开发区消防队,,49,41,30,34,11,102,,140,136,23,11,4,6,0.6,0.5
2024-09-04T2000,3329A,117.0108,32.5893,淮南市,山南新区,颗粒物(PM10),53,55,45,27,20,140,,144,144,12,11,4,5,0.7,0.7
2024-09-04T2000,2446A,114.9028,30.4742,黄冈市,职工中心,,47,47,45,26,24,124,,146,142,12,12,8,12,0.7,1
2024-09-04T2000,2929A,114.8858,30.4519,黄冈市,红卫路,,42,39,42,29,27,134,,154,152,12,16,8,11,0.5,0.8
2024-09-04T2000,3398A,114.9136,30.4445,黄冈市,市林业局,,48,48,53,21,25,130,,163,159,11,16,6,10,0.4,0.7
2024-09-04T2000,2672A,102.0199,35.5102,黄南藏族自治州,同仁县隆务镇,,23,18,19,3,6,71,,76,75,5,3,10,10,0.5,0.5
2024-09-04T2000,2295A,118.2903,29.6963,黄山市,延安路89号,颗粒物(PM10),51,52,50,25,17,94,,120,116,5,5,6,6,0.5,0.6
2024-09-04T2000,2296A,118.327,29.7178,黄山市,黄山东路89号,,29,29,34,11,19,83,,115,109,7,5,4,4,0.5,0.7
2024-09-04T2000,2297A,118.1371,30.2756,黄山市,黄山区政府5号楼,"颗粒物(PM10),细颗粒物(PM2.5)",52,53,38,36,25,64,,119,112,11,7,6,6,0.7,0.6
2024-09-04T2000,2423A,115.0601,30.2313,黄石市,沈家营,颗粒物(PM10),53,55,50,25,19,105,,151,144,28,13,30,10,0.8,0.7
2024-09-04T2000,2424A,115.0817,30.2006,黄石市,陈家湾,颗粒物(PM10),54,58,51,21,19,128,,149,146,4,8,11,9,0.6,0.6
2024-09-04T2000,2426A,114.8988,30.2019,黄石市,铁山,,45,45,39,23,21,126,,170,166,10,8,6,6,0.7,0.6
2024-09-04T2000,2427A,115.0307,30.2092,黄石市,团城山,,43,43,40,30,19,124,,166,161,11,9,10,10,0.7,0.7
2024-09-04T2000,3149A,115.0235,30.1578,黄石市,笔架山北路,颗粒物(PM10),53,55,43,20,15,117,,151,146,8,5,7,7,0.6,0.5
2024-09-04T2000,1392A,114.4183,23.0528,惠州市,河南岸金山湖子站,,31,31,25,21,15,51,,110,93,14,6,4,4,0.8,0.8
2024-09-04T2000,1393A,114.4053,23.0822,惠州市,下埔横江三路子站,,,32,27,19,16,59,,116,98,,9,4,4,,0.7
2024-09-04T2000,1394A,114.4103,23.1142,惠州市,江北云山西路子站,,28,28,27,12,14,66,,114,100,8,7,4,4,0.8,0.8
2024-09-04T2000,1395A,114.4645,22.7833,惠州市,惠阳区承修路船湖子站,,,29,28,20,16,99,,107,102,14,18,5,5,,0.6
2024-09-04T2000,1396A,114.5317,22.7422,惠州市,大亚湾管委会子站,,32,32,28,17,16,99,,121,116,11,16,7,7,0.6,0.6
2024-09-04T2000,3314A,114.4338,22.8134,惠州市,惠阳秋长,,33,24,22,23,16,102,,129,118,16,17,5,5,0.5,0.6
2024-09-04T2000,3452A,114.6517,22.775,惠州市,大亚湾霞涌,,23,13,26,7,10,71,,110,104,11,12,4,4,0.7,0.8
2024-09-04T2000,2240A,130.9762,45.3001,鸡西市,环保局,,40,40,53,15,18,5,,34,25,30,26,6,7,0.5,0.4
2024-09-04T2000,2243A,130.9429,45.3039,鸡西市,第一中学,,50,50,46,20,13,10,,31,25,31,29,5,5,0.4,0.2
2024-09-04T2000,3707A,131.0207,45.3073,鸡西市,欧美日汽修厂,,26,26,40,14,16,14,,40,34,23,24,4,5,0.2,0.2
2024-09-04T2000,3709A,130.9967,45.3106,鸡西市,市政设施管理处,颗粒物(PM10),55,59,53,26,16,2,,32,22,33,32,6,7,0.6,0.3
2024-09-04T2000,2367A,114.9754,27.0803,吉安市,红声器材厂,细颗粒物(PM2.5),62,61,45,44,26,103,,130,127,19,14,7,7,0.7,0.6
2024-09-04T2000,2368A,114.9658,27.0999,吉安市,市森林工业局,,45,45,43,31,29,106,,131,129,20,20,8,9,0.6,0.6
2024-09-04T2000,2369A,114.99,27.1312,吉安市,市环境监测站,,42,42,40,27,24,107,,134,131,20,13,13,13,0.8,0.7
2024-09-04T2000,2370A,115.0093,27.0968,吉安市,青原区法院,,42,42,41,27,27,109,,128,126,14,16,8,10,0.8,0.7
2024-09-04T2000,1772A,126.54,43.8622,吉林市,哈达湾,,25,16,25,10,14,78,,72,72,12,20,5,5,0.6,0.6
2024-09-04T2000,1773A,126.5844,43.8358,吉林市,东局子,,21,17,20,14,10,65,,69,68,21,14,4,4,0.7,0.6
2024-09-04T2000,1774A,126.5052,43.8245,吉林市,电力学院,,25,,30,14,17,77,,67,67,8,19,3,4,0.6,0.6
2024-09-04T2000,1775A,126.6133,43.8972,吉林市,江北,,48,48,38,16,13,51,,64,63,27,12,6,7,0.8,0.7
2024-09-04T2000,1776A,126.555,43.8306,吉林市,江南公园,,30,,23,21,16,74,,72,72,12,16,4,5,0.8,0.7
2024-09-04T2000,1778A,126.7061,43.7133,吉林市,丰满,,,,,,,,,,,,,,,,
2024-09-04T2000,2868A,126.4739,43.953,吉林市,九站,,30,25,39,10,14,93,,73,73,9,21,6,7,0.7,0.7
2024-09-04T2000,1299A,116.9862,36.6114,济南市,科干所,,47,46,45,20,17,149,,176,171,12,21,8,8,0.6,0.7
2024-09-04T2000,1300A,116.9376,36.665,济南市,农科所,,44,44,49,17,20,136,,172,165,22,30,8,9,0.6,0.6
2024-09-04T2000,1301A,117.1265,36.6734,济南市,开发区,,44,42,48,22,23,138,,174,166,28,35,8,9,0.6,0.5
2024-09-04T2000,1303A,117.0624,36.6868,济南市,省种子仓库,臭氧1小时,58,44,55,14,18,166,,174,172,14,40,7,8,0.6,0.7
2024-09-04T2000,1304A,116.9489,36.6447,济南市,机床二厂,,49,49,58,12,16,146,,182,175,27,32,10,10,0.7,0.7
2024-09-04T2000,1305A,117.0495,36.663,济南市,市监测站,,50,39,48,20,20,157,,176,173,23,38,12,11,0.6,0.6
2024-09-04T2000,1306A,116.7675,36.5484,济南市,长清党校,臭氧1小时,73,39,43,17,21,178,,198,197,16,23,10,9,0.8,0.8
2024-09-04T2000,1616A,117.6795,36.229,济南市,技术学院,,46,34,41,19,17,146,,186,179,16,21,12,14,0.9,0.9
2024-09-04T2000,1961A,117.532,36.6868,济南市,东山小学,颗粒物(PM10),53,56,50,22,20,121,,193,184,37,28,7,9,0.8,0.8
2024-09-04T2000,3059A,117.7161,36.2049,济南市,泰兴公司,颗粒物(PM10),53,56,45,24,19,126,,183,174,32,35,12,14,0.6,0.6
2024-09-04T2000,3064A,117.6867,36.2171,济南市,莱芜战役纪念馆,,47,41,46,22,17,150,,178,173,16,24,9,10,0.6,0.7
2024-09-04T2000,3494A,117.1673,36.9782,济南市,济阳区政府,,,85,60,32,21,121,,195,184,53,29,,13,0.7,0.8
2024-09-04T2000,3495A,117.1171,36.63,济南市,锦屏中学,,36,34,33,17,15,113,,180,170,23,19,5,7,0.7,0.6
2024-09-04T2000,3682A,116.9814,36.6819,济南市,济南四建,,50,36,46,20,20,157,,179,175,16,28,10,10,0.7,0.7
2024-09-04T2000,1653A,116.6251,35.4302,济宁市,火炬城,,48,43,46,22,20,151,,161,160,14,15,9,12,0.8,0.8
2024-09-04T2000,1655A,116.5491,35.4042,济宁市,电化厂,,,,53,,26,164,,172,171,,19,10,11,0.8,0.8
2024-09-04T2000,3500A,116.5814,35.3707,济宁市,北湖一中,,48,40,46,17,21,153,,166,164,14,16,5,7,0.5,0.5
2024-09-04T2000,3501A,116.8249,35.5593,济宁市,服务中心,,49,49,48,19,18,148,,164,162,16,23,6,8,0.5,0.6
2024-09-04T2000,3678A,116.5907,35.4054,济宁市,市第七中学,,48,44,46,14,20,152,,164,162,16,17,6,9,0.6,0.7
2024-09-04T2000,2255A,130.2751,46.8028,佳木斯市,佳纺,,17,16,22,9,9,53,,64,50,5,11,6,6,0.5,0.4
2024-09-04T2000,2256A,130.3995,46.8307,佳木斯市,发电厂,,21,21,21,8,9,28,,61,43,22,14,6,7,0.6,0.6
2024-09-04T2000,2257A,130.3258,46.7975,佳木斯市,环保局,,18,13,18,12,9,40,,62,50,9,12,8,8,0.5,0.5
2024-09-04T2000,2258A,130.3648,46.8032,佳木斯市,十一中,,26,18,20,18,10,35,,60,43,19,18,7,7,0.5,0.4
2024-09-04T2000,2259A,130.3794,46.7588,佳木斯市,四丰,,18,14,12,11,6,56,,60,50,7,9,1,1,0.4,0.4
2024-09-04T2000,1252A,120.7436,30.778,嘉兴市,清河小学,,,20,24,11,12,95,,131,128,,21,6,5,0.8,0.9
2024-09-04T2000,1253A,120.726,30.7478,嘉兴市,嘉兴学院,,29,23,26,11,14,92,,126,122,16,16,2,2,0.6,0.5
2024-09-04T2000,2872A,120.7846,30.7525,嘉兴市,南湖区残联,,32,24,25,12,14,100,,136,133,17,14,5,4,0.5,0.5
2024-09-04T2000,3407A,120.6916,30.7739,嘉兴市,秀洲住建,,28,24,24,16,16,89,,130,125,16,14,4,4,0.6,0.6
2024-09-04T2000,1945A,98.2908,39.7711,嘉峪关市,气象局,,29,14,23,7,10,92,,93,93,9,13,6,11,0.2,0.5
2024-09-04T2000,2884A,98.2672,39.7978,嘉峪关市,酒钢宾馆,,29,7,18,3,12,92,,97,97,10,18,12,24,0.3,0.5
2024-09-04T2000,3248A,98.2643,39.7724,嘉峪关市,雄关区,,26,17,28,8,16,83,,90,90,13,18,8,9,0.3,0.5
2024-09-04T2000,1383A,113.1064,22.6058,江门市,北街,臭氧1小时,117,47,36,38,26,234,,246,246,26,20,4,4,0.7,0.6
2024-09-04T2000,1384A,113.0731,22.5835,江门市,西区,臭氧1小时,118,49,39,38,23,235,,247,247,27,21,6,6,1.0,0.8
2024-09-04T2000,1385A,113.0219,22.5311,江门市,圭峰西,臭氧1小时,121,49,36,42,28,241,,227,227,16,14,2,2,0.5,0.5
2024-09-04T2000,1386A,113.0828,22.5947,江门市,东湖,臭氧1小时,115,57,36,41,25,229,,234,234,21,17,5,5,0.7,0.6
2024-09-04T2000,3311A,113.1075,22.5647,江门市,江海富民,臭氧1小时,111,61,47,25,31,221,,245,245,30,20,6,6,1.0,0.8
2024-09-04T2000,3449A,113.05,22.4667,江门市,新会银湖,细颗粒物(PM2.5),75,58,39,55,31,150,,205,205,17,15,4,4,0.9,0.7
2024-09-04T2000,1828A,113.227,35.2125,焦作市,市环保局,"颗粒物(PM10),细颗粒物(PM2.5)",65,79,52,47,31,162,,182,180,29,21,2,7,0.5,0.5
2024-09-04T2000,1830A,113.1992,35.2590,焦作市,影视城,,,,,,,,,,,,,,,,
2024-09-04T2000,3169A,113.2725,35.2067,焦作市,太极体育中心,臭氧1小时,84,72,58,38,29,187,,186,186,14,18,2,7,0.7,0.7
2024-09-04T2000,3335A,113.3137,35.2641,焦作市,马村街道办,细颗粒物(PM2.5),73,70,53,53,32,174,,179,178,17,18,4,3,0.7,0.6
2024-09-04T2000,3336A,113.2465,35.2373,焦作市,焦作技师学院,颗粒物(PM10),65,79,56,44,30,159,,174,172,27,18,7,6,0.8,0.6
2024-09-04T2000,3477A,113.1656,35.2539,焦作市,中站许衡医院,颗粒物(PM10),53,55,43,34,21,158,,174,173,24,17,6,6,0.6,0.5
2024-09-04T2000,3981A,113.2449,35.1803,焦作市,原李万街道办,臭氧1小时,62,66,52,41,29,169,,179,179,22,13,2,7,0.4,0.4
2024-09-04T2000,1708A,116.3701,23.5345,揭阳市,新兴,颗粒物(PM10),54,57,35,20,19,83,,104,102,15,12,6,6,0.7,0.6
2024-09-04T2000,1709A,116.3264,23.5443,揭阳市,西马,颗粒物(PM10),53,55,38,20,18,86,,100,100,8,8,6,7,0.6,0.7
2024-09-04T2000,1710A,116.3611,23.5626,揭阳市,东兴,颗粒物(PM10),53,55,38,17,17,83,,94,94,14,11,8,6,0.9,0.8
2024-09-04T2000,1711A,116.4151,23.5294,揭阳市,渔湖,颗粒物(PM10),52,53,36,20,14,77,,95,94,15,14,6,6,0.6,0.6
2024-09-04T2000,3320A,116.403,23.5699,揭阳市,曲溪,,46,46,36,24,17,77,,94,93,12,9,4,7,0.6,0.5
2024-09-04T2000,1944A,102.1692,38.5167,金昌市,天庆家园,,26,,17,16,5,82,,105,92,16,4,8,7,0.7,0.4
2024-09-04T2000,3170A,102.1864,38.5253,金昌市,市委党校,,36,36,14,17,4,92,,112,101,14,4,6,8,1.0,0.6
2024-09-04T2000,4022A,102.1647,38.5371,金昌市,金川区人防中心,,29,20,18,13,4,92,,98,97,12,3,9,10,0.7,0.6
2024-09-04T2000,1262A,119.647,29.077,金华市,十五中,,28,28,40,12,23,88,,150,140,19,14,2,2,0.7,0.7
2024-09-04T2000,1263A,119.686,29.1029,金华市,监测站,,38,38,40,23,26,79,,148,138,27,17,3,3,0.6,0.7
2024-09-04T2000,3659A,119.656,29.1131,金华市,气象局,,46,46,38,30,19,72,,151,140,36,18,5,4,0.7,0.7
2024-09-04T2000,1767A,121.1115,41.0879,锦州市,南山,,30,,31,21,20,81,,106,104,22,27,6,9,0.8,0.7
2024-09-04T2000,1768A,121.0533,40.8434,锦州市,开发区,,,,50,,14,,,103,,,26,,17,,0.8
2024-09-04T2000,1769A,121.1836,41.1119,锦州市,百股街道,,29,21,24,17,9,90,,103,102,14,15,8,15,1.0,0.9
2024-09-04T2000,1770A,121.1178,41.1222,锦州市,天安街道,,33,22,30,17,16,105,,107,107,19,23,7,9,1.1,0.8
2024-09-04T2000,1771A,121.1303,41.1386,锦州市,北湖公园,,42,,28,29,17,97,,111,111,15,19,6,9,1.0,0.7
2024-09-04T2000,2160A,112.85,35.5051,晋城市,自来水公司,臭氧1小时,95,67,51,39,24,196,,183,183,19,16,12,9,0.8,0.7
2024-09-04T2000,2161A,112.8318,35.4936,晋城市,白云商贸,臭氧1小时,84,88,44,34,21,187,,178,178,19,16,11,10,1.1,0.9
2024-09-04T2000,2162A,112.8508,35.4887,晋城市,市环保局,臭氧1小时,85,82,61,39,24,188,,177,177,17,15,12,10,0.9,0.7
2024-09-04T2000,2163A,112.8676,35.4897,晋城市,技术学院,臭氧1小时,74,66,45,39,23,179,,167,167,19,17,14,10,1.0,0.9
2024-09-04T2000,2165A,112.8453,35.546,晋城市,白马寺,,,,,,,,,,,,,,,,
2024-09-04T2000,3620A,112.8271,35.4828,晋城市,泽州一中,臭氧1小时,73,74,48,41,23,178,,171,171,20,17,11,10,1.1,1
2024-09-04T2000,2171A,112.7532,37.6945,晋中市,锦纶小区,颗粒物(PM10),65,80,47,31,25,112,,158,156,28,13,12,11,1.1,0.7
2024-09-04T2000,2173A,112.7249,37.7067,晋中市,南都小区,颗粒物(PM10),62,74,49,43,28,110,,159,156,26,15,8,7,1.2,0.9
2024-09-04T2000,2174A,112.6991,37.6982,晋中市,榆次区政府,颗粒物(PM10),71,92,49,31,23,100,,155,151,34,15,12,9,0.9,0.8
2024-09-04T2000,2865A,112.7195,37.6828,晋中市,榆次三中,颗粒物(PM10),73,95,50,39,25,105,,158,155,31,15,10,8,1.1,0.8
2024-09-04T2000,2439A,112.2014,31.0481,荆门市,竹园小学,颗粒物(PM10),55,59,67,35,38,134,,159,158,18,19,11,12,0.9,0.9
2024-09-04T2000,2440A,112.1969,30.9891,荆门市,掇刀,"颗粒物(PM10),细颗粒物(PM2.5)",52,53,60,36,37,128,,164,160,16,15,14,17,0.8,0.8
2024-09-04T2000,2441A,112.2213,31.0386,荆门市,石化一小,,,,72,,36,127,,166,162,20,19,25,15,,0.8
2024-09-04T2000,3012A,112.1849,31.0362,荆门市,西山林语,颗粒物(PM10),54,57,59,36,36,138,,165,162,15,18,9,11,0.8,0.8
2024-09-04T2000,3547A,112.1632,31.0138,荆门市,龙泉中学南校,颗粒物(PM10),56,61,56,34,33,141,,163,162,12,15,8,10,0.6,0.6
2024-09-04T2000,1844A,112.2494,30.3197,荆州市,市图书馆,,50,40,50,35,35,108,,151,142,13,22,6,6,1.0,1
2024-09-04T2000,1845A,112.2008,30.3544,荆州市,市委党校,细颗粒物(PM2.5),54,47,55,38,37,104,,170,158,15,14,8,8,1.0,1
2024-09-04T2000,3194A,112.2747,30.3122,荆州市,管委会,,46,39,50,32,34,104,,152,142,16,17,5,6,0.8,0.8
2024-09-04T2000,3548A,112.1655,30.3364,荆州市,学苑路,细颗粒物(PM2.5),55,44,59,39,45,107,,181,168,16,15,27,10,0.9,1
2024-09-04T2000,2342A,117.3102,29.3867,景德镇市,王港中学,,,,,,,,,,,,,,,,
2024-09-04T2000,2343A,117.2117,29.2933,景德镇市,老干部活动中心,,43,43,34,29,23,68,,115,107,12,8,4,8,0.4,0.4
2024-09-04T2000,2344A,117.1894,29.2789,景德镇市,兽医站,,49,49,33,26,23,125,,116,113,11,6,7,9,0.6,0.5
2024-09-04T2000,2345A,117.1547,29.2617,景德镇市,台达陶瓷,细颗粒物(PM2.5),52,43,29,36,22,43,,110,98,46,8,38,10,0.8,0.4
2024-09-04T2000,2346A,117.2461,29.2956,景德镇市,陶研所,,36,36,34,21,23,73,,119,108,10,12,4,4,0.4,0.4
2024-09-04T2000,1803A,115.9872,29.6815,九江市,十里,,46,46,40,25,24,108,,143,136,17,13,8,9,0.8,1
2024-09-04T2000,1804A,115.9584,29.7046,九江市,茅山头,,,,40,34,25,109,,151,142,15,14,8,11,0.8,0.8
2024-09-04T2000,1805A,115.9877,29.7295,九江市,西园,,46,39,36,32,24,118,,151,149,12,11,7,7,0.8,0.8
2024-09-04T2000,1806A,116.0172,29.6547,九江市,五七二七厂,,48,34,36,33,28,87,,140,132,13,13,9,11,0.7,0.9
2024-09-04T2000,1808A,115.9114,29.6038,九江市,综合工业园,细颗粒物(PM2.5),53,38,43,37,31,111,,167,161,21,12,9,8,1.0,1.2
2024-09-04T2000,1809A,116.0721,29.7535,九江市,石化总厂,颗粒物(PM10),56,61,48,34,29,103,,132,128,26,14,10,11,0.9,0.9
2024-09-04T2000,1810A,115.9773,29.5698,九江市,庐山气象台,,40,37,30,28,24,118,,134,134,6,3,25,10,1.1,1
2024-09-04T2000,3190A,116.0254,29.6994,九江市,外国语学校,颗粒物(PM10),51,52,40,34,23,106,,146,140,20,13,8,10,0.8,0.7
2024-09-04T2000,2658A,98.5061,39.7443,酒泉市,仓门街子站,,22,17,7,9,9,69,,88,86,15,6,8,8,0.4,0.3
2024-09-04T2000,2659A,98.4989,39.7256,酒泉市,油田生活基地,,25,9,9,7,6,78,,89,87,12,6,8,8,0.3,0.3
2024-09-04T2000,2698A,76.0072,39.4467,喀什地区,巡警大队,颗粒物(PM10),90,130,324,18,46,102,,100,100,7,15,3,3,0.4,0.4
2024-09-04T2000,2699A,75.9755,39.4694,喀什地区,吾办,颗粒物(PM10),96,141,328,51,66,107,,105,105,10,15,1,2,0.3,0.5
2024-09-04T2000,4027A,75.9483,39.4689,喀什地区,老干局,颗粒物(PM10),97,144,335,22,44,101,,97,97,6,12,4,3,0.3,0.4
2024-09-04T2000,1824A,114.3389,34.7781,开封市,肿瘤医院,,,82,59,21,20,118,,153,147,16,17,4,7,,0.4
2024-09-04T2000,1826A,114.2885,34.7965,开封市,世纪星幼儿园,,,73,51,,,115,,148,143,13,12,1,2,0.8,0.7
2024-09-04T2000,3147A,114.3438,34.8106,开封市,龙亭公园,颗粒物(PM10),57,64,52,25,19,126,,155,151,13,14,4,5,0.8,0.7
2024-09-04T2000,3210A,114.3644,34.7964,开封市,汴京公园,"颗粒物(PM10),细颗粒物(PM2.5)",55,60,53,39,22,126,,155,151,13,14,4,5,0.7,0.6
2024-09-04T2000,3473A,114.2485,34.8306,开封市,技师学院,,,,,,,,,,,,,,,,
2024-09-04T2000,3592A,114.4644,34.7556,开封市,祥符区生态环境局,颗粒物(PM10),55,60,53,35,25,105,,151,143,28,21,5,6,0.7,0.6
2024-09-04T2000,1951A,84.895,45.6094,克拉玛依市,长征新村,,30,23,15,3,3,95,,92,92,7,7,6,6,0.2,0.2
2024-09-04T2000,1952A,84.8988,45.5893,克拉玛依市,南林小区,,30,11,15,3,9,95,,95,95,8,13,9,10,0.3,0.3
2024-09-04T2000,1954A,84.905,44.3396,克拉玛依市,独山子区,,37,20,15,10,6,116,,110,110,9,10,11,8,0.3,0.3
2024-09-04T2000,1955A,85.6979,46.098,克拉玛依市,乌尔禾区商贸楼,,28,8,16,3,6,88,,93,93,5,12,12,10,0.4,0.4
2024-09-04T2000,3612A,85.1045,45.6899,克拉玛依市,白碱滩区新站,,34,12,14,3,4,106,,99,99,5,8,9,9,0.1,0.1
2024-09-04T2000,2697A,76.1454,39.7142,克孜勒苏柯尔克孜自治州,市人民政府,颗粒物(PM10),86,122,275,31,58,116,,113,113,1,5,2,2,0.5,0.5
2024-09-04T2000,3665A,76.1658,39.7157,克孜勒苏柯尔克孜自治州,克州文化中心,颗粒物(PM10),82,113,284,26,57,114,,114,114,2,4,4,4,0.4,0.4
2024-09-04T2000,1450A,102.8204,24.8886,昆明市,呈贡新区,,27,27,28,11,14,60,,73,73,13,19,3,5,0.5,0.6
2024-09-04T2000,1451A,102.6251,24.9608,昆明市,西山森林公园,,,,,,,,,,,,,,,,
2024-09-04T2000,1452A,102.7252,25.0902,昆明市,龙泉镇,,30,30,23,9,13,58,,64,64,15,16,6,6,0.8,0.9
2024-09-04T2000,1453A,102.7266,25.0375,昆明市,东风东路,,20,20,25,13,16,58,,70,70,20,25,4,5,0.6,0.6
2024-09-04T2000,1454A,102.6742,25.0669,昆明市,金鼎山,,,40,34,9,14,53,,67,66,19,22,2,2,,0.6
2024-09-04T2000,1455A,102.6644,25.0401,昆明市,碧鸡广场,,16,16,24,8,11,51,,69,68,21,19,3,4,0.6,0.6
2024-09-04T2000,3179A,102.7494,25.0119,昆明市,官渡区博物馆,,20,17,28,12,12,62,,80,79,16,22,6,6,0.3,0.4
2024-09-04T2000,3375A,102.8017,24.8336,昆明市,青年创业园,,19,,5,10,13,60,,70,70,9,15,4,4,0.5,0.6
2024-09-04T2000,3550A,102.7997,24.9786,昆明市,昆明学院,,21,18,30,8,14,67,,79,79,20,22,6,6,0.4,0.5
2024-09-04T2000,3551A,102.5967,24.6736,昆明市,晋宁区生态环境分局,,22,22,20,3,10,36,,55,52,13,12,2,3,0.6,0.6
2024-09-04T2000,3552A,102.6678,24.9856,昆明市,云天化总部,,,15,21,8,13,57,,74,73,,18,6,6,,0.6
2024-09-04T2000,1456A,91.1319,29.6514,拉萨市,八廓街,,31,12,12,6,8,97,,110,110,14,12,8,7,0.3,0.2
2024-09-04T2000,1457A,91.1221,29.6747,拉萨市,市环保局,,32,12,11,6,7,102,,113,113,12,9,8,7,0.3,0.3
2024-09-04T2000,1458A,91.0874,29.6475,拉萨市,区监测站,,,6,9,3,6,88,,104,103,18,11,,8,0.3,0.2
2024-09-04T2000,1459A,91.1774,29.6541,拉萨市,西藏大学,,32,10,12,7,8,101,,110,110,10,8,7,6,0.3,0.3
2024-09-04T2000,1460A,90.9798,29.6588,拉萨市,区辐射站,,26,26,13,8,6,82,,98,97,24,11,8,8,0.2,0.2
2024-09-04T2000,1461A,91.0834,29.6292,拉萨市,拉萨火车站,,29,11,8,7,5,92,,99,99,11,7,6,5,0.2,0.1
2024-09-04T2000,2520A,109.2203,23.7256,来宾市,来宾技工学校,,41,32,25,20,14,130,,140,140,11,12,9,8,0.8,0.8
2024-09-04T2000,3535A,109.1781,23.7297,来宾市,兴宾区政府,,45,22,24,9,12,144,,136,136,9,9,6,7,0.8,0.8
2024-09-04T2000,4002A,109.2416,23.7461,来宾市,中南小学,,,,26,,12,137,,152,152,13,11,4,9,,0.8
2024-09-04T2000,1476A,103.631,36.1031,兰州市,兰炼宾馆,,42,,33,29,26,84,,84,83,4,5,3,4,0.2,0.3
2024-09-04T2000,1477A,104.1373,35.9454,兰州市,榆中兰大校区,,,,,,,,,,,,,,,,
2024-09-04T2000,1478A,103.8412,36.0726,兰州市,生物制品所,,35,,33,24,23,78,,79,78,12,12,8,7,0.4,0.4
2024-09-04T2000,1479A,103.831,36.0464,兰州市,铁路设计院,,28,,36,19,23,73,,80,74,22,18,6,6,0.4,0.4
2024-09-04T2000,3186A,103.7158,36.1058,兰州市,教育港,,48,,45,33,30,82,,84,83,8,8,5,5,0.3,0.3
2024-09-04T2000,3241A,103.7439,36.0842,兰州市,百合公园,,26,19,39,15,19,83,,83,80,9,9,8,7,0.4,0.4
2024-09-04T2000,3242A,103.9611,35.998,兰州市,和平,,28,9,35,3,16,87,,89,88,8,8,9,8,0.2,0.4
2024-09-04T2000,3245A,103.6633,36.533,兰州新区,新区管委会,,26,24,25,18,18,81,,90,83,4,4,10,6,0.3,0.4
2024-09-04T2000,3246A,103.6975,36.4789,兰州新区,舟曲中学,,25,6,14,3,5,78,,93,83,9,6,9,9,0.4,0.4
2024-09-04T2000,1067A,116.6708,39.5111,廊坊市,药材公司,颗粒物(PM10),60,70,61,34,25,50,,133,126,33,22,2,5,0.5,0.5
2024-09-04T2000,1068A,116.7214,39.5589,廊坊市,开发区,颗粒物(PM10),59,67,59,35,27,51,,120,113,22,22,1,4,0.6,0.5
2024-09-04T2000,1070A,116.7244,39.5269,廊坊市,北华航天学院,颗粒物(PM10),65,79,70,32,26,53,,136,128,27,20,2,5,0.6,0.6
2024-09-04T2000,2919A,116.7022,39.5453,廊坊市,河北工业大学,颗粒物(PM10),53,55,58,36,28,49,,131,120,29,19,2,6,0.6,0.5
2024-09-04T2000,2535A,103.7723,29.5462,乐山市,花湖湾,,38,38,33,23,33,108,,144,142,15,17,6,7,0.6,0.8
2024-09-04T2000,2536A,103.7627,29.5844,乐山市,牛耳桥,,33,29,41,23,34,105,,152,145,16,22,3,3,0.6,0.8
2024-09-04T2000,2537A,103.7508,29.6006,乐山市,市第三水厂,,33,29,40,18,30,104,,158,150,20,22,3,4,0.5,0.6
2024-09-04T2000,2538A,103.7571,29.5664,乐山市,市监测站,,35,32,41,24,30,106,,151,145,13,16,4,6,0.9,1.1
2024-09-04T2000,3361A,103.7311,29.5628,乐山市,理工大学,,40,40,45,25,32,102,,162,155,18,18,6,8,0.7,0.8
2024-09-04T2000,2598A,100.2143,26.8576,丽江市,西南郊,,,,,,,,,,,,,,,,
2024-09-04T2000,2599A,100.2497,26.8802,丽江市,丽江古城,,23,,14,16,13,49,,60,60,11,10,8,9,0.9,0.8
2024-09-04T2000,2600A,100.2203,26.8906,丽江市,市中心,,22,,9,15,10,36,,60,60,22,12,9,9,0.7,0.6
2024-09-04T2000,1267A,119.914,28.4514,丽水市,监测站大楼,,42,,25,29,14,110,,100,100,10,11,2,2,0.5,0.6
2024-09-04T2000,1268A,119.93,28.4586,丽水市,莲都小学,,39,39,26,18,12,120,,104,104,7,11,4,4,0.5,0.5
2024-09-04T2000,1269A,119.879,28.4231,丽水市,余庄前,,36,33,28,25,14,63,,94,88,15,11,4,4,0.5,0.5
2024-09-04T2000,1173A,119.176,34.5885,连云港市,市环境监测站,,36,31,26,12,10,113,,150,143,13,13,8,8,0.4,0.4
2024-09-04T2000,3000A,119.3581,34.6972,连云港市,德源药业,,34,34,27,9,7,63,,120,108,36,25,6,7,0.3,0.4
2024-09-04T2000,3007A,119.178,34.844,连云港市,新城一中,,32,32,33,7,15,94,,179,163,38,31,4,6,0.6,0.6
2024-09-04T2000,3008A,119.3608,34.7519,连云港市,胡沟管理处,,33,22,31,7,10,104,,153,138,14,28,6,8,0.6,0.6
2024-09-04T2000,3009A,119.1478,34.5911,连云港市,矿山设计院,,35,29,24,12,11,110,,142,137,12,12,7,9,0.6,0.6
2024-09-04T2000,3434A,119.2413,34.6539,连云港市,工贸学校,,36,19,21,10,11,115,,144,139,9,10,8,8,0.7,0.7
2024-09-04T2000,3664A,119.4172,34.7341,连云港市,连云街道,,31,19,25,8,11,99,,152,137,10,14,5,6,0.6,0.6
2024-09-04T2000,2571A,102.3431,27.8099,凉山彝族自治州,青龙寺,,,,15,9,12,65,,78,78,6,8,6,6,,0.7
2024-09-04T2000,2572A,102.2721,27.8415,凉山彝族自治州,邛海宾馆,,21,18,18,13,14,66,,81,81,9,13,10,15,0.5,0.7
2024-09-04T2000,2573A,102.2625,27.898,凉山彝族自治州,西昌市政府,,23,11,16,8,12,73,,80,80,7,11,9,11,0.6,0.8
2024-09-04T2000,2574A,102.2685,27.8851,凉山彝族自治州,凉山州政府,,25,20,17,15,12,79,,86,86,9,11,8,13,0.5,0.8
2024-09-04T2000,2575A,102.237,27.8914,凉山彝族自治州,长安,,23,23,14,11,11,67,,81,81,12,12,9,10,0.7,1
2024-09-04T2000,2212A,123.2,41.1953,辽阳市,宏伟区,,36,26,27,25,20,95,,82,82,25,12,10,8,0.9,0.6
2024-09-04T2000,2213A,123.1683,41.2495,辽阳市,新华园,,40,40,36,28,20,78,,77,77,29,19,13,8,1.4,0.9
2024-09-04T2000,2214A,123.2354,41.2639,辽阳市,滨河路,,38,38,32,26,17,93,,82,82,24,14,9,9,1.1,0.7
2024-09-04T2000,2215A,123.149,41.2991,辽阳市,铁西工业园,,31,31,42,19,15,82,,80,80,27,16,15,10,1.5,0.9
2024-09-04T2000,2227A,125.1358,42.8845,辽源市,环保局,,34,34,27,19,13,80,,67,61,3,17,5,6,0.7,0.6
2024-09-04T2000,3239A,125.0764,42.9078,辽源市,银鹰制药,,27,20,22,15,12,86,,59,58,8,22,3,2,0.8,0.8
2024-09-04T2000,1625A,115.9848,36.4372,聊城市,区政府,颗粒物(PM10),54,58,47,22,16,130,,172,166,26,20,32,16,0.6,0.5
2024-09-04T2000,2878A,116.0072,36.4343,聊城市,聊大东校,颗粒物(PM10),51,51,50,18,25,132,,181,173,26,22,9,15,0.5,0.5
2024-09-04T2000,3200A,115.9819,36.4978,聊城市,监控中心,,50,50,46,22,17,134,,175,170,24,24,17,11,0.5,0.4
2024-09-04T2000,3513A,116.0445,36.4361,聊城市,九州社区,,45,45,54,18,21,123,,174,166,19,20,3,10,0.5,0.5
2024-09-04T2000,4018A,116.0567,36.4608,聊城市,星美广场,颗粒物(PM10),52,54,52,12,21,123,,177,167,20,21,8,11,0.4,0.4
2024-09-04T2000,2632A,94.3681,29.6376,林芝市,林芝监测站,,18,15,8,6,4,55,,66,64,3,2,9,9,0.4,0.4
2024-09-04T2000,2633A,94.3616,29.6616,林芝市,林芝人民医院,,20,20,9,7,4,57,,66,66,3,4,7,7,0.2,0.2
2024-09-04T2000,2603A,100.0781,23.8982,临沧市,市环保局,,29,29,20,19,16,36,,54,53,12,10,5,6,0.4,0.3
2024-09-04T2000,2604A,100.0894,23.8822,临沧市,市气象局,,,,18,,11,39,,54,52,9,11,6,6,,0.4
2024-09-04T2000,1733A,111.5531,36.0783,临汾市,临钢医院,颗粒物(PM10),56,62,66,8,26,79,,157,144,8,20,3,4,0.4,0.7
2024-09-04T2000,1734A,111.5028,36.0714,临汾市,技工学校,颗粒物(PM10),75,100,59,26,23,79,,156,141,9,14,4,5,0.5,0.8
2024-09-04T2000,1736A,111.5018,36.0855,临汾市,市委,颗粒物(PM10),68,86,52,11,21,76,,167,150,11,11,4,5,0.6,0.8
2024-09-04T2000,3018A,111.505,36.1014,临汾市,唐尧大酒店,颗粒物(PM10),69,87,79,9,23,83,,157,140,7,12,3,4,0.4,0.9
2024-09-04T2000,3668A,111.5036,36.0414,临汾市,城南,,38,38,54,7,22,79,,165,150,5,13,4,5,0.4,0.7
2024-09-04T2000,2667A,103.2069,35.5993,临夏回族自治州,环保局,,36,26,26,25,17,64,,82,79,14,4,6,7,0.3,0.3
2024-09-04T2000,2668A,103.2417,35.6057,临夏回族自治州,建设大厦,,25,25,19,15,14,63,,89,85,18,7,6,6,0.3,0.3
2024-09-04T2000,1618A,118.3429,35.0532,临沂市,沂河小区,,48,48,48,24,21,147,,186,181,20,17,11,12,0.5,0.6
2024-09-04T2000,1619A,118.295,35.0583,临沂市,鲁南制药厂,,48,34,42,19,19,151,,208,201,17,20,8,11,0.4,0.5
2024-09-04T2000,1620A,118.2794,34.9976,临沂市,新光毛纺厂,,43,34,37,17,18,136,,193,187,16,22,9,17,0.6,0.7
2024-09-04T2000,1621A,118.3956,35.0888,临沂市,河东保险公司,颗粒物(PM10),53,56,44,36,27,146,,198,190,33,30,10,10,0.9,0.9
2024-09-04T2000,3370A,118.3564,35.0215,临沂市,十里堡居委,,49,44,36,19,20,154,,190,185,17,16,14,13,0.7,0.8
2024-09-04T2000,3496A,118.3604,35.1084,临沂市,南坊新区,颗粒物(PM10),56,61,49,29,21,160,,196,192,24,21,12,12,0.8,0.7
2024-09-04T2000,3860A,118.3920,35.0300,临沂市,皇山花园小区,颗粒物(PM10),51,51,50,22,33,140,,174,170,25,23,10,11,0.7,0.7
2024-09-04T2000,1870A,109.4856,24.3895,柳州市,柳东小学,,35,25,20,18,10,109,,108,108,8,10,6,8,0.6,0.6
2024-09-04T2000,1871A,109.4157,24.3277,柳州市,环保监测站,,,52,25,17,13,105,,119,118,14,10,8,11,,0.9
2024-09-04T2000,1872A,109.389,24.341,柳州市,河西水厂,颗粒物(PM10),55,59,31,33,16,99,,119,118,12,10,11,11,1.0,1.1
2024-09-04T2000,1873A,109.4311,24.2921,柳州市,市四中,,46,46,25,21,12,101,,126,122,17,10,8,8,0.6,0.6
2024-09-04T2000,1874A,109.4006,24.3631,柳州市,市九中,颗粒物(PM10),51,51,31,9,12,101,,125,123,13,10,6,9,0.5,0.5
2024-09-04T2000,1875A,109.4958,24.3134,柳州市,古亭山,,32,,22,22,13,72,,115,110,19,11,7,8,1.2,1.1
2024-09-04T2000,3402A,109.5422,24.3996,柳州市,市二中,,,27,22,16,13,87,,110,106,16,10,19,8,,0.6
2024-09-04T2000,2307A,116.5079,31.737,六安市,监测大楼,,43,34,31,30,22,117,,131,130,8,6,4,5,0.7,0.6
2024-09-04T2000,2308A,116.4738,31.7643,六安市,皖西学院,,46,46,42,21,20,133,,138,138,5,6,4,5,0.4,0.4
2024-09-04T2000,2309A,116.4996,31.7905,六安市,朝阳厂,,40,32,32,28,20,123,,137,136,6,6,1,2,0.5,0.5
2024-09-04T2000,2310A,116.5567,31.7886,六安市,开发区,颗粒物(PM10),52,54,41,34,25,108,,133,131,10,8,3,3,0.6,0.5
2024-09-04T2000,2576A,104.8,26.5892,六盘水市,窑上,,,,,,,,,,,,,,,,
2024-09-04T2000,2577A,104.83,26.5917,六盘水市,黄土坡,,34,16,13,13,11,108,,92,92,9,8,6,7,0.4,0.4
2024-09-04T2000,2578A,104.89,26.5939,六盘水市,水钢,,35,17,18,8,9,109,,97,97,6,6,8,7,0.4,0.4
2024-09-04T2000,2579A,104.8475,26.5894,六盘水市,民中,,35,16,14,12,8,111,,93,93,8,8,7,7,0.4,0.4
2024-09-04T2000,2580A,104.9544,26.5506,六盘水市,双水,,34,19,15,9,7,106,,97,97,7,5,6,6,0.3,0.3
2024-09-04T2000,2335A,117.0189,25.1181,龙岩市,龙岩师专,,,,,,,,,,,,,,,,
2024-09-04T2000,2336A,117.0217,25.1033,龙岩市,龙岩市监测站,,22,,28,15,17,49,,76,62,10,14,8,8,0.5,0.5
2024-09-04T2000,2337A,117.0258,25.0661,龙岩市,闽西职业技术学院,,15,15,36,8,17,38,,78,64,15,19,6,9,0.5,0.5
2024-09-04T2000,2338A,117.0196,25.0306,龙岩市,龙岩学院,,26,26,28,10,14,16,,77,52,39,12,7,3,0.6,0.6
2024-09-04T2000,2665A,105.0822,33.3261,陇南市,汉王镇固水子,,,,,,,,,,,,,,,,
2024-09-04T2000,2885A,104.9339,33.3826,陇南市,滨江中学,,47,47,42,30,15,66,,105,96,11,6,6,6,0.5,0.4
2024-09-04T2000,3247A,104.955,33.371,陇南市,市总工会,,44,44,33,3,9,71,,105,96,8,5,7,7,0.6,0.6
2024-09-04T2000,2487A,111.9589,27.8901,娄底市,电视发射台,颗粒物(PM10),64,77,64,28,33,69,,111,103,5,5,7,7,0.7,0.7
2024-09-04T2000,2488A,111.9975,27.725,娄底市,市监测站,细颗粒物(PM2.5),52,46,60,36,39,118,,130,130,7,10,4,7,0.8,1
2024-09-04T2000,2489A,112.0194,27.7314,娄底市,市委党校,,48,37,52,33,36,98,,110,110,7,7,7,7,0.6,0.6
2024-09-04T2000,2490A,111.9561,27.7569,娄底市,涟钢,细颗粒物(PM2.5),68,78,56,49,40,85,,97,96,33,12,9,10,1.5,1
2024-09-04T2000,2491A,111.9892,27.7044,娄底市,市政府,,50,,47,35,39,103,,125,124,10,10,7,6,0.8,0.8
2024-09-04T2000,1893A,105.4324,28.9634,泸州市,九狮山,,25,,26,17,22,59,,133,122,10,6,5,6,0.2,0.5
2024-09-04T2000,1894A,105.4427,28.9063,泸州市,小市上码头,,33,19,33,3,22,104,,133,128,20,20,5,9,0.3,0.5
2024-09-04T2000,1895A,105.4241,28.8573,泸州市,兰田宪桥,,30,19,32,13,23,96,,127,122,21,21,7,10,0.4,0.5
2024-09-04T2000,1896A,105.4379,28.8833,泸州市,市环监站,,31,16,33,10,24,99,,123,121,22,16,7,11,0.3,0.5
2024-09-04T2000,3490A,105.3617,28.7703,泸州市,纳溪区环保局,,33,24,36,16,27,104,,127,121,24,23,7,10,0.3,0.4
2024-09-04T2000,2183A,111.1406,37.5211,吕梁市,环保局,,25,9,53,8,28,77,,85,84,6,17,2,3,0.5,0.7
2024-09-04T2000,2185A,111.1297,37.5136,吕梁市,自来水公司,,25,,47,13,28,78,,88,86,7,19,1,1,0.5,0.7
2024-09-04T2000,2867A,111.1283,37.51,吕梁市,马茂庄小学,,,,,,,,,,,,,,,,
2024-09-04T2000,1812A,112.3931,34.6516,洛阳市,市委党校,颗粒物(PM10),55,59,59,35,33,155,,196,194,14,14,9,11,0.9,0.8
2024-09-04T2000,1814A,112.4657,34.6871,洛阳市,豫西宾馆,臭氧1小时,59,65,62,36,30,167,,192,191,13,13,7,11,0.8,0.6
2024-09-04T2000,1815A,112.494,34.6886,洛阳市,河南林校,颗粒物(PM10),54,57,55,30,28,153,,186,185,18,18,6,10,0.7,0.7
2024-09-04T2000,1816A,112.3844,34.623,洛阳市,开发区管委会,,47,47,47,32,29,126,,187,182,13,14,4,9,0.7,0.6
2024-09-04T2000,1817A,112.4267,34.6258,洛阳市,市委新办公区,颗粒物(PM10),51,51,49,34,38,146,,187,184,11,10,7,9,0.8,0.7
2024-09-04T2000,3340A,112.6005,34.6326,洛阳市,伊滨,细颗粒物(PM2.5),65,61,57,47,34,137,,183,178,23,16,6,9,0.6,0.4
2024-09-04T2000,3341A,112.4951,34.6332,洛阳市,中移产业园,颗粒物(PM10),57,63,57,33,34,139,,188,184,27,14,4,8,0.9,0.7
2024-09-04T2000,3593A,112.5736,34.8993,洛阳市,吉利监测站,细颗粒物(PM2.5),62,72,55,44,30,120,,186,181,23,20,4,6,0.8,0.7
2024-09-04T2000,3635A,112.3677,34.662,洛阳市,河科大西苑校区,颗粒物(PM10),57,63,54,30,25,155,,206,203,19,13,8,11,1.0,0.8
2024-09-04T2000,3636A,112.4388,34.6781,洛阳市,英才小学,颗粒物(PM10),62,74,61,36,35,155,,192,191,22,13,6,8,0.9,0.7
2024-09-04T2000,2399A,114.051,33.5699,漯河市,三五一五工厂,颗粒物(PM10),53,56,44,30,22,136,,154,154,15,12,4,7,0.9,0.8
2024-09-04T2000,2400A,114.0055,33.5698,漯河市,漯河大学,,,50,44,29,22,140,,158,157,12,12,3,5,,0.8
2024-09-04T2000,2401A,114.0138,33.5828,漯河市,市水利局,,46,46,43,22,19,138,,154,153,8,8,3,4,0.7,0.6
2024-09-04T2000,2402A,114.0261,33.5698,漯河市,市广电局,,49,49,38,27,15,139,,159,157,12,11,6,8,0.7,0.6
2024-09-04T2000,3478A,113.9749,33.5664,漯河市,市图书馆,,49,35,46,34,24,130,,161,155,9,8,4,8,0.7,0.6
2024-09-04T2000,3479A,114.0967,33.5906,漯河市,召陵区卫健委,颗粒物(PM10),55,60,49,36,28,134,,157,156,13,13,4,6,0.7,0.6
2024-09-04T2000,1798A,118.5092,31.6837,马鞍山市,湖东路四小,细颗粒物(PM2.5),52,45,39,36,22,135,,156,155,17,16,5,6,0.8,0.8
2024-09-04T2000,1799A,118.5024,31.6449,马鞍山市,开发区,,49,49,40,28,23,132,,154,154,18,17,5,6,0.9,0.8
2024-09-04T2000,1800A,118.5228,31.7231,马鞍山市,慈湖,,46,44,35,27,21,145,,162,162,11,14,6,7,0.9,0.9
2024-09-04T2000,1802A,118.6245,31.7241,马鞍山市,濮塘,,40,31,28,27,21,128,,142,142,15,18,5,6,0.8,0.8
2024-09-04T2000,3633A,118.4918,31.6809,马鞍山市,雨山,,49,49,39,26,20,135,,154,154,14,12,6,7,0.9,1
2024-09-04T2000,1686A,111.0286,21.4688,茂名市,电白南海,颗粒物(PM10),53,56,50,36,36,118,,148,146,13,11,10,15,0.8,0.8
2024-09-04T2000,1687A,110.9294,21.6533,茂名市,茂石化七小,,45,44,50,31,32,75,,133,122,13,9,14,16,0.6,0.7
2024-09-04T2000,1688A,110.9107,21.6687,茂名市,健康路,,35,27,44,24,25,90,,137,126,10,9,22,22,0.7,0.7
2024-09-04T2000,1689A,110.8592,21.6828,茂名市,高岭,,,,47,,32,72,,122,110,16,12,23,28,,0.7
2024-09-04T2000,3450A,111.01,21.5165,茂名市,电白水东,细颗粒物(PM2.5),58,58,49,41,33,132,,156,153,12,11,9,17,0.6,0.7
2024-09-04T2000,2539A,104.0308,30.0478,眉山市,黑龙滩水库,二氧化硫,56,36,18,36,9,115,,142,140,10,4,190,147,0.7,0.8
2024-09-04T2000,2540A,103.8416,30.0874,眉山市,气象局,,44,44,42,17,28,115,,163,159,11,28,6,6,0.5,0.6
2024-09-04T2000,3137A,103.8578,30.0744,眉山市,市委党校,,38,27,39,17,24,120,,168,163,15,21,8,9,0.4,0.5
2024-09-04T2000,3148A,103.8291,30.0564,眉山市,区人社局,,44,44,31,17,21,103,,168,162,24,26,6,9,0.6,0.7
2024-09-04T2000,1690A,116.1231,24.3284,梅州市,梅江月梅,,17,7,20,3,8,54,,72,64,2,8,6,6,0.4,0.5
2024-09-04T2000,1691A,116.0797,24.2719,梅州市,梅县新城,,15,12,20,3,8,46,,76,66,11,9,8,5,0.6,0.6
2024-09-04T2000,1692A,116.1248,24.2654,梅州市,环境监控中心,,15,12,25,3,15,45,,72,62,14,15,8,7,0.4,0.5
2024-09-04T2000,3315A,116.1233,24.2991,梅州市,梅龙,,15,14,20,6,13,46,,76,66,11,10,14,11,0.5,0.6
2024-09-04T2000,1878A,104.7778,31.4741,绵阳市,富乐山,,40,27,41,27,32,126,,147,146,7,14,3,3,0.5,0.6
2024-09-04T2000,1879A,104.7563,31.4535,绵阳市,市人大,,39,32,46,27,29,99,,141,136,39,21,7,7,0.5,0.5
2024-09-04T2000,1880A,104.6697,31.4668,绵阳市,高新区自来水公司,,46,46,47,19,26,96,,152,145,38,19,1,2,0.7,0.7
2024-09-04T2000,1881A,104.7287,31.5075,绵阳市,三水厂,,34,34,50,18,36,96,,148,142,33,24,6,6,0.7,0.7
2024-09-04T2000,3491A,104.69,31.5322,绵阳市,西科大附属小学,,36,30,44,22,28,115,,149,145,18,19,4,4,0.5,0.7
2024-09-04T2000,3492A,104.5648,31.5343,绵阳市,安州区旅游局,,42,31,45,29,36,119,,169,165,16,13,7,8,0.6,0.7
2024-09-04T2000,1784A,129.61,44.561,牡丹江市,环保大楼,,20,16,24,14,15,21,,37,34,20,18,7,7,0.3,0.4
2024-09-04T2000,1785A,129.6115,44.5782,牡丹江市,文化广场,,33,,34,23,22,20,,32,29,21,23,8,9,0.4,0.4
2024-09-04T2000,1786A,129.5904,44.5963,牡丹江市,第一医院,,28,20,27,19,15,28,,40,33,21,19,6,6,0.3,0.3
2024-09-04T2000,1787A,129.6364,44.6075,牡丹江市,机车工厂,,28,26,35,19,19,20,,32,25,22,19,5,6,0.4,0.4
2024-09-04T2000,1788A,129.6386,44.5462,牡丹江市,第一中学,,23,23,26,14,11,14,,36,30,28,18,6,6,0.4,0.3
2024-09-04T2000,2531A,105.0703,29.61,内江市,市监测站,,,,33,,31,119,,142,140,25,28,6,6,0.3,0.4
2024-09-04T2000,2532A,105.0717,29.5947,内江市,东兴区政府,,39,26,27,14,23,123,,140,140,24,20,4,4,0.5,0.6
2024-09-04T2000,2533A,105.0653,29.5817,内江市,内江二中,,42,21,30,16,29,132,,144,144,20,18,8,8,0.4,0.6
2024-09-04T2000,2534A,105.0406,29.5822,内江市,内江日报社,,40,31,32,21,29,126,,145,144,26,26,8,7,0.5,0.6
2024-09-04T2000,2628A,92.0657,31.4846,那曲市,那曲监测站,,43,,20,30,11,67,,89,86,11,6,8,7,0.6,0.7
2024-09-04T2000,3128A,92.0506,31.4797,那曲市,那曲会议中心,,29,13,11,3,5,92,,102,101,6,7,4,4,0.4,0.4
2024-09-04T2000,1290A,115.8931,28.6843,南昌市,省外办,细颗粒物(PM2.5),52,49,46,36,32,130,,136,136,9,13,9,10,0.6,0.7
2024-09-04T2000,1291A,115.8886,28.7003,南昌市,省林业公司,颗粒物(PM10),59,68,45,39,28,121,,142,141,17,11,6,7,0.9,1
2024-09-04T2000,1292A,115.8126,28.7442,南昌市,林科所,,36,36,38,22,23,104,,144,137,22,16,6,8,0.8,0.9
2024-09-04T2000,1294A,115.8518,28.687,南昌市,建工学校,,50,50,43,18,17,97,,140,136,38,7,9,9,0.9,0.8
2024-09-04T2000,1295A,115.8921,28.6424,南昌市,象湖,,44,37,38,27,25,140,,149,149,7,9,3,4,1.0,1.1
2024-09-04T2000,1296A,115.7423,28.7996,南昌市,武术学校,,49,48,39,34,30,76,,124,112,8,9,2,2,0.6,0.7
2024-09-04T2000,1298A,115.9314,28.6842,南昌市,省站,,46,45,39,32,30,118,,136,136,14,8,6,8,0.8,0.9
2024-09-04T2000,3046A,115.9084,28.6062,南昌市,机电学校,颗粒物(PM10),53,56,54,27,27,120,,142,141,15,11,7,9,0.6,1
2024-09-04T2000,3690A,115.9721,28.7031,南昌市,外国语学校,,43,42,45,30,25,134,,144,144,11,10,6,6,0.6,0.8
2024-09-04T2000,1905A,106.056,30.8064,南充市,西山风景区,,38,,21,11,22,121,,134,131,6,8,1,4,0.9,0.9
2024-09-04T2000,1906A,106.0789,30.8023,南充市,南充市委,,,22,35,13,22,110,,139,134,19,18,6,8,,0.1
2024-09-04T2000,1907A,106.1031,30.8217,南充市,南充炼油厂,,39,32,49,23,31,122,,149,144,16,20,8,8,0.5,0.5
2024-09-04T2000,1908A,106.1064,30.7856,南充市,高坪区监测站,,28,23,39,13,27,89,,135,129,39,28,6,8,0.5,0.5
2024-09-04T2000,1909A,106.0642,30.7636,南充市,嘉陵区环保局,,34,16,38,9,23,108,,134,128,28,27,4,6,0.4,0.5
2024-09-04T2000,1910A,106.1087,30.8388,南充市,市环境监测站,,,,46,,30,119,,144,140,18,21,,8,0.3,0.4
2024-09-04T2000,1151A,118.8086,32.1065,南京市,迈皋桥,,41,32,25,22,15,129,,149,148,19,19,4,4,0.3,0.3
2024-09-04T2000,1152A,118.7538,32.0551,南京市,草场门,,41,41,28,22,14,124,,142,142,20,19,5,6,0.7,0.6
2024-09-04T2000,1153A,118.7794,32.0745,南京市,山西路,,43,39,31,24,15,135,,149,149,4,10,4,4,0.5,0.5
2024-09-04T2000,1154A,118.7752,32.0023,南京市,中华门,,37,29,26,17,12,118,,134,134,13,21,5,5,0.5,0.5
2024-09-04T2000,1155A,118.8109,32.0309,南京市,瑞金路,,42,34,28,24,14,132,,146,146,6,14,3,5,0.6,0.5
2024-09-04T2000,1156A,118.7997,32.0754,南京市,玄武湖,,42,32,32,19,11,132,,145,145,14,17,5,6,0.7,0.7
2024-09-04T2000,1157A,118.6414,32.0931,南京市,浦口,,37,32,33,24,16,117,,139,139,15,15,3,4,0.5,0.5
2024-09-04T2000,1158A,118.7356,31.9996,南京市,奥体中心,,41,28,30,22,18,129,,151,151,15,18,4,6,0.5,0.5
2024-09-04T2000,1159A,118.9125,32.1028,南京市,仙林大学城,,44,39,33,29,21,140,,160,160,8,14,7,8,0.6,0.6
2024-09-04T2000,3422A,118.8436,31.9198,南京市,江宁彩虹桥,,40,31,34,19,15,128,,148,148,10,14,4,4,0.7,0.6
2024-09-04T2000,3423A,119.0138,31.6494,南京市,溧水永阳,,42,29,31,23,19,133,,154,154,10,17,4,4,0.3,0.3
2024-09-04T2000,3424A,118.879,31.3302,南京市,高淳老职中,,48,31,28,28,21,151,,159,159,12,12,7,8,0.5,0.4
2024-09-04T2000,3427A,118.8554,32.3578,南京市,六合雄州,颗粒物(PM10),56,61,37,27,17,119,,149,147,22,15,3,4,0.7,0.5
2024-09-04T2000,1401A,108.3103,22.7881,南宁市,二十一中,,44,44,35,26,21,132,,173,173,24,18,4,9,0.7,0.7
2024-09-04T2000,1402A,108.3141,22.8528,南宁市,北湖,,48,48,37,28,23,128,,169,167,17,17,9,18,0.9,0.8
2024-09-04T2000,1403A,108.3206,22.8225,南宁市,市监测站,,48,48,39,28,20,102,,166,164,39,22,7,13,0.9,0.8
2024-09-04T2000,1404A,108.3829,22.8037,南宁市,大自然花园,,45,45,34,26,19,125,,186,185,21,18,6,8,0.7,0.7
2024-09-04T2000,1405A,108.4394,22.7904,南宁市,仙葫,细颗粒物(PM2.5),58,,32,41,19,93,,163,160,33,20,8,9,0.9,0.7
2024-09-04T2000,1406A,108.2397,22.8467,南宁市,区农职院,颗粒物(PM10),59,67,47,27,27,94,,150,146,34,16,55,49,0.8,0.7
2024-09-04T2000,1407A,108.3275,22.735,南宁市,英华嘉园,,42,38,35,25,19,132,,167,167,20,19,8,10,0.7,0.6
2024-09-04T2000,1408A,108.2257,22.7757,南宁市,沙井镇街道办,,50,50,36,24,19,99,,152,148,26,15,4,5,0.7,0.6
2024-09-04T2000,3401A,108.4834,22.7618,南宁市,红星社区,细颗粒物(PM2.5),58,52,34,41,20,115,,167,164,15,20,5,7,0.8,0.7
2024-09-04T2000,2331A,118.0966,26.6761,南平市,茫荡山,,,,,,,,,,,,,,,,
2024-09-04T2000,2332A,118.1681,26.6369,南平市,南平市监测站,,,27,27,7,10,40,,92,80,25,10,,5,,0.6
2024-09-04T2000,2333A,118.1825,26.6489,南平市,南平铝业有限公司,,35,35,24,18,12,44,,92,81,21,9,8,6,0.8,0.6
2024-09-04T2000,2334A,118.1756,26.6272,南平市,南平七中,,30,30,30,12,12,43,,91,75,18,9,4,5,0.7,0.6
2024-09-04T2000,1168A,120.9098,31.9663,南通市,狼山街道,,31,16,16,13,10,99,,141,140,6,9,6,7,0.4,0.5
2024-09-04T2000,1169A,120.86,32.0005,南通市,虹桥,,,,22,,9,103,,150,150,7,13,6,6,,0.4
2024-09-04T2000,1170A,120.87,32.02,南通市,城中,,31,22,22,10,7,99,,146,145,14,16,6,6,0.9,0.9
2024-09-04T2000,1171A,120.94,31.93,南通市,星湖花园,,30,17,13,8,7,93,,143,141,13,12,5,5,0.6,0.8
2024-09-04T2000,1172A,120.81,32.0417,南通市,紫琅学院,,35,15,15,9,5,111,,134,134,12,14,7,8,0.7,0.7
2024-09-04T2000,3291A,121.067,32.062,南通市,通州监测站,,28,19,17,7,5,89,,111,108,10,6,4,4,0.7,0.6
2024-09-04T2000,3432A,120.9348,31.9883,南通市,环境教育馆,,28,24,20,11,6,89,,138,135,12,9,4,4,0.5,0.5
2024-09-04T2000,2404A,112.5224,33.0122,南阳市,瓦房庄,颗粒物(PM10),55,60,47,31,22,153,,158,158,20,12,6,8,0.8,0.7
2024-09-04T2000,2405A,112.5003,32.9735,南阳市,汉画馆,颗粒物(PM10),53,56,48,32,25,135,,153,153,14,12,5,8,0.6,0.6
2024-09-04T2000,2406A,112.5573,33.027,南阳市,气象站,颗粒物(PM10),59,68,47,29,18,157,,162,162,17,12,4,7,0.8,0.7
2024-09-04T2000,2407A,112.5481,32.9689,南阳市,理工学院,颗粒物(PM10),52,54,45,30,18,151,,156,156,14,13,5,6,0.7,0.6
2024-09-04T2000,4008A,112.5234,32.9922,南阳市,卧龙区政府,颗粒物(PM10),67,84,47,31,23,143,,155,155,17,13,4,19,0.7,0.6
2024-09-04T2000,1234A,121.8358,29.911,宁波市,区环保大楼,,33,33,30,22,18,53,,125,113,37,24,3,7,0.6,0.7
2024-09-04T2000,1235A,121.56,29.82,宁波市,万里学院,,31,24,24,15,14,99,,115,112,11,10,10,10,0.5,0.5
2024-09-04T2000,1236A,121.713,29.9572,宁波市,龙赛医院,,,28,23,14,13,68,,136,130,,18,8,9,0.7,0.8
2024-09-04T2000,1239A,121.633,29.7733,宁波市,钱湖水厂,,34,21,18,13,12,106,,113,113,8,8,8,8,0.3,0.4
2024-09-04T2000,1240A,121.5856,29.8635,宁波市,太古小学,,28,27,25,19,13,87,,120,115,16,12,7,6,0.7,0.8
2024-09-04T2000,1241A,121.524,29.8674,宁波市,市环境监测中心,,31,30,23,15,10,98,,130,126,13,10,4,4,0.6,0.6
2024-09-04T2000,2871A,121.6147,29.9017,宁波市,万里国际学校,,27,27,23,18,16,85,,145,137,17,12,7,7,0.4,0.4
2024-09-04T2000,3710A,121.5594,29.8975,宁波市,白沙活动中心,,30,28,27,16,12,93,,145,140,14,11,8,8,0.4,0.4
2024-09-04T2000,2339A,119.5001,26.6946,宁德市,金涵水库,,,,,,,,,,,,,,,,
2024-09-04T2000,2341A,119.5388,26.6612,宁德市,宁德市监测站,,20,17,18,8,12,63,,87,76,8,8,5,6,0.5,0.5
2024-09-04T2000,3209A,119.5231,26.6562,宁德市,宁德一中,,22,22,25,7,8,63,,90,76,6,6,5,6,0.4,0.5
2024-09-04T2000,2618A,98.8601,25.8567,怒江傈僳族自治州,州监测站,,29,29,25,17,16,48,,60,60,7,7,7,6,0.5,0.4
2024-09-04T2000,2619A,98.8546,25.8417,怒江傈僳族自治州,泸水一中,,34,34,22,16,10,27,,50,48,22,12,5,5,0.5,0.4
2024-09-04T2000,1888A,101.6891,26.571,攀枝花市,弄弄坪,,41,41,46,16,18,78,,78,78,12,19,12,18,0.7,0.6
2024-09-04T2000,1889A,101.5769,26.5928,攀枝花市,河门口,,28,28,34,17,19,63,,82,82,17,21,10,20,0.9,1.4
2024-09-04T2000,1890A,101.7169,26.585,攀枝花市,炳草岗,,42,,44,29,21,82,,89,89,17,21,17,30,0.9,0.8
2024-09-04T2000,1891A,101.7369,26.5008,攀枝花市,仁和,,19,19,28,12,16,44,,76,69,11,11,4,10,0.6,0.6
2024-09-04T2000,2835A,101.7227,26.567,攀枝花市,四十中小,,34,34,34,21,19,75,,88,88,22,17,19,50,1.3,0.8
2024-09-04T2000,1604A,122.0303,41.1489,盘锦市,开发区,,48,25,28,15,14,153,,130,130,9,13,6,6,0.5,0.5
2024-09-04T2000,1605A,122.0485,41.0883,盘锦市,兴隆台,,48,26,26,13,15,151,,131,131,13,18,6,7,0.5,0.5
2024-09-04T2000,1606A,121.8297,41.1028,盘锦市,新生街道,,42,29,22,13,10,133,,133,133,7,8,7,6,0.5,0.5
2024-09-04T2000,1832A,113.3257,33.742,平顶山市,新华旅馆,颗粒物(PM10),58,66,69,26,26,123,,153,149,11,20,3,6,0.9,0.7
2024-09-04T2000,1833A,113.2919,33.737,平顶山市,规划设计院,,46,42,42,32,24,125,,156,151,16,20,6,8,0.7,0.5
2024-09-04T2000,1834A,113.182,33.774,平顶山市,平顶山工学院,,49,49,46,29,22,139,,155,153,10,17,6,8,1.0,0.9
2024-09-04T2000,3204A,113.3025,33.73,平顶山市,规划局,,,63,55,33,25,117,,145,141,13,19,2,5,,0.7
2024-09-04T2000,3594A,112.8867,33.9116,平顶山市,石龙区,颗粒物(PM10),54,58,67,23,26,122,,146,142,12,20,9,11,0.6,0.6
2024-09-04T2000,2656A,106.6692,35.5461,平凉市,聚贤嘉苑,,29,29,60,11,26,90,,93,93,11,21,6,7,0.4,0.6
2024-09-04T2000,2657A,106.7021,35.5307,平凉市,博物馆,,30,30,66,8,25,92,,97,96,7,25,7,7,0.2,0.5
2024-09-04T2000,2347A,114.0997,27.5002,萍乡市,武功山,,23,23,15,3,6,40,,106,90,6,5,10,10,0.5,0.4
2024-09-04T2000,2348A,113.8385,27.6434,萍乡市,中医院,细颗粒物(PM2.5),65,76,46,47,29,71,,130,122,28,13,20,14,3.0,1.2
2024-09-04T2000,2349A,113.8493,27.6253,萍乡市,市政府车库,颗粒物(PM10),62,74,45,27,27,77,,125,118,16,9,14,12,1.4,1
2024-09-04T2000,2350A,113.8676,27.6435,萍乡市,市环保局,细颗粒物(PM2.5),57,53,43,40,27,98,,128,127,18,9,12,13,1.7,0.8
2024-09-04T2000,2351A,113.866,27.6198,萍乡市,安源区政府,颗粒物(PM10),51,52,40,14,18,83,,132,128,11,13,14,16,0.7,0.8
2024-09-04T2000,2319A,119.0141,25.4325,莆田市,荔城区仓后路,,22,22,19,9,6,63,,63,62,7,6,7,7,0.6,0.6
2024-09-04T2000,2320A,119.0015,25.4553,莆田市,莆田市监测站,,,,15,8,5,73,,70,70,,7,,6,0.6,0.5
2024-09-04T2000,2321A,119.1119,25.4561,莆田市,涵江区六中,,21,21,18,7,5,63,,70,68,6,5,7,7,0.4,0.4
2024-09-04T2000,2322A,119.1013,25.3215,莆田市,秀屿区政府,,25,25,26,10,6,59,,74,69,7,4,6,6,0.6,0.6
2024-09-04T2000,2323A,118.981,25.4792,莆田市,东圳水库,,,,,,,,,,,,,,,,
2024-09-04T2000,2392A,115.0312,35.7636,濮阳市,环保局,,40,27,42,21,22,128,,155,152,15,16,6,9,0.6,0.5
2024-09-04T2000,2394A,115.0574,35.7609,濮阳市,油田运输公司,,42,42,44,18,25,121,,159,154,19,15,2,5,0.5,0.5
2024-09-04T2000,2395A,115.0866,35.7754,濮阳市,油田物探公司,,49,49,51,22,26,120,,167,160,19,14,7,10,0.6,0.5
2024-09-04T2000,3021A,115,35.7668,濮阳市,濮水河管理处,,46,46,42,24,26,110,,151,144,17,14,4,6,0.5,0.4
2024-09-04T2000,2601A,100.98,22.7633,普洱市,市环保局,,29,29,28,12,12,33,,43,43,7,8,8,5,0.4,0.5
2024-09-04T2000,2602A,100.9817,22.8322,普洱市,普洱第二中学,,26,26,25,9,9,31,,39,38,8,7,8,8,0.7,0.7
2024-09-04T2000,2262A,131.0518,45.8751,七台河市,新一中,,22,22,17,13,9,28,,69,59,14,12,9,10,1.0,1
2024-09-04T2000,3345A,131.0577,45.7879,七台河市,中波台,,10,9,18,6,5,32,,44,40,12,23,10,11,0.4,0.5
2024-09-04T2000,3637A,131.0176,45.7761,七台河市,人民广场,,19,19,26,3,10,24,,54,44,13,19,7,8,0.3,0.4
2024-09-04T2000,3684A,130.8781,45.8222,七台河市,新建矿广场,,20,,68,14,14,8,,46,37,35,28,2,6,0.5,0.5
2024-09-04T2000,1779A,123.9305,47.3636,齐齐哈尔市,安居小区,,34,34,24,16,9,49,,79,69,20,11,10,11,0.5,0.4
2024-09-04T2000,1780A,123.9488,47.3386,齐齐哈尔市,中心广场,,22,22,20,3,7,60,,77,70,14,10,2,2,0.3,0.3
2024-09-04T2000,1781A,123.9483,47.3227,齐齐哈尔市,农牧车辆厂,,24,24,27,3,5,61,,78,71,9,7,8,8,0.1,0.2
2024-09-04T2000,1783A,123.945,47.2988,齐齐哈尔市,市环境监测站,,20,10,17,7,8,61,,76,71,11,7,8,8,0.3,0.3
2024-09-04T2000,3662A,123.6333,47.2075,齐齐哈尔市,富区青少年活动中心,,44,44,22,6,3,48,,74,69,22,10,5,5,0.4,0.4
2024-09-04T2000,2591A,107.9783,26.5747,黔东南苗族侗族自治州,市环境监测站,,27,21,17,13,13,23,,90,78,53,17,3,3,0.7,0.6
2024-09-04T2000,2881A,107.8908,26.5311,黔东南苗族侗族自治州,凯里学院,,19,19,11,8,8,36,,91,80,14,10,2,2,0.4,0.5
2024-09-04T2000,2593A,107.5228,26.2403,黔南布依族苗族自治州,小围寨,,28,14,7,3,2,89,,106,104,4,6,5,4,0.4,0.3
2024-09-04T2000,3538A,107.5175,26.2978,黔南布依族苗族自治州,沙坝,,23,19,11,9,5,73,,104,101,12,8,4,4,0.4,0.4
2024-09-04T2000,2589A,104.9022,25.0925,黔西南布依族苗族自治州,场坝街,,24,24,19,15,11,45,,62,58,20,10,23,10,0.1,0.1
2024-09-04T2000,2590A,104.8811,25.0992,黔西南布依族苗族自治州,坪东大道,,19,19,27,7,8,44,,59,55,13,10,19,8,0.2,0.2
2024-09-04T2000,2502A,108.6236,21.9667,钦州市,市环保站,,35,34,26,19,10,110,,116,116,14,11,10,8,0.7,0.6
2024-09-04T2000,2503A,108.6549,21.9481,钦州市,沙埠小学,细颗粒物(PM2.5),62,44,37,44,19,102,,128,125,21,13,4,6,0.8,1
2024-09-04T2000,2504A,108.5989,21.7431,钦州市,港区一小,细颗粒物(PM2.5),64,70,38,46,20,60,,119,114,40,17,6,7,0.8,0.7
2024-09-04T2000,3404A,108.5959,21.9633,钦州市,北职校,细颗粒物(PM2.5),62,,24,44,15,90,,118,116,26,10,5,5,0.8,0.7
2024-09-04T2000,1042A,119.5134,39.8207,秦皇岛市,北戴河环保局,臭氧1小时,87,85,34,23,7,189,,157,157,13,12,4,4,0.7,0.7
2024-09-04T2000,1043A,119.7493,40.0116,秦皇岛市,第一关,"二氧化氮,颗粒物(PM10)",52,53,42,31,22,7,,134,117,104,44,3,4,0.7,0.6
2024-09-04T2000,1044A,119.5897,39.9499,秦皇岛市,监测站,,45,31,31,20,17,144,,132,132,17,13,1,2,0.9,0.8
2024-09-04T2000,1046A,119.5251,39.9041,秦皇岛市,建设大厦,,46,46,34,13,12,99,,129,127,26,13,3,4,0.6,0.6
2024-09-04T2000,3132A,119.610547,39.943889,秦皇岛市,文明里,颗粒物(PM10),53,55,32,28,11,156,,141,141,17,14,3,5,0.7,0.7
2024-09-04T2000,1307A,120.6659,36.2403,青岛市,仰口,,26,11,25,11,15,82,,112,97,4,7,5,5,0.3,0.3
2024-09-04T2000,1310A,120.4134,36.0658,青岛市,市南区东部子站,,35,9,27,3,11,112,,125,117,11,20,7,8,0.4,0.5
2024-09-04T2000,1311A,120.3664,36.1032,青岛市,四方区子站,,35,14,32,3,15,112,,125,118,13,28,10,11,0.7,0.7
2024-09-04T2000,1312A,120.2994,36.054,青岛市,市南区西部子站,,34,12,35,3,11,107,,124,113,12,37,8,10,0.6,0.6
2024-09-04T2000,1313A,120.4581,36.0858,青岛市,崂山区子站,,37,14,25,3,9,118,,124,118,13,25,8,9,0.5,0.6
2024-09-04T2000,1314A,120.1983,35.9608,青岛市,黄岛区子站,,36,7,22,3,10,114,,124,116,10,16,8,9,0.4,0.4
2024-09-04T2000,1315A,120.3999,36.3083,青岛市,城阳区子站,,36,36,36,7,14,100,,132,120,21,31,8,8,0.6,0.6
2024-09-04T2000,1966A,120.0405,35.8735,青岛市,黄岛区4号,,40,14,22,9,10,126,,123,122,5,15,10,10,0.6,0.6
2024-09-04T2000,3362A,120.5014,36.4034,青岛市,即墨2号,,35,19,46,13,17,110,,149,130,19,31,6,8,0.5,0.6
2024-09-04T2000,3642A,120.3503,36.0736,青岛市,市北区南部,,34,14,34,3,14,108,,117,110,16,38,8,9,0.5,0.6
2024-09-04T2000,3643A,120.3948,36.1805,青岛市,李沧区北部,,35,,31,14,17,109,,128,116,18,30,9,10,0.5,0.6
2024-09-04T2000,1702A,113.0426,23.691,清远市,环保大楼,,44,44,26,22,19,81,,78,78,12,8,6,6,0.8,0.6
2024-09-04T2000,1703A,113.0208,23.7106,清远市,凤城街办,,42,38,26,29,16,104,,106,105,12,9,7,7,0.6,0.5
2024-09-04T2000,3025A,113.0477,23.6344,清远市,技师学院,,49,49,31,26,16,104,,125,123,15,12,5,5,1.0,0.5
2024-09-04T2000,3318A,112.9903,23.7403,清远市,清新太和,,,58,29,36,16,84,,95,92,,4,,5,0.7,0.8
2024-09-04T2000,3455A,113.076,23.7198,清远市,清城东城,细颗粒物(PM2.5),67,66,27,48,15,110,,117,117,14,6,9,7,0.7,0.6
2024-09-04T2000,2661A,107.6325,35.7357,庆阳市,庆阳五中,,23,21,40,6,16,71,,76,74,8,8,6,6,0.4,0.5
2024-09-04T2000,2662A,107.6364,35.7067,庆阳市,市环保局,,24,20,41,3,15,74,,80,79,9,8,4,5,0.4,0.5
2024-09-04T2000,1916A,103.7897,25.5035,曲靖市,环境监测站,,30,30,23,8,11,63,,78,75,15,12,5,7,0.7,0.7
2024-09-04T2000,1917A,103.8,25.5364,曲靖市,烟厂办公区,,33,30,22,23,12,57,,70,69,15,13,4,5,0.6,0.6
2024-09-04T2000,3376A,103.7947,25.462,曲靖市,南苑二区,,25,17,20,17,13,66,,73,72,10,11,6,11,0.5,0.5
2024-09-04T2000,3377A,103.7444,25.5261,曲靖市,曲靖师范学院,,32,32,24,11,17,72,,76,76,10,15,7,21,0.5,0.5
2024-09-04T2000,1264A,118.8692,28.9398,衢州市,环保大楼,,44,35,38,23,29,140,,152,151,20,14,2,2,0.7,0.7
2024-09-04T2000,1265A,118.8709,28.9666,衢州市,实验学校,,42,35,39,18,29,134,,156,154,18,11,4,4,0.7,0.6
2024-09-04T2000,1266A,118.8621,28.9808,衢州市,衢州学院,,35,33,40,24,29,111,,149,145,27,13,3,3,0.5,0.5
2024-09-04T2000,1611A,118.5819,24.9117,泉州市,涂山街,,25,22,20,17,11,52,,71,66,10,8,1,1,0.6,0.6
2024-09-04T2000,1612A,118.5972,24.8978,泉州市,津头埔,,26,26,25,18,12,51,,70,65,14,11,4,3,0.6,0.5
2024-09-04T2000,1613A,118.6663,24.9424,泉州市,万安,,25,25,24,16,11,53,,72,67,8,6,3,2,0.6,0.5
2024-09-04T2000,1614A,118.6117,24.9604,泉州市,清源山,,,,,,,,,,,,,,,,
2024-09-04T2000,3529A,118.6333,24.9264,泉州市,城华南路,,,28,22,16,10,50,,68,64,13,6,4,3,,0.4
2024-09-04T2000,2626A,88.8876,29.2718,日喀则市,日喀则监测站,,34,6,10,3,6,106,,105,105,8,5,6,6,0.4,0.4
2024-09-04T2000,3726A,88.8781,29.2426,日喀则市,林业技术推广中心,,38,8,6,6,4,120,,128,128,6,6,8,8,0.4,0.4
2024-09-04T2000,1659A,119.471,35.4209,日照市,监测站,,,19,27,16,17,91,,168,154,,38,12,12,,0.7
2024-09-04T2000,1660A,119.523,35.4216,日照市,市政府广场,,31,14,32,3,15,99,,162,152,12,31,10,11,0.6,0.7
2024-09-04T2000,1661A,119.5587,35.4044,日照市,港务局,,33,,30,10,20,104,,163,151,8,28,9,10,0.7,0.7
2024-09-04T2000,3507A,119.5328,35.4625,日照市,职业技术学院,,32,,24,17,13,102,,159,149,16,22,8,10,0.6,0.7
2024-09-04T2000,3604A,119.3266,35.1044,日照市,岚山环保分局,,28,17,34,3,9,87,,172,153,15,22,9,12,0.5,0.6
2024-09-04T2000,1835A,111.1922,34.7752,三门峡市,市政府,,47,47,44,23,22,121,,163,160,29,12,12,13,0.9,0.8
2024-09-04T2000,1836A,111.1587,34.7942,三门峡市,开发区,颗粒物(PM10),53,55,50,29,24,132,,162,160,13,9,12,13,0.7,0.7
2024-09-04T2000,1838A,111.143,34.7955,三门峡市,风景区,,,,,,,,,,,,,,,,
2024-09-04T2000,3039A,111.1911,34.7829,三门峡市,三门峡市第一小学,,50,50,47,30,20,131,,154,153,22,11,12,13,0.7,0.7
2024-09-04T2000,3598A,111.1,34.7167,三门峡市,富达温泉假日酒店,颗粒物(PM10),64,78,57,27,30,117,,118,,24,15,14,15,0.8,0.6
2024-09-04T2000,2324A,117.6211,26.2625,三明市,三钢,,35,31,22,24,17,45,,95,85,21,10,5,6,0.3,0.3
2024-09-04T2000,2325A,117.635,26.2714,三明市,三明二中,,17,17,21,10,13,49,,96,86,22,10,2,4,0.5,0.4
2024-09-04T2000,2326A,117.6028,26.2378,三明市,三元区政府,,42,42,29,6,12,41,,95,84,24,15,2,3,0.6,0.6
2024-09-04T2000,2327A,117.7275,26.3108,三明市,洋溪,,,,,,,,,,,,,,,,
2024-09-04T2000,1876A,109.5078,18.2489,三亚市,河东子站,,21,21,17,11,8,59,,78,76,12,8,3,4,0.5,0.5
2024-09-04T2000,1877A,109.4964,18.2681,三亚市,河西子站,,19,14,16,8,7,58,,72,71,9,7,3,3,0.3,0.3
2024-09-04T2000,3540A,109.7348,18.3443,三亚市,君悦子站,,35,35,19,12,7,54,,88,81,17,10,4,2,0.1,0.2
2024-09-04T2000,2624A,91.7608,29.2313,山南市,山南监测站,,35,6,10,6,5,110,,118,118,6,4,7,7,0.2,0.3
2024-09-04T2000,2625A,91.7706,29.2436,山南市,山南人民医院,,35,20,16,6,5,111,,118,118,8,8,7,8,0.1,0.2
2024-09-04T2000,1674A,116.6794,23.3667,汕头市,金平子站,,,,27,,13,60,,77,76,,9,,5,0.4,0.5
2024-09-04T2000,1675A,116.7244,23.3633,汕头市,龙湖子站,,,26,28,18,12,61,,89,86,,10,7,8,0.5,0.5
2024-09-04T2000,1676A,116.7258,23.2775,汕头市,濠江子站,,22,,25,15,14,69,,91,84,6,9,6,8,0.7,0.7
2024-09-04T2000,1677A,116.7519,23.4714,汕头市,澄海子站,,24,24,32,16,14,72,,101,95,12,12,6,8,0.7,0.7
2024-09-04T2000,1678A,116.6092,23.2539,汕头市,潮阳子站,,28,28,31,3,34,72,,98,91,2,6,5,6,0.4,0.4
2024-09-04T2000,3444A,116.454,23.2684,汕头市,潮南峡山,,30,30,23,10,6,77,,107,100,5,5,6,6,0.5,0.6
2024-09-04T2000,3624A,116.4069,23.2533,汕头市,潮南子站,,36,36,31,14,13,71,,101,95,12,11,7,6,0.5,0.5
2024-09-04T2000,1693A,115.3653,22.775,汕尾市,市环保局,,18,,23,11,17,56,,96,83,8,8,6,7,0.7,0.8
2024-09-04T2000,1694A,115.3706,22.7898,汕尾市,市政府,,17,14,24,8,11,52,,85,74,10,8,6,7,0.6,0.6
2024-09-04T2000,1695A,115.3622,22.7925,汕尾市,新城中学,,30,30,30,9,14,51,,86,74,10,7,6,6,0.7,0.8
2024-09-04T2000,2645A,109.9154,33.8715,商洛市,监测站,颗粒物(PM10),56,62,29,29,18,114,,119,114,12,10,2,2,0.7,0.8
