timepoint,stationcode,longitude,latitude,area,positionname,primarypollutant,aqi,pm10,pm10_24h,pm2_5,pm2_5_24h,o3,o3_24h,o3_8h,o3_8h_24h,no2,no2_24h,so2,so2_24h,co,co_24h
2024-09-04T2200,2566A,102.1879,31.914,阿坝藏族羌族自治州,州农科所,,21,21,23,6,8,39,,85,70,27,14,7,7,0,0
2024-09-04T2200,2568A,102.2502,31.8896,阿坝藏族羌族自治州,马师校,,24,19,16,14,9,76,,89,72,13,12,4,4,0.4,0.4
2024-09-04T2200,3994A,102.2165,31.9024,阿坝藏族羌族自治州,马尔康中学西区,,28,25,13,19,11,70,,88,80,10,10,4,4,0.4,0.4
2024-09-04T2200,2695A,80.292,41.1694,阿克苏地区,电视台,颗粒物(PM10),79,107,77,42,29,86,,111,109,18,11,6,4,0.4,0.3
2024-09-04T2200,2696A,80.2613,41.1551,阿克苏地区,艺术中心,颗粒物(PM10),84,117,71,36,25,96,,113,112,14,6,3,4,0.6,0.4
2024-09-04T2200,2204A,105.6467,38.8363,阿拉善盟,西城区西花园,,30,18,65,17,24,95,,110,106,13,10,8,7,0.9,1.1
2024-09-04T2200,2205A,105.6985,38.8411,阿拉善盟,蒙二幼,,29,,43,3,13,91,,98,89,8,6,9,9,0.5,0.6
2024-09-04T2200,2206A,105.724,38.8516,阿拉善盟,环保局新楼,,32,11,26,3,11,100,,102,94,5,6,10,10,0.3,0.3
2024-09-04T2200,2708A,88.1264,47.8517,阿勒泰地区,市站,,33,33,14,17,5,23,,82,71,42,14,7,7,0.6,0.5
2024-09-04T2200,2630A,80.1161,32.5,阿里地区,阿里监测站,,35,6,4,3,2,110,,122,121,8,5,10,9,0.3,0.3
2024-09-04T2200,3192A,80.0903,32.5028,阿里地区,阿里藏医院,,34,9,6,3,0,106,,112,112,4,3,6,6,0.3,0.3
2024-09-04T2200,2642A,109.0318,32.6537,安康市,香溪洞,,32,32,36,20,11,72,,96,92,8,6,7,6,0.5,0.5
2024-09-04T2200,2643A,109.0281,32.6939,安康市,安康市监测站,,27,27,19,16,11,68,,94,86,7,6,7,7,0.6,0.6
2024-09-04T2200,2644A,109.0072,32.6975,安康市,汉滨区检察院,,28,28,19,17,13,76,,98,92,7,7,7,7,0.7,0.7
2024-09-04T2200,2291A,117.0809,30.5177,安庆市,环科院,,45,45,45,29,30,140,,159,150,18,12,7,8,0.9,0.9
2024-09-04T2200,2292A,117.0331,30.5119,安庆市,马山宾馆,,48,44,38,33,30,142,,170,154,15,13,9,10,0.8,0.7
2024-09-04T2200,2294A,116.9896,30.6145,安庆市,安庆大学,,47,47,40,31,29,118,,144,139,10,11,8,8,0.8,0.8
2024-09-04T2200,3173A,117.0598,30.5351,安庆市,市人大,细颗粒物(PM2.5),54,49,40,38,32,128,,153,139,12,10,7,8,1.3,1.3
2024-09-04T2200,3123A,105.9408,26.2431,安顺市,凤凰山,,28,14,14,14,14,87,,113,105,11,7,9,9,0.5,0.4
2024-09-04T2200,3124A,105.9439,26.2564,安顺市,金钟山,,31,15,16,10,8,97,,116,111,6,4,6,6,0.4,0.2
2024-09-04T2200,3125A,105.8983,26.2481,安顺市,娄家坡,,28,14,14,9,10,88,,113,106,6,4,5,5,0.6,0.6
2024-09-04T2200,1819A,114.3551,36.1017,安阳市,红庙街,颗粒物(PM10),58,65,53,31,24,138,,184,178,20,17,4,6,0.6,0.5
2024-09-04T2200,1820A,114.361,36.0681,安阳市,银杏小区,,,59,53,,,128,,181,173,18,17,4,5,0.8,0.6
2024-09-04T2200,3141A,114.3922,36.0878,安阳市,信访局,颗粒物(PM10),54,57,52,31,25,132,,200,191,21,18,4,6,0.6,0.5
2024-09-04T2200,3669A,114.4705,36.0637,安阳市,左辅环卫站,颗粒物(PM10),55,60,58,29,25,120,,182,175,15,12,14,11,0.5,0.6
2024-09-04T2200,3703A,114.2917,36.0949,安阳市,安钢职工学校,细颗粒物(PM2.5),60,66,56,43,27,135,,165,159,21,19,6,7,0.8,0.6
2024-09-04T2200,1748A,123.044,41.1196,鞍山市,深沟寺,,41,33,31,18,16,130,,107,107,12,11,6,5,0.9,0.8
2024-09-04T2200,1749A,123.011,41.0931,鞍山市,太阳城,,42,28,28,28,18,132,,105,105,13,11,5,5,0.6,0.6
2024-09-04T2200,1750A,123.0485,41.1442,鞍山市,太平,颗粒物(PM10),62,73,40,38,20,87,,100,99,43,18,16,7,2.3,0.8
2024-09-04T2200,1751A,122.9642,41.0971,鞍山市,铁西三道街,颗粒物(PM10),52,54,52,35,25,116,,103,103,20,24,5,5,0.9,0.8
2024-09-04T2200,1752A,122.9341,41.0833,鞍山市,铁西工业园区,,39,36,41,23,21,124,,114,114,14,18,8,9,0.9,0.9
2024-09-04T2200,1753A,123.022,41.0821,鞍山市,明达新区,,39,35,31,19,19,124,,100,100,14,12,4,4,0.6,0.6
2024-09-04T2200,2195A,107.4212,40.761,巴彦淖尔市,附二中,颗粒物(PM10),62,73,166,17,46,62,,78,59,11,11,5,6,0.4,0.5
2024-09-04T2200,2196A,107.37,40.7372,巴彦淖尔市,市环保大楼,,45,45,165,14,36,68,,68,64,6,7,4,4,0.3,0.4
2024-09-04T2200,1956A,86.1472,41.7538,巴音郭楞蒙古自治州,孔雀公园,,34,34,29,3,10,59,,93,88,20,9,4,4,0.4,0.3
2024-09-04T2200,1957A,86.1972,41.7166,巴音郭楞蒙古自治州,棉纺厂,,28,28,23,15,10,59,,96,90,17,6,4,4,0.3,0.2
2024-09-04T2200,1958A,86.2357,41.7173,巴音郭楞蒙古自治州,经济开发区,,21,15,21,6,12,66,,94,90,17,5,5,5,0.3,0.2
2024-09-04T2200,2914A,106.7677,31.8794,巴中市,苏山坪,,41,,22,28,19,130,,124,124,7,8,4,4,0.6,0.6
2024-09-04T2200,3182A,106.7656,31.8545,巴中市,丽阳花园,细颗粒物(PM2.5),77,72,32,56,24,49,,117,97,27,17,5,5,0.8,0.5
2024-09-04T2200,3183A,106.7418,31.8654,巴中市,圣泉水务公司,"颗粒物(PM10),细颗粒物(PM2.5)",53,55,24,37,18,52,,119,96,27,15,4,4,0.7,0.6
2024-09-04T2200,3616A,106.7616,31.8344,巴中市,市中心医院,细颗粒物(PM2.5),77,66,30,56,23,40,,118,94,32,19,5,4,0.9,0.6
2024-09-04T2200,2235A,122.7911,45.6077,白城市,洮北区环保局,,,22,23,7,10,,,90,80,,13,6,6,0.1,0.1
2024-09-04T2200,2236A,122.8738,45.5725,白城市,市环保局,,24,18,25,3,10,75,,81,75,10,11,4,4,0.2,0.3
2024-09-04T2200,2231A,126.4219,41.9171,白山市,喜丰,,27,22,42,12,11,84,,79,74,5,13,5,9,0.5,0.8
2024-09-04T2200,2232A,126.4077,41.9419,白山市,环保局,,25,22,32,11,13,80,,62,62,6,17,10,10,0.7,0.7
2024-09-04T2200,2647A,104.1724,36.5446,白银市,第三小学,,,9,33,3,7,,,94,86,8,7,9,6,0.7,0.5
2024-09-04T2200,2648A,104.1465,36.5482,白银市,动力公司,,26,,25,6,12,83,,94,82,5,6,3,4,0.4,0.3
2024-09-04T2200,2512A,106.6103,23.9011,百色市,市监测站,,41,41,29,19,10,41,,121,110,34,13,5,7,0.6,0.5
2024-09-04T2200,2513A,106.6538,23.8859,百色市,市中心血站,颗粒物(PM10),61,71,36,18,12,54,,123,107,33,18,5,6,0.8,0.6
2024-09-04T2200,3406A,106.6085,23.8798,百色市,祈福高中,颗粒物(PM10),58,66,41,26,14,47,,118,106,31,16,6,5,0.8,0.7
2024-09-04T2200,2270A,117.396,32.939,蚌埠市,工人疗养院,,45,45,40,19,14,97,,154,141,15,16,9,11,0.5,0.4
2024-09-04T2200,2271A,117.3605,32.9427,蚌埠市,百货大楼,,42,42,40,18,17,102,,148,137,7,14,6,8,0.6,0.5
2024-09-04T2200,2273A,117.4185,32.8911,蚌埠市,蚌埠学院,,48,48,31,25,15,70,,145,119,42,16,8,8,0.7,0.5
2024-09-04T2200,2274A,117.3533,32.9673,蚌埠市,淮上区政府,颗粒物(PM10),53,56,37,29,18,91,,160,145,17,9,8,8,0.9,0.7
2024-09-04T2200,2275A,117.3145,32.8977,蚌埠市,高新区,,44,44,32,24,16,83,,145,130,35,10,9,7,0.8,0.6
2024-09-04T2200,3715A,117.3092,32.9314,蚌埠市,蚌埠田家炳中学,,42,42,38,21,17,107,,148,139,7,9,5,6,0.6,0.5
2024-09-04T2200,1585A,109.8756,40.6532,包头市,市环境监测站,,20,18,19,3,12,63,,90,58,13,18,4,6,0.5,0.6
2024-09-04T2200,1587A,109.9991,40.5842,包头市,包头八中,,21,21,26,12,13,28,,84,48,32,21,17,9,0.8,0.7
2024-09-04T2200,1588A,109.8538,40.6821,包头市,青山宾馆,,21,7,19,3,9,66,,91,58,10,14,4,5,0.5,0.6
2024-09-04T2200,1589A,109.8642,40.6288,包头市,惠龙物流,,27,27,22,15,12,58,,91,55,17,18,7,8,0.6,0.6
2024-09-04T2200,1590A,110.0377,40.5546,包头市,东河鸿龙湾,,13,11,25,9,13,39,,78,49,16,17,9,4,0.4,0.5
2024-09-04T2200,3283A,109.9154,40.5685,包头市,滨河大厦,,16,13,15,11,14,42,,83,57,16,17,11,8,0.6,0.6
2024-09-04T2200,3419A,109.9447,40.6261,包头市,包头市委党校,,19,17,24,13,14,58,,84,54,13,18,5,5,0.6,0.5
2024-09-04T2200,3683A,109.8331,40.6576,包头市,昆区政府,,22,11,17,3,8,68,,90,61,22,19,5,5,0.2,0.5
2024-09-04T2200,1930A,107.185,34.3063,宝鸡市,庙沟村,,26,10,42,9,23,81,,82,80,6,13,8,9,0.2,0.4
2024-09-04T2200,1931A,107.0708,34.3017,宝鸡市,竹园沟,,20,,41,7,24,61,,74,58,11,13,9,9,0.3,0.5
2024-09-04T2200,1932A,107.1906,34.3672,宝鸡市,三陆医院,,16,7,48,6,24,51,,75,58,26,23,9,11,0.5,0.6
2024-09-04T2200,1933A,107.1431,34.3547,宝鸡市,监测站,,20,9,50,3,26,64,,74,62,14,20,6,7,0.4,0.6
2024-09-04T2200,1934A,107.1186,34.3739,宝鸡市,技工学校,,19,14,45,6,30,59,,77,64,18,17,8,9,0.5,0.7
2024-09-04T2200,1935A,107.3906,34.3528,宝鸡市,陈仓区环保局家属楼,,20,12,48,11,23,64,,81,62,16,23,8,9,0.4,0.6
2024-09-04T2200,1936A,107.2058,34.3497,宝鸡市,文理学院,,20,11,43,3,20,64,,80,67,17,18,9,10,0.4,0.6
2024-09-04T2200,1937A,107.2386,34.3622,宝鸡市,三迪小学,,,,48,1,22,55,,78,52,23,22,8,9,0.5,0.6
2024-09-04T2200,1051A,115.493,38.8632,保定市,游泳馆,,,55,56,37,30,,,182,177,13,22,3,4,0.2,0.2
2024-09-04T2200,1052A,115.5213,38.8959,保定市,华电二区,细颗粒物(PM2.5),67,56,57,48,26,112,,178,161,10,16,2,4,0.4,0.3
2024-09-04T2200,1053A,115.4713,38.9108,保定市,接待中心,细颗粒物(PM2.5),63,62,52,45,34,112,,175,160,9,18,2,4,0.4,0.5
2024-09-04T2200,1054A,115.4612,38.8416,保定市,地表水厂,颗粒物(PM10),72,93,59,33,25,128,,183,175,8,15,1,2,0.4,0.3
2024-09-04T2200,3581A,115.31981,38.95208,保定市,满城区生态环境分局,颗粒物(PM10),56,61,58,36,26,114,,168,154,15,17,2,4,0.5,0.5
2024-09-04T2200,3582A,115.47694,38.76408,保定市,清苑区第二中学,细颗粒物(PM2.5),65,77,61,47,31,130,,180,172,8,13,3,4,0.5,0.5
2024-09-04T2200,3583A,115.62909,39.02311,保定市,徐水物探局,细颗粒物(PM2.5),79,67,64,58,32,85,,174,152,19,21,4,8,0.7,0.6
2024-09-04T2200,4004A,115.4202,38.8656,保定市,双鹰农机,细颗粒物(PM2.5),59,63,56,42,23,141,,194,182,10,18,2,5,0.2,0.1
2024-09-04T2200,4034A,115.5150,38.8590,保定市,植保所站,细颗粒物(PM2.5),58,61,56,41,30,131,,201,185,10,18,5,7,0.5,0.4
2024-09-04T2200,2594A,99.1678,25.1081,保山市,市环境监测站,,26,20,27,18,13,18,,49,39,7,8,5,6,0.4,0.4
2024-09-04T2200,2595A,99.1711,25.1328,保山市,市环保局,,35,35,31,12,9,22,,58,47,9,7,3,4,0.4,0.4
2024-09-04T2200,1867A,109.1436,21.4086,北海市,海滩公园,,43,25,33,12,12,136,,181,180,5,11,3,5,0.7,0.8
2024-09-04T2200,1868A,109.0981,21.4661,北海市,新市环保局,,41,28,30,22,17,129,,167,165,10,14,4,5,0.7,0.8
2024-09-04T2200,1869A,109.1778,21.5233,北海市,北海工业园,,43,27,31,20,18,135,,178,178,7,11,6,8,0.6,0.6
2024-09-04T2200,3400A,109.1911,21.4415,北海市,龙潭自来水厂,,43,33,27,26,20,135,,167,165,6,7,5,6,0.9,0.8
2024-09-04T2200,1001A,116.3621,39.8784,北京市,万寿西宫,细颗粒物(PM2.5),100,92,68,75,40,62,,83,75,23,24,3,3,0.9,0.8
2024-09-04T2200,1002A,116.2202,40.2915,北京市,定陵,细颗粒物(PM2.5),68,55,51,49,33,16,,81,54,8,9,3,4,0.7,0.6
2024-09-04T2200,1003A,116.4174,39.9289,北京市,东四,细颗粒物(PM2.5),118,108,71,89,44,60,,88,77,23,24,3,5,0.8,0.7
2024-09-04T2200,1004A,116.4072,39.8863,北京市,天坛,细颗粒物(PM2.5),87,77,59,64,37,66,,80,76,22,24,3,3,0.8,0.7
2024-09-04T2200,1005A,116.462,39.9365,北京市,农展馆,细颗粒物(PM2.5),94,82,70,70,39,61,,89,73,22,23,3,2,0.8,0.7
2024-09-04T2200,1006A,116.3392,39.9295,北京市,官园,细颗粒物(PM2.5),90,93,72,67,38,69,,80,71,20,24,3,6,0.8,0.7
2024-09-04T2200,1007A,116.2878,39.9611,北京市,海淀万柳,细颗粒物(PM2.5),102,103,74,76,42,64,,78,68,19,23,2,4,0.7,0.7
2024-09-04T2200,1008A,116.6636,40.135,北京市,顺义新城,颗粒物(PM10),56,61,67,38,36,83,,72,72,11,25,3,3,0.5,0.6
2024-09-04T2200,1009A,116.6275,40.3275,北京市,怀柔镇,细颗粒物(PM2.5),53,48,53,37,32,90,,89,89,13,21,3,8,0.5,0.7
2024-09-04T2200,1010A,116.2296,40.217,北京市,昌平镇,细颗粒物(PM2.5),60,55,65,43,38,39,,67,57,14,24,3,4,0.6,0.6
2024-09-04T2200,1011A,116.3966,39.9821,北京市,奥体中心,细颗粒物(PM2.5),109,101,68,82,41,55,,83,69,27,26,1,3,0.9,0.8
2024-09-04T2200,1012A,116.184,39.9136,北京市,古城,细颗粒物(PM2.5),84,105,86,62,43,69,,80,75,21,30,2,2,0.7,0.7
2024-09-04T2200,3281A,115.9718,40.4529,北京市,延庆夏都,,25,21,46,17,31,59,,100,86,7,8,3,2,0.5,0.5
2024-09-04T2200,3417A,117.0709,40.1465,北京市,平谷新城,细颗粒物(PM2.5),63,64,49,45,27,81,,92,78,5,10,3,2,0.5,0.5
2024-09-04T2200,3418A,116.8336,40.4095,北京市,密云新城,,38,38,47,25,28,76,,76,73,6,11,3,2,0.4,0.5
2024-09-04T2200,3671A,116.088,39.9726,北京市,门头沟三家店,细颗粒物(PM2.5),78,85,67,57,38,50,,70,64,12,18,3,3,0.8,0.7
2024-09-04T2200,3672A,116.1541,39.8204,北京市,丰台云岗,细颗粒物(PM2.5),108,,64,81,44,35,,70,52,17,18,2,3,0.7,0.6
2024-09-04T2200,3673A,116.6804,39.9081,北京市,通州东关,细颗粒物(PM2.5),89,89,57,66,38,50,,79,72,27,24,1,2,0.7,0.6
2024-09-04T2200,3674A,115.9577,39.7603,北京市,房山燕山,细颗粒物(PM2.5),55,58,60,39,31,45,,94,77,11,15,3,2,0.5,0.5
2024-09-04T2200,3675A,116.4672,39.7733,北京市,大兴旧宫,细颗粒物(PM2.5),89,89,60,66,36,62,,94,78,21,20,1,2,0.9,0.7
2024-09-04T2200,3694A,115.986,40.4563,北京市,延庆石河营,,33,24,44,23,30,47,,86,69,6,7,3,3,0.5,0.5
2024-09-04T2200,3695A,116.6151,40.3053,北京市,怀柔新城,细颗粒物(PM2.5),60,55,53,43,37,79,,82,82,12,19,3,3,0.6,0.6
2024-09-04T2200,3696A,116.2545,39.8768,北京市,丰台小屯,细颗粒物(PM2.5),95,93,75,71,42,61,,72,64,16,23,3,2,0.8,0.7
2024-09-04T2200,3697A,116.84,40.3844,北京市,密云镇,,38,38,53,26,31,79,,81,81,6,14,3,3,0.5,0.5
2024-09-04T2200,1761A,123.8275,41.3064,本溪市,大峪,,30,30,28,20,15,92,,97,92,14,16,8,8,0.8,0.7
2024-09-04T2200,1762A,123.7567,41.3325,本溪市,溪湖,,36,36,40,18,20,68,,82,71,13,20,8,6,1.1,1.4
2024-09-04T2200,1763A,123.7169,41.3094,本溪市,彩屯,,25,23,39,17,22,49,,71,57,15,27,10,11,0.8,1.9
2024-09-04T2200,1764A,123.7669,41.2864,本溪市,东明,,25,25,29,17,14,76,,94,86,25,19,6,6,1.8,0.7
2024-09-04T2200,1765A,123.7992,41.2664,本溪市,新立屯,,30,28,24,10,9,95,,99,93,14,18,4,4,0.6,0.6
2024-09-04T2200,1766A,123.8142,41.3472,本溪市,威宁,,25,25,33,15,15,57,,68,64,13,16,8,8,0.7,0.6
2024-09-04T2200,2587A,105.2864,27.3125,毕节市,八中,,48,46,24,33,19,70,,111,106,20,15,6,7,0.6,0.5
2024-09-04T2200,2588A,105.31,27.2944,毕节市,师专,颗粒物(PM10),55,60,26,36,18,60,,121,115,34,18,8,8,0.6,0.5
2024-09-04T2200,3537A,105.3631,27.3533,毕节市,长征村,,43,37,18,30,14,99,,132,130,15,9,11,8,0.5,0.4
2024-09-04T2200,1629A,118.0018,37.3617,滨州市,第二水厂,颗粒物(PM10),63,75,50,36,26,153,,215,201,26,21,11,9,1.0,0.9
2024-09-04T2200,1630A,117.9776,37.393,滨州市,北中新校,颗粒物(PM10),62,73,50,34,22,132,,226,202,29,21,11,14,1.1,1
2024-09-04T2200,3514A,117.9378,37.3956,滨州市,中海酒店,颗粒物(PM10),67,83,48,39,25,108,,224,201,55,20,8,14,1.2,0.8
2024-09-04T2200,3515A,117.9378,37.3553,滨州市,开发区一中,颗粒物(PM10),64,78,52,34,25,170,,227,212,24,24,13,14,0.9,0.7
2024-09-04T2200,3516A,118.0917,37.694,滨州市,金海六路,颗粒物(PM10),58,66,50,31,20,139,,212,193,21,15,6,10,0.7,0.7
2024-09-04T2200,4028A,117.9956,37.3753,滨州市,滨州市西街道办事处,"颗粒物(PM10),臭氧1小时",59,68,47,39,29,167,,227,212,19,18,11,11,1.1,0.9
2024-09-04T2200,2311A,115.8072,33.8399,亳州市,污水处理厂,,49,49,43,31,22,116,,146,138,14,13,14,31,0.8,0.6
2024-09-04T2200,2312A,115.7789,33.8518,亳州市,三国揽胜宫,,49,49,44,30,23,132,,150,147,7,7,8,26,0.8,0.7
2024-09-04T2200,3332A,115.7633,33.8034,亳州市,亳州学院,,44,44,37,23,15,135,,155,153,11,10,34,15,0.7,0.6
2024-09-04T2200,2693A,82.0485,44.8556,博尔塔拉蒙古自治州,市党校,,39,39,30,20,10,74,,108,104,25,11,7,6,0.5,0.4
2024-09-04T2200,2694A,82.0806,44.8969,博尔塔拉蒙古自治州,市环保局,,35,35,33,12,12,51,,101,96,35,13,7,5,0.6,0.4
2024-09-04T2200,1071A,116.8842,38.2991,沧州市,沧县城建局,颗粒物(PM10),60,70,46,39,22,113,,167,148,28,21,5,5,0.7,0.6
2024-09-04T2200,1072A,116.8584,38.3254,沧州市,电视转播站,颗粒物(PM10),54,58,41,36,26,127,,184,166,23,17,6,8,0.6,0.5
2024-09-04T2200,1073A,116.8709,38.3228,沧州市,市环保局,颗粒物(PM10),53,56,46,32,20,126,,163,151,17,16,5,7,0.5,0.4
2024-09-04T2200,3324A,116.8136,38.3004,沧州市,河北水利电力学院,颗粒物(PM10),62,73,55,42,27,128,,174,157,24,20,5,9,0.5,0.5
2024-09-04T2200,2622A,97.1806,31.1273,昌都市,昌都监测站,,13,9,8,8,5,39,,79,63,20,10,7,6,0.7,0.6
2024-09-04T2200,3719A,97.1714,31.1406,昌都市,昌都会议中心,,17,10,9,6,5,52,,84,75,11,5,7,7,0.5,0.6
2024-09-04T2200,2690A,88.1236,43.8886,昌吉回族自治州,天山天池,,14,12,4,3,2,43,,84,70,5,3,3,3,0.5,0.4
2024-09-04T2200,2692A,87.2717,44.0297,昌吉回族自治州,新区政务中心,,25,25,22,16,15,55,,94,90,32,31,5,10,0.6,0.9
2024-09-04T2200,3613A,87.3095,44.0142,昌吉回族自治州,亚心广场,,34,34,30,9,5,44,,95,90,54,32,2,4,0.6,0.5
2024-09-04T2200,1119A,125.3325,43.9166,长春市,食品厂,,28,21,40,19,17,70,,80,80,20,27,3,4,0.6,0.5
2024-09-04T2200,1120A,125.2863,43.9027,长春市,客车厂,,25,19,29,17,15,78,,84,84,15,22,6,7,0.6,0.6
2024-09-04T2200,1121A,125.2841,43.8463,长春市,邮电学院,,25,21,25,17,11,74,,81,81,18,20,6,6,0.6,0.5
2024-09-04T2200,1122A,125.3716,43.8772,长春市,劳动公园,,27,23,34,16,13,86,,87,87,12,24,6,7,0.6,0.7
2024-09-04T2200,1123A,125.3297,43.8805,长春市,园林处,,22,22,27,15,12,69,,78,78,14,19,3,4,0.7,0.5
2024-09-04T2200,1124A,125.4605,43.79,长春市,净月潭,,24,22,18,16,12,76,,84,84,7,6,6,6,0.6,0.5
2024-09-04T2200,1126A,125.3863,43.8447,长春市,经开区环卫处,,25,22,27,13,10,77,,79,79,17,23,6,6,0.8,0.6
2024-09-04T2200,1127A,125.245,43.7783,长春市,高新区管委会,,29,25,23,20,11,76,,82,82,11,16,4,3,0.7,0.5
2024-09-04T2200,1128A,125.1761,43.8325,长春市,岱山公园,,23,19,36,16,18,71,,78,78,14,28,2,3,0.6,0.5
2024-09-04T2200,1335A,113.0833,28.2325,长沙市,经开区环保局,颗粒物(PM10),55,59,58,24,36,72,,133,121,20,12,2,3,0.7,0.7
2024-09-04T2200,1336A,112.8872,28.2189,长沙市,高开区环保局,颗粒物(PM10),55,60,61,34,40,121,,147,138,7,9,2,2,0.9,1
2024-09-04T2200,1337A,113.0792,28.2053,长沙市,马坡岭,颗粒物(PM10),60,70,60,28,38,72,,145,124,16,9,2,2,0.7,0.7
2024-09-04T2200,1338A,112.9394,28.19,长沙市,湖南师范大学,颗粒物(PM10),58,65,66,39,42,101,,157,135,14,7,4,3,0.8,0.8
2024-09-04T2200,1339A,113.0178,28.1322,长沙市,雨花区环保局,颗粒物(PM10),54,58,58,30,34,66,,155,126,27,19,5,4,0.6,0.6
2024-09-04T2200,1340A,112.9792,28.2597,长沙市,伍家岭,颗粒物(PM10),56,61,62,36,39,101,,136,123,11,8,1,2,0.7,0.7
2024-09-04T2200,1341A,113.0014,28.1944,长沙市,火车新站,,,60,60,36,41,,,149,145,17,7,3,3,0.7,0.7
2024-09-04T2200,1342A,112.9844,28.1178,长沙市,天心区环保局,细颗粒物(PM2.5),64,61,62,46,45,70,,140,118,25,14,4,4,1.2,1.2
2024-09-04T2200,1343A,112.8908,28.1308,长沙市,湖南中医药大学,颗粒物(PM10),59,68,60,37,39,61,,171,142,50,9,4,4,1.2,1.1
2024-09-04T2200,1344A,112.9581,28.3611,长沙市,沙坪,细颗粒物(PM2.5),55,43,40,39,33,86,,134,121,10,7,7,12,0.7,1.2
2024-09-04T2200,1727A,113.1147,36.1547,长治市,清华站,,43,43,35,9,20,108,,144,130,10,9,7,7,0.5,0.5
2024-09-04T2200,1728A,113.1031,36.1989,长治市,监测站,,45,45,34,9,18,98,,127,110,13,15,8,8,0.7,0.6
2024-09-04T2200,1730A,113.0886,36.2125,长治市,审计局,,34,34,33,12,18,101,,127,107,8,12,5,5,0.6,0.5
2024-09-04T2200,1731A,113.0844,36.1856,长治市,长治八中,,44,44,39,26,20,102,,133,116,8,11,6,6,0.6,0.6
2024-09-04T2200,2845A,113.1569,36.1911,长治市,德盛苑,,39,39,34,9,17,109,,133,127,9,8,9,8,0.8,0.8
2024-09-04T2200,3568A,113.06,36.0464,长治市,向阳小学,,43,38,53,30,36,103,,150,139,8,12,6,7,0.5,0.5
2024-09-04T2200,3569A,112.8792,36.3144,长治市,屯留一中,,41,41,46,18,26,112,,132,122,12,8,8,7,0.5,0.5
2024-09-04T2200,3570A,113.235,36.3489,长治市,潞城四中,颗粒物(PM10),52,54,40,29,25,121,,145,118,12,15,7,6,1.0,0.6
2024-09-04T2200,1854A,111.6975,28.9703,常德市,市二中,细颗粒物(PM2.5),72,68,58,52,47,80,,143,117,16,11,6,6,0.9,0.8
2024-09-04T2200,3138A,111.7153,29.0289,常德市,武陵区永安,细颗粒物(PM2.5),78,79,61,57,42,89,,137,120,16,10,7,7,0.9,0.9
2024-09-04T2200,3139A,111.6892,28.9881,常德市,鼎城区玉霞,"颗粒物(PM10),细颗粒物(PM2.5)",59,67,59,42,43,88,,139,116,10,11,6,6,0.9,0.9
2024-09-04T2200,3140A,111.6625,29.0531,常德市,武陵区长庚,细颗粒物(PM2.5),63,67,57,45,39,134,,150,140,11,10,7,8,0.8,0.8
2024-09-04T2200,1196A,119.9633,31.762,常州市,市监测站,,39,37,33,26,16,122,,166,159,31,17,7,7,0.6,0.6
2024-09-04T2200,1200A,119.9468,31.7069,常州市,武进监测站,,39,32,30,24,15,123,,154,150,14,14,6,7,0.9,0.9
2024-09-04T2200,1201A,119.9255,31.9087,常州市,安家,颗粒物(PM10),53,56,39,32,21,94,,174,149,29,25,7,8,0.8,0.8
2024-09-04T2200,3002A,119.9805,31.8174,常州市,行政中心,,43,38,31,30,21,94,,170,156,38,20,10,9,0.6,0.6
2024-09-04T2200,3003A,120.0522,31.7748,常州市,经开区,,44,44,32,25,16,81,,169,151,32,19,12,11,0.8,0.8
2024-09-04T2200,3010A,119.9025,31.7964,常州市,钟楼,,42,39,30,20,15,134,,150,148,16,16,8,8,0.7,0.7
2024-09-04T2200,3429A,119.8598,31.7066,常州市,武进经发区,颗粒物(PM10),51,52,39,29,17,116,,149,143,29,20,10,12,0.6,0.6
2024-09-04T2200,3430A,119.5826,31.7245,常州市,金坛城区,,44,36,31,26,18,138,,156,155,16,17,6,7,0.7,0.7
2024-09-04T2200,2220A,120.4318,41.5881,朝阳市,西梁,,40,31,32,28,18,51,,113,96,19,13,5,8,0.9,0.9
2024-09-04T2200,2221A,120.4521,41.5646,朝阳市,河畔小区,,42,32,31,29,18,63,,118,101,18,12,6,9,1.0,1
2024-09-04T2200,2222A,120.4176,41.5648,朝阳市,八里堡,,36,36,33,25,18,56,,118,98,22,15,7,9,1.1,1
2024-09-04T2200,2223A,120.3806,41.5969,朝阳市,农业园区,,49,,33,34,23,30,,122,90,16,11,6,9,0.9,0.8
2024-09-04T2200,1705A,116.6367,23.6719,潮州市,西园路,,39,39,37,12,18,58,,67,67,15,12,6,7,0.4,0.3
2024-09-04T2200,3026A,116.6183,23.6608,潮州市,市政府,,38,38,34,18,16,69,,76,76,9,7,6,7,0.8,0.7
2024-09-04T2200,4036A,116.6461,23.6761,潮州市,金山,,37,37,34,23,20,62,,70,70,13,10,7,7,0.7,0.6
2024-09-04T2200,2472A,113.0073,25.9061,郴州市,马头岭,,22,22,31,6,11,33,,107,75,11,8,6,8,0.4,0.5
2024-09-04T2200,2473A,113.0116,25.8226,郴州市,市职中,,28,28,30,16,21,49,,121,95,16,12,3,4,0.6,0.6
2024-09-04T2200,2474A,113.0161,25.8001,郴州市,兴隆步行街,,33,33,31,13,20,45,,120,96,15,12,6,9,0.6,0.6
2024-09-04T2200,2475A,113.0383,25.8071,郴州市,市审计局,,21,21,27,13,20,60,,124,102,17,12,4,9,0.6,0.6
2024-09-04T2200,2476A,113.0348,25.7759,郴州市,市环保局,,34,34,31,19,20,43,,124,100,26,13,4,8,0.7,0.6
2024-09-04T2200,1431A,103.9728,30.7236,成都市,金泉两河,,30,26,33,6,18,95,,198,159,5,9,1,1,0.3,0.5
2024-09-04T2200,1432A,104.176,30.6872,成都市,十里店,,34,33,41,18,24,107,,190,162,7,12,4,5,0.4,0.5
2024-09-04T2200,1433A,104.079,30.5706,成都市,三瓦窑,,,36,43,12,29,,,201,183,19,42,1,7,0.4,0.5
2024-09-04T2200,1434A,104.1114,30.63,成都市,沙河铺,,31,10,43,3,28,99,,205,177,11,24,5,6,0.4,0.8
2024-09-04T2200,1437A,104.0786,30.6531,成都市,君平街,,38,14,37,3,25,119,,206,173,11,16,3,4,0.5,0.6
2024-09-04T2200,2880A,104.0239,30.65639,成都市,大石西路,,30,7,38,3,21,96,,195,162,13,16,5,6,0.7,0.8
2024-09-04T2200,3136A,104.2725,30.5589,成都市,龙泉驿区区政府,,36,31,40,19,28,113,,174,144,18,18,5,5,0.4,0.5
2024-09-04T2200,3357A,104.0106,30.6931,成都市,金博路,,29,,28,12,16,90,,188,154,9,15,1,2,0.4,0.5
2024-09-04T2200,3359A,104.0578,30.5225,成都市,华阳,,36,34,47,17,23,114,,195,163,10,21,3,4,0.5,0.5
2024-09-04T2200,3487A,104.2394,30.5319,成都市,车城东七路,,39,39,49,24,33,110,,181,153,17,18,3,3,0.6,0.6
2024-09-04T2200,3488A,104.3853,30.7453,成都市,青白江技师分院,细颗粒物(PM2.5),64,55,51,46,42,100,,192,131,32,35,3,5,0.6,0.7
2024-09-04T2200,3489A,104.0789,30.4072,成都市,科学城,,39,26,44,17,34,124,,177,157,7,17,3,4,0.5,0.6
2024-09-04T2200,4011A,103.8506,30.6947,成都市,光华大道三段,,38,12,36,3,20,120,,207,175,5,12,2,2,0.3,0.4
2024-09-04T2200,1062A,117.9531,40.9081,承德市,铁路,,42,39,39,29,19,61,,107,79,17,23,8,9,0.6,0.5
2024-09-04T2200,1063A,117.9392,40.9763,承德市,中国银行,,47,47,39,26,19,58,,91,71,17,20,4,6,0.6,0.5
2024-09-04T2200,1064A,117.9503,40.928,承德市,开发区,,32,32,34,19,19,64,,109,83,16,18,6,8,0.6,0.6
2024-09-04T2200,1065A,117.8051,40.9655,承德市,文化中心,,,36,40,31,17,83,,103,86,,15,9,10,0.5,0.4
2024-09-04T2200,1066A,117.9268,41.0026,承德市,离宫,,37,37,37,25,25,14,,64,32,6,9,3,3,0.5,0.4
2024-09-04T2200,2314A,117.47,30.6618,池州市,池州学院,颗粒物(PM10),54,57,45,36,30,109,,174,157,20,12,8,7,0.9,0.8
2024-09-04T2200,3237A,117.4918,30.6617,池州市,展览馆,颗粒物(PM10),52,53,45,31,26,103,,172,152,17,10,4,5,0.9,0.9
2024-09-04T2200,3333A,117.5627,30.695,池州市,第八中学,,50,50,44,31,29,96,,176,156,17,12,3,4,0.8,0.8
2024-09-04T2200,3334A,117.5038,30.6243,池州市,第十二中学,,45,41,41,31,27,126,,177,165,9,11,3,4,0.8,1
2024-09-04T2200,1744A,118.9233,42.2816,赤峰市,松山一中,,17,17,24,3,11,53,,100,69,21,19,9,9,0.6,0.7
2024-09-04T2200,1745A,118.9576,42.2728,赤峰市,哈达街,,26,,25,18,22,52,,92,67,13,13,7,8,0.2,0.4
2024-09-04T2200,1746A,118.8788,42.2554,赤峰市,天义路,,18,12,21,3,14,55,,98,68,12,14,6,7,0.2,0.4
2024-09-04T2200,3058A,119.2658,42.0353,赤峰市,银河街,,28,,33,19,22,57,,88,73,14,13,13,14,0.4,0.5
2024-09-04T2200,3286A,118.9359,42.3147,赤峰市,桥北物流园区,,16,16,22,10,14,38,,88,55,14,13,7,7,0.5,0.7
2024-09-04T2200,2521A,107.3476,22.4136,崇左市,市环保局江州分局,颗粒物(PM10),59,68,23,26,11,41,,106,94,15,4,6,6,0.9,0.6
2024-09-04T2200,2522A,107.3702,22.3707,崇左市,城南新区,,40,40,24,23,13,48,,114,103,25,7,4,5,0.8,0.5
2024-09-04T2200,2298A,118.3093,32.3153,滁州市,老年大学,,48,48,37,27,20,134,,189,177,16,14,8,10,0.5,0.5
2024-09-04T2200,2299A,118.3244,32.2786,滁州市,人大宾馆,细颗粒物(PM2.5),57,50,40,40,25,112,,188,170,24,18,6,7,0.7,0.6
2024-09-04T2200,3207A,118.3118,32.3038,滁州市,市政府原办公楼,,48,43,36,33,23,122,,183,170,20,15,7,8,0.7,0.6
2024-09-04T2200,3331A,118.3267,32.2634,滁州市,图书馆,细颗粒物(PM2.5),60,54,35,43,23,115,,184,170,19,14,6,6,0.4,0.3
2024-09-04T2200,2605A,101.5482,25.0441,楚雄彝族自治州,州环境监测站,,18,15,20,12,15,23,,50,45,23,13,8,6,0.6,0.5
2024-09-04T2200,2606A,101.538,25.0492,楚雄彝族自治州,市经济开发区,,30,30,22,14,13,26,,47,44,20,11,7,6,0.7,0.6
2024-09-04T2200,2548A,107.5277,31.2827,达州市,达州职业技术学院,,46,46,45,23,28,19,,102,69,27,15,5,6,0.7,0.7
2024-09-04T2200,2549A,107.5086,31.2186,达州市,市环境监测站,,45,45,42,22,20,43,,111,86,44,29,6,7,0.6,0.6
2024-09-04T2200,2550A,107.4988,31.2132,达州市,凤凰小区,,44,44,38,22,22,46,,122,97,44,25,6,7,0.6,0.5
2024-09-04T2200,2551A,107.5082,31.1986,达州市,达县机关宾馆,颗粒物(PM10),51,51,48,30,23,13,,115,81,79,37,6,6,0.6,0.4
2024-09-04T2200,2552A,107.4644,31.2124,达州市,市政中心,,,56,45,27,24,25,,122,93,64,32,7,6,,0.5
2024-09-04T2200,2614A,100.1542,25.7054,大理白族自治州,大理市环境监测站,,23,18,16,16,8,36,,46,43,10,7,4,3,0.5,0.5
2024-09-04T2200,2615A,100.2171,25.5811,大理白族自治州,大理古城,,23,23,17,15,7,25,,66,54,20,9,7,7,0.6,0.5
2024-09-04T2200,1109A,121.612,38.9741,大连市,甘井子,,39,24,26,15,16,124,,161,152,16,16,9,9,0.3,0.3
2024-09-04T2200,1110A,121.565,38.9511,大连市,周水子,,36,22,30,17,17,114,,152,145,19,19,8,8,0.5,0.5
2024-09-04T2200,1111A,121.5637,38.8845,大连市,星海三站,,39,26,24,16,16,122,,175,167,7,8,7,8,0.5,0.4
2024-09-04T2200,1112A,121.6302,38.9117,大连市,青泥洼桥,,34,23,25,17,17,107,,163,152,9,10,8,9,0.4,0.4
2024-09-04T2200,1113A,121.6251,38.8638,大连市,傅家庄,,40,20,24,16,17,128,,183,175,8,10,9,9,0.6,0.6
2024-09-04T2200,1114A,121.5213,38.8661,大连市,七贤岭,,41,28,25,19,17,129,,182,170,7,8,7,7,0.4,0.4
2024-09-04T2200,1115A,121.2529,38.8061,大连市,旅顺,,42,14,17,13,14,134,,189,180,14,12,7,8,0.5,0.5
2024-09-04T2200,1116A,121.7485,39.1311,大连市,金州,,38,24,22,18,18,119,,148,143,12,13,8,7,0.6,0.6
2024-09-04T2200,1117A,121.7811,39.0496,大连市,开发区,,36,28,26,17,17,115,,160,153,7,12,8,9,0.4,0.5
2024-09-04T2200,1118A,121.9762,39.0631,大连市,双D港,,23,15,18,15,15,73,,159,138,17,11,6,6,0.6,0.6
2024-09-04T2200,1789A,124.81117,46.03138,大庆市,大同区,,35,,29,24,21,53,,83,68,5,10,4,7,0.4,0.5
2024-09-04T2200,1790A,125.129,46.533,大庆市,龙凤区,,36,36,42,15,16,56,,82,68,14,14,3,3,0.4,0.5
2024-09-04T2200,1791A,124.902,46.408,大庆市,红岗区,,28,23,29,19,17,57,,84,72,10,12,5,6,0.3,0.5
2024-09-04T2200,1792A,125.153,46.586,大庆市,萨尔图区,,25,25,31,16,13,56,,78,65,11,15,4,6,0.3,0.4
2024-09-04T2200,1793A,124.9042,46.6215,大庆市,让胡路区,,18,15,31,8,13,55,,82,70,7,11,4,5,0.3,0.4
2024-09-04T2200,3481A,125.141,46.634,大庆市,萨区政府监测点,,21,21,29,11,12,55,,87,71,8,11,6,6,0.2,0.3
2024-09-04T2200,1723A,113.2994,40.0758,大同市,云冈宾馆,,23,,25,11,17,72,,80,80,7,19,6,7,0.2,0.5
2024-09-04T2200,1724A,113.3444,40.0917,大同市,大同大学,,20,16,21,12,14,63,,70,70,8,16,7,8,0.4,0.6
2024-09-04T2200,1725A,113.2661,40.1269,大同市,安家小村,,22,16,24,10,12,68,,80,80,7,15,9,10,0.6,0.8
2024-09-04T2200,1726A,113.2711,40.0844,大同市,教育学院,,22,16,25,7,15,68,,78,78,8,18,6,7,0.5,0.7
2024-09-04T2200,3282A,113.3397,40.0597,大同市,大同市卫生学校,,21,12,25,8,15,65,,76,76,12,19,7,7,0.7,0.9
2024-09-04T2200,3565A,113.1367,40.1122,大同市,云冈站,,15,13,24,9,15,48,,80,75,12,14,9,10,0.0,1.6
2024-09-04T2200,3566A,113.1186,40.2556,大同市,图书馆,,18,16,24,11,16,57,,77,75,8,15,8,10,0.5,0.8
2024-09-04T2200,3567A,113.5931,40.0461,大同市,区一中,,16,11,20,3,10,49,,62,62,10,14,10,9,0.5,0.6
2024-09-04T2200,3676A,113.2802,40.0995,大同市,第二人民医院,,22,16,24,13,16,70,,80,80,8,16,9,9,0.4,0.6
2024-09-04T2200,2269A,124.1069,50.4097,大兴安岭地区,科技局,,26,,17,18,14,28,,66,46,5,5,5,5,0.2,0.3
2024-09-04T2200,3663A,124.1164,50.4278,大兴安岭地区,红旗社区,,17,17,12,10,6,2,,59,33,22,10,5,5,0.3,0.3
2024-09-04T2200,1600A,124.3303,40.0625,丹东市,江湾东路,,30,30,43,12,22,88,,92,92,4,12,2,5,0.6,0.8
2024-09-04T2200,1601A,124.4256,40.1503,丹东市,临江后街,,35,35,41,17,18,90,,106,101,4,6,5,6,0.9,0.8
2024-09-04T2200,1602A,124.3933,40.1461,丹东市,元宝山,,28,24,35,12,14,89,,94,94,6,11,2,3,0.8,0.7
2024-09-04T2200,1603A,124.3633,40.1092,丹东市,民主桥,,29,29,36,15,18,91,,96,96,4,14,1,3,0.6,0.7
2024-09-04T2200,3541A,109.5726,19.5167,儋州市,第一中学子站,,24,24,21,14,12,43,,84,73,6,4,4,4,0.7,0.7
2024-09-04T2200,3542A,109.5567,19.5187,儋州市,东坡学校子站,,32,28,17,22,11,42,,88,77,7,3,2,4,0.6,0.5
2024-09-04T2200,2616A,98.5842,24.428,德宏傣族景颇族自治州,德宏州监测站,,26,26,29,13,13,21,,59,46,9,10,6,9,0.7,0.6
2024-09-04T2200,3677A,98.5881,24.4368,德宏傣族景颇族自治州,芒市人民政府综合楼,,27,27,22,16,12,21,,65,49,12,12,5,8,0.8,0.7
2024-09-04T2200,1901A,104.4239,31.1208,德阳市,东山公园,细颗粒物(PM2.5),57,53,40,40,26,128,,157,150,13,14,12,10,0.6,0.6
2024-09-04T2200,1902A,104.3826,31.1317,德阳市,西小区,细颗粒物(PM2.5),80,64,44,59,29,97,,158,143,22,19,56,9,0.8,0.6
2024-09-04T2200,1904A,104.3553,31.1091,德阳市,耐火材料厂,细颗粒物(PM2.5),59,54,48,42,27,99,,150,135,16,23,18,7,0.6,0.6
2024-09-04T2200,3639A,104.4019,31.1244,德阳市,市教育局,细颗粒物(PM2.5),90,67,45,67,27,99,,157,143,24,15,56,10,0.8,0.7
2024-09-04T2200,1622A,116.3032,37.4674,德州市,儿童乐园,颗粒物(PM10),53,56,57,27,26,142,,187,180,18,15,10,14,0.7,0.6
2024-09-04T2200,1624A,116.2991,37.4451,德州市,监理站,颗粒物(PM10),54,58,53,24,27,139,,190,181,17,14,10,14,0.7,0.7
2024-09-04T2200,3066A,116.2721,37.4379,德州市,九衢泉纯净水厂,颗粒物(PM10),57,63,59,29,27,112,,178,163,38,26,8,12,0.8,0.7
2024-09-04T2200,3371A,116.3728,37.4403,德州市,开发区人民医院,,46,44,58,22,24,147,,184,176,20,21,9,13,0.7,0.7
2024-09-04T2200,3372A,116.3572,37.4094,德州市,太阳城中学,颗粒物(PM10),59,68,57,31,26,108,,182,159,31,27,10,14,0.7,0.7
2024-09-04T2200,3511A,116.5652,37.3319,德州市,陵城艺术中心,颗粒物(PM10),51,51,55,14,20,146,,192,176,17,24,11,14,0.6,0.6
2024-09-04T2200,2621A,99.7056,27.8317,迪庆藏族自治州,迪庆州站,,20,20,16,12,9,34,,67,52,12,10,7,7,0.6,0.5
2024-09-04T2200,3180A,99.7136,27.8094,迪庆藏族自治州,质量技术监督局,,26,23,14,18,8,30,,64,49,13,10,9,9,0.6,0.5
2024-09-04T2200,2663A,104.6241,35.5734,定西市,东关小学,,26,22,23,17,19,82,,82,81,4,4,3,3,0.2,0.2
2024-09-04T2200,2664A,104.6194,35.5934,定西市,供电公司,,28,27,29,19,24,81,,82,80,3,4,5,6,0.2,0.2
2024-09-04T2200,1389A,113.7547,23.0494,东莞市,莞城梨川,,,33,29,19,17,,,121,109,21,16,5,5,0.7,0.8
2024-09-04T2200,1390A,113.7944,23.0128,东莞市,东城石井,,40,40,30,20,19,50,,126,100,23,16,5,5,0.7,0.7
2024-09-04T2200,1391A,113.7383,22.9658,东莞市,南城西平,,36,36,29,20,15,57,,125,100,29,21,4,4,0.8,0.7
2024-09-04T2200,3319A,113.7338,23.0381,东莞市,万江金泰,,28,28,29,19,19,60,,125,98,18,15,8,8,0.7,0.7
2024-09-04T2200,3626A,113.7533,23.0202,东莞市,南城元岭,,37,37,31,21,17,55,,140,109,28,13,8,7,0.7,0.6
2024-09-04T2200,3627A,113.7875,23.0457,东莞市,东城主山,,32,32,27,21,16,61,,130,103,20,14,9,8,0.8,0.7
2024-09-04T2200,1666A,118.6614,37.4309,东营市,市环保局,,46,39,40,17,16,147,,223,208,19,22,8,11,0.8,0.5
2024-09-04T2200,3036A,118.6904,37.4338,东营市,开发区管委会,,43,39,45,12,15,137,,222,208,19,18,10,10,0.4,0.4
2024-09-04T2200,3365A,118.5719,37.565,东营市,垦利区民丰路,臭氧1小时,73,53,43,22,17,178,,229,202,21,18,1,2,1.3,0.6
2024-09-04T2200,3498A,118.5055,37.8612,东营市,河口城区,,44,44,39,20,17,124,,200,180,16,12,7,8,1.0,0.9
2024-09-04T2200,3646A,118.4978,37.4623,东营市,胜利站,颗粒物(PM10),57,64,36,27,18,157,,207,190,25,23,12,14,1.6,0.9
2024-09-04T2200,3734A,118.35,37.26,东营市,理想之城,颗粒物(PM10),54,58,41,29,21,150,,212,189,24,22,9,9,1.1,0.5
2024-09-04T2200,1591A,110.0023,39.8129,鄂尔多斯市,综合楼,,25,12,22,3,12,80,,87,71,10,17,8,10,0.5,0.6
2024-09-04T2200,1592A,109.9486,39.8261,鄂尔多斯市,巴音孟克林场办事处,,25,7,23,3,13,77,,86,78,8,11,5,6,0.5,0.7
2024-09-04T2200,1593A,109.7736,39.5986,鄂尔多斯市,康泽苑,,26,12,24,3,10,81,,89,82,4,8,6,6,0.5,0.7
2024-09-04T2200,1594A,109.8119,39.5989,鄂尔多斯市,华泰汽车城,,34,34,24,7,15,75,,80,76,6,11,6,8,0.3,0.5
2024-09-04T2200,1595A,109.9734,39.7884,鄂尔多斯市,奥林花园,,,,26,5,13,77,,83,76,9,14,4,4,0.5,0.7
2024-09-04T2200,2436A,114.8938,30.3994,鄂州市,市政府,颗粒物(PM10),57,63,45,24,21,99,,149,132,21,15,12,11,1.2,0.8
2024-09-04T2200,2437A,114.8989,30.3714,鄂州市,赵家坝,,,62,42,,18,81,,151,139,26,15,11,12,1.2,1
2024-09-04T2200,3654A,114.8094,30.4089,鄂州市,精准医疗中心,颗粒物(PM10),53,55,41,30,20,84,,158,135,30,14,11,8,1.8,1
2024-09-04T2200,2454A,109.4978,30.2981,恩施土家族苗族自治州,湖北民院,,33,33,31,20,24,73,,105,99,21,14,9,9,0.8,0.8
2024-09-04T2200,2455A,109.4707,30.2798,恩施土家族苗族自治州,州电力总公司,,35,29,30,24,23,58,,118,102,27,16,9,8,0.7,0.7
2024-09-04T2200,3549A,109.5061,30.3772,恩施土家族苗族自治州,龙凤新区,,28,28,29,3,23,65,,123,100,13,12,6,6,0.8,0.7
2024-09-04T2200,2499A,108.3411,21.6158,防城港市,沙万,,33,31,31,22,18,105,,145,135,13,15,6,8,0.6,0.6
2024-09-04T2200,2500A,108.3514,21.7731,防城港市,防城档案局,,41,41,55,24,22,89,,96,93,9,16,7,7,0.7,0.6
2024-09-04T2200,2501A,108.3506,21.6414,防城港市,大海花园,,34,30,31,20,16,108,,143,138,11,15,7,8,0.5,0.5
2024-09-04T2200,1371A,113.1294,23.0067,佛山市,湾梁,,28,19,38,19,23,71,,178,133,23,25,6,7,0.8,0.8
2024-09-04T2200,1372A,113.1083,23.0478,佛山市,华材职中,,30,29,45,20,26,38,,170,118,59,36,6,6,0.5,0.5
2024-09-04T2200,1373A,113.144,23.0453,佛山市,南海气象局,,28,,36,19,25,62,,165,123,23,20,5,6,0.6,0.6
2024-09-04T2200,1374A,113.2881,22.8094,佛山市,顺德苏岗,,35,29,34,24,22,66,,205,168,25,21,7,8,0.8,0.8
2024-09-04T2200,1376A,112.8383,22.8678,佛山市,高明孔堂,,44,44,36,23,21,50,,185,142,36,18,4,5,0.8,0.7
2024-09-04T2200,1377A,112.8836,23.1588,佛山市,三水监测站,,39,39,32,20,25,48,,158,115,53,29,5,6,0.6,0.5
2024-09-04T2200,1378A,112.867,23.185,佛山市,三水云东海,,48,39,29,33,26,23,,151,108,55,24,9,10,0.8,0.7
2024-09-04T2200,3625A,113.2544,22.7642,佛山市,容桂街道办,,36,36,34,22,25,71,,214,181,29,25,6,7,0.9,0.8
2024-09-04T2200,1282A,119.2681,26.0504,福州市,师大,,26,26,21,8,8,71,,86,80,4,6,4,5,0.3,0.3
2024-09-04T2200,1283A,119.2984,26.1028,福州市,五四北路,,32,32,32,10,8,67,,89,80,6,6,3,3,0.4,0.5
2024-09-04T2200,1284A,119.2648,26.0768,福州市,杨桥西路,,24,24,21,9,9,72,,91,81,4,5,3,3,0.3,0.4
2024-09-04T2200,3048A,119.5799,26.0936,福州市,九龙,,24,18,19,3,6,74,,82,77,2,3,5,5,0.4,0.4
2024-09-04T2200,3526A,119.5189,25.9664,福州市,吴航,,24,18,17,11,10,75,,80,75,2,2,6,6,0.6,0.6
2024-09-04T2200,1755A,123.7977,41.8491,抚顺市,望花区,,36,36,48,15,20,104,,74,74,21,28,11,12,1.1,1
2024-09-04T2200,1756A,123.9161,41.8822,抚顺市,顺城区,,36,27,37,14,16,114,,84,84,16,29,7,6,0.6,0.7
2024-09-04T2200,1757A,124.0436,41.8611,抚顺市,东洲区,,44,44,27,18,15,102,,72,67,10,13,7,7,0.6,0.7
2024-09-04T2200,1758A,123.9247,41.8642,抚顺市,新抚区,,35,31,40,14,15,111,,76,76,13,26,7,8,0.6,0.6
2024-09-04T2200,1759A,124.0972,41.8961,抚顺市,大伙房水库,,35,22,21,16,14,112,,84,77,8,9,5,4,0.7,0.7
2024-09-04T2200,1760A,123.7086,41.8391,抚顺市,沈抚新城,,38,28,35,14,20,119,,82,82,15,24,7,8,0.2,0.5
2024-09-04T2200,2376A,116.2127,28.0814,抚州市,桐源党溪,细颗粒物(PM2.5),59,49,46,42,33,62,,144,115,7,3,7,7,0.6,0.7
2024-09-04T2200,2377A,116.3544,27.9831,抚州市,市站,细颗粒物(PM2.5),52,50,45,36,30,84,,115,107,5,6,5,5,1.0,1.1
2024-09-04T2200,2378A,116.3565,27.963,抚州市,血防站,,49,47,45,34,31,80,,123,113,8,8,2,2,0.9,1
2024-09-04T2200,2379A,116.3564,28.0007,抚州市,采茶剧团,颗粒物(PM10),55,60,46,38,31,75,,124,108,6,6,10,7,1.3,1.4
2024-09-04T2200,2380A,116.385,27.9647,抚州市,医学分院,,50,49,43,35,27,76,,137,124,8,6,4,6,0.8,0.8
2024-09-04T2200,2207A,121.6094,41.998,阜新市,工业园区,,32,25,32,14,14,100,,100,100,17,18,8,11,1.0,0.6
2024-09-04T2200,2208A,121.6697,42.0279,阜新市,长青街,,33,33,30,22,13,101,,100,100,19,18,13,17,0.9,0.6
2024-09-04T2200,2209A,121.6673,42.0705,阜新市,农业园区,,32,25,25,22,14,82,,97,88,16,15,7,8,0.7,0.6
2024-09-04T2200,2210A,121.6717,42.0224,阜新市,东苑,,46,,28,32,19,99,,99,96,21,19,16,18,1.2,0.9
2024-09-04T2200,2211A,121.6506,42.0498,阜新市,玉龙新城,,28,28,27,14,14,88,,92,91,17,17,9,12,0.7,0.6
2024-09-04T2200,2301A,115.8277,32.8929,阜阳市,市监测站,,40,40,41,24,22,105,,146,132,12,11,6,8,0.7,0.6
2024-09-04T2200,2303A,115.8554,32.8605,阜阳市,开发区,颗粒物(PM10),53,55,48,25,18,109,,151,140,18,16,6,7,0.7,0.6
2024-09-04T2200,2875A,115.784,32.8892,阜阳市,阜阳职业技术学院,,50,50,42,25,20,112,,149,141,13,11,6,8,0.6,0.5
2024-09-04T2200,3468A,115.7901,32.8613,阜阳市,市规划展馆,颗粒物(PM10),56,62,44,35,26,122,,148,140,15,13,6,9,0.7,0.6
2024-09-04T2200,3469A,115.836,32.9183,阜阳市,枣园社区,,44,44,41,28,27,106,,145,131,13,15,6,7,0.8,0.7
2024-09-04T2200,2669A,102.9099,34.9841,甘南藏族自治州,州政府,,26,21,19,13,14,82,,80,80,5,6,8,8,0.4,0.4
2024-09-04T2200,3380A,102.8914,34.9617,甘南藏族自治州,甘肃民族师范学院,,28,14,13,3,8,89,,86,86,1,4,4,4,0.5,0.5
2024-09-04T2200,2570A,101.9603,30.0475,甘孜藏族自治州,水桥子,,28,8,8,8,7,88,,88,87,10,18,4,5,0.4,0.3
2024-09-04T2200,3065A,101.9533,29.9972,甘孜藏族自治州,州环保局,,30,8,13,3,5,95,,86,85,8,22,3,3,0.3,0.2
2024-09-04T2200,3414A,115.8347,28.932,赣江新区,桑海产业园,颗粒物(PM10),57,63,41,34,36,24,,131,106,66,14,11,12,0.5,0.5
2024-09-04T2200,2363A,114.9367,25.8664,赣州市,地委,,45,45,32,22,18,38,,99,82,24,11,5,7,1.1,1
2024-09-04T2200,2364A,114.9461,25.8481,赣州市,气象台,,41,41,36,23,21,58,,101,84,19,10,3,7,1.0,0.8
2024-09-04T2200,2365A,114.9322,25.8333,赣州市,市图书馆,,31,31,32,18,18,68,,114,98,15,9,5,4,1.1,1
2024-09-04T2200,2366A,114.8905,25.8471,赣州市,华坚鞋城,,35,35,34,21,18,70,,97,84,11,11,2,2,0.7,0.6
2024-09-04T2200,3109A,115.0093,25.8613,赣州市,赣县区卫计委,,33,28,26,23,19,33,,101,79,28,13,6,6,0.8,0.7
2024-09-04T2200,2683A,106.2319,36.1417,固原市,马园,,25,,65,3,17,79,,79,75,8,13,5,5,0.7,0.7
2024-09-04T2200,2684A,106.2792,36.0022,固原市,监测站,,26,8,57,7,21,81,,86,83,8,7,4,4,0.3,0.3
2024-09-04T2200,2685A,106.2375,36.0211,固原市,新区,,24,8,53,7,19,76,,82,77,5,6,8,7,0.3,0.3
2024-09-04T2200,3522A,106.2177,35.9959,固原市,原州区十五小,,26,23,42,14,19,81,,88,82,7,7,8,8,0.4,0.4
2024-09-04T2200,2544A,106.6303,30.4576,广安市,市委,,33,33,22,18,16,67,,141,123,44,21,4,5,0.5,0.4
2024-09-04T2200,2545A,106.6271,30.4663,广安市,友谊中学,,49,49,28,17,16,74,,137,123,34,20,3,4,0.5,0.5
2024-09-04T2200,2547A,106.6388,30.4551,广安市,广电花园,,29,29,27,13,17,82,,136,124,29,19,1,2,0.5,0.5
2024-09-04T2200,2902A,106.6351,30.4865,广安市,北辰小学,,35,35,31,17,16,83,,141,126,20,16,5,6,0.3,0.4
2024-09-04T2200,2523A,105.8945,32.4535,广元市,黑石坡,,48,,22,33,18,74,,116,105,5,10,5,6,0.4,0.4
2024-09-04T2200,2524A,105.821,32.4444,广元市,老城,,45,45,25,22,11,76,,135,112,4,24,1,2,0.3,0.5
2024-09-04T2200,2526A,105.8628,32.4287,广元市,监测站,,39,39,20,27,13,78,,130,110,5,12,4,6,0.5,0.6
2024-09-04T2200,3617A,105.8047,32.4166,广元市,经开区,,42,42,36,11,24,78,,134,113,4,21,3,6,0.5,0.7
2024-09-04T2200,1345A,113.2347,23.1423,广州市,广雅中学,,37,37,41,21,23,42,,157,109,49,36,5,6,0.9,0.9
2024-09-04T2200,1346A,113.2612,23.105,广州市,市五中,,40,36,39,28,30,62,,160,119,28,21,4,4,0.8,0.8
2024-09-04T2200,1348A,113.3478,23.0916,广州市,广东商学院,,35,35,41,21,26,53,,146,108,34,34,4,5,0.7,0.7
2024-09-04T2200,1349A,113.4332,23.1047,广州市,市八十六中,,41,41,42,23,23,35,,140,97,43,39,4,4,0.8,0.7
2024-09-04T2200,1350A,113.3505,22.9483,广州市,番禺中学,,35,35,38,22,24,79,,183,144,22,23,4,5,0.8,0.8
2024-09-04T2200,1351A,113.2146,23.3916,广州市,花都师范,,25,25,30,16,19,64,,132,102,19,17,3,4,0.9,0.8
2024-09-04T2200,1352A,113.2597,23.1331,广州市,市监测站,,34,34,37,23,25,45,,148,105,36,26,4,5,0.8,0.8
2024-09-04T2200,1353A,113.5618,23.312,广州市,九龙镇镇龙,,33,33,27,19,13,39,,104,81,29,16,6,6,0.7,0.7
2024-09-04T2200,1354A,113.2765,23.1544,广州市,麓湖,,39,39,38,22,22,30,,146,93,41,36,4,5,0.7,0.7
2024-09-04T2200,1355A,113.443,23.3035,广州市,帽峰山森林公园,,19,14,17,12,13,59,,123,90,6,8,5,5,0.5,0.5
2024-09-04T2200,2846A,113.3221,23.1322,广州市,体育西,,35,35,37,21,24,46,,140,106,26,19,6,7,0.8,0.7
2024-09-04T2200,3298A,113.5717,23.5491,广州市,从化街口,,35,35,28,17,16,24,,114,71,27,18,6,4,0.8,0.6
2024-09-04T2200,3299A,113.3472,23.3692,广州市,白云竹料,,35,24,36,24,22,43,,133,101,20,19,4,5,0.8,0.7
2024-09-04T2200,3300A,113.2981,23.237,广州市,白云嘉禾,,44,44,43,23,24,28,,140,90,58,40,5,5,0.9,0.9
2024-09-04T2200,3301A,113.4256,23.1716,广州市,黄埔科学城,,37,37,35,18,22,41,,136,94,25,26,4,5,0.7,0.6
2024-09-04T2200,3302A,113.3942,23.0483,广州市,番禺大学城,,34,34,39,23,23,35,,153,108,41,28,8,9,0.7,0.6
2024-09-04T2200,3303A,113.4922,22.8168,广州市,南沙黄阁,,42,42,44,24,25,33,,195,126,59,36,5,5,1.0,0.9
2024-09-04T2200,3304A,113.5342,22.7896,广州市,南沙街,,41,41,39,24,24,63,,192,144,30,26,6,6,0.7,0.8
2024-09-04T2200,3443A,113.2902,23.5544,广州市,花都梯面,,26,26,26,16,18,16,,110,80,35,19,4,6,0.7,0.6
2024-09-04T2200,3445A,113.7858,23.7478,广州市,从化良口,,26,25,25,18,17,37,,74,56,7,8,6,6,0.8,0.8
2024-09-04T2200,3446A,113.8051,23.2614,广州市,增城荔城,,31,31,20,18,14,56,,98,82,12,11,5,4,0.7,0.7
2024-09-04T2200,2506A,109.6047,23.0666,贵港市,江南子站,,42,29,50,16,25,133,,144,136,9,18,7,10,0.5,0.7
2024-09-04T2200,2507A,109.6014,23.0948,贵港市,贵城子站,,37,28,40,18,24,118,,131,128,12,16,7,8,0.6,0.7
2024-09-04T2200,2508A,109.5669,23.1065,贵港市,荷城子站,,35,29,34,3,13,111,,123,117,12,14,10,11,0.5,0.5
2024-09-04T2200,3405A,109.5886,23.1172,贵港市,新世纪学校,,38,27,31,13,13,121,,126,123,7,12,8,9,0.6,0.6
2024-09-04T2200,1439A,106.6899,26.5998,贵阳市,马鞍山,,22,9,11,3,1,69,,111,95,11,11,4,5,0.5,0.5
2024-09-04T2200,1440A,106.6971,26.5694,贵阳市,市环保站,,26,19,23,18,14,72,,104,93,28,19,4,5,0.4,0.3
2024-09-04T2200,1441A,106.6243,26.6266,贵阳市,鉴湖路,,26,19,18,7,7,81,,111,101,12,8,5,9,0.3,0.3
2024-09-04T2200,1442A,106.7487,26.6343,贵阳市,燕子冲,,25,,9,12,9,80,,116,106,12,10,6,7,0.4,0.4
2024-09-04T2200,1443A,106.6555,26.4365,贵阳市,碧云窝,,28,12,20,7,5,87,,111,103,8,8,6,9,0.3,0.5
2024-09-04T2200,1444A,106.694,26.5161,贵阳市,中院村,,24,24,23,12,10,75,,104,94,20,12,7,9,0.4,0.3
2024-09-04T2200,1445A,106.7109,26.6027,贵阳市,红边门,,29,17,17,12,16,90,,113,105,13,15,3,6,0.4,0.4
2024-09-04T2200,1446A,106.7164,26.5699,贵阳市,新华路,,27,22,18,9,8,86,,118,108,18,13,6,7,0.3,0.4
2024-09-04T2200,1447A,106.674,26.5424,贵阳市,太慈桥,,29,29,13,9,4,34,,105,86,40,12,4,5,0.5,0.3
2024-09-04T2200,1862A,110.4144,25.3167,桂林市,电子科大尧山校区,细颗粒物(PM2.5),62,66,39,44,22,47,,111,93,14,6,21,14,0.7,0.6
2024-09-04T2200,1863A,110.2819,25.2697,桂林市,监测站,,42,42,34,21,17,61,,99,87,20,8,14,8,0.6,0.4
2024-09-04T2200,1864A,110.3089,25.2708,桂林市,龙隐路小学,,43,42,31,30,17,82,,114,104,10,7,19,10,0.5,0.4
2024-09-04T2200,1865A,110.2869,25.2178,桂林市,八中,,39,39,29,24,16,53,,122,97,11,7,8,8,0.5,0.4
2024-09-04T2200,3403A,110.1764,25.2381,桂林市,创业大厦,细颗粒物(PM2.5),83,83,36,61,26,50,,126,112,28,11,106,18,0.4,0.3
2024-09-04T2200,3531A,110.296,25.1253,桂林市,旅游学院,,39,31,18,27,13,36,,116,91,20,7,6,7,0.5,0.4
2024-09-04T2200,1129A,126.5422,45.755,哈尔滨市,岭北,,27,27,24,18,15,73,,91,86,11,17,8,9,0.8,0.5
2024-09-04T2200,1130A,126.561,45.8167,哈尔滨市,松北商大,,21,21,22,12,8,27,,59,44,28,21,7,8,0.7,0.6
2024-09-04T2200,1131A,126.979,45.5419,哈尔滨市,阿城会宁,,28,,21,19,11,51,,62,62,12,14,7,7,0.9,0.8
2024-09-04T2200,1132A,126.599,45.7222,哈尔滨市,南岗学府路,,34,34,38,8,10,59,,65,64,14,24,6,8,0.8,0.6
2024-09-04T2200,1133A,126.689,45.7733,哈尔滨市,太平宏伟公园,,26,26,31,10,12,54,,54,53,16,25,6,4,0.7,0.6
2024-09-04T2200,1134A,126.635,45.7667,哈尔滨市,道外承德广场,,32,,28,22,12,57,,56,49,14,29,7,8,0.5,0.4
2024-09-04T2200,1135A,126.685,45.7319,哈尔滨市,香坊红旗大街,,30,24,32,21,15,63,,54,54,14,27,6,9,0.8,0.8
2024-09-04T2200,1136A,126.6411,45.7258,哈尔滨市,动力和平路,,25,25,29,16,17,62,,59,58,14,23,6,9,0.7,0.6
2024-09-04T2200,1137A,126.593,45.7478,哈尔滨市,道里建国路,,30,30,32,16,15,56,,61,52,8,24,11,12,0.7,1.3
2024-09-04T2200,1138A,126.615,45.61,哈尔滨市,平房东轻厂,,24,24,22,10,8,44,,58,52,18,16,5,6,0.7,0.4
2024-09-04T2200,1139A,126.595,45.9855,哈尔滨市,呼兰师专,,32,23,28,22,16,44,,65,54,16,26,10,10,0.8,0.7
2024-09-04T2200,1140A,126.6206,45.6842,哈尔滨市,省农科院,,28,28,34,16,13,47,,49,47,18,30,6,8,0.7,0.5
2024-09-04T2200,2688A,93.5128,42.8172,哈密市,地区监测站,,48,48,34,12,13,72,,104,100,24,9,4,5,0.4,0.3
2024-09-04T2200,2689A,93.4961,42.8328,哈密市,哈密师范学校,颗粒物(PM10),59,67,31,15,12,26,,103,90,57,10,4,6,0.8,0.4
2024-09-04T2200,2671A,100.9048,36.9639,海北藏族自治州,海晏县西海镇,,25,8,14,8,13,77,,95,84,6,6,11,12,0.6,0.5
2024-09-04T2200,3867A,102.0738,36.5056,海东市,平安区公安北苑,,25,13,19,3,4,79,,82,80,7,7,8,11,1.1,0.6
2024-09-04T2200,1410A,110.3232,20.0574,海口市,海南大学,,35,26,22,14,11,109,,103,103,8,15,6,6,0.4,0.4
2024-09-04T2200,1411A,110.283,20.0053,海口市,秀英海南医院,,29,29,25,18,12,90,,100,98,12,14,4,4,0.4,0.4
2024-09-04T2200,1412A,110.338,19.9969,海口市,海南师范大学,,30,26,26,17,13,96,,106,104,11,12,6,6,0.5,0.5
2024-09-04T2200,1413A,110.33,20.0356,海口市,龙华路环保局宿舍,,31,22,24,16,12,99,,102,102,9,11,4,4,0.4,0.4
2024-09-04T2200,3539A,110.5111,19.9736,海口市,桂林洋子站,,,42,30,26,17,55,,109,96,,14,5,5,0.4,0.4
2024-09-04T2200,2673A,100.6188,36.2866,海南藏族自治州,共和县恰卜恰镇,,,21,16,3,7,90,,95,92,5,6,12,12,,0.5
2024-09-04T2200,2676A,97.3731,37.3753,海西蒙古族藏族自治州,德令哈市,颗粒物(PM10),53,55,91,16,26,94,,94,93,6,9,8,9,0.5,0.4
2024-09-04T2200,1048A,114.5302,36.6116,邯郸市,东污水处理厂,颗粒物(PM10),56,61,55,19,22,114,,159,151,17,13,3,4,0.5,0.5
2024-09-04T2200,1049A,114.4918,36.5713,邯郸市,矿院,,49,49,50,27,24,118,,168,160,18,11,2,4,0.5,0.4
2024-09-04T2200,1050A,114.484,36.6133,邯郸市,丛台公园,,40,39,42,26,22,128,,161,156,13,9,4,5,0.5,0.4
2024-09-04T2200,3458A,114.7895,36.5593,邯郸市,香泉濮院小区,颗粒物(PM10),63,75,45,19,18,120,,154,149,16,12,2,3,0.5,0.4
2024-09-04T2200,3579A,114.50634,36.77178,邯郸市,永年区实验高中,颗粒物(PM10),64,78,60,26,27,104,,179,166,34,15,2,4,0.6,0.5
2024-09-04T2200,3580A,114.20016,36.44293,邯郸市,峰峰矿区临水派出所,,50,50,41,24,21,158,,183,178,7,9,4,8,0.3,0.8
2024-09-04T2200,2634A,106.9893,33.1842,汉中市,汉川机床厂子校,,25,23,21,11,14,80,,111,106,3,6,4,4,0.6,0.7
2024-09-04T2200,2635A,107.0154,33.0706,汉中市,市监测站,,38,38,26,15,16,76,,115,109,8,4,10,8,0.6,0.7
2024-09-04T2200,2636A,107.0089,33.1138,汉中市,鑫源开发区,,42,42,26,19,20,72,,118,108,8,5,11,9,0.4,0.6
2024-09-04T2200,2637A,107.007,33.0323,汉中市,南郑大河坎水厂,,40,40,29,16,16,78,,109,103,7,5,10,8,0.5,0.6
2024-09-04T2200,1223A,120.2072,30.2111,杭州市,滨江,,36,36,40,20,22,75,,159,145,21,16,5,5,0.7,0.7
2024-09-04T2200,1224A,120.0633,30.2747,杭州市,西溪,,34,30,33,20,21,106,,155,152,17,16,6,6,0.7,0.7
2024-09-04T2200,1226A,120.3461,30.3153,杭州市,下沙,,26,,35,16,21,83,,160,141,25,26,7,8,0.6,0.7
2024-09-04T2200,1227A,120.1269,30.2456,杭州市,卧龙桥,,34,34,35,21,24,105,,173,167,16,15,6,6,0.6,0.7
2024-09-04T2200,1228A,120.1903,30.2692,杭州市,浙江农大,,33,33,34,17,21,70,,161,148,34,21,9,10,0.6,0.6
2024-09-04T2200,1230A,120.1197,30.3119,杭州市,和睦小学,,30,27,30,21,19,93,,165,154,20,18,7,8,0.7,0.8
2024-09-04T2200,1231A,120.3019,30.4183,杭州市,临平镇,,27,19,34,9,17,84,,150,135,10,12,4,4,0.7,0.7
2024-09-04T2200,1232A,120.2697,30.1819,杭州市,城厢镇,,35,35,37,24,26,86,,171,154,23,22,7,7,0.6,0.6
2024-09-04T2200,1233A,120.0883,30.1808,杭州市,云栖,,30,28,28,18,18,96,,176,165,20,14,6,6,0.7,0.7
2024-09-04T2200,3557A,119.9464,30.0494,杭州市,镇二中,,42,39,31,29,23,126,,161,159,19,17,10,8,0.8,0.8
2024-09-04T2200,3558A,119.7183,30.2367,杭州市,市府大楼,,39,35,32,27,28,121,,178,168,22,15,6,6,0.7,0.7
2024-09-04T2200,3656A,120.1556,30.2864,杭州市,消防大队,,31,28,37,18,22,98,,166,158,13,14,8,8,0.8,0.9
2024-09-04T2200,1270A,117.1959,31.7848,合肥市,明珠广场,,46,41,40,29,27,145,,159,154,18,19,7,8,0.7,0.7
2024-09-04T2200,1271A,117.3072,31.8764,合肥市,三里街,,48,48,44,29,24,115,,166,155,23,18,5,6,0.7,0.6
2024-09-04T2200,1272A,117.2588,31.8707,合肥市,琥珀山庄,,46,44,43,32,28,127,,173,161,16,15,6,7,0.8,0.7
2024-09-04T2200,1273A,117.1604,31.9052,合肥市,董铺水库,颗粒物(PM10),52,53,44,34,23,102,,160,146,20,14,2,2,0.6,0.5
2024-09-04T2200,1274A,117.25,31.8571,合肥市,长江中路,颗粒物(PM10),57,63,49,37,28,110,,166,153,27,20,8,8,1.0,0.9
2024-09-04T2200,1275A,117.266,31.9436,合肥市,庐阳区,颗粒物(PM10),56,61,45,36,22,108,,192,170,33,19,5,4,0.7,0.6
2024-09-04T2200,1276A,117.336,31.8586,合肥市,瑶海区,,46,46,45,32,23,109,,162,146,26,23,5,6,0.8,0.6
2024-09-04T2200,1277A,117.3027,31.7964,合肥市,包河区,颗粒物(PM10),64,78,50,36,26,47,,159,139,86,29,7,7,0.7,0.6
2024-09-04T2200,1278A,117.2776,31.7385,合肥市,滨湖新区,,44,44,41,29,22,137,,156,154,13,13,6,7,0.7,0.6
2024-09-04T2200,1279A,117.1318,31.8403,合肥市,高新区,颗粒物(PM10),51,51,44,33,23,131,,152,144,20,18,7,7,0.9,0.9
2024-09-04T2200,3464A,117.3803,31.9147,合肥市,高教基地,细颗粒物(PM2.5),52,48,36,36,24,93,,156,139,21,13,2,7,0.5,0.5
2024-09-04T2200,3614A,79.924,37.0877,和田地区,地区环保局,颗粒物(PM10),90,130,118,29,26,53,,90,88,34,8,8,7,0.9,0.7
2024-09-04T2200,3615A,79.9131,37.113,和田地区,市环保局,颗粒物(PM10),72,94,84,26,28,75,,90,90,16,6,7,7,0.5,0.4
2024-09-04T2200,2516A,108.2011,24.715,河池市,东仁乐园,,21,21,24,11,11,35,,103,82,17,10,4,5,0.5,0.5
2024-09-04T2200,2517A,108.0497,24.6947,河池市,市环保站,细颗粒物(PM2.5),77,,24,56,20,44,,118,101,20,11,8,9,0.6,0.5
2024-09-04T2200,2518A,108.0983,24.6989,河池市,市疾控中心,,39,39,28,17,14,33,,121,95,28,16,8,9,0.6,0.6
2024-09-04T2200,1696A,114.6778,23.7569,河源市,源西,,22,17,22,15,14,32,,92,61,20,16,4,4,0.6,0.6
2024-09-04T2200,1697A,114.6944,23.7586,河源市,东埔,,32,32,20,16,14,45,,93,64,16,13,2,2,0.6,0.7
2024-09-04T2200,1698A,114.6892,23.7233,河源市,老城,,32,32,19,6,8,33,,95,63,15,9,2,3,0.7,0.7
2024-09-04T2200,1718A,115.4208,35.2464,菏泽市,气象局,颗粒物(PM10),55,60,51,24,19,121,,166,152,13,10,5,5,0.4,0.3
2024-09-04T2200,1719A,115.4747,35.2375,菏泽市,市政协,颗粒物(PM10),51,52,48,23,20,125,,165,152,10,9,4,6,0.3,0.3
2024-09-04T2200,3374A,115.5564,35.0891,菏泽市,定陶老年大学,颗粒物(PM10),52,53,42,19,13,103,,157,139,14,11,7,6,0.5,0.4
2024-09-04T2200,3647A,115.4702,35.2706,菏泽市,菏泽医专,,46,46,50,17,16,132,,166,154,10,13,9,8,0.7,0.6
2024-09-04T2200,2514A,111.5264,24.4172,贺州市,环保小区,颗粒物(PM10),54,58,28,23,12,39,,109,78,31,14,10,7,0.8,0.7
2024-09-04T2200,2515A,111.5608,24.4078,贺州市,政协大楼,,47,47,29,28,14,50,,118,93,23,14,15,7,0.6,0.5
2024-09-04T2200,3534A,111.4744,24.4553,贺州市,西湾,,,40,25,28,12,,,108,96,14,11,4,6,0.6,0.6
2024-09-04T2200,2385A,114.17,35.9019,鹤壁市,市监测站,细颗粒物(PM2.5),62,49,55,44,26,113,,178,165,9,14,4,6,0.6,0.6
2024-09-04T2200,2386A,114.2956,35.7511,鹤壁市,市交警支队,颗粒物(PM10),58,65,56,34,24,124,,193,181,24,18,5,4,0.6,0.6
2024-09-04T2200,2387A,114.2878,35.7306,鹤壁市,迎宾馆,颗粒物(PM10),55,59,56,37,29,122,,200,187,26,19,5,5,0.8,0.7
2024-09-04T2200,3474A,114.2617,35.6822,鹤壁市,大新区,,,72,53,,23,107,,196,178,38,29,6,5,0.6,0.4
2024-09-04T2200,3596A,114.1572,35.9603,鹤壁市,南山宾馆,,49,42,40,34,20,142,,171,161,6,12,4,6,0.7,0.6
2024-09-04T2200,2244A,130.2537,47.3416,鹤岗市,哈啤分公司,,26,26,27,14,15,38,,50,32,6,15,13,14,0.4,0.5
2024-09-04T2200,2245A,130.2684,47.3086,鹤岗市,斯达机电,,13,12,27,9,10,34,,58,40,15,16,14,15,0.2,0.2
2024-09-04T2200,2246A,130.3114,47.3388,鹤岗市,东山纸板厂,,15,10,27,10,15,34,,52,32,12,19,17,16,0.4,0.5
2024-09-04T2200,2247A,130.1097,47.3382,鹤岗市,五号水库,,11,6,11,3,6,35,,61,44,6,6,7,7,0.4,0.3
2024-09-04T2200,2263A,127.4833,50.2524,黑河市,交通局,,22,15,21,15,11,38,,69,52,2,5,4,5,0.3,0.3
2024-09-04T2200,2264A,127.5144,50.2341,黑河市,环保局,,26,,23,18,13,40,,79,55,4,6,3,4,0.2,0.3
2024-09-04T2200,2265A,127.5291,50.2472,黑河市,大黑河岛,,,118,25,,13,44,,63,51,2,4,2,2,0,0.1
2024-09-04T2200,1074A,115.6838,37.7541,衡水市,电机北厂,颗粒物(PM10),62,74,53,39,20,98,,174,155,31,12,6,9,0.4,0.4
2024-09-04T2200,1075A,115.6303,37.7316,衡水市,市监测站,颗粒物(PM10),54,58,54,20,18,140,,173,161,14,15,8,9,0.5,0.4
2024-09-04T2200,3188A,115.6683,37.7217,衡水市,市城管局,颗粒物(PM10),57,63,51,33,22,127,,178,164,17,13,7,8,0.5,0.5
2024-09-04T2200,3459A,115.5989,37.5491,衡水市,地表水厂,颗粒物(PM10),57,63,59,24,21,68,,168,133,39,18,5,5,0.5,0.4
2024-09-04T2200,2456A,112.5003,26.9167,衡阳市,原169医院,细颗粒物(PM2.5),54,48,56,38,33,61,,149,116,31,17,6,8,1.0,0.8
2024-09-04T2200,2457A,112.6194,26.9258,衡阳市,衡阳化工总厂,,,80,58,,,85,,134,112,6,8,8,8,0.8,0.8
2024-09-04T2200,2458A,112.6211,26.8956,衡阳市,珠晖区环保局,,,124,52,,,61,,138,105,24,13,6,7,1.0,0.9
2024-09-04T2200,2459A,112.6197,26.8733,衡阳市,市委党校,颗粒物(PM10),53,55,46,32,28,64,,148,118,16,10,6,8,1.0,0.8
2024-09-04T2200,2460A,112.6006,26.8919,衡阳市,市监测站,颗粒物(PM10),52,53,49,35,33,82,,144,117,15,10,9,9,1.1,0.9
2024-09-04T2200,2461A,112.5664,26.9056,衡阳市,真空机电公司,细颗粒物(PM2.5),52,51,57,36,36,86,,141,119,11,10,8,14,1.0,1.2
2024-09-04T2200,3399A,112.6703,26.882,衡阳市,师范学院,颗粒物(PM10),53,56,46,29,24,55,,136,102,14,11,8,9,0.9,0.8
2024-09-04T2200,2608A,103.3772,23.3993,红河哈尼族彝族自治州,污水处理厂,,26,26,22,13,16,30,,64,48,8,14,6,37,0.3,0.5
2024-09-04T2200,2609A,103.3861,23.35,红河哈尼族彝族自治州,监测站,,28,25,21,19,13,26,,66,45,13,12,7,12,0.5,0.5
2024-09-04T2200,3038A,103.3758,23.368,红河哈尼族彝族自治州,州图书馆,,22,17,22,15,10,31,,60,45,10,12,6,29,0.3,0.3
2024-09-04T2200,1090A,111.6507,40.7517,呼和浩特市,呼市一监,,23,6,13,3,11,73,,76,71,5,12,4,4,0.4,0.6
2024-09-04T2200,1091A,111.6572,40.8033,呼和浩特市,小召,,23,,11,3,12,71,,70,69,12,19,6,6,0.5,0.7
2024-09-04T2200,1094A,111.7516,40.8369,呼和浩特市,如意水处理厂,,23,6,16,3,8,73,,79,67,7,17,5,5,0.4,0.5
2024-09-04T2200,1095A,111.7276,40.8062,呼和浩特市,二十九中,,21,8,18,3,14,65,,82,76,18,19,4,4,0.5,0.7
2024-09-04T2200,1096A,111.5512,40.7866,呼和浩特市,工大金川校区,,23,7,16,3,10,72,,81,63,9,22,2,2,0.4,0.5
2024-09-04T2200,1097A,111.717,40.7612,呼和浩特市,化肥厂生活区,,23,6,21,3,12,73,,77,73,12,21,8,8,0.4,0.6
2024-09-04T2200,3698A,111.5968,40.8178,呼和浩特市,红旗小学,,23,6,10,3,9,72,,80,66,10,24,3,3,0.3,0.4
2024-09-04T2200,3699A,111.6518,40.8389,呼和浩特市,海东办,,23,6,10,3,11,71,,85,75,10,21,7,5,0.4,0.6
2024-09-04T2200,2192A,119.7594,49.2261,呼伦贝尔市,区环保局,,35,35,28,19,16,44,,73,52,16,13,7,5,0.3,0.3
2024-09-04T2200,3061A,119.7512,49.1577,呼伦贝尔市,国华电力东,,26,26,28,11,14,42,,79,57,9,7,3,3,0.3,0.3
2024-09-04T2200,1250A,120.0751,30.8669,湖州市,城西水厂,,27,27,31,18,20,78,,150,135,20,14,8,4,0.5,0.4
2024-09-04T2200,2873A,120.0875,30.8955,湖州市,仁皇山新区,,26,20,32,13,21,83,,148,132,14,16,11,6,0.7,0.7
2024-09-04T2200,2907A,120.1844,30.8596,湖州市,吴兴区站,,24,21,30,10,18,74,,136,120,12,11,4,6,0.6,0.6
2024-09-04T2200,3562A,120.4148,30.8538,湖州市,南浔区站,,23,23,25,13,18,69,,126,108,15,14,9,5,0.5,0.6
2024-09-04T2200,1607A,120.9092,40.7136,葫芦岛市,龙港区,细颗粒物(PM2.5),67,,22,48,15,103,,132,127,13,8,7,9,0.7,0.5
2024-09-04T2200,1608A,120.8392,40.7514,葫芦岛市,化工街,,29,22,30,17,14,92,,124,114,28,23,8,10,0.8,0.5
2024-09-04T2200,1609A,120.8341,40.7073,葫芦岛市,新区,细颗粒物(PM2.5),62,,23,44,14,101,,131,124,23,15,9,10,0.8,0.6
2024-09-04T2200,1610A,120.8695,40.7677,葫芦岛市,东城区,细颗粒物(PM2.5),60,,27,43,18,90,,124,112,28,20,6,9,0.9,0.7
2024-09-04T2200,2482A,109.5981,27.5721,怀化市,林科所,,30,30,22,21,13,70,,112,98,12,12,12,8,0.3,0.3
2024-09-04T2200,2483A,109.9453,27.5444,怀化市,河西地税局,,39,36,25,27,19,71,,116,,19,9,6,6,0.3,0.5
2024-09-04T2200,2484A,109.9781,27.5342,怀化市,市四医院,,38,38,28,18,20,89,,117,103,12,11,6,8,0.4,0.4
2024-09-04T2200,2485A,109.9972,27.5578,怀化市,监测楼,,30,22,31,15,20,95,,121,108,8,10,2,4,0.6,0.7
2024-09-04T2200,2486A,110.0394,27.583,怀化市,市委党校,颗粒物(PM10),53,55,38,15,19,55,,117,96,24,11,7,9,0.7,0.6
2024-09-04T2200,1210A,119.036,33.5981,淮安市,钵池山,,27,27,22,15,13,73,,133,116,35,20,7,7,0.7,0.6
2024-09-04T2200,1211A,119.007,33.575,淮安市,北京南路,,39,39,23,17,14,77,,128,116,19,12,5,6,0.8,0.5
2024-09-04T2200,1212A,118.989,33.6067,淮安市,市监测站,,35,34,21,24,13,96,,137,127,17,14,6,8,0.8,0.6
2024-09-04T2200,1213A,119.135,33.5039,淮安市,楚州区监测站,颗粒物(PM10),52,54,33,31,14,82,,133,117,24,17,6,6,0.8,0.6
2024-09-04T2200,1214A,119.0186,33.6297,淮安市,淮阴区监测站,,39,39,27,15,11,93,,141,124,27,20,4,4,0.7,0.6
2024-09-04T2200,3426A,118.8755,33.2894,淮安市,新华书店,,43,43,29,24,14,94,,128,124,22,17,6,7,0.9,0.8
2024-09-04T2200,2282A,116.8004,33.975,淮北市,监测站,颗粒物(PM10),51,51,40,22,18,110,,176,159,18,9,9,7,0.8,0.6
2024-09-04T2200,2283A,116.8091,33.9007,淮北市,烈山区政府,颗粒物(PM10),53,56,45,24,21,113,,178,162,22,12,7,8,0.5,0.5
2024-09-04T2200,3330A,116.8873,33.9836,淮北市,杜集区检察院,,40,36,44,25,22,127,,176,163,10,9,6,5,0.6,0.5
2024-09-04T2200,4017A,116.7923,33.9535,淮北市,市博物馆,颗粒物(PM10),52,53,38,29,22,126,,181,166,16,11,6,6,0.8,0.7
2024-09-04T2200,2277A,116.8305,32.7727,淮南市,潘集区政府,,48,41,43,33,25,95,,140,125,15,14,5,7,0.8,0.8
2024-09-04T2200,2278A,117.0067,32.6524,淮南市,师范学院,,42,42,43,29,22,122,,142,139,10,7,5,7,0.7,0.7
2024-09-04T2200,2279A,116.8569,32.5951,淮南市,谢家集区政府,,41,40,35,18,18,131,,139,132,12,13,6,9,0.6,0.7
2024-09-04T2200,2280A,116.8281,32.633,淮南市,八公山区政府,,45,38,39,31,22,86,,142,125,26,12,8,8,0.6,0.5
2024-09-04T2200,2281A,116.6325,32.6201,淮南市,焦岗湖风景区管理处,颗粒物(PM10),58,65,32,27,13,46,,118,97,19,12,11,12,0.1,0.1
2024-09-04T2200,2894A,117.0566,32.6531,淮南市,经济技术开发区消防队,,42,39,31,29,12,91,,140,125,28,12,4,6,0.6,0.5
2024-09-04T2200,3329A,117.0108,32.5893,淮南市,山南新区,颗粒物(PM10),56,61,47,32,21,119,,144,141,19,11,5,5,0.8,0.7
2024-09-04T2200,2446A,114.9028,30.4742,黄冈市,职工中心,颗粒物(PM10),54,58,47,30,25,96,,146,129,20,13,10,12,0.9,1
2024-09-04T2200,2929A,114.8858,30.4519,黄冈市,红卫路,颗粒物(PM10),56,61,45,30,28,82,,154,135,28,17,14,11,0.7,0.8
2024-09-04T2200,3398A,114.9136,30.4445,黄冈市,市林业局,颗粒物(PM10),62,74,56,32,26,93,,163,142,28,17,8,10,0.5,0.7
2024-09-04T2200,2672A,102.0199,35.5102,黄南藏族自治州,同仁县隆务镇,,25,17,18,3,5,77,,76,75,6,4,10,10,0.5,0.5
2024-09-04T2200,2295A,118.2903,29.6963,黄山市,延安路89号,颗粒物(PM10),51,51,50,13,17,62,,120,102,8,5,5,6,0.5,0.5
2024-09-04T2200,2296A,118.327,29.7178,黄山市,黄山东路89号,,34,34,34,19,19,63,,115,97,7,6,4,4,0.4,0.6
2024-09-04T2200,2297A,118.1371,30.2756,黄山市,黄山区政府5号楼,,45,45,38,20,25,47,,119,92,9,7,6,6,0.6,0.6
2024-09-04T2200,2423A,115.0601,30.2313,黄石市,沈家营,颗粒物(PM10),56,61,50,19,19,113,,151,134,14,13,24,12,0.6,0.7
2024-09-04T2200,2424A,115.0817,30.2006,黄石市,陈家湾,颗粒物(PM10),53,55,50,25,19,141,,149,142,2,8,11,9,0.5,0.6
2024-09-04T2200,2426A,114.8988,30.2019,黄石市,铁山,,44,44,39,24,21,134,,170,155,6,8,5,6,0.7,0.7
2024-09-04T2200,2427A,115.0307,30.2092,黄石市,团城山,,49,49,40,24,19,130,,166,148,8,9,10,10,0.6,0.7
2024-09-04T2200,3149A,115.0235,30.1578,黄石市,笔架山北路,颗粒物(PM10),56,62,44,22,15,114,,151,136,7,6,8,7,0.6,0.6
2024-09-04T2200,1392A,114.4183,23.0528,惠州市,河南岸金山湖子站,,19,19,23,11,14,60,,110,80,10,6,4,4,0.7,0.8
2024-09-04T2200,1393A,114.4053,23.0822,惠州市,下埔横江三路子站,,21,21,25,13,15,62,,116,86,14,9,4,4,0.6,0.7
2024-09-04T2200,1394A,114.4103,23.1142,惠州市,江北云山西路子站,,22,20,25,11,13,68,,114,88,4,6,4,4,0.8,0.8
2024-09-04T2200,1395A,114.4645,22.7833,惠州市,惠阳区承修路船湖子站,,24,24,27,15,16,68,,107,92,15,18,5,5,0.5,0.6
2024-09-04T2200,1396A,114.5317,22.7422,惠州市,大亚湾管委会子站,,28,28,28,14,16,70,,121,103,16,16,8,7,0.6,0.6
2024-09-04T2200,3314A,114.4338,22.8134,惠州市,惠阳秋长,,29,22,22,20,16,63,,129,99,20,17,6,5,0.5,0.6
2024-09-04T2200,3452A,114.6517,22.775,惠州市,大亚湾霞涌,,14,14,26,8,9,28,,110,86,19,12,4,4,0.8,0.8
2024-09-04T2200,2240A,130.9762,45.3001,鸡西市,环保局,,27,27,50,14,18,35,,34,22,9,23,5,7,0.1,0.3
2024-09-04T2200,2243A,130.9429,45.3039,鸡西市,第一中学,,15,15,45,6,13,42,,31,21,8,25,5,5,0.2,0.3
2024-09-04T2200,3707A,131.0207,45.3073,鸡西市,欧美日汽修厂,,14,9,35,8,14,44,,40,31,4,22,3,5,0.1,0.2
2024-09-04T2200,3709A,130.9967,45.3106,鸡西市,市政设施管理处,,36,36,51,8,15,33,,32,18,11,29,5,7,0.2,0.3
2024-09-04T2200,2367A,114.9754,27.0803,吉安市,红声器材厂,细颗粒物(PM2.5),57,59,47,40,28,75,,130,114,22,14,8,7,0.7,0.6
2024-09-04T2200,2368A,114.9658,27.0999,吉安市,市森林工业局,细颗粒物(PM2.5),53,52,43,37,30,74,,131,117,25,20,8,9,0.8,0.6
2024-09-04T2200,2369A,114.99,27.1312,吉安市,市环境监测站,,47,47,40,30,24,85,,134,120,21,13,17,13,0.8,0.8
2024-09-04T2200,2370A,115.0093,27.0968,吉安市,青原区法院,细颗粒物(PM2.5),54,52,42,38,28,82,,128,116,18,16,10,10,0.8,0.7
2024-09-04T2200,1772A,126.54,43.8622,吉林市,哈达湾,,31,20,24,14,14,98,,80,80,10,17,5,5,0.6,0.6
2024-09-04T2200,1773A,126.5844,43.8358,吉林市,东局子,,33,15,20,15,11,103,,77,77,10,13,4,4,0.6,0.6
2024-09-04T2200,1774A,126.5052,43.8245,吉林市,电力学院,,30,,25,18,16,94,,75,75,10,16,3,4,0.6,0.6
2024-09-04T2200,1775A,126.6133,43.8972,吉林市,江北,,29,26,36,11,12,90,,70,70,7,11,7,7,0.6,0.7
2024-09-04T2200,1776A,126.555,43.8306,吉林市,江南公园,,33,,23,20,16,103,,81,81,9,15,4,5,0.7,0.7
2024-09-04T2200,2868A,126.4739,43.953,吉林市,九站,,28,21,34,15,12,88,,82,82,13,17,6,7,0.7,0.7
2024-09-04T2200,1299A,116.9862,36.6114,济南市,科干所,,45,36,43,17,17,141,,176,162,18,19,8,8,0.7,0.7
2024-09-04T2200,1300A,116.9376,36.665,济南市,农科所,,39,39,46,20,19,109,,172,150,30,29,8,9,0.6,0.6
2024-09-04T2200,1301A,117.1265,36.6734,济南市,开发区,,49,49,46,24,22,122,,174,151,30,34,8,9,0.6,0.5
2024-09-04T2200,1303A,117.0624,36.6868,济南市,省种子仓库,颗粒物(PM10),63,75,54,24,18,98,,174,158,48,40,6,7,0.8,0.7
2024-09-04T2200,1304A,116.9489,36.6447,济南市,机床二厂,,43,42,56,12,15,135,,182,162,23,31,10,10,0.7,0.7
2024-09-04T2200,1305A,117.0495,36.663,济南市,市监测站,,42,42,46,22,19,122,,176,160,31,37,10,11,0.7,0.6
2024-09-04T2200,1306A,116.7675,36.5484,济南市,长清党校,臭氧1小时,68,32,43,20,21,174,,198,192,12,22,9,10,0.8,0.8
2024-09-04T2200,1616A,117.6795,36.229,济南市,技术学院,,45,36,40,19,17,144,,186,168,12,19,12,14,0.9,0.9
2024-09-04T2200,1961A,117.532,36.6868,济南市,东山小学,细颗粒物(PM2.5),83,88,51,61,22,118,,193,165,33,26,9,9,0.9,0.8
2024-09-04T2200,3059A,117.7161,36.2049,济南市,泰兴公司,颗粒物(PM10),62,73,46,29,20,40,,183,144,80,32,13,14,0.8,0.6
2024-09-04T2200,3064A,117.6867,36.2171,济南市,莱芜战役纪念馆,,48,48,45,22,17,140,,178,162,16,21,9,10,0.6,0.7
2024-09-04T2200,3494A,117.1673,36.9782,济南市,济阳区政府,颗粒物(PM10),66,81,62,24,22,96,,195,163,45,31,9,12,0.7,0.8
2024-09-04T2200,3495A,117.1171,36.63,济南市,锦屏中学,,37,37,33,20,15,105,,180,149,22,18,5,7,0.7,0.6
2024-09-04T2200,3682A,116.9814,36.6819,济南市,济南四建,,44,36,44,15,19,138,,179,163,22,26,9,10,0.7,0.7
2024-09-04T2200,1653A,116.6251,35.4302,济宁市,火炬城,,47,47,47,17,20,128,,161,154,17,15,10,12,0.8,0.8
2024-09-04T2200,1655A,116.5491,35.4042,济宁市,电化厂,,,48,53,19,26,,,172,171,16,19,9,11,0.8,0.8
2024-09-04T2200,3500A,116.5814,35.3707,济宁市,北湖一中,,43,42,45,7,20,137,,166,159,15,15,6,7,0.5,0.5
2024-09-04T2200,3501A,116.8249,35.5593,济宁市,服务中心,颗粒物(PM10),51,51,48,23,18,114,,164,151,24,22,6,8,0.5,0.6
2024-09-04T2200,3678A,116.5907,35.4054,济宁市,市第七中学,,42,34,47,17,20,133,,164,157,18,17,6,9,0.6,0.7
2024-09-04T2200,2255A,130.2751,46.8028,佳木斯市,佳纺,,20,11,21,8,8,64,,64,51,4,10,6,6,0.5,0.4
2024-09-04T2200,2256A,130.3995,46.8307,佳木斯市,发电厂,,23,14,21,11,9,71,,61,44,7,14,4,6,0.6,0.6
2024-09-04T2200,2257A,130.3258,46.7975,佳木斯市,环保局,,22,12,17,7,9,70,,62,51,6,12,8,8,0.4,0.5
2024-09-04T2200,2258A,130.3648,46.8032,佳木斯市,十一中,,22,15,18,15,10,67,,60,45,16,17,7,7,0.4,0.4
2024-09-04T2200,2259A,130.3794,46.7588,佳木斯市,四丰,,19,10,12,3,6,59,,60,51,7,8,1,1,0.4,0.4
2024-09-04T2200,1252A,120.7436,30.778,嘉兴市,清河小学,,,16,23,9,11,73,,131,112,,21,5,5,0.8,0.9
2024-09-04T2200,1253A,120.726,30.7478,嘉兴市,嘉兴学院,,24,17,25,8,13,75,,126,108,12,16,2,2,0.5,0.5
2024-09-04T2200,2872A,120.7846,30.7525,嘉兴市,南湖区残联,,,21,24,,14,,,136,128,20,15,5,4,0.5,0.5
2024-09-04T2200,3407A,120.6916,30.7739,嘉兴市,秀洲住建,,22,18,23,11,15,68,,130,110,15,14,4,4,0.6,0.6
2024-09-04T2200,1945A,98.2908,39.7711,嘉峪关市,气象局,,27,14,21,3,9,84,,93,93,13,12,4,10,0.2,0.4
2024-09-04T2200,2884A,98.2672,39.7978,嘉峪关市,酒钢宾馆,,26,9,18,3,12,82,,97,97,18,19,13,23,0.4,0.5
2024-09-04T2200,3248A,98.2643,39.7724,嘉峪关市,雄关区,,23,14,26,11,15,73,,90,87,17,18,8,8,0.4,0.5
2024-09-04T2200,1383A,113.1064,22.6058,江门市,北街,颗粒物(PM10),52,53,37,33,27,100,,248,233,40,21,5,4,0.9,0.6
2024-09-04T2200,1384A,113.0731,22.5835,江门市,西区,颗粒物(PM10),56,61,40,32,24,105,,247,229,37,22,7,6,1.2,0.8
2024-09-04T2200,1385A,113.0219,22.5311,江门市,圭峰西,细颗粒物(PM2.5),54,46,36,38,28,144,,232,228,22,14,3,2,0.6,0.5
2024-09-04T2200,1386A,113.0828,22.5947,江门市,东湖,,45,45,37,31,25,102,,234,218,31,17,6,5,1.0,0.6
2024-09-04T2200,3311A,113.1075,22.5647,江门市,江海富民,颗粒物(PM10),56,61,48,29,30,139,,248,239,35,21,6,6,1.0,0.8
2024-09-04T2200,3449A,113.05,22.4667,江门市,新会银湖,细颗粒物(PM2.5),80,70,42,59,33,81,,205,186,36,17,4,4,1.0,0.7
2024-09-04T2200,1828A,113.227,35.2125,焦作市,市环保局,细颗粒物(PM2.5),75,83,55,55,34,111,,182,165,36,21,4,7,0.7,0.5
2024-09-04T2200,3169A,113.2725,35.2067,焦作市,太极体育中心,颗粒物(PM10),71,91,61,46,31,145,,186,180,20,18,4,7,0.9,0.7
2024-09-04T2200,3335A,113.3137,35.2641,焦作市,马村街道办,细颗粒物(PM2.5),72,62,55,52,34,129,,179,168,20,17,4,3,0.7,0.6
2024-09-04T2200,3336A,113.2465,35.2373,焦作市,焦作技师学院,细颗粒物(PM2.5),70,75,58,51,32,117,,174,164,36,18,7,6,0.8,0.6
2024-09-04T2200,3477A,113.1656,35.2539,焦作市,中站许衡医院,,50,48,44,35,23,151,,174,169,21,18,8,6,0.7,0.5
2024-09-04T2200,3981A,113.2449,35.1803,焦作市,原李万街道办,"颗粒物(PM10),细颗粒物(PM2.5)",70,89,56,51,31,127,,179,170,18,13,5,7,0.6,0.4
2024-09-04T2200,1708A,116.3701,23.5345,揭阳市,新兴,,,43,36,18,18,,,104,102,15,12,7,6,0.7,0.6
2024-09-04T2200,1709A,116.3264,23.5443,揭阳市,西马,颗粒物(PM10),51,51,40,17,18,72,,100,95,9,8,7,7,0.7,0.6
2024-09-04T2200,1710A,116.3611,23.5626,揭阳市,东兴,颗粒物(PM10),54,57,41,18,16,67,,94,90,17,11,8,6,0.9,0.8
2024-09-04T2200,1711A,116.4151,23.5294,揭阳市,渔湖,,46,46,37,24,15,64,,95,88,17,14,6,6,0.6,0.6
2024-09-04T2200,3320A,116.403,23.5699,揭阳市,曲溪,颗粒物(PM10),53,55,37,30,18,64,,94,86,14,9,19,8,0.6,0.5
2024-09-04T2200,1944A,102.1692,38.5167,金昌市,天庆家园,,27,15,9,13,4,86,,105,88,8,5,8,7,0.5,0.5
2024-09-04T2200,3170A,102.1864,38.5253,金昌市,市委党校,,27,18,10,9,3,86,,112,96,10,5,7,8,0.6,0.6
2024-09-04T2200,4022A,102.1647,38.5371,金昌市,金川区人防中心,,27,25,11,16,4,86,,98,93,9,4,12,10,0.6,0.6
2024-09-04T2200,1262A,119.647,29.077,金华市,十五中,,31,31,38,13,22,59,,150,120,22,15,2,2,0.7,0.7
2024-09-04T2200,1263A,119.686,29.1029,金华市,监测站,,34,34,38,19,24,46,,148,114,34,18,4,3,0.6,0.7
2024-09-04T2200,3659A,119.656,29.1131,金华市,气象局,,39,39,37,22,19,41,,151,114,41,19,5,5,0.7,0.7
2024-09-04T2200,1767A,121.1115,41.0879,锦州市,南山,,39,,30,27,20,88,,106,97,23,26,8,8,0.8,0.7
2024-09-04T2200,1769A,121.1836,41.1119,锦州市,百股街道,,28,20,23,19,9,81,,103,98,25,14,8,13,1.0,0.9
2024-09-04T2200,1770A,121.1178,41.1222,锦州市,天安街道,,31,31,30,20,16,86,,107,102,20,22,7,8,1.0,0.9
2024-09-04T2200,1771A,121.1303,41.1386,锦州市,北湖公园,,49,37,28,34,18,90,,111,105,17,19,6,8,0.9,0.8
2024-09-04T2200,2160A,112.85,35.5051,晋城市,自来水公司,细颗粒物(PM2.5),64,66,52,46,26,162,,190,190,25,17,10,9,0.9,0.7
2024-09-04T2200,2161A,112.8318,35.4936,晋城市,白云商贸,颗粒物(PM10),69,87,48,39,22,138,,184,181,28,16,10,10,1.2,0.9
2024-09-04T2200,2162A,112.8508,35.4887,晋城市,市环保局,颗粒物(PM10),66,82,63,41,26,162,,183,183,22,15,12,10,0.9,0.7
2024-09-04T2200,2163A,112.8676,35.4897,晋城市,技术学院,颗粒物(PM10),63,76,47,44,25,164,,174,174,22,17,12,10,1.1,0.9
2024-09-04T2200,3620A,112.8271,35.4828,晋城市,泽州一中,细颗粒物(PM2.5),62,63,50,44,25,152,,175,174,23,18,10,10,1.2,1
2024-09-04T2200,2171A,112.7532,37.6945,晋中市,锦纶小区,,44,44,49,3,22,55,,158,129,18,13,10,11,0.7,0.7
2024-09-04T2200,2173A,112.7249,37.7067,晋中市,南都小区,,42,42,50,16,27,55,,159,130,20,15,6,7,0.8,0.9
2024-09-04T2200,2174A,112.6991,37.6982,晋中市,榆次区政府,,44,44,50,18,22,57,,155,126,19,16,9,9,0.4,0.8
2024-09-04T2200,2865A,112.7195,37.6828,晋中市,榆次三中,,46,46,52,7,23,55,,158,128,17,15,8,9,0.6,0.8
2024-09-04T2200,2439A,112.2014,31.0481,荆门市,竹园小学,颗粒物(PM10),58,66,66,38,38,97,,159,142,23,19,10,12,0.9,0.9
2024-09-04T2200,2440A,112.1969,30.9891,荆门市,掇刀,颗粒物(PM10),53,56,59,34,37,103,,164,144,20,15,14,17,0.8,0.8
2024-09-04T2200,2441A,112.2213,31.0386,荆门市,石化一小,,,78,72,46,38,,,166,161,30,20,22,17,0.8,0.8
2024-09-04T2200,3012A,112.1849,31.0362,荆门市,西山林语,细颗粒物(PM2.5),57,62,58,40,36,121,,165,148,18,18,9,11,0.8,0.8
2024-09-04T2200,3547A,112.1632,31.0138,荆门市,龙泉中学南校,颗粒物(PM10),52,54,55,30,32,97,,163,146,14,15,8,10,0.6,0.6
2024-09-04T2200,1844A,112.2494,30.3197,荆州市,市图书馆,细颗粒物(PM2.5),55,,49,39,36,100,,151,127,18,21,19,7,1.0,1
2024-09-04T2200,1845A,112.2008,30.3544,荆州市,市委党校,细颗粒物(PM2.5),55,52,55,39,37,98,,170,135,18,15,18,9,1.0,1
2024-09-04T2200,3194A,112.2747,30.3122,荆州市,管委会,颗粒物(PM10),51,52,49,35,34,78,,152,123,27,18,17,7,0.9,0.8
2024-09-04T2200,3548A,112.1655,30.3364,荆州市,学苑路,细颗粒物(PM2.5),58,,57,41,45,97,,181,141,18,15,6,10,1.0,1
2024-09-04T2200,2343A,117.2117,29.2933,景德镇市,老干部活动中心,,41,41,34,24,23,44,,115,90,15,8,4,7,0.4,0.4
2024-09-04T2200,2344A,117.1894,29.2789,景德镇市,兽医站,,45,45,33,24,23,59,,116,99,11,7,7,9,0.5,0.5
2024-09-04T2200,2345A,117.1547,29.2617,景德镇市,台达陶瓷,,46,46,30,28,23,48,,110,83,14,9,6,10,0.5,0.5
2024-09-04T2200,2346A,117.2461,29.2956,景德镇市,陶研所,,39,39,33,24,22,44,,119,91,16,11,4,4,0.4,0.4
2024-09-04T2200,1803A,115.9872,29.6815,九江市,十里,颗粒物(PM10),53,56,41,34,25,98,,143,120,19,14,19,10,0.8,1
2024-09-04T2200,1804A,115.9584,29.7046,九江市,茅山头,细颗粒物(PM2.5),57,48,40,40,25,103,,151,124,21,15,12,11,0.8,0.8
2024-09-04T2200,1805A,115.9877,29.7295,九江市,西园,,43,40,37,30,24,92,,151,131,36,12,7,7,0.7,0.8
2024-09-04T2200,1806A,116.0172,29.6547,九江市,五七二七厂,,43,43,36,30,28,86,,140,112,13,13,8,11,0.9,0.9
2024-09-04T2200,1808A,115.9114,29.6038,九江市,综合工业园,细颗粒物(PM2.5),60,,43,43,32,69,,167,130,33,15,8,9,1.0,1.2
2024-09-04T2200,1809A,116.0721,29.7535,九江市,石化总厂,细颗粒物(PM2.5),62,66,50,44,29,76,,132,113,40,15,10,11,0.9,0.9
2024-09-04T2200,1810A,115.9773,29.5698,九江市,庐山气象台,,40,31,31,22,24,125,,134,130,3,3,9,10,0.8,1
2024-09-04T2200,3190A,116.0254,29.6994,九江市,外国语学校,细颗粒物(PM2.5),67,66,42,48,24,94,,146,122,18,14,14,10,0.7,0.8
2024-09-04T2200,2658A,98.5061,39.7443,酒泉市,仓门街子站,,44,44,9,9,9,56,,88,81,21,7,11,8,0.4,0.3
2024-09-04T2200,2659A,98.4989,39.7256,酒泉市,油田生活基地,,41,41,11,12,6,50,,89,82,30,8,8,8,0.4,0.3
2024-09-04T2200,2698A,76.0072,39.4467,喀什地区,巡警大队,颗粒物(PM10),79,107,310,26,43,93,,101,101,12,14,3,3,0.4,0.4
2024-09-04T2200,2699A,75.9755,39.4694,喀什地区,吾办,颗粒物(PM10),86,122,315,39,63,90,,107,106,18,15,2,2,0.3,0.5
2024-09-04T2200,4027A,75.9483,39.4689,喀什地区,老干局,颗粒物(PM10),85,120,320,18,42,81,,99,98,12,12,3,3,0.4,0.4
2024-09-04T2200,1824A,114.3389,34.7781,开封市,肿瘤医院,,,,59,,20,,,153,139,20,17,4,6,0.7,0.5
2024-09-04T2200,1826A,114.2885,34.7965,开封市,世纪星幼儿园,,,86,54,,,94,,148,130,13,12,3,3,0.8,0.7
2024-09-04T2200,3147A,114.3438,34.8106,开封市,龙亭公园,颗粒物(PM10),56,62,53,26,20,102,,155,139,16,14,3,5,0.8,0.7
2024-09-04T2200,3210A,114.3644,34.7964,开封市,汴京公园,细颗粒物(PM2.5),64,68,54,46,24,98,,155,139,17,14,4,5,0.7,0.6
2024-09-04T2200,3592A,114.4644,34.7556,开封市,祥符区生态环境局,细颗粒物(PM2.5),58,62,53,41,26,60,,151,124,51,23,4,6,0.7,0.6
2024-09-04T2200,1951A,84.895,45.6094,克拉玛依市,长征新村,细颗粒物(PM2.5),60,47,17,43,5,43,,92,86,30,9,7,6,0.6,0.2
2024-09-04T2200,1952A,84.8988,45.5893,克拉玛依市,南林小区,,50,50,17,18,10,12,,95,80,56,16,10,10,1.0,0.4
2024-09-04T2200,1954A,84.905,44.3396,克拉玛依市,独山子区,,27,27,15,9,7,63,,111,107,27,10,8,8,0.5,0.3
2024-09-04T2200,1955A,85.6979,46.098,克拉玛依市,乌尔禾区商贸楼,,31,31,14,9,6,79,,93,92,10,12,12,10,0.4,0.4
2024-09-04T2200,3612A,85.1045,45.6899,克拉玛依市,白碱滩区新站,,22,22,14,3,4,65,,99,96,22,8,9,9,0.2,0.1
2024-09-04T2200,2697A,76.1454,39.7142,克孜勒苏柯尔克孜自治州,市人民政府,颗粒物(PM10),84,118,264,32,54,85,,114,111,19,5,2,2,0.6,0.5
2024-09-04T2200,3665A,76.1658,39.7157,克孜勒苏柯尔克孜自治州,克州文化中心,颗粒物(PM10),75,99,269,25,53,99,,115,113,9,3,4,4,0.5,0.4
2024-09-04T2200,1450A,102.8204,24.8886,昆明市,呈贡新区,,32,32,26,11,12,47,,73,68,22,17,2,4,0.6,0.6
2024-09-04T2200,1452A,102.7252,25.0902,昆明市,龙泉镇,,32,32,23,3,12,64,,64,63,14,15,6,6,0.7,0.8
2024-09-04T2200,1453A,102.7266,25.0375,昆明市,东风东路,,19,,23,7,15,59,,70,68,15,24,4,5,0.5,0.6
2024-09-04T2200,1454A,102.6742,25.0669,昆明市,金鼎山,,19,7,32,3,13,58,,67,66,14,20,3,2,0.4,0.5
2024-09-04T2200,1455A,102.6644,25.0401,昆明市,碧鸡广场,,20,9,21,9,10,61,,69,68,12,17,2,4,0.5,0.6
2024-09-04T2200,3179A,102.7494,25.0119,昆明市,官渡区博物馆,,20,20,28,8,12,62,,80,73,12,21,5,6,0.3,0.4
2024-09-04T2200,3375A,102.8017,24.8336,昆明市,青年创业园,,17,12,5,7,11,52,,70,64,13,13,2,4,0.5,0.6
2024-09-04T2200,3550A,102.7997,24.9786,昆明市,昆明学院,,21,13,28,3,13,67,,79,76,13,20,4,6,0.4,0.5
2024-09-04T2200,3551A,102.5967,24.6736,昆明市,晋宁区生态环境分局,,32,32,20,7,9,58,,55,49,5,11,2,3,0.5,0.6
2024-09-04T2200,3552A,102.6678,24.9856,昆明市,云天化总部,,20,6,19,3,12,63,,74,71,12,17,4,6,0.4,0.6
2024-09-04T2200,1456A,91.1319,29.6514,拉萨市,八廓街,,29,13,12,3,8,90,,110,105,15,11,8,7,0.3,0.2
2024-09-04T2200,1457A,91.1221,29.6747,拉萨市,市环保局,,27,12,11,8,7,84,,113,107,18,9,8,7,0.3,0.3
2024-09-04T2200,1458A,91.0874,29.6475,拉萨市,区监测站,,,26,15,10,8,,,104,101,17,10,8,8,0.2,0.2
2024-09-04T2200,1459A,91.1774,29.6541,拉萨市,西藏大学,,28,13,12,8,8,89,,110,106,11,8,8,6,0.3,0.3
2024-09-04T2200,1460A,90.9798,29.6588,拉萨市,区辐射站,,28,20,13,8,7,87,,98,94,18,11,8,8,0.2,0.2
2024-09-04T2200,1461A,91.0834,29.6292,拉萨市,拉萨火车站,,25,13,8,8,5,80,,99,96,17,7,6,5,0.2,0.1
2024-09-04T2200,2520A,109.2203,23.7256,来宾市,来宾技工学校,,31,31,26,19,14,81,,140,131,18,12,20,9,0.8,0.8
2024-09-04T2200,3535A,109.1781,23.7297,来宾市,兴宾区政府,,31,31,24,13,12,78,,136,129,12,9,6,7,0.9,0.8
2024-09-04T2200,4002A,109.2416,23.7461,来宾市,中南小学,,39,39,27,15,12,85,,154,145,18,12,5,9,0.9,0.8
2024-09-04T2200,1476A,103.631,36.1031,兰州市,兰炼宾馆,,32,24,31,22,25,83,,84,83,5,5,3,3,0.2,0.3
2024-09-04T2200,1478A,103.8412,36.0726,兰州市,生物制品所,,25,20,31,16,22,80,,79,79,12,12,8,7,0.4,0.4
2024-09-04T2200,1479A,103.831,36.0464,兰州市,铁路设计院,,29,,33,20,22,76,,80,75,18,17,6,6,0.4,0.4
2024-09-04T2200,3186A,103.7158,36.1058,兰州市,教育港,,48,,42,33,30,81,,84,84,8,7,6,5,0.3,0.3
2024-09-04T2200,3241A,103.7439,36.0842,兰州市,百合公园,,25,19,36,17,18,80,,83,80,10,9,9,8,0.4,0.4
2024-09-04T2200,3242A,103.9611,35.998,兰州市,和平,,27,8,30,3,14,86,,89,86,10,8,8,8,0.3,0.4
2024-09-04T2200,3245A,103.6633,36.533,兰州新区,新区管委会,,25,14,24,13,18,80,,90,81,4,4,7,6,0.3,0.4
2024-09-04T2200,3246A,103.6975,36.4789,兰州新区,舟曲中学,,26,8,12,3,4,81,,93,81,7,6,14,9,0.4,0.4
2024-09-04T2200,1067A,116.6708,39.5111,廊坊市,药材公司,细颗粒物(PM2.5),53,52,62,37,27,53,,133,104,29,22,2,5,0.6,0.5
2024-09-04T2200,1068A,116.7214,39.5589,廊坊市,开发区,,,82,61,50,29,,,120,107,19,21,1,4,0.6,0.5
2024-09-04T2200,1070A,116.7244,39.5269,廊坊市,北华航天学院,细颗粒物(PM2.5),59,65,70,42,28,56,,136,106,22,20,2,4,0.6,0.6
2024-09-04T2200,2919A,116.7022,39.5453,廊坊市,河北工业大学,细颗粒物(PM2.5),64,66,58,46,30,43,,131,98,25,19,2,6,0.6,0.5
2024-09-04T2200,2535A,103.7723,29.5462,乐山市,花湖湾,,44,44,32,24,32,85,,144,125,12,17,6,7,0.4,0.8
2024-09-04T2200,2536A,103.7627,29.5844,乐山市,牛耳桥,,36,30,40,25,33,95,,152,126,17,20,3,3,0.5,0.8
2024-09-04T2200,2537A,103.7508,29.6006,乐山市,市第三水厂,,38,34,40,19,29,120,,158,133,15,20,3,4,0.4,0.6
2024-09-04T2200,2538A,103.7571,29.5664,乐山市,市监测站,,36,35,41,25,29,99,,151,128,11,15,3,6,0.7,1.1
2024-09-04T2200,3361A,103.7311,29.5628,乐山市,理工大学,,42,40,45,29,31,96,,162,131,14,17,6,8,0.6,0.8
2024-09-04T2200,2599A,100.2497,26.8802,丽江市,丽江古城,,23,20,14,16,13,42,,60,56,12,10,9,9,0.9,0.9
2024-09-04T2200,2600A,100.2203,26.8906,丽江市,市中心,,15,15,8,8,10,38,,60,52,15,12,9,9,0.7,0.6
2024-09-04T2200,1267A,119.914,28.4514,丽水市,监测站大楼,,35,28,26,24,16,104,,100,100,8,10,2,2,0.5,0.6
2024-09-04T2200,1268A,119.93,28.4586,丽水市,莲都小学,,34,31,26,16,13,108,,106,105,7,10,4,4,0.5,0.5
2024-09-04T2200,1269A,119.879,28.4231,丽水市,余庄前,,32,31,30,22,15,71,,94,80,13,11,4,4,0.5,0.5
2024-09-04T2200,1173A,119.176,34.5885,连云港市,市环境监测站,,34,34,27,17,11,103,,150,131,14,13,7,8,0.4,0.4
2024-09-04T2200,3000A,119.3581,34.6972,连云港市,德源药业,,39,39,26,9,7,59,,120,97,29,22,6,7,0.3,0.4
2024-09-04T2200,3007A,119.178,34.844,连云港市,新城一中,,40,40,34,13,15,41,,179,130,61,33,4,6,0.5,0.6
2024-09-04T2200,3008A,119.3608,34.7519,连云港市,胡沟管理处,,29,24,29,9,10,92,,153,114,19,25,6,8,0.5,0.6
2024-09-04T2200,3009A,119.1478,34.5911,连云港市,矿山设计院,,31,31,24,17,11,96,,142,125,14,12,7,9,0.6,0.6
2024-09-04T2200,3434A,119.2413,34.6539,连云港市,工贸学校,,37,24,21,14,11,116,,144,131,8,10,7,8,0.7,0.7
2024-09-04T2200,3664A,119.4172,34.7341,连云港市,连云街道,,33,31,25,11,10,104,,152,117,12,14,10,7,1.0,0.6
2024-09-04T2200,2571A,102.3431,27.8099,凉山彝族自治州,青龙寺,,,12,14,7,12,,,82,82,4,8,5,6,0.6,0.7
2024-09-04T2200,2572A,102.2721,27.8415,凉山彝族自治州,邛海宾馆,,23,14,18,10,14,71,,81,80,4,13,8,15,0.5,0.7
2024-09-04T2200,2573A,102.2625,27.898,凉山彝族自治州,西昌市政府,,20,12,16,6,11,62,,80,80,8,11,7,10,0.6,0.8
2024-09-04T2200,2574A,102.2685,27.8851,凉山彝族自治州,凉山州政府,,24,12,17,9,12,74,,86,86,6,11,6,12,0.6,0.8
2024-09-04T2200,2575A,102.237,27.8914,凉山彝族自治州,长安,,24,24,15,14,11,62,,82,81,6,12,7,9,0.9,1
2024-09-04T2200,2212A,123.2,41.1953,辽阳市,宏伟区,,40,40,26,27,21,89,,84,84,23,11,9,8,1.2,0.7
2024-09-04T2200,2213A,123.1683,41.2495,辽阳市,新华园,,43,43,34,26,20,89,,78,78,18,17,14,8,1.4,0.9
2024-09-04T2200,2214A,123.2354,41.2639,辽阳市,滨河路,,40,40,32,24,17,109,,88,88,16,13,9,9,1.0,0.7
2024-09-04T2200,2215A,123.149,41.2991,辽阳市,铁西工业园,颗粒物(PM10),62,74,42,18,14,93,,84,84,12,15,10,10,1.0,0.9
2024-09-04T2200,2227A,125.1358,42.8845,辽源市,环保局,,33,20,24,10,12,103,,69,69,2,14,5,6,0.6,0.6
2024-09-04T2200,3239A,125.0764,42.9078,辽源市,银鹰制药,,31,15,19,14,12,98,,68,68,6,19,4,3,0.7,0.7
2024-09-04T2200,1625A,115.9848,36.4372,聊城市,区政府,,44,44,47,14,17,127,,172,152,18,19,18,16,0.6,0.5
2024-09-04T2200,2878A,116.0072,36.4343,聊城市,聊大东校,,48,48,51,24,25,118,,181,157,22,22,8,15,0.5,0.5
2024-09-04T2200,3200A,115.9819,36.4978,聊城市,监控中心,,41,41,45,17,17,129,,175,156,16,22,8,11,0.4,0.4
2024-09-04T2200,3513A,116.0445,36.4361,聊城市,九州社区,,40,40,54,22,21,110,,174,148,15,20,1,9,0.4,0.5
2024-09-04T2200,4018A,116.0567,36.4608,聊城市,星美广场,,46,46,50,23,20,111,,177,150,19,19,6,10,0.4,0.4
2024-09-04T2200,2632A,94.3681,29.6376,林芝市,林芝监测站,,17,,8,6,4,52,,66,60,1,2,10,9,0.4,0.4
2024-09-04T2200,2633A,94.3616,29.6616,林芝市,林芝人民医院,,17,9,9,3,4,52,,66,61,2,4,7,7,0.2,0.2
2024-09-04T2200,2603A,100.0781,23.8982,临沧市,市环保局,,28,25,20,19,16,34,,54,47,10,10,6,6,0.3,0.3
2024-09-04T2200,2604A,100.0894,23.8822,临沧市,市气象局,,,13,18,12,11,,,54,50,9,10,8,7,0.2,0.4
2024-09-04T2200,1733A,111.5531,36.0783,临汾市,临钢医院,,25,25,65,7,24,76,,157,123,7,20,3,4,0.4,0.7
2024-09-04T2200,1734A,111.5028,36.0714,临汾市,技工学校,,34,34,57,3,21,74,,156,117,8,14,4,5,0.5,0.8
2024-09-04T2200,1736A,111.5018,36.0855,临汾市,市委,,26,13,50,3,20,82,,167,126,6,11,4,5,0.5,0.8
2024-09-04T2200,3018A,111.505,36.1014,临汾市,唐尧大酒店,,39,39,78,3,22,78,,157,119,6,12,3,4,0.4,0.9
2024-09-04T2200,3668A,111.5036,36.0414,临汾市,城南,,,15,52,3,20,78,,165,125,,13,4,5,0.2,0.6
2024-09-04T2200,2667A,103.2069,35.5993,临夏回族自治州,环保局,,,33,23,,16,66,,82,77,7,3,6,7,0.2,0.3
2024-09-04T2200,2668A,103.2417,35.6057,临夏回族自治州,建设大厦,,27,27,17,15,13,63,,89,78,13,6,5,6,0.3,0.3
2024-09-04T2200,1618A,118.3429,35.0532,临沂市,沂河小区,,44,44,49,24,22,106,,186,165,35,17,13,12,0.5,0.5
2024-09-04T2200,1619A,118.295,35.0583,临沂市,鲁南制药厂,,39,36,42,21,20,123,,208,184,16,19,10,11,0.4,0.5
2024-09-04T2200,1620A,118.2794,34.9976,临沂市,新光毛纺厂,,41,41,38,26,20,102,,193,168,22,23,7,17,0.6,0.6
2024-09-04T2200,1621A,118.3956,35.0888,临沂市,河东保险公司,,48,48,44,28,27,96,,198,168,31,30,8,10,0.8,0.9
2024-09-04T2200,3370A,118.3564,35.0215,临沂市,十里堡居委,,39,39,36,22,20,104,,190,166,38,16,15,14,0.6,0.7
2024-09-04T2200,3496A,118.3604,35.1084,临沂市,南坊新区,颗粒物(PM10),52,53,50,19,21,107,,196,174,20,21,14,12,0.8,0.7
2024-09-04T2200,3860A,118.3920,35.0300,临沂市,皇山花园小区,,41,41,50,20,32,98,,174,154,20,22,10,11,0.7,0.7
2024-09-04T2200,1870A,109.4856,24.3895,柳州市,柳东小学,,30,24,20,21,10,95,,108,106,10,10,7,8,0.6,0.6
2024-09-04T2200,1871A,109.4157,24.3277,柳州市,环保监测站,颗粒物(PM10),52,53,26,30,14,70,,119,109,21,11,8,11,0.8,0.9
2024-09-04T2200,1872A,109.389,24.341,柳州市,河西水厂,颗粒物(PM10),70,90,36,38,19,51,,119,102,42,12,18,12,1.1,1.1
2024-09-04T2200,1873A,109.4311,24.2921,柳州市,市四中,,45,45,26,23,13,52,,126,105,33,11,7,9,0.8,0.6
2024-09-04T2200,1874A,109.4006,24.3631,柳州市,市九中,颗粒物(PM10),76,101,35,24,14,45,,125,106,45,12,8,9,0.8,0.5
2024-09-04T2200,1875A,109.4958,24.3134,柳州市,古亭山,,25,19,22,17,14,36,,115,90,44,13,6,8,1.2,1.1
2024-09-04T2200,3402A,109.5422,24.3996,柳州市,市二中,,35,35,24,22,14,43,,110,97,20,11,7,8,0.8,0.6
2024-09-04T2200,2307A,116.5079,31.737,六安市,监测大楼,,39,35,31,27,22,114,,131,127,8,6,5,5,0.7,0.6
2024-09-04T2200,2308A,116.4738,31.7643,六安市,皖西学院,,41,38,42,23,20,131,,138,137,6,6,4,5,0.4,0.4
2024-09-04T2200,2309A,116.4996,31.7905,六安市,朝阳厂,,40,34,33,28,21,115,,137,131,9,6,3,2,0.5,0.5
2024-09-04T2200,2310A,116.5567,31.7886,六安市,开发区,颗粒物(PM10),51,52,42,31,25,89,,133,120,14,9,3,3,0.6,0.5
2024-09-04T2200,2577A,104.83,26.5917,六盘水市,黄土坡,,30,26,13,9,11,96,,96,96,12,8,6,7,0.4,0.4
2024-09-04T2200,2578A,104.89,26.5939,六盘水市,水钢,,31,17,18,16,10,98,,104,104,11,6,7,7,0.4,0.4
2024-09-04T2200,2579A,104.8475,26.5894,六盘水市,民中,,33,15,14,7,8,104,,98,98,9,7,7,7,0.4,0.3
2024-09-04T2200,2580A,104.9544,26.5506,六盘水市,双水,,33,19,15,3,7,103,,102,102,6,5,6,6,0.3,0.3
2024-09-04T2200,2336A,117.0217,25.1033,龙岩市,龙岩市监测站,,28,28,26,18,16,32,,76,51,16,12,10,8,0.5,0.5
2024-09-04T2200,2337A,117.0258,25.0661,龙岩市,闽西职业技术学院,,44,44,35,12,16,2,,78,44,40,20,6,9,0.6,0.5
2024-09-04T2200,2338A,117.0196,25.0306,龙岩市,龙岩学院,,22,22,27,9,13,26,,77,39,15,13,5,4,0.5,0.5
2024-09-04T2200,2885A,104.9339,33.3826,陇南市,滨江中学,,40,40,41,14,14,60,,105,82,12,7,6,6,0.5,0.4
2024-09-04T2200,3247A,104.955,33.371,陇南市,市总工会,,42,42,34,3,8,63,,105,83,13,6,7,7,0.6,0.6
2024-09-04T2200,2487A,111.9589,27.8901,娄底市,电视发射台,,49,49,62,30,32,62,,111,90,5,5,6,7,0.7,0.7
2024-09-04T2200,2488A,111.9975,27.725,娄底市,市监测站,细颗粒物(PM2.5),67,56,59,48,39,82,,130,120,14,10,5,7,0.8,1
2024-09-04T2200,2489A,112.0194,27.7314,娄底市,市委党校,细颗粒物(PM2.5),62,72,52,44,36,72,,110,103,12,7,8,7,0.7,0.6
2024-09-04T2200,2490A,111.9561,27.7569,娄底市,涟钢,颗粒物(PM10),62,74,57,37,40,60,,97,88,16,13,11,10,1.1,1
2024-09-04T2200,2491A,111.9892,27.7044,娄底市,市政府,细颗粒物(PM2.5),75,61,46,55,39,60,,125,109,18,11,7,6,1.0,0.9
2024-09-04T2200,1893A,105.4324,28.9634,泸州市,九狮山,,48,48,28,31,22,27,,133,94,21,7,5,6,0.5,0.5
2024-09-04T2200,1894A,105.4427,28.9063,泸州市,小市上码头,,30,26,32,9,21,96,,133,122,18,19,6,9,0.4,0.5
2024-09-04T2200,1895A,105.4241,28.8573,泸州市,兰田宪桥,,31,31,32,17,23,54,,127,109,33,22,7,10,0.5,0.5
2024-09-04T2200,1896A,105.4379,28.8833,泸州市,市环监站,,29,26,33,20,24,84,,123,112,28,16,8,11,0.4,0.5
2024-09-04T2200,3490A,105.3617,28.7703,泸州市,纳溪区环保局,颗粒物(PM10),54,57,36,32,27,44,,127,104,48,24,8,10,0.5,0.4
2024-09-04T2200,2183A,111.1406,37.5211,吕梁市,环保局,,25,,49,15,25,78,,85,78,4,16,2,3,0.5,0.7
2024-09-04T2200,2185A,111.1297,37.5136,吕梁市,自来水公司,,25,9,44,6,25,80,,88,80,4,18,1,1,0.4,0.7
2024-09-04T2200,1812A,112.3931,34.6516,洛阳市,市委党校,颗粒物(PM10),59,68,60,36,34,108,,196,175,26,15,6,11,0.9,0.8
2024-09-04T2200,1814A,112.4657,34.6871,洛阳市,豫西宾馆,颗粒物(PM10),58,65,63,32,30,108,,192,175,22,14,5,10,0.8,0.7
2024-09-04T2200,1815A,112.494,34.6886,洛阳市,河南林校,颗粒物(PM10),58,66,57,37,29,103,,186,167,24,18,6,10,0.7,0.7
2024-09-04T2200,1816A,112.3844,34.623,洛阳市,开发区管委会,,45,41,47,31,30,92,,187,159,15,14,3,8,0.7,0.6
2024-09-04T2200,1817A,112.4267,34.6258,洛阳市,市委新办公区,细颗粒物(PM2.5),54,50,49,38,38,109,,187,167,16,10,4,8,0.8,0.7
2024-09-04T2200,3340A,112.6005,34.6326,洛阳市,伊滨,颗粒物(PM10),59,67,59,41,35,82,,183,157,28,17,6,9,0.6,0.5
2024-09-04T2200,3341A,112.4951,34.6332,洛阳市,中移产业园,颗粒物(PM10),55,59,58,31,34,116,,188,166,15,13,3,8,0.9,0.7
2024-09-04T2200,3593A,112.5736,34.8993,洛阳市,吉利监测站,颗粒物(PM10),64,78,56,42,31,58,,186,150,35,22,2,6,0.8,0.7
2024-09-04T2200,3635A,112.3677,34.662,洛阳市,河科大西苑校区,颗粒物(PM10),61,71,55,34,26,72,,206,175,48,15,6,11,1.0,0.8
2024-09-04T2200,3636A,112.4388,34.6781,洛阳市,英才小学,颗粒物(PM10),61,72,63,41,36,97,,192,171,32,14,3,8,0.9,0.7
2024-09-04T2200,2399A,114.051,33.5699,漯河市,三五一五工厂,细颗粒物(PM2.5),63,73,48,45,24,97,,154,142,21,13,4,7,1.0,0.8
2024-09-04T2200,2400A,114.0055,33.5698,漯河市,漯河大学,颗粒物(PM10),57,64,44,39,22,111,,158,148,15,11,4,5,0.8,0.8
2024-09-04T2200,2401A,114.0138,33.5828,漯河市,市水利局,颗粒物(PM10),58,66,45,36,20,112,,154,143,10,7,3,4,0.7,0.6
2024-09-04T2200,2402A,114.0261,33.5698,漯河市,市广电局,颗粒物(PM10),57,63,39,34,17,111,,159,147,15,10,6,7,0.8,0.6
2024-09-04T2200,3478A,113.9749,33.5664,漯河市,市图书馆,细颗粒物(PM2.5),72,79,49,52,26,97,,161,141,20,9,5,8,0.8,0.6
2024-09-04T2200,3479A,114.0967,33.5906,漯河市,召陵区卫健委,细颗粒物(PM2.5),72,86,52,52,30,96,,157,144,21,13,4,6,0.8,0.6
2024-09-04T2200,1798A,118.5092,31.6837,马鞍山市,湖东路四小,,,,39,,23,,,156,152,21,16,6,6,,0.8
2024-09-04T2200,1799A,118.5024,31.6449,马鞍山市,开发区,颗粒物(PM10),53,56,41,30,24,112,,154,144,21,17,5,6,0.8,0.9
2024-09-04T2200,1800A,118.5228,31.7231,马鞍山市,慈湖,,41,41,35,26,22,131,,162,156,10,13,6,7,0.9,0.9
2024-09-04T2200,1802A,118.6245,31.7241,马鞍山市,濮塘,,35,33,29,24,21,112,,142,136,17,18,6,6,0.8,0.8
2024-09-04T2200,3633A,118.4918,31.6809,马鞍山市,雨山,,40,40,39,25,21,125,,154,148,14,12,7,7,0.9,0.9
2024-09-04T2200,1686A,111.0286,21.4688,茂名市,电白南海,,45,44,51,31,35,103,,148,136,14,11,10,15,0.8,0.8
2024-09-04T2200,1687A,110.9294,21.6533,茂名市,茂石化七小,,39,39,48,27,31,73,,133,103,13,9,13,16,0.6,0.7
2024-09-04T2200,1688A,110.9107,21.6687,茂名市,健康路,,27,24,43,14,24,84,,137,110,10,9,14,23,0.7,0.7
2024-09-04T2200,1689A,110.8592,21.6828,茂名市,高岭,细颗粒物(PM2.5),64,63,49,46,33,81,,122,102,25,13,18,29,0.8,0.8
2024-09-04T2200,3450A,111.01,21.5165,茂名市,电白水东,,39,39,49,27,33,96,,156,135,12,11,8,17,0.6,0.7
2024-09-04T2200,2539A,104.0308,30.0478,眉山市,黑龙滩水库,细颗粒物(PM2.5),68,,22,49,15,105,,142,129,7,4,191,156,0.6,0.8
2024-09-04T2200,2540A,103.8416,30.0874,眉山市,气象局,,43,43,41,12,26,112,,163,142,11,26,6,6,0.4,0.6
2024-09-04T2200,3137A,103.8578,30.0744,眉山市,市委党校,,38,19,37,9,22,121,,168,146,11,20,9,9,0.4,0.5
2024-09-04T2200,3148A,103.8291,30.0564,眉山市,区人社局,,35,34,31,9,20,109,,168,142,16,26,8,9,0.6,0.6
2024-09-04T2200,1690A,116.1231,24.3284,梅州市,梅江月梅,,15,12,21,3,8,48,,72,58,4,8,8,7,0.4,0.5
2024-09-04T2200,1691A,116.0797,24.2719,梅州市,梅县新城,,17,17,20,6,8,40,,76,57,10,9,5,5,0.5,0.6
2024-09-04T2200,1692A,116.1248,24.2654,梅州市,环境监控中心,,18,18,26,6,15,35,,72,53,16,14,6,7,0.4,0.5
2024-09-04T2200,3315A,116.1233,24.2991,梅州市,梅龙,,14,14,20,7,13,38,,76,56,10,10,10,11,0.5,0.6
2024-09-04T2200,1878A,104.7778,31.4741,绵阳市,富乐山,,39,37,41,27,32,110,,147,136,8,13,3,3,0.6,0.6
2024-09-04T2200,1879A,104.7563,31.4535,绵阳市,市人大,,38,36,46,26,29,86,,141,121,34,21,7,7,0.5,0.5
2024-09-04T2200,1880A,104.6697,31.4668,绵阳市,高新区自来水公司,颗粒物(PM10),57,63,45,29,25,62,,152,121,43,19,3,2,0.7,0.7
2024-09-04T2200,1881A,104.7287,31.5075,绵阳市,三水厂,,48,48,50,29,35,45,,148,119,51,23,6,6,0.7,0.7
2024-09-04T2200,3491A,104.69,31.5322,绵阳市,西科大附属小学,,46,46,43,29,28,55,,149,120,47,20,6,4,0.6,0.7
2024-09-04T2200,3492A,104.5648,31.5343,绵阳市,安州区旅游局,颗粒物(PM10),54,58,44,29,36,111,,169,148,16,13,9,8,0.6,0.7
2024-09-04T2200,1784A,129.61,44.561,牡丹江市,环保大楼,,15,9,23,8,15,48,,37,36,3,17,7,7,0.2,0.4
2024-09-04T2200,1785A,129.6115,44.5782,牡丹江市,文化广场,,26,,32,18,22,40,,32,28,6,21,8,9,0.3,0.4
2024-09-04T2200,1786A,129.5904,44.5963,牡丹江市,第一医院,,40,,26,28,15,48,,40,32,9,18,6,6,0.2,0.3
2024-09-04T2200,1787A,129.6364,44.6075,牡丹江市,机车工厂,,22,22,31,9,17,40,,32,25,6,19,5,6,0.3,0.4
2024-09-04T2200,1788A,129.6386,44.5462,牡丹江市,第一中学,,18,16,24,12,11,49,,36,33,5,17,5,6,0.3,0.3
2024-09-04T2200,2531A,105.0703,29.61,内江市,市监测站,,,,34,37,31,,,142,139,44,26,7,6,0.5,0.4
2024-09-04T2200,2532A,105.0717,29.5947,内江市,东兴区政府,,38,,28,26,23,99,,140,134,33,19,6,4,0.7,0.6
2024-09-04T2200,2533A,105.0653,29.5817,内江市,内江二中,,39,32,30,27,29,105,,144,137,30,18,8,8,0.6,0.6
2024-09-04T2200,2534A,105.0406,29.5822,内江市,内江日报社,,42,34,33,29,29,91,,145,134,39,25,10,7,0.6,0.6
2024-09-04T2200,2628A,92.0657,31.4846,那曲市,那曲监测站,,25,16,17,14,10,80,,89,84,11,6,7,7,0.6,0.6
2024-09-04T2200,3128A,92.0506,31.4797,那曲市,那曲会议中心,,29,9,9,7,4,92,,102,99,10,6,4,4,0.4,0.4
2024-09-04T2200,1290A,115.8931,28.6843,南昌市,省外办,细颗粒物(PM2.5),55,56,46,39,33,93,,136,127,21,13,13,10,0.6,0.7
2024-09-04T2200,1291A,115.8886,28.7003,南昌市,省林业公司,颗粒物(PM10),64,78,47,34,29,70,,142,126,33,12,6,6,0.9,1
2024-09-04T2200,1292A,115.8126,28.7442,南昌市,林科所,,33,27,37,19,23,103,,144,124,18,16,7,8,0.7,0.9
2024-09-04T2200,1294A,115.8518,28.687,南昌市,建工学校,颗粒物(PM10),57,63,44,22,17,109,,140,127,18,8,8,9,0.9,0.8
2024-09-04T2200,1295A,115.8921,28.6424,南昌市,象湖,,40,40,39,26,25,123,,149,144,10,9,4,4,1.0,1.1
2024-09-04T2200,1296A,115.7423,28.7996,南昌市,武术学校,,39,39,38,20,30,36,,124,90,10,9,2,2,0.6,0.7
2024-09-04T2200,1298A,115.9314,28.6842,南昌市,省站,,49,40,40,34,31,97,,136,127,8,9,9,8,0.9,0.9
2024-09-04T2200,3046A,115.9084,28.6062,南昌市,机电学校,颗粒物(PM10),53,56,55,31,28,108,,142,132,17,11,7,9,0.5,1
2024-09-04T2200,3690A,115.9721,28.7031,南昌市,外国语学校,,49,49,45,25,25,117,,144,138,19,11,6,6,0.6,0.7
2024-09-04T2200,1905A,106.056,30.8064,南充市,西山风景区,,46,,22,32,23,102,,134,123,10,8,4,4,1.0,0.9
2024-09-04T2200,1906A,106.0789,30.8023,南充市,南充市委,,50,50,35,29,22,49,,139,114,41,19,7,8,0.6,0.2
2024-09-04T2200,1907A,106.1031,30.8217,南充市,南充炼油厂,细颗粒物(PM2.5),72,65,50,52,33,86,,149,127,23,20,11,8,0.7,0.5
2024-09-04T2200,1908A,106.1064,30.7856,南充市,高坪区监测站,,41,41,40,22,27,22,,135,102,75,31,7,8,0.7,0.5
2024-09-04T2200,1909A,106.0642,30.7636,南充市,嘉陵区环保局,,43,25,38,14,23,19,,134,106,86,30,4,6,0.7,0.5
2024-09-04T2200,1910A,106.1087,30.8388,南充市,市环境监测站,,,44,47,37,31,,,144,129,31,22,5,8,0.5,0.4
2024-09-04T2200,1151A,118.8086,32.1065,南京市,迈皋桥,,35,34,26,24,16,100,,149,139,29,19,4,4,0.3,0.3
2024-09-04T2200,1152A,118.7538,32.0551,南京市,草场门,,35,29,29,19,14,110,,142,135,21,18,6,6,0.7,0.6
2024-09-04T2200,1153A,118.7794,32.0745,南京市,山西路,,37,36,31,24,16,118,,149,143,6,9,4,4,0.5,0.5
2024-09-04T2200,1154A,118.7752,32.0023,南京市,中华门,,32,27,27,19,13,102,,134,126,22,20,4,5,0.5,0.5
2024-09-04T2200,1155A,118.8109,32.0309,南京市,瑞金路,,39,31,29,27,15,114,,146,140,13,13,4,5,0.6,0.5
2024-09-04T2200,1156A,118.7997,32.0754,南京市,玄武湖,,38,36,32,16,11,121,,145,140,12,15,6,6,0.7,0.7
2024-09-04T2200,1157A,118.6414,32.0931,南京市,浦口,,43,43,36,24,16,94,,139,129,15,16,4,4,0.5,0.5
2024-09-04T2200,1158A,118.7356,31.9996,南京市,奥体中心,,36,36,31,22,19,112,,151,142,17,17,4,5,0.5,0.5
2024-09-04T2200,1159A,118.9125,32.1028,南京市,仙林大学城,,39,39,34,24,22,117,,160,152,11,12,7,8,0.6,0.6
2024-09-04T2200,3422A,118.8436,31.9198,南京市,江宁彩虹桥,,40,40,35,27,16,110,,148,138,12,12,5,4,0.6,0.6
2024-09-04T2200,3423A,119.0138,31.6494,南京市,溧水永阳,,47,34,30,29,19,149,,154,151,12,17,3,4,0.3,0.3
2024-09-04T2200,3424A,118.879,31.3302,南京市,高淳老职中,,49,42,29,34,22,139,,159,157,14,12,8,8,0.5,0.4
2024-09-04T2200,3427A,118.8554,32.3578,南京市,六合雄州,颗粒物(PM10),60,70,40,40,19,108,,149,139,23,16,3,4,0.8,0.6
2024-09-04T2200,1401A,108.3103,22.7881,南宁市,二十一中,,46,46,36,29,22,97,,173,155,33,19,4,9,0.8,0.7
2024-09-04T2200,1402A,108.3141,22.8528,南宁市,北湖,颗粒物(PM10),59,68,40,41,25,58,,169,137,47,19,29,19,0.9,0.8
2024-09-04T2200,1403A,108.3206,22.8225,南宁市,市监测站,,48,45,41,33,22,79,,166,137,42,23,18,14,0.9,0.8
2024-09-04T2200,1404A,108.3829,22.8037,南宁市,大自然花园,,50,44,36,35,20,72,,186,157,29,19,9,8,0.8,0.7
2024-09-04T2200,1405A,108.4394,22.7904,南宁市,仙葫,细颗粒物(PM2.5),65,57,35,47,22,41,,163,134,53,22,11,10,1.0,0.8
2024-09-04T2200,1406A,108.2397,22.8467,南宁市,区农职院,颗粒物(PM10),62,74,50,22,28,58,,150,123,29,17,4,48,0.8,0.7
2024-09-04T2200,1407A,108.3275,22.735,南宁市,英华嘉园,,43,43,37,26,20,75,,167,143,37,21,10,10,0.8,0.7
2024-09-04T2200,1408A,108.2257,22.7757,南宁市,沙井镇街道办,颗粒物(PM10),63,76,39,33,20,30,,152,121,45,17,3,5,0.8,0.6
2024-09-04T2200,3401A,108.4834,22.7618,南宁市,红星社区,颗粒物(PM10),63,75,38,34,22,90,,167,144,19,19,6,7,0.8,0.7
2024-09-04T2200,2332A,118.1681,26.6369,南平市,南平市监测站,,23,23,27,6,10,27,,92,68,26,11,4,5,0.8,0.6
2024-09-04T2200,2333A,118.1825,26.6489,南平市,南平铝业有限公司,,39,39,25,14,12,24,,92,65,27,10,8,6,0.7,0.6
2024-09-04T2200,2334A,118.1756,26.6272,南平市,南平七中,,26,26,30,10,12,34,,91,60,15,10,4,5,0.7,0.6
2024-09-04T2200,1168A,120.9098,31.9663,南通市,狼山街道,,25,10,16,8,10,78,,141,129,6,8,7,7,0.4,0.4
2024-09-04T2200,1169A,120.86,32.0005,南通市,虹桥,,25,12,22,8,9,77,,154,143,7,13,6,6,0.4,0.4
2024-09-04T2200,1170A,120.87,32.02,南通市,城中,,25,15,22,3,7,80,,146,136,13,16,6,6,0.8,0.9
2024-09-04T2200,1171A,120.94,31.93,南通市,星湖花园,,24,,13,7,7,75,,143,128,12,12,5,5,0.5,0.8
2024-09-04T2200,1172A,120.81,32.0417,南通市,紫琅学院,,25,12,15,6,6,77,,134,122,10,14,7,8,0.7,0.7
2024-09-04T2200,3291A,121.067,32.062,南通市,通州监测站,,27,14,17,7,6,84,,111,102,8,7,4,4,0.7,0.7
2024-09-04T2200,3432A,120.9348,31.9883,南通市,环境教育馆,,24,22,21,6,6,76,,138,123,9,9,4,4,0.5,0.5
2024-09-04T2200,2404A,112.5224,33.0122,南阳市,瓦房庄,颗粒物(PM10),53,55,47,34,23,140,,158,154,16,12,6,8,0.7,0.7
2024-09-04T2200,2405A,112.5003,32.9735,南阳市,汉画馆,颗粒物(PM10),51,51,47,35,25,95,,153,142,29,14,6,8,0.6,0.6
2024-09-04T2200,2406A,112.5573,33.027,南阳市,气象站,颗粒物(PM10),57,64,47,27,19,147,,162,160,16,12,5,7,0.8,0.7
2024-09-04T2200,2407A,112.5481,32.9689,南阳市,理工学院,颗粒物(PM10),59,68,46,41,19,91,,156,149,35,14,6,6,1.0,0.6
2024-09-04T2200,4008A,112.5234,32.9922,南阳市,卧龙区政府,颗粒物(PM10),58,66,47,32,23,92,,155,147,43,14,5,18,0.8,0.6
2024-09-04T2200,1234A,121.8358,29.911,宁波市,区环保大楼,,30,30,30,19,18,52,,125,91,31,25,5,7,0.6,0.7
2024-09-04T2200,1235A,121.56,29.82,宁波市,万里学院,,26,22,23,15,14,83,,115,106,13,10,10,10,0.5,0.5
2024-09-04T2200,1236A,121.713,29.9572,宁波市,龙赛医院,,,30,24,16,13,,,136,108,26,19,9,9,0.6,0.8
2024-09-04T2200,1239A,121.633,29.7733,宁波市,钱湖水厂,,26,21,18,12,13,82,,113,106,10,8,8,8,0.3,0.4
2024-09-04T2200,1240A,121.5856,29.8635,宁波市,太古小学,,25,24,25,14,13,77,,120,102,14,12,7,6,0.7,0.8
2024-09-04T2200,1241A,121.524,29.8674,宁波市,市环境监测中心,,28,27,24,15,10,88,,130,115,11,10,6,5,0.6,0.6
2024-09-04T2200,2871A,121.6147,29.9017,宁波市,万里国际学校,,27,24,24,13,16,85,,145,119,12,12,8,7,0.4,0.4
2024-09-04T2200,3710A,121.5594,29.8975,宁波市,白沙活动中心,,27,25,27,15,12,84,,145,121,14,12,8,8,0.4,0.4
2024-09-04T2200,2341A,119.5388,26.6612,宁德市,宁德市监测站,,21,13,18,9,11,67,,87,69,7,8,5,6,0.5,0.5
2024-09-04T2200,3209A,119.5231,26.6562,宁德市,宁德一中,,19,14,25,11,9,60,,90,68,6,6,4,6,0.4,0.4
2024-09-04T2200,2618A,98.8601,25.8567,怒江傈僳族自治州,州监测站,,33,33,25,18,16,26,,60,53,15,8,7,6,0.6,0.5
2024-09-04T2200,2619A,98.8546,25.8417,怒江傈僳族自治州,泸水一中,,26,26,23,17,10,12,,50,40,22,13,5,5,0.5,0.4
2024-09-04T2200,1888A,101.6891,26.571,攀枝花市,弄弄坪,,43,43,46,14,18,32,,78,71,24,18,13,19,0.8,0.7
2024-09-04T2200,1889A,101.5769,26.5928,攀枝花市,河门口,,27,27,35,17,20,43,,82,73,12,19,6,19,0.8,1.4
2024-09-04T2200,1890A,101.7169,26.585,攀枝花市,炳草岗,,39,39,43,25,22,27,,89,78,32,21,19,30,1.2,0.8
2024-09-04T2200,1891A,101.7369,26.5008,攀枝花市,仁和,,21,21,28,12,16,24,,76,54,13,11,3,10,0.6,0.6
2024-09-04T2200,2835A,101.7227,26.567,攀枝花市,四十中小,,35,35,35,21,20,38,,88,78,34,17,34,51,2.1,0.9
2024-09-04T2200,1604A,122.0303,41.1489,盘锦市,开发区,,39,23,28,20,14,122,,133,133,11,12,6,6,0.5,0.5
2024-09-04T2200,1605A,122.0485,41.0883,盘锦市,兴隆台,,45,24,26,22,15,141,,136,136,18,17,6,7,0.6,0.5
2024-09-04T2200,1606A,121.8297,41.1028,盘锦市,新生街道,,33,20,23,15,10,104,,133,127,11,7,6,6,0.5,0.5
2024-09-04T2200,1832A,113.3257,33.742,平顶山市,新华旅馆,颗粒物(PM10),63,76,68,32,26,121,,153,138,14,18,4,6,0.9,0.8
2024-09-04T2200,1833A,113.2919,33.737,平顶山市,规划设计院,,48,48,42,32,25,123,,156,140,18,20,6,8,0.7,0.6
2024-09-04T2200,1834A,113.182,33.774,平顶山市,平顶山工学院,颗粒物(PM10),52,53,47,29,23,121,,155,144,10,16,6,8,1.0,0.9
2024-09-04T2200,3204A,113.3025,33.73,平顶山市,规划局,颗粒物(PM10),54,58,56,28,26,117,,145,133,14,19,2,5,0.7,0.7
2024-09-04T2200,3594A,112.8867,33.9116,平顶山市,石龙区,颗粒物(PM10),79,107,67,38,26,93,,146,128,26,20,9,11,0.6,0.6
2024-09-04T2200,2656A,106.6692,35.5461,平凉市,聚贤嘉苑,,30,23,58,17,25,95,,93,92,9,20,7,7,0.4,0.5
2024-09-04T2200,2657A,106.7021,35.5307,平凉市,博物馆,,30,26,64,7,24,93,,97,95,6,23,7,7,0.2,0.4
2024-09-04T2200,2347A,114.0997,27.5002,萍乡市,武功山,,25,25,17,3,6,48,,106,73,6,5,10,10,0.5,0.4
2024-09-04T2200,2348A,113.8385,27.6434,萍乡市,中医院,细颗粒物(PM2.5),74,68,50,54,32,52,,130,105,28,14,18,15,4.2,1.4
2024-09-04T2200,2349A,113.8493,27.6253,萍乡市,市政府车库,颗粒物(PM10),66,82,51,36,29,55,,125,102,16,10,15,13,1.0,1.1
2024-09-04T2200,2350A,113.8676,27.6435,萍乡市,市环保局,细颗粒物(PM2.5),55,55,46,39,29,58,,128,111,16,10,12,14,1.5,0.9
2024-09-04T2200,2351A,113.866,27.6198,萍乡市,安源区政府,颗粒物(PM10),52,53,43,20,19,63,,132,113,16,13,21,16,0.9,0.8
2024-09-04T2200,2319A,119.0141,25.4325,莆田市,荔城区仓后路,,18,14,18,6,6,55,,63,60,6,6,7,7,0.6,0.6
2024-09-04T2200,2320A,119.0015,25.4553,莆田市,莆田市监测站,,32,32,17,3,5,64,,70,68,8,7,7,6,0.4,0.5
2024-09-04T2200,2321A,119.1119,25.4561,莆田市,涵江区六中,,20,17,17,6,5,61,,70,64,5,5,7,7,0.4,0.4
2024-09-04T2200,2322A,119.1013,25.3215,莆田市,秀屿区政府,,25,25,26,7,6,61,,74,65,6,4,6,6,0.6,0.6
2024-09-04T2200,2392A,115.0312,35.7636,濮阳市,环保局,,39,35,42,22,22,122,,155,144,12,16,6,9,0.6,0.5
2024-09-04T2200,2394A,115.0574,35.7609,濮阳市,油田运输公司,颗粒物(PM10),51,51,44,25,25,106,,159,142,17,15,2,5,0.6,0.5
2024-09-04T2200,2395A,115.0866,35.7754,濮阳市,油田物探公司,颗粒物(PM10),56,62,52,28,26,104,,167,146,17,13,7,10,0.6,0.5
2024-09-04T2200,3021A,115,35.7668,濮阳市,濮水河管理处,,44,44,40,24,25,125,,151,137,10,13,4,6,0.5,0.4
2024-09-04T2200,2601A,100.98,22.7633,普洱市,市环保局,,25,25,28,16,11,16,,43,36,7,8,8,5,0.4,0.5
2024-09-04T2200,2602A,100.9817,22.8322,普洱市,普洱第二中学,,24,24,25,3,8,22,,39,34,8,6,8,8,0.7,0.7
2024-09-04T2200,2262A,131.0518,45.8751,七台河市,新一中,,15,14,16,8,9,46,,69,50,9,11,9,10,1.0,1
2024-09-04T2200,3345A,131.0577,45.7879,七台河市,中波台,,13,,17,7,6,40,,44,37,11,22,10,11,0.4,0.5
2024-09-04T2200,3637A,131.0176,45.7761,七台河市,人民广场,,14,14,25,9,10,41,,54,39,10,17,6,8,0.3,0.4
2024-09-04T2200,3684A,130.8781,45.8222,七台河市,新建矿广场,,16,,61,11,13,30,,46,29,13,27,1,6,0.4,0.5
2024-09-04T2200,1779A,123.9305,47.3636,齐齐哈尔市,安居小区,,23,23,24,9,9,43,,79,62,11,11,10,11,0.4,0.4
2024-09-04T2200,1780A,123.9488,47.3386,齐齐哈尔市,中心广场,,15,14,20,3,7,45,,77,64,11,10,2,2,0.2,0.3
2024-09-04T2200,1781A,123.9483,47.3227,齐齐哈尔市,农牧车辆厂,,17,17,27,7,4,47,,78,67,9,7,8,8,0.1,0.2
2024-09-04T2200,1783A,123.945,47.2988,齐齐哈尔市,市环境监测站,,17,17,17,9,9,49,,76,67,8,7,8,8,0.3,0.3
2024-09-04T2200,3662A,123.6333,47.2075,齐齐哈尔市,富区青少年活动中心,,18,18,22,8,3,52,,74,64,9,10,5,5,0.3,0.4
2024-09-04T2200,2591A,107.9783,26.5747,黔东南苗族侗族自治州,市环境监测站,,24,23,18,16,13,20,,90,57,48,20,3,3,0.7,0.6
2024-09-04T2200,2881A,107.8908,26.5311,黔东南苗族侗族自治州,凯里学院,,12,12,12,8,8,23,,91,60,16,10,2,2,0.5,0.5
2024-09-04T2200,2593A,107.5228,26.2403,黔南布依族苗族自治州,小围寨,,18,14,7,7,2,55,,106,91,10,6,3,4,0.4,0.3
2024-09-04T2200,3538A,107.5175,26.2978,黔南布依族苗族自治州,沙坝,,36,36,13,19,6,44,,104,85,17,9,5,4,0.5,0.4
2024-09-04T2200,2589A,104.9022,25.0925,黔西南布依族苗族自治州,场坝街,,34,34,19,22,12,54,,62,57,14,10,13,10,0.2,0.1
2024-09-04T2200,2590A,104.8811,25.0992,黔西南布依族苗族自治州,坪东大道,,32,32,28,3,8,50,,59,54,10,10,15,9,0.3,0.2
2024-09-04T2200,2502A,108.6236,21.9667,钦州市,市环保站,颗粒物(PM10),64,78,30,36,12,75,,116,107,30,12,18,8,1.0,0.7
2024-09-04T2200,2503A,108.6549,21.9481,钦州市,沙埠小学,颗粒物(PM10),76,101,42,39,21,51,,128,105,36,14,5,6,0.8,1
2024-09-04T2200,2504A,108.5989,21.7431,钦州市,港区一小,颗粒物(PM10),89,128,47,38,22,84,,119,102,36,19,13,7,1.2,0.7
2024-09-04T2200,3404A,108.5959,21.9633,钦州市,北职校,颗粒物(PM10),57,63,26,23,16,86,,118,106,20,10,6,5,0.8,0.7
2024-09-04T2200,1042A,119.5134,39.8207,秦皇岛市,北戴河环保局,颗粒物(PM10),59,68,40,21,9,80,,158,150,22,13,3,4,0.6,0.7
2024-09-04T2200,1043A,119.7493,40.0116,秦皇岛市,第一关,,49,42,42,20,22,19,,134,84,98,47,3,4,0.6,0.6
2024-09-04T2200,1044A,119.5897,39.9499,秦皇岛市,监测站,,40,36,31,28,18,73,,132,122,39,15,1,2,0.9,0.8
2024-09-04T2200,1046A,119.5251,39.9041,秦皇岛市,建设大厦,颗粒物(PM10),52,53,35,18,12,30,,129,104,90,18,3,4,0.8,0.6
2024-09-04T2200,3132A,119.610547,39.943889,秦皇岛市,文明里,颗粒物(PM10),51,51,33,28,12,94,,143,137,29,15,2,5,0.8,0.7
2024-09-04T2200,1307A,120.6659,36.2403,青岛市,仰口,,30,,25,14,15,95,,112,92,3,7,5,5,0.2,0.3
2024-09-04T2200,1310A,120.4134,36.0658,青岛市,市南区东部子站,,38,9,25,3,11,120,,125,116,5,19,8,8,0.4,0.5
2024-09-04T2200,1311A,120.3664,36.1032,青岛市,四方区子站,,37,7,28,7,14,117,,125,116,10,25,11,11,0.7,0.7
2024-09-04T2200,1312A,120.2994,36.054,青岛市,市南区西部子站,,39,17,32,3,10,122,,124,113,4,33,8,10,0.6,0.6
2024-09-04T2200,1313A,120.4581,36.0858,青岛市,崂山区子站,,39,17,24,3,8,123,,124,119,10,23,9,9,0.5,0.5
2024-09-04T2200,1314A,120.1983,35.9608,青岛市,黄岛区子站,,34,9,19,7,9,108,,124,114,9,15,9,9,0.4,0.4
2024-09-04T2200,1315A,120.3999,36.3083,青岛市,城阳区子站,,32,17,33,7,13,102,,132,112,20,29,8,8,0.5,0.6
2024-09-04T2200,1966A,120.0405,35.8735,青岛市,黄岛区4号,,31,6,20,3,9,99,,123,118,5,13,10,10,0.5,0.6
2024-09-04T2200,3362A,120.5014,36.4034,青岛市,即墨2号,,31,31,43,12,16,87,,149,114,25,29,6,8,0.4,0.5
2024-09-04T2200,3642A,120.3503,36.0736,青岛市,市北区南部,,34,12,33,7,13,106,,117,108,12,36,9,9,0.5,0.6
2024-09-04T2200,3643A,120.3948,36.1805,青岛市,李沧区北部,,35,19,27,14,16,109,,128,112,18,25,10,9,0.6,0.6
2024-09-04T2200,1702A,113.0426,23.691,清远市,环保大楼,,37,37,27,20,19,63,,78,76,13,8,6,6,0.7,0.6
2024-09-04T2200,1703A,113.0208,23.7106,清远市,凤城街办,,30,30,26,18,16,86,,106,101,12,8,7,7,0.7,0.5
2024-09-04T2200,3025A,113.0477,23.6344,清远市,技师学院,,39,39,30,22,16,49,,125,109,33,12,5,5,1.0,0.5
2024-09-04T2200,3318A,112.9903,23.7403,清远市,清新太和,,,49,31,28,18,77,,95,86,,4,4,5,0.8,0.8
2024-09-04T2200,3455A,113.076,23.7198,清远市,清城东城,,26,23,27,17,16,83,,117,113,12,6,7,7,0.7,0.6
2024-09-04T2200,2661A,107.6325,35.7357,庆阳市,庆阳五中,,24,20,39,8,15,76,,76,74,5,8,5,6,0.4,0.5
2024-09-04T2200,2662A,107.6364,35.7067,庆阳市,市环保局,,25,21,40,7,14,79,,80,79,5,7,4,5,0.4,0.5
2024-09-04T2200,1916A,103.7897,25.5035,曲靖市,环境监测站,,36,36,24,19,12,48,,78,68,21,13,8,7,0.8,0.7
2024-09-04T2200,1917A,103.8,25.5364,曲靖市,烟厂办公区,,31,31,23,8,12,42,,70,63,19,13,4,5,0.7,0.6
2024-09-04T2200,3376A,103.7947,25.462,曲靖市,南苑二区,,28,28,21,15,13,41,,73,65,21,11,12,11,0.6,0.5
2024-09-04T2200,3377A,103.7444,25.5261,曲靖市,曲靖师范学院,,35,35,25,18,17,50,,76,73,20,15,12,20,0.6,0.5
2024-09-04T2200,1264A,118.8692,28.9398,衢州市,环保大楼,,38,38,37,25,28,86,,152,137,28,14,2,2,0.7,0.7
2024-09-04T2200,1265A,118.8709,28.9666,衢州市,实验学校,,38,38,38,21,28,98,,156,141,18,11,4,4,0.7,0.6
2024-09-04T2200,1266A,118.8621,28.9808,衢州市,衢州学院,,30,28,37,18,27,93,,149,132,24,14,3,3,0.5,0.5
2024-09-04T2200,1611A,118.5819,24.9117,泉州市,涂山街,,20,16,20,11,11,62,,71,62,10,8,1,1,0.6,0.6
2024-09-04T2200,1612A,118.5972,24.8978,泉州市,津头埔,,23,20,25,16,12,52,,70,58,14,11,3,3,0.5,0.5
2024-09-04T2200,1613A,118.6663,24.9424,泉州市,万安,,21,21,23,12,11,55,,72,61,7,6,2,2,0.5,0.5
2024-09-04T2200,3529A,118.6333,24.9264,泉州市,城华南路,,,28,21,16,10,,,68,59,14,6,3,3,0.5,0.4
2024-09-04T2200,2626A,88.8876,29.2718,日喀则市,日喀则监测站,,31,24,10,12,6,99,,106,105,9,5,6,6,0.5,0.4
2024-09-04T2200,3726A,88.8781,29.2426,日喀则市,林业技术推广中心,,39,23,8,9,5,123,,130,129,9,7,8,8,0.5,0.4
2024-09-04T2200,1659A,119.471,35.4209,日照市,监测站,,22,,26,11,17,69,,168,137,17,37,10,12,0.4,0.7
2024-09-04T2200,1660A,119.523,35.4216,日照市,市政府广场,,28,17,29,3,14,88,,162,133,11,28,10,11,0.5,0.7
2024-09-04T2200,1661A,119.5587,35.4044,日照市,港务局,,29,14,27,14,20,92,,163,136,6,27,11,10,0.7,0.7
2024-09-04T2200,3507A,119.5328,35.4625,日照市,职业技术学院,,29,12,23,7,13,92,,159,134,9,21,8,10,0.6,0.7
2024-09-04T2200,3604A,119.3266,35.1044,日照市,岚山环保分局,,25,19,30,3,8,77,,172,121,17,20,9,11,0.5,0.6
2024-09-04T2200,1835A,111.1922,34.7752,三门峡市,市政府,,49,49,44,14,21,93,,163,149,8,12,10,13,0.5,0.8
2024-09-04T2200,1836A,111.1587,34.7942,三门峡市,开发区,,36,36,49,10,23,91,,162,149,5,9,10,13,0.5,0.7
2024-09-04T2200,3039A,111.1911,34.7829,三门峡市,三门峡市第一小学,,48,48,47,13,20,87,,154,143,9,11,10,13,0.5,0.7
2024-09-04T2200,3598A,111.1,34.7167,三门峡市,富达温泉假日酒店,颗粒物(PM10),63,76,57,13,29,91,,118,,17,16,14,15,0.6,0.6
2024-09-04T2200,2324A,117.6211,26.2625,三明市,三钢,,26,26,22,13,17,28,,95,68,20,10,5,6,0.3,0.3
2024-09-04T2200,2325A,117.635,26.2714,三明市,三明二中,,17,17,20,8,13,32,,96,70,20,10,2,4,0.4,0.4
2024-09-04T2200,2326A,117.6028,26.2378,三明市,三元区政府,,18,18,28,12,11,22,,95,66,30,15,3,3,0.5,0.6
2024-09-04T2200,1876A,109.5078,18.2489,三亚市,河东子站,,38,38,18,16,8,26,,78,64,24,9,3,4,0.6,0.5
2024-09-04T2200,1877A,109.4964,18.2681,三亚市,河西子站,,35,35,17,17,7,18,,72,57,22,8,3,3,0.4,0.3
2024-09-04T2200,3540A,109.7348,18.3443,三亚市,君悦子站,,37,37,21,10,8,38,,88,65,13,10,4,2,0.1,0.2
2024-09-04T2200,2624A,91.7608,29.2313,山南市,山南监测站,,28,14,10,3,5,89,,119,116,1,4,8,8,0.2,0.3
2024-09-04T2200,2625A,91.7706,29.2436,山南市,山南人民医院,,30,12,15,3,5,94,,118,114,5,8,7,8,0.1,0.2
2024-09-04T2200,1674A,116.6794,23.3667,汕头市,金平子站,,,103,34,18,14,,,77,76,,10,4,5,0.5,0.5
2024-09-04T2200,1675A,116.7244,23.3633,汕头市,龙湖子站,,29,29,30,14,12,58,,89,80,8,10,7,8,0.5,0.5
2024-09-04T2200,1676A,116.7258,23.2775,汕头市,濠江子站,,19,17,26,10,14,60,,91,74,6,9,6,8,0.7,0.7
2024-09-04T2200,1677A,116.7519,23.4714,汕头市,澄海子站,,37,37,33,16,15,60,,101,85,17,12,8,9,0.8,0.7
2024-09-04T2200,1678A,116.6092,23.2539,汕头市,潮阳子站,,27,27,30,3,32,72,,98,84,3,6,5,6,0.4,0.5
2024-09-04T2200,3444A,116.454,23.2684,汕头市,潮南峡山,,28,28,24,6,6,68,,107,90,5,5,6,6,0.6,0.6
2024-09-04T2200,3624A,116.4069,23.2533,汕头市,潮南子站,,30,30,32,12,14,63,,101,84,12,11,8,6,0.5,0.5
2024-09-04T2200,1693A,115.3653,22.775,汕尾市,市环保局,,25,20,23,17,16,52,,96,75,8,8,6,7,0.7,0.8
2024-09-04T2200,1694A,115.3706,22.7898,汕尾市,市政府,,23,18,24,16,10,46,,85,68,10,8,6,7,0.6,0.6
2024-09-04T2200,1695A,115.3622,22.7925,汕尾市,新城中学,,23,20,31,16,14,45,,86,67,9,7,5,6,0.8,0.8
2024-09-04T2200,2645A,109.9154,33.8715,商洛市,监测站,,47,47,32,25,19,76,,119,103,6,10,1,2,0.5,0.8
2024-09-04T2200,3045A,109.9643,33.8471,商洛市,商州区中学,颗粒物(PM10),64,78,36,20,17,77,,114,100,7,12,5,6,0.6,0.8
2024-09-04T2200,2408A,115.6702,34.4285,商丘市,环境监测站,颗粒物(PM10),53,55,46,27,20,129,,155,145,14,15,8,7,0.7,0.6
2024-09-04T2200,2409A,115.6458,34.4045,商丘市,粮食局,颗粒物(PM10),55,59,43,22,21,137,,167,158,10,10,10,9,0.5,0.4
2024-09-04T2200,2410A,115.6293,34.3948,商丘市,睢阳区环保局,颗粒物(PM10),55,60,49,34,20,128,,155,140,9,10,10,9,0.6,0.4
2024-09-04T2200,3171A,115.6071,34.4465,商丘市,梁园区档案局,颗粒物(PM10),52,53,43,32,20,135,,166,153,11,8,8,9,0.6,0.5
2024-09-04T2200,1141A,121.4,31.238,上海市,普陀,,24,21,26,9,12,76,,117,101,14,18,5,5,0.4,0.4
2024-09-04T2200,1142A,121.478,31.2036,上海市,十五厂,,24,19,25,14,16,76,,113,97,13,18,8,8,0.5,0.5
2024-09-04T2200,1143A,121.467,31.3008,上海市,虹口,,23,16,24,13,15,72,,110,92,14,22,8,9,0.6,0.7
2024-09-04T2200,1144A,121.412,31.1654,上海市,徐汇上师大,,27,20,34,11,15,86,,120,102,15,20,6,6,0.7,0.7
2024-09-04T2200,1145A,121.536,31.2659,上海市,杨浦四漂,,21,21,28,11,15,61,,108,87,22,19,7,7,0.6,0.7
2024-09-04T2200,1147A,121.425,31.2261,上海市,静安监测站,,25,21,25,16,15,80,,121,104,13,17,6,6,0.6,0.7
2024-09-04T2200,1148A,121.703,31.1907,上海市,浦东川沙,,22,14,23,8,15,70,,99,85,23,22,6,6,0.6,0.7
2024-09-04T2200,1149A,121.533,31.2284,上海市,浦东新区监测站,,22,17,22,11,15,70,,108,92,16,19,6,6,0.6,0.6
2024-09-04T2200,1150A,121.577,31.2071,上海市,浦东张江,,25,21,22,17,18,59,,96,75,23,23,6,6,0.7,0.8
2024-09-04T2200,3265A,121.4316,31.3322,上海市,宝山庙行,,25,18,26,12,14,79,,115,96,12,23,7,7,0.5,0.5
2024-09-04T2200,3266A,121.8791,31.4662,上海市,崇明上实东滩,,25,16,17,8,10,79,,101,95,5,4,9,8,0.6,0.7
2024-09-04T2200,3268A,121.3162,31.2838,上海市,嘉定南翔,,23,19,24,13,13,73,,120,101,17,21,6,7,0.5,0.5
2024-09-04T2200,3269A,121.3359,30.7456,上海市,金山新城,,28,,21,11,19,87,,115,108,7,13,5,7,0.6,0.7
2024-09-04T2200,3270A,121.4996,31.0739,上海市,闵行浦江,,24,24,23,14,16,75,,111,98,20,17,6,6,0.8,0.8
2024-09-04T2200,3271A,121.2886,31.1663,上海市,青浦徐泾,,26,23,24,14,16,81,,121,106,15,20,7,7,0.6,0.6
2024-09-04T2200,3272A,121.2186,31.0378,上海市,松江图书馆,,23,23,23,11,14,68,,119,97,23,16,6,6,0.5,0.6
2024-09-04T2200,3273A,121.3902,31.2059,上海市,长宁仙霞,,26,20,24,11,13,82,,117,105,15,18,8,9,0.7,0.7
2024-09-04T2200,3274A,121.7965,31.0507,上海市,浦东惠南,,22,,17,11,18,70,,99,89,9,10,8,8,0.5,0.6
