timepoint,stationcode,longitude,latitude,area,positionname,primarypollutant,aqi,pm10,pm10_24h,pm2_5,pm2_5_24h,o3,o3_24h,o3_8h,o3_8h_24h,no2,no2_24h,so2,so2_24h,co,co_24h
2024-09-04T1200,2566A,102.1879,31.914,阿坝藏族羌族自治州,州农科所,,32,32,23,13,8,81,,44,44,7,16,7,7,0,0
2024-09-04T1200,2568A,102.2502,31.8896,阿坝藏族羌族自治州,马师校,,,15,14,10,8,87,,48,48,7,10,,4,0.4,0.4
2024-09-04T1200,3994A,102.2165,31.9024,阿坝藏族羌族自治州,马尔康中学西区,,27,8,13,6,10,86,,48,48,11,10,5,4,0.4,0.4
2024-09-04T1200,2695A,80.292,41.1694,阿克苏地区,电视台,颗粒物(PM10),70,90,52,42,21,96,,83,83,11,11,2,3,0.3,0.3
2024-09-04T1200,2696A,80.2613,41.1551,阿克苏地区,艺术中心,颗粒物(PM10),69,88,49,28,17,96,,79,79,5,6,4,4,0.4,0.3
2024-09-04T1200,2204A,105.6467,38.8363,阿拉善盟,西城区西花园,,50,50,76,10,29,105,,110,108,10,11,7,7,1.3,1.3
2024-09-04T1200,2205A,105.6985,38.8411,阿拉善盟,蒙二幼,,29,9,58,6,24,91,,98,94,7,7,9,10,0.5,0.7
2024-09-04T1200,2206A,105.724,38.8516,阿拉善盟,环保局新楼,,30,11,43,3,21,96,,102,98,8,7,10,10,0.3,0.3
2024-09-04T1200,2708A,88.1264,47.8517,阿勒泰地区,市站,,23,10,13,6,4,72,,49,49,17,11,8,7,0.5,0.5
2024-09-04T1200,2630A,80.1161,32.5,阿里地区,阿里监测站,,34,6,6,3,2,107,,107,99,3,5,10,10,0.3,0.3
2024-09-04T1200,3192A,80.0903,32.5028,阿里地区,阿里藏医院,,31,6,6,3,0,98,,101,92,3,3,6,6,0.3,0.3
2024-09-04T1200,2642A,109.0318,32.6537,安康市,香溪洞,,34,34,21,8,10,90,,65,64,6,5,7,6,0.5,0.5
2024-09-04T1200,2643A,109.0281,32.6939,安康市,安康市监测站,,30,15,19,8,11,95,,70,70,5,6,7,7,0.6,0.6
2024-09-04T1200,2644A,109.0072,32.6975,安康市,汉滨区检察院,,30,15,19,12,13,96,,75,75,6,7,8,7,0.7,0.7
2024-09-04T1200,2291A,117.0809,30.5177,安庆市,环科院,"细颗粒物(PM2.5),臭氧1小时",52,48,41,36,28,161,,96,96,12,12,9,8,1.0,0.9
2024-09-04T1200,2292A,117.0331,30.5119,安庆市,马山宾馆,臭氧1小时,52,,37,35,29,161,,98,98,13,11,10,9,0.8,0.7
2024-09-04T1200,2294A,116.9896,30.6145,安庆市,安庆大学,,44,37,39,27,31,140,,88,88,12,10,8,8,0.9,0.8
2024-09-04T1200,3173A,117.0598,30.5351,安庆市,市人大,细颗粒物(PM2.5),52,43,39,36,31,158,,94,94,10,10,7,8,1.4,1.3
2024-09-04T1200,3122A,105.9606,26.2611,安顺市,伍家关,,,,,,,,,,,,,,,,
2024-09-04T1200,3123A,105.9408,26.2431,安顺市,凤凰山,,,10,17,7,15,110,,62,62,2,6,8,9,,0.3
2024-09-04T1200,3124A,105.9439,26.2564,安顺市,金钟山,,35,17,16,6,7,111,,67,67,2,4,6,6,0.2,2.1
2024-09-04T1200,3125A,105.8983,26.2481,安顺市,娄家坡,,33,16,11,10,8,103,,65,65,2,4,5,5,0.6,0.6
2024-09-04T1200,1818A,114.4839,36.0621,安阳市,棉研所,,,,,,,,,,,,,,,,
2024-09-04T1200,1819A,114.3551,36.1017,安阳市,红庙街,颗粒物(PM10),53,56,45,16,19,161,,111,111,12,16,8,6,0.5,0.5
2024-09-04T1200,1820A,114.361,36.0681,安阳市,银杏小区,,,48,44,,,158,,106,106,10,18,6,5,0.6,0.6
2024-09-04T1200,3141A,114.3922,36.0878,安阳市,信访局,臭氧1小时,60,54,43,23,19,168,,109,109,13,18,7,5,0.5,0.5
2024-09-04T1200,3669A,114.4705,36.0637,安阳市,左辅环卫站,,,,51,,22,152,,89,89,8,10,9,9,,0.7
2024-09-04T1200,3703A,114.2917,36.0949,安阳市,安钢职工学校,颗粒物(PM10),52,53,46,17,21,150,,102,102,16,19,10,8,0.5,0.5
2024-09-04T1200,1748A,123.044,41.1196,鞍山市,深沟寺,,30,21,38,10,17,95,,79,79,4,12,4,6,0.6,0.8
2024-09-04T1200,1749A,123.011,41.0931,鞍山市,太阳城,,29,17,33,11,18,90,,78,78,7,12,4,6,0.5,0.6
2024-09-04T1200,1750A,123.0485,41.1442,鞍山市,太平,,30,22,44,11,22,95,,79,79,8,20,5,8,0.6,0.8
2024-09-04T1200,1751A,122.9642,41.0971,鞍山市,铁西三道街,,34,34,53,12,23,86,,65,65,12,24,3,7,0.6,0.8
2024-09-04T1200,1752A,122.9341,41.0833,鞍山市,铁西工业园区,,30,30,51,18,23,79,,60,60,14,23,10,10,0.9,1
2024-09-04T1200,1753A,123.022,41.0821,鞍山市,明达新区,,28,24,35,15,18,87,,83,83,8,12,3,5,0.5,0.6
2024-09-04T1200,1754A,123.1289,41.0228,鞍山市,千山,,,,,,,,,,,,,,,,
2024-09-04T1200,2195A,107.4212,40.761,巴彦淖尔市,附二中,颗粒物(PM10),500,776,106,179,39,38,,78,57,17,14,6,6,0.6,0.7
2024-09-04T1200,2196A,107.37,40.7372,巴彦淖尔市,市环保大楼,颗粒物(PM10),500,773,132,183,31,52,,68,50,7,10,5,4,0.4,0.6
2024-09-04T1200,1956A,86.1472,41.7538,巴音郭楞蒙古自治州,孔雀公园,,38,38,28,7,10,83,,83,83,8,13,5,4,0.3,0.3
2024-09-04T1200,1957A,86.1972,41.7166,巴音郭楞蒙古自治州,棉纺厂,,33,33,18,19,9,92,,88,88,4,8,4,4,0.2,0.2
2024-09-04T1200,1958A,86.2357,41.7173,巴音郭楞蒙古自治州,经济开发区,,30,30,17,18,11,93,,89,89,4,6,5,5,0.2,0.2
2024-09-04T1200,2914A,106.7677,31.8794,巴中市,苏山坪,,37,25,20,18,16,116,,91,85,8,8,4,4,0.7,0.6
2024-09-04T1200,3182A,106.7656,31.8545,巴中市,丽阳花园,,36,29,29,23,20,115,,52,52,8,17,6,5,0.5,0.5
2024-09-04T1200,3183A,106.7418,31.8654,巴中市,圣泉水务公司,,38,31,21,25,15,119,,52,52,10,15,4,5,0.6,0.5
2024-09-04T1200,3616A,106.7616,31.8344,巴中市,市中心医院,,36,30,28,22,21,113,,48,48,5,20,5,4,0.5,0.5
2024-09-04T1200,2235A,122.7911,45.6077,白城市,洮北区环保局,,27,27,18,16,8,86,,76,76,10,13,6,7,0.2,0.2
2024-09-04T1200,2236A,122.8738,45.5725,白城市,市环保局,,30,30,25,16,7,81,,71,71,10,12,4,4,0.4,0.2
2024-09-04T1200,2231A,126.4219,41.9171,白山市,喜丰,,,36,45,8,10,66,,29,29,,16,12,9,0.8,0.8
2024-09-04T1200,2232A,126.4077,41.9419,白山市,环保局,,17,12,29,7,10,54,,26,26,17,17,10,9,0.8,0.7
2024-09-04T1200,2647A,104.1724,36.5446,白银市,第三小学,,29,7,49,3,16,90,,94,94,8,7,5,9,0.5,0.6
2024-09-04T1200,2648A,104.1465,36.5482,白银市,动力公司,,28,,40,6,15,88,,94,94,5,6,4,7,0.3,0.4
2024-09-04T1200,2512A,106.6103,23.9011,百色市,市监测站,,24,18,25,6,9,76,,36,36,6,13,4,9,0.4,0.5
2024-09-04T1200,2513A,106.6538,23.8859,百色市,市中心血站,,29,24,33,11,11,92,,36,36,9,17,3,8,0.6,0.6
2024-09-04T1200,3406A,106.6085,23.8798,百色市,祈福高中,,25,13,34,8,13,80,,33,33,4,14,3,6,0.6,0.7
2024-09-04T1200,2270A,117.396,32.939,蚌埠市,工人疗养院,,48,35,38,18,12,153,,79,79,6,15,11,12,0.4,0.3
2024-09-04T1200,2271A,117.3605,32.9427,蚌埠市,百货大楼,,,,39,,15,145,,70,70,,14,7,8,,0.4
2024-09-04T1200,2273A,117.4185,32.8911,蚌埠市,蚌埠学院,,43,29,31,15,13,137,,82,82,6,15,8,8,0.6,0.4
2024-09-04T1200,2274A,117.3533,32.9673,蚌埠市,淮上区政府,,50,36,36,18,16,160,,85,85,3,9,9,9,0.7,0.7
2024-09-04T1200,2275A,117.3145,32.8977,蚌埠市,高新区,,45,31,31,13,14,144,,88,88,3,13,6,8,0.7,0.5
2024-09-04T1200,3715A,117.3092,32.9314,蚌埠市,蚌埠田家炳中学,,45,36,38,12,16,144,,80,80,2,9,6,6,0.6,0.4
2024-09-04T1200,1585A,109.8756,40.6532,包头市,市环境监测站,,25,18,29,8,19,78,,90,87,12,21,6,9,0.6,0.7
2024-09-04T1200,1587A,109.9991,40.5842,包头市,包头八中,,21,20,37,3,22,66,,84,82,19,19,5,12,0.7,0.8
2024-09-04T1200,1588A,109.8538,40.6821,包头市,青山宾馆,,24,9,30,3,18,74,,91,86,12,18,5,8,0.6,0.8
2024-09-04T1200,1589A,109.8642,40.6288,包头市,惠龙物流,,25,23,30,7,19,80,,91,89,11,17,6,10,0.5,0.7
2024-09-04T1200,1590A,110.0377,40.5546,包头市,东河鸿龙湾,,19,14,33,6,19,58,,78,76,18,18,3,5,0.5,0.6
2024-09-04T1200,3283A,109.9154,40.5685,包头市,滨河大厦,,24,8,25,3,20,76,,83,83,12,18,7,9,0.6,0.6
2024-09-04T1200,3419A,109.9447,40.6261,包头市,包头市委党校,,22,19,32,9,22,70,,84,82,12,19,5,8,0.6,0.5
2024-09-04T1200,3683A,109.8331,40.6576,包头市,昆区政府,,25,12,30,3,20,78,,90,87,14,17,4,8,0.4,0.8
2024-09-04T1200,1930A,107.185,34.3063,宝鸡市,庙沟村,,48,48,49,24,26,95,,62,58,11,14,9,9,0.5,0.5
2024-09-04T1200,1931A,107.0708,34.3017,宝鸡市,竹园沟,颗粒物(PM10),55,59,46,27,28,94,,44,44,20,14,10,9,0.6,0.6
2024-09-04T1200,1932A,107.1906,34.3672,宝鸡市,三陆医院,,44,44,57,23,31,88,,52,52,13,24,11,11,0.7,0.7
2024-09-04T1200,1933A,107.1431,34.3547,宝鸡市,监测站,颗粒物(PM10),63,75,60,31,33,86,,47,47,24,22,9,7,0.7,0.6
2024-09-04T1200,1934A,107.1186,34.3739,宝鸡市,技工学校,颗粒物(PM10),59,68,56,29,36,86,,44,44,20,18,10,10,0.7,0.8
2024-09-04T1200,1935A,107.3906,34.3528,宝鸡市,陈仓区环保局家属楼,,38,38,54,21,28,105,,57,57,10,25,9,10,0.6,0.7
2024-09-04T1200,1936A,107.2058,34.3497,宝鸡市,文理学院,,35,35,50,20,27,100,,60,60,14,19,12,11,0.7,0.7
2024-09-04T1200,1937A,107.2386,34.3622,宝鸡市,三迪小学,颗粒物(PM10),51,52,54,28,33,98,,62,62,12,20,10,9,0.7,0.7
2024-09-04T1200,1051A,115.493,38.8632,保定市,游泳馆,颗粒物(PM10),54,57,44,34,19,147,,84,84,13,21,5,3,0.2,0.2
2024-09-04T1200,1052A,115.5213,38.8959,保定市,华电二区,颗粒物(PM10),62,73,42,19,17,150,,90,90,11,15,4,4,0.3,0.2
2024-09-04T1200,1053A,115.4713,38.9108,保定市,接待中心,细颗粒物(PM2.5),58,50,37,41,21,136,,84,84,14,16,6,4,0.3,0.5
2024-09-04T1200,1054A,115.4612,38.8416,保定市,地表水厂,,47,47,46,25,16,140,,84,84,10,15,2,2,0.3,0.2
2024-09-04T1200,3581A,115.31981,38.95208,保定市,满城区生态环境分局,颗粒物(PM10),56,61,49,27,18,148,,86,86,15,16,7,5,0.5,0.4
2024-09-04T1200,3582A,115.47694,38.76408,保定市,清苑区第二中学,细颗粒物(PM2.5),64,66,45,46,17,141,,82,82,6,14,4,5,0.5,0.4
2024-09-04T1200,3583A,115.62909,39.02311,保定市,徐水物探局,颗粒物(PM10),59,68,51,34,19,135,,76,76,19,21,9,8,0.5,0.6
2024-09-04T1200,4004A,115.4202,38.8656,保定市,双鹰农机,颗粒物(PM10),52,54,45,17,14,146,,88,88,16,18,7,5,0.1,0
2024-09-04T1200,4034A,115.5150,38.8590,保定市,植保所站,臭氧1小时,58,54,45,24,21,166,,91,91,9,20,11,6,0.4,0.3
2024-09-04T1200,2594A,99.1678,25.1081,保山市,市环境监测站,,32,32,26,16,14,44,,14,14,10,9,7,6,0.5,0.5
2024-09-04T1200,2595A,99.1711,25.1328,保山市,市环保局,,30,30,29,10,10,52,,22,22,9,8,5,4,0.5,0.4
2024-09-04T1200,1866A,109.2262,21.588,北海市,牛尾岭水库,,,,,,,,,,,,,,,,
2024-09-04T1200,1867A,109.1436,21.4086,北海市,海滩公园,,41,33,23,17,8,129,,84,84,8,10,5,4,0.7,0.7
2024-09-04T1200,1868A,109.0981,21.4661,北海市,新市环保局,,37,32,21,19,13,118,,83,83,10,10,5,5,0.7,0.7
2024-09-04T1200,1869A,109.1778,21.5233,北海市,北海工业园,,40,32,26,22,15,128,,80,80,11,10,7,7,0.6,0.5
2024-09-04T1200,3400A,109.1911,21.4415,北海市,龙潭自来水厂,,40,32,19,20,13,128,,83,83,6,7,7,7,0.9,0.7
2024-09-04T1200,1001A,116.3621,39.8784,北京市,万寿西宫,颗粒物(PM10),55,60,52,36,26,78,,70,68,21,20,4,3,0.7,0.6
2024-09-04T1200,1002A,116.2202,40.2915,北京市,定陵,细颗粒物(PM2.5),58,64,39,41,22,83,,55,55,11,10,4,4,0.7,0.5
2024-09-04T1200,1003A,116.4174,39.9289,北京市,东四,颗粒物(PM10),56,62,52,37,26,87,,88,80,22,19,5,5,0.7,0.6
2024-09-04T1200,1004A,116.4072,39.8863,北京市,天坛,颗粒物(PM10),52,53,44,33,23,73,,73,68,22,19,3,2,0.6,0.6
2024-09-04T1200,1005A,116.462,39.9365,北京市,农展馆,颗粒物(PM10),55,60,62,34,25,72,,89,77,23,19,2,3,0.7,0.6
2024-09-04T1200,1006A,116.3392,39.9295,北京市,官园,颗粒物(PM10),60,69,52,34,24,83,,80,73,23,18,7,6,0.7,0.5
2024-09-04T1200,1007A,116.2878,39.9611,北京市,海淀万柳,颗粒物(PM10),62,73,52,40,26,62,,78,68,24,19,4,4,0.7,0.6
2024-09-04T1200,1008A,116.6636,40.135,北京市,顺义新城,颗粒物(PM10),60,69,60,38,30,52,,44,39,29,24,1,3,0.6,0.5
2024-09-04T1200,1009A,116.6275,40.3275,北京市,怀柔镇,颗粒物(PM10),56,62,49,38,27,69,,69,62,24,21,9,8,0.8,0.7
2024-09-04T1200,1010A,116.2296,40.217,北京市,昌平镇,颗粒物(PM10),63,75,54,43,27,64,,63,58,28,22,5,4,0.7,0.5
2024-09-04T1200,1011A,116.3966,39.9821,北京市,奥体中心,颗粒物(PM10),62,73,49,43,26,65,,83,75,33,22,3,3,0.9,0.7
2024-09-04T1200,1012A,116.184,39.9136,北京市,古城,颗粒物(PM10),76,101,62,48,28,67,,64,57,35,28,3,2,0.8,0.6
2024-09-04T1200,3281A,115.9718,40.4529,北京市,延庆夏都,细颗粒物(PM2.5),60,64,41,43,26,92,,89,84,8,9,3,2,0.6,0.5
2024-09-04T1200,3417A,117.0709,40.1465,北京市,平谷新城,颗粒物(PM10),53,56,41,30,20,86,,92,83,13,10,2,2,0.6,0.5
2024-09-04T1200,3418A,116.8336,40.4095,北京市,密云新城,颗粒物(PM10),58,65,42,37,22,72,,49,49,17,11,1,3,0.6,0.4
2024-09-04T1200,3671A,116.088,39.9726,北京市,门头沟三家店,颗粒物(PM10),66,81,49,43,25,58,,49,47,21,16,4,3,0.7,0.6
2024-09-04T1200,3672A,116.1541,39.8204,北京市,丰台云岗,细颗粒物(PM2.5),69,77,50,50,26,70,,54,48,17,16,4,3,0.7,0.5
2024-09-04T1200,3673A,116.6804,39.9081,北京市,通州东关,,45,45,50,28,27,67,,63,59,21,21,3,2,0.4,0.5
2024-09-04T1200,3674A,115.9577,39.7603,北京市,房山燕山,颗粒物(PM10),63,75,48,30,22,71,,48,48,20,11,1,1,0.6,0.4
2024-09-04T1200,3675A,116.4672,39.7733,北京市,大兴旧宫,颗粒物(PM10),51,52,45,29,24,85,,78,68,19,14,3,2,0.7,0.6
2024-09-04T1200,3694A,115.986,40.4563,北京市,延庆石河营,细颗粒物(PM2.5),59,59,41,42,24,81,,82,78,7,8,3,3,0.5,0.4
2024-09-04T1200,3695A,116.6151,40.3053,北京市,怀柔新城,细颗粒物(PM2.5),59,59,49,42,26,61,,63,57,21,19,3,3,0.7,0.6
2024-09-04T1200,3696A,116.2545,39.8768,北京市,丰台小屯,颗粒物(PM10),62,73,53,39,26,80,,61,61,17,19,2,2,0.7,0.6
2024-09-04T1200,3697A,116.84,40.3844,北京市,密云镇,颗粒物(PM10),59,68,45,41,23,67,,64,58,18,12,3,2,0.6,0.5
2024-09-04T1200,1761A,123.8275,41.3064,本溪市,大峪,,32,28,27,18,14,100,,65,65,7,16,7,8,0.6,0.7
2024-09-04T1200,1762A,123.7567,41.3325,本溪市,溪湖,,35,35,39,16,16,88,,71,71,14,19,7,6,1.0,1.1
2024-09-04T1200,1763A,123.7169,41.3094,本溪市,彩屯,,36,36,37,18,20,74,,65,65,26,25,12,11,2.0,1.6
2024-09-04T1200,1764A,123.7669,41.2864,本溪市,东明,,33,33,27,14,12,98,,92,92,9,21,6,6,0.6,0.6
2024-09-04T1200,1765A,123.7992,41.2664,本溪市,新立屯,,37,37,22,12,6,99,,97,97,12,28,4,4,0.6,0.6
2024-09-04T1200,1766A,123.8142,41.3472,本溪市,威宁,,26,26,32,14,13,73,,35,35,8,18,8,8,0.5,0.6
2024-09-04T1200,2587A,105.2864,27.3125,毕节市,八中,,23,14,21,8,17,72,,34,34,6,14,7,7,0.4,0.5
2024-09-04T1200,2588A,105.31,27.2944,毕节市,师专,,24,16,23,10,16,75,,36,36,6,17,7,8,0.4,0.5
2024-09-04T1200,3537A,105.3631,27.3533,毕节市,长征村,,25,11,16,9,13,78,,43,43,4,9,8,7,0.4,0.5
2024-09-04T1200,1629A,118.0018,37.3617,滨州市,第二水厂,臭氧1小时,95,46,40,22,20,196,,98,98,8,19,10,9,0.8,0.7
2024-09-04T1200,1630A,117.9776,37.393,滨州市,北中新校,臭氧1小时,106,51,39,22,16,211,,111,111,10,18,15,15,0.9,0.8
2024-09-04T1200,3514A,117.9378,37.3956,滨州市,中海酒店,臭氧1小时,95,44,33,19,19,196,,121,121,10,14,16,14,0.5,0.7
2024-09-04T1200,3515A,117.9378,37.3553,滨州市,开发区一中,臭氧1小时,104,56,40,29,19,207,,102,102,14,22,19,14,0.8,0.6
2024-09-04T1200,3516A,118.0917,37.694,滨州市,金海六路,臭氧1小时,97,58,41,17,13,197,,111,111,9,13,10,8,0.5,0.6
2024-09-04T1200,4028A,117.9956,37.3753,滨州市,滨州市西街道办事处,臭氧1小时,104,44,35,24,22,208,,104,104,7,16,12,17,0.8,0.8
2024-09-04T1200,2311A,115.8072,33.8399,亳州市,污水处理厂,,45,36,44,30,22,141,,94,94,9,14,17,35,0.5,0.5
2024-09-04T1200,2312A,115.7789,33.8518,亳州市,三国揽胜宫,,46,46,42,16,23,141,,94,94,6,8,20,30,0.7,0.7
2024-09-04T1200,3332A,115.7633,33.8034,亳州市,亳州学院,,45,33,40,14,12,143,,103,103,6,11,20,15,0.6,0.5
2024-09-04T1200,2693A,82.0485,44.8556,博尔塔拉蒙古自治州,市党校,,35,35,28,18,9,75,,37,37,9,11,6,5,0.4,0.4
2024-09-04T1200,2694A,82.0806,44.8969,博尔塔拉蒙古自治州,市环保局,,30,30,35,8,11,70,,30,30,10,12,6,5,0.4,0.4
2024-09-04T1200,1071A,116.8842,38.2991,沧州市,沧县城建局,颗粒物(PM10),51,51,35,25,17,152,,86,86,16,18,7,6,0.6,0.5
2024-09-04T1200,1072A,116.8584,38.3254,沧州市,电视转播站,臭氧1小时,58,46,33,34,18,166,,99,99,15,16,12,7,0.5,0.4
2024-09-04T1200,1073A,116.8709,38.3228,沧州市,市环保局,,46,43,36,25,16,147,,92,92,15,16,8,7,0.5,0.4
2024-09-04T1200,3324A,116.8136,38.3004,沧州市,河北水利电力学院,颗粒物(PM10),60,70,40,21,21,164,,97,97,17,18,10,9,0.5,0.5
2024-09-04T1200,2622A,97.1806,31.1273,昌都市,昌都监测站,,21,6,8,3,4,66,,79,74,10,8,7,6,0.6,0.6
2024-09-04T1200,3719A,97.1714,31.1406,昌都市,昌都会议中心,,22,6,8,3,4,68,,84,79,11,5,7,8,0.6,0.6
2024-09-04T1200,2690A,88.1236,43.8886,昌吉回族自治州,天山天池,,,,1,2,1,77,,54,54,4,2,1,2,0.4,0.4
2024-09-04T1200,2692A,87.2717,44.0297,昌吉回族自治州,新区政务中心,,25,19,22,17,13,69,,22,22,14,30,11,11,0.7,0.9
2024-09-04T1200,3613A,87.3095,44.0142,昌吉回族自治州,亚心广场,,24,19,27,3,5,74,,28,28,16,30,5,4,0.4,0.5
2024-09-04T1200,1119A,125.3325,43.9166,长春市,食品厂,颗粒物(PM10),51,51,51,15,19,66,,50,50,16,35,3,4,0.5,0.5
2024-09-04T1200,1120A,125.2863,43.9027,长春市,客车厂,,32,32,35,15,15,67,,62,62,16,30,6,7,0.6,0.6
2024-09-04T1200,1121A,125.2841,43.8463,长春市,邮电学院,,27,27,28,15,9,70,,51,51,12,25,6,6,0.4,0.4
2024-09-04T1200,1122A,125.3716,43.8772,长春市,劳动公园,,31,31,40,14,11,70,,50,50,14,29,7,8,0.5,0.7
2024-09-04T1200,1123A,125.3297,43.8805,长春市,园林处,,33,33,29,13,9,76,,55,55,8,24,4,4,0.5,0.5
2024-09-04T1200,1124A,125.4605,43.79,长春市,净月潭,,24,24,15,16,8,61,,49,49,6,5,6,6,0.5,0.4
2024-09-04T1200,1125A,125.7194,43.515,长春市,甩湾子,,,,,,,,,,,,,,,,
2024-09-04T1200,1126A,125.3863,43.8447,长春市,经开区环卫处,,31,31,31,11,8,60,,43,43,14,28,6,7,0.6,0.6
2024-09-04T1200,1127A,125.245,43.7783,长春市,高新区管委会,,23,23,24,13,8,67,,51,51,8,23,3,4,0.5,0.5
2024-09-04T1200,1128A,125.1761,43.8325,长春市,岱山公园,,44,44,40,21,14,58,,57,57,22,36,2,4,0.4,0.4
2024-09-04T1200,1335A,113.0833,28.2325,长沙市,经开区环保局,颗粒物(PM10),54,57,69,22,45,138,,75,75,8,12,4,3,0.6,0.7
2024-09-04T1200,1336A,112.8872,28.2189,长沙市,高开区环保局,,,60,69,,45,150,,98,98,7,9,2,2,1.0,1
2024-09-04T1200,1337A,113.0792,28.2053,长沙市,马坡岭,,49,44,70,29,49,155,,88,88,6,9,2,2,0.7,0.8
2024-09-04T1200,1338A,112.9394,28.19,长沙市,湖南师范大学,臭氧1小时,57,59,75,25,49,165,,105,105,6,7,3,2,0.8,0.9
2024-09-04T1200,1339A,113.0178,28.1322,长沙市,雨花区环保局,,49,49,70,31,39,153,,70,70,8,19,4,4,0.5,0.6
2024-09-04T1200,1340A,112.9792,28.2597,长沙市,伍家岭,颗粒物(PM10),63,75,71,32,45,139,,76,76,3,8,2,2,0.7,0.8
2024-09-04T1200,1341A,113.0014,28.1944,长沙市,火车新站,,45,38,67,24,45,144,,95,95,4,6,3,2,0.6,0.8
2024-09-04T1200,1342A,112.9844,28.1178,长沙市,天心区环保局,,48,48,70,21,52,132,,80,80,7,13,4,4,1.1,1.2
2024-09-04T1200,1343A,112.8908,28.1308,长沙市,湖南中医药大学,臭氧1小时,63,58,67,29,40,170,,111,111,3,7,4,4,1.0,1.1
2024-09-04T1200,1344A,112.9581,28.3611,长沙市,沙坪,,41,,52,25,36,130,,64,64,4,7,7,12,0.6,1.3
2024-09-04T1200,1727A,113.1147,36.1547,长治市,清华站,,42,34,34,19,18,132,,128,122,6,11,6,6,0.5,0.5
2024-09-04T1200,1728A,113.1031,36.1989,长治市,监测站,,,35,35,19,18,,,127,,12,17,,8,0.6,0.6
2024-09-04T1200,1730A,113.0886,36.2125,长治市,审计局,,42,32,32,22,18,132,,117,111,9,15,5,5,0.6,0.5
2024-09-04T1200,1731A,113.0844,36.1856,长治市,长治八中,,43,29,42,24,18,136,,121,116,8,14,6,6,0.6,0.6
2024-09-04T1200,2845A,113.1569,36.1911,长治市,德盛苑,,40,33,34,19,18,128,,127,119,6,9,8,8,0.7,0.8
2024-09-04T1200,3568A,113.06,36.0464,长治市,向阳小学,颗粒物(PM10),51,51,50,24,30,132,,128,120,8,14,6,7,0.4,0.4
2024-09-04T1200,3569A,112.8792,36.3144,长治市,屯留一中,,44,43,51,20,29,139,,128,123,6,10,7,7,0.5,0.6
2024-09-04T1200,3570A,113.235,36.3489,长治市,潞城四中,,46,37,38,29,25,145,,124,124,6,16,6,6,0.6,0.7
2024-09-04T1200,1854A,111.6975,28.9703,常德市,市二中,细颗粒物(PM2.5),74,74,60,54,47,152,,62,62,9,11,7,7,0.9,0.8
2024-09-04T1200,1857A,111.7158,29.1456,常德市,白鹤山,,,,,,,,,,,,,,,,
2024-09-04T1200,3138A,111.7153,29.0289,常德市,武陵区永安,"颗粒物(PM10),细颗粒物(PM2.5)",59,68,62,42,43,142,,68,68,8,10,7,8,0.9,0.9
2024-09-04T1200,3139A,111.6892,28.9881,常德市,鼎城区玉霞,细颗粒物(PM2.5),69,71,62,50,44,145,,59,59,8,11,6,6,1.0,0.9
2024-09-04T1200,3140A,111.6625,29.0531,常德市,武陵区长庚,细颗粒物(PM2.5),65,72,58,47,38,148,,80,80,9,10,9,8,0.9,0.8
2024-09-04T1200,1196A,119.9633,31.762,常州市,市监测站,,46,45,26,19,13,147,,79,79,10,17,6,7,0.5,0.5
2024-09-04T1200,1200A,119.9468,31.7069,常州市,武进监测站,,43,31,31,18,13,135,,72,72,6,16,7,8,0.8,0.9
2024-09-04T1200,1201A,119.9255,31.9087,常州市,安家,,46,36,29,18,17,145,,56,56,10,23,7,8,0.7,0.7
2024-09-04T1200,3002A,119.9805,31.8174,常州市,行政中心,,49,35,26,24,17,156,,74,74,15,20,8,9,0.7,0.5
2024-09-04T1200,3003A,120.0522,31.7748,常州市,经开区,,45,34,29,13,12,142,,70,70,10,18,10,10,0.7,0.7
2024-09-04T1200,3010A,119.9025,31.7964,常州市,钟楼,,44,38,26,19,13,139,,71,71,10,18,7,9,0.7,0.7
2024-09-04T1200,3429A,119.8598,31.7066,常州市,武进经发区,,44,38,36,15,14,138,,71,71,9,21,12,12,0.5,0.6
2024-09-04T1200,3430A,119.5826,31.7245,常州市,金坛城区,,44,38,31,23,16,140,,71,71,11,19,7,7,0.7,0.7
2024-09-04T1200,2220A,120.4318,41.5881,朝阳市,西梁,颗粒物(PM10),55,59,25,18,13,115,,93,91,14,9,11,9,1.3,0.7
2024-09-04T1200,2221A,120.4521,41.5646,朝阳市,河畔小区,,41,41,27,18,14,118,,107,104,12,8,11,9,1.2,0.7
2024-09-04T1200,2222A,120.4176,41.5648,朝阳市,八里堡,,44,44,27,18,15,123,,91,91,13,12,12,9,1.4,0.8
2024-09-04T1200,2223A,120.3806,41.5969,朝阳市,农业园区,,,33,33,27,18,,,83,83,8,11,14,9,1.2,0.7
2024-09-04T1200,1705A,116.6367,23.6719,潮州市,西园路,,25,25,42,16,26,60,,41,41,5,12,5,7,0.2,0.4
2024-09-04T1200,3026A,116.6183,23.6608,潮州市,市政府,,23,23,40,11,21,69,,54,54,1,9,4,7,0.5,0.7
2024-09-04T1200,4036A,116.6461,23.6761,潮州市,金山,,32,25,39,22,25,64,,45,45,4,10,6,7,0.6,0.7
2024-09-04T1200,2472A,113.0073,25.9061,郴州市,马头岭,,35,35,33,9,12,95,,46,46,5,8,9,9,0.5,0.5
2024-09-04T1200,2473A,113.0116,25.8226,郴州市,市职中,,37,31,28,22,21,116,,50,50,8,12,6,5,0.6,0.6
2024-09-04T1200,2474A,113.0161,25.8001,郴州市,兴隆步行街,,36,35,30,16,21,115,,52,52,8,11,9,10,0.6,0.6
2024-09-04T1200,2475A,113.0383,25.8071,郴州市,市审计局,,37,28,27,16,20,117,,51,51,5,12,7,12,0.6,0.5
2024-09-04T1200,2476A,113.0348,25.7759,郴州市,市环保局,,38,32,30,23,21,120,,53,53,8,12,7,10,0.7,0.6
2024-09-04T1200,1431A,103.9728,30.7236,成都市,金泉两河,臭氧1小时,53,33,31,3,20,162,,78,78,5,9,2,2,0.5,0.5
2024-09-04T1200,1432A,104.176,30.6872,成都市,十里店,臭氧1小时,62,37,41,31,27,169,,88,88,13,11,6,5,0.5,0.5
2024-09-04T1200,1433A,104.079,30.5706,成都市,三瓦窑,,,,40,,25,177,,57,57,18,38,,7,,0.5
2024-09-04T1200,1434A,104.1114,30.63,成都市,沙河铺,臭氧1小时,93,58,40,40,24,194,,73,73,22,24,6,6,0.7,0.8
2024-09-04T1200,1437A,104.0786,30.6531,成都市,君平街,臭氧1小时,74,52,42,24,25,179,,90,90,14,16,6,3,0.7,0.7
2024-09-04T1200,1438A,103.613,31.0283,成都市,灵岩寺,,,,,,,,,,,,,,,,
2024-09-04T1200,2880A,104.0239,30.65639,成都市,大石西路,臭氧1小时,55,42,39,23,23,164,,80,80,12,17,7,5,0.8,0.8
2024-09-04T1200,3136A,104.2725,30.5589,成都市,龙泉驿区区政府,,,,40,,29,182,,84,84,14,17,,5,,0.5
2024-09-04T1200,3357A,104.0106,30.6931,成都市,金博路,,50,14,30,3,18,157,,75,75,7,16,2,2,0.5,0.5
2024-09-04T1200,3359A,104.0578,30.5225,成都市,华阳,臭氧1小时,98,61,46,27,22,198,,90,90,20,21,5,3,0.7,0.5
2024-09-04T1200,3487A,104.2394,30.5319,成都市,车城东七路,臭氧1小时,92,41,50,28,33,193,,89,89,13,17,4,3,0.7,0.6
2024-09-04T1200,3488A,104.3853,30.7453,成都市,青白江技师分院,臭氧1小时,107,55,53,50,41,213,,76,76,16,32,10,5,0.6,0.7
2024-09-04T1200,3489A,104.0789,30.4072,成都市,科学城,臭氧1小时,77,47,45,39,35,181,,70,70,10,18,4,4,0.6,0.6
2024-09-04T1200,4011A,103.8506,30.6947,成都市,光华大道三段,臭氧1小时,67,38,33,11,17,173,,86,86,10,13,2,2,0.5,0.5
2024-09-04T1200,1062A,117.9531,40.9081,承德市,铁路,,43,43,29,14,12,109,,96,96,22,24,11,13,0.6,0.4
2024-09-04T1200,1063A,117.9392,40.9763,承德市,中国银行,,34,34,32,13,14,79,,59,58,20,18,5,6,0.6,0.5
2024-09-04T1200,1064A,117.9503,40.928,承德市,开发区,,,,30,,14,109,,102,102,18,15,,12,,0.5
2024-09-04T1200,1065A,117.8051,40.9655,承德市,文化中心,,29,29,36,9,12,87,,74,74,19,17,9,15,0.5,0.5
2024-09-04T1200,1066A,117.9268,41.0026,承德市,离宫,,40,40,29,27,20,58,,37,37,11,8,3,3,0.6,0.4
2024-09-04T1200,2314A,117.47,30.6618,池州市,池州学院,臭氧1小时,53,46,44,30,28,162,,91,91,12,13,7,7,0.9,0.8
2024-09-04T1200,3237A,117.4918,30.6617,池州市,展览馆,颗粒物(PM10),51,52,45,31,25,156,,87,87,10,11,5,5,0.9,0.9
2024-09-04T1200,3333A,117.5627,30.695,池州市,第八中学,,47,39,44,31,26,149,,82,82,8,11,4,4,0.7,0.8
2024-09-04T1200,3334A,117.5038,30.6243,池州市,第十二中学,,46,38,41,22,25,145,,82,82,8,10,4,4,1.0,1
2024-09-04T1200,1744A,118.9233,42.2816,赤峰市,松山一中,,34,28,21,18,8,108,,93,93,19,17,9,9,0.7,0.6
2024-09-04T1200,1745A,118.9576,42.2728,赤峰市,哈达街,,32,30,21,22,20,89,,84,83,13,13,8,9,0.4,0.3
2024-09-04T1200,1746A,118.8788,42.2554,赤峰市,天义路,,32,24,19,19,10,101,,92,92,16,13,6,7,0.5,0.3
2024-09-04T1200,3058A,119.2658,42.0353,赤峰市,银河街,,41,41,28,21,18,86,,82,82,15,11,18,13,0.6,0.4
2024-09-04T1200,3286A,118.9359,42.3147,赤峰市,桥北物流园区,,39,39,19,15,14,91,,87,83,17,13,7,7,0.9,0.7
2024-09-04T1200,2521A,107.3476,22.4136,崇左市,市环保局江州分局,,27,27,24,14,10,77,,38,38,4,4,6,6,0.6,0.5
2024-09-04T1200,2522A,107.3702,22.3707,崇左市,城南新区,,31,31,22,15,13,76,,38,38,4,6,4,5,0.5,0.5
2024-09-04T1200,2298A,118.3093,32.3153,滁州市,老年大学,臭氧1小时,67,40,32,24,14,173,,87,87,12,12,14,9,0.7,0.3
2024-09-04T1200,2299A,118.3244,32.2786,滁州市,人大宾馆,臭氧1小时,60,47,33,28,16,168,,81,81,14,17,8,7,0.7,0.5
2024-09-04T1200,3207A,118.3118,32.3038,滁州市,市政府原办公楼,臭氧1小时,59,35,29,24,17,167,,82,82,13,13,10,8,0.8,0.4
2024-09-04T1200,3331A,118.3267,32.2634,滁州市,图书馆,臭氧1小时,55,48,28,15,14,164,,78,78,13,13,7,6,0.5,0.2
2024-09-04T1200,2605A,101.5482,25.0441,楚雄彝族自治州,州环境监测站,,,,24,,17,39,,11,11,5,15,6,6,0.4,0.5
2024-09-04T1200,2606A,101.538,25.0492,楚雄彝族自治州,市经济开发区,,12,,25,6,14,36,,12,12,4,13,6,6,0.5,0.6
2024-09-04T1200,2548A,107.5277,31.2827,达州市,达州职业技术学院,,33,26,44,23,26,98,,40,40,4,14,6,6,0.6,0.8
2024-09-04T1200,2549A,107.5086,31.2186,达州市,市环境监测站,,35,30,41,9,20,110,,40,40,14,28,7,8,0.4,0.6
2024-09-04T1200,2550A,107.4988,31.2132,达州市,凤凰小区,,38,34,37,14,23,121,,48,48,9,24,7,8,0.4,0.5
2024-09-04T1200,2551A,107.5082,31.1986,达州市,达县机关宾馆,,37,31,50,8,22,117,,49,49,15,36,5,6,0.3,0.4
2024-09-04T1200,2552A,107.4644,31.2124,达州市,市政中心,,38,35,44,14,22,120,,51,51,10,31,6,6,0.3,0.5
2024-09-04T1200,2614A,100.1542,25.7054,大理白族自治州,大理市环境监测站,,21,21,13,6,6,43,,39,36,5,5,3,3,0.5,0.5
2024-09-04T1200,2615A,100.2171,25.5811,大理白族自治州,大理古城,,18,14,16,3,8,55,,29,29,5,8,7,7,0.5,0.5
2024-09-04T1200,1109A,121.612,38.9741,大连市,甘井子,,45,27,27,13,13,141,,104,104,13,14,9,9,0.3,0.3
2024-09-04T1200,1110A,121.565,38.9511,大连市,周水子,,39,29,33,12,17,124,,86,86,15,20,8,8,0.5,0.5
2024-09-04T1200,1111A,121.5637,38.8845,大连市,星海三站,,42,24,25,19,13,134,,100,100,7,7,8,7,0.4,0.4
2024-09-04T1200,1112A,121.6302,38.9117,大连市,青泥洼桥,,40,23,24,15,15,128,,88,88,5,11,9,8,0.4,0.4
2024-09-04T1200,1113A,121.6251,38.8638,大连市,傅家庄,,,28,23,20,14,143,,107,107,,9,10,9,0.6,0.6
2024-09-04T1200,1114A,121.5213,38.8661,大连市,七贤岭,,45,22,24,14,15,141,,107,107,6,9,8,7,0.4,0.4
2024-09-04T1200,1115A,121.2529,38.8061,大连市,旅顺,,47,18,13,17,11,150,,110,110,13,11,8,7,0.5,0.5
2024-09-04T1200,1116A,121.7485,39.1311,大连市,金州,,39,18,22,14,16,123,,76,76,12,12,9,6,0.6,0.6
2024-09-04T1200,1117A,121.7811,39.0496,大连市,开发区,,38,24,23,13,14,121,,91,91,5,11,8,9,0.4,0.5
2024-09-04T1200,1118A,121.9762,39.0631,大连市,双D港,,40,18,14,13,11,127,,77,77,9,9,6,6,0.6,0.6
2024-09-04T1200,1789A,124.81117,46.03138,大庆市,大同区,,32,26,23,22,16,80,,71,71,10,9,5,8,0.6,0.4
2024-09-04T1200,1790A,125.129,46.533,大庆市,龙凤区,颗粒物(PM10),52,53,42,10,14,82,,68,68,14,10,3,3,0.6,0.4
2024-09-04T1200,1791A,124.902,46.408,大庆市,红岗区,,31,31,26,20,15,86,,68,68,12,11,6,6,0.5,0.4
2024-09-04T1200,1792A,125.153,46.586,大庆市,萨尔图区,,,40,25,14,8,77,,69,68,14,11,5,7,,0.3
2024-09-04T1200,1793A,124.9042,46.6215,大庆市,让胡路区,,39,39,26,13,12,85,,65,65,11,11,5,5,0.5,0.4
2024-09-04T1200,3481A,125.141,46.634,大庆市,萨区政府监测点,,40,40,22,12,6,91,,79,79,13,9,8,6,0.4,0.2
2024-09-04T1200,1721A,113.3819,40.1097,大同市,果树场,,,,,,,,,,,,,,,,
2024-09-04T1200,1723A,113.2994,40.0758,大同市,云冈宾馆,,34,34,30,22,17,39,,40,39,24,21,6,7,0.7,0.5
2024-09-04T1200,1724A,113.3444,40.0917,大同市,大同大学,,30,25,22,21,14,42,,43,42,24,16,7,8,0.9,0.6
2024-09-04T1200,1725A,113.2661,40.1269,大同市,安家小村,,32,29,28,22,12,40,,49,47,24,16,9,10,0.9,0.8
2024-09-04T1200,1726A,113.2711,40.0844,大同市,教育学院,,32,27,29,22,16,34,,42,38,26,21,6,7,0.9,0.7
2024-09-04T1200,3282A,113.3397,40.0597,大同市,大同市卫生学校,,33,31,26,23,15,38,,39,39,26,19,6,8,0.9,0.8
2024-09-04T1200,3565A,113.1367,40.1122,大同市,云冈站,,,24,32,20,17,36,,54,44,21,16,9,11,,1.7
2024-09-04T1200,3566A,113.1186,40.2556,大同市,图书馆,,,,29,20,19,48,,54,44,13,19,8,12,,0.9
2024-09-04T1200,3567A,113.5931,40.0461,大同市,区一中,,21,21,22,12,11,48,,45,44,18,11,9,10,0.7,0.6
2024-09-04T1200,3676A,113.2802,40.0995,大同市,第二人民医院,,35,26,27,24,16,37,,44,43,25,17,9,10,0.8,0.6
2024-09-04T1200,2269A,124.1069,50.4097,大兴安岭地区,科技局,,26,,16,15,11,82,,61,61,2,4,5,5,0.2,0.3
2024-09-04T1200,3663A,124.1164,50.4278,大兴安岭地区,红旗社区,,,9,11,,5,76,,56,56,3,8,5,5,,0.3
2024-09-04T1200,1600A,124.3303,40.0625,丹东市,江湾东路,,38,38,42,21,21,89,,48,48,5,15,6,6,0.6,0.8
2024-09-04T1200,1601A,124.4256,40.1503,丹东市,临江后街,,39,39,50,14,22,105,,60,60,1,10,8,7,0.7,0.8
2024-09-04T1200,1602A,124.3933,40.1461,丹东市,元宝山,,36,36,32,14,13,95,,55,55,8,13,5,4,0.7,0.6
2024-09-04T1200,1603A,124.3633,40.1092,丹东市,民主桥,,41,41,30,18,15,94,,50,50,6,18,6,4,0.6,0.6
2024-09-04T1200,3541A,109.5726,19.5167,儋州市,第一中学子站,,24,19,17,14,8,76,,39,39,2,3,4,4,0.6,0.7
2024-09-04T1200,3542A,109.5567,19.5187,儋州市,东坡学校子站,,25,17,14,12,8,79,,40,40,2,3,5,5,0.5,0.5
2024-09-04T1200,2616A,98.5842,24.428,德宏傣族景颇族自治州,德宏州监测站,,38,38,25,18,11,44,,10,10,12,10,18,8,0.6,0.6
2024-09-04T1200,3677A,98.5881,24.4368,德宏傣族景颇族自治州,芒市人民政府综合楼,,29,27,17,20,9,50,,17,17,16,12,15,6,0.8,0.7
2024-09-04T1200,1901A,104.4239,31.1208,德阳市,东山公园,,46,34,43,17,29,147,,70,70,6,13,4,8,0.5,0.7
2024-09-04T1200,1902A,104.3826,31.1317,德阳市,西小区,,46,41,45,21,29,147,,62,62,12,19,4,7,0.6,0.6
2024-09-04T1200,1904A,104.3553,31.1091,德阳市,耐火材料厂,颗粒物(PM10),53,55,48,25,29,158,,61,61,14,23,6,6,0.6,0.7
2024-09-04T1200,3639A,104.4019,31.1244,德阳市,市教育局,,,42,46,16,28,149,,72,72,6,15,,7,0.7,0.7
2024-09-04T1200,1622A,116.3032,37.4674,德州市,儿童乐园,臭氧1小时,64,51,47,19,20,171,,110,110,8,16,12,14,0.6,0.6
2024-09-04T1200,1624A,116.2991,37.4451,德州市,监理站,臭氧1小时,68,51,39,19,21,174,,104,104,6,13,13,15,0.7,0.6
2024-09-04T1200,3066A,116.2721,37.4379,德州市,九衢泉纯净水厂,臭氧1小时,59,48,45,22,21,167,,93,93,10,23,12,12,0.7,0.6
2024-09-04T1200,3371A,116.3728,37.4403,德州市,开发区人民医院,臭氧1小时,64,51,47,19,18,171,,95,95,7,22,10,13,0.7,0.6
2024-09-04T1200,3372A,116.3572,37.4094,德州市,太阳城中学,臭氧1小时,60,56,47,12,20,168,,83,83,7,26,12,14,0.6,0.5
2024-09-04T1200,3511A,116.5652,37.3319,德州市,陵城艺术中心,臭氧1小时,77,63,44,19,16,181,,95,95,15,25,14,13,0.7,0.6
2024-09-04T1200,2621A,99.7056,27.8317,迪庆藏族自治州,迪庆州站,,23,11,15,7,9,71,,57,57,10,9,6,7,0.4,0.5
2024-09-04T1200,3180A,99.7136,27.8094,迪庆藏族自治州,质量技术监督局,,22,11,14,7,8,70,,61,61,9,9,9,9,0.4,0.4
2024-09-04T1200,2663A,104.6241,35.5734,定西市,东关小学,,30,,31,21,20,76,,76,76,7,4,3,3,0.2,0.2
2024-09-04T1200,2664A,104.6194,35.5934,定西市,供电公司,,30,26,34,21,25,79,,79,79,5,3,6,7,0.2,0.2
2024-09-04T1200,1389A,113.7547,23.0494,东莞市,莞城梨川,,38,23,28,14,21,120,,83,83,12,17,5,5,0.8,0.8
2024-09-04T1200,1390A,113.7944,23.0128,东莞市,东城石井,,43,31,28,26,18,137,,80,80,12,17,5,5,0.7,0.7
2024-09-04T1200,1391A,113.7383,22.9658,东莞市,南城西平,,43,29,32,13,18,135,,74,74,13,21,3,4,0.8,0.7
2024-09-04T1200,3319A,113.7338,23.0381,东莞市,万江金泰,,41,29,28,18,18,130,,91,91,14,16,8,8,0.7,0.7
2024-09-04T1200,3626A,113.7533,23.0202,东莞市,南城元岭,,46,27,34,17,19,146,,100,100,7,16,7,7,0.6,0.6
2024-09-04T1200,3627A,113.7875,23.0457,东莞市,东城主山,,41,23,27,14,16,129,,88,88,7,15,8,8,0.7,0.7
2024-09-04T1200,1666A,118.6614,37.4309,东营市,市环保局,臭氧1小时,106,46,27,17,10,211,,128,128,20,19,9,8,0.4,0.3
2024-09-04T1200,3036A,118.6904,37.4338,东营市,开发区管委会,臭氧1小时,104,61,33,17,10,208,,130,130,17,14,9,8,0.4,0.3
2024-09-04T1200,3365A,118.5719,37.565,东营市,垦利区民丰路,臭氧1小时,109,48,29,19,10,218,,133,133,13,13,1,2,0.6,0.5
2024-09-04T1200,3498A,118.5055,37.8612,东营市,河口城区,臭氧1小时,90,53,28,27,11,192,,120,120,14,11,11,8,0.9,0.8
2024-09-04T1200,3646A,118.4978,37.4623,东营市,胜利站,臭氧1小时,101,49,29,19,11,202,,116,116,22,16,13,12,0.8,0.7
2024-09-04T1200,3734A,118.35,37.26,东营市,理想之城,臭氧1小时,103,39,27,17,14,206,,116,116,14,18,12,7,0.4,0.3
2024-09-04T1200,1591A,110.0023,39.8129,鄂尔多斯市,综合楼,,27,27,41,3,23,76,,83,83,22,16,13,8,0.6,0.8
2024-09-04T1200,1592A,109.9486,39.8261,鄂尔多斯市,巴音孟克林场办事处,,27,17,40,7,24,85,,80,80,8,16,7,7,0.6,0.9
2024-09-04T1200,1593A,109.7736,39.5986,鄂尔多斯市,康泽苑,,29,29,38,3,19,84,,82,82,4,13,6,7,0.5,0.8
2024-09-04T1200,1594A,109.8119,39.5989,鄂尔多斯市,华泰汽车城,,25,17,36,9,25,80,,75,75,6,15,8,8,0.4,0.7
2024-09-04T1200,1595A,109.9734,39.7884,鄂尔多斯市,奥林花园,,26,19,40,7,23,81,,76,76,13,18,5,4,0.6,0.8
2024-09-04T1200,2436A,114.8938,30.3994,鄂州市,市政府,,47,47,45,22,19,147,,99,99,14,13,11,11,0.7,0.8
2024-09-04T1200,2437A,114.8989,30.3714,鄂州市,赵家坝,,43,38,40,15,17,136,,92,92,11,13,11,11,1.0,1
2024-09-04T1200,3654A,114.8094,30.4089,鄂州市,精准医疗中心,,49,47,40,21,19,154,,101,101,12,12,11,9,1.1,0.9
2024-09-04T1200,2454A,109.4978,30.2981,恩施土家族苗族自治州,湖北民院,,,48,31,27,25,90,,63,63,6,13,8,9,,0.8
2024-09-04T1200,2455A,109.4707,30.2798,恩施土家族苗族自治州,州电力总公司,,41,41,30,24,24,116,,64,64,12,16,8,8,0.7,0.7
2024-09-04T1200,3549A,109.5061,30.3772,恩施土家族苗族自治州,龙凤新区,,39,34,31,27,25,121,,63,63,10,12,7,6,0.8,0.7
2024-09-04T1200,2499A,108.3411,21.6158,防城港市,沙万,,38,38,27,16,16,104,,54,54,12,14,6,7,0.5,0.6
2024-09-04T1200,2500A,108.3514,21.7731,防城港市,防城档案局,,40,40,47,18,17,85,,40,40,8,15,6,7,0.5,0.6
2024-09-04T1200,2501A,108.3506,21.6414,防城港市,大海花园,,33,29,26,16,14,103,,47,47,13,13,6,8,0.5,0.5
2024-09-04T1200,1371A,113.1294,23.0067,佛山市,湾梁,,48,48,44,22,23,144,,100,100,27,26,7,8,0.8,0.9
2024-09-04T1200,1372A,113.1083,23.0478,佛山市,华材职中,,46,39,54,21,27,145,,81,81,30,37,6,7,0.5,0.5
2024-09-04T1200,1373A,113.144,23.0453,佛山市,南海气象局,,50,50,43,22,26,148,,77,75,22,20,6,7,0.6,0.6
2024-09-04T1200,1374A,113.2881,22.8094,佛山市,顺德苏岗,,45,,40,29,25,143,,98,93,16,23,8,8,0.7,0.8
2024-09-04T1200,1376A,112.8383,22.8678,佛山市,高明孔堂,,,,34,,19,122,,82,80,,17,9,6,0.9,0.7
2024-09-04T1200,1377A,112.8836,23.1588,佛山市,三水监测站,臭氧1小时,59,36,43,35,27,167,,80,80,18,33,7,6,0.5,0.5
2024-09-04T1200,1378A,112.867,23.185,佛山市,三水云东海,,45,29,36,24,29,144,,58,58,14,24,10,10,0.6,0.6
2024-09-04T1200,3625A,113.2544,22.7642,佛山市,容桂街道办,,49,34,37,24,26,154,,104,101,21,28,7,7,0.8,0.8
2024-09-04T1200,1280A,119.3903,26.0543,福州市,鼓山,,,,,,,,,,,,,,,,
2024-09-04T1200,1282A,119.2681,26.0504,福州市,师大,,25,21,21,7,9,80,,67,67,4,6,5,5,0.3,0.3
2024-09-04T1200,1283A,119.2984,26.1028,福州市,五四北路,,,,,8,9,87,,75,75,5,5,3,4,0.5,0.5
2024-09-04T1200,1284A,119.2648,26.0768,福州市,杨桥西路,,28,21,21,8,10,88,,70,70,4,5,3,3,0.4,0.5
2024-09-04T1200,1285A,119.317,26.0746,福州市,紫阳,,,,,,,,,,,,,,,,
2024-09-04T1200,3048A,119.5799,26.0936,福州市,九龙,,26,22,18,3,6,83,,68,68,1,3,6,6,0.4,0.4
2024-09-04T1200,3526A,119.5189,25.9664,福州市,吴航,,26,15,16,8,9,83,,69,69,2,2,6,6,0.6,0.6
2024-09-04T1200,1755A,123.7977,41.8491,抚顺市,望花区,,41,41,50,14,18,73,,40,40,22,28,11,13,0.9,1
2024-09-04T1200,1756A,123.9161,41.8822,抚顺市,顺城区,,40,40,43,13,16,90,,36,36,16,36,5,7,0.5,0.7
2024-09-04T1200,1757A,124.0436,41.8611,抚顺市,东洲区,,29,29,31,12,19,81,,52,52,11,14,6,8,0.6,0.7
2024-09-04T1200,1758A,123.9247,41.8642,抚顺市,新抚区,,34,34,49,13,16,81,,32,32,17,30,8,9,0.4,0.7
2024-09-04T1200,1759A,124.0972,41.8961,抚顺市,大伙房水库,,30,26,23,21,12,91,,53,53,4,9,5,5,0.6,0.7
2024-09-04T1200,1760A,123.7086,41.8391,抚顺市,沈抚新城,,38,38,37,16,20,80,,53,53,21,27,8,9,0.5,0.5
2024-09-04T1200,2376A,116.2127,28.0814,抚州市,桐源党溪,细颗粒物(PM2.5),53,52,47,37,34,144,,84,84,3,2,15,7,0.8,0.7
2024-09-04T1200,2377A,116.3544,27.9831,抚州市,市站,,47,47,49,30,33,107,,77,77,5,6,5,5,1.0,1.1
2024-09-04T1200,2378A,116.3565,27.963,抚州市,血防站,,50,50,49,34,35,114,,78,78,9,8,1,2,1.0,1
2024-09-04T1200,2379A,116.3564,28.0007,抚州市,采茶剧团,,44,44,47,25,34,118,,75,75,4,5,7,7,1.3,1.4
2024-09-04T1200,2380A,116.385,27.9647,抚州市,医学分院,,,41,47,24,29,119,,72,72,,6,4,6,0.7,0.8
2024-09-04T1200,2207A,121.6094,41.998,阜新市,工业园区,,26,20,29,16,13,81,,92,92,17,18,8,12,0.7,0.6
2024-09-04T1200,2208A,121.6697,42.0279,阜新市,长青街,,28,28,26,16,11,76,,96,94,19,18,11,18,0.7,0.5
2024-09-04T1200,2209A,121.6673,42.0705,阜新市,农业园区,,25,21,25,9,10,78,,97,94,15,14,5,8,0.6,0.5
2024-09-04T1200,2210A,121.6717,42.0224,阜新市,东苑,,29,,26,20,12,82,,99,94,19,16,15,17,0.9,0.7
2024-09-04T1200,2211A,121.6506,42.0498,阜新市,玉龙新城,,,62,28,20,14,78,,92,92,,15,9,12,0.7,0.6
2024-09-04T1200,2301A,115.8277,32.8929,阜阳市,市监测站,,47,40,36,22,17,148,,86,86,6,13,8,9,0.6,0.5
2024-09-04T1200,2303A,115.8554,32.8605,阜阳市,开发区,,48,38,44,14,11,151,,86,86,11,17,6,9,0.6,0.6
2024-09-04T1200,2875A,115.784,32.8892,阜阳市,阜阳职业技术学院,,47,38,34,30,14,150,,96,96,8,11,7,8,0.5,0.4
2024-09-04T1200,3468A,115.7901,32.8613,阜阳市,市规划展馆,,48,48,36,21,19,147,,96,96,8,14,8,11,0.6,0.5
2024-09-04T1200,3469A,115.836,32.9183,阜阳市,枣园社区,颗粒物(PM10),57,64,36,23,17,147,,79,79,9,14,7,8,0.6,0.5
2024-09-04T1200,2669A,102.9099,34.9841,甘南藏族自治州,州政府,,22,,22,15,16,67,,76,71,5,5,8,9,0.4,0.3
2024-09-04T1200,3380A,102.8914,34.9617,甘南藏族自治州,甘肃民族师范学院,,23,6,18,3,12,72,,78,73,3,5,4,4,0.5,0.5
2024-09-04T1200,2570A,101.9603,30.0475,甘孜藏族自治州,水桥子,,19,,7,8,5,59,,16,16,13,18,5,5,0.3,0.3
2024-09-04T1200,3065A,101.9533,29.9972,甘孜藏族自治州,州环保局,,24,17,13,6,4,74,,26,26,13,22,3,3,0.3,0.2
2024-09-04T1200,3414A,115.8347,28.932,赣江新区,桑海产业园,,43,41,40,30,35,123,,85,85,8,10,12,12,0.5,0.6
2024-09-04T1200,2362A,114.9017,25.9149,赣州市,通天岩,,,,,,,,,,,,,,,,
2024-09-04T1200,2363A,114.9367,25.8664,赣州市,地委,,,23,34,18,20,100,,43,43,,11,7,6,1.0,1
2024-09-04T1200,2364A,114.9461,25.8481,赣州市,气象台,,35,30,40,24,25,98,,46,46,10,10,7,10,0.7,0.7
2024-09-04T1200,2365A,114.9322,25.8333,赣州市,市图书馆,,35,24,36,24,21,110,,55,55,4,9,5,4,1.0,1
2024-09-04T1200,2366A,114.8905,25.8471,赣州市,华坚鞋城,,36,36,38,18,21,96,,52,52,11,12,1,2,0.6,0.6
2024-09-04T1200,3109A,115.0093,25.8613,赣州市,赣县区卫计委,,31,30,32,14,20,99,,48,48,6,12,7,6,0.7,0.7
2024-09-04T1200,2683A,106.2319,36.1417,固原市,马园,,25,,71,3,21,80,,79,78,12,15,5,6,0.7,0.7
2024-09-04T1200,2684A,106.2792,36.0022,固原市,监测站,,26,18,65,13,25,83,,84,84,8,8,4,4,0.3,0.3
2024-09-04T1200,2685A,106.2375,36.0211,固原市,新区,,25,,63,9,21,80,,82,80,6,7,7,7,0.3,0.4
2024-09-04T1200,3522A,106.2177,35.9959,固原市,原州区十五小,,29,8,45,6,21,90,,88,85,6,7,8,8,0.4,0.5
2024-09-04T1200,2543A,106.6308,30.5278,广安市,小平旧居,,,,,,,,,,,,,,,,
2024-09-04T1200,2544A,106.6303,30.4576,广安市,市委,,43,15,25,9,17,136,,66,66,10,21,5,6,0.3,0.4
2024-09-04T1200,2545A,106.6271,30.4663,广安市,友谊中学,,43,21,28,8,17,135,,62,62,10,20,5,5,0.4,0.5
2024-09-04T1200,2547A,106.6388,30.4551,广安市,广电花园,,40,21,29,16,17,127,,64,64,11,18,3,2,0.4,0.5
2024-09-04T1200,2902A,106.6351,30.4865,广安市,北辰小学,,45,28,31,10,16,142,,70,70,8,15,7,6,0.3,0.4
2024-09-04T1200,2523A,105.8945,32.4535,广元市,黑石坡,,34,15,26,3,19,108,,55,55,9,11,6,6,0.4,0.4
2024-09-04T1200,2524A,105.821,32.4444,广元市,老城,,39,14,23,8,12,124,,38,38,11,24,1,3,0.4,0.5
2024-09-04T1200,2526A,105.8628,32.4287,广元市,监测站,,40,12,23,6,14,128,,51,51,10,11,8,7,0.6,0.6
2024-09-04T1200,3617A,105.8047,32.4166,广元市,经开区,,38,31,35,22,25,121,,41,41,18,21,5,6,0.8,0.7
2024-09-04T1200,1345A,113.2347,23.1423,广州市,广雅中学,臭氧1小时,63,48,43,29,25,170,,78,78,36,38,6,6,0.9,0.8
2024-09-04T1200,1346A,113.2612,23.105,广州市,市五中,臭氧1小时,55,39,42,38,29,164,,96,96,22,22,4,4,0.9,0.8
2024-09-04T1200,1348A,113.3478,23.0916,广州市,广东商学院,,49,48,46,33,27,155,,69,69,24,35,6,5,0.8,0.7
2024-09-04T1200,1349A,113.4332,23.1047,广州市,市八十六中,,48,43,45,24,25,152,,58,58,21,43,5,4,0.7,0.7
2024-09-04T1200,1350A,113.3505,22.9483,广州市,番禺中学,,49,45,39,27,23,156,,104,104,25,23,6,5,0.8,0.8
2024-09-04T1200,1351A,113.2146,23.3916,广州市,花都师范,,49,37,33,24,19,154,,91,91,11,18,4,5,0.9,0.8
2024-09-04T1200,1352A,113.2597,23.1331,广州市,市监测站,臭氧1小时,52,39,39,26,24,161,,74,74,20,26,6,6,0.8,0.8
2024-09-04T1200,1353A,113.5618,23.312,广州市,九龙镇镇龙,,38,32,25,14,13,119,,63,62,10,19,6,6,0.7,0.6
2024-09-04T1200,1354A,113.2765,23.1544,广州市,麓湖,臭氧1小时,60,39,40,23,23,168,,59,59,15,37,5,5,0.7,0.7
2024-09-04T1200,1355A,113.443,23.3035,广州市,帽峰山森林公园,,,26,16,18,15,,,55,53,,8,6,5,0.6,0.5
2024-09-04T1200,2846A,113.3221,23.1322,广州市,体育西,,48,43,39,28,26,153,,66,66,15,20,7,7,0.8,0.7
2024-09-04T1200,3298A,113.5717,23.5491,广州市,从化街口,,38,34,26,23,18,119,,64,64,10,15,6,2,0.6,0.6
2024-09-04T1200,3299A,113.3472,23.3692,广州市,白云竹料,,45,44,38,22,22,142,,78,78,9,21,5,5,0.7,0.7
2024-09-04T1200,3300A,113.2981,23.237,广州市,白云嘉禾,臭氧1小时,54,41,45,26,24,163,,73,73,23,40,6,5,0.9,0.9
2024-09-04T1200,3301A,113.4256,23.1716,广州市,黄埔科学城,,,31,35,19,23,143,,62,62,,33,6,5,0.6,0.5
2024-09-04T1200,3302A,113.3942,23.0483,广州市,番禺大学城,,49,49,36,27,23,151,,76,74,27,27,9,8,0.7,0.6
2024-09-04T1200,3303A,113.4922,22.8168,广州市,南沙黄阁,臭氧1小时,87,66,43,36,24,189,,83,83,38,35,5,5,1.0,0.9
2024-09-04T1200,3304A,113.5342,22.7896,广州市,南沙街,,,50,40,35,21,144,,80,80,,24,8,6,0.8,0.8
2024-09-04T1200,3443A,113.2902,23.5544,广州市,花都梯面,,34,25,28,18,18,106,,45,45,5,19,6,6,0.6,0.6
2024-09-04T1200,3445A,113.7858,23.7478,广州市,从化良口,,28,24,25,19,17,78,,36,36,5,8,6,6,0.8,0.8
2024-09-04T1200,3446A,113.8051,23.2614,广州市,增城荔城,,31,18,17,14,12,99,,80,73,7,11,5,4,0.7,0.6
2024-09-04T1200,2505A,109.568,23.1478,贵港市,德智高中,,,,,,,,,,,,,,,,
2024-09-04T1200,2506A,109.6047,23.0666,贵港市,江南子站,颗粒物(PM10),52,53,55,27,24,156,,76,76,12,21,10,12,0.8,0.7
2024-09-04T1200,2507A,109.6014,23.0948,贵港市,贵城子站,,40,40,46,20,22,124,,65,65,7,18,10,9,0.6,0.7
2024-09-04T1200,2508A,109.5669,23.1065,贵港市,荷城子站,,39,34,36,12,14,122,,68,68,9,15,11,11,0.5,0.5
2024-09-04T1200,3405A,109.5886,23.1172,贵港市,新世纪学校,,38,24,34,10,14,119,,70,70,8,12,9,9,0.5,0.6
2024-09-04T1200,1439A,106.6899,26.5998,贵阳市,马鞍山,,35,12,9,3,0,111,,44,44,8,10,6,5,0.5,0.4
2024-09-04T1200,1440A,106.6971,26.5694,贵阳市,市环保站,,31,31,25,14,12,94,,50,50,21,18,6,5,0.3,0.3
2024-09-04T1200,1441A,106.6243,26.6266,贵阳市,鉴湖路,,33,19,16,3,6,105,,58,58,5,7,7,9,0.3,0.3
2024-09-04T1200,1442A,106.7487,26.6343,贵阳市,燕子冲,,35,7,8,7,7,111,,49,49,6,10,7,7,0.3,0.4
2024-09-04T1200,1443A,106.6555,26.4365,贵阳市,碧云窝,,33,17,17,3,4,105,,48,48,5,7,8,8,0.6,0.5
2024-09-04T1200,1444A,106.694,26.5161,贵阳市,中院村,,31,19,20,9,8,99,,51,51,6,12,8,10,0.3,0.3
2024-09-04T1200,1445A,106.7109,26.6027,贵阳市,红边门,,34,17,16,14,13,107,,52,52,11,15,5,6,0.4,0.4
2024-09-04T1200,1446A,106.7164,26.5699,贵阳市,新华路,,,,14,9,7,111,,59,59,6,12,,7,,0.5
2024-09-04T1200,1447A,106.674,26.5424,贵阳市,太慈桥,,34,9,12,3,4,108,,45,45,6,9,6,5,0.3,0.2
2024-09-04T1200,1552A,106.805,26.3003,贵阳市,桐木岭,,,,,,,,,,,,,,,,
2024-09-04T1200,1862A,110.4144,25.3167,桂林市,电子科大尧山校区,,49,49,32,24,14,107,,50,50,5,6,7,17,0.6,0.5
2024-09-04T1200,1863A,110.2819,25.2697,桂林市,监测站,颗粒物(PM10),51,52,26,16,16,87,,50,50,11,8,12,8,0.4,0.3
2024-09-04T1200,1864A,110.3089,25.2708,桂林市,龙隐路小学,,39,39,22,17,15,103,,52,52,7,7,11,9,0.4,0.3
2024-09-04T1200,1865A,110.2869,25.2178,桂林市,八中,,,53,22,18,8,111,,62,62,,6,9,8,,0.3
2024-09-04T1200,3403A,110.1764,25.2381,桂林市,创业大厦,,49,46,28,34,18,77,,39,39,11,9,13,12,0.3,0.3
2024-09-04T1200,3531A,110.296,25.1253,桂林市,旅游学院,,32,19,13,9,7,102,,61,61,6,6,8,6,0.4,0.4
2024-09-04T1200,2674A,100.2561,34.4714,果洛藏族自治州,玛沁县大武镇,,28,9,16,3,10,87,,46,46,4,7,8,10,0.4,0.5
2024-09-04T1200,1129A,126.5422,45.755,哈尔滨市,岭北,,30,30,21,20,12,88,,87,87,18,17,9,9,0.7,0.5
2024-09-04T1200,1130A,126.561,45.8167,哈尔滨市,松北商大,,,,21,,6,65,,52,52,,19,8,8,,0.6
2024-09-04T1200,1131A,126.979,45.5419,哈尔滨市,阿城会宁,,32,32,24,12,9,42,,47,47,9,16,7,8,0.7,0.7
2024-09-04T1200,1132A,126.599,45.7222,哈尔滨市,南岗学府路,颗粒物(PM10),51,51,41,11,10,54,,43,43,20,28,7,8,0.6,0.5
2024-09-04T1200,1133A,126.689,45.7733,哈尔滨市,太平宏伟公园,颗粒物(PM10),52,54,29,17,10,53,,46,46,24,24,4,4,0.6,0.5
2024-09-04T1200,1134A,126.635,45.7667,哈尔滨市,道外承德广场,,39,39,30,12,13,55,,46,46,23,28,8,8,0.4,0.4
2024-09-04T1200,1135A,126.685,45.7319,哈尔滨市,香坊红旗大街,,,,36,16,11,49,,42,42,,27,10,11,0.6,0.7
2024-09-04T1200,1136A,126.6411,45.7258,哈尔滨市,动力和平路,颗粒物(PM10),52,54,30,32,12,56,,42,42,23,24,8,10,0.8,0.5
2024-09-04T1200,1137A,126.593,45.7478,哈尔滨市,道里建国路,,,48,28,19,10,62,,53,53,13,24,,10,0.8,1.5
2024-09-04T1200,1138A,126.615,45.61,哈尔滨市,平房东轻厂,,43,43,24,9,7,51,,45,45,12,14,6,6,0.5,0.3
2024-09-04T1200,1139A,126.595,45.9855,哈尔滨市,呼兰师专,,32,32,29,20,10,61,,50,50,21,26,10,11,0.9,0.6
2024-09-04T1200,1140A,126.6206,45.6842,哈尔滨市,省农科院,,41,41,39,16,10,50,,37,37,22,35,8,9,0.5,0.4
2024-09-04T1200,2688A,93.5128,42.8172,哈密市,地区监测站,,28,28,28,15,12,76,,61,57,7,7,8,5,0.4,0.3
2024-09-04T1200,2689A,93.4961,42.8328,哈密市,哈密师范学校,,25,22,27,17,13,78,,64,59,7,8,9,6,0.4,0.4
2024-09-04T1200,2671A,100.9048,36.9639,海北藏族自治州,海晏县西海镇,,28,15,19,11,18,87,,95,90,4,7,13,15,0.5,0.6
2024-09-04T1200,3867A,102.0738,36.5056,海东市,平安区公安北苑,,25,23,25,3,11,78,,82,73,6,7,8,11,0.4,0.7
2024-09-04T1200,1409A,110.576,19.9507,海口市,东寨港,,,,,,,,,,,,,,,,
2024-09-04T1200,1410A,110.3232,20.0574,海口市,海南大学,,,17,20,9,9,,,51,51,7,17,6,6,0.5,0.4
2024-09-04T1200,1411A,110.283,20.0053,海口市,秀英海南医院,,29,26,20,9,9,92,,53,53,10,17,4,4,0.3,0.4
2024-09-04T1200,1412A,110.338,19.9969,海口市,海南师范大学,,31,21,23,8,10,98,,59,59,6,14,5,6,0.4,0.4
2024-09-04T1200,1413A,110.33,20.0356,海口市,龙华路环保局宿舍,,30,21,20,8,10,94,,62,62,6,13,4,4,0.3,0.3
2024-09-04T1200,3539A,110.5111,19.9736,海口市,桂林洋子站,,34,22,27,12,15,108,,45,45,6,16,5,5,0.4,0.3
2024-09-04T1200,2673A,100.6188,36.2866,海南藏族自治州,共和县恰卜恰镇,,31,18,14,3,7,98,,95,95,7,6,12,12,0.5,0.4
2024-09-04T1200,2676A,97.3731,37.3753,海西蒙古族藏族自治州,德令哈市,颗粒物(PM10),68,85,73,25,20,91,,86,86,10,8,9,9,0.2,0.4
2024-09-04T1200,1048A,114.5302,36.6116,邯郸市,东污水处理厂,,46,40,42,14,17,145,,90,90,6,12,4,4,0.4,0.4
2024-09-04T1200,1049A,114.4918,36.5713,邯郸市,矿院,,,43,43,19,20,148,,92,92,7,10,,4,0.4,0.4
2024-09-04T1200,1050A,114.484,36.6133,邯郸市,丛台公园,,45,39,35,22,18,142,,99,99,6,9,6,4,0.5,0.4
2024-09-04T1200,3458A,114.7895,36.5593,邯郸市,香泉濮院小区,,46,30,39,14,15,146,,103,103,7,12,3,4,0.4,0.2
2024-09-04T1200,3579A,114.50634,36.77178,邯郸市,永年区实验高中,颗粒物(PM10),55,59,52,16,20,162,,111,111,8,14,4,3,0.5,0.5
2024-09-04T1200,3580A,114.20016,36.44293,邯郸市,峰峰矿区临水派出所,臭氧1小时,70,46,35,20,17,176,,106,106,6,10,9,9,1.2,0.9
2024-09-04T1200,2634A,106.9893,33.1842,汉中市,汉川机床厂子校,,29,26,22,14,16,91,,58,58,5,7,4,4,0.8,0.8
2024-09-04T1200,2635A,107.0154,33.0706,汉中市,市监测站,,39,39,29,18,16,97,,72,72,3,4,8,7,0.7,0.7
2024-09-04T1200,2636A,107.0089,33.1138,汉中市,鑫源开发区,,34,34,26,17,23,101,,70,70,4,5,9,9,0.6,0.6
2024-09-04T1200,2637A,107.007,33.0323,汉中市,南郑大河坎水厂,,30,27,27,17,17,95,,56,56,3,4,8,8,0.6,0.6
2024-09-04T1200,1223A,120.2072,30.2111,杭州市,滨江,,48,48,38,27,21,107,,48,48,16,15,4,5,0.8,0.8
2024-09-04T1200,1224A,120.0633,30.2747,杭州市,西溪,,37,34,33,20,17,118,,58,58,11,16,5,5,0.7,0.7
2024-09-04T1200,1226A,120.3461,30.3153,杭州市,下沙,,47,47,38,29,21,119,,53,53,18,26,8,8,0.7,0.7
2024-09-04T1200,1227A,120.1269,30.2456,杭州市,卧龙桥,,43,34,33,19,23,137,,59,59,10,15,6,6,0.7,0.7
2024-09-04T1200,1228A,120.1903,30.2692,杭州市,浙江农大,,35,33,34,24,20,109,,51,51,28,21,9,9,0.7,0.7
2024-09-04T1200,1230A,120.1197,30.3119,杭州市,和睦小学,,37,33,28,17,17,118,,59,59,16,18,7,7,0.8,0.8
2024-09-04T1200,1231A,120.3019,30.4183,杭州市,临平镇,,42,42,38,28,20,118,,63,63,10,13,4,4,0.8,0.8
2024-09-04T1200,1232A,120.2697,30.1819,杭州市,城厢镇,,44,44,38,27,28,133,,60,60,14,21,6,7,0.6,0.6
2024-09-04T1200,1233A,120.0883,30.1808,杭州市,云栖,,43,23,27,17,17,136,,48,48,10,14,6,6,0.7,0.8
2024-09-04T1200,3557A,119.9464,30.0494,杭州市,镇二中,,39,27,32,20,24,124,,55,55,10,17,8,8,0.8,0.9
2024-09-04T1200,3558A,119.7183,30.2367,杭州市,市府大楼,,45,35,29,30,29,143,,72,72,10,15,6,5,0.7,0.7
2024-09-04T1200,3656A,120.1556,30.2864,杭州市,消防大队,,41,41,36,24,21,111,,58,58,16,14,8,8,1.0,0.9
2024-09-04T1200,1270A,117.1959,31.7848,合肥市,明珠广场,,49,36,34,34,20,142,,80,80,11,20,7,8,0.7,0.6
2024-09-04T1200,1271A,117.3072,31.8764,合肥市,三里街,细颗粒物(PM2.5),55,58,33,39,14,140,,63,63,16,16,6,6,0.7,0.5
2024-09-04T1200,1272A,117.2588,31.8707,合肥市,琥珀山庄,颗粒物(PM10),52,53,33,35,21,152,,78,78,11,14,6,7,0.7,0.6
2024-09-04T1200,1273A,117.1604,31.9052,合肥市,董铺水库,颗粒物(PM10),53,56,34,31,13,144,,77,77,11,13,3,3,0.6,0.4
2024-09-04T1200,1274A,117.25,31.8571,合肥市,长江中路,细颗粒物(PM2.5),52,51,39,36,20,143,,74,74,11,19,8,8,0.9,0.8
2024-09-04T1200,1275A,117.266,31.9436,合肥市,庐阳区,臭氧1小时,58,48,34,31,13,166,,83,83,14,16,5,4,0.7,0.5
2024-09-04T1200,1276A,117.336,31.8586,合肥市,瑶海区,"颗粒物(PM10),细颗粒物(PM2.5)",53,56,36,37,15,139,,69,69,23,21,6,5,0.7,0.6
2024-09-04T1200,1277A,117.3027,31.7964,合肥市,包河区,,44,44,41,29,19,135,,62,62,11,26,6,7,0.7,0.5
2024-09-04T1200,1278A,117.2776,31.7385,合肥市,滨湖新区,,,44,36,31,17,132,,77,77,,14,6,6,,0.6
2024-09-04T1200,1279A,117.1318,31.8403,合肥市,高新区,,46,46,40,29,17,138,,76,76,12,17,6,7,0.9,0.8
2024-09-04T1200,3464A,117.3803,31.9147,合肥市,高教基地,,49,49,25,27,14,139,,66,66,9,10,2,11,0.6,0.4
2024-09-04T1200,3614A,79.924,37.0877,和田地区,地区环保局,颗粒物(PM10),85,119,201,19,58,47,,54,53,10,6,7,7,0.7,0.6
2024-09-04T1200,3615A,79.9131,37.113,和田地区,市环保局,颗粒物(PM10),65,80,164,23,55,50,,56,55,10,6,7,7,0.5,0.4
2024-09-04T1200,2516A,108.2011,24.715,河池市,东仁乐园,,46,46,26,13,10,99,,48,48,7,10,5,5,0.5,0.5
2024-09-04T1200,2517A,108.0497,24.6947,河池市,市环保站,,,,19,10,10,102,,43,43,7,11,8,9,0.5,0.5
2024-09-04T1200,2518A,108.0983,24.6989,河池市,市疾控中心,,34,30,27,14,13,107,,48,48,8,17,9,9,0.6,0.6
2024-09-04T1200,1696A,114.6778,23.7569,河源市,源西,,36,36,25,15,16,111,,56,56,10,17,5,4,0.6,0.6
2024-09-04T1200,1697A,114.6944,23.7586,河源市,东埔,,45,45,25,19,16,116,,65,65,11,13,4,2,0.7,0.7
2024-09-04T1200,1698A,114.6892,23.7233,河源市,老城,,38,29,22,16,11,121,,75,75,8,9,4,3,0.8,0.7
2024-09-04T1200,1718A,115.4208,35.2464,菏泽市,气象局,臭氧1小时,57,43,51,9,19,165,,122,122,5,12,5,5,0.3,0.3
2024-09-04T1200,1719A,115.4747,35.2375,菏泽市,市政协,臭氧1小时,63,51,49,18,20,170,,124,124,6,11,6,6,0.3,0.4
2024-09-04T1200,3374A,115.5564,35.0891,菏泽市,定陶老年大学,,50,39,42,9,13,157,,109,109,6,12,6,7,0.4,0.4
2024-09-04T1200,3647A,115.4702,35.2706,菏泽市,菏泽医专,,,89,55,42,18,172,,128,128,,18,65,8,0.6,0.6
2024-09-04T1200,2514A,111.5264,24.4172,贺州市,环保小区,,35,35,25,13,10,103,,62,62,11,10,7,7,0.6,0.6
2024-09-04T1200,2515A,111.5608,24.4078,贺州市,政协大楼,,36,32,26,9,13,114,,64,64,13,12,6,7,0.5,0.4
2024-09-04T1200,3534A,111.4744,24.4553,贺州市,西湾,,32,25,23,12,11,100,,54,54,8,10,8,7,0.6,0.6
2024-09-04T1200,2385A,114.17,35.9019,鹤壁市,市监测站,臭氧1小时,59,41,48,28,20,167,,106,106,10,14,4,6,0.4,0.5
2024-09-04T1200,2386A,114.2956,35.7511,鹤壁市,市交警支队,,50,49,47,19,19,158,,96,96,9,17,9,5,0.6,0.5
2024-09-04T1200,2387A,114.2878,35.7306,鹤壁市,迎宾馆,臭氧1小时,54,42,45,16,22,163,,97,97,8,18,8,5,0.7,0.6
2024-09-04T1200,3474A,114.2617,35.6822,鹤壁市,大新区,臭氧1小时,53,52,41,17,13,162,,74,74,11,29,8,5,0.4,0.4
2024-09-04T1200,3596A,114.1572,35.9603,鹤壁市,南山宾馆,,50,33,37,11,17,158,,107,107,7,12,7,6,0.6,0.6
2024-09-04T1200,2244A,130.2537,47.3416,鹤岗市,哈啤分公司,,24,24,26,15,15,62,,29,29,10,13,15,13,0.4,0.5
2024-09-04T1200,2245A,130.2684,47.3086,鹤岗市,斯达机电,,22,22,28,6,10,68,,41,41,9,16,14,14,0.2,0.2
2024-09-04T1200,2246A,130.3114,47.3388,鹤岗市,东山纸板厂,,,24,26,3,15,61,,32,32,,18,16,15,,0.5
2024-09-04T1200,2247A,130.1097,47.3382,鹤岗市,五号水库,,24,7,12,3,6,74,,35,35,4,5,7,7,0.3,0.3
2024-09-04T1200,2263A,127.4833,50.2524,黑河市,交通局,,34,34,26,13,11,82,,69,69,6,5,5,7,0.4,0.3
2024-09-04T1200,2264A,127.5144,50.2341,黑河市,环保局,,,50,25,12,11,90,,78,78,5,5,3,3,,0.3
2024-09-04T1200,2265A,127.5291,50.2472,黑河市,大黑河岛,,32,32,21,13,12,70,,59,59,2,2,2,12,0.2,0.1
2024-09-04T1200,1074A,115.6838,37.7541,衡水市,电机北厂,臭氧1小时,52,47,42,6,14,161,,126,126,5,13,8,9,0.4,0.3
2024-09-04T1200,1075A,115.6303,37.7316,衡水市,市监测站,"颗粒物(PM10),臭氧1小时",54,57,42,13,14,163,,120,120,9,15,10,9,0.4,0.3
2024-09-04T1200,3188A,115.6683,37.7217,衡水市,市城管局,,,49,39,14,17,166,,115,115,4,13,7,8,,0.4
2024-09-04T1200,3459A,115.5989,37.5491,衡水市,地表水厂,颗粒物(PM10),55,59,48,16,15,160,,106,106,4,20,6,5,0.4,0.4
2024-09-04T1200,2456A,112.5003,26.9167,衡阳市,原169医院,颗粒物(PM10),55,59,52,33,32,133,,61,61,9,15,5,6,0.9,0.7
2024-09-04T1200,2457A,112.6194,26.9258,衡阳市,衡阳化工总厂,,,80,60,,,124,,64,64,7,7,7,8,1.0,0.7
2024-09-04T1200,2458A,112.6211,26.8956,衡阳市,珠晖区环保局,,,75,50,,,126,,72,72,9,10,6,7,1.1,0.9
2024-09-04T1200,2459A,112.6197,26.8733,衡阳市,市委党校,,,84,48,42,30,132,,70,70,8,9,7,9,,0.8
2024-09-04T1200,2460A,112.6006,26.8919,衡阳市,市监测站,细颗粒物(PM2.5),68,61,47,49,33,124,,77,77,13,9,9,9,1.2,0.9
2024-09-04T1200,2461A,112.5664,26.9056,衡阳市,真空机电公司,,,76,56,44,36,120,,62,62,8,10,8,14,,1.2
2024-09-04T1200,3399A,112.6703,26.882,衡阳市,师范学院,颗粒物(PM10),60,70,48,35,26,126,,64,64,9,10,8,9,0.9,0.7
2024-09-04T1200,2608A,103.3772,23.3993,红河哈尼族彝族自治州,污水处理厂,,20,,22,14,16,62,,21,21,4,15,15,36,0.3,0.5
2024-09-04T1200,2609A,103.3861,23.35,红河哈尼族彝族自治州,监测站,,,13,20,3,13,75,,22,22,7,12,17,12,,0.5
2024-09-04T1200,3038A,103.3758,23.368,红河哈尼族彝族自治州,州图书馆,,21,20,22,7,8,66,,26,26,6,14,15,29,0.3,0.4
2024-09-04T1200,1090A,111.6507,40.7517,呼和浩特市,呼市一监,,27,14,23,3,20,84,,63,63,8,19,4,4,0.5,0.7
2024-09-04T1200,1091A,111.6572,40.8033,呼和浩特市,小召,,25,12,19,3,19,79,,57,57,11,24,6,6,0.5,0.8
2024-09-04T1200,1094A,111.7516,40.8369,呼和浩特市,如意水处理厂,,23,7,26,3,14,72,,69,69,14,24,5,5,0.5,0.7
2024-09-04T1200,1095A,111.7276,40.8062,呼和浩特市,二十九中,,,15,26,3,23,83,,69,69,13,25,4,4,,0.8
2024-09-04T1200,1096A,111.5512,40.7866,呼和浩特市,工大金川校区,,25,19,26,6,20,78,,70,70,16,32,2,2,0.5,0.7
2024-09-04T1200,1097A,111.717,40.7612,呼和浩特市,化肥厂生活区,,25,12,32,6,18,78,,57,57,20,25,8,8,0.5,0.7
2024-09-04T1200,3698A,111.5968,40.8178,呼和浩特市,红旗小学,,25,12,19,3,18,80,,67,67,12,33,3,4,0.4,0.6
2024-09-04T1200,3699A,111.6518,40.8389,呼和浩特市,海东办,,29,7,19,3,20,90,,72,72,9,31,5,5,0.4,0.7
2024-09-04T1200,2192A,119.7594,49.2261,呼伦贝尔市,区环保局,,36,25,28,25,14,65,,73,73,8,12,6,4,0.4,0.2
2024-09-04T1200,3061A,119.7512,49.1577,呼伦贝尔市,国华电力东,,,,27,,13,,,77,,,7,,3,,0.3
2024-09-04T1200,1250A,120.0751,30.8669,湖州市,城西水厂,,41,41,37,26,23,129,,66,66,10,14,5,4,0.5,0.5
2024-09-04T1200,2873A,120.0875,30.8955,湖州市,仁皇山新区,,45,41,37,31,24,122,,56,56,11,17,6,6,0.8,0.7
2024-09-04T1200,2907A,120.1844,30.8596,湖州市,吴兴区站,,,37,32,26,19,112,,53,53,,11,5,7,0.6,0.6
2024-09-04T1200,3562A,120.4148,30.8538,湖州市,南浔区站,,35,21,26,15,19,111,,55,55,7,14,5,4,0.6,0.6
2024-09-04T1200,1607A,120.9092,40.7136,葫芦岛市,龙港区,,37,20,17,11,11,118,,119,109,5,9,8,10,0.4,0.5
2024-09-04T1200,1608A,120.8392,40.7514,葫芦岛市,化工街,,37,22,28,9,12,116,,95,95,14,21,9,11,0.3,0.3
2024-09-04T1200,1609A,120.8341,40.7073,葫芦岛市,新区,,38,28,23,16,9,120,,117,108,10,14,10,12,0.5,0.4
2024-09-04T1200,1610A,120.8695,40.7677,葫芦岛市,东城区,,36,26,27,11,13,114,,100,100,11,17,8,10,0.5,0.6
2024-09-04T1200,2482A,109.5981,27.5721,怀化市,林科所,,,17,25,8,14,102,,54,54,,14,5,7,0.2,0.3
2024-09-04T1200,2483A,109.9453,27.5444,怀化市,河西地税局,,40,23,28,14,18,125,,62,62,9,10,7,4,0.6,0.6
2024-09-04T1200,2484A,109.9781,27.5342,怀化市,市四医院,,38,32,28,23,20,120,,58,58,7,11,7,8,0.4,0.5
2024-09-04T1200,2485A,109.9972,27.5578,怀化市,监测楼,,39,35,29,17,19,123,,64,64,8,10,4,4,0.6,0.7
2024-09-04T1200,2486A,110.0394,27.583,怀化市,市委党校,,,25,39,14,18,119,,59,59,,10,19,8,0.5,0.6
2024-09-04T1200,1210A,119.036,33.5981,淮安市,钵池山,,39,24,22,9,16,122,,84,84,16,19,8,7,0.6,0.6
2024-09-04T1200,1211A,119.007,33.575,淮安市,北京南路,,,22,25,14,12,117,,81,81,7,12,6,6,,0.4
2024-09-04T1200,1212A,118.989,33.6067,淮安市,市监测站,,41,24,21,12,11,130,,94,94,12,14,9,8,0.6,0.6
2024-09-04T1200,1213A,119.135,33.5039,淮安市,楚州区监测站,,36,34,31,10,11,115,,80,80,10,17,6,6,0.6,0.6
2024-09-04T1200,1214A,119.0186,33.6297,淮安市,淮阴区监测站,,42,29,27,8,11,134,,89,89,15,20,5,4,0.5,0.5
2024-09-04T1200,3426A,118.8755,33.2894,淮安市,新华书店,,35,24,26,11,11,110,,72,72,10,17,6,8,0.7,0.7
2024-09-04T1200,2282A,116.8004,33.975,淮北市,监测站,,50,36,37,20,14,159,,103,102,8,9,8,7,0.7,0.6
2024-09-04T1200,2283A,116.8091,33.9007,淮北市,烈山区政府,,50,45,40,23,18,158,,103,103,11,12,11,8,0.6,0.4
2024-09-04T1200,3330A,116.8873,33.9836,淮北市,杜集区检察院,颗粒物(PM10),52,54,41,22,19,154,,106,103,8,9,5,4,0.6,0.5
2024-09-04T1200,4017A,116.7923,33.9535,淮北市,市博物馆,臭氧1小时,59,41,34,30,17,167,,106,106,12,11,9,6,0.8,0.7
2024-09-04T1200,2277A,116.8305,32.7727,淮南市,潘集区政府,,44,42,41,25,21,138,,79,79,9,15,6,8,0.8,0.7
2024-09-04T1200,2278A,117.0067,32.6524,淮南市,师范学院,,,43,41,20,20,135,,88,88,2,9,5,8,,0.7
2024-09-04T1200,2279A,116.8569,32.5951,淮南市,谢家集区政府,,43,31,36,16,16,135,,88,88,10,13,7,10,0.6,0.7
2024-09-04T1200,2280A,116.8281,32.633,淮南市,八公山区政府,,44,43,40,22,19,140,,88,88,8,14,7,9,0.5,0.5
2024-09-04T1200,2281A,116.6325,32.6201,淮南市,焦岗湖风景区管理处,,35,31,33,20,12,111,,72,72,8,13,11,13,0.2,0.1
2024-09-04T1200,2894A,117.0566,32.6531,淮南市,经济技术开发区消防队,,42,36,30,15,9,132,,86,86,4,12,5,7,0.4,0.5
2024-09-04T1200,3329A,117.0108,32.5893,淮南市,山南新区,,44,44,45,16,15,137,,89,89,8,12,5,6,0.6,0.7
2024-09-04T1200,2446A,114.9028,30.4742,黄冈市,职工中心,,46,44,44,25,23,145,,86,86,11,10,9,12,0.8,1
2024-09-04T1200,2929A,114.8858,30.4519,黄冈市,红卫路,,48,46,41,27,26,152,,92,92,10,14,9,10,0.8,0.8
2024-09-04T1200,3398A,114.9136,30.4445,黄冈市,市林业局,,50,48,50,25,25,160,,94,94,10,15,10,10,0.6,0.6
2024-09-04T1200,2672A,102.0199,35.5102,黄南藏族自治州,同仁县隆务镇,,24,16,24,3,9,76,,76,76,3,3,10,10,0.6,0.6
2024-09-04T1200,2295A,118.2903,29.6963,黄山市,延安路89号,颗粒物(PM10),55,59,52,15,17,121,,67,67,3,5,6,5,0.5,0.6
2024-09-04T1200,2296A,118.327,29.7178,黄山市,黄山东路89号,,37,30,36,21,20,118,,83,83,4,6,4,4,0.6,0.8
2024-09-04T1200,2297A,118.1371,30.2756,黄山市,黄山区政府5号楼,,39,31,41,21,25,123,,65,65,5,7,6,6,0.5,0.6
2024-09-04T1200,2423A,115.0601,30.2313,黄石市,沈家营,颗粒物(PM10),57,64,56,20,20,156,,108,108,14,14,10,9,0.8,0.7
2024-09-04T1200,2424A,115.0817,30.2006,黄石市,陈家湾,颗粒物(PM10),54,58,55,24,21,151,,116,116,11,6,10,9,0.7,0.6
2024-09-04T1200,2426A,114.8988,30.2019,黄石市,铁山,,49,39,39,27,22,156,,113,113,4,8,6,5,0.7,0.5
2024-09-04T1200,2427A,115.0307,30.2092,黄石市,团城山,臭氧1小时,57,39,43,24,20,165,,117,117,12,9,11,8,0.7,0.7
2024-09-04T1200,3149A,115.0235,30.1578,黄石市,笔架山北路,,47,42,47,17,15,150,,108,108,6,4,7,7,0.6,0.5
2024-09-04T1200,1392A,114.4183,23.0528,惠州市,河南岸金山湖子站,,42,30,29,22,17,132,,80,80,6,7,4,4,0.9,0.8
2024-09-04T1200,1393A,114.4053,23.0822,惠州市,下埔横江三路子站,,47,31,31,18,18,150,,94,94,9,10,5,4,0.7,0.7
2024-09-04T1200,1394A,114.4103,23.1142,惠州市,江北云山西路子站,,42,24,30,11,16,133,,86,86,5,8,4,4,0.8,0.8
2024-09-04T1200,1395A,114.4645,22.7833,惠州市,惠阳区承修路船湖子站,,39,24,29,15,18,124,,68,68,13,17,5,5,0.6,0.6
2024-09-04T1200,1396A,114.5317,22.7422,惠州市,大亚湾管委会子站,,42,27,28,15,17,133,,77,77,12,17,7,7,0.7,0.6
2024-09-04T1200,3314A,114.4338,22.8134,惠州市,惠阳秋长,,,,23,16,16,136,,68,68,,17,6,5,,0.6
2024-09-04T1200,3452A,114.6517,22.775,惠州市,大亚湾霞涌,,37,36,27,3,15,118,,73,73,10,12,5,4,0.8,0.8
2024-09-04T1200,2240A,130.9762,45.3001,鸡西市,环保局,,,72,43,18,15,36,,17,17,30,23,12,6,,0.3
2024-09-04T1200,2243A,130.9429,45.3039,鸡西市,第一中学,颗粒物(PM10),62,73,36,16,10,27,,20,20,35,22,6,5,0.4,0.1
2024-09-04T1200,3707A,131.0207,45.3073,鸡西市,欧美日汽修厂,,45,45,37,10,17,36,,16,16,24,26,11,5,0.2,0.2
2024-09-04T1200,3709A,130.9967,45.3106,鸡西市,市政设施管理处,颗粒物(PM10),53,55,44,16,13,37,,13,13,25,31,12,6,0.3,0.2
2024-09-04T1200,2367A,114.9754,27.0803,吉安市,红声器材厂,颗粒物(PM10),55,60,43,37,24,125,,63,63,11,14,8,7,0.8,0.6
2024-09-04T1200,2368A,114.9658,27.0999,吉安市,市森林工业局,,,56,43,37,28,122,,60,60,,23,9,9,,0.6
2024-09-04T1200,2369A,114.99,27.1312,吉安市,市环境监测站,,46,46,40,32,24,126,,62,62,6,14,10,12,0.8,0.7
2024-09-04T1200,2370A,115.0093,27.0968,吉安市,青原区法院,细颗粒物(PM2.5),57,60,41,40,26,121,,57,57,12,17,12,11,0.8,0.7
2024-09-04T1200,1772A,126.54,43.8622,吉林市,哈达湾,,,26,23,18,10,71,,49,49,10,19,,5,0.6,0.6
2024-09-04T1200,1773A,126.5844,43.8358,吉林市,东局子,,24,24,18,14,8,73,,56,56,10,12,5,4,0.6,0.5
2024-09-04T1200,1774A,126.5052,43.8245,吉林市,电力学院,,26,26,31,16,16,69,,41,41,9,21,4,4,0.6,0.6
2024-09-04T1200,1775A,126.6133,43.8972,吉林市,江北,颗粒物(PM10),57,64,31,15,10,59,,47,47,10,12,7,7,0.7,0.7
2024-09-04T1200,1776A,126.555,43.8306,吉林市,江南公园,,29,27,21,20,12,74,,54,54,11,17,5,5,0.7,0.6
2024-09-04T1200,1778A,126.7061,43.7133,吉林市,丰满,,,,,,,,,,,,,,,,
2024-09-04T1200,2868A,126.4739,43.953,吉林市,九站,,45,45,39,13,14,70,,55,55,14,26,7,7,0.7,0.6
2024-09-04T1200,1299A,116.9862,36.6114,济南市,科干所,臭氧1小时,77,39,47,17,16,181,,149,149,9,26,10,8,0.7,0.6
2024-09-04T1200,1300A,116.9376,36.665,济南市,农科所,臭氧1小时,72,49,49,22,18,177,,118,118,17,32,10,9,0.6,0.6
2024-09-04T1200,1301A,117.1265,36.6734,济南市,开发区,臭氧1小时,57,37,51,20,22,165,,92,92,12,39,12,9,0.5,0.5
2024-09-04T1200,1303A,117.0624,36.6868,济南市,省种子仓库,臭氧1小时,72,39,59,9,18,177,,93,93,8,44,8,8,0.5,0.7
2024-09-04T1200,1304A,116.9489,36.6447,济南市,机床二厂,臭氧1小时,83,49,58,10,15,186,,120,120,15,34,12,11,0.6,0.7
2024-09-04T1200,1305A,117.0495,36.663,济南市,市监测站,臭氧1小时,73,37,50,12,18,178,,101,101,10,41,12,12,0.5,0.6
2024-09-04T1200,1306A,116.7675,36.5484,济南市,长清党校,臭氧1小时,88,46,40,20,16,190,,145,145,11,24,10,9,0.8,0.7
2024-09-04T1200,1616A,117.6795,36.229,济南市,技术学院,臭氧1小时,84,53,37,29,16,187,,112,112,8,22,18,14,0.9,0.9
2024-09-04T1200,1961A,117.532,36.6868,济南市,东山小学,臭氧1小时,87,61,52,27,19,189,,141,141,15,31,11,10,0.9,0.8
2024-09-04T1200,3059A,117.7161,36.2049,济南市,泰兴公司,臭氧1小时,77,46,39,17,16,181,,102,102,12,35,17,13,0.6,0.7
2024-09-04T1200,3064A,117.6867,36.2171,济南市,莱芜战役纪念馆,臭氧1小时,75,51,41,14,14,180,,106,106,11,24,15,10,0.7,0.7
2024-09-04T1200,3494A,117.1673,36.9782,济南市,济阳区政府,臭氧1小时,99,66,59,22,21,199,,93,93,18,28,12,15,0.7,0.8
2024-09-04T1200,3495A,117.1171,36.63,济南市,锦屏中学,臭氧1小时,68,32,32,12,13,174,,133,133,16,21,10,6,0.6,0.5
2024-09-04T1200,3682A,116.9814,36.6819,济南市,济南四建,臭氧1小时,79,36,47,20,19,183,,123,123,12,31,11,10,0.6,0.6
2024-09-04T1200,1653A,116.6251,35.4302,济宁市,火炬城,,50,29,45,14,19,159,,109,109,8,16,11,12,0.8,0.8
2024-09-04T1200,1655A,116.5491,35.4042,济宁市,电化厂,臭氧1小时,65,46,52,27,24,172,,116,116,9,20,10,11,0.8,0.7
2024-09-04T1200,3500A,116.5814,35.3707,济宁市,北湖一中,臭氧1小时,57,31,47,17,21,165,,112,112,8,20,8,8,0.5,0.5
2024-09-04T1200,3501A,116.8249,35.5593,济宁市,服务中心,臭氧1小时,53,37,45,16,16,162,,110,110,7,24,7,8,0.6,0.5
2024-09-04T1200,3678A,116.5907,35.4054,济宁市,市第七中学,臭氧1小时,53,45,44,14,20,162,,109,109,10,18,8,9,0.7,0.6
2024-09-04T1200,2255A,130.2751,46.8028,佳木斯市,佳纺,,25,15,21,6,8,77,,51,51,4,10,6,6,0.4,0.4
2024-09-04T1200,2256A,130.3995,46.8307,佳木斯市,发电厂,,25,21,16,7,8,78,,48,48,6,11,6,7,0.5,0.6
2024-09-04T1200,2257A,130.3258,46.7975,佳木斯市,环保局,,24,19,16,11,7,74,,49,49,6,11,8,8,0.4,0.5
2024-09-04T1200,2258A,130.3648,46.8032,佳木斯市,十一中,,24,18,22,8,8,76,,53,53,10,16,7,7,0.4,0.4
2024-09-04T1200,2259A,130.3794,46.7588,佳木斯市,四丰,,,10,10,3,4,72,,55,55,,,1,1,0.4,0.4
2024-09-04T1200,1252A,120.7436,30.778,嘉兴市,清河小学,,,13,26,7,12,123,,69,69,,20,4,4,0.8,0.9
2024-09-04T1200,1253A,120.726,30.7478,嘉兴市,嘉兴学院,,39,19,27,8,16,123,,64,64,10,17,2,2,0.5,0.5
2024-09-04T1200,2872A,120.7846,30.7525,嘉兴市,南湖区残联,,,17,27,6,17,126,,72,72,7,14,,4,,0.6
2024-09-04T1200,3407A,120.6916,30.7739,嘉兴市,秀洲住建,,41,18,25,14,16,129,,63,63,6,16,4,4,0.6,0.6
2024-09-04T1200,1945A,98.2908,39.7711,嘉峪关市,气象局,,31,31,54,9,18,71,,76,76,24,18,15,17,1.0,0.7
2024-09-04T1200,2884A,98.2672,39.7978,嘉峪关市,酒钢宾馆,,29,29,46,17,19,63,,72,72,40,21,39,29,2.4,0.6
2024-09-04T1200,3248A,98.2643,39.7724,嘉峪关市,雄关区,,,16,57,12,22,75,,69,69,17,20,9,11,,0.6
2024-09-04T1200,1383A,113.1064,22.6058,江门市,北街,臭氧1小时,54,36,34,20,24,163,,100,100,18,19,5,4,0.6,0.6
2024-09-04T1200,1384A,113.0731,22.5835,江门市,西区,臭氧1小时,63,27,41,19,23,170,,103,103,15,22,6,6,0.7,0.8
2024-09-04T1200,1385A,113.0219,22.5311,江门市,圭峰西,,49,44,33,26,25,156,,100,100,14,14,3,2,0.5,0.5
2024-09-04T1200,1386A,113.0828,22.5947,江门市,东湖,臭氧1小时,53,31,34,20,24,162,,92,92,13,16,6,6,0.6,0.5
2024-09-04T1200,3311A,113.1075,22.5647,江门市,江海富民,臭氧1小时,70,40,46,26,29,176,,111,111,18,20,6,6,0.8,0.7
2024-09-04T1200,3449A,113.05,22.4667,江门市,新会银湖,,46,43,37,32,27,139,,89,89,13,17,4,4,0.7,0.7
2024-09-04T1200,1828A,113.227,35.2125,焦作市,市环保局,臭氧1小时,73,50,47,35,25,178,,104,104,14,21,7,8,0.4,0.5
2024-09-04T1200,1830A,113.1992,35.2590,焦作市,影视城,,,,,,,,,,,,,,,,
2024-09-04T1200,3169A,113.2725,35.2067,焦作市,太极体育中心,,,52,52,28,25,177,,100,100,,20,4,8,0.6,0.7
2024-09-04T1200,3335A,113.3137,35.2641,焦作市,马村街道办,,,52,47,33,24,182,,101,101,,19,4,3,0.5,0.6
2024-09-04T1200,3336A,113.2465,35.2373,焦作市,焦作技师学院,臭氧1小时,68,58,51,36,26,174,,103,103,13,18,8,6,0.6,0.6
2024-09-04T1200,3477A,113.1656,35.2539,焦作市,中站许衡医院,臭氧1小时,55,37,37,16,18,164,,111,111,14,16,11,5,0.6,0.4
2024-09-04T1200,3981A,113.2449,35.1803,焦作市,原李万街道办,臭氧1小时,60,49,52,24,25,168,,94,94,8,13,4,7,0.4,0.4
2024-09-04T1200,1708A,116.3701,23.5345,揭阳市,新兴,,30,26,38,17,23,94,,72,72,6,13,6,6,0.5,0.7
2024-09-04T1200,1709A,116.3264,23.5443,揭阳市,西马,,,,44,,22,85,,61,61,2,8,5,6,0.5,0.7
2024-09-04T1200,1710A,116.3611,23.5626,揭阳市,东兴,,34,34,43,14,21,81,,64,64,4,11,5,6,0.7,0.8
2024-09-04T1200,1711A,116.4151,23.5294,揭阳市,渔湖,,28,26,40,10,18,87,,67,67,10,15,6,6,0.5,0.6
2024-09-04T1200,3320A,116.403,23.5699,揭阳市,曲溪,,27,23,39,10,23,84,,65,65,4,9,3,7,0.4,0.5
2024-09-04T1200,1944A,102.1692,38.5167,金昌市,天庆家园,,31,6,63,3,12,98,,105,97,3,4,7,7,0.3,0.4
2024-09-04T1200,3170A,102.1864,38.5253,金昌市,市委党校,,34,6,44,3,11,107,,112,105,4,4,6,9,0.6,0.6
2024-09-04T1200,4022A,102.1647,38.5371,金昌市,金川区人防中心,,31,11,62,3,12,98,,98,92,2,3,10,10,0.5,0.6
2024-09-04T1200,1262A,119.647,29.077,金华市,十五中,,46,25,47,21,27,145,,86,86,8,14,2,2,0.6,0.7
2024-09-04T1200,1263A,119.686,29.1029,金华市,监测站,,43,25,46,18,30,137,,83,83,8,16,3,3,0.6,0.7
2024-09-04T1200,3659A,119.656,29.1131,金华市,气象局,,44,25,43,12,23,138,,76,76,6,17,4,4,0.6,0.7
2024-09-04T1200,1767A,121.1115,41.0879,锦州市,南山,,46,46,31,15,18,95,,85,85,18,28,7,12,0.6,0.6
2024-09-04T1200,1768A,121.0533,40.8434,锦州市,开发区,,39,39,46,11,13,102,,104,93,16,25,6,18,0.6,0.7
2024-09-04T1200,1769A,121.1836,41.1119,锦州市,百股街道,,31,19,23,3,8,98,,97,91,10,14,10,14,0.8,0.8
2024-09-04T1200,1770A,121.1178,41.1222,锦州市,天安街道,,31,28,31,14,16,98,,90,90,16,23,8,12,0.7,0.7
2024-09-04T1200,1771A,121.1303,41.1386,锦州市,北湖公园,,32,28,29,13,16,102,,96,96,15,20,7,12,0.7,0.7
2024-09-04T1200,2160A,112.85,35.5051,晋城市,自来水公司,,47,44,48,24,17,150,,131,131,13,17,8,8,0.6,0.6
2024-09-04T1200,2161A,112.8318,35.4936,晋城市,白云商贸,,47,20,37,17,17,149,,126,126,13,16,9,9,0.8,0.8
2024-09-04T1200,2162A,112.8508,35.4887,晋城市,市环保局,,,47,55,,18,143,,123,123,,15,10,10,0.6,0.6
2024-09-04T1200,2163A,112.8676,35.4897,晋城市,技术学院,,43,33,45,12,18,137,,116,116,12,18,10,9,0.8,0.8
2024-09-04T1200,2165A,112.8453,35.546,晋城市,白马寺,,,,,,,,,,,,,,,,
2024-09-04T1200,3620A,112.8271,35.4828,晋城市,泽州一中,,45,30,42,17,18,142,,112,112,13,17,10,10,0.9,0.9
2024-09-04T1200,2171A,112.7532,37.6945,晋中市,锦纶小区,颗粒物(PM10),58,66,40,39,23,132,,90,90,11,12,15,10,0.8,0.7
2024-09-04T1200,2173A,112.7249,37.7067,晋中市,南都小区,颗粒物(PM10),52,53,42,32,27,135,,89,89,12,14,9,6,0.9,0.8
2024-09-04T1200,2174A,112.6991,37.6982,晋中市,榆次区政府,颗粒物(PM10),54,58,42,27,25,135,,86,86,10,14,11,8,0.7,0.8
2024-09-04T1200,2865A,112.7195,37.6828,晋中市,榆次三中,颗粒物(PM10),59,68,43,41,23,136,,88,88,9,13,12,8,1.0,0.8
2024-09-04T1200,2439A,112.2014,31.0481,荆门市,竹园小学,颗粒物(PM10),56,61,68,34,37,147,,88,88,15,19,13,12,1.0,0.9
2024-09-04T1200,2440A,112.1969,30.9891,荆门市,掇刀,颗粒物(PM10),52,53,61,30,39,154,,103,103,12,16,17,18,0.7,0.8
2024-09-04T1200,2441A,112.2213,31.0386,荆门市,石化一小,颗粒物(PM10),54,57,69,29,31,158,,91,91,13,18,15,15,0.9,0.8
2024-09-04T1200,3012A,112.1849,31.0362,荆门市,西山林语,,50,48,61,31,36,160,,101,101,17,18,13,11,0.8,0.8
2024-09-04T1200,3547A,112.1632,31.0138,荆门市,龙泉中学南校,,48,47,56,28,32,152,,99,99,9,16,10,11,0.6,0.6
2024-09-04T1200,1844A,112.2494,30.3197,荆州市,市图书馆,臭氧1小时,55,53,48,30,32,164,,89,89,18,21,6,6,1.0,1
2024-09-04T1200,1845A,112.2008,30.3544,荆州市,市委党校,臭氧1小时,79,45,52,27,34,183,,96,96,14,14,8,8,1.0,1
2024-09-04T1200,3194A,112.2747,30.3122,荆州市,管委会,,,,48,,30,158,,82,82,,17,7,6,0.8,0.8
2024-09-04T1200,3548A,112.1655,30.3364,荆州市,学苑路,臭氧1小时,92,51,53,32,42,193,,100,100,15,15,12,9,1.0,1
2024-09-04T1200,2342A,117.3102,29.3867,景德镇市,王港中学,,,,,,,,,,,,,,,,
2024-09-04T1200,2343A,117.2117,29.2933,景德镇市,老干部活动中心,,38,36,36,26,25,114,,74,74,6,9,4,8,0.3,0.4
2024-09-04T1200,2344A,117.1894,29.2789,景德镇市,兽医站,,39,39,36,24,24,117,,80,80,5,6,7,9,0.5,0.5
2024-09-04T1200,2345A,117.1547,29.2617,景德镇市,台达陶瓷,,35,29,30,17,23,109,,75,75,6,6,7,7,0.3,0.4
2024-09-04T1200,2346A,117.2461,29.2956,景德镇市,陶研所,,37,33,37,25,25,117,,70,70,8,12,4,4,0.4,0.4
2024-09-04T1200,1803A,115.9872,29.6815,九江市,十里,,,,38,31,23,139,,90,90,7,13,10,9,,1
2024-09-04T1200,1804A,115.9584,29.7046,九江市,茅山头,,,58,39,28,24,142,,88,88,17,12,16,10,,0.8
2024-09-04T1200,1805A,115.9877,29.7295,九江市,西园,,43,38,35,25,22,135,,93,93,12,10,7,7,0.9,0.7
2024-09-04T1200,1806A,116.0172,29.6547,九江市,五七二七厂,,46,38,34,32,27,144,,82,82,14,13,13,10,1.2,0.9
2024-09-04T1200,1808A,115.9114,29.6038,九江市,综合工业园,细颗粒物(PM2.5),60,56,40,43,29,144,,93,93,8,8,11,8,1.7,1.2
2024-09-04T1200,1809A,116.0721,29.7535,九江市,石化总厂,颗粒物(PM10),51,51,46,20,26,128,,83,83,12,13,12,10,1.0,0.9
2024-09-04T1200,1810A,115.9773,29.5698,九江市,庐山气象台,,36,33,28,25,21,114,,114,111,3,3,11,9,1.1,0.8
2024-09-04T1200,3190A,116.0254,29.6994,九江市,外国语学校,,47,44,38,23,21,150,,90,90,12,12,12,9,0.9,0.7
2024-09-04T1200,2658A,98.5061,39.7443,酒泉市,仓门街子站,,26,,48,8,13,83,,84,79,7,5,9,8,0.3,0.2
2024-09-04T1200,2659A,98.4989,39.7256,酒泉市,油田生活基地,,26,12,54,3,11,82,,89,84,11,6,10,8,0.5,0.2
2024-09-04T1200,2698A,76.0072,39.4467,喀什地区,巡警大队,颗粒物(PM10),295,416,306,52,47,80,,76,71,14,15,3,3,0.4,0.4
2024-09-04T1200,2699A,75.9755,39.4694,喀什地区,吾办,颗粒物(PM10),305,424,294,70,61,83,,77,74,14,15,1,2,0.6,0.5
2024-09-04T1200,4027A,75.9483,39.4689,喀什地区,老干局,颗粒物(PM10),329,443,302,45,40,73,,73,73,14,12,3,3,0.4,0.4
2024-09-04T1200,1824A,114.3389,34.7781,开封市,肿瘤医院,,48,37,57,16,21,152,,100,100,8,17,6,7,0.4,0.5
2024-09-04T1200,1826A,114.2885,34.7965,开封市,世纪星幼儿园,,,42,51,,,146,,101,101,7,13,3,3,0.7,0.6
2024-09-04T1200,3147A,114.3438,34.8106,开封市,龙亭公园,,48,47,51,17,19,153,,104,104,8,15,6,6,0.6,0.7
2024-09-04T1200,3210A,114.3644,34.7964,开封市,汴京公园,颗粒物(PM10),51,51,54,15,22,153,,102,102,7,15,5,6,1.8,0.6
2024-09-04T1200,3473A,114.2485,34.8306,开封市,技师学院,,,,,,,,,,,,,,,,
2024-09-04T1200,3592A,114.4644,34.7556,开封市,祥符区生态环境局,,48,40,54,19,22,153,,90,90,8,23,6,6,0.5,0.5
2024-09-04T1200,1951A,84.895,45.6094,克拉玛依市,长征新村,,24,24,14,3,4,65,,41,39,6,7,7,6,0.2,0.2
2024-09-04T1200,1952A,84.8988,45.5893,克拉玛依市,南林小区,,22,22,14,12,8,63,,27,27,12,12,10,9,0.3,0.3
2024-09-04T1200,1954A,84.905,44.3396,克拉玛依市,独山子区,,28,6,11,3,5,88,,65,64,8,8,8,7,0.3,0.3
2024-09-04T1200,1955A,85.6979,46.098,克拉玛依市,乌尔禾区商贸楼,,20,13,17,3,6,61,,25,25,11,11,11,9,0.4,0.3
2024-09-04T1200,3612A,85.1045,45.6899,克拉玛依市,白碱滩区新站,,23,14,14,3,4,71,,48,48,5,7,9,8,0.1,0.1
2024-09-04T1200,2697A,76.1454,39.7142,克孜勒苏柯尔克孜自治州,市人民政府,颗粒物(PM10),177,303,273,46,63,96,,97,95,2,5,1,2,0.5,0.5
2024-09-04T1200,3665A,76.1658,39.7157,克孜勒苏柯尔克孜自治州,克州文化中心,颗粒物(PM10),184,317,296,43,62,98,,96,94,2,3,3,4,0.4,0.4
2024-09-04T1200,1450A,102.8204,24.8886,昆明市,呈贡新区,,19,10,30,3,16,58,,25,25,4,22,4,5,0.5,0.7
2024-09-04T1200,1451A,102.6251,24.9608,昆明市,西山森林公园,,,,,,,,,,,,,,,,
2024-09-04T1200,1452A,102.7252,25.0902,昆明市,龙泉镇,,,,24,7,12,60,,20,20,7,17,6,6,0.7,0.8
2024-09-04T1200,1453A,102.7266,25.0375,昆明市,东风东路,,17,16,25,11,15,54,,16,16,12,27,5,5,0.5,0.7
2024-09-04T1200,1454A,102.6742,25.0669,昆明市,金鼎山,,26,24,40,18,14,61,,23,23,13,23,2,2,0.4,0.6
2024-09-04T1200,1455A,102.6644,25.0401,昆明市,碧鸡广场,,20,20,25,7,11,58,,22,22,10,22,4,4,0.5,0.6
2024-09-04T1200,3179A,102.7494,25.0119,昆明市,官渡区博物馆,,23,23,30,7,11,65,,19,19,5,24,6,6,0.2,0.5
2024-09-04T1200,3375A,102.8017,24.8336,昆明市,青年创业园,,20,9,9,8,16,64,,22,22,4,16,3,5,0.5,0.6
2024-09-04T1200,3550A,102.7997,24.9786,昆明市,昆明学院,,21,18,32,6,16,67,,22,22,7,24,5,6,0.3,0.5
2024-09-04T1200,3551A,102.5967,24.6736,昆明市,晋宁区生态环境分局,,18,13,22,3,11,57,,26,26,6,13,4,3,0.5,0.6
2024-09-04T1200,3552A,102.6678,24.9856,昆明市,云天化总部,,20,15,23,8,14,64,,23,23,6,19,5,6,0.4,0.6
2024-09-04T1200,1456A,91.1319,29.6514,拉萨市,八廓街,,32,12,12,10,8,101,,89,85,8,12,7,7,0.2,0.2
2024-09-04T1200,1457A,91.1221,29.6747,拉萨市,市环保局,,32,10,11,7,7,101,,95,92,7,9,8,7,0.3,0.3
2024-09-04T1200,1458A,91.0874,29.6475,拉萨市,区监测站,,30,8,9,6,6,96,,90,84,6,11,8,8,0.2,0.2
2024-09-04T1200,1459A,91.1774,29.6541,拉萨市,西藏大学,,30,,12,10,8,94,,86,82,7,8,7,6,0.3,0.3
2024-09-04T1200,1460A,90.9798,29.6588,拉萨市,区辐射站,,30,12,11,8,6,93,,94,87,9,11,8,8,0.2,0.2
2024-09-04T1200,1461A,91.0834,29.6292,拉萨市,拉萨火车站,,29,10,8,6,5,92,,93,87,8,6,5,5,0.1,0.1
2024-09-04T1200,2520A,109.2203,23.7256,来宾市,来宾技工学校,,35,32,27,13,14,112,,65,65,9,12,10,9,0.8,0.7
2024-09-04T1200,3535A,109.1781,23.7297,来宾市,兴宾区政府,,35,28,25,13,13,109,,58,58,5,10,6,9,0.7,0.8
2024-09-04T1200,4002A,109.2416,23.7461,来宾市,中南小学,,40,29,24,12,12,126,,72,72,8,11,12,9,0.9,0.7
2024-09-04T1200,1476A,103.631,36.1031,兰州市,兰炼宾馆,,26,,39,13,26,83,,83,82,10,6,3,6,0.2,0.4
2024-09-04T1200,1477A,104.1373,35.9454,兰州市,榆中兰大校区,,,,,,,,,,,,,,,,
2024-09-04T1200,1478A,103.8412,36.0726,兰州市,生物制品所,,24,,39,15,26,76,,79,74,18,12,7,8,0.4,0.5
2024-09-04T1200,1479A,103.831,36.0464,兰州市,铁路设计院,,30,,44,21,27,79,,80,74,20,21,5,6,0.3,0.4
2024-09-04T1200,3186A,103.7158,36.1058,兰州市,教育港,,36,,54,25,33,81,,80,78,13,8,5,6,0.3,0.4
2024-09-04T1200,3241A,103.7439,36.0842,兰州市,百合公园,,25,21,45,9,23,79,,83,78,13,10,8,8,0.4,0.5
2024-09-04T1200,3242A,103.9611,35.998,兰州市,和平,,28,,43,7,22,88,,87,87,8,8,7,8,0.4,0.5
2024-09-04T1200,3245A,103.6633,36.533,兰州新区,新区管委会,,27,17,31,17,19,86,,90,90,5,5,5,6,0.3,0.5
2024-09-04T1200,3246A,103.6975,36.4789,兰州新区,舟曲中学,,28,6,22,3,10,88,,93,93,5,6,9,9,0.3,0.4
2024-09-04T1200,1067A,116.6708,39.5111,廊坊市,药材公司,颗粒物(PM10),57,63,54,29,21,96,,80,61,21,21,7,6,0.5,0.5
2024-09-04T1200,1068A,116.7214,39.5589,廊坊市,开发区,颗粒物(PM10),61,72,49,32,23,87,,92,70,24,19,6,4,0.5,0.5
2024-09-04T1200,1070A,116.7244,39.5269,廊坊市,北华航天学院,颗粒物(PM10),62,74,60,28,22,103,,86,71,20,17,6,5,0.5,0.5
2024-09-04T1200,2919A,116.7022,39.5453,廊坊市,河北工业大学,颗粒物(PM10),57,64,50,30,24,106,,97,78,20,16,8,6,0.5,0.5
2024-09-04T1200,2535A,103.7723,29.5462,乐山市,花湖湾,细颗粒物(PM2.5),53,,35,37,30,125,,46,46,15,16,6,7,0.8,0.7
2024-09-04T1200,2536A,103.7627,29.5844,乐山市,牛耳桥,,49,34,41,34,35,154,,57,57,15,22,4,3,0.7,0.9
2024-09-04T1200,2537A,103.7508,29.6006,乐山市,市第三水厂,臭氧1小时,58,41,39,24,29,166,,64,64,15,20,5,3,0.8,0.6
2024-09-04T1200,2538A,103.7571,29.5664,乐山市,市监测站,,47,44,37,30,29,149,,56,56,10,15,4,6,1.0,1
2024-09-04T1200,3361A,103.7311,29.5628,乐山市,理工大学,颗粒物(PM10),51,51,41,35,31,159,,58,58,11,17,6,8,0.8,0.8
2024-09-04T1200,2598A,100.2143,26.8576,丽江市,西南郊,,,,,,,,,,,,,,,,
2024-09-04T1200,2599A,100.2497,26.8802,丽江市,丽江古城,,16,12,17,11,14,42,,34,34,10,10,9,9,0.9,0.8
2024-09-04T1200,2600A,100.2203,26.8906,丽江市,市中心,,15,,12,7,11,45,,35,33,10,11,9,10,0.6,0.6
2024-09-04T1200,1267A,119.914,28.4514,丽水市,监测站大楼,,35,20,27,14,14,110,,61,61,5,12,2,1,0.5,0.6
2024-09-04T1200,1268A,119.93,28.4586,丽水市,莲都小学,,34,22,29,9,15,108,,61,61,3,12,4,4,0.4,0.5
2024-09-04T1200,1269A,119.879,28.4231,丽水市,余庄前,,33,26,28,14,15,105,,48,48,5,12,4,4,0.5,0.6
2024-09-04T1200,1173A,119.176,34.5885,连云港市,市环境监测站,,46,22,29,3,10,145,,132,132,10,14,8,8,0.4,0.5
2024-09-04T1200,3000A,119.3581,34.6972,连云港市,德源药业,,37,14,33,3,10,117,,93,93,4,28,6,8,0.4,0.4
2024-09-04T1200,3007A,119.178,34.844,连云港市,新城一中,臭氧1小时,53,32,32,11,15,162,,98,98,9,30,7,6,0.6,0.7
2024-09-04T1200,3008A,119.3608,34.7519,连云港市,胡沟管理处,臭氧1小时,69,29,33,9,10,175,,118,118,10,31,10,9,0.9,0.6
2024-09-04T1200,3009A,119.1478,34.5911,连云港市,矿山设计院,,43,19,26,9,11,137,,122,122,8,14,8,10,0.6,0.6
2024-09-04T1200,3434A,119.2413,34.6539,连云港市,工贸学校,,44,21,25,10,11,140,,122,122,9,12,9,9,0.9,0.8
2024-09-04T1200,3664A,119.4172,34.7341,连云港市,连云街道,臭氧1小时,73,42,27,18,11,178,,120,120,25,14,11,7,0.7,0.6
2024-09-04T1200,2571A,102.3431,27.8099,凉山彝族自治州,青龙寺,,,,18,,12,55,,21,21,6,10,9,6,0.8,0.7
2024-09-04T1200,2572A,102.2721,27.8415,凉山彝族自治州,邛海宾馆,,33,27,20,23,16,62,,25,25,8,14,17,16,0.8,0.7
2024-09-04T1200,2573A,102.2625,27.898,凉山彝族自治州,西昌市政府,,23,22,18,16,14,60,,27,27,10,12,9,11,0.9,1
2024-09-04T1200,2574A,102.2685,27.8851,凉山彝族自治州,凉山州政府,,24,24,19,14,14,68,,36,36,8,12,12,16,0.7,0.9
2024-09-04T1200,2575A,102.237,27.8914,凉山彝族自治州,长安,,19,,15,12,12,60,,25,25,12,13,8,10,1.1,1.1
2024-09-04T1200,2212A,123.2,41.1953,辽阳市,宏伟区,,28,21,31,19,18,82,,80,80,6,12,7,9,0.6,0.7
2024-09-04T1200,2213A,123.1683,41.2495,辽阳市,新华园,,26,24,35,18,19,73,,70,70,8,18,6,10,0.7,0.9
2024-09-04T1200,2214A,123.2354,41.2639,辽阳市,滨河路,,32,32,31,18,13,70,,73,73,15,15,11,10,0.5,0.6
2024-09-04T1200,2215A,123.149,41.2991,辽阳市,铁西工业园,,32,32,43,11,14,68,,66,66,12,17,8,12,0.7,1
2024-09-04T1200,2227A,125.1358,42.8845,辽源市,环保局,,21,14,25,8,11,66,,49,49,14,16,5,6,0.6,0.6
2024-09-04T1200,3239A,125.0764,42.9078,辽源市,银鹰制药,,21,17,23,12,11,66,,42,42,8,22,2,2,0.8,0.7
2024-09-04T1200,1625A,115.9848,36.4372,聊城市,区政府,臭氧1小时,65,56,43,19,15,172,,119,119,13,20,14,15,0.6,0.5
2024-09-04T1200,2878A,116.0072,36.4343,聊城市,聊大东校,臭氧1小时,75,66,45,27,24,180,,115,115,13,22,11,15,0.5,0.5
2024-09-04T1200,3200A,115.9819,36.4978,聊城市,监控中心,臭氧1小时,67,56,43,19,18,173,,125,125,12,26,10,11,0.5,0.3
2024-09-04T1200,3513A,116.0445,36.4361,聊城市,九州社区,臭氧1小时,67,60,52,28,21,173,,99,99,9,21,7,11,0.4,0.5
2024-09-04T1200,4018A,116.0567,36.4608,聊城市,星美广场,臭氧1小时,70,44,50,20,22,176,,108,108,7,22,10,12,0.5,0.4
2024-09-04T1200,2632A,94.3681,29.6376,林芝市,林芝监测站,,20,7,6,3,4,64,,65,57,2,2,9,9,0.4,0.4
2024-09-04T1200,2633A,94.3616,29.6616,林芝市,林芝人民医院,,21,6,10,3,4,65,,61,57,4,4,7,7,0.2,0.2
2024-09-04T1200,2603A,100.0781,23.8982,临沧市,市环保局,,,20,18,10,16,42,,14,14,,11,6,6,0.2,0.4
2024-09-04T1200,2604A,100.0894,23.8822,临沧市,市气象局,,22,22,17,14,12,48,,12,12,11,11,7,6,0.4,0.4
2024-09-04T1200,1733A,111.5531,36.0783,临汾市,临钢医院,颗粒物(PM10),52,53,68,23,27,138,,72,72,8,22,4,3,0.7,0.7
2024-09-04T1200,1734A,111.5028,36.0714,临汾市,技工学校,,49,49,56,20,25,151,,84,84,11,15,8,5,1.0,0.8
2024-09-04T1200,1736A,111.5018,36.0855,临汾市,市委,,50,48,50,22,22,160,,93,93,8,12,7,4,1.0,0.7
2024-09-04T1200,3018A,111.505,36.1014,临汾市,唐尧大酒店,颗粒物(PM10),59,68,76,18,24,144,,83,83,8,14,5,3,1.3,1
2024-09-04T1200,3668A,111.5036,36.0414,临汾市,城南,颗粒物(PM10),58,66,54,25,24,157,,65,65,8,14,6,4,0.8,0.6
2024-09-04T1200,2667A,103.2069,35.5993,临夏回族自治州,环保局,,26,16,29,3,13,82,,77,77,1,4,6,7,0.2,0.4
2024-09-04T1200,2668A,103.2417,35.6057,临夏回族自治州,建设大厦,,29,8,22,7,16,91,,80,80,2,6,6,6,0.3,0.4
2024-09-04T1200,1618A,118.3429,35.0532,临沂市,沂河小区,,,,46,,19,,,133,,,16,,11,,0.5
2024-09-04T1200,1619A,118.295,35.0583,临沂市,鲁南制药厂,,,,39,,16,,,147,,,21,,10,,0.4
2024-09-04T1200,1620A,118.2794,34.9976,临沂市,新光毛纺厂,,,,35,,17,,,136,,,24,,16,,0.6
2024-09-04T1200,1621A,118.3956,35.0888,临沂市,河东保险公司,,,,42,,24,,,131,,,33,,9,,0.9
2024-09-04T1200,3370A,118.3564,35.0215,临沂市,十里堡居委,,,,32,,21,,,139,,,17,,12,,0.7
2024-09-04T1200,3496A,118.3604,35.1084,临沂市,南坊新区,,,,47,,18,,,131,,,23,,11,,0.7
2024-09-04T1200,3860A,118.3920,35.0300,临沂市,皇山花园小区,,,63,47,20,31,169,,94,94,9,24,12,10,,0.6
2024-09-04T1200,1870A,109.4856,24.3895,柳州市,柳东小学,,35,33,23,14,11,109,,67,67,9,13,8,9,0.6,0.7
2024-09-04T1200,1871A,109.4157,24.3277,柳州市,环保监测站,,48,48,28,23,14,117,,69,68,19,11,23,11,1.7,0.9
2024-09-04T1200,1872A,109.389,24.341,柳州市,河西水厂,,43,43,29,19,14,104,,62,62,13,11,21,11,1.7,1.1
2024-09-04T1200,1873A,109.4311,24.2921,柳州市,市四中,,42,29,23,11,11,132,,78,78,12,10,14,9,0.9,0.7
2024-09-04T1200,1874A,109.4006,24.3631,柳州市,市九中,,37,37,31,25,14,114,,66,65,11,12,14,10,0.5,0.6
2024-09-04T1200,1875A,109.4958,24.3134,柳州市,古亭山,,35,24,22,14,12,111,,72,72,6,12,7,8,1.1,1.1
2024-09-04T1200,3402A,109.5422,24.3996,柳州市,市二中,,36,30,24,16,13,113,,64,63,9,12,7,9,0.6,0.7
2024-09-04T1200,2307A,116.5079,31.737,六安市,监测大楼,,39,34,29,13,19,123,,86,86,5,6,5,5,0.7,0.6
2024-09-04T1200,2308A,116.4738,31.7643,六安市,皖西学院,,49,49,40,15,17,131,,96,96,5,6,4,5,0.4,0.3
2024-09-04T1200,2309A,116.4996,31.7905,六安市,朝阳厂,,40,38,27,14,17,128,,86,86,4,6,2,2,0.6,0.4
2024-09-04T1200,2310A,116.5567,31.7886,六安市,开发区,颗粒物(PM10),53,55,36,27,20,124,,66,66,6,8,3,3,0.6,0.4
2024-09-04T1200,2576A,104.8,26.5892,六盘水市,窑上,,,,,,,,,,,,,,,,
2024-09-04T1200,2577A,104.83,26.5917,六盘水市,黄土坡,,24,11,13,9,10,74,,48,46,5,8,8,7,0.3,0.4
2024-09-04T1200,2578A,104.89,26.5939,六盘水市,水钢,,,,18,,7,74,,51,49,5,7,10,8,,0.4
2024-09-04T1200,2579A,104.8475,26.5894,六盘水市,民中,,24,13,15,3,7,74,,51,46,5,8,8,8,0.3,0.4
2024-09-04T1200,2580A,104.9544,26.5506,六盘水市,双水,,23,14,15,14,7,73,,54,50,4,6,8,6,0.3,0.3
2024-09-04T1200,2335A,117.0189,25.1181,龙岩市,龙岩师专,,,,,,,,,,,,,,,,
2024-09-04T1200,2336A,117.0217,25.1033,龙岩市,龙岩市监测站,,25,15,33,3,20,77,,67,67,5,15,6,7,0.4,0.6
2024-09-04T1200,2337A,117.0258,25.0661,龙岩市,闽西职业技术学院,,25,19,41,9,21,80,,56,56,2,20,5,9,0.4,0.6
2024-09-04T1200,2338A,117.0196,25.0306,龙岩市,龙岩学院,,25,19,31,3,17,80,,56,56,5,9,3,3,0.5,0.6
2024-09-04T1200,2665A,105.0822,33.3261,陇南市,汉王镇固水子,,,,,,,,,,,,,,,,
2024-09-04T1200,2885A,104.9339,33.3826,陇南市,滨江中学,,38,26,42,8,15,120,,93,88,10,6,6,5,0.5,0.4
2024-09-04T1200,3247A,104.955,33.371,陇南市,市总工会,,37,34,32,12,10,118,,96,91,7,4,8,7,0.6,0.6
2024-09-04T1200,2487A,111.9589,27.8901,娄底市,电视发射台,颗粒物(PM10),53,55,71,32,35,108,,68,68,5,5,7,6,0.7,0.7
2024-09-04T1200,2488A,111.9975,27.725,娄底市,市监测站,颗粒物(PM10),54,57,63,32,43,119,,74,74,6,11,4,7,0.8,1
2024-09-04T1200,2489A,112.0194,27.7314,娄底市,市委党校,,,,57,,40,92,,61,61,7,7,,7,0.6,0.6
2024-09-04T1200,2490A,111.9561,27.7569,娄底市,涟钢,颗粒物(PM10),55,60,59,36,41,88,,48,48,12,12,10,11,0.8,1.1
2024-09-04T1200,2491A,111.9892,27.7044,娄底市,市政府,,39,,50,27,40,117,,71,71,9,10,7,6,0.7,0.8
2024-09-04T1200,1893A,105.4324,28.9634,泸州市,九狮山,,43,20,36,3,21,137,,50,50,2,6,8,6,0.2,0.4
2024-09-04T1200,1894A,105.4427,28.9063,泸州市,小市上码头,,44,28,33,17,21,139,,64,64,13,20,9,9,0.4,0.5
2024-09-04T1200,1895A,105.4241,28.8573,泸州市,兰田宪桥,,41,30,30,20,22,129,,54,54,11,21,10,10,0.4,0.4
2024-09-04T1200,1896A,105.4379,28.8833,泸州市,市环监站,,37,17,32,14,23,117,,70,70,7,16,10,11,0.3,0.5
2024-09-04T1200,3490A,105.3617,28.7703,泸州市,纳溪区环保局,,44,41,34,27,26,138,,56,56,12,23,12,10,0.4,0.4
2024-09-04T1200,2183A,111.1406,37.5211,吕梁市,环保局,,35,35,61,23,34,89,,39,39,8,18,4,4,0.7,0.8
2024-09-04T1200,2185A,111.1297,37.5136,吕梁市,自来水公司,,36,35,54,25,32,93,,38,38,8,20,2,1,0.6,0.8
2024-09-04T1200,2867A,111.1283,37.51,吕梁市,马茂庄小学,,,,,,,,,,,,,,,,
2024-09-04T1200,1812A,112.3931,34.6516,洛阳市,市委党校,臭氧1小时,67,65,55,37,30,173,,92,92,10,16,20,10,0.8,0.7
2024-09-04T1200,1814A,112.4657,34.6871,洛阳市,豫西宾馆,臭氧1小时,64,70,58,31,26,171,,95,95,5,15,14,11,0.7,0.6
2024-09-04T1200,1815A,112.494,34.6886,洛阳市,河南林校,臭氧1小时,58,63,53,22,26,166,,94,94,12,19,12,11,0.7,0.7
2024-09-04T1200,1816A,112.3844,34.623,洛阳市,开发区管委会,臭氧1小时,64,41,45,23,27,171,,86,86,12,15,20,8,0.6,0.5
2024-09-04T1200,1817A,112.4267,34.6258,洛阳市,市委新办公区,,,,46,42,36,169,,96,96,,11,18,7,0.8,0.6
2024-09-04T1200,3340A,112.6005,34.6326,洛阳市,伊滨,臭氧1小时,64,63,53,37,31,171,,83,83,12,17,10,10,0.5,0.4
2024-09-04T1200,3341A,112.4951,34.6332,洛阳市,中移产业园,,,65,53,40,31,168,,92,92,9,13,13,9,,0.6
2024-09-04T1200,3593A,112.5736,34.8993,洛阳市,吉利监测站,臭氧1小时,55,40,51,22,25,164,,79,79,6,20,10,6,0.6,0.7
2024-09-04T1200,3635A,112.3677,34.662,洛阳市,河科大西苑校区,臭氧1小时,77,58,50,28,23,181,,93,93,10,14,19,10,0.8,0.7
2024-09-04T1200,3636A,112.4388,34.6781,洛阳市,英才小学,,,55,55,37,30,168,,91,91,,11,14,8,0.7,0.7
2024-09-04T1200,2399A,114.051,33.5699,漯河市,三五一五工厂,,,,41,,18,,,128,,,11,,8,,0.7
2024-09-04T1200,2400A,114.0055,33.5698,漯河市,漯河大学,,48,41,41,17,17,152,,107,107,7,12,4,6,0.8,0.7
2024-09-04T1200,2401A,114.0138,33.5828,漯河市,市水利局,,46,41,38,17,15,147,,108,108,3,8,3,5,0.6,0.5
2024-09-04T1200,2402A,114.0261,33.5698,漯河市,市广电局,,48,29,34,10,11,152,,108,108,5,11,6,8,0.7,0.6
2024-09-04T1200,3478A,113.9749,33.5664,漯河市,市图书馆,,50,29,43,26,19,160,,111,111,6,8,6,9,0.6,0.6
2024-09-04T1200,3479A,114.0967,33.5906,漯河市,召陵区卫健委,,45,29,45,20,23,144,,98,98,4,12,5,7,0.6,0.5
2024-09-04T1200,1798A,118.5092,31.6837,马鞍山市,湖东路四小,,48,48,37,17,21,138,,65,65,10,16,6,6,0.8,0.8
2024-09-04T1200,1799A,118.5024,31.6449,马鞍山市,开发区,,42,39,39,26,19,134,,56,56,9,17,6,6,0.9,0.8
2024-09-04T1200,1800A,118.5228,31.7231,马鞍山市,慈湖,,45,31,30,23,17,144,,68,68,11,13,7,7,0.9,0.8
2024-09-04T1200,1802A,118.6245,31.7241,马鞍山市,濮塘,,41,28,27,18,18,130,,62,62,14,18,6,6,0.9,0.8
2024-09-04T1200,3633A,118.4918,31.6809,马鞍山市,雨山,,,51,35,24,15,137,,66,66,8,12,8,7,,1
2024-09-04T1200,1686A,111.0286,21.4688,茂名市,电白南海,细颗粒物(PM2.5),67,68,40,48,29,128,,74,74,11,11,16,15,0.9,0.8
2024-09-04T1200,1687A,110.9294,21.6533,茂名市,茂石化七小,,48,48,50,29,32,134,,87,87,7,10,13,17,0.8,0.7
2024-09-04T1200,1688A,110.9107,21.6687,茂名市,健康路,颗粒物(PM10),52,53,44,27,25,145,,88,88,8,11,22,24,1.0,0.7
2024-09-04T1200,1689A,110.8592,21.6828,茂名市,高岭,,49,46,42,34,30,132,,72,72,7,11,25,28,0.7,0.7
2024-09-04T1200,3450A,111.01,21.5165,茂名市,电白水东,细颗粒物(PM2.5),62,66,41,44,26,151,,82,82,13,10,18,17,0.7,0.6
2024-09-04T1200,2539A,104.0308,30.0478,眉山市,黑龙滩水库,,43,6,6,3,4,134,,,,3,5,128,148,0.8,0.9
2024-09-04T1200,2540A,103.8416,30.0874,眉山市,气象局,,45,27,42,22,30,144,,54,54,18,28,5,6,0.6,0.6
2024-09-04T1200,3137A,103.8578,30.0744,眉山市,市委党校,,,36,39,19,25,156,,70,70,15,21,9,9,,0.5
2024-09-04T1200,3148A,103.8291,30.0564,眉山市,区人社局,,49,33,30,22,21,156,,74,74,25,26,10,9,0.7,0.7
2024-09-04T1200,1690A,116.1231,24.3284,梅州市,梅江月梅,,25,22,26,11,14,77,,46,46,1,9,7,6,0.5,0.5
2024-09-04T1200,1691A,116.0797,24.2719,梅州市,梅县新城,,35,35,26,14,14,95,,49,49,5,10,6,4,0.6,0.6
2024-09-04T1200,1692A,116.1248,24.2654,梅州市,环境监控中心,,28,26,33,10,22,87,,53,53,7,17,7,6,0.5,0.5
2024-09-04T1200,3315A,116.1233,24.2991,梅州市,梅龙,,31,27,25,9,17,98,,53,53,5,11,11,10,0.6,0.6
2024-09-04T1200,1878A,104.7778,31.4741,绵阳市,富乐山,,43,40,44,28,34,136,,68,68,5,14,3,3,0.5,0.6
2024-09-04T1200,1879A,104.7563,31.4535,绵阳市,市人大,,44,43,48,29,30,138,,68,68,10,19,6,7,0.4,0.5
2024-09-04T1200,1880A,104.6697,31.4668,绵阳市,高新区自来水公司,,49,36,49,22,29,154,,73,73,10,18,1,2,0.6,0.7
2024-09-04T1200,1881A,104.7287,31.5075,绵阳市,三水厂,,,,51,,36,146,,53,53,6,26,7,6,,0.7
2024-09-04T1200,3491A,104.69,31.5322,绵阳市,西科大附属小学,,46,31,45,26,30,146,,67,67,6,20,4,4,0.5,0.7
2024-09-04T1200,3492A,104.5648,31.5343,绵阳市,安州区旅游局,,47,33,51,29,41,150,,81,81,7,14,8,8,0.6,0.7
2024-09-04T1200,1784A,129.61,44.561,牡丹江市,环保大楼,,23,23,23,10,17,38,,16,16,14,16,8,7,0.4,0.4
2024-09-04T1200,1785A,129.6115,44.5782,牡丹江市,文化广场,,,,35,23,19,34,,14,14,,22,9,8,0.3,0.4
2024-09-04T1200,1786A,129.5904,44.5963,牡丹江市,第一医院,,22,22,27,13,15,52,,27,27,11,15,6,6,0.2,0.2
2024-09-04T1200,1787A,129.6364,44.6075,牡丹江市,机车工厂,,18,18,32,3,18,40,,17,17,17,13,6,6,0.3,0.3
2024-09-04T1200,1788A,129.6386,44.5462,牡丹江市,第一中学,,30,30,25,3,10,42,,18,18,15,14,7,6,0.4,0.3
2024-09-04T1200,2531A,105.0703,29.61,内江市,市监测站,,42,39,31,20,31,133,,62,62,12,27,6,6,0.3,0.4
2024-09-04T1200,2532A,105.0717,29.5947,内江市,东兴区政府,,32,22,25,11,25,100,,68,68,12,19,5,4,0.6,0.6
2024-09-04T1200,2533A,105.0653,29.5817,内江市,内江二中,,40,16,31,16,31,127,,74,74,11,19,8,7,0.5,0.6
2024-09-04T1200,2534A,105.0406,29.5822,内江市,内江日报社,,42,30,31,18,31,134,,78,78,18,25,7,7,0.5,0.6
2024-09-04T1200,2628A,92.0657,31.4846,那曲市,那曲监测站,,27,18,23,8,10,85,,84,82,6,6,8,7,0.7,0.7
2024-09-04T1200,3128A,92.0506,31.4797,那曲市,那曲会议中心,,31,6,16,3,6,97,,92,91,7,8,5,4,0.4,0.4
2024-09-04T1200,1290A,115.8931,28.6843,南昌市,省外办,细颗粒物(PM2.5),52,51,46,36,33,124,,85,85,10,13,10,10,0.6,0.8
2024-09-04T1200,1291A,115.8886,28.7003,南昌市,省林业公司,,46,46,44,27,27,128,,91,91,7,11,7,7,0.9,1
2024-09-04T1200,1292A,115.8126,28.7442,南昌市,林科所,,46,46,41,29,24,141,,98,98,16,15,9,8,0.9,0.9
2024-09-04T1200,1294A,115.8518,28.687,南昌市,建工学校,,,,44,,17,128,,94,94,,4,9,9,0.7,0.8
2024-09-04T1200,1295A,115.8921,28.6424,南昌市,象湖,,43,29,39,20,26,135,,95,95,6,9,4,4,1.0,1.2
2024-09-04T1200,1296A,115.7423,28.7996,南昌市,武术学校,细颗粒物(PM2.5),57,,39,40,28,126,,65,65,6,9,3,2,0.8,0.7
2024-09-04T1200,1298A,115.9314,28.6842,南昌市,省站,,46,,39,32,31,124,,98,98,15,6,7,7,0.9,1
2024-09-04T1200,3046A,115.9084,28.6062,南昌市,机电学校,颗粒物(PM10),59,68,53,39,27,131,,90,90,10,10,10,8,0.9,1.6
2024-09-04T1200,3690A,115.9721,28.7031,南昌市,外国语学校,,40,40,46,24,26,126,,92,92,6,11,6,7,0.7,0.8
2024-09-04T1200,1905A,106.056,30.8064,南充市,西山风景区,,45,,22,25,23,143,,68,68,7,8,4,4,1.0,0.9
2024-09-04T1200,1906A,106.0789,30.8023,南充市,南充市委,,46,42,35,26,22,147,,65,65,10,19,8,8,0.1,0.1
2024-09-04T1200,1907A,106.1031,30.8217,南充市,南充炼油厂,,49,35,50,22,31,156,,66,66,9,20,9,8,0.5,0.5
2024-09-04T1200,1908A,106.1064,30.7856,南充市,高坪区监测站,,45,29,39,21,27,142,,61,61,15,28,8,8,0.4,0.5
2024-09-04T1200,1909A,106.0642,30.7636,南充市,嘉陵区环保局,,44,32,40,24,23,140,,60,60,14,27,8,6,0.4,0.5
2024-09-04T1200,1910A,106.1087,30.8388,南充市,市环境监测站,,47,38,45,24,30,150,,64,64,16,22,9,8,0.3,0.4
2024-09-04T1200,1151A,118.8086,32.1065,南京市,迈皋桥,,41,26,22,22,11,130,,67,67,10,21,4,4,0.4,0.3
2024-09-04T1200,1152A,118.7538,32.0551,南京市,草场门,,38,27,27,19,11,121,,66,66,13,20,6,6,0.7,0.6
2024-09-04T1200,1153A,118.7794,32.0745,南京市,山西路,,41,31,28,17,12,131,,67,67,2,11,4,4,0.5,0.4
2024-09-04T1200,1154A,118.7752,32.0023,南京市,中华门,,37,31,25,12,9,116,,59,59,13,20,5,5,0.6,0.5
2024-09-04T1200,1155A,118.8109,32.0309,南京市,瑞金路,,,31,26,17,11,116,,59,59,6,15,5,5,,0.5
2024-09-04T1200,1156A,118.7997,32.0754,南京市,玄武湖,,41,31,29,13,8,131,,65,65,8,20,6,6,0.7,0.6
2024-09-04T1200,1157A,118.6414,32.0931,南京市,浦口,,37,31,30,17,12,116,,54,54,10,15,4,5,0.6,0.4
2024-09-04T1200,1158A,118.7356,31.9996,南京市,奥体中心,,,32,29,19,15,130,,64,64,13,18,,6,0.5,0.4
2024-09-04T1200,1159A,118.9125,32.1028,南京市,仙林大学城,,42,27,29,27,17,133,,73,73,8,16,8,8,0.7,0.6
2024-09-04T1200,3422A,118.8436,31.9198,南京市,江宁彩虹桥,,40,39,33,17,12,126,,61,61,8,14,4,4,0.7,0.6
2024-09-04T1200,3423A,119.0138,31.6494,南京市,溧水永阳,,43,31,29,15,16,135,,62,62,11,17,4,4,0.3,0.3
2024-09-04T1200,3424A,118.879,31.3302,南京市,高淳老职中,,,34,28,22,19,131,,67,67,,12,6,8,0.4,0.4
2024-09-04T1200,3427A,118.8554,32.3578,南京市,六合雄州,,,31,29,13,11,115,,60,60,,14,,4,0.9,0.4
2024-09-04T1200,1401A,108.3103,22.7881,南宁市,二十一中,,41,38,29,22,17,129,,53,53,17,18,14,9,0.8,0.7
2024-09-04T1200,1402A,108.3141,22.8528,南宁市,北湖,颗粒物(PM10),56,61,34,26,20,142,,56,56,17,17,18,17,0.8,0.8
2024-09-04T1200,1403A,108.3206,22.8225,南宁市,市监测站,,,,33,,17,124,,49,49,21,21,18,12,0.9,0.7
2024-09-04T1200,1404A,108.3829,22.8037,南宁市,大自然花园,,42,38,27,20,15,134,,56,56,18,17,8,7,0.7,0.6
2024-09-04T1200,1405A,108.4394,22.7904,南宁市,仙葫,,47,47,26,21,13,119,,50,50,16,20,10,9,0.8,0.7
2024-09-04T1200,1406A,108.2397,22.8467,南宁市,区农职院,,42,39,44,22,27,132,,53,53,8,16,10,44,0.8,0.6
2024-09-04T1200,1407A,108.3275,22.735,南宁市,英华嘉园,颗粒物(PM10),51,52,28,25,15,119,,48,48,21,18,12,9,0.7,0.6
2024-09-04T1200,1408A,108.2257,22.7757,南宁市,沙井镇街道办,颗粒物(PM10),54,58,33,26,18,129,,49,49,11,16,17,5,0.6,0.6
2024-09-04T1200,3401A,108.4834,22.7618,南宁市,红星社区,,,50,27,18,15,142,,49,49,,20,7,7,0.7,0.7
2024-09-04T1200,2331A,118.0966,26.6761,南平市,茫荡山,,,,,,,,,,,,,,,,
2024-09-04T1200,2332A,118.1681,26.6369,南平市,南平市监测站,,32,18,27,6,12,100,,53,53,6,10,6,5,0.5,0.7
2024-09-04T1200,2333A,118.1825,26.6489,南平市,南平铝业有限公司,,30,17,27,7,14,96,,53,53,4,9,7,6,0.6,0.7
2024-09-04T1200,2334A,118.1756,26.6272,南平市,南平七中,,35,35,32,11,13,98,,48,48,4,8,6,4,0.5,0.6
2024-09-04T1200,1168A,120.9098,31.9663,南通市,狼山街道,,33,17,14,11,7,105,,76,76,2,8,7,6,0.5,0.4
2024-09-04T1200,1169A,120.86,32.0005,南通市,虹桥,,34,21,19,10,6,107,,72,72,5,10,6,6,0.4,0.3
2024-09-04T1200,1170A,120.87,32.02,南通市,城中,,34,25,19,6,4,107,,72,72,7,14,5,6,0.9,0.8
2024-09-04T1200,1171A,120.94,31.93,南通市,星湖花园,,,16,10,12,4,109,,80,80,,12,6,5,1.0,0.8
2024-09-04T1200,1172A,120.81,32.0417,南通市,紫琅学院,,34,21,12,6,3,106,,69,69,10,12,7,7,0.7,0.6
2024-09-04T1200,3291A,121.067,32.062,南通市,通州监测站,,34,22,16,12,3,106,,86,86,5,6,4,3,0.7,0.6
2024-09-04T1200,3432A,120.9348,31.9883,南通市,环境教育馆,,34,27,19,3,4,108,,75,75,2,9,4,4,0.5,0.5
2024-09-04T1200,2404A,112.5224,33.0122,南阳市,瓦房庄,,45,39,45,17,20,142,,115,115,12,11,9,7,0.7,0.7
2024-09-04T1200,2405A,112.5003,32.9735,南阳市,汉画馆,,,46,46,21,24,139,,111,111,17,13,9,8,,0.7
2024-09-04T1200,2406A,112.5573,33.027,南阳市,气象站,,45,38,45,14,17,142,,115,115,12,12,7,7,0.7,0.6
2024-09-04T1200,2407A,112.5481,32.9689,南阳市,理工学院,,42,40,42,14,15,133,,107,107,16,13,7,6,0.6,0.5
2024-09-04T1200,4008A,112.5234,32.9922,南阳市,卧龙区政府,,45,33,41,18,21,144,,115,114,15,14,12,6,0.6,0.6
2024-09-04T1200,1234A,121.8358,29.911,宁波市,区环保大楼,,,32,28,13,17,102,,49,49,27,24,7,9,,0.8
2024-09-04T1200,1235A,121.56,29.82,宁波市,万里学院,,36,24,25,15,15,113,,71,71,8,12,9,10,0.5,0.6
2024-09-04T1200,1236A,121.713,29.9572,宁波市,龙赛医院,,35,24,23,14,13,112,,72,72,31,15,14,8,1.0,0.7
2024-09-04T1200,1239A,121.633,29.7733,宁波市,钱湖水厂,,33,21,20,15,14,104,,64,64,6,10,8,7,0.3,0.4
2024-09-04T1200,1240A,121.5856,29.8635,宁波市,太古小学,,39,32,26,16,12,123,,72,72,11,14,6,6,0.8,0.8
2024-09-04T1200,1241A,121.524,29.8674,宁波市,市环境监测中心,,38,21,24,11,11,121,,81,81,10,10,4,5,0.6,0.7
2024-09-04T1200,2871A,121.6147,29.9017,宁波市,万里国际学校,,42,21,23,17,15,133,,85,85,10,12,7,7,0.4,0.4
2024-09-04T1200,3710A,121.5594,29.8975,宁波市,白沙活动中心,,40,28,28,12,12,127,,85,85,10,11,7,8,0.4,0.4
2024-09-04T1200,2339A,119.5001,26.6946,宁德市,金涵水库,,,,,,,,,,,,,,,,
2024-09-04T1200,2341A,119.5388,26.6612,宁德市,宁德市监测站,,35,30,19,14,13,109,,66,66,9,8,11,6,0.6,0.5
2024-09-04T1200,3209A,119.5231,26.6562,宁德市,宁德一中,,38,38,26,16,10,112,,73,73,9,5,12,6,0.6,0.5
2024-09-04T1200,2618A,98.8601,25.8567,怒江傈僳族自治州,州监测站,,,23,23,14,16,41,,17,17,10,7,6,6,,0.4
2024-09-04T1200,2619A,98.8546,25.8417,怒江傈僳族自治州,泸水一中,,21,21,21,13,10,36,,12,12,10,12,5,5,0.4,0.5
2024-09-04T1200,1888A,101.6891,26.571,攀枝花市,弄弄坪,,,53,48,25,19,56,,20,20,,21,39,19,0.5,0.5
2024-09-04T1200,1889A,101.5769,26.5928,攀枝花市,河门口,,48,48,37,31,20,61,,20,20,23,23,44,26,2.2,1.7
2024-09-04T1200,1890A,101.7169,26.585,攀枝花市,炳草岗,,44,44,48,20,23,55,,20,20,15,23,50,32,0.6,0.7
2024-09-04T1200,1891A,101.7369,26.5008,攀枝花市,仁和,细颗粒物(PM2.5),64,68,31,46,17,84,,29,29,16,13,40,12,0.8,0.6
2024-09-04T1200,2835A,101.7227,26.567,攀枝花市,四十中小,,36,36,38,22,20,64,,27,27,8,17,40,57,0.6,0.6
2024-09-04T1200,1604A,122.0303,41.1489,盘锦市,开发区,,40,40,27,13,12,93,,76,76,10,15,6,7,0.5,0.5
2024-09-04T1200,1605A,122.0485,41.0883,盘锦市,兴隆台,,30,25,24,17,12,95,,78,78,14,22,6,8,0.5,0.5
2024-09-04T1200,1606A,121.8297,41.1028,盘锦市,新生街道,,35,29,17,10,8,109,,88,88,4,10,6,6,0.5,0.5
2024-09-04T1200,1832A,113.3257,33.742,平顶山市,新华旅馆,颗粒物(PM10),62,74,68,31,27,156,,94,94,10,20,7,7,0.8,0.7
2024-09-04T1200,1833A,113.2919,33.737,平顶山市,规划设计院,,50,48,40,23,23,157,,97,97,15,21,10,9,0.6,0.5
2024-09-04T1200,1834A,113.182,33.774,平顶山市,平顶山工学院,,50,47,46,31,21,158,,97,97,10,18,10,9,0.9,0.9
2024-09-04T1200,3204A,113.3025,33.73,平顶山市,规划局,颗粒物(PM10),56,61,52,23,25,144,,91,91,16,19,6,5,0.7,0.7
2024-09-04T1200,3594A,112.8867,33.9116,平顶山市,石龙区,颗粒物(PM10),51,52,72,20,26,152,,80,80,11,22,11,12,0.6,0.6
2024-09-04T1200,2656A,106.6692,35.5461,平凉市,聚贤嘉苑,,29,23,66,14,28,90,,61,61,12,22,7,8,0.4,0.7
2024-09-04T1200,2657A,106.7021,35.5307,平凉市,博物馆,,42,42,68,27,26,95,,63,63,10,28,7,7,0.3,0.6
2024-09-04T1200,2347A,114.0997,27.5002,萍乡市,武功山,,32,10,14,3,4,101,,50,50,4,4,11,9,0.4,0.4
2024-09-04T1200,2348A,113.8385,27.6434,萍乡市,中医院,颗粒物(PM10),55,60,44,33,26,120,,55,55,4,11,16,13,0.9,1.1
2024-09-04T1200,2349A,113.8493,27.6253,萍乡市,市政府车库,细颗粒物(PM2.5),69,75,48,50,27,120,,54,54,5,8,11,12,1.4,1
2024-09-04T1200,2350A,113.8676,27.6435,萍乡市,市环保局,,50,50,44,31,26,112,,58,58,1,8,9,13,0.7,0.8
2024-09-04T1200,2351A,113.866,27.6198,萍乡市,安源区政府,颗粒物(PM10),54,57,41,15,17,119,,57,57,8,13,14,16,0.8,0.8
2024-09-04T1200,2319A,119.0141,25.4325,莆田市,荔城区仓后路,,20,17,19,7,7,64,,63,59,6,6,7,7,0.6,0.6
2024-09-04T1200,2320A,119.0015,25.4553,莆田市,莆田市监测站,,22,22,18,6,6,70,,69,64,7,8,6,6,0.6,0.5
2024-09-04T1200,2321A,119.1119,25.4561,莆田市,涵江区六中,,24,20,20,6,5,75,,64,64,5,6,7,7,0.5,0.4
2024-09-04T1200,2322A,119.1013,25.3215,莆田市,秀屿区政府,,41,41,32,8,7,85,,67,67,3,6,6,6,0.6,0.6
2024-09-04T1200,2323A,118.981,25.4792,莆田市,东圳水库,,,,,,,,,,,,,,,,
2024-09-04T1200,2392A,115.0312,35.7636,濮阳市,环保局,,47,41,41,15,22,148,,106,106,8,17,7,10,0.5,0.5
2024-09-04T1200,2394A,115.0574,35.7609,濮阳市,油田运输公司,,48,35,41,19,24,152,,108,108,8,15,4,6,0.5,0.5
2024-09-04T1200,2395A,115.0866,35.7754,濮阳市,油田物探公司,臭氧1小时,53,39,47,16,25,162,,109,109,6,14,8,11,0.5,0.5
2024-09-04T1200,3021A,115,35.7668,濮阳市,濮水河管理处,细颗粒物(PM2.5),64,49,39,46,25,145,,104,104,8,16,6,6,0.4,0.4
2024-09-04T1200,2601A,100.98,22.7633,普洱市,市环保局,,,34,27,11,12,33,,16,16,10,10,,3,,0.6
2024-09-04T1200,2602A,100.9817,22.8322,普洱市,普洱第二中学,,24,24,26,3,10,39,,17,17,6,8,8,8,0.7,0.7
2024-09-04T1200,2262A,131.0518,45.8751,七台河市,新一中,,22,18,16,7,7,68,,37,37,8,12,10,10,0.9,0.9
2024-09-04T1200,3345A,131.0577,45.7879,七台河市,中波台,,23,23,16,3,5,51,,31,31,16,21,10,11,0.4,0.5
2024-09-04T1200,3637A,131.0176,45.7761,七台河市,人民广场,,24,24,22,12,10,52,,36,36,12,18,9,8,0.3,0.3
2024-09-04T1200,3684A,130.8781,45.8222,七台河市,新建矿广场,,46,46,76,3,16,47,,26,26,13,27,4,7,0.5,0.5
2024-09-04T1200,1779A,123.9305,47.3636,齐齐哈尔市,安居小区,,27,27,26,12,7,70,,79,72,14,12,12,11,0.5,0.4
2024-09-04T1200,1780A,123.9488,47.3386,齐齐哈尔市,中心广场,,37,37,20,12,8,69,,77,71,12,9,3,2,0.3,0.3
2024-09-04T1200,1781A,123.9483,47.3227,齐齐哈尔市,农牧车辆厂,,39,39,28,3,3,68,,78,72,13,6,10,8,0.2,0.2
2024-09-04T1200,1783A,123.945,47.2988,齐齐哈尔市,市环境监测站,,23,15,17,11,7,71,,76,73,10,6,9,8,0.4,0.3
2024-09-04T1200,3662A,123.6333,47.2075,齐齐哈尔市,富区青少年活动中心,,28,28,18,3,4,68,,68,67,10,6,6,5,0.7,0.4
2024-09-04T1200,2591A,107.9783,26.5747,黔东南苗族侗族自治州,市环境监测站,,30,23,15,14,12,96,,43,43,17,13,4,3,0.5,0.5
2024-09-04T1200,2881A,107.8908,26.5311,黔东南苗族侗族自治州,凯里学院,,29,,11,9,9,90,,41,41,5,9,2,2,0.4,0.5
2024-09-04T1200,2593A,107.5228,26.2403,黔南布依族苗族自治州,小围寨,,33,6,6,3,1,103,,43,43,3,5,3,4,0.3,0.3
2024-09-04T1200,3538A,107.5175,26.2978,黔南布依族苗族自治州,沙坝,,30,7,10,3,4,96,,37,37,3,8,3,3,0.4,0.5
2024-09-04T1200,2589A,104.9022,25.0925,黔西南布依族苗族自治州,场坝街,,24,12,19,3,10,76,,30,30,6,9,4,9,0.1,0.2
2024-09-04T1200,2590A,104.8811,25.0992,黔西南布依族苗族自治州,坪东大道,,24,20,27,3,9,76,,25,25,5,11,8,8,0.1,0.3
2024-09-04T1200,2502A,108.6236,21.9667,钦州市,市环保站,,34,31,27,12,11,108,,70,70,9,11,9,8,0.6,0.7
2024-09-04T1200,2503A,108.6549,21.9481,钦州市,沙埠小学,颗粒物(PM10),54,57,36,20,18,123,,70,70,12,13,8,6,0.9,1
2024-09-04T1200,2504A,108.5989,21.7431,钦州市,港区一小,,,,44,18,19,101,,53,53,,18,6,8,0.6,0.8
2024-09-04T1200,3404A,108.5959,21.9633,钦州市,北职校,,34,,26,14,15,108,,68,68,7,10,5,5,0.7,0.8
2024-09-04T1200,1042A,119.5134,39.8207,秦皇岛市,北戴河环保局,,39,26,28,3,6,124,,98,98,12,10,4,4,0.5,0.6
2024-09-04T1200,1043A,119.7493,40.0116,秦皇岛市,第一关,,38,30,36,11,20,119,,77,77,11,37,4,4,0.5,0.6
2024-09-04T1200,1044A,119.5897,39.9499,秦皇岛市,监测站,,36,27,30,12,16,115,,98,98,12,11,2,3,0.8,0.7
2024-09-04T1200,1046A,119.5251,39.9041,秦皇岛市,建设大厦,,38,28,32,6,10,120,,100,100,8,10,3,3,0.6,0.5
2024-09-04T1200,3132A,119.610547,39.943889,秦皇岛市,文明里,,35,27,31,7,9,112,,103,100,17,12,4,4,0.6,0.6
2024-09-04T1200,1307A,120.6659,36.2403,青岛市,仰口,,,19,26,14,16,133,,102,102,,8,5,5,0.4,0.4
2024-09-04T1200,1310A,120.4134,36.0658,青岛市,市南区东部子站,,39,12,33,7,13,123,,113,113,6,22,5,8,0.5,0.6
2024-09-04T1200,1311A,120.3664,36.1032,青岛市,四方区子站,,39,24,37,9,16,124,,113,113,11,31,10,12,0.7,0.7
2024-09-04T1200,1312A,120.2994,36.054,青岛市,市南区西部子站,,39,,42,10,12,123,,98,98,7,37,8,10,0.6,0.7
2024-09-04T1200,1313A,120.4581,36.0858,青岛市,崂山区子站,,39,14,33,7,11,124,,99,99,9,26,8,9,0.5,0.6
2024-09-04T1200,1314A,120.1983,35.9608,青岛市,黄岛区子站,,40,9,29,3,12,125,,124,122,9,19,8,10,0.4,0.5
2024-09-04T1200,1315A,120.3999,36.3083,青岛市,城阳区子站,,46,29,38,12,15,147,,84,84,14,32,8,9,0.6,0.6
2024-09-04T1200,1966A,120.0405,35.8735,青岛市,黄岛区4号,,40,7,29,3,11,127,,116,116,3,18,9,10,0.5,0.6
2024-09-04T1200,3362A,120.5014,36.4034,青岛市,即墨2号,臭氧1小时,72,27,47,14,17,177,,99,99,12,30,8,8,0.5,0.6
2024-09-04T1200,3642A,120.3503,36.0736,青岛市,市北区南部,,37,26,40,7,16,116,,90,90,11,43,7,10,0.5,0.6
2024-09-04T1200,3643A,120.3948,36.1805,青岛市,李沧区北部,,42,19,38,14,18,133,,101,101,10,36,8,11,0.5,0.6
2024-09-04T1200,1702A,113.0426,23.691,清远市,环保大楼,,26,22,23,18,18,69,,54,52,7,9,7,6,0.6,0.6
2024-09-04T1200,1703A,113.0208,23.7106,清远市,凤城街办,,34,26,27,18,16,106,,76,76,6,10,6,6,0.5,0.5
2024-09-04T1200,3025A,113.0477,23.6344,清远市,技师学院,,,27,31,14,15,120,,72,72,5,12,5,5,,0.2
2024-09-04T1200,3318A,112.9903,23.7403,清远市,清新太和,,35,29,29,16,15,109,,62,62,6,5,6,5,0.8,0.7
2024-09-04T1200,3455A,113.076,23.7198,清远市,清城东城,,33,22,27,11,15,104,,75,75,3,6,8,7,0.6,0.6
2024-09-04T1200,2661A,107.6325,35.7357,庆阳市,庆阳五中,颗粒物(PM10),63,76,40,25,17,77,,64,62,5,7,6,6,0.4,0.6
2024-09-04T1200,2662A,107.6364,35.7067,庆阳市,市环保局,颗粒物(PM10),64,78,39,23,17,80,,65,64,5,7,4,5,0.4,0.5
2024-09-04T1200,1916A,103.7897,25.5035,曲靖市,环境监测站,,26,18,21,11,11,82,,40,40,5,12,4,8,0.6,0.6
2024-09-04T1200,1917A,103.8,25.5364,曲靖市,烟厂办公区,,20,19,21,3,11,63,,35,35,6,13,4,6,0.6,0.6
2024-09-04T1200,3376A,103.7947,25.462,曲靖市,南苑二区,,25,25,19,15,12,71,,38,38,8,11,8,12,0.5,0.5
2024-09-04T1200,3377A,103.7444,25.5261,曲靖市,曲靖师范学院,,,,24,13,16,60,,33,33,9,16,26,22,,0.6
2024-09-04T1200,1264A,118.8692,28.9398,衢州市,环保大楼,,47,25,44,17,33,148,,105,105,10,13,2,3,0.6,0.7
2024-09-04T1200,1265A,118.8709,28.9666,衢州市,实验学校,,47,25,44,16,35,150,,109,109,7,10,5,4,0.5,0.7
2024-09-04T1200,1266A,118.8621,28.9808,衢州市,衢州学院,,45,21,47,18,34,141,,101,101,7,13,3,2,0.5,0.6
2024-09-04T1200,1611A,118.5819,24.9117,泉州市,涂山街,,25,25,24,10,12,72,,69,65,8,9,1,2,0.6,0.6
2024-09-04T1200,1612A,118.5972,24.8978,泉州市,津头埔,,36,36,28,12,12,72,,67,62,12,11,4,3,0.6,0.5
2024-09-04T1200,1613A,118.6663,24.9424,泉州市,万安,,34,34,28,10,12,76,,62,60,6,7,3,2,0.6,0.5
2024-09-04T1200,1614A,118.6117,24.9604,泉州市,清源山,,,,,,,,,,,,,,,,
2024-09-04T1200,3529A,118.6333,24.9264,泉州市,城华南路,,25,25,22,7,11,72,,64,60,6,6,3,3,0.5,0.5
2024-09-04T1200,2626A,88.8876,29.2718,日喀则市,日喀则监测站,,29,14,9,7,4,90,,92,90,4,5,5,6,0.4,0.4
2024-09-04T1200,3726A,88.8781,29.2426,日喀则市,林业技术推广中心,,34,9,5,3,4,108,,103,96,7,6,8,8,0.4,0.4
2024-09-04T1200,1659A,119.471,35.4209,日照市,监测站,,49,19,26,11,16,156,,68,68,10,37,12,11,0.7,0.6
2024-09-04T1200,1660A,119.523,35.4216,日照市,市政府广场,,48,31,32,7,15,153,,96,96,14,31,13,10,0.7,0.7
2024-09-04T1200,1661A,119.5587,35.4044,日照市,港务局,,48,19,33,12,21,153,,94,94,6,30,9,10,0.6,0.7
2024-09-04T1200,3507A,119.5328,35.4625,日照市,职业技术学院,,49,24,26,14,13,154,,109,109,16,23,11,9,0.6,0.6
2024-09-04T1200,3604A,119.3266,35.1044,日照市,岚山环保分局,臭氧1小时,68,24,36,3,9,174,,120,120,10,24,16,11,0.9,0.6
2024-09-04T1200,1835A,111.1922,34.7752,三门峡市,市政府,,,56,48,21,22,147,,124,124,,11,13,13,0.8,0.7
2024-09-04T1200,1836A,111.1587,34.7942,三门峡市,开发区,,46,43,56,22,26,146,,126,126,8,10,13,14,0.8,0.7
2024-09-04T1200,1838A,111.143,34.7955,三门峡市,风景区,,,,,,,,,,,,,,,,
2024-09-04T1200,3039A,111.1911,34.7829,三门峡市,三门峡市第一小学,颗粒物(PM10),55,60,49,21,19,139,,119,118,9,11,13,13,0.8,0.7
2024-09-04T1200,3598A,111.1,34.7167,三门峡市,富达温泉假日酒店,,,,56,,28,,,111,,,13,,13,,0.6
2024-09-04T1200,2324A,117.6211,26.2625,三明市,三钢,,31,17,26,16,18,99,,67,67,4,10,6,6,0.3,0.4
2024-09-04T1200,2325A,117.635,26.2714,三明市,三明二中,,32,20,25,12,18,100,,72,72,5,10,3,4,0.3,0.4
2024-09-04T1200,2326A,117.6028,26.2378,三明市,三元区政府,,31,23,32,7,15,98,,67,67,8,14,3,3,0.4,0.7
2024-09-04T1200,2327A,117.7275,26.3108,三明市,洋溪,,,,,,,,,,,,,,,,
2024-09-04T1200,1876A,109.5078,18.2489,三亚市,河东子站,,24,9,15,3,7,75,,37,37,4,8,4,4,0.5,0.4
2024-09-04T1200,1877A,109.4964,18.2681,三亚市,河西子站,,23,12,15,3,6,72,,31,31,2,8,3,3,0.3,0.3
2024-09-04T1200,3540A,109.7348,18.3443,三亚市,君悦子站,,,10,17,6,5,88,,36,36,7,10,,1,,0.3
2024-09-04T1200,2624A,91.7608,29.2313,山南市,山南监测站,,30,17,10,8,5,93,,90,76,5,4,8,7,0.3,0.3
2024-09-04T1200,2625A,91.7706,29.2436,山南市,山南人民医院,,30,22,22,6,5,93,,89,75,10,7,8,8,0.3,0.2
2024-09-04T1200,1674A,116.6794,23.3667,汕头市,金平子站,,38,38,32,11,17,67,,50,50,6,10,5,6,0.4,0.5
2024-09-04T1200,1675A,116.7244,23.3633,汕头市,龙湖子站,,37,37,31,12,15,77,,58,58,6,10,6,8,0.5,0.6
2024-09-04T1200,1676A,116.7258,23.2775,汕头市,濠江子站,,38,38,29,13,18,87,,62,62,6,10,7,8,0.6,0.8
2024-09-04T1200,1677A,116.7519,23.4714,汕头市,澄海子站,,,,33,13,18,87,,62,62,,13,4,9,0.6,0.7
2024-09-04T1200,1678A,116.6092,23.2539,汕头市,潮阳子站,,45,44,35,31,36,95,,65,65,2,7,6,7,0.4,0.5
2024-09-04T1200,3444A,116.454,23.2684,汕头市,潮南峡山,,35,21,25,9,12,112,,72,72,4,6,7,7,0.5,0.6
2024-09-04T1200,3624A,116.4069,23.2533,汕头市,潮南子站,,37,37,32,14,16,106,,69,69,13,11,6,6,0.5,0.6
2024-09-04T1200,1693A,115.3653,22.775,汕尾市,市环保局,,33,33,26,21,20,92,,80,80,5,8,7,6,0.8,0.8
2024-09-04T1200,1694A,115.3706,22.7898,汕尾市,市政府,,38,31,27,26,14,84,,72,72,6,9,7,7,0.7,0.7
2024-09-04T1200,1695A,115.3622,22.7925,汕尾市,新城中学,,38,38,33,17,19,85,,75,75,6,8,6,6,0.8,0.9
2024-09-04T1200,2645A,109.9154,33.8715,商洛市,监测站,,39,30,26,20,16,124,,96,96,10,12,3,2,0.8,0.8
2024-09-04T1200,3045A,109.9643,33.8471,商洛市,商州区中学,,49,49,28,21,16,117,,87,87,12,13,7,5,0.9,0.8
2024-09-04T1200,2408A,115.6702,34.4285,商丘市,环境监测站,,47,30,43,13,16,149,,111,111,8,17,6,6,0.6,0.5
2024-09-04T1200,2409A,115.6458,34.4045,商丘市,粮食局,臭氧1小时,52,41,37,19,18,161,,122,122,6,12,10,9,0.4,0.4
2024-09-04T1200,2410A,115.6293,34.3948,商丘市,睢阳区环保局,,,62,41,11,17,151,,113,113,,10,11,10,0.4,0.4
2024-09-04T1200,3171A,115.6071,34.4465,商丘市,梁园区档案局,臭氧1小时,57,43,40,12,17,165,,128,128,7,10,9,9,0.5,0.4
2024-09-04T1200,1141A,121.4,31.238,上海市,普陀,,34,28,25,15,12,108,,72,72,14,18,5,5,0.5,0.4
2024-09-04T1200,1142A,121.478,31.2036,上海市,十五厂,,31,24,26,21,16,98,,70,70,13,21,8,9,0.6,0.5
2024-09-04T1200,1143A,121.467,31.3008,上海市,虹口,,35,24,25,12,13,109,,64,64,12,23,8,9,0.7,0.6
2024-09-04T1200,1144A,121.412,31.1654,上海市,徐汇上师大,,,32,46,22,18,110,,72,72,14,23,6,6,,0.7
2024-09-04T1200,1145A,121.536,31.2659,上海市,杨浦四漂,,,,,,,,,,,,,,,,
2024-09-04T1200,1147A,121.425,31.2261,上海市,静安监测站,,35,26,25,21,14,111,,80,80,12,19,6,6,0.7,0.6
2024-09-04T1200,1148A,121.703,31.1907,上海市,浦东川沙,,35,,25,14,15,112,,58,58,10,20,6,6,0.7,0.7
2024-09-04T1200,1149A,121.533,31.2284,上海市,浦东新区监测站,,31,19,25,18,16,97,,63,63,11,23,6,6,0.6,0.7
2024-09-04T1200,1150A,121.577,31.2071,上海市,浦东张江,,31,16,24,16,17,97,,58,58,11,24,5,5,0.8,0.7
2024-09-04T1200,3265A,121.4316,31.3322,上海市,宝山庙行,,40,33,24,22,12,126,,65,65,11,25,6,6,0.6,0.5
2024-09-04T1200,3266A,121.8791,31.4662,上海市,崇明上实东滩,,31,16,18,7,9,98,,79,79,5,5,8,8,0.7,0.7
2024-09-04T1200,3268A,121.3162,31.2838,上海市,嘉定南翔,,38,29,22,17,12,120,,69,69,14,22,7,7,0.5,0.5
2024-09-04T1200,3269A,121.3359,30.7456,上海市,金山新城,,35,,26,16,20,109,,71,71,7,17,8,6,0.6,0.7
2024-09-04T1200,3270A,121.4996,31.0739,上海市,闵行浦江,,31,,25,19,17,99,,65,65,9,20,6,6,0.8,0.8
2024-09-04T1200,3271A,121.2886,31.1663,上海市,青浦徐泾,,34,33,24,20,16,107,,71,71,16,22,8,7,0.6,0.6
2024-09-04T1200,3272A,121.2186,31.0378,上海市,松江图书馆,,31,22,26,17,15,99,,71,71,12,19,6,6,0.6,0.6
2024-09-04T1200,3273A,121.3902,31.2059,上海市,长宁仙霞,,35,28,25,16,14,109,,77,77,15,19,9,9,0.7,0.8
