timepoint,stationcode,longitude,latitude,area,positionname,primarypollutant,aqi,pm10,pm10_24h,pm2_5,pm2_5_24h,o3,o3_24h,o3_8h,o3_8h_24h,no2,no2_24h,so2,so2_24h,co,co_24h
2025-03-14T0000,2566A,102.1879,31.914,阿坝藏族羌族自治州,州农科所,,24,18,16,8,7,75,,82,70,5,10,9,10,0,0
2025-03-14T0000,2568A,102.2502,31.8896,阿坝藏族羌族自治州,马师校,,26,16,13,15,11,82,,95,82,9,11,5,5,0.4,0.4
2025-03-14T0000,3994A,102.2165,31.9024,阿坝藏族羌族自治州,马尔康中学西区,,27,,11,15,9,85,,100,82,8,8,5,5,0.4,0.4
2025-03-14T0000,2695A,80.292,41.1694,阿克苏地区,电视台,颗粒物(PM10),500,1031,301,115,70,75,,110,93,2,21,2,5,0.4,0.7
2025-03-14T0000,2696A,80.2613,41.1551,阿克苏地区,艺术中心,颗粒物(PM10),500,1256,339,137,69,75,,108,89,12,28,4,5,0.4,0.7
2025-03-14T0000,2204A,105.6467,38.8363,阿拉善盟,西城区西花园,颗粒物(PM10),52,54,112,12,22,100,,109,106,9,9,7,8,0.8,0.8
2025-03-14T0000,2205A,105.6985,38.8411,阿拉善盟,蒙二幼,,47,47,99,14,21,100,,103,101,8,8,5,6,0.6,0.5
2025-03-14T0000,2206A,105.724,38.8516,阿拉善盟,环保局新楼,颗粒物(PM10),52,54,84,16,22,103,,108,106,3,4,8,8,0.4,0.4
2025-03-14T0000,2708A,88.1264,47.8517,阿勒泰地区,市站,,32,32,20,10,12,35,,77,62,52,28,4,6,0.5,0.4
2025-03-14T0000,2630A,80.1161,32.5,阿里地区,阿里监测站,,37,6,8,3,4,118,,121,121,2,2,5,6,0.4,0.4
2025-03-14T0000,3192A,80.0903,32.5028,阿里地区,阿里藏医院,,35,7,9,3,4,109,,107,107,1,1,6,6,0.3,0.3
2025-03-14T0000,2642A,109.0318,32.6537,安康市,香溪洞,,44,44,37,17,22,57,,65,64,5,8,6,6,0.5,0.5
2025-03-14T0000,2644A,109.0072,32.6975,安康市,汉滨区检察院,,47,47,49,22,26,23,,55,41,16,20,6,7,0.5,0.5
2025-03-14T0000,4054A,109.0325,32.6913,安康市,市邮政管理局,颗粒物(PM10),54,58,58,20,29,22,,55,40,26,22,11,10,0.5,0.5
2025-03-14T0000,2291A,117.0809,30.5177,安庆市,环科院,颗粒物(PM10),52,54,35,26,29,56,,94,58,22,19,7,6,0.6,0.7
2025-03-14T0000,2292A,117.0331,30.5119,安庆市,马山宾馆,,49,49,34,25,26,59,,95,58,13,13,4,2,0.8,0.9
2025-03-14T0000,2294A,116.9896,30.6145,安庆市,安庆大学,,36,36,43,18,27,57,,102,64,16,9,8,6,0.4,0.6
2025-03-14T0000,3173A,117.0598,30.5351,安庆市,市人大,颗粒物(PM10),53,55,36,28,31,56,,94,56,18,17,6,5,0.6,0.7
2025-03-14T0000,3122A,105.9606,26.2611,安顺市,伍家关,,,,43,9,28,38,,69,29,10,13,4,12,0.6,0.7
2025-03-14T0000,3123A,105.9408,26.2431,安顺市,凤凰山,,16,16,45,7,35,34,,69,27,13,16,14,21,0.8,0.9
2025-03-14T0000,3124A,105.9439,26.2564,安顺市,金钟山,,20,20,44,7,34,36,,69,28,11,13,10,17,0.6,0.7
2025-03-14T0000,3125A,105.8983,26.2481,安顺市,娄家坡,,14,14,48,9,36,36,,66,26,11,13,8,14,0.6,0.8
2025-03-14T0000,1818A,114.4839,36.0621,安阳市,棉研所,,,,,,,,,,,,,,,,
2025-03-14T0000,1819A,114.3551,36.1017,安阳市,红庙街,颗粒物(PM10),107,163,222,52,57,48,,102,74,31,29,12,5,0.7,0.7
2025-03-14T0000,1820A,114.361,36.0681,安阳市,银杏小区,颗粒物(PM10),117,184,210,69,69,42,,110,77,42,35,10,4,0.5,0.5
2025-03-14T0000,3141A,114.3922,36.0878,安阳市,信访局,颗粒物(PM10),94,138,212,59,64,54,,114,88,40,37,5,5,0.4,0.4
2025-03-14T0000,3669A,114.4705,36.0637,安阳市,左辅环卫站,颗粒物(PM10),106,161,237,66,76,42,,116,79,45,36,4,4,0.4,0.4
2025-03-14T0000,3703A,114.2917,36.0949,安阳市,安钢职工学校,颗粒物(PM10),95,140,223,62,70,75,,107,85,20,30,4,4,0.5,0.5
2025-03-14T0000,1748A,123.044,41.1196,鞍山市,深沟寺,颗粒物(PM10),58,65,72,38,27,34,,95,66,49,18,14,12,0.6,0.6
2025-03-14T0000,1749A,123.011,41.0931,鞍山市,太阳城,,40,40,86,23,29,43,,104,74,40,17,14,10,0.8,0.8
2025-03-14T0000,1750A,123.0485,41.1442,鞍山市,太平,颗粒物(PM10),87,123,99,57,34,42,,98,65,39,23,18,11,0.7,0.7
2025-03-14T0000,1751A,122.9642,41.0971,鞍山市,铁西三道街,颗粒物(PM10),53,56,77,29,25,53,,93,74,34,28,15,17,0.5,0.9
2025-03-14T0000,1753A,123.022,41.0821,鞍山市,明达新区,颗粒物(PM10),53,55,67,32,26,52,,94,72,32,16,22,10,0.6,0.6
2025-03-14T0000,1754A,123.1289,41.0228,鞍山市,千山,,,,63,,9,,,90,,,16,,23,,0.4
2025-03-14T0000,4201A,122.9446,41.0826,鞍山市,兴盛南路290号,颗粒物(PM10),56,61,87,32,30,52,,86,72,41,37,25,22,0.5,0.9
2025-03-14T0000,2195A,107.4212,40.761,巴彦淖尔市,附二中,颗粒物(PM10),90,129,129,46,44,16,,76,63,57,36,8,11,0.7,0.8
2025-03-14T0000,2196A,107.37,40.7372,巴彦淖尔市,市环保大楼,颗粒物(PM10),99,148,108,49,43,12,,98,66,79,34,8,6,0.6,0.5
2025-03-14T0000,1956A,86.1472,41.7538,巴音郭楞蒙古自治州,孔雀公园,颗粒物(PM10),76,102,133,24,24,66,,98,78,29,14,5,5,0.3,0.3
2025-03-14T0000,1957A,86.1972,41.7166,巴音郭楞蒙古自治州,棉纺厂,颗粒物(PM10),199,348,169,29,19,70,,96,81,19,14,4,3,0.3,0.3
2025-03-14T0000,1958A,86.2357,41.7173,巴音郭楞蒙古自治州,经济开发区,颗粒物(PM10),118,186,144,32,15,81,,99,95,,7,4,4,0.1,0.2
2025-03-14T0000,2914A,106.7677,31.8794,巴中市,苏山坪,,33,33,19,21,15,66,,67,67,5,6,4,4,0.4,0.4
2025-03-14T0000,3181A,106.7768,31.8526,巴中市,市五中,,32,32,26,19,16,30,,51,45,14,15,4,4,0.5,0.6
2025-03-14T0000,3183A,106.7418,31.8654,巴中市,圣泉水务公司,,32,32,24,19,16,22,,59,45,22,17,6,7,0.6,0.6
2025-03-14T0000,3616A,106.7616,31.8344,巴中市,市中心医院,,38,34,27,26,21,18,,55,42,27,20,6,6,0.6,0.5
2025-03-14T0000,2235A,122.7911,45.6077,白城市,洮北区环保局,,46,40,75,32,65,63,,115,94,14,14,8,4,0.4,0.4
2025-03-14T0000,2236A,122.8738,45.5725,白城市,市环保局,细颗粒物(PM2.5),58,,82,41,70,71,,108,88,5,13,6,4,0.4,0.5
2025-03-14T0000,2231A,126.4219,41.9171,白山市,喜丰,,36,36,51,22,12,78,,87,84,12,9,6,7,0.8,0.7
2025-03-14T0000,2232A,126.4077,41.9419,白山市,环保局,,43,43,54,12,12,79,,92,88,10,6,6,5,0.6,0.6
2025-03-14T0000,2647A,104.1724,36.5446,白银市,第三小学,颗粒物(PM10),55,59,166,13,42,91,,98,96,5,17,8,39,0.9,1
2025-03-14T0000,2648A,104.1465,36.5482,白银市,动力公司,,46,46,135,20,39,96,,100,98,6,12,5,11,0.7,0.9
2025-03-14T0000,2512A,106.6103,23.9011,百色市,市监测站,,28,23,50,19,31,39,,77,63,13,20,11,18,0.8,1
2025-03-14T0000,2513A,106.6538,23.8859,百色市,市中心血站,,29,22,47,20,31,46,,74,63,10,16,10,16,0.7,0.9
2025-03-14T0000,3406A,106.6085,23.8798,百色市,祈福高中,,38,37,56,26,33,35,,75,58,18,21,15,18,0.8,0.9
2025-03-14T0000,2270A,117.396,32.939,蚌埠市,工人疗养院,,41,41,133,20,85,72,,87,73,21,25,5,4,0.4,0.6
2025-03-14T0000,2271A,117.3605,32.9427,蚌埠市,百货大楼,,36,36,132,17,80,66,,77,65,26,29,6,5,0.3,0.6
2025-03-14T0000,2273A,117.4185,32.8911,蚌埠市,蚌埠学院,,29,29,115,13,83,76,,88,73,13,28,3,4,0.3,0.6
2025-03-14T0000,2274A,117.3533,32.9673,蚌埠市,淮上区政府,,39,39,127,21,86,73,,76,68,17,27,5,4,0.3,0.7
2025-03-14T0000,2275A,117.3145,32.8977,蚌埠市,高新区,,36,36,116,19,86,75,,88,72,18,23,4,4,0.3,0.6
2025-03-14T0000,3715A,117.3092,32.9314,蚌埠市,蚌埠田家炳中学,,35,35,130,17,87,78,,88,76,20,27,4,5,0.4,0.6
2025-03-14T0000,1585A,109.8756,40.6532,包头市,市环境监测站,,31,31,67,6,23,60,,82,67,14,38,12,19,0.7,0.8
2025-03-14T0000,1587A,109.9991,40.5842,包头市,包头八中,,47,47,90,18,35,40,,71,63,35,37,9,29,0.5,0.8
2025-03-14T0000,1588A,109.8538,40.6821,包头市,青山宾馆,,32,32,63,8,24,61,,79,67,9,37,10,12,0.7,0.8
2025-03-14T0000,1589A,109.8642,40.6288,包头市,惠龙物流,,40,40,69,15,24,64,,84,71,13,34,8,22,0.7,0.9
2025-03-14T0000,1590A,110.0377,40.5546,包头市,东河鸿龙湾,,49,49,87,16,21,36,,68,56,41,36,9,25,0.5,0.7
2025-03-14T0000,3283A,109.9154,40.5685,包头市,滨河大厦,,21,21,65,6,23,51,,77,66,21,37,9,18,0.7,0.6
2025-03-14T0000,3419A,109.9447,40.6261,包头市,包头市委党校,颗粒物(PM10),54,57,70,17,26,50,,83,65,22,35,8,22,0.6,0.9
2025-03-14T0000,3683A,109.8331,40.6576,包头市,昆区政府,,31,31,68,10,27,64,,77,69,10,36,8,14,0.6,0.8
2025-03-14T0000,1930A,107.185,34.3063,宝鸡市,庙沟村,颗粒物(PM10),55,60,144,34,55,76,,108,94,16,20,6,7,0.5,0.4
2025-03-14T0000,1931A,107.0708,34.3017,宝鸡市,竹园沟,颗粒物(PM10),73,95,143,48,58,29,,104,71,44,25,6,7,0.5,0.5
2025-03-14T0000,1932A,107.1906,34.3672,宝鸡市,三陆医院,,47,47,162,31,60,80,,103,95,14,27,4,6,0.5,0.6
2025-03-14T0000,1933A,107.1431,34.3547,宝鸡市,监测站,颗粒物(PM10),53,55,164,29,56,80,,105,98,18,26,8,9,0.5,0.6
2025-03-14T0000,1934A,107.1186,34.3739,宝鸡市,技工学校,,49,49,160,27,57,83,,103,95,19,26,6,8,0.8,0.9
2025-03-14T0000,1935A,107.3906,34.3528,宝鸡市,陈仓区环保局家属楼,,48,48,155,30,56,72,,104,93,19,33,8,21,0.4,0.5
2025-03-14T0000,1936A,107.2058,34.3497,宝鸡市,文理学院,颗粒物(PM10),55,59,162,30,59,79,,110,100,26,30,6,7,0.3,0.3
2025-03-14T0000,1937A,107.2386,34.3622,宝鸡市,三迪小学,,49,49,161,34,60,77,,102,92,20,31,6,9,0.7,0.8
2025-03-14T0000,1051A,115.493,38.8632,保定市,游泳馆,颗粒物(PM10),109,168,186,76,70,36,,130,102,68,38,10,12,0.4,0.4
2025-03-14T0000,1052A,115.5213,38.8959,保定市,华电二区,细颗粒物(PM2.5),127,170,163,96,71,15,,134,100,78,34,8,11,0.6,0.6
2025-03-14T0000,1053A,115.4713,38.9108,保定市,接待中心,颗粒物(PM10),106,162,183,72,77,31,,127,105,62,36,4,8,0.2,0.5
2025-03-14T0000,1054A,115.4612,38.8416,保定市,地表水厂,颗粒物(PM10),114,178,212,67,70,57,,129,104,51,38,6,8,0.6,0.6
2025-03-14T0000,3581A,115.31981,38.95208,保定市,满城区生态环境分局,颗粒物(PM10),108,166,189,73,77,39,,119,98,44,37,8,10,0.7,0.6
2025-03-14T0000,3582A,115.47694,38.76408,保定市,清苑区第二中学,颗粒物(PM10),124,198,224,77,68,37,,126,94,71,44,10,11,0.5,0.5
2025-03-14T0000,3583A,115.62909,39.02311,保定市,徐水物探局,颗粒物(PM10),99,148,215,63,72,36,,129,102,44,42,11,12,0.6,0.4
2025-03-14T0000,4004A,115.4202,38.8656,保定市,双鹰农机,颗粒物(PM10),89,127,180,50,76,67,,128,108,41,33,4,7,0.6,0.7
2025-03-14T0000,4034A,115.5150,38.8590,保定市,植保所站,颗粒物(PM10),118,186,196,88,78,14,,130,90,90,50,9,8,0.6,0.6
2025-03-14T0000,2594A,99.1678,25.1081,保山市,市环境监测站,颗粒物(PM10),55,60,93,38,63,98,,141,123,10,12,2,4,0.5,0.6
2025-03-14T0000,2595A,99.1711,25.1328,保山市,市环保局,颗粒物(PM10),55,59,94,38,58,107,,145,127,7,9,6,7,0.6,0.8
2025-03-14T0000,1866A,109.2262,21.588,北海市,牛尾岭水库,,,,22,20,18,34,,56,44,,,5,6,0.5,0.5
2025-03-14T0000,1867A,109.1436,21.4086,北海市,海滩公园,,32,27,26,22,15,51,,80,64,8,8,5,5,0.5,0.5
2025-03-14T0000,1868A,109.0981,21.4661,北海市,新市环保局,,34,34,24,19,16,45,,70,56,10,10,3,3,0.5,0.5
2025-03-14T0000,1869A,109.1778,21.5233,北海市,北海工业园,,38,38,31,24,20,43,,68,46,12,13,6,6,0.4,0.4
2025-03-14T0000,3400A,109.1911,21.4415,北海市,龙潭自来水厂,,42,,24,29,23,50,,74,57,7,8,6,6,0.4,0.4
2025-03-14T0000,1001A,116.3621,39.8784,北京市,万寿西宫,颗粒物(PM10),87,123,173,37,59,70,,99,83,31,52,9,6,0.6,0.5
2025-03-14T0000,1002A,116.2202,40.2915,北京市,定陵,,,,,,,,,,,,,,,,
2025-03-14T0000,1003A,116.4174,39.9289,北京市,东四,颗粒物(PM10),82,114,167,37,59,70,,86,76,28,52,11,10,0.8,0.8
2025-03-14T0000,1004A,116.4072,39.8863,北京市,天坛,颗粒物(PM10),82,113,161,36,58,65,,82,72,29,47,3,3,1.0,0.9
2025-03-14T0000,1005A,116.462,39.9365,北京市,农展馆,颗粒物(PM10),80,110,171,34,57,74,,85,79,29,52,12,11,0.8,0.8
2025-03-14T0000,1006A,116.3392,39.9295,北京市,官园,颗粒物(PM10),86,122,164,42,53,60,,69,60,27,47,12,10,0.9,0.8
2025-03-14T0000,1007A,116.2878,39.9611,北京市,海淀万柳,颗粒物(PM10),84,118,121,40,42,62,,68,57,35,55,9,7,0.9,0.5
2025-03-14T0000,1008A,116.6636,40.135,北京市,顺义新城,颗粒物(PM10),81,112,119,34,34,71,,86,78,27,41,11,9,0.9,0.6
2025-03-14T0000,1009A,116.6275,40.3275,北京市,怀柔镇,颗粒物(PM10),90,130,102,40,36,74,,77,66,18,28,8,7,1.0,0.8
2025-03-14T0000,1010A,116.2296,40.217,北京市,昌平镇,颗粒物(PM10),95,139,140,43,40,68,,64,64,26,38,6,5,0.8,0.7
2025-03-14T0000,1011A,116.3966,39.9821,北京市,奥体中心,颗粒物(PM10),80,110,154,36,50,68,,78,72,29,52,9,8,0.9,0.8
2025-03-14T0000,3281A,115.9718,40.4529,北京市,延庆夏都,颗粒物(PM10),92,133,118,44,41,78,,79,77,20,25,10,7,0.8,0.6
2025-03-14T0000,3418A,116.8336,40.4095,北京市,密云新城,颗粒物(PM10),100,150,91,40,31,57,,84,67,26,22,12,8,1.0,0.7
2025-03-14T0000,3671A,116.088,39.9726,北京市,门头沟三家店,颗粒物(PM10),97,143,167,52,57,59,,54,49,31,49,8,6,0.7,0.5
2025-03-14T0000,3672A,116.1541,39.8204,北京市,丰台云岗,颗粒物(PM10),93,135,175,43,56,67,,101,76,30,51,10,8,0.8,0.7
2025-03-14T0000,3673A,116.6804,39.9081,北京市,通州东关,颗粒物(PM10),78,106,156,24,50,74,,80,74,13,44,11,11,0.7,0.7
2025-03-14T0000,3674A,115.9577,39.7603,北京市,房山燕山,颗粒物(PM10),96,142,177,56,65,45,,99,76,35,34,4,4,0.8,0.6
2025-03-14T0000,3675A,116.4672,39.7733,北京市,大兴旧宫,颗粒物(PM10),88,125,172,35,59,57,,86,66,23,45,4,3,0.8,0.6
2025-03-14T0000,3694A,115.986,40.4563,北京市,延庆石河营,颗粒物(PM10),92,134,120,45,41,78,,78,76,19,27,7,6,0.8,0.6
2025-03-14T0000,3695A,116.6151,40.3053,北京市,怀柔新城,颗粒物(PM10),88,125,98,42,35,73,,76,66,17,23,9,8,0.9,0.8
2025-03-14T0000,3696A,116.2545,39.8768,北京市,丰台小屯,颗粒物(PM10),90,129,170,43,56,61,,77,63,29,56,7,5,0.8,0.6
2025-03-14T0000,3697A,116.84,40.3844,北京市,密云镇,颗粒物(PM10),101,151,98,37,30,56,,91,73,28,31,11,8,1.0,0.7
2025-03-14T0000,4182A,116.1942,39.9158,北京市,八角北路9号,颗粒物(PM10),94,138,170,44,51,67,,78,65,31,52,6,5,0.8,0.7
2025-03-14T0000,4194A,117.0790,40.1518,北京市,洳河巡河路,颗粒物(PM10),63,75,95,31,35,86,,86,77,14,24,8,8,0.7,0.7
2025-03-14T0000,1761A,123.8275,41.3064,本溪市,大峪,,39,39,48,22,17,58,,90,75,12,8,7,8,0.8,0.6
2025-03-14T0000,1762A,123.7567,41.3325,本溪市,溪湖,细颗粒物(PM2.5),70,81,75,51,20,28,,93,67,49,20,9,8,0.9,0.6
2025-03-14T0000,1763A,123.7169,41.3094,本溪市,彩屯,,,185,89,,29,35,,85,59,38,22,10,8,1.4,0.7
2025-03-14T0000,1764A,123.7669,41.2864,本溪市,东明,,40,40,54,28,21,39,,84,64,32,20,8,7,0.6,0.6
2025-03-14T0000,1765A,123.7992,41.2664,本溪市,新立屯,细颗粒物(PM2.5),55,,42,39,27,28,,96,61,43,34,5,6,0.7,0.6
2025-03-14T0000,1766A,123.8142,41.3472,本溪市,威宁,细颗粒物(PM2.5),52,48,69,36,21,20,,91,53,36,26,3,4,0.7,0.6
2025-03-14T0000,2587A,105.2864,27.3125,毕节市,八中,,18,15,48,12,32,40,,67,38,11,13,7,8,0.8,0.7
2025-03-14T0000,2588A,105.31,27.2944,毕节市,师专,,26,26,44,18,30,39,,71,41,14,13,7,7,0.8,0.8
2025-03-14T0000,4263A,105.3688,27.3598,毕节市,工业大道,,25,22,41,17,27,41,,66,45,14,13,8,9,0.7,0.6
2025-03-14T0000,1629A,118.0018,37.3617,滨州市,第二水厂,细颗粒物(PM2.5),77,100,108,56,31,13,,113,50,62,33,11,11,0.2,0.2
2025-03-14T0000,1630A,117.9776,37.393,滨州市,北中新校,颗粒物(PM10),64,78,108,29,30,44,,120,64,47,39,13,12,0.6,0.5
2025-03-14T0000,3514A,117.9378,37.3956,滨州市,中海酒店,颗粒物(PM10),53,56,90,31,32,58,,121,75,31,25,9,10,0.5,0.4
2025-03-14T0000,3515A,117.9378,37.3553,滨州市,开发区一中,颗粒物(PM10),65,80,115,31,31,37,,108,60,54,44,11,13,0.3,0.4
2025-03-14T0000,3516A,118.0917,37.694,滨州市,金海六路,颗粒物(PM10),52,54,92,17,22,37,,123,72,35,25,16,9,0.6,0.6
2025-03-14T0000,4028A,117.9956,37.3753,滨州市,滨州市西街道办事处,颗粒物(PM10),73,95,110,51,38,19,,124,53,64,39,10,11,0.6,0.6
2025-03-14T0000,2311A,115.8072,33.8399,亳州市,污水处理厂,颗粒物(PM10),51,52,136,30,63,72,,112,83,14,17,4,5,0.3,0.5
2025-03-14T0000,2312A,115.7789,33.8518,亳州市,三国揽胜宫,颗粒物(PM10),55,60,150,23,58,67,,103,77,13,15,4,5,0.2,0.3
2025-03-14T0000,3332A,115.7633,33.8034,亳州市,亳州学院,颗粒物(PM10),52,54,141,28,59,71,,107,78,14,16,4,4,0.3,0.5
2025-03-14T0000,2693A,82.0485,44.8556,博尔塔拉蒙古自治州,市党校,,25,23,32,17,18,73,,80,74,12,11,6,6,0.3,0.2
2025-03-14T0000,2694A,82.0806,44.8969,博尔塔拉蒙古自治州,市环保局,,36,36,43,19,14,70,,75,73,11,12,4,5,0.3,0.3
2025-03-14T0000,1071A,116.8842,38.2991,沧州市,沧县城建局,细颗粒物(PM2.5),153,168,158,117,65,8,,123,68,78,36,5,7,0.6,0.5
2025-03-14T0000,1072A,116.8584,38.3254,沧州市,电视转播站,细颗粒物(PM2.5),107,141,149,80,64,13,,123,73,68,35,6,9,0.6,0.5
2025-03-14T0000,1073A,116.8709,38.3228,沧州市,市环保局,颗粒物(PM10),93,135,142,66,57,14,,116,64,63,34,7,10,0.6,0.6
2025-03-14T0000,3324A,116.8136,38.3004,沧州市,河北水利电力学院,颗粒物(PM10),122,193,185,86,59,14,,123,69,86,35,5,11,0.9,0.6
2025-03-14T0000,2622A,97.1806,31.1273,昌都市,昌都监测站,,22,19,15,11,7,70,,83,79,12,7,6,6,0.6,0.5
2025-03-14T0000,3719A,97.1714,31.1406,昌都市,昌都会议中心,,31,12,10,8,7,99,,121,115,4,3,2,2,0.2,0.2
2025-03-14T0000,2690A,88.1236,43.8886,昌吉回族自治州,天山天池,,28,12,8,12,5,87,,84,83,3,4,4,5,0.3,0.4
2025-03-14T0000,2692A,87.2717,44.0297,昌吉回族自治州,新区政务中心,,32,32,23,7,6,45,,87,80,35,11,6,5,0.4,0.3
2025-03-14T0000,3613A,87.3095,44.0142,昌吉回族自治州,亚心广场,,36,36,23,22,13,58,,87,81,37,16,4,5,0.4,0.3
2025-03-14T0000,1119A,125.3325,43.9166,长春市,食品厂,细颗粒物(PM2.5),57,61,43,40,25,21,,90,45,63,27,16,8,0.6,0.4
2025-03-14T0000,1120A,125.2863,43.9027,长春市,客车厂,细颗粒物(PM2.5),68,67,51,49,29,19,,88,44,70,29,6,5,0.7,0.5
2025-03-14T0000,1121A,125.2841,43.8463,长春市,邮电学院,细颗粒物(PM2.5),68,62,36,49,25,26,,96,60,51,12,7,6,0.6,0.4
2025-03-14T0000,1122A,125.3716,43.8772,长春市,劳动公园,细颗粒物(PM2.5),62,63,34,44,23,16,,94,60,63,15,8,6,0.9,0.6
2025-03-14T0000,1123A,125.3297,43.8805,长春市,园林处,细颗粒物(PM2.5),60,51,33,43,21,38,,93,64,49,15,18,8,0.4,0.3
2025-03-14T0000,1124A,125.4605,43.79,长春市,净月潭,,49,38,34,34,20,51,,96,72,20,12,6,6,0.4,0.3
2025-03-14T0000,1125A,125.7194,43.515,长春市,甩湾子,,,,,,,,,,,,,,,,
2025-03-14T0000,1126A,125.3863,43.8447,长春市,经开区环卫处,细颗粒物(PM2.5),62,61,35,44,20,10,,90,50,70,21,7,9,0.6,0.4
2025-03-14T0000,1127A,125.245,43.7783,长春市,高新区管委会,细颗粒物(PM2.5),80,103,99,59,40,16,,,,64,58,8,8,0.8,0.8
2025-03-14T0000,1128A,125.1761,43.8325,长春市,岱山公园,细颗粒物(PM2.5),132,134,45,100,31,8,,98,44,75,25,13,6,0.7,0.3
2025-03-14T0000,1335A,113.0833,28.2325,长沙市,经开区环保局,,26,,48,18,50,25,,58,22,31,26,5,4,0.7,0.6
2025-03-14T0000,1336A,112.8872,28.2189,长沙市,高开区环保局,,23,20,51,16,50,46,,68,46,10,10,3,4,0.8,0.7
2025-03-14T0000,1337A,113.0792,28.2053,长沙市,马坡岭,,23,22,49,16,43,26,,60,26,26,19,3,3,0.7,0.6
2025-03-14T0000,1338A,112.9394,28.19,长沙市,湖南师范大学,,18,18,53,12,45,40,,66,41,12,9,4,3,0.8,0.7
2025-03-14T0000,1339A,113.0178,28.1322,长沙市,雨花区环保局,,25,,44,17,52,24,,59,29,31,23,4,4,0.8,0.7
2025-03-14T0000,1340A,112.9792,28.2597,长沙市,伍家岭,,32,,61,22,53,36,,60,30,18,16,2,2,0.7,0.6
2025-03-14T0000,1341A,113.0014,28.1944,长沙市,火车新站,,13,10,49,9,49,35,,66,36,19,15,5,5,0.8,0.7
2025-03-14T0000,1342A,112.9844,28.1178,长沙市,天心区环保局,,15,15,52,10,37,34,,65,38,29,23,2,2,0.7,0.7
2025-03-14T0000,1343A,112.8908,28.1308,长沙市,湖南中医药大学,,18,18,51,12,51,42,,66,40,12,11,2,2,0.5,0.4
2025-03-14T0000,1344A,112.9581,28.3611,长沙市,沙坪,,28,28,57,9,29,39,,60,38,14,11,5,5,0.9,0.9
2025-03-14T0000,1727A,113.1147,36.1547,长治市,清华站,颗粒物(PM10),87,123,116,61,47,100,,116,108,17,20,9,9,1.0,0.9
2025-03-14T0000,1730A,113.0886,36.2125,长治市,审计局,细颗粒物(PM2.5),89,116,116,66,53,116,,121,115,16,24,9,10,0.7,0.7
2025-03-14T0000,1731A,113.0844,36.1856,长治市,长治八中,细颗粒物(PM2.5),105,148,151,79,60,115,,123,118,14,20,12,10,0.9,0.6
2025-03-14T0000,2845A,113.1569,36.1911,长治市,德盛苑,颗粒物(PM10),81,112,113,56,46,108,,119,113,15,14,8,7,0.9,1
2025-03-14T0000,3568A,113.06,36.0464,长治市,向阳小学,"颗粒物(PM10),细颗粒物(PM2.5)",97,144,146,72,59,96,,117,109,19,16,8,11,0.8,0.6
2025-03-14T0000,3569A,112.8792,36.3144,长治市,屯留一中,细颗粒物(PM2.5),122,140,133,92,56,102,,122,112,24,30,8,10,0.5,0.5
2025-03-14T0000,4189A,113.1131,36.19948,长治市,英华南巷50号,细颗粒物(PM2.5),92,129,121,68,49,117,,129,123,14,21,11,15,0.7,0.8
2025-03-14T0000,4190A,113.2367,36.3344,长治市,学府街1号,颗粒物(PM10),95,139,149,65,60,61,,125,100,51,36,4,5,0.8,0.8
2025-03-14T0000,1854A,111.6975,28.9703,常德市,市二中,细颗粒物(PM2.5),77,78,78,56,56,48,,61,48,14,19,4,4,0.8,0.7
2025-03-14T0000,1857A,111.7158,29.1456,常德市,白鹤山,,,,,,,,,,,,,,,,
2025-03-14T0000,3138A,111.7153,29.0289,常德市,武陵区永安,细颗粒物(PM2.5),65,64,82,47,49,49,,65,57,13,16,2,3,0.6,0.6
2025-03-14T0000,3139A,111.6892,28.9881,常德市,鼎城区玉霞,颗粒物(PM10),71,91,96,46,45,50,,57,44,18,24,3,4,0.7,0.7
2025-03-14T0000,3140A,111.6625,29.0531,常德市,武陵区长庚,细颗粒物(PM2.5),64,65,81,46,45,49,,67,60,11,13,3,5,0.7,0.7
2025-03-14T0000,1196A,119.9633,31.762,常州市,市监测站,,38,38,47,21,31,57,,70,60,17,22,10,9,0.7,0.7
2025-03-14T0000,1200A,119.9468,31.7069,常州市,武进监测站,,43,43,48,18,30,64,,66,56,28,33,9,10,0.6,0.7
2025-03-14T0000,1201A,119.9255,31.9087,常州市,安家,,39,39,45,16,26,64,,60,55,26,32,9,9,0.6,0.8
2025-03-14T0000,3002A,119.9805,31.8174,常州市,行政中心,,38,38,44,14,29,52,,64,49,29,29,3,10,0.5,0.6
2025-03-14T0000,3003A,120.0522,31.7748,常州市,经开区,,,,57,58,32,,,71,,36,35,9,7,0.7,0.6
2025-03-14T0000,3010A,119.9025,31.7964,常州市,钟楼,,40,40,46,18,28,56,,68,58,28,27,8,7,0.8,0.8
2025-03-14T0000,3429A,119.8598,31.7066,常州市,武进经发区,,42,42,44,14,24,66,,69,60,32,35,7,7,0.6,0.7
2025-03-14T0000,3430A,119.5826,31.7245,常州市,金坛城区,,42,42,43,16,22,41,,70,49,38,28,8,7,0.7,0.7
2025-03-14T0000,2220A,120.4318,41.5881,朝阳市,西梁,细颗粒物(PM2.5),54,51,52,38,29,27,,88,58,35,23,9,10,0.6,0.6
2025-03-14T0000,2221A,120.4521,41.5646,朝阳市,河畔小区,细颗粒物(PM2.5),57,56,38,40,18,48,,91,74,24,23,11,9,0.8,0.6
2025-03-14T0000,2222A,120.4176,41.5648,朝阳市,八里堡,细颗粒物(PM2.5),57,61,52,40,25,29,,87,60,33,27,13,11,0.9,0.7
2025-03-14T0000,2223A,120.3806,41.5969,朝阳市,农业园区,颗粒物(PM10),71,91,50,35,23,21,,90,54,47,27,16,11,0.6,0.5
2025-03-14T0000,1705A,116.6367,23.6719,潮州市,西园路,细颗粒物(PM2.5),53,,36,37,21,39,,96,74,18,15,5,4,0.3,0.3
2025-03-14T0000,3026A,116.6183,23.6608,潮州市,市政府,细颗粒物(PM2.5),54,39,50,38,30,43,,92,76,19,24,3,8,0.5,0.7
2025-03-14T0000,4036A,116.6461,23.6761,潮州市,金山,,49,,33,34,19,40,,100,74,18,16,9,6,0.6,0.7
2025-03-14T0000,2472A,113.0073,25.9061,郴州市,马头岭,,39,38,44,27,20,37,,48,42,8,11,7,7,1.3,0.9
2025-03-14T0000,2473A,113.0116,25.8226,郴州市,市职中,,42,31,37,29,34,40,,52,47,15,17,5,5,0.9,0.9
2025-03-14T0000,2475A,113.0383,25.8071,郴州市,市审计局,,50,36,36,35,34,36,,55,51,18,14,2,2,0.7,0.8
2025-03-14T0000,2476A,113.0348,25.7759,郴州市,市环保局,细颗粒物(PM2.5),52,43,40,36,35,31,,40,40,16,14,4,4,0.8,0.8
2025-03-14T0000,4252A,113.0138,25.8011,郴州市,好美居路49号,,48,36,40,33,39,36,,50,48,17,16,6,6,0.9,0.9
2025-03-14T0000,1431A,103.9728,30.7236,成都市,金泉两河,颗粒物(PM10),83,116,94,42,28,36,,66,44,34,29,2,2,0.6,0.5
2025-03-14T0000,1432A,104.176,30.6872,成都市,十里店,颗粒物(PM10),89,128,78,42,29,45,,71,53,36,29,2,2,0.7,0.6
2025-03-14T0000,1433A,104.079,30.5706,成都市,三瓦窑,颗粒物(PM10),77,103,77,38,24,43,,64,43,44,34,4,4,0.7,0.7
2025-03-14T0000,1434A,104.1114,30.63,成都市,沙河铺,颗粒物(PM10),73,95,72,50,30,26,,64,42,41,27,5,5,0.8,0.7
2025-03-14T0000,1437A,104.0786,30.6531,成都市,君平街,颗粒物(PM10),77,103,75,46,32,38,,68,49,48,31,6,6,0.7,0.6
2025-03-14T0000,1438A,103.613,31.0283,成都市,灵岩寺,,,,,,,,,,,,,,,,
2025-03-14T0000,2880A,104.0239,30.65639,成都市,大石西路,颗粒物(PM10),69,88,80,30,31,30,,63,42,48,31,5,5,0.8,0.7
2025-03-14T0000,3136A,104.2725,30.5589,成都市,龙泉驿区区政府,颗粒物(PM10),63,75,50,31,21,25,,63,44,41,20,4,4,0.6,0.6
2025-03-14T0000,3357A,104.0106,30.6931,成都市,金博路,颗粒物(PM10),69,88,78,23,23,43,,60,44,32,26,6,6,0.7,0.7
2025-03-14T0000,3359A,104.0578,30.5225,成都市,华阳,颗粒物(PM10),74,97,70,44,32,51,,59,49,33,31,6,5,0.8,0.7
2025-03-14T0000,3488A,104.3853,30.7453,成都市,青白江技师分院,颗粒物(PM10),53,55,50,35,25,58,,77,55,24,25,4,4,0.5,0.4
2025-03-14T0000,3489A,104.0789,30.4072,成都市,科学城,颗粒物(PM10),78,106,71,54,32,37,,69,47,31,26,5,4,0.7,0.6
2025-03-14T0000,4011A,103.8506,30.6947,成都市,光华大道三段,颗粒物(PM10),76,101,86,29,30,37,,71,54,39,29,4,4,0.7,0.7
2025-03-14T0000,4224A,104.2433,30.5353,成都市,鲸龙路1057号,颗粒物(PM10),79,108,71,48,29,36,,67,50,37,26,4,4,0.7,0.7
2025-03-14T0000,1062A,117.9531,40.9081,承德市,铁路,颗粒物(PM10),61,71,69,34,20,68,,85,75,16,25,8,9,0.4,0.5
2025-03-14T0000,1063A,117.9392,40.9763,承德市,中国银行,颗粒物(PM10),62,73,68,36,20,74,,91,82,9,18,5,6,0.4,0.5
2025-03-14T0000,1064A,117.9503,40.928,承德市,开发区,颗粒物(PM10),60,70,67,36,25,76,,94,85,15,27,7,8,0.4,0.6
2025-03-14T0000,1065A,117.8051,40.9655,承德市,文化中心,颗粒物(PM10),65,80,78,29,19,71,,90,83,16,24,6,7,0.4,0.5
2025-03-14T0000,1066A,117.9268,41.0026,承德市,离宫,细颗粒物(PM2.5),58,58,60,41,25,58,,81,69,11,17,6,8,0.3,0.5
2025-03-14T0000,2314A,117.47,30.6618,池州市,池州学院,,40,40,33,25,26,51,,67,58,19,22,5,5,0.5,0.7
2025-03-14T0000,3237A,117.4918,30.6617,池州市,展览馆,,36,33,30,25,25,52,,72,58,15,18,5,4,0.5,0.7
2025-03-14T0000,3333A,117.5627,30.695,池州市,第八中学,,28,28,27,19,21,48,,71,60,19,17,4,4,0.4,0.6
2025-03-14T0000,3334A,117.5038,30.6243,池州市,第十二中学,,30,30,24,19,19,48,,79,61,21,14,3,2,0.5,0.6
2025-03-14T0000,1744A,118.9233,42.2816,赤峰市,松山一中,,47,47,43,9,12,15,,75,49,61,34,9,10,0.9,0.8
2025-03-14T0000,1745A,118.9576,42.2728,赤峰市,哈达街,,32,32,37,15,21,35,,69,61,40,28,15,13,0.8,0.7
2025-03-14T0000,1746A,118.8788,42.2554,赤峰市,天义路,,48,48,36,32,25,14,,62,46,54,30,12,11,0.8,0.7
2025-03-14T0000,3058A,119.2658,42.0353,赤峰市,银河街,颗粒物(PM10),58,66,60,28,32,43,,70,,27,29,20,22,0.6,0.7
2025-03-14T0000,3286A,118.9359,42.3147,赤峰市,桥北物流园区,细颗粒物(PM2.5),57,,34,40,24,2,,67,42,58,29,11,9,0.7,0.5
2025-03-14T0000,2521A,107.3476,22.4136,崇左市,市环保局江州分局,,39,28,36,27,21,28,,44,38,11,16,5,6,0.5,0.6
2025-03-14T0000,4256A,107.3750,22.3736,崇左市,石景林东路7号,,29,20,34,20,21,26,,46,39,12,18,3,4,0.5,0.5
2025-03-14T0000,2298A,118.3093,32.3153,滁州市,老年大学,,37,37,84,17,67,78,,84,66,20,24,6,7,0.4,0.6
2025-03-14T0000,2299A,118.3244,32.2786,滁州市,人大宾馆,,38,38,83,12,62,75,,78,64,21,30,7,8,0.4,0.6
2025-03-14T0000,3207A,118.3118,32.3038,滁州市,市政府原办公楼,,33,33,78,23,64,78,,81,64,13,21,4,5,0.2,0.4
2025-03-14T0000,3331A,118.3267,32.2634,滁州市,图书馆,,41,41,88,11,55,76,,79,65,18,23,6,6,0.3,0.5
2025-03-14T0000,2605A,101.5482,25.0441,楚雄彝族自治州,州环境监测站,细颗粒物(PM2.5),98,80,70,73,58,123,,152,139,17,20,8,8,0.9,0.8
2025-03-14T0000,2606A,101.538,25.0492,楚雄彝族自治州,市经济开发区,细颗粒物(PM2.5),92,90,74,68,58,133,,146,134,14,21,6,8,0.9,0.8
2025-03-14T0000,2548A,107.5277,31.2827,达州市,达州职业技术学院,,,,37,,14,,,45,34,,22,,9,,0.2
2025-03-14T0000,2549A,107.5086,31.2186,达州市,市环境监测站,,46,46,37,14,13,13,,38,31,38,31,11,8,0.7,0.6
2025-03-14T0000,2550A,107.4988,31.2132,达州市,凤凰小区,,36,36,31,22,16,20,,46,35,36,30,15,10,0.4,0.4
2025-03-14T0000,2551A,107.5082,31.1986,达州市,达县机关宾馆,,36,36,32,16,17,19,,46,32,34,30,14,9,0.6,0.7
2025-03-14T0000,2552A,107.4644,31.2124,达州市,市政中心,,,,40,,13,,,42,,,30,,5,,0.5
2025-03-14T0000,2614A,100.1542,25.7054,大理白族自治州,大理市环境监测站,"颗粒物(PM10),细颗粒物(PM2.5)",54,58,72,38,55,125,,144,132,6,9,7,8,0.6,0.7
2025-03-14T0000,2615A,100.2171,25.5811,大理白族自治州,大理古城,细颗粒物(PM2.5),54,49,64,38,51,117,,133,122,5,10,6,7,0.5,0.6
2025-03-14T0000,1109A,121.612,38.9741,大连市,甘井子,,49,49,60,9,18,70,,87,72,24,39,5,8,0.5,0.6
2025-03-14T0000,1110A,121.565,38.9511,大连市,周水子,,48,48,56,13,20,54,,79,67,34,37,10,10,0.4,0.5
2025-03-14T0000,1111A,121.5637,38.8845,大连市,星海三站,,29,29,45,3,14,81,,91,79,4,14,5,8,0.5,0.7
2025-03-14T0000,1112A,121.6302,38.9117,大连市,青泥洼桥,,25,20,39,6,13,80,,91,82,6,17,7,9,0.1,0.3
2025-03-14T0000,1113A,121.6251,38.8638,大连市,傅家庄,,29,29,47,3,10,84,,89,88,8,15,6,8,0.4,0.6
2025-03-14T0000,1114A,121.5213,38.8661,大连市,七贤岭,,33,33,43,9,12,68,,83,74,12,15,6,6,0.6,0.7
2025-03-14T0000,1115A,121.2529,38.8061,大连市,旅顺,,25,25,49,3,17,77,,78,77,11,22,5,6,0.4,0.5
2025-03-14T0000,1116A,121.7485,39.1311,大连市,金州,,37,37,50,10,12,75,,90,81,15,19,9,10,0.5,0.5
2025-03-14T0000,1117A,121.7811,39.0496,大连市,开发区,,42,42,58,11,18,68,,80,70,24,36,10,13,0.6,0.7
2025-03-14T0000,1118A,121.9762,39.0631,大连市,双D港,,37,37,66,17,15,81,,87,82,14,17,12,12,0.7,0.8
2025-03-14T0000,1789A,124.81117,46.03138,大庆市,大同区,细颗粒物(PM2.5),60,57,25,43,20,23,,84,51,50,14,5,3,0.9,0.4
2025-03-14T0000,1790A,125.129,46.533,大庆市,龙凤区,,49,49,31,26,16,26,,81,53,52,18,7,6,0.8,0.5
2025-03-14T0000,1791A,124.902,46.408,大庆市,红岗区,,49,39,22,34,21,14,,96,55,61,12,5,5,0.9,0.4
2025-03-14T0000,1792A,125.153,46.586,大庆市,萨尔图区,,44,44,25,17,10,22,,78,59,63,17,4,5,1.2,0.4
2025-03-14T0000,1793A,124.9042,46.6215,大庆市,让胡路区,,46,41,22,32,21,26,,82,57,51,15,7,7,0.9,0.5
2025-03-14T0000,3481A,125.141,46.634,大庆市,萨区政府监测点,,20,17,21,14,12,41,,87,73,39,10,5,5,0.9,0.5
2025-03-14T0000,1721A,113.3819,40.1097,大同市,果树场,,46,46,94,26,49,59,,89,70,12,34,9,15,0.4,1
2025-03-14T0000,1723A,113.2994,40.0758,大同市,云冈宾馆,,41,41,103,7,36,66,,94,77,14,35,7,14,0.4,1.1
2025-03-14T0000,1724A,113.3444,40.0917,大同市,大同大学,,46,46,95,15,38,57,,88,71,16,30,9,24,0.4,0.8
2025-03-14T0000,1725A,113.2661,40.1269,大同市,安家小村,,48,48,127,3,41,68,,87,78,9,32,8,17,0.4,1.8
2025-03-14T0000,1726A,113.2711,40.0844,大同市,教育学院,颗粒物(PM10),51,52,129,17,47,66,,88,78,17,42,7,16,0.3,1.5
2025-03-14T0000,3282A,113.3397,40.0597,大同市,大同市卫生学校,,47,47,106,11,42,61,,91,76,16,32,8,17,0.9,0.9
2025-03-14T0000,3565A,113.1367,40.1122,大同市,云冈站,,34,34,113,10,38,67,,83,76,12,30,10,23,0.5,0.8
2025-03-14T0000,3566A,113.1186,40.2556,大同市,图书馆,,50,50,89,12,32,66,,83,73,10,15,11,14,0.8,0.7
2025-03-14T0000,3567A,113.5931,40.0461,大同市,区一中,颗粒物(PM10),93,135,138,35,45,67,,98,84,22,23,22,22,0.6,0.6
2025-03-14T0000,4199A,113.2798,40.0997,大同市,魏都大道141号,颗粒物(PM10),51,51,130,12,44,68,,88,77,10,37,11,19,0.5,1.6
2025-03-14T0000,2269A,124.1069,50.4097,大兴安岭地区,科技局,,30,,22,21,19,72,,81,79,4,3,5,6,0.4,0.4
2025-03-14T0000,3663A,124.1164,50.4278,大兴安岭地区,红旗社区,,29,22,8,20,9,54,,84,76,12,5,13,5,0.4,0.3
2025-03-14T0000,1600A,124.3303,40.0625,丹东市,江湾东路,颗粒物(PM10),55,60,96,22,26,67,,93,73,17,17,12,13,0.9,1
2025-03-14T0000,1601A,124.4256,40.1503,丹东市,临江后街,,26,26,67,8,18,77,,91,67,7,19,8,10,0.5,0.7
2025-03-14T0000,1602A,124.3933,40.1461,丹东市,元宝山,,34,34,58,15,14,62,,86,74,17,10,12,9,0.8,0.7
2025-03-14T0000,1603A,124.3633,40.1092,丹东市,民主桥,,42,42,76,13,16,67,,83,69,14,19,8,10,0.8,0.9
2025-03-14T0000,3541A,109.5726,19.5167,儋州市,第一中学子站,,11,11,20,6,11,22,,37,30,5,5,3,4,0.5,0.6
2025-03-14T0000,3542A,109.5567,19.5187,儋州市,东坡学校子站,,34,34,25,10,13,18,,42,33,10,7,5,6,0.6,0.5
2025-03-14T0000,2616A,98.5842,24.428,德宏傣族景颇族自治州,德宏州监测站,细颗粒物(PM2.5),85,89,119,63,86,54,,126,94,35,26,7,10,0.9,1
2025-03-14T0000,3677A,98.5881,24.4368,德宏傣族景颇族自治州,芒市人民政府综合楼,颗粒物(PM10),80,110,142,57,85,92,,150,120,12,18,8,11,0.7,0.7
2025-03-14T0000,1901A,104.4239,31.1208,德阳市,东山公园,,47,47,55,27,30,54,,82,69,14,14,3,3,0.7,0.6
2025-03-14T0000,1902A,104.3826,31.1317,德阳市,西小区,颗粒物(PM10),56,61,69,29,34,45,,82,63,34,21,3,4,0.6,0.6
2025-03-14T0000,1904A,104.3553,31.1091,德阳市,耐火材料厂,颗粒物(PM10),64,78,67,38,35,20,,81,59,56,24,6,6,0.5,0.4
2025-03-14T0000,3639A,104.4019,31.1244,德阳市,市教育局,颗粒物(PM10),51,52,59,33,32,52,,83,60,30,21,4,5,0.7,0.6
2025-03-14T0000,1622A,116.3032,37.4674,德州市,儿童乐园,颗粒物(PM10),78,105,181,51,56,71,,118,93,33,34,10,10,0.8,0.8
2025-03-14T0000,1624A,116.2991,37.4451,德州市,监理站,颗粒物(PM10),73,95,176,46,58,71,,116,91,29,32,15,17,0.7,0.7
2025-03-14T0000,3066A,116.2721,37.4379,德州市,九衢泉纯净水厂,颗粒物(PM10),86,122,172,53,55,55,,112,80,44,42,13,12,0.7,0.7
2025-03-14T0000,3371A,116.3728,37.4403,德州市,开发区人民医院,颗粒物(PM10),76,102,179,44,53,48,,122,90,54,36,13,15,0.5,0.6
2025-03-14T0000,3372A,116.3572,37.4094,德州市,太阳城中学,颗粒物(PM10),74,97,156,48,59,60,,116,80,33,39,7,10,0.5,0.6
2025-03-14T0000,3511A,116.5652,37.3319,德州市,陵城艺术中心,颗粒物(PM10),59,68,166,27,54,60,,110,80,31,39,8,13,0.5,0.8
2025-03-14T0000,2621A,99.7056,27.8317,迪庆藏族自治州,迪庆州站,,35,16,35,9,24,112,,112,106,8,12,8,8,0.5,0.6
2025-03-14T0000,3180A,99.7136,27.8094,迪庆藏族自治州,质量技术监督局,,37,,39,14,25,117,,113,109,6,13,9,8,0.7,0.7
2025-03-14T0000,4257A,104.6092,35.5962,定西市,将台街,颗粒物(PM10),69,87,164,41,45,88,,104,98,11,13,7,10,0.3,0.7
2025-03-14T0000,4309A,104.6159,35.5701,定西市,正龙路62号,颗粒物(PM10),82,114,178,50,51,85,,107,97,9,10,5,7,0.3,1.1
2025-03-14T0000,1389A,113.7547,23.0494,东莞市,莞城梨川,,26,26,28,13,16,19,,92,44,28,24,5,5,0.5,0.6
2025-03-14T0000,1390A,113.7944,23.0128,东莞市,东城石井,,26,26,27,11,13,19,,95,43,25,22,5,5,0.5,0.6
2025-03-14T0000,1391A,113.7383,22.9658,东莞市,南城西平,,27,27,26,8,11,22,,79,39,32,29,4,5,0.6,0.6
2025-03-14T0000,3319A,113.7338,23.0381,东莞市,万江金泰,,25,25,33,10,12,27,,104,50,20,20,5,5,0.6,0.7
2025-03-14T0000,3626A,113.7533,23.0202,东莞市,南城元岭,,23,23,28,10,12,14,,82,39,27,22,4,4,0.6,0.7
2025-03-14T0000,3627A,113.7875,23.0457,东莞市,东城主山,,24,24,30,9,11,20,,102,48,31,26,7,7,0.6,0.6
2025-03-14T0000,1666A,118.6614,37.4309,东营市,市环保局,,46,46,55,9,13,49,,99,74,33,30,5,7,0.5,0.8
2025-03-14T0000,3036A,118.6904,37.4338,东营市,开发区管委会,颗粒物(PM10),51,52,58,19,15,53,,98,76,40,33,7,7,0.6,0.7
2025-03-14T0000,3365A,118.5719,37.565,东营市,垦利区民丰路,,34,34,52,9,11,57,,101,77,32,30,7,6,0.5,0.6
2025-03-14T0000,3498A,118.5055,37.8612,东营市,河口城区,,41,41,73,3,19,57,,114,79,28,33,7,5,0.5,0.5
2025-03-14T0000,3646A,118.4978,37.4623,东营市,胜利站,,41,41,64,9,13,56,,98,70,34,38,10,10,0.6,0.6
2025-03-14T0000,3734A,118.35,37.26,东营市,理想之城,,41,41,56,24,18,37,,108,68,45,39,7,8,0.4,0.4
2025-03-14T0000,1591A,110.0023,39.8129,鄂尔多斯市,综合楼,颗粒物(PM10),102,153,105,53,25,23,,88,57,70,31,19,12,0.9,0.5
2025-03-14T0000,1592A,109.9486,39.8261,鄂尔多斯市,巴音孟克林场办事处,颗粒物(PM10),87,124,97,56,28,48,,89,63,41,26,16,12,0.8,0.4
2025-03-14T0000,1593A,109.7736,39.5986,鄂尔多斯市,康泽苑,颗粒物(PM10),75,100,98,31,24,34,,95,66,50,22,12,11,1.0,0.5
2025-03-14T0000,1594A,109.8119,39.5989,鄂尔多斯市,华泰汽车城,颗粒物(PM10),80,110,96,36,28,20,,92,64,62,26,10,7,0.8,0.4
2025-03-14T0000,1595A,109.9734,39.7884,鄂尔多斯市,奥林花园,颗粒物(PM10),95,139,101,58,27,43,,89,69,48,30,17,10,0.9,0.5
2025-03-14T0000,2436A,114.8938,30.3994,鄂州市,市政府,细颗粒物(PM2.5),68,68,61,49,46,36,,66,48,24,25,3,4,0.5,0.5
2025-03-14T0000,2437A,114.8989,30.3714,鄂州市,赵家坝,细颗粒物(PM2.5),73,74,62,53,44,33,,70,52,16,15,3,3,0.9,0.9
2025-03-14T0000,3654A,114.8094,30.4089,鄂州市,精准医疗中心,细颗粒物(PM2.5),67,66,58,48,49,28,,58,41,13,18,4,4,1.0,1.2
2025-03-14T0000,2454A,109.4978,30.2981,恩施土家族苗族自治州,湖北民院,细颗粒物(PM2.5),62,61,53,44,38,13,,44,27,26,24,3,3,0.4,0.5
2025-03-14T0000,2455A,109.4707,30.2798,恩施土家族苗族自治州,州电力总公司,颗粒物(PM10),57,63,55,37,37,8,,38,22,31,24,4,5,0.4,0.3
2025-03-14T0000,3549A,109.5061,30.3772,恩施土家族苗族自治州,龙凤新区,"颗粒物(PM10),细颗粒物(PM2.5)",53,55,49,37,30,11,,60,33,18,13,7,6,0.5,0.5
2025-03-14T0000,2499A,108.3411,21.6158,防城港市,沙万,,30,29,38,21,20,30,,41,36,19,22,6,9,0.6,0.7
2025-03-14T0000,2500A,108.3514,21.7731,防城港市,防城档案局,,48,48,33,30,22,10,,61,53,29,20,7,7,0.5,0.6
2025-03-14T0000,2501A,108.3506,21.6414,防城港市,大海花园,,30,30,35,18,18,53,,56,55,10,16,4,6,0.7,0.9
2025-03-14T0000,1371A,113.1294,23.0067,佛山市,湾梁,,36,36,36,15,14,17,,97,59,31,24,8,7,0.7,0.5
2025-03-14T0000,1372A,113.1083,23.0478,佛山市,华材职中,,34,34,32,17,14,20,,123,75,33,26,6,6,0.6,0.5
2025-03-14T0000,1373A,113.144,23.0453,佛山市,南海气象局,,34,34,36,20,16,18,,110,63,30,24,7,6,0.6,0.5
2025-03-14T0000,1374A,113.2881,22.8094,佛山市,顺德苏岗,,32,32,47,14,16,17,,78,41,23,28,6,5,0.6,0.6
2025-03-14T0000,1376A,112.8383,22.8678,佛山市,高明孔堂,,20,17,28,14,18,29,,78,56,12,10,5,4,0.5,0.5
2025-03-14T0000,1377A,112.8836,23.1588,佛山市,三水监测站,,41,41,34,25,23,4,,86,33,56,43,2,2,0.5,0.5
2025-03-14T0000,1378A,112.867,23.185,佛山市,三水云东海,,50,50,41,19,19,10,,106,50,52,37,3,2,0.5,0.5
2025-03-14T0000,3625A,113.2544,22.7642,佛山市,容桂街道办,,,,,,,,,,,,,,,,
2025-03-14T0000,1280A,119.3903,26.0543,福州市,鼓山,,,,26,,20,,,102,,,12,,2,,0.4
2025-03-14T0000,1282A,119.2681,26.0504,福州市,师大,,26,11,35,3,26,83,,103,92,11,16,3,4,0.2,0.4
2025-03-14T0000,1283A,119.2984,26.1028,福州市,五四北路,,24,14,33,8,26,74,,98,89,19,25,3,4,0.4,0.5
2025-03-14T0000,1284A,119.2648,26.0768,福州市,杨桥西路,,26,8,36,3,25,83,,102,90,14,20,3,4,0.3,0.4
2025-03-14T0000,1285A,119.317,26.0746,福州市,紫阳,,25,11,37,7,19,80,,90,82,18,31,3,4,0.2,0.3
2025-03-14T0000,3048A,119.5799,26.0936,福州市,九龙,,27,14,18,3,12,85,,104,101,8,9,3,3,0.4,0.4
2025-03-14T0000,3526A,119.5189,25.9664,福州市,吴航,,26,17,28,10,16,82,,109,106,12,15,3,4,0.4,0.4
2025-03-14T0000,1755A,123.7977,41.8491,抚顺市,望花区,细颗粒物(PM2.5),97,90,63,72,26,18,,94,62,55,27,4,3,1.1,0.7
2025-03-14T0000,1756A,123.9161,41.8822,抚顺市,顺城区,"颗粒物(PM10),细颗粒物(PM2.5)",75,99,60,55,25,28,,95,52,41,30,9,8,0.8,0.5
2025-03-14T0000,1757A,124.0436,41.8611,抚顺市,东洲区,细颗粒物(PM2.5),115,111,64,87,30,47,,92,67,16,16,5,7,0.8,0.6
2025-03-14T0000,1758A,123.9247,41.8642,抚顺市,新抚区,细颗粒物(PM2.5),113,120,62,85,25,12,,90,53,57,25,4,5,0.9,0.6
2025-03-14T0000,1759A,124.0972,41.8961,抚顺市,大伙房水库,细颗粒物(PM2.5),79,70,54,58,30,47,,102,71,29,15,7,8,0.7,0.5
2025-03-14T0000,1760A,123.7086,41.8391,抚顺市,沈抚新城,细颗粒物(PM2.5),72,76,59,52,25,17,,93,51,55,33,3,5,0.8,0.6
2025-03-14T0000,2376A,116.2127,28.0814,抚州市,桐源党溪,,32,32,35,19,22,36,,60,45,2,3,2,2,0.5,0.6
2025-03-14T0000,2377A,116.3544,27.9831,抚州市,市站,,21,21,27,10,17,31,,55,34,9,14,8,7,1.1,0.9
2025-03-14T0000,2378A,116.3565,27.963,抚州市,血防站,,29,29,31,14,18,37,,57,46,6,9,3,10,0.7,0.7
2025-03-14T0000,2379A,116.3564,28.0007,抚州市,采茶剧团,,23,22,26,16,19,31,,51,40,6,7,5,5,1.0,1
2025-03-14T0000,2380A,116.385,27.9647,抚州市,医学分院,,16,16,25,8,16,31,,50,39,2,2,5,4,0.9,0.9
2025-03-14T0000,2207A,121.6094,41.998,阜新市,工业园区,颗粒物(PM10),119,187,88,86,44,12,,88,48,42,28,9,11,1.2,0.6
2025-03-14T0000,2208A,121.6697,42.0279,阜新市,长青街,细颗粒物(PM2.5),99,,36,74,26,5,,94,50,57,28,13,8,1.6,0.6
2025-03-14T0000,2209A,121.6673,42.0705,阜新市,农业园区,,31,31,34,17,12,74,,93,74,13,14,13,18,0.3,0.3
2025-03-14T0000,2210A,121.6717,42.0224,阜新市,东苑,细颗粒物(PM2.5),72,84,54,52,26,36,,90,56,52,28,22,17,3.2,0.8
2025-03-14T0000,2211A,121.6506,42.0498,阜新市,玉龙新城,颗粒物(PM10),64,77,59,36,29,5,,88,39,53,31,10,7,0.8,0.5
2025-03-14T0000,2301A,115.8277,32.8929,阜阳市,市监测站,,40,31,123,28,96,60,,86,66,16,19,6,6,0.4,0.6
2025-03-14T0000,2303A,115.8554,32.8605,阜阳市,开发区,,40,33,129,28,92,66,,87,66,15,24,6,6,0.5,0.6
2025-03-14T0000,2875A,115.784,32.8892,阜阳市,阜阳职业技术学院,,39,,124,27,91,60,,82,64,13,17,7,7,0.4,0.6
2025-03-14T0000,3468A,115.7901,32.8613,阜阳市,市规划展馆,,35,35,120,15,88,67,,95,72,13,18,7,7,0.3,0.6
2025-03-14T0000,3469A,115.836,32.9183,阜阳市,枣园社区,,29,29,136,13,90,70,,91,70,11,18,8,7,0.4,0.6
2025-03-14T0000,2669A,102.9099,34.9841,甘南藏族自治州,州政府,,47,47,48,31,22,78,,86,83,7,11,5,7,0.3,0.4
2025-03-14T0000,3380A,102.8914,34.9617,甘南藏族自治州,甘肃民族师范学院,颗粒物(PM10),59,67,47,14,19,92,,96,93,2,6,7,8,0.3,0.4
2025-03-14T0000,2570A,101.9603,30.0475,甘孜藏族自治州,水桥子,,13,11,15,7,9,40,,65,56,13,14,3,3,0.3,0.5
2025-03-14T0000,3065A,101.9533,29.9972,甘孜藏族自治州,州环保局,,15,15,15,8,6,46,,77,64,12,12,4,4,0.4,0.4
2025-03-14T0000,3414A,115.8347,28.932,赣江新区,桑海产业园,,32,24,47,22,37,25,,77,35,23,18,8,9,0.6,0.5
2025-03-14T0000,2362A,114.9017,25.9149,赣州市,通天岩,,27,27,41,10,8,46,,98,65,6,9,9,10,1.0,0.9
2025-03-14T0000,2363A,114.9367,25.8664,赣州市,地委,,25,25,38,14,25,37,,69,46,9,9,2,3,1.2,1.2
2025-03-14T0000,2364A,114.9461,25.8481,赣州市,气象台,,34,34,43,14,24,41,,79,51,14,14,6,8,0.7,0.8
2025-03-14T0000,2365A,114.9322,25.8333,赣州市,市图书馆,,28,22,37,19,28,40,,73,47,11,13,4,4,1.1,1.2
2025-03-14T0000,2366A,114.8905,25.8471,赣州市,华坚鞋城,,25,25,41,13,26,42,,54,,14,14,5,5,0.7,0.7
2025-03-14T0000,3109A,115.0093,25.8613,赣州市,赣县区卫计委,,23,18,33,16,26,35,,74,48,5,8,4,4,0.7,0.7
2025-03-14T0000,2683A,106.2319,36.1417,固原市,马园,颗粒物(PM10),99,147,128,28,34,78,,99,88,12,21,5,5,0.6,0.6
2025-03-14T0000,2684A,106.2792,36.0022,固原市,监测站,颗粒物(PM10),81,112,103,30,32,88,,115,109,10,11,6,6,0.3,0.4
2025-03-14T0000,2685A,106.2375,36.0211,固原市,新区,颗粒物(PM10),87,124,109,27,30,87,,116,109,7,10,6,6,0.4,0.4
2025-03-14T0000,3522A,106.2177,35.9959,固原市,原州区十五小,颗粒物(PM10),75,99,123,29,35,81,,111,104,13,14,8,7,0.4,0.3
2025-03-14T0000,2543A,106.6308,30.5278,广安市,小平旧居,,,,,,,,,,,,,,,,
2025-03-14T0000,2544A,106.6303,30.4576,广安市,市委,细颗粒物(PM2.5),67,58,48,48,35,42,,55,53,14,14,4,3,0.6,0.5
2025-03-14T0000,2545A,106.6271,30.4663,广安市,友谊中学,细颗粒物(PM2.5),68,72,49,49,36,35,,53,47,22,17,2,3,0.8,0.6
2025-03-14T0000,2547A,106.6388,30.4551,广安市,广电花园,细颗粒物(PM2.5),70,61,45,51,36,34,,50,46,20,18,3,3,0.7,0.6
2025-03-14T0000,2902A,106.6351,30.4865,广安市,北辰小学,细颗粒物(PM2.5),70,57,45,51,38,40,,53,50,16,14,4,4,0.8,0.7
2025-03-14T0000,2523A,105.8945,32.4535,广元市,黑石坡,,47,47,58,22,23,46,,64,56,12,13,8,8,0.5,0.5
2025-03-14T0000,2524A,105.821,32.4444,广元市,老城,颗粒物(PM10),51,51,56,17,21,23,,74,52,40,18,1,2,0.6,0.6
2025-03-14T0000,2526A,105.8628,32.4287,广元市,监测站,,39,39,47,23,23,31,,76,58,28,18,5,5,0.6,0.9
2025-03-14T0000,3617A,105.8047,32.4166,广元市,经开区,,49,48,56,34,30,34,,69,60,29,19,4,2,0.7,0.7
2025-03-14T0000,1345A,113.2347,23.1423,广州市,广雅中学,,49,49,36,20,15,8,,106,54,50,33,4,4,0.6,0.5
2025-03-14T0000,1346A,113.2612,23.105,广州市,市五中,,32,20,49,8,24,2,,73,,64,38,2,3,0.5,0.4
2025-03-14T0000,1348A,113.3478,23.0916,广州市,广东商学院,,45,45,35,22,19,2,,100,44,54,36,4,4,0.6,0.6
2025-03-14T0000,1349A,113.4332,23.1047,广州市,市八十六中,,41,41,37,13,12,4,,56,19,60,50,3,4,0.4,0.4
2025-03-14T0000,1350A,113.3505,22.9483,广州市,番禺中学,,44,44,34,17,16,2,,109,44,58,36,7,7,0.6,0.5
2025-03-14T0000,1351A,113.2146,23.3916,广州市,花都师范,颗粒物(PM10),56,62,46,27,23,4,,118,,60,35,4,4,0.6,0.5
2025-03-14T0000,1352A,113.2597,23.1331,广州市,市监测站,,47,47,35,20,15,2,,100,49,61,37,6,6,0.7,0.6
2025-03-14T0000,1353A,113.5618,23.312,广州市,九龙镇镇龙,,35,35,37,14,18,4,,107,56,54,39,7,6,0.5,0.5
2025-03-14T0000,1354A,113.2765,23.1544,广州市,麓湖,,44,44,33,17,15,5,,112,61,58,35,3,4,0.4,0.4
2025-03-14T0000,1355A,113.443,23.3035,广州市,帽峰山森林公园,,37,37,26,17,14,3,,108,65,64,32,6,5,0.7,0.7
2025-03-14T0000,2846A,113.3221,23.1322,广州市,体育西,,50,50,39,20,18,2,,106,44,50,40,4,4,0.5,0.5
2025-03-14T0000,3298A,113.5717,23.5491,广州市,从化街口,,43,43,34,22,18,26,,121,88,41,27,9,7,0.6,0.6
2025-03-14T0000,3299A,113.3472,23.3692,广州市,白云竹料,颗粒物(PM10),52,54,41,23,18,8,,101,68,57,33,7,7,0.7,0.6
2025-03-14T0000,3300A,113.2981,23.237,广州市,白云嘉禾,,47,47,40,20,17,3,,108,61,67,43,4,4,0.5,0.5
2025-03-14T0000,3301A,113.4256,23.1716,广州市,黄埔科学城,,47,47,39,17,16,1,,99,44,54,39,8,6,0.3,0.3
2025-03-14T0000,3302A,113.3942,23.0483,广州市,番禺大学城,,41,41,37,16,14,4,,100,41,57,37,5,5,0.2,0.2
2025-03-14T0000,3303A,113.4922,22.8168,广州市,南沙黄阁,,26,23,33,18,15,26,,72,40,27,26,5,5,0.6,0.6
2025-03-14T0000,3304A,113.5342,22.7896,广州市,南沙街,,25,25,31,16,13,30,,64,44,25,26,4,5,0.5,0.5
2025-03-14T0000,3443A,113.2902,23.5544,广州市,花都梯面,颗粒物(PM10),54,58,39,26,19,9,,105,80,59,32,6,5,0.7,0.7
2025-03-14T0000,3445A,113.7858,23.7478,广州市,从化良口,,29,29,28,14,16,57,,94,90,20,19,6,6,0.7,0.7
2025-03-14T0000,3446A,113.8051,23.2614,广州市,增城荔城,,34,34,43,14,19,4,,138,67,39,27,7,7,0.4,0.4
2025-03-14T0000,2505A,109.568,23.1478,贵港市,德智高中,,,,,,,,,,,,,,,,
2025-03-14T0000,2506A,109.6047,23.0666,贵港市,江南子站,,46,39,39,32,29,1,,42,15,40,31,6,6,0.7,0.7
2025-03-14T0000,2507A,109.6014,23.0948,贵港市,贵城子站,细颗粒物(PM2.5),58,58,50,41,32,4,,39,16,38,29,6,6,0.7,0.7
2025-03-14T0000,2508A,109.5669,23.1065,贵港市,荷城子站,,49,,34,34,24,5,,35,11,40,31,8,8,0.9,0.6
2025-03-14T0000,3405A,109.5886,23.1172,贵港市,新世纪学校,细颗粒物(PM2.5),52,36,39,36,30,2,,34,10,38,36,5,5,0.7,0.6
2025-03-14T0000,1439A,106.6899,26.5998,贵阳市,马鞍山,,15,9,18,3,12,46,,56,45,9,11,3,3,0.4,0.4
2025-03-14T0000,1441A,106.6243,26.6266,贵阳市,鉴湖路,,19,19,27,3,14,40,,44,43,12,13,10,10,0.5,0.5
2025-03-14T0000,1442A,106.7487,26.6343,贵阳市,燕子冲,,19,12,18,7,18,59,,64,57,9,11,4,5,0.4,0.5
2025-03-14T0000,1443A,106.6555,26.4365,贵阳市,碧云窝,,15,14,31,3,13,48,,47,47,12,18,7,8,0.5,0.6
2025-03-14T0000,1445A,106.7109,26.6027,贵阳市,红边门,,19,,25,12,20,58,,58,52,12,16,3,4,0.3,0.4
2025-03-14T0000,1446A,106.7164,26.5699,贵阳市,新华路,,19,14,23,9,15,58,,62,56,8,13,9,10,0.5,0.5
2025-03-14T0000,1447A,106.674,26.5424,贵阳市,太慈桥,,16,14,23,7,15,50,,56,52,12,17,6,7,0.5,0.5
2025-03-14T0000,1552A,106.805,26.3003,贵阳市,桐木岭,,22,22,24,14,16,38,,40,40,9,11,11,14,0.2,0.5
2025-03-14T0000,4230A,106.6882,26.5695,贵阳市,花果园大街66号,,17,,15,10,18,53,,56,52,10,12,4,5,0.5,0.5
2025-03-14T0000,4231A,106.6873,26.5169,贵阳市,漓江路57号,,17,12,21,7,14,53,,60,53,13,15,8,9,0.5,0.5
2025-03-14T0000,1862A,110.4144,25.3167,桂林市,电子科大尧山校区,,,,,,,,,,,,,,,,
2025-03-14T0000,1864A,110.3089,25.2708,桂林市,龙隐路小学,,20,15,23,14,21,60,,67,60,9,9,7,7,0.8,0.8
2025-03-14T0000,1865A,110.2869,25.2178,桂林市,八中,,28,20,25,19,20,52,,58,49,18,19,6,7,0.6,0.7
2025-03-14T0000,3531A,110.296,25.1253,桂林市,旅游学院,,28,,20,19,16,45,,53,41,15,16,6,6,0.8,0.8
2025-03-14T0000,4222A,110.1835,25.2444,桂林市,环湖路276号,,22,12,16,12,17,69,,68,67,8,9,8,9,0.5,0.7
2025-03-14T0000,4301A,110.2803,25.2773,桂林市,信义路13号,,21,12,23,12,22,66,,66,62,11,13,9,8,0.7,0.7
2025-03-14T0000,2674A,100.2561,34.4714,果洛藏族自治州,玛沁县大武镇,,33,32,38,17,15,103,,115,106,1,2,12,13,0.3,0.4
2025-03-14T0000,1129A,126.5422,45.755,哈尔滨市,岭北,,30,29,20,21,11,74,,94,87,21,10,12,10,1.0,0.8
2025-03-14T0000,1130A,126.561,45.8167,哈尔滨市,松北商大,,20,19,23,14,13,64,,82,71,15,9,6,18,0.5,0.5
2025-03-14T0000,1131A,126.979,45.5419,哈尔滨市,阿城会宁,,38,36,24,26,15,52,,83,70,26,12,10,6,0.6,0.5
2025-03-14T0000,1132A,126.599,45.7222,哈尔滨市,南岗学府路,,35,35,24,8,9,72,,84,70,18,14,18,11,0.6,0.5
2025-03-14T0000,1133A,126.689,45.7733,哈尔滨市,太平宏伟公园,,28,28,24,17,13,74,,84,76,16,13,7,9,0.3,0.4
2025-03-14T0000,1134A,126.635,45.7667,哈尔滨市,道外承德广场,,40,40,36,19,17,75,,84,78,10,8,6,9,0.6,0.5
2025-03-14T0000,1135A,126.685,45.7319,哈尔滨市,香坊红旗大街,,26,24,22,18,16,80,,86,82,11,10,13,9,0.6,0.5
2025-03-14T0000,1136A,126.6411,45.7258,哈尔滨市,动力和平路,,23,19,20,16,12,73,,86,78,12,6,8,7,0.5,0.5
2025-03-14T0000,1137A,126.593,45.7478,哈尔滨市,道里建国路,,25,24,18,17,12,63,,79,70,17,10,4,4,0.5,0.4
2025-03-14T0000,1138A,126.615,45.61,哈尔滨市,平房东轻厂,,40,36,21,28,16,21,,83,52,52,14,8,6,0.8,0.6
2025-03-14T0000,1139A,126.595,45.9855,哈尔滨市,呼兰师专,,33,33,38,21,14,51,,76,62,20,11,10,9,0.4,0.5
2025-03-14T0000,1140A,126.6206,45.6842,哈尔滨市,省农科院,,38,38,25,24,16,35,,85,75,44,8,9,10,0.7,0.5
2025-03-14T0000,2688A,93.5128,42.8172,哈密市,地区监测站,,44,44,67,10,12,70,,78,77,8,8,4,6,0.2,0.3
2025-03-14T0000,2689A,93.4961,42.8328,哈密市,哈密师范学校,,33,33,47,14,12,71,,78,76,12,11,4,5,0.4,0.5
2025-03-14T0000,2671A,100.9048,36.9639,海北藏族自治州,海晏县西海镇,颗粒物(PM10),60,69,84,39,33,59,,97,80,15,9,10,12,0.4,0.4
2025-03-14T0000,3867A,102.0738,36.5056,海东市,平安区公安北苑,颗粒物(PM10),52,53,137,28,52,77,,99,92,4,13,9,17,0.2,0.3
2025-03-14T0000,1409A,110.576,19.9507,海口市,东寨港,,18,17,23,12,11,31,,44,36,4,4,5,4,0.7,0.7
2025-03-14T0000,1410A,110.3232,20.0574,海口市,海南大学,,24,24,29,13,16,29,,54,36,8,10,2,2,0.4,0.4
2025-03-14T0000,1411A,110.283,20.0053,海口市,秀英海南医院,,22,22,21,12,11,27,,45,33,12,11,4,4,0.3,0.4
2025-03-14T0000,1412A,110.338,19.9969,海口市,海南师范大学,,,23,24,11,12,,,52,,4,6,3,3,,0.4
2025-03-14T0000,1413A,110.33,20.0356,海口市,龙华路环保局宿舍,,24,24,27,11,16,33,,52,38,6,9,3,4,0.3,0.4
2025-03-14T0000,3539A,110.5111,19.9736,海口市,桂林洋子站,,26,26,25,11,11,31,,48,38,7,6,3,3,0.2,0.1
2025-03-14T0000,2673A,100.6188,36.2866,海南藏族自治州,共和县恰卜恰镇,,30,26,60,15,28,93,,97,92,5,12,4,6,0.5,0.5
2025-03-14T0000,2676A,97.3731,37.3753,海西蒙古族藏族自治州,德令哈市,,43,42,38,30,18,94,,99,98,4,7,16,14,0.4,0.5
2025-03-14T0000,1048A,114.5302,36.6116,邯郸市,东污水处理厂,颗粒物(PM10),80,110,182,48,62,60,,103,81,30,39,2,3,0.5,0.5
2025-03-14T0000,1049A,114.4918,36.5713,邯郸市,矿院,颗粒物(PM10),101,151,206,66,61,45,,95,73,35,38,3,6,0.5,0.5
2025-03-14T0000,1050A,114.484,36.6133,邯郸市,丛台公园,颗粒物(PM10),76,102,163,54,57,66,,100,84,21,29,2,5,0.4,0.5
2025-03-14T0000,3458A,114.7895,36.5593,邯郸市,香泉濮院小区,颗粒物(PM10),78,105,186,48,58,75,,114,90,17,18,7,5,0.6,0.5
2025-03-14T0000,3579A,114.50634,36.77178,邯郸市,永年区实验高中,颗粒物(PM10),102,153,204,57,54,52,,115,94,37,30,6,8,0.7,0.7
2025-03-14T0000,3580A,114.20016,36.44293,邯郸市,峰峰矿区临水派出所,颗粒物(PM10),103,156,193,61,62,80,,118,95,9,7,10,10,2.1,0.9
2025-03-14T0000,2634A,106.9893,33.1842,汉中市,汉川机床厂子校,,46,44,41,32,28,89,,89,80,2,4,6,6,0.8,0.8
2025-03-14T0000,2635A,107.0154,33.0706,汉中市,市监测站,"颗粒物(PM10),细颗粒物(PM2.5)",54,58,53,38,32,76,,74,68,11,14,5,5,0.6,0.8
2025-03-14T0000,2636A,107.0089,33.1138,汉中市,鑫源开发区,细颗粒物(PM2.5),54,56,49,38,30,80,,80,75,13,14,6,4,0.7,0.7
2025-03-14T0000,2637A,107.007,33.0323,汉中市,南郑大河坎水厂,颗粒物(PM10),52,53,52,31,31,71,,74,64,14,14,7,7,0.7,0.8
2025-03-14T0000,1223A,120.2072,30.2111,杭州市,滨江,,42,42,31,22,19,66,,77,54,25,31,6,5,0.3,0.5
2025-03-14T0000,1224A,120.0633,30.2747,杭州市,西溪,,28,28,30,11,13,55,,62,33,23,25,6,6,0.5,0.6
2025-03-14T0000,1226A,120.3417,30.3150,杭州市,下沙,,36,36,38,11,22,55,,64,47,35,40,4,4,0.2,0.3
2025-03-14T0000,1227A,120.1269,30.2456,杭州市,卧龙桥,,38,38,30,18,16,25,,66,31,37,32,5,5,0.3,0.3
2025-03-14T0000,1228A,120.1903,30.2692,杭州市,浙江农大,,33,33,31,17,20,53,,65,46,42,43,8,7,0.2,0.3
2025-03-14T0000,1230A,120.1197,30.3119,杭州市,和睦小学,,30,30,36,14,18,60,,63,48,31,30,6,6,0.5,0.6
2025-03-14T0000,1231A,120.3019,30.4183,杭州市,临平镇,,41,41,35,13,24,52,,66,49,34,29,5,5,0.3,0.4
2025-03-14T0000,1232A,120.2753,30.1839,杭州市,城厢镇,,39,39,27,17,18,58,,71,50,36,41,6,6,0.3,0.5
2025-03-14T0000,1233A,120.0883,30.1808,杭州市,云栖,,36,36,24,16,24,43,,77,32,33,25,8,8,0.5,0.5
2025-03-14T0000,3557A,119.9464,30.0494,杭州市,镇二中,,45,45,23,21,13,28,,71,45,42,33,5,5,0.3,0.3
2025-03-14T0000,3558A,119.7183,30.2367,杭州市,市府大楼,,36,36,26,20,16,38,,66,48,28,27,6,6,0.5,0.5
2025-03-14T0000,3656A,120.1556,30.2864,杭州市,消防大队,,32,32,30,13,19,67,,71,54,30,32,6,6,0.4,0.6
2025-03-14T0000,1270A,117.1959,31.7848,合肥市,明珠广场,,31,31,82,17,63,54,,76,53,25,24,5,5,0.6,0.7
2025-03-14T0000,1271A,117.3072,31.8764,合肥市,三里街,,29,29,90,14,59,50,,71,46,24,24,4,3,0.8,0.8
2025-03-14T0000,1272A,117.2588,31.8707,合肥市,琥珀山庄,,29,29,82,16,54,54,,78,54,29,25,3,2,0.7,0.7
2025-03-14T0000,1273A,117.1604,31.9052,合肥市,董铺水库,,34,34,85,14,49,59,,85,61,18,18,3,2,0.4,0.5
2025-03-14T0000,1274A,117.25,31.8571,合肥市,长江中路,,34,34,89,20,72,56,,81,55,26,24,7,6,0.6,0.6
2025-03-14T0000,1275A,117.266,31.9436,合肥市,庐阳区,,32,31,90,22,65,53,,79,53,28,27,5,5,0.5,0.6
2025-03-14T0000,1276A,117.3453,31.8616,合肥市,瑶海区,,24,24,92,15,63,52,,71,47,22,26,7,7,0.6,0.6
2025-03-14T0000,1277A,117.3027,31.7964,合肥市,包河区,,31,31,88,19,66,40,,63,29,36,42,2,5,0.6,0.7
2025-03-14T0000,1278A,117.2776,31.7385,合肥市,滨湖新区,,35,31,89,24,72,55,,73,52,20,23,7,7,0.5,0.6
2025-03-14T0000,1279A,117.1318,31.8403,合肥市,高新区,,36,36,87,16,70,54,,78,52,21,26,3,2,0.7,0.8
2025-03-14T0000,3464A,117.3803,31.9147,合肥市,高教基地,,33,33,88,15,60,55,,80,56,22,21,8,6,0.5,0.5
2025-03-14T0000,3614A,79.924,37.0877,和田地区,地区环保局,颗粒物(PM10),131,212,215,44,53,75,,85,82,1,4,4,2,0.4,0.3
2025-03-14T0000,3615A,79.9131,37.113,和田地区,市环保局,颗粒物(PM10),121,191,217,64,58,76,,94,89,22,20,3,2,0.7,0.9
2025-03-14T0000,2516A,108.2011,24.715,河池市,东仁乐园,,26,26,38,15,17,6,,17,10,15,13,7,7,1.0,1.1
2025-03-14T0000,2517A,108.0497,24.6947,河池市,市环保站,,13,13,24,9,11,9,,24,18,15,10,8,8,0.8,0.8
2025-03-14T0000,2518A,108.0983,24.6989,河池市,市疾控中心,,20,20,23,13,14,9,,22,11,11,10,6,6,0.8,0.9
2025-03-14T0000,1696A,114.6778,23.7569,河源市,源西,,26,24,29,18,15,47,,81,59,22,18,4,4,0.7,0.7
2025-03-14T0000,1697A,114.6944,23.7586,河源市,东埔,,44,44,25,22,18,52,,86,73,19,14,4,4,0.5,0.5
2025-03-14T0000,1698A,114.6892,23.7233,河源市,老城,,32,32,26,16,20,52,,82,71,16,11,4,4,0.5,0.5
2025-03-14T0000,1718A,115.4208,35.2464,菏泽市,气象局,颗粒物(PM10),74,98,153,48,62,69,,114,96,18,21,4,6,0.4,0.5
2025-03-14T0000,3374A,115.5564,35.0891,菏泽市,定陶老年大学,颗粒物(PM10),71,92,146,41,65,66,,120,,26,25,4,5,0.5,0.6
2025-03-14T0000,4184A,115.4797,35.24401,菏泽市,永昌路1号,颗粒物(PM10),85,119,167,59,72,60,,119,96,36,26,7,8,0.4,0.5
2025-03-14T0000,4193A,115.4715,35.2800,菏泽市,长城路999号,颗粒物(PM10),82,114,164,50,63,61,,108,88,27,26,7,7,0.5,0.6
2025-03-14T0000,2514A,111.5264,24.4172,贺州市,环保小区,,32,32,37,19,25,37,,43,36,14,14,7,8,1.0,1
2025-03-14T0000,2515A,111.5608,24.4078,贺州市,政协大楼,,32,28,36,22,24,27,,36,32,17,18,6,7,0.9,0.9
2025-03-14T0000,3534A,111.4744,24.4553,贺州市,西湾,,29,,35,20,25,29,,35,31,13,15,6,6,0.8,0.8
2025-03-14T0000,2385A,114.17,35.9019,鹤壁市,市监测站,颗粒物(PM10),102,154,207,55,59,58,,107,81,29,24,3,3,0.8,0.7
2025-03-14T0000,2386A,114.2956,35.7511,鹤壁市,市交警支队,颗粒物(PM10),92,133,192,49,54,56,,106,73,39,37,8,5,0.3,0.3
2025-03-14T0000,2387A,114.2878,35.7306,鹤壁市,迎宾馆,颗粒物(PM10),94,138,217,43,46,53,,107,72,33,27,3,6,0.4,0.5
2025-03-14T0000,3474A,114.2617,35.6822,鹤壁市,大新区,颗粒物(PM10),90,130,196,60,66,21,,98,61,66,41,4,5,0.6,0.6
2025-03-14T0000,3596A,114.1572,35.9603,鹤壁市,南山宾馆,颗粒物(PM10),120,189,227,67,71,69,,112,92,21,16,3,6,0.4,0.4
2025-03-14T0000,2244A,130.2537,47.3416,鹤岗市,哈啤分公司,,25,21,26,17,19,67,,66,65,2,4,13,14,0.5,0.6
2025-03-14T0000,2245A,130.2684,47.3086,鹤岗市,斯达机电,,30,26,33,21,25,75,,76,74,1,6,11,13,0.3,0.3
2025-03-14T0000,2246A,130.3114,47.3388,鹤岗市,东山纸板厂,,44,44,31,20,23,69,,70,69,4,7,11,13,0.1,0.3
2025-03-14T0000,2247A,130.1097,47.3382,鹤岗市,五号水库,,,,,,,,,,,,,,,,
2025-03-14T0000,2263A,127.4833,50.2524,黑河市,交通局,,26,14,17,10,16,81,,80,79,4,5,7,6,0.5,0.5
2025-03-14T0000,2264A,127.5144,50.2341,黑河市,环保局,,26,20,24,15,16,81,,77,76,5,8,4,5,0.3,0.3
2025-03-14T0000,2265A,127.5291,50.2472,黑河市,大黑河岛,,,,,,,,,,,,,,,,
2025-03-14T0000,1074A,115.6838,37.7541,衡水市,电机北厂,颗粒物(PM10),67,83,176,47,61,78,,127,105,25,20,10,10,0.4,0.4
2025-03-14T0000,1075A,115.6303,37.7316,衡水市,市监测站,颗粒物(PM10),68,86,154,44,54,79,,128,101,24,23,11,11,0.4,0.4
2025-03-14T0000,3188A,115.6683,37.7217,衡水市,市城管局,"颗粒物(PM10),细颗粒物(PM2.5)",73,95,165,53,60,68,,122,99,32,26,15,12,0.5,0.5
2025-03-14T0000,3459A,115.5989,37.5491,衡水市,地表水厂,颗粒物(PM10),68,86,168,44,58,62,,127,87,34,36,9,9,0.4,0.4
2025-03-14T0000,2456A,112.5003,26.9167,衡阳市,原169医院,,36,,44,25,31,33,,45,32,22,22,8,9,0.6,0.6
2025-03-14T0000,2457A,112.6194,26.9258,衡阳市,衡阳化工总厂,细颗粒物(PM2.5),58,43,54,41,48,38,,59,52,11,13,4,5,0.8,0.8
2025-03-14T0000,2458A,112.6211,26.8956,衡阳市,珠晖区环保局,,45,32,46,31,37,40,,55,48,13,14,5,5,0.8,0.8
2025-03-14T0000,2459A,112.6197,26.8733,衡阳市,市委党校,,35,30,50,24,34,46,,63,57,14,14,5,6,0.9,0.9
2025-03-14T0000,2460A,112.6006,26.8919,衡阳市,市监测站,,48,40,51,33,39,40,,59,51,16,17,7,7,0.9,0.9
2025-03-14T0000,2461A,112.5664,26.9056,衡阳市,真空机电公司,,48,42,49,33,38,32,,53,45,15,15,4,4,0.8,0.8
2025-03-14T0000,3399A,112.6703,26.882,衡阳市,师范学院,细颗粒物(PM2.5),57,,47,40,42,45,,68,58,15,15,6,7,0.8,0.9
2025-03-14T0000,2608A,103.3772,23.3993,红河哈尼族彝族自治州,污水处理厂,细颗粒物(PM2.5),53,46,44,37,36,94,,121,107,7,7,7,8,0.5,0.5
2025-03-14T0000,2609A,103.3861,23.35,红河哈尼族彝族自治州,监测站,细颗粒物(PM2.5),53,,58,37,34,93,,124,108,8,8,9,9,0.6,0.6
2025-03-14T0000,3038A,103.3758,23.368,红河哈尼族彝族自治州,州图书馆,,46,44,41,32,35,91,,115,103,8,7,6,6,0.5,0.5
2025-03-14T0000,1090A,111.6507,40.7517,呼和浩特市,呼市一监,,29,29,74,14,36,84,,84,81,8,30,8,12,0.5,0.7
2025-03-14T0000,1091A,111.6572,40.8033,呼和浩特市,小召,,39,39,78,11,27,67,,68,65,20,39,3,5,0.4,0.7
2025-03-14T0000,1094A,111.7516,40.8369,呼和浩特市,如意水处理厂,,25,25,74,7,24,67,,66,64,10,44,6,9,0.3,0.6
2025-03-14T0000,1095A,111.7276,40.8062,呼和浩特市,二十九中,,29,29,75,8,28,71,,71,69,11,35,3,7,0.4,0.6
2025-03-14T0000,1096A,111.5512,40.7866,呼和浩特市,工大金川校区,,36,36,80,12,31,60,,65,63,17,36,6,10,0.5,0.7
2025-03-14T0000,1097A,111.717,40.7612,呼和浩特市,化肥厂生活区,,35,35,82,10,28,72,,73,71,14,36,6,10,0.4,0.7
2025-03-14T0000,3698A,111.5968,40.8178,呼和浩特市,红旗小学,,31,31,77,12,29,67,,73,72,17,41,4,9,0.4,0.6
2025-03-14T0000,3699A,111.6518,40.8389,呼和浩特市,海东办,,34,34,71,14,28,34,,66,57,39,42,9,9,0.8,0.8
2025-03-14T0000,2192A,119.7594,49.2261,呼伦贝尔市,区环保局,,35,35,27,23,21,92,,94,89,8,12,5,6,0.3,0.3
2025-03-14T0000,3061A,119.7512,49.1577,呼伦贝尔市,国华电力东,,34,34,32,18,19,87,,101,93,9,10,4,4,0.4,0.4
2025-03-14T0000,1250A,120.0751,30.8669,湖州市,城西水厂,,47,47,31,17,15,57,,70,54,36,30,8,6,0.4,0.4
2025-03-14T0000,2873A,120.0830,30.8929,湖州市,仁皇山新区,,44,44,30,18,16,62,,67,58,27,25,5,4,0.5,0.5
2025-03-14T0000,2907A,120.1844,30.8596,湖州市,吴兴区站,,46,46,37,20,18,47,,62,46,32,26,8,6,0.6,0.4
2025-03-14T0000,3562A,120.4148,30.8538,湖州市,南浔区站,,50,50,38,23,21,43,,71,48,43,32,4,2,0.6,0.6
2025-03-14T0000,1607A,120.9049,40.7211,葫芦岛市,龙港区,颗粒物(PM10),68,86,75,40,36,15,,79,49,73,44,13,74,0.5,1.3
2025-03-14T0000,1608A,120.8392,40.7514,葫芦岛市,化工街,"颗粒物(PM10),细颗粒物(PM2.5)",52,53,74,36,33,52,,85,60,36,39,15,25,0.4,0.6
2025-03-14T0000,1609A,120.8341,40.7073,葫芦岛市,新区,细颗粒物(PM2.5),54,53,55,38,28,51,,92,68,44,43,14,33,0.6,0.9
2025-03-14T0000,1610A,120.8695,40.7677,葫芦岛市,东城区,,48,44,55,33,28,50,,86,54,43,44,26,24,0.6,0.7
2025-03-14T0000,2482A,109.5981,27.5721,怀化市,林科所,,38,38,35,26,26,66,,70,63,6,6,4,4,0.6,0.6
2025-03-14T0000,2483A,109.9453,27.5444,怀化市,河西地税局,细颗粒物(PM2.5),59,59,48,42,36,49,,56,50,16,12,7,7,0.6,0.6
2025-03-14T0000,2484A,109.9781,27.5342,怀化市,市四医院,,,73,64,38,39,46,,54,40,13,12,,4,0.7,0.6
2025-03-14T0000,2485A,109.9972,27.5578,怀化市,监测楼,颗粒物(PM10),54,58,46,37,32,48,,57,42,14,14,7,7,0.5,0.4
2025-03-14T0000,2486A,110.0394,27.583,怀化市,市委党校,颗粒物(PM10),51,52,44,34,31,48,,54,45,9,10,1,1,0.6,0.6
2025-03-14T0000,1210A,119.036,33.5981,淮安市,钵池山,颗粒物(PM10),58,66,86,35,64,58,,88,72,27,19,10,8,0.5,0.6
2025-03-14T0000,1211A,119.007,33.575,淮安市,北京南路,颗粒物(PM10),54,58,83,31,60,60,,85,71,26,21,9,8,0.5,0.6
2025-03-14T0000,1212A,118.989,33.6067,淮安市,市监测站,颗粒物(PM10),56,61,83,24,56,65,,89,77,29,24,10,8,0.5,0.6
2025-03-14T0000,1213A,119.135,33.5039,淮安市,楚州区监测站,颗粒物(PM10),61,71,91,34,66,52,,85,65,34,25,7,7,0.6,0.7
2025-03-14T0000,3426A,118.8755,33.2894,淮安市,新华书店,颗粒物(PM10),57,64,90,30,65,53,,86,69,30,24,7,8,0.6,0.7
2025-03-14T0000,4206A,119.0288,33.6319,淮安市,承德北路606号,颗粒物(PM10),64,78,103,33,64,65,,93,75,27,26,9,7,0.5,0.6
2025-03-14T0000,2282A,116.8004,33.975,淮北市,监测站,颗粒物(PM10),53,56,133,24,54,67,,101,74,20,19,5,5,0.5,0.7
2025-03-14T0000,2283A,116.8091,33.9007,淮北市,烈山区政府,颗粒物(PM10),57,63,131,29,57,72,,114,82,27,21,4,4,0.6,0.7
2025-03-14T0000,3330A,116.8873,33.9836,淮北市,杜集区检察院,颗粒物(PM10),55,59,125,24,57,74,,107,80,20,19,4,5,0.5,0.7
2025-03-14T0000,4017A,116.7923,33.9535,淮北市,市博物馆,颗粒物(PM10),53,56,129,20,55,68,,107,78,18,16,6,6,0.6,0.8
2025-03-14T0000,2277A,116.8305,32.7727,淮南市,潘集区政府,,45,45,132,27,99,62,,78,66,18,28,5,4,0.4,0.6
2025-03-14T0000,2279A,116.8569,32.5951,淮南市,谢家集区政府,,50,50,117,27,89,64,,84,67,10,18,6,6,0.4,0.5
2025-03-14T0000,2280A,116.8281,32.633,淮南市,八公山区政府,,44,44,119,23,81,64,,86,68,13,17,4,4,0.3,0.5
2025-03-14T0000,2281A,116.6325,32.6201,淮南市,焦岗湖风景区管理处,,28,28,103,16,66,60,,71,61,9,13,14,15,0,0.3
2025-03-14T0000,2894A,117.0566,32.6531,淮南市,经济技术开发区消防队,,28,28,106,13,75,61,,82,66,17,17,6,5,0.3,0.4
2025-03-14T0000,3329A,117.0108,32.5893,淮南市,山南新区,,36,36,104,18,75,69,,91,71,14,11,6,7,0.4,0.6
2025-03-14T0000,4209A,117.0031,32.6445,淮南市,国庆中路369号,,45,44,122,31,85,67,,91,71,17,22,6,6,0.3,0.4
2025-03-14T0000,2446A,114.9028,30.4742,黄冈市,职工中心,细颗粒物(PM2.5),64,50,59,46,51,43,,57,50,16,25,3,4,0.6,0.7
2025-03-14T0000,2929A,114.8858,30.4519,黄冈市,红卫路,细颗粒物(PM2.5),68,56,62,49,58,42,,68,54,15,18,4,6,0.6,0.7
2025-03-14T0000,3398A,114.9136,30.4445,黄冈市,市林业局,细颗粒物(PM2.5),78,64,65,57,53,32,,60,50,16,15,8,9,0.6,0.6
2025-03-14T0000,2672A,102.0199,35.5102,黄南藏族自治州,同仁县隆务镇,,40,38,87,28,39,87,,93,91,3,5,13,13,0.4,0.4
2025-03-14T0000,2295A,118.2903,29.6963,黄山市,延安路89号,,28,,19,19,15,76,,67,59,4,9,4,4,0.2,0.6
2025-03-14T0000,2297A,118.1371,30.2756,黄山市,黄山区政府5号楼,,15,,27,9,15,48,,66,44,7,9,8,8,0.4,0.6
2025-03-14T0000,4210A,118.3354,29.7203,黄山市,滨江东路7-2号,,36,36,25,17,12,71,,67,56,6,10,4,4,0.4,0.5
2025-03-14T0000,2423A,115.0601,30.2313,黄石市,沈家营,颗粒物(PM10),56,61,63,28,34,32,,76,54,29,18,6,7,0.7,0.7
2025-03-14T0000,2426A,114.8988,30.2019,黄石市,铁山,细颗粒物(PM2.5),78,,50,57,47,36,,74,53,18,16,9,12,0.9,0.9
2025-03-14T0000,2427A,115.0307,30.2092,黄石市,团城山,"颗粒物(PM10),细颗粒物(PM2.5)",53,56,56,37,34,51,,77,56,18,21,6,7,0.7,0.7
2025-03-14T0000,3149A,115.0235,30.1578,黄石市,笔架山北路,颗粒物(PM10),51,51,70,31,50,46,,85,53,8,13,6,6,0.8,1
2025-03-14T0000,4185A,115.0780,30.21118,黄石市,磁湖东路29号,"颗粒物(PM10),细颗粒物(PM2.5)",57,63,65,40,46,49,,88,66,14,15,7,7,1.0,0.8
2025-03-14T0000,1392A,114.4183,23.0528,惠州市,河南岸金山湖子站,,29,29,28,13,15,35,,93,58,18,18,9,8,0.5,0.5
2025-03-14T0000,1393A,114.4053,23.0822,惠州市,下埔横江三路子站,,36,36,30,20,14,38,,102,64,18,17,10,8,0.6,0.6
2025-03-14T0000,1394A,114.4103,23.1142,惠州市,江北云山西路子站,,38,38,27,17,13,31,,105,67,23,16,18,9,0.4,0.5
2025-03-14T0000,1395A,114.4645,22.7833,惠州市,惠阳区承修路船湖子站,颗粒物(PM10),53,56,38,36,17,32,,80,38,33,20,9,8,0.7,0.6
2025-03-14T0000,1396A,114.5317,22.7422,惠州市,大亚湾管委会子站,,44,44,35,23,14,58,,82,59,20,19,8,7,0.5,0.5
2025-03-14T0000,3314A,114.4338,22.8134,惠州市,惠阳秋长,,45,34,31,31,13,25,,91,46,42,21,12,10,0.8,0.6
2025-03-14T0000,3452A,114.6517,22.775,惠州市,大亚湾霞涌,,25,25,26,16,18,59,,84,70,22,21,4,5,0.4,0.5
2025-03-14T0000,2240A,130.9762,45.3001,鸡西市,环保局,,27,20,21,14,13,86,,84,84,3,5,4,4,0.3,0.3
2025-03-14T0000,2243A,130.9429,45.3039,鸡西市,第一中学,,28,16,16,14,13,87,,88,87,2,4,5,5,0.2,0.2
2025-03-14T0000,3707A,131.0207,45.3073,鸡西市,欧美日汽修厂,,28,19,22,18,15,89,,92,91,7,7,3,2,0.1,0.1
2025-03-14T0000,3709A,130.9967,45.3106,鸡西市,市政设施管理处,,26,26,25,16,13,70,,80,75,13,8,3,3,0.2,0.3
2025-03-14T0000,2367A,114.9754,27.0803,吉安市,红声器材厂,,23,23,27,6,15,56,,49,49,17,21,8,12,0.8,1
2025-03-14T0000,2368A,114.9658,27.0999,吉安市,市森林工业局,,19,14,20,13,15,55,,51,51,18,25,11,11,0.6,0.7
2025-03-14T0000,2369A,114.99,27.1312,吉安市,市环境监测站,,18,17,22,12,14,51,,48,48,18,21,19,18,0.7,0.7
2025-03-14T0000,2370A,115.0093,27.0968,吉安市,青原区法院,,19,19,27,11,18,53,,50,50,25,26,12,13,0.6,0.9
2025-03-14T0000,1772A,126.54,43.8622,吉林市,哈达湾,,40,40,69,16,17,79,,95,82,11,12,7,6,0.6,0.7
2025-03-14T0000,1773A,126.5844,43.8358,吉林市,东局子,颗粒物(PM10),55,59,29,22,19,47,,92,72,28,13,6,5,0.6,0.4
2025-03-14T0000,1774A,126.5052,43.8245,吉林市,电力学院,颗粒物(PM10),53,55,54,26,20,48,,95,79,19,8,3,2,0.5,0.2
2025-03-14T0000,1775A,126.6133,43.8972,吉林市,江北,颗粒物(PM10),56,61,59,33,22,37,,92,66,56,18,5,6,0.6,0.5
2025-03-14T0000,1776A,126.555,43.8306,吉林市,江南公园,,39,39,53,18,20,67,,92,78,15,11,5,5,0.5,0.4
2025-03-14T0000,1778A,126.7061,43.7133,吉林市,丰满,,27,25,51,14,17,84,,107,94,7,8,6,6,0.6,0.7
2025-03-14T0000,2868A,126.4739,43.953,吉林市,九站,,31,31,55,19,18,42,,90,66,35,11,7,7,0.5,0.5
2025-03-14T0000,1299A,116.9862,36.6114,济南市,科干所,,27,27,98,12,26,75,,113,92,14,14,8,7,0.4,0.4
2025-03-14T0000,1300A,116.9376,36.665,济南市,农科所,,42,42,110,10,24,49,,110,81,35,23,8,8,0.7,0.7
2025-03-14T0000,1301A,117.1265,36.6734,济南市,开发区,,32,32,98,12,29,78,,114,94,23,20,6,7,0.4,0.5
2025-03-14T0000,1303A,117.0624,36.6868,济南市,省种子仓库,,41,41,126,9,32,60,,115,84,34,40,5,5,0.5,0.8
2025-03-14T0000,1304A,116.9489,36.6447,济南市,机床二厂,,42,42,119,12,28,77,,116,97,29,26,9,9,0.7,0.8
2025-03-14T0000,1305A,117.0495,36.663,济南市,市监测站,,39,39,106,12,28,61,,110,88,28,21,9,8,0.4,0.4
2025-03-14T0000,1306A,116.7675,36.5484,济南市,长清党校,,39,39,134,15,39,85,,119,101,24,27,6,6,0.5,0.7
2025-03-14T0000,1616A,117.6795,36.229,济南市,技术学院,,29,29,80,17,23,56,,102,80,43,36,9,11,0.8,0.9
2025-03-14T0000,1961A,117.532,36.6868,济南市,东山小学,,32,32,97,10,22,81,,110,93,19,23,8,10,0.7,0.9
2025-03-14T0000,3059A,117.7161,36.2049,济南市,泰兴公司,颗粒物(PM10),51,51,89,22,28,26,,101,66,66,44,8,10,1.3,0.9
2025-03-14T0000,3064A,117.6867,36.2171,济南市,莱芜战役纪念馆,,41,41,86,14,21,61,,98,78,35,36,6,7,0.7,0.8
2025-03-14T0000,3494A,117.1673,36.9782,济南市,济阳区政府,颗粒物(PM10),63,76,140,22,33,42,,100,65,46,29,13,12,0.4,0.4
2025-03-14T0000,3495A,117.1171,36.63,济南市,锦屏中学,,32,32,96,12,23,66,,112,92,22,15,8,9,0.3,0.4
2025-03-14T0000,3682A,116.9814,36.6819,济南市,济南四建,,36,36,107,15,31,69,,113,89,22,22,6,6,0.2,0.3
2025-03-14T0000,1653A,116.6251,35.4302,济宁市,火炬城,细颗粒物(PM2.5),55,39,111,39,55,58,,117,87,25,21,12,12,0.6,0.8
2025-03-14T0000,1655A,116.5491,35.4042,济宁市,电化厂,颗粒物(PM10),54,57,135,34,55,68,,122,96,18,16,10,11,0.7,0.9
2025-03-14T0000,3500A,116.5814,35.3707,济宁市,北湖一中,,40,40,108,14,42,65,,117,93,24,22,9,11,0.4,0.7
2025-03-14T0000,3501A,116.8249,35.5593,济宁市,服务中心,颗粒物(PM10),52,53,138,24,46,42,,118,84,48,33,5,6,0.6,0.8
2025-03-14T0000,3678A,116.5907,35.4054,济宁市,市第七中学,,46,46,118,22,45,70,,128,98,29,26,4,5,0.5,0.7
2025-03-14T0000,2255A,130.2751,46.8028,佳木斯市,佳纺,,25,17,21,12,13,77,,76,76,3,6,4,5,0.3,0.4
2025-03-14T0000,2256A,130.3995,46.8307,佳木斯市,发电厂,,26,16,18,12,13,82,,82,82,5,6,2,2,0.3,0.3
2025-03-14T0000,2257A,130.3258,46.7975,佳木斯市,环保局,,,17,20,6,12,78,,79,79,,8,2,2,0.2,0.2
2025-03-14T0000,2258A,130.3648,46.8032,佳木斯市,十一中,,26,20,21,12,13,82,,79,78,7,10,5,4,0.4,0.5
2025-03-14T0000,2259A,130.3794,46.7588,佳木斯市,四丰,,23,14,14,9,10,73,,74,74,3,4,1,1,0.6,0.6
2025-03-14T0000,1252A,120.7436,30.778,嘉兴市,清河小学,颗粒物(PM10),57,64,20,29,15,37,,58,40,39,28,4,3,0.6,0.6
2025-03-14T0000,1253A,120.726,30.7478,嘉兴市,嘉兴学院,颗粒物(PM10),51,52,28,23,16,38,,68,50,44,29,7,7,0.5,0.5
2025-03-14T0000,2872A,120.7846,30.7525,嘉兴市,南湖区残联,,43,43,33,20,15,39,,76,55,42,25,8,7,0.4,0.4
2025-03-14T0000,3407A,120.6916,30.7739,嘉兴市,秀洲住建,颗粒物(PM10),55,59,34,25,19,44,,73,46,34,27,4,4,0.5,0.6
2025-03-14T0000,1945A,98.2908,39.7711,嘉峪关市,气象局,,31,31,66,7,19,74,,99,89,20,15,34,27,1.2,0.8
2025-03-14T0000,2884A,98.2672,39.7978,嘉峪关市,酒钢宾馆,,31,31,62,12,17,88,,87,87,3,14,17,32,0.1,0.5
2025-03-14T0000,3248A,98.2643,39.7724,嘉峪关市,雄关区,,41,41,51,23,22,85,,98,94,12,17,14,12,0.6,0.5
2025-03-14T0000,1383A,113.1064,22.6058,江门市,北街,,40,29,31,28,19,29,,86,50,17,17,4,3,0.6,0.5
2025-03-14T0000,1384A,113.0731,22.5835,江门市,西区,,40,40,32,19,16,34,,84,35,22,23,7,6,0.5,0.5
2025-03-14T0000,1385A,113.0219,22.5311,江门市,圭峰西,,30,,35,21,17,38,,74,45,18,21,4,5,0.4,0.4
2025-03-14T0000,1386A,113.0828,22.5947,江门市,东湖,,39,39,32,15,17,37,,90,53,14,16,9,8,0.4,0.4
2025-03-14T0000,3311A,113.1075,22.5647,江门市,江海富民,,41,41,44,26,20,31,,88,52,18,16,8,6,0.6,0.5
2025-03-14T0000,3449A,113.05,22.4667,江门市,新会银湖,细颗粒物(PM2.5),53,,32,37,19,23,,74,47,29,22,1,2,0.5,0.4
2025-03-14T0000,1830A,113.1992,35.2590,焦作市,影视城,,,,,,,,,,,,,,,,
2025-03-14T0000,3169A,113.2725,35.2067,焦作市,太极体育中心,颗粒物(PM10),107,164,223,75,95,69,,113,94,29,34,13,11,0.6,0.8
2025-03-14T0000,3335A,113.3137,35.2641,焦作市,马村街道办,颗粒物(PM10),112,173,203,82,89,65,,116,89,36,26,8,8,0.7,0.7
2025-03-14T0000,3336A,113.2465,35.2373,焦作市,焦作技师学院,颗粒物(PM10),111,171,215,61,79,86,,126,108,30,29,7,7,0.9,0.9
2025-03-14T0000,3477A,113.1656,35.2539,焦作市,中站许衡医院,细颗粒物(PM2.5),108,147,208,81,82,94,,133,114,24,23,7,9,0.6,0.7
2025-03-14T0000,3981A,113.2449,35.1803,焦作市,原李万街道办,颗粒物(PM10),111,172,232,58,88,76,,120,102,24,34,11,11,0.5,0.5
2025-03-14T0000,4264A,113.2340,35.2190,焦作市,新安路1731号,颗粒物(PM10),120,190,224,81,93,79,,126,106,27,24,8,9,0.7,0.8
2025-03-14T0000,1708A,116.3701,23.5345,揭阳市,新兴,,47,47,56,32,41,48,,80,56,17,25,5,6,0.6,0.9
2025-03-14T0000,1709A,116.3264,23.5443,揭阳市,西马,颗粒物(PM10),56,61,53,31,26,44,,76,62,12,18,7,8,0.7,0.8
2025-03-14T0000,1710A,116.3611,23.5626,揭阳市,东兴,,48,48,63,33,38,49,,85,67,15,20,8,5,0.7,1
2025-03-14T0000,1711A,116.4151,23.5294,揭阳市,渔湖,,29,29,54,16,24,54,,93,68,7,20,4,6,0.7,0.9
2025-03-14T0000,3320A,116.403,23.5699,揭阳市,曲溪,,32,25,48,22,27,53,,94,73,15,23,3,6,0.5,0.8
2025-03-14T0000,1944A,102.1692,38.5167,金昌市,天庆家园,,26,,52,18,22,82,,96,86,5,6,7,15,0.6,0.8
2025-03-14T0000,4022A,102.1647,38.5371,金昌市,金川区人防中心,,27,27,68,14,20,76,,88,82,4,6,8,12,0.5,0.6
2025-03-14T0000,4239A,102.1930,38.5319,金昌市,长春路96号,,27,24,39,13,22,84,,85,84,5,8,10,17,0.6,0.6
2025-03-14T0000,1262A,119.647,29.077,金华市,十五中,细颗粒物(PM2.5),55,53,19,39,14,41,,58,54,39,31,5,5,0.6,0.5
2025-03-14T0000,1263A,119.686,29.1029,金华市,监测站,细颗粒物(PM2.5),59,47,20,42,18,35,,55,48,46,36,4,4,0.6,0.5
2025-03-14T0000,3659A,119.656,29.1131,金华市,气象局,细颗粒物(PM2.5),55,53,20,39,10,32,,55,48,43,29,4,4,0.6,0.6
2025-03-14T0000,1767A,121.1115,41.0879,锦州市,南山,细颗粒物(PM2.5),58,,49,41,30,66,,89,76,23,28,9,27,0.5,0.6
2025-03-14T0000,1768A,121.0604,40.8428,锦州市,开发区,细颗粒物(PM2.5),54,46,60,38,35,52,,92,69,37,37,17,27,0.6,0.8
2025-03-14T0000,1769A,121.1836,41.1119,锦州市,百股街道,细颗粒物(PM2.5),62,46,54,44,30,56,,85,70,25,29,11,20,0.7,0.7
2025-03-14T0000,1770A,121.1178,41.1222,锦州市,天安街道,,50,38,48,35,25,69,,91,73,23,33,10,20,0.6,0.6
2025-03-14T0000,1771A,121.1303,41.1386,锦州市,北湖公园,,49,37,50,34,28,60,,86,68,21,24,9,17,0.5,0.6
2025-03-14T0000,2160A,112.85,35.5051,晋城市,自来水公司,颗粒物(PM10),100,149,178,63,63,98,,129,118,27,30,6,8,0.6,0.7
2025-03-14T0000,2161A,112.8318,35.4936,晋城市,白云商贸,"颗粒物(PM10),细颗粒物(PM2.5)",110,170,198,83,72,95,,142,127,30,28,6,7,0.8,0.8
2025-03-14T0000,2162A,112.8508,35.4887,晋城市,市环保局,颗粒物(PM10),114,177,195,68,62,78,,131,116,42,35,5,7,0.8,0.7
2025-03-14T0000,2163A,112.8676,35.4897,晋城市,技术学院,颗粒物(PM10),119,187,188,51,55,75,,111,96,39,38,6,8,0.6,0.7
2025-03-14T0000,2165A,112.8453,35.546,晋城市,白马寺,颗粒物(PM10),106,162,163,73,66,120,,138,133,11,12,5,6,0.6,0.6
2025-03-14T0000,3620A,112.8271,35.4828,晋城市,泽州一中,颗粒物(PM10),117,183,202,73,70,108,,137,126,17,25,6,9,0.5,0.7
2025-03-14T0000,2173A,112.7249,37.7067,晋中市,南都小区,颗粒物(PM10),87,124,142,55,44,97,,114,106,19,22,8,10,0.4,0.4
2025-03-14T0000,2174A,112.6991,37.6982,晋中市,榆次区政府,颗粒物(PM10),90,129,146,50,38,96,,114,102,21,30,8,11,0.5,0.6
2025-03-14T0000,2865A,112.7195,37.6828,晋中市,榆次三中,颗粒物(PM10),92,134,148,56,40,97,,114,104,22,27,6,9,0.4,0.5
2025-03-14T0000,4200A,112.7478,37.6954,晋中市,迎宾街26号,颗粒物(PM10),92,134,151,58,46,101,,122,107,19,22,5,7,0.4,0.3
2025-03-14T0000,2439A,112.2014,31.0481,荆门市,竹园小学,细颗粒物(PM2.5),162,140,145,123,82,57,,72,57,20,20,6,6,0.4,0.3
2025-03-14T0000,2440A,112.1969,30.9891,荆门市,掇刀,细颗粒物(PM2.5),140,117,139,107,80,73,,87,72,23,22,6,7,0.5,0.5
2025-03-14T0000,2441A,112.2213,31.0386,荆门市,石化一小,细颗粒物(PM2.5),153,128,143,117,78,54,,67,60,28,27,10,10,0.4,0.4
2025-03-14T0000,3012A,112.1849,31.0362,荆门市,西山林语,细颗粒物(PM2.5),124,120,123,94,68,59,,87,61,23,19,6,6,0.2,0.3
2025-03-14T0000,3547A,112.1632,31.0138,荆门市,龙泉中学南校,细颗粒物(PM2.5),104,104,125,78,71,63,,88,69,15,16,7,8,0.7,0.6
2025-03-14T0000,1844A,112.2494,30.3197,荆州市,市图书馆,细颗粒物(PM2.5),63,68,97,45,66,29,,61,52,45,27,4,5,0.7,0.7
2025-03-14T0000,1845A,112.2008,30.3544,荆州市,市委党校,细颗粒物(PM2.5),77,83,112,56,69,18,,59,46,47,35,6,7,0.6,0.6
2025-03-14T0000,3194A,112.2747,30.3122,荆州市,管委会,细颗粒物(PM2.5),70,78,106,51,64,40,,59,47,29,28,9,9,0.5,0.5
2025-03-14T0000,4268A,112.1722,30.3366,荆州市,学苑路85号,细颗粒物(PM2.5),93,77,105,69,72,24,,62,45,32,23,8,9,0.8,0.8
2025-03-14T0000,2342A,117.3102,29.3867,景德镇市,王港中学,,,,,,,,,,,,,,,,
2025-03-14T0000,2343A,117.2117,29.2933,景德镇市,老干部活动中心,,12,8,11,8,11,31,,46,39,12,12,4,4,0.4,0.5
2025-03-14T0000,2344A,117.1894,29.2789,景德镇市,兽医站,,16,15,18,3,6,49,,56,54,13,15,5,5,0.6,0.8
2025-03-14T0000,2345A,117.1547,29.2617,景德镇市,台达陶瓷,,22,,17,15,10,34,,40,38,32,24,48,30,0.5,0.7
2025-03-14T0000,2346A,117.2461,29.2956,景德镇市,陶研所,,13,10,9,9,9,28,,42,36,13,13,5,5,0.7,0.8
2025-03-14T0000,1803A,115.9872,29.6815,九江市,十里,,45,43,49,31,34,50,,94,51,20,16,2,2,0.6,0.7
2025-03-14T0000,1804A,115.9584,29.7046,九江市,茅山头,颗粒物(PM10),58,66,53,30,32,53,,93,49,19,19,5,5,0.4,0.5
2025-03-14T0000,1805A,115.9877,29.7295,九江市,西园,,46,46,44,28,37,58,,93,50,21,25,8,7,0.8,0.9
2025-03-14T0000,1808A,115.9114,29.6038,九江市,综合工业园,细颗粒物(PM2.5),63,45,41,45,39,52,,97,50,28,26,6,6,0.8,0.8
2025-03-14T0000,1809A,116.0721,29.7535,九江市,石化总厂,颗粒物(PM10),53,55,55,26,45,55,,91,48,22,23,6,6,0.7,0.8
2025-03-14T0000,1810A,115.9773,29.5698,九江市,庐山气象台,,21,,16,10,15,66,,74,66,4,6,7,7,1.0,1.1
2025-03-14T0000,3190A,116.0254,29.6994,九江市,外国语学校,,46,42,46,32,37,49,,83,45,23,23,6,6,0.5,0.5
2025-03-14T0000,4253A,116.0102,29.6594,九江市,莲花大道8号,细颗粒物(PM2.5),78,,50,57,59,48,,86,47,15,13,5,6,0.6,0.7
2025-03-14T0000,4240A,98.4958,39.7339,酒泉市,玉门东路5号,,30,,57,21,24,84,,98,91,2,5,6,8,0.2,0.3
2025-03-14T0000,4241A,98.5099,39.7506,酒泉市,北大街108号,,35,,53,24,20,68,,84,76,5,8,7,10,0.1,0.2
2025-03-14T0000,2698A,76.0072,39.4467,喀什地区,巡警大队,颗粒物(PM10),160,270,224,86,54,28,,94,75,83,36,8,5,1.1,0.8
2025-03-14T0000,2699A,75.9755,39.4694,喀什地区,吾办,颗粒物(PM10),167,283,241,94,74,23,,96,75,74,35,8,3,1.5,0.8
2025-03-14T0000,4027A,75.9483,39.4689,喀什地区,老干局,颗粒物(PM10),171,292,261,83,59,13,,102,82,89,35,10,4,1.7,0.9
2025-03-14T0000,1824A,114.3389,34.7781,开封市,肿瘤医院,颗粒物(PM10),77,104,199,48,72,56,,116,86,29,32,5,6,0.8,0.9
2025-03-14T0000,1826A,114.2885,34.7965,开封市,世纪星幼儿园,细颗粒物(PM2.5),67,80,188,48,79,75,,128,101,23,33,7,8,0.8,0.9
2025-03-14T0000,3147A,114.3438,34.8106,开封市,龙亭公园,细颗粒物(PM2.5),72,92,191,52,75,67,,118,94,24,36,3,4,0.5,0.6
2025-03-14T0000,3210A,114.3644,34.7964,开封市,汴京公园,颗粒物(PM10),77,103,211,52,79,63,,120,93,27,34,5,5,0.7,0.8
2025-03-14T0000,3473A,114.2485,34.8306,开封市,技师学院,细颗粒物(PM2.5),74,85,194,54,76,73,,115,97,20,30,6,8,0.9,1
2025-03-14T0000,3592A,114.4644,34.7556,开封市,祥符区生态环境局,颗粒物(PM10),80,110,210,49,76,24,,107,74,64,40,4,5,0.5,0.6
2025-03-14T0000,1951A,84.895,45.6094,克拉玛依市,长征新村,,25,20,15,13,9,79,,93,86,6,4,5,5,0.2,0.2
2025-03-14T0000,1952A,84.8988,45.5893,克拉玛依市,南林小区,,25,,15,17,9,79,,92,87,6,3,4,4,0.5,0.4
2025-03-14T0000,1954A,84.905,44.3396,克拉玛依市,独山子区,,35,35,59,13,19,66,,76,75,12,9,5,5,0.2,0.2
2025-03-14T0000,1955A,85.6979,46.098,克拉玛依市,乌尔禾区商贸楼,,30,30,22,11,9,58,,93,84,19,6,4,4,0.4,0.4
2025-03-14T0000,3612A,85.1045,45.6899,克拉玛依市,白碱滩区新站,,27,,17,14,9,84,,91,85,3,3,6,6,0.3,0.5
2025-03-14T0000,2697A,76.1454,39.7142,克孜勒苏柯尔克孜自治州,市人民政府,颗粒物(PM10),136,222,165,,36,61,,108,95,28,7,5,4,0.3,0.2
2025-03-14T0000,3665A,76.1658,39.7157,克孜勒苏柯尔克孜自治州,克州文化中心,颗粒物(PM10),146,241,184,64,44,65,,106,91,34,10,6,5,0.7,0.4
2025-03-14T0000,1450A,102.8204,24.8886,昆明市,呈贡新区,细颗粒物(PM2.5),85,70,65,63,53,109,,139,130,29,30,10,9,0.7,0.7
2025-03-14T0000,1451A,102.6251,24.9608,昆明市,西山森林公园,,,,,,,,,,,,,,,,
2025-03-14T0000,1452A,102.7252,25.0902,昆明市,龙泉镇,细颗粒物(PM2.5),79,80,66,58,48,43,,141,119,84,39,8,8,0.7,0.7
2025-03-14T0000,1453A,102.7266,25.0375,昆明市,东风东路,细颗粒物(PM2.5),82,80,73,60,54,126,,138,134,17,32,10,8,0.7,0.7
2025-03-14T0000,1454A,102.6742,25.0669,昆明市,金鼎山,细颗粒物(PM2.5),77,76,80,56,52,117,,133,126,21,39,8,4,0.8,0.9
2025-03-14T0000,1455A,102.6644,25.0401,昆明市,碧鸡广场,细颗粒物(PM2.5),84,84,72,62,50,109,,139,125,29,37,9,8,0.4,0.5
2025-03-14T0000,3179A,102.7494,25.0119,昆明市,官渡区博物馆,细颗粒物(PM2.5),79,74,72,58,49,123,,144,136,18,27,11,9,0.6,0.6
2025-03-14T0000,3375A,102.8017,24.8336,昆明市,青年创业园,细颗粒物(PM2.5),75,84,66,55,47,96,,147,134,33,19,11,12,0.7,0.6
2025-03-14T0000,3550A,102.7997,24.9786,昆明市,昆明学院,细颗粒物(PM2.5),84,83,69,62,48,130,,145,137,15,17,6,7,0.7,0.6
2025-03-14T0000,3551A,102.5967,24.6736,昆明市,晋宁区生态环境分局,,,63,54,58,46,,,136,,,23,10,8,0.6,0.5
2025-03-14T0000,3552A,102.6678,24.9856,昆明市,云天化总部,细颗粒物(PM2.5),79,78,66,58,46,141,,150,146,11,33,9,8,0.5,0.5
2025-03-14T0000,1456A,91.1319,29.6514,拉萨市,八廓街,,33,13,14,7,8,105,,119,113,11,11,6,6,0.5,0.5
2025-03-14T0000,1457A,91.1221,29.6747,拉萨市,市环保局,,31,14,18,7,8,97,,111,105,15,16,7,6,0.4,0.4
2025-03-14T0000,1458A,91.0874,29.6475,拉萨市,区监测站,,32,12,12,7,7,102,,110,106,12,15,6,6,0.2,0.6
2025-03-14T0000,1459A,91.1774,29.6541,拉萨市,西藏大学,,33,10,11,3,5,103,,114,110,9,11,5,4,0.5,0.6
2025-03-14T0000,1460A,90.9798,29.6588,拉萨市,区辐射站,,35,13,20,6,9,110,,114,111,6,18,7,7,0.4,0.4
2025-03-14T0000,1461A,91.0834,29.6292,拉萨市,拉萨火车站,,35,8,11,3,6,111,,118,117,5,11,4,4,0.4,0.5
2025-03-14T0000,2520A,109.2203,23.7256,来宾市,来宾技工学校,细颗粒物(PM2.5),57,54,41,40,29,5,,22,7,24,23,7,8,1.2,1
2025-03-14T0000,3535A,109.1781,23.7297,来宾市,兴宾区政府,,39,39,38,27,27,7,,24,9,18,18,5,10,1.2,1
2025-03-14T0000,4002A,109.2416,23.7461,来宾市,中南小学,细颗粒物(PM2.5),55,50,44,39,33,8,,25,11,21,19,8,8,1.2,1
2025-03-14T0000,1477A,104.1373,35.9454,兰州市,榆中兰大校区,,,,,,,,,,,,,,,,
2025-03-14T0000,1479A,103.831,36.0464,兰州市,铁路设计院,颗粒物(PM10),64,77,152,40,55,91,,91,89,18,48,8,13,0.5,0.9
2025-03-14T0000,3241A,103.7439,36.0842,兰州市,百合公园,颗粒物(PM10),64,78,158,38,50,86,,95,92,7,29,5,12,0.5,0.9
2025-03-14T0000,3242A,103.9611,35.998,兰州市,和平,颗粒物(PM10),108,165,180,43,57,92,,95,91,6,25,8,12,0.3,0.7
2025-03-14T0000,4236A,103.6293,36.0938,兰州市,庄浪东路808号,颗粒物(PM10),57,64,156,36,57,87,,99,94,11,35,6,18,0.3,0.7
2025-03-14T0000,4237A,103.7251,36.1043,兰州市,安宁西路88号,颗粒物(PM10),69,87,175,42,58,96,,106,101,5,31,5,15,0.3,0.6
2025-03-14T0000,4238A,103.8470,36.0676,兰州市,北滨河东路1号,颗粒物(PM10),67,84,160,45,50,90,,97,93,13,40,9,16,0.4,0.7
2025-03-14T0000,3245A,103.6633,36.533,兰州新区,新区管委会,,43,43,112,23,44,91,,102,97,9,11,8,11,0.1,0.2
2025-03-14T0000,3246A,103.6975,36.4789,兰州新区,舟曲中学,颗粒物(PM10),77,104,201,25,47,88,,99,93,10,17,4,15,0.4,0.5
2025-03-14T0000,1067A,116.6708,39.5111,廊坊市,药材公司,颗粒物(PM10),79,108,163,28,66,51,,76,61,30,49,5,7,0.7,0.7
2025-03-14T0000,1068A,116.7214,39.5589,廊坊市,开发区,颗粒物(PM10),82,113,167,33,63,48,,74,63,34,48,5,7,0.7,0.6
2025-03-14T0000,1070A,116.7244,39.5269,廊坊市,北华航天学院,颗粒物(PM10),74,97,154,22,57,52,,72,61,23,44,6,8,0.6,0.6
2025-03-14T0000,2919A,116.7022,39.5453,廊坊市,河北工业大学,颗粒物(PM10),72,94,152,33,63,54,,75,64,26,43,8,10,0.7,0.6
2025-03-14T0000,2535A,103.7723,29.5462,乐山市,花湖湾,颗粒物(PM10),85,120,110,43,42,55,,67,39,18,25,4,5,0.4,0.8
2025-03-14T0000,2536A,103.7627,29.5844,乐山市,牛耳桥,颗粒物(PM10),88,125,110,45,41,45,,53,41,26,30,9,9,0.5,0.6
2025-03-14T0000,2537A,103.7508,29.6006,乐山市,市第三水厂,颗粒物(PM10),88,125,112,35,39,67,,60,46,15,25,3,4,0.5,0.6
2025-03-14T0000,2538A,103.7571,29.5664,乐山市,市监测站,颗粒物(PM10),83,115,102,39,39,50,,60,38,19,23,4,5,0.7,0.7
2025-03-14T0000,3361A,103.7311,29.5628,乐山市,理工大学,颗粒物(PM10),84,117,108,46,45,37,,51,34,29,27,6,6,0.5,0.4
2025-03-14T0000,2598A,100.2143,26.8576,丽江市,西南郊,,34,17,41,17,34,106,,122,109,5,8,5,5,1.1,1.1
2025-03-14T0000,2599A,100.2497,26.8802,丽江市,丽江古城,,32,24,40,22,32,90,,113,98,10,13,8,8,0.8,0.8
2025-03-14T0000,2600A,100.2203,26.8906,丽江市,市中心,,27,16,32,16,29,86,,110,90,9,13,7,7,0.8,0.9
2025-03-14T0000,1267A,119.914,28.4514,丽水市,监测站大楼,,10,9,8,3,1,31,,48,38,19,22,3,2,0.5,0.5
2025-03-14T0000,1268A,119.93,28.4586,丽水市,莲都小学,,14,14,6,9,5,34,,51,43,22,22,3,3,0.4,0.5
2025-03-14T0000,1269A,119.879,28.4231,丽水市,余庄前,,16,16,10,10,5,30,,50,28,21,23,3,4,0.4,0.6
2025-03-14T0000,1173A,119.176,34.5885,连云港市,市环境监测站,颗粒物(PM10),59,68,81,17,32,81,,112,92,18,18,14,12,0.5,0.6
2025-03-14T0000,3000A,119.3581,34.6972,连云港市,德源药业,颗粒物(PM10),64,78,88,19,31,74,,103,78,20,21,9,8,0.2,0.5
2025-03-14T0000,3007A,119.178,34.844,连云港市,新城一中,颗粒物(PM10),59,68,95,37,63,51,,86,68,27,34,7,8,0.6,0.9
2025-03-14T0000,3008A,119.3608,34.7519,连云港市,胡沟管理处,颗粒物(PM10),51,51,62,17,35,32,,91,54,63,46,12,11,0.6,0.7
2025-03-14T0000,3009A,119.1478,34.5911,连云港市,矿山设计院,颗粒物(PM10),63,75,88,17,37,79,,110,89,19,22,14,12,0.5,0.6
2025-03-14T0000,3434A,119.2413,34.6539,连云港市,工贸学校,,39,39,79,12,36,84,,107,89,15,18,9,10,0.7,0.8
2025-03-14T0000,3664A,119.4172,34.7341,连云港市,连云街道,颗粒物(PM10),53,55,65,15,25,60,,99,88,44,26,6,7,0.5,0.6
2025-03-14T0000,2571A,102.3431,27.8099,凉山彝族自治州,青龙寺,,45,45,56,19,20,124,,136,131,5,7,12,6,0.8,0.8
2025-03-14T0000,2572A,102.2721,27.8415,凉山彝族自治州,邛海宾馆,细颗粒物(PM2.5),54,47,62,38,42,121,,138,132,13,12,18,15,0.9,0.7
2025-03-14T0000,2573A,102.2625,27.898,凉山彝族自治州,西昌市政府,细颗粒物(PM2.5),52,42,56,36,48,98,,121,112,15,12,13,14,1.6,0.9
2025-03-14T0000,2574A,102.2685,27.8851,凉山彝族自治州,凉山州政府,细颗粒物(PM2.5),52,47,59,36,43,112,,136,127,19,12,20,11,2.0,0.9
2025-03-14T0000,4229A,102.2342,27.8859,凉山彝族自治州,凯乐南路30号,,49,49,67,32,41,113,,126,120,12,23,12,13,0.7,0.7
2025-03-14T0000,2212A,123.2,41.1953,辽阳市,宏伟区,颗粒物(PM10),53,56,61,35,25,57,,103,79,25,15,20,17,0.7,0.7
2025-03-14T0000,2213A,123.1683,41.2495,辽阳市,新华园,细颗粒物(PM2.5),62,60,74,44,31,46,,96,68,37,29,17,14,0.8,0.8
2025-03-14T0000,2214A,123.2354,41.2639,辽阳市,滨河路,细颗粒物(PM2.5),75,60,70,55,37,32,,99,63,45,23,12,11,0.6,0.5
2025-03-14T0000,2215A,123.149,41.2991,辽阳市,铁西工业园,细颗粒物(PM2.5),83,76,76,61,37,30,,105,60,43,30,29,13,0.9,0.6
2025-03-14T0000,2227A,125.1358,42.8845,辽源市,环保局,颗粒物(PM10),54,57,38,26,18,18,,103,61,56,18,4,5,0.9,0.6
2025-03-14T0000,3239A,125.0764,42.9078,辽源市,银鹰制药,细颗粒物(PM2.5),97,109,35,72,20,7,,106,52,51,18,4,7,0.7,0.5
2025-03-14T0000,1625A,115.9848,36.4372,聊城市,区政府,颗粒物(PM10),73,95,159,40,53,66,,111,94,26,23,14,14,0.6,0.7
2025-03-14T0000,2878A,116.0072,36.4343,聊城市,聊大东校,颗粒物(PM10),73,95,170,39,56,68,,106,90,30,29,8,10,0.7,0.9
2025-03-14T0000,3200A,115.9819,36.4978,聊城市,监控中心,颗粒物(PM10),68,85,166,48,55,72,,109,97,28,27,13,14,0.6,0.7
2025-03-14T0000,3513A,116.0445,36.4361,聊城市,九州社区,颗粒物(PM10),67,84,151,35,53,68,,114,92,22,20,10,11,0.5,0.7
2025-03-14T0000,4018A,116.0567,36.4608,聊城市,星美广场,颗粒物(PM10),66,82,153,40,49,70,,111,93,26,25,15,15,0.7,0.8
2025-03-14T0000,2632A,94.3681,29.6376,林芝市,林芝监测站,,26,9,12,6,6,82,,97,91,7,9,4,6,0.3,0.4
2025-03-14T0000,2633A,94.3616,29.6616,林芝市,林芝人民医院,,22,8,14,6,7,70,,99,88,2,6,7,7,0.3,0.3
2025-03-14T0000,2603A,100.0781,23.8982,临沧市,市环保局,细颗粒物(PM2.5),142,126,93,108,62,106,,146,137,18,16,10,11,1.0,0.7
2025-03-14T0000,2604A,100.0894,23.8822,临沧市,市气象局,细颗粒物(PM2.5),120,108,82,91,62,114,,151,140,17,19,8,9,1.2,0.7
2025-03-14T0000,1733A,111.5531,36.0783,临汾市,临钢医院,,,147,176,50,36,61,,110,90,44,31,,9,0.6,0.7
2025-03-14T0000,1734A,111.5028,36.0714,临汾市,技工学校,颗粒物(PM10),99,148,156,67,46,94,,113,103,18,24,8,10,0.6,0.6
2025-03-14T0000,1736A,111.5018,36.0855,临汾市,市委,颗粒物(PM10),96,141,164,51,39,94,,112,104,18,23,8,9,0.7,0.7
2025-03-14T0000,3018A,111.505,36.1014,临汾市,唐尧大酒店,颗粒物(PM10),94,138,159,48,41,90,,114,106,20,27,6,8,0.6,0.6
2025-03-14T0000,4244A,111.4879,36.0530,临汾市,启星学校,细颗粒物(PM2.5),90,109,129,67,50,96,,109,100,17,25,6,6,0.6,0.7
2025-03-14T0000,4271A,103.2464,35.6123,临夏回族自治州,滨河东路1号,,43,43,77,17,14,84,,107,86,4,19,2,7,0.3,0.6
2025-03-14T0000,4310A,103.2093,35.5995,临夏回族自治州,新华街21号,,29,29,43,10,18,84,,100,88,8,23,7,12,0.3,0.8
2025-03-14T0000,1618A,118.3429,35.0532,临沂市,沂河小区,颗粒物(PM10),68,85,115,47,54,54,,98,74,29,35,12,14,0.6,0.9
2025-03-14T0000,1619A,118.295,35.0583,临沂市,鲁南制药厂,颗粒物(PM10),58,66,120,35,52,60,,101,77,37,51,9,14,0.3,0.7
2025-03-14T0000,1620A,118.2794,34.9976,临沂市,新光毛纺厂,颗粒物(PM10),51,51,104,30,54,60,,103,77,31,37,8,9,0.6,0.8
2025-03-14T0000,1621A,118.3956,35.0888,临沂市,河东保险公司,颗粒物(PM10),67,83,114,46,52,42,,106,77,59,53,9,8,0.7,1.1
2025-03-14T0000,3370A,118.3564,35.0215,临沂市,十里堡居委,细颗粒物(PM2.5),62,70,104,44,49,54,,106,77,36,39,9,12,0.6,0.8
2025-03-14T0000,3496A,118.3604,35.1084,临沂市,南坊新区,颗粒物(PM10),70,90,103,41,44,53,,107,81,39,41,9,9,0.6,0.9
2025-03-14T0000,3860A,118.3920,35.0300,临沂市,皇山花园小区,颗粒物(PM10),67,83,119,46,54,49,,107,74,39,40,6,9,0.4,0.7
2025-03-14T0000,1870A,109.4856,24.3895,柳州市,柳东小学,,29,20,28,20,21,17,,17,15,14,18,10,10,0.6,0.6
2025-03-14T0000,1871A,109.4157,24.3277,柳州市,环保监测站,,22,18,36,15,23,15,,16,13,16,24,10,10,0.9,1
2025-03-14T0000,1872A,109.389,24.341,柳州市,河西水厂,,31,31,41,20,26,7,,14,10,23,24,11,9,1.0,1.1
2025-03-14T0000,1873A,109.4311,24.2921,柳州市,市四中,颗粒物(PM10),61,72,44,15,28,20,,19,18,16,22,8,8,0.7,0.7
2025-03-14T0000,1874A,109.4006,24.3631,柳州市,市九中,,19,15,30,13,17,18,,19,16,12,18,7,8,1.0,1
2025-03-14T0000,1875A,109.4958,24.3134,柳州市,古亭山,,24,24,38,15,19,19,,19,18,6,12,6,6,0.6,0.6
2025-03-14T0000,3402A,109.5422,24.3996,柳州市,市二中,,28,28,25,18,16,13,,24,21,12,16,9,9,0.7,0.7
2025-03-14T0000,2307A,116.5079,31.737,六安市,监测大楼,,50,50,78,34,74,48,,78,57,27,24,4,4,0.7,0.8
2025-03-14T0000,2308A,116.4738,31.7643,六安市,皖西学院,颗粒物(PM10),54,57,89,36,74,48,,80,59,30,21,4,4,0.6,0.7
2025-03-14T0000,2309A,116.4996,31.7905,六安市,朝阳厂,颗粒物(PM10),51,51,82,25,70,47,,77,56,26,24,3,3,0.6,0.7
2025-03-14T0000,2310A,116.5567,31.7886,六安市,开发区,颗粒物(PM10),53,55,90,35,62,51,,82,57,25,20,3,3,0.7,0.7
2025-03-14T0000,2576A,104.8,26.5892,六盘水市,窑上,细颗粒物(PM2.5),127,139,140,96,92,18,,68,40,20,18,6,8,1.1,1
2025-03-14T0000,2577A,104.83,26.5917,六盘水市,黄土坡,细颗粒物(PM2.5),89,94,140,66,76,12,,65,35,31,28,11,16,1.6,1.3
2025-03-14T0000,2578A,104.89,26.5939,六盘水市,水钢,细颗粒物(PM2.5),62,44,127,44,71,19,,72,36,20,22,7,11,0.8,0.8
2025-03-14T0000,2579A,104.8475,26.5894,六盘水市,民中,细颗粒物(PM2.5),70,69,120,51,76,11,,59,29,27,27,10,14,1.0,0.9
2025-03-14T0000,2580A,104.9544,26.5506,六盘水市,双水,细颗粒物(PM2.5),75,66,112,55,66,20,,76,40,20,20,8,12,0.8,0.7
2025-03-14T0000,2335A,117.0189,25.1181,龙岩市,龙岩师专,,,,,,,,,,,,,,,,
2025-03-14T0000,2336A,117.0217,25.1033,龙岩市,龙岩市监测站,,35,34,18,24,13,49,,65,46,20,14,14,6,0.4,0.5
2025-03-14T0000,2337A,117.0258,25.0661,龙岩市,闽西职业技术学院,,34,34,20,22,12,49,,63,46,19,13,14,7,0.5,0.4
2025-03-14T0000,2338A,117.0196,25.0306,龙岩市,龙岩学院,,29,29,18,16,12,24,,66,41,15,8,4,6,0.5,0.4
2025-03-14T0000,2665A,105.0822,33.3261,陇南市,汉王镇固水子,,,,,,,,,,,,,,,,
2025-03-14T0000,2885A,104.9339,33.3826,陇南市,滨江中学,,,,149,,40,,,74,72,,8,,7,,0.5
2025-03-14T0000,3247A,104.955,33.371,陇南市,市总工会,,36,36,134,15,44,72,,80,77,3,4,7,7,0.5,0.4
2025-03-14T0000,2487A,111.9589,27.8901,娄底市,电视发射台,,,29,46,,39,64,,70,70,11,10,4,5,0.6,0.6
2025-03-14T0000,2488A,111.9975,27.725,娄底市,市监测站,,21,21,54,10,36,43,,49,49,26,24,10,9,1.4,1
2025-03-14T0000,2489A,112.0194,27.7314,娄底市,市委党校,,50,40,48,35,38,61,,61,60,21,22,4,4,0.7,0.9
2025-03-14T0000,2490A,111.9561,27.7569,娄底市,涟钢,,35,35,45,23,33,56,,54,54,9,10,11,11,0.7,0.9
2025-03-14T0000,2491A,111.9892,27.7044,娄底市,市政府,,43,34,42,30,33,57,,56,56,13,11,6,7,0.8,0.7
2025-03-14T0000,1893A,105.4324,28.9634,泸州市,九狮山,,,,,,,,,,,,,,,,
2025-03-14T0000,1894A,105.4427,28.9063,泸州市,小市上码头,细颗粒物(PM2.5),88,121,87,65,51,43,,55,43,19,21,6,7,0.6,0.5
2025-03-14T0000,1895A,105.4241,28.8573,泸州市,兰田宪桥,细颗粒物(PM2.5),88,95,66,65,46,42,,52,44,18,20,6,6,0.5,0.5
2025-03-14T0000,1896A,105.4379,28.8833,泸州市,市环监站,,,,46,,36,,,51,,,18,,8,,0.3
2025-03-14T0000,4272A,105.3689,28.7783,泸州市,纳溪中医医院,细颗粒物(PM2.5),139,116,78,106,58,27,,60,46,30,15,5,5,0.7,0.5
2025-03-14T0000,2183A,111.1406,37.5211,吕梁市,环保局,颗粒物(PM10),71,91,123,30,45,8,,100,68,80,39,2,3,0.3,0.4
2025-03-14T0000,2185A,111.1297,37.5136,吕梁市,自来水公司,颗粒物(PM10),63,76,124,29,32,31,,95,77,49,30,2,4,0.4,0.4
2025-03-14T0000,2867A,111.1283,37.51,吕梁市,马茂庄小学,颗粒物(PM10),90,129,137,37,38,3,,100,64,85,40,6,7,0.4,0.4
2025-03-14T0000,1812A,112.3931,34.6516,洛阳市,市委党校,细颗粒物(PM2.5),152,182,214,116,87,59,,88,76,31,48,5,11,0.8,0.8
2025-03-14T0000,1815A,112.494,34.6886,洛阳市,河南林校,细颗粒物(PM2.5),193,210,247,145,104,44,,90,72,36,39,4,8,0.9,0.8
2025-03-14T0000,1816A,112.3844,34.623,洛阳市,开发区管委会,细颗粒物(PM2.5),199,209,238,149,105,66,,91,78,33,49,6,10,0.8,0.8
2025-03-14T0000,1817A,112.4267,34.6258,洛阳市,市委新办公区,细颗粒物(PM2.5),148,227,242,113,90,61,,87,74,38,50,4,8,0.8,0.7
2025-03-14T0000,3340A,112.6005,34.6326,洛阳市,伊滨,颗粒物(PM10),125,200,235,69,100,95,,80,68,20,51,5,7,0.7,1
2025-03-14T0000,3341A,112.4951,34.6332,洛阳市,中移产业园,细颗粒物(PM2.5),179,247,270,135,113,48,,80,62,48,52,5,10,0.9,0.8
2025-03-14T0000,3593A,112.5736,34.8993,洛阳市,吉利监测站,细颗粒物(PM2.5),165,215,223,125,96,50,,94,86,37,43,5,6,0.8,0.8
2025-03-14T0000,3635A,112.3677,34.662,洛阳市,河科大西苑校区,细颗粒物(PM2.5),162,192,225,123,89,61,,94,80,30,42,7,14,0.8,0.7
2025-03-14T0000,3636A,112.4388,34.6781,洛阳市,英才小学,细颗粒物(PM2.5),128,173,248,97,82,66,,95,78,30,45,8,11,0.8,0.7
2025-03-14T0000,4214A,112.4600,34.6949,洛阳市,春都路1号院,细颗粒物(PM2.5),133,131,227,101,83,63,,95,78,36,45,6,9,0.9,0.8
2025-03-14T0000,2399A,114.051,33.5699,漯河市,三五一五工厂,细颗粒物(PM2.5),75,68,143,55,105,76,,116,93,14,18,3,4,0.5,0.6
2025-03-14T0000,2400A,114.0055,33.5698,漯河市,漯河大学,细颗粒物(PM2.5),64,74,147,46,89,80,,119,96,17,21,5,5,0.5,0.6
2025-03-14T0000,2401A,114.0138,33.5828,漯河市,市水利局,细颗粒物(PM2.5),67,68,142,48,94,80,,120,96,10,18,3,4,0.4,0.6
2025-03-14T0000,2402A,114.0261,33.5698,漯河市,市广电局,细颗粒物(PM2.5),72,68,137,52,98,78,,117,94,14,18,4,4,0.4,0.6
2025-03-14T0000,3478A,113.9749,33.5664,漯河市,市图书馆,细颗粒物(PM2.5),58,64,153,41,95,77,,119,96,19,23,4,4,0.5,0.6
2025-03-14T0000,4250A,114.0892,33.5882,漯河市,韶山路11号,细颗粒物(PM2.5),65,71,165,47,96,75,,123,96,18,28,4,4,0.4,0.6
2025-03-14T0000,1798A,118.5092,31.6837,马鞍山市,湖东路四小,,30,30,50,14,28,68,,76,61,18,22,6,6,0.5,0.7
2025-03-14T0000,1799A,118.5024,31.6449,马鞍山市,开发区,,37,37,55,14,38,66,,74,60,23,24,4,4,0.5,0.6
2025-03-14T0000,1802A,118.6245,31.7241,马鞍山市,濮塘,,40,40,60,17,36,70,,77,61,12,15,8,7,0.6,0.8
2025-03-14T0000,3633A,118.4918,31.6809,马鞍山市,雨山,,32,32,50,12,23,67,,74,60,15,21,6,6,0.6,0.7
2025-03-14T0000,4191A,118.5274,31.72227,马鞍山市,慈湖高新区,,29,29,50,20,41,72,,75,63,17,22,4,6,0.5,0.6
2025-03-14T0000,1686A,111.0286,21.4688,茂名市,电白南海,,25,24,25,17,20,53,,77,71,9,7,3,2,0.7,0.7
2025-03-14T0000,1687A,110.9294,21.6533,茂名市,茂石化七小,,22,22,27,7,15,52,,50,50,5,7,3,3,0.4,0.5
2025-03-14T0000,1688A,110.9107,21.6687,茂名市,健康路,,18,12,22,12,14,52,,50,48,6,9,1,3,0.3,0.4
2025-03-14T0000,1689A,110.8592,21.6828,茂名市,高岭,,29,29,41,9,14,41,,46,40,10,13,1,4,0.3,0.4
2025-03-14T0000,3450A,111.01,21.5165,茂名市,电白水东,,19,9,16,7,10,60,,68,67,8,8,2,2,0.6,0.7
2025-03-14T0000,2539A,104.0308,30.0478,眉山市,黑龙滩水库,细颗粒物(PM2.5),125,,43,95,58,23,,70,40,22,10,3,3,0.7,0.6
2025-03-14T0000,2540A,103.8416,30.0874,眉山市,气象局,颗粒物(PM10),104,157,126,66,44,17,,60,44,35,25,5,6,0.6,0.5
2025-03-14T0000,3137A,103.8578,30.0744,眉山市,市委党校,颗粒物(PM10),91,132,109,61,39,28,,60,43,31,27,8,8,0.7,0.6
2025-03-14T0000,3148A,103.8291,30.0564,眉山市,区人社局,颗粒物(PM10),82,114,91,58,40,20,,64,40,40,30,8,8,0.7,0.6
2025-03-14T0000,1690A,116.1231,24.3284,梅州市,梅江月梅,细颗粒物(PM2.5),59,57,25,42,18,23,,64,55,37,13,11,10,0.7,0.5
2025-03-14T0000,1691A,116.0797,24.2719,梅州市,梅县新城,,40,40,28,23,17,3,,60,24,24,18,5,6,0.6,0.5
2025-03-14T0000,1692A,116.1248,24.2654,梅州市,环境监控中心,颗粒物(PM10),56,61,30,23,14,2,,57,24,33,20,6,6,0.6,0.6
2025-03-14T0000,3315A,116.1233,24.2991,梅州市,梅龙,颗粒物(PM10),53,56,22,31,13,6,,66,37,29,16,6,7,1.4,0.8
2025-03-14T0000,1878A,104.7778,31.4741,绵阳市,富乐山,,33,33,60,22,26,47,,75,58,12,13,2,2,0.5,0.5
2025-03-14T0000,1880A,104.6697,31.4668,绵阳市,高新区自来水公司,,41,41,73,24,27,27,,76,52,30,20,2,3,0.3,0.2
2025-03-14T0000,1881A,104.7287,31.5075,绵阳市,三水厂,,42,42,76,29,32,42,,85,56,17,20,5,5,0.6,0.6
2025-03-14T0000,3491A,104.69,31.5322,绵阳市,西科大附属小学,,46,46,80,27,31,36,,79,51,24,24,5,6,0.5,0.4
2025-03-14T0000,3492A,104.5648,31.5343,绵阳市,安州区旅游局,,25,24,82,17,30,51,,78,61,14,18,9,9,0.5,0.4
2025-03-14T0000,4226A,104.7651,31.4531,绵阳市,绵阳市气象局,,34,34,61,18,23,41,,71,57,13,12,4,4,0.5,0.4
2025-03-14T0000,1784A,129.61,44.561,牡丹江市,环保大楼,,34,34,32,23,23,80,,82,77,8,9,5,5,0.2,0.2
2025-03-14T0000,1785A,129.6115,44.5782,牡丹江市,文化广场,,40,34,31,28,22,84,,85,79,6,7,7,8,0.1,0.2
2025-03-14T0000,1786A,129.5904,44.5963,牡丹江市,第一医院,,29,25,29,20,22,86,,83,81,6,8,9,9,0.0,0.1
2025-03-14T0000,1787A,129.6364,44.6075,牡丹江市,机车工厂,颗粒物(PM10),52,54,40,19,17,84,,84,83,5,6,7,7,0.3,0.4
2025-03-14T0000,1788A,129.6386,44.5462,牡丹江市,第一中学,,36,26,30,25,21,84,,88,83,3,4,6,6,0.3,0.3
2025-03-14T0000,2531A,105.0703,29.61,内江市,市监测站,颗粒物(PM10),61,72,47,34,31,38,,65,47,25,17,4,5,1.0,0.9
2025-03-14T0000,2532A,105.0717,29.5947,内江市,东兴区政府,,43,38,45,30,25,32,,62,54,30,17,2,3,0.5,0.6
2025-03-14T0000,2533A,105.0653,29.5817,内江市,内江二中,细颗粒物(PM2.5),53,47,53,37,27,26,,65,56,29,17,7,7,0.8,0.7
2025-03-14T0000,2534A,105.0406,29.5822,内江市,内江日报社,细颗粒物(PM2.5),53,52,49,37,27,24,,65,50,40,18,9,9,0.7,0.6
2025-03-14T0000,2628A,92.0657,31.4846,那曲市,那曲监测站,,,36,29,28,17,,,112,,13,16,9,9,0.9,1
2025-03-14T0000,3128A,92.0506,31.4797,那曲市,那曲会议中心,,27,27,29,15,9,83,,112,102,10,6,6,6,0.7,0.5
2025-03-14T0000,1290A,115.8931,28.6843,南昌市,省外办,,49,36,43,34,42,25,,74,37,25,18,4,4,0.9,0.9
2025-03-14T0000,1291A,115.8886,28.7003,南昌市,省林业公司,细颗粒物(PM2.5),52,,33,36,39,19,,72,36,28,19,6,6,0.7,0.6
2025-03-14T0000,1292A,115.8126,28.7442,南昌市,林科所,,35,,30,24,29,35,,82,46,25,21,4,5,0.8,0.7
2025-03-14T0000,1294A,115.8518,28.687,南昌市,建工学校,细颗粒物(PM2.5),62,,47,44,42,28,,77,41,26,20,8,8,0.8,0.7
2025-03-14T0000,1295A,115.8921,28.6424,南昌市,象湖,,42,36,34,29,35,32,,88,49,23,17,6,6,0.8,0.8
2025-03-14T0000,1296A,115.7423,28.7996,南昌市,武术学校,,32,32,34,13,15,30,,76,43,14,11,2,2,0.7,0.6
2025-03-14T0000,3046A,115.9084,28.6062,南昌市,机电学校,,45,38,43,31,39,36,,77,46,15,17,4,4,0.7,0.7
2025-03-14T0000,3690A,115.9721,28.7031,南昌市,外国语学校,,35,26,39,24,32,36,,82,44,16,16,3,3,0.5,0.5
2025-03-14T0000,4192A,115.9316,28.68677,南昌市,南京东路235号,,42,31,45,29,36,38,,82,47,25,24,3,4,0.7,0.7
2025-03-14T0000,1905A,106.056,30.8064,南充市,西山风景区,,37,37,26,19,19,47,,58,55,11,9,2,2,0.6,0.6
2025-03-14T0000,1906A,106.0789,30.8023,南充市,南充市委,"颗粒物(PM10),细颗粒物(PM2.5)",53,55,42,37,29,16,,59,39,42,20,3,3,0.8,0.6
2025-03-14T0000,1907A,106.1031,30.8217,南充市,南充炼油厂,细颗粒物(PM2.5),52,46,40,36,26,35,,52,44,20,18,4,4,0.5,0.4
2025-03-14T0000,1909A,106.0642,30.7636,南充市,嘉陵区环保局,,48,48,40,29,24,26,,53,38,34,20,3,3,0.8,0.6
2025-03-14T0000,1910A,106.1087,30.8388,南充市,市环境监测站,,,,30,,20,,,44,,,9,,5,,0.5
2025-03-14T0000,4227A,106.1083,30.7884,南充市,梨树横街98号,颗粒物(PM10),57,64,39,28,18,27,,57,47,36,17,4,4,0.5,0.4
2025-03-14T0000,1151A,118.8086,32.1065,南京市,迈皋桥,,34,34,54,17,38,68,,75,62,18,24,4,4,0.1,0.3
2025-03-14T0000,1152A,118.7538,32.0551,南京市,草场门,,39,39,56,12,38,64,,56,51,16,26,5,5,0.6,0.8
2025-03-14T0000,1153A,118.7794,32.0745,南京市,山西路,,44,44,63,14,39,64,,68,52,7,19,4,4,0.5,0.7
2025-03-14T0000,1154A,118.7752,32.0023,南京市,中华门,,34,34,56,12,33,71,,66,54,16,31,5,5,0.4,0.5
2025-03-14T0000,1155A,118.8109,32.0309,南京市,瑞金路,,36,36,62,9,34,68,,68,55,10,17,6,6,0.7,0.8
2025-03-14T0000,1156A,118.7997,32.0754,南京市,玄武湖,,36,36,62,10,40,56,,60,38,22,26,5,5,0.3,0.5
2025-03-14T0000,1157A,118.6414,32.0931,南京市,浦口,,40,40,69,14,43,62,,66,52,22,25,6,6,0.4,0.6
2025-03-14T0000,1158A,118.7356,31.9996,南京市,奥体中心,,39,39,64,14,40,74,,71,60,18,26,7,14,0.3,0.5
2025-03-14T0000,1159A,118.9125,32.1028,南京市,仙林大学城,,34,34,58,12,37,64,,68,56,14,20,8,8,0.6,0.7
2025-03-14T0000,3422A,118.8436,31.9198,南京市,江宁彩虹桥,,39,39,51,12,33,70,,68,58,12,20,4,4,0.4,0.5
2025-03-14T0000,3423A,119.0138,31.6494,南京市,溧水永阳,,34,34,42,23,28,54,,73,51,23,24,4,4,0.4,0.6
2025-03-14T0000,3427A,118.8554,32.3578,南京市,六合雄州,,27,27,59,7,34,65,,68,62,1,8,4,4,0.1,0.3
2025-03-14T0000,4249A,118.8708,31.3402,南京市,汶溪路181号,颗粒物(PM10),52,53,52,20,29,60,,67,55,26,26,6,4,0.4,0.4
2025-03-14T0000,1401A,108.3103,22.7881,南宁市,二十一中,,26,26,29,17,17,37,,41,36,17,17,4,4,0.5,0.5
2025-03-14T0000,1402A,108.3141,22.8528,南宁市,北湖,,30,30,30,20,20,31,,33,29,18,19,5,5,0.6,0.7
2025-03-14T0000,1403A,108.3206,22.8225,南宁市,市监测站,,24,24,35,16,16,36,,36,34,16,16,6,5,0.5,0.6
2025-03-14T0000,1404A,108.3829,22.8037,南宁市,大自然花园,,27,27,28,16,16,49,,47,47,10,9,8,6,0.6,0.6
2025-03-14T0000,1405A,108.4394,22.7904,南宁市,仙葫,,30,24,28,21,17,42,,42,41,13,13,3,2,0.3,0.4
2025-03-14T0000,1406A,108.2397,22.8467,南宁市,区农职院,,48,48,35,21,18,28,,37,31,20,20,7,7,0.7,0.6
2025-03-14T0000,1407A,108.3275,22.735,南宁市,英华嘉园,,27,27,36,16,20,27,,35,29,23,18,6,6,0.5,0.5
2025-03-14T0000,3401A,108.4834,22.7618,南宁市,红星社区,,35,,29,24,17,39,,42,40,11,13,9,8,0.6,0.7
2025-03-14T0000,4221A,108.2177,22.7774,南宁市,乐贤路16号,,38,38,31,21,18,19,,39,30,27,20,7,6,0.9,0.7
2025-03-14T0000,2331A,118.0966,26.6761,南平市,茫荡山,,,,,,,,,,,,,,,,
2025-03-14T0000,2332A,118.1681,26.6369,南平市,南平市监测站,,26,26,27,16,23,79,,81,70,7,13,3,4,0.6,0.8
2025-03-14T0000,2333A,118.1825,26.6489,南平市,南平铝业有限公司,,27,24,27,10,20,85,,84,76,7,12,5,6,0.7,0.8
2025-03-14T0000,2334A,118.1756,26.6272,南平市,南平七中,,25,22,27,16,23,79,,75,69,5,11,3,3,0.5,0.6
2025-03-14T0000,1168A,120.9098,31.9663,南通市,狼山街道,颗粒物(PM10),54,58,45,15,16,78,,87,82,18,17,6,6,0.2,0.3
2025-03-14T0000,1169A,120.86,32.0005,南通市,虹桥,,44,44,42,15,19,76,,77,77,18,22,5,5,0.3,0.4
2025-03-14T0000,1170A,120.87,32.02,南通市,城中,,48,48,47,11,17,78,,82,80,17,18,7,6,0.4,0.5
2025-03-14T0000,1171A,120.94,31.93,南通市,星湖花园,颗粒物(PM10),51,52,40,13,19,76,,84,78,20,21,5,5,0.4,0.4
2025-03-14T0000,1172A,120.81,32.0417,南通市,紫琅学院,,44,44,39,9,13,79,,81,77,14,17,3,3,0.5,0.6
2025-03-14T0000,3291A,121.067,32.062,南通市,通州监测站,,44,44,43,12,16,87,,91,90,11,12,3,3,0.5,0.6
2025-03-14T0000,3432A,120.9348,31.9883,南通市,环境教育馆,,,51,42,11,17,,,82,,10,11,,4,0.2,0.3
2025-03-14T0000,2404A,112.5224,33.0122,南阳市,瓦房庄,细颗粒物(PM2.5),78,84,159,57,79,85,,104,93,11,18,2,4,0.5,0.7
2025-03-14T0000,2405A,112.5003,32.9735,南阳市,汉画馆,细颗粒物(PM2.5),78,69,142,57,75,82,,100,91,12,18,3,4,0.5,0.6
2025-03-14T0000,2406A,112.5573,33.027,南阳市,气象站,细颗粒物(PM2.5),77,89,178,56,71,83,,102,92,11,16,3,5,0.5,0.5
2025-03-14T0000,2407A,112.5481,32.9689,南阳市,理工学院,细颗粒物(PM2.5),70,76,150,51,72,80,,104,92,14,20,2,4,0.5,0.6
2025-03-14T0000,4008A,112.5234,32.9922,南阳市,卧龙区政府,细颗粒物(PM2.5),84,77,161,62,72,87,,103,95,11,19,6,7,0.5,0.6
2025-03-14T0000,1234A,121.8358,29.911,宁波市,区环保大楼,颗粒物(PM10),55,60,33,24,20,41,,65,38,45,48,8,8,0.4,0.4
2025-03-14T0000,1235A,121.56,29.82,宁波市,万里学院,颗粒物(PM10),55,59,30,29,17,33,,78,50,48,30,5,9,0.4,0.4
2025-03-14T0000,1236A,121.713,29.9572,宁波市,龙赛医院,,,,26,,11,,,70,,,28,,6,,0.4
2025-03-14T0000,1239A,121.633,29.7733,宁波市,钱湖水厂,颗粒物(PM10),51,52,26,24,15,6,,77,35,59,33,6,6,0.6,0.5
2025-03-14T0000,1240A,121.5856,29.8635,宁波市,太古小学,颗粒物(PM10),54,58,26,16,13,50,,86,58,35,29,8,9,0.8,0.8
2025-03-14T0000,1241A,121.524,29.8674,宁波市,市环境监测中心,颗粒物(PM10),54,57,31,23,12,20,,80,52,65,37,7,7,0.6,0.5
2025-03-14T0000,2871A,121.6147,29.9017,宁波市,万里国际学校,,47,47,24,22,14,45,,76,45,39,35,9,8,0.5,0.5
2025-03-14T0000,3710A,121.5594,29.8975,宁波市,白沙活动中心,,50,50,25,21,14,52,,85,57,26,22,7,6,0.4,0.4
2025-03-14T0000,2339A,119.5001,26.6946,宁德市,金涵水库,,,,,,,,,,,,,,,,
2025-03-14T0000,2341A,119.5388,26.6612,宁德市,宁德市监测站,,29,,18,10,25,91,,91,91,12,12,3,4,0.4,0.5
2025-03-14T0000,3209A,119.5231,26.6562,宁德市,宁德一中,,29,,20,7,23,92,,92,92,10,12,4,4,0.2,0.3
2025-03-14T0000,2618A,98.8601,25.8567,怒江傈僳族自治州,州监测站,,28,28,42,18,32,78,,88,73,4,5,5,4,0.5,0.5
2025-03-14T0000,2619A,98.8546,25.8417,怒江傈僳族自治州,泸水一中,,36,33,35,25,33,32,,79,48,14,11,6,6,0.6,0.6
2025-03-14T0000,1888A,101.6891,26.571,攀枝花市,弄弄坪,细颗粒物(PM2.5),67,66,96,48,60,96,,124,111,18,41,13,45,0.8,2
2025-03-14T0000,1889A,101.5769,26.5928,攀枝花市,河门口,细颗粒物(PM2.5),73,78,96,53,56,72,,123,102,20,28,9,16,0.8,0.9
2025-03-14T0000,1890A,101.7169,26.585,攀枝花市,炳草岗,细颗粒物(PM2.5),68,63,85,49,53,91,,134,117,26,43,12,22,0.7,1.2
2025-03-14T0000,1891A,101.7369,26.5008,攀枝花市,仁和,细颗粒物(PM2.5),73,71,71,53,54,76,,133,109,18,19,8,8,0.8,0.8
2025-03-14T0000,2835A,101.7227,26.567,攀枝花市,四十中小,"颗粒物(PM10),细颗粒物(PM2.5)",63,75,84,45,50,118,,135,122,11,34,10,19,0.6,1.2
2025-03-14T0000,1604A,122.0303,41.1489,盘锦市,开发区,细颗粒物(PM2.5),74,79,47,54,24,45,,98,79,30,14,18,11,0.6,0.4
2025-03-14T0000,1605A,122.0485,41.0883,盘锦市,兴隆台,细颗粒物(PM2.5),69,57,52,50,24,60,,95,80,26,25,12,9,0.7,0.6
2025-03-14T0000,1606A,121.8297,41.1028,盘锦市,新生街道,细颗粒物(PM2.5),59,53,45,42,21,8,,91,65,77,34,9,9,0.7,0.7
2025-03-14T0000,1832A,113.3257,33.742,平顶山市,新华旅馆,细颗粒物(PM2.5),77,92,171,56,81,83,,116,98,21,34,4,5,0.4,0.5
2025-03-14T0000,1833A,113.2919,33.737,平顶山市,规划设计院,细颗粒物(PM2.5),78,85,172,57,84,86,,119,101,16,34,3,3,0.5,0.6
2025-03-14T0000,1834A,113.182,33.774,平顶山市,平顶山工学院,细颗粒物(PM2.5),67,73,192,48,80,95,,109,106,11,29,4,5,0.6,0.7
2025-03-14T0000,3204A,113.3025,33.73,平顶山市,规划局,细颗粒物(PM2.5),82,78,167,60,103,85,,120,103,22,36,3,5,0.7,0.9
2025-03-14T0000,3594A,112.8867,33.9116,平顶山市,石龙区,颗粒物(PM10),77,104,213,54,83,84,,112,96,19,38,4,6,0.4,0.5
2025-03-14T0000,2656A,106.6692,35.5461,平凉市,聚贤嘉苑,颗粒物(PM10),82,114,126,35,36,112,,108,100,16,27,9,12,0.4,0.4
2025-03-14T0000,2657A,106.7021,35.5307,平凉市,博物馆,颗粒物(PM10),78,105,143,37,40,108,,108,98,22,35,15,18,0.6,0.6
2025-03-14T0000,2347A,114.0997,27.5002,萍乡市,武功山,,20,,16,14,15,28,,43,35,21,19,6,5,0.8,0.6
2025-03-14T0000,2348A,113.8385,27.6434,萍乡市,中医院,细颗粒物(PM2.5),63,46,52,45,42,12,,35,22,34,26,9,9,1.5,1.2
2025-03-14T0000,2349A,113.8493,27.6253,萍乡市,市政府车库,,35,35,40,20,29,10,,36,23,38,23,6,7,1.0,0.9
2025-03-14T0000,2350A,113.8676,27.6435,萍乡市,市环保局,,39,32,38,27,29,14,,36,24,36,27,6,6,1.1,0.9
2025-03-14T0000,2351A,113.866,27.6198,萍乡市,安源区政府,,48,,38,33,37,13,,36,21,27,21,8,9,1.0,1
2025-03-14T0000,2319A,119.0141,25.4325,莆田市,荔城区仓后路,,25,10,41,3,22,78,,96,79,16,21,2,3,0.4,0.7
2025-03-14T0000,2320A,119.0015,25.4553,莆田市,莆田市监测站,,25,13,34,3,20,80,,100,78,14,17,3,4,0.4,0.6
2025-03-14T0000,2321A,119.1119,25.4561,莆田市,涵江区六中,,27,6,37,3,20,86,,95,85,14,28,2,4,0.2,0.5
2025-03-14T0000,2322A,119.1013,25.3215,莆田市,秀屿区政府,,,,31,1,18,94,,98,92,7,19,3,5,0.5,0.6
2025-03-14T0000,2323A,118.981,25.4792,莆田市,东圳水库,,,,,,,,,,,,,,,,
2025-03-14T0000,2392A,115.0312,35.7636,濮阳市,环保局,颗粒物(PM10),64,77,132,43,61,77,,112,95,24,29,6,6,0.5,0.6
2025-03-14T0000,2394A,115.0574,35.7609,濮阳市,油田运输公司,颗粒物(PM10),79,108,154,44,63,78,,118,100,21,27,4,7,0.7,0.9
2025-03-14T0000,3021A,115,35.7668,濮阳市,濮水河管理处,颗粒物(PM10),80,110,173,43,54,83,,117,101,28,34,6,7,0.6,0.7
2025-03-14T0000,4216A,115.0924,35.7686,濮阳市,任丘路479号,颗粒物(PM10),71,91,156,39,60,79,,122,103,26,32,4,7,0.6,0.7
2025-03-14T0000,2601A,100.98,22.7633,普洱市,市环保局,颗粒物(PM10),74,98,88,33,39,81,,131,102,20,17,5,6,0.7,0.7
2025-03-14T0000,2602A,100.9817,22.8322,普洱市,普洱第二中学,,,,80,,45,65,,127,93,,31,7,7,0.8,0.6
2025-03-14T0000,2262A,131.0518,45.8751,七台河市,新一中,,27,20,18,12,11,85,,89,88,6,8,11,10,0.8,0.7
2025-03-14T0000,3345A,131.0577,45.7879,七台河市,中波台,,24,19,20,8,10,74,,77,75,9,11,6,5,0.5,0.5
2025-03-14T0000,3637A,131.0176,45.7761,七台河市,人民广场,,30,27,25,21,18,74,,79,78,9,10,6,6,0.8,0.6
2025-03-14T0000,3684A,130.8781,45.8222,七台河市,新建矿广场,,29,,19,20,20,75,,78,76,8,10,6,6,0.3,0.3
2025-03-14T0000,1779A,123.9305,47.3636,齐齐哈尔市,安居小区,,26,11,20,3,8,81,,93,73,8,12,4,3,0.2,0.2
2025-03-14T0000,1780A,123.9488,47.3386,齐齐哈尔市,中心广场,,25,11,22,10,12,80,,86,68,5,11,3,4,0.3,0.4
2025-03-14T0000,1781A,123.9483,47.3227,齐齐哈尔市,农牧车辆厂,,27,12,17,11,9,85,,92,78,5,9,3,4,0.3,0.3
2025-03-14T0000,1783A,123.945,47.2988,齐齐哈尔市,市环境监测站,,26,13,20,3,10,81,,87,71,4,9,2,3,0.3,0.3
2025-03-14T0000,3662A,123.6333,47.2075,齐齐哈尔市,富区青少年活动中心,,24,24,26,7,12,73,,88,68,10,13,6,6,0.4,0.4
2025-03-14T0000,2591A,107.9783,26.5747,黔东南苗族侗族自治州,市环境监测站,,,,43,,29,,,76,,,9,,2,,0.5
2025-03-14T0000,2881A,107.8908,26.5311,黔东南苗族侗族自治州,凯里学院,,30,,32,21,26,45,,81,57,17,8,2,2,0.6,0.5
2025-03-14T0000,2593A,107.5228,26.2403,黔南布依族苗族自治州,小围寨,,15,7,13,3,10,46,,60,46,6,7,4,4,0.5,0.5
2025-03-14T0000,3538A,107.5175,26.2978,黔南布依族苗族自治州,沙坝,,,19,18,9,14,45,,72,54,,12,4,4,0.5,0.7
2025-03-14T0000,2589A,104.9022,25.0925,黔西南布依族苗族自治州,场坝街,细颗粒物(PM2.5),60,47,42,43,32,66,,111,92,18,11,4,4,0.5,0.5
2025-03-14T0000,2590A,104.8811,25.0992,黔西南布依族苗族自治州,坪东大道,,48,43,42,33,34,51,,105,78,20,15,4,5,0.4,0.4
2025-03-14T0000,2502A,108.6236,21.9667,钦州市,市环保站,,39,39,31,17,14,40,,48,44,19,20,6,6,0.9,0.8
2025-03-14T0000,2503A,108.6549,21.9481,钦州市,沙埠小学,颗粒物(PM10),52,54,33,30,19,34,,52,48,28,17,5,5,0.8,0.8
2025-03-14T0000,2504A,108.5989,21.7431,钦州市,港区一小,颗粒物(PM10),80,110,53,27,22,8,,56,40,63,30,8,11,0.6,1
2025-03-14T0000,3404A,108.5959,21.9633,钦州市,北职校,,39,34,35,27,26,30,,50,46,32,25,7,6,0.9,0.7
2025-03-14T0000,1043A,119.7493,40.0116,秦皇岛市,第一关,细颗粒物(PM2.5),77,79,61,56,28,81,,79,71,26,33,7,8,0.4,0.4
2025-03-14T0000,1044A,119.5897,39.9499,秦皇岛市,监测站,细颗粒物(PM2.5),73,77,57,53,21,90,,81,80,19,30,6,5,0.5,0.4
2025-03-14T0000,1046A,119.5251,39.9041,秦皇岛市,建设大厦,细颗粒物(PM2.5),69,72,57,50,26,95,,85,85,23,32,7,6,0.4,0.4
2025-03-14T0000,3132A,119.610547,39.943889,秦皇岛市,文明里,颗粒物(PM10),65,80,67,34,19,89,,80,80,10,25,6,6,0.4,0.4
2025-03-14T0000,4198A,119.5090,39.8253,秦皇岛市,北戴河轮滑馆,细颗粒物(PM2.5),67,62,72,48,27,76,,84,83,24,29,7,9,0.4,0.5
2025-03-14T0000,1307A,120.6659,36.2403,青岛市,仰口,,41,41,45,23,22,67,,112,81,16,11,4,4,0.3,0.3
2025-03-14T0000,1310A,120.4134,36.0658,青岛市,市南区东部子站,颗粒物(PM10),54,58,64,12,21,59,,94,69,32,32,9,10,0.5,0.6
2025-03-14T0000,1311A,120.3664,36.1032,青岛市,四方区子站,颗粒物(PM10),56,61,59,9,21,77,,108,83,24,38,5,7,0.6,0.7
2025-03-14T0000,1312A,120.2994,36.054,青岛市,市南区西部子站,颗粒物(PM10),54,58,71,24,26,51,,61,53,41,61,8,9,0.5,0.7
2025-03-14T0000,1313A,120.4581,36.0858,青岛市,崂山区子站,,39,39,52,3,16,64,,99,84,26,26,10,11,0.5,0.6
2025-03-14T0000,1315A,120.3999,36.3083,青岛市,城阳区子站,颗粒物(PM10),58,66,67,12,20,44,,94,72,46,40,7,8,0.7,0.8
2025-03-14T0000,1966A,120.0405,35.8735,青岛市,黄岛区4号,颗粒物(PM10),51,51,64,12,23,69,,107,87,30,27,9,9,0.5,0.6
2025-03-14T0000,3362A,120.5014,36.4034,青岛市,即墨2号,,47,47,55,15,18,65,,103,83,21,18,7,8,0.7,0.6
2025-03-14T0000,3642A,120.3503,36.0736,青岛市,市北区南部,,46,46,60,12,19,56,,92,67,22,23,8,8,0.5,0.5
2025-03-14T0000,3643A,120.3948,36.1805,青岛市,李沧区北部,颗粒物(PM10),56,61,59,12,21,70,,76,67,24,35,6,7,0.6,0.7
2025-03-14T0000,4290A,120.1969,35.9546,青岛市,珠江路669号,颗粒物(PM10),51,51,68,20,29,41,,99,58,46,46,8,8,0.7,0.7
2025-03-14T0000,1702A,113.0426,23.691,清远市,环保大楼,,47,47,37,27,26,32,,144,116,36,22,9,9,0.8,0.7
2025-03-14T0000,1703A,113.0208,23.7106,清远市,凤城街办,颗粒物(PM10),53,55,40,22,21,32,,126,103,48,29,9,8,0.6,0.5
2025-03-14T0000,3025A,113.0477,23.6344,清远市,技师学院,颗粒物(PM10),54,57,42,26,21,30,,144,106,44,29,7,6,0.5,0.5
2025-03-14T0000,3318A,112.9903,23.7403,清远市,清新太和,,,58,41,25,21,41,,143,118,32,20,,10,0.6,0.6
2025-03-14T0000,3455A,113.076,23.7198,清远市,清城东城,颗粒物(PM10),57,64,46,28,24,33,,134,110,34,27,6,6,0.8,0.7
2025-03-14T0000,2661A,107.6325,35.7357,庆阳市,庆阳五中,细颗粒物(PM2.5),94,85,104,70,38,96,,109,105,17,12,2,4,0.5,0.4
2025-03-14T0000,2662A,107.6364,35.7067,庆阳市,市环保局,细颗粒物(PM2.5),74,88,102,54,39,99,,108,106,12,10,6,6,0.6,0.4
2025-03-14T0000,1916A,103.7897,25.5035,曲靖市,环境监测站,细颗粒物(PM2.5),64,76,60,46,36,102,,150,131,20,19,4,6,0.8,0.6
2025-03-14T0000,1917A,103.8,25.5364,曲靖市,烟厂办公区,细颗粒物(PM2.5),63,74,66,45,40,122,,154,142,12,20,5,6,0.5,0.6
2025-03-14T0000,3376A,103.7947,25.462,曲靖市,南苑二区,细颗粒物(PM2.5),63,72,58,45,35,123,,147,135,10,12,5,9,0.6,0.5
2025-03-14T0000,3377A,103.7444,25.5261,曲靖市,曲靖师范学院,细颗粒物(PM2.5),85,84,66,63,47,95,,149,132,36,24,11,13,0.7,0.6
2025-03-14T0000,1264A,118.8692,28.9398,衢州市,环保大楼,,29,28,13,20,9,63,,58,58,14,17,1,2,0.4,0.5
2025-03-14T0000,1265A,118.8709,28.9666,衢州市,实验学校,,27,27,13,18,8,54,,52,52,13,15,2,3,0.3,0.6
2025-03-14T0000,1266A,118.8621,28.9808,衢州市,衢州学院,,23,22,9,16,6,48,,47,47,20,21,3,3,0.3,0.3
2025-03-14T0000,1611A,118.5819,24.9117,泉州市,涂山街,,25,,53,16,26,80,,98,86,12,30,2,8,0.7,0.7
2025-03-14T0000,1612A,118.5972,24.8978,泉州市,津头埔,,25,,45,16,24,78,,92,82,15,32,2,7,0.7,0.6
2025-03-14T0000,1613A,118.6663,24.9424,泉州市,万安,,28,14,41,12,22,88,,112,91,2,19,2,7,0.8,0.7
2025-03-14T0000,1614A,118.6117,24.9604,泉州市,清源山,,,,,,,,,,,,,,,,
2025-03-14T0000,3529A,118.6333,24.9264,泉州市,城华南路,,25,23,48,12,24,79,,106,84,11,32,2,8,0.6,0.5
2025-03-14T0000,2626A,88.8876,29.2718,日喀则市,日喀则监测站,,34,20,19,10,8,108,,125,117,14,10,2,3,0.4,0.4
2025-03-14T0000,3726A,88.8781,29.2426,日喀则市,林业技术推广中心,,40,19,18,6,4,127,,123,121,2,2,6,7,0.2,0.4
2025-03-14T0000,1659A,119.471,35.4209,日照市,监测站,颗粒物(PM10),57,63,68,26,27,59,,110,85,34,34,6,7,0.6,0.6
2025-03-14T0000,1660A,119.523,35.4216,日照市,市政府广场,颗粒物(PM10),54,58,72,27,26,60,,114,82,30,30,4,5,0.7,0.7
2025-03-14T0000,1661A,119.5587,35.4044,日照市,港务局,颗粒物(PM10),56,61,79,30,37,66,,107,71,32,37,10,11,0.5,0.6
2025-03-14T0000,3507A,119.5328,35.4625,日照市,职业技术学院,颗粒物(PM10),56,61,71,19,26,65,,115,80,26,29,4,5,0.6,0.7
