timepoint,stationcode,longitude,latitude,area,positionname,primarypollutant,aqi,pm10,pm10_24h,pm2_5,pm2_5_24h,o3,o3_24h,o3_8h,o3_8h_24h,no2,no2_24h,so2,so2_24h,co,co_24h
2025-04-02T0200,2566A,102.1879,31.914,阿坝藏族羌族自治州,州农科所,,12,10,40,6,16,38,,,,9,16,12,13,0.5,0.4
2025-04-02T0200,2568A,102.2502,31.8896,阿坝藏族羌族自治州,马师校,,13,12,26,9,18,24,,,,16,18,5,5,0.5,0.5
2025-04-02T0200,3994A,102.2165,31.9024,阿坝藏族羌族自治州,马尔康中学西区,,16,,19,11,9,34,,,,14,12,6,6,0.4,0.4
2025-04-02T0200,2695A,80.292,41.1694,阿克苏地区,电视台,颗粒物(PM10),500,613,685,163,182,52,,,,26,26,5,6,0.6,0.7
2025-04-02T0200,2696A,80.2613,41.1551,阿克苏地区,艺术中心,颗粒物(PM10),500,686,755,191,197,57,,,,25,27,3,3,0.7,0.8
2025-04-02T0200,2204A,105.6467,38.8363,阿拉善盟,西城区西花园,,35,35,65,10,19,94,,,,7,9,14,11,0.5,0.6
2025-04-02T0200,2205A,105.6985,38.8411,阿拉善盟,蒙二幼,,27,18,58,6,17,85,,,,5,8,5,5,0.8,0.7
2025-04-02T0200,2206A,105.724,38.8516,阿拉善盟,环保局新楼,,30,19,46,3,16,94,,,,2,4,8,8,0.3,0.5
2025-04-02T0200,2708A,88.1264,47.8517,阿勒泰地区,市站,,30,10,13,3,4,93,,,,2,5,2,2,0.5,0.5
2025-04-02T0200,2630A,80.1161,32.5,阿里地区,阿里监测站,,26,13,17,10,11,81,,,,8,5,9,7,0.5,0.5
2025-04-02T0200,3192A,80.0903,32.5028,阿里地区,阿里藏医院,,28,18,20,8,9,87,,,,3,4,12,7,0.5,0.5
2025-04-02T0200,2642A,109.0318,32.6537,安康市,香溪洞,颗粒物(PM10),59,67,53,28,23,61,,,,12,8,9,8,0.3,0.3
2025-04-02T0200,2644A,109.0072,32.6975,安康市,汉滨区检察院,颗粒物(PM10),64,78,65,26,22,49,,,,11,15,8,9,0.3,0.4
2025-04-02T0200,4054A,109.0325,32.6913,安康市,市邮政管理局,颗粒物(PM10),62,73,68,28,26,42,,,,15,18,11,11,0.4,0.6
2025-04-02T0200,2291A,117.0809,30.5177,安庆市,环科院,"颗粒物(PM10),细颗粒物(PM2.5)",58,65,54,41,31,55,,,,49,51,11,9,0.6,0.6
2025-04-02T0200,2292A,117.0331,30.5119,安庆市,马山宾馆,颗粒物(PM10),52,54,56,34,35,46,,,,69,48,10,9,0.4,0.4
2025-04-02T0200,2294A,116.9896,30.6145,安庆市,安庆大学,颗粒物(PM10),73,95,59,48,30,6,,,,101,34,4,5,0.7,0.5
2025-04-02T0200,3173A,117.0598,30.5351,安庆市,市人大,颗粒物(PM10),58,66,56,38,33,69,,,,36,37,12,9,0.5,0.7
2025-04-02T0200,3122A,105.9606,26.2611,安顺市,伍家关,,23,23,23,16,14,70,,,,6,8,10,11,0.4,0.4
2025-04-02T0200,3123A,105.9408,26.2431,安顺市,凤凰山,,28,27,25,19,17,71,,,,7,9,18,11,0.4,0.4
2025-04-02T0200,3124A,105.9439,26.2564,安顺市,金钟山,,28,26,23,19,17,70,,,,7,10,18,12,0.5,0.5
2025-04-02T0200,3125A,105.8983,26.2481,安顺市,娄家坡,,28,25,24,19,21,72,,,,8,11,9,13,0.5,0.5
2025-04-02T0200,1818A,114.4839,36.0621,安阳市,棉研所,,,,,,,,,,,,,,,,
2025-04-02T0200,1819A,114.3551,36.1017,安阳市,红庙街,颗粒物(PM10),81,111,98,22,45,71,,,,2,15,2,6,0.2,0.4
2025-04-02T0200,1820A,114.361,36.0681,安阳市,银杏小区,颗粒物(PM10),95,140,112,21,38,76,,,,8,17,2,5,0.3,0.4
2025-04-02T0200,3141A,114.3922,36.0878,安阳市,信访局,颗粒物(PM10),94,138,104,10,41,76,,,,11,17,4,6,0.3,0.5
2025-04-02T0200,3669A,114.4705,36.0637,安阳市,左辅环卫站,颗粒物(PM10),83,116,107,20,34,80,,,,4,12,2,6,0.3,0.5
2025-04-02T0200,3703A,114.2917,36.0949,安阳市,安钢职工学校,颗粒物(PM10),77,103,110,32,46,73,,,,10,17,2,4,0.3,0.4
2025-04-02T0200,1748A,123.044,41.1196,鞍山市,深沟寺,,45,45,103,30,60,106,,,,10,18,10,13,0.6,0.8
2025-04-02T0200,1749A,123.011,41.0931,鞍山市,太阳城,,38,37,96,25,58,121,,,,8,17,3,6,0.7,0.9
2025-04-02T0200,1750A,123.0485,41.1442,鞍山市,太平,,46,46,109,25,53,110,,,,10,23,7,9,0.5,0.7
2025-04-02T0200,1751A,122.9642,41.0971,鞍山市,铁西三道街,,43,43,116,30,63,115,,,,10,34,4,8,0.6,1
2025-04-02T0200,1753A,123.022,41.0821,鞍山市,明达新区,,36,34,91,24,56,113,,,,5,15,5,7,0.5,0.7
2025-04-02T0200,1754A,123.1289,41.0228,鞍山市,千山,,,,54,,23,,,80,,,12,,4,,0.8
2025-04-02T0200,4201A,122.9446,41.0826,鞍山市,兴盛南路290号,,43,43,124,28,64,113,,,,12,38,9,14,0.6,1
2025-04-02T0200,2195A,107.4212,40.761,巴彦淖尔市,附二中,,32,32,51,15,19,53,,,,29,10,7,8,0.4,0.4
2025-04-02T0200,2196A,107.37,40.7372,巴彦淖尔市,市环保大楼,,,30,54,19,23,,,,,6,11,5,5,0.1,0.2
2025-04-02T0200,1956A,86.1472,41.7538,巴音郭楞蒙古自治州,孔雀公园,颗粒物(PM10),500,840,848,183,169,57,,,,9,26,5,5,0.5,0.4
2025-04-02T0200,1957A,86.1972,41.7166,巴音郭楞蒙古自治州,棉纺厂,颗粒物(PM10),500,988,1046,176,184,66,,,,8,16,2,2,0.3,0.3
2025-04-02T0200,1958A,86.2357,41.7173,巴音郭楞蒙古自治州,经济开发区,颗粒物(PM10),500,858,918,157,159,60,,,,14,14,4,5,0.3,0.2
2025-04-02T0200,2914A,106.7677,31.8794,巴中市,苏山坪,,49,46,43,34,30,41,,,,18,16,3,3,0.6,0.5
2025-04-02T0200,3181A,106.7768,31.8526,巴中市,市五中,颗粒物(PM10),51,51,44,33,28,17,,,,20,15,5,5,0.5,0.6
2025-04-02T0200,3183A,106.7418,31.8654,巴中市,圣泉水务公司,细颗粒物(PM2.5),52,46,39,36,30,37,,,,21,22,8,8,0.7,0.7
2025-04-02T0200,3616A,106.7616,31.8344,巴中市,市中心医院,细颗粒物(PM2.5),62,47,41,44,31,32,,,,15,14,5,5,0.5,0.5
2025-04-02T0200,2235A,122.7911,45.6077,白城市,洮北区环保局,,36,,41,25,32,54,,,,6,17,5,7,0.4,0.6
2025-04-02T0200,2236A,122.8738,45.5725,白城市,市环保局,,32,,25,22,20,60,,,,5,19,5,4,0.5,0.5
2025-04-02T0200,2231A,126.4219,41.9171,白山市,喜丰,颗粒物(PM10),55,60,74,26,33,88,,,,24,21,8,9,1.0,1
2025-04-02T0200,2232A,126.4077,41.9419,白山市,环保局,颗粒物(PM10),53,55,71,22,36,81,,,,16,26,2,15,0.6,0.7
2025-04-02T0200,2647A,104.1724,36.5446,白银市,第三小学,颗粒物(PM10),100,150,266,46,75,46,,,,26,16,57,31,1.0,0.6
2025-04-02T0200,2648A,104.1465,36.5482,白银市,动力公司,颗粒物(PM10),98,145,251,50,81,50,,,,23,16,11,21,1.0,0.5
2025-04-02T0200,2512A,106.6103,23.9011,百色市,市监测站,,40,40,41,22,24,38,,,,21,15,8,9,0.6,0.6
2025-04-02T0200,2513A,106.6538,23.8859,百色市,市中心血站,"颗粒物(PM10),细颗粒物(PM2.5)",59,68,50,42,33,30,,,,31,22,9,11,0.7,0.6
2025-04-02T0200,3406A,106.6085,23.8798,百色市,祈福高中,,46,46,52,23,22,33,,,,31,21,7,7,0.6,0.5
2025-04-02T0200,2270A,117.396,32.939,蚌埠市,工人疗养院,颗粒物(PM10),70,89,78,36,32,106,,,,28,19,7,6,0.7,0.5
2025-04-02T0200,2271A,117.3605,32.9427,蚌埠市,百货大楼,颗粒物(PM10),62,74,78,36,35,106,,,,28,30,8,8,0.6,0.5
2025-04-02T0200,2273A,117.4185,32.8911,蚌埠市,蚌埠学院,颗粒物(PM10),54,58,68,32,33,108,,,,18,18,4,5,0.5,0.5
2025-04-02T0200,2274A,117.3533,32.9673,蚌埠市,淮上区政府,颗粒物(PM10),64,78,76,38,37,106,,,,26,21,8,8,0.5,0.4
2025-04-02T0200,2275A,117.3145,32.8977,蚌埠市,高新区,颗粒物(PM10),67,83,80,46,41,82,,,,34,24,7,7,0.7,0.5
2025-04-02T0200,3715A,117.3092,32.9314,蚌埠市,蚌埠田家炳中学,颗粒物(PM10),68,85,93,44,40,88,,,,34,29,8,11,0.6,0.4
2025-04-02T0200,1585A,109.8756,40.6532,包头市,市环境监测站,,27,18,39,6,12,29,,,,53,21,10,10,0.5,0.5
2025-04-02T0200,1587A,109.9991,40.5842,包头市,包头八中,,32,32,55,14,18,24,,,,59,35,8,13,0.4,0.5
2025-04-02T0200,1588A,109.8538,40.6821,包头市,青山宾馆,,15,15,31,9,9,45,,,,25,15,8,8,0.5,0.5
2025-04-02T0200,1589A,109.8642,40.6288,包头市,惠龙物流,,19,19,48,11,18,58,,,,26,24,7,16,0.5,0.7
2025-04-02T0200,1590A,110.0377,40.5546,包头市,东河鸿龙湾,,21,21,50,3,12,49,,,,30,25,8,15,0.5,0.7
2025-04-02T0200,3283A,109.9154,40.5685,包头市,滨河大厦,,27,15,49,10,18,27,,,,53,22,11,22,0.5,0.6
2025-04-02T0200,3419A,109.9447,40.6261,包头市,包头市委党校,细颗粒物(PM2.5),57,,43,40,12,31,,,,46,25,7,8,0.6,0.6
2025-04-02T0200,3683A,109.8331,40.6576,包头市,昆区政府,,19,14,29,8,10,59,,,,22,15,6,7,0.5,0.4
2025-04-02T0200,1930A,107.185,34.3063,宝鸡市,庙沟村,颗粒物(PM10),88,126,139,48,46,76,,,,15,10,7,7,0.3,0.3
2025-04-02T0200,1931A,107.0708,34.3017,宝鸡市,竹园沟,颗粒物(PM10),104,158,207,51,66,80,,,,10,18,7,7,0,0.1
2025-04-02T0200,1932A,107.1906,34.3672,宝鸡市,三陆医院,颗粒物(PM10),84,118,148,51,52,41,,,,29,29,7,11,0.5,0.5
2025-04-02T0200,1933A,107.1431,34.3547,宝鸡市,监测站,颗粒物(PM10),94,137,164,50,53,47,,,,16,18,6,10,0.4,0.4
2025-04-02T0200,1934A,107.1186,34.3739,宝鸡市,技工学校,颗粒物(PM10),96,141,148,50,42,61,,,,9,11,5,5,0.4,0.4
2025-04-02T0200,1935A,107.3906,34.3528,宝鸡市,陈仓区环保局家属楼,颗粒物(PM10),102,154,142,52,46,30,,,,39,29,26,28,0.5,0.5
2025-04-02T0200,1936A,107.2058,34.3497,宝鸡市,文理学院,颗粒物(PM10),108,166,145,56,49,38,,,,30,20,7,7,0.5,0.4
2025-04-02T0200,1937A,107.2386,34.3622,宝鸡市,三迪小学,颗粒物(PM10),99,147,151,68,54,34,,,,39,30,7,8,0.5,0.5
2025-04-02T0200,1051A,115.493,38.8632,保定市,游泳馆,,29,29,76,3,28,79,,,,9,17,3,4,0.2,0.3
2025-04-02T0200,1052A,115.5213,38.8959,保定市,华电二区,,30,30,59,3,29,78,,,,4,9,2,3,0.2,0.3
2025-04-02T0200,1053A,115.4713,38.9108,保定市,接待中心,,30,30,65,8,32,75,,,,7,13,1,4,0.2,0.4
2025-04-02T0200,1054A,115.4612,38.8416,保定市,地表水厂,,33,33,89,7,28,85,,,,10,18,3,3,0.2,0.4
2025-04-02T0200,3581A,115.31981,38.95208,保定市,满城区生态环境分局,,25,17,60,3,17,80,,,,8,13,3,2,0.2,0.3
2025-04-02T0200,3582A,115.47694,38.76408,保定市,清苑区第二中学,,27,27,99,3,24,79,,,,4,14,1,3,0.2,0.3
2025-04-02T0200,3583A,115.62909,39.02311,保定市,徐水物探局,,26,24,72,3,19,82,,,,5,15,2,5,0.1,0.2
2025-04-02T0200,4004A,115.4202,38.8656,保定市,双鹰农机,,27,27,75,7,26,76,,,,12,19,2,3,0.2,0.3
2025-04-02T0200,4034A,115.5150,38.8590,保定市,植保所站,,33,33,71,21,34,72,,,,4,10,3,4,0.1,0.3
2025-04-02T0200,2594A,99.1678,25.1081,保山市,市环境监测站,细颗粒物(PM2.5),78,95,120,57,73,133,,,,9,14,7,7,0.7,0.8
2025-04-02T0200,2595A,99.1711,25.1328,保山市,市环保局,细颗粒物(PM2.5),93,80,123,69,76,142,,,,7,14,6,7,0.7,0.9
2025-04-02T0200,1866A,109.2262,21.588,北海市,牛尾岭水库,,,,,,,,,,,,,,,,
2025-04-02T0200,1867A,109.1436,21.4086,北海市,海滩公园,,49,49,33,29,22,66,,,,18,12,7,7,0.4,0.4
2025-04-02T0200,1868A,109.0981,21.4661,北海市,新市环保局,细颗粒物(PM2.5),58,47,35,41,27,59,,,,27,15,4,5,0.5,0.5
2025-04-02T0200,1869A,109.1778,21.5233,北海市,北海工业园,颗粒物(PM10),54,57,41,34,26,22,,,,39,16,8,9,0.5,0.5
2025-04-02T0200,3400A,109.1911,21.4415,北海市,龙潭自来水厂,,47,47,28,31,22,18,,,,28,11,6,7,0.6,0.4
2025-04-02T0200,1001A,116.3621,39.8784,北京市,万寿西宫,,28,13,47,3,16,87,,,,7,25,5,4,0.3,0.4
2025-04-02T0200,1002A,116.2202,40.2915,北京市,定陵,,,,,,,,,,,,,,,,
2025-04-02T0200,1003A,116.4174,39.9289,北京市,东四,,25,13,42,3,16,77,,,,11,20,5,6,0.3,0.4
2025-04-02T0200,1004A,116.4072,39.8863,北京市,天坛,,25,12,40,3,15,77,,,,12,21,3,2,0.4,0.5
2025-04-02T0200,1005A,116.462,39.9365,北京市,农展馆,,25,11,39,3,14,79,,,,8,20,6,6,0.4,0.3
2025-04-02T0200,1006A,116.3392,39.9295,北京市,官园,,23,14,42,3,15,72,,,,7,20,5,6,0.3,0.4
2025-04-02T0200,1007A,116.2878,39.9611,北京市,海淀万柳,,22,11,40,3,12,69,,,,11,24,3,4,0.5,0.5
2025-04-02T0200,1008A,116.6636,40.135,北京市,顺义新城,,18,17,40,3,14,57,,,,22,26,5,6,0.2,0.3
2025-04-02T0200,1009A,116.6275,40.3275,北京市,怀柔镇,,24,10,20,3,8,75,,,,2,7,2,3,0.2,0.2
2025-04-02T0200,1010A,116.2296,40.217,北京市,昌平镇,,28,10,22,3,6,87,,,,1,12,1,2,0.4,0.5
2025-04-02T0200,1011A,116.3966,39.9821,北京市,奥体中心,,23,12,35,3,17,71,,,,19,28,3,4,0.4,0.5
2025-04-02T0200,3281A,115.9718,40.4529,北京市,延庆夏都,,28,8,20,3,10,88,,,,1,6,5,5,0.4,0.4
2025-04-02T0200,3418A,116.8336,40.4095,北京市,密云新城,,24,6,23,3,10,76,,,,2,9,3,3,0.3,0.3
2025-04-02T0200,3671A,116.088,39.9726,北京市,门头沟三家店,,21,21,53,6,11,38,,,,26,15,4,4,0.3,0.3
2025-04-02T0200,3672A,116.1541,39.8204,北京市,丰台云岗,,24,24,41,10,15,73,,,,13,22,4,5,0.3,0.3
2025-04-02T0200,3673A,116.6804,39.9081,北京市,通州东关,,21,21,54,3,19,50,,,,26,23,5,5,0.2,0.2
2025-04-02T0200,3674A,115.9577,39.7603,北京市,房山燕山,,26,14,26,3,9,81,,,,4,13,4,4,0.2,0.2
2025-04-02T0200,3675A,116.4672,39.7733,北京市,大兴旧宫,,23,10,48,3,18,73,,,,8,16,3,3,0.1,0.2
2025-04-02T0200,3694A,115.986,40.4563,北京市,延庆石河营,,25,12,21,3,7,77,,,,4,8,4,4,0.4,0.3
2025-04-02T0200,3695A,116.6151,40.3053,北京市,怀柔新城,,24,7,17,3,5,74,,,,1,6,4,5,0.4,0.4
2025-04-02T0200,3696A,116.2545,39.8768,北京市,丰台小屯,,21,18,47,3,16,65,,,,10,26,1,2,0.3,0.4
2025-04-02T0200,3697A,116.84,40.3844,北京市,密云镇,,23,9,30,3,11,73,,,,10,17,5,5,0.3,0.4
2025-04-02T0200,4182A,116.1942,39.9158,北京市,八角北路9号,,25,16,40,3,9,79,,,,4,17,3,2,0.2,0.1
2025-04-02T0200,4194A,117.0790,40.1518,北京市,洳河巡河路,,26,8,35,3,17,83,,,,4,14,1,3,0.3,0.4
2025-04-02T0200,1761A,123.8275,41.3064,本溪市,大峪,,38,,88,20,55,120,,,,11,21,8,9,0.5,0.8
2025-04-02T0200,1762A,123.7567,41.3325,本溪市,溪湖,,39,39,98,16,66,114,,,,10,24,6,8,0.5,1
2025-04-02T0200,1763A,123.7169,41.3094,本溪市,彩屯,,36,24,117,19,72,115,,,,11,36,10,16,0.5,2
2025-04-02T0200,1764A,123.7669,41.2864,本溪市,东明,,32,,67,19,49,102,,,,9,19,7,8,0.7,1
2025-04-02T0200,1765A,123.7992,41.2664,本溪市,新立屯,,37,,65,8,61,117,,,,15,25,6,7,0.6,0.9
2025-04-02T0200,1766A,123.8142,41.3472,本溪市,威宁,,30,28,113,17,61,96,,,,4,17,4,4,0.5,0.8
2025-04-02T0200,2587A,105.2864,27.3125,毕节市,八中,,26,21,18,18,15,67,,,,5,8,8,9,0.5,0.5
2025-04-02T0200,2588A,105.31,27.2944,毕节市,师专,,24,20,18,16,13,74,,,,7,11,5,6,0.5,0.6
2025-04-02T0200,4263A,105.3688,27.3598,毕节市,工业大道,,24,20,15,16,12,76,,,,8,10,7,8,0.5,0.4
2025-04-02T0200,1629A,118.0018,37.3617,滨州市,第二水厂,,48,48,97,12,29,64,,,,16,18,9,10,0.4,0.6
2025-04-02T0200,1630A,117.9776,37.393,滨州市,北中新校,,,,,,,,,,,,,,,,
2025-04-02T0200,3514A,117.9378,37.3956,滨州市,中海酒店,,24,24,82,9,35,66,,,,18,20,7,11,0.4,0.5
2025-04-02T0200,3515A,117.9378,37.3553,滨州市,开发区一中,,44,44,100,3,30,68,,,,23,27,9,13,0.3,0.3
2025-04-02T0200,3516A,118.0917,37.694,滨州市,金海六路,,49,49,86,14,27,74,,,,20,28,6,9,0.6,0.7
2025-04-02T0200,4028A,117.9956,37.3753,滨州市,滨州市西街道办事处,,36,36,91,17,36,70,,,,17,18,8,9,0.5,0.6
2025-04-02T0200,2311A,115.8072,33.8399,亳州市,污水处理厂,颗粒物(PM10),60,69,81,28,29,98,,,,11,15,11,7,0.3,0.4
2025-04-02T0200,2312A,115.7789,33.8518,亳州市,三国揽胜宫,颗粒物(PM10),63,76,80,34,30,96,,,,13,12,14,8,0.4,0.4
2025-04-02T0200,3332A,115.7633,33.8034,亳州市,亳州学院,颗粒物(PM10),63,75,77,35,31,86,,,,16,13,19,9,0.5,0.5
2025-04-02T0200,2693A,82.0485,44.8556,博尔塔拉蒙古自治州,市党校,颗粒物(PM10),69,87,64,29,24,113,,,,25,28,2,2,0.2,0.2
2025-04-02T0200,2694A,82.0806,44.8969,博尔塔拉蒙古自治州,市环保局,颗粒物(PM10),64,78,74,14,19,75,,,,27,21,4,4,0.6,0.6
2025-04-02T0200,1071A,116.8842,38.2991,沧州市,沧县城建局,,32,32,77,16,36,67,,,,14,15,1,4,0.3,0.4
2025-04-02T0200,1072A,116.8584,38.3254,沧州市,电视转播站,,32,32,55,3,26,71,,,,15,16,5,4,0.4,0.4
2025-04-02T0200,1073A,116.8709,38.3228,沧州市,市环保局,,33,33,70,15,31,64,,,,14,14,4,6,0.2,0.3
2025-04-02T0200,3324A,116.8136,38.3004,沧州市,河北水利电力学院,,20,19,79,14,33,64,,,,18,16,1,5,0.1,0.2
2025-04-02T0200,2622A,97.1806,31.1273,昌都市,昌都监测站,,28,11,16,11,10,88,,,,7,6,6,7,0.2,0.2
2025-04-02T0200,3719A,97.1714,31.1406,昌都市,昌都会议中心,,31,12,17,10,10,98,,,,7,8,2,3,0.2,0.2
2025-04-02T0200,2690A,88.1236,43.8886,昌吉回族自治州,天山天池,颗粒物(PM10),53,56,43,15,9,74,,,,10,11,5,5,0.6,0.6
2025-04-02T0200,2692A,87.2717,44.0297,昌吉回族自治州,新区政务中心,颗粒物(PM10),79,107,73,34,19,59,,,,21,21,9,9,0.7,0.8
2025-04-02T0200,3613A,87.3095,44.0142,昌吉回族自治州,亚心广场,颗粒物(PM10),76,102,90,31,25,58,,,,22,22,8,8,0.6,0.7
2025-04-02T0200,1119A,125.3325,43.9166,长春市,食品厂,,33,,79,23,54,42,,,,35,26,7,9,0.4,0.6
2025-04-02T0200,1120A,125.2863,43.9027,长春市,客车厂,,45,,75,31,61,43,,,,31,25,5,7,0.6,0.7
2025-04-02T0200,1121A,125.2841,43.8463,长春市,邮电学院,,45,,83,31,63,37,,,,29,20,6,9,0.5,0.6
2025-04-02T0200,1122A,125.3716,43.8772,长春市,劳动公园,,29,,71,20,58,51,,,,19,21,6,9,0.4,0.6
2025-04-02T0200,1123A,125.3297,43.8805,长春市,园林处,,29,,73,20,54,52,,,,19,21,6,8,0.4,0.5
2025-04-02T0200,1124A,125.4605,43.79,长春市,净月潭,,49,,81,34,62,40,,,,23,15,6,8,0.4,0.6
2025-04-02T0200,1125A,125.7194,43.515,长春市,甩湾子,,,,55,,54,,,82,,,10,,3,,0.7
2025-04-02T0200,1126A,125.3863,43.8447,长春市,经开区环卫处,,33,26,76,23,55,48,,,,22,21,6,7,0.3,0.5
2025-04-02T0200,1127A,125.245,43.7783,长春市,高新区管委会,,,36,76,29,62,,,,,34,22,,8,0.5,0.6
2025-04-02T0200,1128A,125.1761,43.8325,长春市,岱山公园,,39,,75,27,60,22,,,,55,27,4,6,0.5,0.6
2025-04-02T0200,1335A,113.0833,28.2325,长沙市,经开区环保局,颗粒物(PM10),81,112,84,58,41,4,,,,104,46,5,4,1.0,0.6
2025-04-02T0200,1336A,112.8872,28.2189,长沙市,高开区环保局,细颗粒物(PM2.5),85,112,84,63,43,5,,,,88,38,5,5,1.0,0.6
2025-04-02T0200,1337A,113.0792,28.2053,长沙市,马坡岭,颗粒物(PM10),88,126,87,61,44,3,,,,107,42,6,5,0.7,0.6
2025-04-02T0200,1338A,112.9394,28.19,长沙市,湖南师范大学,细颗粒物(PM2.5),73,86,73,53,34,29,,,,58,25,5,5,0.8,0.6
2025-04-02T0200,1339A,113.0178,28.1322,长沙市,雨花区环保局,颗粒物(PM10),82,114,87,56,42,1,,,,110,42,7,7,0.9,0.6
2025-04-02T0200,1340A,112.9792,28.2597,长沙市,伍家岭,颗粒物(PM10),85,120,93,50,38,1,,,,93,41,4,4,0.7,0.6
2025-04-02T0200,1341A,113.0014,28.1944,长沙市,火车新站,细颗粒物(PM2.5),94,130,92,70,47,7,,,,106,47,7,6,1.2,0.7
2025-04-02T0200,1342A,112.9844,28.1178,长沙市,天心区环保局,颗粒物(PM10),85,119,83,53,42,4,,,,100,41,5,10,1.1,0.9
2025-04-02T0200,1343A,112.8908,28.1308,长沙市,湖南中医药大学,颗粒物(PM10),73,95,79,51,37,2,,,,70,39,4,4,0.7,0.5
2025-04-02T0200,1344A,112.9581,28.3611,长沙市,沙坪,"颗粒物(PM10),细颗粒物(PM2.5)",54,58,62,38,33,69,,,,18,16,5,6,0.5,0.4
2025-04-02T0200,1727A,113.1147,36.1547,长治市,清华站,颗粒物(PM10),66,81,53,24,15,20,,,,54,23,13,8,0.8,0.6
2025-04-02T0200,1730A,113.0886,36.2125,长治市,审计局,颗粒物(PM10),64,78,52,19,17,56,,,,32,24,22,11,1.1,0.3
2025-04-02T0200,1731A,113.0844,36.1856,长治市,长治八中,颗粒物(PM10),75,99,70,24,24,54,,,,32,19,22,11,1.4,0.5
2025-04-02T0200,2845A,113.1569,36.1911,长治市,德盛苑,颗粒物(PM10),56,61,52,9,17,72,,,,13,13,5,7,0.5,0.5
2025-04-02T0200,3568A,113.06,36.0464,长治市,向阳小学,颗粒物(PM10),70,90,66,19,23,26,,,,52,23,16,11,0.4,0.4
2025-04-02T0200,3569A,112.8792,36.3144,长治市,屯留一中,,48,48,49,16,17,63,,,,30,28,12,9,0.3,0.4
2025-04-02T0200,4189A,113.1131,36.19948,长治市,英华南巷50号,颗粒物(PM10),73,96,64,24,20,44,,,,41,23,22,14,2.0,0.8
2025-04-02T0200,4190A,113.2367,36.3344,长治市,学府街1号,颗粒物(PM10),62,73,72,28,25,81,,,,15,24,12,8,0.6,0.4
2025-04-02T0200,1854A,111.6975,28.9703,常德市,市二中,颗粒物(PM10),65,80,55,45,30,3,,,,61,22,4,5,0.7,0.6
2025-04-02T0200,1857A,111.7158,29.1456,常德市,白鹤山,,,,,,,,,,,,,,,,
2025-04-02T0200,3138A,111.7153,29.0289,常德市,武陵区永安,颗粒物(PM10),63,76,59,43,28,15,,,,64,24,5,4,1.0,0.6
2025-04-02T0200,3139A,111.6892,28.9881,常德市,鼎城区玉霞,颗粒物(PM10),71,91,58,47,30,2,,,,58,23,5,5,0.5,0.4
2025-04-02T0200,3140A,111.6625,29.0531,常德市,武陵区长庚,颗粒物(PM10),61,71,58,39,29,11,,,,52,25,4,5,0.6,0.5
2025-04-02T0200,1196A,119.9633,31.762,常州市,市监测站,颗粒物(PM10),65,80,62,41,30,84,,,,20,22,8,6,0.6,0.5
2025-04-02T0200,1200A,119.9468,31.7069,常州市,武进监测站,颗粒物(PM10),51,52,43,28,22,95,,,,28,25,15,12,0.4,0.3
2025-04-02T0200,1201A,119.9255,31.9087,常州市,安家,颗粒物(PM10),64,77,61,40,31,85,,,,24,32,8,8,0.6,0.6
2025-04-02T0200,3002A,119.9805,31.8174,常州市,行政中心,颗粒物(PM10),54,58,49,34,27,89,,,,30,33,10,8,0.5,0.6
2025-04-02T0200,3003A,120.0522,31.7748,常州市,经开区,颗粒物(PM10),60,69,62,32,29,96,,,,29,37,12,12,1.1,0.9
2025-04-02T0200,3010A,119.9025,31.7964,常州市,钟楼,颗粒物(PM10),56,61,51,32,25,103,,,,20,21,8,7,0.6,0.7
2025-04-02T0200,3429A,119.8598,31.7066,常州市,武进经发区,颗粒物(PM10),53,56,49,32,26,105,,,,23,27,7,7,0.6,0.6
2025-04-02T0200,3430A,119.5826,31.7245,常州市,金坛城区,细颗粒物(PM2.5),57,56,47,40,28,81,,,,28,20,8,8,0.5,0.6
2025-04-02T0200,2220A,120.4318,41.5881,朝阳市,西梁,,21,21,51,3,19,64,,,,14,23,9,10,0.4,0.6
2025-04-02T0200,2221A,120.4521,41.5646,朝阳市,河畔小区,,23,23,53,9,24,66,,,,12,22,7,8,0.5,0.9
2025-04-02T0200,2222A,120.4176,41.5648,朝阳市,八里堡,,23,11,49,6,16,72,,,,8,20,6,8,0.5,0.7
2025-04-02T0200,2223A,120.3806,41.5969,朝阳市,农业园区,,24,14,62,7,23,74,,,,6,24,8,9,0.5,0.7
2025-04-02T0200,1705A,116.6367,23.6719,潮州市,西园路,,,,,,,,,,,,,,,,
2025-04-02T0200,3026A,116.6183,23.6608,潮州市,市政府,,14,14,11,8,6,20,,,,15,11,3,3,0.6,0.6
2025-04-02T0200,4036A,116.6461,23.6761,潮州市,金山,,21,21,10,8,7,13,,,,16,12,6,6,0.5,0.5
2025-04-02T0200,2472A,113.0073,25.9061,郴州市,马头岭,,48,48,52,18,17,22,,,,17,11,8,9,0.7,0.7
2025-04-02T0200,2473A,113.0116,25.8226,郴州市,市职中,颗粒物(PM10),52,54,54,34,33,12,,,,24,19,4,6,0.6,0.7
2025-04-02T0200,2475A,113.0383,25.8071,郴州市,市审计局,颗粒物(PM10),55,59,51,36,33,6,,,,44,19,5,8,1.8,0.9
2025-04-02T0200,2476A,113.0348,25.7759,郴州市,市环保局,颗粒物(PM10),63,75,59,39,34,1,,,,43,23,7,9,0.5,0.5
2025-04-02T0200,4252A,113.0138,25.8011,郴州市,好美居路49号,颗粒物(PM10),65,79,61,45,38,2,,,,35,21,6,9,0.7,0.6
2025-04-02T0200,1431A,103.9728,30.7236,成都市,金泉两河,颗粒物(PM10),73,95,78,36,40,24,,,,24,31,2,2,0.8,0.9
2025-04-02T0200,1432A,104.176,30.6872,成都市,十里店,颗粒物(PM10),61,72,64,37,40,34,,,,33,36,3,3,0.7,0.7
2025-04-02T0200,1433A,104.079,30.5706,成都市,三瓦窑,颗粒物(PM10),63,75,75,32,47,48,,,,27,40,4,4,0.4,0.8
2025-04-02T0200,1434A,104.1114,30.63,成都市,沙河铺,细颗粒物(PM2.5),67,75,73,48,52,38,,,,23,33,5,5,0.6,0.7
2025-04-02T0200,1437A,104.0786,30.6531,成都市,君平街,细颗粒物(PM2.5),62,70,73,44,51,40,,,,26,38,5,6,0.7,1
2025-04-02T0200,1438A,103.613,31.0283,成都市,灵岩寺,,,,,,,,,,,,,,,,
2025-04-02T0200,2880A,104.0239,30.65639,成都市,大石西路,颗粒物(PM10),62,73,75,38,52,31,,,,28,38,4,7,0.7,0.9
2025-04-02T0200,3136A,104.2725,30.5589,成都市,龙泉驿区区政府,"颗粒物(PM10),细颗粒物(PM2.5)",62,73,46,44,31,38,,,,23,23,4,4,0.8,0.8
2025-04-02T0200,3357A,104.0106,30.6931,成都市,金博路,颗粒物(PM10),58,66,64,27,39,24,,,,25,34,6,6,0.6,0.7
2025-04-02T0200,3359A,104.0578,30.5225,成都市,华阳,颗粒物(PM10),56,61,69,39,50,66,,,,20,35,6,5,0.4,0.6
2025-04-02T0200,3488A,104.3853,30.7453,成都市,青白江技师分院,细颗粒物(PM2.5),79,85,49,58,34,13,,,,42,28,6,5,0.8,0.8
2025-04-02T0200,3489A,104.0789,30.4072,成都市,科学城,颗粒物(PM10),56,61,61,35,47,52,,,,18,27,4,4,0.6,0.7
2025-04-02T0200,4011A,103.8506,30.6947,成都市,光华大道三段,颗粒物(PM10),61,72,69,32,46,39,,,,17,32,3,4,0.6,0.9
2025-04-02T0200,4224A,104.2433,30.5353,成都市,鲸龙路1057号,细颗粒物(PM2.5),67,80,56,48,39,32,,,,29,32,3,3,0.8,0.9
2025-04-02T0200,1062A,117.9531,40.9081,承德市,铁路,,22,16,36,7,13,70,,,,8,17,5,7,0.2,0.3
2025-04-02T0200,1063A,117.9392,40.9763,承德市,中国银行,,16,14,34,8,11,50,,,,14,13,3,3,0.2,0.3
2025-04-02T0200,1064A,117.9503,40.928,承德市,开发区,,29,29,42,9,17,60,,,,14,16,4,6,0.3,0.3
2025-04-02T0200,1065A,117.8051,40.9655,承德市,文化中心,,23,14,51,12,16,73,,,,9,16,3,7,0.2,0.4
2025-04-02T0200,1066A,117.9268,41.0026,承德市,离宫,,28,,30,19,21,57,,,,2,9,17,18,0.2,0.2
2025-04-02T0200,2314A,117.47,30.6618,池州市,池州学院,,35,35,46,23,28,69,,,,20,26,6,7,0.7,0.6
2025-04-02T0200,3237A,117.4918,30.6617,池州市,展览馆,,38,38,44,25,26,60,,,,21,28,5,6,0.8,0.6
2025-04-02T0200,3333A,117.5627,30.695,池州市,第八中学,,44,44,50,28,28,52,,,,29,27,5,7,0.6,0.6
2025-04-02T0200,3334A,117.5038,30.6243,池州市,第十二中学,,37,37,43,20,25,59,,,,28,31,5,6,1.0,0.8
2025-04-02T0200,1744A,118.9233,42.2816,赤峰市,松山一中,,22,21,28,3,6,69,,,,14,21,8,8,0.3,0.5
2025-04-02T0200,1745A,118.9576,42.2728,赤峰市,哈达街,,24,11,24,9,9,76,,,,13,20,8,7,0.5,0.5
2025-04-02T0200,1746A,118.8788,42.2554,赤峰市,天义路,,23,10,18,6,8,71,,,,10,18,6,7,0.3,0.4
2025-04-02T0200,3058A,119.2658,42.0353,赤峰市,银河街,,21,13,29,11,14,66,,,,13,19,15,18,0.3,0.3
2025-04-02T0200,3286A,118.9359,42.3147,赤峰市,桥北物流园区,,26,,20,18,14,56,,,,15,21,7,8,0.6,0.6
2025-04-02T0200,2521A,107.3476,22.4136,崇左市,市环保局江州分局,颗粒物(PM10),53,56,41,29,22,85,,,,18,12,13,8,0.6,0.4
2025-04-02T0200,4256A,107.3750,22.3736,崇左市,石景林东路7号,颗粒物(PM10),54,58,38,31,18,86,,,,19,12,9,7,0.6,0.5
2025-04-02T0200,2298A,118.3093,32.3153,滁州市,老年大学,,43,43,52,26,28,103,,,,18,23,7,5,0.6,0.7
2025-04-02T0200,2299A,118.3244,32.2786,滁州市,人大宾馆,颗粒物(PM10),53,55,49,33,30,77,,,,32,27,19,12,0.7,0.7
2025-04-02T0200,3207A,118.3118,32.3038,滁州市,市政府原办公楼,,40,38,46,28,29,98,,,,14,23,16,8,0.4,0.5
2025-04-02T0200,3331A,118.3267,32.2634,滁州市,图书馆,细颗粒物(PM2.5),60,54,50,43,32,74,,,,40,32,17,11,0.5,0.5
2025-04-02T0200,2605A,101.5482,25.0441,楚雄彝族自治州,州环境监测站,,48,38,50,33,42,75,,,,8,13,8,9,0.7,0.7
2025-04-02T0200,2606A,101.538,25.0492,楚雄彝族自治州,市经济开发区,,48,35,53,33,42,70,,,,7,13,6,7,0.7,0.8
2025-04-02T0200,2548A,107.5277,31.2827,达州市,达州职业技术学院,,39,39,43,24,22,3,,,,34,20,5,5,0.3,0.3
2025-04-02T0200,2549A,107.5086,31.2186,达州市,市环境监测站,颗粒物(PM10),51,52,46,22,20,13,,,,41,25,4,4,0.6,0.6
2025-04-02T0200,2550A,107.4988,31.2132,达州市,凤凰小区,颗粒物(PM10),52,53,44,34,24,24,,,,37,23,7,6,0.5,0.4
2025-04-02T0200,2551A,107.5082,31.1986,达州市,达县机关宾馆,颗粒物(PM10),51,51,46,24,24,12,,,,42,27,4,4,0.4,0.4
2025-04-02T0200,2552A,107.4644,31.2124,达州市,市政中心,颗粒物(PM10),56,62,50,29,21,23,,,,35,25,3,2,0.5,0.5
2025-04-02T0200,2614A,100.1542,25.7054,大理白族自治州,大理市环境监测站,细颗粒物(PM2.5),77,84,89,56,65,142,,,,8,15,8,8,1.2,1.2
2025-04-02T0200,2615A,100.2171,25.5811,大理白族自治州,大理古城,,,68,75,65,61,134,,,,,,8,8,0.6,0.7
2025-04-02T0200,1109A,121.612,38.9741,大连市,甘井子,细颗粒物(PM2.5),102,120,93,76,54,98,,,,24,31,7,8,0.8,0.6
2025-04-02T0200,1110A,121.565,38.9511,大连市,周水子,细颗粒物(PM2.5),112,117,86,84,58,95,,,,21,30,9,11,0.5,0.6
2025-04-02T0200,1111A,121.5637,38.8845,大连市,星海三站,细颗粒物(PM2.5),102,115,84,76,53,99,,,,14,18,10,8,0.7,0.7
2025-04-02T0200,1112A,121.6302,38.9117,大连市,青泥洼桥,细颗粒物(PM2.5),98,124,84,73,49,95,,,,23,23,11,11,0.9,0.8
2025-04-02T0200,1113A,121.6251,38.8638,大连市,傅家庄,细颗粒物(PM2.5),92,114,79,68,47,91,,,,27,25,11,10,0.5,0.4
2025-04-02T0200,1114A,121.5213,38.8661,大连市,七贤岭,细颗粒物(PM2.5),98,123,88,73,50,97,,,,15,19,7,8,0.5,0.5
2025-04-02T0200,1115A,121.2529,38.8061,大连市,旅顺,细颗粒物(PM2.5),95,114,80,71,52,93,,,,27,32,8,8,0.6,0.6
2025-04-02T0200,1116A,121.7485,39.1311,大连市,金州,颗粒物(PM10),69,88,88,48,50,97,,,,22,28,10,12,0.7,0.7
2025-04-02T0200,1117A,121.7811,39.0496,大连市,开发区,细颗粒物(PM2.5),72,91,80,52,46,95,,,,22,27,7,8,0.8,0.8
2025-04-02T0200,1118A,121.9762,39.0631,大连市,双D港,颗粒物(PM10),64,78,77,38,42,115,,,,17,23,7,8,0.8,0.7
2025-04-02T0200,1789A,124.81117,46.03138,大庆市,大同区,细颗粒物(PM2.5),65,,62,47,56,58,,,,27,17,3,4,0.8,0.7
2025-04-02T0200,1790A,125.129,46.533,大庆市,龙凤区,,41,41,73,28,46,70,,,,14,16,7,9,0.4,0.5
2025-04-02T0200,1791A,124.902,46.408,大庆市,红岗区,,48,40,58,33,48,78,,,,11,13,6,5,0.5,0.5
2025-04-02T0200,1792A,125.153,46.586,大庆市,萨尔图区,,46,46,68,24,52,58,,,,18,17,6,8,0.6,0.6
2025-04-02T0200,1793A,124.9042,46.6215,大庆市,让胡路区,细颗粒物(PM2.5),73,53,55,53,53,60,,,,18,17,5,6,0.6,0.4
2025-04-02T0200,3481A,125.141,46.634,大庆市,萨区政府监测点,,46,46,65,29,38,67,,,,14,13,5,7,0.6,0.5
2025-04-02T0200,1721A,113.3819,40.1097,大同市,果树场,,30,30,49,21,19,45,,,,23,21,33,12,0.7,0.7
2025-04-02T0200,1723A,113.2994,40.0758,大同市,云冈宾馆,,36,36,33,6,8,52,,,,23,13,12,11,0.9,0.5
2025-04-02T0200,1724A,113.3444,40.0917,大同市,大同大学,,27,27,43,3,12,35,,,,31,21,20,18,0.5,0.4
2025-04-02T0200,1725A,113.2661,40.1269,大同市,安家小村,颗粒物(PM10),51,51,42,15,12,29,,,,31,15,13,12,0.9,0.9
2025-04-02T0200,1726A,113.2711,40.0844,大同市,教育学院,,36,36,38,7,10,45,,,,24,14,12,10,1.0,0.5
2025-04-02T0200,3282A,113.3397,40.0597,大同市,大同市卫生学校,,24,24,38,11,14,40,,,,36,19,12,9,0.8,0.4
2025-04-02T0200,3565A,113.1367,40.1122,大同市,云冈站,,29,24,44,20,14,35,,,,22,15,18,17,0.4,0.4
2025-04-02T0200,3566A,113.1186,40.2556,大同市,图书馆,颗粒物(PM10),62,74,44,9,10,42,,,,14,10,9,9,0.5,0.3
2025-04-02T0200,3567A,113.5931,40.0461,大同市,区一中,,18,13,60,7,14,57,,,,16,14,12,18,0.5,0.6
2025-04-02T0200,4199A,113.2798,40.0997,大同市,魏都大道141号,,46,46,53,11,15,48,,,,25,20,16,14,1.0,0.6
2025-04-02T0200,2269A,124.1069,50.4097,大兴安岭地区,科技局,细颗粒物(PM2.5),52,48,36,36,28,58,,,,9,6,6,7,0.5,0.4
2025-04-02T0200,3663A,124.1164,50.4278,大兴安岭地区,红旗社区,,42,36,25,29,21,36,,,,14,13,5,6,0.5,0.5
2025-04-02T0200,1600A,124.3303,40.0625,丹东市,江湾东路,,47,47,58,27,33,130,,,,9,11,8,9,0.5,0.6
2025-04-02T0200,1601A,124.4256,40.1503,丹东市,临江后街,颗粒物(PM10),58,66,97,27,36,126,,,,11,13,11,10,0.5,0.6
2025-04-02T0200,1602A,124.3933,40.1461,丹东市,元宝山,颗粒物(PM10),52,54,67,27,33,127,,,,13,14,11,9,0.6,0.5
2025-04-02T0200,1603A,124.3633,40.1092,丹东市,民主桥,颗粒物(PM10),51,52,63,25,30,125,,,,11,11,9,9,0.5,0.6
2025-04-02T0200,3541A,109.5726,19.5167,儋州市,第一中学子站,,37,37,21,23,14,47,,,,7,9,4,4,0.7,0.8
2025-04-02T0200,3542A,109.5567,19.5187,儋州市,东坡学校子站,,41,41,22,25,15,50,,,,6,10,4,5,0.7,0.8
2025-04-02T0200,2616A,98.5842,24.428,德宏傣族景颇族自治州,德宏州监测站,细颗粒物(PM2.5),140,140,135,107,102,57,,,,42,34,16,11,1.2,1.2
2025-04-02T0200,3677A,98.5881,24.4368,德宏傣族景颇族自治州,芒市人民政府综合楼,细颗粒物(PM2.5),142,166,164,108,101,91,,,,16,21,10,11,1.1,1.1
2025-04-02T0200,1901A,104.4239,31.1208,德阳市,东山公园,细颗粒物(PM2.5),79,91,51,58,40,2,,,,61,32,3,3,0.8,0.7
2025-04-02T0200,1902A,104.3826,31.1317,德阳市,西小区,细颗粒物(PM2.5),93,110,63,69,48,3,,,,58,33,4,3,0.8,0.7
2025-04-02T0200,1904A,104.3553,31.1091,德阳市,耐火材料厂,细颗粒物(PM2.5),90,96,57,67,48,3,,,,57,32,5,5,0.7,0.5
2025-04-02T0200,3639A,104.4019,31.1244,德阳市,市教育局,细颗粒物(PM2.5),83,88,53,61,45,2,,,,57,35,4,4,0.8,0.7
2025-04-02T0200,1622A,116.3032,37.4674,德州市,儿童乐园,,27,27,89,3,28,74,,,,14,17,4,8,0.5,0.7
2025-04-02T0200,1624A,116.2991,37.4451,德州市,监理站,,25,17,87,9,32,77,,,,13,15,7,11,0.2,0.3
2025-04-02T0200,3066A,116.2721,37.4379,德州市,九衢泉纯净水厂,,23,17,86,3,28,71,,,,24,23,6,11,0.3,0.5
2025-04-02T0200,3371A,116.3728,37.4403,德州市,开发区人民医院,,36,36,95,12,27,57,,,,31,20,5,8,0.5,0.6
2025-04-02T0200,3372A,116.3572,37.4094,德州市,太阳城中学,,34,34,100,9,33,66,,,,22,18,3,7,0.2,0.5
2025-04-02T0200,3511A,116.5652,37.3319,德州市,陵城艺术中心,,36,36,92,7,33,68,,,,16,19,8,10,0.4,0.6
2025-04-02T0200,2621A,99.7056,27.8317,迪庆藏族自治州,迪庆州站,颗粒物(PM10),53,56,67,33,37,128,,,,7,11,8,8,0.6,0.6
2025-04-02T0200,3180A,99.7136,27.8094,迪庆藏族自治州,质量技术监督局,,49,40,54,34,35,131,,,,7,11,8,9,0.4,0.7
2025-04-02T0200,4257A,104.6092,35.5962,定西市,将台街,颗粒物(PM10),125,199,176,67,55,21,,,,40,32,5,9,0.3,0.3
2025-04-02T0200,4309A,104.6159,35.5701,定西市,正龙路62号,颗粒物(PM10),122,194,181,40,61,55,,,,13,14,9,13,0.4,1
2025-04-02T0200,1389A,113.7547,23.0494,东莞市,莞城梨川,,30,30,27,19,19,35,,,,26,19,4,4,0.5,0.5
2025-04-02T0200,1390A,113.7944,23.0128,东莞市,东城石井,,30,30,23,17,16,17,,,,24,17,6,6,0.6,0.6
2025-04-02T0200,1391A,113.7383,22.9658,东莞市,南城西平,,26,23,22,18,16,26,,,,37,27,7,7,0.5,0.6
2025-04-02T0200,3319A,113.7338,23.0381,东莞市,万江金泰,,29,29,24,17,16,34,,,,24,14,6,6,0.6,0.6
2025-04-02T0200,3626A,113.7533,23.0202,东莞市,南城元岭,,35,35,25,20,16,17,,,,37,18,6,6,0.6,0.6
2025-04-02T0200,3627A,113.7875,23.0457,东莞市,东城主山,,28,28,28,16,15,19,,,,47,28,9,6,0.6,0.6
2025-04-02T0200,1666A,118.6614,37.4309,东营市,市环保局,,48,48,87,3,28,83,,,,14,23,3,8,0.4,0.6
2025-04-02T0200,3036A,118.6904,37.4338,东营市,开发区管委会,,41,41,91,14,36,85,,,,13,25,3,9,0.6,0.7
2025-04-02T0200,3365A,118.5719,37.565,东营市,垦利区民丰路,,44,44,84,24,31,82,,,,17,20,5,13,0.6,0.7
2025-04-02T0200,3498A,118.5055,37.8612,东营市,河口城区,颗粒物(PM10),57,63,90,27,27,89,,,,18,22,5,7,0.8,0.7
2025-04-02T0200,3646A,118.4978,37.4623,东营市,胜利站,颗粒物(PM10),57,64,98,17,30,80,,,,18,29,14,11,0.6,0.6
2025-04-02T0200,3734A,118.35,37.26,东营市,理想之城,颗粒物(PM10),59,68,93,19,32,82,,,,17,30,6,8,0.4,0.5
2025-04-02T0200,1591A,110.0023,39.8129,鄂尔多斯市,综合楼,,25,17,57,3,9,77,,,,16,12,10,8,0.4,0.3
2025-04-02T0200,1592A,109.9486,39.8261,鄂尔多斯市,巴音孟克林场办事处,,24,24,52,7,13,61,,,,28,13,12,8,0.4,0.3
2025-04-02T0200,1593A,109.7736,39.5986,鄂尔多斯市,康泽苑,,29,29,56,12,11,54,,,,14,7,3,3,0.2,0.2
2025-04-02T0200,1594A,109.8119,39.5989,鄂尔多斯市,华泰汽车城,,41,41,59,7,16,29,,,,37,13,5,5,0.4,0.3
2025-04-02T0200,1595A,109.9734,39.7884,鄂尔多斯市,奥林花园,,24,22,55,7,10,76,,,,13,10,6,9,0.3,0.3
2025-04-02T0200,2436A,114.8938,30.3994,鄂州市,市政府,颗粒物(PM10),81,111,103,52,59,4,,,,80,38,7,9,0.9,1.1
2025-04-02T0200,2437A,114.8989,30.3714,鄂州市,赵家坝,颗粒物(PM10),66,81,105,35,52,27,,,,63,45,7,5,0.7,0.9
2025-04-02T0200,3654A,114.8094,30.4089,鄂州市,精准医疗中心,"颗粒物(PM10),细颗粒物(PM2.5)",75,100,96,55,52,50,,,,66,36,5,6,1.1,0.9
2025-04-02T0200,2454A,109.4978,30.2981,恩施土家族苗族自治州,湖北民院,颗粒物(PM10),66,81,64,34,30,49,,,,11,17,2,2,0.0,0.1
2025-04-02T0200,2455A,109.4707,30.2798,恩施土家族苗族自治州,州电力总公司,颗粒物(PM10),66,81,66,46,31,5,,,,47,27,6,5,0.6,0.2
2025-04-02T0200,3549A,109.5061,30.3772,恩施土家族苗族自治州,龙凤新区,颗粒物(PM10),58,65,56,34,28,24,,,,12,13,6,6,0.4,0.4
2025-04-02T0200,2499A,108.3411,21.6158,防城港市,沙万,,49,37,41,34,27,65,,,,27,19,4,2,0.3,0.3
2025-04-02T0200,2500A,108.3514,21.7731,防城港市,防城档案局,细颗粒物(PM2.5),54,46,46,38,25,43,,,,13,14,2,4,0.4,0.4
2025-04-02T0200,2501A,108.3506,21.6414,防城港市,大海花园,细颗粒物(PM2.5),55,52,43,39,23,58,,,,16,12,14,5,0.8,0.7
2025-04-02T0200,1371A,113.1294,23.0067,佛山市,湾梁,,48,48,37,26,20,5,,,,66,31,8,8,0.6,0.8
2025-04-02T0200,1372A,113.1083,23.0478,佛山市,华材职中,,44,44,39,25,22,24,,,,47,33,8,8,0.8,0.5
2025-04-02T0200,1373A,113.144,23.0453,佛山市,南海气象局,,46,46,38,25,19,17,,,,35,27,9,8,0.7,0.6
2025-04-02T0200,1374A,113.2881,22.8094,佛山市,顺德苏岗,,31,31,29,19,16,11,,,,51,33,5,6,0.5,0.5
2025-04-02T0200,1376A,112.8383,22.8678,佛山市,高明孔堂,颗粒物(PM10),56,61,34,28,23,12,,,,61,23,8,10,0.7,0.6
2025-04-02T0200,1377A,112.8836,23.1588,佛山市,三水监测站,颗粒物(PM10),59,68,38,35,22,3,,,,85,36,5,3,0.7,0.6
2025-04-02T0200,1378A,112.867,23.185,佛山市,三水云东海,,42,35,31,29,21,14,,,,53,27,3,3,0.7,0.6
2025-04-02T0200,3625A,113.2544,22.7642,佛山市,容桂街道办,,36,36,32,22,21,28,,,,39,36,7,7,0.6,0.6
2025-04-02T0200,1280A,119.3903,26.0543,福州市,鼓山,,,,15,,12,,,80,,,4,,2,,0.4
2025-04-02T0200,1282A,119.2681,26.0504,福州市,师大,,34,34,20,19,8,86,,,,10,10,3,3,0.3,0.3
2025-04-02T0200,1283A,119.2984,26.1028,福州市,五四北路,,30,30,18,18,7,85,,,,10,9,4,4,0.4,0.4
2025-04-02T0200,1284A,119.2648,26.0768,福州市,杨桥西路,,33,33,20,14,6,91,,,,10,11,4,3,0.4,0.4
2025-04-02T0200,1285A,119.317,26.0746,福州市,紫阳,,34,34,23,19,7,81,,,,16,18,5,4,0.3,0.3
2025-04-02T0200,3048A,119.5799,26.0936,福州市,九龙,,26,26,19,11,6,81,,,,14,7,3,4,0.3,0.3
2025-04-02T0200,3526A,119.5189,25.9664,福州市,吴航,,36,36,17,22,11,47,,,,23,9,4,4,0.4,0.4
2025-04-02T0200,1755A,123.7977,41.8491,抚顺市,望花区,细颗粒物(PM2.5),83,85,107,61,75,78,,,,22,24,10,23,1.0,0.9
2025-04-02T0200,1756A,123.9161,41.8822,抚顺市,顺城区,颗粒物(PM10),52,54,92,35,55,91,,,,22,25,8,8,0.7,0.9
2025-04-02T0200,1757A,124.0436,41.8611,抚顺市,东洲区,,48,43,84,33,52,115,,,,9,15,5,7,0.6,0.8
2025-04-02T0200,1758A,123.9247,41.8642,抚顺市,新抚区,,42,42,97,20,53,85,,,,17,25,4,6,0.8,0.9
2025-04-02T0200,1759A,124.0972,41.8961,抚顺市,大伙房水库,,50,44,71,35,52,108,,,,11,11,6,7,0.5,0.6
2025-04-02T0200,1760A,123.7086,41.8391,抚顺市,沈抚新城,颗粒物(PM10),63,76,106,35,64,86,,,,17,23,8,9,0.7,0.8
2025-04-02T0200,2376A,116.2127,28.0814,抚州市,桐源党溪,颗粒物(PM10),52,54,52,25,26,32,,,,7,5,6,6,0.5,0.5
2025-04-02T0200,2377A,116.3544,27.9831,抚州市,市站,颗粒物(PM10),57,64,48,34,23,31,,,,31,16,14,23,0.6,0.5
2025-04-02T0200,2378A,116.3565,27.963,抚州市,血防站,颗粒物(PM10),57,63,50,32,24,22,,,,38,16,4,5,1.0,0.8
2025-04-02T0200,2379A,116.3564,28.0007,抚州市,采茶剧团,颗粒物(PM10),57,64,46,39,23,38,,,,22,13,4,5,0.7,0.9
2025-04-02T0200,2380A,116.385,27.9647,抚州市,医学分院,颗粒物(PM10),55,59,57,30,24,37,,,,31,16,18,10,0.8,0.6
2025-04-02T0200,2207A,121.6094,41.998,阜新市,工业园区,,37,37,90,17,53,57,,,,17,24,7,17,0.4,0.6
2025-04-02T0200,2208A,121.6697,42.0279,阜新市,长青街,,19,17,83,13,50,59,,,,14,24,8,15,0.4,0.7
2025-04-02T0200,2209A,121.6673,42.0705,阜新市,农业园区,,25,13,83,3,43,78,,,,4,14,6,14,0.6,0.9
2025-04-02T0200,2210A,121.6717,42.0224,阜新市,东苑,,23,22,81,8,50,73,,,,12,25,6,19,0.4,0.7
2025-04-02T0200,2211A,121.6506,42.0498,阜新市,玉龙新城,,20,20,87,3,50,64,,,,18,28,7,10,0.4,0.7
2025-04-02T0200,2301A,115.8277,32.8929,阜阳市,市监测站,颗粒物(PM10),69,88,78,46,41,109,,,,12,17,9,8,0.4,0.5
2025-04-02T0200,2303A,115.8554,32.8605,阜阳市,开发区,颗粒物(PM10),76,102,101,40,38,85,,,,19,20,7,7,0.5,0.5
2025-04-02T0200,2875A,115.784,32.8892,阜阳市,阜阳职业技术学院,颗粒物(PM10),72,93,86,47,41,90,,,,18,17,8,7,0.5,0.5
2025-04-02T0200,3468A,115.7901,32.8613,阜阳市,市规划展馆,颗粒物(PM10),71,92,84,51,38,105,,,,15,15,9,7,0.4,0.4
2025-04-02T0200,3469A,115.836,32.9183,阜阳市,枣园社区,颗粒物(PM10),73,95,85,50,37,114,,,,11,23,7,6,0.4,0.4
2025-04-02T0200,2669A,102.9099,34.9841,甘南藏族自治州,州政府,颗粒物(PM10),78,105,98,33,36,11,,,,37,10,6,7,0.5,0.4
2025-04-02T0200,3380A,102.8914,34.9617,甘南藏族自治州,甘肃民族师范学院,颗粒物(PM10),91,131,107,36,37,14,,,,51,14,7,9,0.7,0.6
2025-04-02T0200,2570A,101.9603,30.0475,甘孜藏族自治州,水桥子,,17,16,12,11,8,27,,,,33,15,3,3,0.6,0.5
2025-04-02T0200,3065A,101.9533,29.9972,甘孜藏族自治州,州环保局,,18,12,12,10,5,57,,,,12,11,4,4,0.4,0.4
2025-04-02T0200,3414A,115.8347,28.932,赣江新区,桑海产业园,颗粒物(PM10),62,73,72,34,33,68,,,,28,28,9,7,0.4,0.4
2025-04-02T0200,2362A,114.9017,25.9149,赣州市,通天岩,,33,33,33,6,10,44,,,,3,4,2,14,0.9,1.2
2025-04-02T0200,2363A,114.9367,25.8664,赣州市,地委,,42,42,37,22,21,32,,,,24,14,10,9,0.9,0.8
2025-04-02T0200,2364A,114.9461,25.8481,赣州市,气象台,,46,46,42,24,19,18,,,,45,24,7,8,0.6,0.5
2025-04-02T0200,2365A,114.9322,25.8333,赣州市,市图书馆,颗粒物(PM10),51,52,36,23,22,8,,,,54,19,4,4,0.9,0.7
2025-04-02T0200,2366A,114.8905,25.8471,赣州市,华坚鞋城,,50,46,38,35,21,37,,,,30,17,13,9,0.4,0.4
2025-04-02T0200,3109A,115.0093,25.8613,赣州市,赣县区卫计委,,35,35,43,21,29,17,,,,44,17,3,4,0.5,0.4
2025-04-02T0200,2683A,106.2319,36.1417,固原市,马园,颗粒物(PM10),103,155,138,53,47,8,,,,62,39,5,5,1.0,0.8
2025-04-02T0200,2684A,106.2792,36.0022,固原市,监测站,颗粒物(PM10),68,85,136,36,49,54,,,,22,20,7,7,0.8,0.7
2025-04-02T0200,2685A,106.2375,36.0211,固原市,新区,颗粒物(PM10),82,113,142,41,40,10,,,,71,29,6,7,0.8,0.4
2025-04-02T0200,3522A,106.2177,35.9959,固原市,原州区十五小,颗粒物(PM10),58,65,138,26,46,76,,,,8,13,4,5,0.4,0.4
2025-04-02T0200,2543A,106.6308,30.5278,广安市,小平旧居,,,,,,,,,,,,,,,,
2025-04-02T0200,2544A,106.6303,30.4576,广安市,市委,细颗粒物(PM2.5),68,56,41,49,34,33,,,,20,18,3,4,0.4,0.4
2025-04-02T0200,2545A,106.6271,30.4663,广安市,友谊中学,细颗粒物(PM2.5),58,60,43,41,31,32,,,,21,21,2,3,0.5,0.5
2025-04-02T0200,2547A,106.6388,30.4551,广安市,广电花园,细颗粒物(PM2.5),67,51,37,48,32,26,,,,21,21,5,6,0.5,0.5
2025-04-02T0200,2902A,106.6351,30.4865,广安市,北辰小学,细颗粒物(PM2.5),64,51,37,46,30,25,,,,24,19,4,4,0.6,0.5
2025-04-02T0200,2523A,105.8945,32.4535,广元市,黑石坡,,46,46,56,27,30,38,,,,12,12,3,6,0.4,0.4
2025-04-02T0200,2524A,105.821,32.4444,广元市,老城,颗粒物(PM10),54,58,64,22,34,1,,,,48,31,1,6,0.6,0.9
2025-04-02T0200,2526A,105.8628,32.4287,广元市,监测站,,41,41,52,27,33,39,,,,11,17,4,11,0.4,0.5
2025-04-02T0200,3617A,105.8047,32.4166,广元市,经开区,颗粒物(PM10),55,60,68,37,45,5,,,,51,30,5,11,0.8,0.8
2025-04-02T0200,1345A,113.2347,23.1423,广州市,广雅中学,颗粒物(PM10),51,52,40,35,25,9,,,,64,36,5,5,0.6,0.6
2025-04-02T0200,1346A,113.2612,23.105,广州市,市五中,"颗粒物(PM10),细颗粒物(PM2.5)",55,59,47,39,32,3,,,,64,26,4,3,1.0,0.8
2025-04-02T0200,1348A,113.3478,23.0916,广州市,广东商学院,颗粒物(PM10),94,137,35,31,20,3,,,,65,31,6,5,0.6,0.4
2025-04-02T0200,1349A,113.4332,23.1047,广州市,市八十六中,,42,42,27,27,19,9,,,,62,28,6,4,0.9,0.8
2025-04-02T0200,1350A,113.3505,22.9483,广州市,番禺中学,,45,38,32,31,17,16,,,,55,32,4,4,0.5,0.4
2025-04-02T0200,1351A,113.2146,23.3916,广州市,花都师范,颗粒物(PM10),53,55,32,33,21,13,,,,64,23,6,7,0.7,0.6
2025-04-02T0200,1352A,113.2597,23.1331,广州市,市监测站,,44,44,34,27,20,8,,,,69,38,7,6,0.6,0.5
2025-04-02T0200,1353A,113.5618,23.312,广州市,九龙镇镇龙,,46,46,26,29,21,3,,,,43,18,5,5,0.6,0.5
2025-04-02T0200,1354A,113.2765,23.1544,广州市,麓湖,,39,39,30,22,18,3,,,,65,32,4,5,0.6,0.5
2025-04-02T0200,1355A,113.443,23.3035,广州市,帽峰山森林公园,,28,,17,19,16,58,,,,9,10,6,6,0.5,0.6
2025-04-02T0200,2846A,113.3221,23.1322,广州市,体育西,颗粒物(PM10),51,52,35,32,22,7,,,,57,25,6,5,0.6,0.5
2025-04-02T0200,3298A,113.5717,23.5491,广州市,从化街口,,40,39,28,28,20,4,,,,39,18,8,8,0.6,0.6
2025-04-02T0200,3299A,113.3472,23.3692,广州市,白云竹料,,44,44,29,26,20,15,,,,55,19,8,8,0.5,0.4
2025-04-02T0200,3300A,113.2981,23.237,广州市,白云嘉禾,,43,43,33,18,18,35,,,,40,36,4,5,0.3,0.4
2025-04-02T0200,3301A,113.4256,23.1716,广州市,黄埔科学城,,36,36,24,20,16,21,,,,37,20,7,6,0.4,0.4
2025-04-02T0200,3302A,113.3942,23.0483,广州市,番禺大学城,,39,38,24,27,16,29,,,,44,30,12,7,0.4,0.4
2025-04-02T0200,3303A,113.4922,22.8168,广州市,南沙黄阁,,36,36,33,20,19,27,,,,36,31,4,5,0.7,0.8
2025-04-02T0200,3304A,113.5342,22.7896,广州市,南沙街,,36,36,28,20,17,36,,,,27,26,3,5,0.7,0.7
2025-04-02T0200,3443A,113.2902,23.5544,广州市,花都梯面,,26,26,22,17,16,3,,,,31,16,4,8,0.5,0.5
2025-04-02T0200,3445A,113.7858,23.7478,广州市,从化良口,,23,19,21,16,17,48,,,,11,7,6,6,0.4,0.4
2025-04-02T0200,3446A,113.8051,23.2614,广州市,增城荔城,,34,34,22,22,16,23,,,,19,12,7,7,0.4,0.4
2025-04-02T0200,2505A,109.568,23.1478,贵港市,德智高中,,,,,,,,,,,,,,,,
2025-04-02T0200,2506A,109.6047,23.0666,贵港市,江南子站,细颗粒物(PM2.5),99,95,59,74,39,27,,,,51,26,4,6,1.0,0.9
2025-04-02T0200,2507A,109.6014,23.0948,贵港市,贵城子站,,,,,,,,,,,,,,,,
2025-04-02T0200,2508A,109.5669,23.1065,贵港市,荷城子站,,,,41,44,26,45,,,,38,23,7,6,0.4,0.4
2025-04-02T0200,3405A,109.5886,23.1172,贵港市,新世纪学校,"颗粒物(PM10),细颗粒物(PM2.5)",62,73,50,44,32,30,,,,43,18,3,2,1.0,0.9
2025-04-02T0200,1439A,106.6899,26.5998,贵阳市,马鞍山,,28,27,26,19,16,54,,,,18,16,8,6,0.4,0.4
2025-04-02T0200,1441A,106.6243,26.6266,贵阳市,鉴湖路,,39,39,36,12,18,64,,,,13,11,10,8,0.3,0.3
2025-04-02T0200,1442A,106.7487,26.6343,贵阳市,燕子冲,,48,48,34,29,25,67,,,,18,13,35,12,0.5,0.3
2025-04-02T0200,1443A,106.6555,26.4365,贵阳市,碧云窝,,39,39,42,19,17,74,,,,15,14,11,10,0.4,0.4
2025-04-02T0200,1445A,106.7109,26.6027,贵阳市,红边门,,32,31,33,22,22,77,,,,13,12,15,9,0.2,0.2
2025-04-02T0200,1446A,106.7164,26.5699,贵阳市,新华路,,29,29,35,19,22,76,,,,10,9,18,11,0.4,0.3
2025-04-02T0200,1447A,106.674,26.5424,贵阳市,太慈桥,,36,36,33,22,18,39,,,,38,18,10,9,0.4,0.4
2025-04-02T0200,1552A,106.805,26.3003,贵阳市,桐木岭,,50,50,49,29,29,85,,,,8,8,1,1,0.8,0.8
2025-04-02T0200,4230A,106.6882,26.5695,贵阳市,花果园大街66号,,30,27,24,21,23,72,,,,16,14,9,7,0.3,0.2
2025-04-02T0200,4231A,106.6873,26.5169,贵阳市,漓江路57号,,29,29,32,17,18,77,,,,17,15,16,12,0.4,0.3
2025-04-02T0200,1862A,110.4144,25.3167,桂林市,电子科大尧山校区,,,,,,,,,,,,,,,,
2025-04-02T0200,1864A,110.3089,25.2708,桂林市,龙隐路小学,细颗粒物(PM2.5),52,45,45,36,29,88,,,,10,8,50,21,0.5,0.5
2025-04-02T0200,1865A,110.2869,25.2178,桂林市,八中,,,,,,,,,,,,,,,,
2025-04-02T0200,3531A,110.296,25.1253,桂林市,旅游学院,颗粒物(PM10),52,53,40,34,25,73,,,,17,10,30,13,0.5,0.5
2025-04-02T0200,4222A,110.1835,25.2444,桂林市,环湖路276号,细颗粒物(PM2.5),55,58,54,39,32,47,,,,36,22,25,24,0.5,0.5
2025-04-02T0200,4301A,110.2803,25.2773,桂林市,信义路13号,细颗粒物(PM2.5),62,,42,44,34,91,,,,11,12,6,12,0.6,0.5
2025-04-02T0200,2674A,100.2561,34.4714,果洛藏族自治州,玛沁县大武镇,颗粒物(PM10),92,133,146,35,44,95,,,,1,1,16,16,0.3,0.4
2025-04-02T0200,1129A,126.5422,45.755,哈尔滨市,岭北,细颗粒物(PM2.5),52,38,70,36,63,53,,,,17,23,12,16,0.5,0.7
2025-04-02T0200,1130A,126.561,45.8167,哈尔滨市,松北商大,,46,,65,32,62,59,,,,13,20,6,7,0.8,0.9
2025-04-02T0200,1131A,126.979,45.5419,哈尔滨市,阿城会宁,细颗粒物(PM2.5),140,,68,107,62,62,,,,16,16,10,12,0.9,0.6
2025-04-02T0200,1132A,126.599,45.7222,哈尔滨市,南岗学府路,颗粒物(PM10),53,55,91,31,56,46,,,,23,27,6,9,0.6,0.8
2025-04-02T0200,1133A,126.689,45.7733,哈尔滨市,太平宏伟公园,细颗粒物(PM2.5),54,41,76,38,72,52,,,,16,23,5,7,0.7,0.8
2025-04-02T0200,1134A,126.635,45.7667,哈尔滨市,道外承德广场,"颗粒物(PM10),细颗粒物(PM2.5)",55,59,101,39,67,57,,,,10,26,5,9,0.5,0.7
2025-04-02T0200,1135A,126.685,45.7319,哈尔滨市,香坊红旗大街,,,,97,64,66,29,,,,41,29,10,14,0.9,0.9
2025-04-02T0200,1136A,126.6411,45.7258,哈尔滨市,动力和平路,细颗粒物(PM2.5),62,54,81,44,75,35,,,,34,28,9,12,0.6,0.7
2025-04-02T0200,1137A,126.593,45.7478,哈尔滨市,道里建国路,细颗粒物(PM2.5),54,40,78,38,74,64,,,,11,27,9,14,0.4,0.8
2025-04-02T0200,1138A,126.615,45.61,哈尔滨市,平房东轻厂,细颗粒物(PM2.5),127,,89,96,76,38,,,,21,18,8,10,0.9,0.8
2025-04-02T0200,1139A,126.595,45.9855,哈尔滨市,呼兰师专,,29,,62,20,64,65,,,,12,25,9,11,0.5,0.6
2025-04-02T0200,1140A,126.6206,45.6842,哈尔滨市,省农科院,细颗粒物(PM2.5),124,,92,94,80,29,,,,32,30,7,8,0.9,0.8
2025-04-02T0200,2688A,93.5128,42.8172,哈密市,地区监测站,颗粒物(PM10),282,407,142,57,65,44,,,,33,22,7,7,0.3,0.3
2025-04-02T0200,2689A,93.4961,42.8328,哈密市,哈密师范学校,颗粒物(PM10),168,286,123,94,38,53,,,,30,29,4,6,0.2,0.1
2025-04-02T0200,2671A,100.9048,36.9639,海北藏族自治州,海晏县西海镇,颗粒物(PM10),107,163,148,58,47,102,,,,6,7,18,14,0.5,0.6
2025-04-02T0200,3867A,102.0738,36.5056,海东市,平安区公安北苑,颗粒物(PM10),103,155,184,74,72,63,,,,9,13,8,10,1.0,1.1
2025-04-02T0200,1409A,110.576,19.9507,海口市,东寨港,,30,25,12,21,9,6,,,,13,6,6,5,0.7,0.7
2025-04-02T0200,1410A,110.3232,20.0574,海口市,海南大学,,33,30,25,23,20,47,,,,19,12,1,2,0.5,0.6
2025-04-02T0200,1411A,110.283,20.0053,海口市,秀英海南医院,,33,31,23,23,18,39,,,,21,16,4,4,0.5,0.5
2025-04-02T0200,1412A,110.338,19.9969,海口市,海南师范大学,,32,32,24,22,17,46,,,,13,9,3,3,0.5,0.5
2025-04-02T0200,1413A,110.33,20.0356,海口市,龙华路环保局宿舍,,32,32,25,21,18,53,,,,10,10,4,4,0.5,0.5
2025-04-02T0200,3539A,110.5111,19.9736,海口市,桂林洋子站,,33,33,18,19,11,34,,,,22,9,4,3,0.4,0.4
2025-04-02T0200,2673A,100.6188,36.2866,海南藏族自治州,共和县恰卜恰镇,颗粒物(PM10),88,125,128,43,52,97,,,,11,13,13,16,0.5,0.5
2025-04-02T0200,2676A,97.3731,37.3753,海西蒙古族藏族自治州,德令哈市,颗粒物(PM10),80,110,130,32,37,100,,,,6,6,8,10,0.4,0.5
2025-04-02T0200,1048A,114.5302,36.6116,邯郸市,东污水处理厂,颗粒物(PM10),56,62,72,7,15,68,,,,18,23,1,5,0.2,0.5
2025-04-02T0200,1049A,114.4918,36.5713,邯郸市,矿院,颗粒物(PM10),63,75,87,3,25,73,,,,6,17,2,4,0.2,0.4
2025-04-02T0200,1050A,114.484,36.6133,邯郸市,丛台公园,颗粒物(PM10),63,75,79,8,22,77,,,,9,19,4,9,0.2,0.5
2025-04-02T0200,3458A,114.7895,36.5593,邯郸市,香泉濮院小区,颗粒物(PM10),70,90,107,12,21,71,,,,11,13,3,6,0.1,0.3
2025-04-02T0200,3579A,114.50634,36.77178,邯郸市,永年区实验高中,颗粒物(PM10),60,69,82,10,19,71,,,,10,18,4,13,0.6,1.1
2025-04-02T0200,3580A,114.20016,36.44293,邯郸市,峰峰矿区临水派出所,颗粒物(PM10),68,85,75,8,16,78,,,,12,12,10,12,0.8,0.7
2025-04-02T0200,2634A,106.9893,33.1842,汉中市,汉川机床厂子校,颗粒物(PM10),58,66,55,23,20,82,,,,4,6,7,8,0.4,0.5
2025-04-02T0200,2635A,107.0154,33.0706,汉中市,市监测站,颗粒物(PM10),70,90,80,46,31,11,,,,45,31,6,8,1.1,1.1
2025-04-02T0200,2636A,107.0089,33.1138,汉中市,鑫源开发区,颗粒物(PM10),61,71,75,34,34,53,,,,29,31,6,11,0.4,0.6
2025-04-02T0200,2637A,107.007,33.0323,汉中市,南郑大河坎水厂,颗粒物(PM10),60,70,67,35,37,41,,,,19,25,7,10,0.7,0.8
2025-04-02T0200,1223A,120.2072,30.2111,杭州市,滨江,细颗粒物(PM2.5),63,64,56,45,34,41,,,,51,33,8,8,0.4,0.3
2025-04-02T0200,1224A,120.0633,30.2747,杭州市,西溪,,39,38,54,27,32,30,,,,45,30,6,6,0.3,0.3
2025-04-02T0200,1226A,120.3417,30.3150,杭州市,下沙,细颗粒物(PM2.5),67,74,53,48,31,35,,,,79,45,9,7,0.3,0.3
2025-04-02T0200,1227A,120.1269,30.2456,杭州市,卧龙桥,,35,35,46,23,28,36,,,,21,22,6,6,0.3,0.4
2025-04-02T0200,1228A,120.1903,30.2692,杭州市,浙江农大,细颗粒物(PM2.5),74,79,58,54,39,14,,,,72,33,4,4,0.5,0.5
2025-04-02T0200,1230A,120.1197,30.3119,杭州市,和睦小学,颗粒物(PM10),55,60,57,34,30,42,,,,45,29,8,8,0.6,0.5
2025-04-02T0200,1231A,120.3019,30.4183,杭州市,临平镇,颗粒物(PM10),56,61,53,39,30,43,,,,61,33,6,6,0.4,0.4
2025-04-02T0200,1232A,120.2753,30.1839,杭州市,城厢镇,颗粒物(PM10),61,72,62,35,29,10,,,,87,41,8,8,0.5,0.3
2025-04-02T0200,1233A,120.0883,30.1808,杭州市,云栖,,41,41,44,24,26,39,,,,28,26,7,8,0.5,0.5
2025-04-02T0200,3557A,119.9464,30.0494,杭州市,镇二中,,50,45,47,35,32,26,,,,49,33,6,7,0.5,0.5
2025-04-02T0200,3558A,119.7183,30.2367,杭州市,市府大楼,颗粒物(PM10),54,58,59,36,33,38,,,,33,26,7,8,0.4,0.5
2025-04-02T0200,3656A,120.1556,30.2864,杭州市,消防大队,颗粒物(PM10),51,52,60,32,37,52,,,,42,37,4,4,0.4,0.4
2025-04-02T0200,1270A,117.1959,31.7848,合肥市,明珠广场,颗粒物(PM10),53,56,53,29,28,99,,,,28,30,7,6,0.6,0.5
2025-04-02T0200,1271A,117.3072,31.8764,合肥市,三里街,颗粒物(PM10),53,56,61,29,31,81,,,,39,36,7,7,0.8,0.7
2025-04-02T0200,1272A,117.2588,31.8707,合肥市,琥珀山庄,,43,41,56,30,32,101,,,,23,31,4,4,0.7,0.5
2025-04-02T0200,1273A,117.1604,31.9052,合肥市,董铺水库,,48,48,53,22,21,118,,,,10,23,5,3,0.5,0.4
2025-04-02T0200,1274A,117.25,31.8571,合肥市,长江中路,细颗粒物(PM2.5),70,,56,51,34,100,,,,27,25,10,9,0.8,0.6
2025-04-02T0200,1275A,117.266,31.9436,合肥市,庐阳区,,46,46,58,27,28,112,,,,20,31,6,6,0.6,0.4
2025-04-02T0200,1276A,117.3453,31.8616,合肥市,瑶海区,颗粒物(PM10),53,56,61,29,33,68,,,,49,40,7,7,0.7,0.6
2025-04-02T0200,1277A,117.3027,31.7964,合肥市,包河区,颗粒物(PM10),52,53,52,31,27,105,,,,16,27,6,6,0.8,0.7
2025-04-02T0200,1278A,117.2776,31.7385,合肥市,滨湖新区,细颗粒物(PM2.5),55,58,50,39,30,94,,,,31,25,5,4,0.8,0.7
2025-04-02T0200,1279A,117.1318,31.8403,合肥市,高新区,颗粒物(PM10),56,61,59,34,28,104,,,,27,28,5,3,0.4,0.4
2025-04-02T0200,3464A,117.3803,31.9147,合肥市,高教基地,颗粒物(PM10),52,53,54,31,29,98,,,,21,28,5,5,0.6,0.4
2025-04-02T0200,3614A,79.924,37.0877,和田地区,地区环保局,颗粒物(PM10),500,803,852,199,242,51,,,,10,16,2,2,0.4,0.3
2025-04-02T0200,3615A,79.9131,37.113,和田地区,市环保局,颗粒物(PM10),500,691,851,165,213,35,,,,33,22,1,1,0.1,0.2
2025-04-02T0200,2516A,108.2011,24.715,河池市,东仁乐园,颗粒物(PM10),53,55,42,21,22,8,,,,58,23,8,8,0.7,0.6
2025-04-02T0200,2517A,108.0497,24.6947,河池市,市环保站,,42,42,38,20,19,22,,,,38,16,6,6,0.4,0.4
2025-04-02T0200,2518A,108.0983,24.6989,河池市,市疾控中心,,46,46,34,30,19,12,,,,47,16,9,8,0.5,0.4
2025-04-02T0200,1696A,114.6778,23.7569,河源市,源西,,38,30,26,26,18,2,,,,42,17,4,4,0.6,0.6
2025-04-02T0200,1697A,114.6944,23.7586,河源市,东埔,,37,37,22,22,15,11,,,,42,18,4,5,0.7,0.6
2025-04-02T0200,1698A,114.6892,23.7233,河源市,老城,,29,21,20,20,21,16,,,,23,14,4,4,0.5,0.5
2025-04-02T0200,1718A,115.4208,35.2464,菏泽市,气象局,颗粒物(PM10),183,315,125,88,49,79,,,,13,17,4,5,0.3,0.4
2025-04-02T0200,3374A,115.5564,35.0891,菏泽市,定陶老年大学,颗粒物(PM10),190,329,105,31,34,70,,,,20,19,5,6,0.5,0.6
2025-04-02T0200,4184A,115.4797,35.24401,菏泽市,永昌路1号,颗粒物(PM10),285,409,128,31,46,77,,,,13,18,7,7,0.2,0.3
2025-04-02T0200,4193A,115.4715,35.2800,菏泽市,长城路999号,颗粒物(PM10),288,411,122,41,35,78,,,,16,20,4,8,0.5,0.6
2025-04-02T0200,2514A,111.5264,24.4172,贺州市,环保小区,,43,40,49,30,27,34,,,,20,15,6,5,0.5,0.5
2025-04-02T0200,2515A,111.5608,24.4078,贺州市,政协大楼,颗粒物(PM10),51,51,46,31,27,15,,,,36,16,6,6,0.5,0.5
2025-04-02T0200,3534A,111.4744,24.4553,贺州市,西湾,细颗粒物(PM2.5),69,73,47,50,31,15,,,,36,15,8,7,0.6,0.8
2025-04-02T0200,2385A,114.17,35.9019,鹤壁市,市监测站,颗粒物(PM10),78,106,87,13,24,71,,,,12,12,5,5,0.4,0.5
2025-04-02T0200,2386A,114.2956,35.7511,鹤壁市,市交警支队,颗粒物(PM10),81,111,95,14,25,79,,,,14,29,4,8,0.3,0.4
2025-04-02T0200,2387A,114.2878,35.7306,鹤壁市,迎宾馆,颗粒物(PM10),97,143,110,9,22,80,,,,7,20,1,4,0.3,0.5
2025-04-02T0200,3474A,114.2617,35.6822,鹤壁市,大新区,颗粒物(PM10),94,138,95,6,27,76,,,,12,26,5,7,0.2,0.4
2025-04-02T0200,3596A,114.1572,35.9603,鹤壁市,南山宾馆,颗粒物(PM10),88,125,85,34,31,70,,,,13,9,3,4,0.5,0.5
2025-04-02T0200,2244A,130.2537,47.3416,鹤岗市,哈啤分公司,,40,35,49,28,34,51,,,,4,11,13,15,0.3,0.5
2025-04-02T0200,2245A,130.2684,47.3086,鹤岗市,斯达机电,,46,36,54,32,42,52,,,,8,13,13,15,0.5,0.5
2025-04-02T0200,2246A,130.3114,47.3388,鹤岗市,东山纸板厂,颗粒物(PM10),51,51,80,33,41,55,,,,8,18,12,15,0.5,0.7
2025-04-02T0200,2247A,130.1097,47.3382,鹤岗市,五号水库,,,,,,,,,,,,,,,,
2025-04-02T0200,2263A,127.4833,50.2524,黑河市,交通局,,46,46,41,31,29,71,,,,8,10,12,8,0.4,0.5
2025-04-02T0200,2264A,127.5144,50.2341,黑河市,环保局,,50,41,35,35,30,75,,,,7,8,4,6,0.3,0.3
2025-04-02T0200,2265A,127.5291,50.2472,黑河市,大黑河岛,,40,29,32,28,25,56,,,,9,8,3,2,0.3,0.3
2025-04-02T0200,1074A,115.6838,37.7541,衡水市,电机北厂,,50,50,80,22,37,57,,,,21,17,8,7,0.2,0.3
2025-04-02T0200,1075A,115.6303,37.7316,衡水市,市监测站,,32,32,69,11,19,62,,,,17,15,5,8,0.2,0.3
2025-04-02T0200,3188A,115.6683,37.7217,衡水市,市城管局,,36,36,74,19,36,63,,,,19,16,8,9,0.2,0.3
2025-04-02T0200,3459A,115.5989,37.5491,衡水市,地表水厂,,45,45,83,16,25,77,,,,13,18,7,9,0.2,0.3
2025-04-02T0200,2456A,112.5003,26.9167,衡阳市,原169医院,细颗粒物(PM2.5),52,52,60,36,30,21,,,,26,19,7,10,0.6,0.6
2025-04-02T0200,2457A,112.6194,26.9258,衡阳市,衡阳化工总厂,颗粒物(PM10),62,73,72,40,38,18,,,,32,27,5,7,0.7,0.8
2025-04-02T0200,2458A,112.6211,26.8956,衡阳市,珠晖区环保局,细颗粒物(PM2.5),84,102,70,62,41,5,,,,59,30,9,9,1.2,0.9
2025-04-02T0200,2459A,112.6197,26.8733,衡阳市,市委党校,颗粒物(PM10),72,93,77,35,63,7,,,,59,31,9,11,1.7,0.9
2025-04-02T0200,2460A,112.6006,26.8919,衡阳市,市监测站,细颗粒物(PM2.5),84,97,76,62,44,2,,,,60,33,8,9,1.6,1
2025-04-02T0200,2461A,112.5664,26.9056,衡阳市,真空机电公司,颗粒物(PM10),69,88,71,48,37,10,,,,54,28,6,8,0.9,0.7
2025-04-02T0200,3399A,112.6703,26.882,衡阳市,师范学院,细颗粒物(PM2.5),97,110,80,72,47,2,,,,66,25,9,10,0.9,0.7
2025-04-02T0200,2608A,103.3772,23.3993,红河哈尼族彝族自治州,污水处理厂,,50,39,38,35,30,49,,,,10,11,7,9,0.4,0.4
2025-04-02T0200,2609A,103.3861,23.35,红河哈尼族彝族自治州,监测站,,45,45,40,29,23,50,,,,12,10,8,11,0.5,0.5
2025-04-02T0200,3038A,103.3758,23.368,红河哈尼族彝族自治州,州图书馆,,44,44,28,25,23,51,,,,10,11,6,7,0.4,0.3
2025-04-02T0200,1090A,111.6507,40.7517,呼和浩特市,呼市一监,,21,9,37,3,12,67,,,,10,10,10,9,0.4,0.4
2025-04-02T0200,1091A,111.6572,40.8033,呼和浩特市,小召,,20,12,36,3,8,64,,,,18,17,7,5,0.4,0.5
2025-04-02T0200,1094A,111.7516,40.8369,呼和浩特市,如意水处理厂,,21,21,26,7,9,30,,,,42,17,6,6,0.4,0.5
2025-04-02T0200,1095A,111.7276,40.8062,呼和浩特市,二十九中,,17,17,37,3,19,42,,,,33,13,3,3,0.3,0.5
2025-04-02T0200,1096A,111.5512,40.7866,呼和浩特市,工大金川校区,,24,11,34,3,8,76,,,,7,18,7,8,0.5,0.5
2025-04-02T0200,1097A,111.717,40.7612,呼和浩特市,化肥厂生活区,,47,47,38,20,14,27,,,,46,18,6,6,0.6,0.4
2025-04-02T0200,3698A,111.5968,40.8178,呼和浩特市,红旗小学,,25,6,29,3,7,77,,,,9,20,6,4,0.3,0.4
2025-04-02T0200,3699A,111.6518,40.8389,呼和浩特市,海东办,,20,9,23,3,6,64,,,,8,11,7,6,0.4,0.5
2025-04-02T0200,2192A,119.7594,49.2261,呼伦贝尔市,区环保局,,38,,38,26,30,58,,,,8,18,6,6,0.2,0.4
2025-04-02T0200,3061A,119.7512,49.1577,呼伦贝尔市,国华电力东,,30,30,34,19,21,40,,,,9,9,3,4,0.3,0.4
2025-04-02T0200,1250A,120.0751,30.8669,湖州市,城西水厂,颗粒物(PM10),54,58,53,30,27,87,,,,26,28,8,7,0.3,0.3
2025-04-02T0200,2873A,120.0830,30.8929,湖州市,仁皇山新区,颗粒物(PM10),53,56,50,35,30,80,,,,28,24,5,5,0.5,0.4
2025-04-02T0200,2907A,120.1844,30.8596,湖州市,吴兴区站,细颗粒物(PM2.5),60,64,53,43,31,81,,,,24,22,7,6,0.3,0.3
2025-04-02T0200,3562A,120.4148,30.8538,湖州市,南浔区站,颗粒物(PM10),57,64,53,39,29,74,,,,32,21,4,3,0.5,0.4
2025-04-02T0200,1607A,120.9049,40.7211,葫芦岛市,龙港区,,46,46,85,32,57,27,,,,36,30,19,14,1.1,0.8
2025-04-02T0200,1608A,120.8392,40.7514,葫芦岛市,化工街,,29,29,92,9,46,56,,,,28,36,13,14,0.4,0.6
2025-04-02T0200,1609A,120.8341,40.7073,葫芦岛市,新区,,40,40,80,21,51,69,,,,23,31,25,12,0.9,0.7
2025-04-02T0200,1610A,120.8695,40.7677,葫芦岛市,东城区,,25,25,77,3,59,56,,,,32,39,8,12,0.6,0.8
2025-04-02T0200,2482A,109.5981,27.5721,怀化市,林科所,颗粒物(PM10),51,52,50,14,22,46,,,,26,24,3,10,0.4,0.2
2025-04-02T0200,2483A,109.9453,27.5444,怀化市,河西地税局,,49,49,50,29,27,25,,,,16,16,9,12,0.3,0.3
2025-04-02T0200,2484A,109.9781,27.5342,怀化市,市四医院,颗粒物(PM10),91,131,66,38,31,0,,,,59,26,7,9,0.4,0.3
2025-04-02T0200,2485A,109.9972,27.5578,怀化市,监测楼,颗粒物(PM10),55,60,54,32,27,16,,,,24,20,9,11,0.5,0.4
2025-04-02T0200,2486A,110.0394,27.583,怀化市,市委党校,颗粒物(PM10),58,66,56,36,29,5,,,,41,24,5,8,0.8,0.5
2025-04-02T0200,1210A,119.036,33.5981,淮安市,钵池山,细颗粒物(PM2.5),52,46,60,36,39,86,,,,19,20,11,11,0.6,0.7
2025-04-02T0200,1211A,119.007,33.575,淮安市,北京南路,,50,46,57,35,39,81,,,,24,26,18,12,0.3,0.5
2025-04-02T0200,1212A,118.989,33.6067,淮安市,市监测站,细颗粒物(PM2.5),55,53,56,39,41,78,,,,31,26,18,14,0.8,0.7
2025-04-02T0200,1213A,119.135,33.5039,淮安市,楚州区监测站,,46,39,63,32,37,78,,,,16,27,8,10,0.7,0.8
2025-04-02T0200,3426A,118.8755,33.2894,淮安市,新华书店,,49,48,58,34,37,68,,,,30,26,9,10,0.6,0.7
2025-04-02T0200,4206A,119.0288,33.6319,淮安市,承德北路606号,颗粒物(PM10),56,61,70,38,38,83,,,,26,25,20,12,0.5,0.5
2025-04-02T0200,2282A,116.8004,33.975,淮北市,监测站,颗粒物(PM10),79,107,87,54,38,90,,,,27,21,11,8,1.0,0.7
2025-04-02T0200,2283A,116.8091,33.9007,淮北市,烈山区政府,细颗粒物(PM2.5),70,86,88,51,41,77,,,,37,27,9,8,0.9,0.7
2025-04-02T0200,3330A,116.8873,33.9836,淮北市,杜集区检察院,细颗粒物(PM2.5),72,90,88,52,40,82,,,,28,24,8,8,0.8,0.8
2025-04-02T0200,4017A,116.7923,33.9535,淮北市,市博物馆,颗粒物(PM10),75,99,86,52,38,83,,,,29,22,11,10,0.9,0.8
2025-04-02T0200,2277A,116.8305,32.7727,淮南市,潘集区政府,颗粒物(PM10),63,75,87,42,43,101,,,,27,27,6,6,0.4,0.4
2025-04-02T0200,2279A,116.8569,32.5951,淮南市,谢家集区政府,颗粒物(PM10),59,67,72,32,35,97,,,,24,31,7,7,0.3,0.3
2025-04-02T0200,2280A,116.8281,32.633,淮南市,八公山区政府,颗粒物(PM10),56,62,70,32,32,110,,,,12,16,6,7,0.3,0.3
2025-04-02T0200,2281A,116.6325,32.6201,淮南市,焦岗湖风景区管理处,,45,45,55,25,26,74,,,,10,10,7,6,0.5,0.5
2025-04-02T0200,2894A,117.0566,32.6531,淮南市,经济技术开发区消防队,颗粒物(PM10),60,70,77,31,40,115,,,,17,23,6,7,0.4,0.4
2025-04-02T0200,3329A,117.0108,32.5893,淮南市,山南新区,颗粒物(PM10),51,52,81,29,36,97,,,,32,34,8,8,0.5,0.5
2025-04-02T0200,4209A,117.0031,32.6445,淮南市,国庆中路369号,颗粒物(PM10),57,63,73,20,37,101,,,,23,26,8,8,0.4,0.4
2025-04-02T0200,2446A,114.9028,30.4742,黄冈市,职工中心,"颗粒物(PM10),细颗粒物(PM2.5)",70,90,90,51,54,3,,,,86,36,6,7,0.8,0.8
2025-04-02T0200,2929A,114.8858,30.4519,黄冈市,红卫路,颗粒物(PM10),73,96,95,48,54,16,,,,80,32,8,7,0.9,1
2025-04-02T0200,3398A,114.9136,30.4445,黄冈市,市林业局,细颗粒物(PM2.5),75,98,99,55,58,37,,,,87,43,9,10,1.0,1
2025-04-02T0200,2672A,102.0199,35.5102,黄南藏族自治州,同仁县隆务镇,颗粒物(PM10),85,120,142,41,46,80,,,,3,5,19,18,0.3,0.3
2025-04-02T0200,2295A,118.2903,29.6963,黄山市,延安路89号,,25,22,24,17,14,23,,,,18,8,4,4,0.3,0.3
2025-04-02T0200,2297A,118.1371,30.2756,黄山市,黄山区政府5号楼,,,,27,,16,,,78,,,4,,8,,0.3
2025-04-02T0200,4210A,118.3354,29.7203,黄山市,滨江东路7-2号,,32,32,34,13,14,28,,,,9,9,4,5,0.4,0.4
2025-04-02T0200,2423A,115.0601,30.2313,黄石市,沈家营,细颗粒物(PM2.5),79,89,95,58,48,4,,,,87,31,6,7,0.8,0.8
2025-04-02T0200,2426A,114.8988,30.2019,黄石市,铁山,颗粒物(PM10),58,65,82,37,48,41,,,,35,28,9,16,0.5,0.8
2025-04-02T0200,2427A,115.0307,30.2092,黄石市,团城山,颗粒物(PM10),70,89,93,48,48,35,,,,69,33,7,9,0.8,0.8
2025-04-02T0200,3149A,115.0235,30.1578,黄石市,笔架山北路,颗粒物(PM10),58,65,86,40,56,90,,,,18,26,6,12,0.8,1
2025-04-02T0200,4185A,115.0780,30.21118,黄石市,磁湖东路29号,细颗粒物(PM2.5),74,92,100,54,57,42,,,,46,27,7,7,0.8,0.8
2025-04-02T0200,1392A,114.4183,23.0528,惠州市,河南岸金山湖子站,,24,24,19,16,14,20,,,,20,14,9,9,0.5,0.6
2025-04-02T0200,1393A,114.4053,23.0822,惠州市,下埔横江三路子站,,26,26,20,16,13,19,,,,26,14,9,8,0.6,0.5
2025-04-02T0200,1394A,114.4103,23.1142,惠州市,江北云山西路子站,,26,22,18,18,14,39,,,,19,13,11,9,0.5,0.4
2025-04-02T0200,1395A,114.4645,22.7833,惠州市,惠阳区承修路船湖子站,,30,30,22,18,16,26,,,,21,15,9,8,0.5,0.5
2025-04-02T0200,1396A,114.5317,22.7422,惠州市,大亚湾管委会子站,,33,33,18,23,11,27,,,,21,14,7,6,0.5,0.4
2025-04-02T0200,3314A,114.4338,22.8134,惠州市,惠阳秋长,,27,27,19,15,14,27,,,,17,8,4,4,0.6,0.6
2025-04-02T0200,3452A,114.6517,22.775,惠州市,大亚湾霞涌,,19,13,16,13,14,49,,,,11,11,6,6,0.4,0.4
2025-04-02T0200,2240A,130.9762,45.3001,鸡西市,环保局,细颗粒物(PM2.5),134,123,99,102,78,18,,,,42,32,7,9,1.1,1
2025-04-02T0200,2243A,130.9429,45.3039,鸡西市,第一中学,细颗粒物(PM2.5),63,48,72,45,55,87,,,,10,23,7,8,0.6,0.8
2025-04-02T0200,3707A,131.0207,45.3073,鸡西市,欧美日汽修厂,细颗粒物(PM2.5),137,114,118,104,83,15,,,,34,24,9,12,1.2,0.8
2025-04-02T0200,3709A,130.9967,45.3106,鸡西市,市政设施管理处,细颗粒物(PM2.5),117,128,108,88,76,15,,,,32,29,7,9,1.1,0.9
2025-04-02T0200,2367A,114.9754,27.0803,吉安市,红声器材厂,颗粒物(PM10),57,64,51,29,25,19,,,,37,21,10,14,0.5,0.5
2025-04-02T0200,2368A,114.9658,27.0999,吉安市,市森林工业局,颗粒物(PM10),52,54,46,29,27,40,,,,34,19,10,13,0.5,0.5
2025-04-02T0200,2369A,114.99,27.1312,吉安市,市环境监测站,颗粒物(PM10),65,80,54,35,36,30,,,,43,18,17,19,0.2,0.3
2025-04-02T0200,2370A,115.0093,27.0968,吉安市,青原区法院,颗粒物(PM10),52,54,49,30,30,14,,,,59,27,9,13,0.4,0.4
2025-04-02T0200,1772A,126.54,43.8622,吉林市,哈达湾,,31,31,65,19,44,79,,,,13,15,7,7,0.6,0.7
2025-04-02T0200,1773A,126.5844,43.8358,吉林市,东局子,,37,37,61,17,44,90,,,,12,12,6,7,0.7,0.7
2025-04-02T0200,1774A,126.5052,43.8245,吉林市,电力学院,,25,21,57,16,43,77,,,,11,15,5,6,0.6,0.6
2025-04-02T0200,1775A,126.6133,43.8972,吉林市,江北,,29,29,59,17,37,74,,,,18,18,5,7,0.3,0.3
2025-04-02T0200,1776A,126.555,43.8306,吉林市,江南公园,,29,23,60,18,45,91,,,,9,12,6,6,0.4,0.4
2025-04-02T0200,1778A,126.7061,43.7133,吉林市,丰满,,40,31,50,28,44,110,,,,9,10,5,6,0.7,0.7
2025-04-02T0200,2868A,126.4739,43.953,吉林市,九站,细颗粒物(PM2.5),87,89,76,64,51,53,,,,15,16,9,11,0.7,0.7
2025-04-02T0200,1299A,116.9862,36.6114,济南市,科干所,颗粒物(PM10),67,83,74,7,29,82,,,,13,15,5,7,0.4,0.5
2025-04-02T0200,1300A,116.9376,36.665,济南市,农科所,颗粒物(PM10),73,95,94,3,26,78,,,,16,19,6,8,0.3,0.4
2025-04-02T0200,1301A,117.1265,36.6734,济南市,开发区,颗粒物(PM10),75,100,75,7,25,85,,,,13,15,5,8,0.4,0.5
2025-04-02T0200,1303A,117.0624,36.6868,济南市,省种子仓库,颗粒物(PM10),69,88,91,3,27,84,,,,10,13,3,6,0.5,0.7
2025-04-02T0200,1304A,116.9489,36.6447,济南市,机床二厂,颗粒物(PM10),108,166,103,15,33,55,,,,17,21,6,9,0.3,0.4
2025-04-02T0200,1305A,117.0495,36.663,济南市,市监测站,颗粒物(PM10),70,90,82,7,25,79,,,,13,17,7,9,0.3,0.4
2025-04-02T0200,1306A,116.7675,36.5484,济南市,长清党校,颗粒物(PM10),89,127,92,3,31,82,,,,22,23,3,7,0.7,0.7
2025-04-02T0200,1616A,117.6795,36.229,济南市,技术学院,颗粒物(PM10),51,51,83,17,35,93,,,,14,21,8,13,0.5,0.6
2025-04-02T0200,1961A,117.532,36.6868,济南市,东山小学,,44,44,86,3,26,95,,,,4,15,5,8,0.1,0.5
2025-04-02T0200,3059A,117.7161,36.2049,济南市,泰兴公司,颗粒物(PM10),51,51,83,19,41,90,,,,16,32,7,11,0.5,0.6
2025-04-02T0200,3064A,117.6867,36.2171,济南市,莱芜战役纪念馆,颗粒物(PM10),52,53,84,12,32,97,,,,16,25,4,8,0.4,0.5
2025-04-02T0200,3494A,117.1673,36.9782,济南市,济阳区政府,,39,39,94,7,27,84,,,,8,17,8,11,0.3,0.4
2025-04-02T0200,3495A,117.1171,36.63,济南市,锦屏中学,颗粒物(PM10),72,93,76,3,20,82,,,,12,15,7,9,0.1,0.3
2025-04-02T0200,3682A,116.9814,36.6819,济南市,济南四建,颗粒物(PM10),74,97,87,7,37,80,,,,14,17,3,6,0.2,0.3
2025-04-02T0200,1653A,116.6251,35.4302,济宁市,火炬城,颗粒物(PM10),71,92,74,44,39,67,,,,26,14,11,10,0.4,0.4
2025-04-02T0200,1655A,116.5491,35.4042,济宁市,电化厂,颗粒物(PM10),88,125,103,44,45,69,,,,27,21,8,7,0.5,0.6
2025-04-02T0200,3500A,116.5814,35.3707,济宁市,北湖一中,颗粒物(PM10),66,82,75,36,30,72,,,,27,20,15,14,0.4,0.3
2025-04-02T0200,3501A,116.8249,35.5593,济宁市,服务中心,颗粒物(PM10),82,114,97,44,38,56,,,,43,26,6,8,0.6,0.6
2025-04-02T0200,3678A,116.5907,35.4054,济宁市,市第七中学,颗粒物(PM10),71,92,77,36,30,72,,,,24,14,9,9,0.4,0.3
2025-04-02T0200,2255A,130.2751,46.8028,佳木斯市,佳纺,细颗粒物(PM2.5),53,48,75,37,49,30,,,,9,23,5,7,0.5,0.6
2025-04-02T0200,2256A,130.3995,46.8307,佳木斯市,发电厂,,50,46,61,35,46,39,,,,9,19,3,6,0.7,0.8
2025-04-02T0200,2257A,130.3258,46.7975,佳木斯市,环保局,细颗粒物(PM2.5),60,48,73,43,52,37,,,,15,33,2,5,0.5,0.7
2025-04-02T0200,2258A,130.3648,46.8032,佳木斯市,十一中,细颗粒物(PM2.5),64,,63,46,54,40,,,,11,31,6,7,0.5,0.6
2025-04-02T0200,2259A,130.3794,46.7588,佳木斯市,四丰,,43,36,45,30,31,20,,,,25,18,1,1,1.0,1
2025-04-02T0200,1252A,120.7436,30.778,嘉兴市,清河小学,颗粒物(PM10),59,68,54,34,32,88,,,,23,20,10,9,0.7,0.6
2025-04-02T0200,1253A,120.726,30.7478,嘉兴市,嘉兴学院,颗粒物(PM10),52,54,44,33,24,88,,,,26,22,9,9,0.8,0.8
2025-04-02T0200,2872A,120.7846,30.7525,嘉兴市,南湖区残联,颗粒物(PM10),51,52,43,29,25,110,,,,16,21,9,9,0.7,0.7
2025-04-02T0200,3407A,120.6916,30.7739,嘉兴市,秀洲住建,颗粒物(PM10),56,61,49,36,24,86,,,,31,23,7,7,0.5,0.5
2025-04-02T0200,1945A,98.2908,39.7711,嘉峪关市,气象局,颗粒物(PM10),139,227,326,66,88,72,,,,13,19,6,4,0.4,0.4
2025-04-02T0200,2884A,98.2672,39.7978,嘉峪关市,酒钢宾馆,颗粒物(PM10),151,251,328,73,85,72,,,,11,11,8,5,0.3,0.3
2025-04-02T0200,3248A,98.2643,39.7724,嘉峪关市,雄关区,颗粒物(PM10),121,191,275,57,74,67,,,,20,20,7,6,0.4,0.5
2025-04-02T0200,1383A,113.1064,22.6058,江门市,北街,颗粒物(PM10),55,60,40,32,25,20,,,,52,32,3,4,0.7,0.7
2025-04-02T0200,1384A,113.0731,22.5835,江门市,西区,颗粒物(PM10),59,68,44,36,20,23,,,,47,34,8,9,0.7,0.8
2025-04-02T0200,1385A,113.0219,22.5311,江门市,圭峰西,颗粒物(PM10),51,52,37,35,22,28,,,,41,25,5,6,0.5,0.5
2025-04-02T0200,1386A,113.0828,22.5947,江门市,东湖,细颗粒物(PM2.5),64,57,41,46,26,19,,,,50,30,8,9,0.6,0.6
2025-04-02T0200,3311A,113.1075,22.5647,江门市,江海富民,细颗粒物(PM2.5),65,67,38,47,23,10,,,,59,37,8,8,0.7,0.6
2025-04-02T0200,3449A,113.05,22.4667,江门市,新会银湖,颗粒物(PM10),66,82,49,47,28,3,,,,56,35,1,2,0.9,0.8
2025-04-02T0200,1830A,113.1992,35.2590,焦作市,影视城,,,,49,,29,,,,,,13,,7,,0.8
2025-04-02T0200,3169A,113.2725,35.2067,焦作市,太极体育中心,颗粒物(PM10),92,134,93,16,41,82,,,,11,25,9,12,0.5,0.7
2025-04-02T0200,3335A,113.3137,35.2641,焦作市,马村街道办,颗粒物(PM10),80,110,81,30,38,79,,,,13,23,7,11,0.5,0.6
2025-04-02T0200,3336A,113.2465,35.2373,焦作市,焦作技师学院,颗粒物(PM10),78,105,88,9,28,84,,,,11,24,7,11,0.4,0.6
2025-04-02T0200,3477A,113.1656,35.2539,焦作市,中站许衡医院,颗粒物(PM10),61,72,64,26,29,75,,,,22,23,8,12,0.6,0.7
2025-04-02T0200,3981A,113.2449,35.1803,焦作市,原李万街道办,颗粒物(PM10),89,128,94,12,41,85,,,,14,30,14,14,0.6,0.6
2025-04-02T0200,4264A,113.2340,35.2190,焦作市,新安路1731号,颗粒物(PM10),89,127,96,16,34,79,,,,14,23,15,12,0.4,0.6
2025-04-02T0200,1708A,116.3701,23.5345,揭阳市,新兴,,30,30,17,16,10,19,,,,32,15,11,6,0.6,0.6
2025-04-02T0200,1709A,116.3264,23.5443,揭阳市,西马,,32,32,18,18,10,23,,,,21,11,8,7,0.6,0.6
2025-04-02T0200,1710A,116.3611,23.5626,揭阳市,东兴,,47,47,22,21,13,6,,,,38,17,7,7,0.9,0.7
2025-04-02T0200,1711A,116.4151,23.5294,揭阳市,渔湖,,34,34,23,19,10,9,,,,41,19,11,5,0.7,0.6
2025-04-02T0200,3320A,116.403,23.5699,揭阳市,曲溪,,40,40,21,24,11,9,,,,46,27,12,4,0.7,0.6
2025-04-02T0200,1944A,102.1692,38.5167,金昌市,天庆家园,颗粒物(PM10),82,114,133,51,57,81,,,,12,12,11,13,0.9,0.8
2025-04-02T0200,4022A,102.1647,38.5371,金昌市,金川区人防中心,细颗粒物(PM2.5),97,125,179,72,67,58,,,,16,13,13,11,0.7,0.5
2025-04-02T0200,4239A,102.1930,38.5319,金昌市,长春路96号,颗粒物(PM10),92,134,135,46,62,65,,,,14,12,32,48,0.5,0.7
2025-04-02T0200,1262A,119.647,29.077,金华市,十五中,颗粒物(PM10),51,52,53,30,31,35,,,,46,33,5,6,0.4,0.5
2025-04-02T0200,1263A,119.686,29.1029,金华市,监测站,颗粒物(PM10),55,60,54,31,31,23,,,,63,36,5,5,0.5,0.5
2025-04-02T0200,3659A,119.656,29.1131,金华市,气象局,颗粒物(PM10),61,72,62,36,38,2,,,,93,47,5,5,0.4,0.4
2025-04-02T0200,1767A,121.1115,41.0879,锦州市,南山,,28,28,83,10,62,74,,,,13,39,16,15,0.5,0.8
2025-04-02T0200,1768A,121.0604,40.8428,锦州市,开发区,,46,46,89,17,53,54,,,,27,34,28,24,0.6,0.8
2025-04-02T0200,1769A,121.1836,41.1119,锦州市,百股街道,,32,32,91,12,55,78,,,,10,42,7,11,0.4,0.8
2025-04-02T0200,1770A,121.1178,41.1222,锦州市,天安街道,,28,28,89,3,65,83,,,,10,41,9,16,0.4,0.8
2025-04-02T0200,1771A,121.1303,41.1386,锦州市,北湖公园,,24,22,92,12,64,75,,,,11,37,8,12,0.4,0.8
2025-04-02T0200,2160A,112.85,35.5051,晋城市,自来水公司,,,,76,,21,,,87,,,55,,7,,0.6
2025-04-02T0200,2161A,112.8318,35.4936,晋城市,白云商贸,颗粒物(PM10),64,77,74,14,15,76,,,,20,21,9,6,0.6,0.6
2025-04-02T0200,2162A,112.8508,35.4887,晋城市,市环保局,颗粒物(PM10),63,75,78,19,19,70,,,,23,22,7,5,0.6,0.4
2025-04-02T0200,2163A,112.8676,35.4897,晋城市,技术学院,颗粒物(PM10),67,84,72,17,17,66,,,,24,23,12,7,0.8,0.6
2025-04-02T0200,2165A,112.8453,35.546,晋城市,白马寺,,,,,,,,,,,,,,,,
2025-04-02T0200,3620A,112.8271,35.4828,晋城市,泽州一中,颗粒物(PM10),54,57,61,14,17,84,,,,16,17,12,9,0.6,0.5
2025-04-02T0200,2173A,112.7249,37.7067,晋中市,南都小区,,44,44,81,14,25,85,,,,9,21,5,20,0.2,0.5
2025-04-02T0200,2174A,112.6991,37.6982,晋中市,榆次区政府,,31,31,99,9,20,86,,,,10,23,4,18,0.1,0.5
2025-04-02T0200,2865A,112.7195,37.6828,晋中市,榆次三中,,31,31,98,3,17,88,,,,6,23,4,17,0.1,0.4
2025-04-02T0200,4200A,112.7478,37.6954,晋中市,迎宾街26号,,39,39,96,3,19,89,,,,7,21,3,17,0.2,0.3
2025-04-02T0200,2439A,112.2014,31.0481,荆门市,竹园小学,,,,95,,47,,,108,,,18,,7,,0.0
2025-04-02T0200,2440A,112.1969,30.9891,荆门市,掇刀,颗粒物(PM10),58,66,91,36,43,96,,,,12,19,6,8,0.3,0.3
2025-04-02T0200,2441A,112.2213,31.0386,荆门市,石化一小,颗粒物(PM10),57,63,90,27,46,106,,,,11,22,9,14,0,0.1
2025-04-02T0200,3012A,112.1849,31.0362,荆门市,西山林语,颗粒物(PM10),54,58,80,33,39,100,,,,15,17,6,7,0.2,0.2
2025-04-02T0200,3547A,112.1632,31.0138,荆门市,龙泉中学南校,颗粒物(PM10),60,70,91,31,43,85,,,,16,23,5,8,0.3,0.3
2025-04-02T0200,1844A,112.2494,30.3197,荆州市,市图书馆,颗粒物(PM10),54,58,68,35,41,60,,,,47,27,10,10,0.5,0.5
2025-04-02T0200,1845A,112.2008,30.3544,荆州市,市委党校,颗粒物(PM10),54,58,73,35,43,81,,,,23,28,8,8,0.3,0.4
2025-04-02T0200,3194A,112.2747,30.3122,荆州市,管委会,颗粒物(PM10),57,64,72,38,42,85,,,,24,24,12,13,0.4,0.5
2025-04-02T0200,4268A,112.1722,30.3366,荆州市,学苑路85号,颗粒物(PM10),53,56,62,36,40,32,,,,58,38,8,10,0.5,0.5
2025-04-02T0200,2342A,117.3102,29.3867,景德镇市,王港中学,,,,,,,,,,,,,,,,
2025-04-02T0200,2343A,117.2117,29.2933,景德镇市,老干部活动中心,颗粒物(PM10),59,68,41,32,23,2,,,,50,20,7,9,0.6,0.4
2025-04-02T0200,2344A,117.1894,29.2789,景德镇市,兽医站,颗粒物(PM10),54,57,45,33,21,47,,,,18,15,5,7,0.7,0.6
2025-04-02T0200,2345A,117.1547,29.2617,景德镇市,台达陶瓷,颗粒物(PM10),63,75,59,43,29,35,,,,43,34,68,64,1.0,0.7
2025-04-02T0200,2346A,117.2461,29.2956,景德镇市,陶研所,细颗粒物(PM2.5),60,56,41,43,29,23,,,,34,17,8,7,0.7,0.6
2025-04-02T0200,1803A,115.9872,29.6815,九江市,十里,细颗粒物(PM2.5),62,64,71,44,39,13,,,,68,35,2,4,0.8,0.6
2025-04-02T0200,1804A,115.9584,29.7046,九江市,茅山头,颗粒物(PM10),54,57,82,30,41,25,,,,77,42,4,8,0.4,0.5
2025-04-02T0200,1805A,115.9877,29.7295,九江市,西园,"颗粒物(PM10),细颗粒物(PM2.5)",52,53,76,36,42,51,,,,60,43,8,12,0.7,0.7
2025-04-02T0200,1808A,115.9114,29.6038,九江市,综合工业园,,50,50,66,29,41,65,,,,52,51,7,9,0.7,0.7
2025-04-02T0200,1809A,116.0721,29.7535,九江市,石化总厂,细颗粒物(PM2.5),84,78,86,62,55,28,,,,66,40,11,11,0.8,0.7
2025-04-02T0200,1810A,115.9773,29.5698,九江市,庐山气象台,,43,,48,30,29,130,,,,9,11,6,6,0.8,0.8
2025-04-02T0200,3190A,116.0254,29.6994,九江市,外国语学校,细颗粒物(PM2.5),64,75,77,46,44,56,,,,60,41,14,15,0.9,0.9
2025-04-02T0200,4253A,116.0102,29.6594,九江市,莲花大道8号,颗粒物(PM10),53,56,75,34,43,92,,,,8,14,7,8,0.5,0.5
2025-04-02T0200,4240A,98.4958,39.7339,酒泉市,玉门东路5号,颗粒物(PM10),156,261,345,58,81,66,,,,6,11,7,8,0.3,0.3
2025-04-02T0200,4241A,98.5099,39.7506,酒泉市,北大街108号,颗粒物(PM10),153,256,334,66,75,58,,,,9,14,9,10,0.3,0.3
2025-04-02T0200,2698A,76.0072,39.4467,喀什地区,巡警大队,颗粒物(PM10),500,842,737,226,201,4,,,,97,47,9,4,2.3,1.2
2025-04-02T0200,2699A,75.9755,39.4694,喀什地区,吾办,颗粒物(PM10),500,777,709,254,224,3,,,,84,40,4,3,2.0,1
2025-04-02T0200,4027A,75.9483,39.4689,喀什地区,老干局,颗粒物(PM10),500,867,711,211,183,4,,,,72,32,4,2,1.6,0.9
2025-04-02T0200,1824A,114.3389,34.7781,开封市,肿瘤医院,颗粒物(PM10),133,216,97,20,28,76,,,,12,22,6,10,0.4,0.5
2025-04-02T0200,1826A,114.2885,34.7965,开封市,世纪星幼儿园,颗粒物(PM10),120,189,94,46,34,81,,,,16,27,7,9,0.6,0.7
2025-04-02T0200,3147A,114.3438,34.8106,开封市,龙亭公园,颗粒物(PM10),140,230,109,18,31,77,,,,16,27,2,5,0.4,0.4
2025-04-02T0200,3210A,114.3644,34.7964,开封市,汴京公园,颗粒物(PM10),124,197,99,39,33,80,,,,19,29,2,5,0.3,0.5
2025-04-02T0200,3473A,114.2485,34.8306,开封市,技师学院,颗粒物(PM10),131,211,90,24,31,78,,,,20,26,9,14,0.4,0.6
2025-04-02T0200,3592A,114.4644,34.7556,开封市,祥符区生态环境局,颗粒物(PM10),200,349,117,23,50,74,,,,14,24,4,7,0.3,0.6
2025-04-02T0200,1951A,84.895,45.6094,克拉玛依市,长征新村,,33,33,39,8,11,97,,,,6,15,6,7,0.2,0.3
2025-04-02T0200,1952A,84.8988,45.5893,克拉玛依市,南林小区,,32,29,40,13,13,100,,,,2,10,1,3,0.4,0.5
2025-04-02T0200,1954A,84.905,44.3396,克拉玛依市,独山子区,颗粒物(PM10),64,78,61,36,27,93,,,,9,14,8,9,0.5,0.5
2025-04-02T0200,1955A,85.6979,46.098,克拉玛依市,乌尔禾区商贸楼,颗粒物(PM10),59,68,31,14,8,95,,,,1,8,5,6,0.2,0.4
2025-04-02T0200,3612A,85.1045,45.6899,克拉玛依市,白碱滩区新站,,30,25,39,13,12,96,,,,2,17,8,9,0.2,0.3
2025-04-02T0200,2697A,76.1454,39.7142,克孜勒苏柯尔克孜自治州,市人民政府,颗粒物(PM10),500,747,762,213,227,58,,,,13,11,9,6,0.6,0.5
2025-04-02T0200,3665A,76.1658,39.7157,克孜勒苏柯尔克孜自治州,克州文化中心,颗粒物(PM10),500,745,779,,234,60,,,,25,16,15,9,0.4,0.4
2025-04-02T0200,1450A,102.8204,24.8886,昆明市,呈贡新区,细颗粒物(PM2.5),72,68,32,52,26,43,,,,21,18,5,5,0.7,0.7
2025-04-02T0200,1451A,102.6251,24.9608,昆明市,西山森林公园,,,,,,,,,,,,,,,,
2025-04-02T0200,1452A,102.7252,25.0902,昆明市,龙泉镇,细颗粒物(PM2.5),73,67,46,53,31,37,,,,22,24,6,6,0.6,0.7
2025-04-02T0200,1453A,102.7266,25.0375,昆明市,东风东路,细颗粒物(PM2.5),72,85,51,52,33,26,,,,35,30,7,7,0.6,0.6
2025-04-02T0200,1454A,102.6742,25.0669,昆明市,金鼎山,细颗粒物(PM2.5),69,81,48,50,31,37,,,,31,29,6,4,0.6,0.7
2025-04-02T0200,1455A,102.6644,25.0401,昆明市,碧鸡广场,细颗粒物(PM2.5),68,76,48,49,35,35,,,,32,31,6,6,0.6,0.7
2025-04-02T0200,3179A,102.7494,25.0119,昆明市,官渡区博物馆,细颗粒物(PM2.5),65,62,42,47,33,38,,,,29,28,6,6,0.7,0.7
2025-04-02T0200,3375A,102.8017,24.8336,昆明市,青年创业园,细颗粒物(PM2.5),57,60,36,40,22,50,,,,16,17,6,6,0.6,0.6
2025-04-02T0200,3550A,102.7997,24.9786,昆明市,昆明学院,"颗粒物(PM10),细颗粒物(PM2.5)",68,85,44,49,27,36,,,,28,24,4,4,0.6,0.6
2025-04-02T0200,3551A,102.5967,24.6736,昆明市,晋宁区生态环境分局,细颗粒物(PM2.5),55,56,30,39,21,69,,,,10,11,6,6,0.7,0.6
2025-04-02T0200,3552A,102.6678,24.9856,昆明市,云天化总部,细颗粒物(PM2.5),64,71,44,46,28,36,,,,31,26,6,6,0.6,0.7
2025-04-02T0200,1456A,91.1319,29.6514,拉萨市,八廓街,,44,44,29,21,13,106,,,,13,10,5,6,0.5,0.5
2025-04-02T0200,1457A,91.1221,29.6747,拉萨市,市环保局,,49,49,29,25,14,108,,,,10,10,4,4,0.2,0.2
2025-04-02T0200,1458A,91.0874,29.6475,拉萨市,区监测站,,42,42,28,24,14,106,,,,12,11,6,6,0.5,0.4
2025-04-02T0200,1459A,91.1774,29.6541,拉萨市,西藏大学,,48,48,29,26,13,98,,,,13,11,8,8,0.5,0.4
2025-04-02T0200,1460A,90.9798,29.6588,拉萨市,区辐射站,颗粒物(PM10),51,51,43,25,18,90,,,,15,16,7,7,0.4,0.4
2025-04-02T0200,1461A,91.0834,29.6292,拉萨市,拉萨火车站,,44,44,26,23,11,116,,,,3,5,3,3,0.6,0.5
2025-04-02T0200,2520A,109.2203,23.7256,来宾市,来宾技工学校,颗粒物(PM10),57,63,42,37,26,8,,,,53,19,15,7,0.7,0.5
2025-04-02T0200,3535A,109.1781,23.7297,来宾市,兴宾区政府,颗粒物(PM10),57,63,40,32,26,46,,,,24,11,7,9,0.8,0.7
2025-04-02T0200,4002A,109.2416,23.7461,来宾市,中南小学,颗粒物(PM10),59,68,48,26,27,12,,,,46,18,6,7,0.8,0.7
2025-04-02T0200,1477A,104.1373,35.9454,兰州市,榆中兰大校区,,,,,,,,,,,,,,,,
2025-04-02T0200,1479A,103.831,36.0464,兰州市,铁路设计院,颗粒物(PM10),133,216,183,70,52,18,,,,68,47,29,14,1.9,0.9
2025-04-02T0200,3241A,103.7439,36.0842,兰州市,百合公园,颗粒物(PM10),110,169,192,52,51,17,,,,58,37,9,9,0.7,0.5
2025-04-02T0200,3242A,103.9611,35.998,兰州市,和平,颗粒物(PM10),123,195,222,61,72,48,,,,43,16,8,10,0.4,0.4
2025-04-02T0200,4236A,103.6293,36.0938,兰州市,庄浪东路808号,颗粒物(PM10),121,191,199,70,74,55,,,,32,29,9,11,0.3,0.4
2025-04-02T0200,4237A,103.7251,36.1043,兰州市,安宁西路88号,颗粒物(PM10),133,216,221,67,68,35,,,,46,30,6,9,0.5,0.5
2025-04-02T0200,4238A,103.8470,36.0676,兰州市,北滨河东路1号,颗粒物(PM10),135,219,197,69,62,6,,,,80,43,11,14,0.9,0.9
2025-04-02T0200,3245A,103.6633,36.533,兰州新区,新区管委会,颗粒物(PM10),91,131,238,45,80,31,,,,27,17,12,14,0.5,0.6
2025-04-02T0200,3246A,103.6975,36.4789,兰州新区,舟曲中学,颗粒物(PM10),133,215,312,66,113,32,,,,52,18,16,15,0.2,0.4
2025-04-02T0200,1067A,116.6708,39.5111,廊坊市,药材公司,,22,15,62,3,34,69,,,,13,14,1,3,0.2,0.4
2025-04-02T0200,1068A,116.7214,39.5589,廊坊市,开发区,,22,20,68,7,28,70,,,,11,18,1,3,0.2,0.3
2025-04-02T0200,1070A,116.7244,39.5269,廊坊市,北华航天学院,,28,28,67,3,18,68,,,,11,13,2,4,0.2,0.3
2025-04-02T0200,2919A,116.7022,39.5453,廊坊市,河北工业大学,,21,20,60,7,27,66,,,,17,16,3,5,0.2,0.3
2025-04-02T0200,2535A,103.7723,29.5462,乐山市,花湖湾,细颗粒物(PM2.5),84,75,46,62,37,19,,,,31,18,3,2,0.8,0.6
2025-04-02T0200,2536A,103.7627,29.5844,乐山市,牛耳桥,细颗粒物(PM2.5),78,83,59,57,45,27,,,,41,31,7,7,0.6,0.6
2025-04-02T0200,2537A,103.7508,29.6006,乐山市,市第三水厂,颗粒物(PM10),56,62,45,38,33,35,,,,26,19,4,4,0.6,0.6
2025-04-02T0200,2538A,103.7571,29.5664,乐山市,市监测站,细颗粒物(PM2.5),72,64,42,52,41,27,,,,28,20,6,7,0.9,0.8
2025-04-02T0200,3361A,103.7311,29.5628,乐山市,理工大学,细颗粒物(PM2.5),67,76,49,48,36,27,,,,27,23,4,5,0.7,0.6
2025-04-02T0200,2598A,100.2143,26.8576,丽江市,西南郊,细颗粒物(PM2.5),62,48,64,44,45,130,,,,4,9,5,15,0.8,1
2025-04-02T0200,2599A,100.2497,26.8802,丽江市,丽江古城,细颗粒物(PM2.5),54,51,63,38,41,101,,,,10,13,8,8,0.6,0.6
2025-04-02T0200,2600A,100.2203,26.8906,丽江市,市中心,,46,36,48,32,39,106,,,,14,17,9,9,0.9,1
2025-04-02T0200,1267A,119.914,28.4514,丽水市,监测站大楼,,36,36,36,23,23,40,,,,32,21,3,3,0.2,0.3
2025-04-02T0200,1268A,119.93,28.4586,丽水市,莲都小学,,39,39,32,22,19,54,,,,20,16,3,4,0.3,0.3
2025-04-02T0200,1269A,119.879,28.4231,丽水市,余庄前,,30,30,26,21,18,11,,,,20,16,2,3,0.4,0.4
2025-04-02T0200,1173A,119.176,34.5885,连云港市,市环境监测站,颗粒物(PM10),60,70,64,41,36,84,,,,26,20,14,12,0.7,0.6
2025-04-02T0200,3000A,119.3581,34.6972,连云港市,德源药业,"颗粒物(PM10),细颗粒物(PM2.5)",58,66,61,41,33,96,,,,22,19,11,10,0.5,0.4
2025-04-02T0200,3007A,119.178,34.844,连云港市,新城一中,细颗粒物(PM2.5),78,78,65,57,42,66,,,,47,25,13,11,0.7,0.6
2025-04-02T0200,3008A,119.3608,34.7519,连云港市,胡沟管理处,颗粒物(PM10),53,56,45,36,26,118,,,,19,20,9,8,0.5,0.6
2025-04-02T0200,3009A,119.1478,34.5911,连云港市,矿山设计院,颗粒物(PM10),58,66,63,39,32,93,,,,27,21,14,12,0.6,0.5
2025-04-02T0200,3434A,119.2413,34.6539,连云港市,工贸学校,细颗粒物(PM2.5),64,49,34,46,41,92,,,,25,21,14,11,0.7,0.6
2025-04-02T0200,3664A,119.4172,34.7341,连云港市,连云街道,颗粒物(PM10),71,91,68,31,29,122,,,,19,21,9,8,0.5,0.3
2025-04-02T0200,2571A,102.3431,27.8099,凉山彝族自治州,青龙寺,,34,34,25,6,6,73,,,,4,4,6,6,0.6,0.6
2025-04-02T0200,2572A,102.2721,27.8415,凉山彝族自治州,邛海宾馆,,32,32,25,16,14,70,,,,6,7,5,5,0.4,0.4
2025-04-02T0200,2573A,102.2625,27.898,凉山彝族自治州,西昌市政府,,28,28,27,11,18,64,,,,4,8,5,6,0.2,0.3
2025-04-02T0200,2574A,102.2685,27.8851,凉山彝族自治州,凉山州政府,,28,28,29,18,18,75,,,,6,11,4,4,0.4,0.2
2025-04-02T0200,4229A,102.2342,27.8859,凉山彝族自治州,凯乐南路30号,,36,36,33,17,14,70,,,,4,11,6,7,0.4,0.4
2025-04-02T0200,2212A,123.2,41.1953,辽阳市,宏伟区,,40,32,64,28,57,114,,,,6,14,9,10,0.8,0.9
2025-04-02T0200,2213A,123.1683,41.2495,辽阳市,新华园,,39,38,79,27,59,122,,,,14,23,6,9,0.5,0.8
2025-04-02T0200,2214A,123.2354,41.2639,辽阳市,滨河路,细颗粒物(PM2.5),53,,58,37,59,97,,,,12,20,8,8,0.6,0.7
2025-04-02T0200,2215A,123.149,41.2991,辽阳市,铁西工业园,细颗粒物(PM2.5),53,44,88,37,60,112,,,,13,23,9,10,0.8,0.9
2025-04-02T0200,2227A,125.1358,42.8845,辽源市,环保局,,28,28,56,17,26,61,,,,24,19,4,6,0.4,0.6
2025-04-02T0200,3239A,125.0764,42.9078,辽源市,银鹰制药,,39,35,58,27,36,46,,,,34,21,6,6,0.6,0.7
2025-04-02T0200,1625A,115.9848,36.4372,聊城市,区政府,颗粒物(PM10),64,78,98,16,35,80,,,,19,26,7,10,0.4,0.6
2025-04-02T0200,2878A,116.0072,36.4343,聊城市,聊大东校,颗粒物(PM10),60,70,107,8,39,78,,,,15,20,5,10,0.4,0.5
2025-04-02T0200,3200A,115.9819,36.4978,聊城市,监控中心,颗粒物(PM10),60,70,102,7,33,73,,,,12,18,10,13,0.4,0.6
2025-04-02T0200,3513A,116.0445,36.4361,聊城市,九州社区,颗粒物(PM10),59,67,105,3,31,77,,,,17,20,10,12,0.4,0.5
2025-04-02T0200,4018A,116.0567,36.4608,聊城市,星美广场,颗粒物(PM10),53,56,104,3,29,76,,,,12,16,7,10,0.5,0.7
2025-04-02T0200,2632A,94.3681,29.6376,林芝市,林芝监测站,,41,12,18,10,12,130,,,,4,6,5,5,0.4,0.4
2025-04-02T0200,2633A,94.3616,29.6616,林芝市,林芝人民医院,,39,13,21,9,11,122,,,,2,3,8,8,0.3,0.3
2025-04-02T0200,2603A,100.0781,23.8982,临沧市,市环保局,细颗粒物(PM2.5),112,104,111,84,77,95,,,,16,19,9,10,1.0,0.9
2025-04-02T0200,2604A,100.0894,23.8822,临沧市,市气象局,细颗粒物(PM2.5),115,92,96,87,84,94,,,,18,21,8,8,0.9,0.8
2025-04-02T0200,1733A,111.5531,36.0783,临汾市,临钢医院,颗粒物(PM10),58,66,93,8,26,52,,,,23,28,4,7,0.4,0.7
2025-04-02T0200,1734A,111.5028,36.0714,临汾市,技工学校,颗粒物(PM10),60,70,83,29,34,37,,,,30,30,7,10,0.5,0.6
2025-04-02T0200,1736A,111.5018,36.0855,临汾市,市委,颗粒物(PM10),54,57,88,10,26,54,,,,27,32,2,6,0.3,0.6
2025-04-02T0200,3018A,111.505,36.1014,临汾市,唐尧大酒店,颗粒物(PM10),56,62,88,7,24,54,,,,24,26,5,9,0.4,0.6
2025-04-02T0200,4244A,111.4879,36.0530,临汾市,启星学校,颗粒物(PM10),67,83,86,30,34,27,,,,39,27,5,7,0.4,0.6
2025-04-02T0200,4271A,103.2464,35.6123,临夏回族自治州,滨河东路1号,颗粒物(PM10),122,194,168,74,59,31,,,,17,14,4,4,0.7,0.6
2025-04-02T0200,4310A,103.2093,35.5995,临夏回族自治州,新华街21号,颗粒物(PM10),115,179,162,86,65,34,,,,24,24,9,10,0.9,0.7
2025-04-02T0200,1618A,118.3429,35.0532,临沂市,沂河小区,细颗粒物(PM2.5),92,119,94,68,46,87,,,,26,23,19,17,0.6,0.6
2025-04-02T0200,1619A,118.295,35.0583,临沂市,鲁南制药厂,颗粒物(PM10),81,112,94,52,43,92,,,,33,33,16,20,0.6,0.5
2025-04-02T0200,1620A,118.2794,34.9976,临沂市,新光毛纺厂,细颗粒物(PM2.5),87,100,92,64,49,73,,,,49,39,20,21,0.7,0.7
2025-04-02T0200,1621A,118.3956,35.0888,临沂市,河东保险公司,颗粒物(PM10),74,97,81,46,38,101,,,,33,31,15,14,0.4,0.4
2025-04-02T0200,3370A,118.3564,35.0215,临沂市,十里堡居委,颗粒物(PM10),89,127,91,56,42,81,,,,32,29,29,14,0.7,0.7
2025-04-02T0200,3496A,118.3604,35.1084,临沂市,南坊新区,颗粒物(PM10),76,102,85,44,37,95,,,,25,24,10,14,0.7,0.6
2025-04-02T0200,3860A,118.3920,35.0300,临沂市,皇山花园小区,颗粒物(PM10),76,102,87,44,40,90,,,,28,24,28,15,0.5,0.5
2025-04-02T0200,1870A,109.4856,24.3895,柳州市,柳东小学,细颗粒物(PM2.5),52,46,32,36,22,66,,,,21,14,25,14,0.5,0.5
2025-04-02T0200,1871A,109.4157,24.3277,柳州市,环保监测站,颗粒物(PM10),58,65,38,38,24,31,,,,39,18,13,11,1.0,0.8
2025-04-02T0200,1872A,109.389,24.341,柳州市,河西水厂,颗粒物(PM10),77,104,50,52,28,17,,,,57,22,18,8,0.8,0.6
2025-04-02T0200,1873A,109.4311,24.2921,柳州市,市四中,颗粒物(PM10),59,68,52,31,23,34,,,,40,22,20,10,0.9,0.8
2025-04-02T0200,1874A,109.4006,24.3631,柳州市,市九中,,,,,,,,,,,,,,,,
2025-04-02T0200,1875A,109.4958,24.3134,柳州市,古亭山,,37,37,33,22,16,4,,,,66,20,11,10,0.7,0.5
2025-04-02T0200,3402A,109.5422,24.3996,柳州市,市二中,细颗粒物(PM2.5),69,80,50,50,25,11,,,,45,15,38,13,0.5,0.3
2025-04-02T0200,2307A,116.5079,31.737,六安市,监测大楼,细颗粒物(PM2.5),59,65,56,42,26,100,,,,17,17,6,6,0.5,0.4
2025-04-02T0200,2308A,116.4738,31.7643,六安市,皖西学院,颗粒物(PM10),59,68,64,34,27,93,,,,20,19,5,5,0.5,0.5
2025-04-02T0200,2309A,116.4996,31.7905,六安市,朝阳厂,,50,50,56,27,27,102,,,,23,25,4,4,0.6,0.6
2025-04-02T0200,2310A,116.5567,31.7886,六安市,开发区,颗粒物(PM10),62,73,72,35,41,69,,,,26,28,4,5,0.6,0.6
2025-04-02T0200,2576A,104.8,26.5892,六盘水市,窑上,,50,50,42,22,25,65,,,,8,10,4,7,0.6,0.6
2025-04-02T0200,2577A,104.83,26.5917,六盘水市,黄土坡,,36,33,29,25,19,60,,,,8,14,9,13,0.5,0.6
2025-04-02T0200,2578A,104.89,26.5939,六盘水市,水钢,,32,32,35,20,18,63,,,,8,14,8,13,0.3,0.5
2025-04-02T0200,2579A,104.8475,26.5894,六盘水市,民中,,29,29,26,17,15,60,,,,8,15,8,13,0.5,0.6
2025-04-02T0200,2580A,104.9544,26.5506,六盘水市,双水,,29,27,26,20,16,66,,,,10,11,8,10,0.4,0.5
2025-04-02T0200,2335A,117.0189,25.1181,龙岩市,龙岩师专,,,,,,,,,,,,,,,,
2025-04-02T0200,2336A,117.0217,25.1033,龙岩市,龙岩市监测站,,22,20,18,15,14,10,,,,22,16,5,6,0.4,0.5
2025-04-02T0200,2337A,117.0258,25.0661,龙岩市,闽西职业技术学院,,42,42,19,15,8,2,,,,30,17,47,8,0.6,0.6
2025-04-02T0200,2338A,117.0196,25.0306,龙岩市,龙岩学院,,22,18,13,15,9,6,,,,26,12,3,3,0.5,0.6
2025-04-02T0200,2665A,105.0822,33.3261,陇南市,汉王镇固水子,,,,,,,,,,,,,,,,
2025-04-02T0200,2885A,104.9339,33.3826,陇南市,滨江中学,颗粒物(PM10),67,84,91,39,30,36,,,,22,17,8,8,0.8,0.6
2025-04-02T0200,3247A,104.955,33.371,陇南市,市总工会,颗粒物(PM10),64,78,77,27,29,59,,,,11,12,7,7,0.6,0.6
2025-04-02T0200,2487A,111.9589,27.8901,娄底市,电视发射台,,,44,49,,19,72,,,,6,6,7,6,0.7,0.6
2025-04-02T0200,2488A,111.9975,27.725,娄底市,市监测站,颗粒物(PM10),70,89,70,48,44,12,,,,65,34,14,14,0.7,0.9
2025-04-02T0200,2489A,112.0194,27.7314,娄底市,市委党校,细颗粒物(PM2.5),70,79,68,51,37,34,,,,30,20,4,4,0.4,0.6
2025-04-02T0200,2490A,111.9561,27.7569,娄底市,涟钢,颗粒物(PM10),55,60,62,27,33,51,,,,17,21,8,13,0.8,0.9
2025-04-02T0200,2491A,111.9892,27.7044,娄底市,市政府,"颗粒物(PM10),细颗粒物(PM2.5)",57,64,55,40,32,34,,,,17,15,7,8,0.8,0.8
2025-04-02T0200,1893A,105.4324,28.9634,泸州市,九狮山,,,,,,,,,,,,,,,,
2025-04-02T0200,1894A,105.4427,28.9063,泸州市,小市上码头,,39,32,34,27,28,55,,,,18,17,6,6,0.5,0.5
2025-04-02T0200,1895A,105.4241,28.8573,泸州市,兰田宪桥,,32,31,45,22,29,46,,,,12,13,6,5,0.4,0.4
2025-04-02T0200,1896A,105.4379,28.8833,泸州市,市环监站,,,,,,,,,,,,,,,,
2025-04-02T0200,4272A,105.3689,28.7783,泸州市,纳溪中医医院,,32,31,40,22,28,49,,,,12,13,5,4,0.5,0.6
2025-04-02T0200,2183A,111.1406,37.5211,吕梁市,环保局,颗粒物(PM10),70,89,80,18,18,23,,,,49,24,2,4,0.2,0.3
2025-04-02T0200,2185A,111.1297,37.5136,吕梁市,自来水公司,颗粒物(PM10),81,112,101,21,18,38,,,,37,22,4,4,0.3,0.3
2025-04-02T0200,2867A,111.1283,37.51,吕梁市,马茂庄小学,颗粒物(PM10),71,92,81,16,15,24,,,,55,25,3,3,0.3,0.3
2025-04-02T0200,1812A,112.3931,34.6516,洛阳市,市委党校,颗粒物(PM10),67,84,75,31,31,42,,,,31,20,12,5,0.6,0.5
2025-04-02T0200,1815A,112.494,34.6886,洛阳市,河南林校,颗粒物(PM10),85,119,92,44,33,24,,,,60,27,27,8,1.0,0.6
2025-04-02T0200,1816A,112.3844,34.623,洛阳市,开发区管委会,颗粒物(PM10),75,99,72,35,29,48,,,,28,20,6,7,0.2,0.3
2025-04-02T0200,1817A,112.4267,34.6258,洛阳市,市委新办公区,颗粒物(PM10),70,89,69,29,26,53,,,,27,19,5,5,0.2,0.3
2025-04-02T0200,3340A,112.6005,34.6326,洛阳市,伊滨,颗粒物(PM10),53,56,50,29,39,60,,,,22,18,5,7,0.3,0.4
2025-04-02T0200,3341A,112.4951,34.6332,洛阳市,中移产业园,颗粒物(PM10),78,106,97,34,31,54,,,,25,17,7,7,0.2,0.3
2025-04-02T0200,3593A,112.5736,34.8993,洛阳市,吉利监测站,颗粒物(PM10),54,57,63,20,26,58,,,,31,23,7,8,0.4,0.4
2025-04-02T0200,3635A,112.3677,34.662,洛阳市,河科大西苑校区,颗粒物(PM10),74,97,83,28,29,44,,,,30,26,15,9,0.5,0.4
2025-04-02T0200,3636A,112.4388,34.6781,洛阳市,英才小学,颗粒物(PM10),80,110,82,42,35,24,,,,63,28,30,11,0.8,0.5
2025-04-02T0200,4214A,112.4600,34.6949,洛阳市,春都路1号院,颗粒物(PM10),85,119,113,34,34,27,,,,53,33,22,12,0.8,0.7
2025-04-02T0200,2399A,114.051,33.5699,漯河市,三五一五工厂,颗粒物(PM10),68,85,84,39,37,94,,,,14,15,5,6,0.4,0.5
2025-04-02T0200,2400A,114.0055,33.5698,漯河市,漯河大学,颗粒物(PM10),65,80,87,31,32,85,,,,19,17,6,7,0.4,0.4
2025-04-02T0200,2401A,114.0138,33.5828,漯河市,市水利局,颗粒物(PM10),64,78,82,39,33,99,,,,12,14,5,5,0.5,0.6
2025-04-02T0200,2402A,114.0261,33.5698,漯河市,市广电局,颗粒物(PM10),64,78,80,36,33,92,,,,14,12,6,6,0.5,0.5
2025-04-02T0200,3478A,113.9749,33.5664,漯河市,市图书馆,颗粒物(PM10),66,81,83,39,34,90,,,,16,17,5,6,0.4,0.5
2025-04-02T0200,4250A,114.0892,33.5882,漯河市,韶山路11号,颗粒物(PM10),64,78,85,35,34,112,,,,8,13,4,5,0.4,0.5
2025-04-02T0200,1798A,118.5092,31.6837,马鞍山市,湖东路四小,颗粒物(PM10),56,61,46,35,24,87,,,,26,23,7,8,0.6,0.5
2025-04-02T0200,1799A,118.5024,31.6449,马鞍山市,开发区,颗粒物(PM10),57,63,62,34,28,86,,,,25,34,5,5,0.6,0.6
2025-04-02T0200,1802A,118.6245,31.7241,马鞍山市,濮塘,,46,46,42,31,22,91,,,,16,11,10,10,0.4,0.3
2025-04-02T0200,3633A,118.4918,31.6809,马鞍山市,雨山,颗粒物(PM10),58,65,49,30,26,84,,,,21,19,8,8,0.6,0.5
2025-04-02T0200,4191A,118.5274,31.72227,马鞍山市,慈湖高新区,颗粒物(PM10),57,63,54,32,29,84,,,,27,31,6,7,0.7,0.6
2025-04-02T0200,1686A,111.0286,21.4688,茂名市,电白南海,,46,46,33,31,22,46,,,,22,17,2,5,1.1,1
2025-04-02T0200,1687A,110.9294,21.6533,茂名市,茂石化七小,颗粒物(PM10),52,53,28,34,16,33,,,,19,11,2,2,0.9,1
2025-04-02T0200,1688A,110.9107,21.6687,茂名市,健康路,,45,41,27,31,17,46,,,,21,13,4,8,0.9,0.8
2025-04-02T0200,1689A,110.8592,21.6828,茂名市,高岭,颗粒物(PM10),60,70,34,36,14,11,,,,35,16,4,12,0.7,0.6
2025-04-02T0200,3450A,111.01,21.5165,茂名市,电白水东,,46,46,25,29,15,28,,,,37,16,4,6,0.8,0.7
2025-04-02T0200,2539A,104.0308,30.0478,眉山市,黑龙滩水库,细颗粒物(PM2.5),60,60,47,43,32,31,,,,13,8,3,3,0.4,0.6
2025-04-02T0200,2540A,103.8416,30.0874,眉山市,气象局,颗粒物(PM10),55,59,73,31,51,48,,,,22,28,5,6,0.5,0.6
2025-04-02T0200,3137A,103.8578,30.0744,眉山市,市委党校,颗粒物(PM10),56,61,56,29,46,51,,,,15,20,3,3,0.5,0.6
2025-04-02T0200,3148A,103.8291,30.0564,眉山市,区人社局,,46,46,52,22,46,48,,,,20,29,2,3,0.4,0.6
2025-04-02T0200,1690A,116.1231,24.3284,梅州市,梅江月梅,,25,24,18,17,13,3,,,,16,13,3,3,0.5,0.5
2025-04-02T0200,1691A,116.0797,24.2719,梅州市,梅县新城,,16,15,15,11,11,4,,,,19,14,5,5,0.5,0.5
2025-04-02T0200,1692A,116.1248,24.2654,梅州市,环境监控中心,,16,15,15,11,9,4,,,,22,18,6,6,0.4,0.5
2025-04-02T0200,3315A,116.1233,24.2991,梅州市,梅龙,,29,29,17,13,8,3,,,,17,14,6,6,0.6,0.5
2025-04-02T0200,1878A,104.7778,31.4741,绵阳市,富乐山,细颗粒物(PM2.5),52,52,44,36,37,17,,,,37,22,3,2,0.5,0.5
2025-04-02T0200,1880A,104.6697,31.4668,绵阳市,高新区自来水公司,细颗粒物(PM2.5),70,72,50,51,36,21,,,,37,25,2,2,0.6,0.6
2025-04-02T0200,1881A,104.7287,31.5075,绵阳市,三水厂,细颗粒物(PM2.5),64,70,47,46,40,24,,,,33,25,5,5,0.7,0.6
2025-04-02T0200,3491A,104.69,31.5322,绵阳市,西科大附属小学,细颗粒物(PM2.5),68,76,51,49,36,24,,,,39,31,8,6,0.6,0.7
2025-04-02T0200,3492A,104.5648,31.5343,绵阳市,安州区旅游局,细颗粒物(PM2.5),77,67,47,56,37,19,,,,32,28,8,9,0.8,0.7
2025-04-02T0200,4226A,104.7651,31.4531,绵阳市,绵阳市气象局,细颗粒物(PM2.5),77,80,50,56,40,14,,,,43,23,5,4,0.7,0.6
2025-04-02T0200,1784A,129.61,44.561,牡丹江市,环保大楼,,33,,39,23,33,100,,,,8,17,5,6,0.3,0.4
2025-04-02T0200,1785A,129.6115,44.5782,牡丹江市,文化广场,,39,38,50,27,38,101,,,,9,20,9,10,0.4,0.6
2025-04-02T0200,1786A,129.5904,44.5963,牡丹江市,第一医院,,39,37,47,27,35,100,,,,7,17,11,11,0.3,0.4
2025-04-02T0200,1787A,129.6364,44.6075,牡丹江市,机车工厂,,48,34,57,33,36,80,,,,22,23,9,29,0.5,0.6
2025-04-02T0200,1788A,129.6386,44.5462,牡丹江市,第一中学,,42,42,41,22,32,107,,,,4,17,8,8,0.5,0.6
2025-04-02T0200,2531A,105.0703,29.61,内江市,市监测站,,46,42,32,32,30,34,,,,18,21,2,2,0.4,0.4
2025-04-02T0200,2532A,105.0717,29.5947,内江市,东兴区政府,,45,35,33,31,23,40,,,,17,20,3,2,0.6,0.6
2025-04-02T0200,2533A,105.0653,29.5817,内江市,内江二中,,48,40,37,33,26,37,,,,21,22,5,6,0.5,0.5
2025-04-02T0200,2534A,105.0406,29.5822,内江市,内江日报社,,49,40,37,34,27,36,,,,18,19,3,3,0.6,0.5
2025-04-02T0200,2628A,92.0657,31.4846,那曲市,那曲监测站,颗粒物(PM10),51,52,51,29,28,57,,,,20,19,8,8,1.9,1.2
2025-04-02T0200,4243A,92.0515,31.4787,那曲市,那曲市委宣传部,颗粒物(PM10),51,51,45,30,22,54,,,,18,13,7,6,1.0,0.4
2025-04-02T0200,1290A,115.8931,28.6843,南昌市,省外办,"颗粒物(PM10),细颗粒物(PM2.5)",73,96,71,53,45,14,,,,75,41,6,7,0.8,0.6
2025-04-02T0200,1291A,115.8886,28.7003,南昌市,省林业公司,颗粒物(PM10),73,95,72,44,40,1,,,,87,34,8,8,0.3,0.3
2025-04-02T0200,1292A,115.8126,28.7442,南昌市,林科所,颗粒物(PM10),65,80,55,36,32,8,,,,106,46,3,2,0.5,0.5
2025-04-02T0200,1294A,115.8518,28.687,南昌市,建工学校,细颗粒物(PM2.5),68,82,73,49,45,27,,,,76,41,4,5,0.7,0.6
2025-04-02T0200,1295A,115.8921,28.6424,南昌市,象湖,颗粒物(PM10),69,88,68,46,38,3,,,,85,41,7,8,1.0,0.8
2025-04-02T0200,1296A,115.7423,28.7996,南昌市,武术学校,,26,25,47,18,22,27,,,,5,7,5,5,0.5,0.5
2025-04-02T0200,3046A,115.9084,28.6062,南昌市,机电学校,颗粒物(PM10),74,97,78,53,39,10,,,,74,37,2,3,0.8,0.6
2025-04-02T0200,3690A,115.9721,28.7031,南昌市,外国语学校,颗粒物(PM10),78,105,79,55,41,4,,,,70,40,5,7,0.3,0.1
2025-04-02T0200,4192A,115.9316,28.68677,南昌市,南京东路235号,颗粒物(PM10),88,126,86,60,46,11,,,,78,46,10,10,0.9,0.6
2025-04-02T0200,1905A,106.056,30.8064,南充市,西山风景区,细颗粒物(PM2.5),57,46,28,40,28,35,,,,13,12,10,4,0.7,0.6
2025-04-02T0200,1906A,106.0789,30.8023,南充市,南充市委,细颗粒物(PM2.5),62,52,42,44,34,13,,,,36,23,8,4,0.7,0.6
2025-04-02T0200,1907A,106.1031,30.8217,南充市,南充炼油厂,细颗粒物(PM2.5),68,61,50,49,35,9,,,,36,24,6,4,0.6,0.5
2025-04-02T0200,1909A,106.0642,30.7636,南充市,嘉陵区环保局,细颗粒物(PM2.5),52,49,67,36,39,14,,,,27,28,5,5,0.6,0.4
2025-04-02T0200,4227A,106.1083,30.7884,南充市,梨树横街98号,颗粒物(PM10),52,54,42,35,32,24,,,,25,23,7,6,0.4,0.4
2025-04-02T0200,4304A,106.1172,30.843,南充市,清泉寺北路188号,,,,51,,34,,,33,,,23,,6,,0.4
2025-04-02T0200,1151A,118.8086,32.1065,南京市,迈皋桥,,45,45,43,24,21,87,,,,37,24,4,4,0.3,0.3
2025-04-02T0200,1152A,118.7538,32.0551,南京市,草场门,,39,39,40,27,20,78,,,,37,30,8,6,0.5,0.5
2025-04-02T0200,1153A,118.7794,32.0745,南京市,山西路,,44,44,48,24,22,73,,,,22,14,5,4,0.2,0.2
2025-04-02T0200,1154A,118.7752,32.0023,南京市,中华门,,41,41,39,24,20,60,,,,42,22,11,9,0.4,0.4
2025-04-02T0200,1155A,118.8109,32.0309,南京市,瑞金路,,44,44,46,24,21,66,,,,28,19,6,6,0.7,0.7
2025-04-02T0200,1156A,118.7997,32.0754,南京市,玄武湖,,45,45,43,24,19,68,,,,18,12,6,5,0.6,0.5
2025-04-02T0200,1157A,118.6414,32.0931,南京市,浦口,颗粒物(PM10),53,55,51,22,22,65,,,,40,30,7,8,0.2,0.2
2025-04-02T0200,1158A,118.7356,31.9996,南京市,奥体中心,,44,44,47,27,22,73,,,,38,27,12,8,0.4,0.3
2025-04-02T0200,1159A,118.9125,32.1028,南京市,仙林大学城,,41,41,44,27,23,74,,,,31,17,10,9,0.6,0.6
2025-04-02T0200,3422A,118.8436,31.9198,南京市,江宁彩虹桥,,49,49,45,31,21,65,,,,35,18,3,4,0.5,0.4
2025-04-02T0200,3427A,118.8554,32.3578,南京市,六合雄州,,39,39,47,21,21,72,,,,25,24,6,7,0.3,0.3
2025-04-02T0200,4249A,118.8708,31.3402,南京市,汶溪路181号,细颗粒物(PM2.5),68,64,43,49,27,85,,,,26,22,7,4,0.6,0.5
2025-04-02T0200,4312A,119.019,31.6512,南京市,中山西路1号,,43,39,36,30,26,74,,,,27,8,6,7,0.6,0.4
2025-04-02T0200,1401A,108.3103,22.7881,南宁市,二十一中,细颗粒物(PM2.5),54,45,42,38,27,65,,,,37,24,7,13,0.8,0.7
2025-04-02T0200,1402A,108.3141,22.8528,南宁市,北湖,细颗粒物(PM2.5),62,72,45,44,23,6,,,,76,30,14,11,0.9,0.6
2025-04-02T0200,1403A,108.3206,22.8225,南宁市,市监测站,颗粒物(PM10),53,55,46,34,24,58,,,,40,26,8,11,0.7,0.6
2025-04-02T0200,1404A,108.3829,22.8037,南宁市,大自然花园,颗粒物(PM10),52,54,40,30,22,71,,,,24,17,7,8,0.7,0.7
2025-04-02T0200,1405A,108.4394,22.7904,南宁市,仙葫,细颗粒物(PM2.5),73,64,43,53,28,27,,,,42,20,8,8,0.6,0.5
2025-04-02T0200,1406A,108.2397,22.8467,南宁市,区农职院,颗粒物(PM10),56,61,42,27,24,21,,,,52,23,13,9,0.9,0.8
2025-04-02T0200,1407A,108.3275,22.735,南宁市,英华嘉园,细颗粒物(PM2.5),58,52,47,41,24,61,,,,33,28,10,11,0.6,0.6
2025-04-02T0200,3401A,108.4834,22.7618,南宁市,红星社区,颗粒物(PM10),58,65,41,30,23,60,,,,27,14,10,11,0.6,0.5
2025-04-02T0200,4221A,108.2177,22.7774,南宁市,乐贤路16号,颗粒物(PM10),69,87,50,42,25,11,,,,82,33,12,14,0.8,0.7
2025-04-02T0200,2331A,118.0966,26.6761,南平市,茫荡山,,,,,,,,,,,,,,,,
2025-04-02T0200,2332A,118.1681,26.6369,南平市,南平市监测站,,18,18,16,12,11,2,,,,30,14,4,4,0.5,0.6
2025-04-02T0200,2333A,118.1825,26.6489,南平市,南平铝业有限公司,,23,17,16,16,12,2,,,,29,14,4,5,0.7,0.7
2025-04-02T0200,2334A,118.1756,26.6272,南平市,南平七中,,22,,16,15,12,6,,,,20,10,4,4,0.6,0.6
2025-04-02T0200,1168A,120.9098,31.9663,南通市,狼山街道,颗粒物(PM10),56,62,47,34,26,56,,,,56,36,8,9,0.6,0.4
2025-04-02T0200,1169A,120.86,32.0005,南通市,虹桥,颗粒物(PM10),52,54,44,34,26,73,,,,46,34,7,8,0.8,0.8
2025-04-02T0200,1170A,120.87,32.02,南通市,城中,颗粒物(PM10),59,67,49,29,23,70,,,,53,32,9,10,0.6,0.6
2025-04-02T0200,1171A,120.94,31.93,南通市,星湖花园,颗粒物(PM10),56,62,42,36,25,54,,,,65,31,9,9,0.5,0.5
2025-04-02T0200,1172A,120.81,32.0417,南通市,紫琅学院,颗粒物(PM10),58,65,44,33,22,52,,,,61,37,5,6,0.4,0.3
2025-04-02T0200,3291A,121.067,32.062,南通市,通州监测站,颗粒物(PM10),56,61,46,31,24,83,,,,33,19,7,5,0.7,0.6
2025-04-02T0200,3432A,120.9348,31.9883,南通市,环境教育馆,细颗粒物(PM2.5),59,58,45,42,26,45,,,,64,30,9,7,0.5,0.4
2025-04-02T0200,2404A,112.5224,33.0122,南阳市,瓦房庄,颗粒物(PM10),92,133,98,66,45,9,,,,59,25,5,7,0.8,0.5
2025-04-02T0200,2405A,112.5003,32.9735,南阳市,汉画馆,颗粒物(PM10),62,74,80,38,37,47,,,,33,26,5,6,0.4,0.5
2025-04-02T0200,2406A,112.5573,33.027,南阳市,气象站,颗粒物(PM10),81,112,100,46,41,9,,,,66,26,6,7,0.7,0.3
2025-04-02T0200,2407A,112.5481,32.9689,南阳市,理工学院,颗粒物(PM10),70,90,86,38,35,57,,,,37,22,6,5,0.5,0.5
2025-04-02T0200,4008A,112.5234,32.9922,南阳市,卧龙区政府,颗粒物(PM10),72,94,95,47,42,35,,,,44,23,5,6,0.5,0.7
2025-04-02T0200,1234A,121.8358,29.911,宁波市,区环保大楼,细颗粒物(PM2.5),55,53,54,39,24,55,,,,34,36,7,8,0.5,0.4
2025-04-02T0200,1235A,121.56,29.82,宁波市,万里学院,,49,49,48,23,25,24,,,,69,36,8,8,0.5,0.5
2025-04-02T0200,1236A,121.713,29.9572,宁波市,龙赛医院,颗粒物(PM10),64,78,51,33,18,28,,,,59,24,8,8,0.6,0.5
2025-04-02T0200,1239A,121.633,29.7733,宁波市,钱湖水厂,颗粒物(PM10),56,61,45,32,25,51,,,,35,25,7,7,0.6,0.5
2025-04-02T0200,1240A,121.5856,29.8635,宁波市,太古小学,颗粒物(PM10),60,70,52,32,23,5,,,,86,33,8,10,0.5,0.4
2025-04-02T0200,1241A,121.524,29.8674,宁波市,市环境监测中心,颗粒物(PM10),57,64,52,32,26,26,,,,65,33,9,9,0.7,0.7
2025-04-02T0200,2871A,121.6147,29.9017,宁波市,万里国际学校,颗粒物(PM10),56,61,43,24,20,3,,,,84,37,8,8,0.6,0.5
2025-04-02T0200,3710A,121.5594,29.8975,宁波市,白沙活动中心,颗粒物(PM10),57,63,43,37,27,27,,,,67,32,7,8,0.4,0.3
2025-04-02T0200,2339A,119.5001,26.6946,宁德市,金涵水库,,,,,,,,,,,,,,,,
2025-04-02T0200,2341A,119.5388,26.6612,宁德市,宁德市监测站,,30,,19,21,12,41,,,,36,18,4,4,0.4,0.4
2025-04-02T0200,3209A,119.5231,26.6562,宁德市,宁德一中,,28,28,18,18,20,70,,,,8,9,5,5,0.3,0.3
2025-04-02T0200,2618A,98.8601,25.8567,怒江傈僳族自治州,州监测站,细颗粒物(PM2.5),68,65,83,49,57,108,,,,7,9,10,8,0.5,0.6
2025-04-02T0200,2619A,98.8546,25.8417,怒江傈僳族自治州,泸水一中,细颗粒物(PM2.5),69,59,79,50,65,80,,,,14,15,9,8,0.7,0.8
2025-04-02T0200,1888A,101.6891,26.571,攀枝花市,弄弄坪,颗粒物(PM10),62,73,56,42,32,49,,,,31,18,12,10,1.0,0.8
2025-04-02T0200,1889A,101.5769,26.5928,攀枝花市,河门口,细颗粒物(PM2.5),78,86,68,57,38,39,,,,33,19,12,15,0.9,1.1
2025-04-02T0200,1890A,101.7169,26.585,攀枝花市,炳草岗,细颗粒物(PM2.5),67,81,56,48,33,42,,,,40,23,14,13,1.1,1
2025-04-02T0200,1891A,101.7369,26.5008,攀枝花市,仁和,细颗粒物(PM2.5),63,67,59,45,34,55,,,,20,16,9,10,0.8,0.7
2025-04-02T0200,2835A,101.7227,26.567,攀枝花市,四十中小,颗粒物(PM10),62,73,69,34,25,81,,,,18,14,16,8,0.8,0.7
2025-04-02T0200,1604A,122.0303,41.1489,盘锦市,开发区,,46,36,66,32,53,73,,,,22,25,7,7,0.6,0.7
2025-04-02T0200,1605A,122.0485,41.0883,盘锦市,兴隆台,细颗粒物(PM2.5),68,74,80,49,61,69,,,,34,32,8,7,0.7,0.7
2025-04-02T0200,1606A,121.8297,41.1028,盘锦市,新生街道,细颗粒物(PM2.5),79,,59,58,58,9,,,,74,30,9,8,0.9,0.8
2025-04-02T0200,1832A,113.3257,33.742,平顶山市,新华旅馆,颗粒物(PM10),63,75,89,39,33,92,,,,18,19,5,5,0.4,0.4
2025-04-02T0200,1833A,113.2919,33.737,平顶山市,规划设计院,颗粒物(PM10),72,93,90,36,36,86,,,,21,23,5,5,0.5,0.5
2025-04-02T0200,1834A,113.182,33.774,平顶山市,平顶山工学院,颗粒物(PM10),61,72,75,29,28,82,,,,22,14,1,1,0.3,0.3
2025-04-02T0200,3204A,113.3025,33.73,平顶山市,规划局,颗粒物(PM10),65,80,89,35,29,83,,,,25,22,5,5,0.4,0.6
2025-04-02T0200,3594A,112.8867,33.9116,平顶山市,石龙区,颗粒物(PM10),117,183,119,29,34,19,,,,88,44,8,6,0.3,0.4
2025-04-02T0200,2656A,106.6692,35.5461,平凉市,聚贤嘉苑,颗粒物(PM10),85,120,127,32,34,55,,,,30,23,6,8,0.4,0.4
2025-04-02T0200,2657A,106.7021,35.5307,平凉市,博物馆,颗粒物(PM10),86,122,123,38,32,58,,,,25,24,14,18,0.6,0.5
2025-04-02T0200,2347A,114.0997,27.5002,萍乡市,武功山,,26,26,37,15,22,51,,,,7,8,6,7,0.7,0.7
2025-04-02T0200,2348A,113.8385,27.6434,萍乡市,中医院,颗粒物(PM10),52,54,66,24,33,52,,,,22,22,8,11,0.6,0.8
2025-04-02T0200,2349A,113.8493,27.6253,萍乡市,市政府车库,,49,49,56,33,33,56,,,,18,20,5,7,0.5,0.6
2025-04-02T0200,2350A,113.8676,27.6435,萍乡市,市环保局,"颗粒物(PM10),细颗粒物(PM2.5)",57,63,64,40,35,36,,,,22,19,4,7,0.6,0.8
2025-04-02T0200,2351A,113.866,27.6198,萍乡市,安源区政府,颗粒物(PM10),53,55,59,24,30,49,,,,15,16,1,3,0.5,0.7
2025-04-02T0200,2319A,119.0141,25.4325,莆田市,荔城区仓后路,,27,27,21,12,8,52,,,,13,11,2,2,0.5,0.5
2025-04-02T0200,2320A,119.0015,25.4553,莆田市,莆田市监测站,,20,19,15,9,6,64,,,,6,8,3,3,0.3,0.4
2025-04-02T0200,2321A,119.1119,25.4561,莆田市,涵江区六中,,32,32,18,17,6,93,,,,13,14,3,2,0.5,0.5
2025-04-02T0200,2322A,119.1013,25.3215,莆田市,秀屿区政府,,34,23,18,12,8,107,,,,10,12,3,4,0.4,0.5
2025-04-02T0200,2323A,118.981,25.4792,莆田市,东圳水库,,,,,,,,,,,,,,,,
2025-04-02T0200,2392A,115.0312,35.7636,濮阳市,环保局,颗粒物(PM10),100,150,98,34,31,85,,,,10,17,4,5,0.4,0.7
2025-04-02T0200,2394A,115.0574,35.7609,濮阳市,油田运输公司,颗粒物(PM10),103,156,114,15,29,89,,,,10,18,4,6,0.3,0.5
2025-04-02T0200,3021A,115,35.7668,濮阳市,濮水河管理处,颗粒物(PM10),81,111,105,6,26,86,,,,14,24,4,6,0.3,0.5
2025-04-02T0200,4216A,115.0924,35.7686,濮阳市,任丘路479号,,,,102,,29,,,103,,,17,,6,,0.7
2025-04-02T0200,2601A,100.98,22.7633,普洱市,市环保局,,44,44,69,29,21,39,,,,7,9,4,4,1.0,1.1
2025-04-02T0200,2602A,100.9817,22.8322,普洱市,普洱第二中学,,43,42,67,30,40,41,,,,8,15,6,6,0.7,0.8
2025-04-02T0200,2262A,131.0518,45.8751,七台河市,新一中,,38,31,41,26,29,69,,,,11,13,10,12,0.9,0.9
2025-04-02T0200,3345A,131.0577,45.7879,七台河市,中波台,,38,34,44,26,30,86,,,,11,18,6,7,0.5,0.6
2025-04-02T0200,3637A,131.0176,45.7761,七台河市,人民广场,细颗粒物(PM2.5),59,,57,42,40,95,,,,9,17,8,8,0.7,0.7
2025-04-02T0200,3684A,130.8781,45.8222,七台河市,新建矿广场,细颗粒物(PM2.5),53,,59,37,34,74,,,,15,25,8,10,0.7,0.8
2025-04-02T0200,1779A,123.9305,47.3636,齐齐哈尔市,安居小区,细颗粒物(PM2.5),55,48,59,39,37,49,,,,23,21,3,6,0.5,0.5
2025-04-02T0200,1780A,123.9488,47.3386,齐齐哈尔市,中心广场,,50,50,69,35,38,58,,,,15,22,4,6,0.5,0.6
2025-04-02T0200,1781A,123.9483,47.3227,齐齐哈尔市,农牧车辆厂,细颗粒物(PM2.5),53,,54,37,33,57,,,,14,20,3,6,0.3,0.3
2025-04-02T0200,1783A,123.945,47.2988,齐齐哈尔市,市环境监测站,细颗粒物(PM2.5),54,44,56,38,39,55,,,,17,19,3,4,0.5,0.5
2025-04-02T0200,3662A,123.6333,47.2075,齐齐哈尔市,富区青少年活动中心,细颗粒物(PM2.5),73,60,78,53,64,49,,,,13,16,6,8,0.4,0.6
2025-04-02T0200,2591A,107.9783,26.5747,黔东南苗族侗族自治州,市环境监测站,,46,46,34,28,22,38,,,,29,20,4,5,0.3,0.3
2025-04-02T0200,2881A,107.8908,26.5311,黔东南苗族侗族自治州,凯里学院,,34,34,31,19,19,35,,,,30,11,2,3,0.5,0.4
2025-04-02T0200,2593A,107.5228,26.2403,黔南布依族苗族自治州,小围寨,,39,39,24,22,14,70,,,,14,9,14,4,0.4,0.3
2025-04-02T0200,3538A,107.5175,26.2978,黔南布依族苗族自治州,沙坝,,35,31,29,24,16,55,,,,21,13,11,6,0.5,0.5
2025-04-02T0200,2589A,104.9022,25.0925,黔西南布依族苗族自治州,场坝街,,42,42,31,20,20,58,,,,18,11,10,8,0.3,0.3
2025-04-02T0200,2590A,104.8811,25.0992,黔西南布依族苗族自治州,坪东大道,,40,31,29,28,21,71,,,,15,15,6,6,0.4,0.4
2025-04-02T0200,2502A,108.6236,21.9667,钦州市,市环保站,颗粒物(PM10),68,85,64,39,30,16,,,,64,31,9,11,0.7,0.7
2025-04-02T0200,2503A,108.6549,21.9481,钦州市,沙埠小学,细颗粒物(PM2.5),78,102,63,57,31,3,,,,71,33,9,8,0.8,0.6
2025-04-02T0200,2504A,108.5989,21.7431,钦州市,港区一小,颗粒物(PM10),63,75,59,35,25,51,,,,27,33,15,12,0.7,0.7
2025-04-02T0200,3404A,108.5959,21.9633,钦州市,北职校,颗粒物(PM10),70,90,54,43,30,6,,,,65,26,9,10,0.8,0.6
2025-04-02T0200,1043A,119.7493,40.0116,秦皇岛市,第一关,,25,19,85,17,48,71,,,,19,36,3,6,0.2,0.4
2025-04-02T0200,1044A,119.5897,39.9499,秦皇岛市,监测站,,27,27,80,10,36,82,,,,5,24,4,6,0.2,0.5
2025-04-02T0200,1046A,119.5251,39.9041,秦皇岛市,建设大厦,,28,24,85,19,39,67,,,,23,27,4,8,0.3,0.5
2025-04-02T0200,3132A,119.610547,39.943889,秦皇岛市,文明里,,28,28,91,10,34,78,,,,4,21,4,6,0.2,0.4
2025-04-02T0200,4198A,119.5090,39.8253,秦皇岛市,北戴河轮滑馆,,25,25,76,15,38,59,,,,23,22,6,7,0.3,0.4
2025-04-02T0200,1307A,120.6659,36.2403,青岛市,仰口,细颗粒物(PM2.5),64,72,63,46,37,117,,,,16,12,5,6,0.7,0.6
2025-04-02T0200,1310A,120.4134,36.0658,青岛市,市南区东部子站,颗粒物(PM10),54,58,74,22,32,114,,,,14,19,6,7,0.5,0.5
2025-04-02T0200,1311A,120.3664,36.1032,青岛市,四方区子站,颗粒物(PM10),62,73,70,39,40,112,,,,18,20,7,8,0.6,0.6
2025-04-02T0200,1312A,120.2994,36.054,青岛市,市南区西部子站,颗粒物(PM10),59,68,69,32,32,108,,,,22,29,6,8,0.7,0.7
2025-04-02T0200,1313A,120.4581,36.0858,青岛市,崂山区子站,颗粒物(PM10),58,66,70,24,30,123,,,,11,15,7,8,0.5,0.6
2025-04-02T0200,1315A,120.3999,36.3083,青岛市,城阳区子站,颗粒物(PM10),60,70,79,34,33,95,,,,24,25,9,11,0.6,0.7
2025-04-02T0200,1966A,120.0405,35.8735,青岛市,黄岛区4号,颗粒物(PM10),67,83,64,39,31,81,,,,37,28,10,11,0.8,0.8
2025-04-02T0200,3362A,120.5014,36.4034,青岛市,即墨2号,细颗粒物(PM2.5),63,71,113,45,42,98,,,,26,23,8,10,0.6,0.7
2025-04-02T0200,3642A,120.3503,36.0736,青岛市,市北区南部,颗粒物(PM10),56,61,74,39,35,89,,,,15,15,6,7,0.8,0.8
2025-04-02T0200,3643A,120.3948,36.1805,青岛市,李沧区北部,颗粒物(PM10),57,63,71,36,39,116,,,,23,30,7,9,0.6,0.7
2025-04-02T0200,4290A,120.1969,35.9546,青岛市,珠江路669号,颗粒物(PM10),68,85,72,46,42,86,,,,30,21,8,7,0.9,0.8
2025-04-02T0200,1702A,113.0426,23.691,清远市,环保大楼,,46,36,25,32,19,57,,,,19,9,21,14,0.7,0.6
2025-04-02T0200,1703A,113.0208,23.7106,清远市,凤城街办,,34,34,24,22,16,43,,,,27,16,11,6,0.6,0.5
2025-04-02T0200,3025A,113.0477,23.6344,清远市,技师学院,颗粒物(PM10),55,59,33,31,19,15,,,,59,18,12,9,0.4,0.4
2025-04-02T0200,3318A,112.9903,23.7403,清远市,清新太和,,26,24,20,18,15,66,,,,13,12,10,7,0.7,0.5
2025-04-02T0200,3455A,113.076,23.7198,清远市,清城东城,,38,38,29,25,18,40,,,,27,13,12,9,0.8,0.7
2025-04-02T0200,2661A,107.6325,35.7357,庆阳市,庆阳五中,颗粒物(PM10),61,72,82,27,33,92,,,,6,11,2,2,0.2,0.2
2025-04-02T0200,2662A,107.6364,35.7067,庆阳市,市环保局,颗粒物(PM10),62,74,82,24,24,82,,,,14,10,15,7,0.4,0.4
2025-04-02T0200,1916A,103.7897,25.5035,曲靖市,环境监测站,,49,48,54,34,29,42,,,,22,20,4,6,0.5,0.6
2025-04-02T0200,1917A,103.8,25.5364,曲靖市,烟厂办公区,,45,45,52,31,30,48,,,,15,16,5,5,0.7,0.7
2025-04-02T0200,3376A,103.7947,25.462,曲靖市,南苑二区,,49,46,54,34,33,45,,,,19,18,9,10,0.6,0.6
2025-04-02T0200,3377A,103.7444,25.5261,曲靖市,曲靖师范学院,,49,40,56,34,41,50,,,,17,17,5,8,0.5,0.6
2025-04-02T0200,1264A,118.8692,28.9398,衢州市,环保大楼,,32,32,48,18,28,50,,,,23,28,3,3,0.4,0.4
2025-04-02T0200,1265A,118.8709,28.9666,衢州市,实验学校,,30,30,44,13,25,32,,,,30,30,3,4,0.5,0.4
2025-04-02T0200,1266A,118.8621,28.9808,衢州市,衢州学院,,48,48,45,30,27,3,,,,70,35,5,5,0.3,0.2
2025-04-02T0200,1611A,118.5819,24.9117,泉州市,涂山街,,34,24,17,13,10,106,,,,7,10,3,3,0.4,0.5
2025-04-02T0200,1612A,118.5972,24.8978,泉州市,津头埔,,31,25,16,13,8,98,,,,14,15,2,2,0.6,0.7
2025-04-02T0200,1613A,118.6663,24.9424,泉州市,万安,,32,26,18,11,9,101,,,,8,10,3,3,0.4,0.5
2025-04-02T0200,1614A,118.6117,24.9604,泉州市,清源山,,,,,,,,,,,,,,,,
2025-04-02T0200,3529A,118.6333,24.9264,泉州市,城华南路,,32,23,16,12,9,100,,,,8,11,3,3,0.4,0.5
2025-04-02T0200,2626A,88.8876,29.2718,日喀则市,日喀则监测站,,,29,26,12,11,133,,,,2,6,,,0.4,0.4
2025-04-02T0200,3726A,88.8781,29.2426,日喀则市,林业技术推广中心,,41,30,39,16,14,130,,,,2,2,5,5,0.3,0.3
2025-04-02T0200,1659A,119.471,35.4209,日照市,监测站,细颗粒物(PM2.5),62,70,75,44,37,80,,,,36,36,11,10,0.8,0.8
2025-04-02T0200,1660A,119.523,35.4216,日照市,市政府广场,细颗粒物(PM2.5),67,78,75,48,35,79,,,,30,35,11,10,1.1,1
2025-04-02T0200,1661A,119.5587,35.4044,日照市,港务局,细颗粒物(PM2.5),77,90,84,56,41,85,,,,33,42,10,9,1.0,0.9
2025-04-02T0200,3507A,119.5328,35.4625,日照市,职业技术学院,颗粒物(PM10),71,92,78,34,32,100,,,,19,30,9,11,0.8,0.9
2025-04-02T0200,3604A,119.3266,35.1044,日照市,岚山环保分局,细颗粒物(PM2.5),77,90,66,56,39,66,,,,49,30,24,8,1.3,0.7
2025-04-02T0200,1835A,111.1922,34.7752,三门峡市,市政府,颗粒物(PM10),80,109,82,39,38,4,,,,69,42,12,9,0.5,0.5
2025-04-02T0200,1836A,111.1587,34.7942,三门峡市,开发区,颗粒物(PM10),77,104,88,30,35,41,,,,33,31,3,4,0.4,0.5
2025-04-02T0200,1838A,111.143,34.7955,三门峡市,风景区,颗粒物(PM10),69,87,83,28,29,45,,,,22,26,12,12,0.4,0.4
2025-04-02T0200,3039A,111.1911,34.7829,三门峡市,三门峡市第一小学,颗粒物(PM10),90,129,99,42,38,24,,,,55,36,6,8,0.6,0.6
2025-04-02T0200,3598A,111.1,34.7167,三门峡市,富达温泉假日酒店,颗粒物(PM10),81,112,99,38,44,24,,,,49,35,10,13,0.7,0.7
2025-04-02T0200,2324A,117.6211,26.2625,三明市,三钢,,35,,15,24,12,4,,,,28,14,4,3,1.6,0.6
2025-04-02T0200,2325A,117.635,26.2714,三明市,三明二中,,,17,17,,10,4,,,,28,15,4,2,1.3,0.5
2025-04-02T0200,2326A,117.6028,26.2378,三明市,三元区政府,,28,28,20,17,13,11,,,,19,17,5,5,0.6,0.5
2025-04-02T0200,2327A,117.7275,26.3108,三明市,洋溪,,,,,,,,,,,,,,,,
2025-04-02T0200,1876A,109.5078,18.2489,三亚市,河东子站,,15,,10,6,6,45,,,,6,9,4,4,0.8,0.8
2025-04-02T0200,1877A,109.4964,18.2681,三亚市,河西子站,,14,13,11,7,6,42,,,,7,9,3,3,0.5,0.5
2025-04-02T0200,3540A,109.7348,18.3443,三亚市,君悦子站,,14,12,19,8,6,42,,,,9,8,4,4,0.5,0.6
2025-04-02T0200,2624A,91.7608,29.2313,山南市,山南监测站,,37,33,62,20,21,118,,,,1,5,7,6,0.4,0.4
2025-04-02T0200,2625A,91.7706,29.2436,山南市,山南人民医院,,37,33,86,23,30,118,,,,2,6,4,4,0.4,0.4
2025-04-02T0200,1674A,116.6794,23.3667,汕头市,金平子站,,28,28,31,18,16,71,,,,18,26,5,7,0.7,0.7
2025-04-02T0200,1675A,116.7244,23.3633,汕头市,龙湖子站,,25,23,19,16,12,79,,,,11,17,4,4,0.6,0.7
2025-04-02T0200,1676A,116.7258,23.2775,汕头市,濠江子站,,29,,16,20,13,76,,,,10,14,3,4,0.6,0.7
2025-04-02T0200,1677A,116.7519,23.4714,汕头市,澄海子站,,31,31,23,19,11,73,,,,14,16,3,3,0.6,0.7
2025-04-02T0200,1678A,116.6092,23.2539,汕头市,潮阳子站,,32,25,19,22,11,60,,,,11,16,7,8,0.6,0.7
2025-04-02T0200,3444A,116.454,23.2684,汕头市,潮南峡山,,24,24,23,13,14,28,,,,16,14,9,8,0.6,0.6
2025-04-02T0200,3624A,116.4069,23.2533,汕头市,潮南子站,颗粒物(PM10),65,79,34,35,15,13,,,,28,20,8,8,0.8,0.7
2025-04-02T0200,1693A,115.3653,22.775,汕尾市,市环保局,,20,12,10,9,8,63,,,,3,4,6,7,0.5,0.5
2025-04-02T0200,1694A,115.3706,22.7898,汕尾市,市政府,,18,,10,11,12,55,,,,6,6,4,4,0.5,0.5
2025-04-02T0200,1695A,115.3622,22.7925,汕尾市,新城中学,,19,12,10,8,9,59,,,,3,4,8,8,0.5,0.5
2025-04-02T0200,2645A,109.9154,33.8715,商洛市,监测站,颗粒物(PM10),91,132,102,45,36,55,,,,18,18,6,6,0.2,0.2
2025-04-02T0200,3045A,109.9643,33.8471,商洛市,商州区中学,颗粒物(PM10),89,127,126,46,34,34,,,,38,30,4,4,0.4,0.4
2025-04-02T0200,2408A,115.6702,34.4285,商丘市,环境监测站,颗粒物(PM10),59,68,92,34,39,82,,,,19,15,6,6,0.3,0.4
2025-04-02T0200,2409A,115.6458,34.4045,商丘市,粮食局,颗粒物(PM10),57,63,82,33,40,68,,,,18,12,5,5,0.3,0.3
2025-04-02T0200,2410A,115.6293,34.3948,商丘市,睢阳区环保局,颗粒物(PM10),63,76,88,32,39,65,,,,23,15,4,3,0.3,0.3
2025-04-02T0200,3171A,115.6071,34.4465,商丘市,梁园区档案局,颗粒物(PM10),59,68,86,34,38,70,,,,19,14,5,5,0.4,0.4
2025-04-02T0200,1141A,121.4,31.238,上海市,普陀,颗粒物(PM10),55,59,49,33,27,98,,,,26,26,6,6,0.6,0.6
2025-04-02T0200,1142A,121.478,31.2036,上海市,十五厂,颗粒物(PM10),52,53,46,35,28,89,,,,34,28,7,7,0.7,0.7
2025-04-02T0200,1143A,121.467,31.3008,上海市,虹口,颗粒物(PM10),51,52,44,29,27,101,,,,34,34,10,10,0.4,0.4
2025-04-02T0200,1147A,121.425,31.2261,上海市,静安监测站,颗粒物(PM10),51,52,45,31,25,101,,,,32,32,8,9,0.6,0.6
2025-04-02T0200,1148A,121.703,31.1907,上海市,浦东川沙,细颗粒物(PM2.5),62,71,50,44,28,71,,,,42,34,8,8,0.6,0.6
2025-04-02T0200,1149A,121.533,31.2284,上海市,浦东新区监测站,,50,50,43,30,25,104,,,,30,31,7,7,0.6,0.6
2025-04-02T0200,1150A,121.577,31.2071,上海市,浦东张江,颗粒物(PM10),58,66,48,40,29,59,,,,58,34,6,6,0.4,0.4
2025-04-02T0200,3265A,121.4316,31.3322,上海市,宝山庙行,颗粒物(PM10),52,53,48,33,30,99,,,,30,35,9,10,0.6,0.6
