timepoint,stationcode,longitude,latitude,area,positionname,primarypollutant,aqi,pm10,pm10_24h,pm2_5,pm2_5_24h,o3,o3_24h,o3_8h,o3_8h_24h,no2,no2_24h,so2,so2_24h,co,co_24h
2025-12-31T1400,2566A,102.1879,31.914,阿坝藏族羌族自治州,州农科所,,,,,,,,,,,,,,,,
2025-12-31T1400,2568A,102.2502,31.8896,阿坝藏族羌族自治州,马师校,,26,20,27,7,22,82,82,39,39,6,21,4,5,0.3,0.7
2025-12-31T1400,3994A,102.2165,31.9024,阿坝藏族羌族自治州,马尔康中学西区,,26,12,18,3,12,81,81,44,44,6,16,5,6,0.5,0.6
2025-12-31T1400,2695A,80.292,41.1694,阿克苏地区,电视台,颗粒物(PM10),52,54,48,29,31,43,43,48,44,18,18,4,4,0.6,0.6
2025-12-31T1400,2696A,80.2613,41.1551,阿克苏地区,艺术中心,细颗粒物(PM2.5),52,50,44,36,36,39,39,54,47,16,12,5,5,0.5,0.5
2025-12-31T1400,2204A,105.6467,38.8363,阿拉善盟,西城区西花园,,,,,,,,,,,,,,,,
2025-12-31T1400,2205A,105.6985,38.8411,阿拉善盟,蒙二幼,,33,33,64,15,23,58,58,54,54,8,15,10,12,0.6,0.7
2025-12-31T1400,2206A,105.724,38.8516,阿拉善盟,环保局新楼,,36,36,47,17,21,50,50,49,48,10,14,10,11,0.6,0.6
2025-12-31T1400,2708A,88.1264,47.8517,阿勒泰地区,市站,,21,21,9,8,5,63,63,84,49,32,24,5,3,0.2,0.5
2025-12-31T1400,2630A,80.1161,32.5,阿里地区,阿里监测站,,22,6,3,3,3,70,70,63,63,4,8,10,11,0.4,0.4
2025-12-31T1400,3192A,80.0903,32.5028,阿里地区,阿里藏医院,,23,16,13,16,9,67,67,49,49,9,12,20,13,0.5,0.5
2025-12-31T1400,2642A,109.0318,32.6537,安康市,香溪洞,,,,,,,,,,,,,,,,
2025-12-31T1400,2644A,109.0072,32.6975,安康市,汉滨区检察院,,25,,95,11,68,79,79,98,83,14,23,4,6,0.6,0.7
2025-12-31T1400,4054A,109.0325,32.6913,安康市,市邮政管理局,,21,14,84,13,66,66,66,81,71,14,24,4,5,0.7,1
2025-12-31T1400,2291A,117.0809,30.5177,安庆市,环科院,,38,38,112,11,79,71,71,60,60,7,13,5,7,0.2,0.6
2025-12-31T1400,2292A,117.0331,30.5119,安庆市,马山宾馆,,35,35,111,12,80,76,76,66,64,11,18,4,6,0.7,0.9
2025-12-31T1400,2294A,116.9896,30.6145,安庆市,安庆大学,,30,30,108,12,76,74,74,63,63,11,16,4,4,0.5,0.8
2025-12-31T1400,3173A,117.0598,30.5351,安庆市,市人大,,,39,114,,84,73,73,62,61,5,12,5,7,0.3,0.6
2025-12-31T1400,3122A,105.9606,26.2611,安顺市,伍家关,,38,27,36,26,26,22,22,50,45,8,7,8,9,0.9,0.8
2025-12-31T1400,3123A,105.9408,26.2431,安顺市,凤凰山,,,29,35,,32,22,22,58,53,14,12,12,9,0.9,0.8
2025-12-31T1400,3124A,105.9439,26.2564,安顺市,金钟山,,39,31,31,27,30,23,23,57,52,11,10,11,11,0.9,0.8
2025-12-31T1400,3125A,105.8983,26.2481,安顺市,娄家坡,,43,33,35,30,30,21,21,60,54,17,10,35,13,1.1,0.9
2025-12-31T1400,1818A,114.4839,36.0621,安阳市,棉研所,,,,,,,,,,,,,,,,
2025-12-31T1400,1819A,114.3551,36.1017,安阳市,红庙街,颗粒物(PM10),53,55,67,26,48,43,43,35,35,21,32,5,5,0.6,0.7
2025-12-31T1400,1820A,114.361,36.0681,安阳市,银杏小区,颗粒物(PM10),53,56,67,25,47,46,46,38,38,23,29,5,6,0.4,0.5
2025-12-31T1400,3141A,114.3922,36.0878,安阳市,信访局,颗粒物(PM10),53,56,66,34,52,45,45,37,37,24,33,3,6,0.6,0.7
2025-12-31T1400,3669A,114.4705,36.0637,安阳市,左辅环卫站,颗粒物(PM10),53,55,82,6,25,52,52,40,40,18,25,5,5,0.6,0.7
2025-12-31T1400,3703A,114.2917,36.0949,安阳市,安钢职工学校,颗粒物(PM10),52,54,75,23,51,41,41,34,34,24,34,5,7,0.4,0.7
2025-12-31T1400,1748A,123.044,41.1196,鞍山市,深沟寺,,24,24,25,13,14,48,48,40,39,9,18,9,10,0.5,0.7
2025-12-31T1400,1749A,123.011,41.0931,鞍山市,太阳城,,24,24,27,14,14,49,49,44,44,10,19,15,20,0.8,1.1
2025-12-31T1400,1750A,123.0485,41.1442,鞍山市,太平,,29,29,31,12,13,46,46,38,38,10,20,11,14,0.6,0.7
2025-12-31T1400,1751A,122.9642,41.0971,鞍山市,铁西三道街,,23,23,38,8,15,53,53,42,42,7,18,11,14,0.5,0.7
2025-12-31T1400,1753A,123.022,41.0821,鞍山市,明达新区,,26,26,25,12,12,48,48,42,42,12,16,16,17,0.7,0.9
2025-12-31T1400,1754A,123.1289,41.0228,鞍山市,千山,,,,14,,9,,,40,,,12,,4,,0.6
2025-12-31T1400,4201A,122.9446,41.0826,鞍山市,兴盛南路290号,,25,25,49,9,27,49,49,33,33,18,35,14,11,0.7,1.2
2025-12-31T1400,2195A,107.4212,40.761,巴彦淖尔市,附二中,,35,30,40,24,19,55,55,48,48,13,11,18,8,0.7,0.3
2025-12-31T1400,2196A,107.37,40.7372,巴彦淖尔市,市环保大楼,,28,28,32,11,14,65,65,56,54,13,12,17,9,0.7,0.4
2025-12-31T1400,1956A,86.1472,41.7538,巴音郭楞蒙古自治州,孔雀公园,颗粒物(PM10),56,62,51,31,33,32,32,48,44,24,16,7,7,0.6,0.6
2025-12-31T1400,1957A,86.1972,41.7166,巴音郭楞蒙古自治州,棉纺厂,,,76,69,19,27,,,36,32,22,29,4,4,0.5,0.6
2025-12-31T1400,1958A,86.2357,41.7173,巴音郭楞蒙古自治州,经济开发区,颗粒物(PM10),54,57,50,30,25,32,32,40,37,23,14,5,5,0.6,0.5
2025-12-31T1400,2914A,106.7677,31.8794,巴中市,苏山坪,,,,,,,,,,,,,,,,
2025-12-31T1400,3181A,106.7768,31.8526,巴中市,市五中,,38,28,120,26,93,46,46,19,19,16,22,5,6,0.9,1.4
2025-12-31T1400,3183A,106.7418,31.8654,巴中市,圣泉水务公司,,,27,91,23,76,54,54,18,18,,24,5,5,0.7,0.9
2025-12-31T1400,3616A,106.7616,31.8344,巴中市,市中心医院,,28,24,110,19,94,59,59,26,26,12,24,7,7,0.8,1.2
2025-12-31T1400,2235A,122.7911,45.6077,白城市,洮北区环保局,,16,10,33,9,29,50,50,38,38,4,13,2,4,0.2,0.3
2025-12-31T1400,2236A,122.8738,45.5725,白城市,市环保局,,,,22,,23,50,50,36,36,4,15,4,6,0.4,0.4
2025-12-31T1400,2231A,126.4219,41.9171,白山市,喜丰,,24,24,50,3,25,52,52,35,35,5,25,17,12,0.4,0.6
2025-12-31T1400,2232A,126.4077,41.9419,白山市,环保局,,,18,32,6,24,48,48,27,27,,12,11,11,0.3,0.6
2025-12-31T1400,2647A,104.1724,36.5446,白银市,第三小学,细颗粒物(PM2.5),59,43,53,42,37,46,46,46,44,16,22,5,17,0.8,0.8
2025-12-31T1400,2648A,104.1465,36.5482,白银市,动力公司,细颗粒物(PM2.5),60,62,54,43,38,52,52,52,51,14,20,4,12,0.6,0.5
2025-12-31T1400,2512A,106.6103,23.9011,百色市,市监测站,颗粒物(PM10),51,51,75,30,57,93,93,48,48,12,23,14,14,0.8,0.9
2025-12-31T1400,2513A,106.6538,23.8859,百色市,市中心血站,颗粒物(PM10),52,54,76,33,61,100,100,71,71,17,24,13,17,0.9,1.1
2025-12-31T1400,3406A,106.6085,23.8798,百色市,祈福高中,颗粒物(PM10),58,65,88,29,62,92,92,38,38,13,33,13,10,0.7,0.9
2025-12-31T1400,2270A,117.396,32.939,蚌埠市,工人疗养院,颗粒物(PM10),60,70,67,28,39,57,57,51,43,11,19,4,4,0.4,0.4
2025-12-31T1400,2271A,117.3605,32.9427,蚌埠市,百货大楼,颗粒物(PM10),55,59,57,22,36,54,54,54,42,9,20,4,4,0.3,0.4
2025-12-31T1400,2273A,117.4185,32.8911,蚌埠市,蚌埠学院,颗粒物(PM10),51,51,54,28,37,54,54,42,42,19,36,4,6,0.4,0.4
2025-12-31T1400,2274A,117.3533,32.9673,蚌埠市,淮上区政府,颗粒物(PM10),57,63,60,28,40,59,59,51,42,9,18,1,1,0.4,0.4
2025-12-31T1400,2275A,117.3145,32.8977,蚌埠市,高新区,颗粒物(PM10),52,53,49,28,34,54,54,55,47,13,18,6,6,0.3,0.3
2025-12-31T1400,3715A,117.3092,32.9314,蚌埠市,蚌埠田家炳中学,颗粒物(PM10),54,58,58,34,39,58,58,56,45,11,19,3,4,0.3,0.4
2025-12-31T1400,1585A,109.8756,40.6532,包头市,市环境监测站,颗粒物(PM10),53,56,24,25,9,51,51,48,33,33,24,47,8,1.4,0.6
2025-12-31T1400,1587A,109.9991,40.5842,包头市,包头八中,,42,42,38,17,18,56,56,27,27,14,36,23,8,1.2,1.1
2025-12-31T1400,1588A,109.8538,40.6821,包头市,青山宾馆,颗粒物(PM10),65,80,22,41,10,51,51,50,31,50,18,73,12,3.2,0.7
2025-12-31T1400,1589A,109.8642,40.6288,包头市,惠龙物流,,43,43,18,27,9,55,55,45,28,24,22,66,12,1.3,0.6
2025-12-31T1400,1590A,110.0377,40.5546,包头市,东河鸿龙湾,,25,25,31,16,14,61,61,37,37,12,38,30,12,0.9,0.6
2025-12-31T1400,3283A,109.9154,40.5685,包头市,滨河大厦,,26,26,19,14,10,61,61,30,30,5,20,11,5,0.7,0.6
2025-12-31T1400,3419A,109.9447,40.6261,包头市,包头市委党校,,35,35,36,14,13,52,52,22,22,21,35,12,10,0.7,0.8
2025-12-31T1400,3683A,109.8331,40.6576,包头市,昆区政府,颗粒物(PM10),63,76,19,29,9,53,53,58,45,36,20,93,14,2.3,0.6
2025-12-31T1400,1930A,107.185,34.3063,宝鸡市,庙沟村,,,,,,,,,,,,,,,,
2025-12-31T1400,1931A,107.0708,34.3017,宝鸡市,竹园沟,细颗粒物(PM2.5),69,56,108,50,105,32,32,22,21,32,31,5,6,1.1,1
2025-12-31T1400,1932A,107.1906,34.3672,宝鸡市,三陆医院,细颗粒物(PM2.5),104,,127,78,117,34,34,25,14,27,51,4,5,1.1,1.2
2025-12-31T1400,1933A,107.1431,34.3547,宝鸡市,监测站,细颗粒物(PM2.5),93,,117,69,116,31,31,47,26,34,38,4,5,1.1,1
2025-12-31T1400,1934A,107.1186,34.3739,宝鸡市,技工学校,细颗粒物(PM2.5),95,,116,71,111,32,32,44,20,29,31,2,4,1.3,1.1
2025-12-31T1400,1936A,107.2058,34.3497,宝鸡市,文理学院,细颗粒物(PM2.5),97,,113,72,113,31,31,54,33,35,41,3,4,1.2,1.1
2025-12-31T1400,1937A,107.2386,34.3622,宝鸡市,三迪小学,细颗粒物(PM2.5),114,,117,86,120,33,33,51,26,35,45,2,4,1.3,1.2
2025-12-31T1400,4308A,107.3898,34.3601,宝鸡市,陈仓区北开路21号,细颗粒物(PM2.5),104,,119,78,109,40,40,48,29,26,44,5,10,1.1,1
2025-12-31T1400,1051A,115.493,38.8632,保定市,游泳馆,,20,20,32,10,6,53,53,50,50,8,14,1,2,0.4,0.3
2025-12-31T1400,1052A,115.5213,38.8959,保定市,华电二区,,16,15,30,3,19,51,51,44,44,12,19,3,3,0.4,0.4
2025-12-31T1400,1053A,115.4713,38.9108,保定市,接待中心,,20,20,32,6,8,49,49,43,43,10,16,3,3,0.3,0.3
2025-12-31T1400,1054A,115.4612,38.8416,保定市,地表水厂,,30,30,41,9,14,56,56,52,52,18,23,2,2,0.3,0.3
2025-12-31T1400,3581A,115.31981,38.95208,保定市,满城区生态环境分局,,,,39,,11,52,52,40,40,12,39,,3,0.4,0.4
2025-12-31T1400,3582A,115.47694,38.76408,保定市,清苑区第二中学,,24,24,47,3,13,46,46,39,39,18,27,4,2,0.3,0.3
2025-12-31T1400,3583A,115.62909,39.02311,保定市,徐水物探局,,25,25,30,11,13,53,53,40,40,16,32,1,2,0.4,0.4
2025-12-31T1400,4004A,115.4202,38.8656,保定市,双鹰农机,,19,18,26,7,13,58,58,55,55,12,16,7,5,0.2,0.2
2025-12-31T1400,4034A,115.5150,38.8590,保定市,植保所站,,25,25,36,3,17,48,48,43,43,17,26,2,3,0.2,0.2
2025-12-31T1400,2594A,99.1678,25.1081,保山市,市环境监测站,,26,16,19,8,16,81,81,56,54,5,8,2,3,0.1,0.2
2025-12-31T1400,2595A,99.1711,25.1328,保山市,市环保局,,32,32,26,14,19,85,85,65,58,4,6,4,4,0.3,0.4
2025-12-31T1400,1866A,109.2262,21.588,北海市,牛尾岭水库,臭氧1小时,52,47,56,27,57,161,161,100,100,13,20,9,10,0.5,0.6
2025-12-31T1400,1867A,109.1436,21.4086,北海市,海滩公园,颗粒物(PM10),55,59,54,34,40,136,136,118,101,14,20,14,11,0.8,0.9
2025-12-31T1400,1868A,109.0981,21.4661,北海市,新市环保局,细颗粒物(PM2.5),52,46,53,36,46,140,140,103,103,12,18,6,7,0.6,0.7
2025-12-31T1400,1869A,109.1778,21.5233,北海市,北海工业园,细颗粒物(PM2.5),59,44,75,42,62,148,148,88,88,11,21,9,13,0.7,0.7
2025-12-31T1400,3400A,109.1911,21.4415,北海市,龙潭自来水厂,细颗粒物(PM2.5),62,,56,44,48,136,136,84,84,10,17,11,8,0.9,1
2025-12-31T1400,1001A,116.3621,39.8784,北京市,万寿西宫,,18,16,11,3,3,55,55,54,52,10,8,2,2,0.2,0.4
2025-12-31T1400,1002A,116.2202,40.2915,北京市,定陵,,,,,,,,,,,,,,,,
2025-12-31T1400,1003A,116.4174,39.9289,北京市,东四,,17,17,10,6,4,53,53,49,48,9,9,2,2,0.4,0.4
2025-12-31T1400,1004A,116.4072,39.8863,北京市,天坛,,19,14,10,6,4,58,58,54,50,7,9,3,3,0.2,0.2
2025-12-31T1400,1005A,116.462,39.9365,北京市,农展馆,,18,14,6,7,2,57,57,52,52,7,7,4,4,0.4,0.3
2025-12-31T1400,1006A,116.3392,39.9295,北京市,官园,,18,18,10,3,3,54,54,49,49,9,9,4,4,0.4,0.3
2025-12-31T1400,1007A,116.2878,39.9611,北京市,海淀万柳,,16,14,11,7,4,51,51,45,45,15,14,3,3,0.2,0.3
2025-12-31T1400,1008A,116.6636,40.135,北京市,顺义新城,,20,9,10,3,3,62,62,56,56,2,7,4,4,0.3,0.3
2025-12-31T1400,1009A,116.6275,40.3275,北京市,怀柔镇,,19,8,6,3,3,58,58,52,51,2,5,6,6,0.3,0.3
2025-12-31T1400,1010A,116.2296,40.217,北京市,昌平镇,,18,18,10,6,4,54,54,52,52,7,4,5,4,0.4,0.3
2025-12-31T1400,1011A,116.3966,39.9821,北京市,奥体中心,,21,21,10,6,3,54,54,51,49,12,14,4,4,0.5,0.4
2025-12-31T1400,3281A,115.9718,40.4529,北京市,延庆夏都,,20,18,12,9,7,61,61,41,41,6,10,4,2,0.3,0.4
2025-12-31T1400,3418A,116.8336,40.4095,北京市,密云新城,,20,6,5,3,2,61,61,58,58,2,2,3,3,0.3,0.3
2025-12-31T1400,3671A,116.088,39.9726,北京市,门头沟三家店,,17,17,12,6,5,49,49,49,47,11,7,3,3,0.4,0.3
2025-12-31T1400,3672A,116.1541,39.8204,北京市,丰台云岗,,18,18,13,6,4,51,51,46,46,12,12,2,2,0.3,0.3
2025-12-31T1400,3673A,116.6804,39.9081,北京市,通州东关,,18,14,13,3,4,57,57,51,51,4,11,3,3,0.1,0.1
2025-12-31T1400,3674A,115.9577,39.7603,北京市,房山燕山,,24,24,14,7,4,44,44,47,38,15,10,3,3,0.2,0.2
2025-12-31T1400,3675A,116.4672,39.7733,北京市,大兴旧宫,,17,15,11,3,3,54,54,48,48,8,14,2,2,0.3,0.3
2025-12-31T1400,3694A,115.986,40.4563,北京市,延庆石河营,,19,18,12,6,5,58,58,37,37,7,9,5,3,0.3,0.3
2025-12-31T1400,3695A,116.6151,40.3053,北京市,怀柔新城,,18,6,5,3,4,56,56,51,50,4,4,4,4,0.2,0.3
2025-12-31T1400,3696A,116.2545,39.8768,北京市,丰台小屯,,15,15,11,3,4,48,48,43,43,9,10,4,3,0.4,0.4
2025-12-31T1400,3697A,116.84,40.3844,北京市,密云镇,,20,6,9,3,2,63,63,58,58,2,4,1,2,0.3,0.3
2025-12-31T1400,4182A,116.1942,39.9158,北京市,八角北路9号,,18,18,13,3,4,48,48,41,41,9,8,5,2,0.0,0
2025-12-31T1400,4194A,117.0790,40.1518,北京市,洳河巡河路,,,,6,,3,,,56,,,3,,1,,0.3
2025-12-31T1400,1761A,123.8275,41.3064,本溪市,大峪,,,15,30,6,18,40,40,29,29,9,27,11,9,,0.8
2025-12-31T1400,1762A,123.7567,41.3325,本溪市,溪湖,,32,32,54,8,21,48,48,37,37,9,28,9,9,0.5,0.9
2025-12-31T1400,1763A,123.7169,41.3094,本溪市,彩屯,,19,19,34,7,22,46,46,42,42,12,24,8,8,0.6,0.7
2025-12-31T1400,1764A,123.7669,41.2864,本溪市,东明,,25,25,32,6,20,44,44,38,38,8,23,9,10,0.8,1.2
2025-12-31T1400,1765A,123.7992,41.2664,本溪市,新立屯,,24,24,28,7,15,41,41,34,34,9,25,12,11,0.7,0.9
2025-12-31T1400,1766A,123.8142,41.3472,本溪市,威宁,,28,28,51,7,27,42,42,26,26,10,27,9,7,0.6,0.9
2025-12-31T1400,2587A,105.2864,27.3125,毕节市,八中,,29,24,23,20,14,38,38,31,31,10,10,9,9,0.8,0.8
2025-12-31T1400,2588A,105.31,27.2944,毕节市,师专,,20,20,18,14,12,40,40,34,34,11,12,8,9,0.8,0.8
2025-12-31T1400,4263A,105.3688,27.3598,毕节市,工业大道,,22,17,16,15,13,48,48,38,38,8,10,9,9,0.8,0.8
2025-12-31T1400,1629A,118.0018,37.3617,滨州市,第二水厂,,18,7,30,6,14,56,56,44,44,7,24,9,10,0.3,0.5
2025-12-31T1400,1630A,117.9776,37.393,滨州市,北中新校,,,12,31,3,14,55,55,42,42,10,30,7,7,,0.3
2025-12-31T1400,3514A,117.9378,37.3956,滨州市,中海酒店,,19,9,29,7,18,60,60,51,51,8,23,6,8,0.5,0.5
2025-12-31T1400,3515A,117.9378,37.3553,滨州市,开发区一中,,19,14,33,3,14,60,60,48,48,5,17,9,10,0.3,0.4
2025-12-31T1400,3516A,118.0917,37.694,滨州市,金海六路,,20,10,24,3,7,61,61,56,56,6,21,8,11,0.5,0.4
2025-12-31T1400,4028A,117.9956,37.3753,滨州市,滨州市西街道办事处,,20,7,26,7,19,62,62,49,49,7,21,7,9,0.2,0.4
2025-12-31T1400,2311A,115.8072,33.8399,亳州市,污水处理厂,颗粒物(PM10),54,57,107,33,83,53,53,38,38,22,29,5,7,0.3,0.6
2025-12-31T1400,2312A,115.7789,33.8518,亳州市,三国揽胜宫,颗粒物(PM10),58,65,128,28,80,50,50,36,35,17,28,3,4,0.5,0.8
2025-12-31T1400,3332A,115.7633,33.8034,亳州市,亳州学院,颗粒物(PM10),55,60,107,38,85,52,52,40,37,17,26,4,6,0.5,0.7
2025-12-31T1400,2693A,82.0485,44.8556,博尔塔拉蒙古自治州,市党校,,,53,92,45,51,60,60,43,43,,20,3,3,,0.8
2025-12-31T1400,2694A,82.0806,44.8969,博尔塔拉蒙古自治州,市环保局,颗粒物(PM10),51,52,88,33,47,43,43,44,34,22,21,9,7,0.9,1
2025-12-31T1400,1071A,116.8842,38.2991,沧州市,沧县城建局,,19,18,42,3,21,60,60,46,46,13,33,1,3,0.2,0.5
2025-12-31T1400,1072A,116.8584,38.3254,沧州市,电视转播站,,22,22,48,7,20,56,56,37,37,15,43,5,3,0.3,0.6
2025-12-31T1400,1073A,116.8709,38.3228,沧州市,市环保局,,25,25,44,15,27,47,47,35,35,10,31,3,4,0.2,0.4
2025-12-31T1400,3324A,116.8136,38.3004,沧州市,河北水利电力学院,,17,12,27,3,15,53,53,42,42,14,31,2,4,0.2,0.4
2025-12-31T1400,2622A,97.1806,31.1273,昌都市,昌都监测站,,34,34,63,3,25,87,87,61,61,8,29,2,3,0.3,0.9
2025-12-31T1400,3719A,97.1714,31.1406,昌都市,昌都会议中心,,25,16,21,3,13,78,78,59,59,8,12,4,5,0.4,0.5
2025-12-31T1400,2690A,88.1236,43.8886,昌吉回族自治州,天山天池,,,,,,,,,,,,,,,,
2025-12-31T1400,2692A,87.2717,44.0297,昌吉回族自治州,新区政务中心,细颗粒物(PM2.5),88,99,70,65,43,35,35,45,37,24,22,6,6,1.0,0.8
2025-12-31T1400,3613A,87.3095,44.0142,昌吉回族自治州,亚心广场,细颗粒物(PM2.5),94,112,73,70,51,30,30,46,41,15,10,6,7,1.2,0.9
2025-12-31T1400,1120A,125.2863,43.9027,长春市,客车厂,,20,20,44,12,37,41,41,30,30,10,26,7,8,0.3,0.6
2025-12-31T1400,1121A,125.2841,43.8463,长春市,邮电学院,,22,22,44,14,32,40,40,28,28,5,23,8,10,0.3,0.5
2025-12-31T1400,1122A,125.3716,43.8772,长春市,劳动公园,,22,22,37,10,25,39,39,27,27,7,24,7,8,0.5,0.6
2025-12-31T1400,1123A,125.3297,43.8805,长春市,园林处,,,40,42,17,30,38,38,25,25,,23,9,12,,0.6
2025-12-31T1400,1124A,125.4605,43.79,长春市,净月潭,,20,18,39,14,21,40,40,24,24,6,22,7,6,0.3,0.4
2025-12-31T1400,1125A,125.7194,43.515,长春市,甩湾子,,22,16,44,15,31,45,45,29,29,5,14,5,5,0.3,0.6
2025-12-31T1400,1126A,125.3863,43.8447,长春市,经开区环卫处,,30,30,46,10,23,40,40,28,28,10,30,10,11,0.3,0.5
2025-12-31T1400,1127A,125.245,43.7783,长春市,高新区管委会,,24,24,47,12,35,45,45,30,30,4,26,7,7,0.3,0.6
2025-12-31T1400,1128A,125.1761,43.8325,长春市,岱山公园,,20,20,42,11,30,41,41,27,27,4,27,8,8,0.3,0.5
2025-12-31T1400,4281A,125.3346,43.9164,长春市,北亚泰大街1068号,,19,19,43,10,34,39,39,26,26,8,29,7,9,0.5,0.7
2025-12-31T1400,1335A,113.0833,28.2325,长沙市,经开区环保局,细颗粒物(PM2.5),189,152,174,142,150,45,45,25,25,24,37,4,6,0.9,0.8
2025-12-31T1400,1336A,112.8872,28.2189,长沙市,高开区环保局,细颗粒物(PM2.5),166,133,167,126,152,42,42,28,28,11,20,4,7,1.1,1.1
2025-12-31T1400,1337A,113.0792,28.2053,长沙市,马坡岭,细颗粒物(PM2.5),186,170,175,140,142,51,51,28,28,28,42,4,6,0.8,0.8
2025-12-31T1400,1338A,112.9394,28.19,长沙市,湖南师范大学,细颗粒物(PM2.5),165,166,183,125,135,52,52,35,35,17,30,2,4,1.0,1
2025-12-31T1400,1339A,113.0178,28.1322,长沙市,雨花区环保局,细颗粒物(PM2.5),192,163,164,144,148,45,45,27,27,23,35,7,9,1.1,1
2025-12-31T1400,1340A,112.9792,28.2597,长沙市,伍家岭,细颗粒物(PM2.5),163,161,184,124,136,47,47,33,33,27,38,5,7,0.6,0.6
2025-12-31T1400,1341A,113.0014,28.1944,长沙市,火车新站,细颗粒物(PM2.5),175,182,184,132,138,47,47,32,32,18,27,8,10,1.0,0.9
2025-12-31T1400,1342A,112.9844,28.1178,长沙市,天心区环保局,细颗粒物(PM2.5),190,174,175,143,143,51,51,34,34,22,33,7,9,0.8,0.8
2025-12-31T1400,1343A,112.8908,28.1308,长沙市,湖南中医药大学,细颗粒物(PM2.5),178,165,180,134,148,51,51,38,38,19,29,6,7,1.1,1.1
2025-12-31T1400,1344A,112.9581,28.3611,长沙市,沙坪,,,,,,,,,,,,,,,,
2025-12-31T1400,1727A,113.1147,36.1547,长治市,清华站,,21,18,57,7,50,65,65,62,62,11,22,9,11,0.4,0.7
2025-12-31T1400,1730A,113.0886,36.2125,长治市,审计局,,20,16,54,9,46,61,61,58,58,12,18,8,11,0.6,0.9
2025-12-31T1400,1731A,113.0844,36.1856,长治市,长治八中,,27,27,72,12,57,62,62,58,58,9,16,8,11,0.5,0.8
2025-12-31T1400,2845A,113.1569,36.1911,长治市,德盛苑,,23,23,54,12,51,64,64,63,63,6,12,6,9,0.6,0.9
2025-12-31T1400,3568A,113.06,36.0464,长治市,向阳小学,,,,97,10,65,62,62,58,58,14,28,9,11,0.6,1.2
2025-12-31T1400,3569A,112.8792,36.3144,长治市,屯留一中,,36,36,71,10,49,58,58,53,53,20,32,10,10,0.5,0.8
2025-12-31T1400,4189A,113.1131,36.19948,长治市,英华南巷50号,,32,24,59,22,48,62,62,59,59,10,16,5,8,0.6,1
2025-12-31T1400,4190A,113.2367,36.3344,长治市,学府街1号,,20,17,52,8,45,63,63,56,56,12,21,10,14,0.6,1.1
2025-12-31T1400,1854A,111.6975,28.9703,常德市,市二中,细颗粒物(PM2.5),85,93,158,63,127,55,55,69,66,13,18,4,9,0.8,0.8
2025-12-31T1400,1857A,111.7158,29.1456,常德市,白鹤山,,,,,,,,,,,,,,,,
2025-12-31T1400,3138A,111.7153,29.0289,常德市,武陵区永安,细颗粒物(PM2.5),84,98,161,62,121,52,52,67,64,17,20,3,8,0.9,0.9
2025-12-31T1400,3139A,111.6892,28.9881,常德市,鼎城区玉霞,细颗粒物(PM2.5),89,77,150,66,124,54,54,68,66,18,21,7,11,0.7,0.8
2025-12-31T1400,3140A,111.6625,29.0531,常德市,武陵区长庚,细颗粒物(PM2.5),89,86,159,66,123,50,50,64,60,16,20,4,8,0.8,0.8
2025-12-31T1400,1196A,119.9633,31.762,常州市,市监测站,,36,36,29,23,20,77,77,58,58,20,30,6,6,0.4,0.5
2025-12-31T1400,1200A,119.9468,31.7069,常州市,武进监测站,,30,30,29,18,20,73,73,57,57,20,28,10,9,0.2,0.3
2025-12-31T1400,1201A,119.9255,31.9087,常州市,安家,,36,36,40,23,22,71,71,56,56,13,30,10,11,0.4,1
2025-12-31T1400,3002A,119.9805,31.8174,常州市,行政中心,,47,47,42,18,18,78,78,61,61,18,28,6,6,0.4,0.5
2025-12-31T1400,3003A,120.0522,31.7748,常州市,经开区,,42,42,30,21,17,78,78,51,51,12,35,6,3,0.5,0.4
2025-12-31T1400,3010A,119.9025,31.7964,常州市,钟楼,,33,33,34,14,17,73,73,60,60,19,26,7,7,0.2,0.2
2025-12-31T1400,3429A,119.8598,31.7066,常州市,武进经发区,,37,37,30,19,17,72,72,,,18,25,8,8,0.5,0.5
2025-12-31T1400,3430A,119.5826,31.7245,常州市,金坛城区,,30,30,38,16,24,70,70,54,54,15,28,8,7,0.5,0.7
2025-12-31T1400,2220A,120.4318,41.5881,朝阳市,西梁,,17,17,25,3,7,54,54,45,45,7,11,4,5,0.3,0.4
2025-12-31T1400,2221A,120.4521,41.5646,朝阳市,河畔小区,,17,16,21,3,6,53,53,48,45,6,11,5,7,0.4,0.4
2025-12-31T1400,2222A,120.4176,41.5648,朝阳市,八里堡,,17,9,23,6,7,54,54,47,45,5,10,5,7,0.4,0.4
2025-12-31T1400,2223A,120.3806,41.5969,朝阳市,农业园区,,19,13,17,3,8,59,59,52,52,3,9,4,6,0.3,0.3
2025-12-31T1400,1705A,116.6367,23.6719,潮州市,西园路,,,,,,,,,,,,,,,,
2025-12-31T1400,3026A,116.6183,23.6608,潮州市,市政府,,,56,56,23,30,111,111,59,59,,21,7,13,0.3,0.5
2025-12-31T1400,4036A,116.6461,23.6761,潮州市,金山,,46,46,41,23,29,109,109,59,59,8,16,4,5,0.3,0.4
2025-12-31T1400,2472A,113.0073,25.9061,郴州市,马头岭,,,,,,,,,,,,,,,,
2025-12-31T1400,2473A,113.0116,25.8226,郴州市,市职中,细颗粒物(PM2.5),117,96,95,88,85,95,95,48,48,16,27,21,7,0.9,0.9
2025-12-31T1400,2475A,113.0383,25.8071,郴州市,市审计局,细颗粒物(PM2.5),132,113,102,100,85,99,99,49,49,18,25,26,6,0.7,0.8
2025-12-31T1400,2476A,113.0348,25.7759,郴州市,市环保局,细颗粒物(PM2.5),130,126,108,99,83,94,94,50,50,25,34,41,9,1.0,0.9
2025-12-31T1400,4252A,113.0138,25.8011,郴州市,好美居路49号,细颗粒物(PM2.5),138,118,97,105,93,103,103,55,55,25,36,22,9,0.6,0.6
2025-12-31T1400,1431A,103.9728,30.7236,成都市,金泉两河,细颗粒物(PM2.5),117,90,88,88,86,55,55,18,18,26,31,3,2,0.7,0.8
2025-12-31T1400,1432A,104.176,30.6872,成都市,十里店,细颗粒物(PM2.5),82,73,116,60,93,49,49,27,27,24,32,4,3,0.5,0.6
2025-12-31T1400,1433A,104.079,30.5706,成都市,三瓦窑,细颗粒物(PM2.5),132,114,116,100,102,54,54,16,16,24,34,3,3,0.8,1
2025-12-31T1400,1434A,104.1114,30.63,成都市,沙河铺,细颗粒物(PM2.5),97,82,127,72,112,46,46,16,16,27,35,4,4,0.8,0.9
2025-12-31T1400,1437A,104.0786,30.6531,成都市,君平街,细颗粒物(PM2.5),139,119,130,106,106,53,53,25,25,25,33,4,3,0.8,0.9
2025-12-31T1400,1438A,103.613,31.0283,成都市,灵岩寺,,,,,,,,,,,,,,,,
2025-12-31T1400,2880A,104.0239,30.65639,成都市,大石西路,细颗粒物(PM2.5),104,94,108,78,90,55,55,21,21,26,33,4,4,0.6,0.8
2025-12-31T1400,3136A,104.2725,30.5589,成都市,龙泉驿区区政府,细颗粒物(PM2.5),67,58,106,48,86,29,29,9,9,14,30,6,6,0.6,0.7
2025-12-31T1400,3357A,104.0106,30.6931,成都市,金博路,,,89,92,,73,46,46,16,16,30,34,5,5,0.9,0.9
2025-12-31T1400,3359A,104.0578,30.5225,成都市,华阳,,,,96,,73,20,20,26,11,40,31,,3,,0.7
2025-12-31T1400,3488A,104.3880,30.7467,成都市,青石路225号,细颗粒物(PM2.5),103,86,129,77,117,40,40,10,10,22,33,5,5,0.7,0.8
2025-12-31T1400,3489A,104.0789,30.4072,成都市,科学城,细颗粒物(PM2.5),120,109,97,91,80,32,32,27,24,31,23,6,6,0.8,0.8
2025-12-31T1400,4011A,103.8506,30.6947,成都市,光华大道三段,细颗粒物(PM2.5),98,95,97,73,81,44,44,29,29,30,25,3,3,0.8,0.8
2025-12-31T1400,4224A,104.2433,30.5353,成都市,鲸龙路1057号,细颗粒物(PM2.5),63,52,105,45,90,47,47,20,20,21,30,5,5,0.8,0.9
2025-12-31T1400,1062A,117.9531,40.9081,承德市,铁路,,17,14,24,3,6,54,54,52,46,4,6,2,3,0.2,0.2
2025-12-31T1400,1063A,117.9392,40.9763,承德市,中国银行,,19,16,21,3,6,60,60,43,38,1,5,1,1,0.2,0.3
2025-12-31T1400,1064A,117.9503,40.928,承德市,开发区,,20,20,28,7,14,62,62,57,53,4,6,2,3,0.2,0.2
2025-12-31T1400,1066A,117.9268,41.0026,承德市,离宫,,,,,,,,,,,,,,,,
2025-12-31T1400,4274A,117.7994,40.9605,承德市,滨河大街98号,,19,,16,3,7,59,59,50,50,2,5,2,2,0.2,0.2
2025-12-31T1400,2314A,117.47,30.6618,池州市,池州学院,,,19,88,10,75,69,69,60,60,11,25,3,5,,0.6
2025-12-31T1400,3237A,117.4918,30.6617,池州市,展览馆,,22,16,93,7,70,70,70,62,62,19,25,2,3,0.5,0.7
2025-12-31T1400,3333A,117.5627,30.695,池州市,第八中学,,22,18,87,10,65,70,70,62,62,18,25,3,4,0.3,0.7
2025-12-31T1400,3334A,117.5038,30.6243,池州市,第十二中学,,22,20,87,9,69,68,68,62,62,19,26,4,4,0.3,0.9
2025-12-31T1400,1744A,118.9233,42.2816,赤峰市,松山一中,,19,19,18,3,6,58,58,43,42,8,11,3,5,0.5,0.5
2025-12-31T1400,1745A,118.9576,42.2728,赤峰市,哈达街,,20,8,17,3,9,64,64,52,49,10,11,3,5,0.4,0.5
2025-12-31T1400,1746A,118.8788,42.2554,赤峰市,天义路,,19,6,13,3,9,60,60,48,48,6,8,5,7,0.5,0.5
2025-12-31T1400,3058A,119.2658,42.0353,赤峰市,银河街,颗粒物(PM10),70,89,27,20,14,65,65,54,47,3,6,8,10,0.5,0.6
2025-12-31T1400,3286A,118.9359,42.3147,赤峰市,桥北物流园区,,20,,14,6,9,62,62,46,45,5,9,4,5,0.2,0.2
2025-12-31T1400,2521A,107.3476,22.4136,崇左市,市环保局江州分局,颗粒物(PM10),59,68,87,30,56,88,88,47,47,9,27,8,10,0.5,0.9
2025-12-31T1400,4256A,107.3750,22.3736,崇左市,石景林东路7号,,41,41,63,26,50,92,92,52,52,8,26,7,8,0.4,0.7
2025-12-31T1400,2298A,118.3093,32.3153,滁州市,老年大学,颗粒物(PM10),56,62,44,33,26,61,61,61,61,15,17,4,5,0.4,0.4
2025-12-31T1400,2299A,118.3244,32.2786,滁州市,人大宾馆,颗粒物(PM10),52,53,43,32,23,61,61,61,61,13,17,6,6,0.3,0.4
2025-12-31T1400,3207A,118.3118,32.3038,滁州市,市政府原办公楼,颗粒物(PM10),61,72,47,29,25,65,65,64,64,14,17,4,5,0.2,0.2
2025-12-31T1400,3331A,118.3267,32.2634,滁州市,图书馆,,36,36,37,25,18,62,62,63,63,13,15,7,8,0.3,0.3
2025-12-31T1400,2605A,101.5482,25.0441,楚雄彝族自治州,州环境监测站,,,14,21,6,12,69,69,54,54,9,17,7,9,,0.6
2025-12-31T1400,2606A,101.538,25.0492,楚雄彝族自治州,市经济开发区,,25,11,22,7,14,77,77,52,52,4,15,4,6,0.2,0.4
2025-12-31T1400,2548A,107.5277,31.2827,达州市,达州职业技术学院,,,,,,,,,,,,,,,,
2025-12-31T1400,2549A,107.5086,31.2186,达州市,市环境监测站,,36,36,110,22,93,25,25,6,6,25,35,7,11,0.5,0.8
2025-12-31T1400,2550A,107.4988,31.2132,达州市,凤凰小区,,35,31,115,24,92,25,25,8,8,21,33,6,10,0.5,0.9
2025-12-31T1400,2551A,107.5082,31.1986,达州市,达县机关宾馆,,49,34,117,34,96,18,18,7,7,31,34,4,8,0.7,1.1
2025-12-31T1400,2552A,107.4644,31.2124,达州市,市政中心,,,51,132,24,97,20,20,7,7,,36,,10,0.7,1.2
2025-12-31T1400,2614A,100.1542,25.7054,大理白族自治州,大理市环境监测站,,22,17,16,13,19,68,68,67,64,10,8,6,6,0.7,0.6
2025-12-31T1400,2615A,100.2171,25.5811,大理白族自治州,大理古城,,26,7,16,3,11,82,82,66,63,3,7,8,8,0.4,0.4
2025-12-31T1400,1109A,121.612,38.9741,大连市,甘井子,,21,21,27,3,10,55,55,49,49,7,13,7,9,0.6,0.2
2025-12-31T1400,1110A,121.565,38.9511,大连市,周水子,,22,22,26,8,11,53,53,45,45,9,18,2,5,0.3,0.4
2025-12-31T1400,1111A,121.5637,38.8845,大连市,星海三站,,17,17,23,8,9,54,54,47,47,10,14,6,7,0.4,0.4
2025-12-31T1400,1112A,121.6302,38.9117,大连市,青泥洼桥,,15,13,20,3,9,46,46,41,41,10,16,7,10,0.2,0.3
2025-12-31T1400,1113A,121.6251,38.8638,大连市,傅家庄,,16,16,21,3,7,45,45,41,41,8,13,8,10,0.2,0.3
2025-12-31T1400,1114A,121.5213,38.8661,大连市,七贤岭,,,19,25,3,9,49,49,43,43,,20,6,8,0.4,0.5
2025-12-31T1400,1115A,121.2529,38.8061,大连市,旅顺,,18,13,16,3,8,55,55,50,50,4,7,7,8,0.2,0.3
2025-12-31T1400,1116A,121.7485,39.1311,大连市,金州,,18,14,23,6,12,55,55,47,47,7,14,6,9,0.2,0.3
2025-12-31T1400,1117A,121.7811,39.0496,大连市,开发区,,16,13,20,6,8,49,49,45,45,5,8,6,6,0.3,0.3
2025-12-31T1400,1118A,121.9762,39.0631,大连市,双D港,,18,12,25,3,10,57,57,49,49,6,11,8,11,0.3,0.4
2025-12-31T1400,1789A,124.81117,46.03138,大庆市,大同区,,,,29,,17,42,42,36,36,3,11,6,5,,0.3
2025-12-31T1400,1790A,125.129,46.533,大庆市,龙凤区,,43,,23,30,21,38,38,31,31,13,22,6,7,0.6,0.7
2025-12-31T1400,1791A,124.902,46.408,大庆市,红岗区,,29,,30,20,18,39,39,31,31,6,15,6,6,0.5,0.6
2025-12-31T1400,1792A,125.153,46.586,大庆市,萨尔图区,,,12,23,,12,34,34,39,33,11,20,8,9,0.5,0.8
2025-12-31T1400,1793A,124.9042,46.6215,大庆市,让胡路区,,22,21,25,15,23,44,44,37,37,2,9,7,7,0.3,0.4
2025-12-31T1400,3481A,125.141,46.634,大庆市,萨区政府监测点,,15,15,23,7,12,42,42,32,32,4,18,8,8,0.5,0.6
2025-12-31T1400,1721A,113.3819,40.1097,大同市,果树场,,33,33,31,3,20,68,68,41,41,14,22,10,7,0.6,0.5
2025-12-31T1400,1723A,113.2994,40.0758,大同市,云冈宾馆,,36,36,29,12,11,50,50,42,37,22,17,11,7,0.9,0.6
2025-12-31T1400,1724A,113.3444,40.0917,大同市,大同大学,,20,19,18,14,11,60,60,52,49,18,14,8,9,0.8,0.4
2025-12-31T1400,1725A,113.2661,40.1269,大同市,安家小村,,32,32,20,11,10,55,55,42,36,14,16,11,10,0.4,0.6
2025-12-31T1400,1726A,113.2711,40.0844,大同市,教育学院,,28,28,30,16,15,46,46,35,26,23,22,11,7,0.8,0.6
2025-12-31T1400,3282A,113.3397,40.0597,大同市,大同市卫生学校,,26,,14,18,8,55,55,54,45,21,14,5,5,0.7,0.6
2025-12-31T1400,3565A,113.1367,40.1122,大同市,云冈站,,26,25,24,18,12,57,57,34,34,12,18,17,11,0.9,0.7
2025-12-31T1400,3566A,113.1186,40.2556,大同市,图书馆,,30,30,27,16,18,56,56,37,37,15,13,14,7,1.4,1
2025-12-31T1400,3567A,113.5931,40.0461,大同市,区一中,,22,18,24,3,14,68,68,56,52,14,11,7,9,0.4,0.5
2025-12-31T1400,4199A,113.2798,40.0997,大同市,魏都大道141号,,,74,30,17,13,48,48,40,28,,19,7,6,0.7,0.8
2025-12-31T1400,2269A,124.1069,50.4097,大兴安岭地区,科技局,,26,22,19,18,16,43,43,38,38,1,2,7,5,0.3,0.3
2025-12-31T1400,3663A,124.1164,50.4278,大兴安岭地区,红旗社区,,,7,6,6,6,44,44,42,42,,2,7,3,0.2,0.3
2025-12-31T1400,1600A,124.3303,40.0625,丹东市,江湾东路,,18,18,19,10,11,49,49,44,44,5,10,6,7,0.3,0.4
2025-12-31T1400,1601A,124.4256,40.1503,丹东市,临江后街,,17,17,22,7,10,47,47,40,40,6,13,6,8,0.6,0.6
2025-12-31T1400,1602A,124.3933,40.1461,丹东市,元宝山,,16,15,19,8,12,50,50,45,45,4,10,8,9,0.4,0.4
2025-12-31T1400,1603A,124.3633,40.1092,丹东市,民主桥,,24,24,26,3,7,49,49,43,43,6,12,6,7,0.3,0.3
2025-12-31T1400,3541A,109.5726,19.5167,儋州市,第一中学子站,,30,25,38,15,22,96,96,90,90,9,9,4,4,0.5,0.5
2025-12-31T1400,3542A,109.5567,19.5187,儋州市,东坡学校子站,,33,25,34,17,24,105,105,97,97,4,7,5,6,0.4,0.5
2025-12-31T1400,2616A,98.5842,24.428,德宏傣族景颇族自治州,德宏州监测站,细颗粒物(PM2.5),54,48,48,38,35,81,81,28,28,14,21,8,6,0.6,0.7
2025-12-31T1400,3677A,98.5881,24.4368,德宏傣族景颇族自治州,芒市人民政府综合楼,细颗粒物(PM2.5),57,52,42,40,28,77,77,27,27,34,26,9,8,0.6,0.7
2025-12-31T1400,1901A,104.4239,31.1208,德阳市,东山公园,细颗粒物(PM2.5),88,83,108,65,98,36,36,9,9,23,28,3,3,0.8,0.9
2025-12-31T1400,1902A,104.3826,31.1317,德阳市,西小区,细颗粒物(PM2.5),85,117,130,63,106,42,42,11,11,22,31,3,3,0.9,1.1
2025-12-31T1400,1904A,104.3553,31.1091,德阳市,耐火材料厂,细颗粒物(PM2.5),88,73,113,65,110,37,37,8,8,25,33,3,2,0.9,1.1
2025-12-31T1400,3639A,104.4019,31.1244,德阳市,市教育局,细颗粒物(PM2.5),82,85,104,60,103,38,38,10,10,25,34,4,3,0.9,1.1
2025-12-31T1400,1622A,116.3032,37.4674,德州市,儿童乐园,,22,22,42,3,16,61,61,41,41,15,32,10,13,0.7,1
2025-12-31T1400,1624A,116.2991,37.4451,德州市,监理站,,23,9,31,3,11,71,71,51,51,15,34,10,14,0.5,0.7
2025-12-31T1400,3066A,116.2721,37.4379,德州市,九衢泉纯净水厂,,20,14,36,3,13,61,61,42,42,11,31,10,13,0.2,0.6
2025-12-31T1400,3371A,116.3728,37.4403,德州市,开发区人民医院,,21,14,40,3,18,67,67,43,43,16,40,9,13,0.4,0.7
2025-12-31T1400,3511A,116.5652,37.3319,德州市,陵城艺术中心,,19,12,48,3,22,60,60,34,34,21,41,10,14,0.3,0.7
2025-12-31T1400,4292A,116.3525,37.4209,德州市,新河东路,,21,17,40,3,18,66,66,43,43,17,38,10,12,0.7,1.1
2025-12-31T1400,2621A,99.7056,27.8317,迪庆藏族自治州,迪庆州站,,26,24,21,9,15,83,83,51,51,6,10,5,5,0.2,0.4
2025-12-31T1400,3180A,99.7136,27.8094,迪庆藏族自治州,质量技术监督局,,30,26,26,3,17,95,95,55,55,6,12,4,4,0.3,0.5
2025-12-31T1400,4257A,104.6092,35.5962,定西市,将台街,细颗粒物(PM2.5),68,74,61,49,41,53,53,49,49,15,17,8,10,0.5,0.5
2025-12-31T1400,4309A,104.6159,35.5701,定西市,正龙路62号,细颗粒物(PM2.5),67,78,70,48,42,46,46,44,44,13,12,6,8,0.7,0.7
2025-12-31T1400,1389A,113.7547,23.0494,东莞市,莞城梨川,颗粒物(PM10),62,73,60,39,34,119,119,63,63,35,45,5,6,0.7,0.8
2025-12-31T1400,1390A,113.7944,23.0128,东莞市,东城石井,颗粒物(PM10),52,53,52,33,34,123,123,58,58,28,47,10,9,0.7,0.8
2025-12-31T1400,1391A,113.7383,22.9658,东莞市,南城西平,颗粒物(PM10),56,62,64,39,39,115,115,46,46,39,62,9,10,0.7,0.8
2025-12-31T1400,3319A,113.7338,23.0381,东莞市,万江金泰,细颗粒物(PM2.5),77,89,62,56,38,119,119,60,60,43,45,7,7,0.8,0.9
2025-12-31T1400,3626A,113.7533,23.0202,东莞市,南城元岭,"颗粒物(PM10),细颗粒物(PM2.5)",58,65,58,41,38,129,129,63,63,36,47,8,8,0.7,0.8
2025-12-31T1400,3627A,113.7875,23.0457,东莞市,东城主山,颗粒物(PM10),57,63,62,36,37,121,121,62,62,30,53,7,8,0.4,0.5
2025-12-31T1400,1666A,118.6614,37.4309,东营市,市环保局,,19,14,26,3,12,60,60,48,47,14,22,8,8,0.6,0.6
2025-12-31T1400,3036A,118.6904,37.4338,东营市,开发区管委会,,20,19,29,3,14,64,64,52,50,7,16,11,10,0.6,0.7
2025-12-31T1400,3365A,118.5719,37.565,东营市,垦利区民丰路,,20,7,24,3,11,63,63,51,51,8,19,2,3,0.7,0.7
2025-12-31T1400,3498A,118.5055,37.8612,东营市,河口城区,,20,14,22,3,7,63,63,58,58,15,20,4,5,0.4,0.4
2025-12-31T1400,3646A,118.4978,37.4623,东营市,胜利站,,19,12,32,3,10,60,60,46,46,13,24,10,13,0.4,0.6
2025-12-31T1400,3734A,118.35,37.26,东营市,理想之城,,16,7,29,3,16,49,49,33,28,14,26,4,4,0.6,0.6
2025-12-31T1400,1591A,110.0023,39.8129,鄂尔多斯市,综合楼,,39,39,39,7,10,55,55,49,49,22,35,7,6,0.7,0.5
2025-12-31T1400,1592A,109.9486,39.8261,鄂尔多斯市,巴音孟克林场办事处,,36,36,40,3,12,64,64,59,58,15,25,8,8,0.6,0.3
2025-12-31T1400,1593A,109.7736,39.5986,鄂尔多斯市,康泽苑,,24,19,32,9,16,76,76,63,63,8,25,5,7,0.3,0.4
2025-12-31T1400,1594A,109.8119,39.5989,鄂尔多斯市,华泰汽车城,,24,19,36,3,14,75,75,62,62,7,30,3,5,0.2,0.4
2025-12-31T1400,1595A,109.9734,39.7884,鄂尔多斯市,奥林花园,颗粒物(PM10),53,56,52,7,7,54,54,49,48,26,32,5,4,0.6,0.4
2025-12-31T1400,2436A,114.8938,30.3994,鄂州市,市政府,,,80,117,,107,78,78,72,70,20,36,6,6,0.8,0.9
2025-12-31T1400,2437A,114.8989,30.3714,鄂州市,赵家坝,细颗粒物(PM2.5),85,94,127,63,105,77,77,74,70,13,25,9,9,0.9,1.1
2025-12-31T1400,3654A,114.8094,30.4089,鄂州市,精准医疗中心,细颗粒物(PM2.5),119,91,127,90,116,83,83,75,75,20,34,4,6,0.9,0.9
2025-12-31T1400,2454A,109.4978,30.2981,恩施土家族苗族自治州,湖北民院,,,33,78,16,76,95,95,87,87,,21,,6,0.8,1.2
2025-12-31T1400,2455A,109.4707,30.2798,恩施土家族苗族自治州,州电力总公司,,27,18,83,16,75,86,86,83,83,13,29,5,6,0.7,0.9
2025-12-31T1400,3549A,109.5061,30.3772,恩施土家族苗族自治州,龙凤新区,,43,35,89,30,78,76,76,72,72,6,12,6,6,0.5,0.9
2025-12-31T1400,2499A,108.3411,21.6158,防城港市,沙万,细颗粒物(PM2.5),72,82,69,52,37,128,128,54,54,27,32,15,11,1.7,0.7
2025-12-31T1400,2500A,108.3514,21.7731,防城港市,防城档案局,颗粒物(PM10),59,68,68,38,41,133,133,49,49,13,31,8,7,0.6,0.9
2025-12-31T1400,2501A,108.3506,21.6414,防城港市,大海花园,细颗粒物(PM2.5),64,74,61,46,44,145,145,56,56,15,26,13,13,0.7,0.9
2025-12-31T1400,1371A,113.1294,23.0067,佛山市,湾梁,颗粒物(PM10),57,63,66,38,34,106,106,44,44,37,56,9,8,0.6,0.8
2025-12-31T1400,1372A,113.1083,23.0478,佛山市,华材职中,颗粒物(PM10),58,66,74,34,43,112,112,44,44,33,62,8,8,0.5,0.8
2025-12-31T1400,1373A,113.144,23.0453,佛山市,南海气象局,颗粒物(PM10),52,54,62,35,37,101,101,39,39,35,62,10,9,0.7,0.8
2025-12-31T1400,1374A,113.2881,22.8094,佛山市,顺德苏岗,,46,46,61,29,41,104,104,35,35,31,60,8,8,0.6,0.9
2025-12-31T1400,1376A,112.8383,22.8678,佛山市,高明孔堂,细颗粒物(PM2.5),87,68,66,64,46,116,116,38,38,52,46,8,9,0.7,0.7
2025-12-31T1400,1377A,112.8836,23.1588,佛山市,三水监测站,细颗粒物(PM2.5),94,102,88,70,53,89,89,35,35,59,57,6,12,0.9,0.9
2025-12-31T1400,1378A,112.867,23.185,佛山市,三水云东海,细颗粒物(PM2.5),103,108,75,77,49,87,87,34,34,71,50,8,8,0.7,0.6
2025-12-31T1400,3625A,113.2544,22.7642,佛山市,容桂街道办,细颗粒物(PM2.5),62,63,83,44,52,104,104,44,44,25,69,6,8,0.6,0.9
2025-12-31T1400,1280A,119.3903,26.0543,福州市,鼓山,,,,38,,20,,,107,,,8,,3,,0.7
2025-12-31T1400,1282A,119.2681,26.0504,福州市,师大,,,26,43,19,32,103,103,86,86,20,28,10,8,,0.5
2025-12-31T1400,1283A,119.2984,26.1028,福州市,五四北路,,34,34,44,19,29,99,99,88,88,17,21,7,6,0.7,0.7
2025-12-31T1400,1284A,119.2648,26.0768,福州市,杨桥西路,,45,45,43,20,28,103,103,94,94,13,16,7,6,0.7,0.6
2025-12-31T1400,1285A,119.317,26.0746,福州市,紫阳,,44,44,52,12,29,95,95,96,91,19,19,8,9,0.5,0.6
2025-12-31T1400,3048A,119.5799,26.0936,福州市,九龙,,38,38,46,13,29,89,89,92,87,19,19,8,6,0.4,0.5
2025-12-31T1400,3526A,119.5189,25.9664,福州市,吴航,,29,26,50,13,29,92,92,87,87,15,18,4,6,0.4,0.5
2025-12-31T1400,1755A,123.7977,41.8491,抚顺市,望花区,,16,12,35,9,17,50,50,36,36,6,24,2,4,0.7,0.8
2025-12-31T1400,1756A,123.9161,41.8822,抚顺市,顺城区,,25,25,46,8,23,49,49,38,38,8,27,7,8,0.4,0.8
2025-12-31T1400,1757A,124.0436,41.8611,抚顺市,东洲区,,18,18,48,8,24,43,43,31,31,6,29,6,28,0.7,1
2025-12-31T1400,1758A,123.9247,41.8642,抚顺市,新抚区,,15,14,39,9,18,47,47,38,38,7,21,8,8,0.5,0.6
2025-12-31T1400,1759A,124.0972,41.8961,抚顺市,大伙房水库,,16,15,41,8,26,49,49,34,34,3,28,10,11,0.5,0.7
2025-12-31T1400,1760A,123.7086,41.8391,抚顺市,沈抚新城,,16,12,33,8,20,49,49,36,36,5,24,8,10,0.1,0.4
2025-12-31T1400,2376A,116.2127,28.0814,抚州市,桐源党溪,,,,,,,,,,,,,,,,
2025-12-31T1400,2377A,116.3544,27.9831,抚州市,市站,颗粒物(PM10),63,75,98,44,73,109,109,78,78,17,20,10,9,0.8,1
2025-12-31T1400,2378A,116.3565,27.963,抚州市,血防站,颗粒物(PM10),62,73,94,42,74,113,113,81,81,18,20,9,8,1.2,1.4
2025-12-31T1400,2379A,116.3564,28.0007,抚州市,采茶剧团,颗粒物(PM10),62,74,100,36,79,112,112,80,80,14,15,7,7,1.2,1.4
2025-12-31T1400,2380A,116.385,27.9647,抚州市,医学分院,颗粒物(PM10),65,80,109,45,76,111,111,83,83,13,17,9,10,0.7,1
2025-12-31T1400,2207A,121.6094,41.998,阜新市,工业园区,,21,21,28,3,9,55,55,48,48,3,8,6,8,0.3,0.3
2025-12-31T1400,2208A,121.6697,42.0279,阜新市,长青街,,17,17,22,3,8,54,54,46,46,4,8,6,7,0.4,0.4
2025-12-31T1400,2209A,121.6673,42.0705,阜新市,农业园区,,19,19,24,3,5,50,50,47,47,5,6,5,6,0.2,0.3
2025-12-31T1400,2210A,121.6717,42.0224,阜新市,东苑,,17,15,32,8,8,52,52,44,44,4,7,3,4,0.3,0.4
2025-12-31T1400,2211A,121.6506,42.0498,阜新市,玉龙新城,,27,27,30,3,6,51,51,41,41,4,11,4,7,0.4,0.4
2025-12-31T1400,2301A,115.8277,32.8929,阜阳市,市监测站,细颗粒物(PM2.5),70,82,84,51,56,49,49,53,46,18,20,5,5,0.6,0.5
2025-12-31T1400,2303A,115.8554,32.8605,阜阳市,开发区,细颗粒物(PM2.5),68,74,73,49,59,49,49,48,46,17,19,5,5,0.5,0.4
2025-12-31T1400,2875A,115.784,32.8892,阜阳市,阜阳职业技术学院,,,70,75,50,51,54,54,57,53,14,16,5,6,,0.5
2025-12-31T1400,3468A,115.7901,32.8613,阜阳市,市规划展馆,细颗粒物(PM2.5),70,80,78,51,54,54,54,58,52,18,19,6,6,0.6,0.5
2025-12-31T1400,3469A,115.836,32.9183,阜阳市,枣园社区,细颗粒物(PM2.5),73,80,85,53,59,50,50,49,46,20,23,5,6,0.6,0.6
2025-12-31T1400,2669A,102.9099,34.9841,甘南藏族自治州,州政府,,35,35,60,20,40,87,87,49,49,7,27,10,13,0.3,0.8
2025-12-31T1400,3380A,102.8914,34.9617,甘南藏族自治州,甘肃民族师范学院,,48,48,69,7,36,88,88,47,47,10,33,4,8,0.6,1
2025-12-31T1400,2570A,101.9603,30.0475,甘孜藏族自治州,水桥子,,29,21,19,3,11,91,91,43,43,6,21,6,6,0.5,0.7
2025-12-31T1400,3065A,101.9533,29.9972,甘孜藏族自治州,州环保局,,29,23,20,7,8,92,92,66,66,4,17,7,6,0.4,0.5
2025-12-31T1400,3414A,115.8347,28.932,赣江新区,桑海产业园,颗粒物(PM10),86,122,162,48,112,87,87,73,62,16,26,9,10,0.7,1.1
2025-12-31T1400,2362A,114.9017,25.9149,赣州市,通天岩,"颗粒物(PM10),细颗粒物(PM2.5)",59,68,47,42,30,117,117,75,75,16,9,21,17,1.4,1.2
2025-12-31T1400,2363A,114.9367,25.8664,赣州市,地委,细颗粒物(PM2.5),65,66,62,47,39,123,123,64,64,17,28,10,8,0.9,0.8
2025-12-31T1400,2364A,114.9461,25.8481,赣州市,气象台,细颗粒物(PM2.5),57,55,67,40,38,126,126,68,68,17,40,4,4,0.7,0.8
2025-12-31T1400,2365A,114.9322,25.8333,赣州市,市图书馆,,,58,62,44,40,87,87,41,41,,35,4,5,0.9,1
2025-12-31T1400,2366A,114.8905,25.8471,赣州市,华坚鞋城,颗粒物(PM10),57,64,62,38,39,115,115,63,63,19,29,10,8,0.6,0.6
2025-12-31T1400,3109A,115.0093,25.8613,赣州市,赣县区卫计委,细颗粒物(PM2.5),78,65,59,57,48,111,111,48,48,20,34,8,7,0.6,0.5
2025-12-31T1400,2683A,106.2319,36.1417,固原市,马园,,,,,,,,,,,,,,,,
2025-12-31T1400,2684A,106.2792,36.0022,固原市,监测站,,,,70,36,39,39,39,40,37,17,22,3,5,0.6,0.7
2025-12-31T1400,2685A,106.2375,36.0211,固原市,新区,细颗粒物(PM2.5),53,46,70,37,39,41,41,42,38,19,25,2,5,0.7,0.6
2025-12-31T1400,3522A,106.2177,35.9959,固原市,原州区十五小,颗粒物(PM10),63,75,76,44,41,38,38,40,37,18,23,4,6,0.8,0.7
2025-12-31T1400,2543A,106.6308,30.5278,广安市,小平旧居,,,,,,,,,,,,,,,,
2025-12-31T1400,2544A,106.6303,30.4576,广安市,市委,细颗粒物(PM2.5),87,,89,64,87,12,12,13,9,22,22,6,6,1.1,1
2025-12-31T1400,2545A,106.6271,30.4663,广安市,友谊中学,细颗粒物(PM2.5),74,55,88,54,79,18,18,23,16,21,19,3,3,1.0,0.9
2025-12-31T1400,2547A,106.6388,30.4551,广安市,广电花园,细颗粒物(PM2.5),83,,72,61,87,12,12,11,9,19,21,8,8,0.8,0.8
2025-12-31T1400,2902A,106.6351,30.4865,广安市,北辰小学,,,62,84,61,79,12,12,16,12,18,16,11,14,,1
2025-12-31T1400,2523A,105.8945,32.4535,广元市,黑石坡,,,,,,,,,,,,,,,,
2025-12-31T1400,2524A,105.821,32.4444,广元市,老城,,27,,59,17,46,86,86,71,71,17,32,7,10,0.6,1
2025-12-31T1400,2526A,105.8628,32.4287,广元市,监测站,,25,20,53,15,39,80,80,62,62,16,29,5,6,0.8,1
2025-12-31T1400,3617A,105.8047,32.4166,广元市,经开区,,26,22,76,18,50,74,74,59,59,20,33,2,16,0.7,1.2
2025-12-31T1400,1345A,113.2347,23.1423,广州市,广雅中学,,45,45,66,25,38,102,102,48,48,10,57,5,5,0.8,0.9
2025-12-31T1400,1346A,113.2612,23.105,广州市,市五中,颗粒物(PM10),55,60,51,32,33,110,110,55,55,36,61,10,9,0.6,0.7
2025-12-31T1400,1348A,113.3478,23.0916,广州市,广东商学院,细颗粒物(PM2.5),64,64,53,46,37,87,87,41,41,38,54,11,8,0.7,0.7
2025-12-31T1400,1349A,113.4332,23.1047,广州市,市八十六中,细颗粒物(PM2.5),54,54,55,38,33,84,84,41,41,51,60,12,9,0.9,0.9
2025-12-31T1400,1350A,113.3505,22.9483,广州市,番禺中学,,,78,69,42,42,128,128,40,40,38,57,,7,0.9,1.1
2025-12-31T1400,1351A,113.2146,23.3916,广州市,花都师范,颗粒物(PM10),51,52,54,30,32,98,98,42,42,27,51,8,10,0.5,0.6
2025-12-31T1400,1352A,113.2597,23.1331,广州市,市监测站,,47,47,51,27,31,102,102,50,50,24,56,4,4,0.6,0.7
2025-12-31T1400,1353A,113.5618,23.312,广州市,九龙镇镇龙,"颗粒物(PM10),细颗粒物(PM2.5)",54,57,57,38,36,102,102,46,46,18,36,7,6,0.6,0.7
2025-12-31T1400,1354A,113.2765,23.1544,广州市,麓湖,颗粒物(PM10),51,52,43,32,30,96,96,45,45,26,52,8,8,0.3,0.4
2025-12-31T1400,1355A,113.443,23.3035,广州市,帽峰山森林公园,,,,,,,,,,,,,,,,
2025-12-31T1400,2846A,113.3221,23.1322,广州市,体育西,颗粒物(PM10),55,60,57,32,36,95,95,48,48,35,58,8,7,0.6,0.7
2025-12-31T1400,3298A,113.5717,23.5491,广州市,从化街口,,38,36,46,26,32,95,95,38,38,12,36,10,9,0.6,0.7
2025-12-31T1400,3299A,113.3472,23.3692,广州市,白云竹料,,41,41,54,23,33,99,99,47,47,22,40,6,7,0.5,0.7
2025-12-31T1400,3300A,113.2981,23.237,广州市,白云嘉禾,颗粒物(PM10),52,54,52,21,29,103,103,52,52,31,49,6,6,0.5,0.6
2025-12-31T1400,3301A,113.4256,23.1716,广州市,黄埔科学城,颗粒物(PM10),54,58,46,36,30,109,109,64,64,26,33,4,4,0.7,0.7
2025-12-31T1400,3302A,113.3942,23.0483,广州市,番禺大学城,颗粒物(PM10),65,79,63,43,36,116,116,,,43,48,19,17,0.6,0.7
2025-12-31T1400,3303A,113.4922,22.8168,广州市,南沙黄阁,颗粒物(PM10),60,69,74,33,44,121,121,52,52,35,70,7,8,0.6,0.9
2025-12-31T1400,3304A,113.5342,22.7896,广州市,南沙街,颗粒物(PM10),51,52,70,24,40,129,129,70,70,28,50,6,7,0.5,0.7
2025-12-31T1400,3443A,113.2902,23.5544,广州市,花都梯面,,47,47,40,28,27,89,89,46,46,21,33,6,8,0.6,0.6
2025-12-31T1400,3445A,113.7858,23.7478,广州市,从化良口,,39,32,27,27,21,90,90,41,41,6,19,10,9,0.6,0.6
2025-12-31T1400,3446A,113.8051,23.2614,广州市,增城荔城,细颗粒物(PM2.5),53,49,38,37,28,96,96,50,50,19,23,7,7,0.5,0.5
2025-12-31T1400,2505A,109.568,23.1478,贵港市,德智高中,,,,,,,,,,,,,,,,
2025-12-31T1400,2506A,109.6047,23.0666,贵港市,江南子站,细颗粒物(PM2.5),69,53,71,50,49,115,115,63,63,9,32,11,10,0.6,0.8
2025-12-31T1400,2508A,109.5669,23.1065,贵港市,荷城子站,,49,46,61,34,41,104,104,58,58,11,30,11,9,0.8,1
2025-12-31T1400,3405A,109.5886,23.1172,贵港市,新世纪学校,颗粒物(PM10),56,61,66,38,43,117,117,58,58,13,39,15,11,0.5,0.6
2025-12-31T1400,4260A,109.5933,23.0951,贵港市,中山路155-3号,细颗粒物(PM2.5),62,57,61,44,44,122,122,56,56,11,31,14,9,0.6,0.7
2025-12-31T1400,1439A,106.6899,26.5998,贵阳市,马鞍山,,32,,32,22,29,25,25,38,22,16,16,6,4,0.8,0.6
2025-12-31T1400,1441A,106.6243,26.6266,贵阳市,鉴湖路,,27,27,37,7,23,27,27,55,31,17,20,3,4,0.6,0.6
2025-12-31T1400,1442A,106.7487,26.6343,贵阳市,燕子冲,,35,,32,24,31,23,23,42,26,16,17,7,7,0.7,0.6
2025-12-31T1400,1443A,106.6555,26.4365,贵阳市,碧云窝,,34,34,45,17,27,22,22,55,40,22,13,7,6,0.6,0.5
2025-12-31T1400,1445A,106.7109,26.6027,贵阳市,红边门,,42,31,36,29,29,19,19,26,14,17,27,8,10,0.8,0.8
2025-12-31T1400,1446A,106.7164,26.5699,贵阳市,新华路,,34,34,43,19,27,27,27,32,23,16,22,6,7,0.5,0.6
2025-12-31T1400,1447A,106.674,26.5424,贵阳市,太慈桥,,29,29,37,17,29,28,28,47,30,18,20,4,5,0.4,0.3
2025-12-31T1400,1552A,106.805,26.3003,贵阳市,桐木岭,细颗粒物(PM2.5),54,51,45,38,31,25,25,73,64,12,4,7,6,1.2,1.2
2025-12-31T1400,4230A,106.6882,26.5695,贵阳市,花果园大街66号,,33,,30,23,37,24,24,43,24,18,22,3,2,0.2,0.2
2025-12-31T1400,4231A,106.6873,26.5169,贵阳市,漓江路57号,,27,27,41,17,29,18,18,47,27,22,24,9,11,0.9,0.8
2025-12-31T1400,1862A,110.4144,25.3167,桂林市,电子科大尧山校区,,,,,,,,,,,,,,,,
2025-12-31T1400,1864A,110.3089,25.2708,桂林市,龙隐路小学,细颗粒物(PM2.5),118,99,68,89,57,79,79,82,80,20,13,9,8,0.8,0.7
2025-12-31T1400,1865A,110.2869,25.2178,桂林市,八中,细颗粒物(PM2.5),109,91,68,82,60,83,83,71,69,22,26,10,9,0.7,0.6
2025-12-31T1400,3531A,110.296,25.1253,桂林市,旅游学院,细颗粒物(PM2.5),92,83,60,68,48,98,98,70,70,16,17,7,6,0.7,0.6
2025-12-31T1400,4222A,110.1835,25.2444,桂林市,环湖路276号,细颗粒物(PM2.5),92,92,74,68,56,88,88,84,80,18,17,10,8,0.5,0.5
2025-12-31T1400,4301A,110.2803,25.2773,桂林市,信义路13号,细颗粒物(PM2.5),103,101,68,77,53,85,85,95,85,21,18,8,7,0.8,0.8
2025-12-31T1400,2674A,100.2561,34.4714,果洛藏族自治州,玛沁县大武镇,,32,32,40,3,15,95,95,53,53,2,2,10,15,0.2,0.4
2025-12-31T1400,1129A,126.5422,45.755,哈尔滨市,岭北,,,,,,,,,,,,,,,,
2025-12-31T1400,1130A,126.561,45.8167,哈尔滨市,松北商大,,38,38,36,19,24,34,34,25,25,12,27,11,12,0.5,0.5
2025-12-31T1400,1132A,126.599,45.7222,哈尔滨市,南岗学府路,,36,36,31,15,20,36,36,20,20,8,19,9,14,0.5,0.6
2025-12-31T1400,1133A,126.689,45.7733,哈尔滨市,太平宏伟公园,,37,37,32,17,21,38,38,28,28,8,18,16,23,0.6,0.7
2025-12-31T1400,1134A,126.635,45.7667,哈尔滨市,道外承德广场,颗粒物(PM10),51,52,52,18,24,37,37,26,26,12,22,13,14,0.3,0.6
2025-12-31T1400,1136A,126.6411,45.7258,哈尔滨市,动力和平路,,20,20,34,14,25,38,38,24,24,8,21,8,17,0.5,0.6
2025-12-31T1400,1137A,126.593,45.7478,哈尔滨市,道里建国路,,32,26,31,22,24,36,36,24,24,7,20,7,9,0.3,0.5
2025-12-31T1400,1138A,126.615,45.61,哈尔滨市,平房东轻厂,,,,54,24,45,34,34,20,20,9,30,,7,0.7,1.1
2025-12-31T1400,1139A,126.595,45.9855,哈尔滨市,呼兰师专,,23,19,35,16,37,34,34,26,26,4,23,5,6,0.5,0.7
2025-12-31T1400,1140A,126.6206,45.6842,哈尔滨市,省农科院,,28,24,45,19,32,35,35,22,22,11,27,9,12,0.5,0.7
2025-12-31T1400,4282A,126.6769,45.7379,哈尔滨市,华山路1号,,31,31,31,17,20,36,36,24,24,16,23,19,16,0.7,0.8
2025-12-31T1400,4283A,126.9717,45.5356,哈尔滨市,解放大街52号,,33,33,45,10,32,38,38,23,23,10,24,7,7,0.7,0.9
2025-12-31T1400,2688A,93.5128,42.8172,哈密市,地区监测站,细颗粒物(PM2.5),72,66,59,52,38,49,49,48,30,18,24,17,11,0.0,0
2025-12-31T1400,2689A,93.4961,42.8328,哈密市,哈密师范学校,,,,61,,29,48,48,21,21,15,36,1,3,0.1,0.4
2025-12-31T1400,2671A,100.9048,36.9639,海北藏族自治州,海晏县西海镇,,29,18,37,17,30,90,90,51,51,2,18,4,15,0.3,0.8
2025-12-31T1400,3867A,102.0738,36.5056,海东市,平安区公安北苑,细颗粒物(PM2.5),77,76,75,56,54,69,69,38,38,14,28,34,30,1.0,1.2
2025-12-31T1400,1409A,110.576,19.9507,海口市,东寨港,,,,,,,,,,,,,,,,
2025-12-31T1400,1410A,110.3232,20.0574,海口市,海南大学,,40,19,46,12,33,126,126,128,122,8,12,6,6,0.3,0.4
2025-12-31T1400,1411A,110.283,20.0053,海口市,秀英海南医院,,35,32,48,10,36,110,110,98,98,9,19,8,8,0.3,0.5
2025-12-31T1400,1412A,110.338,19.9969,海口市,海南师范大学,,38,32,48,10,36,119,119,112,112,8,18,6,6,0.4,0.6
2025-12-31T1400,1413A,110.33,20.0356,海口市,龙华路环保局宿舍,,40,36,46,13,34,126,126,124,120,10,14,8,9,0.7,0.7
2025-12-31T1400,3539A,110.5111,19.9736,海口市,桂林洋子站,,35,13,54,10,40,112,112,107,101,7,13,8,9,0.3,0.5
2025-12-31T1400,2673A,100.6188,36.2866,海南藏族自治州,共和县恰卜恰镇,,33,30,45,19,23,105,105,46,46,1,25,8,13,0.3,0.5
2025-12-31T1400,2676A,97.3731,37.3753,海西蒙古族藏族自治州,德令哈市,,29,24,27,14,12,92,92,68,68,7,11,11,12,0.7,0.7
2025-12-31T1400,1048A,114.5302,36.6116,邯郸市,东污水处理厂,,32,32,55,20,51,43,43,33,33,14,27,5,5,0.4,0.7
2025-12-31T1400,1049A,114.4918,36.5713,邯郸市,矿院,,,24,53,,50,43,43,39,39,28,33,5,4,,0.6
2025-12-31T1400,1050A,114.484,36.6133,邯郸市,丛台公园,,32,29,59,22,47,45,45,40,40,21,30,7,6,0.4,0.6
2025-12-31T1400,3458A,114.7895,36.5593,邯郸市,香泉濮院小区,,33,,60,23,48,49,49,38,38,20,29,4,4,0.5,0.7
2025-12-31T1400,3579A,114.50634,36.77178,邯郸市,永年区实验高中,,29,29,58,7,32,44,44,35,35,25,40,5,5,0.4,0.6
2025-12-31T1400,3580A,114.20016,36.44293,邯郸市,峰峰矿区临水派出所,,27,27,46,17,46,51,51,50,50,21,24,10,8,0.8,0.8
2025-12-31T1400,2634A,106.9893,33.1842,汉中市,汉川机床厂子校,,,,,,,,,,,,,,,,
2025-12-31T1400,2635A,107.0154,33.0706,汉中市,市监测站,,46,38,86,32,81,82,82,82,82,13,30,4,5,0.5,1
2025-12-31T1400,2636A,107.0089,33.1138,汉中市,鑫源开发区,,42,,75,29,61,85,85,85,85,13,30,4,5,0.5,1
2025-12-31T1400,2637A,107.007,33.0323,汉中市,南郑大河坎水厂,,,,141,42,116,75,75,79,79,15,29,5,5,,1.5
2025-12-31T1400,1223A,120.2072,30.2111,杭州市,滨江,,33,33,49,13,20,58,58,46,46,22,30,10,10,0.2,0.2
2025-12-31T1400,1224A,120.0633,30.2747,杭州市,西溪,,37,37,67,10,31,63,63,40,40,29,36,9,8,0.5,0.6
2025-12-31T1400,1226A,120.3417,30.3150,杭州市,下沙,,35,35,54,16,32,58,58,41,41,27,36,7,7,0.6,0.6
2025-12-31T1400,1227A,120.1269,30.2456,杭州市,卧龙桥,,35,35,57,14,32,61,61,48,48,22,26,10,9,0.5,0.5
2025-12-31T1400,1228A,120.1903,30.2692,杭州市,浙江农大,,33,33,47,15,28,57,57,44,44,34,36,3,3,0.2,0.3
2025-12-31T1400,1230A,120.1197,30.3119,杭州市,和睦小学,,34,34,59,18,39,60,60,46,43,24,30,5,5,0.4,0.6
2025-12-31T1400,1231A,120.3019,30.4183,杭州市,临平镇,,,34,46,13,28,66,66,48,48,16,27,7,7,,0.5
2025-12-31T1400,1232A,120.2753,30.1839,杭州市,城厢镇,,46,46,74,18,33,58,58,45,45,26,31,9,9,0.3,0.4
2025-12-31T1400,1233A,120.0883,30.1808,杭州市,云栖,,,32,65,14,36,62,62,54,54,23,29,6,5,,0.8
2025-12-31T1400,3557A,119.9464,30.0494,杭州市,镇二中,,23,23,55,11,42,56,56,46,46,30,34,6,6,0.5,0.7
2025-12-31T1400,3558A,119.7183,30.2367,杭州市,市府大楼,,28,28,85,12,48,57,57,51,50,22,27,10,10,0.4,0.6
2025-12-31T1400,3656A,120.1556,30.2864,杭州市,消防大队,,40,40,62,16,38,55,55,43,43,23,27,7,6,0.3,0.4
2025-12-31T1400,1270A,117.1959,31.7848,合肥市,明珠广场,,34,34,69,9,42,63,63,55,55,13,21,6,7,0.3,0.6
2025-12-31T1400,1271A,117.3072,31.8764,合肥市,三里街,,31,31,63,7,40,62,62,54,54,20,27,5,6,0.6,0.8
2025-12-31T1400,1272A,117.2588,31.8707,合肥市,琥珀山庄,,34,34,61,12,41,67,67,59,59,17,24,8,8,0.5,0.7
2025-12-31T1400,1273A,117.1604,31.9052,合肥市,董铺水库,,,,,,,,,,,,,,,,
2025-12-31T1400,1274A,117.25,31.8571,合肥市,长江中路,,27,27,65,9,44,65,65,58,58,18,24,7,8,0.5,0.8
2025-12-31T1400,1275A,117.266,31.9436,合肥市,庐阳区,,39,39,65,7,37,71,71,64,64,18,28,3,4,0.5,0.7
2025-12-31T1400,1276A,117.3453,31.8616,合肥市,瑶海区,,39,39,61,3,37,64,64,56,56,23,31,5,5,0.5,0.7
2025-12-31T1400,1277A,117.3027,31.7964,合肥市,包河区,,39,39,71,7,46,55,55,45,45,30,54,6,8,0.6,0.9
2025-12-31T1400,1278A,117.2776,31.7385,合肥市,滨湖新区,,29,29,71,12,51,69,69,58,58,15,25,5,5,0.7,0.9
2025-12-31T1400,1279A,117.1318,31.8403,合肥市,高新区,,31,31,67,6,42,65,65,61,61,19,24,4,5,0.4,0.8
2025-12-31T1400,3464A,117.3803,31.9147,合肥市,高教基地,,27,27,60,10,39,70,70,63,63,17,21,7,8,0.5,0.6
2025-12-31T1400,3614A,79.924,37.0877,和田地区,地区环保局,颗粒物(PM10),56,61,83,27,28,48,48,47,43,13,16,3,2,1.0,0.9
2025-12-31T1400,3615A,79.9131,37.113,和田地区,市环保局,,48,44,78,33,27,53,53,49,45,13,16,1,2,0.5,1.1
2025-12-31T1400,2516A,108.2011,24.715,河池市,东仁乐园,,,,,,,,,,,,,,,,
2025-12-31T1400,2517A,108.0497,24.6947,河池市,市环保站,细颗粒物(PM2.5),60,66,77,43,53,77,77,39,39,16,32,12,9,0.9,1
2025-12-31T1400,4302A,108.0901,24.6945,河池市,上任中路54号,细颗粒物(PM2.5),68,69,75,49,53,74,74,40,40,14,38,18,13,0.9,1
2025-12-31T1400,1696A,114.6778,23.7569,河源市,源西,,,,,,,,,,,,,,,,
2025-12-31T1400,1697A,114.6944,23.7586,河源市,东埔,,40,40,39,22,23,91,91,38,38,13,28,9,7,0.7,0.8
2025-12-31T1400,1698A,114.6892,23.7233,河源市,老城,,46,46,40,26,24,87,87,36,36,12,24,9,7,0.8,0.9
2025-12-31T1400,1718A,115.4208,35.2464,菏泽市,气象局,,,57,118,23,85,62,62,44,44,,34,,7,0.4,0.8
2025-12-31T1400,3374A,115.5564,35.0891,菏泽市,定陶老年大学,颗粒物(PM10),51,51,110,31,80,46,46,34,34,22,33,8,7,0.8,1
2025-12-31T1400,4184A,115.4797,35.24401,菏泽市,永昌路1号,颗粒物(PM10),51,52,117,25,86,55,55,40,40,16,32,6,9,0.8,1
2025-12-31T1400,4193A,115.4715,35.2800,菏泽市,长城路999号,颗粒物(PM10),57,63,116,22,83,55,55,38,38,16,33,5,7,0.7,1.1
2025-12-31T1400,2514A,111.5264,24.4172,贺州市,环保小区,细颗粒物(PM2.5),80,69,63,59,49,76,76,32,32,23,25,9,7,0.8,0.9
2025-12-31T1400,2515A,111.5608,24.4078,贺州市,政协大楼,细颗粒物(PM2.5),62,45,53,44,37,73,73,30,30,18,28,9,8,0.6,0.7
2025-12-31T1400,3534A,111.4744,24.4553,贺州市,西湾,颗粒物(PM10),59,68,64,34,48,96,96,48,48,14,26,7,9,0.6,0.7
2025-12-31T1400,2385A,114.17,35.9019,鹤壁市,市监测站,,36,36,75,22,57,41,41,40,40,22,28,9,8,0.7,0.9
2025-12-31T1400,2386A,114.2956,35.7511,鹤壁市,市交警支队,,39,39,79,12,49,43,43,34,34,21,31,5,9,0.5,0.7
2025-12-31T1400,2387A,114.2878,35.7306,鹤壁市,迎宾馆,颗粒物(PM10),51,52,80,34,55,54,54,44,44,23,29,8,7,0.6,0.9
2025-12-31T1400,3474A,114.2617,35.6822,鹤壁市,大新区,,,28,69,,38,55,55,46,46,18,32,6,8,0.6,0.7
2025-12-31T1400,3596A,114.1572,35.9603,鹤壁市,南山宾馆,,44,44,80,17,54,49,49,45,45,17,27,8,9,0.5,0.8
2025-12-31T1400,2244A,130.2537,47.3416,鹤岗市,哈啤分公司,,24,24,24,12,20,48,48,48,48,4,6,6,6,0.3,0.4
2025-12-31T1400,2245A,130.2684,47.3086,鹤岗市,斯达机电,,16,12,27,11,23,51,51,50,48,5,6,4,5,0.4,0.4
2025-12-31T1400,2246A,130.3114,47.3388,鹤岗市,东山纸板厂,,26,,21,18,23,53,53,51,51,2,5,6,6,0.2,0.6
2025-12-31T1400,2247A,130.1097,47.3382,鹤岗市,五号水库,,,,,,,,,,,,,,,,
2025-12-31T1400,2263A,127.4833,50.2524,黑河市,交通局,,,,17,,15,41,41,41,39,9,11,3,4,,0.3
2025-12-31T1400,2264A,127.5144,50.2341,黑河市,环保局,,22,,18,15,15,41,41,38,38,7,10,5,4,0.4,0.4
2025-12-31T1400,2265A,127.5291,50.2472,黑河市,大黑河岛,,,,,,,,,,,,,,,,
2025-12-31T1400,1074A,115.6838,37.7541,衡水市,电机北厂,,17,7,40,3,24,53,53,43,43,11,31,3,8,0.2,0.4
2025-12-31T1400,1075A,115.6303,37.7316,衡水市,市监测站,,18,13,40,7,20,55,55,46,46,10,34,4,7,0.3,0.5
2025-12-31T1400,3188A,115.6683,37.7217,衡水市,市城管局,,20,20,43,7,26,55,55,44,44,12,33,5,8,0.3,0.5
2025-12-31T1400,3459A,115.5989,37.5491,衡水市,地表水厂,,20,6,32,3,18,63,63,39,39,4,27,1,4,0.2,0.5
2025-12-31T1400,2456A,112.5003,26.9167,衡阳市,原169医院,,,,,,,,,,,,,,,,
2025-12-31T1400,2457A,112.6194,26.9258,衡阳市,衡阳化工总厂,细颗粒物(PM2.5),198,,131,148,131,64,64,45,45,25,23,11,14,1.3,1.3
2025-12-31T1400,2458A,112.6211,26.8956,衡阳市,珠晖区环保局,细颗粒物(PM2.5),183,,124,138,124,56,56,37,37,24,31,8,8,1.6,1.5
2025-12-31T1400,2459A,112.6197,26.8733,衡阳市,市委党校,细颗粒物(PM2.5),178,146,123,134,131,77,77,50,50,20,22,10,11,1.3,1.3
2025-12-31T1400,2460A,112.6006,26.8919,衡阳市,市监测站,细颗粒物(PM2.5),182,195,167,137,120,61,61,49,49,23,19,10,13,1.2,1.1
2025-12-31T1400,2461A,112.5664,26.9056,衡阳市,真空机电公司,细颗粒物(PM2.5),202,181,155,152,137,58,58,41,41,26,30,12,13,1.2,1.3
2025-12-31T1400,3399A,112.6703,26.882,衡阳市,师范学院,细颗粒物(PM2.5),145,148,144,111,110,84,84,53,53,24,26,6,7,1.4,1.4
2025-12-31T1400,2608A,103.3772,23.3993,红河哈尼族彝族自治州,污水处理厂,,25,16,33,16,30,79,79,54,54,5,8,6,6,0.3,0.4
2025-12-31T1400,2609A,103.3861,23.35,红河哈尼族彝族自治州,监测站,,26,19,34,11,28,81,81,69,69,3,4,7,8,0.2,0.3
2025-12-31T1400,3038A,103.3758,23.368,红河哈尼族彝族自治州,州图书馆,,27,12,24,3,17,85,85,60,60,3,6,6,6,0.3,0.4
2025-12-31T1400,1090A,111.6507,40.7517,呼和浩特市,呼市一监,,22,7,10,3,4,69,69,60,60,9,11,1,2,0.3,0.3
2025-12-31T1400,1094A,111.7516,40.8369,呼和浩特市,如意水处理厂,,23,12,9,3,4,72,72,54,49,9,16,8,8,0.3,0.3
2025-12-31T1400,1095A,111.7276,40.8062,呼和浩特市,二十九中,,23,8,12,3,4,71,71,56,53,9,12,8,9,0.2,0.2
2025-12-31T1400,1097A,111.717,40.7612,呼和浩特市,化肥厂生活区,,22,13,10,3,3,70,70,62,62,9,9,4,4,0.2,0.4
2025-12-31T1400,3699A,111.6518,40.8389,呼和浩特市,海东办,,,,8,,3,,,65,,,14,,4,,0.2
2025-12-31T1400,4275A,111.5915,40.8273,呼和浩特市,成吉思汗西街8号,,27,27,10,8,4,54,54,54,41,24,19,6,6,0.5,0.4
2025-12-31T1400,4276A,111.6597,40.8077,呼和浩特市,公园东路75号,,21,12,11,6,5,66,66,53,51,17,19,4,5,0.2,0.2
2025-12-31T1400,4277A,111.5417,40.7846,呼和浩特市,金海路35号,,22,22,16,8,4,60,60,58,48,21,18,11,8,0.4,0.2
2025-12-31T1400,3061A,119.7512,49.1577,呼伦贝尔市,国华电力东,,16,13,31,11,25,44,44,36,36,20,21,7,5,0.3,0.4
2025-12-31T1400,4279A,119.7569,49.2222,呼伦贝尔市,伊敏大街东7号,,32,22,26,22,22,48,48,39,36,8,12,8,7,0.3,0.4
2025-12-31T1400,1250A,120.0751,30.8669,湖州市,城西水厂,,29,28,40,13,28,91,91,76,76,11,20,9,9,0.1,0.2
2025-12-31T1400,2873A,120.0830,30.8929,湖州市,仁皇山新区,,27,26,37,13,25,84,84,72,72,16,26,8,9,0.2,0.2
2025-12-31T1400,2907A,120.1844,30.8596,湖州市,吴兴区站,,34,34,49,13,22,86,86,70,70,13,23,6,6,0.5,0.5
2025-12-31T1400,3562A,120.4148,30.8538,湖州市,南浔区站,,27,27,32,15,21,71,71,54,54,16,30,6,6,0.3,0.4
2025-12-31T1400,1607A,120.9049,40.7211,葫芦岛市,龙港区,,32,32,36,8,20,55,55,44,44,7,21,11,14,0.4,0.7
2025-12-31T1400,1608A,120.8392,40.7514,葫芦岛市,化工街,,16,9,26,3,9,49,49,39,39,5,18,11,15,0.3,0.4
2025-12-31T1400,1609A,120.8341,40.7073,葫芦岛市,新区,,18,18,22,8,10,48,48,41,41,11,20,8,11,0.4,0.7
2025-12-31T1400,1610A,120.8695,40.7677,葫芦岛市,东城区,,29,29,20,6,12,50,50,41,39,8,20,9,13,0.5,0.6
2025-12-31T1400,2482A,109.5981,27.5721,怀化市,林科所,,,,,,,,,,,,,,,,
2025-12-31T1400,2483A,109.9453,27.5444,怀化市,河西地税局,细颗粒物(PM2.5),103,,97,77,87,49,49,70,57,19,18,3,6,1.1,0.8
2025-12-31T1400,2484A,109.9781,27.5342,怀化市,市四医院,,,80,105,68,82,37,37,60,55,11,13,,11,,0.7
2025-12-31T1400,2485A,109.9972,27.5578,怀化市,监测楼,细颗粒物(PM2.5),59,66,96,42,72,52,52,59,58,16,20,2,5,0.4,0.3
2025-12-31T1400,2486A,110.0394,27.583,怀化市,市委党校,细颗粒物(PM2.5),99,,101,74,97,39,39,53,49,17,18,6,11,0.6,0.6
2025-12-31T1400,1210A,119.036,33.5981,淮安市,钵池山,,35,,37,24,34,64,64,53,53,11,21,6,6,0.2,0.3
2025-12-31T1400,1211A,119.007,33.575,淮安市,北京南路,,27,27,37,17,28,58,58,51,51,6,16,6,6,0.4,0.5
2025-12-31T1400,1212A,118.989,33.6067,淮安市,市监测站,,19,17,32,3,19,59,59,48,48,11,18,8,8,0.3,0.4
2025-12-31T1400,1213A,119.135,33.5039,淮安市,楚州区监测站,,20,20,29,9,17,54,54,50,47,5,15,9,9,0.3,0.4
2025-12-31T1400,3426A,118.8755,33.2894,淮安市,新华书店,,31,31,36,11,18,53,53,45,43,12,22,8,8,0.4,0.5
2025-12-31T1400,4206A,119.0288,33.6319,淮安市,承德北路606号,,32,29,49,22,34,62,62,51,51,8,25,6,7,0.4,0.5
2025-12-31T1400,2282A,116.8004,33.975,淮北市,监测站,,48,48,107,15,66,57,57,45,45,22,31,9,9,0.7,1
2025-12-31T1400,2283A,116.8091,33.9007,淮北市,烈山区政府,,48,48,89,24,69,47,47,41,41,22,32,9,9,0.3,0.5
2025-12-31T1400,3330A,116.8873,33.9836,淮北市,杜集区检察院,,49,49,86,13,58,61,61,49,49,14,22,5,6,0.4,0.6
2025-12-31T1400,4017A,116.7923,33.9535,淮北市,市博物馆,颗粒物(PM10),51,52,98,15,61,55,55,46,46,20,27,10,10,0.4,0.6
2025-12-31T1400,2277A,116.8305,32.7727,淮南市,潘集区政府,细颗粒物(PM2.5),72,86,66,52,49,39,39,47,42,18,18,5,6,0.5,0.5
2025-12-31T1400,2279A,116.8569,32.5951,淮南市,谢家集区政府,颗粒物(PM10),67,84,60,33,32,50,50,53,53,19,20,6,7,0.4,0.4
2025-12-31T1400,2280A,116.8281,32.633,淮南市,八公山区政府,颗粒物(PM10),61,72,57,43,35,47,47,50,49,17,17,4,6,0.5,0.4
2025-12-31T1400,2281A,116.6325,32.6201,淮南市,焦岗湖风景区管理处,,,,,,,,,,,,,,,,
2025-12-31T1400,2894A,117.0566,32.6531,淮南市,经济技术开发区消防队,颗粒物(PM10),72,94,73,42,38,51,51,51,51,15,22,5,5,0.4,0.4
2025-12-31T1400,3329A,117.0108,32.5893,淮南市,山南新区,颗粒物(PM10),68,85,60,25,26,58,58,60,59,13,14,2,2,0.5,0.5
2025-12-31T1400,4209A,117.0031,32.6445,淮南市,国庆中路369号,细颗粒物(PM2.5),69,82,59,50,33,45,45,46,45,18,20,4,5,0.4,0.4
2025-12-31T1400,2446A,114.9028,30.4742,黄冈市,职工中心,细颗粒物(PM2.5),84,96,118,62,83,84,84,75,75,18,23,9,8,0.9,0.9
2025-12-31T1400,2929A,114.8858,30.4519,黄冈市,红卫路,细颗粒物(PM2.5),85,89,111,63,92,84,84,76,76,19,25,8,8,0.7,0.8
2025-12-31T1400,3398A,114.9136,30.4445,黄冈市,市林业局,细颗粒物(PM2.5),94,88,119,70,97,82,82,77,76,23,29,6,5,0.8,1.1
2025-12-31T1400,2672A,102.0199,35.5102,黄南藏族自治州,同仁县隆务镇,细颗粒物(PM2.5),58,54,50,41,36,79,79,59,58,9,7,12,12,0.7,0.6
2025-12-31T1400,2295A,118.2903,29.6963,黄山市,延安路89号,,27,11,65,3,54,86,86,66,66,8,17,3,5,0.3,0.6
2025-12-31T1400,2297A,118.1371,30.2756,黄山市,黄山区政府5号楼,,33,33,98,13,75,83,83,51,51,13,17,6,6,0.4,0.8
2025-12-31T1400,4210A,118.3354,29.7203,黄山市,滨江东路7-2号,,35,35,84,16,69,85,85,72,72,8,15,4,4,0.3,0.6
2025-12-31T1400,2423A,115.0601,30.2313,黄石市,沈家营,颗粒物(PM10),64,78,133,28,79,78,78,67,61,15,30,9,8,1.1,1.3
2025-12-31T1400,2426A,114.8988,30.2019,黄石市,铁山,颗粒物(PM10),76,101,104,26,98,86,86,76,75,4,21,6,7,0.7,0.5
2025-12-31T1400,2427A,115.0307,30.2092,黄石市,团城山,颗粒物(PM10),56,61,116,23,91,85,85,79,70,11,21,7,10,0.5,0.8
2025-12-31T1400,3149A,115.0235,30.1578,黄石市,笔架山北路,颗粒物(PM10),59,68,144,18,86,79,79,73,65,7,18,7,7,0.8,1.1
2025-12-31T1400,4185A,115.0780,30.21118,黄石市,磁湖东路29号,颗粒物(PM10),53,56,125,35,97,69,69,57,51,13,33,10,11,0.8,1.2
2025-12-31T1400,1392A,114.4183,23.0528,惠州市,河南岸金山湖子站,细颗粒物(PM2.5),57,62,53,40,36,81,81,49,49,27,35,5,5,0.6,0.7
2025-12-31T1400,1393A,114.4053,23.0822,惠州市,下埔横江三路子站,颗粒物(PM10),51,52,60,32,35,101,101,58,58,15,32,9,8,0.6,0.7
2025-12-31T1400,1395A,114.4645,22.7833,惠州市,惠阳区承修路船湖子站,,40,40,44,23,24,125,125,72,72,17,25,8,7,0.5,0.6
2025-12-31T1400,1396A,114.5317,22.7422,惠州市,大亚湾管委会子站,,38,38,38,20,19,121,121,89,89,12,20,8,7,0.3,0.4
2025-12-31T1400,3314A,114.4338,22.8134,惠州市,惠阳秋长,颗粒物(PM10),51,51,62,22,31,134,134,83,83,16,38,17,16,0.4,0.6
2025-12-31T1400,3452A,114.6517,22.775,惠州市,大亚湾霞涌,,38,34,35,20,18,119,119,88,88,18,21,7,6,0.4,0.4
2025-12-31T1400,4300A,114.4089,23.1147,惠州市,文华一路1号,颗粒物(PM10),54,58,62,30,36,94,94,43,43,18,48,10,9,0.3,0.3
2025-12-31T1400,2240A,130.9762,45.3001,鸡西市,环保局,,32,32,21,17,13,43,43,38,38,3,7,5,6,0.2,0.2
2025-12-31T1400,2243A,130.9429,45.3039,鸡西市,第一中学,,28,28,21,9,13,47,47,43,43,4,7,3,3,0.3,0.3
2025-12-31T1400,3707A,131.0207,45.3073,鸡西市,欧美日汽修厂,颗粒物(PM10),62,74,30,14,15,50,50,47,47,4,11,6,6,0.3,0.3
2025-12-31T1400,3709A,130.9967,45.3106,鸡西市,市政设施管理处,颗粒物(PM10),54,57,26,12,16,39,39,37,37,7,15,9,7,0.2,0.2
2025-12-31T1400,2367A,114.9754,27.0803,吉安市,红声器材厂,细颗粒物(PM2.5),90,106,84,67,55,121,121,71,71,26,28,9,10,1.1,0.9
2025-12-31T1400,2368A,114.9658,27.0999,吉安市,市森林工业局,,,,83,75,59,130,130,82,82,,27,11,13,0.8,0.7
2025-12-31T1400,2369A,114.99,27.1312,吉安市,市环境监测站,细颗粒物(PM2.5),94,120,81,70,57,119,119,71,71,20,25,13,16,0.1,0.6
2025-12-31T1400,2370A,115.0093,27.0968,吉安市,青原区法院,细颗粒物(PM2.5),98,102,81,73,59,115,115,65,65,18,23,12,13,1.0,0.9
2025-12-31T1400,1772A,126.54,43.8622,吉林市,哈达湾,,26,26,31,18,19,40,40,29,29,6,17,6,7,1.0,1.2
2025-12-31T1400,1773A,126.5844,43.8358,吉林市,东局子,,28,28,34,9,24,39,39,22,22,10,22,6,5,0.8,1
2025-12-31T1400,1774A,126.5052,43.8245,吉林市,电力学院,,,18,47,16,30,42,42,27,27,5,25,10,11,,1
2025-12-31T1400,1775A,126.6133,43.8972,吉林市,江北,,,19,50,13,34,40,40,26,26,6,21,,2,0.4,0.8
2025-12-31T1400,1776A,126.555,43.8306,吉林市,江南公园,,25,17,30,17,19,39,39,24,24,6,19,8,8,0.7,0.8
2025-12-31T1400,1778A,126.7061,43.7133,吉林市,丰满,,22,19,19,15,21,33,33,29,29,5,10,5,8,0.4,0.5
2025-12-31T1400,2868A,126.4739,43.953,吉林市,九站,,23,22,38,16,26,40,40,27,27,8,25,5,6,0.6,0.8
2025-12-31T1400,1299A,116.9862,36.6114,济南市,科干所,,29,29,61,10,30,54,54,46,46,16,35,7,8,0.7,0.8
2025-12-31T1400,1300A,116.9376,36.665,济南市,农科所,,34,34,64,3,31,56,56,36,36,12,37,5,10,0.7,0.9
2025-12-31T1400,1301A,117.1265,36.6734,济南市,开发区,,32,32,66,15,39,57,57,35,35,10,34,6,8,0.6,0.8
2025-12-31T1400,1303A,117.0624,36.6868,济南市,省种子仓库,,29,29,72,9,35,60,60,38,38,15,38,8,13,0.5,0.7
2025-12-31T1400,1304A,116.9489,36.6447,济南市,机床二厂,,34,34,67,12,37,57,57,39,39,17,40,3,9,0.7,0.8
2025-12-31T1400,1305A,117.0495,36.663,济南市,市监测站,,27,27,64,10,35,51,51,35,35,10,32,6,8,0.6,0.8
2025-12-31T1400,1306A,116.7675,36.5484,济南市,长清党校,,37,37,71,3,36,50,50,39,39,15,37,7,11,0.6,0.8
2025-12-31T1400,1616A,117.6795,36.229,济南市,技术学院,,31,31,70,9,51,62,62,54,54,21,35,4,5,0.4,0.7
2025-12-31T1400,1961A,117.532,36.6868,济南市,东山小学,,34,34,71,10,38,61,61,36,36,9,38,8,7,0.7,0.9
2025-12-31T1400,3059A,117.7161,36.2049,济南市,泰兴公司,,44,44,80,9,59,70,70,58,58,20,34,8,6,0.5,0.7
2025-12-31T1400,3064A,117.6867,36.2171,济南市,莱芜战役纪念馆,,36,36,80,19,61,66,66,56,56,18,33,6,8,0.2,0.5
2025-12-31T1400,3494A,117.1673,36.9782,济南市,济阳区政府,,20,20,50,3,22,60,60,41,41,11,28,5,8,0.4,0.6
2025-12-31T1400,3495A,117.1171,36.63,济南市,锦屏中学,,20,20,51,12,29,59,59,46,46,13,31,4,5,0.4,0.6
2025-12-31T1400,3682A,116.9814,36.6819,济南市,济南四建,,,24,56,12,34,47,47,26,26,,34,,11,,1.1
2025-12-31T1400,1653A,116.6251,35.4302,济宁市,火炬城,,41,41,104,22,88,65,65,52,52,10,34,7,9,0.3,0.7
2025-12-31T1400,1655A,116.5491,35.4042,济宁市,电化厂,,49,49,129,19,83,66,66,53,53,18,41,6,12,0.2,0.6
2025-12-31T1400,3500A,116.5814,35.3707,济宁市,北湖一中,,36,36,87,21,80,60,60,50,50,16,33,5,10,0.5,0.7
2025-12-31T1400,3501A,116.8249,35.5593,济宁市,服务中心,,41,41,115,10,65,61,61,48,48,15,36,10,16,0.8,1.1
2025-12-31T1400,3678A,116.5907,35.4054,济宁市,市第七中学,颗粒物(PM10),51,51,94,9,75,65,65,52,52,15,35,8,14,0.5,0.8
2025-12-31T1400,2255A,130.2751,46.8028,佳木斯市,佳纺,,29,28,30,20,23,40,40,32,32,9,15,2,6,0.2,0.3
2025-12-31T1400,2257A,130.3258,46.7975,佳木斯市,环保局,,23,19,24,16,17,42,42,36,36,8,15,6,7,0.3,0.4
2025-12-31T1400,2259A,130.3794,46.7588,佳木斯市,四丰,,,,,,,,,,,,,,,,
2025-12-31T1400,4285A,130.363,46.806,佳木斯市,顺和街,,29,22,23,20,19,34,34,32,31,11,13,7,8,0.4,0.5
2025-12-31T1400,4286A,130.3952,46.8268,佳木斯市,长安路196号,,20,20,25,14,17,43,43,39,38,6,11,4,5,0.2,0.3
2025-12-31T1400,1252A,120.7436,30.778,嘉兴市,清河小学,,32,32,32,14,22,80,80,57,57,14,30,6,5,0.2,0.2
2025-12-31T1400,1253A,120.726,30.7478,嘉兴市,嘉兴学院,,32,32,33,14,16,77,77,56,56,14,25,7,7,0.5,0.5
2025-12-31T1400,2872A,120.7846,30.7525,嘉兴市,南湖区残联,,,29,29,13,15,83,83,58,58,12,27,4,4,,0.4
2025-12-31T1400,3407A,120.6916,30.7739,嘉兴市,秀洲住建,,35,35,35,14,18,82,82,58,58,15,29,7,7,0.3,0.4
2025-12-31T1400,1945A,98.2908,39.7711,嘉峪关市,气象局,颗粒物(PM10),75,100,82,31,31,64,64,59,59,10,13,3,3,0.4,0.5
2025-12-31T1400,2884A,98.2672,39.7978,嘉峪关市,酒钢宾馆,颗粒物(PM10),69,88,80,34,31,65,65,60,60,6,11,11,14,0.4,0.6
2025-12-31T1400,3248A,98.2643,39.7724,嘉峪关市,雄关区,颗粒物(PM10),63,75,62,29,36,66,66,60,60,13,16,14,13,0.7,0.8
2025-12-31T1400,1383A,113.1064,22.6058,江门市,北街,细颗粒物(PM2.5),85,80,86,63,58,112,112,31,31,41,73,8,9,0.6,1
2025-12-31T1400,1384A,113.0731,22.5835,江门市,西区,细颗粒物(PM2.5),80,95,95,59,50,105,105,37,37,57,78,8,9,0.6,0.8
2025-12-31T1400,1385A,113.0219,22.5311,江门市,圭峰西,细颗粒物(PM2.5),112,109,74,84,60,106,106,48,40,86,54,7,7,0.7,0.7
2025-12-31T1400,1386A,113.0828,22.5947,江门市,东湖,细颗粒物(PM2.5),84,108,92,62,56,111,111,33,33,54,82,8,9,0.6,0.9
2025-12-31T1400,3311A,113.1075,22.5647,江门市,江海富民,颗粒物(PM10),89,127,101,60,50,120,120,38,38,47,84,8,9,0.6,0.9
2025-12-31T1400,3449A,113.05,22.4667,江门市,新会银湖,细颗粒物(PM2.5),72,,81,52,60,115,115,52,52,29,45,7,7,0.6,0.7
2025-12-31T1400,1830A,113.1992,35.2590,焦作市,影视城,,,,87,,58,,,58,,,24,,7,,0.7
2025-12-31T1400,3335A,113.3137,35.2641,焦作市,马村街道办,,34,34,88,12,56,59,59,55,55,13,22,6,8,0.3,0.6
2025-12-31T1400,3336A,113.2465,35.2373,焦作市,焦作技师学院,,35,35,88,9,56,52,52,48,48,14,26,8,10,0.4,0.8
2025-12-31T1400,3477A,113.1656,35.2539,焦作市,中站许衡医院,,35,32,85,24,68,58,58,54,54,14,25,5,6,0.6,0.9
2025-12-31T1400,3981A,113.2449,35.1803,焦作市,原李万街道办,,36,36,86,7,53,62,62,57,57,15,25,3,6,0.4,0.6
2025-12-31T1400,4264A,113.2340,35.2190,焦作市,新安路1731号,,43,43,95,20,61,57,57,52,52,9,20,8,7,0.4,0.6
2025-12-31T1400,4295A,113.2722,35.2121,焦作市,人民路3066号,颗粒物(PM10),52,54,98,12,50,58,58,54,54,9,23,6,15,0.1,0.4
2025-12-31T1400,1708A,116.3701,23.5345,揭阳市,新兴,,41,41,50,17,29,101,101,52,52,14,33,8,9,0.5,0.7
2025-12-31T1400,1709A,116.3264,23.5443,揭阳市,西马,,43,43,59,14,29,106,106,51,51,8,24,8,7,0.6,0.8
2025-12-31T1400,1710A,116.3611,23.5626,揭阳市,东兴,颗粒物(PM10),51,52,50,24,25,109,109,54,54,12,30,11,10,0.6,0.8
2025-12-31T1400,1711A,116.4151,23.5294,揭阳市,渔湖,,39,39,48,21,23,101,101,55,55,11,27,4,6,0.5,0.7
2025-12-31T1400,3320A,116.403,23.5699,揭阳市,曲溪,,42,41,53,29,27,118,118,65,65,11,31,6,8,0.4,0.6
2025-12-31T1400,1944A,102.1692,38.5167,金昌市,天庆家园,颗粒物(PM10),87,124,95,60,32,47,47,53,45,16,14,61,12,0.6,0.6
2025-12-31T1400,4022A,102.1647,38.5371,金昌市,金川区人防中心,颗粒物(PM10),55,60,84,23,32,60,60,54,53,8,12,6,8,0.5,0.6
2025-12-31T1400,4239A,102.1930,38.5319,金昌市,长春路96号,颗粒物(PM10),53,56,84,16,26,62,62,54,52,7,12,6,9,0.6,0.7
2025-12-31T1400,1262A,119.647,29.077,金华市,十五中,,28,28,101,16,73,58,58,48,48,22,31,3,3,0.3,0.6
2025-12-31T1400,1263A,119.686,29.1029,金华市,监测站,,34,34,139,14,66,55,55,45,45,30,40,1,2,0,0.3
2025-12-31T1400,3659A,119.656,29.1131,金华市,气象局,,,25,95,12,63,58,58,48,48,25,42,2,3,,0.5
2025-12-31T1400,1767A,121.1115,41.0879,锦州市,南山,,20,14,23,14,11,55,55,44,44,6,13,8,10,0.5,0.6
2025-12-31T1400,1768A,121.0604,40.8428,锦州市,开发区,,20,20,33,13,16,51,51,40,40,6,20,8,14,0.5,0.7
2025-12-31T1400,1769A,121.1836,41.1119,锦州市,百股街道,,18,18,23,3,10,52,52,36,36,5,16,5,9,0.5,0.7
2025-12-31T1400,1770A,121.1178,41.1222,锦州市,天安街道,,19,16,21,6,8,58,58,51,50,7,11,8,10,0.5,0.5
2025-12-31T1400,1771A,121.1303,41.1386,锦州市,北湖公园,,18,15,20,6,9,55,55,50,49,3,7,6,8,0.4,0.4
2025-12-31T1400,2160A,112.85,35.5051,晋城市,自来水公司,颗粒物(PM10),55,59,127,34,89,53,53,46,46,15,21,4,7,0.5,1.1
2025-12-31T1400,2161A,112.8318,35.4936,晋城市,白云商贸,颗粒物(PM10),69,87,127,22,74,54,54,46,46,10,16,3,5,0.6,1
2025-12-31T1400,2162A,112.8508,35.4887,晋城市,市环保局,颗粒物(PM10),62,74,124,29,82,53,53,48,48,15,21,4,6,0.7,1
2025-12-31T1400,2163A,112.8676,35.4897,晋城市,技术学院,颗粒物(PM10),53,56,120,27,82,49,49,44,44,21,27,6,8,0.5,0.8
2025-12-31T1400,2165A,112.8453,35.546,晋城市,白马寺,颗粒物(PM10),54,58,112,25,88,61,61,51,51,10,18,8,10,0.6,1
2025-12-31T1400,3620A,112.8271,35.4828,晋城市,泽州一中,,46,46,116,29,85,59,59,50,50,16,23,3,6,0.7,1
2025-12-31T1400,2173A,112.7249,37.7067,晋中市,南都小区,颗粒物(PM10),56,61,77,16,34,56,56,46,46,19,34,8,11,0.4,0.5
2025-12-31T1400,2174A,112.6991,37.6982,晋中市,榆次区政府,,48,48,72,18,33,54,54,45,45,21,36,8,10,0.4,0.5
2025-12-31T1400,2865A,112.7195,37.6828,晋中市,榆次三中,颗粒物(PM10),52,53,77,22,28,50,50,44,44,17,27,10,10,0.5,0.6
2025-12-31T1400,4200A,112.7478,37.6954,晋中市,迎宾街26号,,48,48,75,24,31,52,52,45,45,18,33,10,11,0.4,0.4
2025-12-31T1400,2439A,112.2014,31.0481,荆门市,竹园小学,细颗粒物(PM2.5),87,98,158,64,125,24,24,69,38,27,24,1,2,0.6,0.5
2025-12-31T1400,2440A,112.1969,30.9891,荆门市,掇刀,细颗粒物(PM2.5),92,95,154,68,117,27,27,76,45,24,22,3,3,0.9,0.7
2025-12-31T1400,2441A,112.2213,31.0386,荆门市,石化一小,细颗粒物(PM2.5),79,104,166,58,125,22,22,61,34,27,25,8,9,1.1,1
2025-12-31T1400,3012A,112.1849,31.0362,荆门市,西山林语,细颗粒物(PM2.5),65,65,143,47,118,27,27,74,44,22,21,7,5,0.9,0.8
2025-12-31T1400,3547A,112.1632,31.0138,荆门市,龙泉中学南校,细颗粒物(PM2.5),118,97,153,89,120,35,35,80,53,11,11,6,8,0.5,0.4
2025-12-31T1400,1844A,112.2494,30.3197,荆州市,市图书馆,细颗粒物(PM2.5),159,,110,121,127,28,28,68,47,22,20,6,8,1.1,0.9
2025-12-31T1400,1845A,112.2008,30.3544,荆州市,市委党校,细颗粒物(PM2.5),159,,127,121,122,25,25,61,41,26,25,2,4,1.0,0.9
2025-12-31T1400,3194A,112.2747,30.3122,荆州市,管委会,细颗粒物(PM2.5),149,,119,114,123,28,28,63,46,22,23,4,6,1.0,0.9
2025-12-31T1400,4268A,112.1722,30.3366,荆州市,学苑路85号,细颗粒物(PM2.5),155,,123,118,117,33,33,73,50,23,21,1,1,1.0,0.8
2025-12-31T1400,2342A,117.3102,29.3867,景德镇市,王港中学,,,,,,,,,,,,,,,,
2025-12-31T1400,2343A,117.2117,29.2933,景德镇市,老干部活动中心,,40,40,58,21,49,94,94,76,76,7,25,8,8,0.6,0.9
2025-12-31T1400,2344A,117.1894,29.2789,景德镇市,兽医站,,39,39,55,23,35,99,99,82,82,8,22,6,7,0.3,0.5
2025-12-31T1400,2346A,117.2461,29.2956,景德镇市,陶研所,,36,34,48,25,39,96,96,66,66,4,22,5,4,0.5,0.7
2025-12-31T1400,4289A,117.1542,29.2566,景德镇市,青少年活动中心,,41,41,64,23,39,98,98,85,85,16,29,14,11,0.8,0.9
2025-12-31T1400,1803A,115.9872,29.6815,九江市,十里,,42,42,112,16,83,77,77,74,58,17,23,5,6,0.6,1
2025-12-31T1400,1804A,115.9584,29.7046,九江市,茅山头,,33,32,114,23,79,73,73,68,55,12,18,6,6,0.6,1
2025-12-31T1400,1805A,115.9877,29.7295,九江市,西园,,48,48,107,12,75,80,80,72,60,26,37,1,2,0.5,0.9
2025-12-31T1400,1808A,115.9114,29.6038,九江市,综合工业园,,43,39,117,30,102,75,75,74,62,21,30,2,3,0.8,0.7
2025-12-31T1400,1809A,116.0721,29.7535,九江市,石化总厂,颗粒物(PM10),56,61,118,26,90,75,75,67,59,19,25,6,7,0.5,0.8
2025-12-31T1400,1810A,115.9773,29.5698,九江市,庐山气象台,,,,,,,,,,,,,,,,
2025-12-31T1400,3190A,116.0254,29.6994,九江市,外国语学校,,42,42,103,13,67,65,65,60,50,18,25,7,8,0.6,0.9
2025-12-31T1400,4253A,116.0102,29.6594,九江市,莲花大道8号,颗粒物(PM10),53,55,123,22,96,67,67,67,54,9,14,3,4,0.3,0.7
2025-12-31T1400,4240A,98.4958,39.7339,酒泉市,玉门东路5号,颗粒物(PM10),67,83,84,25,28,58,58,52,50,2,6,10,10,0.3,0.5
2025-12-31T1400,4241A,98.5099,39.7506,酒泉市,北大街108号,颗粒物(PM10),73,95,79,12,17,61,61,54,54,11,15,10,10,0.2,0.4
2025-12-31T1400,2698A,76.0072,39.4467,喀什地区,巡警大队,细颗粒物(PM2.5),74,85,67,54,46,17,17,45,24,21,17,4,3,1.1,0.7
2025-12-31T1400,2699A,75.9755,39.4694,喀什地区,吾办,细颗粒物(PM2.5),88,80,70,65,53,29,29,39,31,20,16,6,10,0.9,0.8
2025-12-31T1400,4027A,75.9483,39.4689,喀什地区,老干局,颗粒物(PM10),72,93,77,50,50,39,39,39,37,12,15,2,2,0.8,0.9
2025-12-31T1400,1824A,114.3389,34.7781,开封市,肿瘤医院,,50,50,99,24,70,42,42,39,39,22,30,7,7,1.0,1.2
2025-12-31T1400,1826A,114.2885,34.7965,开封市,世纪星幼儿园,,42,42,90,23,80,43,43,40,40,24,32,5,6,0.4,0.6
2025-12-31T1400,3147A,114.3438,34.8106,开封市,龙亭公园,,46,46,95,15,67,43,43,40,40,16,30,5,6,1.1,1.1
2025-12-31T1400,3210A,114.3644,34.7964,开封市,汴京公园,颗粒物(PM10),56,62,107,20,72,44,44,40,40,21,31,6,7,0.7,0.8
2025-12-31T1400,3473A,114.2485,34.8306,开封市,技师学院,,49,49,90,23,66,43,43,39,39,21,31,7,8,0.5,0.8
2025-12-31T1400,3592A,114.4644,34.7556,开封市,祥符区生态环境局,,46,46,104,23,77,37,37,36,36,33,39,17,8,0.5,0.7
2025-12-31T1400,1951A,84.895,45.6094,克拉玛依市,长征新村,"颗粒物(PM10),细颗粒物(PM2.5)",53,56,46,37,33,73,73,40,40,54,31,7,6,1.3,0.8
2025-12-31T1400,1952A,84.8988,45.5893,克拉玛依市,南林小区,,43,43,44,30,28,36,36,43,22,24,16,2,2,1.4,1.1
2025-12-31T1400,1954A,84.905,44.3396,克拉玛依市,独山子区,细颗粒物(PM2.5),142,172,167,108,104,49,49,40,29,27,30,5,5,0.9,1
2025-12-31T1400,1955A,85.6979,46.098,克拉玛依市,乌尔禾区商贸楼,颗粒物(PM10),62,73,40,41,33,34,34,18,16,30,32,7,6,0.8,0.8
2025-12-31T1400,3612A,85.1045,45.6899,克拉玛依市,白碱滩区新站,颗粒物(PM10),55,59,44,28,29,32,32,44,30,33,19,9,8,0.7,0.6
2025-12-31T1400,2697A,76.1454,39.7142,克孜勒苏柯尔克孜自治州,市人民政府,细颗粒物(PM2.5),67,80,69,48,47,45,45,54,48,14,13,6,6,0.5,0.3
2025-12-31T1400,3665A,76.1658,39.7157,克孜勒苏柯尔克孜自治州,克州文化中心,细颗粒物(PM2.5),69,69,61,50,46,38,38,50,40,17,13,4,4,0.8,0.7
2025-12-31T1400,1450A,102.8204,24.8886,昆明市,呈贡新区,,29,24,27,8,12,90,90,59,59,5,20,3,4,0.3,0.5
2025-12-31T1400,1451A,102.6251,24.9608,昆明市,西山森林公园,,,,,,,,,,,,,,,,
2025-12-31T1400,1452A,102.7252,25.0902,昆明市,龙泉镇,,,,31,4,13,78,78,41,41,6,27,3,3,0.3,0.4
2025-12-31T1400,1453A,102.7266,25.0375,昆明市,东风东路,,25,13,22,9,14,78,78,57,57,12,19,4,5,0.3,0.4
2025-12-31T1400,1454A,102.6742,25.0669,昆明市,金鼎山,,25,11,32,3,16,78,78,46,46,5,21,2,4,0.3,0.4
2025-12-31T1400,1455A,102.6644,25.0401,昆明市,碧鸡广场,,25,11,29,9,18,78,78,46,46,6,25,2,5,0.3,0.5
2025-12-31T1400,3179A,102.7494,25.0119,昆明市,官渡区博物馆,,25,11,24,3,14,80,80,53,53,8,20,4,4,0.1,0.4
2025-12-31T1400,3375A,102.8017,24.8336,昆明市,青年创业园,,29,12,20,9,14,91,91,68,68,2,12,4,4,0.5,0.6
2025-12-31T1400,3550A,102.7997,24.9786,昆明市,昆明学院,,27,15,24,7,14,84,84,54,54,7,16,5,4,0.3,0.4
2025-12-31T1400,3551A,102.5967,24.6736,昆明市,晋宁区生态环境分局,,22,11,22,3,16,69,69,51,51,2,12,2,2,0.2,0.4
2025-12-31T1400,3552A,102.6678,24.9856,昆明市,云天化总部,,25,16,23,6,12,79,79,53,53,12,16,8,8,0.5,0.6
2025-12-31T1400,1456A,91.1319,29.6514,拉萨市,八廓街,,30,19,20,14,13,94,94,73,71,8,11,7,7,0.4,0.5
2025-12-31T1400,1457A,91.1221,29.6747,拉萨市,市环保局,,28,17,22,9,14,88,88,64,62,11,14,7,7,0.5,0.5
2025-12-31T1400,1458A,91.0874,29.6475,拉萨市,区监测站,,25,8,12,7,7,80,80,68,63,11,15,4,4,0.6,0.8
2025-12-31T1400,1459A,91.1774,29.6541,拉萨市,西藏大学,,30,10,14,3,6,93,93,72,69,10,13,5,5,0.3,0.3
2025-12-31T1400,1460A,90.9798,29.6588,拉萨市,区辐射站,,26,21,21,7,13,83,83,66,59,16,18,4,4,0.4,0.5
2025-12-31T1400,1461A,91.0834,29.6292,拉萨市,拉萨火车站,,28,14,16,10,8,88,88,64,57,11,17,4,4,0.4,0.5
2025-12-31T1400,2520A,109.2203,23.7256,来宾市,来宾技工学校,细颗粒物(PM2.5),74,68,72,54,52,119,119,47,47,9,32,8,10,0.4,0.7
2025-12-31T1400,3535A,109.1781,23.7297,来宾市,兴宾区政府,细颗粒物(PM2.5),68,67,64,49,46,121,121,58,58,9,17,8,7,0.6,0.7
2025-12-31T1400,4002A,109.2416,23.7461,来宾市,中南小学,细颗粒物(PM2.5),68,61,72,49,47,120,120,49,49,10,35,8,7,0.6,0.7
2025-12-31T1400,1477A,104.1373,35.9454,兰州市,榆中兰大校区,,,,,,,,,,,,,,,,
2025-12-31T1400,1479A,103.831,36.0464,兰州市,铁路设计院,,,,,,,,,,,,,,,,
2025-12-31T1400,3241A,103.7439,36.0842,兰州市,百合公园,细颗粒物(PM2.5),59,60,93,42,62,43,43,37,37,18,58,10,23,0.6,1.2
2025-12-31T1400,3242A,103.9611,35.998,兰州市,和平,细颗粒物(PM2.5),57,58,94,40,74,49,49,49,48,10,29,4,15,0.5,1.2
2025-12-31T1400,4236A,103.6293,36.0938,兰州市,庄浪东路808号,细颗粒物(PM2.5),64,64,91,46,58,53,53,47,47,22,50,15,23,0.6,1
2025-12-31T1400,4237A,103.7251,36.1043,兰州市,安宁西路88号,颗粒物(PM10),59,67,94,37,58,55,55,50,50,18,50,7,18,0.5,0.7
2025-12-31T1400,4238A,103.8470,36.0676,兰州市,北滨河东路1号,细颗粒物(PM2.5),57,58,82,40,56,53,53,45,45,18,50,11,17,0.8,1.1
2025-12-31T1400,3245A,103.6633,36.533,兰州新区,新区管委会,细颗粒物(PM2.5),59,50,73,42,45,64,64,53,53,11,23,16,20,0.6,0.6
2025-12-31T1400,3246A,103.6975,36.4789,兰州新区,舟曲中学,颗粒物(PM10),61,71,77,36,38,80,80,67,67,14,22,5,11,0.6,0.6
2025-12-31T1400,1067A,116.6708,39.5111,廊坊市,药材公司,,,4,13,,3,59,59,54,54,6,11,1,2,0.4,0.4
2025-12-31T1400,1068A,116.7214,39.5589,廊坊市,开发区,,19,6,8,3,4,60,60,56,56,6,13,1,2,0.2,0.2
2025-12-31T1400,1070A,116.7244,39.5269,廊坊市,北华航天学院,,19,10,14,3,4,59,59,54,54,7,15,3,2,0.2,0.2
2025-12-31T1400,2919A,116.7022,39.5453,廊坊市,河北工业大学,,19,13,14,3,3,58,58,53,53,8,14,1,2,0.3,0.2
2025-12-31T1400,2535A,103.7723,29.5462,乐山市,花湖湾,,,,,,,,,,,,,,,,
2025-12-31T1400,2536A,103.7627,29.5844,乐山市,牛耳桥,细颗粒物(PM2.5),84,63,92,62,82,58,58,27,27,15,25,7,8,0.6,1
2025-12-31T1400,2537A,103.7508,29.6006,乐山市,市第三水厂,细颗粒物(PM2.5),67,61,96,48,75,60,60,23,23,17,29,6,6,0.6,0.8
2025-12-31T1400,2538A,103.7571,29.5664,乐山市,市监测站,细颗粒物(PM2.5),84,74,91,62,78,51,51,27,27,14,21,7,7,1.1,1.1
2025-12-31T1400,3361A,103.7311,29.5628,乐山市,理工大学,细颗粒物(PM2.5),69,62,86,50,70,66,66,32,32,11,21,5,5,0.9,0.9
2025-12-31T1400,2598A,100.2143,26.8576,丽江市,西南郊,,,,,,,,,,,,,,,,
2025-12-31T1400,2599A,100.2497,26.8802,丽江市,丽江古城,,23,17,18,8,8,73,73,68,66,7,10,7,8,0.4,0.5
2025-12-31T1400,2600A,100.2203,26.8906,丽江市,市中心,,,10,13,,9,71,71,70,62,10,12,6,6,0.3,0.3
2025-12-31T1400,1267A,119.914,28.4514,丽水市,监测站大楼,,29,29,80,16,82,77,77,44,44,11,26,5,6,0.3,0.7
2025-12-31T1400,1268A,119.93,28.4586,丽水市,莲都小学,,25,16,100,7,64,80,80,48,48,13,30,5,5,0.2,0.5
2025-12-31T1400,1269A,119.879,28.4231,丽水市,余庄前,,25,15,89,10,68,77,77,37,37,12,23,4,4,0.2,0.5
2025-12-31T1400,1173A,119.176,34.5885,连云港市,市环境监测站,,19,19,34,9,17,60,60,53,53,9,15,10,10,0.5,0.5
2025-12-31T1400,3000A,119.3581,34.6972,连云港市,德源药业,颗粒物(PM10),51,51,64,12,20,61,61,55,55,14,27,3,5,0.7,0.8
2025-12-31T1400,3007A,119.178,34.844,连云港市,新城一中,,43,43,55,10,22,63,63,54,54,9,27,11,14,0.4,0.7
2025-12-31T1400,3008A,119.3608,34.7519,连云港市,胡沟管理处,,20,14,31,7,17,64,64,59,59,11,32,5,8,0.4,0.6
2025-12-31T1400,3009A,119.1478,34.5911,连云港市,矿山设计院,,24,24,37,3,16,64,64,58,58,11,18,7,7,0.7,0.8
2025-12-31T1400,3434A,119.2413,34.6539,连云港市,工贸学校,,19,16,27,8,19,60,60,50,50,8,11,10,10,0.5,0.6
2025-12-31T1400,3664A,119.4172,34.7341,连云港市,连云街道,,18,13,26,6,17,56,56,53,53,17,20,4,9,0.4,0.5
2025-12-31T1400,2571A,102.3431,27.8099,凉山彝族自治州,青龙寺,,,,,,,,,,,,,,,,
2025-12-31T1400,2572A,102.2721,27.8415,凉山彝族自治州,邛海宾馆,,43,42,50,30,41,100,100,46,46,11,18,17,10,0.8,0.6
2025-12-31T1400,2573A,102.2625,27.898,凉山彝族自治州,西昌市政府,,,53,43,43,32,76,76,37,37,,16,,9,1.2,0.8
2025-12-31T1400,2574A,102.2685,27.8851,凉山彝族自治州,凉山州政府,细颗粒物(PM2.5),54,53,50,38,36,78,78,32,32,16,21,17,10,0.9,0.8
2025-12-31T1400,4229A,102.2342,27.8859,凉山彝族自治州,凯乐南路30号,细颗粒物(PM2.5),67,68,60,48,40,66,66,24,24,35,36,18,10,1.3,0.9
2025-12-31T1400,2212A,123.2,41.1953,辽阳市,宏伟区,,31,31,27,15,18,46,46,45,45,3,10,5,6,0.3,0.6
2025-12-31T1400,2213A,123.1683,41.2495,辽阳市,新华园,,17,17,30,7,13,48,48,38,38,8,16,5,8,0.4,0.8
2025-12-31T1400,2214A,123.2354,41.2639,辽阳市,滨河路,,19,19,30,10,16,46,46,41,41,3,14,4,5,0.6,0.6
2025-12-31T1400,2215A,123.149,41.2991,辽阳市,铁西工业园,,18,18,33,9,22,45,45,31,31,8,26,8,9,0.4,0.6
2025-12-31T1400,2227A,125.1358,42.8845,辽源市,环保局,颗粒物(PM10),56,62,72,11,12,49,49,41,41,5,10,2,3,0.6,0.5
2025-12-31T1400,3239A,125.0764,42.9078,辽源市,银鹰制药,,,34,37,13,22,45,45,34,34,8,18,5,6,,0.6
2025-12-31T1400,1625A,115.9848,36.4372,聊城市,区政府,,35,35,62,11,36,52,52,38,38,24,38,17,19,0.7,0.9
2025-12-31T1400,2878A,116.0072,36.4343,聊城市,聊大东校,,39,39,68,22,39,53,53,40,40,23,35,17,16,0.8,1
2025-12-31T1400,3200A,115.9819,36.4978,聊城市,监控中心,,29,29,58,7,38,56,56,41,41,17,26,15,14,0.4,0.6
2025-12-31T1400,3513A,116.0445,36.4361,聊城市,九州社区,,43,43,71,12,37,62,62,46,46,13,25,9,9,0.6,0.7
2025-12-31T1400,4018A,116.0567,36.4608,聊城市,星美广场,,49,49,77,12,37,55,55,40,40,14,29,11,9,0.6,0.8
2025-12-31T1400,2632A,94.3681,29.6376,林芝市,林芝监测站,,25,6,8,3,5,78,78,55,55,3,4,4,5,0.3,0.3
2025-12-31T1400,2633A,94.3616,29.6616,林芝市,林芝人民医院,,24,6,11,3,6,76,76,51,51,3,4,4,4,0.4,0.4
2025-12-31T1400,2603A,100.0781,23.8982,临沧市,市环保局,,46,,31,32,35,88,88,37,37,3,12,4,4,0.3,0.5
2025-12-31T1400,2604A,100.0894,23.8822,临沧市,市气象局,,28,28,36,8,19,87,87,36,36,4,13,7,6,0.2,0.4
2025-12-31T1400,1733A,111.5531,36.0783,临汾市,临钢医院,细颗粒物(PM2.5),73,88,113,53,63,28,28,29,26,26,33,9,14,0.8,0.9
2025-12-31T1400,1734A,111.5028,36.0714,临汾市,技工学校,细颗粒物(PM2.5),70,74,105,51,59,25,25,22,22,27,39,6,15,0.9,1.1
2025-12-31T1400,1736A,111.5018,36.0855,临汾市,市委,细颗粒物(PM2.5),75,89,119,55,61,28,28,26,26,29,41,8,18,1.4,1.5
2025-12-31T1400,3018A,111.505,36.1014,临汾市,唐尧大酒店,颗粒物(PM10),68,86,107,46,55,25,25,24,24,30,43,5,14,1.0,1.1
2025-12-31T1400,4244A,111.4879,36.0530,临汾市,启星学校,细颗粒物(PM2.5),64,62,102,46,58,27,27,25,25,30,42,5,18,0.9,1.1
2025-12-31T1400,4271A,103.2464,35.6123,临夏回族自治州,滨河东路1号,颗粒物(PM10),91,132,162,49,102,53,53,26,26,18,38,14,9,0.8,1.7
2025-12-31T1400,4310A,103.2093,35.5995,临夏回族自治州,新华街21号,颗粒物(PM10),69,87,141,44,99,50,50,21,21,21,39,17,15,0.7,1.6
2025-12-31T1400,1618A,118.3429,35.0532,临沂市,沂河小区,,36,36,65,23,52,57,57,50,50,22,31,10,11,0.4,0.6
2025-12-31T1400,1619A,118.295,35.0583,临沂市,鲁南制药厂,,31,31,60,18,44,60,60,52,52,21,32,12,12,0.4,0.6
2025-12-31T1400,1620A,118.2794,34.9976,临沂市,新光毛纺厂,,,29,62,18,47,56,56,50,50,16,28,,12,0.3,0.6
2025-12-31T1400,1621A,118.3956,35.0888,临沂市,河东保险公司,,,,64,,40,61,61,50,50,10,27,,10,0.5,0.7
2025-12-31T1400,3370A,118.3564,35.0215,临沂市,十里堡居委,,27,27,60,3,30,61,61,52,52,20,34,9,10,0.4,0.7
2025-12-31T1400,3496A,118.3604,35.1084,临沂市,南坊新区,,,31,57,12,39,62,62,51,51,18,30,,10,,0.7
2025-12-31T1400,3860A,118.3920,35.0300,临沂市,皇山花园小区,,31,31,60,11,37,66,66,57,57,14,29,12,13,0.4,0.7
2025-12-31T1400,1870A,109.4856,24.3895,柳州市,柳东小学,细颗粒物(PM2.5),78,70,60,57,46,58,58,52,49,33,26,10,9,0.8,0.7
2025-12-31T1400,1871A,109.4157,24.3277,柳州市,环保监测站,细颗粒物(PM2.5),74,58,69,54,46,71,71,47,45,30,37,9,7,0.8,0.8
2025-12-31T1400,1872A,109.389,24.341,柳州市,河西水厂,细颗粒物(PM2.5),79,83,85,58,47,76,76,35,32,28,39,8,6,1.0,1
2025-12-31T1400,1873A,109.4311,24.2921,柳州市,市四中,,,,72,,51,83,83,42,42,26,41,12,10,0.8,1
2025-12-31T1400,1874A,109.4006,24.3631,柳州市,市九中,细颗粒物(PM2.5),79,94,72,58,45,67,67,46,38,33,37,12,10,0.9,1
2025-12-31T1400,1875A,109.4958,24.3134,柳州市,古亭山,颗粒物(PM10),63,75,56,41,36,81,81,43,40,18,33,11,10,0.6,0.6
2025-12-31T1400,3402A,109.5422,24.3996,柳州市,市二中,细颗粒物(PM2.5),64,68,59,46,45,65,65,38,38,29,35,10,8,0.7,0.7
2025-12-31T1400,2307A,116.5079,31.737,六安市,监测大楼,,27,27,79,7,64,58,58,51,51,21,27,4,4,0.3,0.6
2025-12-31T1400,2308A,116.4738,31.7643,六安市,皖西学院,,33,33,87,7,61,64,64,53,53,22,26,3,3,0.3,0.5
2025-12-31T1400,2309A,116.4996,31.7905,六安市,朝阳厂,,21,21,74,6,58,61,61,50,50,22,28,3,4,0.4,0.6
2025-12-31T1400,2310A,116.5567,31.7886,六安市,开发区,,23,23,80,10,54,61,61,52,52,22,25,2,2,0.3,0.5
2025-12-31T1400,2576A,104.8,26.5892,六盘水市,窑上,,,,38,33,28,68,68,38,38,13,10,5,3,0.4,0.5
2025-12-31T1400,2577A,104.83,26.5917,六盘水市,黄土坡,,33,32,41,23,30,67,67,32,32,15,21,10,10,0.5,0.9
2025-12-31T1400,2578A,104.89,26.5939,六盘水市,水钢,,38,38,35,25,25,70,70,50,50,9,11,6,5,0.4,0.5
2025-12-31T1400,2579A,104.8475,26.5894,六盘水市,民中,,35,27,42,24,36,69,69,28,28,10,20,7,7,0.4,0.9
2025-12-31T1400,2580A,104.9544,26.5506,六盘水市,双水,,41,41,35,18,24,70,70,52,52,7,11,5,4,0.3,0.1
2025-12-31T1400,2335A,117.0189,25.1181,龙岩市,龙岩师专,,,,,,,,,,,,,,,,
2025-12-31T1400,2336A,117.0217,25.1033,龙岩市,龙岩市监测站,,31,30,34,17,23,98,98,80,80,14,27,10,21,0.5,0.6
2025-12-31T1400,2337A,117.0258,25.0661,龙岩市,闽西职业技术学院,,33,28,38,16,27,104,104,83,83,12,22,9,13,0.5,0.6
2025-12-31T1400,2338A,117.0196,25.0306,龙岩市,龙岩学院,,40,40,35,20,25,101,101,66,66,13,18,12,10,0.5,0.5
2025-12-31T1400,2665A,105.0822,33.3261,陇南市,汉王镇固水子,,,,,,,,,,,,,,,,
2025-12-31T1400,2885A,104.9339,33.3826,陇南市,滨江中学,颗粒物(PM10),70,89,71,37,39,24,24,24,20,31,20,9,7,1.1,0.9
2025-12-31T1400,3247A,104.955,33.371,陇南市,市总工会,颗粒物(PM10),62,74,70,34,41,50,50,23,23,14,18,4,4,1.0,1
2025-12-31T1400,2487A,111.9589,27.8901,娄底市,电视发射台,,,,,,,,,,,,,,,,
2025-12-31T1400,2488A,111.9975,27.725,娄底市,市监测站,细颗粒物(PM2.5),180,164,145,136,124,56,56,65,57,21,26,5,8,0.8,0.8
2025-12-31T1400,2489A,112.0194,27.7314,娄底市,市委党校,细颗粒物(PM2.5),182,165,150,137,119,57,57,69,52,33,33,6,7,0.8,0.8
2025-12-31T1400,2490A,111.9561,27.7569,娄底市,涟钢,细颗粒物(PM2.5),210,162,150,160,119,36,36,58,42,34,26,7,8,1.2,0.9
2025-12-31T1400,2491A,111.9892,27.7044,娄底市,市政府,细颗粒物(PM2.5),180,,129,136,119,50,50,41,38,24,24,6,6,0.8,0.7
2025-12-31T1400,1893A,105.4324,28.9634,泸州市,九狮山,,,,,,,,,,,,,,,,
2025-12-31T1400,1894A,105.4427,28.9063,泸州市,小市上码头,细颗粒物(PM2.5),68,57,64,49,47,34,34,27,23,23,22,10,10,0.8,0.8
2025-12-31T1400,1895A,105.4241,28.8573,泸州市,兰田宪桥,细颗粒物(PM2.5),63,50,61,45,51,39,39,26,25,15,18,8,7,0.9,0.9
2025-12-31T1400,1896A,105.4379,28.8833,泸州市,市环监站,细颗粒物(PM2.5),60,53,62,43,48,39,39,25,21,15,20,8,8,0.7,0.6
2025-12-31T1400,4272A,105.3689,28.7783,泸州市,纳溪中医医院,细颗粒物(PM2.5),64,58,53,46,49,40,40,29,20,15,18,7,7,0.8,0.8
2025-12-31T1400,2183A,111.1406,37.5211,吕梁市,环保局,细颗粒物(PM2.5),97,108,80,72,38,31,31,16,16,32,36,11,9,0.8,0.5
2025-12-31T1400,2185A,111.1297,37.5136,吕梁市,自来水公司,细颗粒物(PM2.5),103,118,90,77,44,36,36,18,18,30,35,12,10,1.0,0.6
2025-12-31T1400,2867A,111.1283,37.51,吕梁市,马茂庄小学,,,,87,,38,29,29,13,13,28,37,,9,1.1,0.8
2025-12-31T1400,1812A,112.3931,34.6516,洛阳市,市委党校,,44,44,107,12,77,59,59,56,56,21,38,9,11,0.4,0.7
2025-12-31T1400,1815A,112.494,34.6886,洛阳市,河南林校,颗粒物(PM10),52,54,112,11,81,61,61,57,57,18,35,6,9,0.5,0.8
2025-12-31T1400,1816A,112.3844,34.623,洛阳市,开发区管委会,,46,46,128,17,92,57,57,55,55,18,30,9,11,0.5,0.8
2025-12-31T1400,1817A,112.4267,34.6258,洛阳市,市委新办公区,,,,130,69,94,57,57,55,55,,37,,11,0.4,0.7
2025-12-31T1400,3340A,112.6005,34.6326,洛阳市,伊滨,,48,48,138,20,88,58,58,56,56,18,34,8,9,0.6,0.8
2025-12-31T1400,3341A,112.4951,34.6332,洛阳市,中移产业园,,49,49,116,16,89,53,53,52,52,22,45,10,11,0.4,0.7
2025-12-31T1400,3593A,112.5736,34.8993,洛阳市,吉利监测站,颗粒物(PM10),51,52,99,12,71,59,59,56,56,21,34,9,10,0.5,0.8
2025-12-31T1400,3635A,112.3677,34.662,洛阳市,河科大西苑校区,颗粒物(PM10),54,57,118,13,74,60,60,57,57,18,35,8,11,0.7,1
2025-12-31T1400,3636A,112.4388,34.6781,洛阳市,英才小学,,49,49,118,19,83,62,62,60,60,26,40,8,10,0.4,0.9
2025-12-31T1400,4214A,112.4600,34.6949,洛阳市,春都路1号院,颗粒物(PM10),56,61,127,14,69,55,55,53,53,19,31,8,10,0.6,0.8
2025-12-31T1400,2399A,114.051,33.5699,漯河市,三五一五工厂,颗粒物(PM10),73,95,155,52,116,44,44,31,31,19,26,8,8,0.6,0.9
2025-12-31T1400,2400A,114.0055,33.5698,漯河市,漯河大学,细颗粒物(PM2.5),77,89,140,56,106,46,46,32,32,20,27,7,8,0.6,0.8
2025-12-31T1400,2401A,114.0138,33.5828,漯河市,市水利局,细颗粒物(PM2.5),73,85,141,53,108,41,41,29,29,24,30,8,8,0.7,0.9
2025-12-31T1400,2402A,114.0261,33.5698,漯河市,市广电局,颗粒物(PM10),72,93,144,51,109,45,45,31,31,17,24,8,8,0.6,0.8
2025-12-31T1400,3478A,113.9749,33.5664,漯河市,市图书馆,细颗粒物(PM2.5),77,94,157,56,114,42,42,30,30,20,26,5,7,0.8,1
2025-12-31T1400,4250A,114.0892,33.5882,漯河市,韶山路11号,细颗粒物(PM2.5),80,95,151,59,111,40,40,26,26,21,30,9,10,0.8,0.9
2025-12-31T1400,1798A,118.5092,31.6837,马鞍山市,湖东路四小,,26,26,53,10,29,77,77,66,66,13,21,3,4,0.3,0.4
2025-12-31T1400,1799A,118.5024,31.6449,马鞍山市,开发区,,32,32,63,11,34,79,79,69,69,13,23,4,5,0.4,0.5
2025-12-31T1400,1802A,118.6245,31.7241,马鞍山市,濮塘,,,,,,,,,,,,,,,,
2025-12-31T1400,3633A,118.4918,31.6809,马鞍山市,雨山,,25,25,58,11,30,80,80,69,69,11,19,5,6,0.4,0.5
2025-12-31T1400,4191A,118.5274,31.72227,马鞍山市,慈湖高新区,,,24,47,,33,81,81,69,69,9,18,4,5,0.4,0.5
2025-12-31T1400,1686A,111.0286,21.4688,茂名市,电白南海,颗粒物(PM10),64,78,66,41,40,138,138,92,92,18,26,13,13,0.9,0.8
2025-12-31T1400,1687A,110.9294,21.6533,茂名市,茂石化七小,颗粒物(PM10),54,58,64,36,38,123,123,77,77,17,27,9,11,0.3,0.4
2025-12-31T1400,1688A,110.9107,21.6687,茂名市,健康路,颗粒物(PM10),53,56,56,34,38,136,136,90,90,18,22,12,13,0.7,0.7
2025-12-31T1400,1689A,110.8592,21.6828,茂名市,高岭,颗粒物(PM10),64,78,87,34,42,129,129,72,72,21,31,17,18,0.7,0.8
2025-12-31T1400,3450A,111.01,21.5165,茂名市,电白水东,细颗粒物(PM2.5),62,68,59,44,37,127,127,93,93,22,21,12,13,0.7,0.6
2025-12-31T1400,2539A,104.0308,30.0478,眉山市,黑龙滩水库,,,,,,,,,,,,,,,,
2025-12-31T1400,2540A,103.8416,30.0874,眉山市,气象局,细颗粒物(PM2.5),138,112,111,105,90,47,47,25,25,20,26,14,10,,0.9
2025-12-31T1400,3137A,103.8578,30.0744,眉山市,市委党校,细颗粒物(PM2.5),117,105,101,88,85,45,45,21,21,19,25,12,8,0.9,0.9
2025-12-31T1400,3148A,103.8291,30.0564,眉山市,区人社局,细颗粒物(PM2.5),107,100,105,80,88,48,48,24,24,20,25,8,8,0.7,0.8
2025-12-31T1400,1690A,116.1231,24.3284,梅州市,梅江月梅,,,35,48,26,32,107,107,43,43,,32,,6,0.5,0.6
2025-12-31T1400,1691A,116.0797,24.2719,梅州市,梅县新城,,39,38,54,27,38,107,107,45,45,16,39,10,9,0.6,0.7
2025-12-31T1400,1692A,116.1248,24.2654,梅州市,环境监控中心,,46,43,54,32,32,102,102,42,42,15,38,8,9,0.5,0.6
2025-12-31T1400,3315A,116.1233,24.2991,梅州市,梅龙,,36,36,53,22,33,103,103,41,41,12,36,10,11,0.5,0.8
2025-12-31T1400,1878A,104.7778,31.4741,绵阳市,富乐山,,49,38,98,34,87,42,42,18,18,15,20,11,11,0.6,0.8
2025-12-31T1400,1880A,104.6697,31.4668,绵阳市,高新区自来水公司,,39,,104,27,84,31,31,10,10,18,30,8,8,0.6,0.7
2025-12-31T1400,1881A,104.7287,31.5075,绵阳市,三水厂,细颗粒物(PM2.5),73,67,119,53,95,34,34,12,12,26,33,7,7,0.7,0.9
2025-12-31T1400,3491A,104.69,31.5322,绵阳市,西科大附属小学,,28,26,109,19,84,36,36,14,14,13,28,8,8,0.8,1
2025-12-31T1400,3492A,104.5648,31.5343,绵阳市,安州区旅游局,细颗粒物(PM2.5),64,,84,46,91,34,34,11,11,20,31,15,14,0.8,1
2025-12-31T1400,4226A,104.7651,31.4531,绵阳市,绵阳市气象局,,26,26,94,18,80,40,40,20,20,13,21,4,8,1.2,1.4
2025-12-31T1400,1784A,129.61,44.561,牡丹江市,环保大楼,颗粒物(PM10),52,53,38,11,22,45,45,40,40,5,9,7,8,0.6,0.6
2025-12-31T1400,1785A,129.6115,44.5782,牡丹江市,文化广场,,45,45,35,23,25,41,41,40,40,8,9,3,4,0.4,0.5
2025-12-31T1400,1787A,129.6364,44.6075,牡丹江市,机车工厂,,41,41,38,22,23,47,47,43,43,5,11,2,3,0.2,0.3
2025-12-31T1400,1788A,129.6386,44.5462,牡丹江市,第一中学,,,28,26,19,18,41,41,38,38,3,7,,4,0.3,0.3
2025-12-31T1400,4287A,129.5992,44.5964,牡丹江市,东晓云街98号,,46,46,33,25,27,42,42,38,38,4,7,3,4,0.5,0.5
2025-12-31T1400,2531A,105.0703,29.61,内江市,市监测站,细颗粒物(PM2.5),102,,65,76,64,37,37,41,34,25,18,6,5,1.0,0.9
2025-12-31T1400,2532A,105.0717,29.5947,内江市,东兴区政府,细颗粒物(PM2.5),97,72,64,72,61,29,29,30,21,30,23,5,4,0.7,0.6
2025-12-31T1400,2533A,105.0653,29.5817,内江市,内江二中,细颗粒物(PM2.5),95,109,76,71,63,30,30,31,22,27,24,4,4,0.9,0.8
2025-12-31T1400,2534A,105.0406,29.5822,内江市,内江日报社,细颗粒物(PM2.5),90,81,68,67,59,36,36,28,19,28,27,3,2,0.7,0.7
2025-12-31T1400,2628A,92.0657,31.4846,那曲市,那曲监测站,,,35,47,,30,77,77,50,50,18,29,10,12,,1.5
2025-12-31T1400,4243A,92.0515,31.4787,那曲市,那曲市委宣传部,,23,7,29,3,18,72,72,36,36,8,16,14,10,0.3,1
2025-12-31T1400,1290A,115.8931,28.6843,南昌市,省外办,细颗粒物(PM2.5),94,76,134,70,112,103,103,78,73,24,35,8,9,1.2,1.5
2025-12-31T1400,1291A,115.8886,28.7003,南昌市,省林业公司,细颗粒物(PM2.5),85,70,127,63,104,100,100,70,68,9,25,4,5,0.9,1.2
2025-12-31T1400,1292A,115.8126,28.7442,南昌市,林科所,颗粒物(PM10),68,85,139,46,94,92,92,80,67,17,23,5,6,0.3,0.6
2025-12-31T1400,1294A,115.8518,28.687,南昌市,建工学校,细颗粒物(PM2.5),88,89,148,65,107,90,90,67,60,22,32,12,13,0.6,0.9
2025-12-31T1400,1295A,115.8921,28.6424,南昌市,象湖,细颗粒物(PM2.5),83,85,118,61,106,95,95,68,64,16,26,9,10,0.8,1.1
2025-12-31T1400,1296A,115.7423,28.7996,南昌市,武术学校,,,,,,,,,,,,,,,,
2025-12-31T1400,3046A,115.9084,28.6062,南昌市,机电学校,细颗粒物(PM2.5),89,95,147,66,110,103,103,74,71,15,25,6,6,0.7,0.9
2025-12-31T1400,3690A,115.9721,28.7031,南昌市,外国语学校,细颗粒物(PM2.5),75,88,146,55,108,94,94,66,63,15,26,11,13,0.6,0.8
2025-12-31T1400,4192A,115.9316,28.68677,南昌市,南京东路235号,细颗粒物(PM2.5),95,85,133,71,124,99,99,71,68,23,34,5,7,0.3,0.6
2025-12-31T1400,1905A,106.056,30.8064,南充市,西山风景区,,,,,,,,,,,,,,,,
2025-12-31T1400,1906A,106.0789,30.8023,南充市,南充市委,细颗粒物(PM2.5),80,59,84,59,77,6,6,14,6,29,26,4,4,0.9,0.8
2025-12-31T1400,1907A,106.1031,30.8217,南充市,南充炼油厂,细颗粒物(PM2.5),89,68,88,66,83,13,13,17,9,19,21,5,5,0.6,0.9
2025-12-31T1400,4227A,106.1083,30.7884,南充市,梨树横街98号,细颗粒物(PM2.5),68,55,80,49,70,11,11,9,9,24,25,5,5,0.7,0.8
2025-12-31T1400,4304A,106.1172,30.843,南充市,清泉寺北路188号,细颗粒物(PM2.5),69,50,72,50,67,14,14,18,10,22,19,6,5,1.0,0.9
2025-12-31T1400,4305A,106.067,30.7616,南充市,同庆路1号,细颗粒物(PM2.5),64,,76,46,70,10,10,18,8,24,26,6,6,3.7,1.2
2025-12-31T1400,1151A,118.8086,32.1065,南京市,迈皋桥,,36,36,37,19,17,71,71,64,64,11,15,3,4,1.0,0.8
2025-12-31T1400,1152A,118.7538,32.0551,南京市,草场门,,39,39,39,12,18,63,63,55,55,20,24,6,6,0.2,0.3
2025-12-31T1400,1153A,118.7794,32.0745,南京市,山西路,,39,39,41,17,16,72,72,62,62,16,24,4,4,0.3,0.3
2025-12-31T1400,1154A,118.7752,32.0023,南京市,中华门,,41,41,37,17,19,71,71,62,62,2,7,5,5,0.3,0.3
2025-12-31T1400,1155A,118.8109,32.0309,南京市,瑞金路,,31,31,35,14,21,57,57,57,52,26,18,4,4,0.5,0.5
2025-12-31T1400,1156A,118.7997,32.0754,南京市,玄武湖,,31,31,38,11,16,65,65,55,55,19,23,4,4,0.3,0.4
2025-12-31T1400,1157A,118.6414,32.0931,南京市,浦口,,39,39,47,11,26,65,65,57,57,19,28,8,8,0.4,0.4
2025-12-31T1400,1158A,118.7356,31.9996,南京市,奥体中心,,37,37,41,14,20,80,80,73,73,15,17,4,4,0.3,0.3
2025-12-31T1400,1159A,118.9125,32.1028,南京市,仙林大学城,,41,41,38,12,25,64,64,59,59,17,22,7,6,0.5,0.6
2025-12-31T1400,3422A,118.8436,31.9198,南京市,江宁彩虹桥,,30,30,45,14,21,76,76,65,65,10,16,4,4,0.2,0.3
2025-12-31T1400,3427A,118.8554,32.3578,南京市,六合雄州,,47,47,31,28,17,51,51,60,59,13,15,3,7,0.5,0.4
2025-12-31T1400,4249A,118.8708,31.3402,南京市,汶溪路181号,,,,67,30,46,72,72,61,61,22,31,9,7,0.5,0.5
2025-12-31T1400,4312A,119.019,31.6512,南京市,中山西路1号,颗粒物(PM10),51,51,46,18,35,66,66,55,55,20,28,3,4,0.3,0.9
2025-12-31T1400,1401A,108.3103,22.7881,南宁市,二十一中,"颗粒物(PM10),细颗粒物(PM2.5)",52,53,64,36,52,112,112,79,79,12,21,6,6,0.7,0.8
2025-12-31T1400,1402A,108.3141,22.8528,南宁市,北湖,,50,50,74,33,55,123,123,80,80,14,37,5,5,0.8,1
2025-12-31T1400,1403A,108.3206,22.8225,南宁市,市监测站,颗粒物(PM10),55,59,70,38,52,114,114,80,80,9,22,8,8,0.6,0.9
2025-12-31T1400,1404A,108.3829,22.8037,南宁市,大自然花园,,,,68,,53,129,129,85,85,11,23,8,7,,0.8
2025-12-31T1400,1405A,108.4394,22.7904,南宁市,仙葫,,,,,,,,,,,,,,,,
2025-12-31T1400,1406A,108.2397,22.8467,南宁市,区农职院,,46,46,73,32,53,116,116,72,72,13,38,9,9,0.9,1
2025-12-31T1400,1407A,108.3275,22.735,南宁市,英华嘉园,颗粒物(PM10),58,65,72,34,56,117,117,76,76,15,36,5,5,0.6,0.8
2025-12-31T1400,3401A,108.4834,22.7618,南宁市,红星社区,"颗粒物(PM10),细颗粒物(PM2.5)",53,55,71,37,54,136,136,85,85,8,30,7,6,0.7,0.8
2025-12-31T1400,4221A,108.2177,22.7774,南宁市,乐贤路16号,,,,78,32,52,109,109,73,73,,47,3,4,0.6,0.9
2025-12-31T1400,2331A,118.0966,26.6761,南平市,茫荡山,,,,37,,22,,,88,,,,,1,,
2025-12-31T1400,2332A,118.1681,26.6369,南平市,南平市监测站,,43,43,37,26,29,106,106,61,61,10,27,8,5,0.6,0.8
2025-12-31T1400,2333A,118.1825,26.6489,南平市,南平铝业有限公司,,46,44,40,32,30,103,103,52,52,10,29,9,7,0.6,0.8
2025-12-31T1400,2334A,118.1756,26.6272,南平市,南平七中,,45,45,38,29,28,105,105,57,57,10,24,8,7,0.6,0.7
2025-12-31T1400,1168A,120.9098,31.9663,南通市,狼山街道,,,,23,32,10,68,68,62,62,,15,3,3,0.4,0.5
2025-12-31T1400,1169A,120.86,32.0005,南通市,虹桥,,39,39,24,17,12,64,64,61,61,15,20,2,2,0.3,0.3
2025-12-31T1400,1170A,120.87,32.02,南通市,城中,颗粒物(PM10),51,52,31,15,13,60,60,58,58,16,21,4,4,0.4,0.4
2025-12-31T1400,1171A,120.94,31.93,南通市,星湖花园,,,50,25,20,11,68,68,63,63,11,18,4,4,,0.5
2025-12-31T1400,1172A,120.81,32.0417,南通市,紫琅学院,,44,44,30,13,10,67,67,60,60,12,23,3,4,0.6,0.5
2025-12-31T1400,3291A,121.067,32.062,南通市,通州监测站,,41,41,19,14,7,74,74,72,72,17,18,3,3,0.5,0.4
2025-12-31T1400,3432A,120.9348,31.9883,南通市,环境教育馆,,46,46,26,19,9,73,73,65,65,11,20,4,4,0.4,0.3
2025-12-31T1400,2404A,112.5224,33.0122,南阳市,瓦房庄,细颗粒物(PM2.5),80,94,153,59,131,43,43,48,41,17,20,6,9,0.8,1
2025-12-31T1400,2405A,112.5003,32.9735,南阳市,汉画馆,细颗粒物(PM2.5),73,88,160,53,120,42,42,50,41,18,23,6,8,0.7,0.9
2025-12-31T1400,2406A,112.5573,33.027,南阳市,气象站,颗粒物(PM10),77,103,180,48,119,46,46,50,42,18,23,6,8,0.5,0.8
2025-12-31T1400,2407A,112.5481,32.9689,南阳市,理工学院,颗粒物(PM10),69,88,154,42,103,45,45,49,41,18,23,6,8,0.7,0.9
2025-12-31T1400,4008A,112.5234,32.9922,南阳市,卧龙区政府,细颗粒物(PM2.5),78,87,171,57,120,42,42,47,40,20,24,5,8,0.8,1
2025-12-31T1400,1234A,121.8358,29.911,宁波市,区环保大楼,,40,40,29,15,18,77,77,67,67,17,31,5,5,0.5,0.4
2025-12-31T1400,1235A,121.56,29.82,宁波市,万里学院,,36,36,33,14,12,81,81,71,71,18,20,6,5,0.4,0.5
2025-12-31T1400,1236A,121.713,29.9572,宁波市,龙赛医院,,42,42,26,12,8,81,81,75,75,13,15,4,3,0.4,0.3
2025-12-31T1400,1239A,121.633,29.7733,宁波市,钱湖水厂,,38,38,26,13,13,83,83,69,69,17,22,6,6,0.5,0.5
2025-12-31T1400,1240A,121.5856,29.8635,宁波市,太古小学,,40,40,25,15,13,83,83,75,75,16,13,3,3,0.4,0.4
2025-12-31T1400,1241A,121.524,29.8674,宁波市,市环境监测中心,,32,32,33,11,9,78,78,72,72,15,15,7,6,0.5,0.5
2025-12-31T1400,2871A,121.6147,29.9017,宁波市,万里国际学校,,36,36,35,14,10,84,84,76,76,17,17,5,4,0.4,0.3
2025-12-31T1400,3710A,121.5594,29.8975,宁波市,白沙活动中心,,32,32,36,14,11,80,80,72,72,15,18,6,5,0.3,0.3
2025-12-31T1400,2339A,119.5001,26.6946,宁德市,金涵水库,,,,48,,33,,,72,,,13,,2,,0.5
2025-12-31T1400,2341A,119.5388,26.6612,宁德市,宁德市监测站,,37,37,43,19,34,91,91,65,65,18,26,9,7,0.5,0.6
2025-12-31T1400,3209A,119.5231,26.6562,宁德市,宁德一中,,39,37,45,27,39,96,96,74,74,16,19,8,7,0.5,0.6
2025-12-31T1400,2618A,98.8601,25.8567,怒江傈僳族自治州,州监测站,,25,20,34,13,22,79,79,40,40,6,15,8,7,0.3,0.5
2025-12-31T1400,2619A,98.8546,25.8417,怒江傈僳族自治州,泸水一中,,36,,28,25,22,69,69,29,29,7,19,6,6,0.5,0.7
2025-12-31T1400,1888A,101.6891,26.571,攀枝花市,弄弄坪,,37,37,76,23,42,75,75,24,24,22,43,26,18,1.5,1.5
2025-12-31T1400,1889A,101.5769,26.5928,攀枝花市,河门口,,30,30,52,16,31,73,73,28,28,16,27,24,25,1.5,1.4
2025-12-31T1400,1890A,101.7169,26.585,攀枝花市,炳草岗,,34,34,96,13,57,77,77,28,28,19,44,13,12,0.9,1.1
2025-12-31T1400,1891A,101.7369,26.5008,攀枝花市,仁和,,31,31,42,20,25,81,81,35,35,16,23,15,11,0.7,0.9
2025-12-31T1400,2835A,101.7227,26.567,攀枝花市,四十中小,细颗粒物(PM2.5),54,54,80,38,52,73,73,26,26,15,45,18,17,0.7,1.4
2025-12-31T1400,1604A,122.0303,41.1489,盘锦市,开发区,,16,11,25,8,8,49,49,41,41,2,8,1,4,0.5,0.5
2025-12-31T1400,1605A,122.0485,41.0883,盘锦市,兴隆台,,18,18,22,6,8,48,48,37,36,10,15,5,5,0.6,0.6
2025-12-31T1400,1606A,121.8297,41.1028,盘锦市,新生街道,,18,18,20,3,6,51,51,36,36,6,20,4,4,0.3,0.4
2025-12-31T1400,1832A,113.3257,33.742,平顶山市,新华旅馆,颗粒物(PM10),67,84,148,32,97,47,47,38,38,22,34,8,10,0.7,1
2025-12-31T1400,1833A,113.2919,33.737,平顶山市,规划设计院,颗粒物(PM10),61,71,165,31,104,49,49,41,41,25,38,7,8,0.5,0.7
2025-12-31T1400,1834A,113.182,33.774,平顶山市,平顶山工学院,颗粒物(PM10),60,69,149,24,101,54,54,46,46,20,30,8,9,0.4,0.7
2025-12-31T1400,3204A,113.3025,33.73,平顶山市,规划局,颗粒物(PM10),67,83,159,29,103,52,52,43,43,19,31,8,9,0.7,0.9
2025-12-31T1400,3594A,112.8867,33.9116,平顶山市,石龙区,颗粒物(PM10),60,70,149,42,105,54,54,53,53,22,31,5,8,0.6,0.9
2025-12-31T1400,2656A,106.6692,35.5461,平凉市,聚贤嘉苑,,36,36,83,23,53,68,68,57,57,6,42,4,8,0.7,0.9
2025-12-31T1400,2657A,106.7021,35.5307,平凉市,博物馆,,45,42,86,31,59,71,71,55,55,10,39,12,12,0.6,1
2025-12-31T1400,2347A,114.0997,27.5002,萍乡市,武功山,,,,,,,,,,,,,,,,
2025-12-31T1400,2348A,113.8385,27.6434,萍乡市,中医院,细颗粒物(PM2.5),127,138,154,96,107,134,134,86,86,23,40,9,11,1.0,1.5
2025-12-31T1400,2349A,113.8493,27.6253,萍乡市,市政府车库,细颗粒物(PM2.5),113,116,143,85,101,138,138,78,78,17,32,10,11,1.3,1.5
2025-12-31T1400,2350A,113.8676,27.6435,萍乡市,市环保局,细颗粒物(PM2.5),110,114,125,83,98,158,158,105,105,21,39,16,19,0.5,0.9
2025-12-31T1400,2351A,113.866,27.6198,萍乡市,安源区政府,细颗粒物(PM2.5),139,133,162,106,146,123,123,68,68,27,42,14,16,1.1,1.5
2025-12-31T1400,2319A,119.0141,25.4325,莆田市,荔城区仓后路,颗粒物(PM10),53,56,46,16,25,99,99,98,92,10,12,4,3,0.5,0.6
2025-12-31T1400,2320A,119.0015,25.4553,莆田市,莆田市监测站,,47,47,34,13,23,105,105,105,98,9,10,5,5,0.4,0.4
2025-12-31T1400,2321A,119.1119,25.4561,莆田市,涵江区六中,,36,36,40,14,27,97,97,99,90,11,12,4,4,0.5,0.5
2025-12-31T1400,2322A,119.1013,25.3215,莆田市,秀屿区政府,,33,33,46,11,29,100,100,100,92,8,15,3,4,0.4,0.6
2025-12-31T1400,2323A,118.981,25.4792,莆田市,东圳水库,,,,30,,24,,,110,,,1,,5,,0.4
2025-12-31T1400,2392A,115.0312,35.7636,濮阳市,环保局,,49,49,69,19,56,47,47,31,31,18,31,9,10,0.8,1.1
2025-12-31T1400,2394A,115.0574,35.7609,濮阳市,油田运输公司,,48,48,72,22,58,50,50,33,33,18,35,10,12,1.0,1.3
2025-12-31T1400,3021A,115,35.7668,濮阳市,濮水河管理处,,48,48,87,21,61,52,52,35,35,30,44,10,11,0.6,1.1
2025-12-31T1400,4216A,115.0924,35.7686,濮阳市,任丘路479号,,45,45,88,25,65,48,48,33,33,27,45,9,10,0.5,0.9
2025-12-31T1400,2601A,100.98,22.7633,普洱市,市环保局,,,42,44,7,13,68,68,32,32,,10,5,4,0.3,0.4
2025-12-31T1400,2602A,100.9817,22.8322,普洱市,普洱第二中学,,37,37,37,6,17,70,70,34,34,4,16,5,5,0.3,0.4
2025-12-31T1400,2262A,131.0518,45.8751,七台河市,新一中,,,,,,,,,,,,,,,,
2025-12-31T1400,3345A,131.0577,45.7879,七台河市,中波台,,50,50,41,12,20,42,42,37,37,8,13,7,7,0.3,0.4
2025-12-31T1400,3637A,131.0176,45.7761,七台河市,人民广场,,,,37,,25,40,40,37,35,8,16,6,7,0.4,0.5
2025-12-31T1400,3684A,130.8781,45.8222,七台河市,新建矿广场,,26,24,32,18,24,42,42,38,38,5,8,6,7,0.2,0.3
2025-12-31T1400,1779A,123.9305,47.3636,齐齐哈尔市,安居小区,,35,,25,24,17,44,44,34,34,7,14,5,2,0.3,0.7
2025-12-31T1400,1780A,123.9488,47.3386,齐齐哈尔市,中心广场,,14,13,16,7,9,43,43,36,36,3,6,6,6,0.4,0.5
2025-12-31T1400,1781A,123.9483,47.3227,齐齐哈尔市,农牧车辆厂,,18,14,18,12,9,42,42,35,35,6,9,4,4,0.5,0.6
2025-12-31T1400,1783A,123.945,47.2988,齐齐哈尔市,市环境监测站,,18,17,17,12,9,46,46,39,39,4,8,6,6,0.3,0.3
2025-12-31T1400,3662A,123.6333,47.2075,齐齐哈尔市,富区青少年活动中心,,14,12,25,7,14,42,42,31,25,4,11,3,5,0.4,0.6
2025-12-31T1400,2591A,107.9783,26.5747,黔东南苗族侗族自治州,市环境监测站,,29,23,78,20,64,55,55,39,39,13,14,4,5,0.8,0.8
2025-12-31T1400,2881A,107.8908,26.5311,黔东南苗族侗族自治州,凯里学院,,29,29,71,20,57,51,51,42,42,16,14,4,4,0.7,0.7
2025-12-31T1400,2593A,107.5228,26.2403,黔南布依族苗族自治州,小围寨,,35,29,40,24,36,30,30,24,24,11,12,5,5,0.8,0.7
2025-12-31T1400,3538A,107.5175,26.2978,黔南布依族苗族自治州,沙坝,,25,22,42,17,36,36,36,15,15,11,19,4,4,1.0,0.9
2025-12-31T1400,2589A,104.9022,25.0925,黔西南布依族苗族自治州,场坝街,,,21,42,12,32,63,63,51,50,7,8,4,2,,0.6
2025-12-31T1400,2590A,104.8811,25.0992,黔西南布依族苗族自治州,坪东大道,,22,15,36,15,34,62,62,51,49,6,8,5,5,0.5,0.6
2025-12-31T1400,2502A,108.6236,21.9667,钦州市,市环保站,颗粒物(PM10),59,68,85,34,53,129,129,78,78,13,31,6,7,0.5,0.7
2025-12-31T1400,2503A,108.6549,21.9481,钦州市,沙埠小学,"颗粒物(PM10),细颗粒物(PM2.5)",53,56,82,37,48,136,136,76,76,13,40,8,8,0.5,0.7
2025-12-31T1400,2504A,108.5989,21.7431,钦州市,港区一小,细颗粒物(PM2.5),54,43,74,38,45,128,128,68,68,16,47,9,11,0.5,0.7
2025-12-31T1400,3404A,108.5959,21.9633,钦州市,北职校,颗粒物(PM10),58,65,77,37,53,131,131,69,69,13,34,11,10,0.7,0.8
2025-12-31T1400,1043A,119.7493,40.0116,秦皇岛市,第一关,,33,33,29,15,24,52,52,31,31,10,40,5,8,0.3,0.4
2025-12-31T1400,1044A,119.5897,39.9499,秦皇岛市,监测站,,24,24,41,9,17,53,53,45,45,13,26,5,9,0.3,0.4
2025-12-31T1400,1046A,119.5251,39.9041,秦皇岛市,建设大厦,,23,,36,16,29,54,54,33,32,6,27,4,7,0.3,0.4
2025-12-31T1400,3132A,119.610547,39.943889,秦皇岛市,文明里,,30,23,32,21,18,49,49,46,45,4,13,7,10,0.2,0.3
2025-12-31T1400,4198A,119.5090,39.8253,秦皇岛市,北戴河轮滑馆,,27,27,36,10,13,54,54,38,38,8,22,4,6,0.2,0.7
2025-12-31T1400,1307A,120.6659,36.2403,青岛市,仰口,,,,,,,,,,,,,,,,
2025-12-31T1400,1310A,120.4134,36.0658,青岛市,市南区东部子站,,41,41,38,17,21,56,56,52,52,13,20,8,8,0.6,0.6
2025-12-31T1400,1311A,120.3664,36.1032,青岛市,四方区子站,,,41,53,22,28,55,55,56,54,,20,3,4,0.4,0.7
2025-12-31T1400,1312A,120.2994,36.054,青岛市,市南区西部子站,,,36,45,24,22,55,55,41,41,10,24,,6,0.4,0.5
2025-12-31T1400,1313A,120.4581,36.0858,青岛市,崂山区子站,,34,34,34,14,16,62,62,57,57,13,23,10,10,0.5,0.6
2025-12-31T1400,1315A,120.3999,36.3083,青岛市,城阳区子站,,41,41,45,17,21,61,61,52,51,8,21,6,8,0.6,0.7
2025-12-31T1400,3362A,120.5014,36.4034,青岛市,即墨2号,,35,35,41,14,27,50,50,42,42,7,16,6,7,0.5,0.6
2025-12-31T1400,3642A,120.3503,36.0736,青岛市,市北区南部,,39,39,52,9,21,49,49,45,45,14,22,5,4,0.4,0.5
2025-12-31T1400,3643A,120.3948,36.1805,青岛市,李沧区北部,,36,36,45,19,30,55,55,50,50,13,25,9,9,0.8,0.8
2025-12-31T1400,4290A,120.1969,35.9546,青岛市,珠江路669号,,29,29,46,12,25,60,60,47,47,8,37,11,11,0.4,0.5
2025-12-31T1400,4291A,120.0424,35.8656,青岛市,黄岛区人民政府广场,,34,34,41,9,19,66,66,59,59,14,27,7,7,0.6,0.7
2025-12-31T1400,1702A,113.0426,23.691,清远市,环保大楼,,,,,,,,,,,,,,,,
2025-12-31T1400,1703A,113.0208,23.7106,清远市,凤城街办,颗粒物(PM10),51,52,42,35,27,95,95,44,44,21,30,15,10,0.6,0.7
2025-12-31T1400,3025A,113.0477,23.6344,清远市,技师学院,颗粒物(PM10),54,58,48,37,28,86,86,35,35,30,41,14,11,0.6,0.8
2025-12-31T1400,3318A,112.9903,23.7403,清远市,清新太和,,49,49,36,34,22,112,112,65,65,16,19,16,12,0.5,0.5
2025-12-31T1400,3455A,113.076,23.7198,清远市,清城东城,,43,43,37,27,24,101,101,49,49,17,25,12,8,0.6,0.6
2025-12-31T1400,2661A,107.6325,35.7357,庆阳市,庆阳五中,,46,33,64,32,48,57,57,65,57,13,19,4,6,0.5,0.6
2025-12-31T1400,2662A,107.6364,35.7067,庆阳市,市环保局,,40,35,70,28,47,54,54,67,57,13,16,2,3,0.5,0.6
2025-12-31T1400,1916A,103.7897,25.5035,曲靖市,环境监测站,,,,22,2,9,90,90,65,65,6,11,3,2,0.3,0.3
2025-12-31T1400,1917A,103.8,25.5364,曲靖市,烟厂办公区,,27,16,21,9,9,84,84,66,66,5,10,4,4,0.3,0.3
2025-12-31T1400,3376A,103.7947,25.462,曲靖市,南苑二区,,29,14,14,3,10,91,91,72,72,2,5,4,4,0.3,0.3
2025-12-31T1400,3377A,103.7444,25.5261,曲靖市,曲靖师范学院,,27,,26,8,14,86,86,59,59,4,14,4,4,0.3,0.4
2025-12-31T1400,1264A,118.8692,28.9398,衢州市,环保大楼,,23,23,97,12,73,73,73,71,68,20,27,4,5,0.3,0.6
2025-12-31T1400,1265A,118.8709,28.9666,衢州市,实验学校,,24,20,91,11,71,76,76,75,71,13,24,4,5,0.4,0.6
2025-12-31T1400,1266A,118.8621,28.9808,衢州市,衢州学院,,24,18,92,9,70,74,74,74,71,15,25,4,5,0.3,0.7
2025-12-31T1400,1611A,118.5819,24.9117,泉州市,涂山街,,47,47,43,25,25,105,105,90,86,14,15,4,4,0.5,0.5
2025-12-31T1400,1612A,118.5972,24.8978,泉州市,津头埔,,46,46,43,25,27,98,98,87,82,17,17,6,5,0.5,0.5
2025-12-31T1400,1613A,118.6663,24.9424,泉州市,万安,,50,50,47,17,22,99,99,88,84,12,14,5,4,0.4,0.5
2025-12-31T1400,1614A,118.6117,24.9604,泉州市,清源山,,,,63,,24,,,109,,,10,,3,,0.5
2025-12-31T1400,3529A,118.6333,24.9264,泉州市,城华南路,,39,39,44,21,26,99,99,93,90,18,17,6,5,0.6,0.6
2025-12-31T1400,2626A,88.8876,29.2718,日喀则市,日喀则监测站,,28,12,20,3,14,87,87,63,63,3,11,8,10,0.3,0.5
2025-12-31T1400,3726A,88.8781,29.2426,日喀则市,林业技术推广中心,,28,14,16,3,5,88,88,63,63,4,4,10,10,0.4,0.3
2025-12-31T1400,1659A,119.471,35.4209,日照市,监测站,,36,36,46,17,27,63,63,50,50,15,32,7,9,0.5,0.7
2025-12-31T1400,1660A,119.523,35.4216,日照市,市政府广场,,29,29,36,7,21,68,68,53,53,11,21,9,9,0.2,0.3
2025-12-31T1400,1661A,119.5587,35.4044,日照市,港务局,,31,31,39,14,27,66,66,52,52,13,22,8,8,0.3,0.4
2025-12-31T1400,3507A,119.5328,35.4625,日照市,职业技术学院,,24,24,37,9,19,69,69,54,54,12,21,7,8,0.5,0.7
2025-12-31T1400,3604A,119.3266,35.1044,日照市,岚山环保分局,,34,34,54,14,27,63,63,50,50,13,29,10,20,0.6,1.5
2025-12-31T1400,1835A,111.1922,34.7752,三门峡市,市政府,,44,44,104,20,95,63,63,57,57,17,24,8,10,0.3,0.6
2025-12-31T1400,1836A,111.1587,34.7942,三门峡市,开发区,,32,32,127,13,93,59,59,52,52,17,26,8,10,0.4,0.6
2025-12-31T1400,1838A,111.143,34.7955,三门峡市,风景区,,,,103,,99,,,79,,,21,,9,,1.0
2025-12-31T1400,3039A,111.1911,34.7829,三门峡市,三门峡市第一小学,颗粒物(PM10),53,55,116,10,91,59,59,53,53,14,23,8,11,0.4,0.7
2025-12-31T1400,3598A,111.1,34.7167,三门峡市,富达温泉假日酒店,颗粒物(PM10),52,53,124,17,96,64,64,59,59,22,36,10,14,0.3,0.7
2025-12-31T1400,2324A,117.6211,26.2625,三明市,三钢,,48,37,43,33,35,95,95,78,78,17,27,11,8,0.7,0.8
2025-12-31T1400,2325A,117.635,26.2714,三明市,三明二中,颗粒物(PM10),52,53,38,29,31,92,92,77,77,15,20,14,11,0.7,0.7
2025-12-31T1400,2326A,117.6028,26.2378,三明市,三元区政府,,43,43,48,29,32,92,92,68,68,19,34,12,7,0.6,0.9
2025-12-31T1400,2327A,117.7275,26.3108,三明市,洋溪,,,,31,,37,,,66,,,16,,27,,1.7
2025-12-31T1400,1876A,109.5078,18.2489,三亚市,河东子站,,40,38,32,22,19,127,127,113,113,8,9,6,5,0.5,0.6
