timepoint,stationcode,longitude,latitude,area,positionname,primarypollutant,aqi,pm10,pm10_24h,pm2_5,pm2_5_24h,o3,o3_24h,o3_8h,o3_8h_24h,no2,no2_24h,so2,so2_24h,co,co_24h
2025-12-31T0700,2566A,102.1879,31.914,阿坝藏族羌族自治州,州农科所,,,,,,,,,,,,,,,,
2025-12-31T0700,2568A,102.2502,31.8896,阿坝藏族羌族自治州,马师校,,22,16,24,15,22,32,32,,,8,21,4,5,0.5,0.7
2025-12-31T0700,3994A,102.2165,31.9024,阿坝藏族羌族自治州,马尔康中学西区,,11,6,18,3,12,35,35,,,9,16,6,6,0.5,0.6
2025-12-31T0700,2695A,80.292,41.1694,阿克苏地区,电视台,,46,44,49,32,31,41,41,,,20,17,4,4,0.7,0.6
2025-12-31T0700,2696A,80.2613,41.1551,阿克苏地区,艺术中心,细颗粒物(PM2.5),54,48,43,38,35,55,55,,,6,12,4,5,0.4,0.5
2025-12-31T0700,2204A,105.6467,38.8363,阿拉善盟,西城区西花园,,,,,,,,,,,,,,,,
2025-12-31T0700,2205A,105.6985,38.8411,阿拉善盟,蒙二幼,颗粒物(PM10),60,69,64,20,24,52,52,,,12,18,11,13,0.6,0.8
2025-12-31T0700,2206A,105.724,38.8516,阿拉善盟,环保局新楼,,49,49,43,20,20,46,46,,,13,14,9,12,0.6,0.6
2025-12-31T0700,2708A,88.1264,47.8517,阿勒泰地区,市站,,26,6,7,3,4,82,82,,,5,20,3,2,0.6,0.6
2025-12-31T0700,2630A,80.1161,32.5,阿里地区,阿里监测站,,20,6,3,3,3,64,64,,,1,10,9,12,0.3,0.4
2025-12-31T0700,3192A,80.0903,32.5028,阿里地区,阿里藏医院,,25,21,15,17,10,30,30,,,24,13,11,13,0.7,0.5
2025-12-31T0700,2642A,109.0318,32.6537,安康市,香溪洞,,,,,,,,,,,,,,,,
2025-12-31T0700,2644A,109.0072,32.6975,安康市,汉滨区检察院,细颗粒物(PM2.5),137,107,112,104,76,90,90,,,14,26,4,7,0.6,0.7
2025-12-31T0700,4054A,109.0325,32.6913,安康市,市邮政管理局,细颗粒物(PM2.5),137,108,92,104,71,75,75,,,14,26,4,5,0.7,1
2025-12-31T0700,2291A,117.0809,30.5177,安庆市,环科院,颗粒物(PM10),52,54,153,26,120,46,46,,,11,16,6,7,0.3,0.8
2025-12-31T0700,2292A,117.0331,30.5119,安庆市,马山宾馆,颗粒物(PM10),54,58,154,27,119,48,48,,,17,23,5,6,0.7,1.2
2025-12-31T0700,2294A,116.9896,30.6145,安庆市,安庆大学,,40,40,150,18,114,50,50,,,13,18,4,4,0.6,1
2025-12-31T0700,3173A,117.0598,30.5351,安庆市,市人大,颗粒物(PM10),52,54,156,26,122,44,44,,,12,16,6,7,0.4,0.8
2025-12-31T0700,3122A,105.9606,26.2611,安顺市,伍家关,,40,32,37,28,24,48,48,,,5,8,8,8,0.7,0.8
2025-12-31T0700,3123A,105.9408,26.2431,安顺市,凤凰山,,43,35,33,30,28,57,57,,,11,14,8,10,0.7,0.8
2025-12-31T0700,3124A,105.9439,26.2564,安顺市,金钟山,,40,33,30,28,28,56,56,,,8,11,11,10,0.8,0.8
2025-12-31T0700,3125A,105.8983,26.2481,安顺市,娄家坡,,39,31,33,27,27,65,65,,,6,11,10,11,0.8,0.9
2025-12-31T0700,1818A,114.4839,36.0621,安阳市,棉研所,,,,,,,,,,,,,,,,
2025-12-31T0700,1819A,114.3551,36.1017,安阳市,红庙街,,39,39,88,23,72,25,25,,,25,38,5,7,0.8,0.9
2025-12-31T0700,1820A,114.361,36.0681,安阳市,银杏小区,,38,38,93,18,76,28,28,,,24,34,6,7,0.6,0.8
2025-12-31T0700,3141A,114.3922,36.0878,安阳市,信访局,,36,36,92,25,75,30,30,,,28,38,7,8,0.8,0.9
2025-12-31T0700,3669A,114.4705,36.0637,安阳市,左辅环卫站,颗粒物(PM10),51,52,110,16,54,29,29,,,25,31,5,8,0.8,0.9
2025-12-31T0700,3703A,114.2917,36.0949,安阳市,安钢职工学校,,38,38,108,18,82,27,27,,,27,39,7,9,0.8,1
2025-12-31T0700,1748A,123.044,41.1196,鞍山市,深沟寺,,19,19,27,10,15,43,43,,,12,19,8,11,0.7,0.8
2025-12-31T0700,1749A,123.011,41.0931,鞍山市,太阳城,,25,25,26,12,14,36,36,,,20,20,21,20,1.2,1
2025-12-31T0700,1750A,123.0485,41.1442,鞍山市,太平,,25,25,35,10,15,27,27,,,25,22,15,14,0.8,0.7
2025-12-31T0700,1751A,122.9642,41.0971,鞍山市,铁西三道街,,22,22,38,8,15,34,34,,,18,19,15,18,0.7,0.9
2025-12-31T0700,1753A,123.022,41.0821,鞍山市,明达新区,,22,22,26,9,13,32,32,,,19,18,23,17,1.2,0.9
2025-12-31T0700,1754A,123.1289,41.0228,鞍山市,千山,,,,14,,9,,,39,,,16,,4,,0.5
2025-12-31T0700,4201A,122.9446,41.0826,鞍山市,兴盛南路290号,细颗粒物(PM2.5),57,54,54,40,29,8,8,,,52,37,12,12,1.7,1.3
2025-12-31T0700,2195A,107.4212,40.761,巴彦淖尔市,附二中,,30,30,39,12,18,47,47,,,8,11,6,7,0.2,0.2
2025-12-31T0700,2196A,107.37,40.7372,巴彦淖尔市,市环保大楼,,25,23,33,17,16,56,56,,,8,11,6,7,0.3,0.4
2025-12-31T0700,1956A,86.1472,41.7538,巴音郭楞蒙古自治州,孔雀公园,,45,45,51,27,32,50,50,,,12,19,7,7,0.5,0.6
2025-12-31T0700,1957A,86.1972,41.7166,巴音郭楞蒙古自治州,棉纺厂,颗粒物(PM10),54,58,69,28,26,42,42,,,19,28,4,4,0.5,0.6
2025-12-31T0700,1958A,86.2357,41.7173,巴音郭楞蒙古自治州,经济开发区,,50,50,56,24,25,42,42,,,9,17,5,5,0.5,0.5
2025-12-31T0700,2914A,106.7677,31.8794,巴中市,苏山坪,,,,,,,,,,,,,,,,
2025-12-31T0700,3181A,106.7768,31.8526,巴中市,市五中,细颗粒物(PM2.5),98,90,138,73,105,1,1,,,15,22,6,6,1.4,1.5
2025-12-31T0700,3183A,106.7418,31.8654,巴中市,圣泉水务公司,细颗粒物(PM2.5),72,59,103,52,85,4,4,,,17,26,5,5,0.7,1
2025-12-31T0700,3616A,106.7616,31.8344,巴中市,市中心医院,细颗粒物(PM2.5),112,92,127,84,107,2,2,,,21,26,7,7,1.2,1.3
2025-12-31T0700,2235A,122.7911,45.6077,白城市,洮北区环保局,,48,,32,33,23,28,28,,,17,13,4,5,0.3,0.3
2025-12-31T0700,2236A,122.8738,45.5725,白城市,市环保局,,25,19,22,17,21,24,24,,,19,14,6,6,0.4,0.4
2025-12-31T0700,2231A,126.4219,41.9171,白山市,喜丰,颗粒物(PM10),64,77,51,42,26,5,5,,,40,25,10,11,0.8,0.7
2025-12-31T0700,2232A,126.4077,41.9419,白山市,环保局,细颗粒物(PM2.5),57,42,33,40,24,11,11,,,23,13,13,11,0.7,0.6
2025-12-31T0700,2647A,104.1724,36.5446,白银市,第三小学,,38,38,75,24,52,47,47,,,17,36,10,56,0.6,1.1
2025-12-31T0700,2648A,104.1465,36.5482,白银市,动力公司,,33,32,69,23,50,52,52,,,15,30,7,36,0.5,0.8
2025-12-31T0700,2512A,106.6103,23.9011,百色市,市监测站,细颗粒物(PM2.5),87,79,78,64,58,28,28,,,26,25,15,12,0.9,0.9
2025-12-31T0700,2513A,106.6538,23.8859,百色市,市中心血站,细颗粒物(PM2.5),97,72,82,72,68,80,80,,,24,26,26,15,1.3,1.1
2025-12-31T0700,3406A,106.6085,23.8798,百色市,祈福高中,细颗粒物(PM2.5),99,87,93,74,64,14,14,,,36,35,9,9,0.9,0.9
2025-12-31T0700,2270A,117.396,32.939,蚌埠市,工人疗养院,,34,34,91,17,62,43,43,,,17,21,4,5,0.5,0.6
2025-12-31T0700,2271A,117.3605,32.9427,蚌埠市,百货大楼,,23,23,79,12,57,48,48,,,13,23,4,5,0.4,0.5
2025-12-31T0700,2273A,117.4185,32.8911,蚌埠市,蚌埠学院,,26,19,77,18,59,34,34,,,37,39,5,7,0.4,0.5
2025-12-31T0700,2274A,117.3533,32.9673,蚌埠市,淮上区政府,,24,24,85,16,64,44,44,,,16,20,1,2,0.5,0.5
2025-12-31T0700,2275A,117.3145,32.8977,蚌埠市,高新区,,19,19,74,13,58,55,55,,,14,22,6,7,0.3,0.4
2025-12-31T0700,3715A,117.3092,32.9314,蚌埠市,蚌埠田家炳中学,,25,25,84,11,62,51,51,,,15,21,3,5,0.3,0.4
2025-12-31T0700,1585A,109.8756,40.6532,包头市,市环境监测站,,15,6,19,3,7,46,46,,,20,16,5,5,0.5,0.5
2025-12-31T0700,1587A,109.9991,40.5842,包头市,包头八中,,45,45,40,22,20,3,3,,,53,37,9,10,2.4,1
2025-12-31T0700,1588A,109.8538,40.6821,包头市,青山宾馆,,15,9,14,3,5,47,47,,,13,9,7,8,0.5,0.5
2025-12-31T0700,1589A,109.8642,40.6288,包头市,惠龙物流,,14,10,14,3,6,32,32,,,28,16,8,8,0.5,0.4
2025-12-31T0700,1590A,110.0377,40.5546,包头市,东河鸿龙湾,,30,16,37,8,20,6,6,,,59,40,7,10,0.7,0.6
2025-12-31T0700,3283A,109.9154,40.5685,包头市,滨河大厦,,21,13,20,11,11,2,2,,,42,19,3,6,0.7,0.6
2025-12-31T0700,3419A,109.9447,40.6261,包头市,包头市委党校,,32,32,33,8,12,2,2,,,51,32,8,10,0.8,0.7
2025-12-31T0700,3683A,109.8331,40.6576,包头市,昆区政府,,18,10,14,3,6,57,57,,,17,13,6,6,0.5,0.4
2025-12-31T0700,1930A,107.185,34.3063,宝鸡市,庙沟村,,,,,,,,,,,,,,,,
2025-12-31T0700,1931A,107.0708,34.3017,宝鸡市,竹园沟,细颗粒物(PM2.5),112,,111,84,106,17,17,,,21,32,5,6,1.0,0.9
2025-12-31T0700,1932A,107.1906,34.3672,宝鸡市,三陆医院,细颗粒物(PM2.5),137,,144,104,129,1,1,,,61,52,4,6,1.2,1.1
2025-12-31T0700,1933A,107.1431,34.3547,宝鸡市,监测站,细颗粒物(PM2.5),133,,129,101,120,37,37,,,33,39,4,5,1.0,1
2025-12-31T0700,1934A,107.1186,34.3739,宝鸡市,技工学校,细颗粒物(PM2.5),140,,129,107,118,32,32,,,23,29,2,6,1.2,1
2025-12-31T0700,1936A,107.2058,34.3497,宝鸡市,文理学院,细颗粒物(PM2.5),130,,126,99,119,45,45,,,22,43,3,5,1.0,1
2025-12-31T0700,1937A,107.2386,34.3622,宝鸡市,三迪小学,细颗粒物(PM2.5),142,,134,108,127,32,32,,,34,47,2,5,1.2,1.1
2025-12-31T0700,4308A,107.3898,34.3601,宝鸡市,陈仓区北开路21号,细颗粒物(PM2.5),107,,140,80,121,42,42,,,28,44,4,22,1.1,1
2025-12-31T0700,1051A,115.493,38.8632,保定市,游泳馆,,27,27,44,3,15,47,47,,,6,22,1,3,0.3,0.4
2025-12-31T0700,1052A,115.5213,38.8959,保定市,华电二区,,30,27,42,21,28,37,37,,,15,26,3,3,0.3,0.4
2025-12-31T0700,1053A,115.4713,38.9108,保定市,接待中心,,29,29,43,3,16,38,38,,,13,22,3,2,0.2,0.4
2025-12-31T0700,1054A,115.4612,38.8416,保定市,地表水厂,,27,27,54,3,23,50,50,,,15,30,1,2,0.3,0.4
2025-12-31T0700,3581A,115.31981,38.95208,保定市,满城区生态环境分局,,24,24,53,3,21,26,26,,,35,47,2,6,0.5,0.5
2025-12-31T0700,3582A,115.47694,38.76408,保定市,清苑区第二中学,,28,28,58,16,21,35,35,,,18,33,1,3,0.2,0.4
2025-12-31T0700,3583A,115.62909,39.02311,保定市,徐水物探局,,18,18,46,11,21,23,23,,,35,36,1,4,0.4,0.5
2025-12-31T0700,4004A,115.4202,38.8656,保定市,双鹰农机,,18,15,43,12,20,51,51,,,10,26,4,5,0.2,0.3
2025-12-31T0700,4034A,115.5150,38.8590,保定市,植保所站,,26,26,47,14,26,40,40,,,19,33,3,3,0.2,0.3
2025-12-31T0700,2594A,99.1678,25.1081,保山市,市环境监测站,,18,14,20,12,16,46,46,,,8,8,3,4,0.2,0.2
2025-12-31T0700,2595A,99.1711,25.1328,保山市,市环保局,,18,15,27,9,19,55,55,,,4,5,4,4,0.3,0.4
2025-12-31T0700,1866A,109.2262,21.588,北海市,牛尾岭水库,,,,53,,51,,,112,,,19,,9,,0.5
2025-12-31T0700,1867A,109.1436,21.4086,北海市,海滩公园,细颗粒物(PM2.5),68,59,53,49,38,120,120,,,14,19,8,12,0.8,0.9
2025-12-31T0700,1868A,109.0981,21.4661,北海市,新市环保局,细颗粒物(PM2.5),73,,52,53,46,107,107,,,18,19,6,8,0.7,0.7
2025-12-31T0700,1869A,109.1778,21.5233,北海市,北海工业园,细颗粒物(PM2.5),102,88,75,76,61,51,51,,,25,21,28,12,0.7,0.7
2025-12-31T0700,3400A,109.1911,21.4415,北海市,龙潭自来水厂,细颗粒物(PM2.5),69,,57,50,47,59,59,,,15,17,5,8,1.0,0.9
2025-12-31T0700,1001A,116.3621,39.8784,北京市,万寿西宫,,17,6,11,3,4,54,54,,,8,8,2,2,0.4,0.4
2025-12-31T0700,1002A,116.2202,40.2915,北京市,定陵,,,,,,,,,,,,,,,,
2025-12-31T0700,1003A,116.4174,39.9289,北京市,东四,,14,7,10,3,4,43,43,,,16,8,1,1,0.4,0.4
2025-12-31T0700,1004A,116.4072,39.8863,北京市,天坛,,15,6,12,3,4,46,46,,,13,9,2,3,0.2,0.2
2025-12-31T0700,1005A,116.462,39.9365,北京市,农展馆,,15,,7,3,2,47,47,,,9,7,4,4,0.4,0.3
2025-12-31T0700,1006A,116.3392,39.9295,北京市,官园,,16,6,12,3,5,51,51,,,8,10,4,3,0.3,0.3
2025-12-31T0700,1007A,116.2878,39.9611,北京市,海淀万柳,,15,7,12,3,4,46,46,,,13,14,2,2,0.3,0.3
2025-12-31T0700,1008A,116.6636,40.135,北京市,顺义新城,,16,9,10,3,4,49,49,,,6,8,4,4,0.3,0.3
2025-12-31T0700,1009A,116.6275,40.3275,北京市,怀柔镇,,15,6,5,3,3,46,46,,,10,4,7,6,0.3,0.3
2025-12-31T0700,1010A,116.2296,40.217,北京市,昌平镇,,14,9,11,3,5,44,44,,,12,3,5,4,0.4,0.3
2025-12-31T0700,1011A,116.3966,39.9821,北京市,奥体中心,,15,6,10,3,4,47,47,,,16,13,4,4,0.4,0.3
2025-12-31T0700,3281A,115.9718,40.4529,北京市,延庆夏都,,14,14,12,8,7,26,26,,,22,10,1,2,0.4,0.4
2025-12-31T0700,3418A,116.8336,40.4095,北京市,密云新城,,18,6,6,3,2,55,55,,,2,2,4,3,0.3,0.3
2025-12-31T0700,3671A,116.088,39.9726,北京市,门头沟三家店,,15,12,11,3,4,45,45,,,12,4,3,3,0.3,0.3
2025-12-31T0700,3672A,116.1541,39.8204,北京市,丰台云岗,,12,12,12,3,3,38,38,,,18,10,2,2,0.3,0.3
2025-12-31T0700,3673A,116.6804,39.9081,北京市,通州东关,,15,8,13,3,4,46,46,,,8,13,3,3,0.1,0.1
2025-12-31T0700,3674A,115.9577,39.7603,北京市,房山燕山,,14,14,10,3,3,37,37,,,11,5,3,3,0.2,0.1
2025-12-31T0700,3675A,116.4672,39.7733,北京市,大兴旧宫,,14,8,11,3,3,42,42,,,15,14,3,2,0.3,0.4
2025-12-31T0700,3694A,115.986,40.4563,北京市,延庆石河营,,13,11,11,6,6,15,15,,,25,10,2,3,0.3,0.3
2025-12-31T0700,3695A,116.6151,40.3053,北京市,怀柔新城,,15,,4,7,3,47,47,,,9,3,4,4,0.4,0.3
2025-12-31T0700,3696A,116.2545,39.8768,北京市,丰台小屯,,14,8,13,3,5,43,43,,,10,11,3,3,0.4,0.4
2025-12-31T0700,3697A,116.84,40.3844,北京市,密云镇,,18,9,9,3,3,55,55,,,4,6,2,2,0.3,0.3
2025-12-31T0700,4182A,116.1942,39.9158,北京市,八角北路9号,,13,13,12,3,4,31,31,,,21,6,1,2,0,0
2025-12-31T0700,4194A,117.0790,40.1518,北京市,洳河巡河路,,,,6,,3,,,53,,,3,,1,,0.3
2025-12-31T0700,1761A,123.8275,41.3064,本溪市,大峪,,21,21,40,10,23,16,16,,,28,28,8,9,0.8,1
2025-12-31T0700,1762A,123.7567,41.3325,本溪市,溪湖,,47,47,60,13,24,23,23,,,26,33,9,9,1.0,1
2025-12-31T0700,1763A,123.7169,41.3094,本溪市,彩屯,,22,22,42,6,28,35,35,,,17,29,8,8,0.6,0.9
2025-12-31T0700,1764A,123.7669,41.2864,本溪市,东明,,20,20,41,6,26,30,30,,,18,29,11,11,0.9,1.3
2025-12-31T0700,1765A,123.7992,41.2664,本溪市,新立屯,,19,19,33,10,20,19,19,,,22,29,10,11,0.8,1.2
2025-12-31T0700,1766A,123.8142,41.3472,本溪市,威宁,颗粒物(PM10),54,58,58,33,27,6,6,,,30,28,6,6,1.1,1
2025-12-31T0700,2587A,105.2864,27.3125,毕节市,八中,,13,13,31,3,22,30,30,,,6,13,8,9,0.8,1
2025-12-31T0700,2588A,105.31,27.2944,毕节市,师专,,12,7,25,3,18,36,36,,,6,14,8,9,0.8,0.9
2025-12-31T0700,4263A,105.3688,27.3598,毕节市,工业大道,,10,6,20,3,17,30,30,,,8,13,8,10,0.9,0.8
2025-12-31T0700,1629A,118.0018,37.3617,滨州市,第二水厂,,24,24,60,13,34,29,29,,,24,34,10,12,0.5,0.6
2025-12-31T0700,1630A,117.9776,37.393,滨州市,北中新校,,22,22,60,14,37,22,22,,,35,40,6,9,0.3,0.6
2025-12-31T0700,3514A,117.9378,37.3956,滨州市,中海酒店,,25,24,57,17,41,33,33,,,30,32,9,11,0.5,0.7
2025-12-31T0700,3515A,117.9378,37.3553,滨州市,开发区一中,,27,27,61,14,38,24,24,,,27,26,12,13,0.4,0.6
2025-12-31T0700,3516A,118.0917,37.694,滨州市,金海六路,,15,12,52,3,28,46,46,,,13,35,8,16,0.3,0.6
2025-12-31T0700,4028A,117.9956,37.3753,滨州市,滨州市西街道办事处,,20,19,54,14,42,32,32,,,22,30,8,11,0.3,0.6
2025-12-31T0700,2311A,115.8072,33.8399,亳州市,污水处理厂,细颗粒物(PM2.5),100,95,128,75,103,16,16,,,40,30,9,8,0.7,0.7
2025-12-31T0700,2312A,115.7789,33.8518,亳州市,三国揽胜宫,细颗粒物(PM2.5),127,156,152,96,98,14,14,,,40,30,5,5,1.0,0.9
2025-12-31T0700,3332A,115.7633,33.8034,亳州市,亳州学院,细颗粒物(PM2.5),115,109,129,87,104,19,19,,,36,27,8,6,0.8,0.8
2025-12-31T0700,2693A,82.0485,44.8556,博尔塔拉蒙古自治州,市党校,颗粒物(PM10),68,86,99,48,54,37,37,,,19,22,2,4,0.8,0.9
2025-12-31T0700,2694A,82.0806,44.8969,博尔塔拉蒙古自治州,市环保局,颗粒物(PM10),73,96,94,50,50,37,37,,,20,20,6,7,0.9,1
2025-12-31T0700,1071A,116.8842,38.2991,沧州市,沧县城建局,,35,35,60,13,37,29,29,,,28,41,2,4,0.4,0.6
2025-12-31T0700,1072A,116.8584,38.3254,沧州市,电视转播站,,35,35,62,9,32,9,9,,,44,48,3,4,0.6,0.8
2025-12-31T0700,1073A,116.8709,38.3228,沧州市,市环保局,,43,43,58,26,39,20,20,,,30,37,4,5,0.3,0.5
2025-12-31T0700,3324A,116.8136,38.3004,沧州市,河北水利电力学院,,15,14,46,10,27,27,27,,,29,37,3,6,0.3,0.5
2025-12-31T0700,2622A,97.1806,31.1273,昌都市,昌都监测站,,31,31,58,3,24,54,54,,,7,29,2,4,0.3,0.9
2025-12-31T0700,3719A,97.1714,31.1406,昌都市,昌都会议中心,,18,12,20,6,13,57,57,,,2,12,4,5,0.3,0.5
2025-12-31T0700,2690A,88.1236,43.8886,昌吉回族自治州,天山天池,,,,,,,,,,,,,,,,
2025-12-31T0700,2692A,87.2717,44.0297,昌吉回族自治州,新区政务中心,颗粒物(PM10),57,64,74,34,47,44,44,,,17,23,6,6,0.8,0.8
2025-12-31T0700,3613A,87.3095,44.0142,昌吉回族自治州,亚心广场,细颗粒物(PM2.5),64,73,79,46,56,47,47,,,5,13,7,7,0.8,1
2025-12-31T0700,1120A,125.2863,43.9027,长春市,客车厂,细颗粒物(PM2.5),54,39,41,38,35,13,13,,,31,26,8,8,0.7,0.6
2025-12-31T0700,1121A,125.2841,43.8463,长春市,邮电学院,,41,41,44,28,30,10,10,,,27,23,9,10,0.5,0.5
2025-12-31T0700,1122A,125.3716,43.8772,长春市,劳动公园,,46,46,37,21,26,10,10,,,31,25,8,8,0.8,0.5
2025-12-31T0700,1123A,125.3297,43.8805,长春市,园林处,,38,30,40,26,27,10,10,,,27,22,18,11,0.6,0.5
2025-12-31T0700,1124A,125.4605,43.79,长春市,净月潭,,37,37,38,21,19,3,3,,,31,22,5,6,0.4,0.4
2025-12-31T0700,1125A,125.7194,43.515,长春市,甩湾子,,,,39,,26,,,42,,,13,,5,,0.6
2025-12-31T0700,1126A,125.3863,43.8447,长春市,经开区环卫处,,39,39,45,20,22,10,10,,,32,29,19,9,0.5,0.4
2025-12-31T0700,1127A,125.245,43.7783,长春市,高新区管委会,,40,40,45,21,32,8,8,,,32,26,7,7,0.7,0.6
2025-12-31T0700,1128A,125.1761,43.8325,长春市,岱山公园,,38,38,41,21,28,7,7,,,31,27,7,8,0.5,0.5
2025-12-31T0700,4281A,125.3346,43.9164,长春市,北亚泰大街1068号,细颗粒物(PM2.5),55,51,43,39,33,5,5,,,34,30,7,11,0.8,0.6
2025-12-31T0700,1335A,113.0833,28.2325,长沙市,经开区环保局,细颗粒物(PM2.5),204,169,172,154,146,21,21,,,28,37,5,6,0.8,0.8
2025-12-31T0700,1336A,112.8872,28.2189,长沙市,高开区环保局,细颗粒物(PM2.5),210,172,165,160,151,24,24,,,18,21,6,7,1.0,1.1
2025-12-31T0700,1337A,113.0792,28.2053,长沙市,马坡岭,细颗粒物(PM2.5),198,186,169,148,138,26,26,,,32,42,5,6,0.7,0.8
2025-12-31T0700,1338A,112.9394,28.19,长沙市,湖南师范大学,细颗粒物(PM2.5),190,192,180,143,132,30,30,,,26,31,3,5,1.0,1
2025-12-31T0700,1339A,113.0178,28.1322,长沙市,雨花区环保局,细颗粒物(PM2.5),210,178,157,160,142,29,29,,,27,35,8,10,1.0,1
2025-12-31T0700,1340A,112.9792,28.2597,长沙市,伍家岭,细颗粒物(PM2.5),199,190,181,149,133,24,24,,,33,39,6,8,0.6,0.6
2025-12-31T0700,1341A,113.0014,28.1944,长沙市,火车新站,细颗粒物(PM2.5),192,186,178,144,136,31,31,,,20,27,9,10,0.9,0.9
2025-12-31T0700,1342A,112.9844,28.1178,长沙市,天心区环保局,细颗粒物(PM2.5),203,191,168,153,137,32,32,,,28,34,9,10,0.8,0.8
2025-12-31T0700,1343A,112.8908,28.1308,长沙市,湖南中医药大学,细颗粒物(PM2.5),208,186,175,158,146,34,34,,,24,30,6,8,1.0,1
2025-12-31T0700,1344A,112.9581,28.3611,长沙市,沙坪,,,,,,,,,,,,,,,,
2025-12-31T0700,1727A,113.1147,36.1547,长治市,清华站,,33,33,77,19,66,54,54,,,18,32,9,15,0.5,1
2025-12-31T0700,1730A,113.0886,36.2125,长治市,审计局,,31,31,71,12,60,51,51,,,14,28,8,15,0.6,1.1
2025-12-31T0700,1731A,113.0844,36.1856,长治市,长治八中,,43,40,92,30,70,49,49,,,13,25,8,16,0.6,1
2025-12-31T0700,2845A,113.1569,36.1911,长治市,德盛苑,,32,23,72,22,69,55,55,,,8,20,7,12,0.7,1.1
2025-12-31T0700,3568A,113.06,36.0464,长治市,向阳小学,细颗粒物(PM2.5),55,56,112,39,77,52,52,,,17,34,5,15,0.7,1.3
2025-12-31T0700,3569A,112.8792,36.3144,长治市,屯留一中,颗粒物(PM10),54,58,81,29,60,44,44,,,25,38,9,13,0.6,0.9
2025-12-31T0700,4189A,113.1131,36.19948,长治市,英华南巷50号,,28,27,83,19,65,51,51,,,13,26,6,13,0.8,1.2
2025-12-31T0700,4190A,113.2367,36.3344,长治市,学府街1号,,35,35,72,16,65,39,39,,,24,27,17,18,1.2,1.3
2025-12-31T0700,1854A,111.6975,28.9703,常德市,市二中,细颗粒物(PM2.5),192,185,156,144,127,71,71,,,15,20,6,10,0.9,0.9
2025-12-31T0700,1857A,111.7158,29.1456,常德市,白鹤山,,,,,,,,,,,,,,,,
2025-12-31T0700,3138A,111.7153,29.0289,常德市,武陵区永安,细颗粒物(PM2.5),186,172,160,140,120,69,69,,,18,23,5,10,1.0,1
2025-12-31T0700,3139A,111.6892,28.9881,常德市,鼎城区玉霞,细颗粒物(PM2.5),188,161,154,141,126,71,71,,,19,24,8,12,0.7,0.9
2025-12-31T0700,3140A,111.6625,29.0531,常德市,武陵区长庚,细颗粒物(PM2.5),188,177,161,141,123,71,71,,,17,24,5,10,0.8,0.8
2025-12-31T0700,1196A,119.9633,31.762,常州市,市监测站,,23,20,57,16,41,37,37,,,38,33,6,6,0.5,0.6
2025-12-31T0700,1200A,119.9468,31.7069,常州市,武进监测站,,16,14,58,10,41,49,49,,,26,31,9,10,0.1,0.4
2025-12-31T0700,1201A,119.9255,31.9087,常州市,安家,,29,29,68,10,42,45,45,,,20,36,11,12,1.0,1.1
2025-12-31T0700,3002A,119.9805,31.8174,常州市,行政中心,,32,32,68,10,40,46,46,,,27,31,6,7,0.5,0.6
2025-12-31T0700,3003A,120.0522,31.7748,常州市,经开区,,20,20,59,11,38,35,35,,,33,38,3,4,0.4,0.5
2025-12-31T0700,3010A,119.9025,31.7964,常州市,钟楼,,22,22,57,9,37,50,50,,,23,29,7,8,0.2,0.4
2025-12-31T0700,3429A,119.8598,31.7066,常州市,武进经发区,,,20,60,10,42,,,,,37,30,8,9,0.5,0.7
2025-12-31T0700,3430A,119.5826,31.7245,常州市,金坛城区,,26,26,69,14,50,42,42,,,22,31,8,8,0.5,0.8
2025-12-31T0700,2220A,120.4318,41.5881,朝阳市,西梁,,14,14,39,3,13,40,40,,,12,15,5,6,0.4,0.6
2025-12-31T0700,2221A,120.4521,41.5646,朝阳市,河畔小区,,16,16,33,3,13,44,44,,,12,15,8,8,0.3,0.5
2025-12-31T0700,2222A,120.4176,41.5648,朝阳市,八里堡,,14,13,34,6,12,43,43,,,10,15,8,8,0.4,0.5
2025-12-31T0700,2223A,120.3806,41.5969,朝阳市,农业园区,,16,10,30,3,17,49,49,,,6,14,6,7,0.3,0.5
2025-12-31T0700,1705A,116.6367,23.6719,潮州市,西园路,,,,,,,,,,,,,,,,
2025-12-31T0700,3026A,116.6183,23.6608,潮州市,市政府,,43,42,52,30,28,21,21,,,22,20,10,10,0.5,0.5
2025-12-31T0700,4036A,116.6461,23.6761,潮州市,金山,,46,33,42,32,30,17,17,,,21,15,3,4,0.6,0.4
2025-12-31T0700,2472A,113.0073,25.9061,郴州市,马头岭,,,,,,,,,,,,,,,,
2025-12-31T0700,2473A,113.0116,25.8226,郴州市,市职中,细颗粒物(PM2.5),112,89,88,84,76,7,7,,,24,26,4,8,0.8,0.9
2025-12-31T0700,2475A,113.0383,25.8071,郴州市,市审计局,细颗粒物(PM2.5),113,99,92,85,74,4,4,,,37,24,2,6,0.8,0.8
2025-12-31T0700,2476A,113.0348,25.7759,郴州市,市环保局,细颗粒物(PM2.5),122,108,99,92,75,15,15,,,30,35,3,7,0.8,0.9
2025-12-31T0700,4252A,113.0138,25.8011,郴州市,好美居路49号,细颗粒物(PM2.5),119,94,87,90,84,6,6,,,40,35,4,10,0.6,0.6
2025-12-31T0700,1431A,103.9728,30.7236,成都市,金泉两河,细颗粒物(PM2.5),114,87,101,86,94,5,5,,,27,35,2,2,0.8,0.9
2025-12-31T0700,1432A,104.176,30.6872,成都市,十里店,细颗粒物(PM2.5),133,128,125,101,95,25,25,,,25,38,3,3,0.6,0.7
2025-12-31T0700,1433A,104.079,30.5706,成都市,三瓦窑,细颗粒物(PM2.5),124,107,129,94,112,3,3,,,38,39,3,4,0.7,1.1
2025-12-31T0700,1434A,104.1114,30.63,成都市,沙河铺,细颗粒物(PM2.5),156,136,134,119,116,6,6,,,30,42,4,5,0.9,1
2025-12-31T0700,1437A,104.0786,30.6531,成都市,君平街,细颗粒物(PM2.5),162,134,144,123,115,18,18,,,24,41,2,4,0.8,1.1
2025-12-31T0700,1438A,103.613,31.0283,成都市,灵岩寺,,,,,,,,,,,,,,,,
2025-12-31T0700,2880A,104.0239,30.65639,成都市,大石西路,细颗粒物(PM2.5),124,124,124,94,102,12,12,,,26,40,4,4,0.7,0.9
2025-12-31T0700,3136A,104.2725,30.5589,成都市,龙泉驿区区政府,细颗粒物(PM2.5),128,119,107,97,85,1,1,,,32,29,5,6,0.7,0.7
2025-12-31T0700,3357A,104.0106,30.6931,成都市,金博路,细颗粒物(PM2.5),100,82,105,75,83,2,2,,,31,40,6,5,0.8,1
2025-12-31T0700,3359A,104.0578,30.5225,成都市,华阳,细颗粒物(PM2.5),94,88,114,70,84,17,17,,,28,35,3,3,0.6,0.7
2025-12-31T0700,3488A,104.3880,30.7467,成都市,青石路225号,细颗粒物(PM2.5),142,124,129,108,116,0,0,,,30,33,5,5,0.8,0.8
2025-12-31T0700,3489A,104.0789,30.4072,成都市,科学城,细颗粒物(PM2.5),94,80,107,70,86,27,27,,,16,25,6,6,0.7,0.8
2025-12-31T0700,4011A,103.8506,30.6947,成都市,光华大道三段,细颗粒物(PM2.5),104,92,102,78,85,21,21,,,20,27,3,3,0.7,0.8
2025-12-31T0700,4224A,104.2433,30.5353,成都市,鲸龙路1057号,细颗粒物(PM2.5),117,97,117,88,97,8,8,,,28,33,5,5,1.0,0.9
2025-12-31T0700,1062A,117.9531,40.9081,承德市,铁路,,28,28,28,10,8,44,44,,,7,9,3,3,0.3,0.3
2025-12-31T0700,1063A,117.9392,40.9763,承德市,中国银行,,33,33,26,17,8,24,24,,,14,7,1,2,0.3,0.3
2025-12-31T0700,1064A,117.9503,40.928,承德市,开发区,,31,31,33,11,17,53,53,,,5,10,3,3,0.2,0.2
2025-12-31T0700,1066A,117.9268,41.0026,承德市,离宫,,,,,,,,,,,,,,,,
2025-12-31T0700,4274A,117.7994,40.9605,承德市,滨河大街98号,,14,12,18,7,8,42,42,,,3,7,2,2,0.2,0.2
2025-12-31T0700,2314A,117.47,30.6618,池州市,池州学院,,24,24,137,16,117,50,50,,,21,29,5,5,0.3,0.8
2025-12-31T0700,3237A,117.4918,30.6617,池州市,展览馆,,25,25,144,15,111,52,52,,,22,29,3,4,0.5,0.9
2025-12-31T0700,3333A,117.5627,30.695,池州市,第八中学,,25,25,133,15,104,56,56,,,20,28,4,4,0.4,1.1
2025-12-31T0700,3334A,117.5038,30.6243,池州市,第十二中学,,26,26,134,17,108,55,55,,,22,29,4,5,0.7,1.2
2025-12-31T0700,1744A,118.9233,42.2816,赤峰市,松山一中,,12,12,18,3,4,35,35,,,18,11,6,5,0.6,0.5
2025-12-31T0700,1745A,118.9576,42.2728,赤峰市,哈达街,,15,7,16,3,9,47,47,,,10,11,5,6,0.5,0.4
2025-12-31T0700,1746A,118.8788,42.2554,赤峰市,天义路,,15,,15,10,9,40,40,,,12,9,5,9,0.5,0.5
2025-12-31T0700,3058A,119.2658,42.0353,赤峰市,银河街,,16,12,18,6,8,50,50,,,3,3,8,9,0.6,0.5
2025-12-31T0700,3286A,118.9359,42.3147,赤峰市,桥北物流园区,,14,6,13,3,8,43,43,,,9,11,4,4,0.2,0.2
2025-12-31T0700,2521A,107.3476,22.4136,崇左市,市环保局江州分局,细颗粒物(PM2.5),92,94,87,68,57,11,11,,,33,27,10,9,0.9,0.9
2025-12-31T0700,4256A,107.3750,22.3736,崇左市,石景林东路7号,细颗粒物(PM2.5),78,61,68,57,55,23,23,,,23,26,6,8,0.7,0.8
2025-12-31T0700,2298A,118.3093,32.3153,滁州市,老年大学,,26,25,71,18,49,51,51,,,16,19,4,5,0.4,0.6
2025-12-31T0700,2299A,118.3244,32.2786,滁州市,人大宾馆,,21,21,72,9,52,50,50,,,18,21,5,6,0.3,0.6
2025-12-31T0700,3207A,118.3118,32.3038,滁州市,市政府原办公楼,,28,28,72,11,48,53,53,,,20,20,4,5,0.2,0.3
2025-12-31T0700,3331A,118.3267,32.2634,滁州市,图书馆,,17,16,72,8,45,53,53,,,13,18,7,8,0.2,0.4
2025-12-31T0700,2605A,101.5482,25.0441,楚雄彝族自治州,州环境监测站,,19,11,22,6,14,60,60,,,8,15,8,9,0.5,0.6
2025-12-31T0700,2606A,101.538,25.0492,楚雄彝族自治州,市经济开发区,,18,11,24,8,16,57,57,,,9,14,6,6,0.2,0.5
2025-12-31T0700,2548A,107.5277,31.2827,达州市,达州职业技术学院,,,,,,,,,,,,,,,,
2025-12-31T0700,2549A,107.5086,31.2186,达州市,市环境监测站,细颗粒物(PM2.5),98,87,132,73,112,1,1,,,27,35,12,13,0.7,0.9
2025-12-31T0700,2550A,107.4988,31.2132,达州市,凤凰小区,细颗粒物(PM2.5),100,92,139,75,110,3,3,,,24,33,10,12,0.8,1
2025-12-31T0700,2551A,107.5082,31.1986,达州市,达县机关宾馆,细颗粒物(PM2.5),103,88,142,77,111,2,2,,,26,34,7,11,1.0,1.1
2025-12-31T0700,2552A,107.4644,31.2124,达州市,市政中心,细颗粒物(PM2.5),117,113,157,88,115,4,4,,,24,37,8,11,1.1,1.3
2025-12-31T0700,2614A,100.1542,25.7054,大理白族自治州,大理市环境监测站,,33,,16,23,18,70,70,,,7,8,6,6,0.7,0.6
2025-12-31T0700,2615A,100.2171,25.5811,大理白族自治州,大理古城,,20,,18,14,11,60,60,,,8,6,8,8,0.4,0.4
2025-12-31T0700,1109A,121.612,38.9741,大连市,甘井子,,24,24,34,8,18,44,44,,,12,19,7,9,0.1,0.3
2025-12-31T0700,1110A,121.565,38.9511,大连市,周水子,,22,22,33,6,18,38,38,,,18,25,4,7,0.3,0.4
2025-12-31T0700,1111A,121.5637,38.8845,大连市,星海三站,,19,19,28,3,17,44,44,,,12,19,6,7,0.4,0.5
2025-12-31T0700,1112A,121.6302,38.9117,大连市,青泥洼桥,,15,15,27,3,16,38,38,,,14,22,9,10,0.2,0.4
2025-12-31T0700,1113A,121.6251,38.8638,大连市,傅家庄,,19,19,26,3,13,39,39,,,10,17,9,10,0.2,0.4
2025-12-31T0700,1114A,121.5213,38.8661,大连市,七贤岭,,23,23,30,3,16,40,40,,,17,26,7,9,0.5,0.6
2025-12-31T0700,1115A,121.2529,38.8061,大连市,旅顺,,16,16,23,6,14,47,47,,,5,11,7,10,0.2,0.4
2025-12-31T0700,1116A,121.7485,39.1311,大连市,金州,,18,18,33,8,17,40,40,,,14,18,9,10,0.3,0.5
2025-12-31T0700,1117A,121.7811,39.0496,大连市,开发区,,19,19,26,6,13,42,42,,,7,14,6,7,0.3,0.5
2025-12-31T0700,1118A,121.9762,39.0631,大连市,双D港,,22,22,29,7,14,44,44,,,9,14,11,12,0.3,0.5
2025-12-31T0700,1789A,124.81117,46.03138,大庆市,大同区,,27,27,29,8,17,28,28,,,11,12,4,5,0.3,0.3
2025-12-31T0700,1790A,125.129,46.533,大庆市,龙凤区,,24,24,24,9,22,26,26,,,21,22,7,8,0.6,0.7
2025-12-31T0700,1791A,124.902,46.408,大庆市,红岗区,,29,29,30,19,16,28,28,,,14,16,6,6,0.6,0.6
2025-12-31T0700,1792A,125.153,46.586,大庆市,萨尔图区,,23,23,24,10,12,37,37,,,15,20,10,9,0.8,0.8
2025-12-31T0700,1793A,124.9042,46.6215,大庆市,让胡路区,,29,22,27,20,24,34,34,,,7,10,7,8,0.3,0.4
2025-12-31T0700,3481A,125.141,46.634,大庆市,萨区政府监测点,,20,20,25,14,13,26,26,,,14,18,8,8,0.5,0.6
2025-12-31T0700,1721A,113.3819,40.1097,大同市,果树场,,35,32,29,24,19,12,12,,,37,20,6,7,0.7,0.5
2025-12-31T0700,1723A,113.2994,40.0758,大同市,云冈宾馆,,28,28,23,6,8,35,35,,,18,14,9,6,0.5,0.5
2025-12-31T0700,1724A,113.3444,40.0917,大同市,大同大学,,23,,18,16,11,44,44,,,16,12,10,8,0.4,0.4
2025-12-31T0700,1725A,113.2661,40.1269,大同市,安家小村,,22,22,15,9,9,32,32,,,23,13,9,8,0.7,0.5
2025-12-31T0700,1726A,113.2711,40.0844,大同市,教育学院,,36,34,20,25,11,16,16,,,38,16,16,5,1.3,0.4
2025-12-31T0700,3282A,113.3397,40.0597,大同市,大同市卫生学校,,15,13,14,6,7,47,47,,,17,12,7,5,0.9,0.5
2025-12-31T0700,3565A,113.1367,40.1122,大同市,云冈站,颗粒物(PM10),54,58,25,26,11,9,9,,,33,18,15,9,1.1,0.5
2025-12-31T0700,3566A,113.1186,40.2556,大同市,图书馆,,36,29,32,25,21,17,17,,,16,14,6,6,1.3,0.8
2025-12-31T0700,3567A,113.5931,40.0461,大同市,区一中,,26,,20,18,12,47,47,,,9,10,6,8,0.5,0.4
2025-12-31T0700,4199A,113.2798,40.0997,大同市,魏都大道141号,,39,39,21,18,9,18,18,,,36,14,12,5,1.4,0.6
2025-12-31T0700,2269A,124.1069,50.4097,大兴安岭地区,科技局,,23,23,18,16,18,35,35,,,2,2,5,4,0.2,0.2
2025-12-31T0700,3663A,124.1164,50.4278,大兴安岭地区,红旗社区,,13,,6,8,5,39,39,,,4,2,2,2,0.3,0.3
2025-12-31T0700,1600A,124.3303,40.0625,丹东市,江湾东路,,16,16,28,8,18,39,39,,,11,16,8,10,0.3,0.8
2025-12-31T0700,1601A,124.4256,40.1503,丹东市,临江后街,,21,21,28,9,14,30,30,,,22,17,12,10,0.6,0.6
2025-12-31T0700,1602A,124.3933,40.1461,丹东市,元宝山,,18,18,25,11,16,42,42,,,7,14,9,10,0.4,0.5
2025-12-31T0700,1603A,124.3633,40.1092,丹东市,民主桥,,26,26,33,8,12,36,36,,,15,17,10,8,0.3,0.4
2025-12-31T0700,3541A,109.5726,19.5167,儋州市,第一中学子站,颗粒物(PM10),52,53,35,32,20,80,80,,,9,9,3,4,0.6,0.5
2025-12-31T0700,3542A,109.5567,19.5187,儋州市,东坡学校子站,,48,41,31,33,22,88,88,,,8,7,7,6,0.6,0.5
2025-12-31T0700,2616A,98.5842,24.428,德宏傣族景颇族自治州,德宏州监测站,,49,37,49,34,33,4,4,,,26,21,6,6,0.7,0.6
2025-12-31T0700,3677A,98.5881,24.4368,德宏傣族景颇族自治州,芒市人民政府综合楼,,36,,43,25,28,6,6,,,27,23,8,8,0.7,0.7
2025-12-31T0700,1901A,104.4239,31.1208,德阳市,东山公园,细颗粒物(PM2.5),123,98,114,93,104,0,0,,,27,28,3,3,0.9,0.9
2025-12-31T0700,1902A,104.3826,31.1317,德阳市,西小区,细颗粒物(PM2.5),132,120,134,100,107,3,3,,,28,33,3,3,1.0,1.1
2025-12-31T0700,1904A,104.3553,31.1091,德阳市,耐火材料厂,细颗粒物(PM2.5),130,,123,99,113,1,1,,,31,39,2,2,1.0,1.1
2025-12-31T0700,3639A,104.4019,31.1244,德阳市,市教育局,细颗粒物(PM2.5),128,,109,97,105,1,1,,,30,36,4,4,1.0,1.1
2025-12-31T0700,1622A,116.3032,37.4674,德州市,儿童乐园,,44,44,81,14,46,14,14,,,44,40,14,15,1.1,1.2
2025-12-31T0700,1624A,116.2991,37.4451,德州市,监理站,,31,31,68,9,41,24,24,,,46,43,15,16,0.8,0.9
2025-12-31T0700,3066A,116.2721,37.4379,德州市,九衢泉纯净水厂,,34,34,74,14,44,15,15,,,48,41,16,14,0.7,0.8
2025-12-31T0700,3371A,116.3728,37.4403,德州市,开发区人民医院,,34,34,73,9,45,15,15,,,52,47,13,15,0.7,0.9
2025-12-31T0700,3511A,116.5652,37.3319,德州市,陵城艺术中心,,34,34,82,17,51,15,15,,,45,52,12,15,0.7,0.9
2025-12-31T0700,4292A,116.3525,37.4209,德州市,新河东路,,31,31,68,9,43,18,18,,,51,45,13,14,1.0,1.2
2025-12-31T0700,2621A,99.7056,27.8317,迪庆藏族自治州,迪庆州站,,16,16,25,9,16,37,37,,,10,10,5,5,0.3,0.5
2025-12-31T0700,3180A,99.7136,27.8094,迪庆藏族自治州,质量技术监督局,,33,,24,23,17,46,46,,,8,12,4,5,0.4,0.5
2025-12-31T0700,4257A,104.6092,35.5962,定西市,将台街,细颗粒物(PM2.5),64,64,65,46,44,47,47,,,18,21,8,12,0.5,0.7
2025-12-31T0700,4309A,104.6159,35.5701,定西市,正龙路62号,颗粒物(PM10),65,80,74,34,48,44,44,,,11,12,5,10,0.8,0.8
2025-12-31T0700,1389A,113.7547,23.0494,东莞市,莞城梨川,颗粒物(PM10),62,73,62,43,38,14,14,,,56,47,9,7,0.8,0.8
2025-12-31T0700,1390A,113.7944,23.0128,东莞市,东城石井,细颗粒物(PM2.5),68,71,56,49,39,3,3,,,64,52,8,10,0.9,0.9
2025-12-31T0700,1391A,113.7383,22.9658,东莞市,南城西平,细颗粒物(PM2.5),70,88,69,51,43,0,0,,,77,65,9,10,0.9,0.9
2025-12-31T0700,3319A,113.7338,23.0381,东莞市,万江金泰,颗粒物(PM10),63,76,64,44,41,9,9,,,60,47,9,8,0.9,0.9
2025-12-31T0700,3626A,113.7533,23.0202,东莞市,南城元岭,细颗粒物(PM2.5),69,81,57,50,39,8,8,,,64,49,9,8,0.8,0.8
2025-12-31T0700,3627A,113.7875,23.0457,东莞市,东城主山,细颗粒物(PM2.5),67,75,67,48,42,12,12,,,63,56,11,8,0.6,0.6
2025-12-31T0700,1666A,118.6614,37.4309,东营市,市环保局,,22,22,39,3,22,33,33,,,28,29,8,17,0.6,0.7
2025-12-31T0700,3036A,118.6904,37.4338,东营市,开发区管委会,,24,24,42,12,25,38,38,,,20,22,10,14,0.6,0.8
2025-12-31T0700,3365A,118.5719,37.565,东营市,垦利区民丰路,,18,14,41,12,24,38,38,,,22,28,3,5,0.7,0.8
2025-12-31T0700,3498A,118.5055,37.8612,东营市,河口城区,,18,17,46,3,23,55,55,,,15,29,4,6,0.5,0.6
2025-12-31T0700,3646A,118.4978,37.4623,东营市,胜利站,,31,31,51,17,26,27,27,,,33,33,12,13,0.7,0.8
2025-12-31T0700,3734A,118.35,37.26,东营市,理想之城,,31,31,43,19,28,21,21,,,30,31,4,5,0.6,0.7
2025-12-31T0700,1591A,110.0023,39.8129,鄂尔多斯市,综合楼,,19,14,38,3,14,59,59,,,14,35,5,8,0.4,0.5
2025-12-31T0700,1592A,109.9486,39.8261,鄂尔多斯市,巴音孟克林场办事处,,21,14,44,3,19,66,66,,,12,28,6,9,0.3,0.4
2025-12-31T0700,1593A,109.7736,39.5986,鄂尔多斯市,康泽苑,,31,31,34,12,19,48,48,,,22,28,7,8,0.4,0.4
2025-12-31T0700,1594A,109.8119,39.5989,鄂尔多斯市,华泰汽车城,,39,39,36,7,14,48,48,,,21,33,6,5,0.5,0.5
2025-12-31T0700,1595A,109.9734,39.7884,鄂尔多斯市,奥林花园,,29,29,45,3,11,65,65,,,12,30,4,5,0.3,0.5
2025-12-31T0700,2436A,114.8938,30.3994,鄂州市,市政府,细颗粒物(PM2.5),140,111,121,107,106,75,75,,,21,43,5,6,0.9,0.9
2025-12-31T0700,2437A,114.8989,30.3714,鄂州市,赵家坝,细颗粒物(PM2.5),135,113,129,103,104,79,79,,,11,32,7,9,1.0,1.1
2025-12-31T0700,3654A,114.8094,30.4089,鄂州市,精准医疗中心,细颗粒物(PM2.5),145,125,123,111,110,75,75,,,15,38,9,5,0.9,0.9
2025-12-31T0700,2454A,109.4978,30.2981,恩施土家族苗族自治州,湖北民院,细颗粒物(PM2.5),58,46,93,41,94,90,90,,,6,23,6,6,0.8,1.4
2025-12-31T0700,2455A,109.4707,30.2798,恩施土家族苗族自治州,州电力总公司,细颗粒物(PM2.5),54,40,102,38,91,89,89,,,11,32,6,6,0.6,1.1
2025-12-31T0700,3549A,109.5061,30.3772,恩施土家族苗族自治州,龙凤新区,细颗粒物(PM2.5),64,54,114,46,96,66,66,,,3,16,6,7,0.4,1.1
2025-12-31T0700,2499A,108.3411,21.6158,防城港市,沙万,,,,80,,40,,,69,,,33,,11,,0.8
2025-12-31T0700,2500A,108.3514,21.7731,防城港市,防城档案局,颗粒物(PM10),58,66,71,34,47,0,0,,,31,30,5,7,0.8,1
2025-12-31T0700,2501A,108.3506,21.6414,防城港市,大海花园,细颗粒物(PM2.5),52,39,68,36,52,24,24,,,24,25,8,13,0.8,1
2025-12-31T0700,1371A,113.1294,23.0067,佛山市,湾梁,"颗粒物(PM10),细颗粒物(PM2.5)",62,73,68,44,34,1,1,,,74,56,8,10,0.9,0.8
2025-12-31T0700,1372A,113.1083,23.0478,佛山市,华材职中,细颗粒物(PM2.5),60,66,78,43,44,3,3,,,72,62,7,9,0.8,0.8
2025-12-31T0700,1373A,113.144,23.0453,佛山市,南海气象局,"颗粒物(PM10),细颗粒物(PM2.5)",54,58,66,38,39,0,0,,,73,62,8,11,0.8,0.9
2025-12-31T0700,1374A,113.2881,22.8094,佛山市,顺德苏岗,细颗粒物(PM2.5),73,82,59,53,42,0,0,,,74,59,12,9,1.1,0.9
2025-12-31T0700,1376A,112.8383,22.8678,佛山市,高明孔堂,细颗粒物(PM2.5),68,83,58,49,39,0,0,,,63,34,24,8,0.8,0.7
2025-12-31T0700,1377A,112.8836,23.1588,佛山市,三水监测站,细颗粒物(PM2.5),73,80,79,53,47,5,5,,,58,50,17,11,0.9,0.9
2025-12-31T0700,1378A,112.867,23.185,佛山市,三水云东海,细颗粒物(PM2.5),69,77,68,50,43,3,3,,,48,42,7,7,0.6,0.6
2025-12-31T0700,3625A,113.2544,22.7642,佛山市,容桂街道办,细颗粒物(PM2.5),73,92,87,53,56,1,1,,,84,72,10,10,1.0,1
2025-12-31T0700,1280A,119.3903,26.0543,福州市,鼓山,,,,37,,18,,,91,,,13,,2,,0.6
2025-12-31T0700,1282A,119.2681,26.0504,福州市,师大,,49,48,41,34,29,61,61,,,35,30,8,8,0.6,0.5
2025-12-31T0700,1283A,119.2984,26.1028,福州市,五四北路,细颗粒物(PM2.5),53,50,41,37,26,74,74,,,24,23,7,6,0.8,0.6
2025-12-31T0700,1284A,119.2648,26.0768,福州市,杨桥西路,,50,43,39,35,26,86,86,,,14,19,6,5,0.7,0.6
2025-12-31T0700,1285A,119.317,26.0746,福州市,紫阳,细颗粒物(PM2.5),57,55,52,40,28,89,89,,,19,22,11,8,0.8,0.6
2025-12-31T0700,3048A,119.5799,26.0936,福州市,九龙,,49,49,44,31,29,85,85,,,20,20,9,6,0.6,0.5
2025-12-31T0700,3526A,119.5189,25.9664,福州市,吴航,颗粒物(PM10),52,53,52,34,29,85,85,,,20,20,8,6,0.5,0.5
2025-12-31T0700,1755A,123.7977,41.8491,抚顺市,望花区,,20,18,46,14,22,15,15,,,33,28,4,5,0.7,0.9
2025-12-31T0700,1756A,123.9161,41.8822,抚顺市,顺城区,,33,33,55,12,30,19,19,,,32,32,8,9,0.7,0.9
2025-12-31T0700,1757A,124.0436,41.8611,抚顺市,东洲区,,33,33,58,17,31,12,12,,,31,32,11,27,0.9,1.1
2025-12-31T0700,1758A,123.9247,41.8642,抚顺市,新抚区,,31,31,51,10,25,26,26,,,22,26,10,8,0.5,0.7
2025-12-31T0700,1759A,124.0972,41.8961,抚顺市,大伙房水库,,23,23,50,12,32,20,20,,,23,31,10,11,0.6,0.8
2025-12-31T0700,1760A,123.7086,41.8391,抚顺市,沈抚新城,,23,23,37,6,22,27,27,,,21,27,7,10,0.2,0.5
2025-12-31T0700,2376A,116.2127,28.0814,抚州市,桐源党溪,,,,,,,,,,,,,,,,
2025-12-31T0700,2377A,116.3544,27.9831,抚州市,市站,细颗粒物(PM2.5),128,118,89,97,68,50,50,,,20,21,9,9,1.1,1
2025-12-31T0700,2378A,116.3565,27.963,抚州市,血防站,细颗粒物(PM2.5),135,114,88,103,69,57,57,,,18,21,8,9,1.5,1.4
2025-12-31T0700,2379A,116.3564,28.0007,抚州市,采茶剧团,细颗粒物(PM2.5),140,124,94,107,73,52,52,,,15,16,6,8,1.6,1.4
2025-12-31T0700,2380A,116.385,27.9647,抚州市,医学分院,细颗粒物(PM2.5),134,126,98,102,70,59,59,,,16,19,16,12,1.0,1.1
2025-12-31T0700,2207A,121.6094,41.998,阜新市,工业园区,,18,18,32,7,9,45,45,,,9,9,8,8,0.3,0.3
2025-12-31T0700,2208A,121.6697,42.0279,阜新市,长青街,,20,20,23,10,7,44,44,,,8,9,6,7,0.4,0.4
2025-12-31T0700,2209A,121.6673,42.0705,阜新市,农业园区,,14,12,23,3,5,43,43,,,7,7,5,7,0.4,0.3
2025-12-31T0700,2210A,121.6717,42.0224,阜新市,东苑,,23,23,34,8,8,43,43,,,7,8,4,4,0.4,0.4
2025-12-31T0700,2211A,121.6506,42.0498,阜新市,玉龙新城,,24,24,32,3,6,34,34,,,18,12,10,7,0.5,0.4
2025-12-31T0700,2301A,115.8277,32.8929,阜阳市,市监测站,,42,42,109,20,79,52,52,,,15,22,4,5,0.3,0.6
2025-12-31T0700,2303A,115.8554,32.8605,阜阳市,开发区,,32,24,101,22,80,48,48,,,13,20,4,5,0.2,0.5
2025-12-31T0700,2875A,115.784,32.8892,阜阳市,阜阳职业技术学院,,26,26,101,18,73,56,56,,,11,17,6,7,0.3,0.6
2025-12-31T0700,3468A,115.7901,32.8613,阜阳市,市规划展馆,,30,30,108,15,80,57,57,,,14,20,5,7,0.3,0.6
2025-12-31T0700,3469A,115.836,32.9183,阜阳市,枣园社区,,39,39,113,20,85,47,47,,,18,24,5,6,0.4,0.7
2025-12-31T0700,2669A,102.9099,34.9841,甘南藏族自治州,州政府,细颗粒物(PM2.5),64,55,56,46,35,48,48,,,24,25,10,12,0.9,0.8
2025-12-31T0700,3380A,102.8914,34.9617,甘南藏族自治州,甘肃民族师范学院,细颗粒物(PM2.5),69,78,63,50,29,42,42,,,32,30,6,8,1.0,1
2025-12-31T0700,2570A,101.9603,30.0475,甘孜藏族自治州,水桥子,,12,8,21,8,13,21,21,,,19,23,6,6,0.5,0.7
2025-12-31T0700,3065A,101.9533,29.9972,甘孜藏族自治州,州环保局,,15,14,23,3,8,47,47,,,11,21,6,6,0.4,0.5
2025-12-31T0700,3414A,115.8347,28.932,赣江新区,桑海产业园,细颗粒物(PM2.5),140,175,149,107,113,65,65,,,19,28,9,11,1.2,1.1
2025-12-31T0700,2362A,114.9017,25.9149,赣州市,通天岩,,45,36,41,31,27,48,48,,,5,7,17,17,1.4,1.3
2025-12-31T0700,2363A,114.9367,25.8664,赣州市,地委,颗粒物(PM10),60,70,58,41,36,8,8,,,40,27,7,8,0.8,0.8
2025-12-31T0700,2364A,114.9461,25.8481,赣州市,气象台,颗粒物(PM10),59,67,65,36,35,18,18,,,44,38,2,5,0.8,0.8
2025-12-31T0700,2365A,114.9322,25.8333,赣州市,市图书馆,细颗粒物(PM2.5),62,56,58,44,39,5,5,,,57,32,3,5,1.0,1
2025-12-31T0700,2366A,114.8905,25.8471,赣州市,华坚鞋城,细颗粒物(PM2.5),62,64,58,44,35,29,29,,,37,29,6,8,0.6,0.6
2025-12-31T0700,3109A,115.0093,25.8613,赣州市,赣县区卫计委,细颗粒物(PM2.5),58,54,53,41,45,15,15,,,25,31,7,7,0.5,0.5
2025-12-31T0700,2683A,106.2319,36.1417,固原市,马园,,,,,,,,,,,,,,,,
2025-12-31T0700,2684A,106.2792,36.0022,固原市,监测站,颗粒物(PM10),52,54,77,30,42,41,41,,,19,28,4,7,0.6,0.9
2025-12-31T0700,2685A,106.2375,36.0211,固原市,新区,颗粒物(PM10),51,51,78,30,40,41,41,,,18,30,3,6,0.6,0.8
2025-12-31T0700,3522A,106.2177,35.9959,固原市,原州区十五小,颗粒物(PM10),58,66,78,33,43,40,40,,,16,26,4,8,0.6,0.8
2025-12-31T0700,2543A,106.6308,30.5278,广安市,小平旧居,,,,,,,,,,,,,,,,
2025-12-31T0700,2544A,106.6303,30.4576,广安市,市委,细颗粒物(PM2.5),102,87,103,76,97,12,12,,,20,23,6,5,0.9,1
2025-12-31T0700,2545A,106.6271,30.4663,广安市,友谊中学,细颗粒物(PM2.5),103,85,99,77,89,19,19,,,18,19,2,3,0.9,0.9
2025-12-31T0700,2547A,106.6388,30.4551,广安市,广电花园,细颗粒物(PM2.5),107,,84,80,95,10,10,,,18,22,8,8,0.8,0.8
2025-12-31T0700,2902A,106.6351,30.4865,广安市,北辰小学,细颗粒物(PM2.5),103,83,96,77,89,16,16,,,15,15,14,14,1.0,1
2025-12-31T0700,2523A,105.8945,32.4535,广元市,黑石坡,,,,,,,,,,,,,,,,
2025-12-31T0700,2524A,105.821,32.4444,广元市,老城,,26,23,81,18,61,65,65,,,13,40,7,12,0.7,1.1
2025-12-31T0700,2526A,105.8628,32.4287,广元市,监测站,,30,30,73,20,53,58,58,,,13,35,5,7,0.7,1.4
2025-12-31T0700,3617A,105.8047,32.4166,广元市,经开区,,22,20,100,15,67,55,55,,,17,38,2,21,0.7,1.4
2025-12-31T0700,1345A,113.2347,23.1423,广州市,广雅中学,颗粒物(PM10),54,58,74,35,41,0,0,,,68,62,3,6,0.8,1
2025-12-31T0700,1346A,113.2612,23.105,广州市,市五中,细颗粒物(PM2.5),57,54,52,40,34,4,4,,,80,63,8,10,0.7,0.8
2025-12-31T0700,1348A,113.3478,23.0916,广州市,广东商学院,细颗粒物(PM2.5),59,57,52,42,37,0,0,,,70,53,7,8,0.7,0.7
2025-12-31T0700,1349A,113.4332,23.1047,广州市,市八十六中,细颗粒物(PM2.5),54,55,55,38,33,1,1,,,73,58,9,10,1.1,1
2025-12-31T0700,1350A,113.3505,22.9483,广州市,番禺中学,颗粒物(PM10),67,84,66,45,42,3,3,,,70,58,9,7,1.1,1.1
2025-12-31T0700,1351A,113.2146,23.3916,广州市,花都师范,"颗粒物(PM10),细颗粒物(PM2.5)",57,64,54,40,33,2,2,,,80,47,11,10,0.8,0.7
2025-12-31T0700,1352A,113.2597,23.1331,广州市,市监测站,,48,48,57,33,34,1,1,,,72,58,3,6,0.7,0.7
2025-12-31T0700,1353A,113.5618,23.312,广州市,九龙镇镇龙,,48,48,58,32,36,2,2,,,43,36,5,7,0.7,0.7
2025-12-31T0700,1354A,113.2765,23.1544,广州市,麓湖,,46,41,45,32,32,1,1,,,62,56,8,9,0.6,0.5
2025-12-31T0700,1355A,113.443,23.3035,广州市,帽峰山森林公园,,,,,,,,,,,,,,,,
2025-12-31T0700,2846A,113.3221,23.1322,广州市,体育西,细颗粒物(PM2.5),54,56,57,38,36,2,2,,,74,59,6,8,0.7,0.8
2025-12-31T0700,3298A,113.5717,23.5491,广州市,从化街口,,36,35,49,25,34,10,10,,,33,38,8,10,0.6,0.8
2025-12-31T0700,3299A,113.3472,23.3692,广州市,白云竹料,颗粒物(PM10),51,51,60,33,36,3,3,,,49,42,4,8,0.7,0.7
2025-12-31T0700,3300A,113.2981,23.237,广州市,白云嘉禾,,43,43,61,27,37,6,6,,,54,54,5,8,0.6,0.8
2025-12-31T0700,3301A,113.4256,23.1716,广州市,黄埔科学城,,50,48,43,35,29,29,29,,,32,33,3,4,0.7,0.7
2025-12-31T0700,3302A,113.3942,23.0483,广州市,番禺大学城,,,75,63,48,35,,,,,62,47,18,16,0.8,0.7
2025-12-31T0700,3303A,113.4922,22.8168,广州市,南沙黄阁,细颗粒物(PM2.5),87,98,80,64,51,4,4,,,89,75,7,11,1.0,1
2025-12-31T0700,3304A,113.5342,22.7896,广州市,南沙街,细颗粒物(PM2.5),59,65,80,42,49,30,30,,,57,59,6,10,0.6,0.8
2025-12-31T0700,3443A,113.2902,23.5544,广州市,花都梯面,,39,38,37,27,26,1,1,,,39,30,5,8,0.6,0.6
2025-12-31T0700,3445A,113.7858,23.7478,广州市,从化良口,,23,23,28,16,21,6,6,,,25,19,8,9,0.6,0.6
2025-12-31T0700,3446A,113.8051,23.2614,广州市,增城荔城,,33,30,38,23,28,31,31,,,20,22,7,7,0.5,0.6
2025-12-31T0700,2505A,109.568,23.1478,贵港市,德智高中,,,,,,,,,,,,,,,,
2025-12-31T0700,2506A,109.6047,23.0666,贵港市,江南子站,细颗粒物(PM2.5),65,66,74,47,48,29,29,,,30,33,10,10,0.7,0.8
2025-12-31T0700,2508A,109.5669,23.1065,贵港市,荷城子站,颗粒物(PM10),56,61,63,34,41,36,36,,,27,30,10,8,1.0,1
2025-12-31T0700,3405A,109.5886,23.1172,贵港市,新世纪学校,细颗粒物(PM2.5),62,66,67,44,43,27,27,,,37,38,10,10,0.6,0.6
2025-12-31T0700,4260A,109.5933,23.0951,贵港市,中山路155-3号,细颗粒物(PM2.5),68,73,62,49,45,24,24,,,39,30,9,9,0.7,0.7
2025-12-31T0700,1439A,106.6899,26.5998,贵阳市,马鞍山,细颗粒物(PM2.5),52,39,35,36,31,38,38,,,8,18,3,5,0.4,0.7
2025-12-31T0700,1441A,106.6243,26.6266,贵阳市,鉴湖路,,41,41,42,24,25,58,58,,,13,21,4,4,0.6,0.6
2025-12-31T0700,1442A,106.7487,26.6343,贵阳市,燕子冲,细颗粒物(PM2.5),58,41,32,41,31,48,48,,,12,16,5,7,0.5,0.6
2025-12-31T0700,1443A,106.6555,26.4365,贵阳市,碧云窝,,49,46,47,34,28,60,60,,,7,13,5,6,0.4,0.5
2025-12-31T0700,1445A,106.7109,26.6027,贵阳市,红边门,细颗粒物(PM2.5),55,,39,39,29,32,32,,,16,26,6,10,0.7,0.8
2025-12-31T0700,1446A,106.7164,26.5699,贵阳市,新华路,颗粒物(PM10),52,53,45,34,27,38,38,,,15,22,4,8,0.5,0.6
2025-12-31T0700,1447A,106.674,26.5424,贵阳市,太慈桥,,45,41,40,31,30,57,57,,,10,21,3,6,0.2,0.3
2025-12-31T0700,1552A,106.805,26.3003,贵阳市,桐木岭,细颗粒物(PM2.5),55,53,38,39,27,76,76,,,3,4,4,7,1.2,1.2
2025-12-31T0700,4230A,106.6882,26.5695,贵阳市,花果园大街66号,细颗粒物(PM2.5),64,,32,46,39,43,43,,,14,22,1,2,0.1,0.2
2025-12-31T0700,4231A,106.6873,26.5169,贵阳市,漓江路57号,细颗粒物(PM2.5),52,48,44,36,31,47,47,,,17,25,7,10,0.7,0.8
2025-12-31T0700,1862A,110.4144,25.3167,桂林市,电子科大尧山校区,,,,,,,,,,,,,,,,
2025-12-31T0700,1864A,110.3089,25.2708,桂林市,龙隐路小学,细颗粒物(PM2.5),77,69,62,56,50,76,76,,,12,12,8,8,0.7,0.6
2025-12-31T0700,1865A,110.2869,25.2178,桂林市,八中,细颗粒物(PM2.5),80,67,65,59,53,41,41,,,45,26,8,9,0.7,0.5
2025-12-31T0700,3531A,110.296,25.1253,桂林市,旅游学院,细颗粒物(PM2.5),62,61,58,44,44,44,44,,,22,17,4,6,0.6,0.6
2025-12-31T0700,4222A,110.1835,25.2444,桂林市,环湖路276号,细颗粒物(PM2.5),89,80,65,66,50,76,76,,,18,20,8,8,0.5,0.4
2025-12-31T0700,4301A,110.2803,25.2773,桂林市,信义路13号,细颗粒物(PM2.5),100,78,64,75,46,90,90,,,18,17,7,7,0.8,0.8
2025-12-31T0700,2674A,100.2561,34.4714,果洛藏族自治州,玛沁县大武镇,,25,25,39,8,15,32,32,,,2,4,18,15,0.3,0.5
2025-12-31T0700,1129A,126.5422,45.755,哈尔滨市,岭北,,,,,,,,,,,,,,,,
2025-12-31T0700,1130A,126.561,45.8167,哈尔滨市,松北商大,,34,34,33,17,23,15,15,,,24,28,9,11,0.5,0.5
2025-12-31T0700,1132A,126.599,45.7222,哈尔滨市,南岗学府路,,30,30,30,18,19,5,5,,,31,20,22,11,0.6,0.6
2025-12-31T0700,1133A,126.689,45.7733,哈尔滨市,太平宏伟公园,,27,27,28,16,20,17,17,,,21,17,25,21,0.8,0.7
2025-12-31T0700,1134A,126.635,45.7667,哈尔滨市,道外承德广场,,48,48,46,21,21,15,15,,,28,21,18,11,0.7,0.5
2025-12-31T0700,1136A,126.6411,45.7258,哈尔滨市,动力和平路,,36,36,33,22,23,11,11,,,28,22,18,15,0.6,0.6
2025-12-31T0700,1137A,126.593,45.7478,哈尔滨市,道里建国路,,32,24,28,22,21,13,13,,,24,19,11,8,0.5,0.6
2025-12-31T0700,1138A,126.615,45.61,哈尔滨市,平房东轻厂,细颗粒物(PM2.5),55,,58,39,49,2,2,,,37,35,7,7,1.1,1.2
2025-12-31T0700,1139A,126.595,45.9855,哈尔滨市,呼兰师专,,39,,37,27,38,11,11,,,24,24,4,7,0.7,0.7
2025-12-31T0700,1140A,126.6206,45.6842,哈尔滨市,省农科院,,45,42,40,31,28,9,9,,,36,27,10,12,0.7,0.7
2025-12-31T0700,4282A,126.6769,45.7379,哈尔滨市,华山路1号,,34,34,29,23,18,14,14,,,26,23,17,14,0.8,0.7
2025-12-31T0700,4283A,126.9717,45.5356,哈尔滨市,解放大街52号,,,,37,,28,,,36,,,16,,6,,0.7
2025-12-31T0700,2688A,93.5128,42.8172,哈密市,地区监测站,颗粒物(PM10),51,51,63,22,40,48,48,,,13,19,10,11,0.0,0
2025-12-31T0700,2689A,93.4961,42.8328,哈密市,哈密师范学校,颗粒物(PM10),56,62,67,27,34,10,10,,,57,31,3,5,0.6,0.3
2025-12-31T0700,2671A,100.9048,36.9639,海北藏族自治州,海晏县西海镇,细颗粒物(PM2.5),53,,33,37,25,36,36,,,13,17,9,14,1.0,0.7
2025-12-31T0700,3867A,102.0738,36.5056,海东市,平安区公安北苑,细颗粒物(PM2.5),89,67,72,66,50,30,30,,,34,32,17,30,1.2,1.4
2025-12-31T0700,1409A,110.576,19.9507,海口市,东寨港,,,,,,,,,,,,,,,,
2025-12-31T0700,1410A,110.3232,20.0574,海口市,海南大学,,50,48,42,35,30,109,109,,,13,11,6,6,0.4,0.4
2025-12-31T0700,1411A,110.283,20.0053,海口市,秀英海南医院,细颗粒物(PM2.5),62,54,42,44,33,86,86,,,22,15,8,8,0.5,0.4
2025-12-31T0700,1412A,110.338,19.9969,海口市,海南师范大学,,,55,43,45,33,97,97,,,,16,7,6,,0.5
2025-12-31T0700,1413A,110.33,20.0356,海口市,龙华路环保局宿舍,细颗粒物(PM2.5),53,47,41,37,32,108,108,,,17,13,9,9,0.8,0.7
2025-12-31T0700,3539A,110.5111,19.9736,海口市,桂林洋子站,细颗粒物(PM2.5),74,69,51,54,37,96,96,,,13,12,9,9,0.5,0.4
2025-12-31T0700,2673A,100.6188,36.2866,海南藏族自治州,共和县恰卜恰镇,,34,34,43,11,24,23,23,,,25,25,12,14,0.6,0.6
2025-12-31T0700,2676A,97.3731,37.3753,海西蒙古族藏族自治州,德令哈市,,25,25,27,3,11,69,69,,,4,10,12,11,0.6,0.7
2025-12-31T0700,1048A,114.5302,36.6116,邯郸市,东污水处理厂,,38,32,78,26,70,31,31,,,21,33,5,6,0.6,0.8
2025-12-31T0700,1049A,114.4918,36.5713,邯郸市,矿院,,40,40,71,27,69,38,38,,,27,37,4,6,0.6,0.8
2025-12-31T0700,1050A,114.484,36.6133,邯郸市,丛台公园,,35,27,79,24,66,39,39,,,24,34,6,7,0.6,0.7
2025-12-31T0700,3458A,114.7895,36.5593,邯郸市,香泉濮院小区,,45,31,88,31,74,28,28,,,27,36,3,6,0.6,0.8
2025-12-31T0700,3579A,114.50634,36.77178,邯郸市,永年区实验高中,,44,44,77,15,46,30,30,,,31,44,3,6,0.6,0.7
2025-12-31T0700,3580A,114.20016,36.44293,邯郸市,峰峰矿区临水派出所,,28,27,63,19,71,52,52,,,15,27,7,10,0.8,0.9
2025-12-31T0700,2634A,106.9893,33.1842,汉中市,汉川机床厂子校,,,,,,,,,,,,,,,,
2025-12-31T0700,2635A,107.0154,33.0706,汉中市,市监测站,细颗粒物(PM2.5),62,,112,44,101,80,80,,,12,38,4,5,0.5,1.3
2025-12-31T0700,2636A,107.0089,33.1138,汉中市,鑫源开发区,细颗粒物(PM2.5),57,41,92,40,74,83,83,,,10,36,4,5,0.5,1.1
2025-12-31T0700,2637A,107.007,33.0323,汉中市,南郑大河坎水厂,"颗粒物(PM10),细颗粒物(PM2.5)",63,76,158,45,138,74,74,,,11,35,6,6,0.7,1.7
2025-12-31T0700,1223A,120.2072,30.2111,杭州市,滨江,,16,16,97,7,44,37,37,,,29,38,9,10,0.1,0.4
2025-12-31T0700,1224A,120.0633,30.2747,杭州市,西溪,,32,32,100,6,59,35,35,,,39,44,8,8,0.4,0.8
2025-12-31T0700,1226A,120.3417,30.3150,杭州市,下沙,,32,32,103,12,68,25,25,,,43,39,7,8,0.7,0.8
2025-12-31T0700,1227A,120.1269,30.2456,杭州市,卧龙桥,,23,23,103,6,63,40,40,,,28,33,9,10,0.4,0.7
2025-12-31T0700,1228A,120.1903,30.2692,杭州市,浙江农大,,26,17,98,7,64,24,24,,,52,39,2,3,0.2,0.5
2025-12-31T0700,1230A,120.1197,30.3119,杭州市,和睦小学,,26,19,117,18,69,42,42,,,36,38,4,5,0.5,0.8
2025-12-31T0700,1231A,120.3019,30.4183,杭州市,临平镇,,,20,89,10,64,23,23,,,38,29,7,7,,0.7
2025-12-31T0700,1232A,120.2753,30.1839,杭州市,城厢镇,,46,46,113,10,68,24,24,,,43,37,8,9,0.3,0.6
2025-12-31T0700,1233A,120.0883,30.1808,杭州市,云栖,,28,28,104,6,66,39,39,,,30,34,4,4,0.7,1
2025-12-31T0700,3557A,119.9464,30.0494,杭州市,镇二中,,17,13,92,8,72,37,37,,,33,42,6,6,0.5,0.9
2025-12-31T0700,3558A,119.7183,30.2367,杭州市,市府大楼,,23,23,122,10,72,41,41,,,24,31,10,10,0.4,0.8
2025-12-31T0700,3656A,120.1556,30.2864,杭州市,消防大队,,30,30,108,11,78,28,28,,,33,33,6,6,0.3,0.6
2025-12-31T0700,1270A,117.1959,31.7848,合肥市,明珠广场,,27,27,106,9,73,47,47,,,15,24,7,7,0.5,0.7
2025-12-31T0700,1271A,117.3072,31.8764,合肥市,三里街,,27,27,98,9,72,46,46,,,20,30,6,6,0.7,1
2025-12-31T0700,1272A,117.2588,31.8707,合肥市,琥珀山庄,,27,27,97,15,73,50,50,,,19,27,8,8,0.6,0.9
2025-12-31T0700,1273A,117.1604,31.9052,合肥市,董铺水库,,,,,,,,,,,,,,,,
2025-12-31T0700,1274A,117.25,31.8571,合肥市,长江中路,,29,29,101,17,75,48,48,,,18,26,8,8,0.7,1
2025-12-31T0700,1275A,117.266,31.9436,合肥市,庐阳区,,27,27,102,9,68,54,54,,,20,32,3,4,0.6,0.9
2025-12-31T0700,1276A,117.3453,31.8616,合肥市,瑶海区,,27,27,99,12,69,46,46,,,24,34,5,6,0.6,0.9
2025-12-31T0700,1277A,117.3027,31.7964,合肥市,包河区,,31,31,106,17,77,36,36,,,37,57,7,8,0.8,1.1
2025-12-31T0700,1278A,117.2776,31.7385,合肥市,滨湖新区,,28,27,110,19,85,46,46,,,22,27,5,6,0.8,1.1
2025-12-31T0700,1279A,117.1318,31.8403,合肥市,高新区,,27,27,99,11,71,53,53,,,18,26,4,5,0.6,1
2025-12-31T0700,3464A,117.3803,31.9147,合肥市,高教基地,,22,22,97,11,73,52,52,,,18,24,8,9,0.5,0.8
2025-12-31T0700,3614A,79.924,37.0877,和田地区,地区环保局,颗粒物(PM10),54,58,97,16,37,47,47,,,9,19,3,2,0.8,0.7
2025-12-31T0700,3615A,79.9131,37.113,和田地区,市环保局,,18,12,96,12,36,51,51,,,11,20,3,2,0.4,1.2
2025-12-31T0700,2516A,108.2011,24.715,河池市,东仁乐园,,,,,,,,,,,,,,,,
2025-12-31T0700,2517A,108.0497,24.6947,河池市,市环保站,细颗粒物(PM2.5),77,69,78,56,52,4,4,,,34,31,3,7,1.0,1
2025-12-31T0700,4302A,108.0901,24.6945,河池市,上任中路54号,细颗粒物(PM2.5),75,59,79,55,56,0,0,,,37,37,9,12,1.1,1.1
2025-12-31T0700,1696A,114.6778,23.7569,河源市,源西,,,,,,,,,,,,,,,,
2025-12-31T0700,1697A,114.6944,23.7586,河源市,东埔,,36,36,41,20,25,5,5,,,39,28,5,6,0.8,0.8
2025-12-31T0700,1698A,114.6892,23.7233,河源市,老城,,32,32,40,17,24,12,12,,,27,25,6,7,0.9,0.9
2025-12-31T0700,1718A,115.4208,35.2464,菏泽市,气象局,,46,46,153,29,116,34,34,,,22,37,6,7,0.5,0.9
2025-12-31T0700,3374A,115.5564,35.0891,菏泽市,定陶老年大学,细颗粒物(PM2.5),52,51,141,36,109,25,25,,,24,36,6,8,0.8,1.2
2025-12-31T0700,4184A,115.4797,35.24401,菏泽市,永昌路1号,细颗粒物(PM2.5),54,52,155,38,120,30,30,,,21,38,6,10,0.7,1.2
2025-12-31T0700,4193A,115.4715,35.2800,菏泽市,长城路999号,,41,41,154,22,117,28,28,,,21,38,6,7,0.8,1.2
2025-12-31T0700,2514A,111.5264,24.4172,贺州市,环保小区,细颗粒物(PM2.5),68,,60,49,48,11,11,,,29,22,6,7,0.9,0.9
2025-12-31T0700,2515A,111.5608,24.4078,贺州市,政协大楼,细颗粒物(PM2.5),59,50,53,42,39,6,6,,,30,26,8,8,0.6,0.7
2025-12-31T0700,3534A,111.4744,24.4553,贺州市,西湾,细颗粒物(PM2.5),79,70,64,58,46,28,28,,,21,25,8,8,0.8,0.7
2025-12-31T0700,2385A,114.17,35.9019,鹤壁市,市监测站,,32,29,103,22,83,32,32,,,20,30,10,9,0.8,1.1
2025-12-31T0700,2386A,114.2956,35.7511,鹤壁市,市交警支队,,42,40,109,29,77,27,27,,,22,36,10,10,0.7,0.9
2025-12-31T0700,2387A,114.2878,35.7306,鹤壁市,迎宾馆,,37,37,108,24,81,36,36,,,20,33,7,9,0.8,1
2025-12-31T0700,3474A,114.2617,35.6822,鹤壁市,大新区,,32,32,96,3,65,39,39,,,25,34,7,9,0.7,0.9
2025-12-31T0700,3596A,114.1572,35.9603,鹤壁市,南山宾馆,,45,45,109,25,82,36,36,,,17,31,10,10,0.7,1
2025-12-31T0700,2244A,130.2537,47.3416,鹤岗市,哈啤分公司,,39,27,25,27,22,49,49,,,6,7,6,6,0.4,0.4
2025-12-31T0700,2245A,130.2684,47.3086,鹤岗市,斯达机电,,39,35,31,27,25,47,47,,,9,9,6,5,0.4,0.5
2025-12-31T0700,2246A,130.3114,47.3388,鹤岗市,东山纸板厂,,39,,21,27,22,52,52,,,4,7,6,8,0.7,0.7
2025-12-31T0700,2247A,130.1097,47.3382,鹤岗市,五号水库,,,,,,,,,,,,,,,,
2025-12-31T0700,2263A,127.4833,50.2524,黑河市,交通局,,20,,19,14,16,41,41,,,3,13,4,4,0.3,0.5
2025-12-31T0700,2264A,127.5144,50.2341,黑河市,环保局,,12,11,19,7,16,36,36,,,9,12,4,4,0.3,0.4
2025-12-31T0700,2265A,127.5291,50.2472,黑河市,大黑河岛,,,,,,,,,,,,,,,,
2025-12-31T0700,1074A,115.6838,37.7541,衡水市,电机北厂,,39,31,78,27,49,22,22,,,27,42,5,11,0.4,0.6
2025-12-31T0700,1075A,115.6303,37.7316,衡水市,市监测站,,36,36,72,17,40,29,29,,,32,44,6,8,0.4,0.7
2025-12-31T0700,3188A,115.6683,37.7217,衡水市,市城管局,,36,35,80,25,56,22,22,,,35,43,6,10,0.4,0.8
2025-12-31T0700,3459A,115.5989,37.5491,衡水市,地表水厂,,40,40,64,19,47,11,11,,,40,36,6,6,0.6,0.6
2025-12-31T0700,2456A,112.5003,26.9167,衡阳市,原169医院,,,,,,,,,,,,,,,,
2025-12-31T0700,2457A,112.6194,26.9258,衡阳市,衡阳化工总厂,细颗粒物(PM2.5),198,,121,148,120,32,32,,,23,24,8,13,1.3,1.3
2025-12-31T0700,2458A,112.6211,26.8956,衡阳市,珠晖区环保局,细颗粒物(PM2.5),190,,115,143,114,26,26,,,31,33,7,9,1.5,1.5
2025-12-31T0700,2459A,112.6197,26.8733,衡阳市,市委党校,细颗粒物(PM2.5),200,,114,150,121,44,44,,,21,23,9,11,1.3,1.3
2025-12-31T0700,2460A,112.6006,26.8919,衡阳市,市监测站,细颗粒物(PM2.5),170,180,155,129,110,41,41,,,16,21,9,12,1.1,1.1
2025-12-31T0700,2461A,112.5664,26.9056,衡阳市,真空机电公司,细颗粒物(PM2.5),210,180,140,160,124,40,40,,,22,30,9,12,1.2,1.3
2025-12-31T0700,3399A,112.6703,26.882,衡阳市,师范学院,细颗粒物(PM2.5),166,164,135,126,102,43,43,,,25,26,9,7,1.4,1.3
2025-12-31T0700,2608A,103.3772,23.3993,红河哈尼族彝族自治州,污水处理厂,,49,38,33,34,30,42,42,,,7,7,6,6,0.4,0.4
2025-12-31T0700,2609A,103.3861,23.35,红河哈尼族彝族自治州,监测站,,35,27,36,24,30,63,63,,,2,4,7,8,0.2,0.3
2025-12-31T0700,3038A,103.3758,23.368,红河哈尼族彝族自治州,州图书馆,,19,16,27,11,18,60,60,,,4,5,5,6,0.4,0.4
2025-12-31T0700,1090A,111.6507,40.7517,呼和浩特市,呼市一监,,19,9,11,3,4,59,59,,,12,11,1,2,0.4,0.2
2025-12-31T0700,1094A,111.7516,40.8369,呼和浩特市,如意水处理厂,,15,11,7,6,3,47,47,,,24,11,9,8,0.4,0.2
2025-12-31T0700,1095A,111.7276,40.8062,呼和浩特市,二十九中,,17,10,10,3,3,53,53,,,15,9,8,9,0.3,0.2
2025-12-31T0700,1097A,111.717,40.7612,呼和浩特市,化肥厂生活区,,19,10,12,3,4,59,59,,,9,11,4,4,0.6,0.5
2025-12-31T0700,3699A,111.6518,40.8389,呼和浩特市,海东办,,17,6,8,3,3,53,53,,,20,11,4,4,0.3,0.2
2025-12-31T0700,4275A,111.5915,40.8273,呼和浩特市,成吉思汗西街8号,,17,6,5,3,3,52,52,,,17,13,6,6,0.3,0.3
2025-12-31T0700,4276A,111.6597,40.8077,呼和浩特市,公园东路75号,,17,6,10,3,4,53,53,,,18,17,5,5,0.2,0.2
2025-12-31T0700,4277A,111.5417,40.7846,呼和浩特市,金海路35号,,16,10,14,3,3,50,50,,,21,14,8,8,0.1,0.1
2025-12-31T0700,3061A,119.7512,49.1577,呼伦贝尔市,国华电力东,,30,30,29,17,23,33,33,,,18,19,5,7,0.3,0.4
2025-12-31T0700,4279A,119.7569,49.2222,呼伦贝尔市,伊敏大街东7号,,33,,26,23,22,39,39,,,10,10,7,7,0.3,0.3
2025-12-31T0700,1250A,120.0751,30.8669,湖州市,城西水厂,,21,11,79,6,63,66,66,,,15,29,8,9,0.1,0.4
2025-12-31T0700,2873A,120.0830,30.8929,湖州市,仁皇山新区,,22,10,77,3,60,68,68,,,19,29,8,9,0.1,0.4
2025-12-31T0700,2907A,120.1844,30.8596,湖州市,吴兴区站,,23,23,92,3,56,60,60,,,17,26,5,6,0.4,0.7
2025-12-31T0700,3562A,120.4148,30.8538,湖州市,南浔区站,,18,18,69,9,38,31,31,,,36,33,6,6,0.4,0.5
2025-12-31T0700,1607A,120.9049,40.7211,葫芦岛市,龙港区,,19,,47,13,25,35,35,,,23,26,12,21,0.6,0.8
2025-12-31T0700,1608A,120.8392,40.7514,葫芦岛市,化工街,,24,24,37,7,15,26,26,,,28,22,31,20,0.4,0.5
2025-12-31T0700,1609A,120.8341,40.7073,葫芦岛市,新区,,13,10,32,7,15,34,34,,,25,24,9,14,0.7,0.8
2025-12-31T0700,1610A,120.8695,40.7677,葫芦岛市,东城区,,21,,29,10,17,16,16,,,42,23,12,18,0.7,0.7
2025-12-31T0700,2482A,109.5981,27.5721,怀化市,林科所,,,,,,,,,,,,,,,,
2025-12-31T0700,2483A,109.9453,27.5444,怀化市,河西地税局,细颗粒物(PM2.5),135,117,93,103,79,74,74,,,15,19,6,8,0.7,0.7
2025-12-31T0700,2484A,109.9781,27.5342,怀化市,市四医院,细颗粒物(PM2.5),129,128,103,98,78,68,68,,,10,15,14,14,0.7,0.7
2025-12-31T0700,2485A,109.9972,27.5578,怀化市,监测楼,细颗粒物(PM2.5),107,110,94,80,71,76,76,,,17,23,4,8,0.3,0.3
2025-12-31T0700,2486A,110.0394,27.583,怀化市,市委党校,细颗粒物(PM2.5),145,117,109,111,90,64,64,,,13,19,9,13,0.5,0.6
2025-12-31T0700,1210A,119.036,33.5981,淮安市,钵池山,颗粒物(PM10),56,61,53,37,52,36,36,,,24,26,6,7,0.4,0.3
2025-12-31T0700,1211A,119.007,33.575,淮安市,北京南路,,,,50,,43,,,52,,,20,,7,,0.6
2025-12-31T0700,1212A,118.989,33.6067,淮安市,市监测站,细颗粒物(PM2.5),67,51,48,48,35,32,32,,,22,24,8,9,0.6,0.5
2025-12-31T0700,1213A,119.135,33.5039,淮安市,楚州区监测站,细颗粒物(PM2.5),54,49,41,38,28,37,37,,,18,17,8,9,0.5,0.5
2025-12-31T0700,3426A,118.8755,33.2894,淮安市,新华书店,,39,39,49,25,32,30,30,,,38,24,9,9,0.6,0.5
2025-12-31T0700,4206A,119.0288,33.6319,淮安市,承德北路606号,细颗粒物(PM2.5),59,66,69,42,53,33,33,,,21,32,7,7,0.6,0.6
2025-12-31T0700,2282A,116.8004,33.975,淮北市,监测站,细颗粒物(PM2.5),88,82,138,65,85,39,39,,,26,34,10,10,1.0,1.1
2025-12-31T0700,2283A,116.8091,33.9007,淮北市,烈山区政府,细颗粒物(PM2.5),85,85,114,63,94,38,38,,,30,34,9,10,0.6,0.6
2025-12-31T0700,3330A,116.8873,33.9836,淮北市,杜集区检察院,细颗粒物(PM2.5),79,86,110,58,86,45,45,,,17,24,6,7,0.7,0.8
2025-12-31T0700,4017A,116.7923,33.9535,淮北市,市博物馆,细颗粒物(PM2.5),79,84,127,58,88,43,43,,,24,28,11,11,0.6,0.8
2025-12-31T0700,2277A,116.8305,32.7727,淮南市,潘集区政府,,30,30,92,19,75,44,44,,,14,19,5,6,0.4,0.6
2025-12-31T0700,2279A,116.8569,32.5951,淮南市,谢家集区政府,,19,19,81,9,50,51,51,,,16,21,7,8,0.2,0.5
2025-12-31T0700,2280A,116.8281,32.633,淮南市,八公山区政府,,16,15,84,6,59,50,50,,,14,18,5,7,0.2,0.5
2025-12-31T0700,2281A,116.6325,32.6201,淮南市,焦岗湖风景区管理处,,,,,,,,,,,,,,,,
2025-12-31T0700,2894A,117.0566,32.6531,淮南市,经济技术开发区消防队,,29,29,97,17,60,51,51,,,18,24,3,5,0.3,0.6
2025-12-31T0700,3329A,117.0108,32.5893,淮南市,山南新区,,28,28,85,7,48,56,56,,,11,16,1,3,0.3,0.6
2025-12-31T0700,4209A,117.0031,32.6445,淮南市,国庆中路369号,,30,30,84,6,53,47,47,,,15,22,4,6,0.2,0.5
2025-12-31T0700,2446A,114.9028,30.4742,黄冈市,职工中心,细颗粒物(PM2.5),103,116,117,77,83,81,81,,,12,26,7,8,0.9,0.9
2025-12-31T0700,2929A,114.8858,30.4519,黄冈市,红卫路,细颗粒物(PM2.5),107,104,108,80,91,83,83,,,14,29,7,8,0.8,0.8
2025-12-31T0700,3398A,114.9136,30.4445,黄冈市,市林业局,细颗粒物(PM2.5),123,108,117,93,93,83,83,,,15,33,4,5,1.2,1.2
2025-12-31T0700,2672A,102.0199,35.5102,黄南藏族自治州,同仁县隆务镇,细颗粒物(PM2.5),52,48,42,36,28,54,54,,,4,6,10,12,0.6,0.5
2025-12-31T0700,2295A,118.2903,29.6963,黄山市,延安路89号,细颗粒物(PM2.5),92,78,68,68,53,43,43,,,19,18,4,5,0.7,0.6
2025-12-31T0700,2297A,118.1371,30.2756,黄山市,黄山区政府5号楼,细颗粒物(PM2.5),115,109,96,87,75,24,24,,,16,16,5,6,0.8,0.8
2025-12-31T0700,4210A,118.3354,29.7203,黄山市,滨江东路7-2号,细颗粒物(PM2.5),109,94,87,82,69,49,49,,,16,17,4,4,0.8,0.7
2025-12-31T0700,2423A,115.0601,30.2313,黄石市,沈家营,细颗粒物(PM2.5),122,135,134,92,86,59,59,,,21,39,8,9,1.3,1.3
2025-12-31T0700,2426A,114.8988,30.2019,黄石市,铁山,细颗粒物(PM2.5),160,,109,122,106,75,75,,,22,32,5,8,0.5,0.5
2025-12-31T0700,2427A,115.0307,30.2092,黄石市,团城山,细颗粒物(PM2.5),148,121,121,113,96,68,68,,,21,30,7,8,0.9,0.9
2025-12-31T0700,3149A,115.0235,30.1578,黄石市,笔架山北路,细颗粒物(PM2.5),133,157,158,101,98,60,60,,,24,24,8,9,1.3,1.2
2025-12-31T0700,4185A,115.0780,30.21118,黄石市,磁湖东路29号,细颗粒物(PM2.5),155,145,134,118,106,43,43,,,36,44,8,12,1.2,1.3
2025-12-31T0700,1392A,114.4183,23.0528,惠州市,河南岸金山湖子站,细颗粒物(PM2.5),55,56,50,39,35,37,37,,,28,36,6,6,0.6,0.7
2025-12-31T0700,1393A,114.4053,23.0822,惠州市,下埔横江三路子站,颗粒物(PM10),53,56,60,35,35,55,55,,,20,32,7,8,0.6,0.7
2025-12-31T0700,1395A,114.4645,22.7833,惠州市,惠阳区承修路船湖子站,,46,46,49,26,28,45,45,,,28,24,7,7,0.7,0.6
2025-12-31T0700,1396A,114.5317,22.7422,惠州市,大亚湾管委会子站,,29,29,47,14,25,77,77,,,15,24,7,7,0.3,0.4
2025-12-31T0700,3314A,114.4338,22.8134,惠州市,惠阳秋长,,46,46,64,20,35,61,61,,,24,39,17,17,0.4,0.6
2025-12-31T0700,3452A,114.6517,22.775,惠州市,大亚湾霞涌,,23,22,39,16,21,57,57,,,23,22,4,6,0.4,0.5
2025-12-31T0700,4300A,114.4089,23.1147,惠州市,文华一路1号,,,,56,,33,,,52,,,42,,9,,0.5
2025-12-31T0700,2240A,130.9762,45.3001,鸡西市,环保局,,19,17,26,13,12,35,35,,,7,8,6,6,0.2,0.2
2025-12-31T0700,2243A,130.9429,45.3039,鸡西市,第一中学,,25,17,22,17,13,40,40,,,8,7,3,3,0.3,0.3
2025-12-31T0700,3707A,131.0207,45.3073,鸡西市,欧美日汽修厂,,18,18,29,11,15,44,44,,,8,12,6,6,0.3,0.3
2025-12-31T0700,3709A,130.9967,45.3106,鸡西市,市政设施管理处,,32,22,27,22,15,36,36,,,10,16,7,8,0.2,0.2
2025-12-31T0700,2367A,114.9754,27.0803,吉安市,红声器材厂,细颗粒物(PM2.5),83,89,72,61,46,40,40,,,30,30,9,12,1.0,0.8
2025-12-31T0700,2368A,114.9658,27.0999,吉安市,市森林工业局,细颗粒物(PM2.5),97,98,73,72,50,41,41,,,31,28,13,15,0.6,0.6
2025-12-31T0700,2369A,114.99,27.1312,吉安市,市环境监测站,细颗粒物(PM2.5),92,91,69,68,49,46,46,,,29,27,15,18,0.8,0.6
2025-12-31T0700,2370A,115.0093,27.0968,吉安市,青原区法院,细颗粒物(PM2.5),87,84,70,64,50,25,25,,,30,25,11,14,1.0,0.8
2025-12-31T0700,1772A,126.54,43.8622,吉林市,哈达湾,,38,38,26,23,15,14,14,,,32,16,7,9,1.2,1.1
2025-12-31T0700,1773A,126.5844,43.8358,吉林市,东局子,细颗粒物(PM2.5),55,46,28,39,19,5,5,,,31,20,3,5,1.3,0.9
2025-12-31T0700,1774A,126.5052,43.8245,吉林市,电力学院,,50,50,42,35,25,7,7,,,38,23,10,11,1.1,0.9
2025-12-31T0700,1775A,126.6133,43.8972,吉林市,江北,细颗粒物(PM2.5),82,86,42,60,27,11,11,,,30,20,3,3,1.2,0.7
2025-12-31T0700,1776A,126.555,43.8306,吉林市,江南公园,,38,38,24,23,14,5,5,,,37,16,7,7,1.1,0.7
2025-12-31T0700,1778A,126.7061,43.7133,吉林市,丰满,,,,16,,15,,,40,,,8,,7,,0.5
2025-12-31T0700,2868A,126.4739,43.953,吉林市,九站,细颗粒物(PM2.5),52,52,33,36,22,10,10,,,34,24,6,6,0.9,0.9
2025-12-31T0700,1299A,116.9862,36.6114,济南市,科干所,,29,29,86,12,47,46,46,,,21,46,6,11,0.7,1
2025-12-31T0700,1300A,116.9376,36.665,济南市,农科所,,49,49,93,24,52,16,16,,,40,50,14,11,0.9,1.1
2025-12-31T0700,1301A,117.1265,36.6734,济南市,开发区,,46,46,88,32,55,20,20,,,32,45,7,8,0.7,0.9
2025-12-31T0700,1303A,117.0624,36.6868,济南市,省种子仓库,颗粒物(PM10),57,63,108,34,58,11,11,,,48,50,14,14,0.8,1
2025-12-31T0700,1304A,116.9489,36.6447,济南市,机床二厂,,46,46,96,27,59,19,19,,,45,50,8,15,0.8,1.1
2025-12-31T0700,1305A,117.0495,36.663,济南市,市监测站,,49,49,91,22,53,21,21,,,30,45,7,9,0.6,1
2025-12-31T0700,1306A,116.7675,36.5484,济南市,长清党校,,,46,88,20,53,,,,,31,44,11,11,0.7,0.9
2025-12-31T0700,1616A,117.6795,36.229,济南市,技术学院,,27,27,92,14,70,44,44,,,26,43,2,7,0.5,0.9
2025-12-31T0700,1961A,117.532,36.6868,济南市,东山小学,颗粒物(PM10),55,59,92,27,54,7,7,,,56,44,4,7,0.9,1
2025-12-31T0700,3059A,117.7161,36.2049,济南市,泰兴公司,,41,41,109,27,83,33,33,,,33,44,2,8,0.5,1
2025-12-31T0700,3064A,117.6867,36.2171,济南市,莱芜战役纪念馆,,49,41,106,34,84,41,41,,,23,42,5,9,0.3,0.8
2025-12-31T0700,3494A,117.1673,36.9782,济南市,济阳区政府,,44,44,82,15,48,23,23,,,33,38,7,10,0.5,0.8
2025-12-31T0700,3495A,117.1171,36.63,济南市,锦屏中学,,32,32,70,12,43,38,38,,,26,38,4,6,0.5,0.8
2025-12-31T0700,3682A,116.9814,36.6819,济南市,济南四建,颗粒物(PM10),53,56,92,34,58,6,6,,,44,44,14,13,1.1,1.4
2025-12-31T0700,1653A,116.6251,35.4302,济宁市,火炬城,细颗粒物(PM2.5),58,41,136,41,117,39,39,,,18,43,11,9,0.5,0.9
2025-12-31T0700,1655A,116.5491,35.4042,济宁市,电化厂,颗粒物(PM10),61,72,164,39,109,40,40,,,26,51,14,12,0.4,0.8
2025-12-31T0700,3500A,116.5814,35.3707,济宁市,北湖一中,细颗粒物(PM2.5),58,,111,41,105,41,41,,,19,41,16,10,0.5,0.9
2025-12-31T0700,3501A,116.8249,35.5593,济宁市,服务中心,颗粒物(PM10),66,81,157,25,97,36,36,,,20,47,22,16,1.0,1.3
2025-12-31T0700,3678A,116.5907,35.4054,济宁市,市第七中学,颗粒物(PM10),53,56,120,36,99,41,41,,,21,44,20,14,0.5,1
2025-12-31T0700,2255A,130.2751,46.8028,佳木斯市,佳纺,,32,30,32,22,24,23,23,,,26,16,10,7,0.4,0.3
2025-12-31T0700,2257A,130.3258,46.7975,佳木斯市,环保局,,29,21,28,20,19,31,31,,,17,16,7,7,0.3,0.4
2025-12-31T0700,2259A,130.3794,46.7588,佳木斯市,四丰,,,,,,,,,,,,,,,,
2025-12-31T0700,4285A,130.363,46.806,佳木斯市,顺和街,,26,24,26,18,19,25,25,,,22,14,10,8,0.6,0.4
2025-12-31T0700,4286A,130.3952,46.8268,佳木斯市,长安路196号,,20,19,24,14,17,38,38,,,11,13,5,5,0.3,0.3
2025-12-31T0700,1252A,120.7436,30.778,嘉兴市,清河小学,,22,22,70,14,54,37,37,,,33,36,5,5,0.2,0.3
2025-12-31T0700,1253A,120.726,30.7478,嘉兴市,嘉兴学院,,19,19,77,6,47,40,40,,,28,30,7,7,0.5,0.7
2025-12-31T0700,2872A,120.7846,30.7525,嘉兴市,南湖区残联,,17,17,62,3,46,41,41,,,30,32,4,4,0.4,0.5
2025-12-31T0700,3407A,120.6916,30.7739,嘉兴市,秀洲住建,,17,17,76,6,53,38,38,,,34,34,7,7,0.3,0.5
2025-12-31T0700,1945A,98.2908,39.7711,嘉峪关市,气象局,颗粒物(PM10),84,117,62,24,30,62,62,,,4,16,3,4,0.3,0.5
2025-12-31T0700,2884A,98.2672,39.7978,嘉峪关市,酒钢宾馆,颗粒物(PM10),89,127,69,22,32,59,59,,,5,16,14,14,0.3,0.7
2025-12-31T0700,3248A,98.2643,39.7724,嘉峪关市,雄关区,颗粒物(PM10),53,56,61,30,36,63,63,,,6,22,12,12,0.6,0.9
2025-12-31T0700,1383A,113.1064,22.6058,江门市,北街,细颗粒物(PM2.5),70,81,79,51,55,0,0,,,90,60,12,9,0.8,1
2025-12-31T0700,1384A,113.0731,22.5835,江门市,西区,颗粒物(PM10),69,88,88,47,46,0,0,,,84,68,13,10,0.8,0.8
2025-12-31T0700,1385A,113.0219,22.5311,江门市,圭峰西,细颗粒物(PM2.5),84,,69,62,54,18,18,,,57,35,7,8,0.7,0.7
2025-12-31T0700,1386A,113.0828,22.5947,江门市,东湖,细颗粒物(PM2.5),75,83,84,55,54,0,0,,,83,69,9,9,0.8,0.9
2025-12-31T0700,3311A,113.1075,22.5647,江门市,江海富民,细颗粒物(PM2.5),85,106,98,63,45,1,1,,,97,71,12,9,0.8,0.9
2025-12-31T0700,3449A,113.05,22.4667,江门市,新会银湖,细颗粒物(PM2.5),92,78,78,68,58,0,0,,,40,42,6,8,0.8,0.7
2025-12-31T0700,1830A,113.1992,35.2590,焦作市,影视城,,44,44,117,28,79,57,57,,,8,27,4,8,0.4,0.8
2025-12-31T0700,3335A,113.3137,35.2641,焦作市,马村街道办,,46,46,108,10,78,54,54,,,11,25,5,8,0.3,0.7
2025-12-31T0700,3336A,113.2465,35.2373,焦作市,焦作技师学院,,44,44,108,12,79,48,48,,,11,31,7,11,0.4,0.9
2025-12-31T0700,3477A,113.1656,35.2539,焦作市,中站许衡医院,,43,37,110,30,90,56,56,,,13,29,4,7,0.6,1
2025-12-31T0700,3981A,113.2449,35.1803,焦作市,原李万街道办,,43,43,114,3,78,59,59,,,12,28,3,11,0.3,0.8
2025-12-31T0700,4264A,113.2340,35.2190,焦作市,新安路1731号,颗粒物(PM10),51,52,116,20,84,52,52,,,8,24,6,8,0.3,0.7
2025-12-31T0700,4295A,113.2722,35.2121,焦作市,人民路3066号,,42,42,119,8,68,54,54,,,8,27,6,15,0.0,0.5
2025-12-31T0700,1708A,116.3701,23.5345,揭阳市,新兴,细颗粒物(PM2.5),67,54,54,48,34,7,7,,,48,33,7,10,0.8,0.7
2025-12-31T0700,1709A,116.3264,23.5443,揭阳市,西马,颗粒物(PM10),61,71,64,39,32,2,2,,,40,26,5,8,0.9,0.8
2025-12-31T0700,1710A,116.3611,23.5626,揭阳市,东兴,颗粒物(PM10),54,57,55,35,30,2,2,,,52,31,8,10,0.9,0.8
2025-12-31T0700,1711A,116.4151,23.5294,揭阳市,渔湖,,42,42,53,27,25,33,33,,,30,28,4,6,0.8,0.7
2025-12-31T0700,3320A,116.403,23.5699,揭阳市,曲溪,,39,39,57,23,29,30,30,,,32,32,1,8,0.5,0.6
2025-12-31T0700,1944A,102.1692,38.5167,金昌市,天庆家园,,46,46,101,13,36,54,54,,,7,16,1,13,0.4,0.8
2025-12-31T0700,4022A,102.1647,38.5371,金昌市,金川区人防中心,颗粒物(PM10),56,61,93,17,40,56,56,,,8,15,3,11,0.5,0.7
2025-12-31T0700,4239A,102.1930,38.5319,金昌市,长春路96号,颗粒物(PM10),54,58,88,11,34,55,55,,,7,16,5,13,0.5,0.8
2025-12-31T0700,1262A,119.647,29.077,金华市,十五中,,31,31,133,19,99,41,41,,,23,41,3,4,0.4,0.8
2025-12-31T0700,1263A,119.686,29.1029,金华市,监测站,,36,36,195,16,112,33,33,,,37,43,1,3,0.0,0.6
2025-12-31T0700,3659A,119.656,29.1131,金华市,气象局,,28,28,133,14,92,32,32,,,35,52,3,4,0.2,0.6
2025-12-31T0700,1767A,121.1115,41.0879,锦州市,南山,,32,32,27,15,14,33,33,,,19,14,8,11,0.6,0.6
2025-12-31T0700,1768A,121.0604,40.8428,锦州市,开发区,,39,39,39,18,20,13,13,,,43,23,31,16,0.9,0.7
2025-12-31T0700,1769A,121.1836,41.1119,锦州市,百股街道,,20,19,26,9,11,11,11,,,39,17,11,12,1.1,0.7
2025-12-31T0700,1770A,121.1178,41.1222,锦州市,天安街道,,14,14,26,7,10,44,44,,,19,15,9,12,0.5,0.6
2025-12-31T0700,1771A,121.1303,41.1386,锦州市,北湖公园,,15,,24,8,11,48,48,,,8,11,7,10,0.4,0.5
2025-12-31T0700,2160A,112.85,35.5051,晋城市,自来水公司,细颗粒物(PM2.5),129,136,143,98,100,40,40,,,23,27,6,9,1.3,1.5
2025-12-31T0700,2161A,112.8318,35.4936,晋城市,白云商贸,细颗粒物(PM2.5),125,127,147,95,92,39,39,,,17,23,4,6,1.0,1.3
2025-12-31T0700,2162A,112.8508,35.4887,晋城市,市环保局,细颗粒物(PM2.5),122,149,145,92,96,36,36,,,24,24,5,8,1.1,1.2
2025-12-31T0700,2163A,112.8676,35.4897,晋城市,技术学院,细颗粒物(PM2.5),128,129,142,97,97,35,35,,,29,33,7,10,0.8,1.1
2025-12-31T0700,2165A,112.8453,35.546,晋城市,白马寺,细颗粒物(PM2.5),133,122,121,101,100,34,34,,,23,22,10,11,1.4,1.2
2025-12-31T0700,3620A,112.8271,35.4828,晋城市,泽州一中,细颗粒物(PM2.5),122,125,132,92,100,44,44,,,24,28,4,6,1.0,1.2
2025-12-31T0700,2173A,112.7249,37.7067,晋中市,南都小区,颗粒物(PM10),52,54,76,19,37,35,35,,,26,38,10,11,0.4,0.6
2025-12-31T0700,2174A,112.6991,37.6982,晋中市,榆次区政府,颗粒物(PM10),53,56,78,20,36,36,36,,,29,38,9,10,0.4,0.6
2025-12-31T0700,2865A,112.7195,37.6828,晋中市,榆次三中,颗粒物(PM10),51,51,81,12,32,36,36,,,24,31,8,10,0.4,0.7
2025-12-31T0700,4200A,112.7478,37.6954,晋中市,迎宾街26号,,48,48,76,14,33,36,36,,,30,35,9,12,0.3,0.5
2025-12-31T0700,2439A,112.2014,31.0481,荆门市,竹园小学,细颗粒物(PM2.5),150,148,152,115,115,58,58,,,19,25,1,3,0.5,0.4
2025-12-31T0700,2440A,112.1969,30.9891,荆门市,掇刀,细颗粒物(PM2.5),145,144,150,111,108,66,66,,,18,22,1,4,0.5,0.7
2025-12-31T0700,2441A,112.2213,31.0386,荆门市,石化一小,细颗粒物(PM2.5),153,157,161,117,116,52,52,,,21,26,7,8,1.0,0.9
2025-12-31T0700,3012A,112.1849,31.0362,荆门市,西山林语,细颗粒物(PM2.5),143,134,142,109,109,63,63,,,18,22,6,6,0.7,0.7
2025-12-31T0700,3547A,112.1632,31.0138,荆门市,龙泉中学南校,细颗粒物(PM2.5),152,141,154,116,113,71,71,,,8,13,7,9,0.3,0.3
2025-12-31T0700,1844A,112.2494,30.3197,荆州市,市图书馆,细颗粒物(PM2.5),189,,110,142,122,65,65,,,15,24,6,9,0.9,0.9
2025-12-31T0700,1845A,112.2008,30.3544,荆州市,市委党校,细颗粒物(PM2.5),183,,127,138,116,59,59,,,19,29,3,5,0.8,0.9
2025-12-31T0700,3194A,112.2747,30.3122,荆州市,管委会,细颗粒物(PM2.5),189,,121,142,120,62,62,,,15,27,5,7,0.9,1.1
2025-12-31T0700,4268A,112.1722,30.3366,荆州市,学苑路85号,细颗粒物(PM2.5),160,132,122,122,112,72,72,,,16,25,1,1,0.8,0.8
2025-12-31T0700,2342A,117.3102,29.3867,景德镇市,王港中学,,,,,,,,,,,,,,,,
2025-12-31T0700,2343A,117.2117,29.2933,景德镇市,老干部活动中心,细颗粒物(PM2.5),92,69,52,68,43,72,72,,,14,26,7,8,0.9,0.8
2025-12-31T0700,2344A,117.1894,29.2789,景德镇市,兽医站,细颗粒物(PM2.5),65,60,52,47,30,76,76,,,18,24,7,7,0.6,0.5
2025-12-31T0700,2346A,117.2461,29.2956,景德镇市,陶研所,细颗粒物(PM2.5),74,59,43,54,34,51,51,,,16,23,4,4,0.8,0.7
2025-12-31T0700,4289A,117.1542,29.2566,景德镇市,青少年活动中心,细颗粒物(PM2.5),73,69,56,53,34,79,79,,,21,30,3,11,1.0,0.9
2025-12-31T0700,1803A,115.9872,29.6815,九江市,十里,细颗粒物(PM2.5),97,103,131,72,100,54,54,,,22,29,6,7,0.9,1.1
2025-12-31T0700,1804A,115.9584,29.7046,九江市,茅山头,细颗粒物(PM2.5),70,86,134,51,96,46,46,,,16,21,6,6,0.8,1.1
2025-12-31T0700,1805A,115.9877,29.7295,九江市,西园,细颗粒物(PM2.5),88,90,127,65,93,48,48,,,37,41,2,3,0.7,1
2025-12-31T0700,1808A,115.9114,29.6038,九江市,综合工业园,细颗粒物(PM2.5),112,110,137,84,126,65,65,,,26,36,2,4,0.7,0.8
2025-12-31T0700,1809A,116.0721,29.7535,九江市,石化总厂,细颗粒物(PM2.5),82,103,137,60,118,46,46,,,23,28,6,7,0.7,1
2025-12-31T0700,1810A,115.9773,29.5698,九江市,庐山气象台,,,,,,,,,,,,,,,,
2025-12-31T0700,3190A,116.0254,29.6994,九江市,外国语学校,细颗粒物(PM2.5),87,83,123,64,87,42,42,,,25,28,8,9,0.8,1
2025-12-31T0700,4253A,116.0102,29.6594,九江市,莲花大道8号,细颗粒物(PM2.5),99,129,143,74,123,52,52,,,14,19,3,5,0.6,0.8
2025-12-31T0700,4240A,98.4958,39.7339,酒泉市,玉门东路5号,颗粒物(PM10),103,156,68,24,29,59,59,,,2,11,9,10,0.2,0.6
2025-12-31T0700,4241A,98.5099,39.7506,酒泉市,北大街108号,颗粒物(PM10),106,161,65,11,20,60,60,,,11,19,10,10,0.2,0.6
2025-12-31T0700,2698A,76.0072,39.4467,喀什地区,巡警大队,,45,43,86,31,58,51,51,,,10,26,2,3,0.5,1.1
2025-12-31T0700,2699A,75.9755,39.4694,喀什地区,吾办,细颗粒物(PM2.5),53,51,88,37,64,47,47,,,7,23,19,9,0.5,1.1
2025-12-31T0700,4027A,75.9483,39.4689,喀什地区,老干局,颗粒物(PM10),56,61,95,38,62,45,45,,,10,21,1,2,0.7,1.3
2025-12-31T0700,1824A,114.3389,34.7781,开封市,肿瘤医院,颗粒物(PM10),51,51,139,24,106,36,36,,,16,39,6,8,1.0,1.3
2025-12-31T0700,1826A,114.2885,34.7965,开封市,世纪星幼儿园,,43,43,124,20,126,38,38,,,18,40,5,6,0.4,0.7
2025-12-31T0700,3147A,114.3438,34.8106,开封市,龙亭公园,,22,22,135,11,113,36,36,,,13,40,5,6,1.0,1.2
2025-12-31T0700,3210A,114.3644,34.7964,开封市,汴京公园,,27,27,155,18,116,38,38,,,16,41,6,7,0.7,0.9
2025-12-31T0700,3473A,114.2485,34.8306,开封市,技师学院,,28,28,132,19,108,35,35,,,18,42,7,8,0.6,1
2025-12-31T0700,3592A,114.4644,34.7556,开封市,祥符区生态环境局,,32,32,151,19,121,34,34,,,23,46,5,7,0.4,0.8
2025-12-31T0700,1951A,84.895,45.6094,克拉玛依市,长征新村,,40,34,51,28,36,39,39,,,27,25,6,5,0.7,0.6
2025-12-31T0700,1952A,84.8988,45.5893,克拉玛依市,南林小区,,33,33,49,23,31,43,43,,,10,11,1,1,0.9,0.8
2025-12-31T0700,1954A,84.905,44.3396,克拉玛依市,独山子区,细颗粒物(PM2.5),135,165,161,103,103,27,27,,,37,27,5,5,1.0,1
2025-12-31T0700,1955A,85.6979,46.098,克拉玛依市,乌尔禾区商贸楼,,45,,39,31,36,18,18,,,29,26,4,6,0.7,0.7
2025-12-31T0700,3612A,85.1045,45.6899,克拉玛依市,白碱滩区新站,,40,39,54,28,35,43,43,,,8,16,7,8,0.6,0.6
2025-12-31T0700,2697A,76.1454,39.7142,克孜勒苏柯尔克孜自治州,市人民政府,颗粒物(PM10),52,53,83,33,58,58,58,,,6,17,5,5,0.2,0.4
2025-12-31T0700,3665A,76.1658,39.7157,克孜勒苏柯尔克孜自治州,克州文化中心,,48,44,70,33,55,49,49,,,9,16,4,4,0.5,0.8
2025-12-31T0700,1450A,102.8204,24.8886,昆明市,呈贡新区,,24,24,28,12,13,54,54,,,16,20,5,4,0.6,0.5
2025-12-31T0700,1451A,102.6251,24.9608,昆明市,西山森林公园,,,,,,,,,,,,,,,,
2025-12-31T0700,1452A,102.7252,25.0902,昆明市,龙泉镇,,43,43,31,18,16,1,1,,,57,25,2,3,0.4,0.5
2025-12-31T0700,1453A,102.7266,25.0375,昆明市,东风东路,,21,21,26,12,16,54,54,,,19,19,5,4,0.4,0.4
2025-12-31T0700,1454A,102.6742,25.0669,昆明市,金鼎山,,28,,33,19,18,32,32,,,29,20,4,4,0.5,0.4
2025-12-31T0700,1455A,102.6644,25.0401,昆明市,碧鸡广场,,37,37,29,23,18,21,21,,,38,26,8,5,0.7,0.5
2025-12-31T0700,3179A,102.7494,25.0119,昆明市,官渡区博物馆,,25,,22,17,15,51,51,,,18,17,3,3,0.5,0.4
2025-12-31T0700,3375A,102.8017,24.8336,昆明市,青年创业园,,23,23,23,16,15,38,38,,,18,14,6,4,0.6,0.6
2025-12-31T0700,3550A,102.7997,24.9786,昆明市,昆明学院,,35,35,26,22,14,19,19,,,38,16,4,3,0.5,0.4
2025-12-31T0700,3551A,102.5967,24.6736,昆明市,晋宁区生态环境分局,,39,27,23,27,17,28,28,,,30,13,2,2,0.7,0.5
2025-12-31T0700,3552A,102.6678,24.9856,昆明市,云天化总部,,31,31,22,19,12,32,32,,,30,15,9,6,0.9,0.5
2025-12-31T0700,1456A,91.1319,29.6514,拉萨市,八廓街,,23,9,19,6,11,71,71,,,6,13,7,8,0.3,0.5
2025-12-31T0700,1457A,91.1221,29.6747,拉萨市,市环保局,,20,15,30,10,16,61,61,,,10,18,7,7,0.3,0.6
2025-12-31T0700,1458A,91.0874,29.6475,拉萨市,区监测站,,21,,14,7,8,66,66,,,9,22,4,5,0.7,0.8
2025-12-31T0700,1459A,91.1774,29.6541,拉萨市,西藏大学,,22,11,16,7,7,68,68,,,8,14,5,7,0.3,0.3
2025-12-31T0700,1460A,90.9798,29.6588,拉萨市,区辐射站,,20,8,23,7,14,61,61,,,10,23,4,5,0.4,0.6
2025-12-31T0700,1461A,91.0834,29.6292,拉萨市,拉萨火车站,,15,12,18,3,9,48,48,,,26,21,4,5,0.6,0.6
2025-12-31T0700,2520A,109.2203,23.7256,来宾市,来宾技工学校,细颗粒物(PM2.5),80,72,73,59,51,12,12,,,36,30,7,9,0.7,0.8
2025-12-31T0700,3535A,109.1781,23.7297,来宾市,兴宾区政府,细颗粒物(PM2.5),60,60,66,43,47,12,12,,,21,16,5,6,0.7,0.7
2025-12-31T0700,4002A,109.2416,23.7461,来宾市,中南小学,细颗粒物(PM2.5),88,68,72,65,46,3,3,,,48,34,5,6,0.8,0.8
2025-12-31T0700,1477A,104.1373,35.9454,兰州市,榆中兰大校区,,,,,,,,,,,,,,,,
2025-12-31T0700,1479A,103.831,36.0464,兰州市,铁路设计院,,,,,,,,,,,,,,,,
2025-12-31T0700,3241A,103.7439,36.0842,兰州市,百合公园,细颗粒物(PM2.5),58,61,106,41,73,37,37,,,27,68,13,30,0.7,1.5
2025-12-31T0700,3242A,103.9611,35.998,兰州市,和平,细颗粒物(PM2.5),73,77,109,53,89,53,53,,,14,40,14,22,0.9,1.7
2025-12-31T0700,4236A,103.6293,36.0938,兰州市,庄浪东路808号,颗粒物(PM10),65,79,101,40,68,47,47,,,26,59,18,25,0.7,1.3
2025-12-31T0700,4237A,103.7251,36.1043,兰州市,安宁西路88号,颗粒物(PM10),67,83,112,44,72,52,52,,,20,62,11,27,0.6,1
2025-12-31T0700,4238A,103.8470,36.0676,兰州市,北滨河东路1号,细颗粒物(PM2.5),68,67,99,49,66,44,44,,,27,63,14,20,0.9,1.6
2025-12-31T0700,3245A,103.6633,36.533,兰州新区,新区管委会,颗粒物(PM10),52,54,79,28,52,53,53,,,19,28,13,24,0.5,0.8
2025-12-31T0700,3246A,103.6975,36.4789,兰州新区,舟曲中学,颗粒物(PM10),53,55,85,29,46,65,65,,,15,27,5,20,0.6,0.8
2025-12-31T0700,1067A,116.6708,39.5111,廊坊市,药材公司,,,12,18,,4,48,48,,,9,13,1,2,0.4,0.4
2025-12-31T0700,1068A,116.7214,39.5589,廊坊市,开发区,,16,,15,3,3,49,49,,,12,15,2,2,0.2,0.2
2025-12-31T0700,1070A,116.7244,39.5269,廊坊市,北华航天学院,,15,11,17,3,5,48,48,,,11,17,3,2,0.2,0.3
2025-12-31T0700,2919A,116.7022,39.5453,廊坊市,河北工业大学,,15,7,17,3,4,47,47,,,12,16,2,2,0.2,0.3
2025-12-31T0700,2535A,103.7723,29.5462,乐山市,花湖湾,,,,,,,,,,,,,,,,
2025-12-31T0700,2536A,103.7627,29.5844,乐山市,牛耳桥,细颗粒物(PM2.5),98,85,103,73,90,13,13,,,21,25,8,8,1.1,1
2025-12-31T0700,2537A,103.7508,29.6006,乐山市,市第三水厂,细颗粒物(PM2.5),95,89,110,71,83,9,9,,,25,32,5,6,0.7,0.9
2025-12-31T0700,2538A,103.7571,29.5664,乐山市,市监测站,细颗粒物(PM2.5),93,80,104,69,87,15,15,,,18,23,7,7,1.2,1.1
2025-12-31T0700,3361A,103.7311,29.5628,乐山市,理工大学,细颗粒物(PM2.5),80,67,100,59,81,21,21,,,16,23,4,4,1.0,1
2025-12-31T0700,2598A,100.2143,26.8576,丽江市,西南郊,,,,,,,,,,,,,,,,
2025-12-31T0700,2599A,100.2497,26.8802,丽江市,丽江古城,,20,14,18,3,9,61,61,,,15,11,8,8,0.5,0.5
2025-12-31T0700,2600A,100.2203,26.8906,丽江市,市中心,,22,12,13,9,9,68,68,,,8,12,6,6,0.3,0.3
2025-12-31T0700,1267A,119.914,28.4514,丽水市,监测站大楼,细颗粒物(PM2.5),122,,75,92,77,4,4,,,34,29,6,7,0.8,0.7
2025-12-31T0700,1268A,119.93,28.4586,丽水市,莲都小学,颗粒物(PM10),77,103,103,55,70,2,2,,,55,33,5,6,0.6,0.5
2025-12-31T0700,1269A,119.879,28.4231,丽水市,余庄前,细颗粒物(PM2.5),109,100,89,82,67,2,2,,,14,25,4,5,0.5,0.5
2025-12-31T0700,1173A,119.176,34.5885,连云港市,市环境监测站,,44,44,50,19,31,47,47,,,14,20,10,10,0.6,0.6
2025-12-31T0700,3000A,119.3581,34.6972,连云港市,德源药业,颗粒物(PM10),64,78,67,19,29,44,44,,,19,30,4,6,0.9,0.8
2025-12-31T0700,3007A,119.178,34.844,连云港市,新城一中,颗粒物(PM10),51,51,76,16,42,48,48,,,17,35,12,16,0.5,0.9
2025-12-31T0700,3008A,119.3608,34.7519,连云港市,胡沟管理处,,22,22,44,12,25,54,54,,,14,37,6,9,0.5,0.8
2025-12-31T0700,3009A,119.1478,34.5911,连云港市,矿山设计院,,39,39,56,19,31,51,51,,,14,25,7,8,0.8,0.9
2025-12-31T0700,3434A,119.2413,34.6539,连云港市,工贸学校,,31,31,42,21,33,40,40,,,12,15,10,10,0.6,0.7
2025-12-31T0700,3664A,119.4172,34.7341,连云港市,连云街道,,33,33,38,22,25,46,46,,,21,24,4,11,0.5,0.7
2025-12-31T0700,2571A,102.3431,27.8099,凉山彝族自治州,青龙寺,,,,,,,,,,,,,,,,
2025-12-31T0700,2572A,102.2721,27.8415,凉山彝族自治州,邛海宾馆,细颗粒物(PM2.5),57,43,52,40,42,24,24,,,19,18,7,8,0.7,0.6
2025-12-31T0700,2573A,102.2625,27.898,凉山彝族自治州,西昌市政府,,45,41,43,31,32,29,29,,,16,16,7,11,0.9,0.8
2025-12-31T0700,2574A,102.2685,27.8851,凉山彝族自治州,凉山州政府,,48,48,47,33,38,18,18,,,25,19,8,9,1.1,0.7
2025-12-31T0700,4229A,102.2342,27.8859,凉山彝族自治州,凯乐南路30号,细颗粒物(PM2.5),57,60,70,40,48,4,4,,,39,37,6,34,0.7,0.9
2025-12-31T0700,2212A,123.2,41.1953,辽阳市,宏伟区,,18,,31,12,21,42,42,,,8,13,7,7,0.6,0.7
2025-12-31T0700,2213A,123.1683,41.2495,辽阳市,新华园,,22,22,31,14,14,28,28,,,20,18,8,8,0.8,0.8
2025-12-31T0700,2214A,123.2354,41.2639,辽阳市,滨河路,,18,16,38,12,21,37,37,,,8,19,6,6,0.6,0.7
2025-12-31T0700,2215A,123.149,41.2991,辽阳市,铁西工业园,,26,22,39,18,27,6,6,,,37,29,9,9,0.6,0.7
2025-12-31T0700,2227A,125.1358,42.8845,辽源市,环保局,颗粒物(PM10),68,85,79,11,16,32,32,,,16,12,2,3,0.7,0.5
2025-12-31T0700,3239A,125.0764,42.9078,辽源市,银鹰制药,,23,22,34,16,20,25,25,,,18,17,4,6,0.5,0.5
2025-12-31T0700,1625A,115.9848,36.4372,聊城市,区政府,,41,41,97,18,64,28,28,,,36,50,17,19,0.9,1.1
2025-12-31T0700,2878A,116.0072,36.4343,聊城市,聊大东校,,45,44,100,31,66,29,29,,,32,45,17,16,1.1,1.2
2025-12-31T0700,3200A,115.9819,36.4978,聊城市,监控中心,,35,35,100,19,74,30,30,,,23,37,14,15,0.7,0.9
2025-12-31T0700,3513A,116.0445,36.4361,聊城市,九州社区,颗粒物(PM10),53,56,99,23,62,32,32,,,27,34,10,11,0.8,0.8
2025-12-31T0700,4018A,116.0567,36.4608,聊城市,星美广场,颗粒物(PM10),52,54,117,28,68,28,28,,,24,45,10,10,0.7,1
2025-12-31T0700,2632A,94.3681,29.6376,林芝市,林芝监测站,,14,6,7,3,5,44,44,,,2,3,4,5,0.3,0.3
2025-12-31T0700,2633A,94.3616,29.6616,林芝市,林芝人民医院,,14,10,10,6,6,42,42,,,2,4,4,4,0.4,0.4
2025-12-31T0700,2603A,100.0781,23.8982,临沧市,市环保局,,28,21,29,19,31,19,19,,,9,12,4,5,0.4,0.4
2025-12-31T0700,2604A,100.0894,23.8822,临沧市,市气象局,,28,28,37,19,19,15,15,,,12,13,5,6,0.3,0.4
2025-12-31T0700,1733A,111.5531,36.0783,临汾市,临钢医院,细颗粒物(PM2.5),103,136,107,77,61,21,21,,,32,35,14,20,1.0,1.1
2025-12-31T0700,1734A,111.5028,36.0714,临汾市,技工学校,"颗粒物(PM10),细颗粒物(PM2.5)",90,130,99,67,56,17,17,,,34,41,12,22,1.0,1.2
2025-12-31T0700,1736A,111.5018,36.0855,临汾市,市委,细颗粒物(PM2.5),98,134,110,73,57,21,21,,,36,45,15,26,1.5,1.6
2025-12-31T0700,3018A,111.505,36.1014,临汾市,唐尧大酒店,细颗粒物(PM2.5),90,128,102,67,51,19,19,,,36,46,11,22,1.1,1.2
2025-12-31T0700,4244A,111.4879,36.0530,临汾市,启星学校,颗粒物(PM10),87,123,101,55,57,20,20,,,40,46,15,24,1.1,1.4
2025-12-31T0700,4271A,103.2464,35.6123,临夏回族自治州,滨河东路1号,细颗粒物(PM2.5),133,140,161,101,99,18,18,,,30,38,6,9,1.8,1.7
2025-12-31T0700,4310A,103.2093,35.5995,临夏回族自治州,新华街21号,细颗粒物(PM2.5),137,145,144,104,99,13,13,,,46,43,9,16,2.0,1.7
2025-12-31T0700,1618A,118.3429,35.0532,临沂市,沂河小区,,42,29,93,29,76,42,42,,,25,38,10,12,0.6,0.8
2025-12-31T0700,1619A,118.295,35.0583,临沂市,鲁南制药厂,,34,34,86,21,64,50,50,,,22,38,11,13,0.5,0.8
2025-12-31T0700,1620A,118.2794,34.9976,临沂市,新光毛纺厂,,36,36,87,24,70,44,44,,,17,34,10,13,0.5,0.8
2025-12-31T0700,1621A,118.3956,35.0888,临沂市,河东保险公司,,34,34,92,20,63,42,42,,,19,34,9,12,0.7,0.9
2025-12-31T0700,3370A,118.3564,35.0215,临沂市,十里堡居委,,29,29,90,9,55,38,38,,,29,43,9,11,0.6,0.9
2025-12-31T0700,3496A,118.3604,35.1084,临沂市,南坊新区,,29,29,84,17,63,49,49,,,18,36,10,11,0.5,0.8
2025-12-31T0700,3860A,118.3920,35.0300,临沂市,皇山花园小区,,31,31,91,20,61,49,49,,,19,39,12,14,0.6,1
2025-12-31T0700,1870A,109.4856,24.3895,柳州市,柳东小学,细颗粒物(PM2.5),75,71,58,55,44,48,48,,,27,21,9,9,0.7,0.7
2025-12-31T0700,1871A,109.4157,24.3277,柳州市,环保监测站,细颗粒物(PM2.5),57,59,73,40,48,45,45,,,22,34,6,8,0.7,0.8
2025-12-31T0700,1872A,109.389,24.341,柳州市,河西水厂,细颗粒物(PM2.5),58,62,84,41,47,22,22,,,40,33,6,7,1.1,1
2025-12-31T0700,1873A,109.4311,24.2921,柳州市,市四中,细颗粒物(PM2.5),73,55,75,53,53,41,41,,,28,36,11,11,0.8,1
2025-12-31T0700,1874A,109.4006,24.3631,柳州市,市九中,"颗粒物(PM10),细颗粒物(PM2.5)",58,66,69,41,49,37,37,,,30,31,9,11,0.9,0.9
2025-12-31T0700,1875A,109.4958,24.3134,柳州市,古亭山,细颗粒物(PM2.5),57,54,54,40,35,44,44,,,19,28,9,9,0.6,0.6
2025-12-31T0700,3402A,109.5422,24.3996,柳州市,市二中,细颗粒物(PM2.5),73,64,59,53,44,24,24,,,34,30,8,9,0.7,0.8
2025-12-31T0700,2307A,116.5079,31.737,六安市,监测大楼,,39,39,112,24,98,41,41,,,23,31,3,4,0.4,0.7
2025-12-31T0700,2308A,116.4738,31.7643,六安市,皖西学院,,48,48,123,26,97,43,43,,,21,29,3,3,0.4,0.7
2025-12-31T0700,2309A,116.4996,31.7905,六安市,朝阳厂,,40,40,111,25,93,39,39,,,20,31,2,4,0.4,0.8
2025-12-31T0700,2310A,116.5567,31.7886,六安市,开发区,,42,42,122,25,87,41,41,,,18,28,1,2,0.4,0.7
2025-12-31T0700,2576A,104.8,26.5892,六盘水市,窑上,,40,40,35,26,23,18,18,,,7,11,2,3,0.4,0.5
2025-12-31T0700,2577A,104.83,26.5917,六盘水市,黄土坡,,45,43,32,31,23,10,10,,,17,20,10,7,0.9,0.8
2025-12-31T0700,2578A,104.89,26.5939,六盘水市,水钢,,,34,29,,19,44,44,,,9,11,5,4,0.5,0.5
2025-12-31T0700,2579A,104.8475,26.5894,六盘水市,民中,,45,33,31,31,29,16,16,,,26,17,8,4,1.0,0.7
2025-12-31T0700,2580A,104.9544,26.5506,六盘水市,双水,,39,36,27,27,19,47,47,,,9,11,4,3,0.0,0.1
2025-12-31T0700,2335A,117.0189,25.1181,龙岩市,龙岩师专,,,,,,,,,,,,,,,,
2025-12-31T0700,2336A,117.0217,25.1033,龙岩市,龙岩市监测站,,32,32,40,17,26,60,60,,,21,29,15,22,0.6,0.7
2025-12-31T0700,2337A,117.0258,25.0661,龙岩市,闽西职业技术学院,,33,33,43,20,31,60,60,,,17,23,22,14,0.7,0.7
2025-12-31T0700,2338A,117.0196,25.0306,龙岩市,龙岩学院,,49,46,35,34,25,28,28,,,20,18,9,9,0.5,0.5
2025-12-31T0700,2665A,105.0822,33.3261,陇南市,汉王镇固水子,,,,,,,,,,,,,,,,
2025-12-31T0700,2885A,104.9339,33.3826,陇南市,滨江中学,,49,49,78,25,41,20,20,,,18,25,6,9,0.9,1
2025-12-31T0700,3247A,104.955,33.371,陇南市,市总工会,细颗粒物(PM2.5),57,59,73,40,42,18,18,,,18,21,3,4,1.0,1
2025-12-31T0700,2487A,111.9589,27.8901,娄底市,电视发射台,,,,,,,,,,,,,,,,
2025-12-31T0700,2488A,111.9975,27.725,娄底市,市监测站,细颗粒物(PM2.5),180,151,132,136,112,68,68,,,26,30,12,11,0.8,1
2025-12-31T0700,2489A,112.0194,27.7314,娄底市,市委党校,细颗粒物(PM2.5),159,156,135,121,105,61,61,,,39,33,7,9,0.8,0.9
2025-12-31T0700,2490A,111.9561,27.7569,娄底市,涟钢,细颗粒物(PM2.5),158,150,133,120,102,52,52,,,19,22,6,8,1.0,0.9
2025-12-31T0700,2491A,111.9892,27.7044,娄底市,市政府,细颗粒物(PM2.5),166,,124,126,107,31,31,,,18,25,6,8,0.7,0.7
2025-12-31T0700,1893A,105.4324,28.9634,泸州市,九狮山,,,,,,,,,,,,,,,,
2025-12-31T0700,1894A,105.4427,28.9063,泸州市,小市上码头,细颗粒物(PM2.5),54,54,88,38,64,28,28,,,13,25,10,11,0.7,0.8
2025-12-31T0700,1895A,105.4241,28.8573,泸州市,兰田宪桥,细颗粒物(PM2.5),65,58,79,47,65,24,24,,,13,21,7,8,0.9,1
2025-12-31T0700,1896A,105.4379,28.8833,泸州市,市环监站,细颗粒物(PM2.5),58,52,84,41,65,24,24,,,14,22,7,8,0.6,0.7
2025-12-31T0700,4272A,105.3689,28.7783,泸州市,纳溪中医医院,细颗粒物(PM2.5),67,,67,48,62,28,28,,,14,17,6,7,0.8,0.9
2025-12-31T0700,2183A,111.1406,37.5211,吕梁市,环保局,颗粒物(PM10),63,75,73,31,30,1,1,,,39,34,5,8,0.5,0.4
2025-12-31T0700,2185A,111.1297,37.5136,吕梁市,自来水公司,颗粒物(PM10),70,90,82,43,36,2,2,,,38,34,8,10,0.6,0.6
2025-12-31T0700,2867A,111.1283,37.51,吕梁市,马茂庄小学,颗粒物(PM10),69,87,80,33,31,1,1,,,42,35,5,9,0.8,0.8
2025-12-31T0700,1812A,112.3931,34.6516,洛阳市,市委党校,颗粒物(PM10),54,57,138,25,108,50,50,,,26,46,11,11,0.5,1
2025-12-31T0700,1815A,112.494,34.6886,洛阳市,河南林校,颗粒物(PM10),54,57,144,32,115,52,52,,,20,45,8,10,0.6,1
2025-12-31T0700,1816A,112.3844,34.623,洛阳市,开发区管委会,颗粒物(PM10),59,68,161,32,124,50,50,,,17,37,10,11,0.6,1
2025-12-31T0700,1817A,112.4267,34.6258,洛阳市,市委新办公区,细颗粒物(PM2.5),58,60,165,41,122,52,52,,,22,42,10,11,0.5,0.9
2025-12-31T0700,3340A,112.6005,34.6326,洛阳市,伊滨,颗粒物(PM10),58,65,163,25,114,53,53,,,15,42,8,9,0.5,0.9
2025-12-31T0700,3341A,112.4951,34.6332,洛阳市,中移产业园,颗粒物(PM10),52,53,143,27,120,52,52,,,29,52,10,12,0.4,1
2025-12-31T0700,3593A,112.5736,34.8993,洛阳市,吉利监测站,颗粒物(PM10),55,60,124,26,104,43,43,,,25,41,9,11,0.8,1
2025-12-31T0700,3635A,112.3677,34.662,洛阳市,河科大西苑校区,颗粒物(PM10),57,64,150,35,103,50,50,,,24,43,10,11,0.8,1.2
2025-12-31T0700,3636A,112.4388,34.6781,洛阳市,英才小学,颗粒物(PM10),56,61,154,39,115,56,56,,,28,48,9,11,0.6,1.2
2025-12-31T0700,4214A,112.4600,34.6949,洛阳市,春都路1号院,颗粒物(PM10),59,68,160,32,97,48,48,,,18,38,9,11,0.6,1
2025-12-31T0700,2399A,114.051,33.5699,漯河市,三五一五工厂,细颗粒物(PM2.5),102,111,186,76,142,19,19,,,30,31,9,8,0.9,1
2025-12-31T0700,2400A,114.0055,33.5698,漯河市,漯河大学,细颗粒物(PM2.5),94,116,164,70,132,17,17,,,30,32,8,7,0.8,0.9
2025-12-31T0700,2401A,114.0138,33.5828,漯河市,市水利局,细颗粒物(PM2.5),92,105,168,68,133,16,16,,,32,35,9,8,0.9,0.9
2025-12-31T0700,2402A,114.0261,33.5698,漯河市,市广电局,细颗粒物(PM2.5),85,107,167,63,136,15,15,,,28,29,9,8,0.8,0.8
2025-12-31T0700,3478A,113.9749,33.5664,漯河市,市图书馆,细颗粒物(PM2.5),104,122,186,78,139,17,17,,,29,31,7,7,1.1,1.1
2025-12-31T0700,4250A,114.0892,33.5882,漯河市,韶山路11号,细颗粒物(PM2.5),97,100,181,72,137,12,12,,,32,35,11,10,1.0,1
2025-12-31T0700,1798A,118.5092,31.6837,马鞍山市,湖东路四小,,23,23,86,10,56,60,60,,,15,23,4,5,0.3,0.6
2025-12-31T0700,1799A,118.5024,31.6449,马鞍山市,开发区,,24,24,97,11,64,62,62,,,14,25,4,6,0.4,0.7
2025-12-31T0700,1802A,118.6245,31.7241,马鞍山市,濮塘,,,,,,,,,,,,,,,,
2025-12-31T0700,3633A,118.4918,31.6809,马鞍山市,雨山,,32,32,94,11,59,62,62,,,14,22,5,6,0.4,0.7
2025-12-31T0700,4191A,118.5274,31.72227,马鞍山市,慈湖高新区,,21,18,81,10,59,65,65,,,10,20,4,5,0.4,0.6
2025-12-31T0700,1686A,111.0286,21.4688,茂名市,电白南海,颗粒物(PM10),56,61,67,36,43,45,45,,,29,26,16,14,0.8,0.9
2025-12-31T0700,1687A,110.9294,21.6533,茂名市,茂石化七小,细颗粒物(PM2.5),55,58,65,39,40,50,50,,,31,27,10,10,0.3,0.5
2025-12-31T0700,1688A,110.9107,21.6687,茂名市,健康路,细颗粒物(PM2.5),52,48,58,36,41,56,56,,,26,22,13,13,0.7,0.7
2025-12-31T0700,1689A,110.8592,21.6828,茂名市,高岭,颗粒物(PM10),70,90,98,41,51,35,35,,,33,32,32,19,0.7,0.8
2025-12-31T0700,3450A,111.01,21.5165,茂名市,电白水东,细颗粒物(PM2.5),52,48,59,36,37,65,65,,,24,21,16,14,0.5,0.6
2025-12-31T0700,2539A,104.0308,30.0478,眉山市,黑龙滩水库,,,,,,,,,,,,,,,,
2025-12-31T0700,2540A,103.8416,30.0874,眉山市,气象局,细颗粒物(PM2.5),125,121,118,95,96,13,13,,,27,26,10,10,1.0,1
2025-12-31T0700,3137A,103.8578,30.0744,眉山市,市委党校,细颗粒物(PM2.5),128,110,107,97,90,11,11,,,27,27,8,7,0.9,0.9
2025-12-31T0700,3148A,103.8291,30.0564,眉山市,区人社局,细颗粒物(PM2.5),140,131,113,107,97,10,10,,,28,27,9,7,0.8,0.9
2025-12-31T0700,1690A,116.1231,24.3284,梅州市,梅江月梅,颗粒物(PM10),52,54,46,30,32,1,1,,,36,30,6,6,0.6,0.6
2025-12-31T0700,1691A,116.0797,24.2719,梅州市,梅县新城,,43,36,54,30,36,1,1,,,30,38,8,8,0.6,0.7
2025-12-31T0700,1692A,116.1248,24.2654,梅州市,环境监控中心,颗粒物(PM10),63,76,50,34,30,0,0,,,40,38,12,9,0.6,0.6
2025-12-31T0700,3315A,116.1233,24.2991,梅州市,梅龙,,48,48,50,33,32,2,2,,,38,35,15,10,0.7,0.8
2025-12-31T0700,1878A,104.7778,31.4741,绵阳市,富乐山,细颗粒物(PM2.5),113,96,107,85,94,2,2,,,27,23,11,11,0.8,0.8
2025-12-31T0700,1880A,104.6697,31.4668,绵阳市,高新区自来水公司,细颗粒物(PM2.5),107,98,120,80,96,7,7,,,26,33,8,8,0.7,0.8
2025-12-31T0700,1881A,104.7287,31.5075,绵阳市,三水厂,细颗粒物(PM2.5),128,116,130,97,101,3,3,,,35,35,7,8,0.9,1
2025-12-31T0700,3491A,104.69,31.5322,绵阳市,西科大附属小学,细颗粒物(PM2.5),104,98,124,78,92,3,3,,,25,32,8,8,1.0,1
2025-12-31T0700,3492A,104.5648,31.5343,绵阳市,安州区旅游局,细颗粒物(PM2.5),94,,89,70,90,4,4,,,25,33,14,13,0.9,1
2025-12-31T0700,4226A,104.7651,31.4531,绵阳市,绵阳市气象局,细颗粒物(PM2.5),119,106,111,90,91,2,2,,,27,23,10,10,1.5,1.4
2025-12-31T0700,1784A,129.61,44.561,牡丹江市,环保大楼,,36,,37,25,23,34,34,,,15,12,8,9,0.7,0.6
2025-12-31T0700,1785A,129.6115,44.5782,牡丹江市,文化广场,,43,39,38,30,26,40,40,,,10,12,4,5,0.4,0.5
2025-12-31T0700,1787A,129.6364,44.6075,牡丹江市,机车工厂,,37,37,40,23,26,40,40,,,13,14,2,4,0.3,0.4
2025-12-31T0700,1788A,129.6386,44.5462,牡丹江市,第一中学,,32,,28,22,21,31,31,,,14,9,4,5,0.3,0.3
2025-12-31T0700,4287A,129.5992,44.5964,牡丹江市,东晓云街98号,细颗粒物(PM2.5),55,,40,39,31,40,40,,,7,10,3,5,0.6,0.5
2025-12-31T0700,2531A,105.0703,29.61,内江市,市监测站,细颗粒物(PM2.5),77,57,69,56,69,40,40,,,17,18,4,6,0.9,0.9
2025-12-31T0700,2532A,105.0717,29.5947,内江市,东兴区政府,细颗粒物(PM2.5),83,71,72,61,68,24,24,,,24,22,4,4,0.6,0.6
2025-12-31T0700,2533A,105.0653,29.5817,内江市,内江二中,细颗粒物(PM2.5),78,80,83,57,72,28,28,,,20,25,4,4,0.8,0.8
2025-12-31T0700,2534A,105.0406,29.5822,内江市,内江日报社,细颗粒物(PM2.5),72,,75,52,68,17,17,,,30,30,2,2,0.7,0.7
2025-12-31T0700,2628A,92.0657,31.4846,那曲市,那曲监测站,,15,15,48,9,31,36,36,,,14,30,7,12,1.0,1.5
2025-12-31T0700,4243A,92.0515,31.4787,那曲市,那曲市委宣传部,,29,27,27,20,16,22,22,,,18,16,8,7,1.4,1
2025-12-31T0700,1290A,115.8931,28.6843,南昌市,省外办,细颗粒物(PM2.5),156,141,132,119,111,70,70,,,29,36,9,10,1.5,1.5
2025-12-31T0700,1291A,115.8886,28.7003,南昌市,省林业公司,细颗粒物(PM2.5),144,132,125,110,103,60,60,,,19,30,4,5,1.3,1.2
2025-12-31T0700,1292A,115.8126,28.7442,南昌市,林科所,细颗粒物(PM2.5),140,149,122,107,92,70,70,,,18,24,6,7,0.7,0.5
2025-12-31T0700,1294A,115.8518,28.687,南昌市,建工学校,细颗粒物(PM2.5),150,151,139,115,105,57,57,,,27,33,13,14,1.0,0.9
2025-12-31T0700,1295A,115.8921,28.6424,南昌市,象湖,细颗粒物(PM2.5),149,126,115,114,105,59,59,,,22,28,10,11,1.1,1.1
2025-12-31T0700,1296A,115.7423,28.7996,南昌市,武术学校,,,,,,,,,,,,,,,,
2025-12-31T0700,3046A,115.9084,28.6062,南昌市,机电学校,细颗粒物(PM2.5),156,154,145,119,107,64,64,,,22,27,5,7,1.0,0.9
2025-12-31T0700,3690A,115.9721,28.7031,南昌市,外国语学校,细颗粒物(PM2.5),140,144,147,107,105,57,57,,,22,29,12,13,0.9,0.9
2025-12-31T0700,4192A,115.9316,28.68677,南昌市,南京东路235号,细颗粒物(PM2.5),185,,133,139,123,61,61,,,31,36,7,7,0.7,0.6
2025-12-31T0700,1905A,106.056,30.8064,南充市,西山风景区,,,,,,,,,,,,,,,,
2025-12-31T0700,1906A,106.0789,30.8023,南充市,南充市委,细颗粒物(PM2.5),90,73,106,67,94,9,9,,,21,26,4,4,0.7,0.9
2025-12-31T0700,1907A,106.1031,30.8217,南充市,南充炼油厂,细颗粒物(PM2.5),95,72,105,71,96,11,11,,,18,21,5,6,0.9,1
2025-12-31T0700,4227A,106.1083,30.7884,南充市,梨树横街98号,,,,99,72,84,,,,,19,25,5,6,0.8,0.8
2025-12-31T0700,4304A,106.1172,30.843,南充市,清泉寺北路188号,细颗粒物(PM2.5),79,,88,58,78,15,15,,,16,19,5,5,0.9,0.9
2025-12-31T0700,4305A,106.067,30.7616,南充市,同庆路1号,细颗粒物(PM2.5),79,60,96,58,87,14,14,,,19,27,6,7,0.6,1.1
2025-12-31T0700,1151A,118.8086,32.1065,南京市,迈皋桥,,23,23,66,14,41,47,47,,,15,21,3,4,0.8,0.8
2025-12-31T0700,1152A,118.7538,32.0551,南京市,草场门,,22,22,66,9,41,48,48,,,24,27,6,7,0.2,0.4
2025-12-31T0700,1153A,118.7794,32.0745,南京市,山西路,,19,19,75,7,42,49,49,,,20,32,4,4,0.2,0.5
2025-12-31T0700,1154A,118.7752,32.0023,南京市,中华门,,19,19,66,9,41,48,48,,,6,10,3,5,0.3,0.4
2025-12-31T0700,1155A,118.8109,32.0309,南京市,瑞金路,,28,,62,19,41,50,50,,,20,23,4,4,0.4,0.6
2025-12-31T0700,1156A,118.7997,32.0754,南京市,玄武湖,,22,22,68,3,40,41,41,,,19,27,4,4,0.2,0.5
2025-12-31T0700,1157A,118.6414,32.0931,南京市,浦口,,26,26,84,10,56,50,50,,,19,31,8,8,0.4,0.6
2025-12-31T0700,1158A,118.7356,31.9996,南京市,奥体中心,,20,18,71,7,44,62,62,,,16,20,2,4,0.2,0.5
2025-12-31T0700,1159A,118.9125,32.1028,南京市,仙林大学城,细颗粒物(PM2.5),52,,66,36,44,51,51,,,17,27,6,7,0.5,0.7
2025-12-31T0700,3422A,118.8436,31.9198,南京市,江宁彩虹桥,,22,22,79,3,41,55,55,,,14,19,4,4,0.3,0.5
2025-12-31T0700,3427A,118.8554,32.3578,南京市,六合雄州,,18,15,67,3,38,57,57,,,13,18,6,8,0.4,0.6
2025-12-31T0700,4249A,118.8708,31.3402,南京市,汶溪路181号,,27,27,101,6,79,45,45,,,29,32,6,6,0.6,0.7
2025-12-31T0700,4312A,119.019,31.6512,南京市,中山西路1号,,28,19,70,19,63,44,44,,,25,32,4,4,0.8,1.1
2025-12-31T0700,1401A,108.3103,22.7881,南宁市,二十一中,细颗粒物(PM2.5),77,78,72,56,56,52,52,,,24,22,6,6,0.8,0.8
2025-12-31T0700,1402A,108.3141,22.8528,南宁市,北湖,细颗粒物(PM2.5),82,69,76,60,55,42,42,,,36,38,5,5,1.0,1
2025-12-31T0700,1403A,108.3206,22.8225,南宁市,市监测站,细颗粒物(PM2.5),80,76,71,59,52,51,51,,,27,24,9,8,0.9,0.9
2025-12-31T0700,1404A,108.3829,22.8037,南宁市,大自然花园,细颗粒物(PM2.5),79,80,71,58,54,46,46,,,35,24,7,7,0.7,0.8
2025-12-31T0700,1405A,108.4394,22.7904,南宁市,仙葫,,,,,,,,,,,,,,,,
2025-12-31T0700,1406A,108.2397,22.8467,南宁市,区农职院,细颗粒物(PM2.5),72,74,77,52,55,4,4,,,58,39,8,9,1.0,1
2025-12-31T0700,1407A,108.3275,22.735,南宁市,英华嘉园,细颗粒物(PM2.5),84,73,76,62,60,43,43,,,28,39,6,5,0.8,0.8
2025-12-31T0700,3401A,108.4834,22.7618,南宁市,红星社区,细颗粒物(PM2.5),80,70,74,59,56,8,8,,,47,32,4,6,0.9,0.9
2025-12-31T0700,4221A,108.2177,22.7774,南宁市,乐贤路16号,细颗粒物(PM2.5),80,90,83,59,54,38,38,,,39,49,4,4,1.1,0.9
2025-12-31T0700,2331A,118.0966,26.6761,南平市,茫荡山,,,,29,,19,,,85,,,,,1,,
2025-12-31T0700,2332A,118.1681,26.6369,南平市,南平市监测站,,38,33,36,26,30,38,38,,,24,26,4,9,0.6,0.9
2025-12-31T0700,2333A,118.1825,26.6489,南平市,南平铝业有限公司,,46,40,37,32,28,31,31,,,29,27,7,9,0.7,0.8
2025-12-31T0700,2334A,118.1756,26.6272,南平市,南平七中,,39,32,37,27,28,32,32,,,22,23,6,10,0.6,0.8
2025-12-31T0700,1168A,120.9098,31.9663,南通市,狼山街道,,24,24,36,7,19,49,49,,,20,16,4,3,0.5,0.6
2025-12-31T0700,1169A,120.86,32.0005,南通市,虹桥,,17,17,34,6,20,49,49,,,22,20,2,2,0.2,0.5
2025-12-31T0700,1170A,120.87,32.02,南通市,城中,,24,24,43,7,23,42,42,,,23,22,5,4,0.4,0.4
2025-12-31T0700,1171A,120.94,31.93,南通市,星湖花园,,18,16,38,6,23,56,56,,,18,19,4,4,0.5,0.6
2025-12-31T0700,1172A,120.81,32.0417,南通市,紫琅学院,,25,25,44,3,21,47,47,,,21,25,4,4,0.5,0.6
2025-12-31T0700,3291A,121.067,32.062,南通市,通州监测站,,21,12,30,3,15,66,66,,,19,19,3,3,0.4,0.5
2025-12-31T0700,3432A,120.9348,31.9883,南通市,环境教育馆,,22,22,37,8,20,44,44,,,25,23,5,4,0.3,0.3
2025-12-31T0700,2404A,112.5224,33.0122,南阳市,瓦房庄,细颗粒物(PM2.5),173,153,163,131,144,40,40,,,21,21,10,8,1.0,1
2025-12-31T0700,2405A,112.5003,32.9735,南阳市,汉画馆,细颗粒物(PM2.5),168,170,172,127,134,39,39,,,23,24,9,8,1.0,1
2025-12-31T0700,2406A,112.5573,33.027,南阳市,气象站,细颗粒物(PM2.5),156,180,190,119,132,41,41,,,22,23,9,8,0.8,0.8
2025-12-31T0700,2407A,112.5481,32.9689,南阳市,理工学院,细颗粒物(PM2.5),140,155,166,107,116,40,40,,,23,24,9,8,1.0,1
2025-12-31T0700,4008A,112.5234,32.9922,南阳市,卧龙区政府,细颗粒物(PM2.5),162,169,191,123,134,38,38,,,24,25,9,8,1.0,1
2025-12-31T0700,1234A,121.8358,29.911,宁波市,区环保大楼,,18,18,55,11,35,56,56,,,28,40,5,6,0.4,0.6
2025-12-31T0700,1235A,121.56,29.82,宁波市,万里学院,,23,23,65,3,38,56,56,,,25,29,4,5,0.4,0.6
2025-12-31T0700,1236A,121.713,29.9572,宁波市,龙赛医院,,22,18,55,3,34,69,69,,,13,25,3,4,0.3,0.5
2025-12-31T0700,1239A,121.633,29.7733,宁波市,钱湖水厂,,18,13,53,3,36,56,56,,,23,31,6,6,0.4,0.6
2025-12-31T0700,1240A,121.5856,29.8635,宁波市,太古小学,,,15,55,6,35,66,66,,,15,19,,3,0.5,0.6
2025-12-31T0700,1241A,121.524,29.8674,宁波市,市环境监测中心,,22,22,56,6,30,62,62,,,16,22,6,6,0.4,0.6
2025-12-31T0700,2871A,121.6147,29.9017,宁波市,万里国际学校,,25,25,67,3,28,67,67,,,18,22,4,4,0.3,0.4
2025-12-31T0700,3710A,121.5594,29.8975,宁波市,白沙活动中心,,24,24,61,6,32,62,62,,,18,25,4,5,0.3,0.4
2025-12-31T0700,2339A,119.5001,26.6946,宁德市,金涵水库,,,,40,,27,,,65,,,12,,2,,0.4
2025-12-31T0700,2341A,119.5388,26.6612,宁德市,宁德市监测站,,49,,36,34,28,33,33,,,40,24,7,7,0.7,0.6
2025-12-31T0700,3209A,119.5231,26.6562,宁德市,宁德一中,,46,38,55,32,33,56,56,,,18,18,6,7,0.7,0.6
2025-12-31T0700,2618A,98.8601,25.8567,怒江傈僳族自治州,州监测站,,29,29,32,19,21,25,25,,,12,14,7,7,0.4,0.5
2025-12-31T0700,2619A,98.8546,25.8417,怒江傈僳族自治州,泸水一中,,20,19,28,14,22,14,14,,,13,19,5,6,0.6,0.7
2025-12-31T0700,1888A,101.6891,26.571,攀枝花市,弄弄坪,颗粒物(PM10),61,72,76,35,43,4,4,,,37,43,12,20,1.1,1.6
2025-12-31T0700,1889A,101.5769,26.5928,攀枝花市,河门口,,44,44,53,28,33,8,8,,,28,26,11,23,1.3,1.3
2025-12-31T0700,1890A,101.7169,26.585,攀枝花市,炳草岗,细颗粒物(PM2.5),133,160,94,101,56,4,4,,,38,44,14,12,1.0,1.2
2025-12-31T0700,1891A,101.7369,26.5008,攀枝花市,仁和,,40,40,44,23,27,14,14,,,23,24,8,14,0.8,1.1
2025-12-31T0700,2835A,101.7227,26.567,攀枝花市,四十中小,细颗粒物(PM2.5),83,97,77,61,50,2,2,,,49,46,17,16,1.5,1.5
2025-12-31T0700,1604A,122.0303,41.1489,盘锦市,开发区,,16,13,24,11,7,36,36,,,10,8,3,5,0.6,0.5
2025-12-31T0700,1605A,122.0485,41.0883,盘锦市,兴隆台,,,14,20,9,7,26,26,,,28,14,,5,0.6,0.5
2025-12-31T0700,1606A,121.8297,41.1028,盘锦市,新生街道,,18,15,20,6,5,12,12,,,35,21,4,4,0.6,0.4
2025-12-31T0700,1832A,113.3257,33.742,平顶山市,新华旅馆,细颗粒物(PM2.5),87,122,188,64,129,30,30,,,27,44,11,10,0.9,1.1
2025-12-31T0700,1833A,113.2919,33.737,平顶山市,规划设计院,细颗粒物(PM2.5),93,114,214,69,138,34,34,,,29,49,9,9,0.7,0.9
2025-12-31T0700,1834A,113.182,33.774,平顶山市,平顶山工学院,细颗粒物(PM2.5),85,105,184,63,135,37,37,,,24,36,10,10,0.6,0.8
2025-12-31T0700,3204A,113.3025,33.73,平顶山市,规划局,颗粒物(PM10),89,127,196,65,136,35,35,,,25,41,10,10,0.9,1.1
2025-12-31T0700,3594A,112.8867,33.9116,平顶山市,石龙区,颗粒物(PM10),71,91,183,51,131,45,45,,,22,42,8,9,0.7,0.9
2025-12-31T0700,2656A,106.6692,35.5461,平凉市,聚贤嘉苑,细颗粒物(PM2.5),79,91,85,58,51,56,56,,,23,49,5,7,1.0,0.9
2025-12-31T0700,2657A,106.7021,35.5307,平凉市,博物馆,细颗粒物(PM2.5),94,99,91,70,58,49,49,,,26,47,10,13,1.0,1
2025-12-31T0700,2347A,114.0997,27.5002,萍乡市,武功山,,,,,,,,,,,,,,,,
2025-12-31T0700,2348A,113.8385,27.6434,萍乡市,中医院,细颗粒物(PM2.5),97,113,158,72,113,31,31,,,33,46,10,13,1.1,1.7
2025-12-31T0700,2349A,113.8493,27.6253,萍乡市,市政府车库,细颗粒物(PM2.5),112,105,147,84,108,13,13,,,33,35,8,13,1.3,1.4
2025-12-31T0700,2350A,113.8676,27.6435,萍乡市,市环保局,细颗粒物(PM2.5),94,85,124,70,100,60,60,,,26,42,22,22,0.5,1
2025-12-31T0700,2351A,113.866,27.6198,萍乡市,安源区政府,细颗粒物(PM2.5),134,132,166,102,153,19,19,,,39,43,12,20,1.5,1.5
2025-12-31T0700,2319A,119.0141,25.4325,莆田市,荔城区仓后路,,39,38,43,27,24,92,92,,,11,14,3,3,0.7,0.6
2025-12-31T0700,2320A,119.0015,25.4553,莆田市,莆田市监测站,,39,36,31,27,20,100,100,,,8,10,4,5,0.5,0.4
2025-12-31T0700,2321A,119.1119,25.4561,莆田市,涵江区六中,,40,40,40,27,26,89,89,,,12,16,4,4,0.5,0.5
2025-12-31T0700,2322A,119.1013,25.3215,莆田市,秀屿区政府,,40,39,43,28,27,90,90,,,16,17,5,5,0.6,0.6
2025-12-31T0700,2323A,118.981,25.4792,莆田市,东圳水库,,,,23,,19,,,90,,,1,,5,,0.4
2025-12-31T0700,2392A,115.0312,35.7636,濮阳市,环保局,,32,32,93,16,77,23,23,,,23,41,8,12,0.9,1.2
2025-12-31T0700,2394A,115.0574,35.7609,濮阳市,油田运输公司,,44,44,100,19,83,24,24,,,27,46,9,14,1.1,1.5
2025-12-31T0700,3021A,115,35.7668,濮阳市,濮水河管理处,,44,44,111,20,81,25,25,,,41,48,8,12,1.1,1.3
2025-12-31T0700,4216A,115.0924,35.7686,濮阳市,任丘路479号,,40,40,121,19,94,30,30,,,32,56,8,13,0.7,1.1
2025-12-31T0700,2601A,100.98,22.7633,普洱市,市环保局,,34,34,42,6,13,14,14,,,5,10,4,4,0.4,0.4
2025-12-31T0700,2602A,100.9817,22.8322,普洱市,普洱第二中学,,26,26,37,12,18,4,4,,,16,18,5,5,0.4,0.4
2025-12-31T0700,2262A,131.0518,45.8751,七台河市,新一中,,,,,,,,,,,,,,,,
2025-12-31T0700,3345A,131.0577,45.7879,七台河市,中波台,,38,36,40,26,21,32,32,,,14,15,8,8,0.4,0.4
2025-12-31T0700,3637A,131.0176,45.7761,七台河市,人民广场,,45,45,37,31,25,31,31,,,21,19,7,7,0.5,0.5
2025-12-31T0700,3684A,130.8781,45.8222,七台河市,新建矿广场,,46,39,45,32,29,28,28,,,14,11,10,7,0.3,0.3
2025-12-31T0700,1779A,123.9305,47.3636,齐齐哈尔市,安居小区,,24,24,24,13,16,24,24,,,21,13,1,2,0.6,0.6
2025-12-31T0700,1780A,123.9488,47.3386,齐齐哈尔市,中心广场,,12,12,15,7,7,33,33,,,5,6,6,6,0.4,0.5
2025-12-31T0700,1781A,123.9483,47.3227,齐齐哈尔市,农牧车辆厂,,20,17,18,14,7,31,31,,,9,8,4,4,0.6,0.5
2025-12-31T0700,1783A,123.945,47.2988,齐齐哈尔市,市环境监测站,,23,,16,16,8,35,35,,,9,7,8,6,0.3,0.4
2025-12-31T0700,3662A,123.6333,47.2075,齐齐哈尔市,富区青少年活动中心,,20,17,26,14,13,27,27,,,14,11,6,5,0.5,0.5
2025-12-31T0700,2591A,107.9783,26.5747,黔东南苗族侗族自治州,市环境监测站,细颗粒物(PM2.5),94,80,79,70,63,35,35,,,10,15,5,6,0.8,0.8
2025-12-31T0700,2881A,107.8908,26.5311,黔东南苗族侗族自治州,凯里学院,细颗粒物(PM2.5),87,75,72,64,55,40,40,,,10,14,4,5,0.8,0.7
2025-12-31T0700,2593A,107.5228,26.2403,黔南布依族苗族自治州,小围寨,,39,27,38,27,36,24,24,,,7,11,4,5,0.6,0.6
2025-12-31T0700,3538A,107.5175,26.2978,黔南布依族苗族自治州,沙坝,,45,39,40,31,34,3,3,,,17,17,5,4,0.9,0.8
2025-12-31T0700,2589A,104.9022,25.0925,黔西南布依族苗族自治州,场坝街,细颗粒物(PM2.5),52,51,43,36,30,48,48,,,7,9,2,2,0.6,0.6
2025-12-31T0700,2590A,104.8811,25.0992,黔西南布依族苗族自治州,坪东大道,细颗粒物(PM2.5),53,,39,37,32,49,49,,,6,8,5,5,0.5,0.6
2025-12-31T0700,2502A,108.6236,21.9667,钦州市,市环保站,细颗粒物(PM2.5),104,85,88,78,52,25,25,,,34,32,4,6,0.7,0.7
2025-12-31T0700,2503A,108.6549,21.9481,钦州市,沙埠小学,细颗粒物(PM2.5),79,74,83,58,50,24,24,,,42,40,8,8,0.6,0.7
2025-12-31T0700,2504A,108.5989,21.7431,钦州市,港区一小,细颗粒物(PM2.5),80,82,76,59,47,16,16,,,66,45,10,12,0.6,0.7
2025-12-31T0700,3404A,108.5959,21.9633,钦州市,北职校,细颗粒物(PM2.5),92,78,77,68,52,10,10,,,42,35,7,9,0.8,0.8
2025-12-31T0700,1043A,119.7493,40.0116,秦皇岛市,第一关,,31,27,35,21,25,6,6,,,62,39,7,10,0.5,0.4
2025-12-31T0700,1044A,119.5897,39.9499,秦皇岛市,监测站,,36,36,45,16,20,42,42,,,18,32,6,11,0.3,0.4
2025-12-31T0700,1046A,119.5251,39.9041,秦皇岛市,建设大厦,,35,25,45,24,32,23,23,,,29,31,5,8,0.4,0.5
2025-12-31T0700,3132A,119.610547,39.943889,秦皇岛市,文明里,,16,16,40,10,18,44,44,,,5,17,8,12,0.2,0.3
2025-12-31T0700,4198A,119.5090,39.8253,秦皇岛市,北戴河轮滑馆,,34,34,43,13,15,22,22,,,31,25,5,8,1.9,0.6
2025-12-31T0700,1307A,120.6659,36.2403,青岛市,仰口,,,,,,,,,,,,,,,,
2025-12-31T0700,1310A,120.4134,36.0658,青岛市,市南区东部子站,,17,17,51,3,30,41,41,,,18,27,8,9,0.5,0.8
2025-12-31T0700,1311A,120.3664,36.1032,青岛市,四方区子站,,34,34,73,14,41,47,47,,,15,31,3,7,0.6,0.9
2025-12-31T0700,1312A,120.2994,36.054,青岛市,市南区西部子站,,27,27,61,3,35,29,29,,,22,33,6,6,0.4,0.7
2025-12-31T0700,1313A,120.4581,36.0858,青岛市,崂山区子站,,17,14,40,3,21,53,53,,,16,29,10,10,0.5,0.7
2025-12-31T0700,1315A,120.3999,36.3083,青岛市,城阳区子站,,29,29,58,15,30,39,39,,,23,33,7,9,0.7,0.9
2025-12-31T0700,3362A,120.5014,36.4034,青岛市,即墨2号,,33,33,56,15,43,28,28,,,18,25,9,9,0.6,0.8
2025-12-31T0700,3642A,120.3503,36.0736,青岛市,市北区南部,,24,24,74,3,35,37,37,,,17,32,3,5,0.4,0.7
2025-12-31T0700,3643A,120.3948,36.1805,青岛市,李沧区北部,,22,22,68,14,48,38,38,,,18,37,9,10,0.8,1.1
2025-12-31T0700,4290A,120.1969,35.9546,青岛市,珠江路669号,,22,22,58,12,34,26,26,,,34,49,11,12,0.4,0.6
2025-12-31T0700,4291A,120.0424,35.8656,青岛市,黄岛区人民政府广场,,19,19,60,3,31,53,53,,,17,36,7,8,0.5,0.8
2025-12-31T0700,1702A,113.0426,23.691,清远市,环保大楼,,,,,,,,,,,,,,,,
2025-12-31T0700,1703A,113.0208,23.7106,清远市,凤城街办,,43,42,41,30,26,26,26,,,38,30,9,9,0.7,0.7
2025-12-31T0700,3025A,113.0477,23.6344,清远市,技师学院,颗粒物(PM10),51,52,45,30,26,3,3,,,52,37,13,10,0.8,0.8
2025-12-31T0700,3318A,112.9903,23.7403,清远市,清新太和,,31,31,38,20,24,48,48,,,17,22,10,12,0.5,0.5
2025-12-31T0700,3455A,113.076,23.7198,清远市,清城东城,,35,35,35,23,23,11,11,,,34,23,7,7,0.5,0.6
2025-12-31T0700,2661A,107.6325,35.7357,庆阳市,庆阳五中,,40,34,77,28,53,62,62,,,12,23,4,8,0.5,0.7
2025-12-31T0700,2662A,107.6364,35.7067,庆阳市,市环保局,,37,37,80,22,53,61,61,,,11,18,1,4,0.5,0.7
2025-12-31T0700,1916A,103.7897,25.5035,曲靖市,环境监测站,,18,15,22,12,11,51,51,,,12,11,3,2,0.4,0.4
2025-12-31T0700,1917A,103.8,25.5364,曲靖市,烟厂办公区,,20,20,24,6,12,58,58,,,10,11,4,4,0.3,0.3
2025-12-31T0700,3376A,103.7947,25.462,曲靖市,南苑二区,,19,14,16,10,14,60,60,,,5,5,4,4,0.4,0.3
2025-12-31T0700,3377A,103.7444,25.5261,曲靖市,曲靖师范学院,,28,28,27,18,16,45,45,,,14,13,4,4,0.4,0.4
2025-12-31T0700,1264A,118.8692,28.9398,衢州市,环保大楼,,46,46,122,32,90,65,65,,,17,34,4,6,0.4,0.7
2025-12-31T0700,1265A,118.8709,28.9666,衢州市,实验学校,,40,40,114,27,89,67,67,,,14,32,5,6,0.5,0.7
2025-12-31T0700,1266A,118.8621,28.9808,衢州市,衢州学院,,36,36,115,24,88,67,67,,,17,30,4,6,0.5,0.9
2025-12-31T0700,1611A,118.5819,24.9117,泉州市,涂山街,,35,35,41,23,25,79,79,,,16,17,4,4,0.5,0.5
2025-12-31T0700,1612A,118.5972,24.8978,泉州市,津头埔,,38,37,41,26,26,75,75,,,18,19,4,5,0.5,0.5
2025-12-31T0700,1613A,118.6663,24.9424,泉州市,万安,,40,40,45,19,23,69,69,,,25,17,3,4,0.4,0.5
2025-12-31T0700,1614A,118.6117,24.9604,泉州市,清源山,,,,118,,23,,,101,,,10,,4,,0.5
2025-12-31T0700,3529A,118.6333,24.9264,泉州市,城华南路,,34,34,43,22,25,90,90,,,12,19,4,6,0.5,0.6
2025-12-31T0700,2626A,88.8876,29.2718,日喀则市,日喀则监测站,,22,8,24,3,18,69,69,,,3,14,6,11,0.3,0.5
2025-12-31T0700,3726A,88.8781,29.2426,日喀则市,林业技术推广中心,,16,13,17,6,5,51,51,,,6,5,9,10,0.4,0.3
2025-12-31T0700,1659A,119.471,35.4209,日照市,监测站,,24,24,57,12,35,39,39,,,22,39,7,10,0.6,0.7
2025-12-31T0700,1660A,119.523,35.4216,日照市,市政府广场,,22,22,44,7,26,48,48,,,16,25,9,10,0.2,0.3
2025-12-31T0700,1661A,119.5587,35.4044,日照市,港务局,,27,27,48,18,35,41,41,,,21,28,8,9,0.3,0.5
2025-12-31T0700,3507A,119.5328,35.4625,日照市,职业技术学院,,22,22,43,12,22,44,44,,,20,25,7,8,0.6,0.7
2025-12-31T0700,3604A,119.3266,35.1044,日照市,岚山环保分局,,39,39,63,17,34,36,36,,,33,34,34,23,2.1,1.8
2025-12-31T0700,1835A,111.1922,34.7752,三门峡市,市政府,细颗粒物(PM2.5),100,96,119,75,119,53,53,,,20,27,9,12,0.6,0.8
2025-12-31T0700,1836A,111.1587,34.7942,三门峡市,开发区,细颗粒物(PM2.5),102,109,156,76,117,50,50,,,22,28,10,12,0.6,0.8
2025-12-31T0700,1838A,111.143,34.7955,三门峡市,风景区,细颗粒物(PM2.5),122,,119,92,110,54,54,,,18,22,8,10,0.9,1.1
2025-12-31T0700,3039A,111.1911,34.7829,三门峡市,三门峡市第一小学,细颗粒物(PM2.5),90,92,126,67,113,51,51,,,19,25,9,12,0.6,0.8
2025-12-31T0700,3598A,111.1,34.7167,三门峡市,富达温泉假日酒店,细颗粒物(PM2.5),123,126,143,93,116,53,53,,,32,42,14,17,0.7,0.8
2025-12-31T0700,2324A,117.6211,26.2625,三明市,三钢,,42,35,44,29,37,82,82,,,16,25,14,8,0.7,0.9
2025-12-31T0700,2325A,117.635,26.2714,三明市,三明二中,,36,36,41,24,32,82,82,,,14,19,17,11,0.6,0.8
2025-12-31T0700,2326A,117.6028,26.2378,三明市,三元区政府,,42,31,48,29,34,84,84,,,17,32,11,8,0.6,1.2
2025-12-31T0700,2327A,117.7275,26.3108,三明市,洋溪,,,,32,,37,,,45,,,14,,17,,1.6
2025-12-31T0700,1876A,109.5078,18.2489,三亚市,河东子站,,,30,28,24,16,,,,,9,8,5,5,0.7,0.6
2025-12-31T0700,1877A,109.4964,18.2681,三亚市,河西子站,,46,35,32,32,19,123,123,,,8,9,5,4,0.5,0.5
2025-12-31T0700,3540A,109.7348,18.3443,三亚市,君悦子站,,36,29,30,25,19,67,67,,,14,7,5,5,0.5,0.5
2025-12-31T0700,2624A,91.7608,29.2313,山南市,山南监测站,,16,14,19,3,7,51,51,,,8,7,4,4,0.3,0.2
2025-12-31T0700,2625A,91.7706,29.2436,山南市,山南人民医院,,19,13,17,3,6,58,58,,,7,5,2,3,0.3,0.3
2025-12-31T0700,1674A,116.6794,23.3667,汕头市,金平子站,,34,34,42,20,27,67,67,,,23,24,4,8,0.6,0.7
2025-12-31T0700,1675A,116.7244,23.3633,汕头市,龙湖子站,,28,28,39,19,26,79,79,,,13,19,10,12,0.5,0.6
2025-12-31T0700,1676A,116.7258,23.2775,汕头市,濠江子站,,29,19,38,16,27,91,91,,,11,18,7,9,0.6,0.7
2025-12-31T0700,1677A,116.7519,23.4714,汕头市,澄海子站,,30,27,39,21,19,57,57,,,29,19,9,8,0.8,0.7
2025-12-31T0700,1678A,116.6092,23.2539,汕头市,潮阳子站,,30,24,34,10,17,94,94,,,12,16,6,8,0.4,0.6
2025-12-31T0700,3444A,116.454,23.2684,汕头市,潮南峡山,,,39,40,,26,60,60,,,17,16,8,10,0.6,0.6
2025-12-31T0700,3624A,116.4069,23.2533,汕头市,潮南子站,颗粒物(PM10),51,52,49,26,23,73,73,,,24,20,6,8,0.7,0.6
2025-12-31T0700,1693A,115.3653,22.775,汕尾市,市环保局,,32,31,32,22,21,96,96,,,9,15,7,8,0.5,0.6
2025-12-31T0700,1694A,115.3706,22.7898,汕尾市,市政府,,32,27,32,22,24,93,93,,,11,17,7,8,0.5,0.5
2025-12-31T0700,1695A,115.3622,22.7925,汕尾市,新城中学,,30,23,34,20,21,95,95,,,9,15,6,7,0.4,0.5
2025-12-31T0700,2645A,109.9154,33.8715,商洛市,监测站,细颗粒物(PM2.5),70,65,66,51,48,105,105,,,15,24,6,11,0.8,0.9
2025-12-31T0700,3045A,109.9643,33.8471,商洛市,商州区中学,细颗粒物(PM2.5),72,54,62,52,47,107,107,,,12,24,6,15,0.5,0.6
2025-12-31T0700,2408A,115.6702,34.4285,商丘市,环境监测站,细颗粒物(PM2.5),129,115,148,98,133,10,10,,,41,34,4,3,0.9,0.9
2025-12-31T0700,2409A,115.6458,34.4045,商丘市,粮食局,细颗粒物(PM2.5),129,106,138,98,123,9,9,,,42,36,7,6,0.7,0.6
2025-12-31T0700,2410A,115.6293,34.3948,商丘市,睢阳区环保局,细颗粒物(PM2.5),120,119,146,91,124,7,7,,,41,31,6,7,0.9,0.9
2025-12-31T0700,3171A,115.6071,34.4465,商丘市,梁园区档案局,细颗粒物(PM2.5),118,,128,89,123,6,6,,,40,35,6,6,0.9,0.9
2025-12-31T0700,1141A,121.4,31.238,上海市,普陀,,19,14,33,3,29,60,60,,,32,29,6,6,0.5,0.5
2025-12-31T0700,1142A,121.478,31.2036,上海市,十五厂,,20,15,37,7,29,63,63,,,21,24,6,6,0.5,0.6
2025-12-31T0700,1143A,121.467,31.3008,上海市,虹口,,19,19,37,7,26,52,52,,,27,29,10,10,0.3,0.3
2025-12-31T0700,1147A,121.425,31.2261,上海市,静安监测站,,20,15,34,8,28,64,64,,,21,20,8,7,0.2,0.3
2025-12-31T0700,1148A,121.703,31.1907,上海市,浦东川沙,,23,14,29,3,22,72,72,,,14,16,7,6,0.4,0.5
2025-12-31T0700,1149A,121.533,31.2284,上海市,浦东新区监测站,,19,14,32,8,29,58,58,,,30,31,6,6,0.5,0.5
2025-12-31T0700,1150A,121.577,31.2071,上海市,浦东张江,,23,14,30,8,25,73,73,,,14,26,6,6,0.2,0.3
2025-12-31T0700,3265A,121.4316,31.3322,上海市,宝山庙行,,18,16,33,8,26,49,49,,,36,30,5,6,0.3,0.4
2025-12-31T0700,3266A,121.8791,31.4662,上海市,崇明上实东滩,,24,12,22,3,13,76,76,,,6,8,4,4,0.3,0.4
2025-12-31T0700,3268A,121.3162,31.2838,上海市,嘉定南翔,,19,14,35,3,23,58,58,,,23,25,4,4,0.4,0.5
