timepoint,stationcode,longitude,latitude,area,positionname,primarypollutant,aqi,pm10,pm10_24h,pm2_5,pm2_5_24h,o3,o3_24h,o3_8h,o3_8h_24h,no2,no2_24h,so2,so2_24h,co,co_24h
2025-12-31T1100,2566A,102.1879,31.914,阿坝藏族羌族自治州,州农科所,,,,,,,,,,,,,,,,
2025-12-31T1100,2568A,102.2502,31.8896,阿坝藏族羌族自治州,马师校,,22,21,25,15,21,40,40,27,25,16,21,4,5,0.5,0.7
2025-12-31T1100,3994A,102.2165,31.9024,阿坝藏族羌族自治州,马尔康中学西区,,23,,18,16,12,42,42,32,32,12,16,5,6,0.6,0.6
2025-12-31T1100,2695A,80.292,41.1694,阿克苏地区,电视台,,41,41,48,28,31,43,43,48,47,19,18,4,4,0.6,0.6
2025-12-31T1100,2696A,80.2613,41.1551,阿克苏地区,艺术中心,,50,45,43,35,35,45,45,54,51,13,12,5,5,0.5,0.5
2025-12-31T1100,2204A,105.6467,38.8363,阿拉善盟,西城区西花园,,,,,,,,,,,,,,,,
2025-12-31T1100,2205A,105.6985,38.8411,阿拉善盟,蒙二幼,,48,48,64,16,22,57,57,54,54,9,15,10,13,0.6,0.7
2025-12-31T1100,2206A,105.724,38.8516,阿拉善盟,环保局新楼,,42,42,47,20,21,51,51,49,48,11,14,9,11,0.6,0.6
2025-12-31T1100,2708A,88.1264,47.8517,阿勒泰地区,市站,,,,8,,4,22,22,84,68,70,20,3,3,,0.6
2025-12-31T1100,2630A,80.1161,32.5,阿里地区,阿里监测站,,19,6,3,3,3,60,60,62,62,4,9,9,11,0.3,0.4
2025-12-31T1100,3192A,80.0903,32.5028,阿里地区,阿里藏医院,,18,18,14,10,9,44,44,43,42,11,12,16,13,0.6,0.5
2025-12-31T1100,2642A,109.0318,32.6537,安康市,香溪洞,,,,,,,,,,,,,,,,
2025-12-31T1100,2644A,109.0072,32.6975,安康市,汉滨区检察院,,49,35,107,34,75,80,80,98,90,15,24,4,7,0.6,0.7
2025-12-31T1100,4054A,109.0325,32.6913,安康市,市邮政管理局,细颗粒物(PM2.5),53,41,90,37,71,70,70,81,76,14,25,4,5,0.7,1
2025-12-31T1100,2291A,117.0809,30.5177,安庆市,环科院,,,35,131,12,98,,,60,52,11,14,6,7,0.3,0.7
2025-12-31T1100,2292A,117.0331,30.5119,安庆市,马山宾馆,,31,31,131,13,98,66,66,66,58,13,20,5,6,0.6,1
2025-12-31T1100,2294A,116.9896,30.6145,安庆市,安庆大学,,27,27,127,11,94,69,69,54,53,11,17,4,4,0.5,0.9
2025-12-31T1100,3173A,117.0598,30.5351,安庆市,市人大,,37,37,133,13,100,62,62,62,54,8,14,6,7,0.3,0.7
2025-12-31T1100,3122A,105.9606,26.2611,安顺市,伍家关,,38,28,36,26,25,51,51,49,49,9,7,14,8,0.7,0.8
2025-12-31T1100,3123A,105.9408,26.2431,安顺市,凤凰山,,40,32,35,28,31,62,62,57,57,13,13,13,9,0.7,0.8
2025-12-31T1100,3124A,105.9439,26.2564,安顺市,金钟山,,36,30,31,25,30,60,60,57,57,11,10,13,11,0.8,0.8
2025-12-31T1100,3125A,105.8983,26.2481,安顺市,娄家坡,,39,29,35,27,30,60,60,60,60,10,10,11,11,0.8,0.9
2025-12-31T1100,1818A,114.4839,36.0621,安阳市,棉研所,,,,,,,,,,,,,,,,
2025-12-31T1100,1819A,114.3551,36.1017,安阳市,红庙街,,40,40,77,19,58,37,37,28,28,24,35,5,6,0.6,0.7
2025-12-31T1100,1820A,114.361,36.0681,安阳市,银杏小区,,48,48,76,16,58,40,40,32,32,26,32,6,7,0.4,0.6
2025-12-31T1100,3141A,114.3922,36.0878,安阳市,信访局,,,,77,,61,,,32,31,,35,2,7,0.6,0.8
2025-12-31T1100,3669A,114.4705,36.0637,安阳市,左辅环卫站,颗粒物(PM10),54,58,93,15,42,41,41,34,34,22,28,4,7,0.6,0.8
2025-12-31T1100,3703A,114.2917,36.0949,安阳市,安钢职工学校,,45,45,86,16,62,35,35,28,28,27,36,6,8,0.4,0.8
2025-12-31T1100,1748A,123.044,41.1196,鞍山市,深沟寺,,,24,25,10,13,38,38,40,40,,18,8,10,0.6,0.7
2025-12-31T1100,1749A,123.011,41.0931,鞍山市,太阳城,,25,25,26,14,14,50,50,38,38,6,19,11,19,0.5,1.1
2025-12-31T1100,1750A,123.0485,41.1442,鞍山市,太平,,26,26,30,12,12,44,44,35,35,8,20,11,14,0.5,0.7
2025-12-31T1100,1751A,122.9642,41.0971,鞍山市,铁西三道街,,30,30,38,13,15,46,46,36,36,10,18,19,14,0.9,0.7
2025-12-31T1100,1753A,123.022,41.0821,鞍山市,明达新区,,24,24,24,8,11,47,47,38,38,10,16,12,17,0.5,0.9
2025-12-31T1100,1754A,123.1289,41.0228,鞍山市,千山,,,,14,,9,,,40,,,13,,4,,0.5
2025-12-31T1100,4201A,122.9446,41.0826,鞍山市,兴盛南路290号,,27,27,49,10,27,43,43,25,22,19,35,10,10,0.9,1.2
2025-12-31T1100,2195A,107.4212,40.761,巴彦淖尔市,附二中,,44,44,40,26,18,47,47,48,47,9,11,5,7,0.3,0.2
2025-12-31T1100,2196A,107.37,40.7372,巴彦淖尔市,市环保大楼,,32,32,32,11,14,53,53,56,53,12,12,17,7,0.4,0.3
2025-12-31T1100,1956A,86.1472,41.7538,巴音郭楞蒙古自治州,孔雀公园,细颗粒物(PM2.5),54,51,50,38,32,46,46,48,48,17,16,6,7,0.5,0.5
2025-12-31T1100,1957A,86.1972,41.7166,巴音郭楞蒙古自治州,棉纺厂,颗粒物(PM10),63,76,69,31,27,23,23,36,35,40,29,5,4,0.7,0.6
2025-12-31T1100,1958A,86.2357,41.7173,巴音郭楞蒙古自治州,经济开发区,颗粒物(PM10),52,54,52,21,24,30,30,40,39,18,16,5,5,0.6,0.5
2025-12-31T1100,2914A,106.7677,31.8794,巴中市,苏山坪,,,,,,,,,,,,,,,,
2025-12-31T1100,3181A,106.7768,31.8526,巴中市,市五中,细颗粒物(PM2.5),62,52,131,44,100,17,17,5,5,21,23,6,6,1.0,1.5
2025-12-31T1100,3183A,106.7418,31.8654,巴中市,圣泉水务公司,细颗粒物(PM2.5),57,45,99,40,82,22,22,4,4,17,26,5,5,0.7,1
2025-12-31T1100,3616A,106.7616,31.8344,巴中市,市中心医院,,49,40,120,34,102,33,33,7,7,15,27,6,7,0.8,1.3
2025-12-31T1100,2235A,122.7911,45.6077,白城市,洮北区环保局,细颗粒物(PM2.5),52,,34,36,28,40,40,33,33,8,13,2,4,0.2,0.3
2025-12-31T1100,2236A,122.8738,45.5725,白城市,市环保局,,,,22,18,22,,,27,26,7,15,,6,0.5,0.4
2025-12-31T1100,2231A,126.4219,41.9171,白山市,喜丰,,,,52,,26,44,44,17,17,11,25,14,12,,0.7
2025-12-31T1100,2232A,126.4077,41.9419,白山市,环保局,细颗粒物(PM2.5),65,59,32,47,24,33,33,21,18,16,12,13,11,0.7,0.6
2025-12-31T1100,2647A,104.1724,36.5446,白银市,第三小学,,47,47,63,31,43,44,44,46,45,18,29,8,30,0.7,0.8
2025-12-31T1100,2648A,104.1465,36.5482,白银市,动力公司,,49,44,64,34,44,51,51,52,52,13,26,5,29,0.5,0.7
2025-12-31T1100,2512A,106.6103,23.9011,百色市,市监测站,,,89,77,60,58,39,39,28,27,33,24,25,13,,0.9
2025-12-31T1100,2513A,106.6538,23.8859,百色市,市中心血站,细颗粒物(PM2.5),65,74,79,47,65,81,81,68,61,22,25,15,17,1.1,1.1
2025-12-31T1100,3406A,106.6085,23.8798,百色市,祈福高中,细颗粒物(PM2.5),97,98,90,72,64,28,28,12,12,35,35,12,10,1.0,0.9
2025-12-31T1100,2270A,117.396,32.939,蚌埠市,工人疗养院,细颗粒物(PM2.5),75,85,72,55,45,44,44,51,44,18,19,4,5,0.5,0.5
2025-12-31T1100,2271A,117.3605,32.9427,蚌埠市,百货大楼,细颗粒物(PM2.5),73,79,60,53,40,42,42,54,45,19,20,4,4,0.5,0.4
2025-12-31T1100,2273A,117.4185,32.8911,蚌埠市,蚌埠学院,,,,60,,44,44,44,38,37,,36,,7,0.5,0.4
2025-12-31T1100,2274A,117.3533,32.9673,蚌埠市,淮上区政府,细颗粒物(PM2.5),80,78,66,59,47,43,43,51,44,17,18,1,2,0.6,0.5
2025-12-31T1100,2275A,117.3145,32.8977,蚌埠市,高新区,,,73,55,56,41,44,44,55,51,20,18,6,7,,0.3
2025-12-31T1100,3715A,117.3092,32.9314,蚌埠市,蚌埠田家炳中学,细颗粒物(PM2.5),82,82,65,60,46,44,44,56,47,19,20,4,4,0.5,0.4
2025-12-31T1100,1585A,109.8756,40.6532,包头市,市环境监测站,,41,41,21,17,6,34,34,48,34,37,20,12,6,0.9,0.5
2025-12-31T1100,1587A,109.9991,40.5842,包头市,包头八中,,35,35,40,22,20,30,30,10,10,34,36,8,8,1.0,1
2025-12-31T1100,1588A,109.8538,40.6821,包头市,青山宾馆,,46,46,16,20,6,32,32,50,35,35,14,9,8,0.8,0.5
2025-12-31T1100,1589A,109.8642,40.6288,包头市,惠龙物流,,32,32,15,18,7,36,36,45,30,31,20,9,9,0.8,0.6
2025-12-31T1100,1590A,110.0377,40.5546,包头市,东河鸿龙湾,,20,20,34,3,16,52,52,23,23,10,39,10,10,0.3,0.6
2025-12-31T1100,3283A,109.9154,40.5685,包头市,滨河大厦,,26,26,20,15,11,42,42,20,15,16,21,4,5,0.6,0.6
2025-12-31T1100,3419A,109.9447,40.6261,包头市,包头市委党校,,,58,37,18,14,19,19,6,5,,34,11,11,1.2,0.8
2025-12-31T1100,3683A,109.8331,40.6576,包头市,昆区政府,,,,14,,5,40,40,58,51,46,16,32,8,,0.4
2025-12-31T1100,1930A,107.185,34.3063,宝鸡市,庙沟村,,,,,,,,,,,,,,,,
2025-12-31T1100,1931A,107.0708,34.3017,宝鸡市,竹园沟,细颗粒物(PM2.5),119,,111,90,108,14,14,22,17,39,32,6,6,1.3,1
2025-12-31T1100,1932A,107.1906,34.3672,宝鸡市,三陆医院,细颗粒物(PM2.5),129,,134,98,123,,,25,7,54,54,4,6,1.4,1.2
2025-12-31T1100,1933A,107.1431,34.3547,宝鸡市,监测站,细颗粒物(PM2.5),132,,124,100,120,16,16,47,32,49,40,4,5,1.2,1
2025-12-31T1100,1934A,107.1186,34.3739,宝鸡市,技工学校,细颗粒物(PM2.5),118,,125,89,115,5,5,44,26,47,31,2,5,1.6,1
2025-12-31T1100,1936A,107.2058,34.3497,宝鸡市,文理学院,细颗粒物(PM2.5),129,,120,98,118,31,31,54,39,38,42,3,5,1.2,1
2025-12-31T1100,1937A,107.2386,34.3622,宝鸡市,三迪小学,细颗粒物(PM2.5),133,,126,101,125,36,36,51,34,35,47,3,4,1.3,1.2
2025-12-31T1100,4308A,107.3898,34.3601,宝鸡市,陈仓区北开路21号,细颗粒物(PM2.5),128,,128,97,114,17,17,48,36,47,44,5,11,1.3,1
2025-12-31T1100,1051A,115.493,38.8632,保定市,游泳馆,,20,20,36,3,7,51,51,48,48,7,15,3,2,0.3,0.3
2025-12-31T1100,1052A,115.5213,38.8959,保定市,华电二区,,16,15,34,10,21,49,49,39,39,10,20,3,3,0.4,0.4
2025-12-31T1100,1053A,115.4713,38.9108,保定市,接待中心,,23,23,35,6,8,45,45,41,41,11,17,3,2,0.2,0.3
2025-12-31T1100,1054A,115.4612,38.8416,保定市,地表水厂,,31,31,47,7,16,54,54,51,51,17,24,1,2,0.3,0.3
2025-12-31T1100,3581A,115.31981,38.95208,保定市,满城区生态环境分局,,,17,42,3,13,,,28,28,16,42,3,4,0.4,0.4
2025-12-31T1100,3582A,115.47694,38.76408,保定市,清苑区第二中学,,,139,50,,13,41,41,38,38,,27,3,2,0.3,0.3
2025-12-31T1100,3583A,115.62909,39.02311,保定市,徐水物探局,,22,22,34,10,14,49,49,35,35,15,32,3,3,0.4,0.4
2025-12-31T1100,4004A,115.4202,38.8656,保定市,双鹰农机,,19,19,31,8,14,55,55,52,52,11,18,4,5,0.2,0.2
2025-12-31T1100,4034A,115.5150,38.8590,保定市,植保所站,,26,26,38,3,19,46,46,41,41,15,26,3,3,0.2,0.2
2025-12-31T1100,2594A,99.1678,25.1081,保山市,市环境监测站,,37,37,21,25,17,52,52,56,46,18,8,3,3,0.4,0.2
2025-12-31T1100,2595A,99.1711,25.1328,保山市,市环保局,,38,38,26,15,20,48,48,65,53,21,5,4,4,0.5,0.4
2025-12-31T1100,1866A,109.2262,21.588,北海市,牛尾岭水库,细颗粒物(PM2.5),99,,56,74,56,77,77,79,78,21,20,16,10,0.7,0.6
2025-12-31T1100,1867A,109.1436,21.4086,北海市,海滩公园,细颗粒物(PM2.5),64,55,53,46,39,99,99,118,102,16,19,21,10,0.8,0.9
2025-12-31T1100,1868A,109.0981,21.4661,北海市,新市环保局,细颗粒物(PM2.5),77,66,53,56,47,90,90,103,94,22,19,12,7,0.8,0.7
2025-12-31T1100,1869A,109.1778,21.5233,北海市,北海工业园,,,96,76,54,62,75,75,62,56,,21,,13,0.7,0.7
2025-12-31T1100,3400A,109.1911,21.4415,北海市,龙潭自来水厂,细颗粒物(PM2.5),68,62,56,49,48,92,92,59,59,13,17,16,7,1.0,0.9
2025-12-31T1100,1001A,116.3621,39.8784,北京市,万寿西宫,,17,14,11,3,3,54,54,54,53,8,8,2,2,0.5,0.4
2025-12-31T1100,1002A,116.2202,40.2915,北京市,定陵,,,,,,,,,,,,,,,,
2025-12-31T1100,1003A,116.4174,39.9289,北京市,东四,,15,13,10,3,4,48,48,49,48,10,9,2,2,0.4,0.4
2025-12-31T1100,1004A,116.4072,39.8863,北京市,天坛,,16,11,11,3,4,51,51,54,51,9,9,3,3,0.3,0.2
2025-12-31T1100,1005A,116.462,39.9365,北京市,农展馆,,17,7,6,3,2,54,54,52,52,5,7,4,4,0.5,0.3
2025-12-31T1100,1006A,116.3392,39.9295,北京市,官园,,16,11,10,3,4,50,50,48,48,7,9,4,4,0.4,0.3
2025-12-31T1100,1007A,116.2878,39.9611,北京市,海淀万柳,,15,12,11,3,4,45,45,42,42,12,13,3,2,0.3,0.3
2025-12-31T1100,1008A,116.6636,40.135,北京市,顺义新城,,19,8,10,3,4,59,59,49,49,2,8,5,4,0.3,0.3
2025-12-31T1100,1009A,116.6275,40.3275,北京市,怀柔镇,,18,8,5,3,3,55,55,52,50,3,5,7,6,0.3,0.3
2025-12-31T1100,1010A,116.2296,40.217,北京市,昌平镇,,18,12,10,6,4,57,57,52,50,2,4,5,4,0.4,0.3
2025-12-31T1100,1011A,116.3966,39.9821,北京市,奥体中心,,16,10,9,3,3,49,49,51,49,12,13,4,4,0.5,0.4
2025-12-31T1100,3281A,115.9718,40.4529,北京市,延庆夏都,,18,17,12,12,7,52,52,40,34,8,10,4,2,0.4,0.4
2025-12-31T1100,3418A,116.8336,40.4095,北京市,密云新城,,19,6,5,3,2,58,58,56,56,2,2,4,3,0.3,0.3
2025-12-31T1100,3671A,116.088,39.9726,北京市,门头沟三家店,,16,13,11,6,4,49,49,49,49,8,6,3,3,0.4,0.3
2025-12-31T1100,3672A,116.1541,39.8204,北京市,丰台云岗,,16,14,12,3,3,49,49,42,42,10,11,2,2,0.4,0.3
2025-12-31T1100,3673A,116.6804,39.9081,北京市,通州东关,,18,11,13,3,4,55,55,47,47,3,11,3,3,0.1,0.1
2025-12-31T1100,3674A,115.9577,39.7603,北京市,房山燕山,,23,23,12,3,4,44,44,47,38,15,8,3,3,0.3,0.2
2025-12-31T1100,3675A,116.4672,39.7733,北京市,大兴旧宫,,15,10,10,3,3,45,45,44,44,8,14,2,2,0.3,0.3
2025-12-31T1100,3694A,115.986,40.4563,北京市,延庆石河营,,21,21,11,8,5,50,50,35,29,9,9,4,3,0.4,0.3
2025-12-31T1100,3695A,116.6151,40.3053,北京市,怀柔新城,,16,6,5,6,4,51,51,51,50,3,4,4,4,0.4,0.3
2025-12-31T1100,3696A,116.2545,39.8768,北京市,丰台小屯,,14,13,11,3,4,43,43,40,40,9,10,4,3,0.4,0.4
2025-12-31T1100,3697A,116.84,40.3844,北京市,密云镇,,19,7,9,3,2,60,60,56,56,1,4,2,2,0.4,0.3
2025-12-31T1100,4182A,116.1942,39.9158,北京市,八角北路9号,,17,17,12,3,4,45,45,38,37,7,7,2,2,0.0,0
2025-12-31T1100,4194A,117.0790,40.1518,北京市,洳河巡河路,,,,5,,3,,,56,,,3,,1,,0.3
2025-12-31T1100,1761A,123.8275,41.3064,本溪市,大峪,,20,20,30,8,18,42,42,21,21,12,27,11,9,0.7,0.8
2025-12-31T1100,1762A,123.7567,41.3325,本溪市,溪湖,,38,38,55,11,21,43,43,29,29,11,29,10,9,0.6,0.9
2025-12-31T1100,1763A,123.7169,41.3094,本溪市,彩屯,,18,18,35,7,22,45,45,39,39,12,24,9,8,0.6,0.7
2025-12-31T1100,1764A,123.7669,41.2864,本溪市,东明,,24,24,32,6,20,42,42,33,33,8,24,10,11,0.9,1.1
2025-12-31T1100,1765A,123.7992,41.2664,本溪市,新立屯,,22,22,28,7,15,40,40,26,26,8,25,12,11,0.7,0.9
2025-12-31T1100,1766A,123.8142,41.3472,本溪市,威宁,,48,48,54,8,27,39,39,11,11,2,27,7,7,0.5,0.9
2025-12-31T1100,2587A,105.2864,27.3125,毕节市,八中,,17,17,26,11,17,30,30,28,28,9,11,8,9,0.8,0.9
2025-12-31T1100,2588A,105.31,27.2944,毕节市,师专,,15,15,21,9,14,32,32,32,32,12,13,8,9,0.8,0.8
2025-12-31T1100,4263A,105.3688,27.3598,毕节市,工业大道,,,14,17,13,14,40,40,31,31,,11,9,9,0.9,0.8
2025-12-31T1100,1629A,118.0018,37.3617,滨州市,第二水厂,,17,17,42,6,22,46,46,34,34,10,28,10,11,0.5,0.5
2025-12-31T1100,1630A,117.9776,37.393,滨州市,北中新校,,,22,43,3,23,45,45,22,22,,34,6,8,0.3,0.4
2025-12-31T1100,3514A,117.9378,37.3956,滨州市,中海酒店,,18,14,41,12,27,54,54,32,32,9,26,6,10,0.5,0.6
2025-12-31T1100,3515A,117.9378,37.3553,滨州市,开发区一中,,22,22,45,3,23,51,51,38,38,7,20,10,12,0.4,0.4
2025-12-31T1100,3516A,118.0917,37.694,滨州市,金海六路,,,15,35,3,15,64,64,46,46,5,26,,13,0.4,0.5
2025-12-31T1100,4028A,117.9956,37.3753,滨州市,滨州市西街道办事处,,20,19,36,14,27,52,52,37,37,9,24,9,10,0.3,0.4
2025-12-31T1100,2311A,115.8072,33.8399,亳州市,污水处理厂,细颗粒物(PM2.5),74,77,114,54,89,45,45,37,32,20,29,6,7,0.4,0.7
2025-12-31T1100,2312A,115.7789,33.8518,亳州市,三国揽胜宫,颗粒物(PM10),75,100,139,52,86,41,41,36,29,17,29,3,4,0.6,0.9
2025-12-31T1100,3332A,115.7633,33.8034,亳州市,亳州学院,细颗粒物(PM2.5),88,90,115,65,93,43,43,40,33,18,26,5,6,0.6,0.8
2025-12-31T1100,2693A,82.0485,44.8556,博尔塔拉蒙古自治州,市党校,颗粒物(PM10),78,106,98,48,53,42,42,41,39,18,21,2,4,0.7,0.9
2025-12-31T1100,2694A,82.0806,44.8969,博尔塔拉蒙古自治州,市环保局,颗粒物(PM10),69,88,93,47,49,26,26,44,39,27,21,5,7,0.9,1
2025-12-31T1100,1071A,116.8842,38.2991,沧州市,沧县城建局,,27,27,46,7,24,55,55,31,31,10,35,2,4,0.2,0.6
2025-12-31T1100,1072A,116.8584,38.3254,沧州市,电视转播站,,,,50,,22,48,48,15,15,16,43,,3,,0.7
2025-12-31T1100,1073A,116.8709,38.3228,沧州市,市环保局,,35,35,47,16,29,43,43,22,22,9,32,3,4,0.2,0.4
2025-12-31T1100,3324A,116.8136,38.3004,沧州市,河北水利电力学院,,15,14,31,3,16,48,48,29,29,13,32,2,5,0.2,0.4
2025-12-31T1100,2622A,97.1806,31.1273,昌都市,昌都监测站,颗粒物(PM10),57,63,60,28,25,54,54,50,50,19,29,2,4,0.7,0.9
2025-12-31T1100,3719A,97.1714,31.1406,昌都市,昌都会议中心,,30,30,21,17,14,45,45,55,53,20,12,5,5,0.5,0.5
2025-12-31T1100,2690A,88.1236,43.8886,昌吉回族自治州,天山天池,,,,,,,,,,,,,,,,
2025-12-31T1100,2692A,87.2717,44.0297,昌吉回族自治州,新区政务中心,颗粒物(PM10),60,69,71,39,44,38,38,45,41,23,22,6,6,0.9,0.8
2025-12-31T1100,3613A,87.3095,44.0142,昌吉回族自治州,亚心广场,,,,75,,54,39,39,46,44,,11,,7,1.0,1
2025-12-31T1100,1120A,125.2863,43.9027,长春市,客车厂,,42,42,44,19,37,35,35,21,21,14,26,8,8,0.4,0.6
2025-12-31T1100,1121A,125.2841,43.8463,长春市,邮电学院,,30,30,45,20,32,34,34,17,17,8,24,9,10,0.4,0.5
2025-12-31T1100,1122A,125.3716,43.8772,长春市,劳动公园,,30,30,38,16,26,31,31,17,17,12,25,10,8,0.5,0.6
2025-12-31T1100,1123A,125.3297,43.8805,长春市,园林处,,44,44,41,23,30,31,31,19,19,8,22,11,12,0.5,0.6
2025-12-31T1100,1124A,125.4605,43.79,长春市,净月潭,,25,25,40,16,20,33,33,12,12,9,23,8,6,0.3,0.4
2025-12-31T1100,1125A,125.7194,43.515,长春市,甩湾子,,37,37,43,18,30,34,34,18,18,9,14,7,5,0.4,0.6
2025-12-31T1100,1126A,125.3863,43.8447,长春市,经开区环卫处,,,32,45,17,23,32,32,13,13,14,29,,11,,0.5
2025-12-31T1100,1127A,125.245,43.7783,长春市,高新区管委会,细颗粒物(PM2.5),53,49,46,37,34,39,39,16,16,8,27,7,7,0.5,0.6
2025-12-31T1100,1128A,125.1761,43.8325,长春市,岱山公园,,39,39,42,25,29,36,36,14,14,7,28,8,8,0.4,0.5
2025-12-31T1100,4281A,125.3346,43.9164,长春市,北亚泰大街1068号,,27,27,44,17,34,34,34,14,14,9,30,7,10,0.5,0.7
2025-12-31T1100,1335A,113.0833,28.2325,长沙市,经开区环保局,细颗粒物(PM2.5),206,180,174,156,148,26,26,20,20,28,38,6,6,0.8,0.8
2025-12-31T1100,1336A,112.8872,28.2189,长沙市,高开区环保局,细颗粒物(PM2.5),214,167,168,164,153,27,27,26,24,17,21,6,7,1.2,1.1
2025-12-31T1100,1337A,113.0792,28.2053,长沙市,马坡岭,细颗粒物(PM2.5),201,193,173,151,141,28,28,22,22,32,43,7,6,0.7,0.8
2025-12-31T1100,1338A,112.9394,28.19,长沙市,湖南师范大学,细颗粒物(PM2.5),190,189,183,143,135,33,33,33,32,26,31,3,5,1.0,1
2025-12-31T1100,1339A,113.0178,28.1322,长沙市,雨花区环保局,细颗粒物(PM2.5),206,185,162,156,146,24,24,22,22,30,36,8,10,1.1,1
2025-12-31T1100,1340A,112.9792,28.2597,长沙市,伍家岭,细颗粒物(PM2.5),196,190,185,147,135,36,36,28,28,31,38,6,7,0.6,0.6
2025-12-31T1100,1341A,113.0014,28.1944,长沙市,火车新站,细颗粒物(PM2.5),188,195,183,141,137,29,29,30,30,24,27,10,10,1.0,0.9
2025-12-31T1100,1342A,112.9844,28.1178,长沙市,天心区环保局,细颗粒物(PM2.5),209,190,173,159,141,32,32,31,31,28,34,8,9,0.8,0.8
2025-12-31T1100,1343A,112.8908,28.1308,长沙市,湖南中医药大学,细颗粒物(PM2.5),201,189,179,151,148,38,38,36,34,24,30,6,8,1.1,1
2025-12-31T1100,1344A,112.9581,28.3611,长沙市,沙坪,,,,,,,,,,,,,,,,
2025-12-31T1100,1727A,113.1147,36.1547,长治市,清华站,,20,19,66,7,57,63,63,56,56,16,25,9,12,0.4,0.8
2025-12-31T1100,1730A,113.0886,36.2125,长治市,审计局,,27,27,62,7,53,58,58,52,52,13,22,10,12,0.7,1
2025-12-31T1100,1731A,113.0844,36.1856,长治市,长治八中,,,,81,,65,60,60,52,52,,20,9,13,0.5,0.9
2025-12-31T1100,2845A,113.1569,36.1911,长治市,德盛苑,,21,17,63,7,60,65,65,59,59,5,15,7,10,0.6,1
2025-12-31T1100,3568A,113.06,36.0464,长治市,向阳小学,,,48,99,,70,61,61,51,51,,31,,13,0.8,1.2
2025-12-31T1100,3569A,112.8792,36.3144,长治市,屯留一中,,28,28,77,10,56,53,53,45,45,24,34,8,11,0.4,0.8
2025-12-31T1100,4189A,113.1131,36.19948,长治市,英华南巷50号,,22,22,71,14,55,61,61,54,54,11,20,6,10,0.7,1.1
2025-12-31T1100,4190A,113.2367,36.3344,长治市,学府街1号,,19,17,61,7,53,59,59,47,47,14,23,15,16,0.8,1.1
2025-12-31T1100,1854A,111.6975,28.9703,常德市,市二中,细颗粒物(PM2.5),152,154,160,116,131,69,69,69,69,12,19,4,9,0.9,0.8
2025-12-31T1100,1857A,111.7158,29.1456,常德市,白鹤山,,,,,,,,,,,,,,,,
2025-12-31T1100,3138A,111.7153,29.0289,常德市,武陵区永安,细颗粒物(PM2.5),150,156,163,115,124,66,66,67,67,17,20,3,9,0.9,1
2025-12-31T1100,3139A,111.6892,28.9881,常德市,鼎城区玉霞,细颗粒物(PM2.5),166,144,155,126,127,68,68,68,68,16,21,7,12,0.8,0.9
2025-12-31T1100,3140A,111.6625,29.0531,常德市,武陵区长庚,细颗粒物(PM2.5),163,160,163,124,126,58,58,64,64,16,21,4,9,0.8,0.8
2025-12-31T1100,1196A,119.9633,31.762,常州市,市监测站,,26,22,37,18,26,59,59,48,48,26,31,7,6,0.5,0.5
2025-12-31T1100,1200A,119.9468,31.7069,常州市,武进监测站,,23,20,38,16,26,60,60,47,47,23,29,10,10,0.2,0.3
2025-12-31T1100,1201A,119.9255,31.9087,常州市,安家,,,25,48,11,28,62,62,44,44,,32,,12,0.9,1.1
2025-12-31T1100,3002A,119.9805,31.8174,常州市,行政中心,,28,28,50,13,25,68,68,46,46,16,30,6,7,0.3,0.5
2025-12-31T1100,3003A,120.0522,31.7748,常州市,经开区,,21,20,37,9,23,65,65,38,38,16,35,4,3,0.4,0.4
2025-12-31T1100,3010A,119.9025,31.7964,常州市,钟楼,,23,23,43,8,25,65,65,50,50,17,27,7,8,0.1,0.3
2025-12-31T1100,3429A,119.8598,31.7066,常州市,武进经发区,,23,23,40,11,25,60,60,,,20,26,8,8,0.4,0.6
2025-12-31T1100,3430A,119.5826,31.7245,常州市,金坛城区,,21,21,49,11,34,59,59,37,37,15,30,8,8,0.5,0.7
2025-12-31T1100,2220A,120.4318,41.5881,朝阳市,西梁,,,31,26,3,7,47,47,45,43,,11,6,5,0.3,0.4
2025-12-31T1100,2221A,120.4521,41.5646,朝阳市,河畔小区,,31,31,24,6,6,46,46,48,45,8,11,6,7,0.4,0.4
2025-12-31T1100,2222A,120.4176,41.5648,朝阳市,八里堡,,24,24,25,3,7,46,46,47,44,7,11,6,7,0.4,0.4
2025-12-31T1100,2223A,120.3806,41.5969,朝阳市,农业园区,,16,11,18,3,8,51,51,51,50,4,9,6,7,0.3,0.3
2025-12-31T1100,1705A,116.6367,23.6719,潮州市,西园路,,,,,,,,,,,,,,,,
2025-12-31T1100,3026A,116.6183,23.6608,潮州市,市政府,颗粒物(PM10),99,148,59,42,30,71,71,32,32,30,21,18,12,0.7,0.5
2025-12-31T1100,4036A,116.6461,23.6761,潮州市,金山,颗粒物(PM10),57,63,42,30,30,69,69,30,30,18,16,9,5,0.4,0.4
2025-12-31T1100,2472A,113.0073,25.9061,郴州市,马头岭,,,,,,,,,,,,,,,,
2025-12-31T1100,2473A,113.0116,25.8226,郴州市,市职中,细颗粒物(PM2.5),149,,92,114,82,51,51,17,17,23,27,10,8,0.9,0.9
2025-12-31T1100,2475A,113.0383,25.8071,郴州市,市审计局,细颗粒物(PM2.5),160,135,98,122,81,53,53,27,27,21,24,11,6,0.8,0.7
2025-12-31T1100,2476A,113.0348,25.7759,郴州市,市环保局,细颗粒物(PM2.5),149,138,105,114,80,54,54,23,23,24,34,19,7,0.9,0.9
2025-12-31T1100,4252A,113.0138,25.8011,郴州市,好美居路49号,细颗粒物(PM2.5),148,122,93,113,90,62,62,32,32,28,35,10,9,0.7,0.6
2025-12-31T1100,1431A,103.9728,30.7236,成都市,金泉两河,细颗粒物(PM2.5),120,95,96,91,90,15,15,10,7,36,34,3,2,0.9,0.9
2025-12-31T1100,1432A,104.176,30.6872,成都市,十里店,细颗粒物(PM2.5),132,129,123,100,96,18,18,18,18,34,35,4,3,0.8,0.6
2025-12-31T1100,1433A,104.079,30.5706,成都市,三瓦窑,细颗粒物(PM2.5),150,136,122,115,105,15,15,13,10,35,36,3,3,1.0,1
2025-12-31T1100,1434A,104.1114,30.63,成都市,沙河铺,细颗粒物(PM2.5),155,157,133,118,117,6,6,8,6,44,40,4,4,1.2,1
2025-12-31T1100,1437A,104.0786,30.6531,成都市,君平街,细颗粒物(PM2.5),153,135,136,117,111,19,19,18,17,32,36,3,4,1.0,1
2025-12-31T1100,1438A,103.613,31.0283,成都市,灵岩寺,,,,,,,,,,,,,,,,
2025-12-31T1100,2880A,104.0239,30.65639,成都市,大石西路,细颗粒物(PM2.5),129,108,117,98,96,15,15,13,12,31,37,4,4,0.9,0.8
2025-12-31T1100,3136A,104.2725,30.5589,成都市,龙泉驿区区政府,细颗粒物(PM2.5),134,124,109,102,87,6,6,3,2,28,30,5,6,0.8,0.7
2025-12-31T1100,3357A,104.0106,30.6931,成都市,金博路,,,123,100,,78,12,12,7,6,34,38,6,5,1.0,0.9
2025-12-31T1100,3359A,104.0578,30.5225,成都市,华阳,细颗粒物(PM2.5),119,122,104,90,78,10,10,26,19,40,32,3,3,0.8,0.7
2025-12-31T1100,3488A,104.3880,30.7467,成都市,青石路225号,细颗粒物(PM2.5),159,138,130,121,117,3,3,1,1,34,33,6,5,0.9,0.8
2025-12-31T1100,3489A,104.0789,30.4072,成都市,科学城,细颗粒物(PM2.5),105,92,102,79,83,20,20,27,26,23,23,6,6,0.8,0.8
2025-12-31T1100,4011A,103.8506,30.6947,成都市,光华大道三段,细颗粒物(PM2.5),98,88,102,73,86,23,23,26,20,31,27,3,3,0.9,0.8
2025-12-31T1100,4224A,104.2433,30.5353,成都市,鲸龙路1057号,细颗粒物(PM2.5),129,108,112,98,94,12,12,12,11,32,30,5,5,1.0,0.9
2025-12-31T1100,1062A,117.9531,40.9081,承德市,铁路,,,,23,,6,46,46,52,47,,5,,3,0.2,0.2
2025-12-31T1100,1063A,117.9392,40.9763,承德市,中国银行,,16,8,21,3,6,50,50,43,34,3,6,2,1,0.2,0.3
2025-12-31T1100,1064A,117.9503,40.928,承德市,开发区,,24,24,28,13,15,52,52,57,53,8,6,3,3,0.2,0.2
2025-12-31T1100,1066A,117.9268,41.0026,承德市,离宫,,,,,,,,,,,,,,,,
2025-12-31T1100,4274A,117.7994,40.9605,承德市,滨河大街98号,,17,,15,3,7,52,52,46,46,3,5,3,2,0.2,0.2
2025-12-31T1100,2314A,117.47,30.6618,池州市,池州学院,,,18,110,9,94,,,54,50,14,26,5,5,0.3,0.7
2025-12-31T1100,3237A,117.4918,30.6617,池州市,展览馆,,20,15,116,8,88,64,64,56,54,17,27,4,4,0.4,0.8
2025-12-31T1100,3333A,117.5627,30.695,池州市,第八中学,,20,17,107,9,83,64,64,56,55,18,26,4,4,0.3,0.9
2025-12-31T1100,3334A,117.5038,30.6243,池州市,第十二中学,,20,18,107,9,86,62,62,57,54,18,27,4,5,0.3,1.1
2025-12-31T1100,1744A,118.9233,42.2816,赤峰市,松山一中,,21,21,20,8,6,47,47,43,38,10,11,7,5,0.5,0.5
2025-12-31T1100,1745A,118.9576,42.2728,赤峰市,哈达街,,29,24,18,20,9,47,47,52,46,16,11,6,5,0.6,0.4
2025-12-31T1100,1746A,118.8788,42.2554,赤峰市,天义路,,17,16,14,3,9,52,52,46,44,6,8,5,9,0.5,0.5
2025-12-31T1100,3058A,119.2658,42.0353,赤峰市,银河街,,,46,21,46,12,,,54,45,13,5,15,10,1.0,0.6
2025-12-31T1100,3286A,118.9359,42.3147,赤峰市,桥北物流园区,,31,31,13,17,9,44,44,46,41,12,9,6,5,0.3,0.2
2025-12-31T1100,2521A,107.3476,22.4136,崇左市,市环保局江州分局,细颗粒物(PM2.5),88,87,88,65,58,53,53,21,21,22,27,13,10,1.0,0.9
2025-12-31T1100,4256A,107.3750,22.3736,崇左市,石景林东路7号,细颗粒物(PM2.5),83,72,67,61,54,54,54,28,28,20,26,13,8,0.7,0.7
2025-12-31T1100,2298A,118.3093,32.3153,滁州市,老年大学,,23,23,52,14,33,67,67,56,56,14,18,5,5,0.4,0.5
2025-12-31T1100,2299A,118.3244,32.2786,滁州市,人大宾馆,,35,35,52,8,32,73,73,54,54,9,19,6,6,0.3,0.5
2025-12-31T1100,3207A,118.3118,32.3038,滁州市,市政府原办公楼,,36,36,51,13,30,71,71,58,58,14,18,5,5,0.2,0.2
2025-12-31T1100,3331A,118.3267,32.2634,滁州市,图书馆,,23,18,49,6,26,73,73,57,57,9,17,8,8,0.2,0.3
2025-12-31T1100,2605A,101.5482,25.0441,楚雄彝族自治州,州环境监测站,,,,21,,12,,,42,39,20,16,,9,0.6,0.6
2025-12-31T1100,2606A,101.538,25.0492,楚雄彝族自治州,市经济开发区,,27,27,23,18,15,52,52,39,34,22,15,17,6,0.4,0.4
2025-12-31T1100,2548A,107.5277,31.2827,达州市,达州职业技术学院,,,,,,,,,,,,,,,,
2025-12-31T1100,2549A,107.5086,31.2186,达州市,市环境监测站,细颗粒物(PM2.5),58,48,122,41,102,5,5,2,2,35,36,8,13,0.6,0.9
2025-12-31T1100,2550A,107.4988,31.2132,达州市,凤凰小区,细颗粒物(PM2.5),55,46,128,39,101,8,8,4,4,30,33,7,12,0.6,0.9
2025-12-31T1100,2551A,107.5082,31.1986,达州市,达县机关宾馆,细颗粒物(PM2.5),63,53,129,45,104,9,9,3,3,31,34,5,10,0.8,1.1
2025-12-31T1100,2552A,107.4644,31.2124,达州市,市政中心,细颗粒物(PM2.5),58,61,144,41,107,5,5,4,4,31,37,8,11,0.8,1.2
2025-12-31T1100,2614A,100.1542,25.7054,大理白族自治州,大理市环境监测站,,39,,16,27,19,57,57,67,64,15,8,6,6,0.7,0.6
2025-12-31T1100,2615A,100.2171,25.5811,大理白族自治州,大理古城,,21,21,18,3,11,66,66,66,59,11,7,8,8,0.5,0.4
2025-12-31T1100,1109A,121.612,38.9741,大连市,甘井子,,22,22,30,8,13,52,52,48,48,8,15,9,9,0.1,0.2
2025-12-31T1100,1110A,121.565,38.9511,大连市,周水子,,22,22,29,8,15,50,50,43,43,10,20,2,6,0.3,0.4
2025-12-31T1100,1111A,121.5637,38.8845,大连市,星海三站,,18,18,25,7,13,50,50,46,46,11,15,6,7,0.4,0.5
2025-12-31T1100,1112A,121.6302,38.9117,大连市,青泥洼桥,,20,20,23,8,12,43,43,41,40,13,19,9,10,0.3,0.3
2025-12-31T1100,1113A,121.6251,38.8638,大连市,傅家庄,,,17,23,7,10,,,40,39,10,15,8,10,0.2,0.3
2025-12-31T1100,1114A,121.5213,38.8661,大连市,七贤岭,,21,21,28,7,12,48,48,42,42,12,22,6,8,0.4,0.5
2025-12-31T1100,1115A,121.2529,38.8061,大连市,旅顺,,16,13,19,6,10,50,50,49,49,5,8,7,9,0.2,0.3
2025-12-31T1100,1116A,121.7485,39.1311,大连市,金州,,16,15,26,6,14,51,51,45,45,8,16,7,10,0.2,0.4
2025-12-31T1100,1117A,121.7811,39.0496,大连市,开发区,,16,16,22,9,10,45,45,45,44,7,9,7,7,0.4,0.4
2025-12-31T1100,1118A,121.9762,39.0631,大连市,双D港,,20,20,28,8,12,53,53,47,46,9,12,10,11,0.3,0.5
2025-12-31T1100,1789A,124.81117,46.03138,大庆市,大同区,,19,19,30,6,17,39,39,32,32,5,11,6,5,0.3,0.3
2025-12-31T1100,1790A,125.129,46.533,大庆市,龙凤区,,19,,23,13,21,34,34,29,28,15,22,6,7,0.6,0.6
2025-12-31T1100,1791A,124.902,46.408,大庆市,红岗区,,25,25,31,13,17,34,34,29,28,11,16,7,6,0.5,0.6
2025-12-31T1100,1792A,125.153,46.586,大庆市,萨尔图区,,,15,23,9,12,,,39,36,14,20,8,9,0.7,0.8
2025-12-31T1100,1793A,124.9042,46.6215,大庆市,让胡路区,,28,22,26,19,23,38,38,35,35,4,9,8,8,0.3,0.4
2025-12-31T1100,3481A,125.141,46.634,大庆市,萨区政府监测点,,21,21,24,7,13,36,36,26,26,8,18,10,8,0.5,0.6
2025-12-31T1100,1721A,113.3819,40.1097,大同市,果树场,,32,28,30,22,19,56,56,22,22,16,21,12,6,0.5,0.5
2025-12-31T1100,1723A,113.2994,40.0758,大同市,云冈宾馆,,33,33,25,13,9,43,43,42,36,17,15,8,6,0.8,0.6
2025-12-31T1100,1724A,113.3444,40.0917,大同市,大同大学,,31,31,17,16,11,49,49,52,47,18,12,12,9,0.9,0.4
2025-12-31T1100,1725A,113.2661,40.1269,大同市,安家小村,,,,17,,10,37,37,42,30,,15,14,9,,0.6
2025-12-31T1100,1726A,113.2711,40.0844,大同市,教育学院,颗粒物(PM10),64,78,27,24,14,25,25,35,21,37,20,10,6,1.5,0.6
2025-12-31T1100,3282A,113.3397,40.0597,大同市,大同市卫生学校,,33,33,14,11,7,42,42,54,45,24,13,8,5,1.1,0.5
2025-12-31T1100,3565A,113.1367,40.1122,大同市,云冈站,,43,43,23,17,11,49,49,19,19,13,17,16,9,0.7,0.6
2025-12-31T1100,3566A,113.1186,40.2556,大同市,图书馆,细颗粒物(PM2.5),53,53,27,37,17,43,43,23,23,13,13,17,6,1.5,0.9
2025-12-31T1100,3567A,113.5931,40.0461,大同市,区一中,,,70,24,10,14,,,56,52,18,11,12,9,0.5,0.5
2025-12-31T1100,4199A,113.2798,40.0997,大同市,魏都大道141号,颗粒物(PM10),64,77,26,16,12,36,36,40,26,32,18,9,5,1.4,0.8
2025-12-31T1100,2269A,124.1069,50.4097,大兴安岭地区,科技局,,16,15,18,11,16,40,40,36,36,2,2,7,4,0.3,0.2
2025-12-31T1100,3663A,124.1164,50.4278,大兴安岭地区,红旗社区,,,7,6,6,5,,,40,40,2,2,5,2,0.3,0.3
2025-12-31T1100,1600A,124.3303,40.0625,丹东市,江湾东路,,18,18,19,9,11,45,45,41,41,6,11,6,7,0.3,0.4
2025-12-31T1100,1601A,124.4256,40.1503,丹东市,临江后街,,19,19,22,7,10,43,43,35,35,7,13,6,8,0.6,0.6
2025-12-31T1100,1602A,124.3933,40.1461,丹东市,元宝山,,16,16,19,9,12,45,45,41,41,5,10,8,9,0.4,0.4
2025-12-31T1100,1603A,124.3633,40.1092,丹东市,民主桥,,25,25,27,3,7,46,46,40,40,5,13,6,7,0.3,0.3
2025-12-31T1100,3541A,109.5726,19.5167,儋州市,第一中学子站,,32,32,37,21,21,93,93,85,85,9,9,4,4,0.5,0.5
2025-12-31T1100,3542A,109.5567,19.5187,儋州市,东坡学校子站,,37,37,33,22,24,102,102,91,91,6,7,5,6,0.5,0.5
2025-12-31T1100,2616A,98.5842,24.428,德宏傣族景颇族自治州,德宏州监测站,细颗粒物(PM2.5),70,78,46,51,34,25,25,10,7,20,21,8,6,0.8,0.7
2025-12-31T1100,3677A,98.5881,24.4368,德宏傣族景颇族自治州,芒市人民政府综合楼,细颗粒物(PM2.5),62,49,42,44,28,20,20,17,11,31,24,9,8,0.9,0.7
2025-12-31T1100,1901A,104.4239,31.1208,德阳市,东山公园,细颗粒物(PM2.5),120,102,111,91,101,1,1,1,1,25,27,4,3,1.1,0.9
2025-12-31T1100,1902A,104.3826,31.1317,德阳市,西小区,细颗粒物(PM2.5),144,135,132,110,108,5,5,7,5,36,31,4,3,1.3,1.1
2025-12-31T1100,1904A,104.3553,31.1091,德阳市,耐火材料厂,细颗粒物(PM2.5),148,116,120,113,114,1,1,4,2,34,35,3,2,1.2,1.1
2025-12-31T1100,3639A,104.4019,31.1244,德阳市,市教育局,细颗粒物(PM2.5),139,,107,106,106,1,1,1,0,38,34,4,4,1.3,1.1
2025-12-31T1100,1622A,116.3032,37.4674,德州市,儿童乐园,,27,27,51,7,23,47,47,23,23,18,34,12,13,0.9,1
2025-12-31T1100,1624A,116.2991,37.4451,德州市,监理站,,22,22,41,3,18,58,58,34,34,19,37,12,14,0.7,0.8
2025-12-31T1100,3066A,116.2721,37.4379,德州市,九衢泉纯净水厂,,31,31,46,3,20,47,47,26,26,16,34,10,13,0.4,0.6
2025-12-31T1100,3371A,116.3728,37.4403,德州市,开发区人民医院,,39,39,49,9,24,48,48,23,23,24,41,11,13,0.6,0.8
2025-12-31T1100,3511A,116.5652,37.3319,德州市,陵城艺术中心,,41,41,56,9,29,39,39,17,17,32,46,13,14,0.6,0.8
2025-12-31T1100,4292A,116.3525,37.4209,德州市,新河东路,,,46,47,9,24,,,23,23,25,40,11,13,1.1,1.1
2025-12-31T1100,2621A,99.7056,27.8317,迪庆藏族自治州,迪庆州站,,,44,23,35,16,,,42,38,14,10,6,5,0.6,0.4
2025-12-31T1100,3180A,99.7136,27.8094,迪庆藏族自治州,质量技术监督局,颗粒物(PM10),64,77,25,31,17,52,52,49,42,23,12,6,4,0.8,0.5
2025-12-31T1100,4257A,104.6092,35.5962,定西市,将台街,颗粒物(PM10),65,79,60,41,41,49,49,48,48,21,18,9,11,0.9,0.6
2025-12-31T1100,4309A,104.6159,35.5701,定西市,正龙路62号,"颗粒物(PM10),细颗粒物(PM2.5)",63,75,71,45,44,46,46,44,44,15,12,5,9,0.8,0.8
2025-12-31T1100,1389A,113.7547,23.0494,东莞市,莞城梨川,颗粒物(PM10),59,68,58,38,35,66,66,25,25,35,44,8,7,0.7,0.8
2025-12-31T1100,1390A,113.7944,23.0128,东莞市,东城石井,细颗粒物(PM2.5),60,66,52,43,35,52,52,19,19,58,48,10,9,0.8,0.8
2025-12-31T1100,1391A,113.7383,22.9658,东莞市,南城西平,,,74,64,46,39,,,4,4,56,61,10,10,0.8,0.8
2025-12-31T1100,3319A,113.7338,23.0381,东莞市,万江金泰,细颗粒物(PM2.5),63,73,61,45,38,63,63,22,22,39,44,8,7,0.8,0.9
2025-12-31T1100,3626A,113.7533,23.0202,东莞市,南城元岭,细颗粒物(PM2.5),60,68,57,43,39,61,61,25,25,46,47,9,8,0.8,0.8
2025-12-31T1100,3627A,113.7875,23.0457,东莞市,东城主山,细颗粒物(PM2.5),58,64,62,41,38,66,66,26,26,43,53,10,8,0.5,0.6
2025-12-31T1100,1666A,118.6614,37.4309,东营市,市环保局,,22,22,33,3,17,51,51,48,44,16,24,9,9,0.7,0.6
2025-12-31T1100,3036A,118.6904,37.4338,东营市,开发区管委会,,32,32,36,7,21,54,54,52,48,10,18,11,11,0.7,0.7
2025-12-31T1100,3365A,118.5719,37.565,东营市,垦利区民丰路,,19,19,34,3,19,56,56,45,45,9,22,2,4,0.9,0.8
2025-12-31T1100,3498A,118.5055,37.8612,东营市,河口城区,,20,12,34,7,15,61,61,52,52,14,24,5,5,0.4,0.5
2025-12-31T1100,3646A,118.4978,37.4623,东营市,胜利站,,27,27,41,3,18,51,51,44,42,15,27,13,14,0.6,0.7
2025-12-31T1100,3734A,118.35,37.26,东营市,理想之城,,22,22,35,12,22,25,25,33,26,22,29,4,4,0.6,0.7
2025-12-31T1100,1591A,110.0023,39.8129,鄂尔多斯市,综合楼,颗粒物(PM10),52,53,38,12,12,40,40,45,45,30,34,8,6,0.7,0.5
2025-12-31T1100,1592A,109.9486,39.8261,鄂尔多斯市,巴音孟克林场办事处,颗粒物(PM10),54,58,41,7,14,46,46,59,59,26,26,11,8,0.6,0.3
2025-12-31T1100,1593A,109.7736,39.5986,鄂尔多斯市,康泽苑,,,,33,,17,,,51,51,18,26,6,8,0.3,0.4
2025-12-31T1100,1594A,109.8119,39.5989,鄂尔多斯市,华泰汽车城,,,,34,,13,,,46,46,15,30,5,5,0.3,0.4
2025-12-31T1100,1595A,109.9734,39.7884,鄂尔多斯市,奥林花园,颗粒物(PM10),70,90,50,3,9,38,38,49,48,37,31,6,4,0.6,0.4
2025-12-31T1100,2436A,114.8938,30.3994,鄂州市,市政府,细颗粒物(PM2.5),122,103,120,92,106,72,72,72,71,23,37,8,6,0.9,0.9
2025-12-31T1100,2437A,114.8989,30.3714,鄂州市,赵家坝,细颗粒物(PM2.5),124,122,128,94,106,67,67,74,73,20,26,11,9,1.1,1.1
2025-12-31T1100,3654A,114.8094,30.4089,鄂州市,精准医疗中心,细颗粒物(PM2.5),132,122,124,100,114,74,74,68,68,,34,,5,0.9,0.9
2025-12-31T1100,2454A,109.4978,30.2981,恩施土家族苗族自治州,湖北民院,,,,86,59,85,,,79,79,14,22,5,6,0.9,1.3
2025-12-31T1100,2455A,109.4707,30.2798,恩施土家族苗族自治州,州电力总公司,细颗粒物(PM2.5),73,58,94,53,84,80,80,78,78,18,32,6,6,0.6,1
2025-12-31T1100,3549A,109.5061,30.3772,恩施土家族苗族自治州,龙凤新区,细颗粒物(PM2.5),68,60,103,49,87,69,69,71,71,8,15,6,6,0.6,1
2025-12-31T1100,2499A,108.3411,21.6158,防城港市,沙万,细颗粒物(PM2.5),84,78,69,62,35,28,28,39,31,37,32,8,11,0.8,0.7
2025-12-31T1100,2500A,108.3514,21.7731,防城港市,防城档案局,,,,65,,42,,,10,9,40,31,,7,0.8,0.9
2025-12-31T1100,2501A,108.3506,21.6414,防城港市,大海花园,颗粒物(PM10),66,82,62,47,46,24,24,40,25,39,26,11,13,1.1,0.9
2025-12-31T1100,1371A,113.1294,23.0067,佛山市,湾梁,,,88,66,49,34,,,4,4,59,56,,9,0.7,0.8
2025-12-31T1100,1372A,113.1083,23.0478,佛山市,华材职中,细颗粒物(PM2.5),80,90,74,59,43,37,37,9,9,76,62,8,8,0.7,0.8
2025-12-31T1100,1373A,113.144,23.0453,佛山市,南海气象局,颗粒物(PM10),71,92,62,46,38,37,37,6,6,64,62,10,10,0.8,0.8
2025-12-31T1100,1374A,113.2881,22.8094,佛山市,顺德苏岗,细颗粒物(PM2.5),73,88,60,53,41,31,31,6,6,86,60,11,9,0.9,0.9
2025-12-31T1100,1376A,112.8383,22.8678,佛山市,高明孔堂,细颗粒物(PM2.5),97,112,61,72,42,23,23,12,9,79,41,17,9,0.9,0.7
2025-12-31T1100,1377A,112.8836,23.1588,佛山市,三水监测站,细颗粒物(PM2.5),79,90,80,58,48,35,35,12,12,55,52,14,12,0.9,0.9
2025-12-31T1100,1378A,112.867,23.185,佛山市,三水云东海,细颗粒物(PM2.5),72,83,69,52,44,33,33,8,8,62,44,15,7,0.6,0.6
2025-12-31T1100,3625A,113.2544,22.7642,佛山市,容桂街道办,细颗粒物(PM2.5),79,80,83,58,53,54,54,10,10,57,71,8,8,0.8,1
2025-12-31T1100,1280A,119.3903,26.0543,福州市,鼓山,,,,39,,20,,,100,,,10,,3,,0.7
2025-12-31T1100,1282A,119.2681,26.0504,福州市,师大,,,,44,,32,92,92,73,73,22,29,,8,0.5,0.5
2025-12-31T1100,1283A,119.2984,26.1028,福州市,五四北路,颗粒物(PM10),52,54,43,25,29,89,89,85,82,19,22,8,6,0.8,0.7
2025-12-31T1100,1284A,119.2648,26.0768,福州市,杨桥西路,,43,43,42,23,28,94,94,85,85,12,18,8,6,0.7,0.6
2025-12-31T1100,1285A,119.317,26.0746,福州市,紫阳,,48,48,52,18,29,88,88,96,90,17,20,9,9,0.6,0.6
2025-12-31T1100,3048A,119.5799,26.0936,福州市,九龙,,36,36,47,13,29,88,88,92,87,17,19,7,6,0.4,0.5
2025-12-31T1100,3526A,119.5189,25.9664,福州市,吴航,,29,29,50,17,29,89,89,86,86,17,18,6,6,0.5,0.5
2025-12-31T1100,1755A,123.7977,41.8491,抚顺市,望花区,,26,26,36,6,17,46,46,29,29,6,24,2,5,0.7,0.7
2025-12-31T1100,1756A,123.9161,41.8822,抚顺市,顺城区,,,40,45,6,23,44,44,28,28,6,27,,8,,0.8
2025-12-31T1100,1757A,124.0436,41.8611,抚顺市,东洲区,,21,21,49,10,24,38,38,22,22,8,29,7,27,0.7,1
2025-12-31T1100,1758A,123.9247,41.8642,抚顺市,新抚区,,23,23,41,7,18,44,44,34,34,7,22,7,8,0.5,0.6
2025-12-31T1100,1759A,124.0972,41.8961,抚顺市,大伙房水库,,20,20,44,9,26,44,44,19,19,4,28,10,11,0.5,0.7
2025-12-31T1100,1760A,123.7086,41.8391,抚顺市,沈抚新城,,18,18,35,3,21,45,45,31,31,4,25,6,10,0.1,0.4
2025-12-31T1100,2376A,116.2127,28.0814,抚州市,桐源党溪,,,,,,,,,,,,,,,,
2025-12-31T1100,2377A,116.3544,27.9831,抚州市,市站,细颗粒物(PM2.5),93,93,96,69,73,91,91,60,59,19,20,10,9,0.8,1
2025-12-31T1100,2378A,116.3565,27.963,抚州市,血防站,细颗粒物(PM2.5),99,95,93,74,74,91,91,67,64,19,20,9,9,1.3,1.4
2025-12-31T1100,2379A,116.3564,28.0007,抚州市,采茶剧团,细颗粒物(PM2.5),100,90,99,75,79,97,97,60,60,12,15,7,8,1.3,1.4
2025-12-31T1100,2380A,116.385,27.9647,抚州市,医学分院,细颗粒物(PM2.5),95,112,106,71,75,95,95,67,65,15,18,10,11,0.8,1
2025-12-31T1100,2207A,121.6094,41.998,阜新市,工业园区,,22,22,29,11,9,51,51,47,46,5,8,7,8,0.3,0.3
2025-12-31T1100,2208A,121.6697,42.0279,阜新市,长青街,,26,26,23,3,8,49,49,45,43,5,8,6,7,0.4,0.4
2025-12-31T1100,2209A,121.6673,42.0705,阜新市,农业园区,,,24,26,3,5,48,48,45,45,5,6,6,6,,0.4
2025-12-31T1100,2210A,121.6717,42.0224,阜新市,东苑,,33,33,34,8,8,47,47,44,42,5,7,2,4,0.4,0.4
2025-12-31T1100,2211A,121.6506,42.0498,阜新市,玉龙新城,,30,30,31,3,6,47,47,37,37,5,11,5,7,0.5,0.4
2025-12-31T1100,2301A,115.8277,32.8929,阜阳市,市监测站,细颗粒物(PM2.5),72,85,94,52,65,42,42,53,48,23,20,5,5,0.7,0.5
2025-12-31T1100,2303A,115.8554,32.8605,阜阳市,开发区,颗粒物(PM10),59,68,82,38,66,41,41,48,44,21,19,5,5,0.5,0.4
2025-12-31T1100,2875A,115.784,32.8892,阜阳市,阜阳职业技术学院,,,,84,,59,,,57,53,17,16,7,7,0.6,0.6
2025-12-31T1100,3468A,115.7901,32.8613,阜阳市,市规划展馆,细颗粒物(PM2.5),65,67,89,47,63,47,47,58,52,22,19,7,6,0.7,0.5
2025-12-31T1100,3469A,115.836,32.9183,阜阳市,枣园社区,细颗粒物(PM2.5),73,71,95,53,69,46,46,49,46,22,23,7,6,0.7,0.6
2025-12-31T1100,2669A,102.9099,34.9841,甘南藏族自治州,州政府,细颗粒物(PM2.5),87,108,59,64,39,37,37,36,36,44,27,17,12,1.4,0.8
2025-12-31T1100,3380A,102.8914,34.9617,甘南藏族自治州,甘肃民族师范学院,细颗粒物(PM2.5),73,82,67,53,34,44,44,38,38,44,33,26,8,1.1,1
2025-12-31T1100,2570A,101.9603,30.0475,甘孜藏族自治州,水桥子,,41,41,20,10,11,26,26,26,21,36,22,8,6,0.9,0.7
2025-12-31T1100,3065A,101.9533,29.9972,甘孜藏族自治州,州环保局,,17,11,21,6,8,53,53,49,49,17,18,6,6,0.4,0.5
2025-12-31T1100,3414A,115.8347,28.932,赣江新区,桑海产业园,颗粒物(PM10),115,180,156,53,112,52,52,73,60,22,27,9,10,0.8,1.1
2025-12-31T1100,2362A,114.9017,25.9149,赣州市,通天岩,,49,49,44,33,29,86,86,57,57,16,8,20,17,1.3,1.2
2025-12-31T1100,2363A,114.9367,25.8664,赣州市,地委,颗粒物(PM10),66,81,60,46,38,78,78,33,33,20,27,10,8,0.8,0.8
2025-12-31T1100,2364A,114.9461,25.8481,赣州市,气象台,颗粒物(PM10),63,76,66,41,36,77,77,32,32,35,39,4,4,0.9,0.8
2025-12-31T1100,2365A,114.9322,25.8333,赣州市,市图书馆,,,92,60,53,39,39,39,19,19,35,33,,5,0.9,1
2025-12-31T1100,2366A,114.8905,25.8471,赣州市,华坚鞋城,"颗粒物(PM10),细颗粒物(PM2.5)",65,80,61,47,37,72,72,38,38,31,29,10,8,0.6,0.6
2025-12-31T1100,3109A,115.0093,25.8613,赣州市,赣县区卫计委,细颗粒物(PM2.5),74,84,56,54,47,49,49,22,22,39,33,7,7,0.6,0.5
2025-12-31T1100,2683A,106.2319,36.1417,固原市,马园,,,,,,,,,,,,,,,,
2025-12-31T1100,2684A,106.2792,36.0022,固原市,监测站,,,,69,,39,,,40,39,18,23,3,6,0.7,0.7
2025-12-31T1100,2685A,106.2375,36.0211,固原市,新区,颗粒物(PM10),56,61,69,34,38,37,37,42,39,18,26,3,5,0.7,0.6
2025-12-31T1100,3522A,106.2177,35.9959,固原市,原州区十五小,颗粒物(PM10),55,60,75,35,40,34,34,40,38,16,23,4,7,0.7,0.7
2025-12-31T1100,2543A,106.6308,30.5278,广安市,小平旧居,,,,,,,,,,,,,,,,
2025-12-31T1100,2544A,106.6303,30.4576,广安市,市委,细颗粒物(PM2.5),98,79,96,73,92,7,7,13,10,24,22,7,6,1.0,1
2025-12-31T1100,2545A,106.6271,30.4663,广安市,友谊中学,细颗粒物(PM2.5),92,73,93,68,84,15,15,23,20,20,19,3,3,1.0,0.9
2025-12-31T1100,2547A,106.6388,30.4551,广安市,广电花园,细颗粒物(PM2.5),104,,79,78,91,8,8,11,8,20,22,8,8,0.8,0.8
2025-12-31T1100,2902A,106.6351,30.4865,广安市,北辰小学,,,75,89,71,84,,,16,15,21,15,15,14,1.1,1
2025-12-31T1100,2523A,105.8945,32.4535,广元市,黑石坡,,,,,,,,,,,,,,,,
2025-12-31T1100,2524A,105.821,32.4444,广元市,老城,,35,27,69,24,54,68,68,63,63,22,36,7,11,0.7,1.1
2025-12-31T1100,2526A,105.8628,32.4287,广元市,监测站,,29,27,64,20,46,61,61,55,55,22,33,5,7,1.0,1.2
2025-12-31T1100,3617A,105.8047,32.4166,广元市,经开区,,33,28,89,23,58,58,58,53,53,26,36,2,20,0.8,1.4
2025-12-31T1100,1345A,113.2347,23.1423,广州市,广雅中学,颗粒物(PM10),60,70,69,42,39,55,55,13,13,38,59,5,5,0.9,0.9
2025-12-31T1100,1346A,113.2612,23.105,广州市,市五中,颗粒物(PM10),56,62,49,38,32,62,62,17,17,54,62,10,9,0.7,0.7
2025-12-31T1100,1348A,113.3478,23.0916,广州市,广东商学院,细颗粒物(PM2.5),62,59,51,44,35,56,56,12,12,46,53,10,8,0.8,0.7
2025-12-31T1100,1349A,113.4332,23.1047,广州市,市八十六中,,45,45,53,29,32,56,56,13,13,42,57,10,9,0.9,0.9
2025-12-31T1100,1350A,113.3505,22.9483,广州市,番禺中学,颗粒物(PM10),67,84,66,47,42,45,45,10,10,56,57,11,7,1.0,1.1
2025-12-31T1100,1351A,113.2146,23.3916,广州市,花都师范,颗粒物(PM10),60,70,52,40,31,43,43,10,10,67,50,14,11,0.7,0.7
2025-12-31T1100,1352A,113.2597,23.1331,广州市,市监测站,颗粒物(PM10),56,62,53,36,32,60,60,16,16,46,57,5,5,0.7,0.7
2025-12-31T1100,1353A,113.5618,23.312,广州市,九龙镇镇龙,颗粒物(PM10),52,53,56,35,35,51,51,11,11,30,36,6,6,0.6,0.7
2025-12-31T1100,1354A,113.2765,23.1544,广州市,麓湖,细颗粒物(PM2.5),58,58,43,41,30,53,53,14,14,47,53,9,9,0.4,0.4
2025-12-31T1100,1355A,113.443,23.3035,广州市,帽峰山森林公园,,,,,,,,,,,,,,,,
2025-12-31T1100,2846A,113.3221,23.1322,广州市,体育西,颗粒物(PM10),56,61,55,34,35,53,53,16,16,56,57,9,7,0.7,0.7
2025-12-31T1100,3298A,113.5717,23.5491,广州市,从化街口,颗粒物(PM10),51,52,47,35,33,33,33,12,12,30,37,8,10,0.7,0.8
2025-12-31T1100,3299A,113.3472,23.3692,广州市,白云竹料,颗粒物(PM10),53,55,55,33,34,46,46,15,15,37,40,11,8,0.7,0.7
2025-12-31T1100,3300A,113.2981,23.237,广州市,白云嘉禾,颗粒物(PM10),51,52,53,28,31,78,78,22,22,32,50,6,7,0.5,0.7
2025-12-31T1100,3301A,113.4256,23.1716,广州市,黄埔科学城,颗粒物(PM10),51,52,43,34,29,74,74,39,39,31,32,4,4,0.7,0.7
2025-12-31T1100,3302A,113.3942,23.0483,广州市,番禺大学城,颗粒物(PM10),61,72,60,41,34,121,121,,,53,46,21,16,0.6,0.7
2025-12-31T1100,3303A,113.4922,22.8168,广州市,南沙黄阁,颗粒物(PM10),52,54,77,31,46,65,65,17,17,48,71,7,10,0.7,0.9
2025-12-31T1100,3304A,113.5342,22.7896,广州市,南沙街,颗粒物(PM10),56,62,73,23,43,72,72,44,44,41,52,7,8,0.5,0.7
2025-12-31T1100,3443A,113.2902,23.5544,广州市,花都梯面,,42,42,38,29,27,64,64,16,16,20,32,14,8,0.6,0.6
2025-12-31T1100,3445A,113.7858,23.7478,广州市,从化良口,,25,23,27,17,21,38,38,16,16,13,19,8,9,0.6,0.6
2025-12-31T1100,3446A,113.8051,23.2614,广州市,增城荔城,,43,39,36,30,27,42,42,28,28,24,22,9,7,0.6,0.6
2025-12-31T1100,2505A,109.568,23.1478,贵港市,德智高中,,,,,,,,,,,,,,,,
2025-12-31T1100,2506A,109.6047,23.0666,贵港市,江南子站,,,,70,48,46,,,30,30,23,31,12,10,0.7,0.8
2025-12-31T1100,2508A,109.5669,23.1065,贵港市,荷城子站,颗粒物(PM10),53,56,60,36,40,48,48,33,33,21,29,10,9,1.0,1
2025-12-31T1100,3405A,109.5886,23.1172,贵港市,新世纪学校,细颗粒物(PM2.5),62,61,64,44,42,50,50,25,25,26,38,11,11,0.6,0.6
2025-12-31T1100,4260A,109.5933,23.0951,贵港市,中山路155-3号,细颗粒物(PM2.5),63,57,61,45,43,45,45,34,29,28,31,8,9,0.7,0.7
2025-12-31T1100,1439A,106.6899,26.5998,贵阳市,马鞍山,,25,17,35,17,31,8,8,38,33,21,17,4,5,0.9,0.6
2025-12-31T1100,1441A,106.6243,26.6266,贵阳市,鉴湖路,,17,17,39,3,25,14,14,55,44,21,21,3,4,0.7,0.6
2025-12-31T1100,1442A,106.7487,26.6343,贵阳市,燕子冲,,,,33,,32,14,14,42,30,,18,,7,0.6,0.6
2025-12-31T1100,1443A,106.6555,26.4365,贵阳市,碧云窝,,46,46,47,29,28,49,49,55,54,15,12,9,6,0.4,0.5
2025-12-31T1100,1445A,106.7109,26.6027,贵阳市,红边门,,20,17,39,14,30,6,6,26,17,23,29,8,10,0.8,0.9
2025-12-31T1100,1446A,106.7164,26.5699,贵阳市,新华路,,36,36,46,22,28,12,12,32,27,26,23,5,8,0.6,0.6
2025-12-31T1100,1447A,106.674,26.5424,贵阳市,太慈桥,,29,29,40,19,31,11,11,47,41,28,20,5,6,0.5,0.3
2025-12-31T1100,1552A,106.805,26.3003,贵阳市,桐木岭,细颗粒物(PM2.5),52,51,41,36,28,71,71,73,73,4,4,5,6,1.1,1.2
2025-12-31T1100,4230A,106.6882,26.5695,贵阳市,花果园大街66号,,32,24,32,22,40,11,11,43,35,26,23,2,2,0.3,0.2
2025-12-31T1100,4231A,106.6873,26.5169,贵阳市,漓江路57号,,41,41,44,24,32,16,16,47,41,29,24,11,11,0.9,0.8
2025-12-31T1100,1862A,110.4144,25.3167,桂林市,电子科大尧山校区,,,,,,,,,,,,,,,,
2025-12-31T1100,1864A,110.3089,25.2708,桂林市,龙隐路小学,细颗粒物(PM2.5),102,89,65,76,54,86,86,82,75,14,12,8,8,0.7,0.7
2025-12-31T1100,1865A,110.2869,25.2178,桂林市,八中,细颗粒物(PM2.5),104,82,66,78,57,82,82,71,63,23,25,10,9,0.6,0.6
2025-12-31T1100,3531A,110.296,25.1253,桂林市,旅游学院,细颗粒物(PM2.5),77,66,56,56,44,95,95,55,52,11,16,6,6,0.7,0.6
2025-12-31T1100,4222A,110.1835,25.2444,桂林市,环湖路276号,细颗粒物(PM2.5),94,100,69,70,52,80,80,84,79,22,17,8,8,0.5,0.4
2025-12-31T1100,4301A,110.2803,25.2773,桂林市,信义路13号,细颗粒物(PM2.5),95,87,66,71,50,86,86,95,87,21,17,7,7,0.9,0.8
2025-12-31T1100,2674A,100.2561,34.4714,果洛藏族自治州,玛沁县大武镇,,,61,39,9,15,36,36,29,29,,2,26,15,0.9,0.5
2025-12-31T1100,1129A,126.5422,45.755,哈尔滨市,岭北,,,,,,,,,,,,,,,,
2025-12-31T1100,1130A,126.561,45.8167,哈尔滨市,松北商大,,38,38,35,18,24,28,28,18,18,14,27,22,11,0.5,0.5
2025-12-31T1100,1132A,126.599,45.7222,哈尔滨市,南岗学府路,,43,33,30,30,19,20,20,14,13,19,19,36,13,0.7,0.6
2025-12-31T1100,1133A,126.689,45.7733,哈尔滨市,太平宏伟公园,,41,41,30,21,20,30,30,21,21,13,18,26,22,0.8,0.7
2025-12-31T1100,1134A,126.635,45.7667,哈尔滨市,道外承德广场,颗粒物(PM10),52,54,49,33,23,28,28,22,20,18,22,22,13,0.6,0.6
2025-12-31T1100,1136A,126.6411,45.7258,哈尔滨市,动力和平路,颗粒物(PM10),51,51,34,32,25,26,26,15,15,17,22,19,17,0.7,0.6
2025-12-31T1100,1137A,126.593,45.7478,哈尔滨市,道里建国路,颗粒物(PM10),55,60,30,35,24,24,24,18,18,15,20,15,9,0.5,0.6
2025-12-31T1100,1138A,126.615,45.61,哈尔滨市,平房东轻厂,细颗粒物(PM2.5),57,43,54,40,48,26,26,10,10,13,32,8,7,0.9,1.1
2025-12-31T1100,1139A,126.595,45.9855,哈尔滨市,呼兰师专,,40,34,36,28,38,30,30,16,16,8,23,5,6,0.7,0.7
2025-12-31T1100,1140A,126.6206,45.6842,哈尔滨市,省农科院,颗粒物(PM10),52,53,45,28,31,27,27,14,14,16,27,12,12,0.6,0.7
2025-12-31T1100,4282A,126.6769,45.7379,哈尔滨市,华山路1号,,44,44,31,27,19,27,27,18,18,19,22,16,15,0.9,0.8
2025-12-31T1100,4283A,126.9717,45.5356,哈尔滨市,解放大街52号,,43,42,42,30,31,26,26,14,14,17,23,11,7,0.9,0.9
2025-12-31T1100,2688A,93.5128,42.8172,哈密市,地区监测站,细颗粒物(PM2.5),60,63,58,43,37,20,20,48,35,47,24,11,11,0.1,0
2025-12-31T1100,2689A,93.4961,42.8328,哈密市,哈密师范学校,颗粒物(PM10),58,65,63,31,32,17,17,18,14,48,36,1,4,0.7,0.4
2025-12-31T1100,2671A,100.9048,36.9639,海北藏族自治州,海晏县西海镇,细颗粒物(PM2.5),53,45,36,37,29,49,49,36,36,16,18,16,15,1.0,0.8
2025-12-31T1100,3867A,102.0738,36.5056,海东市,平安区公安北苑,细颗粒物(PM2.5),109,90,75,82,53,17,17,37,32,39,31,,30,1.4,1.3
2025-12-31T1100,1409A,110.576,19.9507,海口市,东寨港,,,,,,,,,,,,,,,,
2025-12-31T1100,1410A,110.3232,20.0574,海口市,海南大学,,43,37,45,26,32,136,136,128,122,12,12,6,6,0.4,0.4
2025-12-31T1100,1411A,110.283,20.0053,海口市,秀英海南医院,颗粒物(PM10),53,55,46,27,36,122,122,97,94,16,18,8,8,0.5,0.4
2025-12-31T1100,1412A,110.338,19.9969,海口市,海南师范大学,颗粒物(PM10),52,54,47,29,36,125,125,110,107,17,18,6,6,0.5,0.6
2025-12-31T1100,1413A,110.33,20.0356,海口市,龙华路环保局宿舍,,47,47,44,27,34,134,134,124,118,15,14,9,9,0.7,0.7
2025-12-31T1100,3539A,110.5111,19.9736,海口市,桂林洋子站,,37,24,54,18,40,118,118,107,98,10,14,9,9,0.4,0.5
2025-12-31T1100,2673A,100.6188,36.2866,海南藏族自治州,共和县恰卜恰镇,,43,43,45,30,24,40,40,21,21,28,27,11,13,0.6,0.6
2025-12-31T1100,2676A,97.3731,37.3753,海西蒙古族藏族自治州,德令哈市,,,11,27,7,11,,,67,61,7,12,13,12,0.5,0.8
2025-12-31T1100,1048A,114.5302,36.6116,邯郸市,东污水处理厂,,39,31,62,27,58,37,37,31,31,19,30,6,6,0.6,0.7
2025-12-31T1100,1049A,114.4918,36.5713,邯郸市,矿院,,42,29,59,29,57,38,38,36,36,34,34,5,5,0.6,0.7
2025-12-31T1100,1050A,114.484,36.6133,邯郸市,丛台公园,,39,36,66,27,54,40,40,36,36,26,32,7,7,0.6,0.6
2025-12-31T1100,3458A,114.7895,36.5593,邯郸市,香泉濮院小区,,36,36,71,24,59,42,42,31,31,25,31,4,5,0.6,0.7
2025-12-31T1100,3579A,114.50634,36.77178,邯郸市,永年区实验高中,,37,37,66,19,38,34,34,29,29,35,42,6,5,0.7,0.6
2025-12-31T1100,3580A,114.20016,36.44293,邯郸市,峰峰矿区临水派出所,,39,,53,27,56,49,49,50,50,21,24,9,9,0.8,0.8
2025-12-31T1100,2634A,106.9893,33.1842,汉中市,汉川机床厂子校,,,,,,,,,,,,,,,,
2025-12-31T1100,2635A,107.0154,33.0706,汉中市,市监测站,细颗粒物(PM2.5),62,,99,44,90,83,83,75,75,13,34,4,5,0.5,1.1
2025-12-31T1100,2636A,107.0089,33.1138,汉中市,鑫源开发区,细颗粒物(PM2.5),53,39,81,37,66,87,87,81,81,13,32,4,5,0.5,1
2025-12-31T1100,2637A,107.007,33.0323,汉中市,南郑大河坎水厂,细颗粒物(PM2.5),64,55,146,46,126,83,83,64,64,13,32,5,5,0.7,1.6
2025-12-31T1100,1223A,120.2072,30.2111,杭州市,滨江,,23,23,68,9,28,47,47,41,41,28,34,10,10,0.2,0.3
2025-12-31T1100,1224A,120.0633,30.2747,杭州市,西溪,,33,33,86,8,46,44,44,39,32,41,41,9,8,0.5,0.7
2025-12-31T1100,1226A,120.3417,30.3150,杭州市,下沙,,30,30,72,12,46,47,47,30,30,30,38,8,8,0.7,0.7
2025-12-31T1100,1227A,120.1269,30.2456,杭州市,卧龙桥,,28,28,77,9,46,54,54,40,40,24,30,10,9,0.5,0.6
2025-12-31T1100,1228A,120.1903,30.2692,杭州市,浙江农大,,26,26,67,11,41,50,50,35,35,34,37,3,3,0.2,0.4
2025-12-31T1100,1230A,120.1197,30.3119,杭州市,和睦小学,,26,26,83,18,52,24,24,46,36,29,34,5,5,0.4,0.7
2025-12-31T1100,1231A,120.3019,30.4183,杭州市,临平镇,,,25,63,11,42,50,50,32,32,21,28,8,7,,0.6
2025-12-31T1100,1232A,120.2753,30.1839,杭州市,城厢镇,,43,43,92,11,47,52,52,39,39,26,33,8,9,0.3,0.5
2025-12-31T1100,1233A,120.0883,30.1808,杭州市,云栖,,,28,82,10,49,58,58,50,48,,31,5,4,0.7,0.9
2025-12-31T1100,3557A,119.9464,30.0494,杭州市,镇二中,,16,16,74,8,58,51,51,45,42,29,37,6,6,0.5,0.7
2025-12-31T1100,3558A,119.7183,30.2367,杭州市,市府大楼,,22,22,108,9,61,54,54,51,46,21,28,11,10,0.5,0.7
2025-12-31T1100,3656A,120.1556,30.2864,杭州市,消防大队,,,32,81,13,55,,,37,35,22,29,,6,0.3,0.5
2025-12-31T1100,1270A,117.1959,31.7848,合肥市,明珠广场,,22,22,83,7,54,56,56,50,50,14,22,6,7,0.4,0.6
2025-12-31T1100,1271A,117.3072,31.8764,合肥市,三里街,,29,29,76,3,53,53,53,48,48,23,28,6,6,0.6,0.9
2025-12-31T1100,1272A,117.2588,31.8707,合肥市,琥珀山庄,,31,31,75,10,54,60,60,53,53,19,25,8,8,0.5,0.7
2025-12-31T1100,1273A,117.1604,31.9052,合肥市,董铺水库,,,,,,,,,,,,,,,,
2025-12-31T1100,1274A,117.25,31.8571,合肥市,长江中路,,,27,78,12,56,61,61,51,51,,25,8,8,,0.9
2025-12-31T1100,1275A,117.266,31.9436,合肥市,庐阳区,,24,24,79,3,49,65,65,56,56,18,30,2,4,0.5,0.8
2025-12-31T1100,1276A,117.3453,31.8616,合肥市,瑶海区,,24,24,75,3,49,56,56,50,50,27,31,6,5,0.5,0.7
2025-12-31T1100,1277A,117.3027,31.7964,合肥市,包河区,,29,29,84,14,58,46,46,40,40,35,54,7,8,0.7,1
2025-12-31T1100,1278A,117.2776,31.7385,合肥市,滨湖新区,,24,24,87,12,65,60,60,52,52,20,25,5,6,0.7,1
2025-12-31T1100,1279A,117.1318,31.8403,合肥市,高新区,,,,80,,54,64,64,54,54,16,25,,5,0.6,0.9
2025-12-31T1100,3464A,117.3803,31.9147,合肥市,高教基地,,22,22,74,8,52,66,66,55,55,17,22,7,8,0.5,0.7
2025-12-31T1100,3614A,79.924,37.0877,和田地区,地区环保局,颗粒物(PM10),65,80,88,41,32,38,38,47,46,17,16,3,2,0.9,0.8
2025-12-31T1100,3615A,79.9131,37.113,和田地区,市环保局,,47,47,85,21,30,39,39,49,47,18,17,1,2,0.6,1.1
2025-12-31T1100,2516A,108.2011,24.715,河池市,东仁乐园,,,,,,,,,,,,,,,,
2025-12-31T1100,2517A,108.0497,24.6947,河池市,市环保站,细颗粒物(PM2.5),68,80,78,49,53,41,41,14,14,33,32,10,8,1.0,1
2025-12-31T1100,4302A,108.0901,24.6945,河池市,上任中路54号,,,,77,44,54,54,54,12,12,,38,15,13,0.8,1
2025-12-31T1100,1696A,114.6778,23.7569,河源市,源西,,,,,,,,,,,,,,,,
2025-12-31T1100,1697A,114.6944,23.7586,河源市,东埔,颗粒物(PM10),52,53,40,27,24,39,39,12,12,29,29,9,6,0.8,0.8
2025-12-31T1100,1698A,114.6892,23.7233,河源市,老城,,39,39,40,26,24,26,26,18,18,29,24,8,7,1.0,0.9
2025-12-31T1100,1718A,115.4208,35.2464,菏泽市,气象局,颗粒物(PM10),57,63,132,33,98,42,42,34,34,21,34,8,7,0.6,0.9
2025-12-31T1100,3374A,115.5564,35.0891,菏泽市,定陶老年大学,颗粒物(PM10),51,51,120,29,91,33,33,26,26,23,34,7,7,0.8,1.1
2025-12-31T1100,4184A,115.4797,35.24401,菏泽市,永昌路1号,颗粒物(PM10),54,57,133,36,101,40,40,30,30,18,35,8,10,0.8,1.1
2025-12-31T1100,4193A,115.4715,35.2800,菏泽市,长城路999号,颗粒物(PM10),54,58,132,31,98,38,38,29,29,19,35,7,8,0.8,1.1
2025-12-31T1100,2514A,111.5264,24.4172,贺州市,环保小区,细颗粒物(PM2.5),64,74,60,46,47,26,26,18,16,26,23,7,7,0.9,0.9
2025-12-31T1100,2515A,111.5608,24.4078,贺州市,政协大楼,"颗粒物(PM10),细颗粒物(PM2.5)",53,56,52,37,38,25,25,11,11,24,26,8,8,0.7,0.7
2025-12-31T1100,3534A,111.4744,24.4553,贺州市,西湾,,,,64,,48,,,33,26,21,25,9,8,0.8,0.7
2025-12-31T1100,2385A,114.17,35.9019,鹤壁市,市监测站,,46,46,87,22,68,44,44,38,38,19,29,7,9,0.7,1
2025-12-31T1100,2386A,114.2956,35.7511,鹤壁市,市交警支队,,44,44,91,10,60,36,36,30,30,23,33,6,9,0.5,0.8
2025-12-31T1100,2387A,114.2878,35.7306,鹤壁市,迎宾馆,,46,46,92,14,66,47,47,39,39,21,31,4,8,0.7,0.9
2025-12-31T1100,3474A,114.2617,35.6822,鹤壁市,大新区,,42,42,81,3,47,48,48,41,41,26,34,6,8,0.5,0.8
2025-12-31T1100,3596A,114.1572,35.9603,鹤壁市,南山宾馆,颗粒物(PM10),51,51,91,17,65,49,49,41,41,13,29,7,10,0.6,0.9
2025-12-31T1100,2244A,130.2537,47.3416,鹤岗市,哈啤分公司,,18,13,23,12,21,48,48,48,48,3,6,6,6,0.3,0.4
2025-12-31T1100,2245A,130.2684,47.3086,鹤岗市,斯达机电,,30,22,29,21,25,50,50,50,48,5,8,4,5,0.4,0.4
2025-12-31T1100,2246A,130.3114,47.3388,鹤岗市,东山纸板厂,,,,21,16,23,51,51,51,51,1,6,6,7,,0.6
2025-12-31T1100,2247A,130.1097,47.3382,鹤岗市,五号水库,,,,,,,,,,,,,,,,
2025-12-31T1100,2263A,127.4833,50.2524,黑河市,交通局,,18,15,17,12,15,40,40,41,39,8,11,4,4,0.3,0.4
2025-12-31T1100,2264A,127.5144,50.2341,黑河市,环保局,,20,15,19,14,16,38,38,37,37,7,11,5,4,0.3,0.4
2025-12-31T1100,2265A,127.5291,50.2472,黑河市,大黑河岛,,,,,,,,,,,,,,,,
2025-12-31T1100,1074A,115.6838,37.7541,衡水市,电机北厂,,16,16,50,3,30,50,50,24,24,10,33,3,8,0.2,0.5
2025-12-31T1100,1075A,115.6303,37.7316,衡水市,市监测站,,,16,52,3,25,50,50,26,26,14,36,,7,,0.5
2025-12-31T1100,3188A,115.6683,37.7217,衡水市,市城管局,,16,6,52,3,32,49,49,28,28,12,35,4,8,0.3,0.5
2025-12-31T1100,3459A,115.5989,37.5491,衡水市,地表水厂,,16,12,45,7,29,49,49,23,23,10,31,1,5,0.3,0.5
2025-12-31T1100,2456A,112.5003,26.9167,衡阳市,原169医院,,,,,,,,,,,,,,,,
2025-12-31T1100,2457A,112.6194,26.9258,衡阳市,衡阳化工总厂,细颗粒物(PM2.5),195,166,128,146,127,49,49,34,34,20,23,16,15,1.3,1.3
2025-12-31T1100,2458A,112.6211,26.8956,衡阳市,珠晖区环保局,细颗粒物(PM2.5),186,147,121,140,120,41,41,27,27,19,31,8,9,1.5,1.5
2025-12-31T1100,2459A,112.6197,26.8733,衡阳市,市委党校,细颗粒物(PM2.5),195,,120,146,127,48,48,46,42,21,22,9,11,1.3,1.3
2025-12-31T1100,2460A,112.6006,26.8919,衡阳市,市监测站,细颗粒物(PM2.5),170,185,162,129,116,50,50,41,39,20,19,21,13,1.1,1.1
2025-12-31T1100,2461A,112.5664,26.9056,衡阳市,真空机电公司,细颗粒物(PM2.5),192,171,148,144,131,47,47,37,37,28,30,15,13,1.3,1.3
2025-12-31T1100,3399A,112.6703,26.882,衡阳市,师范学院,细颗粒物(PM2.5),179,176,141,135,107,54,54,42,41,25,26,5,7,1.4,1.3
2025-12-31T1100,2608A,103.3772,23.3993,红河哈尼族彝族自治州,污水处理厂,,39,35,34,27,30,60,60,52,48,8,8,6,6,0.4,0.4
2025-12-31T1100,2609A,103.3861,23.35,红河哈尼族彝族自治州,监测站,,,33,36,24,29,66,66,65,65,3,4,7,8,,0.3
2025-12-31T1100,3038A,103.3758,23.368,红河哈尼族彝族自治州,州图书馆,,21,16,26,12,18,65,65,60,54,4,6,6,6,0.4,0.4
2025-12-31T1100,1090A,111.6507,40.7517,呼和浩特市,呼市一监,,19,19,10,8,4,56,56,60,58,17,11,1,2,0.4,0.3
2025-12-31T1100,1094A,111.7516,40.8369,呼和浩特市,如意水处理厂,,28,28,9,10,4,48,48,54,44,26,16,8,8,0.4,0.3
2025-12-31T1100,1095A,111.7276,40.8062,呼和浩特市,二十九中,,28,28,12,10,3,49,49,56,50,18,12,9,9,0.3,0.2
2025-12-31T1100,1097A,111.717,40.7612,呼和浩特市,化肥厂生活区,,,15,10,6,3,,,61,61,9,9,,4,0.5,0.5
2025-12-31T1100,3699A,111.6518,40.8389,呼和浩特市,海东办,,17,17,8,7,3,47,47,61,52,28,13,7,4,0.4,0.2
2025-12-31T1100,4275A,111.5915,40.8273,呼和浩特市,成吉思汗西街8号,,27,27,7,8,3,37,37,54,43,32,17,7,6,0.5,0.3
2025-12-31T1100,4276A,111.6597,40.8077,呼和浩特市,公园东路75号,,27,27,11,9,4,48,48,53,48,30,18,6,5,0.4,0.2
2025-12-31T1100,4277A,111.5417,40.7846,呼和浩特市,金海路35号,,,,15,,3,45,45,58,50,29,16,9,8,,0.2
2025-12-31T1100,3061A,119.7512,49.1577,呼伦贝尔市,国华电力东,,36,25,31,25,24,35,35,34,34,22,20,7,5,0.3,0.4
2025-12-31T1100,4279A,119.7569,49.2222,呼伦贝尔市,伊敏大街东7号,,27,27,26,17,22,34,34,39,34,17,11,8,7,0.4,0.4
2025-12-31T1100,1250A,120.0751,30.8669,湖州市,城西水厂,,24,15,54,6,41,76,76,65,65,14,22,9,9,0.1,0.3
2025-12-31T1100,2873A,120.0830,30.8929,湖州市,仁皇山新区,,,14,51,6,38,,,64,64,19,27,9,9,0.1,0.3
2025-12-31T1100,2907A,120.1844,30.8596,湖州市,吴兴区站,,27,27,65,6,34,74,74,58,58,13,25,6,6,0.4,0.6
2025-12-31T1100,3562A,120.4148,30.8538,湖州市,南浔区站,,21,21,43,9,32,62,62,39,39,16,31,6,6,0.3,0.4
2025-12-31T1100,1607A,120.9049,40.7211,葫芦岛市,龙港区,,32,32,38,3,20,52,52,39,39,6,23,13,15,0.5,0.7
2025-12-31T1100,1608A,120.8392,40.7514,葫芦岛市,化工街,,17,17,29,7,10,48,48,38,38,5,19,10,16,0.3,0.4
2025-12-31T1100,1609A,120.8341,40.7073,葫芦岛市,新区,,,21,24,6,10,,,40,39,10,20,8,11,,0.7
2025-12-31T1100,1610A,120.8695,40.7677,葫芦岛市,东城区,,20,20,22,3,13,47,47,41,38,6,21,10,14,0.5,0.6
2025-12-31T1100,2482A,109.5981,27.5721,怀化市,林科所,,,,,,,,,,,,,,,,
2025-12-31T1100,2483A,109.9453,27.5444,怀化市,河西地税局,细颗粒物(PM2.5),145,,97,111,85,52,52,70,65,19,18,3,7,1.0,0.7
2025-12-31T1100,2484A,109.9781,27.5342,怀化市,市四医院,细颗粒物(PM2.5),135,123,106,103,82,49,49,60,57,15,14,9,12,0.9,0.7
2025-12-31T1100,2485A,109.9972,27.5578,怀化市,监测楼,细颗粒物(PM2.5),118,119,98,89,74,54,54,57,56,19,20,3,7,0.3,0.3
2025-12-31T1100,2486A,110.0394,27.583,怀化市,市委党校,细颗粒物(PM2.5),148,,112,113,98,47,47,53,53,15,17,6,12,0.6,0.6
2025-12-31T1100,1210A,119.036,33.5981,淮安市,钵池山,,,41,39,29,37,,,46,46,,21,7,7,0.3,0.3
2025-12-31T1100,1211A,119.007,33.575,淮安市,北京南路,颗粒物(PM10),52,53,39,23,31,52,52,45,45,8,16,7,7,0.5,0.5
2025-12-31T1100,1212A,118.989,33.6067,淮安市,市监测站,,36,36,34,14,22,52,52,43,43,12,19,8,8,0.4,0.4
2025-12-31T1100,1213A,119.135,33.5039,淮安市,楚州区监测站,,34,34,31,16,18,51,51,50,48,7,15,9,9,0.4,0.4
2025-12-31T1100,3426A,118.8755,33.2894,淮安市,新华书店,颗粒物(PM10),51,52,38,24,21,46,46,45,44,13,22,8,8,0.5,0.5
2025-12-31T1100,4206A,119.0288,33.6319,淮安市,承德北路606号,,41,41,52,26,38,55,55,42,42,9,25,7,7,0.5,0.5
2025-12-31T1100,2282A,116.8004,33.975,淮北市,监测站,颗粒物(PM10),60,69,119,34,73,44,44,40,40,22,32,10,9,0.8,1
2025-12-31T1100,2283A,116.8091,33.9007,淮北市,烈山区政府,细颗粒物(PM2.5),58,59,99,41,79,39,39,40,38,25,33,8,9,0.5,0.6
2025-12-31T1100,3330A,116.8873,33.9836,淮北市,杜集区检察院,颗粒物(PM10),56,62,95,32,69,46,46,44,44,15,22,6,6,0.6,0.7
2025-12-31T1100,4017A,116.7923,33.9535,淮北市,市博物馆,颗粒物(PM10),57,64,110,32,73,44,44,42,42,21,27,10,11,0.5,0.7
2025-12-31T1100,2277A,116.8305,32.7727,淮南市,潘集区政府,细颗粒物(PM2.5),70,83,73,51,56,42,42,47,44,20,18,6,6,0.5,0.5
2025-12-31T1100,2279A,116.8569,32.5951,淮南市,谢家集区政府,,45,45,64,14,37,54,54,52,51,17,20,7,7,0.3,0.4
2025-12-31T1100,2280A,116.8281,32.633,淮南市,八公山区政府,颗粒物(PM10),52,53,63,26,41,50,50,50,49,17,17,8,7,0.3,0.4
2025-12-31T1100,2281A,116.6325,32.6201,淮南市,焦岗湖风景区管理处,,,,,,,,,,,,,,,,
2025-12-31T1100,2894A,117.0566,32.6531,淮南市,经济技术开发区消防队,颗粒物(PM10),62,73,79,42,45,51,51,50,49,17,22,4,5,0.4,0.5
2025-12-31T1100,3329A,117.0108,32.5893,淮南市,山南新区,,38,38,64,6,31,61,61,60,59,13,15,2,3,0.4,0.5
2025-12-31T1100,4209A,117.0031,32.6445,淮南市,国庆中路369号,细颗粒物(PM2.5),74,,64,54,36,44,44,46,45,18,20,5,6,0.3,0.4
2025-12-31T1100,2446A,114.9028,30.4742,黄冈市,职工中心,细颗粒物(PM2.5),85,96,117,63,83,72,72,71,71,17,23,7,8,0.8,0.9
2025-12-31T1100,2929A,114.8858,30.4519,黄冈市,红卫路,细颗粒物(PM2.5),100,93,109,75,91,72,72,74,73,19,25,7,8,0.8,0.8
2025-12-31T1100,3398A,114.9136,30.4445,黄冈市,市林业局,,,,119,,96,71,71,77,74,,30,5,5,,1.2
2025-12-31T1100,2672A,102.0199,35.5102,黄南藏族自治州,同仁县隆务镇,,,,46,,32,,,59,53,5,7,12,12,0.5,0.6
2025-12-31T1100,2295A,118.2903,29.6963,黄山市,延安路89号,,,17,69,10,55,81,81,45,45,,18,,5,0.3,0.6
2025-12-31T1100,2297A,118.1371,30.2756,黄山市,黄山区政府5号楼,,40,40,105,27,80,65,65,28,28,14,17,6,6,0.4,0.8
2025-12-31T1100,4210A,118.3354,29.7203,黄山市,滨江东路7-2号,,38,38,88,25,72,80,80,60,60,8,16,4,4,0.2,0.6
2025-12-31T1100,2423A,115.0601,30.2313,黄石市,沈家营,颗粒物(PM10),88,125,137,47,85,58,58,67,55,14,35,6,9,1.2,1.3
2025-12-31T1100,2426A,114.8988,30.2019,黄石市,铁山,细颗粒物(PM2.5),90,101,104,67,105,64,64,76,71,15,25,6,8,0.6,0.5
2025-12-31T1100,2427A,115.0307,30.2092,黄石市,团城山,,,,122,,99,57,57,79,66,,26,,11,0.6,0.9
2025-12-31T1100,3149A,115.0235,30.1578,黄石市,笔架山北路,颗粒物(PM10),84,117,152,45,93,55,55,73,61,17,19,6,8,0.9,1.2
2025-12-31T1100,4185A,115.0780,30.21118,黄石市,磁湖东路29号,细颗粒物(PM2.5),87,83,134,64,106,48,48,57,46,15,38,8,12,0.9,1.3
2025-12-31T1100,1392A,114.4183,23.0528,惠州市,河南岸金山湖子站,,,64,51,42,35,,,34,34,,36,,6,,0.7
2025-12-31T1100,1393A,114.4053,23.0822,惠州市,下埔横江三路子站,颗粒物(PM10),54,57,59,35,34,47,47,52,45,28,31,12,8,0.7,0.7
2025-12-31T1100,1395A,114.4645,22.7833,惠州市,惠阳区承修路船湖子站,,,,45,20,25,,,54,40,20,25,8,7,0.6,0.6
2025-12-31T1100,1396A,114.5317,22.7422,惠州市,大亚湾管委会子站,,36,36,39,19,20,81,81,84,79,20,20,9,7,0.4,0.4
2025-12-31T1100,3314A,114.4338,22.8134,惠州市,惠阳秋长,,41,41,60,23,30,82,82,56,56,25,38,17,16,0.5,0.6
2025-12-31T1100,3452A,114.6517,22.775,惠州市,大亚湾霞涌,,41,41,36,19,19,95,95,71,71,14,22,7,6,0.4,0.5
2025-12-31T1100,4300A,114.4089,23.1147,惠州市,文华一路1号,,,,54,,31,,,66,,,43,,8,,0.4
2025-12-31T1100,2240A,130.9762,45.3001,鸡西市,环保局,,,,23,23,11,40,40,37,37,,7,6,6,0.2,0.2
2025-12-31T1100,2243A,130.9429,45.3039,鸡西市,第一中学,,21,21,20,10,13,44,44,41,41,4,7,3,3,0.3,0.3
2025-12-31T1100,3707A,131.0207,45.3073,鸡西市,欧美日汽修厂,,35,35,25,6,15,49,49,44,44,5,11,6,6,0.3,0.3
2025-12-31T1100,3709A,130.9967,45.3106,鸡西市,市政设施管理处,,,29,25,18,15,,,36,36,8,15,7,7,0.3,0.2
2025-12-31T1100,2367A,114.9754,27.0803,吉安市,红声器材厂,细颗粒物(PM2.5),119,133,79,90,51,70,70,58,50,30,29,11,11,1.4,0.9
2025-12-31T1100,2368A,114.9658,27.0999,吉安市,市森林工业局,细颗粒物(PM2.5),127,141,79,96,54,68,68,62,54,33,27,15,14,0.9,0.6
2025-12-31T1100,2369A,114.99,27.1312,吉安市,市环境监测站,,,,74,,53,,,56,48,29,25,20,17,1.0,0.7
2025-12-31T1100,2370A,115.0093,27.0968,吉安市,青原区法院,细颗粒物(PM2.5),125,123,76,95,56,61,61,55,48,25,23,13,14,1.2,0.9
2025-12-31T1100,1772A,126.54,43.8622,吉林市,哈达湾,,34,34,30,22,18,34,34,26,25,10,17,7,7,1.2,1.2
2025-12-31T1100,1773A,126.5844,43.8358,吉林市,东局子,,37,37,33,21,23,30,30,13,13,14,21,10,5,1.0,1
2025-12-31T1100,1774A,126.5052,43.8245,吉林市,电力学院,,30,28,46,21,29,37,37,17,17,8,24,11,11,0.7,1
2025-12-31T1100,1775A,126.6133,43.8972,吉林市,江北,,39,39,50,27,33,29,29,18,18,14,21,3,3,0.6,0.8
2025-12-31T1100,1776A,126.555,43.8306,吉林市,江南公园,,33,29,30,23,18,32,32,17,17,10,18,8,8,0.8,0.8
2025-12-31T1100,1778A,126.7061,43.7133,吉林市,丰满,,43,,18,30,20,30,30,28,27,9,10,7,8,0.6,0.5
2025-12-31T1100,2868A,126.4739,43.953,吉林市,九站,,38,38,38,24,25,32,32,17,17,12,25,5,6,0.8,0.9
2025-12-31T1100,1299A,116.9862,36.6114,济南市,科干所,,,53,75,7,40,44,44,41,41,,41,,10,0.7,0.9
2025-12-31T1100,1300A,116.9376,36.665,济南市,农科所,,44,44,82,12,45,46,46,23,23,16,45,10,11,0.7,1
2025-12-31T1100,1301A,117.1265,36.6734,济南市,开发区,,49,49,81,15,50,45,45,22,22,16,42,5,8,0.6,0.9
2025-12-31T1100,1303A,117.0624,36.6868,济南市,省种子仓库,颗粒物(PM10),51,51,90,7,49,52,52,22,22,16,45,6,14,0.5,0.8
2025-12-31T1100,1304A,116.9489,36.6447,济南市,机床二厂,颗粒物(PM10),52,54,81,12,49,47,47,27,27,20,46,5,10,0.7,0.9
2025-12-31T1100,1305A,117.0495,36.663,济南市,市监测站,,44,44,81,7,47,42,42,22,22,14,39,5,9,0.6,0.9
2025-12-31T1100,1306A,116.7675,36.5484,济南市,长清党校,颗粒物(PM10),52,54,84,17,48,38,38,28,28,23,42,11,12,0.7,0.9
2025-12-31T1100,1616A,117.6795,36.229,济南市,技术学院,,20,19,76,12,57,61,61,44,44,17,37,4,7,0.4,0.9
2025-12-31T1100,1961A,117.532,36.6868,济南市,东山小学,,,,84,,49,,,20,16,19,42,12,7,0.9,1
2025-12-31T1100,3059A,117.7161,36.2049,济南市,泰兴公司,,,,88,,67,,,46,46,13,36,4,7,0.4,0.9
2025-12-31T1100,3064A,117.6867,36.2171,济南市,莱芜战役纪念馆,,27,27,89,18,68,63,63,45,45,14,36,6,9,0.2,0.7
2025-12-31T1100,3494A,117.1673,36.9782,济南市,济阳区政府,,42,42,64,7,34,49,49,28,28,14,32,9,9,0.6,0.6
2025-12-31T1100,3495A,117.1171,36.63,济南市,锦屏中学,,34,34,60,7,36,50,50,39,39,18,37,5,6,0.4,0.7
2025-12-31T1100,3682A,116.9814,36.6819,济南市,济南四建,,,44,76,12,47,,,18,16,15,40,9,12,0.9,1.2
2025-12-31T1100,1653A,116.6251,35.4302,济宁市,火炬城,,35,33,119,24,103,56,56,41,41,13,36,10,9,0.3,0.8
2025-12-31T1100,1655A,116.5491,35.4042,济宁市,电化厂,颗粒物(PM10),51,51,142,22,95,56,56,41,41,22,43,13,12,0.2,0.7
2025-12-31T1100,3500A,116.5814,35.3707,济宁市,北湖一中,,35,35,100,20,93,52,52,42,42,20,34,6,10,0.4,0.8
2025-12-31T1100,3501A,116.8249,35.5593,济宁市,服务中心,,49,49,133,16,76,52,52,39,39,16,40,20,17,0.9,1.2
2025-12-31T1100,3678A,116.5907,35.4054,济宁市,市第七中学,,41,41,107,12,88,54,54,41,41,19,37,14,14,0.5,0.9
2025-12-31T1100,2255A,130.2751,46.8028,佳木斯市,佳纺,,45,38,31,31,23,36,36,30,28,10,15,5,6,0.3,0.3
2025-12-31T1100,2257A,130.3258,46.7975,佳木斯市,环保局,,24,24,26,15,18,37,37,35,34,11,15,8,7,0.3,0.4
2025-12-31T1100,2259A,130.3794,46.7588,佳木斯市,四丰,,,,,,,,,,,,,,,,
2025-12-31T1100,4285A,130.363,46.806,佳木斯市,顺和街,,25,20,24,17,19,33,33,32,30,10,13,9,8,0.5,0.4
2025-12-31T1100,4286A,130.3952,46.8268,佳木斯市,长安路196号,,28,28,25,18,17,40,40,39,38,6,12,5,5,0.3,0.3
2025-12-31T1100,1252A,120.7436,30.778,嘉兴市,清河小学,,25,25,45,13,33,62,62,42,42,20,32,6,5,0.2,0.2
2025-12-31T1100,1253A,120.726,30.7478,嘉兴市,嘉兴学院,,25,25,47,9,26,61,61,44,44,19,28,7,7,0.5,0.6
2025-12-31T1100,2872A,120.7846,30.7525,嘉兴市,南湖区残联,,23,23,39,9,26,66,66,45,45,19,30,4,4,0.4,0.4
2025-12-31T1100,3407A,120.6916,30.7739,嘉兴市,秀洲住建,,28,28,49,10,30,64,64,45,45,19,31,8,7,0.3,0.4
2025-12-31T1100,1945A,98.2908,39.7711,嘉峪关市,气象局,颗粒物(PM10),90,129,76,34,30,54,54,56,56,12,13,2,3,0.5,0.5
2025-12-31T1100,2884A,98.2672,39.7978,嘉峪关市,酒钢宾馆,,,107,76,27,31,,,54,54,11,12,12,14,0.5,0.6
2025-12-31T1100,3248A,98.2643,39.7724,嘉峪关市,雄关区,颗粒物(PM10),53,56,59,20,35,59,59,59,58,13,15,15,12,0.7,0.8
2025-12-31T1100,1383A,113.1064,22.6058,江门市,北街,细颗粒物(PM2.5),113,126,82,85,55,13,13,11,6,125,68,12,10,1.1,1
2025-12-31T1100,1384A,113.0731,22.5835,江门市,西区,,,120,88,70,46,27,27,6,4,,72,,10,1.0,0.8
2025-12-31T1100,1385A,113.0219,22.5311,江门市,圭峰西,细颗粒物(PM2.5),104,121,66,78,52,34,34,48,29,114,44,10,8,0.9,0.7
2025-12-31T1100,1386A,113.0828,22.5947,江门市,东湖,颗粒物(PM10),93,135,85,62,53,20,20,5,4,126,76,12,9,1.0,0.9
2025-12-31T1100,3311A,113.1075,22.5647,江门市,江海富民,颗粒物(PM10),89,127,95,61,42,29,29,12,9,130,79,10,9,1.0,0.9
2025-12-31T1100,3449A,113.05,22.4667,江门市,新会银湖,细颗粒物(PM2.5),129,163,81,98,57,44,44,9,9,87,42,9,8,1.0,0.7
2025-12-31T1100,1830A,113.1992,35.2590,焦作市,影视城,,,,103,,70,,,62,,,27,,7,,0.8
2025-12-31T1100,3335A,113.3137,35.2641,焦作市,马村街道办,颗粒物(PM10),52,53,99,15,67,55,55,51,51,15,23,7,8,0.4,0.6
2025-12-31T1100,3336A,113.2465,35.2373,焦作市,焦作技师学院,颗粒物(PM10),56,62,99,12,67,46,46,44,44,17,27,8,10,0.6,0.8
2025-12-31T1100,3477A,113.1656,35.2539,焦作市,中站许衡医院,颗粒物(PM10),52,54,97,25,78,54,54,49,49,18,26,5,7,0.7,0.9
2025-12-31T1100,3981A,113.2449,35.1803,焦作市,原李万街道办,,44,44,97,9,64,53,53,54,54,19,26,5,7,0.5,0.7
2025-12-31T1100,4264A,113.2340,35.2190,焦作市,新安路1731号,颗粒物(PM10),53,55,106,22,72,52,52,48,48,11,22,5,8,0.4,0.6
2025-12-31T1100,4295A,113.2722,35.2121,焦作市,人民路3066号,,,53,107,13,58,50,50,50,50,,25,18,16,0.4,0.5
2025-12-31T1100,1708A,116.3701,23.5345,揭阳市,新兴,颗粒物(PM10),62,73,53,41,31,60,60,33,27,38,33,10,9,0.8,0.7
2025-12-31T1100,1709A,116.3264,23.5443,揭阳市,西马,颗粒物(PM10),57,64,61,33,30,65,65,21,20,23,25,10,7,0.7,0.8
2025-12-31T1100,1710A,116.3611,23.5626,揭阳市,东兴,颗粒物(PM10),59,67,52,30,27,70,70,23,23,23,31,12,9,0.8,0.8
2025-12-31T1100,1711A,116.4151,23.5294,揭阳市,渔湖,颗粒物(PM10),64,78,51,39,24,61,61,39,34,35,28,7,5,0.8,0.7
2025-12-31T1100,3320A,116.403,23.5699,揭阳市,曲溪,"颗粒物(PM10),细颗粒物(PM2.5)",57,63,55,40,28,73,73,34,34,30,32,17,8,0.6,0.6
2025-12-31T1100,1944A,102.1692,38.5167,金昌市,天庆家园,颗粒物(PM10),57,63,93,30,30,39,39,53,48,18,13,15,10,0.6,0.7
2025-12-31T1100,4022A,102.1647,38.5371,金昌市,金川区人防中心,,49,49,88,31,35,49,49,54,52,12,13,7,9,0.6,0.7
2025-12-31T1100,4239A,102.1930,38.5319,金昌市,长春路96号,颗粒物(PM10),67,84,83,23,28,46,46,54,52,14,12,6,10,0.8,0.7
2025-12-31T1100,1262A,119.647,29.077,金华市,十五中,,30,30,118,17,87,54,54,44,43,24,34,3,4,0.4,0.7
2025-12-31T1100,1263A,119.686,29.1029,金华市,监测站,,28,28,164,12,82,58,58,38,38,24,41,2,2,0,0.4
2025-12-31T1100,3659A,119.656,29.1131,金华市,气象局,,,21,114,10,78,59,59,39,39,19,45,2,3,,0.5
2025-12-31T1100,1767A,121.1115,41.0879,锦州市,南山,,,22,23,10,10,52,52,42,38,,13,,10,0.5,0.6
2025-12-31T1100,1768A,121.0604,40.8428,锦州市,开发区,,36,36,34,17,17,51,51,33,33,9,21,17,14,0.6,0.7
2025-12-31T1100,1769A,121.1836,41.1119,锦州市,百股街道,,39,39,23,12,10,47,47,33,29,9,16,10,9,0.6,0.7
2025-12-31T1100,1770A,121.1178,41.1222,锦州市,天安街道,,18,6,21,3,8,56,56,51,48,8,12,12,11,0.5,0.5
2025-12-31T1100,1771A,121.1303,41.1386,锦州市,北湖公园,,22,22,21,6,8,51,51,50,48,5,7,10,9,0.4,0.4
2025-12-31T1100,2160A,112.85,35.5051,晋城市,自来水公司,,,,138,,99,52,52,41,40,,23,5,8,,1.3
2025-12-31T1100,2161A,112.8318,35.4936,晋城市,白云商贸,颗粒物(PM10),71,91,137,14,84,53,53,42,41,8,18,4,6,0.6,1
2025-12-31T1100,2162A,112.8508,35.4887,晋城市,市环保局,颗粒物(PM10),55,59,134,27,90,55,55,41,41,13,23,5,7,0.7,1.1
2025-12-31T1100,2163A,112.8676,35.4897,晋城市,技术学院,颗粒物(PM10),53,56,130,19,90,48,48,38,38,19,29,7,9,0.5,0.9
2025-12-31T1100,2165A,112.8453,35.546,晋城市,白马寺,颗粒物(PM10),59,67,120,33,96,58,58,44,44,11,20,9,10,0.6,1.1
2025-12-31T1100,3620A,112.8271,35.4828,晋城市,泽州一中,颗粒物(PM10),55,59,127,27,94,58,58,46,45,16,24,5,6,0.7,1.1
2025-12-31T1100,2173A,112.7249,37.7067,晋中市,南都小区,颗粒物(PM10),54,57,76,19,35,48,48,38,38,22,36,9,11,0.4,0.5
2025-12-31T1100,2174A,112.6991,37.6982,晋中市,榆次区政府,,44,44,74,18,34,47,47,39,39,25,37,9,10,0.4,0.6
2025-12-31T1100,2865A,112.7195,37.6828,晋中市,榆次三中,,46,46,79,12,29,46,46,39,39,19,29,9,10,0.4,0.6
2025-12-31T1100,4200A,112.7478,37.6954,晋中市,迎宾街26号,,48,48,77,19,32,45,45,39,39,21,35,10,12,0.4,0.5
2025-12-31T1100,2439A,112.2014,31.0481,荆门市,竹园小学,细颗粒物(PM2.5),188,160,157,141,124,33,33,69,56,25,24,1,2,0.8,0.5
2025-12-31T1100,2440A,112.1969,30.9891,荆门市,掇刀,细颗粒物(PM2.5),176,148,154,133,115,39,39,76,63,23,21,1,4,0.8,0.7
2025-12-31T1100,2441A,112.2213,31.0386,荆门市,石化一小,细颗粒物(PM2.5),188,166,167,141,125,30,30,61,50,26,24,7,8,1.3,1
2025-12-31T1100,3012A,112.1849,31.0362,荆门市,西山林语,细颗粒物(PM2.5),173,142,145,131,117,39,39,74,61,22,21,3,5,0.9,0.7
2025-12-31T1100,3547A,112.1632,31.0138,荆门市,龙泉中学南校,细颗粒物(PM2.5),155,136,156,118,118,50,50,80,69,11,12,6,9,0.5,0.3
2025-12-31T1100,1844A,112.2494,30.3197,荆州市,市图书馆,细颗粒物(PM2.5),149,,110,114,125,46,46,68,61,17,21,6,8,0.9,0.9
2025-12-31T1100,1845A,112.2008,30.3544,荆州市,市委党校,细颗粒物(PM2.5),152,,126,116,119,39,39,61,54,21,25,3,5,0.9,0.8
2025-12-31T1100,3194A,112.2747,30.3122,荆州市,管委会,细颗粒物(PM2.5),143,,120,109,122,44,44,63,58,16,24,5,7,0.9,1.1
2025-12-31T1100,4268A,112.1722,30.3366,荆州市,学苑路85号,细颗粒物(PM2.5),149,,123,114,114,45,45,73,65,20,21,1,1,0.9,0.8
2025-12-31T1100,2342A,117.3102,29.3867,景德镇市,王港中学,,,,,,,,,,,,,,,,
2025-12-31T1100,2343A,117.2117,29.2933,景德镇市,老干部活动中心,细颗粒物(PM2.5),72,70,57,52,48,83,83,70,70,10,26,8,8,0.8,0.8
2025-12-31T1100,2344A,117.1894,29.2789,景德镇市,兽医站,颗粒物(PM10),59,67,53,40,34,87,87,78,77,12,23,6,7,0.5,0.5
2025-12-31T1100,2346A,117.2461,29.2956,景德镇市,陶研所,细颗粒物(PM2.5),60,60,47,43,38,85,85,53,53,7,24,5,4,0.7,0.7
2025-12-31T1100,4289A,117.1542,29.2566,景德镇市,青少年活动中心,细颗粒物(PM2.5),68,76,62,49,38,89,89,83,80,14,29,3,11,0.9,0.9
2025-12-31T1100,1803A,115.9872,29.6815,九江市,十里,,,49,123,36,94,,,74,62,18,25,5,7,0.6,1
2025-12-31T1100,1804A,115.9584,29.7046,九江市,茅山头,,,,126,,90,53,53,68,57,,19,,6,0.6,1.1
2025-12-31T1100,1805A,115.9877,29.7295,九江市,西园,,48,48,118,18,86,60,60,72,61,29,39,2,3,0.5,1
2025-12-31T1100,1808A,115.9114,29.6038,九江市,综合工业园,颗粒物(PM10),54,57,129,27,115,61,61,74,63,23,33,2,3,0.7,0.8
2025-12-31T1100,1809A,116.0721,29.7535,九江市,石化总厂,颗粒物(PM10),54,58,128,11,104,61,61,67,58,18,26,6,7,0.4,0.9
2025-12-31T1100,1810A,115.9773,29.5698,九江市,庐山气象台,,,,,,,,,,,,,,,,
2025-12-31T1100,3190A,116.0254,29.6994,九江市,外国语学校,,40,40,113,24,78,50,50,60,50,21,26,7,8,0.6,1
2025-12-31T1100,4253A,116.0102,29.6594,九江市,莲花大道8号,,50,50,135,18,110,54,54,67,56,10,15,4,4,0.3,0.8
2025-12-31T1100,4240A,98.4958,39.7339,酒泉市,玉门东路5号,颗粒物(PM10),102,153,80,31,27,44,44,52,48,12,8,10,10,0.5,0.5
2025-12-31T1100,4241A,98.5099,39.7506,酒泉市,北大街108号,颗粒物(PM10),92,134,75,17,19,52,52,52,49,18,16,9,9,0.4,0.5
2025-12-31T1100,2698A,76.0072,39.4467,喀什地区,巡警大队,细颗粒物(PM2.5),58,61,74,41,50,16,16,45,36,22,20,4,3,0.8,0.8
2025-12-31T1100,2699A,75.9755,39.4694,喀什地区,吾办,细颗粒物(PM2.5),67,63,77,48,56,26,26,39,36,17,18,4,10,0.9,0.9
2025-12-31T1100,4027A,75.9483,39.4689,喀什地区,老干局,细颗粒物(PM2.5),74,72,84,54,54,31,31,39,38,19,17,2,2,1.0,1
2025-12-31T1100,1824A,114.3389,34.7781,开封市,肿瘤医院,,43,43,113,21,82,39,39,35,35,22,33,6,8,1.0,1.2
2025-12-31T1100,1826A,114.2885,34.7965,开封市,世纪星幼儿园,,43,43,100,19,96,41,41,37,37,23,34,5,6,0.4,0.6
2025-12-31T1100,3147A,114.3438,34.8106,开封市,龙亭公园,颗粒物(PM10),63,75,110,11,82,40,40,36,36,15,33,5,6,1.1,1.2
2025-12-31T1100,3210A,114.3644,34.7964,开封市,汴京公园,颗粒物(PM10),54,57,124,17,88,40,40,36,36,20,34,6,7,0.8,0.9
2025-12-31T1100,3473A,114.2485,34.8306,开封市,技师学院,,45,45,106,19,81,42,42,35,35,19,35,8,8,0.6,0.9
2025-12-31T1100,3592A,114.4644,34.7556,开封市,祥符区生态环境局,,34,34,119,18,93,36,36,33,33,31,40,13,8,0.5,0.7
2025-12-31T1100,1951A,84.895,45.6094,克拉玛依市,长征新村,细颗粒物(PM2.5),55,47,49,39,34,7,7,40,32,63,28,7,5,1.8,0.7
2025-12-31T1100,1952A,84.8988,45.5893,克拉玛依市,南林小区,颗粒物(PM10),52,53,48,31,29,5,5,43,29,42,14,5,1,2.3,1
2025-12-31T1100,1954A,84.905,44.3396,克拉玛依市,独山子区,细颗粒物(PM2.5),127,169,164,96,104,21,21,40,30,46,29,5,5,1.1,1
2025-12-31T1100,1955A,85.6979,46.098,克拉玛依市,乌尔禾区商贸楼,细颗粒物(PM2.5),58,,38,41,34,10,10,18,16,40,30,5,6,0.9,0.8
2025-12-31T1100,3612A,85.1045,45.6899,克拉玛依市,白碱滩区新站,,47,47,48,32,30,23,23,44,40,32,17,8,8,0.8,0.6
2025-12-31T1100,2697A,76.1454,39.7142,克孜勒苏柯尔克孜自治州,市人民政府,细颗粒物(PM2.5),58,63,72,41,51,43,43,54,53,16,14,6,5,0.4,0.4
2025-12-31T1100,3665A,76.1658,39.7157,克孜勒苏柯尔克孜自治州,克州文化中心,颗粒物(PM10),62,73,64,42,50,36,36,50,47,19,14,4,4,0.8,0.7
2025-12-31T1100,1450A,102.8204,24.8886,昆明市,呈贡新区,,23,22,27,16,12,71,71,48,45,12,20,5,4,0.5,0.5
2025-12-31T1100,1451A,102.6251,24.9608,昆明市,西山森林公园,,,,,,,,,,,,,,,,
2025-12-31T1100,1452A,102.7252,25.0902,昆明市,龙泉镇,,,,30,9,14,,,27,27,11,26,3,3,0.4,0.5
2025-12-31T1100,1453A,102.7266,25.0375,昆明市,东风东路,,25,25,24,13,15,66,66,53,50,20,20,8,5,0.6,0.4
2025-12-31T1100,1454A,102.6742,25.0669,昆明市,金鼎山,,32,32,32,11,17,67,67,44,44,13,20,5,4,0.4,0.4
2025-12-31T1100,1455A,102.6644,25.0401,昆明市,碧鸡广场,,28,28,31,18,19,62,62,29,29,18,26,8,5,0.6,0.5
2025-12-31T1100,3179A,102.7494,25.0119,昆明市,官渡区博物馆,,,,23,,16,70,70,43,40,,20,10,4,,0.5
2025-12-31T1100,3375A,102.8017,24.8336,昆明市,青年创业园,,24,20,21,15,14,76,76,47,47,5,12,6,4,0.6,0.6
2025-12-31T1100,3550A,102.7997,24.9786,昆明市,昆明学院,,23,23,24,13,14,73,73,40,36,10,16,5,3,0.3,0.4
2025-12-31T1100,3551A,102.5967,24.6736,昆明市,晋宁区生态环境分局,,24,,23,12,17,75,75,39,35,3,13,1,2,0.2,0.4
2025-12-31T1100,3552A,102.6678,24.9856,昆明市,云天化总部,,32,32,23,18,13,71,71,47,41,16,15,14,7,0.6,0.6
2025-12-31T1100,1456A,91.1319,29.6514,拉萨市,八廓街,,33,33,20,22,12,67,67,73,68,11,11,7,7,0.5,0.5
2025-12-31T1100,1457A,91.1221,29.6747,拉萨市,市环保局,,24,24,23,16,15,57,57,64,57,14,15,7,7,0.5,0.5
2025-12-31T1100,1458A,91.0874,29.6475,拉萨市,区监测站,,20,7,12,6,8,62,62,68,60,15,16,4,4,0.9,0.8
2025-12-31T1100,1459A,91.1774,29.6541,拉萨市,西藏大学,,20,14,14,7,6,63,63,72,65,13,13,5,6,0.3,0.3
2025-12-31T1100,1460A,90.9798,29.6588,拉萨市,区辐射站,,32,32,21,18,13,54,54,66,56,23,19,4,4,0.6,0.5
2025-12-31T1100,1461A,91.0834,29.6292,拉萨市,拉萨火车站,,26,26,16,8,8,55,55,64,51,24,18,4,4,0.6,0.5
2025-12-31T1100,2520A,109.2203,23.7256,来宾市,来宾技工学校,细颗粒物(PM2.5),84,102,72,62,51,42,42,21,21,30,31,18,10,0.7,0.7
2025-12-31T1100,3535A,109.1781,23.7297,来宾市,兴宾区政府,细颗粒物(PM2.5),75,74,64,55,45,55,55,25,22,22,17,10,7,0.7,0.7
2025-12-31T1100,4002A,109.2416,23.7461,来宾市,中南小学,细颗粒物(PM2.5),83,97,71,61,46,45,45,14,14,32,36,11,6,0.7,0.8
2025-12-31T1100,1477A,104.1373,35.9454,兰州市,榆中兰大校区,,,,,,,,,,,,,,,,
2025-12-31T1100,1479A,103.831,36.0464,兰州市,铁路设计院,,,,,,,,,,,,,,,,
2025-12-31T1100,3241A,103.7439,36.0842,兰州市,百合公园,,,,99,,66,,,35,35,22,62,,28,0.7,1.3
2025-12-31T1100,3242A,103.9611,35.998,兰州市,和平,,,,102,,82,43,43,49,48,12,33,,19,0.9,1.4
2025-12-31T1100,4236A,103.6293,36.0938,兰州市,庄浪东路808号,颗粒物(PM10),65,79,95,39,62,45,45,42,42,26,53,20,23,0.6,1.1
2025-12-31T1100,4237A,103.7251,36.1043,兰州市,安宁西路88号,颗粒物(PM10),56,62,102,38,64,53,53,48,48,17,55,10,23,0.5,0.8
2025-12-31T1100,4238A,103.8470,36.0676,兰州市,北滨河东路1号,细颗粒物(PM2.5),58,61,89,41,60,45,45,42,42,23,57,13,20,0.8,1.3
2025-12-31T1100,3245A,103.6633,36.533,兰州新区,新区管委会,,,,75,,47,,,53,53,26,25,10,22,0.5,0.7
2025-12-31T1100,3246A,103.6975,36.4789,兰州新区,舟曲中学,颗粒物(PM10),69,88,80,47,41,64,64,63,63,16,23,4,16,0.6,0.7
2025-12-31T1100,1067A,116.6708,39.5111,廊坊市,药材公司,,18,6,15,3,3,55,55,50,50,7,11,1,2,0.4,0.4
2025-12-31T1100,1068A,116.7214,39.5589,廊坊市,开发区,,,,11,7,4,57,57,51,51,,14,2,2,0.2,0.2
2025-12-31T1100,1070A,116.7244,39.5269,廊坊市,北华航天学院,,18,14,16,3,4,56,56,50,50,7,15,1,2,0.2,0.2
2025-12-31T1100,2919A,116.7022,39.5453,廊坊市,河北工业大学,,18,12,15,3,3,55,55,49,49,10,14,2,2,0.2,0.2
2025-12-31T1100,2535A,103.7723,29.5462,乐山市,花湖湾,,,,,,,,,,,,,,,,
2025-12-31T1100,2536A,103.7627,29.5844,乐山市,牛耳桥,,,,100,,88,,,12,9,28,26,8,8,1.2,1
2025-12-31T1100,2537A,103.7508,29.6006,乐山市,市第三水厂,细颗粒物(PM2.5),84,79,105,62,80,19,19,9,9,33,31,6,6,0.8,0.8
2025-12-31T1100,2538A,103.7571,29.5664,乐山市,市监测站,细颗粒物(PM2.5),90,73,98,67,83,27,27,14,13,22,22,7,8,1.2,1.1
2025-12-31T1100,3361A,103.7311,29.5628,乐山市,理工大学,细颗粒物(PM2.5),85,70,93,63,76,26,26,16,16,27,22,6,5,1.1,1
2025-12-31T1100,2598A,100.2143,26.8576,丽江市,西南郊,,,,,,,,,,,,,,,,
2025-12-31T1100,2599A,100.2497,26.8802,丽江市,丽江古城,,,36,18,19,8,64,64,68,66,,10,8,8,,0.4
2025-12-31T1100,2600A,100.2203,26.8906,丽江市,市中心,,29,29,13,16,9,58,58,70,63,17,12,7,6,0.4,0.3
2025-12-31T1100,1267A,119.914,28.4514,丽水市,监测站大楼,颗粒物(PM10),61,72,83,25,85,72,72,25,24,19,29,6,6,0.4,0.7
2025-12-31T1100,1268A,119.93,28.4586,丽水市,莲都小学,,32,32,107,14,70,74,74,28,24,13,33,5,5,0.3,0.5
2025-12-31T1100,1269A,119.879,28.4231,丽水市,余庄前,细颗粒物(PM2.5),63,58,96,45,72,49,49,10,10,26,26,5,5,0.4,0.5
2025-12-31T1100,1173A,119.176,34.5885,连云港市,市环境监测站,,,27,35,7,18,46,46,46,46,,15,,10,0.5,0.5
2025-12-31T1100,3000A,119.3581,34.6972,连云港市,德源药业,,31,31,64,3,20,56,56,45,45,15,27,4,5,0.6,0.8
2025-12-31T1100,3007A,119.178,34.844,连云港市,新城一中,,42,42,61,8,26,56,56,42,42,11,29,11,14,0.3,0.7
2025-12-31T1100,3008A,119.3608,34.7519,连云港市,胡沟管理处,,19,9,33,3,17,58,58,50,50,12,33,5,9,0.4,0.6
2025-12-31T1100,3009A,119.1478,34.5911,连云港市,矿山设计院,,27,27,40,3,18,56,56,52,52,13,18,7,7,0.7,0.8
2025-12-31T1100,3434A,119.2413,34.6539,连云港市,工贸学校,,18,18,28,8,20,50,50,43,43,10,10,10,10,0.5,0.6
2025-12-31T1100,3664A,119.4172,34.7341,连云港市,连云街道,,16,12,27,6,17,51,51,45,45,20,20,4,10,0.4,0.6
2025-12-31T1100,2571A,102.3431,27.8099,凉山彝族自治州,青龙寺,,,,,,,,,,,,,,,,
2025-12-31T1100,2572A,102.2721,27.8415,凉山彝族自治州,邛海宾馆,细颗粒物(PM2.5),64,52,49,46,40,40,40,26,26,16,18,10,8,0.8,0.6
2025-12-31T1100,2573A,102.2625,27.898,凉山彝族自治州,西昌市政府,细颗粒物(PM2.5),78,64,42,57,31,31,31,35,28,29,15,9,10,1.1,0.8
2025-12-31T1100,2574A,102.2685,27.8851,凉山彝族自治州,凉山州政府,颗粒物(PM10),59,68,47,37,36,30,30,24,20,26,20,10,9,1.0,0.8
2025-12-31T1100,4229A,102.2342,27.8859,凉山彝族自治州,凯乐南路30号,细颗粒物(PM2.5),60,66,62,43,41,21,21,9,8,42,35,8,10,0.8,0.8
2025-12-31T1100,2212A,123.2,41.1953,辽阳市,宏伟区,,20,,26,14,18,43,43,44,44,4,10,6,6,0.3,0.6
2025-12-31T1100,2213A,123.1683,41.2495,辽阳市,新华园,,,25,28,8,13,,,35,34,7,16,6,8,0.7,0.8
2025-12-31T1100,2214A,123.2354,41.2639,辽阳市,滨河路,,20,20,29,11,16,43,43,39,39,3,14,5,5,0.5,0.6
2025-12-31T1100,2215A,123.149,41.2991,辽阳市,铁西工业园,,18,,32,12,22,41,41,21,21,8,26,8,9,0.4,0.6
2025-12-31T1100,2227A,125.1358,42.8845,辽源市,环保局,颗粒物(PM10),56,62,75,19,13,41,41,41,39,8,10,4,3,0.6,0.5
2025-12-31T1100,3239A,125.0764,42.9078,辽源市,银鹰制药,,,27,35,24,21,,,32,30,,17,4,6,0.5,0.6
2025-12-31T1100,1625A,115.9848,36.4372,聊城市,区政府,,44,44,76,22,49,39,39,34,33,33,43,20,19,0.8,1
2025-12-31T1100,2878A,116.0072,36.4343,聊城市,聊大东校,,44,44,82,18,51,45,45,37,34,25,39,18,16,0.9,1.1
2025-12-31T1100,3200A,115.9819,36.4978,聊城市,监控中心,,,34,75,12,54,44,44,36,34,,31,17,15,,0.7
2025-12-31T1100,3513A,116.0445,36.4361,聊城市,九州社区,颗粒物(PM10),51,52,83,14,49,53,53,45,40,18,29,9,10,0.5,0.7
2025-12-31T1100,4018A,116.0567,36.4608,聊城市,星美广场,颗粒物(PM10),54,57,95,16,52,47,47,32,31,20,37,10,10,0.6,0.8
2025-12-31T1100,2632A,94.3681,29.6376,林芝市,林芝监测站,,16,10,8,8,5,49,49,45,44,9,4,5,5,0.4,0.3
2025-12-31T1100,2633A,94.3616,29.6616,林芝市,林芝人民医院,,15,14,11,6,6,45,45,43,42,10,4,6,4,0.6,0.4
2025-12-31T1100,2603A,100.0781,23.8982,临沧市,市环保局,,49,46,30,34,33,29,29,24,19,17,12,4,5,0.6,0.5
2025-12-31T1100,2604A,100.0894,23.8822,临沧市,市气象局,,49,49,37,30,19,27,27,21,17,17,13,6,6,0.5,0.4
2025-12-31T1100,1733A,111.5531,36.0783,临汾市,临钢医院,颗粒物(PM10),81,112,112,58,63,29,29,29,22,24,34,10,18,0.8,1
2025-12-31T1100,1734A,111.5028,36.0714,临汾市,技工学校,,,,103,,58,25,25,20,17,,40,,18,,1.1
2025-12-31T1100,1736A,111.5018,36.0855,临汾市,市委,颗粒物(PM10),94,138,117,61,60,31,31,21,21,26,42,11,22,1.4,1.5
2025-12-31T1100,3018A,111.505,36.1014,临汾市,唐尧大酒店,颗粒物(PM10),79,108,106,53,54,28,28,19,19,27,44,8,18,0.9,1.1
2025-12-31T1100,4244A,111.4879,36.0530,临汾市,启星学校,颗粒物(PM10),79,107,106,56,59,29,29,25,21,29,44,9,21,0.9,1.2
2025-12-31T1100,4271A,103.2464,35.6123,临夏回族自治州,滨河东路1号,细颗粒物(PM2.5),144,166,160,110,102,19,19,17,17,38,38,7,9,1.9,1.7
2025-12-31T1100,4310A,103.2093,35.5995,临夏回族自治州,新华街21号,细颗粒物(PM2.5),150,165,145,115,101,15,15,17,14,36,41,10,16,1.7,1.6
2025-12-31T1100,1618A,118.3429,35.0532,临沂市,沂河小区,,33,29,75,23,61,53,53,43,43,21,34,10,11,0.5,0.7
2025-12-31T1100,1619A,118.295,35.0583,临沂市,鲁南制药厂,,27,27,68,17,50,55,55,47,47,21,34,11,13,0.4,0.6
2025-12-31T1100,1620A,118.2794,34.9976,临沂市,新光毛纺厂,,,27,69,17,54,,,46,45,14,29,9,12,0.4,0.7
2025-12-31T1100,1621A,118.3956,35.0888,临沂市,河东保险公司,,,27,71,11,45,,,43,43,10,30,11,11,0.5,0.8
2025-12-31T1100,3370A,118.3564,35.0215,临沂市,十里堡居委,,29,29,70,3,38,58,58,46,46,19,37,10,11,0.5,0.8
2025-12-31T1100,3496A,118.3604,35.1084,临沂市,南坊新区,,,24,66,17,46,,,46,45,15,32,10,11,0.3,0.7
2025-12-31T1100,3860A,118.3920,35.0300,临沂市,皇山花园小区,,24,24,67,13,44,59,59,50,50,16,32,12,14,0.4,0.8
2025-12-31T1100,1870A,109.4856,24.3895,柳州市,柳东小学,细颗粒物(PM2.5),85,78,58,63,45,52,52,52,44,31,23,9,9,0.8,0.7
2025-12-31T1100,1871A,109.4157,24.3277,柳州市,环保监测站,颗粒物(PM10),69,87,69,47,45,45,45,47,44,37,34,8,7,0.8,0.8
2025-12-31T1100,1872A,109.389,24.341,柳州市,河西水厂,颗粒物(PM10),82,113,83,52,46,29,29,35,32,48,36,7,6,1.2,1
2025-12-31T1100,1873A,109.4311,24.2921,柳州市,市四中,,,68,71,47,51,,,40,37,38,38,11,10,0.9,1
2025-12-31T1100,1874A,109.4006,24.3631,柳州市,市九中,细颗粒物(PM2.5),72,80,68,52,45,41,41,46,39,41,33,11,10,1.0,0.9
2025-12-31T1100,1875A,109.4958,24.3134,柳州市,古亭山,细颗粒物(PM2.5),70,66,54,51,35,35,35,43,40,39,30,10,9,0.7,0.6
2025-12-31T1100,3402A,109.5422,24.3996,柳州市,市二中,细颗粒物(PM2.5),84,72,57,62,43,41,41,28,28,39,33,9,8,0.8,0.7
2025-12-31T1100,2307A,116.5079,31.737,六安市,监测大楼,,,29,95,11,81,55,55,45,44,,28,4,4,0.4,0.6
2025-12-31T1100,2308A,116.4738,31.7643,六安市,皖西学院,,42,42,103,15,78,59,59,47,47,22,27,3,3,0.3,0.6
2025-12-31T1100,2309A,116.4996,31.7905,六安市,朝阳厂,,32,32,90,8,74,54,54,44,44,20,29,2,4,0.3,0.7
2025-12-31T1100,2310A,116.5567,31.7886,六安市,开发区,,30,30,98,18,69,53,53,45,45,23,26,2,2,0.3,0.6
2025-12-31T1100,2576A,104.8,26.5892,六盘水市,窑上,,40,35,36,28,26,45,45,22,20,9,10,3,3,0.5,0.5
2025-12-31T1100,2577A,104.83,26.5917,六盘水市,黄土坡,细颗粒物(PM2.5),57,51,38,40,28,34,34,19,16,29,21,24,9,1.3,0.9
2025-12-31T1100,2578A,104.89,26.5939,六盘水市,水钢,,49,45,33,34,23,48,48,44,43,14,12,11,4,0.5,0.5
2025-12-31T1100,2579A,104.8475,26.5894,六盘水市,民中,细颗粒物(PM2.5),70,82,39,51,35,17,17,26,16,43,21,15,7,1.2,0.9
2025-12-31T1100,2580A,104.9544,26.5506,六盘水市,双水,,,41,32,22,22,48,48,48,47,11,11,,3,,0.1
2025-12-31T1100,2335A,117.0189,25.1181,龙岩市,龙岩师专,,,,,,,,,,,,,,,,
2025-12-31T1100,2336A,117.0217,25.1033,龙岩市,龙岩市监测站,,32,32,36,13,23,87,87,62,62,15,27,16,21,0.5,0.6
2025-12-31T1100,2337A,117.0258,25.0661,龙岩市,闽西职业技术学院,,34,34,40,16,28,86,86,59,59,12,23,13,13,0.5,0.7
2025-12-31T1100,2338A,117.0196,25.0306,龙岩市,龙岩学院,,38,38,35,21,24,77,77,40,40,15,18,13,10,0.6,0.6
2025-12-31T1100,2665A,105.0822,33.3261,陇南市,汉王镇固水子,,,,,,,,,,,,,,,,
2025-12-31T1100,2885A,104.9339,33.3826,陇南市,滨江中学,颗粒物(PM10),54,58,73,37,40,22,22,24,18,20,21,7,8,0.9,0.9
2025-12-31T1100,3247A,104.955,33.371,陇南市,市总工会,颗粒物(PM10),61,72,70,43,41,19,19,22,18,24,19,4,4,1.1,1
2025-12-31T1100,2487A,111.9589,27.8901,娄底市,电视发射台,,,,,,,,,,,,,,,,
2025-12-31T1100,2488A,111.9975,27.725,娄底市,市监测站,细颗粒物(PM2.5),206,185,139,156,118,52,52,65,62,24,26,6,9,0.8,0.8
2025-12-31T1100,2489A,112.0194,27.7314,娄底市,市委党校,细颗粒物(PM2.5),202,191,142,152,111,46,46,69,59,41,31,7,8,0.8,0.8
2025-12-31T1100,2490A,111.9561,27.7569,娄底市,涟钢,细颗粒物(PM2.5),203,196,141,153,109,40,40,58,48,37,24,8,8,1.5,0.9
2025-12-31T1100,2491A,111.9892,27.7044,娄底市,市政府,细颗粒物(PM2.5),199,161,127,149,113,43,43,41,36,26,25,6,8,0.7,0.7
2025-12-31T1100,1893A,105.4324,28.9634,泸州市,九狮山,,,,,,,,,,,,,,,,
2025-12-31T1100,1894A,105.4427,28.9063,泸州市,小市上码头,细颗粒物(PM2.5),64,60,72,46,53,21,21,27,24,23,23,10,10,0.8,0.8
2025-12-31T1100,1895A,105.4241,28.8573,泸州市,兰田宪桥,,,59,70,56,58,,,26,25,18,20,7,7,0.9,1
2025-12-31T1100,1896A,105.4379,28.8833,泸州市,市环监站,细颗粒物(PM2.5),64,59,71,46,55,13,13,25,23,26,21,8,8,0.7,0.7
2025-12-31T1100,4272A,105.3689,28.7783,泸州市,纳溪中医医院,细颗粒物(PM2.5),67,55,62,48,57,10,10,29,23,28,18,7,7,1.0,0.9
2025-12-31T1100,2183A,111.1406,37.5211,吕梁市,环保局,颗粒物(PM10),70,90,73,42,32,24,24,5,5,27,34,14,8,0.7,0.5
2025-12-31T1100,2185A,111.1297,37.5136,吕梁市,自来水公司,颗粒物(PM10),75,99,84,42,38,25,25,7,7,29,34,15,10,0.8,0.6
2025-12-31T1100,2867A,111.1283,37.51,吕梁市,马茂庄小学,颗粒物(PM10),72,94,82,45,33,24,24,5,5,29,36,14,9,1.1,0.8
2025-12-31T1100,1812A,112.3931,34.6516,洛阳市,市委党校,,41,41,123,12,93,57,57,50,50,23,41,10,11,0.4,0.8
2025-12-31T1100,1815A,112.494,34.6886,洛阳市,河南林校,颗粒物(PM10),58,66,128,12,99,60,60,48,48,18,39,6,9,0.5,0.9
2025-12-31T1100,1816A,112.3844,34.623,洛阳市,开发区管委会,颗粒物(PM10),52,54,147,16,110,56,56,48,48,17,33,9,12,0.5,0.9
2025-12-31T1100,1817A,112.4267,34.6258,洛阳市,市委新办公区,,35,35,151,17,110,56,56,49,49,24,40,10,11,0.4,0.8
2025-12-31T1100,3340A,112.6005,34.6326,洛阳市,伊滨,,,46,151,15,103,,,50,50,14,38,,9,0.5,0.9
2025-12-31T1100,3341A,112.4951,34.6332,洛阳市,中移产业园,颗粒物(PM10),59,67,133,17,108,52,52,45,45,22,49,10,12,0.4,0.8
2025-12-31T1100,3593A,112.5736,34.8993,洛阳市,吉利监测站,,46,46,111,10,87,57,57,46,46,21,36,8,11,0.5,0.9
2025-12-31T1100,3635A,112.3677,34.662,洛阳市,河科大西苑校区,颗粒物(PM10),54,57,134,13,89,59,59,49,49,19,38,8,11,0.7,1.1
2025-12-31T1100,3636A,112.4388,34.6781,洛阳市,英才小学,颗粒物(PM10),52,54,136,20,100,61,61,51,51,25,42,7,11,0.4,1
2025-12-31T1100,4214A,112.4600,34.6949,洛阳市,春都路1号院,颗粒物(PM10),67,84,143,12,83,56,56,45,45,16,33,8,11,0.6,0.9
2025-12-31T1100,2399A,114.051,33.5699,漯河市,三五一五工厂,细颗粒物(PM2.5),82,97,165,60,125,34,34,28,24,18,26,9,9,0.7,0.9
2025-12-31T1100,2400A,114.0055,33.5698,漯河市,漯河大学,细颗粒物(PM2.5),77,99,147,56,113,35,35,25,23,20,27,8,8,0.6,0.8
2025-12-31T1100,2401A,114.0138,33.5828,漯河市,市水利局,细颗粒物(PM2.5),79,85,147,58,115,31,31,22,21,24,30,9,8,0.7,0.9
2025-12-31T1100,2402A,114.0261,33.5698,漯河市,市广电局,细颗粒物(PM2.5),83,93,150,61,118,34,34,25,22,16,25,9,8,0.6,0.8
2025-12-31T1100,3478A,113.9749,33.5664,漯河市,市图书馆,细颗粒物(PM2.5),83,93,166,61,122,32,32,23,22,19,27,7,7,0.9,1.1
2025-12-31T1100,4250A,114.0892,33.5882,漯河市,韶山路11号,细颗粒物(PM2.5),83,78,159,61,119,30,30,19,18,20,30,11,10,0.9,1
2025-12-31T1100,1798A,118.5092,31.6837,马鞍山市,湖东路四小,,29,29,66,7,39,69,69,58,58,12,21,4,4,0.3,0.5
2025-12-31T1100,1799A,118.5024,31.6449,马鞍山市,开发区,,27,27,77,8,46,68,68,59,59,14,24,4,5,0.4,0.6
2025-12-31T1100,1802A,118.6245,31.7241,马鞍山市,濮塘,,,,,,,,,,,,,,,,
2025-12-31T1100,3633A,118.4918,31.6809,马鞍山市,雨山,,30,30,72,8,42,72,72,61,61,10,20,5,6,0.4,0.6
2025-12-31T1100,4191A,118.5274,31.72227,马鞍山市,慈湖高新区,,,18,58,7,41,,,60,60,12,18,4,5,0.4,0.5
2025-12-31T1100,1686A,111.0286,21.4688,茂名市,电白南海,颗粒物(PM10),68,85,65,34,40,118,118,58,58,21,26,16,13,0.9,0.8
2025-12-31T1100,1687A,110.9294,21.6533,茂名市,茂石化七小,颗粒物(PM10),60,70,63,41,38,88,88,58,57,24,26,19,10,0.4,0.4
2025-12-31T1100,1688A,110.9107,21.6687,茂名市,健康路,颗粒物(PM10),63,75,55,44,37,97,97,79,74,25,22,18,12,0.8,0.7
2025-12-31T1100,1689A,110.8592,21.6828,茂名市,高岭,颗粒物(PM10),74,97,89,44,44,94,94,59,49,31,31,18,18,0.8,0.8
2025-12-31T1100,3450A,111.01,21.5165,茂名市,电白水东,颗粒物(PM10),70,90,58,41,36,101,101,73,73,22,20,18,13,0.7,0.6
2025-12-31T1100,2539A,104.0308,30.0478,眉山市,黑龙滩水库,,,,,,,,,,,,,,,,
2025-12-31T1100,2540A,103.8416,30.0874,眉山市,气象局,,,,114,,92,,,12,12,32,26,11,10,1.0,0.9
2025-12-31T1100,3137A,103.8578,30.0744,眉山市,市委党校,细颗粒物(PM2.5),134,134,103,102,86,10,10,13,11,31,25,8,7,1.1,0.9
2025-12-31T1100,3148A,103.8291,30.0564,眉山市,区人社局,细颗粒物(PM2.5),128,119,108,97,91,23,23,15,15,30,26,8,7,0.9,0.8
2025-12-31T1100,1690A,116.1231,24.3284,梅州市,梅江月梅,颗粒物(PM10),57,63,48,37,32,39,39,8,8,39,32,8,6,0.8,0.6
2025-12-31T1100,1691A,116.0797,24.2719,梅州市,梅县新城,细颗粒物(PM2.5),57,54,54,40,37,51,51,10,10,28,39,12,9,0.7,0.7
2025-12-31T1100,1692A,116.1248,24.2654,梅州市,环境监控中心,细颗粒物(PM2.5),62,68,53,44,31,49,49,8,8,30,38,12,9,0.6,0.6
2025-12-31T1100,3315A,116.1233,24.2991,梅州市,梅龙,细颗粒物(PM2.5),59,56,52,42,33,34,34,8,8,34,37,11,11,0.8,0.8
2025-12-31T1100,1878A,104.7778,31.4741,绵阳市,富乐山,细颗粒物(PM2.5),109,91,106,82,93,15,15,7,6,26,22,11,11,0.8,0.8
2025-12-31T1100,1880A,104.6697,31.4668,绵阳市,高新区自来水公司,细颗粒物(PM2.5),110,90,115,83,92,6,6,8,4,35,32,8,8,0.8,0.8
2025-12-31T1100,1881A,104.7287,31.5075,绵阳市,三水厂,细颗粒物(PM2.5),120,117,126,91,99,4,4,5,3,44,35,8,8,1.0,1
2025-12-31T1100,3491A,104.69,31.5322,绵阳市,西科大附属小学,,,92,119,71,91,,,5,5,28,31,8,8,1.1,1
2025-12-31T1100,3492A,104.5648,31.5343,绵阳市,安州区旅游局,细颗粒物(PM2.5),107,,87,80,91,5,5,11,5,30,31,16,13,1.1,1
2025-12-31T1100,4226A,104.7651,31.4531,绵阳市,绵阳市气象局,细颗粒物(PM2.5),87,,105,64,88,20,20,15,12,22,22,3,9,1.4,1.4
2025-12-31T1100,1784A,129.61,44.561,牡丹江市,环保大楼,,48,48,35,20,23,45,45,40,39,6,9,8,8,0.6,0.6
2025-12-31T1100,1785A,129.6115,44.5782,牡丹江市,文化广场,,29,27,34,20,25,45,45,39,39,5,9,4,4,0.4,0.5
2025-12-31T1100,1787A,129.6364,44.6075,牡丹江市,机车工厂,,30,30,36,11,23,48,48,39,39,6,11,2,3,0.2,0.3
2025-12-31T1100,1788A,129.6386,44.5462,牡丹江市,第一中学,,25,20,25,17,19,44,44,36,36,3,7,4,4,0.3,0.3
2025-12-31T1100,4287A,129.5992,44.5964,牡丹江市,东晓云街98号,,29,28,31,20,27,42,42,37,37,4,7,4,4,0.5,0.5
2025-12-31T1100,2531A,105.0703,29.61,内江市,市监测站,细颗粒物(PM2.5),92,82,65,68,64,28,28,41,38,25,18,6,5,1.0,0.9
2025-12-31T1100,2532A,105.0717,29.5947,内江市,东兴区政府,细颗粒物(PM2.5),88,75,65,65,61,14,14,30,25,35,22,4,4,0.7,0.6
2025-12-31T1100,2533A,105.0653,29.5817,内江市,内江二中,细颗粒物(PM2.5),89,87,76,66,64,17,17,31,26,29,23,4,4,0.9,0.8
2025-12-31T1100,2534A,105.0406,29.5822,内江市,内江日报社,细颗粒物(PM2.5),80,65,68,59,61,16,16,28,21,30,28,3,2,0.7,0.7
2025-12-31T1100,2628A,92.0657,31.4846,那曲市,那曲监测站,细颗粒物(PM2.5),98,96,46,73,29,44,44,36,36,33,28,20,12,1.2,1.4
2025-12-31T1100,4243A,92.0515,31.4787,那曲市,那曲市委宣传部,细颗粒物(PM2.5),84,84,27,62,16,28,28,22,20,30,16,22,8,2.0,1
2025-12-31T1100,1290A,115.8931,28.6843,南昌市,省外办,细颗粒物(PM2.5),104,97,134,78,112,64,64,78,69,32,35,8,9,1.2,1.5
2025-12-31T1100,1291A,115.8886,28.7003,南昌市,省林业公司,细颗粒物(PM2.5),89,97,128,66,104,61,61,70,61,19,27,4,5,0.9,1.2
2025-12-31T1100,1292A,115.8126,28.7442,南昌市,林科所,颗粒物(PM10),102,153,132,61,94,56,56,80,67,26,23,6,7,0.5,0.6
2025-12-31T1100,1294A,115.8518,28.687,南昌市,建工学校,颗粒物(PM10),103,156,147,67,106,51,51,67,57,27,32,12,14,0.7,0.9
2025-12-31T1100,1295A,115.8921,28.6424,南昌市,象湖,细颗粒物(PM2.5),94,92,118,70,106,53,53,68,59,23,27,10,10,0.9,1.1
2025-12-31T1100,1296A,115.7423,28.7996,南昌市,武术学校,,,,,,,,,,,,,,,,
2025-12-31T1100,3046A,115.9084,28.6062,南昌市,机电学校,细颗粒物(PM2.5),107,119,147,80,110,59,59,74,64,21,26,6,7,0.8,0.9
2025-12-31T1100,3690A,115.9721,28.7031,南昌市,外国语学校,细颗粒物(PM2.5),120,108,147,91,109,47,47,66,56,24,28,11,13,0.7,0.9
2025-12-31T1100,4192A,115.9316,28.68677,南昌市,南京东路235号,细颗粒物(PM2.5),110,108,135,83,125,56,56,71,62,30,35,6,7,0.4,0.6
2025-12-31T1100,1905A,106.056,30.8064,南充市,西山风景区,,,,,,,,,,,,,,,,
2025-12-31T1100,1906A,106.0789,30.8023,南充市,南充市委,细颗粒物(PM2.5),69,52,94,50,84,7,7,14,10,22,26,4,4,0.8,0.8
2025-12-31T1100,1907A,106.1031,30.8217,南充市,南充炼油厂,,,,96,,89,7,7,17,11,,21,6,6,,1
2025-12-31T1100,4227A,106.1083,30.7884,南充市,梨树横街98号,细颗粒物(PM2.5),58,45,88,41,76,9,9,,,25,25,5,6,0.8,0.8
2025-12-31T1100,4304A,106.1172,30.843,南充市,清泉寺北路188号,细颗粒物(PM2.5),62,55,79,44,72,12,12,18,12,16,19,5,5,0.9,0.9
2025-12-31T1100,4305A,106.067,30.7616,南充市,同庆路1号,细颗粒物(PM2.5),58,53,86,41,79,8,8,18,11,23,27,6,6,1.4,1.1
2025-12-31T1100,1151A,118.8086,32.1065,南京市,迈皋桥,,23,22,47,3,25,72,72,56,56,10,17,4,4,0.8,0.8
2025-12-31T1100,1152A,118.7538,32.0551,南京市,草场门,,27,27,47,12,26,59,59,51,49,19,25,7,6,0.2,0.3
2025-12-31T1100,1153A,118.7794,32.0745,南京市,山西路,,22,22,51,3,24,68,68,51,51,12,26,3,4,0.2,0.4
2025-12-31T1100,1154A,118.7752,32.0023,南京市,中华门,,23,17,46,3,25,72,72,58,57,2,7,4,4,0.3,0.3
2025-12-31T1100,1155A,118.8109,32.0309,南京市,瑞金路,,,22,40,9,27,42,42,57,52,,19,,4,0.4,0.5
2025-12-31T1100,1156A,118.7997,32.0754,南京市,玄武湖,,24,24,50,3,24,63,63,45,45,17,24,4,4,0.2,0.4
2025-12-31T1100,1157A,118.6414,32.0931,南京市,浦口,,27,27,60,12,37,60,60,51,51,20,29,8,8,0.3,0.5
2025-12-31T1100,1158A,118.7356,31.9996,南京市,奥体中心,,25,22,51,3,28,80,80,71,70,7,17,4,4,0.3,0.4
2025-12-31T1100,1159A,118.9125,32.1028,南京市,仙林大学城,细颗粒物(PM2.5),52,,46,36,31,66,66,50,50,13,23,7,7,0.5,0.6
2025-12-31T1100,3422A,118.8436,31.9198,南京市,江宁彩虹桥,,25,25,57,9,28,66,66,58,58,12,16,5,4,0.3,0.4
2025-12-31T1100,3427A,118.8554,32.3578,南京市,六合雄州,,22,17,38,3,21,69,69,58,58,11,16,6,8,0.4,0.5
2025-12-31T1100,4249A,118.8708,31.3402,南京市,汶溪路181号,,24,24,80,14,59,70,70,53,53,21,32,6,6,0.4,0.6
2025-12-31T1100,4312A,119.019,31.6512,南京市,中山西路1号,,,24,53,9,45,,,42,42,18,30,4,4,0.8,1
2025-12-31T1100,1401A,108.3103,22.7881,南宁市,二十一中,细颗粒物(PM2.5),63,66,68,45,55,83,83,56,56,16,22,6,6,0.8,0.8
2025-12-31T1100,1402A,108.3141,22.8528,南宁市,北湖,细颗粒物(PM2.5),62,60,76,44,56,86,86,64,64,22,38,6,5,0.8,1
2025-12-31T1100,1403A,108.3206,22.8225,南宁市,市监测站,,,68,73,50,54,80,80,59,59,16,23,9,8,,0.9
2025-12-31T1100,1404A,108.3829,22.8037,南宁市,大自然花园,细颗粒物(PM2.5),69,67,71,50,54,92,92,65,65,17,23,8,7,0.8,0.8
2025-12-31T1100,1405A,108.4394,22.7904,南宁市,仙葫,,,,,,,,,,,,,,,,
2025-12-31T1100,1406A,108.2397,22.8467,南宁市,区农职院,细颗粒物(PM2.5),63,56,76,45,55,85,85,38,38,22,38,10,9,0.9,1
2025-12-31T1100,1407A,108.3275,22.735,南宁市,英华嘉园,细颗粒物(PM2.5),68,67,73,49,59,80,80,50,50,21,36,6,5,0.7,0.8
2025-12-31T1100,3401A,108.4834,22.7618,南宁市,红星社区,细颗粒物(PM2.5),69,54,72,50,56,97,97,38,38,11,30,8,6,0.7,0.8
2025-12-31T1100,4221A,108.2177,22.7774,南宁市,乐贤路16号,细颗粒物(PM2.5),54,47,79,38,54,83,83,41,41,16,46,4,4,0.7,0.9
2025-12-31T1100,2331A,118.0966,26.6761,南平市,茫荡山,,,,34,,22,,,87,,,,,1,,
2025-12-31T1100,2332A,118.1681,26.6369,南平市,南平市监测站,,50,50,36,34,29,52,52,39,37,32,27,12,6,1.0,0.8
2025-12-31T1100,2333A,118.1825,26.6489,南平市,南平铝业有限公司,细颗粒物(PM2.5),53,47,40,37,29,39,39,36,34,30,29,14,8,1.0,0.8
2025-12-31T1100,2334A,118.1756,26.6272,南平市,南平七中,细颗粒物(PM2.5),60,55,38,43,28,45,45,41,37,37,24,24,9,1.0,0.7
2025-12-31T1100,1168A,120.9098,31.9663,南通市,狼山街道,,,26,24,10,10,,,54,54,6,14,3,3,0.5,0.5
2025-12-31T1100,1169A,120.86,32.0005,南通市,虹桥,,34,34,23,10,12,72,72,55,55,16,19,3,2,0.3,0.3
2025-12-31T1100,1170A,120.87,32.02,南通市,城中,,38,38,31,10,13,72,72,50,50,11,20,5,4,0.4,0.4
2025-12-31T1100,1171A,120.94,31.93,南通市,星湖花园,,31,31,25,9,12,73,73,58,58,8,18,4,4,0.5,0.5
2025-12-31T1100,1172A,120.81,32.0417,南通市,紫琅学院,,40,40,31,7,10,75,75,53,53,10,23,4,4,0.5,0.5
2025-12-31T1100,3291A,121.067,32.062,南通市,通州监测站,,29,29,18,9,6,82,82,69,69,15,18,5,3,0.4,0.4
2025-12-31T1100,3432A,120.9348,31.9883,南通市,环境教育馆,,41,41,25,10,9,82,82,53,53,7,21,5,4,0.3,0.3
2025-12-31T1100,2404A,112.5224,33.0122,南阳市,瓦房庄,细颗粒物(PM2.5),110,106,160,83,139,38,38,48,41,18,20,10,9,0.9,1
2025-12-31T1100,2405A,112.5003,32.9735,南阳市,汉画馆,细颗粒物(PM2.5),103,123,169,77,129,37,37,50,42,20,23,9,8,0.9,1
2025-12-31T1100,2406A,112.5573,33.027,南阳市,气象站,细颗粒物(PM2.5),98,133,189,73,129,38,38,50,42,20,23,9,8,0.7,0.8
2025-12-31T1100,2407A,112.5481,32.9689,南阳市,理工学院,颗粒物(PM10),81,112,162,59,110,37,37,49,41,20,23,9,8,0.9,1
2025-12-31T1100,4008A,112.5234,32.9922,南阳市,卧龙区政府,细颗粒物(PM2.5),104,109,183,78,129,37,37,47,40,22,25,9,8,0.9,1
2025-12-31T1100,1234A,121.8358,29.911,宁波市,区环保大楼,,38,38,38,14,24,64,64,55,55,27,33,6,5,0.5,0.5
2025-12-31T1100,1235A,121.56,29.82,宁波市,万里学院,,32,32,45,11,22,71,71,67,66,21,22,5,5,0.5,0.5
2025-12-31T1100,1236A,121.713,29.9572,宁波市,龙赛医院,,39,39,34,11,17,74,74,71,71,15,16,4,3,0.4,0.4
2025-12-31T1100,1239A,121.633,29.7733,宁波市,钱湖水厂,,27,27,37,10,23,73,73,64,64,20,24,7,6,0.5,0.5
2025-12-31T1100,1240A,121.5856,29.8635,宁波市,太古小学,,41,41,35,17,20,74,74,73,71,18,13,3,3,0.5,0.5
2025-12-31T1100,1241A,121.524,29.8674,宁波市,市环境监测中心,,31,31,41,9,15,74,74,62,62,14,16,6,6,0.5,0.5
2025-12-31T1100,2871A,121.6147,29.9017,宁波市,万里国际学校,,31,31,45,11,18,74,74,72,72,20,19,4,4,0.4,0.4
2025-12-31T1100,3710A,121.5594,29.8975,宁波市,白沙活动中心,,28,28,45,12,18,72,72,68,68,18,19,5,5,0.3,0.3
2025-12-31T1100,2339A,119.5001,26.6946,宁德市,金涵水库,,,,45,,31,,,70,,,13,,2,,0.5
2025-12-31T1100,2341A,119.5388,26.6612,宁德市,宁德市监测站,细颗粒物(PM2.5),55,54,41,39,32,83,83,54,49,22,25,7,7,0.6,0.6
2025-12-31T1100,3209A,119.5231,26.6562,宁德市,宁德一中,细颗粒物(PM2.5),62,61,53,44,38,87,87,68,62,19,19,6,7,0.6,0.6
2025-12-31T1100,2618A,98.8601,25.8567,怒江傈僳族自治州,州监测站,,39,39,33,27,22,33,33,25,25,14,15,8,7,0.5,0.5
2025-12-31T1100,2619A,98.8546,25.8417,怒江傈僳族自治州,泸水一中,,48,,29,33,22,22,22,16,14,18,19,6,6,0.7,0.7
2025-12-31T1100,1888A,101.6891,26.571,攀枝花市,弄弄坪,细颗粒物(PM2.5),98,132,78,73,44,11,11,5,5,63,44,28,19,2.0,1.5
2025-12-31T1100,1889A,101.5769,26.5928,攀枝花市,河门口,颗粒物(PM10),60,70,52,39,32,23,23,12,10,32,26,24,23,1.7,1.3
2025-12-31T1100,1890A,101.7169,26.585,攀枝花市,炳草岗,细颗粒物(PM2.5),129,146,99,98,58,,,5,5,46,45,19,14,1.4,1.2
2025-12-31T1100,1891A,101.7369,26.5008,攀枝花市,仁和,颗粒物(PM10),51,52,45,32,27,31,31,20,18,35,24,19,13,1.5,1.1
2025-12-31T1100,2835A,101.7227,26.567,攀枝花市,四十中小,细颗粒物(PM2.5),113,130,80,85,52,16,16,5,5,44,47,24,17,1.3,1.5
2025-12-31T1100,1604A,122.0303,41.1489,盘锦市,开发区,,21,21,25,9,7,45,45,37,37,4,8,3,4,0.6,0.5
2025-12-31T1100,1605A,122.0485,41.0883,盘锦市,兴隆台,,15,15,22,7,8,45,45,37,35,12,15,6,5,0.6,0.5
2025-12-31T1100,1606A,121.8297,41.1028,盘锦市,新生街道,,24,24,20,10,5,45,45,22,22,10,21,5,4,0.4,0.4
2025-12-31T1100,1832A,113.3257,33.742,平顶山市,新华旅馆,颗粒物(PM10),64,78,165,32,113,38,38,34,34,24,37,9,10,0.8,1
2025-12-31T1100,1833A,113.2919,33.737,平顶山市,规划设计院,颗粒物(PM10),61,72,187,38,121,42,42,38,38,24,42,8,9,0.6,0.8
2025-12-31T1100,1834A,113.182,33.774,平顶山市,平顶山工学院,颗粒物(PM10),61,71,166,31,118,46,46,41,41,21,32,8,9,0.4,0.7
2025-12-31T1100,3204A,113.3025,33.73,平顶山市,规划局,颗粒物(PM10),73,95,176,37,119,43,43,38,38,20,35,8,10,0.8,1
2025-12-31T1100,3594A,112.8867,33.9116,平顶山市,石龙区,颗粒物(PM10),68,86,161,47,117,53,53,48,48,21,32,8,8,0.6,0.9
2025-12-31T1100,2656A,106.6692,35.5461,平凉市,聚贤嘉苑,,,,88,,54,,,42,42,16,45,12,8,0.8,1
2025-12-31T1100,2657A,106.7021,35.5307,平凉市,博物馆,细颗粒物(PM2.5),60,49,92,43,60,51,51,39,39,17,43,10,12,0.7,1
2025-12-31T1100,2347A,114.0997,27.5002,萍乡市,武功山,,,,,,,,,,,,,,,,
2025-12-31T1100,2348A,113.8385,27.6434,萍乡市,中医院,细颗粒物(PM2.5),130,144,155,99,108,96,96,45,45,24,43,10,12,1.1,1.6
2025-12-31T1100,2349A,113.8493,27.6253,萍乡市,市政府车库,细颗粒物(PM2.5),115,118,145,87,107,98,98,33,33,16,34,10,12,1.0,1.5
2025-12-31T1100,2350A,113.8676,27.6435,萍乡市,市环保局,细颗粒物(PM2.5),139,137,125,106,100,108,108,54,54,23,41,17,20,0.6,0.9
2025-12-31T1100,2351A,113.866,27.6198,萍乡市,安源区政府,细颗粒物(PM2.5),152,158,164,116,149,81,81,32,32,28,43,15,17,1.8,1.6
2025-12-31T1100,2319A,119.0141,25.4325,莆田市,荔城区仓后路,,47,47,44,23,25,91,91,98,92,12,12,5,3,0.6,0.6
2025-12-31T1100,2320A,119.0015,25.4553,莆田市,莆田市监测站,,40,40,34,21,23,96,96,105,99,10,10,6,5,0.5,0.4
2025-12-31T1100,2321A,119.1119,25.4561,莆田市,涵江区六中,,40,40,40,22,26,89,89,99,90,12,12,6,5,0.6,0.5
2025-12-31T1100,2322A,119.1013,25.3215,莆田市,秀屿区政府,,,58,46,20,29,91,91,100,92,,16,3,5,,0.6
2025-12-31T1100,2323A,118.981,25.4792,莆田市,东圳水库,,,,28,,23,,,103,,,1,,5,,0.4
2025-12-31T1100,2392A,115.0312,35.7636,濮阳市,环保局,,35,34,80,24,66,31,31,29,29,24,35,9,11,0.9,1.1
2025-12-31T1100,2394A,115.0574,35.7609,濮阳市,油田运输公司,,50,50,83,23,71,33,33,31,30,27,40,11,13,1.1,1.4
2025-12-31T1100,3021A,115,35.7668,濮阳市,濮水河管理处,,50,50,98,23,73,32,32,30,29,36,46,10,12,0.7,1.2
2025-12-31T1100,4216A,115.0924,35.7686,濮阳市,任丘路479号,,47,47,105,23,80,33,33,32,31,35,50,9,11,0.7,1
2025-12-31T1100,2601A,100.98,22.7633,普洱市,市环保局,,,55,43,21,14,,,14,14,15,10,4,4,0.5,0.4
2025-12-31T1100,2602A,100.9817,22.8322,普洱市,普洱第二中学,,38,38,36,14,18,37,37,12,12,12,17,5,5,0.4,0.4
2025-12-31T1100,2262A,131.0518,45.8751,七台河市,新一中,,,,,,,,,,,,,,,,
2025-12-31T1100,3345A,131.0577,45.7879,七台河市,中波台,颗粒物(PM10),63,75,39,17,20,39,39,34,34,8,13,6,7,0.3,0.4
2025-12-31T1100,3637A,131.0176,45.7761,七台河市,人民广场,,,66,36,17,24,23,23,37,33,12,16,,7,0.4,0.5
2025-12-31T1100,3684A,130.8781,45.8222,七台河市,新建矿广场,颗粒物(PM10),58,66,33,18,25,39,39,34,34,4,8,7,7,0.3,0.3
2025-12-31T1100,1779A,123.9305,47.3636,齐齐哈尔市,安居小区,,33,33,24,11,16,39,39,32,31,12,14,1,2,0.7,0.7
2025-12-31T1100,1780A,123.9488,47.3386,齐齐哈尔市,中心广场,,25,,16,17,8,35,35,34,34,15,6,7,6,0.5,0.5
2025-12-31T1100,1781A,123.9483,47.3227,齐齐哈尔市,农牧车辆厂,,22,22,18,12,9,36,36,33,32,9,9,5,4,0.6,0.6
2025-12-31T1100,1783A,123.945,47.2988,齐齐哈尔市,市环境监测站,,24,24,17,15,9,40,40,37,36,8,8,8,6,0.3,0.4
2025-12-31T1100,3662A,123.6333,47.2075,齐齐哈尔市,富区青少年活动中心,,28,28,26,17,14,23,23,31,29,6,12,5,6,0.7,0.5
2025-12-31T1100,2591A,107.9783,26.5747,黔东南苗族侗族自治州,市环境监测站,细颗粒物(PM2.5),104,90,82,78,68,38,38,35,35,14,15,5,5,0.8,0.8
2025-12-31T1100,2881A,107.8908,26.5311,黔东南苗族侗族自治州,凯里学院,,,,76,73,59,,,39,39,15,14,,4,0.8,0.7
2025-12-31T1100,2593A,107.5228,26.2403,黔南布依族苗族自治州,小围寨,细颗粒物(PM2.5),62,46,40,44,36,9,9,21,20,26,12,6,5,0.9,0.7
2025-12-31T1100,3538A,107.5175,26.2978,黔南布依族苗族自治州,沙坝,,,58,42,48,36,,,8,5,34,19,6,4,1.1,0.9
2025-12-31T1100,2589A,104.9022,25.0925,黔西南布依族苗族自治州,场坝街,,,32,42,27,32,,,51,48,8,8,2,2,0.5,0.6
2025-12-31T1100,2590A,104.8811,25.0992,黔西南布依族苗族自治州,坪东大道,细颗粒物(PM2.5),54,,39,38,34,45,45,51,47,10,8,5,5,0.5,0.6
2025-12-31T1100,2502A,108.6236,21.9667,钦州市,市环保站,细颗粒物(PM2.5),100,102,86,75,53,89,89,45,45,28,32,14,7,0.9,0.7
2025-12-31T1100,2503A,108.6549,21.9481,钦州市,沙埠小学,细颗粒物(PM2.5),92,104,83,68,49,90,90,34,34,25,40,15,8,0.9,0.7
2025-12-31T1100,2504A,108.5989,21.7431,钦州市,港区一小,,,,75,,45,,,31,31,35,47,13,12,,0.7
2025-12-31T1100,3404A,108.5959,21.9633,钦州市,北职校,细颗粒物(PM2.5),97,82,76,72,53,95,95,29,29,22,35,18,9,0.9,0.8
2025-12-31T1100,1043A,119.7493,40.0116,秦皇岛市,第一关,,,,32,21,24,,,20,20,19,39,5,10,0.3,0.4
2025-12-31T1100,1044A,119.5897,39.9499,秦皇岛市,监测站,,20,20,43,7,18,49,49,44,44,16,27,6,10,0.3,0.4
2025-12-31T1100,1046A,119.5251,39.9041,秦皇岛市,建设大厦,,33,,40,23,32,33,33,33,28,29,29,5,8,0.4,0.4
2025-12-31T1100,3132A,119.610547,39.943889,秦皇岛市,文明里,,15,14,36,3,18,48,48,46,46,3,13,7,11,0.2,0.3
2025-12-31T1100,4198A,119.5090,39.8253,秦皇岛市,北戴河轮滑馆,,19,19,39,6,14,41,41,31,29,20,22,4,7,0.4,0.7
2025-12-31T1100,1307A,120.6659,36.2403,青岛市,仰口,,,,,,,,,,,,,,,,
2025-12-31T1100,1310A,120.4134,36.0658,青岛市,市南区东部子站,,24,24,40,7,22,56,56,51,51,10,21,8,8,0.5,0.6
2025-12-31T1100,1311A,120.3664,36.1032,青岛市,四方区子站,,29,29,60,14,32,65,65,56,56,6,24,3,5,0.5,0.7
2025-12-31T1100,1312A,120.2994,36.054,青岛市,市南区西部子站,,31,31,51,10,27,49,49,39,39,10,28,5,6,0.3,0.6
2025-12-31T1100,1313A,120.4581,36.0858,青岛市,崂山区子站,,22,22,35,9,17,60,60,55,55,12,24,10,10,0.5,0.6
2025-12-31T1100,1315A,120.3999,36.3083,青岛市,城阳区子站,,,,50,0,24,57,57,52,47,10,26,,8,0.6,0.7
2025-12-31T1100,3362A,120.5014,36.4034,青岛市,即墨2号,,32,32,45,9,32,50,50,39,37,5,19,7,8,0.4,0.6
2025-12-31T1100,3642A,120.3503,36.0736,青岛市,市北区南部,,32,32,58,9,25,52,52,44,44,9,25,4,5,0.4,0.6
2025-12-31T1100,3643A,120.3948,36.1805,青岛市,李沧区北部,,29,29,51,12,35,57,57,48,48,8,28,9,9,0.7,0.9
2025-12-31T1100,4290A,120.1969,35.9546,青岛市,珠江路669号,,34,34,48,12,27,53,53,40,40,11,40,12,11,0.4,0.5
2025-12-31T1100,4291A,120.0424,35.8656,青岛市,黄岛区人民政府广场,,29,29,44,7,21,63,63,54,54,14,30,8,8,0.5,0.7
2025-12-31T1100,1702A,113.0426,23.691,清远市,环保大楼,,,,,,,,,,,,,,,,
2025-12-31T1100,1703A,113.0208,23.7106,清远市,凤城街办,细颗粒物(PM2.5),62,62,40,44,25,41,41,34,27,39,29,14,9,0.7,0.7
2025-12-31T1100,3025A,113.0477,23.6344,清远市,技师学院,,,59,45,37,27,35,35,14,14,42,38,,10,0.8,0.8
2025-12-31T1100,3318A,112.9903,23.7403,清远市,清新太和,颗粒物(PM10),53,55,35,36,22,56,56,57,47,32,20,16,12,0.6,0.5
2025-12-31T1100,3455A,113.076,23.7198,清远市,清城东城,,49,49,35,32,23,59,59,25,23,27,24,15,8,0.7,0.6
2025-12-31T1100,2661A,107.6325,35.7357,庆阳市,庆阳五中,,48,40,70,33,50,55,55,65,59,14,21,4,7,0.5,0.6
2025-12-31T1100,2662A,107.6364,35.7067,庆阳市,市环保局,,43,43,75,27,50,55,55,67,60,11,17,1,3,0.5,0.6
2025-12-31T1100,1916A,103.7897,25.5035,曲靖市,环境监测站,,,,21,16,10,,,53,53,9,10,4,2,0.3,0.3
2025-12-31T1100,1917A,103.8,25.5364,曲靖市,烟厂办公区,,25,25,21,12,11,71,71,58,58,9,10,4,4,0.2,0.3
2025-12-31T1100,3376A,103.7947,25.462,曲靖市,南苑二区,,24,17,14,9,12,76,76,62,62,4,5,4,4,0.3,0.3
2025-12-31T1100,3377A,103.7444,25.5261,曲靖市,曲靖师范学院,,31,31,26,11,15,74,74,46,46,7,14,3,4,0.3,0.4
2025-12-31T1100,1264A,118.8692,28.9398,衢州市,环保大楼,,25,25,111,15,83,68,68,71,66,16,29,4,6,0.3,0.7
2025-12-31T1100,1265A,118.8709,28.9666,衢州市,实验学校,,23,21,105,13,82,72,72,75,69,11,26,5,5,0.4,0.6
2025-12-31T1100,1266A,118.8621,28.9808,衢州市,衢州学院,,,20,105,11,81,,,74,69,14,26,4,6,0.5,0.8
2025-12-31T1100,1611A,118.5819,24.9117,泉州市,涂山街,颗粒物(PM10),52,53,43,27,25,86,86,90,81,17,16,4,4,0.6,0.5
2025-12-31T1100,1612A,118.5972,24.8978,泉州市,津头埔,颗粒物(PM10),52,53,41,33,27,84,84,87,78,18,18,5,5,0.6,0.5
2025-12-31T1100,1613A,118.6663,24.9424,泉州市,万安,颗粒物(PM10),53,55,46,23,22,88,88,88,81,13,15,4,4,0.5,0.5
2025-12-31T1100,1614A,118.6117,24.9604,泉州市,清源山,,,,106,,24,,,107,,,10,,4,,0.5
2025-12-31T1100,3529A,118.6333,24.9264,泉州市,城华南路,,49,49,44,30,26,87,87,93,86,18,17,5,6,0.6,0.6
2025-12-31T1100,2626A,88.8876,29.2718,日喀则市,日喀则监测站,,25,25,22,10,16,59,59,62,58,10,12,8,10,0.4,0.5
2025-12-31T1100,3726A,88.8781,29.2426,日喀则市,林业技术推广中心,,43,43,16,16,5,51,51,60,54,13,5,12,10,0.6,0.3
2025-12-31T1100,1659A,119.471,35.4209,日照市,监测站,,27,27,46,15,28,51,51,42,42,18,33,7,9,0.5,0.7
2025-12-31T1100,1660A,119.523,35.4216,日照市,市政府广场,,24,24,37,9,22,52,52,46,46,16,21,10,9,0.3,0.3
2025-12-31T1100,1661A,119.5587,35.4044,日照市,港务局,,29,29,42,18,30,53,53,44,44,17,25,9,8,0.4,0.4
2025-12-31T1100,3507A,119.5328,35.4625,日照市,职业技术学院,,,,37,,19,,,45,45,13,22,,8,0.6,0.7
2025-12-31T1100,3604A,119.3266,35.1044,日照市,岚山环保分局,,36,36,57,13,29,57,57,40,40,13,30,11,20,0.6,1.5
2025-12-31T1100,1835A,111.1922,34.7752,三门峡市,市政府,,45,45,114,25,110,62,62,54,53,17,24,8,11,0.3,0.7
2025-12-31T1100,1836A,111.1587,34.7942,三门峡市,开发区,,44,44,144,21,109,55,55,52,49,18,27,8,11,0.4,0.7
2025-12-31T1100,1838A,111.143,34.7955,三门峡市,风景区,,,,119,,113,,,81,,,22,,10,,1.1
2025-12-31T1100,3039A,111.1911,34.7829,三门峡市,三门峡市第一小学,,,52,121,17,104,59,59,51,51,16,24,,11,,0.7
2025-12-31T1100,3598A,111.1,34.7167,三门峡市,富达温泉假日酒店,颗粒物(PM10),55,60,136,26,108,65,65,53,53,25,38,11,15,0.4,0.8
2025-12-31T1100,2324A,117.6211,26.2625,三明市,三钢,,46,42,44,32,35,75,75,65,65,24,27,8,7,0.7,0.8
2025-12-31T1100,2325A,117.635,26.2714,三明市,三明二中,,40,,40,28,32,78,78,67,67,16,20,12,11,0.7,0.7
2025-12-31T1100,2326A,117.6028,26.2378,三明市,三元区政府,颗粒物(PM10),51,52,50,32,33,76,76,44,44,24,35,8,7,0.7,1
2025-12-31T1100,2327A,117.7275,26.3108,三明市,洋溪,,,,34,,41,,,57,,,13,,24,,1.7
2025-12-31T1100,1876A,109.5078,18.2489,三亚市,河东子站,,36,36,30,22,18,106,106,105,105,10,9,6,5,0.6,0.6
