timepoint,stationcode,longitude,latitude,area,positionname,primarypollutant,aqi,pm10,pm10_24h,pm2_5,pm2_5_24h,o3,o3_24h,o3_8h,o3_8h_24h,no2,no2_24h,so2,so2_24h,co,co_24h
2025-12-31T0600,2566A,102.1879,31.914,阿坝藏族羌族自治州,州农科所,,,,,,,,,,,,,,,,
2025-12-31T0600,2568A,102.2502,31.8896,阿坝藏族羌族自治州,马师校,,18,,23,12,22,27,27,,,10,21,4,5,0.6,0.7
2025-12-31T0600,3994A,102.2165,31.9024,阿坝藏族羌族自治州,马尔康中学西区,,10,8,18,3,12,29,29,,,11,16,5,6,0.5,0.6
2025-12-31T0600,2695A,80.292,41.1694,阿克苏地区,电视台,,45,45,49,27,31,49,49,,,13,17,4,4,0.6,0.6
2025-12-31T0600,2696A,80.2613,41.1551,阿克苏地区,艺术中心,,49,45,43,34,35,48,48,,,11,12,4,5,0.5,0.5
2025-12-31T0600,2204A,105.6467,38.8363,阿拉善盟,西城区西花园,,,,,,,,,,,,,,,,
2025-12-31T0600,2205A,105.6985,38.8411,阿拉善盟,蒙二幼,颗粒物(PM10),62,74,62,19,23,60,60,,,7,19,11,13,0.6,0.8
2025-12-31T0600,2206A,105.724,38.8516,阿拉善盟,环保局新楼,颗粒物(PM10),53,56,41,20,20,54,54,,,9,14,10,12,0.6,0.6
2025-12-31T0600,2708A,88.1264,47.8517,阿勒泰地区,市站,,28,6,7,6,4,88,88,,,4,20,3,2,0.6,0.6
2025-12-31T0600,2630A,80.1161,32.5,阿里地区,阿里监测站,,20,6,3,3,3,63,63,,,2,10,9,12,0.3,0.4
2025-12-31T0600,3192A,80.0903,32.5028,阿里地区,阿里藏医院,,28,25,15,19,9,32,32,,,25,13,12,13,0.8,0.5
2025-12-31T0600,2642A,109.0318,32.6537,安康市,香溪洞,,,,,,,,,,,,,,,,
2025-12-31T0600,2644A,109.0072,32.6975,安康市,汉滨区检察院,细颗粒物(PM2.5),148,118,110,113,72,95,95,,,13,27,4,7,0.6,0.7
2025-12-31T0600,4054A,109.0325,32.6913,安康市,市邮政管理局,细颗粒物(PM2.5),147,119,90,112,69,78,78,,,14,27,4,5,0.7,1
2025-12-31T0600,2291A,117.0809,30.5177,安庆市,环科院,颗粒物(PM10),64,77,157,33,124,43,43,,,13,17,6,7,0.4,0.8
2025-12-31T0600,2292A,117.0331,30.5119,安庆市,马山宾馆,颗粒物(PM10),64,78,158,39,123,49,49,,,16,24,6,7,0.8,1.2
2025-12-31T0600,2294A,116.9896,30.6145,安庆市,安庆大学,颗粒物(PM10),52,53,155,25,118,47,47,,,16,19,4,4,0.6,1.1
2025-12-31T0600,3173A,117.0598,30.5351,安庆市,市人大,颗粒物(PM10),64,77,160,35,126,45,45,,,10,17,6,7,0.4,0.9
2025-12-31T0600,3122A,105.9606,26.2611,安顺市,伍家关,,,,,,,,,,,,,,,,
2025-12-31T0600,3123A,105.9408,26.2431,安顺市,凤凰山,细颗粒物(PM2.5),52,40,32,36,28,47,47,,,13,14,7,10,0.7,0.8
2025-12-31T0600,3124A,105.9439,26.2564,安顺市,金钟山,,46,35,29,32,27,53,53,,,8,11,9,10,0.8,0.8
2025-12-31T0600,3125A,105.8983,26.2481,安顺市,娄家坡,,42,33,32,29,27,60,60,,,7,11,10,12,0.9,0.9
2025-12-31T0600,1818A,114.4839,36.0621,安阳市,棉研所,,,,,,,,,,,,,,,,
2025-12-31T0600,1819A,114.3551,36.1017,安阳市,红庙街,,35,35,92,22,76,26,26,,,24,39,5,7,0.8,0.9
2025-12-31T0600,1820A,114.361,36.0681,安阳市,银杏小区,,41,41,97,18,80,29,29,,,24,35,6,7,0.6,0.8
2025-12-31T0600,3141A,114.3922,36.0878,安阳市,信访局,,,40,97,25,79,30,30,,,28,39,,8,0.7,1
2025-12-31T0600,3669A,114.4705,36.0637,安阳市,左辅环卫站,,,52,114,17,61,,,,,22,31,5,8,0.8,0.9
2025-12-31T0600,3703A,114.2917,36.0949,安阳市,安钢职工学校,,31,31,112,18,86,27,27,,,26,39,7,9,0.8,1
2025-12-31T0600,1748A,123.044,41.1196,鞍山市,深沟寺,,18,18,27,7,15,44,44,,,10,19,7,11,0.7,0.7
2025-12-31T0600,1749A,123.011,41.0931,鞍山市,太阳城,,25,25,26,12,14,32,32,,,23,20,26,19,1.4,1
2025-12-31T0600,1750A,123.0485,41.1442,鞍山市,太平,,22,22,36,8,15,34,34,,,16,24,11,13,0.9,0.7
2025-12-31T0600,1751A,122.9642,41.0971,鞍山市,铁西三道街,,21,21,38,7,15,35,35,,,15,19,14,18,0.8,0.9
2025-12-31T0600,1753A,123.022,41.0821,鞍山市,明达新区,,22,22,26,8,12,35,35,,,17,18,23,17,1.2,0.8
2025-12-31T0600,1754A,123.1289,41.0228,鞍山市,千山,,,,,,,,,,,,,,,,
2025-12-31T0600,4201A,122.9446,41.0826,鞍山市,兴盛南路290号,,,41,56,24,30,17,17,,,40,38,,12,1.5,1.3
2025-12-31T0600,2195A,107.4212,40.761,巴彦淖尔市,附二中,,25,25,40,16,19,52,52,,,5,11,5,7,0.2,0.3
2025-12-31T0600,2196A,107.37,40.7372,巴彦淖尔市,市环保大楼,,,19,33,18,16,58,58,,,7,11,,7,0.3,0.4
2025-12-31T0600,1956A,86.1472,41.7538,巴音郭楞蒙古自治州,孔雀公园,,46,46,52,28,32,51,51,,,11,19,6,7,0.5,0.6
2025-12-31T0600,1957A,86.1972,41.7166,巴音郭楞蒙古自治州,棉纺厂,颗粒物(PM10),57,63,69,16,26,36,36,,,28,28,4,4,0.6,0.6
2025-12-31T0600,1958A,86.2357,41.7173,巴音郭楞蒙古自治州,经济开发区,颗粒物(PM10),52,54,56,25,25,42,42,,,9,17,4,5,0.5,0.5
2025-12-31T0600,2914A,106.7677,31.8794,巴中市,苏山坪,,,,,,,,,,,,,,,,
2025-12-31T0600,3181A,106.7768,31.8526,巴中市,市五中,细颗粒物(PM2.5),117,111,138,88,105,0,0,,,14,22,6,6,1.5,1.5
2025-12-31T0600,3183A,106.7418,31.8654,巴中市,圣泉水务公司,细颗粒物(PM2.5),83,70,104,61,85,1,1,,,18,26,5,5,0.8,1
2025-12-31T0600,3616A,106.7616,31.8344,巴中市,市中心医院,细颗粒物(PM2.5),134,112,126,102,107,1,1,,,20,26,7,7,1.3,1.3
2025-12-31T0600,2235A,122.7911,45.6077,白城市,洮北区环保局,,25,,32,17,22,35,35,,,9,13,3,5,0.2,0.3
2025-12-31T0600,2236A,122.8738,45.5725,白城市,市环保局,,25,,22,17,20,29,29,,,16,14,5,5,0.4,0.4
2025-12-31T0600,2231A,126.4219,41.9171,白山市,喜丰,颗粒物(PM10),61,71,50,35,26,11,11,,,35,25,9,12,0.8,0.7
2025-12-31T0600,2232A,126.4077,41.9419,白山市,环保局,,39,37,33,27,24,15,15,,,18,14,12,11,0.6,0.6
2025-12-31T0600,2647A,104.1724,36.5446,白银市,第三小学,,40,40,76,26,53,45,45,,,19,36,11,56,0.7,1.2
2025-12-31T0600,2648A,104.1465,36.5482,白银市,动力公司,,36,34,70,25,51,50,50,,,16,30,7,36,0.5,0.9
2025-12-31T0600,2512A,106.6103,23.9011,百色市,市监测站,细颗粒物(PM2.5),88,78,77,65,58,30,30,,,24,25,14,12,0.9,0.9
2025-12-31T0600,2513A,106.6538,23.8859,百色市,市中心血站,细颗粒物(PM2.5),87,73,83,64,68,88,88,,,22,27,23,14,1.2,1.1
2025-12-31T0600,3406A,106.6085,23.8798,百色市,祈福高中,细颗粒物(PM2.5),99,81,93,74,63,8,8,,,36,35,8,9,0.9,0.9
2025-12-31T0600,2270A,117.396,32.939,蚌埠市,工人疗养院,,34,34,97,13,67,49,49,,,16,22,4,5,0.3,0.6
2025-12-31T0600,2271A,117.3605,32.9427,蚌埠市,百货大楼,,22,20,86,15,63,55,55,,,12,24,4,5,0.2,0.5
2025-12-31T0600,2273A,117.4185,32.8911,蚌埠市,蚌埠学院,,25,22,84,17,65,33,33,,,43,40,5,7,0.2,0.5
2025-12-31T0600,2274A,117.3533,32.9673,蚌埠市,淮上区政府,,22,22,91,10,69,56,56,,,11,21,1,2,0.3,0.6
2025-12-31T0600,2275A,117.3145,32.8977,蚌埠市,高新区,,22,22,80,12,63,58,58,,,14,23,6,8,0.2,0.4
2025-12-31T0600,3715A,117.3092,32.9314,蚌埠市,蚌埠田家炳中学,,25,25,91,14,68,56,56,,,14,22,4,5,0.2,0.5
2025-12-31T0600,1585A,109.8756,40.6532,包头市,市环境监测站,,15,6,19,3,7,46,46,,,19,16,5,5,0.4,0.5
2025-12-31T0600,1587A,109.9991,40.5842,包头市,包头八中,,45,45,39,19,20,5,5,,,50,36,9,10,1.9,0.9
2025-12-31T0600,1588A,109.8538,40.6821,包头市,青山宾馆,,15,,15,3,5,48,48,,,11,9,8,8,0.5,0.5
2025-12-31T0600,1589A,109.8642,40.6288,包头市,惠龙物流,,14,8,14,3,6,44,44,,,20,15,9,8,0.4,0.4
2025-12-31T0600,1590A,110.0377,40.5546,包头市,东河鸿龙湾,,22,22,38,3,20,22,22,,,41,40,8,10,0.6,0.6
2025-12-31T0600,3283A,109.9154,40.5685,包头市,滨河大厦,,21,12,20,12,11,2,2,,,41,18,4,6,0.9,0.6
2025-12-31T0600,3419A,109.9447,40.6261,包头市,包头市委党校,,42,42,33,6,12,4,4,,,49,32,8,10,1.0,0.7
2025-12-31T0600,3683A,109.8331,40.6576,包头市,昆区政府,,17,9,15,3,6,53,53,,,17,13,7,6,0.5,0.4
2025-12-31T0600,1930A,107.185,34.3063,宝鸡市,庙沟村,,,,,,,,,,,,,,,,
2025-12-31T0600,1931A,107.0708,34.3017,宝鸡市,竹园沟,细颗粒物(PM2.5),119,,111,90,106,16,16,,,20,32,6,6,1.0,0.9
2025-12-31T0600,1932A,107.1906,34.3672,宝鸡市,三陆医院,细颗粒物(PM2.5),143,,146,109,130,8,8,,,52,52,4,6,1.2,1.1
2025-12-31T0600,1933A,107.1431,34.3547,宝鸡市,监测站,细颗粒物(PM2.5),133,,130,101,120,42,42,,,23,39,4,5,1.0,0.9
2025-12-31T0600,1934A,107.1186,34.3739,宝鸡市,技工学校,细颗粒物(PM2.5),133,,131,101,120,39,39,,,18,30,3,7,1.1,1
2025-12-31T0600,1936A,107.2058,34.3497,宝鸡市,文理学院,细颗粒物(PM2.5),129,,127,98,119,48,48,,,23,44,3,5,1.0,1
2025-12-31T0600,1937A,107.2386,34.3622,宝鸡市,三迪小学,细颗粒物(PM2.5),144,,135,110,127,47,47,,,20,48,2,5,1.2,1.1
2025-12-31T0600,4308A,107.3898,34.3601,宝鸡市,陈仓区北开路21号,细颗粒物(PM2.5),112,,146,84,124,40,40,,,31,45,4,26,1.1,1.1
2025-12-31T0600,1051A,115.493,38.8632,保定市,游泳馆,,26,26,46,3,17,49,49,,,5,24,1,3,0.3,0.4
2025-12-31T0600,1052A,115.5213,38.8959,保定市,华电二区,,26,23,44,18,30,41,41,,,11,27,3,3,0.3,0.5
2025-12-31T0600,1053A,115.4713,38.9108,保定市,接待中心,,20,20,45,3,18,41,41,,,12,24,3,2,0.2,0.4
2025-12-31T0600,1054A,115.4612,38.8416,保定市,地表水厂,,27,27,57,3,26,53,53,,,13,32,1,2,0.3,0.4
2025-12-31T0600,3581A,115.31981,38.95208,保定市,满城区生态环境分局,,19,19,57,3,24,25,25,,,37,48,2,6,0.3,0.5
2025-12-31T0600,3582A,115.47694,38.76408,保定市,清苑区第二中学,,38,38,61,3,23,34,34,,,22,35,3,3,0.2,0.4
2025-12-31T0600,3583A,115.62909,39.02311,保定市,徐水物探局,,12,12,51,7,25,38,38,,,22,37,1,4,0.3,0.5
2025-12-31T0600,4004A,115.4202,38.8656,保定市,双鹰农机,,17,14,46,9,22,52,52,,,11,28,4,5,0.1,0.3
2025-12-31T0600,4034A,115.5150,38.8590,保定市,植保所站,,24,24,49,9,27,44,44,,,14,34,3,3,0.2,0.3
2025-12-31T0600,2594A,99.1678,25.1081,保山市,市环境监测站,,19,,20,13,16,55,55,,,4,8,2,4,0.1,0.2
2025-12-31T0600,2595A,99.1711,25.1328,保山市,市环保局,,20,,27,14,19,64,64,,,2,5,4,4,0.4,0.4
2025-12-31T0600,1866A,109.2262,21.588,北海市,牛尾岭水库,,,,,,,,,,,,,,,,
2025-12-31T0600,1867A,109.1436,21.4086,北海市,海滩公园,细颗粒物(PM2.5),53,48,54,37,39,133,133,,,11,20,10,13,0.8,0.9
2025-12-31T0600,1868A,109.0981,21.4661,北海市,新市环保局,细颗粒物(PM2.5),64,,54,46,46,107,107,,,14,20,6,8,0.6,0.7
2025-12-31T0600,1869A,109.1778,21.5233,北海市,北海工业园,细颗粒物(PM2.5),104,105,76,78,60,47,47,,,26,21,20,12,0.7,0.7
2025-12-31T0600,3400A,109.1911,21.4415,北海市,龙潭自来水厂,细颗粒物(PM2.5),53,46,59,37,49,59,59,,,14,18,5,9,0.9,0.9
2025-12-31T0600,1001A,116.3621,39.8784,北京市,万寿西宫,,18,6,12,3,4,57,57,,,4,9,2,2,0.4,0.4
2025-12-31T0600,1002A,116.2202,40.2915,北京市,定陵,,,,,,,,,,,,,,,,
2025-12-31T0600,1003A,116.4174,39.9289,北京市,东四,,16,6,11,3,5,51,51,,,7,8,1,1,0.3,0.4
2025-12-31T0600,1004A,116.4072,39.8863,北京市,天坛,,18,6,12,3,5,57,57,,,6,9,3,3,0.2,0.3
2025-12-31T0600,1005A,116.462,39.9365,北京市,农展馆,,17,,7,3,3,53,53,,,7,7,4,4,0.4,0.3
2025-12-31T0600,1006A,116.3392,39.9295,北京市,官园,,16,6,12,3,6,51,51,,,8,11,3,3,0.3,0.3
2025-12-31T0600,1007A,116.2878,39.9611,北京市,海淀万柳,,14,7,13,3,4,42,42,,,17,14,2,2,0.3,0.3
2025-12-31T0600,1008A,116.6636,40.135,北京市,顺义新城,,16,8,10,3,4,49,49,,,7,8,4,4,0.3,0.3
2025-12-31T0600,1009A,116.6275,40.3275,北京市,怀柔镇,,16,6,5,3,3,50,50,,,7,4,6,6,0.3,0.3
2025-12-31T0600,1010A,116.2296,40.217,北京市,昌平镇,,16,7,11,3,5,50,50,,,7,3,4,4,0.4,0.3
2025-12-31T0600,1011A,116.3966,39.9821,北京市,奥体中心,,19,6,10,3,4,58,58,,,10,13,4,4,0.4,0.3
2025-12-31T0600,3281A,115.9718,40.4529,北京市,延庆夏都,,12,12,14,7,8,32,32,,,20,10,2,2,0.4,0.4
2025-12-31T0600,3418A,116.8336,40.4095,北京市,密云新城,,18,6,6,3,2,55,55,,,2,2,3,3,0.3,0.3
2025-12-31T0600,3671A,116.088,39.9726,北京市,门头沟三家店,,18,8,11,3,4,55,55,,,4,4,3,3,0.3,0.3
2025-12-31T0600,3672A,116.1541,39.8204,北京市,丰台云岗,,13,11,12,3,4,41,41,,,17,9,2,2,0.3,0.3
2025-12-31T0600,3673A,116.6804,39.9081,北京市,通州东关,,15,7,14,3,5,47,47,,,7,14,3,3,0.1,0.1
2025-12-31T0600,3674A,115.9577,39.7603,北京市,房山燕山,,13,12,10,3,4,40,40,,,12,5,3,3,0.2,0.1
2025-12-31T0600,3675A,116.4672,39.7733,北京市,大兴旧宫,,13,7,12,3,3,40,40,,,21,14,2,2,0.3,0.4
2025-12-31T0600,3694A,115.986,40.4563,北京市,延庆石河营,,12,12,12,6,6,28,28,,,23,11,2,3,0.3,0.3
2025-12-31T0600,3695A,116.6151,40.3053,北京市,怀柔新城,,15,,4,6,3,48,48,,,6,3,4,4,0.3,0.3
2025-12-31T0600,3696A,116.2545,39.8768,北京市,丰台小屯,,12,9,13,3,5,37,37,,,16,12,3,3,0.4,0.4
2025-12-31T0600,3697A,116.84,40.3844,北京市,密云镇,,18,8,9,3,3,56,56,,,3,6,2,2,0.3,0.3
2025-12-31T0600,4182A,116.1942,39.9158,北京市,八角北路9号,,13,12,12,3,4,39,39,,,13,5,1,2,0,0
2025-12-31T0600,4194A,117.0790,40.1518,北京市,洳河巡河路,,,,6,,3,,,53,,,3,,1,,0.3
2025-12-31T0600,1761A,123.8275,41.3064,本溪市,大峪,,24,24,43,13,24,14,14,,,29,29,7,9,0.8,1
2025-12-31T0600,1762A,123.7567,41.3325,本溪市,溪湖,,48,48,60,12,25,26,26,,,21,34,7,9,1.4,1
2025-12-31T0600,1763A,123.7169,41.3094,本溪市,彩屯,,21,21,43,3,29,40,40,,,13,30,9,8,0.6,0.9
2025-12-31T0600,1764A,123.7669,41.2864,本溪市,东明,,17,17,43,7,27,29,29,,,20,30,11,10,0.9,1.4
2025-12-31T0600,1765A,123.7992,41.2664,本溪市,新立屯,,21,21,34,8,20,18,18,,,23,30,9,11,0.8,1.3
2025-12-31T0600,1766A,123.8142,41.3472,本溪市,威宁,颗粒物(PM10),53,56,59,30,27,6,6,,,33,28,7,6,1.1,1
2025-12-31T0600,2587A,105.2864,27.3125,毕节市,八中,,12,12,32,3,22,29,29,,,7,13,8,9,0.8,1
2025-12-31T0600,2588A,105.31,27.2944,毕节市,师专,,11,6,26,3,19,35,35,,,7,15,7,9,0.8,0.9
2025-12-31T0600,4263A,105.3688,27.3598,毕节市,工业大道,,9,6,20,3,17,28,28,,,6,13,8,10,0.8,0.8
2025-12-31T0600,1629A,118.0018,37.3617,滨州市,第二水厂,细颗粒物(PM2.5),113,,65,85,37,29,29,,,26,36,9,12,0.5,0.7
2025-12-31T0600,1630A,117.9776,37.393,滨州市,北中新校,,44,44,64,29,40,2,2,,,50,41,6,9,0.4,0.6
2025-12-31T0600,3514A,117.9378,37.3956,滨州市,中海酒店,,39,36,62,27,44,13,13,,,41,33,8,11,0.6,0.7
2025-12-31T0600,3515A,117.9378,37.3553,滨州市,开发区一中,,27,27,66,12,42,29,29,,,22,28,9,13,0.4,0.7
2025-12-31T0600,3516A,118.0917,37.694,滨州市,金海六路,,19,19,54,3,30,40,40,,,20,36,9,17,0.3,0.6
2025-12-31T0600,4028A,117.9956,37.3753,滨州市,滨州市西街道办事处,,28,19,59,19,45,27,27,,,26,32,8,11,0.4,0.6
2025-12-31T0600,2311A,115.8072,33.8399,亳州市,污水处理厂,细颗粒物(PM2.5),127,114,131,96,106,24,24,,,36,30,10,8,0.8,0.7
2025-12-31T0600,2312A,115.7789,33.8518,亳州市,三国揽胜宫,细颗粒物(PM2.5),143,162,153,109,100,20,20,,,39,30,6,5,1.0,0.9
2025-12-31T0600,3332A,115.7633,33.8034,亳州市,亳州学院,细颗粒物(PM2.5),135,135,131,103,105,28,28,,,34,27,10,6,0.9,0.8
2025-12-31T0600,2693A,82.0485,44.8556,博尔塔拉蒙古自治州,市党校,颗粒物(PM10),67,84,100,42,54,39,39,,,23,22,3,4,0.8,0.9
2025-12-31T0600,2694A,82.0806,44.8969,博尔塔拉蒙古自治州,市环保局,颗粒物(PM10),68,85,94,45,50,44,44,,,16,20,6,7,0.8,1
2025-12-31T0600,1071A,116.8842,38.2991,沧州市,沧县城建局,,42,42,64,21,42,25,25,,,34,42,3,4,0.4,0.7
2025-12-31T0600,1072A,116.8584,38.3254,沧州市,电视转播站,,39,39,67,9,37,7,7,,,47,48,3,4,0.6,0.8
2025-12-31T0600,1073A,116.8709,38.3228,沧州市,市环保局,,34,34,63,22,44,17,17,,,34,38,4,5,0.3,0.5
2025-12-31T0600,3324A,116.8136,38.3004,沧州市,河北水利电力学院,,22,19,52,15,31,23,23,,,34,39,4,6,0.4,0.6
2025-12-31T0600,2622A,97.1806,31.1273,昌都市,昌都监测站,,30,30,57,3,24,53,53,,,9,29,1,4,0.3,0.9
2025-12-31T0600,3719A,97.1714,31.1406,昌都市,昌都会议中心,,18,13,20,6,13,55,55,,,4,12,4,5,0.3,0.5
2025-12-31T0600,2690A,88.1236,43.8886,昌吉回族自治州,天山天池,,,,,,,,,,,,,,,,
2025-12-31T0600,2692A,87.2717,44.0297,昌吉回族自治州,新区政务中心,颗粒物(PM10),64,78,74,40,47,43,43,,,16,23,6,6,0.7,0.8
2025-12-31T0600,3613A,87.3095,44.0142,昌吉回族自治州,亚心广场,颗粒物(PM10),75,100,79,51,57,47,47,,,5,13,7,7,0.9,1
2025-12-31T0600,1120A,125.2863,43.9027,长春市,客车厂,细颗粒物(PM2.5),62,47,40,44,33,15,15,,,29,25,8,9,0.6,0.5
2025-12-31T0600,1121A,125.2841,43.8463,长春市,邮电学院,,48,48,42,30,29,15,15,,,23,23,9,10,0.5,0.5
2025-12-31T0600,1122A,125.3716,43.8772,长春市,劳动公园,颗粒物(PM10),56,61,36,28,25,13,13,,,29,24,10,9,0.7,0.5
2025-12-31T0600,1123A,125.3297,43.8805,长春市,园林处,,45,45,39,31,27,15,15,,,24,22,15,11,0.6,0.5
2025-12-31T0600,1124A,125.4605,43.79,长春市,净月潭,,46,46,36,22,18,8,8,,,25,21,5,6,0.4,0.4
2025-12-31T0600,1125A,125.7194,43.515,长春市,甩湾子,,,,,,,,,,,,,,,,
2025-12-31T0600,1126A,125.3863,43.8447,长春市,经开区环卫处,,,53,44,27,21,8,8,,,34,29,,9,0.5,0.4
2025-12-31T0600,1127A,125.245,43.7783,长春市,高新区管委会,,,36,44,18,31,11,11,,,27,26,,7,0.6,0.5
2025-12-31T0600,1128A,125.1761,43.8325,长春市,岱山公园,,39,39,40,20,27,8,8,,,28,26,8,8,0.5,0.5
2025-12-31T0600,4281A,125.3346,43.9164,长春市,北亚泰大街1068号,,,52,42,40,32,7,7,,,32,30,,11,0.8,0.6
2025-12-31T0600,1335A,113.0833,28.2325,长沙市,经开区环保局,细颗粒物(PM2.5),204,175,171,154,145,24,24,,,26,37,5,6,0.8,0.8
2025-12-31T0600,1336A,112.8872,28.2189,长沙市,高开区环保局,细颗粒物(PM2.5),212,174,164,162,150,27,27,,,17,21,6,7,1.1,1.1
2025-12-31T0600,1337A,113.0792,28.2053,长沙市,马坡岭,细颗粒物(PM2.5),200,193,168,150,137,28,28,,,28,42,5,6,0.7,0.8
2025-12-31T0600,1338A,112.9394,28.19,长沙市,湖南师范大学,细颗粒物(PM2.5),188,199,179,141,132,35,35,,,24,31,3,5,1.0,1
2025-12-31T0600,1339A,113.0178,28.1322,长沙市,雨花区环保局,细颗粒物(PM2.5),211,185,156,161,142,29,29,,,24,35,8,10,1.0,1
2025-12-31T0600,1340A,112.9792,28.2597,长沙市,伍家岭,细颗粒物(PM2.5),200,192,180,150,132,32,32,,,30,38,6,8,0.6,0.6
2025-12-31T0600,1341A,113.0014,28.1944,长沙市,火车新站,细颗粒物(PM2.5),192,190,177,144,135,37,37,,,17,27,9,10,0.9,0.9
2025-12-31T0600,1342A,112.9844,28.1178,长沙市,天心区环保局,细颗粒物(PM2.5),202,188,167,152,136,39,39,,,24,33,8,10,0.7,0.8
2025-12-31T0600,1343A,112.8908,28.1308,长沙市,湖南中医药大学,细颗粒物(PM2.5),208,185,174,158,145,39,39,,,22,30,6,8,1.0,1
2025-12-31T0600,1344A,112.9581,28.3611,长沙市,沙坪,,,,,,,,,,,,,,,,
2025-12-31T0600,1727A,113.1147,36.1547,长治市,清华站,,39,39,78,27,68,55,55,,,18,33,9,15,0.5,1
2025-12-31T0600,1730A,113.0886,36.2125,长治市,审计局,,34,34,73,19,61,47,47,,,15,30,8,15,0.7,1.1
2025-12-31T0600,1731A,113.0844,36.1856,长治市,长治八中,,49,45,94,34,72,49,49,,,12,27,9,16,0.6,1
2025-12-31T0600,2845A,113.1569,36.1911,长治市,德盛苑,,34,34,73,22,70,55,55,,,8,20,7,12,0.7,1.1
2025-12-31T0600,3568A,113.06,36.0464,长治市,向阳小学,细颗粒物(PM2.5),67,66,113,48,77,47,47,,,19,34,6,15,0.8,1.3
2025-12-31T0600,3569A,112.8792,36.3144,长治市,屯留一中,颗粒物(PM10),56,62,81,31,60,37,37,,,29,38,10,14,0.8,0.9
2025-12-31T0600,4189A,113.1131,36.19948,长治市,英华南巷50号,,39,39,85,24,67,50,50,,,13,28,6,13,0.8,1.2
2025-12-31T0600,4190A,113.2367,36.3344,长治市,学府街1号,,39,39,73,19,67,37,37,,,24,28,18,17,1.3,1.3
2025-12-31T0600,1854A,111.6975,28.9703,常德市,市二中,细颗粒物(PM2.5),195,175,154,146,126,68,68,,,16,21,7,10,0.9,0.9
2025-12-31T0600,1857A,111.7158,29.1456,常德市,白鹤山,,,,,,,,,,,,,,,,
2025-12-31T0600,3138A,111.7153,29.0289,常德市,武陵区永安,细颗粒物(PM2.5),183,178,158,138,119,68,68,,,19,23,6,10,1.0,1
2025-12-31T0600,3139A,111.6892,28.9881,常德市,鼎城区玉霞,细颗粒物(PM2.5),186,167,153,140,125,69,69,,,20,24,10,12,0.8,0.9
2025-12-31T0600,3140A,111.6625,29.0531,常德市,武陵区长庚,细颗粒物(PM2.5),186,172,160,140,121,70,70,,,18,24,6,10,0.8,0.8
2025-12-31T0600,1196A,119.9633,31.762,常州市,市监测站,,16,16,63,9,46,51,51,,,26,33,6,6,0.3,0.6
2025-12-31T0600,1200A,119.9468,31.7069,常州市,武进监测站,,18,17,64,12,45,46,46,,,28,32,10,10,0.2,0.4
2025-12-31T0600,1201A,119.9255,31.9087,常州市,安家,,33,33,75,17,46,40,40,,,23,37,10,12,1.0,1.1
2025-12-31T0600,3002A,119.9805,31.8174,常州市,行政中心,,32,32,73,11,44,41,41,,,31,32,6,7,0.4,0.6
2025-12-31T0600,3003A,120.0522,31.7748,常州市,经开区,,19,19,67,10,43,36,36,,,37,39,3,4,0.3,0.5
2025-12-31T0600,3010A,119.9025,31.7964,常州市,钟楼,,27,27,63,14,42,39,39,,,34,29,8,8,0.2,0.4
2025-12-31T0600,3429A,119.8598,31.7066,常州市,武进经发区,,,17,65,8,47,,,,,23,31,8,9,0.4,0.7
2025-12-31T0600,3430A,119.5826,31.7245,常州市,金坛城区,,32,32,74,18,55,21,21,,,40,31,7,8,0.6,0.8
2025-12-31T0600,2220A,120.4318,41.5881,朝阳市,西梁,,15,12,41,3,15,47,47,,,6,16,4,6,0.4,0.6
2025-12-31T0600,2221A,120.4521,41.5646,朝阳市,河畔小区,,16,13,34,3,14,49,49,,,7,16,7,8,0.3,0.5
2025-12-31T0600,2222A,120.4176,41.5648,朝阳市,八里堡,,15,14,36,3,13,47,47,,,7,16,7,8,0.3,0.5
2025-12-31T0600,2223A,120.3806,41.5969,朝阳市,农业园区,,16,12,31,3,18,50,50,,,7,16,7,7,0.3,0.5
2025-12-31T0600,1705A,116.6367,23.6719,潮州市,西园路,,,,,,,,,,,,,,,,
2025-12-31T0600,3026A,116.6183,23.6608,潮州市,市政府,,44,44,52,30,28,27,27,,,17,20,10,10,0.5,0.5
2025-12-31T0600,4036A,116.6461,23.6761,潮州市,金山,,39,29,42,27,30,21,21,,,17,15,3,4,0.3,0.4
2025-12-31T0600,2472A,113.0073,25.9061,郴州市,马头岭,,,,,,,,,,,,,,,,
2025-12-31T0600,2473A,113.0116,25.8226,郴州市,市职中,细颗粒物(PM2.5),104,87,87,78,75,4,4,,,27,26,4,8,0.9,0.9
2025-12-31T0600,2475A,113.0383,25.8071,郴州市,市审计局,细颗粒物(PM2.5),118,102,90,89,73,18,18,,,30,24,2,6,0.7,0.8
2025-12-31T0600,2476A,113.0348,25.7759,郴州市,市环保局,细颗粒物(PM2.5),114,107,98,86,74,8,8,,,37,35,2,7,0.8,0.9
2025-12-31T0600,4252A,113.0138,25.8011,郴州市,好美居路49号,细颗粒物(PM2.5),125,98,86,95,83,6,6,,,43,35,4,10,0.6,0.6
2025-12-31T0600,1431A,103.9728,30.7236,成都市,金泉两河,细颗粒物(PM2.5),110,88,102,83,94,7,7,,,25,36,2,2,0.8,0.9
2025-12-31T0600,1432A,104.176,30.6872,成都市,十里店,细颗粒物(PM2.5),122,131,125,92,95,15,15,,,26,39,3,3,0.6,0.7
2025-12-31T0600,1433A,104.079,30.5706,成都市,三瓦窑,细颗粒物(PM2.5),124,101,131,94,114,5,5,,,38,39,3,4,0.7,1.1
2025-12-31T0600,1434A,104.1114,30.63,成都市,沙河铺,细颗粒物(PM2.5),163,134,134,124,116,,,,,29,42,5,5,0.9,1
2025-12-31T0600,1437A,104.0786,30.6531,成都市,君平街,细颗粒物(PM2.5),152,141,145,116,115,21,21,,,22,42,2,5,0.8,1.1
2025-12-31T0600,1438A,103.613,31.0283,成都市,灵岩寺,,,,,,,,,,,,,,,,
2025-12-31T0600,2880A,104.0239,30.65639,成都市,大石西路,细颗粒物(PM2.5),118,111,125,89,103,,,,,24,41,3,4,0.7,0.9
2025-12-31T0600,3136A,104.2725,30.5589,成都市,龙泉驿区区政府,细颗粒物(PM2.5),128,119,105,97,84,0,0,,,35,28,5,6,0.7,0.6
2025-12-31T0600,3357A,104.0106,30.6931,成都市,金博路,细颗粒物(PM2.5),104,100,106,78,83,5,5,,,30,41,5,4,0.8,1
2025-12-31T0600,3359A,104.0578,30.5225,成都市,华阳,细颗粒物(PM2.5),94,83,116,70,85,28,28,,,22,36,3,3,0.6,0.7
2025-12-31T0600,3488A,104.3880,30.7467,成都市,青石路225号,细颗粒物(PM2.5),180,138,129,136,116,0,0,,,34,33,5,5,0.8,0.8
2025-12-31T0600,3489A,104.0789,30.4072,成都市,科学城,细颗粒物(PM2.5),92,78,109,68,87,29,29,,,16,26,5,6,0.7,0.8
2025-12-31T0600,4011A,103.8506,30.6947,成都市,光华大道三段,细颗粒物(PM2.5),112,89,102,84,84,22,22,,,19,28,3,3,0.7,0.8
2025-12-31T0600,4224A,104.2433,30.5353,成都市,鲸龙路1057号,细颗粒物(PM2.5),118,100,117,89,97,11,11,,,28,33,5,5,0.9,0.9
2025-12-31T0600,1062A,117.9531,40.9081,承德市,铁路,,22,22,29,3,9,50,50,,,4,10,2,3,0.2,0.3
2025-12-31T0600,1063A,117.9392,40.9763,承德市,中国银行,,39,39,27,6,8,28,28,,,12,7,1,2,0.2,0.3
2025-12-31T0600,1064A,117.9503,40.928,承德市,开发区,,34,34,34,13,18,52,52,,,6,11,3,3,0.2,0.3
2025-12-31T0600,1066A,117.9268,41.0026,承德市,离宫,,,,,,,,,,,,,,,,
2025-12-31T0600,4274A,117.7994,40.9605,承德市,滨河大街98号,,16,14,20,11,9,45,45,,,2,9,2,2,0.2,0.3
2025-12-31T0600,2314A,117.47,30.6618,池州市,池州学院,,35,33,142,24,121,40,40,,,27,31,4,5,0.4,0.9
2025-12-31T0600,3237A,117.4918,30.6617,池州市,展览馆,,40,40,149,27,114,44,44,,,27,30,3,4,0.5,1
2025-12-31T0600,3333A,117.5627,30.695,池州市,第八中学,,35,35,137,23,108,53,53,,,22,30,4,4,0.4,1.1
2025-12-31T0600,3334A,117.5038,30.6243,池州市,第十二中学,,45,43,139,31,112,48,48,,,24,30,3,5,0.8,1.2
2025-12-31T0600,1744A,118.9233,42.2816,赤峰市,松山一中,,15,12,18,3,4,45,45,,,8,10,6,5,0.5,0.5
2025-12-31T0600,1745A,118.9576,42.2728,赤峰市,哈达街,,16,6,17,6,9,51,51,,,7,11,5,6,0.4,0.4
2025-12-31T0600,1746A,118.8788,42.2554,赤峰市,天义路,,15,,15,6,9,46,46,,,5,9,5,9,0.5,0.5
2025-12-31T0600,3058A,119.2658,42.0353,赤峰市,银河街,,17,15,19,6,8,53,53,,,1,3,8,9,0.6,0.5
2025-12-31T0600,3286A,118.9359,42.3147,赤峰市,桥北物流园区,,16,,13,7,9,49,49,,,4,11,4,4,0.2,0.2
2025-12-31T0600,2521A,107.3476,22.4136,崇左市,市环保局江州分局,细颗粒物(PM2.5),87,77,86,64,56,3,3,,,33,27,10,9,0.9,0.9
2025-12-31T0600,4256A,107.3750,22.3736,崇左市,石景林东路7号,细颗粒物(PM2.5),69,55,68,50,56,13,13,,,22,26,6,9,0.6,0.8
2025-12-31T0600,2298A,118.3093,32.3153,滁州市,老年大学,,26,26,77,15,54,56,56,,,14,20,4,5,0.3,0.6
2025-12-31T0600,2299A,118.3244,32.2786,滁州市,人大宾馆,,23,23,78,9,58,48,48,,,18,22,5,6,0.3,0.6
2025-12-31T0600,3207A,118.3118,32.3038,滁州市,市政府原办公楼,,31,31,77,12,53,61,61,,,13,21,4,5,0.1,0.4
2025-12-31T0600,3331A,118.3267,32.2634,滁州市,图书馆,,18,15,78,7,50,55,55,,,11,19,7,8,0.2,0.4
2025-12-31T0600,2605A,101.5482,25.0441,楚雄彝族自治州,州环境监测站,,12,12,22,8,14,37,37,,,16,16,6,9,0.5,0.6
2025-12-31T0600,2606A,101.538,25.0492,楚雄彝族自治州,市经济开发区,,16,16,24,11,16,19,19,,,26,14,4,6,0.3,0.5
2025-12-31T0600,2548A,107.5277,31.2827,达州市,达州职业技术学院,,,,,,,,,,,,,,,,
2025-12-31T0600,2549A,107.5086,31.2186,达州市,市环境监测站,细颗粒物(PM2.5),100,95,134,75,113,1,1,,,27,35,8,13,0.7,0.9
2025-12-31T0600,2550A,107.4988,31.2132,达州市,凤凰小区,细颗粒物(PM2.5),117,105,141,88,112,3,3,,,24,33,8,12,0.8,1
2025-12-31T0600,2551A,107.5082,31.1986,达州市,达县机关宾馆,细颗粒物(PM2.5),105,95,144,79,112,2,2,,,26,34,5,11,1.0,1.1
2025-12-31T0600,2552A,107.4644,31.2124,达州市,市政中心,细颗粒物(PM2.5),125,116,158,95,116,4,4,,,23,37,7,11,0.9,1.3
2025-12-31T0600,2614A,100.1542,25.7054,大理白族自治州,大理市环境监测站,,25,,16,17,18,64,64,,,7,8,6,6,0.6,0.6
2025-12-31T0600,2615A,100.2171,25.5811,大理白族自治州,大理古城,,26,,18,18,11,64,64,,,6,6,8,8,0.4,0.4
2025-12-31T0600,1109A,121.612,38.9741,大连市,甘井子,,24,24,35,3,18,50,50,,,7,20,8,10,0.1,0.4
2025-12-31T0600,1110A,121.565,38.9511,大连市,周水子,,23,23,34,6,19,44,44,,,12,27,4,8,0.3,0.4
2025-12-31T0600,1111A,121.5637,38.8845,大连市,星海三站,,19,19,29,3,18,47,47,,,11,20,6,7,0.3,0.5
2025-12-31T0600,1112A,121.6302,38.9117,大连市,青泥洼桥,,14,14,28,3,16,42,42,,,10,23,8,10,0.2,0.4
2025-12-31T0600,1113A,121.6251,38.8638,大连市,傅家庄,,19,19,27,3,14,40,40,,,9,18,9,10,0.2,0.4
2025-12-31T0600,1114A,121.5213,38.8661,大连市,七贤岭,,23,23,31,3,17,43,43,,,14,28,7,9,0.4,0.6
2025-12-31T0600,1115A,121.2529,38.8061,大连市,旅顺,,16,16,24,3,15,49,49,,,3,12,7,10,0.2,0.4
2025-12-31T0600,1116A,121.7485,39.1311,大连市,金州,,15,14,34,3,18,46,46,,,9,18,12,10,0.2,0.5
2025-12-31T0600,1117A,121.7811,39.0496,大连市,开发区,,19,19,26,3,14,44,44,,,5,14,6,7,0.3,0.5
2025-12-31T0600,1118A,121.9762,39.0631,大连市,双D港,,18,18,29,7,15,46,46,,,8,14,10,12,0.3,0.5
2025-12-31T0600,1789A,124.81117,46.03138,大庆市,大同区,,17,17,29,10,17,31,31,,,8,12,5,5,0.3,0.3
2025-12-31T0600,1790A,125.129,46.533,大庆市,龙凤区,,19,16,25,13,22,29,29,,,19,23,7,8,0.6,0.7
2025-12-31T0600,1791A,124.902,46.408,大庆市,红岗区,,30,30,29,13,17,30,30,,,10,17,6,6,0.6,0.6
2025-12-31T0600,1792A,125.153,46.586,大庆市,萨尔图区,,27,27,24,7,12,38,38,,,14,20,14,9,0.8,0.8
2025-12-31T0600,1793A,124.9042,46.6215,大庆市,让胡路区,,32,,27,22,24,36,36,,,4,10,7,8,0.3,0.4
2025-12-31T0600,3481A,125.141,46.634,大庆市,萨区政府监测点,,19,19,25,9,12,22,22,,,18,18,8,8,0.5,0.6
2025-12-31T0600,1721A,113.3819,40.1097,大同市,果树场,,,,,,,,,,,,,,,,
2025-12-31T0600,1723A,113.2994,40.0758,大同市,云冈宾馆,,27,27,23,8,8,30,30,,,19,15,9,5,0.9,0.6
2025-12-31T0600,1724A,113.3444,40.0917,大同市,大同大学,,19,,19,13,11,53,53,,,10,13,9,8,0.3,0.5
2025-12-31T0600,1725A,113.2661,40.1269,大同市,安家小村,,22,20,15,15,9,22,22,,,18,13,10,8,0.9,0.5
2025-12-31T0600,1726A,113.2711,40.0844,大同市,教育学院,,28,28,21,10,10,20,20,,,30,15,12,5,1.0,0.4
2025-12-31T0600,3282A,113.3397,40.0597,大同市,大同市卫生学校,,18,,15,6,7,57,57,,,9,12,6,5,0.7,0.5
2025-12-31T0600,3565A,113.1367,40.1122,大同市,云冈站,,46,46,25,19,11,13,13,,,31,18,15,9,1.0,0.5
2025-12-31T0600,3566A,113.1186,40.2556,大同市,图书馆,,29,26,34,20,22,13,13,,,16,14,5,6,1.4,0.8
2025-12-31T0600,3567A,113.5931,40.0461,大同市,区一中,,20,,22,3,13,61,61,,,5,10,6,8,0.4,0.5
2025-12-31T0600,4199A,113.2798,40.0997,大同市,魏都大道141号,,32,23,20,22,9,26,26,,,30,13,9,4,1.1,0.6
2025-12-31T0600,2269A,124.1069,50.4097,大兴安岭地区,科技局,,28,21,18,19,18,36,36,,,2,2,5,4,0.2,0.2
2025-12-31T0600,3663A,124.1164,50.4278,大兴安岭地区,红旗社区,,13,,6,6,5,40,40,,,2,2,2,2,0.3,0.3
2025-12-31T0600,1600A,124.3303,40.0625,丹东市,江湾东路,,15,15,30,7,20,43,43,,,7,17,7,11,0.3,0.8
2025-12-31T0600,1601A,124.4256,40.1503,丹东市,临江后街,,20,20,29,8,15,38,38,,,11,19,7,10,0.6,0.7
2025-12-31T0600,1602A,124.3933,40.1461,丹东市,元宝山,,,18,26,11,16,42,42,,,8,15,,11,0.4,0.5
2025-12-31T0600,1603A,124.3633,40.1092,丹东市,民主桥,,23,23,34,3,13,42,42,,,8,19,8,8,0.3,0.4
2025-12-31T0600,3541A,109.5726,19.5167,儋州市,第一中学子站,颗粒物(PM10),53,56,34,33,19,84,84,,,9,9,4,4,0.6,0.5
2025-12-31T0600,3542A,109.5567,19.5187,儋州市,东坡学校子站,细颗粒物(PM2.5),54,38,30,38,22,89,89,,,8,7,6,5,0.6,0.4
2025-12-31T0600,2616A,98.5842,24.428,德宏傣族景颇族自治州,德宏州监测站,,45,39,49,31,33,4,4,,,28,21,6,6,0.6,0.6
2025-12-31T0600,3677A,98.5881,24.4368,德宏傣族景颇族自治州,芒市人民政府综合楼,,35,31,43,24,28,16,16,,,26,22,8,8,0.6,0.7
2025-12-31T0600,1901A,104.4239,31.1208,德阳市,东山公园,细颗粒物(PM2.5),128,104,115,97,104,0,0,,,27,28,3,3,0.9,0.9
2025-12-31T0600,1902A,104.3826,31.1317,德阳市,西小区,细颗粒物(PM2.5),130,116,134,99,107,5,5,,,26,34,3,3,1.0,1.1
2025-12-31T0600,1904A,104.3553,31.1091,德阳市,耐火材料厂,细颗粒物(PM2.5),127,99,124,96,112,2,2,,,32,39,3,2,1.1,1.2
2025-12-31T0600,3639A,104.4019,31.1244,德阳市,市教育局,细颗粒物(PM2.5),127,,108,96,104,1,1,,,28,37,4,4,1.0,1.1
2025-12-31T0600,1622A,116.3032,37.4674,德州市,儿童乐园,,46,46,87,14,51,18,18,,,44,41,13,15,1.0,1.2
2025-12-31T0600,1624A,116.2991,37.4451,德州市,监理站,,25,24,75,7,47,24,24,,,50,44,14,16,0.7,0.9
2025-12-31T0600,3066A,116.2721,37.4379,德州市,九衢泉纯净水厂,,27,27,81,14,50,23,23,,,44,42,15,14,0.6,0.8
2025-12-31T0600,3371A,116.3728,37.4403,德州市,开发区人民医院,,29,29,80,9,52,12,12,,,58,48,12,15,0.7,1
2025-12-31T0600,3511A,116.5652,37.3319,德州市,陵城艺术中心,,46,46,88,17,56,9,9,,,52,53,13,15,0.7,0.9
2025-12-31T0600,4292A,116.3525,37.4209,德州市,新河东路,,29,29,75,17,49,18,18,,,55,46,12,14,1.0,1.2
2025-12-31T0600,2621A,99.7056,27.8317,迪庆藏族自治州,迪庆州站,,16,12,25,11,17,40,40,,,8,10,5,5,0.3,0.5
2025-12-31T0600,3180A,99.7136,27.8094,迪庆藏族自治州,质量技术监督局,,46,,24,32,17,48,48,,,8,12,4,5,0.4,0.5
2025-12-31T0600,4257A,104.6092,35.5962,定西市,将台街,细颗粒物(PM2.5),63,72,66,45,45,47,47,,,15,22,8,12,0.8,0.7
2025-12-31T0600,4309A,104.6159,35.5701,定西市,正龙路62号,颗粒物(PM10),51,52,74,30,49,46,46,,,10,12,4,10,0.9,0.8
2025-12-31T0600,1389A,113.7547,23.0494,东莞市,莞城梨川,"颗粒物(PM10),细颗粒物(PM2.5)",62,74,61,44,38,3,3,,,63,46,9,7,0.8,0.8
2025-12-31T0600,1390A,113.7944,23.0128,东莞市,东城石井,细颗粒物(PM2.5),67,70,56,48,39,2,2,,,66,52,8,10,0.9,0.9
2025-12-31T0600,1391A,113.7383,22.9658,东莞市,南城西平,细颗粒物(PM2.5),75,96,70,55,44,0,0,,,83,66,10,10,0.9,0.9
2025-12-31T0600,3319A,113.7338,23.0381,东莞市,万江金泰,颗粒物(PM10),62,73,64,42,41,2,2,,,63,46,8,8,0.9,0.9
2025-12-31T0600,3626A,113.7533,23.0202,东莞市,南城元岭,细颗粒物(PM2.5),70,83,55,51,38,9,9,,,64,48,9,8,0.9,0.8
2025-12-31T0600,3627A,113.7875,23.0457,东莞市,东城主山,细颗粒物(PM2.5),67,76,67,48,42,12,12,,,64,57,12,8,0.6,0.6
2025-12-31T0600,1666A,118.6614,37.4309,东营市,市环保局,,15,14,40,3,24,46,46,,,18,30,6,18,0.5,0.7
2025-12-31T0600,3036A,118.6904,37.4338,东营市,开发区管委会,,21,21,43,12,26,46,46,,,13,24,9,14,0.6,0.8
2025-12-31T0600,3365A,118.5719,37.565,东营市,垦利区民丰路,,19,19,44,12,26,37,37,,,21,29,3,6,0.6,0.8
2025-12-31T0600,3498A,118.5055,37.8612,东营市,河口城区,,18,17,49,3,25,57,57,,,16,30,4,6,0.4,0.6
2025-12-31T0600,3646A,118.4978,37.4623,东营市,胜利站,,24,24,53,14,26,38,38,,,26,34,11,13,0.6,0.8
2025-12-31T0600,3734A,118.35,37.26,东营市,理想之城,,19,19,44,12,28,28,28,,,18,32,3,5,0.5,0.7
2025-12-31T0600,1591A,110.0023,39.8129,鄂尔多斯市,综合楼,,17,14,38,3,14,52,52,,,17,35,6,8,0.5,0.5
2025-12-31T0600,1592A,109.9486,39.8261,鄂尔多斯市,巴音孟克林场办事处,,19,19,45,7,19,60,60,,,12,28,7,9,0.3,0.4
2025-12-31T0600,1593A,109.7736,39.5986,鄂尔多斯市,康泽苑,,22,22,34,3,19,58,58,,,16,28,6,8,0.3,0.4
2025-12-31T0600,1594A,109.8119,39.5989,鄂尔多斯市,华泰汽车城,,27,27,36,7,15,45,45,,,25,33,3,5,0.3,0.5
2025-12-31T0600,1595A,109.9734,39.7884,鄂尔多斯市,奥林花园,,39,39,45,3,11,50,50,,,21,31,5,5,0.5,0.5
2025-12-31T0600,2436A,114.8938,30.3994,鄂州市,市政府,细颗粒物(PM2.5),142,123,121,108,105,77,77,,,20,45,5,6,0.9,0.9
2025-12-31T0600,2437A,114.8989,30.3714,鄂州市,赵家坝,细颗粒物(PM2.5),144,127,130,110,104,81,81,,,12,33,7,9,0.9,1.1
2025-12-31T0600,3654A,114.8094,30.4089,鄂州市,精准医疗中心,细颗粒物(PM2.5),159,130,122,121,110,65,65,,,21,40,4,5,0.9,0.9
2025-12-31T0600,2454A,109.4978,30.2981,恩施土家族苗族自治州,湖北民院,细颗粒物(PM2.5),54,49,94,38,96,85,85,,,6,23,5,6,0.7,1.5
2025-12-31T0600,2455A,109.4707,30.2798,恩施土家族苗族自治州,州电力总公司,细颗粒物(PM2.5),58,43,104,41,93,88,88,,,10,32,6,6,0.4,1.1
2025-12-31T0600,3549A,109.5061,30.3772,恩施土家族苗族自治州,龙凤新区,细颗粒物(PM2.5),74,59,117,54,98,76,76,,,3,16,5,7,0.4,1.1
2025-12-31T0600,2499A,108.3411,21.6158,防城港市,沙万,,,,82,,42,,,69,,,33,,11,,0.8
2025-12-31T0600,2500A,108.3514,21.7731,防城港市,防城档案局,颗粒物(PM10),54,57,72,31,48,0,0,,,33,30,4,7,0.7,1
2025-12-31T0600,2501A,108.3506,21.6414,防城港市,大海花园,细颗粒物(PM2.5),53,38,70,37,54,37,37,,,14,25,8,13,0.7,1
2025-12-31T0600,1371A,113.1294,23.0067,佛山市,湾梁,颗粒物(PM10),65,80,70,44,34,1,1,,,76,57,8,10,0.9,0.8
2025-12-31T0600,1372A,113.1083,23.0478,佛山市,华材职中,细颗粒物(PM2.5),67,75,79,48,44,3,3,,,77,62,8,9,0.8,0.8
2025-12-31T0600,1373A,113.144,23.0453,佛山市,南海气象局,细颗粒物(PM2.5),57,60,67,40,40,0,0,,,77,63,9,12,0.9,0.9
2025-12-31T0600,1374A,113.2881,22.8094,佛山市,顺德苏岗,细颗粒物(PM2.5),67,76,60,48,43,0,0,,,78,59,8,9,1.0,0.9
2025-12-31T0600,1376A,112.8383,22.8678,佛山市,高明孔堂,细颗粒物(PM2.5),64,76,57,46,39,2,2,,,64,32,18,7,0.8,0.7
2025-12-31T0600,1377A,112.8836,23.1588,佛山市,三水监测站,细颗粒物(PM2.5),93,90,78,69,46,3,3,,,65,50,16,11,1.0,0.9
2025-12-31T0600,1378A,112.867,23.185,佛山市,三水云东海,细颗粒物(PM2.5),105,100,68,79,43,0,0,,,63,42,8,7,0.6,0.6
2025-12-31T0600,3625A,113.2544,22.7642,佛山市,容桂街道办,细颗粒物(PM2.5),83,105,88,61,57,2,2,,,96,72,8,10,1.1,1
2025-12-31T0600,1280A,119.3903,26.0543,福州市,鼓山,,,,,,,,,,,,,,,,
2025-12-31T0600,1282A,119.2681,26.0504,福州市,师大,,45,43,40,31,29,67,67,,,32,29,7,8,0.5,0.5
2025-12-31T0600,1283A,119.2984,26.1028,福州市,五四北路,,49,45,40,34,26,79,79,,,21,23,7,6,0.7,0.6
2025-12-31T0600,1284A,119.2648,26.0768,福州市,杨桥西路,,44,44,38,29,25,82,82,,,16,20,6,5,0.6,0.6
2025-12-31T0600,1285A,119.317,26.0746,福州市,紫阳,细颗粒物(PM2.5),54,51,52,38,27,88,88,,,19,23,10,8,0.7,0.5
2025-12-31T0600,3048A,119.5799,26.0936,福州市,九龙,,48,48,43,33,28,87,87,,,20,20,8,6,0.5,0.5
2025-12-31T0600,3526A,119.5189,25.9664,福州市,吴航,,47,47,53,30,28,90,90,,,18,21,6,6,0.5,0.5
2025-12-31T0600,1755A,123.7977,41.8491,抚顺市,望花区,,20,20,49,8,23,27,27,,,22,28,3,5,0.7,0.9
2025-12-31T0600,1756A,123.9161,41.8822,抚顺市,顺城区,,29,29,56,10,31,24,24,,,25,33,8,9,0.6,0.9
2025-12-31T0600,1757A,124.0436,41.8611,抚顺市,东洲区,,32,32,61,16,34,16,16,,,26,33,12,27,0.8,1.1
2025-12-31T0600,1758A,123.9247,41.8642,抚顺市,新抚区,,24,24,52,8,26,33,33,,,15,27,10,8,0.5,0.8
2025-12-31T0600,1759A,124.0972,41.8961,抚顺市,大伙房水库,,32,32,51,14,33,14,14,,,29,32,10,11,0.6,0.8
2025-12-31T0600,1760A,123.7086,41.8391,抚顺市,沈抚新城,,21,21,38,3,23,34,34,,,14,29,6,10,0,0.5
2025-12-31T0600,2376A,116.2127,28.0814,抚州市,桐源党溪,,,,,,,,,,,,,,,,
2025-12-31T0600,2377A,116.3544,27.9831,抚州市,市站,细颗粒物(PM2.5),133,124,87,101,66,54,54,,,18,21,9,8,1.1,1
2025-12-31T0600,2378A,116.3565,27.963,抚州市,血防站,细颗粒物(PM2.5),137,121,87,104,68,62,62,,,18,21,6,8,1.6,1.4
2025-12-31T0600,2379A,116.3564,28.0007,抚州市,采茶剧团,细颗粒物(PM2.5),148,132,92,113,72,52,52,,,12,16,4,8,1.6,1.4
2025-12-31T0600,2380A,116.385,27.9647,抚州市,医学分院,细颗粒物(PM2.5),137,128,96,104,67,59,59,,,17,19,8,11,1.0,1.1
2025-12-31T0600,2207A,121.6094,41.998,阜新市,工业园区,,15,15,33,3,9,48,48,,,6,10,7,8,0.3,0.3
2025-12-31T0600,2208A,121.6697,42.0279,阜新市,长青街,,15,8,23,7,7,45,45,,,7,9,6,7,0.4,0.4
2025-12-31T0600,2209A,121.6673,42.0705,阜新市,农业园区,,19,19,22,3,5,45,45,,,7,7,6,7,0.4,0.3
2025-12-31T0600,2210A,121.6717,42.0224,阜新市,东苑,,34,34,34,9,8,45,45,,,6,8,4,5,0.4,0.4
2025-12-31T0600,2211A,121.6506,42.0498,阜新市,玉龙新城,,19,19,33,3,6,42,42,,,8,13,12,7,0.5,0.4
2025-12-31T0600,2301A,115.8277,32.8929,阜阳市,市监测站,,38,,113,26,83,52,52,,,16,22,4,5,0.3,0.6
2025-12-31T0600,2303A,115.8554,32.8605,阜阳市,开发区,,40,,105,28,83,47,47,,,14,21,4,5,0.2,0.5
2025-12-31T0600,2875A,115.784,32.8892,阜阳市,阜阳职业技术学院,,34,34,105,19,76,57,57,,,11,17,6,7,0.3,0.7
2025-12-31T0600,3468A,115.7901,32.8613,阜阳市,市规划展馆,,37,37,113,19,84,57,57,,,14,21,5,7,0.3,0.6
2025-12-31T0600,3469A,115.836,32.9183,阜阳市,枣园社区,,44,44,117,23,89,49,49,,,17,24,5,6,0.4,0.7
2025-12-31T0600,2669A,102.9099,34.9841,甘南藏族自治州,州政府,细颗粒物(PM2.5),59,65,55,42,34,49,49,,,23,26,10,12,0.9,0.8
2025-12-31T0600,3380A,102.8914,34.9617,甘南藏族自治州,甘肃民族师范学院,颗粒物(PM10),64,78,62,45,28,52,52,,,30,30,7,7,0.9,1
2025-12-31T0600,2570A,101.9603,30.0475,甘孜藏族自治州,水桥子,,10,6,21,3,14,18,18,,,20,23,6,6,0.5,0.7
2025-12-31T0600,3065A,101.9533,29.9972,甘孜藏族自治州,州环保局,,18,8,23,3,9,55,55,,,2,22,6,6,0.3,0.5
2025-12-31T0600,3414A,115.8347,28.932,赣江新区,桑海产业园,细颗粒物(PM2.5),150,149,146,115,112,67,67,,,19,28,9,11,1.1,1.1
2025-12-31T0600,2362A,114.9017,25.9149,赣州市,通天岩,,,,,,,,,,,,,,,,
2025-12-31T0600,2363A,114.9367,25.8664,赣州市,地委,细颗粒物(PM2.5),58,60,58,41,35,28,28,,,26,26,7,8,0.8,0.8
2025-12-31T0600,2364A,114.9461,25.8481,赣州市,气象台,"颗粒物(PM10),细颗粒物(PM2.5)",57,64,65,40,35,16,16,,,48,38,2,6,0.8,0.8
2025-12-31T0600,2365A,114.9322,25.8333,赣州市,市图书馆,细颗粒物(PM2.5),69,62,58,50,39,20,20,,,45,31,3,5,0.9,1
2025-12-31T0600,2366A,114.8905,25.8471,赣州市,华坚鞋城,细颗粒物(PM2.5),62,66,57,44,34,46,46,,,28,29,7,8,0.6,0.6
2025-12-31T0600,3109A,115.0093,25.8613,赣州市,赣县区卫计委,细颗粒物(PM2.5),58,51,52,41,45,32,32,,,15,31,7,7,0.5,0.5
2025-12-31T0600,2683A,106.2319,36.1417,固原市,马园,,,,,,,,,,,,,,,,
2025-12-31T0600,2684A,106.2792,36.0022,固原市,监测站,颗粒物(PM10),51,52,78,26,43,44,44,,,18,28,6,8,0.6,0.9
2025-12-31T0600,2685A,106.2375,36.0211,固原市,新区,颗粒物(PM10),51,52,79,21,40,43,43,,,18,31,4,6,0.5,0.8
2025-12-31T0600,3522A,106.2177,35.9959,固原市,原州区十五小,颗粒物(PM10),51,52,78,24,43,40,40,,,16,27,5,8,0.6,0.8
2025-12-31T0600,2543A,106.6308,30.5278,广安市,小平旧居,,,,,,,,,,,,,,,,
2025-12-31T0600,2544A,106.6303,30.4576,广安市,市委,细颗粒物(PM2.5),99,81,104,74,98,11,11,,,22,23,6,5,0.9,1
2025-12-31T0600,2545A,106.6271,30.4663,广安市,友谊中学,细颗粒物(PM2.5),98,79,100,73,90,29,29,,,13,19,3,3,0.9,0.9
2025-12-31T0600,2547A,106.6388,30.4551,广安市,广电花园,细颗粒物(PM2.5),102,,85,76,96,8,8,,,19,22,8,8,0.8,0.8
2025-12-31T0600,2902A,106.6351,30.4865,广安市,北辰小学,细颗粒物(PM2.5),104,,97,78,90,21,21,,,10,15,14,14,0.9,1
2025-12-31T0600,2523A,105.8945,32.4535,广元市,黑石坡,,,,,,,,,,,,,,,,
2025-12-31T0600,2524A,105.821,32.4444,广元市,老城,,26,,83,18,62,66,66,,,11,41,6,12,0.6,1.2
2025-12-31T0600,2526A,105.8628,32.4287,广元市,监测站,,28,22,75,19,54,58,58,,,12,36,4,8,0.7,1.4
2025-12-31T0600,3617A,105.8047,32.4166,广元市,经开区,,22,20,103,15,68,58,58,,,13,39,2,21,0.7,1.4
2025-12-31T0600,1345A,113.2347,23.1423,广州市,广雅中学,颗粒物(PM10),53,56,76,34,42,1,1,,,66,62,4,6,0.8,1
2025-12-31T0600,1346A,113.2612,23.105,广州市,市五中,,49,45,53,34,35,1,1,,,81,64,8,10,0.7,0.8
2025-12-31T0600,1348A,113.3478,23.0916,广州市,广东商学院,,50,47,53,35,38,3,3,,,66,53,6,9,0.6,0.7
2025-12-31T0600,1349A,113.4332,23.1047,广州市,市八十六中,细颗粒物(PM2.5),58,58,56,41,34,1,1,,,74,58,8,10,1.0,1
2025-12-31T0600,1350A,113.3505,22.9483,广州市,番禺中学,颗粒物(PM10),59,68,66,38,43,2,2,,,74,59,6,7,1.1,1.1
2025-12-31T0600,1351A,113.2146,23.3916,广州市,花都师范,"颗粒物(PM10),细颗粒物(PM2.5)",57,63,55,40,33,2,2,,,82,47,10,10,0.8,0.7
2025-12-31T0600,1352A,113.2597,23.1331,广州市,市监测站,,44,44,59,30,35,2,2,,,70,58,3,6,0.7,0.7
2025-12-31T0600,1353A,113.5618,23.312,广州市,九龙镇镇龙,,50,50,59,32,37,0,0,,,33,36,5,7,0.7,0.7
2025-12-31T0600,1354A,113.2765,23.1544,广州市,麓湖,,45,40,47,31,33,1,1,,,70,56,8,9,0.4,0.5
2025-12-31T0600,1355A,113.443,23.3035,广州市,帽峰山森林公园,,,,,,,,,,,,,,,,
2025-12-31T0600,2846A,113.3221,23.1322,广州市,体育西,,47,47,58,31,37,5,5,,,71,59,6,8,0.7,0.8
2025-12-31T0600,3298A,113.5717,23.5491,广州市,从化街口,,43,42,49,30,34,15,15,,,32,39,8,10,0.6,0.8
2025-12-31T0600,3299A,113.3472,23.3692,广州市,白云竹料,颗粒物(PM10),51,51,61,32,37,7,7,,,52,42,6,8,0.7,0.7
2025-12-31T0600,3300A,113.2981,23.237,广州市,白云嘉禾,,41,41,64,26,39,22,22,,,42,54,5,8,0.5,0.8
2025-12-31T0600,3301A,113.4256,23.1716,广州市,黄埔科学城,,46,44,44,32,29,37,37,,,26,34,3,4,0.7,0.7
2025-12-31T0600,3302A,113.3942,23.0483,广州市,番禺大学城,,,71,64,47,36,,,,,62,47,16,16,0.8,0.7
2025-12-31T0600,3303A,113.4922,22.8168,广州市,南沙黄阁,细颗粒物(PM2.5),100,96,81,75,51,7,7,,,88,76,7,11,1.0,1
2025-12-31T0600,3304A,113.5342,22.7896,广州市,南沙街,细颗粒物(PM2.5),79,78,81,58,50,11,11,,,74,61,6,10,0.7,0.8
2025-12-31T0600,3443A,113.2902,23.5544,广州市,花都梯面,,39,36,38,27,26,3,3,,,40,31,6,8,0.6,0.6
2025-12-31T0600,3445A,113.7858,23.7478,广州市,从化良口,,24,24,28,16,21,7,7,,,27,18,8,9,0.6,0.6
2025-12-31T0600,3446A,113.8051,23.2614,广州市,增城荔城,,38,33,38,26,29,19,19,,,25,22,8,7,0.5,0.6
2025-12-31T0600,2505A,109.568,23.1478,贵港市,德智高中,,,,,,,,,,,,,,,,
2025-12-31T0600,2506A,109.6047,23.0666,贵港市,江南子站,细颗粒物(PM2.5),65,63,76,47,49,33,33,,,26,34,10,10,0.7,0.8
2025-12-31T0600,2508A,109.5669,23.1065,贵港市,荷城子站,细颗粒物(PM2.5),64,66,63,46,42,25,25,,,37,30,10,8,1.0,1.1
2025-12-31T0600,3405A,109.5886,23.1172,贵港市,新世纪学校,细颗粒物(PM2.5),70,83,67,51,43,12,12,,,56,37,10,10,0.6,0.6
2025-12-31T0600,4260A,109.5933,23.0951,贵港市,中山路155-3号,细颗粒物(PM2.5),80,76,61,59,45,25,25,,,41,29,10,9,0.8,0.8
2025-12-31T0600,1439A,106.6899,26.5998,贵阳市,马鞍山,细颗粒物(PM2.5),55,48,34,39,30,41,41,,,8,18,4,5,0.5,0.7
2025-12-31T0600,1441A,106.6243,26.6266,贵阳市,鉴湖路,,42,41,42,29,25,58,58,,,14,22,3,4,0.6,0.6
2025-12-31T0600,1442A,106.7487,26.6343,贵阳市,燕子冲,,49,,32,34,31,32,32,,,15,16,6,7,0.6,0.6
2025-12-31T0600,1443A,106.6555,26.4365,贵阳市,碧云窝,颗粒物(PM10),51,51,47,29,28,58,58,,,7,14,5,6,0.4,0.5
2025-12-31T0600,1445A,106.7109,26.6027,贵阳市,红边门,细颗粒物(PM2.5),52,46,38,36,29,35,35,,,14,26,8,10,0.7,0.8
2025-12-31T0600,1446A,106.7164,26.5699,贵阳市,新华路,细颗粒物(PM2.5),58,48,44,41,27,43,43,,,12,22,6,8,0.5,0.6
2025-12-31T0600,1447A,106.674,26.5424,贵阳市,太慈桥,细颗粒物(PM2.5),58,44,40,41,30,45,45,,,11,21,4,6,0.2,0.3
2025-12-31T0600,1552A,106.805,26.3003,贵阳市,桐木岭,,,,,,,,,,,,,,,,
2025-12-31T0600,4230A,106.6882,26.5695,贵阳市,花果园大街66号,细颗粒物(PM2.5),72,,32,52,38,47,47,,,11,22,2,2,0.1,0.2
2025-12-31T0600,4231A,106.6873,26.5169,贵阳市,漓江路57号,细颗粒物(PM2.5),58,56,44,41,31,48,48,,,15,25,9,10,0.8,0.8
2025-12-31T0600,1862A,110.4144,25.3167,桂林市,电子科大尧山校区,,,,,,,,,,,,,,,,
2025-12-31T0600,1864A,110.3089,25.2708,桂林市,龙隐路小学,细颗粒物(PM2.5),72,63,61,52,50,77,77,,,10,12,8,8,0.7,0.6
2025-12-31T0600,1865A,110.2869,25.2178,桂林市,八中,细颗粒物(PM2.5),79,66,65,58,53,44,44,,,41,25,8,9,0.6,0.5
2025-12-31T0600,3531A,110.296,25.1253,桂林市,旅游学院,细颗粒物(PM2.5),67,63,58,48,44,54,54,,,23,18,5,6,0.6,0.6
2025-12-31T0600,4222A,110.1835,25.2444,桂林市,环湖路276号,细颗粒物(PM2.5),89,80,65,66,49,76,76,,,17,21,8,8,0.5,0.4
2025-12-31T0600,4301A,110.2803,25.2773,桂林市,信义路13号,细颗粒物(PM2.5),85,74,63,63,45,88,88,,,18,17,7,7,0.8,0.7
2025-12-31T0600,2674A,100.2561,34.4714,果洛藏族自治州,玛沁县大武镇,,29,29,39,13,14,33,33,,,2,4,18,15,0.3,0.5
2025-12-31T0600,1129A,126.5422,45.755,哈尔滨市,岭北,,,,,,,,,,,,,,,,
2025-12-31T0600,1130A,126.561,45.8167,哈尔滨市,松北商大,,34,34,32,20,22,14,14,,,25,27,19,11,0.5,0.5
2025-12-31T0600,1132A,126.599,45.7222,哈尔滨市,南岗学府路,,31,31,30,20,19,10,10,,,25,20,13,10,0.6,0.5
2025-12-31T0600,1133A,126.689,45.7733,哈尔滨市,太平宏伟公园,,37,37,27,22,19,17,17,,,24,17,29,21,0.8,0.7
2025-12-31T0600,1134A,126.635,45.7667,哈尔滨市,道外承德广场,,46,46,45,23,20,17,17,,,26,21,14,10,0.6,0.5
2025-12-31T0600,1136A,126.6411,45.7258,哈尔滨市,动力和平路,,43,38,32,30,22,8,8,,,31,22,20,15,0.6,0.6
2025-12-31T0600,1137A,126.593,45.7478,哈尔滨市,道里建国路,,35,30,28,24,20,13,13,,,25,19,14,8,0.6,0.6
2025-12-31T0600,1138A,126.615,45.61,哈尔滨市,平房东轻厂,细颗粒物(PM2.5),52,,59,36,48,5,5,,,33,34,5,7,1.0,1.2
2025-12-31T0600,1139A,126.595,45.9855,哈尔滨市,呼兰师专,,,,37,26,38,10,10,,,25,24,,7,0.7,0.7
2025-12-31T0600,1140A,126.6206,45.6842,哈尔滨市,省农科院,,48,41,39,33,27,10,10,,,37,27,9,12,0.8,0.7
2025-12-31T0600,4282A,126.6769,45.7379,哈尔滨市,华山路1号,,34,34,28,21,17,12,12,,,32,24,19,14,0.8,0.7
2025-12-31T0600,4283A,126.9717,45.5356,哈尔滨市,解放大街52号,,,,37,,27,,,36,,,16,,6,,0.7
2025-12-31T0600,2688A,93.5128,42.8172,哈密市,地区监测站,,44,44,63,20,41,60,60,,,8,19,10,11,0.0,0
2025-12-31T0600,2689A,93.4961,42.8328,哈密市,哈密师范学校,颗粒物(PM10),52,54,67,25,35,29,29,,,32,30,3,5,0.5,0.3
2025-12-31T0600,2671A,100.9048,36.9639,海北藏族自治州,海晏县西海镇,细颗粒物(PM2.5),55,45,32,39,25,38,38,,,14,16,9,14,1.0,0.7
2025-12-31T0600,3867A,102.0738,36.5056,海东市,平安区公安北苑,细颗粒物(PM2.5),87,64,72,64,49,40,40,,,15,31,20,30,1.0,1.4
2025-12-31T0600,1409A,110.576,19.9507,海口市,东寨港,,,,,,,,,,,,,,,,
2025-12-31T0600,1410A,110.3232,20.0574,海口市,海南大学,细颗粒物(PM2.5),54,53,42,38,29,118,118,,,14,11,7,6,0.4,0.4
2025-12-31T0600,1411A,110.283,20.0053,海口市,秀英海南医院,细颗粒物(PM2.5),70,58,41,51,32,95,95,,,21,15,9,8,0.5,0.4
2025-12-31T0600,1412A,110.338,19.9969,海口市,海南师范大学,细颗粒物(PM2.5),70,62,42,51,32,108,108,,,20,15,8,6,0.6,0.5
2025-12-31T0600,1413A,110.33,20.0356,海口市,龙华路环保局宿舍,细颗粒物(PM2.5),62,52,41,44,31,116,116,,,16,13,9,8,0.8,0.7
2025-12-31T0600,3539A,110.5111,19.9736,海口市,桂林洋子站,细颗粒物(PM2.5),82,76,50,60,36,102,102,,,15,12,10,9,0.5,0.4
2025-12-31T0600,2673A,100.6188,36.2866,海南藏族自治州,共和县恰卜恰镇,,31,31,42,12,23,18,18,,,22,24,12,13,0.4,0.6
2025-12-31T0600,2676A,97.3731,37.3753,海西蒙古族藏族自治州,德令哈市,,30,30,27,7,11,66,66,,,6,10,11,11,0.6,0.7
2025-12-31T0600,1048A,114.5302,36.6116,邯郸市,东污水处理厂,,40,33,82,28,73,34,34,,,18,34,4,7,0.6,0.8
2025-12-31T0600,1049A,114.4918,36.5713,邯郸市,矿院,,39,29,74,27,73,36,36,,,29,39,4,6,0.6,0.8
2025-12-31T0600,1050A,114.484,36.6133,邯郸市,丛台公园,,47,47,84,29,69,37,37,,,24,35,5,7,0.6,0.8
2025-12-31T0600,3458A,114.7895,36.5593,邯郸市,香泉濮院小区,,42,38,92,29,77,29,29,,,28,38,4,7,0.7,0.9
2025-12-31T0600,3579A,114.50634,36.77178,邯郸市,永年区实验高中,,40,40,80,19,49,30,30,,,30,45,4,6,0.6,0.8
2025-12-31T0600,3580A,114.20016,36.44293,邯郸市,峰峰矿区临水派出所,,34,34,65,22,74,47,47,,,18,27,7,10,0.7,0.9
2025-12-31T0600,2634A,106.9893,33.1842,汉中市,汉川机床厂子校,,,,,,,,,,,,,,,,
2025-12-31T0600,2635A,107.0154,33.0706,汉中市,市监测站,细颗粒物(PM2.5),58,,115,41,104,73,73,,,13,39,5,5,0.5,1.3
2025-12-31T0600,2636A,107.0089,33.1138,汉中市,鑫源开发区,细颗粒物(PM2.5),52,37,94,36,76,85,85,,,10,37,5,5,0.5,1.1
2025-12-31T0600,2637A,107.007,33.0323,汉中市,南郑大河坎水厂,,,82,160,73,140,,,,,28,36,5,6,1.0,1.8
2025-12-31T0600,1223A,120.2072,30.2111,杭州市,滨江,,15,15,104,7,49,38,38,,,28,40,9,10,0.1,0.4
2025-12-31T0600,1224A,120.0633,30.2747,杭州市,西溪,,33,33,102,6,61,31,31,,,32,44,8,8,0.4,0.8
2025-12-31T0600,1226A,120.3417,30.3150,杭州市,下沙,,32,32,110,13,74,27,27,,,41,40,6,8,0.7,0.8
2025-12-31T0600,1227A,120.1269,30.2456,杭州市,卧龙桥,,23,23,107,6,66,41,41,,,28,34,9,10,0.4,0.7
2025-12-31T0600,1228A,120.1903,30.2692,杭州市,浙江农大,,22,14,105,6,69,32,32,,,43,40,2,3,0.2,0.6
2025-12-31T0600,1230A,120.1197,30.3119,杭州市,和睦小学,,28,,124,19,73,52,52,,,29,39,4,5,0.4,0.8
2025-12-31T0600,1231A,120.3019,30.4183,杭州市,临平镇,,,24,96,13,70,17,17,,,43,30,7,7,,0.7
2025-12-31T0600,1232A,120.2753,30.1839,杭州市,城厢镇,,48,48,118,10,72,34,34,,,32,38,8,10,0.2,0.6
2025-12-31T0600,1233A,120.0883,30.1808,杭州市,云栖,,28,28,107,7,69,46,46,,,28,35,4,4,0.7,1
2025-12-31T0600,3557A,119.9464,30.0494,杭州市,镇二中,,18,14,94,9,75,34,34,,,36,43,6,6,0.5,0.9
2025-12-31T0600,3558A,119.7183,30.2367,杭州市,市府大楼,,24,24,123,11,73,43,43,,,22,31,10,10,0.4,0.8
2025-12-31T0600,3656A,120.1556,30.2864,杭州市,消防大队,,29,29,114,11,84,32,32,,,31,34,6,6,0.2,0.7
2025-12-31T0600,1270A,117.1959,31.7848,合肥市,明珠广场,,27,27,111,9,78,48,48,,,14,24,7,7,0.5,0.8
2025-12-31T0600,1271A,117.3072,31.8764,合肥市,三里街,,22,22,103,14,76,44,44,,,20,30,6,6,0.7,1
2025-12-31T0600,1272A,117.2588,31.8707,合肥市,琥珀山庄,,27,27,102,18,78,49,49,,,19,27,8,8,0.6,0.9
2025-12-31T0600,1273A,117.1604,31.9052,合肥市,董铺水库,,,,,,,,,,,,,,,,
2025-12-31T0600,1274A,117.25,31.8571,合肥市,长江中路,,29,29,106,15,80,48,48,,,18,26,7,8,0.7,1
2025-12-31T0600,1275A,117.266,31.9436,合肥市,庐阳区,,29,29,107,12,73,50,50,,,22,32,3,4,0.6,0.9
2025-12-31T0600,1276A,117.3453,31.8616,合肥市,瑶海区,,27,27,104,15,74,44,44,,,24,34,6,6,0.6,0.9
2025-12-31T0600,1277A,117.3027,31.7964,合肥市,包河区,,27,27,111,14,81,40,40,,,32,58,8,9,0.8,1.1
2025-12-31T0600,1278A,117.2776,31.7385,合肥市,滨湖新区,,34,34,116,19,90,45,45,,,23,27,3,6,0.8,1.1
2025-12-31T0600,1279A,117.1318,31.8403,合肥市,高新区,,31,31,104,18,76,51,51,,,19,26,4,5,0.7,1
2025-12-31T0600,3464A,117.3803,31.9147,合肥市,高教基地,,24,24,102,13,78,48,48,,,18,24,8,9,0.6,0.8
2025-12-31T0600,3614A,79.924,37.0877,和田地区,地区环保局,颗粒物(PM10),54,58,99,13,38,54,54,,,8,19,3,2,1.0,0.7
2025-12-31T0600,3615A,79.9131,37.113,和田地区,市环保局,颗粒物(PM10),54,57,101,16,38,51,51,,,11,21,3,2,0.3,1.2
2025-12-31T0600,2516A,108.2011,24.715,河池市,东仁乐园,,,,,,,,,,,,,,,,
2025-12-31T0600,2517A,108.0497,24.6947,河池市,市环保站,细颗粒物(PM2.5),75,74,78,55,52,3,3,,,35,30,3,7,0.9,1
2025-12-31T0600,4302A,108.0901,24.6945,河池市,上任中路54号,细颗粒物(PM2.5),75,73,80,55,56,0,0,,,36,37,9,12,1.1,1.1
2025-12-31T0600,1696A,114.6778,23.7569,河源市,源西,,,,,,,,,,,,,,,,
2025-12-31T0600,1697A,114.6944,23.7586,河源市,东埔,,36,36,41,20,25,6,6,,,38,28,5,6,0.8,0.8
2025-12-31T0600,1698A,114.6892,23.7233,河源市,老城,,32,32,40,18,24,20,20,,,22,25,6,7,0.9,0.9
2025-12-31T0600,1718A,115.4208,35.2464,菏泽市,气象局,颗粒物(PM10),52,54,158,35,120,32,32,,,23,38,6,7,0.5,1
2025-12-31T0600,3374A,115.5564,35.0891,菏泽市,定陶老年大学,细颗粒物(PM2.5),62,66,146,44,113,21,21,,,27,37,6,8,0.9,1.2
2025-12-31T0600,4184A,115.4797,35.24401,菏泽市,永昌路1号,细颗粒物(PM2.5),54,55,159,38,124,27,27,,,21,39,6,10,0.7,1.2
2025-12-31T0600,4193A,115.4715,35.2800,菏泽市,长城路999号,,50,50,159,29,122,28,28,,,22,39,6,7,0.8,1.2
2025-12-31T0600,2514A,111.5264,24.4172,贺州市,环保小区,细颗粒物(PM2.5),68,,61,49,48,19,19,,,21,21,6,7,0.8,0.9
2025-12-31T0600,2515A,111.5608,24.4078,贺州市,政协大楼,细颗粒物(PM2.5),55,45,53,39,39,4,4,,,37,26,8,8,0.6,0.7
2025-12-31T0600,3534A,111.4744,24.4553,贺州市,西湾,细颗粒物(PM2.5),80,69,63,59,46,37,37,,,18,25,9,8,0.8,0.7
2025-12-31T0600,2385A,114.17,35.9019,鹤壁市,市监测站,,36,36,106,16,87,35,35,,,19,30,10,8,0.8,1.1
2025-12-31T0600,2386A,114.2956,35.7511,鹤壁市,市交警支队,,40,40,113,16,81,28,28,,,24,37,15,10,0.6,0.9
2025-12-31T0600,2387A,114.2878,35.7306,鹤壁市,迎宾馆,,48,48,113,24,83,38,38,,,21,34,8,9,0.8,1.1
2025-12-31T0600,3474A,114.2617,35.6822,鹤壁市,大新区,,28,28,99,3,69,39,39,,,25,34,8,9,0.7,0.9
2025-12-31T0600,3596A,114.1572,35.9603,鹤壁市,南山宾馆,,44,44,113,19,86,37,37,,,18,31,10,10,0.7,1.1
2025-12-31T0600,2244A,130.2537,47.3416,鹤岗市,哈啤分公司,,32,23,25,22,22,48,48,,,6,7,6,6,0.4,0.4
2025-12-31T0600,2245A,130.2684,47.3086,鹤岗市,斯达机电,,35,29,32,24,24,49,49,,,8,9,5,5,0.4,0.5
2025-12-31T0600,2246A,130.3114,47.3388,鹤岗市,东山纸板厂,,32,22,22,22,23,54,54,,,2,8,6,8,0.7,0.7
2025-12-31T0600,2247A,130.1097,47.3382,鹤岗市,五号水库,,,,,,,,,,,,,,,,
2025-12-31T0600,2263A,127.4833,50.2524,黑河市,交通局,,29,,19,20,16,41,41,,,4,13,3,4,0.3,0.6
2025-12-31T0600,2264A,127.5144,50.2341,黑河市,环保局,,19,19,19,9,17,37,37,,,7,12,5,4,0.3,0.4
2025-12-31T0600,2265A,127.5291,50.2472,黑河市,大黑河岛,,,,,,,,,,,,,,,,
2025-12-31T0600,1074A,115.6838,37.7541,衡水市,电机北厂,细颗粒物(PM2.5),52,50,83,36,52,3,3,,,44,43,7,11,0.6,0.7
2025-12-31T0600,1075A,115.6303,37.7316,衡水市,市监测站,,45,45,75,27,42,10,10,,,47,45,7,8,0.6,0.7
2025-12-31T0600,3188A,115.6683,37.7217,衡水市,市城管局,细颗粒物(PM2.5),53,50,84,37,59,9,9,,,46,44,8,10,0.6,0.8
2025-12-31T0600,3459A,115.5989,37.5491,衡水市,地表水厂,,39,39,66,24,49,12,12,,,39,36,7,6,0.5,0.6
2025-12-31T0600,2456A,112.5003,26.9167,衡阳市,原169医院,,,,,,,,,,,,,,,,
2025-12-31T0600,2457A,112.6194,26.9258,衡阳市,衡阳化工总厂,细颗粒物(PM2.5),192,,119,144,119,43,43,,,18,24,10,13,1.3,1.3
2025-12-31T0600,2458A,112.6211,26.8956,衡阳市,珠晖区环保局,细颗粒物(PM2.5),183,,114,138,113,29,29,,,29,33,8,9,1.5,1.5
2025-12-31T0600,2459A,112.6197,26.8733,衡阳市,市委党校,细颗粒物(PM2.5),195,,113,146,120,46,46,,,20,23,10,11,1.3,1.3
2025-12-31T0600,2460A,112.6006,26.8919,衡阳市,市监测站,细颗粒物(PM2.5),160,180,154,122,109,45,45,,,16,21,10,12,1.1,1.1
2025-12-31T0600,2461A,112.5664,26.9056,衡阳市,真空机电公司,细颗粒物(PM2.5),203,157,136,153,122,44,44,,,21,31,10,12,1.2,1.3
2025-12-31T0600,3399A,112.6703,26.882,衡阳市,师范学院,细颗粒物(PM2.5),160,162,134,122,101,46,46,,,25,26,10,7,1.4,1.3
2025-12-31T0600,2608A,103.3772,23.3993,红河哈尼族彝族自治州,污水处理厂,,50,,32,35,30,52,52,,,6,7,6,6,0.4,0.5
2025-12-31T0600,2609A,103.3861,23.35,红河哈尼族彝族自治州,监测站,,35,27,36,24,30,66,66,,,2,4,7,8,0.2,0.3
2025-12-31T0600,3038A,103.3758,23.368,红河哈尼族彝族自治州,州图书馆,,20,17,27,14,19,62,62,,,4,5,6,6,0.4,0.4
2025-12-31T0600,1090A,111.6507,40.7517,呼和浩特市,呼市一监,,20,6,11,3,4,63,63,,,10,11,2,2,0.3,0.2
2025-12-31T0600,1094A,111.7516,40.8369,呼和浩特市,如意水处理厂,,17,6,7,3,3,54,54,,,18,11,8,8,0.3,0.2
2025-12-31T0600,1095A,111.7276,40.8062,呼和浩特市,二十九中,,19,6,10,3,3,60,60,,,12,9,8,9,0.2,0.2
2025-12-31T0600,1097A,111.717,40.7612,呼和浩特市,化肥厂生活区,,20,8,12,3,4,63,63,,,7,11,3,4,0.5,0.5
2025-12-31T0600,3699A,111.6518,40.8389,呼和浩特市,海东办,,19,,8,3,4,59,59,,,15,11,4,4,0.2,0.2
2025-12-31T0600,4275A,111.5915,40.8273,呼和浩特市,成吉思汗西街8号,,18,6,5,3,3,55,55,,,14,13,6,6,0.3,0.3
2025-12-31T0600,4276A,111.6597,40.8077,呼和浩特市,公园东路75号,,17,,10,3,4,54,54,,,18,17,5,5,0.2,0.2
2025-12-31T0600,4277A,111.5417,40.7846,呼和浩特市,金海路35号,,19,12,15,3,3,58,58,,,15,14,8,8,0.1,0.1
2025-12-31T0600,3061A,119.7512,49.1577,呼伦贝尔市,国华电力东,,29,24,29,20,23,37,37,,,16,19,5,7,0.2,0.4
2025-12-31T0600,4279A,119.7569,49.2222,呼伦贝尔市,伊敏大街东7号,,33,23,26,23,22,41,41,,,9,10,7,7,0.3,0.3
2025-12-31T0600,1250A,120.0751,30.8669,湖州市,城西水厂,,20,12,86,7,68,61,61,,,19,31,8,9,0.1,0.4
2025-12-31T0600,2873A,120.0830,30.8929,湖州市,仁皇山新区,,22,10,84,3,66,68,68,,,18,29,8,9,0.1,0.4
2025-12-31T0600,2907A,120.1844,30.8596,湖州市,吴兴区站,,25,25,99,6,61,54,54,,,22,27,6,7,0.4,0.8
2025-12-31T0600,3562A,120.4148,30.8538,湖州市,南浔区站,,22,22,76,12,38,25,25,,,43,32,6,6,0.4,0.6
2025-12-31T0600,1607A,120.9049,40.7211,葫芦岛市,龙港区,,13,6,50,3,27,40,40,,,16,26,10,21,0.5,0.9
2025-12-31T0600,1608A,120.8392,40.7514,葫芦岛市,化工街,,14,6,39,3,16,44,44,,,10,23,20,22,0.3,0.5
2025-12-31T0600,1609A,120.8341,40.7073,葫芦岛市,新区,,14,9,34,3,16,42,42,,,18,25,10,14,0.8,0.8
2025-12-31T0600,1610A,120.8695,40.7677,葫芦岛市,东城区,,15,6,31,3,19,46,46,,,10,23,10,20,0.5,0.7
2025-12-31T0600,2482A,109.5981,27.5721,怀化市,林科所,,,,,,,,,,,,,,,,
2025-12-31T0600,2483A,109.9453,27.5444,怀化市,河西地税局,细颗粒物(PM2.5),130,109,93,99,78,70,70,,,14,19,7,8,0.7,0.7
2025-12-31T0600,2484A,109.9781,27.5342,怀化市,市四医院,细颗粒物(PM2.5),114,111,101,86,77,60,60,,,12,15,12,14,0.7,0.7
2025-12-31T0600,2485A,109.9972,27.5578,怀化市,监测楼,细颗粒物(PM2.5),93,95,93,69,70,59,59,,,18,24,5,8,0.3,0.3
2025-12-31T0600,2486A,110.0394,27.583,怀化市,市委党校,细颗粒物(PM2.5),132,106,108,100,88,64,64,,,12,20,10,13,0.5,0.6
2025-12-31T0600,1210A,119.036,33.5981,淮安市,钵池山,,48,48,58,32,56,32,32,,,29,27,6,7,0.3,0.4
2025-12-31T0600,1211A,119.007,33.575,淮安市,北京南路,,,,55,,47,,,52,,,22,,7,,0.6
2025-12-31T0600,1212A,118.989,33.6067,淮安市,市监测站,细颗粒物(PM2.5),62,56,52,44,38,25,25,,,28,25,8,9,0.5,0.5
2025-12-31T0600,1213A,119.135,33.5039,淮安市,楚州区监测站,,26,24,44,18,31,46,46,,,16,18,9,10,0.4,0.5
2025-12-31T0600,3426A,118.8755,33.2894,淮安市,新华书店,,23,23,54,11,36,50,50,,,19,23,8,9,0.4,0.5
2025-12-31T0600,4206A,119.0288,33.6319,淮安市,承德北路606号,"颗粒物(PM10),细颗粒物(PM2.5)",54,58,75,38,58,24,24,,,30,33,7,7,0.6,0.6
2025-12-31T0600,2282A,116.8004,33.975,淮北市,监测站,细颗粒物(PM2.5),82,72,142,60,92,39,39,,,26,34,9,9,1.0,1.1
2025-12-31T0600,2283A,116.8091,33.9007,淮北市,烈山区政府,细颗粒物(PM2.5),84,81,117,62,97,36,36,,,33,34,8,10,0.6,0.7
2025-12-31T0600,3330A,116.8873,33.9836,淮北市,杜集区检察院,细颗粒物(PM2.5),80,82,113,59,89,44,44,,,20,24,6,7,0.7,0.8
2025-12-31T0600,4017A,116.7923,33.9535,淮北市,市博物馆,细颗粒物(PM2.5),70,69,131,51,92,42,42,,,25,28,11,11,0.6,0.8
2025-12-31T0600,2277A,116.8305,32.7727,淮南市,潘集区政府,,32,29,98,22,80,47,47,,,14,19,5,6,0.4,0.6
2025-12-31T0600,2279A,116.8569,32.5951,淮南市,谢家集区政府,,17,17,86,8,55,48,48,,,16,22,7,8,0.3,0.5
2025-12-31T0600,2280A,116.8281,32.633,淮南市,八公山区政府,,21,21,90,14,64,50,50,,,13,18,4,7,0.3,0.6
2025-12-31T0600,2281A,116.6325,32.6201,淮南市,焦岗湖风景区管理处,,,,,,,,,,,,,,,,
2025-12-31T0600,2894A,117.0566,32.6531,淮南市,经济技术开发区消防队,,29,29,102,8,64,49,49,,,19,24,4,5,0.3,0.6
2025-12-31T0600,3329A,117.0108,32.5893,淮南市,山南新区,,31,31,90,6,52,54,54,,,11,17,2,3,0.3,0.6
2025-12-31T0600,4209A,117.0031,32.6445,淮南市,国庆中路369号,,24,24,90,8,58,45,45,,,14,23,4,6,0.2,0.5
2025-12-31T0600,2446A,114.9028,30.4742,黄冈市,职工中心,细颗粒物(PM2.5),117,126,116,88,83,79,79,,,14,27,7,8,1.0,0.9
2025-12-31T0600,2929A,114.8858,30.4519,黄冈市,红卫路,细颗粒物(PM2.5),118,115,108,89,91,84,84,,,11,30,7,8,0.8,0.8
2025-12-31T0600,3398A,114.9136,30.4445,黄冈市,市林业局,细颗粒物(PM2.5),134,106,116,102,93,85,85,,,16,34,4,5,1.2,1.1
2025-12-31T0600,2672A,102.0199,35.5102,黄南藏族自治州,同仁县隆务镇,细颗粒物(PM2.5),52,47,41,36,27,57,57,,,3,6,10,12,0.6,0.5
2025-12-31T0600,2295A,118.2903,29.6963,黄山市,延安路89号,细颗粒物(PM2.5),87,77,65,64,51,38,38,,,18,18,4,5,0.7,0.6
2025-12-31T0600,2297A,118.1371,30.2756,黄山市,黄山区政府5号楼,细颗粒物(PM2.5),93,102,93,69,72,20,20,,,15,16,6,6,0.8,0.8
2025-12-31T0600,4210A,118.3354,29.7203,黄山市,滨江东路7-2号,细颗粒物(PM2.5),109,93,84,82,66,46,46,,,16,17,4,4,0.8,0.7
2025-12-31T0600,2423A,115.0601,30.2313,黄石市,沈家营,细颗粒物(PM2.5),110,131,134,83,85,,,,,28,40,8,9,1.2,1.3
2025-12-31T0600,2426A,114.8988,30.2019,黄石市,铁山,细颗粒物(PM2.5),168,,110,127,105,63,63,,,30,34,6,8,0.5,0.5
2025-12-31T0600,2427A,115.0307,30.2092,黄石市,团城山,细颗粒物(PM2.5),144,121,121,110,95,65,65,,,25,31,7,8,0.9,0.9
2025-12-31T0600,3149A,115.0235,30.1578,黄石市,笔架山北路,细颗粒物(PM2.5),148,160,158,113,98,53,53,,,27,26,6,9,1.3,1.2
2025-12-31T0600,4185A,115.0780,30.21118,黄石市,磁湖东路29号,细颗粒物(PM2.5),150,143,133,115,104,45,45,,,37,45,9,12,1.2,1.3
2025-12-31T0600,1392A,114.4183,23.0528,惠州市,河南岸金山湖子站,细颗粒物(PM2.5),54,56,49,38,35,36,36,,,27,36,10,6,0.6,0.7
2025-12-31T0600,1393A,114.4053,23.0822,惠州市,下埔横江三路子站,颗粒物(PM10),52,53,60,32,36,48,48,,,28,33,8,8,0.6,0.7
2025-12-31T0600,1395A,114.4645,22.7833,惠州市,惠阳区承修路船湖子站,颗粒物(PM10),57,63,49,37,28,32,32,,,34,23,7,7,0.7,0.6
2025-12-31T0600,1396A,114.5317,22.7422,惠州市,大亚湾管委会子站,,26,26,49,12,27,82,82,,,12,26,7,7,0.3,0.4
2025-12-31T0600,3314A,114.4338,22.8134,惠州市,惠阳秋长,,36,36,65,22,36,56,56,,,25,40,16,17,0.5,0.7
2025-12-31T0600,3452A,114.6517,22.775,惠州市,大亚湾霞涌,,28,28,40,15,22,61,61,,,22,22,4,6,0.4,0.6
2025-12-31T0600,4300A,114.4089,23.1147,惠州市,文华一路1号,,,,56,,34,,,52,,,42,,9,,0.5
2025-12-31T0600,2240A,130.9762,45.3001,鸡西市,环保局,,20,18,26,14,11,37,37,,,5,8,6,6,0.2,0.2
2025-12-31T0600,2243A,130.9429,45.3039,鸡西市,第一中学,,20,15,22,14,12,40,40,,,7,7,3,3,0.3,0.3
2025-12-31T0600,3707A,131.0207,45.3073,鸡西市,欧美日汽修厂,,28,28,30,15,15,42,42,,,12,12,6,6,0.3,0.3
2025-12-31T0600,3709A,130.9967,45.3106,鸡西市,市政设施管理处,,28,21,28,19,15,33,33,,,14,17,7,8,0.2,0.2
2025-12-31T0600,2367A,114.9754,27.0803,吉安市,红声器材厂,细颗粒物(PM2.5),75,80,71,55,45,47,47,,,30,30,10,11,0.9,0.8
2025-12-31T0600,2368A,114.9658,27.0999,吉安市,市森林工业局,细颗粒物(PM2.5),89,90,71,66,49,50,50,,,29,28,17,15,0.6,0.6
2025-12-31T0600,2369A,114.99,27.1312,吉安市,市环境监测站,细颗粒物(PM2.5),84,83,68,62,48,45,45,,,29,27,16,18,0.8,0.6
2025-12-31T0600,2370A,115.0093,27.0968,吉安市,青原区法院,细颗粒物(PM2.5),87,80,69,64,49,46,46,,,24,26,14,14,1.0,0.8
2025-12-31T0600,1772A,126.54,43.8622,吉林市,哈达湾,,36,36,25,22,15,24,24,,,23,15,10,10,1.2,1.1
2025-12-31T0600,1773A,126.5844,43.8358,吉林市,东局子,,46,41,27,32,17,7,7,,,31,20,2,5,1.2,0.9
2025-12-31T0600,1774A,126.5052,43.8245,吉林市,电力学院,,48,47,41,33,24,8,8,,,34,22,10,11,1.0,0.9
2025-12-31T0600,1775A,126.6133,43.8972,吉林市,江北,细颗粒物(PM2.5),54,56,39,38,25,15,15,,,26,19,3,3,0.8,0.6
2025-12-31T0600,1776A,126.555,43.8306,吉林市,江南公园,,34,34,23,21,14,9,9,,,32,15,6,7,0.9,0.7
2025-12-31T0600,1778A,126.7061,43.7133,吉林市,丰满,,,,,,,,,,,,,,,,
2025-12-31T0600,2868A,126.4739,43.953,吉林市,九站,,48,47,32,33,21,14,14,,,30,23,6,6,0.8,0.9
2025-12-31T0600,1299A,116.9862,36.6114,济南市,科干所,,39,39,88,20,48,38,38,,,25,46,7,11,0.7,1
2025-12-31T0600,1300A,116.9376,36.665,济南市,农科所,颗粒物(PM10),52,54,96,32,54,15,15,,,40,50,12,11,0.9,1.1
2025-12-31T0600,1301A,117.1265,36.6734,济南市,开发区,"颗粒物(PM10),细颗粒物(PM2.5)",53,56,89,37,55,16,16,,,34,45,10,8,0.7,0.9
2025-12-31T0600,1303A,117.0624,36.6868,济南市,省种子仓库,颗粒物(PM10),56,61,110,34,58,12,12,,,47,51,19,14,0.8,1
2025-12-31T0600,1304A,116.9489,36.6447,济南市,机床二厂,颗粒物(PM10),53,56,99,32,61,19,19,,,44,51,12,16,0.9,1.1
2025-12-31T0600,1305A,117.0495,36.663,济南市,市监测站,颗粒物(PM10),52,54,91,29,53,11,11,,,38,45,12,9,0.7,1
2025-12-31T0600,1306A,116.7675,36.5484,济南市,长清党校,颗粒物(PM10),52,54,89,22,53,22,22,,,34,45,12,11,0.8,0.9
2025-12-31T0600,1616A,117.6795,36.229,济南市,技术学院,,45,41,97,31,74,35,35,,,29,45,2,7,0.6,1
2025-12-31T0600,1961A,117.532,36.6868,济南市,东山小学,颗粒物(PM10),56,61,93,32,56,10,10,,,53,44,5,7,0.9,1.1
2025-12-31T0600,3059A,117.7161,36.2049,济南市,泰兴公司,细颗粒物(PM2.5),55,48,114,39,88,37,37,,,29,45,2,9,0.5,1
2025-12-31T0600,3064A,117.6867,36.2171,济南市,莱芜战役纪念馆,细颗粒物(PM2.5),54,48,111,38,87,34,34,,,26,44,5,9,0.4,0.9
2025-12-31T0600,3494A,117.1673,36.9782,济南市,济阳区政府,,39,39,88,15,53,25,25,,,31,40,5,11,0.6,0.8
2025-12-31T0600,3495A,117.1171,36.63,济南市,锦屏中学,,39,39,71,22,44,31,31,,,29,38,4,6,0.5,0.8
2025-12-31T0600,3682A,116.9814,36.6819,济南市,济南四建,颗粒物(PM10),51,51,97,29,61,12,12,,,37,45,15,13,1.2,1.5
2025-12-31T0600,1653A,116.6251,35.4302,济宁市,火炬城,,,59,140,48,119,,,,,19,45,10,9,0.6,1
2025-12-31T0600,1655A,116.5491,35.4042,济宁市,电化厂,细颗粒物(PM2.5),73,84,168,53,112,39,39,,,28,53,14,12,0.5,0.8
2025-12-31T0600,3500A,116.5814,35.3707,济宁市,北湖一中,细颗粒物(PM2.5),68,54,115,49,107,41,41,,,20,43,21,9,0.5,0.9
2025-12-31T0600,3501A,116.8249,35.5593,济宁市,服务中心,颗粒物(PM10),75,99,160,33,102,35,35,,,21,48,13,16,1.1,1.3
2025-12-31T0600,3678A,116.5907,35.4054,济宁市,市第七中学,细颗粒物(PM2.5),58,50,122,41,101,41,41,,,22,46,21,14,0.6,1
2025-12-31T0600,2255A,130.2751,46.8028,佳木斯市,佳纺,,29,28,33,20,24,22,22,,,29,16,13,7,0.4,0.3
2025-12-31T0600,2257A,130.3258,46.7975,佳木斯市,环保局,,29,21,29,20,18,33,33,,,17,17,7,7,0.3,0.4
2025-12-31T0600,2259A,130.3794,46.7588,佳木斯市,四丰,,,,,,,,,,,,,,,,
2025-12-31T0600,4285A,130.363,46.806,佳木斯市,顺和街,,29,24,26,20,19,29,29,,,16,14,11,8,0.5,0.4
2025-12-31T0600,4286A,130.3952,46.8268,佳木斯市,长安路196号,,23,22,24,16,17,42,42,,,7,13,4,5,0.3,0.3
2025-12-31T0600,1252A,120.7436,30.778,嘉兴市,清河小学,,20,20,76,14,59,43,43,,,27,36,5,5,0.1,0.3
2025-12-31T0600,1253A,120.726,30.7478,嘉兴市,嘉兴学院,,20,20,85,6,52,44,44,,,25,31,7,7,0.5,0.7
2025-12-31T0600,2872A,120.7846,30.7525,嘉兴市,南湖区残联,,16,16,68,6,52,45,45,,,26,33,4,4,0.4,0.6
2025-12-31T0600,3407A,120.6916,30.7739,嘉兴市,秀洲住建,,18,18,83,7,59,40,40,,,31,34,6,7,0.3,0.6
2025-12-31T0600,1945A,98.2908,39.7711,嘉峪关市,气象局,颗粒物(PM10),70,90,59,14,30,60,60,,,4,17,2,4,0.3,0.6
2025-12-31T0600,2884A,98.2672,39.7978,嘉峪关市,酒钢宾馆,颗粒物(PM10),74,97,66,22,33,53,53,,,9,17,15,14,0.7,0.7
2025-12-31T0600,3248A,98.2643,39.7724,嘉峪关市,雄关区,颗粒物(PM10),53,56,61,33,36,61,61,,,8,24,11,12,0.6,0.9
2025-12-31T0600,1383A,113.1064,22.6058,江门市,北街,细颗粒物(PM2.5),84,77,79,62,56,1,1,,,86,58,8,9,1.0,1
2025-12-31T0600,1384A,113.0731,22.5835,江门市,西区,颗粒物(PM10),70,90,88,50,46,0,0,,,82,68,10,10,0.7,0.8
2025-12-31T0600,1385A,113.0219,22.5311,江门市,圭峰西,细颗粒物(PM2.5),104,,70,78,55,47,47,,,31,34,5,8,0.7,0.7
2025-12-31T0600,1386A,113.0828,22.5947,江门市,东湖,细颗粒物(PM2.5),78,90,85,57,54,0,0,,,82,69,7,9,0.8,0.9
2025-12-31T0600,3311A,113.1075,22.5647,江门市,江海富民,细颗粒物(PM2.5),87,111,99,64,46,4,4,,,91,71,8,9,0.9,0.9
2025-12-31T0600,3449A,113.05,22.4667,江门市,新会银湖,细颗粒物(PM2.5),93,77,78,69,58,0,0,,,40,42,6,8,0.8,0.7
2025-12-31T0600,1830A,113.1992,35.2590,焦作市,影视城,,,,,,,,,,,,,,,,
2025-12-31T0600,3335A,113.3137,35.2641,焦作市,马村街道办,,50,50,110,12,81,56,56,,,10,25,5,8,0.3,0.7
2025-12-31T0600,3336A,113.2465,35.2373,焦作市,焦作技师学院,,44,44,111,14,82,49,49,,,11,31,7,11,0.4,0.9
2025-12-31T0600,3477A,113.1656,35.2539,焦作市,中站许衡医院,,50,46,115,35,94,54,54,,,14,29,4,7,0.6,1
2025-12-31T0600,3981A,113.2449,35.1803,焦作市,原李万街道办,,43,43,117,7,82,59,59,,,12,28,3,11,0.3,0.8
2025-12-31T0600,4264A,113.2340,35.2190,焦作市,新安路1731号,颗粒物(PM10),53,56,119,16,87,52,52,,,9,24,7,8,0.4,0.7
2025-12-31T0600,4295A,113.2722,35.2121,焦作市,人民路3066号,,47,47,122,9,71,54,54,,,8,27,6,15,0.1,0.5
2025-12-31T0600,1708A,116.3701,23.5345,揭阳市,新兴,,50,44,54,35,34,33,33,,,33,33,8,10,0.7,0.7
2025-12-31T0600,1709A,116.3264,23.5443,揭阳市,西马,细颗粒物(PM2.5),57,59,63,40,33,7,7,,,38,27,5,8,0.9,0.8
2025-12-31T0600,1710A,116.3611,23.5626,揭阳市,东兴,颗粒物(PM10),55,59,56,29,30,3,3,,,57,30,8,10,0.8,0.8
2025-12-31T0600,1711A,116.4151,23.5294,揭阳市,渔湖,,48,48,54,26,26,34,34,,,30,29,4,6,0.8,0.7
2025-12-31T0600,3320A,116.403,23.5699,揭阳市,曲溪,,49,49,58,24,30,25,25,,,40,33,2,8,0.4,0.6
2025-12-31T0600,1944A,102.1692,38.5167,金昌市,天庆家园,颗粒物(PM10),68,85,104,15,37,56,56,,,6,17,2,13,0.4,0.8
2025-12-31T0600,4022A,102.1647,38.5371,金昌市,金川区人防中心,颗粒物(PM10),71,91,93,22,40,56,56,,,6,16,4,12,0.4,0.7
2025-12-31T0600,4239A,102.1930,38.5319,金昌市,长春路96号,颗粒物(PM10),65,79,88,14,34,56,56,,,6,17,5,13,0.5,0.8
2025-12-31T0600,1262A,119.647,29.077,金华市,十五中,,36,36,134,23,100,45,45,,,21,43,3,4,0.4,0.8
2025-12-31T0600,1263A,119.686,29.1029,金华市,监测站,,42,42,202,19,119,36,36,,,33,43,1,3,0.2,0.6
2025-12-31T0600,3659A,119.656,29.1131,金华市,气象局,,32,32,135,17,94,36,36,,,32,53,3,4,0.3,0.6
2025-12-31T0600,1767A,121.1115,41.0879,锦州市,南山,,19,19,28,13,14,40,40,,,13,15,8,11,0.6,0.6
2025-12-31T0600,1768A,121.0604,40.8428,锦州市,开发区,,46,46,41,12,21,32,32,,,23,23,26,17,0.6,0.7
2025-12-31T0600,1769A,121.1836,41.1119,锦州市,百股街道,,11,11,26,7,12,32,32,,,21,17,9,12,0.7,0.7
2025-12-31T0600,1770A,121.1178,41.1222,锦州市,天安街道,,16,12,27,6,10,51,51,,,12,16,10,12,0.5,0.6
2025-12-31T0600,1771A,121.1303,41.1386,锦州市,北湖公园,,16,10,25,6,12,50,50,,,6,12,7,10,0.4,0.5
2025-12-31T0600,2160A,112.85,35.5051,晋城市,自来水公司,细颗粒物(PM2.5),140,160,142,107,99,40,40,,,24,28,6,9,1.3,1.5
2025-12-31T0600,2161A,112.8318,35.4936,晋城市,白云商贸,细颗粒物(PM2.5),132,149,147,100,91,41,41,,,18,23,4,6,1.1,1.3
2025-12-31T0600,2162A,112.8508,35.4887,晋城市,市环保局,细颗粒物(PM2.5),134,151,143,102,94,40,40,,,24,24,6,8,1.1,1.2
2025-12-31T0600,2163A,112.8676,35.4897,晋城市,技术学院,细颗粒物(PM2.5),140,158,141,107,95,34,34,,,31,34,7,10,1.0,1.1
2025-12-31T0600,2165A,112.8453,35.546,晋城市,白马寺,,,,,,,,,,,,,,,,
2025-12-31T0600,3620A,112.8271,35.4828,晋城市,泽州一中,细颗粒物(PM2.5),144,124,131,110,99,43,43,,,25,29,5,6,1.1,1.2
2025-12-31T0600,2173A,112.7249,37.7067,晋中市,南都小区,颗粒物(PM10),55,59,76,28,37,34,34,,,27,38,9,11,0.4,0.6
2025-12-31T0600,2174A,112.6991,37.6982,晋中市,榆次区政府,颗粒物(PM10),53,56,78,23,36,36,36,,,29,38,9,10,0.4,0.6
2025-12-31T0600,2865A,112.7195,37.6828,晋中市,榆次三中,颗粒物(PM10),51,51,81,12,32,33,33,,,25,32,8,10,0.4,0.7
2025-12-31T0600,4200A,112.7478,37.6954,晋中市,迎宾街26号,,46,46,76,12,34,30,30,,,36,35,9,12,0.3,0.5
2025-12-31T0600,2439A,112.2014,31.0481,荆门市,竹园小学,细颗粒物(PM2.5),160,167,150,122,114,64,64,,,19,25,1,3,0.5,0.4
2025-12-31T0600,2440A,112.1969,30.9891,荆门市,掇刀,细颗粒物(PM2.5),158,162,148,120,107,73,73,,,18,22,3,4,0.7,0.7
2025-12-31T0600,2441A,112.2213,31.0386,荆门市,石化一小,细颗粒物(PM2.5),160,173,159,122,115,60,60,,,19,26,6,8,1.0,0.9
2025-12-31T0600,3012A,112.1849,31.0362,荆门市,西山林语,细颗粒物(PM2.5),153,150,140,117,108,69,69,,,18,22,2,6,0.7,0.7
2025-12-31T0600,3547A,112.1632,31.0138,荆门市,龙泉中学南校,细颗粒物(PM2.5),165,162,153,125,112,75,75,,,6,13,7,10,0.3,0.3
2025-12-31T0600,1844A,112.2494,30.3197,荆州市,市图书馆,细颗粒物(PM2.5),198,,109,148,120,68,68,,,15,25,7,9,1.0,0.9
2025-12-31T0600,1845A,112.2008,30.3544,荆州市,市委党校,细颗粒物(PM2.5),188,,126,141,115,62,62,,,19,30,4,6,0.9,0.9
2025-12-31T0600,3194A,112.2747,30.3122,荆州市,管委会,细颗粒物(PM2.5),196,,119,147,118,64,64,,,15,28,6,7,0.9,1.1
2025-12-31T0600,4268A,112.1722,30.3366,荆州市,学苑路85号,细颗粒物(PM2.5),176,142,120,133,110,77,77,,,16,25,1,1,0.9,0.8
2025-12-31T0600,2342A,117.3102,29.3867,景德镇市,王港中学,,,,,,,,,,,,,,,,
2025-12-31T0600,2343A,117.2117,29.2933,景德镇市,老干部活动中心,细颗粒物(PM2.5),90,,51,67,41,77,77,,,12,26,7,8,0.9,0.8
2025-12-31T0600,2344A,117.1894,29.2789,景德镇市,兽医站,细颗粒物(PM2.5),63,51,51,45,29,82,82,,,15,24,7,7,0.6,0.5
2025-12-31T0600,2346A,117.2461,29.2956,景德镇市,陶研所,细颗粒物(PM2.5),74,58,42,54,33,68,68,,,10,24,4,4,0.8,0.7
2025-12-31T0600,4289A,117.1542,29.2566,景德镇市,青少年活动中心,细颗粒物(PM2.5),70,65,54,51,32,85,85,,,16,30,4,11,1.0,0.9
2025-12-31T0600,1803A,115.9872,29.6815,九江市,十里,细颗粒物(PM2.5),103,109,130,77,99,70,70,,,20,29,6,7,0.9,1.1
2025-12-31T0600,1804A,115.9584,29.7046,九江市,茅山头,细颗粒物(PM2.5),98,116,134,73,97,63,63,,,16,21,6,7,0.9,1.1
2025-12-31T0600,1805A,115.9877,29.7295,九江市,西园,细颗粒物(PM2.5),90,103,127,67,93,66,66,,,36,41,3,3,0.8,1
2025-12-31T0600,1808A,115.9114,29.6038,九江市,综合工业园,细颗粒物(PM2.5),128,107,137,97,126,73,73,,,27,36,3,4,0.7,0.8
2025-12-31T0600,1809A,116.0721,29.7535,九江市,石化总厂,细颗粒物(PM2.5),102,110,137,76,119,57,57,,,24,28,7,7,0.8,1
2025-12-31T0600,1810A,115.9773,29.5698,九江市,庐山气象台,,,,,,,,,,,,,,,,
2025-12-31T0600,3190A,116.0254,29.6994,九江市,外国语学校,细颗粒物(PM2.5),103,108,124,77,87,54,54,,,23,28,8,9,0.9,1
2025-12-31T0600,4253A,116.0102,29.6594,九江市,莲花大道8号,细颗粒物(PM2.5),117,126,142,88,124,65,65,,,12,19,5,5,0.7,0.8
2025-12-31T0600,4240A,98.4958,39.7339,酒泉市,玉门东路5号,颗粒物(PM10),67,83,64,23,29,56,56,,,2,12,8,10,0.2,0.6
2025-12-31T0600,4241A,98.5099,39.7506,酒泉市,北大街108号,颗粒物(PM10),68,85,62,10,20,47,47,,,19,20,12,10,0.2,0.6
2025-12-31T0600,2698A,76.0072,39.4467,喀什地区,巡警大队,颗粒物(PM10),51,51,89,35,61,48,48,,,11,28,2,3,0.5,1.2
2025-12-31T0600,2699A,75.9755,39.4694,喀什地区,吾办,细颗粒物(PM2.5),63,58,90,45,66,43,43,,,9,25,19,8,0.6,1.2
2025-12-31T0600,4027A,75.9483,39.4689,喀什地区,老干局,细颗粒物(PM2.5),68,69,98,49,64,37,37,,,12,22,2,2,0.9,1.4
2025-12-31T0600,1824A,114.3389,34.7781,开封市,肿瘤医院,颗粒物(PM10),51,51,146,30,112,34,34,,,17,41,6,8,1.0,1.3
2025-12-31T0600,1826A,114.2885,34.7965,开封市,世纪星幼儿园,,39,34,129,27,134,37,37,,,18,42,6,6,0.4,0.8
2025-12-31T0600,3147A,114.3438,34.8106,开封市,龙亭公园,,27,27,143,16,121,35,35,,,14,42,5,6,1.0,1.3
2025-12-31T0600,3210A,114.3644,34.7964,开封市,汴京公园,,43,43,163,24,123,36,36,,,17,42,6,7,0.7,0.9
2025-12-31T0600,3473A,114.2485,34.8306,开封市,技师学院,,47,47,140,24,115,34,34,,,17,44,7,8,0.6,1
2025-12-31T0600,3592A,114.4644,34.7556,开封市,祥符区生态环境局,,42,42,160,28,128,31,31,,,25,48,5,7,0.5,0.9
2025-12-31T0600,1951A,84.895,45.6094,克拉玛依市,长征新村,,39,39,52,26,37,48,48,,,20,24,5,5,0.7,0.6
2025-12-31T0600,1952A,84.8988,45.5893,克拉玛依市,南林小区,,42,41,49,29,31,48,48,,,7,11,2,1,0.8,0.8
2025-12-31T0600,1954A,84.905,44.3396,克拉玛依市,独山子区,细颗粒物(PM2.5),132,170,159,100,102,44,44,,,22,26,5,5,1.0,1
2025-12-31T0600,1955A,85.6979,46.098,克拉玛依市,乌尔禾区商贸楼,,38,38,40,26,37,22,22,,,29,26,5,6,0.7,0.7
2025-12-31T0600,3612A,85.1045,45.6899,克拉玛依市,白碱滩区新站,,45,33,55,31,37,44,44,,,10,17,8,9,0.7,0.6
2025-12-31T0600,2697A,76.1454,39.7142,克孜勒苏柯尔克孜自治州,市人民政府,,50,50,86,34,59,56,56,,,7,18,5,5,0.2,0.5
2025-12-31T0600,3665A,76.1658,39.7157,克孜勒苏柯尔克孜自治州,克州文化中心,,50,35,72,35,57,50,50,,,8,17,4,4,0.5,0.8
2025-12-31T0600,1450A,102.8204,24.8886,昆明市,呈贡新区,,27,27,29,13,13,44,44,,,26,21,6,4,0.6,0.5
2025-12-31T0600,1451A,102.6251,24.9608,昆明市,西山森林公园,,,,,,,,,,,,,,,,
2025-12-31T0600,1452A,102.7252,25.0902,昆明市,龙泉镇,,19,10,31,10,16,60,60,,,8,24,3,3,0.3,0.5
2025-12-31T0600,1453A,102.7266,25.0375,昆明市,东风东路,,21,21,26,14,16,58,58,,,16,19,4,4,0.4,0.4
2025-12-31T0600,1454A,102.6742,25.0669,昆明市,金鼎山,,20,15,35,12,18,62,62,,,9,20,3,4,0.3,0.4
2025-12-31T0600,1455A,102.6644,25.0401,昆明市,碧鸡广场,,26,26,29,16,18,28,28,,,34,26,4,4,0.5,0.5
2025-12-31T0600,3179A,102.7494,25.0119,昆明市,官渡区博物馆,,25,22,22,17,15,46,46,,,20,18,3,3,0.4,0.4
2025-12-31T0600,3375A,102.8017,24.8336,昆明市,青年创业园,,23,23,24,15,15,47,47,,,14,15,5,4,0.6,0.6
2025-12-31T0600,3550A,102.7997,24.9786,昆明市,昆明学院,,38,38,25,23,14,15,15,,,39,16,3,3,0.5,0.4
2025-12-31T0600,3551A,102.5967,24.6736,昆明市,晋宁区生态环境分局,,39,27,24,27,17,24,24,,,35,13,2,2,0.7,0.5
2025-12-31T0600,3552A,102.6678,24.9856,昆明市,云天化总部,,21,21,22,13,12,53,53,,,16,15,7,6,0.6,0.5
2025-12-31T0600,1456A,91.1319,29.6514,拉萨市,八廓街,,23,9,20,7,11,71,71,,,6,14,6,8,0.3,0.5
2025-12-31T0600,1457A,91.1221,29.6747,拉萨市,市环保局,,21,15,31,13,16,66,66,,,9,19,7,6,0.3,0.6
2025-12-31T0600,1458A,91.0874,29.6475,拉萨市,区监测站,,21,,15,7,8,66,66,,,10,23,4,5,0.7,0.9
2025-12-31T0600,1459A,91.1774,29.6541,拉萨市,西藏大学,,22,11,16,7,7,70,70,,,8,14,5,7,0.3,0.4
2025-12-31T0600,1460A,90.9798,29.6588,拉萨市,区辐射站,,21,8,23,6,14,65,65,,,8,24,4,5,0.4,0.6
2025-12-31T0600,1461A,91.0834,29.6292,拉萨市,拉萨火车站,,19,12,18,3,9,59,59,,,18,21,4,5,0.8,0.6
2025-12-31T0600,2520A,109.2203,23.7256,来宾市,来宾技工学校,细颗粒物(PM2.5),87,70,74,64,52,27,27,,,29,29,8,9,0.7,0.8
2025-12-31T0600,3535A,109.1781,23.7297,来宾市,兴宾区政府,细颗粒物(PM2.5),59,57,67,42,48,15,15,,,23,16,4,6,0.7,0.8
2025-12-31T0600,4002A,109.2416,23.7461,来宾市,中南小学,细颗粒物(PM2.5),74,67,73,54,46,12,12,,,40,33,5,6,0.7,0.8
2025-12-31T0600,1477A,104.1373,35.9454,兰州市,榆中兰大校区,,,,,,,,,,,,,,,,
2025-12-31T0600,1479A,103.831,36.0464,兰州市,铁路设计院,,,,,,,,,,,,,,,,
2025-12-31T0600,3241A,103.7439,36.0842,兰州市,百合公园,细颗粒物(PM2.5),58,61,108,41,75,37,37,,,25,69,17,30,0.7,1.6
2025-12-31T0600,3242A,103.9611,35.998,兰州市,和平,细颗粒物(PM2.5),70,76,109,51,90,48,48,,,17,41,14,22,0.9,1.7
2025-12-31T0600,4236A,103.6293,36.0938,兰州市,庄浪东路808号,颗粒物(PM10),69,88,102,46,69,44,44,,,29,60,18,25,0.7,1.3
2025-12-31T0600,4237A,103.7251,36.1043,兰州市,安宁西路88号,颗粒物(PM10),64,77,114,45,73,49,49,,,24,65,10,27,0.6,1
2025-12-31T0600,4238A,103.8470,36.0676,兰州市,北滨河东路1号,颗粒物(PM10),69,88,102,49,67,42,42,,,30,65,18,20,0.9,1.7
2025-12-31T0600,3245A,103.6633,36.533,兰州新区,新区管委会,颗粒物(PM10),51,52,79,33,52,52,52,,,21,28,11,24,0.5,0.8
2025-12-31T0600,3246A,103.6975,36.4789,兰州新区,舟曲中学,颗粒物(PM10),53,56,86,22,47,66,66,,,16,29,10,20,0.6,0.8
2025-12-31T0600,1067A,116.6708,39.5111,廊坊市,药材公司,,,11,18,,5,48,48,,,9,15,3,2,0.4,0.4
2025-12-31T0600,1068A,116.7214,39.5589,廊坊市,开发区,,16,,16,3,4,49,49,,,11,17,2,2,0.2,0.3
2025-12-31T0600,1070A,116.7244,39.5269,廊坊市,北华航天学院,,15,9,19,3,6,48,48,,,10,19,3,2,0.2,0.3
2025-12-31T0600,2919A,116.7022,39.5453,廊坊市,河北工业大学,,15,10,18,3,4,46,46,,,13,18,3,2,0.2,0.3
2025-12-31T0600,2535A,103.7723,29.5462,乐山市,花湖湾,,,,,,,,,,,,,,,,
2025-12-31T0600,2536A,103.7627,29.5844,乐山市,牛耳桥,细颗粒物(PM2.5),104,90,104,78,91,14,14,,,21,25,8,8,1.0,1
2025-12-31T0600,2537A,103.7508,29.6006,乐山市,市第三水厂,细颗粒物(PM2.5),102,95,111,76,84,17,17,,,23,32,5,6,0.6,1
2025-12-31T0600,2538A,103.7571,29.5664,乐山市,市监测站,细颗粒物(PM2.5),95,85,105,71,88,17,17,,,20,23,8,7,1.2,1.1
2025-12-31T0600,3361A,103.7311,29.5628,乐山市,理工大学,细颗粒物(PM2.5),87,73,101,64,83,23,23,,,19,23,4,4,1.1,1
2025-12-31T0600,2598A,100.2143,26.8576,丽江市,西南郊,,,,,,,,,,,,,,,,
2025-12-31T0600,2599A,100.2497,26.8802,丽江市,丽江古城,,22,15,18,6,9,70,70,,,8,11,7,8,0.4,0.5
2025-12-31T0600,2600A,100.2203,26.8906,丽江市,市中心,,23,,13,9,9,72,72,,,7,13,6,6,0.2,0.3
2025-12-31T0600,1267A,119.914,28.4514,丽水市,监测站大楼,细颗粒物(PM2.5),138,,73,105,74,19,19,,,27,29,6,7,0.7,0.7
2025-12-31T0600,1268A,119.93,28.4586,丽水市,莲都小学,颗粒物(PM10),79,108,101,57,68,2,2,,,56,32,4,6,0.6,0.5
2025-12-31T0600,1269A,119.879,28.4231,丽水市,余庄前,细颗粒物(PM2.5),112,103,86,84,65,4,4,,,14,25,4,5,0.5,0.5
2025-12-31T0600,1173A,119.176,34.5885,连云港市,市环境监测站,颗粒物(PM10),53,56,53,29,34,40,40,,,18,22,10,11,0.7,0.6
2025-12-31T0600,3000A,119.3581,34.6972,连云港市,德源药业,颗粒物(PM10),69,88,68,27,31,38,38,,,20,31,3,6,1.0,0.8
2025-12-31T0600,3007A,119.178,34.844,连云港市,新城一中,颗粒物(PM10),55,59,80,31,46,38,38,,,23,37,17,16,1.1,1
2025-12-31T0600,3008A,119.3608,34.7519,连云港市,胡沟管理处,,36,36,46,24,27,45,45,,,17,37,7,9,0.6,0.8
2025-12-31T0600,3009A,119.1478,34.5911,连云港市,矿山设计院,细颗粒物(PM2.5),73,56,60,53,34,44,44,,,18,27,7,8,0.9,0.9
2025-12-31T0600,3434A,119.2413,34.6539,连云港市,工贸学校,,50,48,46,35,36,38,38,,,15,17,10,10,0.7,0.7
2025-12-31T0600,3664A,119.4172,34.7341,连云港市,连云街道,,44,44,40,30,27,39,39,,,24,25,4,11,0.6,0.7
2025-12-31T0600,2571A,102.3431,27.8099,凉山彝族自治州,青龙寺,,,,,,,,,,,,,,,,
2025-12-31T0600,2572A,102.2721,27.8415,凉山彝族自治州,邛海宾馆,细颗粒物(PM2.5),63,49,52,45,42,25,25,,,16,18,9,8,0.7,0.6
2025-12-31T0600,2573A,102.2625,27.898,凉山彝族自治州,西昌市政府,,39,37,43,27,33,32,32,,,14,16,7,11,0.8,0.8
2025-12-31T0600,2574A,102.2685,27.8851,凉山彝族自治州,凉山州政府,,46,41,48,32,38,24,24,,,19,19,9,9,0.8,0.7
2025-12-31T0600,4229A,102.2342,27.8859,凉山彝族自治州,凯乐南路30号,细颗粒物(PM2.5),60,63,73,43,51,9,9,,,34,37,7,34,0.8,0.9
2025-12-31T0600,2212A,123.2,41.1953,辽阳市,宏伟区,,19,13,33,13,22,42,42,,,7,14,9,7,0.6,0.7
2025-12-31T0600,2213A,123.1683,41.2495,辽阳市,新华园,,19,19,33,8,15,34,34,,,15,20,7,9,0.8,0.8
2025-12-31T0600,2214A,123.2354,41.2639,辽阳市,滨河路,,18,18,40,12,22,38,38,,,8,21,6,6,0.6,0.8
2025-12-31T0600,2215A,123.149,41.2991,辽阳市,铁西工业园,,29,29,41,16,28,12,12,,,30,30,8,9,0.6,0.7
2025-12-31T0600,2227A,125.1358,42.8845,辽源市,环保局,颗粒物(PM10),60,70,79,3,16,40,40,,,8,14,2,3,0.5,0.5
2025-12-31T0600,3239A,125.0764,42.9078,辽源市,银鹰制药,,25,25,35,16,20,28,28,,,17,18,7,6,0.4,0.5
2025-12-31T0600,1625A,115.9848,36.4372,聊城市,区政府,,39,39,101,19,67,33,33,,,32,52,19,20,0.9,1.1
2025-12-31T0600,2878A,116.0072,36.4343,聊城市,聊大东校,,48,48,105,27,69,35,35,,,28,47,17,16,1.0,1.2
2025-12-31T0600,3200A,115.9819,36.4978,聊城市,监控中心,,38,38,105,24,78,33,33,,,20,39,14,15,0.7,0.9
2025-12-31T0600,3513A,116.0445,36.4361,聊城市,九州社区,颗粒物(PM10),51,51,104,27,67,37,37,,,23,36,10,11,0.7,0.9
2025-12-31T0600,4018A,116.0567,36.4608,聊城市,星美广场,,,56,122,23,72,30,30,,,26,47,,10,0.8,1
2025-12-31T0600,2632A,94.3681,29.6376,林芝市,林芝监测站,,13,7,7,3,5,41,41,,,2,3,4,5,0.3,0.3
2025-12-31T0600,2633A,94.3616,29.6616,林芝市,林芝人民医院,,15,6,10,3,6,48,48,,,2,4,4,4,0.4,0.4
2025-12-31T0600,2603A,100.0781,23.8982,临沧市,市环保局,,35,,30,24,32,21,21,,,8,12,3,5,0.4,0.4
2025-12-31T0600,2604A,100.0894,23.8822,临沧市,市气象局,,28,28,37,17,19,14,14,,,14,13,6,6,0.4,0.4
2025-12-31T0600,1733A,111.5531,36.0783,临汾市,临钢医院,细颗粒物(PM2.5),105,126,103,79,59,21,21,,,34,34,15,20,1.0,1
2025-12-31T0600,1734A,111.5028,36.0714,临汾市,技工学校,颗粒物(PM10),87,123,97,59,55,17,17,,,36,42,12,22,1.0,1.2
2025-12-31T0600,1736A,111.5018,36.0855,临汾市,市委,细颗粒物(PM2.5),103,141,108,77,55,19,19,,,39,45,15,27,1.5,1.6
2025-12-31T0600,3018A,111.505,36.1014,临汾市,唐尧大酒店,颗粒物(PM10),91,131,100,64,50,18,18,,,38,46,11,22,1.1,1.2
2025-12-31T0600,4244A,111.4879,36.0530,临汾市,启星学校,细颗粒物(PM2.5),94,118,99,70,56,19,19,,,41,46,15,24,1.1,1.4
2025-12-31T0600,4271A,103.2464,35.6123,临夏回族自治州,滨河东路1号,细颗粒物(PM2.5),125,146,161,95,98,16,16,,,24,38,6,9,1.6,1.7
2025-12-31T0600,4310A,103.2093,35.5995,临夏回族自治州,新华街21号,细颗粒物(PM2.5),132,139,143,100,98,21,21,,,38,42,9,16,1.9,1.7
2025-12-31T0600,1618A,118.3429,35.0532,临沂市,沂河小区,颗粒物(PM10),51,51,98,35,81,42,42,,,23,39,10,12,0.6,0.9
2025-12-31T0600,1619A,118.295,35.0583,临沂市,鲁南制药厂,,41,41,90,28,68,46,46,,,23,40,10,13,0.6,0.8
2025-12-31T0600,1620A,118.2794,34.9976,临沂市,新光毛纺厂,,45,44,91,31,74,43,43,,,18,36,9,13,0.5,0.8
2025-12-31T0600,1621A,118.3956,35.0888,临沂市,河东保险公司,,41,41,97,23,67,45,45,,,15,36,9,12,0.6,0.9
2025-12-31T0600,3370A,118.3564,35.0215,临沂市,十里堡居委,,44,44,95,9,59,43,43,,,25,45,9,11,0.7,1
2025-12-31T0600,3496A,118.3604,35.1084,临沂市,南坊新区,,39,39,88,22,67,46,46,,,19,38,9,11,0.6,0.9
2025-12-31T0600,3860A,118.3920,35.0300,临沂市,皇山花园小区,,42,39,96,29,65,45,45,,,21,41,12,14,0.7,1
2025-12-31T0600,1870A,109.4856,24.3895,柳州市,柳东小学,细颗粒物(PM2.5),73,69,58,53,45,45,45,,,27,20,9,9,0.7,0.7
2025-12-31T0600,1871A,109.4157,24.3277,柳州市,环保监测站,细颗粒物(PM2.5),57,59,74,40,50,51,51,,,20,34,7,8,0.6,0.8
2025-12-31T0600,1872A,109.389,24.341,柳州市,河西水厂,细颗粒物(PM2.5),58,55,85,41,48,52,52,,,21,32,6,7,0.9,1
2025-12-31T0600,1873A,109.4311,24.2921,柳州市,市四中,细颗粒物(PM2.5),69,56,76,50,54,49,49,,,26,36,10,12,0.8,1
2025-12-31T0600,1874A,109.4006,24.3631,柳州市,市九中,颗粒物(PM10),55,60,70,37,51,45,45,,,24,32,9,11,0.8,0.9
2025-12-31T0600,1875A,109.4958,24.3134,柳州市,古亭山,颗粒物(PM10),56,61,55,39,35,54,54,,,17,28,10,9,0.6,0.6
2025-12-31T0600,3402A,109.5422,24.3996,柳州市,市二中,细颗粒物(PM2.5),73,61,60,53,45,26,26,,,32,30,8,9,0.7,0.8
2025-12-31T0600,2307A,116.5079,31.737,六安市,监测大楼,,38,38,117,20,102,42,42,,,21,31,3,4,0.4,0.7
2025-12-31T0600,2308A,116.4738,31.7643,六安市,皖西学院,,49,49,128,30,101,45,45,,,21,29,3,3,0.4,0.7
2025-12-31T0600,2309A,116.4996,31.7905,六安市,朝阳厂,,40,40,115,25,97,43,43,,,18,32,2,4,0.4,0.8
2025-12-31T0600,2310A,116.5567,31.7886,六安市,开发区,,45,45,127,27,91,43,43,,,18,28,1,2,0.4,0.7
2025-12-31T0600,2576A,104.8,26.5892,六盘水市,窑上,,,,,,,,,,,,,,,,
2025-12-31T0600,2577A,104.83,26.5917,六盘水市,黄土坡,,49,39,31,34,23,14,14,,,21,20,14,7,1.2,0.8
2025-12-31T0600,2578A,104.89,26.5939,六盘水市,水钢,,46,32,28,32,18,43,43,,,10,11,10,3,0.5,0.5
2025-12-31T0600,2579A,104.8475,26.5894,六盘水市,民中,,42,39,30,29,28,31,31,,,14,16,6,4,0.8,0.7
2025-12-31T0600,2580A,104.9544,26.5506,六盘水市,双水,,42,39,26,29,18,49,49,,,8,11,4,3,0,0.1
2025-12-31T0600,2335A,117.0189,25.1181,龙岩市,龙岩师专,,,,,,,,,,,,,,,,
2025-12-31T0600,2336A,117.0217,25.1033,龙岩市,龙岩市监测站,,32,32,39,20,26,54,54,,,26,29,16,22,0.6,0.7
2025-12-31T0600,2337A,117.0258,25.0661,龙岩市,闽西职业技术学院,颗粒物(PM10),51,51,44,29,31,50,50,,,20,24,18,14,0.6,0.7
2025-12-31T0600,2338A,117.0196,25.0306,龙岩市,龙岩学院,,49,43,34,34,24,25,25,,,20,18,8,9,0.5,0.5
2025-12-31T0600,2665A,105.0822,33.3261,陇南市,汉王镇固水子,,,,,,,,,,,,,,,,
2025-12-31T0600,2885A,104.9339,33.3826,陇南市,滨江中学,颗粒物(PM10),54,57,79,28,41,21,21,,,15,26,6,9,0.8,1
2025-12-31T0600,3247A,104.955,33.371,陇南市,市总工会,颗粒物(PM10),55,59,73,38,42,20,20,,,10,21,3,5,0.9,1
2025-12-31T0600,2487A,111.9589,27.8901,娄底市,电视发射台,,,,,,,,,,,,,,,,
2025-12-31T0600,2488A,111.9975,27.725,娄底市,市监测站,细颗粒物(PM2.5),173,153,130,131,109,61,61,,,25,30,7,11,0.8,1
2025-12-31T0600,2489A,112.0194,27.7314,娄底市,市委党校,细颗粒物(PM2.5),176,164,133,133,104,67,67,,,33,33,7,9,0.8,0.9
2025-12-31T0600,2490A,111.9561,27.7569,娄底市,涟钢,细颗粒物(PM2.5),155,155,131,118,101,51,51,,,25,22,6,8,0.9,0.9
2025-12-31T0600,2491A,111.9892,27.7044,娄底市,市政府,细颗粒物(PM2.5),158,,124,120,106,42,42,,,16,25,6,8,0.7,0.7
2025-12-31T0600,1893A,105.4324,28.9634,泸州市,九狮山,,,,,,,,,,,,,,,,
2025-12-31T0600,1894A,105.4427,28.9063,泸州市,小市上码头,细颗粒物(PM2.5),54,54,91,38,67,32,32,,,11,25,9,11,0.7,0.9
2025-12-31T0600,1895A,105.4241,28.8573,泸州市,兰田宪桥,细颗粒物(PM2.5),60,54,81,43,66,28,28,,,11,22,7,8,0.9,1
2025-12-31T0600,1896A,105.4379,28.8833,泸州市,市环监站,细颗粒物(PM2.5),59,54,87,42,67,30,30,,,9,23,7,8,0.5,0.8
2025-12-31T0600,4272A,105.3689,28.7783,泸州市,纳溪中医医院,细颗粒物(PM2.5),62,,68,44,63,30,30,,,11,17,7,7,0.8,0.9
2025-12-31T0600,2183A,111.1406,37.5211,吕梁市,环保局,颗粒物(PM10),67,83,72,29,30,1,1,,,39,34,10,8,0.4,0.4
2025-12-31T0600,2185A,111.1297,37.5136,吕梁市,自来水公司,,,92,82,41,36,1,1,,,39,34,,10,0.6,0.6
2025-12-31T0600,2867A,111.1283,37.51,吕梁市,马茂庄小学,颗粒物(PM10),67,83,80,34,31,0,0,,,42,35,4,9,0.8,0.8
2025-12-31T0600,1812A,112.3931,34.6516,洛阳市,市委党校,颗粒物(PM10),61,71,140,36,111,37,37,,,32,47,12,11,0.6,1
2025-12-31T0600,1815A,112.494,34.6886,洛阳市,河南林校,颗粒物(PM10),63,76,146,42,118,36,36,,,28,47,9,10,0.7,1
2025-12-31T0600,1816A,112.3844,34.623,洛阳市,开发区管委会,细颗粒物(PM2.5),72,77,164,52,127,36,36,,,25,38,11,11,0.7,1
2025-12-31T0600,1817A,112.4267,34.6258,洛阳市,市委新办公区,细颗粒物(PM2.5),75,83,168,55,124,38,38,,,28,43,11,11,0.6,0.9
2025-12-31T0600,3340A,112.6005,34.6326,洛阳市,伊滨,颗粒物(PM10),68,85,166,35,117,45,45,,,21,43,9,9,0.6,0.9
2025-12-31T0600,3341A,112.4951,34.6332,洛阳市,中移产业园,颗粒物(PM10),64,77,145,45,122,37,37,,,37,53,11,12,0.6,1
2025-12-31T0600,3593A,112.5736,34.8993,洛阳市,吉利监测站,颗粒物(PM10),63,75,126,34,107,34,34,,,30,42,9,11,0.9,1
2025-12-31T0600,3635A,112.3677,34.662,洛阳市,河科大西苑校区,,,84,152,45,105,35,35,,,,44,12,11,0.9,1.2
2025-12-31T0600,3636A,112.4388,34.6781,洛阳市,英才小学,细颗粒物(PM2.5),69,81,157,50,117,38,38,,,37,50,11,11,0.8,1.2
2025-12-31T0600,4214A,112.4600,34.6949,洛阳市,春都路1号院,颗粒物(PM10),75,99,164,42,100,33,33,,,26,39,11,11,0.8,1
2025-12-31T0600,2399A,114.051,33.5699,漯河市,三五一五工厂,细颗粒物(PM2.5),107,128,190,80,147,18,18,,,33,32,9,8,0.9,1
2025-12-31T0600,2400A,114.0055,33.5698,漯河市,漯河大学,细颗粒物(PM2.5),94,107,168,70,136,17,17,,,34,33,8,7,0.8,0.9
2025-12-31T0600,2401A,114.0138,33.5828,漯河市,市水利局,细颗粒物(PM2.5),98,102,173,73,137,15,15,,,36,36,9,8,0.9,0.9
2025-12-31T0600,2402A,114.0261,33.5698,漯河市,市广电局,细颗粒物(PM2.5),93,112,171,69,141,15,15,,,31,31,9,8,0.8,0.8
2025-12-31T0600,3478A,113.9749,33.5664,漯河市,市图书馆,细颗粒物(PM2.5),110,134,190,83,144,17,17,,,32,32,8,7,1.0,1.1
2025-12-31T0600,4250A,114.0892,33.5882,漯河市,韶山路11号,细颗粒物(PM2.5),112,120,186,84,141,12,12,,,35,36,11,10,0.9,1
2025-12-31T0600,1798A,118.5092,31.6837,马鞍山市,湖东路四小,,30,30,93,11,61,54,54,,,18,23,4,5,0.4,0.6
2025-12-31T0600,1799A,118.5024,31.6449,马鞍山市,开发区,,34,34,103,15,69,52,52,,,19,25,6,6,0.5,0.7
2025-12-31T0600,1802A,118.6245,31.7241,马鞍山市,濮塘,,,,,,,,,,,,,,,,
2025-12-31T0600,3633A,118.4918,31.6809,马鞍山市,雨山,,33,33,100,12,64,57,57,,,16,22,6,6,0.4,0.7
2025-12-31T0600,4191A,118.5274,31.72227,马鞍山市,慈湖高新区,,19,19,87,11,64,60,60,,,13,20,4,5,0.4,0.6
2025-12-31T0600,1686A,111.0286,21.4688,茂名市,电白南海,颗粒物(PM10),53,56,68,29,43,46,46,,,28,26,11,16,0.8,0.9
2025-12-31T0600,1687A,110.9294,21.6533,茂名市,茂石化七小,细颗粒物(PM2.5),55,56,66,39,40,41,41,,,34,27,8,11,0.3,0.5
2025-12-31T0600,1688A,110.9107,21.6687,茂名市,健康路,,49,48,60,34,43,67,67,,,22,22,12,14,0.6,0.8
2025-12-31T0600,1689A,110.8592,21.6828,茂名市,高岭,颗粒物(PM10),63,75,101,39,53,36,36,,,33,32,34,19,0.7,0.9
2025-12-31T0600,3450A,111.01,21.5165,茂名市,电白水东,,49,48,59,34,38,74,74,,,20,21,15,14,0.5,0.6
2025-12-31T0600,2539A,104.0308,30.0478,眉山市,黑龙滩水库,,,,,,,,,,,,,,,,
2025-12-31T0600,2540A,103.8416,30.0874,眉山市,气象局,细颗粒物(PM2.5),128,112,119,97,97,22,22,,,21,26,11,10,1.0,0.9
2025-12-31T0600,3137A,103.8578,30.0744,眉山市,市委党校,细颗粒物(PM2.5),119,102,108,90,91,15,15,,,26,27,8,7,0.9,0.9
2025-12-31T0600,3148A,103.8291,30.0564,眉山市,区人社局,细颗粒物(PM2.5),128,108,114,97,98,17,17,,,23,27,8,7,0.8,0.9
2025-12-31T0600,1690A,116.1231,24.3284,梅州市,梅江月梅,颗粒物(PM10),51,52,46,29,32,0,0,,,36,30,6,6,0.6,0.6
2025-12-31T0600,1691A,116.0797,24.2719,梅州市,梅县新城,,43,39,53,30,36,1,1,,,31,38,7,8,0.6,0.7
2025-12-31T0600,1692A,116.1248,24.2654,梅州市,环境监控中心,颗粒物(PM10),60,70,48,32,30,0,0,,,38,38,12,9,0.6,0.6
2025-12-31T0600,3315A,116.1233,24.2991,梅州市,梅龙,,46,46,50,32,31,2,2,,,39,35,12,10,0.7,0.8
2025-12-31T0600,1878A,104.7778,31.4741,绵阳市,富乐山,细颗粒物(PM2.5),109,92,107,82,94,0,0,,,27,24,11,11,0.8,0.8
2025-12-31T0600,1880A,104.6697,31.4668,绵阳市,高新区自来水公司,细颗粒物(PM2.5),113,103,121,85,96,5,5,,,26,33,8,8,0.7,0.8
2025-12-31T0600,1881A,104.7287,31.5075,绵阳市,三水厂,细颗粒物(PM2.5),130,119,130,99,101,2,2,,,34,35,7,8,0.9,1
2025-12-31T0600,3491A,104.69,31.5322,绵阳市,西科大附属小学,细颗粒物(PM2.5),107,100,124,80,93,4,4,,,24,32,8,8,0.9,1
2025-12-31T0600,3492A,104.5648,31.5343,绵阳市,安州区旅游局,细颗粒物(PM2.5),98,,90,73,91,5,5,,,21,33,14,12,0.9,1
2025-12-31T0600,4226A,104.7651,31.4531,绵阳市,绵阳市气象局,细颗粒物(PM2.5),114,104,111,86,91,8,8,,,26,23,10,10,1.4,1.4
2025-12-31T0600,1784A,129.61,44.561,牡丹江市,环保大楼,,38,38,37,25,22,38,38,,,11,12,8,9,0.6,0.6
2025-12-31T0600,1785A,129.6115,44.5782,牡丹江市,文化广场,,38,31,38,26,26,39,39,,,9,12,4,5,0.4,0.5
2025-12-31T0600,1787A,129.6364,44.6075,牡丹江市,机车工厂,,39,39,42,23,27,38,38,,,16,15,3,4,0.3,0.4
2025-12-31T0600,1788A,129.6386,44.5462,牡丹江市,第一中学,,,24,28,13,21,36,36,,,8,10,,5,0.3,0.3
2025-12-31T0600,4287A,129.5992,44.5964,牡丹江市,东晓云街98号,,33,28,44,23,30,38,38,,,8,11,4,6,0.4,0.6
2025-12-31T0600,2531A,105.0703,29.61,内江市,市监测站,细颗粒物(PM2.5),80,,70,59,70,49,49,,,12,18,5,6,0.8,0.9
2025-12-31T0600,2532A,105.0717,29.5947,内江市,东兴区政府,细颗粒物(PM2.5),70,57,73,51,69,38,38,,,16,22,4,4,0.5,0.6
2025-12-31T0600,2533A,105.0653,29.5817,内江市,内江二中,细颗粒物(PM2.5),75,83,85,55,75,34,34,,,17,25,4,4,0.8,0.9
2025-12-31T0600,2534A,105.0406,29.5822,内江市,内江日报社,细颗粒物(PM2.5),69,54,77,50,70,36,36,,,19,30,1,2,0.6,0.7
2025-12-31T0600,2628A,92.0657,31.4846,那曲市,那曲监测站,,14,14,48,8,31,38,38,,,18,30,8,12,1.1,1.5
2025-12-31T0600,4243A,92.0515,31.4787,那曲市,那曲市委宣传部,,24,24,27,15,15,26,26,,,15,15,7,6,1.5,1
2025-12-31T0600,1290A,115.8931,28.6843,南昌市,省外办,细颗粒物(PM2.5),156,139,129,119,109,75,75,,,27,36,9,10,1.5,1.5
2025-12-31T0600,1291A,115.8886,28.7003,南昌市,省林业公司,细颗粒物(PM2.5),144,129,123,110,102,65,65,,,20,31,4,6,1.2,1.2
2025-12-31T0600,1292A,115.8126,28.7442,南昌市,林科所,细颗粒物(PM2.5),144,146,119,110,90,76,76,,,20,24,7,7,0.7,0.5
2025-12-31T0600,1294A,115.8518,28.687,南昌市,建工学校,细颗粒物(PM2.5),159,150,137,121,103,63,63,,,26,33,13,14,1.0,0.9
2025-12-31T0600,1295A,115.8921,28.6424,南昌市,象湖,细颗粒物(PM2.5),147,122,114,112,103,65,65,,,21,28,10,11,1.1,1.1
2025-12-31T0600,1296A,115.7423,28.7996,南昌市,武术学校,,,,,,,,,,,,,,,,
2025-12-31T0600,3046A,115.9084,28.6062,南昌市,机电学校,细颗粒物(PM2.5),156,150,142,119,105,68,68,,,22,27,,8,1.0,0.9
2025-12-31T0600,3690A,115.9721,28.7031,南昌市,外国语学校,细颗粒物(PM2.5),148,152,145,113,103,63,63,,,20,30,12,13,0.9,0.9
2025-12-31T0600,4192A,115.9316,28.68677,南昌市,南京东路235号,细颗粒物(PM2.5),175,140,131,132,120,66,66,,,31,36,6,8,0.7,0.6
2025-12-31T0600,1905A,106.056,30.8064,南充市,西山风景区,,,,,,,,,,,,,,,,
2025-12-31T0600,1906A,106.0789,30.8023,南充市,南充市委,细颗粒物(PM2.5),93,77,108,69,96,13,13,,,18,27,4,4,0.7,0.9
2025-12-31T0600,1907A,106.1031,30.8217,南充市,南充炼油厂,细颗粒物(PM2.5),88,75,106,65,98,11,11,,,17,21,5,6,0.9,1
2025-12-31T0600,4227A,106.1083,30.7884,南充市,梨树横街98号,,,70,101,60,85,,,,,18,25,5,6,0.6,0.8
2025-12-31T0600,4304A,106.1172,30.843,南充市,清泉寺北路188号,细颗粒物(PM2.5),82,68,90,60,79,12,12,,,18,19,5,5,0.8,0.9
2025-12-31T0600,4305A,106.067,30.7616,南充市,同庆路1号,细颗粒物(PM2.5),79,64,98,58,89,18,18,,,17,28,6,7,0.6,1.1
2025-12-31T0600,1151A,118.8086,32.1065,南京市,迈皋桥,,23,23,72,12,45,57,57,,,9,23,4,4,0.8,0.8
2025-12-31T0600,1152A,118.7538,32.0551,南京市,草场门,,18,14,72,12,45,47,47,,,23,29,6,7,0.2,0.4
2025-12-31T0600,1153A,118.7794,32.0745,南京市,山西路,,22,22,81,7,47,53,53,,,16,34,4,4,0.2,0.5
2025-12-31T0600,1154A,118.7752,32.0023,南京市,中华门,,17,17,71,9,45,51,51,,,4,11,3,5,0.3,0.4
2025-12-31T0600,1155A,118.8109,32.0309,南京市,瑞金路,,,12,68,9,44,,,,,18,23,4,4,0.5,0.6
2025-12-31T0600,1156A,118.7997,32.0754,南京市,玄武湖,,25,25,74,3,45,51,51,,,21,27,4,4,0.2,0.6
2025-12-31T0600,1157A,118.6414,32.0931,南京市,浦口,,25,25,90,11,61,49,49,,,20,32,8,8,0.3,0.6
2025-12-31T0600,1158A,118.7356,31.9996,南京市,奥体中心,,20,17,77,12,49,63,63,,,15,21,3,4,0.3,0.5
2025-12-31T0600,1159A,118.9125,32.1028,南京市,仙林大学城,细颗粒物(PM2.5),52,,71,36,47,51,51,,,17,29,6,7,0.5,0.8
2025-12-31T0600,3422A,118.8436,31.9198,南京市,江宁彩虹桥,,26,26,85,9,46,60,60,,,10,20,4,4,0.2,0.5
2025-12-31T0600,3427A,118.8554,32.3578,南京市,六合雄州,,19,16,75,9,44,58,58,,,12,19,7,8,0.4,0.6
2025-12-31T0600,4249A,118.8708,31.3402,南京市,汶溪路181号,,46,,108,32,85,52,52,,,28,32,6,6,0.3,0.7
2025-12-31T0600,4312A,119.019,31.6512,南京市,中山西路1号,,32,31,75,22,68,34,34,,,31,32,4,4,0.9,1.1
2025-12-31T0600,1401A,108.3103,22.7881,南宁市,二十一中,细颗粒物(PM2.5),79,,71,58,55,44,44,,,31,22,5,6,0.9,0.8
2025-12-31T0600,1402A,108.3141,22.8528,南宁市,北湖,细颗粒物(PM2.5),75,65,75,55,54,60,60,,,25,37,5,5,0.9,1
2025-12-31T0600,1403A,108.3206,22.8225,南宁市,市监测站,细颗粒物(PM2.5),79,66,70,58,51,51,51,,,23,24,8,8,0.9,0.9
2025-12-31T0600,1404A,108.3829,22.8037,南宁市,大自然花园,细颗粒物(PM2.5),83,87,71,61,53,47,47,,,31,24,7,7,0.8,0.8
2025-12-31T0600,1405A,108.4394,22.7904,南宁市,仙葫,,,,,,,,,,,,,,,,
2025-12-31T0600,1406A,108.2397,22.8467,南宁市,区农职院,细颗粒物(PM2.5),77,76,77,56,55,10,10,,,54,39,8,9,1.0,1
2025-12-31T0600,1407A,108.3275,22.735,南宁市,英华嘉园,细颗粒物(PM2.5),85,68,76,63,59,46,46,,,32,39,6,5,0.8,0.8
2025-12-31T0600,3401A,108.4834,22.7618,南宁市,红星社区,细颗粒物(PM2.5),82,75,74,60,56,4,4,,,50,31,4,6,0.9,0.9
2025-12-31T0600,4221A,108.2177,22.7774,南宁市,乐贤路16号,细颗粒物(PM2.5),83,86,82,61,54,27,27,,,50,50,2,4,0.9,0.9
2025-12-31T0600,2331A,118.0966,26.6761,南平市,茫荡山,,,,,,,,,,,,,,,,
2025-12-31T0600,2332A,118.1681,26.6369,南平市,南平市监测站,,38,34,36,26,30,29,29,,,25,26,4,9,0.6,0.9
2025-12-31T0600,2333A,118.1825,26.6489,南平市,南平铝业有限公司,,,35,37,29,28,42,42,,,20,27,,10,0.6,0.9
2025-12-31T0600,2334A,118.1756,26.6272,南平市,南平七中,,39,30,37,27,28,36,36,,,22,24,6,10,0.6,0.8
2025-12-31T0600,1168A,120.9098,31.9663,南通市,狼山街道,,16,15,40,8,22,51,51,,,16,16,3,3,0.5,0.6
2025-12-31T0600,1169A,120.86,32.0005,南通市,虹桥,,18,16,38,3,23,55,55,,,16,21,2,3,0.2,0.5
2025-12-31T0600,1170A,120.87,32.02,南通市,城中,,34,34,47,21,26,46,46,,,18,23,5,4,0.5,0.4
2025-12-31T0600,1171A,120.94,31.93,南通市,星湖花园,,18,14,42,9,26,55,55,,,17,19,4,4,0.4,0.6
2025-12-31T0600,1172A,120.81,32.0417,南通市,紫琅学院,,16,14,48,3,25,51,51,,,18,25,3,4,0.5,0.6
2025-12-31T0600,3291A,121.067,32.062,南通市,通州监测站,,22,9,34,3,18,69,69,,,17,19,4,3,0.4,0.5
2025-12-31T0600,3432A,120.9348,31.9883,南通市,环境教育馆,,19,19,41,3,24,42,42,,,24,23,4,4,0.2,0.4
2025-12-31T0600,2404A,112.5224,33.0122,南阳市,瓦房庄,细颗粒物(PM2.5),202,174,162,152,143,42,42,,,22,20,10,8,1.1,1
2025-12-31T0600,2405A,112.5003,32.9735,南阳市,汉画馆,细颗粒物(PM2.5),189,187,170,142,133,42,42,,,25,24,8,8,1.1,1
2025-12-31T0600,2406A,112.5573,33.027,南阳市,气象站,细颗粒物(PM2.5),180,201,189,136,132,41,41,,,25,23,8,7,1.0,0.8
2025-12-31T0600,2407A,112.5481,32.9689,南阳市,理工学院,细颗粒物(PM2.5),158,171,165,120,115,41,41,,,25,24,9,7,1.1,0.9
2025-12-31T0600,4008A,112.5234,32.9922,南阳市,卧龙区政府,细颗粒物(PM2.5),190,203,191,143,133,40,40,,,26,25,9,8,1.1,1
2025-12-31T0600,1234A,121.8358,29.911,宁波市,区环保大楼,,19,15,59,11,38,58,58,,,24,42,5,6,0.4,0.6
2025-12-31T0600,1235A,121.56,29.82,宁波市,万里学院,,21,21,69,3,41,62,62,,,20,31,4,5,0.4,0.6
2025-12-31T0600,1236A,121.713,29.9572,宁波市,龙赛医院,,21,18,60,3,38,67,67,,,13,27,3,4,0.3,0.5
2025-12-31T0600,1239A,121.633,29.7733,宁波市,钱湖水厂,,21,12,56,3,38,65,65,,,17,32,6,6,0.4,0.6
2025-12-31T0600,1240A,121.5856,29.8635,宁波市,太古小学,,,12,60,6,39,67,67,,,12,21,,3,0.4,0.6
2025-12-31T0600,1241A,121.524,29.8674,宁波市,市环境监测中心,,24,24,61,6,34,62,62,,,13,24,6,6,0.4,0.6
2025-12-31T0600,2871A,121.6147,29.9017,宁波市,万里国际学校,,25,25,72,3,33,67,67,,,16,24,4,4,0.3,0.5
2025-12-31T0600,3710A,121.5594,29.8975,宁波市,白沙活动中心,,25,25,64,6,36,65,65,,,16,26,4,5,0.3,0.4
2025-12-31T0600,2339A,119.5001,26.6946,宁德市,金涵水库,,,,,,,,,,,,,,,,
2025-12-31T0600,2341A,119.5388,26.6612,宁德市,宁德市监测站,,50,35,35,35,27,35,35,,,39,24,7,7,0.7,0.6
2025-12-31T0600,3209A,119.5231,26.6562,宁德市,宁德一中,,46,38,53,32,32,64,64,,,15,18,7,7,0.7,0.6
2025-12-31T0600,2618A,98.8601,25.8567,怒江傈僳族自治州,州监测站,,26,26,32,17,21,26,26,,,11,14,7,7,0.4,0.5
2025-12-31T0600,2619A,98.8546,25.8417,怒江傈僳族自治州,泸水一中,,20,15,28,14,22,17,17,,,12,19,6,6,0.6,0.7
2025-12-31T0600,1888A,101.6891,26.571,攀枝花市,弄弄坪,细颗粒物(PM2.5),104,143,76,78,43,3,3,,,45,42,17,20,1.9,1.6
2025-12-31T0600,1889A,101.5769,26.5928,攀枝花市,河门口,,38,38,54,25,34,8,8,,,30,26,12,23,1.2,1.3
2025-12-31T0600,1890A,101.7169,26.585,攀枝花市,炳草岗,细颗粒物(PM2.5),139,146,92,106,55,6,6,,,38,44,15,12,0.9,1.2
2025-12-31T0600,1891A,101.7369,26.5008,攀枝花市,仁和,,36,36,44,20,27,17,17,,,20,24,7,14,0.7,1.1
2025-12-31T0600,2835A,101.7227,26.567,攀枝花市,四十中小,细颗粒物(PM2.5),73,84,76,53,49,4,4,,,51,45,21,16,1.6,1.5
2025-12-31T0600,1604A,122.0303,41.1489,盘锦市,开发区,,15,14,25,10,8,37,37,,,10,8,5,5,0.6,0.5
2025-12-31T0600,1605A,122.0485,41.0883,盘锦市,兴隆台,,13,13,22,3,8,41,41,,,13,15,6,5,0.5,0.6
2025-12-31T0600,1606A,121.8297,41.1028,盘锦市,新生街道,,18,9,20,3,6,10,10,,,35,22,4,4,0.6,0.4
2025-12-31T0600,1832A,113.3257,33.742,平顶山市,新华旅馆,细颗粒物(PM2.5),85,107,191,63,131,37,37,,,26,46,11,10,0.8,1.1
2025-12-31T0600,1833A,113.2919,33.737,平顶山市,规划设计院,"颗粒物(PM10),细颗粒物(PM2.5)",82,113,218,60,140,41,41,,,27,51,10,9,0.6,0.9
2025-12-31T0600,1834A,113.182,33.774,平顶山市,平顶山工学院,颗粒物(PM10),75,100,188,46,139,41,41,,,24,37,9,10,0.5,0.8
2025-12-31T0600,3204A,113.3025,33.73,平顶山市,规划局,细颗粒物(PM2.5),93,127,198,69,138,41,41,,,24,43,11,10,0.8,1.1
2025-12-31T0600,3594A,112.8867,33.9116,平顶山市,石龙区,细颗粒物(PM2.5),80,106,186,59,134,41,41,,,23,45,8,8,0.7,0.9
2025-12-31T0600,2656A,106.6692,35.5461,平凉市,聚贤嘉苑,细颗粒物(PM2.5),97,93,83,72,50,24,24,,,40,50,5,7,1.2,0.9
2025-12-31T0600,2657A,106.7021,35.5307,平凉市,博物馆,细颗粒物(PM2.5),94,84,89,70,56,19,19,,,43,47,10,13,1.2,1
2025-12-31T0600,2347A,114.0997,27.5002,萍乡市,武功山,,,,,,,,,,,,,,,,
2025-12-31T0600,2348A,113.8385,27.6434,萍乡市,中医院,细颗粒物(PM2.5),98,96,158,73,113,28,28,,,34,47,14,14,1.1,1.8
2025-12-31T0600,2349A,113.8493,27.6253,萍乡市,市政府车库,细颗粒物(PM2.5),139,126,146,106,107,11,11,,,32,35,9,13,1.3,1.4
2025-12-31T0600,2350A,113.8676,27.6435,萍乡市,市环保局,细颗粒物(PM2.5),93,87,124,69,101,42,42,,,36,42,21,22,0.6,1
2025-12-31T0600,2351A,113.866,27.6198,萍乡市,安源区政府,细颗粒物(PM2.5),145,134,166,111,154,24,24,,,44,43,15,20,2.0,1.5
2025-12-31T0600,2319A,119.0141,25.4325,莆田市,荔城区仓后路,,38,38,42,26,23,96,96,,,9,15,2,3,0.6,0.6
2025-12-31T0600,2320A,119.0015,25.4553,莆田市,莆田市监测站,,39,33,30,27,19,104,104,,,7,10,4,5,0.5,0.4
2025-12-31T0600,2321A,119.1119,25.4561,莆田市,涵江区六中,,42,41,39,29,26,94,94,,,12,18,4,4,0.5,0.5
2025-12-31T0600,2322A,119.1013,25.3215,莆田市,秀屿区政府,,42,38,42,29,27,95,95,,,15,18,5,5,0.6,0.6
2025-12-31T0600,2323A,118.981,25.4792,莆田市,东圳水库,,,,,,,,,,,,,,,,
2025-12-31T0600,2392A,115.0312,35.7636,濮阳市,环保局,,28,28,96,17,80,32,32,,,18,42,8,12,0.9,1.3
2025-12-31T0600,2394A,115.0574,35.7609,濮阳市,油田运输公司,,45,45,104,18,85,34,34,,,21,48,10,14,1.1,1.5
2025-12-31T0600,3021A,115,35.7668,濮阳市,濮水河管理处,,36,36,115,20,84,30,30,,,38,49,8,12,1.0,1.3
2025-12-31T0600,4216A,115.0924,35.7686,濮阳市,任丘路479号,,40,40,124,17,98,36,36,,,29,58,9,13,0.7,1.1
2025-12-31T0600,2601A,100.98,22.7633,普洱市,市环保局,,33,33,42,6,13,14,14,,,5,10,5,4,0.4,0.4
2025-12-31T0600,2602A,100.9817,22.8322,普洱市,普洱第二中学,,27,27,36,13,18,3,3,,,19,17,5,5,0.4,0.4
2025-12-31T0600,2262A,131.0518,45.8751,七台河市,新一中,,,,,,,,,,,,,,,,
2025-12-31T0600,3345A,131.0577,45.7879,七台河市,中波台,,38,35,39,26,20,30,30,,,16,15,8,8,0.4,0.4
2025-12-31T0600,3637A,131.0176,45.7761,七台河市,人民广场,,49,42,36,34,25,33,33,,,19,19,6,8,0.5,0.5
2025-12-31T0600,3684A,130.8781,45.8222,七台河市,新建矿广场,,48,36,47,33,29,28,28,,,12,12,7,7,0.4,0.3
2025-12-31T0600,1779A,123.9305,47.3636,齐齐哈尔市,安居小区,,18,14,23,12,15,30,30,,,12,12,3,2,0.6,0.6
2025-12-31T0600,1780A,123.9488,47.3386,齐齐哈尔市,中心广场,,15,15,15,3,7,35,35,,,3,6,6,6,0.4,0.5
2025-12-31T0600,1781A,123.9483,47.3227,齐齐哈尔市,农牧车辆厂,,22,22,19,15,7,33,33,,,6,8,4,4,0.5,0.5
2025-12-31T0600,1783A,123.945,47.2988,齐齐哈尔市,市环境监测站,,16,16,17,8,8,38,38,,,5,7,6,6,0.3,0.4
2025-12-31T0600,3662A,123.6333,47.2075,齐齐哈尔市,富区青少年活动中心,,26,26,26,12,12,32,32,,,10,11,7,5,0.5,0.5
2025-12-31T0600,2591A,107.9783,26.5747,黔东南苗族侗族自治州,市环境监测站,细颗粒物(PM2.5),94,79,78,70,62,36,36,,,9,15,5,6,0.8,0.8
2025-12-31T0600,2881A,107.8908,26.5311,黔东南苗族侗族自治州,凯里学院,细颗粒物(PM2.5),85,73,71,63,54,39,39,,,9,14,5,5,0.7,0.7
2025-12-31T0600,2593A,107.5228,26.2403,黔南布依族苗族自治州,小围寨,,42,31,39,29,36,8,8,,,9,11,4,5,0.6,0.7
2025-12-31T0600,3538A,107.5175,26.2978,黔南布依族苗族自治州,沙坝,,49,41,41,34,35,3,3,,,16,17,4,4,0.9,0.8
2025-12-31T0600,2589A,104.9022,25.0925,黔西南布依族苗族自治州,场坝街,颗粒物(PM10),52,53,42,31,30,51,51,,,6,9,2,2,0.6,0.6
2025-12-31T0600,2590A,104.8811,25.0992,黔西南布依族苗族自治州,坪东大道,细颗粒物(PM2.5),57,,39,40,31,51,51,,,5,8,5,5,0.5,0.6
2025-12-31T0600,2502A,108.6236,21.9667,钦州市,市环保站,颗粒物(PM10),70,90,90,27,52,16,16,,,44,32,4,6,0.7,0.7
2025-12-31T0600,2503A,108.6549,21.9481,钦州市,沙埠小学,细颗粒物(PM2.5),75,68,84,55,50,10,10,,,51,41,8,8,0.6,0.7
2025-12-31T0600,2504A,108.5989,21.7431,钦州市,港区一小,细颗粒物(PM2.5),72,58,77,52,48,38,38,,,45,44,10,12,0.6,0.7
2025-12-31T0600,3404A,108.5959,21.9633,钦州市,北职校,细颗粒物(PM2.5),90,74,77,67,53,26,26,,,31,35,8,9,0.8,0.8
2025-12-31T0600,1043A,119.7493,40.0116,秦皇岛市,第一关,,28,20,36,19,25,20,20,,,42,39,6,10,0.5,0.4
2025-12-31T0600,1044A,119.5897,39.9499,秦皇岛市,监测站,,33,33,45,12,20,44,44,,,16,33,8,11,0.3,0.4
2025-12-31T0600,1046A,119.5251,39.9041,秦皇岛市,建设大厦,,36,26,45,25,32,38,38,,,16,32,5,8,0.3,0.5
2025-12-31T0600,3132A,119.610547,39.943889,秦皇岛市,文明里,,20,20,41,9,19,46,46,,,2,19,8,12,0.3,0.3
2025-12-31T0600,4198A,119.5090,39.8253,秦皇岛市,北戴河轮滑馆,,29,29,43,16,14,26,26,,,27,25,5,8,2.6,0.6
2025-12-31T0600,1307A,120.6659,36.2403,青岛市,仰口,,,,,,,,,,,,,,,,
2025-12-31T0600,1310A,120.4134,36.0658,青岛市,市南区东部子站,,17,12,55,7,32,54,54,,,9,29,7,9,0.5,0.8
2025-12-31T0600,1311A,120.3664,36.1032,青岛市,四方区子站,,24,24,78,3,44,56,56,,,8,33,2,8,0.5,0.9
2025-12-31T0600,1312A,120.2994,36.054,青岛市,市南区西部子站,,19,19,63,3,37,42,42,,,12,34,4,6,0.3,0.7
2025-12-31T0600,1313A,120.4581,36.0858,青岛市,崂山区子站,,18,7,42,3,22,57,57,,,14,31,9,10,0.5,0.7
2025-12-31T0600,1315A,120.3999,36.3083,青岛市,城阳区子站,,24,24,60,15,31,47,47,,,16,34,7,9,0.7,0.9
2025-12-31T0600,3362A,120.5014,36.4034,青岛市,即墨2号,,25,25,56,13,43,33,33,,,14,25,8,8,0.6,0.8
2025-12-31T0600,3642A,120.3503,36.0736,青岛市,市北区南部,,23,23,79,3,39,44,44,,,12,33,3,5,0.4,0.8
2025-12-31T0600,3643A,120.3948,36.1805,青岛市,李沧区北部,,15,12,73,9,52,47,47,,,11,39,8,10,0.7,1.1
2025-12-31T0600,4290A,120.1969,35.9546,青岛市,珠江路669号,,14,14,61,3,36,36,36,,,25,50,11,12,0.4,0.6
2025-12-31T0600,4291A,120.0424,35.8656,青岛市,黄岛区人民政府广场,,18,17,63,7,33,55,55,,,16,38,7,8,0.5,0.9
2025-12-31T0600,1702A,113.0426,23.691,清远市,环保大楼,,,,,,,,,,,,,,,,
2025-12-31T0600,1703A,113.0208,23.7106,清远市,凤城街办,,40,40,42,28,27,34,34,,,31,30,9,9,0.6,0.7
2025-12-31T0600,3025A,113.0477,23.6344,清远市,技师学院,颗粒物(PM10),51,51,47,29,27,8,8,,,49,38,12,10,0.8,0.8
2025-12-31T0600,3318A,112.9903,23.7403,清远市,清新太和,,28,28,39,18,25,55,55,,,14,22,11,12,0.5,0.5
2025-12-31T0600,3455A,113.076,23.7198,清远市,清城东城,,35,35,35,22,23,20,20,,,29,23,7,7,0.5,0.6
2025-12-31T0600,2661A,107.6325,35.7357,庆阳市,庆阳五中,,43,36,79,30,55,61,61,,,12,23,4,8,0.4,0.7
2025-12-31T0600,2662A,107.6364,35.7067,庆阳市,市环保局,,40,40,82,27,54,63,63,,,11,18,1,4,0.5,0.7
2025-12-31T0600,1916A,103.7897,25.5035,曲靖市,环境监测站,,18,13,23,11,12,56,56,,,9,11,3,2,0.3,0.4
2025-12-31T0600,1917A,103.8,25.5364,曲靖市,烟厂办公区,,19,19,24,10,13,58,58,,,9,11,4,4,0.2,0.3
2025-12-31T0600,3376A,103.7947,25.462,曲靖市,南苑二区,,19,14,16,9,14,60,60,,,5,5,4,4,0.3,0.3
2025-12-31T0600,3377A,103.7444,25.5261,曲靖市,曲靖师范学院,,29,27,27,20,16,48,48,,,14,13,5,4,0.4,0.4
2025-12-31T0600,1264A,118.8692,28.9398,衢州市,环保大楼,细颗粒物(PM2.5),75,74,122,55,90,62,62,,,20,36,4,6,0.5,0.7
2025-12-31T0600,1265A,118.8709,28.9666,衢州市,实验学校,细颗粒物(PM2.5),75,74,116,55,90,64,64,,,18,34,4,5,0.5,0.7
2025-12-31T0600,1266A,118.8621,28.9808,衢州市,衢州学院,细颗粒物(PM2.5),69,67,116,50,89,65,65,,,19,32,4,6,0.6,0.9
2025-12-31T0600,1611A,118.5819,24.9117,泉州市,涂山街,,35,33,41,24,25,82,82,,,14,18,3,4,0.5,0.5
2025-12-31T0600,1612A,118.5972,24.8978,泉州市,津头埔,,36,32,41,25,26,83,83,,,14,20,4,5,0.5,0.5
2025-12-31T0600,1613A,118.6663,24.9424,泉州市,万安,,40,40,44,19,23,85,85,,,14,18,3,4,0.4,0.5
2025-12-31T0600,1614A,118.6117,24.9604,泉州市,清源山,,,,,,,,,,,,,,,,
2025-12-31T0600,3529A,118.6333,24.9264,泉州市,城华南路,,34,34,44,22,25,79,79,,,22,19,4,6,0.6,0.6
2025-12-31T0600,2626A,88.8876,29.2718,日喀则市,日喀则监测站,,23,10,24,8,17,72,72,,,2,14,6,11,0.3,0.5
2025-12-31T0600,3726A,88.8781,29.2426,日喀则市,林业技术推广中心,,17,14,17,6,5,52,52,,,5,4,9,10,0.5,0.3
2025-12-31T0600,1659A,119.471,35.4209,日照市,监测站,,27,27,59,17,36,42,42,,,21,41,8,10,0.6,0.8
2025-12-31T0600,1660A,119.523,35.4216,日照市,市政府广场,,22,22,45,13,27,46,46,,,18,26,9,10,0.3,0.3
2025-12-31T0600,1661A,119.5587,35.4044,日照市,港务局,,26,24,50,18,36,42,42,,,21,28,8,9,0.4,0.6
2025-12-31T0600,3507A,119.5328,35.4625,日照市,职业技术学院,,19,19,45,12,23,45,45,,,20,26,8,8,0.7,0.8
2025-12-31T0600,3604A,119.3266,35.1044,日照市,岚山环保分局,颗粒物(PM10),51,51,65,26,35,33,33,,,37,34,39,23,2.8,1.8
2025-12-31T0600,1835A,111.1922,34.7752,三门峡市,市政府,细颗粒物(PM2.5),139,111,118,106,118,56,56,,,22,27,10,12,0.7,0.8
2025-12-31T0600,1836A,111.1587,34.7942,三门峡市,开发区,细颗粒物(PM2.5),133,140,156,101,117,54,54,,,23,28,10,12,0.7,0.8
2025-12-31T0600,1838A,111.143,34.7955,三门峡市,风景区,,,,,,,,,,,,,,,,
2025-12-31T0600,3039A,111.1911,34.7829,三门峡市,三门峡市第一小学,细颗粒物(PM2.5),124,121,125,94,113,54,54,,,21,25,9,12,0.7,0.8
2025-12-31T0600,3598A,111.1,34.7167,三门峡市,富达温泉假日酒店,细颗粒物(PM2.5),149,142,142,114,114,54,54,,,34,42,14,17,0.8,0.8
2025-12-31T0600,2324A,117.6211,26.2625,三明市,三钢,,42,36,45,29,37,70,70,,,20,26,13,7,0.7,1
2025-12-31T0600,2325A,117.635,26.2714,三明市,三明二中,,43,31,40,30,32,79,79,,,13,20,18,11,0.6,0.9
2025-12-31T0600,2326A,117.6028,26.2378,三明市,三元区政府,,42,33,48,29,34,61,61,,,22,32,11,8,0.7,1.2
2025-12-31T0600,2327A,117.7275,26.3108,三明市,洋溪,,,,,,,,,,,,,,,,
2025-12-31T0600,1876A,109.5078,18.2489,三亚市,河东子站,,35,33,27,21,16,109,109,,,8,8,5,5,0.7,0.6
2025-12-31T0600,1877A,109.4964,18.2681,三亚市,河西子站,,39,27,32,27,19,113,113,,,6,9,4,4,0.5,0.5
2025-12-31T0600,3540A,109.7348,18.3443,三亚市,君悦子站,,38,,30,26,19,99,99,,,9,7,5,5,0.5,0.5
2025-12-31T0600,2624A,91.7608,29.2313,山南市,山南监测站,,23,11,19,3,6,72,72,,,3,6,3,4,0.2,0.2
2025-12-31T0600,2625A,91.7706,29.2436,山南市,山南人民医院,,23,10,17,3,6,72,72,,,2,5,2,4,0.2,0.3
2025-12-31T0600,1674A,116.6794,23.3667,汕头市,金平子站,,29,29,44,20,29,78,78,,,19,25,5,8,0.6,0.7
2025-12-31T0600,1675A,116.7244,23.3633,汕头市,龙湖子站,,32,27,41,22,27,84,84,,,12,21,9,13,0.5,0.6
2025-12-31T0600,1676A,116.7258,23.2775,汕头市,濠江子站,,29,29,39,18,29,92,92,,,11,19,7,9,0.6,0.8
2025-12-31T0600,1677A,116.7519,23.4714,汕头市,澄海子站,,29,28,40,20,21,61,61,,,27,19,8,8,0.6,0.7
2025-12-31T0600,1678A,116.6092,23.2539,汕头市,潮阳子站,,31,29,36,12,19,98,98,,,12,16,6,8,0.4,0.6
2025-12-31T0600,3444A,116.454,23.2684,汕头市,潮南峡山,,,36,42,,28,80,80,,,13,16,8,10,0.5,0.6
2025-12-31T0600,3624A,116.4069,23.2533,汕头市,潮南子站,,50,50,50,24,24,85,85,,,15,21,6,8,0.5,0.6
2025-12-31T0600,1693A,115.3653,22.775,汕尾市,市环保局,,33,32,33,23,22,99,99,,,9,15,7,8,0.5,0.6
2025-12-31T0600,1694A,115.3706,22.7898,汕尾市,市政府,,38,28,32,26,24,84,84,,,12,17,7,8,0.5,0.5
2025-12-31T0600,1695A,115.3622,22.7925,汕尾市,新城中学,,33,29,34,23,21,86,86,,,10,16,5,6,0.4,0.5
2025-12-31T0600,2645A,109.9154,33.8715,商洛市,监测站,,,69,66,56,47,,,,,16,25,8,10,0.8,0.9
2025-12-31T0600,3045A,109.9643,33.8471,商洛市,商州区中学,细颗粒物(PM2.5),75,58,61,55,46,109,109,,,12,25,16,15,0.5,0.6
2025-12-31T0600,2408A,115.6702,34.4285,商丘市,环境监测站,细颗粒物(PM2.5),134,108,149,102,135,7,7,,,43,33,4,3,0.9,0.9
2025-12-31T0600,2409A,115.6458,34.4045,商丘市,粮食局,细颗粒物(PM2.5),115,108,140,87,125,8,8,,,43,36,6,6,0.6,0.6
2025-12-31T0600,2410A,115.6293,34.3948,商丘市,睢阳区环保局,细颗粒物(PM2.5),124,111,148,94,125,7,7,,,41,30,7,7,0.8,0.9
2025-12-31T0600,3171A,115.6071,34.4465,商丘市,梁园区档案局,细颗粒物(PM2.5),117,93,130,88,125,8,8,,,41,36,6,6,0.9,0.9
2025-12-31T0600,1141A,121.4,31.238,上海市,普陀,,19,12,38,3,33,58,58,,,30,30,5,6,0.4,0.6
2025-12-31T0600,1142A,121.478,31.2036,上海市,十五厂,,20,13,41,3,33,63,63,,,19,25,6,6,0.5,0.6
2025-12-31T0600,1143A,121.467,31.3008,上海市,虹口,,17,15,41,8,29,52,52,,,24,30,10,10,0.2,0.4
2025-12-31T0600,1147A,121.425,31.2261,上海市,静安监测站,,20,13,39,9,31,61,61,,,21,21,7,7,0.2,0.3
2025-12-31T0600,1148A,121.703,31.1907,上海市,浦东川沙,,23,12,33,3,26,71,71,,,15,17,7,6,0.4,0.6
2025-12-31T0600,1149A,121.533,31.2284,上海市,浦东新区监测站,,19,,37,13,33,52,52,,,32,32,6,6,0.5,0.6
2025-12-31T0600,1150A,121.577,31.2071,上海市,浦东张江,,22,12,35,7,29,68,68,,,16,27,6,6,0.2,0.3
2025-12-31T0600,3265A,121.4316,31.3322,上海市,宝山庙行,,22,14,37,8,29,39,39,,,44,32,5,6,0.3,0.4
2025-12-31T0600,3266A,121.8791,31.4662,上海市,崇明上实东滩,,24,12,25,3,15,76,76,,,7,8,4,4,0.3,0.4
2025-12-31T0600,3268A,121.3162,31.2838,上海市,嘉定南翔,,18,11,39,3,27,56,56,,,24,27,6,4,0.3,0.5
2025-12-31T0600,3269A,121.3359,30.7456,上海市,金山新城,,20,,44,14,47,59,59,,,20,29,6,6,0.5,0.7
2025-12-31T0600,3270A,121.4996,31.0739,上海市,闵行浦江,,19,11,36,7,30,60,60,,,24,28,6,6,0.4,0.7
2025-12-31T0600,3271A,121.2886,31.1663,上海市,青浦徐泾,,18,10,41,6,34,46,46,,,36,32,4,5,0.3,0.5
2025-12-31T0600,3272A,121.2186,31.0378,上海市,松江图书馆,,16,11,45,3,27,51,51,,,24,29,6,6,0.6,0.7
