timepoint,stationcode,longitude,latitude,area,positionname,primarypollutant,aqi,pm10,pm10_24h,pm2_5,pm2_5_24h,o3,o3_24h,o3_8h,o3_8h_24h,no2,no2_24h,so2,so2_24h,co,co_24h
2024-11-12T1800,2566A,102.1879,31.914,阿坝藏族羌族自治州,州农科所,,23,23,30,8,10,48,,59,59,28,15,12,9,0.2,0.1
2024-11-12T1800,2568A,102.2502,31.8896,阿坝藏族羌族自治州,马师校,,32,,16,22,17,34,,57,57,33,15,4,4,0.5,0.4
2024-11-12T1800,3994A,102.2165,31.9024,阿坝藏族羌族自治州,马尔康中学西区,,26,26,16,15,13,52,,61,60,24,11,4,4,0.6,0.5
2024-11-12T1800,2695A,80.292,41.1694,阿克苏地区,电视台,颗粒物(PM10),73,95,119,28,39,107,,77,77,14,43,6,4,0.4,0.8
2024-11-12T1800,2696A,80.2613,41.1551,阿克苏地区,艺术中心,颗粒物(PM10),67,84,109,30,33,104,,76,76,15,38,4,4,0.4,0.6
2024-11-12T1800,2204A,105.6467,38.8363,阿拉善盟,西城区西花园,颗粒物(PM10),51,52,40,33,25,61,,76,74,27,21,17,12,1.0,0.9
2024-11-12T1800,2205A,105.6985,38.8411,阿拉善盟,蒙二幼,颗粒物(PM10),52,53,41,23,14,52,,72,71,30,21,15,10,0.7,0.6
2024-11-12T1800,2206A,105.724,38.8516,阿拉善盟,环保局新楼,,45,45,28,21,11,56,,93,71,22,11,13,10,0.6,0.6
2024-11-12T1800,2708A,88.1264,47.8517,阿勒泰地区,市站,,16,8,9,3,7,35,,46,40,32,17,8,7,0.3,0.3
2024-11-12T1800,2630A,80.1161,32.5,阿里地区,阿里监测站,,33,8,18,8,8,104,,99,99,1,5,6,8,0.5,0.5
2024-11-12T1800,3192A,80.0903,32.5028,阿里地区,阿里藏医院,,33,7,15,3,7,105,,101,101,1,2,5,6,0.5,0.5
2024-11-12T1800,2642A,109.0318,32.6537,安康市,香溪洞,,30,30,42,21,29,55,,33,33,19,14,8,8,0.4,0.5
2024-11-12T1800,2644A,109.0072,32.6975,安康市,汉滨区检察院,颗粒物(PM10),61,72,63,40,42,7,,22,21,45,27,8,9,0.9,0.7
2024-11-12T1800,4054A,109.0325,32.6913,安康市,市邮政管理局,颗粒物(PM10),56,61,59,38,38,5,,24,22,41,28,8,10,1.1,0.8
2024-11-12T1800,2291A,117.0809,30.5177,安庆市,环科院,颗粒物(PM10),51,52,57,33,40,145,,141,141,28,26,11,12,0.9,0.8
2024-11-12T1800,2292A,117.0331,30.5119,安庆市,马山宾馆,,50,50,54,29,35,147,,142,142,28,24,8,9,0.9,0.8
2024-11-12T1800,2294A,116.9896,30.6145,安庆市,安庆大学,颗粒物(PM10),53,56,58,28,36,154,,143,143,15,15,9,9,0.7,0.7
2024-11-12T1800,3173A,117.0598,30.5351,安庆市,市人大,,49,46,54,34,42,134,,141,141,36,29,11,13,0.7,0.6
2024-11-12T1800,3122A,105.9606,26.2611,安顺市,伍家关,,27,27,21,17,18,77,,78,78,4,5,3,6,0.6,0.6
2024-11-12T1800,3123A,105.9408,26.2431,安顺市,凤凰山,颗粒物(PM10),81,112,33,16,20,87,,93,92,7,9,7,10,0.4,0.4
2024-11-12T1800,3124A,105.9439,26.2564,安顺市,金钟山,,29,23,27,20,21,90,,93,93,6,7,7,9,0.5,0.5
2024-11-12T1800,3125A,105.8983,26.2481,安顺市,娄家坡,,29,28,26,20,21,87,,91,91,8,7,8,9,0.4,0.4
2024-11-12T1800,1818A,114.4839,36.0621,安阳市,棉研所,细颗粒物(PM2.5),250,216,183,200,154,26,,27,27,36,39,6,6,0.9,0.9
2024-11-12T1800,1819A,114.3551,36.1017,安阳市,红庙街,细颗粒物(PM2.5),217,,164,167,154,,,31,31,45,42,3,3,0.9,1
2024-11-12T1800,1820A,114.361,36.0681,安阳市,银杏小区,细颗粒物(PM2.5),226,192,165,176,162,35,,35,35,30,37,1,2,1.2,1.2
2024-11-12T1800,3141A,114.3922,36.0878,安阳市,信访局,细颗粒物(PM2.5),228,201,186,178,158,27,,27,27,36,40,3,2,1.1,1.1
2024-11-12T1800,3669A,114.4705,36.0637,安阳市,左辅环卫站,细颗粒物(PM2.5),224,228,196,174,139,28,,26,26,25,30,1,1,0.9,0.9
2024-11-12T1800,3703A,114.2917,36.0949,安阳市,安钢职工学校,细颗粒物(PM2.5),239,,183,189,159,36,,35,35,48,52,2,4,0.9,1.2
2024-11-12T1800,1748A,123.044,41.1196,鞍山市,深沟寺,,39,39,61,13,31,32,,65,61,50,33,8,13,0.5,1.1
2024-11-12T1800,1749A,123.011,41.0931,鞍山市,太阳城,,26,26,52,11,26,46,,68,68,30,30,8,13,0.4,0.9
2024-11-12T1800,1750A,123.0485,41.1442,鞍山市,太平,颗粒物(PM10),64,78,75,42,41,23,,59,59,64,39,18,20,0.8,1
2024-11-12T1800,1751A,122.9642,41.0971,鞍山市,铁西三道街,,41,41,63,19,32,25,,60,59,59,39,11,19,0.8,1.1
2024-11-12T1800,1752A,122.9341,41.0833,鞍山市,铁西工业园区,颗粒物(PM10),67,84,74,44,42,11,,54,50,83,43,17,20,0.9,1.3
2024-11-12T1800,1753A,123.022,41.0821,鞍山市,明达新区,,26,26,52,12,26,42,,62,61,29,26,10,16,0.4,1
2024-11-12T1800,1754A,123.1289,41.0228,鞍山市,千山,,,,22,,8,,,41,,,9,,4,,0.5
2024-11-12T1800,2195A,107.4212,40.761,巴彦淖尔市,附二中,颗粒物(PM10),100,149,60,29,22,26,,50,50,57,32,9,8,0.8,0.5
2024-11-12T1800,2196A,107.37,40.7372,巴彦淖尔市,市环保大楼,颗粒物(PM10),83,115,63,41,23,35,,49,49,48,29,7,4,0.6,0.5
2024-11-12T1800,1956A,86.1472,41.7538,巴音郭楞蒙古自治州,孔雀公园,颗粒物(PM10),70,89,101,28,31,91,,63,63,8,54,5,4,0.3,0.6
2024-11-12T1800,1957A,86.1972,41.7166,巴音郭楞蒙古自治州,棉纺厂,颗粒物(PM10),88,125,124,26,29,91,,70,70,12,39,3,2,0.3,0.5
2024-11-12T1800,1958A,86.2357,41.7173,巴音郭楞蒙古自治州,经济开发区,颗粒物(PM10),70,90,110,21,27,90,,70,70,11,24,4,2,0.3,0.4
2024-11-12T1800,2914A,106.7677,31.8794,巴中市,苏山坪,,30,24,19,21,16,51,,40,40,6,9,5,4,0.4,0.4
2024-11-12T1800,3182A,106.7656,31.8545,巴中市,丽阳花园,,40,40,34,27,23,17,,18,18,39,25,4,4,0.6,0.6
2024-11-12T1800,3183A,106.7418,31.8654,巴中市,圣泉水务公司,,35,30,17,24,13,37,,24,24,25,22,5,4,0.6,0.6
2024-11-12T1800,3616A,106.7616,31.8344,巴中市,市中心医院,,39,39,31,27,22,12,,15,15,32,24,5,4,0.6,0.6
2024-11-12T1800,2235A,122.7911,45.6077,白城市,洮北区环保局,,36,36,25,14,14,48,,62,61,28,15,9,8,0.2,0.1
2024-11-12T1800,2236A,122.8738,45.5725,白城市,市环保局,,41,41,20,22,12,15,,63,57,54,14,4,4,0.5,0.4
2024-11-12T1800,2231A,126.4219,41.9171,白山市,喜丰,颗粒物(PM10),52,53,60,22,23,25,,69,63,56,28,9,11,0.7,0.7
2024-11-12T1800,2232A,126.4077,41.9419,白山市,环保局,颗粒物(PM10),60,70,69,21,30,26,,69,66,36,25,8,8,1.0,1
2024-11-12T1800,2647A,104.1724,36.5446,白银市,第三小学,颗粒物(PM10),57,63,88,22,44,88,,77,77,16,39,11,35,1.0,1.4
2024-11-12T1800,2648A,104.1465,36.5482,白银市,动力公司,颗粒物(PM10),52,53,73,20,39,84,,74,74,12,30,4,14,0.6,1
2024-11-12T1800,2512A,106.6103,23.9011,百色市,市监测站,颗粒物(PM10),51,51,68,28,41,122,,122,122,12,23,9,13,0.6,0.8
2024-11-12T1800,2513A,106.6538,23.8859,百色市,市中心血站,细颗粒物(PM2.5),52,52,92,36,52,110,,117,117,16,31,8,14,0.7,0.9
2024-11-12T1800,3406A,106.6085,23.8798,百色市,祈福高中,细颗粒物(PM2.5),55,56,86,39,52,122,,121,121,10,34,9,12,0.5,0.7
2024-11-12T1800,2270A,117.396,32.939,蚌埠市,工人疗养院,颗粒物(PM10),62,73,70,42,44,106,,112,112,26,33,4,6,0.4,0.4
2024-11-12T1800,2271A,117.3605,32.9427,蚌埠市,百货大楼,颗粒物(PM10),67,83,67,44,38,96,,108,108,32,35,5,6,0.5,0.4
2024-11-12T1800,2273A,117.4185,32.8911,蚌埠市,蚌埠学院,颗粒物(PM10),57,63,57,37,44,93,,112,112,37,30,9,8,0.4,0.4
2024-11-12T1800,2274A,117.3533,32.9673,蚌埠市,淮上区政府,细颗粒物(PM2.5),72,88,68,52,46,84,,103,103,38,36,8,9,0.5,0.5
2024-11-12T1800,2275A,117.3145,32.8977,蚌埠市,高新区,细颗粒物(PM2.5),53,53,49,37,38,111,,115,115,23,30,6,7,0.4,0.4
2024-11-12T1800,3715A,117.3092,32.9314,蚌埠市,蚌埠田家炳中学,颗粒物(PM10),62,73,68,42,39,112,,116,116,16,27,5,6,0.4,0.4
2024-11-12T1800,1585A,109.8756,40.6532,包头市,市环境监测站,,48,48,76,14,26,26,,38,38,69,56,21,21,0.8,0.9
2024-11-12T1800,1587A,109.9991,40.5842,包头市,包头八中,颗粒物(PM10),56,62,100,32,27,20,,36,36,68,57,24,31,0.8,1.2
2024-11-12T1800,1588A,109.8538,40.6821,包头市,青山宾馆,颗粒物(PM10),58,66,68,22,23,9,,29,29,81,55,16,19,1.1,1.1
2024-11-12T1800,1589A,109.8642,40.6288,包头市,惠龙物流,,47,47,79,16,28,27,,42,42,67,59,17,23,0.6,1
2024-11-12T1800,1590A,110.0377,40.5546,包头市,东河鸿龙湾,颗粒物(PM10),53,55,81,11,22,23,,41,41,59,47,15,16,0.5,0.7
2024-11-12T1800,3283A,109.9154,40.5685,包头市,滨河大厦,,43,43,74,11,25,40,,51,51,54,49,12,21,0.5,0.7
2024-11-12T1800,3419A,109.9447,40.6261,包头市,包头市委党校,颗粒物(PM10),51,52,70,22,22,9,,38,38,85,57,23,27,1.0,1.1
2024-11-12T1800,3683A,109.8331,40.6576,包头市,昆区政府,颗粒物(PM10),52,53,72,26,24,21,,37,35,71,50,24,18,0.9,0.8
2024-11-12T1800,1930A,107.185,34.3063,宝鸡市,庙沟村,,,,89,,57,19,,19,19,,30,,8,0.7,0.5
2024-11-12T1800,1931A,107.0708,34.3017,宝鸡市,竹园沟,细颗粒物(PM2.5),149,129,79,114,65,17,,16,16,28,26,7,7,0.9,0.7
2024-11-12T1800,1932A,107.1906,34.3672,宝鸡市,三陆医院,细颗粒物(PM2.5),190,166,138,143,115,10,,8,8,35,42,6,6,1.2,1.1
2024-11-12T1800,1933A,107.1431,34.3547,宝鸡市,监测站,细颗粒物(PM2.5),198,154,118,148,99,11,,8,8,36,36,6,7,1.2,0.9
2024-11-12T1800,1934A,107.1186,34.3739,宝鸡市,技工学校,细颗粒物(PM2.5),156,122,103,119,92,16,,10,10,41,44,6,7,1.2,1
2024-11-12T1800,1935A,107.3906,34.3528,宝鸡市,陈仓区环保局家属楼,细颗粒物(PM2.5),231,,143,181,138,9,,9,9,43,37,6,7,1.3,1
2024-11-12T1800,1936A,107.2058,34.3497,宝鸡市,文理学院,细颗粒物(PM2.5),147,179,134,112,85,17,,8,8,32,41,8,8,1.3,1.1
2024-11-12T1800,1937A,107.2386,34.3622,宝鸡市,三迪小学,细颗粒物(PM2.5),251,,155,201,118,28,,13,13,34,51,7,8,1.1,1.1
2024-11-12T1800,1051A,115.493,38.8632,保定市,游泳馆,细颗粒物(PM2.5),200,194,168,150,125,42,,43,43,50,63,4,3,0.7,0.8
2024-11-12T1800,1052A,115.5213,38.8959,保定市,华电二区,细颗粒物(PM2.5),205,159,140,155,125,39,,38,38,46,50,4,4,0.6,0.9
2024-11-12T1800,1053A,115.4713,38.9108,保定市,接待中心,细颗粒物(PM2.5),213,179,161,163,129,27,,39,39,52,44,2,3,0.8,0.8
2024-11-12T1800,1054A,115.4612,38.8416,保定市,地表水厂,细颗粒物(PM2.5),199,202,173,149,130,25,,36,36,63,58,1,2,0.7,0.7
2024-11-12T1800,3581A,115.31981,38.95208,保定市,满城区生态环境分局,细颗粒物(PM2.5),223,207,188,173,132,36,,50,50,55,50,,4,1.2,1
2024-11-12T1800,3582A,115.47694,38.76408,保定市,清苑区第二中学,细颗粒物(PM2.5),166,169,144,126,109,18,,36,36,56,44,4,4,0.8,0.8
2024-11-12T1800,3583A,115.62909,39.02311,保定市,徐水物探局,细颗粒物(PM2.5),206,166,137,156,111,35,,42,42,50,49,4,7,1.0,0.8
2024-11-12T1800,4004A,115.4202,38.8656,保定市,双鹰农机,细颗粒物(PM2.5),216,199,163,166,122,19,,45,45,76,51,2,4,0.9,0.8
2024-11-12T1800,4034A,115.5150,38.8590,保定市,植保所站,细颗粒物(PM2.5),212,164,162,162,121,38,,40,40,49,53,3,7,0.6,0.8
2024-11-12T1800,2594A,99.1678,25.1081,保山市,市环境监测站,,26,26,21,8,8,77,,74,74,8,7,4,5,0.2,0.4
2024-11-12T1800,2595A,99.1711,25.1328,保山市,市环保局,,27,21,21,12,9,84,,78,78,4,6,4,5,0.3,0.3
2024-11-12T1800,1866A,109.2262,21.588,北海市,牛尾岭水库,,,50,42,43,33,143,,128,128,,8,15,9,0.8,0.7
2024-11-12T1800,1867A,109.1436,21.4086,北海市,海滩公园,颗粒物(PM10),58,66,54,37,33,153,,141,141,22,16,8,10,1.2,1.1
2024-11-12T1800,1868A,109.0981,21.4661,北海市,新市环保局,"细颗粒物(PM2.5),臭氧1小时",58,60,50,41,36,166,,153,153,16,14,8,11,0.8,0.7
2024-11-12T1800,1869A,109.1778,21.5233,北海市,北海工业园,细颗粒物(PM2.5),62,70,61,44,39,163,,151,151,18,20,11,10,0.7,0.7
2024-11-12T1800,3400A,109.1911,21.4415,北海市,龙潭自来水厂,细颗粒物(PM2.5),65,58,50,47,41,158,,158,158,15,14,10,9,0.8,0.7
2024-11-12T1800,1001A,116.3621,39.8784,北京市,万寿西宫,细颗粒物(PM2.5),122,135,88,92,62,44,,21,,50,44,2,2,0.9,0.9
2024-11-12T1800,1002A,116.2202,40.2915,北京市,定陵,细颗粒物(PM2.5),68,76,80,49,50,5,,34,33,40,16,1,2,0.6,0.6
2024-11-12T1800,1003A,116.4174,39.9289,北京市,东四,细颗粒物(PM2.5),124,140,97,94,63,50,,48,48,44,42,4,3,0.9,1
2024-11-12T1800,1004A,116.4072,39.8863,北京市,天坛,细颗粒物(PM2.5),117,165,124,88,60,31,,48,48,39,30,3,2,0.8,0.8
2024-11-12T1800,1005A,116.462,39.9365,北京市,农展馆,细颗粒物(PM2.5),115,119,87,87,57,60,,52,52,42,42,3,2,0.8,0.7
2024-11-12T1800,1006A,116.3392,39.9295,北京市,官园,细颗粒物(PM2.5),120,121,93,91,66,45,,48,48,46,38,6,5,0.9,1
2024-11-12T1800,1007A,116.2878,39.9611,北京市,海淀万柳,细颗粒物(PM2.5),100,112,102,75,60,29,,48,48,50,33,3,3,1.0,0.9
2024-11-12T1800,1008A,116.6636,40.135,北京市,顺义新城,细颗粒物(PM2.5),88,91,74,65,49,25,,52,52,68,32,2,2,1.0,0.6
2024-11-12T1800,1009A,116.6275,40.3275,北京市,怀柔镇,细颗粒物(PM2.5),64,71,57,46,38,43,,59,59,54,17,3,2,0.8,0.5
2024-11-12T1800,1010A,116.2296,40.217,北京市,昌平镇,颗粒物(PM10),64,77,88,39,51,14,,37,37,74,33,4,4,0.6,0.7
2024-11-12T1800,1011A,116.3966,39.9821,北京市,奥体中心,细颗粒物(PM2.5),98,118,90,73,53,48,,49,49,47,41,2,2,0.9,0.9
2024-11-12T1800,1012A,116.184,39.9136,北京市,古城,细颗粒物(PM2.5),123,139,125,93,75,18,,37,37,45,29,4,4,0.8,0.8
2024-11-12T1800,3281A,115.9718,40.4529,北京市,延庆夏都,细颗粒物(PM2.5),54,55,49,38,34,54,,41,41,29,23,3,3,0.4,0.6
2024-11-12T1800,3417A,117.0709,40.1465,北京市,平谷新城,细颗粒物(PM2.5),68,72,61,49,38,39,,57,57,43,19,2,3,1.0,0.6
2024-11-12T1800,3418A,116.8336,40.4095,北京市,密云新城,细颗粒物(PM2.5),63,71,62,45,35,44,,61,61,53,17,3,3,0.9,0.5
2024-11-12T1800,3671A,116.088,39.9726,北京市,门头沟三家店,细颗粒物(PM2.5),95,114,124,71,66,20,,36,36,73,42,7,7,0.8,0.7
2024-11-12T1800,3672A,116.1541,39.8204,北京市,丰台云岗,细颗粒物(PM2.5),127,118,111,96,67,23,,40,40,58,42,4,4,0.7,0.9
2024-11-12T1800,3673A,116.6804,39.9081,北京市,通州东关,细颗粒物(PM2.5),135,140,107,103,66,40,,54,54,56,43,1,2,0.8,0.8
2024-11-12T1800,3674A,115.9577,39.7603,北京市,房山燕山,细颗粒物(PM2.5),98,89,112,73,87,13,,44,43,64,38,1,1,0.7,0.8
2024-11-12T1800,3675A,116.4672,39.7733,北京市,大兴旧宫,细颗粒物(PM2.5),149,140,89,114,55,51,,51,51,38,34,1,2,0.8,0.9
2024-11-12T1800,3694A,115.986,40.4563,北京市,延庆石河营,,,50,45,30,30,49,,36,36,29,24,,1,0.5,0.6
2024-11-12T1800,3695A,116.6151,40.3053,北京市,怀柔新城,细颗粒物(PM2.5),93,105,63,69,43,21,,50,49,67,15,1,3,1.1,0.6
2024-11-12T1800,3696A,116.2545,39.8768,北京市,丰台小屯,细颗粒物(PM2.5),118,153,112,89,61,13,,39,38,41,41,2,2,0.8,0.9
2024-11-12T1800,3697A,116.84,40.3844,北京市,密云镇,颗粒物(PM10),60,70,62,39,35,48,,58,58,38,24,1,2,1.0,0.6
2024-11-12T1800,1761A,123.8275,41.3064,本溪市,大峪,,20,14,40,14,20,64,,63,63,8,28,10,11,0.4,0.8
2024-11-12T1800,1762A,123.7567,41.3325,本溪市,溪湖,颗粒物(PM10),68,85,62,34,24,28,,72,66,46,30,12,11,0.6,1.1
2024-11-12T1800,1763A,123.7169,41.3094,本溪市,彩屯,细颗粒物(PM2.5),88,103,59,65,34,13,,54,53,63,36,8,10,0.9,1
2024-11-12T1800,1764A,123.7669,41.2864,本溪市,东明,细颗粒物(PM2.5),74,59,50,54,25,25,,60,60,58,37,10,10,1.1,1.1
2024-11-12T1800,1765A,123.7992,41.2664,本溪市,新立屯,,31,27,26,12,11,9,,59,56,62,37,7,7,0.7,0.8
2024-11-12T1800,1766A,123.8142,41.3472,本溪市,威宁,颗粒物(PM10),51,51,67,19,24,20,,57,57,50,30,8,9,0.7,1.4
2024-11-12T1800,2587A,105.2864,27.3125,毕节市,八中,细颗粒物(PM2.5),64,59,49,46,38,65,,70,70,10,12,6,8,0.6,0.7
2024-11-12T1800,2588A,105.31,27.2944,毕节市,师专,细颗粒物(PM2.5),70,54,48,51,40,59,,69,69,12,12,6,8,0.6,0.6
2024-11-12T1800,3537A,105.3631,27.3533,毕节市,长征村,细颗粒物(PM2.5),84,73,55,62,46,67,,70,70,10,9,8,8,0.7,0.7
2024-11-12T1800,1629A,118.0018,37.3617,滨州市,第二水厂,细颗粒物(PM2.5),140,171,158,107,108,71,,83,83,34,38,7,7,0.8,0.8
2024-11-12T1800,1630A,117.9776,37.393,滨州市,北中新校,细颗粒物(PM2.5),125,166,149,95,90,72,,84,84,41,42,4,3,0.8,0.9
2024-11-12T1800,3514A,117.9378,37.3956,滨州市,中海酒店,细颗粒物(PM2.5),125,144,139,95,94,98,,100,100,26,41,3,4,0.9,1
2024-11-12T1800,3515A,117.9378,37.3553,滨州市,开发区一中,细颗粒物(PM2.5),122,144,153,92,105,84,,92,92,27,39,7,7,0.8,0.8
2024-11-12T1800,3516A,118.0917,37.694,滨州市,金海六路,细颗粒物(PM2.5),125,159,121,95,84,70,,80,80,34,49,4,5,0.8,0.8
2024-11-12T1800,4028A,117.9956,37.3753,滨州市,滨州市西街道办事处,细颗粒物(PM2.5),147,144,146,112,114,77,,91,91,29,35,5,5,1.0,1.2
2024-11-12T1800,2311A,115.8072,33.8399,亳州市,污水处理厂,颗粒物(PM10),52,54,96,23,68,98,,104,104,21,30,6,8,0.5,0.7
2024-11-12T1800,2312A,115.7789,33.8518,亳州市,三国揽胜宫,"颗粒物(PM10),细颗粒物(PM2.5)",52,53,124,36,88,105,,109,109,20,32,3,4,0.3,0.5
2024-11-12T1800,3332A,115.7633,33.8034,亳州市,亳州学院,颗粒物(PM10),57,64,97,25,72,94,,104,104,24,28,4,4,0.5,0.6
2024-11-12T1800,2693A,82.0485,44.8556,博尔塔拉蒙古自治州,市党校,,,27,39,26,26,41,,46,46,15,16,,7,0.3,0.2
2024-11-12T1800,2694A,82.0806,44.8969,博尔塔拉蒙古自治州,市环保局,颗粒物(PM10),53,56,60,16,19,34,,32,32,14,20,4,5,0.4,0.5
2024-11-12T1800,1071A,116.8842,38.2991,沧州市,沧县城建局,细颗粒物(PM2.5),122,140,144,92,99,26,,34,34,54,58,5,4,1.2,1.2
2024-11-12T1800,1072A,116.8584,38.3254,沧州市,电视转播站,细颗粒物(PM2.5),147,145,127,112,90,34,,38,38,45,51,2,3,1.2,1
2024-11-12T1800,1073A,116.8709,38.3228,沧州市,市环保局,细颗粒物(PM2.5),137,149,137,104,101,32,,36,36,42,51,6,3,1.2,1
2024-11-12T1800,3324A,116.8136,38.3004,沧州市,河北水利电力学院,细颗粒物(PM2.5),213,178,135,163,115,2,,34,34,83,58,4,5,1.2,1
2024-11-12T1800,2622A,97.1806,31.1273,昌都市,昌都监测站,,30,12,20,3,10,93,,79,79,3,22,7,7,0.5,0.7
2024-11-12T1800,3719A,97.1714,31.1406,昌都市,昌都会议中心,,30,12,14,8,7,94,,78,78,1,9,6,6,0.5,0.5
2024-11-12T1800,2690A,88.1236,43.8886,昌吉回族自治州,天山天池,,,,6,,4,70,,80,80,4,2,9,5,0.5,0.5
2024-11-12T1800,2692A,87.2717,44.0297,昌吉回族自治州,新区政务中心,细颗粒物(PM2.5),63,60,53,45,32,22,,28,28,54,37,8,6,0.9,0.7
2024-11-12T1800,3613A,87.3095,44.0142,昌吉回族自治州,亚心广场,细颗粒物(PM2.5),85,83,68,63,45,25,,30,30,52,42,2,2,1.0,0.8
2024-11-12T1800,1119A,125.3325,43.9166,长春市,食品厂,细颗粒物(PM2.5),109,85,63,82,41,34,,48,47,55,33,9,8,0.7,0.5
2024-11-12T1800,1120A,125.2863,43.9027,长春市,客车厂,细颗粒物(PM2.5),160,,53,122,46,18,,47,44,72,32,11,10,0.5,0.3
2024-11-12T1800,1121A,125.2841,43.8463,长春市,邮电学院,,36,36,52,22,37,35,,59,57,40,31,9,12,0.3,0.4
2024-11-12T1800,1122A,125.3716,43.8772,长春市,劳动公园,细颗粒物(PM2.5),102,,53,76,29,46,,63,62,53,30,12,12,0.6,0.3
2024-11-12T1800,1123A,125.3297,43.8805,长春市,园林处,细颗粒物(PM2.5),58,,50,41,34,39,,55,54,46,28,10,15,0.5,0.3
2024-11-12T1800,1124A,125.4605,43.79,长春市,净月潭,,42,40,45,29,30,53,,59,59,16,21,7,8,0.3,0.4
2024-11-12T1800,1125A,125.7194,43.515,长春市,甩湾子,,,,,,,,,,,,,,,,
2024-11-12T1800,1126A,125.3863,43.8447,长春市,经开区环卫处,细颗粒物(PM2.5),64,66,48,46,28,21,,54,54,70,30,13,13,0.7,0.5
2024-11-12T1800,1127A,125.245,43.7783,长春市,高新区管委会,细颗粒物(PM2.5),67,73,55,48,40,8,,55,52,81,33,7,9,0.8,0.5
2024-11-12T1800,1128A,125.1761,43.8325,长春市,岱山公园,颗粒物(PM10),56,61,53,26,37,5,,55,51,70,27,8,8,0.6,0.5
2024-11-12T1800,1335A,113.0833,28.2325,长沙市,经开区环保局,细颗粒物(PM2.5),62,61,80,44,64,112,,106,106,36,36,2,2,0.6,0.6
2024-11-12T1800,1336A,112.8872,28.2189,长沙市,高开区环保局,细颗粒物(PM2.5),103,81,93,77,94,131,,116,116,22,30,7,7,0.6,0.6
2024-11-12T1800,1337A,113.0792,28.2053,长沙市,马坡岭,细颗粒物(PM2.5),67,,83,48,80,108,,108,108,34,37,5,6,0.6,0.6
2024-11-12T1800,1338A,112.9394,28.19,长沙市,湖南师范大学,细颗粒物(PM2.5),78,75,105,57,75,128,,119,119,21,26,6,7,0.7,0.7
2024-11-12T1800,1339A,113.0178,28.1322,长沙市,雨花区环保局,颗粒物(PM10),51,51,88,34,77,119,,116,116,24,42,6,7,0.5,0.7
2024-11-12T1800,1340A,112.9792,28.2597,长沙市,伍家岭,细颗粒物(PM2.5),105,88,114,79,93,120,,127,127,24,38,4,4,0.8,0.9
2024-11-12T1800,1341A,113.0014,28.1944,长沙市,火车新站,细颗粒物(PM2.5),70,78,92,51,70,122,,106,106,26,36,4,4,0.7,0.7
2024-11-12T1800,1342A,112.9844,28.1178,长沙市,天心区环保局,颗粒物(PM10),66,81,112,37,71,117,,117,117,26,34,2,3,0.6,0.7
2024-11-12T1800,1343A,112.8908,28.1308,长沙市,湖南中医药大学,细颗粒物(PM2.5),75,59,104,55,81,125,,126,126,32,30,8,9,0.5,1.1
2024-11-12T1800,1344A,112.9581,28.3611,长沙市,沙坪,细颗粒物(PM2.5),79,,79,58,46,119,,109,109,13,14,9,10,0.6,0.6
2024-11-12T1800,1727A,113.1147,36.1547,长治市,清华站,细颗粒物(PM2.5),163,150,148,124,132,2,,18,16,47,39,9,14,1.6,1.5
2024-11-12T1800,1728A,113.1031,36.1989,长治市,监测站,细颗粒物(PM2.5),163,171,165,124,132,1,,22,20,46,35,11,18,1.6,1.7
2024-11-12T1800,1730A,113.0886,36.2125,长治市,审计局,细颗粒物(PM2.5),175,,149,132,149,12,,33,30,37,30,8,17,1.6,1.7
2024-11-12T1800,1731A,113.0844,36.1856,长治市,长治八中,细颗粒物(PM2.5),204,155,167,154,163,2,,20,18,50,39,8,16,1.7,1.8
2024-11-12T1800,2845A,113.1569,36.1911,长治市,德盛苑,细颗粒物(PM2.5),170,182,150,129,117,1,,18,16,46,34,6,12,1.8,1.9
2024-11-12T1800,3568A,113.06,36.0464,长治市,向阳小学,细颗粒物(PM2.5),207,162,146,157,122,10,,22,17,48,40,10,11,2.0,1.4
2024-11-12T1800,3569A,112.8792,36.3144,长治市,屯留一中,细颗粒物(PM2.5),163,126,135,124,145,24,,38,38,42,36,8,12,1.6,1.6
2024-11-12T1800,3570A,113.235,36.3489,长治市,潞城四中,细颗粒物(PM2.5),160,,140,122,128,91,,80,80,21,40,9,13,1.4,1.8
2024-11-12T1800,1854A,111.6975,28.9703,常德市,市二中,颗粒物(PM10),76,102,97,50,59,113,,101,101,18,30,7,7,0.8,0.8
2024-11-12T1800,1857A,111.7158,29.1456,常德市,白鹤山,,,,,,,,,,,,,,,,
2024-11-12T1800,3138A,111.7153,29.0289,常德市,武陵区永安,颗粒物(PM10),63,76,67,43,48,110,,103,103,19,19,8,8,0.9,0.9
2024-11-12T1800,3139A,111.6892,28.9881,常德市,鼎城区玉霞,"颗粒物(PM10),细颗粒物(PM2.5)",62,74,84,44,55,114,,105,105,16,29,8,8,0.8,0.9
2024-11-12T1800,3140A,111.6625,29.0531,常德市,武陵区长庚,颗粒物(PM10),65,80,79,42,55,113,,101,101,16,20,7,6,0.7,0.8
2024-11-12T1800,1196A,119.9633,31.762,常州市,市监测站,"颗粒物(PM10),细颗粒物(PM2.5)",54,58,74,38,43,95,,110,110,30,43,8,10,0.7,0.8
2024-11-12T1800,1200A,119.9468,31.7069,常州市,武进监测站,颗粒物(PM10),54,58,74,31,36,88,,108,108,32,36,2,8,0.7,0.8
2024-11-12T1800,1201A,119.9255,31.9087,常州市,安家,细颗粒物(PM2.5),70,82,76,51,44,72,,93,93,42,56,8,10,0.7,0.7
2024-11-12T1800,3002A,119.9805,31.8174,常州市,行政中心,细颗粒物(PM2.5),54,51,64,38,44,91,,106,106,23,39,12,13,0.7,0.8
2024-11-12T1800,3003A,120.0522,31.7748,常州市,经开区,颗粒物(PM10),58,65,75,35,44,88,,111,111,38,70,10,11,0.5,0.7
2024-11-12T1800,3010A,119.9025,31.7964,常州市,钟楼,颗粒物(PM10),57,63,72,30,42,94,,107,107,27,43,6,9,0.6,0.8
2024-11-12T1800,3429A,119.8598,31.7066,常州市,武进经发区,,47,47,66,23,34,95,,115,115,25,50,4,8,0.5,0.8
2024-11-12T1800,3430A,119.5826,31.7245,常州市,金坛城区,,36,36,55,24,32,114,,124,124,27,40,7,8,0.6,0.7
2024-11-12T1800,2220A,120.4318,41.5881,朝阳市,西梁,,,33,64,14,38,59,,61,60,18,32,14,15,,1.1
2024-11-12T1800,2221A,120.4521,41.5646,朝阳市,河畔小区,颗粒物(PM10),52,54,50,18,29,57,,57,57,22,28,12,9,0.5,1
2024-11-12T1800,2222A,120.4176,41.5648,朝阳市,八里堡,,35,35,52,20,29,58,,67,67,24,31,15,10,0.6,1.1
2024-11-12T1800,2223A,120.3806,41.5969,朝阳市,农业园区,颗粒物(PM10),51,51,48,31,39,54,,68,68,29,29,13,10,0.7,1
2024-11-12T1800,1705A,116.6367,23.6719,潮州市,西园路,,,,41,25,27,70,,67,67,9,13,4,6,0.5,0.4
2024-11-12T1800,3026A,116.6183,23.6608,潮州市,市政府,,21,,42,14,25,67,,68,68,11,19,6,12,0.7,0.7
2024-11-12T1800,4036A,116.6461,23.6761,潮州市,金山,,23,23,41,13,25,67,,65,65,10,13,8,9,0.6,0.6
2024-11-12T1800,2472A,113.0073,25.9061,郴州市,马头岭,颗粒物(PM10),55,59,60,23,26,102,,103,103,17,21,43,15,0.2,0.3
2024-11-12T1800,2473A,113.0116,25.8226,郴州市,市职中,细颗粒物(PM2.5),67,58,63,48,48,110,,119,119,16,18,29,12,0.8,0.7
2024-11-12T1800,2474A,113.0161,25.8001,郴州市,兴隆步行街,细颗粒物(PM2.5),57,53,69,40,47,122,,117,117,12,26,27,11,0.7,0.8
2024-11-12T1800,2475A,113.0383,25.8071,郴州市,市审计局,细颗粒物(PM2.5),57,51,61,40,49,102,,113,113,9,26,24,10,0.6,0.7
2024-11-12T1800,2476A,113.0348,25.7759,郴州市,市环保局,颗粒物(PM10),54,58,74,30,51,101,,110,110,12,27,20,13,0.7,0.8
2024-11-12T1800,1431A,103.9728,30.7236,成都市,金泉两河,,42,40,37,29,22,20,,24,24,37,29,2,2,0.6,0.6
2024-11-12T1800,1432A,104.176,30.6872,成都市,十里店,,46,46,41,31,28,14,,29,29,44,40,2,2,0.6,0.7
2024-11-12T1800,1433A,104.079,30.5706,成都市,三瓦窑,细颗粒物(PM2.5),52,46,43,36,30,12,,24,22,39,39,1,1,0.5,0.5
2024-11-12T1800,1434A,104.1114,30.63,成都市,沙河铺,细颗粒物(PM2.5),53,47,43,37,26,19,,22,22,34,32,4,4,0.5,0.7
2024-11-12T1800,1437A,104.0786,30.6531,成都市,君平街,,,43,45,27,33,24,,24,23,36,40,3,3,,0.8
2024-11-12T1800,1438A,103.613,31.0283,成都市,灵岩寺,,,,,,,,,,,,,,,,
2024-11-12T1800,2880A,104.0239,30.65639,成都市,大石西路,细颗粒物(PM2.5),52,42,42,36,28,22,,24,24,27,33,3,2,0.6,0.7
2024-11-12T1800,3136A,104.2725,30.5589,成都市,龙泉驿区区政府,,28,22,36,19,29,35,,30,30,14,34,3,2,0.5,0.6
2024-11-12T1800,3357A,104.0106,30.6931,成都市,金博路,,30,30,37,12,23,23,,25,24,32,30,1,2,0.5,0.6
2024-11-12T1800,3359A,104.0578,30.5225,成都市,华阳,,,,38,,26,4,,14,14,30,30,1,1,0.7,0.7
2024-11-12T1800,3487A,104.2394,30.5319,成都市,车城东七路,,32,31,52,22,38,41,,28,28,16,37,4,4,0.5,0.6
2024-11-12T1800,3488A,104.3853,30.7453,成都市,青白江技师分院,,36,36,44,24,28,32,,27,27,16,30,2,2,0.6,0.7
2024-11-12T1800,3489A,104.0789,30.4072,成都市,科学城,,40,36,46,28,39,21,,33,33,31,28,3,4,0.6,0.6
2024-11-12T1800,4011A,103.8506,30.6947,成都市,光华大道三段,,31,31,33,14,16,19,,28,28,33,27,1,1,0.6,0.6
2024-11-12T1800,1062A,117.9531,40.9081,承德市,铁路,颗粒物(PM10),80,109,65,50,41,2,,28,23,60,38,5,4,1.0,0.6
2024-11-12T1800,1063A,117.9392,40.9763,承德市,中国银行,颗粒物(PM10),55,60,61,29,32,6,,36,31,40,28,1,1,0.7,0.6
2024-11-12T1800,1064A,117.9503,40.928,承德市,开发区,细颗粒物(PM2.5),68,80,70,49,42,4,,31,26,40,23,5,5,0.6,0.7
2024-11-12T1800,1065A,117.8051,40.9655,承德市,文化中心,颗粒物(PM10),74,98,73,51,42,4,,23,22,49,34,4,7,0.9,0.7
2024-11-12T1800,1066A,117.9268,41.0026,承德市,离宫,细颗粒物(PM2.5),59,45,53,42,46,17,,30,29,25,19,2,2,0.6,0.6
2024-11-12T1800,2314A,117.47,30.6618,池州市,池州学院,颗粒物(PM10),51,52,60,27,35,113,,131,131,33,26,13,9,0.6,0.8
2024-11-12T1800,3237A,117.4918,30.6617,池州市,展览馆,,45,45,55,28,36,114,,131,131,31,23,10,6,0.5,0.8
2024-11-12T1800,3333A,117.5627,30.695,池州市,第八中学,,47,47,54,30,35,110,,131,128,34,23,6,6,0.5,0.9
2024-11-12T1800,3334A,117.5038,30.6243,池州市,第十二中学,,48,48,50,31,32,120,,132,132,28,22,5,5,0.7,0.8
2024-11-12T1800,1744A,118.9233,42.2816,赤峰市,松山一中,,41,41,44,13,13,24,,52,52,55,35,15,13,1.0,0.8
2024-11-12T1800,1745A,118.9576,42.2728,赤峰市,哈达街,,43,43,44,18,20,27,,53,53,44,28,11,10,0.9,0.7
2024-11-12T1800,1746A,118.8788,42.2554,赤峰市,天义路,,38,38,52,12,20,46,,65,65,36,33,11,9,0.7,0.6
2024-11-12T1800,3058A,119.2658,42.0353,赤峰市,银河街,,50,50,64,14,38,47,,63,61,37,30,15,20,0.8,0.9
2024-11-12T1800,3286A,118.9359,42.3147,赤峰市,桥北物流园区,颗粒物(PM10),64,78,40,34,14,8,,58,56,82,35,28,11,1.4,0.9
2024-11-12T1800,2521A,107.3476,22.4136,崇左市,市环保局江州分局,,42,42,69,27,38,117,,126,126,8,20,6,6,0.5,0.6
2024-11-12T1800,2522A,107.3702,22.3707,崇左市,城南新区,,42,35,51,29,36,110,,127,127,7,18,7,7,0.6,0.6
2024-11-12T1800,2298A,118.3093,32.3153,滁州市,老年大学,颗粒物(PM10),51,51,60,34,44,103,,124,124,39,39,8,6,0.5,0.5
2024-11-12T1800,2299A,118.3244,32.2786,滁州市,人大宾馆,颗粒物(PM10),61,71,74,32,44,112,,118,118,44,45,8,8,0.5,0.6
2024-11-12T1800,3207A,118.3118,32.3038,滁州市,市政府原办公楼,颗粒物(PM10),56,62,60,38,46,95,,118,118,46,41,8,7,0.7,0.7
2024-11-12T1800,3331A,118.3267,32.2634,滁州市,图书馆,颗粒物(PM10),56,61,71,24,37,108,,114,114,39,39,7,7,0.3,0.4
2024-11-12T1800,2605A,101.5482,25.0441,楚雄彝族自治州,州环境监测站,,22,11,10,3,8,69,,64,64,6,6,6,6,0.5,0.6
2024-11-12T1800,2606A,101.538,25.0492,楚雄彝族自治州,市经济开发区,,22,14,14,6,9,68,,65,65,7,8,5,5,0.5,0.6
2024-11-12T1800,2548A,107.5277,31.2827,达州市,达州职业技术学院,,43,32,36,30,27,10,,9,9,43,26,5,5,0.6,0.6
2024-11-12T1800,2549A,107.5086,31.2186,达州市,市环境监测站,,27,27,38,17,19,34,,18,18,28,29,5,7,0.5,0.6
2024-11-12T1800,2550A,107.4988,31.2132,达州市,凤凰小区,,32,27,34,22,22,44,,24,24,23,29,7,9,0.5,0.6
2024-11-12T1800,2551A,107.5082,31.1986,达州市,达县机关宾馆,,43,,36,30,27,23,,15,15,35,32,5,7,0.6,0.6
2024-11-12T1800,2552A,107.4644,31.2124,达州市,市政中心,,35,35,41,17,22,27,,15,15,31,33,4,7,0.6,0.7
2024-11-12T1800,2614A,100.1542,25.7054,大理白族自治州,大理市环境监测站,,30,19,18,8,15,94,,78,78,5,6,6,6,0.4,0.5
2024-11-12T1800,2615A,100.2171,25.5811,大理白族自治州,大理古城,,35,27,22,24,10,86,,91,91,23,14,4,5,0.3,0.3
2024-11-12T1800,1109A,121.612,38.9741,大连市,甘井子,,29,29,44,9,22,60,,78,78,42,32,9,10,1.0,1
2024-11-12T1800,1110A,121.565,38.9511,大连市,周水子,,28,28,46,8,24,51,,68,68,39,32,8,7,0.5,0.7
2024-11-12T1800,1111A,121.5637,38.8845,大连市,星海三站,,24,21,41,3,21,76,,82,81,16,21,5,9,0.5,0.7
2024-11-12T1800,1112A,121.6302,38.9117,大连市,青泥洼桥,,19,11,42,3,22,60,,72,72,24,25,8,11,0.6,0.8
2024-11-12T1800,1113A,121.6251,38.8638,大连市,傅家庄,,25,16,38,3,20,79,,81,81,15,19,10,13,0.4,0.6
2024-11-12T1800,1114A,121.5213,38.8661,大连市,七贤岭,,24,24,44,8,21,57,,80,80,30,19,7,9,0.6,0.7
2024-11-12T1800,1115A,121.2529,38.8061,大连市,旅顺,,25,25,50,13,24,69,,82,82,28,17,7,8,0.7,0.8
2024-11-12T1800,1116A,121.7485,39.1311,大连市,金州,,23,23,43,13,25,68,,77,77,27,30,8,9,0.7,0.8
2024-11-12T1800,1117A,121.7811,39.0496,大连市,开发区,,28,28,42,3,22,60,,73,73,28,29,8,10,0.5,0.7
2024-11-12T1800,1118A,121.9762,39.0631,大连市,双D港,,23,20,36,3,20,73,,85,85,18,20,7,9,0.5,0.8
2024-11-12T1800,1789A,124.81117,46.03138,大庆市,大同区,细颗粒物(PM2.5),228,218,109,178,89,26,,53,51,69,25,10,6,1.1,0.5
2024-11-12T1800,1790A,125.129,46.533,大庆市,龙凤区,细颗粒物(PM2.5),72,85,94,52,72,24,,48,46,46,23,6,7,0.7,0.7
2024-11-12T1800,1791A,124.902,46.408,大庆市,红岗区,颗粒物(PM10),52,54,65,29,46,25,,53,51,46,20,6,6,0.5,0.4
2024-11-12T1800,1792A,125.153,46.586,大庆市,萨尔图区,颗粒物(PM10),64,78,86,29,76,30,,44,44,46,30,7,8,0.6,0.6
2024-11-12T1800,1793A,124.9042,46.6215,大庆市,让胡路区,细颗粒物(PM2.5),55,54,75,39,59,14,,50,46,52,17,5,5,0.5,0.4
2024-11-12T1800,3481A,125.141,46.634,大庆市,萨区政府监测点,,46,46,108,29,77,29,,40,40,38,30,4,6,0.5,0.6
2024-11-12T1800,1721A,113.3819,40.1097,大同市,果树场,颗粒物(PM10),104,158,83,68,35,,,59,59,,43,16,13,,0.7
2024-11-12T1800,1723A,113.2994,40.0758,大同市,云冈宾馆,颗粒物(PM10),58,66,63,22,27,47,,56,56,49,39,15,20,0.5,0.9
2024-11-12T1800,1724A,113.3444,40.0917,大同市,大同大学,颗粒物(PM10),53,56,65,31,25,51,,63,63,42,38,15,21,0.5,0.7
2024-11-12T1800,1725A,113.2661,40.1269,大同市,安家小村,颗粒物(PM10),69,88,83,36,27,33,,57,57,54,38,20,23,0.5,1.1
2024-11-12T1800,1726A,113.2711,40.0844,大同市,教育学院,颗粒物(PM10),71,91,83,25,27,27,,58,58,69,50,16,19,0.7,1.1
2024-11-12T1800,3282A,113.3397,40.0597,大同市,大同市卫生学校,颗粒物(PM10),65,80,73,34,27,46,,64,64,53,40,14,21,0.4,0.6
2024-11-12T1800,3565A,113.1367,40.1122,大同市,云冈站,颗粒物(PM10),81,111,78,33,25,30,,61,61,67,44,19,28,0.7,0.6
2024-11-12T1800,3566A,113.1186,40.2556,大同市,图书馆,颗粒物(PM10),78,105,69,54,36,38,,58,58,53,24,30,19,1.1,0.7
2024-11-12T1800,3567A,113.5931,40.0461,大同市,区一中,颗粒物(PM10),75,100,76,22,19,51,,59,59,48,35,31,26,0.9,0.9
2024-11-12T1800,3676A,113.2802,40.0995,大同市,第二人民医院,颗粒物(PM10),59,67,92,25,31,55,,59,59,43,44,17,22,0.5,1.3
2024-11-12T1800,2269A,124.1069,50.4097,大兴安岭地区,科技局,,33,30,21,23,16,27,,45,44,30,8,8,5,0.5,0.3
2024-11-12T1800,3663A,124.1164,50.4278,大兴安岭地区,红旗社区,,33,29,9,23,7,10,,38,35,44,17,9,5,0.6,0.4
2024-11-12T1800,1600A,124.3303,40.0625,丹东市,江湾东路,,48,48,60,33,39,20,,60,56,65,35,12,18,1.0,1.1
2024-11-12T1800,1601A,124.4256,40.1503,丹东市,临江后街,,22,21,57,15,35,49,,66,66,29,28,6,9,0.5,0.8
2024-11-12T1800,1602A,124.3933,40.1461,丹东市,元宝山,,24,24,57,9,32,56,,67,66,19,29,5,7,0.7,1.1
2024-11-12T1800,1603A,124.3633,40.1092,丹东市,民主桥,,33,33,48,14,25,22,,63,59,66,38,8,9,0.8,0.8
2024-11-12T1800,3541A,109.5726,19.5167,儋州市,第一中学子站,,50,50,45,27,17,104,,108,108,7,6,5,5,0.4,0.3
2024-11-12T1800,3542A,109.5567,19.5187,儋州市,东坡学校子站,,41,41,34,28,17,111,,116,116,6,5,4,4,0.6,0.5
2024-11-12T1800,2616A,98.5842,24.428,德宏傣族景颇族自治州,德宏州监测站,,27,13,32,3,17,84,,74,74,11,19,5,9,0.5,0.7
2024-11-12T1800,3677A,98.5881,24.4368,德宏傣族景颇族自治州,芒市人民政府综合楼,,26,26,32,3,15,81,,72,72,11,14,7,8,0.5,0.7
2024-11-12T1800,1901A,104.4239,31.1208,德阳市,东山公园,,30,30,44,12,18,34,,30,30,13,25,1,2,0.6,0.7
2024-11-12T1800,1902A,104.3826,31.1317,德阳市,西小区,,28,28,42,19,24,32,,28,28,17,27,2,2,0.7,0.7
2024-11-12T1800,1904A,104.3553,31.1091,德阳市,耐火材料厂,,32,27,40,22,22,32,,23,23,15,27,3,4,0.5,0.6
2024-11-12T1800,3639A,104.4019,31.1244,德阳市,市教育局,,27,27,38,15,21,29,,28,28,19,27,2,3,0.7,0.7
2024-11-12T1800,1622A,116.3032,37.4674,德州市,儿童乐园,细颗粒物(PM2.5),168,190,173,127,125,44,,73,73,51,45,11,10,0.9,0.8
2024-11-12T1800,1624A,116.2991,37.4451,德州市,监理站,细颗粒物(PM2.5),203,190,169,153,135,65,,80,80,32,41,11,11,0.8,0.8
2024-11-12T1800,3066A,116.2721,37.4379,德州市,九衢泉纯净水厂,细颗粒物(PM2.5),147,188,167,112,102,60,,79,79,34,41,7,9,0.9,0.9
2024-11-12T1800,3371A,116.3728,37.4403,德州市,开发区人民医院,细颗粒物(PM2.5),160,178,157,122,106,59,,76,76,44,47,8,8,0.9,0.8
2024-11-12T1800,3372A,116.3572,37.4094,德州市,太阳城中学,细颗粒物(PM2.5),185,185,167,139,120,51,,70,70,52,53,6,6,0.9,0.8
2024-11-12T1800,3511A,116.5652,37.3319,德州市,陵城艺术中心,细颗粒物(PM2.5),192,168,145,144,120,69,,70,70,46,52,10,10,0.9,0.9
2024-11-12T1800,2621A,99.7056,27.8317,迪庆藏族自治州,迪庆州站,,26,23,27,11,15,81,,84,84,9,13,6,6,0.3,0.4
2024-11-12T1800,3180A,99.7136,27.8094,迪庆藏族自治州,质量技术监督局,,27,27,24,16,12,79,,82,82,9,12,7,7,0.3,0.5
2024-11-12T1800,2663A,104.6241,35.5734,定西市,东关小学,颗粒物(PM10),58,66,62,32,29,54,,61,61,15,16,4,5,0.4,0.4
2024-11-12T1800,2664A,104.6194,35.5934,定西市,供电公司,颗粒物(PM10),52,53,54,26,26,62,,61,61,11,20,6,8,0.3,0.5
2024-11-12T1800,1389A,113.7547,23.0494,东莞市,莞城梨川,,32,32,49,22,30,75,,116,116,18,35,8,9,0.7,0.8
2024-11-12T1800,1390A,113.7944,23.0128,东莞市,东城石井,,43,42,47,30,31,99,,123,123,15,32,10,10,0.7,0.7
2024-11-12T1800,1391A,113.7383,22.9658,东莞市,南城西平,,47,47,63,30,38,129,,131,131,19,49,8,11,0.7,0.7
2024-11-12T1800,3319A,113.7338,23.0381,东莞市,万江金泰,,36,36,48,25,29,79,,116,116,12,30,7,8,0.7,0.8
2024-11-12T1800,3626A,113.7533,23.0202,东莞市,南城元岭,,35,35,57,20,33,84,,124,124,9,36,8,9,0.7,0.9
2024-11-12T1800,3627A,113.7875,23.0457,东莞市,东城主山,,39,39,56,24,33,91,,125,125,18,40,8,10,0.6,0.7
2024-11-12T1800,1666A,118.6614,37.4309,东营市,市环保局,细颗粒物(PM2.5),98,117,127,73,91,99,,94,94,30,49,5,5,1.1,0.8
2024-11-12T1800,3036A,118.6904,37.4338,东营市,开发区管委会,细颗粒物(PM2.5),100,115,123,75,96,98,,96,96,31,48,4,4,0.8,0.5
2024-11-12T1800,3365A,118.5719,37.565,东营市,垦利区民丰路,细颗粒物(PM2.5),107,139,110,80,80,70,,82,82,40,39,7,8,1.0,0.9
2024-11-12T1800,3498A,118.5055,37.8612,东营市,河口城区,颗粒物(PM10),78,105,111,49,68,64,,82,82,33,32,3,3,1.2,1
2024-11-12T1800,3646A,118.4978,37.4623,东营市,胜利站,细颗粒物(PM2.5),92,,85,68,87,88,,88,88,31,44,4,4,1.4,1.1
2024-11-12T1800,3734A,118.35,37.26,东营市,理想之城,细颗粒物(PM2.5),110,134,129,83,84,95,,93,93,37,54,6,4,1.1,0.9
2024-11-12T1800,1591A,110.0023,39.8129,鄂尔多斯市,综合楼,颗粒物(PM10),85,119,58,24,10,15,,74,68,66,29,12,9,0.7,0.6
2024-11-12T1800,1592A,109.9486,39.8261,鄂尔多斯市,巴音孟克林场办事处,颗粒物(PM10),71,92,49,22,15,24,,78,72,53,29,14,8,0.5,0.5
2024-11-12T1800,1593A,109.7736,39.5986,鄂尔多斯市,康泽苑,颗粒物(PM10),54,58,35,22,10,60,,62,62,42,22,11,8,0.5,0.3
2024-11-12T1800,1594A,109.8119,39.5989,鄂尔多斯市,华泰汽车城,颗粒物(PM10),51,51,42,24,12,61,,61,61,39,33,11,7,0.6,0.4
2024-11-12T1800,1595A,109.9734,39.7884,鄂尔多斯市,奥林花园,,,68,57,27,16,,,73,73,66,45,10,7,0.6,0.5
2024-11-12T1800,2436A,114.8938,30.3994,鄂州市,市政府,,44,44,74,27,41,111,,118,118,31,50,7,10,1.1,1.1
2024-11-12T1800,2437A,114.8989,30.3714,鄂州市,赵家坝,,41,41,68,23,40,104,,118,118,30,53,6,9,0.7,0.9
2024-11-12T1800,3654A,114.8094,30.4089,鄂州市,精准医疗中心,"颗粒物(PM10),细颗粒物(PM2.5)",55,60,69,39,40,106,,126,126,42,36,9,12,0.6,0.8
2024-11-12T1800,2454A,109.4978,30.2981,恩施土家族苗族自治州,湖北民院,细颗粒物(PM2.5),75,68,83,55,71,13,,24,23,25,25,6,6,0.6,0.6
2024-11-12T1800,2455A,109.4707,30.2798,恩施土家族苗族自治州,州电力总公司,细颗粒物(PM2.5),78,64,75,57,59,7,,13,13,43,35,7,7,0.8,0.8
2024-11-12T1800,3549A,109.5061,30.3772,恩施土家族苗族自治州,龙凤新区,细颗粒物(PM2.5),72,55,74,52,58,5,,12,11,30,20,5,6,0.7,0.8
2024-11-12T1800,2499A,108.3411,21.6158,防城港市,沙万,颗粒物(PM10),75,100,63,43,39,105,,139,139,71,42,32,16,0.9,0.7
2024-11-12T1800,2500A,108.3514,21.7731,防城港市,防城档案局,细颗粒物(PM2.5),87,122,115,64,49,134,,134,134,41,33,21,8,1.2,0.7
2024-11-12T1800,2501A,108.3506,21.6414,防城港市,大海花园,颗粒物(PM10),79,107,65,37,37,118,,143,143,53,33,19,10,1.0,0.8
2024-11-12T1800,1371A,113.1294,23.0067,佛山市,湾梁,,48,48,51,23,25,139,,140,140,27,48,7,8,0.7,0.8
2024-11-12T1800,1372A,113.1083,23.0478,佛山市,华材职中,,48,48,55,26,31,132,,134,134,28,52,8,10,0.5,0.6
2024-11-12T1800,1373A,113.144,23.0453,佛山市,南海气象局,,,,49,,30,,,,,,32,,9,,0.6
2024-11-12T1800,1374A,113.2881,22.8094,佛山市,顺德苏岗,,48,48,63,22,40,112,,128,128,30,48,9,8,0.7,0.8
2024-11-12T1800,1376A,112.8383,22.8678,佛山市,高明孔堂,颗粒物(PM10),52,53,54,28,34,152,,151,151,24,34,9,9,0.6,0.7
2024-11-12T1800,1377A,112.8836,23.1588,佛山市,三水监测站,,46,46,46,26,32,126,,123,123,28,36,8,10,0.6,0.6
2024-11-12T1800,1378A,112.867,23.185,佛山市,三水云东海,,41,41,38,22,26,105,,117,117,20,30,10,12,0.7,0.7
2024-11-12T1800,3625A,113.2544,22.7642,佛山市,容桂街道办,,43,39,68,24,42,135,,138,138,23,49,8,8,0.7,0.8
2024-11-12T1800,1280A,119.3903,26.0543,福州市,鼓山,,,,17,,9,,,72,,,8,,3,,0.2
2024-11-12T1800,1282A,119.2681,26.0504,福州市,师大,,27,27,28,11,13,77,,77,77,13,11,2,3,0.4,0.5
2024-11-12T1800,1283A,119.2984,26.1028,福州市,五四北路,,25,25,24,9,11,78,,73,73,10,11,3,2,0.4,0.5
2024-11-12T1800,1284A,119.2648,26.0768,福州市,杨桥西路,,27,21,26,10,13,84,,80,80,9,11,3,2,0.3,0.5
2024-11-12T1800,1285A,119.317,26.0746,福州市,紫阳,颗粒物(PM10),51,51,47,14,12,65,,72,61,19,16,3,4,0.1,0.3
2024-11-12T1800,3048A,119.5799,26.0936,福州市,九龙,,33,19,20,8,7,104,,86,86,2,5,3,3,0.1,0.1
2024-11-12T1800,3526A,119.5189,25.9664,福州市,吴航,,35,22,18,12,9,111,,92,92,7,7,2,3,0.2,0.2
2024-11-12T1800,1755A,123.7977,41.8491,抚顺市,望花区,,44,44,80,26,44,16,,51,51,64,45,5,14,0.8,1.4
2024-11-12T1800,1756A,123.9161,41.8822,抚顺市,顺城区,细颗粒物(PM2.5),59,63,73,42,38,11,,54,54,76,45,8,15,0.9,1.2
2024-11-12T1800,1757A,124.0436,41.8611,抚顺市,东洲区,,26,21,69,18,36,50,,62,62,20,35,7,14,0.3,1.2
2024-11-12T1800,1758A,123.9247,41.8642,抚顺市,新抚区,,49,49,84,18,43,14,,59,49,56,41,6,11,0.6,1.3
2024-11-12T1800,1759A,124.0972,41.8961,抚顺市,大伙房水库,,46,34,62,32,34,39,,64,64,34,38,7,15,0.5,1.2
2024-11-12T1800,1760A,123.7086,41.8391,抚顺市,沈抚新城,,30,30,70,21,39,52,,64,64,27,40,7,14,0.4,1.2
2024-11-12T1800,2376A,116.2127,28.0814,抚州市,桐源党溪,颗粒物(PM10),52,53,47,28,29,86,,108,108,6,8,7,7,0.6,0.6
2024-11-12T1800,2377A,116.3544,27.9831,抚州市,市站,,50,50,54,28,34,110,,123,123,16,25,6,7,0.7,0.8
2024-11-12T1800,2378A,116.3565,27.963,抚州市,血防站,,48,48,46,26,31,104,,119,117,14,26,7,9,0.9,1
2024-11-12T1800,2379A,116.3564,28.0007,抚州市,采茶剧团,,48,48,54,32,34,88,,111,111,19,22,8,10,1.0,0.9
2024-11-12T1800,2380A,116.385,27.9647,抚州市,医学分院,,47,47,58,23,31,102,,111,111,12,19,21,10,1.0,0.9
2024-11-12T1800,2207A,121.6094,41.998,阜新市,工业园区,颗粒物(PM10),58,66,99,21,30,57,,67,67,23,35,12,16,0.4,0.8
2024-11-12T1800,2208A,121.6697,42.0279,阜新市,长青街,,40,40,69,21,33,56,,57,57,26,34,14,13,0.6,1.2
2024-11-12T1800,2209A,121.6673,42.0705,阜新市,农业园区,颗粒物(PM10),51,52,52,17,19,54,,56,56,25,24,21,15,0.5,0.5
2024-11-12T1800,2210A,121.6717,42.0224,阜新市,东苑,,45,35,78,31,28,52,,51,51,25,38,16,21,0.3,1.4
2024-11-12T1800,2211A,121.6506,42.0498,阜新市,玉龙新城,细颗粒物(PM2.5),55,42,72,39,28,33,,58,58,49,36,17,13,1.1,1.3
2024-11-12T1800,2301A,115.8277,32.8929,阜阳市,市监测站,,41,41,72,28,50,94,,120,117,24,35,6,7,0.4,0.6
2024-11-12T1800,2303A,115.8554,32.8605,阜阳市,开发区,颗粒物(PM10),56,61,86,24,49,74,,113,113,45,36,7,7,0.5,0.6
2024-11-12T1800,2875A,115.784,32.8892,阜阳市,阜阳职业技术学院,细颗粒物(PM2.5),53,46,66,37,46,104,,123,123,17,26,7,7,0.5,0.6
2024-11-12T1800,3468A,115.7901,32.8613,阜阳市,市规划展馆,,35,17,55,16,40,112,,126,126,20,28,7,7,0.4,0.5
2024-11-12T1800,3469A,115.836,32.9183,阜阳市,枣园社区,,33,33,60,22,42,103,,124,124,27,33,7,8,0.5,0.6
2024-11-12T1800,2669A,102.9099,34.9841,甘南藏族自治州,州政府,,26,26,29,13,16,66,,67,67,2,12,4,4,0.4,0.5
2024-11-12T1800,3380A,102.8914,34.9617,甘南藏族自治州,甘肃民族师范学院,,,20,18,13,11,74,,72,72,,13,4,5,0.3,0.4
2024-11-12T1800,2570A,101.9603,30.0475,甘孜藏族自治州,水桥子,,22,7,13,6,7,68,,52,52,4,14,7,7,0.3,0.4
2024-11-12T1800,3065A,101.9533,29.9972,甘孜藏族自治州,州环保局,,21,11,12,6,5,67,,60,60,12,12,4,4,0.3,0.3
2024-11-12T1800,3414A,115.8347,28.932,赣江新区,桑海产业园,颗粒物(PM10),57,63,61,39,40,102,,112,112,21,39,10,11,0.6,0.4
2024-11-12T1800,2362A,114.9017,25.9149,赣州市,通天岩,,50,50,38,30,31,71,,98,98,11,9,1,2,0.6,0.5
2024-11-12T1800,2363A,114.9367,25.8664,赣州市,地委,,43,43,39,26,33,88,,91,91,12,10,1,7,0.8,0.7
2024-11-12T1800,2364A,114.9461,25.8481,赣州市,气象台,,42,36,38,29,32,80,,90,90,15,12,5,8,0.8,0.7
2024-11-12T1800,2365A,114.9322,25.8333,赣州市,市图书馆,,33,32,37,23,25,77,,87,87,15,11,4,12,0.8,0.7
2024-11-12T1800,2366A,114.8905,25.8471,赣州市,华坚鞋城,,36,36,39,20,34,75,,83,83,14,10,5,5,0.5,0.5
2024-11-12T1800,3109A,115.0093,25.8613,赣州市,赣县区卫计委,,45,34,39,31,28,80,,84,84,10,18,7,5,0.6,0.6
2024-11-12T1800,2683A,106.2319,36.1417,固原市,马园,颗粒物(PM10),66,82,57,42,27,40,,53,46,35,29,6,8,0.9,0.8
2024-11-12T1800,2684A,106.2792,36.0022,固原市,监测站,细颗粒物(PM2.5),65,61,46,47,29,54,,64,57,23,21,5,6,0.4,0.4
2024-11-12T1800,2685A,106.2375,36.0211,固原市,新区,细颗粒物(PM2.5),57,60,47,40,24,50,,59,52,22,22,4,5,0.6,0.5
2024-11-12T1800,3522A,106.2177,35.9959,固原市,原州区十五小,"颗粒物(PM10),细颗粒物(PM2.5)",68,85,62,49,29,48,,68,59,31,22,6,7,0.7,0.5
2024-11-12T1800,2543A,106.6308,30.5278,广安市,小平旧居,,,,,,,,,,,,,,,,
2024-11-12T1800,2544A,106.6303,30.4576,广安市,市委,颗粒物(PM10),53,55,50,24,37,46,,35,35,14,17,3,3,0.5,0.5
2024-11-12T1800,2545A,106.6271,30.4663,广安市,友谊中学,,42,39,47,29,35,45,,35,35,15,18,3,3,0.6,0.6
2024-11-12T1800,2547A,106.6388,30.4551,广安市,广电花园,,38,32,47,26,32,38,,30,30,19,18,6,6,0.6,0.6
2024-11-12T1800,2902A,106.6351,30.4865,广安市,北辰小学,,,,48,,34,40,,34,34,11,16,5,4,0.5,0.6
2024-11-12T1800,2523A,105.8945,32.4535,广元市,黑石坡,,11,11,18,3,11,0,,10,4,22,16,5,5,0.7,0.5
2024-11-12T1800,2524A,105.821,32.4444,广元市,老城,,,11,25,3,12,7,,16,8,32,28,1,5,,0.8
2024-11-12T1800,2526A,105.8628,32.4287,广元市,监测站,,17,17,22,10,15,14,,27,17,33,28,4,4,0.9,0.8
2024-11-12T1800,3617A,105.8047,32.4166,广元市,经开区,,17,10,27,3,15,9,,17,15,33,32,5,7,0.7,0.7
2024-11-12T1800,1345A,113.2347,23.1423,广州市,广雅中学,,49,49,55,27,28,108,,122,122,31,45,7,8,0.8,0.7
2024-11-12T1800,1346A,113.2612,23.105,广州市,市五中,,46,42,39,32,28,127,,133,133,32,27,6,6,0.6,0.6
2024-11-12T1800,1348A,113.3478,23.0916,广州市,广东商学院,,45,43,42,31,29,126,,127,127,22,25,7,7,0.5,0.5
2024-11-12T1800,1349A,113.4332,23.1047,广州市,市八十六中,颗粒物(PM10),60,70,56,33,28,120,,118,118,22,46,5,5,0.6,0.6
2024-11-12T1800,1350A,113.3505,22.9483,广州市,番禺中学,,46,46,53,26,31,126,,128,128,28,48,7,7,0.5,0.6
2024-11-12T1800,1351A,113.2146,23.3916,广州市,花都师范,,36,36,33,23,21,111,,107,107,23,21,10,10,0.7,0.6
2024-11-12T1800,1352A,113.2597,23.1331,广州市,市监测站,,,41,41,24,23,117,,135,135,34,33,6,7,,0.5
2024-11-12T1800,1353A,113.5618,23.312,广州市,九龙镇镇龙,,48,47,54,33,31,101,,96,96,14,33,6,6,0.5,0.6
2024-11-12T1800,1354A,113.2765,23.1544,广州市,麓湖,,36,36,34,24,22,109,,126,126,28,30,4,5,0.6,0.5
2024-11-12T1800,1355A,113.443,23.3035,广州市,帽峰山森林公园,,32,25,22,21,17,102,,120,120,9,14,8,8,0.7,0.6
2024-11-12T1800,2846A,113.3221,23.1322,广州市,体育西,,49,49,45,29,28,120,,118,118,18,26,4,4,0.6,0.6
2024-11-12T1800,3298A,113.5717,23.5491,广州市,从化街口,,46,45,34,32,24,78,,90,90,19,24,9,8,0.7,0.6
2024-11-12T1800,3299A,113.3472,23.3692,广州市,白云竹料,颗粒物(PM10),52,53,39,28,25,101,,112,112,12,22,7,7,0.7,0.7
2024-11-12T1800,3300A,113.2981,23.237,广州市,白云嘉禾,颗粒物(PM10),59,68,53,30,27,95,,116,116,42,44,7,7,0.9,0.9
2024-11-12T1800,3301A,113.4256,23.1716,广州市,黄埔科学城,,40,40,39,23,24,122,,118,118,18,31,6,6,0.6,0.7
2024-11-12T1800,3302A,113.3942,23.0483,广州市,番禺大学城,,48,48,51,28,28,112,,113,113,21,46,9,9,1.1,1.2
2024-11-12T1800,3303A,113.4922,22.8168,广州市,南沙黄阁,,50,50,64,23,40,112,,140,140,33,48,11,10,0.7,0.9
2024-11-12T1800,3304A,113.5342,22.7896,广州市,南沙街,颗粒物(PM10),52,54,54,26,37,128,,165,165,24,39,8,8,0.5,0.6
2024-11-12T1800,3443A,113.2902,23.5544,广州市,花都梯面,,38,35,28,26,21,108,,105,105,12,15,12,12,0.5,0.4
2024-11-12T1800,3445A,113.7858,23.7478,广州市,从化良口,,38,31,24,26,18,82,,88,88,13,8,6,6,0.8,0.7
2024-11-12T1800,3446A,113.8051,23.2614,广州市,增城荔城,,36,31,35,25,24,72,,89,89,16,16,7,8,0.6,0.6
2024-11-12T1800,2505A,109.568,23.1478,贵港市,德智高中,,,,,,,,,,,,,,,,
2024-11-12T1800,2506A,109.6047,23.0666,贵港市,江南子站,,37,36,101,23,60,116,,127,126,15,41,9,10,0.7,0.9
2024-11-12T1800,2507A,109.6014,23.0948,贵港市,贵城子站,,44,44,79,26,55,114,,122,122,13,31,13,10,0.8,0.9
2024-11-12T1800,2508A,109.5669,23.1065,贵港市,荷城子站,,48,48,76,19,44,114,,125,125,15,30,12,14,0.6,0.7
2024-11-12T1800,3405A,109.5886,23.1172,贵港市,新世纪学校,,39,39,67,22,41,114,,128,128,14,20,10,11,0.6,0.8
2024-11-12T1800,1439A,106.6899,26.5998,贵阳市,马鞍山,,27,22,24,9,12,84,,92,92,12,12,5,5,0.5,0.6
2024-11-12T1800,1440A,106.6971,26.5694,贵阳市,市环保站,,29,24,32,20,25,80,,93,93,16,20,5,6,0.5,0.6
2024-11-12T1800,1441A,106.6243,26.6266,贵阳市,鉴湖路,,29,29,30,19,18,79,,86,86,11,11,6,7,0.4,0.4
2024-11-12T1800,1442A,106.7487,26.6343,贵阳市,燕子冲,,32,,23,22,22,83,,94,94,10,14,7,8,0.4,0.4
2024-11-12T1800,1443A,106.6555,26.4365,贵阳市,碧云窝,,31,31,35,14,18,82,,93,92,9,12,6,9,0.4,0.4
2024-11-12T1800,1444A,106.694,26.5161,贵阳市,中院村,颗粒物(PM10),52,53,38,22,21,72,,83,83,14,20,4,6,0.5,0.5
2024-11-12T1800,1445A,106.7109,26.6027,贵阳市,红边门,,36,36,35,14,23,76,,89,89,21,19,5,6,0.7,0.7
2024-11-12T1800,1446A,106.7164,26.5699,贵阳市,新华路,,32,24,27,22,19,79,,92,91,15,17,6,7,0.4,0.4
2024-11-12T1800,1447A,106.674,26.5424,贵阳市,太慈桥,,41,41,35,12,17,78,,87,87,10,20,6,7,0.5,0.4
2024-11-12T1800,1552A,106.805,26.3003,贵阳市,桐木岭,,39,39,42,22,26,95,,106,101,2,2,5,6,0.5,0.5
2024-11-12T1800,1862A,110.4144,25.3167,桂林市,电子科大尧山校区,颗粒物(PM10),57,63,59,38,36,127,,133,133,11,12,16,10,0.6,0.6
2024-11-12T1800,1863A,110.2819,25.2697,桂林市,监测站,细颗粒物(PM2.5),59,57,55,42,46,140,,152,152,20,15,13,17,0.8,0.8
2024-11-12T1800,1864A,110.3089,25.2708,桂林市,龙隐路小学,细颗粒物(PM2.5),60,64,52,43,44,154,,157,157,13,13,13,17,0.7,0.8
2024-11-12T1800,1865A,110.2869,25.2178,桂林市,八中,,,64,57,34,40,130,,146,146,,16,10,16,0.9,0.9
2024-11-12T1800,3403A,110.1764,25.2381,桂林市,创业大厦,细颗粒物(PM2.5),58,56,54,41,43,159,,159,159,14,12,10,12,0.5,0.5
2024-11-12T1800,3531A,110.296,25.1253,桂林市,旅游学院,,45,44,53,31,38,142,,145,145,15,20,10,13,0.5,0.6
2024-11-12T1800,2674A,100.2561,34.4714,果洛藏族自治州,玛沁县大武镇,,30,27,27,6,18,95,,94,94,3,4,10,12,0.4,0.5
2024-11-12T1800,1129A,126.5422,45.755,哈尔滨市,岭北,细颗粒物(PM2.5),143,116,92,109,85,58,,68,68,28,20,11,14,0,0.1
2024-11-12T1800,1130A,126.561,45.8167,哈尔滨市,松北商大,细颗粒物(PM2.5),143,,96,109,85,28,,47,45,39,25,8,12,0.7,0.7
2024-11-12T1800,1131A,126.979,45.5419,哈尔滨市,阿城会宁,细颗粒物(PM2.5),183,138,92,138,77,30,,50,49,38,23,8,5,0.7,0.7
2024-11-12T1800,1132A,126.599,45.7222,哈尔滨市,南岗学府路,细颗粒物(PM2.5),128,128,120,97,76,36,,56,55,44,24,7,10,0.7,0.5
2024-11-12T1800,1133A,126.689,45.7733,哈尔滨市,太平宏伟公园,细颗粒物(PM2.5),179,139,98,135,84,12,,46,42,55,25,10,14,0.8,0.6
2024-11-12T1800,1134A,126.635,45.7667,哈尔滨市,道外承德广场,细颗粒物(PM2.5),180,150,114,136,75,17,,50,46,61,28,10,10,0.9,0.8
2024-11-12T1800,1135A,126.685,45.7319,哈尔滨市,香坊红旗大街,细颗粒物(PM2.5),213,205,112,163,92,15,,51,45,59,24,11,12,1.2,0.7
2024-11-12T1800,1136A,126.6411,45.7258,哈尔滨市,动力和平路,细颗粒物(PM2.5),202,,95,152,82,12,,49,44,63,26,12,14,0.8,0.7
2024-11-12T1800,1137A,126.593,45.7478,哈尔滨市,道里建国路,,,,84,,70,,,36,,,25,,15,,0.5
2024-11-12T1800,1138A,126.615,45.61,哈尔滨市,平房东轻厂,细颗粒物(PM2.5),142,156,92,108,74,10,,46,41,71,27,8,8,0.7,0.5
2024-11-12T1800,1139A,126.595,45.9855,哈尔滨市,呼兰师专,细颗粒物(PM2.5),172,,103,130,100,18,,43,41,58,30,5,6,0.7,0.7
2024-11-12T1800,1140A,126.6206,45.6842,哈尔滨市,省农科院,细颗粒物(PM2.5),213,167,109,163,82,15,,47,44,67,26,12,7,0.9,0.7
2024-11-12T1800,2688A,93.5128,42.8172,哈密市,地区监测站,,49,49,71,19,25,71,,58,58,28,42,5,7,0.3,0.6
2024-11-12T1800,2689A,93.4961,42.8328,哈密市,哈密师范学校,,49,49,68,21,32,79,,59,59,20,44,6,8,0.5,0.8
2024-11-12T1800,2671A,100.9048,36.9639,海北藏族自治州,海晏县西海镇,,,,50,,31,,,92,92,,18,,16,,0.6
2024-11-12T1800,3867A,102.0738,36.5056,海东市,平安区公安北苑,颗粒物(PM10),60,69,63,37,32,69,,54,54,27,30,25,16,0.7,0.7
2024-11-12T1800,1409A,110.576,19.9507,海口市,东寨港,,,,,,,,,,,,,,,,
2024-11-12T1800,1410A,110.3232,20.0574,海口市,海南大学,臭氧1小时,69,70,44,46,24,175,,166,166,17,10,6,5,0.6,0.5
2024-11-12T1800,1411A,110.283,20.0053,海口市,秀英海南医院,细颗粒物(PM2.5),60,58,40,43,23,165,,160,160,15,10,8,7,0.5,0.4
2024-11-12T1800,1412A,110.338,19.9969,海口市,海南师范大学,臭氧1小时,70,59,40,42,23,176,,165,165,13,9,9,7,0.6,0.4
2024-11-12T1800,1413A,110.33,20.0356,海口市,龙华路环保局宿舍,,,59,41,44,24,178,,166,166,,9,,6,0.5,0.4
2024-11-12T1800,3539A,110.5111,19.9736,海口市,桂林洋子站,细颗粒物(PM2.5),63,70,43,45,23,164,,162,162,16,9,8,7,0.5,0.4
2024-11-12T1800,2673A,100.6188,36.2866,海南藏族自治州,共和县恰卜恰镇,,40,29,61,28,39,85,,76,76,12,26,10,10,0.6,0.7
2024-11-12T1800,2676A,97.3731,37.3753,海西蒙古族藏族自治州,德令哈市,,39,39,33,16,12,96,,95,95,9,12,14,15,0.5,0.5
2024-11-12T1800,1048A,114.5302,36.6116,邯郸市,东污水处理厂,细颗粒物(PM2.5),225,177,180,175,160,40,,40,40,38,40,2,2,0.8,0.9
2024-11-12T1800,1049A,114.4918,36.5713,邯郸市,矿院,细颗粒物(PM2.5),211,223,209,161,159,57,,48,48,28,36,3,2,0.7,0.9
2024-11-12T1800,1050A,114.484,36.6133,邯郸市,丛台公园,细颗粒物(PM2.5),226,202,184,176,160,56,,46,46,36,40,4,4,0.7,0.9
2024-11-12T1800,3458A,114.7895,36.5593,邯郸市,香泉濮院小区,细颗粒物(PM2.5),183,172,158,138,110,18,,20,20,37,28,4,4,0.7,0.7
2024-11-12T1800,3579A,114.50634,36.77178,邯郸市,永年区实验高中,细颗粒物(PM2.5),233,240,219,183,157,13,,34,34,58,45,8,5,1.0,1.2
2024-11-12T1800,3580A,114.20016,36.44293,邯郸市,峰峰矿区临水派出所,细颗粒物(PM2.5),222,172,160,172,159,52,,56,56,19,23,4,9,1.0,1.5
2024-11-12T1800,2634A,106.9893,33.1842,汉中市,汉川机床厂子校,,43,,39,30,35,62,,49,49,7,10,4,5,0.5,0.6
2024-11-12T1800,2635A,107.0154,33.0706,汉中市,市监测站,,42,41,41,29,32,50,,47,47,12,12,8,9,0.7,0.7
2024-11-12T1800,2636A,107.0089,33.1138,汉中市,鑫源开发区,,48,,39,33,28,42,,46,40,21,17,10,10,0.7,0.7
2024-11-12T1800,2637A,107.007,33.0323,汉中市,南郑大河坎水厂,,42,42,37,28,30,42,,44,44,23,19,8,8,0.9,0.8
2024-11-12T1800,1223A,120.2072,30.2111,杭州市,滨江,,38,30,67,25,39,120,,119,119,23,44,5,6,0.4,0.7
2024-11-12T1800,1224A,120.0633,30.2747,杭州市,西溪,,25,15,36,9,28,77,,106,106,24,40,7,7,0.5,0.7
2024-11-12T1800,1226A,120.3461,30.3153,杭州市,下沙,,32,22,64,13,34,102,,125,125,33,63,7,8,0.5,0.9
2024-11-12T1800,1227A,120.1269,30.2456,杭州市,卧龙桥,,30,30,52,9,32,68,,122,122,38,29,6,7,0.4,0.6
2024-11-12T1800,1228A,120.1903,30.2692,杭州市,浙江农大,,,31,53,17,36,110,,116,116,27,55,,5,0.5,0.8
2024-11-12T1800,1230A,120.1197,30.3119,杭州市,和睦小学,,38,25,49,17,32,120,,125,125,24,48,8,9,0.2,0.5
2024-11-12T1800,1231A,120.3019,30.4183,杭州市,临平镇,,33,29,71,18,56,103,,126,126,30,49,5,6,0.4,0.7
2024-11-12T1800,1232A,120.2697,30.1819,杭州市,城厢镇,,39,33,65,20,46,124,,124,124,26,54,6,6,0.5,0.8
2024-11-12T1800,1233A,120.0883,30.1808,杭州市,云栖,,32,24,49,12,30,101,,119,119,31,41,7,7,0.5,0.7
2024-11-12T1800,3557A,119.9464,30.0494,杭州市,镇二中,,38,29,62,14,37,119,,118,118,28,38,6,6,0.7,0.8
2024-11-12T1800,3558A,119.7183,30.2367,杭州市,市府大楼,,45,41,55,31,34,128,,121,121,38,39,7,7,0.6,0.7
2024-11-12T1800,3656A,120.1556,30.2864,杭州市,消防大队,,39,39,61,25,38,114,,124,124,29,50,8,8,0.4,0.6
2024-11-12T1800,1270A,117.1959,31.7848,合肥市,明珠广场,,44,44,64,22,38,93,,114,114,40,46,9,9,0.6,0.6
2024-11-12T1800,1271A,117.3072,31.8764,合肥市,三里街,,46,46,66,24,34,96,,96,96,30,48,5,5,0.8,0.8
2024-11-12T1800,1272A,117.2588,31.8707,合肥市,琥珀山庄,,44,44,56,16,31,107,,110,110,25,43,10,9,0.6,1
2024-11-12T1800,1273A,117.1604,31.9052,合肥市,董铺水库,,34,34,67,14,33,96,,99,99,26,41,5,5,0.5,0.5
2024-11-12T1800,1274A,117.25,31.8571,合肥市,长江中路,颗粒物(PM10),51,51,70,27,45,104,,106,106,30,41,9,9,0.7,0.9
2024-11-12T1800,1275A,117.266,31.9436,合肥市,庐阳区,颗粒物(PM10),53,56,70,24,37,106,,113,113,32,48,4,4,0.6,0.6
2024-11-12T1800,1276A,117.336,31.8586,合肥市,瑶海区,颗粒物(PM10),52,53,76,26,38,93,,102,102,42,51,3,7,0.7,0.8
2024-11-12T1800,1277A,117.3027,31.7964,合肥市,包河区,颗粒物(PM10),52,53,82,29,45,85,,100,100,42,74,6,7,0.9,0.9
2024-11-12T1800,1278A,117.2776,31.7385,合肥市,滨湖新区,颗粒物(PM10),51,51,69,22,33,98,,113,113,25,37,6,6,0.6,0.7
2024-11-12T1800,1279A,117.1318,31.8403,合肥市,高新区,,41,41,67,21,44,98,,106,106,24,39,1,2,0.8,1
2024-11-12T1800,3464A,117.3803,31.9147,合肥市,高教基地,颗粒物(PM10),51,52,57,19,27,111,,113,113,26,33,7,7,0.6,0.5
2024-11-12T1800,3614A,79.924,37.0877,和田地区,地区环保局,颗粒物(PM10),74,98,162,18,37,86,,79,79,10,15,5,7,0.3,0.5
2024-11-12T1800,3615A,79.9131,37.113,和田地区,市环保局,颗粒物(PM10),65,80,144,22,42,88,,82,82,6,18,5,7,0.3,0.9
2024-11-12T1800,2516A,108.2011,24.715,河池市,东仁乐园,,,77,86,55,46,,,108,108,,47,16,14,1.0,1
2024-11-12T1800,2517A,108.0497,24.6947,河池市,市环保站,细颗粒物(PM2.5),54,48,52,38,42,111,,118,118,14,24,16,17,0.7,0.7
2024-11-12T1800,2518A,108.0983,24.6989,河池市,市疾控中心,"颗粒物(PM10),细颗粒物(PM2.5)",57,63,65,40,42,105,,113,113,27,39,15,13,0.7,0.7
2024-11-12T1800,1696A,114.6778,23.7569,河源市,源西,,42,38,34,29,25,77,,86,86,13,17,5,7,0.6,0.6
2024-11-12T1800,1697A,114.6944,23.7586,河源市,东埔,,,37,34,25,29,80,,86,86,13,17,4,5,,0.6
2024-11-12T1800,1698A,114.6892,23.7233,河源市,老城,,44,44,34,27,26,82,,92,92,13,16,4,5,0.7,0.6
2024-11-12T1800,1718A,115.4208,35.2464,菏泽市,气象局,细颗粒物(PM2.5),267,284,213,217,151,43,,69,69,41,46,3,4,0.3,0.7
2024-11-12T1800,1719A,115.4747,35.2375,菏泽市,市政协,细颗粒物(PM2.5),223,212,202,173,150,39,,73,73,42,50,9,7,0.7,0.7
2024-11-12T1800,3374A,115.5564,35.0891,菏泽市,定陶老年大学,细颗粒物(PM2.5),180,205,176,136,117,57,,79,79,48,45,6,6,0.7,0.6
2024-11-12T1800,3647A,115.4702,35.2706,菏泽市,菏泽医专,细颗粒物(PM2.5),239,230,206,189,153,34,,71,71,45,49,5,6,0.7,0.8
2024-11-12T1800,2514A,111.5264,24.4172,贺州市,环保小区,细颗粒物(PM2.5),53,50,61,37,45,113,,127,127,16,19,8,7,0.7,0.7
2024-11-12T1800,2515A,111.5608,24.4078,贺州市,政协大楼,颗粒物(PM10),52,54,64,30,43,114,,130,130,14,20,10,10,0.5,0.6
2024-11-12T1800,3534A,111.4744,24.4553,贺州市,西湾,颗粒物(PM10),52,53,58,34,45,111,,122,122,11,18,8,8,0.6,0.7
2024-11-12T1800,2385A,114.17,35.9019,鹤壁市,市监测站,细颗粒物(PM2.5),242,216,212,192,179,34,,42,42,37,38,1,3,0.8,1
2024-11-12T1800,2386A,114.2956,35.7511,鹤壁市,市交警支队,细颗粒物(PM2.5),242,242,228,192,167,34,,44,43,30,38,,5,1.1,1.4
2024-11-12T1800,2387A,114.2878,35.7306,鹤壁市,迎宾馆,细颗粒物(PM2.5),240,245,234,190,171,41,,45,45,28,39,4,5,1.1,1.3
2024-11-12T1800,3474A,114.2617,35.6822,鹤壁市,大新区,细颗粒物(PM2.5),245,,163,195,176,41,,46,46,28,42,4,9,1.2,1.3
2024-11-12T1800,3596A,114.1572,35.9603,鹤壁市,南山宾馆,细颗粒物(PM2.5),217,191,198,167,174,45,,45,45,18,26,3,3,0.8,1.1
2024-11-12T1800,2244A,130.2537,47.3416,鹤岗市,哈啤分公司,,40,,36,28,32,39,,50,49,12,9,15,14,0.5,0.4
2024-11-12T1800,2245A,130.2684,47.3086,鹤岗市,斯达机电,,29,,37,20,34,49,,55,54,12,14,11,13,0.4,0.4
2024-11-12T1800,2246A,130.3114,47.3388,鹤岗市,东山纸板厂,,31,31,46,20,34,44,,52,52,13,11,13,14,0.5,0.2
2024-11-12T1800,2247A,130.1097,47.3382,鹤岗市,五号水库,,20,14,41,3,28,64,,66,66,4,8,7,9,0.2,0.7
2024-11-12T1800,2263A,127.4833,50.2524,黑河市,交通局,,,,17,,16,35,,48,47,24,14,7,7,,0.5
2024-11-12T1800,2264A,127.5144,50.2341,黑河市,环保局,,33,26,15,23,14,52,,57,57,11,11,5,6,0.2,0.2
2024-11-12T1800,2265A,127.5291,50.2472,黑河市,大黑河岛,,38,,11,26,16,23,,39,35,15,11,2,2,0.6,0.5
2024-11-12T1800,1074A,115.6838,37.7541,衡水市,电机北厂,细颗粒物(PM2.5),186,146,140,140,120,3,,9,9,50,51,2,3,0.7,0.7
2024-11-12T1800,1075A,115.6303,37.7316,衡水市,市监测站,细颗粒物(PM2.5),163,143,130,124,110,2,,10,10,60,46,2,4,0.7,0.8
2024-11-12T1800,3188A,115.6683,37.7217,衡水市,市城管局,细颗粒物(PM2.5),165,128,134,125,114,5,,13,12,56,53,2,4,0.9,0.8
2024-11-12T1800,3459A,115.5989,37.5491,衡水市,地表水厂,细颗粒物(PM2.5),169,130,109,128,94,3,,18,17,64,52,4,8,0.8,0.6
2024-11-12T1800,2456A,112.5003,26.9167,衡阳市,原169医院,颗粒物(PM10),69,87,64,38,43,90,,103,103,17,14,15,12,0.6,0.6
2024-11-12T1800,2457A,112.6194,26.9258,衡阳市,衡阳化工总厂,细颗粒物(PM2.5),55,55,82,39,65,124,,127,127,13,18,7,17,0.7,0.8
2024-11-12T1800,2458A,112.6211,26.8956,衡阳市,珠晖区环保局,,48,47,69,33,51,108,,126,126,24,19,10,12,0.9,0.9
2024-11-12T1800,2459A,112.6197,26.8733,衡阳市,市委党校,,40,33,68,22,45,128,,137,137,13,17,12,15,0.7,0.9
2024-11-12T1800,2460A,112.6006,26.8919,衡阳市,市监测站,细颗粒物(PM2.5),55,48,72,39,53,118,,134,134,17,16,10,16,0.8,0.9
2024-11-12T1800,2461A,112.5664,26.9056,衡阳市,真空机电公司,颗粒物(PM10),51,52,72,34,51,122,,138,138,16,20,8,12,0.9,1
2024-11-12T1800,3399A,112.6703,26.882,衡阳市,师范学院,,42,37,70,18,50,132,,132,132,8,13,12,15,0.7,0.9
2024-11-12T1800,2608A,103.3772,23.3993,红河哈尼族彝族自治州,污水处理厂,,33,29,36,23,32,71,,74,71,8,8,6,6,0.5,0.6
2024-11-12T1800,2609A,103.3861,23.35,红河哈尼族彝族自治州,监测站,,33,33,39,20,30,65,,84,74,7,9,8,8,0.4,0.5
2024-11-12T1800,3038A,103.3758,23.368,红河哈尼族彝族自治州,州图书馆,,23,23,36,10,23,63,,76,73,7,10,5,8,0.5,0.5
2024-11-12T1800,1090A,111.6507,40.7517,呼和浩特市,呼市一监,颗粒物(PM10),64,78,87,30,27,51,,60,60,41,37,23,15,0.9,0.8
2024-11-12T1800,1091A,111.6572,40.8033,呼和浩特市,小召,颗粒物(PM10),62,73,81,25,19,54,,57,57,46,44,20,13,0.7,0.7
2024-11-12T1800,1094A,111.7516,40.8369,呼和浩特市,如意水处理厂,颗粒物(PM10),59,67,67,17,18,40,,57,57,51,50,16,11,0.8,0.7
2024-11-12T1800,1095A,111.7276,40.8062,呼和浩特市,二十九中,颗粒物(PM10),51,51,80,15,19,58,,64,64,38,43,15,11,0.7,0.7
2024-11-12T1800,1096A,111.5512,40.7866,呼和浩特市,工大金川校区,颗粒物(PM10),61,71,82,22,19,34,,58,58,61,52,17,10,0.7,0.6
2024-11-12T1800,1097A,111.717,40.7612,呼和浩特市,化肥厂生活区,颗粒物(PM10),66,82,79,22,22,38,,59,59,58,46,18,13,0.8,0.6
2024-11-12T1800,3698A,111.5968,40.8178,呼和浩特市,红旗小学,颗粒物(PM10),78,105,75,21,15,25,,54,54,75,50,20,10,0.7,0.6
2024-11-12T1800,3699A,111.6518,40.8389,呼和浩特市,海东办,颗粒物(PM10),59,68,69,18,16,49,,59,58,48,44,19,12,0.6,0.7
2024-11-12T1800,2192A,119.7594,49.2261,呼伦贝尔市,区环保局,,39,,22,27,18,47,,49,49,20,12,7,6,0.4,0.4
2024-11-12T1800,3061A,119.7512,49.1577,呼伦贝尔市,国华电力东,,28,25,22,19,17,51,,54,54,10,8,3,3,0.3,0.3
2024-11-12T1800,1250A,120.0751,30.8669,湖州市,城西水厂,,33,32,71,14,43,103,,119,119,38,67,6,6,0.4,0.5
2024-11-12T1800,2873A,120.0875,30.8955,湖州市,仁皇山新区,,,30,49,18,33,,,122,122,50,43,5,6,0.6,0.7
2024-11-12T1800,2907A,120.1844,30.8596,湖州市,吴兴区站,,39,39,69,21,43,101,,113,113,31,44,7,8,0.6,0.7
2024-11-12T1800,3562A,120.4148,30.8538,湖州市,南浔区站,,31,31,60,17,39,92,,104,104,29,45,4,5,0.5,0.6
2024-11-12T1800,1607A,120.9092,40.7136,葫芦岛市,龙港区,,40,,55,28,29,58,,64,63,22,39,16,56,0.7,1
2024-11-12T1800,1608A,120.8392,40.7514,葫芦岛市,化工街,,27,27,68,12,26,48,,60,60,32,42,20,34,0.6,0.7
2024-11-12T1800,1609A,120.8341,40.7073,葫芦岛市,新区,,22,22,58,9,26,45,,62,59,37,52,14,20,0.8,0.9
2024-11-12T1800,1610A,120.8695,40.7677,葫芦岛市,东城区,,50,,61,35,29,32,,58,58,22,26,18,24,0.7,0.8
2024-11-12T1800,2482A,109.5981,27.5721,怀化市,林科所,细颗粒物(PM2.5),62,61,45,44,34,124,,120,120,16,18,24,23,1.3,1.2
2024-11-12T1800,2483A,109.9453,27.5444,怀化市,河西地税局,细颗粒物(PM2.5),58,57,60,41,41,115,,120,120,17,18,12,16,0.5,0.5
2024-11-12T1800,2484A,109.9781,27.5342,怀化市,市四医院,细颗粒物(PM2.5),70,76,68,51,46,117,,119,119,14,18,10,21,0.8,0.8
2024-11-12T1800,2485A,109.9972,27.5578,怀化市,监测楼,细颗粒物(PM2.5),68,72,71,49,43,118,,124,123,18,25,6,14,0.7,0.7
2024-11-12T1800,2486A,110.0394,27.583,怀化市,市委党校,颗粒物(PM10),53,56,70,33,44,119,,122,122,11,21,6,31,0.7,0.7
2024-11-12T1800,1210A,119.036,33.5981,淮安市,钵池山,细颗粒物(PM2.5),90,88,78,67,71,98,,107,107,31,42,5,5,0.8,0.8
2024-11-12T1800,1211A,119.007,33.575,淮安市,北京南路,,,110,100,66,65,81,,77,77,38,53,6,6,,0.7
2024-11-12T1800,1212A,118.989,33.6067,淮安市,市监测站,,,85,74,66,62,,,107,107,35,40,4,4,0.7,0.8
2024-11-12T1800,1213A,119.135,33.5039,淮安市,楚州区监测站,细颗粒物(PM2.5),100,98,82,75,68,59,,99,99,59,59,6,7,0.8,0.7
2024-11-12T1800,1214A,119.0186,33.6297,淮安市,淮阴区监测站,细颗粒物(PM2.5),92,110,93,68,65,74,,94,94,57,52,6,6,0.6,0.7
2024-11-12T1800,3426A,118.8755,33.2894,淮安市,新华书店,细颗粒物(PM2.5),73,83,81,53,69,76,,106,106,48,47,5,5,0.6,0.6
2024-11-12T1800,2282A,116.8004,33.975,淮北市,监测站,颗粒物(PM10),52,54,50,30,30,72,,97,97,35,22,2,2,0.6,0.5
2024-11-12T1800,2283A,116.8091,33.9007,淮北市,烈山区政府,细颗粒物(PM2.5),58,60,65,41,44,109,,111,111,19,33,1,2,0.4,0.4
2024-11-12T1800,3330A,116.8873,33.9836,淮北市,杜集区检察院,细颗粒物(PM2.5),70,82,70,51,44,107,,114,114,17,27,2,2,0.6,0.7
2024-11-12T1800,4017A,116.7923,33.9535,淮北市,市博物馆,,43,43,53,28,31,110,,110,110,18,34,4,4,0.6,0.8
2024-11-12T1800,2277A,116.8305,32.7727,淮南市,潘集区政府,颗粒物(PM10),91,131,81,42,53,97,,116,116,28,32,11,11,0.5,0.5
2024-11-12T1800,2278A,117.0067,32.6524,淮南市,师范学院,颗粒物(PM10),55,60,66,36,46,123,,127,127,27,26,11,10,0.4,0.4
2024-11-12T1800,2279A,116.8569,32.5951,淮南市,谢家集区政府,颗粒物(PM10),59,68,58,34,36,103,,108,108,29,22,10,10,0.5,0.4
2024-11-12T1800,2280A,116.8281,32.633,淮南市,八公山区政府,颗粒物(PM10),61,72,61,40,37,110,,118,118,30,19,11,10,0.6,0.4
2024-11-12T1800,2281A,116.6325,32.6201,淮南市,焦岗湖风景区管理处,,26,15,53,10,35,83,,100,100,28,34,5,5,0.3,0.2
2024-11-12T1800,2894A,117.0566,32.6531,淮南市,经济技术开发区消防队,颗粒物(PM10),53,55,64,32,35,107,,118,118,24,26,6,6,0.4,0.5
2024-11-12T1800,3329A,117.0108,32.5893,淮南市,山南新区,细颗粒物(PM2.5),54,53,58,38,38,125,,122,122,20,16,6,6,0.6,0.5
2024-11-12T1800,2446A,114.9028,30.4742,黄冈市,职工中心,"颗粒物(PM10),细颗粒物(PM2.5)",53,55,65,37,45,108,,123,123,19,26,13,11,0.6,0.7
2024-11-12T1800,2929A,114.8858,30.4519,黄冈市,红卫路,,50,50,63,29,44,105,,125,122,24,32,8,10,0.7,0.7
2024-11-12T1800,3398A,114.9136,30.4445,黄冈市,市林业局,,44,44,80,28,47,121,,130,130,19,35,9,11,0.6,0.7
2024-11-12T1800,2672A,102.0199,35.5102,黄南藏族自治州,同仁县隆务镇,颗粒物(PM10),73,95,65,36,39,62,,73,73,30,9,5,6,0.8,0.6
2024-11-12T1800,2295A,118.2903,29.6963,黄山市,延安路89号,,33,33,29,6,13,77,,87,87,8,10,7,7,0.3,0.4
2024-11-12T1800,2296A,118.327,29.7178,黄山市,黄山东路89号,,32,32,35,3,16,72,,84,84,10,11,5,5,0.4,0.4
2024-11-12T1800,2297A,118.1371,30.2756,黄山市,黄山区政府5号楼,,42,,29,29,21,117,,98,98,10,9,8,7,0.4,0.4
2024-11-12T1800,2423A,115.0601,30.2313,黄石市,沈家营,,40,35,62,28,36,110,,123,123,27,45,29,12,0.6,0.7
2024-11-12T1800,2424A,115.0817,30.2006,黄石市,陈家湾,,44,44,47,30,31,106,,113,112,22,22,14,12,0.8,0.7
2024-11-12T1800,2426A,114.8988,30.2019,黄石市,铁山,,42,38,47,29,32,125,,136,136,6,15,20,11,0.6,0.5
2024-11-12T1800,2427A,115.0307,30.2092,黄石市,团城山,,41,41,46,17,25,107,,128,127,43,25,17,10,0.8,0.7
2024-11-12T1800,3149A,115.0235,30.1578,黄石市,笔架山北路,,41,26,41,15,24,131,,139,139,19,23,8,9,0.6,0.7
2024-11-12T1800,1392A,114.4183,23.0528,惠州市,河南岸金山湖子站,,,,49,,30,84,,91,91,,15,7,7,,0.8
2024-11-12T1800,1393A,114.4053,23.0822,惠州市,下埔横江三路子站,,37,37,50,23,32,96,,102,102,12,16,6,7,0.6,0.6
2024-11-12T1800,1394A,114.4103,23.1142,惠州市,江北云山西路子站,,42,33,47,29,26,98,,104,104,15,17,8,9,0.6,0.7
2024-11-12T1800,1395A,114.4645,22.7833,惠州市,惠阳区承修路船湖子站,,41,41,48,24,25,94,,102,102,16,17,8,8,0.6,0.5
2024-11-12T1800,1396A,114.5317,22.7422,惠州市,大亚湾管委会子站,颗粒物(PM10),51,51,42,32,26,133,,111,111,20,22,3,3,0.7,0.6
2024-11-12T1800,3314A,114.4338,22.8134,惠州市,惠阳秋长,,40,39,34,28,26,100,,110,110,16,20,7,7,0.6,0.6
2024-11-12T1800,3452A,114.6517,22.775,惠州市,大亚湾霞涌,,40,31,32,27,26,128,,110,110,15,14,7,7,0.6,0.5
2024-11-12T1800,2240A,130.9762,45.3001,鸡西市,环保局,细颗粒物(PM2.5),150,145,100,115,72,30,,44,40,20,23,14,10,0.7,0.6
2024-11-12T1800,2243A,130.9429,45.3039,鸡西市,第一中学,细颗粒物(PM2.5),179,170,105,135,72,19,,46,41,52,33,6,9,0.5,0.5
2024-11-12T1800,3707A,131.0207,45.3073,鸡西市,欧美日汽修厂,细颗粒物(PM2.5),196,,117,147,90,45,,50,49,23,28,7,12,0.7,0.7
2024-11-12T1800,3709A,130.9967,45.3106,鸡西市,市政设施管理处,细颗粒物(PM2.5),173,138,136,131,85,45,,44,43,20,32,5,10,0.7,0.6
2024-11-12T1800,2367A,114.9754,27.0803,吉安市,红声器材厂,,46,46,59,27,36,121,,107,107,21,34,14,15,0.6,0.5
2024-11-12T1800,2368A,114.9658,27.0999,吉安市,市森林工业局,颗粒物(PM10),51,51,54,31,37,104,,100,100,19,27,12,17,0.7,0.7
2024-11-12T1800,2369A,114.99,27.1312,吉安市,市环境监测站,,47,47,52,26,34,108,,111,111,32,37,14,18,0.5,0.5
2024-11-12T1800,2370A,115.0093,27.0968,吉安市,青原区法院,,47,47,54,31,34,112,,103,103,23,32,14,15,0.8,0.7
2024-11-12T1800,1772A,126.54,43.8622,吉林市,哈达湾,细颗粒物(PM2.5),52,51,38,36,20,58,,68,68,30,18,8,9,0.6,0.5
2024-11-12T1800,1773A,126.5844,43.8358,吉林市,东局子,细颗粒物(PM2.5),78,100,36,57,24,37,,63,62,45,19,8,9,1.0,0.6
2024-11-12T1800,1774A,126.5052,43.8245,吉林市,电力学院,颗粒物(PM10),75,99,35,51,25,31,,57,54,44,16,8,6,0.9,0.6
2024-11-12T1800,1775A,126.6133,43.8972,吉林市,江北,细颗粒物(PM2.5),127,144,46,96,28,34,,64,61,50,24,14,12,1.5,0.7
2024-11-12T1800,1776A,126.555,43.8306,吉林市,江南公园,细颗粒物(PM2.5),55,58,33,39,22,44,,63,62,35,10,11,10,0.6,0.6
2024-11-12T1800,1778A,126.7061,43.7133,吉林市,丰满,,26,24,22,18,18,65,,67,67,10,10,8,9,0.5,0.5
2024-11-12T1800,2868A,126.4739,43.953,吉林市,九站,细颗粒物(PM2.5),62,63,42,44,23,50,,65,65,31,19,12,8,0.6,0.6
2024-11-12T1800,1299A,116.9862,36.6114,济南市,科干所,细颗粒物(PM2.5),165,222,180,125,106,23,,47,46,81,55,7,7,1.2,1
2024-11-12T1800,1300A,116.9376,36.665,济南市,农科所,细颗粒物(PM2.5),165,208,205,125,126,37,,42,42,60,65,4,6,0.9,0.9
2024-11-12T1800,1301A,117.1265,36.6734,济南市,开发区,细颗粒物(PM2.5),240,249,203,190,144,58,,56,56,67,62,8,6,1.2,1
2024-11-12T1800,1303A,117.0624,36.6868,济南市,省种子仓库,细颗粒物(PM2.5),235,254,214,185,166,49,,45,45,59,58,6,5,1.2,1
2024-11-12T1800,1304A,116.9489,36.6447,济南市,机床二厂,细颗粒物(PM2.5),175,217,183,132,113,33,,47,47,80,69,5,5,1.0,0.9
2024-11-12T1800,1305A,117.0495,36.663,济南市,市监测站,细颗粒物(PM2.5),228,225,197,178,150,53,,51,51,64,64,7,6,1.0,0.8
2024-11-12T1800,1306A,116.7675,36.5484,济南市,长清党校,细颗粒物(PM2.5),119,156,168,90,108,26,,44,43,83,65,7,7,0.9,0.9
2024-11-12T1800,1616A,117.6795,36.229,济南市,技术学院,细颗粒物(PM2.5),140,144,119,107,93,20,,49,48,54,41,7,7,1.4,1.3
2024-11-12T1800,1961A,117.532,36.6868,济南市,东山小学,细颗粒物(PM2.5),209,244,213,159,143,32,,58,58,64,52,9,7,1.4,1.1
2024-11-12T1800,3059A,117.7161,36.2049,济南市,泰兴公司,细颗粒物(PM2.5),119,122,98,90,74,16,,50,48,62,45,10,10,0.7,0.7
2024-11-12T1800,3064A,117.6867,36.2171,济南市,莱芜战役纪念馆,细颗粒物(PM2.5),132,139,117,100,81,20,,49,48,62,41,7,7,1.0,1
2024-11-12T1800,3494A,117.1673,36.9782,济南市,济阳区政府,细颗粒物(PM2.5),185,190,188,139,139,,,79,79,40,44,9,10,0.9,0.9
2024-11-12T1800,3495A,117.1171,36.63,济南市,锦屏中学,细颗粒物(PM2.5),218,210,143,168,114,37,,55,52,69,52,7,5,1.1,0.8
2024-11-12T1800,3682A,116.9814,36.6819,济南市,济南四建,细颗粒物(PM2.5),206,229,176,156,126,42,,36,36,,65,7,4,1.1,0.9
2024-11-12T1800,1653A,116.6251,35.4302,济宁市,火炬城,细颗粒物(PM2.5),77,76,103,56,69,54,,57,57,41,42,13,12,1.0,1
2024-11-12T1800,1655A,116.5491,35.4042,济宁市,电化厂,颗粒物(PM10),76,102,132,48,59,66,,67,67,34,44,9,9,0.9,1
2024-11-12T1800,3500A,116.5814,35.3707,济宁市,北湖一中,细颗粒物(PM2.5),98,,91,73,86,61,,68,68,34,44,9,8,0.9,0.9
2024-11-12T1800,3501A,116.8249,35.5593,济宁市,服务中心,细颗粒物(PM2.5),108,,84,81,77,38,,42,42,,46,9,8,1.2,1.1
2024-11-12T1800,3678A,116.5907,35.4054,济宁市,市第七中学,细颗粒物(PM2.5),85,69,100,63,82,52,,63,63,47,52,7,7,1.0,1
2024-11-12T1800,2255A,130.2751,46.8028,佳木斯市,佳纺,,36,36,62,16,53,10,,40,35,51,24,8,6,1.1,0.7
2024-11-12T1800,2256A,130.3995,46.8307,佳木斯市,发电厂,,23,,46,16,51,33,,46,45,13,12,4,5,0.4,0.5
2024-11-12T1800,2257A,130.3258,46.7975,佳木斯市,环保局,,25,25,58,10,51,26,,37,35,27,22,9,9,0.6,0.6
2024-11-12T1800,2258A,130.3648,46.8032,佳木斯市,十一中,,,17,34,10,33,44,,47,47,,15,4,5,0.5,0.6
2024-11-12T1800,2259A,130.3794,46.7588,佳木斯市,四丰,,22,22,65,12,45,16,,37,35,38,23,1,1,0.1,0.2
2024-11-12T1800,1252A,120.7436,30.778,嘉兴市,清河小学,,,26,39,10,18,98,,111,111,,41,,8,,0.7
2024-11-12T1800,1253A,120.726,30.7478,嘉兴市,嘉兴学院,,32,26,38,15,29,100,,110,110,24,37,5,5,0.3,0.3
2024-11-12T1800,2872A,120.7846,30.7525,嘉兴市,南湖区残联,,36,35,44,14,25,114,,122,122,20,43,6,6,0.4,0.5
2024-11-12T1800,3407A,120.6916,30.7739,嘉兴市,秀洲住建,,34,23,36,13,23,107,,116,116,18,38,9,8,0.4,0.4
2024-11-12T1800,1945A,98.2908,39.7711,嘉峪关市,气象局,颗粒物(PM10),52,53,50,17,18,92,,94,94,16,22,9,14,0.4,0.4
2024-11-12T1800,2884A,98.2672,39.7978,嘉峪关市,酒钢宾馆,,48,48,58,19,19,90,,85,85,24,28,28,40,0.0,0.9
2024-11-12T1800,3248A,98.2643,39.7724,嘉峪关市,雄关区,,44,44,45,17,20,93,,91,91,16,25,14,12,0.4,0.5
2024-11-12T1800,1383A,113.1064,22.6058,江门市,北街,臭氧1小时,89,49,64,27,42,191,,163,163,25,38,6,6,0.7,0.8
2024-11-12T1800,1384A,113.0731,22.5835,江门市,西区,臭氧1小时,79,59,79,27,41,183,,161,161,26,50,8,8,0.6,0.6
2024-11-12T1800,1385A,113.0219,22.5311,江门市,圭峰西,臭氧1小时,99,51,61,29,42,199,,159,159,19,32,4,4,0.5,0.6
2024-11-12T1800,1386A,113.0828,22.5947,江门市,东湖,臭氧1小时,78,55,69,34,37,182,,160,160,20,42,7,8,0.5,0.7
2024-11-12T1800,3311A,113.1075,22.5647,江门市,江海富民,臭氧1小时,83,51,82,32,42,186,,162,162,27,34,7,8,0.7,0.8
2024-11-12T1800,3449A,113.05,22.4667,江门市,新会银湖,颗粒物(PM10),55,60,65,31,43,158,,159,159,30,32,8,7,0.5,0.5
2024-11-12T1800,1828A,113.227,35.2125,焦作市,市环保局,细颗粒物(PM2.5),262,272,249,212,198,37,,48,48,41,45,6,7,1.6,1.2
2024-11-12T1800,1830A,113.1992,35.2590,焦作市,影视城,细颗粒物(PM2.5),261,229,185,211,160,72,,72,72,20,22,12,11,2.1,1.4
2024-11-12T1800,3169A,113.2725,35.2067,焦作市,太极体育中心,细颗粒物(PM2.5),242,222,225,192,174,32,,46,46,43,44,5,4,1.6,1.3
2024-11-12T1800,3335A,113.3137,35.2641,焦作市,马村街道办,细颗粒物(PM2.5),263,244,238,213,189,31,,50,50,36,37,7,9,1.7,1.4
2024-11-12T1800,3336A,113.2465,35.2373,焦作市,焦作技师学院,细颗粒物(PM2.5),255,266,246,205,183,30,,48,48,43,39,7,9,1.9,1.3
2024-11-12T1800,3477A,113.1656,35.2539,焦作市,中站许衡医院,细颗粒物(PM2.5),239,231,196,189,151,59,,61,61,29,37,9,10,2.2,1.5
2024-11-12T1800,3981A,113.2449,35.1803,焦作市,原李万街道办,细颗粒物(PM2.5),231,261,241,181,170,40,,46,46,46,48,8,5,1.6,1.2
2024-11-12T1800,1708A,116.3701,23.5345,揭阳市,新兴,,42,40,45,29,28,76,,84,84,23,25,8,8,0.7,0.5
2024-11-12T1800,1709A,116.3264,23.5443,揭阳市,西马,颗粒物(PM10),54,58,52,27,26,84,,88,88,15,19,8,8,0.7,0.7
2024-11-12T1800,1710A,116.3611,23.5626,揭阳市,东兴,,41,41,50,25,27,78,,82,82,17,20,9,9,1.0,0.9
2024-11-12T1800,1711A,116.4151,23.5294,揭阳市,渔湖,,50,50,42,17,21,80,,88,88,18,23,10,9,0.7,0.7
2024-11-12T1800,3320A,116.403,23.5699,揭阳市,曲溪,颗粒物(PM10),52,54,43,19,23,69,,86,84,29,22,12,6,0.8,0.7
2024-11-12T1800,1944A,102.1692,38.5167,金昌市,天庆家园,颗粒物(PM10),53,56,46,33,22,98,,81,81,15,18,8,13,0.5,0.7
2024-11-12T1800,3170A,102.1864,38.5253,金昌市,市委党校,颗粒物(PM10),66,81,58,35,19,100,,87,87,12,16,8,19,0.6,0.6
2024-11-12T1800,4022A,102.1647,38.5371,金昌市,金川区人防中心,,48,48,64,15,23,90,,83,83,16,20,10,11,0.5,0.7
2024-11-12T1800,1262A,119.647,29.077,金华市,十五中,细颗粒物(PM2.5),89,,74,66,58,100,,118,118,35,46,4,4,0.5,0.6
2024-11-12T1800,1263A,119.686,29.1029,金华市,监测站,颗粒物(PM10),51,52,76,23,48,92,,118,118,41,51,4,4,0.7,0.6
2024-11-12T1800,3659A,119.656,29.1131,金华市,气象局,,50,50,74,23,41,85,,115,115,46,54,4,5,1.0,1
2024-11-12T1800,1767A,121.1115,41.0879,锦州市,南山,,26,22,50,18,29,51,,61,61,34,36,10,14,0.6,0.8
2024-11-12T1800,1768A,121.0533,40.8434,锦州市,开发区,,29,,78,20,33,33,,56,56,51,48,18,28,0.7,1
2024-11-12T1800,1769A,121.1836,41.1119,锦州市,百股街道,,20,,46,14,23,51,,59,59,33,37,9,16,0.7,0.9
2024-11-12T1800,1770A,121.1178,41.1222,锦州市,天安街道,,25,24,55,17,32,60,,63,63,28,35,9,18,0.5,1.1
2024-11-12T1800,1771A,121.1303,41.1386,锦州市,北湖公园,,16,12,47,11,27,50,,58,58,32,35,7,18,0.7,1.1
2024-11-12T1800,2160A,112.85,35.5051,晋城市,自来水公司,细颗粒物(PM2.5),188,171,159,141,130,71,,53,53,29,40,6,6,1.7,1.9
2024-11-12T1800,2161A,112.8318,35.4936,晋城市,白云商贸,细颗粒物(PM2.5),195,167,170,146,135,71,,53,53,28,39,5,5,1.6,1.7
2024-11-12T1800,2162A,112.8508,35.4887,晋城市,市环保局,颗粒物(PM10),113,175,159,,126,65,,44,44,29,36,7,7,1.7,1.9
2024-11-12T1800,2163A,112.8676,35.4897,晋城市,技术学院,细颗粒物(PM2.5),178,148,163,134,127,65,,51,51,33,43,6,6,1.7,1.9
2024-11-12T1800,2165A,112.8453,35.546,晋城市,白马寺,细颗粒物(PM2.5),159,170,157,121,118,61,,46,46,25,28,10,12,1.7,2.1
2024-11-12T1800,3620A,112.8271,35.4828,晋城市,泽州一中,细颗粒物(PM2.5),185,170,148,139,137,73,,56,56,24,34,6,6,1.8,1.8
2024-11-12T1800,2171A,112.7532,37.6945,晋中市,锦纶小区,细颗粒物(PM2.5),79,92,151,58,103,83,,37,37,31,51,14,12,0.5,1.1
2024-11-12T1800,2173A,112.7249,37.7067,晋中市,南都小区,细颗粒物(PM2.5),93,97,157,69,95,64,,28,28,39,56,12,12,0.8,1.3
2024-11-12T1800,2174A,112.6991,37.6982,晋中市,榆次区政府,颗粒物(PM10),100,149,167,65,88,31,,24,24,65,61,15,14,1.4,1.3
2024-11-12T1800,2865A,112.7195,37.6828,晋中市,榆次三中,颗粒物(PM10),93,136,164,68,109,40,,27,27,55,51,17,14,1.3,1.4
2024-11-12T1800,2439A,112.2014,31.0481,荆门市,竹园小学,细颗粒物(PM2.5),107,126,109,80,77,84,,100,100,24,22,13,12,0.6,0.9
2024-11-12T1800,2440A,112.1969,30.9891,荆门市,掇刀,细颗粒物(PM2.5),100,104,93,75,70,90,,109,109,32,20,12,10,0.7,0.6
2024-11-12T1800,2441A,112.2213,31.0386,荆门市,石化一小,细颗粒物(PM2.5),102,114,111,76,77,92,,106,106,23,25,15,14,0.6,0.5
2024-11-12T1800,3012A,112.1849,31.0362,荆门市,西山林语,细颗粒物(PM2.5),104,117,97,78,72,95,,109,107,24,21,9,8,0.5,0.5
2024-11-12T1800,3547A,112.1632,31.0138,荆门市,龙泉中学南校,细颗粒物(PM2.5),85,88,77,63,47,96,,107,107,27,23,10,10,0.6,0.6
2024-11-12T1800,1844A,112.2494,30.3197,荆州市,市图书馆,细颗粒物(PM2.5),53,46,63,37,48,102,,107,107,32,25,6,6,0.9,0.8
2024-11-12T1800,1845A,112.2008,30.3544,荆州市,市委党校,"颗粒物(PM10),细颗粒物(PM2.5)",52,53,71,36,46,110,,107,107,21,23,6,7,0.9,0.8
2024-11-12T1800,3194A,112.2747,30.3122,荆州市,管委会,颗粒物(PM10),58,66,78,38,52,104,,109,109,28,28,10,11,0.9,0.8
2024-11-12T1800,3548A,112.1655,30.3364,荆州市,学苑路,细颗粒物(PM2.5),65,52,65,47,67,114,,112,112,19,21,9,9,0.9,0.9
2024-11-12T1800,2342A,117.3102,29.3867,景德镇市,王港中学,,,,,,,,,,,,,,,,
2024-11-12T1800,2343A,117.2117,29.2933,景德镇市,老干部活动中心,,26,26,35,18,19,75,,91,91,14,21,7,6,0.3,0.2
2024-11-12T1800,2344A,117.1894,29.2789,景德镇市,兽医站,,41,41,38,18,17,70,,91,91,11,16,7,7,0.4,0.4
2024-11-12T1800,2345A,117.1547,29.2617,景德镇市,台达陶瓷,,37,37,37,12,18,60,,80,80,23,22,8,10,0.5,0.5
2024-11-12T1800,2346A,117.2461,29.2956,景德镇市,陶研所,,22,22,27,12,14,66,,88,88,10,16,9,7,0.2,0.2
2024-11-12T1800,1803A,115.9872,29.6815,九江市,十里,,43,43,57,26,39,124,,132,132,32,30,7,9,0.6,0.7
2024-11-12T1800,1804A,115.9584,29.7046,九江市,茅山头,,47,47,55,24,35,115,,126,126,27,24,11,10,1.0,0.9
2024-11-12T1800,1805A,115.9877,29.7295,九江市,西园,颗粒物(PM10),51,51,59,26,35,128,,135,135,28,24,9,10,0.7,0.6
2024-11-12T1800,1806A,116.0172,29.6547,九江市,五七二七厂,,48,40,54,33,39,102,,119,117,17,21,11,11,0.8,1
2024-11-12T1800,1808A,115.9114,29.6038,九江市,综合工业园,,40,40,50,25,43,121,,130,130,25,43,16,15,0.5,0.7
2024-11-12T1800,1809A,116.0721,29.7535,九江市,石化总厂,,48,48,56,26,38,108,,123,123,48,37,10,10,0.9,0.9
2024-11-12T1800,1810A,115.9773,29.5698,九江市,庐山气象台,,42,42,17,29,17,127,,130,130,10,4,8,8,0.6,0.8
2024-11-12T1800,3190A,116.0254,29.6994,九江市,外国语学校,,39,39,57,20,39,118,,123,123,39,40,15,16,0.5,0.6
2024-11-12T1800,2658A,98.5061,39.7443,酒泉市,仓门街子站,,46,46,71,22,29,97,,87,87,8,25,7,25,0.3,0.6
2024-11-12T1800,2659A,98.4989,39.7256,酒泉市,油田生活基地,颗粒物(PM10),51,51,68,27,31,91,,87,87,8,22,7,31,0.3,0.4
2024-11-12T1800,2698A,76.0072,39.4467,喀什地区,巡警大队,,50,50,172,3,42,84,,51,51,20,54,5,5,0.4,1.2
2024-11-12T1800,2699A,75.9755,39.4694,喀什地区,吾办,颗粒物(PM10),52,53,164,16,56,83,,47,47,16,49,3,3,0.5,1.4
2024-11-12T1800,4027A,75.9483,39.4689,喀什地区,老干局,,42,42,188,10,46,98,,58,58,13,51,3,4,0.5,1.5
2024-11-12T1800,1824A,114.3389,34.7781,开封市,肿瘤医院,细颗粒物(PM2.5),257,,156,207,148,39,,51,51,32,43,1,2,1.0,0.8
2024-11-12T1800,1826A,114.2885,34.7965,开封市,世纪星幼儿园,"颗粒物(PM10),细颗粒物(PM2.5)",124,197,144,94,67,44,,52,52,35,43,3,2,0.9,0.8
2024-11-12T1800,3147A,114.3438,34.8106,开封市,龙亭公园,细颗粒物(PM2.5),186,185,146,140,101,35,,47,47,34,39,3,2,1.1,0.9
2024-11-12T1800,3210A,114.3644,34.7964,开封市,汴京公园,细颗粒物(PM2.5),228,205,143,178,77,46,,16,,27,38,3,3,,0.8
2024-11-12T1800,3473A,114.2485,34.8306,开封市,技师学院,细颗粒物(PM2.5),168,214,158,127,90,38,,41,41,34,35,2,2,1.0,0.6
2024-11-12T1800,3592A,114.4644,34.7556,开封市,祥符区生态环境局,细颗粒物(PM2.5),159,160,159,121,89,30,,41,41,40,45,3,8,0.9,0.7
2024-11-12T1800,1951A,84.895,45.6094,克拉玛依市,长征新村,颗粒物(PM10),53,56,29,25,11,25,,29,21,26,22,6,6,0.3,0.4
2024-11-12T1800,1952A,84.8988,45.5893,克拉玛依市,南林小区,颗粒物(PM10),51,52,32,30,16,28,,21,21,30,26,3,3,0.5,0.6
2024-11-12T1800,1954A,84.905,44.3396,克拉玛依市,独山子区,颗粒物(PM10),59,68,40,31,30,40,,54,54,35,26,8,9,0.6,0.6
2024-11-12T1800,1955A,85.6979,46.098,克拉玛依市,乌尔禾区商贸楼,,45,31,28,31,19,43,,40,40,12,19,4,4,0.5,0.6
2024-11-12T1800,3612A,85.1045,45.6899,克拉玛依市,白碱滩区新站,,41,41,30,27,13,21,,14,14,42,35,9,8,0.5,0.3
2024-11-12T1800,2697A,76.1454,39.7142,克孜勒苏柯尔克孜自治州,市人民政府,颗粒物(PM10),61,72,114,22,41,108,,88,88,7,18,5,25,0.5,0.6
2024-11-12T1800,3665A,76.1658,39.7157,克孜勒苏柯尔克孜自治州,克州文化中心,颗粒物(PM10),59,68,113,22,39,106,,87,87,8,25,9,24,0.5,0.7
2024-11-12T1800,1450A,102.8204,24.8886,昆明市,呈贡新区,,23,18,22,3,10,72,,70,70,7,17,4,7,0.4,0.6
2024-11-12T1800,1451A,102.6251,24.9608,昆明市,西山森林公园,,,,,,,,,,,,,,,,
2024-11-12T1800,1452A,102.7252,25.0902,昆明市,龙泉镇,,23,18,23,3,12,71,,70,70,14,20,8,7,0.5,0.7
2024-11-12T1800,1453A,102.7266,25.0375,昆明市,东风东路,,22,12,23,10,13,68,,66,66,14,21,8,9,0.4,0.7
2024-11-12T1800,1454A,102.6742,25.0669,昆明市,金鼎山,,23,23,23,9,11,72,,72,72,16,20,5,4,0.5,0.6
2024-11-12T1800,1455A,102.6644,25.0401,昆明市,碧鸡广场,,23,12,24,9,13,71,,71,71,14,22,5,6,0.4,0.6
2024-11-12T1800,3179A,102.7494,25.0119,昆明市,官渡区博物馆,,27,27,25,8,15,76,,75,75,10,18,8,8,0.4,0.8
2024-11-12T1800,3375A,102.8017,24.8336,昆明市,青年创业园,,24,10,21,7,12,74,,72,72,2,15,4,7,0.3,0.5
2024-11-12T1800,3550A,102.7997,24.9786,昆明市,昆明学院,,23,11,22,6,12,73,,75,75,11,17,8,8,0.4,0.5
2024-11-12T1800,3551A,102.5967,24.6736,昆明市,晋宁区生态环境分局,,24,16,22,7,14,74,,69,69,5,16,1,3,0.0,0.3
2024-11-12T1800,3552A,102.6678,24.9856,昆明市,云天化总部,,26,9,18,3,12,82,,82,82,6,17,6,7,0.2,0.3
2024-11-12T1800,1456A,91.1319,29.6514,拉萨市,八廓街,,34,11,20,6,10,107,,99,99,9,28,7,9,0.3,0.5
2024-11-12T1800,1457A,91.1221,29.6747,拉萨市,市环保局,,34,17,44,7,17,107,,88,88,10,31,7,10,0.3,0.6
2024-11-12T1800,1458A,91.0874,29.6475,拉萨市,区监测站,,30,7,20,6,10,95,,90,90,13,38,5,8,0.6,0.7
2024-11-12T1800,1459A,91.1774,29.6541,拉萨市,西藏大学,,32,16,22,6,8,100,,93,93,7,19,7,9,0.2,0.3
2024-11-12T1800,1460A,90.9798,29.6588,拉萨市,区辐射站,,29,23,27,8,11,91,,84,84,18,31,8,11,0.4,0.5
2024-11-12T1800,1461A,91.0834,29.6292,拉萨市,拉萨火车站,,33,11,16,6,9,105,,90,90,7,28,6,7,0.4,0.6
2024-11-12T1800,2520A,109.2203,23.7256,来宾市,来宾技工学校,颗粒物(PM10),51,52,85,33,50,147,,149,149,10,24,6,15,0.7,0.9
2024-11-12T1800,3535A,109.1781,23.7297,来宾市,兴宾区政府,细颗粒物(PM2.5),55,50,63,39,45,140,,148,148,11,12,7,8,0.7,0.8
2024-11-12T1800,4002A,109.2416,23.7461,来宾市,中南小学,细颗粒物(PM2.5),69,60,75,50,50,138,,145,145,12,27,5,7,0.8,0.9
2024-11-12T1800,1476A,103.631,36.1031,兰州市,兰炼宾馆,,,,86,,36,67,,86,86,,60,15,14,0.6,0.7
2024-11-12T1800,1477A,104.1373,35.9454,兰州市,榆中兰大校区,,,,,,,,,,,,,,,,
2024-11-12T1800,1478A,103.8412,36.0726,兰州市,生物制品所,,48,48,69,31,30,71,,62,62,27,54,11,14,0.5,0.7
2024-11-12T1800,1479A,103.831,36.0464,兰州市,铁路设计院,细颗粒物(PM2.5),62,66,71,44,39,54,,57,57,42,59,9,13,0.5,0.7
2024-11-12T1800,3186A,103.7158,36.1058,兰州市,教育港,颗粒物(PM10),56,62,81,39,37,71,,79,79,26,52,13,14,0.6,0.8
2024-11-12T1800,3241A,103.7439,36.0842,兰州市,百合公园,颗粒物(PM10),52,54,67,33,31,64,,63,63,21,50,12,12,0.3,0.8
2024-11-12T1800,3242A,103.9611,35.998,兰州市,和平,颗粒物(PM10),54,58,72,29,31,81,,76,76,16,39,12,16,0.5,0.7
2024-11-12T1800,3245A,103.6633,36.533,兰州新区,新区管委会,颗粒物(PM10),56,61,64,29,28,82,,72,72,19,29,20,14,0.7,0.6
2024-11-12T1800,3246A,103.6975,36.4789,兰州新区,舟曲中学,颗粒物(PM10),63,75,68,33,28,78,,69,69,17,35,13,15,0.6,0.6
2024-11-12T1800,1067A,116.6708,39.5111,廊坊市,药材公司,细颗粒物(PM2.5),201,182,107,151,79,56,,53,53,47,50,3,4,0.9,1
2024-11-12T1800,1068A,116.7214,39.5589,廊坊市,开发区,细颗粒物(PM2.5),172,173,101,130,65,50,,53,53,49,46,3,3,0.8,0.9
2024-11-12T1800,1070A,116.7244,39.5269,廊坊市,北华航天学院,细颗粒物(PM2.5),182,185,104,137,71,50,,52,52,46,44,4,4,0.9,0.9
2024-11-12T1800,2919A,116.7022,39.5453,廊坊市,河北工业大学,细颗粒物(PM2.5),189,175,105,142,77,54,,55,55,50,49,4,5,0.8,0.9
2024-11-12T1800,2535A,103.7723,29.5462,乐山市,花湖湾,,48,42,37,33,26,44,,44,44,15,19,4,4,0.7,0.7
2024-11-12T1800,2536A,103.7627,29.5844,乐山市,牛耳桥,,,,40,,30,36,,37,37,25,30,,5,,0.6
2024-11-12T1800,2537A,103.7508,29.6006,乐山市,市第三水厂,,42,38,40,29,31,43,,47,47,26,34,4,5,0.6,0.6
2024-11-12T1800,2538A,103.7571,29.5664,乐山市,市监测站,细颗粒物(PM2.5),53,44,38,37,30,40,,38,38,20,26,6,6,0.6,0.6
2024-11-12T1800,3361A,103.7311,29.5628,乐山市,理工大学,,49,41,41,34,31,46,,45,45,14,26,5,5,0.5,0.6
2024-11-12T1800,2598A,100.2143,26.8576,丽江市,西南郊,,30,,20,3,7,94,,96,96,8,8,7,5,0.3,0.5
2024-11-12T1800,2599A,100.2497,26.8802,丽江市,丽江古城,,26,22,21,3,9,82,,84,84,13,11,9,9,0.4,0.5
2024-11-12T1800,2600A,100.2203,26.8906,丽江市,市中心,,28,12,9,6,7,88,,88,88,15,12,7,7,0.5,0.5
2024-11-12T1800,1267A,119.914,28.4514,丽水市,监测站大楼,细颗粒物(PM2.5),72,,34,52,54,108,,92,92,16,21,7,8,0.6,0.5
2024-11-12T1800,1268A,119.93,28.4586,丽水市,莲都小学,,50,50,43,27,24,113,,93,93,20,25,5,6,0.5,0.5
2024-11-12T1800,1269A,119.879,28.4231,丽水市,余庄前,,35,35,32,21,22,107,,97,97,15,17,5,5,0.4,0.3
2024-11-12T1800,1173A,119.176,34.5885,连云港市,市环境监测站,细颗粒物(PM2.5),125,124,120,95,89,119,,99,99,19,36,8,9,0.8,0.8
2024-11-12T1800,3000A,119.3581,34.6972,连云港市,德源药业,细颗粒物(PM2.5),125,107,99,95,79,97,,101,101,25,39,6,7,0.5,0.4
2024-11-12T1800,3007A,119.178,34.844,连云港市,新城一中,颗粒物(PM10),109,167,142,78,68,121,,116,116,17,40,7,8,0.9,0.9
2024-11-12T1800,3008A,119.3608,34.7519,连云港市,胡沟管理处,细颗粒物(PM2.5),128,,86,97,81,89,,102,102,25,18,10,11,0.5,0.5
2024-11-12T1800,3009A,119.1478,34.5911,连云港市,矿山设计院,细颗粒物(PM2.5),132,124,123,100,91,113,,93,93,19,36,7,8,0.9,0.9
2024-11-12T1800,3434A,119.2413,34.6539,连云港市,工贸学校,细颗粒物(PM2.5),87,89,81,64,52,114,,102,102,17,22,6,8,0.8,0.8
2024-11-12T1800,3664A,119.4172,34.7341,连云港市,连云街道,细颗粒物(PM2.5),67,70,68,48,42,119,,102,102,13,18,6,8,0.8,0.8
2024-11-12T1800,2571A,102.3431,27.8099,凉山彝族自治州,青龙寺,,24,12,10,3,5,75,,91,89,5,4,4,5,0.5,0.6
2024-11-12T1800,2572A,102.2721,27.8415,凉山彝族自治州,邛海宾馆,,28,19,22,13,14,87,,81,81,9,12,7,5,0.5,0.7
2024-11-12T1800,2573A,102.2625,27.898,凉山彝族自治州,西昌市政府,,26,23,25,11,14,83,,78,78,11,12,14,9,0.9,0.8
2024-11-12T1800,2574A,102.2685,27.8851,凉山彝族自治州,凉山州政府,,27,22,29,12,17,84,,78,78,9,16,16,10,0.5,0.8
2024-11-12T1800,2575A,102.237,27.8914,凉山彝族自治州,长安,,31,31,34,12,16,84,,75,75,13,18,13,10,1.0,0.4
2024-11-12T1800,2212A,123.2,41.1953,辽阳市,宏伟区,,25,23,49,16,32,27,,57,57,49,33,23,16,0.6,0.9
2024-11-12T1800,2213A,123.1683,41.2495,辽阳市,新华园,,27,27,51,18,37,33,,54,54,51,40,6,16,0.7,1.1
2024-11-12T1800,2214A,123.2354,41.2639,辽阳市,滨河路,,37,37,48,18,33,39,,56,56,40,36,12,19,0.6,1
2024-11-12T1800,2215A,123.149,41.2991,辽阳市,铁西工业园,颗粒物(PM10),55,59,54,29,34,16,,50,48,42,29,20,21,1.2,1.6
2024-11-12T1800,2227A,125.1358,42.8845,辽源市,环保局,,36,36,31,19,13,19,,66,61,48,21,8,9,1.0,0.7
2024-11-12T1800,3239A,125.0764,42.9078,辽源市,银鹰制药,,50,50,28,31,16,10,,66,62,62,27,22,14,0.9,0.7
2024-11-12T1800,1625A,115.9848,36.4372,聊城市,区政府,细颗粒物(PM2.5),180,204,204,136,138,48,,69,69,52,45,7,8,0.8,0.7
2024-11-12T1800,2878A,116.0072,36.4343,聊城市,聊大东校,细颗粒物(PM2.5),148,183,193,113,128,46,,65,65,52,40,8,9,0.7,0.8
2024-11-12T1800,3200A,115.9819,36.4978,聊城市,监控中心,细颗粒物(PM2.5),211,193,182,161,141,52,,66,66,40,49,8,9,0.8,0.8
2024-11-12T1800,3513A,116.0445,36.4361,聊城市,九州社区,细颗粒物(PM2.5),180,212,198,136,130,30,,48,48,57,49,9,9,0.8,0.8
2024-11-12T1800,4018A,116.0567,36.4608,聊城市,星美广场,细颗粒物(PM2.5),190,216,206,143,137,37,,52,52,53,43,9,10,0.9,0.9
2024-11-12T1800,2632A,94.3681,29.6376,林芝市,林芝监测站,,36,36,15,8,6,81,,76,76,3,5,7,6,0.2,0.3
2024-11-12T1800,2633A,94.3616,29.6616,林芝市,林芝人民医院,,26,6,9,6,5,83,,76,76,1,4,6,6,0.2,2.1
2024-11-12T1800,2603A,100.0781,23.8982,临沧市,市环保局,,21,21,19,11,12,48,,50,50,10,12,9,9,0.4,0.5
2024-11-12T1800,2604A,100.0894,23.8822,临沧市,市气象局,,19,17,18,13,14,51,,49,49,10,11,8,9,0.5,0.6
2024-11-12T1800,1733A,111.5531,36.0783,临汾市,临钢医院,细颗粒物(PM2.5),175,198,162,132,107,6,,18,17,73,57,4,5,2.0,1.7
2024-11-12T1800,1734A,111.5028,36.0714,临汾市,技工学校,细颗粒物(PM2.5),160,168,143,122,113,7,,19,17,63,52,6,7,1.8,1.5
2024-11-12T1800,1736A,111.5018,36.0855,临汾市,市委,,,,148,,112,7,,22,20,52,43,6,8,1.8,1.6
2024-11-12T1800,3018A,111.505,36.1014,临汾市,唐尧大酒店,,,,140,,111,,,22,21,51,42,5,6,1.9,1.5
2024-11-12T1800,3668A,111.5036,36.0414,临汾市,城南,细颗粒物(PM2.5),169,151,138,128,112,6,,20,18,61,47,6,6,1.8,1.5
2024-11-12T1800,2667A,103.2069,35.5993,临夏回族自治州,环保局,颗粒物(PM10),51,51,59,17,16,78,,75,75,18,22,10,8,0.5,0.7
2024-11-12T1800,2668A,103.2417,35.6057,临夏回族自治州,建设大厦,颗粒物(PM10),54,58,52,24,22,78,,77,77,15,25,9,7,0.5,0.8
2024-11-12T1800,1618A,118.3429,35.0532,临沂市,沂河小区,细颗粒物(PM2.5),137,158,125,104,60,99,,88,88,,54,8,10,0.9,0.8
2024-11-12T1800,1619A,118.295,35.0583,临沂市,鲁南制药厂,"颗粒物(PM10),细颗粒物(PM2.5)",104,158,127,78,54,104,,72,72,24,59,8,10,1.5,1.2
2024-11-12T1800,1620A,118.2794,34.9976,临沂市,新光毛纺厂,细颗粒物(PM2.5),119,151,117,90,64,99,,77,77,32,62,7,10,1.3,1.2
2024-11-12T1800,1621A,118.3956,35.0888,临沂市,河东保险公司,细颗粒物(PM2.5),144,149,120,110,82,104,,78,78,22,48,4,6,1.0,1
2024-11-12T1800,3370A,118.3564,35.0215,临沂市,十里堡居委,细颗粒物(PM2.5),144,129,112,110,83,103,,78,78,27,53,7,9,1.0,1
2024-11-12T1800,3496A,118.3604,35.1084,临沂市,南坊新区,细颗粒物(PM2.5),153,156,111,117,78,104,,81,81,30,58,6,8,1.1,1
2024-11-12T1800,3860A,118.3920,35.0300,临沂市,皇山花园小区,细颗粒物(PM2.5),142,146,127,108,90,98,,77,77,30,62,4,7,1.1,1.1
2024-11-12T1800,1870A,109.4856,24.3895,柳州市,柳东小学,细颗粒物(PM2.5),54,43,53,38,43,158,,145,145,9,11,11,12,0.6,0.6
2024-11-12T1800,1871A,109.4157,24.3277,柳州市,环保监测站,颗粒物(PM10),57,64,76,37,50,146,,152,152,18,28,10,12,0.7,0.8
2024-11-12T1800,1872A,109.389,24.341,柳州市,河西水厂,,,55,95,33,56,,,142,142,14,35,10,19,0.8,1
2024-11-12T1800,1873A,109.4311,24.2921,柳州市,市四中,细颗粒物(PM2.5),59,56,68,42,45,148,,157,157,14,26,10,11,0.6,0.8
2024-11-12T1800,1874A,109.4006,24.3631,柳州市,市九中,颗粒物(PM10),57,63,84,31,50,151,,150,150,14,31,8,10,0.9,1
2024-11-12T1800,1875A,109.4958,24.3134,柳州市,古亭山,颗粒物(PM10),58,66,56,40,37,132,,158,158,18,37,12,14,0.8,0.8
2024-11-12T1800,3402A,109.5422,24.3996,柳州市,市二中,颗粒物(PM10),51,51,56,32,43,126,,141,141,15,25,10,11,0.8,0.9
2024-11-12T1800,2307A,116.5079,31.737,六安市,监测大楼,,43,43,62,24,48,111,,126,126,28,29,5,7,0.6,0.7
2024-11-12T1800,2308A,116.4738,31.7643,六安市,皖西学院,,38,35,69,26,44,119,,127,127,22,29,6,6,0.6,0.7
2024-11-12T1800,2309A,116.4996,31.7905,六安市,朝阳厂,,41,41,64,16,45,108,,121,121,30,33,3,3,0.6,0.7
2024-11-12T1800,2310A,116.5567,31.7886,六安市,开发区,,48,48,82,24,46,110,,125,125,28,35,6,6,0.4,0.6
2024-11-12T1800,2576A,104.8,26.5892,六盘水市,窑上,,38,38,39,19,29,91,,91,91,8,7,7,6,0.4,0.5
2024-11-12T1800,2577A,104.83,26.5917,六盘水市,黄土坡,,37,37,33,7,19,91,,93,93,21,11,9,7,0.6,0.6
2024-11-12T1800,2578A,104.89,26.5939,六盘水市,水钢,颗粒物(PM10),54,57,47,27,31,104,,97,97,9,7,4,4,0.3,0.3
2024-11-12T1800,2579A,104.8475,26.5894,六盘水市,民中,,32,32,30,19,23,92,,93,93,16,9,9,8,0.5,0.5
2024-11-12T1800,2580A,104.9544,26.5506,六盘水市,双水,,31,29,37,18,27,99,,98,98,10,8,8,7,0.2,0.3
2024-11-12T1800,2335A,117.0189,25.1181,龙岩市,龙岩师专,,,,,,,,,,,,,,,,
2024-11-12T1800,2336A,117.0217,25.1033,龙岩市,龙岩市监测站,,28,,22,19,18,66,,76,75,10,12,4,7,0.5,0.5
2024-11-12T1800,2337A,117.0258,25.0661,龙岩市,闽西职业技术学院,,21,15,31,12,16,66,,77,76,6,16,1,7,0.5,0.5
2024-11-12T1800,2338A,117.0196,25.0306,龙岩市,龙岩学院,,22,22,24,9,16,66,,76,75,9,15,11,13,0.5,0.5
2024-11-12T1800,2665A,105.0822,33.3261,陇南市,汉王镇固水子,,,,,,,,,,,,,,,,
2024-11-12T1800,2885A,104.9339,33.3826,陇南市,滨江中学,颗粒物(PM10),68,86,60,29,23,27,,40,37,30,20,6,6,0.7,0.6
2024-11-12T1800,3247A,104.955,33.371,陇南市,市总工会,颗粒物(PM10),74,97,63,31,28,13,,40,35,46,21,5,4,0.6,0.6
2024-11-12T1800,2487A,111.9589,27.8901,娄底市,电视发射台,,49,41,45,34,37,113,,122,122,11,12,8,8,0.7,0.7
2024-11-12T1800,2488A,111.9975,27.725,娄底市,市监测站,,50,50,76,27,54,123,,133,132,16,25,10,11,0.6,1
2024-11-12T1800,2489A,112.0194,27.7314,娄底市,市委党校,颗粒物(PM10),52,54,69,28,48,114,,122,122,13,18,4,5,0.7,0.8
2024-11-12T1800,2490A,111.9561,27.7569,娄底市,涟钢,,44,44,72,29,51,110,,123,123,23,19,12,8,0.3,0.6
2024-11-12T1800,2491A,111.9892,27.7044,娄底市,市政府,,44,44,67,23,50,119,,122,122,12,16,13,9,0.6,0.8
2024-11-12T1800,1893A,105.4324,28.9634,泸州市,九狮山,,32,32,25,18,21,6,,23,19,16,11,5,5,0.6,0.5
2024-11-12T1800,1894A,105.4427,28.9063,泸州市,小市上码头,,21,21,34,14,20,22,,26,26,26,19,5,5,0.6,0.5
2024-11-12T1800,1895A,105.4241,28.8573,泸州市,兰田宪桥,,30,,28,21,25,26,,28,28,28,16,4,4,0.7,0.5
2024-11-12T1800,1896A,105.4379,28.8833,泸州市,市环监站,,22,19,34,15,27,18,,21,21,28,20,6,5,0.7,0.6
2024-11-12T1800,3490A,105.3617,28.7703,泸州市,纳溪区环保局,,25,25,27,15,24,24,,28,28,27,22,4,4,0.7,0.6
2024-11-12T1800,2183A,111.1406,37.5211,吕梁市,环保局,细颗粒物(PM2.5),124,139,125,94,77,2,,20,17,52,41,6,5,1.2,0.8
2024-11-12T1800,2185A,111.1297,37.5136,吕梁市,自来水公司,细颗粒物(PM2.5),139,126,120,106,81,4,,21,16,52,39,6,10,1.3,1
2024-11-12T1800,2867A,111.1283,37.51,吕梁市,马茂庄小学,细颗粒物(PM2.5),120,136,136,91,79,3,,17,13,52,45,6,6,1.1,0.9
2024-11-12T1800,1812A,112.3931,34.6516,洛阳市,市委党校,细颗粒物(PM2.5),235,188,200,185,175,14,,23,23,51,44,1,2,1.1,1.2
2024-11-12T1800,1814A,112.4657,34.6871,洛阳市,豫西宾馆,细颗粒物(PM2.5),205,,162,155,151,17,,27,27,47,47,2,3,1.1,1.3
2024-11-12T1800,1815A,112.494,34.6886,洛阳市,河南林校,细颗粒物(PM2.5),235,,186,185,185,13,,22,22,51,46,3,4,0.9,1
2024-11-12T1800,1816A,112.3844,34.623,洛阳市,开发区管委会,细颗粒物(PM2.5),243,238,233,193,189,19,,28,27,47,36,6,7,0.8,0.8
2024-11-12T1800,1817A,112.4267,34.6258,洛阳市,市委新办公区,细颗粒物(PM2.5),225,223,236,175,171,10,,23,23,50,38,2,3,0.9,0.9
2024-11-12T1800,3340A,112.6005,34.6326,洛阳市,伊滨,细颗粒物(PM2.5),192,168,185,144,152,11,,26,26,48,41,4,4,1.2,1.1
2024-11-12T1800,3341A,112.4951,34.6332,洛阳市,中移产业园,细颗粒物(PM2.5),216,,177,166,171,14,,27,27,50,45,2,4,1.1,1.1
2024-11-12T1800,3593A,112.5736,34.8993,洛阳市,吉利监测站,细颗粒物(PM2.5),236,188,185,186,151,36,,37,37,33,38,2,2,1.0,0.9
2024-11-12T1800,3635A,112.3677,34.662,洛阳市,河科大西苑校区,细颗粒物(PM2.5),209,208,199,159,164,15,,25,24,53,43,2,3,1.0,1.2
2024-11-12T1800,3636A,112.4388,34.6781,洛阳市,英才小学,细颗粒物(PM2.5),209,187,211,159,152,18,,25,25,45,45,2,4,1.0,1.1
2024-11-12T1800,2399A,114.051,33.5699,漯河市,三五一五工厂,细颗粒物(PM2.5),107,115,147,80,99,92,,102,100,30,34,7,7,0.7,0.8
2024-11-12T1800,2400A,114.0055,33.5698,漯河市,漯河大学,细颗粒物(PM2.5),94,108,142,70,113,94,,102,102,29,30,6,6,0.8,0.8
2024-11-12T1800,2401A,114.0138,33.5828,漯河市,市水利局,细颗粒物(PM2.5),110,127,150,83,113,74,,97,97,34,26,7,7,0.8,0.8
2024-11-12T1800,2402A,114.0261,33.5698,漯河市,市广电局,细颗粒物(PM2.5),95,100,135,71,121,100,,103,103,23,26,7,6,0.9,0.9
2024-11-12T1800,3478A,113.9749,33.5664,漯河市,市图书馆,细颗粒物(PM2.5),82,87,150,60,115,96,,104,104,23,27,6,5,0.7,0.7
2024-11-12T1800,3479A,114.0967,33.5906,漯河市,召陵区卫健委,细颗粒物(PM2.5),112,111,166,84,128,74,,96,96,42,36,10,11,0.9,0.9
2024-11-12T1800,1798A,118.5092,31.6837,马鞍山市,湖东路四小,,40,33,47,18,27,127,,121,121,26,35,5,5,0.6,0.7
2024-11-12T1800,1799A,118.5024,31.6449,马鞍山市,开发区,,36,36,65,25,40,114,,113,113,37,42,7,8,0.7,0.7
2024-11-12T1800,1800A,118.5228,31.7231,马鞍山市,慈湖,颗粒物(PM10),52,53,54,28,37,133,,122,122,24,28,9,9,0.8,0.9
2024-11-12T1800,1802A,118.6245,31.7241,马鞍山市,濮塘,,48,48,48,26,36,142,,126,126,22,25,7,7,0.6,0.6
2024-11-12T1800,3633A,118.4918,31.6809,马鞍山市,雨山,,39,38,45,19,27,122,,118,118,26,27,5,5,1.0,0.9
2024-11-12T1800,1686A,111.0286,21.4688,茂名市,电白南海,臭氧1小时,74,63,65,39,39,179,,169,169,15,19,9,13,0.7,0.7
2024-11-12T1800,1687A,110.9294,21.6533,茂名市,茂石化七小,"颗粒物(PM10),细颗粒物(PM2.5)",67,83,64,48,43,163,,136,136,18,15,11,15,0.9,0.8
2024-11-12T1800,1688A,110.9107,21.6687,茂名市,健康路,细颗粒物(PM2.5),70,78,61,51,37,165,,138,138,17,15,16,28,0.8,0.7
2024-11-12T1800,1689A,110.8592,21.6828,茂名市,高岭,,,90,75,58,44,157,,126,126,18,22,25,21,,0.8
2024-11-12T1800,3450A,111.01,21.5165,茂名市,电白水东,臭氧1小时,58,56,57,39,40,166,,159,159,12,15,12,24,0.7,0.7
2024-11-12T1800,2539A,104.0308,30.0478,眉山市,黑龙滩水库,,38,,40,26,40,70,,47,47,2,10,1,2,0.5,0.6
2024-11-12T1800,2540A,103.8416,30.0874,眉山市,气象局,,32,,35,22,30,32,,36,36,27,28,6,7,0.6,0.6
2024-11-12T1800,3137A,103.8578,30.0744,眉山市,市委党校,,34,34,43,14,24,38,,32,32,28,31,8,7,0.6,0.6
2024-11-12T1800,3148A,103.8291,30.0564,眉山市,区人社局,,25,21,34,17,24,34,,35,35,37,36,5,6,0.6,0.5
2024-11-12T1800,1690A,116.1231,24.3284,梅州市,梅江月梅,,25,22,32,16,21,79,,82,82,6,22,8,9,0.5,0.6
2024-11-12T1800,1691A,116.0797,24.2719,梅州市,梅县新城,,23,15,38,11,24,71,,81,81,13,24,5,6,0.6,0.6
2024-11-12T1800,1692A,116.1248,24.2654,梅州市,环境监控中心,,23,22,44,9,25,72,,77,77,9,27,6,9,0.3,0.4
2024-11-12T1800,3315A,116.1233,24.2991,梅州市,梅龙,,23,14,33,10,21,72,,78,77,9,19,6,10,0.5,0.6
2024-11-12T1800,1878A,104.7778,31.4741,绵阳市,富乐山,,25,21,25,17,19,22,,28,28,14,17,2,2,0.6,0.6
2024-11-12T1800,1879A,104.7563,31.4535,绵阳市,市人大,,26,25,33,18,17,14,,23,20,23,25,4,4,0.5,0.5
2024-11-12T1800,1880A,104.6697,31.4668,绵阳市,高新区自来水公司,,22,22,25,14,13,24,,28,28,17,24,3,3,0.6,0.6
2024-11-12T1800,1881A,104.7287,31.5075,绵阳市,三水厂,,25,25,32,13,25,26,,32,32,14,24,6,6,0.6,0.6
2024-11-12T1800,3491A,104.69,31.5322,绵阳市,西科大附属小学,,26,26,29,15,17,25,,31,31,13,20,4,4,0.6,0.6
2024-11-12T1800,3492A,104.5648,31.5343,绵阳市,安州区旅游局,,28,,23,19,20,26,,43,38,16,17,10,9,0.7,0.7
2024-11-12T1800,1784A,129.61,44.561,牡丹江市,环保大楼,细颗粒物(PM2.5),57,52,56,40,39,46,,64,61,37,24,5,6,0.6,0.4
2024-11-12T1800,1785A,129.6115,44.5782,牡丹江市,文化广场,细颗粒物(PM2.5),58,54,59,41,41,44,,61,60,38,31,9,10,0.5,0.5
2024-11-12T1800,1786A,129.5904,44.5963,牡丹江市,第一医院,细颗粒物(PM2.5),100,93,62,75,51,38,,73,70,48,23,7,6,0.8,0.5
2024-11-12T1800,1787A,129.6364,44.6075,牡丹江市,机车工厂,细颗粒物(PM2.5),75,80,71,55,51,44,,64,63,25,26,8,14,0.5,0.5
2024-11-12T1800,1788A,129.6386,44.5462,牡丹江市,第一中学,细颗粒物(PM2.5),62,59,47,44,38,60,,70,70,24,19,5,5,0.4,0.4
2024-11-12T1800,2531A,105.0703,29.61,内江市,市监测站,,42,,29,29,28,21,,25,25,34,24,11,10,0.8,0.7
2024-11-12T1800,2532A,105.0717,29.5947,内江市,东兴区政府,,19,18,24,13,20,30,,25,25,34,24,7,7,0.6,0.6
2024-11-12T1800,2533A,105.0653,29.5817,内江市,内江二中,,43,,33,30,31,15,,21,21,39,29,7,7,0.7,0.6
2024-11-12T1800,2534A,105.0406,29.5822,内江市,内江日报社,细颗粒物(PM2.5),52,,32,36,32,16,,22,22,27,22,8,7,0.6,0.6
2024-11-12T1800,2628A,92.0657,31.4846,那曲市,那曲监测站,,31,20,57,3,30,98,,90,90,6,24,5,9,0.5,1
2024-11-12T1800,3128A,92.0506,31.4797,那曲市,那曲会议中心,颗粒物(PM10),54,58,88,13,30,94,,84,84,2,16,2,5,0.3,1.2
2024-11-12T1800,1290A,115.8931,28.6843,南昌市,省外办,颗粒物(PM10),58,66,69,31,47,85,,109,109,21,29,5,8,0.8,0.9
2024-11-12T1800,1291A,115.8886,28.7003,南昌市,省林业公司,颗粒物(PM10),51,51,66,22,40,86,,112,112,19,32,7,10,0.6,0.7
2024-11-12T1800,1292A,115.8126,28.7442,南昌市,林科所,,41,41,47,24,30,90,,120,119,30,25,8,13,0.6,0.5
2024-11-12T1800,1294A,115.8518,28.687,南昌市,建工学校,,49,44,60,34,32,97,,118,118,23,28,10,12,0.5,0.6
2024-11-12T1800,1295A,115.8921,28.6424,南昌市,象湖,,36,36,52,20,39,107,,124,124,20,30,10,12,0.4,0.7
2024-11-12T1800,1296A,115.7423,28.7996,南昌市,武术学校,,,32,30,29,10,46,,80,80,,10,,2,0.5,0.6
2024-11-12T1800,1298A,115.9314,28.6842,南昌市,省站,颗粒物(PM10),61,71,75,34,44,85,,107,107,26,30,8,11,0.6,0.7
2024-11-12T1800,3046A,115.9084,28.6062,南昌市,机电学校,颗粒物(PM10),53,56,77,34,41,100,,116,116,24,38,9,11,0.7,0.7
2024-11-12T1800,3690A,115.9721,28.7031,南昌市,外国语学校,,40,40,66,28,37,103,,75,,13,29,8,11,0.6,0.9
2024-11-12T1800,1905A,106.056,30.8064,南充市,西山风景区,细颗粒物(PM2.5),52,52,36,36,33,14,,8,8,15,17,3,2,0.8,0.7
2024-11-12T1800,1906A,106.0789,30.8023,南充市,南充市委,细颗粒物(PM2.5),62,55,54,44,40,30,,18,18,21,24,3,2,0.4,0.4
2024-11-12T1800,1907A,106.1031,30.8217,南充市,南充炼油厂,细颗粒物(PM2.5),55,57,54,39,40,32,,20,20,14,20,2,2,0.4,0.4
2024-11-12T1800,1908A,106.1064,30.7856,南充市,高坪区监测站,细颗粒物(PM2.5),75,57,58,55,43,26,,19,19,20,23,2,3,0.4,0.4
2024-11-12T1800,1909A,106.0642,30.7636,南充市,嘉陵区环保局,细颗粒物(PM2.5),62,64,52,44,37,16,,14,14,30,28,3,3,0.6,0.6
2024-11-12T1800,1910A,106.1087,30.8388,南充市,市环境监测站,细颗粒物(PM2.5),63,61,51,45,39,25,,19,19,19,17,4,3,0.5,0.5
2024-11-12T1800,1151A,118.8086,32.1065,南京市,迈皋桥,,46,46,42,27,27,104,,122,122,31,38,4,4,0.7,0.6
2024-11-12T1800,1152A,118.7538,32.0551,南京市,草场门,颗粒物(PM10),54,58,49,27,29,94,,115,112,46,41,6,5,0.7,0.6
2024-11-12T1800,1153A,118.7794,32.0745,南京市,山西路,,,51,52,27,34,,,142,142,15,17,4,4,0.6,0.6
2024-11-12T1800,1154A,118.7752,32.0023,南京市,中华门,颗粒物(PM10),57,63,56,31,30,100,,114,114,37,46,4,4,0.9,0.6
2024-11-12T1800,1155A,118.8109,32.0309,南京市,瑞金路,颗粒物(PM10),62,73,55,34,32,91,,112,112,23,26,8,6,1.0,0.8
2024-11-12T1800,1156A,118.7997,32.0754,南京市,玄武湖,,43,43,44,25,26,94,,110,108,46,48,7,6,0.7,0.8
2024-11-12T1800,1157A,118.6414,32.0931,南京市,浦口,颗粒物(PM10),54,57,44,31,30,90,,100,100,38,40,6,6,0.5,0.5
2024-11-12T1800,1158A,118.7356,31.9996,南京市,奥体中心,颗粒物(PM10),61,72,63,36,35,96,,116,116,47,43,10,8,0.8,0.5
2024-11-12T1800,1159A,118.9125,32.1028,南京市,仙林大学城,,44,44,45,24,28,115,,127,127,26,27,7,7,0.6,0.6
2024-11-12T1800,3422A,118.8436,31.9198,南京市,江宁彩虹桥,颗粒物(PM10),53,56,50,36,34,126,,121,121,34,41,7,6,0.8,0.8
2024-11-12T1800,3423A,119.0138,31.6494,南京市,溧水永阳,颗粒物(PM10),54,58,51,27,27,114,,122,122,30,36,4,4,0.6,0.6
2024-11-12T1800,3424A,118.879,31.3302,南京市,高淳老职中,,38,,49,22,31,120,,121,121,21,31,8,5,0.3,0.5
2024-11-12T1800,3427A,118.8554,32.3578,南京市,六合雄州,细颗粒物(PM2.5),55,44,63,39,34,81,,13,,28,33,5,6,0.9,0.8
2024-11-12T1800,1401A,108.3103,22.7881,南宁市,二十一中,颗粒物(PM10),53,56,83,33,52,146,,162,162,16,47,5,8,0.9,1.2
2024-11-12T1800,1402A,108.3141,22.8528,南宁市,北湖,颗粒物(PM10),57,64,78,39,49,132,,143,143,14,56,6,9,1.2,1.4
2024-11-12T1800,1403A,108.3206,22.8225,南宁市,市监测站,"颗粒物(PM10),细颗粒物(PM2.5)",58,65,81,41,54,135,,145,145,22,45,8,16,0.7,0.8
2024-11-12T1800,1404A,108.3829,22.8037,南宁市,大自然花园,细颗粒物(PM2.5),53,53,62,37,46,128,,154,154,22,28,7,10,0.5,0.6
2024-11-12T1800,1405A,108.4394,22.7904,南宁市,仙葫,,50,50,74,29,57,125,,134,134,13,41,6,9,0.6,0.9
2024-11-12T1800,1406A,108.2397,22.8467,南宁市,区农职院,颗粒物(PM10),52,54,66,32,40,141,,147,147,30,31,7,12,0.8,0.9
2024-11-12T1800,1407A,108.3275,22.735,南宁市,英华嘉园,细颗粒物(PM2.5),52,49,79,36,52,115,,149,149,32,52,7,9,0.9,0.9
2024-11-12T1800,1408A,108.2257,22.7757,南宁市,沙井镇街道办,颗粒物(PM10),56,62,90,34,53,127,,144,144,26,52,6,11,0.7,0.8
2024-11-12T1800,3401A,108.4834,22.7618,南宁市,红星社区,颗粒物(PM10),54,57,67,33,48,112,,144,144,22,33,8,9,0.7,0.9
2024-11-12T1800,2331A,118.0966,26.6761,南平市,茫荡山,,,,,,,,,,,,,,,,
2024-11-12T1800,2332A,118.1681,26.6369,南平市,南平市监测站,,26,26,18,16,13,63,,71,71,11,13,3,3,0.3,0.3
2024-11-12T1800,2333A,118.1825,26.6489,南平市,南平铝业有限公司,,26,26,18,18,15,59,,70,70,12,13,3,3,0.5,0.4
2024-11-12T1800,2334A,118.1756,26.6272,南平市,南平七中,,29,29,19,19,14,70,,73,73,9,11,4,4,0.3,0.4
2024-11-12T1800,1168A,120.9098,31.9663,南通市,狼山街道,,,,38,,24,86,,109,107,19,20,6,6,,0.6
2024-11-12T1800,1169A,120.86,32.0005,南通市,虹桥,细颗粒物(PM2.5),53,49,47,37,34,84,,104,102,22,27,6,7,0.4,0.4
2024-11-12T1800,1170A,120.87,32.02,南通市,城中,颗粒物(PM10),54,57,53,29,32,84,,104,103,25,34,7,8,0.7,0.6
2024-11-12T1800,1171A,120.94,31.93,南通市,星湖花园,,48,48,39,31,27,75,,102,99,29,26,5,5,0.7,0.6
2024-11-12T1800,1172A,120.81,32.0417,南通市,紫琅学院,颗粒物(PM10),51,52,42,29,32,70,,98,95,33,40,4,4,0.8,0.6
2024-11-12T1800,3291A,121.067,32.062,南通市,通州监测站,,49,48,40,34,27,91,,113,111,18,16,2,2,0.6,0.6
2024-11-12T1800,3432A,120.9348,31.9883,南通市,环境教育馆,细颗粒物(PM2.5),53,48,48,37,32,72,,111,107,34,34,3,3,0.5,0.5
2024-11-12T1800,2404A,112.5224,33.0122,南阳市,瓦房庄,细颗粒物(PM2.5),160,129,128,122,116,70,,77,77,24,26,4,5,0.8,0.8
2024-11-12T1800,2405A,112.5003,32.9735,南阳市,汉画馆,细颗粒物(PM2.5),134,144,141,102,104,72,,80,80,25,27,7,8,0.8,0.8
2024-11-12T1800,2406A,112.5573,33.027,南阳市,气象站,细颗粒物(PM2.5),175,,127,132,124,70,,80,80,31,32,5,6,0.9,0.8
2024-11-12T1800,2407A,112.5481,32.9689,南阳市,理工学院,细颗粒物(PM2.5),138,116,126,105,108,80,,82,82,23,28,5,5,0.8,0.8
2024-11-12T1800,4008A,112.5234,32.9922,南阳市,卧龙区政府,细颗粒物(PM2.5),156,128,131,119,114,73,,78,78,28,30,4,5,0.8,0.8
2024-11-12T1800,1234A,121.8358,29.911,宁波市,区环保大楼,,33,33,32,19,17,95,,110,110,33,43,8,8,0.5,0.6
2024-11-12T1800,1235A,121.56,29.82,宁波市,万里学院,,36,34,42,21,28,114,,129,129,27,47,7,8,0.5,0.7
2024-11-12T1800,1236A,121.713,29.9572,宁波市,龙赛医院,,33,33,30,13,14,99,,119,119,32,32,9,9,0.5,0.6
2024-11-12T1800,1239A,121.633,29.7733,宁波市,钱湖水厂,,31,30,42,18,24,98,,104,104,28,40,6,7,0.6,0.7
2024-11-12T1800,1240A,121.5856,29.8635,宁波市,太古小学,,34,31,42,18,19,107,,117,117,25,39,9,9,0.7,0.8
2024-11-12T1800,1241A,121.524,29.8674,宁波市,市环境监测中心,,,32,37,20,20,120,,133,133,23,43,10,11,,0.6
2024-11-12T1800,2871A,121.6147,29.9017,宁波市,万里国际学校,,35,27,33,10,23,112,,124,124,25,52,8,8,0.5,0.7
2024-11-12T1800,3710A,121.5594,29.8975,宁波市,白沙活动中心,,36,29,31,17,16,114,,132,132,26,40,10,10,0.5,0.5
2024-11-12T1800,2339A,119.5001,26.6946,宁德市,金涵水库,,,,,,,,,,,,,,,,
2024-11-12T1800,2341A,119.5388,26.6612,宁德市,宁德市监测站,,33,30,27,23,19,77,,71,71,17,19,2,2,0.4,0.4
2024-11-12T1800,3209A,119.5231,26.6562,宁德市,宁德一中,,,31,25,17,19,81,,75,75,,13,,2,0.4,0.4
2024-11-12T1800,2618A,98.8601,25.8567,怒江傈僳族自治州,州监测站,,,20,22,13,11,71,,65,65,,9,3,5,0.4,0.4
2024-11-12T1800,2619A,98.8546,25.8417,怒江傈僳族自治州,泸水一中,,35,35,18,8,10,45,,55,55,26,16,8,8,0.6,0.5
2024-11-12T1800,1888A,101.6891,26.571,攀枝花市,弄弄坪,,32,32,50,15,29,78,,70,70,24,29,14,19,0.6,1.8
2024-11-12T1800,1889A,101.5769,26.5928,攀枝花市,河门口,,25,24,37,15,24,78,,75,75,39,24,27,11,1.6,1.2
2024-11-12T1800,1890A,101.7169,26.585,攀枝花市,炳草岗,,29,29,50,10,24,79,,75,75,23,34,15,15,0.9,1.7
2024-11-12T1800,1891A,101.7369,26.5008,攀枝花市,仁和,"颗粒物(PM10),细颗粒物(PM2.5)",54,58,44,38,28,83,,82,82,32,20,10,11,0.9,1.3
2024-11-12T1800,2835A,101.7227,26.567,攀枝花市,四十中小,,40,33,53,28,33,57,,68,67,33,37,7,8,0.8,1.7
2024-11-12T1800,1604A,122.0303,41.1489,盘锦市,开发区,细颗粒物(PM2.5),59,65,42,42,24,35,,56,56,49,32,15,12,0.5,0.5
2024-11-12T1800,1605A,122.0485,41.0883,盘锦市,兴隆台,细颗粒物(PM2.5),83,72,35,61,20,17,,54,52,73,34,8,15,0.9,0.6
2024-11-12T1800,1606A,121.8297,41.1028,盘锦市,新生街道,细颗粒物(PM2.5),92,80,31,68,18,55,,62,62,40,39,16,14,0.7,0.6
2024-11-12T1800,1832A,113.3257,33.742,平顶山市,新华旅馆,细颗粒物(PM2.5),159,145,200,121,144,56,,66,66,39,52,7,8,0.8,0.8
2024-11-12T1800,1833A,113.2919,33.737,平顶山市,规划设计院,细颗粒物(PM2.5),155,170,224,118,150,61,,24,,30,47,6,8,0.9,1.1
2024-11-12T1800,1834A,113.182,33.774,平顶山市,平顶山工学院,细颗粒物(PM2.5),192,206,234,144,166,51,,48,48,32,39,6,11,0.9,1.1
2024-11-12T1800,3204A,113.3025,33.73,平顶山市,规划局,细颗粒物(PM2.5),173,156,206,131,162,,,69,69,37,52,6,9,0.9,1.1
2024-11-12T1800,3594A,112.8867,33.9116,平顶山市,石龙区,细颗粒物(PM2.5),233,,181,183,161,14,,51,49,49,37,9,10,1.5,1.3
2024-11-12T1800,2656A,106.6692,35.5461,平凉市,聚贤嘉苑,细颗粒物(PM2.5),85,90,72,63,37,35,,24,24,45,60,14,11,1.0,0.9
2024-11-12T1800,2657A,106.7021,35.5307,平凉市,博物馆,颗粒物(PM10),75,100,98,51,43,41,,25,,44,51,27,16,0.8,1
2024-11-12T1800,2347A,114.0997,27.5002,萍乡市,武功山,,26,22,13,3,6,83,,96,96,11,7,10,10,0.3,0.2
2024-11-12T1800,2348A,113.8385,27.6434,萍乡市,中医院,,49,40,59,34,42,124,,119,119,20,21,12,27,0.9,1
2024-11-12T1800,2349A,113.8493,27.6253,萍乡市,市政府车库,,50,50,54,29,38,125,,116,116,17,24,11,21,1.7,1.6
2024-11-12T1800,2350A,113.8676,27.6435,萍乡市,市环保局,,41,41,51,23,37,121,,113,113,14,21,12,25,0.6,0.7
2024-11-12T1800,2351A,113.866,27.6198,萍乡市,安源区政府,颗粒物(PM10),52,53,56,32,34,130,,120,120,19,23,22,25,1.0,0.9
2024-11-12T1800,2319A,119.0141,25.4325,莆田市,荔城区仓后路,,26,19,18,12,7,83,,80,80,9,7,1,1,0.4,0.3
2024-11-12T1800,2320A,119.0015,25.4553,莆田市,莆田市监测站,,26,14,16,8,6,83,,80,79,7,4,2,2,0.3,0.3
2024-11-12T1800,2321A,119.1119,25.4561,莆田市,涵江区六中,,30,23,16,13,7,96,,87,87,6,6,2,2,0.3,0.3
2024-11-12T1800,2322A,119.1013,25.3215,莆田市,秀屿区政府,,50,49,21,35,10,91,,84,84,9,7,2,2,0.3,0.3
2024-11-12T1800,2323A,118.981,25.4792,莆田市,东圳水库,,,,,,,,,,,,,,,,
2024-11-12T1800,2392A,115.0312,35.7636,濮阳市,环保局,细颗粒物(PM2.5),262,,125,212,142,31,,44,42,37,26,1,2,1.0,0.9
2024-11-12T1800,2394A,115.0574,35.7609,濮阳市,油田运输公司,细颗粒物(PM2.5),247,249,184,197,137,29,,39,39,36,30,3,4,1.1,0.9
2024-11-12T1800,2395A,115.0866,35.7754,濮阳市,油田物探公司,细颗粒物(PM2.5),260,258,183,210,142,27,,36,36,37,32,3,3,1.0,0.9
2024-11-12T1800,3021A,115,35.7668,濮阳市,濮水河管理处,细颗粒物(PM2.5),257,272,190,207,137,13,,25,25,32,23,2,1,1.0,0.8
2024-11-12T1800,2601A,100.98,22.7633,普洱市,市环保局,,27,27,25,17,20,46,,47,47,6,8,5,5,0.5,0.6
2024-11-12T1800,2602A,100.9817,22.8322,普洱市,普洱第二中学,,22,22,29,11,13,48,,51,51,8,14,7,7,0.3,0.4
2024-11-12T1800,2262A,131.0518,45.8751,七台河市,新一中,细颗粒物(PM2.5),156,145,108,119,91,38,,47,40,23,20,9,11,1.4,1.3
2024-11-12T1800,3345A,131.0577,45.7879,七台河市,中波台,细颗粒物(PM2.5),155,132,97,118,85,37,,31,30,28,25,15,10,1.1,1.1
2024-11-12T1800,3637A,131.0176,45.7761,七台河市,人民广场,细颗粒物(PM2.5),179,177,122,135,97,30,,33,26,37,30,8,8,1.1,1
2024-11-12T1800,3684A,130.8781,45.8222,七台河市,新建矿广场,细颗粒物(PM2.5),180,139,132,136,93,29,,23,23,26,33,8,13,0.9,0.9
2024-11-12T1800,1779A,123.9305,47.3636,齐齐哈尔市,安居小区,细颗粒物(PM2.5),63,70,61,45,44,37,,57,55,40,19,8,7,0.8,0.6
2024-11-12T1800,1780A,123.9488,47.3386,齐齐哈尔市,中心广场,细颗粒物(PM2.5),77,67,56,56,48,31,,49,48,42,17,5,3,0.7,0.5
2024-11-12T1800,1781A,123.9483,47.3227,齐齐哈尔市,农牧车辆厂,颗粒物(PM10),62,73,55,26,43,47,,56,56,29,16,6,4,0.4,0.3
2024-11-12T1800,1783A,123.945,47.2988,齐齐哈尔市,市环境监测站,,,76,59,41,47,54,,59,57,24,18,,3,0.4,0.4
2024-11-12T1800,3662A,123.6333,47.2075,齐齐哈尔市,富区青少年活动中心,颗粒物(PM10),56,61,71,17,50,44,,55,55,11,11,4,5,0.3,0.4
2024-11-12T1800,2591A,107.9783,26.5747,黔东南苗族侗族自治州,市环境监测站,,36,33,47,25,35,80,,89,89,13,29,5,6,0.3,0.5
2024-11-12T1800,2881A,107.8908,26.5311,黔东南苗族侗族自治州,凯里学院,,33,,34,23,28,85,,95,95,4,14,5,5,0.2,0.4
2024-11-12T1800,2593A,107.5228,26.2403,黔南布依族苗族自治州,小围寨,,31,24,27,17,21,97,,92,92,4,14,5,5,0.3,0.4
2024-11-12T1800,3538A,107.5175,26.2978,黔南布依族苗族自治州,沙坝,,29,24,34,14,21,90,,93,93,5,12,4,4,0.5,0.5
2024-11-12T1800,2589A,104.9022,25.0925,黔西南布依族苗族自治州,场坝街,,27,27,34,13,24,73,,77,76,8,8,4,4,0.4,0.4
2024-11-12T1800,2590A,104.8811,25.0992,黔西南布依族苗族自治州,坪东大道,,22,19,34,12,26,69,,72,72,7,10,3,3,0.3,0.4
2024-11-12T1800,2502A,108.6236,21.9667,钦州市,市环保站,颗粒物(PM10),58,66,90,36,46,164,,151,151,19,35,9,12,0.8,0.9
2024-11-12T1800,2503A,108.6549,21.9481,钦州市,沙埠小学,细颗粒物(PM2.5),68,58,109,49,57,156,,140,140,40,53,9,10,1.0,0.9
2024-11-12T1800,2504A,108.5989,21.7431,钦州市,港区一小,臭氧1小时,82,90,80,37,40,185,,176,176,15,31,8,9,0.9,0.9
2024-11-12T1800,3404A,108.5959,21.9633,钦州市,北职校,细颗粒物(PM2.5),64,60,78,46,55,158,,147,147,18,29,10,10,0.9,1
2024-11-12T1800,1042A,119.5134,39.8207,秦皇岛市,北戴河环保局,,34,34,54,13,24,56,,64,64,27,29,4,6,0.4,0.8
2024-11-12T1800,1043A,119.7493,40.0116,秦皇岛市,第一关,,43,43,48,28,30,31,,64,61,44,36,4,5,0.4,0.6
2024-11-12T1800,1044A,119.5897,39.9499,秦皇岛市,监测站,颗粒物(PM10),51,51,60,11,18,20,,55,54,65,49,6,7,0.5,0.7
2024-11-12T1800,1046A,119.5251,39.9041,秦皇岛市,建设大厦,,40,40,60,14,26,40,,58,58,37,46,4,7,0.6,0.8
2024-11-12T1800,3132A,119.610547,39.943889,秦皇岛市,文明里,,46,46,64,22,29,42,,58,58,31,37,4,6,0.3,0.6
2024-11-12T1800,1307A,120.6659,36.2403,青岛市,仰口,细颗粒物(PM2.5),94,86,90,70,69,93,,97,97,5,9,7,8,0.7,0.7
2024-11-12T1800,1310A,120.4134,36.0658,青岛市,市南区东部子站,细颗粒物(PM2.5),77,102,115,56,58,104,,105,105,17,35,9,12,0.7,0.9
2024-11-12T1800,1311A,120.3664,36.1032,青岛市,四方区子站,细颗粒物(PM2.5),104,110,123,78,82,92,,101,101,30,52,9,12,1.0,1.2
2024-11-12T1800,1312A,120.2994,36.054,青岛市,市南区西部子站,细颗粒物(PM2.5),85,83,100,63,69,101,,95,95,24,50,9,12,0.8,1.1
2024-11-12T1800,1313A,120.4581,36.0858,青岛市,崂山区子站,细颗粒物(PM2.5),73,92,102,53,56,118,,114,114,23,44,8,10,0.8,1
2024-11-12T1800,1314A,120.1983,35.9608,青岛市,黄岛区子站,细颗粒物(PM2.5),113,122,129,85,84,99,,100,100,32,46,7,11,0.9,1.1
2024-11-12T1800,1315A,120.3999,36.3083,青岛市,城阳区子站,细颗粒物(PM2.5),129,163,127,98,75,64,,104,104,75,65,10,11,1.0,1.2
2024-11-12T1800,1966A,120.0405,35.8735,青岛市,黄岛区4号,,,,123,,83,118,,105,105,,48,8,11,,1.1
2024-11-12T1800,3362A,120.5014,36.4034,青岛市,即墨2号,颗粒物(PM10),78,106,139,44,53,87,,99,99,27,50,7,10,0.8,1
2024-11-12T1800,3642A,120.3503,36.0736,青岛市,市北区南部,细颗粒物(PM2.5),85,97,79,63,76,98,,96,96,20,50,10,12,0.9,1.3
2024-11-12T1800,3643A,120.3948,36.1805,青岛市,李沧区北部,细颗粒物(PM2.5),98,122,130,73,79,76,,96,96,56,63,9,11,1.1,1.2
2024-11-12T1800,1702A,113.0426,23.691,清远市,环保大楼,,33,30,28,20,23,104,,112,112,14,12,6,8,0.9,0.8
2024-11-12T1800,1703A,113.0208,23.7106,清远市,凤城街办,,42,38,32,29,21,99,,106,106,13,14,6,7,0.8,0.8
