timepoint,stationcode,longitude,latitude,area,positionname,primarypollutant,aqi,pm10,pm10_24h,pm2_5,pm2_5_24h,o3,o3_24h,o3_8h,o3_8h_24h,no2,no2_24h,so2,so2_24h,co,co_24h
2024-04-26T2000,2566A,102.1879,31.914,阿坝藏族羌族自治州,州农科所,,34,34,14,16,7,28,,36,36,8,7,3,3,0.8,0.8
2024-04-26T2000,2568A,102.2502,31.8896,阿坝藏族羌族自治州,马师校,,34,22,13,22,14,106,,117,117,9,8,3,3,0.3,0.3
2024-04-26T2000,3994A,102.2165,31.9024,阿坝藏族羌族自治州,马尔康中学西区,,35,25,21,24,15,110,,120,120,7,8,4,4,0.3,0.2
2024-04-26T2000,2695A,80.292,41.1694,阿克苏地区,电视台,颗粒物(PM10),125,199,111,48,35,112,,117,117,11,14,8,6,0.4,0.4
2024-04-26T2000,2696A,80.2613,41.1551,阿克苏地区,艺术中心,颗粒物(PM10),102,153,106,53,39,95,,111,111,24,32,3,4,0.4,0.4
2024-04-26T2000,2204A,105.6467,38.8363,阿拉善盟,西城区西花园,,45,45,103,11,28,111,,126,124,21,12,8,8,0.6,0.6
2024-04-26T2000,2205A,105.6985,38.8411,阿拉善盟,蒙二幼,,45,45,85,17,23,120,,125,124,10,6,10,10,0.4,0.4
2024-04-26T2000,2206A,105.724,38.8516,阿拉善盟,环保局新楼,,45,45,70,18,22,123,,128,122,10,6,8,8,0.4,0.4
2024-04-26T2000,2708A,88.1264,47.8517,阿勒泰地区,市站,,27,27,26,10,7,78,,81,81,10,7,5,5,0.1,0.2
2024-04-26T2000,2630A,80.1161,32.5,阿里地区,阿里监测站,,36,24,18,7,7,115,,133,131,6,10,5,5,0.5,0.5
2024-04-26T2000,3192A,80.0903,32.5028,阿里地区,阿里藏医院,,42,17,19,4,7,132,,149,147,2,6,9,11,0.4,0.4
2024-04-26T2000,2642A,109.0318,32.6537,安康市,香溪洞,,36,25,25,12,12,114,,114,114,5,8,6,7,0.4,0.5
2024-04-26T2000,2643A,109.0281,32.6939,安康市,安康市监测站,,45,45,32,24,17,68,,109,106,24,11,8,9,0.8,0.5
2024-04-26T2000,2644A,109.0072,32.6975,安康市,汉滨区检察院,,35,33,28,24,15,75,,111,110,16,9,9,9,0.4,0.4
2024-04-26T2000,2291A,117.0809,30.5177,安庆市,环科院,细颗粒物(PM2.5),69,55,38,50,25,153,,153,153,19,26,9,9,0.8,0.7
2024-04-26T2000,2292A,117.0331,30.5119,安庆市,马山宾馆,细颗粒物(PM2.5),62,54,36,44,26,147,,149,149,16,18,8,7,0.8,0.7
2024-04-26T2000,2294A,116.9896,30.6145,安庆市,安庆大学,细颗粒物(PM2.5),57,59,41,40,24,144,,143,143,15,21,7,8,0.7,0.6
2024-04-26T2000,3173A,117.0598,30.5351,安庆市,市人大,细颗粒物(PM2.5),73,64,36,53,24,141,,147,147,22,10,6,7,0.9,0.7
2024-04-26T2000,3123A,105.9408,26.2431,安顺市,凤凰山,细颗粒物(PM2.5),53,48,30,37,22,110,,126,126,14,10,14,9,0.7,0.5
2024-04-26T2000,3124A,105.9439,26.2564,安顺市,金钟山,,46,42,30,32,22,118,,128,128,10,8,9,6,0.2,0.3
2024-04-26T2000,3125A,105.8983,26.2481,安顺市,娄家坡,细颗粒物(PM2.5),112,,46,84,35,111,,126,126,12,9,15,8,0.6,0.5
2024-04-26T2000,1819A,114.3551,36.1017,安阳市,红庙街,颗粒物(PM10),86,122,111,22,34,127,,150,150,8,12,6,8,0.3,0.6
2024-04-26T2000,1820A,114.361,36.0681,安阳市,银杏小区,颗粒物(PM10),54,58,98,25,39,125,,149,149,5,9,7,8,0.4,0.5
2024-04-26T2000,3141A,114.3922,36.0878,安阳市,信访局,颗粒物(PM10),65,80,106,24,38,120,,148,146,9,12,2,4,0.5,0.5
2024-04-26T2000,3669A,114.4705,36.0637,安阳市,左辅环卫站,颗粒物(PM10),57,64,90,25,38,106,,133,131,9,12,6,8,0.3,0.4
2024-04-26T2000,3703A,114.2917,36.0949,安阳市,安钢职工学校,颗粒物(PM10),62,73,122,26,40,119,,148,148,10,18,7,10,0.1,0.4
2024-04-26T2000,1748A,123.044,41.1196,鞍山市,深沟寺,颗粒物(PM10),70,90,56,46,28,126,,150,147,26,13,17,11,0.8,0.7
2024-04-26T2000,1749A,123.011,41.0931,鞍山市,太阳城,颗粒物(PM10),72,93,59,42,26,136,,159,157,25,16,11,9,1.1,0.8
2024-04-26T2000,1750A,123.0485,41.1442,鞍山市,太平,颗粒物(PM10),81,111,66,50,28,132,,151,150,36,20,13,7,1.0,0.7
2024-04-26T2000,1751A,122.9642,41.0971,鞍山市,铁西三道街,颗粒物(PM10),107,164,88,68,41,115,,155,150,41,26,9,10,0.8,0.8
2024-04-26T2000,1752A,122.9341,41.0833,鞍山市,铁西工业园区,"颗粒物(PM10),细颗粒物(PM2.5)",78,106,83,57,39,125,,162,160,28,25,9,12,0.7,0.8
2024-04-26T2000,1753A,123.022,41.0821,鞍山市,明达新区,颗粒物(PM10),67,84,54,46,28,124,,144,,32,16,13,11,0.9,0.7
2024-04-26T2000,2195A,107.4212,40.761,巴彦淖尔市,附二中,颗粒物(PM10),72,94,97,25,41,101,,117,116,12,20,2,8,0.3,0.4
2024-04-26T2000,2196A,107.37,40.7372,巴彦淖尔市,市环保大楼,颗粒物(PM10),75,99,99,27,38,97,,111,110,8,20,3,5,0.2,0.3
2024-04-26T2000,1956A,86.1472,41.7538,巴音郭楞蒙古自治州,孔雀公园,,48,48,60,7,16,100,,102,102,12,16,6,7,0.2,0.2
2024-04-26T2000,1957A,86.1972,41.7166,巴音郭楞蒙古自治州,棉纺厂,,50,50,68,7,19,99,,98,98,7,13,3,4,0.2,0.2
2024-04-26T2000,1958A,86.2357,41.7173,巴音郭楞蒙古自治州,经济开发区,,45,45,64,18,19,110,,107,107,4,6,6,7,0.2,0.2
2024-04-26T2000,2914A,106.7677,31.8794,巴中市,苏山坪,,36,36,34,24,22,92,,100,100,12,10,4,4,0.5,0.4
2024-04-26T2000,3182A,106.7656,31.8545,巴中市,丽阳花园,颗粒物(PM10),52,53,39,35,23,76,,103,101,26,20,5,4,0.6,0.6
2024-04-26T2000,3183A,106.7418,31.8654,巴中市,圣泉水务公司,,49,49,35,33,23,70,,101,98,26,24,4,4,0.5,0.5
2024-04-26T2000,3616A,106.7616,31.8344,巴中市,市中心医院,颗粒物(PM10),51,52,38,32,24,64,,104,101,24,17,6,6,0.5,0.4
2024-04-26T2000,2235A,122.7911,45.6077,白城市,洮北区环保局,,36,36,17,6,6,82,,98,96,5,5,3,4,0.1,0.1
2024-04-26T2000,2236A,122.8738,45.5725,白城市,市环保局,,36,36,31,8,6,80,,100,97,14,13,5,6,0.2,0.2
2024-04-26T2000,2231A,126.4219,41.9171,白山市,喜丰,颗粒物(PM10),73,95,77,37,29,159,,164,163,11,18,12,11,1.3,1.3
2024-04-26T2000,2232A,126.4077,41.9419,白山市,环保局,颗粒物(PM10),71,92,66,34,28,159,,159,158,19,26,10,10,0.7,0.8
2024-04-26T2000,2647A,104.1724,36.5446,白银市,第三小学,颗粒物(PM10),87,123,98,44,41,122,,97,97,20,28,12,89,0.7,0.8
2024-04-26T2000,2648A,104.1465,36.5482,白银市,动力公司,颗粒物(PM10),79,107,82,37,35,121,,123,123,16,22,16,31,0.6,0.4
2024-04-26T2000,2512A,106.6103,23.9011,百色市,市监测站,颗粒物(PM10),56,62,37,38,24,121,,139,139,11,11,6,8,0.8,0.7
2024-04-26T2000,2513A,106.6538,23.8859,百色市,市中心血站,颗粒物(PM10),56,62,40,38,24,109,,124,124,12,14,4,9,0.8,0.8
2024-04-26T2000,3406A,106.6085,23.8798,百色市,祈福高中,细颗粒物(PM2.5),59,62,44,42,26,115,,134,134,8,11,8,11,0.8,0.7
2024-04-26T2000,2270A,117.396,32.939,蚌埠市,工人疗养院,颗粒物(PM10),59,68,87,28,39,164,,188,188,14,28,8,12,0.4,0.5
2024-04-26T2000,2271A,117.3605,32.9427,蚌埠市,百货大楼,颗粒物(PM10),60,70,92,35,43,164,,196,196,22,27,5,8,0.5,0.6
2024-04-26T2000,2273A,117.4185,32.8911,蚌埠市,蚌埠学院,颗粒物(PM10),64,78,76,43,43,111,,168,163,48,25,13,11,0.6,0.6
2024-04-26T2000,2274A,117.3533,32.9673,蚌埠市,淮上区政府,臭氧1小时,58,63,88,32,46,166,,188,188,12,28,7,11,0.5,0.6
2024-04-26T2000,2275A,117.3145,32.8977,蚌埠市,高新区,颗粒物(PM10),59,68,83,39,45,143,,186,184,38,19,15,9,0.4,0.5
2024-04-26T2000,3715A,117.3092,32.9314,蚌埠市,蚌埠田家炳中学,臭氧1小时,73,62,91,32,45,178,,201,201,8,14,7,10,0.5,0.6
2024-04-26T2000,1585A,109.8756,40.6532,包头市,市环境监测站,颗粒物(PM10),55,60,98,18,31,92,,103,103,32,45,10,13,0.7,0.7
2024-04-26T2000,1587A,109.9991,40.5842,包头市,包头八中,颗粒物(PM10),61,72,122,40,60,80,,98,98,34,53,10,15,0.7,0.8
2024-04-26T2000,1588A,109.8538,40.6821,包头市,青山宾馆,颗粒物(PM10),59,67,97,20,33,85,,100,100,24,37,12,14,0.7,0.8
2024-04-26T2000,1589A,109.8642,40.6288,包头市,惠龙物流,颗粒物(PM10),51,51,99,18,31,89,,102,102,31,45,15,15,0.5,0.6
2024-04-26T2000,1590A,110.0377,40.5546,包头市,东河鸿龙湾,,48,48,102,14,27,75,,97,97,26,38,8,10,0.5,0.7
2024-04-26T2000,3283A,109.9154,40.5685,包头市,滨河大厦,,45,45,93,12,28,99,,103,103,15,41,10,13,0.5,0.7
2024-04-26T2000,3419A,109.9447,40.6261,包头市,包头市委党校,颗粒物(PM10),55,60,93,24,25,95,,106,106,27,42,13,14,0.5,0.5
2024-04-26T2000,3683A,109.8331,40.6576,包头市,昆区政府,颗粒物(PM10),53,55,93,26,36,87,,98,98,36,40,15,15,0.9,0.6
2024-04-26T2000,1930A,107.185,34.3063,宝鸡市,庙沟村,颗粒物(PM10),56,61,52,21,12,84,,139,133,57,22,9,9,0.6,0.7
2024-04-26T2000,1931A,107.0708,34.3017,宝鸡市,竹园沟,颗粒物(PM10),57,63,38,30,16,108,,162,157,17,15,5,5,0.5,0.4
2024-04-26T2000,1932A,107.1906,34.3672,宝鸡市,三陆医院,颗粒物(PM10),56,61,62,32,26,139,,162,161,38,34,6,8,0.6,0.5
2024-04-26T2000,1933A,107.1431,34.3547,宝鸡市,监测站,颗粒物(PM10),58,66,50,35,23,96,,160,152,32,28,8,7,0.6,0.5
2024-04-26T2000,1934A,107.1186,34.3739,宝鸡市,技工学校,颗粒物(PM10),51,51,50,26,22,144,,172,170,32,22,6,8,0.8,0.6
2024-04-26T2000,1935A,107.3906,34.3528,宝鸡市,陈仓区环保局家属楼,颗粒物(PM10),72,94,61,37,25,123,,163,162,51,30,6,6,0.5,0.4
2024-04-26T2000,1936A,107.2058,34.3497,宝鸡市,文理学院,颗粒物(PM10),58,66,56,32,20,125,,170,166,45,25,6,6,0.5,0.4
2024-04-26T2000,1937A,107.2386,34.3622,宝鸡市,三迪小学,颗粒物(PM10),54,57,61,37,23,128,,160,158,56,34,11,8,0.7,0.6
2024-04-26T2000,1051A,115.493,38.8632,保定市,游泳馆,颗粒物(PM10),124,197,181,62,51,133,,163,163,9,15,5,7,0.3,0.1
2024-04-26T2000,1052A,115.5213,38.8959,保定市,华电二区,细颗粒物(PM2.5),90,115,121,67,41,134,,161,161,22,25,4,5,0.7,0.6
2024-04-26T2000,1053A,115.4713,38.9108,保定市,接待中心,颗粒物(PM10),94,138,106,48,40,121,,167,166,22,16,4,6,0.7,0.6
2024-04-26T2000,1054A,115.4612,38.8416,保定市,地表水厂,颗粒物(PM10),117,184,145,75,56,151,,174,174,16,24,3,5,0.7,1
2024-04-26T2000,3581A,115.31981,38.95208,保定市,满城区生态环境分局,颗粒物(PM10),84,117,145,56,49,107,,153,150,10,20,2,4,0.3,0.3
2024-04-26T2000,3582A,115.47694,38.76408,保定市,清苑区第二中学,颗粒物(PM10),117,184,149,57,46,138,,170,170,22,21,5,5,0.5,0.4
2024-04-26T2000,3583A,115.62909,39.02311,保定市,徐水物探局,颗粒物(PM10),97,144,152,68,51,100,,159,155,23,21,7,9,0.4,0.3
2024-04-26T2000,4004A,115.4202,38.8656,保定市,双鹰农机,颗粒物(PM10),82,114,127,52,36,145,,178,178,16,18,5,8,0.4,0.4
2024-04-26T2000,4034A,115.5150,38.8590,保定市,植保所站,颗粒物(PM10),84,117,126,53,43,144,,175,172,19,25,6,6,0.5,0.6
2024-04-26T2000,2594A,99.1678,25.1081,保山市,市环境监测站,颗粒物(PM10),58,65,57,23,27,154,,153,153,7,10,8,8,0.6,0.8
2024-04-26T2000,2595A,99.1711,25.1328,保山市,市环保局,颗粒物(PM10),56,62,58,30,31,157,,151,151,4,7,8,8,0.5,0.6
2024-04-26T2000,1867A,109.1436,21.4086,北海市,海滩公园,颗粒物(PM10),71,92,49,20,13,74,,78,78,9,7,6,6,0.8,0.6
2024-04-26T2000,1868A,109.0981,21.4661,北海市,新市环保局,,40,40,36,19,15,85,,83,83,8,6,5,5,0.6,0.5
2024-04-26T2000,1869A,109.1778,21.5233,北海市,北海工业园,,39,39,41,24,19,78,,77,77,11,7,8,7,0.6,0.5
2024-04-26T2000,3400A,109.1911,21.4415,北海市,龙潭自来水厂,,45,40,33,31,18,72,,78,78,10,5,4,4,0.6,0.5
2024-04-26T2000,1001A,116.3621,39.8784,北京市,万寿西宫,颗粒物(PM10),106,162,166,67,80,105,,141,137,40,54,2,3,0.8,0.8
2024-04-26T2000,1003A,116.4174,39.9289,北京市,东四,颗粒物(PM10),114,178,221,70,84,114,,141,140,40,54,4,5,0.9,0.8
2024-04-26T2000,1004A,116.4072,39.8863,北京市,天坛,颗粒物(PM10),93,136,130,67,70,114,,148,146,36,35,3,3,0.7,0.7
2024-04-26T2000,1005A,116.462,39.9365,北京市,农展馆,细颗粒物(PM2.5),107,153,169,80,76,101,,135,133,36,55,2,2,0.7,0.8
2024-04-26T2000,1006A,116.3392,39.9295,北京市,官园,颗粒物(PM10),108,166,190,72,79,97,,127,127,41,46,3,3,0.7,0.6
2024-04-26T2000,1007A,116.2878,39.9611,北京市,海淀万柳,颗粒物(PM10),114,178,186,59,74,65,,104,101,56,66,4,5,0.8,0.8
2024-04-26T2000,1008A,116.6636,40.135,北京市,顺义新城,颗粒物(PM10),109,167,156,67,63,101,,140,138,31,28,3,3,0.6,0.6
2024-04-26T2000,1009A,116.6275,40.3275,北京市,怀柔镇,颗粒物(PM10),95,140,137,65,59,107,,129,126,24,20,3,4,0.5,0.5
2024-04-26T2000,1010A,116.2296,40.217,北京市,昌平镇,颗粒物(PM10),121,192,157,89,64,48,,82,78,60,38,3,2,0.7,0.5
2024-04-26T2000,1011A,116.3966,39.9821,北京市,奥体中心,颗粒物(PM10),102,154,172,67,78,104,,129,129,38,59,2,3,0.8,0.8
2024-04-26T2000,1012A,116.184,39.9136,北京市,古城,颗粒物(PM10),118,186,182,79,77,77,,112,110,54,57,1,2,0.8,0.7
2024-04-26T2000,3281A,115.9718,40.4529,北京市,延庆夏都,颗粒物(PM10),54,58,147,27,63,106,,117,116,12,16,3,2,0.4,0.5
2024-04-26T2000,3417A,117.0709,40.1465,北京市,平谷新城,颗粒物(PM10),97,143,156,59,64,176,,186,186,21,15,2,3,0.7,0.6
2024-04-26T2000,3418A,116.8336,40.4095,北京市,密云新城,颗粒物(PM10),94,137,142,65,58,107,,146,142,37,28,2,2,0.6,0.6
2024-04-26T2000,3672A,116.1541,39.8204,北京市,丰台云岗,"颗粒物(PM10),细颗粒物(PM2.5)",113,175,168,85,73,53,,121,112,40,27,1,2,0.8,0.7
2024-04-26T2000,3673A,116.6804,39.9081,北京市,通州东关,颗粒物(PM10),106,162,176,65,75,89,,157,151,41,35,2,3,0.6,0.6
2024-04-26T2000,3674A,115.9577,39.7603,北京市,房山燕山,细颗粒物(PM2.5),97,140,128,72,61,91,,134,127,37,38,1,1,0.7,0.6
2024-04-26T2000,3675A,116.4672,39.7733,北京市,大兴旧宫,颗粒物(PM10),97,143,143,64,64,106,,147,144,34,44,1,2,0.7,0.7
2024-04-26T2000,3694A,115.986,40.4563,北京市,延庆石河营,颗粒物(PM10),51,52,133,25,62,103,,117,116,11,15,3,3,0.4,0.5
2024-04-26T2000,3695A,116.6151,40.3053,北京市,怀柔新城,颗粒物(PM10),90,129,134,61,58,119,,134,133,14,16,3,3,0.7,0.6
2024-04-26T2000,3696A,116.2545,39.8768,北京市,丰台小屯,颗粒物(PM10),114,177,182,83,84,79,,120,117,42,47,3,3,0.8,0.7
2024-04-26T2000,3697A,116.84,40.3844,北京市,密云镇,颗粒物(PM10),100,149,143,53,56,103,,132,128,37,40,1,2,0.6,0.6
2024-04-26T2000,1761A,123.8275,41.3064,本溪市,大峪,,50,50,52,17,18,155,,156,156,10,14,10,9,0.6,0.6
2024-04-26T2000,1762A,123.7567,41.3325,本溪市,溪湖,颗粒物(PM10),51,51,56,18,25,140,,143,143,17,17,12,13,0.7,0.9
2024-04-26T2000,1763A,123.7169,41.3094,本溪市,彩屯,颗粒物(PM10),58,65,66,30,32,127,,133,133,32,31,26,25,2.2,2.5
2024-04-26T2000,1764A,123.7669,41.2864,本溪市,东明,颗粒物(PM10),58,65,53,20,19,142,,142,142,18,14,9,9,0.6,0.6
2024-04-26T2000,1765A,123.7992,41.2664,本溪市,新立屯,颗粒物(PM10),54,58,45,18,18,149,,147,147,15,11,12,11,0.8,0.8
2024-04-26T2000,1766A,123.8142,41.3472,本溪市,威宁,颗粒物(PM10),58,65,56,18,20,118,,122,122,23,19,7,7,0.7,0.7
2024-04-26T2000,2587A,105.2864,27.3125,毕节市,八中,,41,41,34,24,22,105,,128,127,15,12,8,7,0.5,0.4
2024-04-26T2000,2588A,105.31,27.2944,毕节市,师专,,37,37,36,24,22,109,,124,124,19,14,16,8,0.5,0.5
2024-04-26T2000,3537A,105.3631,27.3533,毕节市,长征村,,36,26,40,18,27,114,,136,135,9,10,7,6,0.3,0.3
2024-04-26T2000,1629A,118.0018,37.3617,滨州市,第二水厂,颗粒物(PM10),70,90,101,31,35,171,,198,198,30,39,12,15,0.9,0.9
2024-04-26T2000,1630A,117.9776,37.393,滨州市,北中新校,颗粒物(PM10),64,78,89,29,30,118,,197,190,60,34,12,18,1.1,0.9
2024-04-26T2000,3514A,117.9378,37.3956,滨州市,中海酒店,颗粒物(PM10),64,78,80,31,36,144,,211,206,39,25,12,18,0.8,0.6
2024-04-26T2000,3515A,117.9378,37.3553,滨州市,开发区一中,颗粒物(PM10),98,146,100,34,41,134,,182,180,48,40,16,25,0.9,0.9
2024-04-26T2000,3516A,118.0917,37.694,滨州市,金海六路,颗粒物(PM10),76,102,99,46,36,159,,229,222,30,34,12,17,0.6,0.7
2024-04-26T2000,4028A,117.9956,37.3753,滨州市,滨州市西街道办事处,颗粒物(PM10),79,107,97,46,43,110,,190,183,47,34,12,19,1.2,0.9
2024-04-26T2000,2311A,115.8072,33.8399,亳州市,污水处理厂,颗粒物(PM10),63,75,93,25,33,132,,162,158,14,16,12,13,0.4,0.4
2024-04-26T2000,2312A,115.7789,33.8518,亳州市,三国揽胜宫,颗粒物(PM10),60,69,100,29,31,137,,156,154,13,14,8,9,0.5,0.6
2024-04-26T2000,3332A,115.7633,33.8034,亳州市,亳州学院,颗粒物(PM10),59,67,99,23,31,142,,158,156,9,9,10,11,0.5,0.5
2024-04-26T2000,2693A,82.0485,44.8556,博尔塔拉蒙古自治州,市党校,,30,29,46,10,14,93,,85,85,5,4,6,6,0.2,0.2
2024-04-26T2000,2694A,82.0806,44.8969,博尔塔拉蒙古自治州,市环保局,,,32,48,12,12,84,,78,78,7,6,9,8,,0.3
2024-04-26T2000,1071A,116.8842,38.2991,沧州市,沧县城建局,颗粒物(PM10),76,101,93,33,25,115,,150,146,31,16,3,6,0.6,0.5
2024-04-26T2000,1072A,116.8584,38.3254,沧州市,电视转播站,颗粒物(PM10),62,74,100,27,31,120,,151,148,16,11,5,8,0.3,0.3
2024-04-26T2000,1073A,116.8709,38.3228,沧州市,市环保局,,,97,95,,22,125,,155,152,24,14,9,11,0.5,0.4
2024-04-26T2000,3324A,116.8136,38.3004,沧州市,河北水利电力学院,颗粒物(PM10),65,80,102,28,33,103,,151,145,40,17,10,12,0.3,0.3
2024-04-26T2000,2622A,97.1806,31.1273,昌都市,昌都监测站,,41,,18,18,10,131,,141,141,7,12,8,8,0.6,0.6
2024-04-26T2000,3719A,97.1714,31.1406,昌都市,昌都会议中心,,,21,10,16,9,,,148,148,5,7,8,8,0.3,0.4
2024-04-26T2000,2690A,88.1236,43.8886,昌吉回族自治州,天山天池,,25,,8,6,5,77,,72,72,5,6,4,4,0.4,0.4
2024-04-26T2000,2692A,87.2717,44.0297,昌吉回族自治州,新区政务中心,,29,22,31,7,13,90,,89,89,11,9,6,6,0.4,0.4
2024-04-26T2000,3613A,87.3095,44.0142,昌吉回族自治州,亚心广场,,29,22,33,2,5,90,,93,93,11,9,6,6,0.4,0.4
2024-04-26T2000,1119A,125.3325,43.9166,长春市,食品厂,细颗粒物(PM2.5),210,,63,160,50,82,,108,106,46,29,15,10,0.8,0.4
2024-04-26T2000,1120A,125.2863,43.9027,长春市,客车厂,细颗粒物(PM2.5),199,,57,149,44,89,,100,96,48,31,12,7,0.8,0.4
2024-04-26T2000,1121A,125.2841,43.8463,长春市,邮电学院,细颗粒物(PM2.5),123,107,56,93,35,93,,105,104,40,26,12,9,0.6,0.3
2024-04-26T2000,1122A,125.3716,43.8772,长春市,劳动公园,细颗粒物(PM2.5),129,137,58,98,36,92,,112,109,52,30,11,7,0.7,0.3
2024-04-26T2000,1123A,125.3297,43.8805,长春市,园林处,细颗粒物(PM2.5),180,,49,136,39,91,,105,104,44,27,14,10,0.8,0.4
2024-04-26T2000,1124A,125.4605,43.79,长春市,净月潭,细颗粒物(PM2.5),112,84,55,84,38,90,,117,114,22,16,10,9,0.5,0.3
2024-04-26T2000,1127A,125.245,43.7783,长春市,高新区管委会,细颗粒物(PM2.5),107,96,55,80,32,66,,102,95,43,27,7,8,0.5,0.3
2024-04-26T2000,1128A,125.1761,43.8325,长春市,岱山公园,细颗粒物(PM2.5),110,131,60,83,39,16,,99,84,105,39,11,8,0.8,0.5
2024-04-26T2000,1335A,113.0833,28.2325,长沙市,经开区环保局,颗粒物(PM10),51,51,50,34,47,146,,166,166,25,23,5,6,0.6,0.6
2024-04-26T2000,1336A,112.8872,28.2189,长沙市,高开区环保局,,49,45,54,27,41,155,,154,154,9,14,4,5,0.9,1.1
2024-04-26T2000,1337A,113.0792,28.2053,长沙市,马坡岭,,44,44,50,28,36,127,,150,150,17,15,6,6,0.6,0.7
2024-04-26T2000,1338A,112.9394,28.19,长沙市,湖南师范大学,颗粒物(PM10),56,61,55,30,41,98,,151,149,18,14,3,3,0.9,1
2024-04-26T2000,1339A,113.0178,28.1322,长沙市,雨花区环保局,,43,42,46,25,31,137,,144,144,18,24,5,4,0.8,0.9
2024-04-26T2000,1340A,112.9792,28.2597,长沙市,伍家岭,细颗粒物(PM2.5),57,60,64,40,48,117,,164,164,40,28,4,5,1.2,1.1
2024-04-26T2000,1341A,113.0014,28.1944,长沙市,火车新站,细颗粒物(PM2.5),73,59,53,53,41,101,,144,144,48,35,2,3,1.1,1.1
2024-04-26T2000,1342A,112.9844,28.1178,长沙市,天心区环保局,,31,31,59,18,31,98,,119,119,32,32,2,2,0.3,0.5
2024-04-26T2000,1343A,112.8908,28.1308,长沙市,湖南中医药大学,,47,47,47,23,38,66,,132,127,46,18,8,7,1.2,1.3
2024-04-26T2000,1344A,112.9581,28.3611,长沙市,沙坪,颗粒物(PM10),82,113,87,41,29,95,,155,151,13,12,6,6,1.0,0.8
2024-04-26T2000,1727A,113.1147,36.1547,长治市,清华站,颗粒物(PM10),59,68,71,22,25,156,,164,164,14,20,10,10,0.6,0.6
2024-04-26T2000,1728A,113.1031,36.1989,长治市,监测站,颗粒物(PM10),58,66,73,22,26,159,,167,167,16,21,13,13,0.5,0.6
2024-04-26T2000,1730A,113.0886,36.2125,长治市,审计局,颗粒物(PM10),56,62,66,17,26,162,,166,166,14,18,13,13,0.3,0.4
2024-04-26T2000,1731A,113.0844,36.1856,长治市,长治八中,颗粒物(PM10),64,78,99,32,34,161,,168,168,28,31,8,9,0.5,0.6
2024-04-26T2000,2845A,113.1569,36.1911,长治市,德盛苑,颗粒物(PM10),54,58,64,22,25,162,,167,167,13,14,6,6,0.5,0.5
2024-04-26T2000,3568A,113.06,36.0464,长治市,向阳小学,颗粒物(PM10),65,80,92,33,33,164,,172,172,15,17,14,14,0.5,0.6
2024-04-26T2000,3569A,112.8792,36.3144,长治市,屯留一中,颗粒物(PM10),59,68,68,28,23,148,,169,168,13,21,11,10,0.5,0.6
2024-04-26T2000,3570A,113.235,36.3489,长治市,潞城四中,颗粒物(PM10),92,134,107,26,38,162,,173,173,13,29,6,9,0.4,0.6
2024-04-26T2000,1854A,111.6975,28.9703,常德市,市二中,,42,42,43,24,29,103,,128,128,19,16,7,10,0.4,0.5
2024-04-26T2000,3138A,111.7153,29.0289,常德市,武陵区永安,,43,43,44,24,28,112,,126,126,10,11,7,7,0.3,0.4
2024-04-26T2000,3139A,111.6892,28.9881,常德市,鼎城区玉霞,,45,45,42,24,20,70,,129,126,55,22,8,11,0.4,0.5
2024-04-26T2000,3140A,111.6625,29.0531,常德市,武陵区长庚,,38,38,44,24,30,119,,129,129,9,13,8,9,0.5,0.6
2024-04-26T2000,1196A,119.9633,31.762,常州市,市监测站,颗粒物(PM10),79,107,69,33,26,78,,149,144,43,33,9,10,0.6,0.6
2024-04-26T2000,1200A,119.9468,31.7069,常州市,武进监测站,颗粒物(PM10),69,87,61,34,22,70,,145,139,51,35,10,9,0.8,0.6
2024-04-26T2000,1201A,119.9255,31.9087,常州市,安家,颗粒物(PM10),76,102,61,41,25,78,,131,128,46,30,12,9,1.0,0.6
2024-04-26T2000,3002A,119.9805,31.8174,常州市,行政中心,颗粒物(PM10),69,87,58,34,23,84,,143,139,37,32,9,9,0.4,0.3
2024-04-26T2000,3003A,120.0522,31.7748,常州市,经开区,颗粒物(PM10),72,94,60,29,22,77,,137,130,43,35,8,8,0.6,0.4
2024-04-26T2000,3010A,119.9025,31.7964,常州市,钟楼,颗粒物(PM10),68,85,60,33,23,78,,149,143,44,31,9,9,1.0,0.8
2024-04-26T2000,3429A,119.8598,31.7066,常州市,武进经发区,颗粒物(PM10),68,86,62,44,30,73,,157,150,51,33,10,8,1.2,0.7
2024-04-26T2000,3430A,119.5826,31.7245,常州市,金坛城区,颗粒物(PM10),54,58,58,26,26,156,,189,189,21,25,8,8,0.6,0.6
2024-04-26T2000,2220A,120.4318,41.5881,朝阳市,西梁,细颗粒物(PM2.5),87,107,54,64,40,27,,104,90,66,17,14,14,1.2,0.7
2024-04-26T2000,2221A,120.4521,41.5646,朝阳市,河畔小区,细颗粒物(PM2.5),73,94,77,53,43,62,,108,101,46,16,11,13,0.9,0.7
2024-04-26T2000,2222A,120.4176,41.5648,朝阳市,八里堡,,,135,80,51,39,40,,106,92,61,20,10,12,,0.8
2024-04-26T2000,2223A,120.3806,41.5969,朝阳市,农业园区,颗粒物(PM10),64,77,75,45,44,46,,102,85,43,19,8,10,0.7,0.6
2024-04-26T2000,1705A,116.6367,23.6719,潮州市,西园路,,47,47,17,30,13,57,,71,71,20,16,5,6,0.2,0.3
2024-04-26T2000,3026A,116.6183,23.6608,潮州市,市政府,,27,27,20,11,12,68,,82,82,22,20,6,9,1.0,0.9
2024-04-26T2000,4036A,116.6461,23.6761,潮州市,金山,,33,25,18,23,14,53,,73,73,19,15,8,7,0.6,0.7
2024-04-26T2000,2472A,113.0073,25.9061,郴州市,马头岭,,49,49,30,9,12,55,,46,,31,18,5,6,0.3,0.5
2024-04-26T2000,2473A,113.0116,25.8226,郴州市,市职中,,25,22,22,12,13,80,,114,112,10,8,3,5,0.7,0.7
2024-04-26T2000,2474A,113.0161,25.8001,郴州市,兴隆步行街,,35,27,23,24,15,92,,112,112,10,10,5,7,0.6,0.7
2024-04-26T2000,2475A,113.0383,25.8071,郴州市,市审计局,,28,21,18,19,12,85,,112,111,12,11,4,6,0.6,0.6
2024-04-26T2000,2476A,113.0348,25.7759,郴州市,市环保局,,36,30,20,25,14,63,,106,102,25,13,3,5,0.7,0.7
2024-04-26T2000,1431A,103.9728,30.7236,成都市,金泉两河,细颗粒物(PM2.5),83,79,67,61,42,134,,165,165,29,35,2,2,0.7,0.7
2024-04-26T2000,1432A,104.176,30.6872,成都市,十里店,细颗粒物(PM2.5),67,65,57,48,36,152,,167,167,21,33,4,4,0.7,0.8
2024-04-26T2000,1433A,104.079,30.5706,成都市,三瓦窑,颗粒物(PM10),59,67,62,40,43,135,,156,156,20,36,3,2,0.6,0.6
2024-04-26T2000,1434A,104.1114,30.63,成都市,沙河铺,颗粒物(PM10),55,59,55,36,37,112,,145,145,26,24,1,3,0.5,0.5
2024-04-26T2000,1437A,104.0786,30.6531,成都市,君平街,细颗粒物(PM2.5),69,80,63,50,42,167,,180,180,20,28,4,4,0.6,0.6
2024-04-26T2000,1438A,103.613,31.0283,成都市,灵岩寺,,47,34,24,32,21,150,,138,138,12,12,3,9,0.6,0.5
2024-04-26T2000,2880A,104.0239,30.65639,成都市,大石西路,颗粒物(PM10),65,80,63,45,40,156,,181,181,17,30,3,4,0.5,0.5
2024-04-26T2000,3136A,104.2725,30.5589,成都市,龙泉驿区区政府,,46,46,38,29,26,93,,139,136,19,10,3,3,0.5,0.4
2024-04-26T2000,3357A,104.0106,30.6931,成都市,金博路,细颗粒物(PM2.5),92,82,66,68,46,155,,162,162,24,30,6,7,0.7,0.7
2024-04-26T2000,3359A,104.0578,30.5225,成都市,华阳,细颗粒物(PM2.5),55,46,56,39,44,124,,149,149,16,20,1,2,0.9,0.7
2024-04-26T2000,3487A,104.2394,30.5319,成都市,车城东七路,,44,44,49,29,35,101,,142,140,34,18,4,5,0.6,0.5
2024-04-26T2000,3488A,104.3853,30.7453,成都市,青白江技师分院,,39,35,35,27,24,94,,138,135,35,16,2,3,0.7,0.5
2024-04-26T2000,3489A,104.0789,30.4072,成都市,科学城,,47,39,51,28,41,149,,147,147,13,16,1,2,0.5,0.6
2024-04-26T2000,4011A,103.8506,30.6947,成都市,光华大道三段,颗粒物(PM10),60,69,70,40,46,128,,153,153,27,31,1,2,0.6,0.7
2024-04-26T2000,1062A,117.9531,40.9081,承德市,铁路,颗粒物(PM10),58,66,111,34,40,63,,106,100,33,27,7,8,0.5,0.5
2024-04-26T2000,1063A,117.9392,40.9763,承德市,中国银行,细颗粒物(PM2.5),75,87,117,55,42,62,,103,91,26,28,8,9,0.7,0.5
2024-04-26T2000,1064A,117.9503,40.928,承德市,开发区,颗粒物(PM10),64,77,112,34,40,66,,108,102,32,28,8,8,0.7,0.6
2024-04-26T2000,1065A,117.8051,40.9655,承德市,文化中心,颗粒物(PM10),69,88,136,43,43,88,,110,99,20,27,7,9,0.6,0.5
2024-04-26T2000,1066A,117.9268,41.0026,承德市,离宫,细颗粒物(PM2.5),70,86,109,51,45,41,,102,83,19,18,1,2,0.6,0.5
2024-04-26T2000,2314A,117.47,30.6618,池州市,池州学院,细颗粒物(PM2.5),64,69,57,46,35,164,,170,170,27,20,11,9,0.7,0.7
2024-04-26T2000,3237A,117.4918,30.6617,池州市,展览馆,"颗粒物(PM10),细颗粒物(PM2.5)",64,77,62,46,36,149,,162,162,32,18,14,6,0.7,0.6
2024-04-26T2000,3333A,117.5627,30.695,池州市,第八中学,颗粒物(PM10),59,67,60,41,35,147,,171,171,32,16,7,5,0.8,0.6
2024-04-26T2000,3334A,117.5038,30.6243,池州市,第十二中学,臭氧1小时,58,62,64,38,38,166,,172,172,19,20,7,6,0.8,0.8
2024-04-26T2000,1744A,118.9233,42.2816,赤峰市,松山一中,颗粒物(PM10),52,54,43,10,13,49,,70,67,41,27,10,10,0.8,0.6
2024-04-26T2000,1745A,118.9576,42.2728,赤峰市,哈达街,颗粒物(PM10),51,51,42,25,12,45,,72,70,44,25,13,12,0.8,0.6
2024-04-26T2000,1746A,118.8788,42.2554,赤峰市,天义路,,45,45,28,3,9,53,,73,70,32,23,7,9,0.4,0.3
2024-04-26T2000,3058A,119.2658,42.0353,赤峰市,银河街,颗粒物(PM10),55,60,53,20,17,66,,79,76,26,20,19,16,0.7,0.5
2024-04-26T2000,3286A,118.9359,42.3147,赤峰市,桥北物流园区,颗粒物(PM10),54,57,33,26,9,45,,77,70,50,24,37,9,0.6,0.3
2024-04-26T2000,2521A,107.3476,22.4136,崇左市,市环保局江州分局,颗粒物(PM10),55,60,65,37,47,139,,140,140,8,9,9,8,0.6,0.8
2024-04-26T2000,2522A,107.3702,22.3707,崇左市,城南新区,颗粒物(PM10),53,56,61,35,46,134,,138,138,11,8,6,6,0.7,0.7
2024-04-26T2000,2298A,118.3093,32.3153,滁州市,老年大学,,,57,65,28,32,,,184,184,29,35,6,7,0.7,0.7
2024-04-26T2000,2299A,118.3244,32.2786,滁州市,人大宾馆,臭氧1小时,62,55,64,34,34,169,,221,216,20,27,10,10,0.7,0.7
2024-04-26T2000,3207A,118.3118,32.3038,滁州市,市政府原办公楼,"颗粒物(PM10),臭氧1小时",54,58,62,32,35,163,,213,209,29,32,8,9,0.7,0.7
2024-04-26T2000,3331A,118.3267,32.2634,滁州市,图书馆,,50,50,61,28,31,160,,220,216,24,30,10,12,0.8,0.8
2024-04-26T2000,2605A,101.5482,25.0441,楚雄彝族自治州,州环境监测站,,47,47,47,18,27,150,,150,150,5,12,5,8,0.4,0.4
2024-04-26T2000,2606A,101.538,25.0492,楚雄彝族自治州,市经济开发区,颗粒物(PM10),62,73,48,21,26,148,,151,150,9,11,5,7,0.4,0.5
2024-04-26T2000,2548A,107.5277,31.2827,达州市,达州职业技术学院,颗粒物(PM10),62,74,51,17,18,23,,106,98,84,31,6,6,1.0,0.9
2024-04-26T2000,2549A,107.5086,31.2186,达州市,市环境监测站,颗粒物(PM10),63,76,56,39,26,38,,117,111,75,36,7,7,1.0,0.8
2024-04-26T2000,2550A,107.4988,31.2132,达州市,凤凰小区,颗粒物(PM10),68,85,56,39,29,42,,115,109,63,34,8,8,1.2,1
2024-04-26T2000,2551A,107.5082,31.1986,达州市,达县机关宾馆,颗粒物(PM10),60,70,54,32,28,6,,110,100,96,39,4,5,0.9,0.6
2024-04-26T2000,2552A,107.4644,31.2124,达州市,市政中心,颗粒物(PM10),59,67,56,24,27,64,,111,108,45,35,6,10,0.7,1
2024-04-26T2000,2614A,100.1542,25.7054,大理白族自治州,大理市环境监测站,颗粒物(PM10),57,63,49,27,22,160,,152,152,6,9,7,7,0.5,0.5
2024-04-26T2000,2615A,100.2171,25.5811,大理白族自治州,大理古城,细颗粒物(PM2.5),67,70,44,48,23,163,,157,157,9,8,7,6,0.7,0.6
2024-04-26T2000,1109A,121.612,38.9741,大连市,甘井子,颗粒物(PM10),56,62,63,24,25,62,,105,85,52,34,5,5,0.6,0.6
2024-04-26T2000,1110A,121.565,38.9511,大连市,周水子,颗粒物(PM10),53,56,53,20,22,57,,116,95,57,34,9,9,0.7,0.7
2024-04-26T2000,1111A,121.5637,38.8845,大连市,星海三站,,46,46,51,17,22,92,,119,103,38,27,4,5,0.5,0.6
2024-04-26T2000,1112A,121.6302,38.9117,大连市,青泥洼桥,,48,48,57,20,23,84,,130,119,40,22,9,9,0.7,0.7
2024-04-26T2000,1113A,121.6251,38.8638,大连市,傅家庄,,43,43,52,16,22,111,,134,118,31,20,8,8,0.6,0.7
2024-04-26T2000,1114A,121.5213,38.8661,大连市,七贤岭,颗粒物(PM10),53,56,56,17,20,79,,110,94,41,28,9,10,0.7,0.7
2024-04-26T2000,1115A,121.2529,38.8061,大连市,旅顺,,36,36,41,16,20,114,,131,124,26,22,7,8,0.6,0.6
2024-04-26T2000,1116A,121.7485,39.1311,大连市,金州,,44,44,47,19,23,92,,161,152,31,16,7,7,0.7,0.7
2024-04-26T2000,1117A,121.7811,39.0496,大连市,开发区,颗粒物(PM10),54,57,58,23,26,74,,101,94,33,25,4,6,0.6,0.7
2024-04-26T2000,1118A,121.9762,39.0631,大连市,双D港,,36,36,43,13,16,68,,89,81,30,22,10,9,0.7,0.7
2024-04-26T2000,1789A,124.81117,46.03138,大庆市,大同区,,45,45,26,30,20,74,,96,90,17,7,7,6,0.4,0.3
2024-04-26T2000,1790A,125.129,46.533,大庆市,龙凤区,,30,22,25,21,16,88,,95,93,17,16,6,7,0.5,0.4
2024-04-26T2000,1791A,124.902,46.408,大庆市,红岗区,,31,15,24,6,11,98,,94,94,6,11,5,5,0.3,0.3
2024-04-26T2000,1792A,125.153,46.586,大庆市,萨尔图区,,27,20,21,12,9,84,,86,86,12,9,6,7,0.2,0.2
2024-04-26T2000,1793A,124.9042,46.6215,大庆市,让胡路区,,30,18,22,18,16,95,,96,96,7,7,3,6,0.2,0.3
2024-04-26T2000,3481A,125.141,46.634,大庆市,萨区政府监测点,,31,19,23,1,10,97,,94,94,4,11,7,7,0.1,0.2
2024-04-26T2000,1723A,113.2994,40.0758,大同市,云冈宾馆,颗粒物(PM10),60,69,115,27,46,99,,123,116,20,26,5,11,0.6,0.8
2024-04-26T2000,1724A,113.3444,40.0917,大同市,大同大学,颗粒物(PM10),51,52,130,20,47,103,,116,112,14,29,10,18,0.7,1
2024-04-26T2000,1725A,113.2661,40.1269,大同市,安家小村,颗粒物(PM10),52,53,124,23,48,112,,118,114,8,17,7,13,0.2,0.8
2024-04-26T2000,1726A,113.2711,40.0844,大同市,教育学院,颗粒物(PM10),57,64,125,24,45,104,,126,118,22,38,5,14,0.3,0.6
2024-04-26T2000,3282A,113.3397,40.0597,大同市,大同市卫生学校,颗粒物(PM10),56,62,113,20,37,102,,117,111,21,39,6,12,0.4,0.7
2024-04-26T2000,3565A,113.1367,40.1122,大同市,云冈站,,48,48,92,24,42,103,,123,117,10,28,8,17,0.4,0.5
2024-04-26T2000,3566A,113.1186,40.2556,大同市,图书馆,颗粒物(PM10),55,60,90,27,40,101,,124,120,14,14,11,14,0.4,0.6
2024-04-26T2000,3567A,113.5931,40.0461,大同市,区一中,颗粒物(PM10),57,64,145,14,47,107,,137,130,22,26,5,14,0.4,0.6
2024-04-26T2000,2269A,124.1069,50.4097,大兴安岭地区,科技局,,26,,11,18,14,74,,80,80,3,3,5,6,0.3,0.3
2024-04-26T2000,1600A,124.3303,40.0625,丹东市,江湾东路,颗粒物(PM10),73,95,55,34,26,116,,141,137,21,21,10,12,0.7,1
2024-04-26T2000,1601A,124.4256,40.1503,丹东市,临江后街,,45,45,31,17,14,136,,147,145,13,13,9,8,0.8,0.8
2024-04-26T2000,1602A,124.3933,40.1461,丹东市,元宝山,,41,41,30,17,14,120,,140,138,21,17,8,9,0.4,0.5
2024-04-26T2000,1603A,124.3633,40.1092,丹东市,民主桥,颗粒物(PM10),51,52,34,17,13,120,,137,135,18,17,14,11,0.7,0.7
2024-04-26T2000,3541A,109.5726,19.5167,儋州市,第一中学子站,颗粒物(PM10),61,72,48,31,29,119,,123,123,12,8,5,5,0.6,0.6
2024-04-26T2000,3542A,109.5567,19.5187,儋州市,东坡学校子站,细颗粒物(PM2.5),58,53,46,41,29,119,,126,126,10,8,5,4,0.7,0.6
2024-04-26T2000,2616A,98.5842,24.428,德宏傣族景颇族自治州,德宏州监测站,颗粒物(PM10),89,128,89,34,40,149,,162,162,22,27,2,3,0.5,0.6
2024-04-26T2000,3677A,98.5881,24.4368,德宏傣族景颇族自治州,芒市人民政府综合楼,颗粒物(PM10),77,104,73,29,42,148,,156,156,14,16,5,8,0.5,0.6
2024-04-26T2000,1901A,104.4239,31.1208,德阳市,东山公园,,45,45,51,27,27,124,,141,140,7,12,2,3,0.4,0.5
2024-04-26T2000,1902A,104.3826,31.1317,德阳市,西小区,,49,48,56,34,33,115,,143,143,20,27,2,3,0.6,0.6
2024-04-26T2000,1904A,104.3553,31.1091,德阳市,耐火材料厂,细颗粒物(PM2.5),63,63,59,45,32,139,,164,164,25,25,3,6,0.6,0.5
2024-04-26T2000,3639A,104.4019,31.1244,德阳市,市教育局,,43,37,46,30,29,99,,134,132,15,21,2,3,0.5,0.5
2024-04-26T2000,1622A,116.3032,37.4674,德州市,儿童乐园,颗粒物(PM10),74,97,119,31,33,172,,186,186,18,17,8,10,0.8,0.8
2024-04-26T2000,1624A,116.2991,37.4451,德州市,监理站,颗粒物(PM10),69,88,114,29,36,172,,188,187,16,15,16,17,0.6,0.6
2024-04-26T2000,3066A,116.2721,37.4379,德州市,九衢泉纯净水厂,颗粒物(PM10),76,102,103,27,37,157,,176,175,19,19,8,9,0.8,0.8
2024-04-26T2000,3371A,116.3728,37.4403,德州市,开发区人民医院,颗粒物(PM10),67,83,114,27,33,157,,188,186,29,17,9,11,0.7,0.7
2024-04-26T2000,3372A,116.3572,37.4094,德州市,太阳城中学,颗粒物(PM10),64,78,107,29,41,159,,183,181,13,12,8,10,0.6,0.7
2024-04-26T2000,3511A,116.5652,37.3319,德州市,陵城艺术中心,颗粒物(PM10),73,95,102,19,31,160,,171,171,12,14,6,7,0.5,0.6
2024-04-26T2000,2621A,99.7056,27.8317,迪庆藏族自治州,迪庆州站,,45,24,47,12,25,144,,142,142,12,15,7,9,0.5,0.5
2024-04-26T2000,3180A,99.7136,27.8094,迪庆藏族自治州,质量技术监督局,,44,21,36,8,19,138,,134,134,12,14,6,7,0.5,0.5
2024-04-26T2000,2663A,104.6241,35.5734,定西市,东关小学,,,130,71,38,24,136,,125,125,,17,6,4,0.3,0.3
2024-04-26T2000,2664A,104.6194,35.5934,定西市,供电公司,颗粒物(PM10),80,110,62,50,31,129,,119,119,9,19,5,3,0.2,0.2
2024-04-26T2000,1389A,113.7547,23.0494,东莞市,莞城梨川,,34,34,28,16,17,29,,96,85,30,31,7,8,0.9,0.9
2024-04-26T2000,1390A,113.7944,23.0128,东莞市,东城石井,,32,32,30,17,15,24,,102,84,32,27,6,6,0.7,0.8
2024-04-26T2000,1391A,113.7383,22.9658,东莞市,南城西平,,32,32,25,18,12,36,,89,81,23,27,9,9,0.6,0.7
2024-04-26T2000,3319A,113.7338,23.0381,东莞市,万江金泰,,35,35,27,20,16,24,,88,77,28,28,9,9,0.8,0.8
2024-04-26T2000,3626A,113.7533,23.0202,东莞市,南城元岭,,33,33,25,18,15,21,,89,78,29,29,7,7,0.8,0.8
2024-04-26T2000,3627A,113.7875,23.0457,东莞市,东城主山,,41,41,31,21,18,20,,96,81,37,29,8,9,0.9,0.9
2024-04-26T2000,1666A,118.6614,37.4309,东营市,市环保局,颗粒物(PM10),59,68,84,27,34,164,,210,206,20,28,10,15,0.5,0.5
2024-04-26T2000,3036A,118.6904,37.4338,东营市,开发区管委会,颗粒物(PM10),64,77,81,24,38,157,,201,197,26,30,6,10,0.5,0.6
2024-04-26T2000,3365A,118.5719,37.565,东营市,垦利区民丰路,颗粒物(PM10),70,90,83,36,30,173,,207,206,24,33,12,12,0.8,0.8
2024-04-26T2000,3498A,118.5055,37.8612,东营市,河口城区,臭氧1小时,87,90,92,32,46,189,,218,216,17,23,8,9,0.6,0.6
2024-04-26T2000,3646A,118.4978,37.4623,东营市,胜利站,颗粒物(PM10),69,87,81,22,31,155,,200,196,30,34,10,11,0.7,0.7
2024-04-26T2000,3734A,118.35,37.26,东营市,理想之城,颗粒物(PM10),65,80,82,22,33,150,,200,196,24,32,12,12,0.8,0.8
2024-04-26T2000,1591A,110.0023,39.8129,鄂尔多斯市,综合楼,颗粒物(PM10),59,68,103,22,37,88,,106,103,28,33,3,7,0.5,0.5
2024-04-26T2000,1592A,109.9486,39.8261,鄂尔多斯市,巴音孟克林场办事处,颗粒物(PM10),57,63,103,36,35,88,,109,104,26,30,11,9,0.6,0.7
2024-04-26T2000,1593A,109.7736,39.5986,鄂尔多斯市,康泽苑,,48,48,72,29,28,104,,122,119,16,21,4,5,0.4,0.5
2024-04-26T2000,1594A,109.8119,39.5989,鄂尔多斯市,华泰汽车城,颗粒物(PM10),51,51,78,31,32,74,,109,104,36,40,7,8,0.5,0.5
2024-04-26T2000,1595A,109.9734,39.7884,鄂尔多斯市,奥林花园,颗粒物(PM10),57,63,98,22,27,43,,108,96,70,43,6,7,0.7,0.6
2024-04-26T2000,2436A,114.8938,30.3994,鄂州市,市政府,,43,43,57,17,24,112,,140,140,14,14,9,10,0.6,0.6
2024-04-26T2000,2437A,114.8989,30.3714,鄂州市,赵家坝,,50,50,54,30,27,92,,136,133,20,10,8,9,0.7,0.7
2024-04-26T2000,3654A,114.8094,30.4089,鄂州市,精准医疗中心,颗粒物(PM10),61,71,75,30,32,112,,134,134,29,25,7,12,0.7,1
2024-04-26T2000,2454A,109.4978,30.2981,恩施土家族苗族自治州,湖北民院,,40,33,36,28,23,78,,114,114,22,19,8,7,0.5,0.5
2024-04-26T2000,2455A,109.4707,30.2798,恩施土家族苗族自治州,州电力总公司,,36,28,34,25,24,66,,106,106,30,27,8,8,0.6,0.6
2024-04-26T2000,3549A,109.5061,30.3772,恩施土家族苗族自治州,龙凤新区,,34,34,31,15,19,68,,119,118,15,13,6,6,0.6,0.6
2024-04-26T2000,2499A,108.3411,21.6158,防城港市,沙万,,48,48,43,19,25,50,,64,61,18,12,2,2,0.5,0.6
2024-04-26T2000,2500A,108.3514,21.7731,防城港市,防城档案局,颗粒物(PM10),52,53,49,29,30,70,,83,78,8,8,4,4,0.6,0.6
2024-04-26T2000,2501A,108.3506,21.6414,防城港市,大海花园,,44,44,40,22,22,63,,72,69,12,9,4,5,0.6,0.6
2024-04-26T2000,1371A,113.1294,23.0067,佛山市,湾梁,,39,39,29,17,14,49,,92,90,43,34,10,9,0.4,0.3
2024-04-26T2000,1372A,113.1083,23.0478,佛山市,华材职中,,39,39,30,21,15,54,,108,106,40,36,10,10,0.6,0.5
2024-04-26T2000,1373A,113.144,23.0453,佛山市,南海气象局,,39,39,34,26,16,52,,104,102,38,32,7,7,0.6,0.5
2024-04-26T2000,1374A,113.2881,22.8094,佛山市,顺德苏岗,,35,,22,24,16,69,,76,74,19,34,5,5,0.6,0.6
2024-04-26T2000,1376A,112.8383,22.8678,佛山市,高明孔堂,颗粒物(PM10),51,52,31,20,16,72,,125,122,18,22,7,8,0.5,0.5
2024-04-26T2000,1377A,112.8836,23.1588,佛山市,三水监测站,,34,34,32,23,21,67,,130,128,43,42,5,6,0.7,0.7
2024-04-26T2000,1378A,112.867,23.185,佛山市,三水云东海,,32,32,36,19,19,71,,142,139,27,37,4,5,0.6,0.6
2024-04-26T2000,3625A,113.2544,22.7642,佛山市,容桂街道办,,25,19,27,14,14,77,,80,80,22,33,2,3,0.5,0.6
2024-04-26T2000,1282A,119.2681,26.0504,福州市,师大,"颗粒物(PM10),细颗粒物(PM2.5)",52,54,41,36,47,90,,88,88,16,18,4,8,0.9,0.9
2024-04-26T2000,1283A,119.2984,26.1028,福州市,五四北路,,,,35,36,48,95,,97,97,25,24,3,3,1.1,0.7
2024-04-26T2000,1284A,119.2648,26.0768,福州市,杨桥西路,细颗粒物(PM2.5),55,52,41,39,44,93,,93,93,21,20,3,3,0.8,0.8
2024-04-26T2000,1285A,119.317,26.0746,福州市,紫阳,,48,43,41,33,50,94,,88,88,17,23,3,3,0.7,0.8
2024-04-26T2000,3048A,119.5799,26.0936,福州市,九龙,,41,41,35,28,34,62,,110,107,16,16,4,4,0.7,0.7
2024-04-26T2000,3526A,119.5189,25.9664,福州市,吴航,细颗粒物(PM2.5),64,63,56,46,43,76,,106,106,21,19,4,4,1.1,0.8
2024-04-26T2000,1755A,123.7977,41.8491,抚顺市,望花区,细颗粒物(PM2.5),87,109,70,64,35,104,,162,151,38,22,13,15,0.8,0.6
2024-04-26T2000,1756A,123.9161,41.8822,抚顺市,顺城区,颗粒物(PM10),84,117,70,60,34,95,,163,150,52,22,11,10,0.9,0.6
2024-04-26T2000,1757A,124.0436,41.8611,抚顺市,东洲区,细颗粒物(PM2.5),110,134,65,83,36,86,,157,143,43,14,9,6,1.3,0.8
2024-04-26T2000,1758A,123.9247,41.8642,抚顺市,新抚区,颗粒物(PM10),74,97,58,32,27,97,,147,136,38,16,15,14,0.9,0.7
2024-04-26T2000,1759A,124.0972,41.8961,抚顺市,大伙房水库,细颗粒物(PM2.5),87,95,53,64,32,97,,156,148,30,12,11,7,1.2,0.7
2024-04-26T2000,1760A,123.7086,41.8391,抚顺市,沈抚新城,细颗粒物(PM2.5),99,114,64,74,33,94,,151,141,43,19,12,8,1.1,0.7
2024-04-26T2000,2376A,116.2127,28.0814,抚州市,桐源党溪,,35,31,37,24,20,32,,74,69,4,9,5,8,0.8,0.7
2024-04-26T2000,2377A,116.3544,27.9831,抚州市,市站,,38,36,31,26,18,56,,81,80,46,19,4,4,1.2,0.9
2024-04-26T2000,2378A,116.3565,27.963,抚州市,血防站,,38,36,33,26,18,75,,89,89,16,17,1,2,1.2,1.1
2024-04-26T2000,2379A,116.3564,28.0007,抚州市,采茶剧团,,35,35,31,21,16,65,,84,83,18,19,3,3,1.2,1
2024-04-26T2000,2380A,116.385,27.9647,抚州市,医学分院,,38,38,32,21,15,70,,81,81,21,20,3,4,1.3,1.3
2024-04-26T2000,2207A,121.6094,41.998,阜新市,工业园区,颗粒物(PM10),75,100,78,37,29,117,,142,142,27,20,24,20,1.0,0.8
2024-04-26T2000,2208A,121.6697,42.0279,阜新市,长青街,颗粒物(PM10),71,91,87,40,34,125,,133,133,22,19,7,17,0.8,0.8
2024-04-26T2000,2209A,121.6673,42.0705,阜新市,农业园区,颗粒物(PM10),94,138,96,63,50,109,,120,118,29,20,8,11,0.8,0.7
2024-04-26T2000,2210A,121.6717,42.0224,阜新市,东苑,颗粒物(PM10),74,97,78,32,30,133,,137,137,23,22,9,18,0.7,0.7
2024-04-26T2000,2211A,121.6506,42.0498,阜新市,玉龙新城,颗粒物(PM10),71,91,77,32,28,105,,124,121,25,22,9,15,0.9,0.8
2024-04-26T2000,2301A,115.8277,32.8929,阜阳市,市监测站,颗粒物(PM10),59,68,99,39,47,134,,167,163,25,42,7,8,0.5,0.5
2024-04-26T2000,2303A,115.8554,32.8605,阜阳市,开发区,颗粒物(PM10),69,88,117,32,46,153,,163,162,21,43,7,6,0.4,0.5
2024-04-26T2000,3468A,115.7901,32.8613,阜阳市,市规划展馆,颗粒物(PM10),56,62,100,35,42,139,,164,160,21,15,6,6,0.5,0.5
2024-04-26T2000,3469A,115.836,32.9183,阜阳市,枣园社区,细颗粒物(PM2.5),69,55,105,50,47,147,,167,163,20,39,10,7,0.5,0.5
2024-04-26T2000,2669A,102.9099,34.9841,甘南藏族自治州,州政府,,42,41,37,29,22,109,,117,116,15,25,10,10,0.6,0.5
2024-04-26T2000,3380A,102.8914,34.9617,甘南藏族自治州,甘肃民族师范学院,,37,33,40,22,16,117,,121,121,9,25,9,11,0.5,0.5
2024-04-26T2000,2570A,101.9603,30.0475,甘孜藏族自治州,水桥子,,45,45,18,23,8,58,,126,120,65,28,3,3,0.8,0.4
2024-04-26T2000,3065A,101.9533,29.9972,甘孜藏族自治州,州环保局,,38,20,18,5,6,120,,136,135,18,22,2,2,0.3,0.3
2024-04-26T2000,3414A,115.8347,28.932,赣江新区,桑海产业园,,48,48,32,24,19,57,,97,93,43,24,7,7,0.7,0.7
2024-04-26T2000,2363A,114.9367,25.8664,赣州市,地委,,39,39,29,16,16,71,,110,105,13,15,3,10,0.9,1
2024-04-26T2000,2364A,114.9461,25.8481,赣州市,气象台,,31,31,28,18,18,56,,114,105,20,15,3,11,0.5,0.5
2024-04-26T2000,2365A,114.9322,25.8333,赣州市,市图书馆,,25,25,24,13,15,72,,117,111,10,15,17,22,1.1,1
2024-04-26T2000,2366A,114.8905,25.8471,赣州市,华坚鞋城,,33,32,32,23,18,77,,112,106,9,15,7,15,0.6,0.7
2024-04-26T2000,3109A,115.0093,25.8613,赣州市,赣县区卫计委,,31,31,21,5,13,59,,112,105,18,16,11,10,0.7,0.6
2024-04-26T2000,2683A,106.2319,36.1417,固原市,马园,颗粒物(PM10),117,183,63,50,21,101,,126,122,20,31,5,6,0.3,0.4
2024-04-26T2000,2684A,106.2792,36.0022,固原市,监测站,颗粒物(PM10),54,57,44,14,19,125,,129,129,13,15,3,3,0.3,0.3
2024-04-26T2000,2685A,106.2375,36.0211,固原市,新区,颗粒物(PM10),60,69,49,16,16,125,,131,131,11,11,2,2,0.2,0.2
2024-04-26T2000,3522A,106.2177,35.9959,固原市,原州区十五小,颗粒物(PM10),70,89,48,29,21,127,,137,137,11,9,3,2,0.1,0.1
2024-04-26T2000,2544A,106.6303,30.4576,广安市,市委,,49,43,56,34,35,122,,132,132,24,23,7,7,0.7,0.7
2024-04-26T2000,2545A,106.6271,30.4663,广安市,友谊中学,颗粒物(PM10),51,51,54,28,30,126,,135,135,22,24,6,6,0.7,0.7
2024-04-26T2000,2547A,106.6388,30.4551,广安市,广电花园,,47,47,49,25,28,121,,133,133,24,20,9,8,0.7,0.7
2024-04-26T2000,2902A,106.6351,30.4865,广安市,北辰小学,颗粒物(PM10),52,53,53,34,28,124,,133,133,14,16,9,8,0.7,0.7
2024-04-26T2000,2523A,105.8945,32.4535,广元市,黑石坡,,32,24,19,6,15,101,,102,102,12,10,13,13,0.3,0.3
2024-04-26T2000,2524A,105.821,32.4444,广元市,老城,,25,22,29,17,12,77,,94,94,20,26,4,6,0.6,0.7
2024-04-26T2000,2526A,105.8628,32.4287,广元市,监测站,,29,29,29,14,16,89,,101,101,10,11,4,7,0.4,0.5
2024-04-26T2000,3617A,105.8047,32.4166,广元市,经开区,,29,28,42,16,24,90,,99,99,10,22,6,13,0.4,0.6
2024-04-26T2000,1345A,113.2347,23.1423,广州市,广雅中学,,46,46,29,30,19,47,,111,103,64,43,6,5,0.9,0.9
2024-04-26T2000,1346A,113.2612,23.105,广州市,市五中,颗粒物(PM10),57,64,35,32,20,51,,112,111,48,33,7,7,0.9,0.7
2024-04-26T2000,1348A,113.3478,23.0916,广州市,广东商学院,,,,31,,17,,,115,115,,38,,4,,0.6
2024-04-26T2000,1349A,113.4332,23.1047,广州市,市八十六中,颗粒物(PM10),54,58,32,32,17,17,,103,98,86,45,6,5,0.9,0.6
2024-04-26T2000,1350A,113.3505,22.9483,广州市,番禺中学,,29,28,22,20,10,16,,93,83,45,34,4,4,0.7,0.7
2024-04-26T2000,1351A,113.2146,23.3916,广州市,花都师范,,50,50,36,30,21,95,,111,111,28,43,5,6,0.8,0.7
2024-04-26T2000,1352A,113.2597,23.1331,广州市,市监测站,,49,49,29,29,16,43,,98,97,61,40,6,6,0.7,0.5
2024-04-26T2000,1353A,113.5618,23.312,广州市,九龙镇镇龙,,46,46,30,32,19,105,,99,99,25,30,6,6,0.7,0.7
2024-04-26T2000,1354A,113.2765,23.1544,广州市,麓湖,,50,50,30,30,18,50,,105,105,48,34,6,5,0.8,0.7
2024-04-26T2000,1355A,113.443,23.3035,广州市,帽峰山森林公园,,38,38,25,23,13,99,,116,113,13,20,5,5,0.7,0.6
2024-04-26T2000,2846A,113.3221,23.1322,广州市,体育西,,,52,31,33,17,43,,102,101,,33,6,6,0.8,0.7
2024-04-26T2000,3298A,113.5717,23.5491,广州市,从化街口,颗粒物(PM10),52,54,25,35,16,108,,102,102,21,21,4,4,0.7,0.5
2024-04-26T2000,3299A,113.3472,23.3692,广州市,白云竹料,"颗粒物(PM10),细颗粒物(PM2.5)",59,67,35,42,21,107,,104,104,30,35,6,6,0.7,0.6
2024-04-26T2000,3300A,113.2981,23.237,广州市,白云嘉禾,颗粒物(PM10),54,57,34,34,20,74,,111,111,51,46,5,5,1.0,0.9
2024-04-26T2000,3301A,113.4256,23.1716,广州市,黄埔科学城,,45,45,35,30,22,52,,96,96,50,47,6,5,1.1,0.9
2024-04-26T2000,3302A,113.3942,23.0483,广州市,番禺大学城,,34,34,26,5,13,20,,91,84,52,53,8,7,0.8,0.8
2024-04-26T2000,3303A,113.4922,22.8168,广州市,南沙黄阁,,30,26,24,21,12,28,,79,66,40,30,6,5,0.7,0.7
2024-04-26T2000,3304A,113.5342,22.7896,广州市,南沙街,,32,32,21,14,9,13,,72,57,40,27,6,6,0.6,0.6
2024-04-26T2000,3443A,113.2902,23.5544,广州市,花都梯面,,,47,27,33,17,,,135,135,13,22,2,5,0.7,0.7
2024-04-26T2000,3445A,113.7858,23.7478,广州市,从化良口,,26,26,18,18,12,67,,110,105,10,10,4,4,0.5,0.5
2024-04-26T2000,3446A,113.8051,23.2614,广州市,增城荔城,,48,48,23,30,21,91,,135,135,23,22,6,6,0.6,0.6
2024-04-26T2000,2506A,109.6047,23.0666,贵港市,江南子站,,45,36,50,31,35,110,,128,128,16,14,8,8,1.1,0.5
2024-04-26T2000,2507A,109.6014,23.0948,贵港市,贵城子站,,48,38,54,33,36,109,,121,121,11,13,6,7,0.6,0.6
2024-04-26T2000,2508A,109.5669,23.1065,贵港市,荷城子站,,41,41,48,27,27,100,,110,110,12,11,9,9,0.6,0.5
2024-04-26T2000,3405A,109.5886,23.1172,贵港市,新世纪学校,,48,44,48,33,28,107,,124,124,12,13,8,9,0.8,0.7
2024-04-26T2000,1439A,106.6899,26.5998,贵阳市,马鞍山,,39,36,32,27,17,106,,124,124,18,14,9,11,0.4,0.5
2024-04-26T2000,1440A,106.6971,26.5694,贵阳市,市环保站,颗粒物(PM10),68,85,40,38,30,75,,130,128,78,22,6,6,0.9,0.7
2024-04-26T2000,1441A,106.6243,26.6266,贵阳市,鉴湖路,,48,48,45,31,26,130,,127,127,15,14,8,6,0.2,0.5
2024-04-26T2000,1442A,106.7487,26.6343,贵阳市,燕子冲,,41,41,35,22,22,131,,133,133,10,13,10,9,0.4,0.5
2024-04-26T2000,1443A,106.6555,26.4365,贵阳市,碧云窝,,44,44,33,24,20,113,,131,131,11,13,5,5,0.3,0.6
2024-04-26T2000,1444A,106.694,26.5161,贵阳市,中院村,细颗粒物(PM2.5),77,88,42,56,27,77,,116,116,51,21,9,9,1.1,0.5
2024-04-26T2000,1445A,106.7109,26.6027,贵阳市,红边门,细颗粒物(PM2.5),62,68,42,44,33,96,,133,133,50,22,9,7,0.7,0.5
2024-04-26T2000,1446A,106.7164,26.5699,贵阳市,新华路,颗粒物(PM10),60,70,34,41,27,95,,134,134,45,16,7,7,0.7,0.5
2024-04-26T2000,1447A,106.674,26.5424,贵阳市,太慈桥,,46,46,29,19,18,54,,116,112,54,18,7,8,0.6,0.5
2024-04-26T2000,1862A,110.4144,25.3167,桂林市,电子科大尧山校区,,28,28,20,18,12,40,,86,76,12,5,4,5,1.0,0.9
2024-04-26T2000,1863A,110.2819,25.2697,桂林市,监测站,,48,48,27,26,21,48,,107,98,48,13,4,5,1.0,0.8
2024-04-26T2000,1864A,110.3089,25.2708,桂林市,龙隐路小学,,26,26,23,17,19,53,,96,88,14,12,4,8,0.7,0.6
2024-04-26T2000,1865A,110.2869,25.2178,桂林市,八中,,50,50,26,22,16,32,,100,88,46,14,4,6,1.0,0.8
2024-04-26T2000,3403A,110.1764,25.2381,桂林市,创业大厦,,,46,27,27,21,73,,110,107,20,11,,17,0.9,0.7
2024-04-26T2000,3531A,110.296,25.1253,桂林市,旅游学院,,24,22,16,14,12,76,,96,94,11,8,6,7,0.8,0.8
2024-04-26T2000,2674A,100.2561,34.4714,果洛藏族自治州,玛沁县大武镇,颗粒物(PM10),62,74,32,31,19,99,,112,109,25,12,21,11,0.5,0.5
2024-04-26T2000,1129A,126.5422,45.755,哈尔滨市,岭北,细颗粒物(PM2.5),97,79,32,72,20,84,,116,112,30,16,14,17,0.4,0.2
2024-04-26T2000,1130A,126.561,45.8167,哈尔滨市,松北商大,颗粒物(PM10),75,99,38,51,18,77,,106,101,32,18,10,5,0.6,0.4
2024-04-26T2000,1131A,126.979,45.5419,哈尔滨市,阿城会宁,"颗粒物(PM10),细颗粒物(PM2.5)",75,99,62,55,31,80,,119,115,30,20,16,13,0.7,0.6
2024-04-26T2000,1132A,126.599,45.7222,哈尔滨市,南岗学府路,细颗粒物(PM2.5),100,91,40,75,18,92,,115,112,28,13,13,9,0.8,0.5
2024-04-26T2000,1133A,126.689,45.7733,哈尔滨市,太平宏伟公园,细颗粒物(PM2.5),77,90,38,56,18,80,,114,110,34,12,9,6,0.6,0.3
2024-04-26T2000,1134A,126.635,45.7667,哈尔滨市,道外承德广场,细颗粒物(PM2.5),80,85,36,59,19,79,,99,96,37,24,10,6,0.6,0.3
2024-04-26T2000,1135A,126.685,45.7319,哈尔滨市,香坊红旗大街,细颗粒物(PM2.5),79,81,40,58,19,90,,114,112,30,16,6,4,0.6,0.4
2024-04-26T2000,1136A,126.6411,45.7258,哈尔滨市,动力和平路,细颗粒物(PM2.5),100,90,39,75,14,104,,115,114,31,18,9,5,0.6,0.4
2024-04-26T2000,1137A,126.593,45.7478,哈尔滨市,道里建国路,,,93,39,,19,87,,104,102,32,20,8,4,0.5,0.2
2024-04-26T2000,1138A,126.615,45.61,哈尔滨市,平房东轻厂,颗粒物(PM10),70,90,55,45,25,55,,109,101,60,29,8,8,0.5,0.3
2024-04-26T2000,1139A,126.595,45.9855,哈尔滨市,呼兰师专,细颗粒物(PM2.5),102,96,48,76,30,68,,110,103,29,17,7,6,0.6,0.4
2024-04-26T2000,1140A,126.6206,45.6842,哈尔滨市,省农科院,细颗粒物(PM2.5),74,82,47,54,25,96,,119,117,29,26,12,9,0.7,0.5
2024-04-26T2000,2688A,93.5128,42.8172,哈密市,地区监测站,,,28,38,5,17,95,,95,95,11,12,8,5,,0.3
2024-04-26T2000,2689A,93.4961,42.8328,哈密市,哈密师范学校,,29,23,36,8,18,91,,93,93,10,11,4,5,0.4,0.5
2024-04-26T2000,2671A,100.9048,36.9639,海北藏族自治州,海晏县西海镇,颗粒物(PM10),113,176,87,45,27,121,,115,115,5,9,19,15,0.3,0.4
2024-04-26T2000,3867A,102.0738,36.5056,海东市,平安区公安北苑,,43,43,53,15,22,113,,109,109,19,20,14,12,0.6,0.7
2024-04-26T2000,1410A,110.3232,20.0574,海口市,海南大学,,36,36,33,22,23,84,,111,111,11,11,5,5,0.5,0.5
2024-04-26T2000,1411A,110.283,20.0053,海口市,秀英海南医院,,42,42,39,29,23,78,,120,120,18,19,5,5,0.5,0.5
2024-04-26T2000,1412A,110.338,19.9969,海口市,海南师范大学,,38,38,49,26,24,82,,118,118,8,10,6,6,0.5,0.5
2024-04-26T2000,1413A,110.33,20.0356,海口市,龙华路环保局宿舍,,41,41,36,25,22,78,,109,108,11,10,6,6,0.4,0.3
2024-04-26T2000,3539A,110.5111,19.9736,海口市,桂林洋子站,,,36,37,26,21,,,111,111,15,10,5,6,0.4,0.3
2024-04-26T2000,2673A,100.6188,36.2866,海南藏族自治州,共和县恰卜恰镇,颗粒物(PM10),111,172,80,70,28,112,,115,115,12,12,8,9,0.8,0.8
2024-04-26T2000,2676A,97.3731,37.3753,海西蒙古族藏族自治州,德令哈市,颗粒物(PM10),79,107,131,18,29,138,,139,139,6,6,9,10,0.6,0.6
2024-04-26T2000,1048A,114.5302,36.6116,邯郸市,东污水处理厂,颗粒物(PM10),67,83,97,29,39,114,,144,142,12,8,6,7,0.2,0.4
2024-04-26T2000,1049A,114.4918,36.5713,邯郸市,矿院,颗粒物(PM10),53,55,72,24,32,125,,143,143,10,14,6,8,0.4,0.5
2024-04-26T2000,1050A,114.484,36.6133,邯郸市,丛台公园,颗粒物(PM10),60,70,80,28,33,129,,145,145,7,12,5,8,0.3,0.4
2024-04-26T2000,3458A,114.7895,36.5593,邯郸市,香泉濮院小区,颗粒物(PM10),71,92,102,28,32,133,,150,150,9,8,7,8,0.2,0.3
2024-04-26T2000,3579A,114.50634,36.77178,邯郸市,永年区实验高中,颗粒物(PM10),62,74,98,39,38,153,,171,171,10,17,7,10,1.1,0.6
2024-04-26T2000,3580A,114.20016,36.44293,邯郸市,峰峰矿区临水派出所,,,,95,,33,,,,,,15,,14,,1
2024-04-26T2000,2634A,106.9893,33.1842,汉中市,汉川机床厂子校,,37,37,26,18,14,70,,116,113,11,10,4,7,0.3,0.3
2024-04-26T2000,2635A,107.0154,33.0706,汉中市,市监测站,,41,41,44,23,25,94,,124,123,26,24,8,11,0.7,0.7
2024-04-26T2000,2636A,107.0089,33.1138,汉中市,鑫源开发区,,43,33,35,30,21,84,,129,127,27,21,8,13,0.6,0.6
2024-04-26T2000,2637A,107.007,33.0323,汉中市,南郑大河坎水厂,,31,31,44,18,24,99,,127,125,15,17,7,8,0.7,0.7
2024-04-26T2000,1223A,120.2072,30.2111,杭州市,滨江,颗粒物(PM10),57,64,53,28,22,122,,150,150,25,23,4,5,0.6,0.6
2024-04-26T2000,1224A,120.0633,30.2747,杭州市,西溪,颗粒物(PM10),55,59,51,38,34,120,,142,142,29,21,6,6,0.6,0.6
2024-04-26T2000,1226A,120.3461,30.3153,杭州市,下沙,颗粒物(PM10),54,58,58,34,34,117,,142,142,25,28,5,6,0.5,0.5
2024-04-26T2000,1227A,120.1269,30.2456,杭州市,卧龙桥,颗粒物(PM10),51,51,48,33,33,125,,155,155,25,23,5,4,0.6,0.6
2024-04-26T2000,1228A,120.1903,30.2692,杭州市,浙江农大,,46,46,46,27,27,106,,137,137,30,27,6,6,0.5,0.6
2024-04-26T2000,1230A,120.1197,30.3119,杭州市,和睦小学,颗粒物(PM10),56,62,60,33,32,124,,145,145,21,21,8,7,0.6,0.6
2024-04-26T2000,1231A,120.3019,30.4183,杭州市,临平镇,细颗粒物(PM2.5),62,62,67,44,45,109,,138,138,25,29,5,5,0.6,0.6
2024-04-26T2000,1232A,120.2697,30.1819,杭州市,城厢镇,细颗粒物(PM2.5),57,60,52,40,36,113,,137,137,32,28,6,5,0.6,0.6
2024-04-26T2000,1233A,120.0883,30.1808,杭州市,云栖,,,,65,25,27,128,,150,150,27,28,7,7,0.5,0.6
2024-04-26T2000,3557A,119.9464,30.0494,杭州市,镇二中,颗粒物(PM10),52,54,41,30,26,125,,136,136,30,24,7,7,0.7,0.8
2024-04-26T2000,3558A,119.7183,30.2367,杭州市,市府大楼,"颗粒物(PM10),细颗粒物(PM2.5)",59,68,50,42,29,132,,134,134,33,22,5,5,0.7,0.7
2024-04-26T2000,3656A,120.1556,30.2864,杭州市,消防大队,颗粒物(PM10),56,62,51,35,29,110,,131,131,27,27,8,8,0.7,0.7
2024-04-26T2000,1270A,117.1959,31.7848,合肥市,明珠广场,颗粒物(PM10),64,78,99,41,54,141,,174,173,33,36,8,10,0.8,0.9
2024-04-26T2000,1271A,117.3072,31.8764,合肥市,三里街,颗粒物(PM10),54,58,101,36,51,133,,160,158,24,46,6,9,0.5,0.6
2024-04-26T2000,1272A,117.2588,31.8707,合肥市,琥珀山庄,颗粒物(PM10),51,51,93,22,38,135,,168,166,19,32,4,6,0.8,0.8
2024-04-26T2000,1273A,117.1604,31.9052,合肥市,董铺水库,颗粒物(PM10),56,61,98,24,42,156,,180,178,16,26,1,4,0.5,0.6
2024-04-26T2000,1274A,117.25,31.8571,合肥市,长江中路,颗粒物(PM10),62,73,100,31,49,136,,172,169,25,30,6,9,0.7,0.7
2024-04-26T2000,1275A,117.266,31.9436,合肥市,庐阳区,颗粒物(PM10),56,61,110,34,51,135,,174,170,31,45,4,6,0.4,0.5
2024-04-26T2000,1276A,117.336,31.8586,合肥市,瑶海区,颗粒物(PM10),59,68,106,33,48,127,,160,157,26,51,8,10,0.7,0.8
2024-04-26T2000,1277A,117.3027,31.7964,合肥市,包河区,颗粒物(PM10),73,95,100,44,49,108,,164,159,48,45,9,10,0.4,0.4
2024-04-26T2000,1278A,117.2776,31.7385,合肥市,滨湖新区,细颗粒物(PM2.5),70,80,82,51,46,165,,176,176,17,19,8,10,0.7,0.6
2024-04-26T2000,1279A,117.1318,31.8403,合肥市,高新区,颗粒物(PM10),57,63,96,31,52,134,,175,171,26,32,8,10,0.9,0.9
2024-04-26T2000,3464A,117.3803,31.9147,合肥市,高教基地,颗粒物(PM10),52,53,77,25,41,138,,160,158,23,36,7,8,0.5,0.5
2024-04-26T2000,3614A,79.924,37.0877,和田地区,地区环保局,颗粒物(PM10),97,144,135,35,29,128,,128,128,5,10,6,7,0.5,0.6
2024-04-26T2000,3615A,79.9131,37.113,和田地区,市环保局,颗粒物(PM10),73,96,125,27,36,114,,117,117,15,27,6,7,0.5,0.7
2024-04-26T2000,2516A,108.2011,24.715,河池市,东仁乐园,,41,41,37,17,19,14,,25,25,9,7,3,3,0.8,0.8
2024-04-26T2000,2517A,108.0497,24.6947,河池市,市环保站,,28,24,27,16,16,89,,100,100,8,9,8,9,0.6,0.6
2024-04-26T2000,2518A,108.0983,24.6989,河池市,市疾控中心,,,35,28,21,16,,,100,100,17,13,7,8,0.7,0.6
2024-04-26T2000,1697A,114.6944,23.7586,河源市,东埔,,43,43,19,18,9,65,,84,,23,14,6,6,0.8,0.6
2024-04-26T2000,1698A,114.6892,23.7233,河源市,老城,,,28,13,15,6,,,106,106,23,10,6,5,0.7,0.6
2024-04-26T2000,1718A,115.4208,35.2464,菏泽市,气象局,颗粒物(PM10),83,115,108,30,32,141,,158,157,22,20,4,7,0.4,0.4
2024-04-26T2000,1719A,115.4747,35.2375,菏泽市,市政协,颗粒物(PM10),77,103,101,38,36,136,,159,158,18,15,3,6,0.3,0.2
2024-04-26T2000,3374A,115.5564,35.0891,菏泽市,定陶老年大学,颗粒物(PM10),65,80,97,27,29,135,,158,156,14,17,4,6,0.5,0.4
2024-04-26T2000,3647A,115.4702,35.2706,菏泽市,菏泽医专,颗粒物(PM10),76,102,101,27,25,133,,159,157,16,15,4,6,0.4,0.3
2024-04-26T2000,2514A,111.5264,24.4172,贺州市,环保小区,,45,45,26,20,15,82,,101,99,15,12,10,8,0.6,0.6
2024-04-26T2000,2515A,111.5608,24.4078,贺州市,政协大楼,,37,37,30,24,20,81,,105,103,11,12,7,6,0.8,0.6
2024-04-26T2000,3534A,111.4744,24.4553,贺州市,西湾,,28,28,24,17,15,76,,96,94,15,10,6,6,0.5,0.5
2024-04-26T2000,2385A,114.17,35.9019,鹤壁市,市监测站,细颗粒物(PM2.5),72,80,100,52,57,118,,166,166,17,24,5,10,0.5,0.6
2024-04-26T2000,2386A,114.2956,35.7511,鹤壁市,市交警支队,颗粒物(PM10),59,67,90,32,39,117,,154,152,13,15,15,15,0.3,0.4
2024-04-26T2000,2387A,114.2878,35.7306,鹤壁市,迎宾馆,颗粒物(PM10),56,62,97,33,41,111,,155,151,17,17,10,14,0.4,0.4
2024-04-26T2000,3474A,114.2617,35.6822,鹤壁市,大新区,颗粒物(PM10),58,66,100,19,38,104,,150,145,17,20,8,11,0.3,0.4
2024-04-26T2000,3596A,114.1572,35.9603,鹤壁市,南山宾馆,颗粒物(PM10),61,72,109,33,47,126,,167,167,10,17,10,14,0.4,0.6
2024-04-26T2000,2244A,130.2537,47.3416,鹤岗市,哈啤分公司,,38,36,32,26,18,60,,79,76,19,8,15,14,0.7,0.5
2024-04-26T2000,2245A,130.2684,47.3086,鹤岗市,斯达机电,,41,41,44,25,21,67,,82,78,16,13,12,13,0.6,0.5
2024-04-26T2000,2246A,130.3114,47.3388,鹤岗市,东山纸板厂,,30,26,45,21,18,73,,82,81,10,11,14,15,0.4,0.5
2024-04-26T2000,2247A,130.1097,47.3382,鹤岗市,五号水库,,23,22,31,6,9,73,,92,90,8,6,10,11,0.1,0.1
2024-04-26T2000,2264A,127.5144,50.2341,黑河市,环保局,,24,15,11,13,12,74,,87,86,12,7,4,4,0.4,0.3
2024-04-26T2000,2265A,127.5291,50.2472,黑河市,大黑河岛,,,,6,20,9,,,,,15,9,5,5,,
2024-04-26T2000,1074A,115.6838,37.7541,衡水市,电机北厂,细颗粒物(PM2.5),69,83,104,50,37,150,,166,166,15,10,6,7,0.3,0.3
2024-04-26T2000,1075A,115.6303,37.7316,衡水市,市监测站,颗粒物(PM10),65,79,100,43,34,163,,169,169,14,13,5,7,0.6,0.5
2024-04-26T2000,3188A,115.6683,37.7217,衡水市,市城管局,颗粒物(PM10),69,88,96,40,34,150,,166,166,17,13,4,5,0.4,0.3
2024-04-26T2000,3459A,115.5989,37.5491,衡水市,地表水厂,,,104,114,34,34,144,,163,162,,15,6,8,0.7,0.4
2024-04-26T2000,2456A,112.5003,26.9167,衡阳市,原169医院,,35,27,31,24,16,65,,106,106,37,13,4,4,0.7,0.7
2024-04-26T2000,2457A,112.6194,26.9258,衡阳市,衡阳化工总厂,,32,28,39,18,23,102,,128,128,17,16,8,8,0.6,0.8
2024-04-26T2000,2458A,112.6211,26.8956,衡阳市,珠晖区环保局,,37,37,40,21,24,89,,124,124,18,14,6,7,0.8,0.8
2024-04-26T2000,2459A,112.6197,26.8733,衡阳市,市委党校,,29,27,32,13,19,92,,121,121,16,11,8,6,0.7,0.8
2024-04-26T2000,2460A,112.6006,26.8919,衡阳市,市监测站,,46,40,37,32,26,94,,123,123,20,16,7,8,0.9,0.9
2024-04-26T2000,2461A,112.5664,26.9056,衡阳市,真空机电公司,,35,35,37,21,22,92,,116,116,19,16,7,8,0.8,0.9
2024-04-26T2000,3399A,112.6703,26.882,衡阳市,师范学院,,30,30,30,18,22,75,,115,115,13,11,8,8,0.7,0.7
2024-04-26T2000,2608A,103.3772,23.3993,红河哈尼族彝族自治州,污水处理厂,颗粒物(PM10),60,70,50,41,34,132,,151,147,9,12,8,10,0.5,0.4
2024-04-26T2000,2609A,103.3861,23.35,红河哈尼族彝族自治州,监测站,细颗粒物(PM2.5),84,88,52,62,32,131,,151,147,15,12,14,10,0.5,0.4
2024-04-26T2000,3038A,103.3758,23.368,红河哈尼族彝族自治州,州图书馆,颗粒物(PM10),59,68,43,38,29,131,,154,149,10,9,6,7,0.4,0.3
2024-04-26T2000,1090A,111.6507,40.7517,呼和浩特市,呼市一监,颗粒物(PM10),81,112,115,40,45,74,,81,81,29,34,8,7,0.4,0.4
2024-04-26T2000,1091A,111.6572,40.8033,呼和浩特市,小召,颗粒物(PM10),76,102,112,54,53,71,,69,69,31,40,11,9,0.6,0.6
2024-04-26T2000,1094A,111.7516,40.8369,呼和浩特市,如意水处理厂,颗粒物(PM10),76,101,115,46,34,84,,77,77,22,38,11,8,0.5,0.4
2024-04-26T2000,1095A,111.7276,40.8062,呼和浩特市,二十九中,颗粒物(PM10),78,105,114,32,44,85,,77,77,25,35,16,12,0.5,0.4
2024-04-26T2000,1096A,111.5512,40.7866,呼和浩特市,工大金川校区,颗粒物(PM10),81,111,127,42,48,66,,74,74,36,44,11,9,0.4,0.4
2024-04-26T2000,1097A,111.717,40.7612,呼和浩特市,化肥厂生活区,颗粒物(PM10),94,137,139,47,55,70,,74,74,35,39,11,8,0.5,0.4
2024-04-26T2000,3698A,111.5968,40.8178,呼和浩特市,红旗小学,颗粒物(PM10),85,119,131,36,43,57,,73,73,56,46,8,8,0.5,0.4
2024-04-26T2000,3699A,111.6518,40.8389,呼和浩特市,海东办,颗粒物(PM10),80,110,126,48,67,72,,72,72,33,47,11,9,0.4,0.4
2024-04-26T2000,2192A,119.7594,49.2261,呼伦贝尔市,区环保局,,34,34,22,20,18,90,,96,95,11,8,4,4,0.3,0.3
2024-04-26T2000,3061A,119.7512,49.1577,呼伦贝尔市,国华电力东,,30,26,21,9,11,93,,105,96,4,4,3,3,0.2,0.2
2024-04-26T2000,1250A,120.0751,30.8669,湖州市,城西水厂,,39,,52,27,37,120,,150,150,24,33,4,5,0.6,0.6
2024-04-26T2000,2873A,120.0875,30.8955,湖州市,仁皇山新区,,46,46,55,29,35,112,,151,151,34,34,5,6,0.7,0.7
2024-04-26T2000,2907A,120.1844,30.8596,湖州市,吴兴区站,,49,49,58,28,33,107,,144,144,22,26,5,5,0.5,0.4
2024-04-26T2000,3562A,120.4148,30.8538,湖州市,南浔区站,颗粒物(PM10),60,69,50,31,30,106,,134,133,21,24,6,6,0.6,0.4
2024-04-26T2000,1607A,120.9092,40.7136,葫芦岛市,龙港区,臭氧1小时,58,64,91,33,48,166,,154,154,15,23,9,22,0.6,0.8
2024-04-26T2000,1608A,120.8392,40.7514,葫芦岛市,化工街,颗粒物(PM10),68,85,100,36,42,129,,139,139,36,33,18,28,0.5,0.5
2024-04-26T2000,1609A,120.8341,40.7073,葫芦岛市,新区,细颗粒物(PM2.5),55,49,66,39,40,143,,155,155,23,21,8,10,0.7,0.8
2024-04-26T2000,1610A,120.8695,40.7677,葫芦岛市,东城区,颗粒物(PM10),61,71,77,41,51,139,,147,147,34,30,12,19,0.8,0.8
2024-04-26T2000,2482A,109.5981,27.5721,怀化市,林科所,,33,21,22,10,12,103,,121,121,4,4,6,5,0.6,0.7
2024-04-26T2000,2483A,109.9453,27.5444,怀化市,河西地税局,,46,46,28,21,16,65,,106,106,24,13,7,7,0.6,0.5
2024-04-26T2000,2484A,109.9781,27.5342,怀化市,市四医院,,30,30,35,18,23,82,,111,111,22,16,23,13,0.7,0.6
2024-04-26T2000,2485A,109.9972,27.5578,怀化市,监测楼,,48,42,38,33,22,65,,103,102,22,15,17,14,0.6,0.6
2024-04-26T2000,2486A,110.0394,27.583,怀化市,市委党校,,43,43,36,24,23,71,,107,106,21,13,9,14,0.6,0.7
2024-04-26T2000,1210A,119.036,33.5981,淮安市,钵池山,,36,31,44,25,25,103,,124,122,19,24,6,10,0.6,0.6
2024-04-26T2000,1211A,119.007,33.575,淮安市,北京南路,,37,36,49,23,26,118,,140,138,18,27,7,11,0.5,0.5
2024-04-26T2000,1212A,118.989,33.6067,淮安市,市监测站,,38,34,48,19,22,120,,137,136,18,27,6,10,0.5,0.6
2024-04-26T2000,1213A,119.135,33.5039,淮安市,楚州区监测站,,44,44,52,22,26,96,,132,129,29,34,8,10,0.6,0.6
2024-04-26T2000,1214A,119.0186,33.6297,淮安市,淮阴区监测站,,36,36,53,24,28,109,,131,129,28,30,6,8,0.4,0.5
2024-04-26T2000,3426A,118.8755,33.2894,淮安市,新华书店,,38,38,51,18,27,102,,141,139,31,31,6,8,0.4,0.6
2024-04-26T2000,2282A,116.8004,33.975,淮北市,监测站,颗粒物(PM10),59,67,88,27,41,149,,186,180,16,19,6,9,0.5,0.6
2024-04-26T2000,2283A,116.8091,33.9007,淮北市,烈山区政府,颗粒物(PM10),77,103,116,31,41,145,,185,181,20,22,6,11,0.4,0.6
2024-04-26T2000,3330A,116.8873,33.9836,淮北市,杜集区检察院,颗粒物(PM10),57,63,84,35,45,162,,192,190,16,16,9,8,0.6,0.6
2024-04-26T2000,4017A,116.7923,33.9535,淮北市,市博物馆,颗粒物(PM10),61,71,87,26,41,150,,188,182,14,17,6,11,0.6,0.7
2024-04-26T2000,2277A,116.8305,32.7727,淮南市,潘集区政府,细颗粒物(PM2.5),84,103,96,62,46,142,,183,180,19,20,8,10,0.5,0.6
2024-04-26T2000,2278A,117.0067,32.6524,淮南市,师范学院,颗粒物(PM10),67,83,96,43,54,146,,186,180,15,17,8,12,0.3,0.5
2024-04-26T2000,2279A,116.8569,32.5951,淮南市,谢家集区政府,颗粒物(PM10),68,85,90,31,37,135,,179,172,19,27,7,13,0.2,0.4
2024-04-26T2000,2280A,116.8281,32.633,淮南市,八公山区政府,颗粒物(PM10),78,106,108,43,52,136,,196,188,25,22,14,9,0.6,0.5
2024-04-26T2000,2281A,116.6325,32.6201,淮南市,焦岗湖风景区管理处,颗粒物(PM10),53,55,84,17,24,93,,146,143,54,31,4,5,0.3,0.3
2024-04-26T2000,2894A,117.0566,32.6531,淮南市,经济技术开发区消防队,细颗粒物(PM2.5),89,98,83,66,45,122,,180,171,36,23,7,9,0.6,0.6
2024-04-26T2000,3329A,117.0108,32.5893,淮南市,山南新区,颗粒物(PM10),64,77,95,34,44,161,,185,179,18,19,5,7,0.4,0.6
2024-04-26T2000,2446A,114.9028,30.4742,黄冈市,职工中心,颗粒物(PM10),59,67,68,33,39,110,,140,139,18,19,7,10,0.7,0.6
2024-04-26T2000,2929A,114.8858,30.4519,黄冈市,红卫路,颗粒物(PM10),54,58,57,30,32,99,,136,134,21,11,9,11,0.6,0.6
2024-04-26T2000,3398A,114.9136,30.4445,黄冈市,市林业局,颗粒物(PM10),54,58,60,29,43,108,,146,145,19,12,5,6,0.5,0.5
2024-04-26T2000,2672A,102.0199,35.5102,黄南藏族自治州,同仁县隆务镇,颗粒物(PM10),58,65,41,20,14,97,,108,107,4,4,10,6,0.7,0.6
2024-04-26T2000,2295A,118.2903,29.6963,黄山市,延安路89号,,39,39,45,19,12,59,,99,97,11,7,6,6,0.7,0.7
2024-04-26T2000,2296A,118.327,29.7178,黄山市,黄山东路89号,颗粒物(PM10),56,61,33,26,12,34,,97,92,31,8,5,5,0.9,0.6
2024-04-26T2000,2297A,118.1371,30.2756,黄山市,黄山区政府5号楼,颗粒物(PM10),51,52,34,26,22,70,,99,96,9,7,5,4,0.8,0.7
2024-04-26T2000,2423A,115.0601,30.2313,黄石市,沈家营,,42,42,62,20,29,103,,140,140,10,22,15,19,0.7,1
2024-04-26T2000,2424A,115.0817,30.2006,黄石市,陈家湾,颗粒物(PM10),52,53,71,24,33,114,,140,140,16,22,12,14,0.6,0.9
2024-04-26T2000,2426A,114.8988,30.2019,黄石市,铁山,颗粒物(PM10),57,64,66,26,38,117,,147,146,2,17,21,18,0.6,0.9
2024-04-26T2000,2427A,115.0307,30.2092,黄石市,团城山,,48,48,70,12,24,122,,139,139,6,21,8,11,0.5,0.9
2024-04-26T2000,3149A,115.0235,30.1578,黄石市,笔架山北路,,37,37,68,12,25,118,,138,138,10,21,6,9,0.6,0.8
2024-04-26T2000,1392A,114.4183,23.0528,惠州市,河南岸金山湖子站,,,28,18,23,13,,,86,86,16,11,5,4,,0.5
2024-04-26T2000,1393A,114.4053,23.0822,惠州市,下埔横江三路子站,,32,32,21,18,13,64,,92,92,18,13,5,5,0.8,0.7
2024-04-26T2000,1394A,114.4103,23.1142,惠州市,江北云山西路子站,,24,24,18,16,10,65,,98,97,17,11,7,6,0.7,0.7
2024-04-26T2000,1395A,114.4645,22.7833,惠州市,惠阳区承修路船湖子站,,20,18,19,13,12,61,,80,76,16,15,3,3,0.6,0.6
2024-04-26T2000,1396A,114.5317,22.7422,惠州市,大亚湾管委会子站,,26,26,21,13,11,69,,89,88,16,17,5,4,0.8,0.8
2024-04-26T2000,3314A,114.4338,22.8134,惠州市,惠阳秋长,,,19,19,13,11,,,100,100,26,14,8,8,0.7,0.8
2024-04-26T2000,3452A,114.6517,22.775,惠州市,大亚湾霞涌,,22,19,15,15,9,62,,97,95,10,8,5,6,0.6,0.6
2024-04-26T2000,2240A,130.9762,45.3001,鸡西市,环保局,,42,42,59,26,29,91,,89,89,12,9,6,6,0.4,0.4
2024-04-26T2000,2243A,130.9429,45.3039,鸡西市,第一中学,颗粒物(PM10),51,52,59,28,27,104,,109,109,11,8,8,8,0.3,0.3
2024-04-26T2000,3707A,131.0207,45.3073,鸡西市,欧美日汽修厂,颗粒物(PM10),54,57,69,34,34,93,,97,97,17,13,3,5,0.3,0.5
2024-04-26T2000,3709A,130.9967,45.3106,鸡西市,市政设施管理处,颗粒物(PM10),57,64,74,34,31,76,,97,94,25,17,6,7,0.3,0.3
2024-04-26T2000,2367A,114.9754,27.0803,吉安市,红声器材厂,,43,43,28,19,12,75,,90,90,25,17,11,11,0.6,0.6
2024-04-26T2000,2368A,114.9658,27.0999,吉安市,市森林工业局,,46,46,29,30,19,60,,89,88,25,17,11,13,0.7,0.6
2024-04-26T2000,2369A,114.99,27.1312,吉安市,市环境监测站,,43,43,27,26,15,89,,99,99,20,15,12,13,0.9,0.7
2024-04-26T2000,2370A,115.0093,27.0968,吉安市,青原区法院,,49,45,28,34,17,66,,98,94,29,26,13,15,0.6,0.5
2024-04-26T2000,1772A,126.54,43.8622,吉林市,哈达湾,细颗粒物(PM2.5),203,243,116,153,69,93,,142,137,68,29,23,14,1.2,0.8
2024-04-26T2000,1773A,126.5844,43.8358,吉林市,东局子,细颗粒物(PM2.5),170,175,111,129,75,54,,131,119,73,37,11,9,1.3,0.9
2024-04-26T2000,1774A,126.5052,43.8245,吉林市,电力学院,细颗粒物(PM2.5),138,161,95,105,64,88,,141,135,50,28,20,14,1.2,0.8
2024-04-26T2000,1775A,126.6133,43.8972,吉林市,江北,细颗粒物(PM2.5),238,243,119,188,81,71,,141,130,75,39,12,13,1.3,0.9
2024-04-26T2000,1776A,126.555,43.8306,吉林市,江南公园,细颗粒物(PM2.5),144,147,96,110,70,86,,135,129,70,36,16,10,1.1,0.8
2024-04-26T2000,2868A,126.4739,43.953,吉林市,九站,,,,129,,93,63,,124,117,109,40,48,22,2.7,1.1
2024-04-26T2000,1299A,116.9862,36.6114,济南市,科干所,臭氧1小时,94,85,80,32,24,195,,186,186,15,12,9,8,0.8,0.7
2024-04-26T2000,1300A,116.9376,36.665,济南市,农科所,臭氧1小时,82,88,87,39,26,185,,179,179,20,18,7,7,0.7,0.6
2024-04-26T2000,1301A,117.1265,36.6734,济南市,开发区,,,93,72,,30,199,,194,194,26,15,9,9,0.8,0.6
2024-04-26T2000,1303A,117.0624,36.6868,济南市,省种子仓库,臭氧1小时,94,95,88,34,22,195,,186,186,17,14,6,5,0.6,0.4
2024-04-26T2000,1304A,116.9489,36.6447,济南市,机床二厂,臭氧1小时,92,117,104,29,32,193,,188,188,15,13,7,7,0.7,0.6
2024-04-26T2000,1305A,117.0495,36.663,济南市,市监测站,臭氧1小时,97,85,78,22,30,197,,194,194,29,19,14,13,0.5,0.6
2024-04-26T2000,1306A,116.7675,36.5484,济南市,长清党校,臭氧1小时,83,76,89,32,33,186,,190,190,18,14,8,8,0.6,0.5
2024-04-26T2000,1616A,117.6795,36.229,济南市,技术学院,臭氧1小时,98,83,83,34,32,198,,200,200,26,28,16,18,0.8,0.8
2024-04-26T2000,1961A,117.532,36.6868,济南市,东山小学,臭氧1小时,80,88,84,34,29,184,,200,200,24,16,8,8,0.4,0.4
2024-04-26T2000,3059A,117.7161,36.2049,济南市,泰兴公司,颗粒物(PM10),73,95,88,41,37,173,,196,194,45,41,14,16,1.0,0.9
2024-04-26T2000,3064A,117.6867,36.2171,济南市,莱芜战役纪念馆,臭氧1小时,70,85,85,36,32,176,,177,177,29,31,11,15,0.8,0.9
2024-04-26T2000,3494A,117.1673,36.9782,济南市,济阳区政府,颗粒物(PM10),77,103,101,32,29,158,,191,188,42,35,10,10,0.7,0.6
2024-04-26T2000,3495A,117.1171,36.63,济南市,锦屏中学,臭氧1小时,73,85,72,29,22,178,,195,195,18,9,3,8,0.6,0.4
2024-04-26T2000,3682A,116.9814,36.6819,济南市,济南四建,臭氧1小时,88,100,82,32,24,190,,183,183,18,14,8,8,0.6,0.4
2024-04-26T2000,1653A,116.6251,35.4302,济宁市,火炬城,臭氧1小时,73,91,87,24,27,178,,193,193,16,15,8,11,0.7,0.7
2024-04-26T2000,1655A,116.5491,35.4042,济宁市,电化厂,臭氧1小时,88,90,117,27,26,190,,195,195,11,16,7,9,0.7,0.8
2024-04-26T2000,3500A,116.5814,35.3707,济宁市,北湖一中,臭氧1小时,77,86,87,29,37,181,,191,191,17,15,6,8,0.5,0.5
2024-04-26T2000,3501A,116.8249,35.5593,济宁市,服务中心,颗粒物(PM10),71,92,88,30,29,163,,179,178,16,19,5,6,0.6,0.6
2024-04-26T2000,3678A,116.5907,35.4054,济宁市,市第七中学,臭氧1小时,95,76,95,27,29,196,,198,198,12,15,6,8,0.5,0.6
2024-04-26T2000,2255A,130.2751,46.8028,佳木斯市,佳纺,颗粒物(PM10),52,54,63,32,29,72,,98,92,21,16,8,7,0.5,0.4
2024-04-26T2000,2256A,130.3995,46.8307,佳木斯市,发电厂,颗粒物(PM10),65,79,53,38,24,78,,98,93,8,8,6,4,0.4,0.4
2024-04-26T2000,2257A,130.3258,46.7975,佳木斯市,环保局,,39,38,44,27,25,82,,98,94,16,13,5,5,0.4,0.3
2024-04-26T2000,2258A,130.3648,46.8032,佳木斯市,十一中,,39,39,48,27,27,86,,100,96,16,17,4,5,0.4,0.4
2024-04-26T2000,2259A,130.3794,46.7588,佳木斯市,四丰,,37,37,42,16,22,76,,107,102,26,11,1,1,0.6,0.4
2024-04-26T2000,1252A,120.7436,30.778,嘉兴市,清河小学,,,43,38,24,14,122,,132,132,,15,7,8,,0.8
2024-04-26T2000,1253A,120.726,30.7478,嘉兴市,嘉兴学院,颗粒物(PM10),52,53,41,34,21,118,,128,128,13,16,5,6,0.5,0.4
2024-04-26T2000,2872A,120.7846,30.7525,嘉兴市,南湖区残联,,47,47,37,32,21,122,,136,136,16,18,6,7,0.5,0.5
2024-04-26T2000,3407A,120.6916,30.7739,嘉兴市,秀洲住建,,40,33,36,18,17,125,,137,137,12,15,5,6,0.6,0.6
2024-04-26T2000,1945A,98.2908,39.7711,嘉峪关市,气象局,颗粒物(PM10),167,283,182,90,45,110,,123,123,14,11,4,4,0.5,0.4
2024-04-26T2000,2884A,98.2672,39.7978,嘉峪关市,酒钢宾馆,颗粒物(PM10),170,290,187,85,45,113,,121,121,14,13,7,14,0.9,0.5
2024-04-26T2000,3248A,98.2643,39.7724,嘉峪关市,雄关区,颗粒物(PM10),129,207,133,73,39,112,,119,119,8,13,5,7,0.4,0.5
2024-04-26T2000,1383A,113.1064,22.6058,江门市,北街,,23,,29,16,16,65,,85,85,24,23,3,3,0.6,0.6
2024-04-26T2000,1384A,113.0731,22.5835,江门市,西区,,32,,31,22,15,55,,87,87,18,23,6,6,0.5,0.6
2024-04-26T2000,1385A,113.0219,22.5311,江门市,圭峰西,,28,28,37,15,15,47,,80,80,12,17,3,4,0.6,0.7
2024-04-26T2000,1386A,113.0828,22.5947,江门市,东湖,,35,35,28,21,23,57,,82,82,19,21,6,6,0.5,0.5
2024-04-26T2000,3311A,113.1075,22.5647,江门市,江海富民,细颗粒物(PM2.5),54,39,41,38,20,49,,80,80,19,22,7,7,0.5,0.5
2024-04-26T2000,3449A,113.05,22.4667,江门市,新会银湖,,31,31,30,21,13,50,,67,67,12,17,2,2,0.7,0.7
2024-04-26T2000,1828A,113.227,35.2125,焦作市,市环保局,颗粒物(PM10),67,83,90,25,40,148,,180,179,9,18,2,6,0.3,0.5
2024-04-26T2000,3169A,113.2725,35.2067,焦作市,太极体育中心,颗粒物(PM10),72,93,91,30,42,132,,176,174,21,23,3,9,0.2,0.4
2024-04-26T2000,3335A,113.3137,35.2641,焦作市,马村街道办,颗粒物(PM10),76,101,104,44,46,123,,160,158,18,22,6,8,0.4,0.6
2024-04-26T2000,3336A,113.2465,35.2373,焦作市,焦作技师学院,颗粒物(PM10),62,73,92,24,38,130,,160,159,19,18,5,6,0.4,0.5
2024-04-26T2000,3477A,113.1656,35.2539,焦作市,中站许衡医院,颗粒物(PM10),66,81,86,42,39,149,,169,169,18,18,8,13,0.4,0.5
2024-04-26T2000,3981A,113.2449,35.1803,焦作市,原李万街道办,颗粒物(PM10),63,76,88,19,33,124,,160,159,16,22,7,11,0.5,0.6
2024-04-26T2000,1708A,116.3701,23.5345,揭阳市,新兴,,40,40,21,14,14,44,,72,70,38,22,6,6,1.3,0.8
2024-04-26T2000,1709A,116.3264,23.5443,揭阳市,西马,,35,35,23,8,11,55,,75,75,22,15,5,6,1.2,0.9
2024-04-26T2000,1710A,116.3611,23.5626,揭阳市,东兴,,44,44,23,16,14,49,,74,72,31,17,8,8,1.1,0.9
2024-04-26T2000,1711A,116.4151,23.5294,揭阳市,渔湖,,20,15,18,13,13,36,,75,70,39,15,7,7,0.6,0.7
2024-04-26T2000,3320A,116.403,23.5699,揭阳市,曲溪,,32,32,18,14,13,50,,69,69,30,21,5,7,0.9,0.7
2024-04-26T2000,1944A,102.1692,38.5167,金昌市,天庆家园,颗粒物(PM10),82,114,151,34,42,110,,113,113,9,8,13,11,0.5,0.4
2024-04-26T2000,3170A,102.1864,38.5253,金昌市,市委党校,颗粒物(PM10),102,154,174,48,62,116,,118,118,7,5,20,9,0.3,0.4
2024-04-26T2000,4022A,102.1647,38.5371,金昌市,金川区人防中心,,35,,176,5,44,111,,116,116,8,6,19,8,0.5,0.5
2024-04-26T2000,1262A,119.647,29.077,金华市,十五中,细颗粒物(PM2.5),68,76,47,49,28,84,,118,114,38,24,7,4,0.8,0.6
2024-04-26T2000,3659A,119.656,29.1131,金华市,气象局,细颗粒物(PM2.5),63,68,50,45,32,82,,118,115,36,36,5,4,0.7,0.5
2024-04-26T2000,1767A,121.1115,41.0879,锦州市,南山,细颗粒物(PM2.5),90,79,67,67,58,129,,142,142,36,23,11,16,0.7,0.7
2024-04-26T2000,1768A,121.0533,40.8434,锦州市,开发区,颗粒物(PM10),93,136,98,53,54,97,,139,127,80,49,18,14,0.7,0.7
2024-04-26T2000,1769A,121.1836,41.1119,锦州市,百股街道,细颗粒物(PM2.5),67,73,65,48,41,135,,150,150,32,23,13,26,0.8,0.8
2024-04-26T2000,1770A,121.1178,41.1222,锦州市,天安街道,细颗粒物(PM2.5),90,103,77,67,55,116,,131,131,40,24,13,19,0.8,0.7
2024-04-26T2000,1771A,121.1303,41.1386,锦州市,北湖公园,细颗粒物(PM2.5),93,,53,69,58,115,,139,138,38,21,10,12,0.8,0.7
2024-04-26T2000,2160A,112.85,35.5051,晋城市,自来水公司,臭氧1小时,69,78,95,29,32,175,,172,172,17,28,8,9,0.6,1
2024-04-26T2000,2161A,112.8318,35.4936,晋城市,白云商贸,颗粒物(PM10),73,95,106,29,30,172,,172,172,20,28,9,11,0.7,1
2024-04-26T2000,2162A,112.8508,35.4887,晋城市,市环保局,颗粒物(PM10),75,99,118,24,32,169,,170,170,21,42,10,10,0.6,0.9
2024-04-26T2000,2163A,112.8676,35.4897,晋城市,技术学院,臭氧1小时,75,84,95,29,29,180,,172,172,17,33,10,10,0.8,1
2024-04-26T2000,3620A,112.8271,35.4828,晋城市,泽州一中,颗粒物(PM10),66,82,95,24,29,171,,171,171,22,25,9,10,0.5,0.9
2024-04-26T2000,2171A,112.7532,37.6945,晋中市,锦纶小区,颗粒物(PM10),140,229,112,39,35,105,,170,156,20,31,7,10,0.3,0.4
2024-04-26T2000,2173A,112.7249,37.7067,晋中市,南都小区,颗粒物(PM10),122,193,115,40,31,105,,170,159,20,25,8,10,0.4,0.6
2024-04-26T2000,2174A,112.6991,37.6982,晋中市,榆次区政府,颗粒物(PM10),130,210,124,43,34,105,,170,160,19,26,9,12,0.3,0.6
2024-04-26T2000,2865A,112.7195,37.6828,晋中市,榆次三中,颗粒物(PM10),151,251,130,34,36,109,,174,162,19,32,8,11,0.4,0.6
2024-04-26T2000,2439A,112.2014,31.0481,荆门市,竹园小学,细颗粒物(PM2.5),78,82,86,57,59,143,,163,160,13,20,11,11,0.6,0.7
2024-04-26T2000,2440A,112.1969,30.9891,荆门市,掇刀,细颗粒物(PM2.5),83,76,84,61,64,132,,156,154,19,18,9,9,0.6,0.6
2024-04-26T2000,2441A,112.2213,31.0386,荆门市,石化一小,细颗粒物(PM2.5),74,78,89,54,58,143,,166,162,13,21,10,16,0.6,0.7
2024-04-26T2000,3012A,112.1849,31.0362,荆门市,西山林语,细颗粒物(PM2.5),72,64,70,52,56,130,,161,158,11,13,9,6,0.8,0.7
2024-04-26T2000,3547A,112.1632,31.0138,荆门市,龙泉中学南校,颗粒物(PM10),61,72,68,40,39,133,,155,153,18,25,12,10,0.7,0.7
2024-04-26T2000,1844A,112.2494,30.3197,荆州市,市图书馆,细颗粒物(PM2.5),55,41,57,39,39,120,,146,144,19,17,7,7,0.6,0.7
2024-04-26T2000,1845A,112.2008,30.3544,荆州市,市委党校,细颗粒物(PM2.5),55,46,58,39,42,110,,142,138,27,18,7,9,0.5,0.6
2024-04-26T2000,3194A,112.2747,30.3122,荆州市,管委会,,43,40,54,30,40,117,,147,144,14,13,9,9,0.7,0.7
2024-04-26T2000,3548A,112.1655,30.3364,荆州市,学苑路,细颗粒物(PM2.5),54,40,47,38,50,115,,148,145,16,23,6,7,0.5,0.5
2024-04-26T2000,2343A,117.2117,29.2933,景德镇市,老干部活动中心,,37,37,24,22,18,56,,95,91,12,12,4,5,0.4,0.4
2024-04-26T2000,2344A,117.1894,29.2789,景德镇市,兽医站,颗粒物(PM10),61,72,28,26,16,55,,101,100,14,13,8,8,0.6,0.4
2024-04-26T2000,2345A,117.1547,29.2617,景德镇市,台达陶瓷,,33,31,17,23,16,86,,109,109,12,18,6,8,0.6,0.5
2024-04-26T2000,2346A,117.2461,29.2956,景德镇市,陶研所,,33,33,21,12,10,40,,87,84,9,10,4,6,0.5,0.4
2024-04-26T2000,1803A,115.9872,29.6815,九江市,十里,,34,34,28,20,18,69,,103,102,34,22,11,11,0.8,0.7
2024-04-26T2000,1804A,115.9584,29.7046,九江市,茅山头,,35,35,27,21,22,76,,106,106,28,25,9,9,0.7,0.7
2024-04-26T2000,1805A,115.9877,29.7295,九江市,西园,,38,38,28,24,21,62,,92,91,35,30,18,19,0.8,0.7
2024-04-26T2000,1806A,116.0172,29.6547,九江市,五七二七厂,,40,,22,28,24,65,,86,84,14,13,9,9,0.7,0.7
2024-04-26T2000,1808A,115.9114,29.6038,九江市,综合工业园,,45,45,27,26,19,78,,117,115,24,23,10,10,0.9,0.8
2024-04-26T2000,1809A,116.0721,29.7535,九江市,石化总厂,,37,37,24,25,15,86,,108,106,21,17,14,15,0.8,0.8
2024-04-26T2000,1810A,115.9773,29.5698,九江市,庐山气象台,,48,42,26,33,23,94,,98,98,10,5,12,9,1.1,0.8
2024-04-26T2000,3190A,116.0254,29.6994,九江市,外国语学校,,39,39,28,25,19,83,,101,99,24,22,10,14,0.9,0.9
2024-04-26T2000,2658A,98.5061,39.7443,酒泉市,仓门街子站,颗粒物(PM10),180,310,199,64,39,101,,112,112,11,10,8,10,0.3,0.3
2024-04-26T2000,2659A,98.4989,39.7256,酒泉市,油田生活基地,颗粒物(PM10),176,302,193,66,39,109,,116,116,8,8,9,11,0.3,0.3
2024-04-26T2000,2698A,76.0072,39.4467,喀什地区,巡警大队,,,,76,,10,98,,100,100,16,28,3,3,0.2,0.5
2024-04-26T2000,2699A,75.9755,39.4694,喀什地区,吾办,颗粒物(PM10),57,63,79,12,30,104,,108,108,11,20,2,2,0.3,0.4
2024-04-26T2000,4027A,75.9483,39.4689,喀什地区,老干局,颗粒物(PM10),65,79,79,15,15,109,,114,114,7,15,3,4,0.3,0.4
2024-04-26T2000,1824A,114.3389,34.7781,开封市,肿瘤医院,颗粒物(PM10),62,74,100,17,28,120,,151,147,16,15,3,4,0.4,0.5
2024-04-26T2000,1826A,114.2885,34.7965,开封市,世纪星幼儿园,,,,93,,37,115,,145,142,,12,3,4,,0.4
2024-04-26T2000,3147A,114.3438,34.8106,开封市,龙亭公园,颗粒物(PM10),53,56,87,21,31,126,,152,148,13,11,3,4,0.5,0.6
2024-04-26T2000,3210A,114.3644,34.7964,开封市,汴京公园,颗粒物(PM10),63,75,94,31,38,125,,153,150,15,13,3,3,0.5,0.5
2024-04-26T2000,3473A,114.2485,34.8306,开封市,技师学院,颗粒物(PM10),59,67,90,25,35,132,,156,154,12,12,3,4,0.4,0.4
2024-04-26T2000,3592A,114.4644,34.7556,开封市,祥符区生态环境局,颗粒物(PM10),67,83,102,28,37,97,,142,137,36,23,4,5,0.5,0.5
2024-04-26T2000,1951A,84.895,45.6094,克拉玛依市,长征新村,,35,35,54,1,9,109,,91,91,3,5,9,8,0.2,0.2
2024-04-26T2000,1952A,84.8988,45.5893,克拉玛依市,南林小区,,38,34,57,26,17,113,,93,93,4,5,7,7,0.5,0.4
2024-04-26T2000,1954A,84.905,44.3396,克拉玛依市,独山子区,,26,21,30,8,10,83,,85,85,7,7,7,8,0.2,0.3
2024-04-26T2000,1955A,85.6979,46.098,克拉玛依市,乌尔禾区商贸楼,颗粒物(PM10),69,87,42,2,7,88,,93,92,1,2,9,9,0.4,0.3
2024-04-26T2000,3612A,85.1045,45.6899,克拉玛依市,白碱滩区新站,,,,63,51,18,89,,92,92,6,5,6,7,0.2,0.2
2024-04-26T2000,2697A,76.1454,39.7142,克孜勒苏柯尔克孜自治州,市人民政府,,36,23,33,16,17,113,,115,115,5,9,8,9,0.3,0.3
2024-04-26T2000,3665A,76.1658,39.7157,克孜勒苏柯尔克孜自治州,克州文化中心,,37,11,24,5,11,117,,118,118,3,4,8,10,0.3,0.3
2024-04-26T2000,1450A,102.8204,24.8886,昆明市,呈贡新区,,41,37,42,19,26,131,,142,140,12,13,5,6,0.4,0.5
2024-04-26T2000,1452A,102.7252,25.0902,昆明市,龙泉镇,,47,47,41,20,22,137,,148,146,13,21,6,7,0.6,0.7
2024-04-26T2000,1453A,102.7266,25.0375,昆明市,东风东路,,49,49,45,23,26,129,,144,141,16,12,7,7,0.5,0.5
2024-04-26T2000,1454A,102.6742,25.0669,昆明市,金鼎山,,,46,43,19,22,,,149,148,15,11,14,15,0.4,0.4
2024-04-26T2000,1455A,102.6644,25.0401,昆明市,碧鸡广场,,42,42,43,26,24,128,,145,142,21,12,8,9,0.4,0.4
2024-04-26T2000,3179A,102.7494,25.0119,昆明市,官渡区博物馆,,45,44,46,21,24,141,,153,149,13,11,8,9,0.3,0.4
2024-04-26T2000,3375A,102.8017,24.8336,昆明市,青年创业园,,45,43,46,26,25,144,,151,148,6,7,9,10,0.5,0.5
2024-04-26T2000,3550A,102.7997,24.9786,昆明市,昆明学院,,46,45,50,19,26,145,,154,151,9,11,8,10,0.4,0.5
2024-04-26T2000,3551A,102.5967,24.6736,昆明市,晋宁区生态环境分局,颗粒物(PM10),53,55,36,24,22,138,,144,142,6,4,3,3,0.4,0.4
2024-04-26T2000,3552A,102.6678,24.9856,昆明市,云天化总部,,45,43,44,19,24,142,,148,145,5,9,8,11,0.4,0.6
2024-04-26T2000,1456A,91.1319,29.6514,拉萨市,八廓街,,47,21,21,12,12,149,,160,159,12,11,8,10,0.3,0.3
2024-04-26T2000,1457A,91.1221,29.6747,拉萨市,市环保局,,46,25,24,14,11,145,,157,155,16,13,6,8,0.3,0.2
2024-04-26T2000,1458A,91.0874,29.6475,拉萨市,区监测站,,48,22,19,13,11,151,,159,158,13,11,5,8,0.2,0.2
2024-04-26T2000,1459A,91.1774,29.6541,拉萨市,西藏大学,,48,32,21,10,12,152,,160,159,6,7,3,7,0.2,0.2
2024-04-26T2000,1460A,90.9798,29.6588,拉萨市,区辐射站,,46,20,23,7,10,147,,146,146,10,13,6,7,0.3,0.3
2024-04-26T2000,1461A,91.0834,29.6292,拉萨市,拉萨火车站,,48,24,20,11,10,152,,156,156,8,9,6,8,0.4,0.3
2024-04-26T2000,2520A,109.2203,23.7256,来宾市,来宾技工学校,,48,48,34,33,23,112,,128,128,8,7,4,8,0.8,0.8
2024-04-26T2000,3535A,109.1781,23.7297,来宾市,兴宾区政府,细颗粒物(PM2.5),58,51,33,41,22,111,,119,119,11,8,5,6,0.8,0.7
2024-04-26T2000,4002A,109.2416,23.7461,来宾市,中南小学,颗粒物(PM10),54,57,37,33,21,114,,135,135,10,8,3,5,0.8,0.8
2024-04-26T2000,1476A,103.631,36.1031,兰州市,兰炼宾馆,细颗粒物(PM2.5),73,84,81,53,46,115,,126,126,18,45,8,20,0.3,0.5
2024-04-26T2000,1478A,103.8412,36.0726,兰州市,生物制品所,颗粒物(PM10),79,108,107,39,40,108,,117,117,21,53,10,12,0.3,0.4
2024-04-26T2000,1479A,103.831,36.0464,兰州市,铁路设计院,,,101,86,37,32,,,109,109,53,64,9,12,0.4,0.5
2024-04-26T2000,3186A,103.7158,36.1058,兰州市,教育港,颗粒物(PM10),87,123,104,43,38,114,,126,126,19,40,9,13,0.4,0.5
2024-04-26T2000,3241A,103.7439,36.0842,兰州市,百合公园,颗粒物(PM10),63,76,90,42,35,105,,117,117,21,49,11,9,0.1,0.3
2024-04-26T2000,3242A,103.9611,35.998,兰州市,和平,颗粒物(PM10),103,156,90,51,29,121,,126,126,15,22,9,9,0.3,0.4
2024-04-26T2000,3245A,103.6633,36.533,兰州新区,新区管委会,颗粒物(PM10),72,93,71,39,32,126,,121,121,8,12,7,16,0.4,0.4
2024-04-26T2000,3246A,103.6975,36.4789,兰州新区,舟曲中学,颗粒物(PM10),91,132,94,38,32,121,,118,118,9,17,10,26,0.3,0.4
2024-04-26T2000,1067A,116.6708,39.5111,廊坊市,药材公司,颗粒物(PM10),102,154,136,63,51,124,,181,179,35,20,4,5,0.4,0.3
2024-04-26T2000,1068A,116.7214,39.5589,廊坊市,开发区,颗粒物(PM10),105,159,139,62,55,112,,189,184,41,33,2,4,0.5,0.5
2024-04-26T2000,1070A,116.7244,39.5269,廊坊市,北华航天学院,颗粒物(PM10),110,170,144,61,52,124,,190,186,,26,3,4,0.6,0.5
2024-04-26T2000,2919A,116.7022,39.5453,廊坊市,河北工业大学,颗粒物(PM10),103,155,143,58,50,116,,192,186,40,27,6,7,0.5,0.5
2024-04-26T2000,2535A,103.7723,29.5462,乐山市,花湖湾,细颗粒物(PM2.5),54,51,84,38,70,141,,142,142,10,13,4,6,0.5,0.7
2024-04-26T2000,2536A,103.7627,29.5844,乐山市,牛耳桥,细颗粒物(PM2.5),63,68,79,45,69,101,,135,133,40,23,6,7,0.7,0.8
2024-04-26T2000,2537A,103.7508,29.6006,乐山市,市第三水厂,颗粒物(PM10),54,58,80,35,66,126,,140,140,24,22,4,6,0.5,0.7
2024-04-26T2000,2538A,103.7571,29.5664,乐山市,市监测站,细颗粒物(PM2.5),82,62,80,60,68,126,,141,141,20,16,9,9,0.7,0.8
2024-04-26T2000,3361A,103.7311,29.5628,乐山市,理工大学,细颗粒物(PM2.5),55,,69,39,68,133,,147,147,12,14,6,10,0.4,0.7
2024-04-26T2000,2599A,100.2497,26.8802,丽江市,丽江古城,,44,30,40,16,17,139,,134,134,9,11,7,7,0.7,0.7
2024-04-26T2000,2600A,100.2203,26.8906,丽江市,市中心,,43,26,26,11,12,136,,132,132,10,9,6,8,0.7,0.7
2024-04-26T2000,1267A,119.914,28.4514,丽水市,监测站大楼,,,34,42,23,31,34,,74,68,30,25,3,4,,0.3
2024-04-26T2000,1268A,119.93,28.4586,丽水市,莲都小学,,33,33,48,18,27,39,,71,66,26,26,3,4,0.6,0.4
2024-04-26T2000,1269A,119.879,28.4231,丽水市,余庄前,颗粒物(PM10),52,54,50,33,28,10,,60,52,26,23,3,3,0.8,0.5
2024-04-26T2000,1173A,119.176,34.5885,连云港市,市环境监测站,,48,48,58,12,25,91,,136,133,17,19,5,7,0.2,0.3
2024-04-26T2000,3000A,119.3581,34.6972,连云港市,德源药业,,34,24,51,9,19,106,,130,126,8,17,6,8,0.1,0.3
2024-04-26T2000,3007A,119.178,34.844,连云港市,新城一中,,47,47,67,6,25,108,,140,136,20,43,6,9,0.5,0.6
2024-04-26T2000,3008A,119.3608,34.7519,连云港市,胡沟管理处,颗粒物(PM10),53,56,49,12,16,75,,124,110,46,19,7,8,0.4,0.4
2024-04-26T2000,3009A,119.1478,34.5911,连云港市,矿山设计院,,48,48,59,14,23,95,,138,135,16,19,8,9,0.6,0.6
2024-04-26T2000,3434A,119.2413,34.6539,连云港市,工贸学校,,32,30,56,10,23,102,,152,148,10,9,10,10,0.7,0.6
2024-04-26T2000,3664A,119.4172,34.7341,连云港市,连云街道,,33,33,58,9,22,90,,127,123,37,28,6,7,0.6,0.6
2024-04-26T2000,2571A,102.3431,27.8099,凉山彝族自治州,青龙寺,,50,37,21,6,4,160,,160,160,4,6,7,8,0.5,0.6
2024-04-26T2000,2572A,102.2721,27.8415,凉山彝族自治州,邛海宾馆,,45,37,22,30,18,143,,154,154,7,8,6,9,0.6,0.6
2024-04-26T2000,2573A,102.2625,27.898,凉山彝族自治州,西昌市政府,,45,40,25,22,16,143,,152,152,7,7,5,6,0.5,0.5
2024-04-26T2000,2574A,102.2685,27.8851,凉山彝族自治州,凉山州政府,,44,34,25,19,14,138,,147,147,6,8,8,10,0.4,0.5
2024-04-26T2000,2575A,102.237,27.8914,凉山彝族自治州,长安,,48,41,30,19,18,152,,160,160,7,11,9,10,0.6,0.6
2024-04-26T2000,2212A,123.2,41.1953,辽阳市,宏伟区,,47,47,43,16,19,119,,141,140,20,13,12,11,0.7,0.7
2024-04-26T2000,2213A,123.1683,41.2495,辽阳市,新华园,细颗粒物(PM2.5),87,83,51,64,32,126,,136,135,27,15,16,10,0.9,0.8
2024-04-26T2000,2214A,123.2354,41.2639,辽阳市,滨河路,颗粒物(PM10),51,52,50,23,29,122,,140,140,17,16,9,9,0.6,0.5
2024-04-26T2000,2215A,123.149,41.2991,辽阳市,铁西工业园,颗粒物(PM10),74,97,62,46,29,129,,145,145,26,19,15,14,0.9,0.8
2024-04-26T2000,2227A,125.1358,42.8845,辽源市,环保局,细颗粒物(PM2.5),55,49,46,39,26,103,,126,122,22,19,8,8,0.8,0.7
2024-04-26T2000,3239A,125.0764,42.9078,辽源市,银鹰制药,细颗粒物(PM2.5),55,57,56,39,31,95,,115,110,19,20,6,9,1.0,0.8
2024-04-26T2000,1625A,115.9848,36.4372,聊城市,区政府,颗粒物(PM10),73,96,109,30,28,154,,167,166,19,16,5,7,0.7,0.7
2024-04-26T2000,2878A,116.0072,36.4343,聊城市,聊大东校,颗粒物(PM10),70,90,108,36,38,173,,170,170,25,19,6,7,0.8,0.7
2024-04-26T2000,3200A,115.9819,36.4978,聊城市,监控中心,颗粒物(PM10),82,114,115,14,24,162,,177,176,15,10,6,9,0.5,0.4
2024-04-26T2000,3513A,116.0445,36.4361,聊城市,九州社区,颗粒物(PM10),77,104,104,34,28,172,,179,179,18,15,7,7,0.7,0.6
2024-04-26T2000,4018A,116.0567,36.4608,聊城市,星美广场,颗粒物(PM10),78,106,111,35,33,171,,174,174,15,13,6,6,0.7,0.6
2024-04-26T2000,2632A,94.3681,29.6376,林芝市,林芝监测站,,41,8,5,6,7,131,,128,128,3,3,6,6,0.5,0.5
2024-04-26T2000,2633A,94.3616,29.6616,林芝市,林芝人民医院,,41,13,8,8,6,130,,132,132,4,6,6,6,0.3,0.3
2024-04-26T2000,2603A,100.0781,23.8982,临沧市,市环保局,细颗粒物(PM2.5),78,,50,57,42,157,,154,154,8,11,8,7,0.4,0.5
2024-04-26T2000,2604A,100.0894,23.8822,临沧市,市气象局,颗粒物(PM10),60,70,64,39,44,155,,151,151,11,14,6,6,0.5,0.6
2024-04-26T2000,1733A,111.5531,36.0783,临汾市,临钢医院,颗粒物(PM10),66,82,111,22,30,112,,156,151,40,34,7,11,0.6,0.7
2024-04-26T2000,1734A,111.5028,36.0714,临汾市,技工学校,颗粒物(PM10),66,81,90,31,32,130,,172,168,31,31,9,11,0.6,0.7
2024-04-26T2000,1736A,111.5018,36.0855,临汾市,市委,颗粒物(PM10),60,70,98,27,31,136,,174,170,22,25,6,9,0.7,0.7
2024-04-26T2000,3018A,111.505,36.1014,临汾市,唐尧大酒店,颗粒物(PM10),65,79,105,20,29,122,,156,153,21,29,8,11,0.6,0.7
2024-04-26T2000,3668A,111.5036,36.0414,临汾市,城南,颗粒物(PM10),75,100,109,43,35,106,,168,162,37,33,7,9,0.5,0.6
2024-04-26T2000,2667A,103.2069,35.5993,临夏回族自治州,环保局,颗粒物(PM10),68,86,82,33,32,103,,116,116,11,23,5,7,0.4,0.5
2024-04-26T2000,2668A,103.2417,35.6057,临夏回族自治州,建设大厦,颗粒物(PM10),71,91,75,37,35,109,,123,123,10,15,10,10,0.4,0.4
2024-04-26T2000,1618A,118.3429,35.0532,临沂市,沂河小区,颗粒物(PM10),56,61,78,27,41,141,,174,170,14,22,7,12,0.3,0.4
2024-04-26T2000,1619A,118.295,35.0583,临沂市,鲁南制药厂,颗粒物(PM10),56,61,78,22,33,151,,190,185,21,24,10,13,0.4,0.5
2024-04-26T2000,1620A,118.2794,34.9976,临沂市,新光毛纺厂,颗粒物(PM10),57,63,79,15,39,139,,185,180,16,31,5,12,0.5,0.6
2024-04-26T2000,1621A,118.3956,35.0888,临沂市,河东保险公司,颗粒物(PM10),52,53,76,20,39,117,,174,165,18,27,6,11,0.1,0.3
2024-04-26T2000,3370A,118.3564,35.0215,临沂市,十里堡居委,颗粒物(PM10),52,53,67,31,33,142,,178,174,16,21,9,14,0.7,0.7
2024-04-26T2000,3496A,118.3604,35.1084,临沂市,南坊新区,颗粒物(PM10),58,66,77,22,33,136,,186,179,20,24,7,12,0.4,0.5
2024-04-26T2000,3860A,118.3920,35.0300,临沂市,皇山花园小区,颗粒物(PM10),53,56,71,25,39,130,,173,168,22,24,9,14,0.5,0.6
2024-04-26T2000,1870A,109.4856,24.3895,柳州市,柳东小学,,43,34,24,30,17,77,,126,122,10,9,7,9,0.6,0.6
2024-04-26T2000,1871A,109.4157,24.3277,柳州市,环保监测站,,46,46,29,25,20,82,,140,137,11,11,8,9,0.7,0.8
2024-04-26T2000,1872A,109.389,24.341,柳州市,河西水厂,,45,45,35,29,20,81,,130,129,9,12,9,10,0.9,1.1
2024-04-26T2000,1873A,109.4311,24.2921,柳州市,市四中,细颗粒物(PM2.5),54,56,32,38,20,102,,147,147,16,13,12,9,0.8,0.9
2024-04-26T2000,1874A,109.4006,24.3631,柳州市,市九中,,45,45,39,31,20,80,,129,127,9,16,9,12,0.6,0.9
2024-04-26T2000,1875A,109.4958,24.3134,柳州市,古亭山,,,50,29,33,19,91,,131,131,,9,,7,0.6,0.6
2024-04-26T2000,3402A,109.5422,24.3996,柳州市,市二中,,32,30,23,22,16,78,,123,121,12,11,8,9,0.6,0.6
2024-04-26T2000,2307A,116.5079,31.737,六安市,监测大楼,颗粒物(PM10),56,61,68,29,38,134,,160,157,14,20,4,6,0.4,0.6
2024-04-26T2000,2308A,116.4738,31.7643,六安市,皖西学院,颗粒物(PM10),59,68,69,29,33,136,,164,162,11,18,3,4,0.5,0.6
2024-04-26T2000,2309A,116.4996,31.7905,六安市,朝阳厂,颗粒物(PM10),53,56,63,34,37,132,,165,162,11,15,5,6,0.3,0.4
2024-04-26T2000,2310A,116.5567,31.7886,六安市,开发区,颗粒物(PM10),63,75,86,33,39,104,,162,158,42,21,15,9,0.6,0.7
2024-04-26T2000,2577A,104.83,26.5917,六盘水市,黄土坡,颗粒物(PM10),54,58,38,33,23,140,,129,129,13,15,8,7,0.5,0.5
2024-04-26T2000,2578A,104.89,26.5939,六盘水市,水钢,颗粒物(PM10),57,64,45,28,28,143,,136,136,10,14,9,10,0.4,0.5
2024-04-26T2000,2579A,104.8475,26.5894,六盘水市,民中,细颗粒物(PM2.5),55,50,35,39,24,128,,126,126,19,16,8,8,0.6,0.4
2024-04-26T2000,2580A,104.9544,26.5506,六盘水市,双水,,48,48,38,28,24,140,,133,133,10,13,8,7,0.4,0.4
2024-04-26T2000,2336A,117.0217,25.1033,龙岩市,龙岩市监测站,,23,14,17,6,12,71,,97,97,11,19,6,5,0.5,0.7
2024-04-26T2000,2337A,117.0258,25.0661,龙岩市,闽西职业技术学院,,,16,17,4,12,,,92,92,9,16,8,6,0.4,0.6
2024-04-26T2000,2338A,117.0196,25.0306,龙岩市,龙岩学院,,19,8,17,6,10,60,,89,88,7,13,4,3,0.5,0.6
2024-04-26T2000,2885A,104.9339,33.3826,陇南市,滨江中学,颗粒物(PM10),56,61,58,23,20,125,,124,124,4,11,4,11,0.5,0.6
2024-04-26T2000,3247A,104.955,33.371,陇南市,市总工会,颗粒物(PM10),51,51,44,14,8,114,,112,112,7,8,4,6,0.5,0.5
2024-04-26T2000,2487A,111.9589,27.8901,娄底市,电视发射台,,32,32,29,22,15,45,,96,91,5,5,5,5,0.8,0.9
2024-04-26T2000,2488A,111.9975,27.725,娄底市,市监测站,,43,39,54,30,28,95,,114,114,11,17,13,13,0.8,1.2
2024-04-26T2000,2489A,112.0194,27.7314,娄底市,市委党校,,43,33,42,30,32,66,,106,103,22,18,4,10,0.7,0.9
2024-04-26T2000,2490A,111.9561,27.7569,娄底市,涟钢,,37,37,38,20,24,80,,98,98,25,22,13,12,0.6,1
2024-04-26T2000,2491A,111.9892,27.7044,娄底市,市政府,,36,36,51,25,35,96,,119,119,16,15,11,10,0.7,1.2
2024-04-26T2000,1893A,105.4324,28.9634,泸州市,九狮山,,38,29,25,26,17,102,,114,114,15,12,4,4,0.3,0.3
2024-04-26T2000,1894A,105.4427,28.9063,泸州市,小市上码头,,35,25,31,18,20,110,,114,114,14,11,5,7,0.3,0.4
2024-04-26T2000,1895A,105.4241,28.8573,泸州市,兰田宪桥,,30,27,33,19,22,94,,111,111,18,14,7,6,0.3,0.4
2024-04-26T2000,1896A,105.4379,28.8833,泸州市,市环监站,,31,25,34,17,23,99,,109,109,19,15,5,10,0.3,0.4
2024-04-26T2000,3490A,105.3617,28.7703,泸州市,纳溪区环保局,,34,28,36,19,21,107,,127,127,14,16,9,6,0.4,0.5
2024-04-26T2000,2183A,111.1406,37.5211,吕梁市,环保局,颗粒物(PM10),89,127,107,36,34,111,,138,137,9,39,4,3,0.2,0.3
2024-04-26T2000,2185A,111.1297,37.5136,吕梁市,自来水公司,颗粒物(PM10),107,163,119,29,36,104,,132,130,12,36,2,3,0.2,0.3
2024-04-26T2000,2867A,111.1283,37.51,吕梁市,马茂庄小学,颗粒物(PM10),108,165,127,26,31,113,,140,139,9,43,3,3,0.2,0.3
2024-04-26T2000,1812A,112.3931,34.6516,洛阳市,市委党校,颗粒物(PM10),55,59,80,29,41,143,,155,155,9,10,2,5,0.4,0.5
2024-04-26T2000,1814A,112.4657,34.6871,洛阳市,豫西宾馆,颗粒物(PM10),58,65,97,27,40,138,,157,157,15,18,4,6,0.3,0.5
2024-04-26T2000,1815A,112.494,34.6886,洛阳市,河南林校,,49,49,78,29,38,136,,156,156,15,21,4,7,0.3,0.5
2024-04-26T2000,1816A,112.3844,34.623,洛阳市,开发区管委会,,,,85,,40,141,,156,156,12,12,3,6,,0.4
2024-04-26T2000,1817A,112.4267,34.6258,洛阳市,市委新办公区,颗粒物(PM10),60,69,80,27,43,146,,155,155,10,11,4,7,0.3,0.4
2024-04-26T2000,3340A,112.6005,34.6326,洛阳市,伊滨,颗粒物(PM10),51,52,91,26,45,147,,164,164,10,21,6,10,0.4,0.5
2024-04-26T2000,3341A,112.4951,34.6332,洛阳市,中移产业园,颗粒物(PM10),56,61,80,32,40,143,,157,157,12,13,4,7,0.5,0.6
2024-04-26T2000,3593A,112.5736,34.8993,洛阳市,吉利监测站,颗粒物(PM10),74,97,86,32,34,117,,162,160,23,22,3,3,0.2,0.3
2024-04-26T2000,3635A,112.3677,34.662,洛阳市,河科大西苑校区,颗粒物(PM10),60,69,87,23,36,141,,153,153,9,12,5,8,0,0.2
2024-04-26T2000,3636A,112.4388,34.6781,洛阳市,英才小学,颗粒物(PM10),60,69,95,17,35,140,,153,153,13,14,5,7,0.5,0.6
2024-04-26T2000,2399A,114.051,33.5699,漯河市,三五一五工厂,颗粒物(PM10),66,81,93,34,35,110,,151,146,23,19,5,5,0.5,0.5
2024-04-26T2000,2400A,114.0055,33.5698,漯河市,漯河大学,颗粒物(PM10),66,82,90,39,39,130,,152,151,12,18,7,9,0.4,0.3
2024-04-26T2000,2401A,114.0138,33.5828,漯河市,市水利局,颗粒物(PM10),65,80,88,36,38,128,,151,149,8,12,6,7,0.4,0.4
2024-04-26T2000,2402A,114.0261,33.5698,漯河市,市广电局,颗粒物(PM10),68,85,89,29,36,124,,152,150,10,17,4,5,0.6,0.6
2024-04-26T2000,3478A,113.9749,33.5664,漯河市,市图书馆,颗粒物(PM10),65,79,86,34,38,123,,147,146,13,14,8,8,0.6,0.6
2024-04-26T2000,3479A,114.0967,33.5906,漯河市,召陵区卫健委,颗粒物(PM10),69,87,97,31,38,112,,152,146,15,18,4,5,0.6,0.6
2024-04-26T2000,1798A,118.5092,31.6837,马鞍山市,湖东路四小,臭氧1小时,85,74,63,39,29,188,,196,196,28,28,6,9,0.7,0.6
2024-04-26T2000,1799A,118.5024,31.6449,马鞍山市,开发区,颗粒物(PM10),65,80,69,38,35,160,,196,196,37,40,8,9,0.8,0.8
2024-04-26T2000,1800A,118.5228,31.7231,马鞍山市,慈湖,臭氧1小时,82,72,59,52,41,185,,186,186,28,33,4,10,0.7,0.8
2024-04-26T2000,1802A,118.6245,31.7241,马鞍山市,濮塘,臭氧1小时,93,64,48,38,27,194,,190,190,16,18,3,4,1.0,0.9
2024-04-26T2000,3633A,118.4918,31.6809,马鞍山市,雨山,臭氧1小时,94,77,60,36,33,195,,203,203,24,28,7,9,0.7,0.7
2024-04-26T2000,1686A,111.0286,21.4688,茂名市,电白南海,,36,36,34,19,19,61,,78,78,10,9,7,7,0.7,0.6
2024-04-26T2000,1687A,110.9294,21.6533,茂名市,茂石化七小,,41,41,43,24,24,73,,115,112,20,12,10,12,0.9,0.8
2024-04-26T2000,1688A,110.9107,21.6687,茂名市,健康路,,46,46,39,19,16,74,,114,111,16,10,8,9,0.6,0.4
2024-04-26T2000,1689A,110.8592,21.6828,茂名市,高岭,,41,41,41,24,22,76,,107,107,14,9,6,7,0.9,0.8
2024-04-26T2000,3450A,111.01,21.5165,茂名市,电白水东,,31,31,30,19,15,60,,84,82,25,14,4,4,0.7,0.7
2024-04-26T2000,2539A,104.0308,30.0478,眉山市,黑龙滩水库,,42,42,66,24,46,116,,144,144,5,8,5,6,0.5,0.7
2024-04-26T2000,2540A,103.8416,30.0874,眉山市,气象局,颗粒物(PM10),53,55,75,22,54,117,,142,140,31,30,7,9,0.3,0.5
2024-04-26T2000,3137A,103.8578,30.0744,眉山市,市委党校,颗粒物(PM10),52,53,77,27,58,95,,136,132,48,27,6,9,0.5,0.6
2024-04-26T2000,3148A,103.8291,30.0564,眉山市,区人社局,,49,45,69,34,63,104,,138,135,50,30,8,12,0.6,0.6
2024-04-26T2000,1690A,116.1231,24.3284,梅州市,梅江月梅,,28,20,12,19,7,84,,94,94,3,10,3,3,0.6,0.6
2024-04-26T2000,3315A,116.1233,24.2991,梅州市,梅龙,,38,29,10,26,9,81,,90,90,4,10,7,7,0.7,0.7
2024-04-26T2000,1878A,104.7778,31.4741,绵阳市,富乐山,颗粒物(PM10),51,52,51,31,35,99,,131,129,10,10,8,8,0.6,0.6
2024-04-26T2000,1879A,104.7563,31.4535,绵阳市,市人大,,48,48,57,29,36,87,,119,118,34,18,9,11,0.5,0.5
2024-04-26T2000,1880A,104.6697,31.4668,绵阳市,高新区自来水公司,颗粒物(PM10),54,57,67,25,39,105,,140,137,21,24,10,9,0.4,0.4
2024-04-26T2000,1881A,104.7287,31.5075,绵阳市,三水厂,细颗粒物(PM2.5),52,50,60,36,43,42,,127,119,86,24,7,7,0.8,0.7
2024-04-26T2000,3491A,104.69,31.5322,绵阳市,西科大附属小学,,49,49,61,30,39,94,,133,132,39,29,8,8,0.6,0.5
2024-04-26T2000,3492A,104.5648,31.5343,绵阳市,安州区旅游局,细颗粒物(PM2.5),82,70,66,60,45,113,,138,138,22,22,5,6,0.7,0.6
2024-04-26T2000,1784A,129.61,44.561,牡丹江市,环保大楼,细颗粒物(PM2.5),60,50,54,43,42,53,,107,96,47,20,7,6,0.6,0.4
2024-04-26T2000,1785A,129.6115,44.5782,牡丹江市,文化广场,,49,49,56,32,44,99,,102,101,25,21,7,8,0.3,0.4
2024-04-26T2000,1786A,129.5904,44.5963,牡丹江市,第一医院,颗粒物(PM10),68,86,54,42,41,69,,101,95,34,18,6,6,0.6,0.5
2024-04-26T2000,1787A,129.6364,44.6075,牡丹江市,机车工厂,颗粒物(PM10),54,57,67,24,38,89,,103,100,17,16,7,5,0.3,0.4
2024-04-26T2000,1788A,129.6386,44.5462,牡丹江市,第一中学,颗粒物(PM10),74,98,62,44,36,29,,110,90,46,22,6,6,0.5,0.4
2024-04-26T2000,2531A,105.0703,29.61,内江市,市监测站,颗粒物(PM10),58,66,41,29,33,83,,104,102,25,19,6,8,0.5,0.5
2024-04-26T2000,2532A,105.0717,29.5947,内江市,东兴区政府,,32,21,40,16,22,100,,111,110,13,13,10,9,0.4,0.5
2024-04-26T2000,2533A,105.0653,29.5817,内江市,内江二中,,33,33,36,15,29,88,,103,102,14,14,5,5,0.4,0.5
2024-04-26T2000,2534A,105.0406,29.5822,内江市,内江日报社,,30,30,35,12,32,96,,112,111,18,22,8,7,0.4,0.5
2024-04-26T2000,2628A,92.0657,31.4846,那曲市,那曲监测站,,40,40,40,21,29,117,,130,129,11,17,6,5,0.6,1
2024-04-26T2000,3128A,92.0506,31.4797,那曲市,那曲会议中心,颗粒物(PM10),53,56,40,24,25,122,,131,130,13,17,4,3,0.6,0.8
2024-04-26T2000,1290A,115.8931,28.6843,南昌市,省外办,颗粒物(PM10),55,60,45,31,29,71,,105,102,24,19,6,6,0.7,0.6
2024-04-26T2000,1291A,115.8886,28.7003,南昌市,省林业公司,颗粒物(PM10),58,66,40,31,30,55,,97,93,42,22,4,4,0.6,0.6
2024-04-26T2000,1292A,115.8126,28.7442,南昌市,林科所,颗粒物(PM10),51,51,41,27,25,33,,100,95,58,26,7,7,0.5,0.5
2024-04-26T2000,1294A,115.8518,28.687,南昌市,建工学校,细颗粒物(PM2.5),54,55,47,38,29,83,,105,104,24,17,5,5,0.9,0.7
2024-04-26T2000,1295A,115.8921,28.6424,南昌市,象湖,,49,49,44,32,31,64,,108,105,33,21,6,4,1.2,0.9
2024-04-26T2000,1296A,115.7423,28.7996,南昌市,武术学校,细颗粒物(PM2.5),52,,15,36,26,31,,82,76,8,5,9,7,0.5,0.5
2024-04-26T2000,1298A,115.9314,28.6842,南昌市,省站,颗粒物(PM10),51,51,42,34,32,80,,103,103,17,15,9,8,1.0,0.9
2024-04-26T2000,3046A,115.9084,28.6062,南昌市,机电学校,颗粒物(PM10),52,54,51,29,30,78,,102,102,15,19,7,8,0.7,0.9
2024-04-26T2000,3690A,115.9721,28.7031,南昌市,外国语学校,,42,37,40,29,29,79,,100,99,8,8,4,4,0.7,0.6
2024-04-26T2000,1905A,106.056,30.8064,南充市,西山风景区,,43,,40,30,32,121,,125,125,11,11,2,5,0.4,0.4
2024-04-26T2000,1906A,106.0789,30.8023,南充市,南充市委,,41,41,55,27,36,109,,125,125,16,23,7,9,0.2,0.3
2024-04-26T2000,1907A,106.1031,30.8217,南充市,南充炼油厂,细颗粒物(PM2.5),57,50,58,40,39,134,,140,140,14,15,6,11,0.2,0.2
2024-04-26T2000,1908A,106.1064,30.7856,南充市,高坪区监测站,,45,45,59,23,38,109,,127,127,23,18,5,14,0.2,0.2
2024-04-26T2000,1909A,106.0642,30.7636,南充市,嘉陵区环保局,颗粒物(PM10),55,59,55,31,35,100,,124,123,28,22,4,6,0.3,0.3
2024-04-26T2000,1910A,106.1087,30.8388,南充市,市环境监测站,细颗粒物(PM2.5),59,57,63,42,39,131,,138,138,22,20,5,9,0.2,0.3
2024-04-26T2000,1151A,118.8086,32.1065,南京市,迈皋桥,颗粒物(PM10),63,75,45,36,25,134,,187,185,34,31,8,5,1.0,0.6
2024-04-26T2000,1152A,118.7538,32.0551,南京市,草场门,细颗粒物(PM2.5),58,63,48,41,28,146,,178,177,32,29,7,4,0.8,0.5
2024-04-26T2000,1153A,118.7794,32.0745,南京市,山西路,颗粒物(PM10),57,63,56,29,20,113,,156,152,35,26,4,4,0.7,0.3
2024-04-26T2000,1154A,118.7752,32.0023,南京市,中华门,颗粒物(PM10),58,66,45,34,24,154,,164,164,26,24,7,7,0.7,0.5
2024-04-26T2000,1155A,118.8109,32.0309,南京市,瑞金路,颗粒物(PM10),63,75,56,36,26,136,,171,168,25,19,11,7,0.6,0.3
2024-04-26T2000,1156A,118.7997,32.0754,南京市,玄武湖,颗粒物(PM10),59,68,49,36,24,119,,164,161,42,24,12,8,0.6,0.3
2024-04-26T2000,1157A,118.6414,32.0931,南京市,浦口,颗粒物(PM10),58,66,54,24,22,131,,179,178,42,34,10,7,0.7,0.5
2024-04-26T2000,1158A,118.7356,31.9996,南京市,奥体中心,臭氧1小时,69,72,56,39,27,175,,180,180,25,26,8,7,0.5,0.4
2024-04-26T2000,1159A,118.9125,32.1028,南京市,仙林大学城,颗粒物(PM10),59,68,48,27,20,135,,180,178,33,30,14,12,0.8,0.5
2024-04-26T2000,3422A,118.8436,31.9198,南京市,江宁彩虹桥,细颗粒物(PM2.5),62,62,50,44,29,167,,188,188,30,25,4,4,0.6,0.5
2024-04-26T2000,3423A,119.0138,31.6494,南京市,溧水永阳,臭氧1小时,67,66,49,36,26,173,,188,188,28,28,3,4,0.4,0.3
2024-04-26T2000,3424A,118.879,31.3302,南京市,高淳老职中,臭氧1小时,58,59,51,39,32,166,,185,185,21,31,7,9,0.4,0.3
2024-04-26T2000,3427A,118.8554,32.3578,南京市,六合雄州,,45,42,51,31,27,130,,167,166,26,35,4,5,0.7,0.5
2024-04-26T2000,1401A,108.3103,22.7881,南宁市,二十一中,细颗粒物(PM2.5),62,66,58,44,38,120,,142,142,9,13,4,5,1.2,0.9
2024-04-26T2000,1402A,108.3141,22.8528,南宁市,北湖,颗粒物(PM10),72,94,61,43,40,107,,138,138,13,14,4,4,1.3,0.8
2024-04-26T2000,1403A,108.3206,22.8225,南宁市,市监测站,颗粒物(PM10),62,74,59,40,37,110,,136,136,12,14,5,5,1.2,0.8
2024-04-26T2000,1404A,108.3829,22.8037,南宁市,大自然花园,细颗粒物(PM2.5),62,65,53,44,41,117,,138,138,11,11,4,4,1.0,0.8
2024-04-26T2000,1405A,108.4394,22.7904,南宁市,仙葫,"颗粒物(PM10),细颗粒物(PM2.5)",60,69,54,43,36,110,,126,126,12,12,7,6,1.3,1.1
2024-04-26T2000,1406A,108.2397,22.8467,南宁市,区农职院,颗粒物(PM10),68,86,60,45,37,109,,142,142,18,17,6,8,1.1,0.8
2024-04-26T2000,1407A,108.3275,22.735,南宁市,英华嘉园,颗粒物(PM10),63,75,57,43,39,105,,128,126,16,16,6,6,1.1,0.7
2024-04-26T2000,1408A,108.2257,22.7757,南宁市,沙井镇街道办,颗粒物(PM10),77,104,63,44,40,95,,136,130,18,21,10,6,0.9,0.8
2024-04-26T2000,3401A,108.4834,22.7618,南宁市,红星社区,细颗粒物(PM2.5),70,72,55,51,41,114,,137,137,14,12,8,8,0.9,0.8
2024-04-26T2000,2332A,118.1681,26.6369,南平市,南平市监测站,,22,18,25,15,17,67,,77,77,10,14,4,5,0.7,0.8
2024-04-26T2000,2333A,118.1825,26.6489,南平市,南平铝业有限公司,,23,,29,16,22,71,,70,70,10,18,4,6,0.7,0.8
2024-04-26T2000,2334A,118.1756,26.6272,南平市,南平七中,,28,20,30,19,20,65,,75,75,12,12,10,5,0.9,0.9
2024-04-26T2000,1168A,120.9098,31.9663,南通市,狼山街道,,35,31,29,15,9,112,,124,123,15,17,8,9,0.3,0.3
2024-04-26T2000,1169A,120.86,32.0005,南通市,虹桥,,47,47,35,19,10,104,,121,120,13,16,4,5,0.4,0.4
2024-04-26T2000,1170A,120.87,32.02,南通市,城中,,36,36,43,21,14,106,,120,118,11,16,4,5,0.3,0.5
2024-04-26T2000,1171A,120.94,31.93,南通市,星湖花园,,35,34,26,18,10,112,,124,121,17,19,6,7,0.5,0.4
2024-04-26T2000,1172A,120.81,32.0417,南通市,紫琅学院,,34,31,28,20,10,108,,122,121,17,22,8,9,0.5,0.4
2024-04-26T2000,3291A,121.067,32.062,南通市,通州监测站,,38,36,32,9,7,121,,127,126,5,9,8,9,0.6,0.6
2024-04-26T2000,3432A,120.9348,31.9883,南通市,环境教育馆,,39,39,32,11,10,109,,123,121,17,20,7,7,0.4,0.4
2024-04-26T2000,2404A,112.5224,33.0122,南阳市,瓦房庄,,50,50,56,24,30,110,,138,134,21,17,5,5,0.5,0.4
2024-04-26T2000,2405A,112.5003,32.9735,南阳市,汉画馆,颗粒物(PM10),53,55,61,25,31,113,,146,142,21,23,4,5,0.5,0.4
2024-04-26T2000,2406A,112.5573,33.027,南阳市,气象站,,50,50,52,19,30,108,,147,141,27,20,2,3,0.6,0.5
2024-04-26T2000,2407A,112.5481,32.9689,南阳市,理工学院,颗粒物(PM10),52,53,58,26,36,97,,139,134,31,25,6,5,0.5,0.5
2024-04-26T2000,4008A,112.5234,32.9922,南阳市,卧龙区政府,颗粒物(PM10),51,52,55,28,32,118,,142,139,18,18,5,5,0.7,0.7
2024-04-26T2000,1234A,121.8358,29.911,宁波市,区环保大楼,,37,37,38,12,12,67,,93,86,38,22,7,7,0.6,0.6
2024-04-26T2000,1235A,121.56,29.82,宁波市,万里学院,,36,27,28,25,26,106,,121,119,5,10,6,6,0.5,0.4
2024-04-26T2000,1236A,121.713,29.9572,宁波市,龙赛医院,,50,50,40,17,12,46,,100,83,54,25,11,9,0.5,0.4
2024-04-26T2000,1239A,121.633,29.7733,宁波市,钱湖水厂,,35,29,26,24,21,107,,120,119,5,7,8,8,0.6,0.6
2024-04-26T2000,1240A,121.5856,29.8635,宁波市,太古小学,,27,24,23,17,17,86,,113,109,22,16,8,8,0.6,0.6
2024-04-26T2000,1241A,121.524,29.8674,宁波市,市环境监测中心,,32,32,34,20,16,92,,118,115,27,22,7,7,0.7,0.6
2024-04-26T2000,2871A,121.6147,29.9017,宁波市,万里国际学校,,33,33,29,19,16,88,,126,121,27,16,5,6,0.5,0.5
2024-04-26T2000,3710A,121.5594,29.8975,宁波市,白沙活动中心,,34,34,34,18,14,83,,118,114,26,19,8,8,0.5,0.5
2024-04-26T2000,2341A,119.5388,26.6612,宁德市,宁德市监测站,细颗粒物(PM2.5),74,61,49,54,59,98,,97,97,18,18,7,8,0.9,1
2024-04-26T2000,3209A,119.5231,26.6562,宁德市,宁德一中,细颗粒物(PM2.5),75,56,50,55,52,91,,77,,26,18,7,8,0.9,1
2024-04-26T2000,2618A,98.8601,25.8567,怒江傈僳族自治州,州监测站,颗粒物(PM10),54,58,34,27,19,122,,149,149,4,3,6,7,0.4,0.3
2024-04-26T2000,2619A,98.8546,25.8417,怒江傈僳族自治州,泸水一中,颗粒物(PM10),62,73,35,25,17,114,,131,131,11,9,7,7,0.4,0.4
2024-04-26T2000,1888A,101.6891,26.571,攀枝花市,弄弄坪,颗粒物(PM10),56,62,66,29,30,130,,141,138,21,24,28,30,1.5,1.6
2024-04-26T2000,1889A,101.5769,26.5928,攀枝花市,河门口,,49,49,57,22,32,145,,156,155,13,17,12,13,0.4,0.4
2024-04-26T2000,1890A,101.7169,26.585,攀枝花市,炳草岗,,,44,53,25,30,,,155,155,11,19,17,31,0.7,1
2024-04-26T2000,1891A,101.7369,26.5008,攀枝花市,仁和,,48,48,48,29,28,149,,155,155,12,16,7,8,0.6,0.6
2024-04-26T2000,2835A,101.7227,26.567,攀枝花市,四十中小,颗粒物(PM10),51,52,57,29,27,148,,155,154,15,23,10,31,1.1,1.5
2024-04-26T2000,1604A,122.0303,41.1489,盘锦市,开发区,臭氧1小时,63,59,52,44,34,170,,171,171,29,21,7,7,0.7,0.7
2024-04-26T2000,1605A,122.0485,41.0883,盘锦市,兴隆台,细颗粒物(PM2.5),64,67,51,46,36,155,,168,168,38,23,10,10,0.7,0.7
2024-04-26T2000,1606A,121.8297,41.1028,盘锦市,新生街道,"颗粒物(PM10),臭氧1小时",53,56,50,32,29,162,,176,176,31,22,9,8,0.6,0.5
2024-04-26T2000,1832A,113.3257,33.742,平顶山市,新华旅馆,颗粒物(PM10),70,89,74,44,41,134,,154,151,12,19,10,8,0.5,0.4
2024-04-26T2000,1833A,113.2919,33.737,平顶山市,规划设计院,颗粒物(PM10),62,73,53,32,27,122,,142,139,18,16,7,7,0.6,0.4
2024-04-26T2000,1834A,113.182,33.774,平顶山市,平顶山工学院,颗粒物(PM10),60,69,52,29,23,123,,144,142,11,7,4,4,0.5,0.4
2024-04-26T2000,3204A,113.3025,33.73,平顶山市,规划局,颗粒物(PM10),68,85,65,30,32,132,,145,144,13,17,5,6,0.6,0.5
2024-04-26T2000,3594A,112.8867,33.9116,平顶山市,石龙区,颗粒物(PM10),55,60,84,23,33,115,,144,142,16,23,10,10,0.3,0.4
2024-04-26T2000,2656A,106.6692,35.5461,平凉市,聚贤嘉苑,,42,42,52,19,19,119,,120,120,15,28,7,9,0.3,0.4
2024-04-26T2000,2657A,106.7021,35.5307,平凉市,博物馆,颗粒物(PM10),58,66,64,19,21,116,,121,121,18,30,10,11,0.4,0.5
2024-04-26T2000,2347A,114.0997,27.5002,萍乡市,武功山,,26,26,15,5,4,51,,79,78,6,4,10,10,0.6,0.6
2024-04-26T2000,2348A,113.8385,27.6434,萍乡市,中医院,,47,47,43,32,34,70,,100,98,16,14,18,11,1.1,1.1
2024-04-26T2000,2349A,113.8493,27.6253,萍乡市,市政府车库,,49,35,31,34,32,73,,100,100,16,18,18,13,0.8,1.4
2024-04-26T2000,2350A,113.8676,27.6435,萍乡市,市环保局,,38,38,43,25,32,69,,93,93,21,17,23,14,1.0,1.1
2024-04-26T2000,2351A,113.866,27.6198,萍乡市,安源区政府,,35,35,40,20,22,70,,102,101,20,19,26,13,0.7,1.2
2024-04-26T2000,2319A,119.0141,25.4325,莆田市,荔城区仓后路,,45,42,47,31,40,76,,101,101,25,21,5,5,1.1,1.2
2024-04-26T2000,2320A,119.0015,25.4553,莆田市,莆田市监测站,,36,36,46,25,34,74,,103,103,17,19,7,7,0.9,1.2
2024-04-26T2000,2321A,119.1119,25.4561,莆田市,涵江区六中,,30,30,42,19,43,85,,100,100,28,35,7,7,0.8,1.2
2024-04-26T2000,2322A,119.1013,25.3215,莆田市,秀屿区政府,,35,25,35,10,38,109,,96,96,9,16,7,10,0.8,1.2
2024-04-26T2000,2392A,115.0312,35.7636,濮阳市,环保局,颗粒物(PM10),60,69,92,24,29,120,,140,139,14,12,9,10,0.6,0.6
2024-04-26T2000,2394A,115.0574,35.7609,濮阳市,油田运输公司,颗粒物(PM10),72,94,94,31,37,122,,143,142,17,15,10,12,0.6,0.5
2024-04-26T2000,2395A,115.0866,35.7754,濮阳市,油田物探公司,颗粒物(PM10),65,79,80,40,37,122,,146,145,16,14,8,10,0.5,0.4
2024-04-26T2000,3021A,115,35.7668,濮阳市,濮水河管理处,颗粒物(PM10),59,68,95,31,34,130,,143,143,9,8,8,10,0.6,0.5
2024-04-26T2000,2601A,100.98,22.7633,普洱市,市环保局,细颗粒物(PM2.5),62,70,56,44,38,139,,141,140,10,11,10,10,0.4,0.4
2024-04-26T2000,2602A,100.9817,22.8322,普洱市,普洱第二中学,颗粒物(PM10),55,60,48,38,27,135,,143,142,14,18,9,9,0.5,0.4
2024-04-26T2000,3345A,131.0577,45.7879,七台河市,中波台,细颗粒物(PM2.5),68,75,55,49,23,122,,129,129,12,9,8,6,0.8,0.6
2024-04-26T2000,3637A,131.0176,45.7761,七台河市,人民广场,细颗粒物(PM2.5),88,100,58,65,33,114,,122,122,24,17,12,10,0.7,0.5
2024-04-26T2000,3684A,130.8781,45.8222,七台河市,新建矿广场,细颗粒物(PM2.5),135,127,67,103,40,80,,117,113,35,20,25,16,0.6,0.8
2024-04-26T2000,1779A,123.9305,47.3636,齐齐哈尔市,安居小区,,36,36,21,16,6,69,,91,86,19,8,4,4,0.3,0.2
2024-04-26T2000,1780A,123.9488,47.3386,齐齐哈尔市,中心广场,,46,46,18,21,8,78,,89,86,12,8,7,6,0.3,0.3
2024-04-26T2000,1781A,123.9483,47.3227,齐齐哈尔市,农牧车辆厂,,41,41,26,7,7,76,,93,89,15,7,7,7,0.3,0.3
2024-04-26T2000,1783A,123.945,47.2988,齐齐哈尔市,市环境监测站,,40,40,24,11,6,82,,94,92,11,7,4,3,0.4,0.3
2024-04-26T2000,3662A,123.6333,47.2075,齐齐哈尔市,富区青少年活动中心,颗粒物(PM10),53,56,25,12,8,73,,100,95,24,11,31,9,1.5,0.4
2024-04-26T2000,2591A,107.9783,26.5747,黔东南苗族侗族自治州,市环境监测站,,29,26,25,20,20,64,,100,97,18,13,2,2,0.5,0.5
2024-04-26T2000,2881A,107.8908,26.5311,黔东南苗族侗族自治州,凯里学院,,40,40,23,18,16,76,,119,116,19,10,3,3,0.3,0.4
2024-04-26T2000,2593A,107.5228,26.2403,黔南布依族苗族自治州,小围寨,,25,19,19,17,12,79,,93,92,5,6,3,3,0.6,0.5
2024-04-26T2000,3538A,107.5175,26.2978,黔南布依族苗族自治州,沙坝,,25,22,22,12,10,78,,98,98,10,7,4,4,0.4,0.5
2024-04-26T2000,2589A,104.9022,25.0925,黔西南布依族苗族自治州,场坝街,,48,46,38,33,29,123,,123,123,9,9,6,7,0.4,0.4
2024-04-26T2000,2590A,104.8811,25.0992,黔西南布依族苗族自治州,坪东大道,,,45,42,34,29,119,,126,126,13,11,,4,0.5,0.5
2024-04-26T2000,2502A,108.6236,21.9667,钦州市,市环保站,颗粒物(PM10),58,66,48,22,26,55,,88,82,19,14,7,7,0.7,0.8
2024-04-26T2000,2503A,108.6549,21.9481,钦州市,沙埠小学,,39,39,50,27,28,54,,98,83,17,14,5,6,0.8,0.8
2024-04-26T2000,2504A,108.5989,21.7431,钦州市,港区一小,颗粒物(PM10),58,66,54,20,24,68,,75,70,13,14,6,8,0.6,0.7
2024-04-26T2000,3404A,108.5959,21.9633,钦州市,北职校,颗粒物(PM10),54,58,50,34,31,53,,84,76,19,13,8,8,0.7,0.9
2024-04-26T2000,1042A,119.5134,39.8207,秦皇岛市,北戴河环保局,颗粒物(PM10),60,69,89,40,34,111,,147,140,46,25,8,8,0.4,0.4
2024-04-26T2000,1043A,119.7493,40.0116,秦皇岛市,第一关,细颗粒物(PM2.5),82,105,112,60,66,125,,153,150,44,37,8,10,0.5,0.5
2024-04-26T2000,1044A,119.5897,39.9499,秦皇岛市,监测站,细颗粒物(PM2.5),83,107,110,61,61,128,,142,142,49,38,6,4,0.6,0.6
2024-04-26T2000,1046A,119.5251,39.9041,秦皇岛市,建设大厦,颗粒物(PM10),79,107,103,47,43,129,,143,143,37,25,6,6,0.3,0.3
2024-04-26T2000,3132A,119.610547,39.943889,秦皇岛市,文明里,颗粒物(PM10),81,112,109,46,44,122,,140,140,47,34,1,2,0.5,0.5
2024-04-26T2000,1307A,120.6659,36.2403,青岛市,仰口,,29,14,39,9,17,91,,123,114,11,11,3,4,0.5,0.5
2024-04-26T2000,1310A,120.4134,36.0658,青岛市,市南区东部子站,,31,19,39,5,14,99,,103,103,22,19,5,7,0.4,0.4
2024-04-26T2000,1311A,120.3664,36.1032,青岛市,四方区子站,,33,27,39,14,16,105,,122,120,26,22,4,4,0.4,0.4
2024-04-26T2000,1312A,120.2994,36.054,青岛市,市南区西部子站,,32,22,37,5,11,101,,101,101,27,26,6,7,0.6,0.6
2024-04-26T2000,1313A,120.4581,36.0858,青岛市,崂山区子站,,35,12,36,7,12,112,,107,107,18,21,7,8,0.5,0.5
2024-04-26T2000,1314A,120.1983,35.9608,青岛市,黄岛区子站,,35,19,36,7,14,110,,110,110,13,20,5,6,0.5,0.5
2024-04-26T2000,1315A,120.3999,36.3083,青岛市,城阳区子站,,,24,47,7,15,90,,134,123,31,26,7,8,,0.5
2024-04-26T2000,1966A,120.0405,35.8735,青岛市,黄岛区4号,,36,17,34,2,8,115,,113,113,14,20,8,9,0.5,0.6
2024-04-26T2000,3362A,120.5014,36.4034,青岛市,即墨2号,,38,13,53,8,17,121,,150,139,9,17,5,6,0.5,0.5
2024-04-26T2000,3642A,120.3503,36.0736,青岛市,市北区南部,,35,20,37,7,10,110,,120,120,23,21,5,6,0.5,0.5
2024-04-26T2000,3643A,120.3948,36.1805,青岛市,李沧区北部,,33,22,43,17,18,103,,126,122,30,25,7,9,0.4,0.5
2024-04-26T2000,1702A,113.0426,23.691,清远市,环保大楼,,31,23,20,12,11,98,,121,121,6,11,4,5,0.9,0.9
2024-04-26T2000,1703A,113.0208,23.7106,清远市,凤城街办,,38,35,25,26,19,121,,147,147,18,24,4,4,0.6,0.5
2024-04-26T2000,3025A,113.0477,23.6344,清远市,技师学院,,37,23,32,12,17,118,,151,151,10,20,4,5,0.6,0.6
2024-04-26T2000,3318A,112.9903,23.7403,清远市,清新太和,,43,43,26,25,15,120,,150,150,20,21,4,5,0.5,0.5
2024-04-26T2000,3455A,113.076,23.7198,清远市,清城东城,,,40,24,21,15,,,157,157,16,17,4,5,0.4,0.5
2024-04-26T2000,2661A,107.6325,35.7357,庆阳市,庆阳五中,,49,49,43,21,18,114,,133,132,28,14,8,5,0.4,0.3
2024-04-26T2000,2662A,107.6364,35.7067,庆阳市,市环保局,,50,50,41,20,14,114,,128,128,24,12,4,5,0.3,0.3
2024-04-26T2000,1916A,103.7897,25.5035,曲靖市,环境监测站,,,,48,,21,132,,152,149,10,11,4,7,0.3,0.6
2024-04-26T2000,1917A,103.8,25.5364,曲靖市,烟厂办公区,,50,50,46,18,21,136,,150,148,9,11,4,4,0.3,0.4
2024-04-26T2000,3376A,103.7947,25.462,曲靖市,南苑二区,,47,41,49,17,21,149,,159,157,8,13,4,9,0.3,0.4
2024-04-26T2000,3377A,103.7444,25.5261,曲靖市,曲靖师范学院,颗粒物(PM10),55,60,45,18,27,135,,150,147,9,15,7,10,0.5,0.6
2024-04-26T2000,1264A,118.8692,28.9398,衢州市,环保大楼,,27,27,45,16,28,69,,119,116,34,22,6,6,0.7,0.5
2024-04-26T2000,1265A,118.8709,28.9666,衢州市,实验学校,,26,26,46,16,30,68,,117,114,32,22,9,7,0.6,0.5
2024-04-26T2000,1266A,118.8621,28.9808,衢州市,衢州学院,,23,23,40,15,29,46,,114,108,43,23,3,4,0.5,0.4
2024-04-26T2000,1611A,118.5819,24.9117,泉州市,涂山街,,32,32,33,17,29,91,,120,120,34,22,4,4,0.8,1.1
2024-04-26T2000,1612A,118.5972,24.8978,泉州市,津头埔,,31,31,27,18,28,89,,116,116,35,28,2,2,0.8,0.9
2024-04-26T2000,1613A,118.6663,24.9424,泉州市,万安,,,19,27,13,23,116,,126,126,,26,3,2,,1
2024-04-26T2000,3529A,118.6333,24.9264,泉州市,城华南路,,30,17,24,16,25,94,,112,112,36,28,4,3,0.6,0.7
2024-04-26T2000,2626A,88.8876,29.2718,日喀则市,日喀则监测站,,48,19,30,8,16,152,,155,155,5,8,4,4,0.4,0.4
2024-04-26T2000,3726A,88.8781,29.2426,日喀则市,林业技术推广中心,,47,29,40,12,25,148,,146,146,7,10,6,6,0.4,0.5
2024-04-26T2000,1659A,119.471,35.4209,日照市,监测站,,35,34,61,16,25,109,,131,130,27,49,8,11,0.6,0.7
2024-04-26T2000,1660A,119.523,35.4216,日照市,市政府广场,,39,17,55,10,16,122,,139,139,20,30,8,9,0.5,0.6
2024-04-26T2000,1661A,119.5587,35.4044,日照市,港务局,,37,24,45,6,13,116,,128,128,12,19,5,6,0.5,0.5
2024-04-26T2000,3507A,119.5328,35.4625,日照市,职业技术学院,,30,27,50,7,17,96,,118,116,20,24,7,9,0.4,0.5
2024-04-26T2000,3604A,119.3266,35.1044,日照市,岚山环保分局,,39,39,69,12,29,114,,126,126,18,26,7,12,0.4,0.9
2024-04-26T2000,1835A,111.1922,34.7752,三门峡市,市政府,颗粒物(PM10),61,71,66,24,28,144,,136,136,20,21,8,9,0.4,0.4
2024-04-26T2000,1836A,111.1587,34.7942,三门峡市,开发区,颗粒物(PM10),66,81,74,40,39,145,,142,142,21,18,10,10,0.7,0.5
2024-04-26T2000,3039A,111.1911,34.7829,三门峡市,三门峡市第一小学,颗粒物(PM10),58,66,66,22,24,154,,144,144,16,17,9,10,0.5,0.4
2024-04-26T2000,3598A,111.1,34.7167,三门峡市,富达温泉假日酒店,颗粒物(PM10),63,75,66,29,29,148,,138,138,10,19,9,9,0.7,0.7
2024-04-26T2000,2324A,117.6211,26.2625,三明市,三钢,,26,23,32,18,27,64,,99,99,16,21,8,10,0.7,1.2
2024-04-26T2000,2325A,117.635,26.2714,三明市,三明二中,,26,20,30,18,22,67,,99,99,11,22,7,9,0.8,1.3
