timepoint,stationcode,longitude,latitude,area,positionname,primarypollutant,aqi,pm10,pm10_24h,pm2_5,pm2_5_24h,o3,o3_24h,o3_8h,o3_8h_24h,no2,no2_24h,so2,so2_24h,co,co_24h
2024-12-10T1400,2566A,102.1879,31.914,阿坝藏族羌族自治州,州农科所,颗粒物(PM10),54,58,29,15,10,86,,59,59,8,15,10,9,0.4,0.5
2024-12-10T1400,2568A,102.2502,31.8896,阿坝藏族羌族自治州,马师校,,20,6,19,3,16,64,,34,34,9,24,4,4,0.4,0.5
2024-12-10T1400,3994A,102.2165,31.9024,阿坝藏族羌族自治州,马尔康中学西区,,22,10,28,3,14,68,,38,38,6,20,5,5,0.4,0.5
2024-12-10T1400,2695A,80.292,41.1694,阿克苏地区,电视台,,,37,49,28,35,,,65,51,19,24,3,3,0.5,0.7
2024-12-10T1400,2696A,80.2613,41.1551,阿克苏地区,艺术中心,,34,34,50,19,29,70,,65,59,13,17,3,3,0.5,0.5
2024-12-10T1400,2204A,105.6467,38.8363,阿拉善盟,西城区西花园,,43,39,53,30,38,53,,43,43,19,26,12,14,0.7,0.9
2024-12-10T1400,2205A,105.6985,38.8411,阿拉善盟,蒙二幼,,48,48,53,23,29,50,,37,37,19,29,9,10,0.7,0.9
2024-12-10T1400,2206A,105.724,38.8516,阿拉善盟,环保局新楼,,,,42,,26,50,,37,37,15,22,9,11,0.7,0.8
2024-12-10T1400,2708A,88.1264,47.8517,阿勒泰地区,市站,,30,30,23,17,15,27,,20,19,31,27,12,8,0.5,0.5
2024-12-10T1400,2630A,80.1161,32.5,阿里地区,阿里监测站,,29,9,10,3,6,91,,90,75,7,5,6,8,0.5,0.4
2024-12-10T1400,3192A,80.0903,32.5028,阿里地区,阿里藏医院,,29,7,12,3,5,92,,90,75,3,4,5,6,0.6,0.5
2024-12-10T1400,2642A,109.0318,32.6537,安康市,香溪洞,,43,,52,30,51,86,,74,74,9,14,10,10,0.3,0.4
2024-12-10T1400,2644A,109.0072,32.6975,安康市,汉滨区检察院,,48,41,65,33,51,88,,78,78,10,19,7,9,0.4,0.5
2024-12-10T1400,4054A,109.0325,32.6913,安康市,市邮政管理局,,42,42,71,26,53,83,,68,68,14,23,7,9,0.5,0.7
2024-12-10T1400,2291A,117.0809,30.5177,安庆市,环科院,细颗粒物(PM2.5),90,95,92,67,65,12,,18,13,51,41,6,8,1.0,0.8
2024-12-10T1400,2292A,117.0331,30.5119,安庆市,马山宾馆,细颗粒物(PM2.5),93,89,93,69,70,10,,16,11,48,43,7,10,1.0,0.8
2024-12-10T1400,2294A,116.9896,30.6145,安庆市,安庆大学,细颗粒物(PM2.5),88,86,87,65,64,16,,17,16,53,45,9,10,1.2,1
2024-12-10T1400,3173A,117.0598,30.5351,安庆市,市人大,细颗粒物(PM2.5),93,87,88,69,65,11,,18,13,53,45,6,8,0.9,0.7
2024-12-10T1400,3122A,105.9606,26.2611,安顺市,伍家关,,10,6,4,3,2,32,,25,25,9,10,7,7,0.6,0.6
2024-12-10T1400,3123A,105.9408,26.2431,安顺市,凤凰山,,9,6,9,3,5,27,,24,21,12,12,10,11,0.7,0.6
2024-12-10T1400,3124A,105.9439,26.2564,安顺市,金钟山,,12,,1,8,11,30,,27,24,8,8,12,12,0.6,0.6
2024-12-10T1400,3125A,105.8983,26.2481,安顺市,娄家坡,,12,12,13,7,11,25,,23,20,11,11,12,11,0.6,0.6
2024-12-10T1400,1818A,114.4839,36.0621,安阳市,棉研所,细颗粒物(PM2.5),158,187,136,120,108,24,,11,11,51,51,13,12,1.1,1
2024-12-10T1400,1819A,114.3551,36.1017,安阳市,红庙街,细颗粒物(PM2.5),147,140,130,112,93,22,,13,13,56,50,16,10,1.3,1.3
2024-12-10T1400,1820A,114.361,36.0681,安阳市,银杏小区,细颗粒物(PM2.5),156,133,117,119,95,20,,13,13,56,47,13,7,1.8,1.4
2024-12-10T1400,3141A,114.3922,36.0878,安阳市,信访局,细颗粒物(PM2.5),152,152,129,116,93,20,,14,14,57,51,13,9,1.2,1
2024-12-10T1400,3669A,114.4705,36.0637,安阳市,左辅环卫站,细颗粒物(PM2.5),156,160,140,119,100,26,,17,17,53,49,9,8,1.1,1
2024-12-10T1400,3703A,114.2917,36.0949,安阳市,安钢职工学校,细颗粒物(PM2.5),158,167,151,120,106,18,,12,12,71,56,23,12,1.5,1.3
2024-12-10T1400,1748A,123.044,41.1196,鞍山市,深沟寺,,47,47,64,29,41,43,,30,30,22,43,23,19,0.8,1.3
2024-12-10T1400,1749A,123.011,41.0931,鞍山市,太阳城,,40,40,59,25,42,44,,30,30,26,39,19,13,1.0,1.2
2024-12-10T1400,1750A,123.0485,41.1442,鞍山市,太平,,42,42,84,22,53,42,,27,27,25,46,19,14,0.7,1.5
2024-12-10T1400,1751A,122.9642,41.0971,鞍山市,铁西三道街,,44,44,111,21,62,37,,21,21,28,50,24,20,1.3,1.9
2024-12-10T1400,1752A,122.9341,41.0833,鞍山市,铁西工业园区,,39,39,114,16,62,45,,28,28,26,55,14,17,0.6,1.9
2024-12-10T1400,1753A,123.022,41.0821,鞍山市,明达新区,,37,37,60,24,40,45,,31,31,18,29,19,14,0.7,1.1
2024-12-10T1400,1754A,123.1289,41.0228,鞍山市,千山,,,,48,,31,,,13,,,22,,5,,0.9
2024-12-10T1400,2195A,107.4212,40.761,巴彦淖尔市,附二中,颗粒物(PM10),63,75,89,35,41,24,,14,14,46,47,13,17,0.7,0.8
2024-12-10T1400,2196A,107.37,40.7372,巴彦淖尔市,市环保大楼,颗粒物(PM10),56,61,65,32,32,37,,24,24,27,40,8,10,0.4,0.5
2024-12-10T1400,1956A,86.1472,41.7538,巴音郭楞蒙古自治州,孔雀公园,,26,19,39,18,25,64,,56,56,22,28,3,4,0.4,0.4
2024-12-10T1400,1957A,86.1972,41.7166,巴音郭楞蒙古自治州,棉纺厂,颗粒物(PM10),57,64,47,12,15,73,,66,66,6,13,2,2,0.3,0.4
2024-12-10T1400,1958A,86.2357,41.7173,巴音郭楞蒙古自治州,经济开发区,,24,22,32,7,19,75,,72,72,10,12,3,3,0.3,0.3
2024-12-10T1400,2914A,106.7677,31.8794,巴中市,苏山坪,,50,44,34,35,28,38,,45,43,19,10,4,4,0.4,0.4
2024-12-10T1400,3182A,106.7656,31.8545,巴中市,丽阳花园,,48,48,46,32,31,45,,21,21,22,29,4,3,0.5,0.6
2024-12-10T1400,3183A,106.7418,31.8654,巴中市,圣泉水务公司,,42,33,36,29,29,42,,21,21,20,26,3,3,0.3,0.4
2024-12-10T1400,3616A,106.7616,31.8344,巴中市,市中心医院,细颗粒物(PM2.5),52,46,50,36,37,53,,22,22,18,26,3,3,0.3,0.4
2024-12-10T1400,2235A,122.7911,45.6077,白城市,洮北区环保局,,26,26,46,13,47,52,,49,49,15,26,7,7,0.5,0.8
2024-12-10T1400,2236A,122.8738,45.5725,白城市,市环保局,,27,27,46,12,35,57,,55,55,11,27,5,5,0.5,0.7
2024-12-10T1400,2231A,126.4219,41.9171,白山市,喜丰,细颗粒物(PM2.5),59,62,91,42,39,44,,25,25,39,47,40,34,0.9,1
2024-12-10T1400,2232A,126.4077,41.9419,白山市,环保局,细颗粒物(PM2.5),67,63,83,48,46,45,,23,23,30,38,30,22,0.8,1
2024-12-10T1400,2647A,104.1724,36.5446,白银市,第三小学,细颗粒物(PM2.5),55,,57,39,38,64,,52,52,11,20,8,18,0.6,0.8
2024-12-10T1400,2648A,104.1465,36.5482,白银市,动力公司,细颗粒物(PM2.5),57,,42,40,40,63,,54,54,10,19,6,14,0.7,0.8
2024-12-10T1400,2512A,106.6103,23.9011,百色市,市监测站,细颗粒物(PM2.5),99,91,71,74,55,61,,30,30,26,25,24,17,1.3,1
2024-12-10T1400,2513A,106.6538,23.8859,百色市,市中心血站,细颗粒物(PM2.5),94,99,80,70,60,64,,31,31,23,26,21,15,1.1,0.9
2024-12-10T1400,3406A,106.6085,23.8798,百色市,祈福高中,细颗粒物(PM2.5),84,99,84,62,48,58,,25,25,27,29,17,14,1.0,0.9
2024-12-10T1400,2270A,117.396,32.939,蚌埠市,工人疗养院,细颗粒物(PM2.5),85,90,73,63,49,51,,32,32,31,42,6,5,0.6,0.5
2024-12-10T1400,2271A,117.3605,32.9427,蚌埠市,百货大楼,细颗粒物(PM2.5),87,90,73,64,48,49,,29,29,27,39,7,6,0.6,0.6
2024-12-10T1400,2273A,117.4185,32.8911,蚌埠市,蚌埠学院,细颗粒物(PM2.5),72,75,72,52,48,54,,29,29,40,61,13,17,0.5,0.5
2024-12-10T1400,2274A,117.3533,32.9673,蚌埠市,淮上区政府,细颗粒物(PM2.5),88,95,72,65,51,51,,30,30,30,36,6,5,0.5,0.4
2024-12-10T1400,2275A,117.3145,32.8977,蚌埠市,高新区,细颗粒物(PM2.5),79,83,64,58,46,50,,35,35,38,42,9,9,0.5,0.5
2024-12-10T1400,3715A,117.3092,32.9314,蚌埠市,蚌埠田家炳中学,细颗粒物(PM2.5),92,95,71,68,48,50,,33,33,29,34,8,7,0.5,0.5
2024-12-10T1400,1585A,109.8756,40.6532,包头市,市环境监测站,颗粒物(PM10),67,83,80,33,42,16,,30,26,53,50,39,22,1.7,1.6
2024-12-10T1400,1587A,109.9991,40.5842,包头市,包头八中,颗粒物(PM10),90,129,74,60,53,14,,11,11,46,53,23,18,1.2,1.6
2024-12-10T1400,1588A,109.8538,40.6821,包头市,青山宾馆,,,,79,48,48,26,,25,,,53,17,26,1.3,2
2024-12-10T1400,1589A,109.8642,40.6288,包头市,惠龙物流,细颗粒物(PM2.5),77,98,75,56,36,16,,29,25,51,51,36,20,1.7,1.5
2024-12-10T1400,1590A,110.0377,40.5546,包头市,东河鸿龙湾,颗粒物(PM10),68,85,87,35,49,11,,8,8,42,38,26,21,0.9,1.6
2024-12-10T1400,3283A,109.9154,40.5685,包头市,滨河大厦,细颗粒物(PM2.5),89,103,81,66,48,17,,12,12,47,55,34,20,1.2,1.6
2024-12-10T1400,3419A,109.9447,40.6261,包头市,包头市委党校,颗粒物(PM10),86,122,95,60,44,15,,10,10,57,62,54,22,1.6,1.6
2024-12-10T1400,3683A,109.8331,40.6576,包头市,昆区政府,细颗粒物(PM2.5),105,,70,79,44,22,,35,34,48,48,23,24,1.2,1.6
2024-12-10T1400,1930A,107.185,34.3063,宝鸡市,庙沟村,细颗粒物(PM2.5),77,58,51,56,49,46,,47,45,22,24,7,7,0.6,0.5
2024-12-10T1400,1931A,107.0708,34.3017,宝鸡市,竹园沟,细颗粒物(PM2.5),88,72,54,65,48,49,,48,48,25,22,8,7,0.8,0.6
2024-12-10T1400,1932A,107.1906,34.3672,宝鸡市,三陆医院,细颗粒物(PM2.5),98,73,61,73,52,47,,36,36,23,34,6,7,0.6,0.8
2024-12-10T1400,1933A,107.1431,34.3547,宝鸡市,监测站,细颗粒物(PM2.5),88,74,66,65,54,46,,40,39,21,26,8,10,0.7,0.6
2024-12-10T1400,1934A,107.1186,34.3739,宝鸡市,技工学校,细颗粒物(PM2.5),85,83,55,63,48,43,,46,43,23,23,6,7,0.7,0.6
2024-12-10T1400,1935A,107.3906,34.3528,宝鸡市,陈仓区环保局家属楼,细颗粒物(PM2.5),87,70,67,64,54,52,,40,40,23,31,8,8,0.8,0.7
2024-12-10T1400,1936A,107.2058,34.3497,宝鸡市,文理学院,细颗粒物(PM2.5),83,64,61,61,49,43,,42,39,20,25,7,8,0.7,0.6
2024-12-10T1400,1937A,107.2386,34.3622,宝鸡市,三迪小学,,,,56,73,54,43,,36,36,26,35,,8,0.8,0.7
2024-12-10T1400,1051A,115.493,38.8632,保定市,游泳馆,,49,43,94,34,58,36,,20,20,26,49,3,3,0.5,0.8
2024-12-10T1400,1052A,115.5213,38.8959,保定市,华电二区,,36,36,83,24,58,33,,15,15,35,56,3,3,0.3,0.6
2024-12-10T1400,1053A,115.4713,38.9108,保定市,接待中心,,40,40,90,20,59,35,,15,15,31,49,3,2,0.0,0.6
2024-12-10T1400,1054A,115.4612,38.8416,保定市,地表水厂,颗粒物(PM10),51,51,115,24,64,39,,23,23,33,58,1,4,0.3,0.7
2024-12-10T1400,3581A,115.31981,38.95208,保定市,满城区生态环境分局,,31,31,89,14,51,44,,23,23,33,60,3,3,0.4,0.9
2024-12-10T1400,3582A,115.47694,38.76408,保定市,清苑区第二中学,,45,45,108,18,57,31,,18,18,38,55,2,6,0.4,0.8
2024-12-10T1400,3583A,115.62909,39.02311,保定市,徐水物探局,,42,34,93,29,42,29,,15,15,32,44,6,7,0.5,0.8
2024-12-10T1400,4004A,115.4202,38.8656,保定市,双鹰农机,,33,33,92,22,54,45,,27,27,27,47,4,6,0.4,0.7
2024-12-10T1400,4034A,115.5150,38.8590,保定市,植保所站,,47,47,97,29,58,34,,16,16,35,58,4,6,0.5,0.8
2024-12-10T1400,2594A,99.1678,25.1081,保山市,市环境监测站,,30,30,25,7,8,87,,65,65,4,7,4,4,0.3,0.3
2024-12-10T1400,2595A,99.1711,25.1328,保山市,市环保局,,28,28,24,9,16,89,,69,69,3,4,7,6,0.2,0.3
2024-12-10T1400,1866A,109.2262,21.588,北海市,牛尾岭水库,,,51,39,36,36,115,,71,67,,14,7,7,0.8,0.8
2024-12-10T1400,1867A,109.1436,21.4086,北海市,海滩公园,,49,48,45,34,29,146,,92,89,14,13,12,11,0.7,0.7
2024-12-10T1400,1868A,109.0981,21.4661,北海市,新市环保局,颗粒物(PM10),56,61,48,31,32,134,,92,84,17,18,8,8,0.6,0.6
2024-12-10T1400,1869A,109.1778,21.5233,北海市,北海工业园,颗粒物(PM10),59,67,52,29,37,126,,79,73,14,19,8,10,0.8,0.8
2024-12-10T1400,3400A,109.1911,21.4415,北海市,龙潭自来水厂,细颗粒物(PM2.5),65,56,44,47,36,141,,89,86,12,12,11,9,0.7,0.7
2024-12-10T1400,1001A,116.3621,39.8784,北京市,万寿西宫,,27,27,50,15,27,59,,41,41,16,54,3,5,0.2,0.5
2024-12-10T1400,1002A,116.2202,40.2915,北京市,定陵,,29,27,26,20,19,41,,38,38,13,15,7,5,0.4,0.3
2024-12-10T1400,1003A,116.4174,39.9289,北京市,东四,,23,23,45,12,23,59,,36,36,15,51,2,3,0.3,0.6
2024-12-10T1400,1004A,116.4072,39.8863,北京市,天坛,,21,21,46,12,27,65,,36,36,11,46,1,2,0.2,0.4
2024-12-10T1400,1005A,116.462,39.9365,北京市,农展馆,,26,26,45,12,22,62,,41,41,10,49,3,3,0.4,0.6
2024-12-10T1400,1006A,116.3392,39.9295,北京市,官园,,23,23,46,13,26,58,,32,32,11,51,3,5,0.2,0.4
2024-12-10T1400,1007A,116.2878,39.9611,北京市,海淀万柳,,35,35,59,19,29,54,,26,26,18,59,4,4,0.3,0.8
2024-12-10T1400,1008A,116.6636,40.135,北京市,顺义新城,,19,18,30,11,15,60,,52,52,6,28,3,3,0.2,0.4
2024-12-10T1400,1009A,116.6275,40.3275,北京市,怀柔镇,,23,23,26,12,15,54,,40,40,12,27,3,2,0.4,0.6
2024-12-10T1400,1010A,116.2296,40.217,北京市,昌平镇,,29,29,36,18,20,59,,54,54,10,22,8,8,0.4,0.4
2024-12-10T1400,1011A,116.3966,39.9821,北京市,奥体中心,,30,30,44,15,22,53,,39,39,17,50,4,5,0.3,0.4
2024-12-10T1400,1012A,116.184,39.9136,北京市,古城,,39,39,64,20,29,49,,25,25,17,44,6,7,0.4,0.6
2024-12-10T1400,3281A,115.9718,40.4529,北京市,延庆夏都,,44,44,53,30,34,0,,6,5,18,34,3,3,0.4,0.6
2024-12-10T1400,3417A,117.0709,40.1465,北京市,平谷新城,,20,19,48,8,19,62,,30,30,5,25,3,2,0.2,0.5
2024-12-10T1400,3418A,116.8336,40.4095,北京市,密云新城,,20,14,22,8,11,61,,56,56,4,17,3,2,0.1,0.3
2024-12-10T1400,3671A,116.088,39.9726,北京市,门头沟三家店,,38,38,52,19,22,46,,24,24,20,46,5,4,0.3,0.4
2024-12-10T1400,3672A,116.1541,39.8204,北京市,丰台云岗,,37,37,57,19,27,45,,21,21,21,55,3,4,0.3,0.4
2024-12-10T1400,3673A,116.6804,39.9081,北京市,通州东关,,31,31,48,13,23,53,,46,46,12,43,2,3,0.3,0.5
2024-12-10T1400,3674A,115.9577,39.7603,北京市,房山燕山,,42,42,40,19,24,41,,29,29,28,32,2,3,0.3,0.4
2024-12-10T1400,3675A,116.4672,39.7733,北京市,大兴旧宫,,21,21,56,10,8,57,,32,32,11,49,1,2,0.2,0.5
2024-12-10T1400,3694A,115.986,40.4563,北京市,延庆石河营,,46,46,51,30,33,38,,16,16,19,30,2,2,0.4,0.7
2024-12-10T1400,3695A,116.6151,40.3053,北京市,怀柔新城,,17,17,23,10,15,51,,43,43,10,16,2,2,0.2,0.3
2024-12-10T1400,3696A,116.2545,39.8768,北京市,丰台小屯,,23,23,59,12,28,59,,27,27,9,57,3,5,0.3,0.6
2024-12-10T1400,3697A,116.84,40.3844,北京市,密云镇,,20,18,28,8,13,61,,53,53,6,28,3,3,0.1,0.3
2024-12-10T1400,1761A,123.8275,41.3064,本溪市,大峪,细颗粒物(PM2.5),172,187,106,130,66,24,,13,13,66,49,20,14,2.7,2.4
2024-12-10T1400,1762A,123.7567,41.3325,本溪市,溪湖,细颗粒物(PM2.5),153,182,136,117,74,28,,14,14,61,46,18,12,1.9,2.2
2024-12-10T1400,1763A,123.7169,41.3094,本溪市,彩屯,细颗粒物(PM2.5),155,156,122,118,89,27,,15,15,62,55,16,12,1.7,2.3
2024-12-10T1400,1764A,123.7669,41.2864,本溪市,东明,细颗粒物(PM2.5),169,177,108,128,78,22,,13,13,67,53,22,14,2.4,2.4
2024-12-10T1400,1765A,123.7992,41.2664,本溪市,新立屯,颗粒物(PM10),129,208,93,87,42,27,,15,15,76,56,23,10,3.2,2.1
2024-12-10T1400,1766A,123.8142,41.3472,本溪市,威宁,细颗粒物(PM2.5),179,224,125,135,63,24,,15,15,74,45,17,11,2.0,1.9
2024-12-10T1400,2587A,105.2864,27.3125,毕节市,八中,,16,8,9,3,7,49,,43,43,10,12,6,7,0.5,0.5
2024-12-10T1400,2588A,105.31,27.2944,毕节市,师专,,13,13,10,9,8,41,,34,34,13,13,5,7,0.7,0.6
2024-12-10T1400,3537A,105.3631,27.3533,毕节市,长征村,,14,6,7,3,6,43,,32,32,7,10,7,8,0.5,0.5
2024-12-10T1400,1629A,118.0018,37.3617,滨州市,第二水厂,细颗粒物(PM2.5),117,127,127,88,86,35,,20,20,56,60,17,13,0.5,0.5
2024-12-10T1400,1630A,117.9776,37.393,滨州市,北中新校,细颗粒物(PM2.5),134,151,132,102,87,32,,22,22,65,61,14,10,0.6,0.7
2024-12-10T1400,3514A,117.9378,37.3956,滨州市,中海酒店,细颗粒物(PM2.5),138,139,137,105,97,45,,30,30,47,53,14,14,0.7,0.9
2024-12-10T1400,3515A,117.9378,37.3553,滨州市,开发区一中,细颗粒物(PM2.5),104,112,131,78,89,43,,21,21,51,65,14,17,0.7,0.8
2024-12-10T1400,3516A,118.0917,37.694,滨州市,金海六路,细颗粒物(PM2.5),104,110,147,78,100,40,,24,24,44,57,16,16,,1.2
2024-12-10T1400,4028A,117.9956,37.3753,滨州市,滨州市西街道办事处,细颗粒物(PM2.5),134,134,132,102,97,34,,22,22,55,51,14,10,1.0,1.3
2024-12-10T1400,2311A,115.8072,33.8399,亳州市,污水处理厂,颗粒物(PM10),64,78,80,38,46,43,,22,22,27,32,9,9,0.7,0.6
2024-12-10T1400,2312A,115.7789,33.8518,亳州市,三国揽胜宫,颗粒物(PM10),68,85,88,44,52,46,,24,24,33,37,10,8,0.6,0.5
2024-12-10T1400,3332A,115.7633,33.8034,亳州市,亳州学院,颗粒物(PM10),64,77,76,43,46,46,,30,30,30,31,7,4,0.5,0.5
2024-12-10T1400,2693A,82.0485,44.8556,博尔塔拉蒙古自治州,市党校,,27,27,26,17,22,60,,62,62,13,13,7,5,0.3,0.6
2024-12-10T1400,2694A,82.0806,44.8969,博尔塔拉蒙古自治州,市环保局,,44,44,45,20,19,51,,70,59,22,14,8,7,0.2,0.2
2024-12-10T1400,1071A,116.8842,38.2991,沧州市,沧县城建局,细颗粒物(PM2.5),58,52,121,41,89,38,,19,19,41,72,7,11,0.2,0.8
2024-12-10T1400,1072A,116.8584,38.3254,沧州市,电视转播站,,50,50,120,29,88,40,,17,17,38,62,8,16,0.4,1
2024-12-10T1400,1073A,116.8709,38.3228,沧州市,市环保局,细颗粒物(PM2.5),53,46,109,37,88,36,,17,17,40,64,4,9,0.6,1.1
2024-12-10T1400,3324A,116.8136,38.3004,沧州市,河北水利电力学院,,46,46,128,27,85,49,,19,19,24,61,6,13,0.3,1
2024-12-10T1400,2622A,97.1806,31.1273,昌都市,昌都监测站,,25,16,24,7,9,77,,56,56,18,15,6,6,0.7,0.6
2024-12-10T1400,3719A,97.1714,31.1406,昌都市,昌都会议中心,,28,8,22,3,9,89,,69,63,2,7,5,4,0.5,0.6
2024-12-10T1400,2690A,88.1236,43.8886,昌吉回族自治州,天山天池,,19,11,11,10,11,60,,58,57,3,5,1,1,0.6,0.6
2024-12-10T1400,2692A,87.2717,44.0297,昌吉回族自治州,新区政务中心,,50,41,31,35,17,37,,17,17,24,35,7,8,0.9,0.9
2024-12-10T1400,3613A,87.3095,44.0142,昌吉回族自治州,亚心广场,细颗粒物(PM2.5),62,53,29,44,21,36,,34,22,31,33,7,7,0.6,0.5
2024-12-10T1400,1119A,125.3325,43.9166,长春市,食品厂,"颗粒物(PM10),细颗粒物(PM2.5)",67,84,74,48,53,53,,24,24,25,43,9,17,0.6,0.9
2024-12-10T1400,1120A,125.2863,43.9027,长春市,客车厂,细颗粒物(PM2.5),73,60,70,53,60,50,,28,28,28,44,9,20,0.4,0.7
2024-12-10T1400,1121A,125.2841,43.8463,长春市,邮电学院,细颗粒物(PM2.5),62,60,81,44,62,60,,30,30,23,52,12,21,0.5,0.8
2024-12-10T1400,1122A,125.3716,43.8772,长春市,劳动公园,细颗粒物(PM2.5),63,52,71,45,52,58,,29,29,28,54,12,21,0.6,0.7
2024-12-10T1400,1123A,125.3297,43.8805,长春市,园林处,,,60,65,43,48,,,23,23,23,49,,19,0.5,0.9
2024-12-10T1400,1124A,125.4605,43.79,长春市,净月潭,颗粒物(PM10),58,66,68,37,47,50,,26,26,27,40,12,10,0.5,0.9
2024-12-10T1400,1125A,125.7194,43.515,长春市,甩湾子,细颗粒物(PM2.5),52,50,64,36,59,39,,26,26,23,28,9,8,0.8,1.1
2024-12-10T1400,1126A,125.3863,43.8447,长春市,经开区环卫处,颗粒物(PM10),56,61,78,38,53,55,,21,21,24,50,14,21,0.8,1.2
2024-12-10T1400,1127A,125.245,43.7783,长春市,高新区管委会,细颗粒物(PM2.5),64,51,74,46,56,56,,32,32,26,47,9,11,0.7,1.1
2024-12-10T1400,1128A,125.1761,43.8325,长春市,岱山公园,细颗粒物(PM2.5),65,69,76,47,66,55,,30,30,20,41,8,12,0.7,1
2024-12-10T1400,1335A,113.0833,28.2325,长沙市,经开区环保局,细颗粒物(PM2.5),60,58,89,43,63,20,,41,30,33,36,3,2,0.6,0.6
2024-12-10T1400,1336A,112.8872,28.2189,长沙市,高开区环保局,细颗粒物(PM2.5),53,53,80,37,61,18,,20,16,26,27,4,5,0.9,0.7
2024-12-10T1400,1337A,113.0792,28.2053,长沙市,马坡岭,,,62,84,46,64,23,,40,26,,32,2,3,0.8,0.8
2024-12-10T1400,1338A,112.9394,28.19,长沙市,湖南师范大学,,,,86,,62,15,,22,,23,32,2,4,,0.6
2024-12-10T1400,1339A,113.0178,28.1322,长沙市,雨花区环保局,,49,49,84,33,64,14,,39,26,37,34,4,6,0.7,0.6
2024-12-10T1400,1340A,112.9792,28.2597,长沙市,伍家岭,颗粒物(PM10),54,58,85,34,60,12,,21,14,31,34,2,4,1.0,0.8
2024-12-10T1400,1341A,113.0014,28.1944,长沙市,火车新站,,,,87,39,66,13,,35,23,,33,1,3,1.0,0.7
2024-12-10T1400,1342A,112.9844,28.1178,长沙市,天心区环保局,颗粒物(PM10),54,57,92,35,61,13,,39,23,34,32,3,4,0.7,0.6
2024-12-10T1400,1343A,112.8908,28.1308,长沙市,湖南中医药大学,细颗粒物(PM2.5),55,54,86,39,63,17,,20,15,34,40,5,7,0.9,0.7
2024-12-10T1400,1344A,112.9581,28.3611,长沙市,沙坪,细颗粒物(PM2.5),67,50,70,48,60,21,,25,23,16,19,5,6,0.9,0.7
2024-12-10T1400,1727A,113.1147,36.1547,长治市,清华站,颗粒物(PM10),71,92,101,34,60,37,,11,11,42,58,19,43,1.0,1.7
2024-12-10T1400,1728A,113.1031,36.1989,长治市,监测站,颗粒物(PM10),57,63,81,39,57,38,,10,10,33,51,19,37,0.9,1.5
2024-12-10T1400,1730A,113.0886,36.2125,长治市,审计局,,,85,92,41,58,,,3,3,46,61,16,33,,1.3
2024-12-10T1400,1731A,113.0844,36.1856,长治市,长治八中,细颗粒物(PM2.5),100,99,127,75,72,38,,9,9,31,48,18,33,0.9,1.4
2024-12-10T1400,2845A,113.1569,36.1911,长治市,德盛苑,颗粒物(PM10),69,87,90,39,54,37,,12,12,38,51,14,25,1.0,1.5
2024-12-10T1400,3568A,113.06,36.0464,长治市,向阳小学,细颗粒物(PM2.5),95,105,116,71,74,29,,15,15,45,50,21,25,1.5,1.4
2024-12-10T1400,3569A,112.8792,36.3144,长治市,屯留一中,颗粒物(PM10),53,55,56,35,42,41,,18,18,44,49,22,28,1.9,1.3
2024-12-10T1400,3570A,113.235,36.3489,长治市,潞城四中,细颗粒物(PM2.5),54,46,90,38,52,53,,30,30,29,45,19,29,1.4,1.6
2024-12-10T1400,1854A,111.6975,28.9703,常德市,市二中,细颗粒物(PM2.5),82,69,79,60,69,48,,44,44,18,19,3,6,0.5,0.5
2024-12-10T1400,1857A,111.7158,29.1456,常德市,白鹤山,,,,,,,,,,,,,,,,
2024-12-10T1400,3138A,111.7153,29.0289,常德市,武陵区永安,细颗粒物(PM2.5),85,70,83,63,64,47,,52,52,16,19,1,4,0.5,0.7
2024-12-10T1400,3139A,111.6892,28.9881,常德市,鼎城区玉霞,细颗粒物(PM2.5),79,69,84,58,65,50,,45,45,18,20,2,5,0.6,0.6
2024-12-10T1400,3140A,111.6625,29.0531,常德市,武陵区长庚,细颗粒物(PM2.5),80,69,83,59,64,48,,43,43,15,17,1,4,0.5,0.5
2024-12-10T1400,1196A,119.9633,31.762,常州市,市监测站,颗粒物(PM10),62,73,73,43,48,51,,33,33,27,59,10,12,0.9,1
2024-12-10T1400,1200A,119.9468,31.7069,常州市,武进监测站,颗粒物(PM10),54,58,62,30,41,41,,27,27,40,64,16,14,1.0,1.1
2024-12-10T1400,1201A,119.9255,31.9087,常州市,安家,颗粒物(PM10),54,58,64,37,42,30,,46,40,55,50,10,10,0.6,0.7
2024-12-10T1400,3002A,119.9805,31.8174,常州市,行政中心,颗粒物(PM10),51,52,61,32,43,29,,25,24,48,63,12,13,0.7,0.9
2024-12-10T1400,3003A,120.0522,31.7748,常州市,经开区,颗粒物(PM10),57,64,68,37,42,55,,36,36,33,69,12,13,0.8,0.9
2024-12-10T1400,3010A,119.9025,31.7964,常州市,钟楼,"颗粒物(PM10),细颗粒物(PM2.5)",55,60,65,39,40,43,,31,31,40,62,10,12,1.0,1.1
2024-12-10T1400,3429A,119.8598,31.7066,常州市,武进经发区,颗粒物(PM10),57,64,68,39,44,38,,28,28,41,60,10,11,1.2,1.2
2024-12-10T1400,3430A,119.5826,31.7245,常州市,金坛城区,颗粒物(PM10),53,55,71,35,50,38,,33,33,44,55,12,11,1.2,0.8
2024-12-10T1400,2220A,120.4318,41.5881,朝阳市,西梁,,23,23,97,7,61,63,,26,26,6,40,6,14,0.6,1.9
2024-12-10T1400,2221A,120.4521,41.5646,朝阳市,河畔小区,,43,43,61,13,43,55,,26,26,12,34,7,12,0.7,1.3
2024-12-10T1400,2222A,120.4176,41.5648,朝阳市,八里堡,,40,32,80,28,49,60,,23,23,11,41,10,16,0.7,1.6
2024-12-10T1400,2223A,120.3806,41.5969,朝阳市,农业园区,,22,19,66,7,50,68,,27,27,7,42,8,11,0.4,1.1
2024-12-10T1400,1705A,116.6367,23.6719,潮州市,西园路,,,29,44,21,31,82,,46,,,18,8,6,,0.5
2024-12-10T1400,3026A,116.6183,23.6608,潮州市,市政府,,44,44,46,11,23,86,,58,58,12,19,7,5,0.3,0.7
2024-12-10T1400,4036A,116.6461,23.6761,潮州市,金山,颗粒物(PM10),52,53,41,12,24,92,,56,56,11,17,10,7,0.5,0.7
2024-12-10T1400,2472A,113.0073,25.9061,郴州市,马头岭,细颗粒物(PM2.5),87,102,99,64,66,33,,33,29,36,29,15,12,0.8,0.7
2024-12-10T1400,2473A,113.0116,25.8226,郴州市,市职中,细颗粒物(PM2.5),93,77,85,69,72,26,,25,18,30,28,17,10,0.8,0.8
2024-12-10T1400,2474A,113.0161,25.8001,郴州市,兴隆步行街,细颗粒物(PM2.5),112,98,96,84,86,24,,24,18,27,25,17,11,0.9,0.9
2024-12-10T1400,2475A,113.0383,25.8071,郴州市,市审计局,细颗粒物(PM2.5),95,86,89,71,75,25,,26,20,25,23,19,11,0.9,0.9
2024-12-10T1400,2476A,113.0348,25.7759,郴州市,市环保局,细颗粒物(PM2.5),105,92,91,79,83,27,,32,23,24,22,16,10,0.9,0.8
2024-12-10T1400,1431A,103.9728,30.7236,成都市,金泉两河,,42,42,40,14,22,53,,34,33,20,25,1,1,0.4,0.4
2024-12-10T1400,1432A,104.176,30.6872,成都市,十里店,,50,50,40,32,31,49,,37,35,33,31,2,2,0.5,0.5
2024-12-10T1400,1433A,104.079,30.5706,成都市,三瓦窑,颗粒物(PM10),56,61,38,29,26,47,,45,40,32,27,1,2,0.7,0.5
2024-12-10T1400,1434A,104.1114,30.63,成都市,沙河铺,颗粒物(PM10),56,61,42,26,29,44,,42,39,27,21,2,3,0.5,0.4
2024-12-10T1400,1437A,104.0786,30.6531,成都市,君平街,颗粒物(PM10),51,52,41,34,32,51,,39,39,27,25,4,4,0.7,0.7
2024-12-10T1400,1438A,103.613,31.0283,成都市,灵岩寺,,,,,,,,,,,,,,,,
2024-12-10T1400,2880A,104.0239,30.65639,成都市,大石西路,颗粒物(PM10),54,57,45,34,28,55,,38,38,18,21,4,2,0.3,0.3
2024-12-10T1400,3136A,104.2725,30.5589,成都市,龙泉驿区区政府,细颗粒物(PM2.5),64,61,39,46,32,42,,40,36,25,22,4,3,0.5,0.4
2024-12-10T1400,3357A,104.0106,30.6931,成都市,金博路,,,,34,,22,50,,31,29,18,25,,3,0.6,0.6
2024-12-10T1400,3359A,104.0578,30.5225,成都市,华阳,细颗粒物(PM2.5),58,63,37,41,25,44,,40,36,23,18,1,2,0.4,0.4
2024-12-10T1400,3487A,104.2394,30.5319,成都市,车城东七路,细颗粒物(PM2.5),60,54,39,43,33,45,,38,33,26,29,3,3,0.4,0.4
2024-12-10T1400,3488A,104.3853,30.7453,成都市,青白江技师分院,,44,44,40,27,30,59,,36,34,13,20,7,7,0.3,0.3
2024-12-10T1400,3489A,104.0789,30.4072,成都市,科学城,细颗粒物(PM2.5),57,47,36,40,30,54,,44,38,20,23,4,3,0.5,0.4
2024-12-10T1400,4011A,103.8506,30.6947,成都市,光华大道三段,,43,43,35,19,23,51,,36,34,24,25,1,2,0.4,0.4
2024-12-10T1400,1062A,117.9531,40.9081,承德市,铁路,颗粒物(PM10),51,52,55,14,32,31,,15,15,33,38,7,8,0.6,0.8
2024-12-10T1400,1063A,117.9392,40.9763,承德市,中国银行,,,39,51,16,27,40,,19,19,16,29,4,2,,0.7
2024-12-10T1400,1064A,117.9503,40.928,承德市,开发区,颗粒物(PM10),53,55,61,26,34,35,,16,16,30,39,8,6,0.6,0.8
2024-12-10T1400,1065A,117.8051,40.9655,承德市,文化中心,,48,48,72,19,35,42,,19,19,26,41,43,12,0.8,0.8
2024-12-10T1400,1066A,117.9268,41.0026,承德市,离宫,,47,47,39,28,36,34,,24,24,25,26,4,3,0.4,0.4
2024-12-10T1400,2314A,117.47,30.6618,池州市,池州学院,细颗粒物(PM2.5),88,81,92,65,69,6,,6,6,60,56,5,9,0.9,0.8
2024-12-10T1400,3237A,117.4918,30.6617,池州市,展览馆,细颗粒物(PM2.5),94,108,112,70,64,7,,8,7,59,52,7,8,0.9,0.9
2024-12-10T1400,3333A,117.5627,30.695,池州市,第八中学,细颗粒物(PM2.5),89,92,96,66,68,6,,8,8,60,52,6,7,0.8,0.9
2024-12-10T1400,3334A,117.5038,30.6243,池州市,第十二中学,细颗粒物(PM2.5),87,87,91,64,70,6,,19,12,60,42,4,5,0.8,0.5
2024-12-10T1400,1744A,118.9233,42.2816,赤峰市,松山一中,,27,27,44,9,21,64,,33,33,13,36,9,17,0.5,1
2024-12-10T1400,1745A,118.9576,42.2728,赤峰市,哈达街,,22,22,30,9,16,69,,39,39,12,32,8,11,0.5,0.9
2024-12-10T1400,1746A,118.8788,42.2554,赤峰市,天义路,,27,27,33,6,14,64,,36,36,15,36,9,14,0.5,0.8
2024-12-10T1400,3058A,119.2658,42.0353,赤峰市,银河街,,,48,120,12,73,54,,30,30,20,46,18,28,,2.1
2024-12-10T1400,3286A,118.9359,42.3147,赤峰市,桥北物流园区,,34,34,26,3,19,73,,36,36,12,28,11,12,0.6,0.8
2024-12-10T1400,2521A,107.3476,22.4136,崇左市,市环保局江州分局,颗粒物(PM10),86,122,92,60,53,71,,44,44,19,20,9,10,1.0,0.9
2024-12-10T1400,2522A,107.3702,22.3707,崇左市,城南新区,细颗粒物(PM2.5),120,115,81,91,63,70,,47,47,35,25,20,12,1.5,1.1
2024-12-10T1400,2298A,118.3093,32.3153,滁州市,老年大学,,48,48,51,31,33,63,,49,49,29,38,6,6,0.6,0.6
2024-12-10T1400,2299A,118.3244,32.2786,滁州市,人大宾馆,"颗粒物(PM10),细颗粒物(PM2.5)",52,53,55,36,40,60,,46,46,34,45,10,9,0.4,0.4
2024-12-10T1400,3207A,118.3118,32.3038,滁州市,市政府原办公楼,,46,46,50,31,36,61,,47,47,29,39,8,7,0.6,0.6
2024-12-10T1400,3331A,118.3267,32.2634,滁州市,图书馆,,47,47,59,29,34,60,,48,48,26,35,9,8,0.4,0.4
2024-12-10T1400,2605A,101.5482,25.0441,楚雄彝族自治州,州环境监测站,,29,20,25,15,16,90,,44,44,4,22,5,8,0.3,0.4
2024-12-10T1400,2606A,101.538,25.0492,楚雄彝族自治州,市经济开发区,,27,,24,15,15,86,,49,49,4,19,6,5,0.4,0.7
2024-12-10T1400,2548A,107.5277,31.2827,达州市,达州职业技术学院,细颗粒物(PM2.5),80,60,61,59,47,5,,5,5,19,32,11,9,0.9,0.9
2024-12-10T1400,2549A,107.5086,31.2186,达州市,市环境监测站,细颗粒物(PM2.5),58,64,59,41,34,36,,15,15,26,38,8,7,0.6,0.6
2024-12-10T1400,2550A,107.4988,31.2132,达州市,凤凰小区,细颗粒物(PM2.5),62,51,53,44,37,40,,21,21,25,33,9,9,0.6,0.6
2024-12-10T1400,2551A,107.5082,31.1986,达州市,达县机关宾馆,细颗粒物(PM2.5),64,61,57,46,36,34,,14,14,30,41,8,8,0.7,0.7
2024-12-10T1400,2552A,107.4644,31.2124,达州市,市政中心,"颗粒物(PM10),细颗粒物(PM2.5)",52,54,56,36,32,37,,20,20,27,35,10,8,0.6,0.6
2024-12-10T1400,2614A,100.1542,25.7054,大理白族自治州,大理市环境监测站,,29,18,19,15,18,90,,79,78,4,5,7,7,0.5,0.5
2024-12-10T1400,2615A,100.2171,25.5811,大理白族自治州,大理古城,,30,28,23,3,9,94,,96,96,5,4,5,5,0.5,0.5
2024-12-10T1400,1109A,121.612,38.9741,大连市,甘井子,颗粒物(PM10),55,59,42,37,30,48,,38,38,45,49,19,15,1.1,1
2024-12-10T1400,1110A,121.565,38.9511,大连市,周水子,细颗粒物(PM2.5),68,65,46,49,39,47,,25,25,35,48,21,12,0.9,1
2024-12-10T1400,1111A,121.5637,38.8845,大连市,星海三站,细颗粒物(PM2.5),72,69,41,52,30,52,,34,34,34,41,17,14,0.8,0.8
2024-12-10T1400,1112A,121.6302,38.9117,大连市,青泥洼桥,细颗粒物(PM2.5),58,64,47,41,28,39,,29,29,38,39,19,13,0.7,0.8
2024-12-10T1400,1113A,121.6251,38.8638,大连市,傅家庄,,50,50,34,34,23,52,,42,42,32,31,17,16,0.9,0.9
2024-12-10T1400,1114A,121.5213,38.8661,大连市,七贤岭,细颗粒物(PM2.5),53,51,39,37,25,66,,42,42,25,32,15,9,1.0,0.9
2024-12-10T1400,1115A,121.2529,38.8061,大连市,旅顺,细颗粒物(PM2.5),58,54,34,41,26,60,,53,53,18,17,16,12,0.8,0.8
2024-12-10T1400,1116A,121.7485,39.1311,大连市,金州,,36,36,50,25,33,63,,43,43,18,32,11,12,0.8,1.1
2024-12-10T1400,1117A,121.7811,39.0496,大连市,开发区,,48,48,54,28,35,59,,41,41,24,47,21,17,0.8,1
2024-12-10T1400,1118A,121.9762,39.0631,大连市,双D港,,40,40,35,26,24,76,,66,66,15,17,14,12,0.8,0.9
2024-12-10T1400,1789A,124.81117,46.03138,大庆市,大同区,,,,93,,77,,,29,,,36,,5,,0.9
2024-12-10T1400,1790A,125.129,46.533,大庆市,龙凤区,,33,31,95,23,78,42,,31,31,28,46,42,16,0.5,0.9
2024-12-10T1400,1791A,124.902,46.408,大庆市,红岗区,,20,17,75,14,56,57,,38,38,8,41,7,6,0.3,0.7
2024-12-10T1400,1792A,125.153,46.586,大庆市,萨尔图区,,33,33,101,19,84,52,,35,35,24,53,7,7,0.7,1.1
2024-12-10T1400,1793A,124.9042,46.6215,大庆市,让胡路区,,36,30,92,25,75,55,,38,38,12,40,8,7,0.5,0.8
2024-12-10T1400,3481A,125.141,46.634,大庆市,萨区政府监测点,,18,17,104,12,87,49,,30,30,17,52,9,6,0.5,1.2
2024-12-10T1400,1721A,113.3819,40.1097,大同市,果树场,,47,47,100,24,61,40,,19,19,30,48,14,15,1.0,1.6
2024-12-10T1400,1723A,113.2994,40.0758,大同市,云冈宾馆,颗粒物(PM10),51,52,99,27,46,43,,18,18,31,53,21,32,1.6,1.8
2024-12-10T1400,1724A,113.3444,40.0917,大同市,大同大学,,48,48,72,25,34,38,,21,21,33,49,18,31,1.7,1.2
2024-12-10T1400,1725A,113.2661,40.1269,大同市,安家小村,,47,47,104,18,42,49,,22,22,25,44,24,33,1.1,2.1
2024-12-10T1400,1726A,113.2711,40.0844,大同市,教育学院,颗粒物(PM10),58,66,119,26,51,38,,14,14,35,63,19,32,1.4,2.1
2024-12-10T1400,3282A,113.3397,40.0597,大同市,大同市卫生学校,,48,48,87,24,39,40,,18,18,35,57,19,35,1.5,1.3
2024-12-10T1400,3565A,113.1367,40.1122,大同市,云冈站,,37,37,101,14,39,50,,24,24,29,46,38,30,0.8,0.9
2024-12-10T1400,3566A,113.1186,40.2556,大同市,图书馆,,48,46,69,33,40,63,,25,25,18,30,20,20,1.1,1.2
2024-12-10T1400,3567A,113.5931,40.0461,大同市,区一中,颗粒物(PM10),79,107,114,30,43,15,,10,10,58,60,55,47,1.2,1.4
2024-12-10T1400,3676A,113.2802,40.0995,大同市,第二人民医院,颗粒物(PM10),56,61,114,20,47,40,,18,18,35,56,22,34,1.4,2.2
2024-12-10T1400,2269A,124.1069,50.4097,大兴安岭地区,科技局,,22,17,14,15,17,60,,50,50,4,10,6,6,0.5,0.5
2024-12-10T1400,3663A,124.1164,50.4278,大兴安岭地区,红旗社区,,18,7,15,3,10,57,,44,44,4,18,6,7,0.3,0.4
2024-12-10T1400,1600A,124.3303,40.0625,丹东市,江湾东路,"颗粒物(PM10),细颗粒物(PM2.5)",72,94,110,52,72,46,,22,22,26,44,27,37,1.4,2.1
2024-12-10T1400,1601A,124.4256,40.1503,丹东市,临江后街,细颗粒物(PM2.5),77,80,118,56,77,55,,27,27,21,43,13,21,0.8,1.6
2024-12-10T1400,1602A,124.3933,40.1461,丹东市,元宝山,,50,50,85,31,52,55,,23,23,18,39,12,14,0.7,1.6
2024-12-10T1400,1603A,124.3633,40.1092,丹东市,民主桥,颗粒物(PM10),56,61,84,24,48,60,,27,27,22,43,12,15,0.5,1.2
2024-12-10T1400,3541A,109.5726,19.5167,儋州市,第一中学子站,,24,17,29,8,15,74,,71,71,2,5,5,6,0.4,0.5
2024-12-10T1400,3542A,109.5567,19.5187,儋州市,东坡学校子站,,26,20,30,8,14,83,,79,79,2,6,5,5,0.5,0.6
2024-12-10T1400,2616A,98.5842,24.428,德宏傣族景颇族自治州,德宏州监测站,,33,30,40,23,23,85,,37,37,12,22,12,10,0.5,0.6
2024-12-10T1400,3677A,98.5881,24.4368,德宏傣族景颇族自治州,芒市人民政府综合楼,颗粒物(PM10),51,51,40,23,20,82,,26,26,10,17,9,8,0.5,0.6
2024-12-10T1400,1901A,104.4239,31.1208,德阳市,东山公园,,49,49,44,27,28,58,,37,32,14,17,2,1,0.6,0.5
2024-12-10T1400,1902A,104.3826,31.1317,德阳市,西小区,,42,42,37,26,26,50,,34,30,17,23,1,1,0.6,0.6
2024-12-10T1400,1904A,104.3553,31.1091,德阳市,耐火材料厂,,35,34,34,24,27,49,,34,28,17,22,3,3,0.4,0.4
2024-12-10T1400,3639A,104.4019,31.1244,德阳市,市教育局,,42,42,38,29,29,57,,38,29,17,26,2,2,0.7,0.7
2024-12-10T1400,1622A,116.3032,37.4674,德州市,儿童乐园,细颗粒物(PM2.5),79,88,136,58,85,38,,19,19,50,62,10,9,0.9,1.1
2024-12-10T1400,1624A,116.2991,37.4451,德州市,监理站,细颗粒物(PM2.5),73,80,134,53,89,43,,24,24,46,62,14,15,0.9,1.1
2024-12-10T1400,3066A,116.2721,37.4379,德州市,九衢泉纯净水厂,细颗粒物(PM2.5),79,90,137,58,88,36,,20,20,48,60,12,14,0.9,1
2024-12-10T1400,3371A,116.3728,37.4403,德州市,开发区人民医院,细颗粒物(PM2.5),73,78,135,53,87,48,,31,31,38,63,11,13,0.7,1
2024-12-10T1400,3372A,116.3572,37.4094,德州市,太阳城中学,细颗粒物(PM2.5),77,85,133,56,92,47,,27,27,48,71,12,13,0.8,0.9
2024-12-10T1400,3511A,116.5652,37.3319,德州市,陵城艺术中心,细颗粒物(PM2.5),79,90,139,58,95,46,,29,29,40,48,11,15,0.8,1.2
2024-12-10T1400,2621A,99.7056,27.8317,迪庆藏族自治州,迪庆州站,,,24,23,16,15,92,,89,89,7,9,,8,0.5,0.5
2024-12-10T1400,3180A,99.7136,27.8094,迪庆藏族自治州,质量技术监督局,,26,26,36,6,11,82,,79,79,7,8,7,7,0.4,0.6
2024-12-10T1400,2663A,104.6241,35.5734,定西市,东关小学,细颗粒物(PM2.5),63,72,57,45,39,55,,27,27,12,16,7,8,0.8,0.7
2024-12-10T1400,2664A,104.6194,35.5934,定西市,供电公司,细颗粒物(PM2.5),73,61,55,53,40,63,,34,34,13,19,13,7,1.2,0.5
2024-12-10T1400,1389A,113.7547,23.0494,东莞市,莞城梨川,颗粒物(PM10),51,52,53,32,31,149,,64,64,21,35,8,9,0.7,0.9
2024-12-10T1400,1390A,113.7944,23.0128,东莞市,东城石井,臭氧1小时,59,55,50,40,29,167,,68,68,25,37,7,7,0.8,0.9
2024-12-10T1400,1391A,113.7383,22.9658,东莞市,南城西平,臭氧1小时,65,57,58,34,33,172,,69,69,24,60,6,6,0.6,0.7
2024-12-10T1400,3319A,113.7338,23.0381,东莞市,万江金泰,颗粒物(PM10),51,51,48,35,25,147,,62,62,17,31,7,6,0.7,0.8
2024-12-10T1400,3626A,113.7533,23.0202,东莞市,南城元岭,颗粒物(PM10),54,58,54,37,31,148,,62,62,20,37,9,10,0.7,0.8
2024-12-10T1400,3627A,113.7875,23.0457,东莞市,东城主山,颗粒物(PM10),54,57,53,31,29,147,,62,62,22,40,9,10,0.7,0.8
2024-12-10T1400,1666A,118.6614,37.4309,东营市,市环保局,细颗粒物(PM2.5),89,95,108,66,76,42,,29,29,47,68,15,14,1.0,1.2
2024-12-10T1400,3036A,118.6904,37.4338,东营市,开发区管委会,细颗粒物(PM2.5),85,93,112,63,77,43,,28,28,52,69,14,11,1.1,1.2
2024-12-10T1400,3365A,118.5719,37.565,东营市,垦利区民丰路,细颗粒物(PM2.5),85,88,116,63,77,37,,17,17,46,61,10,13,0.7,0.8
2024-12-10T1400,3498A,118.5055,37.8612,东营市,河口城区,,,129,122,,68,35,,22,22,48,42,12,8,1.2,1.1
2024-12-10T1400,3646A,118.4978,37.4623,东营市,胜利站,细颗粒物(PM2.5),100,122,134,75,95,42,,24,24,47,63,10,14,0.7,1.1
2024-12-10T1400,3734A,118.35,37.26,东营市,理想之城,细颗粒物(PM2.5),83,83,131,61,82,45,,27,27,50,71,10,11,0.7,1
2024-12-10T1400,1591A,110.0023,39.8129,鄂尔多斯市,综合楼,颗粒物(PM10),52,53,74,27,29,40,,22,21,38,55,29,28,1.0,0.9
2024-12-10T1400,1592A,109.9486,39.8261,鄂尔多斯市,巴音孟克林场办事处,颗粒物(PM10),51,51,62,22,27,38,,29,28,36,51,38,21,0.8,0.8
2024-12-10T1400,1593A,109.7736,39.5986,鄂尔多斯市,康泽苑,,27,27,39,14,20,68,,30,30,17,43,24,13,0.8,0.7
2024-12-10T1400,1594A,109.8119,39.5989,鄂尔多斯市,华泰汽车城,,32,27,49,22,24,69,,27,27,19,44,17,11,0.7,0.8
2024-12-10T1400,1595A,109.9734,39.7884,鄂尔多斯市,奥林花园,颗粒物(PM10),56,61,69,31,30,35,,20,20,42,54,23,20,1.0,1
2024-12-10T1400,2436A,114.8938,30.3994,鄂州市,市政府,细颗粒物(PM2.5),70,57,78,51,59,37,,23,23,34,46,6,12,1.3,1.2
2024-12-10T1400,2437A,114.8989,30.3714,鄂州市,赵家坝,细颗粒物(PM2.5),73,64,77,53,58,37,,25,25,29,42,5,11,0.6,0.6
2024-12-10T1400,3654A,114.8094,30.4089,鄂州市,精准医疗中心,细颗粒物(PM2.5),79,70,84,58,62,26,,14,14,32,42,8,10,0.8,0.9
2024-12-10T1400,2454A,109.4978,30.2981,恩施土家族苗族自治州,湖北民院,细颗粒物(PM2.5),78,,52,57,49,38,,37,34,13,17,7,8,0.5,0.6
2024-12-10T1400,2455A,109.4707,30.2798,恩施土家族苗族自治州,州电力总公司,细颗粒物(PM2.5),80,73,57,59,48,19,,37,30,36,24,7,7,0.8,0.7
2024-12-10T1400,3549A,109.5061,30.3772,恩施土家族苗族自治州,龙凤新区,,,53,54,43,40,40,,37,37,15,18,,6,0.4,0.3
2024-12-10T1400,2499A,108.3411,21.6158,防城港市,沙万,细颗粒物(PM2.5),114,99,79,86,65,30,,38,26,36,33,9,9,1.1,0.9
2024-12-10T1400,2500A,108.3514,21.7731,防城港市,防城档案局,细颗粒物(PM2.5),139,120,118,106,73,34,,30,30,37,39,9,8,1.1,0.9
2024-12-10T1400,2501A,108.3506,21.6414,防城港市,大海花园,,,,83,,63,,,70,,,29,,9,,1.0
2024-12-10T1400,1371A,113.1294,23.0067,佛山市,湾梁,颗粒物(PM10),52,53,94,26,43,76,,32,32,42,73,8,10,0.8,1
2024-12-10T1400,1372A,113.1083,23.0478,佛山市,华材职中,细颗粒物(PM2.5),68,75,110,49,62,69,,28,28,58,80,9,10,0.7,1
2024-12-10T1400,1373A,113.144,23.0453,佛山市,南海气象局,颗粒物(PM10),64,78,84,37,48,72,,27,27,48,73,8,11,0.7,0.8
2024-12-10T1400,1374A,113.2881,22.8094,佛山市,顺德苏岗,颗粒物(PM10),56,62,78,34,49,128,,43,43,39,67,11,10,0.7,0.8
2024-12-10T1400,1376A,112.8383,22.8678,佛山市,高明孔堂,细颗粒物(PM2.5),94,78,83,70,56,94,,40,40,64,51,10,11,1.0,1
2024-12-10T1400,1377A,112.8836,23.1588,佛山市,三水监测站,细颗粒物(PM2.5),73,53,104,53,67,81,,40,40,34,63,13,15,0.8,1
2024-12-10T1400,1378A,112.867,23.185,佛山市,三水云东海,细颗粒物(PM2.5),59,52,83,42,58,80,,38,38,37,59,15,12,0.8,1
2024-12-10T1400,3625A,113.2544,22.7642,佛山市,容桂街道办,颗粒物(PM10),58,66,93,36,54,128,,43,43,42,75,11,10,0.7,0.9
2024-12-10T1400,1280A,119.3903,26.0543,福州市,鼓山,,,,26,,10,,,54,,,16,,2,,0.4
2024-12-10T1400,1282A,119.2681,26.0504,福州市,师大,,40,40,41,11,17,63,,39,39,16,20,3,4,0.4,0.5
2024-12-10T1400,1283A,119.2984,26.1028,福州市,五四北路,,34,34,34,10,13,63,,41,41,18,20,1,2,0.4,0.4
2024-12-10T1400,1284A,119.2648,26.0768,福州市,杨桥西路,,43,43,38,8,15,68,,45,45,13,18,1,2,0.6,0.6
2024-12-10T1400,1285A,119.317,26.0746,福州市,紫阳,,,47,37,17,15,,,41,36,,20,,3,,0.5
2024-12-10T1400,3048A,119.5799,26.0936,福州市,九龙,,30,30,28,7,9,59,,55,55,12,12,3,3,0.4,0.4
2024-12-10T1400,3526A,119.5189,25.9664,福州市,吴航,,22,22,32,9,16,64,,35,32,18,25,5,5,0.4,0.5
2024-12-10T1400,1755A,123.7977,41.8491,抚顺市,望花区,颗粒物(PM10),60,69,127,38,77,39,,19,19,28,50,10,10,0.6,1.5
2024-12-10T1400,1756A,123.9161,41.8822,抚顺市,顺城区,,,138,129,54,80,42,,22,22,47,57,9,11,,1.9
2024-12-10T1400,1757A,124.0436,41.8611,抚顺市,东洲区,细颗粒物(PM2.5),110,134,106,83,70,32,,21,21,51,48,9,9,1.3,1.4
2024-12-10T1400,1758A,123.9247,41.8642,抚顺市,新抚区,细颗粒物(PM2.5),119,184,125,90,84,28,,15,15,54,47,11,9,1.9,1.9
2024-12-10T1400,1759A,124.0972,41.8961,抚顺市,大伙房水库,细颗粒物(PM2.5),104,119,85,78,61,35,,22,22,48,47,9,11,1.1,1.2
2024-12-10T1400,1760A,123.7086,41.8391,抚顺市,沈抚新城,颗粒物(PM10),59,67,107,32,79,44,,22,22,25,50,12,11,0.6,1.6
2024-12-10T1400,2376A,116.2127,28.0814,抚州市,桐源党溪,细颗粒物(PM2.5),79,61,58,58,36,38,,48,37,14,9,9,9,0.6,0.6
2024-12-10T1400,2377A,116.3544,27.9831,抚州市,市站,颗粒物(PM10),52,54,56,34,34,42,,47,37,26,20,11,5,0.8,0.8
2024-12-10T1400,2378A,116.3565,27.963,抚州市,血防站,颗粒物(PM10),57,63,58,37,34,40,,46,36,24,17,12,7,0.7,0.6
2024-12-10T1400,2379A,116.3564,28.0007,抚州市,采茶剧团,颗粒物(PM10),54,58,54,34,35,36,,43,31,21,16,12,6,1.1,1
2024-12-10T1400,2380A,116.385,27.9647,抚州市,医学分院,颗粒物(PM10),57,63,57,35,32,38,,43,35,21,16,20,12,0.9,0.8
2024-12-10T1400,2207A,121.6094,41.998,阜新市,工业园区,,21,21,121,3,67,65,,39,39,9,35,7,21,0.2,1
2024-12-10T1400,2208A,121.6697,42.0279,阜新市,长青街,,20,14,85,9,55,62,,38,38,13,29,6,11,0.5,1.1
2024-12-10T1400,2209A,121.6673,42.0705,阜新市,农业园区,,20,18,37,7,23,62,,52,52,7,19,8,20,0.9,0.7
2024-12-10T1400,2210A,121.6717,42.0224,阜新市,东苑,,22,19,95,3,58,70,,46,46,8,34,3,18,0.3,1.3
2024-12-10T1400,2211A,121.6506,42.0498,阜新市,玉龙新城,,22,,92,12,53,68,,41,41,5,34,6,11,0.4,1
2024-12-10T1400,2301A,115.8277,32.8929,阜阳市,市监测站,细颗粒物(PM2.5),78,77,65,57,47,44,,31,31,30,26,8,7,0.5,0.5
2024-12-10T1400,2303A,115.8554,32.8605,阜阳市,开发区,细颗粒物(PM2.5),80,92,82,59,51,45,,28,28,27,29,9,8,0.6,0.6
2024-12-10T1400,2875A,115.784,32.8892,阜阳市,阜阳职业技术学院,细颗粒物(PM2.5),75,69,61,55,46,46,,33,32,29,29,9,7,0.6,0.6
2024-12-10T1400,3468A,115.7901,32.8613,阜阳市,市规划展馆,细颗粒物(PM2.5),80,98,64,59,48,48,,35,35,30,28,9,7,0.5,0.4
2024-12-10T1400,3469A,115.836,32.9183,阜阳市,枣园社区,细颗粒物(PM2.5),79,79,70,58,53,53,,34,34,27,32,7,6,0.6,0.6
2024-12-10T1400,2669A,102.9099,34.9841,甘南藏族自治州,州政府,,20,19,44,10,21,62,,48,48,8,14,8,7,0.5,0.6
2024-12-10T1400,3380A,102.8914,34.9617,甘南藏族自治州,甘肃民族师范学院,,20,6,24,3,20,62,,50,50,15,18,13,6,0.5,0.6
2024-12-10T1400,2570A,101.9603,30.0475,甘孜藏族自治州,水桥子,,16,10,12,8,6,51,,41,40,13,15,8,8,0.7,0.7
2024-12-10T1400,3065A,101.9533,29.9972,甘孜藏族自治州,州环保局,,19,13,13,3,6,60,,46,46,9,12,4,4,0.6,0.6
2024-12-10T1400,3414A,115.8347,28.932,赣江新区,桑海产业园,细颗粒物(PM2.5),94,102,81,70,56,5,,4,4,47,47,14,13,1.0,0.8
2024-12-10T1400,2362A,114.9017,25.9149,赣州市,通天岩,细颗粒物(PM2.5),69,80,60,50,47,55,,36,36,22,12,6,4,0.6,0.5
2024-12-10T1400,2363A,114.9367,25.8664,赣州市,地委,,,71,74,46,45,59,,41,41,36,30,14,5,,1
2024-12-10T1400,2364A,114.9461,25.8481,赣州市,气象台,颗粒物(PM10),61,71,80,40,41,56,,38,38,41,38,14,14,1.0,1
2024-12-10T1400,2365A,114.9322,25.8333,赣州市,市图书馆,颗粒物(PM10),61,71,72,38,44,60,,38,38,30,28,7,6,0.9,0.8
2024-12-10T1400,2366A,114.8905,25.8471,赣州市,华坚鞋城,颗粒物(PM10),61,71,69,42,43,56,,40,37,20,23,10,7,0.8,0.8
2024-12-10T1400,3109A,115.0093,25.8613,赣州市,赣县区卫计委,细颗粒物(PM2.5),82,84,75,60,52,54,,34,34,25,29,7,6,0.6,0.5
2024-12-10T1400,2683A,106.2319,36.1417,固原市,马园,颗粒物(PM10),127,204,111,52,53,52,,33,33,13,25,10,8,1.0,1.1
2024-12-10T1400,2684A,106.2792,36.0022,固原市,监测站,细颗粒物(PM2.5),78,,55,57,55,47,,29,29,21,23,8,5,0.7,0.7
2024-12-10T1400,2685A,106.2375,36.0211,固原市,新区,细颗粒物(PM2.5),69,54,55,50,50,50,,32,32,18,24,6,4,0.6,0.7
2024-12-10T1400,3522A,106.2177,35.9959,固原市,原州区十五小,细颗粒物(PM2.5),84,73,71,62,56,51,,33,33,20,26,6,5,0.9,1
2024-12-10T1400,2543A,106.6308,30.5278,广安市,小平旧居,,,,,,,,,,,,,,,,
2024-12-10T1400,2544A,106.6303,30.4576,广安市,市委,细颗粒物(PM2.5),60,68,57,43,42,25,,43,30,32,21,4,5,0.7,0.6
2024-12-10T1400,2545A,106.6271,30.4663,广安市,友谊中学,细颗粒物(PM2.5),62,65,55,44,39,27,,40,29,28,21,3,3,0.8,0.7
2024-12-10T1400,2547A,106.6388,30.4551,广安市,广电花园,细颗粒物(PM2.5),67,69,56,48,40,20,,44,28,35,24,3,3,0.8,0.7
2024-12-10T1400,2902A,106.6351,30.4865,广安市,北辰小学,细颗粒物(PM2.5),59,63,54,42,39,33,,39,32,21,19,6,6,0.8,0.8
2024-12-10T1400,2523A,105.8945,32.4535,广元市,黑石坡,,40,,35,28,35,67,,51,51,11,18,5,6,0.3,0.4
2024-12-10T1400,2524A,105.821,32.4444,广元市,老城,,26,19,56,18,36,78,,68,68,13,22,3,2,0.5,0.6
2024-12-10T1400,2526A,105.8628,32.4287,广元市,监测站,,39,32,50,27,44,82,,67,67,15,28,4,4,0.9,0.8
2024-12-10T1400,3617A,105.8047,32.4166,广元市,经开区,,45,40,48,31,42,78,,66,66,17,26,4,4,0.4,0.6
2024-12-10T1400,1345A,113.2347,23.1423,广州市,广雅中学,颗粒物(PM10),62,73,90,35,54,64,,30,30,56,73,8,9,0.8,0.8
2024-12-10T1400,1346A,113.2612,23.105,广州市,市五中,,40,40,71,27,51,83,,38,38,25,50,6,6,0.8,1
2024-12-10T1400,1348A,113.3478,23.0916,广州市,广东商学院,颗粒物(PM10),53,55,67,33,42,66,,34,34,45,60,6,5,0.7,0.8
2024-12-10T1400,1349A,113.4332,23.1047,广州市,市八十六中,,,68,102,39,45,84,,29,29,,63,8,7,0.6,1
2024-12-10T1400,1350A,113.3505,22.9483,广州市,番禺中学,颗粒物(PM10),59,67,75,40,47,149,,51,51,32,66,9,8,0.7,0.9
2024-12-10T1400,1351A,113.2146,23.3916,广州市,花都师范,,39,39,71,25,45,74,,36,36,27,55,7,8,0.5,0.7
2024-12-10T1400,1352A,113.2597,23.1331,广州市,市监测站,,,34,66,17,38,82,,32,32,,61,6,7,0.5,0.7
2024-12-10T1400,1353A,113.5618,23.312,广州市,九龙镇镇龙,,46,46,61,28,40,67,,29,29,21,41,6,6,0.7,0.8
2024-12-10T1400,1354A,113.2765,23.1544,广州市,麓湖,,27,27,54,18,38,84,,35,35,21,51,6,6,0.6,0.8
2024-12-10T1400,1355A,113.443,23.3035,广州市,帽峰山森林公园,,35,35,35,21,23,71,,40,40,28,23,6,6,0.6,0.6
2024-12-10T1400,2846A,113.3221,23.1322,广州市,体育西,,41,41,64,26,42,71,,36,36,21,45,5,5,0.7,0.9
2024-12-10T1400,3298A,113.5717,23.5491,广州市,从化街口,"颗粒物(PM10),细颗粒物(PM2.5)",53,55,68,37,46,67,,24,24,20,41,5,6,0.7,0.8
2024-12-10T1400,3299A,113.3472,23.3692,广州市,白云竹料,,33,33,74,19,44,78,,36,36,18,47,8,8,0.7,0.9
2024-12-10T1400,3300A,113.2981,23.237,广州市,白云嘉禾,颗粒物(PM10),54,58,78,30,40,72,,33,33,33,59,8,8,0.9,1
2024-12-10T1400,3301A,113.4256,23.1716,广州市,黄埔科学城,,36,35,49,25,32,87,,46,46,24,39,7,7,0.8,0.9
2024-12-10T1400,3302A,113.3942,23.0483,广州市,番禺大学城,颗粒物(PM10),59,68,71,32,38,120,,43,43,36,63,14,9,0.6,0.7
2024-12-10T1400,3303A,113.4922,22.8168,广州市,南沙黄阁,颗粒物(PM10),62,73,91,37,51,161,,55,55,41,75,8,8,0.8,1.1
2024-12-10T1400,3304A,113.5342,22.7896,广州市,南沙街,臭氧1小时,64,62,76,37,43,171,,60,60,30,63,5,5,0.8,0.9
2024-12-10T1400,3443A,113.2902,23.5544,广州市,花都梯面,,36,34,44,25,32,69,,35,35,11,30,11,9,0.7,0.7
2024-12-10T1400,3445A,113.7858,23.7478,广州市,从化良口,,25,20,20,17,17,68,,42,42,10,15,6,6,0.6,0.6
2024-12-10T1400,3446A,113.8051,23.2614,广州市,增城荔城,,40,33,38,28,30,100,,57,57,12,21,6,5,0.6,0.6
2024-12-10T1400,2505A,109.568,23.1478,贵港市,德智高中,,,,,,,,,,,,,,,,
2024-12-10T1400,2506A,109.6047,23.0666,贵港市,江南子站,细颗粒物(PM2.5),69,73,79,50,48,65,,49,46,22,25,14,13,0.9,0.9
2024-12-10T1400,2507A,109.6014,23.0948,贵港市,贵城子站,细颗粒物(PM2.5),67,67,68,48,46,62,,51,51,23,24,14,13,0.9,0.9
2024-12-10T1400,2508A,109.5669,23.1065,贵港市,荷城子站,颗粒物(PM10),60,70,80,41,46,65,,48,48,23,26,19,18,0.8,0.8
2024-12-10T1400,3405A,109.5886,23.1172,贵港市,新世纪学校,细颗粒物(PM2.5),64,68,82,46,49,65,,47,47,22,25,18,15,0.9,0.9
2024-12-10T1400,1439A,106.6899,26.5998,贵阳市,马鞍山,,12,12,4,3,1,26,,23,23,17,19,6,5,0.5,0.4
2024-12-10T1400,1440A,106.6971,26.5694,贵阳市,市环保站,,15,,7,10,9,22,,21,21,23,23,5,5,0.6,0.6
2024-12-10T1400,1441A,106.6243,26.6266,贵阳市,鉴湖路,,25,17,9,17,7,19,,15,15,14,20,6,4,0.9,0.6
2024-12-10T1400,1442A,106.7487,26.6343,贵阳市,燕子冲,,10,,2,7,9,27,,24,24,14,14,7,6,0.6,0.6
2024-12-10T1400,1443A,106.6555,26.4365,贵阳市,碧云窝,,18,14,13,12,5,17,,16,15,24,23,7,9,0.7,0.6
2024-12-10T1400,1444A,106.694,26.5161,贵阳市,中院村,,10,9,10,7,6,27,,20,20,16,22,11,10,0.8,0.8
2024-12-10T1400,1445A,106.7109,26.6027,贵阳市,红边门,,18,14,10,12,10,24,,20,20,21,23,14,10,0.9,0.8
2024-12-10T1400,1446A,106.7164,26.5699,贵阳市,新华路,,12,12,9,3,5,27,,22,22,18,19,7,6,0.6,0.6
2024-12-10T1400,1447A,106.674,26.5424,贵阳市,太慈桥,,10,,8,7,7,20,,19,19,19,23,9,6,0.7,0.7
2024-12-10T1400,1552A,106.805,26.3003,贵阳市,桐木岭,,19,19,17,7,9,16,,25,14,10,6,9,7,0.7,0.7
2024-12-10T1400,1862A,110.4144,25.3167,桂林市,电子科大尧山校区,,15,14,40,9,28,46,,47,46,9,12,10,6,0.9,0.9
2024-12-10T1400,1863A,110.2819,25.2697,桂林市,监测站,,15,15,53,8,47,31,,43,32,23,26,9,9,1.2,1.1
2024-12-10T1400,1864A,110.3089,25.2708,桂林市,龙隐路小学,,36,,48,25,62,37,,43,38,18,21,9,9,1.1,1
2024-12-10T1400,1865A,110.2869,25.2178,桂林市,八中,,23,16,53,16,53,33,,40,32,18,20,7,7,0.9,0.8
2024-12-10T1400,3403A,110.1764,25.2381,桂林市,创业大厦,,13,12,55,9,44,39,,44,37,17,24,6,11,1.1,1
2024-12-10T1400,3531A,110.296,25.1253,桂林市,旅游学院,,13,,60,9,55,37,,39,38,19,24,6,8,1.0,1
2024-12-10T1400,2674A,100.2561,34.4714,果洛藏族自治州,玛沁县大武镇,颗粒物(PM10),56,62,41,13,17,114,,83,83,3,4,13,9,0.5,0.5
2024-12-10T1400,1129A,126.5422,45.755,哈尔滨市,岭北,细颗粒物(PM2.5),87,,109,64,93,70,,45,45,22,44,19,19,0.3,0.6
2024-12-10T1400,1130A,126.561,45.8167,哈尔滨市,松北商大,细颗粒物(PM2.5),93,100,103,69,88,48,,28,28,31,49,18,10,0.9,1.1
2024-12-10T1400,1131A,126.979,45.5419,哈尔滨市,阿城会宁,细颗粒物(PM2.5),122,111,105,92,89,53,,30,30,31,38,20,16,0.9,1
2024-12-10T1400,1132A,126.599,45.7222,哈尔滨市,南岗学府路,细颗粒物(PM2.5),78,93,113,57,89,50,,27,27,31,49,9,11,0.6,0.9
2024-12-10T1400,1133A,126.689,45.7733,哈尔滨市,太平宏伟公园,细颗粒物(PM2.5),85,79,100,63,82,48,,27,27,26,45,15,14,0.7,0.8
2024-12-10T1400,1134A,126.635,45.7667,哈尔滨市,道外承德广场,,,,114,,85,52,,32,32,,53,12,14,,1.1
2024-12-10T1400,1135A,126.685,45.7319,哈尔滨市,香坊红旗大街,,,80,117,69,73,54,,30,30,30,54,,11,0.8,1.1
2024-12-10T1400,1136A,126.6411,45.7258,哈尔滨市,动力和平路,细颗粒物(PM2.5),84,94,114,62,94,44,,21,21,30,51,17,18,0.6,0.9
2024-12-10T1400,1137A,126.593,45.7478,哈尔滨市,道里建国路,细颗粒物(PM2.5),87,78,104,64,91,51,,29,29,28,49,23,24,0.9,1.2
2024-12-10T1400,1138A,126.615,45.61,哈尔滨市,平房东轻厂,细颗粒物(PM2.5),92,79,102,68,83,51,,29,29,26,47,10,11,0.6,0.9
2024-12-10T1400,1139A,126.595,45.9855,哈尔滨市,呼兰师专,颗粒物(PM10),106,162,125,60,103,54,,,,32,59,11,14,1.0,1.3
2024-12-10T1400,1140A,126.6206,45.6842,哈尔滨市,省农科院,细颗粒物(PM2.5),107,106,133,80,111,47,,26,26,,59,13,14,,1.3
2024-12-10T1400,2688A,93.5128,42.8172,哈密市,地区监测站,颗粒物(PM10),72,93,63,47,37,34,,24,24,23,33,7,5,0.6,0.5
2024-12-10T1400,2689A,93.4961,42.8328,哈密市,哈密师范学校,细颗粒物(PM2.5),70,73,63,51,42,30,,17,17,25,36,10,7,0.9,0.7
2024-12-10T1400,2671A,100.9048,36.9639,海北藏族自治州,海晏县西海镇,,,54,47,40,30,64,,68,53,17,16,23,23,,0.8
2024-12-10T1400,3867A,102.0738,36.5056,海东市,平安区公安北苑,细颗粒物(PM2.5),68,51,70,49,52,63,,43,43,16,28,13,32,0.7,0.8
2024-12-10T1400,1409A,110.576,19.9507,海口市,东寨港,,26,24,24,16,17,82,,73,73,3,3,11,12,0.6,0.7
2024-12-10T1400,1410A,110.3232,20.0574,海口市,海南大学,,35,35,35,14,16,97,,84,84,6,11,5,5,0.4,0.5
2024-12-10T1400,1411A,110.283,20.0053,海口市,秀英海南医院,,38,38,34,11,14,96,,84,84,6,11,4,4,0.3,0.4
2024-12-10T1400,1412A,110.338,19.9969,海口市,海南师范大学,,34,34,33,11,14,94,,81,81,6,13,4,4,0.4,0.5
2024-12-10T1400,1413A,110.33,20.0356,海口市,龙华路环保局宿舍,,30,29,33,10,15,96,,84,84,4,8,5,5,0.5,0.6
2024-12-10T1400,3539A,110.5111,19.9736,海口市,桂林洋子站,,30,27,28,11,14,95,,84,84,3,6,5,5,0.3,0.4
2024-12-10T1400,2673A,100.6188,36.2866,海南藏族自治州,共和县恰卜恰镇,细颗粒物(PM2.5),53,42,40,37,27,59,,61,56,13,13,13,15,0.8,0.7
2024-12-10T1400,2676A,97.3731,37.3753,海西蒙古族藏族自治州,德令哈市,颗粒物(PM10),59,67,38,14,13,91,,68,65,4,16,16,17,0.5,0.6
2024-12-10T1400,1048A,114.5302,36.6116,邯郸市,东污水处理厂,细颗粒物(PM2.5),149,142,138,114,100,17,,10,10,59,60,10,8,1.1,1.3
2024-12-10T1400,1049A,114.4918,36.5713,邯郸市,矿院,细颗粒物(PM2.5),144,155,134,110,88,13,,9,9,63,57,7,5,1.0,1
2024-12-10T1400,1050A,114.484,36.6133,邯郸市,丛台公园,细颗粒物(PM2.5),162,154,137,123,98,16,,11,11,65,58,9,9,1.2,1.2
2024-12-10T1400,3458A,114.7895,36.5593,邯郸市,香泉濮院小区,,,,140,,94,31,,14,14,50,52,10,10,1.1,1.1
2024-12-10T1400,3579A,114.50634,36.77178,邯郸市,永年区实验高中,细颗粒物(PM2.5),156,172,188,119,117,17,,9,9,62,61,,14,1.4,1.9
2024-12-10T1400,3580A,114.20016,36.44293,邯郸市,峰峰矿区临水派出所,细颗粒物(PM2.5),137,134,138,104,90,26,,13,13,45,63,17,23,1.4,2
2024-12-10T1400,2634A,106.9893,33.1842,汉中市,汉川机床厂子校,细颗粒物(PM2.5),63,47,69,45,58,82,,52,52,10,15,6,6,0.4,0.6
2024-12-10T1400,2635A,107.0154,33.0706,汉中市,市监测站,细颗粒物(PM2.5),60,53,66,43,58,80,,42,42,13,26,6,6,0.6,0.9
2024-12-10T1400,2636A,107.0089,33.1138,汉中市,鑫源开发区,细颗粒物(PM2.5),65,47,67,47,68,82,,49,49,15,29,6,6,0.6,0.8
2024-12-10T1400,2637A,107.007,33.0323,汉中市,南郑大河坎水厂,细颗粒物(PM2.5),62,45,75,44,61,84,,41,41,15,28,4,4,0.6,0.9
2024-12-10T1400,1223A,120.2072,30.2111,杭州市,滨江,,32,27,52,22,35,19,,21,11,51,49,7,8,0.5,0.5
2024-12-10T1400,1224A,120.0633,30.2747,杭州市,西溪,,29,29,58,19,35,17,,11,8,53,48,7,8,0.7,0.7
2024-12-10T1400,1226A,120.3461,30.3153,杭州市,下沙,,38,29,43,26,33,17,,14,14,60,53,5,6,0.5,0.5
2024-12-10T1400,1227A,120.1269,30.2456,杭州市,卧龙桥,,29,29,55,18,34,24,,12,10,48,43,7,8,0.6,0.6
2024-12-10T1400,1228A,120.1903,30.2692,杭州市,浙江农大,,25,22,49,16,30,19,,12,11,49,46,4,5,0.5,0.5
2024-12-10T1400,1230A,120.1197,30.3119,杭州市,和睦小学,,27,26,51,17,31,20,,14,8,53,52,5,6,0.6,0.6
2024-12-10T1400,1231A,120.3019,30.4183,杭州市,临平镇,细颗粒物(PM2.5),53,38,51,37,36,31,,20,20,44,39,5,6,0.7,0.7
2024-12-10T1400,1232A,120.2697,30.1819,杭州市,城厢镇,,48,48,65,24,33,23,,13,11,53,52,6,6,0.4,0.5
2024-12-10T1400,1233A,120.0883,30.1808,杭州市,云栖,细颗粒物(PM2.5),52,48,57,36,36,25,,11,11,49,48,6,6,0.6,0.6
2024-12-10T1400,3557A,119.9464,30.0494,杭州市,镇二中,细颗粒物(PM2.5),74,56,54,54,47,4,,19,7,43,37,6,6,0.8,0.7
2024-12-10T1400,3558A,119.7183,30.2367,杭州市,市府大楼,,41,41,81,24,53,9,,27,18,62,54,6,7,0.6,0.6
2024-12-10T1400,3656A,120.1556,30.2864,杭州市,消防大队,,39,39,60,27,38,23,,17,12,48,48,7,8,0.4,0.4
2024-12-10T1400,1270A,117.1959,31.7848,合肥市,明珠广场,细颗粒物(PM2.5),70,68,72,51,47,26,,20,20,41,52,9,10,1.0,1
2024-12-10T1400,1271A,117.3072,31.8764,合肥市,三里街,细颗粒物(PM2.5),58,56,64,41,44,28,,21,21,39,50,8,9,0.4,0.3
2024-12-10T1400,1272A,117.2588,31.8707,合肥市,琥珀山庄,细颗粒物(PM2.5),67,58,64,48,45,42,,31,31,38,47,6,7,0.7,0.7
2024-12-10T1400,1273A,117.1604,31.9052,合肥市,董铺水库,颗粒物(PM10),56,61,69,31,36,41,,31,31,31,40,5,5,0.6,0.6
2024-12-10T1400,1274A,117.25,31.8571,合肥市,长江中路,细颗粒物(PM2.5),68,58,68,49,48,38,,29,29,37,48,8,9,0.9,1
2024-12-10T1400,1275A,117.266,31.9436,合肥市,庐阳区,颗粒物(PM10),54,58,69,36,39,44,,30,30,37,48,5,6,0.8,0.8
2024-12-10T1400,1276A,117.336,31.8586,合肥市,瑶海区,细颗粒物(PM2.5),54,56,63,38,43,34,,28,28,47,52,12,13,1.0,0.9
2024-12-10T1400,1277A,117.3027,31.7964,合肥市,包河区,细颗粒物(PM2.5),64,66,74,46,45,15,,11,11,55,61,4,6,0.8,0.7
2024-12-10T1400,1278A,117.2776,31.7385,合肥市,滨湖新区,"颗粒物(PM10),细颗粒物(PM2.5)",58,66,74,41,41,21,,17,17,43,46,8,8,0.6,0.5
2024-12-10T1400,1279A,117.1318,31.8403,合肥市,高新区,细颗粒物(PM2.5),63,61,68,45,44,30,,22,22,42,52,2,4,0.8,0.8
2024-12-10T1400,3464A,117.3803,31.9147,合肥市,高教基地,细颗粒物(PM2.5),54,52,62,38,40,43,,31,31,38,44,10,10,0.7,0.6
2024-12-10T1400,3614A,79.924,37.0877,和田地区,地区环保局,细颗粒物(PM2.5),69,80,118,50,44,61,,52,46,31,29,17,17,1.4,1.1
2024-12-10T1400,3615A,79.9131,37.113,和田地区,市环保局,细颗粒物(PM2.5),89,116,85,66,40,66,,35,35,37,46,16,14,1.7,2.4
2024-12-10T1400,2516A,108.2011,24.715,河池市,东仁乐园,细颗粒物(PM2.5),53,48,49,37,40,26,,30,20,16,16,8,8,1.0,0.8
2024-12-10T1400,2517A,108.0497,24.6947,河池市,市环保站,,,,43,,33,,,34,23,19,18,8,8,1.0,0.8
2024-12-10T1400,2518A,108.0983,24.6989,河池市,市疾控中心,,50,36,42,35,44,28,,29,20,24,24,10,9,0.8,0.7
2024-12-10T1400,1696A,114.6778,23.7569,河源市,源西,,,41,35,24,30,80,,49,49,,26,5,6,0.4,0.6
2024-12-10T1400,1697A,114.6944,23.7586,河源市,东埔,颗粒物(PM10),51,51,41,23,33,91,,50,50,13,24,4,4,0.6,0.8
2024-12-10T1400,1698A,114.6892,23.7233,河源市,老城,,43,43,38,25,30,89,,53,53,12,22,5,5,0.6,0.7
2024-12-10T1400,1718A,115.4208,35.2464,菏泽市,气象局,细颗粒物(PM2.5),98,118,98,73,61,51,,31,31,37,48,13,6,0.7,0.6
2024-12-10T1400,1719A,115.4747,35.2375,菏泽市,市政协,细颗粒物(PM2.5),98,121,95,73,62,47,,31,31,38,49,17,10,0.8,0.7
2024-12-10T1400,3374A,115.5564,35.0891,菏泽市,定陶老年大学,细颗粒物(PM2.5),100,110,95,75,65,46,,27,27,44,53,16,11,0.6,0.6
2024-12-10T1400,3647A,115.4702,35.2706,菏泽市,菏泽医专,细颗粒物(PM2.5),87,107,101,64,59,53,,27,27,40,56,20,12,0.8,0.8
2024-12-10T1400,2514A,111.5264,24.4172,贺州市,环保小区,细颗粒物(PM2.5),107,108,96,80,78,43,,39,37,30,28,8,7,0.9,0.9
2024-12-10T1400,2515A,111.5608,24.4078,贺州市,政协大楼,细颗粒物(PM2.5),88,113,100,65,66,37,,40,35,34,28,9,9,0.9,0.9
2024-12-10T1400,3534A,111.4744,24.4553,贺州市,西湾,细颗粒物(PM2.5),117,113,102,88,78,49,,43,43,25,22,8,8,1.0,0.9
2024-12-10T1400,2385A,114.17,35.9019,鹤壁市,市监测站,细颗粒物(PM2.5),152,171,134,116,91,20,,11,11,68,49,20,9,2.1,1.4
2024-12-10T1400,2386A,114.2956,35.7511,鹤壁市,市交警支队,细颗粒物(PM2.5),130,144,123,99,82,24,,13,13,42,43,6,6,0.9,1
2024-12-10T1400,2387A,114.2878,35.7306,鹤壁市,迎宾馆,细颗粒物(PM2.5),124,152,127,94,76,27,,13,13,42,39,9,8,0.7,0.6
2024-12-10T1400,3474A,114.2617,35.6822,鹤壁市,大新区,细颗粒物(PM2.5),139,164,116,106,90,30,,16,16,49,49,9,7,0.8,0.7
2024-12-10T1400,3596A,114.1572,35.9603,鹤壁市,南山宾馆,细颗粒物(PM2.5),134,146,134,102,101,32,,16,16,44,40,17,8,1.8,1.3
2024-12-10T1400,2244A,130.2537,47.3416,鹤岗市,哈啤分公司,,26,,39,18,28,49,,40,40,5,22,15,17,0.5,0.8
2024-12-10T1400,2245A,130.2684,47.3086,鹤岗市,斯达机电,,36,33,39,25,26,53,,44,42,10,28,14,16,0.5,0.5
2024-12-10T1400,2246A,130.3114,47.3388,鹤岗市,东山纸板厂,,35,,27,24,34,49,,39,39,13,43,13,18,0.5,0.9
2024-12-10T1400,2247A,130.1097,47.3382,鹤岗市,五号水库,,22,14,31,8,17,68,,60,60,4,14,9,9,0.4,0.4
2024-12-10T1400,2263A,127.4833,50.2524,黑河市,交通局,,,,39,15,28,55,,39,39,,37,7,7,0.3,0.6
2024-12-10T1400,2264A,127.5144,50.2341,黑河市,环保局,,16,15,32,11,25,50,,45,45,8,29,4,6,0.2,0.4
2024-12-10T1400,2265A,127.5291,50.2472,黑河市,大黑河岛,,,13,34,,,5,,5,5,11,19,2,2,0.9,0.9
2024-12-10T1400,1074A,115.6838,37.7541,衡水市,电机北厂,,,106,167,72,113,18,,9,9,,74,9,10,0.8,1.1
2024-12-10T1400,1075A,115.6303,37.7316,衡水市,市监测站,细颗粒物(PM2.5),120,120,136,91,97,16,,8,8,69,67,8,8,0.9,1.1
2024-12-10T1400,3188A,115.6683,37.7217,衡水市,市城管局,细颗粒物(PM2.5),95,97,133,71,89,22,,13,13,58,64,8,9,0.8,1.1
2024-12-10T1400,3459A,115.5989,37.5491,衡水市,地表水厂,细颗粒物(PM2.5),123,121,119,93,96,25,,15,15,63,66,9,14,0.9,1.1
2024-12-10T1400,2456A,112.5003,26.9167,衡阳市,原169医院,细颗粒物(PM2.5),57,46,69,40,52,14,,13,13,19,23,3,3,0.8,0.8
2024-12-10T1400,2457A,112.6194,26.9258,衡阳市,衡阳化工总厂,细颗粒物(PM2.5),107,90,87,80,78,21,,20,19,22,23,11,18,0.9,0.9
2024-12-10T1400,2458A,112.6211,26.8956,衡阳市,珠晖区环保局,细颗粒物(PM2.5),108,,75,81,73,24,,22,22,19,24,9,12,0.9,0.9
2024-12-10T1400,2459A,112.6197,26.8733,衡阳市,市委党校,细颗粒物(PM2.5),108,89,74,81,68,25,,26,26,30,31,10,12,0.9,0.9
2024-12-10T1400,2460A,112.6006,26.8919,衡阳市,市监测站,细颗粒物(PM2.5),127,111,105,96,85,24,,21,18,20,24,7,12,0.8,0.9
2024-12-10T1400,2461A,112.5664,26.9056,衡阳市,真空机电公司,细颗粒物(PM2.5),90,,68,67,73,24,,14,14,21,29,4,7,0.7,0.7
2024-12-10T1400,3399A,112.6703,26.882,衡阳市,师范学院,细颗粒物(PM2.5),87,86,87,64,61,35,,24,24,19,28,10,12,0.9,0.8
2024-12-10T1400,2608A,103.3772,23.3993,红河哈尼族彝族自治州,污水处理厂,,23,23,22,13,21,70,,46,46,4,8,7,7,0.4,0.5
2024-12-10T1400,2609A,103.3861,23.35,红河哈尼族彝族自治州,监测站,,28,24,28,19,24,70,,55,55,4,9,11,11,0.5,0.6
2024-12-10T1400,3038A,103.3758,23.368,红河哈尼族彝族自治州,州图书馆,,,,17,,14,62,,40,40,4,9,6,6,0.4,0.5
2024-12-10T1400,1090A,111.6507,40.7517,呼和浩特市,呼市一监,颗粒物(PM10),68,85,81,32,37,23,,8,8,36,44,10,12,0.6,0.9
2024-12-10T1400,1091A,111.6572,40.8033,呼和浩特市,小召,,,107,64,47,31,17,,12,12,57,59,11,12,,1.1
2024-12-10T1400,1094A,111.7516,40.8369,呼和浩特市,如意水处理厂,,33,33,49,17,24,45,,24,24,26,52,8,11,0.5,0.8
2024-12-10T1400,1095A,111.7276,40.8062,呼和浩特市,二十九中,,,45,53,21,24,35,,23,23,49,57,8,10,,0.9
2024-12-10T1400,1096A,111.5512,40.7866,呼和浩特市,工大金川校区,细颗粒物(PM2.5),70,82,73,51,38,27,,14,14,54,62,27,15,1.0,1.1
2024-12-10T1400,1097A,111.717,40.7612,呼和浩特市,化肥厂生活区,颗粒物(PM10),53,56,67,23,28,31,,25,25,39,42,9,11,0.6,0.9
2024-12-10T1400,3698A,111.5968,40.8178,呼和浩特市,红旗小学,颗粒物(PM10),78,105,65,49,32,16,,9,9,59,60,13,16,1.0,1
2024-12-10T1400,3699A,111.6518,40.8389,呼和浩特市,海东办,颗粒物(PM10),89,127,63,49,31,15,,14,14,65,63,9,9,1.3,1
2024-12-10T1400,2192A,119.7594,49.2261,呼伦贝尔市,区环保局,,18,16,19,8,16,55,,54,50,7,11,9,7,0.3,0.4
2024-12-10T1400,3061A,119.7512,49.1577,呼伦贝尔市,国华电力东,,23,23,24,11,19,58,,53,50,4,8,7,5,0.3,0.3
2024-12-10T1400,1250A,120.0751,30.8669,湖州市,城西水厂,,31,31,44,18,26,39,,28,28,40,46,6,7,0.5,0.5
2024-12-10T1400,2873A,120.0875,30.8955,湖州市,仁皇山新区,,29,24,54,20,35,42,,26,26,38,57,6,8,0.6,0.7
2024-12-10T1400,2907A,120.1844,30.8596,湖州市,吴兴区站,,39,39,61,23,34,27,,17,17,49,60,6,7,0.5,0.6
2024-12-10T1400,3562A,120.4148,30.8538,湖州市,南浔区站,,32,32,53,22,32,32,,21,21,42,55,5,7,0.4,0.4
2024-12-10T1400,1607A,120.9092,40.7136,葫芦岛市,龙港区,,23,23,71,13,48,64,,47,47,10,47,13,33,0.3,0.8
2024-12-10T1400,1608A,120.8392,40.7514,葫芦岛市,化工街,,34,34,124,17,65,62,,33,33,18,77,27,37,0.5,1.4
2024-12-10T1400,1609A,120.8341,40.7073,葫芦岛市,新区,,34,34,73,13,54,63,,44,44,10,50,16,22,0.5,1.2
2024-12-10T1400,1610A,120.8695,40.7677,葫芦岛市,东城区,,43,43,102,13,71,60,,34,34,6,48,11,34,0.5,1.3
2024-12-10T1400,2482A,109.5981,27.5721,怀化市,林科所,,12,,23,8,26,38,,43,38,15,15,3,14,0.8,0.6
2024-12-10T1400,2483A,109.9453,27.5444,怀化市,河西地税局,,18,,41,12,26,34,,42,34,13,13,4,8,0.6,0.6
2024-12-10T1400,2484A,109.9781,27.5342,怀化市,市四医院,,17,17,41,11,27,34,,40,34,14,13,11,9,0.7,0.6
2024-12-10T1400,2485A,109.9972,27.5578,怀化市,监测楼,,12,12,38,8,25,34,,40,34,17,16,2,4,0.6,0.5
2024-12-10T1400,2486A,110.0394,27.583,怀化市,市委党校,,15,,43,10,28,32,,40,33,15,13,4,4,0.5,0.4
2024-12-10T1400,1210A,119.036,33.5981,淮安市,钵池山,细颗粒物(PM2.5),70,58,79,51,55,64,,38,38,23,54,8,7,0.6,0.6
2024-12-10T1400,1211A,119.007,33.575,淮安市,北京南路,细颗粒物(PM2.5),65,48,77,47,48,62,,40,40,25,50,10,9,0.9,1
2024-12-10T1400,1212A,118.989,33.6067,淮安市,市监测站,细颗粒物(PM2.5),67,56,79,48,61,65,,38,38,26,52,8,7,0.6,0.9
2024-12-10T1400,1213A,119.135,33.5039,淮安市,楚州区监测站,细颗粒物(PM2.5),55,51,85,39,53,65,,40,40,28,54,10,9,0.7,0.7
2024-12-10T1400,1214A,119.0186,33.6297,淮安市,淮阴区监测站,细颗粒物(PM2.5),74,70,90,54,55,62,,36,36,35,60,9,8,0.7,0.7
2024-12-10T1400,3426A,118.8755,33.2894,淮安市,新华书店,,49,41,73,34,50,74,,52,52,25,54,9,9,0.5,0.6
2024-12-10T1400,2282A,116.8004,33.975,淮北市,监测站,细颗粒物(PM2.5),108,121,80,81,56,42,,19,19,41,37,14,7,1.0,0.6
2024-12-10T1400,2283A,116.8091,33.9007,淮北市,烈山区政府,细颗粒物(PM2.5),95,99,79,71,54,53,,36,36,41,39,14,7,0.7,0.5
2024-12-10T1400,3330A,116.8873,33.9836,淮北市,杜集区检察院,细颗粒物(PM2.5),95,109,92,71,57,49,,26,26,39,38,10,5,0.6,0.5
2024-12-10T1400,4017A,116.7923,33.9535,淮北市,市博物馆,细颗粒物(PM2.5),108,111,76,81,54,48,,24,24,44,40,,7,1.3,0.7
2024-12-10T1400,2277A,116.8305,32.7727,淮南市,潘集区政府,细颗粒物(PM2.5),108,119,98,81,71,35,,24,24,46,41,10,10,0.6,0.6
2024-12-10T1400,2278A,117.0067,32.6524,淮南市,师范学院,细颗粒物(PM2.5),99,92,78,74,49,37,,25,25,38,41,7,7,0.7,0.7
2024-12-10T1400,2279A,116.8569,32.5951,淮南市,谢家集区政府,"颗粒物(PM10),细颗粒物(PM2.5)",68,85,75,49,42,40,,27,27,36,40,12,12,0.6,0.6
2024-12-10T1400,2280A,116.8281,32.633,淮南市,八公山区政府,细颗粒物(PM2.5),77,87,70,56,46,45,,27,27,33,41,11,10,0.6,0.6
2024-12-10T1400,2281A,116.6325,32.6201,淮南市,焦岗湖风景区管理处,细颗粒物(PM2.5),79,76,69,58,50,28,,15,15,49,49,10,7,0.4,0.4
2024-12-10T1400,2894A,117.0566,32.6531,淮南市,经济技术开发区消防队,细颗粒物(PM2.5),78,84,78,57,47,47,,33,33,37,30,8,7,0.5,0.6
2024-12-10T1400,3329A,117.0108,32.5893,淮南市,山南新区,,,96,75,57,48,46,,38,38,30,29,2,2,,0.2
2024-12-10T1400,2446A,114.9028,30.4742,黄冈市,职工中心,细颗粒物(PM2.5),67,58,91,48,65,46,,15,15,23,38,10,13,0.7,0.8
2024-12-10T1400,2929A,114.8858,30.4519,黄冈市,红卫路,细颗粒物(PM2.5),67,63,82,48,60,40,,19,19,32,39,6,8,0.7,0.7
2024-12-10T1400,3398A,114.9136,30.4445,黄冈市,市林业局,细颗粒物(PM2.5),69,,78,50,58,58,,26,26,16,30,8,11,0.6,0.7
2024-12-10T1400,2672A,102.0199,35.5102,黄南藏族自治州,同仁县隆务镇,细颗粒物(PM2.5),62,46,62,44,52,67,,56,49,16,15,10,10,0.8,0.8
2024-12-10T1400,2295A,118.2903,29.6963,黄山市,延安路89号,细颗粒物(PM2.5),59,42,45,42,34,34,,26,26,20,17,8,8,0.3,0.3
2024-12-10T1400,2296A,118.327,29.7178,黄山市,黄山东路89号,颗粒物(PM10),54,58,62,36,39,33,,24,24,16,19,6,6,0.4,0.4
2024-12-10T1400,2297A,118.1371,30.2756,黄山市,黄山区政府5号楼,细颗粒物(PM2.5),73,70,50,53,34,25,,20,20,27,18,8,8,0.5,0.4
2024-12-10T1400,2423A,115.0601,30.2313,黄石市,沈家营,细颗粒物(PM2.5),77,78,75,56,53,41,,28,28,29,42,8,12,0.7,0.8
2024-12-10T1400,2424A,115.0817,30.2006,黄石市,陈家湾,细颗粒物(PM2.5),83,65,74,61,60,38,,31,28,28,34,8,12,0.6,0.7
2024-12-10T1400,2426A,114.8988,30.2019,黄石市,铁山,细颗粒物(PM2.5),87,,59,64,50,35,,37,28,29,31,5,12,0.3,0.7
2024-12-10T1400,2427A,115.0307,30.2092,黄石市,团城山,细颗粒物(PM2.5),68,74,70,49,50,46,,31,28,22,33,7,10,0.7,0.8
2024-12-10T1400,3149A,115.0235,30.1578,黄石市,笔架山北路,细颗粒物(PM2.5),69,62,59,50,47,42,,27,23,26,38,9,10,0.8,0.9
2024-12-10T1400,1392A,114.4183,23.0528,惠州市,河南岸金山湖子站,,,44,41,30,26,,,56,56,12,21,8,8,0.5,0.6
2024-12-10T1400,1393A,114.4053,23.0822,惠州市,下埔横江三路子站,,45,45,42,25,27,112,,65,65,14,19,8,8,0.5,0.5
2024-12-10T1400,1394A,114.4103,23.1142,惠州市,江北云山西路子站,,37,37,40,22,25,113,,67,67,11,20,8,8,0.7,0.7
2024-12-10T1400,1395A,114.4645,22.7833,惠州市,惠阳区承修路船湖子站,,38,36,53,18,25,121,,56,56,15,28,11,10,0.4,0.6
2024-12-10T1400,1396A,114.5317,22.7422,惠州市,大亚湾管委会子站,,40,37,43,21,23,128,,64,64,15,34,9,9,0.6,0.7
2024-12-10T1400,3314A,114.4338,22.8134,惠州市,惠阳秋长,,45,31,44,17,27,143,,64,64,18,31,9,8,0.6,0.7
2024-12-10T1400,3452A,114.6517,22.775,惠州市,大亚湾霞涌,,42,33,37,24,25,133,,73,73,11,20,9,8,0.7,0.6
2024-12-10T1400,2240A,130.9762,45.3001,鸡西市,环保局,,50,47,39,35,29,55,,44,44,5,11,6,8,0.5,0.6
2024-12-10T1400,2243A,130.9429,45.3039,鸡西市,第一中学,,,33,40,26,28,63,,51,51,,14,6,8,,0.5
2024-12-10T1400,3707A,131.0207,45.3073,鸡西市,欧美日汽修厂,,46,41,70,32,62,56,,36,36,16,43,15,37,0.7,1.5
2024-12-10T1400,3709A,130.9967,45.3106,鸡西市,市政设施管理处,颗粒物(PM10),52,53,49,28,33,58,,39,39,12,38,3,7,0.7,0.8
2024-12-10T1400,2367A,114.9754,27.0803,吉安市,红声器材厂,颗粒物(PM10),63,75,70,41,42,39,,28,28,37,39,17,17,0.7,0.7
2024-12-10T1400,2368A,114.9658,27.0999,吉安市,市森林工业局,颗粒物(PM10),62,73,65,42,42,46,,32,32,38,40,19,17,0.5,0.4
2024-12-10T1400,2369A,114.99,27.1312,吉安市,市环境监测站,颗粒物(PM10),57,63,60,39,41,48,,34,34,31,38,21,21,0.7,0.7
2024-12-10T1400,2370A,115.0093,27.0968,吉安市,青原区法院,颗粒物(PM10),61,72,65,41,40,39,,34,34,37,37,14,16,0.7,0.7
2024-12-10T1400,1772A,126.54,43.8622,吉林市,哈达湾,,40,40,49,25,35,61,,44,44,17,27,9,10,0.6,0.8
2024-12-10T1400,1773A,126.5844,43.8358,吉林市,东局子,,35,30,58,24,36,62,,37,37,13,31,8,9,0.6,0.8
2024-12-10T1400,1774A,126.5052,43.8245,吉林市,电力学院,,,,70,29,53,60,,35,35,14,34,,11,0.6,1.2
2024-12-10T1400,1775A,126.6133,43.8972,吉林市,江北,,42,42,57,25,36,55,,35,35,23,32,16,12,0.5,0.9
2024-12-10T1400,1776A,126.555,43.8306,吉林市,江南公园,,33,30,60,23,41,61,,35,35,13,32,11,13,0.5,0.8
2024-12-10T1400,1778A,126.7061,43.7133,吉林市,丰满,,33,25,33,23,29,63,,52,52,10,13,11,11,0.4,0.5
2024-12-10T1400,2868A,126.4739,43.953,吉林市,九站,颗粒物(PM10),54,57,57,35,39,53,,39,39,22,36,9,9,0.7,0.9
2024-12-10T1400,1299A,116.9862,36.6114,济南市,科干所,细颗粒物(PM2.5),83,110,95,61,59,45,,23,23,49,56,10,12,0.6,0.8
2024-12-10T1400,1300A,116.9376,36.665,济南市,农科所,细颗粒物(PM2.5),104,147,130,78,64,30,,20,20,66,63,17,14,1.0,1.3
2024-12-10T1400,1301A,117.1265,36.6734,济南市,开发区,细颗粒物(PM2.5),98,120,101,73,64,46,,27,27,49,57,13,9,0.7,0.8
2024-12-10T1400,1303A,117.0624,36.6868,济南市,省种子仓库,细颗粒物(PM2.5),107,129,121,80,62,47,,24,24,42,56,12,10,0.7,0.9
2024-12-10T1400,1304A,116.9489,36.6447,济南市,机床二厂,细颗粒物(PM2.5),104,142,144,78,77,37,,26,26,54,60,16,31,0.9,1.4
2024-12-10T1400,1305A,117.0495,36.663,济南市,市监测站,细颗粒物(PM2.5),95,120,106,71,61,50,,28,28,46,58,12,10,0.7,0.9
2024-12-10T1400,1306A,116.7675,36.5484,济南市,长清党校,细颗粒物(PM2.5),108,125,101,81,72,43,,25,25,55,56,15,12,0.8,0.8
2024-12-10T1400,1616A,117.6795,36.229,济南市,技术学院,细颗粒物(PM2.5),67,68,114,48,85,57,,24,24,32,55,14,13,0.8,1.2
2024-12-10T1400,1961A,117.532,36.6868,济南市,东山小学,细颗粒物(PM2.5),113,139,102,85,58,51,,29,29,45,52,29,9,1.0,0.7
2024-12-10T1400,3059A,117.7161,36.2049,济南市,泰兴公司,细颗粒物(PM2.5),64,63,131,46,88,60,,25,25,26,57,15,14,0.6,1.1
2024-12-10T1400,3064A,117.6867,36.2171,济南市,莱芜战役纪念馆,细颗粒物(PM2.5),67,73,138,48,90,58,,27,27,26,56,13,13,0.6,1.2
2024-12-10T1400,3494A,117.1673,36.9782,济南市,济阳区政府,细颗粒物(PM2.5),108,117,119,81,74,43,,22,22,44,62,14,13,0.8,0.8
2024-12-10T1400,3495A,117.1171,36.63,济南市,锦屏中学,细颗粒物(PM2.5),77,88,76,56,54,58,,39,39,41,44,12,7,0.5,0.7
2024-12-10T1400,3682A,116.9814,36.6819,济南市,济南四建,细颗粒物(PM2.5),110,127,121,83,70,27,,15,15,62,66,15,15,0.8,1.1
2024-12-10T1400,1653A,116.6251,35.4302,济宁市,火炬城,细颗粒物(PM2.5),79,88,81,58,58,43,,19,19,46,53,15,11,0.9,0.9
2024-12-10T1400,1655A,116.5491,35.4042,济宁市,电化厂,细颗粒物(PM2.5),100,112,99,75,67,26,,12,12,61,55,15,15,0.9,1
2024-12-10T1400,3500A,116.5814,35.3707,济宁市,北湖一中,颗粒物(PM10),70,89,74,39,50,41,,24,24,53,53,12,9,0.6,0.7
2024-12-10T1400,3501A,116.8249,35.5593,济宁市,服务中心,细颗粒物(PM2.5),92,127,114,68,69,37,,19,19,51,56,19,17,1.2,1.1
2024-12-10T1400,3678A,116.5907,35.4054,济宁市,市第七中学,颗粒物(PM10),71,91,75,51,54,50,,24,24,42,49,10,8,0.9,1
2024-12-10T1400,2255A,130.2751,46.8028,佳木斯市,佳纺,,,64,56,59,50,,,47,47,21,31,16,13,0.8,0.9
2024-12-10T1400,2256A,130.3995,46.8307,佳木斯市,发电厂,细颗粒物(PM2.5),84,,47,62,50,56,,46,46,24,39,8,8,0.7,0.7
2024-12-10T1400,2257A,130.3258,46.7975,佳木斯市,环保局,细颗粒物(PM2.5),89,68,49,66,43,52,,39,39,28,38,12,14,0.7,0.7
2024-12-10T1400,2258A,130.3648,46.8032,佳木斯市,十一中,细颗粒物(PM2.5),84,63,44,62,39,57,,46,46,27,38,9,10,0.7,0.7
2024-12-10T1400,2259A,130.3794,46.7588,佳木斯市,四丰,细颗粒物(PM2.5),72,74,50,52,34,61,,51,51,18,12,1,1,0.7,0.5
2024-12-10T1400,1252A,120.7436,30.778,嘉兴市,清河小学,,39,39,41,20,22,26,,22,18,49,49,5,6,0.5,0.4
2024-12-10T1400,1253A,120.726,30.7478,嘉兴市,嘉兴学院,,50,50,51,34,29,27,,24,21,53,51,5,6,0.5,0.5
2024-12-10T1400,2872A,120.7846,30.7525,嘉兴市,南湖区残联,,43,37,45,30,27,30,,24,24,47,48,6,7,0.5,0.5
2024-12-10T1400,3407A,120.6916,30.7739,嘉兴市,秀洲住建,,45,38,44,31,29,28,,20,16,49,49,9,9,0.4,0.3
2024-12-10T1400,1945A,98.2908,39.7711,嘉峪关市,气象局,,45,44,44,31,27,79,,59,59,12,17,13,5,0.5,0.4
2024-12-10T1400,2884A,98.2672,39.7978,嘉峪关市,酒钢宾馆,,44,44,54,29,30,85,,52,52,12,22,23,19,0.8,0.7
2024-12-10T1400,3248A,98.2643,39.7724,嘉峪关市,雄关区,,35,35,46,18,29,84,,55,55,16,27,9,8,0.4,0.5
2024-12-10T1400,1383A,113.1064,22.6058,江门市,北街,细颗粒物(PM2.5),84,91,87,62,57,129,,45,45,60,78,12,11,0.7,0.8
2024-12-10T1400,1384A,113.0731,22.5835,江门市,西区,细颗粒物(PM2.5),80,90,109,59,56,128,,47,47,72,83,13,12,0.8,0.9
2024-12-10T1400,1385A,113.0219,22.5311,江门市,圭峰西,细颗粒物(PM2.5),95,97,73,71,52,146,,60,60,69,52,7,5,0.8,0.8
2024-12-10T1400,1386A,113.0828,22.5947,江门市,东湖,颗粒物(PM10),68,86,90,44,49,121,,45,45,58,66,12,10,0.7,0.8
2024-12-10T1400,3311A,113.1075,22.5647,江门市,江海富民,颗粒物(PM10),82,114,97,59,55,148,,53,53,69,83,11,12,0.7,0.9
2024-12-10T1400,3449A,113.05,22.4667,江门市,新会银湖,细颗粒物(PM2.5),102,84,75,76,60,176,,58,58,54,59,9,8,0.8,0.9
2024-12-10T1400,1828A,113.227,35.2125,焦作市,市环保局,细颗粒物(PM2.5),109,109,124,82,87,33,,22,22,36,44,21,13,0.7,0.8
2024-12-10T1400,1830A,113.1992,35.2590,焦作市,影视城,细颗粒物(PM2.5),87,85,102,64,74,41,,37,35,28,31,18,13,0.8,0.9
2024-12-10T1400,3169A,113.2725,35.2067,焦作市,太极体育中心,细颗粒物(PM2.5),104,128,126,78,75,32,,17,17,40,53,25,20,1.1,1
2024-12-10T1400,3335A,113.3137,35.2641,焦作市,马村街道办,细颗粒物(PM2.5),100,84,121,75,89,47,,24,24,22,42,26,15,0.6,1
2024-12-10T1400,3336A,113.2465,35.2373,焦作市,焦作技师学院,细颗粒物(PM2.5),100,102,124,75,83,41,,21,21,21,32,24,16,0.8,1
2024-12-10T1400,3477A,113.1656,35.2539,焦作市,中站许衡医院,,,105,108,68,77,43,,24,24,24,43,,12,0.6,0.7
2024-12-10T1400,3981A,113.2449,35.1803,焦作市,原李万街道办,细颗粒物(PM2.5),104,92,131,78,85,35,,19,19,37,48,13,21,0.7,0.8
2024-12-10T1400,1708A,116.3701,23.5345,揭阳市,新兴,颗粒物(PM10),53,56,59,24,36,125,,66,66,16,28,11,12,0.4,0.6
2024-12-10T1400,1709A,116.3264,23.5443,揭阳市,西马,,,56,66,20,40,119,,63,63,17,28,,12,0.6,0.7
2024-12-10T1400,1710A,116.3611,23.5626,揭阳市,东兴,颗粒物(PM10),55,59,65,27,37,130,,66,66,16,27,16,12,0.7,0.8
2024-12-10T1400,1711A,116.4151,23.5294,揭阳市,渔湖,,42,42,56,24,30,119,,62,62,9,27,9,14,0.4,0.6
2024-12-10T1400,3320A,116.403,23.5699,揭阳市,曲溪,颗粒物(PM10),52,53,70,31,40,140,,71,71,19,32,9,10,0.6,0.8
2024-12-10T1400,1944A,102.1692,38.5167,金昌市,天庆家园,,29,,32,20,28,77,,69,69,6,9,9,11,0.5,0.7
2024-12-10T1400,3170A,102.1864,38.5253,金昌市,市委党校,,40,40,43,18,24,78,,72,72,6,9,8,9,0.4,0.5
2024-12-10T1400,4022A,102.1647,38.5371,金昌市,金川区人防中心,,26,20,41,18,27,79,,72,72,4,8,10,10,0.5,0.6
2024-12-10T1400,1262A,119.647,29.077,金华市,十五中,,,73,78,47,47,26,,18,18,56,64,5,5,,0.9
2024-12-10T1400,1263A,119.686,29.1029,金华市,监测站,细颗粒物(PM2.5),67,73,88,48,50,23,,17,17,54,63,5,5,0.7,0.9
2024-12-10T1400,3659A,119.656,29.1131,金华市,气象局,细颗粒物(PM2.5),63,67,79,45,46,28,,15,15,52,65,5,5,0.9,0.9
2024-12-10T1400,1767A,121.1115,41.0879,锦州市,南山,,25,25,86,11,82,63,,42,42,11,39,15,21,0.5,1.5
2024-12-10T1400,1768A,121.0533,40.8434,锦州市,开发区,,38,38,131,16,76,63,,42,42,11,56,14,28,0.4,1.3
2024-12-10T1400,1769A,121.1836,41.1119,锦州市,百股街道,,30,30,83,17,65,60,,39,39,12,42,13,29,0.5,1.3
2024-12-10T1400,1770A,121.1178,41.1222,锦州市,天安街道,,19,14,89,12,67,58,,38,38,12,43,14,25,0.6,1.4
2024-12-10T1400,1771A,121.1303,41.1386,锦州市,北湖公园,,22,22,83,13,67,58,,40,40,10,42,14,26,0.5,1.3
2024-12-10T1400,2160A,112.85,35.5051,晋城市,自来水公司,细颗粒物(PM2.5),89,91,90,66,81,50,,20,20,30,53,14,17,1.0,1.4
2024-12-10T1400,2161A,112.8318,35.4936,晋城市,白云商贸,,,82,106,61,70,53,,22,22,31,51,,12,1.1,1.3
2024-12-10T1400,2162A,112.8508,35.4887,晋城市,市环保局,细颗粒物(PM2.5),89,85,120,66,83,51,,21,21,30,55,12,14,1.1,1.4
2024-12-10T1400,2163A,112.8676,35.4897,晋城市,技术学院,细颗粒物(PM2.5),89,81,123,66,87,48,,19,19,34,60,13,17,1.0,1.3
2024-12-10T1400,2165A,112.8453,35.546,晋城市,白马寺,细颗粒物(PM2.5),89,82,96,66,68,42,,27,22,32,42,18,21,1.2,1.4
2024-12-10T1400,3620A,112.8271,35.4828,晋城市,泽州一中,细颗粒物(PM2.5),83,91,99,61,77,53,,25,25,29,51,12,15,1.0,1.2
2024-12-10T1400,2171A,112.7532,37.6945,晋中市,锦纶小区,颗粒物(PM10),64,78,95,34,39,26,,17,17,53,55,13,12,0.5,0.8
2024-12-10T1400,2173A,112.7249,37.7067,晋中市,南都小区,颗粒物(PM10),55,60,91,35,43,30,,14,14,47,60,13,15,0.6,1
2024-12-10T1400,2174A,112.6991,37.6982,晋中市,榆次区政府,颗粒物(PM10),59,68,99,31,45,30,,14,14,47,59,14,16,0.6,1
2024-12-10T1400,2865A,112.7195,37.6828,晋中市,榆次三中,颗粒物(PM10),59,68,91,29,38,30,,15,15,46,53,16,14,0.6,0.9
2024-12-10T1400,2439A,112.2014,31.0481,荆门市,竹园小学,细颗粒物(PM2.5),87,98,89,64,58,27,,37,26,29,32,11,14,0.6,0.6
2024-12-10T1400,2440A,112.1969,30.9891,荆门市,掇刀,细颗粒物(PM2.5),90,86,78,67,53,31,,46,34,32,33,8,11,0.6,0.6
2024-12-10T1400,2441A,112.2213,31.0386,荆门市,石化一小,细颗粒物(PM2.5),87,103,95,64,55,31,,35,28,30,37,8,10,0.6,0.6
2024-12-10T1400,3012A,112.1849,31.0362,荆门市,西山林语,细颗粒物(PM2.5),85,92,82,63,55,34,,46,36,26,28,8,10,0.7,0.5
2024-12-10T1400,3547A,112.1632,31.0138,荆门市,龙泉中学南校,细颗粒物(PM2.5),77,77,75,56,55,37,,50,40,30,32,13,14,0.6,0.6
2024-12-10T1400,1844A,112.2494,30.3197,荆州市,市图书馆,细颗粒物(PM2.5),74,57,58,54,53,40,,47,47,34,31,6,6,0.7,0.6
2024-12-10T1400,1845A,112.2008,30.3544,荆州市,市委党校,细颗粒物(PM2.5),74,59,58,54,51,33,,45,45,36,31,5,5,0.6,0.6
2024-12-10T1400,3194A,112.2747,30.3122,荆州市,管委会,细颗粒物(PM2.5),72,54,55,52,51,44,,50,50,24,25,4,4,0.6,0.6
2024-12-10T1400,3548A,112.1655,30.3364,荆州市,学苑路,细颗粒物(PM2.5),67,74,68,48,49,40,,50,50,35,32,10,9,0.8,0.7
2024-12-10T1400,2342A,117.3102,29.3867,景德镇市,王港中学,,,,,,,,,,,,,,,,
2024-12-10T1400,2343A,117.2117,29.2933,景德镇市,老干部活动中心,,43,37,32,30,27,31,,28,26,13,15,7,7,0.5,0.5
2024-12-10T1400,2344A,117.1894,29.2789,景德镇市,兽医站,,43,43,42,25,22,37,,33,32,10,12,7,7,0.3,0.3
2024-12-10T1400,2345A,117.1547,29.2617,景德镇市,台达陶瓷,,38,38,39,25,27,31,,32,26,13,12,7,4,0.5,0.5
2024-12-10T1400,2346A,117.2461,29.2956,景德镇市,陶研所,,37,37,34,20,18,26,,24,22,12,16,3,4,0.6,0.5
2024-12-10T1400,1803A,115.9872,29.6815,九江市,十里,细颗粒物(PM2.5),65,72,69,47,50,19,,13,13,48,51,6,9,1.0,0.8
2024-12-10T1400,1804A,115.9584,29.7046,九江市,茅山头,细颗粒物(PM2.5),74,84,74,54,51,19,,13,13,45,47,10,13,1.0,0.9
2024-12-10T1400,1805A,115.9877,29.7295,九江市,西园,细颗粒物(PM2.5),77,73,68,56,51,26,,22,22,43,42,7,7,0.8,0.7
2024-12-10T1400,1806A,116.0172,29.6547,九江市,五七二七厂,细颗粒物(PM2.5),100,87,81,75,58,21,,16,16,42,44,5,8,1.1,1.1
2024-12-10T1400,1808A,115.9114,29.6038,九江市,综合工业园,细颗粒物(PM2.5),113,,70,85,68,9,,10,10,54,54,3,7,1.0,0.9
2024-12-10T1400,1809A,116.0721,29.7535,九江市,石化总厂,细颗粒物(PM2.5),82,80,74,60,53,15,,12,12,47,43,11,13,1.0,0.8
2024-12-10T1400,1810A,115.9773,29.5698,九江市,庐山气象台,,33,26,33,23,32,56,,66,61,8,9,6,11,0.8,0.7
2024-12-10T1400,3190A,116.0254,29.6994,九江市,外国语学校,细颗粒物(PM2.5),84,80,77,62,53,16,,11,11,44,45,4,8,0.7,0.6
2024-12-10T1400,2658A,98.5061,39.7443,酒泉市,仓门街子站,颗粒物(PM10),56,61,36,31,26,67,,66,61,15,10,8,6,0.6,0.4
2024-12-10T1400,2659A,98.4989,39.7256,酒泉市,油田生活基地,,48,48,41,33,32,73,,64,60,15,13,8,5,0.6,0.5
2024-12-10T1400,2698A,76.0072,39.4467,喀什地区,巡警大队,颗粒物(PM10),57,63,69,18,23,54,,52,51,17,32,1,4,0.3,0.6
2024-12-10T1400,2699A,75.9755,39.4694,喀什地区,吾办,颗粒物(PM10),57,64,73,36,30,61,,57,55,17,38,3,3,0.5,0.8
2024-12-10T1400,4027A,75.9483,39.4689,喀什地区,老干局,,,,78,,20,61,,61,54,17,30,1,3,,0.7
2024-12-10T1400,1824A,114.3389,34.7781,开封市,肿瘤医院,细颗粒物(PM2.5),90,85,94,67,67,43,,23,23,30,46,12,7,0.5,0.5
2024-12-10T1400,1826A,114.2885,34.7965,开封市,世纪星幼儿园,细颗粒物(PM2.5),79,66,80,58,62,45,,23,23,33,47,6,4,0.4,0.5
2024-12-10T1400,3147A,114.3438,34.8106,开封市,龙亭公园,细颗粒物(PM2.5),89,73,89,66,69,45,,23,23,35,51,8,3,0.5,0.5
2024-12-10T1400,3210A,114.3644,34.7964,开封市,汴京公园,细颗粒物(PM2.5),100,99,105,75,72,39,,18,18,40,55,11,4,0.6,0.6
2024-12-10T1400,3473A,114.2485,34.8306,开封市,技师学院,细颗粒物(PM2.5),85,101,82,63,63,35,,21,21,39,43,7,5,0.7,0.7
2024-12-10T1400,3592A,114.4644,34.7556,开封市,祥符区生态环境局,细颗粒物(PM2.5),104,,60,78,76,36,,18,18,39,47,9,3,0.5,0.5
2024-12-10T1400,1951A,84.895,45.6094,克拉玛依市,长征新村,,16,16,18,9,15,50,,45,45,8,20,5,5,0.3,0.3
2024-12-10T1400,1952A,84.8988,45.5893,克拉玛依市,南林小区,,29,,19,20,15,50,,46,46,8,20,5,5,0.3,0.3
2024-12-10T1400,1954A,84.905,44.3396,克拉玛依市,独山子区,,30,,12,21,7,56,,44,36,8,19,5,4,0.3,0.4
2024-12-10T1400,1955A,85.6979,46.098,克拉玛依市,乌尔禾区商贸楼,,18,6,17,3,16,56,,44,44,8,25,3,3,0.3,0.5
2024-12-10T1400,3612A,85.1045,45.6899,克拉玛依市,白碱滩区新站,,17,9,23,9,15,54,,48,48,9,24,8,8,0.6,0.6
2024-12-10T1400,2697A,76.1454,39.7142,克孜勒苏柯尔克孜自治州,市人民政府,,42,42,55,24,19,78,,68,61,10,14,4,4,0.5,0.4
2024-12-10T1400,3665A,76.1658,39.7157,克孜勒苏柯尔克孜自治州,克州文化中心,,33,27,44,23,19,72,,66,60,13,20,6,8,0.4,0.5
2024-12-10T1400,1450A,102.8204,24.8886,昆明市,呈贡新区,,27,22,19,15,10,85,,58,58,6,13,6,5,0.5,0.6
2024-12-10T1400,1451A,102.6251,24.9608,昆明市,西山森林公园,,,,,,,,,,,,,,,,
2024-12-10T1400,1452A,102.7252,25.0902,昆明市,龙泉镇,,27,,20,12,9,84,,48,48,5,26,7,8,0.4,0.7
2024-12-10T1400,1453A,102.7266,25.0375,昆明市,东风东路,,26,26,21,18,13,80,,53,53,7,17,7,11,0.4,0.5
2024-12-10T1400,1454A,102.6742,25.0669,昆明市,金鼎山,,29,29,26,10,15,89,,56,56,7,27,16,19,0.4,0.6
2024-12-10T1400,1455A,102.6644,25.0401,昆明市,碧鸡广场,,,,24,,12,82,,53,53,8,27,6,8,0.4,0.5
2024-12-10T1400,3179A,102.7494,25.0119,昆明市,官渡区博物馆,,35,35,24,15,13,85,,61,61,9,16,9,9,0.5,0.5
2024-12-10T1400,3375A,102.8017,24.8336,昆明市,青年创业园,,30,17,16,14,9,93,,64,64,2,8,6,6,0.5,0.6
2024-12-10T1400,3550A,102.7997,24.9786,昆明市,昆明学院,,,22,15,,8,91,,68,68,,9,9,9,0.3,0.3
2024-12-10T1400,3551A,102.5967,24.6736,昆明市,晋宁区生态环境分局,,29,9,20,7,11,92,,66,66,3,11,2,3,0.3,0.4
2024-12-10T1400,3552A,102.6678,24.9856,昆明市,云天化总部,,30,20,15,13,9,95,,75,75,4,7,7,9,0.3,0.4
2024-12-10T1400,1456A,91.1319,29.6514,拉萨市,八廓街,,39,29,108,11,29,122,,97,97,6,11,7,7,0.2,0.2
2024-12-10T1400,1457A,91.1221,29.6747,拉萨市,市环保局,,45,31,123,13,36,141,,116,116,10,12,6,7,0.3,0.4
2024-12-10T1400,1458A,91.0874,29.6475,拉萨市,区监测站,,41,29,108,10,33,130,,104,104,6,8,5,5,0.4,0.4
2024-12-10T1400,1459A,91.1774,29.6541,拉萨市,西藏大学,,41,32,137,9,31,130,,101,101,5,12,3,4,0.5,0.6
2024-12-10T1400,1460A,90.9798,29.6588,拉萨市,区辐射站,,42,42,136,10,40,124,,107,99,9,12,7,7,0.4,0.5
2024-12-10T1400,1461A,91.0834,29.6292,拉萨市,拉萨火车站,,44,23,119,7,33,138,,118,118,3,5,4,5,0.4,0.5
2024-12-10T1400,2520A,109.2203,23.7256,来宾市,来宾技工学校,细颗粒物(PM2.5),172,144,112,130,106,43,,22,22,33,34,11,12,1.5,1.2
2024-12-10T1400,3535A,109.1781,23.7297,来宾市,兴宾区政府,细颗粒物(PM2.5),142,149,125,108,88,48,,28,28,30,31,11,12,1.5,1.3
2024-12-10T1400,4002A,109.2416,23.7461,来宾市,中南小学,细颗粒物(PM2.5),158,155,116,120,89,43,,22,22,31,33,10,10,1.4,1.2
2024-12-10T1400,1476A,103.631,36.1031,兰州市,兰炼宾馆,细颗粒物(PM2.5),58,47,68,41,49,66,,48,48,20,34,13,14,0.6,0.7
2024-12-10T1400,1477A,104.1373,35.9454,兰州市,榆中兰大校区,,,,,,,,,,,,,,,,
2024-12-10T1400,1478A,103.8412,36.0726,兰州市,生物制品所,细颗粒物(PM2.5),60,44,57,43,47,62,,47,47,18,26,13,12,0.6,0.7
2024-12-10T1400,1479A,103.831,36.0464,兰州市,铁路设计院,细颗粒物(PM2.5),67,70,67,48,49,51,,37,37,26,32,11,8,0.7,0.7
2024-12-10T1400,3186A,103.7158,36.1058,兰州市,教育港,细颗粒物(PM2.5),64,50,69,46,48,67,,45,45,19,34,14,15,0.5,0.7
2024-12-10T1400,3241A,103.7439,36.0842,兰州市,百合公园,细颗粒物(PM2.5),53,47,59,37,43,55,,44,44,18,26,14,11,0.7,0.7
2024-12-10T1400,3242A,103.9611,35.998,兰州市,和平,细颗粒物(PM2.5),70,61,73,51,54,61,,45,45,20,33,18,15,0.8,0.9
2024-12-10T1400,3245A,103.6633,36.533,兰州新区,新区管委会,细颗粒物(PM2.5),59,48,70,42,48,74,,60,60,15,22,9,15,0.4,0.5
2024-12-10T1400,3246A,103.6975,36.4789,兰州新区,舟曲中学,细颗粒物(PM2.5),62,72,81,44,43,70,,57,57,15,22,8,14,0.5,0.6
2024-12-10T1400,1067A,116.6708,39.5111,廊坊市,药材公司,,20,11,53,11,35,62,,41,41,18,56,2,5,0.4,0.7
2024-12-10T1400,1068A,116.7214,39.5589,廊坊市,开发区,,22,22,55,8,29,62,,37,37,15,57,3,5,0.3,0.6
2024-12-10T1400,1070A,116.7244,39.5269,廊坊市,北华航天学院,,19,19,55,8,29,60,,36,36,18,60,5,7,0.3,0.6
2024-12-10T1400,2919A,116.7022,39.5453,廊坊市,河北工业大学,,21,21,55,9,30,63,,39,39,13,56,4,6,0.3,0.6
2024-12-10T1400,2535A,103.7723,29.5462,乐山市,花湖湾,,35,24,37,24,34,25,,38,31,14,10,2,1,0.6,0.5
2024-12-10T1400,2536A,103.7627,29.5844,乐山市,牛耳桥,,40,36,39,28,33,22,,40,26,30,26,4,5,0.5,0.4
2024-12-10T1400,2537A,103.7508,29.6006,乐山市,市第三水厂,,,32,38,17,29,30,,47,42,24,19,3,3,,0.3
2024-12-10T1400,2538A,103.7571,29.5664,乐山市,市监测站,,33,30,41,23,27,25,,39,32,24,18,4,4,0.4,0.4
2024-12-10T1400,3361A,103.7311,29.5628,乐山市,理工大学,,36,30,34,25,31,28,,34,28,23,20,6,5,0.5,0.5
2024-12-10T1400,2598A,100.2143,26.8576,丽江市,西南郊,,,,,,,,,,,,,,,,
2024-12-10T1400,2599A,100.2497,26.8802,丽江市,丽江古城,,29,28,22,17,12,90,,72,72,10,12,10,9,0.5,0.5
2024-12-10T1400,2600A,100.2203,26.8906,丽江市,市中心,,29,26,12,7,7,91,,77,77,9,10,7,7,0.5,0.4
2024-12-10T1400,1267A,119.914,28.4514,丽水市,监测站大楼,颗粒物(PM10),51,52,45,12,26,60,,23,23,22,43,3,4,0.5,0.6
2024-12-10T1400,1268A,119.93,28.4586,丽水市,莲都小学,,37,37,64,12,26,59,,21,21,26,45,5,6,0.5,0.8
2024-12-10T1400,1269A,119.879,28.4231,丽水市,余庄前,,34,34,39,16,22,48,,18,18,31,32,6,6,0.4,0.5
2024-12-10T1400,1173A,119.176,34.5885,连云港市,市环境监测站,细颗粒物(PM2.5),83,92,86,61,57,69,,31,31,32,57,15,15,0.7,0.9
2024-12-10T1400,3000A,119.3581,34.6972,连云港市,德源药业,细颗粒物(PM2.5),83,88,89,61,53,71,,36,36,31,58,12,11,0.7,0.6
2024-12-10T1400,3007A,119.178,34.844,连云港市,新城一中,细颗粒物(PM2.5),92,97,94,68,70,73,,33,33,31,59,16,19,0.8,1.1
2024-12-10T1400,3008A,119.3608,34.7519,连云港市,胡沟管理处,细颗粒物(PM2.5),73,80,70,53,45,70,,45,45,19,32,7,7,0.5,0.4
2024-12-10T1400,3009A,119.1478,34.5911,连云港市,矿山设计院,细颗粒物(PM2.5),92,105,96,68,62,68,,28,28,28,53,14,14,0.9,0.9
2024-12-10T1400,3434A,119.2413,34.6539,连云港市,工贸学校,细颗粒物(PM2.5),103,116,78,77,54,77,,37,37,28,34,14,12,0.8,0.7
2024-12-10T1400,3664A,119.4172,34.7341,连云港市,连云街道,细颗粒物(PM2.5),88,94,67,65,47,66,,47,47,39,35,11,12,0.8,0.7
2024-12-10T1400,2571A,102.3431,27.8099,凉山彝族自治州,青龙寺,,31,26,17,3,4,98,,72,72,2,8,5,5,0.5,0.4
2024-12-10T1400,2572A,102.2721,27.8415,凉山彝族自治州,邛海宾馆,,33,33,27,19,11,94,,70,70,4,8,15,12,0.6,0.6
2024-12-10T1400,2573A,102.2625,27.898,凉山彝族自治州,西昌市政府,,29,27,24,18,14,92,,80,80,7,9,8,10,0.8,0.7
2024-12-10T1400,2574A,102.2685,27.8851,凉山彝族自治州,凉山州政府,,,34,24,15,10,92,,83,83,,7,13,13,0.6,0.6
2024-12-10T1400,2575A,102.237,27.8914,凉山彝族自治州,长安,,43,43,32,14,11,92,,78,78,8,11,9,15,0.6,0.9
2024-12-10T1400,2212A,123.2,41.1953,辽阳市,宏伟区,细颗粒物(PM2.5),63,64,87,45,65,36,,21,21,22,43,12,14,0.4,1.3
2024-12-10T1400,2213A,123.1683,41.2495,辽阳市,新华园,,49,44,99,34,80,41,,22,22,23,53,16,27,0.6,1.9
2024-12-10T1400,2214A,123.2354,41.2639,辽阳市,滨河路,"颗粒物(PM10),细颗粒物(PM2.5)",54,57,71,38,56,38,,22,22,30,44,17,15,1.0,1.4
2024-12-10T1400,2215A,123.149,41.2991,辽阳市,铁西工业园,,38,38,117,22,93,44,,21,21,14,45,11,14,0.6,1.9
2024-12-10T1400,2227A,125.1358,42.8845,辽源市,环保局,,38,37,69,26,48,59,,31,31,15,35,10,11,0.6,1.5
2024-12-10T1400,3239A,125.0764,42.9078,辽源市,银鹰制药,,46,38,66,32,51,58,,29,29,15,39,11,15,0.7,1.4
2024-12-10T1400,1625A,115.9848,36.4372,聊城市,区政府,细颗粒物(PM2.5),119,135,101,90,64,39,,26,26,62,63,20,12,1.0,0.9
2024-12-10T1400,2878A,116.0072,36.4343,聊城市,聊大东校,,,,109,,72,40,,22,22,58,57,14,13,1.0,0.9
2024-12-10T1400,3200A,115.9819,36.4978,聊城市,监控中心,细颗粒物(PM2.5),117,129,123,88,80,45,,22,22,44,70,18,14,0.9,0.8
2024-12-10T1400,3513A,116.0445,36.4361,聊城市,九州社区,细颗粒物(PM2.5),104,112,99,78,72,45,,22,22,38,50,12,17,0.9,0.9
2024-12-10T1400,4018A,116.0567,36.4608,聊城市,星美广场,细颗粒物(PM2.5),113,134,119,85,75,40,,20,20,41,49,15,14,1.0,0.9
2024-12-10T1400,2632A,94.3681,29.6376,林芝市,林芝监测站,,28,17,22,3,6,89,,91,79,4,4,7,6,0.5,0.4
2024-12-10T1400,2633A,94.3616,29.6616,林芝市,林芝人民医院,颗粒物(PM10),51,51,22,3,7,83,,86,74,4,3,5,6,0.7,0.6
2024-12-10T1400,2603A,100.0781,23.8982,临沧市,市环保局,,38,32,27,26,21,97,,40,40,6,14,10,8,0.3,0.5
2024-12-10T1400,2604A,100.0894,23.8822,临沧市,市气象局,,34,34,28,20,20,91,,43,43,6,15,7,8,0.3,0.6
2024-12-10T1400,1733A,111.5531,36.0783,临汾市,临钢医院,细颗粒物(PM2.5),110,130,94,83,54,28,,9,9,52,44,30,13,2.1,1.2
2024-12-10T1400,1734A,111.5028,36.0714,临汾市,技工学校,细颗粒物(PM2.5),115,124,96,87,65,24,,8,8,69,58,34,15,2.1,1.3
2024-12-10T1400,1736A,111.5018,36.0855,临汾市,市委,,,,112,,56,25,,6,6,58,46,36,14,1.9,1.1
2024-12-10T1400,3018A,111.505,36.1014,临汾市,唐尧大酒店,细颗粒物(PM2.5),107,115,97,80,62,22,,10,10,60,47,36,17,2.0,1.4
2024-12-10T1400,3668A,111.5036,36.0414,临汾市,城南,细颗粒物(PM2.5),124,144,100,94,59,27,,9,9,57,43,29,12,2.3,1.1
2024-12-10T1400,2667A,103.2069,35.5993,临夏回族自治州,环保局,,49,49,53,16,15,49,,29,29,16,26,12,13,0.8,0.8
2024-12-10T1400,2668A,103.2417,35.6057,临夏回族自治州,建设大厦,,33,33,51,18,21,59,,37,37,12,21,13,14,0.8,0.8
2024-12-10T1400,1618A,118.3429,35.0532,临沂市,沂河小区,细颗粒物(PM2.5),94,100,108,70,78,61,,32,32,40,61,15,23,0.6,0.9
2024-12-10T1400,1619A,118.295,35.0583,临沂市,鲁南制药厂,细颗粒物(PM2.5),92,88,111,68,75,60,,26,26,28,57,13,22,0.6,0.8
2024-12-10T1400,1620A,118.2794,34.9976,临沂市,新光毛纺厂,细颗粒物(PM2.5),84,75,97,62,69,62,,30,30,36,59,13,20,0.9,1.1
2024-12-10T1400,1621A,118.3956,35.0888,临沂市,河东保险公司,细颗粒物(PM2.5),90,92,113,67,75,62,,28,28,30,58,12,12,0.4,0.8
2024-12-10T1400,3370A,118.3564,35.0215,临沂市,十里堡居委,细颗粒物(PM2.5),79,80,104,58,69,64,,31,31,32,53,14,22,0.7,1.1
2024-12-10T1400,3496A,118.3604,35.1084,临沂市,南坊新区,细颗粒物(PM2.5),85,95,110,63,73,62,,31,31,40,63,11,15,0.8,1
2024-12-10T1400,3860A,118.3920,35.0300,临沂市,皇山花园小区,细颗粒物(PM2.5),83,95,116,61,68,59,,27,27,42,66,12,16,0.7,1
2024-12-10T1400,1870A,109.4856,24.3895,柳州市,柳东小学,细颗粒物(PM2.5),59,43,76,42,66,42,,27,27,13,17,8,10,0.6,0.8
2024-12-10T1400,1871A,109.4157,24.3277,柳州市,环保监测站,细颗粒物(PM2.5),93,,96,69,76,38,,26,26,21,25,9,13,1.0,0.9
2024-12-10T1400,1872A,109.389,24.341,柳州市,河西水厂,细颗粒物(PM2.5),73,68,93,53,64,24,,16,16,25,25,8,18,1.0,1
2024-12-10T1400,1873A,109.4311,24.2921,柳州市,市四中,细颗粒物(PM2.5),74,70,77,54,58,37,,30,30,22,24,7,11,1.0,0.9
2024-12-10T1400,1874A,109.4006,24.3631,柳州市,市九中,细颗粒物(PM2.5),75,,81,55,62,41,,23,23,18,25,6,9,1.0,1
2024-12-10T1400,1875A,109.4958,24.3134,柳州市,古亭山,细颗粒物(PM2.5),65,70,77,47,57,46,,32,32,22,27,10,11,1.0,0.9
2024-12-10T1400,3402A,109.5422,24.3996,柳州市,市二中,细颗粒物(PM2.5),57,59,75,40,70,35,,23,23,22,27,9,10,1.0,1
2024-12-10T1400,2307A,116.5079,31.737,六安市,监测大楼,细颗粒物(PM2.5),64,61,66,46,46,20,,13,13,44,51,6,6,0.7,0.7
2024-12-10T1400,2308A,116.4738,31.7643,六安市,皖西学院,"颗粒物(PM10),细颗粒物(PM2.5)",59,67,73,42,43,17,,12,12,46,54,5,6,0.8,0.8
2024-12-10T1400,2309A,116.4996,31.7905,六安市,朝阳厂,颗粒物(PM10),55,59,66,38,42,24,,13,13,36,50,3,4,0.8,0.8
2024-12-10T1400,2310A,116.5567,31.7886,六安市,开发区,细颗粒物(PM2.5),69,63,80,50,50,28,,19,19,44,52,6,6,0.7,0.7
2024-12-10T1400,2576A,104.8,26.5892,六盘水市,窑上,,29,29,20,18,12,19,,15,12,10,10,7,6,0.7,0.7
2024-12-10T1400,2577A,104.83,26.5917,六盘水市,黄土坡,,22,21,16,15,10,19,,19,12,13,13,13,9,0.6,0.6
2024-12-10T1400,2578A,104.89,26.5939,六盘水市,水钢,,16,16,19,6,16,24,,16,16,12,12,8,7,0.7,0.7
2024-12-10T1400,2579A,104.8475,26.5894,六盘水市,民中,,16,16,13,3,6,17,,20,10,15,13,10,8,0.6,0.6
2024-12-10T1400,2580A,104.9544,26.5506,六盘水市,双水,,17,17,11,7,7,19,,26,15,13,10,8,7,0.5,0.6
2024-12-10T1400,2335A,117.0189,25.1181,龙岩市,龙岩师专,,,,,,,,,,,,,,,,
2024-12-10T1400,2336A,117.0217,25.1033,龙岩市,龙岩市监测站,,27,23,37,6,30,85,,40,40,11,26,4,14,0.4,0.8
2024-12-10T1400,2337A,117.0258,25.0661,龙岩市,闽西职业技术学院,,27,21,39,12,23,84,,37,37,9,26,2,12,0.1,0.4
2024-12-10T1400,2338A,117.0196,25.0306,龙岩市,龙岩学院,,25,23,36,9,22,78,,31,31,12,25,5,8,0.5,0.7
2024-12-10T1400,2665A,105.0822,33.3261,陇南市,汉王镇固水子,,,,,,,,,,,,,,,,
2024-12-10T1400,2885A,104.9339,33.3826,陇南市,滨江中学,,46,40,43,32,25,55,,59,59,12,9,5,4,0.8,0.6
2024-12-10T1400,3247A,104.955,33.371,陇南市,市总工会,颗粒物(PM10),55,59,36,22,13,60,,59,59,12,9,1,3,0.6,0.5
2024-12-10T1400,2487A,111.9589,27.8901,娄底市,电视发射台,,12,,44,8,43,29,,66,41,20,20,5,6,0.7,0.6
2024-12-10T1400,2488A,111.9975,27.725,娄底市,市监测站,,,,74,17,59,29,,50,30,17,21,,8,0.9,0.8
2024-12-10T1400,2489A,112.0194,27.7314,娄底市,市委党校,,30,28,75,21,60,26,,47,26,31,31,4,6,0.9,0.8
2024-12-10T1400,2490A,111.9561,27.7569,娄底市,涟钢,,30,23,79,21,59,18,,49,24,30,30,4,3,0.9,1.3
2024-12-10T1400,2491A,111.9892,27.7044,娄底市,市政府,,25,23,75,17,62,26,,49,28,30,32,4,7,0.9,0.8
2024-12-10T1400,1893A,105.4324,28.9634,泸州市,九狮山,,,,,,,,,,,,,,,,
2024-12-10T1400,1894A,105.4427,28.9063,泸州市,小市上码头,细颗粒物(PM2.5),67,69,57,48,40,30,,23,19,22,26,3,3,0.5,0.5
2024-12-10T1400,1895A,105.4241,28.8573,泸州市,兰田宪桥,细颗粒物(PM2.5),69,70,58,50,41,26,,26,20,27,25,3,3,0.6,0.6
2024-12-10T1400,1896A,105.4379,28.8833,泸州市,市环监站,细颗粒物(PM2.5),67,70,55,48,40,19,,22,14,28,26,5,4,0.5,0.4
2024-12-10T1400,3490A,105.3617,28.7703,泸州市,纳溪区环保局,细颗粒物(PM2.5),72,71,56,52,42,17,,20,14,29,26,4,4,0.5,0.5
2024-12-10T1400,2183A,111.1406,37.5211,吕梁市,环保局,颗粒物(PM10),76,102,88,48,35,8,,10,10,41,41,12,10,0.7,0.5
2024-12-10T1400,2185A,111.1297,37.5136,吕梁市,自来水公司,颗粒物(PM10),76,102,104,34,36,10,,9,9,43,41,12,9,0.7,0.6
2024-12-10T1400,2867A,111.1283,37.51,吕梁市,马茂庄小学,颗粒物(PM10),87,123,103,43,35,11,,11,11,46,46,14,12,0.7,0.5
2024-12-10T1400,1812A,112.3931,34.6516,洛阳市,市委党校,细颗粒物(PM2.5),92,96,133,68,93,40,,17,17,39,54,8,11,0.6,1.1
2024-12-10T1400,1814A,112.4657,34.6871,洛阳市,豫西宾馆,细颗粒物(PM2.5),85,107,144,63,92,47,,19,19,38,54,9,11,0.6,0.8
2024-12-10T1400,1815A,112.494,34.6886,洛阳市,河南林校,细颗粒物(PM2.5),115,97,131,87,116,31,,12,12,44,58,7,8,0.6,0.8
2024-12-10T1400,1816A,112.3844,34.623,洛阳市,开发区管委会,细颗粒物(PM2.5),120,122,147,91,113,37,,15,15,44,49,11,12,0.6,0.8
2024-12-10T1400,1817A,112.4267,34.6258,洛阳市,市委新办公区,细颗粒物(PM2.5),122,137,157,92,112,32,,13,13,46,48,10,10,0.7,0.9
2024-12-10T1400,3340A,112.6005,34.6326,洛阳市,伊滨,颗粒物(PM10),114,178,171,82,102,24,,9,9,42,44,11,9,0.8,1
2024-12-10T1400,3341A,112.4951,34.6332,洛阳市,中移产业园,细颗粒物(PM2.5),109,104,126,82,102,31,,14,14,51,56,11,11,0.6,0.7
2024-12-10T1400,3593A,112.5736,34.8993,洛阳市,吉利监测站,细颗粒物(PM2.5),95,106,119,71,101,46,,17,17,28,56,9,7,0.5,0.8
2024-12-10T1400,3635A,112.3677,34.662,洛阳市,河科大西苑校区,细颗粒物(PM2.5),93,96,137,69,94,45,,20,20,38,49,8,12,0.7,0.9
2024-12-10T1400,3636A,112.4388,34.6781,洛阳市,英才小学,细颗粒物(PM2.5),90,98,136,67,93,37,,13,13,39,55,8,10,0.5,0.8
2024-12-10T1400,2399A,114.051,33.5699,漯河市,三五一五工厂,,,85,93,75,70,50,,25,25,,31,8,8,0.4,0.5
2024-12-10T1400,2400A,114.0055,33.5698,漯河市,漯河大学,细颗粒物(PM2.5),89,91,91,66,64,52,,30,30,27,37,7,7,0.4,0.4
2024-12-10T1400,2401A,114.0138,33.5828,漯河市,市水利局,,,90,98,66,66,49,,22,22,25,35,,8,0.7,0.8
2024-12-10T1400,2402A,114.0261,33.5698,漯河市,市广电局,细颗粒物(PM2.5),93,78,89,69,67,51,,29,29,24,33,8,8,0.4,0.5
2024-12-10T1400,3478A,113.9749,33.5664,漯河市,市图书馆,细颗粒物(PM2.5),89,91,91,66,62,50,,30,30,28,38,7,7,0.4,0.4
2024-12-10T1400,3479A,114.0967,33.5906,漯河市,召陵区卫健委,细颗粒物(PM2.5),94,93,108,70,76,50,,23,23,28,46,10,10,0.5,0.5
2024-12-10T1400,1798A,118.5092,31.6837,马鞍山市,湖东路四小,,50,50,68,31,39,48,,36,36,35,46,4,6,0.8,0.9
2024-12-10T1400,1799A,118.5024,31.6449,马鞍山市,开发区,细颗粒物(PM2.5),63,53,71,45,56,49,,36,36,38,49,8,9,1.0,1.1
2024-12-10T1400,1800A,118.5228,31.7231,马鞍山市,慈湖,细颗粒物(PM2.5),57,52,67,40,48,55,,42,42,30,44,7,8,0.8,0.9
2024-12-10T1400,1802A,118.6245,31.7241,马鞍山市,濮塘,细颗粒物(PM2.5),59,50,68,42,50,52,,44,44,28,44,10,11,0.7,1
2024-12-10T1400,3633A,118.4918,31.6809,马鞍山市,雨山,,49,47,70,34,44,48,,34,34,32,43,9,10,0.8,0.9
2024-12-10T1400,1686A,111.0286,21.4688,茂名市,电白南海,,,58,59,19,36,118,,68,68,,23,6,10,0.6,0.8
2024-12-10T1400,1687A,110.9294,21.6533,茂名市,茂石化七小,颗粒物(PM10),51,51,58,29,37,126,,76,76,10,17,8,12,0.7,0.9
2024-12-10T1400,1688A,110.9107,21.6687,茂名市,健康路,,48,48,53,31,35,134,,82,82,12,19,12,18,0.7,0.8
2024-12-10T1400,1689A,110.8592,21.6828,茂名市,高岭,颗粒物(PM10),51,51,64,22,36,126,,70,70,11,25,11,20,0.7,0.9
2024-12-10T1400,3450A,111.01,21.5165,茂名市,电白水东,,39,39,60,17,38,108,,69,69,9,18,8,12,0.9,1
2024-12-10T1400,2539A,104.0308,30.0478,眉山市,黑龙滩水库,,44,44,50,30,29,57,,46,46,11,12,1,1,0.5,0.5
2024-12-10T1400,2540A,103.8416,30.0874,眉山市,气象局,颗粒物(PM10),53,55,47,34,37,49,,35,35,21,26,3,3,0.4,0.4
2024-12-10T1400,3137A,103.8578,30.0744,眉山市,市委党校,,39,39,38,27,30,52,,38,38,22,25,5,5,0.4,0.4
2024-12-10T1400,3148A,103.8291,30.0564,眉山市,区人社局,,45,44,39,31,30,44,,34,32,33,32,4,4,0.4,0.4
2024-12-10T1400,1690A,116.1231,24.3284,梅州市,梅江月梅,,,,32,,21,89,,63,63,7,19,12,8,0.5,0.6
2024-12-10T1400,1691A,116.0797,24.2719,梅州市,梅县新城,,32,32,43,14,24,94,,62,62,9,29,14,6,0.5,0.7
2024-12-10T1400,1692A,116.1248,24.2654,梅州市,环境监控中心,,28,22,44,14,24,89,,62,62,7,28,8,8,0.5,0.7
2024-12-10T1400,3315A,116.1233,24.2991,梅州市,梅龙,,28,9,35,9,20,87,,62,62,7,18,12,7,0.6,0.7
2024-12-10T1400,1878A,104.7778,31.4741,绵阳市,富乐山,,36,33,30,25,26,79,,43,43,10,17,2,2,0.4,0.4
2024-12-10T1400,1879A,104.7563,31.4535,绵阳市,市人大,,34,34,35,19,27,77,,38,38,11,23,3,2,0.4,0.5
2024-12-10T1400,1880A,104.6697,31.4668,绵阳市,高新区自来水公司,,34,34,37,22,25,70,,34,34,11,22,3,3,0.3,0.5
2024-12-10T1400,1881A,104.7287,31.5075,绵阳市,三水厂,,45,34,33,31,29,77,,40,40,10,21,6,5,0.5,0.5
2024-12-10T1400,3491A,104.69,31.5322,绵阳市,西科大附属小学,,38,34,35,26,23,74,,40,40,7,20,4,4,0.5,0.5
2024-12-10T1400,3492A,104.5648,31.5343,绵阳市,安州区旅游局,,,,27,29,33,60,,43,42,,16,,6,0.6,0.5
2024-12-10T1400,1784A,129.61,44.561,牡丹江市,环保大楼,细颗粒物(PM2.5),60,61,73,43,48,39,,26,26,35,47,13,10,0.7,0.8
2024-12-10T1400,1785A,129.6115,44.5782,牡丹江市,文化广场,细颗粒物(PM2.5),77,82,79,56,56,37,,30,30,38,49,13,11,0.8,1
2024-12-10T1400,1786A,129.5904,44.5963,牡丹江市,第一医院,"颗粒物(PM10),细颗粒物(PM2.5)",55,59,82,39,70,36,,24,24,38,48,9,9,0.8,1
2024-12-10T1400,1787A,129.6364,44.6075,牡丹江市,机车工厂,颗粒物(PM10),56,62,92,36,58,39,,21,21,33,49,10,12,0.7,1.1
2024-12-10T1400,1788A,129.6386,44.5462,牡丹江市,第一中学,,,45,63,39,49,,,26,26,28,37,11,7,0.5,0.7
2024-12-10T1400,2531A,105.0703,29.61,内江市,市监测站,细颗粒物(PM2.5),55,45,40,39,38,36,,32,27,14,13,6,6,0.6,0.5
2024-12-10T1400,2532A,105.0717,29.5947,内江市,东兴区政府,细颗粒物(PM2.5),54,49,41,38,31,36,,33,28,18,18,5,5,0.7,0.6
2024-12-10T1400,2533A,105.0653,29.5817,内江市,内江二中,细颗粒物(PM2.5),55,48,49,39,35,32,,29,24,20,20,7,7,0.6,0.5
2024-12-10T1400,2534A,105.0406,29.5822,内江市,内江日报社,细颗粒物(PM2.5),52,37,47,36,31,40,,31,29,16,21,9,9,0.6,0.5
2024-12-10T1400,2628A,92.0657,31.4846,那曲市,那曲监测站,颗粒物(PM10),126,202,71,32,32,122,,50,50,5,23,5,10,0.4,1.2
2024-12-10T1400,3128A,92.0506,31.4797,那曲市,那曲会议中心,颗粒物(PM10),248,383,70,35,19,118,,53,53,2,10,2,5,1.0,1.3
2024-12-10T1400,1290A,115.8931,28.6843,南昌市,省外办,细颗粒物(PM2.5),85,86,74,63,60,17,,17,16,45,44,8,8,0.8,0.7
2024-12-10T1400,1291A,115.8886,28.7003,南昌市,省林业公司,细颗粒物(PM2.5),83,78,74,61,53,21,,17,17,41,45,9,10,0.7,0.7
2024-12-10T1400,1292A,115.8126,28.7442,南昌市,林科所,细颗粒物(PM2.5),83,83,63,61,47,21,,42,34,47,40,7,7,0.8,0.7
2024-12-10T1400,1294A,115.8518,28.687,南昌市,建工学校,颗粒物(PM10),65,80,67,34,43,15,,24,22,50,43,9,10,0.9,0.8
2024-12-10T1400,1295A,115.8921,28.6424,南昌市,象湖,细颗粒物(PM2.5),77,66,59,56,54,28,,31,23,44,44,8,9,0.9,0.7
2024-12-10T1400,1296A,115.7423,28.7996,南昌市,武术学校,细颗粒物(PM2.5),83,74,54,61,42,4,,14,12,42,34,3,3,0.9,0.8
2024-12-10T1400,1298A,115.9314,28.6842,南昌市,省站,细颗粒物(PM2.5),90,105,86,67,54,22,,30,22,47,43,10,11,0.8,0.7
2024-12-10T1400,3046A,115.9084,28.6062,南昌市,机电学校,细颗粒物(PM2.5),89,92,81,66,54,22,,37,23,42,36,10,10,0.9,0.8
2024-12-10T1400,3690A,115.9721,28.7031,南昌市,外国语学校,,,86,75,,42,19,,30,21,,37,9,7,1.0,0.8
2024-12-10T1400,1905A,106.056,30.8064,南充市,西山风景区,,,36,30,35,28,33,,21,21,,11,,2,0.4,1
2024-12-10T1400,1906A,106.0789,30.8023,南充市,南充市委,细颗粒物(PM2.5),62,57,44,44,34,36,,17,17,15,20,4,4,0.4,0.4
2024-12-10T1400,1907A,106.1031,30.8217,南充市,南充炼油厂,细颗粒物(PM2.5),65,52,49,47,38,30,,18,14,19,19,4,4,0.5,0.5
2024-12-10T1400,1908A,106.1064,30.7856,南充市,高坪区监测站,细颗粒物(PM2.5),68,56,47,49,36,35,,19,16,15,20,3,3,0.4,0.4
2024-12-10T1400,1909A,106.0642,30.7636,南充市,嘉陵区环保局,颗粒物(PM10),53,55,50,36,32,31,,19,19,20,23,5,4,0.6,0.5
2024-12-10T1400,1910A,106.1087,30.8388,南充市,市环境监测站,细颗粒物(PM2.5),62,65,54,44,36,34,,16,16,13,14,5,5,0.4,0.4
2024-12-10T1400,1151A,118.8086,32.1065,南京市,迈皋桥,颗粒物(PM10),54,58,56,34,33,34,,35,35,43,46,5,5,0.7,0.5
2024-12-10T1400,1152A,118.7538,32.0551,南京市,草场门,颗粒物(PM10),51,51,58,31,35,32,,27,27,50,58,8,7,0.8,0.6
2024-12-10T1400,1153A,118.7794,32.0745,南京市,山西路,颗粒物(PM10),53,56,62,34,33,59,,52,52,55,66,4,3,0.6,0.5
2024-12-10T1400,1154A,118.7752,32.0023,南京市,中华门,,,,59,,35,34,,28,28,44,53,,5,0.7,0.8
2024-12-10T1400,1155A,118.8109,32.0309,南京市,瑞金路,颗粒物(PM10),53,56,61,27,36,34,,33,33,45,51,8,7,0.9,0.9
2024-12-10T1400,1156A,118.7997,32.0754,南京市,玄武湖,颗粒物(PM10),54,58,66,29,34,28,,20,20,32,26,10,10,0.7,0.6
2024-12-10T1400,1157A,118.6414,32.0931,南京市,浦口,颗粒物(PM10),52,53,60,25,33,42,,30,30,43,45,10,8,0.6,0.5
2024-12-10T1400,1158A,118.7356,31.9996,南京市,奥体中心,颗粒物(PM10),53,56,62,29,36,40,,36,36,54,61,11,11,0.7,0.6
2024-12-10T1400,1159A,118.9125,32.1028,南京市,仙林大学城,颗粒物(PM10),54,58,61,31,35,40,,31,31,45,57,10,9,0.7,0.6
2024-12-10T1400,3422A,118.8436,31.9198,南京市,江宁彩虹桥,颗粒物(PM10),52,54,67,29,34,51,,42,42,35,49,8,9,0.5,0.6
2024-12-10T1400,3423A,119.0138,31.6494,南京市,溧水永阳,细颗粒物(PM2.5),59,51,67,42,51,34,,34,34,45,48,5,4,0.8,0.7
2024-12-10T1400,3424A,118.879,31.3302,南京市,高淳老职中,,,68,71,52,55,27,,17,17,49,49,5,7,,0.9
2024-12-10T1400,3427A,118.8554,32.3578,南京市,六合雄州,,45,45,49,25,31,55,,48,48,20,23,9,8,0.3,0.3
2024-12-10T1400,1401A,108.3103,22.7881,南宁市,二十一中,细颗粒物(PM2.5),104,96,82,78,69,52,,37,37,33,34,6,8,1.1,1.1
2024-12-10T1400,1402A,108.3141,22.8528,南宁市,北湖,细颗粒物(PM2.5),99,91,83,74,63,43,,33,33,41,36,7,10,1.0,0.8
2024-12-10T1400,1403A,108.3206,22.8225,南宁市,市监测站,细颗粒物(PM2.5),95,102,86,71,58,35,,28,28,48,40,10,12,1.2,1.1
2024-12-10T1400,1404A,108.3829,22.8037,南宁市,大自然花园,细颗粒物(PM2.5),103,99,84,77,63,54,,34,34,32,35,8,10,0.8,0.8
2024-12-10T1400,1405A,108.4394,22.7904,南宁市,仙葫,细颗粒物(PM2.5),107,85,74,80,69,58,,34,34,26,29,6,8,1.0,0.9
2024-12-10T1400,1406A,108.2397,22.8467,南宁市,区农职院,,,,80,,52,31,,22,22,41,37,6,10,,0.9
2024-12-10T1400,1407A,108.3275,22.735,南宁市,英华嘉园,细颗粒物(PM2.5),105,109,83,79,69,51,,34,34,30,31,9,11,0.9,0.8
2024-12-10T1400,1408A,108.2257,22.7757,南宁市,沙井镇街道办,细颗粒物(PM2.5),107,100,100,80,65,14,,18,17,63,52,6,10,1.0,0.8
2024-12-10T1400,3401A,108.4834,22.7618,南宁市,红星社区,细颗粒物(PM2.5),99,97,84,74,63,64,,39,39,21,27,11,12,1.1,1
2024-12-10T1400,2331A,118.0966,26.6761,南平市,茫荡山,,,,,,,,,,,,,,,,
2024-12-10T1400,2332A,118.1681,26.6369,南平市,南平市监测站,,38,26,54,26,48,60,,32,32,15,27,5,6,0.5,0.7
2024-12-10T1400,2333A,118.1825,26.6489,南平市,南平铝业有限公司,,37,37,49,24,44,52,,27,27,18,28,5,6,0.5,0.6
2024-12-10T1400,2334A,118.1756,26.6272,南平市,南平七中,,36,36,52,15,42,56,,28,28,14,22,6,6,0.6,0.7
2024-12-10T1400,1168A,120.9098,31.9663,南通市,狼山街道,颗粒物(PM10),52,54,41,34,26,63,,57,54,22,26,8,7,0.8,0.6
2024-12-10T1400,1169A,120.86,32.0005,南通市,虹桥,,49,43,37,34,26,48,,54,47,33,31,7,6,0.6,0.6
2024-12-10T1400,1170A,120.87,32.02,南通市,城中,颗粒物(PM10),51,52,42,24,23,52,,56,52,37,30,8,8,0.7,0.7
2024-12-10T1400,1171A,120.94,31.93,南通市,星湖花园,,47,47,32,22,17,62,,59,59,24,30,6,6,0.6,0.4
2024-12-10T1400,1172A,120.81,32.0417,南通市,紫琅学院,,34,34,38,14,22,58,,49,48,30,36,4,4,0.5,0.6
2024-12-10T1400,3291A,121.067,32.062,南通市,通州监测站,,39,39,32,22,20,75,,71,71,17,17,3,3,0.4,0.5
2024-12-10T1400,3432A,120.9348,31.9883,南通市,环境教育馆,颗粒物(PM10),51,51,39,30,24,58,,51,51,29,34,5,5,0.8,0.7
2024-12-10T1400,2404A,112.5224,33.0122,南阳市,瓦房庄,细颗粒物(PM2.5),98,86,78,73,63,42,,30,30,30,32,10,8,0.8,0.8
2024-12-10T1400,2405A,112.5003,32.9735,南阳市,汉画馆,细颗粒物(PM2.5),83,91,83,61,55,41,,31,31,30,30,8,7,0.7,0.7
2024-12-10T1400,2406A,112.5573,33.027,南阳市,气象站,细颗粒物(PM2.5),92,87,80,68,58,44,,31,31,30,34,7,6,0.6,0.6
2024-12-10T1400,2407A,112.5481,32.9689,南阳市,理工学院,细颗粒物(PM2.5),93,85,78,69,62,38,,27,27,33,36,8,7,0.5,0.5
2024-12-10T1400,4008A,112.5234,32.9922,南阳市,卧龙区政府,,,,82,,59,,,28,26,32,34,8,6,,0.7
2024-12-10T1400,1234A,121.8358,29.911,宁波市,区环保大楼,细颗粒物(PM2.5),68,83,54,49,30,4,,7,5,76,61,13,9,0.9,0.8
2024-12-10T1400,1235A,121.56,29.82,宁波市,万里学院,颗粒物(PM10),56,62,54,38,31,10,,9,9,61,57,6,7,0.6,0.7
2024-12-10T1400,1236A,121.713,29.9572,宁波市,龙赛医院,颗粒物(PM10),65,80,67,45,30,4,,3,3,70,61,10,10,0.8,0.7
2024-12-10T1400,1239A,121.633,29.7733,宁波市,钱湖水厂,颗粒物(PM10),58,66,58,39,33,10,,12,12,63,50,7,6,0.8,0.7
2024-12-10T1400,1240A,121.5856,29.8635,宁波市,太古小学,颗粒物(PM10),58,65,51,33,25,10,,8,8,63,58,9,9,0.8,0.7
2024-12-10T1400,1241A,121.524,29.8674,宁波市,市环境监测中心,颗粒物(PM10),52,54,45,35,25,10,,6,6,62,55,8,8,0.8,0.8
2024-12-10T1400,2871A,121.6147,29.9017,宁波市,万里国际学校,,,56,45,30,24,5,,7,7,,60,8,8,0.8,0.7
2024-12-10T1400,3710A,121.5594,29.8975,宁波市,白沙活动中心,颗粒物(PM10),54,57,46,27,22,11,,9,9,58,52,9,9,0.5,0.5
2024-12-10T1400,2339A,119.5001,26.6946,宁德市,金涵水库,,,,,,,,,,,,,,,,
2024-12-10T1400,2341A,119.5388,26.6612,宁德市,宁德市监测站,,46,36,28,32,27,15,,8,6,3,5,2,3,0.6,0.5
2024-12-10T1400,3209A,119.5231,26.6562,宁德市,宁德一中,细颗粒物(PM2.5),54,55,33,38,31,26,,18,18,31,21,3,3,0.8,0.6
2024-12-10T1400,2618A,98.8601,25.8567,怒江傈僳族自治州,州监测站,,24,24,33,13,17,74,,43,43,8,17,5,5,0.4,0.5
2024-12-10T1400,2619A,98.8546,25.8417,怒江傈僳族自治州,泸水一中,,33,33,32,19,20,62,,28,28,14,22,6,6,0.4,0.5
2024-12-10T1400,1888A,101.6891,26.571,攀枝花市,弄弄坪,,44,44,91,27,46,75,,30,30,26,42,25,70,1.7,3.4
2024-12-10T1400,1889A,101.5769,26.5928,攀枝花市,河门口,,39,39,44,16,16,85,,47,47,22,35,14,13,1.3,1.2
2024-12-10T1400,1890A,101.7169,26.585,攀枝花市,炳草岗,,50,50,55,20,27,88,,30,30,24,42,24,29,1.4,2.1
2024-12-10T1400,1891A,101.7369,26.5008,攀枝花市,仁和,,30,24,38,15,23,95,,38,38,7,31,5,15,0.3,1.4
2024-12-10T1400,2835A,101.7227,26.567,攀枝花市,四十中小,颗粒物(PM10),65,80,53,35,26,85,,36,36,21,30,11,25,1.2,2.4
2024-12-10T1400,1604A,122.0303,41.1489,盘锦市,开发区,,22,22,57,9,48,63,,54,54,9,40,7,12,0.8,1.3
2024-12-10T1400,1605A,122.0485,41.0883,盘锦市,兴隆台,,23,23,48,6,38,63,,57,57,11,43,10,13,0.5,1
2024-12-10T1400,1606A,121.8297,41.1028,盘锦市,新生街道,,22,22,50,13,44,66,,42,42,12,46,10,16,0.5,0.9
2024-12-10T1400,1832A,113.3257,33.742,平顶山市,新华旅馆,细颗粒物(PM2.5),90,95,114,67,64,46,,21,21,26,40,9,9,0.7,0.7
2024-12-10T1400,1833A,113.2919,33.737,平顶山市,规划设计院,细颗粒物(PM2.5),103,114,100,77,67,54,,32,32,22,30,8,8,0.7,0.7
2024-12-10T1400,1834A,113.182,33.774,平顶山市,平顶山工学院,细颗粒物(PM2.5),104,143,127,78,70,42,,16,16,25,38,10,9,0.9,0.9
2024-12-10T1400,3204A,113.3025,33.73,平顶山市,规划局,细颗粒物(PM2.5),92,92,96,68,69,50,,31,31,21,29,9,9,0.9,0.9
2024-12-10T1400,3594A,112.8867,33.9116,平顶山市,石龙区,细颗粒物(PM2.5),112,117,143,84,95,41,,20,20,27,41,20,12,0.7,0.7
2024-12-10T1400,2656A,106.6692,35.5461,平凉市,聚贤嘉苑,细颗粒物(PM2.5),110,110,70,83,52,46,,37,37,26,37,8,11,0.9,0.6
2024-12-10T1400,2657A,106.7021,35.5307,平凉市,博物馆,细颗粒物(PM2.5),67,54,69,48,50,66,,56,56,27,35,11,13,0.7,0.6
2024-12-10T1400,2347A,114.0997,27.5002,萍乡市,武功山,细颗粒物(PM2.5),77,73,69,56,49,40,,27,27,26,28,13,12,0.4,0.4
2024-12-10T1400,2348A,113.8385,27.6434,萍乡市,中医院,细颗粒物(PM2.5),79,99,85,58,54,48,,42,42,29,30,12,16,0.9,0.8
2024-12-10T1400,2349A,113.8493,27.6253,萍乡市,市政府车库,细颗粒物(PM2.5),98,83,77,73,59,50,,44,44,24,26,16,20,1.0,0.9
2024-12-10T1400,2350A,113.8676,27.6435,萍乡市,市环保局,,,91,85,68,60,,,43,42,21,23,13,19,0.9,0.8
2024-12-10T1400,2351A,113.866,27.6198,萍乡市,安源区政府,,,,86,,57,,,40,40,,30,16,18,1.1,1.1
2024-12-10T1400,2319A,119.0141,25.4325,莆田市,荔城区仓后路,,34,34,26,10,9,92,,66,66,8,11,1,1,0.5,0.5
2024-12-10T1400,2320A,119.0015,25.4553,莆田市,莆田市监测站,,39,39,23,6,7,90,,71,71,7,10,3,3,0.4,0.4
2024-12-10T1400,2321A,119.1119,25.4561,莆田市,涵江区六中,,34,34,33,7,11,86,,61,61,6,14,2,2,0.4,0.4
2024-12-10T1400,2322A,119.1013,25.3215,莆田市,秀屿区政府,,31,31,29,8,12,86,,60,60,12,18,1,1,0.5,0.5
2024-12-10T1400,2323A,118.981,25.4792,莆田市,东圳水库,,,,,,,,,,,,,,,,
2024-12-10T1400,2392A,115.0312,35.7636,濮阳市,环保局,细颗粒物(PM2.5),102,104,76,76,63,59,,34,34,40,50,10,9,0.5,0.8
2024-12-10T1400,2394A,115.0574,35.7609,濮阳市,油田运输公司,细颗粒物(PM2.5),104,106,94,78,66,48,,26,26,44,47,11,11,0.6,0.6
2024-12-10T1400,2395A,115.0866,35.7754,濮阳市,油田物探公司,细颗粒物(PM2.5),95,98,102,71,73,51,,26,26,33,46,12,8,0.4,0.6
2024-12-10T1400,3021A,115,35.7668,濮阳市,濮水河管理处,细颗粒物(PM2.5),99,116,99,74,62,39,,16,16,42,43,9,6,0.6,0.6
2024-12-10T1400,2601A,100.98,22.7633,普洱市,市环保局,,40,29,33,28,15,72,,33,33,5,9,6,5,0.4,0.5
2024-12-10T1400,2602A,100.9817,22.8322,普洱市,普洱第二中学,,32,32,31,9,13,74,,29,29,5,15,7,7,0.5,0.6
2024-12-10T1400,2262A,131.0518,45.8751,七台河市,新一中,,42,39,46,29,36,75,,62,62,14,26,13,13,1.5,1.6
2024-12-10T1400,3345A,131.0577,45.7879,七台河市,中波台,,45,45,53,30,39,56,,41,41,17,50,10,15,0.6,0.9
2024-12-10T1400,3637A,131.0176,45.7761,七台河市,人民广场,,46,46,57,32,41,58,,43,43,20,48,8,10,0.6,0.8
2024-12-10T1400,3684A,130.8781,45.8222,七台河市,新建矿广场,颗粒物(PM10),58,66,62,22,43,58,,40,40,16,50,8,11,0.4,0.8
2024-12-10T1400,1779A,123.9305,47.3636,齐齐哈尔市,安居小区,,34,34,72,9,63,61,,56,56,10,33,4,4,0.3,0.6
2024-12-10T1400,1780A,123.9488,47.3386,齐齐哈尔市,中心广场,,17,14,70,9,56,54,,52,52,11,33,4,4,0.4,0.8
2024-12-10T1400,1781A,123.9483,47.3227,齐齐哈尔市,农牧车辆厂,,18,17,64,8,54,56,,53,53,15,35,7,8,0.3,0.6
2024-12-10T1400,1783A,123.945,47.2988,齐齐哈尔市,市环境监测站,,19,12,82,12,69,59,,52,52,11,43,5,3,0.3,0.7
2024-12-10T1400,3662A,123.6333,47.2075,齐齐哈尔市,富区青少年活动中心,,20,16,74,14,53,50,,46,46,14,29,10,11,0.5,0.8
2024-12-10T1400,2591A,107.9783,26.5747,黔东南苗族侗族自治州,市环境监测站,,13,12,16,9,14,37,,33,33,15,17,3,3,0.8,0.8
2024-12-10T1400,2881A,107.8908,26.5311,黔东南苗族侗族自治州,凯里学院,,12,,5,6,10,37,,36,36,10,13,2,3,0.7,0.7
2024-12-10T1400,2593A,107.5228,26.2403,黔南布依族苗族自治州,小围寨,,11,6,2,3,2,34,,28,28,8,9,6,4,0.6,0.6
2024-12-10T1400,3538A,107.5175,26.2978,黔南布依族苗族自治州,沙坝,,11,9,5,3,3,35,,29,29,9,10,5,4,0.6,0.6
2024-12-10T1400,2589A,104.9022,25.0925,黔西南布依族苗族自治州,场坝街,,13,12,20,6,9,41,,23,23,4,8,2,2,0.3,0.4
2024-12-10T1400,2590A,104.8811,25.0992,黔西南布依族苗族自治州,坪东大道,,16,16,18,6,10,39,,20,20,5,8,3,3,0.3,0.4
2024-12-10T1400,2502A,108.6236,21.9667,钦州市,市环保站,颗粒物(PM10),57,63,117,31,61,81,,38,38,22,37,12,13,0.8,1.3
2024-12-10T1400,2503A,108.6549,21.9481,钦州市,沙埠小学,细颗粒物(PM2.5),65,64,107,47,77,95,,44,44,21,43,13,17,0.7,1.1
2024-12-10T1400,2504A,108.5989,21.7431,钦州市,港区一小,"颗粒物(PM10),细颗粒物(PM2.5)",58,65,105,41,59,97,,42,42,20,39,9,12,0.9,1.1
2024-12-10T1400,3404A,108.5959,21.9633,钦州市,北职校,细颗粒物(PM2.5),65,68,100,47,72,85,,38,38,22,31,14,19,0.9,1
2024-12-10T1400,1042A,119.5134,39.8207,秦皇岛市,北戴河环保局,,21,19,46,8,27,67,,40,40,9,46,4,4,0.2,0.8
2024-12-10T1400,1043A,119.7493,40.0116,秦皇岛市,第一关,,43,41,50,30,37,59,,29,29,18,62,10,8,0.5,0.6
2024-12-10T1400,1044A,119.5897,39.9499,秦皇岛市,监测站,,41,41,49,20,28,51,,31,31,24,46,10,7,0.6,0.7
2024-12-10T1400,1046A,119.5251,39.9041,秦皇岛市,建设大厦,,,42,58,20,32,52,,29,29,,46,,5,0.4,0.7
2024-12-10T1400,3132A,119.610547,39.943889,秦皇岛市,文明里,颗粒物(PM10),53,55,63,28,32,54,,33,33,23,52,11,8,0.3,0.6
2024-12-10T1400,1307A,120.6659,36.2403,青岛市,仰口,细颗粒物(PM2.5),105,99,71,79,59,68,,60,59,27,17,15,13,0.6,0.6
2024-12-10T1400,1310A,120.4134,36.0658,青岛市,市南区东部子站,细颗粒物(PM2.5),94,127,110,70,63,54,,38,38,53,62,18,16,0.9,1
2024-12-10T1400,1311A,120.3664,36.1032,青岛市,四方区子站,细颗粒物(PM2.5),125,136,104,95,73,57,,34,34,56,71,22,19,1.0,1.1
2024-12-10T1400,1312A,120.2994,36.054,青岛市,市南区西部子站,细颗粒物(PM2.5),102,117,99,76,63,66,,42,42,42,57,20,16,1.0,1.1
2024-12-10T1400,1313A,120.4581,36.0858,青岛市,崂山区子站,细颗粒物(PM2.5),79,100,91,58,58,61,,43,43,51,52,18,16,1.0,1
2024-12-10T1400,1314A,120.1983,35.9608,青岛市,黄岛区子站,细颗粒物(PM2.5),108,114,114,81,70,52,,27,27,61,73,19,17,0.9,1
2024-12-10T1400,1315A,120.3999,36.3083,青岛市,城阳区子站,细颗粒物(PM2.5),95,112,134,71,74,63,,28,28,26,57,18,18,1.1,1.6
2024-12-10T1400,1966A,120.0405,35.8735,青岛市,黄岛区4号,细颗粒物(PM2.5),83,90,93,61,57,78,,46,46,48,56,16,14,1.0,0.9
2024-12-10T1400,3362A,120.5014,36.4034,青岛市,即墨2号,细颗粒物(PM2.5),105,100,132,79,92,54,,35,35,40,69,15,22,1.0,1.3
2024-12-10T1400,3642A,120.3503,36.0736,青岛市,市北区南部,细颗粒物(PM2.5),110,152,101,83,63,47,,30,30,,69,19,17,0.9,1.1
2024-12-10T1400,3643A,120.3948,36.1805,青岛市,李沧区北部,细颗粒物(PM2.5),107,124,106,80,73,61,,40,40,,57,22,19,1.0,1.1
2024-12-10T1400,1702A,113.0426,23.691,清远市,环保大楼,,45,41,78,31,50,72,,42,42,13,28,8,8,1.0,1
2024-12-10T1400,1703A,113.0208,23.7106,清远市,凤城街办,,50,45,60,35,45,74,,44,40,16,30,12,12,1.0,1.1
2024-12-10T1400,3025A,113.0477,23.6344,清远市,技师学院,,46,46,72,29,43,60,,32,32,22,43,11,12,1.0,0.9
2024-12-10T1400,3318A,112.9903,23.7403,清远市,清新太和,细颗粒物(PM2.5),69,84,60,50,40,64,,40,27,32,29,12,9,1.1,1
2024-12-10T1400,3455A,113.076,23.7198,清远市,清城东城,,40,35,51,28,35,71,,45,45,11,19,10,8,1.0,1
2024-12-10T1400,2661A,107.6325,35.7357,庆阳市,庆阳五中,,48,48,64,28,49,60,,48,48,22,22,17,8,0.6,0.7
2024-12-10T1400,2662A,107.6364,35.7067,庆阳市,市环保局,,44,44,66,23,42,68,,45,45,15,26,5,12,0.7,0.8
2024-12-10T1400,1916A,103.7897,25.5035,曲靖市,环境监测站,,29,21,19,13,7,91,,66,66,6,11,7,6,0.3,0.4
2024-12-10T1400,1917A,103.8,25.5364,曲靖市,烟厂办公区,,29,25,20,10,10,91,,67,67,5,9,3,4,0.3,0.3
2024-12-10T1400,3376A,103.7947,25.462,曲靖市,南苑二区,,,,13,,6,97,,70,70,,5,4,4,0.5,0.5
2024-12-10T1400,3377A,103.7444,25.5261,曲靖市,曲靖师范学院,,32,,24,15,14,102,,76,76,5,16,9,12,0.4,0.4
2024-12-10T1400,1264A,118.8692,28.9398,衢州市,环保大楼,细颗粒物(PM2.5),84,79,68,62,46,38,,23,23,38,45,6,5,0.7,0.7
