timepoint,stationcode,longitude,latitude,area,positionname,primarypollutant,aqi,pm10,pm10_24h,pm2_5,pm2_5_24h,o3,o3_24h,o3_8h,o3_8h_24h,no2,no2_24h,so2,so2_24h,co,co_24h
2026-05-11T1300,2568A,102.2503,31.8896,阿坝藏族羌族自治州,马师校,NA,NA,9,25,8,9,NA,NA,NA,NA,4,6,6,6,0.3,0.3
2026-05-11T1300,3994A,102.2174,31.9016,阿坝藏族羌族自治州,马尔康中学西区,,25,NA,15,9,9,80,80,40,40,5,6,5,5,0.3,0.3
2026-05-11T1300,2695A,80.2899,41.1684,阿克苏地区,电视台,颗粒物(PM10),96,114,136,30,51,89,89,58,58,12,23,4,5,0.5,0.7
2026-05-11T1300,2696A,80.2592,41.1541,阿克苏地区,艺术中心,颗粒物(PM10),126,187,132,55,66,89,89,55,55,16,36,4,5,0.5,0.7
2026-05-11T1300,2205A,105.699,38.8409,阿拉善盟,蒙二幼,颗粒物(PM10),78,89,57,21,14,132,132,113,113,7,6,12,10,0.2,0.1
2026-05-11T1300,2206A,105.7198,38.8508,阿拉善盟,环保局新楼,颗粒物(PM10),75,84,53,33,22,123,123,110,110,4,3,10,9,0.4,0.3
2026-05-11T1300,2708A,88.1266,47.8515,阿勒泰地区,市站,,21,17,29,7,7,66,66,61,60,10,12,6,6,0.5,0.5
2026-05-11T1300,4166A,88.1198,47.7931,阿勒泰地区,阿勒泰路33号,,23,17,30,6,10,73,73,77,73,6,8,5,6,0.2,0.2
2026-05-11T1300,2630A,80.1171,32.4999,阿里地区,阿里监测站,,35,21,23,12,8,109,109,91,83,3,7,7,7,0.3,0.3
2026-05-11T1300,3192A,80.0906,32.5029,阿里地区,阿里藏医院,,35,16,19,3,6,111,111,81,79,2,6,5,7,0.3,0.3
2026-05-11T1300,2644A,109.0088,32.6974,安康市,汉滨区检察院,颗粒物(PM10),52,52,45,27,24,105,105,42,42,11,12,6,7,0.4,0.4
2026-05-11T1300,4054A,109.0324,32.6913,安康市,市邮政管理局,颗粒物(PM10),60,63,54,36,30,123,123,48,48,8,14,6,7,0.5,0.5
2026-05-11T1300,2291A,117.0806,30.5181,安庆市,环科院,,39,37,35,18,26,122,122,81,81,3,21,8,7,0.5,0.5
2026-05-11T1300,2292A,117.0331,30.5118,安庆市,马山宾馆,,39,35,32,22,27,122,122,71,71,8,26,6,5,0.7,0.6
2026-05-11T1300,2294A,116.9897,30.6146,安庆市,安庆大学,,41,41,36,20,22,126,126,85,85,6,12,6,5,0.4,0.4
2026-05-11T1300,3173A,117.0598,30.5351,安庆市,市人大,,40,38,34,20,25,125,125,81,81,6,16,6,6,0.4,0.5
2026-05-11T1300,3123A,105.9408,26.2431,安顺市,凤凰山,细颗粒物(PM2.5),52,39,51,36,42,79,79,51,51,22,27,24,11,0.8,0.7
2026-05-11T1300,3124A,105.9443,26.2567,安顺市,金钟山,NA,NA,39,54,38,41,74,74,49,49,NA,15,22,12,0.7,0.7
2026-05-11T1300,3125A,105.8983,26.248,安顺市,娄家坡,,42,42,49,29,37,69,69,49,49,14,13,25,15,0.7,0.6
2026-05-11T1300,1819A,114.3552,36.1017,安阳市,红庙街,颗粒物(PM10),74,83,67,34,31,175,175,106,106,11,15,7,6,0.4,0.5
2026-05-11T1300,1820A,114.361,36.0681,安阳市,银杏小区,臭氧1小时(O3_1h),74,67,64,30,27,179,179,111,111,9,13,8,8,0.4,0.5
2026-05-11T1300,3141A,114.3921,36.0879,安阳市,信访局,臭氧1小时(O3_1h),78,83,62,41,35,182,182,115,115,4,8,5,4,0.6,0.7
2026-05-11T1300,3669A,114.4706,36.0634,安阳市,左辅环卫站,颗粒物(PM10),95,112,76,41,34,178,178,109,109,11,12,4,3,0.6,0.6
2026-05-11T1300,4117A,114.2918,36.0769,安阳市,钢三路198号,颗粒物(PM10),78,88,68,34,44,171,171,92,92,8,13,4,5,0.6,0.7
2026-05-11T1300,1748A,123.0441,41.1201,鞍山市,深沟寺,,37,23,33,9,15,116,116,109,109,9,9,8,8,0.6,0.6
2026-05-11T1300,1749A,123.011,41.0931,鞍山市,太阳城,,43,23,34,13,17,135,135,115,115,6,7,8,8,0.7,0.6
2026-05-11T1300,1750A,123.0483,41.1445,鞍山市,太平,,36,23,45,11,17,115,115,105,105,8,10,8,7,0.5,0.5
2026-05-11T1300,1751A,122.964,41.0968,鞍山市,铁西三道街,,43,36,44,18,21,135,135,114,114,11,12,7,6,0.8,0.6
2026-05-11T1300,1753A,123.0219,41.0822,鞍山市,明达新区,,42,22,32,15,17,132,132,113,113,8,9,8,8,0.5,0.5
2026-05-11T1300,4201A,122.944647,41.082639,鞍山市,兴盛南路290号,,42,33,45,18,20,134,134,118,118,13,12,10,8,0.6,0.6
2026-05-11T1300,2195A,107.4206,40.7609,巴彦淖尔市,附二中,,48,48,69,27,26,128,128,81,81,6,13,12,14,0.5,0.5
2026-05-11T1300,2196A,107.37,40.7372,巴彦淖尔市,市环保大楼,颗粒物(PM10),51,51,58,9,19,136,136,87,87,6,11,12,9,0.6,0.6
2026-05-11T1300,1956A,86.1476,41.7529,巴音郭楞蒙古自治州,孔雀公园,颗粒物(PM10),110,146,172,65,68,92,92,36,36,12,39,9,5,0.1,0.1
2026-05-11T1300,1957A,86.1971,41.7166,巴音郭楞蒙古自治州,棉纺厂,颗粒物(PM10),128,191,203,57,77,89,89,33,33,10,37,/,/,/,/
2026-05-11T1300,1958A,86.236,41.7172,巴音郭楞蒙古自治州,经济开发区,NA,NA,NA,160,NA,63,93,93,53,53,6,11,12,10,0.2,0.2
2026-05-11T1300,3181A,106.776805,31.852614,巴中市,市五中,细颗粒物(PM2.5),64,50,63,42,52,142,142,61,61,10,18,7,6,0.7,0.8
2026-05-11T1300,3183A,106.7419,31.8654,巴中市,圣泉水务公司,细颗粒物(PM2.5),70,54,64,45,48,132,132,65,65,11,23,8,7,0.8,0.8
2026-05-11T1300,3616A,106.7617,31.8343,巴中市,市中心医院,细颗粒物(PM2.5),66,52,75,43,56,146,146,57,57,9,24,8,6,0.6,0.7
2026-05-11T1300,2235A,122.7909,45.608,白城市,洮北区环保局,,40,40,64,17,41,117,117,88,88,7,12,5,5,0.4,0.2
2026-05-11T1300,2236A,122.8741,45.5725,白城市,市环保局,,39,39,64,16,33,115,115,86,86,13,17,4,4,0.1,0.2
2026-05-11T1300,2231A,126.4219,41.9172,白山市,喜丰,,47,40,35,18,13,149,149,92,92,8,14,14,13,0.7,0.7
2026-05-11T1300,2232A,126.4082,41.9416,白山市,环保局,,44,33,25,19,12,139,139,102,102,9,9,9,11,0.8,0.7
2026-05-11T1300,2647A,104.1727,36.5448,白银市,第三小学,颗粒物(PM10),69,76,98,30,42,109,109,72,72,5,17,14,19,0.4,0.7
2026-05-11T1300,2648A,104.1467,36.5482,白银市,动力公司,颗粒物(PM10),63,67,90,23,39,111,111,70,70,5,16,12,14,0.3,0.5
2026-05-11T1300,2512A,106.6102,23.901,百色市,市监测站,,25,25,26,10,17,35,35,26,26,16,11,8,7,0.8,0.6
2026-05-11T1300,2513A,106.6524,23.8842,百色市,市中心血站,,36,34,35,25,30,26,26,20,20,21,16,10,10,0.7,0.6
2026-05-11T1300,4133A,106.6273,23.8798,百色市,龙景西路,,32,24,37,22,24,31,31,17,17,15,14,12,10,0.6,0.4
2026-05-11T1300,2270A,117.396,32.9389,蚌埠市,工人疗养院,,44,41,54,13,28,139,139,100,100,9,15,4,6,0.3,0.5
2026-05-11T1300,2271A,117.3606,32.9428,蚌埠市,百货大楼,,44,38,49,12,27,140,140,104,104,8,14,7,7,0.4,0.5
2026-05-11T1300,2273A,117.4183,32.8909,蚌埠市,蚌埠学院,,43,41,45,12,26,136,136,94,94,5,11,5,5,0.4,0.5
2026-05-11T1300,2274A,117.3534,32.9672,蚌埠市,淮上区政府,,46,39,49,12,29,146,146,107,107,9,16,6,6,0.4,0.4
2026-05-11T1300,2275A,117.3143,32.8977,蚌埠市,高新区,,44,41,54,12,32,139,139,94,94,8,17,8,9,0.6,0.7
2026-05-11T1300,3715A,117.3091,32.9314,蚌埠市,蚌埠田家炳中学,,46,41,55,12,28,147,147,104,104,7,16,8,13,0.4,0.5
2026-05-11T1300,1585A,109.8761,40.6533,包头市,市环境监测站,颗粒物(PM10),66,72,67,11,22,148,148,86,86,9,32,9,11,0.4,0.5
2026-05-11T1300,1587A,109.9992,40.5843,包头市,包头八中,,42,38,66,20,32,132,132,70,70,9,34,11,18,0.5,0.9
2026-05-11T1300,1589A,109.8641,40.6288,包头市,惠龙物流,,44,31,46,10,20,138,138,81,81,7,25,8,12,0.4,0.6
2026-05-11T1300,1590A,110.0376,40.5546,包头市,东河鸿龙湾,,43,42,57,17,29,136,136,72,72,8,26,14,20,0.4,0.6
2026-05-11T1300,3283A,109.9154,40.5684,包头市,滨河大厦,,44,38,47,16,25,138,138,76,76,11,35,8,13,0.5,0.7
2026-05-11T1300,3419A,109.9449,40.6259,包头市,包头市委党校,,44,NA,41,24,21,140,140,77,77,9,30,9,13,0.5,0.8
2026-05-11T1300,3683A,109.8332,40.6577,包头市,昆区政府,,44,43,51,18,26,139,139,76,76,9,36,5,7,0.4,0.6
2026-05-11T1300,1931A,107.0802,34.3129,宝鸡市,竹园沟,,39,39,53,21,22,110,110,102,100,5,6,8,8,0.2,0.2
2026-05-11T1300,1933A,107.1429,34.3549,宝鸡市,监测站,,35,35,39,16,17,106,106,86,86,6,9,5,6,0.4,0.4
2026-05-11T1300,1934A,107.1172,34.3759,宝鸡市,技工学校,颗粒物(PM10),63,68,48,17,19,114,114,95,95,11,13,4,4,0.3,0.4
2026-05-11T1300,1936A,107.2025,34.3518,宝鸡市,文理学院,,40,40,53,17,22,111,111,79,79,8,18,6,6,0.4,0.4
2026-05-11T1300,1937A,107.2396,34.3626,宝鸡市,三迪小学,颗粒物(PM10),64,69,59,22,32,118,118,71,71,10,28,5,6,0.4,0.5
2026-05-11T1300,4155A,107.1721,34.3558,宝鸡市,滨河北路,,35,35,50,12,17,104,104,78,78,5,12,7,7,0.4,0.4
2026-05-11T1300,4308A,107.3898,34.3601,宝鸡市,陈仓区北开路21号,,49,49,63,22,27,109,109,72,72,7,22,9,18,0.5,0.4
2026-05-11T1300,1051A,115.4803,38.8568,保定市,游泳馆,臭氧1小时(O3_1h),89,51,50,28,24,191,191,128,128,9,13,9,8,0.4,0.4
2026-05-11T1300,1052A,115.509,38.8895,保定市,华电二区,臭氧1小时(O3_1h),90,51,45,36,25,192,192,124,124,10,17,5,4,0.6,0.5
2026-05-11T1300,1053A,115.4588,38.9037,保定市,接待中心,臭氧1小时(O3_1h),74,59,54,31,25,179,179,121,121,8,14,4,9,0.7,0.5
2026-05-11T1300,1054A,115.4484,38.8344,保定市,地表水厂,臭氧1小时(O3_1h),94,72,75,30,23,195,195,128,128,10,16,4,3,0.4,0.3
2026-05-11T1300,3581A,115.3136,38.9511,保定市,满城区生态环境分局,臭氧1小时(O3_1h),98,41,45,21,19,198,198,137,137,7,12,7,4,0.4,0.2
2026-05-11T1300,3582A,115.4709,38.7628,保定市,清苑区第二中学,颗粒物(PM10),71,79,85,25,19,168,168,105,105,15,21,8,8,0.4,0.3
2026-05-11T1300,3583A,115.6231,39.0223,保定市,徐水物探局,臭氧1小时(O3_1h),95,85,67,44,28,196,196,132,132,11,18,5,3,0.7,0.5
2026-05-11T1300,4004A,115.4199,38.8665,保定市,双鹰农机,臭氧1小时(O3_1h),102,71,63,45,29,204,204,138,138,8,13,4,3,0.4,0.3
2026-05-11T1300,4034A,115.515,38.8589,保定市,植保所站,臭氧1小时(O3_1h),92,63,69,28,21,193,193,125,125,12,15,1,3,0.4,0.3
2026-05-11T1300,2594A,99.1589,25.1137,保山市,市环境监测站,,29,17,20,9,12,92,92,65,65,8,7,6,6,0.4,0.3
2026-05-11T1300,2595A,99.1616,25.1381,保山市,市环保局,,30,19,20,10,16,93,93,67,67,7,5,6,6,0.3,0.3
2026-05-11T1300,1867A,109.1435,21.4085,北海市,海滩公园,,30,30,26,18,25,73,73,48,48,4,10,7,7,0.7,0.8
2026-05-11T1300,1868A,109.0983,21.466,北海市,新市环保局,,28,22,23,18,24,87,87,64,64,8,12,2,8,0.4,0.8
2026-05-11T1300,1869A,109.1775,21.5232,北海市,北海工业园,,24,16,28,14,21,74,74,51,51,3,11,6,9,0.7,0.8
2026-05-11T1300,3400A,109.1844,21.4396,北海市,龙潭自来水厂,,22,14,23,3,15,68,68,38,38,5,10,10,10,0.7,0.9
2026-05-11T1300,1001A,116.3611,39.8786,北京市,万寿西宫,臭氧1小时(O3_1h),97,50,42,25,18,197,197,137,137,13,18,7,6,0.6,0.5
2026-05-11T1300,1003A,116.4174,39.9289,北京市,东四,臭氧1小时(O3_1h),89,30,42,21,19,191,191,136,136,13,18,7,6,0.6,0.3
2026-05-11T1300,1004A,116.4073,39.8858,北京市,天坛,臭氧1小时(O3_1h),84,48,40,17,17,187,187,128,128,16,21,8,6,0.5,0.4
2026-05-11T1300,1005A,116.4622,39.9364,北京市,农展馆,臭氧1小时(O3_1h),79,47,34,20,15,183,183,122,122,11,16,7,5,0.6,0.5
2026-05-11T1300,1006A,116.3399,39.9293,北京市,官园,颗粒物(PM10),60,64,42,35,19,166,166,124,124,16,20,3,4,0.5,0.4
2026-05-11T1300,1007A,116.2879,39.9613,北京市,海淀万柳,颗粒物(PM10),53,53,39,21,15,158,158,98,98,14,30,8,6,0.5,0.4
2026-05-11T1300,1008A,116.6635,40.1349,北京市,顺义新城,臭氧1小时(O3_1h),73,60,37,25,12,178,178,106,106,9,19,5,3,0.6,0.5
2026-05-11T1300,1009A,116.6275,40.327,北京市,怀柔镇,臭氧1小时(O3_1h),59,49,31,15,11,167,167,120,120,9,8,5,4,0.5,0.5
2026-05-11T1300,1010A,116.2295,40.217,北京市,昌平镇,NA,NA,47,27,17,10,173,173,121,121,9,19,6,4,NA,0.3
2026-05-11T1300,1011A,116.3968,39.982,北京市,奥体中心,,49,42,37,16,14,155,155,103,103,16,27,6,5,0.5,0.4
2026-05-11T1300,3418A,116.8336,40.4095,北京市,密云新城,,50,44,35,16,12,157,157,100,100,8,13,5,5,0.4,0.3
2026-05-11T1300,3671A,116.0879,39.9725,北京市,门头沟三家店,臭氧1小时(O3_1h),77,61,21,27,7,181,181,105,105,14,21,6,4,0.6,0.3
2026-05-11T1300,3672A,116.1507,39.8246,北京市,丰台云岗,臭氧1小时(O3_1h),98,73,45,39,15,198,198,132,132,16,21,7,4,0.7,0.5
2026-05-11T1300,3674A,115.9578,39.7602,北京市,房山燕山,臭氧1小时(O3_1h),75,75,36,34,14,180,180,115,115,12,16,8,5,0.6,0.3
2026-05-11T1300,3675A,116.4669,39.7734,北京市,大兴旧宫,臭氧1小时(O3_1h),84,42,49,24,25,187,187,138,138,9,17,4,3,0.6,0.6
2026-05-11T1300,3694A,115.9859,40.4562,北京市,延庆石河营,,33,11,14,3,5,103,103,51,51,10,25,2,2,0.4,0.4
2026-05-11T1300,3695A,116.6151,40.3052,北京市,怀柔新城,臭氧1小时(O3_1h),53,43,29,9,11,162,162,118,118,10,11,6,5,0.6,0.5
2026-05-11T1300,3696A,116.2542,39.8764,北京市,丰台小屯,臭氧1小时(O3_1h),63,56,42,24,30,170,170,122,122,10,17,6,4,0.6,0.5
2026-05-11T1300,3697A,116.8399,40.3843,北京市,密云镇,臭氧1小时(O3_1h),59,34,35,21,14,167,167,164,164,10,25,11,9,0.5,0.4
2026-05-11T1300,4057A,115.9423,40.4431,北京市,延庆百泉,,34,12,13,3,5,108,108,55,55,6,17,3,2,0.4,0.4
2026-05-11T1300,4058A,116.6598,39.9164,北京市,通州新华,臭氧1小时(O3_1h),64,58,53,27,20,171,171,115,115,7,16,6,6,0.7,0.7
2026-05-11T1300,4182A,116.1942,39.9158,北京市,石景山八角,臭氧1小时(O3_1h),82,47,32,28,20,185,185,136,136,15,21,11,7,0.6,0.4
2026-05-11T1300,4194A,117.078628,40.151726,北京市,平谷新城,臭氧1小时(O3_1h),69,62,40,29,17,175,175,117,117,10,10,7,4,0.8,0.6
2026-05-11T1300,1761A,123.8274146,41.31234549,本溪市,大峪,,34,26,33,13,14,108,108,90,90,10,8,7,6,0.6,0.4
2026-05-11T1300,1763A,123.7169,41.3094,本溪市,彩屯,,35,27,37,18,18,111,111,98,98,14,22,8,17,1.9,2.5
2026-05-11T1300,1764A,123.7672166,41.28649327,本溪市,东明,,35,35,36,10,11,106,106,107,100,8,8,7,7,0.6,0.6
2026-05-11T1300,1765A,123.799345,41.266614,本溪市,新立屯,颗粒物(PM10),72,80,38,14,13,117,117,121,111,4,5,8,8,0.4,0.4
2026-05-11T1300,1766A,123.829144,41.336777,本溪市,威宁,,34,28,34,14,15,108,108,83,83,13,12,10,7,1.1,0.6
2026-05-11T1300,2587A,105.287,27.3133,毕节市,八中,,29,22,22,20,13,83,83,36,36,12,13,14,13,0.6,0.5
2026-05-11T1300,2588A,105.3079,27.2987,毕节市,师专,,29,29,30,14,16,77,77,29,29,11,17,14,13,0.5,0.5
2026-05-11T1300,4263A,105.3688,27.3598,毕节市,工业大道,,35,22,34,10,17,110,110,37,37,3,18,12,16,/,/
2026-05-11T1300,1629A,117.9961,37.3604,滨州市,第二水厂,NA,NA,70,80,NA,48,166,166,108,108,10,21,10,10,0.8,0.8
2026-05-11T1300,1630A,117.9789,37.3931,滨州市,北中新校,臭氧1小时(O3_1h),80,53,71,18,36,184,184,122,122,12,25,14,13,0.3,0.4
2026-05-11T1300,3514A,117.9379,37.3959,滨州市,中海酒店,臭氧1小时(O3_1h),85,48,61,13,35,188,188,134,134,12,22,12,12,0.3,0.5
2026-05-11T1300,3515A,117.9381509,37.35547456,滨州市,开发区一中,臭氧1小时(O3_1h),89,73,76,23,42,191,191,122,122,15,27,12,10,0.4,0.7
2026-05-11T1300,3516A,118.0914,37.6938,滨州市,金海六路,,50,29,44,12,31,158,158,137,137,8,24,9,10,0.4,0.6
2026-05-11T1300,4028A,117.9955,37.3752,滨州市,滨州市西街道办事处,臭氧1小时(O3_1h),88,44,59,38,43,190,190,125,125,11,21,9,9,0.5,0.7
2026-05-11T1300,2311A,115.8071,33.8399,亳州市,污水处理厂,,40,34,32,20,24,126,126,105,102,6,9,9,7,0.2,0.2
2026-05-11T1300,2312A,115.7789,33.8519,亳州市,三国揽胜宫,颗粒物(PM10),57,59,48,24,23,124,124,111,106,6,7,9,8,0.3,0.3
2026-05-11T1300,3332A,115.7631,33.803,亳州市,亳州学院,,40,30,33,25,23,125,125,110,105,6,7,8,6,0.3,0.3
2026-05-11T1300,2693A,82.0482,44.8553,博尔塔拉蒙古自治州,市党校,颗粒物(PM10),101,122,246,28,53,96,96,100,100,8,4,3,3,0.1,0.2
2026-05-11T1300,2694A,82.0805,44.8966,博尔塔拉蒙古自治州,市环保局,NA,NA,8,215,3,42,NA,NA,69,NA,11,7,6,3,0.5,0.3
2026-05-11T1300,1071A,116.8733,38.2922,沧州市,沧县城建局,臭氧1小时(O3_1h),65,35,42,3,9,172,172,118,118,12,20,7,7,0.4,0.4
2026-05-11T1300,1072A,116.8462,38.3189,沧州市,电视转播站,臭氧1小时(O3_1h),69,37,49,24,24,175,175,116,116,11,16,10,6,0.3,0.2
2026-05-11T1300,1073A,116.8588,38.3161,沧州市,市环保局,臭氧1小时(O3_1h),72,54,55,23,24,177,177,118,118,7,16,9,8,0.2,0.4
2026-05-11T1300,3324A,116.8011,38.294,沧州市,河北水利电力学院,颗粒物(PM10),51,51,36,26,23,155,155,110,110,10,17,13,11,0.2,0.2
2026-05-11T1300,2622A,97.1813,31.1289,昌都市,昌都监测站,,24,NA,7,3,3,75,75,68,68,9,7,9,9,0.7,0.7
2026-05-11T1300,3719A,97.1707,31.1428,昌都市,昌都会议中心,,25,6,5,3,4,80,80,71,71,4,4,9,9,0.4,0.4
2026-05-11T1300,2692A,87.2722,44.0298,昌吉回族自治州,新区政务中心,颗粒物(PM10),79,90,132,28,35,85,85,69,69,8,10,6,7,0.4,0.4
2026-05-11T1300,3613A,87.3069,44.0093,昌吉回族自治州,亚心广场,颗粒物(PM10),80,92,165,34,50,85,85,73,73,6,7,6,6,0.3,0.3
2026-05-11T1300,4164A,87.2057,43.9289,昌吉回族自治州,财政所,颗粒物(PM10),81,93,239,26,60,85,85,73,73,6,7,8,9,0.3,0.4
2026-05-11T1300,1120A,125.2874,43.9024,长春市,客车厂,颗粒物(PM10),52,52,34,30,26,148,148,117,117,14,17,9,7,0.5,0.5
2026-05-11T1300,1121A,125.2943,43.8508,长春市,邮电学院,,48,38,36,23,22,152,152,121,121,8,11,8,7,0.5,0.5
2026-05-11T1300,1122A,125.3648,43.8745,长春市,劳动公园,,48,41,28,22,21,152,152,122,122,8,12,8,7,0.6,0.6
2026-05-11T1300,1123A,125.3233,43.8781,长春市,园林处,,50,42,30,25,22,158,158,128,128,9,12,11,9,0.5,0.5
2026-05-11T1300,1124A,125.4604,43.7904,长春市,净月潭,,47,37,24,20,20,148,148,118,118,8,8,6,5,0.5,0.4
2026-05-11T1300,1126A,125.38,43.8422,长春市,经开区环卫处,,49,47,29,23,20,155,155,120,120,9,13,6,5,0.5,0.5
2026-05-11T1300,1127A,125.234,43.7761,长春市,高新区管委会,,48,35,27,20,21,151,151,120,120,6,9,7,6,0.5,0.5
2026-05-11T1300,1128A,125.1695,43.83,长春市,岱山公园,臭氧1小时(O3_1h),55,48,32,24,23,164,164,128,128,11,22,6,5,0.4,0.4
2026-05-11T1300,4281A,125.334645,43.916281,长春市,北亚泰大街1068号,,49,48,33,28,26,156,156,124,124,14,20,7,6,0.6,0.5
2026-05-11T1300,1335A,113.082,28.2421,长沙市,经开区环保局,颗粒物(PM10),53,54,43,24,24,127,127,71,71,11,15,6,5,0.7,0.6
2026-05-11T1300,1336A,112.8873,28.2202,长沙市,高开区环保局,,48,48,49,30,33,118,118,73,73,4,11,9,12,0.5,0.7
2026-05-11T1300,1337A,113.0785,28.2012,长沙市,马坡岭,,43,43,42,25,26,128,128,68,68,3,10,8,7,0.7,0.7
2026-05-11T1300,1338A,112.9448,28.1894,长沙市,湖南师范大学,颗粒物(PM10),55,57,52,29,29,140,140,77,77,10,15,11,10,0.9,0.7
2026-05-11T1300,1339A,113.0177,28.1322,长沙市,雨花区环保局,颗粒物(PM10),53,54,43,28,27,145,145,79,79,5,8,11,7,1.0,0.8
2026-05-11T1300,1340A,112.9795,28.2593,长沙市,伍家岭,颗粒物(PM10),51,51,50,26,29,129,129,60,60,3,16,9,8,0.7,0.7
2026-05-11T1300,1341A,113.002,28.1944,长沙市,火车新站,NA,NA,NA,48,NA,30,NA,NA,45,45,NA,14,NA,8,NA,0.6
2026-05-11T1300,1342A,112.9846,28.1177,长沙市,天心区环保局,颗粒物(PM10),60,63,46,32,30,149,149,82,82,9,11,15,10,1.2,0.7
2026-05-11T1300,1343A,112.8906,28.1307,长沙市,湖南中医药大学,颗粒物(PM10),52,52,52,24,31,125,125,70,70,3,19,9,11,0.6,0.8
2026-05-11T1300,1727A,113.1146,36.1547,长治市,清华站,臭氧1小时(O3_1h),64,46,54,20,23,171,171,98,98,7,16,11,10,0.6,0.7
2026-05-11T1300,1730A,113.0887,36.2126,长治市,审计局,臭氧1小时(O3_1h),58,43,60,15,27,166,166,100,100,4,13,13,13,0.6,0.7
2026-05-11T1300,1731A,113.0845,36.1856,长治市,长治八中,臭氧1小时(O3_1h),52,42,71,17,27,161,161,92,92,6,16,14,13,0.6,0.7
2026-05-11T1300,2845A,113.1561,36.1912,长治市,德盛苑,NA,NA,34,48,19,21,162,162,120,120,7,13,14,13,NA,0.8
2026-05-11T1300,3568A,113.0603,36.0464,长治市,向阳小学,颗粒物(PM10),82,94,95,27,27,181,181,101,101,17,22,11,11,0.9,0.8
2026-05-11T1300,3569A,112.8788,36.315,长治市,屯留一中,臭氧1小时(O3_1h),64,37,52,29,24,171,171,103,103,11,20,15,13,1.1,0.9
2026-05-11T1300,4189A,113.113092,36.199482,长治市,英华南巷50号,臭氧1小时(O3_1h),58,43,66,16,25,166,166,102,102,2,12,12,11,0.7,0.9
2026-05-11T1300,4190A,113.23666,36.33435,长治市,学府街1号,颗粒物(PM10),67,73,58,14,21,165,165,109,109,6,14,11,19,0.9,0.6
2026-05-11T1300,1854A,111.696,28.9725,常德市,市二中,,35,35,36,21,28,98,98,65,65,2,8,10,10,0.8,0.9
2026-05-11T1300,3138A,111.7152,29.0288,常德市,武陵区永安,NA,NA,NA,44,NA,28,NA,NA,108,66,NA,8,NA,8,NA,0.7
2026-05-11T1300,3139A,111.6891,28.9881,常德市,鼎城区玉霞,,33,33,42,22,33,93,93,59,59,1,11,11,11,0.8,0.9
2026-05-11T1300,3140A,111.6651,29.0526,常德市,武陵区长庚,,45,40,45,31,29,94,94,68,68,3,11,9,10,0.8,0.9
2026-05-11T1300,1196A,119.9524,31.7586,常州市,市监测站,颗粒物(PM10),60,64,67,19,22,167,167,99,99,11,18,10,9,0.7,0.6
2026-05-11T1300,1200A,119.9351,31.703,常州市,武进监测站,,49,30,48,15,21,154,154,104,104,7,14,6,10,0.7,0.5
2026-05-11T1300,3002A,119.9701,31.813,常州市,行政中心,臭氧1小时(O3_1h),52,45,40,17,21,161,161,96,96,11,18,8,8,0.2,0.2
2026-05-11T1300,3003A,120.0434,31.7726,常州市,经开区,NA,NA,NA,57,NA,20,NA,NA,159,94,NA,19,NA,7,NA,0.9
2026-05-11T1300,3010A,119.8919,31.7892,常州市,钟楼,臭氧1小时(O3_1h),53,40,46,10,17,162,162,99,99,13,20,10,13,0.5,0.5
2026-05-11T1300,3429A,119.8595,31.706,常州市,武进经发区,,49,32,47,19,24,154,154,94,94,8,23,9,10,0.8,0.7
2026-05-11T1300,3430A,119.5812,31.7256,常州市,金坛城区,,47,30,46,21,24,148,148,92,92,2,12,8,9,0.6,0.7
2026-05-11T1300,4089A,119.9551,31.863,常州市,崇义南街5-H号,臭氧1小时(O3_1h),59,38,44,15,20,167,167,103,103,2,13,10,10,0.6,0.6
2026-05-11T1300,2220A,120.4318,41.588,朝阳市,西梁,,45,41,48,3,32,141,141,76,76,9,20,10,11,0.5,0.8
2026-05-11T1300,2221A,120.452,41.565,朝阳市,河畔小区,,50,50,39,10,22,150,150,93,93,8,15,8,8,0.4,0.6
2026-05-11T1300,2222A,120.4176,41.5648,朝阳市,八里堡,,45,38,52,3,30,144,144,80,80,9,21,7,8,0.6,0.8
2026-05-11T1300,3026A,116.6179,23.6608,潮州市,市政府,颗粒物(PM10),83,96,55,40,36,169,169,109,109,11,11,12,8,0.7,0.6
2026-05-11T1300,4036A,116.646,23.676,潮州市,金山,臭氧1小时(O3_1h),98,92,48,43,32,198,198,116,116,12,11,14,5,0.7,0.5
2026-05-11T1300,2473A,113.0116,25.8228,郴州市,市职中,,27,18,26,16,19,84,84,34,34,7,16,7,6,0.5,0.6
2026-05-11T1300,2475A,113.0381,25.8074,郴州市,市审计局,,35,32,30,24,23,86,86,30,30,14,22,5,4,/,/
2026-05-11T1300,2476A,113.0348,25.7757,郴州市,市环保局,,29,29,27,17,21,80,80,32,32,12,23,7,6,0.5,0.6
2026-05-11T1300,4252A,113.0138,25.8011,郴州市,好美居路49号,,31,31,29,6,13,84,84,30,30,9,19,9,7,/,/
2026-05-11T1300,1431A,103.9727,30.7242,成都市,金泉两河,颗粒物(PM10),90,105,75,50,51,138,138,69,69,31,33,10,7,0.5,0.5
2026-05-11T1300,1432A,104.1423,30.6765,成都市,十里店,细颗粒物(PM2.5),58,48,57,39,36,149,149,82,77,11,23,8,6,0.9,0.9
2026-05-11T1300,1433A,104.0594,30.5765,成都市,三瓦窑,细颗粒物(PM2.5),52,37,50,36,36,132,132,78,78,18,29,7,6,0.5,0.5
2026-05-11T1300,1434A,104.1122,30.6306,成都市,沙河铺,,50,50,53,32,35,128,128,78,78,15,27,6,3,0.4,0.5
2026-05-11T1300,2880A,104.0219,30.6561,成都市,大石西路,细颗粒物(PM2.5),80,76,64,50,43,137,137,83,83,26,30,13,7,0.6,0.7
2026-05-11T1300,3136A,104.2724,30.559,成都市,龙泉驿区区政府,,48,41,41,33,30,138,138,105,105,12,12,9,8,0.5,0.5
2026-05-11T1300,3357A,104.0028,30.6891,成都市,金博路,细颗粒物(PM2.5),56,52,62,38,46,144,144,56,56,23,47,10,8,0.7,0.8
2026-05-11T1300,3359A,104.056,30.5228,成都市,华阳,细颗粒物(PM2.5),54,51,48,37,35,136,136,92,92,10,16,5,4,0.5,0.4
2026-05-11T1300,3488A,104.387954,30.746684,成都市,青石路225号,,50,46,50,34,34,159,159,94,94,10,19,8,6,0.6,0.7
2026-05-11T1300,3489A,104.0788,30.4054,成都市,科学城,细颗粒物(PM2.5),68,59,42,44,28,135,135,98,98,11,10,8,6,0.5,0.5
2026-05-11T1300,4011A,103.8505,30.6946,成都市,光华大道三段,细颗粒物(PM2.5),102,82,88,62,58,167,167,80,80,18,30,10,7,0.7,0.7
2026-05-11T1300,4144A,104.3257,30.6406,成都市,八角井街185号,,48,48,54,29,28,144,144,106,106,12,10,7,6,0.6,0.5
2026-05-11T1300,4224A,104.2433276,30.53529463,成都市,鲸龙路1057号,,48,48,45,32,26,141,141,88,88,10,24,8,8,0.4,0.4
2026-05-11T1300,1062A,117.9531,40.908,承德市,铁路,,44,20,28,6,11,139,139,78,78,7,15,4,3,0.2,0.2
2026-05-11T1300,1063A,117.9397,40.9763,承德市,中国银行,,42,22,25,3,10,133,133,76,76,2,11,2,2,0.2,0.2
2026-05-11T1300,4073A,117.9462,40.95,承德市,杏林街1号,,46,32,31,16,18,145,145,93,93,3,10,2,2,0.2,0.2
2026-05-11T1300,4274A,117.7994,40.9605,承德市,滨河大街98号,,44,19,35,3,14,138,138,94,94,4,11,3,6,0.3,0.3
2026-05-11T1300,2314A,117.4698,30.6617,池州市,池州学院,,38,22,26,15,17,120,120,NA,NA,9,12,4,5,0.3,0.5
2026-05-11T1300,3237A,117.4918,30.6617,池州市,展览馆,,41,29,29,17,17,129,129,97,97,6,10,4,4,0.4,0.5
2026-05-11T1300,3333A,117.5626,30.695,池州市,第八中学,,38,27,27,19,18,120,120,86,86,8,14,4,4,0.3,0.5
2026-05-11T1300,3334A,117.5037,30.6242,池州市,第十二中学,,40,29,28,22,20,126,126,83,83,9,16,4,5,0.6,1
2026-05-11T1300,1744A,118.9229,42.2816,赤峰市,松山一中,,41,18,32,3,19,131,131,76,76,11,29,8,8,0.5,0.7
2026-05-11T1300,1745A,118.9588,42.2733,赤峰市,哈达街,,40,24,30,8,15,127,127,79,79,12,24,9,10,0.4,0.6
2026-05-11T1300,1746A,118.8792,42.2551,赤峰市,天义路,NA,NA,NA,20,NA,15,106,106,64,64,8,21,5,8,0.3,0.4
2026-05-11T1300,3058A,119.2656,42.0356,赤峰市,银河街,,45,36,44,11,26,144,144,76,76,9,21,9,14,0.7,0.9
2026-05-11T1300,3286A,118.9359,42.3146,赤峰市,桥北物流园区,,36,7,30,3,14,113,113,68,68,6,31,4,4,0.5,0.7
2026-05-11T1300,2521A,107.3473,22.4137,崇左市,市环保局江州分局,颗粒物(PM10),56,58,40,26,27,122,122,58,58,10,12,9,5,0.8,0.7
2026-05-11T1300,4256A,107.375,22.3736,崇左市,石景林东路7号,,40,34,34,28,28,121,121,65,65,9,12,10,8,0.7,0.7
2026-05-11T1300,3207A,118.31131,32.3033,滁州市,市政府原办公楼,,43,29,28,24,33,135,135,102,102,10,12,6,6,0.5,0.5
2026-05-11T1300,3331A,118.3268,32.2633,滁州市,图书馆,,42,39,35,9,20,132,132,98,98,5,9,11,10,0.6,0.6
2026-05-11T1300,4101A,118.3196,32.3335,滁州市,银山路666号,,44,36,34,20,25,140,140,106,106,9,13,9,8,0.3,0.3
2026-05-11T1300,4102A,118.3426,32.2979,滁州市,黄山路555号,,47,45,43,20,25,148,148,107,107,5,10,9,8,0.7,0.7
2026-05-11T1300,2606A,101.5379,25.0492,楚雄彝族自治州,市经济开发区,,19,11,12,7,9,60,60,41,41,6,7,1,2,0.5,0.5
2026-05-11T1300,4153A,101.5536,25.0343,楚雄彝族自治州,团结路562号,,20,17,10,3,9,64,64,45,45,4,6,2,2,0.3,0.3
2026-05-11T1300,2549A,107.5087,31.2186,达州市,市环境监测站,细颗粒物(PM2.5),82,76,70,51,45,141,141,59,59,22,32,8,8,0.4,0.4
2026-05-11T1300,2550A,107.4988,31.2132,达州市,凤凰小区,颗粒物(PM10),72,80,70,45,44,140,140,63,63,17,33,8,7,0.5,0.6
2026-05-11T1300,2551A,107.5081,31.1987,达州市,达县机关宾馆,颗粒物(PM10),63,68,71,30,47,150,150,66,66,20,38,6,6,0.5,0.5
2026-05-11T1300,2552A,107.4644,31.2124,达州市,市政中心,细颗粒物(PM2.5),64,62,70,42,44,150,150,60,60,11,39,7,5,0.4,0.5
2026-05-11T1300,2614A,100.2168,25.5818,大理白族自治州,大理市环境监测站,,25,NA,13,15,11,80,80,91,86,6,7,3,3,0.4,0.4
2026-05-11T1300,2615A,100.1542,25.7055,大理白族自治州,大理古城,,25,16,19,13,13,77,77,70,70,7,10,7,6,0.6,0.5
2026-05-11T1300,1109A,121.6119,38.974,大连市,甘井子,,39,39,86,21,35,117,117,97,97,8,18,10,10,0.5,0.5
2026-05-11T1300,1110A,121.565,38.9509,大连市,周水子,,41,41,52,20,23,114,114,92,92,10,22,6,6,0.5,0.6
2026-05-11T1300,1111A,121.5637,38.8849,大连市,星海三站,,39,30,45,27,22,118,118,97,97,6,12,4,5,0.4,0.5
2026-05-11T1300,1112A,121.6301,38.9117,大连市,青泥洼桥,,37,28,51,13,22,118,118,102,102,5,15,5,6,0.4,0.4
2026-05-11T1300,1113A,121.6248,38.8643,大连市,傅家庄,,34,28,51,13,19,106,106,97,97,3,9,7,8,0.4,0.4
2026-05-11T1300,1114A,121.5117,38.8636,大连市,七贤岭,,33,21,51,14,22,104,104,85,85,5,16,5,6,0.4,0.4
2026-05-11T1300,1116A,121.7507,39.1339,大连市,金州,,37,25,56,14,23,117,117,103,103,5,13,9,9,0.3,0.4
2026-05-11T1300,1117A,121.7811,39.0495,大连市,开发区,,36,35,44,16,20,115,115,102,102,10,18,6,6,0.4,0.5
2026-05-11T1300,1118A,121.9762,39.0631,大连市,双D港,,31,26,33,14,15,97,97,100,100,2,6,4,5,0.4,0.3
2026-05-11T1300,4082A,121.2548,38.8188,大连市,旅顺,NA,NA,31,51,10,24,111,111,104,102,NA,15,6,7,0.4,0.4
2026-05-11T1300,1789A,124.8085,46.0381,大庆市,大同区,颗粒物(PM10),65,71,64,37,35,132,132,100,100,9,13,4,4,0.5,0.6
2026-05-11T1300,1790A,125.1166,46.5255,大庆市,龙凤区,颗粒物(PM10),73,82,63,42,36,138,138,87,87,15,13,8,6,0.3,0.3
2026-05-11T1300,1791A,124.8894,46.4007,大庆市,红岗区,NA,NA,54,59,34,36,130,130,91,91,NA,11,5,15,0.5,0.6
2026-05-11T1300,1792A,125.1391,46.578,大庆市,萨尔图区,颗粒物(PM10),70,78,68,44,33,159,159,100,100,20,15,9,9,0.6,0.5
2026-05-11T1300,1793A,124.9026,46.6217,大庆市,让胡路区,细颗粒物(PM2.5),70,57,58,45,39,141,141,98,98,9,10,4,4,0.4,0.5
2026-05-11T1300,3481A,125.127,46.6277,大庆市,萨区政府监测点,细颗粒物(PM2.5),66,67,60,43,36,144,144,96,96,10,9,10,10,0.5,0.5
2026-05-11T1300,1723A,113.2926,40.0759,大同市,云冈宾馆,,37,30,58,23,18,118,118,65,65,10,33,8,9,0.4,1
2026-05-11T1300,1724A,113.3437,40.0921,大同市,大同大学,,38,32,46,3,15,119,119,72,72,12,26,7,9,0.5,0.6
2026-05-11T1300,1725A,113.2637,40.129,大同市,安家小村,,40,40,47,7,14,122,122,70,70,12,24,9,9,0.2,0.8
2026-05-11T1300,3282A,113.3399,40.0586,大同市,大同市卫生学校,,39,36,47,3,16,124,124,72,72,11,24,8,10,0.4,0.6
2026-05-11T1300,3565A,113.1371,40.1122,大同市,云冈站,,38,38,45,7,13,114,114,61,61,6,27,6,9,0.4,0.5
2026-05-11T1300,3566A,113.1186,40.2556,大同市,图书馆,,39,26,35,3,10,122,122,70,70,4,11,6,6,0.3,0.4
2026-05-11T1300,3567A,113.5931,40.0459,大同市,区一中,,50,50,35,3,11,127,127,76,76,9,12,5,5,0.4,0.4
2026-05-11T1300,4199A,113.2798248,40.09972476,大同市,魏都大道141号,,39,39,58,7,16,113,113,62,62,10,30,6,7,0.3,1.2
2026-05-11T1300,2269A,124.1068,50.4091,大兴安岭地区,科技局,,28,16,25,3,7,87,87,83,83,2,2,6,6,0.3,0.3
2026-05-11T1300,3663A,124.117,50.4279,大兴安岭地区,红旗社区,,30,14,11,3,7,96,96,89,89,3,3,5,5,0.2,0.2
2026-05-11T1300,1600A,124.33,40.0625,丹东市,江湾东路,,34,34,31,13,11,108,108,98,92,6,7,5,5,0.4,0.4
2026-05-11T1300,1601A,124.4242,40.1513,丹东市,临江后街,,37,37,31,15,11,111,111,86,86,5,7,8,7,0.4,0.3
2026-05-11T1300,1602A,124.3935,40.1461,丹东市,元宝山,,34,30,31,14,10,107,107,89,88,8,9,7,7,0.5,0.5
2026-05-11T1300,1603A,124.3634,40.1093,丹东市,民主桥,,37,37,35,14,12,104,104,93,91,6,8,7,8,0.3,0.3
2026-05-11T1300,3541A,109.5726195,19.51688767,儋州市,第一中学子站,,18,15,28,6,10,55,55,44,44,3,4,5,5,0.3,0.3
2026-05-11T1300,3542A,109.5567,19.5187,儋州市,东坡学校子站,,19,12,22,7,10,60,60,46,46,2,3,4,4,0.4,0.4
2026-05-11T1300,2616A,98.5611,24.4273,德宏傣族景颇族自治州,德宏州监测站,,20,NA,18,13,17,64,64,30,30,7,8,3,3,1.1,0.9
2026-05-11T1300,3677A,98.5887,24.4366,德宏傣族景颇族自治州,芒市人民政府综合楼,,34,34,38,14,18,61,61,30,30,12,10,4,4,0.7,0.6
2026-05-11T1300,1901A,104.424,31.1209,德阳市,东山公园,细颗粒物(PM2.5),110,78,74,70,59,140,140,83,83,20,18,9,5,0.7,0.7
2026-05-11T1300,1902A,104.3827,31.1318,德阳市,西小区,细颗粒物(PM2.5),114,105,99,75,69,142,142,72,72,27,42,13,7,0.9,0.9
2026-05-11T1300,1904A,104.3553,31.1091,德阳市,耐火材料厂,细颗粒物(PM2.5),142,140,109,106,77,166,166,83,83,33,42,12,6,0.8,0.7
2026-05-11T1300,4145A,104.4144,31.1495,德阳市,市林业局,细颗粒物(PM2.5),105,84,80,65,61,165,165,84,84,21,33,12,6,0.7,0.7
2026-05-11T1300,1622A,116.3034,37.4675,德州市,儿童乐园,臭氧1小时(O3_1h),99,63,55,27,34,199,199,146,146,10,15,13,11,0.8,0.8
2026-05-11T1300,1624A,116.2992,37.4449,德州市,监理站,臭氧1小时(O3_1h),98,70,77,29,36,198,198,147,147,7,12,16,15,0.6,0.5
2026-05-11T1300,3066A,116.2722,37.438,德州市,九衢泉纯净水厂,臭氧1小时(O3_1h),89,63,69,35,35,191,191,140,140,12,20,12,12,0.9,0.9
2026-05-11T1300,3371A,116.3693,37.44,德州市,开发区人民医院,臭氧1小时(O3_1h),92,73,77,31,34,193,193,136,136,10,16,16,14,0.7,0.6
2026-05-11T1300,3511A,116.5687,37.3331,德州市,陵城艺术中心,臭氧1小时(O3_1h),95,73,72,29,58,196,196,130,130,12,15,14,14,0.9,0.8
2026-05-11T1300,4292A,116.352738,37.420875,德州市,新河东路,臭氧1小时(O3_1h),84,70,60,23,31,187,187,130,130,8,14,14,12,1.0,0.8
2026-05-11T1300,2621A,99.7054,27.8319,迪庆藏族自治州,迪庆州站,NA,NA,10,19,3,10,99,99,100,100,9,8,8,8,NA,0.2
2026-05-11T1300,3180A,99.7122,27.8129,迪庆藏族自治州,质量技术监督局,,33,12,17,3,10,105,105,107,107,9,8,8,8,0.4,0.4
2026-05-11T1300,4257A,104.6092,35.5962,定西市,将台街,NA,NA,NA,71,NA,30,140,140,73,73,3,19,5,4,0.1,0.2
2026-05-11T1300,4309A,104.6159,35.5701,定西市,正龙路62号,,49,41,70,34,34,136,136,78,78,5,11,4,4,0.2,0.3
2026-05-11T1300,4071A,114.9883,38.5232,定州市,交通局,臭氧1小时(O3_1h),68,69,62,22,16,174,174,97,97,11,18,5,5,0.4,0.4
2026-05-11T1300,4072A,115.0045,38.5136,定州市,第五中学,颗粒物(PM10),70,77,72,16,16,158,158,83,83,10,19,4,4,0.4,0.4
2026-05-11T1300,1390A,113.7943,23.0132,东莞市,东城石井,臭氧1小时(O3_1h),60,45,57,27,35,168,168,74,74,18,32,6,5,0.7,0.8
2026-05-11T1300,1391A,113.7384,22.9659,东莞市,南城西平,,46,42,53,27,32,147,147,77,77,14,31,5,5,0.6,0.6
2026-05-11T1300,3319A,113.7283,23.041,东莞市,万江金泰,细颗粒物(PM2.5),54,50,66,37,41,161,161,77,77,17,42,7,7,0.6,0.7
2026-05-11T1300,4129A,113.8666,23.1062,东莞市,裕兴路,颗粒物(PM10),55,57,84,33,50,160,160,74,74,14,40,6,7,0.8,0.9
2026-05-11T1300,4130A,114.0076,22.9739,东莞市,教育路1号,颗粒物(PM10),71,79,79,40,42,164,164,66,66,25,36,5,5,0.7,0.7
2026-05-11T1300,4131A,113.7981,22.8124,东莞市,长怡路1号,,49,37,54,21,27,156,156,80,80,12,29,5,4,0.8,0.7
2026-05-11T1300,1666A,118.6612,37.4313,东营市,市环保局,细颗粒物(PM2.5),66,61,69,43,49,157,157,134,134,15,19,15,15,0.6,0.5
2026-05-11T1300,3036A,118.6903,37.4337,东营市,开发区管委会,颗粒物(PM10),63,67,67,28,41,158,158,134,134,19,21,13,12,0.8,0.7
2026-05-11T1300,3365A,118.5721,37.5654,东营市,垦利区民丰路,臭氧1小时(O3_1h),82,56,64,17,34,185,185,152,152,13,18,19,18,0.7,0.7
2026-05-11T1300,3498A,118.5063,37.8606,东营市,河口城区,臭氧1小时(O3_1h),83,39,61,20,33,186,186,157,157,7,10,14,12,0.9,0.9
2026-05-11T1300,3646A,118.4979,37.4623,东营市,胜利站,颗粒物(PM10),53,53,71,30,43,157,157,127,127,14,22,9,8,0.8,0.9
2026-05-11T1300,3734A,118.5753,37.4405,东营市,理想之城,细颗粒物(PM2.5),64,53,67,42,40,158,158,130,130,21,26,12,10,0.7,0.7
2026-05-11T1300,1591A,110.0024,39.8127,鄂尔多斯市,综合楼,,41,31,82,12,29,131,131,102,102,8,20,6,7,0.5,0.5
2026-05-11T1300,1592A,109.9485,39.8259,鄂尔多斯市,巴音孟克林场办事处,,43,41,70,26,26,136,136,110,110,7,15,6,6,0.3,0.3
2026-05-11T1300,1593A,109.7734,39.5987,鄂尔多斯市,康泽苑,,43,34,81,3,22,136,136,80,80,6,18,7,6,0.3,0.3
2026-05-11T1300,1594A,109.8121,39.5987,鄂尔多斯市,华泰汽车城,,44,44,73,16,20,131,131,68,68,8,24,9,9,0.4,0.5
2026-05-11T1300,1595A,109.9734,39.7884,鄂尔多斯市,奥林花园,,42,39,77,14,22,132,132,86,86,7,27,4,4,0.3,0.4
2026-05-11T1300,2436A,114.894,30.3989,鄂州市,市政府,,40,34,67,21,38,125,125,87,87,7,19,10,12,0.4,0.6
2026-05-11T1300,2437A,114.8986,30.3714,鄂州市,赵家坝,,43,38,64,10,42,137,137,88,88,3,11,16,14,0.4,0.6
2026-05-11T1300,3654A,114.8093,30.4091,鄂州市,精准医疗中心,,45,31,59,25,44,141,141,84,84,5,21,4,6,0.6,0.9
2026-05-11T1300,2454A,109.4978,30.2979,恩施土家族苗族自治州,湖北民院,,36,26,33,17,23,113,113,54,54,3,7,8,8,0.3,0.3
2026-05-11T1300,3549A,109.5061,30.3771,恩施土家族苗族自治州,龙凤新区,,38,32,28,26,19,99,99,41,41,10,10,6,7,0.3,0.4
2026-05-11T1300,2499A,108.3411,21.6159,防城港市,沙万,颗粒物(PM10),56,58,50,24,34,93,93,73,73,15,14,15,12,1.0,0.8
2026-05-11T1300,2500A,108.3515,21.7733,防城港市,防城档案局,,45,45,58,20,39,114,114,74,74,8,12,9,7,1.1,0.8
2026-05-11T1300,2501A,108.3506,21.6414,防城港市,大海花园,颗粒物(PM10),57,59,47,25,40,114,114,85,85,11,11,12,9,0.7,0.8
2026-05-11T1300,1371A,113.1293,23.0065,佛山市,湾梁,,42,41,55,25,39,133,133,56,56,14,38,/,/,/,/
2026-05-11T1300,1372A,113.1082,23.0477,佛山市,华材职中,细颗粒物(PM2.5),94,NA,55,57,95,127,127,75,75,14,37,6,5,0.6,0.7
2026-05-11T1300,1373A,113.1439,23.045,佛山市,南海气象局,,48,48,49,27,40,141,141,58,58,16,38,/,/,/,/
2026-05-11T1300,1374A,113.2879,22.8094,佛山市,顺德苏岗,颗粒物(PM10),77,87,49,39,35,135,135,65,65,11,28,/,/,0.6,0.7
2026-05-11T1300,1376A,112.8384,22.8678,佛山市,高明孔堂,,45,45,40,26,25,95,95,58,58,13,16,/,/,/,/
2026-05-11T1300,1377A,112.8835,23.1584,佛山市,三水监测站,,39,34,68,27,63,93,93,40,40,14,52,5,6,0.7,0.8
2026-05-11T1300,1378A,112.8668,23.185,佛山市,三水云东海,颗粒物(PM10),55,56,77,30,48,103,103,44,44,14,30,/,/,/,/
2026-05-11T1300,3625A,113.2568,22.7629,佛山市,容桂街道办,,50,46,54,35,38,136,136,58,58,16,39,/,/,/,/
2026-05-11T1300,1282A,119.2681,26.0506,福州市,师大,,38,30,30,9,13,119,119,73,73,9,17,4,5,0.4,0.4
2026-05-11T1300,1283A,119.2983,26.1028,福州市,五四北路,,36,32,29,15,16,115,115,64,64,12,20,4,5,0.4,0.3
2026-05-11T1300,1284A,119.2648,26.0769,福州市,杨桥西路,,34,20,29,8,12,108,108,64,64,8,18,4,5,/,/
2026-05-11T1300,3048A,119.5799,26.0937,福州市,九龙,,43,37,24,24,14,137,137,70,70,11,15,7,6,0.3,0.2
2026-05-11T1300,3526A,119.5188,25.9666,福州市,吴航,,40,27,24,15,14,125,125,58,58,12,18,7,7,0.5,0.4
2026-05-11T1300,4104A,119.3106,26.0648,福州市,路通桥巷6号,,39,31,30,14,18,122,122,70,70,8,15,/,/,/,/
2026-05-11T1300,1755A,123.7974,41.8494,抚顺市,望花区,,50,33,36,20,24,158,158,110,110,11,21,8,7,0.5,0.7
2026-05-11T1300,1756A,123.9161,41.8827,抚顺市,顺城区,,50,30,27,18,19,157,157,104,104,13,21,13,10,0.9,0.6
2026-05-11T1300,1757A,124.0437,41.8615,抚顺市,东洲区,,46,41,29,24,14,147,147,103,103,15,13,9,9,0.8,0.6
2026-05-11T1300,1758A,123.9246,41.8638,抚顺市,新抚区,臭氧1小时(O3_1h),52,35,33,22,19,161,161,101,101,10,17,10,7,1.1,0.7
2026-05-11T1300,1759A,124.0972,41.8961,抚顺市,大伙房水库,,48,46,30,15,14,151,151,107,107,10,14,10,8,0.6,0.5
2026-05-11T1300,1760A,123.708,41.8386,抚顺市,沈抚新城,,47,38,38,21,21,150,150,107,107,13,23,11,10,0.6,0.9
2026-05-11T1300,2377A,116.3544,27.9833,抚州市,市站,,28,23,20,14,11,88,88,50,50,4,9,4,4,0.9,1
2026-05-11T1300,2378A,116.3562,27.9631,抚州市,血防站,,30,24,24,17,11,94,94,52,52,4,9,7,7,0.5,0.5
2026-05-11T1300,2379A,116.3561,28.0007,抚州市,采茶剧团,,28,25,24,19,12,84,84,50,50,2,7,10,10,0.6,0.7
2026-05-11T1300,2380A,116.3854,27.9648,抚州市,医学分院,,30,26,25,13,11,95,95,52,52,4,8,7,6,1.1,1.1
2026-05-11T1300,2207A,121.6095,41.9978,阜新市,工业园区,颗粒物(PM10),58,60,61,9,45,154,154,115,115,8,20,10,15,0.4,0.7
2026-05-11T1300,2208A,121.6567,42.0188,阜新市,长青街,,48,42,67,9,44,153,153,121,121,12,20,10,16,0.5,0.7
2026-05-11T1300,2209A,121.6672,42.07,阜新市,农业园区,,50,40,76,10,40,158,158,133,133,12,18,9,11,0.4,0.8
2026-05-11T1300,2211A,121.6343,42.0455,阜新市,玉龙新城,,50,33,62,8,39,157,157,114,114,9,23,11,11,0.4,0.7
2026-05-11T1300,2301A,115.8276,32.8929,阜阳市,市监测站,颗粒物(PM10),53,53,52,16,24,143,143,115,113,7,8,8,7,0.5,0.6
2026-05-11T1300,2303A,115.8551,32.8606,阜阳市,开发区,,46,34,52,16,26,147,147,115,115,7,10,6,6,0.6,0.6
2026-05-11T1300,2875A,115.783962,32.889217,阜阳市,阜阳职业技术学院,,47,45,48,20,23,150,150,127,127,5,8,8,8,0.6,0.6
2026-05-11T1300,3468A,115.79,32.8614,阜阳市,市规划展馆,,48,48,47,17,24,148,148,119,119,4,7,9,9,0.7,0.7
2026-05-11T1300,3469A,115.835101,32.918568,阜阳市,枣园社区,,46,46,49,18,24,141,141,109,108,9,13,8,8,0.7,0.7
2026-05-11T1300,2669A,102.9097,34.9841,甘南藏族自治州,州政府,,37,29,50,19,27,118,118,53,53,1,23,4,4,0.2,0.4
2026-05-11T1300,3380A,102.8915,34.9618,甘南藏族自治州,甘肃民族师范学院,,41,35,66,10,25,129,129,60,60,7,34,2,4,0.1,0.2
2026-05-11T1300,2570A,101.96,30.048,甘孜藏族自治州,水桥子,,30,19,18,3,6,96,96,60,58,8,18,6,6,0.3,0.3
2026-05-11T1300,3065A,101.9534,29.9976,甘孜藏族自治州,州环保局,,36,16,14,3,8,114,114,84,84,6,13,7,7,0.5,0.5
2026-05-11T1300,2363A,114.9368,25.8663,赣州市,地委,,43,43,40,30,25,124,124,61,61,7,13,2,3,0.9,0.8
2026-05-11T1300,2364A,114.946,25.8483,赣州市,气象台,细颗粒物(PM2.5),60,NA,37,40,30,122,122,65,65,8,20,4,4,0.5,0.4
2026-05-11T1300,2365A,114.932,25.8332,赣州市,市图书馆,细颗粒物(PM2.5),56,40,34,38,27,119,119,65,65,6,19,5,4,0.5,0.6
2026-05-11T1300,2366A,114.8905,25.8472,赣州市,华坚鞋城,,43,41,39,30,26,116,116,63,63,9,21,7,7,0.4,0.4
2026-05-11T1300,3109A,115.0094,25.8614,赣州市,赣县区卫计委,,46,46,36,28,19,135,135,68,68,8,16,4,4,0.7,0.7
2026-05-11T1300,2684A,106.2753,36.0057,固原市,监测站,颗粒物(PM10),75,84,93,22,28,132,132,101,101,4,9,7,7,0.4,0.4
2026-05-11T1300,2685A,106.2384,36.0189,固原市,新区,颗粒物(PM10),70,77,90,29,29,127,127,97,97,5,10,7,6,0.2,0.3
2026-05-11T1300,2544A,106.6307,30.4577,广安市,市委,臭氧1小时(O3_1h),80,59,54,41,46,184,184,96,96,13,26,9,8,0.6,0.6
2026-05-11T1300,2545A,106.6266,30.4662,广安市,友谊中学,臭氧1小时(O3_1h),78,51,48,32,36,182,182,88,88,11,17,10,8,0.9,0.8
2026-05-11T1300,2547A,106.6386,30.4551,广安市,广电花园,细颗粒物(PM2.5),64,56,50,42,46,170,170,87,87,14,22,8,7,0.6,0.7
2026-05-11T1300,2902A,106.6347,30.4868,广安市,北辰小学,臭氧1小时(O3_1h),69,69,56,40,42,175,175,81,81,14,16,6,5,0.6,0.5
2026-05-11T1300,2524A,105.8211,32.4444,广元市,老城,细颗粒物(PM2.5),72,60,66,46,50,176,176,77,77,13,25,10,5,1.0,0.8
2026-05-11T1300,2526A,105.8629,32.429,广元市,监测站,颗粒物(PM10),61,65,72,36,49,162,162,89,89,13,19,5,7,0.8,0.8
2026-05-11T1300,3617A,105.8047,32.4167,广元市,经开区,细颗粒物(PM2.5),113,96,78,74,62,166,166,72,72,20,24,35,18,1.4,0.9
2026-05-11T1300,1345A,113.2346,23.1423,广州市,广雅中学,,44,44,51,26,34,111,111,60,60,17,38,2,2,0.9,0.9
2026-05-11T1300,1346A,113.2611,23.105,广州市,市五中,,45,44,49,29,33,144,144,73,73,24,40,4,4,/,/
2026-05-11T1300,1348A,113.3477,23.0916,广州市,广东商学院,,43,40,48,28,33,136,136,64,64,25,46,4,5,0.8,0.9
2026-05-11T1300,1349A,113.4332,23.105,广州市,市八十六中,,50,41,45,35,30,136,136,70,70,35,52,7,7,/,/
2026-05-11T1300,1350A,113.3506,22.9488,广州市,番禺中学,颗粒物(PM10),53,54,46,28,28,155,155,69,69,15,28,7,6,0.8,0.8
2026-05-11T1300,1351A,113.2147,23.3918,广州市,花都师范,细颗粒物(PM2.5),66,61,63,43,41,130,130,60,60,21,51,8,7,1.0,1.2
2026-05-11T1300,1352A,113.2599,23.1329,广州市,市监测站,,38,37,48,25,32,120,120,66,66,18,32,3,3,/,/
2026-05-11T1300,1353A,113.5618,23.3119,广州市,九龙镇镇龙,颗粒物(PM10),52,52,50,32,33,119,119,47,47,24,36,6,6,0.6,0.7
2026-05-11T1300,1354A,113.2764,23.1544,广州市,麓湖,,43,42,43,29,33,137,137,66,66,18,35,5,5,0.8,0.9
2026-05-11T1300,2846A,113.3209,23.1323,广州市,体育西,,46,46,49,26,30,139,139,67,67,22,39,6,5,0.8,0.9
2026-05-11T1300,3298A,113.5718,23.5493,广州市,从化街口,细颗粒物(PM2.5),78,69,56,49,39,137,137,69,69,19,22,6,5,0.9,0.9
2026-05-11T1300,3299A,113.3463,23.369,广州市,白云竹料,细颗粒物(PM2.5),82,82,83,51,52,146,146,63,63,28,43,5,4,0.8,1
2026-05-11T1300,3300A,113.2981,23.2365,广州市,白云嘉禾,颗粒物(PM10),59,62,72,39,46,135,135,63,63,28,50,9,9,/,/
2026-05-11T1300,3301A,113.4256,23.1716,广州市,黄埔科学城,细颗粒物(PM2.5),64,52,53,42,41,127,127,56,56,16,19,5,6,0.8,0.9
2026-05-11T1300,3302A,113.3942,23.0485,广州市,番禺大学城,臭氧1小时(O3_1h),53,51,49,34,40,162,162,79,79,22,34,7,7,0.7,0.7
2026-05-11T1300,3303A,113.4923,22.8169,广州市,南沙黄阁,,49,40,46,31,28,156,156,67,67,16,32,7,6,/,/
2026-05-11T1300,3304A,113.534,22.7893,广州市,南沙街,,46,44,43,32,25,140,140,64,64,19,27,7,7,0.6,0.5
2026-05-11T1300,3443A,113.2905,23.5541,广州市,花都梯面,颗粒物(PM10),60,64,62,33,38,115,115,44,44,18,26,10,8,/,/
2026-05-11T1300,3445A,113.786,23.7479,广州市,从化良口,细颗粒物(PM2.5),72,59,37,46,28,129,129,92,92,13,13,5,4,/,/
2026-05-11T1300,3446A,113.805,23.2614,广州市,增城荔城,细颗粒物(PM2.5),78,78,73,49,50,141,141,58,58,25,32,10,7,0.7,0.8
2026-05-11T1300,2506A,109.604387,23.066791,贵港市,江南子站,,49,44,50,34,30,130,130,55,55,9,21,9,9,0.8,0.7
2026-05-11T1300,2508A,109.5669,23.1065,贵港市,荷城子站,颗粒物(PM10),67,73,40,36,28,155,155,67,67,19,18,13,6,1.4,0.8
2026-05-11T1300,3405A,109.5886,23.1172,贵港市,新世纪学校,颗粒物(PM10),58,61,42,38,29,145,145,64,64,16,19,/,/,0.7,0.6
2026-05-11T1300,4260A,109.5933,23.095,贵港市,中山路155-3号,细颗粒物(PM2.5),105,NA,45,65,31,150,150,79,79,10,16,/,/,0.7,0.6
2026-05-11T1300,1439A,106.6863,26.6035,贵阳市,马鞍山,细颗粒物(PM2.5),84,75,48,52,33,51,51,23,23,33,22,15,6,/,/
2026-05-11T1300,1441A,106.6241,26.6266,贵阳市,鉴湖路,颗粒物(PM10),51,51,61,26,36,87,87,42,42,17,23,16,19,0.7,0.8
2026-05-11T1300,1442A,106.7468,26.6344,贵阳市,燕子冲,细颗粒物(PM2.5),101,90,58,61,36,61,61,25,25,40,23,17,10,1.1,0.8
2026-05-11T1300,1443A,106.6556,26.4362,贵阳市,碧云窝,细颗粒物(PM2.5),90,83,80,55,47,92,92,38,38,13,18,28,18,/,/
2026-05-11T1300,1445A,106.6963,26.6063,贵阳市,红边门,细颗粒物(PM2.5),98,97,60,59,39,65,65,30,30,47,31,26,11,/,/
2026-05-11T1300,1446A,106.7162383,26.56964667,贵阳市,新华路,细颗粒物(PM2.5),98,92,75,59,47,77,77,41,41,35,35,42,21,0.7,0.5
2026-05-11T1300,1447A,106.6742,26.542,贵阳市,太慈桥,细颗粒物(PM2.5),100,75,55,60,41,66,66,28,28,22,20,26,8,/,/
2026-05-11T1300,4230A,106.688212,26.56952,贵阳市,花果园大街66号,NA,NA,NA,53,NA,43,53,53,31,31,37,31,20,9,/,/
2026-05-11T1300,4231A,106.687268,26.516892,贵阳市,漓江路57号,细颗粒物(PM2.5),107,85,61,67,47,72,72,31,31,28,25,25,12,0.8,0.7
2026-05-11T1300,1864A,110.3091,25.2705,桂林市,龙隐路小学,,32,32,34,20,26,84,84,44,44,8,12,4,5,0.6,0.6
2026-05-11T1300,1865A,110.2849361,25.22909545,桂林市,八中,,36,36,30,11,17,79,79,43,43,9,16,3,4,0.6,0.6
2026-05-11T1300,3531A,110.296,25.1254,桂林市,旅游学院,,48,37,37,33,26,86,86,47,47,3,8,7,7,0.3,0.3
2026-05-11T1300,4222A,110.1835,25.2444,桂林市,环湖路276号,,31,31,26,21,19,78,78,40,40,9,23,3,4,0.4,0.4
2026-05-11T1300,4301A,110.2803,25.2773,桂林市,信义路13号,,34,34,33,14,24,79,79,40,40,6,12,4,5,0.6,0.6
2026-05-11T1300,2674A,100.2262,34.4854,果洛藏族自治州,玛沁县大武镇,,40,26,35,11,14,126,126,68,68,1,4,18,20,0.3,0.4
2026-05-11T1300,1130A,126.5557,45.8109,哈尔滨市,松北商大,颗粒物(PM10),51,51,39,30,27,156,156,116,116,12,14,7,6,0.5,0.5
2026-05-11T1300,1132A,126.6162,45.719,哈尔滨市,南岗学府路,颗粒物(PM10),57,59,44,24,24,153,153,113,113,11,15,6,5,0.5,0.6
2026-05-11T1300,1133A,126.6894,45.7733,哈尔滨市,太平宏伟公园,颗粒物(PM10),65,71,42,22,25,153,153,113,113,14,16,9,8,0.3,0.3
2026-05-11T1300,1134A,126.6361,45.7672,哈尔滨市,道外承德广场,颗粒物(PM10),70,78,64,21,21,146,146,105,105,13,17,10,9,0.7,0.6
2026-05-11T1300,1136A,126.644,45.7261,哈尔滨市,动力和平路,颗粒物(PM10),53,53,43,19,23,152,152,114,114,10,14,8,6,0.5,0.4
2026-05-11T1300,1137A,126.5933,45.7479,哈尔滨市,道里建国路,NA,NA,NA,43,NA,23,142,142,107,107,15,19,7,11,NA,0.5
2026-05-11T1300,1138A,126.6127,45.6119,哈尔滨市,平房东轻厂,臭氧1小时(O3_1h),55,36,34,27,22,164,164,120,120,11,11,14,17,0.8,0.9
2026-05-11T1300,1139A,126.5875,45.9827,哈尔滨市,呼兰师专,颗粒物(PM10),65,70,45,25,28,139,139,105,105,11,18,14,12,0.4,0.4
2026-05-11T1300,1140A,126.6299,45.6799,哈尔滨市,省农科院,颗粒物(PM10),73,82,57,35,27,144,144,110,110,15,18,8,7,0.6,0.6
2026-05-11T1300,4282A,126.6769,45.7379,哈尔滨市,华山路1号,颗粒物(PM10),55,56,40,27,25,156,156,116,116,12,16,7,4,0.3,0.3
2026-05-11T1300,4283A,126.9717,45.5356,哈尔滨市,解放大街52号,NA,NA,NA,43,NA,17,160,160,123,123,NA,12,3,5,0.5,0.5
2026-05-11T1300,2688A,93.5124,42.8176,哈密市,地区监测站,颗粒物(PM10),65,70,50,33,28,100,100,90,90,5,19,9,7,0.0,0.1
2026-05-11T1300,2689A,93.5014,42.8312,哈密市,哈密师范学校,颗粒物(PM10),72,80,70,22,33,100,100,78,78,10,30,5,5,0.2,0.4
2026-05-11T1300,2671A,100.9016,36.9464,海北藏族自治州,海晏县西海镇,,40,40,47,25,25,115,115,76,76,2,3,9,8,0.3,0.3
2026-05-11T1300,3867A,102.074,36.5056,海东市,平安区公安局北苑,,45,45,68,18,31,120,120,70,70,4,10,8,9,0.4,0.5
2026-05-11T1300,4163A,102.0984,36.5119,海东市,滨河路,颗粒物(PM10),51,51,64,19,27,105,105,54,54,6,27,7,8,0.6,0.7
2026-05-11T1300,1410A,110.3189,20.0596,海口市,海南大学,,28,22,23,10,10,88,88,75,75,4,3,5,5,0.4,0.4
2026-05-11T1300,1411A,110.2827,20.0051,海口市,秀英海南医院,,26,21,19,9,11,81,81,72,72,3,3,6,6,0.3,0.3
2026-05-11T1300,1412A,110.3391,19.9979,海口市,海南师范大学,,26,24,23,11,10,81,81,72,72,2,3,3,3,0.4,0.4
2026-05-11T1300,1413A,110.3303,20.0359,海口市,龙华路环保局宿舍,,27,27,23,12,11,85,85,73,73,3,4,/,/,0.3,0.3
2026-05-11T1300,3539A,110.5111,19.9737,海口市,桂林洋子站,,23,22,27,9,9,72,72,60,60,3,4,/,/,/,/
2026-05-11T1300,4134A,110.1952,20.0451,海口市,长滨二路9号,,28,17,19,10,10,89,89,71,71,2,3,/,/,/,/
2026-05-11T1300,2673A,100.6158,36.2985,海南藏族自治州,共和县恰卜恰镇,,40,40,51,22,24,122,122,78,78,4,9,11,10,0.3,0.3
2026-05-11T1300,2676A,97.373,37.376,海西蒙古族藏族自治州,德令哈市,,49,49,48,20,16,126,126,105,105,6,2,16,16,0.6,0.3
2026-05-11T1300,1049A,114.492,36.5712,邯郸市,矿院,臭氧1小时(O3_1h),68,56,61,35,34,174,174,126,126,2,11,7,10,0.4,0.7
2026-05-11T1300,1050A,114.4839,36.6136,邯郸市,丛台公园,臭氧1小时(O3_1h),62,49,55,32,29,169,169,123,123,2,9,11,12,0.4,0.6
2026-05-11T1300,3458A,114.7893,36.5592,邯郸市,香泉濮院小区,细颗粒物(PM2.5),82,92,84,51,38,160,160,96,96,11,18,2,4,0.4,0.5
2026-05-11T1300,3580A,114.1998,36.4439,邯郸市,峰峰矿区临水派出所,臭氧1小时(O3_1h),79,60,52,29,26,183,183,124,124,4,8,2,5,0.4,0.7
2026-05-11T1300,4068A,114.5209,36.7697,邯郸市,建安街268号,颗粒物(PM10),72,80,70,25,24,170,170,117,117,14,21,5,3,0.4,0.4
2026-05-11T1300,4069A,114.5488,36.6177,邯郸市,丛台东路558号,颗粒物(PM10),60,63,65,31,28,163,163,107,107,2,16,5,7,0.6,0.8
2026-05-11T1300,2635A,107.0155,33.0707,汉中市,市监测站,细颗粒物(PM2.5),72,75,65,46,41,159,159,71,71,15,18,10,6,0.9,0.7
2026-05-11T1300,2636A,107.0083,33.114,汉中市,鑫源开发区,颗粒物(PM10),74,83,59,29,39,163,163,80,80,12,18,12,9,1.0,0.7
2026-05-11T1300,2637A,107.0072,33.0323,汉中市,南郑大河坎水厂,颗粒物(PM10),68,75,56,34,33,146,146,67,67,12,15,6,6,0.7,0.6
2026-05-11T1300,1223A,120.2073,30.2111,杭州市,滨江,,38,18,46,6,21,119,119,78,78,4,21,8,10,0.7,0.7
2026-05-11T1300,1224A,120.0625,30.2737,杭州市,西溪,,42,28,37,8,18,132,132,72,72,6,12,5,5,0.8,0.7
2026-05-11T1300,1226A,120.3417,30.315,杭州市,下沙,,35,14,53,7,25,112,112,75,75,1,31,10,10,0.6,0.6
2026-05-11T1300,1227A,120.1252,30.2465,杭州市,卧龙桥,,42,21,31,9,17,133,133,76,76,6,18,8,7,0.2,0.3
2026-05-11T1300,1228A,120.1902,30.2691,杭州市,浙江农大,,39,15,42,9,24,122,122,73,73,2,24,8,9,0.4,0.4
2026-05-11T1300,1230A,120.1195,30.3121,杭州市,和睦小学,,40,15,37,8,22,128,128,76,76,2,24,7,8,0.4,0.4
2026-05-11T1300,1231A,120.3076,30.4146,杭州市,临平镇,,46,18,50,8,25,146,146,77,77,6,31,6,7,0.4,0.6
2026-05-11T1300,1232A,120.2753,30.1839,杭州市,城厢镇,,40,27,52,12,25,125,125,75,75,3,25,7,8,0.6,0.6
2026-05-11T1300,1233A,120.0883,30.1808,杭州市,云栖,,39,19,29,8,17,123,123,68,68,12,28,7,7,0.6,0.6
2026-05-11T1300,3557A,119.9463,30.0496,杭州市,镇二中,,34,15,23,9,14,106,106,64,64,9,19,5,5,0.6,0.8
2026-05-11T1300,3558A,119.7184,30.2367,杭州市,市府大楼,,31,8,21,3,12,99,99,64,64,7,14,6,7,0.4,0.4
2026-05-11T1300,3656A,120.1554,30.2863,杭州市,消防大队,,36,16,41,9,21,113,113,72,72,4,19,6,6,0.4,0.5
2026-05-11T1300,1270A,117.1957,31.7845,合肥市,明珠广场,,45,39,40,23,30,144,144,96,96,7,16,8,8,0.6,0.6
2026-05-11T1300,1271A,117.307,31.8765,合肥市,三里街,,41,41,43,18,29,123,123,85,85,12,19,8,8,0.5,0.5
2026-05-11T1300,1272A,117.2587,31.8703,合肥市,琥珀山庄,,43,39,41,18,26,135,135,92,92,5,13,9,9,0.6,0.6
2026-05-11T1300,1275A,117.2593,31.9376,合肥市,庐阳区,,48,48,40,24,27,139,139,95,95,8,13,8,8,0.8,0.7
2026-05-11T1300,1276A,117.345251,31.861615,合肥市,瑶海区,,43,36,39,21,25,135,135,95,95,8,16,8,8,0.5,0.5
2026-05-11T1300,1277A,117.3033,31.7967,合肥市,包河区,,46,46,41,23,24,132,132,93,93,6,11,12,11,0.6,0.6
2026-05-11T1300,1278A,117.278,31.7392,合肥市,滨湖新区,,46,46,40,23,27,136,136,96,96,2,7,8,7,0.6,0.6
2026-05-11T1300,1279A,117.1324,31.8395,合肥市,高新区,,47,46,41,23,25,148,148,98,98,5,11,7,6,0.5,0.5
2026-05-11T1300,3464A,117.3802,31.9148,合肥市,高教基地,,40,39,39,16,24,128,128,92,92,6,10,9,9,0.5,0.5
2026-05-11T1300,4098A,117.2518,31.8404,合肥市,中国科学技术大学,,47,41,41,21,26,148,148,102,102,3,11,8,8,0.6,0.6
2026-05-11T1300,3614A,79.9241,37.0878,和田地区,地区环保局,颗粒物(PM10),328,442,172,68,36,102,102,84,84,4,9,3,2,0.4,0.4
2026-05-11T1300,3615A,79.9132,37.1137,和田地区,市环保局,颗粒物(PM10),158,266,125,81,38,117,117,93,93,4,13,1,5,0.4,0.4
2026-05-11T1300,2517A,108.0496,24.6957,河池市,市环保站,,32,32,32,16,20,34,34,22,22,8,12,5,6,0.7,0.7
2026-05-11T1300,4302A,108.0901,24.6945,河池市,上任中路54号,,37,37,30,12,15,26,26,20,20,16,15,6,7,1.1,1
2026-05-11T1300,1697A,114.6962,23.7538,河源市,东埔,细颗粒物(PM2.5),68,53,49,44,36,136,136,89,89,13,14,6,6,0.6,0.6
2026-05-11T1300,1698A,114.6895,23.7232,河源市,老城,细颗粒物(PM2.5),64,63,50,42,35,131,131,84,84,11,14,6,6,0.6,0.6
2026-05-11T1300,3374A,115.5562,35.089,菏泽市,定陶老年大学,,50,39,38,33,29,159,159,114,114,11,14,6,6,0.5,0.4
2026-05-11T1300,4114A,115.4239,35.2593,菏泽市,黄河路600号,细颗粒物(PM2.5),58,56,49,39,37,158,158,108,108,10,10,3,4,0.4,0.4
2026-05-11T1300,4115A,115.5025,35.2727,菏泽市,菏泽市人社局,细颗粒物(PM2.5),58,59,55,39,33,144,144,102,102,9,10,8,8,0.7,0.6
2026-05-11T1300,4184A,115.479691,35.244011,菏泽市,永昌路1号,臭氧1小时(O3_1h),55,33,31,23,30,164,164,117,117,7,11,6,7,0.6,0.6
2026-05-11T1300,4193A,115.471542,35.280012,菏泽市,长城路999号,细颗粒物(PM2.5),70,50,46,45,32,159,159,111,111,11,10,10,10,0.4,0.4
2026-05-11T1300,2514A,111.5264,24.4178,贺州市,环保小区,,27,27,34,18,23,86,86,40,40,8,14,6,6,0.5,0.5
2026-05-11T1300,2515A,111.561,24.4074,贺州市,政协大楼,,34,34,34,21,25,94,94,37,37,12,20,11,10,0.7,0.7
2026-05-11T1300,3534A,111.4744,24.455,贺州市,西湾,,23,20,41,16,25,71,71,41,41,6,16,9,10,0.7,0.7
2026-05-11T1300,2385A,114.17,35.9019,鹤壁市,市监测站,细颗粒物(PM2.5),72,60,57,46,45,169,169,109,109,11,14,11,9,0.8,0.8
2026-05-11T1300,2386A,114.2953,35.7512,鹤壁市,市交警支队,颗粒物(PM10),70,77,71,37,39,164,164,96,96,15,18,10,8,0.6,0.7
2026-05-11T1300,2387A,114.2877,35.7302,鹤壁市,迎宾馆,颗粒物(PM10),79,90,78,41,38,169,169,102,102,9,12,7,8,0.8,0.7
2026-05-11T1300,3474A,114.2616,35.6824,鹤壁市,大新区,颗粒物(PM10),81,93,74,46,43,167,167,109,109,10,14,8,9,0.8,0.6
2026-05-11T1300,3596A,114.1573,35.9607,鹤壁市,南山宾馆,颗粒物(PM10),71,79,82,37,47,168,168,114,114,8,12,11,11,0.9,1
2026-05-11T1300,2244A,130.2537,47.3416,鹤岗市,哈啤分公司,NA,NA,36,31,33,22,105,105,102,99,8,12,11,12,NA,0.7
2026-05-11T1300,2245A,130.2683,47.3087,鹤岗市,斯达机电,,44,44,38,26,23,116,116,109,108,10,9,11,11,0.8,0.7
2026-05-11T1300,2246A,130.3114,47.3388,鹤岗市,东山纸板厂,细颗粒物(PM2.5),64,61,51,42,29,118,118,109,109,10,12,11,12,0.8,0.7
2026-05-11T1300,2263A,127.4832,50.2524,黑河市,交通局,,28,20,43,3,16,88,88,83,78,6,8,7,6,0.2,0.2
2026-05-11T1300,2264A,127.5146,50.2339,黑河市,环保局,,28,10,63,3,16,89,89,76,76,5,11,5,11,0.3,0.2
2026-05-11T1300,1074A,115.6839,37.754,衡水市,电机北厂,臭氧1小时(O3_1h),70,74,68,33,28,176,176,130,130,8,17,10,8,0.5,0.4
2026-05-11T1300,1075A,115.6303,37.7318,衡水市,市监测站,颗粒物(PM10),71,79,71,26,25,175,175,132,132,9,15,9,8,0.4,0.4
2026-05-11T1300,3188A,115.6684,37.7216,衡水市,市城管局,臭氧1小时(O3_1h),75,52,67,25,27,180,180,131,131,9,16,9,7,0.4,0.3
2026-05-11T1300,3459A,115.599,37.5491,衡水市,地表水厂,臭氧1小时(O3_1h),90,86,70,25,19,192,192,128,128,4,15,9,7,0.4,0.4
2026-05-11T1300,2457A,112.6209,26.9268,衡阳市,衡阳化工总厂,,48,48,71,26,53,108,108,54,54,7,17,10,10,1.1,1.1
2026-05-11T1300,2458A,112.621,26.8957,衡阳市,珠晖区环保局,,43,43,62,20,44,108,108,54,54,6,21,10,11,0.7,0.7
2026-05-11T1300,2459A,112.628,26.8654,衡阳市,市委党校,颗粒物(PM10),58,60,66,27,52,104,104,54,54,4,13,13,13,0.8,1
2026-05-11T1300,2460A,112.6007,26.8977,衡阳市,市监测站,,30,29,57,12,46,93,93,50,50,9,17,12,11,1.3,1
2026-05-11T1300,2461A,112.5658,26.9013,衡阳市,真空机电公司,,33,33,52,19,40,94,94,50,50,4,18,8,12,0.8,1.2
2026-05-11T1300,3399A,112.6703,26.8817,衡阳市,师范学院,,36,36,66,19,50,102,102,56,56,2,8,10,10,0.7,0.8
2026-05-11T1300,3038A,103.3757,23.3679,红河哈尼族彝族自治州,州图书馆,,19,9,7,3,5,60,60,47,47,5,6,4,3,0.4,0.4
2026-05-11T1300,4154A,103.401,23.3561,红河哈尼族彝族自治州,蒙自市朝阳路,,20,11,12,7,6,64,64,45,45,2,3,6,6,0.4,0.4
2026-05-11T1300,1090A,111.6506,40.7517,呼和浩特市,呼市一监,NA,NA,NA,32,NA,16,NA,NA,114,NA,NA,19,NA,6,NA,0.3
2026-05-11T1300,1094A,111.7516,40.8369,呼和浩特市,如意水处理厂,,42,28,28,11,12,133,133,85,85,5,19,9,7,0.3,0.3
2026-05-11T1300,1095A,111.727798,40.806187,呼和浩特市,二十九中,,38,28,28,3,12,119,119,78,78,7,18,9,8,0.4,0.5
2026-05-11T1300,1097A,111.717,40.7617,呼和浩特市,化肥厂生活区,,40,24,32,13,16,127,127,88,88,6,18,8,7,0.2,0.4
2026-05-11T1300,3699A,111.6519,40.8389,呼和浩特市,海东办,NA,NA,NA,28,NA,15,124,124,79,79,8,26,8,4,0.3,0.3
2026-05-11T1300,4275A,111.591512,40.827312,呼和浩特市,成吉思汗西街8号,,39,39,30,10,9,123,123,75,75,9,24,7,6,0.4,0.3
2026-05-11T1300,4276A,111.6597,40.8077,呼和浩特市,公园东路75号,,39,36,30,3,9,123,123,88,88,10,19,7,5,0.4,0.5
2026-05-11T1300,4277A,111.5427,40.7846,呼和浩特市,金海路35号,,44,44,35,3,11,119,119,72,72,12,24,7,5,0.3,0.3
2026-05-11T1300,3061A,119.7511,49.1576,呼伦贝尔市,国华电力东,,41,41,27,11,11,102,102,73,73,6,7,5,5,0.3,0.3
2026-05-11T1300,4279A,119.7569,49.2222,呼伦贝尔市,伊敏大街东7号,,32,30,27,3,11,101,101,70,70,7,9,6,6,0.4,0.4
2026-05-11T1300,1250A,120.075,30.867,湖州市,城西水厂,NA,NA,37,45,24,26,185,185,96,96,11,25,NA,7,NA,0.3
2026-05-11T1300,2873A,120.083,30.8929,湖州市,仁皇山新区,臭氧1小时(O3_1h),70,43,44,31,27,176,176,89,89,17,24,10,7,0.7,0.6
2026-05-11T1300,2907A,120.1846,30.8592,湖州市,吴兴区站,,47,26,46,15,26,148,148,88,88,5,21,6,8,0.4,0.4
2026-05-11T1300,3562A,120.4146,30.8538,湖州市,南浔区站,"细颗粒物(PM2.5),臭氧1小时(O3_1h)",58,50,41,39,29,166,166,98,98,8,17,9,8,0.7,0.6
2026-05-11T1300,1607A,120.904878,40.721091,葫芦岛市,龙港区,,42,33,41,16,28,132,132,104,103,9,16,9,10,0.5,0.6
2026-05-11T1300,1608A,120.8382,40.7521,葫芦岛市,化工街,,48,48,64,26,45,118,118,82,82,14,40,12,14,0.4,0.7
2026-05-11T1300,1609A,120.8339,40.7078,葫芦岛市,新区,,43,NA,43,30,42,119,119,89,85,8,24,9,10,0.5,0.8
2026-05-11T1300,1610A,120.8697,40.7679,葫芦岛市,东城区,,50,50,45,24,49,127,127,85,85,12,41,9,10,0.5,0.8
2026-05-11T1300,2483A,109.9297,27.5383,怀化市,河西地税局,,42,35,44,29,37,93,93,50,50,5,13,9,8,/,/
2026-05-11T1300,2484A,109.9783,27.5342,怀化市,市四医院,,45,45,53,31,40,91,91,50,50,7,17,9,8,0.5,0.5
2026-05-11T1300,2485A,109.9971,27.5579,怀化市,监测楼,颗粒物(PM10),53,53,45,31,34,87,87,44,44,5,14,9,7,0.4,0.7
2026-05-11T1300,1210A,119.0566,33.5991,淮安市,钵池山,,48,39,37,21,25,152,152,111,111,8,16,10,10,0.4,0.4
2026-05-11T1300,1211A,119.0083,33.578,淮安市,北京南路,,47,44,39,19,25,149,149,105,105,8,21,8,9,0.4,0.4
2026-05-11T1300,1212A,118.9938,33.6083,淮安市,市监测站,臭氧1小时(O3_1h),59,39,35,22,29,167,167,116,116,9,22,8,12,0.5,1
2026-05-11T1300,1213A,119.135,33.5038,淮安市,楚州区监测站,,49,49,40,26,25,146,146,99,99,6,20,7,6,0.5,0.4
2026-05-11T1300,3426A,118.8757,33.2897,淮安市,新华书店,,44,44,37,30,24,138,138,100,100,7,16,8,8,0.9,0.8
2026-05-11T1300,4092A,119.119691,33.550006,淮安市,枚皋中路89号,颗粒物(PM10),55,57,45,20,26,146,146,109,109,3,13,8,9,0.6,0.7
2026-05-11T1300,4206A,119.028838,33.631911,淮安市,承德北路606号,,46,44,38,26,24,146,146,104,104,8,15,8,10,0.5,0.6
2026-05-11T1300,2282A,116.8005,33.9749,淮北市,监测站,颗粒物(PM10),93,110,63,44,58,143,143,112,112,10,16,9,8,0.4,0.5
2026-05-11T1300,2283A,116.8094,33.9008,淮北市,烈山区政府,颗粒物(PM10),60,63,64,18,29,139,139,106,106,6,14,9,8,0.3,0.4
2026-05-11T1300,4017A,116.7926,33.9534,淮北市,市博物馆,颗粒物(PM10),140,224,76,29,30,140,140,109,109,8,13,7,7,0.5,0.5
2026-05-11T1300,4100A,116.8322,33.9884,淮北市,杜集区第一实验学校,颗粒物(PM10),59,62,59,25,26,151,151,117,117,6,12,8,8,0.6,0.6
2026-05-11T1300,2277A,116.8304,32.7726,淮南市,潘集区政府,,45,36,44,13,31,143,143,93,93,8,21,7,10,0.4,0.5
2026-05-11T1300,2279A,116.8569,32.5949,淮南市,谢家集区政府,,48,31,37,17,27,151,151,94,94,5,14,9,9,0.3,0.3
2026-05-11T1300,2280A,116.8279,32.6333,淮南市,八公山区政府,,47,38,46,15,27,149,149,96,96,5,10,4,4,0.3,0.3
2026-05-11T1300,2894A,117.0561,32.6536,淮南市,经济技术开发区消防队,,42,31,38,13,28,134,134,86,86,8,17,8,8,0.4,0.4
2026-05-11T1300,3329A,117.011,32.5891,淮南市,山南新区,,45,26,43,13,28,141,141,92,92,8,15,9,9,0.3,0.3
2026-05-11T1300,4209A,117.003137,32.644456,淮南市,国庆中路369号,,41,32,46,12,27,131,131,88,88,3,10,7,7,0.2,0.2
2026-05-11T1300,2446A,114.9021,30.474,黄冈市,职工中心,,41,22,54,20,41,131,131,92,92,2,12,5,7,0.5,0.8
2026-05-11T1300,2929A,114.8858,30.4519,黄冈市,红卫路,,41,28,51,25,40,131,131,93,93,2,12,7,9,0.0,0.3
2026-05-11T1300,3398A,114.9134,30.4446,黄冈市,市林业局,,40,NA,59,26,50,126,126,93,93,2,15,4,4,0.6,0.5
2026-05-11T1300,2672A,102.02,35.5101,黄南藏族自治州,同仁县隆务镇,,40,31,35,9,14,127,127,99,99,1,2,10,10,0.1,0.2
2026-05-11T1300,2295A,118.2905,29.6965,黄山市,延安路89号,,29,11,15,3,8,92,92,57,57,1,6,5,5,0.3,0.3
2026-05-11T1300,2297A,118.1369,30.2755,黄山市,黄山区政府5号楼,,32,9,11,6,9,101,101,60,60,3,4,3,3,0.3,0.3
2026-05-11T1300,4210A,118.335445,29.720283,黄山市,滨江东路7-2号,,32,17,26,3,8,102,102,60,60,2,9,/,/,/,/
2026-05-11T1300,2423A,115.0547,30.2332,黄石市,沈家营,颗粒物(PM10),60,64,73,25,38,157,157,84,84,6,24,4,10,0.5,0.6
2026-05-11T1300,2426A,114.899,30.211,黄石市,铁山,,49,39,54,24,35,154,154,90,90,5,12,10,11,1.0,1
2026-05-11T1300,2427A,115.0259,30.2108,黄石市,团城山,臭氧1小时(O3_1h),54,53,66,29,39,163,163,83,83,4,21,4,9,0.6,0.8
2026-05-11T1300,3149A,115.0174,30.1591,黄石市,笔架山北路,,47,41,83,20,40,150,150,83,83,10,16,12,16,0.5,0.6
2026-05-11T1300,4185A,115.078022,30.21118,黄石市,磁湖东路29号,细颗粒物(PM2.5),54,44,76,37,44,158,158,88,88,5,28,4,6,0.3,0.6
2026-05-11T1300,1392A,114.4181,23.0528,惠州市,河南岸金山湖子站,细颗粒物(PM2.5),76,70,55,48,34,151,151,76,76,18,19,7,7,0.8,0.7
2026-05-11T1300,1393A,114.4055,23.0824,惠州市,下埔横江三路子站,"颗粒物(PM10),细颗粒物(PM2.5)",74,83,66,47,36,157,157,82,82,14,18,6,6,0.8,0.8
2026-05-11T1300,1395A,114.4645,22.7832,惠州市,惠阳区承修路船湖子站,细颗粒物(PM2.5),70,66,54,45,28,149,149,80,80,16,16,6,6,0.7,0.6
2026-05-11T1300,1396A,114.5316,22.7423,惠州市,大亚湾管委会子站,颗粒物(PM10),62,66,54,38,26,142,142,78,78,13,21,5,5,0.6,0.5
2026-05-11T1300,3314A,114.4334,22.8134,惠州市,惠阳秋长,细颗粒物(PM2.5),56,46,51,38,31,148,148,78,78,18,22,/,/,/,/
2026-05-11T1300,3452A,114.6521,22.7755,惠州市,大亚湾霞涌,颗粒物(PM10),53,54,33,18,19,135,135,86,86,8,11,/,/,/,/
2026-05-11T1300,4300A,114.4089,23.1147,惠州市,文华一路1号,细颗粒物(PM2.5),70,69,56,45,35,158,158,86,86,19,18,/,/,/,/
2026-05-11T1300,2240A,130.9618,45.2926,鸡西市,环保局,NA,NA,30,32,NA,17,139,139,120,120,8,12,7,8,0.3,0.3
2026-05-11T1300,2243A,130.9294,45.2959,鸡西市,第一中学,,42,27,28,14,16,133,133,115,115,4,5,8,7,0.3,0.3
2026-05-11T1300,3707A,131.0069,45.2988,鸡西市,欧美日汽修厂,,43,24,18,15,19,135,135,105,105,4,9,6,6,0.2,0.2
2026-05-11T1300,2367A,114.9753,27.0803,吉安市,红声器材厂,,45,45,50,27,27,126,126,67,67,8,23,7,8,0.4,0.5
2026-05-11T1300,2369A,114.9903,27.1313,吉安市,市环境监测站,,43,42,43,19,28,137,137,67,67,8,19,12,12,/,/
2026-05-11T1300,2370A,115.009527,27.096792,吉安市,青原区法院,,40,39,42,28,23,123,123,63,63,8,23,7,7,0.4,0.5
2026-05-11T1300,1772A,126.54,43.8622,吉林市,哈达湾,,45,34,28,22,21,143,143,115,115,6,12,7,6,0.6,0.5
2026-05-11T1300,1773A,126.5843,43.8358,吉林市,东局子,,47,32,24,28,22,150,150,121,121,6,8,5,5,0.8,0.7
2026-05-11T1300,1774A,126.5051,43.8243,吉林市,电力学院,臭氧1小时(O3_1h),55,30,30,21,21,164,164,130,130,7,16,5,5,0.7,0.7
2026-05-11T1300,1775A,126.6133,43.8971,吉林市,江北,,46,34,29,26,22,147,147,120,120,10,11,11,10,0.7,0.7
2026-05-11T1300,1776A,126.5549,43.8304,吉林市,江南公园,,45,32,26,20,19,144,144,114,114,6,11,7,6,0.5,0.5
2026-05-11T1300,2868A,126.4737,43.953,吉林市,九站,,50,41,31,27,25,159,159,133,133,6,13,7,8,0.5,0.5
2026-05-11T1300,1299A,116.9866,36.6118,济南市,科干所,臭氧1小时(O3_1h),58,36,39,19,24,166,166,130,130,9,12,7,7,0.8,0.6
2026-05-11T1300,1300A,116.9379,36.6652,济南市,农科所,颗粒物(PM10),57,59,61,16,26,152,152,101,101,8,21,4,7,0.3,0.3
2026-05-11T1300,1301A,117.1265,36.6736,济南市,开发区,臭氧1小时(O3_1h),65,63,57,37,26,172,172,116,116,15,13,7,7,0.5,0.5
2026-05-11T1300,1303A,117.0616,36.6865,济南市,省种子仓库,臭氧1小时(O3_1h),97,83,68,36,30,197,197,117,117,16,24,7,6,0.4,0.4
2026-05-11T1300,1304A,116.9495185,36.644937,济南市,机床二厂,,50,46,57,21,26,158,158,121,121,10,17,7,7,0.5,0.5
2026-05-11T1300,1305A,117.0496,36.6629,济南市,市监测站,臭氧1小时(O3_1h),77,61,55,26,26,181,181,121,121,15,19,5,5,0.5,0.5
2026-05-11T1300,1306A,116.7674,36.5458,济南市,长清党校,,45,34,37,13,18,141,141,115,115,4,9,6,7,0.7,0.6
2026-05-11T1300,1961A,117.5323,36.6865,济南市,东山小学,臭氧1小时(O3_1h),92,73,63,30,29,193,193,124,124,12,19,8,6,0.4,0.4
2026-05-11T1300,3059A,117.7181,36.205,济南市,泰兴公司,臭氧1小时(O3_1h),75,56,63,16,4,180,180,119,119,10,24,18,14,0.9,0.7
2026-05-11T1300,3064A,117.6861,36.2172,济南市,莱芜战役纪念馆,臭氧1小时(O3_1h),79,58,61,17,27,183,183,126,126,13,21,20,12,0.5,0.5
2026-05-11T1300,3494A,117.1673,36.9782,济南市,济阳区政府,颗粒物(PM10),62,66,85,21,40,167,167,119,119,14,30,10,10,0.6,0.7
2026-05-11T1300,3495A,117.1168,36.6299,济南市,锦屏中学,颗粒物(PM10),58,61,47,27,23,152,152,107,107,12,10,8,7,0.3,0.3
2026-05-11T1300,4108A,117.7107,36.2385,济南市,山财大街5号,臭氧1小时(O3_1h),75,51,57,19,31,180,180,124,124,9,18,11,10,0.6,0.7
2026-05-11T1300,4109A,116.9744,36.6889,济南市,无影山路12号,臭氧1小时(O3_1h),57,51,57,23,27,165,165,112,112,14,23,6,6,0.7,0.7
2026-05-11T1300,1653A,116.6229,35.4288,济宁市,火炬城,颗粒物(PM10),57,59,53,17,24,143,143,104,104,7,9,5,5,0.7,0.6
2026-05-11T1300,3500A,116.5808,35.3703,济宁市,北湖一中,颗粒物(PM10),51,51,61,31,27,156,156,117,117,10,12,9,9,0.5,0.5
2026-05-11T1300,3501A,116.8251,35.5592,济宁市,服务中心,,41,40,47,19,27,131,131,101,101,5,13,2,3,0.5,0.5
2026-05-11T1300,3678A,116.5907,35.4054,济宁市,市第七中学,臭氧1小时(O3_1h),57,48,62,26,26,165,165,121,121,10,13,8,8,0.4,0.4
2026-05-11T1300,4111A,116.6075,35.4566,济宁市,任和路,臭氧1小时(O3_1h),68,57,64,28,27,174,174,125,125,7,9,4,4,0.5,0.5
2026-05-11T1300,4112A,116.5648,35.3921,济宁市,文体南路1号,,48,44,56,15,25,153,153,113,113,4,8,6,6,0.6,0.5
2026-05-11T1300,4122A,112.6071,35.1015,济源市,市委党校,颗粒物(PM10),72,80,85,20,17,156,156,100,100,11,18,10,12,0.5,0.6
2026-05-11T1300,4123A,112.596,35.0702,济源市,沁园中路1号,颗粒物(PM10),55,56,69,31,37,152,152,100,100,10,17,5,7,0.6,0.8
2026-05-11T1300,2255A,130.2749,46.8028,佳木斯市,佳纺,,44,44,36,25,22,132,132,120,120,8,7,3,3,0.4,0.3
2026-05-11T1300,2257A,130.3258,46.7975,佳木斯市,环保局,,42,41,36,24,28,134,134,120,120,6,6,4,3,0.6,0.4
2026-05-11T1300,4285A,130.363,46.806,佳木斯市,顺和街,,42,40,36,29,25,132,132,118,118,9,9,2,1,0.5,0.4
2026-05-11T1300,4286A,130.3952,46.8268,佳木斯市,长安路196号,,43,42,38,25,21,137,137,125,125,6,6,2,2,0.4,0.4
2026-05-11T1300,1252A,120.7439,30.778,嘉兴市,清河小学,臭氧1小时(O3_1h),63,43,40,25,21,170,170,97,97,13,20,9,8,0.4,0.4
2026-05-11T1300,1253A,120.7261,30.7477,嘉兴市,嘉兴学院,臭氧1小时(O3_1h),70,44,41,26,21,176,176,98,98,16,20,8,7,0.5,0.5
2026-05-11T1300,2872A,120.7845,30.7524,嘉兴市,南湖区残联,臭氧1小时(O3_1h),90,38,31,26,20,192,192,112,112,8,15,8,7,0.4,0.3
2026-05-11T1300,3407A,120.6915,30.7741,嘉兴市,秀洲住建,臭氧1小时(O3_1h),89,45,37,23,18,191,191,104,104,10,21,8,8,0.6,0.5
2026-05-11T1300,1945A,98.291,39.7705,嘉峪关市,气象局,颗粒物(PM10),79,90,103,34,42,121,121,94,94,3,9,8,10,0.3,0.3
2026-05-11T1300,2884A,98.2672,39.7978,嘉峪关市,酒钢宾馆,NA,NA,88,115,NA,42,118,118,93,93,2,5,7,11,0.3,0.2
2026-05-11T1300,3248A,98.2644,39.7723,嘉峪关市,雄关区,颗粒物(PM10),70,77,92,34,41,116,116,90,90,5,11,4,5,0.2,0.2
2026-05-11T1300,1383A,113.1063,22.6058,江门市,北街,颗粒物(PM10),51,51,39,20,25,125,125,62,62,14,19,/,/,/,/
2026-05-11T1300,1384A,113.073,22.5835,江门市,西区,,34,25,40,20,26,107,107,60,60,15,31,/,/,/,/
2026-05-11T1300,1385A,113.0218,22.531,江门市,圭峰西,,43,43,42,16,25,94,94,61,61,8,16,/,/,/,/
2026-05-11T1300,1386A,113.0826,22.5947,江门市,东湖,,36,28,41,16,27,114,114,61,61,13,23,6,6,0.5,0.6
2026-05-11T1300,3311A,113.1077,22.5647,江门市,江海富民,颗粒物(PM10),62,66,60,21,26,123,123,72,72,13,22,/,/,0.5,0.5
2026-05-11T1300,3449A,113.0496,22.4669,江门市,新会银湖,,42,42,37,18,21,112,112,72,72,12,23,7,7,0.5,0.5
2026-05-11T1300,3335A,113.3137,35.2643,焦作市,马村街道办,颗粒物(PM10),66,72,77,29,31,152,152,110,110,8,13,13,12,0.7,0.6
2026-05-11T1300,3336A,113.2464,35.2374,焦作市,焦作技师学院,颗粒物(PM10),72,80,74,37,32,155,155,111,111,13,13,12,10,0.9,0.8
2026-05-11T1300,3477A,113.1656,35.2536,焦作市,中站许衡医院,颗粒物(PM10),68,75,58,29,32,162,162,116,116,8,11,14,12,0.9,0.7
2026-05-11T1300,3981A,113.2456,35.18,焦作市,原李万街道办,,50,50,69,34,34,148,148,98,98,7,12,11,12,0.6,0.5
2026-05-11T1300,4264A,113.234,35.219,焦作市,新安路1731号,颗粒物(PM10),53,53,63,32,25,160,160,108,108,9,12,14,12,0.8,0.6
2026-05-11T1300,4295A,113.2722,35.2121,焦作市,人民路3066号,颗粒物(PM10),58,60,68,34,34,164,164,113,113,12,11,12,9,0.8,0.7
2026-05-11T1300,1708A,116.3701,23.5345,揭阳市,新兴,,41,41,48,20,30,107,107,83,83,11,18,6,8,0.7,0.8
2026-05-11T1300,1709A,116.3261,23.5442,揭阳市,西马,,39,39,50,16,31,96,96,79,77,8,17,5,6,0.7,0.8
2026-05-11T1300,1710A,116.361,23.5627,揭阳市,东兴,,49,49,47,17,30,101,101,83,83,5,14,2,5,/,/
2026-05-11T1300,1711A,116.4151,23.5295,揭阳市,渔湖,颗粒物(PM10),51,51,46,21,30,122,122,90,90,12,18,4,6,/,/
2026-05-11T1300,3320A,116.4028,23.5699,揭阳市,曲溪,,37,25,45,17,31,116,116,90,90,6,17,2,8,0.7,0.7
2026-05-11T1300,1944A,102.1691,38.5166,金昌市,天庆家园,颗粒物(PM10),58,61,94,27,35,132,132,112,112,4,7,9,9,0.4,0.7
2026-05-11T1300,4022A,102.1648,38.5369,金昌市,金川区人防中心,颗粒物(PM10),60,63,98,30,39,131,131,100,100,4,8,15,6,0.3,0.3
2026-05-11T1300,4239A,102.193042,38.531887,金昌市,长春路96号,颗粒物(PM10),67,73,108,34,55,125,125,104,104,2,5,24,10,0.5,0.4
2026-05-11T1300,1262A,119.6478,29.0773,金华市,十五中,NA,NA,NA,36,23,22,117,117,70,70,14,18,4,2,NA,0.8
2026-05-11T1300,1263A,119.6859,29.1032,金华市,监测站,,39,27,33,19,20,124,124,76,76,6,11,5,4,0.6,0.6
2026-05-11T1300,3659A,119.656,29.1132,金华市,气象局,,35,31,35,18,22,112,112,66,66,9,16,6,6,0.6,0.6
2026-05-11T1300,1767A,121.1114,41.0879,锦州市,南山,颗粒物(PM10),53,53,44,27,34,136,136,108,108,16,24,6,7,0.5,0.6
2026-05-11T1300,1768A,121.060361,40.842794,锦州市,开发区,颗粒物(PM10),52,52,51,29,31,136,136,105,102,11,34,6,7,0.5,0.6
2026-05-11T1300,1769A,121.1836,41.1118,锦州市,百股街道,颗粒物(PM10),51,51,50,25,39,138,138,110,110,11,22,6,9,0.5,0.7
2026-05-11T1300,1770A,121.1176,41.1224,锦州市,天安街道,颗粒物(PM10),52,52,52,25,38,132,132,111,111,16,26,5,6,0.4,0.6
2026-05-11T1300,1771A,121.1303,41.1385,锦州市,北湖公园,颗粒物(PM10),55,56,54,24,37,133,133,110,110,13,21,7,9,0.4,0.6
2026-05-11T1300,2160A,112.8496,35.5051,晋城市,自来水公司,颗粒物(PM10),70,78,72,7,22,166,166,122,122,5,13,6,7,0.3,0.5
2026-05-11T1300,2162A,112.8509,35.4886,晋城市,市环保局,,49,49,79,34,29,151,151,114,114,5,13,6,6,0.3,0.5
2026-05-11T1300,3620A,112.8258,35.4804,晋城市,泽州一中,颗粒物(PM10),58,60,67,18,27,162,162,116,116,8,14,6,6,0.6,0.7
2026-05-11T1300,4078A,112.8246,35.5152,晋城市,前书院路,颗粒物(PM10),58,60,74,35,27,161,161,108,108,12,18,5,5,0.6,0.8
2026-05-11T1300,4079A,112.8864,35.4773,晋城市,祥云街666号,颗粒物(PM10),53,53,70,29,25,160,160,118,118,8,14,7,7,0.5,0.7
2026-05-11T1300,2174A,112.6992,37.6984,晋中市,榆次区政府,,48,48,86,20,30,143,143,109,109,14,16,6,7,0,0.5
2026-05-11T1300,2865A,112.7195,37.683,晋中市,榆次三中,颗粒物(PM10),58,61,97,8,25,153,153,122,122,3,11,5,6,0.2,0.3
2026-05-11T1300,4080A,112.7375,37.7215,晋中市,广安街188号,,42,25,74,13,22,133,133,109,109,3,12,4,6,0.1,0.2
2026-05-11T1300,4200A,112.7478,37.6954,晋中市,迎宾街26号,,48,48,89,19,25,150,150,120,120,7,15,4,6,0.3,0.4
2026-05-11T1300,2439A,112.2012,31.048,荆门市,竹园小学,细颗粒物(PM2.5),80,62,74,50,59,135,135,78,78,11,15,4,4,0.5,0.5
2026-05-11T1300,2440A,112.1968,30.9892,荆门市,掇刀,细颗粒物(PM2.5),88,77,74,54,59,136,136,81,81,9,14,12,11,0.6,0.7
2026-05-11T1300,3012A,112.1849,31.0361,荆门市,西山林语,细颗粒物(PM2.5),84,74,86,52,54,130,130,75,75,9,12,9,8,0.7,0.7
2026-05-11T1300,3547A,112.1631,31.0134,荆门市,龙泉中学南校,颗粒物(PM10),59,62,67,32,48,130,130,80,80,8,13,7,6,0.7,0.8
2026-05-11T1300,4124A,112.2213,31.0654,荆门市,新台西路6号,细颗粒物(PM2.5),84,63,77,52,60,142,142,81,81,10,16,10,10,0.7,0.8
2026-05-11T1300,1844A,112.2493,30.3198,荆州市,市图书馆,,49,36,50,34,43,118,118,77,77,6,13,7,8,0.4,0.5
2026-05-11T1300,1845A,112.2009,30.3543,荆州市,市委党校,,36,34,52,25,42,90,90,58,58,9,16,8,8,0.5,0.6
2026-05-11T1300,3194A,112.2749,30.3124,荆州市,管委会,,35,26,53,24,47,108,108,71,71,6,12,9,9,0.4,0.6
2026-05-11T1300,4268A,112.1722,30.3366,荆州市,学苑路85号,,45,32,48,31,44,110,110,70,70,3,11,3,4,0.5,0.4
2026-05-11T1300,2343A,117.2114,29.2931,景德镇市,老干部活动中心,,42,35,28,29,22,110,110,47,47,10,12,17,6,0.7,0.7
2026-05-11T1300,2344A,117.1893,29.2789,景德镇市,兽医站,,46,41,31,32,23,114,114,50,50,10,14,4,4,0.7,0.7
2026-05-11T1300,2346A,117.246,29.2958,景德镇市,陶研所,细颗粒物(PM2.5),54,NA,24,37,17,111,111,49,49,23,13,18,5,1.3,0.9
2026-05-11T1300,4289A,117.154766,29.256967,景德镇市,青少年活动中心,,33,32,32,23,23,100,100,41,41,9,17,18,14,/,/
2026-05-11T1300,1803A,115.9873,29.6816,九江市,十里,NA,NA,NA,40,13,25,120,120,68,68,9,21,7,7,0.7,0.8
2026-05-11T1300,1804A,115.9583,29.7047,九江市,茅山头,,39,22,39,14,33,123,123,84,84,7,16,3,3,0.6,0.7
2026-05-11T1300,1805A,115.9877,29.7295,九江市,西园,,41,39,38,28,26,131,131,82,82,23,26,7,6,0.7,0.7
2026-05-11T1300,1808A,115.9112,29.6038,九江市,综合工业园,,42,42,40,22,31,114,114,75,75,16,24,10,10,0.8,0.7
2026-05-11T1300,3190A,116.0254,29.6995,九江市,外国语学校,颗粒物(PM10),53,54,36,33,30,115,115,66,66,11,17,10,8,0.7,0.6
2026-05-11T1300,4253A,116.010205,29.659402,九江市,莲花大道8号,,47,47,32,23,24,106,106,67,67,11,13,8,6,0.6,0.6
2026-05-11T1300,4240A,98.495752,39.733935,酒泉市,玉门东路5号,颗粒物(PM10),83,95,113,44,52,96,96,76,70,4,6,4,4,0.2,0.2
2026-05-11T1300,4241A,98.5099,39.7506,酒泉市,北大街108号,颗粒物(PM10),86,100,116,33,45,93,93,68,64,3,7,8,8,0.2,0.2
2026-05-11T1300,2698A,76.0071,39.466,喀什地区,巡警大队,颗粒物(PM10),95,113,133,3,48,99,99,90,90,9,19,4,4,0.2,0.3
2026-05-11T1300,2699A,75.9756,39.4693,喀什地区,吾办,颗粒物(PM10),75,85,131,14,53,100,100,90,88,2,12,5,6,0.4,0.5
2026-05-11T1300,4027A,75.9485,39.4688,喀什地区,老干局,颗粒物(PM10),90,105,124,3,35,99,99,83,83,2,10,4,4,0.3,0.4
2026-05-11T1300,1824A,114.3389,34.778,开封市,肿瘤医院,颗粒物(PM10),104,130,64,62,40,145,145,97,97,14,19,9,8,0.8,0.7
2026-05-11T1300,1826A,114.2884,34.7966,开封市,世纪星幼儿园,颗粒物(PM10),65,70,57,34,36,134,134,90,90,11,16,9,8,0.6,0.5
2026-05-11T1300,3147A,114.3434,34.8101,开封市,龙亭公园,颗粒物(PM10),71,79,70,38,35,136,136,96,96,14,18,9,9,0.6,0.6
2026-05-11T1300,3210A,114.3645,34.7955,开封市,汴京公园,细颗粒物(PM2.5),76,74,70,48,41,145,145,94,94,7,11,7,6,0.7,0.7
2026-05-11T1300,3473A,114.2485,34.8306,开封市,技师学院,颗粒物(PM10),67,73,64,31,28,138,138,91,91,6,10,8,7,0.9,0.8
2026-05-11T1300,3592A,114.4518,34.7503,开封市,祥符区生态环境局,细颗粒物(PM2.5),101,78,64,61,42,140,140,92,92,12,17,11,10,0.7,0.7
2026-05-11T1300,1951A,84.886,45.6029,克拉玛依市,长征新村,,27,15,34,8,15,84,84,104,94,3,2,6,6,0.3,0.4
2026-05-11T1300,1952A,84.8894,45.5827,克拉玛依市,南林小区,,27,6,34,3,8,85,85,106,90,4,3,2,1,0.2,0.1
2026-05-11T1300,1954A,84.896,44.3328,克拉玛依市,独山子区,,30,6,47,3,30,96,96,93,93,5,5,6,6,0.4,0.4
2026-05-11T1300,1955A,85.6888,46.0909,克拉玛依市,乌尔禾区商贸楼,,30,24,42,10,23,96,96,95,95,5,5,4,4,0.1,0.1
2026-05-11T1300,3612A,85.1045,45.6895,克拉玛依市,白碱滩区新站,,30,16,30,3,13,96,96,117,105,6,3,10,9,0.2,0.2
2026-05-11T1300,2697A,76.1457,39.7143,克孜勒苏柯尔克孜自治州,市人民政府,颗粒物(PM10),63,68,106,8,35,103,103,104,97,4,8,5,7,0.1,0.1
2026-05-11T1300,3665A,76.1654,39.7157,克孜勒苏柯尔克孜自治州,克州文化中心,颗粒物(PM10),80,92,102,10,45,104,104,110,104,1,5,5,7,0.1,0.2
2026-05-11T1300,1450A,102.8203,24.889,昆明市,呈贡新区,,18,14,25,12,20,57,57,32,32,9,29,2,2,0.6,0.6
2026-05-11T1300,1452A,102.7253,25.0904,昆明市,龙泉镇,,28,NA,25,19,20,37,37,24,24,17,11,4,4,0.6,0.5
2026-05-11T1300,1453A,102.7267,25.0378,昆明市,东风东路,,26,26,28,18,21,50,50,29,29,25,25,2,2,0.6,0.6
2026-05-11T1300,1454A,102.6744,25.0671,昆明市,金鼎山,,34,34,33,23,20,46,46,29,29,31,21,3,3,0.7,0.6
2026-05-11T1300,1455A,102.6643,25.0401,昆明市,碧鸡广场,,28,26,27,19,20,42,42,27,27,32,25,3,4,0.7,0.8
2026-05-11T1300,3179A,102.7491,25.012,昆明市,官渡区博物馆,,26,20,27,18,19,42,42,22,22,26,33,3,3,0.8,0.8
2026-05-11T1300,3375A,102.8016,24.8336,昆明市,青年创业园,,22,14,21,10,13,68,68,41,41,5,16,4,4,0.6,0.6
2026-05-11T1300,3550A,102.8,24.9787,昆明市,昆明学院,,32,32,42,22,24,44,44,26,26,27,31,5,4,0.7,0.6
2026-05-11T1300,3551A,102.5969,24.6738,昆明市,晋宁区生态环境分局,,21,14,24,12,19,67,67,46,46,10,19,2,1,0.5,0.6
2026-05-11T1300,3552A,102.6673,24.9861,昆明市,云天化总部,,22,20,29,15,20,60,60,28,28,18,28,4,4,0.5,0.6
2026-05-11T1300,1456A,91.132,29.6515,拉萨市,八廓街,,46,16,17,6,9,145,145,121,121,4,8,5,5,0.2,0.2
2026-05-11T1300,1457A,91.1221,29.6748,拉萨市,市环保局,,42,15,19,6,7,134,134,108,108,8,13,4,5,0.4,0.5
2026-05-11T1300,1458A,91.0874,29.6476,拉萨市,区监测站,,43,16,14,3,7,135,135,108,108,8,13,5,5,0.4,0.4
2026-05-11T1300,1459A,91.1774,29.6541,拉萨市,西藏大学,,42,15,16,10,11,133,133,118,118,10,12,5,5,0.4,0.4
2026-05-11T1300,1460A,90.9798,29.6586,拉萨市,区辐射站,,42,13,18,3,9,133,133,89,89,6,18,5,6,0.2,0.3
2026-05-11T1300,1461A,91.0831,29.6292,拉萨市,拉萨火车站,,45,24,18,12,12,143,143,115,115,7,10,4,4,0.4,0.4
2026-05-11T1300,2520A,109.2203,23.7252,来宾市,来宾技工学校,,30,27,28,12,21,95,95,60,60,4,8,5,6,0.7,0.7
2026-05-11T1300,3535A,109.1781,23.7293,来宾市,兴宾区政府,,34,30,35,14,21,106,106,58,58,5,11,7,7,0.5,0.5
2026-05-11T1300,4002A,109.2312,23.7428,来宾市,中南小学,,36,36,29,22,24,102,102,56,56,8,15,6,6,0.6,0.5
2026-05-11T1300,1479A,103.8309,36.0467,兰州市,铁路设计院,颗粒物(PM10),72,80,94,39,43,135,135,52,52,19,43,9,9,0.6,0.8
2026-05-11T1300,3241A,103.7439,36.0841,兰州市,百合公园,NA,NA,NA,NA,NA,NA,NA,NA,NA,NA,NA,NA,NA,NA,NA,NA
2026-05-11T1300,3242A,103.9613,35.9985,兰州市,和平,颗粒物(PM10),82,94,90,32,37,137,137,96,96,15,11,13,11,0.5,0.4
2026-05-11T1300,4236A,103.629272,36.093822,兰州市,庄浪东路808号,颗粒物(PM10),64,69,86,29,36,166,166,90,90,9,27,12,15,0.3,0.3
2026-05-11T1300,4237A,103.7251,36.104344,兰州市,安宁西路88号,颗粒物(PM10),72,80,100,32,39,171,171,78,78,12,38,14,11,0.3,0.3
2026-05-11T1300,4238A,103.846982,36.067567,兰州市,北滨河东路1号,颗粒物(PM10),59,62,86,27,37,135,135,49,49,19,51,13,12,0.6,0.7
2026-05-11T1300,1067A,116.6712,39.5109,廊坊市,药材公司,臭氧1小时(O3_1h),78,65,67,28,41,182,182,136,136,8,12,5,4,0.5,0.6
2026-05-11T1300,1068A,116.7215,39.5592,廊坊市,开发区,臭氧1小时(O3_1h),84,71,69,34,43,187,187,136,136,10,16,4,3,0.5,0.5
2026-05-11T1300,1070A,116.7246,39.5273,廊坊市,北华航天学院,臭氧1小时(O3_1h),82,71,60,50,44,185,185,140,140,5,16,5,4,0.7,0.6
2026-05-11T1300,2919A,116.7022,39.5454,廊坊市,河北工业大学,臭氧1小时(O3_1h),85,49,60,30,36,188,188,138,138,8,13,5,5,0.5,0.5
2026-05-11T1300,2536A,103.7629,29.5844,乐山市,牛耳桥,细颗粒物(PM2.5),96,75,49,58,32,72,72,63,56,25,19,11,7,1.0,0.7
2026-05-11T1300,2537A,103.7501,29.6002,乐山市,市第三水厂,细颗粒物(PM2.5),92,77,51,56,31,71,71,49,49,22,22,10,6,1.0,0.7
2026-05-11T1300,2538A,103.7571,29.5664,乐山市,市监测站,细颗粒物(PM2.5),107,101,56,67,32,57,57,53,50,30,18,14,7,1.2,0.7
2026-05-11T1300,3361A,103.7313,29.563,乐山市,理工大学,细颗粒物(PM2.5),98,68,58,59,33,70,70,47,47,28,20,11,9,0.9,0.6
2026-05-11T1300,2599A,100.2497,26.8802,丽江市,丽江古城,,29,17,31,10,20,90,90,75,75,9,10,6,6,0.5,0.5
2026-05-11T1300,2600A,100.2203,26.8906,丽江市,市中心,,30,6,19,3,16,93,93,82,82,11,10,5,5,0.5,0.5
2026-05-11T1300,1267A,119.9141,28.4513,丽水市,监测站大楼,,35,20,29,8,14,109,109,82,82,8,13,5,5,0.4,0.3
2026-05-11T1300,1268A,119.93,28.4589,丽水市,莲都小学,,35,22,28,8,12,111,111,83,83,6,14,/,/,/,/
2026-05-11T1300,1269A,119.8794,28.4232,丽水市,余庄前,,35,17,23,8,12,111,111,68,68,8,12,4,4,0.5,0.4
2026-05-11T1300,1173A,119.1759,34.5885,连云港市,市环境监测站,,50,41,42,27,29,158,158,91,91,10,18,10,11,0.6,0.6
2026-05-11T1300,3000A,119.3577,34.6971,连云港市,德源药业,,48,39,49,22,28,153,153,91,91,7,16,7,7,0.5,0.6
2026-05-11T1300,3007A,119.178,34.8442,连云港市,新城一中,颗粒物(PM10),67,73,54,28,30,159,159,92,92,8,20,6,7,0.5,0.5
2026-05-11T1300,3008A,119.3607,34.7519,连云港市,胡沟管理处,,50,36,22,27,12,159,159,122,122,16,17,10,10,0.6,0.6
2026-05-11T1300,3009A,119.1478,34.5913,连云港市,矿山设计院,颗粒物(PM10),53,53,44,29,23,149,149,90,90,7,11,6,7,0.7,0.7
2026-05-11T1300,3434A,119.2414,34.6539,连云港市,工贸学校,臭氧1小时(O3_1h),53,35,46,34,31,162,162,118,118,9,11,5,6,0.5,0.5
2026-05-11T1300,3664A,119.4171,34.734,连云港市,连云街道,NA,NA,85,65,NA,27,153,153,124,124,31,13,15,11,0.7,0.6
2026-05-11T1300,2573A,102.2629,27.8981,凉山彝族自治州,西昌市政府,,40,32,23,28,17,75,75,48,48,13,10,9,7,0.6,0.5
2026-05-11T1300,2574A,102.2686,27.885,凉山彝族自治州,凉山州政府,,36,31,23,25,17,66,66,41,41,9,11,9,7,0.9,0.6
2026-05-11T1300,4229A,102.2342,27.8859,凉山彝族自治州,凯乐南路30号,,39,36,28,27,18,67,67,36,36,15,18,9,7,0.9,0.6
2026-05-11T1300,2212A,123.1978,41.2036,辽阳市,宏伟区,,42,36,32,14,22,134,134,119,119,7,7,6,6,0.5,0.4
2026-05-11T1300,2213A,123.1684,41.2497,辽阳市,新华园,NA,NA,31,32,13,17,133,133,121,121,9,8,NA,4,NA,0.5
2026-05-11T1300,2214A,123.2355,41.2663,辽阳市,滨河路,细颗粒物(PM2.5),60,NA,27,40,21,122,122,107,107,9,10,7,6,0.5,0.4
2026-05-11T1300,4083A,123.153,41.2874,辽阳市,铁西路150号,,43,33,37,15,15,137,137,120,120,9,7,9,7,0.7,0.5
2026-05-11T1300,2227A,125.1359,42.8845,辽源市,环保局,,45,35,26,16,13,144,144,124,124,6,9,8,8,0.7,0.6
2026-05-11T1300,4085A,125.0998,42.9134,辽源市,安宁大街333号,,46,43,32,19,15,145,145,123,123,5,9,7,6,0.4,0.4
2026-05-11T1300,1625A,115.9789,36.4372,聊城市,区政府,颗粒物(PM10),66,72,71,24,29,150,150,106,106,6,13,9,9,0.5,0.5
2026-05-11T1300,3200A,115.9772,36.4986,聊城市,监控中心,臭氧1小时(O3_1h),63,58,69,28,24,170,170,107,107,6,14,9,10,0.2,0.3
2026-05-11T1300,3513A,116.0443,36.436,聊城市,九州社区,颗粒物(PM10),60,63,76,21,36,151,151,110,110,8,18,5,7,0.4,0.4
2026-05-11T1300,4018A,116.0564,36.4609,聊城市,星美广场,细颗粒物(PM2.5),76,56,68,48,44,159,159,111,111,7,13,7,8,0.4,0.5
2026-05-11T1300,4113A,116.0091,36.4495,聊城市,利民路,臭氧1小时(O3_1h),52,32,51,23,32,161,161,113,113,8,16,11,12,0.4,0.5
2026-05-11T1300,2632A,94.3683,29.6373,林芝市,林芝监测站,,35,6,7,3,7,111,111,95,95,4,4,4,4,0.4,0.5
2026-05-11T1300,2633A,94.3616,29.6634,林芝市,林芝人民医院,,36,8,10,3,7,114,114,92,92,6,5,3,3,0.4,0.4
2026-05-11T1300,2603A,100.0779,23.8981,临沧市,市环保局,,38,38,19,13,13,54,54,30,30,9,6,4,4,0.6,0.6
2026-05-11T1300,2604A,100.0894,23.882,临沧市,市气象局,,21,NA,20,14,16,67,67,31,31,6,9,6,6,0.6,0.7
2026-05-11T1300,1733A,111.5552,36.0791,临汾市,临钢医院,臭氧1小时(O3_1h),84,77,82,33,28,187,187,105,105,15,20,17,14,0.9,0.9
2026-05-11T1300,1734A,111.4984,36.0734,临汾市,技工学校,臭氧1小时(O3_1h),88,87,91,29,31,190,190,102,102,10,17,17,15,1.0,1.1
2026-05-11T1300,1736A,111.5017,36.0857,临汾市,市委,臭氧1小时(O3_1h),93,89,93,25,27,194,194,108,108,14,20,15,15,0.8,1
2026-05-11T1300,3018A,111.5048,36.1015,临汾市,唐尧大酒店,NA,NA,NA,102,NA,26,NA,NA,178,72,NA,17,NA,15,NA,1.0
2026-05-11T1300,4244A,111.4879,36.053,临汾市,启星学校,臭氧1小时(O3_1h),85,79,83,20,26,188,188,102,102,14,20,17,14,0.9,1
2026-05-11T1300,4271A,103.2464,35.6123,临夏回族自治州,滨河东路1号,颗粒物(PM10),63,68,94,33,44,119,119,62,62,6,25,11,9,0.2,0.4
2026-05-11T1300,4310A,103.207136,35.599807,临夏回族自治州,新华街21号,颗粒物(PM10),59,62,79,22,34,106,106,57,57,2,13,7,7,0.2,0.4
2026-05-11T1300,1618A,118.3429,35.0532,临沂市,沂河小区,臭氧1小时(O3_1h),64,58,69,35,41,171,171,108,108,18,27,17,21,0.4,0.4
2026-05-11T1300,1619A,118.2962,35.0568,临沂市,鲁南制药厂,臭氧1小时(O3_1h),59,46,61,16,31,167,167,111,111,15,24,13,17,0.3,0.3
2026-05-11T1300,1620A,118.2793,34.9976,临沂市,新光毛纺厂,臭氧1小时(O3_1h),55,46,63,22,33,164,164,107,107,11,24,14,20,0.3,0.3
2026-05-11T1300,1621A,118.3955,35.0889,临沂市,河东保险公司,臭氧1小时(O3_1h),73,48,56,18,32,178,178,106,106,13,28,15,18,0.2,0.3
2026-05-11T1300,3370A,118.3563,35.0215,临沂市,十里堡居委,臭氧1小时(O3_1h),68,51,55,21,37,174,174,107,107,12,26,16,21,0.5,0.5
2026-05-11T1300,3496A,118.359,35.1067,临沂市,南坊新区,臭氧1小时(O3_1h),52,51,58,19,30,161,161,108,108,14,23,12,16,0.3,0.3
2026-05-11T1300,3860A,118.3915,35.0297,临沂市,皇山花园小区,臭氧1小时(O3_1h),62,53,64,20,32,169,169,107,107,14,29,14,20,0.6,0.6
2026-05-11T1300,1870A,109.4854,24.3898,柳州市,柳东小学,细颗粒物(PM2.5),70,50,39,45,41,65,65,37,37,14,17,8,10,1.1,0.6
2026-05-11T1300,1871A,109.4109,24.3304,柳州市,环保监测站,细颗粒物(PM2.5),106,88,46,66,46,46,46,23,23,34,25,10,7,2.0,1
2026-05-11T1300,1872A,109.3886,24.3408,柳州市,河西水厂,细颗粒物(PM2.5),109,95,60,69,50,51,51,22,22,24,26,20,13,1.6,1
2026-05-11T1300,1873A,109.4263,24.2951,柳州市,市四中,细颗粒物(PM2.5),102,84,55,62,49,51,51,26,26,26,26,8,7,1.4,0.9
2026-05-11T1300,1874A,109.396,24.3658,柳州市,市九中,细颗粒物(PM2.5),120,124,59,81,46,46,46,17,17,33,22,14,8,2.1,1
2026-05-11T1300,1875A,109.4912,24.3164,柳州市,古亭山,细颗粒物(PM2.5),54,53,41,37,35,62,62,36,36,13,22,7,7,1.1,0.8
2026-05-11T1300,3402A,109.5422,24.3994,柳州市,市二中,细颗粒物(PM2.5),64,65,43,42,39,81,81,40,40,16,23,11,12,1.3,0.7
2026-05-11T1300,2307A,116.5078,31.7369,六安市,监测大楼,,39,26,26,15,24,123,123,91,91,7,11,4,5,0.4,0.4
2026-05-11T1300,2308A,116.4738,31.7642,六安市,皖西学院,,44,18,28,15,21,138,138,113,113,4,8,6,6,0.3,0.4
2026-05-11T1300,2309A,116.4997,31.7904,六安市,朝阳厂,,38,NA,19,15,23,119,119,97,97,7,11,7,7,0.2,0.3
2026-05-11T1300,2310A,116.5566,31.7885,六安市,开发区,,44,NA,24,8,24,138,138,105,105,7,16,6,7,0.3,0.4
2026-05-11T1300,2577A,104.8293,26.592,六盘水市,黄土坡,,32,16,19,7,10,101,101,63,63,7,14,10,7,0.1,0.3
2026-05-11T1300,2579A,104.8481,26.5898,六盘水市,民中,,30,8,20,6,14,94,94,56,56,8,22,5,3,0.3,0.5
2026-05-11T1300,2580A,104.9541,26.5506,六盘水市,双水,,29,12,22,6,12,92,92,40,40,6,15,5,6,0.2,0.5
2026-05-11T1300,4151A,104.8899,26.5685,六盘水市,钟山大道中段564号,,27,27,38,9,18,86,86,46,46,12,22,6,5,0.9,0.9
2026-05-11T1300,2336A,117.022,25.1031,龙岩市,龙岩市监测站,,36,36,19,16,11,76,76,37,37,4,11,6,8,0.5,0.6
2026-05-11T1300,2337A,117.0257,25.0662,龙岩市,闽西职业技术学院,,28,28,25,14,13,69,69,37,37,2,9,7,7,0.6,0.7
2026-05-11T1300,2338A,117.0195,25.0306,龙岩市,龙岩学院,,24,24,21,12,9,75,75,40,40,3,6,5,5,/,/
2026-05-11T1300,2885A,104.9344,33.3827,陇南市,滨江中学,,32,32,52,8,15,102,102,66,66,6,9,5,5,0.6,0.6
2026-05-11T1300,3247A,104.9551,33.3709,陇南市,市总工会,,37,37,40,10,17,99,99,65,65,5,8,4,4,0.5,0.5
2026-05-11T1300,2488A,111.9984,27.7346,娄底市,市监测站,NA,NA,NA,54,NA,43,NA,NA,89,NA,NA,13,NA,10,NA,0.5
2026-05-11T1300,2491A,111.9888,27.7035,娄底市,市政府,,39,39,46,23,30,101,101,50,50,5,9,5,5,0.4,0.4
2026-05-11T1300,4127A,111.9812,27.7591,娄底市,涟钢职大,,35,23,52,17,43,109,109,39,39,11,15,10,10,0.8,0.9
2026-05-11T1300,4128A,112.0303,27.7457,娄底市,娄底体校,,36,26,49,25,39,101,101,42,42,8,10,8,6,0.3,0.4
2026-05-11T1300,1894A,105.4427,28.9063,泸州市,小市上码头,颗粒物(PM10),58,60,48,12,36,94,94,49,49,32,22,15,13,0.7,0.6
2026-05-11T1300,1895A,105.4241,28.8573,泸州市,兰田宪桥,颗粒物(PM10),55,57,58,36,36,109,109,40,40,14,23,10,8,0.7,0.7
2026-05-11T1300,1896A,105.4378,28.8833,泸州市,市环监站,,49,49,43,32,26,92,92,42,42,26,31,11,25,0.8,0.8
2026-05-11T1300,4272A,105.3689,28.7783,泸州市,纳溪中医医院,,48,48,49,26,27,81,81,33,33,20,19,6,6,0.6,0.6
2026-05-11T1300,2183A,111.1447,37.5212,吕梁市,环保局,颗粒物(PM10),78,88,117,20,36,148,148,83,83,7,27,6,7,0.3,0.3
2026-05-11T1300,2185A,111.1285,37.5338,吕梁市,自来水公司,颗粒物(PM10),68,75,115,18,38,146,146,78,78,8,29,5,9,0.5,0.5
2026-05-11T1300,2867A,111.1225,37.5093,吕梁市,马茂庄小学,颗粒物(PM10),79,90,121,16,21,151,151,91,91,7,24,3,12,0.3,0.4
2026-05-11T1300,1812A,112.3934,34.6517,洛阳市,市委党校,细颗粒物(PM2.5),92,86,71,56,41,171,171,103,103,16,22,12,13,0.7,0.7
2026-05-11T1300,1815A,112.494,34.6883,洛阳市,河南林校,细颗粒物(PM2.5),78,80,72,49,38,176,176,104,104,14,20,16,13,0.6,0.5
2026-05-11T1300,1816A,112.3843,34.623,洛阳市,开发区管委会,臭氧1小时(O3_1h),79,76,62,47,37,183,183,108,108,12,16,15,15,0.7,0.7
2026-05-11T1300,1817A,112.4263,34.6249,洛阳市,市委新办公区,细颗粒物(PM2.5),92,63,63,56,37,175,175,107,107,12,17,15,13,1.0,0.9
2026-05-11T1300,3340A,112.6005,34.6323,洛阳市,伊滨,细颗粒物(PM2.5),86,79,76,53,36,167,167,95,95,15,18,12,10,0.5,0.4
2026-05-11T1300,3341A,112.495,34.6338,洛阳市,中移产业园,细颗粒物(PM2.5),96,81,69,58,38,171,171,98,98,15,22,15,13,0.7,0.6
2026-05-11T1300,3593A,112.5736,34.8993,洛阳市,吉利监测站,颗粒物(PM10),70,78,80,38,34,160,160,96,96,11,18,15,12,0.5,0.5
2026-05-11T1300,3635A,112.3678,34.6623,洛阳市,河科大西苑校区,细颗粒物(PM2.5),86,88,76,53,39,181,181,108,108,18,24,14,16,1.2,1.2
2026-05-11T1300,3636A,112.4387,34.678,洛阳市,英才小学,细颗粒物(PM2.5),80,89,78,50,38,152,152,92,92,11,18,12,11,0.7,0.7
2026-05-11T1300,4214A,112.460027,34.694929,洛阳市,春都路1号院,细颗粒物(PM2.5),74,82,78,47,36,163,163,94,94,11,19,14,12,0.4,0.4
2026-05-11T1300,2399A,114.051,33.5721,漯河市,三五一五工厂,颗粒物(PM10),63,67,56,28,27,139,139,96,96,10,18,8,9,0.5,0.4
2026-05-11T1300,2400A,114.0055,33.5698,漯河市,漯河大学,颗粒物(PM10),55,56,43,32,31,142,142,98,98,10,19,8,8,0.5,0.4
2026-05-11T1300,2401A,114.0134,33.5826,漯河市,市水利局,颗粒物(PM10),62,66,59,27,36,140,140,99,99,8,15,7,8,0.6,0.7
2026-05-11T1300,2402A,114.0261,33.5697,漯河市,市广电局,颗粒物(PM10),55,56,50,30,28,137,137,99,99,10,17,7,8,0.5,0.4
2026-05-11T1300,3478A,113.9691,33.568,漯河市,市图书馆,颗粒物(PM10),57,59,53,33,31,133,133,98,98,7,12,9,9,0.8,0.7
2026-05-11T1300,4250A,114.089259,33.588274,漯河市,韶山路11号,颗粒物(PM10),60,63,46,29,33,137,137,98,98,8,14,9,9,0.7,0.6
2026-05-11T1300,1798A,118.5084,31.6838,马鞍山市,湖东路四小,臭氧1小时(O3_1h),62,57,43,34,29,169,169,94,94,12,19,10,9,0.8,0.7
2026-05-11T1300,1799A,118.5019,31.6449,马鞍山市,开发区,臭氧1小时(O3_1h),55,49,49,25,28,164,164,87,87,13,26,10,10,0.9,0.9
2026-05-11T1300,3633A,118.4914,31.681,马鞍山市,雨山,颗粒物(PM10),72,80,39,43,25,167,167,94,94,12,22,9,8,0.8,0.8
2026-05-11T1300,4191A,118.527362,31.722269,马鞍山市,慈湖高新区,臭氧1小时(O3_1h),60,51,49,31,28,168,168,90,90,14,24,10,9,0.8,0.7
2026-05-11T1300,1686A,111.0285,21.469,茂名市,电白南海,,29,19,25,6,8,91,91,91,88,5,7,5,6,0.9,0.9
2026-05-11T1300,1687A,110.9294,21.6533,茂名市,茂石化七小,,46,46,37,23,19,106,106,72,72,10,13,8,7,0.6,0.6
2026-05-11T1300,1688A,110.9108,21.6688,茂名市,健康路,,35,34,29,16,20,111,111,70,70,8,13,9,7,0.7,0.8
2026-05-11T1300,1689A,110.8592,21.6826,茂名市,高岭,,36,36,40,21,25,106,106,63,63,4,14,5,7,/,/
2026-05-11T1300,3450A,111.0101,21.5165,茂名市,电白水东,,26,9,19,6,11,82,82,84,83,6,8,3,4,/,/
2026-05-11T1300,2540A,103.8414,30.0871,眉山市,气象局,颗粒物(PM10),60,64,53,29,21,138,138,30,30,28,43,7,4,0.8,0.5
2026-05-11T1300,3148A,103.829,30.0563,眉山市,区人社局,颗粒物(PM10),59,62,59,27,29,134,134,56,42,20,35,12,10,0.9,0.9
2026-05-11T1300,4148A,103.8836,30.0695,眉山市,眉职院,颗粒物(PM10),53,54,39,26,16,134,134,56,56,13,26,11,9,0.8,0.7
2026-05-11T1300,1690A,116.1248,24.3307,梅州市,梅江月梅,,30,30,27,17,15,84,84,41,41,6,12,/,/,/,/
2026-05-11T1300,1691A,116.0798,24.2719,梅州市,梅县新城,,28,28,32,15,14,79,79,36,36,6,19,8,8,0.5,0.6
2026-05-11T1300,3315A,116.1234,24.2994,梅州市,梅龙,,26,24,25,14,14,81,81,43,43,5,12,6,6,0.6,0.6
2026-05-11T1300,1878A,104.7775,31.4741,绵阳市,富乐山,NA,NA,79,76,NA,83,172,172,101,101,13,14,12,9,0.9,0.9
2026-05-11T1300,1880A,104.6698,31.4668,绵阳市,高新区自来水公司,细颗粒物(PM2.5),92,86,94,56,65,163,163,94,94,16,34,11,9,0.8,0.8
2026-05-11T1300,3491A,104.6899,31.5324,绵阳市,西科大附属小学,细颗粒物(PM2.5),109,96,103,69,64,173,173,94,94,18,32,8,7,0.7,0.7
2026-05-11T1300,3492A,104.5647,31.5343,绵阳市,安州区旅游局,细颗粒物(PM2.5),98,88,91,59,57,179,179,121,121,12,15,9,7,0.8,0.8
2026-05-11T1300,4146A,104.7092,31.4972,绵阳市,科技城新区公安局,细颗粒物(PM2.5),94,101,101,57,65,157,157,84,84,19,29,8,7,0.9,0.9
2026-05-11T1300,4226A,104.765114,31.453094,绵阳市,绵阳市气象局,细颗粒物(PM2.5),86,86,81,53,58,136,136,74,74,29,26,9,10,0.7,0.6
2026-05-11T1300,1784A,129.61,44.561,牡丹江市,环保大楼,,42,20,26,11,14,134,134,106,106,7,10,3,3,0.2,0.2
2026-05-11T1300,1787A,129.6364,44.6075,牡丹江市,机车工厂,,42,23,29,12,18,134,134,101,101,7,12,7,8,0.3,0.3
2026-05-11T1300,1788A,129.6386,44.5462,牡丹江市,第一中学,,43,24,24,16,14,137,137,109,109,6,9,4,4,0.4,0.4
2026-05-11T1300,4287A,129.5992,44.5964,牡丹江市,东晓云街98号,,44,40,34,18,16,138,138,106,106,5,9,4,4,0.2,0.2
2026-05-11T1300,2531A,105.0703,29.61,内江市,市监测站,颗粒物(PM10),68,75,48,34,35,122,122,71,71,20,25,10,9,0.4,0.4
2026-05-11T1300,2533A,105.0657,29.5807,内江市,内江二中,,45,43,44,31,37,127,127,73,73,13,22,8,8,0.4,0.4
2026-05-11T1300,2534A,105.0407,29.5828,内江市,内江日报社,细颗粒物(PM2.5),52,36,39,36,36,124,124,77,77,18,23,11,10,0.6,0.5
2026-05-11T1300,4147A,105.0433,29.6105,内江市,玉峰路西段888号,,41,41,46,28,33,118,118,75,75,21,22,8,8,0.6,0.6
2026-05-11T1300,2628A,92.0653,31.4846,那曲市,那曲监测站,,40,19,31,13,21,128,128,102,102,6,11,9,10,0.5,0.6
2026-05-11T1300,4243A,92.0515,31.4787,那曲市,那曲市委宣传部,,39,18,25,11,15,123,123,101,101,5,10,6,7,0.4,0.5
2026-05-11T1300,1291A,115.8887,28.7006,南昌市,省林业公司,,44,44,44,28,32,102,102,54,54,12,20,12,14,0.6,0.6
2026-05-11T1300,1292A,115.813,28.7443,南昌市,林科所,,35,29,43,19,33,112,112,56,56,4,32,11,11,0.4,0.5
2026-05-11T1300,1294A,115.8518,28.687,南昌市,建工学校,颗粒物(PM10),53,53,53,34,34,99,99,51,51,9,16,16,15,0.8,0.8
2026-05-11T1300,1295A,115.8926,28.6425,南昌市,象湖,,43,36,36,30,32,107,107,57,57,11,19,14,14,0.8,0.7
2026-05-11T1300,3046A,115.9084,28.6062,南昌市,机电学校,,45,45,41,25,28,119,119,66,66,8,16,9,7,0.7,0.6
2026-05-11T1300,3690A,115.9718,28.7032,南昌市,外国语学校,,34,34,38,17,28,102,102,56,56,11,20,13,12,0.6,0.7
2026-05-11T1300,4106A,115.7923,28.6873,南昌市,工业二路,,44,44,57,23,36,105,105,51,51,5,17,9,10,0.6,0.6
2026-05-11T1300,4192A,115.931587,28.686774,南昌市,南京东路235号,,47,47,47,28,30,112,112,63,63,13,19,13,12,0.9,0.8
2026-05-11T1300,1906A,106.0791,30.8022,南充市,南充市委,颗粒物(PM10),60,64,61,37,45,163,163,67,67,14,27,7,6,0.5,0.6
2026-05-11T1300,1907A,106.1038,30.8215,南充市,南充炼油厂,"颗粒物(PM10),臭氧1小时(O3_1h)",65,70,72,35,50,172,172,74,74,14,24,8,7,0.5,0.6
2026-05-11T1300,4227A,106.108336,30.788436,南充市,梨树横街98号,臭氧1小时(O3_1h),63,36,64,27,48,170,170,77,77,10,24,8,8,0.5,0.7
2026-05-11T1300,4304A,106.1172,30.843,南充市,清泉寺北路188号,颗粒物(PM10),63,68,65,26,47,169,169,86,86,13,15,9,8,0.3,0.4
2026-05-11T1300,4305A,106.067,30.7616,南充市,同庆路1号,"颗粒物(PM10),臭氧1小时(O3_1h)",55,57,59,31,41,164,164,78,78,10,19,8,7,0.5,0.6
2026-05-11T1300,1151A,118.8033,32.1085,南京市,迈皋桥,臭氧1小时(O3_1h),62,37,39,19,29,169,169,107,107,7,13,7,6,0.7,0.6
2026-05-11T1300,1152A,118.7487,32.057,南京市,草场门,,49,29,40,16,24,155,155,100,100,12,25,8,9,0.7,0.8
2026-05-11T1300,1154A,118.770105,32.004342,南京市,中华门,,49,31,41,18,25,155,155,88,88,7,16,6,7,0.4,0.5
2026-05-11T1300,1155A,118.8059,32.0329,南京市,瑞金路,,49,34,41,17,24,154,154,88,88,7,18,15,12,0.3,0.3
2026-05-11T1300,1156A,118.7946,32.0774,南京市,玄武湖,,46,46,40,14,22,141,141,87,87,6,13,7,7,0.7,0.6
2026-05-11T1300,1157A,118.6415,32.0964,南京市,浦口,,47,40,37,22,20,149,149,82,82,20,26,14,7,1.1,0.5
2026-05-11T1300,1158A,118.730129,32.000956,南京市,奥体中心,,46,39,43,13,20,147,147,89,89,11,28,11,13,0.5,0.7
2026-05-11T1300,1159A,118.9072,32.1047,南京市,仙林大学城,,50,46,44,17,23,160,160,97,97,12,21,13,12,0.8,0.7
2026-05-11T1300,3422A,118.8443,31.919,南京市,江宁彩虹桥,NA,NA,NA,34,NA,6,NA,NA,136,NA,NA,12,NA,4,NA,0.3
2026-05-11T1300,3427A,118.8497,32.3599,南京市,六合雄州,,48,28,44,11,24,151,151,93,93,16,34,8,5,1.1,1
2026-05-11T1300,4086A,118.7641,32.0841,南京市,新模范马路66号,臭氧1小时(O3_1h),58,39,48,16,20,166,166,102,102,11,23,3,4,0.7,0.8
2026-05-11T1300,4249A,118.8707617,31.34017673,南京市,汶溪路181号,,42,36,27,8,15,133,133,96,96,9,15,6,7,0.3,0.4
2026-05-11T1300,4312A,119.019,31.6512,南京市,中山西路1号,,36,17,32,8,22,114,114,85,85,6,16,4,4,0.4,0.5
2026-05-11T1300,1401A,108.3098,22.788,南宁市,二十一中,细颗粒物(PM2.5),62,50,39,41,29,92,92,34,34,16,18,5,5,0.6,0.5
2026-05-11T1300,1402A,108.3135,22.8529,南宁市,北湖,细颗粒物(PM2.5),56,57,39,38,29,118,118,47,47,14,17,7,19,0.6,0.5
2026-05-11T1300,1403A,108.3205,22.8222,南宁市,市监测站,细颗粒物(PM2.5),64,57,37,42,24,116,116,49,49,15,16,4,7,0.7,0.6
2026-05-11T1300,1404A,108.3828,22.8038,南宁市,大自然花园,,43,43,35,28,24,111,111,46,46,12,18,5,7,0.5,0.5
2026-05-11T1300,1406A,108.2397,22.8462,南宁市,区农职院,细颗粒物(PM2.5),70,68,40,45,23,127,127,50,50,13,11,8,7,0.7,0.6
2026-05-11T1300,1407A,108.3285,22.7356,南宁市,英华嘉园,颗粒物(PM10),60,64,49,37,33,121,121,42,42,15,22,6,7,0.6,0.6
2026-05-11T1300,3401A,108.4829,22.762,南宁市,红星社区,颗粒物(PM10),51,51,40,25,28,130,130,50,50,10,15,6,7,0.7,0.7
2026-05-11T1300,4132A,108.2927,23.1477,南宁市,起凤路9号,NA,NA,NA,23,NA,19,122,122,53,53,12,8,7,5,0.7,0.6
2026-05-11T1300,4221A,108.2177,22.7774,南宁市,乐贤路16号,颗粒物(PM10),55,56,46,30,31,118,118,49,49,14,20,16,25,0.6,0.6
2026-05-11T1300,2332A,118.1682,26.6371,南平市,南平市监测站,,25,11,21,7,13,79,79,41,41,4,9,6,4,0.5,0.4
2026-05-11T1300,2334A,118.1757,26.6276,南平市,南平七中,,24,24,20,6,12,71,71,38,38,3,9,4,2,0.5,0.5
2026-05-11T1300,1168A,120.9056,31.9669,南通市,狼山街道,臭氧1小时(O3_1h),83,55,40,30,20,186,186,91,91,33,34,14,8,1.1,0.6
2026-05-11T1300,1170A,120.8635,32.0231,南通市,城中,颗粒物(PM10),57,59,45,3,12,164,164,92,92,27,30,11,7,0.9,0.7
2026-05-11T1300,1171A,120.9376,31.9301,南通市,星湖花园,臭氧1小时(O3_1h),82,59,41,35,19,185,185,95,95,34,28,13,7,1.0,0.5
2026-05-11T1300,1172A,120.8053,32.046,南通市,紫琅学院,,48,36,36,11,19,153,153,83,83,42,37,12,10,1.1,0.8
2026-05-11T1300,3291A,121.0631,32.0644,南通市,通州监测站,臭氧1小时(O3_1h),79,46,42,11,18,183,183,100,100,11,15,7,5,0.7,0.6
2026-05-11T1300,3432A,120.9348,31.9874,南通市,环境教育馆,臭氧1小时(O3_1h),73,36,42,14,21,178,178,95,95,19,33,9,7,0.7,0.6
2026-05-11T1300,4091A,120.8692,31.9885,南通市,洪江路,臭氧1小时(O3_1h),85,58,44,40,23,188,188,80,80,37,33,14,8,1.5,0.9
2026-05-11T1300,2404A,112.5338,33.0086,南阳市,瓦房庄,细颗粒物(PM2.5),58,54,52,39,34,119,119,86,86,8,9,7,7,0.4,0.4
2026-05-11T1300,2405A,112.5002,32.9734,南阳市,汉画馆,颗粒物(PM10),64,69,62,34,35,124,124,84,84,9,15,7,8,0.5,0.4
2026-05-11T1300,2406A,112.5778,33.0144,南阳市,气象站,颗粒物(PM10),61,65,56,34,35,126,126,89,89,2,7,8,8,0.3,0.3
2026-05-11T1300,2407A,112.548,32.9687,南阳市,理工学院,细颗粒物(PM2.5),62,58,54,41,37,131,131,91,91,8,14,8,8,0.4,0.3
2026-05-11T1300,4008A,112.5233,32.9921,南阳市,卧龙区政府,细颗粒物(PM2.5),56,54,58,38,36,126,126,86,86,7,11,9,9,0.4,0.4
2026-05-11T1300,1234A,121.8352,29.9111,宁波市,区环保大楼,臭氧1小时(O3_1h),57,35,24,12,6,165,165,87,87,27,16,10,7,0.4,0.3
2026-05-11T1300,1235A,121.5595,29.8208,宁波市,万里学院,,49,28,26,7,12,155,155,100,100,6,10,4,5,0.4,0.4
2026-05-11T1300,1236A,121.713,29.9564,宁波市,龙赛医院,臭氧1小时(O3_1h),75,59,34,18,9,180,180,108,108,18,12,10,7,0.5,0.3
2026-05-11T1300,1240A,121.5855,29.8635,宁波市,太古小学,,45,22,29,10,12,143,143,96,96,5,9,4,4,0.6,0.5
2026-05-11T1300,1241A,121.5239,29.8673,宁波市,市环境监测中心,,45,31,29,10,12,144,144,92,92,10,17,8,9,0.4,0.4
2026-05-11T1300,2871A,121.6156,29.9015,宁波市,万里国际学校,,50,18,17,11,9,157,157,109,109,8,7,5,5,0.4,0.5
2026-05-11T1300,3710A,121.5593,29.8976,宁波市,白沙活动中心,,49,21,20,16,13,156,156,101,101,8,11,6,7,0.3,0.3
2026-05-11T1300,4095A,121.8962,29.7529,宁波市,中科路88号,,32,6,16,3,4,102,102,90,90,3,2,8,7,0.5,0.5
2026-05-11T1300,2341A,119.5387,26.6611,宁德市,宁德市监测站,,38,38,24,13,15,102,102,59,59,9,15,8,8,0.6,0.6
2026-05-11T1300,3209A,119.5231,26.6562,宁德市,宁德一中,,33,19,23,14,17,104,104,64,64,8,10,7,6,0.5,0.5
2026-05-11T1300,2618A,98.859,25.8541,怒江傈僳族自治州,州监测站,,23,16,34,16,29,64,64,50,50,8,9,6,6,0.3,0.4
2026-05-11T1300,2619A,98.8607,25.8168,怒江傈僳族自治州,泸水一中,,35,NA,37,24,31,49,49,38,38,19,15,4,5,0.5,0.5
2026-05-11T1300,1888A,101.6891,26.571,攀枝花市,弄弄坪,,32,25,35,22,17,62,62,59,59,15,17,9,16,0.5,0.6
2026-05-11T1300,1889A,101.577,26.5914,攀枝花市,河门口,,23,23,35,16,21,63,63,54,54,14,18,10,18,0.8,1.2
2026-05-11T1300,1891A,101.7365,26.4986,攀枝花市,仁和,细颗粒物(PM2.5),74,58,33,47,25,59,59,49,49,12,13,11,12,0.5,0.4
2026-05-11T1300,2835A,101.7222,26.567,攀枝花市,四十中小,,22,22,31,3,16,70,70,66,66,6,13,8,26,0.7,0.8
2026-05-11T1300,1604A,122.0303,41.1489,盘锦市,开发区,颗粒物(PM10),51,51,46,26,44,158,158,118,118,9,14,9,9,0.5,0.6
2026-05-11T1300,1605A,122.0486,41.0883,盘锦市,兴隆台,细颗粒物(PM2.5),58,49,53,39,52,148,148,108,108,10,19,9,9,0.6,0.7
2026-05-11T1300,1606A,121.8297,41.1026,盘锦市,新生街道,细颗粒物(PM2.5),60,NA,34,40,48,129,129,103,103,14,26,5,5,0.5,0.5
2026-05-11T1300,1832A,113.3257,33.7423,平顶山市,新华旅馆,细颗粒物(PM2.5),60,56,62,40,32,138,138,107,107,8,10,6,5,0.7,0.6
2026-05-11T1300,1833A,113.2917,33.737,平顶山市,规划设计院,细颗粒物(PM2.5),52,49,52,36,33,139,139,106,106,6,6,9,8,0.6,0.5
2026-05-11T1300,1834A,113.182,33.7738,平顶山市,平顶山工学院,,49,41,46,34,32,135,135,103,103,5,7,6,7,0.5,0.5
2026-05-11T1300,3594A,112.8736,33.9068,平顶山市,石龙区,颗粒物(PM10),65,70,61,36,33,161,161,103,103,12,12,14,10,0.8,0.5
2026-05-11T1300,4116A,113.284,33.7139,平顶山市,姚电大道23号,颗粒物(PM10),62,66,64,38,34,141,141,104,104,8,12,8,8,0.5,0.5
2026-05-11T1300,2656A,106.6633,35.5338,平凉市,聚贤嘉苑,颗粒物(PM10),76,86,94,34,37,135,135,100,100,6,14,7,9,0.4,0.4
2026-05-11T1300,2657A,106.7021,35.5307,平凉市,博物馆,颗粒物(PM10),63,67,83,33,41,144,144,95,95,4,14,9,10,0.4,0.5
2026-05-11T1300,2348A,113.8384,27.6436,萍乡市,中医院,,30,18,28,16,19,96,96,47,47,5,17,7,8,0.5,0.7
2026-05-11T1300,2350A,113.8677,27.6438,萍乡市,市环保局,,30,30,32,15,22,95,95,50,50,7,18,9,8,0.6,0.8
2026-05-11T1300,2351A,113.8663,27.6202,萍乡市,安源区政府,,30,25,28,12,20,96,96,54,54,4,13,6,7,0.3,0.4
2026-05-11T1300,4107A,113.8686,27.6668,萍乡市,联洪村委会,,31,31,36,15,20,96,96,45,45,8,23,8,9,0.6,0.6
2026-05-11T1300,2319A,119.0142,25.4324,莆田市,荔城区仓后路,细颗粒物(PM2.5),72,58,36,46,26,151,151,78,78,17,17,/,/,/,/
2026-05-11T1300,2320A,119.0016,25.4553,莆田市,莆田市监测站,细颗粒物(PM2.5),86,69,32,53,23,159,159,83,83,15,12,5,4,0.6,0.6
2026-05-11T1300,2321A,119.112,25.4561,莆田市,涵江区六中,,44,36,37,30,26,139,139,71,71,12,23,/,/,0.6,0.9
2026-05-11T1300,2322A,119.1014,25.3215,莆田市,秀屿区政府,细颗粒物(PM2.5),68,50,28,44,22,141,141,77,77,9,12,6,6,0.8,0.7
2026-05-11T1300,2392A,115.0312,35.7636,濮阳市,环保局,颗粒物(PM10),51,51,57,28,28,133,133,100,100,10,14,8,8,0.6,0.5
2026-05-11T1300,3021A,115,35.7667,濮阳市,濮水河管理处,,47,47,57,31,29,126,126,85,85,7,11,5,5,0.7,0.7
2026-05-11T1300,4118A,115.0552,35.7816,濮阳市,中原东路68号,颗粒物(PM10),59,62,63,25,25,136,136,102,102,6,9,6,5,0.6,0.6
2026-05-11T1300,4216A,115.0923632,35.76857718,濮阳市,任丘路479号,,46,45,53,32,28,129,129,94,94,10,14,5,5,0.7,0.7
2026-05-11T1300,2601A,100.9801,22.7634,普洱市,市环保局,NA,NA,NA,28,NA,11,58,58,32,32,5,8,4,5,0.8,0.9
2026-05-11T1300,2602A,100.9763,22.8237,普洱市,普洱第二中学,,31,31,24,14,8,62,62,29,29,5,8,5,5,0.8,0.8
2026-05-11T1300,3345A,131.0413,45.7795,七台河市,中波台,,46,46,46,22,21,147,147,121,121,8,10,3,3,0.5,0.4
2026-05-11T1300,3637A,131.0136,45.7688,七台河市,人民广场,,45,39,35,11,15,144,144,121,121,9,11,8,8,0.5,0.4
2026-05-11T1300,3684A,130.8639,45.8144,七台河市,新建矿广场,,42,34,30,17,21,132,132,102,102,10,14,8,8,0.6,0.5
2026-05-11T1300,1779A,123.9307,47.3641,齐齐哈尔市,安居小区,颗粒物(PM10),64,69,73,25,27,130,130,99,99,9,9,6,8,0.7,0.6
2026-05-11T1300,1780A,123.9497,47.3389,齐齐哈尔市,中心广场,颗粒物(PM10),63,67,74,32,25,122,122,93,93,8,8,10,10,0.4,0.3
2026-05-11T1300,1781A,123.9483,47.3229,齐齐哈尔市,农牧车辆厂,颗粒物(PM10),62,66,67,31,26,132,132,102,102,12,9,7,7,0.1,0.1
2026-05-11T1300,1783A,123.9442,47.2994,齐齐哈尔市,市环境监测站,颗粒物(PM10),59,62,64,30,31,124,124,96,96,9,9,5,6,0.6,0.6
2026-05-11T1300,3662A,123.6341,47.2079,齐齐哈尔市,富区青少年活动中心,NA,NA,NA,70,NA,23,134,134,98,98,NA,9,5,5,0.5,0.6
2026-05-11T1300,2591A,107.9765,26.5724,黔东南苗族侗族自治州,市环境监测站,,48,37,45,33,36,79,79,42,42,8,9,4,3,0.5,0.6
2026-05-11T1300,2881A,107.8909,26.531,黔东南苗族侗族自治州,凯里学院,,43,36,50,30,39,92,92,38,38,6,13,3,2,0.5,0.5
2026-05-11T1300,2593A,107.5223,26.2371,黔南布依族苗族自治州,小围寨,细颗粒物(PM2.5),52,44,37,36,32,67,67,40,38,7,8,7,7,0.6,0.6
2026-05-11T1300,3538A,107.5175,26.2977,黔南布依族苗族自治州,沙坝,,35,34,41,24,33,70,70,29,29,7,9,5,4,0.8,0.8
2026-05-11T1300,2589A,104.9022,25.0943,黔西南布依族苗族自治州,场坝街,,45,45,56,31,37,66,66,31,31,15,17,16,15,0.6,0.6
2026-05-11T1300,2590A,104.8812,25.0994,黔西南布依族苗族自治州,坪东大道,细颗粒物(PM2.5),58,42,53,39,36,60,60,24,24,13,14,14,9,0.5,0.6
2026-05-11T1300,2502A,108.6238,21.9667,钦州市,市环保站,,39,39,51,8,27,98,98,59,59,7,14,1,2,0.6,0.7
2026-05-11T1300,2503A,108.655,21.9481,钦州市,沙埠小学,,40,40,49,13,30,98,98,59,59,4,14,2,5,0.7,0.7
2026-05-11T1300,2504A,108.5989,21.7435,钦州市,港区一小,颗粒物(PM10),76,86,58,38,34,99,99,66,66,21,20,12,11,0.9,0.8
2026-05-11T1300,3404A,108.5959,21.9634,钦州市,北职校,,35,35,48,19,31,107,107,61,61,5,12,2,3,0.6,0.8
2026-05-11T1300,1046A,119.5247,39.9346,秦皇岛市,建设大厦,颗粒物(PM10),60,63,76,30,41,137,137,78,78,2,25,6,7,0.3,0.5
2026-05-11T1300,3132A,119.5979,39.938,秦皇岛市,文明里,颗粒物(PM10),59,62,92,27,48,128,128,80,80,8,31,9,10,0.3,0.4
2026-05-11T1300,4066A,119.7458,39.9952,秦皇岛市,南园路157号,颗粒物(PM10),56,58,78,30,51,105,105,83,83,14,35,8,9,0.3,0.4
2026-05-11T1300,4067A,119.5131,39.8858,秦皇岛市,翠岛大街1号,颗粒物(PM10),53,53,64,20,43,127,127,90,90,8,24,10,11,0.3,0.5
2026-05-11T1300,4198A,119.509013,39.825305,秦皇岛市,北戴河轮滑馆,颗粒物(PM10),55,56,75,27,37,119,119,103,103,9,22,8,8,0.3,0.4
2026-05-11T1300,1310A,120.404,36.0625,青岛市,市南区东部子站,细颗粒物(PM2.5),84,66,46,52,21,112,112,109,98,24,13,10,7,0.5,0.4
2026-05-11T1300,1311A,120.362344,36.10282,青岛市,四方区子站,细颗粒物(PM2.5),74,66,42,47,23,141,141,126,111,26,18,11,7,0.9,0.7
2026-05-11T1300,1312A,120.294373,36.054183,青岛市,市南区西部子站,NA,NA,53,41,50,17,94,94,115,94,36,14,6,5,NA,0.2
2026-05-11T1300,1313A,120.4581,36.0858,青岛市,崂山区子站,细颗粒物(PM2.5),72,68,42,46,18,114,114,124,114,29,9,13,9,0.4,0.3
2026-05-11T1300,1315A,120.3945,36.3083,青岛市,城阳区子站,颗粒物(PM10),75,85,61,35,26,134,134,110,110,28,16,11,9,0.9,0.8
2026-05-11T1300,3642A,120.3454,36.0735,青岛市,市北区南部,细颗粒物(PM2.5),78,49,37,49,20,140,140,125,113,10,8,9,5,0.9,0.7
2026-05-11T1300,3643A,120.3897,36.18,青岛市,李沧区北部,颗粒物(PM10),55,56,47,32,22,121,121,104,95,21,18,12,11,0.7,0.7
2026-05-11T1300,4110A,120.5222,36.4089,青岛市,盟旺路653号,,50,47,45,20,24,157,157,126,126,5,7,7,6,0.7,0.7
2026-05-11T1300,4290A,120.196923,35.954556,青岛市,珠江路669号,细颗粒物(PM2.5),80,73,48,50,21,134,134,122,109,20,15,7,6,0.8,0.7
2026-05-11T1300,4291A,120.0424,35.8656,青岛市,黄岛区人民政府广场,细颗粒物(PM2.5),72,56,57,46,23,134,134,92,92,13,17,11,9,0.7,0.6
2026-05-11T1300,1703A,113.0218,23.7086,清远市,凤城街办,,25,20,72,16,55,79,79,50,50,9,25,/,/,/,/
2026-05-11T1300,3025A,113.0479,23.6343,清远市,技师学院,,36,25,66,18,47,114,114,61,61,10,28,6,8,0.5,0.6
2026-05-11T1300,3318A,112.9898,23.7403,清远市,清新太和,,38,35,60,26,43,100,100,62,62,8,16,8,10,0.6,0.7
2026-05-11T1300,3455A,113.076,23.72,清远市,清城东城,,33,32,72,23,50,90,90,44,44,19,33,/,/,/,/
2026-05-11T1300,2661A,107.6325,35.7357,庆阳市,庆阳五中,颗粒物(PM10),100,119,112,37,36,133,133,97,97,13,12,6,4,0.3,0.3
2026-05-11T1300,2662A,107.6361,35.7067,庆阳市,市环保局,颗粒物(PM10),89,104,105,43,37,151,151,112,112,15,13,14,4,0.3,0.2
2026-05-11T1300,1916A,103.7897,25.5036,曲靖市,环境监测站,,39,29,30,27,18,62,62,44,44,9,14,6,7,1.0,0.7
2026-05-11T1300,1917A,103.8013,25.5357,曲靖市,烟厂办公区,,33,33,26,20,14,66,66,46,46,6,8,6,7,1.1,0.6
2026-05-11T1300,3376A,103.7926,25.4651,曲靖市,南苑二区,细颗粒物(PM2.5),60,49,26,40,20,57,57,33,33,17,27,5,4,1.0,0.7
2026-05-11T1300,3377A,103.7442,25.5259,曲靖市,曲靖师范学院,,38,NA,25,26,17,59,59,33,33,13,35,3,7,0.6,0.5
2026-05-11T1300,1264A,118.8694,28.94,衢州市,环保大楼,,33,25,30,16,20,103,103,54,54,8,17,/,/,/,/
2026-05-11T1300,1266A,118.8622,28.9809,衢州市,衢州学院,,34,24,22,16,15,106,106,57,57,8,24,8,7,0.6,0.6
2026-05-11T1300,4097A,118.9646,28.9832,衢州市,衢州三中,,33,24,27,16,18,104,104,59,59,8,17,9,11,0.6,0.6
2026-05-11T1300,1611A,118.5818,24.9116,泉州市,涂山街,臭氧1小时(O3_1h),103,73,31,46,20,206,206,104,104,24,17,8,5,0.7,0.5
2026-05-11T1300,1612A,118.597,24.8976,泉州市,津头埔,臭氧1小时(O3_1h),111,71,31,40,21,222,222,112,112,22,18,7,5,0.6,0.5
2026-05-11T1300,1613A,118.6669,24.9422,泉州市,万安,臭氧1小时(O3_1h),69,57,31,36,20,175,175,84,84,14,15,6,5,0.5,0.4
2026-05-11T1300,4105A,118.6355,24.9148,泉州市,霞新路6号,臭氧1小时(O3_1h),82,49,30,40,20,185,185,88,88,19,21,/,/,0.7,0.6
2026-05-11T1300,2626A,88.8873,29.2723,日喀则市,日喀则监测站,,38,17,25,3,12,120,120,76,76,6,12,8,9,0.1,0.3
2026-05-11T1300,3726A,88.8775,29.2425,日喀则市,林业技术推广中心,,39,11,23,3,5,122,122,68,68,4,7,8,8,0.1,0.2
2026-05-11T1300,1659A,119.4711,35.421,日照市,监测站,细颗粒物(PM2.5),108,75,65,68,45,164,164,70,70,36,45,33,16,1.8,0.9
2026-05-11T1300,1660A,119.523,35.4216,日照市,市政府广场,细颗粒物(PM2.5),84,75,71,52,36,139,139,72,72,28,43,21,15,1.5,1.1
2026-05-11T1300,1661A,119.5511,35.4113,日照市,港务局,细颗粒物(PM2.5),106,68,80,66,44,133,133,65,65,25,39,8,10,0.8,0.8
2026-05-11T1300,3507A,119.5326,35.4627,日照市,职业技术学院,细颗粒物(PM2.5),78,73,77,49,37,145,145,72,72,26,37,13,12,0.9,0.9
2026-05-11T1300,3604A,119.3267,35.1043,日照市,岚山环保分局,臭氧1小时(O3_1h),60,56,52,29,29,168,168,87,87,19,31,12,15,0.7,0.7
2026-05-11T1300,1835A,111.1922,34.7752,三门峡市,市政府,颗粒物(PM10),73,82,59,31,22,139,139,96,96,8,21,13,14,0.5,0.6
2026-05-11T1300,1836A,111.1588,34.794,三门峡市,开发区,NA,NA,NA,63,NA,28,141,141,104,104,9,17,13,17,0.4,0.5
2026-05-11T1300,3039A,111.1911,34.7829,三门峡市,三门峡市第一小学,颗粒物(PM10),77,87,61,30,27,140,140,100,100,8,17,14,15,0.4,0.4
2026-05-11T1300,3598A,111.1031,34.719,三门峡市,富达温泉假日酒店,颗粒物(PM10),68,75,67,26,30,154,154,89,89,10,18,14,13,0.6,0.6
2026-05-11T1300,2324A,117.621,26.2626,三明市,三钢,,46,44,30,32,26,90,90,42,42,10,19,11,12,1.0,0.9
2026-05-11T1300,2325A,117.6352,26.2714,三明市,三明二中,,38,38,30,26,22,85,85,39,39,8,17,6,9,0.9,1
2026-05-11T1300,2326A,117.6028,26.2377,三明市,三元区政府,颗粒物(PM10),60,63,31,26,19,88,88,41,41,7,15,8,7,0.8,1.1
2026-05-11T1300,1877A,109.4962,18.2682,三亚市,河西子站,,28,28,26,12,12,66,66,55,55,4,4,4,4,0.4,0.3
2026-05-11T1300,3540A,109.7348,18.3443,三亚市,君悦子站,,20,20,27,9,11,58,58,46,46,3,4,3,3,0.5,0.5
2026-05-11T1300,4135A,109.1714,18.3739,三亚市,城东小学站,,24,22,23,10,12,75,75,44,44,4,6,/,/,/,/
2026-05-11T1300,2624A,91.7592,29.234,山南市,山南监测站,,39,9,15,3,4,124,124,115,115,2,3,8,8,0.2,0.2
2026-05-11T1300,2625A,91.7701,29.2436,山南市,山南人民医院,,41,8,14,3,6,129,129,117,117,2,2,7,8,0.2,0.2
2026-05-11T1300,1674A,116.6795,23.3666,汕头市,金平子站,,42,40,28,27,23,132,132,112,112,8,12,4,5,0.9,0.7
2026-05-11T1300,1675A,116.7248,23.3632,汕头市,龙湖子站,,47,47,27,32,22,150,150,117,117,8,7,7,6,/,/
2026-05-11T1300,1676A,116.7257,23.2774,汕头市,濠江子站,细颗粒物(PM2.5),74,53,28,47,22,167,167,112,112,14,12,10,8,/,/
2026-05-11T1300,1677A,116.7518,23.4712,汕头市,澄海子站,臭氧1小时(O3_1h),69,62,35,33,24,175,175,122,122,16,12,8,9,0.9,0.7
2026-05-11T1300,1678A,116.6088,23.2539,汕头市,潮阳子站,颗粒物(PM10),60,64,27,39,24,147,147,109,109,7,8,7,6,0.7,0.6
2026-05-11T1300,3444A,116.4539,23.2684,汕头市,潮南峡山,,41,27,39,25,27,131,131,104,104,4,6,7,8,0.8,0.8
2026-05-11T1300,3624A,116.4069,23.2533,汕头市,潮南子站,颗粒物(PM10),56,58,48,33,29,129,129,92,92,9,12,6,6,/,/
2026-05-11T1300,1693A,115.3653,22.7751,汕尾市,市环保局,,44,44,30,29,21,128,128,102,102,6,7,6,6,0.6,0.5
2026-05-11T1300,1695A,115.362,22.7926,汕尾市,新城中学,,41,38,31,27,22,130,130,100,100,5,9,7,6,0.6,0.5
2026-05-11T1300,2645A,109.9155,33.8714,商洛市,监测站,颗粒物(PM10),52,52,53,32,23,149,149,74,74,12,18,10,8,0.7,0.5
2026-05-11T1300,3045A,109.9647,33.8486,商洛市,商州区中学,颗粒物(PM10),78,88,64,30,26,177,177,76,76,13,27,28,10,0.6,0.4
2026-05-11T1300,2408A,115.6701,34.4283,商丘市,环境监测站,颗粒物(PM10),51,51,58,31,28,134,134,110,110,2,5,5,4,0.4,0.4
2026-05-11T1300,2409A,115.6458,34.4047,商丘市,粮食局,颗粒物(PM10),56,58,51,30,26,127,127,106,106,5,8,7,6,0.4,0.4
2026-05-11T1300,3171A,115.6069,34.4465,商丘市,梁园区档案局,颗粒物(PM10),52,52,53,24,26,129,129,104,104,4,6,2,2,0.4,0.4
2026-05-11T1300,4119A,115.6701,34.3767,商丘市,北海东路185号,,41,37,52,28,28,129,129,107,107,3,8,5,4,0.5,0.5
2026-05-11T1300,4120A,115.6172,34.3704,商丘市,中山大街3号,,44,44,54,28,29,126,126,104,104,2,8,9,8,0.5,0.5
2026-05-11T1300,1141A,121.401,31.2382,上海市,普陀,臭氧1小时(O3_1h),65,35,32,15,14,172,172,101,101,14,16,6,6,0.5,0.4
2026-05-11T1300,1142A,121.4774,31.2043,上海市,十五厂,臭氧1小时(O3_1h),64,39,36,16,16,171,171,97,97,14,18,6,6,0.5,0.4
