timepoint,stationcode,longitude,latitude,area,positionname,primarypollutant,aqi,pm10,pm10_24h,pm2_5,pm2_5_24h,o3,o3_24h,o3_8h,o3_8h_24h,no2,no2_24h,so2,so2_24h,co,co_24h
2026-05-11T1400,2568A,102.2503,31.8896,阿坝藏族羌族自治州,马师校,NA,NA,10,24,8,9,NA,NA,NA,NA,4,6,6,6,0.3,0.3
2026-05-11T1400,3994A,102.2174,31.9016,阿坝藏族羌族自治州,马尔康中学西区,,26,19,15,9,9,82,82,48,48,6,6,4,5,0.3,0.3
2026-05-11T1400,2695A,80.2899,41.1684,阿克苏地区,电视台,颗粒物(PM10),105,131,134,25,50,101,101,62,62,9,23,4,5,0.5,0.7
2026-05-11T1400,2696A,80.2592,41.1541,阿克苏地区,艺术中心,细颗粒物(PM2.5),101,97,130,61,66,100,100,59,59,16,36,3,4,0.4,0.7
2026-05-11T1400,2205A,105.699,38.8409,阿拉善盟,蒙二幼,颗粒物(PM10),79,90,56,23,14,133,133,117,117,6,6,11,10,0.1,0.1
2026-05-11T1400,2206A,105.7198,38.8508,阿拉善盟,环保局新楼,颗粒物(PM10),67,73,52,27,21,123,123,113,113,3,3,10,9,0.3,0.3
2026-05-11T1400,2708A,88.1266,47.8515,阿勒泰地区,市站,,22,17,28,6,7,68,68,61,60,8,12,6,6,0.6,0.5
2026-05-11T1400,4166A,88.1198,47.7931,阿勒泰地区,阿勒泰路33号,,24,18,30,7,10,74,74,77,72,4,8,6,6,0.2,0.2
2026-05-11T1400,2630A,80.1171,32.4999,阿里地区,阿里监测站,,37,19,23,6,8,116,116,91,86,1,7,8,7,0.3,0.3
2026-05-11T1400,3192A,80.0906,32.5029,阿里地区,阿里藏医院,,36,15,19,3,6,114,114,83,83,1,6,5,7,0.3,0.3
2026-05-11T1400,2644A,109.0088,32.6974,安康市,汉滨区检察院,颗粒物(PM10),53,53,46,24,24,131,131,56,56,8,12,5,7,0.4,0.4
2026-05-11T1400,4054A,109.0324,32.6913,安康市,市邮政管理局,颗粒物(PM10),58,61,54,34,30,140,140,63,63,7,14,5,7,0.4,0.5
2026-05-11T1400,2291A,117.0806,30.5181,安庆市,环科院,,40,34,35,13,26,126,126,92,92,3,21,7,7,0.4,0.5
2026-05-11T1400,2292A,117.0331,30.5118,安庆市,马山宾馆,,40,38,33,18,26,125,125,86,86,8,26,6,5,0.7,0.6
2026-05-11T1400,2294A,116.9897,30.6146,安庆市,安庆大学,,42,42,36,16,22,127,127,93,93,7,12,5,5,0.4,0.4
2026-05-11T1400,3173A,117.0598,30.5351,安庆市,市人大,,41,36,34,17,25,131,131,93,93,5,16,6,6,0.4,0.5
2026-05-11T1400,3123A,105.9408,26.2431,安顺市,凤凰山,,43,32,52,30,42,98,98,59,59,13,27,15,12,0.7,0.8
2026-05-11T1400,3124A,105.9443,26.2567,安顺市,金钟山,NA,NA,39,55,31,42,86,86,56,56,12,15,16,12,NA,0.7
2026-05-11T1400,3125A,105.8983,26.248,安顺市,娄家坡,,38,32,49,26,37,87,87,55,55,9,13,13,15,0.6,0.6
2026-05-11T1400,1819A,114.3552,36.1017,安阳市,红庙街,颗粒物(PM10),72,80,67,31,32,174,174,121,121,10,15,6,6,0.4,0.5
2026-05-11T1400,1820A,114.361,36.0681,安阳市,银杏小区,臭氧1小时(O3_1h),75,68,64,30,28,180,180,125,125,8,12,8,8,0.4,0.5
2026-05-11T1400,3141A,114.3921,36.0879,安阳市,信访局,臭氧1小时(O3_1h),80,86,63,44,35,184,184,129,129,3,8,5,4,0.7,0.7
2026-05-11T1400,3669A,114.4706,36.0634,安阳市,左辅环卫站,颗粒物(PM10),86,100,77,42,34,183,183,123,123,10,13,4,3,0.6,0.6
2026-05-11T1400,4117A,114.2918,36.0769,安阳市,钢三路198号,颗粒物(PM10),71,79,69,34,43,175,175,112,112,7,13,5,5,0.6,0.6
2026-05-11T1400,1748A,123.0441,41.1201,鞍山市,深沟寺,,43,30,33,12,15,136,136,113,113,10,9,8,8,0.6,0.6
2026-05-11T1400,1749A,123.011,41.0931,鞍山市,太阳城,,44,25,33,14,17,138,138,121,121,7,7,8,8,0.8,0.6
2026-05-11T1400,1750A,123.0483,41.1445,鞍山市,太平,,40,31,44,13,17,125,125,109,109,10,10,8,7,0.5,0.5
2026-05-11T1400,1751A,122.964,41.0968,鞍山市,铁西三道街,,41,35,43,16,21,130,130,120,120,13,12,7,6,0.8,0.6
2026-05-11T1400,1753A,123.0219,41.0822,鞍山市,明达新区,,42,23,32,14,17,133,133,118,118,9,9,8,8,0.6,0.5
2026-05-11T1400,4201A,122.944647,41.082639,鞍山市,兴盛南路290号,,42,32,44,18,20,132,132,123,123,13,12,9,8,0.5,0.6
2026-05-11T1400,2195A,107.4206,40.7609,巴彦淖尔市,附二中,颗粒物(PM10),51,51,69,32,26,142,142,93,93,9,13,14,14,0.5,0.5
2026-05-11T1400,2196A,107.37,40.7372,巴彦淖尔市,市环保大楼,颗粒物(PM10),52,52,58,12,19,144,144,98,98,9,11,13,10,0.6,0.6
2026-05-11T1400,1956A,86.1476,41.7529,巴音郭楞蒙古自治州,孔雀公园,颗粒物(PM10),112,150,172,57,68,98,98,45,45,9,39,6,5,0.1,0.2
2026-05-11T1400,1957A,86.1971,41.7166,巴音郭楞蒙古自治州,棉纺厂,颗粒物(PM10),128,192,204,56,77,100,100,44,44,7,37,/,/,/,/
2026-05-11T1400,1958A,86.236,41.7172,巴音郭楞蒙古自治州,经济开发区,细颗粒物(PM2.5),175,135,161,132,66,105,105,60,60,4,11,11,10,0.2,0.2
2026-05-11T1400,3181A,106.776805,31.852614,巴中市,市五中,,50,45,63,35,52,154,154,77,77,8,18,7,6,0.6,0.8
2026-05-11T1400,3183A,106.7419,31.8654,巴中市,圣泉水务公司,,49,42,64,34,48,147,147,79,79,9,23,8,7,0.7,0.8
2026-05-11T1400,3616A,106.7617,31.8343,巴中市,市中心医院,细颗粒物(PM2.5),52,46,75,36,56,157,157,76,76,9,24,7,7,0.6,0.7
2026-05-11T1400,2235A,122.7909,45.608,白城市,洮北区环保局,,39,31,63,10,40,122,122,98,98,6,12,5,5,0.4,0.2
2026-05-11T1400,2236A,122.8741,45.5725,白城市,市环保局,,39,36,63,19,33,124,124,94,94,13,17,4,4,0.0,0.2
2026-05-11T1400,2231A,126.4219,41.9172,白山市,喜丰,,46,45,35,12,13,145,145,105,105,6,14,14,13,0.7,0.7
2026-05-11T1400,2232A,126.4082,41.9416,白山市,环保局,,44,32,25,15,12,138,138,110,110,9,9,10,11,0.8,0.7
2026-05-11T1400,2647A,104.1727,36.5448,白银市,第三小学,颗粒物(PM10),55,56,94,23,41,114,114,81,81,6,17,8,19,0.4,0.7
2026-05-11T1400,2648A,104.1467,36.5482,白银市,动力公司,颗粒物(PM10),53,54,87,24,39,117,117,82,82,3,16,9,14,0.2,0.5
2026-05-11T1400,2512A,106.6102,23.901,百色市,市监测站,,28,28,26,15,17,34,34,28,28,15,12,8,7,0.8,0.6
2026-05-11T1400,2513A,106.6524,23.8842,百色市,市中心血站,,29,29,35,20,30,32,32,23,23,17,16,9,10,0.7,0.6
2026-05-11T1400,4133A,106.6273,23.8798,百色市,龙景西路,,32,27,36,22,24,31,31,20,20,15,14,11,10,0.6,0.5
2026-05-11T1400,2270A,117.396,32.9389,蚌埠市,工人疗养院,颗粒物(PM10),52,52,54,11,28,140,140,110,110,8,15,4,6,0.3,0.5
2026-05-11T1400,2271A,117.3606,32.9428,蚌埠市,百货大楼,,45,44,49,10,26,142,142,113,113,8,14,7,7,0.4,0.5
2026-05-11T1400,2273A,117.4183,32.8909,蚌埠市,蚌埠学院,,42,36,44,10,26,134,134,104,104,4,10,5,5,0.4,0.5
2026-05-11T1400,2274A,117.3534,32.9672,蚌埠市,淮上区政府,,47,41,49,10,29,148,148,117,117,8,16,6,6,0.4,0.4
2026-05-11T1400,2275A,117.3143,32.8977,蚌埠市,高新区,,48,48,54,12,32,134,134,105,105,12,17,8,9,0.6,0.7
2026-05-11T1400,3715A,117.3091,32.9314,蚌埠市,蚌埠田家炳中学,,50,50,55,12,28,146,146,116,116,8,16,8,13,0.4,0.5
2026-05-11T1400,1585A,109.8761,40.6533,包头市,市环境监测站,颗粒物(PM10),104,128,71,8,22,151,151,104,104,9,32,10,11,0.4,0.5
2026-05-11T1400,1587A,109.9992,40.5843,包头市,包头八中,,43,28,65,12,31,135,135,85,85,8,34,10,18,0.4,0.9
2026-05-11T1400,1589A,109.8641,40.6288,包头市,惠龙物流,,44,35,46,3,20,139,139,95,95,7,25,10,12,0.5,0.6
2026-05-11T1400,1590A,110.0376,40.5546,包头市,东河鸿龙湾,,44,38,57,6,29,140,140,89,89,6,26,14,20,0.4,0.6
2026-05-11T1400,3283A,109.9154,40.5684,包头市,滨河大厦,,44,32,47,14,26,138,138,90,90,9,35,7,13,0.4,0.7
2026-05-11T1400,3419A,109.9449,40.6259,包头市,包头市委党校,细颗粒物(PM2.5),56,NA,41,38,22,144,144,91,91,8,30,9,13,0.5,0.8
2026-05-11T1400,3683A,109.8332,40.6577,包头市,昆区政府,,45,36,51,10,26,143,143,89,89,9,36,11,8,0.6,0.6
2026-05-11T1400,1931A,107.0802,34.3129,宝鸡市,竹园沟,颗粒物(PM10),52,52,53,23,22,115,115,102,101,5,6,8,8,0.2,0.2
2026-05-11T1400,1933A,107.1429,34.3549,宝鸡市,监测站,,44,44,40,18,17,107,107,88,88,5,9,5,6,0.4,0.4
2026-05-11T1400,1934A,107.1172,34.3759,宝鸡市,技工学校,颗粒物(PM10),51,51,47,18,19,114,114,98,98,11,13,4,4,0.3,0.4
2026-05-11T1400,1936A,107.2025,34.3518,宝鸡市,文理学院,,41,41,54,18,22,115,115,86,86,8,18,6,6,0.4,0.4
2026-05-11T1400,1937A,107.2396,34.3626,宝鸡市,三迪小学,颗粒物(PM10),53,54,59,22,32,124,124,82,82,10,28,6,6,0.4,0.5
2026-05-11T1400,4155A,107.1721,34.3558,宝鸡市,滨河北路,,37,37,50,15,17,104,104,82,82,6,12,7,7,0.4,0.4
2026-05-11T1400,4308A,107.3898,34.3601,宝鸡市,陈仓区北开路21号,,42,42,63,21,27,112,112,79,79,7,22,9,18,0.5,0.4
2026-05-11T1400,1051A,115.4803,38.8568,保定市,游泳馆,臭氧1小时(O3_1h),98,50,50,27,24,198,198,143,143,9,13,10,8,0.4,0.4
2026-05-11T1400,1052A,115.509,38.8895,保定市,华电二区,臭氧1小时(O3_1h),101,47,46,29,25,202,202,141,141,8,17,4,4,0.6,0.5
2026-05-11T1400,1053A,115.4588,38.9037,保定市,接待中心,臭氧1小时(O3_1h),85,60,54,29,25,188,188,137,137,8,14,3,9,0.6,0.5
2026-05-11T1400,1054A,115.4484,38.8344,保定市,地表水厂,臭氧1小时(O3_1h),103,63,76,28,24,205,205,146,146,13,16,4,3,0.4,0.3
2026-05-11T1400,3581A,115.3136,38.9511,保定市,满城区生态环境分局,臭氧1小时(O3_1h),103,41,45,22,20,206,206,156,156,6,13,6,4,0.3,0.3
2026-05-11T1400,3582A,115.4709,38.7628,保定市,清苑区第二中学,颗粒物(PM10),82,94,85,25,20,177,177,123,123,11,22,9,8,0.3,0.3
2026-05-11T1400,3583A,115.6231,39.0223,保定市,徐水物探局,臭氧1小时(O3_1h),100,75,69,29,29,200,200,150,150,9,18,3,3,0.5,0.5
2026-05-11T1400,4004A,115.4199,38.8665,保定市,双鹰农机,臭氧1小时(O3_1h),106,61,63,36,30,211,211,157,157,8,13,3,3,0.4,0.3
2026-05-11T1400,4034A,115.515,38.8589,保定市,植保所站,臭氧1小时(O3_1h),92,68,70,23,22,193,193,140,140,12,15,3,3,0.3,0.4
2026-05-11T1400,2594A,99.1589,25.1137,保山市,市环境监测站,,28,18,19,17,12,87,87,71,71,11,7,6,6,0.4,0.3
2026-05-11T1400,2595A,99.1616,25.1381,保山市,市环保局,,29,NA,19,18,15,90,90,73,73,7,5,6,6,0.3,0.3
2026-05-11T1400,1867A,109.1435,21.4085,北海市,海滩公园,,26,21,25,18,24,73,73,54,54,3,10,6,7,0.7,0.8
2026-05-11T1400,1868A,109.0983,21.466,北海市,新市环保局,,30,30,22,14,23,72,72,66,66,4,12,2,8,0.3,0.8
2026-05-11T1400,1869A,109.1775,21.5232,北海市,北海工业园,,24,19,27,10,20,75,75,56,56,3,11,6,9,0.7,0.8
2026-05-11T1400,3400A,109.1844,21.4396,北海市,龙潭自来水厂,,22,13,22,3,14,69,69,46,46,4,10,10,10,0.7,0.9
2026-05-11T1400,1001A,116.3611,39.8786,北京市,万寿西宫,臭氧1小时(O3_1h),97,39,43,19,19,197,197,150,150,10,18,6,6,0.5,0.5
2026-05-11T1400,1003A,116.4174,39.9289,北京市,东四,臭氧1小时(O3_1h),99,25,43,18,20,199,199,149,149,10,19,6,6,0.6,0.3
2026-05-11T1400,1004A,116.4073,39.8858,北京市,天坛,臭氧1小时(O3_1h),85,41,42,15,18,188,188,142,142,13,21,7,7,0.4,0.4
2026-05-11T1400,1005A,116.4622,39.9364,北京市,农展馆,臭氧1小时(O3_1h),90,48,36,20,15,192,192,136,136,10,16,7,5,0.5,0.6
2026-05-11T1400,1006A,116.3399,39.9293,北京市,官园,臭氧1小时(O3_1h),73,58,44,32,20,178,178,135,135,15,20,4,4,0.4,0.4
2026-05-11T1400,1007A,116.2879,39.9613,北京市,海淀万柳,臭氧1小时(O3_1h),59,51,41,20,16,167,167,115,115,14,30,7,6,0.5,0.4
2026-05-11T1400,1008A,116.6635,40.1349,北京市,顺义新城,臭氧1小时(O3_1h),93,62,38,30,13,194,194,124,124,11,19,5,3,0.6,0.5
2026-05-11T1400,1009A,116.6275,40.327,北京市,怀柔镇,臭氧1小时(O3_1h),58,47,31,15,11,166,166,130,130,8,8,5,4,0.5,0.5
2026-05-11T1400,1010A,116.2295,40.217,北京市,昌平镇,NA,NA,41,28,15,10,173,173,135,135,8,19,6,4,NA,0.3
2026-05-11T1400,1011A,116.3968,39.982,北京市,奥体中心,,50,34,38,13,14,157,157,114,114,12,27,6,5,0.4,0.4
2026-05-11T1400,3418A,116.8336,40.4095,北京市,密云新城,臭氧1小时(O3_1h),55,48,36,16,12,164,164,114,114,8,14,4,5,0.4,0.3
2026-05-11T1400,3671A,116.0879,39.9725,北京市,门头沟三家店,臭氧1小时(O3_1h),87,61,23,29,8,189,189,124,124,13,21,6,4,0.6,0.3
2026-05-11T1400,3672A,116.1507,39.8246,北京市,丰台云岗,臭氧1小时(O3_1h),101,55,47,33,16,201,201,147,147,15,21,7,4,0.6,0.5
2026-05-11T1400,3674A,115.9578,39.7602,北京市,房山燕山,臭氧1小时(O3_1h),82,66,38,30,14,185,185,130,130,12,16,7,5,0.6,0.3
2026-05-11T1400,3675A,116.4669,39.7734,北京市,大兴旧宫,臭氧1小时(O3_1h),82,36,50,21,26,185,185,149,149,8,17,3,3,0.5,0.6
2026-05-11T1400,3694A,115.9859,40.4562,北京市,延庆石河营,,34,7,14,3,5,106,106,63,63,10,25,2,2,0.3,0.4
2026-05-11T1400,3695A,116.6151,40.3052,北京市,怀柔新城,,50,42,30,10,11,160,160,128,128,9,11,6,5,0.5,0.5
2026-05-11T1400,3696A,116.2542,39.8764,北京市,丰台小屯,臭氧1小时(O3_1h),80,51,44,22,30,184,184,136,136,9,18,6,4,0.5,0.5
2026-05-11T1400,3697A,116.8399,40.3843,北京市,密云镇,NA,NA,33,36,22,15,NA,NA,172,172,10,25,10,9,0.5,0.4
2026-05-11T1400,4057A,115.9423,40.4431,北京市,延庆百泉,,36,7,13,3,5,114,114,68,68,4,17,2,2,0.3,0.4
2026-05-11T1400,4058A,116.6598,39.9164,北京市,通州新华,臭氧1小时(O3_1h),58,51,55,22,20,166,166,128,128,6,16,6,6,0.6,0.7
2026-05-11T1400,4182A,116.1942,39.9158,北京市,石景山八角,臭氧1小时(O3_1h),90,48,33,28,21,192,192,148,148,16,21,12,7,0.6,0.5
2026-05-11T1400,4194A,117.078628,40.151726,北京市,平谷新城,,50,49,41,21,17,159,159,128,128,9,11,5,4,0.7,0.6
2026-05-11T1400,1761A,123.8274146,41.31234549,本溪市,大峪,,35,29,32,14,14,112,112,98,98,13,9,9,6,0.8,0.5
2026-05-11T1400,1763A,123.7169,41.3094,本溪市,彩屯,,37,28,36,17,18,116,116,102,102,11,22,9,17,1.6,2.5
2026-05-11T1400,1764A,123.7672166,41.28649327,本溪市,东明,,37,37,35,14,11,110,110,107,102,9,9,7,7,0.6,0.6
2026-05-11T1400,1765A,123.799345,41.266614,本溪市,新立屯,,38,32,38,16,13,121,121,121,113,5,5,8,8,0.4,0.4
2026-05-11T1400,1766A,123.829144,41.336777,本溪市,威宁,,42,42,33,15,15,112,112,93,93,16,12,12,7,1.2,0.6
2026-05-11T1400,2587A,105.287,27.3133,毕节市,八中,,35,NA,22,13,13,111,111,47,47,4,13,9,13,0.4,0.6
2026-05-11T1400,2588A,105.3079,27.2987,毕节市,师专,,36,20,31,12,16,113,113,42,42,5,17,12,13,0.4,0.5
2026-05-11T1400,4263A,105.3688,27.3598,毕节市,工业大道,,38,19,34,3,17,119,119,51,51,4,17,13,16,/,/
2026-05-11T1400,1629A,117.9961,37.3604,滨州市,第二水厂,颗粒物(PM10),56,58,79,19,48,164,164,122,122,7,21,9,10,0.7,0.8
2026-05-11T1400,1630A,117.9789,37.3931,滨州市,北中新校,臭氧1小时(O3_1h),78,44,70,14,35,182,182,136,136,11,25,13,13,0.2,0.4
2026-05-11T1400,3514A,117.9379,37.3959,滨州市,中海酒店,臭氧1小时(O3_1h),84,34,59,11,33,187,187,146,146,12,22,10,11,0.2,0.5
2026-05-11T1400,3515A,117.9381509,37.35547456,滨州市,开发区一中,臭氧1小时(O3_1h),97,68,76,17,40,197,197,140,140,16,27,11,10,0.4,0.7
2026-05-11T1400,3516A,118.0914,37.6938,滨州市,金海六路,臭氧1小时(O3_1h),72,27,44,11,30,177,177,146,146,9,24,9,9,0.5,0.6
2026-05-11T1400,4028A,117.9955,37.3752,滨州市,滨州市西街道办事处,臭氧1小时(O3_1h),80,34,58,30,42,184,184,140,140,8,21,7,8,0.4,0.6
2026-05-11T1400,2311A,115.8071,33.8399,亳州市,污水处理厂,,42,32,32,18,24,133,133,108,108,5,8,8,7,0.2,0.2
2026-05-11T1400,2312A,115.7789,33.8519,亳州市,三国揽胜宫,颗粒物(PM10),52,52,48,23,23,131,131,111,110,5,7,9,8,0.3,0.3
2026-05-11T1400,3332A,115.7631,33.803,亳州市,亳州学院,,42,33,33,22,23,132,132,110,109,6,7,8,6,0.3,0.3
2026-05-11T1400,2693A,82.0482,44.8553,博尔塔拉蒙古自治州,市党校,颗粒物(PM10),75,85,246,14,53,98,98,101,101,6,4,3,3,0.1,0.1
2026-05-11T1400,2694A,82.0805,44.8966,博尔塔拉蒙古自治州,市环保局,NA,NA,6,212,3,42,NA,NA,69,NA,11,7,3,3,0.5,0.4
2026-05-11T1400,1071A,116.8733,38.2922,沧州市,沧县城建局,臭氧1小时(O3_1h),67,31,41,15,10,173,173,132,132,11,20,6,7,0.4,0.4
2026-05-11T1400,1072A,116.8462,38.3189,沧州市,电视转播站,臭氧1小时(O3_1h),75,34,48,24,24,180,180,132,132,10,16,8,6,0.3,0.2
2026-05-11T1400,1073A,116.8588,38.3161,沧州市,市环保局,臭氧1小时(O3_1h),75,43,54,22,24,180,180,137,137,6,16,9,8,0.2,0.4
2026-05-11T1400,3324A,116.8011,38.294,沧州市,河北水利电力学院,,49,34,36,25,23,156,156,121,121,8,17,11,11,0.2,0.2
2026-05-11T1400,2622A,97.1813,31.1289,昌都市,昌都监测站,,25,6,7,3,3,78,78,69,69,6,7,9,9,0.7,0.7
2026-05-11T1400,3719A,97.1707,31.1428,昌都市,昌都会议中心,,26,6,6,3,4,82,82,73,73,3,4,9,9,0.4,0.4
2026-05-11T1400,2692A,87.2722,44.0298,昌吉回族自治州,新区政务中心,颗粒物(PM10),52,52,132,19,35,89,89,75,75,6,10,6,7,0.4,0.4
2026-05-11T1400,3613A,87.3069,44.0093,昌吉回族自治州,亚心广场,颗粒物(PM10),56,58,164,16,50,91,91,78,78,4,7,6,6,0.2,0.3
2026-05-11T1400,4164A,87.2057,43.9289,昌吉回族自治州,财政所,颗粒物(PM10),58,61,239,14,61,90,90,77,77,5,7,8,9,0.3,0.4
2026-05-11T1400,1120A,125.2874,43.9024,长春市,客车厂,颗粒物(PM10),55,57,35,21,26,148,148,124,124,14,17,8,7,0.4,0.5
2026-05-11T1400,1121A,125.2943,43.8508,长春市,邮电学院,颗粒物(PM10),60,64,38,20,22,153,153,130,130,9,11,8,7,0.5,0.5
2026-05-11T1400,1122A,125.3648,43.8745,长春市,劳动公园,,49,36,29,18,21,156,156,129,129,8,12,8,7,0.6,0.6
2026-05-11T1400,1123A,125.3233,43.8781,长春市,园林处,臭氧1小时(O3_1h),52,45,30,21,22,161,161,135,135,10,12,10,9,0.5,0.5
2026-05-11T1400,1124A,125.4604,43.7904,长春市,净月潭,颗粒物(PM10),54,55,26,20,20,152,152,129,129,7,8,6,5,0.5,0.4
2026-05-11T1400,1126A,125.38,43.8422,长春市,经开区环卫处,,49,46,30,19,20,156,156,129,129,9,13,6,5,0.4,0.5
2026-05-11T1400,1127A,125.234,43.7761,长春市,高新区管委会,,49,36,27,17,21,154,154,130,130,7,9,7,6,0.5,0.5
2026-05-11T1400,1128A,125.1695,43.83,长春市,岱山公园,臭氧1小时(O3_1h),53,40,32,19,23,162,162,137,137,10,21,5,5,0.4,0.4
2026-05-11T1400,4281A,125.334645,43.916281,长春市,北亚泰大街1068号,,50,43,34,23,26,158,158,133,133,14,20,7,6,0.5,0.5
2026-05-11T1400,1335A,113.082,28.2421,长沙市,经开区环保局,,48,48,43,23,25,142,142,83,83,10,15,7,6,0.8,0.6
2026-05-11T1400,1336A,112.8873,28.2202,长沙市,高开区环保局,,42,42,49,27,33,122,122,82,82,3,11,8,12,0.4,0.7
2026-05-11T1400,1337A,113.0785,28.2012,长沙市,马坡岭,,45,41,42,22,27,142,142,82,82,2,10,9,7,0.7,0.7
2026-05-11T1400,1338A,112.9448,28.1894,长沙市,湖南师范大学,颗粒物(PM10),55,56,52,23,29,139,139,90,90,7,15,8,10,0.6,0.7
2026-05-11T1400,1339A,113.0177,28.1322,长沙市,雨花区环保局,,49,49,44,22,27,144,144,95,95,3,8,10,7,0.8,0.8
2026-05-11T1400,1340A,112.9795,28.2593,长沙市,伍家岭,,48,48,50,25,29,140,140,76,76,2,16,8,8,0.7,0.7
2026-05-11T1400,1341A,113.002,28.1944,长沙市,火车新站,颗粒物(PM10),53,54,48,27,30,141,141,65,65,5,14,10,8,0.7,0.6
2026-05-11T1400,1342A,112.9846,28.1177,长沙市,天心区环保局,颗粒物(PM10),56,58,46,22,30,135,135,92,92,5,11,9,10,0.8,0.7
2026-05-11T1400,1343A,112.8906,28.1307,长沙市,湖南中医药大学,,48,48,52,23,31,130,130,83,83,2,18,8,11,0.6,0.8
2026-05-11T1400,1727A,113.1146,36.1547,长治市,清华站,臭氧1小时(O3_1h),68,45,55,20,23,174,174,110,110,6,16,12,11,0.6,0.7
2026-05-11T1400,1730A,113.0887,36.2126,长治市,审计局,臭氧1小时(O3_1h),68,45,60,17,27,174,174,113,113,4,13,15,13,0.6,0.7
2026-05-11T1400,1731A,113.0845,36.1856,长治市,长治八中,臭氧1小时(O3_1h),62,52,72,20,27,169,169,106,106,6,16,15,13,0.6,0.7
2026-05-11T1400,2845A,113.1561,36.1912,长治市,德盛苑,臭氧1小时(O3_1h),62,41,48,17,22,169,169,132,132,7,13,13,13,0.6,0.8
2026-05-11T1400,3568A,113.0603,36.0464,长治市,向阳小学,臭氧1小时(O3_1h),90,91,97,24,27,192,192,118,118,14,22,11,11,0.7,0.8
2026-05-11T1400,3569A,112.8788,36.315,长治市,屯留一中,臭氧1小时(O3_1h),82,44,52,30,25,185,185,121,121,11,20,16,13,1.2,0.9
2026-05-11T1400,4189A,113.113092,36.199482,长治市,英华南巷50号,臭氧1小时(O3_1h),67,48,66,18,25,173,173,114,114,3,12,13,11,0.7,0.9
2026-05-11T1400,4190A,113.23666,36.33435,长治市,学府街1号,臭氧1小时(O3_1h),63,51,59,17,22,170,170,124,124,6,14,10,19,0.8,0.6
2026-05-11T1400,1854A,111.696,28.9725,常德市,市二中,,33,33,37,20,28,96,96,72,72,2,8,9,10,0.8,0.9
2026-05-11T1400,3138A,111.7152,29.0288,常德市,武陵区永安,NA,NA,NA,45,NA,29,NA,NA,108,NA,NA,9,NA,8,NA,0.7
2026-05-11T1400,3139A,111.6891,28.9881,常德市,鼎城区玉霞,,33,33,43,21,34,93,93,67,67,2,11,10,11,0.8,0.9
2026-05-11T1400,3140A,111.6651,29.0526,常德市,武陵区长庚,,38,38,46,26,30,91,91,75,75,3,11,9,10,0.8,0.9
2026-05-11T1400,1196A,119.9524,31.7586,常州市,市监测站,"颗粒物(PM10),臭氧1小时(O3_1h)",53,53,68,15,22,162,162,114,114,10,19,11,10,0.7,0.6
2026-05-11T1400,1200A,119.9351,31.703,常州市,武进监测站,臭氧1小时(O3_1h),62,32,49,16,21,169,169,118,118,7,14,8,10,0.7,0.6
2026-05-11T1400,3002A,119.9701,31.813,常州市,行政中心,臭氧1小时(O3_1h),59,41,40,19,22,167,167,112,112,11,18,8,8,0.2,0.2
2026-05-11T1400,3003A,120.0434,31.7726,常州市,经开区,臭氧1小时(O3_1h),70,38,57,14,20,176,176,113,113,8,19,7,7,1.0,0.9
2026-05-11T1400,3010A,119.8919,31.7892,常州市,钟楼,,49,33,46,6,17,154,154,112,112,11,20,10,13,0.5,0.5
2026-05-11T1400,3429A,119.8595,31.706,常州市,武进经发区,臭氧1小时(O3_1h),68,40,47,25,24,174,174,112,112,10,23,14,10,0.8,0.7
2026-05-11T1400,3430A,119.5812,31.7256,常州市,金坛城区,臭氧1小时(O3_1h),53,33,45,21,25,162,162,108,108,3,12,10,9,0.6,0.7
2026-05-11T1400,4089A,119.9551,31.863,常州市,崇义南街5-H号,臭氧1小时(O3_1h),78,48,45,18,21,182,182,120,120,3,13,10,10,0.6,0.6
2026-05-11T1400,2220A,120.4318,41.588,朝阳市,西梁,,45,32,46,3,31,142,142,89,89,9,20,10,11,0.5,0.8
2026-05-11T1400,2221A,120.452,41.565,朝阳市,河畔小区,,47,46,38,9,21,148,148,107,107,7,15,7,8,0.3,0.6
2026-05-11T1400,2222A,120.4176,41.5648,朝阳市,八里堡,,46,38,50,3,28,145,145,94,94,9,21,7,7,0.5,0.8
2026-05-11T1400,3026A,116.6179,23.6608,潮州市,市政府,颗粒物(PM10),63,68,55,30,35,161,161,122,122,10,11,9,8,0.7,0.6
2026-05-11T1400,4036A,116.646,23.676,潮州市,金山,臭氧1小时(O3_1h),88,66,49,32,32,190,190,134,134,10,11,7,5,0.7,0.5
2026-05-11T1400,2473A,113.0116,25.8228,郴州市,市职中,,28,17,26,14,20,89,89,44,44,6,15,7,6,0.5,0.6
2026-05-11T1400,2475A,113.0381,25.8074,郴州市,市审计局,,29,25,30,15,23,92,92,42,42,9,22,4,4,/,/
2026-05-11T1400,2476A,113.0348,25.7757,郴州市,市环保局,,30,20,27,13,21,93,93,43,43,10,23,8,6,0.4,0.6
2026-05-11T1400,4252A,113.0138,25.8011,郴州市,好美居路49号,,28,21,29,3,13,88,88,41,41,6,19,8,7,/,/
2026-05-11T1400,1431A,103.9727,30.7242,成都市,金泉两河,臭氧1小时(O3_1h),58,59,75,29,51,166,166,87,87,12,33,6,7,0.4,0.5
2026-05-11T1400,1432A,104.1423,30.6765,成都市,十里店,,49,35,57,33,36,155,155,87,87,7,23,7,6,0.8,0.9
2026-05-11T1400,1433A,104.0594,30.5765,成都市,三瓦窑,,49,38,50,34,36,144,144,88,88,18,30,6,6,0.4,0.5
2026-05-11T1400,1434A,104.1122,30.6306,成都市,沙河铺,,45,42,53,31,35,133,133,87,87,14,27,5,4,0.3,0.5
2026-05-11T1400,2880A,104.0219,30.6561,成都市,大石西路,细颗粒物(PM2.5),62,49,64,41,44,149,149,94,94,18,30,9,7,0.6,0.7
2026-05-11T1400,3136A,104.2724,30.559,成都市,龙泉驿区区政府,,45,44,41,31,30,142,142,110,110,10,12,9,8,0.5,0.5
2026-05-11T1400,3357A,104.0028,30.6891,成都市,金博路,,49,46,63,34,47,151,151,73,73,19,48,8,8,0.6,0.8
2026-05-11T1400,3359A,104.056,30.5228,成都市,华阳,颗粒物(PM10),51,51,48,32,35,149,149,104,104,8,16,4,4,0.5,0.4
2026-05-11T1400,3488A,104.387954,30.746684,成都市,青石路225号,臭氧1小时(O3_1h),65,43,50,32,34,172,172,106,106,10,20,6,6,0.6,0.7
2026-05-11T1400,3489A,104.0788,30.4054,成都市,科学城,细颗粒物(PM2.5),54,51,43,37,28,144,144,104,104,9,10,8,6,0.5,0.5
2026-05-11T1400,4011A,103.8505,30.6946,成都市,光华大道三段,臭氧1小时(O3_1h),92,69,89,44,58,193,193,98,98,8,30,7,7,0.6,0.7
2026-05-11T1400,4144A,104.3257,30.6406,成都市,八角井街185号,,47,43,54,30,28,149,149,114,114,9,11,7,6,0.5,0.5
2026-05-11T1400,4224A,104.2433276,30.53529463,成都市,鲸龙路1057号,,47,47,46,29,27,146,146,101,101,9,24,8,8,0.5,0.4
2026-05-11T1400,1062A,117.9531,40.908,承德市,铁路,,41,13,27,3,11,129,129,89,89,7,15,3,3,0.2,0.2
2026-05-11T1400,1063A,117.9397,40.9763,承德市,中国银行,,39,NA,24,3,10,123,123,88,88,2,11,2,2,0.2,0.2
2026-05-11T1400,4073A,117.9462,40.95,承德市,杏林街1号,,42,28,30,14,18,134,134,103,103,2,10,2,2,0.1,0.2
2026-05-11T1400,4274A,117.7994,40.9605,承德市,滨河大街98号,,41,NA,34,14,14,131,131,99,99,3,11,2,6,0.3,0.3
2026-05-11T1400,2314A,117.4698,30.6617,池州市,池州学院,NA,NA,23,26,15,17,123,123,108,108,11,12,NA,5,0.3,0.5
2026-05-11T1400,3237A,117.4918,30.6617,池州市,展览馆,,42,28,29,17,17,132,132,105,105,6,10,4,4,0.4,0.5
2026-05-11T1400,3333A,117.5626,30.695,池州市,第八中学,,39,27,27,18,18,123,123,95,95,10,14,4,4,0.3,0.5
2026-05-11T1400,3334A,117.5037,30.6242,池州市,第十二中学,,41,30,28,22,20,130,130,95,95,9,17,4,5,0.6,1
2026-05-11T1400,1744A,118.9229,42.2816,赤峰市,松山一中,,43,12,31,3,18,137,137,90,90,10,29,7,8,0.5,0.7
2026-05-11T1400,1745A,118.9588,42.2733,赤峰市,哈达街,,41,16,29,3,13,131,131,89,89,12,24,8,10,0.4,0.6
2026-05-11T1400,1746A,118.8792,42.2551,赤峰市,天义路,,37,16,20,14,15,116,116,78,78,8,21,5,8,0.3,0.4
2026-05-11T1400,3058A,119.2656,42.0356,赤峰市,银河街,,48,24,43,3,25,153,153,94,94,7,21,11,14,0.7,0.9
2026-05-11T1400,3286A,118.9359,42.3146,赤峰市,桥北物流园区,,38,9,29,3,13,121,121,80,80,7,31,4,4,0.5,0.7
2026-05-11T1400,2521A,107.3473,22.4137,崇左市,市环保局江州分局,颗粒物(PM10),60,64,41,25,27,138,138,71,71,8,12,8,5,0.8,0.7
2026-05-11T1400,4256A,107.375,22.3736,崇左市,石景林东路7号,,40,40,34,22,28,127,127,76,76,7,12,7,8,0.8,0.7
2026-05-11T1400,3207A,118.31131,32.3033,滁州市,市政府原办公楼,,45,26,28,22,33,141,141,110,110,10,12,6,6,0.5,0.5
2026-05-11T1400,3331A,118.3268,32.2633,滁州市,图书馆,,43,36,35,9,20,136,136,107,107,4,9,10,10,0.5,0.6
2026-05-11T1400,4101A,118.3196,32.3335,滁州市,银山路666号,,46,33,34,19,26,146,146,114,114,10,13,10,8,0.3,0.3
2026-05-11T1400,4102A,118.3426,32.2979,滁州市,黄山路555号,,47,39,43,17,25,150,150,118,118,5,11,8,8,0.7,0.7
2026-05-11T1400,2606A,101.5379,25.0492,楚雄彝族自治州,市经济开发区,,19,10,12,3,9,58,58,44,44,5,8,1,2,0.5,0.5
2026-05-11T1400,4153A,101.5536,25.0343,楚雄彝族自治州,团结路562号,,20,10,10,3,9,63,63,50,50,3,6,2,2,0.3,0.3
2026-05-11T1400,2549A,107.5087,31.2186,达州市,市环境监测站,细颗粒物(PM2.5),82,72,71,51,46,153,153,77,77,17,32,7,8,0.3,0.4
2026-05-11T1400,2550A,107.4988,31.2132,达州市,凤凰小区,细颗粒物(PM2.5),76,70,71,48,45,152,152,80,80,14,33,7,7,0.5,0.6
2026-05-11T1400,2551A,107.5081,31.1987,达州市,达县机关宾馆,颗粒物(PM10),65,70,72,34,48,158,158,84,84,20,39,6,6,0.4,0.5
2026-05-11T1400,2552A,107.4644,31.2124,达州市,市政中心,细颗粒物(PM2.5),72,74,71,46,45,161,161,80,80,12,39,7,5,0.4,0.5
2026-05-11T1400,2614A,100.2168,25.5818,大理白族自治州,大理市环境监测站,,26,NA,12,6,10,81,81,91,84,7,7,3,3,0.4,0.4
2026-05-11T1400,2615A,100.1542,25.7055,大理白族自治州,大理古城,,25,7,18,3,12,79,79,72,72,7,10,7,6,0.6,0.5
2026-05-11T1400,1109A,121.6119,38.974,大连市,甘井子,,37,29,84,14,35,116,116,103,103,8,17,10,10,0.5,0.5
2026-05-11T1400,1110A,121.565,38.9509,大连市,周水子,,37,37,52,14,23,115,115,98,98,11,22,5,6,0.5,0.6
2026-05-11T1400,1111A,121.5637,38.8849,大连市,星海三站,,36,29,44,15,22,114,114,101,101,6,12,4,5,0.4,0.5
2026-05-11T1400,1112A,121.6301,38.9117,大连市,青泥洼桥,,34,27,50,12,21,106,106,106,106,5,14,5,6,0.4,0.4
2026-05-11T1400,1113A,121.6248,38.8643,大连市,傅家庄,,34,24,50,11,19,108,108,101,101,3,9,7,8,0.4,0.4
2026-05-11T1400,1114A,121.5117,38.8636,大连市,七贤岭,,33,18,50,12,21,104,104,89,89,6,16,6,6,0.4,0.4
2026-05-11T1400,1116A,121.7507,39.1339,大连市,金州,,35,23,56,14,23,110,110,105,105,5,12,9,9,0.3,0.4
2026-05-11T1400,1117A,121.7811,39.0495,大连市,开发区,,34,33,44,14,20,107,107,103,103,11,17,7,6,0.4,0.4
2026-05-11T1400,1118A,121.9762,39.0631,大连市,双D港,,32,19,32,11,15,100,100,101,101,2,5,4,4,0.4,0.3
2026-05-11T1400,4082A,121.2548,38.8188,大连市,旅顺,,35,29,51,10,23,111,111,104,100,6,14,6,7,0.4,0.4
2026-05-11T1400,1789A,124.8085,46.0381,大庆市,大同区,颗粒物(PM10),56,58,64,32,35,134,134,108,108,9,13,3,4,0.5,0.6
2026-05-11T1400,1790A,125.1166,46.5255,大庆市,龙凤区,颗粒物(PM10),73,82,64,42,37,151,151,100,100,16,13,6,6,0.3,0.3
2026-05-11T1400,1791A,124.8894,46.4007,大庆市,红岗区,颗粒物(PM10),73,82,61,21,36,135,135,103,103,10,11,5,14,0.4,0.6
2026-05-11T1400,1792A,125.1391,46.578,大庆市,萨尔图区,颗粒物(PM10),76,86,69,44,34,166,166,113,113,18,16,9,9,0.6,0.5
2026-05-11T1400,1793A,124.9026,46.6217,大庆市,让胡路区,细颗粒物(PM2.5),70,56,59,45,40,148,148,108,108,10,10,4,4,0.5,0.5
2026-05-11T1400,3481A,125.127,46.6277,大庆市,萨区政府监测点,颗粒物(PM10),59,62,60,37,36,154,154,108,108,10,9,10,10,0.6,0.5
2026-05-11T1400,1723A,113.2926,40.0759,大同市,云冈宾馆,,40,30,58,23,18,128,128,79,79,9,33,7,9,0.3,1.1
2026-05-11T1400,1724A,113.3437,40.0921,大同市,大同大学,,41,31,46,6,15,130,130,82,82,10,26,6,9,0.5,0.6
2026-05-11T1400,1725A,113.2637,40.129,大同市,安家小村,,42,33,47,3,14,133,133,84,84,9,24,9,10,0.2,0.8
2026-05-11T1400,3282A,113.3399,40.0586,大同市,大同市卫生学校,,43,16,46,6,15,136,136,84,84,9,24,7,10,0.4,0.6
2026-05-11T1400,3565A,113.1371,40.1122,大同市,云冈站,,49,49,46,9,13,124,124,76,76,5,27,6,9,0.4,0.5
2026-05-11T1400,3566A,113.1186,40.2556,大同市,图书馆,,40,20,35,3,9,127,127,84,84,4,11,6,6,0.3,0.4
2026-05-11T1400,3567A,113.5931,40.0459,大同市,区一中,,49,49,35,3,11,135,135,88,88,8,12,5,5,0.4,0.4
2026-05-11T1400,4199A,113.2798248,40.09972476,大同市,魏都大道141号,,38,36,58,6,16,121,121,76,76,9,30,6,7,0.3,1.2
2026-05-11T1400,2269A,124.1068,50.4091,大兴安岭地区,科技局,,27,21,25,3,7,84,84,84,84,1,2,6,6,0.3,0.3
2026-05-11T1400,3663A,124.117,50.4279,大兴安岭地区,红旗社区,,30,14,11,3,7,94,94,90,90,3,3,5,5,0.2,0.2
2026-05-11T1400,1600A,124.33,40.0625,丹东市,江湾东路,,35,34,31,13,11,109,109,98,94,7,7,6,5,0.4,0.4
2026-05-11T1400,1601A,124.4242,40.1513,丹东市,临江后街,,42,42,32,17,11,108,108,92,92,6,7,7,7,0.4,0.4
2026-05-11T1400,1602A,124.3935,40.1461,丹东市,元宝山,,34,30,31,13,10,107,107,92,92,8,9,7,7,0.5,0.5
2026-05-11T1400,1603A,124.3634,40.1093,丹东市,民主桥,,37,37,35,14,12,106,106,94,94,7,8,8,8,0.3,0.3
2026-05-11T1400,3541A,109.5726195,19.51688767,儋州市,第一中学子站,,19,16,28,6,10,60,60,46,46,4,5,5,5,0.3,0.3
2026-05-11T1400,3542A,109.5567,19.5187,儋州市,东坡学校子站,,20,20,23,8,10,64,64,49,49,2,3,4,4,0.4,0.4
2026-05-11T1400,2616A,98.5611,24.4273,德宏傣族景颇族自治州,德宏州监测站,,35,NA,17,24,17,77,77,37,37,5,7,3,3,0.8,0.9
2026-05-11T1400,3677A,98.5887,24.4366,德宏傣族景颇族自治州,芒市人民政府综合楼,,31,31,38,17,17,74,74,37,37,10,10,4,4,0.6,0.6
2026-05-11T1400,1901A,104.424,31.1209,德阳市,东山公园,细颗粒物(PM2.5),143,NA,74,107,60,154,154,93,93,32,19,9,6,0.9,0.7
2026-05-11T1400,1902A,104.3827,31.1318,德阳市,西小区,细颗粒物(PM2.5),145,125,101,109,71,157,157,87,87,39,43,12,7,1.1,0.9
2026-05-11T1400,1904A,104.3553,31.1091,德阳市,耐火材料厂,细颗粒物(PM2.5),156,154,112,119,80,190,190,100,100,34,42,11,6,0.8,0.7
2026-05-11T1400,4145A,104.4144,31.1495,德阳市,市林业局,细颗粒物(PM2.5),146,NA,80,110,63,188,188,104,104,32,34,11,6,0.8,0.7
2026-05-11T1400,1622A,116.3034,37.4675,德州市,儿童乐园,NA,NA,NA,54,25,34,200,200,159,159,9,15,12,11,0.8,0.8
2026-05-11T1400,1624A,116.2992,37.4449,德州市,监理站,臭氧1小时(O3_1h),102,63,76,25,36,203,203,160,160,6,12,15,15,0.5,0.5
2026-05-11T1400,3066A,116.2722,37.438,德州市,九衢泉纯净水厂,臭氧1小时(O3_1h),88,56,68,21,35,190,190,152,152,9,20,11,12,0.8,0.9
2026-05-11T1400,3371A,116.3693,37.44,德州市,开发区人民医院,臭氧1小时(O3_1h),95,73,77,30,34,196,196,149,149,10,16,15,14,0.7,0.6
2026-05-11T1400,3511A,116.5687,37.3331,德州市,陵城艺术中心,臭氧1小时(O3_1h),98,70,72,26,57,198,198,145,145,11,15,16,15,0.9,0.8
2026-05-11T1400,4292A,116.352738,37.420875,德州市,新河东路,臭氧1小时(O3_1h),88,56,60,20,31,190,190,143,143,6,14,14,12,0.9,0.8
2026-05-11T1400,2621A,99.7054,27.8319,迪庆藏族自治州,迪庆州站,,30,12,18,3,10,96,96,100,99,9,8,8,8,0.7,0.2
2026-05-11T1400,3180A,99.7122,27.8129,迪庆藏族自治州,质量技术监督局,,33,11,17,3,10,103,103,107,106,9,8,8,8,0.4,0.4
2026-05-11T1400,4257A,104.6092,35.5962,定西市,将台街,,45,45,69,10,29,144,144,91,91,3,19,4,4,0.1,0.2
2026-05-11T1400,4309A,104.6159,35.5701,定西市,正龙路62号,,49,44,68,34,34,136,136,89,89,5,11,4,4,0.2,0.2
2026-05-11T1400,4071A,114.9883,38.5232,定州市,交通局,臭氧1小时(O3_1h),70,67,63,24,16,176,176,113,113,7,18,6,5,0.4,0.4
2026-05-11T1400,4072A,115.0045,38.5136,定州市,第五中学,"颗粒物(PM10),臭氧1小时(O3_1h)",58,61,72,16,16,166,166,105,105,6,19,5,4,0.4,0.4
2026-05-11T1400,1390A,113.7943,23.0132,东莞市,东城石井,臭氧1小时(O3_1h),78,45,56,29,34,182,182,96,96,19,32,5,5,0.7,0.8
2026-05-11T1400,1391A,113.7384,22.9659,东莞市,南城西平,,49,39,52,25,32,155,155,94,94,14,31,5,5,0.6,0.6
2026-05-11T1400,3319A,113.7283,23.041,东莞市,万江金泰,臭氧1小时(O3_1h),62,48,65,36,41,169,169,98,98,18,42,8,8,0.7,0.7
2026-05-11T1400,4129A,113.8666,23.1062,东莞市,裕兴路,臭氧1小时(O3_1h),74,60,84,35,50,179,179,95,95,14,40,6,7,0.8,0.9
2026-05-11T1400,4130A,114.0076,22.9739,东莞市,教育路1号,臭氧1小时(O3_1h),92,56,79,27,42,193,193,89,89,19,36,5,5,0.7,0.7
2026-05-11T1400,4131A,113.7981,22.8124,东莞市,长怡路1号,臭氧1小时(O3_1h),54,37,55,21,28,163,163,98,98,11,29,4,4,0.7,0.7
2026-05-11T1400,1666A,118.6612,37.4313,东营市,市环保局,臭氧1小时(O3_1h),53,39,67,15,49,162,162,137,137,13,19,12,15,0.4,0.5
2026-05-11T1400,3036A,118.6903,37.4337,东营市,开发区管委会,臭氧1小时(O3_1h),59,55,66,13,41,167,167,138,138,13,21,11,12,0.6,0.7
2026-05-11T1400,3365A,118.5721,37.5654,东营市,垦利区民丰路,臭氧1小时(O3_1h),77,36,63,9,33,181,181,157,157,10,18,18,18,0.6,0.7
2026-05-11T1400,3498A,118.5063,37.8606,东营市,河口城区,臭氧1小时(O3_1h),82,48,61,18,33,185,185,162,162,6,10,14,12,0.9,0.9
2026-05-11T1400,3646A,118.4979,37.4623,东营市,胜利站,,49,42,71,10,42,156,156,131,131,8,22,6,8,0.7,0.9
2026-05-11T1400,3734A,118.5753,37.4405,东营市,理想之城,臭氧1小时(O3_1h),62,41,67,20,40,169,169,134,134,18,26,10,10,0.6,0.7
2026-05-11T1400,1591A,110.0024,39.8127,鄂尔多斯市,综合楼,,42,31,73,9,28,134,134,106,106,7,20,6,7,0.5,0.5
2026-05-11T1400,1592A,109.9485,39.8259,鄂尔多斯市,巴音孟克林场办事处,,44,31,60,24,26,138,138,116,116,4,15,5,6,0.2,0.3
2026-05-11T1400,1593A,109.7734,39.5987,鄂尔多斯市,康泽苑,,45,36,78,9,21,141,141,93,93,6,18,6,6,0.3,0.3
2026-05-11T1400,1594A,109.8121,39.5987,鄂尔多斯市,华泰汽车城,,43,39,71,8,20,136,136,83,83,5,24,10,9,0.3,0.5
2026-05-11T1400,1595A,109.9734,39.7884,鄂尔多斯市,奥林花园,,43,31,73,3,21,135,135,102,102,6,27,4,4,0.3,0.4
2026-05-11T1400,2436A,114.894,30.3989,鄂州市,市政府,,36,24,66,9,38,114,114,94,94,9,19,12,12,0.4,0.6
2026-05-11T1400,2437A,114.8986,30.3714,鄂州市,赵家坝,,42,31,63,7,41,133,133,98,98,2,11,16,15,0.3,0.6
2026-05-11T1400,3654A,114.8093,30.4091,鄂州市,精准医疗中心,,40,30,60,14,44,128,128,97,97,4,21,4,6,0.5,0.9
2026-05-11T1400,2454A,109.4978,30.2979,恩施土家族苗族自治州,湖北民院,,40,29,33,16,23,127,127,68,68,2,7,8,8,0.3,0.3
2026-05-11T1400,3549A,109.5061,30.3771,恩施土家族苗族自治州,龙凤新区,,36,33,28,20,19,114,114,55,55,7,10,7,7,0.3,0.4
2026-05-11T1400,2499A,108.3411,21.6159,防城港市,沙万,,48,48,51,14,34,64,64,73,73,15,14,15,12,1.4,0.8
2026-05-11T1400,2500A,108.3515,21.7733,防城港市,防城档案局,颗粒物(PM10),51,51,59,24,39,126,126,83,83,9,12,10,7,1.0,0.8
2026-05-11T1400,2501A,108.3506,21.6414,防城港市,大海花园,颗粒物(PM10),55,57,47,22,40,89,89,86,86,17,12,17,9,1.6,0.8
2026-05-11T1400,1371A,113.1293,23.0065,佛山市,湾梁,,46,46,55,24,38,144,144,74,74,13,37,/,/,/,/
2026-05-11T1400,1372A,113.1082,23.0477,佛山市,华材职中,细颗粒物(PM2.5),64,NA,55,42,92,122,122,82,82,11,35,6,5,0.5,0.7
2026-05-11T1400,1373A,113.1439,23.045,佛山市,南海气象局,,43,40,49,20,40,136,136,75,75,12,37,/,/,/,/
2026-05-11T1400,1374A,113.2879,22.8094,佛山市,顺德苏岗,细颗粒物(PM2.5),56,NA,48,38,34,142,142,83,83,8,27,/,/,0.6,0.7
2026-05-11T1400,1376A,112.8384,22.8678,佛山市,高明孔堂,,37,37,40,22,25,104,104,69,69,12,15,/,/,/,/
2026-05-11T1400,1377A,112.8835,23.1584,佛山市,三水监测站,,34,34,68,20,62,106,106,53,53,14,51,5,6,0.7,0.8
2026-05-11T1400,1378A,112.8668,23.185,佛山市,三水云东海,,44,44,76,19,47,116,116,58,58,12,30,/,/,/,/
2026-05-11T1400,3625A,113.2568,22.7629,佛山市,容桂街道办,,44,34,53,27,38,140,140,74,74,16,38,/,/,/,/
2026-05-11T1400,1282A,119.2681,26.0506,福州市,师大,,36,20,30,6,13,115,115,87,87,5,16,4,5,0.4,0.4
2026-05-11T1400,1283A,119.2983,26.1028,福州市,五四北路,,33,NA,28,10,15,104,104,73,73,8,19,4,5,0.3,0.3
2026-05-11T1400,1284A,119.2648,26.0769,福州市,杨桥西路,,35,15,28,8,12,111,111,74,74,7,17,4,5,/,/
2026-05-11T1400,3048A,119.5799,26.0937,福州市,九龙,,43,28,24,14,14,136,136,83,83,8,15,6,6,0.2,0.2
2026-05-11T1400,3526A,119.5188,25.9666,福州市,吴航,,39,20,24,11,14,124,124,70,70,9,18,8,7,0.5,0.5
2026-05-11T1400,4104A,119.3106,26.0648,福州市,路通桥巷6号,,37,27,30,11,18,118,118,79,79,7,15,/,/,/,/
2026-05-11T1400,1755A,123.7974,41.8494,抚顺市,望花区,臭氧1小时(O3_1h),53,39,36,18,24,162,162,123,123,10,21,7,7,0.5,0.7
2026-05-11T1400,1756A,123.9161,41.8827,抚顺市,顺城区,臭氧1小时(O3_1h),54,35,27,17,19,163,163,117,117,11,21,13,10,0.6,0.6
2026-05-11T1400,1757A,124.0437,41.8615,抚顺市,东洲区,臭氧1小时(O3_1h),53,48,30,23,14,162,162,115,115,16,13,10,9,1.0,0.6
2026-05-11T1400,1758A,123.9246,41.8638,抚顺市,新抚区,臭氧1小时(O3_1h),58,42,32,20,19,166,166,118,118,9,17,9,7,0.8,0.7
2026-05-11T1400,1759A,124.0972,41.8961,抚顺市,大伙房水库,臭氧1小时(O3_1h),55,38,30,16,14,164,164,120,120,11,13,10,8,0.8,0.5
2026-05-11T1400,1760A,123.708,41.8386,抚顺市,沈抚新城,,48,37,38,20,22,151,151,121,121,13,23,11,10,0.6,0.9
2026-05-11T1400,2377A,116.3544,27.9833,抚州市,市站,,28,23,20,10,11,88,88,59,59,3,9,2,4,0.8,1
2026-05-11T1400,2378A,116.3562,27.9631,抚州市,血防站,,33,24,24,23,12,98,98,62,62,3,9,7,7,0.5,0.5
2026-05-11T1400,2379A,116.3561,28.0007,抚州市,采茶剧团,,28,22,23,13,12,87,87,58,58,3,7,10,10,0.6,0.7
2026-05-11T1400,2380A,116.3854,27.9648,抚州市,医学分院,,32,21,25,12,11,102,102,63,63,2,8,6,6,1.1,1.1
2026-05-11T1400,2207A,121.6095,41.9978,阜新市,工业园区,颗粒物(PM10),53,54,61,8,44,158,158,130,130,7,20,9,15,0.4,0.7
2026-05-11T1400,2208A,121.6567,42.0188,阜新市,长青街,,49,45,67,8,43,156,156,131,131,11,20,9,16,0.4,0.7
2026-05-11T1400,2209A,121.6672,42.07,阜新市,农业园区,臭氧1小时(O3_1h),52,48,75,9,39,161,161,137,137,12,18,8,11,0.4,0.7
2026-05-11T1400,2211A,121.6343,42.0455,阜新市,玉龙新城,颗粒物(PM10),54,55,62,8,38,159,159,130,130,9,23,9,11,0.4,0.7
2026-05-11T1400,2301A,115.8276,32.8929,阜阳市,市监测站,,48,48,51,13,24,146,146,119,119,6,8,7,7,0.5,0.6
2026-05-11T1400,2303A,115.8551,32.8606,阜阳市,开发区,颗粒物(PM10),51,51,52,16,26,146,146,120,120,6,10,6,6,0.5,0.6
2026-05-11T1400,2875A,115.783962,32.889217,阜阳市,阜阳职业技术学院,,48,43,48,18,23,152,152,130,130,5,8,8,8,0.5,0.6
2026-05-11T1400,3468A,115.79,32.8614,阜阳市,市规划展馆,,48,44,46,14,24,151,151,124,124,4,6,9,9,0.7,0.7
2026-05-11T1400,3469A,115.835101,32.918568,阜阳市,枣园社区,,49,49,49,15,25,143,143,115,115,9,13,8,8,0.6,0.7
2026-05-11T1400,2669A,102.9097,34.9841,甘南藏族自治州,州政府,,39,25,50,16,27,123,123,67,67,1,23,5,4,0.2,0.4
2026-05-11T1400,3380A,102.8915,34.9618,甘南藏族自治州,甘肃民族师范学院,,41,26,65,10,25,129,129,74,74,8,35,3,4,0.1,0.2
2026-05-11T1400,2570A,101.96,30.048,甘孜藏族自治州,水桥子,,32,12,18,3,6,102,102,64,64,6,18,6,6,0.2,0.3
2026-05-11T1400,3065A,101.9534,29.9976,甘孜藏族自治州,州环保局,,36,12,14,7,8,114,114,88,88,7,13,7,7,0.6,0.5
2026-05-11T1400,2363A,114.9368,25.8663,赣州市,地委,,44,44,40,26,25,134,134,78,78,8,13,2,3,0.9,0.8
2026-05-11T1400,2364A,114.946,25.8483,赣州市,气象台,细颗粒物(PM2.5),52,NA,37,36,30,125,125,80,80,6,20,1,4,0.5,0.5
2026-05-11T1400,2365A,114.932,25.8332,赣州市,市图书馆,,39,NA,34,27,27,114,114,77,77,4,19,4,4,0.5,0.6
2026-05-11T1400,2366A,114.8905,25.8472,赣州市,华坚鞋城,NA,NA,48,39,26,26,122,122,76,76,NA,21,8,7,0.3,0.4
2026-05-11T1400,3109A,115.0094,25.8614,赣州市,赣县区卫计委,,38,38,37,21,19,116,116,79,79,8,16,3,4,0.6,0.7
2026-05-11T1400,2684A,106.2753,36.0057,固原市,监测站,颗粒物(PM10),70,78,89,19,27,134,134,108,108,4,9,7,7,0.4,0.4
2026-05-11T1400,2685A,106.2384,36.0189,固原市,新区,颗粒物(PM10),65,70,86,21,28,128,128,102,102,5,10,6,6,0.2,0.3
2026-05-11T1400,2544A,106.6307,30.4577,广安市,市委,臭氧1小时(O3_1h),90,60,55,34,46,192,192,116,116,11,26,9,8,0.5,0.6
2026-05-11T1400,2545A,106.6266,30.4662,广安市,友谊中学,臭氧1小时(O3_1h),88,54,49,28,36,190,190,108,108,10,17,10,8,0.8,0.8
2026-05-11T1400,2547A,106.6386,30.4551,广安市,广电花园,臭氧1小时(O3_1h),73,57,51,37,46,178,178,105,105,13,22,8,7,0.6,0.7
2026-05-11T1400,2902A,106.6347,30.4868,广安市,北辰小学,臭氧1小时(O3_1h),85,64,57,38,42,188,188,101,101,12,16,6,5,0.5,0.5
2026-05-11T1400,2524A,105.8211,32.4444,广元市,老城,臭氧1小时(O3_1h),79,60,66,40,50,183,183,96,96,16,25,17,5,1.1,0.8
2026-05-11T1400,2526A,105.8629,32.429,广元市,监测站,臭氧1小时(O3_1h),68,54,71,37,49,174,174,100,100,12,19,5,6,0.8,0.8
2026-05-11T1400,3617A,105.8047,32.4167,广元市,经开区,细颗粒物(PM2.5),86,70,79,53,62,167,167,88,88,12,23,19,18,1.0,0.9
2026-05-11T1400,1345A,113.2346,23.1423,广州市,广雅中学,,43,43,51,26,34,135,135,75,75,13,38,2,2,0.9,0.9
2026-05-11T1400,1346A,113.2611,23.105,广州市,市五中,臭氧1小时(O3_1h),60,41,49,26,33,168,168,92,92,19,39,4,4,/,/
2026-05-11T1400,1348A,113.3477,23.0916,广州市,广东商学院,,49,40,47,27,33,154,154,81,81,25,46,5,5,0.8,0.9
2026-05-11T1400,1349A,113.4332,23.105,广州市,市八十六中,臭氧1小时(O3_1h),59,36,45,30,30,167,167,89,89,28,53,6,7,/,/
2026-05-11T1400,1350A,113.3506,22.9488,广州市,番禺中学,臭氧1小时(O3_1h),55,47,46,24,28,164,164,86,86,14,27,5,6,0.8,0.8
2026-05-11T1400,1351A,113.2147,23.3918,广州市,花都师范,细颗粒物(PM2.5),54,54,63,37,41,146,146,78,78,16,51,7,7,1.0,1.2
2026-05-11T1400,1352A,113.2599,23.1329,广州市,市监测站,,45,37,48,24,32,142,142,81,81,15,31,3,3,/,/
2026-05-11T1400,1353A,113.5618,23.3119,广州市,九龙镇镇龙,颗粒物(PM10),54,55,50,36,33,133,133,63,63,24,36,7,6,0.7,0.7
2026-05-11T1400,1354A,113.2764,23.1544,广州市,麓湖,,50,42,43,29,33,157,157,86,86,17,34,6,5,0.8,0.9
2026-05-11T1400,2846A,113.3209,23.1323,广州市,体育西,,50,44,49,25,30,158,158,84,84,20,39,5,5,0.8,0.9
2026-05-11T1400,3298A,113.5718,23.5493,广州市,从化街口,细颗粒物(PM2.5),72,61,57,46,40,170,170,88,88,18,22,6,5,0.9,0.9
2026-05-11T1400,3299A,113.3463,23.369,广州市,白云竹料,细颗粒物(PM2.5),66,66,84,43,52,155,155,82,82,22,42,5,4,0.8,1
2026-05-11T1400,3300A,113.2981,23.2365,广州市,白云嘉禾,颗粒物(PM10),53,53,72,34,46,150,150,82,82,25,50,9,9,/,/
2026-05-11T1400,3301A,113.4256,23.1716,广州市,黄埔科学城,细颗粒物(PM2.5),52,45,53,36,41,129,129,72,72,16,19,5,6,0.8,0.9
2026-05-11T1400,3302A,113.3942,23.0485,广州市,番禺大学城,臭氧1小时(O3_1h),88,44,49,26,40,190,190,99,99,19,34,7,7,0.7,0.7
2026-05-11T1400,3303A,113.4923,22.8169,广州市,南沙黄阁,臭氧1小时(O3_1h),89,43,46,40,29,191,191,87,87,18,32,7,6,/,/
2026-05-11T1400,3304A,113.534,22.7893,广州市,南沙街,臭氧1小时(O3_1h),54,41,43,32,26,163,163,82,82,18,27,7,7,0.6,0.5
2026-05-11T1400,3443A,113.2905,23.5541,广州市,花都梯面,,46,46,63,25,38,112,112,58,58,17,26,9,8,/,/
2026-05-11T1400,3445A,113.786,23.7479,广州市,从化良口,细颗粒物(PM2.5),58,50,38,39,28,138,138,98,98,12,13,5,4,/,/
2026-05-11T1400,3446A,113.805,23.2614,广州市,增城荔城,细颗粒物(PM2.5),70,67,73,45,50,159,159,78,78,22,32,9,7,0.7,0.8
2026-05-11T1400,2506A,109.604387,23.066791,贵港市,江南子站,,46,44,51,30,31,146,146,71,71,8,21,8,9,0.7,0.7
2026-05-11T1400,2508A,109.5669,23.1065,贵港市,荷城子站,NA,NA,46,42,32,28,NA,NA,73,73,NA,18,NA,6,1.8,0.8
2026-05-11T1400,3405A,109.5886,23.1172,贵港市,新世纪学校,细颗粒物(PM2.5),70,48,43,45,30,142,142,77,77,14,19,/,/,0.7,0.6
2026-05-11T1400,4260A,109.5933,23.095,贵港市,中山路155-3号,细颗粒物(PM2.5),104,73,47,64,33,152,152,99,99,9,16,/,/,0.5,0.6
2026-05-11T1400,1439A,106.6863,26.6035,贵阳市,马鞍山,细颗粒物(PM2.5),78,70,50,49,34,58,58,30,30,33,22,14,6,/,/
2026-05-11T1400,1441A,106.6241,26.6266,贵阳市,鉴湖路,,44,44,61,20,36,99,99,53,53,13,24,15,19,0.7,0.8
2026-05-11T1400,1442A,106.7468,26.6344,贵阳市,燕子冲,细颗粒物(PM2.5),102,97,60,62,38,77,77,33,33,38,24,18,11,1.0,0.8
2026-05-11T1400,1443A,106.6556,26.4362,贵阳市,碧云窝,细颗粒物(PM2.5),84,88,80,52,48,106,106,50,50,16,18,35,19,/,/
2026-05-11T1400,1445A,106.6963,26.6063,贵阳市,红边门,细颗粒物(PM2.5),105,100,63,65,40,73,73,38,38,50,33,23,11,/,/
2026-05-11T1400,1446A,106.7162383,26.56964667,贵阳市,新华路,细颗粒物(PM2.5),94,95,77,57,48,78,78,50,50,40,36,41,21,0.7,0.5
2026-05-11T1400,1447A,106.6742,26.542,贵阳市,太慈桥,细颗粒物(PM2.5),103,88,57,63,42,75,75,36,36,28,20,23,9,/,/
2026-05-11T1400,4230A,106.688212,26.56952,贵阳市,花果园大街66号,细颗粒物(PM2.5),100,83,56,60,44,65,65,40,40,37,32,19,9,/,/
2026-05-11T1400,4231A,106.687268,26.516892,贵阳市,漓江路57号,细颗粒物(PM2.5),104,85,62,64,48,79,79,40,40,28,26,22,12,0.8,0.7
2026-05-11T1400,1864A,110.3091,25.2705,桂林市,龙隐路小学,,37,37,33,18,25,85,85,52,52,6,11,4,5,0.6,0.6
2026-05-11T1400,1865A,110.2849361,25.22909545,桂林市,八中,,36,36,30,8,16,81,81,51,51,8,16,4,4,0.6,0.6
2026-05-11T1400,3531A,110.296,25.1254,桂林市,旅游学院,,35,26,36,24,26,85,85,54,54,4,8,6,6,0.3,0.3
2026-05-11T1400,4222A,110.1835,25.2444,桂林市,环湖路276号,,40,NA,25,28,19,88,88,49,49,7,23,3,4,0.4,0.4
2026-05-11T1400,4301A,110.2803,25.2773,桂林市,信义路13号,,38,38,32,9,23,79,79,47,47,4,12,4,5,0.6,0.6
2026-05-11T1400,2674A,100.2262,34.4854,果洛藏族自治州,玛沁县大武镇,,38,28,35,9,14,121,121,79,79,1,4,17,20,0.3,0.4
2026-05-11T1400,1130A,126.5557,45.8109,哈尔滨市,松北商大,颗粒物(PM10),59,62,40,29,28,155,155,125,125,13,14,6,6,0.5,0.5
2026-05-11T1400,1132A,126.6162,45.719,哈尔滨市,南岗学府路,颗粒物(PM10),54,55,44,20,24,155,155,126,126,11,15,6,5,0.4,0.6
2026-05-11T1400,1133A,126.6894,45.7733,哈尔滨市,太平宏伟公园,颗粒物(PM10),70,78,43,27,25,155,155,123,123,14,16,8,8,0.3,0.3
2026-05-11T1400,1134A,126.6361,45.7672,哈尔滨市,道外承德广场,颗粒物(PM10),69,76,65,22,22,145,145,115,115,20,17,9,9,0.7,0.6
2026-05-11T1400,1136A,126.644,45.7261,哈尔滨市,动力和平路,,49,48,44,16,23,154,154,124,124,8,14,7,6,0.4,0.5
2026-05-11T1400,1137A,126.5933,45.7479,哈尔滨市,道里建国路,NA,NA,NA,43,54,25,145,145,117,117,19,19,6,11,0.3,0.5
2026-05-11T1400,1138A,126.6127,45.6119,哈尔滨市,平房东轻厂,臭氧1小时(O3_1h),58,33,34,25,22,166,166,132,132,11,11,14,17,0.8,0.9
2026-05-11T1400,1139A,126.5875,45.9827,哈尔滨市,呼兰师专,颗粒物(PM10),53,54,45,18,28,139,139,114,114,10,18,13,12,0.3,0.4
2026-05-11T1400,1140A,126.6299,45.6799,哈尔滨市,省农科院,颗粒物(PM10),75,84,57,30,28,144,144,118,118,13,18,7,7,0.6,0.6
2026-05-11T1400,4282A,126.6769,45.7379,哈尔滨市,华山路1号,颗粒物(PM10),60,63,41,25,25,157,157,126,126,11,16,7,4,0.3,0.3
2026-05-11T1400,4283A,126.9717,45.5356,哈尔滨市,解放大街52号,NA,NA,54,44,17,17,167,167,140,140,9,12,3,5,NA,0.5
2026-05-11T1400,2688A,93.5124,42.8176,哈密市,地区监测站,颗粒物(PM10),57,59,51,33,29,105,105,92,92,5,19,10,7,0.1,0.1
2026-05-11T1400,2689A,93.5014,42.8312,哈密市,哈密师范学校,细颗粒物(PM2.5),100,68,72,60,35,109,109,83,83,6,30,6,5,0.2,0.4
2026-05-11T1400,2671A,100.9016,36.9464,海北藏族自治州,海晏县西海镇,,37,34,46,22,24,118,118,84,84,2,3,9,8,0.3,0.3
2026-05-11T1400,3867A,102.074,36.5056,海东市,平安区公安局北苑,,48,48,66,21,31,125,125,80,80,3,10,4,9,0.4,0.5
2026-05-11T1400,4163A,102.0984,36.5119,海东市,滨河路,,35,34,64,12,27,111,111,65,65,5,27,5,8,0.5,0.7
2026-05-11T1400,1410A,110.3189,20.0596,海口市,海南大学,,28,20,23,9,10,88,88,77,77,2,3,5,5,0.3,0.4
2026-05-11T1400,1411A,110.2827,20.0051,海口市,秀英海南医院,,27,18,19,9,11,84,84,75,75,3,3,6,6,0.3,0.3
2026-05-11T1400,1412A,110.3391,19.9979,海口市,海南师范大学,,27,23,23,10,10,84,84,75,75,2,3,3,3,0.4,0.4
2026-05-11T1400,1413A,110.3303,20.0359,海口市,龙华路环保局宿舍,,30,30,24,12,11,89,89,76,76,3,4,/,/,0.3,0.3
2026-05-11T1400,3539A,110.5111,19.9737,海口市,桂林洋子站,,21,21,27,9,9,67,67,63,63,4,4,/,/,/,/
2026-05-11T1400,4134A,110.1952,20.0451,海口市,长滨二路9号,,29,16,19,10,10,92,92,75,75,2,3,/,/,/,/
2026-05-11T1400,2673A,100.6158,36.2985,海南藏族自治州,共和县恰卜恰镇,,41,35,52,23,24,130,130,87,87,1,9,12,11,0.2,0.3
2026-05-11T1400,2676A,97.373,37.376,海西蒙古族藏族自治州,德令哈市,颗粒物(PM10),57,59,48,14,16,130,130,109,109,6,2,17,16,0.7,0.3
2026-05-11T1400,1049A,114.492,36.5712,邯郸市,矿院,臭氧1小时(O3_1h),79,58,60,32,34,183,183,140,140,2,11,7,10,0.4,0.7
2026-05-11T1400,1050A,114.4839,36.6136,邯郸市,丛台公园,臭氧1小时(O3_1h),70,50,55,27,30,176,176,136,136,1,9,10,11,0.4,0.6
2026-05-11T1400,3458A,114.7893,36.5592,邯郸市,香泉濮院小区,细颗粒物(PM2.5),82,84,83,51,39,168,168,112,112,9,18,1,4,0.4,0.5
2026-05-11T1400,3580A,114.1998,36.4439,邯郸市,峰峰矿区临水派出所,臭氧1小时(O3_1h),94,58,52,31,26,195,195,138,138,3,8,3,5,0.4,0.6
2026-05-11T1400,4068A,114.5209,36.7697,邯郸市,建安街268号,臭氧1小时(O3_1h),69,67,70,27,25,175,175,132,132,12,21,4,3,0.4,0.4
2026-05-11T1400,4069A,114.5488,36.6177,邯郸市,丛台东路558号,臭氧1小时(O3_1h),63,61,64,28,29,170,170,124,124,2,16,5,7,0.6,0.8
2026-05-11T1400,2635A,107.0155,33.0707,汉中市,市监测站,臭氧1小时(O3_1h),74,70,66,40,42,179,179,90,90,12,18,9,6,0.8,0.7
2026-05-11T1400,2636A,107.0083,33.114,汉中市,鑫源开发区,臭氧1小时(O3_1h),84,80,60,26,40,187,187,100,100,13,18,12,9,1.0,0.7
2026-05-11T1400,2637A,107.0072,33.0323,汉中市,南郑大河坎水厂,颗粒物(PM10),63,68,57,28,33,159,159,83,83,9,15,6,6,0.6,0.6
2026-05-11T1400,1223A,120.2073,30.2111,杭州市,滨江,,42,25,45,11,21,133,133,90,90,4,21,8,9,0.7,0.7
2026-05-11T1400,1224A,120.0625,30.2737,杭州市,西溪,,42,23,36,6,17,132,132,90,90,6,12,5,5,0.8,0.7
2026-05-11T1400,1226A,120.3417,30.315,杭州市,下沙,,37,12,52,6,24,116,116,85,85,2,31,10,10,0.6,0.6
2026-05-11T1400,1227A,120.1252,30.2465,杭州市,卧龙桥,,44,21,31,9,17,138,138,92,92,6,18,7,7,0.2,0.3
2026-05-11T1400,1228A,120.1902,30.2691,杭州市,浙江农大,,40,14,42,9,24,127,127,86,86,2,24,8,9,0.3,0.4
2026-05-11T1400,1230A,120.1195,30.3121,杭州市,和睦小学,,43,15,37,8,22,136,136,90,90,2,24,7,8,0.4,0.4
2026-05-11T1400,1231A,120.3076,30.4146,杭州市,临平镇,臭氧1小时(O3_1h),57,22,49,10,24,165,165,99,99,7,31,7,7,0.4,0.6
2026-05-11T1400,1232A,120.2753,30.1839,杭州市,城厢镇,,43,32,52,16,25,137,137,88,88,3,25,7,8,0.6,0.6
2026-05-11T1400,1233A,120.0883,30.1808,杭州市,云栖,,40,25,29,10,17,128,128,83,83,12,28,7,7,0.6,0.6
2026-05-11T1400,3557A,119.9463,30.0496,杭州市,镇二中,,36,17,23,10,14,115,115,76,76,9,19,5,5,0.6,0.8
2026-05-11T1400,3558A,119.7184,30.2367,杭州市,市府大楼,,32,8,20,3,12,102,102,74,74,8,14,6,7,0.4,0.4
2026-05-11T1400,3656A,120.1554,30.2863,杭州市,消防大队,,38,16,41,9,21,119,119,84,84,3,19,6,6,0.4,0.5
2026-05-11T1400,1270A,117.1957,31.7845,合肥市,明珠广场,,47,39,41,18,30,148,148,107,107,7,16,8,8,0.6,0.6
2026-05-11T1400,1271A,117.307,31.8765,合肥市,三里街,,41,36,43,17,29,129,129,94,94,9,19,8,8,0.5,0.6
2026-05-11T1400,1272A,117.2587,31.8703,合肥市,琥珀山庄,,46,36,41,17,26,145,145,103,103,6,13,9,9,0.6,0.6
2026-05-11T1400,1275A,117.2593,31.9376,合肥市,庐阳区,,45,36,41,19,27,141,141,105,105,7,13,8,8,0.7,0.7
2026-05-11T1400,1276A,117.345251,31.861615,合肥市,瑶海区,,44,39,39,19,25,139,139,106,106,8,16,8,8,0.5,0.5
2026-05-11T1400,1277A,117.3033,31.7967,合肥市,包河区,,43,39,41,21,24,137,137,104,104,6,11,12,11,0.6,0.6
2026-05-11T1400,1278A,117.278,31.7392,合肥市,滨湖新区,,44,36,40,20,27,139,139,105,105,3,7,8,7,0.6,0.6
2026-05-11T1400,1279A,117.1324,31.8395,合肥市,高新区,,48,39,41,19,26,152,152,109,109,5,11,7,6,0.5,0.5
2026-05-11T1400,3464A,117.3802,31.9148,合肥市,高教基地,,43,39,40,16,24,135,135,101,101,6,10,10,9,0.5,0.5
2026-05-11T1400,4098A,117.2518,31.8404,合肥市,中国科学技术大学,,49,41,41,19,26,154,154,112,112,3,11,9,8,0.6,0.6
2026-05-11T1400,3614A,79.9241,37.0878,和田地区,地区环保局,颗粒物(PM10),500,752,194,135,40,102,102,87,87,4,9,2,2,0.4,0.4
2026-05-11T1400,3615A,79.9132,37.1137,和田地区,市环保局,颗粒物(PM10),360,468,139,128,42,115,115,96,96,3,13,1,5,0.5,0.3
2026-05-11T1400,2517A,108.0496,24.6957,河池市,市环保站,,20,20,31,13,19,39,39,25,25,8,12,5,6,0.6,0.7
2026-05-11T1400,4302A,108.0901,24.6945,河池市,上任中路54号,,26,26,30,7,14,28,28,20,20,13,15,6,6,1.0,1
2026-05-11T1400,1697A,114.6962,23.7538,河源市,东埔,细颗粒物(PM2.5),56,45,50,38,37,137,137,98,98,11,14,6,6,0.6,0.6
2026-05-11T1400,1698A,114.6895,23.7232,河源市,老城,"颗粒物(PM10),细颗粒物(PM2.5)",52,52,52,36,36,130,130,94,94,10,14,6,6,0.6,0.6
2026-05-11T1400,3374A,115.5562,35.089,菏泽市,定陶老年大学,臭氧1小时(O3_1h),59,41,38,35,30,167,167,125,125,11,14,6,6,0.5,0.4
2026-05-11T1400,4114A,115.4239,35.2593,菏泽市,黄河路600号,,50,46,49,28,37,158,158,118,118,7,10,2,4,0.4,0.4
2026-05-11T1400,4115A,115.5025,35.2727,菏泽市,菏泽市人社局,颗粒物(PM10),55,56,54,31,33,146,146,110,110,8,10,8,8,0.7,0.6
2026-05-11T1400,4184A,115.479691,35.244011,菏泽市,永昌路1号,臭氧1小时(O3_1h),65,31,30,22,30,172,172,128,128,8,11,7,7,0.6,0.6
2026-05-11T1400,4193A,115.471542,35.280012,菏泽市,长城路999号,NA,NA,45,46,37,32,170,170,122,122,10,10,NA,10,0.4,0.4
2026-05-11T1400,2514A,111.5264,24.4178,贺州市,环保小区,,30,24,33,18,23,93,93,48,48,6,14,6,6,0.4,0.5
2026-05-11T1400,2515A,111.561,24.4074,贺州市,政协大楼,,33,29,34,22,25,104,104,49,49,11,20,10,10,0.6,0.7
2026-05-11T1400,3534A,111.4744,24.455,贺州市,西湾,,28,19,41,19,25,73,73,47,47,6,16,10,10,0.7,0.7
2026-05-11T1400,2385A,114.17,35.9019,鹤壁市,市监测站,臭氧1小时(O3_1h),88,62,57,41,45,190,190,126,126,12,14,10,9,0.9,0.8
2026-05-11T1400,2386A,114.2953,35.7512,鹤壁市,市交警支队,颗粒物(PM10),70,78,71,44,39,171,171,112,112,14,18,9,8,0.6,0.7
2026-05-11T1400,2387A,114.2877,35.7302,鹤壁市,迎宾馆,颗粒物(PM10),91,107,79,45,38,177,177,118,118,9,12,7,8,0.8,0.7
2026-05-11T1400,3474A,114.2616,35.6824,鹤壁市,大新区,臭氧1小时(O3_1h),69,NA,71,44,43,175,175,125,125,9,14,7,8,0.8,0.6
2026-05-11T1400,3596A,114.1573,35.9607,鹤壁市,南山宾馆,臭氧1小时(O3_1h),80,83,83,49,47,184,184,128,128,9,12,12,11,1.0,1
2026-05-11T1400,2244A,130.2537,47.3416,鹤岗市,哈啤分公司,,39,34,31,27,23,110,110,102,102,8,11,12,12,0.2,0.6
2026-05-11T1400,2245A,130.2683,47.3087,鹤岗市,斯达机电,,39,39,39,25,24,117,117,109,109,11,10,11,11,0.8,0.7
2026-05-11T1400,2246A,130.3114,47.3388,鹤岗市,东山纸板厂,细颗粒物(PM2.5),78,49,51,49,30,119,119,111,111,10,12,12,12,0.8,0.7
2026-05-11T1400,2263A,127.4832,50.2524,黑河市,交通局,,28,14,42,3,15,89,89,83,80,8,8,7,6,0.2,0.2
2026-05-11T1400,2264A,127.5146,50.2339,黑河市,环保局,,29,12,61,3,16,91,91,80,80,6,11,5,11,0.3,0.3
2026-05-11T1400,1074A,115.6839,37.754,衡水市,电机北厂,臭氧1小时(O3_1h),73,60,68,26,29,178,178,141,141,7,17,10,8,0.5,0.4
2026-05-11T1400,1075A,115.6303,37.7318,衡水市,市监测站,"颗粒物(PM10),臭氧1小时(O3_1h)",68,74,72,31,25,174,174,141,141,8,15,7,8,0.4,0.4
2026-05-11T1400,3188A,115.6684,37.7216,衡水市,市城管局,臭氧1小时(O3_1h),73,59,67,25,28,178,178,142,142,8,16,8,7,0.4,0.3
2026-05-11T1400,3459A,115.599,37.5491,衡水市,地表水厂,臭氧1小时(O3_1h),92,62,71,24,19,193,193,143,143,3,15,8,7,0.4,0.4
2026-05-11T1400,2457A,112.6209,26.9268,衡阳市,衡阳化工总厂,,40,40,71,22,53,112,112,66,66,6,17,9,10,1.0,1.1
2026-05-11T1400,2458A,112.621,26.8957,衡阳市,珠晖区环保局,,36,35,62,17,43,114,114,68,68,5,21,10,11,0.7,0.7
2026-05-11T1400,2459A,112.628,26.8654,衡阳市,市委党校,,47,47,66,25,52,111,111,66,66,4,13,12,13,0.8,1
2026-05-11T1400,2460A,112.6007,26.8977,衡阳市,市监测站,,31,29,56,17,45,97,97,60,60,9,17,10,11,1.0,1
2026-05-11T1400,2461A,112.5658,26.9013,衡阳市,真空机电公司,,31,24,51,17,39,97,97,61,61,4,18,7,11,0.8,1.2
2026-05-11T1400,3399A,112.6703,26.8817,衡阳市,师范学院,,45,45,66,21,50,116,116,68,68,2,7,11,10,0.7,0.8
2026-05-11T1400,3038A,103.3757,23.3679,红河哈尼族彝族自治州,州图书馆,,20,NA,7,3,5,61,61,50,50,3,6,3,3,0.4,0.4
2026-05-11T1400,4154A,103.401,23.3561,红河哈尼族彝族自治州,蒙自市朝阳路,,20,11,12,3,6,64,64,49,49,2,3,6,6,0.4,0.4
2026-05-11T1400,1090A,111.6506,40.7517,呼和浩特市,呼市一监,NA,NA,NA,33,NA,17,NA,NA,114,NA,NA,21,NA,6,NA,0.3
2026-05-11T1400,1094A,111.7516,40.8369,呼和浩特市,如意水处理厂,,46,34,28,10,12,145,145,97,97,4,19,9,8,0.3,0.3
2026-05-11T1400,1095A,111.727798,40.806187,呼和浩特市,二十九中,,41,25,28,12,12,129,129,89,89,7,18,10,8,0.4,0.5
2026-05-11T1400,1097A,111.717,40.7617,呼和浩特市,化肥厂生活区,,44,26,32,3,15,139,139,98,98,6,18,8,7,0.3,0.4
2026-05-11T1400,3699A,111.6519,40.8389,呼和浩特市,海东办,NA,NA,NA,28,NA,15,131,131,95,95,7,26,7,5,0.3,0.3
2026-05-11T1400,4275A,111.591512,40.827312,呼和浩特市,成吉思汗西街8号,,41,41,31,9,9,130,130,87,87,8,24,6,6,0.4,0.3
2026-05-11T1400,4276A,111.6597,40.8077,呼和浩特市,公园东路75号,,42,41,30,3,9,133,133,97,97,9,19,8,5,0.4,0.5
2026-05-11T1400,4277A,111.5427,40.7846,呼和浩特市,金海路35号,,48,48,36,3,11,125,125,84,84,10,24,6,6,0.3,0.3
2026-05-11T1400,3061A,119.7511,49.1576,呼伦贝尔市,国华电力东,,50,50,28,14,11,101,101,81,81,9,7,5,5,0.3,0.3
2026-05-11T1400,4279A,119.7569,49.2222,呼伦贝尔市,伊敏大街东7号,,33,30,27,14,12,104,104,77,77,6,9,5,6,0.4,0.4
2026-05-11T1400,1250A,120.075,30.867,湖州市,城西水厂,NA,NA,30,46,20,27,188,188,118,118,NA,26,7,7,0.5,0.3
2026-05-11T1400,2873A,120.083,30.8929,湖州市,仁皇山新区,臭氧1小时(O3_1h),67,33,44,24,27,173,173,109,109,15,24,9,7,0.7,0.6
2026-05-11T1400,2907A,120.1846,30.8592,湖州市,吴兴区站,,50,30,45,16,26,159,159,105,105,6,21,6,8,0.4,0.4
2026-05-11T1400,3562A,120.4146,30.8538,湖州市,南浔区站,臭氧1小时(O3_1h),59,46,42,33,30,167,167,114,114,7,17,8,8,0.7,0.6
2026-05-11T1400,1607A,120.904878,40.721091,葫芦岛市,龙港区,,43,43,40,17,27,137,137,111,111,9,16,10,11,0.5,0.6
2026-05-11T1400,1608A,120.8382,40.7521,葫芦岛市,化工街,,46,46,63,15,44,128,128,95,95,13,40,13,14,0.4,0.7
2026-05-11T1400,1609A,120.8339,40.7078,葫芦岛市,新区,,40,38,42,25,42,125,125,94,94,8,24,9,10,0.5,0.8
2026-05-11T1400,1610A,120.8697,40.7679,葫芦岛市,东城区,,43,38,44,24,48,137,137,101,101,11,41,10,10,0.5,0.8
2026-05-11T1400,2483A,109.9297,27.5383,怀化市,河西地税局,,46,38,45,32,37,99,99,61,61,6,13,10,8,/,/
2026-05-11T1400,2484A,109.9783,27.5342,怀化市,市四医院,颗粒物(PM10),51,51,54,35,40,101,101,60,60,7,17,11,8,0.5,0.5
2026-05-11T1400,2485A,109.9971,27.5579,怀化市,监测楼,,48,41,45,33,34,94,94,55,55,5,14,10,7,0.3,0.7
2026-05-11T1400,1210A,119.0566,33.5991,淮安市,钵池山,,50,39,37,18,25,159,159,118,118,8,16,10,10,0.4,0.4
2026-05-11T1400,1211A,119.0083,33.578,淮安市,北京南路,,47,44,39,18,25,150,150,113,113,8,21,10,9,0.5,0.4
2026-05-11T1400,1212A,118.9938,33.6083,淮安市,市监测站,臭氧1小时(O3_1h),63,34,35,19,28,170,170,125,125,8,22,7,12,0.4,1
2026-05-11T1400,1213A,119.135,33.5038,淮安市,楚州区监测站,,48,42,41,28,25,152,152,111,111,5,20,7,6,0.5,0.5
2026-05-11T1400,3426A,118.8757,33.2897,淮安市,新华书店,,47,39,38,29,24,148,148,108,108,5,16,8,8,0.9,0.8
2026-05-11T1400,4092A,119.119691,33.550006,淮安市,枚皋中路89号,颗粒物(PM10),54,55,45,16,26,148,148,115,115,2,13,8,9,0.6,0.7
2026-05-11T1400,4206A,119.028838,33.631911,淮安市,承德北路606号,,47,44,38,22,24,148,148,113,113,9,15,8,10,0.4,0.5
2026-05-11T1400,2282A,116.8005,33.9749,淮北市,监测站,颗粒物(PM10),83,95,64,43,58,146,146,122,122,10,16,8,8,0.4,0.4
2026-05-11T1400,2283A,116.8094,33.9008,淮北市,烈山区政府,颗粒物(PM10),72,80,65,18,29,141,141,115,115,6,14,10,9,0.3,0.4
2026-05-11T1400,4017A,116.7926,33.9534,淮北市,市博物馆,颗粒物(PM10),109,142,79,30,30,143,143,117,117,8,13,7,7,0.5,0.5
2026-05-11T1400,4100A,116.8322,33.9884,淮北市,杜集区第一实验学校,颗粒物(PM10),58,60,60,27,26,153,153,127,127,5,12,7,8,0.6,0.6
2026-05-11T1400,2277A,116.8304,32.7726,淮南市,潘集区政府,,46,41,44,13,31,147,147,106,106,10,20,7,10,0.4,0.5
2026-05-11T1400,2279A,116.8569,32.5949,淮南市,谢家集区政府,,48,35,39,15,27,152,152,108,108,6,14,9,9,0.3,0.3
2026-05-11T1400,2280A,116.8279,32.6333,淮南市,八公山区政府,,47,33,46,13,27,150,150,109,109,4,10,3,4,0.3,0.3
2026-05-11T1400,2894A,117.0561,32.6536,淮南市,经济技术开发区消防队,,44,32,38,12,28,139,139,98,98,8,17,7,8,0.3,0.4
2026-05-11T1400,3329A,117.011,32.5891,淮南市,山南新区,,45,32,44,13,28,143,143,103,103,8,15,9,9,0.3,0.3
2026-05-11T1400,4209A,117.003137,32.644456,淮南市,国庆中路369号,,43,15,46,11,27,136,136,99,99,4,10,7,7,0.1,0.2
2026-05-11T1400,2446A,114.9021,30.474,黄冈市,职工中心,,40,22,53,19,41,128,128,101,101,2,12,5,7,0.5,0.8
2026-05-11T1400,2929A,114.8858,30.4519,黄冈市,红卫路,,39,NA,51,21,40,123,123,101,101,2,12,6,9,0,0.3
2026-05-11T1400,3398A,114.9134,30.4446,黄冈市,市林业局,,37,18,59,14,50,118,118,101,101,2,15,4,4,0.6,0.5
2026-05-11T1400,2672A,102.02,35.5101,黄南藏族自治州,同仁县隆务镇,,41,29,35,10,14,129,129,104,104,1,2,11,10,0.1,0.2
2026-05-11T1400,2295A,118.2905,29.6965,黄山市,延安路89号,,30,9,15,3,8,95,95,68,68,1,6,6,5,0.3,0.3
2026-05-11T1400,2297A,118.1369,30.2755,黄山市,黄山区政府5号楼,,31,10,12,6,9,98,98,70,70,4,4,3,3,0.3,0.3
2026-05-11T1400,4210A,118.335445,29.720283,黄山市,滨江东路7-2号,,32,27,26,3,8,102,102,72,72,2,9,/,/,/,/
2026-05-11T1400,2423A,115.0547,30.2332,黄石市,沈家营,臭氧1小时(O3_1h),68,47,73,25,39,174,174,104,104,9,24,7,10,0.5,0.6
2026-05-11T1400,2426A,114.899,30.211,黄石市,铁山,,50,39,55,18,35,159,159,105,105,5,12,9,11,1.0,1
2026-05-11T1400,2427A,115.0259,30.2108,黄石市,团城山,臭氧1小时(O3_1h),69,45,66,16,40,175,175,102,102,5,21,5,9,0.5,0.8
2026-05-11T1400,3149A,115.0174,30.1591,黄石市,笔架山北路,臭氧1小时(O3_1h),52,38,83,18,40,161,161,99,99,6,16,12,16,0.4,0.6
2026-05-11T1400,4185A,115.078022,30.21118,黄石市,磁湖东路29号,臭氧1小时(O3_1h),69,34,76,30,44,175,175,106,106,5,28,4,6,0.3,0.6
2026-05-11T1400,1392A,114.4181,23.0528,惠州市,河南岸金山湖子站,"细颗粒物(PM2.5),臭氧1小时(O3_1h)",68,64,56,44,34,174,174,92,92,17,19,6,7,0.7,0.7
2026-05-11T1400,1393A,114.4055,23.0824,惠州市,下埔横江三路子站,颗粒物(PM10),66,72,67,39,37,172,172,100,100,13,18,5,6,0.7,0.8
2026-05-11T1400,1395A,114.4645,22.7832,惠州市,惠阳区承修路船湖子站,细颗粒物(PM2.5),56,56,55,38,28,153,153,96,96,18,16,6,6,0.7,0.6
2026-05-11T1400,1396A,114.5316,22.7423,惠州市,大亚湾管委会子站,颗粒物(PM10),55,56,55,34,26,140,140,93,93,13,22,5,5,0.6,0.5
2026-05-11T1400,3314A,114.4334,22.8134,惠州市,惠阳秋长,臭氧1小时(O3_1h),65,56,52,38,32,172,172,95,95,18,23,/,/,/,/
2026-05-11T1400,3452A,114.6521,22.7755,惠州市,大亚湾霞涌,,46,46,33,24,19,140,140,93,93,8,11,/,/,/,/
2026-05-11T1400,4300A,114.4089,23.1147,惠州市,文华一路1号,臭氧1小时(O3_1h),70,56,57,39,36,176,176,102,102,14,18,/,/,/,/
2026-05-11T1400,2240A,130.9618,45.2926,鸡西市,环保局,,44,27,31,11,17,138,138,126,126,10,12,7,8,0.3,0.3
2026-05-11T1400,2243A,130.9294,45.2959,鸡西市,第一中学,,42,28,28,9,16,132,132,121,121,4,6,8,7,0.3,0.3
2026-05-11T1400,3707A,131.0069,45.2988,鸡西市,欧美日汽修厂,,42,22,18,14,19,133,133,117,117,4,9,6,6,0.2,0.2
2026-05-11T1400,2367A,114.9753,27.0803,吉安市,红声器材厂,,39,39,50,21,26,117,117,80,80,6,23,8,8,0.4,0.5
2026-05-11T1400,2369A,114.9903,27.1313,吉安市,市环境监测站,,42,42,43,25,28,131,131,82,82,6,18,11,12,/,/
2026-05-11T1400,2370A,115.009527,27.096792,吉安市,青原区法院,,35,30,41,23,23,112,112,76,76,6,22,6,7,0.4,0.5
2026-05-11T1400,1772A,126.54,43.8622,吉林市,哈达湾,,45,34,28,21,21,144,144,124,124,6,12,7,6,0.6,0.5
2026-05-11T1400,1773A,126.5843,43.8358,吉林市,东局子,,47,30,25,24,22,150,150,129,129,6,8,5,5,0.8,0.7
2026-05-11T1400,1774A,126.5051,43.8243,吉林市,电力学院,臭氧1小时(O3_1h),57,29,30,19,22,165,165,143,143,8,16,5,5,0.7,0.7
2026-05-11T1400,1775A,126.6133,43.8971,吉林市,江北,,47,33,30,23,22,148,148,127,127,10,11,10,10,0.7,0.7
2026-05-11T1400,1776A,126.5549,43.8304,吉林市,江南公园,,45,30,27,20,19,144,144,123,123,6,11,7,6,0.5,0.5
2026-05-11T1400,2868A,126.4737,43.953,吉林市,九站,臭氧1小时(O3_1h),53,38,32,24,25,162,162,140,140,6,13,7,8,0.5,0.5
2026-05-11T1400,1299A,116.9866,36.6118,济南市,科干所,臭氧1小时(O3_1h),57,34,39,19,24,165,165,137,137,9,12,8,7,0.8,0.6
2026-05-11T1400,1300A,116.9379,36.6652,济南市,农科所,,47,44,60,15,26,148,148,115,115,7,21,4,6,0.3,0.3
2026-05-11T1400,1301A,117.1265,36.6736,济南市,开发区,臭氧1小时(O3_1h),75,61,57,33,27,180,180,129,129,13,13,7,7,0.5,0.5
2026-05-11T1400,1303A,117.0616,36.6865,济南市,省种子仓库,臭氧1小时(O3_1h),83,61,68,26,30,186,186,134,134,14,24,6,6,0.3,0.4
2026-05-11T1400,1304A,116.9495185,36.644937,济南市,机床二厂,,49,44,57,21,26,155,155,129,129,10,16,7,7,0.5,0.5
2026-05-11T1400,1305A,117.0496,36.6629,济南市,市监测站,臭氧1小时(O3_1h),67,NA,53,22,27,173,173,133,133,13,19,5,5,0.5,0.5
2026-05-11T1400,1306A,116.7674,36.5458,济南市,长清党校,,45,37,37,11,18,144,144,122,122,4,9,5,7,0.7,0.6
2026-05-11T1400,1961A,117.5323,36.6865,济南市,东山小学,臭氧1小时(O3_1h),87,63,63,23,30,189,189,138,138,10,19,7,6,0.4,0.4
2026-05-11T1400,3059A,117.7181,36.205,济南市,泰兴公司,臭氧1小时(O3_1h),60,56,63,16,4,168,168,135,135,14,24,16,14,0.8,0.7
2026-05-11T1400,3064A,117.6861,36.2172,济南市,莱芜战役纪念馆,臭氧1小时(O3_1h),57,58,61,22,27,165,165,138,138,15,21,17,12,0.5,0.6
2026-05-11T1400,3494A,117.1673,36.9782,济南市,济阳区政府,臭氧1小时(O3_1h),69,66,85,21,40,175,175,133,133,15,30,11,10,0.6,0.7
2026-05-11T1400,3495A,117.1168,36.6299,济南市,锦屏中学,颗粒物(PM10),55,56,48,27,24,158,158,117,117,12,10,7,7,0.3,0.3
2026-05-11T1400,4108A,117.7107,36.2385,济南市,山财大街5号,臭氧1小时(O3_1h),57,58,58,27,32,165,165,136,136,11,18,9,10,0.7,0.7
2026-05-11T1400,4109A,116.9744,36.6889,济南市,无影山路12号,,46,39,56,17,27,147,147,122,122,9,23,5,6,0.7,0.7
2026-05-11T1400,1653A,116.6229,35.4288,济宁市,火炬城,颗粒物(PM10),58,61,53,15,24,145,145,113,113,6,9,4,5,0.6,0.6
2026-05-11T1400,3500A,116.5808,35.3703,济宁市,北湖一中,颗粒物(PM10),59,62,61,28,27,158,158,125,125,9,12,9,9,0.5,0.5
2026-05-11T1400,3501A,116.8251,35.5592,济宁市,服务中心,,42,39,46,18,27,133,133,108,108,4,12,2,3,0.4,0.5
2026-05-11T1400,3678A,116.5907,35.4054,济宁市,市第七中学,臭氧1小时(O3_1h),60,59,62,23,26,168,168,130,130,10,13,8,8,0.4,0.4
2026-05-11T1400,4111A,116.6075,35.4566,济宁市,任和路,臭氧1小时(O3_1h),72,54,64,27,27,177,177,134,134,7,9,4,4,0.5,0.5
2026-05-11T1400,4112A,116.5648,35.3921,济宁市,文体南路1号,颗粒物(PM10),51,51,55,11,25,159,159,122,122,4,8,6,6,0.6,0.5
2026-05-11T1400,4122A,112.6071,35.1015,济源市,市委党校,颗粒物(PM10),78,88,87,28,18,163,163,113,113,11,18,10,12,0.6,0.6
2026-05-11T1400,4123A,112.596,35.0702,济源市,沁园中路1号,颗粒物(PM10),59,62,69,38,37,160,160,113,113,9,17,5,7,0.6,0.8
2026-05-11T1400,2255A,130.2749,46.8028,佳木斯市,佳纺,,43,42,36,24,22,135,135,126,126,7,7,3,3,0.4,0.3
2026-05-11T1400,2257A,130.3258,46.7975,佳木斯市,环保局,,43,38,35,10,28,135,135,126,126,5,6,4,3,0.5,0.5
2026-05-11T1400,4285A,130.363,46.806,佳木斯市,顺和街,,48,39,36,33,25,131,131,122,122,10,9,2,1,0.5,0.4
2026-05-11T1400,4286A,130.3952,46.8268,佳木斯市,长安路196号,,46,46,38,26,22,139,139,129,129,7,6,2,2,0.4,0.4
2026-05-11T1400,1252A,120.7439,30.778,嘉兴市,清河小学,臭氧1小时(O3_1h),79,44,41,26,21,183,183,115,115,12,20,9,8,0.3,0.4
2026-05-11T1400,1253A,120.7261,30.7477,嘉兴市,嘉兴学院,臭氧1小时(O3_1h),87,42,42,24,21,189,189,117,117,14,20,8,7,0.5,0.5
2026-05-11T1400,2872A,120.7845,30.7524,嘉兴市,南湖区残联,臭氧1小时(O3_1h),101,32,32,22,21,202,202,129,129,6,15,7,7,0.4,0.3
2026-05-11T1400,3407A,120.6915,30.7741,嘉兴市,秀洲住建,臭氧1小时(O3_1h),107,53,39,28,19,214,214,127,127,11,21,8,8,0.6,0.5
2026-05-11T1400,1945A,98.291,39.7705,嘉峪关市,气象局,颗粒物(PM10),65,70,100,26,42,125,125,98,98,2,9,8,10,0.2,0.3
2026-05-11T1400,2884A,98.2672,39.7978,嘉峪关市,酒钢宾馆,细颗粒物(PM2.5),120,NA,112,81,44,123,123,97,97,1,5,6,11,0.3,0.2
2026-05-11T1400,3248A,98.2644,39.7723,嘉峪关市,雄关区,颗粒物(PM10),57,59,90,24,40,121,121,95,95,5,11,4,5,0.1,0.2
2026-05-11T1400,1383A,113.1063,22.6058,江门市,北街,,50,50,40,20,25,132,132,77,77,12,19,/,/,/,/
2026-05-11T1400,1384A,113.073,22.5835,江门市,西区,,37,32,41,18,26,117,117,74,74,13,31,/,/,/,/
2026-05-11T1400,1385A,113.0218,22.531,江门市,圭峰西,,46,46,42,15,25,101,101,71,71,8,15,/,/,/,/
2026-05-11T1400,1386A,113.0826,22.5947,江门市,东湖,,39,29,41,14,26,123,123,78,78,11,23,6,6,0.5,0.6
2026-05-11T1400,3311A,113.1077,22.5647,江门市,江海富民,颗粒物(PM10),60,63,61,17,26,119,119,83,83,11,22,/,/,0.5,0.5
2026-05-11T1400,3449A,113.0496,22.4669,江门市,新会银湖,,34,34,37,14,21,108,108,84,84,11,23,7,7,0.5,0.5
2026-05-11T1400,3335A,113.3137,35.2643,焦作市,马村街道办,细颗粒物(PM2.5),56,54,76,38,31,156,156,119,119,11,13,13,12,0.7,0.6
2026-05-11T1400,3336A,113.2464,35.2374,焦作市,焦作技师学院,颗粒物(PM10),78,88,75,37,33,160,160,121,121,12,13,12,10,0.9,0.8
2026-05-11T1400,3477A,113.1656,35.2536,焦作市,中站许衡医院,颗粒物(PM10),62,66,58,32,33,163,163,126,126,6,11,13,12,0.8,0.7
2026-05-11T1400,3981A,113.2456,35.18,焦作市,原李万街道办,细颗粒物(PM2.5),54,54,69,37,34,148,148,109,109,8,12,9,12,0.5,0.5
2026-05-11T1400,4264A,113.234,35.219,焦作市,新安路1731号,臭氧1小时(O3_1h),58,56,63,29,26,166,166,120,120,8,11,13,12,0.7,0.6
2026-05-11T1400,4295A,113.2722,35.2121,焦作市,人民路3066号,颗粒物(PM10),65,70,69,35,35,165,165,125,125,11,11,8,9,0.7,0.7
2026-05-11T1400,1708A,116.3701,23.5345,揭阳市,新兴,,39,39,47,13,29,99,99,86,86,9,17,6,8,0.7,0.8
2026-05-11T1400,1709A,116.3261,23.5442,揭阳市,西马,,31,26,49,14,30,97,97,80,80,9,17,5,6,0.7,0.8
2026-05-11T1400,1710A,116.361,23.5627,揭阳市,东兴,,41,41,46,16,29,102,102,87,87,4,13,3,5,/,/
2026-05-11T1400,1711A,116.4151,23.5295,揭阳市,渔湖,,46,46,45,15,29,115,115,98,98,10,18,4,6,/,/
2026-05-11T1400,3320A,116.4028,23.5699,揭阳市,曲溪,,37,17,44,15,30,117,117,98,98,6,16,2,7,0.6,0.7
2026-05-11T1400,1944A,102.1691,38.5166,金昌市,天庆家园,,46,46,92,28,35,136,136,116,116,3,7,16,10,0.4,0.7
2026-05-11T1400,4022A,102.1648,38.5369,金昌市,金川区人防中心,,46,46,96,18,39,134,134,106,106,4,8,16,6,0.3,0.3
2026-05-11T1400,4239A,102.193042,38.531887,金昌市,长春路96号,颗粒物(PM10),68,74,107,32,55,126,126,109,109,2,5,12,11,0.5,0.4
2026-05-11T1400,1262A,119.6478,29.0773,金华市,十五中,NA,NA,NA,36,NA,22,NA,NA,124,74,NA,18,NA,2,NA,0.8
2026-05-11T1400,1263A,119.6859,29.1032,金华市,监测站,,42,23,33,16,20,132,132,86,86,5,11,5,5,0.6,0.6
2026-05-11T1400,3659A,119.656,29.1132,金华市,气象局,,38,25,35,13,22,120,120,77,77,7,16,6,6,0.6,0.6
2026-05-11T1400,1767A,121.1114,41.0879,锦州市,南山,颗粒物(PM10),55,57,43,21,34,142,142,114,114,13,23,6,7,0.5,0.6
2026-05-11T1400,1768A,121.060361,40.842794,锦州市,开发区,颗粒物(PM10),51,51,49,28,31,141,141,112,112,15,33,6,7,0.5,0.6
2026-05-11T1400,1769A,121.1836,41.1118,锦州市,百股街道,颗粒物(PM10),51,51,49,21,38,144,144,121,121,10,22,6,9,0.5,0.7
2026-05-11T1400,1770A,121.1176,41.1224,锦州市,天安街道,颗粒物(PM10),52,52,51,20,38,139,139,116,116,15,26,5,6,0.4,0.5
2026-05-11T1400,1771A,121.1303,41.1385,锦州市,北湖公园,,45,42,53,20,36,141,141,117,117,14,21,8,9,0.4,0.5
2026-05-11T1400,2160A,112.8496,35.5051,晋城市,自来水公司,臭氧1小时(O3_1h),72,68,71,17,22,177,177,134,134,6,13,6,7,0.4,0.5
2026-05-11T1400,2162A,112.8509,35.4886,晋城市,市环保局,颗粒物(PM10),69,76,79,21,28,160,160,120,120,5,13,6,6,0.4,0.5
2026-05-11T1400,3620A,112.8258,35.4804,晋城市,泽州一中,臭氧1小时(O3_1h),70,47,68,21,27,176,176,129,129,8,15,6,6,0.6,0.7
2026-05-11T1400,4078A,112.8246,35.5152,晋城市,前书院路,细颗粒物(PM2.5),64,59,73,42,28,170,170,122,122,10,18,5,5,0.6,0.8
2026-05-11T1400,4079A,112.8864,35.4773,晋城市,祥云街666号,臭氧1小时(O3_1h),65,56,70,16,25,172,172,126,126,7,14,7,7,0.6,0.7
2026-05-11T1400,2174A,112.6992,37.6984,晋中市,榆次区政府,,46,29,85,16,28,146,146,117,117,7,16,5,7,0.4,0.5
2026-05-11T1400,2865A,112.7195,37.683,晋中市,榆次三中,,49,46,96,20,25,154,154,129,129,2,11,5,6,0.2,0.3
2026-05-11T1400,4080A,112.7375,37.7215,晋中市,广安街188号,,43,30,74,20,22,135,135,115,115,2,12,4,6,0.1,0.2
2026-05-11T1400,4200A,112.7478,37.6954,晋中市,迎宾街26号,,48,41,89,14,24,152,152,128,128,6,15,4,6,0.3,0.4
2026-05-11T1400,2439A,112.2012,31.048,荆门市,竹园小学,细颗粒物(PM2.5),62,62,75,41,60,131,131,88,88,8,15,4,4,0.5,0.6
2026-05-11T1400,2440A,112.1968,30.9892,荆门市,掇刀,颗粒物(PM10),56,58,75,34,60,134,134,91,91,7,14,10,11,0.5,0.7
2026-05-11T1400,3012A,112.1849,31.0361,荆门市,西山林语,颗粒物(PM10),61,65,86,37,54,128,128,85,85,7,12,8,8,0.6,0.7
2026-05-11T1400,3547A,112.1631,31.0134,荆门市,龙泉中学南校,颗粒物(PM10),52,52,68,22,48,128,128,89,89,7,13,6,6,0.6,0.7
2026-05-11T1400,4124A,112.2213,31.0654,荆门市,新台西路6号,细颗粒物(PM2.5),68,54,77,44,60,139,139,93,93,8,16,10,10,0.7,0.8
2026-05-11T1400,1844A,112.2493,30.3198,荆州市,市图书馆,,38,31,50,23,43,121,121,85,85,6,13,7,8,0.4,0.5
2026-05-11T1400,1845A,112.2009,30.3543,荆州市,市委党校,,35,32,52,24,42,98,98,65,65,10,16,8,8,0.5,0.6
2026-05-11T1400,3194A,112.2749,30.3124,荆州市,管委会,,36,NA,53,25,47,110,110,78,78,7,12,9,9,0.4,0.6
2026-05-11T1400,4268A,112.1722,30.3366,荆州市,学苑路85号,,37,25,47,20,43,118,118,83,83,3,11,2,4,0.4,0.4
2026-05-11T1400,2343A,117.2114,29.2931,景德镇市,老干部活动中心,,42,NA,28,29,22,115,115,60,60,6,12,11,6,0.7,0.7
2026-05-11T1400,2344A,117.1893,29.2789,景德镇市,兽医站,,39,37,31,23,23,122,122,64,64,8,14,4,4,0.6,0.7
2026-05-11T1400,2346A,117.246,29.2958,景德镇市,陶研所,细颗粒物(PM2.5),52,36,24,36,18,117,117,63,63,16,14,17,5,1.1,0.9
2026-05-11T1400,4289A,117.154766,29.256967,景德镇市,青少年活动中心,,36,NA,32,25,23,111,111,54,54,6,17,12,14,/,/
2026-05-11T1400,1803A,115.9873,29.6816,九江市,十里,NA,NA,NA,40,14,25,110,110,82,82,9,21,7,7,0.7,0.8
2026-05-11T1400,1804A,115.9583,29.7047,九江市,茅山头,,39,32,39,19,33,123,123,91,91,6,16,4,3,0.6,0.7
2026-05-11T1400,1805A,115.9877,29.7295,九江市,西园,,40,38,38,25,26,126,126,92,92,23,26,8,6,0.7,0.7
2026-05-11T1400,1808A,115.9112,29.6038,九江市,综合工业园,颗粒物(PM10),51,51,41,31,32,120,120,83,83,18,24,11,10,0.8,0.7
2026-05-11T1400,3190A,116.0254,29.6995,九江市,外国语学校,颗粒物(PM10),54,55,37,31,30,117,117,76,76,12,17,10,8,0.7,0.6
2026-05-11T1400,4253A,116.010205,29.659402,九江市,莲花大道8号,,39,39,32,12,23,102,102,74,74,9,13,7,6,0.5,0.6
2026-05-11T1400,4240A,98.495752,39.733935,酒泉市,玉门东路5号,颗粒物(PM10),68,75,110,43,51,100,100,76,73,2,6,4,4,0.1,0.2
2026-05-11T1400,4241A,98.5099,39.7506,酒泉市,北大街108号,颗粒物(PM10),70,78,113,39,45,98,98,68,68,3,7,8,8,0.2,0.2
2026-05-11T1400,2698A,76.0071,39.466,喀什地区,巡警大队,颗粒物(PM10),85,98,130,3,45,101,101,90,90,10,19,4,4,0.2,0.3
2026-05-11T1400,2699A,75.9756,39.4693,喀什地区,吾办,颗粒物(PM10),80,92,128,45,52,103,103,90,90,2,12,5,6,0.3,0.5
2026-05-11T1400,4027A,75.9485,39.4688,喀什地区,老干局,颗粒物(PM10),90,106,123,6,33,101,101,86,86,2,10,4,4,0.3,0.4
2026-05-11T1400,1824A,114.3389,34.778,开封市,肿瘤医院,细颗粒物(PM2.5),122,NA,64,84,43,156,156,108,108,14,19,9,8,0.7,0.7
2026-05-11T1400,1826A,114.2884,34.7966,开封市,世纪星幼儿园,细颗粒物(PM2.5),66,67,56,43,36,143,143,100,100,12,16,8,8,0.5,0.6
2026-05-11T1400,3147A,114.3434,34.8101,开封市,龙亭公园,细颗粒物(PM2.5),70,73,70,45,36,147,147,107,107,13,18,9,9,0.6,0.6
2026-05-11T1400,3210A,114.3645,34.7955,开封市,汴京公园,"颗粒物(PM10),细颗粒物(PM2.5)",80,92,72,50,41,153,153,106,106,7,11,7,6,0.7,0.7
2026-05-11T1400,3473A,114.2485,34.8306,开封市,技师学院,颗粒物(PM10),89,104,66,32,29,147,147,101,101,6,10,7,7,0.9,0.8
2026-05-11T1400,3592A,114.4518,34.7503,开封市,祥符区生态环境局,细颗粒物(PM2.5),92,72,66,56,43,157,157,105,105,11,17,10,10,0.7,0.7
2026-05-11T1400,1951A,84.886,45.6029,克拉玛依市,长征新村,,30,NA,33,11,15,93,93,104,92,2,2,6,6,0.4,0.4
2026-05-11T1400,1952A,84.8894,45.5827,克拉玛依市,南林小区,,29,7,33,3,7,92,92,106,88,4,3,2,1,0.1,0.1
2026-05-11T1400,1954A,84.896,44.3328,克拉玛依市,独山子区,,29,11,43,3,29,90,90,93,93,10,5,5,6,0.5,0.4
2026-05-11T1400,1955A,85.6888,46.0909,克拉玛依市,乌尔禾区商贸楼,,31,24,42,8,23,99,99,95,94,5,5,4,4,0.1,0.1
2026-05-11T1400,3612A,85.1045,45.6895,克拉玛依市,白碱滩区新站,,32,6,28,3,12,100,100,117,102,5,3,9,9,0.2,0.2
2026-05-11T1400,2697A,76.1457,39.7143,克孜勒苏柯尔克孜自治州,市人民政府,颗粒物(PM10),80,91,103,10,34,113,113,104,98,2,8,5,7,0.1,0.1
2026-05-11T1400,3665A,76.1654,39.7157,克孜勒苏柯尔克孜自治州,克州文化中心,颗粒物(PM10),127,190,104,18,44,112,112,110,105,1,5,4,7,0.1,0.2
2026-05-11T1400,1450A,102.8203,24.889,昆明市,呈贡新区,,19,NA,24,10,19,60,60,39,39,8,29,2,2,0.6,0.6
2026-05-11T1400,1452A,102.7253,25.0904,昆明市,龙泉镇,,32,NA,25,22,21,45,45,27,27,12,11,4,4,0.6,0.6
2026-05-11T1400,1453A,102.7267,25.0378,昆明市,东风东路,,33,30,28,23,22,54,54,34,34,24,25,2,2,0.6,0.6
2026-05-11T1400,1454A,102.6744,25.0671,昆明市,金鼎山,,40,40,34,24,21,56,56,32,32,26,22,3,3,0.7,0.6
2026-05-11T1400,1455A,102.6643,25.0401,昆明市,碧鸡广场,,38,32,28,26,20,42,42,29,29,33,26,4,4,0.7,0.8
2026-05-11T1400,3179A,102.7491,25.012,昆明市,官渡区博物馆,,28,28,27,18,19,46,46,27,27,28,33,3,3,0.8,0.8
2026-05-11T1400,3375A,102.8016,24.8336,昆明市,青年创业园,,28,NA,21,19,14,66,66,48,48,5,16,4,4,0.5,0.6
2026-05-11T1400,3550A,102.8,24.9787,昆明市,昆明学院,,25,25,42,17,24,59,59,30,30,18,31,5,4,0.6,0.6
2026-05-11T1400,3551A,102.5969,24.6738,昆明市,晋宁区生态环境分局,,22,12,24,12,19,70,70,53,53,9,19,2,1,0.5,0.6
2026-05-11T1400,3552A,102.6673,24.9861,昆明市,云天化总部,,35,34,30,24,21,42,42,32,32,30,29,4,4,0.7,0.6
2026-05-11T1400,1456A,91.132,29.6515,拉萨市,八廓街,,48,15,17,6,9,151,151,126,126,3,8,4,5,0.2,0.2
2026-05-11T1400,1457A,91.1221,29.6748,拉萨市,市环保局,,44,15,19,6,7,138,138,112,112,8,13,4,5,0.4,0.5
2026-05-11T1400,1458A,91.0874,29.6476,拉萨市,区监测站,,45,13,14,3,7,142,142,113,113,7,13,4,5,0.4,0.4
2026-05-11T1400,1459A,91.1774,29.6541,拉萨市,西藏大学,,44,14,16,6,11,140,140,121,121,7,12,4,5,0.4,0.4
2026-05-11T1400,1460A,90.9798,29.6586,拉萨市,区辐射站,,44,11,18,3,9,138,138,96,96,5,17,5,6,0.2,0.3
2026-05-11T1400,1461A,91.0831,29.6292,拉萨市,拉萨火车站,,47,13,18,10,12,149,149,119,119,5,10,4,4,0.4,0.4
2026-05-11T1400,2520A,109.2203,23.7252,来宾市,来宾技工学校,,34,25,28,3,21,108,108,67,67,5,8,5,5,0.7,0.7
2026-05-11T1400,3535A,109.1781,23.7293,来宾市,兴宾区政府,,37,26,35,14,21,116,116,68,68,4,11,7,7,0.5,0.5
2026-05-11T1400,4002A,109.2312,23.7428,来宾市,中南小学,,37,24,29,19,25,117,117,65,65,7,15,6,6,0.6,0.5
2026-05-11T1400,1479A,103.8309,36.0467,兰州市,铁路设计院,颗粒物(PM10),68,74,93,39,42,132,132,68,68,12,43,5,9,0.6,0.8
2026-05-11T1400,3241A,103.7439,36.0841,兰州市,百合公园,NA,NA,NA,NA,NA,NA,NA,NA,NA,NA,NA,NA,NA,NA,NA,NA
2026-05-11T1400,3242A,103.9613,35.9985,兰州市,和平,颗粒物(PM10),70,78,88,25,36,157,157,107,107,8,11,10,11,0.3,0.4
2026-05-11T1400,4236A,103.629272,36.093822,兰州市,庄浪东路808号,颗粒物(PM10),55,56,85,23,35,142,142,101,101,2,27,9,15,0.2,0.3
2026-05-11T1400,4237A,103.7251,36.104344,兰州市,安宁西路88号,颗粒物(PM10),57,59,97,25,38,159,159,100,100,6,38,10,11,0.2,0.3
2026-05-11T1400,4238A,103.846982,36.067567,兰州市,北滨河东路1号,,47,47,85,24,37,137,137,66,66,9,51,9,12,0.5,0.8
2026-05-11T1400,1067A,116.6712,39.5109,廊坊市,药材公司,臭氧1小时(O3_1h),77,52,68,30,42,181,181,144,144,5,12,4,4,0.4,0.6
2026-05-11T1400,1068A,116.7215,39.5592,廊坊市,开发区,臭氧1小时(O3_1h),84,60,69,29,43,187,187,147,147,9,16,4,3,0.4,0.6
2026-05-11T1400,1070A,116.7246,39.5273,廊坊市,北华航天学院,臭氧1小时(O3_1h),83,53,61,32,45,186,186,152,152,2,16,3,4,0.6,0.6
2026-05-11T1400,2919A,116.7022,39.5454,廊坊市,河北工业大学,臭氧1小时(O3_1h),80,40,60,24,36,184,184,147,147,7,13,4,5,0.4,0.5
2026-05-11T1400,2536A,103.7629,29.5844,乐山市,牛耳桥,细颗粒物(PM2.5),105,80,51,65,34,77,77,63,58,31,20,9,7,1.2,0.7
2026-05-11T1400,2537A,103.7501,29.6002,乐山市,市第三水厂,细颗粒物(PM2.5),94,77,52,57,33,74,74,51,51,27,23,9,6,1.0,0.7
2026-05-11T1400,2538A,103.7571,29.5664,乐山市,市监测站,细颗粒物(PM2.5),98,88,59,59,33,71,71,53,53,32,19,16,7,1.4,0.8
2026-05-11T1400,3361A,103.7313,29.563,乐山市,理工大学,细颗粒物(PM2.5),104,75,59,64,35,74,74,51,51,36,21,15,10,1.1,0.6
2026-05-11T1400,2599A,100.2497,26.8802,丽江市,丽江古城,,28,16,30,6,20,88,88,77,77,10,10,5,6,0.5,0.5
2026-05-11T1400,2600A,100.2203,26.8906,丽江市,市中心,,29,NA,18,7,15,92,92,84,84,11,10,4,5,0.6,0.5
2026-05-11T1400,1267A,119.9141,28.4513,丽水市,监测站大楼,,36,26,29,8,14,113,113,90,90,7,13,5,5,0.4,0.3
2026-05-11T1400,1268A,119.93,28.4589,丽水市,莲都小学,,36,22,29,8,12,113,113,92,92,5,14,/,/,/,/
2026-05-11T1400,1269A,119.8794,28.4232,丽水市,余庄前,,38,19,23,9,12,119,119,82,82,9,12,5,4,0.5,0.4
2026-05-11T1400,1173A,119.1759,34.5885,连云港市,市环境监测站,,49,39,41,24,29,154,154,102,102,8,17,9,11,0.6,0.6
2026-05-11T1400,3000A,119.3577,34.6971,连云港市,德源药业,臭氧1小时(O3_1h),53,46,48,24,28,162,162,104,104,8,16,7,7,0.6,0.6
2026-05-11T1400,3007A,119.178,34.8442,连云港市,新城一中,颗粒物(PM10),92,108,56,43,30,172,172,105,105,14,20,6,7,0.5,0.5
2026-05-11T1400,3008A,119.3607,34.7519,连云港市,胡沟管理处,臭氧1小时(O3_1h),85,39,23,29,13,188,188,132,132,23,18,12,10,0.6,0.6
2026-05-11T1400,3009A,119.1478,34.5913,连云港市,矿山设计院,,48,46,44,24,23,152,152,101,101,5,11,5,7,0.7,0.7
2026-05-11T1400,3434A,119.2414,34.6539,连云港市,工贸学校,臭氧1小时(O3_1h),57,36,45,29,31,165,165,124,124,9,11,4,5,0.5,0.5
2026-05-11T1400,3664A,119.4171,34.734,连云港市,连云街道,NA,NA,93,67,NA,27,167,167,133,133,34,14,14,11,0.8,0.6
2026-05-11T1400,2573A,102.2629,27.8981,凉山彝族自治州,西昌市政府,,33,28,23,23,18,92,92,54,54,9,10,8,7,0.5,0.5
2026-05-11T1400,2574A,102.2686,27.885,凉山彝族自治州,凉山州政府,,32,29,24,22,18,81,81,46,46,8,11,7,7,0.7,0.6
2026-05-11T1400,4229A,102.2342,27.8859,凉山彝族自治州,凯乐南路30号,,29,29,28,19,18,79,79,42,42,12,18,7,7,0.7,0.6
2026-05-11T1400,2212A,123.1978,41.2036,辽阳市,宏伟区,,44,34,32,14,21,139,139,122,122,7,7,7,6,0.5,0.4
2026-05-11T1400,2213A,123.1684,41.2497,辽阳市,新华园,NA,NA,39,31,12,17,137,137,125,125,9,8,6,4,NA,0.5
2026-05-11T1400,2214A,123.2355,41.2663,辽阳市,滨河路,细颗粒物(PM2.5),58,NA,26,39,22,128,128,110,110,9,10,7,6,0.5,0.4
2026-05-11T1400,4083A,123.153,41.2874,辽阳市,铁西路150号,,44,40,36,14,15,140,140,124,124,9,7,8,7,0.7,0.5
2026-05-11T1400,2227A,125.1359,42.8845,辽源市,环保局,,47,35,26,14,13,148,148,131,131,6,9,8,8,0.6,0.6
2026-05-11T1400,4085A,125.0998,42.9134,辽源市,安宁大街333号,,46,42,33,14,15,145,145,130,130,6,9,6,6,0.4,0.4
2026-05-11T1400,1625A,115.9789,36.4372,聊城市,区政府,颗粒物(PM10),54,55,70,19,29,155,155,117,117,6,13,8,9,0.5,0.5
2026-05-11T1400,3200A,115.9772,36.4986,聊城市,监控中心,臭氧1小时(O3_1h),74,63,68,30,24,179,179,125,125,6,14,10,10,0.2,0.3
2026-05-11T1400,3513A,116.0443,36.436,聊城市,九州社区,,48,45,75,14,34,153,153,119,119,7,18,5,7,0.4,0.4
2026-05-11T1400,4018A,116.0564,36.4609,聊城市,星美广场,细颗粒物(PM2.5),56,53,67,38,44,163,163,123,123,8,13,7,8,0.3,0.5
2026-05-11T1400,4113A,116.0091,36.4495,聊城市,利民路,臭氧1小时(O3_1h),60,40,51,22,32,168,168,123,123,8,16,11,12,0.5,0.5
2026-05-11T1400,2632A,94.3683,29.6373,林芝市,林芝监测站,,36,6,7,3,6,113,113,97,97,4,4,4,4,0.4,0.5
2026-05-11T1400,2633A,94.3616,29.6634,林芝市,林芝人民医院,,36,7,10,3,7,115,115,94,94,6,5,3,3,0.4,0.4
2026-05-11T1400,2603A,100.0779,23.8981,临沧市,市环保局,,38,38,20,6,13,68,68,36,36,4,6,4,4,0.5,0.6
2026-05-11T1400,2604A,100.0894,23.882,临沧市,市气象局,,22,15,20,7,16,70,70,36,36,6,9,6,6,0.6,0.7
2026-05-11T1400,1733A,111.5552,36.0791,临汾市,临钢医院,臭氧1小时(O3_1h),100,72,83,38,28,200,200,122,122,14,20,16,14,0.8,0.9
2026-05-11T1400,1734A,111.4984,36.0734,临汾市,技工学校,臭氧1小时(O3_1h),102,76,91,32,31,204,204,119,119,10,17,16,15,1.0,1.1
2026-05-11T1400,1736A,111.5017,36.0857,临汾市,市委,臭氧1小时(O3_1h),106,87,93,28,27,211,211,129,129,14,20,14,15,0.8,1
2026-05-11T1400,3018A,111.5048,36.1015,临汾市,唐尧大酒店,NA,NA,NA,103,NA,27,NA,NA,178,NA,NA,17,NA,15,NA,1.0
2026-05-11T1400,4244A,111.4879,36.053,临汾市,启星学校,臭氧1小时(O3_1h),103,98,84,22,26,205,205,119,119,13,20,16,14,0.9,1
2026-05-11T1400,4271A,103.2464,35.6123,临夏回族自治州,滨河东路1号,颗粒物(PM10),53,54,95,25,43,124,124,74,74,3,25,10,9,0.1,0.4
2026-05-11T1400,4310A,103.207136,35.599807,临夏回族自治州,新华街21号,,40,40,78,18,34,110,110,66,66,2,13,6,7,0.2,0.4
2026-05-11T1400,1618A,118.3429,35.0532,临沂市,沂河小区,臭氧1小时(O3_1h),60,48,70,24,42,168,168,127,127,16,27,14,21,0.3,0.4
2026-05-11T1400,1619A,118.2962,35.0568,临沂市,鲁南制药厂,臭氧1小时(O3_1h),63,46,61,15,31,170,170,125,125,14,25,13,18,0.2,0.3
2026-05-11T1400,1620A,118.2793,34.9976,临沂市,新光毛纺厂,臭氧1小时(O3_1h),55,51,62,18,33,164,164,120,120,9,24,13,20,0.3,0.3
2026-05-11T1400,1621A,118.3955,35.0889,临沂市,河东保险公司,臭氧1小时(O3_1h),77,46,56,17,33,181,181,123,123,13,28,14,18,0.2,0.3
2026-05-11T1400,3370A,118.3563,35.0215,临沂市,十里堡居委,臭氧1小时(O3_1h),64,48,55,15,37,171,171,124,124,9,26,13,21,0.5,0.5
2026-05-11T1400,3496A,118.359,35.1067,临沂市,南坊新区,臭氧1小时(O3_1h),62,53,59,21,30,169,169,120,120,14,23,13,16,0.3,0.3
2026-05-11T1400,3860A,118.3915,35.0297,临沂市,皇山花园小区,臭氧1小时(O3_1h),63,51,65,14,32,170,170,122,122,13,29,12,20,0.6,0.6
2026-05-11T1400,1870A,109.4854,24.3898,柳州市,柳东小学,细颗粒物(PM2.5),64,52,40,42,41,67,67,43,43,12,16,7,10,1.1,0.6
2026-05-11T1400,1871A,109.4109,24.3304,柳州市,环保监测站,细颗粒物(PM2.5),104,87,49,64,47,58,58,29,29,32,25,12,7,2.2,1.1
2026-05-11T1400,1872A,109.3886,24.3408,柳州市,河西水厂,颗粒物(PM10),63,67,61,40,49,65,65,29,29,12,26,14,13,0.9,1
2026-05-11T1400,1873A,109.4263,24.2951,柳州市,市四中,细颗粒物(PM2.5),106,103,58,66,50,64,64,33,33,29,27,10,7,2.0,1
2026-05-11T1400,1874A,109.396,24.3658,柳州市,市九中,细颗粒物(PM2.5),113,108,61,74,47,49,49,22,22,33,23,14,8,2.0,1
2026-05-11T1400,1875A,109.4912,24.3164,柳州市,古亭山,细颗粒物(PM2.5),66,59,42,43,36,66,66,43,43,16,22,7,6,1.3,0.8
2026-05-11T1400,3402A,109.5422,24.3994,柳州市,市二中,,44,44,43,27,38,86,86,49,49,9,23,10,12,1.0,0.7
2026-05-11T1400,2307A,116.5078,31.7369,六安市,监测大楼,,41,22,26,13,24,129,129,98,98,6,11,4,5,0.4,0.4
2026-05-11T1400,2308A,116.4738,31.7642,六安市,皖西学院,,45,32,28,15,21,141,141,118,118,4,8,6,6,0.3,0.4
2026-05-11T1400,2309A,116.4997,31.7904,六安市,朝阳厂,,39,16,19,15,23,124,124,101,101,7,11,6,7,0.2,0.3
2026-05-11T1400,2310A,116.5566,31.7885,六安市,开发区,,45,12,24,8,24,144,144,110,110,6,16,6,7,0.3,0.4
2026-05-11T1400,2577A,104.8293,26.592,六盘水市,黄土坡,,31,19,20,7,11,98,98,71,71,9,14,10,7,0.2,0.3
2026-05-11T1400,2579A,104.8481,26.5898,六盘水市,民中,,30,8,19,8,14,93,93,65,65,8,22,4,3,0.3,0.5
2026-05-11T1400,2580A,104.9541,26.5506,六盘水市,双水,,28,9,22,8,12,88,88,49,49,6,15,5,6,0.2,0.5
2026-05-11T1400,4151A,104.8899,26.5685,六盘水市,钟山大道中段564号,,29,13,37,6,18,91,91,56,56,5,22,4,5,0.6,0.9
2026-05-11T1400,2336A,117.022,25.1031,龙岩市,龙岩市监测站,,32,32,19,14,11,80,80,46,46,3,11,6,8,0.4,0.6
2026-05-11T1400,2337A,117.0257,25.0662,龙岩市,闽西职业技术学院,,23,19,24,12,13,71,71,44,44,2,9,7,8,0.6,0.7
2026-05-11T1400,2338A,117.0195,25.0306,龙岩市,龙岩学院,,24,20,21,10,10,74,74,49,49,3,6,5,5,/,/
2026-05-11T1400,2885A,104.9344,33.3827,陇南市,滨江中学,,37,37,51,9,15,110,110,73,73,4,9,5,5,0.6,0.6
2026-05-11T1400,3247A,104.9551,33.3709,陇南市,市总工会,,37,37,40,10,16,108,108,72,72,4,8,4,4,0.5,0.5
2026-05-11T1400,2488A,111.9984,27.7346,娄底市,市监测站,NA,NA,NA,55,NA,44,NA,NA,89,NA,NA,14,NA,10,NA,0.6
2026-05-11T1400,2491A,111.9888,27.7035,娄底市,市政府,,43,43,46,18,30,106,106,61,61,4,9,5,5,0.4,0.4
2026-05-11T1400,4127A,111.9812,27.7591,娄底市,涟钢职大,,36,25,52,12,42,113,113,52,52,5,15,7,10,0.5,0.9
2026-05-11T1400,4128A,112.0303,27.7457,娄底市,娄底体校,,36,36,50,25,40,108,108,56,56,6,10,8,6,0.3,0.4
2026-05-11T1400,1894A,105.4427,28.9063,泸州市,小市上码头,颗粒物(PM10),53,53,49,6,36,115,115,59,59,24,23,10,13,0.7,0.6
2026-05-11T1400,1895A,105.4241,28.8573,泸州市,兰田宪桥,颗粒物(PM10),56,58,59,36,37,120,120,53,53,18,23,9,8,0.7,0.7
2026-05-11T1400,1896A,105.4378,28.8833,泸州市,市环监站,,44,44,44,26,27,109,109,51,51,25,31,11,25,0.8,0.8
2026-05-11T1400,4272A,105.3689,28.7783,泸州市,纳溪中医医院,,42,41,49,29,27,130,130,46,46,13,18,8,6,0.8,0.7
2026-05-11T1400,2183A,111.1447,37.5212,吕梁市,环保局,颗粒物(PM10),65,70,117,12,36,146,146,101,101,4,27,5,7,0.2,0.3
2026-05-11T1400,2185A,111.1285,37.5338,吕梁市,自来水公司,颗粒物(PM10),65,70,116,8,38,139,139,94,94,6,28,4,9,0.4,0.5
2026-05-11T1400,2867A,111.1225,37.5093,吕梁市,马茂庄小学,颗粒物(PM10),70,77,121,15,21,144,144,97,97,4,24,2,12,0.2,0.4
2026-05-11T1400,1812A,112.3934,34.6517,洛阳市,市委党校,细颗粒物(PM2.5),78,74,72,49,42,169,169,119,119,13,22,12,13,0.7,0.7
2026-05-11T1400,1815A,112.494,34.6883,洛阳市,河南林校,臭氧1小时(O3_1h),79,74,73,40,39,183,183,119,119,13,20,16,14,0.6,0.5
2026-05-11T1400,1816A,112.3843,34.623,洛阳市,开发区管委会,细颗粒物(PM2.5),98,74,64,59,39,186,186,122,122,11,16,15,15,0.7,0.7
2026-05-11T1400,1817A,112.4263,34.6249,洛阳市,市委新办公区,细颗粒物(PM2.5),88,67,64,54,39,183,183,122,122,12,17,14,13,0.9,0.9
2026-05-11T1400,3340A,112.6005,34.6323,洛阳市,伊滨,颗粒物(PM10),69,76,77,44,37,169,169,109,109,13,18,11,10,0.4,0.4
2026-05-11T1400,3341A,112.495,34.6338,洛阳市,中移产业园,细颗粒物(PM2.5),80,79,71,50,40,177,177,112,112,14,22,14,13,0.7,0.6
2026-05-11T1400,3593A,112.5736,34.8993,洛阳市,吉利监测站,颗粒物(PM10),75,84,80,32,34,168,168,110,110,11,18,15,12,0.4,0.5
2026-05-11T1400,3635A,112.3678,34.6623,洛阳市,河科大西苑校区,颗粒物(PM10),77,87,77,48,40,177,177,122,122,14,24,15,16,1.2,1.2
2026-05-11T1400,3636A,112.4387,34.678,洛阳市,英才小学,颗粒物(PM10),115,157,83,44,39,156,156,105,105,9,18,11,11,0.7,0.7
2026-05-11T1400,4214A,112.460027,34.694929,洛阳市,春都路1号院,颗粒物(PM10),74,83,79,46,38,174,174,110,110,10,19,14,12,0.4,0.4
2026-05-11T1400,2399A,114.051,33.5721,漯河市,三五一五工厂,颗粒物(PM10),58,60,56,29,28,142,142,106,106,10,18,8,9,0.4,0.4
2026-05-11T1400,2400A,114.0055,33.5698,漯河市,漯河大学,细颗粒物(PM2.5),60,62,43,40,32,147,147,108,108,10,19,8,8,0.4,0.4
2026-05-11T1400,2401A,114.0134,33.5826,漯河市,市水利局,颗粒物(PM10),60,63,60,36,36,144,144,108,108,7,15,7,8,0.6,0.7
2026-05-11T1400,2402A,114.0261,33.5697,漯河市,市广电局,颗粒物(PM10),58,61,51,24,28,142,142,108,108,10,17,8,8,0.5,0.4
2026-05-11T1400,3478A,113.9691,33.568,漯河市,市图书馆,细颗粒物(PM2.5),60,59,53,40,32,137,137,105,105,8,12,8,9,0.8,0.7
2026-05-11T1400,4250A,114.089259,33.588274,漯河市,韶山路11号,颗粒物(PM10),62,66,46,37,33,140,140,109,109,8,14,9,9,0.7,0.6
2026-05-11T1400,1798A,118.5084,31.6838,马鞍山市,湖东路四小,臭氧1小时(O3_1h),74,53,44,22,29,179,179,112,112,10,19,8,9,0.7,0.7
2026-05-11T1400,1799A,118.5019,31.6449,马鞍山市,开发区,臭氧1小时(O3_1h),64,40,48,17,28,171,171,105,105,11,26,7,10,0.7,0.9
2026-05-11T1400,3633A,118.4914,31.681,马鞍山市,雨山,臭氧1小时(O3_1h),82,42,39,28,26,185,185,116,116,11,22,8,8,0.8,0.8
2026-05-11T1400,4191A,118.527362,31.722269,马鞍山市,慈湖高新区,臭氧1小时(O3_1h),65,35,49,22,28,172,172,106,106,12,25,8,9,0.6,0.8
2026-05-11T1400,1686A,111.0285,21.469,茂名市,电白南海,,28,9,24,3,7,88,88,91,87,5,7,5,6,0.9,0.9
2026-05-11T1400,1687A,110.9294,21.6533,茂名市,茂石化七小,,44,44,38,23,19,104,104,76,76,11,13,10,8,0.6,0.6
2026-05-11T1400,1688A,110.9108,21.6688,茂名市,健康路,,36,34,29,22,20,113,113,76,76,8,13,10,8,0.7,0.8
2026-05-11T1400,1689A,110.8592,21.6826,茂名市,高岭,,46,46,40,22,25,106,106,71,71,4,14,8,7,/,/
2026-05-11T1400,3450A,111.0101,21.5165,茂名市,电白水东,,25,9,19,3,10,80,80,84,82,5,8,2,4,/,/
2026-05-11T1400,2540A,103.8414,30.0871,眉山市,气象局,颗粒物(PM10),58,61,54,29,22,161,161,50,50,23,42,6,4,0.8,0.5
2026-05-11T1400,3148A,103.829,30.0563,眉山市,区人社局,颗粒物(PM10),62,66,60,25,29,148,148,58,58,19,35,11,10,0.9,0.9
2026-05-11T1400,4148A,103.8836,30.0695,眉山市,眉职院,颗粒物(PM10),51,51,39,24,17,150,150,69,69,11,26,11,9,0.8,0.7
2026-05-11T1400,1690A,116.1248,24.3307,梅州市,梅江月梅,,28,22,27,17,15,88,88,50,50,6,12,/,/,/,/
2026-05-11T1400,1691A,116.0798,24.2719,梅州市,梅县新城,,27,27,32,14,14,80,80,46,46,7,18,8,8,0.5,0.6
2026-05-11T1400,3315A,116.1234,24.2994,梅州市,梅龙,,26,17,25,13,14,83,83,50,50,4,12,6,6,0.6,0.6
2026-05-11T1400,1878A,104.7775,31.4741,绵阳市,富乐山,NA,NA,78,76,NA,85,171,171,115,115,9,13,11,9,0.8,0.9
2026-05-11T1400,1880A,104.6698,31.4668,绵阳市,高新区自来水公司,细颗粒物(PM2.5),72,70,94,46,65,165,165,107,107,11,34,12,9,0.7,0.8
2026-05-11T1400,3491A,104.6899,31.5324,绵阳市,西科大附属小学,细颗粒物(PM2.5),100,82,104,60,65,182,182,109,109,16,32,9,7,0.7,0.7
2026-05-11T1400,3492A,104.5647,31.5343,绵阳市,安州区旅游局,细颗粒物(PM2.5),100,96,92,60,58,197,197,133,133,14,16,9,7,0.8,0.8
2026-05-11T1400,4146A,104.7092,31.4972,绵阳市,科技城新区公安局,颗粒物(PM10),80,91,102,45,65,163,163,98,98,14,29,10,7,0.8,0.9
2026-05-11T1400,4226A,104.765114,31.453094,绵阳市,绵阳市气象局,"颗粒物(PM10),细颗粒物(PM2.5)",70,77,82,45,58,150,150,88,88,12,26,7,9,0.6,0.6
2026-05-11T1400,1784A,129.61,44.561,牡丹江市,环保大楼,,42,26,25,7,14,134,134,114,114,8,10,3,3,0.2,0.2
2026-05-11T1400,1787A,129.6364,44.6075,牡丹江市,机车工厂,,42,23,28,12,18,134,134,114,114,8,12,7,8,0.3,0.3
2026-05-11T1400,1788A,129.6386,44.5462,牡丹江市,第一中学,,44,19,24,18,14,138,138,120,120,6,9,4,4,0.4,0.4
2026-05-11T1400,4287A,129.5992,44.5964,牡丹江市,东晓云街98号,,44,43,34,13,16,138,138,119,119,6,9,4,4,0.2,0.2
2026-05-11T1400,2531A,105.0703,29.61,内江市,市监测站,,46,46,49,29,35,132,132,84,84,15,25,10,10,0.4,0.4
2026-05-11T1400,2533A,105.0657,29.5807,内江市,内江二中,,43,39,45,30,38,134,134,87,87,13,22,8,8,0.4,0.4
2026-05-11T1400,2534A,105.0407,29.5828,内江市,内江日报社,,43,33,40,30,37,134,134,92,92,13,23,10,10,0.5,0.5
2026-05-11T1400,4147A,105.0433,29.6105,内江市,玉峰路西段888号,,43,43,46,26,33,130,130,86,86,17,22,8,8,0.5,0.6
2026-05-11T1400,2628A,92.0653,31.4846,那曲市,那曲监测站,,41,17,30,14,21,129,129,107,107,5,11,9,10,0.5,0.6
2026-05-11T1400,4243A,92.0515,31.4787,那曲市,那曲市委宣传部,,40,13,25,6,15,126,126,105,105,4,10,5,7,0.4,0.5
2026-05-11T1400,1291A,115.8887,28.7006,南昌市,省林业公司,,41,41,44,27,32,116,116,66,66,10,20,13,14,0.6,0.6
2026-05-11T1400,1292A,115.813,28.7443,南昌市,林科所,,38,24,42,14,33,120,120,68,68,2,32,11,11,0.4,0.5
2026-05-11T1400,1294A,115.8518,28.687,南昌市,建工学校,,46,39,53,32,34,116,116,64,64,6,16,16,16,0.8,0.8
2026-05-11T1400,1295A,115.8926,28.6425,南昌市,象湖,,37,31,36,25,33,116,116,68,68,11,19,15,14,0.7,0.7
2026-05-11T1400,3046A,115.9084,28.6062,南昌市,机电学校,,41,34,41,19,28,129,129,80,80,6,16,10,7,0.6,0.6
2026-05-11T1400,3690A,115.9718,28.7032,南昌市,外国语学校,NA,NA,NA,38,NA,28,NA,NA,120,60,NA,20,NA,12,NA,0.7
2026-05-11T1400,4106A,115.7923,28.6873,南昌市,工业二路,,40,40,57,15,35,112,112,63,63,2,17,9,10,0.6,0.6
2026-05-11T1400,4192A,115.931587,28.686774,南昌市,南京东路235号,,48,48,46,23,31,128,128,74,74,11,19,12,12,0.9,0.9
2026-05-11T1400,1906A,106.0791,30.8022,南充市,南充市委,臭氧1小时(O3_1h),62,60,62,34,45,169,169,86,86,11,27,7,6,0.5,0.6
2026-05-11T1400,1907A,106.1038,30.8215,南充市,南充炼油厂,臭氧1小时(O3_1h),79,68,73,35,50,183,183,94,94,12,24,8,7,0.4,0.6
2026-05-11T1400,4227A,106.108336,30.788436,南充市,梨树横街98号,臭氧1小时(O3_1h),73,44,65,32,49,178,178,98,98,10,24,8,8,0.6,0.7
2026-05-11T1400,4304A,106.1172,30.843,南充市,清泉寺北路188号,臭氧1小时(O3_1h),69,50,65,25,48,175,175,105,105,12,16,9,8,0.3,0.4
2026-05-11T1400,4305A,106.067,30.7616,南充市,同庆路1号,臭氧1小时(O3_1h),63,51,59,30,41,170,170,98,98,9,19,8,7,0.5,0.6
2026-05-11T1400,1151A,118.8033,32.1085,南京市,迈皋桥,臭氧1小时(O3_1h),82,45,39,14,28,185,185,124,124,4,13,5,6,0.4,0.6
2026-05-11T1400,1152A,118.7487,32.057,南京市,草场门,臭氧1小时(O3_1h),72,39,40,20,24,177,177,117,117,13,24,7,9,0.6,0.8
2026-05-11T1400,1154A,118.770105,32.004342,南京市,中华门,,50,31,41,14,25,160,160,105,105,7,16,6,7,0.4,0.5
2026-05-11T1400,1155A,118.8059,32.0329,南京市,瑞金路,,49,34,41,12,25,155,155,103,103,2,18,12,13,0.2,0.3
2026-05-11T1400,1156A,118.7946,32.0774,南京市,玄武湖,,47,35,40,10,22,150,150,100,100,3,13,5,7,0.5,0.6
2026-05-11T1400,1157A,118.6415,32.0964,南京市,浦口,臭氧1小时(O3_1h),58,41,37,19,20,166,166,100,100,15,26,9,7,0.7,0.5
2026-05-11T1400,1158A,118.730129,32.000956,南京市,奥体中心,臭氧1小时(O3_1h),69,52,44,18,20,175,175,100,100,14,28,12,13,0.6,0.7
2026-05-11T1400,1159A,118.9072,32.1047,南京市,仙林大学城,臭氧1小时(O3_1h),53,41,44,13,23,162,162,112,112,9,21,11,12,0.7,0.8
2026-05-11T1400,3422A,118.8443,31.919,南京市,江宁彩虹桥,NA,NA,NA,33,NA,6,NA,NA,136,NA,NA,12,NA,4,NA,0.4
2026-05-11T1400,3427A,118.8497,32.3599,南京市,六合雄州,臭氧1小时(O3_1h),85,39,44,18,24,188,188,110,110,14,33,4,5,1.2,1
2026-05-11T1400,4086A,118.7641,32.0841,南京市,新模范马路66号,臭氧1小时(O3_1h),78,48,48,15,20,182,182,119,119,10,23,4,4,0.7,0.7
2026-05-11T1400,4249A,118.8707617,31.34017673,南京市,汶溪路181号,NA,NA,33,27,6,15,136,136,107,107,10,15,NA,7,0.3,0.4
2026-05-11T1400,4312A,119.019,31.6512,南京市,中山西路1号,,37,19,32,9,22,118,118,94,94,7,16,4,4,0.5,0.5
2026-05-11T1400,1401A,108.3098,22.788,南宁市,二十一中,颗粒物(PM10),55,56,40,36,29,118,118,49,49,12,18,4,5,0.6,0.5
2026-05-11T1400,1402A,108.3135,22.8529,南宁市,北湖,细颗粒物(PM2.5),70,56,39,45,29,136,136,62,62,11,17,6,19,0.6,0.5
2026-05-11T1400,1403A,108.3205,22.8222,南宁市,市监测站,细颗粒物(PM2.5),56,52,37,38,24,139,139,63,63,13,16,3,7,0.7,0.7
2026-05-11T1400,1404A,108.3828,22.8038,南宁市,大自然花园,,40,40,35,27,24,126,126,58,58,10,18,5,7,0.5,0.5
2026-05-11T1400,1406A,108.2397,22.8462,南宁市,区农职院,细颗粒物(PM2.5),80,76,41,50,24,148,148,65,65,13,12,8,7,0.7,0.6
2026-05-11T1400,1407A,108.3285,22.7356,南宁市,英华嘉园,颗粒物(PM10),54,55,49,23,32,128,128,56,56,10,22,5,7,0.6,0.6
2026-05-11T1400,3401A,108.4829,22.762,南宁市,红星社区,,41,41,40,19,28,130,130,64,64,8,15,6,7,0.7,0.7
2026-05-11T1400,4132A,108.2927,23.1477,南宁市,起凤路9号,细颗粒物(PM2.5),62,46,24,41,20,137,137,69,69,13,9,10,6,0.7,0.6
2026-05-11T1400,4221A,108.2177,22.7774,南宁市,乐贤路16号,,47,47,46,27,31,116,116,62,62,10,20,9,25,0.6,0.6
2026-05-11T1400,2332A,118.1682,26.6371,南平市,南平市监测站,,26,11,21,6,13,81,81,49,49,3,9,6,4,0.5,0.4
2026-05-11T1400,2334A,118.1757,26.6276,南平市,南平七中,,27,27,20,6,12,75,75,46,46,3,9,4,3,0.5,0.5
2026-05-11T1400,1168A,120.9056,31.9669,南通市,狼山街道,臭氧1小时(O3_1h),97,47,40,25,20,197,197,114,114,39,35,11,8,0.8,0.6
2026-05-11T1400,1170A,120.8635,32.0231,南通市,城中,臭氧1小时(O3_1h),58,43,45,3,11,166,166,110,110,17,30,7,7,0.7,0.7
2026-05-11T1400,1171A,120.9376,31.9301,南通市,星湖花园,臭氧1小时(O3_1h),121,64,41,36,20,242,242,120,120,23,28,11,7,0.8,0.5
2026-05-11T1400,1172A,120.8053,32.046,南通市,紫琅学院,,45,18,35,3,19,144,144,99,99,30,37,8,10,0.8,0.9
2026-05-11T1400,3291A,121.0631,32.0644,南通市,通州监测站,臭氧1小时(O3_1h),85,44,42,10,17,188,188,119,119,10,15,7,5,0.7,0.6
2026-05-11T1400,3432A,120.9348,31.9874,南通市,环境教育馆,臭氧1小时(O3_1h),103,46,43,21,21,206,206,120,120,29,33,10,7,0.9,0.6
2026-05-11T1400,4091A,120.8692,31.9885,南通市,洪江路,臭氧1小时(O3_1h),82,43,44,24,23,185,185,100,100,32,34,11,9,1.1,0.9
2026-05-11T1400,2404A,112.5338,33.0086,南阳市,瓦房庄,颗粒物(PM10),53,53,52,35,34,124,124,92,92,5,9,7,7,0.4,0.4
2026-05-11T1400,2405A,112.5002,32.9734,南阳市,汉画馆,颗粒物(PM10),59,62,62,37,36,129,129,91,91,8,15,7,8,0.4,0.4
2026-05-11T1400,2406A,112.5778,33.0144,南阳市,气象站,颗粒物(PM10),55,57,56,28,36,130,130,96,96,1,7,8,8,0.3,0.3
2026-05-11T1400,2407A,112.548,32.9687,南阳市,理工学院,颗粒物(PM10),55,56,54,32,37,138,138,102,102,6,14,8,8,0.3,0.3
2026-05-11T1400,4008A,112.5233,32.9921,南阳市,卧龙区政府,,42,41,58,29,36,130,130,94,94,6,11,8,9,0.4,0.4
2026-05-11T1400,1234A,121.8352,29.9111,宁波市,区环保大楼,,46,32,24,9,7,146,146,98,98,24,16,10,7,0.4,0.3
2026-05-11T1400,1235A,121.5595,29.8208,宁波市,万里学院,,47,27,26,6,12,148,148,113,113,6,10,4,5,0.4,0.4
2026-05-11T1400,1236A,121.713,29.9564,宁波市,龙赛医院,臭氧1小时(O3_1h),99,63,36,20,10,199,199,129,129,20,12,11,8,0.6,0.3
2026-05-11T1400,1240A,121.5855,29.8635,宁波市,太古小学,,50,28,29,12,12,160,160,108,108,10,9,4,4,0.7,0.6
2026-05-11T1400,1241A,121.5239,29.8673,宁波市,市环境监测中心,,48,29,30,10,12,152,152,105,105,10,17,8,9,0.4,0.4
2026-05-11T1400,2871A,121.6156,29.9015,宁波市,万里国际学校,臭氧1小时(O3_1h),103,32,18,19,10,206,206,128,128,20,7,8,5,0.5,0.5
2026-05-11T1400,3710A,121.5593,29.8976,宁波市,白沙活动中心,臭氧1小时(O3_1h),62,22,20,16,14,169,169,115,115,10,12,6,7,0.3,0.3
2026-05-11T1400,4095A,121.8962,29.7529,宁波市,中科路88号,NA,NA,NA,16,NA,4,101,101,93,93,NA,2,7,7,0.5,0.5
2026-05-11T1400,2341A,119.5387,26.6611,宁德市,宁德市监测站,,40,31,24,17,15,125,125,72,72,11,15,8,8,0.8,0.6
2026-05-11T1400,3209A,119.5231,26.6562,宁德市,宁德一中,,40,21,23,16,17,128,128,77,77,8,10,8,6,0.8,0.5
2026-05-11T1400,2618A,98.859,25.8541,怒江傈僳族自治州,州监测站,,24,16,34,12,28,74,74,56,56,8,9,5,6,0.3,0.4
2026-05-11T1400,2619A,98.8607,25.8168,怒江傈僳族自治州,泸水一中,,43,NA,36,30,31,68,68,44,44,9,15,4,5,0.5,0.5
2026-05-11T1400,1888A,101.6891,26.571,攀枝花市,弄弄坪,,26,23,36,18,17,66,66,60,60,11,17,8,16,0.5,0.5
2026-05-11T1400,1889A,101.577,26.5914,攀枝花市,河门口,,30,29,35,21,22,58,58,57,57,20,18,13,17,1.0,1.1
2026-05-11T1400,1891A,101.7365,26.4986,攀枝花市,仁和,,19,18,34,13,25,60,60,51,51,8,13,6,12,0.4,0.4
2026-05-11T1400,2835A,101.7222,26.567,攀枝花市,四十中小,,22,22,31,8,16,68,68,67,67,8,13,9,26,0.7,0.8
2026-05-11T1400,1604A,122.0303,41.1489,盘锦市,开发区,颗粒物(PM10),54,55,45,24,43,161,161,131,131,10,14,9,9,0.5,0.6
2026-05-11T1400,1605A,122.0486,41.0883,盘锦市,兴隆台,细颗粒物(PM2.5),52,44,53,36,52,153,153,119,119,11,19,9,9,0.6,0.7
2026-05-11T1400,1606A,121.8297,41.1026,盘锦市,新生街道,细颗粒物(PM2.5),58,40,35,39,48,134,134,110,110,15,25,5,5,0.5,0.5
2026-05-11T1400,1832A,113.3257,33.7423,平顶山市,新华旅馆,细颗粒物(PM2.5),58,43,61,39,33,144,144,113,113,7,10,5,5,0.7,0.6
2026-05-11T1400,1833A,113.2917,33.737,平顶山市,规划设计院,细颗粒物(PM2.5),72,52,52,46,34,147,147,113,113,3,6,9,8,0.6,0.5
2026-05-11T1400,1834A,113.182,33.7738,平顶山市,平顶山工学院,,50,48,46,35,32,143,143,111,111,5,7,7,7,0.5,0.5
2026-05-11T1400,3594A,112.8736,33.9068,平顶山市,石龙区,细颗粒物(PM2.5),60,57,61,40,33,163,163,115,115,11,12,12,10,0.7,0.5
2026-05-11T1400,4116A,113.284,33.7139,平顶山市,姚电大道23号,颗粒物(PM10),61,65,64,38,34,151,151,113,113,7,12,8,8,0.5,0.5
2026-05-11T1400,2656A,106.6633,35.5338,平凉市,聚贤嘉苑,颗粒物(PM10),80,91,89,21,35,137,137,105,105,6,14,5,9,0.4,0.4
2026-05-11T1400,2657A,106.7021,35.5307,平凉市,博物馆,细颗粒物(PM2.5),70,62,79,45,40,145,145,103,103,4,14,8,10,0.4,0.5
2026-05-11T1400,2348A,113.8384,27.6436,萍乡市,中医院,,33,20,28,16,19,103,103,59,59,5,17,7,8,0.4,0.7
2026-05-11T1400,2350A,113.8677,27.6438,萍乡市,市环保局,,32,23,32,15,22,102,102,62,62,7,18,10,8,0.6,0.8
2026-05-11T1400,2351A,113.8663,27.6202,萍乡市,安源区政府,,34,26,28,17,20,106,106,65,65,4,13,7,7,0.3,0.4
2026-05-11T1400,4107A,113.8686,27.6668,萍乡市,联洪村委会,,32,27,36,16,20,100,100,57,57,5,22,8,8,0.6,0.6
2026-05-11T1400,2319A,119.0142,25.4324,莆田市,荔城区仓后路,细颗粒物(PM2.5),76,61,37,48,28,162,162,94,94,15,18,/,/,/,/
2026-05-11T1400,2320A,119.0016,25.4553,莆田市,莆田市监测站,细颗粒物(PM2.5),82,73,33,51,25,168,168,102,102,13,12,6,4,0.6,0.7
2026-05-11T1400,2321A,119.112,25.4561,莆田市,涵江区六中,,44,NA,38,25,26,140,140,83,83,9,23,/,/,0.7,0.9
2026-05-11T1400,2322A,119.1014,25.3215,莆田市,秀屿区政府,,45,37,29,17,22,143,143,91,91,7,12,6,6,0.6,0.7
2026-05-11T1400,2392A,115.0312,35.7636,濮阳市,环保局,颗粒物(PM10),60,63,57,25,28,137,137,108,108,8,14,8,8,0.5,0.5
2026-05-11T1400,3021A,115,35.7667,濮阳市,濮水河管理处,,50,50,56,35,29,127,127,97,97,7,11,5,5,0.7,0.7
2026-05-11T1400,4118A,115.0552,35.7816,濮阳市,中原东路68号,"颗粒物(PM10),细颗粒物(PM2.5)",56,58,62,38,26,142,142,111,111,6,9,5,5,0.6,0.6
2026-05-11T1400,4216A,115.0923632,35.76857718,濮阳市,任丘路479号,,48,48,53,26,28,137,137,102,102,11,14,4,5,0.7,0.7
2026-05-11T1400,2601A,100.9801,22.7634,普洱市,市环保局,,20,17,27,8,11,63,63,38,38,4,8,4,4,0.8,0.9
2026-05-11T1400,2602A,100.9763,22.8237,普洱市,普洱第二中学,,26,26,24,14,8,65,65,35,35,4,8,5,5,0.7,0.8
2026-05-11T1400,3345A,131.0413,45.7795,七台河市,中波台,,45,42,45,16,21,144,144,128,128,9,10,3,3,0.5,0.4
2026-05-11T1400,3637A,131.0136,45.7688,七台河市,人民广场,,44,37,35,10,15,140,140,127,127,10,11,8,8,0.5,0.4
2026-05-11T1400,3684A,130.8639,45.8144,七台河市,新建矿广场,,48,48,31,21,21,129,129,110,110,12,14,8,8,0.7,0.5
2026-05-11T1400,1779A,123.9307,47.3641,齐齐哈尔市,安居小区,颗粒物(PM10),58,60,72,22,27,134,134,107,107,8,9,6,8,0.6,0.6
2026-05-11T1400,1780A,123.9497,47.3389,齐齐哈尔市,中心广场,颗粒物(PM10),59,62,72,33,26,128,128,101,101,8,8,10,10,0.4,0.3
2026-05-11T1400,1781A,123.9483,47.3229,齐齐哈尔市,农牧车辆厂,颗粒物(PM10),65,70,67,35,27,139,139,110,110,9,9,7,7,0.1,0.1
2026-05-11T1400,1783A,123.9442,47.2994,齐齐哈尔市,市环境监测站,细颗粒物(PM2.5),58,56,64,39,32,129,129,103,103,9,9,4,6,0.6,0.6
2026-05-11T1400,3662A,123.6341,47.2079,齐齐哈尔市,富区青少年活动中心,NA,NA,NA,69,NA,23,143,143,110,110,6,9,5,5,NA,0.6
2026-05-11T1400,2591A,107.9765,26.5724,黔东南苗族侗族自治州,市环境监测站,,40,29,44,28,36,90,90,50,50,5,9,4,3,0.5,0.6
2026-05-11T1400,2881A,107.8909,26.531,黔东南苗族侗族自治州,凯里学院,,35,29,50,24,39,100,100,49,49,7,13,3,2,0.4,0.5
2026-05-11T1400,2593A,107.5223,26.2371,黔南布依族苗族自治州,小围寨,,42,41,37,29,32,81,81,43,43,7,8,6,7,0.5,0.6
2026-05-11T1400,3538A,107.5175,26.2977,黔南布依族苗族自治州,沙坝,,39,36,41,27,33,86,86,39,39,6,9,6,4,0.7,0.8
2026-05-11T1400,2589A,104.9022,25.0943,黔西南布依族苗族自治州,场坝街,,50,42,56,35,37,79,79,38,38,13,17,13,15,0.6,0.6
2026-05-11T1400,2590A,104.8812,25.0994,黔西南布依族苗族自治州,坪东大道,,48,46,52,33,36,78,78,33,33,11,14,11,9,0.5,0.6
2026-05-11T1400,2502A,108.6238,21.9667,钦州市,市环保站,,36,36,50,7,27,110,110,66,66,6,14,2,2,0.6,0.7
2026-05-11T1400,2503A,108.655,21.9481,钦州市,沙埠小学,,34,34,49,17,30,106,106,68,68,5,14,2,5,0.6,0.7
2026-05-11T1400,2504A,108.5989,21.7435,钦州市,港区一小,颗粒物(PM10),55,57,58,17,34,73,73,68,68,8,20,4,11,0.5,0.8
2026-05-11T1400,3404A,108.5959,21.9634,钦州市,北职校,,36,32,48,16,30,114,114,70,70,4,12,4,3,0.5,0.8
2026-05-11T1400,1046A,119.5247,39.9346,秦皇岛市,建设大厦,,46,46,74,22,41,129,129,92,92,2,24,5,7,0.3,0.4
2026-05-11T1400,3132A,119.5979,39.938,秦皇岛市,文明里,颗粒物(PM10),59,62,92,20,47,125,125,92,92,9,30,9,10,0.2,0.4
2026-05-11T1400,4066A,119.7458,39.9952,秦皇岛市,南园路157号,,46,46,77,27,51,118,118,96,96,9,34,7,9,0.2,0.4
2026-05-11T1400,4067A,119.5131,39.8858,秦皇岛市,翠岛大街1号,颗粒物(PM10),51,51,63,15,43,131,131,101,101,8,24,9,11,0.3,0.5
2026-05-11T1400,4198A,119.509013,39.825305,秦皇岛市,北戴河轮滑馆,,46,46,74,24,37,126,126,109,109,8,21,8,8,0.3,0.4
2026-05-11T1400,1310A,120.404,36.0625,青岛市,市南区东部子站,细颗粒物(PM2.5),80,66,47,50,22,124,124,109,100,22,13,9,7,0.6,0.4
2026-05-11T1400,1311A,120.362344,36.10282,青岛市,四方区子站,细颗粒物(PM2.5),84,70,43,52,24,154,154,126,115,23,18,11,8,1.0,0.8
2026-05-11T1400,1312A,120.294373,36.054183,青岛市,市南区西部子站,NA,NA,66,42,56,19,113,113,115,94,26,14,7,5,NA,0.2
2026-05-11T1400,1313A,120.4581,36.0858,青岛市,崂山区子站,细颗粒物(PM2.5),68,66,44,44,19,116,116,124,113,32,10,13,10,0.4,0.3
2026-05-11T1400,1315A,120.3945,36.3083,青岛市,城阳区子站,颗粒物(PM10),62,66,62,26,26,154,154,116,116,19,16,10,9,0.8,0.8
2026-05-11T1400,3642A,120.3454,36.0735,青岛市,市北区南部,细颗粒物(PM2.5),84,NA,37,52,22,152,152,125,117,13,8,8,5,0.9,0.7
2026-05-11T1400,3643A,120.3897,36.18,青岛市,李沧区北部,细颗粒物(PM2.5),66,70,48,43,23,137,137,104,100,21,18,14,11,0.8,0.7
2026-05-11T1400,4110A,120.5222,36.4089,青岛市,盟旺路653号,,50,49,45,21,24,160,160,134,134,5,7,6,6,0.7,0.7
2026-05-11T1400,4290A,120.196923,35.954556,青岛市,珠江路669号,细颗粒物(PM2.5),86,80,49,53,22,150,150,122,112,19,14,6,6,0.8,0.7
2026-05-11T1400,4291A,120.0424,35.8656,青岛市,黄岛区人民政府广场,细颗粒物(PM2.5),90,73,58,55,24,153,153,101,101,16,17,11,9,0.8,0.6
2026-05-11T1400,1703A,113.0218,23.7086,清远市,凤城街办,,27,19,71,15,54,84,84,59,59,8,24,/,/,/,/
2026-05-11T1400,3025A,113.0479,23.6343,清远市,技师学院,,30,15,65,10,46,96,96,69,69,6,28,6,8,0.5,0.6
2026-05-11T1400,3318A,112.9898,23.7403,清远市,清新太和,,29,22,58,16,42,92,92,73,73,6,16,7,10,0.6,0.7
2026-05-11T1400,3455A,113.076,23.72,清远市,清城东城,,30,23,72,17,50,95,95,55,55,10,32,/,/,/,/
2026-05-11T1400,2661A,107.6325,35.7357,庆阳市,庆阳五中,颗粒物(PM10),90,106,112,39,36,145,145,104,104,11,12,9,4,0.3,0.3
2026-05-11T1400,2662A,107.6361,35.7067,庆阳市,市环保局,颗粒物(PM10),80,91,103,38,37,151,151,118,118,15,13,5,4,0.3,0.2
2026-05-11T1400,1916A,103.7897,25.5036,曲靖市,环境监测站,,22,NA,29,12,18,70,70,50,50,6,14,4,6,0.8,0.7
2026-05-11T1400,1917A,103.8013,25.5357,曲靖市,烟厂办公区,,22,18,26,8,13,69,69,50,50,5,8,5,7,0.7,0.6
2026-05-11T1400,3376A,103.7926,25.4651,曲靖市,南苑二区,,39,NA,26,27,20,67,67,41,41,12,27,3,4,0.8,0.7
2026-05-11T1400,3377A,103.7442,25.5259,曲靖市,曲靖师范学院,,29,NA,24,20,17,65,65,38,38,11,35,2,6,0.4,0.5
2026-05-11T1400,1264A,118.8694,28.94,衢州市,环保大楼,,36,25,31,16,20,114,114,66,66,7,16,/,/,/,/
2026-05-11T1400,1266A,118.8622,28.9809,衢州市,衢州学院,,37,23,22,16,16,116,116,68,68,7,24,8,7,0.5,0.6
2026-05-11T1400,4097A,118.9646,28.9832,衢州市,衢州三中,,35,21,28,14,18,111,111,69,69,7,17,9,11,0.6,0.6
2026-05-11T1400,1611A,118.5818,24.9116,泉州市,涂山街,臭氧1小时(O3_1h),90,71,33,38,21,192,192,122,122,20,17,6,5,0.6,0.5
2026-05-11T1400,1612A,118.597,24.8976,泉州市,津头埔,臭氧1小时(O3_1h),89,57,32,28,22,191,191,129,129,16,18,5,5,0.5,0.5
2026-05-11T1400,1613A,118.6669,24.9422,泉州市,万安,颗粒物(PM10),59,62,33,32,21,162,162,100,100,12,16,5,5,0.4,0.4
2026-05-11T1400,4105A,118.6355,24.9148,泉州市,霞新路6号,臭氧1小时(O3_1h),55,41,31,32,21,164,164,105,105,16,21,/,/,0.6,0.6
2026-05-11T1400,2626A,88.8873,29.2723,日喀则市,日喀则监测站,,39,15,25,3,12,124,124,85,85,4,12,8,9,0.0,0.3
2026-05-11T1400,3726A,88.8775,29.2425,日喀则市,林业技术推广中心,,40,12,23,3,5,127,127,78,78,4,7,8,8,0.1,0.2
2026-05-11T1400,1659A,119.4711,35.421,日照市,监测站,细颗粒物(PM2.5),100,66,65,60,46,170,170,87,87,25,45,16,16,0.8,0.9
2026-05-11T1400,1660A,119.523,35.4216,日照市,市政府广场,细颗粒物(PM2.5),94,63,70,57,36,157,157,82,82,23,43,9,15,0.9,1.1
2026-05-11T1400,1661A,119.5511,35.4113,日照市,港务局,细颗粒物(PM2.5),106,70,80,66,45,155,155,81,81,20,39,8,10,0.9,0.8
2026-05-11T1400,3507A,119.5326,35.4627,日照市,职业技术学院,细颗粒物(PM2.5),88,83,77,54,38,173,173,90,90,27,37,11,12,0.8,0.9
2026-05-11T1400,3604A,119.3267,35.1043,日照市,岚山环保分局,颗粒物(PM10),84,97,54,39,29,152,152,104,104,40,32,15,15,0.7,0.7
2026-05-11T1400,1835A,111.1922,34.7752,三门峡市,市政府,颗粒物(PM10),62,66,60,23,22,143,143,108,108,7,21,14,14,0.5,0.6
2026-05-11T1400,1836A,111.1588,34.794,三门峡市,开发区,颗粒物(PM10),62,66,64,31,29,144,144,116,116,8,17,13,17,0.4,0.5
2026-05-11T1400,3039A,111.1911,34.7829,三门峡市,三门峡市第一小学,颗粒物(PM10),75,85,62,26,27,148,148,110,110,9,17,15,15,0.4,0.4
2026-05-11T1400,3598A,111.1031,34.719,三门峡市,富达温泉假日酒店,颗粒物(PM10),68,75,68,28,31,169,169,99,99,10,18,21,13,0.7,0.6
2026-05-11T1400,2324A,117.621,26.2626,三明市,三钢,,40,30,30,28,26,88,88,52,52,13,18,16,11,1.1,0.8
2026-05-11T1400,2325A,117.6352,26.2714,三明市,三明二中,,35,33,30,24,22,85,85,49,49,8,17,4,8,0.9,0.9
2026-05-11T1400,2326A,117.6028,26.2377,三明市,三元区政府,,34,34,31,23,19,89,89,53,53,6,15,9,7,0.7,1
2026-05-11T1400,1877A,109.4962,18.2682,三亚市,河西子站,,25,25,26,11,12,59,59,56,56,4,4,4,4,0.3,0.3
2026-05-11T1400,3540A,109.7348,18.3443,三亚市,君悦子站,,20,20,27,9,11,54,54,49,49,3,4,3,3,0.5,0.5
2026-05-11T1400,4135A,109.1714,18.3739,三亚市,城东小学站,,22,22,23,10,12,63,63,47,47,4,6,/,/,/,/
2026-05-11T1400,2624A,91.7592,29.234,山南市,山南监测站,,40,14,13,3,3,125,125,116,116,2,3,8,8,0.2,0.2
2026-05-11T1400,2625A,91.7701,29.2436,山南市,山南人民医院,,40,17,14,8,5,127,127,118,118,2,2,8,8,0.2,0.2
2026-05-11T1400,1674A,116.6795,23.3666,汕头市,金平子站,臭氧1小时(O3_1h),67,44,28,36,24,173,173,123,123,12,12,6,5,1.0,0.7
2026-05-11T1400,1675A,116.7248,23.3632,汕头市,龙湖子站,臭氧1小时(O3_1h),63,57,28,38,23,170,170,125,125,7,7,8,6,/,/
2026-05-11T1400,1676A,116.7257,23.2774,汕头市,濠江子站,臭氧1小时(O3_1h),68,51,29,39,23,174,174,123,123,12,12,9,8,/,/
2026-05-11T1400,1677A,116.7518,23.4712,汕头市,澄海子站,臭氧1小时(O3_1h),68,60,36,35,25,174,174,134,134,12,12,8,9,0.9,0.7
2026-05-11T1400,1678A,116.6088,23.2539,汕头市,潮阳子站,臭氧1小时(O3_1h),62,55,28,33,25,169,169,120,120,6,8,8,6,0.7,0.6
2026-05-11T1400,3444A,116.4539,23.2684,汕头市,潮南峡山,细颗粒物(PM2.5),72,58,40,46,28,154,154,113,113,5,6,8,8,0.9,0.8
2026-05-11T1400,3624A,116.4069,23.2533,汕头市,潮南子站,,49,49,48,27,29,128,128,98,98,9,11,6,6,/,/
2026-05-11T1400,1693A,115.3653,22.7751,汕尾市,市环保局,,44,44,30,25,22,129,129,107,107,5,7,5,6,0.6,0.5
2026-05-11T1400,1695A,115.362,22.7926,汕尾市,新城中学,,44,44,31,25,22,131,131,106,106,4,8,6,6,0.5,0.5
2026-05-11T1400,2645A,109.9155,33.8714,商洛市,监测站,臭氧1小时(O3_1h),62,49,54,30,23,169,169,91,91,9,18,14,8,0.6,0.5
2026-05-11T1400,3045A,109.9647,33.8486,商洛市,商州区中学,臭氧1小时(O3_1h),55,39,64,24,26,164,164,94,94,7,26,15,9,0.5,0.4
2026-05-11T1400,2408A,115.6701,34.4283,商丘市,环境监测站,,45,45,58,28,28,138,138,115,115,2,5,4,4,0.4,0.4
2026-05-11T1400,2409A,115.6458,34.4047,商丘市,粮食局,颗粒物(PM10),58,60,52,24,26,129,129,110,110,5,8,7,7,0.4,0.4
2026-05-11T1400,3171A,115.6069,34.4465,商丘市,梁园区档案局,颗粒物(PM10),52,52,53,29,27,133,133,109,109,4,6,1,2,0.4,0.4
