timepoint,stationcode,longitude,latitude,area,positionname,primarypollutant,aqi,pm10,pm10_24h,pm2_5,pm2_5_24h,o3,o3_24h,o3_8h,o3_8h_24h,no2,no2_24h,so2,so2_24h,co,co_24h
2026-04-15T1300,2568A,102.2503,31.8896,阿坝藏族羌族自治州,马师校,,37,6,15,3,8,117,117,59,59,5,5,6,6,0.4,0.4
2026-04-15T1300,3994A,102.2174,31.9016,阿坝藏族羌族自治州,马尔康中学西区,,34,6,12,6,7,108,108,57,57,5,6,3,4,0.3,0.3
2026-04-15T1300,2695A,80.2899,41.1684,阿克苏地区,电视台,颗粒物(PM10),104,128,131,63,44,103,103,86,74,14,15,2,2,0.6,0.6
2026-04-15T1300,2696A,80.2592,41.1541,阿克苏地区,艺术中心,颗粒物(PM10),105,131,132,61,48,104,104,86,66,19,17,4,4,0.4,0.4
2026-04-15T1300,2205A,105.699,38.8409,阿拉善盟,蒙二幼,NA,NA,62,30,NA,9,116,116,107,106,4,5,NA,9,0.6,0.5
2026-04-15T1300,2206A,105.7198,38.8508,阿拉善盟,环保局新楼,颗粒物(PM10),57,59,33,15,8,108,108,109,104,6,5,10,8,0.6,0.5
2026-04-15T1300,2708A,88.1266,47.8515,阿勒泰地区,市站,颗粒物(PM10),111,147,164,17,24,75,75,91,88,4,4,5,5,0.2,0.2
2026-04-15T1300,4166A,88.1198,47.7931,阿勒泰地区,阿勒泰路33号,颗粒物(PM10),75,85,184,16,27,78,78,74,74,4,4,6,6,0.3,0.2
2026-04-15T1300,2630A,80.1171,32.4999,阿里地区,阿里监测站,NA,NA,NA,12,1,6,121,121,95,87,2,6,6,6,0.4,0.4
2026-04-15T1300,3192A,80.0906,32.5029,阿里地区,阿里藏医院,,41,11,14,3,4,130,130,108,97,1,4,5,6,0.4,0.4
2026-04-15T1300,2644A,109.0088,32.6974,安康市,汉滨区检察院,,36,36,29,24,15,31,31,17,17,12,10,5,5,0.6,0.5
2026-04-15T1300,4054A,109.0324,32.6913,安康市,市邮政管理局,,46,46,35,30,20,32,32,20,20,15,14,5,5,0.8,0.7
2026-04-15T1300,2291A,117.0806,30.5181,安庆市,环科院,,37,34,21,25,16,117,117,61,61,6,11,7,6,0.6,0.5
2026-04-15T1300,2292A,117.0331,30.5118,安庆市,马山宾馆,,35,30,22,20,16,110,110,66,66,4,8,5,4,0.5,0.5
2026-04-15T1300,2294A,116.9897,30.6146,安庆市,安庆大学,,30,24,23,15,12,95,95,62,62,4,8,3,2,0.4,0.4
2026-04-15T1300,3173A,117.0598,30.5351,安庆市,市人大,,49,49,24,18,14,113,113,67,67,5,10,8,7,0.5,0.5
2026-04-15T1300,3123A,105.9408,26.2431,安顺市,凤凰山,NA,NA,62,55,56,37,120,120,62,62,NA,9,10,9,NA,0.6
2026-04-15T1300,3124A,105.9443,26.2567,安顺市,金钟山,细颗粒物(PM2.5),94,65,53,57,38,107,107,59,59,6,7,9,11,0.7,0.6
2026-04-15T1300,3125A,105.8983,26.248,安顺市,娄家坡,细颗粒物(PM2.5),103,NA,49,63,38,108,108,62,62,6,7,18,16,0.7,0.6
2026-04-15T1300,1819A,114.3552,36.1017,安阳市,红庙街,颗粒物(PM10),74,83,64,33,34,130,130,67,67,11,18,8,5,0.3,0.2
2026-04-15T1300,1820A,114.361,36.0681,安阳市,银杏小区,颗粒物(PM10),68,75,62,43,38,128,128,74,74,10,17,8,6,0.0,0
2026-04-15T1300,3141A,114.3921,36.0879,安阳市,信访局,颗粒物(PM10),63,68,51,36,35,132,132,74,74,11,15,6,4,0.5,0.4
2026-04-15T1300,3669A,114.4706,36.0634,安阳市,左辅环卫站,NA,NA,74,51,28,26,115,115,52,52,15,17,4,2,NA,0.3
2026-04-15T1300,4117A,114.2918,36.0769,安阳市,钢三路198号,颗粒物(PM10),51,51,61,26,34,123,123,63,63,9,18,6,6,0.4,0.5
2026-04-15T1300,1748A,123.0441,41.1201,鞍山市,深沟寺,细颗粒物(PM2.5),100,89,115,60,82,111,111,69,69,38,33,14,11,1.3,0.9
2026-04-15T1300,1749A,123.011,41.0931,鞍山市,太阳城,细颗粒物(PM2.5),120,105,126,82,96,108,108,71,71,35,29,13,15,1.4,1.4
2026-04-15T1300,1750A,123.0483,41.1445,鞍山市,太平,细颗粒物(PM2.5),110,102,126,71,89,104,104,63,63,38,33,22,10,2.0,1.1
2026-04-15T1300,1751A,122.964,41.0968,鞍山市,铁西三道街,细颗粒物(PM2.5),126,113,131,88,99,109,109,67,67,39,38,14,16,1.6,1.4
2026-04-15T1300,1753A,123.0219,41.0822,鞍山市,明达新区,细颗粒物(PM2.5),105,88,116,65,88,112,112,88,88,28,29,12,15,1.4,1.2
2026-04-15T1300,4201A,122.944647,41.082639,鞍山市,兴盛南路290号,细颗粒物(PM2.5),117,91,140,78,106,118,118,58,58,34,47,13,15,1.2,1.3
2026-04-15T1300,2195A,107.4206,40.7609,巴彦淖尔市,附二中,颗粒物(PM10),54,55,57,21,15,113,113,68,68,9,15,11,11,0.4,0.4
2026-04-15T1300,2196A,107.37,40.7372,巴彦淖尔市,市环保大楼,颗粒物(PM10),54,55,53,16,14,120,120,73,73,8,13,8,7,0.4,0.3
2026-04-15T1300,1956A,86.1476,41.7529,巴音郭楞蒙古自治州,孔雀公园,细颗粒物(PM2.5),132,197,97,95,40,92,92,83,72,3,10,10,10,0.1,0.2
2026-04-15T1300,1957A,86.1971,41.7166,巴音郭楞蒙古自治州,棉纺厂,颗粒物(PM10),148,244,116,101,37,97,97,85,85,2,11,/,/,/,/
2026-04-15T1300,1958A,86.236,41.7172,巴音郭楞蒙古自治州,经济开发区,颗粒物(PM10),129,195,97,83,36,87,87,82,82,2,8,7,8,0.2,0.2
2026-04-15T1300,3181A,106.776805,31.852614,巴中市,市五中,,43,43,23,9,10,49,49,23,23,13,11,9,8,0.7,0.7
2026-04-15T1300,3183A,106.7419,31.8654,巴中市,圣泉水务公司,,20,16,18,10,10,63,63,29,29,10,17,8,8,0.6,0.7
2026-04-15T1300,3616A,106.7617,31.8343,巴中市,市中心医院,,21,15,19,9,9,65,65,26,26,7,12,9,8,0.5,0.6
2026-04-15T1300,2235A,122.7909,45.608,白城市,洮北区环保局,颗粒物(PM10),63,68,50,32,34,136,136,100,100,3,6,5,7,0.1,0.1
2026-04-15T1300,2236A,122.8741,45.5725,白城市,市环保局,NA,NA,NA,64,NA,36,NA,NA,94,62,NA,41,NA,6,NA,0
2026-04-15T1300,2231A,126.4219,41.9172,白山市,喜丰,NA,NA,NA,157,NA,142,118,118,90,90,NA,24,NA,10,0.7,1.2
2026-04-15T1300,2232A,126.4082,41.9416,白山市,环保局,细颗粒物(PM2.5),54,52,129,37,137,124,124,94,94,16,22,9,12,0.6,1
2026-04-15T1300,2647A,104.1727,36.5448,白银市,第三小学,颗粒物(PM10),63,68,50,28,22,96,96,77,77,3,16,16,27,0.4,0.5
2026-04-15T1300,2648A,104.1467,36.5482,白银市,动力公司,颗粒物(PM10),58,60,44,20,18,93,93,63,63,5,20,7,17,0.3,0.4
2026-04-15T1300,2512A,106.6102,23.901,百色市,市监测站,细颗粒物(PM2.5),126,112,95,88,71,154,154,89,89,12,15,16,21,1.1,1
2026-04-15T1300,2513A,106.6524,23.8842,百色市,市中心血站,细颗粒物(PM2.5),136,116,96,99,91,155,155,93,93,6,10,15,21,1.3,1.2
2026-04-15T1300,4133A,106.6273,23.8798,百色市,龙景西路,细颗粒物(PM2.5),128,110,108,90,78,154,154,82,82,14,16,20,21,0.8,0.7
2026-04-15T1300,2270A,117.396,32.9389,蚌埠市,工人疗养院,颗粒物(PM10),63,67,67,34,34,136,136,92,92,16,25,6,6,0.3,0.4
2026-04-15T1300,2271A,117.3606,32.9428,蚌埠市,百货大楼,颗粒物(PM10),52,52,55,30,32,133,133,90,90,13,22,8,7,0.3,0.4
2026-04-15T1300,2273A,117.4183,32.8909,蚌埠市,蚌埠学院,,42,34,51,19,32,134,134,67,67,6,27,7,6,0.4,0.4
2026-04-15T1300,2274A,117.3534,32.9672,蚌埠市,淮上区政府,颗粒物(PM10),51,51,61,31,32,142,142,99,99,13,28,8,6,0.2,0.3
2026-04-15T1300,2275A,117.3143,32.8977,蚌埠市,高新区,,41,24,51,11,30,129,129,82,82,5,23,8,9,0.4,0.5
2026-04-15T1300,3715A,117.3091,32.9314,蚌埠市,蚌埠田家炳中学,颗粒物(PM10),58,60,64,28,32,137,137,91,91,16,29,9,7,0.4,0.4
2026-04-15T1300,1585A,109.8761,40.6533,包头市,市环境监测站,颗粒物(PM10),68,74,75,33,23,110,110,55,55,23,43,11,10,0.5,0.6
2026-04-15T1300,1587A,109.9992,40.5843,包头市,包头八中,颗粒物(PM10),80,92,94,35,30,96,96,54,54,26,40,14,18,0.6,0.9
2026-04-15T1300,1589A,109.8641,40.6288,包头市,惠龙物流,颗粒物(PM10),80,91,66,38,25,99,99,59,59,24,35,11,11,0.5,0.6
2026-04-15T1300,1590A,110.0376,40.5546,包头市,东河鸿龙湾,颗粒物(PM10),84,97,106,40,35,98,98,54,54,27,48,15,14,0.5,0.5
2026-04-15T1300,3283A,109.9154,40.5684,包头市,滨河大厦,颗粒物(PM10),79,90,74,39,27,97,97,51,51,26,43,13,13,0.5,0.6
2026-04-15T1300,3419A,109.9449,40.6259,包头市,包头市委党校,颗粒物(PM10),78,89,68,23,20,100,100,56,56,26,37,12,16,0.4,0.7
2026-04-15T1300,3683A,109.8332,40.6577,包头市,昆区政府,颗粒物(PM10),82,94,66,35,24,101,101,58,58,29,47,10,7,0.6,0.7
2026-04-15T1300,1931A,107.0802,34.3129,宝鸡市,竹园沟,细颗粒物(PM2.5),113,NA,60,74,42,104,104,55,55,13,12,9,8,0.5,0.5
2026-04-15T1300,1933A,107.1429,34.3549,宝鸡市,监测站,"颗粒物(PM10),细颗粒物(PM2.5)",82,94,83,51,44,112,112,53,53,26,25,7,6,0.5,0.4
2026-04-15T1300,1934A,107.1172,34.3759,宝鸡市,技工学校,细颗粒物(PM2.5),102,88,70,62,47,110,110,54,54,12,13,6,5,0.6,0.6
2026-04-15T1300,1936A,107.2025,34.3518,宝鸡市,文理学院,细颗粒物(PM2.5),98,60,70,59,46,108,108,54,54,13,16,7,6,0.6,0.6
2026-04-15T1300,1937A,107.2396,34.3626,宝鸡市,三迪小学,NA,NA,75,72,51,42,102,102,42,42,11,16,NA,7,0.6,0.6
2026-04-15T1300,4155A,107.1721,34.3558,宝鸡市,滨河北路,细颗粒物(PM2.5),92,85,74,56,45,101,101,47,47,12,16,9,8,0.6,0.7
2026-04-15T1300,4308A,107.3898,34.3601,宝鸡市,陈仓区北开路21号,细颗粒物(PM2.5),94,70,80,57,44,102,102,53,53,10,18,11,10,0.6,0.6
2026-04-15T1300,1051A,115.4803,38.8568,保定市,游泳馆,细颗粒物(PM2.5),142,133,118,106,76,160,160,86,86,28,39,5,4,0.7,0.9
2026-04-15T1300,1052A,115.509,38.8895,保定市,华电二区,细颗粒物(PM2.5),133,128,111,96,73,162,162,75,75,24,37,7,4,0.7,0.8
2026-04-15T1300,1053A,115.4588,38.9037,保定市,接待中心,细颗粒物(PM2.5),131,119,119,94,72,162,162,79,79,26,37,5,4,0.7,0.6
2026-04-15T1300,1054A,115.4484,38.8344,保定市,地表水厂,细颗粒物(PM2.5),135,140,122,98,70,164,164,90,90,27,37,7,7,0.7,0.8
2026-04-15T1300,3581A,115.3136,38.9511,保定市,满城区生态环境分局,细颗粒物(PM2.5),115,149,145,76,62,168,168,96,96,26,38,8,6,0.8,0.8
2026-04-15T1300,3582A,115.4709,38.7628,保定市,清苑区第二中学,细颗粒物(PM2.5),129,185,155,91,71,142,142,110,110,NA,42,8,8,0.8,0.8
2026-04-15T1300,3583A,115.6231,39.0223,保定市,徐水物探局,细颗粒物(PM2.5),126,163,156,88,77,156,156,79,79,25,46,6,6,1.0,1
2026-04-15T1300,4004A,115.4199,38.8665,保定市,双鹰农机,NA,NA,NA,145,NA,74,167,167,73,73,NA,38,7,7,0.7,0.7
2026-04-15T1300,4034A,115.515,38.8589,保定市,植保所站,细颗粒物(PM2.5),137,155,122,100,71,152,152,77,77,27,42,6,8,0.8,0.8
2026-04-15T1300,2594A,99.1589,25.1137,保山市,市环境监测站,细颗粒物(PM2.5),101,118,85,61,50,131,131,100,78,18,13,9,7,0.5,0.4
2026-04-15T1300,2595A,99.1616,25.1381,保山市,市环保局,细颗粒物(PM2.5),109,109,87,69,57,137,137,115,97,18,10,NA,8,0.6,0.5
2026-04-15T1300,1867A,109.1435,21.4085,北海市,海滩公园,,48,42,43,33,28,86,86,48,48,7,9,6,7,0.5,0.5
2026-04-15T1300,1868A,109.0983,21.466,北海市,新市环保局,颗粒物(PM10),62,66,41,28,27,80,80,48,48,8,10,3,4,0.8,0.8
2026-04-15T1300,1869A,109.1775,21.5232,北海市,北海工业园,颗粒物(PM10),63,67,50,30,27,85,85,42,42,7,13,6,8,0.9,0.7
2026-04-15T1300,3400A,109.1844,21.4396,北海市,龙潭自来水厂,,48,43,46,33,24,80,80,38,38,6,8,8,8,0.8,0.7
2026-04-15T1300,1001A,116.3611,39.8786,北京市,万寿西宫,细颗粒物(PM2.5),131,154,122,94,61,126,126,51,51,33,49,8,6,0.8,0.9
2026-04-15T1300,1003A,116.4174,39.9289,北京市,东四,细颗粒物(PM2.5),131,142,117,94,62,141,141,57,57,33,50,6,5,0.8,0.8
2026-04-15T1300,1004A,116.4073,39.8858,北京市,天坛,细颗粒物(PM2.5),122,130,100,84,54,123,123,47,47,33,42,8,6,0.9,0.9
2026-04-15T1300,1005A,116.4622,39.9364,北京市,农展馆,细颗粒物(PM2.5),128,139,108,90,57,139,139,50,50,25,45,7,6,1.0,1
2026-04-15T1300,1006A,116.3399,39.9293,北京市,官园,细颗粒物(PM2.5),135,145,117,98,62,119,119,50,50,35,44,7,5,0.8,0.8
2026-04-15T1300,1007A,116.2879,39.9613,北京市,海淀万柳,细颗粒物(PM2.5),138,151,108,101,61,111,111,38,38,42,50,10,6,1.0,0.8
2026-04-15T1300,1008A,116.6635,40.1349,北京市,顺义新城,细颗粒物(PM2.5),140,133,104,104,61,146,146,63,63,20,29,14,7,1.0,0.8
2026-04-15T1300,1009A,116.6275,40.327,北京市,怀柔镇,细颗粒物(PM2.5),130,138,90,93,56,134,134,59,59,20,15,12,6,1.2,0.9
2026-04-15T1300,1010A,116.2295,40.217,北京市,昌平镇,细颗粒物(PM2.5),130,142,92,92,57,127,127,69,69,34,24,9,5,1.0,0.9
2026-04-15T1300,1011A,116.3968,39.982,北京市,奥体中心,细颗粒物(PM2.5),130,142,110,92,56,113,113,43,43,34,49,8,6,1.0,0.9
2026-04-15T1300,3418A,116.8336,40.4095,北京市,密云新城,细颗粒物(PM2.5),142,NA,100,106,59,139,139,54,54,15,23,11,5,1.1,0.8
2026-04-15T1300,3671A,116.0879,39.9725,北京市,门头沟三家店,细颗粒物(PM2.5),134,149,115,97,62,117,117,54,54,37,39,7,4,1.0,0.7
2026-04-15T1300,3672A,116.1507,39.8246,北京市,丰台云岗,细颗粒物(PM2.5),139,155,124,102,62,124,124,55,55,41,48,8,5,1.1,0.9
2026-04-15T1300,3674A,115.9578,39.7602,北京市,房山燕山,细颗粒物(PM2.5),135,152,121,98,65,137,137,66,66,27,32,7,6,0.9,0.9
2026-04-15T1300,3675A,116.4669,39.7734,北京市,大兴旧宫,细颗粒物(PM2.5),122,135,113,84,58,142,142,51,51,22,44,5,6,0.9,1
2026-04-15T1300,3694A,115.9859,40.4562,北京市,延庆石河营,细颗粒物(PM2.5),114,118,88,75,61,138,138,78,78,14,20,5,2,0.8,0.7
2026-04-15T1300,3695A,116.6151,40.3052,北京市,怀柔新城,细颗粒物(PM2.5),132,138,87,95,54,124,124,58,58,21,14,10,5,1.1,0.9
2026-04-15T1300,3696A,116.2542,39.8764,北京市,丰台小屯,细颗粒物(PM2.5),131,140,117,94,64,116,116,48,48,37,57,9,5,1.0,0.9
2026-04-15T1300,3697A,116.8399,40.3843,北京市,密云镇,细颗粒物(PM2.5),137,147,100,100,56,134,134,49,49,16,29,11,6,1.1,0.8
2026-04-15T1300,4057A,115.9423,40.4431,北京市,延庆百泉,细颗粒物(PM2.5),110,125,96,70,55,130,130,80,80,17,21,5,2,0.8,0.7
2026-04-15T1300,4058A,116.6598,39.9164,北京市,通州新华,细颗粒物(PM2.5),124,136,122,86,62,134,134,56,56,24,51,9,6,0.9,1
2026-04-15T1300,4182A,116.1942,39.9158,北京市,石景山八角,细颗粒物(PM2.5),133,148,121,96,59,110,110,45,45,42,57,10,4,0.9,0.8
2026-04-15T1300,4194A,117.078628,40.151726,北京市,平谷新城,细颗粒物(PM2.5),119,117,96,80,54,138,138,66,66,18,27,11,6,1.1,0.9
2026-04-15T1300,1761A,123.8274146,41.31234549,本溪市,大峪,,48,43,122,33,85,117,117,79,79,13,21,8,9,0.8,1
2026-04-15T1300,1763A,123.7169,41.3094,本溪市,彩屯,,48,48,135,31,98,126,126,76,76,14,27,16,14,1.2,1.1
2026-04-15T1300,1764A,123.7672166,41.28649327,本溪市,东明,细颗粒物(PM2.5),84,71,101,52,103,115,115,72,72,24,29,19,14,1.5,0.9
2026-04-15T1300,1765A,123.799345,41.266614,本溪市,新立屯,细颗粒物(PM2.5),92,92,98,56,92,117,117,65,65,15,26,10,12,1.0,1.2
2026-04-15T1300,1766A,123.829144,41.336777,本溪市,威宁,颗粒物(PM10),58,61,129,27,90,110,110,68,68,12,27,8,9,0.6,0.9
2026-04-15T1300,2587A,105.287,27.3133,毕节市,八中,颗粒物(PM10),95,113,26,32,11,63,63,58,48,13,7,12,11,0.6,0.5
2026-04-15T1300,2588A,105.3079,27.2987,毕节市,师专,,47,47,22,25,11,71,71,58,52,8,5,11,9,0.6,0.5
2026-04-15T1300,4263A,105.3688,27.3598,毕节市,工业大道,,50,50,19,18,7,83,83,62,56,7,5,10,10,/,/
2026-04-15T1300,1629A,117.9961,37.3604,滨州市,第二水厂,细颗粒物(PM2.5),116,100,94,77,68,182,182,103,103,13,23,12,12,0.8,0.6
2026-04-15T1300,1630A,117.9789,37.3931,滨州市,北中新校,细颗粒物(PM2.5),96,83,90,58,63,186,186,101,101,12,29,16,18,0.6,0.6
2026-04-15T1300,3514A,117.9379,37.3959,滨州市,中海酒店,NA,NA,85,90,56,61,198,198,97,97,16,28,13,14,NA,0.5
2026-04-15T1300,3515A,117.9381509,37.35547456,滨州市,开发区一中,细颗粒物(PM2.5),105,90,98,65,72,182,182,106,106,16,25,13,13,0.9,0.8
2026-04-15T1300,3516A,118.0914,37.6938,滨州市,金海六路,细颗粒物(PM2.5),109,76,84,69,68,205,205,124,124,13,24,16,14,0.5,0.4
2026-04-15T1300,4028A,117.9955,37.3752,滨州市,滨州市西街道办事处,细颗粒物(PM2.5),106,92,91,66,62,181,181,100,100,13,20,9,12,0.5,0.4
2026-04-15T1300,2311A,115.8071,33.8399,亳州市,污水处理厂,,43,35,43,13,23,137,137,69,69,8,21,8,7,0.2,0
2026-04-15T1300,2312A,115.7789,33.8519,亳州市,三国揽胜宫,,40,40,42,11,22,128,128,75,75,7,14,9,7,0.0,0.1
2026-04-15T1300,3332A,115.7631,33.803,亳州市,亳州学院,,42,34,47,14,22,134,134,79,79,4,11,10,8,0.2,0.2
2026-04-15T1300,2693A,82.0482,44.8553,博尔塔拉蒙古自治州,市党校,颗粒物(PM10),92,108,340,14,45,86,86,67,60,2,3,3,2,0.2,0.3
2026-04-15T1300,2694A,82.0805,44.8966,博尔塔拉蒙古自治州,市环保局,颗粒物(PM10),91,107,283,16,45,80,80,63,54,9,9,2,2,0.2,0.2
2026-04-15T1300,1071A,116.8733,38.2922,沧州市,沧县城建局,颗粒物(PM10),62,66,95,37,61,136,136,74,74,12,35,6,7,0.4,0.6
2026-04-15T1300,1072A,116.8462,38.3189,沧州市,电视转播站,细颗粒物(PM2.5),60,59,100,40,68,139,139,83,83,11,29,9,10,0.2,0.5
2026-04-15T1300,1073A,116.8588,38.3161,沧州市,市环保局,颗粒物(PM10),60,63,105,29,59,138,138,78,78,9,27,7,8,0.4,0.7
2026-04-15T1300,3324A,116.8011,38.294,沧州市,河北水利电力学院,"颗粒物(PM10),细颗粒物(PM2.5)",56,58,90,38,62,128,128,85,85,10,28,7,8,0.2,0.6
2026-04-15T1300,2622A,97.1813,31.1289,昌都市,昌都监测站,,39,10,11,3,5,123,123,94,88,5,6,10,10,0.3,0.4
2026-04-15T1300,3719A,97.1707,31.1428,昌都市,昌都会议中心,,41,7,8,3,4,130,130,92,92,3,5,5,6,0.1,0.2
2026-04-15T1300,2692A,87.2722,44.0298,昌吉回族自治州,新区政务中心,,43,43,69,12,14,102,102,51,51,8,11,7,5,0.4,0.3
2026-04-15T1300,3613A,87.3069,44.0093,昌吉回族自治州,亚心广场,颗粒物(PM10),56,58,86,3,14,107,107,54,54,4,10,7,6,0.3,0.3
2026-04-15T1300,4164A,87.2057,43.9289,昌吉回族自治州,财政所,颗粒物(PM10),53,54,75,10,14,101,101,56,56,10,8,12,7,1.0,0.2
2026-04-15T1300,1120A,125.2874,43.9024,长春市,客车厂,,40,37,52,28,41,122,122,67,67,10,30,7,7,0.4,0.5
2026-04-15T1300,1121A,125.2943,43.8508,长春市,邮电学院,细颗粒物(PM2.5),52,50,57,36,43,126,126,80,80,6,24,7,7,0.4,0.4
2026-04-15T1300,1122A,125.3648,43.8745,长春市,劳动公园,,45,45,57,30,42,125,125,65,65,9,27,7,7,0.3,0.4
2026-04-15T1300,1123A,125.3233,43.8781,长春市,园林处,,48,42,55,33,41,127,127,66,66,10,24,7,7,0.3,0.4
2026-04-15T1300,1124A,125.4604,43.7904,长春市,净月潭,,38,33,44,23,35,119,119,81,81,8,15,6,6,0.3,0.4
2026-04-15T1300,1126A,125.38,43.8422,长春市,经开区环卫处,,43,43,55,27,39,122,122,65,65,9,28,6,6,0.4,0.4
2026-04-15T1300,1127A,125.234,43.7761,长春市,高新区管委会,,37,34,46,23,37,118,118,73,73,6,23,8,8,0.5,0.5
2026-04-15T1300,1128A,125.1695,43.83,长春市,岱山公园,,49,49,55,26,40,123,123,71,71,9,32,5,6,0.4,0.5
2026-04-15T1300,4281A,125.334645,43.916281,长春市,北亚泰大街1068号,,46,46,62,30,42,122,122,63,63,13,31,7,8,0.2,0.4
2026-04-15T1300,1335A,113.082,28.2421,长沙市,经开区环保局,,27,27,25,18,15,39,39,38,36,21,20,4,5,0.5,0.4
2026-04-15T1300,1336A,112.8873,28.2202,长沙市,高开区环保局,,30,26,24,21,17,50,50,44,44,13,13,6,6,0.5,0.4
2026-04-15T1300,1337A,113.0785,28.2012,长沙市,马坡岭,,32,32,26,22,19,46,46,32,32,15,18,5,5,0.7,0.7
2026-04-15T1300,1338A,112.9448,28.1894,长沙市,湖南师范大学,,33,33,24,19,16,66,66,49,49,11,11,6,6,0.6,0.6
2026-04-15T1300,1339A,113.0177,28.1322,长沙市,雨花区环保局,,33,33,22,19,16,52,52,47,47,12,12,4,4,0.6,0.6
2026-04-15T1300,1340A,112.9795,28.2593,长沙市,伍家岭,,36,30,25,25,19,56,56,38,38,13,16,4,4,0.3,0.3
2026-04-15T1300,1341A,113.002,28.1944,长沙市,火车新站,,33,33,23,23,18,54,54,48,46,16,13,5,5,0.4,0.4
2026-04-15T1300,1342A,112.9846,28.1177,长沙市,天心区环保局,,35,30,23,24,19,54,54,50,48,12,13,5,5,0.6,0.5
2026-04-15T1300,1343A,112.8906,28.1307,长沙市,湖南中医药大学,,26,22,23,18,16,56,56,41,41,16,17,5,5,0.6,0.5
2026-04-15T1300,1727A,113.1146,36.1547,长治市,清华站,细颗粒物(PM2.5),54,46,42,37,27,128,128,68,68,16,22,9,9,0.5,0.6
2026-04-15T1300,1730A,113.0887,36.2126,长治市,审计局,颗粒物(PM10),53,53,44,36,30,131,131,67,67,12,17,9,9,0.5,0.5
2026-04-15T1300,1731A,113.0845,36.1856,长治市,长治八中,"二氧化硫(SO2),颗粒物(PM10)",58,61,52,16,26,128,128,65,65,14,21,204,19,0.6,0.7
2026-04-15T1300,2845A,113.1561,36.1912,长治市,德盛苑,颗粒物(PM10),55,57,38,31,25,133,133,100,92,14,13,10,9,0.7,0.7
2026-04-15T1300,3568A,113.0603,36.0464,长治市,向阳小学,NA,NA,NA,65,NA,24,134,134,81,81,14,22,8,8,NA,0.7
2026-04-15T1300,3569A,112.8788,36.315,长治市,屯留一中,,45,45,49,29,31,141,141,66,66,10,24,11,12,0.7,0.7
2026-04-15T1300,4189A,113.113092,36.199482,长治市,英华南巷50号,颗粒物(PM10),58,61,50,33,30,132,132,74,74,10,14,9,8,0.8,1
2026-04-15T1300,4190A,113.23666,36.33435,长治市,学府街1号,,44,44,52,18,28,128,128,84,84,6,23,6,6,0.6,0.8
2026-04-15T1300,1854A,111.696,28.9725,常德市,市二中,,26,NA,27,18,19,63,63,32,32,5,15,8,9,0.7,0.8
2026-04-15T1300,3138A,111.7152,29.0288,常德市,武陵区永安,,21,19,25,14,17,66,66,42,42,5,9,6,6,0.6,0.7
2026-04-15T1300,3139A,111.6891,28.9881,常德市,鼎城区玉霞,,23,17,25,16,19,65,65,32,32,3,11,9,8,0.8,0.8
2026-04-15T1300,3140A,111.6651,29.0526,常德市,武陵区长庚,NA,NA,15,23,14,18,69,69,48,48,NA,9,NA,8,0.8,0.8
2026-04-15T1300,1196A,119.9524,31.7586,常州市,市监测站,颗粒物(PM10),58,60,81,27,35,130,130,60,60,26,31,11,9,1.0,0.9
2026-04-15T1300,1200A,119.9351,31.703,常州市,武进监测站,颗粒物(PM10),59,62,83,27,38,140,140,53,53,21,33,4,5,1.1,0.9
2026-04-15T1300,3002A,119.9701,31.813,常州市,行政中心,颗粒物(PM10),68,75,62,32,37,123,123,56,56,28,34,8,5,0.8,0.6
2026-04-15T1300,3003A,120.0434,31.7726,常州市,经开区,颗粒物(PM10),55,56,77,29,37,126,126,57,57,22,33,9,3,1.4,1
2026-04-15T1300,3010A,119.8919,31.7892,常州市,钟楼,,42,42,56,26,43,121,121,58,58,26,33,8,7,0.7,0.7
2026-04-15T1300,3429A,119.8595,31.706,常州市,武进经发区,,44,42,59,25,32,138,138,52,52,24,44,6,5,1.0,1
2026-04-15T1300,3430A,119.5812,31.7256,常州市,金坛城区,,35,33,48,20,35,109,109,63,63,9,20,7,8,0.7,0.8
2026-04-15T1300,4089A,119.9551,31.863,常州市,崇义南街5-H号,颗粒物(PM10),61,65,64,20,34,150,150,66,66,26,33,10,6,1.0,0.8
2026-04-15T1300,2220A,120.4318,41.588,朝阳市,西梁,颗粒物(PM10),56,58,57,26,41,124,124,62,62,14,27,11,11,0.7,0.6
2026-04-15T1300,2221A,120.452,41.565,朝阳市,河畔小区,颗粒物(PM10),54,55,44,33,37,127,127,66,66,12,22,8,8,0.7,0.6
2026-04-15T1300,2222A,120.4176,41.5648,朝阳市,八里堡,颗粒物(PM10),56,58,52,30,41,126,126,68,68,15,29,9,10,0.7,0.7
2026-04-15T1300,3026A,116.6179,23.6608,潮州市,市政府,NA,NA,60,44,31,28,99,99,38,38,13,20,4,12,NA,0.5
2026-04-15T1300,4036A,116.646,23.676,潮州市,金山,颗粒物(PM10),53,54,36,29,24,109,109,36,36,9,11,4,4,0.5,0.4
2026-04-15T1300,2473A,113.0116,25.8228,郴州市,市职中,,16,11,19,11,16,18,18,25,17,13,13,6,6,0.7,0.6
2026-04-15T1300,2475A,113.0381,25.8074,郴州市,市审计局,,14,14,19,9,15,29,29,43,35,8,9,3,2,/,/
2026-04-15T1300,2476A,113.0348,25.7757,郴州市,市环保局,,25,NA,24,17,15,19,19,31,21,15,15,7,6,0.6,0.5
2026-04-15T1300,4252A,113.0138,25.8011,郴州市,好美居路49号,,20,20,19,3,11,24,24,34,24,11,11,7,7,/,/
2026-04-15T1300,1431A,103.9727,30.7242,成都市,金泉两河,,38,NA,33,26,20,96,96,52,52,18,16,2,2,0.4,0.3
2026-04-15T1300,1432A,104.1423,30.6765,成都市,十里店,NA,NA,20,32,19,22,105,105,60,60,11,15,NA,4,0.4,0.5
2026-04-15T1300,1433A,104.0594,30.5765,成都市,三瓦窑,,33,23,32,23,24,101,101,56,50,5,12,2,2,0.5,0.5
2026-04-15T1300,1434A,104.1122,30.6306,成都市,沙河铺,,44,44,41,26,22,74,74,49,40,26,19,2,2,0.5,0.4
2026-04-15T1300,2880A,104.0219,30.6561,成都市,大石西路,,46,34,38,32,23,78,78,51,46,25,18,4,4,0.6,0.5
2026-04-15T1300,3136A,104.2724,30.559,成都市,龙泉驿区区政府,,28,22,24,18,19,88,88,63,63,6,10,6,6,0.4,0.4
2026-04-15T1300,3357A,104.0028,30.6891,成都市,金博路,,40,NA,26,28,21,90,90,52,52,22,20,6,6,0.7,0.6
2026-04-15T1300,3359A,104.056,30.5228,成都市,华阳,,33,27,32,18,21,105,105,57,54,12,17,4,4,0.3,0.4
2026-04-15T1300,3488A,104.387954,30.746684,成都市,青石路225号,,32,24,33,19,22,101,101,53,53,6,15,7,6,0.5,0.5
2026-04-15T1300,3489A,104.0788,30.4054,成都市,科学城,,30,18,29,13,18,94,94,59,56,4,10,7,7,0.3,0.3
2026-04-15T1300,4011A,103.8505,30.6946,成都市,光华大道三段,,42,30,36,29,20,97,97,56,54,22,17,4,3,0.4,0.3
2026-04-15T1300,4144A,104.3257,30.6406,成都市,八角井街185号,,29,27,36,12,18,90,90,51,51,6,13,3,4,0.4,0.4
2026-04-15T1300,4224A,104.2433276,30.53529463,成都市,鲸龙路1057号,,31,23,36,14,20,97,97,62,62,5,13,5,5,0.5,0.6
2026-04-15T1300,1062A,117.9531,40.908,承德市,铁路,NA,NA,83,90,55,45,118,118,42,42,15,27,NA,7,0.8,1
2026-04-15T1300,1063A,117.9397,40.9763,承德市,中国银行,颗粒物(PM10),81,93,82,48,44,114,114,49,49,17,23,8,6,0.9,1
2026-04-15T1300,4073A,117.9462,40.95,承德市,杏林街1号,细颗粒物(PM2.5),102,96,85,62,51,118,118,50,50,14,24,7,7,0.8,1
2026-04-15T1300,4274A,117.7994,40.9605,承德市,滨河大街98号,细颗粒物(PM2.5),132,129,79,95,49,117,117,48,48,36,26,59,15,3.6,1.3
2026-04-15T1300,2314A,117.4698,30.6617,池州市,池州学院,,41,30,23,19,16,129,129,69,69,19,27,7,4,0.9,0.8
2026-04-15T1300,3237A,117.4918,30.6617,池州市,展览馆,,42,40,24,25,15,132,132,73,73,16,22,6,3,0.6,0.6
2026-04-15T1300,3333A,117.5626,30.695,池州市,第八中学,,36,35,21,20,13,114,114,62,62,20,26,6,4,0.7,0.7
2026-04-15T1300,3334A,117.5037,30.6242,池州市,第十二中学,,40,40,23,25,15,120,120,63,63,20,28,5,3,0.8,0.8
2026-04-15T1300,1744A,118.9229,42.2816,赤峰市,松山一中,颗粒物(PM10),66,72,61,25,50,126,126,50,50,16,33,7,14,0.6,1
2026-04-15T1300,1745A,118.9588,42.2733,赤峰市,哈达街,颗粒物(PM10),62,66,65,20,49,129,129,61,61,14,38,12,33,0.6,1.1
2026-04-15T1300,1746A,118.8792,42.2551,赤峰市,天义路,颗粒物(PM10),52,52,40,16,40,123,123,52,52,11,30,5,10,0.2,0.6
2026-04-15T1300,3058A,119.2656,42.0356,赤峰市,银河街,细颗粒物(PM2.5),108,111,77,68,58,121,121,50,50,21,25,NA,17,1.3,0.9
2026-04-15T1300,3286A,118.9359,42.3146,赤峰市,桥北物流园区,,47,47,56,21,51,121,121,52,52,5,32,3,10,0.6,1.1
2026-04-15T1300,2521A,107.3473,22.4137,崇左市,市环保局江州分局,细颗粒物(PM2.5),70,63,95,45,74,90,90,75,68,7,11,2,3,0.8,1
2026-04-15T1300,4256A,107.375,22.3736,崇左市,石景林东路7号,细颗粒物(PM2.5),88,60,83,54,70,103,103,87,76,10,12,3,4,0.9,1
2026-04-15T1300,3207A,118.31131,32.3033,滁州市,市政府原办公楼,臭氧1小时(O3_1h),77,62,41,48,36,181,181,103,103,16,16,10,6,0.5,0.5
2026-04-15T1300,3331A,118.3268,32.2633,滁州市,图书馆,臭氧1小时(O3_1h),78,75,51,34,27,182,182,103,103,18,16,14,11,0.5,0.4
2026-04-15T1300,4101A,118.3196,32.3335,滁州市,银山路666号,颗粒物(PM10),69,76,49,43,28,171,171,101,101,15,17,11,7,0.6,0.5
2026-04-15T1300,4102A,118.3426,32.2979,滁州市,黄山路555号,臭氧1小时(O3_1h),87,77,65,44,32,189,189,106,106,14,20,11,7,0.6,0.6
2026-04-15T1300,2606A,101.5379,25.0492,楚雄彝族自治州,市经济开发区,细颗粒物(PM2.5),86,91,82,53,46,153,153,106,102,8,11,5,5,0.7,0.5
2026-04-15T1300,4153A,101.5536,25.0343,楚雄彝族自治州,团结路562号,颗粒物(PM10),80,92,74,46,46,161,161,111,101,6,10,4,5,0.5,0.4
2026-04-15T1300,2549A,107.5087,31.2186,达州市,市环境监测站,,24,24,22,8,6,25,25,11,11,17,21,7,6,0.2,0.3
2026-04-15T1300,2550A,107.4988,31.2132,达州市,凤凰小区,,24,24,21,7,7,31,31,14,14,15,21,5,5,0.2,0.3
2026-04-15T1300,2551A,107.5081,31.1987,达州市,达县机关宾馆,,27,27,24,9,8,29,29,14,14,17,24,5,4,0.3,0.4
2026-04-15T1300,2552A,107.4644,31.2124,达州市,市政中心,,37,37,27,9,6,26,26,12,12,22,25,6,5,0.5,0.4
2026-04-15T1300,2614A,100.2168,25.5818,大理白族自治州,大理市环境监测站,细颗粒物(PM2.5),76,76,69,48,46,121,121,114,114,12,12,5,5,0.4,0.3
2026-04-15T1300,2615A,100.1542,25.7055,大理白族自治州,大理古城,细颗粒物(PM2.5),68,70,62,44,38,134,134,132,127,6,6,3,3,0.5,0.3
2026-04-15T1300,1109A,121.6119,38.974,大连市,甘井子,细颗粒物(PM2.5),90,87,98,55,55,144,144,94,94,28,29,11,12,0.7,0.5
2026-04-15T1300,1110A,121.565,38.9509,大连市,周水子,细颗粒物(PM2.5),78,78,98,49,61,133,133,87,87,25,38,8,8,0.7,0.8
2026-04-15T1300,1111A,121.5637,38.8849,大连市,星海三站,颗粒物(PM10),66,72,69,41,47,144,144,102,102,18,24,8,7,0.6,0.6
2026-04-15T1300,1112A,121.6301,38.9117,大连市,青泥洼桥,细颗粒物(PM2.5),80,69,89,50,57,146,146,99,99,11,27,6,8,0.8,0.8
2026-04-15T1300,1113A,121.6248,38.8643,大连市,傅家庄,细颗粒物(PM2.5),107,89,76,67,50,152,152,101,101,NA,19,10,9,0.8,0.7
2026-04-15T1300,1114A,121.5117,38.8636,大连市,七贤岭,NA,NA,56,68,46,43,137,137,111,111,13,19,8,9,NA,0.6
2026-04-15T1300,1116A,121.7507,39.1339,大连市,金州,细颗粒物(PM2.5),110,101,102,70,61,139,139,98,98,22,24,6,6,0.8,0.7
2026-04-15T1300,1117A,121.7811,39.0495,大连市,开发区,细颗粒物(PM2.5),100,81,93,60,56,124,124,NA,NA,26,32,9,13,0.7,0.7
2026-04-15T1300,1118A,121.9762,39.0631,大连市,双D港,细颗粒物(PM2.5),92,59,82,56,58,140,140,108,108,14,23,6,8,0.6,0.7
2026-04-15T1300,4082A,121.2548,38.8188,大连市,旅顺,细颗粒物(PM2.5),88,74,91,54,63,140,140,90,90,10,20,8,10,0.6,0.6
2026-04-15T1300,1789A,124.8085,46.0381,大庆市,大同区,颗粒物(PM10),63,68,62,27,40,124,124,97,97,12,28,4,5,0.4,0.5
2026-04-15T1300,1790A,125.1166,46.5255,大庆市,龙凤区,,43,43,53,20,31,113,113,84,84,11,22,5,6,0.2,0.2
2026-04-15T1300,1791A,124.8894,46.4007,大庆市,红岗区,,37,34,47,20,34,116,116,92,92,3,10,4,9,0.1,0.2
2026-04-15T1300,1792A,125.1391,46.578,大庆市,萨尔图区,,50,50,51,24,30,118,118,90,90,10,15,8,8,0.5,0.5
2026-04-15T1300,1793A,124.9026,46.6217,大庆市,让胡路区,,41,41,64,19,43,108,108,83,83,6,26,6,8,0.4,0.6
2026-04-15T1300,3481A,125.127,46.6277,大庆市,萨区政府监测点,,39,39,48,22,26,116,116,82,82,4,11,9,9,0.3,0.4
2026-04-15T1300,1723A,113.2926,40.0759,大同市,云冈宾馆,颗粒物(PM10),60,63,120,16,30,130,130,62,62,11,37,7,7,0.4,0.8
2026-04-15T1300,1724A,113.3437,40.0921,大同市,大同大学,颗粒物(PM10),76,86,119,16,24,142,142,77,77,10,38,5,5,0.4,0.9
2026-04-15T1300,1725A,113.2637,40.129,大同市,安家小村,NA,NA,NA,118,NA,27,131,131,52,52,13,34,13,14,NA,0.8
2026-04-15T1300,3282A,113.3399,40.0586,大同市,大同市卫生学校,颗粒物(PM10),65,70,114,11,21,145,145,74,74,8,36,7,8,0.3,0.8
2026-04-15T1300,3565A,113.1371,40.1122,大同市,云冈站,颗粒物(PM10),97,115,107,23,27,131,131,55,55,12,36,8,10,0.5,0.6
2026-04-15T1300,3566A,113.1186,40.2556,大同市,图书馆,颗粒物(PM10),91,107,93,23,22,120,120,63,63,18,16,10,6,0.4,0.4
2026-04-15T1300,3567A,113.5931,40.0459,大同市,区一中,NA,NA,101,102,8,28,147,147,102,102,8,12,NA,6,0.4,0.3
2026-04-15T1300,4199A,113.2798248,40.09972476,大同市,魏都大道141号,颗粒物(PM10),94,111,134,6,31,133,133,62,62,8,42,9,10,0.5,1.6
2026-04-15T1300,2269A,124.1068,50.4091,大兴安岭地区,科技局,颗粒物(PM10),60,64,68,33,46,82,82,80,79,50,11,9,8,0.4,0.3
2026-04-15T1300,3663A,124.117,50.4279,大兴安岭地区,红旗社区,颗粒物(PM10),55,56,60,36,45,119,119,100,100,8,12,9,16,0.2,0.3
2026-04-15T1300,1600A,124.33,40.0625,丹东市,江湾东路,细颗粒物(PM2.5),58,51,90,39,50,145,145,114,114,11,17,6,6,0.6,0.6
2026-04-15T1300,1601A,124.4242,40.1513,丹东市,临江后街,,40,39,97,24,52,126,126,104,104,8,16,4,9,0.4,0.7
2026-04-15T1300,1602A,124.3935,40.1461,丹东市,元宝山,,43,43,90,22,50,119,119,98,98,11,17,5,9,0.6,0.7
2026-04-15T1300,1603A,124.3634,40.1093,丹东市,民主桥,,46,43,91,32,50,134,134,108,108,12,17,8,8,0.3,0.5
2026-04-15T1300,3541A,109.5726195,19.51688767,儋州市,第一中学子站,NA,NA,39,53,34,38,110,110,79,79,4,8,NA,10,NA,0.5
2026-04-15T1300,3542A,109.5567,19.5187,儋州市,东坡学校子站,颗粒物(PM10),57,59,54,29,36,115,115,78,78,2,7,7,8,0.6,0.7
2026-04-15T1300,2616A,98.5611,24.4273,德宏傣族景颇族自治州,德宏州监测站,细颗粒物(PM2.5),108,85,84,68,74,116,116,54,54,18,24,8,8,0.5,0.5
2026-04-15T1300,3677A,98.5887,24.4366,德宏傣族景颇族自治州,芒市人民政府综合楼,"颗粒物(PM10),细颗粒物(PM2.5)",107,137,126,67,65,110,110,62,62,15,16,11,10,0.7,0.6
2026-04-15T1300,1901A,104.424,31.1209,德阳市,东山公园,,35,20,24,12,18,112,112,58,58,8,12,4,3,0.4,0.4
2026-04-15T1300,1902A,104.3827,31.1318,德阳市,西小区,,38,38,38,21,19,93,93,56,55,17,14,4,3,0.5,0.4
2026-04-15T1300,1904A,104.3553,31.1091,德阳市,耐火材料厂,,40,40,37,21,21,116,116,58,56,12,17,3,2,0.3,0.3
2026-04-15T1300,4145A,104.4144,31.1495,德阳市,市林业局,,39,26,30,12,18,122,122,57,57,4,12,4,4,0.5,0.5
2026-04-15T1300,1622A,116.3034,37.4675,德州市,儿童乐园,,45,36,106,12,60,144,144,95,95,6,19,8,11,0.5,0.7
2026-04-15T1300,1624A,116.2992,37.4449,德州市,监理站,NA,NA,36,98,10,52,145,145,99,99,10,24,10,12,NA,0.6
2026-04-15T1300,3066A,116.2722,37.438,德州市,九衢泉纯净水厂,,43,31,102,12,59,137,137,80,80,7,36,5,7,0.5,0.7
2026-04-15T1300,3371A,116.3693,37.44,德州市,开发区人民医院,,46,46,104,15,58,145,145,86,86,9,23,11,14,0.5,0.7
2026-04-15T1300,3511A,116.5687,37.3331,德州市,陵城艺术中心,颗粒物(PM10),55,56,92,28,70,139,139,74,74,10,19,14,13,0.6,0.7
2026-04-15T1300,4292A,116.352738,37.420875,德州市,新河东路,NA,NA,24,108,NA,50,140,140,87,87,NA,24,NA,12,0.7,0.8
2026-04-15T1300,2621A,99.7054,27.8319,迪庆藏族自治州,迪庆州站,,39,NA,27,12,15,122,122,120,114,12,11,8,8,0.6,0.5
2026-04-15T1300,3180A,99.7122,27.8129,迪庆藏族自治州,质量技术监督局,,40,12,24,7,14,126,126,129,121,14,10,6,6,0.5,0.5
2026-04-15T1300,4257A,104.6092,35.5962,定西市,将台街,,46,46,58,20,23,96,96,74,74,6,15,6,6,0.2,0.2
2026-04-15T1300,4309A,104.6159,35.5701,定西市,正龙路62号,,42,42,55,12,19,98,98,80,80,9,11,4,4,0.3,0.3
2026-04-15T1300,4071A,114.9883,38.5232,定州市,交通局,细颗粒物(PM2.5),115,140,144,76,63,152,152,83,83,22,36,11,10,0.9,0.9
2026-04-15T1300,4072A,115.0045,38.5136,定州市,第五中学,细颗粒物(PM2.5),116,130,149,77,62,152,152,77,77,22,37,8,7,0.9,0.8
2026-04-15T1300,1390A,113.7943,23.0132,东莞市,东城石井,,22,17,22,8,11,68,68,30,30,8,17,5,5,0.4,0.5
2026-04-15T1300,1391A,113.7384,22.9659,东莞市,南城西平,,19,16,20,8,10,58,58,33,33,5,14,4,5,0.5,0.5
2026-04-15T1300,3319A,113.7283,23.041,东莞市,万江金泰,,20,20,22,14,14,59,59,32,32,8,16,6,6,0.5,0.6
2026-04-15T1300,4129A,113.8666,23.1062,东莞市,裕兴路,,24,19,30,6,14,76,76,29,29,9,22,5,5,0.7,0.7
2026-04-15T1300,4130A,114.0076,22.9739,东莞市,教育路1号,,24,24,32,9,15,63,63,25,25,16,23,6,6,0.5,0.6
2026-04-15T1300,4131A,113.7981,22.8124,东莞市,长怡路1号,,21,21,25,8,10,55,55,32,32,8,16,6,6,0.6,0.7
2026-04-15T1300,1666A,118.6612,37.4313,东营市,市环保局,NA,NA,80,74,44,48,181,181,125,125,NA,18,NA,13,0.4,0.4
2026-04-15T1300,3036A,118.6903,37.4337,东营市,开发区管委会,细颗粒物(PM2.5),110,79,77,71,62,202,202,148,148,23,24,12,11,0.8,0.7
2026-04-15T1300,3365A,118.5721,37.5654,东营市,垦利区民丰路,细颗粒物(PM2.5),109,75,68,69,57,205,205,136,136,17,22,11,9,0.8,0.8
2026-04-15T1300,3498A,118.5063,37.8606,东营市,河口城区,细颗粒物(PM2.5),88,78,83,54,52,184,184,121,121,12,27,16,13,0.8,0.8
2026-04-15T1300,3646A,118.4979,37.4623,东营市,胜利站,臭氧1小时(O3_1h),95,94,89,57,57,196,196,118,118,14,19,14,11,0.7,0.7
2026-04-15T1300,3734A,118.5753,37.4405,东营市,理想之城,臭氧1小时(O3_1h),103,75,81,47,47,205,205,137,137,24,27,11,9,0.5,0.5
2026-04-15T1300,1591A,110.0024,39.8127,鄂尔多斯市,综合楼,NA,NA,107,62,NA,17,135,135,97,97,10,20,8,9,0.4,0.4
2026-04-15T1300,1592A,109.9485,39.8259,鄂尔多斯市,巴音孟克林场办事处,颗粒物(PM10),96,114,56,26,16,135,135,101,101,10,16,8,7,0.3,0.4
2026-04-15T1300,1593A,109.7734,39.5987,鄂尔多斯市,康泽苑,颗粒物(PM10),83,95,48,22,12,141,141,86,86,9,13,10,8,0.3,0.3
2026-04-15T1300,1594A,109.8121,39.5987,鄂尔多斯市,华泰汽车城,颗粒物(PM10),79,90,49,43,17,124,124,68,68,9,23,11,9,0.4,0.4
2026-04-15T1300,1595A,109.9734,39.7884,鄂尔多斯市,奥林花园,颗粒物(PM10),100,119,66,19,15,131,131,85,85,8,31,5,6,0.3,0.3
2026-04-15T1300,2436A,114.894,30.3989,鄂州市,市政府,,40,38,31,28,16,77,77,34,34,15,25,16,12,0.7,0.7
2026-04-15T1300,2437A,114.8986,30.3714,鄂州市,赵家坝,,32,32,31,18,12,63,63,34,34,10,13,10,8,0.5,0.5
2026-04-15T1300,3654A,114.8093,30.4091,鄂州市,精准医疗中心,NA,NA,NA,28,31,13,74,74,40,40,24,18,4,4,0.9,0.6
2026-04-15T1300,2454A,109.4978,30.2979,恩施土家族苗族自治州,湖北民院,,19,19,15,3,7,39,39,54,39,13,7,7,7,0.6,0.4
2026-04-15T1300,3549A,109.5061,30.3771,恩施土家族苗族自治州,龙凤新区,,11,11,8,3,6,32,32,39,35,7,5,7,7,0.4,0.4
2026-04-15T1300,2499A,108.3411,21.6159,防城港市,沙万,,48,48,54,19,27,54,54,62,60,15,14,8,7,0.5,0.5
2026-04-15T1300,2500A,108.3515,21.7733,防城港市,防城档案局,,50,50,54,24,35,77,77,42,42,2,8,6,7,0.6,0.7
2026-04-15T1300,2501A,108.3506,21.6414,防城港市,大海花园,,47,47,46,26,34,69,69,74,60,5,8,9,9,0.5,0.6
2026-04-15T1300,1371A,113.1293,23.0065,佛山市,湾梁,,23,22,23,16,14,67,67,30,30,9,16,/,/,/,/
2026-04-15T1300,1372A,113.1082,23.0477,佛山市,华材职中,,27,27,22,16,16,68,68,35,35,10,15,4,4,0.3,0.3
2026-04-15T1300,1373A,113.1439,23.045,佛山市,南海气象局,颗粒物(PM10),58,60,28,16,16,70,70,31,31,11,19,/,/,/,/
2026-04-15T1300,1374A,113.2879,22.8094,佛山市,顺德苏岗,,23,23,23,14,13,63,63,30,30,6,14,/,/,0.5,0.5
2026-04-15T1300,1376A,112.8384,22.8678,佛山市,高明孔堂,,19,19,22,11,11,60,60,36,36,6,8,/,/,/,/
2026-04-15T1300,1377A,112.8835,23.1584,佛山市,三水监测站,,22,22,25,14,17,58,58,27,27,16,26,4,4,0.3,0.4
2026-04-15T1300,1378A,112.8668,23.185,佛山市,三水云东海,,20,20,38,13,17,61,61,27,27,14,22,/,/,/,/
2026-04-15T1300,3625A,113.2568,22.7629,佛山市,容桂街道办,,28,22,18,19,14,55,55,32,32,13,17,/,/,/,/
2026-04-15T1300,1282A,119.2681,26.0506,福州市,师大,,29,24,36,18,21,91,91,76,76,20,18,6,5,0.6,0.5
2026-04-15T1300,1283A,119.2983,26.1028,福州市,五四北路,,24,20,37,14,25,76,76,68,68,24,20,4,4,0.4,0.3
2026-04-15T1300,1284A,119.2648,26.0769,福州市,杨桥西路,,28,23,35,15,25,87,87,75,75,19,18,6,5,/,/
2026-04-15T1300,3048A,119.5799,26.0937,福州市,九龙,,31,20,25,16,16,99,99,84,84,11,14,6,5,0.5,0.5
2026-04-15T1300,3526A,119.5188,25.9666,福州市,吴航,,31,22,25,16,16,98,98,84,84,11,15,5,5,0.6,0.6
2026-04-15T1300,4104A,119.3106,26.0648,福州市,路通桥巷6号,,27,25,33,16,22,85,85,73,73,17,16,/,/,/,/
2026-04-15T1300,1755A,123.7974,41.8494,抚顺市,望花区,细颗粒物(PM2.5),107,93,96,67,70,147,147,80,80,21,26,16,10,1.4,1
2026-04-15T1300,1756A,123.9161,41.8827,抚顺市,顺城区,细颗粒物(PM2.5),82,61,99,51,84,121,121,71,71,16,31,16,11,0.8,1
2026-04-15T1300,1757A,124.0437,41.8615,抚顺市,东洲区,细颗粒物(PM2.5),64,61,104,42,87,118,118,84,84,15,22,10,9,0.6,0.9
2026-04-15T1300,1758A,123.9246,41.8638,抚顺市,新抚区,NA,NA,NA,89,56,85,134,134,82,82,14,25,13,8,NA,1.1
2026-04-15T1300,1759A,124.0972,41.8961,抚顺市,大伙房水库,,50,49,81,35,72,131,131,96,96,8,16,7,9,0.6,0.8
2026-04-15T1300,1760A,123.708,41.8386,抚顺市,沈抚新城,细颗粒物(PM2.5),105,90,105,65,71,134,134,65,65,19,35,10,10,1.1,1.1
2026-04-15T1300,2377A,116.3544,27.9833,抚州市,市站,,26,24,24,17,18,83,83,74,74,12,10,7,7,1.1,1.1
2026-04-15T1300,2378A,116.3562,27.9631,抚州市,血防站,,28,28,26,16,16,82,82,70,70,10,9,8,9,0.8,0.8
2026-04-15T1300,2379A,116.3561,28.0007,抚州市,采茶剧团,,27,27,27,16,15,79,79,67,67,6,8,20,12,0.9,1
2026-04-15T1300,2380A,116.3854,27.9648,抚州市,医学分院,,28,26,31,16,14,87,87,72,72,6,6,7,8,1.0,1.2
2026-04-15T1300,2207A,121.6095,41.9978,阜新市,工业园区,细颗粒物(PM2.5),60,51,44,40,36,128,128,65,65,10,22,4,5,0.5,0.5
2026-04-15T1300,2208A,121.6567,42.0188,阜新市,长青街,细颗粒物(PM2.5),64,51,39,42,35,129,129,72,72,14,25,10,10,0.5,0.6
2026-04-15T1300,2209A,121.6672,42.07,阜新市,农业园区,细颗粒物(PM2.5),76,70,53,48,36,132,132,80,80,14,17,7,8,0.5,0.6
2026-04-15T1300,2211A,121.6343,42.0455,阜新市,玉龙新城,细颗粒物(PM2.5),58,44,42,39,30,132,132,71,71,12,30,9,7,0.5,0.7
2026-04-15T1300,2301A,115.8276,32.8929,阜阳市,市监测站,颗粒物(PM10),53,53,48,23,24,136,136,74,74,12,28,9,6,0.3,0.4
2026-04-15T1300,2303A,115.8551,32.8606,阜阳市,开发区,颗粒物(PM10),66,72,57,31,30,133,133,57,57,10,18,14,7,0.5,0.5
2026-04-15T1300,2875A,115.783962,32.889217,阜阳市,阜阳职业技术学院,,50,50,44,24,21,142,142,86,86,6,18,12,7,0.4,0.5
2026-04-15T1300,3468A,115.79,32.8614,阜阳市,市规划展馆,颗粒物(PM10),58,60,51,31,32,145,145,87,87,9,19,22,8,0.5,0.6
2026-04-15T1300,3469A,115.835101,32.918568,阜阳市,枣园社区,,44,35,45,20,28,139,139,81,81,8,26,8,7,0.2,0.4
2026-04-15T1300,2669A,102.9097,34.9841,甘南藏族自治州,州政府,,25,22,40,8,22,80,80,52,52,7,15,4,2,0.3,0.3
2026-04-15T1300,3380A,102.8915,34.9618,甘南藏族自治州,甘肃民族师范学院,,32,17,46,3,18,102,102,65,65,2,15,1,2,0.1,0.2
2026-04-15T1300,2570A,101.96,30.048,甘孜藏族自治州,水桥子,NA,NA,8,8,3,3,68,68,42,38,NA,12,6,6,0.2,0.2
2026-04-15T1300,3065A,101.9534,29.9976,甘孜藏族自治州,州环保局,,25,12,9,3,3,77,77,62,62,14,13,5,4,0.4,0.3
2026-04-15T1300,2363A,114.9368,25.8663,赣州市,地委,,31,31,22,9,11,27,27,32,28,7,7,1,1,1.1,1.1
2026-04-15T1300,2364A,114.946,25.8483,赣州市,气象台,,34,34,27,15,15,23,23,32,26,13,10,3,4,1.1,1
2026-04-15T1300,2365A,114.932,25.8332,赣州市,市图书馆,,31,31,22,14,15,37,37,44,41,12,9,4,4,1.1,1.1
2026-04-15T1300,2366A,114.8905,25.8472,赣州市,华坚鞋城,,29,29,22,12,12,28,28,35,31,14,9,6,6,1.1,1.1
2026-04-15T1300,3109A,115.0094,25.8614,赣州市,赣县区卫计委,,38,38,22,18,13,18,18,26,17,12,13,3,3,1.1,1
2026-04-15T1300,2684A,106.2753,36.0057,固原市,监测站,颗粒物(PM10),60,63,54,38,22,105,105,81,81,10,14,7,5,0.5,0.4
2026-04-15T1300,2685A,106.2384,36.0189,固原市,新区,颗粒物(PM10),65,71,57,35,23,99,99,72,72,9,12,6,5,0.6,0.5
2026-04-15T1300,2544A,106.6307,30.4577,广安市,市委,,30,23,21,9,18,96,96,50,50,6,12,6,6,0.4,0.5
2026-04-15T1300,2545A,106.6266,30.4662,广安市,友谊中学,,29,18,19,10,14,92,92,48,48,7,11,7,8,0.6,0.6
2026-04-15T1300,2547A,106.6386,30.4551,广安市,广电花园,,28,27,26,10,16,87,87,43,43,9,14,6,5,0.4,0.5
2026-04-15T1300,2902A,106.6347,30.4868,广安市,北辰小学,,30,27,22,15,16,95,95,51,51,9,9,19,11,0.5,0.4
2026-04-15T1300,2524A,105.8211,32.4444,广元市,老城,细颗粒物(PM2.5),58,NA,30,39,17,44,44,35,29,21,15,3,2,0.6,0.6
2026-04-15T1300,2526A,105.8629,32.429,广元市,监测站,,43,43,36,25,17,41,41,35,35,25,14,4,4,0.6,0.4
2026-04-15T1300,3617A,105.8047,32.4167,广元市,经开区,,49,49,34,31,19,27,27,32,26,29,17,14,4,0.8,0.4
2026-04-15T1300,1345A,113.2346,23.1423,广州市,广雅中学,,32,32,29,18,14,62,62,30,30,15,18,2,2,0.6,0.5
2026-04-15T1300,1346A,113.2611,23.105,广州市,市五中,,33,29,25,23,16,78,78,34,34,16,20,4,3,/,/
2026-04-15T1300,1348A,113.3477,23.0916,广州市,广东商学院,,29,26,26,20,16,71,71,29,29,11,28,5,4,0.6,0.6
2026-04-15T1300,1349A,113.4332,23.105,广州市,市八十六中,,20,20,18,11,10,31,31,22,22,24,31,6,6,/,/
2026-04-15T1300,1350A,113.3506,22.9488,广州市,番禺中学,,29,29,26,15,13,71,71,36,36,9,20,5,4,0.4,0.5
2026-04-15T1300,1351A,113.2147,23.3918,广州市,花都师范,,37,37,38,24,17,81,81,33,33,16,34,6,6,0.7,0.8
2026-04-15T1300,1352A,113.2599,23.1329,广州市,市监测站,,34,34,26,21,14,70,70,32,32,9,13,4,3,/,/
2026-04-15T1300,1353A,113.5618,23.3119,广州市,九龙镇镇龙,,30,30,31,16,16,47,47,16,16,21,32,6,6,0.4,0.5
2026-04-15T1300,1354A,113.2764,23.1544,广州市,麓湖,,31,31,26,18,15,70,70,34,34,12,19,4,4,0.6,0.5
2026-04-15T1300,2846A,113.3209,23.1323,广州市,体育西,,33,33,30,19,14,71,71,31,31,15,28,5,5,0.5,0.5
2026-04-15T1300,3298A,113.5718,23.5493,广州市,从化街口,,24,24,29,14,17,62,62,27,27,14,20,8,7,0.5,0.6
2026-04-15T1300,3299A,113.3463,23.369,广州市,白云竹料,,36,36,98,15,16,70,70,26,26,14,30,3,3,0.5,0.6
2026-04-15T1300,3300A,113.2981,23.2365,广州市,白云嘉禾,,40,40,33,20,16,71,71,29,29,18,32,5,5,/,/
2026-04-15T1300,3301A,113.4256,23.1716,广州市,黄埔科学城,,31,31,27,17,13,37,37,22,22,23,30,5,5,0.5,0.5
2026-04-15T1300,3302A,113.3942,23.0485,广州市,番禺大学城,,28,28,23,12,10,76,76,NA,NA,12,24,3,4,0.5,0.5
2026-04-15T1300,3303A,113.4923,22.8169,广州市,南沙黄阁,,24,24,22,16,12,53,53,33,33,6,14,5,5,/,/
2026-04-15T1300,3304A,113.534,22.7893,广州市,南沙街,,24,24,21,12,12,50,50,28,28,8,16,5,5,0.3,0.4
2026-04-15T1300,3443A,113.2905,23.5541,广州市,花都梯面,,36,36,32,19,16,66,66,27,27,18,25,8,8,/,/
2026-04-15T1300,3445A,113.786,23.7479,广州市,从化良口,,32,31,27,22,19,84,84,34,34,13,17,4,4,/,/
2026-04-15T1300,3446A,113.805,23.2614,广州市,增城荔城,,25,22,29,13,16,77,77,26,26,9,20,5,5,0.4,0.5
2026-04-15T1300,2506A,109.604387,23.066791,贵港市,江南子站,,44,44,55,28,30,75,75,48,48,5,14,8,12,0.6,0.7
2026-04-15T1300,2508A,109.5669,23.1065,贵港市,荷城子站,,45,39,49,31,33,70,70,43,43,9,16,9,15,0.7,0.8
2026-04-15T1300,3405A,109.5886,23.1172,贵港市,新世纪学校,细颗粒物(PM2.5),60,48,50,40,34,71,71,42,42,14,15,/,/,0.5,0.6
2026-04-15T1300,4260A,109.5933,23.095,贵港市,中山路155-3号,细颗粒物(PM2.5),68,56,57,44,33,72,72,43,43,7,14,/,/,0.7,0.9
2026-04-15T1300,1439A,106.6863,26.6035,贵阳市,马鞍山,,44,44,27,16,19,67,67,64,64,18,10,4,3,/,/
2026-04-15T1300,1441A,106.6241,26.6266,贵阳市,鉴湖路,NA,NA,NA,45,NA,23,84,84,70,69,14,10,6,5,0.7,0.7
2026-04-15T1300,1442A,106.7468,26.6344,贵阳市,燕子冲,,44,44,34,11,18,59,59,68,66,13,8,6,6,0.8,0.7
2026-04-15T1300,1443A,106.6556,26.4362,贵阳市,碧云窝,颗粒物(PM10),63,68,51,32,23,75,75,56,56,8,10,7,5,/,/
2026-04-15T1300,1445A,106.6963,26.6063,贵阳市,红边门,,44,44,35,23,20,55,55,66,62,20,10,7,9,/,/
2026-04-15T1300,1446A,106.7162383,26.56964667,贵阳市,新华路,,48,48,35,19,18,59,59,65,64,19,10,10,8,0.5,0.4
2026-04-15T1300,1447A,106.6742,26.542,贵阳市,太慈桥,,44,44,32,21,20,69,69,55,55,13,10,4,3,/,/
2026-04-15T1300,4230A,106.688212,26.56952,贵阳市,花果园大街66号,,41,41,22,20,20,65,65,64,63,15,9,2,2,/,/
2026-04-15T1300,4231A,106.687268,26.516892,贵阳市,漓江路57号,,46,46,27,32,22,61,61,49,49,10,10,5,5,1.1,0.9
2026-04-15T1300,1864A,110.3091,25.2705,桂林市,龙隐路小学,,13,10,16,3,8,40,40,60,46,12,8,3,3,0.6,0.6
2026-04-15T1300,1865A,110.2849361,25.22909545,桂林市,八中,,16,16,16,3,6,39,39,54,41,16,12,3,3,0.7,0.7
2026-04-15T1300,3531A,110.296,25.1254,桂林市,旅游学院,,19,19,26,13,11,47,47,58,46,12,8,6,5,0.8,0.7
2026-04-15T1300,4222A,110.1835,25.2444,桂林市,环湖路276号,,15,7,12,3,7,46,46,60,49,11,8,3,4,0.6,0.6
2026-04-15T1300,4301A,110.2803,25.2773,桂林市,信义路13号,,18,18,15,3,8,43,43,61,47,13,10,4,4,0.7,0.7
2026-04-15T1300,2674A,100.2262,34.4854,果洛藏族自治州,玛沁县大武镇,,39,28,39,13,17,124,124,105,105,2,3,16,22,0.3,0.5
2026-04-15T1300,1130A,126.5557,45.8109,哈尔滨市,松北商大,,40,39,48,27,36,125,125,71,71,6,20,8,9,0.3,0.4
2026-04-15T1300,1132A,126.6162,45.719,哈尔滨市,南岗学府路,颗粒物(PM10),53,53,49,23,25,127,127,78,78,10,19,6,6,0,0
2026-04-15T1300,1133A,126.6894,45.7733,哈尔滨市,太平宏伟公园,颗粒物(PM10),53,53,55,25,31,130,130,66,66,12,27,6,5,0.3,0.4
2026-04-15T1300,1134A,126.6361,45.7672,哈尔滨市,道外承德广场,颗粒物(PM10),66,72,73,21,31,112,112,57,57,15,34,7,22,0.7,0.1
2026-04-15T1300,1136A,126.644,45.7261,哈尔滨市,动力和平路,,44,44,49,17,26,119,119,70,70,14,22,4,4,0.4,0.5
2026-04-15T1300,1137A,126.5933,45.7479,哈尔滨市,道里建国路,颗粒物(PM10),62,66,48,23,29,118,118,70,70,20,29,5,7,0.4,0.5
2026-04-15T1300,1138A,126.6127,45.6119,哈尔滨市,平房东轻厂,细颗粒物(PM2.5),54,48,49,37,35,112,112,70,70,11,36,9,14,0.5,0.6
2026-04-15T1300,1139A,126.5875,45.9827,哈尔滨市,呼兰师专,NA,NA,NA,NA,NA,NA,NA,NA,NA,NA,NA,NA,NA,NA,NA,NA
2026-04-15T1300,1140A,126.6299,45.6799,哈尔滨市,省农科院,NA,NA,NA,62,59,35,94,94,59,59,22,25,6,7,NA,0.5
2026-04-15T1300,4282A,126.6769,45.7379,哈尔滨市,华山路1号,颗粒物(PM10),68,75,56,31,29,131,131,81,81,8,19,1,2,0.6,0.7
2026-04-15T1300,4283A,126.9717,45.5356,哈尔滨市,解放大街52号,颗粒物(PM10),87,101,74,49,32,142,142,90,90,14,22,12,10,0.6,0.6
2026-04-15T1300,2688A,93.5124,42.8176,哈密市,地区监测站,颗粒物(PM10),65,71,79,15,18,101,101,99,94,3,4,10,9,0.0,0.1
2026-04-15T1300,2689A,93.5014,42.8312,哈密市,哈密师范学校,颗粒物(PM10),70,78,87,7,15,103,103,100,96,4,5,7,8,0.0,0.1
2026-04-15T1300,2671A,100.9016,36.9464,海北藏族自治州,海晏县西海镇,,38,38,44,22,25,112,112,92,92,2,3,7,9,0.6,0.4
2026-04-15T1300,3867A,102.074,36.5056,海东市,平安区公安局北苑,NA,NA,35,49,27,27,68,68,60,49,24,14,NA,10,NA,0.6
2026-04-15T1300,4163A,102.0984,36.5119,海东市,滨河路,,43,32,48,30,32,55,55,30,24,26,32,5,8,1.0,0.7
2026-04-15T1300,1410A,110.3189,20.0596,海口市,海南大学,,28,28,28,18,15,82,82,59,59,4,6,6,5,0.4,0.3
2026-04-15T1300,1411A,110.2827,20.0051,海口市,秀英海南医院,,28,28,23,17,15,78,78,51,51,6,11,8,8,0.3,0.3
2026-04-15T1300,1412A,110.3391,19.9979,海口市,海南师范大学,,34,34,27,17,14,79,79,54,54,4,6,6,6,0.4,0.4
2026-04-15T1300,1413A,110.3303,20.0359,海口市,龙华路环保局宿舍,,40,40,31,22,16,82,82,60,60,6,7,/,/,0.4,0.6
2026-04-15T1300,3539A,110.5111,19.9737,海口市,桂林洋子站,,23,23,9,11,13,63,63,52,52,4,5,/,/,/,/
2026-04-15T1300,4134A,110.1952,20.0451,海口市,长滨二路9号,,38,38,30,22,18,86,86,57,57,3,9,/,/,/,/
2026-04-15T1300,2673A,100.6158,36.2985,海南藏族自治州,共和县恰卜恰镇,,40,40,48,22,24,113,113,100,100,2,8,12,10,0.3,0.3
2026-04-15T1300,2676A,97.373,37.376,海西蒙古族藏族自治州,德令哈市,颗粒物(PM10),58,60,64,31,26,149,149,136,134,3,4,16,15,0.3,0.3
2026-04-15T1300,1049A,114.492,36.5712,邯郸市,矿院,颗粒物(PM10),65,70,74,42,47,146,146,88,88,10,18,10,8,0.5,0.5
2026-04-15T1300,1050A,114.4839,36.6136,邯郸市,丛台公园,细颗粒物(PM2.5),68,63,73,44,53,146,146,93,93,12,16,13,13,0.5,0.5
2026-04-15T1300,3458A,114.7893,36.5592,邯郸市,香泉濮院小区,,48,48,69,28,42,126,126,76,76,7,14,1,2,0.3,0.4
2026-04-15T1300,3580A,114.1998,36.4439,邯郸市,峰峰矿区临水派出所,细颗粒物(PM2.5),104,93,68,64,48,170,170,107,107,15,17,10,9,0.7,0.6
2026-04-15T1300,4068A,114.5209,36.7697,邯郸市,建安街268号,细颗粒物(PM2.5),102,108,89,62,58,145,145,83,83,17,21,6,3,0.6,0.5
2026-04-15T1300,4069A,114.5488,36.6177,邯郸市,丛台东路558号,NA,NA,99,72,49,53,143,143,82,82,NA,21,7,4,0.5,0.6
2026-04-15T1300,2635A,107.0155,33.0707,汉中市,市监测站,,35,35,32,17,16,77,77,48,48,1,6,4,4,0.3,0.4
2026-04-15T1300,2636A,107.0083,33.114,汉中市,鑫源开发区,,34,34,29,15,16,77,77,41,41,7,11,5,5,0.3,0.3
2026-04-15T1300,2637A,107.0072,33.0323,汉中市,南郑大河坎水厂,,27,27,30,12,15,73,73,37,37,5,12,5,4,0.4,0.4
2026-04-15T1300,1223A,120.2073,30.2111,杭州市,滨江,,39,38,51,24,32,124,124,67,67,11,28,7,7,0.6,1.3
2026-04-15T1300,1224A,120.0625,30.2737,杭州市,西溪,,38,30,33,19,23,119,119,55,55,11,23,4,4,0.9,1.1
2026-04-15T1300,1226A,120.3417,30.315,杭州市,下沙,,50,50,82,28,39,106,106,65,65,9,26,8,7,0.7,1
2026-04-15T1300,1227A,120.1252,30.2465,杭州市,卧龙桥,,39,27,36,18,22,124,124,63,63,14,27,9,8,0.6,0.6
2026-04-15T1300,1228A,120.1902,30.2691,杭州市,浙江农大,,35,NA,33,24,34,112,112,65,65,20,38,8,7,0.6,0.9
2026-04-15T1300,1230A,120.1195,30.3121,杭州市,和睦小学,,39,39,78,16,34,120,120,62,62,8,32,6,6,0.7,0.9
2026-04-15T1300,1231A,120.3076,30.4146,杭州市,临平镇,,37,28,48,20,35,118,118,78,78,8,20,6,6,0.5,0.8
2026-04-15T1300,1232A,120.2753,30.1839,杭州市,城厢镇,,45,33,40,31,34,112,112,70,70,15,35,6,6,0.7,0.9
2026-04-15T1300,1233A,120.0883,30.1808,杭州市,云栖,,48,44,34,33,24,118,118,55,55,20,21,6,6,0.9,1
2026-04-15T1300,3557A,119.9463,30.0496,杭州市,镇二中,细颗粒物(PM2.5),58,52,36,39,26,99,99,48,48,22,32,5,4,1.0,0.9
2026-04-15T1300,3558A,119.7184,30.2367,杭州市,市府大楼,,34,NA,20,23,25,107,107,63,63,11,17,7,6,0.8,0.9
2026-04-15T1300,3656A,120.1554,30.2863,杭州市,消防大队,,37,37,61,20,31,111,111,62,62,20,36,5,4,0.8,1.1
2026-04-15T1300,1270A,117.1957,31.7845,合肥市,明珠广场,颗粒物(PM10),53,53,53,22,27,143,143,77,77,11,32,7,6,0.5,0.6
2026-04-15T1300,1271A,117.307,31.8765,合肥市,三里街,,41,41,58,12,28,119,119,66,66,14,30,7,6,0.5,0.6
2026-04-15T1300,1272A,117.2587,31.8703,合肥市,琥珀山庄,NA,NA,44,48,13,25,104,104,71,71,16,27,6,6,NA,0.5
2026-04-15T1300,1275A,117.2593,31.9376,合肥市,庐阳区,,46,46,55,13,26,128,128,76,76,11,24,7,6,0.5,0.6
2026-04-15T1300,1276A,117.345251,31.861615,合肥市,瑶海区,,40,36,63,12,26,125,125,72,72,10,32,6,6,0.5,0.6
2026-04-15T1300,1277A,117.3033,31.7967,合肥市,包河区,颗粒物(PM10),51,51,57,17,24,122,122,65,65,6,46,9,10,0.5,0.8
2026-04-15T1300,1278A,117.278,31.7392,合肥市,滨湖新区,颗粒物(PM10),55,56,59,25,24,130,130,68,68,5,37,6,6,0.5,0.6
2026-04-15T1300,1279A,117.1324,31.8395,合肥市,高新区,,46,46,52,13,20,138,138,85,85,5,18,6,5,0.5,0.5
2026-04-15T1300,3464A,117.3802,31.9148,合肥市,高教基地,,46,46,55,13,23,125,125,71,71,9,20,9,8,0.5,0.5
2026-04-15T1300,4098A,117.2518,31.8404,合肥市,中国科学技术大学,,46,46,49,12,23,142,142,87,87,7,16,7,6,0.6,0.6
2026-04-15T1300,3614A,79.9241,37.0878,和田地区,地区环保局,颗粒物(PM10),140,224,303,32,70,117,117,112,111,2,3,3,4,0.3,0.3
2026-04-15T1300,3615A,79.9132,37.1137,和田地区,市环保局,颗粒物(PM10),186,322,279,79,67,109,109,98,98,4,10,3,3,0.3,0.3
2026-04-15T1300,2517A,108.0496,24.6957,河池市,市环保站,颗粒物(PM10),63,68,44,31,22,31,31,28,28,7,5,5,5,0.8,0.7
2026-04-15T1300,4302A,108.0901,24.6945,河池市,上任中路54号,NA,NA,71,45,31,23,35,35,30,29,NA,8,7,7,NA,0.8
2026-04-15T1300,1697A,114.6962,23.7538,河源市,东埔,,28,21,32,19,22,70,70,28,28,7,15,6,6,0.5,0.5
2026-04-15T1300,1698A,114.6895,23.7232,河源市,老城,,32,32,41,16,22,71,71,28,28,6,16,6,7,0.4,0.5
2026-04-15T1300,3374A,115.5562,35.089,菏泽市,定陶老年大学,颗粒物(PM10),65,70,53,29,24,157,157,93,93,14,19,7,8,0.3,0.3
2026-04-15T1300,4114A,115.4239,35.2593,菏泽市,黄河路600号,颗粒物(PM10),63,67,63,28,22,150,150,74,74,9,23,5,4,0.4,0.4
2026-04-15T1300,4115A,115.5025,35.2727,菏泽市,菏泽市人社局,颗粒物(PM10),54,55,52,26,21,142,142,60,60,5,19,8,7,0.3,0.3
2026-04-15T1300,4184A,115.479691,35.244011,菏泽市,永昌路1号,臭氧1小时(O3_1h),60,51,54,28,21,168,168,89,89,12,22,5,4,0.4,0.4
2026-04-15T1300,4193A,115.471542,35.280012,菏泽市,长城路999号,"颗粒物(PM10),臭氧1小时(O3_1h)",53,53,51,29,21,162,162,76,76,8,21,8,6,0.2,0.2
2026-04-15T1300,2514A,111.5264,24.4178,贺州市,环保小区,,37,37,34,17,19,36,36,35,29,14,14,6,6,0.6,0.5
2026-04-15T1300,2515A,111.561,24.4074,贺州市,政协大楼,NA,NA,NA,32,NA,23,NA,NA,68,NA,NA,14,NA,9,NA,0.8
2026-04-15T1300,3534A,111.4744,24.455,贺州市,西湾,,28,28,37,16,18,26,26,30,24,15,13,8,8,0.7,0.7
2026-04-15T1300,2385A,114.17,35.9019,鹤壁市,市监测站,,49,45,61,34,43,119,119,67,67,10,16,10,7,0.5,0.6
2026-04-15T1300,2386A,114.2953,35.7512,鹤壁市,市交警支队,,37,37,53,19,26,102,102,54,54,11,24,10,9,0.4,0.5
2026-04-15T1300,2387A,114.2877,35.7302,鹤壁市,迎宾馆,颗粒物(PM10),58,61,60,23,29,102,102,53,53,3,15,9,7,0.4,0.5
2026-04-15T1300,3474A,114.2616,35.6824,鹤壁市,大新区,,33,32,50,23,36,102,102,54,54,13,28,8,9,0.6,0.6
2026-04-15T1300,3596A,114.1573,35.9607,鹤壁市,南山宾馆,细颗粒物(PM2.5),58,56,74,39,42,123,123,74,74,10,19,10,9,0.5,0.6
2026-04-15T1300,2244A,130.2537,47.3416,鹤岗市,哈啤分公司,,31,25,32,11,21,98,98,79,79,8,11,9,10,0.3,0.4
2026-04-15T1300,2245A,130.2683,47.3087,鹤岗市,斯达机电,,32,28,40,13,22,101,101,76,76,6,12,10,11,0.3,0.3
2026-04-15T1300,2246A,130.3114,47.3388,鹤岗市,东山纸板厂,,30,19,107,12,30,96,96,72,72,10,21,8,11,0.4,0.6
2026-04-15T1300,2263A,127.4832,50.2524,黑河市,交通局,,26,26,30,14,16,78,78,54,54,7,13,5,6,0.3,0.4
2026-04-15T1300,2264A,127.5146,50.2339,黑河市,环保局,,25,20,38,7,18,80,80,54,54,6,19,6,8,0.3,0.4
2026-04-15T1300,1074A,115.6839,37.754,衡水市,电机北厂,颗粒物(PM10),63,67,102,32,64,133,133,66,66,14,30,2,5,0.5,0.5
2026-04-15T1300,1075A,115.6303,37.7318,衡水市,市监测站,颗粒物(PM10),74,83,101,29,58,129,129,67,67,13,27,9,8,0.3,0.5
2026-04-15T1300,3188A,115.6684,37.7216,衡水市,市城管局,颗粒物(PM10),60,63,97,24,58,136,136,76,76,13,24,5,5,0.3,0.5
2026-04-15T1300,3459A,115.599,37.5491,衡水市,地表水厂,颗粒物(PM10),59,62,96,28,51,118,118,67,67,10,27,4,5,0.3,0.5
2026-04-15T1300,2457A,112.6209,26.9268,衡阳市,衡阳化工总厂,,18,15,19,9,10,55,55,48,48,9,9,4,5,0.6,0.6
2026-04-15T1300,2458A,112.621,26.8957,衡阳市,珠晖区环保局,,20,20,16,8,9,54,54,43,43,11,12,7,7,0.9,0.8
2026-04-15T1300,2459A,112.628,26.8654,衡阳市,市委党校,,19,10,14,3,9,59,59,52,48,5,5,9,9,0.8,0.8
2026-04-15T1300,2460A,112.6007,26.8977,衡阳市,市监测站,,22,22,18,9,12,52,52,49,47,13,10,6,7,0.8,0.7
2026-04-15T1300,2461A,112.5658,26.9013,衡阳市,真空机电公司,,27,27,17,15,12,49,49,50,50,14,11,6,6,0.9,0.8
2026-04-15T1300,3399A,112.6703,26.8817,衡阳市,师范学院,,24,24,17,6,10,64,64,50,50,10,10,6,8,0.7,0.7
2026-04-15T1300,3038A,103.3757,23.3679,红河哈尼族彝族自治州,州图书馆,细颗粒物(PM2.5),108,100,76,68,51,178,178,139,139,7,8,6,6,0.5,0.4
2026-04-15T1300,4154A,103.401,23.3561,红河哈尼族彝族自治州,蒙自市朝阳路,细颗粒物(PM2.5),111,86,61,72,49,176,176,137,137,NA,10,5,6,0.7,0.6
2026-04-15T1300,1090A,111.6506,40.7517,呼和浩特市,呼市一监,颗粒物(PM10),90,105,123,44,45,103,103,66,66,23,30,12,9,0.5,0.6
2026-04-15T1300,1094A,111.7516,40.8369,呼和浩特市,如意水处理厂,颗粒物(PM10),81,93,91,25,25,98,98,68,68,27,28,14,10,0.5,0.4
2026-04-15T1300,1095A,111.727798,40.806187,呼和浩特市,二十九中,颗粒物(PM10),78,88,115,20,35,89,89,64,64,23,27,15,11,0.5,0.5
2026-04-15T1300,1097A,111.717,40.7617,呼和浩特市,化肥厂生活区,细颗粒物(PM2.5),123,104,120,85,59,97,97,64,64,25,33,13,11,0.5,0.6
2026-04-15T1300,3699A,111.6519,40.8389,呼和浩特市,海东办,颗粒物(PM10),79,90,104,28,24,88,88,62,62,26,38,11,7,0.4,0.4
2026-04-15T1300,4275A,111.591512,40.827312,呼和浩特市,成吉思汗西街8号,颗粒物(PM10),88,102,102,33,23,78,78,59,59,38,41,12,7,0.5,0.4
2026-04-15T1300,4276A,111.6597,40.8077,呼和浩特市,公园东路75号,颗粒物(PM10),91,107,116,32,31,86,86,65,65,28,28,10,7,0.5,0.5
2026-04-15T1300,4277A,111.5427,40.7846,呼和浩特市,金海路35号,颗粒物(PM10),80,91,98,41,22,89,89,59,59,28,36,13,6,0.5,0.3
2026-04-15T1300,3061A,119.7511,49.1576,呼伦贝尔市,国华电力东,,39,39,30,17,16,101,101,87,87,9,9,5,5,0.3,0.3
2026-04-15T1300,4279A,119.7569,49.2222,呼伦贝尔市,伊敏大街东7号,,35,35,30,13,16,101,101,84,84,8,10,6,6,0.5,0.4
2026-04-15T1300,1250A,120.075,30.867,湖州市,城西水厂,,44,29,39,24,33,139,139,86,86,14,32,6,6,0.8,0.9
2026-04-15T1300,2873A,120.083,30.8929,湖州市,仁皇山新区,细颗粒物(PM2.5),58,41,41,39,37,134,134,81,81,17,24,6,6,1.0,0.9
2026-04-15T1300,2907A,120.1846,30.8592,湖州市,吴兴区站,,50,46,40,35,34,141,141,84,84,16,22,6,6,0.8,0.8
2026-04-15T1300,3562A,120.4146,30.8538,湖州市,南浔区站,细颗粒物(PM2.5),54,50,57,37,44,101,101,54,54,15,16,5,5,0.9,1
2026-04-15T1300,1607A,120.904878,40.721091,葫芦岛市,龙港区,细颗粒物(PM2.5),80,77,61,50,43,148,148,78,78,16,39,18,20,1.0,0.8
2026-04-15T1300,1608A,120.8382,40.7521,葫芦岛市,化工街,细颗粒物(PM2.5),72,63,76,46,56,131,131,70,70,18,51,11,58,0.6,0.8
2026-04-15T1300,1609A,120.8339,40.7078,葫芦岛市,新区,细颗粒物(PM2.5),106,NA,52,66,49,131,131,68,68,16,41,14,14,0.9,0.8
2026-04-15T1300,1610A,120.8697,40.7679,葫芦岛市,东城区,细颗粒物(PM2.5),60,59,54,40,48,139,139,68,68,14,47,12,22,0.7,0.8
2026-04-15T1300,2483A,109.9297,27.5383,怀化市,河西地税局,,20,NA,16,14,10,57,57,53,53,7,8,5,5,/,/
2026-04-15T1300,2484A,109.9783,27.5342,怀化市,市四医院,,21,21,19,11,9,57,57,54,54,6,7,3,3,0.3,0.4
2026-04-15T1300,2485A,109.9971,27.5579,怀化市,监测楼,,19,14,17,13,10,58,58,53,53,7,8,4,4,0.4,0.4
2026-04-15T1300,1210A,119.0566,33.5991,淮安市,钵池山,,41,34,53,14,31,129,129,75,75,6,26,8,8,0.5,0.6
2026-04-15T1300,1211A,119.0083,33.578,淮安市,北京南路,,39,29,51,16,37,123,123,66,66,4,21,8,11,0.4,0.5
2026-04-15T1300,1212A,118.9938,33.6083,淮安市,市监测站,,44,27,44,13,33,138,138,76,76,4,22,8,7,0.4,0.5
2026-04-15T1300,1213A,119.135,33.5038,淮安市,楚州区监测站,,41,24,50,11,34,130,130,69,69,3,20,7,7,0.2,0.2
2026-04-15T1300,3426A,118.8757,33.2897,淮安市,新华书店,,40,39,64,13,28,125,125,62,62,4,28,8,8,0.6,0.6
2026-04-15T1300,4092A,119.119691,33.550006,淮安市,枚皋中路89号,,42,20,44,10,26,134,134,69,69,4,20,7,8,0.4,0.5
2026-04-15T1300,4206A,119.028838,33.631911,淮安市,承德北路606号,,39,34,57,15,29,124,124,66,66,4,29,8,8,0.4,0.5
2026-04-15T1300,2282A,116.8005,33.9749,淮北市,监测站,颗粒物(PM10),54,55,54,18,26,123,123,90,90,8,19,7,9,0.4,0.5
2026-04-15T1300,2283A,116.8094,33.9008,淮北市,烈山区政府,,38,33,70,10,34,121,121,86,86,5,25,8,8,0.4,0.6
2026-04-15T1300,4017A,116.7926,33.9534,淮北市,市博物馆,,46,46,59,17,30,123,123,85,85,5,20,6,10,0.5,0.6
2026-04-15T1300,4100A,116.8322,33.9884,淮北市,杜集区第一实验学校,,41,41,74,6,27,116,116,86,86,5,21,6,8,0.4,0.4
2026-04-15T1300,2277A,116.8304,32.7726,淮南市,潘集区政府,,48,48,47,21,26,141,141,81,81,12,23,8,7,0.4,0.4
2026-04-15T1300,2279A,116.8569,32.5949,淮南市,谢家集区政府,颗粒物(PM10),53,53,43,30,28,145,145,86,86,12,18,9,10,0.4,0.3
2026-04-15T1300,2280A,116.8279,32.6333,淮南市,八公山区政府,颗粒物(PM10),53,54,45,24,28,145,145,86,86,8,11,10,9,0.4,0.3
2026-04-15T1300,2894A,117.0561,32.6536,淮南市,经济技术开发区消防队,颗粒物(PM10),59,62,52,32,29,137,137,82,82,12,21,10,8,0.4,0.4
2026-04-15T1300,3329A,117.011,32.5891,淮南市,山南新区,颗粒物(PM10),62,66,53,38,29,146,146,110,110,14,20,8,9,0.4,0.4
2026-04-15T1300,4209A,117.003137,32.644456,淮南市,国庆中路369号,颗粒物(PM10),55,57,60,24,28,127,127,78,78,9,20,10,7,0.4,0.3
2026-04-15T1300,2446A,114.9021,30.474,黄冈市,职工中心,,27,25,29,18,14,86,86,45,45,6,14,7,8,0.5,0.5
2026-04-15T1300,2929A,114.8858,30.4519,黄冈市,红卫路,,38,27,27,26,16,87,87,45,45,4,13,6,6,0.2,0.2
2026-04-15T1300,3398A,114.9134,30.4446,黄冈市,市林业局,,28,28,32,15,15,82,82,44,44,3,14,4,4,0.3,0.3
2026-04-15T1300,2672A,102.02,35.5101,黄南藏族自治州,同仁县隆务镇,,36,13,36,9,20,114,114,93,93,4,3,10,10,0.2,0.2
2026-04-15T1300,2295A,118.2905,29.6965,黄山市,延安路89号,,25,20,20,11,13,77,77,50,50,6,8,4,4,0.5,0.7
2026-04-15T1300,2297A,118.1369,30.2755,黄山市,黄山区政府5号楼,,24,21,25,3,11,76,76,55,55,5,7,3,3,0.4,0.6
2026-04-15T1300,4210A,118.335445,29.720283,黄山市,滨江东路7-2号,,24,24,32,8,12,72,72,49,49,4,7,/,/,/,/
2026-04-15T1300,2423A,115.0547,30.2332,黄石市,沈家营,颗粒物(PM10),54,55,36,11,13,57,57,19,NA,6,10,4,7,0.5,1.1
2026-04-15T1300,2426A,114.899,30.211,黄石市,铁山,,40,40,35,26,15,66,66,39,39,8,13,10,7,0.7,0.8
2026-04-15T1300,2427A,115.0259,30.2108,黄石市,团城山,,38,37,32,26,17,55,55,22,22,10,12,8,6,0.8,0.7
2026-04-15T1300,3149A,115.0174,30.1591,黄石市,笔架山北路,,38,35,46,26,16,72,72,39,39,6,12,9,8,0.7,0.8
2026-04-15T1300,4185A,115.078022,30.21118,黄石市,磁湖东路29号,,39,39,37,15,15,71,71,29,29,13,15,4,5,0.7,0.8
2026-04-15T1300,1392A,114.4181,23.0528,惠州市,河南岸金山湖子站,,24,23,28,16,16,74,74,32,32,7,14,5,6,0.5,0.6
2026-04-15T1300,1393A,114.4055,23.0824,惠州市,下埔横江三路子站,,23,23,32,13,16,73,73,32,32,6,13,5,5,0.5,0.6
2026-04-15T1300,1395A,114.4645,22.7832,惠州市,惠阳区承修路船湖子站,,21,21,27,12,13,58,58,28,28,6,11,5,5,0.3,0.4
2026-04-15T1300,1396A,114.5316,22.7423,惠州市,大亚湾管委会子站,,19,19,24,12,11,54,54,22,22,1,9,4,4,0.4,0.4
2026-04-15T1300,3314A,114.4334,22.8134,惠州市,惠阳秋长,,21,19,26,9,16,65,65,30,30,6,16,/,/,/,/
2026-04-15T1300,3452A,114.6521,22.7755,惠州市,大亚湾霞涌,,28,19,14,19,10,48,48,30,30,5,9,/,/,/,/
2026-04-15T1300,4300A,114.4089,23.1147,惠州市,文华一路1号,,24,22,28,14,17,76,76,32,32,7,16,/,/,/,/
2026-04-15T1300,2240A,130.9618,45.2926,鸡西市,环保局,NA,NA,NA,49,NA,18,NA,NA,105,NA,NA,8,NA,7,NA,0.2
2026-04-15T1300,2243A,130.9294,45.2959,鸡西市,第一中学,,32,32,36,19,20,100,100,71,71,5,11,5,6,0.1,0.2
2026-04-15T1300,3707A,131.0069,45.2988,鸡西市,欧美日汽修厂,,32,NA,58,19,23,100,100,71,71,3,11,3,2,0.4,0.5
2026-04-15T1300,2367A,114.9753,27.0803,吉安市,红声器材厂,,36,36,30,3,12,55,55,66,66,12,13,5,7,1.3,1.3
2026-04-15T1300,2369A,114.9903,27.1313,吉安市,市环境监测站,NA,NA,30,27,6,14,62,62,62,61,NA,13,11,11,/,/
2026-04-15T1300,2370A,115.009527,27.096792,吉安市,青原区法院,,32,32,27,6,12,58,58,65,65,11,13,7,8,0.9,0.9
2026-04-15T1300,1772A,126.54,43.8622,吉林市,哈达湾,颗粒物(PM10),53,54,101,34,85,112,112,83,83,7,25,6,15,0.3,0.6
2026-04-15T1300,1773A,126.5843,43.8358,吉林市,东局子,,40,NA,114,28,83,103,103,75,75,6,25,4,7,1.0,1.2
2026-04-15T1300,1774A,126.5051,43.8243,吉林市,电力学院,,48,40,110,33,85,116,116,82,82,9,26,5,12,0.7,1
2026-04-15T1300,1775A,126.6133,43.8971,吉林市,江北,NA,NA,46,113,27,78,114,114,65,65,NA,24,NA,13,0.6,0.8
2026-04-15T1300,1776A,126.5549,43.8304,吉林市,江南公园,,42,40,99,29,83,106,106,80,80,9,26,6,12,0.5,0.8
2026-04-15T1300,2868A,126.4737,43.953,吉林市,九站,细颗粒物(PM2.5),98,78,104,59,78,131,131,84,84,13,28,6,16,0.5,0.6
2026-04-15T1300,1299A,116.9866,36.6118,济南市,科干所,NA,NA,NA,56,NA,28,145,145,78,78,NA,25,10,7,0.4,0.3
2026-04-15T1300,1300A,116.9379,36.6652,济南市,农科所,颗粒物(PM10),65,71,62,30,28,139,139,66,66,22,37,8,6,0.2,0.3
2026-04-15T1300,1301A,117.1265,36.6736,济南市,开发区,颗粒物(PM10),65,71,58,41,22,163,163,97,97,19,24,6,6,0.4,0.4
2026-04-15T1300,1303A,117.0616,36.6865,济南市,省种子仓库,颗粒物(PM10),79,90,69,30,23,144,144,80,80,15,32,7,6,0.5,0.5
2026-04-15T1300,1304A,116.9495185,36.644937,济南市,机床二厂,颗粒物(PM10),70,78,73,35,30,144,144,76,76,24,37,8,6,0.5,0.5
2026-04-15T1300,1305A,117.0496,36.6629,济南市,市监测站,NA,NA,85,57,30,22,138,138,49,NA,NA,27,NA,4,0.7,0.7
2026-04-15T1300,1306A,116.7674,36.5458,济南市,长清党校,NA,NA,68,51,20,18,135,135,89,89,NA,15,6,4,0.5,0.5
2026-04-15T1300,1961A,117.5323,36.6865,济南市,东山小学,NA,NA,71,92,24,36,170,170,82,82,NA,30,5,5,0.4,0.4
2026-04-15T1300,3059A,117.7181,36.205,济南市,泰兴公司,臭氧1小时(O3_1h),64,48,64,21,29,171,171,78,78,10,42,10,12,0.4,0.7
2026-04-15T1300,3064A,117.6861,36.2172,济南市,莱芜战役纪念馆,臭氧1小时(O3_1h),70,53,71,24,31,176,176,87,87,9,33,8,11,0.6,1
2026-04-15T1300,3494A,117.1673,36.9782,济南市,济阳区政府,颗粒物(PM10),69,76,98,35,67,150,150,74,74,14,32,10,8,0.5,0.6
2026-04-15T1300,3495A,117.1168,36.6299,济南市,锦屏中学,颗粒物(PM10),69,76,48,34,23,148,148,98,98,20,17,3,3,0.2,0.2
2026-04-15T1300,4108A,117.7107,36.2385,济南市,山财大街5号,臭氧1小时(O3_1h),64,44,70,25,31,171,171,81,81,9,38,6,9,0.6,0.9
2026-04-15T1300,4109A,116.9744,36.6889,济南市,无影山路12号,颗粒物(PM10),56,58,58,34,25,136,136,68,68,21,45,7,6,0.6,0.7
2026-04-15T1300,1653A,116.6229,35.4288,济宁市,火炬城,颗粒物(PM10),59,62,49,32,24,155,155,82,82,11,16,13,9,0.6,0.6
2026-04-15T1300,3500A,116.5808,35.3703,济宁市,北湖一中,颗粒物(PM10),119,169,56,32,24,161,161,79,79,14,24,12,8,0.3,0.2
2026-04-15T1300,3501A,116.8251,35.5592,济宁市,服务中心,颗粒物(PM10),60,64,52,29,30,152,152,74,74,11,27,4,3,0.5,0.6
2026-04-15T1300,3678A,116.5907,35.4054,济宁市,市第七中学,NA,NA,83,59,29,23,176,176,87,87,13,23,10,6,NA,0.6
2026-04-15T1300,4111A,116.6075,35.4566,济宁市,任和路,"颗粒物(PM10),臭氧1小时(O3_1h)",67,73,66,33,26,173,173,83,83,10,20,11,8,0.5,0.4
2026-04-15T1300,4112A,116.5648,35.3921,济宁市,文体南路1号,颗粒物(PM10),65,71,70,28,21,164,164,84,84,11,25,11,7,0.6,0.5
2026-04-15T1300,4122A,112.6071,35.1015,济源市,市委党校,,39,39,81,17,34,114,114,63,63,9,21,6,8,0.2,0.4
2026-04-15T1300,4123A,112.596,35.0702,济源市,沁园中路1号,,37,37,62,18,33,117,117,62,62,6,21,4,4,0.4,0.5
2026-04-15T1300,2255A,130.2749,46.8028,佳木斯市,佳纺,,49,49,65,22,41,112,112,63,63,9,26,6,5,0.3,0.5
2026-04-15T1300,2257A,130.3258,46.7975,佳木斯市,环保局,,47,47,56,24,40,106,106,50,50,11,32,6,6,0.4,0.6
2026-04-15T1300,4285A,130.363,46.806,佳木斯市,顺和街,,39,39,48,27,38,106,106,64,64,11,29,4,4,0.2,0.3
2026-04-15T1300,4286A,130.3952,46.8268,佳木斯市,长安路196号,,35,30,49,14,36,110,110,72,72,10,25,6,6,0.3,0.5
2026-04-15T1300,1252A,120.7439,30.778,嘉兴市,清河小学,,42,22,42,16,42,132,132,49,49,11,26,7,7,0.5,0.8
2026-04-15T1300,1253A,120.7261,30.7477,嘉兴市,嘉兴学院,,40,NA,35,28,39,118,118,44,44,16,26,6,6,0.6,0.8
2026-04-15T1300,2872A,120.7845,30.7524,嘉兴市,南湖区残联,,43,NA,41,22,46,135,135,50,50,12,26,4,4,0.6,1
2026-04-15T1300,3407A,120.6915,30.7741,嘉兴市,秀洲住建,,42,NA,45,27,21,132,132,49,49,6,18,6,5,0.4,0.7
2026-04-15T1300,1945A,98.291,39.7705,嘉峪关市,气象局,NA,NA,39,58,NA,20,110,110,96,96,4,10,10,17,0.7,0.8
2026-04-15T1300,2884A,98.2672,39.7978,嘉峪关市,酒钢宾馆,,44,44,67,3,22,107,107,96,96,10,11,23,21,1.7,0.8
2026-04-15T1300,3248A,98.2644,39.7723,嘉峪关市,雄关区,,47,47,65,6,22,105,105,92,92,10,13,10,17,0.6,0.5
2026-04-15T1300,1383A,113.1063,22.6058,江门市,北街,,21,21,20,9,12,51,51,32,32,5,12,/,/,/,/
2026-04-15T1300,1384A,113.073,22.5835,江门市,西区,,17,NA,22,9,12,53,53,34,34,7,12,/,/,/,/
2026-04-15T1300,1385A,113.0218,22.531,江门市,圭峰西,,28,28,23,9,13,48,48,31,31,8,13,/,/,/,/
2026-04-15T1300,1386A,113.0826,22.5947,江门市,东湖,,18,18,21,7,12,52,52,34,34,6,10,6,6,0.3,0.4
2026-04-15T1300,3311A,113.1077,22.5647,江门市,江海富民,,29,29,32,6,12,53,53,32,32,4,12,/,/,0.2,0.3
2026-04-15T1300,3449A,113.0496,22.4669,江门市,新会银湖,,23,23,21,8,12,46,46,23,23,7,17,5,6,0.6,0.6
2026-04-15T1300,3335A,113.3137,35.2643,焦作市,马村街道办,,40,40,56,9,28,103,103,72,72,4,16,8,9,0.2,0.4
2026-04-15T1300,3336A,113.2464,35.2374,焦作市,焦作技师学院,,32,27,63,8,30,100,100,67,67,5,14,10,10,0.8,1
2026-04-15T1300,3477A,113.1656,35.2536,焦作市,中站许衡医院,,35,34,49,11,29,112,112,80,80,5,13,10,10,0.5,0.5
2026-04-15T1300,3981A,113.2456,35.18,焦作市,原李万街道办,,34,23,55,22,29,108,108,66,66,4,13,5,8,0.2,0.3
2026-04-15T1300,4264A,113.234,35.219,焦作市,新安路1731号,,36,26,59,18,30,113,113,74,74,12,23,10,11,0.6,0.8
2026-04-15T1300,4295A,113.2722,35.2121,焦作市,人民路3066号,,33,33,64,22,32,102,102,64,64,8,16,5,7,0.3,0.4
2026-04-15T1300,1708A,116.3701,23.5345,揭阳市,新兴,NA,NA,60,34,21,20,78,78,36,36,8,11,NA,6,0.5,0.6
2026-04-15T1300,1709A,116.3261,23.5442,揭阳市,西马,,37,37,37,16,21,72,72,33,33,7,16,4,5,0.5,0.5
2026-04-15T1300,1710A,116.361,23.5627,揭阳市,东兴,颗粒物(PM10),53,53,35,19,21,81,81,34,34,7,11,2,3,/,/
2026-04-15T1300,1711A,116.4151,23.5295,揭阳市,渔湖,颗粒物(PM10),58,60,33,26,20,101,101,45,45,11,16,5,4,/,/
2026-04-15T1300,3320A,116.4028,23.5699,揭阳市,曲溪,,33,32,38,23,21,90,90,38,38,7,11,9,9,0.5,0.5
2026-04-15T1300,1944A,102.1691,38.5166,金昌市,天庆家园,颗粒物(PM10),72,80,60,20,19,109,109,86,86,2,8,7,13,0.4,0.5
2026-04-15T1300,4022A,102.1648,38.5369,金昌市,金川区人防中心,颗粒物(PM10),72,80,59,25,20,107,107,86,86,3,9,5,7,0.3,0.3
2026-04-15T1300,4239A,102.193042,38.531887,金昌市,长春路96号,颗粒物(PM10),75,84,56,23,20,104,104,94,92,2,5,7,8,0.3,0.3
2026-04-15T1300,1262A,119.6478,29.0773,金华市,十五中,细颗粒物(PM2.5),54,51,48,37,38,96,96,64,64,19,25,3,3,0.7,0.7
2026-04-15T1300,1263A,119.6859,29.1032,金华市,监测站,,45,42,44,31,33,105,105,65,65,19,30,4,4,0.6,0.6
2026-04-15T1300,3659A,119.656,29.1132,金华市,气象局,细颗粒物(PM2.5),60,47,47,40,40,100,100,55,55,20,34,3,3,0.8,0.8
2026-04-15T1300,1767A,121.1114,41.0879,锦州市,南山,细颗粒物(PM2.5),74,62,54,47,55,141,141,69,69,16,33,11,10,0.5,0.7
2026-04-15T1300,1768A,121.060361,40.842794,锦州市,开发区,细颗粒物(PM2.5),126,89,72,88,67,143,143,73,73,20,41,16,16,1.1,1
2026-04-15T1300,1769A,121.1836,41.1118,锦州市,百股街道,细颗粒物(PM2.5),70,54,58,45,60,143,143,80,80,14,32,7,7,0.8,1
2026-04-15T1300,1770A,121.1176,41.1224,锦州市,天安街道,细颗粒物(PM2.5),82,53,60,51,55,132,132,66,66,19,33,7,8,0.8,0.8
2026-04-15T1300,1771A,121.1303,41.1385,锦州市,北湖公园,细颗粒物(PM2.5),84,54,57,52,53,136,136,74,74,15,26,9,9,0.5,0.6
2026-04-15T1300,2160A,112.8496,35.5051,晋城市,自来水公司,NA,NA,NA,56,NA,26,119,119,72,72,3,13,5,5,0.3,0.6
2026-04-15T1300,2162A,112.8509,35.4886,晋城市,市环保局,,42,42,60,8,32,116,116,78,78,2,14,6,7,0.3,0.4
2026-04-15T1300,3620A,112.8258,35.4804,晋城市,泽州一中,,42,42,55,12,28,121,121,83,83,5,16,3,4,0.5,0.7
2026-04-15T1300,4078A,112.8246,35.5152,晋城市,前书院路,,35,24,58,3,29,112,112,73,73,3,14,7,7,0.2,0.4
2026-04-15T1300,4079A,112.8864,35.4773,晋城市,祥云街666号,,36,18,53,3,33,113,113,71,71,3,19,7,8,0.3,0.4
2026-04-15T1300,2174A,112.6992,37.6984,晋中市,榆次区政府,颗粒物(PM10),65,70,114,38,62,143,143,80,80,10,25,12,6,0.7,0.8
2026-04-15T1300,2865A,112.7195,37.683,晋中市,榆次三中,颗粒物(PM10),72,80,117,29,61,149,149,88,88,8,20,11,5,0.5,0.7
2026-04-15T1300,4080A,112.7375,37.7215,晋中市,广安街188号,颗粒物(PM10),64,69,114,28,60,139,139,74,74,10,26,7,4,0.5,0.5
2026-04-15T1300,4200A,112.7478,37.6954,晋中市,迎宾街26号,颗粒物(PM10),70,78,111,33,59,150,150,85,85,10,20,10,5,0.4,0.6
2026-04-15T1300,2439A,112.2012,31.048,荆门市,竹园小学,,50,NA,60,35,29,94,94,46,46,10,20,14,5,0.2,0.2
2026-04-15T1300,2440A,112.1968,30.9892,荆门市,掇刀,细颗粒物(PM2.5),52,45,61,36,29,87,87,47,47,8,17,7,8,0.6,0.6
2026-04-15T1300,3012A,112.1849,31.0361,荆门市,西山林语,,47,47,55,30,25,91,91,48,48,9,13,5,6,0.4,0.4
2026-04-15T1300,3547A,112.1631,31.0134,荆门市,龙泉中学南校,,36,26,60,25,32,98,98,64,64,9,15,4,5,0.2,0.3
2026-04-15T1300,4124A,112.2213,31.0654,荆门市,新台西路6号,细颗粒物(PM2.5),60,NA,45,40,28,101,101,42,42,8,24,13,9,0.4,0.5
2026-04-15T1300,1844A,112.2493,30.3198,荆州市,市图书馆,,39,31,30,27,25,79,79,36,36,14,20,6,8,0.5,0.6
2026-04-15T1300,1845A,112.2009,30.3543,荆州市,市委党校,,40,40,34,27,22,70,70,32,32,14,21,8,8,0.7,0.7
2026-04-15T1300,3194A,112.2749,30.3124,荆州市,管委会,,46,NA,31,32,27,72,72,29,29,10,19,7,9,0.5,0.6
2026-04-15T1300,4268A,112.1722,30.3366,荆州市,学苑路85号,,46,39,24,32,21,82,82,42,42,12,13,2,3,0.7,0.6
2026-04-15T1300,2343A,117.2114,29.2931,景德镇市,老干部活动中心,,21,NA,17,12,19,65,65,41,41,2,7,4,6,0.7,0.8
2026-04-15T1300,2344A,117.1893,29.2789,景德镇市,兽医站,,36,36,27,8,13,63,63,40,40,6,12,3,4,0.7,0.7
2026-04-15T1300,2346A,117.246,29.2958,景德镇市,陶研所,,19,14,21,7,15,59,59,39,39,9,14,3,6,0.7,0.8
2026-04-15T1300,4289A,117.154766,29.256967,景德镇市,青少年活动中心,,19,19,21,10,17,51,51,36,36,9,13,15,13,/,/
2026-04-15T1300,1803A,115.9873,29.6816,九江市,十里,,33,19,35,10,22,103,103,64,64,14,26,10,8,0.7,0.8
2026-04-15T1300,1804A,115.9583,29.7047,九江市,茅山头,,35,19,33,11,21,110,110,62,62,9,27,3,4,0.6,0.7
2026-04-15T1300,1805A,115.9877,29.7295,九江市,西园,,35,29,39,12,22,109,109,66,66,18,45,5,6,0.6,0.7
2026-04-15T1300,1808A,115.9112,29.6038,九江市,综合工业园,,31,17,33,11,24,98,98,57,57,23,33,8,8,0.5,0.7
2026-04-15T1300,3190A,116.0254,29.6995,九江市,外国语学校,NA,NA,26,35,12,24,94,94,60,60,NA,29,9,9,0.7,0.9
2026-04-15T1300,4253A,116.010205,29.659402,九江市,莲花大道8号,,30,NA,38,14,22,96,96,63,63,10,15,7,5,0.6,0.8
2026-04-15T1300,4240A,98.495752,39.733935,酒泉市,玉门东路5号,颗粒物(PM10),51,51,58,10,20,99,99,90,90,4,6,6,7,0.2,0.2
2026-04-15T1300,4241A,98.5099,39.7506,酒泉市,北大街108号,颗粒物(PM10),51,51,54,7,20,94,94,84,84,3,6,8,9,0.1,0.2
2026-04-15T1300,2698A,76.0071,39.466,喀什地区,巡警大队,颗粒物(PM10),90,105,102,16,29,96,96,33,32,16,34,4,4,0.2,0.4
2026-04-15T1300,2699A,75.9756,39.4693,喀什地区,吾办,颗粒物(PM10),97,115,99,17,25,91,91,29,29,14,28,4,4,0.4,0.5
2026-04-15T1300,4027A,75.9485,39.4688,喀什地区,老干局,颗粒物(PM10),66,72,91,7,20,96,96,32,32,12,24,3,3,0.3,0.5
2026-04-15T1300,1824A,114.3389,34.778,开封市,肿瘤医院,颗粒物(PM10),55,57,44,33,30,150,150,84,84,10,16,8,6,0.6,0.5
2026-04-15T1300,1826A,114.2884,34.7966,开封市,世纪星幼儿园,,47,41,41,31,27,148,148,88,88,16,19,11,7,0.5,0.5
2026-04-15T1300,3147A,114.3434,34.8101,开封市,龙亭公园,颗粒物(PM10),52,52,39,21,25,151,151,89,89,13,18,11,8,0.7,0.6
2026-04-15T1300,3210A,114.3645,34.7955,开封市,汴京公园,颗粒物(PM10),51,51,50,30,27,159,159,92,92,11,17,8,5,0.4,0.4
2026-04-15T1300,3473A,114.2485,34.8306,开封市,技师学院,NA,NA,NA,30,21,21,144,144,85,85,NA,14,9,5,NA,0.4
2026-04-15T1300,3592A,114.4518,34.7503,开封市,祥符区生态环境局,,44,37,44,23,31,140,140,72,72,14,31,9,7,0.6,0.5
2026-04-15T1300,1951A,84.886,45.6029,克拉玛依市,长征新村,,40,40,54,13,10,94,94,91,87,2,3,6,6,0.3,0.3
2026-04-15T1300,1952A,84.8894,45.5827,克拉玛依市,南林小区,NA,NA,NA,49,NA,8,100,100,98,94,2,3,7,4,NA,0.2
2026-04-15T1300,1954A,84.896,44.3328,克拉玛依市,独山子区,颗粒物(PM10),90,105,122,12,15,88,88,79,79,15,7,8,5,0.3,0.3
2026-04-15T1300,1955A,85.6888,46.0909,克拉玛依市,乌尔禾区商贸楼,,31,19,48,3,10,99,99,72,69,6,10,3,3,0.4,0.4
2026-04-15T1300,3612A,85.1045,45.6895,克拉玛依市,白碱滩区新站,,34,32,65,3,10,106,106,102,100,1,2,6,6,0.2,0.2
2026-04-15T1300,2697A,76.1457,39.7143,克孜勒苏柯尔克孜自治州,市人民政府,,36,24,29,10,19,113,113,92,92,5,10,5,14,0.1,0.1
2026-04-15T1300,3665A,76.1654,39.7157,克孜勒苏柯尔克孜自治州,克州文化中心,,35,27,32,20,15,111,111,89,89,4,8,8,18,0.2,0.2
2026-04-15T1300,1450A,102.8203,24.889,昆明市,呈贡新区,细颗粒物(PM2.5),82,64,67,51,47,176,176,145,145,8,13,4,6,0.6,0.5
2026-04-15T1300,1452A,102.7253,25.0904,昆明市,龙泉镇,细颗粒物(PM2.5),76,77,69,48,43,143,143,109,109,6,13,6,5,0.6,0.6
2026-04-15T1300,1453A,102.7267,25.0378,昆明市,东风东路,颗粒物(PM10),69,76,74,44,44,151,151,137,137,12,15,3,6,0.6,0.6
2026-04-15T1300,1454A,102.6744,25.0671,昆明市,金鼎山,细颗粒物(PM2.5),80,90,77,50,47,148,148,119,119,9,16,3,3,0.7,0.6
2026-04-15T1300,1455A,102.6643,25.0401,昆明市,碧鸡广场,细颗粒物(PM2.5),72,76,78,46,44,145,145,115,115,9,18,5,8,0.7,0.7
2026-04-15T1300,3179A,102.7491,25.012,昆明市,官渡区博物馆,"颗粒物(PM10),细颗粒物(PM2.5)",76,86,74,48,44,152,152,139,139,10,13,5,7,0.5,0.6
2026-04-15T1300,3375A,102.8016,24.8336,昆明市,青年创业园,细颗粒物(PM2.5),78,71,76,49,40,172,172,121,121,6,12,8,7,0.5,0.5
2026-04-15T1300,3550A,102.8,24.9787,昆明市,昆明学院,细颗粒物(PM2.5),76,85,74,48,38,159,159,139,139,10,10,8,7,0.8,0.7
2026-04-15T1300,3551A,102.5969,24.6738,昆明市,晋宁区生态环境分局,细颗粒物(PM2.5),80,58,63,50,45,160,160,142,142,5,6,4,4,0.6,0.6
2026-04-15T1300,3552A,102.6673,24.9861,昆明市,云天化总部,"颗粒物(PM10),细颗粒物(PM2.5)",68,74,78,44,40,160,160,131,131,9,15,6,8,0.6,0.6
2026-04-15T1300,1456A,91.132,29.6515,拉萨市,八廓街,,40,20,25,8,9,128,128,119,116,7,7,4,4,0.3,0.2
2026-04-15T1300,1457A,91.1221,29.6748,拉萨市,市环保局,,39,30,23,7,8,122,122,110,110,8,9,4,4,0.4,0.3
2026-04-15T1300,1458A,91.0874,29.6476,拉萨市,区监测站,,41,16,20,3,7,129,129,117,116,8,9,4,5,0.2,0.2
2026-04-15T1300,1459A,91.1774,29.6541,拉萨市,西藏大学,NA,NA,NA,24,NA,8,120,120,111,108,10,9,3,4,NA,0.2
2026-04-15T1300,1460A,90.9798,29.6586,拉萨市,区辐射站,,35,22,24,3,7,110,110,102,100,14,8,5,4,0.3,0.3
2026-04-15T1300,1461A,91.0831,29.6292,拉萨市,拉萨火车站,NA,NA,15,20,7,8,NA,NA,119,NA,NA,6,4,4,0.3,0.2
2026-04-15T1300,2520A,109.2203,23.7252,来宾市,来宾技工学校,细颗粒物(PM2.5),64,68,58,42,40,85,85,41,41,6,10,8,8,0.7,0.8
2026-04-15T1300,3535A,109.1781,23.7293,来宾市,兴宾区政府,颗粒物(PM10),55,56,59,37,40,86,86,40,40,6,11,10,11,0.7,0.8
2026-04-15T1300,4002A,109.2312,23.7428,来宾市,中南小学,细颗粒物(PM2.5),64,66,58,42,42,89,89,41,41,11,14,8,9,0.6,0.7
2026-04-15T1300,1479A,103.8309,36.0467,兰州市,铁路设计院,NA,NA,105,64,40,29,95,95,46,46,NA,37,17,8,0.8,0.6
2026-04-15T1300,3241A,103.7439,36.0841,兰州市,百合公园,颗粒物(PM10),66,72,62,29,33,98,98,43,43,31,41,17,9,0.8,0.5
2026-04-15T1300,3242A,103.9613,35.9985,兰州市,和平,颗粒物(PM10),58,61,48,30,24,98,98,75,75,8,13,9,7,0.5,0.4
2026-04-15T1300,4236A,103.629272,36.093822,兰州市,庄浪东路808号,颗粒物(PM10),75,85,65,31,28,94,94,60,60,19,24,20,18,0.5,0.5
2026-04-15T1300,4237A,103.7251,36.104344,兰州市,安宁西路88号,颗粒物(PM10),82,94,71,38,31,109,109,58,58,30,35,16,16,0.5,0.4
2026-04-15T1300,4238A,103.846982,36.067567,兰州市,北滨河东路1号,颗粒物(PM10),68,75,56,38,29,93,93,40,40,38,40,14,10,0.7,0.6
2026-04-15T1300,1067A,116.6712,39.5109,廊坊市,药材公司,细颗粒物(PM2.5),116,106,117,77,75,131,131,70,70,29,48,5,6,0.8,1.1
2026-04-15T1300,1068A,116.7215,39.5592,廊坊市,开发区,细颗粒物(PM2.5),124,124,114,86,73,128,128,76,76,23,42,4,4,0.6,0.9
2026-04-15T1300,1070A,116.7246,39.5273,廊坊市,北华航天学院,细颗粒物(PM2.5),124,124,122,86,71,131,131,67,67,27,51,7,6,0.6,1
2026-04-15T1300,2919A,116.7022,39.5454,廊坊市,河北工业大学,细颗粒物(PM2.5),115,119,123,76,72,132,132,66,66,26,48,7,7,0.6,1
2026-04-15T1300,2536A,103.7629,29.5844,乐山市,牛耳桥,,39,39,31,21,19,105,105,75,75,15,16,4,7,0.5,0.5
2026-04-15T1300,2537A,103.7501,29.6002,乐山市,市第三水厂,,33,28,33,15,19,105,105,74,74,12,16,6,5,0.5,0.5
2026-04-15T1300,2538A,103.7571,29.5664,乐山市,市监测站,,36,36,31,19,17,100,100,72,72,12,15,4,4,0.5,0.5
2026-04-15T1300,3361A,103.7313,29.563,乐山市,理工大学,,36,36,29,23,20,107,107,75,75,11,12,4,4,0.5,0.5
2026-04-15T1300,2599A,100.2497,26.8802,丽江市,丽江古城,,39,27,39,19,22,124,124,116,116,10,10,8,8,0.7,0.6
2026-04-15T1300,2600A,100.2203,26.8906,丽江市,市中心,,39,23,29,18,20,122,122,113,113,13,12,7,7,0.6,0.5
2026-04-15T1300,1267A,119.9141,28.4513,丽水市,监测站大楼,,32,32,34,15,28,61,61,46,46,12,14,5,5,0.6,0.7
2026-04-15T1300,1268A,119.93,28.4589,丽水市,莲都小学,,26,26,38,18,28,61,61,46,46,13,14,/,/,/,/
2026-04-15T1300,1269A,119.8794,28.4232,丽水市,余庄前,NA,NA,28,38,17,25,42,42,26,26,19,14,5,5,NA,0.8
2026-04-15T1300,1173A,119.1759,34.5885,连云港市,市环境监测站,臭氧1小时(O3_1h),72,44,53,34,35,177,177,90,90,16,31,13,11,0.6,0.7
2026-04-15T1300,3000A,119.3577,34.6971,连云港市,德源药业,NA,NA,29,66,9,29,132,132,59,59,NA,59,7,7,0.3,0.4
2026-04-15T1300,3007A,119.178,34.8442,连云港市,新城一中,颗粒物(PM10),56,58,59,26,47,141,141,82,82,18,46,14,13,1.0,0.7
2026-04-15T1300,3008A,119.3607,34.7519,连云港市,胡沟管理处,,39,NA,33,19,26,124,124,82,82,16,49,16,15,0.5,0.5
2026-04-15T1300,3009A,119.1478,34.5913,连云港市,矿山设计院,臭氧1小时(O3_1h),65,41,54,27,32,172,172,82,82,11,32,12,10,0.6,0.6
2026-04-15T1300,3434A,119.2414,34.6539,连云港市,工贸学校,,45,44,41,24,22,142,142,99,99,17,19,14,11,0.5,0.4
2026-04-15T1300,3664A,119.4171,34.734,连云港市,连云街道,颗粒物(PM10),63,67,53,30,24,100,100,59,58,31,32,5,3,0.4,0.4
2026-04-15T1300,2573A,102.2629,27.8981,凉山彝族自治州,西昌市政府,,41,41,33,27,22,130,130,94,94,4,10,6,6,0.4,0.5
2026-04-15T1300,2574A,102.2686,27.885,凉山彝族自治州,凉山州政府,,40,40,34,25,20,112,112,77,77,4,10,4,6,0.4,0.6
2026-04-15T1300,4229A,102.2342,27.8859,凉山彝族自治州,凯乐南路30号,,44,44,35,19,14,121,121,82,82,7,13,5,4,0.5,0.5
2026-04-15T1300,2212A,123.1978,41.2036,辽阳市,宏伟区,细颗粒物(PM2.5),60,52,95,40,92,137,137,87,87,12,20,6,6,0.8,0.9
2026-04-15T1300,2213A,123.1684,41.2497,辽阳市,新华园,细颗粒物(PM2.5),90,91,108,55,102,144,144,71,71,18,27,8,11,0.6,0.8
2026-04-15T1300,2214A,123.2355,41.2663,辽阳市,滨河路,细颗粒物(PM2.5),102,76,95,62,101,139,139,65,65,21,31,9,7,0.9,0.9
2026-04-15T1300,4083A,123.153,41.2874,辽阳市,铁西路150号,细颗粒物(PM2.5),124,96,99,86,92,140,140,70,70,24,32,10,8,1.0,0.8
2026-04-15T1300,2227A,125.1359,42.8845,辽源市,环保局,细颗粒物(PM2.5),72,53,49,46,42,123,123,79,79,11,16,6,6,0.6,0.6
2026-04-15T1300,4085A,125.0998,42.9134,辽源市,安宁大街333号,NA,NA,NA,54,NA,41,120,120,79,79,9,15,NA,6,NA,0.4
2026-04-15T1300,1625A,115.9789,36.4372,聊城市,区政府,颗粒物(PM10),52,52,53,17,19,145,145,85,85,7,20,8,8,0.6,0.7
2026-04-15T1300,3200A,115.9772,36.4986,聊城市,监控中心,颗粒物(PM10),53,53,51,21,18,142,142,78,78,14,33,10,10,0.4,0.4
2026-04-15T1300,3513A,116.0443,36.436,聊城市,九州社区,颗粒物(PM10),56,58,62,27,22,162,162,102,102,12,20,10,10,0.4,0.4
2026-04-15T1300,4018A,116.0564,36.4609,聊城市,星美广场,颗粒物(PM10),58,60,59,33,31,149,149,93,93,12,18,9,10,0.6,0.6
2026-04-15T1300,4113A,116.0091,36.4495,聊城市,利民路,臭氧1小时(O3_1h),52,41,46,21,24,161,161,98,98,9,19,10,11,0.4,0.4
2026-04-15T1300,2632A,94.3683,29.6373,林芝市,林芝监测站,,31,12,12,3,4,99,99,94,90,4,5,4,4,0.5,0.5
2026-04-15T1300,2633A,94.3616,29.6634,林芝市,林芝人民医院,,31,6,7,3,4,99,99,94,89,4,3,4,4,0.5,0.5
2026-04-15T1300,2603A,100.0779,23.8981,临沧市,市环保局,细颗粒物(PM2.5),110,116,92,70,61,132,132,82,82,11,11,6,8,0.9,0.8
2026-04-15T1300,2604A,100.0894,23.882,临沧市,市气象局,细颗粒物(PM2.5),117,111,99,78,67,101,101,66,60,20,15,7,8,0.9,0.8
2026-04-15T1300,1733A,111.5552,36.0791,临汾市,临钢医院,颗粒物(PM10),71,79,76,39,35,124,124,69,69,13,20,10,10,1.1,1.2
2026-04-15T1300,1734A,111.4984,36.0734,临汾市,技工学校,细颗粒物(PM2.5),60,56,64,40,42,124,124,70,70,8,20,9,10,0.8,0.9
2026-04-15T1300,1736A,111.5017,36.0857,临汾市,市委,颗粒物(PM10),55,56,69,35,33,130,130,76,76,8,20,9,10,0.9,0.9
2026-04-15T1300,3018A,111.5048,36.1015,临汾市,唐尧大酒店,颗粒物(PM10),73,81,80,36,34,131,131,72,72,8,22,10,10,0.8,0.9
2026-04-15T1300,4244A,111.4879,36.053,临汾市,启星学校,颗粒物(PM10),53,53,64,33,38,112,112,62,62,9,26,10,9,0.9,1
2026-04-15T1300,4271A,103.2464,35.6123,临夏回族自治州,滨河东路1号,颗粒物(PM10),80,91,75,32,36,74,74,37,37,11,33,12,10,0.3,0.5
2026-04-15T1300,4310A,103.207136,35.599807,临夏回族自治州,新华街21号,颗粒物(PM10),66,72,72,33,40,76,76,42,42,6,18,9,8,0.2,0.4
2026-04-15T1300,1618A,118.3429,35.0532,临沂市,沂河小区,颗粒物(PM10),55,56,65,32,36,157,157,84,84,13,28,15,16,0.4,0.4
2026-04-15T1300,1619A,118.2962,35.0568,临沂市,鲁南制药厂,臭氧1小时(O3_1h),55,46,61,27,38,164,164,97,97,12,24,15,16,0.2,0.3
2026-04-15T1300,1620A,118.2793,34.9976,临沂市,新光毛纺厂,颗粒物(PM10),51,51,64,23,42,148,148,85,85,10,27,13,18,0.2,0.4
2026-04-15T1300,1621A,118.3955,35.0889,临沂市,河东保险公司,,47,29,70,23,38,148,148,78,78,10,44,14,14,0.3,0.4
2026-04-15T1300,3370A,118.3563,35.0215,临沂市,十里堡居委,臭氧1小时(O3_1h),67,58,57,36,38,173,173,94,94,17,33,17,18,0.5,0.6
2026-04-15T1300,3496A,118.359,35.1067,临沂市,南坊新区,NA,NA,NA,72,NA,40,142,142,66,66,15,38,14,13,0.4,0.5
2026-04-15T1300,3860A,118.3915,35.0297,临沂市,皇山花园小区,臭氧1小时(O3_1h),62,53,65,39,42,169,169,88,88,20,41,18,18,0.5,0.5
2026-04-15T1300,1870A,109.4854,24.3898,柳州市,柳东小学,,35,31,42,24,32,52,52,40,40,9,12,4,5,0.8,0.8
2026-04-15T1300,1871A,109.4109,24.3304,柳州市,环保监测站,,41,41,47,28,27,52,52,33,33,14,17,5,9,0.9,0.9
2026-04-15T1300,1872A,109.3886,24.3408,柳州市,河西水厂,颗粒物(PM10),62,66,51,30,34,42,42,28,28,14,19,13,18,0.9,1.2
2026-04-15T1300,1873A,109.4263,24.2951,柳州市,市四中,颗粒物(PM10),58,61,45,30,31,52,52,35,35,14,13,8,9,0.9,0.8
2026-04-15T1300,1874A,109.396,24.3658,柳州市,市九中,,42,42,46,28,30,52,52,33,33,8,14,6,11,0.7,0.8
2026-04-15T1300,1875A,109.4912,24.3164,柳州市,古亭山,颗粒物(PM10),60,64,40,23,28,55,55,43,43,10,11,6,5,0.8,0.8
2026-04-15T1300,3402A,109.5422,24.3994,柳州市,市二中,,33,33,36,22,27,50,50,44,44,10,10,7,7,0.7,0.7
2026-04-15T1300,2307A,116.5078,31.7369,六安市,监测大楼,NA,NA,29,20,22,18,112,112,73,73,6,15,12,4,NA,0.3
2026-04-15T1300,2308A,116.4738,31.7642,六安市,皖西学院,,47,47,26,22,18,124,124,77,77,6,10,5,4,0.3,0.3
2026-04-15T1300,2309A,116.4997,31.7904,六安市,朝阳厂,,37,37,26,24,20,117,117,74,74,10,19,6,6,0.2,0.3
2026-04-15T1300,2310A,116.5566,31.7885,六安市,开发区,,40,32,19,28,21,125,125,84,84,11,30,5,5,0.4,0.4
2026-04-15T1300,2577A,104.8293,26.592,六盘水市,黄土坡,颗粒物(PM10),53,53,57,31,35,145,145,85,85,7,13,7,8,0.3,0.5
2026-04-15T1300,2579A,104.8481,26.5898,六盘水市,民中,NA,NA,NA,56,NA,35,132,132,80,80,6,14,6,7,0.4,0.6
2026-04-15T1300,2580A,104.9541,26.5506,六盘水市,双水,颗粒物(PM10),51,51,55,34,35,118,118,84,84,8,11,5,7,0.3,0.4
2026-04-15T1300,4151A,104.8899,26.5685,六盘水市,钟山大道中段564号,颗粒物(PM10),58,61,65,33,33,124,124,78,78,6,8,3,3,0.6,0.7
2026-04-15T1300,2336A,117.022,25.1031,龙岩市,龙岩市监测站,,47,47,34,32,26,96,96,50,50,5,13,6,7,0.5,0.5
2026-04-15T1300,2337A,117.0257,25.0662,龙岩市,闽西职业技术学院,,48,44,35,33,24,86,86,46,46,2,8,4,6,0.6,0.6
2026-04-15T1300,2338A,117.0195,25.0306,龙岩市,龙岩学院,,50,50,33,26,23,90,90,54,54,4,8,3,3,/,/
2026-04-15T1300,2885A,104.9344,33.3827,陇南市,滨江中学,,48,48,70,20,26,97,97,55,55,6,13,8,9,0.6,0.6
2026-04-15T1300,3247A,104.9551,33.3709,陇南市,市总工会,,45,45,59,20,24,103,103,63,60,4,11,8,9,0.5,0.5
2026-04-15T1300,2488A,111.9984,27.7346,娄底市,市监测站,,29,26,18,20,16,64,64,52,52,9,12,2,3,0.3,0.3
2026-04-15T1300,2491A,111.9888,27.7035,娄底市,市政府,NA,NA,NA,16,20,15,74,74,58,58,9,9,NA,2,0.4,0.4
2026-04-15T1300,4127A,111.9812,27.7591,娄底市,涟钢职大,,23,13,19,3,11,72,72,57,57,8,11,2,3,0.5,0.6
2026-04-15T1300,4128A,112.0303,27.7457,娄底市,娄底体校,,25,21,19,17,14,60,60,49,49,4,2,3,3,0.3,0.3
2026-04-15T1300,1894A,105.4427,28.9063,泸州市,小市上码头,,29,27,23,20,16,91,91,49,49,9,13,10,9,0.8,0.7
2026-04-15T1300,1895A,105.4241,28.8573,泸州市,兰田宪桥,NA,NA,31,23,17,12,88,88,35,35,9,16,NA,5,NA,1
2026-04-15T1300,1896A,105.4378,28.8833,泸州市,市环监站,,29,29,27,17,14,82,82,36,36,16,15,10,8,0.8,0.7
2026-04-15T1300,4272A,105.3689,28.7783,泸州市,纳溪中医医院,,41,41,28,14,15,96,96,35,35,10,16,4,7,0.7,0.7
2026-04-15T1300,2183A,111.1447,37.5212,吕梁市,环保局,颗粒物(PM10),70,77,80,30,18,131,131,71,71,12,28,5,4,0.4,0.3
2026-04-15T1300,2185A,111.1285,37.5338,吕梁市,自来水公司,颗粒物(PM10),64,69,114,24,26,129,129,60,60,12,30,4,4,0.5,0.4
2026-04-15T1300,2867A,111.1225,37.5093,吕梁市,马茂庄小学,NA,NA,NA,82,26,15,130,130,61,61,13,33,6,7,0.4,0.6
2026-04-15T1300,1812A,112.3934,34.6517,洛阳市,市委党校,细颗粒物(PM2.5),70,70,59,45,38,116,116,64,64,16,21,11,14,0.7,0.7
2026-04-15T1300,1815A,112.494,34.6883,洛阳市,河南林校,颗粒物(PM10),73,81,66,46,38,127,127,67,67,14,23,17,15,0.7,0.6
2026-04-15T1300,1816A,112.3843,34.623,洛阳市,开发区管委会,颗粒物(PM10),79,90,65,44,39,122,122,75,75,16,17,13,14,0.7,0.7
2026-04-15T1300,1817A,112.4263,34.6249,洛阳市,市委新办公区,NA,NA,74,60,NA,41,118,118,75,75,16,18,13,13,0.6,0.5
2026-04-15T1300,3340A,112.6005,34.6323,洛阳市,伊滨,细颗粒物(PM2.5),94,72,56,57,39,119,119,58,58,14,20,12,10,0.7,0.6
2026-04-15T1300,3341A,112.495,34.6338,洛阳市,中移产业园,细颗粒物(PM2.5),101,94,66,61,42,117,117,62,62,18,21,16,13,0.9,0.9
2026-04-15T1300,3593A,112.5736,34.8993,洛阳市,吉利监测站,颗粒物(PM10),54,55,53,24,30,126,126,60,60,14,29,12,10,0.5,0.5
2026-04-15T1300,3635A,112.3678,34.6623,洛阳市,河科大西苑校区,细颗粒物(PM2.5),86,78,59,53,38,125,125,66,66,14,17,12,14,0.5,0.5
2026-04-15T1300,3636A,112.4387,34.678,洛阳市,英才小学,NA,NA,112,74,56,39,106,106,66,62,NA,23,15,16,0.5,0.6
2026-04-15T1300,4214A,112.460027,34.694929,洛阳市,春都路1号院,细颗粒物(PM2.5),80,81,65,50,38,135,135,73,73,14,20,13,13,0.8,0.8
2026-04-15T1300,2399A,114.051,33.5721,漯河市,三五一五工厂,,46,NA,34,32,28,112,112,71,71,9,21,4,4,0.3,0.3
2026-04-15T1300,2400A,114.0055,33.5698,漯河市,漯河大学,,35,24,27,20,31,109,109,67,67,9,18,5,6,0.3,0.4
2026-04-15T1300,2401A,114.0134,33.5826,漯河市,市水利局,NA,NA,NA,32,NA,26,109,109,69,69,6,16,4,4,NA,0.5
2026-04-15T1300,2402A,114.0261,33.5697,漯河市,市广电局,,36,29,31,21,26,115,115,72,72,6,18,4,4,0.4,0.5
2026-04-15T1300,3478A,113.9691,33.568,漯河市,市图书馆,,34,25,39,23,27,108,108,72,72,6,18,5,7,0.3,0.4
2026-04-15T1300,4250A,114.089259,33.588274,漯河市,韶山路11号,,40,NA,39,28,25,112,112,65,65,8,27,5,5,0.6,0.5
2026-04-15T1300,1798A,118.5084,31.6838,马鞍山市,湖东路四小,,44,44,47,29,29,127,127,64,64,12,27,6,6,0.6,0.6
2026-04-15T1300,1799A,118.5019,31.6449,马鞍山市,开发区,,41,41,40,22,22,124,124,66,66,14,31,6,6,0.6,0.6
2026-04-15T1300,3633A,118.4914,31.681,马鞍山市,雨山,,41,30,36,27,20,129,129,65,65,14,26,7,7,0.6,0.7
2026-04-15T1300,4191A,118.527362,31.722269,马鞍山市,慈湖高新区,颗粒物(PM10),55,56,44,37,29,130,130,68,68,9,27,7,9,0.7,0.5
2026-04-15T1300,1686A,111.0285,21.469,茂名市,电白南海,,22,22,25,8,9,47,47,46,46,5,5,4,4,0.7,0.7
2026-04-15T1300,1687A,110.9294,21.6533,茂名市,茂石化七小,,22,22,26,8,11,46,46,40,40,6,9,5,6,0.5,0.5
2026-04-15T1300,1688A,110.9108,21.6688,茂名市,健康路,,15,14,18,8,11,48,48,41,41,6,9,4,4,0.6,0.6
2026-04-15T1300,1689A,110.8592,21.6826,茂名市,高岭,,39,39,34,8,12,52,52,45,45,4,8,3,3,/,/
2026-04-15T1300,3450A,111.0101,21.5165,茂名市,电白水东,,15,12,14,7,9,45,45,45,44,5,7,2,2,/,/
2026-04-15T1300,2540A,103.8414,30.0871,眉山市,气象局,NA,NA,NA,41,20,16,100,100,65,60,8,15,9,10,0.6,0.6
2026-04-15T1300,3148A,103.829,30.0563,眉山市,区人社局,,39,39,39,21,15,96,96,70,62,15,20,13,11,0.5,0.5
2026-04-15T1300,4148A,103.8836,30.0695,眉山市,眉职院,,30,30,32,10,10,92,92,66,61,7,11,8,8,0.6,0.6
2026-04-15T1300,1690A,116.1248,24.3307,梅州市,梅江月梅,,24,24,35,10,26,65,65,32,32,4,15,/,/,/,/
2026-04-15T1300,1691A,116.0798,24.2719,梅州市,梅县新城,,27,27,30,11,20,65,65,34,34,1,11,8,9,0.4,0.5
2026-04-15T1300,3315A,116.1234,24.2994,梅州市,梅龙,,22,22,31,10,23,67,67,42,42,5,13,6,9,0.5,0.6
2026-04-15T1300,1878A,104.7775,31.4741,绵阳市,富乐山,,34,34,32,18,18,83,83,41,41,12,14,7,7,0.6,0.6
2026-04-15T1300,1880A,104.6698,31.4668,绵阳市,高新区自来水公司,颗粒物(PM10),53,54,40,32,21,74,74,39,38,14,16,7,7,0.7,0.7
2026-04-15T1300,3491A,104.6899,31.5324,绵阳市,西科大附属小学,NA,NA,46,41,32,22,82,82,38,38,16,17,6,6,NA,0.5
2026-04-15T1300,3492A,104.5647,31.5343,绵阳市,安州区旅游局,,47,47,38,31,22,76,76,42,42,13,10,8,8,0.4,0.4
2026-04-15T1300,4146A,104.7092,31.4972,绵阳市,科技城新区公安局,,46,46,35,29,19,72,72,40,40,13,15,7,7,0.6,0.6
2026-04-15T1300,4226A,104.765114,31.453094,绵阳市,绵阳市气象局,,29,NA,34,20,19,75,75,36,34,13,15,10,9,0.4,0.4
2026-04-15T1300,1784A,129.61,44.561,牡丹江市,环保大楼,,30,22,41,10,28,96,96,79,79,8,17,2,5,0.3,0.4
2026-04-15T1300,1787A,129.6364,44.6075,牡丹江市,机车工厂,,34,34,47,22,27,88,88,68,68,9,16,6,13,0.5,0.5
2026-04-15T1300,1788A,129.6386,44.5462,牡丹江市,第一中学,,33,33,40,22,24,93,93,74,74,5,14,7,4,0.3,0.4
2026-04-15T1300,4287A,129.5992,44.5964,牡丹江市,东晓云街98号,,32,32,44,15,24,95,95,74,74,7,15,3,5,0.5,0.6
2026-04-15T1300,2531A,105.0703,29.61,内江市,市监测站,,30,NA,29,21,21,92,92,47,47,6,12,9,8,0.5,0.5
2026-04-15T1300,2533A,105.0657,29.5807,内江市,内江二中,,30,23,37,20,24,93,93,47,47,7,12,7,6,0.3,0.3
2026-04-15T1300,2534A,105.0407,29.5828,内江市,内江日报社,,36,27,25,25,22,101,101,54,54,8,15,7,7,0.4,0.4
2026-04-15T1300,4147A,105.0433,29.6105,内江市,玉峰路西段888号,,32,23,27,18,25,100,100,46,46,6,14,7,6,0.4,0.5
2026-04-15T1300,2628A,92.0653,31.4846,那曲市,那曲监测站,,41,26,34,20,23,130,130,86,86,7,16,8,9,0.6,0.8
2026-04-15T1300,4243A,92.0515,31.4787,那曲市,那曲市委宣传部,,43,NA,17,14,15,137,137,91,91,2,8,9,10,0.4,0.5
2026-04-15T1300,1291A,115.8887,28.7006,南昌市,省林业公司,,26,22,27,16,24,82,82,52,52,7,13,5,4,0.5,0.6
2026-04-15T1300,1292A,115.813,28.7443,南昌市,林科所,,29,22,22,17,23,90,90,63,63,8,16,8,7,1.1,1.2
2026-04-15T1300,1294A,115.8518,28.687,南昌市,建工学校,,33,33,36,20,25,81,81,56,56,13,18,10,9,1.0,1
2026-04-15T1300,1295A,115.8926,28.6425,南昌市,象湖,,30,23,22,21,30,84,84,57,57,7,13,8,8,0.9,1
2026-04-15T1300,3046A,115.9084,28.6062,南昌市,机电学校,,47,47,38,26,26,88,88,64,64,9,15,5,5,0.7,0.8
2026-04-15T1300,3690A,115.9718,28.7032,南昌市,外国语学校,,42,32,31,29,31,82,82,54,54,9,16,9,9,0.7,0.8
2026-04-15T1300,4106A,115.7923,28.6873,南昌市,工业二路,,42,42,40,19,24,79,79,56,56,11,15,6,5,0.8,0.8
2026-04-15T1300,4192A,115.931587,28.686774,南昌市,南京东路235号,,37,37,34,21,26,89,89,59,59,5,10,5,5,0.5,0.6
2026-04-15T1300,1906A,106.0791,30.8022,南充市,南充市委,,21,16,20,11,13,67,67,34,34,8,15,6,6,0.3,0.3
2026-04-15T1300,1907A,106.1038,30.8215,南充市,南充炼油厂,,19,19,22,12,14,60,60,40,40,6,10,4,5,0.3,0.3
2026-04-15T1300,4227A,106.108336,30.788436,南充市,梨树横街98号,,21,14,20,11,14,65,65,43,43,6,13,6,6,0.2,0.3
2026-04-15T1300,4304A,106.1172,30.843,南充市,清泉寺北路188号,,18,14,21,9,14,57,57,36,36,5,8,6,6,0.4,0.4
2026-04-15T1300,4305A,106.067,30.7616,南充市,同庆路1号,,23,17,19,10,12,71,71,39,39,8,15,6,6,0.4,0.4
2026-04-15T1300,1151A,118.8033,32.1085,南京市,迈皋桥,NA,NA,48,42,29,21,117,117,59,59,NA,41,7,7,0.7,0.8
2026-04-15T1300,1152A,118.7487,32.057,南京市,草场门,,48,48,40,30,24,132,132,70,70,18,30,7,4,0.5,0.5
2026-04-15T1300,1154A,118.770105,32.004342,南京市,中华门,,46,46,48,24,23,143,143,82,82,16,31,7,6,0.8,0.8
2026-04-15T1300,1155A,118.8059,32.0329,南京市,瑞金路,颗粒物(PM10),56,58,57,28,27,139,139,69,69,19,34,8,7,0.6,0.8
2026-04-15T1300,1156A,118.7946,32.0774,南京市,玄武湖,,48,48,44,28,21,111,111,60,60,16,21,7,5,0.4,0.5
2026-04-15T1300,1157A,118.6415,32.0964,南京市,浦口,颗粒物(PM10),60,63,36,24,17,122,122,62,62,20,13,8,5,0.8,0.7
2026-04-15T1300,1158A,118.730129,32.000956,南京市,奥体中心,NA,NA,50,46,17,17,117,117,61,61,16,33,9,7,NA,0.4
2026-04-15T1300,1159A,118.9072,32.1047,南京市,仙林大学城,颗粒物(PM10),55,56,51,32,22,108,108,72,72,23,26,11,9,0.6,0.6
2026-04-15T1300,3422A,118.8443,31.919,南京市,江宁彩虹桥,,46,46,44,19,24,140,140,77,77,14,43,5,4,0.8,0.9
2026-04-15T1300,3427A,118.8497,32.3599,南京市,六合雄州,,35,29,40,19,26,111,111,58,58,17,37,4,4,0.7,0.7
2026-04-15T1300,4086A,118.7641,32.0841,南京市,新模范马路66号,颗粒物(PM10),51,51,47,24,18,123,123,63,63,21,32,5,4,0.5,0.6
2026-04-15T1300,4249A,118.8707617,31.34017673,南京市,汶溪路181号,,46,46,36,30,25,137,137,76,76,14,21,7,6,0.4,0.6
2026-04-15T1300,4312A,119.019,31.6512,南京市,中山西路1号,,39,39,40,26,25,118,118,65,65,12,24,4,4,0.7,0.7
2026-04-15T1300,1401A,108.3098,22.788,南宁市,二十一中,颗粒物(PM10),58,60,52,33,38,81,81,61,54,8,9,3,2,0.5,0.9
2026-04-15T1300,1402A,108.3135,22.8529,南宁市,北湖,细颗粒物(PM2.5),52,38,52,36,44,84,84,66,56,8,8,3,2,0.7,0.8
2026-04-15T1300,1403A,108.3205,22.8222,南宁市,市监测站,颗粒物(PM10),52,52,51,33,36,88,88,65,56,6,6,2,2,0.4,0.5
2026-04-15T1300,1404A,108.3828,22.8038,南宁市,大自然花园,颗粒物(PM10),53,53,51,28,38,84,84,61,54,6,9,5,6,0.7,0.7
2026-04-15T1300,1406A,108.2397,22.8462,南宁市,区农职院,颗粒物(PM10),53,54,54,33,35,83,83,66,56,9,9,4,5,0.4,0.5
2026-04-15T1300,1407A,108.3285,22.7356,南宁市,英华嘉园,颗粒物(PM10),53,54,57,30,38,89,89,62,54,8,11,4,5,0.7,0.7
2026-04-15T1300,3401A,108.4829,22.762,南宁市,红星社区,NA,NA,36,53,29,36,86,86,56,54,4,8,NA,5,0.7,0.8
2026-04-15T1300,4132A,108.2927,23.1477,南宁市,起凤路9号,细颗粒物(PM2.5),62,52,63,41,48,94,94,68,61,6,8,4,4,0.6,0.7
2026-04-15T1300,4221A,108.2177,22.7774,南宁市,乐贤路16号,"颗粒物(PM10),细颗粒物(PM2.5)",54,55,56,37,40,82,82,50,48,8,14,3,4,0.4,0.5
2026-04-15T1300,2332A,118.1682,26.6371,南平市,南平市监测站,,38,38,37,24,25,85,85,54,54,5,8,7,4,0.6,0.6
2026-04-15T1300,2334A,118.1757,26.6276,南平市,南平七中,,38,38,42,22,27,79,79,46,46,5,12,5,3,0.6,0.6
2026-04-15T1300,1168A,120.9056,31.9669,南通市,狼山街道,,46,40,27,12,19,146,146,98,98,10,15,4,3,0.4,0.5
2026-04-15T1300,1170A,120.8635,32.0231,南通市,城中,NA,NA,NA,33,8,20,136,136,89,89,9,14,5,4,0.4,0.4
2026-04-15T1300,1171A,120.9376,31.9301,南通市,星湖花园,,45,37,28,9,18,143,143,96,96,9,12,4,3,0.6,0.6
2026-04-15T1300,1172A,120.8053,32.046,南通市,紫琅学院,,49,33,24,9,19,154,154,99,99,12,16,6,5,0.6,0.7
2026-04-15T1300,3291A,121.0631,32.0644,南通市,通州监测站,,45,41,23,11,15,143,143,104,104,7,7,5,3,0.5,0.5
2026-04-15T1300,3432A,120.9348,31.9874,南通市,环境教育馆,,46,46,28,11,16,146,146,97,97,12,19,5,4,0.5,0.5
2026-04-15T1300,4091A,120.8692,31.9885,南通市,洪江路,,45,44,31,18,22,144,144,91,91,12,17,6,4,0.8,0.8
2026-04-15T1300,2404A,112.5338,33.0086,南阳市,瓦房庄,,47,47,52,27,33,95,95,56,56,13,20,4,5,0.5,0.5
2026-04-15T1300,2405A,112.5002,32.9734,南阳市,汉画馆,颗粒物(PM10),53,54,61,23,30,92,92,54,54,8,19,6,6,0.5,0.6
2026-04-15T1300,2406A,112.5778,33.0144,南阳市,气象站,,47,47,51,30,29,97,97,55,55,9,19,5,6,0.4,0.4
2026-04-15T1300,2407A,112.548,32.9687,南阳市,理工学院,颗粒物(PM10),51,51,55,34,37,93,93,50,50,5,19,5,6,0.4,0.5
2026-04-15T1300,4008A,112.5233,32.9921,南阳市,卧龙区政府,,46,41,58,32,36,94,94,55,55,10,21,6,7,0.5,0.6
2026-04-15T1300,1234A,121.8352,29.9111,宁波市,区环保大楼,,40,40,54,26,35,109,109,41,41,23,48,6,7,0.7,0.8
2026-04-15T1300,1235A,121.5595,29.8208,宁波市,万里学院,细颗粒物(PM2.5),62,NA,36,41,41,116,116,70,70,19,23,8,7,0.9,0.9
2026-04-15T1300,1236A,121.713,29.9564,宁波市,龙赛医院,,44,44,46,28,30,91,91,38,38,19,36,6,6,0.6,0.6
2026-04-15T1300,1240A,121.5855,29.8635,宁波市,太古小学,细颗粒物(PM2.5),66,54,53,43,38,120,120,67,67,19,27,5,4,0.9,0.8
2026-04-15T1300,1241A,121.5239,29.8673,宁波市,市环境监测中心,细颗粒物(PM2.5),72,49,39,46,47,106,106,62,62,18,30,4,9,0.7,0.7
2026-04-15T1300,2871A,121.6156,29.9015,宁波市,万里国际学校,细颗粒物(PM2.5),58,NA,43,39,44,129,129,58,58,19,37,6,5,0.8,0.8
2026-04-15T1300,3710A,121.5593,29.8976,宁波市,白沙活动中心,细颗粒物(PM2.5),54,NA,30,37,32,116,116,66,66,19,28,6,5,0.8,0.7
2026-04-15T1300,4095A,121.8962,29.7529,宁波市,中科路88号,,36,22,45,16,37,113,113,55,55,15,23,7,8,0.6,0.7
2026-04-15T1300,2341A,119.5387,26.6611,宁德市,宁德市监测站,,31,25,26,8,18,99,99,80,80,14,20,7,7,0.5,0.6
2026-04-15T1300,3209A,119.5231,26.6562,宁德市,宁德一中,,32,16,28,7,19,102,102,80,80,10,14,5,4,0.5,0.3
2026-04-15T1300,2618A,98.859,25.8541,怒江傈僳族自治州,州监测站,NA,NA,31,54,18,35,89,89,75,75,NA,16,NA,9,0.3,0.3
2026-04-15T1300,2619A,98.8607,25.8168,怒江傈僳族自治州,泸水一中,,30,21,52,21,38,82,82,60,60,12,23,5,6,0.6,0.7
2026-04-15T1300,1888A,101.6891,26.571,攀枝花市,弄弄坪,细颗粒物(PM2.5),56,57,67,38,42,142,142,95,95,16,25,19,30,1.4,1.5
2026-04-15T1300,1889A,101.577,26.5914,攀枝花市,河门口,颗粒物(PM10),65,71,73,42,42,141,141,74,74,9,18,11,15,0.8,0.8
2026-04-15T1300,1891A,101.7365,26.4986,攀枝花市,仁和,细颗粒物(PM2.5),74,55,62,47,45,144,144,95,95,5,12,8,9,0.6,0.6
2026-04-15T1300,2835A,101.7222,26.567,攀枝花市,四十中小,颗粒物(PM10),57,59,55,33,35,138,138,88,88,12,17,10,8,0.9,0.8
2026-04-15T1300,1604A,122.0303,41.1489,盘锦市,开发区,细颗粒物(PM2.5),62,53,48,41,56,147,147,96,96,10,21,8,8,0.4,0.4
2026-04-15T1300,1605A,122.0486,41.0883,盘锦市,兴隆台,细颗粒物(PM2.5),64,NA,43,42,51,133,133,88,88,10,21,11,10,0.6,0.8
2026-04-15T1300,1606A,121.8297,41.1026,盘锦市,新生街道,细颗粒物(PM2.5),72,51,42,46,24,135,135,80,80,17,33,11,6,0.6,0.6
2026-04-15T1300,1832A,113.3257,33.7423,平顶山市,新华旅馆,颗粒物(PM10),52,52,68,19,36,97,97,53,53,6,30,5,6,0.4,0.5
2026-04-15T1300,1833A,113.2917,33.737,平顶山市,规划设计院,,30,28,61,17,34,94,94,57,57,6,21,6,7,0.4,0.5
2026-04-15T1300,1834A,113.182,33.7738,平顶山市,平顶山工学院,NA,NA,29,49,17,32,98,98,47,47,10,18,8,8,NA,0.3
2026-04-15T1300,3594A,112.8736,33.9068,平顶山市,石龙区,"颗粒物(PM10),细颗粒物(PM2.5)",54,55,69,37,39,94,94,49,49,12,27,9,9,0.5,0.3
2026-04-15T1300,4116A,113.284,33.7139,平顶山市,姚电大道23号,,35,35,59,14,32,99,99,60,60,8,23,7,8,0.4,0.5
2026-04-15T1300,2656A,106.6633,35.5338,平凉市,聚贤嘉苑,颗粒物(PM10),60,64,77,29,29,106,106,58,58,8,19,8,7,0.4,0.5
2026-04-15T1300,2657A,106.7021,35.5307,平凉市,博物馆,颗粒物(PM10),58,60,79,32,33,111,111,61,61,7,22,8,9,0.4,0.6
2026-04-15T1300,2348A,113.8384,27.6436,萍乡市,中医院,,15,9,26,3,19,47,47,27,27,16,20,5,8,1.0,1.1
2026-04-15T1300,2350A,113.8677,27.6438,萍乡市,市环保局,,17,12,25,8,20,52,52,27,27,16,22,6,6,1.1,1.1
2026-04-15T1300,2351A,113.8663,27.6202,萍乡市,安源区政府,,14,6,24,6,13,43,43,25,25,13,12,5,8,1.2,0.7
2026-04-15T1300,4107A,113.8686,27.6668,萍乡市,联洪村委会,,15,10,33,3,21,46,46,27,27,11,20,2,5,0.5,0.7
2026-04-15T1300,2319A,119.0142,25.4324,莆田市,荔城区仓后路,,33,33,38,22,22,68,68,62,62,20,19,/,/,/,/
2026-04-15T1300,2320A,119.0016,25.4553,莆田市,莆田市监测站,,38,38,36,24,22,65,65,58,58,20,15,2,2,0.5,0.5
2026-04-15T1300,2321A,119.112,25.4561,莆田市,涵江区六中,,33,33,34,14,15,70,70,54,54,12,21,/,/,0.8,0.7
2026-04-15T1300,2322A,119.1014,25.3215,莆田市,秀屿区政府,,39,32,29,27,15,89,89,78,78,13,13,6,5,0.8,0.5
2026-04-15T1300,2392A,115.0312,35.7636,濮阳市,环保局,,41,41,38,19,17,124,124,88,88,5,10,4,4,0.4,0.4
2026-04-15T1300,3021A,115,35.7667,濮阳市,濮水河管理处,,40,36,38,18,17,127,127,74,74,9,15,5,4,0.4,0.4
2026-04-15T1300,4118A,115.0552,35.7816,濮阳市,中原东路68号,细颗粒物(PM2.5),101,84,41,61,17,126,126,83,83,5,10,4,3,0.4,0.3
2026-04-15T1300,4216A,115.0923632,35.76857718,濮阳市,任丘路479号,,44,39,45,21,17,138,138,90,90,4,9,3,3,0.5,0.6
2026-04-15T1300,2601A,100.9801,22.7634,普洱市,市环保局,颗粒物(PM10),117,164,126,65,52,186,186,124,124,10,12,7,5,0.9,0.8
2026-04-15T1300,2602A,100.9763,22.8237,普洱市,普洱第二中学,颗粒物(PM10),114,156,122,74,59,177,177,99,99,10,32,8,6,0.9,0.9
2026-04-15T1300,3345A,131.0413,45.7795,七台河市,中波台,,29,22,34,9,18,92,92,71,71,12,12,4,4,0.2,0.4
2026-04-15T1300,3637A,131.0136,45.7688,七台河市,人民广场,,30,22,44,3,16,96,96,79,79,6,15,10,10,0.4,0.5
2026-04-15T1300,3684A,130.8639,45.8144,七台河市,新建矿广场,NA,NA,24,50,12,21,89,89,66,66,8,20,NA,12,0.2,0.2
2026-04-15T1300,1779A,123.9307,47.3641,齐齐哈尔市,安居小区,颗粒物(PM10),59,62,52,35,26,123,123,96,96,9,13,5,4,0.3,0.3
2026-04-15T1300,1780A,123.9497,47.3389,齐齐哈尔市,中心广场,颗粒物(PM10),63,68,56,30,27,115,115,91,91,7,11,4,5,0.4,0.4
2026-04-15T1300,1781A,123.9483,47.3229,齐齐哈尔市,农牧车辆厂,颗粒物(PM10),56,58,52,22,28,122,122,97,97,9,12,7,8,0.2,0.2
2026-04-15T1300,1783A,123.9442,47.2994,齐齐哈尔市,市环境监测站,颗粒物(PM10),53,53,47,24,27,116,116,96,96,8,11,3,4,0.5,0.5
2026-04-15T1300,3662A,123.6341,47.2079,齐齐哈尔市,富区青少年活动中心,颗粒物(PM10),69,76,57,24,26,115,115,89,89,8,10,4,4,0.5,0.5
2026-04-15T1300,2591A,107.9765,26.5724,黔东南苗族侗族自治州,市环境监测站,,18,18,16,7,11,33,33,53,38,10,6,2,3,0.6,0.5
2026-04-15T1300,2881A,107.8909,26.531,黔东南苗族侗族自治州,凯里学院,,24,24,19,7,11,40,40,57,45,9,6,2,3,0.5,0.5
2026-04-15T1300,2593A,107.5223,26.2371,黔南布依族苗族自治州,小围寨,,17,17,19,3,13,35,35,47,40,8,7,6,5,0.4,0.4
2026-04-15T1300,3538A,107.5175,26.2977,黔南布依族苗族自治州,沙坝,,24,24,23,9,14,32,32,46,39,11,7,4,4,0.7,0.6
2026-04-15T1300,2589A,104.9022,25.0943,黔西南布依族苗族自治州,场坝街,NA,NA,55,62,37,49,153,153,82,81,NA,13,7,13,0.4,0.6
2026-04-15T1300,2590A,104.8812,25.0994,黔西南布依族苗族自治州,坪东大道,细颗粒物(PM2.5),58,NA,64,39,54,156,156,88,88,7,17,4,6,0.5,0.6
2026-04-15T1300,2502A,108.6238,21.9667,钦州市,市环保站,颗粒物(PM10),55,56,51,22,28,67,67,44,44,11,11,6,6,0.7,0.8
2026-04-15T1300,2503A,108.655,21.9481,钦州市,沙埠小学,颗粒物(PM10),65,70,57,34,32,69,69,40,40,9,15,5,6,0.6,0.7
2026-04-15T1300,2504A,108.5989,21.7435,钦州市,港区一小,细颗粒物(PM2.5),54,54,68,37,37,79,79,37,37,9,18,3,3,0.7,0.7
2026-04-15T1300,3404A,108.5959,21.9634,钦州市,北职校,颗粒物(PM10),52,52,52,28,31,61,61,40,40,12,10,7,6,0.5,0.6
2026-04-15T1300,1046A,119.5247,39.9346,秦皇岛市,建设大厦,细颗粒物(PM2.5),68,72,82,44,46,116,116,56,56,18,43,7,7,0.5,0.5
2026-04-15T1300,3132A,119.5979,39.938,秦皇岛市,文明里,颗粒物(PM10),70,77,81,32,48,117,117,56,56,23,55,11,11,0.4,0.5
2026-04-15T1300,4066A,119.7458,39.9952,秦皇岛市,南园路157号,细颗粒物(PM2.5),68,57,77,44,48,114,114,66,66,16,51,8,9,0.4,0.5
2026-04-15T1300,4067A,119.5131,39.8858,秦皇岛市,翠岛大街1号,细颗粒物(PM2.5),62,NA,59,41,46,113,113,65,65,20,38,8,9,0.4,0.5
2026-04-15T1300,4198A,119.509013,39.825305,秦皇岛市,北戴河轮滑馆,细颗粒物(PM2.5),78,68,64,49,42,125,125,72,72,16,29,9,9,0.5,0.5
2026-04-15T1300,1310A,120.404,36.0625,青岛市,市南区东部子站,,50,48,44,35,23,72,72,82,78,81,43,15,8,0.4,0.4
2026-04-15T1300,1311A,120.362344,36.10282,青岛市,四方区子站,,36,34,45,21,25,114,114,84,68,36,35,9,9,0.7,0.8
2026-04-15T1300,1312A,120.294373,36.054183,青岛市,市南区西部子站,细颗粒物(PM2.5),72,70,53,46,27,47,47,51,40,85,57,11,6,0.7,0.6
2026-04-15T1300,1313A,120.4581,36.0858,青岛市,崂山区子站,颗粒物(PM10),51,51,47,32,22,71,71,84,78,72,38,17,10,0.5,0.5
2026-04-15T1300,1315A,120.3945,36.3083,青岛市,城阳区子站,臭氧1小时(O3_1h),85,73,63,39,28,188,188,99,99,21,43,9,8,0.7,0.7
2026-04-15T1300,3642A,120.3454,36.0735,青岛市,市北区南部,NA,NA,69,44,28,23,86,86,77,68,NA,31,NA,8,0.5,0.6
2026-04-15T1300,3643A,120.3897,36.18,青岛市,李沧区北部,颗粒物(PM10),53,53,55,25,27,128,128,82,82,31,35,13,10,0.6,0.6
2026-04-15T1300,4110A,120.5222,36.4089,青岛市,盟旺路653号,臭氧1小时(O3_1h),80,53,53,39,23,184,184,112,112,11,26,6,5,0.7,0.8
2026-04-15T1300,4290A,120.196923,35.954556,青岛市,珠江路669号,细颗粒物(PM2.5),68,66,58,44,23,131,131,63,63,36,45,11,7,0.8,0.7
2026-04-15T1300,4291A,120.0424,35.8656,青岛市,黄岛区人民政府广场,NA,NA,NA,53,34,20,90,90,64,64,42,40,13,10,0.7,0.7
2026-04-15T1300,1703A,113.0218,23.7086,清远市,凤城街办,,35,35,39,18,22,50,50,21,21,21,33,/,/,/,/
2026-04-15T1300,3025A,113.0479,23.6343,清远市,技师学院,,29,29,44,12,21,62,62,31,31,15,34,4,5,0.4,0.4
2026-04-15T1300,3318A,112.9898,23.7403,清远市,清新太和,,37,37,39,18,20,57,57,26,26,18,29,9,8,0.5,0.5
2026-04-15T1300,3455A,113.076,23.72,清远市,清城东城,,16,16,41,9,22,47,47,22,22,21,30,/,/,/,/
2026-04-15T1300,2661A,107.6325,35.7357,庆阳市,庆阳五中,颗粒物(PM10),58,60,91,29,36,116,116,102,102,10,12,5,4,0.4,0.4
2026-04-15T1300,2662A,107.6361,35.7067,庆阳市,市环保局,颗粒物(PM10),116,160,96,29,38,119,119,108,108,11,14,6,6,0.4,0.5
2026-04-15T1300,1916A,103.7897,25.5036,曲靖市,环境监测站,颗粒物(PM10),70,78,64,42,39,156,156,140,140,7,11,7,8,0.9,0.5
2026-04-15T1300,1917A,103.8013,25.5357,曲靖市,烟厂办公区,颗粒物(PM10),65,70,70,29,36,143,143,122,122,5,10,7,8,0.4,0.5
2026-04-15T1300,3376A,103.7926,25.4651,曲靖市,南苑二区,颗粒物(PM10),65,70,68,32,38,146,146,124,124,6,8,4,4,0.5,0.5
2026-04-15T1300,3377A,103.7442,25.5259,曲靖市,曲靖师范学院,细颗粒物(PM2.5),54,53,75,37,43,150,150,125,125,5,11,3,5,0.3,0.5
2026-04-15T1300,1264A,118.8694,28.94,衢州市,环保大楼,颗粒物(PM10),51,51,53,33,34,94,94,43,43,15,28,/,/,/,/
2026-04-15T1300,1266A,118.8622,28.9809,衢州市,衢州学院,,46,37,44,32,36,88,88,45,45,20,34,6,6,0.5,0.5
2026-04-15T1300,4097A,118.9646,28.9832,衢州市,衢州三中,NA,NA,54,53,39,36,94,94,43,43,15,28,NA,7,NA,0.6
2026-04-15T1300,1611A,118.5818,24.9116,泉州市,涂山街,,44,44,41,26,23,61,61,38,38,24,27,4,5,0.9,0.7
2026-04-15T1300,1612A,118.597,24.8976,泉州市,津头埔,,40,40,38,28,25,66,66,41,41,20,23,4,5,0.8,0.5
2026-04-15T1300,1613A,118.6669,24.9422,泉州市,万安,,48,48,39,30,24,61,61,42,42,22,22,4,4,0.8,0.5
2026-04-15T1300,4105A,118.6355,24.9148,泉州市,霞新路6号,,40,36,34,28,24,62,62,40,40,22,24,/,/,0.7,0.5
2026-04-15T1300,2626A,88.8873,29.2723,日喀则市,日喀则监测站,,39,27,32,3,9,123,123,126,118,6,5,10,9,0.4,0.4
2026-04-15T1300,3726A,88.8775,29.2425,日喀则市,林业技术推广中心,,40,28,44,3,6,126,126,126,120,5,4,8,5,0.4,0.4
2026-04-15T1300,1659A,119.4711,35.421,日照市,监测站,颗粒物(PM10),51,51,49,19,23,111,111,48,48,34,52,17,10,1.1,0.8
2026-04-15T1300,1660A,119.523,35.4216,日照市,市政府广场,,41,41,48,17,23,108,108,64,64,35,43,15,9,1.0,0.8
2026-04-15T1300,1661A,119.5511,35.4113,日照市,港务局,NA,NA,NA,69,NA,27,92,92,60,60,62,58,34,8,NA,0.7
2026-04-15T1300,3507A,119.5326,35.4627,日照市,职业技术学院,,36,34,37,20,20,115,115,86,86,38,39,16,10,1.0,0.7
2026-04-15T1300,3604A,119.3267,35.1043,日照市,岚山环保分局,"颗粒物(PM10),细颗粒物(PM2.5)",60,63,80,40,35,154,154,82,82,31,41,37,28,2.1,1.4
2026-04-15T1300,1835A,111.1922,34.7752,三门峡市,市政府,颗粒物(PM10),71,79,50,19,31,119,119,85,85,9,21,10,13,0.4,0.5
2026-04-15T1300,1836A,111.1588,34.794,三门峡市,开发区,,40,40,55,17,35,121,121,82,82,10,14,12,14,0.4,0.5
2026-04-15T1300,3039A,111.1911,34.7829,三门峡市,三门峡市第一小学,颗粒物(PM10),81,93,54,18,31,125,125,85,85,9,18,14,16,0.3,0.5
2026-04-15T1300,3598A,111.1031,34.719,三门峡市,富达温泉假日酒店,,50,50,55,22,31,119,119,92,92,11,16,14,16,0.4,0.4
2026-04-15T1300,2324A,117.621,26.2626,三明市,三钢,NA,NA,49,48,36,38,100,100,52,52,NA,14,8,12,1.3,1.4
2026-04-15T1300,2325A,117.6352,26.2714,三明市,三明二中,细颗粒物(PM2.5),56,46,50,38,41,98,98,51,51,10,14,7,4,1.1,0.8
2026-04-15T1300,2326A,117.6028,26.2377,三明市,三元区政府,细颗粒物(PM2.5),58,56,49,39,37,97,97,46,46,8,15,10,10,0.9,0.9
2026-04-15T1300,1877A,109.4962,18.2682,三亚市,河西子站,,20,20,22,10,11,51,51,53,52,2,4,4,4,0.4,0.4
2026-04-15T1300,3540A,109.7348,18.3443,三亚市,君悦子站,,16,10,21,8,8,49,49,41,41,3,5,3,3,0.3,0.4
2026-04-15T1300,4135A,109.1714,18.3739,三亚市,城东小学站,,26,26,26,9,12,54,54,49,49,3,5,/,/,/,/
2026-04-15T1300,2624A,91.7592,29.234,山南市,山南监测站,,40,17,31,3,7,125,125,116,112,7,3,12,10,0.2,0.2
2026-04-15T1300,2625A,91.7701,29.2436,山南市,山南人民医院,,39,16,44,3,9,123,123,114,110,5,3,9,9,0.2,0.2
2026-04-15T1300,1674A,116.6795,23.3666,汕头市,金平子站,,28,28,22,14,17,77,77,41,41,8,13,5,4,0.5,0.6
2026-04-15T1300,1675A,116.7248,23.3632,汕头市,龙湖子站,,23,23,22,14,16,60,60,39,39,6,5,8,6,/,/
2026-04-15T1300,1676A,116.7257,23.2774,汕头市,濠江子站,,30,30,29,8,14,56,56,34,34,11,12,8,8,/,/
2026-04-15T1300,1677A,116.7518,23.4712,汕头市,澄海子站,,32,32,28,14,18,79,79,48,48,2,9,7,7,0.6,0.7
2026-04-15T1300,1678A,116.6088,23.2539,汕头市,潮阳子站,,24,24,23,11,16,59,59,40,40,5,6,6,6,0.5,0.5
2026-04-15T1300,3444A,116.4539,23.2684,汕头市,潮南峡山,,22,18,24,13,16,70,70,37,37,1,4,6,7,0.6,0.6
2026-04-15T1300,3624A,116.4069,23.2533,汕头市,潮南子站,,31,31,24,14,13,64,64,39,39,2,3,6,6,/,/
2026-04-15T1300,1693A,115.3653,22.7751,汕尾市,市环保局,,27,27,18,10,12,52,52,38,38,3,4,5,5,0.4,0.4
2026-04-15T1300,1695A,115.362,22.7926,汕尾市,新城中学,,19,19,14,9,11,52,52,40,40,4,5,6,6,0.4,0.4
2026-04-15T1300,2645A,109.9155,33.8714,商洛市,监测站,,31,30,31,18,19,98,98,46,46,6,14,6,9,0.5,0.5
2026-04-15T1300,3045A,109.9647,33.8486,商洛市,商州区中学,,31,NA,30,18,16,97,97,48,48,6,15,5,6,0.5,0.5
2026-04-15T1300,2408A,115.6701,34.4283,商丘市,环境监测站,,46,46,49,29,29,142,142,72,72,6,20,6,4,0.4,0.4
2026-04-15T1300,2409A,115.6458,34.4047,商丘市,粮食局,,49,49,41,34,26,140,140,81,81,9,21,7,5,0.4,0.4
2026-04-15T1300,3171A,115.6069,34.4465,商丘市,梁园区档案局,,48,47,48,33,27,151,151,78,78,9,25,6,5,0.3,0.3
2026-04-15T1300,4119A,115.6701,34.3767,商丘市,北海东路185号,,46,46,43,24,21,139,139,72,72,7,20,8,5,0.4,0.4
2026-04-15T1300,4120A,115.6172,34.3704,商丘市,中山大街3号,颗粒物(PM10),51,51,50,28,29,144,144,73,73,10,29,9,6,0.3,0.3
2026-04-15T1300,1141A,121.401,31.2382,上海市,普陀,,41,16,41,11,32,129,129,88,88,20,33,7,6,0.4,0.8
2026-04-15T1300,1142A,121.4774,31.2043,上海市,十五厂,,42,23,45,14,35,134,134,95,95,26,39,5,6,0.4,0.9
2026-04-15T1300,1143A,121.4673,31.3011,上海市,虹口,,38,16,41,14,36,120,120,82,82,13,37,4,5,0.5,0.8
2026-04-15T1300,1147A,121.4253,31.226,上海市,静安监测站,,40,17,40,12,34,125,125,89,89,22,39,11,8,0.7,0.9
2026-04-15T1300,1148A,121.7029,31.1905,上海市,浦东川沙,,39,13,40,11,34,122,122,95,95,15,41,7,8,0.5,0.8
2026-04-15T1300,1149A,121.5339,31.229,上海市,浦东新区监测站,,39,16,44,13,36,123,123,86,86,20,36,6,6,0.4,0.8
2026-04-15T1300,1150A,121.5776,31.2038,上海市,浦东张江,NA,NA,16,38,14,32,138,138,92,92,NA,36,7,6,0.3,0.5
2026-04-15T1300,3265A,121.4242,31.3303,上海市,宝山庙行,,40,21,45,10,30,125,125,85,85,14,39,7,7,0.4,0.6
2026-04-15T1300,3266A,121.8789,31.4662,上海市,崇明上实东滩,,37,11,22,10,20,118,118,102,102,4,7,6,5,0.3,0.4
2026-04-15T1300,3268A,121.316,31.2839,上海市,嘉定南翔,,38,14,41,11,34,119,119,72,72,11,34,4,4,0.4,0.8
2026-04-15T1300,3269A,121.3357,30.7455,上海市,金山新城,,42,33,47,29,43,107,107,52,52,11,27,4,4,0.7,1.1
2026-04-15T1300,3270A,121.4996,31.0741,上海市,闵行浦江,,36,12,43,10,36,115,115,75,75,16,38,6,6,0.3,0.8
2026-04-15T1300,3271A,121.2886,31.1663,上海市,青浦徐泾,,42,18,46,14,39,132,132,86,86,21,36,6,5,0.4,0.9
