timepoint,stationcode,longitude,latitude,area,positionname,primarypollutant,aqi,pm10,pm10_24h,pm2_5,pm2_5_24h,o3,o3_24h,o3_8h,o3_8h_24h,no2,no2_24h,so2,so2_24h,co,co_24h
2026-04-15T1400,2568A,102.2503,31.8896,阿坝藏族羌族自治州,马师校,,37,12,15,3,8,118,118,68,68,5,5,6,6,0.3,0.4
2026-04-15T1400,3994A,102.2174,31.9016,阿坝藏族羌族自治州,马尔康中学西区,,34,6,12,6,7,108,108,65,65,6,6,4,4,0.3,0.3
2026-04-15T1400,2695A,80.2899,41.1684,阿克苏地区,电视台,颗粒物(PM10),92,108,133,52,46,115,115,86,76,10,15,3,2,0.5,0.6
2026-04-15T1400,2696A,80.2592,41.1541,阿克苏地区,艺术中心,颗粒物(PM10),76,86,134,45,49,118,118,86,70,14,18,3,4,0.4,0.4
2026-04-15T1400,2205A,105.699,38.8409,阿拉善盟,蒙二幼,NA,NA,58,32,25,10,113,113,107,107,3,5,10,9,NA,0.5
2026-04-15T1400,2206A,105.7198,38.8508,阿拉善盟,环保局新楼,,43,43,33,12,9,110,110,109,105,5,5,10,8,0.5,0.5
2026-04-15T1400,2708A,88.1266,47.8515,阿勒泰地区,市站,颗粒物(PM10),98,116,168,8,24,84,84,91,86,5,4,6,5,0.2,0.2
2026-04-15T1400,4166A,88.1198,47.7931,阿勒泰地区,阿勒泰路33号,颗粒物(PM10),52,52,186,10,27,87,87,75,75,3,4,6,6,0.3,0.2
2026-04-15T1400,2630A,80.1171,32.4999,阿里地区,阿里监测站,NA,NA,NA,12,1,6,124,124,95,93,1,6,4,6,0.4,0.4
2026-04-15T1400,3192A,80.0906,32.5029,阿里地区,阿里藏医院,,40,6,13,3,4,128,128,108,101,1,4,5,6,0.4,0.4
2026-04-15T1400,2644A,109.0088,32.6974,安康市,汉滨区检察院,,36,36,29,25,16,39,39,21,21,11,10,5,5,0.6,0.5
2026-04-15T1400,4054A,109.0324,32.6913,安康市,市邮政管理局,,45,45,36,31,20,42,42,24,24,13,14,5,5,0.8,0.7
2026-04-15T1400,2291A,117.0806,30.5181,安庆市,环科院,,38,27,22,20,16,120,120,72,72,5,11,6,6,0.5,0.5
2026-04-15T1400,2292A,117.0331,30.5118,安庆市,马山宾馆,,35,27,22,16,16,110,110,72,72,3,8,5,5,0.5,0.5
2026-04-15T1400,2294A,116.9897,30.6146,安庆市,安庆大学,,31,21,23,13,12,98,98,67,67,4,8,3,2,0.4,0.4
2026-04-15T1400,3173A,117.0598,30.5351,安庆市,市人大,颗粒物(PM10),85,98,28,16,15,112,112,74,74,5,10,7,7,0.5,0.5
2026-04-15T1400,3123A,105.9408,26.2431,安顺市,凤凰山,细颗粒物(PM2.5),96,NA,55,58,38,143,143,76,76,7,9,9,9,0.6,0.6
2026-04-15T1400,3124A,105.9443,26.2567,安顺市,金钟山,细颗粒物(PM2.5),96,60,54,58,39,128,128,70,70,7,7,8,11,0.7,0.6
2026-04-15T1400,3125A,105.8983,26.248,安顺市,娄家坡,细颗粒物(PM2.5),98,59,50,59,39,133,133,73,73,6,7,17,16,0.6,0.6
2026-04-15T1400,1819A,114.3552,36.1017,安阳市,红庙街,NA,NA,57,64,28,34,133,133,83,83,9,18,NA,5,0.3,0.2
2026-04-15T1400,1820A,114.361,36.0681,安阳市,银杏小区,颗粒物(PM10),51,51,62,28,38,131,131,88,88,6,17,7,6,0,0
2026-04-15T1400,3141A,114.3921,36.0879,安阳市,信访局,,42,42,51,18,35,134,134,87,87,8,15,4,4,0.4,0.4
2026-04-15T1400,3669A,114.4706,36.0634,安阳市,左辅环卫站,颗粒物(PM10),55,57,51,18,27,125,125,67,67,9,17,3,2,0.4,0.3
2026-04-15T1400,4117A,114.2918,36.0769,安阳市,钢三路198号,,47,47,61,22,34,130,130,77,77,7,18,6,6,0.4,0.5
2026-04-15T1400,1748A,123.0441,41.1201,鞍山市,深沟寺,,49,49,111,29,79,127,127,82,82,18,32,11,11,0.8,0.9
2026-04-15T1400,1749A,123.011,41.0931,鞍山市,太阳城,细颗粒物(PM2.5),52,47,121,36,92,122,122,86,86,12,27,9,13,0.8,1.3
2026-04-15T1400,1750A,123.0483,41.1445,鞍山市,太平,"颗粒物(PM10),细颗粒物(PM2.5)",58,61,122,39,86,121,121,76,76,17,32,11,10,1.0,1.1
2026-04-15T1400,1751A,122.964,41.0968,鞍山市,铁西三道街,细颗粒物(PM2.5),58,56,127,39,95,124,124,80,80,16,37,7,15,0.8,1.4
2026-04-15T1400,1753A,123.0219,41.0822,鞍山市,明达新区,,46,46,110,31,84,123,123,97,97,14,27,10,13,0.8,1.2
2026-04-15T1400,4201A,122.944647,41.082639,鞍山市,兴盛南路290号,细颗粒物(PM2.5),62,48,135,41,103,128,128,73,73,18,46,7,14,0.5,1.3
2026-04-15T1400,2195A,107.4206,40.7609,巴彦淖尔市,附二中,颗粒物(PM10),77,87,59,24,16,121,121,77,77,9,15,12,11,0.4,0.4
2026-04-15T1400,2196A,107.37,40.7372,巴彦淖尔市,市环保大楼,颗粒物(PM10),63,68,53,17,15,123,123,81,81,9,13,8,7,0.4,0.3
2026-04-15T1400,1956A,86.1476,41.7529,巴音郭楞蒙古自治州,孔雀公园,细颗粒物(PM2.5),118,142,98,79,42,99,99,83,76,2,10,9,10,0.1,0.2
2026-04-15T1400,1957A,86.1971,41.7166,巴音郭楞蒙古自治州,棉纺厂,颗粒物(PM10),139,221,120,64,39,104,104,88,88,2,11,/,/,/,/
2026-04-15T1400,1958A,86.236,41.7172,巴音郭楞蒙古自治州,经济开发区,NA,NA,NA,96,NA,36,NA,NA,83,83,4,8,7,8,0.2,0.2
2026-04-15T1400,3181A,106.776805,31.852614,巴中市,市五中,,37,37,24,7,9,57,57,30,30,8,11,9,8,0.6,0.7
2026-04-15T1400,3183A,106.7419,31.8654,巴中市,圣泉水务公司,,20,15,18,7,10,64,64,33,33,9,17,8,8,0.6,0.7
2026-04-15T1400,3616A,106.7617,31.8343,巴中市,市中心医院,,22,14,19,7,9,68,68,31,31,6,12,9,8,0.5,0.6
2026-04-15T1400,2235A,122.7909,45.608,白城市,洮北区环保局,颗粒物(PM10),78,88,53,39,35,146,146,109,109,4,6,6,7,0.1,0.1
2026-04-15T1400,2236A,122.8741,45.5725,白城市,市环保局,颗粒物(PM10),100,119,67,43,37,118,118,75,75,16,41,4,6,0.3,0
2026-04-15T1400,2231A,126.4219,41.9172,白山市,喜丰,NA,NA,36,155,14,140,116,116,98,98,9,24,8,10,NA,1.2
2026-04-15T1400,2232A,126.4082,41.9416,白山市,环保局,,39,32,127,9,136,122,122,100,100,10,22,6,12,0.5,0.9
2026-04-15T1400,2647A,104.1727,36.5448,白银市,第三小学,颗粒物(PM10),59,62,51,28,23,103,103,82,82,3,16,10,27,0.3,0.5
2026-04-15T1400,2648A,104.1467,36.5482,白银市,动力公司,颗粒物(PM10),65,70,46,27,19,102,102,71,71,6,20,6,17,0.2,0.4
2026-04-15T1400,2512A,106.6102,23.901,百色市,市监测站,细颗粒物(PM2.5),122,112,95,84,71,160,160,101,101,12,15,16,21,1.1,1
2026-04-15T1400,2513A,106.6524,23.8842,百色市,市中心血站,细颗粒物(PM2.5),137,103,93,100,88,161,161,105,105,5,9,15,21,1.3,1.2
2026-04-15T1400,4133A,106.6273,23.8798,百色市,龙景西路,细颗粒物(PM2.5),121,108,108,83,78,161,161,95,95,13,16,19,21,0.8,0.7
2026-04-15T1400,2270A,117.396,32.9389,蚌埠市,工人疗养院,颗粒物(PM10),55,56,67,22,34,134,134,101,101,14,25,6,6,0.3,0.4
2026-04-15T1400,2271A,117.3606,32.9428,蚌埠市,百货大楼,,42,39,55,20,32,134,134,100,100,8,22,7,7,0.3,0.4
2026-04-15T1400,2273A,117.4183,32.8909,蚌埠市,蚌埠学院,,42,34,51,17,32,132,132,81,81,6,27,6,6,0.4,0.5
2026-04-15T1400,2274A,117.3534,32.9672,蚌埠市,淮上区政府,,44,41,62,23,32,140,140,108,108,9,28,6,6,0.2,0.3
2026-04-15T1400,2275A,117.3143,32.8977,蚌埠市,高新区,,41,27,51,11,30,130,130,95,95,4,23,7,8,0.4,0.5
2026-04-15T1400,3715A,117.3091,32.9314,蚌埠市,蚌埠田家炳中学,,45,40,64,17,32,142,142,104,104,8,29,7,7,0.3,0.4
2026-04-15T1400,1585A,109.8761,40.6533,包头市,市环境监测站,,48,48,72,14,23,124,124,70,70,13,43,6,10,0.4,0.6
2026-04-15T1400,1587A,109.9992,40.5843,包头市,包头八中,颗粒物(PM10),63,67,91,22,30,107,107,66,66,14,40,9,18,0.5,0.9
2026-04-15T1400,1589A,109.8641,40.6288,包头市,惠龙物流,颗粒物(PM10),65,70,64,23,26,114,114,70,70,13,35,6,11,0.4,0.6
2026-04-15T1400,1590A,110.0376,40.5546,包头市,东河鸿龙湾,颗粒物(PM10),65,70,103,16,36,100,100,66,66,16,48,11,14,0.4,0.5
2026-04-15T1400,3283A,109.9154,40.5684,包头市,滨河大厦,颗粒物(PM10),55,56,72,31,28,105,105,64,64,17,43,10,13,0.6,0.6
2026-04-15T1400,3419A,109.9449,40.6259,包头市,包头市委党校,颗粒物(PM10),63,68,66,9,20,112,112,66,66,15,37,6,16,0.4,0.7
2026-04-15T1400,3683A,109.8332,40.6577,包头市,昆区政府,颗粒物(PM10),66,72,65,22,25,114,114,71,71,17,47,4,7,0.5,0.7
2026-04-15T1400,1931A,107.0802,34.3129,宝鸡市,竹园沟,细颗粒物(PM2.5),113,86,61,74,45,112,112,65,65,12,12,8,8,0.5,0.5
2026-04-15T1400,1933A,107.1429,34.3549,宝鸡市,监测站,NA,NA,94,84,47,45,117,117,64,64,NA,25,7,6,0.5,0.4
2026-04-15T1400,1934A,107.1172,34.3759,宝鸡市,技工学校,细颗粒物(PM2.5),88,71,70,54,48,121,121,65,65,11,13,6,5,0.6,0.6
2026-04-15T1400,1936A,107.2025,34.3518,宝鸡市,文理学院,细颗粒物(PM2.5),88,59,70,54,47,109,109,64,64,12,16,7,6,0.6,0.6
2026-04-15T1400,1937A,107.2396,34.3626,宝鸡市,三迪小学,NA,NA,63,72,48,43,105,105,53,53,NA,17,8,7,0.6,0.6
2026-04-15T1400,4155A,107.1721,34.3558,宝鸡市,滨河北路,细颗粒物(PM2.5),84,78,76,52,46,105,105,58,58,11,16,8,8,0.6,0.7
2026-04-15T1400,4308A,107.3898,34.3601,宝鸡市,陈仓区北开路21号,细颗粒物(PM2.5),80,65,81,50,45,108,108,63,63,9,18,10,10,0.6,0.6
2026-04-15T1400,1051A,115.4803,38.8568,保定市,游泳馆,细颗粒物(PM2.5),142,127,119,106,78,176,176,105,105,24,39,4,4,0.6,0.8
2026-04-15T1400,1052A,115.509,38.8895,保定市,华电二区,细颗粒物(PM2.5),146,131,113,110,76,183,183,97,97,22,37,5,4,0.7,0.8
2026-04-15T1400,1053A,115.4588,38.9037,保定市,接待中心,细颗粒物(PM2.5),134,136,121,97,73,176,176,101,101,21,37,4,4,0.7,0.7
2026-04-15T1400,1054A,115.4484,38.8344,保定市,地表水厂,细颗粒物(PM2.5),139,156,124,102,72,172,172,107,107,25,38,6,7,0.7,0.8
2026-04-15T1400,3581A,115.3136,38.9511,保定市,满城区生态环境分局,细颗粒物(PM2.5),113,146,146,74,63,192,192,118,118,23,38,7,6,0.7,0.8
2026-04-15T1400,3582A,115.4709,38.7628,保定市,清苑区第二中学,细颗粒物(PM2.5),125,158,156,87,73,164,164,125,125,24,42,7,8,0.7,0.8
2026-04-15T1400,3583A,115.6231,39.0223,保定市,徐水物探局,细颗粒物(PM2.5),146,190,158,110,79,173,173,100,100,24,46,6,6,1.0,1.1
2026-04-15T1400,4004A,115.4199,38.8665,保定市,双鹰农机,NA,NA,NA,146,NA,74,169,169,98,98,22,38,NA,7,0.6,0.7
2026-04-15T1400,4034A,115.515,38.8589,保定市,植保所站,细颗粒物(PM2.5),130,166,124,92,73,170,170,97,97,23,42,5,7,0.7,0.9
2026-04-15T1400,2594A,99.1589,25.1137,保山市,市环境监测站,细颗粒物(PM2.5),88,89,85,54,51,152,152,100,84,6,13,9,7,0.4,0.4
2026-04-15T1400,2595A,99.1616,25.1381,保山市,市环保局,细颗粒物(PM2.5),102,96,87,62,57,153,153,115,103,NA,10,10,8,0.5,0.5
2026-04-15T1400,1867A,109.1435,21.4085,北海市,海滩公园,,42,42,43,28,28,90,90,56,56,6,9,6,7,0.5,0.5
2026-04-15T1400,1868A,109.0983,21.466,北海市,新市环保局,颗粒物(PM10),52,52,40,33,26,93,93,56,56,7,10,2,4,0.8,0.8
2026-04-15T1400,1869A,109.1775,21.5232,北海市,北海工业园,NA,NA,57,49,30,27,96,96,51,51,6,13,NA,8,0.8,0.7
2026-04-15T1400,3400A,109.1844,21.4396,北海市,龙潭自来水厂,,41,41,46,23,23,83,83,46,46,4,8,7,8,0.7,0.7
2026-04-15T1400,1001A,116.3611,39.8786,北京市,万寿西宫,细颗粒物(PM2.5),128,173,125,90,63,141,141,68,68,24,49,7,6,0.7,0.9
2026-04-15T1400,1003A,116.4174,39.9289,北京市,东四,细颗粒物(PM2.5),130,139,118,92,62,169,169,77,77,25,50,6,5,0.7,0.8
2026-04-15T1400,1004A,116.4073,39.8858,北京市,天坛,细颗粒物(PM2.5),121,125,102,83,56,144,144,65,65,24,41,7,5,0.8,0.9
2026-04-15T1400,1005A,116.4622,39.9364,北京市,农展馆,细颗粒物(PM2.5),127,136,110,89,61,161,161,70,70,22,45,7,5,1.0,1
2026-04-15T1400,1006A,116.3399,39.9293,北京市,官园,细颗粒物(PM2.5),133,137,119,96,64,138,138,65,65,29,44,6,5,0.7,0.8
2026-04-15T1400,1007A,116.2879,39.9613,北京市,海淀万柳,细颗粒物(PM2.5),132,145,110,95,63,132,132,55,55,31,50,8,6,0.9,0.8
2026-04-15T1400,1008A,116.6635,40.1349,北京市,顺义新城,细颗粒物(PM2.5),135,125,106,98,66,162,162,81,81,21,30,14,7,1.0,0.8
2026-04-15T1400,1009A,116.6275,40.327,北京市,怀柔镇,细颗粒物(PM2.5),130,136,91,93,58,150,150,74,74,17,15,10,6,1.2,0.9
2026-04-15T1400,1010A,116.2295,40.217,北京市,昌平镇,细颗粒物(PM2.5),137,153,94,100,59,131,131,80,80,41,24,8,5,1.1,0.9
2026-04-15T1400,1011A,116.3968,39.982,北京市,奥体中心,细颗粒物(PM2.5),123,135,111,85,58,135,135,59,59,26,49,7,6,0.9,1
2026-04-15T1400,3418A,116.8336,40.4095,北京市,密云新城,细颗粒物(PM2.5),137,134,101,100,61,150,150,73,73,12,23,9,5,1.0,0.8
2026-04-15T1400,3671A,116.0879,39.9725,北京市,门头沟三家店,细颗粒物(PM2.5),132,147,115,95,63,135,135,70,70,34,40,7,4,0.9,0.8
2026-04-15T1400,3672A,116.1507,39.8246,北京市,丰台云岗,细颗粒物(PM2.5),144,154,126,108,65,152,152,72,72,31,48,7,5,1.0,0.9
2026-04-15T1400,3674A,115.9578,39.7602,北京市,房山燕山,细颗粒物(PM2.5),136,NA,119,99,66,144,144,80,80,29,31,7,6,0.9,0.9
2026-04-15T1400,3675A,116.4669,39.7734,北京市,大兴旧宫,细颗粒物(PM2.5),126,139,115,88,60,159,159,70,70,21,44,5,6,0.8,1
2026-04-15T1400,3694A,115.9859,40.4562,北京市,延庆石河营,细颗粒物(PM2.5),121,128,88,83,62,144,144,94,94,18,20,5,2,0.9,0.7
2026-04-15T1400,3695A,116.6151,40.3052,北京市,怀柔新城,细颗粒物(PM2.5),130,139,89,93,57,144,144,72,72,19,14,9,5,1.1,0.9
2026-04-15T1400,3696A,116.2542,39.8764,北京市,丰台小屯,细颗粒物(PM2.5),129,136,119,91,66,134,134,64,64,30,57,7,5,0.9,0.9
2026-04-15T1400,3697A,116.8399,40.3843,北京市,密云镇,细颗粒物(PM2.5),129,135,101,91,58,151,151,68,68,13,28,10,6,1.0,0.8
2026-04-15T1400,4057A,115.9423,40.4431,北京市,延庆百泉,细颗粒物(PM2.5),118,136,95,79,55,130,130,89,89,21,20,4,2,0.9,0.7
2026-04-15T1400,4058A,116.6598,39.9164,北京市,通州新华,细颗粒物(PM2.5),125,137,124,87,64,143,143,74,74,22,51,8,6,0.9,1
2026-04-15T1400,4182A,116.1942,39.9158,北京市,石景山八角,细颗粒物(PM2.5),135,151,123,98,61,133,133,61,61,34,57,8,4,0.9,0.8
2026-04-15T1400,4194A,117.078628,40.151726,北京市,平谷新城,细颗粒物(PM2.5),110,102,97,70,56,160,160,84,84,16,27,9,6,0.9,0.9
2026-04-15T1400,1761A,123.8274146,41.31234549,本溪市,大峪,细颗粒物(PM2.5),58,53,116,39,83,129,129,88,88,28,21,25,10,2.8,1.1
2026-04-15T1400,1763A,123.7169,41.3094,本溪市,彩屯,,48,48,131,29,95,131,131,87,87,13,27,16,14,1.3,1.1
2026-04-15T1400,1764A,123.7672166,41.28649327,本溪市,东明,颗粒物(PM10),85,98,100,43,100,124,124,81,81,41,29,43,15,3.6,1
2026-04-15T1400,1765A,123.799345,41.266614,本溪市,新立屯,细颗粒物(PM2.5),86,69,96,53,90,133,133,79,79,31,25,30,12,3.2,1.1
2026-04-15T1400,1766A,123.829144,41.336777,本溪市,威宁,,46,46,122,24,87,125,125,78,78,17,27,14,9,1.6,0.9
2026-04-15T1400,2587A,105.287,27.3133,毕节市,八中,颗粒物(PM10),78,88,29,33,12,77,77,58,51,11,8,11,11,0.6,0.5
2026-04-15T1400,2588A,105.3079,27.2987,毕节市,师专,,48,48,23,25,12,88,88,58,56,7,5,10,9,0.6,0.5
2026-04-15T1400,4263A,105.3688,27.3598,毕节市,工业大道,,48,48,20,24,8,91,91,62,60,6,6,13,10,/,/
2026-04-15T1400,1629A,117.9961,37.3604,滨州市,第二水厂,细颗粒物(PM2.5),114,105,95,75,69,192,192,123,123,14,24,12,12,0.8,0.6
2026-04-15T1400,1630A,117.9789,37.3931,滨州市,北中新校,臭氧1小时(O3_1h),98,83,90,52,63,198,198,125,125,13,29,18,18,0.6,0.6
2026-04-15T1400,3514A,117.9379,37.3959,滨州市,中海酒店,臭氧1小时(O3_1h),102,75,90,44,60,204,204,129,129,15,27,11,14,0.5,0.5
2026-04-15T1400,3515A,117.9381509,37.35547456,滨州市,开发区一中,细颗粒物(PM2.5),107,95,98,67,72,198,198,123,123,16,25,12,13,0.9,0.8
2026-04-15T1400,3516A,118.0914,37.6938,滨州市,金海六路,细颗粒物(PM2.5),105,76,83,65,68,207,207,140,140,11,24,15,14,0.5,0.4
2026-04-15T1400,4028A,117.9955,37.3752,滨州市,滨州市西街道办事处,细颗粒物(PM2.5),105,100,92,65,63,196,196,122,122,14,20,9,12,0.6,0.4
2026-04-15T1400,2311A,115.8071,33.8399,亳州市,污水处理厂,,45,34,44,16,24,143,143,88,88,9,21,9,7,0.2,0
2026-04-15T1400,2312A,115.7789,33.8519,亳州市,三国揽胜宫,,42,34,42,13,22,133,133,89,89,8,14,9,7,0.1,0.1
2026-04-15T1400,3332A,115.7631,33.803,亳州市,亳州学院,,43,30,47,14,22,136,136,94,94,5,11,10,8,0.2,0.2
2026-04-15T1400,2693A,82.0482,44.8553,博尔塔拉蒙古自治州,市党校,颗粒物(PM10),105,132,343,21,46,88,88,67,66,3,3,3,2,0.3,0.3
2026-04-15T1400,2694A,82.0805,44.8966,博尔塔拉蒙古自治州,市环保局,颗粒物(PM10),104,128,285,61,47,83,83,63,59,5,9,3,2,0.3,0.2
2026-04-15T1400,1071A,116.8733,38.2922,沧州市,沧县城建局,颗粒物(PM10),60,63,94,38,60,148,148,89,89,13,35,6,7,0.4,0.6
2026-04-15T1400,1072A,116.8462,38.3189,沧州市,电视转播站,颗粒物(PM10),56,58,99,34,67,150,150,98,98,10,29,9,9,0.2,0.5
2026-04-15T1400,1073A,116.8588,38.3161,沧州市,市环保局,细颗粒物(PM2.5),84,60,104,52,59,150,150,92,92,8,27,8,8,0.4,0.7
2026-04-15T1400,3324A,116.8011,38.294,沧州市,河北水利电力学院,颗粒物(PM10),58,61,89,38,62,140,140,95,95,11,28,7,8,0.3,0.6
2026-04-15T1400,2622A,97.1813,31.1289,昌都市,昌都监测站,,41,11,11,3,5,129,129,94,94,4,6,9,10,0.3,0.4
2026-04-15T1400,3719A,97.1707,31.1428,昌都市,昌都会议中心,,42,6,8,3,5,134,134,99,99,4,5,6,6,0.1,0.2
2026-04-15T1400,2692A,87.2722,44.0298,昌吉回族自治州,新区政务中心,,40,40,68,6,14,104,104,60,60,7,11,6,5,0.2,0.3
2026-04-15T1400,3613A,87.3069,44.0093,昌吉回族自治州,亚心广场,,48,48,86,6,14,111,111,64,64,4,10,6,6,0.2,0.3
2026-04-15T1400,4164A,87.2057,43.9289,昌吉回族自治州,财政所,颗粒物(PM10),52,52,73,3,14,105,105,64,64,7,9,8,7,0.5,0.3
2026-04-15T1400,1120A,125.2874,43.9024,长春市,客车厂,,39,36,53,26,41,123,123,82,82,9,30,7,7,0.4,0.5
2026-04-15T1400,1121A,125.2943,43.8508,长春市,邮电学院,,46,41,57,32,43,126,126,99,99,7,24,8,7,0.4,0.4
2026-04-15T1400,1122A,125.3648,43.8745,长春市,劳动公园,,46,46,58,27,43,125,125,79,79,8,27,7,7,0.3,0.4
2026-04-15T1400,1123A,125.3233,43.8781,长春市,园林处,,43,41,55,30,42,128,128,82,82,10,24,6,7,0.4,0.4
2026-04-15T1400,1124A,125.4604,43.7904,长春市,净月潭,,49,34,44,34,36,126,126,93,93,9,15,7,6,0.4,0.4
2026-04-15T1400,1126A,125.38,43.8422,长春市,经开区环卫处,,45,45,55,29,39,122,122,80,80,10,28,6,6,0.4,0.4
2026-04-15T1400,1127A,125.234,43.7761,长春市,高新区管委会,,42,42,47,25,37,119,119,88,88,7,23,8,8,0.5,0.5
2026-04-15T1400,1128A,125.1695,43.83,长春市,岱山公园,颗粒物(PM10),53,54,55,22,40,122,122,84,84,9,31,4,6,0.4,0.5
2026-04-15T1400,4281A,125.334645,43.916281,长春市,北亚泰大街1068号,,43,43,62,25,42,121,121,77,77,12,31,7,8,0.3,0.4
2026-04-15T1400,1335A,113.082,28.2421,长沙市,经开区环保局,,30,30,25,20,16,47,47,38,37,18,20,4,5,0.4,0.4
2026-04-15T1400,1336A,112.8873,28.2202,长沙市,高开区环保局,,29,22,24,20,17,60,60,46,46,9,13,5,6,0.4,0.4
2026-04-15T1400,1337A,113.0785,28.2012,长沙市,马坡岭,,33,30,26,23,19,55,55,34,34,9,18,5,5,0.7,0.7
2026-04-15T1400,1338A,112.9448,28.1894,长沙市,湖南师范大学,,29,26,24,20,16,58,58,50,50,13,11,5,6,0.6,0.6
2026-04-15T1400,1339A,113.0177,28.1322,长沙市,雨花区环保局,NA,NA,NA,22,NA,16,NA,NA,64,47,NA,12,NA,4,NA,0.6
2026-04-15T1400,1340A,112.9795,28.2593,长沙市,伍家岭,,38,33,25,26,19,49,49,40,40,16,16,4,4,0.3,0.3
2026-04-15T1400,1341A,113.002,28.1944,长沙市,火车新站,,32,27,23,22,19,56,56,48,47,13,14,4,5,0.4,0.4
2026-04-15T1400,1342A,112.9846,28.1177,长沙市,天心区环保局,,32,28,23,22,20,66,66,50,50,9,13,5,5,0.6,0.5
2026-04-15T1400,1343A,112.8906,28.1307,长沙市,湖南中医药大学,,26,23,23,18,16,57,57,44,44,14,17,5,5,0.6,0.6
2026-04-15T1400,1727A,113.1146,36.1547,长治市,清华站,,44,44,42,18,27,130,130,79,79,12,22,9,9,0.5,0.6
2026-04-15T1400,1730A,113.0887,36.2126,长治市,审计局,颗粒物(PM10),52,52,45,24,30,138,138,80,80,6,17,8,9,0.4,0.5
2026-04-15T1400,1731A,113.0845,36.1856,长治市,长治八中,NA,NA,NA,53,NA,27,133,133,78,78,NA,22,48,20,NA,0.7
2026-04-15T1400,2845A,113.1561,36.1912,长治市,德盛苑,,44,44,38,30,26,138,138,100,97,8,13,8,9,0.5,0.7
2026-04-15T1400,3568A,113.0603,36.0464,长治市,向阳小学,颗粒物(PM10),51,51,66,35,25,132,132,91,91,11,22,6,8,0.4,0.7
2026-04-15T1400,3569A,112.8788,36.315,长治市,屯留一中,,46,46,50,32,32,144,144,83,83,8,24,10,12,0.7,0.7
2026-04-15T1400,4189A,113.113092,36.199482,长治市,英华南巷50号,,50,50,51,25,30,137,137,84,84,5,14,8,8,0.7,1
2026-04-15T1400,4190A,113.23666,36.33435,长治市,学府街1号,,46,46,52,30,28,125,125,94,94,6,23,6,6,0.7,0.8
2026-04-15T1400,1854A,111.696,28.9725,常德市,市二中,,22,NA,27,15,19,69,69,38,38,3,15,8,9,0.7,0.8
2026-04-15T1400,3138A,111.7152,29.0288,常德市,武陵区永安,,22,14,24,12,16,70,70,47,47,4,9,6,6,0.6,0.7
2026-04-15T1400,3139A,111.6891,28.9881,常德市,鼎城区玉霞,,22,15,25,14,19,70,70,38,38,3,11,8,8,0.8,0.8
2026-04-15T1400,3140A,111.6651,29.0526,常德市,武陵区长庚,NA,NA,NA,23,NA,18,72,72,53,53,5,9,8,8,NA,0.8
2026-04-15T1400,1196A,119.9524,31.7586,常州市,市监测站,颗粒物(PM10),54,55,80,24,34,154,154,75,75,27,31,15,10,1.2,0.9
2026-04-15T1400,1200A,119.9351,31.703,常州市,武进监测站,颗粒物(PM10),55,57,82,23,38,157,157,70,70,22,33,3,5,1.0,0.9
2026-04-15T1400,3002A,119.9701,31.813,常州市,行政中心,颗粒物(PM10),77,87,62,34,36,148,148,72,72,25,34,11,6,1.0,0.6
2026-04-15T1400,3003A,120.0434,31.7726,常州市,经开区,臭氧1小时(O3_1h),53,43,76,20,36,162,162,76,76,14,33,7,3,1.0,1
2026-04-15T1400,3010A,119.8919,31.7892,常州市,钟楼,,49,48,55,29,41,154,154,75,75,26,33,12,8,1.0,0.7
2026-04-15T1400,3429A,119.8595,31.706,常州市,武进经发区,,48,47,58,31,32,152,152,71,71,26,44,8,5,1.1,1
2026-04-15T1400,3430A,119.5812,31.7256,常州市,金坛城区,,45,42,47,23,34,142,142,78,78,9,20,7,8,0.8,0.8
2026-04-15T1400,4089A,119.9551,31.863,常州市,崇义南街5-H号,颗粒物(PM10),75,85,62,28,32,164,164,84,84,31,33,12,7,1.2,0.8
2026-04-15T1400,2220A,120.4318,41.588,朝阳市,西梁,颗粒物(PM10),65,70,58,34,41,135,135,77,77,13,27,12,11,0.7,0.6
2026-04-15T1400,2221A,120.452,41.565,朝阳市,河畔小区,颗粒物(PM10),63,68,45,36,37,138,138,80,80,12,21,9,8,0.7,0.6
2026-04-15T1400,2222A,120.4176,41.5648,朝阳市,八里堡,颗粒物(PM10),60,63,52,34,41,136,136,86,86,15,29,9,10,0.7,0.8
2026-04-15T1400,3026A,116.6179,23.6608,潮州市,市政府,颗粒物(PM10),55,57,44,24,28,102,102,52,52,8,20,3,12,0.4,0.5
2026-04-15T1400,4036A,116.646,23.676,潮州市,金山,,49,49,36,23,25,114,114,50,50,5,11,4,4,0.4,0.4
2026-04-15T1400,2473A,113.0116,25.8228,郴州市,市职中,,16,16,19,8,16,21,21,25,17,12,13,6,6,0.7,0.6
2026-04-15T1400,2475A,113.0381,25.8074,郴州市,市审计局,,13,13,18,7,14,39,39,43,34,8,9,3,2,/,/
2026-04-15T1400,2476A,113.0348,25.7757,郴州市,市环保局,,23,23,24,10,14,21,21,31,20,14,15,8,6,0.6,0.5
2026-04-15T1400,4252A,113.0138,25.8011,郴州市,好美居路49号,,13,13,19,6,11,28,28,34,24,10,11,8,7,/,/
2026-04-15T1400,1431A,103.9727,30.7242,成都市,金泉两河,,35,NA,34,24,20,111,111,61,61,17,17,2,2,0.4,0.3
2026-04-15T1400,1432A,104.1423,30.6765,成都市,十里店,NA,NA,22,32,21,22,115,115,68,68,NA,15,4,4,0.5,0.5
2026-04-15T1400,1433A,104.0594,30.5765,成都市,三瓦窑,,36,30,32,17,23,113,113,57,57,2,12,2,2,0.4,0.5
2026-04-15T1400,1434A,104.1122,30.6306,成都市,沙河铺,,32,32,40,19,22,99,99,49,45,16,19,2,2,0.4,0.4
2026-04-15T1400,2880A,104.0219,30.6561,成都市,大石西路,,34,NA,37,19,23,108,108,54,54,13,17,4,4,0.5,0.5
2026-04-15T1400,3136A,104.2724,30.559,成都市,龙泉驿区区政府,,32,24,24,17,19,100,100,69,69,6,10,6,6,0.4,0.4
2026-04-15T1400,3357A,104.0028,30.6891,成都市,金博路,,34,NA,26,20,21,106,106,61,61,17,20,6,6,0.6,0.6
2026-04-15T1400,3359A,104.056,30.5228,成都市,华阳,,37,24,32,13,21,116,116,63,63,9,17,4,4,0.3,0.4
2026-04-15T1400,3488A,104.387954,30.746684,成都市,青石路225号,,33,17,33,16,22,105,105,62,62,6,15,6,6,0.5,0.5
2026-04-15T1400,3489A,104.0788,30.4054,成都市,科学城,,32,17,28,13,18,102,102,62,62,3,10,7,7,0.3,0.3
2026-04-15T1400,4011A,103.8505,30.6946,成都市,光华大道三段,,37,NA,35,24,20,118,118,62,62,21,17,3,3,0.4,0.3
2026-04-15T1400,4144A,104.3257,30.6406,成都市,八角井街185号,,33,24,36,10,18,103,103,58,58,7,13,3,4,0.4,0.4
2026-04-15T1400,4224A,104.2433276,30.53529463,成都市,鲸龙路1057号,,34,22,36,14,21,107,107,67,67,5,13,6,5,0.5,0.6
2026-04-15T1400,1062A,117.9531,40.908,承德市,铁路,细颗粒物(PM2.5),86,83,90,53,46,130,130,60,60,18,26,10,6,0.8,0.9
2026-04-15T1400,1063A,117.9397,40.9763,承德市,中国银行,细颗粒物(PM2.5),86,78,82,53,45,123,123,64,64,17,23,9,6,1.0,1
2026-04-15T1400,4073A,117.9462,40.95,承德市,杏林街1号,细颗粒物(PM2.5),92,99,86,56,51,135,135,66,66,13,24,7,6,0.8,1
2026-04-15T1400,4274A,117.7994,40.9605,承德市,滨河大街98号,细颗粒物(PM2.5),120,128,81,82,50,143,143,65,65,29,26,55,15,2.6,1.3
2026-04-15T1400,2314A,117.4698,30.6617,池州市,池州学院,,42,27,24,19,17,132,132,83,83,18,27,6,4,0.8,0.8
2026-04-15T1400,3237A,117.4918,30.6617,池州市,展览馆,,43,34,25,22,15,136,136,86,86,15,22,5,3,0.6,0.6
2026-04-15T1400,3333A,117.5626,30.695,池州市,第八中学,,37,31,22,19,14,116,116,78,78,22,26,7,4,0.7,0.7
2026-04-15T1400,3334A,117.5037,30.6242,池州市,第十二中学,,39,39,24,25,16,123,123,75,75,21,28,5,3,0.8,0.8
2026-04-15T1400,1744A,118.9229,42.2816,赤峰市,松山一中,颗粒物(PM10),82,94,63,13,50,127,127,66,66,16,33,6,14,0.6,1
2026-04-15T1400,1745A,118.9588,42.2733,赤峰市,哈达街,颗粒物(PM10),61,65,66,16,49,134,134,76,76,14,38,12,33,0.5,1.1
2026-04-15T1400,1746A,118.8792,42.2551,赤峰市,天义路,,49,49,41,16,41,127,127,68,68,10,30,5,10,0.2,0.6
2026-04-15T1400,3058A,119.2656,42.0356,赤峰市,银河街,颗粒物(PM10),92,108,80,39,58,151,151,71,71,14,25,13,17,0.8,0.9
2026-04-15T1400,3286A,118.9359,42.3146,赤峰市,桥北物流园区,,45,45,56,10,51,124,124,67,67,6,32,3,10,0.6,1.1
2026-04-15T1400,2521A,107.3473,22.4137,崇左市,市环保局江州分局,细颗粒物(PM2.5),104,86,96,64,74,100,100,75,72,9,11,2,3,0.9,1
2026-04-15T1400,4256A,107.375,22.3736,崇左市,石景林东路7号,细颗粒物(PM2.5),109,85,84,69,71,112,112,87,80,11,12,3,4,1.0,1
2026-04-15T1400,3207A,118.31131,32.3033,滁州市,市政府原办公楼,细颗粒物(PM2.5),52,50,42,36,37,155,155,116,116,13,16,8,6,0.5,0.5
2026-04-15T1400,3331A,118.3268,32.2633,滁州市,图书馆,颗粒物(PM10),61,65,52,22,27,160,160,116,116,14,16,13,11,0.4,0.4
2026-04-15T1400,4101A,118.3196,32.3335,滁州市,银山路666号,颗粒物(PM10),53,54,50,31,29,148,148,115,115,12,17,9,7,0.6,0.5
2026-04-15T1400,4102A,118.3426,32.2979,滁州市,黄山路555号,颗粒物(PM10),60,64,66,35,33,166,166,121,121,11,20,10,7,0.6,0.6
2026-04-15T1400,2606A,101.5379,25.0492,楚雄彝族自治州,市经济开发区,细颗粒物(PM2.5),90,96,84,55,47,154,154,112,112,7,11,5,5,0.6,0.6
2026-04-15T1400,4153A,101.5536,25.0343,楚雄彝族自治州,团结路562号,颗粒物(PM10),85,98,75,52,47,162,162,115,115,7,10,4,5,0.5,0.4
2026-04-15T1400,2549A,107.5087,31.2186,达州市,市环境监测站,,17,17,22,6,6,36,36,14,14,11,21,6,6,0.2,0.3
2026-04-15T1400,2550A,107.4988,31.2132,达州市,凤凰小区,,19,19,21,3,7,40,40,18,18,9,21,5,5,0.2,0.3
2026-04-15T1400,2551A,107.5081,31.1987,达州市,达县机关宾馆,,17,17,24,7,8,33,33,17,17,16,24,5,4,0.3,0.4
2026-04-15T1400,2552A,107.4644,31.2124,达州市,市政中心,,28,28,27,3,6,45,45,18,18,11,25,5,5,0.4,0.4
2026-04-15T1400,2614A,100.2168,25.5818,大理白族自治州,大理市环境监测站,细颗粒物(PM2.5),78,75,70,49,46,129,129,116,116,10,12,5,5,0.4,0.4
2026-04-15T1400,2615A,100.1542,25.7055,大理白族自治州,大理古城,颗粒物(PM10),66,72,62,41,39,133,133,132,126,5,6,3,3,0.4,0.3
2026-04-15T1400,1109A,121.6119,38.974,大连市,甘井子,细颗粒物(PM2.5),80,81,97,50,55,159,159,106,106,26,29,10,12,0.7,0.5
2026-04-15T1400,1110A,121.565,38.9509,大连市,周水子,细颗粒物(PM2.5),82,80,97,51,61,138,138,98,98,25,38,8,8,0.7,0.8
2026-04-15T1400,1111A,121.5637,38.8849,大连市,星海三站,颗粒物(PM10),64,69,69,38,48,152,152,110,110,14,24,8,7,0.6,0.6
2026-04-15T1400,1112A,121.6301,38.9117,大连市,青泥洼桥,细颗粒物(PM2.5),84,71,89,52,57,146,146,108,108,12,27,7,8,0.8,0.8
2026-04-15T1400,1113A,121.6248,38.8643,大连市,傅家庄,细颗粒物(PM2.5),106,89,77,66,51,166,166,113,113,11,19,10,9,0.8,0.7
2026-04-15T1400,1114A,121.5117,38.8636,大连市,七贤岭,细颗粒物(PM2.5),78,60,68,49,44,147,147,117,117,16,19,8,9,0.6,0.7
2026-04-15T1400,1116A,121.7507,39.1339,大连市,金州,细颗粒物(PM2.5),107,98,102,67,61,154,154,107,107,23,24,6,6,0.8,0.7
2026-04-15T1400,1117A,121.7811,39.0495,大连市,开发区,细颗粒物(PM2.5),92,78,90,56,55,133,133,107,107,24,31,8,12,0.7,0.6
2026-04-15T1400,1118A,121.9762,39.0631,大连市,双D港,细颗粒物(PM2.5),107,67,79,67,56,136,136,115,115,24,22,5,8,0.6,0.7
2026-04-15T1400,4082A,121.2548,38.8188,大连市,旅顺,细颗粒物(PM2.5),82,73,91,51,64,145,145,102,102,10,20,8,10,0.6,0.6
2026-04-15T1400,1789A,124.8085,46.0381,大庆市,大同区,颗粒物(PM10),63,68,63,27,39,129,129,105,105,14,28,4,5,0.4,0.5
2026-04-15T1400,1790A,125.1166,46.5255,大庆市,龙凤区,,44,44,53,24,31,116,116,92,92,12,22,4,6,0.2,0.2
2026-04-15T1400,1791A,124.8894,46.4007,大庆市,红岗区,,37,36,47,17,34,118,118,99,99,4,10,4,9,0.1,0.2
2026-04-15T1400,1792A,125.1391,46.578,大庆市,萨尔图区,颗粒物(PM10),59,62,52,26,30,119,119,96,96,10,15,7,8,0.5,0.5
2026-04-15T1400,1793A,124.9026,46.6217,大庆市,让胡路区,,40,40,64,16,43,110,110,90,90,8,26,6,8,0.4,0.6
2026-04-15T1400,3481A,125.127,46.6277,大庆市,萨区政府监测点,,40,40,48,17,26,117,117,90,90,5,11,8,9,0.3,0.4
2026-04-15T1400,1723A,113.2926,40.0759,大同市,云冈宾馆,颗粒物(PM10),58,61,120,3,30,135,135,78,78,10,37,7,7,0.4,0.8
2026-04-15T1400,1724A,113.3437,40.0921,大同市,大同大学,颗粒物(PM10),112,149,121,9,24,145,145,91,91,8,38,3,5,0.3,0.9
2026-04-15T1400,1725A,113.2637,40.129,大同市,安家小村,细颗粒物(PM2.5),120,90,118,82,30,138,138,70,70,10,34,13,14,NA,0.9
2026-04-15T1400,3282A,113.3399,40.0586,大同市,大同市卫生学校,,48,45,112,12,21,151,151,93,93,8,36,6,8,0.3,0.8
2026-04-15T1400,3565A,113.1371,40.1122,大同市,云冈站,颗粒物(PM10),73,81,107,19,27,142,142,72,72,8,36,8,10,0.5,0.6
2026-04-15T1400,3566A,113.1186,40.2556,大同市,图书馆,颗粒物(PM10),88,103,93,21,22,135,135,76,76,17,16,8,6,0.4,0.4
2026-04-15T1400,3567A,113.5931,40.0459,大同市,区一中,NA,NA,62,100,10,28,149,149,113,113,8,12,NA,6,0.4,0.3
2026-04-15T1400,4199A,113.2798248,40.09972476,大同市,魏都大道141号,颗粒物(PM10),61,65,133,16,31,140,140,79,79,6,42,8,11,0.5,1.6
2026-04-15T1400,2269A,124.1068,50.4091,大兴安岭地区,科技局,颗粒物(PM10),65,71,70,38,47,91,91,81,81,34,12,8,8,0.4,0.3
2026-04-15T1400,3663A,124.117,50.4279,大兴安岭地区,红旗社区,颗粒物(PM10),65,70,63,39,46,122,122,105,105,9,12,11,16,0.2,0.3
2026-04-15T1400,1600A,124.33,40.0625,丹东市,江湾东路,,44,40,90,28,50,139,139,119,119,18,17,4,6,0.5,0.6
2026-04-15T1400,1601A,124.4242,40.1513,丹东市,临江后街,,40,32,95,17,52,127,127,110,110,8,16,5,9,0.4,0.7
2026-04-15T1400,1602A,124.3935,40.1461,丹东市,元宝山,,39,35,89,15,50,122,122,103,103,10,17,6,9,0.5,0.7
2026-04-15T1400,1603A,124.3634,40.1093,丹东市,民主桥,,43,30,90,21,50,136,136,114,114,11,17,7,8,0.3,0.5
2026-04-15T1400,3541A,109.5726195,19.51688767,儋州市,第一中学子站,NA,NA,NA,53,NA,38,112,112,83,83,NA,8,6,10,0.5,0.5
2026-04-15T1400,3542A,109.5567,19.5187,儋州市,东坡学校子站,颗粒物(PM10),51,51,54,29,36,114,114,83,83,2,7,8,8,0.6,0.7
2026-04-15T1400,2616A,98.5611,24.4273,德宏傣族景颇族自治州,德宏州监测站,细颗粒物(PM2.5),106,80,84,66,74,139,139,68,68,14,24,9,8,0.4,0.5
2026-04-15T1400,3677A,98.5887,24.4366,德宏傣族景颇族自治州,芒市人民政府综合楼,颗粒物(PM10),113,153,127,66,65,126,126,72,72,15,16,12,10,0.7,0.6
2026-04-15T1400,1901A,104.424,31.1209,德阳市,东山公园,,38,18,24,12,18,119,119,67,67,7,11,4,3,0.4,0.4
2026-04-15T1400,1902A,104.3827,31.1318,德阳市,西小区,,35,31,38,12,18,111,111,63,63,10,14,3,3,0.4,0.4
2026-04-15T1400,1904A,104.3553,31.1091,德阳市,耐火材料厂,,40,33,37,9,21,125,125,67,67,8,17,2,2,0.3,0.3
2026-04-15T1400,4145A,104.4144,31.1495,德阳市,市林业局,,42,25,30,12,17,133,133,68,68,2,12,5,4,0.5,0.5
2026-04-15T1400,1622A,116.3034,37.4675,德州市,儿童乐园,颗粒物(PM10),55,56,105,20,59,155,155,105,105,9,19,8,10,0.5,0.7
2026-04-15T1400,1624A,116.2992,37.4449,德州市,监理站,,49,46,96,19,50,156,156,111,111,12,24,10,12,0.3,0.6
2026-04-15T1400,3066A,116.2722,37.438,德州市,九衢泉纯净水厂,,48,48,99,16,57,149,149,92,92,8,36,5,7,0.5,0.7
2026-04-15T1400,3371A,116.3693,37.44,德州市,开发区人民医院,颗粒物(PM10),55,56,103,21,57,157,157,97,97,9,23,11,14,0.5,0.7
2026-04-15T1400,3511A,116.5687,37.3331,德州市,陵城艺术中心,,47,44,90,20,68,149,149,88,88,7,19,11,13,0.6,0.7
2026-04-15T1400,4292A,116.352738,37.420875,德州市,新河东路,NA,NA,53,107,20,48,149,149,103,103,8,24,NA,12,0.8,0.8
2026-04-15T1400,2621A,99.7054,27.8319,迪庆藏族自治州,迪庆州站,,39,26,27,12,14,123,123,120,114,12,11,7,8,0.6,0.5
2026-04-15T1400,3180A,99.7122,27.8129,迪庆藏族自治州,质量技术监督局,,42,17,23,10,14,132,132,129,121,11,10,6,6,0.5,0.5
2026-04-15T1400,4257A,104.6092,35.5962,定西市,将台街,,40,40,59,11,23,95,95,80,80,6,15,6,6,0.2,0.2
2026-04-15T1400,4309A,104.6159,35.5701,定西市,正龙路62号,,47,47,56,15,19,96,96,83,83,10,11,4,4,0.3,0.3
2026-04-15T1400,4071A,114.9883,38.5232,定州市,交通局,细颗粒物(PM2.5),112,146,145,73,63,168,168,100,100,20,36,10,10,0.8,0.9
2026-04-15T1400,4072A,115.0045,38.5136,定州市,第五中学,颗粒物(PM10),110,145,150,68,63,166,166,96,96,20,37,7,7,0.7,0.8
2026-04-15T1400,1390A,113.7943,23.0132,东莞市,东城石井,,21,17,22,8,11,65,65,37,37,7,17,5,5,0.4,0.5
2026-04-15T1400,1391A,113.7384,22.9659,东莞市,南城西平,,18,16,20,8,10,57,57,36,36,6,13,5,5,0.5,0.5
2026-04-15T1400,3319A,113.7283,23.041,东莞市,万江金泰,,19,17,22,13,14,57,57,37,37,7,16,6,6,0.5,0.6
2026-04-15T1400,4129A,113.8666,23.1062,东莞市,裕兴路,,22,18,30,6,14,70,70,37,37,8,22,5,5,0.7,0.7
2026-04-15T1400,4130A,114.0076,22.9739,东莞市,教育路1号,,26,21,32,8,15,81,81,36,36,10,23,6,6,0.5,0.6
2026-04-15T1400,4131A,113.7981,22.8124,东莞市,长怡路1号,,20,20,25,8,10,52,52,36,36,8,16,6,6,0.6,0.7
2026-04-15T1400,1666A,118.6612,37.4313,东营市,市环保局,NA,NA,78,74,40,48,193,193,142,142,NA,18,13,13,NA,0.4
2026-04-15T1400,3036A,118.6903,37.4337,东营市,开发区管委会,细颗粒物(PM2.5),110,79,77,70,62,204,204,155,155,20,24,15,11,0.7,0.7
2026-04-15T1400,3365A,118.5721,37.5654,东营市,垦利区民丰路,臭氧1小时(O3_1h),111,75,69,63,57,221,221,153,153,16,22,10,9,0.8,0.8
2026-04-15T1400,3498A,118.5063,37.8606,东营市,河口城区,臭氧1小时(O3_1h),97,75,84,45,52,197,197,137,137,10,27,12,13,0.8,0.8
2026-04-15T1400,3646A,118.4979,37.4623,东营市,胜利站,细颗粒物(PM2.5),82,82,89,51,57,184,184,132,132,11,19,10,11,0.7,0.7
2026-04-15T1400,3734A,118.5753,37.4405,东营市,理想之城,臭氧1小时(O3_1h),102,61,81,41,47,203,203,155,155,20,27,9,9,0.5,0.5
2026-04-15T1400,1591A,110.0024,39.8127,鄂尔多斯市,综合楼,NA,NA,80,63,NA,17,140,140,104,104,9,20,9,9,0.4,0.4
2026-04-15T1400,1592A,109.9485,39.8259,鄂尔多斯市,巴音孟克林场办事处,颗粒物(PM10),74,83,58,21,17,140,140,108,108,8,16,7,7,0.3,0.4
2026-04-15T1400,1593A,109.7734,39.5987,鄂尔多斯市,康泽苑,颗粒物(PM10),74,83,50,18,13,140,140,98,98,8,14,9,8,0.3,0.3
2026-04-15T1400,1594A,109.8121,39.5987,鄂尔多斯市,华泰汽车城,颗粒物(PM10),75,85,51,27,18,126,126,81,81,8,23,9,9,0.4,0.4
2026-04-15T1400,1595A,109.9734,39.7884,鄂尔多斯市,奥林花园,颗粒物(PM10),70,78,68,15,15,134,134,96,96,7,31,6,6,0.3,0.3
2026-04-15T1400,2436A,114.894,30.3989,鄂州市,市政府,,32,32,31,22,17,82,82,44,44,13,24,15,12,0.7,0.7
2026-04-15T1400,2437A,114.8986,30.3714,鄂州市,赵家坝,,30,30,32,16,12,69,69,41,41,8,13,12,8,0.5,0.5
2026-04-15T1400,3654A,114.8093,30.4091,鄂州市,精准医疗中心,NA,NA,NA,28,28,14,74,74,45,45,20,19,8,5,1.1,0.6
2026-04-15T1400,2454A,109.4978,30.2979,恩施土家族苗族自治州,湖北民院,,19,19,16,8,7,39,39,54,38,9,7,7,7,0.5,0.4
2026-04-15T1400,3549A,109.5061,30.3771,恩施土家族苗族自治州,龙凤新区,,10,10,8,3,6,19,19,39,33,7,5,7,7,0.4,0.4
2026-04-15T1400,2499A,108.3411,21.6159,防城港市,沙万,,43,43,53,21,27,60,60,62,59,10,14,7,7,0.5,0.5
2026-04-15T1400,2500A,108.3515,21.7733,防城港市,防城档案局,NA,NA,49,54,24,35,78,78,49,49,2,8,6,7,NA,0.7
2026-04-15T1400,2501A,108.3506,21.6414,防城港市,大海花园,,40,40,46,28,34,71,71,74,60,5,8,9,9,0.5,0.6
2026-04-15T1400,1371A,113.1293,23.0065,佛山市,湾梁,,24,24,23,14,14,64,64,37,37,9,16,/,/,/,/
2026-04-15T1400,1372A,113.1082,23.0477,佛山市,华材职中,,22,22,22,14,16,65,65,42,42,10,15,3,4,0.3,0.3
2026-04-15T1400,1373A,113.1439,23.045,佛山市,南海气象局,,36,36,28,18,16,66,66,39,39,12,19,/,/,/,/
2026-04-15T1400,1374A,113.2879,22.8094,佛山市,顺德苏岗,,27,27,24,14,13,63,63,38,38,6,14,/,/,0.5,0.5
2026-04-15T1400,1376A,112.8384,22.8678,佛山市,高明孔堂,,18,17,22,10,11,57,57,41,41,5,8,/,/,/,/
2026-04-15T1400,1377A,112.8835,23.1584,佛山市,三水监测站,,20,19,25,14,17,62,62,34,34,15,26,5,4,0.3,0.4
2026-04-15T1400,1378A,112.8668,23.185,佛山市,三水云东海,,35,35,38,14,17,62,62,34,34,14,22,/,/,/,/
2026-04-15T1400,3625A,113.2568,22.7629,佛山市,容桂街道办,,26,22,17,18,14,56,56,37,37,8,16,/,/,/,/
2026-04-15T1400,1282A,119.2681,26.0506,福州市,师大,,32,24,34,19,21,102,102,79,79,17,18,6,5,0.6,0.5
2026-04-15T1400,1283A,119.2983,26.1028,福州市,五四北路,,27,16,36,16,24,84,84,70,70,23,21,4,4,0.4,0.3
2026-04-15T1400,1284A,119.2648,26.0769,福州市,杨桥西路,,32,27,34,17,25,102,102,78,78,16,18,5,5,/,/
2026-04-15T1400,3048A,119.5799,26.0937,福州市,九龙,,32,21,24,20,16,102,102,87,87,11,14,6,5,0.5,0.5
2026-04-15T1400,3526A,119.5188,25.9666,福州市,吴航,,31,26,25,18,16,97,97,85,85,12,14,5,5,0.6,0.6
2026-04-15T1400,4104A,119.3106,26.0648,福州市,路通桥巷6号,,30,29,32,19,22,95,95,75,75,14,16,/,/,/,/
2026-04-15T1400,1755A,123.7974,41.8494,抚顺市,望花区,颗粒物(PM10),61,65,92,34,67,131,131,94,94,12,26,11,10,0.8,1
2026-04-15T1400,1756A,123.9161,41.8827,抚顺市,顺城区,细颗粒物(PM2.5),60,59,96,40,82,120,120,84,84,13,31,13,11,0.8,1
2026-04-15T1400,1757A,124.0437,41.8615,抚顺市,东洲区,细颗粒物(PM2.5),52,48,99,36,84,133,133,94,94,17,22,13,9,0.7,0.9
2026-04-15T1400,1758A,123.9246,41.8638,抚顺市,新抚区,NA,NA,60,85,40,82,125,125,94,94,14,25,NA,8,0.7,1.1
2026-04-15T1400,1759A,124.0972,41.8961,抚顺市,大伙房水库,,44,44,77,30,69,133,133,104,104,8,16,7,8,0.6,0.8
2026-04-15T1400,1760A,123.708,41.8386,抚顺市,沈抚新城,细颗粒物(PM2.5),80,72,101,50,69,133,133,80,80,16,35,9,10,1.0,1.1
2026-04-15T1400,2377A,116.3544,27.9833,抚州市,市站,,32,27,24,22,18,76,76,75,75,9,10,14,8,1.1,1.1
2026-04-15T1400,2378A,116.3562,27.9631,抚州市,血防站,,34,34,26,11,16,75,75,71,71,8,9,13,9,0.8,0.8
2026-04-15T1400,2379A,116.3561,28.0007,抚州市,采茶剧团,,30,30,27,18,15,68,68,68,68,7,8,14,12,0.9,1
2026-04-15T1400,2380A,116.3854,27.9648,抚州市,医学分院,,34,34,31,12,14,77,77,74,74,7,7,11,8,1.0,1.2
2026-04-15T1400,2207A,121.6095,41.9978,阜新市,工业园区,细颗粒物(PM2.5),68,66,45,44,36,135,135,82,82,12,22,5,5,0.5,0.5
2026-04-15T1400,2208A,121.6567,42.0188,阜新市,长青街,细颗粒物(PM2.5),70,60,40,45,36,137,137,87,87,14,25,10,10,0.6,0.6
2026-04-15T1400,2209A,121.6672,42.07,阜新市,农业园区,细颗粒物(PM2.5),74,76,54,47,37,141,141,93,93,14,17,7,8,0.5,0.6
2026-04-15T1400,2211A,121.6343,42.0455,阜新市,玉龙新城,细颗粒物(PM2.5),58,58,42,39,31,139,139,90,90,13,29,9,7,0.5,0.7
2026-04-15T1400,2301A,115.8276,32.8929,阜阳市,市监测站,,49,49,49,29,24,139,139,90,90,12,28,11,6,0.3,0.4
2026-04-15T1400,2303A,115.8551,32.8606,阜阳市,开发区,颗粒物(PM10),64,69,59,25,30,142,142,80,80,10,18,13,7,0.5,0.5
2026-04-15T1400,2875A,115.783962,32.889217,阜阳市,阜阳职业技术学院,,46,40,45,22,22,145,145,101,101,6,18,13,7,0.4,0.5
2026-04-15T1400,3468A,115.79,32.8614,阜阳市,市规划展馆,颗粒物(PM10),53,54,52,20,32,150,150,102,102,9,18,14,8,0.5,0.6
2026-04-15T1400,3469A,115.835101,32.918568,阜阳市,枣园社区,,45,34,45,24,28,143,143,95,95,9,26,10,7,0.3,0.4
2026-04-15T1400,2669A,102.9097,34.9841,甘南藏族自治州,州政府,,27,21,40,18,22,85,85,59,59,4,14,3,2,0.2,0.3
2026-04-15T1400,3380A,102.8915,34.9618,甘南藏族自治州,甘肃民族师范学院,,34,23,46,3,18,107,107,73,73,1,15,1,2,0.1,0.2
2026-04-15T1400,2570A,101.96,30.048,甘孜藏族自治州,水桥子,NA,NA,6,8,3,3,78,78,44,44,NA,12,6,6,0.1,0.2
2026-04-15T1400,3065A,101.9534,29.9976,甘孜藏族自治州,州环保局,,28,16,10,3,3,89,89,65,65,10,13,5,4,0.4,0.3
2026-04-15T1400,2363A,114.9368,25.8663,赣州市,地委,,31,31,22,7,10,30,30,32,28,9,7,1,1,1.1,1.1
2026-04-15T1400,2364A,114.946,25.8483,赣州市,气象台,,33,33,27,13,14,28,28,32,26,12,10,4,4,1.0,1
2026-04-15T1400,2365A,114.932,25.8332,赣州市,市图书馆,,33,33,22,20,15,39,39,44,40,11,9,5,4,1.0,1.1
2026-04-15T1400,2366A,114.8905,25.8472,赣州市,华坚鞋城,,28,28,22,10,11,24,24,35,29,17,10,5,5,1.1,1.1
2026-04-15T1400,3109A,115.0094,25.8614,赣州市,赣县区卫计委,,34,34,22,9,12,22,22,26,17,12,13,3,3,1.0,1
2026-04-15T1400,2684A,106.2753,36.0057,固原市,监测站,颗粒物(PM10),52,52,56,32,23,102,102,86,86,12,14,6,5,0.4,0.4
2026-04-15T1400,2685A,106.2384,36.0189,固原市,新区,,44,44,58,25,24,91,91,77,77,13,12,6,5,0.5,0.5
2026-04-15T1400,2544A,106.6307,30.4577,广安市,市委,,32,23,22,14,18,101,101,56,56,7,12,7,6,0.4,0.5
2026-04-15T1400,2545A,106.6266,30.4662,广安市,友谊中学,,32,18,19,10,14,102,102,55,55,7,11,8,8,0.5,0.6
2026-04-15T1400,2547A,106.6386,30.4551,广安市,广电花园,,30,22,27,14,16,95,95,49,49,10,14,6,5,0.4,0.5
2026-04-15T1400,2902A,106.6347,30.4868,广安市,北辰小学,,34,23,22,13,16,106,106,58,58,7,9,21,12,0.4,0.5
2026-04-15T1400,2524A,105.8211,32.4444,广元市,老城,细颗粒物(PM2.5),66,NA,31,43,19,43,43,35,33,22,16,5,2,0.7,0.6
2026-04-15T1400,2526A,105.8629,32.429,广元市,监测站,,36,36,37,22,17,44,44,36,36,24,15,6,4,0.6,0.4
2026-04-15T1400,3617A,105.8047,32.4167,广元市,经开区,,38,38,35,24,20,47,47,32,29,21,17,15,5,0.8,0.5
2026-04-15T1400,1345A,113.2346,23.1423,广州市,广雅中学,,30,30,29,16,14,67,67,36,36,11,18,2,2,0.5,0.5
2026-04-15T1400,1346A,113.2611,23.105,广州市,市五中,,29,27,25,20,16,76,76,43,43,15,20,3,3,/,/
2026-04-15T1400,1348A,113.3477,23.0916,广州市,广东商学院,,26,25,26,18,16,71,71,37,37,10,28,4,4,0.6,0.6
2026-04-15T1400,1349A,113.4332,23.105,广州市,市八十六中,,19,19,18,10,10,34,34,24,24,25,31,6,6,/,/
2026-04-15T1400,1350A,113.3506,22.9488,广州市,番禺中学,,29,29,25,15,13,73,73,44,44,8,20,5,4,0.4,0.5
2026-04-15T1400,1351A,113.2147,23.3918,广州市,花都师范,,34,34,38,23,17,83,83,43,43,16,34,6,6,0.7,0.8
2026-04-15T1400,1352A,113.2599,23.1329,广州市,市监测站,,32,32,26,18,14,70,70,39,39,8,13,3,3,/,/
2026-04-15T1400,1353A,113.5618,23.3119,广州市,九龙镇镇龙,,28,28,31,15,16,46,46,22,22,21,31,6,6,0.4,0.5
2026-04-15T1400,1354A,113.2764,23.1544,广州市,麓湖,,31,31,26,18,15,73,73,42,42,12,19,4,4,0.6,0.5
2026-04-15T1400,2846A,113.3209,23.1323,广州市,体育西,,31,31,30,17,14,72,72,38,38,14,28,5,5,0.5,0.5
2026-04-15T1400,3298A,113.5718,23.5493,广州市,从化街口,,29,29,29,18,17,65,65,35,35,15,20,7,7,0.5,0.6
2026-04-15T1400,3299A,113.3463,23.369,广州市,白云竹料,,40,40,95,17,16,79,79,36,36,16,30,3,3,0.5,0.6
2026-04-15T1400,3300A,113.2981,23.2365,广州市,白云嘉禾,,41,41,33,20,16,76,76,38,38,19,31,5,5,/,/
2026-04-15T1400,3301A,113.4256,23.1716,广州市,黄埔科学城,,29,29,27,15,13,39,39,26,26,21,30,5,5,0.4,0.5
2026-04-15T1400,3302A,113.3942,23.0485,广州市,番禺大学城,,30,30,23,12,10,72,72,NA,NA,14,24,3,4,0.5,0.5
2026-04-15T1400,3303A,113.4923,22.8169,广州市,南沙黄阁,,21,21,22,14,12,52,52,35,35,8,14,6,5,/,/
2026-04-15T1400,3304A,113.534,22.7893,广州市,南沙街,,19,19,21,12,12,50,50,30,30,8,16,5,5,0.3,0.4
2026-04-15T1400,3443A,113.2905,23.5541,广州市,花都梯面,,39,39,32,20,16,71,71,34,34,22,25,8,8,/,/
2026-04-15T1400,3445A,113.786,23.7479,广州市,从化良口,,34,34,27,23,19,92,92,45,45,12,17,4,4,/,/
2026-04-15T1400,3446A,113.805,23.2614,广州市,增城荔城,,22,22,29,13,16,68,68,34,34,8,20,4,5,0.4,0.5
2026-04-15T1400,2506A,109.604387,23.066791,贵港市,江南子站,,49,48,55,34,30,79,79,55,55,6,14,8,12,0.6,0.7
2026-04-15T1400,2508A,109.5669,23.1065,贵港市,荷城子站,,43,41,48,30,32,77,77,48,48,8,16,9,14,0.7,0.8
2026-04-15T1400,3405A,109.5886,23.1172,贵港市,新世纪学校,细颗粒物(PM2.5),54,51,49,37,34,77,77,47,47,14,15,/,/,0.6,0.6
2026-04-15T1400,4260A,109.5933,23.095,贵港市,中山路155-3号,细颗粒物(PM2.5),56,54,57,38,32,81,81,49,49,7,14,/,/,0.7,0.9
2026-04-15T1400,1439A,106.6863,26.6035,贵阳市,马鞍山,,39,39,27,22,19,70,70,64,64,13,10,5,3,/,/
2026-04-15T1400,1441A,106.6241,26.6266,贵阳市,鉴湖路,NA,NA,78,46,NA,22,109,109,74,74,NA,10,5,5,0.6,0.7
2026-04-15T1400,1442A,106.7468,26.6344,贵阳市,燕子冲,,33,31,34,23,18,60,60,68,65,10,8,5,6,0.8,0.7
2026-04-15T1400,1443A,106.6556,26.4362,贵阳市,碧云窝,颗粒物(PM10),70,78,52,38,24,103,103,63,63,7,10,9,6,/,/
2026-04-15T1400,1445A,106.6963,26.6063,贵阳市,红边门,,41,41,34,19,19,61,61,66,61,12,10,8,9,/,/
2026-04-15T1400,1446A,106.7162383,26.56964667,贵阳市,新华路,NA,NA,48,35,22,18,65,65,65,64,16,10,NA,7,0.6,0.4
2026-04-15T1400,1447A,106.6742,26.542,贵阳市,太慈桥,颗粒物(PM10),58,61,33,33,20,89,89,60,60,9,10,4,3,/,/
2026-04-15T1400,4230A,106.688212,26.56952,贵阳市,花果园大街66号,颗粒物(PM10),53,53,23,31,20,83,83,65,65,12,9,2,2,/,/
2026-04-15T1400,4231A,106.687268,26.516892,贵阳市,漓江路57号,细颗粒物(PM2.5),64,58,28,42,23,75,75,52,52,9,10,6,5,1.1,0.9
2026-04-15T1400,1864A,110.3091,25.2705,桂林市,龙隐路小学,,14,10,15,3,8,42,42,60,44,9,8,3,3,0.5,0.6
2026-04-15T1400,1865A,110.2849361,25.22909545,桂林市,八中,,18,18,15,3,6,38,38,54,39,16,12,3,3,0.7,0.7
2026-04-15T1400,3531A,110.296,25.1254,桂林市,旅游学院,,29,29,26,9,11,49,49,58,46,10,8,5,5,0.8,0.7
2026-04-15T1400,4222A,110.1835,25.2444,桂林市,环湖路276号,,14,9,12,6,7,44,44,60,46,12,8,6,4,0.6,0.6
2026-04-15T1400,4301A,110.2803,25.2773,桂林市,信义路13号,,17,17,15,3,8,41,41,61,45,14,10,4,4,0.7,0.7
2026-04-15T1400,2674A,100.2262,34.4854,果洛藏族自治州,玛沁县大武镇,,39,26,38,19,17,124,124,108,108,2,3,14,22,0.2,0.5
2026-04-15T1400,1130A,126.5557,45.8109,哈尔滨市,松北商大,,49,48,49,34,37,133,133,86,86,7,20,8,9,0.3,0.4
2026-04-15T1400,1132A,126.6162,45.719,哈尔滨市,南岗学府路,颗粒物(PM10),57,59,50,32,25,135,135,90,90,11,20,6,6,0,0
2026-04-15T1400,1133A,126.6894,45.7733,哈尔滨市,太平宏伟公园,颗粒物(PM10),60,64,56,35,32,135,135,81,81,12,27,6,6,0.3,0.4
2026-04-15T1400,1134A,126.6361,45.7672,哈尔滨市,道外承德广场,颗粒物(PM10),69,76,75,29,32,115,115,72,72,20,34,11,22,0.6,0.2
2026-04-15T1400,1136A,126.644,45.7261,哈尔滨市,动力和平路,颗粒物(PM10),54,55,50,25,27,124,124,82,82,15,23,3,4,0.4,0.5
2026-04-15T1400,1137A,126.5933,45.7479,哈尔滨市,道里建国路,颗粒物(PM10),66,72,49,27,29,123,123,82,82,23,30,6,7,0.1,0.5
2026-04-15T1400,1138A,126.6127,45.6119,哈尔滨市,平房东轻厂,细颗粒物(PM2.5),52,44,50,36,35,115,115,80,80,12,34,9,14,0.5,0.6
2026-04-15T1400,1139A,126.5875,45.9827,哈尔滨市,呼兰师专,NA,NA,NA,NA,NA,NA,NA,NA,NA,NA,NA,NA,NA,NA,NA,NA
2026-04-15T1400,1140A,126.6299,45.6799,哈尔滨市,省农科院,NA,NA,NA,64,56,36,88,88,66,66,36,27,7,7,0.3,0.5
2026-04-15T1400,4282A,126.6769,45.7379,哈尔滨市,华山路1号,颗粒物(PM10),80,92,58,33,29,137,137,92,92,10,19,3,3,0.6,0.7
2026-04-15T1400,4283A,126.9717,45.5356,哈尔滨市,解放大街52号,颗粒物(PM10),88,102,76,48,33,142,142,104,104,15,22,14,10,0.7,0.6
2026-04-15T1400,2688A,93.5124,42.8176,哈密市,地区监测站,颗粒物(PM10),65,71,81,9,18,105,105,99,95,4,4,11,9,0.1,0.1
2026-04-15T1400,2689A,93.5014,42.8312,哈密市,哈密师范学校,颗粒物(PM10),63,67,89,6,15,107,107,100,97,4,5,8,8,0.0,0.1
2026-04-15T1400,2671A,100.9016,36.9464,海北藏族自治州,海晏县西海镇,,37,37,44,22,25,115,115,98,98,1,3,6,9,0.4,0.4
2026-04-15T1400,3867A,102.074,36.5056,海东市,平安区公安局北苑,,43,33,49,30,27,70,70,60,51,20,15,8,10,1.1,0.6
2026-04-15T1400,4163A,102.0984,36.5119,海东市,滨河路,,38,NA,47,26,32,58,58,30,29,22,32,5,8,1.2,0.7
2026-04-15T1400,1410A,110.3189,20.0596,海口市,海南大学,,27,26,28,17,15,84,84,64,64,3,6,6,5,0.4,0.3
2026-04-15T1400,1411A,110.2827,20.0051,海口市,秀英海南医院,,28,28,23,16,15,79,79,57,57,5,11,8,8,0.4,0.3
2026-04-15T1400,1412A,110.3391,19.9979,海口市,海南师范大学,NA,NA,34,27,16,14,80,80,60,60,NA,6,6,6,NA,0.4
2026-04-15T1400,1413A,110.3303,20.0359,海口市,龙华路环保局宿舍,,39,39,31,21,16,83,83,65,65,5,7,/,/,0.4,0.6
2026-04-15T1400,3539A,110.5111,19.9737,海口市,桂林洋子站,,22,22,10,11,13,63,63,55,55,4,5,/,/,/,/
2026-04-15T1400,4134A,110.1952,20.0451,海口市,长滨二路9号,,36,36,29,21,18,84,84,62,62,2,9,/,/,/,/
2026-04-15T1400,2673A,100.6158,36.2985,海南藏族自治州,共和县恰卜恰镇,,41,41,48,18,24,117,117,104,104,3,8,12,10,0.4,0.3
2026-04-15T1400,2676A,97.373,37.376,海西蒙古族藏族自治州,德令哈市,,50,50,64,26,26,149,149,136,136,2,4,15,15,0.3,0.3
2026-04-15T1400,1049A,114.492,36.5712,邯郸市,矿院,NA,NA,50,74,29,47,153,153,105,105,5,18,NA,8,0.4,0.5
2026-04-15T1400,1050A,114.4839,36.6136,邯郸市,丛台公园,颗粒物(PM10),53,54,75,35,52,153,153,108,108,9,16,12,13,0.4,0.5
2026-04-15T1400,3458A,114.7893,36.5592,邯郸市,香泉濮院小区,,48,48,69,23,42,133,133,89,89,6,14,1,2,0.3,0.4
2026-04-15T1400,3580A,114.1998,36.4439,邯郸市,峰峰矿区临水派出所,细颗粒物(PM2.5),76,71,69,48,50,171,171,120,120,12,17,9,9,0.6,0.6
2026-04-15T1400,4068A,114.5209,36.7697,邯郸市,建安街268号,颗粒物(PM10),85,99,91,44,59,163,163,98,98,13,21,5,3,0.5,0.5
2026-04-15T1400,4069A,114.5488,36.6177,邯郸市,丛台东路558号,颗粒物(PM10),59,62,73,28,52,148,148,102,102,5,22,5,4,0.4,0.6
2026-04-15T1400,2635A,107.0155,33.0707,汉中市,市监测站,,28,28,32,16,17,71,71,53,53,2,6,4,4,0.3,0.3
2026-04-15T1400,2636A,107.0083,33.114,汉中市,鑫源开发区,,29,29,29,14,16,73,73,48,48,6,11,4,5,0.3,0.3
2026-04-15T1400,2637A,107.0072,33.0323,汉中市,南郑大河坎水厂,,22,22,30,11,15,70,70,46,46,5,12,4,4,0.4,0.4
2026-04-15T1400,1223A,120.2073,30.2111,杭州市,滨江,NA,NA,40,51,26,33,125,125,81,81,12,27,NA,7,0.6,1.2
2026-04-15T1400,1224A,120.0625,30.2737,杭州市,西溪,,37,23,33,14,23,117,117,70,70,10,22,4,4,0.9,1.1
2026-04-15T1400,1226A,120.3417,30.315,杭州市,下沙,,40,40,81,21,39,101,101,73,73,11,26,7,7,0.7,1
2026-04-15T1400,1227A,120.1252,30.2465,杭州市,卧龙桥,,40,26,36,18,22,125,125,81,81,16,27,9,8,0.6,0.7
2026-04-15T1400,1228A,120.1902,30.2691,杭州市,浙江农大,,36,NA,33,24,35,115,115,76,76,22,37,8,7,0.6,0.8
2026-04-15T1400,1230A,120.1195,30.3121,杭州市,和睦小学,,37,34,78,13,34,117,117,74,74,8,32,6,6,0.7,0.9
2026-04-15T1400,1231A,120.3076,30.4146,杭州市,临平镇,,37,32,48,22,35,117,117,88,88,11,20,7,6,0.6,0.8
2026-04-15T1400,1232A,120.2753,30.1839,杭州市,城厢镇,,46,33,41,32,34,114,114,79,79,18,34,5,6,0.7,0.9
2026-04-15T1400,1233A,120.0883,30.1808,杭州市,云栖,,41,38,35,27,25,131,131,74,74,19,20,6,6,0.9,1
2026-04-15T1400,3557A,119.9463,30.0496,杭州市,镇二中,细颗粒物(PM2.5),52,44,38,36,27,110,110,60,60,21,32,5,4,1.0,1
2026-04-15T1400,3558A,119.7184,30.2367,杭州市,市府大楼,,36,NA,20,22,25,115,115,74,74,11,17,7,6,0.7,0.9
2026-04-15T1400,3656A,120.1554,30.2863,杭州市,消防大队,,33,31,61,16,31,105,105,74,74,24,36,4,4,0.8,1.1
2026-04-15T1400,1270A,117.1957,31.7845,合肥市,明珠广场,颗粒物(PM10),55,56,54,24,27,137,137,93,93,10,32,7,6,0.5,0.6
2026-04-15T1400,1271A,117.307,31.8765,合肥市,三里街,,44,44,58,15,28,112,112,79,79,15,30,6,6,0.4,0.6
2026-04-15T1400,1272A,117.2587,31.8703,合肥市,琥珀山庄,,46,46,49,11,25,108,108,84,84,14,27,6,6,0.5,0.5
2026-04-15T1400,1275A,117.2593,31.9376,合肥市,庐阳区,,44,44,56,13,25,126,126,92,92,12,24,6,6,0.5,0.6
2026-04-15T1400,1276A,117.345251,31.861615,合肥市,瑶海区,,46,46,63,17,27,120,120,86,86,11,32,7,6,0.5,0.6
2026-04-15T1400,1277A,117.3033,31.7967,合肥市,包河区,,44,44,57,18,24,119,119,82,82,6,45,8,10,0.5,0.8
2026-04-15T1400,1278A,117.278,31.7392,合肥市,滨湖新区,,44,44,60,13,24,124,124,83,83,2,37,6,6,0.4,0.6
2026-04-15T1400,1279A,117.1324,31.8395,合肥市,高新区,,46,46,52,12,20,136,136,98,98,6,19,5,5,0.4,0.5
2026-04-15T1400,3464A,117.3802,31.9148,合肥市,高教基地,,39,39,55,10,23,122,122,86,86,8,20,8,8,0.5,0.5
2026-04-15T1400,4098A,117.2518,31.8404,合肥市,中国科学技术大学,,41,41,50,12,23,130,130,100,100,6,16,6,6,0.5,0.6
2026-04-15T1400,3614A,79.9241,37.0878,和田地区,地区环保局,颗粒物(PM10),83,95,293,19,67,124,124,113,113,2,3,1,4,0.3,0.3
2026-04-15T1400,3615A,79.9132,37.1137,和田地区,市环保局,颗粒物(PM10),122,177,272,28,64,115,115,100,100,3,10,3,3,0.3,0.3
2026-04-15T1400,2517A,108.0496,24.6957,河池市,市环保站,颗粒物(PM10),65,70,43,32,23,32,32,28,28,6,5,6,5,0.8,0.7
2026-04-15T1400,4302A,108.0901,24.6945,河池市,上任中路54号,颗粒物(PM10),72,80,46,32,23,37,37,30,30,11,8,7,7,0.8,0.8
2026-04-15T1400,1697A,114.6962,23.7538,河源市,东埔,,32,27,31,22,22,85,85,38,38,8,15,6,6,0.5,0.5
2026-04-15T1400,1698A,114.6895,23.7232,河源市,老城,,30,30,40,19,22,88,88,39,39,8,16,7,7,0.4,0.5
2026-04-15T1400,3374A,115.5562,35.089,菏泽市,定陶老年大学,颗粒物(PM10),60,63,54,30,25,166,166,109,109,14,20,8,8,0.3,0.3
2026-04-15T1400,4114A,115.4239,35.2593,菏泽市,黄河路600号,颗粒物(PM10),60,63,64,27,23,157,157,92,92,10,23,5,4,0.4,0.4
2026-04-15T1400,4115A,115.5025,35.2727,菏泽市,菏泽市人社局,,48,48,52,26,21,144,144,80,80,5,19,8,7,0.3,0.3
2026-04-15T1400,4184A,115.479691,35.244011,菏泽市,永昌路1号,臭氧1小时(O3_1h),63,56,55,23,22,170,170,104,104,12,22,5,4,0.6,0.4
2026-04-15T1400,4193A,115.471542,35.280012,菏泽市,长城路999号,NA,NA,52,52,26,21,164,164,102,102,7,21,NA,6,0.2,0.2
2026-04-15T1400,2514A,111.5264,24.4178,贺州市,环保小区,,44,44,34,20,19,42,42,35,31,20,14,7,6,0.6,0.5
2026-04-15T1400,2515A,111.561,24.4074,贺州市,政协大楼,NA,NA,NA,33,NA,22,NA,NA,68,NA,NA,14,NA,9,NA,0.8
2026-04-15T1400,3534A,111.4744,24.455,贺州市,西湾,,35,35,36,17,17,36,36,30,25,16,13,8,8,0.7,0.7
2026-04-15T1400,2385A,114.17,35.9019,鹤壁市,市监测站,,40,40,61,28,43,126,126,79,79,8,16,9,7,0.4,0.6
2026-04-15T1400,2386A,114.2953,35.7512,鹤壁市,市交警支队,,39,31,53,15,25,122,122,67,67,10,24,8,9,0.3,0.5
2026-04-15T1400,2387A,114.2877,35.7302,鹤壁市,迎宾馆,,44,44,59,10,28,122,122,66,66,3,15,7,7,0.5,0.5
2026-04-15T1400,3474A,114.2616,35.6824,鹤壁市,大新区,,37,30,48,24,36,118,118,66,66,14,28,8,9,0.6,0.6
2026-04-15T1400,3596A,114.1573,35.9607,鹤壁市,南山宾馆,,40,40,73,18,42,121,121,84,84,9,19,8,10,0.4,0.6
2026-04-15T1400,2244A,130.2537,47.3416,鹤岗市,哈啤分公司,,34,29,33,15,21,108,108,84,84,11,11,11,10,0.4,0.4
2026-04-15T1400,2245A,130.2683,47.3087,鹤岗市,斯达机电,,35,29,40,18,22,112,112,84,84,7,12,10,11,0.3,0.3
2026-04-15T1400,2246A,130.3114,47.3388,鹤岗市,东山纸板厂,,33,31,107,19,30,104,104,83,83,12,21,8,11,0.4,0.6
2026-04-15T1400,2263A,127.4832,50.2524,黑河市,交通局,,25,25,30,14,17,80,80,60,60,7,13,5,6,0.3,0.4
2026-04-15T1400,2264A,127.5146,50.2339,黑河市,环保局,,26,12,38,3,18,82,82,61,61,7,19,6,8,0.3,0.4
2026-04-15T1400,1074A,115.6839,37.754,衡水市,电机北厂,颗粒物(PM10),59,62,100,19,62,134,134,81,81,14,29,2,5,0.4,0.4
2026-04-15T1400,1075A,115.6303,37.7318,衡水市,市监测站,颗粒物(PM10),53,54,99,21,57,134,134,83,83,13,26,9,8,0.3,0.5
2026-04-15T1400,3188A,115.6684,37.7216,衡水市,市城管局,颗粒物(PM10),59,62,95,24,58,138,138,89,89,12,24,4,5,0.3,0.5
2026-04-15T1400,3459A,115.599,37.5491,衡水市,地表水厂,颗粒物(PM10),65,71,95,23,50,132,132,81,81,9,27,4,5,0.3,0.5
2026-04-15T1400,2457A,112.6209,26.9268,衡阳市,衡阳化工总厂,,33,30,19,23,10,54,54,48,48,10,9,6,5,0.6,0.6
2026-04-15T1400,2458A,112.621,26.8957,衡阳市,珠晖区环保局,,20,20,16,14,9,58,58,45,45,7,12,6,7,0.9,0.8
2026-04-15T1400,2459A,112.628,26.8654,衡阳市,市委党校,,19,18,14,6,9,59,59,52,50,5,5,8,9,0.8,0.8
2026-04-15T1400,2460A,112.6007,26.8977,衡阳市,市监测站,,25,25,18,9,12,56,56,49,48,12,10,6,7,0.8,0.7
2026-04-15T1400,2461A,112.5658,26.9013,衡阳市,真空机电公司,,26,26,17,17,13,47,47,50,49,12,11,6,6,0.8,0.8
2026-04-15T1400,3399A,112.6703,26.8817,衡阳市,师范学院,,20,18,18,6,10,61,61,52,52,10,10,6,8,0.7,0.7
2026-04-15T1400,3038A,103.3757,23.3679,红河哈尼族彝族自治州,州图书馆,细颗粒物(PM2.5),105,99,79,65,53,176,176,146,146,7,8,6,6,0.5,0.4
2026-04-15T1400,4154A,103.401,23.3561,红河哈尼族彝族自治州,蒙自市朝阳路,细颗粒物(PM2.5),110,80,63,70,51,176,176,145,145,7,10,5,6,NA,0.6
2026-04-15T1400,1090A,111.6506,40.7517,呼和浩特市,呼市一监,颗粒物(PM10),58,61,119,35,46,119,119,75,75,9,30,6,9,0.4,0.6
2026-04-15T1400,1094A,111.7516,40.8369,呼和浩特市,如意水处理厂,颗粒物(PM10),66,72,90,20,25,122,122,77,77,10,29,7,10,0.3,0.4
2026-04-15T1400,1095A,111.727798,40.806187,呼和浩特市,二十九中,颗粒物(PM10),78,88,113,25,35,111,111,72,72,6,27,8,11,0.3,0.5
2026-04-15T1400,1097A,111.717,40.7617,呼和浩特市,化肥厂生活区,颗粒物(PM10),62,66,119,23,58,117,117,74,74,9,33,7,10,0.3,0.6
2026-04-15T1400,3699A,111.6519,40.8389,呼和浩特市,海东办,颗粒物(PM10),68,75,101,19,23,112,112,71,71,9,38,5,7,0.3,0.4
2026-04-15T1400,4275A,111.591512,40.827312,呼和浩特市,成吉思汗西街8号,颗粒物(PM10),67,73,99,20,23,107,107,66,66,14,41,5,7,0.4,0.4
2026-04-15T1400,4276A,111.6597,40.8077,呼和浩特市,公园东路75号,颗粒物(PM10),70,78,112,19,31,100,100,72,72,14,28,4,7,0.4,0.5
2026-04-15T1400,4277A,111.5427,40.7846,呼和浩特市,金海路35号,颗粒物(PM10),88,102,96,24,22,101,101,68,68,15,37,6,6,0.4,0.3
2026-04-15T1400,3061A,119.7511,49.1576,呼伦贝尔市,国华电力东,,36,36,30,16,16,102,102,90,90,9,10,5,5,0.3,0.3
2026-04-15T1400,4279A,119.7569,49.2222,呼伦贝尔市,伊敏大街东7号,,42,42,31,18,16,100,100,88,88,8,10,6,6,0.5,0.4
2026-04-15T1400,1250A,120.075,30.867,湖州市,城西水厂,,49,28,39,23,33,156,156,103,103,13,31,6,6,0.8,0.9
2026-04-15T1400,2873A,120.083,30.8929,湖州市,仁皇山新区,细颗粒物(PM2.5),52,37,42,36,38,154,154,96,96,16,23,6,6,0.8,0.9
2026-04-15T1400,2907A,120.1846,30.8592,湖州市,吴兴区站,,50,44,40,33,34,159,159,96,96,16,21,6,6,0.7,0.7
2026-04-15T1400,3562A,120.4146,30.8538,湖州市,南浔区站,,42,41,58,29,44,128,128,67,67,12,16,6,5,0.7,1
2026-04-15T1400,1607A,120.904878,40.721091,葫芦岛市,龙港区,细颗粒物(PM2.5),92,84,60,56,44,149,149,96,96,16,38,15,20,0.9,0.9
2026-04-15T1400,1608A,120.8382,40.7521,葫芦岛市,化工街,细颗粒物(PM2.5),76,63,75,48,57,133,133,88,88,17,50,12,57,0.5,0.8
2026-04-15T1400,1609A,120.8339,40.7078,葫芦岛市,新区,细颗粒物(PM2.5),100,72,52,60,50,129,129,84,84,17,40,12,14,0.8,0.8
2026-04-15T1400,1610A,120.8697,40.7679,葫芦岛市,东城区,细颗粒物(PM2.5),70,51,54,45,48,142,142,86,86,14,46,12,21,0.7,0.8
2026-04-15T1400,2483A,109.9297,27.5383,怀化市,河西地税局,,20,19,16,14,10,54,54,53,53,7,8,5,5,/,/
2026-04-15T1400,2484A,109.9783,27.5342,怀化市,市四医院,,23,23,19,12,9,53,53,54,53,7,7,4,3,0.3,0.4
2026-04-15T1400,2485A,109.9971,27.5579,怀化市,监测楼,,21,21,17,13,10,53,53,53,53,8,8,4,4,0.4,0.4
2026-04-15T1400,1210A,119.0566,33.5991,淮安市,钵池山,,43,34,52,13,30,137,137,96,96,6,26,8,8,0.5,0.6
2026-04-15T1400,1211A,119.0083,33.578,淮安市,北京南路,,43,31,50,12,36,135,135,81,81,3,21,8,10,0.4,0.5
2026-04-15T1400,1212A,118.9938,33.6083,淮安市,市监测站,,46,29,44,12,32,146,146,92,92,5,22,6,7,0.4,0.5
2026-04-15T1400,1213A,119.135,33.5038,淮安市,楚州区监测站,,43,29,50,12,33,137,137,85,85,3,20,6,7,0.2,0.2
2026-04-15T1400,3426A,118.8757,33.2897,淮安市,新华书店,,43,41,64,12,27,135,135,78,78,4,28,7,8,0.6,0.6
2026-04-15T1400,4092A,119.119691,33.550006,淮安市,枚皋中路89号,,45,9,43,9,26,143,143,86,86,3,20,7,8,0.4,0.5
2026-04-15T1400,4206A,119.028838,33.631911,淮安市,承德北路606号,,42,36,57,13,29,132,132,82,82,4,29,8,8,0.4,0.5
2026-04-15T1400,2282A,116.8005,33.9749,淮北市,监测站,,36,33,53,12,26,114,114,98,98,6,19,7,9,0.3,0.5
2026-04-15T1400,2283A,116.8094,33.9008,淮北市,烈山区政府,,36,35,70,10,34,115,115,93,93,5,25,7,8,0.4,0.6
2026-04-15T1400,4017A,116.7926,33.9534,淮北市,市博物馆,,36,23,58,10,30,113,113,94,94,4,20,5,9,0.4,0.6
2026-04-15T1400,4100A,116.8322,33.9884,淮北市,杜集区第一实验学校,,35,34,73,7,26,112,112,94,94,5,21,5,8,0.4,0.5
2026-04-15T1400,2277A,116.8304,32.7726,淮南市,潘集区政府,颗粒物(PM10),51,51,48,20,26,151,151,98,98,12,23,8,7,0.4,0.4
2026-04-15T1400,2279A,116.8569,32.5949,淮南市,谢家集区政府,,46,42,43,30,28,146,146,102,102,12,18,9,10,0.3,0.3
2026-04-15T1400,2280A,116.8279,32.6333,淮南市,八公山区政府,颗粒物(PM10),60,63,46,32,29,152,152,102,102,7,11,9,9,0.4,0.3
2026-04-15T1400,2894A,117.0561,32.6536,淮南市,经济技术开发区消防队,,48,48,52,22,29,133,133,95,95,11,21,8,8,0.4,0.4
2026-04-15T1400,3329A,117.011,32.5891,淮南市,山南新区,颗粒物(PM10),53,53,53,25,29,147,147,114,114,12,20,8,9,0.3,0.4
2026-04-15T1400,4209A,117.003137,32.644456,淮南市,国庆中路369号,,50,50,61,24,28,135,135,92,92,9,19,9,7,0.3,0.3
2026-04-15T1400,2446A,114.9021,30.474,黄冈市,职工中心,,29,20,29,17,14,92,92,51,51,5,14,7,8,0.5,0.5
2026-04-15T1400,2929A,114.8858,30.4519,黄冈市,红卫路,,30,22,27,21,16,94,94,54,54,4,13,6,6,0.1,0.2
2026-04-15T1400,3398A,114.9134,30.4446,黄冈市,市林业局,,30,30,31,13,15,85,85,51,51,5,13,4,4,0.3,0.3
2026-04-15T1400,2672A,102.02,35.5101,黄南藏族自治州,同仁县隆务镇,,36,21,35,9,20,113,113,97,97,4,3,11,10,0.3,0.2
2026-04-15T1400,2295A,118.2905,29.6965,黄山市,延安路89号,,24,21,21,11,13,75,75,60,60,4,8,4,4,0.5,0.7
2026-04-15T1400,2297A,118.1369,30.2755,黄山市,黄山区政府5号楼,,22,12,26,3,11,70,70,60,60,4,7,3,3,0.4,0.5
2026-04-15T1400,4210A,118.335445,29.720283,黄山市,滨江东路7-2号,,22,20,31,8,12,69,69,55,55,4,7,/,/,/,/
2026-04-15T1400,2423A,115.0547,30.2332,黄石市,沈家营,颗粒物(PM10),56,58,37,20,14,60,60,34,34,8,10,6,6,0.7,1
2026-04-15T1400,2426A,114.899,30.211,黄石市,铁山,,33,30,35,23,15,75,75,46,46,9,13,9,7,0.7,0.8
2026-04-15T1400,2427A,115.0259,30.2108,黄石市,团城山,,35,34,33,24,18,52,52,28,28,12,13,6,6,0.8,0.7
2026-04-15T1400,3149A,115.0174,30.1591,黄石市,笔架山北路,,31,31,46,20,17,77,77,46,46,6,12,11,8,0.7,0.8
2026-04-15T1400,4185A,115.078022,30.21118,黄石市,磁湖东路29号,,47,47,38,23,16,65,65,37,37,18,16,6,5,0.9,0.8
2026-04-15T1400,1392A,114.4181,23.0528,惠州市,河南岸金山湖子站,,25,23,28,17,16,71,71,39,39,7,14,6,6,0.5,0.6
2026-04-15T1400,1393A,114.4055,23.0824,惠州市,下埔横江三路子站,,23,23,31,13,16,71,71,40,40,6,13,5,6,0.5,0.6
2026-04-15T1400,1395A,114.4645,22.7832,惠州市,惠阳区承修路船湖子站,,20,20,26,12,13,60,60,35,35,5,11,5,5,0.4,0.4
2026-04-15T1400,1396A,114.5316,22.7423,惠州市,大亚湾管委会子站,,20,20,24,12,11,56,56,28,28,2,9,4,4,0.4,0.4
2026-04-15T1400,3314A,114.4334,22.8134,惠州市,惠阳秋长,,22,17,26,7,16,69,69,38,38,5,16,/,/,/,/
2026-04-15T1400,3452A,114.6521,22.7755,惠州市,大亚湾霞涌,,20,20,14,10,10,53,53,33,33,4,9,/,/,/,/
2026-04-15T1400,4300A,114.4089,23.1147,惠州市,文华一路1号,,25,24,28,16,17,78,78,41,41,6,16,/,/,/,/
2026-04-15T1400,2240A,130.9618,45.2926,鸡西市,环保局,NA,NA,NA,43,NA,20,NA,NA,105,NA,NA,9,NA,7,NA,0.3
2026-04-15T1400,2243A,130.9294,45.2959,鸡西市,第一中学,,33,26,36,14,20,103,103,77,77,4,11,4,6,0.1,0.2
2026-04-15T1400,3707A,131.0069,45.2988,鸡西市,欧美日汽修厂,,33,23,58,15,23,103,103,79,79,3,11,3,2,0.4,0.5
2026-04-15T1400,2367A,114.9753,27.0803,吉安市,红声器材厂,,27,27,29,3,11,63,63,66,65,10,12,6,7,1.4,1.3
2026-04-15T1400,2369A,114.9903,27.1313,吉安市,市环境监测站,,25,25,26,3,14,65,65,63,63,13,13,10,11,/,/
2026-04-15T1400,2370A,115.009527,27.096792,吉安市,青原区法院,,25,25,26,3,12,61,61,65,63,13,13,7,8,0.9,0.9
2026-04-15T1400,1772A,126.54,43.8622,吉林市,哈达湾,,42,42,101,20,85,108,108,93,93,7,25,6,15,0.3,0.6
2026-04-15T1400,1773A,126.5843,43.8358,吉林市,东局子,,32,NA,114,17,83,101,101,85,85,5,24,4,7,0.9,1.3
2026-04-15T1400,1774A,126.5051,43.8243,吉林市,电力学院,,36,25,110,19,85,113,113,94,94,9,26,5,12,0.6,1
2026-04-15T1400,1775A,126.6133,43.8971,吉林市,江北,NA,NA,NA,116,NA,81,NA,NA,94,74,NA,25,NA,13,NA,0.9
2026-04-15T1400,1776A,126.5549,43.8304,吉林市,江南公园,,33,29,99,16,83,103,103,89,89,9,26,6,12,0.5,0.8
2026-04-15T1400,2868A,126.4737,43.953,吉林市,九站,细颗粒物(PM2.5),54,54,103,37,78,118,118,96,96,9,28,7,15,0.4,0.6
2026-04-15T1400,1299A,116.9866,36.6118,济南市,科干所,NA,NA,NA,57,NA,28,160,160,98,98,NA,26,9,7,NA,0.4
2026-04-15T1400,1300A,116.9379,36.6652,济南市,农科所,颗粒物(PM10),70,78,63,31,28,159,159,86,86,18,38,8,6,0.2,0.3
2026-04-15T1400,1301A,117.1265,36.6736,济南市,开发区,臭氧1小时(O3_1h),77,81,59,40,23,181,181,111,111,16,25,6,6,0.4,0.4
2026-04-15T1400,1303A,117.0616,36.6865,济南市,省种子仓库,颗粒物(PM10),74,83,70,29,24,173,173,99,99,9,32,6,6,0.5,0.5
2026-04-15T1400,1304A,116.9495185,36.644937,济南市,机床二厂,颗粒物(PM10),75,85,75,34,31,164,164,96,96,20,38,8,6,0.5,0.5
2026-04-15T1400,1305A,117.0496,36.6629,济南市,市监测站,NA,NA,81,59,29,23,171,171,49,NA,NA,28,6,4,0.7,0.7
2026-04-15T1400,1306A,116.7674,36.5458,济南市,长清党校,NA,NA,66,51,18,18,151,151,100,100,NA,16,7,5,0.5,0.5
2026-04-15T1400,1961A,117.5323,36.6865,济南市,东山小学,NA,NA,NA,92,NA,36,196,196,108,108,NA,30,10,5,NA,0.4
2026-04-15T1400,3059A,117.7181,36.205,济南市,泰兴公司,臭氧1小时(O3_1h),68,56,64,18,29,174,174,100,100,13,42,12,12,0.5,0.8
2026-04-15T1400,3064A,117.6861,36.2172,济南市,莱芜战役纪念馆,臭氧1小时(O3_1h),78,58,70,20,31,182,182,108,108,11,32,10,11,0.7,1
2026-04-15T1400,3494A,117.1673,36.9782,济南市,济阳区政府,颗粒物(PM10),65,71,98,34,66,160,160,90,90,15,32,9,8,0.5,0.6
2026-04-15T1400,3495A,117.1168,36.6299,济南市,锦屏中学,颗粒物(PM10),73,81,49,35,24,165,165,111,111,18,17,2,3,0.2,0.2
2026-04-15T1400,4108A,117.7107,36.2385,济南市,山财大街5号,臭氧1小时(O3_1h),69,48,70,20,31,175,175,102,102,10,38,8,9,0.7,0.9
2026-04-15T1400,4109A,116.9744,36.6889,济南市,无影山路12号,颗粒物(PM10),63,68,60,36,26,160,160,88,88,17,45,7,6,0.6,0.7
2026-04-15T1400,1653A,116.6229,35.4288,济宁市,火炬城,颗粒物(PM10),55,56,49,22,24,159,159,98,98,8,16,11,9,0.6,0.6
2026-04-15T1400,3500A,116.5808,35.3703,济宁市,北湖一中,颗粒物(PM10),61,65,57,26,25,165,165,100,100,12,24,10,8,0.3,0.2
2026-04-15T1400,3501A,116.8251,35.5592,济宁市,服务中心,颗粒物(PM10),58,61,53,30,31,164,164,94,94,10,27,4,3,0.6,0.6
2026-04-15T1400,3678A,116.5907,35.4054,济宁市,市第七中学,臭氧1小时(O3_1h),72,71,60,19,23,177,177,107,107,10,23,6,6,0.3,0.6
2026-04-15T1400,4111A,116.6075,35.4566,济宁市,任和路,臭氧1小时(O3_1h),72,63,67,25,27,177,177,102,102,11,20,11,8,0.4,0.4
2026-04-15T1400,4112A,116.5648,35.3921,济宁市,文体南路1号,臭氧1小时(O3_1h),55,47,70,17,22,164,164,103,103,9,25,7,6,0.5,0.5
2026-04-15T1400,4122A,112.6071,35.1015,济源市,市委党校,,46,46,81,13,34,116,116,73,73,9,21,7,8,0.3,0.4
2026-04-15T1400,4123A,112.596,35.0702,济源市,沁园中路1号,,38,35,62,9,33,120,120,74,74,6,21,3,4,0.4,0.5
2026-04-15T1400,2255A,130.2749,46.8028,佳木斯市,佳纺,,40,40,66,24,42,121,121,77,77,6,26,5,5,0.3,0.5
2026-04-15T1400,2257A,130.3258,46.7975,佳木斯市,环保局,,39,39,58,26,41,121,121,64,64,9,32,6,6,0.4,0.6
2026-04-15T1400,4285A,130.363,46.806,佳木斯市,顺和街,,50,NA,49,35,39,120,120,75,75,10,29,4,4,0.3,0.3
2026-04-15T1400,4286A,130.3952,46.8268,佳木斯市,长安路196号,,39,28,50,13,36,122,122,84,84,9,25,6,6,0.4,0.5
2026-04-15T1400,1252A,120.7439,30.778,嘉兴市,清河小学,,46,20,42,13,42,146,146,66,66,11,26,7,7,0.5,0.8
2026-04-15T1400,1253A,120.7261,30.7477,嘉兴市,嘉兴学院,,46,NA,35,17,39,146,146,61,61,12,26,6,6,0.4,0.8
2026-04-15T1400,2872A,120.7845,30.7524,嘉兴市,南湖区残联,,45,NA,42,17,46,141,141,66,66,10,25,4,4,0.6,1
2026-04-15T1400,3407A,120.6915,30.7741,嘉兴市,秀洲住建,,50,21,45,19,21,157,157,67,67,5,17,6,5,0.4,0.7
2026-04-15T1400,1945A,98.291,39.7705,嘉峪关市,气象局,NA,NA,46,58,NA,21,110,110,98,98,8,10,15,18,1.2,0.8
2026-04-15T1400,2884A,98.2672,39.7978,嘉峪关市,酒钢宾馆,,48,48,68,10,22,114,114,100,100,6,11,31,22,0.9,0.8
2026-04-15T1400,3248A,98.2644,39.7723,嘉峪关市,雄关区,颗粒物(PM10),51,51,65,13,22,107,107,95,95,13,14,19,17,1.2,0.5
2026-04-15T1400,1383A,113.1063,22.6058,江门市,北街,,23,23,20,9,12,50,50,36,36,5,11,/,/,/,/
2026-04-15T1400,1384A,113.073,22.5835,江门市,西区,,17,13,22,8,12,52,52,38,38,6,12,/,/,/,/
2026-04-15T1400,1385A,113.0218,22.531,江门市,圭峰西,,22,22,23,10,12,48,48,35,35,8,13,/,/,/,/
2026-04-15T1400,1386A,113.0826,22.5947,江门市,东湖,,20,20,21,7,12,52,52,38,38,6,10,6,6,0.3,0.4
2026-04-15T1400,3311A,113.1077,22.5647,江门市,江海富民,,23,23,31,6,12,51,51,36,36,5,12,/,/,0.2,0.3
2026-04-15T1400,3449A,113.0496,22.4669,江门市,新会银湖,,24,24,22,7,12,45,45,29,29,8,17,6,6,0.6,0.6
2026-04-15T1400,3335A,113.3137,35.2643,焦作市,马村街道办,,37,36,56,19,28,116,116,83,83,5,16,8,9,0.3,0.4
2026-04-15T1400,3336A,113.2464,35.2374,焦作市,焦作技师学院,,36,25,63,18,29,114,114,76,76,6,14,11,10,0.8,1
2026-04-15T1400,3477A,113.1656,35.2536,焦作市,中站许衡医院,,38,27,48,7,29,121,121,88,88,7,13,10,10,0.5,0.5
2026-04-15T1400,3981A,113.2456,35.18,焦作市,原李万街道办,,37,30,54,19,29,116,116,76,76,4,13,6,8,0.2,0.3
2026-04-15T1400,4264A,113.234,35.219,焦作市,新安路1731号,,40,28,59,15,30,127,127,84,84,14,23,10,11,0.6,0.8
2026-04-15T1400,4295A,113.2722,35.2121,焦作市,人民路3066号,,36,22,63,21,32,115,115,73,73,8,16,4,7,0.3,0.4
2026-04-15T1400,1708A,116.3701,23.5345,揭阳市,新兴,NA,NA,54,35,16,20,78,78,44,44,NA,11,6,6,0.5,0.6
2026-04-15T1400,1709A,116.3261,23.5442,揭阳市,西马,,26,26,37,13,21,76,76,41,41,9,16,4,5,0.4,0.5
2026-04-15T1400,1710A,116.361,23.5627,揭阳市,东兴,,41,41,35,14,21,83,83,44,44,5,11,2,3,/,/
2026-04-15T1400,1711A,116.4151,23.5295,揭阳市,渔湖,颗粒物(PM10),58,61,33,24,20,98,98,54,54,16,16,3,4,/,/
2026-04-15T1400,3320A,116.4028,23.5699,揭阳市,曲溪,,29,26,38,20,22,92,92,48,48,6,11,9,9,0.5,0.5
2026-04-15T1400,1944A,102.1691,38.5166,金昌市,天庆家园,颗粒物(PM10),86,100,62,16,20,111,111,93,93,2,8,6,12,0.5,0.5
2026-04-15T1400,4022A,102.1648,38.5369,金昌市,金川区人防中心,颗粒物(PM10),60,63,60,9,20,109,109,92,92,3,9,5,7,0.3,0.3
2026-04-15T1400,4239A,102.193042,38.531887,金昌市,长春路96号,颗粒物(PM10),58,61,57,15,20,105,105,94,94,2,5,7,8,0.3,0.3
2026-04-15T1400,1262A,119.6478,29.0773,金华市,十五中,细颗粒物(PM2.5),58,54,49,39,38,101,101,70,70,18,25,3,3,0.7,0.7
2026-04-15T1400,1263A,119.6859,29.1032,金华市,监测站,细颗粒物(PM2.5),56,51,45,38,33,99,99,72,72,22,30,4,4,0.7,0.6
2026-04-15T1400,3659A,119.656,29.1132,金华市,气象局,细颗粒物(PM2.5),64,49,48,42,41,93,93,64,64,19,34,3,3,0.8,0.8
2026-04-15T1400,1767A,121.1114,41.0879,锦州市,南山,细颗粒物(PM2.5),80,78,55,50,55,153,153,93,93,16,33,13,10,0.7,0.7
2026-04-15T1400,1768A,121.060361,40.842794,锦州市,开发区,细颗粒物(PM2.5),120,96,73,82,68,143,143,88,88,24,41,15,16,1.1,1
2026-04-15T1400,1769A,121.1836,41.1118,锦州市,百股街道,细颗粒物(PM2.5),82,67,58,51,61,152,152,96,96,15,32,9,7,0.9,1
2026-04-15T1400,1770A,121.1176,41.1224,锦州市,天安街道,细颗粒物(PM2.5),90,68,60,55,56,146,146,83,83,17,33,9,8,1.0,0.8
2026-04-15T1400,1771A,121.1303,41.1385,锦州市,北湖公园,细颗粒物(PM2.5),94,64,57,57,54,152,152,89,89,14,26,11,9,0.7,0.6
2026-04-15T1400,2160A,112.8496,35.5051,晋城市,自来水公司,NA,NA,NA,58,3,26,122,122,86,86,3,13,4,5,0.3,0.6
2026-04-15T1400,2162A,112.8509,35.4886,晋城市,市环保局,,37,37,61,3,32,117,117,88,88,7,14,5,7,0.2,0.4
2026-04-15T1400,3620A,112.8258,35.4804,晋城市,泽州一中,,39,28,55,3,28,124,124,92,92,5,16,3,4,0.5,0.7
2026-04-15T1400,4078A,112.8246,35.5152,晋城市,前书院路,,36,17,58,3,29,114,114,82,82,3,14,6,7,0.2,0.4
2026-04-15T1400,4079A,112.8864,35.4773,晋城市,祥云街666号,,37,19,53,3,33,118,118,83,83,4,19,7,8,0.3,0.4
2026-04-15T1400,2174A,112.6992,37.6984,晋中市,榆次区政府,颗粒物(PM10),65,70,113,27,62,138,138,90,90,7,24,9,6,0.5,0.8
2026-04-15T1400,2865A,112.7195,37.683,晋中市,榆次三中,颗粒物(PM10),79,90,117,20,61,142,142,98,98,5,20,8,6,0.8,0.7
2026-04-15T1400,4080A,112.7375,37.7215,晋中市,广安街188号,颗粒物(PM10),63,68,114,20,60,138,138,87,87,8,26,10,4,0.4,0.5
2026-04-15T1400,4200A,112.7478,37.6954,晋中市,迎宾街26号,颗粒物(PM10),65,70,110,23,59,147,147,96,96,8,20,8,5,0.4,0.6
2026-04-15T1400,2439A,112.2012,31.048,荆门市,竹园小学,,45,42,60,31,30,96,96,53,53,11,20,2,5,0.2,0.2
2026-04-15T1400,2440A,112.1968,30.9892,荆门市,掇刀,NA,NA,57,62,24,29,89,89,54,54,11,17,NA,8,0.7,0.6
2026-04-15T1400,3012A,112.1849,31.0361,荆门市,西山林语,颗粒物(PM10),56,58,56,32,26,100,100,58,58,9,13,11,6,0.4,0.4
2026-04-15T1400,3547A,112.1631,31.0134,荆门市,龙泉中学南校,,45,45,60,31,33,104,104,72,72,10,15,6,5,0.3,0.3
2026-04-15T1400,4124A,112.2213,31.0654,荆门市,新台西路6号,,43,NA,45,30,28,105,105,54,54,7,23,7,9,0.4,0.4
2026-04-15T1400,1844A,112.2493,30.3198,荆州市,市图书馆,,36,NA,30,25,25,77,77,43,43,11,20,6,8,0.5,0.6
2026-04-15T1400,1845A,112.2009,30.3543,荆州市,市委党校,,30,28,34,21,22,72,72,39,39,11,21,7,8,0.7,0.7
2026-04-15T1400,3194A,112.2749,30.3124,荆州市,管委会,,32,NA,31,22,27,70,70,36,36,7,19,6,9,0.5,0.6
2026-04-15T1400,4268A,112.1722,30.3366,荆州市,学苑路85号,,35,29,25,24,22,91,91,50,50,6,13,1,3,0.7,0.6
2026-04-15T1400,2343A,117.2114,29.2931,景德镇市,老干部活动中心,,22,NA,18,12,19,69,69,46,46,3,7,5,6,0.7,0.8
2026-04-15T1400,2344A,117.1893,29.2789,景德镇市,兽医站,,24,24,27,6,13,68,68,46,46,6,12,4,4,0.7,0.7
2026-04-15T1400,2346A,117.246,29.2958,景德镇市,陶研所,,20,16,21,6,15,64,64,45,45,7,14,3,6,0.7,0.8
2026-04-15T1400,4289A,117.154766,29.256967,景德镇市,青少年活动中心,,22,18,22,15,17,54,54,40,40,14,14,13,13,/,/
2026-04-15T1400,1803A,115.9873,29.6816,九江市,十里,,32,20,35,9,21,102,102,74,74,14,26,9,8,0.7,0.8
2026-04-15T1400,1804A,115.9583,29.7047,九江市,茅山头,,35,22,33,10,21,111,111,79,79,5,27,4,4,0.6,0.7
2026-04-15T1400,1805A,115.9877,29.7295,九江市,西园,,37,23,39,10,22,116,116,79,79,15,44,4,6,0.6,0.7
2026-04-15T1400,1808A,115.9112,29.6038,九江市,综合工业园,,30,23,33,12,23,93,93,65,65,27,33,9,8,0.5,0.7
2026-04-15T1400,3190A,116.0254,29.6995,九江市,外国语学校,,30,22,35,12,23,96,96,70,70,16,28,9,9,0.7,0.9
2026-04-15T1400,4253A,116.010205,29.659402,九江市,莲花大道8号,,31,15,38,13,22,98,98,72,72,10,14,5,5,0.6,0.8
2026-04-15T1400,4240A,98.495752,39.733935,酒泉市,玉门东路5号,,44,44,58,10,20,101,101,92,92,4,6,5,7,0.2,0.2
2026-04-15T1400,4241A,98.5099,39.7506,酒泉市,北大街108号,,46,46,54,13,20,97,97,86,86,2,6,8,9,0.2,0.2
2026-04-15T1400,2698A,76.0071,39.466,喀什地区,巡警大队,颗粒物(PM10),52,52,100,9,28,109,109,41,41,8,33,4,4,0.2,0.4
2026-04-15T1400,2699A,75.9756,39.4693,喀什地区,吾办,颗粒物(PM10),55,56,97,15,25,104,104,41,41,9,28,3,4,0.3,0.5
2026-04-15T1400,4027A,75.9485,39.4688,喀什地区,老干局,,48,48,90,3,19,100,100,43,43,11,25,3,3,0.3,0.5
2026-04-15T1400,1824A,114.3389,34.778,开封市,肿瘤医院,颗粒物(PM10),56,58,42,28,30,154,154,99,99,12,16,9,6,0.6,0.5
2026-04-15T1400,1826A,114.2884,34.7966,开封市,世纪星幼儿园,颗粒物(PM10),51,51,41,33,27,156,156,103,103,16,19,10,7,0.5,0.5
2026-04-15T1400,3147A,114.3434,34.8101,开封市,龙亭公园,颗粒物(PM10),53,54,40,26,25,156,156,102,102,12,18,10,8,0.7,0.6
2026-04-15T1400,3210A,114.3645,34.7955,开封市,汴京公园,颗粒物(PM10),62,66,51,31,28,164,164,107,107,12,17,8,5,0.4,0.4
2026-04-15T1400,3473A,114.2485,34.8306,开封市,技师学院,NA,NA,NA,30,21,21,162,162,99,99,10,14,9,5,0.6,0.4
2026-04-15T1400,3592A,114.4518,34.7503,开封市,祥符区生态环境局,,47,40,45,25,32,150,150,90,90,15,31,9,7,0.6,0.5
2026-04-15T1400,1951A,84.886,45.6029,克拉玛依市,长征新村,,36,36,54,3,10,85,85,91,86,2,3,7,6,0.3,0.3
2026-04-15T1400,1952A,84.8894,45.5827,克拉玛依市,南林小区,,45,45,50,3,8,100,100,98,94,2,3,4,4,0.3,0.2
2026-04-15T1400,1954A,84.896,44.3328,克拉玛依市,独山子区,颗粒物(PM10),98,116,125,21,16,95,95,82,82,11,7,8,5,0.3,0.3
2026-04-15T1400,1955A,85.6888,46.0909,克拉玛依市,乌尔禾区商贸楼,,32,20,46,7,10,101,101,74,74,6,10,3,3,0.4,0.4
2026-04-15T1400,3612A,85.1045,45.6895,克拉玛依市,白碱滩区新站,,35,25,64,3,9,110,110,102,101,1,2,6,6,0.2,0.2
2026-04-15T1400,2697A,76.1457,39.7143,克孜勒苏柯尔克孜自治州,市人民政府,,39,18,29,10,16,122,122,96,96,2,10,4,14,0.1,0.1
2026-04-15T1400,3665A,76.1654,39.7157,克孜勒苏柯尔克孜自治州,克州文化中心,,38,16,32,13,15,121,121,93,93,2,8,7,18,0.1,0.2
2026-04-15T1400,1450A,102.8203,24.889,昆明市,呈贡新区,细颗粒物(PM2.5),64,63,68,42,48,168,168,151,151,7,13,3,6,0.6,0.5
2026-04-15T1400,1452A,102.7253,25.0904,昆明市,龙泉镇,细颗粒物(PM2.5),78,56,70,49,44,139,139,117,117,6,13,5,5,0.6,0.6
2026-04-15T1400,1453A,102.7267,25.0378,昆明市,东风东路,颗粒物(PM10),69,76,76,44,45,150,150,139,139,11,15,3,6,0.6,0.7
2026-04-15T1400,1454A,102.6744,25.0671,昆明市,金鼎山,细颗粒物(PM2.5),84,83,79,52,48,146,146,125,125,9,16,3,4,0.7,0.6
2026-04-15T1400,1455A,102.6643,25.0401,昆明市,碧鸡广场,"颗粒物(PM10),细颗粒物(PM2.5)",68,74,79,44,44,144,144,120,120,10,18,5,8,0.7,0.7
2026-04-15T1400,3179A,102.7491,25.012,昆明市,官渡区博物馆,细颗粒物(PM2.5),72,76,75,46,45,150,150,142,142,9,13,5,7,0.4,0.6
2026-04-15T1400,3375A,102.8016,24.8336,昆明市,青年创业园,细颗粒物(PM2.5),72,64,77,46,41,165,165,130,130,6,12,7,7,0.5,0.5
2026-04-15T1400,3550A,102.8,24.9787,昆明市,昆明学院,颗粒物(PM10),75,84,76,47,40,157,157,142,142,9,10,7,7,0.7,0.7
2026-04-15T1400,3551A,102.5969,24.6738,昆明市,晋宁区生态环境分局,细颗粒物(PM2.5),84,56,65,52,46,158,158,147,147,5,6,4,4,0.6,0.6
2026-04-15T1400,3552A,102.6673,24.9861,昆明市,云天化总部,细颗粒物(PM2.5),68,70,79,44,42,159,159,137,137,9,15,6,8,0.6,0.6
2026-04-15T1400,1456A,91.132,29.6515,拉萨市,八廓街,,42,19,25,7,9,132,132,119,117,6,7,4,4,0.2,0.2
2026-04-15T1400,1457A,91.1221,29.6748,拉萨市,市环保局,,40,30,24,6,8,125,125,113,113,6,9,4,4,0.4,0.3
2026-04-15T1400,1458A,91.0874,29.6476,拉萨市,区监测站,,41,15,20,6,7,131,131,119,119,8,9,4,5,0.2,0.2
2026-04-15T1400,1459A,91.1774,29.6541,拉萨市,西藏大学,NA,NA,22,24,3,8,124,124,111,109,NA,9,NA,4,0.2,0.2
2026-04-15T1400,1460A,90.9798,29.6586,拉萨市,区辐射站,,36,30,24,3,7,113,113,102,102,13,8,4,4,0.3,0.3
2026-04-15T1400,1461A,91.0831,29.6292,拉萨市,拉萨火车站,NA,NA,27,20,6,8,131,131,119,NA,5,6,NA,4,NA,0.2
2026-04-15T1400,2520A,109.2203,23.7252,来宾市,来宾技工学校,细颗粒物(PM2.5),66,68,58,43,40,90,90,50,50,6,10,6,8,0.8,0.8
2026-04-15T1400,3535A,109.1781,23.7293,来宾市,兴宾区政府,颗粒物(PM10),55,56,60,34,40,97,97,50,50,5,11,8,11,0.7,0.8
2026-04-15T1400,4002A,109.2312,23.7428,来宾市,中南小学,颗粒物(PM10),60,64,58,38,41,89,89,49,49,11,14,7,9,0.6,0.7
2026-04-15T1400,1479A,103.8309,36.0467,兰州市,铁路设计院,细颗粒物(PM2.5),78,72,66,49,31,96,96,53,53,26,37,9,8,0.6,0.7
2026-04-15T1400,3241A,103.7439,36.0841,兰州市,百合公园,颗粒物(PM10),59,62,64,36,34,103,103,54,54,22,42,16,9,0.7,0.5
2026-04-15T1400,3242A,103.9613,35.9985,兰州市,和平,颗粒物(PM10),61,65,50,34,25,99,99,78,78,17,13,10,7,0.6,0.4
2026-04-15T1400,4236A,103.629272,36.093822,兰州市,庄浪东路808号,颗粒物(PM10),78,88,67,38,29,99,99,66,66,19,25,17,19,0.5,0.5
2026-04-15T1400,4237A,103.7251,36.104344,兰州市,安宁西路88号,颗粒物(PM10),78,89,74,43,32,111,111,67,67,24,35,14,16,0.4,0.4
2026-04-15T1400,4238A,103.846982,36.067567,兰州市,北滨河东路1号,颗粒物(PM10),67,73,58,38,30,95,95,49,49,22,40,10,10,0.6,0.6
2026-04-15T1400,1067A,116.6712,39.5109,廊坊市,药材公司,细颗粒物(PM2.5),123,105,118,85,77,146,146,88,88,31,48,6,6,0.9,1.1
2026-04-15T1400,1068A,116.7215,39.5592,廊坊市,开发区,细颗粒物(PM2.5),125,132,115,87,75,146,146,100,100,24,43,5,3,0.7,0.9
2026-04-15T1400,1070A,116.7246,39.5273,廊坊市,北华航天学院,细颗粒物(PM2.5),130,118,123,92,73,153,153,85,85,29,51,8,6,0.8,1
2026-04-15T1400,2919A,116.7022,39.5454,廊坊市,河北工业大学,细颗粒物(PM2.5),116,124,124,77,73,152,152,85,85,27,48,8,7,0.7,0.9
2026-04-15T1400,2536A,103.7629,29.5844,乐山市,牛耳桥,,36,33,31,17,19,115,115,81,81,14,16,4,7,0.4,0.5
2026-04-15T1400,2537A,103.7501,29.6002,乐山市,市第三水厂,,35,31,33,17,19,112,112,79,79,14,16,6,5,0.5,0.5
2026-04-15T1400,2538A,103.7571,29.5664,乐山市,市监测站,,35,29,31,14,17,111,111,78,78,10,14,4,4,0.5,0.5
2026-04-15T1400,3361A,103.7313,29.563,乐山市,理工大学,,39,31,28,18,20,122,122,82,82,8,12,4,4,0.4,0.5
2026-04-15T1400,2599A,100.2497,26.8802,丽江市,丽江古城,,38,28,38,17,22,120,120,117,117,10,10,8,8,0.6,0.6
2026-04-15T1400,2600A,100.2203,26.8906,丽江市,市中心,,38,22,29,14,20,120,120,114,114,14,13,7,7,0.5,0.5
2026-04-15T1400,1267A,119.9141,28.4513,丽水市,监测站大楼,,25,25,34,17,28,61,61,48,48,13,14,6,5,0.7,0.7
2026-04-15T1400,1268A,119.93,28.4589,丽水市,莲都小学,,23,23,37,15,28,59,59,48,48,12,14,/,/,/,/
2026-04-15T1400,1269A,119.8794,28.4232,丽水市,余庄前,,24,24,38,14,25,39,39,30,30,16,14,5,5,0.6,0.8
2026-04-15T1400,1173A,119.1759,34.5885,连云港市,市环境监测站,臭氧1小时(O3_1h),102,53,54,34,36,204,204,114,114,18,31,12,11,0.6,0.7
2026-04-15T1400,3000A,119.3577,34.6971,连云港市,德源药业,NA,NA,29,66,9,29,135,135,76,76,13,58,6,7,NA,0.4
2026-04-15T1400,3007A,119.178,34.8442,连云港市,新城一中,颗粒物(PM10),52,52,60,19,48,138,138,96,96,16,46,13,14,0.8,0.7
2026-04-15T1400,3008A,119.3607,34.7519,连云港市,胡沟管理处,,39,14,33,9,26,123,123,91,91,20,50,15,15,0.4,0.5
2026-04-15T1400,3009A,119.1478,34.5913,连云港市,矿山设计院,臭氧1小时(O3_1h),100,56,54,27,32,200,200,106,106,15,32,11,10,0.6,0.6
2026-04-15T1400,3434A,119.2414,34.6539,连云港市,工贸学校,臭氧1小时(O3_1h),62,41,42,22,22,169,169,108,108,13,19,12,11,0.3,0.4
2026-04-15T1400,3664A,119.4171,34.734,连云港市,连云街道,,39,33,53,14,23,124,124,64,64,14,32,2,3,0.3,0.4
2026-04-15T1400,2573A,102.2629,27.8981,凉山彝族自治州,西昌市政府,,42,42,34,28,22,132,132,104,104,4,10,6,6,0.4,0.5
2026-04-15T1400,2574A,102.2686,27.885,凉山彝族自治州,凉山州政府,,43,43,34,25,20,114,114,84,84,4,10,5,5,0.4,0.5
2026-04-15T1400,4229A,102.2342,27.8859,凉山彝族自治州,凯乐南路30号,,47,47,36,20,14,121,121,89,89,7,13,5,3,0.5,0.5
2026-04-15T1400,2212A,123.1978,41.2036,辽阳市,宏伟区,颗粒物(PM10),63,67,91,37,89,125,125,99,99,16,20,8,6,1.0,1
2026-04-15T1400,2213A,123.1684,41.2497,辽阳市,新华园,细颗粒物(PM2.5),102,93,107,62,100,139,139,90,90,29,27,17,11,1.2,0.8
2026-04-15T1400,2214A,123.2355,41.2663,辽阳市,滨河路,细颗粒物(PM2.5),70,62,92,45,99,127,127,78,78,22,31,10,7,0.9,0.9
2026-04-15T1400,4083A,123.153,41.2874,辽阳市,铁西路150号,细颗粒物(PM2.5),117,95,98,78,91,131,131,84,84,34,33,23,9,1.7,0.9
2026-04-15T1400,2227A,125.1359,42.8845,辽源市,环保局,颗粒物(PM10),53,53,49,33,42,120,120,88,88,10,15,6,6,0.5,0.6
2026-04-15T1400,4085A,125.0998,42.9134,辽源市,安宁大街333号,NA,NA,NA,54,36,41,119,119,89,89,7,15,5,5,NA,0.4
2026-04-15T1400,1625A,115.9789,36.4372,聊城市,区政府,颗粒物(PM10),55,57,53,19,19,150,150,100,100,7,20,8,8,0.7,0.7
2026-04-15T1400,3200A,115.9772,36.4986,聊城市,监控中心,,50,50,51,24,19,158,158,97,97,14,33,10,10,0.4,0.4
2026-04-15T1400,3513A,116.0443,36.436,聊城市,九州社区,臭氧1小时(O3_1h),67,70,62,31,23,173,173,116,116,11,20,13,10,0.4,0.4
2026-04-15T1400,4018A,116.0564,36.4609,聊城市,星美广场,颗粒物(PM10),65,71,59,40,32,168,168,108,108,12,18,12,10,0.7,0.6
2026-04-15T1400,4113A,116.0091,36.4495,聊城市,利民路,臭氧1小时(O3_1h),63,45,46,28,25,170,170,113,113,8,19,12,11,0.5,0.4
2026-04-15T1400,2632A,94.3683,29.6373,林芝市,林芝监测站,,34,12,12,3,3,106,106,94,91,4,5,4,4,0.5,0.5
2026-04-15T1400,2633A,94.3616,29.6634,林芝市,林芝人民医院,,34,6,7,3,4,107,107,94,91,2,3,4,4,0.4,0.5
2026-04-15T1400,2603A,100.0779,23.8981,临沧市,市环保局,细颗粒物(PM2.5),94,92,90,57,60,138,138,90,90,7,11,6,8,0.8,0.8
2026-04-15T1400,2604A,100.0894,23.882,临沧市,市气象局,细颗粒物(PM2.5),104,78,98,64,68,99,99,66,64,21,16,6,8,0.9,0.8
2026-04-15T1400,1733A,111.5552,36.0791,临汾市,临钢医院,颗粒物(PM10),60,63,77,31,35,134,134,81,81,10,20,9,10,1.0,1.2
2026-04-15T1400,1734A,111.4984,36.0734,临汾市,技工学校,颗粒物(PM10),56,58,66,32,42,128,128,84,84,8,20,9,10,0.7,0.9
2026-04-15T1400,1736A,111.5017,36.0857,临汾市,市委,颗粒物(PM10),53,53,70,27,34,133,133,87,87,8,20,9,10,0.8,0.9
2026-04-15T1400,3018A,111.5048,36.1015,临汾市,唐尧大酒店,颗粒物(PM10),69,76,80,34,34,133,133,84,84,8,22,10,10,0.8,0.8
2026-04-15T1400,4244A,111.4879,36.053,临汾市,启星学校,,44,44,64,29,39,118,118,76,76,9,26,10,9,0.8,1
2026-04-15T1400,4271A,103.2464,35.6123,临夏回族自治州,滨河东路1号,颗粒物(PM10),70,77,77,30,36,78,78,44,44,12,33,12,10,0.4,0.5
2026-04-15T1400,4310A,103.207136,35.599807,临夏回族自治州,新华街21号,颗粒物(PM10),55,56,73,33,41,70,70,48,48,6,18,8,8,0.1,0.4
2026-04-15T1400,1618A,118.3429,35.0532,临沂市,沂河小区,,50,44,65,22,36,157,157,100,100,8,28,13,16,0.3,0.4
2026-04-15T1400,1619A,118.2962,35.0568,临沂市,鲁南制药厂,臭氧1小时(O3_1h),67,46,61,25,38,173,173,114,114,10,24,16,16,0.1,0.3
2026-04-15T1400,1620A,118.2793,34.9976,临沂市,新光毛纺厂,,47,31,64,14,42,148,148,102,102,6,27,11,18,0.2,0.4
2026-04-15T1400,1621A,118.3955,35.0889,临沂市,河东保险公司,臭氧1小时(O3_1h),53,44,70,22,38,162,162,98,98,11,44,14,14,0.3,0.4
2026-04-15T1400,3370A,118.3563,35.0215,临沂市,十里堡居委,,49,34,57,21,38,156,156,111,111,11,33,11,18,0.5,0.6
2026-04-15T1400,3496A,118.359,35.1067,临沂市,南坊新区,NA,NA,NA,72,NA,41,166,166,88,88,14,38,15,13,0.4,0.5
2026-04-15T1400,3860A,118.3915,35.0297,临沂市,皇山花园小区,,50,39,65,22,42,158,158,108,108,13,41,12,18,0.4,0.5
2026-04-15T1400,1870A,109.4854,24.3898,柳州市,柳东小学,,36,31,42,25,31,62,62,43,43,8,12,4,5,0.8,0.8
2026-04-15T1400,1871A,109.4109,24.3304,柳州市,环保监测站,,39,39,46,24,27,62,62,37,37,12,17,5,9,0.9,0.9
2026-04-15T1400,1872A,109.3886,24.3408,柳州市,河西水厂,,50,50,51,27,33,65,65,33,33,9,19,10,18,0.9,1.2
2026-04-15T1400,1873A,109.4263,24.2951,柳州市,市四中,,44,44,44,27,31,63,63,39,39,13,13,8,9,0.9,0.8
2026-04-15T1400,1874A,109.396,24.3658,柳州市,市九中,,43,43,45,27,29,66,66,38,38,6,14,6,11,0.7,0.8
2026-04-15T1400,1875A,109.4912,24.3164,柳州市,古亭山,,39,39,40,25,27,63,63,46,46,11,11,6,5,0.8,0.8
2026-04-15T1400,3402A,109.5422,24.3994,柳州市,市二中,,42,38,35,29,27,59,59,46,46,11,10,8,7,0.7,0.7
2026-04-15T1400,2307A,116.5078,31.7369,六安市,监测大楼,NA,NA,38,21,23,19,113,113,91,91,7,15,8,4,NA,0.3
2026-04-15T1400,2308A,116.4738,31.7642,六安市,皖西学院,,42,42,28,20,18,120,120,90,90,5,10,4,4,0.3,0.3
2026-04-15T1400,2309A,116.4997,31.7904,六安市,朝阳厂,,36,35,26,23,20,114,114,87,87,12,19,6,6,0.2,0.3
2026-04-15T1400,2310A,116.5566,31.7885,六安市,开发区,,40,34,20,26,22,127,127,95,95,14,30,5,5,0.4,0.4
2026-04-15T1400,2577A,104.8293,26.592,六盘水市,黄土坡,,47,47,56,26,34,146,146,97,97,6,12,7,8,0.3,0.5
2026-04-15T1400,2579A,104.8481,26.5898,六盘水市,民中,NA,NA,NA,56,NA,35,142,142,96,96,5,13,5,6,0.4,0.6
2026-04-15T1400,2580A,104.9541,26.5506,六盘水市,双水,颗粒物(PM10),55,56,55,25,35,129,129,91,91,9,11,5,6,0.3,0.4
2026-04-15T1400,4151A,104.8899,26.5685,六盘水市,钟山大道中段564号,颗粒物(PM10),58,61,65,27,33,136,136,89,89,6,8,3,3,0.6,0.7
2026-04-15T1400,2336A,117.022,25.1031,龙岩市,龙岩市监测站,,43,38,34,30,26,96,96,60,60,4,13,6,7,0.4,0.5
2026-04-15T1400,2337A,117.0257,25.0662,龙岩市,闽西职业技术学院,,43,43,35,30,24,83,83,54,54,2,8,5,6,0.6,0.6
2026-04-15T1400,2338A,117.0195,25.0306,龙岩市,龙岩学院,,41,41,33,25,23,90,90,61,61,3,8,4,3,/,/
2026-04-15T1400,2885A,104.9344,33.3827,陇南市,滨江中学,颗粒物(PM10),51,51,69,22,26,100,100,61,61,4,13,8,9,0.6,0.6
2026-04-15T1400,3247A,104.9551,33.3709,陇南市,市总工会,,42,42,58,15,23,104,104,65,65,4,10,8,9,0.5,0.5
2026-04-15T1400,2488A,111.9984,27.7346,娄底市,市监测站,,25,24,19,17,16,65,65,55,55,9,12,3,3,0.3,0.3
2026-04-15T1400,2491A,111.9888,27.7035,娄底市,市政府,NA,NA,17,16,16,15,74,74,62,62,NA,9,NA,2,NA,0.4
2026-04-15T1400,4127A,111.9812,27.7591,娄底市,涟钢职大,,25,7,19,3,10,79,79,63,63,6,11,3,3,0.5,0.6
2026-04-15T1400,4128A,112.0303,27.7457,娄底市,娄底体校,,20,NA,19,13,14,63,63,52,52,1,2,3,3,0.2,0.3
2026-04-15T1400,1894A,105.4427,28.9063,泸州市,小市上码头,,31,28,23,21,16,99,99,57,57,8,13,10,9,0.8,0.7
2026-04-15T1400,1895A,105.4241,28.8573,泸州市,兰田宪桥,NA,NA,24,23,14,12,102,102,46,46,NA,16,6,5,0.5,1
2026-04-15T1400,1896A,105.4378,28.8833,泸州市,市环监站,,31,27,27,14,14,97,97,45,45,14,15,9,8,0.7,0.7
2026-04-15T1400,4272A,105.3689,28.7783,泸州市,纳溪中医医院,,33,22,28,13,15,105,105,48,48,7,16,4,7,0.7,0.7
2026-04-15T1400,2183A,111.1447,37.5212,吕梁市,环保局,颗粒物(PM10),58,61,79,27,18,132,132,84,84,12,28,4,4,0.4,0.3
2026-04-15T1400,2185A,111.1285,37.5338,吕梁市,自来水公司,颗粒物(PM10),58,61,112,25,26,131,131,75,75,11,30,4,4,0.5,0.4
2026-04-15T1400,2867A,111.1225,37.5093,吕梁市,马茂庄小学,颗粒物(PM10),65,70,81,22,15,132,132,78,78,11,32,6,7,0.4,0.6
2026-04-15T1400,1812A,112.3934,34.6517,洛阳市,市委党校,细颗粒物(PM2.5),76,72,61,48,40,127,127,72,72,14,21,11,14,0.6,0.7
2026-04-15T1400,1815A,112.494,34.6883,洛阳市,河南林校,颗粒物(PM10),68,74,67,42,39,134,134,80,80,14,23,14,15,0.6,0.6
2026-04-15T1400,1816A,112.3843,34.623,洛阳市,开发区管委会,"颗粒物(PM10),细颗粒物(PM2.5)",76,86,67,48,40,132,132,84,84,13,18,13,14,0.7,0.8
2026-04-15T1400,1817A,112.4263,34.6249,洛阳市,市委新办公区,细颗粒物(PM2.5),105,75,62,65,43,128,128,83,83,15,18,12,13,0.5,0.6
2026-04-15T1400,3340A,112.6005,34.6323,洛阳市,伊滨,细颗粒物(PM2.5),88,NA,57,54,40,128,128,71,71,15,20,11,10,0.7,0.6
2026-04-15T1400,3341A,112.495,34.6338,洛阳市,中移产业园,细颗粒物(PM2.5),88,84,67,54,43,131,131,73,73,16,21,14,13,0.9,0.9
2026-04-15T1400,3593A,112.5736,34.8993,洛阳市,吉利监测站,颗粒物(PM10),60,64,54,27,30,132,132,75,75,13,29,12,10,0.5,0.5
2026-04-15T1400,3635A,112.3678,34.6623,洛阳市,河科大西苑校区,细颗粒物(PM2.5),78,68,60,49,40,136,136,78,78,12,17,12,14,0.5,0.5
2026-04-15T1400,3636A,112.4387,34.678,洛阳市,英才小学,颗粒物(PM10),98,116,77,39,39,120,120,74,74,14,23,14,16,0.5,0.6
2026-04-15T1400,4214A,112.460027,34.694929,洛阳市,春都路1号院,细颗粒物(PM2.5),76,75,65,48,39,142,142,86,86,14,20,11,13,0.7,0.8
2026-04-15T1400,2399A,114.051,33.5721,漯河市,三五一五工厂,,49,NA,33,34,29,126,126,83,83,10,21,4,4,0.3,0.3
2026-04-15T1400,2400A,114.0055,33.5698,漯河市,漯河大学,,39,29,28,22,32,122,122,80,80,11,18,5,6,0.3,0.4
2026-04-15T1400,2401A,114.0134,33.5826,漯河市,市水利局,NA,NA,NA,32,29,27,118,118,81,81,8,16,4,4,0.5,0.5
2026-04-15T1400,2402A,114.0261,33.5697,漯河市,市广电局,,40,32,32,20,26,127,127,84,84,7,18,4,4,0.5,0.5
2026-04-15T1400,3478A,113.9691,33.568,漯河市,市图书馆,,37,27,39,18,27,118,118,82,82,8,18,5,7,0.3,0.4
2026-04-15T1400,4250A,114.089259,33.588274,漯河市,韶山路11号,,40,32,40,26,26,125,125,78,78,9,27,6,5,0.6,0.5
2026-04-15T1400,1798A,118.5084,31.6838,马鞍山市,湖东路四小,,46,46,47,28,29,128,128,80,80,10,26,6,6,0.6,0.6
2026-04-15T1400,1799A,118.5019,31.6449,马鞍山市,开发区,,42,42,41,22,22,130,130,82,82,13,31,6,6,0.6,0.6
2026-04-15T1400,3633A,118.4914,31.681,马鞍山市,雨山,,46,46,36,26,20,131,131,82,82,11,26,7,7,0.7,0.7
2026-04-15T1400,4191A,118.527362,31.722269,马鞍山市,慈湖高新区,,45,45,44,29,29,133,133,89,89,8,26,7,9,0.6,0.5
2026-04-15T1400,1686A,111.0285,21.469,茂名市,电白南海,,24,24,25,8,9,47,47,46,45,5,5,5,4,0.7,0.7
2026-04-15T1400,1687A,110.9294,21.6533,茂名市,茂石化七小,,19,19,26,8,11,45,45,42,42,6,9,5,6,0.5,0.5
2026-04-15T1400,1688A,110.9108,21.6688,茂名市,健康路,,17,17,18,8,11,48,48,42,42,6,9,3,4,0.6,0.6
2026-04-15T1400,1689A,110.8592,21.6826,茂名市,高岭,,41,41,33,9,12,52,52,45,45,4,8,3,3,/,/
2026-04-15T1400,3450A,111.0101,21.5165,茂名市,电白水东,,15,9,13,7,9,46,46,45,44,5,7,1,2,/,/
2026-04-15T1400,2540A,103.8414,30.0871,眉山市,气象局,NA,NA,NA,41,12,15,115,115,68,68,7,14,8,10,0.5,0.6
2026-04-15T1400,3148A,103.829,30.0563,眉山市,区人社局,,38,38,39,15,15,109,109,70,68,12,20,8,11,0.5,0.5
2026-04-15T1400,4148A,103.8836,30.0695,眉山市,眉职院,,33,24,31,6,9,105,105,67,67,6,10,7,8,0.6,0.6
2026-04-15T1400,1690A,116.1248,24.3307,梅州市,梅江月梅,,20,20,35,8,26,64,64,40,40,3,15,/,/,/,/
2026-04-15T1400,1691A,116.0798,24.2719,梅州市,梅县新城,,22,22,30,9,20,66,66,41,41,2,11,8,9,0.4,0.5
2026-04-15T1400,3315A,116.1234,24.2994,梅州市,梅龙,,23,19,30,8,23,71,71,46,46,4,13,6,9,0.5,0.6
2026-04-15T1400,1878A,104.7775,31.4741,绵阳市,富乐山,,34,29,32,21,19,108,108,51,51,11,14,7,7,0.6,0.6
2026-04-15T1400,1880A,104.6698,31.4668,绵阳市,高新区自来水公司,,38,38,40,21,22,104,104,45,45,7,16,6,7,0.6,0.7
2026-04-15T1400,3491A,104.6899,31.5324,绵阳市,西科大附属小学,细颗粒物(PM2.5),60,54,42,40,23,96,96,47,47,17,18,6,6,0.6,0.5
2026-04-15T1400,3492A,104.5647,31.5343,绵阳市,安州区旅游局,,44,44,39,26,23,98,98,48,48,10,10,8,8,0.4,0.4
2026-04-15T1400,4146A,104.7092,31.4972,绵阳市,科技城新区公安局,NA,NA,44,36,32,20,90,90,48,48,NA,15,NA,7,0.6,0.6
2026-04-15T1400,4226A,104.765114,31.453094,绵阳市,绵阳市气象局,,33,30,34,23,19,84,84,40,40,25,16,9,9,0.4,0.4
2026-04-15T1400,1784A,129.61,44.561,牡丹江市,环保大楼,,31,17,40,10,28,97,97,84,84,8,17,2,5,0.3,0.4
2026-04-15T1400,1787A,129.6364,44.6075,牡丹江市,机车工厂,,29,22,47,19,27,90,90,74,74,8,16,5,13,0.5,0.5
2026-04-15T1400,1788A,129.6386,44.5462,牡丹江市,第一中学,,30,19,40,18,24,95,95,81,81,6,14,8,4,0.4,0.4
2026-04-15T1400,4287A,129.5992,44.5964,牡丹江市,东晓云街98号,,34,34,45,14,25,99,99,80,80,6,15,3,5,0.4,0.6
2026-04-15T1400,2531A,105.0703,29.61,内江市,市监测站,,32,NA,29,16,21,102,102,55,55,7,12,8,8,0.5,0.5
2026-04-15T1400,2533A,105.0657,29.5807,内江市,内江二中,,33,19,37,17,24,105,105,54,54,6,12,6,6,0.3,0.3
2026-04-15T1400,2534A,105.0407,29.5828,内江市,内江日报社,,38,NA,25,18,22,120,120,62,62,6,15,7,7,0.4,0.4
2026-04-15T1400,4147A,105.0433,29.6105,内江市,玉峰路西段888号,,34,NA,27,15,24,106,106,55,55,7,14,7,6,0.4,0.5
2026-04-15T1400,2628A,92.0653,31.4846,那曲市,那曲监测站,,42,24,33,20,23,133,133,94,94,7,15,7,9,0.5,0.8
2026-04-15T1400,4243A,92.0515,31.4787,那曲市,那曲市委宣传部,,43,13,17,6,14,137,137,98,98,2,8,9,10,0.4,0.5
2026-04-15T1400,1291A,115.8887,28.7006,南昌市,省林业公司,,27,19,27,14,24,85,85,58,58,7,13,4,4,0.4,0.6
2026-04-15T1400,1292A,115.813,28.7443,南昌市,林科所,,28,27,22,17,24,87,87,67,67,10,17,8,7,1.1,1.2
2026-04-15T1400,1294A,115.8518,28.687,南昌市,建工学校,,26,26,37,16,25,80,80,60,60,15,18,9,9,0.9,1
2026-04-15T1400,1295A,115.8926,28.6425,南昌市,象湖,,29,23,23,20,29,82,82,62,62,10,13,8,8,0.9,1
2026-04-15T1400,3046A,115.9084,28.6062,南昌市,机电学校,,32,28,39,22,27,85,85,69,69,10,15,4,4,0.6,0.8
2026-04-15T1400,3690A,115.9718,28.7032,南昌市,外国语学校,,33,27,31,23,32,84,84,60,60,10,16,8,9,0.6,0.8
2026-04-15T1400,4106A,115.7923,28.6873,南昌市,工业二路,,30,30,41,18,24,79,79,61,61,14,15,5,5,0.7,0.8
2026-04-15T1400,4192A,115.931587,28.686774,南昌市,南京东路235号,,28,28,35,18,26,89,89,64,64,7,10,5,5,0.4,0.6
2026-04-15T1400,1906A,106.0791,30.8022,南充市,南充市委,,25,10,19,6,13,79,79,41,41,7,15,6,6,0.3,0.3
2026-04-15T1400,1907A,106.1038,30.8215,南充市,南充炼油厂,,25,10,21,3,13,78,78,46,46,5,10,4,5,0.2,0.3
2026-04-15T1400,4227A,106.108336,30.788436,南充市,梨树横街98号,,25,8,19,6,14,78,78,48,48,5,13,5,6,0.2,0.2
2026-04-15T1400,4304A,106.1172,30.843,南充市,清泉寺北路188号,,24,NA,20,3,13,74,74,41,41,4,8,6,6,0.4,0.4
2026-04-15T1400,4305A,106.067,30.7616,南充市,同庆路1号,,27,13,19,6,12,86,86,45,45,7,14,6,6,0.3,0.4
2026-04-15T1400,1151A,118.8033,32.1085,南京市,迈皋桥,,37,36,41,15,21,118,118,75,75,10,41,6,6,0.7,0.8
2026-04-15T1400,1152A,118.7487,32.057,南京市,草场门,颗粒物(PM10),51,51,41,25,24,131,131,85,85,18,30,6,5,0.4,0.5
2026-04-15T1400,1154A,118.770105,32.004342,南京市,中华门,,44,41,47,16,22,139,139,89,89,14,31,7,6,0.8,0.8
2026-04-15T1400,1155A,118.8059,32.0329,南京市,瑞金路,,41,41,55,17,26,130,130,85,85,16,34,7,7,0.6,0.7
2026-04-15T1400,1156A,118.7946,32.0774,南京市,玄武湖,,37,33,43,13,20,116,116,72,72,10,21,4,5,0.3,0.5
2026-04-15T1400,1157A,118.6415,32.0964,南京市,浦口,颗粒物(PM10),59,62,38,24,18,125,125,70,70,23,14,7,5,0.8,0.7
2026-04-15T1400,1158A,118.730129,32.000956,南京市,奥体中心,,46,46,46,14,16,119,119,69,69,14,33,8,7,0.4,0.4
2026-04-15T1400,1159A,118.9072,32.1047,南京市,仙林大学城,,46,46,51,14,22,123,123,86,86,15,26,10,10,0.7,0.6
2026-04-15T1400,3422A,118.8443,31.919,南京市,江宁彩虹桥,,42,42,43,8,23,130,130,92,92,11,42,4,4,0.7,0.9
2026-04-15T1400,3427A,118.8497,32.3599,南京市,六合雄州,,42,23,40,13,26,134,134,74,74,17,37,3,4,0.7,0.7
2026-04-15T1400,4086A,118.7641,32.0841,南京市,新模范马路66号,,44,44,47,14,18,127,127,81,81,18,32,3,4,0.4,0.6
2026-04-15T1400,4249A,118.8707617,31.34017673,南京市,汶溪路181号,,44,42,36,18,25,140,140,91,91,14,21,8,6,0.3,0.6
2026-04-15T1400,4312A,119.019,31.6512,南京市,中山西路1号,,34,29,39,14,25,108,108,80,80,10,24,4,4,0.7,0.7
2026-04-15T1400,1401A,108.3098,22.788,南宁市,二十一中,颗粒物(PM10),55,57,51,33,38,91,91,61,60,8,9,1,2,0.4,0.8
2026-04-15T1400,1402A,108.3135,22.8529,南宁市,北湖,,48,44,51,33,43,93,93,66,61,7,8,2,2,0.7,0.8
2026-04-15T1400,1403A,108.3205,22.8222,南宁市,市监测站,,48,48,50,33,36,96,96,65,62,5,6,2,2,0.4,0.5
2026-04-15T1400,1404A,108.3828,22.8038,南宁市,大自然花园,,47,47,50,27,37,90,90,61,60,6,9,5,6,0.7,0.7
2026-04-15T1400,1406A,108.2397,22.8462,南宁市,区农职院,颗粒物(PM10),52,52,54,31,34,90,90,66,60,8,9,4,5,0.4,0.5
2026-04-15T1400,1407A,108.3285,22.7356,南宁市,英华嘉园,颗粒物(PM10),57,59,57,28,38,97,97,62,60,6,11,5,5,0.6,0.7
2026-04-15T1400,3401A,108.4829,22.762,南宁市,红星社区,NA,NA,NA,52,NA,35,93,93,60,60,4,8,NA,5,0.7,0.8
2026-04-15T1400,4132A,108.2927,23.1477,南宁市,起凤路9号,细颗粒物(PM2.5),68,56,63,44,48,107,107,69,69,7,8,3,4,0.6,0.7
2026-04-15T1400,4221A,108.2177,22.7774,南宁市,乐贤路16号,颗粒物(PM10),53,54,56,33,39,88,88,55,55,7,14,3,4,0.4,0.5
2026-04-15T1400,2332A,118.1682,26.6371,南平市,南平市监测站,,37,37,37,22,25,85,85,60,60,4,8,4,4,0.6,0.6
2026-04-15T1400,2334A,118.1757,26.6276,南平市,南平七中,,42,42,42,20,27,82,82,55,55,5,12,3,3,0.6,0.6
2026-04-15T1400,1168A,120.9056,31.9669,南通市,狼山街道,,47,46,28,9,18,149,149,108,108,11,15,4,3,0.4,0.5
2026-04-15T1400,1170A,120.8635,32.0231,南通市,城中,NA,NA,NA,33,6,20,138,138,98,98,8,14,5,4,0.4,0.4
2026-04-15T1400,1171A,120.9376,31.9301,南通市,星湖花园,NA,NA,NA,29,NA,18,149,149,107,107,8,12,NA,3,0.5,0.6
2026-04-15T1400,1172A,120.8053,32.046,南通市,紫琅学院,,48,34,24,8,18,153,153,109,109,10,16,6,5,0.6,0.7
2026-04-15T1400,3291A,121.0631,32.0644,南通市,通州监测站,,46,41,24,10,16,146,146,112,112,8,7,5,3,0.5,0.5
2026-04-15T1400,3432A,120.9348,31.9874,南通市,环境教育馆,颗粒物(PM10),51,51,30,10,16,149,149,108,108,13,19,6,4,0.5,0.5
2026-04-15T1400,4091A,120.8692,31.9885,南通市,洪江路,,45,38,31,16,21,143,143,101,101,12,16,6,4,0.8,0.8
2026-04-15T1400,2404A,112.5338,33.0086,南阳市,瓦房庄,,44,44,51,24,32,90,90,63,63,11,20,4,5,0.5,0.5
2026-04-15T1400,2405A,112.5002,32.9734,南阳市,汉画馆,颗粒物(PM10),53,53,61,22,30,88,88,62,62,8,18,6,6,0.5,0.6
2026-04-15T1400,2406A,112.5778,33.0144,南阳市,气象站,,42,42,50,19,28,94,94,64,64,9,19,5,6,0.4,0.4
2026-04-15T1400,2407A,112.548,32.9687,南阳市,理工学院,颗粒物(PM10),52,52,55,21,36,89,89,58,58,6,19,5,6,0.5,0.5
2026-04-15T1400,4008A,112.5233,32.9921,南阳市,卧龙区政府,,38,38,57,26,35,90,90,64,64,10,20,6,7,0.5,0.6
2026-04-15T1400,1234A,121.8352,29.9111,宁波市,区环保大楼,,38,33,54,20,36,120,120,55,55,25,47,7,7,0.6,0.8
2026-04-15T1400,1235A,121.5595,29.8208,宁波市,万里学院,,48,NA,36,33,41,129,129,81,81,17,23,8,7,0.9,0.9
2026-04-15T1400,1236A,121.713,29.9564,宁波市,龙赛医院,,37,32,46,19,30,116,116,50,50,17,36,6,6,0.5,0.6
2026-04-15T1400,1240A,121.5855,29.8635,宁波市,太古小学,,46,43,53,32,38,125,125,78,78,17,26,5,4,0.8,0.8
2026-04-15T1400,1241A,121.5239,29.8673,宁波市,市环境监测中心,细颗粒物(PM2.5),64,46,40,42,47,115,115,75,75,17,30,4,9,0.7,0.7
2026-04-15T1400,2871A,121.6156,29.9015,宁波市,万里国际学校,,46,34,43,32,44,120,120,68,68,21,37,7,5,0.7,0.8
2026-04-15T1400,3710A,121.5593,29.8976,宁波市,白沙活动中心,,40,29,30,26,32,127,127,78,78,16,27,6,5,0.7,0.7
2026-04-15T1400,4095A,121.8962,29.7529,宁波市,中科路88号,,39,18,45,13,37,122,122,68,68,15,23,8,8,0.6,0.7
2026-04-15T1400,2341A,119.5387,26.6611,宁德市,宁德市监测站,,34,25,26,9,17,106,106,86,86,13,20,7,7,0.5,0.6
2026-04-15T1400,3209A,119.5231,26.6562,宁德市,宁德一中,,33,17,27,8,18,105,105,86,86,10,13,6,4,0.5,0.3
2026-04-15T1400,2618A,98.859,25.8541,怒江傈僳族自治州,州监测站,NA,NA,NA,53,27,35,94,94,78,78,NA,16,6,9,0.3,0.3
2026-04-15T1400,2619A,98.8607,25.8168,怒江傈僳族自治州,泸水一中,,32,NA,50,22,37,92,92,66,66,8,22,5,6,0.6,0.7
2026-04-15T1400,1888A,101.6891,26.571,攀枝花市,弄弄坪,细颗粒物(PM2.5),56,53,67,38,42,135,135,100,100,11,25,26,29,1.1,1.5
2026-04-15T1400,1889A,101.577,26.5914,攀枝花市,河门口,细颗粒物(PM2.5),68,73,75,44,42,132,132,85,85,10,18,8,15,0.5,0.8
2026-04-15T1400,1891A,101.7365,26.4986,攀枝花市,仁和,细颗粒物(PM2.5),72,56,63,46,46,142,142,104,104,6,12,7,9,0.6,0.6
2026-04-15T1400,2835A,101.7222,26.567,攀枝花市,四十中小,颗粒物(PM10),56,58,55,34,36,133,133,95,95,12,18,11,8,0.9,0.8
2026-04-15T1400,1604A,122.0303,41.1489,盘锦市,开发区,细颗粒物(PM2.5),78,50,46,49,55,155,155,109,109,12,20,8,8,0.4,0.4
2026-04-15T1400,1605A,122.0486,41.0883,盘锦市,兴隆台,细颗粒物(PM2.5),78,NA,42,49,50,144,144,100,100,13,21,11,10,0.7,0.8
2026-04-15T1400,1606A,121.8297,41.1026,盘锦市,新生街道,细颗粒物(PM2.5),74,NA,40,47,25,151,151,95,95,18,33,9,6,0.6,0.6
2026-04-15T1400,1832A,113.3257,33.7423,平顶山市,新华旅馆,,37,37,67,15,36,102,102,64,64,8,30,7,6,0.4,0.5
2026-04-15T1400,1833A,113.2917,33.737,平顶山市,规划设计院,,32,26,60,16,34,101,101,67,67,6,21,6,7,0.4,0.5
2026-04-15T1400,1834A,113.182,33.7738,平顶山市,平顶山工学院,NA,NA,NA,50,NA,33,105,105,59,59,8,18,NA,9,0.4,0.3
2026-04-15T1400,3594A,112.8736,33.9068,平顶山市,石龙区,颗粒物(PM10),52,52,69,22,39,97,97,60,60,12,27,8,9,0.4,0.3
2026-04-15T1400,4116A,113.284,33.7139,平顶山市,姚电大道23号,,34,32,57,22,31,108,108,71,71,6,23,7,8,0.4,0.5
2026-04-15T1400,2656A,106.6633,35.5338,平凉市,聚贤嘉苑,颗粒物(PM10),56,58,77,27,30,105,105,66,66,9,19,6,7,0.4,0.5
2026-04-15T1400,2657A,106.7021,35.5307,平凉市,博物馆,颗粒物(PM10),52,52,79,32,34,108,108,70,70,7,22,8,9,0.4,0.7
2026-04-15T1400,2348A,113.8384,27.6436,萍乡市,中医院,,18,NA,26,11,19,56,56,33,33,14,19,5,8,1.0,1.1
2026-04-15T1400,2350A,113.8677,27.6438,萍乡市,市环保局,,19,9,25,9,20,60,60,34,34,14,21,5,6,1.0,1.1
2026-04-15T1400,2351A,113.8663,27.6202,萍乡市,安源区政府,,16,10,24,6,13,50,50,30,30,12,12,5,8,1.2,0.7
2026-04-15T1400,4107A,113.8686,27.6668,萍乡市,联洪村委会,,19,NA,33,6,21,58,58,33,33,9,19,2,5,0.5,0.7
2026-04-15T1400,2319A,119.0142,25.4324,莆田市,荔城区仓后路,,33,33,38,23,22,89,89,66,66,18,20,/,/,/,/
2026-04-15T1400,2320A,119.0016,25.4553,莆田市,莆田市监测站,,44,44,36,22,22,83,83,63,63,18,16,3,2,0.6,0.5
2026-04-15T1400,2321A,119.112,25.4561,莆田市,涵江区六中,,30,27,33,21,15,88,88,59,59,18,21,/,/,1.0,0.7
2026-04-15T1400,2322A,119.1014,25.3215,莆田市,秀屿区政府,,39,35,29,27,16,93,93,80,80,12,13,5,5,0.8,0.5
2026-04-15T1400,2392A,115.0312,35.7636,濮阳市,环保局,,40,20,37,18,17,128,128,97,97,5,10,5,4,0.4,0.4
2026-04-15T1400,3021A,115,35.7667,濮阳市,濮水河管理处,,41,40,38,11,17,130,130,87,87,10,15,5,4,0.4,0.4
2026-04-15T1400,4118A,115.0552,35.7816,濮阳市,中原东路68号,,46,46,41,18,17,133,133,95,95,5,10,4,3,0.4,0.3
2026-04-15T1400,4216A,115.0923632,35.76857718,濮阳市,任丘路479号,颗粒物(PM10),51,51,46,20,17,142,142,101,101,6,9,4,3,0.5,0.6
2026-04-15T1400,2601A,100.9801,22.7634,普洱市,市环保局,颗粒物(PM10),119,167,127,71,54,187,187,135,135,7,12,6,5,0.9,0.8
2026-04-15T1400,2602A,100.9763,22.8237,普洱市,普洱第二中学,细颗粒物(PM2.5),112,146,123,73,60,176,176,112,112,8,31,8,7,0.9,0.9
2026-04-15T1400,3345A,131.0413,45.7795,七台河市,中波台,,36,36,35,11,18,93,93,77,77,16,13,3,4,0.3,0.3
2026-04-15T1400,3637A,131.0136,45.7688,七台河市,人民广场,,32,18,44,6,16,100,100,82,82,7,15,9,10,0.4,0.5
2026-04-15T1400,3684A,130.8639,45.8144,七台河市,新建矿广场,NA,NA,34,50,6,21,88,88,73,73,8,20,NA,12,0.2,0.2
2026-04-15T1400,1779A,123.9307,47.3641,齐齐哈尔市,安居小区,颗粒物(PM10),58,61,53,21,26,119,119,104,104,11,13,5,4,0.3,0.3
2026-04-15T1400,1780A,123.9497,47.3389,齐齐哈尔市,中心广场,颗粒物(PM10),63,68,57,23,27,114,114,98,98,8,11,4,5,0.4,0.4
2026-04-15T1400,1781A,123.9483,47.3229,齐齐哈尔市,农牧车辆厂,颗粒物(PM10),63,68,53,19,28,123,123,107,107,8,12,7,8,0.2,0.2
2026-04-15T1400,1783A,123.9442,47.2994,齐齐哈尔市,市环境监测站,颗粒物(PM10),55,56,48,19,27,117,117,104,104,8,11,3,4,0.5,0.5
2026-04-15T1400,3662A,123.6341,47.2079,齐齐哈尔市,富区青少年活动中心,颗粒物(PM10),78,89,58,28,26,117,117,96,96,8,10,4,4,0.5,0.5
2026-04-15T1400,2591A,107.9765,26.5724,黔东南苗族侗族自治州,市环境监测站,,19,19,17,9,11,35,35,53,36,10,6,3,3,0.6,0.5
2026-04-15T1400,2881A,107.8909,26.531,黔东南苗族侗族自治州,凯里学院,,24,24,19,8,11,41,41,57,44,7,6,2,3,0.5,0.5
2026-04-15T1400,2593A,107.5223,26.2371,黔南布依族苗族自治州,小围寨,,19,19,19,10,13,34,34,47,40,7,7,6,5,0.4,0.4
2026-04-15T1400,3538A,107.5175,26.2977,黔南布依族苗族自治州,沙坝,,22,19,23,15,14,29,29,46,37,11,8,4,4,0.7,0.7
2026-04-15T1400,2589A,104.9022,25.0943,黔西南布依族苗族自治州,场坝街,,50,50,62,35,49,160,160,96,96,8,14,7,13,0.3,0.6
2026-04-15T1400,2590A,104.8812,25.0994,黔西南布依族苗族自治州,坪东大道,细颗粒物(PM2.5),54,37,63,37,54,162,162,103,103,7,18,4,6,0.4,0.6
2026-04-15T1400,2502A,108.6238,21.9667,钦州市,市环保站,颗粒物(PM10),51,51,50,29,28,78,78,49,49,9,11,5,6,0.7,0.8
2026-04-15T1400,2503A,108.655,21.9481,钦州市,沙埠小学,颗粒物(PM10),60,63,56,30,32,77,77,46,46,8,15,5,6,0.6,0.6
2026-04-15T1400,2504A,108.5989,21.7435,钦州市,港区一小,颗粒物(PM10),55,57,67,34,37,86,86,45,45,10,18,4,3,0.8,0.7
2026-04-15T1400,3404A,108.5959,21.9634,钦州市,北职校,颗粒物(PM10),61,65,51,36,31,74,74,45,45,10,10,7,6,0.5,0.6
2026-04-15T1400,1046A,119.5247,39.9346,秦皇岛市,建设大厦,细颗粒物(PM2.5),78,68,82,49,47,125,125,71,71,16,43,7,7,0.5,0.5
2026-04-15T1400,3132A,119.5979,39.938,秦皇岛市,文明里,细颗粒物(PM2.5),76,75,81,48,49,118,118,73,73,25,55,10,10,0.4,0.5
2026-04-15T1400,4066A,119.7458,39.9952,秦皇岛市,南园路157号,细颗粒物(PM2.5),80,61,77,50,49,113,113,79,79,22,51,8,9,0.4,0.5
2026-04-15T1400,4067A,119.5131,39.8858,秦皇岛市,翠岛大街1号,,47,47,59,30,47,123,123,80,80,18,39,9,9,0.4,0.5
2026-04-15T1400,4198A,119.509013,39.825305,秦皇岛市,北戴河轮滑馆,细颗粒物(PM2.5),100,69,64,60,44,128,128,87,87,20,30,8,8,0.5,0.5
2026-04-15T1400,1310A,120.404,36.0625,青岛市,市南区东部子站,细颗粒物(PM2.5),64,61,44,42,24,70,70,82,79,89,44,16,8,0.5,0.4
2026-04-15T1400,1311A,120.362344,36.10282,青岛市,四方区子站,,44,44,45,26,26,119,119,84,79,39,36,10,9,0.7,0.8
2026-04-15T1400,1312A,120.294373,36.054183,青岛市,市南区西部子站,细颗粒物(PM2.5),74,66,54,47,28,79,79,51,45,66,58,8,7,0.7,0.6
2026-04-15T1400,1313A,120.4581,36.0858,青岛市,崂山区子站,颗粒物(PM10),58,61,48,34,22,88,88,84,83,78,40,18,10,0.5,0.5
2026-04-15T1400,1315A,120.3945,36.3083,青岛市,城阳区子站,颗粒物(PM10),74,83,64,30,28,145,145,113,113,37,43,10,8,0.7,0.7
2026-04-15T1400,3642A,120.3454,36.0735,青岛市,市北区南部,颗粒物(PM10),62,66,45,36,23,112,112,77,75,48,32,12,8,0.5,0.6
2026-04-15T1400,3643A,120.3897,36.18,青岛市,李沧区北部,颗粒物(PM10),51,51,55,20,27,137,137,91,91,25,35,10,10,0.5,0.6
2026-04-15T1400,4110A,120.5222,36.4089,青岛市,盟旺路653号,臭氧1小时(O3_1h),87,51,54,36,23,189,189,128,128,10,27,6,6,0.6,0.8
2026-04-15T1400,4290A,120.196923,35.954556,青岛市,珠江路669号,细颗粒物(PM2.5),72,58,59,46,25,147,147,82,82,28,46,11,7,0.8,0.7
2026-04-15T1400,4291A,120.0424,35.8656,青岛市,黄岛区人民政府广场,NA,NA,NA,53,32,21,89,89,73,73,45,40,NA,10,0.7,0.7
2026-04-15T1400,1703A,113.0218,23.7086,清远市,凤城街办,,27,27,39,14,21,67,67,29,29,15,33,/,/,/,/
2026-04-15T1400,3025A,113.0479,23.6343,清远市,技师学院,,29,29,44,13,21,92,92,40,40,11,34,4,5,0.4,0.4
2026-04-15T1400,3318A,112.9898,23.7403,清远市,清新太和,,34,34,39,17,20,65,65,32,32,16,29,10,8,0.5,0.5
2026-04-15T1400,3455A,113.076,23.72,清远市,清城东城,,21,18,40,10,22,67,67,31,31,17,30,/,/,/,/
2026-04-15T1400,2661A,107.6325,35.7357,庆阳市,庆阳五中,颗粒物(PM10),57,59,86,27,35,116,116,105,105,10,12,4,4,0.4,0.4
2026-04-15T1400,2662A,107.6361,35.7067,庆阳市,市环保局,颗粒物(PM10),63,67,93,25,37,120,120,111,111,11,15,6,6,0.4,0.5
2026-04-15T1400,1916A,103.7897,25.5036,曲靖市,环境监测站,颗粒物(PM10),73,81,65,40,40,157,157,144,144,7,11,7,8,0.9,0.5
2026-04-15T1400,1917A,103.8013,25.5357,曲靖市,烟厂办公区,颗粒物(PM10),75,84,72,37,36,144,144,128,128,5,10,6,8,0.5,0.5
2026-04-15T1400,3376A,103.7926,25.4651,曲靖市,南苑二区,颗粒物(PM10),65,71,69,40,38,148,148,129,129,6,8,4,4,0.5,0.5
2026-04-15T1400,3377A,103.7442,25.5259,曲靖市,曲靖师范学院,颗粒物(PM10),63,67,76,40,43,151,151,131,131,5,11,2,5,0.4,0.5
2026-04-15T1400,1264A,118.8694,28.94,衢州市,环保大楼,,46,46,53,30,34,106,106,54,54,13,27,/,/,/,/
2026-04-15T1400,1266A,118.8622,28.9809,衢州市,衢州学院,,38,31,44,26,36,93,93,55,55,18,34,6,6,0.5,0.5
2026-04-15T1400,4097A,118.9646,28.9832,衢州市,衢州三中,NA,NA,50,53,NA,36,100,100,56,56,13,27,8,7,0.7,0.6
2026-04-15T1400,1611A,118.5818,24.9116,泉州市,涂山街,,42,42,42,27,24,68,68,46,46,24,28,4,5,0.9,0.7
2026-04-15T1400,1612A,118.597,24.8976,泉州市,津头埔,,42,39,38,29,25,76,76,50,50,18,23,3,4,0.8,0.5
2026-04-15T1400,1613A,118.6669,24.9422,泉州市,万安,,46,46,39,29,24,68,68,50,50,20,22,5,4,0.7,0.5
2026-04-15T1400,4105A,118.6355,24.9148,泉州市,霞新路6号,,43,36,34,30,24,71,71,49,49,19,25,/,/,0.7,0.5
2026-04-15T1400,2626A,88.8873,29.2723,日喀则市,日喀则监测站,,40,23,32,3,9,128,128,126,119,5,5,10,9,0.4,0.4
2026-04-15T1400,3726A,88.8775,29.2425,日喀则市,林业技术推广中心,,41,34,43,3,6,130,130,126,120,4,4,8,6,0.4,0.4
2026-04-15T1400,1659A,119.4711,35.421,日照市,监测站,,42,24,49,11,23,132,132,65,65,21,52,18,11,1.2,0.8
2026-04-15T1400,1660A,119.523,35.4216,日照市,市政府广场,,46,46,49,17,24,133,133,78,78,27,43,22,10,1.5,0.8
2026-04-15T1400,1661A,119.5511,35.4113,日照市,港务局,NA,NA,NA,71,NA,28,138,138,75,75,NA,60,39,10,2.5,0.8
2026-04-15T1400,3507A,119.5326,35.4627,日照市,职业技术学院,,44,22,37,10,20,139,139,96,96,21,39,16,10,1.0,0.7
2026-04-15T1400,3604A,119.3267,35.1043,日照市,岚山环保分局,颗粒物(PM10),70,78,82,33,36,138,138,92,92,31,42,26,29,1.4,1.4
2026-04-15T1400,1835A,111.1922,34.7752,三门峡市,市政府,颗粒物(PM10),70,77,51,19,31,121,121,92,92,8,21,9,12,0.4,0.5
2026-04-15T1400,1836A,111.1588,34.794,三门峡市,开发区,,39,33,55,18,35,123,123,90,90,9,14,10,14,0.3,0.5
2026-04-15T1400,3039A,111.1911,34.7829,三门峡市,三门峡市第一小学,颗粒物(PM10),66,72,56,10,31,125,125,91,91,8,18,12,16,0.3,0.5
2026-04-15T1400,3598A,111.1031,34.719,三门峡市,富达温泉假日酒店,,48,48,55,14,30,126,126,98,98,12,15,14,16,0.3,0.4
2026-04-15T1400,2324A,117.621,26.2626,三明市,三钢,NA,NA,46,48,37,38,108,108,63,63,9,14,9,11,NA,1.4
2026-04-15T1400,2325A,117.6352,26.2714,三明市,三明二中,细颗粒物(PM2.5),60,44,50,40,41,102,102,61,61,6,14,4,4,0.7,0.8
2026-04-15T1400,2326A,117.6028,26.2377,三明市,三元区政府,细颗粒物(PM2.5),60,55,50,40,38,104,104,56,56,6,15,9,10,0.7,0.9
2026-04-15T1400,1877A,109.4962,18.2682,三亚市,河西子站,,18,18,21,8,11,53,53,53,52,2,4,4,4,0.4,0.4
2026-04-15T1400,3540A,109.7348,18.3443,三亚市,君悦子站,,17,NA,20,9,8,54,54,45,45,3,5,4,3,0.3,0.4
2026-04-15T1400,4135A,109.1714,18.3739,三亚市,城东小学站,,20,20,26,8,12,49,49,50,50,3,5,/,/,/,/
2026-04-15T1400,2624A,91.7592,29.234,山南市,山南监测站,,41,10,31,3,7,129,129,116,113,4,3,11,11,0.2,0.2
2026-04-15T1400,2625A,91.7701,29.2436,山南市,山南人民医院,,38,10,43,3,9,119,119,114,110,6,3,9,9,0.2,0.2
2026-04-15T1400,1674A,116.6795,23.3666,汕头市,金平子站,,27,27,22,11,17,79,79,48,48,7,12,4,4,0.5,0.6
2026-04-15T1400,1675A,116.7248,23.3632,汕头市,龙湖子站,,20,20,22,12,16,63,63,45,45,4,5,8,6,/,/
2026-04-15T1400,1676A,116.7257,23.2774,汕头市,濠江子站,,29,29,29,7,14,50,50,38,38,14,12,8,8,/,/
2026-04-15T1400,1677A,116.7518,23.4712,汕头市,澄海子站,,37,37,28,16,18,84,84,55,55,4,9,7,7,0.7,0.7
2026-04-15T1400,1678A,116.6088,23.2539,汕头市,潮阳子站,,21,21,20,9,16,64,64,45,45,4,6,6,6,0.5,0.5
2026-04-15T1400,3444A,116.4539,23.2684,汕头市,潮南峡山,,23,17,24,12,16,73,73,45,45,1,4,7,7,0.6,0.6
2026-04-15T1400,3624A,116.4069,23.2533,汕头市,潮南子站,,30,30,25,13,13,67,67,44,44,1,3,5,6,/,/
2026-04-15T1400,1693A,115.3653,22.7751,汕尾市,市环保局,,21,21,18,10,12,54,54,41,41,4,4,5,5,0.4,0.4
2026-04-15T1400,1695A,115.362,22.7926,汕尾市,新城中学,,18,12,14,9,11,55,55,42,42,4,5,6,6,0.4,0.4
2026-04-15T1400,2645A,109.9155,33.8714,商洛市,监测站,,33,24,31,13,19,105,105,57,57,7,14,8,9,0.5,0.5
2026-04-15T1400,3045A,109.9647,33.8486,商洛市,商州区中学,,33,16,30,13,16,104,104,58,58,8,15,8,7,0.5,0.5
2026-04-15T1400,2408A,115.6701,34.4283,商丘市,环境监测站,颗粒物(PM10),55,56,50,34,30,146,146,90,90,7,20,7,4,0.4,0.4
2026-04-15T1400,2409A,115.6458,34.4047,商丘市,粮食局,细颗粒物(PM2.5),58,59,42,39,27,140,140,96,96,10,21,8,5,0.4,0.4
2026-04-15T1400,3171A,115.6069,34.4465,商丘市,梁园区档案局,,50,46,48,35,27,150,150,96,96,8,25,8,5,0.3,0.3
2026-04-15T1400,4119A,115.6701,34.3767,商丘市,北海东路185号,颗粒物(PM10),53,53,44,30,22,144,144,90,90,8,20,8,5,0.4,0.4
2026-04-15T1400,4120A,115.6172,34.3704,商丘市,中山大街3号,颗粒物(PM10),51,51,51,32,29,140,140,91,91,9,29,10,6,0.3,0.3
2026-04-15T1400,1141A,121.401,31.2382,上海市,普陀,,43,18,40,12,31,135,135,96,96,19,33,6,6,0.4,0.7
2026-04-15T1400,1142A,121.4774,31.2043,上海市,十五厂,,43,20,44,12,34,135,135,100,100,25,38,6,6,0.4,0.8
2026-04-15T1400,1143A,121.4673,31.3011,上海市,虹口,,40,16,40,13,35,125,125,91,91,14,36,5,5,0.5,0.8
2026-04-15T1400,1147A,121.4253,31.226,上海市,静安监测站,,42,18,39,12,33,133,133,97,97,20,38,11,9,0.6,0.9
2026-04-15T1400,1148A,121.7029,31.1905,上海市,浦东川沙,,39,14,38,11,33,124,124,102,102,13,40,7,8,0.5,0.8
2026-04-15T1400,1149A,121.5339,31.229,上海市,浦东新区监测站,,39,15,43,12,35,124,124,94,94,18,35,6,6,0.4,0.8
2026-04-15T1400,1150A,121.5776,31.2038,上海市,浦东张江,NA,NA,15,37,12,31,135,135,102,102,NA,36,7,7,0.3,0.5
2026-04-15T1400,3265A,121.4242,31.3303,上海市,宝山庙行,,40,22,45,11,29,128,128,94,94,16,39,7,7,0.4,0.6
2026-04-15T1400,3266A,121.8789,31.4662,上海市,崇明上实东滩,,38,12,22,10,20,121,121,107,107,4,6,5,5,0.3,0.4
2026-04-15T1400,3268A,121.316,31.2839,上海市,嘉定南翔,,41,16,41,12,32,130,130,83,83,11,32,5,4,0.4,0.8
2026-04-15T1400,3269A,121.3357,30.7455,上海市,金山新城,,37,18,47,17,43,116,116,66,66,5,27,4,4,0.5,1.1
2026-04-15T1400,3270A,121.4996,31.0741,上海市,闵行浦江,,40,14,43,10,35,127,127,88,88,16,37,6,6,0.3,0.8
2026-04-15T1400,3271A,121.2886,31.1663,上海市,青浦徐泾,,45,17,45,12,38,144,144,99,99,20,35,7,5,0.4,0.9
2026-04-15T1400,3272A,121.2193,31.0382,上海市,松江图书馆,,45,19,53,16,43,144,144,93,93,9,30,7,7,0.6,1
2026-04-15T1400,3273A,121.3904,31.206,上海市,长宁仙霞,,40,23,40,13,33,128,128,92,92,16,34,8,6,0.3,0.5
2026-04-15T1400,3274A,121.7964,31.0507,上海市,浦东惠南,,38,12,40,10,33,121,121,95,95,11,40,5,5,0.7,0.9
