timepoint,stationcode,longitude,latitude,area,positionname,primarypollutant,aqi,pm10,pm10_24h,pm2_5,pm2_5_24h,o3,o3_24h,o3_8h,o3_8h_24h,no2,no2_24h,so2,so2_24h,co,co_24h
2024-09-28T2100,2566A,102.1879,31.914,阿坝藏族羌族自治州,州农科所,,28,28,17,9,10,37,,56,48,8,12,7,7,0.0,0
2024-09-28T2100,2568A,102.2502,31.8896,阿坝藏族羌族自治州,马师校,,37,37,18,20,13,17,,51,37,12,11,4,4,0.4,0.3
2024-09-28T2100,3994A,102.2165,31.9024,阿坝藏族羌族自治州,马尔康中学西区,,28,28,17,14,15,29,,52,43,10,10,1,3,0.4,0.4
2024-09-28T2100,2695A,80.292,41.1694,阿克苏地区,电视台,,39,39,46,17,20,90,,104,102,17,12,3,3,0.4,0.4
2024-09-28T2100,2696A,80.2613,41.1551,阿克苏地区,艺术中心,,35,32,40,24,21,80,,103,100,8,9,4,4,0.5,0.4
2024-09-28T2100,2204A,105.6467,38.8363,阿拉善盟,西城区西花园,细颗粒物(PM2.5),67,75,71,48,39,131,,140,140,10,10,9,9,1.2,1.2
2024-09-28T2100,2205A,105.6985,38.8411,阿拉善盟,蒙二幼,颗粒物(PM10),57,64,61,35,35,124,,126,126,11,9,7,7,0.8,0.8
2024-09-28T2100,2206A,105.724,38.8516,阿拉善盟,环保局新楼,,50,50,56,29,33,137,,128,128,8,8,8,8,0.7,0.6
2024-09-28T2100,2708A,88.1264,47.8517,阿勒泰地区,市站,,21,21,25,8,7,53,,69,68,20,9,8,7,0.2,0.2
2024-09-28T2100,2630A,80.1161,32.5,阿里地区,阿里监测站,,,6,8,3,4,,,124,124,5,7,4,6,0.3,0.3
2024-09-28T2100,3192A,80.0903,32.5028,阿里地区,阿里藏医院,,40,16,14,3,3,125,,123,123,4,6,6,6,0.3,0.3
2024-09-28T2100,2642A,109.0318,32.6537,安康市,香溪洞,颗粒物(PM10),85,120,166,54,50,149,,153,142,8,12,7,9,0.6,0.6
2024-09-28T2100,2643A,109.0281,32.6939,安康市,安康市监测站,细颗粒物(PM2.5),69,86,79,50,45,141,,156,142,11,9,7,8,0.8,0.7
2024-09-28T2100,2644A,109.0072,32.6975,安康市,汉滨区检察院,细颗粒物(PM2.5),85,95,89,63,47,153,,163,150,10,10,8,9,0.7,0.7
2024-09-28T2100,2291A,117.0809,30.5177,安庆市,环科院,,46,46,33,24,19,123,,145,143,14,15,10,9,0.7,0.7
2024-09-28T2100,2292A,117.0331,30.5119,安庆市,马山宾馆,,43,43,30,20,16,129,,147,146,16,16,12,11,0.5,0.6
2024-09-28T2100,2294A,116.9896,30.6145,安庆市,安庆大学,,43,41,29,16,17,135,,148,148,11,11,9,8,0.3,0.4
2024-09-28T2100,3173A,117.0598,30.5351,安庆市,市人大,,39,34,31,27,20,119,,141,139,15,15,10,9,0.7,0.7
2024-09-28T2100,3123A,105.9408,26.2431,安顺市,凤凰山,,49,39,41,34,29,54,,72,68,7,5,5,4,0.5,0.5
2024-09-28T2100,3124A,105.9439,26.2564,安顺市,金钟山,,,41,39,41,35,,,73,71,6,5,8,7,0.7,0.7
2024-09-28T2100,3125A,105.8983,26.2481,安顺市,娄家坡,,33,24,30,23,25,61,,73,70,6,5,6,6,0.5,0.6
2024-09-28T2100,1819A,114.3551,36.1017,安阳市,红庙街,颗粒物(PM10),69,87,112,39,78,62,,135,128,38,28,6,8,0.8,0.6
2024-09-28T2100,1820A,114.361,36.0681,安阳市,银杏小区,,,80,103,,22,66,,131,125,37,20,4,5,1.0,0.9
2024-09-28T2100,3141A,114.3922,36.0878,安阳市,信访局,颗粒物(PM10),64,77,118,16,46,98,,136,133,34,30,5,6,0.8,0.8
2024-09-28T2100,3669A,114.4705,36.0637,安阳市,左辅环卫站,颗粒物(PM10),76,101,159,30,73,92,,127,123,45,34,10,7,0.5,0.6
2024-09-28T2100,3703A,114.2917,36.0949,安阳市,安钢职工学校,颗粒物(PM10),71,91,117,31,88,46,,132,123,54,28,6,8,0.9,0.9
2024-09-28T2100,1748A,123.044,41.1196,鞍山市,深沟寺,细颗粒物(PM2.5),57,60,36,40,20,48,,116,102,45,18,6,6,1.0,0.7
2024-09-28T2100,1749A,123.011,41.0931,鞍山市,太阳城,颗粒物(PM10),53,55,36,30,21,83,,119,105,21,18,8,9,0.8,0.6
2024-09-28T2100,1750A,123.0485,41.1442,鞍山市,太平,颗粒物(PM10),69,87,49,44,24,40,,112,82,70,37,11,11,1.4,0.9
2024-09-28T2100,1751A,122.9642,41.0971,鞍山市,铁西三道街,细颗粒物(PM2.5),110,163,91,83,36,8,,111,75,99,52,7,8,1.5,1.1
2024-09-28T2100,1752A,122.9341,41.0833,鞍山市,铁西工业园区,颗粒物(PM10),93,136,79,62,31,7,,117,82,97,49,7,9,1.3,0.8
2024-09-28T2100,1753A,123.022,41.0821,鞍山市,明达新区,颗粒物(PM10),56,61,49,33,24,67,,106,88,21,25,6,7,0.8,1.2
2024-09-28T2100,2195A,107.4212,40.761,巴彦淖尔市,附二中,细颗粒物(PM2.5),85,108,98,63,54,123,,124,124,9,11,5,6,0.7,0.7
2024-09-28T2100,2196A,107.37,40.7372,巴彦淖尔市,市环保大楼,颗粒物(PM10),72,93,89,47,37,127,,127,126,8,9,4,4,0.5,0.6
2024-09-28T2100,1956A,86.1472,41.7538,巴音郭楞蒙古自治州,孔雀公园,,,30,49,19,11,,,104,82,11,5,5,6,0.3,0.3
2024-09-28T2100,1957A,86.1972,41.7166,巴音郭楞蒙古自治州,棉纺厂,,26,18,44,3,10,82,,101,80,9,8,5,5,0.3,0.3
2024-09-28T2100,1958A,86.2357,41.7173,巴音郭楞蒙古自治州,经济开发区,,28,,41,10,14,89,,104,83,4,5,6,7,0.2,0.2
2024-09-28T2100,2914A,106.7677,31.8794,巴中市,苏山坪,细颗粒物(PM2.5),54,52,44,38,33,95,,124,91,7,7,2,4,0.5,0.5
2024-09-28T2100,3182A,106.7656,31.8545,巴中市,丽阳花园,细颗粒物(PM2.5),53,48,54,37,42,38,,83,66,27,24,5,6,0.8,0.7
2024-09-28T2100,3183A,106.7418,31.8654,巴中市,圣泉水务公司,,50,41,51,35,43,56,,94,78,15,21,4,4,0.7,0.7
2024-09-28T2100,3616A,106.7616,31.8344,巴中市,市中心医院,细颗粒物(PM2.5),55,49,54,39,43,30,,83,66,34,28,5,6,0.9,0.8
2024-09-28T2100,2235A,122.7911,45.6077,白城市,洮北区环保局,,39,39,27,25,16,107,,131,122,12,12,5,3,0.6,0.2
2024-09-28T2100,2236A,122.8738,45.5725,白城市,市环保局,,34,34,35,18,16,73,,123,105,24,19,7,7,0.4,0.3
2024-09-28T2100,2231A,126.4219,41.9171,白山市,喜丰,颗粒物(PM10),61,72,53,22,15,12,,81,64,40,22,6,10,0.6,0.6
2024-09-28T2100,2232A,126.4077,41.9419,白山市,环保局,颗粒物(PM10),67,84,42,31,14,4,,68,45,37,21,8,8,1.0,0.7
2024-09-28T2100,2647A,104.1724,36.5446,白银市,第三小学,细颗粒物(PM2.5),59,58,55,42,44,82,,102,98,16,18,38,121,0.5,0.7
2024-09-28T2100,2648A,104.1465,36.5482,白银市,动力公司,细颗粒物(PM2.5),64,49,50,46,35,74,,94,89,20,17,11,58,0.7,0.7
2024-09-28T2100,2512A,106.6103,23.9011,百色市,市监测站,颗粒物(PM10),51,51,65,26,41,66,,105,90,13,15,24,16,0.8,0.8
2024-09-28T2100,2513A,106.6538,23.8859,百色市,市中心血站,颗粒物(PM10),54,57,70,34,46,67,,100,87,14,15,27,15,0.7,0.7
2024-09-28T2100,3406A,106.6085,23.8798,百色市,祈福高中,,48,48,73,26,42,57,,104,88,19,19,20,13,0.9,0.9
2024-09-28T2100,2270A,117.396,32.939,蚌埠市,工人疗养院,,47,47,41,17,15,93,,140,133,21,16,8,7,0.4,0.4
2024-09-28T2100,2271A,117.3605,32.9427,蚌埠市,百货大楼,,40,40,38,13,11,95,,130,125,18,18,8,8,0.4,0.4
2024-09-28T2100,2273A,117.4185,32.8911,蚌埠市,蚌埠学院,,39,39,31,17,16,109,,135,125,13,12,6,7,0.4,0.4
2024-09-28T2100,2274A,117.3533,32.9673,蚌埠市,淮上区政府,,34,34,36,16,18,101,,128,124,9,10,6,6,0.4,0.3
2024-09-28T2100,2275A,117.3145,32.8977,蚌埠市,高新区,,36,34,32,10,15,115,,135,126,11,12,7,7,0.4,0.4
2024-09-28T2100,3715A,117.3092,32.9314,蚌埠市,蚌埠田家炳中学,,43,43,36,15,13,94,,140,132,22,10,9,8,0.4,0.3
2024-09-28T2100,1585A,109.8756,40.6532,包头市,市环境监测站,颗粒物(PM10),52,54,58,35,34,81,,80,75,41,33,11,11,0.8,0.9
2024-09-28T2100,1587A,109.9991,40.5842,包头市,包头八中,颗粒物(PM10),59,68,63,38,38,72,,81,81,38,26,16,8,1.1,1
2024-09-28T2100,1588A,109.8538,40.6821,包头市,青山宾馆,颗粒物(PM10),52,54,52,34,39,95,,86,86,32,28,10,12,1.0,1
2024-09-28T2100,1589A,109.8642,40.6288,包头市,惠龙物流,颗粒物(PM10),60,69,64,34,34,74,,78,78,31,23,4,5,1.2,1.2
2024-09-28T2100,1590A,110.0377,40.5546,包头市,东河鸿龙湾,颗粒物(PM10),60,70,54,38,35,54,,75,64,46,27,14,20,1.0,1
2024-09-28T2100,3283A,109.9154,40.5685,包头市,滨河大厦,颗粒物(PM10),61,72,56,33,32,67,,72,71,39,30,10,11,0.8,0.8
2024-09-28T2100,3419A,109.9447,40.6261,包头市,包头市委党校,颗粒物(PM10),51,52,56,33,35,91,,86,86,30,25,10,15,0.7,0.7
2024-09-28T2100,3683A,109.8331,40.6576,包头市,昆区政府,颗粒物(PM10),56,61,57,37,41,90,,86,86,29,25,9,9,0.8,0.8
2024-09-28T2100,1930A,107.185,34.3063,宝鸡市,庙沟村,细颗粒物(PM2.5),73,88,102,53,61,114,,119,115,15,16,11,11,0.6,0.6
2024-09-28T2100,1931A,107.0708,34.3017,宝鸡市,竹园沟,细颗粒物(PM2.5),73,87,102,53,65,43,,119,93,28,21,7,8,0.8,0.8
2024-09-28T2100,1932A,107.1906,34.3672,宝鸡市,三陆医院,细颗粒物(PM2.5),95,101,116,71,73,78,,107,,37,26,7,8,0.8,0.9
2024-09-28T2100,1933A,107.1431,34.3547,宝鸡市,监测站,细颗粒物(PM2.5),88,106,118,65,66,66,,114,101,33,26,7,8,0.9,0.9
2024-09-28T2100,1934A,107.1186,34.3739,宝鸡市,技工学校,细颗粒物(PM2.5),100,100,115,75,78,91,,122,115,25,25,8,9,0.9,0.9
2024-09-28T2100,1935A,107.3906,34.3528,宝鸡市,陈仓区环保局家属楼,细颗粒物(PM2.5),99,112,127,74,75,62,,157,135,58,38,9,10,0.8,0.8
2024-09-28T2100,1936A,107.2058,34.3497,宝鸡市,文理学院,细颗粒物(PM2.5),89,110,116,66,65,74,,126,112,34,23,9,10,0.8,0.7
2024-09-28T2100,1937A,107.2386,34.3622,宝鸡市,三迪小学,细颗粒物(PM2.5),80,106,115,59,67,79,,134,117,39,30,8,9,0.8,0.8
2024-09-28T2100,1051A,115.493,38.8632,保定市,游泳馆,细颗粒物(PM2.5),89,86,74,66,53,42,,84,77,35,29,4,5,0.5,0.3
2024-09-28T2100,1052A,115.5213,38.8959,保定市,华电二区,细颗粒物(PM2.5),79,91,69,58,44,23,,74,63,48,42,3,3,0.5,0.3
2024-09-28T2100,1053A,115.4713,38.9108,保定市,接待中心,细颗粒物(PM2.5),72,83,72,52,42,40,,67,60,35,39,4,4,0.5,0.3
2024-09-28T2100,1054A,115.4612,38.8416,保定市,地表水厂,颗粒物(PM10),80,110,81,55,44,45,,82,76,35,31,3,3,0.3,0.2
2024-09-28T2100,3581A,115.31981,38.95208,保定市,满城区生态环境分局,颗粒物(PM10),69,88,85,46,44,64,,79,73,25,34,5,5,0.5,0.5
2024-09-28T2100,3582A,115.47694,38.76408,保定市,清苑区第二中学,细颗粒物(PM2.5),80,108,95,59,51,39,,83,75,41,40,2,4,0.5,0.4
2024-09-28T2100,3583A,115.62909,39.02311,保定市,徐水物探局,细颗粒物(PM2.5),83,101,69,61,42,16,,74,57,51,38,6,6,0.5,0.4
2024-09-28T2100,4004A,115.4202,38.8656,保定市,双鹰农机,颗粒物(PM10),71,92,76,51,36,45,,77,69,38,38,2,2,0.6,0.5
2024-09-28T2100,4034A,115.5150,38.8590,保定市,植保所站,颗粒物(PM10),80,110,85,50,45,33,,88,77,44,37,4,5,0.6,0.4
2024-09-28T2100,2594A,99.1678,25.1081,保山市,市环境监测站,,22,22,21,15,13,29,,50,45,10,6,5,4,0.5,0.3
2024-09-28T2100,2595A,99.1711,25.1328,保山市,市环保局,,26,26,23,6,6,38,,55,50,4,4,6,6,0.4,0.4
2024-09-28T2100,1867A,109.1436,21.4086,北海市,海滩公园,,17,7,15,3,5,53,,63,62,4,4,5,4,0.5,0.5
2024-09-28T2100,1868A,109.0981,21.4661,北海市,新市环保局,,16,7,13,3,7,50,,60,55,5,5,4,4,0.5,0.6
2024-09-28T2100,1869A,109.1778,21.5233,北海市,北海工业园,,22,,23,15,14,42,,54,50,12,12,5,5,0.5,0.5
2024-09-28T2100,3400A,109.1911,21.4415,北海市,龙潭自来水厂,,15,7,12,3,11,47,,61,59,7,6,6,5,0.5,0.5
2024-09-28T2100,1001A,116.3621,39.8784,北京市,万寿西宫,细颗粒物(PM2.5),54,52,57,38,36,40,,58,54,30,36,3,3,1.1,0.9
2024-09-28T2100,1002A,116.2202,40.2915,北京市,定陵,细颗粒物(PM2.5),93,,31,69,39,34,,58,49,10,8,1,2,0.9,0.6
2024-09-28T2100,1003A,116.4174,39.9289,北京市,东四,颗粒物(PM10),59,68,63,36,35,47,,58,56,29,39,4,5,1.1,0.9
2024-09-28T2100,1004A,116.4072,39.8863,北京市,天坛,颗粒物(PM10),57,64,55,36,34,37,,58,54,33,34,2,3,1.1,0.8
2024-09-28T2100,1005A,116.462,39.9365,北京市,农展馆,颗粒物(PM10),56,61,58,32,33,36,,46,45,32,45,2,3,1.0,0.8
2024-09-28T2100,1006A,116.3392,39.9295,北京市,官园,颗粒物(PM10),60,69,60,35,32,39,,52,49,30,42,7,7,1.2,0.9
2024-09-28T2100,1007A,116.2878,39.9611,北京市,海淀万柳,颗粒物(PM10),58,66,57,34,34,32,,41,41,34,40,4,5,0.8,0.6
2024-09-28T2100,1008A,116.6636,40.135,北京市,顺义新城,颗粒物(PM10),53,55,47,30,25,48,,58,58,21,31,2,2,0.7,0.6
2024-09-28T2100,1009A,116.6275,40.3275,北京市,怀柔镇,,44,44,34,29,22,44,,71,69,30,16,1,2,0.8,0.6
2024-09-28T2100,1010A,116.2296,40.217,北京市,昌平镇,颗粒物(PM10),57,64,42,35,24,16,,62,53,31,23,3,4,0.9,0.6
2024-09-28T2100,1011A,116.3966,39.9821,北京市,奥体中心,颗粒物(PM10),56,62,59,34,32,37,,45,44,30,48,3,3,1.0,0.9
2024-09-28T2100,1012A,116.184,39.9136,北京市,古城,颗粒物(PM10),78,105,78,56,44,24,,47,44,40,35,3,4,1.2,0.9
2024-09-28T2100,3281A,115.9718,40.4529,北京市,延庆夏都,细颗粒物(PM2.5),75,81,50,55,32,68,,86,84,16,10,1,1,1.0,0.6
2024-09-28T2100,3417A,117.0709,40.1465,北京市,平谷新城,颗粒物(PM10),69,87,48,47,26,98,,97,97,13,12,4,4,0.8,0.7
2024-09-28T2100,3418A,116.8336,40.4095,北京市,密云新城,,36,36,29,22,17,44,,63,62,8,11,3,3,0.6,0.5
2024-09-28T2100,3671A,116.088,39.9726,北京市,门头沟三家店,颗粒物(PM10),57,64,53,39,32,18,,51,42,31,23,7,7,0.7,0.5
2024-09-28T2100,3672A,116.1541,39.8204,北京市,丰台云岗,细颗粒物(PM2.5),68,69,55,49,40,15,,34,28,32,30,4,4,0.8,0.7
2024-09-28T2100,3673A,116.6804,39.9081,北京市,通州东关,颗粒物(PM10),67,84,66,39,35,21,,61,49,52,32,2,3,1.2,0.9
2024-09-28T2100,3674A,115.9577,39.7603,北京市,房山燕山,颗粒物(PM10),62,73,54,41,33,45,,56,54,20,20,1,1,0.7,0.6
2024-09-28T2100,3675A,116.4672,39.7733,北京市,大兴旧宫,颗粒物(PM10),59,68,57,37,38,28,,54,47,38,29,3,3,1.4,0.8
2024-09-28T2100,3694A,115.986,40.4563,北京市,延庆石河营,细颗粒物(PM2.5),77,75,46,56,34,60,,83,81,15,9,1,1,0.9,0.5
2024-09-28T2100,3695A,116.6151,40.3053,北京市,怀柔新城,,41,41,32,28,22,49,,72,70,21,9,1,2,0.8,0.6
2024-09-28T2100,3696A,116.2545,39.8768,北京市,丰台小屯,颗粒物(PM10),61,71,62,41,37,33,,42,41,29,39,2,2,1.0,0.8
2024-09-28T2100,3697A,116.84,40.3844,北京市,密云镇,颗粒物(PM10),51,51,36,25,19,35,,57,56,31,26,3,3,0.8,0.6
2024-09-28T2100,1761A,123.8275,41.3064,本溪市,大峪,,39,39,38,20,15,59,,108,97,23,23,9,9,0.8,0.9
2024-09-28T2100,1762A,123.7567,41.3325,本溪市,溪湖,颗粒物(PM10),66,81,66,26,20,39,,99,83,31,29,8,9,0.9,1.2
2024-09-28T2100,1763A,123.7169,41.3094,本溪市,彩屯,颗粒物(PM10),63,76,57,38,30,29,,92,71,40,39,10,14,0.9,1.7
2024-09-28T2100,1764A,123.7669,41.2864,本溪市,东明,颗粒物(PM10),54,57,49,32,18,41,,111,99,63,36,5,6,1.0,0.9
2024-09-28T2100,1765A,123.7992,41.2664,本溪市,新立屯,,32,32,33,10,11,47,,101,66,52,40,5,6,0.5,0.8
2024-09-28T2100,1766A,123.8142,41.3472,本溪市,威宁,颗粒物(PM10),57,63,56,21,19,24,,98,77,42,26,8,9,0.5,0.7
2024-09-28T2100,2587A,105.2864,27.3125,毕节市,八中,细颗粒物(PM2.5),62,53,42,44,33,61,,78,75,15,13,7,7,0.6,0.5
2024-09-28T2100,2588A,105.31,27.2944,毕节市,师专,细颗粒物(PM2.5),58,50,39,41,31,63,,79,77,12,11,8,8,0.6,0.6
2024-09-28T2100,3537A,105.3631,27.3533,毕节市,长征村,细颗粒物(PM2.5),82,73,54,60,44,67,,82,80,9,7,11,8,0.6,0.6
2024-09-28T2100,1629A,118.0018,37.3617,滨州市,第二水厂,,46,46,68,24,34,116,,183,155,15,37,33,14,0.4,0.6
2024-09-28T2100,1630A,117.9776,37.393,滨州市,北中新校,颗粒物(PM10),54,58,67,27,34,122,,198,170,15,27,10,15,0.6,0.7
2024-09-28T2100,3514A,117.9378,37.3956,滨州市,中海酒店,颗粒物(PM10),54,58,59,27,32,126,,195,176,25,34,10,15,0.9,0.8
2024-09-28T2100,3515A,117.9378,37.3553,滨州市,开发区一中,颗粒物(PM10),53,56,67,31,34,122,,196,167,25,40,53,21,0.7,0.9
2024-09-28T2100,3516A,118.0917,37.694,滨州市,金海六路,,45,39,60,22,28,141,,191,172,9,19,3,8,0.6,0.8
2024-09-28T2100,4028A,117.9956,37.3753,滨州市,滨州市西街道办事处,,48,48,63,31,40,135,,206,180,14,33,28,18,0.5,0.7
2024-09-28T2100,2311A,115.8072,33.8399,亳州市,污水处理厂,颗粒物(PM10),52,53,39,17,17,110,,137,130,18,16,22,10,0.4,0.4
2024-09-28T2100,2312A,115.7789,33.8518,亳州市,三国揽胜宫,颗粒物(PM10),56,61,39,22,18,105,,133,127,14,13,6,6,0.4,0.5
2024-09-28T2100,3332A,115.7633,33.8034,亳州市,亳州学院,颗粒物(PM10),51,52,42,14,15,104,,142,136,17,12,6,4,0.4,0.5
2024-09-28T2100,2693A,82.0485,44.8556,博尔塔拉蒙古自治州,市党校,,32,32,27,8,14,69,,77,77,6,12,4,4,0.4,0.4
2024-09-28T2100,2694A,82.0806,44.8969,博尔塔拉蒙古自治州,市环保局,,28,28,30,12,12,60,,73,73,12,9,4,4,0.3,0.3
2024-09-28T2100,1071A,116.8842,38.2991,沧州市,沧县城建局,颗粒物(PM10),72,93,49,44,27,96,,147,139,51,28,4,5,0.7,0.4
2024-09-28T2100,1072A,116.8584,38.3254,沧州市,电视转播站,颗粒物(PM10),59,68,48,41,28,114,,158,154,40,25,5,6,0.6,0.4
2024-09-28T2100,1073A,116.8709,38.3228,沧州市,市环保局,细颗粒物(PM2.5),69,54,55,50,31,110,,154,148,38,25,6,6,0.5,0.3
2024-09-28T2100,3324A,116.8136,38.3004,沧州市,河北水利电力学院,颗粒物(PM10),69,88,56,47,34,106,,153,148,42,25,6,6,0.5,0.4
2024-09-28T2100,2622A,97.1806,31.1273,昌都市,昌都监测站,,,,10,,4,37,,55,54,,9,6,7,,0.3
2024-09-28T2100,3719A,97.1714,31.1406,昌都市,昌都会议中心,,14,7,8,3,8,42,,51,50,2,5,8,8,0.5,0.5
2024-09-28T2100,2690A,88.1236,43.8886,昌吉回族自治州,天山天池,,17,13,5,10,5,52,,70,62,3,4,3,3,0.5,0.5
2024-09-28T2100,2692A,87.2717,44.0297,昌吉回族自治州,新区政务中心,,28,23,18,19,21,56,,72,71,18,10,7,7,0.6,0.5
2024-09-28T2100,3613A,87.3095,44.0142,昌吉回族自治州,亚心广场,,29,29,19,14,6,52,,69,68,30,15,4,3,0.6,0.5
2024-09-28T2100,1119A,125.3325,43.9166,长春市,食品厂,颗粒物(PM10),83,116,65,47,27,8,,95,68,90,50,6,6,1.1,0.6
2024-09-28T2100,1120A,125.2863,43.9027,长春市,客车厂,颗粒物(PM10),73,96,54,40,25,8,,94,65,92,49,7,7,1.1,0.6
2024-09-28T2100,1121A,125.2841,43.8463,长春市,邮电学院,颗粒物(PM10),52,53,35,27,18,8,,101,80,71,32,7,7,0.7,0.4
2024-09-28T2100,1122A,125.3716,43.8772,长春市,劳动公园,,,160,59,,26,14,,109,82,80,40,10,9,1.9,0.6
2024-09-28T2100,1123A,125.3297,43.8805,长春市,园林处,颗粒物(PM10),63,75,37,33,17,17,,107,90,85,37,5,6,1.0,0.6
2024-09-28T2100,1124A,125.4605,43.79,长春市,净月潭,,25,25,21,14,11,78,,103,95,10,10,6,6,0.3,0.3
2024-09-28T2100,1126A,125.3863,43.8447,长春市,经开区环卫处,颗粒物(PM10),82,114,46,32,16,4,,98,70,74,37,9,8,1.0,0.6
2024-09-28T2100,1127A,125.245,43.7783,长春市,高新区管委会,颗粒物(PM10),55,59,45,31,18,7,,103,70,72,31,6,6,0.7,0.5
2024-09-28T2100,1128A,125.1761,43.8325,长春市,岱山公园,颗粒物(PM10),55,59,44,14,21,24,,97,66,75,47,4,5,0.5,0.5
2024-09-28T2100,1335A,113.0833,28.2325,长沙市,经开区环保局,颗粒物(PM10),51,51,59,27,38,81,,134,118,32,22,6,4,0.5,0.5
2024-09-28T2100,1336A,112.8872,28.2189,长沙市,高开区环保局,,48,48,62,27,44,101,,141,130,10,13,4,6,0.5,0.6
2024-09-28T2100,1337A,113.0792,28.2053,长沙市,马坡岭,颗粒物(PM10),58,66,65,24,40,85,,132,118,19,14,5,5,0.5,0.6
2024-09-28T2100,1338A,112.9394,28.19,长沙市,湖南师范大学,,43,43,63,24,38,100,,137,126,14,12,6,7,0.5,0.6
2024-09-28T2100,1339A,113.0178,28.1322,长沙市,雨花区环保局,颗粒物(PM10),54,58,63,34,42,83,,122,112,18,13,6,8,0.6,0.6
2024-09-28T2100,1340A,112.9792,28.2597,长沙市,伍家岭,,,,66,,42,,,138,126,,22,,4,,0.9
2024-09-28T2100,1341A,113.0014,28.1944,长沙市,火车新站,颗粒物(PM10),53,55,63,29,38,87,,120,111,16,14,5,6,0.6,0.7
2024-09-28T2100,1342A,112.9844,28.1178,长沙市,天心区环保局,颗粒物(PM10),54,58,66,33,42,79,,122,111,23,16,4,5,0.7,0.4
2024-09-28T2100,1343A,112.8908,28.1308,长沙市,湖南中医药大学,颗粒物(PM10),52,54,71,27,41,87,,143,124,24,37,5,6,0.7,0.9
2024-09-28T2100,1344A,112.9581,28.3611,长沙市,沙坪,,,44,51,37,33,,,145,125,10,6,6,7,0.6,0.1
2024-09-28T2100,1727A,113.1147,36.1547,长治市,清华站,,44,44,48,29,41,125,,127,127,13,14,6,6,0.7,0.9
2024-09-28T2100,1728A,113.1031,36.1989,长治市,监测站,,45,45,59,27,42,114,,119,118,16,20,10,10,0.6,1
2024-09-28T2100,1730A,113.0886,36.2125,长治市,审计局,,38,35,54,24,40,121,,121,121,14,17,7,6,0.4,0.6
2024-09-28T2100,1731A,113.0844,36.1856,长治市,长治八中,颗粒物(PM10),51,52,68,26,35,118,,122,122,14,17,7,7,0.7,1
2024-09-28T2100,2845A,113.1569,36.1911,长治市,德盛苑,,42,37,48,29,36,129,,131,131,12,12,5,4,1.6,1.1
2024-09-28T2100,3568A,113.06,36.0464,长治市,向阳小学,颗粒物(PM10),56,62,68,36,45,123,,131,130,17,18,6,7,0.6,0.4
2024-09-28T2100,3569A,112.8792,36.3144,长治市,屯留一中,颗粒物(PM10),56,61,77,39,63,102,,126,122,21,17,8,9,1.2,1.4
2024-09-28T2100,3570A,113.235,36.3489,长治市,潞城四中,细颗粒物(PM2.5),79,68,80,58,78,134,,132,132,12,13,7,6,0.5,0.8
2024-09-28T2100,1854A,111.6975,28.9703,常德市,市二中,细颗粒物(PM2.5),189,166,98,142,76,85,,154,142,32,17,15,11,1.6,1.1
2024-09-28T2100,3138A,111.7153,29.0289,常德市,武陵区永安,细颗粒物(PM2.5),133,147,105,101,80,116,,159,148,19,14,11,10,1.1,0.9
2024-09-28T2100,3139A,111.6892,28.9881,常德市,鼎城区玉霞,细颗粒物(PM2.5),149,164,111,114,80,,,159,154,25,17,13,11,1.3,1
2024-09-28T2100,3140A,111.6625,29.0531,常德市,武陵区长庚,细颗粒物(PM2.5),119,137,104,90,76,124,,160,152,19,15,14,12,1.0,0.8
2024-09-28T2100,1196A,119.9633,31.762,常州市,市监测站,颗粒物(PM10),52,54,52,22,21,105,,166,153,21,26,10,9,1.1,0.7
2024-09-28T2100,1200A,119.9468,31.7069,常州市,武进监测站,,49,49,48,22,21,112,,167,156,12,20,6,10,0.7,0.9
2024-09-28T2100,1201A,119.9255,31.9087,常州市,安家,颗粒物(PM10),56,61,54,26,26,80,,159,140,31,29,10,11,0.6,0.7
2024-09-28T2100,3002A,119.9805,31.8174,常州市,行政中心,,46,46,49,20,23,89,,149,134,23,25,9,11,0.5,0.6
2024-09-28T2100,3003A,120.0522,31.7748,常州市,经开区,,46,46,50,22,22,101,,166,151,23,42,8,7,1.1,0.6
2024-09-28T2100,3010A,119.9025,31.7964,常州市,钟楼,,45,45,40,21,21,106,,159,146,19,24,9,10,0.8,0.7
2024-09-28T2100,3429A,119.8598,31.7066,常州市,武进经发区,颗粒物(PM10),51,51,48,22,22,108,,168,155,19,28,9,10,0.8,0.9
2024-09-28T2100,3430A,119.5826,31.7245,常州市,金坛城区,,36,36,49,20,26,115,,183,166,21,33,9,11,0.9,0.8
2024-09-28T2100,2220A,120.4318,41.5881,朝阳市,西梁,,39,29,47,11,38,122,,116,116,12,19,10,20,0.6,0.8
2024-09-28T2100,2221A,120.4521,41.5646,朝阳市,河畔小区,,43,26,44,20,34,137,,125,125,9,18,9,19,0.7,0.9
2024-09-28T2100,2222A,120.4176,41.5648,朝阳市,八里堡,,40,40,48,17,35,112,,115,115,21,23,12,12,0.7,1
2024-09-28T2100,2223A,120.3806,41.5969,朝阳市,农业园区,细颗粒物(PM2.5),52,52,48,36,43,66,,94,84,31,22,9,10,0.8,0.8
2024-09-28T2100,1705A,116.6367,23.6719,潮州市,西园路,,33,30,23,23,10,47,,74,71,21,13,5,4,0.7,0.5
2024-09-28T2100,3026A,116.6183,23.6608,潮州市,市政府,,46,46,27,19,13,64,,78,75,21,14,11,9,0.7,0.4
2024-09-28T2100,4036A,116.6461,23.6761,潮州市,金山,,48,43,26,33,12,48,,82,78,19,11,8,9,0.9,0.7
2024-09-28T2100,2472A,113.0073,25.9061,郴州市,马头岭,颗粒物(PM10),62,74,43,24,14,46,,105,96,23,13,8,8,0.4,0.3
2024-09-28T2100,2473A,113.0116,25.8226,郴州市,市职中,"颗粒物(PM10),细颗粒物(PM2.5)",54,58,45,38,32,32,,114,92,26,18,6,6,0.7,0.6
2024-09-28T2100,2474A,113.0161,25.8001,郴州市,兴隆步行街,细颗粒物(PM2.5),73,84,52,53,29,27,,112,96,43,24,4,5,0.8,0.7
2024-09-28T2100,2475A,113.0383,25.8071,郴州市,市审计局,,49,46,40,34,28,32,,111,94,32,18,4,5,0.6,0.6
2024-09-28T2100,2476A,113.0348,25.7759,郴州市,市环保局,细颗粒物(PM2.5),54,54,42,38,25,26,,106,90,41,21,5,6,0.8,0.6
2024-09-28T2100,1431A,103.9728,30.7236,成都市,金泉两河,,50,48,69,35,40,66,,94,82,12,18,4,6,0.6,0.8
2024-09-28T2100,1432A,104.176,30.6872,成都市,十里店,颗粒物(PM10),66,81,101,38,74,60,,98,86,17,24,3,8,0.7,0.8
2024-09-28T2100,1433A,104.079,30.5706,成都市,三瓦窑,细颗粒物(PM2.5),69,61,83,50,68,66,,122,102,17,31,3,6,0.6,0.7
2024-09-28T2100,1434A,104.1114,30.63,成都市,沙河铺,细颗粒物(PM2.5),82,66,92,60,68,66,,109,94,21,26,3,6,0.6,0.8
2024-09-28T2100,1437A,104.0786,30.6531,成都市,君平街,细颗粒物(PM2.5),87,65,84,64,62,66,,105,93,17,23,2,8,0.7,0.8
2024-09-28T2100,2880A,104.0239,30.65639,成都市,大石西路,细颗粒物(PM2.5),67,72,81,48,59,68,,102,93,19,24,4,7,0.7,0.8
2024-09-28T2100,3136A,104.2725,30.5589,成都市,龙泉驿区区政府,细颗粒物(PM2.5),64,63,88,46,66,70,,112,105,20,26,2,4,0.6,0.8
2024-09-28T2100,3357A,104.0106,30.6931,成都市,金博路,细颗粒物(PM2.5),74,69,78,54,53,64,,92,82,15,24,2,4,0.6,0.7
2024-09-28T2100,3359A,104.0578,30.5225,成都市,华阳,细颗粒物(PM2.5),70,58,85,51,65,62,,118,100,19,24,4,6,0.7,0.9
2024-09-28T2100,3487A,104.2394,30.5319,成都市,车城东七路,细颗粒物(PM2.5),72,73,97,52,73,71,,115,106,20,33,3,7,0.7,0.9
2024-09-28T2100,3488A,104.3853,30.7453,成都市,青白江技师分院,细颗粒物(PM2.5),79,61,89,58,73,72,,106,100,15,42,2,4,0.8,0.9
2024-09-28T2100,3489A,104.0789,30.4072,成都市,科学城,细颗粒物(PM2.5),77,76,90,56,68,67,,138,121,23,35,4,6,0.7,0.9
2024-09-28T2100,4011A,103.8506,30.6947,成都市,光华大道三段,细颗粒物(PM2.5),77,72,66,56,46,77,,114,98,13,15,4,5,0.6,0.6
2024-09-28T2100,1062A,117.9531,40.9081,承德市,铁路,颗粒物(PM10),57,63,45,28,20,9,,48,38,61,46,8,9,1.0,0.7
2024-09-28T2100,1063A,117.9392,40.9763,承德市,中国银行,,36,36,41,22,19,7,,51,40,35,27,5,6,0.8,0.6
2024-09-28T2100,1064A,117.9503,40.928,承德市,开发区,颗粒物(PM10),53,56,45,22,19,39,,48,47,25,34,8,8,0.9,0.7
2024-09-28T2100,1065A,117.8051,40.9655,承德市,文化中心,颗粒物(PM10),59,68,51,29,19,25,,69,56,45,30,8,9,0.8,0.6
2024-09-28T2100,1066A,117.9268,41.0026,承德市,离宫,,50,44,37,35,28,7,,42,30,20,12,3,2,0.7,0.5
2024-09-28T2100,2314A,117.47,30.6618,池州市,池州学院,颗粒物(PM10),51,51,30,29,17,140,,135,135,11,9,6,6,0.4,0.5
2024-09-28T2100,3237A,117.4918,30.6617,池州市,展览馆,,46,46,33,27,17,141,,135,135,8,7,6,5,0.4,0.5
2024-09-28T2100,3333A,117.5627,30.695,池州市,第八中学,,44,43,30,19,16,138,,133,133,13,10,5,4,0.5,0.5
2024-09-28T2100,3334A,117.5038,30.6243,池州市,第十二中学,,43,40,28,23,17,137,,32,,15,16,5,4,1.0,1
2024-09-28T2100,1744A,118.9233,42.2816,赤峰市,松山一中,"颗粒物(PM10),细颗粒物(PM2.5)",72,93,66,52,37,105,,134,128,26,28,9,10,0.6,0.6
2024-09-28T2100,1745A,118.9576,42.2728,赤峰市,哈达街,细颗粒物(PM2.5),90,106,67,67,41,99,,140,133,19,18,10,11,0.8,0.7
2024-09-28T2100,1746A,118.8788,42.2554,赤峰市,天义路,细颗粒物(PM2.5),92,102,57,68,42,89,,129,119,29,23,7,7,0.5,0.4
2024-09-28T2100,3058A,119.2658,42.0353,赤峰市,银河街,颗粒物(PM10),58,66,61,35,34,111,,137,133,16,15,17,17,0.8,0.7
2024-09-28T2100,3286A,118.9359,42.3147,赤峰市,桥北物流园区,颗粒物(PM10),69,88,70,41,37,96,,132,125,38,27,9,14,0.9,0.8
2024-09-28T2100,2521A,107.3476,22.4136,崇左市,市环保局江州分局,,50,50,54,25,33,52,,86,82,10,10,3,4,0.7,0.7
2024-09-28T2100,2522A,107.3702,22.3707,崇左市,城南新区,,36,36,41,21,32,53,,90,86,10,8,4,5,0.8,0.8
2024-09-28T2100,2298A,118.3093,32.3153,滁州市,老年大学,,36,36,37,18,23,99,,172,153,12,17,6,7,0.3,0.4
2024-09-28T2100,2299A,118.3244,32.2786,滁州市,人大宾馆,,40,40,46,20,25,98,,167,153,12,17,6,8,0.3,0.4
2024-09-28T2100,3207A,118.3118,32.3038,滁州市,市政府原办公楼,,39,34,39,27,29,99,,167,152,13,20,6,8,0.3,0.4
2024-09-28T2100,3331A,118.3267,32.2634,滁州市,图书馆,,32,32,38,18,21,98,,169,156,14,18,5,7,0.3,0.4
2024-09-28T2100,2605A,101.5482,25.0441,楚雄彝族自治州,州环境监测站,,15,13,11,6,7,47,,51,51,6,5,9,9,0.5,0.6
2024-09-28T2100,2606A,101.538,25.0492,楚雄彝族自治州,市经济开发区,,27,27,14,12,9,44,,52,50,10,7,5,7,0.7,0.6
2024-09-28T2100,2548A,107.5277,31.2827,达州市,达州职业技术学院,颗粒物(PM10),56,62,67,35,43,15,,104,90,83,37,6,7,0.8,0.8
2024-09-28T2100,2549A,107.5086,31.2186,达州市,市环境监测站,,46,46,58,27,34,90,,114,102,16,29,6,7,0.5,0.5
2024-09-28T2100,2550A,107.4988,31.2132,达州市,凤凰小区,,39,39,51,27,33,93,,124,111,17,26,7,8,0.5,0.6
2024-09-28T2100,2551A,107.5082,31.1986,达州市,达县机关宾馆,,41,41,55,27,31,91,,117,107,19,33,5,6,0.4,0.5
2024-09-28T2100,2552A,107.4644,31.2124,达州市,市政中心,,45,44,56,31,35,88,,121,107,21,28,4,5,0.4,0.5
2024-09-28T2100,2614A,100.1542,25.7054,大理白族自治州,大理市环境监测站,,26,26,26,13,9,44,,56,54,8,6,8,8,0.5,0.6
2024-09-28T2100,2615A,100.2171,25.5811,大理白族自治州,大理古城,,43,,18,30,10,45,,60,54,8,9,8,8,0.4,0.4
2024-09-28T2100,1109A,121.612,38.9741,大连市,甘井子,,34,28,37,13,20,106,,132,123,15,24,9,10,0.9,1.1
2024-09-28T2100,1110A,121.565,38.9511,大连市,周水子,,31,31,42,18,21,84,,116,105,26,35,7,8,0.6,0.8
2024-09-28T2100,1111A,121.5637,38.8845,大连市,星海三站,,33,26,30,12,17,104,,127,118,9,20,7,8,0.3,0.5
2024-09-28T2100,1112A,121.6302,38.9117,大连市,青泥洼桥,,29,29,36,16,20,91,,125,113,18,26,8,8,0.2,0.4
2024-09-28T2100,1113A,121.6251,38.8638,大连市,傅家庄,,27,24,32,14,17,86,,106,99,14,14,8,9,0.2,0.5
2024-09-28T2100,1114A,121.5213,38.8661,大连市,七贤岭,,36,36,29,16,17,101,,137,126,15,14,7,8,0.4,0.6
2024-09-28T2100,1115A,121.2529,38.8061,大连市,旅顺,,38,13,29,7,18,120,,139,133,11,17,6,8,0.4,0.6
2024-09-28T2100,1116A,121.7485,39.1311,大连市,金州,,,29,25,16,18,,,128,114,12,17,6,8,0.5,0.7
2024-09-28T2100,1117A,121.7811,39.0496,大连市,开发区,,36,36,44,24,25,72,,118,105,27,28,5,6,0.3,0.4
2024-09-28T2100,1118A,121.9762,39.0631,大连市,双D港,,35,26,33,14,18,111,,127,112,11,16,6,9,0.7,0.9
2024-09-28T2100,1789A,124.81117,46.03138,大庆市,大同区,颗粒物(PM10),52,54,39,31,22,76,,106,98,18,17,4,4,0.3,0.3
2024-09-28T2100,1790A,125.129,46.533,大庆市,龙凤区,颗粒物(PM10),51,51,44,30,20,79,,97,88,16,21,5,4,0.5,0.4
2024-09-28T2100,1791A,124.902,46.408,大庆市,红岗区,,40,40,28,28,18,86,,111,106,17,12,6,6,0.4,0.4
2024-09-28T2100,1792A,125.153,46.586,大庆市,萨尔图区,,44,44,38,23,16,79,,93,86,21,21,6,6,0.3,0.3
2024-09-28T2100,1793A,124.9042,46.6215,大庆市,让胡路区,,50,50,36,26,22,90,,104,101,17,15,10,9,0.4,0.4
2024-09-28T2100,3481A,125.141,46.634,大庆市,萨区政府监测点,,46,42,25,32,15,85,,106,102,18,15,7,7,0.3,0.2
2024-09-28T2100,1721A,113.3819,40.1097,大同市,果树场,细颗粒物(PM2.5),65,60,45,47,31,86,,118,104,21,20,7,7,0.7,0.7
2024-09-28T2100,1723A,113.2994,40.0758,大同市,云冈宾馆,细颗粒物(PM2.5),58,51,44,41,37,93,,133,117,23,22,8,7,0.7,0.8
2024-09-28T2100,1724A,113.3444,40.0917,大同市,大同大学,,48,48,40,31,32,100,,127,113,16,18,6,6,0.6,0.7
2024-09-28T2100,1725A,113.2661,40.1269,大同市,安家小村,细颗粒物(PM2.5),55,48,44,39,33,95,,134,120,20,18,11,11,0.7,0.7
2024-09-28T2100,1726A,113.2711,40.0844,大同市,教育学院,细颗粒物(PM2.5),52,46,49,36,35,93,,128,115,26,27,7,8,0.7,0.7
2024-09-28T2100,3282A,113.3397,40.0597,大同市,大同市卫生学校,颗粒物(PM10),58,65,52,32,32,93,,130,112,21,20,7,7,0.5,0.6
2024-09-28T2100,3565A,113.1367,40.1122,大同市,云冈站,颗粒物(PM10),58,65,67,38,37,93,,136,124,19,19,9,10,0.6,0.6
2024-09-28T2100,3566A,113.1186,40.2556,大同市,图书馆,细颗粒物(PM2.5),55,41,54,39,38,96,,133,119,20,21,10,10,0.8,0.8
2024-09-28T2100,3567A,113.5931,40.0461,大同市,区一中,,50,50,43,25,23,97,,132,114,21,13,6,7,0.8,0.8
2024-09-28T2100,3676A,113.2802,40.0995,大同市,第二人民医院,颗粒物(PM10),52,54,45,32,31,96,,136,122,21,18,10,10,0.7,0.6
2024-09-28T2100,2269A,124.1069,50.4097,大兴安岭地区,科技局,,28,21,25,19,21,61,,80,56,7,8,7,7,0.4,0.4
2024-09-28T2100,3663A,124.1164,50.4278,大兴安岭地区,红旗社区,,19,,16,10,11,58,,77,54,5,10,4,6,0.4,0.4
2024-09-28T2100,1600A,124.3303,40.0625,丹东市,江湾东路,,46,46,53,18,25,8,,86,61,54,25,9,10,0.8,0.8
2024-09-28T2100,1601A,124.4256,40.1503,丹东市,临江后街,颗粒物(PM10),59,68,41,31,18,48,,105,82,25,22,7,8,0.9,0.8
2024-09-28T2100,1602A,124.3933,40.1461,丹东市,元宝山,,36,36,29,14,15,44,,92,85,24,14,4,4,0.7,0.7
2024-09-28T2100,1603A,124.3633,40.1092,丹东市,民主桥,,38,38,32,18,17,27,,103,69,36,25,5,6,0.6,0.6
2024-09-28T2100,3541A,109.5726,19.5167,儋州市,第一中学子站,,20,20,21,10,12,46,,68,64,4,3,5,4,0.5,0.6
2024-09-28T2100,3542A,109.5567,19.5187,儋州市,东坡学校子站,,20,20,20,10,12,52,,76,72,6,4,4,4,0.5,0.6
2024-09-28T2100,2616A,98.5842,24.428,德宏傣族景颇族自治州,德宏州监测站,,31,31,26,17,10,21,,57,49,17,13,4,13,0.9,0.6
2024-09-28T2100,3677A,98.5881,24.4368,德宏傣族景颇族自治州,芒市人民政府综合楼,,26,,20,18,13,21,,59,51,11,14,6,18,0.6,0.6
2024-09-28T2100,1901A,104.4239,31.1208,德阳市,东山公园,细颗粒物(PM2.5),52,44,71,36,47,78,,91,84,15,21,3,5,0.7,0.8
2024-09-28T2100,1902A,104.3826,31.1317,德阳市,西小区,细颗粒物(PM2.5),55,42,70,39,53,62,,78,69,20,23,2,8,0.6,0.8
2024-09-28T2100,1904A,104.3553,31.1091,德阳市,耐火材料厂,,49,42,77,34,55,61,,79,67,18,23,3,12,0.6,0.8
2024-09-28T2100,3639A,104.4019,31.1244,德阳市,市教育局,细颗粒物(PM2.5),52,48,72,36,51,70,,83,77,17,22,1,5,0.6,0.8
2024-09-28T2100,1622A,116.3032,37.4674,德州市,儿童乐园,颗粒物(PM10),70,90,76,39,33,44,,149,124,74,30,9,12,0.7,0.6
2024-09-28T2100,1624A,116.2991,37.4451,德州市,监理站,颗粒物(PM10),68,85,63,36,33,56,,160,140,67,26,9,12,0.7,0.5
2024-09-28T2100,3066A,116.2721,37.4379,德州市,九衢泉纯净水厂,颗粒物(PM10),67,83,62,44,32,65,,155,140,52,28,9,12,1.0,0.6
2024-09-28T2100,3371A,116.3728,37.4403,德州市,开发区人民医院,颗粒物(PM10),62,73,65,29,28,59,,151,128,67,26,9,11,0.7,0.5
2024-09-28T2100,3372A,116.3572,37.4094,德州市,太阳城中学,颗粒物(PM10),59,68,66,17,29,35,,146,118,87,38,8,10,0.7,0.5
2024-09-28T2100,3511A,116.5652,37.3319,德州市,陵城艺术中心,,,83,59,24,28,,,140,129,44,29,12,12,0.7,0.6
2024-09-28T2100,2621A,99.7056,27.8317,迪庆藏族自治州,迪庆州站,,16,16,15,10,8,32,,41,38,8,9,8,13,0.4,0.4
2024-09-28T2100,3180A,99.7136,27.8094,迪庆藏族自治州,质量技术监督局,,13,13,15,3,6,35,,44,40,6,7,6,6,0.4,0.4
2024-09-28T2100,2663A,104.6241,35.5734,定西市,东关小学,,40,37,46,28,37,92,,107,100,8,10,5,6,0.5,0.4
2024-09-28T2100,2664A,104.6194,35.5934,定西市,供电公司,,48,48,52,31,43,102,,113,106,4,6,8,8,0.5,0.5
2024-09-28T2100,1389A,113.7547,23.0494,东莞市,莞城梨川,,37,37,41,20,23,64,,112,89,28,26,7,6,0.8,0.8
2024-09-28T2100,1390A,113.7944,23.0128,东莞市,东城石井,,,28,39,17,24,,,125,94,32,23,4,5,,0.8
2024-09-28T2100,1391A,113.7383,22.9658,东莞市,南城西平,,36,36,45,15,25,60,,122,101,35,33,9,8,0.9,0.9
2024-09-28T2100,3319A,113.7338,23.0381,东莞市,万江金泰,,35,35,42,19,24,69,,121,97,27,25,8,10,0.6,0.7
2024-09-28T2100,3626A,113.7533,23.0202,东莞市,南城元岭,,36,36,43,18,24,58,,125,94,29,27,7,7,0.7,0.8
2024-09-28T2100,3627A,113.7875,23.0457,东莞市,东城主山,,33,33,38,21,23,65,,125,93,32,25,7,7,0.7,0.7
2024-09-28T2100,1666A,118.6614,37.4309,东营市,市环保局,臭氧1小时,54,39,52,17,22,163,,185,180,18,22,14,10,0.2,0.4
2024-09-28T2100,3036A,118.6904,37.4338,东营市,开发区管委会,颗粒物(PM10),53,55,58,29,27,160,,186,182,26,24,17,11,0.3,0.4
2024-09-28T2100,3365A,118.5719,37.565,东营市,垦利区民丰路,,44,36,45,19,21,139,,162,158,19,24,9,11,0.2,0.5
2024-09-28T2100,3498A,118.5055,37.8612,东营市,河口城区,,46,34,43,20,20,145,,173,167,10,14,6,8,0.4,0.4
2024-09-28T2100,3646A,118.4978,37.4623,东营市,胜利站,,,,42,22,20,149,,172,170,17,21,12,11,0.3,0.4
2024-09-28T2100,3734A,118.35,37.26,东营市,理想之城,,47,46,51,27,26,148,,175,170,25,27,11,10,0.2,0.4
2024-09-28T2100,1591A,110.0023,39.8129,鄂尔多斯市,综合楼,颗粒物(PM10),59,68,75,41,43,115,,124,124,18,17,9,8,0.7,0.7
2024-09-28T2100,1592A,109.9486,39.8261,鄂尔多斯市,巴音孟克林场办事处,颗粒物(PM10),59,68,77,36,46,117,,119,119,18,19,7,7,0.7,0.8
2024-09-28T2100,1593A,109.7736,39.5986,鄂尔多斯市,康泽苑,颗粒物(PM10),56,61,72,34,48,120,,125,125,12,12,10,9,0.7,0.8
2024-09-28T2100,1594A,109.8119,39.5989,鄂尔多斯市,华泰汽车城,细颗粒物(PM2.5),55,56,67,39,47,112,,113,113,12,11,11,9,0.6,0.7
2024-09-28T2100,1595A,109.9734,39.7884,鄂尔多斯市,奥林花园,颗粒物(PM10),63,75,75,39,46,105,,106,106,19,21,8,8,0.8,0.8
2024-09-28T2100,2436A,114.8938,30.3994,鄂州市,市政府,,35,32,30,19,14,112,,118,116,15,18,10,11,0.6,0.7
2024-09-28T2100,2437A,114.8989,30.3714,鄂州市,赵家坝,,31,31,34,19,12,96,,116,108,20,17,15,12,1.0,0.8
2024-09-28T2100,3654A,114.8094,30.4089,鄂州市,精准医疗中心,,35,33,31,17,13,109,,121,114,19,19,14,12,0.9,1.1
2024-09-28T2100,2454A,109.4978,30.2981,恩施土家族苗族自治州,湖北民院,细颗粒物(PM2.5),77,,60,56,49,73,,132,110,17,19,10,10,0.8,0.7
2024-09-28T2100,2455A,109.4707,30.2798,恩施土家族苗族自治州,州电力总公司,细颗粒物(PM2.5),73,62,59,53,45,71,,125,110,25,23,9,8,0.9,0.8
2024-09-28T2100,3549A,109.5061,30.3772,恩施土家族苗族自治州,龙凤新区,细颗粒物(PM2.5),84,73,62,62,51,70,,134,104,14,14,7,6,1.0,0.9
2024-09-28T2100,2499A,108.3411,21.6158,防城港市,沙万,,17,17,22,10,15,28,,42,38,22,13,13,10,0.6,0.7
2024-09-28T2100,2500A,108.3514,21.7731,防城港市,防城档案局,,13,13,24,6,14,32,,46,40,8,9,8,10,0.5,0.6
2024-09-28T2100,2501A,108.3506,21.6414,防城港市,大海花园,,16,16,19,6,12,31,,41,37,14,11,7,8,0.7,0.8
2024-09-28T2100,1371A,113.1294,23.0067,佛山市,湾梁,颗粒物(PM10),57,63,49,26,26,76,,160,144,59,44,7,11,0.8,0.8
2024-09-28T2100,1372A,113.1083,23.0478,佛山市,华材职中,,48,48,53,26,30,93,,146,136,31,47,8,11,0.6,0.7
2024-09-28T2100,1373A,113.144,23.0453,佛山市,南海气象局,,48,48,50,29,29,82,,145,132,36,36,7,11,0.7,0.7
2024-09-28T2100,1374A,113.2881,22.8094,佛山市,顺德苏岗,,41,41,48,22,31,106,,182,167,31,32,7,9,0.8,0.8
2024-09-28T2100,1376A,112.8383,22.8678,佛山市,高明孔堂,颗粒物(PM10),53,55,48,31,29,83,,133,124,14,20,5,7,0.6,0.6
2024-09-28T2100,1377A,112.8836,23.1588,佛山市,三水监测站,,,58,50,23,29,,,141,127,44,37,6,6,0.7,0.6
2024-09-28T2100,1378A,112.867,23.185,佛山市,三水云东海,,40,35,41,28,34,48,,126,97,28,32,9,10,0.7,0.7
2024-09-28T2100,3625A,113.2544,22.7642,佛山市,容桂街道办,,39,36,41,27,30,106,,190,179,32,34,6,8,0.8,0.8
2024-09-28T2100,1282A,119.2681,26.0504,福州市,师大,,43,43,24,26,11,91,,88,88,14,11,2,1,0.4,0.3
2024-09-28T2100,1283A,119.2984,26.1028,福州市,五四北路,,37,37,20,23,8,114,,89,89,10,9,4,3,0.4,0.3
2024-09-28T2100,1284A,119.2648,26.0768,福州市,杨桥西路,,40,40,26,24,10,102,,88,88,13,10,4,3,0.4,0.4
2024-09-28T2100,1285A,119.317,26.0746,福州市,紫阳,,41,41,24,25,10,95,,80,80,18,18,5,4,0.5,0.4
2024-09-28T2100,3048A,119.5799,26.0936,福州市,九龙,,41,32,24,15,8,129,,127,127,3,4,6,6,0.4,0.5
2024-09-28T2100,3526A,119.5189,25.9664,福州市,吴航,,40,35,21,18,11,127,,120,120,4,6,6,7,0.4,0.5
2024-09-28T2100,1755A,123.7977,41.8491,抚顺市,望花区,颗粒物(PM10),77,104,70,50,27,21,,104,82,73,35,12,8,1.0,0.8
2024-09-28T2100,1756A,123.9161,41.8822,抚顺市,顺城区,颗粒物(PM10),77,104,48,45,21,7,,106,73,69,35,7,6,1.0,0.7
2024-09-28T2100,1757A,124.0436,41.8611,抚顺市,东洲区,细颗粒物(PM2.5),62,61,34,44,19,47,,108,93,24,19,13,7,1.0,0.5
2024-09-28T2100,1758A,123.9247,41.8642,抚顺市,新抚区,颗粒物(PM10),79,107,50,34,18,6,,108,75,71,36,4,6,1.1,0.5
2024-09-28T2100,1759A,124.0972,41.8961,抚顺市,大伙房水库,,41,41,24,25,15,59,,116,104,11,13,6,7,0.5,0.5
2024-09-28T2100,1760A,123.7086,41.8391,抚顺市,沈抚新城,细颗粒物(PM2.5),93,95,42,69,41,23,,114,85,68,37,12,11,0.6,0.7
2024-09-28T2100,2376A,116.2127,28.0814,抚州市,桐源党溪,,41,41,34,26,19,52,,106,89,4,7,6,10,0.6,0.6
2024-09-28T2100,2377A,116.3544,27.9831,抚州市,市站,,45,45,29,24,15,65,,98,90,17,11,4,5,0.7,0.9
2024-09-28T2100,2378A,116.3565,27.963,抚州市,血防站,,49,45,30,34,22,75,,105,97,16,11,1,7,1.0,0.9
2024-09-28T2100,2379A,116.3564,28.0007,抚州市,采茶剧团,,46,42,28,32,16,60,,102,94,13,8,8,7,0.7,0.7
2024-09-28T2100,2380A,116.385,27.9647,抚州市,医学分院,,43,43,27,24,12,76,,98,91,13,9,5,5,0.7,0.7
2024-09-28T2100,2207A,121.6094,41.998,阜新市,工业园区,,39,29,60,23,26,124,,137,136,18,26,15,15,0.8,0.8
2024-09-28T2100,2208A,121.6697,42.0279,阜新市,长青街,,39,34,57,17,26,122,,125,124,15,24,14,15,0.6,0.8
2024-09-28T2100,2209A,121.6673,42.0705,阜新市,农业园区,,39,31,42,17,32,123,,126,126,14,18,11,18,0.5,0.5
2024-09-28T2100,2210A,121.6717,42.0224,阜新市,东苑,,36,34,68,16,30,115,,120,119,19,34,11,19,0.8,1.1
2024-09-28T2100,2211A,121.6506,42.0498,阜新市,玉龙新城,,40,34,50,23,23,126,,139,138,15,28,13,13,0.8,0.8
2024-09-28T2100,2301A,115.8277,32.8929,阜阳市,市监测站,,50,50,48,23,25,96,,140,132,20,16,7,9,0.5,0.6
2024-09-28T2100,2303A,115.8554,32.8605,阜阳市,开发区,颗粒物(PM10),65,80,62,20,30,88,,138,129,25,19,7,7,0.6,0.6
2024-09-28T2100,2875A,115.784,32.8892,阜阳市,阜阳职业技术学院,,46,46,43,19,21,102,,140,134,19,15,7,7,0.4,0.5
2024-09-28T2100,3468A,115.7901,32.8613,阜阳市,市规划展馆,颗粒物(PM10),58,66,45,22,25,102,,142,138,26,18,8,7,0.4,0.5
2024-09-28T2100,3469A,115.836,32.9183,阜阳市,枣园社区,,46,46,48,18,26,98,,136,129,20,17,9,9,0.5,0.5
2024-09-28T2100,2669A,102.9099,34.9841,甘南藏族自治州,州政府,,49,,37,34,25,54,,74,69,15,20,13,14,0.4,0.3
2024-09-28T2100,3380A,102.8914,34.9617,甘南藏族自治州,甘肃民族师范学院,,39,39,48,25,23,24,,72,64,27,25,4,5,0.6,0.5
2024-09-28T2100,2570A,101.9603,30.0475,甘孜藏族自治州,水桥子,,16,13,23,11,8,45,,68,65,18,16,5,6,0.6,0.4
2024-09-28T2100,3065A,101.9533,29.9972,甘孜藏族自治州,州环保局,,,29,22,8,6,,,67,65,24,17,3,3,0.4,0.3
2024-09-28T2100,3414A,115.8347,28.932,赣江新区,桑海产业园,,36,36,20,10,10,13,,86,73,60,19,12,12,0.3,0.3
2024-09-28T2100,2362A,114.9017,25.9149,赣州市,通天岩,,26,25,28,18,18,33,,102,82,1,2,8,8,0.4,0.4
2024-09-28T2100,2363A,114.9367,25.8664,赣州市,地委,,35,35,32,23,22,52,,84,71,12,13,10,9,1.2,1.2
2024-09-28T2100,2364A,114.9461,25.8481,赣州市,气象台,,38,38,34,22,19,52,,85,69,7,15,41,14,0.5,0.5
2024-09-28T2100,2365A,114.9322,25.8333,赣州市,市图书馆,,38,38,31,26,18,62,,95,81,6,15,19,6,0.7,0.7
2024-09-28T2100,2366A,114.8905,25.8471,赣州市,华坚鞋城,,36,35,37,25,20,58,,82,71,6,13,3,3,0.5,0.5
2024-09-28T2100,3109A,115.0093,25.8613,赣州市,赣县区卫计委,,43,,30,30,17,34,,90,69,23,15,6,7,0.7,0.7
2024-09-28T2100,2683A,106.2319,36.1417,固原市,马园,颗粒物(PM10),84,117,102,37,41,129,,138,114,17,18,7,7,0.8,0.8
2024-09-28T2100,2684A,106.2792,36.0022,固原市,监测站,颗粒物(PM10),52,54,65,34,66,132,,142,118,11,11,2,3,0.4,0.5
2024-09-28T2100,2685A,106.2375,36.0211,固原市,新区,细颗粒物(PM2.5),58,47,66,41,51,121,,140,108,11,11,6,5,0.7,0.7
2024-09-28T2100,3522A,106.2177,35.9959,固原市,原州区十五小,细颗粒物(PM2.5),54,53,63,38,40,108,,129,109,15,13,6,6,0.9,0.9
2024-09-28T2100,2544A,106.6303,30.4576,广安市,市委,,44,44,51,23,34,93,,126,115,11,18,1,2,0.4,0.5
2024-09-28T2100,2545A,106.6271,30.4663,广安市,友谊中学,,39,39,47,25,33,82,,123,112,21,19,3,4,0.5,0.6
2024-09-28T2100,2547A,106.6388,30.4551,广安市,广电花园,,42,42,55,28,35,82,,123,111,17,20,2,3,0.4,0.5
2024-09-28T2100,2902A,106.6351,30.4865,广安市,北辰小学,,47,47,64,26,37,84,,126,116,15,18,6,8,0.5,0.6
2024-09-28T2100,2523A,105.8945,32.4535,广元市,黑石坡,细颗粒物(PM2.5),94,,56,70,51,26,,57,41,23,21,13,15,0.6,0.7
2024-09-28T2100,2524A,105.821,32.4444,广元市,老城,颗粒物(PM10),51,52,58,35,37,34,,63,53,40,51,4,4,0.8,1.1
2024-09-28T2100,2526A,105.8628,32.4287,广元市,监测站,细颗粒物(PM2.5),57,57,56,40,45,74,,71,69,19,25,3,4,0.8,0.8
2024-09-28T2100,3617A,105.8047,32.4166,广元市,经开区,细颗粒物(PM2.5),54,51,68,38,49,38,,80,60,23,41,8,7,0.9,1
2024-09-28T2100,1345A,113.2347,23.1423,广州市,广雅中学,,40,40,51,25,31,70,,142,130,34,44,5,8,0.9,0.9
2024-09-28T2100,1346A,113.2612,23.105,广州市,市五中,,42,42,52,26,35,73,,156,142,25,28,5,7,0.7,0.7
2024-09-28T2100,1348A,113.3478,23.0916,广州市,广东商学院,,49,49,54,32,31,76,,143,127,38,44,4,6,0.7,0.8
2024-09-28T2100,1349A,113.4332,23.1047,广州市,市八十六中,颗粒物(PM10),58,65,49,35,27,90,,130,119,48,39,4,4,0.7,0.7
2024-09-28T2100,1350A,113.3505,22.9483,广州市,番禺中学,,46,42,52,29,31,145,,182,166,29,38,6,8,0.8,0.8
2024-09-28T2100,1351A,113.2146,23.3916,广州市,花都师范,,42,42,41,22,25,50,,118,110,44,21,5,7,0.9,0.7
2024-09-28T2100,1352A,113.2597,23.1331,广州市,市监测站,,38,38,46,21,26,66,,129,116,29,41,4,6,0.8,0.8
2024-09-28T2100,1353A,113.5618,23.312,广州市,九龙镇镇龙,细颗粒物(PM2.5),55,52,43,39,27,14,,98,80,41,25,7,7,0.9,0.7
2024-09-28T2100,1354A,113.2765,23.1544,广州市,麓湖,颗粒物(PM10),66,81,56,34,31,34,,120,99,46,38,5,7,0.8,0.7
2024-09-28T2100,1355A,113.443,23.3035,广州市,帽峰山森林公园,,23,18,26,16,19,60,,112,101,9,13,5,7,0.5,0.6
2024-09-28T2100,2846A,113.3221,23.1322,广州市,体育西,,45,42,45,31,31,67,,132,119,28,36,3,7,0.7,0.7
2024-09-28T2100,3298A,113.5717,23.5491,广州市,从化街口,,42,42,41,25,26,35,,93,71,24,22,8,9,0.8,0.7
2024-09-28T2100,3299A,113.3472,23.3692,广州市,白云竹料,,45,45,51,30,31,50,,112,100,33,30,5,5,0.7,0.6
2024-09-28T2100,3300A,113.2981,23.237,广州市,白云嘉禾,颗粒物(PM10),52,54,63,28,31,50,,115,102,49,42,6,8,1.0,1
2024-09-28T2100,3301A,113.4256,23.1716,广州市,黄埔科学城,,48,48,44,28,26,18,,123,98,50,29,8,8,0.8,0.7
2024-09-28T2100,3302A,113.3942,23.0483,广州市,番禺大学城,,,48,48,,27,,,147,132,37,39,8,9,,0.4
2024-09-28T2100,3303A,113.4922,22.8168,广州市,南沙黄阁,,35,28,58,16,35,110,,188,177,22,47,5,5,0.6,0.8
2024-09-28T2100,3304A,113.5342,22.7896,广州市,南沙街,,30,30,53,17,32,82,,190,173,24,41,7,9,0.8,0.9
2024-09-28T2100,3443A,113.2902,23.5544,广州市,花都梯面,,32,32,33,20,22,29,,94,76,26,18,5,7,0.8,0.7
2024-09-28T2100,3445A,113.7858,23.7478,广州市,从化良口,,23,23,22,12,16,39,,62,53,9,10,6,7,0.8,0.8
2024-09-28T2100,3446A,113.8051,23.2614,广州市,增城荔城,,33,33,27,19,18,55,,75,66,21,12,8,6,0.6,0.5
2024-09-28T2100,2506A,109.6047,23.0666,贵港市,江南子站,细颗粒物(PM2.5),77,90,68,56,40,74,,109,104,21,17,10,9,1.0,0.9
2024-09-28T2100,2507A,109.6014,23.0948,贵港市,贵城子站,细颗粒物(PM2.5),69,81,66,50,38,63,,113,106,22,17,8,8,0.9,0.9
2024-09-28T2100,2508A,109.5669,23.1065,贵港市,荷城子站,细颗粒物(PM2.5),58,61,55,41,32,77,,111,106,16,13,10,11,0.7,0.7
2024-09-28T2100,3405A,109.5886,23.1172,贵港市,新世纪学校,细颗粒物(PM2.5),62,70,58,44,34,72,,114,108,16,14,7,8,0.8,0.8
2024-09-28T2100,1439A,106.6899,26.5998,贵阳市,马鞍山,,27,27,28,9,12,58,,74,68,11,9,7,9,0.4,0.4
2024-09-28T2100,1440A,106.6971,26.5694,贵阳市,市环保站,,39,27,37,27,29,55,,76,67,15,10,4,5,0.6,0.5
2024-09-28T2100,1441A,106.6243,26.6266,贵阳市,鉴湖路,,32,29,40,22,21,60,,74,68,6,7,5,6,0.4,0.4
2024-09-28T2100,1442A,106.7487,26.6343,贵阳市,燕子冲,,39,,23,27,25,64,,77,69,11,7,5,5,0.5,0.5
2024-09-28T2100,1443A,106.6555,26.4365,贵阳市,碧云窝,,35,34,38,24,21,61,,74,67,8,7,3,7,0.4,0.4
2024-09-28T2100,1444A,106.694,26.5161,贵阳市,中院村,,31,31,34,12,22,54,,67,61,11,11,6,8,0.5,0.6
2024-09-28T2100,1445A,106.7109,26.6027,贵阳市,红边门,,49,36,35,34,31,52,,71,61,18,13,4,5,0.5,0.5
2024-09-28T2100,1446A,106.7164,26.5699,贵阳市,新华路,,39,,26,27,25,66,,77,70,7,10,3,3,0.4,0.4
2024-09-28T2100,1447A,106.674,26.5424,贵阳市,太慈桥,,27,27,35,17,22,53,,77,66,9,9,6,8,0.5,0.5
2024-09-28T2100,1862A,110.4144,25.3167,桂林市,电子科大尧山校区,,50,50,57,32,34,61,,98,90,10,10,13,18,0.7,0.7
2024-09-28T2100,1863A,110.2819,25.2697,桂林市,监测站,,46,46,41,18,26,78,,116,107,14,11,7,11,0.8,0.7
2024-09-28T2100,1864A,110.3089,25.2708,桂林市,龙隐路小学,颗粒物(PM10),52,54,36,27,22,72,,113,103,12,10,7,10,0.8,0.7
2024-09-28T2100,1865A,110.2869,25.2178,桂林市,八中,颗粒物(PM10),53,56,39,30,23,62,,103,93,16,13,7,10,0.5,0.4
2024-09-28T2100,3403A,110.1764,25.2381,桂林市,创业大厦,,,,42,,31,53,,96,86,,22,7,9,0.6,0.6
2024-09-28T2100,3531A,110.296,25.1253,桂林市,旅游学院,,45,41,28,31,21,61,,103,93,14,12,7,8,0.5,0.4
2024-09-28T2100,2674A,100.2561,34.4714,果洛藏族自治州,玛沁县大武镇,,48,48,32,26,14,29,,72,61,16,11,8,7,0.6,0.5
2024-09-28T2100,1129A,126.5422,45.755,哈尔滨市,岭北,,38,32,34,16,18,120,,126,126,21,31,16,17,0.3,0.7
2024-09-28T2100,1130A,126.561,45.8167,哈尔滨市,松北商大,,44,44,52,21,19,24,,90,73,72,37,8,8,0.7,0.6
2024-09-28T2100,1131A,126.979,45.5419,哈尔滨市,阿城会宁,颗粒物(PM10),72,94,49,32,18,3,,91,65,62,30,9,10,0.6,0.5
2024-09-28T2100,1132A,126.599,45.7222,哈尔滨市,南岗学府路,颗粒物(PM10),69,87,59,38,20,29,,91,70,68,44,10,9,0.8,0.7
2024-09-28T2100,1133A,126.689,45.7733,哈尔滨市,太平宏伟公园,颗粒物(PM10),59,68,69,20,21,33,,86,68,65,43,9,9,0.6,0.6
2024-09-28T2100,1134A,126.635,45.7667,哈尔滨市,道外承德广场,颗粒物(PM10),54,58,56,10,13,59,,85,77,49,47,8,8,0.6,0.7
2024-09-28T2100,1135A,126.685,45.7319,哈尔滨市,香坊红旗大街,颗粒物(PM10),58,66,73,29,26,44,,89,73,61,45,15,15,0.8,0.8
2024-09-28T2100,1136A,126.6411,45.7258,哈尔滨市,动力和平路,颗粒物(PM10),54,58,43,30,20,62,,90,82,37,43,21,18,0.6,0.7
2024-09-28T2100,1137A,126.593,45.7478,哈尔滨市,道里建国路,颗粒物(PM10),62,73,47,23,20,30,,90,71,84,52,20,18,2.5,1.8
2024-09-28T2100,1138A,126.615,45.61,哈尔滨市,平房东轻厂,颗粒物(PM10),54,57,40,16,17,66,,95,89,35,32,8,6,0.6,0.5
2024-09-28T2100,1139A,126.595,45.9855,哈尔滨市,呼兰师专,颗粒物(PM10),58,65,38,32,15,37,,83,75,62,35,8,6,0.9,0.6
2024-09-28T2100,1140A,126.6206,45.6842,哈尔滨市,省农科院,颗粒物(PM10),67,83,65,33,21,22,,82,54,82,54,6,10,0.6,0.7
2024-09-28T2100,2688A,93.5128,42.8172,哈密市,地区监测站,,23,23,47,16,16,48,,71,60,24,11,3,4,0.4,0.3
2024-09-28T2100,2689A,93.4961,42.8328,哈密市,哈密师范学校,,14,11,36,8,17,44,,74,57,20,11,5,4,0.4,0.3
2024-09-28T2100,2671A,100.9048,36.9639,海北藏族自治州,海晏县西海镇,,50,36,38,35,34,93,,102,102,9,13,14,16,0.5,0.7
2024-09-28T2100,3867A,102.0738,36.5056,海东市,平安区公安北苑,细颗粒物(PM2.5),65,64,59,47,38,100,,102,102,13,19,12,14,0.6,0.6
2024-09-28T2100,1410A,110.3232,20.0574,海口市,海南大学,,20,20,19,14,12,58,,86,82,8,10,3,3,0.4,0.4
2024-09-28T2100,1411A,110.283,20.0053,海口市,秀英海南医院,,23,21,22,16,13,53,,83,75,16,11,5,5,0.3,0.3
2024-09-28T2100,1412A,110.338,19.9969,海口市,海南师范大学,,29,29,21,18,13,54,,91,84,12,9,6,6,0.4,0.4
2024-09-28T2100,1413A,110.33,20.0356,海口市,龙华路环保局宿舍,,23,23,20,15,12,56,,91,84,12,9,4,4,0.4,0.3
2024-09-28T2100,3539A,110.5111,19.9736,海口市,桂林洋子站,,48,48,24,30,15,32,,80,73,12,9,7,6,0.4,0.3
2024-09-28T2100,2673A,100.6188,36.2866,海南藏族自治州,共和县恰卜恰镇,颗粒物(PM10),52,53,25,14,12,62,,82,77,15,12,6,7,0.7,0.7
2024-09-28T2100,2676A,97.3731,37.3753,海西蒙古族藏族自治州,德令哈市,,43,43,26,22,10,86,,87,87,14,8,9,9,0.5,0.4
2024-09-28T2100,1048A,114.5302,36.6116,邯郸市,东污水处理厂,颗粒物(PM10),70,90,120,46,87,73,,134,124,55,33,4,4,0.6,0.6
2024-09-28T2100,1049A,114.4918,36.5713,邯郸市,矿院,"颗粒物(PM10),细颗粒物(PM2.5)",67,84,126,48,79,79,,132,124,34,20,6,5,0.6,0.6
2024-09-28T2100,1050A,114.484,36.6133,邯郸市,丛台公园,颗粒物(PM10),68,85,146,48,77,82,,130,124,39,24,6,6,0.7,0.6
2024-09-28T2100,3458A,114.7895,36.5593,邯郸市,香泉濮院小区,,,114,120,24,54,59,,146,130,,32,5,6,0.5,0.6
2024-09-28T2100,3579A,114.50634,36.77178,邯郸市,永年区实验高中,颗粒物(PM10),82,114,142,50,90,58,,150,134,72,33,6,4,0.6,0.4
2024-09-28T2100,3580A,114.20016,36.44293,邯郸市,峰峰矿区临水派出所,颗粒物(PM10),78,105,140,31,69,130,,148,142,10,14,4,5,0.6,0.9
2024-09-28T2100,2634A,106.9893,33.1842,汉中市,汉川机床厂子校,细颗粒物(PM2.5),57,53,57,40,37,126,,166,132,7,8,4,5,0.6,0.6
2024-09-28T2100,2635A,107.0154,33.0706,汉中市,市监测站,细颗粒物(PM2.5),73,89,75,53,43,70,,172,114,20,10,8,10,1.0,0.8
2024-09-28T2100,2636A,107.0089,33.1138,汉中市,鑫源开发区,细颗粒物(PM2.5),89,73,67,66,45,75,,176,118,23,11,10,11,0.8,0.6
2024-09-28T2100,2637A,107.007,33.0323,汉中市,南郑大河坎水厂,细颗粒物(PM2.5),108,85,76,81,49,50,,160,102,25,16,9,10,1.0,0.8
2024-09-28T2100,1223A,120.2072,30.2111,杭州市,滨江,,49,49,39,23,19,87,,143,132,27,19,5,5,0.7,0.7
2024-09-28T2100,1224A,120.0633,30.2747,杭州市,西溪,,34,25,29,22,22,106,,142,138,16,22,6,6,0.7,0.6
2024-09-28T2100,1226A,120.3461,30.3153,杭州市,下沙,,38,38,40,16,20,109,,149,140,23,44,6,7,0.7,0.7
2024-09-28T2100,1227A,120.1269,30.2456,杭州市,卧龙桥,,34,31,27,22,18,107,,158,151,19,16,6,6,0.6,0.6
2024-09-28T2100,1228A,120.1903,30.2692,杭州市,浙江农大,,34,34,32,20,20,98,,139,132,22,26,8,8,0.5,0.5
2024-09-28T2100,1230A,120.1197,30.3119,杭州市,和睦小学,,33,31,35,19,20,104,,154,146,20,22,7,7,0.6,0.6
2024-09-28T2100,1231A,120.3019,30.4183,杭州市,临平镇,,28,21,42,15,21,88,,150,138,22,21,4,6,0.7,0.7
2024-09-28T2100,1232A,120.2697,30.1819,杭州市,城厢镇,,42,42,39,24,25,102,,154,142,24,27,7,7,0.5,0.5
2024-09-28T2100,1233A,120.0883,30.1808,杭州市,云栖,,31,31,30,12,13,77,,143,131,16,13,7,7,0.7,0.7
2024-09-28T2100,3557A,119.9464,30.0494,杭州市,镇二中,,37,30,31,18,20,118,,159,153,19,18,8,9,0.6,0.6
2024-09-28T2100,3558A,119.7183,30.2367,杭州市,市府大楼,,39,34,29,27,21,107,,166,154,32,22,6,6,0.6,0.6
2024-09-28T2100,3656A,120.1556,30.2864,杭州市,消防大队,,35,31,34,19,21,110,,150,144,10,16,8,9,0.7,0.7
2024-09-28T2100,1270A,117.1959,31.7848,合肥市,明珠广场,颗粒物(PM10),58,66,47,31,25,160,,168,168,29,23,10,9,1.1,0.9
2024-09-28T2100,1271A,117.3072,31.8764,合肥市,三里街,颗粒物(PM10),56,61,42,29,20,145,,151,151,31,21,8,8,0.8,0.7
2024-09-28T2100,1272A,117.2588,31.8707,合肥市,琥珀山庄,臭氧1小时,67,53,43,26,22,173,,166,166,26,21,9,9,0.8,0.7
2024-09-28T2100,1273A,117.1604,31.9052,合肥市,董铺水库,颗粒物(PM10),51,51,43,27,22,156,,145,145,17,14,4,4,0.6,0.5
2024-09-28T2100,1274A,117.25,31.8571,合肥市,长江中路,"颗粒物(PM10),臭氧1小时",59,68,55,34,26,167,,157,157,27,22,9,10,1.0,0.8
2024-09-28T2100,1275A,117.266,31.9436,合肥市,庐阳区,颗粒物(PM10),56,61,45,29,22,144,,161,161,31,22,5,6,0.7,0.7
2024-09-28T2100,1276A,117.336,31.8586,合肥市,瑶海区,颗粒物(PM10),56,61,47,29,21,159,,153,153,30,25,5,5,0.8,0.7
2024-09-28T2100,1277A,117.3027,31.7964,合肥市,包河区,颗粒物(PM10),57,63,47,31,24,137,,157,157,44,35,6,6,1.0,0.8
2024-09-28T2100,1278A,117.2776,31.7385,合肥市,滨湖新区,臭氧1小时,58,58,46,31,25,166,,164,164,18,16,8,8,0.9,0.8
2024-09-28T2100,1279A,117.1318,31.8403,合肥市,高新区,臭氧1小时,63,63,43,31,25,170,,155,155,19,17,11,10,1.0,0.9
2024-09-28T2100,3464A,117.3803,31.9147,合肥市,高教基地,颗粒物(PM10),54,57,43,32,22,145,,159,158,24,16,5,5,0.6,0.6
2024-09-28T2100,3614A,79.924,37.0877,和田地区,地区环保局,颗粒物(PM10),500,738,533,171,118,66,,91,91,18,8,6,7,0.7,0.6
2024-09-28T2100,3615A,79.9131,37.113,和田地区,市环保局,颗粒物(PM10),500,631,506,153,107,67,,94,91,19,10,6,6,0.4,0.4
2024-09-28T2100,2516A,108.2011,24.715,河池市,东仁乐园,细颗粒物(PM2.5),57,51,49,40,35,72,,96,89,13,12,7,10,0.7,0.7
2024-09-28T2100,2517A,108.0497,24.6947,河池市,市环保站,细颗粒物(PM2.5),55,42,40,39,31,65,,96,88,9,13,10,12,0.8,0.7
2024-09-28T2100,2518A,108.0983,24.6989,河池市,市疾控中心,细颗粒物(PM2.5),57,62,44,40,31,64,,94,88,13,18,9,12,0.7,0.7
2024-09-28T2100,1696A,114.6778,23.7569,河源市,源西,,23,,26,16,19,40,,71,65,17,15,4,5,0.7,0.7
2024-09-28T2100,1697A,114.6944,23.7586,河源市,东埔,,22,19,27,15,17,21,,25,25,27,37,2,3,0.7,0.7
2024-09-28T2100,1698A,114.6892,23.7233,河源市,老城,,24,24,25,9,13,49,,82,75,11,11,2,3,0.7,0.7
2024-09-28T2100,1718A,115.4208,35.2464,菏泽市,气象局,颗粒物(PM10),57,63,53,24,20,138,,149,149,18,16,5,5,0.3,0.3
2024-09-28T2100,1719A,115.4747,35.2375,菏泽市,市政协,颗粒物(PM10),62,73,53,28,23,118,,142,141,23,16,8,6,0.3,0.3
2024-09-28T2100,3374A,115.5564,35.0891,菏泽市,定陶老年大学,颗粒物(PM10),56,61,50,17,17,107,,133,130,21,15,7,8,0.4,0.4
2024-09-28T2100,3647A,115.4702,35.2706,菏泽市,菏泽医专,颗粒物(PM10),63,75,54,18,19,120,,143,142,24,19,8,7,0.6,0.6
2024-09-28T2100,2514A,111.5264,24.4172,贺州市,环保小区,,48,48,33,27,19,44,,53,,20,14,7,7,0.9,0.7
2024-09-28T2100,2515A,111.5608,24.4078,贺州市,政协大楼,颗粒物(PM10),55,60,36,29,21,47,,90,77,28,16,10,7,0.7,0.6
2024-09-28T2100,3534A,111.4744,24.4553,贺州市,西湾,,44,44,37,30,18,24,,91,70,34,17,6,6,0.8,0.7
2024-09-28T2100,2385A,114.17,35.9019,鹤壁市,市监测站,颗粒物(PM10),69,88,112,46,80,64,,140,126,58,27,11,6,1.0,1.2
2024-09-28T2100,2386A,114.2956,35.7511,鹤壁市,市交警支队,颗粒物(PM10),62,74,104,36,64,77,,133,122,55,34,2,6,0.6,0.8
2024-09-28T2100,2387A,114.2878,35.7306,鹤壁市,迎宾馆,颗粒物(PM10),70,89,125,29,71,82,,134,127,54,33,3,4,0.7,0.9
2024-09-28T2100,3474A,114.2617,35.6822,鹤壁市,大新区,颗粒物(PM10),72,93,86,25,48,64,,131,123,57,28,7,8,0.8,0.9
2024-09-28T2100,3596A,114.1572,35.9603,鹤壁市,南山宾馆,颗粒物(PM10),71,91,118,37,78,106,,137,129,17,15,3,4,0.4,0.9
2024-09-28T2100,2244A,130.2537,47.3416,鹤岗市,哈啤分公司,,40,40,29,22,18,56,,76,72,6,7,14,13,0.9,0.7
2024-09-28T2100,2245A,130.2684,47.3086,鹤岗市,斯达机电,,33,33,33,22,21,61,,80,77,14,14,14,13,0.3,0.3
2024-09-28T2100,2246A,130.3114,47.3388,鹤岗市,东山纸板厂,,,,41,39,23,,,68,52,32,15,17,16,1.1,0.7
2024-09-28T2100,2247A,130.1097,47.3382,鹤岗市,五号水库,,24,24,17,16,9,38,,83,70,11,7,6,7,0.5,0.5
2024-09-28T2100,2263A,127.4833,50.2524,黑河市,交通局,,25,22,35,17,20,53,,72,66,8,17,7,8,0.4,0.4
2024-09-28T2100,2264A,127.5144,50.2341,黑河市,环保局,,29,29,23,18,13,54,,90,81,7,9,3,3,0.5,0.4
2024-09-28T2100,2265A,127.5291,50.2472,黑河市,大黑河岛,,,,,18,17,53,,82,75,10,11,2,2,0.1,0.1
2024-09-28T2100,1074A,115.6838,37.7541,衡水市,电机北厂,颗粒物(PM10),66,82,84,26,50,73,,141,129,47,27,6,9,0.3,0.4
2024-09-28T2100,1075A,115.6303,37.7316,衡水市,市监测站,颗粒物(PM10),69,88,87,32,48,92,,142,135,36,28,6,10,0.4,0.5
2024-09-28T2100,3188A,115.6683,37.7217,衡水市,市城管局,颗粒物(PM10),70,90,88,33,50,90,,146,135,36,26,7,9,0.4,0.6
2024-09-28T2100,3459A,115.5989,37.5491,衡水市,地表水厂,颗粒物(PM10),128,205,88,39,44,2,,136,104,109,41,11,10,0.3,0.4
2024-09-28T2100,2456A,112.5003,26.9167,衡阳市,原169医院,细颗粒物(PM2.5),77,102,55,56,38,60,,149,133,14,14,7,6,1.0,1
2024-09-28T2100,2457A,112.6194,26.9258,衡阳市,衡阳化工总厂,细颗粒物(PM2.5),92,93,64,68,47,63,,124,109,19,13,23,12,0.9,0.8
2024-09-28T2100,2458A,112.6211,26.8956,衡阳市,珠晖区环保局,,,78,56,,,50,,121,104,34,21,9,8,0.9,0.7
2024-09-28T2100,2459A,112.6197,26.8733,衡阳市,市委党校,细颗粒物(PM2.5),68,64,59,49,37,70,,122,112,20,17,21,10,0.9,0.8
2024-09-28T2100,2460A,112.6006,26.8919,衡阳市,市监测站,细颗粒物(PM2.5),88,79,52,65,39,76,,131,120,16,12,9,9,1.0,0.8
2024-09-28T2100,2461A,112.5664,26.9056,衡阳市,真空机电公司,细颗粒物(PM2.5),64,71,61,46,37,76,,130,121,16,16,14,11,1.1,1
2024-09-28T2100,3399A,112.6703,26.882,衡阳市,师范学院,"颗粒物(PM10),细颗粒物(PM2.5)",62,73,61,44,38,66,,119,106,20,16,17,10,1.0,0.9
2024-09-28T2100,2608A,103.3772,23.3993,红河哈尼族彝族自治州,污水处理厂,,16,16,20,11,17,33,,44,40,5,6,5,5,0.4,0.4
2024-09-28T2100,2609A,103.3861,23.35,红河哈尼族彝族自治州,监测站,,26,22,27,18,22,37,,48,44,5,6,10,8,0.4,0.4
2024-09-28T2100,3038A,103.3758,23.368,红河哈尼族彝族自治州,州图书馆,,12,12,20,6,13,35,,47,41,4,5,6,5,0.3,0.3
2024-09-28T2100,1090A,111.6507,40.7517,呼和浩特市,呼市一监,颗粒物(PM10),93,136,67,47,36,11,,69,47,83,32,7,9,1.2,0.8
2024-09-28T2100,1091A,111.6572,40.8033,呼和浩特市,小召,颗粒物(PM10),67,83,57,33,33,42,,73,55,64,30,7,8,1.0,0.8
2024-09-28T2100,1094A,111.7516,40.8369,呼和浩特市,如意水处理厂,颗粒物(PM10),67,83,64,32,30,85,,70,44,29,35,7,8,0.7,0.7
2024-09-28T2100,1095A,111.7276,40.8062,呼和浩特市,二十九中,颗粒物(PM10),68,85,62,40,42,87,,76,55,30,33,6,7,0.9,0.9
2024-09-28T2100,1096A,111.5512,40.7866,呼和浩特市,工大金川校区,颗粒物(PM10),75,100,71,39,36,18,,63,35,93,46,4,6,1.0,0.8
2024-09-28T2100,1097A,111.717,40.7612,呼和浩特市,化肥厂生活区,颗粒物(PM10),73,95,75,31,37,74,,67,55,37,33,10,11,0.8,0.8
2024-09-28T2100,3698A,111.5968,40.8178,呼和浩特市,红旗小学,颗粒物(PM10),71,92,73,38,36,29,,65,32,82,46,4,5,0.9,0.8
2024-09-28T2100,3699A,111.6518,40.8389,呼和浩特市,海东办,颗粒物(PM10),71,92,68,40,36,48,,70,55,62,38,6,6,0.8,0.7
2024-09-28T2100,2192A,119.7594,49.2261,呼伦贝尔市,区环保局,,33,30,30,23,25,24,,56,39,12,19,3,4,0.6,0.5
2024-09-28T2100,3061A,119.7512,49.1577,呼伦贝尔市,国华电力东,,29,29,32,20,23,27,,57,46,7,10,6,6,0.6,0.5
2024-09-28T2100,1250A,120.0751,30.8669,湖州市,城西水厂,,42,42,39,24,23,98,,167,159,26,24,5,5,0.4,0.4
2024-09-28T2100,2873A,120.0875,30.8955,湖州市,仁皇山新区,,38,38,39,20,24,107,,172,164,21,24,8,7,0.6,0.6
2024-09-28T2100,2907A,120.1844,30.8596,湖州市,吴兴区站,,34,34,42,20,22,91,,154,145,22,19,7,6,0.5,0.5
2024-09-28T2100,3562A,120.4148,30.8538,湖州市,南浔区站,,40,40,49,25,27,77,,143,132,25,24,12,7,0.5,0.5
2024-09-28T2100,1607A,120.9092,40.7136,葫芦岛市,龙港区,,46,33,39,25,31,145,,153,153,12,29,11,11,0.7,0.7
2024-09-28T2100,1608A,120.8392,40.7514,葫芦岛市,化工街,颗粒物(PM10),58,66,67,31,31,110,,139,138,31,40,14,17,0.8,0.7
2024-09-28T2100,1609A,120.8341,40.7073,葫芦岛市,新区,,49,,39,34,34,126,,147,147,28,50,9,11,0.8,0.7
2024-09-28T2100,1610A,120.8695,40.7677,葫芦岛市,东城区,细颗粒物(PM2.5),53,44,50,37,45,107,,133,131,33,39,10,10,0.7,0.5
2024-09-28T2100,2482A,109.5981,27.5721,怀化市,林科所,,44,44,41,20,25,82,,109,96,14,18,2,4,0.7,0.6
2024-09-28T2100,2483A,109.9453,27.5444,怀化市,河西地税局,,47,47,45,32,32,96,,103,96,9,14,8,8,0.5,0.5
2024-09-28T2100,2484A,109.9781,27.5342,怀化市,市四医院,,50,50,59,32,39,95,,104,94,2,15,7,12,0.7,0.7
2024-09-28T2100,2485A,109.9972,27.5578,怀化市,监测楼,细颗粒物(PM2.5),52,50,55,36,33,91,,107,96,7,17,6,13,0.6,0.6
2024-09-28T2100,2486A,110.0394,27.583,怀化市,市委党校,颗粒物(PM10),58,65,53,32,33,92,,96,88,6,10,10,33,0.6,0.6
2024-09-28T2100,1210A,119.036,33.5981,淮安市,钵池山,,28,19,21,16,17,89,,114,104,10,12,4,4,0.5,0.5
2024-09-28T2100,1211A,119.007,33.575,淮安市,北京南路,,29,29,25,15,14,85,,113,103,14,15,6,6,0.4,0.4
2024-09-28T2100,1212A,118.989,33.6067,淮安市,市监测站,,30,22,21,12,13,96,,122,112,19,23,6,6,0.4,0.4
2024-09-28T2100,1213A,119.135,33.5039,淮安市,楚州区监测站,,34,34,30,18,15,74,,117,98,18,16,6,6,0.5,0.5
2024-09-28T2100,1214A,119.0186,33.6297,淮安市,淮阴区监测站,,29,29,27,13,15,82,,116,99,22,26,2,2,0.3,0.4
2024-09-28T2100,3426A,118.8755,33.2894,淮安市,新华书店,,27,27,26,14,13,77,,131,114,18,17,11,10,0.5,0.5
2024-09-28T2100,2282A,116.8004,33.975,淮北市,监测站,颗粒物(PM10),53,55,35,16,17,116,,128,126,12,10,6,6,0.5,0.4
2024-09-28T2100,2283A,116.8091,33.9007,淮北市,烈山区政府,,39,39,37,20,16,104,,139,133,27,11,9,6,0.4,0.3
2024-09-28T2100,3330A,116.8873,33.9836,淮北市,杜集区检察院,颗粒物(PM10),52,53,39,22,16,127,,146,144,7,4,8,8,0.5,0.5
2024-09-28T2100,4017A,116.7923,33.9535,淮北市,市博物馆,,39,30,34,18,16,124,,139,137,11,8,6,6,0.6,0.6
2024-09-28T2100,2277A,116.8305,32.7727,淮南市,潘集区政府,,46,46,47,24,26,93,,152,134,19,16,7,7,0.5,0.5
2024-09-28T2100,2278A,117.0067,32.6524,淮南市,师范学院,,44,44,44,22,27,116,,156,149,12,12,7,9,0.5,0.6
2024-09-28T2100,2279A,116.8569,32.5951,淮南市,谢家集区政府,,44,44,38,25,25,116,,148,143,20,18,12,11,0.4,0.4
2024-09-28T2100,2280A,116.8281,32.633,淮南市,八公山区政府,,46,46,49,22,25,114,,150,146,18,13,11,12,0.3,0.4
2024-09-28T2100,2281A,116.6325,32.6201,淮南市,焦岗湖风景区管理处,,40,34,34,14,15,126,,140,138,10,8,5,6,0.1,0.1
2024-09-28T2100,2894A,117.0566,32.6531,淮南市,经济技术开发区消防队,,42,42,37,10,14,104,,153,142,17,12,4,5,0.3,0.4
2024-09-28T2100,3329A,117.0108,32.5893,淮南市,山南新区,颗粒物(PM10),62,73,46,20,21,118,,160,154,21,16,5,4,0.7,0.6
2024-09-28T2100,2446A,114.9028,30.4742,黄冈市,职工中心,,37,37,38,18,22,101,,123,115,17,16,8,10,0.5,0.5
2024-09-28T2100,2929A,114.8858,30.4519,黄冈市,红卫路,,33,27,31,18,19,104,,118,113,16,18,8,10,0.6,0.6
2024-09-28T2100,3398A,114.9136,30.4445,黄冈市,市林业局,,49,49,49,23,22,114,,133,127,17,17,8,10,0.4,0.5
2024-09-28T2100,2672A,102.0199,35.5102,黄南藏族自治州,同仁县隆务镇,,40,33,44,28,17,59,,92,82,8,11,9,9,0.5,0.5
2024-09-28T2100,2295A,118.2903,29.6963,黄山市,延安路89号,,42,42,29,6,7,115,,105,105,7,6,6,6,0.3,0.3
2024-09-28T2100,2296A,118.327,29.7178,黄山市,黄山东路89号,,34,34,24,17,8,92,,104,104,7,6,5,4,0.3,0.3
2024-09-28T2100,2297A,118.1371,30.2756,黄山市,黄山区政府5号楼,,49,49,24,27,13,62,,106,97,10,7,7,6,0.4,0.3
2024-09-28T2100,2423A,115.0601,30.2313,黄石市,沈家营,,37,29,30,9,10,118,,118,118,9,12,10,17,0.6,0.7
2024-09-28T2100,2424A,115.0817,30.2006,黄石市,陈家湾,,39,32,29,8,10,123,,120,120,8,7,10,8,0.9,0.8
2024-09-28T2100,2426A,114.8988,30.2019,黄石市,铁山,,42,27,25,15,13,132,,118,118,9,9,10,9,0.5,0.5
2024-09-28T2100,2427A,115.0307,30.2092,黄石市,团城山,,39,31,27,14,9,123,,114,114,10,9,12,8,0.6,0.5
2024-09-28T2100,3149A,115.0235,30.1578,黄石市,笔架山北路,,34,34,28,14,10,98,,97,96,16,10,9,8,0.8,0.7
2024-09-28T2100,1392A,114.4183,23.0528,惠州市,河南岸金山湖子站,,18,14,29,7,17,57,,93,85,8,11,5,5,0.5,0.6
2024-09-28T2100,1393A,114.4053,23.0822,惠州市,下埔横江三路子站,,21,20,26,12,16,67,,103,95,10,13,4,4,0.7,0.7
2024-09-28T2100,1394A,114.4103,23.1142,惠州市,江北云山西路子站,,,,26,,16,66,,97,90,8,12,5,5,0.7,0.7
2024-09-28T2100,1395A,114.4645,22.7833,惠州市,惠阳区承修路船湖子站,,18,10,43,3,26,56,,90,76,13,23,6,7,0.6,0.8
2024-09-28T2100,1396A,114.5317,22.7422,惠州市,大亚湾管委会子站,,20,13,37,7,22,63,,97,82,13,23,7,7,0.4,0.5
2024-09-28T2100,3314A,114.4338,22.8134,惠州市,惠阳秋长,,20,9,35,6,22,61,,98,84,13,21,5,5,0.6,0.7
2024-09-28T2100,3452A,114.6517,22.775,惠州市,大亚湾霞涌,,21,,19,3,14,67,,91,79,6,10,5,4,0.7,0.7
2024-09-28T2100,2240A,130.9762,45.3001,鸡西市,环保局,,38,38,51,13,19,37,,7,,10,18,5,6,0.2,0.3
2024-09-28T2100,2243A,130.9429,45.3039,鸡西市,第一中学,,37,37,46,17,13,35,,70,57,17,20,5,5,0.3,0.2
2024-09-28T2100,3707A,131.0207,45.3073,鸡西市,欧美日汽修厂,,32,32,54,10,20,36,,71,58,13,18,7,7,0.3,0.3
2024-09-28T2100,3709A,130.9967,45.3106,鸡西市,市政设施管理处,颗粒物(PM10),53,55,58,18,17,34,,64,53,15,23,7,8,0.2,0.3
2024-09-28T2100,2367A,114.9754,27.0803,吉安市,红声器材厂,,42,42,55,27,39,75,,115,104,22,20,10,11,0.6,0.6
2024-09-28T2100,2368A,114.9658,27.0999,吉安市,市森林工业局,,42,39,57,29,40,77,,114,103,27,25,12,12,0.6,0.7
2024-09-28T2100,2369A,114.99,27.1312,吉安市,市环境监测站,,43,43,55,25,35,78,,117,107,19,20,18,19,0.6,0.7
2024-09-28T2100,2370A,115.0093,27.0968,吉安市,青原区法院,颗粒物(PM10),53,55,55,36,37,78,,117,102,22,26,13,14,0.7,0.8
2024-09-28T2100,1772A,126.54,43.8622,吉林市,哈达湾,颗粒物(PM10),56,62,31,27,13,29,,96,81,47,21,5,6,0.8,0.6
2024-09-28T2100,1773A,126.5844,43.8358,吉林市,东局子,,47,47,27,19,14,31,,90,68,38,25,4,4,0.8,0.6
2024-09-28T2100,1774A,126.5052,43.8245,吉林市,电力学院,颗粒物(PM10),95,140,44,67,25,5,,91,63,50,22,3,3,1.1,0.7
2024-09-28T2100,1775A,126.6133,43.8972,吉林市,江北,颗粒物(PM10),66,82,42,35,19,13,,86,58,67,28,6,6,0.8,0.7
2024-09-28T2100,1776A,126.555,43.8306,吉林市,江南公园,,31,31,28,19,16,44,,90,79,25,22,6,6,0.7,0.6
2024-09-28T2100,1778A,126.7061,43.7133,吉林市,丰满,,22,22,10,3,9,50,,81,74,4,3,5,5,0.6,0.5
2024-09-28T2100,2868A,126.4739,43.953,吉林市,九站,,,176,56,,23,4,,92,65,63,32,9,7,0.8,0.6
2024-09-28T2100,1299A,116.9862,36.6114,济南市,科干所,颗粒物(PM10),56,61,44,20,20,106,,151,142,32,22,8,8,0.8,0.7
2024-09-28T2100,1300A,116.9376,36.665,济南市,农科所,颗粒物(PM10),62,73,56,37,26,74,,145,129,59,40,6,6,0.9,0.7
2024-09-28T2100,1301A,117.1265,36.6734,济南市,开发区,颗粒物(PM10),56,61,45,29,23,71,,149,127,57,26,5,7,0.8,0.6
2024-09-28T2100,1303A,117.0624,36.6868,济南市,省种子仓库,,,68,61,29,25,,,147,135,61,39,4,5,0.7,0.6
2024-09-28T2100,1304A,116.9489,36.6447,济南市,机床二厂,颗粒物(PM10),58,66,61,22,22,78,,157,137,60,40,5,6,1.2,0.7
2024-09-28T2100,1305A,117.0495,36.663,济南市,市监测站,颗粒物(PM10),52,54,47,29,21,92,,151,133,48,37,5,6,0.9,0.7
2024-09-28T2100,1306A,116.7675,36.5484,济南市,长清党校,,48,46,43,15,18,153,,173,172,22,19,7,7,0.6,0.6
2024-09-28T2100,1616A,117.6795,36.229,济南市,技术学院,颗粒物(PM10),53,56,50,22,24,119,,154,149,22,22,12,10,1.0,1
2024-09-28T2100,1961A,117.532,36.6868,济南市,东山小学,,44,44,47,15,18,106,,167,150,48,30,4,6,0.5,0.8
2024-09-28T2100,3059A,117.7161,36.2049,济南市,泰兴公司,颗粒物(PM10),57,63,54,27,23,96,,154,140,43,37,10,11,0.5,0.7
2024-09-28T2100,3064A,117.6867,36.2171,济南市,莱芜战役纪念馆,颗粒物(PM10),54,58,48,22,19,117,,152,146,25,24,8,7,0.8,0.9
2024-09-28T2100,3494A,117.1673,36.9782,济南市,济阳区政府,颗粒物(PM10),64,78,68,32,26,103,,172,162,45,32,7,10,0.8,0.8
2024-09-28T2100,3495A,117.1171,36.63,济南市,锦屏中学,,34,34,32,15,16,98,,148,134,21,17,5,6,0.6,0.5
2024-09-28T2100,3682A,116.9814,36.6819,济南市,济南四建,颗粒物(PM10),62,73,51,37,24,51,,147,127,79,37,4,5,1.3,0.8
2024-09-28T2100,1653A,116.6251,35.4302,济宁市,火炬城,,,63,43,29,17,110,,161,153,,9,11,11,0.6,0.6
2024-09-28T2100,1655A,116.5491,35.4042,济宁市,电化厂,颗粒物(PM10),52,53,54,14,15,126,,155,152,17,18,12,14,0.3,0.4
2024-09-28T2100,3500A,116.5814,35.3707,济宁市,北湖一中,,50,50,38,27,17,126,,172,169,20,16,6,7,0.5,0.4
2024-09-28T2100,3501A,116.8249,35.5593,济宁市,服务中心,颗粒物(PM10),58,65,47,19,19,122,,154,149,20,22,10,8,0.8,0.8
2024-09-28T2100,3678A,116.5907,35.4054,济宁市,市第七中学,,50,50,44,22,16,108,,166,158,25,18,8,10,0.6,0.6
2024-09-28T2100,2255A,130.2751,46.8028,佳木斯市,佳纺,颗粒物(PM10),72,93,43,36,17,8,,66,47,57,24,6,4,0.8,0.6
2024-09-28T2100,2256A,130.3995,46.8307,佳木斯市,发电厂,颗粒物(PM10),76,101,45,38,20,4,,63,42,59,26,11,7,0.8,0.6
2024-09-28T2100,2257A,130.3258,46.7975,佳木斯市,环保局,,48,48,38,22,17,38,,60,53,44,31,8,8,0.8,0.7
2024-09-28T2100,2258A,130.3648,46.8032,佳木斯市,十一中,颗粒物(PM10),51,52,41,28,22,12,,64,49,72,32,8,8,0.9,0.6
2024-09-28T2100,2259A,130.3794,46.7588,佳木斯市,四丰,,21,20,21,6,9,65,,80,75,11,17,1,1,0.2,0.2
2024-09-28T2100,1252A,120.7436,30.778,嘉兴市,清河小学,,37,37,38,18,18,82,,139,130,24,26,4,5,0.6,0.7
2024-09-28T2100,1253A,120.726,30.7478,嘉兴市,嘉兴学院,,36,36,36,20,22,88,,139,130,19,19,3,3,0.4,0.4
2024-09-28T2100,2872A,120.7846,30.7525,嘉兴市,南湖区残联,,36,36,39,21,22,86,,150,137,22,23,5,5,0.4,0.5
2024-09-28T2100,3407A,120.6916,30.7739,嘉兴市,秀洲住建,,37,37,36,23,22,87,,143,134,20,26,6,6,0.6,0.6
2024-09-28T2100,1945A,98.2908,39.7711,嘉峪关市,气象局,,25,14,73,3,16,78,,71,69,10,25,10,34,0.1,0.8
2024-09-28T2100,2884A,98.2672,39.7978,嘉峪关市,酒钢宾馆,,25,14,80,7,18,80,,86,82,10,21,13,58,0.3,0.8
2024-09-28T2100,3248A,98.2643,39.7724,嘉峪关市,雄关区,,35,35,72,21,27,73,,69,68,11,28,9,30,0.1,0.7
2024-09-28T2100,1383A,113.1064,22.6058,江门市,北街,细颗粒物(PM2.5),55,56,44,39,31,113,,165,160,24,18,4,6,0.9,0.9
2024-09-28T2100,1384A,113.0731,22.5835,江门市,西区,颗粒物(PM10),67,84,49,30,26,110,,152,142,21,26,7,7,0.7,0.6
2024-09-28T2100,1385A,113.0219,22.5311,江门市,圭峰西,颗粒物(PM10),58,65,38,38,29,94,,131,129,18,11,3,4,1.1,0.8
2024-09-28T2100,1386A,113.0828,22.5947,江门市,东湖,,46,46,45,30,24,110,,154,146,19,20,5,6,0.7,0.6
2024-09-28T2100,3311A,113.1075,22.5647,江门市,江海富民,颗粒物(PM10),51,52,53,32,26,135,,169,164,17,16,6,7,0.7,0.7
2024-09-28T2100,3449A,113.05,22.4667,江门市,新会银湖,细颗粒物(PM2.5),52,44,41,36,32,87,,128,121,16,15,7,6,1.1,1
2024-09-28T2100,1828A,113.227,35.2125,焦作市,市环保局,颗粒物(PM10),65,79,100,39,58,106,,137,133,21,19,4,8,0.4,0.6
2024-09-28T2100,3169A,113.2725,35.2067,焦作市,太极体育中心,颗粒物(PM10),86,122,102,36,52,107,,136,131,18,18,5,10,0.4,0.8
2024-09-28T2100,3335A,113.3137,35.2641,焦作市,马村街道办,颗粒物(PM10),59,67,81,33,69,113,,139,134,18,20,3,7,0.4,0.5
2024-09-28T2100,3336A,113.2465,35.2373,焦作市,焦作技师学院,颗粒物(PM10),61,71,90,34,57,110,,139,135,21,20,2,5,0.5,0.6
2024-09-28T2100,3477A,113.1656,35.2539,焦作市,中站许衡医院,"颗粒物(PM10),细颗粒物(PM2.5)",53,55,62,37,47,127,,142,142,16,17,2,2,0.5,0.6
2024-09-28T2100,3981A,113.2449,35.1803,焦作市,原李万街道办,颗粒物(PM10),62,73,94,37,64,103,,139,134,20,17,9,11,0.4,0.8
2024-09-28T2100,1708A,116.3701,23.5345,揭阳市,新兴,,39,39,27,20,17,57,,77,77,24,14,5,6,0.9,0.7
2024-09-28T2100,1709A,116.3264,23.5443,揭阳市,西马,,49,49,33,17,15,36,,80,68,22,13,5,6,0.8,0.6
2024-09-28T2100,1710A,116.3611,23.5626,揭阳市,东兴,,40,40,32,20,16,55,,78,69,24,14,6,6,0.9,0.8
2024-09-28T2100,1711A,116.4151,23.5294,揭阳市,渔湖,颗粒物(PM10),51,52,30,16,14,33,,81,75,71,19,6,6,0.8,0.6
2024-09-28T2100,3320A,116.403,23.5699,揭阳市,曲溪,,31,31,26,19,18,44,,76,71,32,17,6,3,0.8,0.6
2024-09-28T2100,3170A,102.1864,38.5253,金昌市,市委党校,,29,18,105,3,33,92,,96,94,3,12,6,12,0.6,0.7
2024-09-28T2100,4022A,102.1647,38.5371,金昌市,金川区人防中心,颗粒物(PM10),140,229,132,3,34,84,,90,88,2,10,7,10,0.6,0.6
2024-09-28T2100,1262A,119.647,29.077,金华市,十五中,,49,49,36,18,17,119,,155,149,27,26,2,2,0.5,0.5
2024-09-28T2100,1263A,119.686,29.1029,金华市,监测站,,47,47,33,28,20,113,,153,144,31,26,3,3,0.5,0.5
2024-09-28T2100,3659A,119.656,29.1131,金华市,气象局,,48,48,34,24,16,116,,152,142,29,30,6,6,0.9,0.6
2024-09-28T2100,1767A,121.1115,41.0879,锦州市,南山,细颗粒物(PM2.5),74,58,47,54,40,99,,114,112,42,41,18,16,1.0,0.9
2024-09-28T2100,1768A,121.0533,40.8434,锦州市,开发区,颗粒物(PM10),82,114,118,50,62,88,,114,110,74,71,12,16,1.2,1.4
2024-09-28T2100,1769A,121.1836,41.1119,锦州市,百股街道,,39,37,43,19,25,123,,120,120,19,37,14,36,0.9,0.8
2024-09-28T2100,1770A,121.1178,41.1222,锦州市,天安街道,细颗粒物(PM2.5),82,61,54,60,46,77,,118,113,46,44,18,31,1.1,0.9
2024-09-28T2100,1771A,121.1303,41.1386,锦州市,北湖公园,细颗粒物(PM2.5),74,,60,54,44,108,,125,124,34,36,15,17,0.9,0.8
2024-09-28T2100,2160A,112.85,35.5051,晋城市,自来水公司,颗粒物(PM10),60,69,63,41,37,144,,151,151,21,22,6,6,0.8,0.8
2024-09-28T2100,2161A,112.8318,35.4936,晋城市,白云商贸,颗粒物(PM10),72,94,69,41,39,140,,148,148,21,16,6,6,0.8,0.8
2024-09-28T2100,2162A,112.8508,35.4887,晋城市,市环保局,细颗粒物(PM2.5),62,58,63,44,38,140,,148,148,21,17,6,6,0.7,0.7
2024-09-28T2100,2163A,112.8676,35.4897,晋城市,技术学院,颗粒物(PM10),64,77,69,36,36,141,,147,147,23,20,6,7,0.8,0.8
2024-09-28T2100,3620A,112.8271,35.4828,晋城市,泽州一中,颗粒物(PM10),55,59,63,34,39,142,,150,150,18,14,9,9,1.0,0.9
2024-09-28T2100,2171A,112.7532,37.6945,晋中市,锦纶小区,细颗粒物(PM2.5),77,80,79,56,53,74,,121,102,16,16,12,8,0.7,0.7
2024-09-28T2100,2173A,112.7249,37.7067,晋中市,南都小区,颗粒物(PM10),69,88,77,46,54,73,,122,103,18,17,9,6,1.0,0.9
2024-09-28T2100,2174A,112.6991,37.6982,晋中市,榆次区政府,细颗粒物(PM2.5),72,78,76,52,44,76,,122,104,18,16,10,7,0.6,0.6
2024-09-28T2100,2865A,112.7195,37.6828,晋中市,榆次三中,,,80,80,48,47,,,122,106,18,17,12,9,0.8,0.8
2024-09-28T2100,2439A,112.2014,31.0481,荆门市,竹园小学,细颗粒物(PM2.5),63,62,78,45,52,122,,172,165,23,28,13,14,0.7,0.4
2024-09-28T2100,2440A,112.1969,30.9891,荆门市,掇刀,细颗粒物(PM2.5),77,93,86,56,64,106,,172,159,36,27,16,22,0.8,0.8
2024-09-28T2100,2441A,112.2213,31.0386,荆门市,石化一小,细颗粒物(PM2.5),69,83,92,50,60,105,,174,161,35,33,21,20,0.7,0.7
2024-09-28T2100,3012A,112.1849,31.0362,荆门市,西山林语,细颗粒物(PM2.5),62,52,67,44,51,133,,178,172,18,22,14,15,0.7,0.8
2024-09-28T2100,3547A,112.1632,31.0138,荆门市,龙泉中学南校,,,74,70,46,46,,,174,171,24,21,12,17,0.8,0.8
2024-09-28T2100,1844A,112.2494,30.3197,荆州市,市图书馆,细颗粒物(PM2.5),79,80,83,58,63,97,,168,151,41,28,21,15,1.0,1
2024-09-28T2100,1845A,112.2008,30.3544,荆州市,市委党校,细颗粒物(PM2.5),70,78,89,51,68,91,,169,154,42,27,7,11,0.9,0.8
2024-09-28T2100,3194A,112.2747,30.3122,荆州市,管委会,颗粒物(PM10),78,106,96,56,78,88,,167,149,50,29,15,14,1.0,1
2024-09-28T2100,3548A,112.1655,30.3364,荆州市,学苑路,细颗粒物(PM2.5),78,74,86,57,71,121,,179,164,31,29,6,11,0.8,0.9
2024-09-28T2100,2343A,117.2117,29.2933,景德镇市,老干部活动中心,,23,23,14,16,8,69,,79,76,6,10,7,7,0.4,0.3
2024-09-28T2100,2344A,117.1894,29.2789,景德镇市,兽医站,,37,37,18,11,7,78,,85,83,5,6,6,6,0.5,0.5
2024-09-28T2100,2345A,117.1547,29.2617,景德镇市,台达陶瓷,,28,28,13,15,7,72,,76,70,5,9,9,9,0.4,0.4
2024-09-28T2100,2346A,117.2461,29.2956,景德镇市,陶研所,,25,21,14,9,7,78,,86,85,7,9,15,7,0.4,0.3
2024-09-28T2100,1803A,115.9872,29.6815,九江市,十里,,45,45,33,18,18,99,,121,118,22,16,13,11,0.7,0.9
2024-09-28T2100,1804A,115.9584,29.7046,九江市,茅山头,,45,39,31,31,20,106,,116,116,19,18,5,9,0.6,0.8
2024-09-28T2100,1805A,115.9877,29.7295,九江市,西园,,35,35,28,20,19,101,,131,128,25,16,11,11,0.5,0.6
2024-09-28T2100,1806A,116.0172,29.6547,九江市,五七二七厂,,30,27,25,16,21,94,,108,107,18,16,11,11,0.8,0.9
2024-09-28T2100,1808A,115.9114,29.6038,九江市,综合工业园,,50,50,32,24,21,110,,129,126,23,28,22,15,1.1,0.9
2024-09-28T2100,1809A,116.0721,29.7535,九江市,石化总厂,细颗粒物(PM2.5),53,54,38,37,22,91,,118,113,30,20,10,10,0.6,0.7
2024-09-28T2100,1810A,115.9773,29.5698,九江市,庐山气象台,,41,24,11,20,10,131,,127,121,6,3,20,10,0.6,0.7
2024-09-28T2100,3190A,116.0254,29.6994,九江市,外国语学校,,37,37,31,15,18,98,,125,121,20,16,6,9,0.6,0.7
2024-09-28T2100,2658A,98.5061,39.7443,酒泉市,仓门街子站,,38,,79,26,23,60,,83,78,14,13,3,3,0.5,0.3
2024-09-28T2100,2659A,98.4989,39.7256,酒泉市,油田生活基地,,36,29,82,25,26,58,,84,79,20,16,3,2,0.5,0.3
2024-09-28T2100,2698A,76.0072,39.4467,喀什地区,巡警大队,颗粒物(PM10),81,112,80,21,8,104,,119,118,15,8,3,3,0.4,0.4
2024-09-28T2100,2699A,75.9755,39.4694,喀什地区,吾办,颗粒物(PM10),84,117,78,34,16,99,,118,114,26,9,2,2,0.4,0.3
2024-09-28T2100,4027A,75.9483,39.4689,喀什地区,老干局,颗粒物(PM10),82,113,79,19,7,98,,112,110,19,6,4,4,0.5,0.4
2024-09-28T2100,1824A,114.3389,34.7781,开封市,肿瘤医院,颗粒物(PM10),74,98,81,34,37,112,,141,135,25,19,10,7,0.6,0.4
2024-09-28T2100,1826A,114.2885,34.7965,开封市,世纪星幼儿园,颗粒物(PM10),68,85,75,26,27,105,,144,133,29,19,9,7,0.8,0.7
2024-09-28T2100,3147A,114.3438,34.8106,开封市,龙亭公园,颗粒物(PM10),78,105,83,33,30,93,,138,123,33,23,10,6,0.6,0.8
2024-09-28T2100,3210A,114.3644,34.7964,开封市,汴京公园,颗粒物(PM10),61,72,80,30,38,104,,134,124,25,21,6,6,0.5,0.6
2024-09-28T2100,3473A,114.2485,34.8306,开封市,技师学院,颗粒物(PM10),66,82,78,27,28,97,,140,130,30,23,14,9,0.7,0.8
2024-09-28T2100,3592A,114.4644,34.7556,开封市,祥符区生态环境局,颗粒物(PM10),67,84,72,18,29,110,,127,120,28,32,7,7,0.5,0.6
2024-09-28T2100,1951A,84.895,45.6094,克拉玛依市,长征新村,,21,17,13,10,4,66,,72,71,3,2,5,6,0.2,0.2
2024-09-28T2100,1952A,84.8988,45.5893,克拉玛依市,南林小区,,21,15,11,11,8,65,,73,72,1,2,10,10,0.1,0.1
2024-09-28T2100,1954A,84.905,44.3396,克拉玛依市,独山子区,,22,15,11,3,6,69,,75,75,10,7,8,8,0.3,0.2
2024-09-28T2100,1955A,85.6979,46.098,克拉玛依市,乌尔禾区商贸楼,颗粒物(PM10),60,70,21,3,5,68,,72,72,2,5,3,3,0.3,0.2
2024-09-28T2100,3612A,85.1045,45.6899,克拉玛依市,白碱滩区新站,,23,18,27,3,8,72,,76,76,3,4,6,6,0.2,0.2
2024-09-28T2100,2697A,76.1454,39.7142,克孜勒苏柯尔克孜自治州,市人民政府,颗粒物(PM10),172,293,66,84,17,102,,122,120,11,4,3,5,0.5,0.5
2024-09-28T2100,3665A,76.1658,39.7157,克孜勒苏柯尔克孜自治州,克州文化中心,颗粒物(PM10),174,298,75,87,19,110,,126,124,9,3,5,7,0.5,0.4
2024-09-28T2100,1450A,102.8204,24.8886,昆明市,呈贡新区,,21,21,24,14,9,30,,56,52,21,12,8,7,0.6,0.5
2024-09-28T2100,1452A,102.7252,25.0902,昆明市,龙泉镇,,31,31,14,11,7,38,,53,52,14,12,8,7,0.6,0.7
2024-09-28T2100,1453A,102.7266,25.0375,昆明市,东风东路,,19,19,16,9,10,32,,50,49,17,11,6,7,0.3,0.4
2024-09-28T2100,1454A,102.6742,25.0669,昆明市,金鼎山,,20,20,15,8,7,33,,54,51,16,11,4,5,0.4,0.5
2024-09-28T2100,1455A,102.6644,25.0401,昆明市,碧鸡广场,,,22,16,3,8,,,49,48,20,16,8,7,0.5,0.6
2024-09-28T2100,3179A,102.7494,25.0119,昆明市,官渡区博物馆,,19,19,17,9,7,42,,57,56,11,8,7,8,0.5,0.6
2024-09-28T2100,3375A,102.8017,24.8336,昆明市,青年创业园,,15,15,17,10,11,37,,56,53,12,14,9,5,0.7,0.6
2024-09-28T2100,3550A,102.7997,24.9786,昆明市,昆明学院,,20,20,17,11,10,42,,58,56,11,10,5,6,0.4,0.5
2024-09-28T2100,3551A,102.5967,24.6736,昆明市,晋宁区生态环境分局,,35,31,20,24,11,40,,54,52,10,8,1,2,0.6,0.7
2024-09-28T2100,3552A,102.6678,24.9856,昆明市,云天化总部,,15,10,13,7,8,47,,56,55,8,7,6,7,0.3,0.4
2024-09-28T2100,1456A,91.1319,29.6514,拉萨市,八廓街,,16,16,12,11,7,38,,69,65,31,15,8,8,0.2,0.1
2024-09-28T2100,1457A,91.1221,29.6747,拉萨市,市环保局,,27,27,14,10,7,26,,69,61,29,16,8,8,0.5,0.5
2024-09-28T2100,1458A,91.0874,29.6475,拉萨市,区监测站,,15,9,9,3,6,37,,64,60,30,17,6,6,0.2,0.2
2024-09-28T2100,1459A,91.1774,29.6541,拉萨市,西藏大学,,20,20,10,6,6,38,,68,64,26,11,6,8,0.4,0.2
2024-09-28T2100,1460A,90.9798,29.6588,拉萨市,区辐射站,,32,32,10,13,7,36,,62,57,31,13,10,8,0.3,0.2
2024-09-28T2100,1461A,91.0834,29.6292,拉萨市,拉萨火车站,,16,14,9,3,6,50,,64,63,14,12,5,5,0.3,0.4
2024-09-28T2100,2520A,109.2203,23.7256,来宾市,来宾技工学校,细颗粒物(PM2.5),52,48,59,36,36,77,,106,97,12,17,6,9,0.7,0.9
2024-09-28T2100,3535A,109.1781,23.7297,来宾市,兴宾区政府,,,,69,,32,,,109,102,18,14,7,13,0.8,0.7
2024-09-28T2100,4002A,109.2416,23.7461,来宾市,中南小学,细颗粒物(PM2.5),52,50,58,36,37,86,,116,106,8,14,7,10,0.8,0.9
2024-09-28T2100,1476A,103.631,36.1031,兰州市,兰炼宾馆,细颗粒物(PM2.5),54,48,52,38,41,98,,109,108,11,29,6,8,0.5,0.6
2024-09-28T2100,1478A,103.8412,36.0726,兰州市,生物制品所,细颗粒物(PM2.5),58,50,47,41,40,85,,94,91,20,26,9,9,0.6,0.6
2024-09-28T2100,1479A,103.831,36.0464,兰州市,铁路设计院,细颗粒物(PM2.5),53,44,54,37,40,88,,93,91,19,35,6,7,0.6,0.7
2024-09-28T2100,3186A,103.7158,36.1058,兰州市,教育港,细颗粒物(PM2.5),63,59,60,45,43,100,,107,107,9,25,7,7,0.6,0.6
2024-09-28T2100,3241A,103.7439,36.0842,兰州市,百合公园,,50,40,48,35,35,98,,104,104,12,31,4,6,0.5,0.6
2024-09-28T2100,3242A,103.9611,35.998,兰州市,和平,细颗粒物(PM2.5),54,52,48,38,36,93,,100,100,13,15,9,10,0.6,0.7
2024-09-28T2100,3245A,103.6633,36.533,兰州新区,新区管委会,细颗粒物(PM2.5),55,58,56,39,32,100,,106,106,9,13,35,17,0.6,0.6
2024-09-28T2100,3246A,103.6975,36.4789,兰州新区,舟曲中学,细颗粒物(PM2.5),60,64,57,43,38,99,,115,111,12,15,28,21,0.7,0.6
2024-09-28T2100,1067A,116.6708,39.5111,廊坊市,药材公司,细颗粒物(PM2.5),102,129,78,76,42,20,,48,41,66,41,4,5,1.1,0.7
2024-09-28T2100,1068A,116.7214,39.5589,廊坊市,开发区,颗粒物(PM10),76,101,91,48,43,2,,42,32,64,44,2,3,0.9,0.6
2024-09-28T2100,1070A,116.7244,39.5269,廊坊市,北华航天学院,细颗粒物(PM2.5),102,124,86,76,43,12,,45,35,70,45,3,3,0.9,0.6
2024-09-28T2100,2919A,116.7022,39.5453,廊坊市,河北工业大学,颗粒物(PM10),73,96,78,47,41,1,,42,30,69,45,3,4,1.0,0.6
2024-09-28T2100,2535A,103.7723,29.5462,乐山市,花湖湾,细颗粒物(PM2.5),74,75,80,54,53,119,,157,157,18,28,3,3,0.8,1
2024-09-28T2100,2536A,103.7627,29.5844,乐山市,牛耳桥,,,79,78,56,63,,,155,155,21,34,5,6,0.7,0.9
2024-09-28T2100,2537A,103.7508,29.6006,乐山市,市第三水厂,细颗粒物(PM2.5),80,88,81,59,66,114,,158,157,24,33,5,8,0.7,0.8
2024-09-28T2100,2538A,103.7571,29.5664,乐山市,市监测站,细颗粒物(PM2.5),79,81,83,58,63,113,,153,153,18,24,6,7,1.0,1.1
2024-09-28T2100,3361A,103.7311,29.5628,乐山市,理工大学,细颗粒物(PM2.5),84,83,79,62,65,125,,157,157,18,28,4,4,0.8,0.8
2024-09-28T2100,2599A,100.2497,26.8802,丽江市,丽江古城,,15,15,15,7,9,31,,42,40,11,8,9,9,0.5,0.5
2024-09-28T2100,2600A,100.2203,26.8906,丽江市,市中心,,11,,8,6,5,35,,39,38,7,6,5,6,0.5,0.6
2024-09-28T2100,1267A,119.914,28.4514,丽水市,监测站大楼,,39,39,24,16,14,97,,104,104,16,14,4,4,0.6,0.4
2024-09-28T2100,1268A,119.93,28.4586,丽水市,莲都小学,,32,32,28,6,7,98,,108,108,14,13,4,4,0.4,0.3
2024-09-28T2100,1269A,119.879,28.4231,丽水市,余庄前,,37,37,30,17,10,37,,86,76,14,8,2,3,0.4,0.3
2024-09-28T2100,1173A,119.176,34.5885,连云港市,市环境监测站,,37,12,22,3,7,116,,146,131,12,13,5,6,0.2,0.3
2024-09-28T2100,3000A,119.3581,34.6972,连云港市,德源药业,,34,14,20,7,8,107,,133,123,12,15,5,6,0.2,0.2
2024-09-28T2100,3007A,119.178,34.844,连云港市,新城一中,,39,17,21,6,8,122,,133,129,17,20,4,4,0.4,0.4
2024-09-28T2100,3008A,119.3608,34.7519,连云港市,胡沟管理处,,32,24,28,3,7,101,,121,113,22,25,8,9,0.5,0.5
2024-09-28T2100,3009A,119.1478,34.5911,连云港市,矿山设计院,,37,19,22,9,11,116,,145,131,8,13,4,5,0.5,0.6
2024-09-28T2100,3434A,119.2413,34.6539,连云港市,工贸学校,,38,11,17,6,9,119,,138,129,8,12,6,6,0.7,0.7
2024-09-28T2100,3664A,119.4172,34.7341,连云港市,连云街道,,37,12,15,6,8,117,,131,128,9,9,4,4,0.3,0.3
2024-09-28T2100,2571A,102.3431,27.8099,凉山彝族自治州,青龙寺,,18,18,16,7,7,35,,70,60,6,5,5,5,0.5,0.5
2024-09-28T2100,2572A,102.2721,27.8415,凉山彝族自治州,邛海宾馆,,25,25,24,14,16,39,,66,60,22,14,10,9,0.6,0.6
2024-09-28T2100,2573A,102.2625,27.898,凉山彝族自治州,西昌市政府,,29,20,25,20,17,36,,70,63,12,12,10,10,0.7,0.7
2024-09-28T2100,2574A,102.2685,27.8851,凉山彝族自治州,凉山州政府,,37,37,28,23,17,42,,75,69,19,14,11,9,0.6,0.6
2024-09-28T2100,2575A,102.237,27.8914,凉山彝族自治州,长安,,35,35,25,16,15,50,,67,64,13,14,15,14,0.6,0.7
2024-09-28T2100,2212A,123.2,41.1953,辽阳市,宏伟区,颗粒物(PM10),72,94,45,22,23,51,,108,87,46,28,14,11,1.0,0.7
2024-09-28T2100,2213A,123.1683,41.2495,辽阳市,新华园,颗粒物(PM10),85,120,58,47,28,11,,99,77,92,33,15,12,1.6,0.9
2024-09-28T2100,2214A,123.2354,41.2639,辽阳市,滨河路,颗粒物(PM10),56,62,47,25,24,44,,110,82,47,31,13,11,0.9,0.7
2024-09-28T2100,2215A,123.149,41.2991,辽阳市,铁西工业园,细颗粒物(PM2.5),82,102,74,60,35,27,,94,73,43,32,16,13,1.4,1
2024-09-28T2100,2227A,125.1358,42.8845,辽源市,环保局,颗粒物(PM10),56,62,36,35,20,8,,100,70,52,21,8,9,1.0,0.8
2024-09-28T2100,3239A,125.0764,42.9078,辽源市,银鹰制药,颗粒物(PM10),63,76,40,27,20,9,,97,65,61,31,6,7,0.9,0.6
2024-09-28T2100,1625A,115.9848,36.4372,聊城市,区政府,颗粒物(PM10),59,67,73,22,30,86,,154,144,50,31,10,12,0.6,0.6
2024-09-28T2100,2878A,116.0072,36.4343,聊城市,聊大东校,颗粒物(PM10),68,85,73,33,38,64,,161,146,69,34,10,10,1.0,0.7
2024-09-28T2100,3200A,115.9819,36.4978,聊城市,监控中心,颗粒物(PM10),83,116,73,39,34,8,,155,126,136,46,10,10,0.6,0.5
2024-09-28T2100,3513A,116.0445,36.4361,聊城市,九州社区,颗粒物(PM10),81,112,81,47,36,37,,157,133,106,42,5,4,0.5,0.5
2024-09-28T2100,4018A,116.0567,36.4608,聊城市,星美广场,颗粒物(PM10),88,125,88,59,43,46,,153,127,85,37,9,9,0.5,0.5
2024-09-28T2100,2632A,94.3681,29.6376,林芝市,林芝监测站,,,,4,3,4,,,41,41,1,2,10,10,0.2,0.2
2024-09-28T2100,2633A,94.3616,29.6616,林芝市,林芝人民医院,,11,7,7,3,1,34,,41,40,6,5,5,5,0.1,0.1
2024-09-28T2100,2603A,100.0781,23.8982,临沧市,市环保局,,42,,15,29,13,32,,49,43,10,8,4,5,0.5,0.4
2024-09-28T2100,2604A,100.0894,23.8822,临沧市,市气象局,,28,,16,19,13,26,,49,42,10,8,5,5,0.5,0.5
2024-09-28T2100,1733A,111.5531,36.0783,临汾市,临钢医院,,,66,78,,24,140,,144,144,13,14,4,4,0.7,0.7
2024-09-28T2100,1734A,111.5028,36.0714,临汾市,技工学校,颗粒物(PM10),63,76,74,42,39,141,,151,151,19,19,5,5,0.6,0.6
2024-09-28T2100,1736A,111.5018,36.0855,临汾市,市委,颗粒物(PM10),60,70,69,31,33,144,,156,156,19,14,6,6,0.7,0.7
2024-09-28T2100,3018A,111.505,36.1014,临汾市,唐尧大酒店,颗粒物(PM10),54,58,62,33,35,143,,147,147,12,14,4,4,0.7,0.7
2024-09-28T2100,3668A,111.5036,36.0414,临汾市,城南,细颗粒物(PM2.5),68,77,70,49,42,147,,162,161,10,11,5,6,0.7,0.7
2024-09-28T2100,2667A,103.2069,35.5993,临夏回族自治州,环保局,颗粒物(PM10),55,60,52,22,26,78,,93,92,18,26,10,10,0.6,0.6
2024-09-28T2100,2668A,103.2417,35.6057,临夏回族自治州,建设大厦,,,52,75,30,27,,,101,101,18,25,1,9,0.5,0.6
2024-09-28T2100,1618A,118.3429,35.0532,临沂市,沂河小区,,39,39,38,16,16,116,,140,133,14,20,6,8,0.3,0.3
2024-09-28T2100,1619A,118.295,35.0583,临沂市,鲁南制药厂,,40,27,31,14,15,126,,149,141,8,13,5,6,0.4,0.5
2024-09-28T2100,1620A,118.2794,34.9976,临沂市,新光毛纺厂,,36,22,33,14,17,115,,146,136,16,21,6,6,0.5,0.6
2024-09-28T2100,1621A,118.3956,35.0888,临沂市,河东保险公司,,36,36,40,11,18,104,,141,130,34,37,7,8,0.6,0.7
2024-09-28T2100,3370A,118.3564,35.0215,临沂市,十里堡居委,,,,30,,19,118,,146,137,,26,7,9,0.5,0.6
2024-09-28T2100,3496A,118.3604,35.1084,临沂市,南坊新区,,38,34,40,14,17,119,,145,136,21,26,8,8,0.5,0.6
2024-09-28T2100,3860A,118.3920,35.0300,临沂市,皇山花园小区,,36,36,43,18,22,107,,141,130,19,30,7,8,0.4,0.4
2024-09-28T2100,1870A,109.4856,24.3895,柳州市,柳东小学,,46,46,40,32,28,113,,117,116,9,15,8,10,0.8,0.9
2024-09-28T2100,1871A,109.4157,24.3277,柳州市,环保监测站,细颗粒物(PM2.5),58,62,51,41,32,90,,122,109,13,16,8,9,0.9,0.9
2024-09-28T2100,1872A,109.389,24.341,柳州市,河西水厂,颗粒物(PM10),70,89,56,39,35,86,,119,105,12,15,8,9,1.1,1.1
2024-09-28T2100,1873A,109.4311,24.2921,柳州市,市四中,细颗粒物(PM2.5),57,52,52,40,34,99,,132,118,15,19,8,7,0.7,0.8
2024-09-28T2100,1874A,109.4006,24.3631,柳州市,市九中,颗粒物(PM10),56,62,56,33,40,96,,124,111,10,14,6,6,0.9,1
2024-09-28T2100,1875A,109.4958,24.3134,柳州市,古亭山,颗粒物(PM10),54,58,42,35,29,74,,120,107,24,29,8,7,0.9,0.9
2024-09-28T2100,3402A,109.5422,24.3996,柳州市,市二中,颗粒物(PM10),52,54,48,30,29,105,,116,115,18,24,8,10,0.8,0.7
2024-09-28T2100,2307A,116.5079,31.737,六安市,监测大楼,,40,37,37,28,27,128,,150,150,14,10,6,7,0.5,0.6
2024-09-28T2100,2308A,116.4738,31.7643,六安市,皖西学院,,46,46,51,24,27,146,,155,155,11,14,6,8,0.6,0.5
2024-09-28T2100,2309A,116.4996,31.7905,六安市,朝阳厂,,45,37,34,23,24,144,,148,148,13,11,2,3,0.5,0.5
2024-09-28T2100,2310A,116.5567,31.7886,六安市,开发区,,47,44,50,25,24,150,,154,154,12,13,3,4,0.5,0.6
2024-09-28T2100,2577A,104.83,26.5917,六盘水市,黄土坡,,29,29,26,19,25,70,,76,76,10,8,6,6,0.3,0.3
2024-09-28T2100,2578A,104.89,26.5939,六盘水市,水钢,,31,31,31,21,18,78,,80,80,5,6,7,7,0.3,0.3
2024-09-28T2100,2579A,104.8475,26.5894,六盘水市,民中,,30,30,26,17,20,72,,76,76,12,9,7,7,0.4,0.4
2024-09-28T2100,2580A,104.9544,26.5506,六盘水市,双水,,34,34,32,20,22,72,,78,78,7,6,7,6,0.3,0.3
2024-09-28T2100,2336A,117.0217,25.1033,龙岩市,龙岩市监测站,,26,26,18,8,10,21,,66,56,30,14,7,7,0.5,0.5
2024-09-28T2100,2337A,117.0258,25.0661,龙岩市,闽西职业技术学院,,36,36,28,6,10,28,,67,57,23,14,9,10,0.5,0.5
2024-09-28T2100,2338A,117.0196,25.0306,龙岩市,龙岩学院,,16,16,21,8,8,25,,66,56,12,13,1,6,0.4,0.4
2024-09-28T2100,2885A,104.9339,33.3826,陇南市,滨江中学,,34,34,53,12,28,95,,131,100,8,7,7,7,0.7,0.7
2024-09-28T2100,3247A,104.955,33.371,陇南市,市总工会,,32,26,46,6,26,102,,142,105,6,7,3,4,0.5,0.5
2024-09-28T2100,2487A,111.9589,27.8901,娄底市,电视发射台,,45,45,51,29,32,74,,115,103,7,6,5,6,0.8,0.8
2024-09-28T2100,2488A,111.9975,27.725,娄底市,市监测站,细颗粒物(PM2.5),65,49,64,47,43,93,,125,118,15,19,8,7,0.9,0.8
2024-09-28T2100,2489A,112.0194,27.7314,娄底市,市委党校,细颗粒物(PM2.5),65,62,60,47,43,96,,114,110,12,11,6,6,0.8,0.8
2024-09-28T2100,2490A,111.9561,27.7569,娄底市,涟钢,颗粒物(PM10),89,128,67,64,48,60,,96,87,37,22,11,10,1.0,0.6
2024-09-28T2100,2491A,111.9892,27.7044,娄底市,市政府,细颗粒物(PM2.5),82,70,58,60,45,73,,120,111,19,12,4,5,0.5,0.4
2024-09-28T2100,1893A,105.4324,28.9634,泸州市,九狮山,颗粒物(PM10),66,81,76,43,48,63,,100,94,24,25,3,4,0.7,0.5
2024-09-28T2100,1894A,105.4427,28.9063,泸州市,小市上码头,颗粒物(PM10),64,78,75,30,46,72,,107,100,22,28,6,7,0.6,0.7
2024-09-28T2100,1895A,105.4241,28.8573,泸州市,兰田宪桥,,49,47,61,34,49,82,,106,102,11,23,5,5,0.5,0.7
2024-09-28T2100,1896A,105.4379,28.8833,泸州市,市环监站,,50,49,60,35,54,85,,103,100,8,22,5,6,0.5,0.7
2024-09-28T2100,3490A,105.3617,28.7703,泸州市,纳溪区环保局,细颗粒物(PM2.5),73,63,68,53,51,40,,105,90,45,33,6,7,0.8,0.8
2024-09-28T2100,2183A,111.1406,37.5211,吕梁市,环保局,细颗粒物(PM2.5),55,54,76,39,55,90,,118,112,19,26,5,4,0.7,0.7
2024-09-28T2100,2185A,111.1297,37.5136,吕梁市,自来水公司,颗粒物(PM10),51,51,63,34,53,97,,123,116,16,20,4,3,0.6,0.7
2024-09-28T2100,2867A,111.1283,37.51,吕梁市,马茂庄小学,颗粒物(PM10),62,73,70,43,53,85,,125,116,26,16,4,3,0.7,0.6
2024-09-28T2100,1812A,112.3931,34.6516,洛阳市,市委党校,颗粒物(PM10),66,82,88,46,50,124,,146,145,20,21,6,7,0.7,0.7
2024-09-28T2100,1814A,112.4657,34.6871,洛阳市,豫西宾馆,颗粒物(PM10),72,93,94,37,52,112,,141,138,20,19,10,9,0.7,0.7
2024-09-28T2100,1815A,112.494,34.6886,洛阳市,河南林校,颗粒物(PM10),63,76,91,43,56,112,,143,140,24,25,8,7,0.5,0.6
2024-09-28T2100,1816A,112.3844,34.623,洛阳市,开发区管委会,颗粒物(PM10),65,79,81,46,55,131,,152,151,16,19,1,2,0.6,0.5
2024-09-28T2100,1817A,112.4267,34.6258,洛阳市,市委新办公区,细颗粒物(PM2.5),68,78,82,49,59,123,,143,142,15,19,3,3,0.4,0.4
2024-09-28T2100,3340A,112.6005,34.6326,洛阳市,伊滨,颗粒物(PM10),84,118,83,59,60,120,,148,145,18,20,8,8,0.8,0.8
2024-09-28T2100,3341A,112.4951,34.6332,洛阳市,中移产业园,颗粒物(PM10),64,77,84,44,54,129,,154,152,18,23,3,4,0.9,0.8
2024-09-28T2100,3593A,112.5736,34.8993,洛阳市,吉利监测站,颗粒物(PM10),70,89,94,33,55,119,,148,146,13,17,4,5,0.5,0.6
2024-09-28T2100,3635A,112.3677,34.662,洛阳市,河科大西苑校区,颗粒物(PM10),66,81,84,36,34,125,,150,148,22,22,6,5,0.7,0.7
2024-09-28T2100,3636A,112.4388,34.6781,洛阳市,英才小学,颗粒物(PM10),70,90,98,45,52,115,,143,141,21,22,5,4,0.6,0.7
2024-09-28T2100,2399A,114.051,33.5699,漯河市,三五一五工厂,颗粒物(PM10),62,73,74,24,33,97,,150,142,21,17,7,7,0.6,0.6
2024-09-28T2100,2400A,114.0055,33.5698,漯河市,漯河大学,颗粒物(PM10),58,66,64,24,35,107,,153,148,18,15,6,6,0.7,0.7
2024-09-28T2100,2401A,114.0138,33.5828,漯河市,市水利局,颗粒物(PM10),63,75,73,24,33,103,,153,147,17,12,6,6,0.5,0.6
2024-09-28T2100,2402A,114.0261,33.5698,漯河市,市广电局,颗粒物(PM10),61,71,69,23,29,105,,154,148,17,13,8,9,0.7,0.7
2024-09-28T2100,3478A,113.9749,33.5664,漯河市,市图书馆,颗粒物(PM10),59,68,65,22,33,111,,159,153,19,16,13,14,0.7,0.7
2024-09-28T2100,3479A,114.0967,33.5906,漯河市,召陵区卫健委,颗粒物(PM10),65,80,78,24,40,99,,154,144,16,18,8,11,0.6,0.6
2024-09-28T2100,1798A,118.5092,31.6837,马鞍山市,湖东路四小,,49,48,43,34,24,146,,185,182,26,22,9,9,0.8,0.8
2024-09-28T2100,1799A,118.5024,31.6449,马鞍山市,开发区,颗粒物(PM10),58,65,46,32,24,130,,177,173,32,24,8,8,0.9,0.9
2024-09-28T2100,1800A,118.5228,31.7231,马鞍山市,慈湖,颗粒物(PM10),51,51,44,30,27,159,,197,196,20,16,9,10,0.8,0.5
2024-09-28T2100,1802A,118.6245,31.7241,马鞍山市,濮塘,颗粒物(PM10),51,52,42,33,27,156,,192,191,17,15,8,9,0.9,1
2024-09-28T2100,3633A,118.4918,31.6809,马鞍山市,雨山,颗粒物(PM10),56,62,42,30,23,144,,182,180,23,18,10,10,1.0,1.1
2024-09-28T2100,1686A,111.0286,21.4688,茂名市,电白南海,,31,31,38,7,19,83,,96,95,8,8,11,14,0.7,0.6
2024-09-28T2100,1687A,110.9294,21.6533,茂名市,茂石化七小,,41,41,34,27,20,88,,83,83,12,9,8,14,0.7,0.7
2024-09-28T2100,1688A,110.9107,21.6687,茂名市,健康路,,34,34,27,19,16,93,,88,88,9,6,13,22,0.9,0.8
2024-09-28T2100,1689A,110.8592,21.6828,茂名市,高岭,颗粒物(PM10),56,61,37,29,23,81,,82,82,26,13,11,13,0.8,0.7
2024-09-28T2100,3450A,111.01,21.5165,茂名市,电白水东,,32,22,27,22,20,81,,87,87,8,8,7,11,0.7,0.7
2024-09-28T2100,2539A,104.0308,30.0478,眉山市,黑龙滩水库,细颗粒物(PM2.5),77,68,70,56,56,78,,152,144,17,17,1,2,0.6,0.6
2024-09-28T2100,2540A,103.8416,30.0874,眉山市,气象局,细颗粒物(PM2.5),83,78,68,61,60,55,,148,136,35,34,8,8,0.7,0.7
2024-09-28T2100,3137A,103.8578,30.0744,眉山市,市委党校,细颗粒物(PM2.5),79,83,87,58,56,63,,150,140,36,33,8,9,0.8,0.8
2024-09-28T2100,3148A,103.8291,30.0564,眉山市,区人社局,细颗粒物(PM2.5),77,74,70,56,52,71,,149,141,30,32,15,15,0.8,0.8
2024-09-28T2100,1690A,116.1231,24.3284,梅州市,梅江月梅,,,24,29,,23,36,,61,53,8,10,7,7,0.5,0.5
2024-09-28T2100,1691A,116.0797,24.2719,梅州市,梅县新城,,33,33,25,12,11,16,,68,55,30,15,4,5,0.6,0.6
2024-09-28T2100,1692A,116.1248,24.2654,梅州市,环境监控中心,,31,31,32,12,13,13,,63,48,31,18,5,6,0.6,0.6
2024-09-28T2100,3315A,116.1233,24.2991,梅州市,梅龙,,22,22,22,13,13,38,,65,57,14,12,9,10,0.5,0.6
2024-09-28T2100,1878A,104.7778,31.4741,绵阳市,富乐山,细颗粒物(PM2.5),59,46,70,42,56,71,,78,76,13,25,2,3,0.7,0.8
2024-09-28T2100,1879A,104.7563,31.4535,绵阳市,市人大,细颗粒物(PM2.5),54,46,77,38,53,63,,69,68,22,31,9,10,0.6,0.7
2024-09-28T2100,1880A,104.6697,31.4668,绵阳市,高新区自来水公司,,46,46,69,31,47,64,,67,67,24,27,4,5,0.8,0.8
2024-09-28T2100,1881A,104.7287,31.5075,绵阳市,三水厂,细颗粒物(PM2.5),64,52,79,46,60,46,,67,62,30,31,6,8,0.8,0.9
2024-09-28T2100,3491A,104.69,31.5322,绵阳市,西科大附属小学,细颗粒物(PM2.5),54,52,75,38,48,51,,66,65,31,30,5,6,0.7,0.7
2024-09-28T2100,3492A,104.5648,31.5343,绵阳市,安州区旅游局,细颗粒物(PM2.5),55,49,71,39,55,74,,77,77,10,19,3,5,0.7,0.7
2024-09-28T2100,1784A,129.61,44.561,牡丹江市,环保大楼,颗粒物(PM10),51,51,32,25,16,5,,65,54,49,23,8,7,0.6,0.4
2024-09-28T2100,1785A,129.6115,44.5782,牡丹江市,文化广场,细颗粒物(PM2.5),79,72,51,58,28,7,,57,43,48,30,10,9,0.9,0.6
2024-09-28T2100,1786A,129.5904,44.5963,牡丹江市,第一医院,细颗粒物(PM2.5),64,50,45,46,25,24,,62,52,32,22,7,7,0.6,0.4
2024-09-28T2100,1787A,129.6364,44.6075,牡丹江市,机车工厂,,49,49,37,30,22,21,,68,58,16,16,12,19,0.4,0.3
2024-09-28T2100,1788A,129.6386,44.5462,牡丹江市,第一中学,,36,36,26,19,16,16,,66,58,30,19,5,6,0.3,0.3
2024-09-28T2100,2531A,105.0703,29.61,内江市,市监测站,细颗粒物(PM2.5),102,,56,76,62,109,,155,151,16,20,7,7,0.7,0.7
2024-09-28T2100,2532A,105.0717,29.5947,内江市,东兴区政府,细颗粒物(PM2.5),90,82,56,67,57,109,,155,150,21,20,7,7,0.7,0.6
2024-09-28T2100,2533A,105.0653,29.5817,内江市,内江二中,细颗粒物(PM2.5),103,102,66,77,68,109,,156,151,17,19,10,11,0.8,0.7
2024-09-28T2100,2534A,105.0406,29.5822,内江市,内江日报社,细颗粒物(PM2.5),109,94,69,82,68,109,,161,156,26,24,9,11,0.9,0.8
2024-09-28T2100,2628A,92.0657,31.4846,那曲市,那曲监测站,,,8,17,6,9,,,56,56,9,7,6,5,0.6,0.5
2024-09-28T2100,3128A,92.0506,31.4797,那曲市,那曲会议中心,,23,8,16,6,6,73,,66,66,4,6,3,3,0.4,0.4
2024-09-28T2100,1290A,115.8931,28.6843,南昌市,省外办,颗粒物(PM10),54,58,39,22,16,72,,101,98,19,14,7,9,0.8,0.8
2024-09-28T2100,1291A,115.8886,28.7003,南昌市,省林业公司,颗粒物(PM10),58,66,23,27,11,44,,101,93,38,13,9,7,0.6,0.5
2024-09-28T2100,1292A,115.8126,28.7442,南昌市,林科所,,24,24,18,12,7,59,,104,95,31,22,3,4,0.5,0.6
2024-09-28T2100,1294A,115.8518,28.687,南昌市,建工学校,,41,41,22,18,14,73,,102,100,25,14,10,10,0.6,0.7
2024-09-28T2100,1295A,115.8921,28.6424,南昌市,象湖,,30,26,19,13,11,94,,112,110,12,11,7,9,1.0,0.9
2024-09-28T2100,1296A,115.7423,28.7996,南昌市,武术学校,,12,12,19,8,17,34,,94,78,11,8,3,3,0.5,0.5
2024-09-28T2100,1298A,115.9314,28.6842,南昌市,省站,,38,38,24,19,13,69,,94,91,20,17,9,10,0.7,0.7
2024-09-28T2100,3046A,115.9084,28.6062,南昌市,机电学校,,48,48,33,12,13,74,,107,102,21,15,9,12,0.5,0.6
2024-09-28T2100,3690A,115.9721,28.7031,南昌市,外国语学校,,27,25,22,13,11,85,,99,98,13,10,6,7,0.6,0.6
2024-09-28T2100,1905A,106.056,30.8064,南充市,西山风景区,细颗粒物(PM2.5),75,57,53,55,48,97,,122,119,9,13,6,5,0.8,0.8
2024-09-28T2100,1906A,106.0789,30.8023,南充市,南充市委,细颗粒物(PM2.5),85,77,76,63,56,90,,116,111,18,27,6,5,0.7,0.7
2024-09-28T2100,1907A,106.1031,30.8217,南充市,南充炼油厂,细颗粒物(PM2.5),88,83,81,65,58,93,,125,119,16,18,6,5,0.5,0.5
2024-09-28T2100,1908A,106.1064,30.7856,南充市,高坪区监测站,细颗粒物(PM2.5),70,83,73,51,48,85,,121,115,24,25,8,8,0.6,0.6
2024-09-28T2100,1909A,106.0642,30.7636,南充市,嘉陵区环保局,细颗粒物(PM2.5),73,70,71,53,47,83,,113,108,21,29,6,5,0.6,0.7
2024-09-28T2100,1910A,106.1087,30.8388,南充市,市环境监测站,细颗粒物(PM2.5),84,84,80,62,53,94,,123,118,16,20,8,7,0.5,0.5
2024-09-28T2100,1151A,118.8086,32.1065,南京市,迈皋桥,,37,37,29,22,15,83,,161,146,16,12,4,4,0.4,0.3
2024-09-28T2100,1152A,118.7538,32.0551,南京市,草场门,,36,36,29,22,14,97,,147,138,18,15,5,5,0.2,0.2
2024-09-28T2100,1153A,118.7794,32.0745,南京市,山西路,,41,41,32,22,17,109,,154,146,18,10,4,4,0.4,0.4
2024-09-28T2100,1154A,118.7752,32.0023,南京市,中华门,,34,34,29,17,15,97,,146,136,14,14,5,5,0.4,0.4
2024-09-28T2100,1155A,118.8109,32.0309,南京市,瑞金路,,41,41,33,19,17,89,,148,134,18,14,5,5,0.3,0.3
2024-09-28T2100,1156A,118.7997,32.0754,南京市,玄武湖,,46,46,33,19,12,85,,141,128,33,18,6,6,0.5,0.2
2024-09-28T2100,1157A,118.6414,32.0931,南京市,浦口,,48,48,34,21,17,79,,145,132,24,19,6,6,0.4,0.5
2024-09-28T2100,1158A,118.7356,31.9996,南京市,奥体中心,,42,40,33,29,20,104,,158,148,15,14,6,6,0.4,0.4
2024-09-28T2100,1159A,118.9125,32.1028,南京市,仙林大学城,,41,41,32,19,14,101,,161,146,17,14,6,6,0.5,0.5
2024-09-28T2100,3422A,118.8436,31.9198,南京市,江宁彩虹桥,,48,48,40,27,23,83,,169,154,23,14,3,4,0.6,0.6
2024-09-28T2100,3423A,119.0138,31.6494,南京市,溧水永阳,,46,46,41,25,21,117,,178,172,26,21,4,4,0.7,0.8
2024-09-28T2100,3424A,118.879,31.3302,南京市,高淳老职中,臭氧1小时,67,,27,30,21,173,,170,170,14,16,4,6,0.6,0.6
2024-09-28T2100,3427A,118.8554,32.3578,南京市,六合雄州,,38,38,34,10,17,84,,138,121,11,14,6,7,0.3,0.4
2024-09-28T2100,1401A,108.3103,22.7881,南宁市,二十一中,,,98,50,9,27,,,100,,19,12,9,6,0.7,0.9
2024-09-28T2100,1402A,108.3141,22.8528,南宁市,北湖,,31,31,44,14,32,61,,100,92,13,14,6,5,0.8,0.9
2024-09-28T2100,1403A,108.3206,22.8225,南宁市,市监测站,,27,27,43,17,31,56,,100,91,14,12,9,7,0.7,0.7
2024-09-28T2100,1404A,108.3829,22.8037,南宁市,大自然花园,,28,28,39,15,28,56,,95,89,12,11,8,6,0.5,0.6
2024-09-28T2100,1405A,108.4394,22.7904,南宁市,仙葫,,27,27,41,13,26,54,,94,88,12,10,10,8,1.0,1
2024-09-28T2100,1406A,108.2397,22.8467,南宁市,区农职院,,39,39,52,17,33,55,,98,89,13,14,7,7,1.0,1.1
2024-09-28T2100,1407A,108.3275,22.735,南宁市,英华嘉园,,28,28,41,8,26,44,,89,79,21,16,8,6,0.8,0.7
2024-09-28T2100,1408A,108.2257,22.7757,南宁市,沙井镇街道办,,43,43,56,13,28,45,,91,80,22,22,4,3,0.7,0.8
2024-09-28T2100,3401A,108.4834,22.7618,南宁市,红星社区,,30,30,40,12,27,55,,96,91,12,12,12,9,0.8,0.8
2024-09-28T2100,2332A,118.1681,26.6369,南平市,南平市监测站,,15,13,13,3,6,48,,76,69,10,8,5,5,0.4,0.4
2024-09-28T2100,2333A,118.1825,26.6489,南平市,南平铝业有限公司,,18,18,17,9,4,41,,74,66,15,9,7,4,0.4,0.4
2024-09-28T2100,2334A,118.1756,26.6272,南平市,南平七中,,16,13,16,3,6,50,,74,69,7,8,3,14,0.5,0.6
2024-09-28T2100,1168A,120.9098,31.9663,南通市,狼山街道,,40,40,24,23,14,105,,137,130,15,11,7,7,0.6,0.5
2024-09-28T2100,1169A,120.86,32.0005,南通市,虹桥,,39,39,27,25,15,109,,132,127,12,14,7,7,0.7,0.6
2024-09-28T2100,1170A,120.87,32.02,南通市,城中,颗粒物(PM10),51,52,36,27,16,103,,130,125,18,17,5,6,0.6,0.6
2024-09-28T2100,1171A,120.94,31.93,南通市,星湖花园,,36,36,22,25,13,104,,141,132,20,16,6,6,0.5,0.5
2024-09-28T2100,1172A,120.81,32.0417,南通市,紫琅学院,,,,25,,14,96,,132,123,,18,7,7,0.3,0.3
2024-09-28T2100,3291A,121.067,32.062,南通市,通州监测站,,44,44,24,29,11,111,,136,131,10,8,2,3,0.7,0.6
2024-09-28T2100,3432A,120.9348,31.9883,南通市,环境教育馆,"颗粒物(PM10),细颗粒物(PM2.5)",53,56,32,37,16,91,,138,126,24,19,4,4,0.6,0.5
2024-09-28T2100,2404A,112.5224,33.0122,南阳市,瓦房庄,颗粒物(PM10),66,81,65,27,32,124,,138,132,18,16,3,3,0.6,0.6
2024-09-28T2100,2405A,112.5003,32.9735,南阳市,汉画馆,颗粒物(PM10),66,81,62,37,35,121,,137,131,16,15,6,6,0.7,0.7
2024-09-28T2100,2406A,112.5573,33.027,南阳市,气象站,颗粒物(PM10),72,94,68,31,33,122,,145,138,22,17,6,7,0.6,0.5
2024-09-28T2100,2407A,112.5481,32.9689,南阳市,理工学院,颗粒物(PM10),66,82,58,27,29,118,,139,133,16,15,6,6,0.7,0.7
2024-09-28T2100,4008A,112.5234,32.9922,南阳市,卧龙区政府,颗粒物(PM10),71,92,62,33,31,121,,140,134,16,14,4,4,0.8,0.7
2024-09-28T2100,1234A,121.8358,29.911,宁波市,区环保大楼,,32,32,37,16,21,67,,135,111,51,41,8,7,0.5,0.6
2024-09-28T2100,1235A,121.56,29.82,宁波市,万里学院,,42,38,31,29,25,92,,146,134,26,34,6,6,0.7,0.7
2024-09-28T2100,1236A,121.713,29.9572,宁波市,龙赛医院,,37,37,31,16,15,93,,142,124,31,24,8,9,0.6,0.6
2024-09-28T2100,1239A,121.633,29.7733,宁波市,钱湖水厂,,36,36,37,16,21,62,,144,120,18,35,8,8,0.7,0.7
2024-09-28T2100,1240A,121.5856,29.8635,宁波市,太古小学,,43,43,39,21,21,84,,142,127,32,33,7,8,0.8,0.9
2024-09-28T2100,1241A,121.524,29.8674,宁波市,市环境监测中心,,36,36,33,16,18,93,,147,133,28,27,4,4,0.7,0.7
2024-09-28T2100,2871A,121.6147,29.9017,宁波市,万里国际学校,,31,31,29,20,21,87,,146,130,37,39,8,8,0.6,0.7
2024-09-28T2100,3710A,121.5594,29.8975,宁波市,白沙活动中心,,50,50,46,20,18,78,,144,125,40,35,8,8,0.5,0.5
2024-09-28T2100,2341A,119.5388,26.6612,宁德市,宁德市监测站,,36,32,27,19,11,113,,103,103,13,13,6,7,0.5,0.5
2024-09-28T2100,3209A,119.5231,26.6562,宁德市,宁德一中,,37,37,27,21,7,116,,100,100,7,8,5,5,0.4,0.4
2024-09-28T2100,2618A,98.8601,25.8567,怒江傈僳族自治州,州监测站,,29,29,25,14,14,39,,59,55,10,12,5,8,0.5,0.5
2024-09-28T2100,2619A,98.8546,25.8417,怒江傈僳族自治州,泸水一中,,20,20,22,7,13,29,,51,47,13,13,6,6,0.4,0.5
2024-09-28T2100,1888A,101.6891,26.571,攀枝花市,弄弄坪,,43,43,58,13,24,39,,80,71,24,28,9,12,0.5,0.6
2024-09-28T2100,1889A,101.5769,26.5928,攀枝花市,河门口,,41,41,31,24,19,52,,86,78,23,20,12,15,0.9,1.1
2024-09-28T2100,1890A,101.7169,26.585,攀枝花市,炳草岗,,49,49,50,19,21,19,,83,75,51,29,13,11,0.6,0.7
2024-09-28T2100,1891A,101.7369,26.5008,攀枝花市,仁和,,28,28,20,17,12,32,,70,62,16,12,5,5,0.5,0.5
2024-09-28T2100,2835A,101.7227,26.567,攀枝花市,四十中小,,36,36,50,19,26,46,,79,73,28,22,14,13,0.7,0.9
2024-09-28T2100,1604A,122.0303,41.1489,盘锦市,开发区,细颗粒物(PM2.5),55,54,55,39,41,108,,132,119,32,36,11,13,0.4,0.6
2024-09-28T2100,1605A,122.0485,41.0883,盘锦市,兴隆台,,48,42,52,33,40,118,,127,122,35,52,7,11,0.7,1.1
2024-09-28T2100,1606A,121.8297,41.1028,盘锦市,新生街道,,36,34,38,25,29,70,,139,119,35,39,9,13,0.7,0.8
2024-09-28T2100,1832A,113.3257,33.742,平顶山市,新华旅馆,颗粒物(PM10),89,127,91,37,43,116,,148,147,21,21,12,7,0.5,0.5
2024-09-28T2100,1833A,113.2919,33.737,平顶山市,规划设计院,颗粒物(PM10),73,95,68,31,35,118,,146,144,24,22,12,8,0.7,0.7
2024-09-28T2100,1834A,113.182,33.774,平顶山市,平顶山工学院,颗粒物(PM10),64,78,78,24,37,128,,153,152,22,20,8,8,0.5,0.6
2024-09-28T2100,3204A,113.3025,33.73,平顶山市,规划局,颗粒物(PM10),87,124,88,41,39,114,,151,150,24,19,11,7,0.7,0.7
2024-09-28T2100,3594A,112.8867,33.9116,平顶山市,石龙区,,,,83,,39,,,159,159,19,21,12,11,0.6,0.6
2024-09-28T2100,2656A,106.6692,35.5461,平凉市,聚贤嘉苑,细颗粒物(PM2.5),95,110,104,71,60,159,,142,137,25,23,11,10,0.6,0.6
2024-09-28T2100,2657A,106.7021,35.5307,平凉市,博物馆,细颗粒物(PM2.5),90,114,110,67,64,163,,153,139,29,23,9,9,0.8,0.7
2024-09-28T2100,2347A,114.0997,27.5002,萍乡市,武功山,,36,36,28,3,7,42,,85,70,5,5,9,9,0.5,0.4
2024-09-28T2100,2348A,113.8385,27.6434,萍乡市,中医院,,41,41,52,23,33,98,,114,110,14,13,14,21,0.9,0.9
2024-09-28T2100,2349A,113.8493,27.6253,萍乡市,市政府车库,,49,49,52,13,37,82,,114,108,20,16,19,15,2.5,1.4
2024-09-28T2100,2350A,113.8676,27.6435,萍乡市,市环保局,,32,32,49,20,35,93,,105,103,8,15,8,13,0.7,0.8
2024-09-28T2100,2351A,113.866,27.6198,萍乡市,安源区政府,颗粒物(PM10),57,64,50,19,30,82,,114,105,29,24,10,10,0.6,0.7
2024-09-28T2100,2319A,119.0141,25.4325,莆田市,荔城区仓后路,,35,31,19,18,7,112,,93,93,11,9,8,8,0.7,0.7
2024-09-28T2100,2320A,119.0015,25.4553,莆田市,莆田市监测站,,39,17,15,14,6,123,,94,94,6,6,7,7,0.4,0.4
2024-09-28T2100,2321A,119.1119,25.4561,莆田市,涵江区六中,,,30,19,18,7,,,104,104,7,7,8,8,0.5,0.5
2024-09-28T2100,2322A,119.1013,25.3215,莆田市,秀屿区政府,,38,22,22,22,10,121,,108,108,5,6,7,7,0.6,0.6
2024-09-28T2100,2392A,115.0312,35.7636,濮阳市,环保局,颗粒物(PM10),59,68,51,24,31,127,,140,140,26,21,16,10,0.6,0.6
2024-09-28T2100,2394A,115.0574,35.7609,濮阳市,油田运输公司,颗粒物(PM10),63,75,59,32,34,110,,134,134,30,20,16,7,0.6,0.5
2024-09-28T2100,2395A,115.0866,35.7754,濮阳市,油田物探公司,颗粒物(PM10),63,75,65,28,34,123,,139,139,27,18,12,7,0.5,0.6
2024-09-28T2100,3021A,115,35.7668,濮阳市,濮水河管理处,颗粒物(PM10),60,70,51,27,31,117,,128,128,21,16,9,7,0.4,0.5
2024-09-28T2100,2601A,100.98,22.7633,普洱市,市环保局,,23,23,21,3,11,34,,46,43,6,7,3,3,0.4,0.4
2024-09-28T2100,2602A,100.9817,22.8322,普洱市,普洱第二中学,,,,24,,14,,,49,47,,8,,10,,0.5
2024-09-28T2100,2262A,131.0518,45.8751,七台河市,新一中,,17,15,14,3,7,53,,98,85,8,8,10,10,1.2,1.1
2024-09-28T2100,3345A,131.0577,45.7879,七台河市,中波台,,19,19,18,3,6,43,,70,62,15,16,6,7,0.5,0.5
2024-09-28T2100,3637A,131.0176,45.7761,七台河市,人民广场,,23,23,31,9,14,44,,76,66,17,17,10,10,0.4,0.4
2024-09-28T2100,3684A,130.8781,45.8222,七台河市,新建矿广场,,39,39,51,22,18,19,,69,46,40,31,7,7,0.6,0.5
2024-09-28T2100,1779A,123.9305,47.3636,齐齐哈尔市,安居小区,,35,28,26,14,12,111,,104,104,16,15,10,10,0.4,0.4
2024-09-28T2100,1780A,123.9488,47.3386,齐齐哈尔市,中心广场,,34,33,33,6,8,106,,103,103,14,14,2,2,0.3,0.3
2024-09-28T2100,1781A,123.9483,47.3227,齐齐哈尔市,农牧车辆厂,,36,31,31,6,9,113,,113,113,6,7,8,8,0.3,0.3
2024-09-28T2100,1783A,123.945,47.2988,齐齐哈尔市,市环境监测站,,35,23,21,12,12,110,,114,114,8,8,8,8,0.3,0.3
2024-09-28T2100,3662A,123.6333,47.2075,齐齐哈尔市,富区青少年活动中心,,30,25,28,13,6,96,,102,100,9,11,5,5,0.4,0.4
2024-09-28T2100,2591A,107.9783,26.5747,黔东南苗族侗族自治州,市环境监测站,,42,36,38,29,31,61,,77,71,17,19,3,4,0.5,0.6
2024-09-28T2100,2881A,107.8908,26.5311,黔东南苗族侗族自治州,凯里学院,,36,,29,25,26,71,,79,76,5,9,2,2,0.8,0.8
2024-09-28T2100,2593A,107.5228,26.2403,黔南布依族苗族自治州,小围寨,,39,34,30,27,24,76,,76,76,4,4,4,4,0.6,0.6
2024-09-28T2100,3538A,107.5175,26.2978,黔南布依族苗族自治州,沙坝,,45,36,37,31,25,69,,70,70,6,8,4,4,0.4,0.4
2024-09-28T2100,2589A,104.9022,25.0925,黔西南布依族苗族自治州,场坝街,细颗粒物(PM2.5),57,57,35,40,24,48,,57,55,10,9,3,6,0.4,0.4
2024-09-28T2100,2590A,104.8811,25.0992,黔西南布依族苗族自治州,坪东大道,,49,49,36,34,25,45,,54,53,6,6,8,8,0.3,0.3
2024-09-28T2100,2502A,108.6236,21.9667,钦州市,市环保站,,29,29,29,7,12,32,,68,57,20,17,9,10,0.6,0.7
2024-09-28T2100,2503A,108.6549,21.9481,钦州市,沙埠小学,,23,23,36,11,17,27,,68,55,23,21,7,7,0.8,0.9
2024-09-28T2100,2504A,108.5989,21.7431,钦州市,港区一小,,38,38,33,9,11,44,,50,49,13,16,4,5,0.6,0.6
2024-09-28T2100,3404A,108.5959,21.9633,钦州市,北职校,,26,26,30,7,15,37,,70,63,16,15,5,8,0.5,0.7
2024-09-28T2100,1042A,119.5134,39.8207,秦皇岛市,北戴河环保局,,31,31,41,13,15,98,,132,129,15,27,2,2,0.4,0.5
2024-09-28T2100,1043A,119.7493,40.0116,秦皇岛市,第一关,细颗粒物(PM2.5),52,49,44,36,24,35,,147,127,96,56,2,3,0.4,0.4
2024-09-28T2100,1044A,119.5897,39.9499,秦皇岛市,监测站,颗粒物(PM10),52,54,43,32,29,77,,134,128,41,42,3,3,0.5,0.5
2024-09-28T2100,1046A,119.5251,39.9041,秦皇岛市,建设大厦,颗粒物(PM10),61,71,52,25,20,14,,142,127,99,36,2,4,0.6,0.4
2024-09-28T2100,3132A,119.610547,39.943889,秦皇岛市,文明里,颗粒物(PM10),54,57,55,28,21,99,,144,139,32,42,2,2,0.5,0.6
2024-09-28T2100,1307A,120.6659,36.2403,青岛市,仰口,,35,12,15,11,14,109,,115,114,2,5,6,7,0.7,0.7
2024-09-28T2100,1310A,120.4134,36.0658,青岛市,市南区东部子站,,,19,19,9,9,,,134,134,8,11,6,7,0.5,0.5
2024-09-28T2100,1311A,120.3664,36.1032,青岛市,四方区子站,,40,14,29,7,14,128,,90,,12,31,6,10,0.5,0.6
2024-09-28T2100,1312A,120.2994,36.054,青岛市,市南区西部子站,,41,17,21,3,6,131,,131,131,3,10,8,9,0.6,0.6
2024-09-28T2100,1313A,120.4581,36.0858,青岛市,崂山区子站,,42,9,12,7,6,132,,139,139,8,14,8,8,0.5,0.5
2024-09-28T2100,1314A,120.1983,35.9608,青岛市,黄岛区子站,,40,14,18,3,11,128,,137,134,6,11,8,9,0.4,0.4
2024-09-28T2100,1315A,120.3999,36.3083,青岛市,城阳区子站,,44,44,44,17,18,40,,141,112,70,43,8,8,0.8,0.7
2024-09-28T2100,1966A,120.0405,35.8735,青岛市,黄岛区4号,,39,7,26,3,12,124,,139,134,5,24,6,7,0.5,0.6
2024-09-28T2100,3362A,120.5014,36.4034,青岛市,即墨2号,,37,15,23,8,12,117,,128,125,9,12,6,6,0.4,0.4
2024-09-28T2100,3642A,120.3503,36.0736,青岛市,市北区南部,,40,13,28,7,10,125,,134,133,13,20,7,7,0.4,0.4
2024-09-28T2100,3643A,120.3948,36.1805,青岛市,李沧区北部,,38,24,37,7,17,119,,134,125,19,33,8,9,0.6,0.7
2024-09-28T2100,1702A,113.0426,23.691,清远市,环保大楼,颗粒物(PM10),56,61,45,27,19,36,,100,87,32,17,6,7,1.1,1
2024-09-28T2100,1703A,113.0208,23.7106,清远市,凤城街办,,27,27,32,14,20,57,,102,92,12,14,7,7,0.9,0.9
2024-09-28T2100,3025A,113.0477,23.6344,清远市,技师学院,颗粒物(PM10),54,57,32,30,18,39,,107,96,38,18,6,7,1.0,0.9
2024-09-28T2100,3318A,112.9903,23.7403,清远市,清新太和,,25,25,28,14,18,70,,97,91,10,9,1,2,0.8,0.8
2024-09-28T2100,3455A,113.076,23.7198,清远市,清城东城,,,28,30,25,19,,,98,94,10,6,3,3,0.9,0.9
2024-09-28T2100,2661A,107.6325,35.7357,庆阳市,庆阳五中,颗粒物(PM10),71,92,76,50,41,148,,151,151,10,9,6,8,0.7,0.6
2024-09-28T2100,2662A,107.6364,35.7067,庆阳市,市环保局,颗粒物(PM10),66,81,67,44,36,150,,150,150,10,9,7,7,0.5,0.5
2024-09-28T2100,1916A,103.7897,25.5035,曲靖市,环境监测站,,32,32,19,20,9,47,,66,65,13,10,3,3,0.7,0.7
2024-09-28T2100,1917A,103.8,25.5364,曲靖市,烟厂办公区,,,24,18,,9,,,70,70,11,10,4,4,0.4,0.4
2024-09-28T2100,3376A,103.7947,25.462,曲靖市,南苑二区,,17,15,14,8,8,54,,68,67,10,8,6,7,0.3,0.4
2024-09-28T2100,3377A,103.7444,25.5261,曲靖市,曲靖师范学院,,28,28,17,12,11,59,,73,73,11,10,6,8,0.5,0.6
2024-09-28T2100,1264A,118.8692,28.9398,衢州市,环保大楼,颗粒物(PM10),53,55,35,32,21,110,,143,142,24,24,4,3,0.6,0.5
2024-09-28T2100,1265A,118.8709,28.9666,衢州市,实验学校,,49,49,32,33,21,114,,142,141,19,20,8,7,0.7,0.6
2024-09-28T2100,1266A,118.8621,28.9808,衢州市,衢州学院,,48,48,33,27,18,111,,135,134,21,20,8,7,0.6,0.5
2024-09-28T2100,1611A,118.5819,24.9117,泉州市,涂山街,,30,29,18,20,10,96,,97,97,10,8,2,2,0.6,0.5
2024-09-28T2100,1612A,118.5972,24.8978,泉州市,津头埔,,32,32,21,20,10,98,,94,94,11,9,4,4,0.7,0.6
2024-09-28T2100,1613A,118.6663,24.9424,泉州市,万安,,35,30,20,18,10,110,,102,102,8,7,3,2,0.6,0.5
2024-09-28T2100,3529A,118.6333,24.9264,泉州市,城华南路,,36,33,18,25,10,102,,97,97,10,6,4,3,0.3,0.3
2024-09-28T2100,2626A,88.8876,29.2718,日喀则市,日喀则监测站,,17,13,10,3,5,53,,71,68,16,9,6,6,0.5,0.4
2024-09-28T2100,3726A,88.8781,29.2426,日喀则市,林业技术推广中心,,16,16,8,3,1,42,,70,66,15,8,6,6,0.6,0.5
2024-09-28T2100,1659A,119.471,35.4209,日照市,监测站,,38,9,23,6,16,119,,141,134,14,44,11,11,0.4,0.6
2024-09-28T2100,1660A,119.523,35.4216,日照市,市政府广场,,44,12,22,6,12,138,,148,145,7,19,9,10,0.4,0.5
2024-09-28T2100,1661A,119.5587,35.4044,日照市,港务局,,44,12,18,9,14,139,,150,146,3,8,7,8,0.3,0.3
2024-09-28T2100,3507A,119.5328,35.4625,日照市,职业技术学院,,40,14,23,7,14,126,,145,138,8,15,8,9,0.5,0.5
2024-09-28T2100,3604A,119.3266,35.1044,日照市,岚山环保分局,,36,17,20,9,11,113,,145,136,18,14,10,9,0.5,0.5
2024-09-28T2100,1835A,111.1922,34.7752,三门峡市,市政府,颗粒物(PM10),61,72,64,33,32,144,,154,154,17,15,11,11,0.9,0.8
2024-09-28T2100,1836A,111.1587,34.7942,三门峡市,开发区,颗粒物(PM10),68,85,78,40,35,142,,152,152,16,15,9,10,0.6,0.6
2024-09-28T2100,3039A,111.1911,34.7829,三门峡市,三门峡市第一小学,,,62,65,36,32,,,159,159,15,14,11,11,0.7,0.7
2024-09-28T2100,3598A,111.1,34.7167,三门峡市,富达温泉假日酒店,颗粒物(PM10),70,90,77,46,37,146,,159,158,21,19,15,11,0.9,0.8
2024-09-28T2100,2324A,117.6211,26.2625,三明市,三钢,,11,10,15,6,11,33,,80,64,18,10,5,6,0.5,0.5
2024-09-28T2100,2325A,117.635,26.2714,三明市,三明二中,,14,14,24,3,10,30,,78,63,18,9,3,3,0.5,0.4
2024-09-28T2100,2326A,117.6028,26.2378,三明市,三元区政府,,28,28,19,3,6,9,,76,59,38,14,3,4,0.5,0.5
2024-09-28T2100,1876A,109.5078,18.2489,三亚市,河东子站,,10,,13,7,6,22,,40,36,5,6,3,4,0.2,0.1
2024-09-28T2100,1877A,109.4964,18.2681,三亚市,河西子站,,15,13,13,10,7,20,,40,33,8,9,3,3,0.2,0.3
2024-09-28T2100,3540A,109.7348,18.3443,三亚市,君悦子站,,10,9,16,3,6,31,,43,41,6,8,3,3,0.3,0.4
2024-09-28T2100,2624A,91.7608,29.2313,山南市,山南监测站,,13,11,12,3,6,39,,60,58,18,11,9,9,0.4,0.4
2024-09-28T2100,2625A,91.7706,29.2436,山南市,山南人民医院,,15,11,11,7,5,47,,61,59,17,13,9,9,0.4,0.4
2024-09-28T2100,1674A,116.6794,23.3667,汕头市,金平子站,,38,26,12,20,9,120,,116,116,7,6,5,5,0.9,0.8
2024-09-28T2100,1675A,116.7244,23.3633,汕头市,龙湖子站,,36,24,16,8,7,113,,116,116,4,3,7,7,0.6,0.6
