timepoint,stationcode,longitude,latitude,area,positionname,primarypollutant,aqi,pm10,pm10_24h,pm2_5,pm2_5_24h,o3,o3_24h,o3_8h,o3_8h_24h,no2,no2_24h,so2,so2_24h,co,co_24h
2024-08-14T0700,2566A,102.1879,31.914,阿坝藏族羌族自治州,州农科所,,18,18,19,6,8,26,,,,12,15,9,8,0,0
2024-08-14T0700,2568A,102.2502,31.8896,阿坝藏族羌族自治州,马师校,,13,13,15,9,8,18,,,,17,12,3,3,0.3,0.3
2024-08-14T0700,3994A,102.2165,31.9024,阿坝藏族羌族自治州,马尔康中学西区,,20,,14,14,13,33,,,,10,10,4,4,0.3,0.3
2024-08-14T0700,2695A,80.292,41.1694,阿克苏地区,电视台,颗粒物(PM10),500,665,110,182,36,95,,,,7,13,3,5,0.4,0.5
2024-08-14T0700,2696A,80.2613,41.1551,阿克苏地区,艺术中心,颗粒物(PM10),500,667,111,173,32,99,,,,1,23,4,4,0.4,0.6
2024-08-14T0700,2204A,105.6467,38.8363,阿拉善盟,西城区西花园,,33,31,69,21,24,105,,,,11,11,8,9,0.9,0.9
2024-08-14T0700,2205A,105.6985,38.8411,阿拉善盟,蒙二幼,,35,27,58,14,19,112,,,,4,10,10,12,0.5,0.5
2024-08-14T0700,2206A,105.724,38.8516,阿拉善盟,环保局新楼,,39,30,44,13,17,122,,,,4,7,9,11,0.4,0.5
2024-08-14T0700,2708A,88.1264,47.8517,阿勒泰地区,市站,,24,13,22,3,7,76,,,,4,10,7,7,0.6,0.6
2024-08-14T0700,2630A,80.1161,32.5,阿里地区,阿里监测站,,25,11,10,6,6,79,,,,14,11,9,9,0.2,0.2
2024-08-14T0700,3192A,80.0903,32.5028,阿里地区,阿里藏医院,,25,19,13,10,5,79,,,,10,5,6,6,0.3,0.3
2024-08-14T0700,2642A,109.0318,32.6537,安康市,香溪洞,,18,10,26,10,13,55,,,,8,7,7,7,0.3,0.3
2024-08-14T0700,2643A,109.0281,32.6939,安康市,安康市监测站,,20,20,25,7,13,28,,,,13,10,16,8,0.5,0.4
2024-08-14T0700,2644A,109.0072,32.6975,安康市,汉滨区检察院,,18,17,21,12,13,27,,,,9,8,8,8,0.4,0.4
2024-08-14T0700,2291A,117.0809,30.5177,安庆市,环科院,,28,,24,19,13,58,,,,15,11,6,7,0.9,0.7
2024-08-14T0700,2292A,117.0331,30.5119,安庆市,马山宾馆,,39,,16,27,15,67,,,,13,14,8,9,0.7,0.6
2024-08-14T0700,2294A,116.9896,30.6145,安庆市,安庆大学,,19,,21,12,11,58,,,,9,9,7,7,0.7,0.7
2024-08-14T0700,3173A,117.0598,30.5351,安庆市,市人大,,20,17,22,14,16,62,,,,12,9,6,7,0.6,0.5
2024-08-14T0700,3123A,105.9408,26.2431,安顺市,凤凰山,颗粒物(PM10),52,54,51,26,25,39,,,,23,15,19,12,0.6,0.5
2024-08-14T0700,3124A,105.9439,26.2564,安顺市,金钟山,,49,49,47,30,24,44,,,,19,9,17,9,0.7,0.6
2024-08-14T0700,3125A,105.8983,26.2481,安顺市,娄家坡,颗粒物(PM10),53,56,53,31,27,24,,,,23,13,11,11,0.7,0.6
2024-08-14T0700,1819A,114.3551,36.1017,安阳市,红庙街,,36,36,38,24,16,67,,,,2,5,4,5,0.6,0.5
2024-08-14T0700,1820A,114.361,36.0681,安阳市,银杏小区,,32,32,34,22,21,81,,,,1,5,1,2,0.6,0.6
2024-08-14T0700,3141A,114.3922,36.0878,安阳市,信访局,,29,29,36,18,16,84,,,,1,4,1,3,0.7,0.7
2024-08-14T0700,3669A,114.4705,36.0637,安阳市,左辅环卫站,,50,50,41,35,22,77,,,,4,6,4,5,0.9,0.9
2024-08-14T0700,3703A,114.2917,36.0949,安阳市,安钢职工学校,细颗粒物(PM2.5),57,45,41,40,22,67,,,,10,10,6,5,1.3,0.6
2024-08-14T0700,1748A,123.044,41.1196,鞍山市,深沟寺,,44,44,37,25,18,12,,,,27,17,4,4,0.6,0.6
2024-08-14T0700,1749A,123.011,41.0931,鞍山市,太阳城,,38,38,30,24,18,13,,,,19,13,4,4,0.6,0.6
2024-08-14T0700,1750A,123.0485,41.1442,鞍山市,太平,颗粒物(PM10),53,55,42,22,20,12,,,,32,22,5,4,0.6,0.6
2024-08-14T0700,1751A,122.9642,41.0971,鞍山市,铁西三道街,,32,32,46,16,27,18,,,,30,34,10,17,0.8,1.6
2024-08-14T0700,1752A,122.9341,41.0833,鞍山市,铁西工业园区,,34,34,39,15,20,16,,,,30,25,16,17,1.3,1.5
2024-08-14T0700,1753A,123.022,41.0821,鞍山市,明达新区,,37,37,33,19,18,10,,,,24,15,4,3,0.5,0.5
2024-08-14T0700,2195A,107.4212,40.761,巴彦淖尔市,附二中,,49,49,37,26,18,38,,,,17,13,4,5,0.7,0.6
2024-08-14T0700,2196A,107.37,40.7372,巴彦淖尔市,市环保大楼,,49,49,38,24,14,44,,,,12,9,4,6,0.6,0.5
2024-08-14T0700,1956A,86.1472,41.7538,巴音郭楞蒙古自治州,孔雀公园,,33,,32,23,10,80,,,,19,16,4,5,0.3,0.3
2024-08-14T0700,1957A,86.1972,41.7166,巴音郭楞蒙古自治州,棉纺厂,,20,19,29,8,12,63,,,,29,18,4,4,0.2,0.2
2024-08-14T0700,1958A,86.2357,41.7173,巴音郭楞蒙古自治州,经济开发区,,32,,20,12,12,102,,,,3,6,4,5,0.2,0.2
2024-08-14T0700,2914A,106.7677,31.8794,巴中市,苏山坪,,34,34,40,17,19,98,,,,6,8,6,6,0.4,0.5
2024-08-14T0700,3182A,106.7656,31.8545,巴中市,丽阳花园,,42,42,49,23,24,30,,,,22,15,4,4,0.6,0.6
2024-08-14T0700,3183A,106.7418,31.8654,巴中市,圣泉水务公司,,32,32,44,15,21,47,,,,11,14,3,4,0.5,0.6
2024-08-14T0700,3616A,106.7616,31.8344,巴中市,市中心医院,,41,41,49,23,25,16,,,,19,16,4,5,0.6,0.6
2024-08-14T0700,2235A,122.7911,45.6077,白城市,洮北区环保局,,35,35,35,6,12,36,,,,12,15,5,7,0.7,0.7
2024-08-14T0700,2236A,122.8738,45.5725,白城市,市环保局,,24,24,26,8,8,36,,,,12,13,5,5,0.5,0.5
2024-08-14T0700,2231A,126.4219,41.9171,白山市,喜丰,,43,43,43,12,13,20,,,,10,10,9,9,0.8,0.7
2024-08-14T0700,2647A,104.1724,36.5446,白银市,第三小学,,40,9,44,7,15,126,,,,5,11,7,44,0.7,0.7
2024-08-14T0700,2648A,104.1465,36.5482,白银市,动力公司,,35,,33,10,14,110,,,,5,9,5,28,0.4,0.4
2024-08-14T0700,2512A,106.6103,23.9011,百色市,市监测站,,47,47,35,17,15,4,,,,18,13,5,9,0.7,0.7
2024-08-14T0700,2513A,106.6538,23.8859,百色市,市中心血站,,50,50,38,22,18,8,,,,22,15,10,9,0.7,0.7
2024-08-14T0700,3406A,106.6085,23.8798,百色市,祈福高中,颗粒物(PM10),55,59,42,21,19,10,,,,16,14,4,6,0.8,0.8
2024-08-14T0700,2270A,117.396,32.939,蚌埠市,工人疗养院,,29,29,46,11,16,69,,,,9,12,7,10,0.4,0.5
2024-08-14T0700,2271A,117.3605,32.9427,蚌埠市,百货大楼,,27,23,43,8,18,86,,,,4,5,6,8,0.4,0.5
2024-08-14T0700,2273A,117.4185,32.8911,蚌埠市,蚌埠学院,,29,29,43,16,18,66,,,,19,19,10,9,0.5,0.6
2024-08-14T0700,2274A,117.3533,32.9673,蚌埠市,淮上区政府,,28,19,36,14,19,87,,,,6,8,6,8,0.5,0.6
2024-08-14T0700,2275A,117.3145,32.8977,蚌埠市,高新区,,28,24,41,15,18,89,,,,7,7,6,7,0.5,0.6
2024-08-14T0700,3715A,117.3092,32.9314,蚌埠市,蚌埠田家炳中学,,27,21,43,13,19,84,,,,5,5,8,11,0.5,0.6
2024-08-14T0700,1585A,109.8756,40.6532,包头市,市环境监测站,,29,29,20,11,12,14,,,,34,20,14,9,0.6,0.5
2024-08-14T0700,1587A,109.9991,40.5842,包头市,包头八中,,29,29,27,17,14,19,,,,31,21,11,20,0.8,0.7
2024-08-14T0700,1588A,109.8538,40.6821,包头市,青山宾馆,,20,16,22,14,12,16,,,,24,17,4,6,0.6,0.6
2024-08-14T0700,1589A,109.8642,40.6288,包头市,惠龙物流,,36,36,21,18,11,12,,,,36,18,16,14,0.6,0.6
2024-08-14T0700,1590A,110.0377,40.5546,包头市,东河鸿龙湾,,18,18,20,12,9,22,,,,18,14,6,11,0.7,0.7
2024-08-14T0700,3283A,109.9154,40.5685,包头市,滨河大厦,,23,16,19,16,9,14,,,,39,18,9,14,0.6,0.5
2024-08-14T0700,3683A,109.8331,40.6576,包头市,昆区政府,,29,24,19,20,12,22,,,,28,17,11,8,0.7,0.6
2024-08-14T0700,1930A,107.185,34.3063,宝鸡市,庙沟村,,30,30,34,16,16,91,,,,13,13,6,7,0.5,0.4
2024-08-14T0700,1931A,107.0708,34.3017,宝鸡市,竹园沟,,28,28,37,19,17,53,,,,10,14,8,9,0.5,0.5
2024-08-14T0700,1932A,107.1906,34.3672,宝鸡市,三陆医院,颗粒物(PM10),52,53,47,29,23,48,,,,28,23,14,11,0.6,0.6
2024-08-14T0700,1933A,107.1431,34.3547,宝鸡市,监测站,,35,35,60,24,22,54,,,,17,20,7,8,0.5,0.4
2024-08-14T0700,1934A,107.1186,34.3739,宝鸡市,技工学校,,30,28,42,21,24,56,,,,12,14,8,9,0.6,0.6
2024-08-14T0700,1935A,107.3906,34.3528,宝鸡市,陈仓区环保局家属楼,,49,49,41,21,20,37,,,,36,25,8,8,0.5,0.4
2024-08-14T0700,1936A,107.2058,34.3497,宝鸡市,文理学院,,46,46,41,20,16,55,,,,19,18,10,10,0.5,0.5
2024-08-14T0700,1937A,107.2386,34.3622,宝鸡市,三迪小学,细颗粒物(PM2.5),52,40,46,36,24,50,,,,24,22,11,11,0.5,0.5
2024-08-14T0700,1051A,115.493,38.8632,保定市,游泳馆,,25,25,20,7,6,57,,,,15,12,1,2,0.3,0.3
2024-08-14T0700,1052A,115.5213,38.8959,保定市,华电二区,,30,30,15,13,6,38,,,,14,8,3,3,0.3,0.2
2024-08-14T0700,1053A,115.4713,38.9108,保定市,接待中心,,27,27,24,8,6,47,,,,10,6,1,1,0.4,0.4
2024-08-14T0700,1054A,115.4612,38.8416,保定市,地表水厂,,24,24,28,3,8,54,,,,4,3,2,2,0.2,0.2
2024-08-14T0700,3581A,115.31981,38.95208,保定市,满城区生态环境分局,,27,27,20,3,4,65,,,,13,11,3,4,0.5,0.3
2024-08-14T0700,3582A,115.47694,38.76408,保定市,清苑区第二中学,,32,32,40,3,12,48,,,,16,11,4,3,0.4,0.4
2024-08-14T0700,3583A,115.62909,39.02311,保定市,徐水物探局,,30,30,25,12,4,26,,,,19,11,3,3,0.2,0.1
2024-08-14T0700,4004A,115.4202,38.8656,保定市,双鹰农机,,20,17,21,6,7,62,,,,8,5,1,1,0.3,0.3
2024-08-14T0700,4034A,115.5150,38.8590,保定市,植保所站,,26,26,22,9,11,57,,,,10,6,3,3,0.4,0.3
2024-08-14T0700,2594A,99.1678,25.1081,保山市,市环境监测站,,49,49,45,23,19,46,,,,10,9,6,6,0.6,0.5
2024-08-14T0700,2595A,99.1711,25.1328,保山市,市环保局,,50,50,50,24,16,68,,,,6,7,7,7,0.5,0.5
2024-08-14T0700,1867A,109.1436,21.4086,北海市,海滩公园,,34,34,30,12,5,8,,,,17,5,5,4,0.6,0.5
2024-08-14T0700,1868A,109.0981,21.4661,北海市,新市环保局,,33,33,20,14,8,14,,,,18,12,2,2,0.7,0.6
2024-08-14T0700,1869A,109.1778,21.5233,北海市,北海工业园,,29,29,23,17,11,9,,,,21,13,11,6,0.8,0.6
2024-08-14T0700,3400A,109.1911,21.4415,北海市,龙潭自来水厂,,36,36,18,24,11,8,,,,15,8,8,6,0.8,0.6
2024-08-14T0700,1001A,116.3621,39.8784,北京市,万寿西宫,,22,22,21,11,11,21,,,,16,13,3,3,0.6,0.5
2024-08-14T0700,1002A,116.2202,40.2915,北京市,定陵,,21,21,13,10,6,0,,,,2,2,1,1,0.4,0.7
2024-08-14T0700,1003A,116.4174,39.9289,北京市,东四,,21,21,20,12,10,24,,,,19,16,2,2,0.7,0.6
2024-08-14T0700,1004A,116.4072,39.8863,北京市,天坛,,24,24,17,13,9,21,,,,20,16,3,3,0.5,0.5
2024-08-14T0700,1005A,116.462,39.9365,北京市,农展馆,,21,21,17,11,10,17,,,,16,13,3,2,0.4,0.4
2024-08-14T0700,1006A,116.3392,39.9295,北京市,官园,,23,23,21,14,12,24,,,,16,15,4,4,0.6,0.4
2024-08-14T0700,1007A,116.2878,39.9611,北京市,海淀万柳,,31,31,23,13,9,9,,,,37,15,2,2,0.4,0.4
2024-08-14T0700,1008A,116.6636,40.135,北京市,顺义新城,,22,22,16,11,9,18,,,,9,8,3,3,0.4,0.4
2024-08-14T0700,1009A,116.6275,40.3275,北京市,怀柔镇,,21,21,15,11,8,19,,,,13,10,5,5,0.1,0.1
2024-08-14T0700,1010A,116.2296,40.217,北京市,昌平镇,,20,20,19,12,8,20,,,,10,10,3,4,0.3,0.4
2024-08-14T0700,1011A,116.3966,39.9821,北京市,奥体中心,,18,17,18,12,10,21,,,,21,22,3,3,0.3,0.2
2024-08-14T0700,1012A,116.184,39.9136,北京市,古城,,26,26,21,10,8,20,,,,31,14,1,1,0.5,0.4
2024-08-14T0700,3281A,115.9718,40.4529,北京市,延庆夏都,,17,17,12,10,7,18,,,,7,5,3,3,0.3,0.3
2024-08-14T0700,3417A,117.0709,40.1465,北京市,平谷新城,,19,19,15,11,10,19,,,,7,7,3,3,0.4,0.3
2024-08-14T0700,3418A,116.8336,40.4095,北京市,密云新城,,22,22,15,10,7,21,,,,5,3,3,3,0.4,0.4
2024-08-14T0700,3671A,116.088,39.9726,北京市,门头沟三家店,,30,30,24,11,9,25,,,,9,10,3,2,0.4,0.4
2024-08-14T0700,3672A,116.1541,39.8204,北京市,丰台云岗,,28,28,21,13,9,13,,,,15,12,3,3,0.4,0.4
2024-08-14T0700,3673A,116.6804,39.9081,北京市,通州东关,,25,25,19,12,9,11,,,,22,12,3,3,0.5,0.4
2024-08-14T0700,3674A,115.9577,39.7603,北京市,房山燕山,,18,18,18,12,12,26,,,,7,7,3,3,0.3,0.3
2024-08-14T0700,3675A,116.4672,39.7733,北京市,大兴旧宫,,21,21,19,10,8,12,,,,21,15,3,3,0.5,0.5
2024-08-14T0700,3694A,115.986,40.4563,北京市,延庆石河营,,21,21,14,12,8,11,,,,11,5,3,3,0.3,0.3
2024-08-14T0700,3695A,116.6151,40.3053,北京市,怀柔新城,,22,22,17,12,8,22,,,,6,4,3,3,0.5,0.5
2024-08-14T0700,3696A,116.2545,39.8768,北京市,丰台小屯,,18,18,18,10,8,18,,,,20,10,5,5,0.4,0.3
2024-08-14T0700,3697A,116.84,40.3844,北京市,密云镇,,24,24,18,9,7,11,,,,11,8,3,3,0.5,0.4
2024-08-14T0700,1761A,123.8275,41.3064,本溪市,大峪,,50,50,48,17,17,21,,,,16,17,6,7,1.1,1.2
2024-08-14T0700,1762A,123.7567,41.3325,本溪市,溪湖,颗粒物(PM10),55,59,54,18,18,13,,,,18,17,6,6,1.0,1
2024-08-14T0700,1763A,123.7169,41.3094,本溪市,彩屯,,45,45,43,22,22,11,,,,23,21,7,6,1.3,1.1
2024-08-14T0700,1764A,123.7669,41.2864,本溪市,东明,,45,45,51,22,21,20,,,,20,20,4,4,0.7,1
2024-08-14T0700,1765A,123.7992,41.2664,本溪市,新立屯,,37,37,41,12,15,12,,,,18,18,2,3,1.0,1.1
2024-08-14T0700,1766A,123.8142,41.3472,本溪市,威宁,颗粒物(PM10),53,55,41,30,26,9,,,,16,18,8,8,0.7,0.8
2024-08-14T0700,2587A,105.2864,27.3125,毕节市,八中,细颗粒物(PM2.5),52,49,45,36,24,23,,,,21,15,6,6,0.5,0.4
2024-08-14T0700,2588A,105.31,27.2944,毕节市,师专,颗粒物(PM10),52,53,49,28,23,27,,,,15,13,5,7,0.6,0.5
2024-08-14T0700,3537A,105.3631,27.3533,毕节市,长征村,颗粒物(PM10),54,58,47,32,24,22,,,,19,12,5,7,0.6,0.5
2024-08-14T0700,1629A,118.0018,37.3617,滨州市,第二水厂,,31,31,36,19,19,63,,,,9,8,1,2,0.5,0.7
2024-08-14T0700,1630A,117.9776,37.393,滨州市,北中新校,,46,46,41,19,17,56,,,,9,8,4,4,0.5,0.5
2024-08-14T0700,3514A,117.9378,37.3956,滨州市,中海酒店,,,31,37,22,19,64,,,,,11,4,4,,0.9
2024-08-14T0700,3515A,117.9378,37.3553,滨州市,开发区一中,,39,39,41,27,23,71,,,,12,13,5,6,0.6,0.7
2024-08-14T0700,3516A,118.0917,37.694,滨州市,金海六路,,29,29,33,3,11,59,,,,10,9,2,2,0.5,0.5
2024-08-14T0700,4028A,117.9956,37.3753,滨州市,滨州市西街道办事处,,34,34,36,14,17,66,,,,6,6,3,4,0.6,0.7
2024-08-14T0700,2311A,115.8072,33.8399,亳州市,污水处理厂,,45,34,43,31,22,70,,,,10,11,5,8,0.7,0.6
2024-08-14T0700,2312A,115.7789,33.8518,亳州市,三国揽胜宫,,35,32,40,24,22,96,,,,9,9,6,7,0.8,0.7
2024-08-14T0700,3332A,115.7633,33.8034,亳州市,亳州学院,,29,28,30,20,13,91,,,,6,5,3,3,1.0,0.8
2024-08-14T0700,2693A,82.0485,44.8556,博尔塔拉蒙古自治州,市党校,,24,24,25,7,8,66,,,,7,13,7,7,0.5,0.3
2024-08-14T0700,2694A,82.0806,44.8969,博尔塔拉蒙古自治州,市环保局,,25,25,29,10,11,53,,,,9,15,6,7,0.2,0.3
2024-08-14T0700,1071A,116.8842,38.2991,沧州市,沧县城建局,,33,25,30,23,21,21,,,,23,10,3,4,0.6,0.6
2024-08-14T0700,1072A,116.8584,38.3254,沧州市,电视转播站,,32,26,31,22,17,16,,,,21,12,1,2,0.2,0.4
2024-08-14T0700,1073A,116.8709,38.3228,沧州市,市环保局,,30,30,29,15,18,17,,,,21,11,2,2,0.4,0.5
2024-08-14T0700,3324A,116.8136,38.3004,沧州市,河北水利电力学院,,45,36,28,31,25,26,,,,22,13,3,4,0.4,0.4
2024-08-14T0700,2622A,97.1806,31.1273,昌都市,昌都监测站,,16,14,16,11,9,48,,,,7,11,5,5,0.4,0.4
2024-08-14T0700,3719A,97.1714,31.1406,昌都市,昌都会议中心,,18,12,15,7,7,56,,,,3,5,7,7,0.3,0.4
2024-08-14T0700,2690A,88.1236,43.8886,昌吉回族自治州,天山天池,,25,6,10,3,4,78,,,,5,6,6,8,0.5,0.5
2024-08-14T0700,2692A,87.2717,44.0297,昌吉回族自治州,新区政务中心,,35,35,30,6,10,35,,,,28,17,9,9,0.7,0.6
2024-08-14T0700,3613A,87.3095,44.0142,昌吉回族自治州,亚心广场,,39,39,44,7,10,54,,,,26,27,3,6,0.3,0.4
2024-08-14T0700,1119A,125.3325,43.9166,长春市,食品厂,,35,35,24,12,13,32,,,,20,17,3,3,0.4,0.4
2024-08-14T0700,1120A,125.2863,43.9027,长春市,客车厂,,26,26,19,13,10,34,,,,26,18,6,6,0.4,0.4
2024-08-14T0700,1121A,125.2841,43.8463,长春市,邮电学院,,19,19,20,9,9,32,,,,16,11,6,6,0.4,0.3
2024-08-14T0700,1122A,125.3716,43.8772,长春市,劳动公园,,42,42,29,12,9,31,,,,29,18,6,7,0.7,0.6
2024-08-14T0700,1123A,125.3297,43.8805,长春市,园林处,,25,25,21,10,8,35,,,,26,15,5,3,0.5,0.4
2024-08-14T0700,1124A,125.4605,43.79,长春市,净月潭,,16,16,18,3,6,42,,,,9,7,6,5,0.4,0.4
2024-08-14T0700,1126A,125.3863,43.8447,长春市,经开区环卫处,,18,18,22,9,7,32,,,,26,15,6,5,0.5,0.5
2024-08-14T0700,1127A,125.245,43.7783,长春市,高新区管委会,,26,26,23,10,10,40,,,,22,15,3,3,0.5,0.4
2024-08-14T0700,1128A,125.1761,43.8325,长春市,岱山公园,,30,30,24,13,10,20,,,,35,25,4,3,1.8,1.2
2024-08-14T0700,1335A,113.0833,28.2325,长沙市,经开区环保局,,26,26,32,11,14,42,,,,12,16,2,7,0.4,0.5
2024-08-14T0700,1336A,112.8872,28.2189,长沙市,高开区环保局,,37,37,34,14,15,20,,,,25,15,4,2,0.6,0.7
2024-08-14T0700,1337A,113.0792,28.2053,长沙市,马坡岭,,23,23,33,10,17,45,,,,9,15,2,2,0.5,0.6
2024-08-14T0700,1338A,112.9394,28.19,长沙市,湖南师范大学,,41,41,37,22,17,17,,,,21,14,6,4,0.7,0.7
2024-08-14T0700,1339A,113.0178,28.1322,长沙市,雨花区环保局,,32,32,34,14,14,32,,,,18,19,3,3,0.4,0.5
2024-08-14T0700,1340A,112.9792,28.2597,长沙市,伍家岭,,25,25,34,16,16,12,,,,19,15,1,1,0.6,0.6
2024-08-14T0700,1341A,113.0014,28.1944,长沙市,火车新站,,32,32,33,19,17,38,,,,17,14,4,3,0.5,0.5
2024-08-14T0700,1342A,112.9844,28.1178,长沙市,天心区环保局,,38,38,37,21,19,27,,,,22,20,1,2,0.8,0.7
2024-08-14T0700,1343A,112.8908,28.1308,长沙市,湖南中医药大学,,38,38,36,16,16,13,,,,22,17,4,4,0.8,0.7
2024-08-14T0700,1344A,112.9581,28.3611,长沙市,沙坪,,27,27,24,9,9,36,,,,11,9,6,11,0.6,1.2
2024-08-14T0700,1727A,113.1147,36.1547,长治市,清华站,,45,33,30,31,17,44,,,,19,11,6,6,0.9,0.8
2024-08-14T0700,1728A,113.1031,36.1989,长治市,监测站,,37,37,35,19,15,72,,,,10,15,7,7,0.9,0.8
2024-08-14T0700,1730A,113.0886,36.2125,长治市,审计局,,32,32,28,22,16,83,,,,5,12,4,5,0.6,0.5
2024-08-14T0700,1731A,113.0844,36.1856,长治市,长治八中,,33,33,34,14,16,32,,,,24,15,4,5,0.7,0.7
2024-08-14T0700,2845A,113.1569,36.1911,长治市,德盛苑,,28,26,26,19,16,59,,,,6,8,6,7,1.0,1.1
2024-08-14T0700,3568A,113.06,36.0464,长治市,向阳小学,细颗粒物(PM2.5),63,57,49,45,29,51,,,,13,11,6,7,1.1,0.8
2024-08-14T0700,3569A,112.8792,36.3144,长治市,屯留一中,"颗粒物(PM10),细颗粒物(PM2.5)",58,66,46,41,24,58,,,,23,15,16,9,1.7,0.8
2024-08-14T0700,3570A,113.235,36.3489,长治市,潞城四中,细颗粒物(PM2.5),55,,33,39,26,75,,,,8,7,4,4,1.0,0.8
2024-08-14T0700,1854A,111.6975,28.9703,常德市,市二中,,48,48,55,27,30,66,,,,12,12,8,9,0.7,0.6
2024-08-14T0700,3138A,111.7153,29.0289,常德市,武陵区永安,颗粒物(PM10),52,53,51,23,27,92,,,,8,8,9,10,0.6,0.5
2024-08-14T0700,3139A,111.6892,28.9881,常德市,鼎城区玉霞,,47,47,56,28,36,88,,,,10,11,8,7,0.8,0.7
2024-08-14T0700,3140A,111.6625,29.0531,常德市,武陵区长庚,,50,50,52,33,27,83,,,,11,8,11,10,0.7,0.6
2024-08-14T0700,1196A,119.9633,31.762,常州市,市监测站,,47,47,41,30,28,18,,,,40,31,5,7,0.8,0.9
2024-08-14T0700,1200A,119.9468,31.7069,常州市,武进监测站,,41,41,44,28,24,18,,,,39,30,11,8,1.2,1.1
2024-08-14T0700,1201A,119.9255,31.9087,常州市,安家,细颗粒物(PM2.5),58,43,35,41,24,5,,,,35,28,4,4,1.1,1
2024-08-14T0700,3002A,119.9805,31.8174,常州市,行政中心,,46,34,35,32,29,19,,,,32,32,4,4,0.7,0.8
2024-08-14T0700,3003A,120.0522,31.7748,常州市,经开区,,43,41,37,30,26,11,,,,38,32,8,7,0.4,0.4
2024-08-14T0700,3010A,119.9025,31.7964,常州市,钟楼,,50,49,47,35,26,20,,,,33,31,10,9,0.8,1.4
2024-08-14T0700,3429A,119.8598,31.7066,常州市,武进经发区,,48,48,47,24,26,16,,,,41,40,10,10,1.0,0.9
2024-08-14T0700,3430A,119.5826,31.7245,常州市,金坛城区,,46,46,44,26,26,21,,,,26,15,6,6,1.0,1
2024-08-14T0700,2220A,120.4318,41.5881,朝阳市,西梁,,39,39,21,11,10,17,,,,20,12,8,5,0.6,0.5
2024-08-14T0700,2221A,120.4521,41.5646,朝阳市,河畔小区,,29,29,19,9,5,19,,,,22,10,8,8,0.7,0.6
2024-08-14T0700,2222A,120.4176,41.5648,朝阳市,八里堡,,41,41,23,12,8,21,,,,26,14,6,6,0.7,0.6
2024-08-14T0700,2223A,120.3806,41.5969,朝阳市,农业园区,,25,25,18,12,9,23,,,,12,8,7,6,0.5,0.5
2024-08-14T0700,1705A,116.6367,23.6719,潮州市,西园路,,18,18,31,9,16,15,,,,6,9,2,3,0.3,0.4
2024-08-14T0700,3026A,116.6183,23.6608,潮州市,市政府,,31,31,34,10,14,16,,,,14,13,14,11,0.8,0.8
2024-08-14T0700,4036A,116.6461,23.6761,潮州市,金山,,18,18,28,9,15,15,,,,7,9,5,6,0.6,0.6
2024-08-14T0700,2472A,113.0073,25.9061,郴州市,马头岭,,25,25,20,11,7,15,,,,7,7,6,9,0.3,0.2
2024-08-14T0700,2473A,113.0116,25.8226,郴州市,市职中,,29,27,18,20,13,0,,,,12,7,8,9,0.6,0.5
2024-08-14T0700,2474A,113.0161,25.8001,郴州市,兴隆步行街,,28,28,24,16,11,7,,,,17,10,5,7,0.7,0.6
2024-08-14T0700,2475A,113.0383,25.8071,郴州市,市审计局,,23,23,15,11,11,3,,,,19,8,4,5,0.5,0.5
2024-08-14T0700,2476A,113.0348,25.7759,郴州市,市环保局,,25,25,18,16,10,8,,,,20,14,3,3,0.6,0.5
2024-08-14T0700,1431A,103.9728,30.7236,成都市,金泉两河,,49,49,52,31,21,9,,,,31,24,2,2,0.5,0.5
2024-08-14T0700,1432A,104.176,30.6872,成都市,十里店,颗粒物(PM10),64,78,63,30,30,6,,,,55,23,4,4,0.8,0.6
2024-08-14T0700,1433A,104.079,30.5706,成都市,三瓦窑,颗粒物(PM10),56,61,63,33,30,4,,,,58,60,4,3,0.6,0.6
2024-08-14T0700,1434A,104.1114,30.63,成都市,沙河铺,,44,44,56,23,23,6,,,,50,31,6,5,0.8,0.9
2024-08-14T0700,1437A,104.0786,30.6531,成都市,君平街,,47,47,62,14,24,52,,,,35,26,2,4,0.6,0.5
2024-08-14T0700,2880A,104.0239,30.65639,成都市,大石西路,颗粒物(PM10),53,55,57,28,23,28,,,,35,25,5,6,0.5,0.5
2024-08-14T0700,3136A,104.2725,30.5589,成都市,龙泉驿区区政府,,48,48,48,19,17,78,,,,15,12,5,5,0.5,0.5
2024-08-14T0700,3357A,104.0106,30.6931,成都市,金博路,颗粒物(PM10),53,56,54,20,23,0,,,,54,27,2,2,0.7,0.6
2024-08-14T0700,3359A,104.0578,30.5225,成都市,华阳,"颗粒物(PM10),细颗粒物(PM2.5)",58,66,62,41,34,28,,,,33,27,5,4,0.7,0.6
2024-08-14T0700,3487A,104.2394,30.5319,成都市,车城东七路,颗粒物(PM10),66,81,58,36,25,73,,,,21,20,4,3,0.4,0.4
2024-08-14T0700,3488A,104.3853,30.7453,成都市,青白江技师分院,颗粒物(PM10),67,83,54,47,25,15,,,,55,36,5,4,0.8,0.6
2024-08-14T0700,3489A,104.0789,30.4072,成都市,科学城,颗粒物(PM10),57,63,53,38,26,14,,,,35,20,4,4,0.7,0.6
2024-08-14T0700,4011A,103.8506,30.6947,成都市,光华大道三段,颗粒物(PM10),55,60,53,13,18,34,,,,34,19,4,4,0.7,0.6
2024-08-14T0700,1062A,117.9531,40.9081,承德市,铁路,,21,21,25,3,9,5,,,,24,21,6,8,0.3,0.3
2024-08-14T0700,1063A,117.9392,40.9763,承德市,中国银行,,42,42,24,25,9,7,,,,14,14,4,4,0.4,0.4
2024-08-14T0700,1064A,117.9503,40.928,承德市,开发区,,,31,27,13,10,,,,,19,15,5,6,0.4,0.4
2024-08-14T0700,1065A,117.8051,40.9655,承德市,文化中心,,35,35,27,3,8,7,,,,16,16,6,12,0.3,0.4
2024-08-14T0700,1066A,117.9268,41.0026,承德市,离宫,细颗粒物(PM2.5),57,,26,40,9,1,,,,5,5,2,3,0.4,0.3
2024-08-14T0700,2314A,117.47,30.6618,池州市,池州学院,,18,17,24,10,15,55,,,,8,9,5,6,1.2,0.9
2024-08-14T0700,3237A,117.4918,30.6617,池州市,展览馆,,19,18,26,6,15,60,,,,6,8,4,6,0.9,0.7
2024-08-14T0700,3333A,117.5627,30.695,池州市,第八中学,,17,15,26,9,11,52,,,,7,10,3,5,0.7,0.6
2024-08-14T0700,3334A,117.5038,30.6243,池州市,第十二中学,,18,18,24,10,12,46,,,,12,11,3,5,1.0,0.8
2024-08-14T0700,1744A,118.9233,42.2816,赤峰市,松山一中,,25,25,19,3,4,18,,,,20,20,8,8,0.7,0.6
2024-08-14T0700,1745A,118.9576,42.2728,赤峰市,哈达街,,24,24,20,6,9,6,,,,14,12,11,10,0.6,0.5
2024-08-14T0700,1746A,118.8788,42.2554,赤峰市,天义路,,19,15,16,13,12,19,,,,17,18,7,7,0.5,0.5
2024-08-14T0700,3058A,119.2658,42.0353,赤峰市,银河街,,24,24,16,11,11,33,,,,18,13,18,13,0.6,0.4
2024-08-14T0700,3286A,118.9359,42.3147,赤峰市,桥北物流园区,,18,16,14,12,8,10,,,,17,18,7,6,0.8,0.7
2024-08-14T0700,2521A,107.3476,22.4136,崇左市,市环保局江州分局,,25,25,27,10,12,29,,,,7,10,5,6,0.5,0.5
2024-08-14T0700,2522A,107.3702,22.3707,崇左市,城南新区,,26,26,21,18,12,23,,,,9,8,4,5,0.7,0.6
2024-08-14T0700,2298A,118.3093,32.3153,滁州市,老年大学,,27,27,34,15,18,81,,,,12,11,10,7,0.5,0.5
2024-08-14T0700,2299A,118.3244,32.2786,滁州市,人大宾馆,,26,24,39,17,25,83,,,,17,12,6,7,0.6,0.7
2024-08-14T0700,3207A,118.3118,32.3038,滁州市,市政府原办公楼,,28,25,34,19,22,80,,,,14,11,8,8,0.8,0.9
2024-08-14T0700,3331A,118.3267,32.2634,滁州市,图书馆,,29,24,36,20,24,86,,,,10,11,5,6,1.0,1
2024-08-14T0700,2605A,101.5482,25.0441,楚雄彝族自治州,州环境监测站,细颗粒物(PM2.5),54,,50,38,30,10,,,,35,23,6,7,0.7,0.6
2024-08-14T0700,2606A,101.538,25.0492,楚雄彝族自治州,市经济开发区,,48,48,53,28,30,10,,,,36,24,6,8,0.7,0.7
2024-08-14T0700,2548A,107.5277,31.2827,达州市,达州职业技术学院,,43,43,53,19,21,13,,,,13,9,7,8,0.6,0.6
2024-08-14T0700,2549A,107.5086,31.2186,达州市,市环境监测站,,38,38,54,9,19,25,,,,29,25,8,9,0.5,0.6
2024-08-14T0700,2550A,107.4988,31.2132,达州市,凤凰小区,,27,27,53,14,24,38,,,,22,21,10,11,0.5,0.6
2024-08-14T0700,2551A,107.5082,31.1986,达州市,达县机关宾馆,,46,46,56,16,19,22,,,,39,29,8,8,0.4,0.4
2024-08-14T0700,2552A,107.4644,31.2124,达州市,市政中心,,37,37,58,12,24,46,,,,19,22,8,8,0.6,0.8
2024-08-14T0700,2614A,100.1542,25.7054,大理白族自治州,大理市环境监测站,,39,30,29,27,20,78,,,,15,24,4,5,1.0,0.6
2024-08-14T0700,2615A,100.2171,25.5811,大理白族自治州,大理古城,,39,39,32,17,15,54,,,,23,16,7,8,0.6,0.6
2024-08-14T0700,1109A,121.612,38.9741,大连市,甘井子,,42,42,48,28,30,48,,,,22,15,8,8,0.6,0.6
2024-08-14T0700,1110A,121.565,38.9511,大连市,周水子,,40,38,46,28,32,47,,,,20,11,6,7,0.7,0.7
2024-08-14T0700,1111A,121.5637,38.8845,大连市,星海三站,,35,35,51,20,33,62,,,,10,8,6,8,0.4,0.6
2024-08-14T0700,1112A,121.6302,38.9117,大连市,青泥洼桥,,32,32,52,21,32,54,,,,9,7,7,7,0.7,0.8
2024-08-14T0700,1113A,121.6251,38.8638,大连市,傅家庄,,31,31,46,21,30,58,,,,5,4,4,5,0.7,0.8
2024-08-14T0700,1114A,121.5213,38.8661,大连市,七贤岭,,44,44,51,30,33,34,,,,20,11,6,6,0.8,0.8
2024-08-14T0700,1115A,121.2529,38.8061,大连市,旅顺,,43,43,42,26,26,41,,,,15,10,7,7,0.6,0.6
2024-08-14T0700,1116A,121.7485,39.1311,大连市,金州,,33,30,38,23,28,37,,,,18,10,7,6,0.7,0.5
2024-08-14T0700,1117A,121.7811,39.0496,大连市,开发区,颗粒物(PM10),54,57,56,37,30,35,,,,29,9,9,7,0.7,0.5
2024-08-14T0700,1118A,121.9762,39.0631,大连市,双D港,,33,33,38,21,22,34,,,,12,8,6,5,0.7,0.5
2024-08-14T0700,1789A,124.81117,46.03138,大庆市,大同区,,,23,19,18,16,28,,,,,6,8,8,0.5,0.5
2024-08-14T0700,1790A,125.129,46.533,大庆市,龙凤区,,29,29,30,12,11,38,,,,22,15,5,4,0.5,0.4
2024-08-14T0700,1791A,124.902,46.408,大庆市,红岗区,,23,23,24,9,14,36,,,,23,18,7,7,0.5,0.5
2024-08-14T0700,1792A,125.153,46.586,大庆市,萨尔图区,,24,24,19,3,8,46,,,,11,9,5,4,0.4,0.4
2024-08-14T0700,1793A,124.9042,46.6215,大庆市,让胡路区,,18,18,25,8,10,36,,,,20,10,5,5,0.3,0.2
2024-08-14T0700,3481A,125.141,46.634,大庆市,萨区政府监测点,,24,24,22,9,6,23,,,,32,9,7,7,0.4,0.4
2024-08-14T0700,1723A,113.2994,40.0758,大同市,云冈宾馆,,38,38,20,15,7,22,,,,20,16,23,10,2.0,0.7
2024-08-14T0700,1724A,113.3444,40.0917,大同市,大同大学,,18,18,10,10,10,15,,,,27,29,23,12,0.5,0.4
2024-08-14T0700,1725A,113.2661,40.1269,大同市,安家小村,,34,34,17,19,4,10,,,,19,13,12,10,1.1,0.6
2024-08-14T0700,1726A,113.2711,40.0844,大同市,教育学院,,48,48,23,16,10,6,,,,34,23,14,11,1.3,0.6
2024-08-14T0700,3282A,113.3397,40.0597,大同市,大同市卫生学校,,28,28,20,17,10,13,,,,36,20,16,9,0.7,0.6
2024-08-14T0700,3565A,113.1367,40.1122,大同市,云冈站,颗粒物(PM10),55,60,34,14,10,7,,,,19,19,12,12,0.7,0.5
2024-08-14T0700,3566A,113.1186,40.2556,大同市,图书馆,,13,13,13,8,10,7,,,,10,10,7,10,0.6,0.6
2024-08-14T0700,3567A,113.5931,40.0461,大同市,区一中,,15,15,14,3,6,46,,,,11,11,9,8,0.8,0.7
2024-08-14T0700,3676A,113.2802,40.0995,大同市,第二人民医院,,36,36,22,18,8,13,,,,22,17,13,10,1.1,0.6
2024-08-14T0700,2269A,124.1069,50.4097,大兴安岭地区,科技局,,18,18,23,11,12,10,,,,2,4,4,4,0.0,0.1
2024-08-14T0700,3663A,124.1164,50.4278,大兴安岭地区,红旗社区,,22,,15,15,16,5,,,,5,5,5,5,0.4,0.4
2024-08-14T0700,1600A,124.3303,40.0625,丹东市,江湾东路,,38,33,29,26,20,31,,,,14,12,3,4,1.1,0.8
2024-08-14T0700,1601A,124.4256,40.1503,丹东市,临江后街,,25,25,22,14,12,27,,,,19,8,4,4,0.8,0.6
2024-08-14T0700,1602A,124.3933,40.1461,丹东市,元宝山,,30,30,23,17,14,22,,,,12,6,2,2,0.7,0.6
2024-08-14T0700,1603A,124.3633,40.1092,丹东市,民主桥,,29,29,26,16,13,34,,,,17,10,1,2,0.7,0.5
2024-08-14T0700,3541A,109.5726,19.5167,儋州市,第一中学子站,,17,17,16,7,8,11,,,,5,5,4,4,0.6,0.5
2024-08-14T0700,3542A,109.5567,19.5187,儋州市,东坡学校子站,,15,14,15,10,9,10,,,,6,5,6,7,0.5,0.5
2024-08-14T0700,2616A,98.5842,24.428,德宏傣族景颇族自治州,德宏州监测站,,33,33,34,15,20,13,,,,21,12,31,20,0.9,0.8
2024-08-14T0700,3677A,98.5881,24.4368,德宏傣族景颇族自治州,芒市人民政府综合楼,,28,28,37,17,23,15,,,,18,14,58,31,0.7,0.7
2024-08-14T0700,1901A,104.4239,31.1208,德阳市,东山公园,颗粒物(PM10),63,76,82,29,31,105,,,,16,20,13,12,0.7,0.6
2024-08-14T0700,1902A,104.3826,31.1317,德阳市,西小区,颗粒物(PM10),53,56,75,32,40,66,,,,24,24,4,16,0.8,0.8
2024-08-14T0700,1904A,104.3553,31.1091,德阳市,耐火材料厂,细颗粒物(PM2.5),59,66,83,42,41,57,,,,24,36,12,26,0.7,0.9
2024-08-14T0700,3639A,104.4019,31.1244,德阳市,市教育局,颗粒物(PM10),55,59,75,30,35,76,,,,22,23,3,14,0.7,0.7
2024-08-14T0700,1622A,116.3032,37.4674,德州市,儿童乐园,,45,36,34,31,18,29,,,,20,13,8,8,0.7,0.6
2024-08-14T0700,1624A,116.2991,37.4451,德州市,监理站,,36,36,31,24,15,39,,,,19,12,8,7,0.7,0.6
2024-08-14T0700,3066A,116.2721,37.4379,德州市,九衢泉纯净水厂,,42,39,32,29,19,36,,,,15,10,9,7,0.7,0.7
2024-08-14T0700,3371A,116.3728,37.4403,德州市,开发区人民医院,,39,39,33,24,15,30,,,,26,14,9,8,0.7,0.7
2024-08-14T0700,3372A,116.3572,37.4094,德州市,太阳城中学,,32,27,30,22,17,47,,,,21,13,9,8,0.7,0.7
2024-08-14T0700,3511A,116.5652,37.3319,德州市,陵城艺术中心,,34,34,31,17,12,43,,,,13,10,6,6,0.6,0.6
2024-08-14T0700,2621A,99.7056,27.8317,迪庆藏族自治州,迪庆州站,,23,23,26,15,12,48,,,,9,12,10,10,0.4,0.4
2024-08-14T0700,3180A,99.7136,27.8094,迪庆藏族自治州,质量技术监督局,,21,21,24,8,7,51,,,,12,13,8,9,0.7,0.6
2024-08-14T0700,2663A,104.6241,35.5734,定西市,东关小学,,45,45,38,27,22,100,,,,5,10,9,10,0.3,0.3
2024-08-14T0700,2664A,104.6194,35.5934,定西市,供电公司,,43,40,34,30,22,107,,,,2,6,5,6,0.2,0.2
2024-08-14T0700,1389A,113.7547,23.0494,东莞市,莞城梨川,颗粒物(PM10),53,56,36,32,25,10,,,,48,33,6,6,0.9,0.9
2024-08-14T0700,1390A,113.7944,23.0128,东莞市,东城石井,,41,41,36,20,21,6,,,,37,29,5,5,0.8,0.7
2024-08-14T0700,1391A,113.7383,22.9658,东莞市,南城西平,,30,30,36,15,21,10,,,,43,36,4,4,0.7,0.7
2024-08-14T0700,3319A,113.7338,23.0381,东莞市,万江金泰,,38,38,37,21,23,5,,,,50,34,5,5,0.8,0.8
2024-08-14T0700,3626A,113.7533,23.0202,东莞市,南城元岭,,35,35,38,17,22,2,,,,43,33,6,6,0.9,0.9
2024-08-14T0700,3627A,113.7875,23.0457,东莞市,东城主山,,42,40,43,29,24,6,,,,38,33,7,7,0.9,0.8
2024-08-14T0700,1666A,118.6614,37.4309,东营市,市环保局,,29,29,32,9,12,76,,,,7,8,3,4,0.2,0.2
2024-08-14T0700,3036A,118.6904,37.4338,东营市,开发区管委会,,38,38,38,12,12,74,,,,7,7,1,3,0.4,0.4
2024-08-14T0700,3365A,118.5719,37.565,东营市,垦利区民丰路,,34,34,37,12,15,62,,,,5,5,6,6,0.3,0.3
2024-08-14T0700,3498A,118.5055,37.8612,东营市,河口城区,,22,22,36,7,14,57,,,,11,5,5,4,0.5,0.5
2024-08-14T0700,3646A,118.4978,37.4623,东营市,胜利站,,27,27,30,9,12,70,,,,6,7,5,5,0.4,0.4
2024-08-14T0700,3734A,118.35,37.26,东营市,理想之城,,22,22,29,14,16,58,,,,2,4,3,4,0.4,0.6
2024-08-14T0700,1591A,110.0023,39.8129,鄂尔多斯市,综合楼,,44,44,34,12,5,42,,,,39,23,8,8,0.7,0.6
2024-08-14T0700,1592A,109.9486,39.8261,鄂尔多斯市,巴音孟克林场办事处,,44,44,30,12,9,74,,,,19,24,7,7,0.7,0.6
2024-08-14T0700,1593A,109.7736,39.5986,鄂尔多斯市,康泽苑,,31,31,29,14,11,19,,,,25,22,5,5,0.4,0.4
2024-08-14T0700,1594A,109.8119,39.5989,鄂尔多斯市,华泰汽车城,,27,27,28,12,12,11,,,,30,28,4,4,1.0,0.9
2024-08-14T0700,1595A,109.9734,39.7884,鄂尔多斯市,奥林花园,,27,27,30,12,10,14,,,,39,29,5,6,0.6,0.5
2024-08-14T0700,2436A,114.8938,30.3994,鄂州市,市政府,颗粒物(PM10),56,62,48,20,15,27,,,,26,10,8,7,0.6,0.6
2024-08-14T0700,2437A,114.8989,30.3714,鄂州市,赵家坝,,39,39,51,18,15,34,,,,24,14,9,8,0.8,0.7
2024-08-14T0700,3654A,114.8094,30.4089,鄂州市,精准医疗中心,颗粒物(PM10),52,53,49,20,15,37,,,,16,13,9,7,0.6,0.7
2024-08-14T0700,2454A,109.4978,30.2981,恩施土家族苗族自治州,湖北民院,,23,23,36,13,20,46,,,,15,14,7,7,0.6,0.7
2024-08-14T0700,2455A,109.4707,30.2798,恩施土家族苗族自治州,州电力总公司,,28,28,38,18,20,31,,,,24,23,6,6,0.5,0.5
2024-08-14T0700,3549A,109.5061,30.3772,恩施土家族苗族自治州,龙凤新区,,22,20,26,15,16,38,,,,7,9,6,6,0.6,0.6
2024-08-14T0700,2499A,108.3411,21.6158,防城港市,沙万,颗粒物(PM10),54,58,28,15,12,7,,,,21,18,7,7,0.8,0.8
2024-08-14T0700,2500A,108.3514,21.7731,防城港市,防城档案局,颗粒物(PM10),52,53,35,20,14,14,,,,17,21,6,6,0.7,0.8
2024-08-14T0700,2501A,108.3506,21.6414,防城港市,大海花园,颗粒物(PM10),51,52,32,3,2,2,,,,22,17,6,6,0.7,0.8
2024-08-14T0700,1371A,113.1294,23.0067,佛山市,湾梁,,25,,30,17,18,45,,,,22,34,8,7,0.7,0.8
2024-08-14T0700,1372A,113.1083,23.0478,佛山市,华材职中,,46,46,40,16,20,15,,,,51,37,6,7,0.5,0.5
2024-08-14T0700,1373A,113.144,23.0453,佛山市,南海气象局,,21,21,34,14,17,25,,,,23,29,6,5,0.4,0.5
2024-08-14T0700,1374A,113.2881,22.8094,佛山市,顺德苏岗,,39,39,31,19,20,5,,,,33,34,7,7,0.9,0.8
2024-08-14T0700,1376A,112.8383,22.8678,佛山市,高明孔堂,,26,26,35,11,18,21,,,,12,19,7,8,0.7,0.7
2024-08-14T0700,1377A,112.8836,23.1588,佛山市,三水监测站,,39,39,38,15,23,3,,,,39,29,3,5,0.6,0.6
2024-08-14T0700,1378A,112.867,23.185,佛山市,三水云东海,颗粒物(PM10),51,52,40,29,26,0,,,,38,28,9,8,0.7,0.6
2024-08-14T0700,3625A,113.2544,22.7642,佛山市,容桂街道办,,32,31,33,22,20,2,,,,42,39,6,7,0.9,0.8
2024-08-14T0700,1282A,119.2681,26.0504,福州市,师大,,26,26,28,15,17,31,,,,9,8,4,4,0.6,0.6
2024-08-14T0700,1283A,119.2984,26.1028,福州市,五四北路,,,,,14,17,39,,,,9,10,3,3,0.5,0.5
2024-08-14T0700,1284A,119.2648,26.0768,福州市,杨桥西路,,28,28,27,16,16,29,,,,12,10,3,4,0.5,0.5
2024-08-14T0700,1285A,119.317,26.0746,福州市,紫阳,,23,23,30,13,16,38,,,,10,12,4,4,0.4,0.4
2024-08-14T0700,3048A,119.5799,26.0936,福州市,九龙,,24,24,31,14,21,18,,,,11,10,5,5,0.1,0.3
2024-08-14T0700,3526A,119.5189,25.9664,福州市,吴航,,26,26,32,15,20,18,,,,14,14,5,6,0.6,0.6
2024-08-14T0700,1755A,123.7977,41.8491,抚顺市,望花区,,26,26,23,12,14,36,,,,13,10,7,7,0.5,0.4
2024-08-14T0700,1756A,123.9161,41.8822,抚顺市,顺城区,,25,25,24,6,12,38,,,,11,12,3,2,0.4,0.4
2024-08-14T0700,1757A,124.0436,41.8611,抚顺市,东洲区,,23,23,24,15,13,29,,,,8,8,5,6,0.5,0.3
2024-08-14T0700,1758A,123.9247,41.8642,抚顺市,新抚区,,24,24,21,9,10,33,,,,11,10,6,6,0.4,0.4
2024-08-14T0700,1759A,124.0972,41.8961,抚顺市,大伙房水库,,25,25,22,17,9,35,,,,10,7,5,3,0.9,0.6
2024-08-14T0700,1760A,123.7086,41.8391,抚顺市,沈抚新城,,13,11,26,9,11,28,,,,10,8,5,5,0.1,0.1
2024-08-14T0700,2376A,116.2127,28.0814,抚州市,桐源党溪,,21,21,27,13,11,13,,,,10,4,5,6,0.8,0.8
2024-08-14T0700,2377A,116.3544,27.9831,抚州市,市站,,18,18,21,8,9,51,,,,6,5,4,4,0.7,0.7
2024-08-14T0700,2378A,116.3565,27.963,抚州市,血防站,,16,16,22,9,9,45,,,,5,5,6,5,0.5,0.5
2024-08-14T0700,2379A,116.3564,28.0007,抚州市,采茶剧团,,16,16,18,11,9,43,,,,9,6,5,5,0.8,0.8
2024-08-14T0700,2380A,116.385,27.9647,抚州市,医学分院,,19,19,20,8,8,52,,,,4,5,4,4,1.1,0.6
2024-08-14T0700,2207A,121.6094,41.998,阜新市,工业园区,,29,29,21,9,9,34,,,,18,17,3,3,0.9,0.7
2024-08-14T0700,2208A,121.6697,42.0279,阜新市,长青街,,27,27,18,7,7,22,,,,13,10,4,4,0.8,0.6
2024-08-14T0700,2209A,121.6673,42.0705,阜新市,农业园区,,18,18,15,12,6,39,,,,10,10,3,3,0.6,0.8
2024-08-14T0700,2210A,121.6717,42.0224,阜新市,东苑,,30,30,21,11,10,30,,,,17,9,3,2,1.1,0.8
2024-08-14T0700,2211A,121.6506,42.0498,阜新市,玉龙新城,,28,28,18,7,6,27,,,,21,17,4,4,0.8,0.6
2024-08-14T0700,2301A,115.8277,32.8929,阜阳市,市监测站,,47,47,45,20,21,52,,,,18,14,6,7,0.6,0.6
2024-08-14T0700,2303A,115.8554,32.8605,阜阳市,开发区,颗粒物(PM10),56,61,47,30,21,47,,,,17,14,4,5,0.5,0.5
2024-08-14T0700,2875A,115.784,32.8892,阜阳市,阜阳职业技术学院,颗粒物(PM10),52,53,48,24,20,56,,,,17,16,7,7,0.5,0.5
2024-08-14T0700,3468A,115.7901,32.8613,阜阳市,市规划展馆,细颗粒物(PM2.5),58,59,47,41,27,63,,,,16,14,6,7,0.6,0.6
2024-08-14T0700,3469A,115.836,32.9183,阜阳市,枣园社区,细颗粒物(PM2.5),60,50,52,43,30,46,,,,27,23,4,4,0.7,0.6
2024-08-14T0700,2669A,102.9099,34.9841,甘南藏族自治州,州政府,,31,14,27,13,17,97,,,,3,8,7,8,0.3,0.3
2024-08-14T0700,3380A,102.8914,34.9617,甘南藏族自治州,甘肃民族师范学院,,32,6,25,3,10,101,,,,3,11,4,4,0.4,0.4
2024-08-14T0700,2570A,101.9603,30.0475,甘孜藏族自治州,水桥子,,28,28,22,8,9,12,,,,24,12,4,4,0.2,0.2
2024-08-14T0700,3065A,101.9533,29.9972,甘孜藏族自治州,州环保局,,32,32,28,8,7,4,,,,37,26,3,3,0.2,0.2
2024-08-14T0700,3414A,115.8347,28.932,赣江新区,桑海产业园,,18,14,19,12,11,54,,,,11,11,8,9,0.4,0.2
2024-08-14T0700,2363A,114.9367,25.8664,赣州市,地委,,19,18,16,13,10,32,,,,14,9,33,16,0.7,0.7
2024-08-14T0700,2364A,114.9461,25.8481,赣州市,气象台,,19,19,18,10,9,33,,,,10,6,11,9,0.8,0.8
2024-08-14T0700,2365A,114.9322,25.8333,赣州市,市图书馆,,16,15,14,11,7,40,,,,7,6,4,4,0.9,0.8
2024-08-14T0700,2366A,114.8905,25.8471,赣州市,华坚鞋城,,29,29,19,14,9,26,,,,11,7,9,8,0.3,0.3
2024-08-14T0700,3109A,115.0093,25.8613,赣州市,赣县区卫计委,,15,15,20,7,8,35,,,,18,13,6,5,0.5,0.5
2024-08-14T0700,2683A,106.2319,36.1417,固原市,马园,,32,32,39,3,9,100,,,,9,17,6,7,0.5,0.4
2024-08-14T0700,2684A,106.2792,36.0022,固原市,监测站,,37,29,24,20,14,117,,,,13,9,3,5,0.3,0.3
2024-08-14T0700,2685A,106.2375,36.0211,固原市,新区,,29,28,27,19,12,91,,,,21,9,7,7,0.4,0.4
2024-08-14T0700,3522A,106.2177,35.9959,固原市,原州区十五小,,32,32,28,19,14,65,,,,28,10,7,7,0.6,0.6
2024-08-14T0700,2544A,106.6303,30.4576,广安市,市委,颗粒物(PM10),53,55,54,27,25,39,,,,21,15,6,8,0.4,0.4
2024-08-14T0700,2545A,106.6271,30.4663,广安市,友谊中学,,42,42,46,25,22,36,,,,17,16,5,6,0.5,0.4
2024-08-14T0700,2547A,106.6388,30.4551,广安市,广电花园,颗粒物(PM10),54,57,52,27,24,36,,,,14,13,9,9,0.4,0.4
2024-08-14T0700,2902A,106.6351,30.4865,广安市,北辰小学,颗粒物(PM10),52,54,56,27,23,34,,,,19,12,7,7,0.4,0.3
2024-08-14T0700,2523A,105.8945,32.4535,广元市,黑石坡,,24,24,25,16,9,50,,,,15,10,7,8,0.4,0.4
2024-08-14T0700,2524A,105.821,32.4444,广元市,老城,,35,35,38,16,15,30,,,,24,32,1,4,0.5,0.5
2024-08-14T0700,2526A,105.8628,32.4287,广元市,监测站,,36,36,29,25,16,38,,,,14,12,3,3,0.7,0.6
2024-08-14T0700,3617A,105.8047,32.4166,广元市,经开区,颗粒物(PM10),57,64,56,38,28,18,,,,30,26,8,11,0.9,0.7
2024-08-14T0700,1345A,113.2347,23.1423,广州市,广雅中学,,40,40,52,19,23,10,,,,49,43,7,6,0.6,0.6
2024-08-14T0700,1346A,113.2612,23.105,广州市,市五中,,40,40,38,27,26,13,,,,42,36,4,4,0.9,0.8
2024-08-14T0700,1348A,113.3478,23.0916,广州市,广东商学院,,35,35,37,22,22,5,,,,55,42,5,4,0.7,0.6
2024-08-14T0700,1349A,113.4332,23.1047,广州市,市八十六中,,34,34,39,14,20,6,,,,54,47,4,4,0.7,0.6
2024-08-14T0700,1350A,113.3505,22.9483,广州市,番禺中学,,41,41,34,18,17,9,,,,51,38,4,4,0.7,0.6
2024-08-14T0700,1351A,113.2146,23.3916,广州市,花都师范,,41,41,38,19,21,12,,,,41,30,11,7,0.8,0.7
2024-08-14T0700,1352A,113.2597,23.1331,广州市,市监测站,,34,34,39,18,20,12,,,,42,35,6,5,0.8,0.7
2024-08-14T0700,1353A,113.5618,23.312,广州市,九龙镇镇龙,,37,37,38,22,23,13,,,,22,26,6,6,0.7,0.7
2024-08-14T0700,1354A,113.2765,23.1544,广州市,麓湖,,41,41,36,22,20,2,,,,44,36,6,5,0.9,0.7
2024-08-14T0700,1355A,113.443,23.3035,广州市,帽峰山森林公园,,29,29,32,16,20,8,,,,26,27,4,4,0.8,0.7
2024-08-14T0700,2846A,113.3221,23.1322,广州市,体育西,,35,35,36,23,27,10,,,,34,28,7,6,0.7,0.7
2024-08-14T0700,3298A,113.5717,23.5491,广州市,从化街口,,42,42,34,23,21,7,,,,27,20,6,6,0.8,0.6
2024-08-14T0700,3299A,113.3472,23.3692,广州市,白云竹料,,46,46,43,30,26,7,,,,41,31,5,5,0.9,0.7
2024-08-14T0700,3300A,113.2981,23.237,广州市,白云嘉禾,,42,42,47,20,27,4,,,,57,44,8,7,1.0,0.9
2024-08-14T0700,3301A,113.4256,23.1716,广州市,黄埔科学城,,42,42,42,23,24,4,,,,39,39,8,8,0.8,0.7
2024-08-14T0700,3302A,113.3942,23.0483,广州市,番禺大学城,,25,23,32,17,19,1,,,,48,36,8,8,0.7,0.6
2024-08-14T0700,3303A,113.4922,22.8168,广州市,南沙黄阁,,45,45,37,24,21,6,,,,36,42,4,5,1.0,0.8
2024-08-14T0700,3304A,113.5342,22.7896,广州市,南沙街,,32,32,31,16,16,6,,,,33,32,8,6,0.8,0.8
2024-08-14T0700,3443A,113.2902,23.5544,广州市,花都梯面,颗粒物(PM10),52,54,37,29,22,2,,,,26,20,5,5,0.8,0.6
2024-08-14T0700,3445A,113.7858,23.7478,广州市,从化良口,,38,38,22,21,13,19,,,,10,8,5,5,0.8,0.7
2024-08-14T0700,3446A,113.8051,23.2614,广州市,增城荔城,,36,36,32,21,20,9,,,,28,22,6,7,0.6,0.5
2024-08-14T0700,2506A,109.6047,23.0666,贵港市,江南子站,,28,27,24,19,16,15,,,,13,14,8,8,0.6,0.7
2024-08-14T0700,2507A,109.6014,23.0948,贵港市,贵城子站,,43,36,31,30,19,16,,,,14,13,8,8,0.6,0.6
2024-08-14T0700,2508A,109.5669,23.1065,贵港市,荷城子站,,31,31,22,17,11,15,,,,24,14,12,11,0.5,0.5
2024-08-14T0700,3405A,109.5886,23.1172,贵港市,新世纪学校,,41,41,28,23,16,12,,,,18,13,11,10,0.6,0.6
2024-08-14T0700,1439A,106.6899,26.5998,贵阳市,马鞍山,,22,22,35,7,10,16,,,,11,9,6,6,0.4,0.4
2024-08-14T0700,1440A,106.6971,26.5694,贵阳市,市环保站,,35,34,57,24,27,30,,,,20,21,4,5,0.3,0.3
2024-08-14T0700,1441A,106.6243,26.6266,贵阳市,鉴湖路,,39,39,47,12,16,52,,,,14,8,5,5,0.4,0.4
2024-08-14T0700,1442A,106.7487,26.6343,贵阳市,燕子冲,,31,31,34,19,19,10,,,,26,13,6,6,0.6,0.5
2024-08-14T0700,1443A,106.6555,26.4365,贵阳市,碧云窝,,48,48,53,14,17,4,,,,20,15,4,5,0.5,0.5
2024-08-14T0700,1444A,106.694,26.5161,贵阳市,中院村,,41,41,52,17,22,8,,,,42,25,8,7,0.5,0.5
2024-08-14T0700,1445A,106.7109,26.6027,贵阳市,红边门,,46,46,46,24,27,16,,,,30,17,6,4,0.6,0.4
2024-08-14T0700,1446A,106.7164,26.5699,贵阳市,新华路,,46,46,48,22,21,32,,,,18,16,5,6,0.7,0.7
2024-08-14T0700,1447A,106.674,26.5424,贵阳市,太慈桥,,24,24,37,9,15,10,,,,15,18,5,6,0.4,0.4
2024-08-14T0700,1862A,110.4144,25.3167,桂林市,电子科大尧山校区,颗粒物(PM10),51,51,24,18,9,15,,,,6,5,30,8,0.6,0.5
2024-08-14T0700,1863A,110.2819,25.2697,桂林市,监测站,,23,22,21,16,13,15,,,,12,14,7,8,0.6,0.6
2024-08-14T0700,1864A,110.3089,25.2708,桂林市,龙隐路小学,,20,20,20,12,13,15,,,,9,9,11,11,0.4,0.5
2024-08-14T0700,1865A,110.2869,25.2178,桂林市,八中,,16,16,17,3,6,7,,,,14,11,6,6,0.5,0.6
2024-08-14T0700,3403A,110.1764,25.2381,桂林市,创业大厦,,29,29,21,19,14,4,,,,21,13,13,20,0.3,0.3
2024-08-14T0700,3531A,110.296,25.1253,桂林市,旅游学院,,12,12,5,3,5,6,,,,11,8,5,6,0.3,0.3
2024-08-14T0700,2674A,100.2561,34.4714,果洛藏族自治州,玛沁县大武镇,,34,18,21,12,11,106,,,,1,3,5,8,0.4,0.4
2024-08-14T0700,1129A,126.5422,45.755,哈尔滨市,岭北,,25,25,19,16,12,33,,,,22,17,9,7,0.5,0.7
2024-08-14T0700,1130A,126.561,45.8167,哈尔滨市,松北商大,,15,15,22,10,7,13,,,,26,23,7,7,0.7,0.6
2024-08-14T0700,1131A,126.979,45.5419,哈尔滨市,阿城会宁,,33,33,31,17,13,7,,,,19,15,6,5,0.7,0.6
2024-08-14T0700,1132A,126.599,45.7222,哈尔滨市,南岗学府路,,34,34,38,11,13,21,,,,27,24,7,6,0.6,0.6
2024-08-14T0700,1133A,126.689,45.7733,哈尔滨市,太平宏伟公园,,24,24,31,11,10,14,,,,26,20,6,7,0.5,0.5
2024-08-14T0700,1134A,126.635,45.7667,哈尔滨市,道外承德广场,,30,30,34,9,12,22,,,,23,23,10,10,0.8,0.6
2024-08-14T0700,1135A,126.685,45.7319,哈尔滨市,香坊红旗大街,,41,41,30,16,15,25,,,,24,20,7,5,0.9,0.8
2024-08-14T0700,1136A,126.6411,45.7258,哈尔滨市,动力和平路,,30,30,29,9,9,22,,,,30,24,9,7,0.6,0.5
2024-08-14T0700,1137A,126.593,45.7478,哈尔滨市,道里建国路,,15,,26,10,10,24,,,,26,22,9,7,0.4,0.5
2024-08-14T0700,1138A,126.615,45.61,哈尔滨市,平房东轻厂,,36,36,59,15,16,11,,,,44,38,5,5,0.6,0.3
2024-08-14T0700,1139A,126.595,45.9855,哈尔滨市,呼兰师专,,26,26,20,10,9,23,,,,21,13,10,9,0.5,0.5
2024-08-14T0700,1140A,126.6206,45.6842,哈尔滨市,省农科院,,25,25,29,9,13,21,,,,30,27,6,6,0.7,0.7
2024-08-14T0700,2688A,93.5128,42.8172,哈密市,地区监测站,颗粒物(PM10),63,76,28,12,11,115,,,,7,9,3,3,0.2,0.3
2024-08-14T0700,2689A,93.4961,42.8328,哈密市,哈密师范学校,颗粒物(PM10),51,51,25,11,7,113,,,,8,7,4,4,0.3,0.4
2024-08-14T0700,2671A,100.9048,36.9639,海北藏族自治州,海晏县西海镇,,24,9,26,9,15,75,,,,7,7,11,15,0.4,0.4
2024-08-14T0700,3867A,102.0738,36.5056,海东市,平安区公安北苑,,38,17,34,3,17,119,,,,3,10,5,10,0.3,0.5
2024-08-14T0700,1410A,110.3232,20.0574,海口市,海南大学,,19,19,19,11,11,20,,,,24,15,5,5,0.5,0.5
2024-08-14T0700,1411A,110.283,20.0053,海口市,秀英海南医院,,23,23,25,12,14,11,,,,36,20,6,7,0.4,0.3
2024-08-14T0700,1412A,110.338,19.9969,海口市,海南师范大学,,26,26,22,9,11,21,,,,22,14,7,7,0.4,0.4
2024-08-14T0700,1413A,110.33,20.0356,海口市,龙华路环保局宿舍,,23,23,21,8,11,32,,,,17,15,7,7,0.3,0.3
2024-08-14T0700,3539A,110.5111,19.9736,海口市,桂林洋子站,,23,23,18,7,10,6,,,,15,12,6,6,0.3,0.3
2024-08-14T0700,2673A,100.6188,36.2866,海南藏族自治州,共和县恰卜恰镇,,29,16,28,10,14,91,,,,6,6,11,11,0.7,0.6
2024-08-14T0700,2676A,97.3731,37.3753,海西蒙古族藏族自治州,德令哈市,,21,,36,14,18,67,,,,13,13,8,7,0.4,0.4
2024-08-14T0700,1048A,114.5302,36.6116,邯郸市,东污水处理厂,,31,31,33,9,10,75,,,,6,5,2,2,0.6,0.5
2024-08-14T0700,1049A,114.4918,36.5713,邯郸市,矿院,,37,37,30,17,12,81,,,,2,3,1,1,0.6,0.5
2024-08-14T0700,1050A,114.484,36.6133,邯郸市,丛台公园,,25,20,29,10,11,80,,,,5,5,3,2,0.6,0.5
2024-08-14T0700,3458A,114.7895,36.5593,邯郸市,香泉濮院小区,,41,41,31,28,16,60,,,,5,6,2,2,0.5,0.6
2024-08-14T0700,3579A,114.50634,36.77178,邯郸市,永年区实验高中,,28,19,33,17,18,89,,,,3,5,2,2,0.7,0.5
2024-08-14T0700,3580A,114.20016,36.44293,邯郸市,峰峰矿区临水派出所,,29,29,35,3,8,92,,,,2,4,3,2,0.6,0.6
2024-08-14T0700,2634A,106.9893,33.1842,汉中市,汉川机床厂子校,,22,22,29,11,16,39,,,,12,8,4,4,0.5,0.5
2024-08-14T0700,2635A,107.0154,33.0706,汉中市,市监测站,,44,44,39,19,19,35,,,,24,9,13,8,1.0,0.7
2024-08-14T0700,2636A,107.0089,33.1138,汉中市,鑫源开发区,,37,37,38,10,17,33,,,,19,11,11,9,0.8,0.5
2024-08-14T0700,2637A,107.007,33.0323,汉中市,南郑大河坎水厂,,31,31,39,21,23,17,,,,13,8,8,9,0.6,0.7
2024-08-14T0700,1223A,120.2072,30.2111,杭州市,滨江,,20,20,29,12,16,57,,,,12,11,4,4,0.7,0.7
2024-08-14T0700,1224A,120.0633,30.2747,杭州市,西溪,,21,21,22,9,14,39,,,,19,16,5,5,0.7,0.7
2024-08-14T0700,1226A,120.3461,30.3153,杭州市,下沙,,26,26,34,11,19,63,,,,21,19,6,6,0.6,0.6
2024-08-14T0700,1227A,120.1269,30.2456,杭州市,卧龙桥,,20,16,19,14,16,36,,,,13,13,5,5,0.7,0.7
2024-08-14T0700,1228A,120.1903,30.2692,杭州市,浙江农大,,22,17,22,15,17,53,,,,17,17,7,7,0.8,0.8
2024-08-14T0700,1230A,120.1197,30.3119,杭州市,和睦小学,,19,17,20,13,14,52,,,,19,14,5,5,0.7,0.7
2024-08-14T0700,1231A,120.3019,30.4183,杭州市,临平镇,,39,39,37,22,17,55,,,,22,14,4,4,0.6,0.7
2024-08-14T0700,1232A,120.2697,30.1819,杭州市,城厢镇,,29,,24,20,20,57,,,,10,12,5,5,0.8,0.7
2024-08-14T0700,1233A,120.0883,30.1808,杭州市,云栖,,12,12,18,8,11,19,,,,18,14,7,7,0.8,0.8
2024-08-14T0700,3557A,119.9464,30.0494,杭州市,镇二中,,16,10,16,10,15,49,,,,17,14,8,7,0.8,0.8
2024-08-14T0700,3558A,119.7183,30.2367,杭州市,市府大楼,,18,,17,10,13,56,,,,12,11,5,5,0.6,0.6
2024-08-14T0700,3656A,120.1556,30.2864,杭州市,消防大队,,20,15,23,14,17,57,,,,10,11,7,7,0.8,0.8
2024-08-14T0700,1270A,117.1959,31.7848,合肥市,明珠广场,,36,36,41,22,21,93,,,,15,15,7,7,0.6,0.5
2024-08-14T0700,1271A,117.3072,31.8764,合肥市,三里街,,28,24,33,12,16,88,,,,12,12,7,7,0.6,0.5
2024-08-14T0700,1272A,117.2588,31.8707,合肥市,琥珀山庄,,36,36,39,21,21,96,,,,17,10,6,6,0.7,0.6
2024-08-14T0700,1273A,117.1604,31.9052,合肥市,董铺水库,颗粒物(PM10),56,62,41,30,19,79,,,,10,11,2,2,0.4,0.5
2024-08-14T0700,1274A,117.25,31.8571,合肥市,长江中路,,31,31,39,21,20,97,,,,14,9,7,7,0.8,0.7
2024-08-14T0700,1275A,117.266,31.9436,合肥市,庐阳区,,36,36,35,12,15,96,,,,12,12,3,3,0.5,0.5
2024-08-14T0700,1276A,117.336,31.8586,合肥市,瑶海区,,31,31,33,18,18,85,,,,14,12,4,3,0.5,0.4
2024-08-14T0700,1277A,117.3027,31.7964,合肥市,包河区,,34,34,39,22,20,70,,,,25,20,10,10,0.6,0.5
2024-08-14T0700,1278A,117.2776,31.7385,合肥市,滨湖新区,,31,31,30,14,17,83,,,,12,14,6,7,0.5,0.5
2024-08-14T0700,1279A,117.1318,31.8403,合肥市,高新区,,29,29,34,13,18,76,,,,17,12,8,8,0.7,0.6
2024-08-14T0700,3464A,117.3803,31.9147,合肥市,高教基地,,23,18,30,16,18,67,,,,7,8,8,8,0.4,0.5
2024-08-14T0700,3614A,79.924,37.0877,和田地区,地区环保局,颗粒物(PM10),500,764,1122,250,353,9,,,,23,12,8,8,0.6,0.5
2024-08-14T0700,3615A,79.9131,37.113,和田地区,市环保局,颗粒物(PM10),500,732,1062,213,258,16,,,,26,22,8,8,0.6,0.5
2024-08-14T0700,2516A,108.2011,24.715,河池市,东仁乐园,,29,29,24,3,11,8,,,,7,7,5,5,0.7,0.7
2024-08-14T0700,2517A,108.0497,24.6947,河池市,市环保站,,23,23,18,10,11,16,,,,11,8,9,11,0.6,0.6
2024-08-14T0700,2518A,108.0983,24.6989,河池市,市疾控中心,,29,29,21,7,9,8,,,,15,14,8,8,0.5,0.5
2024-08-14T0700,1696A,114.6778,23.7569,河源市,源西,,22,22,15,11,9,27,,,,14,15,4,4,0.5,0.4
2024-08-14T0700,1697A,114.6944,23.7586,河源市,东埔,,16,16,12,10,8,29,,,,14,12,4,3,0.6,0.5
2024-08-14T0700,1698A,114.6892,23.7233,河源市,老城,,16,16,17,6,8,22,,,,9,9,7,6,0.5,0.5
2024-08-14T0700,1718A,115.4208,35.2464,菏泽市,气象局,,46,46,34,24,14,58,,,,8,8,3,5,0.3,0.3
2024-08-14T0700,1719A,115.4747,35.2375,菏泽市,市政协,,45,44,35,31,19,51,,,,8,6,3,4,0.3,0.3
2024-08-14T0700,3374A,115.5564,35.0891,菏泽市,定陶老年大学,,36,36,36,12,11,53,,,,13,11,4,6,0.3,0.3
2024-08-14T0700,3647A,115.4702,35.2706,菏泽市,菏泽医专,,36,36,34,24,12,56,,,,10,9,3,4,0.5,0.5
2024-08-14T0700,2514A,111.5264,24.4172,贺州市,环保小区,,23,23,20,3,7,14,,,,15,13,8,7,0.6,0.6
2024-08-14T0700,2515A,111.5608,24.4078,贺州市,政协大楼,,29,29,23,12,10,17,,,,15,14,8,7,0.5,0.5
2024-08-14T0700,3534A,111.4744,24.4553,贺州市,西湾,,22,22,19,7,8,3,,,,9,10,8,7,0.6,0.5
2024-08-14T0700,2385A,114.17,35.9019,鹤壁市,市监测站,颗粒物(PM10),55,60,43,22,19,68,,,,13,16,7,8,0.8,0.9
2024-08-14T0700,2386A,114.2956,35.7511,鹤壁市,市交警支队,颗粒物(PM10),53,56,38,33,24,74,,,,10,13,3,3,0.6,0.7
2024-08-14T0700,2387A,114.2878,35.7306,鹤壁市,迎宾馆,颗粒物(PM10),51,51,35,14,14,81,,,,8,12,2,3,0.6,0.7
2024-08-14T0700,3474A,114.2617,35.6822,鹤壁市,大新区,,,43,35,,,82,,,,9,11,2,3,0.5,0.5
2024-08-14T0700,3596A,114.1572,35.9603,鹤壁市,南山宾馆,,45,43,42,31,23,71,,,,12,15,2,2,0.7,0.7
2024-08-14T0700,2244A,130.2537,47.3416,鹤岗市,哈啤分公司,,15,10,15,10,9,19,,,,2,3,12,13,0.3,0.3
2024-08-14T0700,2245A,130.2684,47.3086,鹤岗市,斯达机电,,11,11,15,7,8,23,,,,4,6,13,12,0.3,0.3
2024-08-14T0700,2246A,130.3114,47.3388,鹤岗市,东山纸板厂,,16,14,15,11,14,13,,,,5,4,14,13,0.5,0.4
2024-08-14T0700,2247A,130.1097,47.3382,鹤岗市,五号水库,,6,6,8,3,7,17,,,,4,4,10,10,0.2,0.3
2024-08-14T0700,2263A,127.4833,50.2524,黑河市,交通局,,21,21,25,7,10,21,,,,8,10,5,5,0.4,0.4
2024-08-14T0700,2264A,127.5144,50.2341,黑河市,环保局,,19,19,33,8,16,1,,,,6,11,3,10,1.3,0.5
2024-08-14T0700,2265A,127.5291,50.2472,黑河市,大黑河岛,,,,13,14,14,,,,,4,8,1,2,,
2024-08-14T0700,1074A,115.6838,37.7541,衡水市,电机北厂,,38,32,32,26,19,37,,,,15,9,3,3,0.4,0.6
2024-08-14T0700,1075A,115.6303,37.7316,衡水市,市监测站,,42,42,38,15,18,45,,,,18,12,3,2,0.5,0.6
2024-08-14T0700,3188A,115.6683,37.7217,衡水市,市城管局,,43,43,36,23,20,48,,,,13,7,2,3,0.4,0.6
2024-08-14T0700,3459A,115.5989,37.5491,衡水市,地表水厂,,42,42,41,22,17,50,,,,7,4,5,5,0.5,0.6
2024-08-14T0700,2456A,112.5003,26.9167,衡阳市,原169医院,,25,23,21,10,11,77,,,,4,5,13,10,0.4,0.5
2024-08-14T0700,2457A,112.6194,26.9258,衡阳市,衡阳化工总厂,,,28,32,,,69,,,,7,10,8,9,0.5,0.7
2024-08-14T0700,2458A,112.6211,26.8956,衡阳市,珠晖区环保局,,,30,34,,,50,,,,13,10,13,10,0.8,0.9
2024-08-14T0700,2459A,112.6197,26.8733,衡阳市,市委党校,,30,30,29,15,15,24,,,,13,11,11,10,1.0,1
2024-08-14T0700,2460A,112.6006,26.8919,衡阳市,市监测站,,30,30,30,17,17,73,,,,9,11,15,9,0.6,0.8
2024-08-14T0700,2461A,112.5664,26.9056,衡阳市,真空机电公司,,26,26,24,12,12,74,,,,8,8,13,10,0.7,0.8
2024-08-14T0700,3399A,112.6703,26.882,衡阳市,师范学院,,32,32,29,17,14,24,,,,12,12,8,8,0.9,1
2024-08-14T0700,2608A,103.3772,23.3993,红河哈尼族彝族自治州,污水处理厂,,28,20,19,19,15,9,,,,19,10,9,11,0.3,0.3
2024-08-14T0700,2609A,103.3861,23.35,红河哈尼族彝族自治州,监测站,,27,27,19,11,12,19,,,,15,10,16,11,0.3,0.4
2024-08-14T0700,3038A,103.3758,23.368,红河哈尼族彝族自治州,州图书馆,,34,34,23,15,12,15,,,,21,8,45,11,0.4,0.3
2024-08-14T0700,1090A,111.6507,40.7517,呼和浩特市,呼市一监,,19,19,13,9,9,23,,,,18,13,8,8,0.7,0.6
2024-08-14T0700,1091A,111.6572,40.8033,呼和浩特市,小召,,17,17,10,8,8,25,,,,24,20,5,5,0.5,0.5
2024-08-14T0700,1094A,111.7516,40.8369,呼和浩特市,如意水处理厂,,14,14,13,3,6,21,,,,20,18,5,6,0.4,0.4
2024-08-14T0700,1095A,111.7276,40.8062,呼和浩特市,二十九中,,17,17,14,8,9,30,,,,18,21,3,4,0.6,0.7
2024-08-14T0700,1096A,111.5512,40.7866,呼和浩特市,工大金川校区,,19,19,13,6,8,8,,,,34,17,5,5,0.7,0.6
2024-08-14T0700,1097A,111.717,40.7612,呼和浩特市,化肥厂生活区,,31,31,19,14,8,31,,,,19,12,8,7,0.7,0.5
2024-08-14T0700,3698A,111.5968,40.8178,呼和浩特市,红旗小学,,12,9,9,6,7,36,,,,15,11,3,3,0.4,0.3
2024-08-14T0700,3699A,111.6518,40.8389,呼和浩特市,海东办,,15,14,13,9,8,16,,,,29,18,4,4,0.7,0.6
2024-08-14T0700,2192A,119.7594,49.2261,呼伦贝尔市,区环保局,,42,42,62,22,30,31,,,,18,32,4,6,0.4,0.6
2024-08-14T0700,3061A,119.7512,49.1577,呼伦贝尔市,国华电力东,,26,21,34,18,19,31,,,,8,13,3,3,0.3,0.4
2024-08-14T0700,1250A,120.0751,30.8669,湖州市,城西水厂,,50,45,36,35,25,24,,,,36,32,4,4,0.7,0.6
2024-08-14T0700,2873A,120.0875,30.8955,湖州市,仁皇山新区,,46,43,35,32,26,12,,,,35,30,6,6,0.9,0.8
2024-08-14T0700,2907A,120.1844,30.8596,湖州市,吴兴区站,,49,43,30,34,22,18,,,,37,21,7,7,0.6,0.6
2024-08-14T0700,3562A,120.4148,30.8538,湖州市,南浔区站,,36,29,29,25,22,27,,,,18,13,3,4,0.6,0.7
2024-08-14T0700,1607A,120.9092,40.7136,葫芦岛市,龙港区,,23,23,23,16,16,40,,,,25,19,22,17,0.4,0.4
2024-08-14T0700,1608A,120.8392,40.7514,葫芦岛市,化工街,,44,44,20,17,8,25,,,,35,17,22,10,0.3,0.3
2024-08-14T0700,1609A,120.8341,40.7073,葫芦岛市,新区,,33,33,24,15,8,41,,,,29,17,19,14,0.4,0.4
2024-08-14T0700,1610A,120.8695,40.7677,葫芦岛市,东城区,,20,16,20,8,8,61,,,,20,15,21,14,0.4,0.5
2024-08-14T0700,2482A,109.5981,27.5721,怀化市,林科所,,46,46,42,24,18,16,,,,12,9,10,8,0.5,0.3
2024-08-14T0700,2483A,109.9453,27.5444,怀化市,河西地税局,颗粒物(PM10),51,51,48,22,23,8,,,,9,8,8,9,0.6,0.5
2024-08-14T0700,2484A,109.9781,27.5342,怀化市,市四医院,颗粒物(PM10),56,62,60,31,28,10,,,,20,19,4,7,0.8,0.7
2024-08-14T0700,2485A,109.9972,27.5578,怀化市,监测楼,颗粒物(PM10),63,75,66,42,28,33,,,,14,12,61,23,0.6,0.6
2024-08-14T0700,2486A,110.0394,27.583,怀化市,市委党校,颗粒物(PM10),55,59,58,14,25,5,,,,19,13,12,11,0.7,0.6
2024-08-14T0700,1210A,119.036,33.5981,淮安市,钵池山,,29,,35,20,23,48,,,,15,13,6,6,0.6,0.7
2024-08-14T0700,1211A,119.007,33.575,淮安市,北京南路,,31,31,35,21,21,50,,,,14,12,4,5,0.7,0.7
2024-08-14T0700,1212A,118.989,33.6067,淮安市,市监测站,,41,41,40,22,23,53,,,,21,14,6,6,0.8,0.8
2024-08-14T0700,1213A,119.135,33.5039,淮安市,楚州区监测站,,42,42,42,20,22,49,,,,17,12,5,5,0.6,0.6
2024-08-14T0700,1214A,119.0186,33.6297,淮安市,淮阴区监测站,,41,41,46,23,26,47,,,,22,18,3,3,0.6,0.7
2024-08-14T0700,3426A,118.8755,33.2894,淮安市,新华书店,,42,42,34,23,25,48,,,,22,18,6,6,0.6,0.6
2024-08-14T0700,2282A,116.8004,33.975,淮北市,监测站,细颗粒物(PM2.5),84,75,60,62,33,74,,,,16,11,8,7,0.9,0.7
2024-08-14T0700,2283A,116.8091,33.9007,淮北市,烈山区政府,细颗粒物(PM2.5),67,81,48,48,23,77,,,,12,7,6,7,0.9,0.7
2024-08-14T0700,3330A,116.8873,33.9836,淮北市,杜集区检察院,细颗粒物(PM2.5),117,93,60,88,35,77,,,,13,9,3,2,1.0,0.7
2024-08-14T0700,4017A,116.7923,33.9535,淮北市,市博物馆,细颗粒物(PM2.5),88,76,53,65,30,77,,,,20,14,5,5,1.1,0.8
2024-08-14T0700,2277A,116.8305,32.7727,淮南市,潘集区政府,,32,32,50,17,24,62,,,,13,12,6,7,0.5,0.6
2024-08-14T0700,2278A,117.0067,32.6524,淮南市,师范学院,颗粒物(PM10),55,60,52,13,23,62,,,,12,8,10,8,0.5,0.5
2024-08-14T0700,2279A,116.8569,32.5951,淮南市,谢家集区政府,,33,33,43,11,10,64,,,,12,13,6,8,0.4,0.5
2024-08-14T0700,2280A,116.8281,32.633,淮南市,八公山区政府,,44,44,54,24,23,78,,,,10,12,7,6,0.4,0.5
2024-08-14T0700,2281A,116.6325,32.6201,淮南市,焦岗湖风景区管理处,,27,27,42,9,14,30,,,,16,14,8,10,0.3,0.3
2024-08-14T0700,2894A,117.0566,32.6531,淮南市,经济技术开发区消防队,,32,32,43,17,15,53,,,,17,9,6,5,0.5,0.5
2024-08-14T0700,3329A,117.0108,32.5893,淮南市,山南新区,颗粒物(PM10),52,54,56,32,23,66,,,,16,11,5,4,0.6,0.6
2024-08-14T0700,2446A,114.9028,30.4742,黄冈市,职工中心,,34,34,41,23,22,42,,,,12,13,8,10,0.3,0.4
2024-08-14T0700,2929A,114.8858,30.4519,黄冈市,红卫路,,35,33,42,24,22,49,,,,12,13,9,10,0.4,0.5
2024-08-14T0700,3398A,114.9136,30.4445,黄冈市,市林业局,,46,38,38,32,23,43,,,,11,12,8,9,0.4,0.5
2024-08-14T0700,2672A,102.0199,35.5102,黄南藏族自治州,同仁县隆务镇,,20,20,27,6,12,52,,,,1,3,10,10,0.5,0.5
2024-08-14T0700,2295A,118.2903,29.6963,黄山市,延安路89号,,23,23,25,7,6,47,,,,7,4,4,5,0.5,0.5
2024-08-14T0700,2296A,118.327,29.7178,黄山市,黄山东路89号,,17,,14,3,5,52,,,,4,4,6,6,0.4,0.4
2024-08-14T0700,2297A,118.1371,30.2756,黄山市,黄山区政府5号楼,,22,22,16,3,8,36,,,,6,6,6,6,0.3,0.3
2024-08-14T0700,2423A,115.0601,30.2313,黄石市,沈家营,,41,41,54,12,14,26,,,,21,14,8,8,0.5,0.5
2024-08-14T0700,2424A,115.0817,30.2006,黄石市,陈家湾,,48,48,48,15,14,29,,,,17,11,4,4,0.6,0.5
2024-08-14T0700,2426A,114.8988,30.2019,黄石市,铁山,,42,42,43,23,15,66,,,,7,9,9,9,0.4,0.5
2024-08-14T0700,2427A,115.0307,30.2092,黄石市,团城山,,24,24,42,7,15,49,,,,15,10,8,9,0.6,0.6
2024-08-14T0700,3149A,115.0235,30.1578,黄石市,笔架山北路,,25,25,44,7,11,34,,,,23,13,8,7,0.7,0.6
2024-08-14T0700,1392A,114.4183,23.0528,惠州市,河南岸金山湖子站,,27,27,23,14,16,18,,,,16,10,4,4,0.7,0.6
2024-08-14T0700,1393A,114.4053,23.0822,惠州市,下埔横江三路子站,,41,41,25,22,14,24,,,,26,14,5,3,0.7,0.6
2024-08-14T0700,1394A,114.4103,23.1142,惠州市,江北云山西路子站,,42,42,23,15,11,17,,,,19,12,4,4,0.6,0.6
2024-08-14T0700,1395A,114.4645,22.7833,惠州市,惠阳区承修路船湖子站,,38,38,29,22,16,8,,,,34,25,5,5,0.8,0.7
2024-08-14T0700,1396A,114.5317,22.7422,惠州市,大亚湾管委会子站,,39,39,25,22,13,5,,,,32,28,6,6,1.1,0.9
2024-08-14T0700,3314A,114.4338,22.8134,惠州市,惠阳秋长,,34,34,22,17,15,15,,,,26,24,6,5,0.9,0.8
2024-08-14T0700,3452A,114.6517,22.775,惠州市,大亚湾霞涌,,27,27,21,3,11,13,,,,17,13,3,3,0.7,0.6
2024-08-14T0700,2240A,130.9762,45.3001,鸡西市,环保局,,31,31,30,12,13,16,,,,12,11,9,9,0.1,0.2
2024-08-14T0700,2243A,130.9429,45.3039,鸡西市,第一中学,,27,27,21,10,8,13,,,,13,12,4,4,0.3,0.2
2024-08-14T0700,3707A,131.0207,45.3073,鸡西市,欧美日汽修厂,,31,31,20,10,11,11,,,,15,12,5,4,0.5,0.4
2024-08-14T0700,3709A,130.9967,45.3106,鸡西市,市政设施管理处,,25,25,31,10,10,15,,,,22,20,5,4,0.3,0.3
2024-08-14T0700,2367A,114.9754,27.0803,吉安市,红声器材厂,,21,21,25,12,14,35,,,,11,10,13,14,0.6,0.5
2024-08-14T0700,2368A,114.9658,27.0999,吉安市,市森林工业局,,25,25,27,16,15,38,,,,4,8,10,11,0.3,0.4
2024-08-14T0700,2369A,114.99,27.1312,吉安市,市环境监测站,,20,20,25,12,12,44,,,,6,8,10,11,0.6,0.6
2024-08-14T0700,2370A,115.0093,27.0968,吉安市,青原区法院,,24,24,25,15,15,35,,,,12,11,10,10,0.5,0.5
2024-08-14T0700,1772A,126.54,43.8622,吉林市,哈达湾,,44,44,28,25,15,34,,,,24,18,12,12,0.7,0.6
2024-08-14T0700,1773A,126.5844,43.8358,吉林市,东局子,,28,28,30,14,11,16,,,,18,17,6,5,0.9,0.6
2024-08-14T0700,1774A,126.5052,43.8245,吉林市,电力学院,,41,41,31,19,13,16,,,,21,17,13,11,0.8,0.8
2024-08-14T0700,1775A,126.6133,43.8972,吉林市,江北,,15,15,21,6,8,21,,,,16,27,7,7,0.7,0.7
2024-08-14T0700,1776A,126.555,43.8306,吉林市,江南公园,,46,46,29,28,17,17,,,,21,20,4,4,0.8,1.2
2024-08-14T0700,2868A,126.4739,43.953,吉林市,九站,,33,33,31,14,16,25,,,,10,19,11,17,0.6,0.6
2024-08-14T0700,1299A,116.9862,36.6114,济南市,科干所,细颗粒物(PM2.5),62,68,38,44,18,49,,,,23,24,9,9,1.0,0.8
2024-08-14T0700,1300A,116.9376,36.665,济南市,农科所,颗粒物(PM10),55,59,39,32,19,64,,,,19,23,8,9,0.5,0.5
2024-08-14T0700,1303A,117.0624,36.6868,济南市,省种子仓库,颗粒物(PM10),62,73,44,41,18,61,,,,17,19,5,6,0.7,0.6
2024-08-14T0700,1304A,116.9489,36.6447,济南市,机床二厂,颗粒物(PM10),58,66,39,32,11,69,,,,21,20,9,10,0.7,0.7
2024-08-14T0700,1305A,117.0495,36.663,济南市,市监测站,细颗粒物(PM2.5),59,59,42,42,20,61,,,,20,22,10,11,0.7,0.6
2024-08-14T0700,1306A,116.7675,36.5484,济南市,长清党校,颗粒物(PM10),59,68,40,37,17,48,,,,18,20,9,10,0.8,0.8
2024-08-14T0700,1616A,117.6795,36.229,济南市,技术学院,,31,31,24,19,14,85,,,,16,11,12,11,1.0,0.9
2024-08-14T0700,1961A,117.532,36.6868,济南市,东山小学,颗粒物(PM10),56,61,39,24,14,24,,,,36,23,10,10,0.8,0.7
2024-08-14T0700,3059A,117.7161,36.2049,济南市,泰兴公司,,39,39,30,22,15,71,,,,28,20,10,10,0.8,0.6
2024-08-14T0700,3064A,117.6867,36.2171,济南市,莱芜战役纪念馆,,,,29,,13,,,,,23,13,6,6,0.8,0.7
2024-08-14T0700,3494A,117.1673,36.9782,济南市,济阳区政府,颗粒物(PM10),51,51,38,20,15,61,,,,12,15,9,9,0.6,0.6
2024-08-14T0700,3495A,117.1171,36.63,济南市,锦屏中学,细颗粒物(PM2.5),70,76,41,51,18,53,,,,19,22,10,11,0.7,0.7
2024-08-14T0700,3682A,116.9814,36.6819,济南市,济南四建,"颗粒物(PM10),细颗粒物(PM2.5)",59,68,40,42,20,55,,,,16,15,8,8,1.0,0.9
2024-08-14T0700,1653A,116.6251,35.4302,济宁市,火炬城,,50,50,42,24,17,42,,,,22,15,10,10,1.0,0.9
2024-08-14T0700,1655A,116.5491,35.4042,济宁市,电化厂,,50,50,44,27,22,43,,,,21,15,10,9,0.9,0.8
2024-08-14T0700,3500A,116.5814,35.3707,济宁市,北湖一中,颗粒物(PM10),53,55,42,36,16,59,,,,22,15,11,9,0.6,0.4
2024-08-14T0700,3501A,116.8249,35.5593,济宁市,服务中心,,48,42,36,33,17,55,,,,16,12,9,7,0.8,0.7
2024-08-14T0700,3678A,116.5907,35.4054,济宁市,市第七中学,,45,45,40,24,17,55,,,,21,17,8,7,0.9,0.8
2024-08-14T0700,2255A,130.2751,46.8028,佳木斯市,佳纺,,22,22,22,7,11,16,,,,12,13,4,4,0.6,0.6
2024-08-14T0700,2256A,130.3995,46.8307,佳木斯市,发电厂,,13,13,16,3,7,17,,,,6,7,4,6,0.6,0.6
2024-08-14T0700,2257A,130.3258,46.7975,佳木斯市,环保局,,21,21,23,9,9,13,,,,12,14,8,8,0.5,0.6
2024-08-14T0700,2258A,130.3648,46.8032,佳木斯市,十一中,,13,13,20,3,11,22,,,,8,12,6,6,0.4,0.5
2024-08-14T0700,2259A,130.3794,46.7588,佳木斯市,四丰,,,19,14,11,7,15,,,,,,1,1,0.6,0.6
2024-08-14T0700,1252A,120.7436,30.778,嘉兴市,清河小学,,16,14,28,7,16,50,,,,14,16,8,8,0.9,1
2024-08-14T0700,1253A,120.726,30.7478,嘉兴市,嘉兴学院,颗粒物(PM10),59,67,86,12,21,14,,,,15,17,1,1,0.3,0.5
2024-08-14T0700,2872A,120.7846,30.7525,嘉兴市,南湖区残联,,20,20,30,13,23,41,,,,13,13,4,4,0.5,0.6
2024-08-14T0700,3407A,120.6916,30.7739,嘉兴市,秀洲住建,,,,30,8,14,50,,,,12,17,3,3,0.6,0.7
2024-08-14T0700,1945A,98.2908,39.7711,嘉峪关市,气象局,,31,31,34,9,11,77,,,,18,17,8,5,0.4,0.4
2024-08-14T0700,2884A,98.2672,39.7978,嘉峪关市,酒钢宾馆,,46,46,27,17,11,66,,,,23,14,27,10,0.4,0.4
2024-08-14T0700,3248A,98.2643,39.7724,嘉峪关市,雄关区,,27,27,31,8,10,64,,,,26,18,7,8,0.4,0.4
2024-08-14T0700,1383A,113.1064,22.6058,江门市,北街,,33,33,35,18,24,6,,,,31,31,3,4,0.6,0.7
2024-08-14T0700,1384A,113.0731,22.5835,江门市,西区,,25,25,34,16,18,2,,,,29,31,4,5,0.7,0.7
2024-08-14T0700,1385A,113.0219,22.5311,江门市,圭峰西,,39,29,28,27,19,12,,,,17,17,3,3,0.5,0.5
2024-08-14T0700,1386A,113.0828,22.5947,江门市,东湖,,34,34,36,16,20,5,,,,26,25,5,5,0.6,0.6
2024-08-14T0700,3311A,113.1075,22.5647,江门市,江海富民,,47,47,43,30,25,6,,,,32,30,6,7,0.6,0.7
2024-08-14T0700,3449A,113.05,22.4667,江门市,新会银湖,,32,32,30,22,23,6,,,,23,23,4,4,0.7,0.7
2024-08-14T0700,1828A,113.227,35.2125,焦作市,市环保局,颗粒物(PM10),51,51,38,27,18,72,,,,15,14,7,5,0.9,0.6
2024-08-14T0700,3169A,113.2725,35.2067,焦作市,太极体育中心,颗粒物(PM10),52,53,51,26,19,67,,,,14,13,2,6,0.9,0.7
2024-08-14T0700,3335A,113.3137,35.2641,焦作市,马村街道办,,42,42,33,21,19,70,,,,15,15,2,5,0.8,0.6
2024-08-14T0700,3336A,113.2465,35.2373,焦作市,焦作技师学院,,49,49,40,24,16,72,,,,14,11,4,4,1.0,0.8
2024-08-14T0700,3477A,113.1656,35.2539,焦作市,中站许衡医院,,35,31,23,24,17,76,,,,15,12,4,4,0.5,0.4
2024-08-14T0700,3981A,113.2449,35.1803,焦作市,原李万街道办,,49,49,37,19,15,68,,,,14,14,4,6,0.6,0.4
2024-08-14T0700,1708A,116.3701,23.5345,揭阳市,新兴,,18,,22,12,14,27,,,,11,12,7,5,0.6,0.6
2024-08-14T0700,1709A,116.3264,23.5443,揭阳市,西马,,12,8,25,8,12,27,,,,8,10,5,5,0.7,0.7
2024-08-14T0700,1710A,116.3611,23.5626,揭阳市,东兴,,19,17,28,13,11,18,,,,14,11,10,6,0.9,0.8
2024-08-14T0700,1711A,116.4151,23.5294,揭阳市,渔湖,,16,,24,11,13,23,,,,15,16,7,6,0.5,0.6
2024-08-14T0700,3320A,116.403,23.5699,揭阳市,曲溪,,24,24,25,13,14,20,,,,15,16,11,17,0.7,0.7
2024-08-14T0700,1944A,102.1692,38.5167,金昌市,天庆家园,,28,27,46,19,22,84,,,,11,14,5,10,0.5,0.7
2024-08-14T0700,4022A,102.1647,38.5371,金昌市,金川区人防中心,,35,,47,24,30,89,,,,10,12,7,12,0.7,0.6
2024-08-14T0700,1262A,119.647,29.077,金华市,十五中,,31,31,30,15,16,52,,,,18,13,2,2,0.4,0.4
2024-08-14T0700,1263A,119.686,29.1029,金华市,监测站,,20,20,24,13,14,48,,,,17,13,2,3,0.6,0.6
2024-08-14T0700,3659A,119.656,29.1131,金华市,气象局,,36,36,26,20,14,43,,,,23,13,5,4,0.3,0.3
2024-08-14T0700,1767A,121.1115,41.0879,锦州市,南山,,16,11,16,7,9,51,,,,15,12,11,6,0.6,0.6
2024-08-14T0700,1768A,121.0533,40.8434,锦州市,开发区,,23,22,26,16,13,30,,,,22,18,24,10,0.9,0.7
2024-08-14T0700,1769A,121.1836,41.1119,锦州市,百股街道,,17,17,23,3,6,40,,,,17,13,10,7,0.7,0.6
2024-08-14T0700,1770A,121.1178,41.1222,锦州市,天安街道,,17,17,20,3,14,50,,,,12,8,13,9,0.7,0.7
2024-08-14T0700,1771A,121.1303,41.1386,锦州市,北湖公园,,19,19,16,9,8,54,,,,7,6,10,6,0.6,0.6
2024-08-14T0700,2160A,112.85,35.5051,晋城市,自来水公司,,32,31,38,22,16,64,,,,20,15,9,10,1.0,0.9
2024-08-14T0700,2161A,112.8318,35.4936,晋城市,白云商贸,,48,48,40,22,14,61,,,,20,16,9,9,1.3,0.9
2024-08-14T0700,2162A,112.8508,35.4887,晋城市,市环保局,,37,37,34,22,16,59,,,,21,17,8,9,0.9,0.8
2024-08-14T0700,2163A,112.8676,35.4897,晋城市,技术学院,,35,,34,24,18,55,,,,23,17,8,10,0.9,0.8
2024-08-14T0700,3620A,112.8271,35.4828,晋城市,泽州一中,,33,33,36,19,16,56,,,,21,17,10,11,0.9,0.9
2024-08-14T0700,2171A,112.7532,37.6945,晋中市,锦纶小区,,30,17,25,7,8,96,,,,9,10,7,8,0.4,0.4
2024-08-14T0700,2173A,112.7249,37.7067,晋中市,南都小区,,36,,28,25,17,92,,,,10,13,4,5,0.4,0.4
2024-08-14T0700,2174A,112.6991,37.6982,晋中市,榆次区政府,,29,,30,19,18,91,,,,11,13,7,8,0.3,0.3
2024-08-14T0700,2865A,112.7195,37.6828,晋中市,榆次三中,,29,22,28,9,9,92,,,,9,10,9,9,0.6,0.6
2024-08-14T0700,2439A,112.2014,31.0481,荆门市,竹园小学,颗粒物(PM10),54,57,49,32,23,73,,,,18,16,11,12,0.6,0.7
2024-08-14T0700,2440A,112.1969,30.9891,荆门市,掇刀,,,52,41,32,24,114,,,,,13,7,10,0.7,0.6
2024-08-14T0700,2441A,112.2213,31.0386,荆门市,石化一小,颗粒物(PM10),54,57,51,33,23,80,,,,15,13,13,18,0.5,0.5
2024-08-14T0700,3012A,112.1849,31.0362,荆门市,西山林语,颗粒物(PM10),52,53,41,31,21,102,,,,16,12,10,9,0.7,0.5
2024-08-14T0700,3547A,112.1632,31.0138,荆门市,龙泉中学南校,,49,49,37,21,18,123,,,,17,11,9,11,1.0,0.7
2024-08-14T0700,1844A,112.2494,30.3197,荆州市,市图书馆,,44,44,35,26,22,81,,,,15,14,8,8,0.7,0.6
2024-08-14T0700,1845A,112.2008,30.3544,荆州市,市委党校,,43,43,34,24,24,61,,,,22,12,11,9,0.7,0.6
2024-08-14T0700,3194A,112.2747,30.3122,荆州市,管委会,,38,37,34,26,21,69,,,,17,15,7,7,0.6,0.5
2024-08-14T0700,3548A,112.1655,30.3364,荆州市,学苑路,细颗粒物(PM2.5),52,49,44,36,22,54,,,,24,12,6,6,0.8,0.7
2024-08-14T0700,2343A,117.2117,29.2933,景德镇市,老干部活动中心,,21,21,19,7,13,33,,,,8,11,6,9,0.4,0.5
2024-08-14T0700,2344A,117.1894,29.2789,景德镇市,兽医站,,20,20,24,7,16,43,,,,6,11,8,14,0.3,0.4
2024-08-14T0700,2345A,117.1547,29.2617,景德镇市,台达陶瓷,,13,6,25,3,15,39,,,,10,18,6,24,0.2,0.4
2024-08-14T0700,2346A,117.2461,29.2956,景德镇市,陶研所,,17,17,26,3,8,28,,,,8,9,7,8,0.3,0.4
2024-08-14T0700,1803A,115.9872,29.6815,九江市,十里,,19,17,22,13,12,48,,,,14,9,10,9,0.7,0.6
2024-08-14T0700,1804A,115.9584,29.7046,九江市,茅山头,,19,18,22,13,12,56,,,,20,13,11,9,0.6,0.6
2024-08-14T0700,1805A,115.9877,29.7295,九江市,西园,,19,13,20,13,11,44,,,,27,18,10,10,0.6,0.6
2024-08-14T0700,1806A,116.0172,29.6547,九江市,五七二七厂,,16,,23,11,12,20,,,,14,12,7,7,0.6,0.4
2024-08-14T0700,1808A,115.9114,29.6038,九江市,综合工业园,,20,16,19,14,12,57,,,,27,14,14,12,0.7,0.7
2024-08-14T0700,1809A,116.0721,29.7535,九江市,石化总厂,,19,19,18,13,10,30,,,,27,13,22,11,1.1,0.7
2024-08-14T0700,1810A,115.9773,29.5698,九江市,庐山气象台,,27,16,41,14,18,85,,,,3,4,6,10,0.6,0.9
2024-08-14T0700,3190A,116.0254,29.6994,九江市,外国语学校,,15,14,18,10,11,46,,,,19,14,14,10,0.7,0.5
2024-08-14T0700,2658A,98.5061,39.7443,酒泉市,仓门街子站,,29,29,31,14,13,21,,,,23,13,18,18,0.3,0.4
2024-08-14T0700,2659A,98.4989,39.7256,酒泉市,油田生活基地,,29,29,31,11,16,34,,,,25,15,8,14,0.2,0.3
2024-08-14T0700,2698A,76.0072,39.4467,喀什地区,巡警大队,颗粒物(PM10),108,166,143,41,32,33,,,,38,30,5,4,0.5,0.4
2024-08-14T0700,2699A,75.9755,39.4694,喀什地区,吾办,颗粒物(PM10),74,98,134,32,45,32,,,,23,24,4,4,0.6,0.5
2024-08-14T0700,4027A,75.9483,39.4689,喀什地区,老干局,颗粒物(PM10),85,120,155,26,31,35,,,,26,23,4,4,0.6,0.5
2024-08-14T0700,1824A,114.3389,34.7781,开封市,肿瘤医院,,41,41,35,16,9,72,,,,8,6,5,5,0.9,0.7
2024-08-14T0700,1826A,114.2885,34.7965,开封市,世纪星幼儿园,,43,38,32,30,18,62,,,,8,6,5,4,0.6,0.5
2024-08-14T0700,3147A,114.3438,34.8106,开封市,龙亭公园,,28,28,34,17,14,59,,,,9,8,2,2,0.7,0.6
2024-08-14T0700,3210A,114.3644,34.7964,开封市,汴京公园,细颗粒物(PM2.5),52,36,31,36,20,67,,,,8,8,4,5,0.6,0.5
2024-08-14T0700,3473A,114.2485,34.8306,开封市,技师学院,,40,36,36,28,17,58,,,,14,21,10,15,1.1,1
2024-08-14T0700,3592A,114.4644,34.7556,开封市,祥符区生态环境局,,43,43,40,27,21,58,,,,11,16,6,7,0.4,0.6
2024-08-14T0700,1951A,84.895,45.6094,克拉玛依市,长征新村,,27,,17,6,6,85,,,,3,8,6,6,0.1,0.2
2024-08-14T0700,1952A,84.8988,45.5893,克拉玛依市,南林小区,,25,11,21,3,8,78,,,,6,17,7,8,0.3,0.3
2024-08-14T0700,1954A,84.905,44.3396,克拉玛依市,独山子区,,29,15,25,3,8,90,,,,4,10,6,7,0.2,0.3
2024-08-14T0700,1955A,85.6979,46.098,克拉玛依市,乌尔禾区商贸楼,,15,11,21,6,6,46,,,,8,13,5,5,0.3,0.2
2024-08-14T0700,3612A,85.1045,45.6899,克拉玛依市,白碱滩区新站,,30,10,18,3,6,95,,,,3,8,8,8,0.2,0.3
2024-08-14T0700,2697A,76.1454,39.7142,克孜勒苏柯尔克孜自治州,市人民政府,颗粒物(PM10),90,130,120,48,46,66,,,,11,12,97,13,0.4,0.4
2024-08-14T0700,3665A,76.1658,39.7157,克孜勒苏柯尔克孜自治州,克州文化中心,颗粒物(PM10),81,112,116,43,45,71,,,,11,9,12,10,0.3,0.3
2024-08-14T0700,1450A,102.8204,24.8886,昆明市,呈贡新区,颗粒物(PM10),52,54,53,22,21,33,,,,37,15,7,6,0.9,0.7
2024-08-14T0700,1452A,102.7252,25.0902,昆明市,龙泉镇,,37,37,46,20,22,36,,,,19,14,6,7,0.6,0.6
2024-08-14T0700,1453A,102.7266,25.0375,昆明市,东风东路,,42,42,52,18,22,48,,,,20,18,6,6,0.5,0.5
2024-08-14T0700,1454A,102.6742,25.0669,昆明市,金鼎山,颗粒物(PM10),51,52,53,20,19,58,,,,17,14,9,11,0.4,0.4
2024-08-14T0700,1455A,102.6644,25.0401,昆明市,碧鸡广场,颗粒物(PM10),51,52,53,22,20,63,,,,17,17,4,5,0.4,0.4
2024-08-14T0700,3179A,102.7494,25.0119,昆明市,官渡区博物馆,颗粒物(PM10),51,51,51,22,23,8,,,,57,27,7,7,0.8,0.5
2024-08-14T0700,3375A,102.8017,24.8336,昆明市,青年创业园,,47,47,67,18,22,43,,,,21,18,3,4,0.5,0.5
2024-08-14T0700,3550A,102.7997,24.9786,昆明市,昆明学院,颗粒物(PM10),57,63,60,28,26,18,,,,49,25,5,7,0.5,0.4
2024-08-14T0700,3551A,102.5967,24.6736,昆明市,晋宁区生态环境分局,,40,40,47,17,24,39,,,,15,11,3,4,0.6,0.6
2024-08-14T0700,3552A,102.6678,24.9856,昆明市,云天化总部,,45,45,49,25,24,46,,,,22,16,5,6,0.3,0.3
2024-08-14T0700,1456A,91.1319,29.6514,拉萨市,八廓街,,28,6,11,3,7,89,,,,6,14,6,6,0.2,0.2
2024-08-14T0700,1457A,91.1221,29.6747,拉萨市,市环保局,,26,6,10,3,7,83,,,,10,14,7,7,0.1,0.1
2024-08-14T0700,1458A,91.0874,29.6475,拉萨市,区监测站,,27,6,8,3,6,84,,,,6,16,6,7,0.3,0.3
2024-08-14T0700,1459A,91.1774,29.6541,拉萨市,西藏大学,,30,6,9,3,6,93,,,,2,11,7,8,0.2,0.3
2024-08-14T0700,1460A,90.9798,29.6588,拉萨市,区辐射站,,27,,12,7,7,85,,,,6,19,8,8,0.2,0.2
2024-08-14T0700,1461A,91.0834,29.6292,拉萨市,拉萨火车站,,26,,8,6,6,81,,,,4,15,8,9,0.1,0.2
2024-08-14T0700,2520A,109.2203,23.7256,来宾市,来宾技工学校,,18,18,25,9,10,20,,,,11,12,7,8,0.6,0.7
2024-08-14T0700,3535A,109.1781,23.7297,来宾市,兴宾区政府,,18,18,19,9,9,23,,,,8,11,5,6,0.8,0.8
2024-08-14T0700,4002A,109.2416,23.7461,来宾市,中南小学,,22,20,18,15,10,21,,,,11,12,8,8,0.7,0.7
2024-08-14T0700,1476A,103.631,36.1031,兰州市,兰炼宾馆,,35,24,37,19,23,110,,,,10,11,7,13,0.2,0.3
2024-08-14T0700,1478A,103.8412,36.0726,兰州市,生物制品所,,34,22,34,14,18,108,,,,5,16,5,8,0.5,0.5
2024-08-14T0700,1479A,103.831,36.0464,兰州市,铁路设计院,,39,,37,27,22,112,,,,12,25,8,10,0.4,0.5
2024-08-14T0700,3186A,103.7158,36.1058,兰州市,教育港,,32,25,45,16,22,101,,,,4,9,4,7,0.3,0.3
2024-08-14T0700,1067A,116.6708,39.5111,廊坊市,药材公司,,28,28,21,12,6,28,,,,27,18,3,3,0.3,0.3
2024-08-14T0700,1068A,116.7214,39.5589,廊坊市,开发区,,18,18,16,10,9,17,,,,19,16,3,3,0.4,0.4
2024-08-14T0700,1070A,116.7244,39.5269,廊坊市,北华航天学院,,34,34,29,12,7,29,,,,22,16,1,3,0.4,0.4
2024-08-14T0700,2919A,116.7022,39.5453,廊坊市,河北工业大学,,34,34,24,8,8,21,,,,29,20,3,3,0.3,0.3
2024-08-14T0700,2535A,103.7723,29.5462,乐山市,花湖湾,细颗粒物(PM2.5),79,72,64,58,40,30,,,,22,17,7,7,0.7,0.7
2024-08-14T0700,2536A,103.7627,29.5844,乐山市,牛耳桥,细颗粒物(PM2.5),69,72,70,50,40,4,,,,27,25,3,4,0.9,0.8
2024-08-14T0700,2537A,103.7508,29.6006,乐山市,市第三水厂,细颗粒物(PM2.5),63,69,75,45,42,12,,,,34,26,2,3,0.7,0.7
2024-08-14T0700,2538A,103.7571,29.5664,乐山市,市监测站,颗粒物(PM10),69,88,70,46,36,50,,,,24,18,7,6,1.0,1
2024-08-14T0700,3361A,103.7311,29.5628,乐山市,理工大学,细颗粒物(PM2.5),90,98,69,67,37,19,,,,33,19,5,6,0.8,0.8
2024-08-14T0700,2599A,100.2497,26.8802,丽江市,丽江古城,,26,23,19,18,13,37,,,,25,13,9,9,0.7,0.6
2024-08-14T0700,2600A,100.2203,26.8906,丽江市,市中心,,19,19,21,12,10,43,,,,24,13,8,8,0.6,0.6
2024-08-14T0700,1267A,119.914,28.4514,丽水市,监测站大楼,,22,22,23,9,9,26,,,,24,15,4,3,0.7,0.6
2024-08-14T0700,1268A,119.93,28.4586,丽水市,莲都小学,,27,27,24,17,13,28,,,,19,14,4,4,0.3,0.3
2024-08-14T0700,1269A,119.879,28.4231,丽水市,余庄前,,32,32,24,19,14,5,,,,14,11,4,4,0.6,0.5
2024-08-14T0700,1173A,119.176,34.5885,连云港市,市环境监测站,,27,22,46,7,23,85,,,,7,10,5,6,0.4,0.6
2024-08-14T0700,3000A,119.3581,34.6972,连云港市,德源药业,,36,36,46,14,21,42,,,,21,15,4,5,0.6,0.5
2024-08-14T0700,3007A,119.178,34.844,连云港市,新城一中,,40,40,62,18,25,90,,,,9,8,2,2,0.8,0.8
2024-08-14T0700,3008A,119.3608,34.7519,连云港市,胡沟管理处,颗粒物(PM10),54,58,46,12,19,34,,,,42,14,9,7,0.7,0.6
2024-08-14T0700,3009A,119.1478,34.5911,连云港市,矿山设计院,,25,24,53,9,22,78,,,,6,10,9,8,0.6,0.8
2024-08-14T0700,3434A,119.2413,34.6539,连云港市,工贸学校,,28,28,54,16,29,70,,,,6,9,5,6,0.8,1
2024-08-14T0700,3664A,119.4172,34.7341,连云港市,连云街道,,34,34,54,19,26,51,,,,20,14,2,2,0.7,0.7
2024-08-14T0700,2572A,102.2721,27.8415,凉山彝族自治州,邛海宾馆,,19,19,25,10,14,54,,,,17,13,12,9,0.6,0.5
2024-08-14T0700,2573A,102.2625,27.898,凉山彝族自治州,西昌市政府,,25,13,24,3,12,77,,,,6,8,8,8,0.5,0.6
2024-08-14T0700,2574A,102.2685,27.8851,凉山彝族自治州,凉山州政府,,,14,30,6,13,,,,,9,11,5,6,0.6,0.4
2024-08-14T0700,2575A,102.237,27.8914,凉山彝族自治州,长安,,15,12,27,10,13,35,,,,29,13,8,8,0.7,0.5
2024-08-14T0700,2212A,123.2,41.1953,辽阳市,宏伟区,,38,38,38,16,17,17,,,,26,19,17,10,0.5,0.5
2024-08-14T0700,2213A,123.1683,41.2495,辽阳市,新华园,,35,35,33,13,14,17,,,,26,20,20,8,0.7,0.7
2024-08-14T0700,2214A,123.2354,41.2639,辽阳市,滨河路,,40,40,37,23,19,13,,,,24,22,18,9,0.5,0.5
2024-08-14T0700,2215A,123.149,41.2991,辽阳市,铁西工业园,,36,36,31,15,14,9,,,,21,19,8,8,0.8,0.7
2024-08-14T0700,2227A,125.1358,42.8845,辽源市,环保局,,20,20,24,14,12,23,,,,18,11,8,7,0.8,0.7
2024-08-14T0700,3239A,125.0764,42.9078,辽源市,银鹰制药,,20,20,15,14,9,26,,,,13,11,6,4,0.8,0.8
2024-08-14T0700,1625A,115.9848,36.4372,聊城市,区政府,颗粒物(PM10),51,51,36,24,15,68,,,,9,12,6,8,0.5,0.5
2024-08-14T0700,2878A,116.0072,36.4343,聊城市,聊大东校,颗粒物(PM10),53,56,38,35,22,66,,,,8,11,6,7,0.5,0.6
2024-08-14T0700,3200A,115.9819,36.4978,聊城市,监控中心,,42,42,35,24,13,61,,,,7,10,5,6,0.6,0.7
2024-08-14T0700,3513A,116.0445,36.4361,聊城市,九州社区,颗粒物(PM10),57,64,44,30,21,58,,,,8,12,5,6,0.6,0.6
2024-08-14T0700,4018A,116.0567,36.4608,聊城市,星美广场,颗粒物(PM10),56,62,46,22,17,55,,,,9,12,2,7,0.6,0.7
2024-08-14T0700,2632A,94.3681,29.6376,林芝市,林芝监测站,,14,,9,6,5,44,,,,2,3,9,9,0.3,0.3
2024-08-14T0700,2633A,94.3616,29.6616,林芝市,林芝人民医院,,16,7,10,3,5,49,,,,4,5,6,6,0.2,0.1
2024-08-14T0700,2603A,100.0781,23.8982,临沧市,市环保局,,36,36,46,23,27,25,,,,11,10,6,5,0.4,0.4
2024-08-14T0700,2604A,100.0894,23.8822,临沧市,市气象局,,30,30,38,20,24,25,,,,13,10,6,5,0.4,0.4
2024-08-14T0700,1733A,111.5531,36.0783,临汾市,临钢医院,,35,35,47,14,16,78,,,,10,12,5,6,0.8,0.9
2024-08-14T0700,1734A,111.5028,36.0714,临汾市,技工学校,,38,38,46,18,18,83,,,,17,18,3,5,0.8,0.7
2024-08-14T0700,1736A,111.5018,36.0855,临汾市,市委,,41,41,39,20,16,118,,,,14,12,6,9,0.9,0.8
2024-08-14T0700,3018A,111.505,36.1014,临汾市,唐尧大酒店,,37,37,40,9,12,70,,,,17,14,5,8,0.9,0.8
2024-08-14T0700,3668A,111.5036,36.0414,临汾市,城南,,31,31,48,18,18,89,,,,8,15,4,6,0.8,0.7
2024-08-14T0700,2667A,103.2069,35.5993,临夏回族自治州,环保局,,35,22,46,19,20,112,,,,2,5,7,11,0.3,0.4
2024-08-14T0700,2668A,103.2417,35.6057,临夏回族自治州,建设大厦,,36,,38,20,19,114,,,,1,6,3,7,0.3,0.4
2024-08-14T0700,1618A,118.3429,35.0532,临沂市,沂河小区,,33,27,56,22,31,103,,,,12,15,7,10,0.5,0.7
2024-08-14T0700,1619A,118.295,35.0583,临沂市,鲁南制药厂,,34,24,52,18,28,106,,,,14,17,5,7,0.4,0.6
2024-08-14T0700,1620A,118.2794,34.9976,临沂市,新光毛纺厂,,32,24,52,21,29,102,,,,14,18,5,9,0.9,1
2024-08-14T0700,1621A,118.3956,35.0888,临沂市,河东保险公司,,29,29,50,17,27,88,,,,18,19,6,9,0.6,0.7
2024-08-14T0700,3370A,118.3564,35.0215,临沂市,十里堡居委,,30,17,48,17,28,94,,,,13,15,7,11,0.7,0.9
2024-08-14T0700,3496A,118.3604,35.1084,临沂市,南坊新区,,31,27,56,17,25,99,,,,14,16,8,11,0.8,1
2024-08-14T0700,3860A,118.3920,35.0300,临沂市,皇山花园小区,,35,34,60,24,33,80,,,,23,22,11,15,0.6,0.8
2024-08-14T0700,1870A,109.4856,24.3895,柳州市,柳东小学,,24,24,14,8,7,15,,,,10,10,7,8,0.7,0.7
2024-08-14T0700,1871A,109.4157,24.3277,柳州市,环保监测站,,24,24,16,3,9,24,,,,7,9,10,8,0.9,0.8
2024-08-14T0700,1872A,109.389,24.341,柳州市,河西水厂,,24,24,16,13,9,24,,,,7,8,8,7,0.9,0.9
2024-08-14T0700,1873A,109.4311,24.2921,柳州市,市四中,,16,16,15,3,6,31,,,,7,9,6,6,0.7,0.7
2024-08-14T0700,1874A,109.4006,24.3631,柳州市,市九中,,28,28,18,11,8,22,,,,12,12,8,6,0.9,0.9
2024-08-14T0700,1875A,109.4958,24.3134,柳州市,古亭山,,25,25,18,6,8,16,,,,11,13,8,8,0.8,0.7
2024-08-14T0700,3402A,109.5422,24.3996,柳州市,市二中,,21,21,16,6,7,15,,,,11,11,6,7,0.5,0.5
2024-08-14T0700,2307A,116.5079,31.737,六安市,监测大楼,,22,,27,15,14,60,,,,10,9,5,5,0.5,0.5
2024-08-14T0700,2308A,116.4738,31.7643,六安市,皖西学院,,17,17,30,8,14,40,,,,14,8,5,4,0.4,0.3
2024-08-14T0700,2309A,116.4996,31.7905,六安市,朝阳厂,,26,15,25,13,14,83,,,,10,7,10,10,0.4,0.3
2024-08-14T0700,2310A,116.5567,31.7886,六安市,开发区,,22,,32,15,18,56,,,,7,7,4,5,0.4,0.4
2024-08-14T0700,2577A,104.83,26.5917,六盘水市,黄土坡,,34,34,42,19,22,44,,,,12,14,7,8,0.6,0.5
2024-08-14T0700,2578A,104.89,26.5939,六盘水市,水钢,颗粒物(PM10),63,76,60,12,19,26,,,,40,24,11,11,1.3,0.7
2024-08-14T0700,2579A,104.8475,26.5894,六盘水市,民中,,36,36,45,19,22,46,,,,30,23,8,9,0.5,0.6
2024-08-14T0700,2580A,104.9544,26.5506,六盘水市,双水,颗粒物(PM10),54,58,56,17,18,22,,,,36,18,6,8,0.7,0.5
2024-08-14T0700,2336A,117.0217,25.1033,龙岩市,龙岩市监测站,,27,27,23,11,13,25,,,,14,13,4,6,0.4,0.4
2024-08-14T0700,2337A,117.0258,25.0661,龙岩市,闽西职业技术学院,,30,29,24,21,13,27,,,,15,14,2,4,0.5,0.4
2024-08-14T0700,2338A,117.0196,25.0306,龙岩市,龙岩学院,,28,27,21,19,10,14,,,,16,9,3,4,0.3,0.3
2024-08-14T0700,2885A,104.9339,33.3826,陇南市,滨江中学,,49,49,36,14,12,57,,,,16,10,8,6,0.6,0.5
2024-08-14T0700,3247A,104.955,33.371,陇南市,市总工会,,34,34,37,6,7,75,,,,7,6,5,5,0.5,0.5
2024-08-14T0700,2487A,111.9589,27.8901,娄底市,电视发射台,,40,40,36,18,16,17,,,,5,5,6,6,0.4,0.5
2024-08-14T0700,2488A,111.9975,27.725,娄底市,市监测站,,48,48,57,24,37,28,,,,11,14,7,14,0.6,1
2024-08-14T0700,2489A,112.0194,27.7314,娄底市,市委党校,,36,29,45,25,26,41,,,,5,10,5,8,0.6,1
2024-08-14T0700,2490A,111.9561,27.7569,娄底市,涟钢,,35,35,49,18,25,22,,,,16,21,10,12,0.5,1.1
2024-08-14T0700,2491A,111.9892,27.7044,娄底市,市政府,,16,11,32,11,20,28,,,,8,9,6,6,0.3,0.5
2024-08-14T0700,1893A,105.4324,28.9634,泸州市,九狮山,颗粒物(PM10),51,52,67,22,30,27,,,,16,10,4,4,0.6,0.4
2024-08-14T0700,1894A,105.4427,28.9063,泸州市,小市上码头,,37,37,71,22,28,36,,,,33,18,13,7,0.6,0.5
2024-08-14T0700,1895A,105.4241,28.8573,泸州市,兰田宪桥,,46,43,69,32,38,34,,,,23,18,6,7,0.5,0.5
2024-08-14T0700,1896A,105.4379,28.8833,泸州市,市环监站,,41,41,69,25,34,63,,,,17,16,6,6,0.4,0.4
2024-08-14T0700,3490A,105.3617,28.7703,泸州市,纳溪区环保局,,50,50,70,31,36,26,,,,26,22,4,6,0.5,0.5
2024-08-14T0700,2183A,111.1406,37.5211,吕梁市,环保局,颗粒物(PM10),57,64,40,13,13,7,,,,31,22,4,4,0.4,0.4
2024-08-14T0700,2185A,111.1297,37.5136,吕梁市,自来水公司,颗粒物(PM10),69,88,47,15,12,12,,,,30,21,5,5,0.4,0.5
2024-08-14T0700,2867A,111.1283,37.51,吕梁市,马茂庄小学,颗粒物(PM10),59,67,52,17,12,16,,,,35,27,7,5,0.5,0.5
2024-08-14T0700,1812A,112.3931,34.6516,洛阳市,市委党校,,38,38,37,21,20,71,,,,16,10,7,7,0.8,0.7
2024-08-14T0700,1814A,112.4657,34.6871,洛阳市,豫西宾馆,,45,45,42,23,18,61,,,,16,11,5,5,0.5,0.4
2024-08-14T0700,1815A,112.494,34.6886,洛阳市,河南林校,,39,33,33,27,18,58,,,,20,12,4,4,0.7,0.6
2024-08-14T0700,1816A,112.3844,34.623,洛阳市,开发区管委会,,36,36,33,21,19,78,,,,12,9,3,3,0.5,0.5
2024-08-14T0700,1817A,112.4267,34.6258,洛阳市,市委新办公区,,38,32,31,26,22,72,,,,9,6,4,5,0.7,0.6
2024-08-14T0700,3340A,112.6005,34.6326,洛阳市,伊滨,,38,38,44,21,19,42,,,,20,15,5,6,0.4,0.4
2024-08-14T0700,3341A,112.4951,34.6332,洛阳市,中移产业园,,46,46,38,29,21,56,,,,16,10,5,5,0.8,0.7
2024-08-14T0700,3593A,112.5736,34.8993,洛阳市,吉利监测站,颗粒物(PM10),51,51,41,25,19,68,,,,12,10,2,4,0.7,0.5
2024-08-14T0700,3635A,112.3677,34.662,洛阳市,河科大西苑校区,,29,29,30,10,12,81,,,,9,7,8,6,0.8,0.7
2024-08-14T0700,3636A,112.4388,34.6781,洛阳市,英才小学,颗粒物(PM10),66,81,36,25,24,61,,,,15,7,5,5,0.7,0.6
2024-08-14T0700,2399A,114.051,33.5699,漯河市,三五一五工厂,,43,37,40,30,20,83,,,,9,9,6,6,0.6,0.6
2024-08-14T0700,2400A,114.0055,33.5698,漯河市,漯河大学,颗粒物(PM10),52,54,42,29,20,92,,,,8,8,10,11,0.6,0.5
2024-08-14T0700,2401A,114.0138,33.5828,漯河市,市水利局,,46,46,43,29,18,79,,,,10,9,7,8,0.5,0.5
2024-08-14T0700,2402A,114.0261,33.5698,漯河市,市广电局,,49,49,40,22,15,77,,,,9,6,6,7,0.7,0.7
2024-08-14T0700,3478A,113.9749,33.5664,漯河市,市图书馆,,48,48,42,32,21,83,,,,12,9,11,10,0.6,0.6
2024-08-14T0700,3479A,114.0967,33.5906,漯河市,召陵区卫健委,,50,50,44,32,24,68,,,,11,10,3,3,0.7,0.6
2024-08-14T0700,1798A,118.5092,31.6837,马鞍山市,湖东路四小,,48,37,40,33,26,48,,,,15,16,8,8,0.9,0.9
2024-08-14T0700,1799A,118.5024,31.6449,马鞍山市,开发区,,43,31,45,30,27,48,,,,16,23,4,4,0.9,0.9
2024-08-14T0700,1800A,118.5228,31.7231,马鞍山市,慈湖,颗粒物(PM10),60,70,43,34,25,42,,,,15,15,5,6,1.0,1
2024-08-14T0700,1802A,118.6245,31.7241,马鞍山市,濮塘,,30,,28,21,21,18,,,,16,11,4,4,1.0,1
2024-08-14T0700,3633A,118.4918,31.6809,马鞍山市,雨山,,38,28,35,26,22,52,,,,12,15,8,7,1.0,1
2024-08-14T0700,1686A,111.0286,21.4688,茂名市,电白南海,,24,24,31,14,20,46,,,,7,12,10,11,0.5,0.6
2024-08-14T0700,1687A,110.9294,21.6533,茂名市,茂石化七小,,20,14,20,14,17,20,,,,10,8,16,12,0.4,0.5
2024-08-14T0700,1688A,110.9107,21.6687,茂名市,健康路,,19,19,17,9,10,29,,,,11,8,16,14,0.6,0.6
2024-08-14T0700,1689A,110.8592,21.6828,茂名市,高岭,,42,31,25,29,18,7,,,,15,12,41,21,0.6,0.5
2024-08-14T0700,3450A,111.01,21.5165,茂名市,电白水东,,20,19,22,14,14,38,,,,8,11,12,11,0.5,0.5
2024-08-14T0700,2539A,104.0308,30.0478,眉山市,黑龙滩水库,颗粒物(PM10),56,61,48,29,28,15,,,,17,11,6,6,0.4,0.3
2024-08-14T0700,2540A,103.8416,30.0874,眉山市,气象局,颗粒物(PM10),68,85,59,34,25,5,,,,62,43,8,8,0.7,0.5
2024-08-14T0700,3137A,103.8578,30.0744,眉山市,市委党校,颗粒物(PM10),56,61,63,19,24,26,,,,54,39,6,8,0.6,0.6
2024-08-14T0700,3148A,103.8291,30.0564,眉山市,区人社局,,43,43,51,24,24,13,,,,73,38,11,11,0.8,0.6
2024-08-14T0700,1690A,116.1231,24.3284,梅州市,梅江月梅,,15,15,17,9,7,37,,,,7,7,8,8,0.4,0.5
2024-08-14T0700,1691A,116.0797,24.2719,梅州市,梅县新城,,15,15,15,7,7,25,,,,11,8,4,4,0.5,0.5
2024-08-14T0700,1692A,116.1248,24.2654,梅州市,环境监控中心,,11,10,18,6,10,33,,,,11,13,5,4,0.4,0.5
2024-08-14T0700,3315A,116.1233,24.2991,梅州市,梅龙,,15,9,10,6,7,45,,,,8,8,9,9,0.5,0.5
2024-08-14T0700,1878A,104.7778,31.4741,绵阳市,富乐山,颗粒物(PM10),52,53,53,29,29,78,,,,12,15,8,9,0.6,0.5
2024-08-14T0700,1879A,104.7563,31.4535,绵阳市,市人大,颗粒物(PM10),58,65,64,27,29,52,,,,30,29,10,10,0.6,0.6
2024-08-14T0700,1880A,104.6697,31.4668,绵阳市,高新区自来水公司,颗粒物(PM10),59,68,67,31,27,77,,,,16,22,9,9,0.5,0.5
2024-08-14T0700,1881A,104.7287,31.5075,绵阳市,三水厂,颗粒物(PM10),63,76,66,42,32,11,,,,37,28,5,6,0.8,0.7
2024-08-14T0700,3491A,104.69,31.5322,绵阳市,西科大附属小学,颗粒物(PM10),57,63,63,28,30,65,,,,24,23,10,11,0.5,0.5
2024-08-14T0700,3492A,104.5648,31.5343,绵阳市,安州区旅游局,细颗粒物(PM2.5),67,68,63,48,38,58,,,,18,17,9,7,0.6,0.6
2024-08-14T0700,1784A,129.61,44.561,牡丹江市,环保大楼,,17,17,22,7,11,13,,,,8,11,9,8,0.3,0.3
2024-08-14T0700,1785A,129.6115,44.5782,牡丹江市,文化广场,,23,19,32,16,24,13,,,,7,14,16,8,0.4,0.5
2024-08-14T0700,1786A,129.5904,44.5963,牡丹江市,第一医院,,22,22,24,15,12,12,,,,8,11,8,6,0.4,0.5
2024-08-14T0700,1787A,129.6364,44.6075,牡丹江市,机车工厂,,18,18,29,12,20,11,,,,6,11,19,14,0.3,0.4
2024-08-14T0700,1788A,129.6386,44.5462,牡丹江市,第一中学,,13,13,30,7,15,13,,,,8,13,7,5,0.4,0.4
2024-08-14T0700,2531A,105.0703,29.61,内江市,市监测站,细颗粒物(PM2.5),55,46,58,39,37,28,,,,34,30,5,3,0.7,0.5
2024-08-14T0700,2532A,105.0717,29.5947,内江市,东兴区政府,颗粒物(PM10),58,65,57,37,27,20,,,,33,27,9,9,1.0,0.9
2024-08-14T0700,2533A,105.0653,29.5817,内江市,内江二中,颗粒物(PM10),61,72,62,30,26,8,,,,36,25,6,7,0.8,0.7
2024-08-14T0700,2534A,105.0406,29.5822,内江市,内江日报社,细颗粒物(PM2.5),58,58,56,41,33,11,,,,52,35,6,9,0.7,0.5
2024-08-14T0700,2628A,92.0657,31.4846,那曲市,那曲监测站,,29,6,18,3,9,91,,,,5,6,5,5,0.3,0.4
2024-08-14T0700,3128A,92.0506,31.4797,那曲市,那曲会议中心,,32,6,16,6,9,100,,,,1,6,4,4,0.3,0.3
2024-08-14T0700,1290A,115.8931,28.6843,南昌市,省外办,,29,29,39,17,18,53,,,,19,16,12,10,0.3,0.4
2024-08-14T0700,1291A,115.8886,28.7003,南昌市,省林业公司,,29,29,24,14,14,43,,,,16,12,11,8,0.6,0.6
2024-08-14T0700,1292A,115.8126,28.7442,南昌市,林科所,,22,22,14,9,10,55,,,,13,10,6,7,0.2,0.3
2024-08-14T0700,1294A,115.8518,28.687,南昌市,建工学校,,,13,20,,14,,,,,,11,,10,,0.5
2024-08-14T0700,1295A,115.8921,28.6424,南昌市,象湖,,20,16,20,8,13,62,,,,11,12,6,7,0.7,0.8
2024-08-14T0700,1298A,115.9314,28.6842,南昌市,省站,,19,13,23,9,17,58,,,,7,11,9,10,0.5,0.6
2024-08-14T0700,3046A,115.9084,28.6062,南昌市,机电学校,,30,30,27,14,14,41,,,,19,13,8,8,0.7,0.7
2024-08-14T0700,3690A,115.9721,28.7031,南昌市,外国语学校,,20,18,25,9,11,64,,,,4,8,7,8,0.5,0.5
2024-08-14T0700,1905A,106.056,30.8064,南充市,西山风景区,颗粒物(PM10),51,51,49,31,28,62,,,,30,26,4,3,0.2,0.1
2024-08-14T0700,1906A,106.0789,30.8023,南充市,南充市委,,49,49,66,29,30,14,,,,19,18,6,6,0.5,0.4
2024-08-14T0700,1907A,106.1031,30.8217,南充市,南充炼油厂,颗粒物(PM10),63,75,77,42,36,22,,,,23,27,8,7,0.4,0.4
2024-08-14T0700,1908A,106.1064,30.7856,南充市,高坪区监测站,颗粒物(PM10),65,80,66,36,29,13,,,,29,29,6,6,0.1,0.2
2024-08-14T0700,1909A,106.0642,30.7636,南充市,嘉陵区环保局,颗粒物(PM10),57,64,66,39,28,12,,,,37,31,8,8,0.6,0.4
2024-08-14T0700,1910A,106.1087,30.8388,南充市,市环境监测站,,49,49,68,30,32,39,,,,21,20,8,8,0.8,0.6
2024-08-14T0700,1151A,118.8086,32.1065,南京市,迈皋桥,,25,25,27,17,16,18,,,,42,26,10,13,0.4,0.4
2024-08-14T0700,1152A,118.7538,32.0551,南京市,草场门,,27,27,29,14,13,17,,,,38,18,6,6,0.6,0.5
2024-08-14T0700,1153A,118.7794,32.0745,南京市,山西路,,41,41,35,17,18,17,,,,36,13,5,4,0.5,0.5
2024-08-14T0700,1154A,118.7752,32.0023,南京市,中华门,,29,29,30,19,15,50,,,,22,22,4,4,0.8,0.7
2024-08-14T0700,1155A,118.8109,32.0309,南京市,瑞金路,,39,39,38,22,16,42,,,,18,11,6,7,0.7,0.6
2024-08-14T0700,1156A,118.7997,32.0754,南京市,玄武湖,,34,34,36,18,13,11,,,,21,10,6,5,0.6,0.7
2024-08-14T0700,1157A,118.6414,32.0931,南京市,浦口,,26,26,33,9,15,22,,,,18,15,7,7,0.7,0.6
2024-08-14T0700,1158A,118.7356,31.9996,南京市,奥体中心,,28,26,31,19,19,58,,,,20,19,8,9,0.4,0.5
2024-08-14T0700,1159A,118.9125,32.1028,南京市,仙林大学城,,32,31,34,22,18,24,,,,33,22,8,8,0.6,0.6
2024-08-14T0700,3422A,118.8436,31.9198,南京市,江宁彩虹桥,,32,,33,22,16,43,,,,21,17,5,4,1.0,0.9
2024-08-14T0700,3423A,119.0138,31.6494,南京市,溧水永阳,,29,29,26,12,17,32,,,,24,16,3,4,0.7,0.5
2024-08-14T0700,3424A,118.879,31.3302,南京市,高淳老职中,,29,23,29,20,19,56,,,,14,11,7,5,0.7,0.5
2024-08-14T0700,3427A,118.8554,32.3578,南京市,六合雄州,,44,44,37,14,17,36,,,,2,4,3,3,0.6,0.6
2024-08-14T0700,1401A,108.3103,22.7881,南宁市,二十一中,,30,30,20,11,12,24,,,,14,15,3,3,0.7,0.7
2024-08-14T0700,1402A,108.3141,22.8528,南宁市,北湖,,49,49,23,12,11,14,,,,20,18,4,3,0.7,0.7
2024-08-14T0700,1403A,108.3206,22.8225,南宁市,市监测站,,25,25,18,13,13,21,,,,14,18,5,5,0.7,0.8
2024-08-14T0700,1404A,108.3829,22.8037,南宁市,大自然花园,,30,30,19,16,12,19,,,,14,14,4,4,0.7,0.7
2024-08-14T0700,1405A,108.4394,22.7904,南宁市,仙葫,细颗粒物(PM2.5),54,,17,38,13,24,,,,12,10,6,5,0.8,0.7
2024-08-14T0700,1406A,108.2397,22.8467,南宁市,区农职院,,46,46,26,13,14,2,,,,22,22,9,7,0.7,0.8
2024-08-14T0700,1407A,108.3275,22.735,南宁市,英华嘉园,,28,25,23,19,14,14,,,,15,20,5,5,0.6,0.6
2024-08-14T0700,1408A,108.2257,22.7757,南宁市,沙井镇街道办,,33,33,35,18,18,4,,,,29,31,2,2,0.7,0.7
2024-08-14T0700,3401A,108.4834,22.7618,南宁市,红星社区,,40,40,23,18,9,17,,,,11,16,5,5,0.7,0.7
2024-08-14T0700,2332A,118.1681,26.6369,南平市,南平市监测站,,22,22,20,12,12,32,,,,10,10,7,5,0.7,0.6
2024-08-14T0700,2333A,118.1825,26.6489,南平市,南平铝业有限公司,,22,22,19,11,12,36,,,,10,10,6,7,0.5,0.6
2024-08-14T0700,2334A,118.1756,26.6272,南平市,南平七中,,29,29,25,9,12,19,,,,5,7,4,5,0.5,0.6
2024-08-14T0700,1168A,120.9098,31.9663,南通市,狼山街道,,18,16,21,3,15,57,,,,8,14,6,6,0.4,0.6
2024-08-14T0700,1169A,120.86,32.0005,南通市,虹桥,,19,19,27,3,16,58,,,,7,16,5,5,0.6,0.8
2024-08-14T0700,1170A,120.87,32.02,南通市,城中,,30,30,31,6,14,59,,,,9,11,7,6,0.6,0.7
2024-08-14T0700,1171A,120.94,31.93,南通市,星湖花园,,18,9,20,3,11,56,,,,12,18,3,4,0.6,0.7
2024-08-14T0700,1172A,120.81,32.0417,南通市,紫琅学院,,15,11,21,3,13,46,,,,16,24,6,6,0.7,0.8
2024-08-14T0700,3291A,121.067,32.062,南通市,通州监测站,,20,17,31,3,13,62,,,,5,6,3,4,0.6,0.7
2024-08-14T0700,3432A,120.9348,31.9883,南通市,环境教育馆,,22,22,32,3,16,48,,,,20,20,9,8,0.5,0.6
2024-08-14T0700,2404A,112.5224,33.0122,南阳市,瓦房庄,颗粒物(PM10),51,52,36,24,17,87,,,,13,11,6,6,0.6,0.6
2024-08-14T0700,2405A,112.5003,32.9735,南阳市,汉画馆,,46,46,38,22,21,91,,,,12,11,5,6,0.6,0.6
2024-08-14T0700,2406A,112.5573,33.027,南阳市,气象站,颗粒物(PM10),53,56,38,19,16,79,,,,15,11,8,8,0.7,0.6
2024-08-14T0700,2407A,112.5481,32.9689,南阳市,理工学院,,34,34,31,13,10,107,,,,12,11,8,7,0.6,0.5
2024-08-14T0700,4008A,112.5234,32.9922,南阳市,卧龙区政府,,42,42,32,23,17,91,,,,14,15,6,6,0.6,0.6
2024-08-14T0700,1234A,121.8358,29.911,宁波市,区环保大楼,,35,35,39,19,23,26,,,,47,30,10,9,1.0,0.8
2024-08-14T0700,1235A,121.56,29.82,宁波市,万里学院,,45,44,42,31,26,42,,,,31,14,10,9,0.7,0.7
2024-08-14T0700,1236A,121.713,29.9572,宁波市,龙赛医院,,22,22,39,12,21,37,,,,36,17,19,10,0.6,0.6
2024-08-14T0700,1239A,121.633,29.7733,宁波市,钱湖水厂,,24,24,31,14,18,43,,,,6,8,6,6,0.6,0.7
2024-08-14T0700,1240A,121.5856,29.8635,宁波市,太古小学,颗粒物(PM10),58,66,40,22,22,34,,,,30,12,6,6,0.8,0.9
2024-08-14T0700,1241A,121.524,29.8674,宁波市,市环境监测中心,,35,35,38,18,21,54,,,,23,16,3,4,0.7,0.7
2024-08-14T0700,2871A,121.6147,29.9017,宁波市,万里国际学校,,37,37,34,22,27,38,,,,34,19,6,6,0.5,0.5
2024-08-14T0700,3710A,121.5594,29.8975,宁波市,白沙活动中心,,33,33,40,20,20,50,,,,29,15,8,7,0.5,0.5
2024-08-14T0700,2341A,119.5388,26.6612,宁德市,宁德市监测站,,20,16,28,14,21,35,,,,9,11,5,5,0.5,0.5
2024-08-14T0700,3209A,119.5231,26.6562,宁德市,宁德一中,,19,19,31,3,14,29,,,,8,8,4,4,1.0,1.1
2024-08-14T0700,2618A,98.8601,25.8567,怒江傈僳族自治州,州监测站,,39,39,28,14,12,24,,,,13,11,11,11,0.5,0.5
2024-08-14T0700,2619A,98.8546,25.8417,怒江傈僳族自治州,泸水一中,,20,17,19,14,12,13,,,,20,14,5,5,0.5,0.5
2024-08-14T0700,1888A,101.6891,26.571,攀枝花市,弄弄坪,,43,43,52,13,24,23,,,,46,25,12,19,0.9,0.9
2024-08-14T0700,1889A,101.5769,26.5928,攀枝花市,河门口,,45,45,43,27,23,38,,,,29,22,14,13,0.9,1
2024-08-14T0700,1890A,101.7169,26.585,攀枝花市,炳草岗,颗粒物(PM10),54,58,57,36,28,21,,,,40,31,18,18,0.9,0.9
2024-08-14T0700,1891A,101.7369,26.5008,攀枝花市,仁和,,36,36,41,18,23,42,,,,24,17,5,13,0.7,0.7
2024-08-14T0700,2835A,101.7227,26.567,攀枝花市,四十中小,,48,48,51,23,27,41,,,,28,36,13,13,1.1,1.1
2024-08-14T0700,1604A,122.0303,41.1489,盘锦市,开发区,,15,11,17,10,8,45,,,,10,8,6,5,0.5,0.5
2024-08-14T0700,1605A,122.0485,41.0883,盘锦市,兴隆台,,20,20,18,7,5,44,,,,12,9,10,7,0.4,0.4
2024-08-14T0700,1606A,121.8297,41.1028,盘锦市,新生街道,,15,15,14,8,7,42,,,,10,9,4,4,0.5,0.6
2024-08-14T0700,1832A,113.3257,33.742,平顶山市,新华旅馆,颗粒物(PM10),51,51,41,22,26,83,,,,12,13,6,7,0.6,0.5
2024-08-14T0700,1833A,113.2919,33.737,平顶山市,规划设计院,,30,24,29,16,14,93,,,,13,15,7,8,0.9,0.8
2024-08-14T0700,1834A,113.182,33.774,平顶山市,平顶山工学院,,44,44,32,17,11,75,,,,18,15,9,8,0.9,0.8
2024-08-14T0700,3204A,113.3025,33.73,平顶山市,规划局,,41,41,36,26,20,89,,,,11,12,3,4,0.9,0.8
2024-08-14T0700,3594A,112.8867,33.9116,平顶山市,石龙区,颗粒物(PM10),54,58,51,25,21,39,,,,60,31,10,10,0.5,0.5
2024-08-14T0700,2656A,106.6692,35.5461,平凉市,聚贤嘉苑,,44,44,38,22,15,62,,,,42,20,8,8,0.4,0.4
2024-08-14T0700,2657A,106.7021,35.5307,平凉市,博物馆,颗粒物(PM10),52,53,46,21,16,79,,,,33,27,11,12,0.5,0.7
2024-08-14T0700,2347A,114.0997,27.5002,萍乡市,武功山,,11,11,8,3,3,16,,,,3,3,16,15,0.2,0.2
2024-08-14T0700,2348A,113.8385,27.6434,萍乡市,中医院,,43,43,30,25,20,27,,,,14,11,12,9,0.8,0.9
2024-08-14T0700,2349A,113.8493,27.6253,萍乡市,市政府车库,,39,39,25,22,15,16,,,,13,8,22,13,0.9,0.8
2024-08-14T0700,2350A,113.8676,27.6435,萍乡市,市环保局,,36,36,27,19,20,22,,,,10,9,12,12,1.0,1
2024-08-14T0700,2351A,113.866,27.6198,萍乡市,安源区政府,,33,33,26,15,8,15,,,,14,10,17,10,0.9,0.6
2024-08-14T0700,2319A,119.0141,25.4325,莆田市,荔城区仓后路,,22,22,36,7,17,47,,,,10,10,6,6,0.6,0.6
2024-08-14T0700,2320A,119.0015,25.4553,莆田市,莆田市监测站,,16,16,34,7,12,41,,,,6,8,5,6,0.5,0.6
2024-08-14T0700,2321A,119.1119,25.4561,莆田市,涵江区六中,,20,20,34,7,18,48,,,,10,10,7,6,0.6,0.7
2024-08-14T0700,2322A,119.1013,25.3215,莆田市,秀屿区政府,,30,30,36,10,20,46,,,,16,14,7,7,0.6,0.7
2024-08-14T0700,2392A,115.0312,35.7636,濮阳市,环保局,,45,33,28,31,16,60,,,,9,11,5,6,0.5,0.5
2024-08-14T0700,2394A,115.0574,35.7609,濮阳市,油田运输公司,,40,40,27,27,16,61,,,,6,7,1,3,0.5,0.5
2024-08-14T0700,2395A,115.0866,35.7754,濮阳市,油田物探公司,,45,43,31,31,18,62,,,,6,8,4,5,0.5,0.5
2024-08-14T0700,3021A,115,35.7668,濮阳市,濮水河管理处,细颗粒物(PM2.5),78,,29,57,20,56,,,,6,8,3,3,0.7,0.6
2024-08-14T0700,2601A,100.98,22.7633,普洱市,市环保局,,25,25,30,12,16,14,,,,8,7,10,10,0.5,0.5
2024-08-14T0700,2602A,100.9817,22.8322,普洱市,普洱第二中学,,26,26,32,14,12,5,,,,13,11,5,5,0.4,0.5
2024-08-14T0700,2262A,131.0518,45.8751,七台河市,新一中,,20,,16,14,10,17,,,,16,12,11,10,1.2,0.9
2024-08-14T0700,3345A,131.0577,45.7879,七台河市,中波台,,13,13,12,7,7,19,,,,23,20,10,10,0.4,0.4
2024-08-14T0700,3637A,131.0176,45.7761,七台河市,人民广场,,26,26,25,3,12,22,,,,18,17,11,12,0.4,0.4
2024-08-14T0700,3684A,130.8781,45.8222,七台河市,新建矿广场,,27,27,30,7,11,15,,,,22,18,9,10,0.4,0.4
2024-08-14T0700,1779A,123.9305,47.3636,齐齐哈尔市,安居小区,,26,26,22,15,11,27,,,,22,15,6,6,0.5,0.5
2024-08-14T0700,1780A,123.9488,47.3386,齐齐哈尔市,中心广场,,15,15,22,3,9,46,,,,16,16,2,2,0.4,0.4
2024-08-14T0700,1781A,123.9483,47.3227,齐齐哈尔市,农牧车辆厂,,41,41,30,3,7,43,,,,20,12,8,8,0.3,0.2
2024-08-14T0700,1783A,123.945,47.2988,齐齐哈尔市,市环境监测站,,37,37,22,11,13,24,,,,26,14,7,7,0.5,0.4
2024-08-14T0700,3662A,123.6333,47.2075,齐齐哈尔市,富区青少年活动中心,,34,34,20,3,3,25,,,,23,14,4,4,0.5,0.5
2024-08-14T0700,2591A,107.9783,26.5747,黔东南苗族侗族自治州,市环境监测站,,36,36,41,17,18,25,,,,16,19,4,4,0.4,0.5
2024-08-14T0700,2881A,107.8908,26.5311,黔东南苗族侗族自治州,凯里学院,,24,24,39,16,18,19,,,,13,10,4,5,0.4,0.4
2024-08-14T0700,2593A,107.5228,26.2403,黔南布依族苗族自治州,小围寨,,24,24,31,9,11,33,,,,6,7,4,5,0.4,0.4
2024-08-14T0700,3538A,107.5175,26.2978,黔南布依族苗族自治州,沙坝,,27,27,37,9,12,23,,,,11,13,3,4,0.4,0.4
2024-08-14T0700,2589A,104.9022,25.0925,黔西南布依族苗族自治州,场坝街,,35,34,33,24,18,28,,,,17,14,60,17,0.2,0.2
2024-08-14T0700,2590A,104.8811,25.0992,黔西南布依族苗族自治州,坪东大道,,38,38,35,21,17,22,,,,21,11,8,7,0.4,0.3
2024-08-14T0700,2502A,108.6236,21.9667,钦州市,市环保站,,19,19,20,9,8,15,,,,13,17,7,7,0.7,0.7
2024-08-14T0700,2503A,108.6549,21.9481,钦州市,沙埠小学,,28,28,23,12,12,9,,,,15,15,4,5,0.6,0.6
2024-08-14T0700,2504A,108.5989,21.7431,钦州市,港区一小,,22,22,33,14,11,9,,,,23,22,8,8,0.7,0.6
2024-08-14T0700,3404A,108.5959,21.9633,钦州市,北职校,,31,31,26,15,14,10,,,,16,18,5,6,0.7,0.7
2024-08-14T0700,1042A,119.5134,39.8207,秦皇岛市,北戴河环保局,,19,19,23,3,5,60,,,,11,9,2,1,0.3,0.3
2024-08-14T0700,1043A,119.7493,40.0116,秦皇岛市,第一关,,20,18,24,14,17,49,,,,22,13,3,3,0.3,0.3
2024-08-14T0700,1044A,119.5897,39.9499,秦皇岛市,监测站,,38,38,37,20,20,58,,,,6,8,3,3,0.4,0.4
2024-08-14T0700,1046A,119.5251,39.9041,秦皇岛市,建设大厦,,29,29,21,3,6,55,,,,12,7,3,3,0.2,0.3
2024-08-14T0700,3132A,119.610547,39.943889,秦皇岛市,文明里,,24,24,23,3,6,60,,,,6,6,1,2,0.5,0.5
2024-08-14T0700,1307A,120.6659,36.2403,青岛市,仰口,,23,,44,16,23,54,,,,4,6,6,6,0.1,0.3
2024-08-14T0700,1310A,120.4134,36.0658,青岛市,市南区东部子站,,22,22,37,3,13,51,,,,14,7,7,7,0.5,0.6
2024-08-14T0700,1311A,120.3664,36.1032,青岛市,四方区子站,,32,,38,22,19,57,,,,22,8,16,10,0.6,0.7
2024-08-14T0700,1312A,120.2994,36.054,青岛市,市南区西部子站,,31,31,44,12,16,53,,,,12,16,8,8,0.7,0.7
2024-08-14T0700,1313A,120.4581,36.0858,青岛市,崂山区子站,,17,17,41,7,15,53,,,,18,11,7,8,0.6,0.6
2024-08-14T0700,1314A,120.1983,35.9608,青岛市,黄岛区子站,,41,36,44,20,22,10,,,,81,18,17,8,0.5,0.7
2024-08-14T0700,1315A,120.3999,36.3083,青岛市,城阳区子站,,24,24,43,12,17,46,,,,21,18,6,8,0.6,0.7
2024-08-14T0700,1966A,120.0405,35.8735,青岛市,黄岛区4号,,44,44,41,24,19,21,,,,45,13,8,7,0.7,0.6
2024-08-14T0700,3362A,120.5014,36.4034,青岛市,即墨2号,,22,20,47,11,24,68,,,,8,9,5,6,0.4,0.5
2024-08-14T0700,3642A,120.3503,36.0736,青岛市,市北区南部,,19,19,45,12,17,53,,,,29,12,9,8,0.6,0.7
2024-08-14T0700,3643A,120.3948,36.1805,青岛市,李沧区北部,,36,36,43,17,20,41,,,,34,15,8,8,0.4,0.4
2024-08-14T0700,1702A,113.0426,23.691,清远市,环保大楼,,34,34,28,19,14,38,,,,12,11,7,6,0.6,0.5
2024-08-14T0700,1703A,113.0208,23.7106,清远市,凤城街办,,29,29,26,18,15,19,,,,13,11,5,5,0.6,0.6
2024-08-14T0700,3025A,113.0477,23.6344,清远市,技师学院,,39,39,33,22,16,45,,,,17,15,6,5,0.6,0.8
2024-08-14T0700,3318A,112.9903,23.7403,清远市,清新太和,,30,30,29,16,16,33,,,,6,8,4,4,0.6,0.6
2024-08-14T0700,3455A,113.076,23.7198,清远市,清城东城,,24,24,24,16,16,19,,,,7,6,6,6,0.8,0.8
2024-08-14T0700,2661A,107.6325,35.7357,庆阳市,庆阳五中,,38,31,39,17,14,120,,,,10,9,9,7,0.4,0.4
2024-08-14T0700,2662A,107.6364,35.7067,庆阳市,市环保局,,42,29,31,13,12,132,,,,9,9,15,9,0.4,0.4
2024-08-14T0700,1916A,103.7897,25.5035,曲靖市,环境监测站,颗粒物(PM10),51,51,54,23,19,14,,,,31,16,6,8,1.0,0.8
2024-08-14T0700,1917A,103.8,25.5364,曲靖市,烟厂办公区,颗粒物(PM10),57,64,53,35,20,16,,,,31,16,4,5,1.0,0.6
2024-08-14T0700,3376A,103.7947,25.462,曲靖市,南苑二区,,41,41,61,15,20,34,,,,16,13,8,11,0.6,0.6
2024-08-14T0700,3377A,103.7444,25.5261,曲靖市,曲靖师范学院,颗粒物(PM10),51,52,51,32,25,19,,,,30,19,23,15,0.5,0.5
2024-08-14T0700,1264A,118.8692,28.9398,衢州市,环保大楼,,20,19,18,14,13,59,,,,12,12,4,5,0.4,0.4
2024-08-14T0700,1265A,118.8709,28.9666,衢州市,实验学校,,19,17,19,10,13,58,,,,10,10,5,5,0.3,0.3
2024-08-14T0700,1266A,118.8621,28.9808,衢州市,衢州学院,,15,14,19,10,12,48,,,,18,12,4,4,0.5,0.6
2024-08-14T0700,1611A,118.5819,24.9117,泉州市,涂山街,,48,48,49,29,28,17,,,,19,24,5,5,0.8,0.7
2024-08-14T0700,1612A,118.5972,24.8978,泉州市,津头埔,颗粒物(PM10),51,52,52,31,30,16,,,,24,28,4,4,0.9,0.8
2024-08-14T0700,1613A,118.6663,24.9424,泉州市,万安,,41,41,45,28,29,14,,,,24,23,2,2,0.7,0.6
2024-08-14T0700,3529A,118.6333,24.9264,泉州市,城华南路,,33,28,42,23,33,40,,,,7,14,3,3,0.6,0.6
2024-08-14T0700,2626A,88.8876,29.2718,日喀则市,日喀则监测站,,27,6,3,3,2,86,,,,4,5,6,5,0.6,0.6
2024-08-14T0700,3726A,88.8781,29.2426,日喀则市,林业技术推广中心,,23,,3,3,4,71,,,,5,7,6,6,0.5,0.6
2024-08-14T0700,1659A,119.471,35.4209,日照市,监测站,,36,36,48,23,26,66,,,,16,14,10,9,0.6,0.7
2024-08-14T0700,1660A,119.523,35.4216,日照市,市政府广场,,34,34,49,16,24,65,,,,11,9,11,10,0.6,0.7
2024-08-14T0700,1661A,119.5587,35.4044,日照市,港务局,,36,36,51,24,25,62,,,,10,8,10,10,0.5,0.5
2024-08-14T0700,3507A,119.5328,35.4625,日照市,职业技术学院,,39,36,53,27,26,63,,,,17,13,10,10,0.7,0.7
2024-08-14T0700,3604A,119.3266,35.1044,日照市,岚山环保分局,,41,41,62,20,21,62,,,,19,13,9,9,0.6,0.8
2024-08-14T0700,1835A,111.1922,34.7752,三门峡市,市政府,细颗粒物(PM2.5),55,44,41,39,20,94,,,,10,13,9,11,0.7,0.6
2024-08-14T0700,1836A,111.1587,34.7942,三门峡市,开发区,颗粒物(PM10),59,68,42,23,18,94,,,,14,15,8,11,0.6,0.6
2024-08-14T0700,3039A,111.1911,34.7829,三门峡市,三门峡市第一小学,细颗粒物(PM2.5),82,,39,60,30,90,,,,10,11,8,10,0.7,0.6
2024-08-14T0700,3598A,111.1,34.7167,三门峡市,富达温泉假日酒店,细颗粒物(PM2.5),78,61,42,57,22,89,,,,12,14,10,10,0.5,0.5
2024-08-14T0700,2324A,117.6211,26.2625,三明市,三钢,,40,32,24,28,20,31,,,,12,12,10,9,0.2,0.4
2024-08-14T0700,2325A,117.635,26.2714,三明市,三明二中,,20,20,25,12,15,31,,,,11,11,6,6,0.7,0.8
2024-08-14T0700,2326A,117.6028,26.2378,三明市,三元区政府,,26,26,27,8,16,30,,,,12,13,4,5,0.7,0.8
2024-08-14T0700,1876A,109.5078,18.2489,三亚市,河东子站,,22,22,15,6,7,20,,,,7,6,2,2,0.4,0.4
2024-08-14T0700,1877A,109.4964,18.2681,三亚市,河西子站,,14,14,14,3,6,11,,,,8,7,2,2,0.3,0.3
2024-08-14T0700,3540A,109.7348,18.3443,三亚市,君悦子站,,12,12,18,3,7,12,,,,9,13,1,2,0.3,0.3
2024-08-14T0700,2624A,91.7608,29.2313,山南市,山南监测站,,29,,10,3,4,92,,,,1,5,6,7,0.2,0.2
2024-08-14T0700,2625A,91.7706,29.2436,山南市,山南人民医院,,29,6,24,3,10,90,,,,4,8,7,7,0.2,0.2
2024-08-14T0700,1674A,116.6794,23.3667,汕头市,金平子站,,17,12,23,8,10,52,,,,4,9,4,6,0.8,1
2024-08-14T0700,1675A,116.7244,23.3633,汕头市,龙湖子站,,,11,22,3,10,,,,,9,13,6,6,0.6,0.6
2024-08-14T0700,1676A,116.7258,23.2775,汕头市,濠江子站,细颗粒物(PM2.5),60,,27,43,19,21,,,,15,13,6,6,0.8,0.8
2024-08-14T0700,1677A,116.7519,23.4714,汕头市,澄海子站,,28,26,32,19,20,20,,,,23,22,9,6,1.1,0.9
2024-08-14T0700,1678A,116.6092,23.2539,汕头市,潮阳子站,,16,,23,11,13,36,,,,8,8,5,5,0.7,0.6
2024-08-14T0700,3444A,116.454,23.2684,汕头市,潮南峡山,,17,17,21,3,13,26,,,,11,7,5,5,0.3,0.3
2024-08-14T0700,3624A,116.4069,23.2533,汕头市,潮南子站,,26,24,27,18,15,35,,,,12,12,4,4,0.9,0.7
2024-08-14T0700,1693A,115.3653,22.775,汕尾市,市环保局,,20,20,18,11,12,50,,,,15,13,6,6,0.5,0.5
2024-08-14T0700,1694A,115.3706,22.7898,汕尾市,市政府,,21,21,16,12,10,39,,,,9,8,6,6,0.4,0.4
2024-08-14T0700,1695A,115.3622,22.7925,汕尾市,新城中学,,18,18,22,8,11,30,,,,18,14,6,6,0.6,0.5
2024-08-14T0700,2645A,109.9154,33.8715,商洛市,监测站,,24,24,29,12,12,24,,,,14,14,2,3,0.6,0.5
2024-08-14T0700,3045A,109.9643,33.8471,商洛市,商州区中学,,26,21,34,18,15,29,,,,16,16,5,6,0.5,0.5
2024-08-14T0700,2408A,115.6702,34.4285,商丘市,环境监测站,颗粒物(PM10),55,60,51,27,21,54,,,,10,12,4,6,0.8,0.7
2024-08-14T0700,2409A,115.6458,34.4045,商丘市,粮食局,颗粒物(PM10),55,60,51,19,18,62,,,,10,11,6,6,1.1,1
2024-08-14T0700,2410A,115.6293,34.3948,商丘市,睢阳区环保局,细颗粒物(PM2.5),55,58,47,39,23,62,,,,9,7,8,8,0.7,0.6
2024-08-14T0700,3171A,115.6071,34.4465,商丘市,梁园区档案局,细颗粒物(PM2.5),54,,44,38,23,56,,,,11,12,6,7,0.7,0.7
2024-08-14T0700,1141A,121.4,31.238,上海市,普陀,,18,17,29,3,17,57,,,,22,15,6,5,0.3,0.4
2024-08-14T0700,1142A,121.478,31.2036,上海市,十五厂,,18,15,27,9,20,57,,,,23,16,8,8,0.4,0.5
2024-08-14T0700,1143A,121.467,31.3008,上海市,虹口,,21,15,24,8,22,36,,,,42,18,8,7,0.5,0.6
2024-08-14T0700,1144A,121.412,31.1654,上海市,徐汇上师大,,26,26,33,13,22,50,,,,27,18,4,4,0.7,0.8
2024-08-14T0700,1145A,121.536,31.2659,上海市,杨浦四漂,,,,40,,29,,,,,,18,,6,,0.7
2024-08-14T0700,1147A,121.425,31.2261,上海市,静安监测站,,18,16,29,6,19,56,,,,21,14,6,5,0.5,0.6
2024-08-14T0700,1148A,121.703,31.1907,上海市,浦东川沙,,20,17,22,9,17,63,,,,25,20,6,6,0.6,0.6
2024-08-14T0700,1149A,121.533,31.2284,上海市,浦东新区监测站,,16,16,23,10,19,48,,,,25,16,5,5,0.5,0.6
2024-08-14T0700,1150A,121.577,31.2071,上海市,浦东张江,,18,18,26,12,24,52,,,,23,20,5,5,0.6,0.6
2024-08-14T0700,3265A,121.4316,31.3322,上海市,宝山庙行,,27,19,24,13,21,23,,,,53,19,6,5,1.3,1.4
2024-08-14T0700,3266A,121.8791,31.4662,上海市,崇明上实东滩,,23,18,21,8,14,72,,,,5,8,8,7,0.7,0.7
2024-08-14T0700,3268A,121.3162,31.2838,上海市,嘉定南翔,,16,14,27,11,20,47,,,,27,21,6,6,0.5,0.6
2024-08-14T0700,3269A,121.3359,30.7456,上海市,金山新城,,22,12,28,10,19,68,,,,11,8,7,7,0.6,0.6
2024-08-14T0700,3270A,121.4996,31.0739,上海市,闵行浦江,,23,16,28,16,26,43,,,,33,16,7,6,0.6,0.6
2024-08-14T0700,3271A,121.2886,31.1663,上海市,青浦徐泾,,17,14,30,8,19,54,,,,23,18,7,6,0.5,0.6
2024-08-14T0700,3272A,121.2186,31.0378,上海市,松江图书馆,,18,18,31,10,19,36,,,,33,22,5,5,0.6,0.7
2024-08-14T0700,3273A,121.3902,31.2059,上海市,长宁仙霞,,19,15,28,11,19,59,,,,21,16,8,8,0.6,0.6
2024-08-14T0700,3274A,121.7965,31.0507,上海市,浦东惠南,,19,18,29,3,20,59,,,,17,14,8,7,0.6,0.6
2024-08-14T0700,3544A,121.4891,30.925,上海市,奉贤南桥新城,,23,23,31,12,23,41,,,,23,17,8,7,0.6,0.7
2024-08-14T0700,2381A,118.005,28.4572,上饶市,百草园,,24,24,21,14,14,46,,,,2,3,1,2,0.5,0.5
2024-08-14T0700,2382A,117.9756,28.4436,上饶市,市监测站,,23,23,22,7,12,52,,,,9,8,6,5,0.5,0.6
2024-08-14T0700,2383A,117.9519,28.4628,上饶市,凤凰光学,,20,20,24,9,13,43,,,,7,8,5,6,0.9,0.9
2024-08-14T0700,3413A,118.1953,28.4401,上饶市,广丰区教体局,,24,24,24,12,14,40,,,,8,7,12,10,0.9,0.8
2024-08-14T0700,3685A,117.897,28.4315,上饶市,双创科技城,,25,24,32,17,13,45,,,,6,9,6,7,0.5,0.6
2024-08-14T0700,1669A,113.5824,24.7733,韶关市,市八中,,21,21,27,9,13,9,,,,9,11,12,17,0.6,0.7
2024-08-14T0700,1671A,113.5917,24.7972,韶关市,园林处,,36,36,24,24,18,6,,,,17,14,12,14,0.9,0.7
2024-08-14T0700,1672A,113.6735,24.7791,韶关市,韶关学院,,33,33,31,16,18,13,,,,9,13,18,18,0.4,0.7
2024-08-14T0700,1673A,113.5971,24.6863,韶关市,曲江监测站,,30,30,25,11,12,11,,,,15,14,10,12,0.6,0.5
2024-08-14T0700,3622A,113.5556,24.8082,韶关市,碧湖山庄,,45,45,28,17,12,6,,,,7,9,9,11,0.7,0.6
2024-08-14T0700,2462A,111.5239,27.3033,邵阳市,市水土所,,33,33,37,12,19,32,,,,6,5,5,6,0.6,0.6
2024-08-14T0700,2463A,111.4733,27.2317,邵阳市,市一中,,36,36,39,18,22,75,,,,5,6,17,13,0.7,0.7
2024-08-14T0700,2464A,111.5283,27.2442,邵阳市,市化工厂,,39,39,37,27,24,64,,,,6,6,18,12,0.4,0.6
2024-08-14T0700,2465A,111.4503,27.2537,邵阳市,市罐头厂,,43,43,38,21,25,57,,,,8,7,18,13,0.4,0.4
2024-08-14T0700,2466A,111.4328,27.2272,邵阳市,市环保局,,31,31,37,21,23,59,,,,6,6,19,15,0.3,0.3
2024-08-14T0700,1247A,120.6053,29.9928,绍兴市,城东开发委,,39,35,28,27,19,43,,,,16,12,6,6,0.7,0.6
2024-08-14T0700,2921A,120.5483,30.0003,绍兴市,树下王站,,30,30,24,18,18,36,,,,15,10,4,4,0.8,0.7
2024-08-14T0700,3408A,120.5683,29.9361,绍兴市,绍兴中专,,32,26,28,22,20,30,,,,22,15,3,3,0.7,0.7
2024-08-14T0700,3409A,120.4906,30.0861,绍兴市,柯桥区政府,,29,29,24,19,20,64,,,,14,12,6,6,0.8,0.7
2024-08-14T0700,3410A,120.8752,30.0249,绍兴市,重华小学,,35,31,36,24,25,69,,,,17,15,6,6,0.9,0.9
2024-08-14T0700,3411A,120.8369,30.0137,绍兴市,上虞中学,,39,34,37,27,27,45,,,,22,16,5,5,0.7,0.7
2024-08-14T0700,3560A,120.4722,30.0415,绍兴市,柯桥妇保,,33,30,28,23,21,28,,,,14,10,6,6,0.7,0.6
2024-08-14T0700,3658A,120.6153,30.0764,绍兴市,袍江中学,,24,24,23,16,15,69,,,,13,10,2,2,0.7,0.7
2024-08-14T0700,1356A,114.1063,22.5545,深圳市,通心岭子站,,23,,18,12,9,5,,,,10,12,69,8,0.7,0.6
2024-08-14T0700,1357A,114.117,22.5625,深圳市,洪湖,,25,25,24,9,11,0,,,,32,31,6,6,0.5,0.5
2024-08-14T0700,1358A,113.987,22.5417,深圳市,华侨城,,17,17,18,3,11,32,,,,6,18,5,4,0.5,0.6
2024-08-14T0700,1359A,113.9181,22.5171,深圳市,南海子站,,17,17,26,8,10,22,,,,26,34,7,7,0.5,0.5
2024-08-14T0700,1360A,114.2458,22.5689,深圳市,盐田,,33,33,29,12,13,0,,,,42,45,7,7,0.5,0.4
2024-08-14T0700,1361A,114.2283,22.7244,深圳市,龙岗,,35,35,36,22,20,4,,,,27,24,5,4,1.0,0.8
2024-08-14T0700,1363A,114.494,22.5422,深圳市,南澳,,16,16,15,8,7,9,,,,14,9,7,7,0.6,0.5
2024-08-14T0700,1364A,114.41,22.6342,深圳市,葵涌,,20,20,18,6,7,6,,,,15,13,6,6,0.7,0.7
2024-08-14T0700,1365A,114.297,22.5978,深圳市,梅沙,,28,28,24,12,11,0,,,,38,24,6,5,0.6,0.4
2024-08-14T0700,1366A,114.0678,22.738,深圳市,观澜,,23,23,38,11,20,15,,,,28,26,5,5,0.5,0.5
2024-08-14T0700,3305A,114.0731,22.559,深圳市,莲花,,22,22,21,12,12,10,,,,19,19,5,6,0.5,0.5
2024-08-14T0700,3306A,114.0261,22.6198,深圳市,民治,,12,9,20,7,12,20,,,,24,32,6,6,0.5,0.6
2024-08-14T0700,3307A,114.1871,22.6451,深圳市,横岗,,33,33,33,21,20,6,,,,33,39,7,6,0.7,0.6
2024-08-14T0700,3447A,114.3551,22.7151,深圳市,坪山,,25,25,28,14,16,1,,,,32,36,2,2,0.8,0.6
2024-08-14T0700,3623A,113.8953,22.5861,深圳市,西乡,,14,14,23,8,10,30,,,,12,30,6,6,0.5,0.6
2024-08-14T0700,1099A,123.505,41.7406,沈阳市,浑南东路,,29,29,26,12,12,30,,,,22,23,5,6,0.6,0.7
2024-08-14T0700,1100A,123.4231,41.6989,沈阳市,新秀街,,25,25,21,11,11,41,,,,16,17,5,4,0.6,0.6
2024-08-14T0700,1102A,123.5903,41.8411,沈阳市,东陵路,,28,28,29,11,10,24,,,,14,18,8,8,0.7,1
2024-08-14T0700,1103A,123.4264,41.8467,沈阳市,陵东街,,23,23,19,14,10,23,,,,25,20,6,6,0.6,0.7
2024-08-14T0700,1104A,123.4114,41.7653,沈阳市,文化路,,30,30,26,14,12,29,,,,28,19,9,8,0.5,0.4
2024-08-14T0700,1105A,123.4678,41.7867,沈阳市,小河沿,,25,25,24,11,11,31,,,,27,22,7,6,1.0,1
2024-08-14T0700,1106A,123.4017,41.7972,沈阳市,太原街,,27,27,23,17,14,22,,,,25,21,5,4,0.5,0.5
2024-08-14T0700,1108A,123.3783,41.9228,沈阳市,京沈街,,,18,21,13,11,33,,,,17,15,,10,0.6,0.6
2024-08-14T0700,2897A,123.2444,41.7347,沈阳市,沈辽西路,,30,30,27,13,12,18,,,,38,26,7,7,0.7,0.6
2024-08-14T0700,2900A,123.5953,41.9086,沈阳市,裕农路,,35,35,28,15,10,31,,,,11,19,5,6,0.6,0.7
2024-08-14T0700,2428A,111.0419,32.395,十堰市,武当山,,43,25,19,14,11,136,,,,3,3,10,10,0.8,0.7
2024-08-14T0700,2429A,110.78,32.6494,十堰市,滨河新村,,36,36,24,15,18,43,,,,14,18,8,8,0.6,0.6
2024-08-14T0700,2430A,110.7258,32.6389,十堰市,刘家沟,,40,40,29,25,16,34,,,,13,10,4,3,0.7,0.5
2024-08-14T0700,2431A,110.8839,32.5714,十堰市,铁二处,,30,30,21,17,16,44,,,,21,12,6,6,0.4,0.4
2024-08-14T0700,3545A,110.8054,32.8401,十堰市,郧阳区金沙路,,25,,17,17,13,50,,,,10,10,4,4,0.7,0.7
2024-08-14T0700,2709A,86.0497,44.2967,石河子市,艾青诗歌馆,,17,10,27,8,18,52,,,,18,17,8,10,0.4,0.5
2024-08-14T0700,3442A,86.047,44.2331,石河子市,南区管委会,,24,11,27,11,12,76,,,,8,10,7,12,0.3,0.5
2024-08-14T0700,4051A,86.0791,44.3017,石河子市,世纪广场,,17,15,33,3,14,52,,,,13,14,5,8,0.4,0.5
2024-08-14T0700,1029A,114.4422,38.0444,石家庄市,职工医院,,23,23,20,14,14,65,,,,16,6,2,2,0.7,0.5
2024-08-14T0700,1030A,114.6063,38.0266,石家庄市,高新区,,29,29,22,20,15,60,,,,12,5,1,1,0.7,0.6
2024-08-14T0700,1031A,114.4898,38.1328,石家庄市,西北水源,,19,19,27,3,4,53,,,,10,7,4,4,0.5,0.5
2024-08-14T0700,1032A,114.4586,38.0058,石家庄市,西南高教,,32,32,28,3,6,67,,,,9,5,4,4,0.6,0.5
2024-08-14T0700,1033A,114.5331,38.0178,石家庄市,世纪公园,,32,32,31,15,13,64,,,,9,7,1,2,0.5,0.5
2024-08-14T0700,1034A,114.509,38.0457,石家庄市,人民会堂,,27,27,19,3,10,64,,,,15,6,1,2,0.4,0.3
2024-08-14T0700,1035A,114.3524,37.8911,石家庄市,封龙山,,30,,17,19,20,93,,,,4,6,2,3,0.7,0.6
2024-08-14T0700,2862A,114.5481,38.0378,石家庄市,22中南校区,,24,24,29,8,14,71,,,,6,5,2,2,0.5,0.4
2024-08-14T0700,3456A,114.289,38.0906,石家庄市,鹿泉一中,,22,19,22,15,12,50,,,,6,7,3,2,0.5,0.3
2024-08-14T0700,3573A,114.8506765,38.0322033,石家庄市,藁城区实验学校,,36,36,36,3,12,39,,,,15,6,3,3,0.4,0.4
2024-08-14T0700,3574A,114.0504658,38.0591645,石家庄市,井陉矿区区委大楼,,15,15,15,3,2,45,,,,9,7,3,2,0.4,0.3
2024-08-14T0700,4024A,114.6549,37.9020,石家庄市,栾城区星河路,,23,23,24,13,12,49,,,,14,8,1,1,0.8,0.6
2024-08-14T0700,1948A,106.3668,39.0145,石嘴山市,大武口朝阳西街,,34,34,28,15,11,75,,,,12,9,22,21,0.6,0.7
2024-08-14T0700,1949A,106.7704,39.2282,石嘴山市,惠农南大街,,26,26,19,10,9,68,,,,34,15,13,10,0.4,0.4
2024-08-14T0700,1950A,106.7099,39.1325,石嘴山市,红果子镇惠新街,,32,32,24,19,11,66,,,,28,18,12,7,0.4,0.3
2024-08-14T0700,3520A,106.3495,38.9836,石嘴山市,妇女儿童医院,,25,14,17,6,6,79,,,,15,12,21,16,0.6,0.6
2024-08-14T0700,3521A,106.7492,39.2069,石嘴山市,石大公路,,22,22,28,15,17,64,,,,20,16,5,5,0.6,0.5
2024-08-14T0700,2248A,131.1511,46.6937,双鸭山市,双合村,,15,15,14,6,7,4,,,,16,12,7,7,0.3,0.3
2024-08-14T0700,2249A,131.1652,46.6191,双鸭山市,南小市,颗粒物(PM10),53,56,26,12,10,8,,,,14,9,7,7,0.5,0.4
2024-08-14T0700,2250A,131.1524,46.6554,双鸭山市,环保局,,13,9,19,9,14,7,,,,11,13,8,9,0.4,0.5
2024-08-14T0700,2251A,131.12,46.5656,双鸭山市,苗圃,,30,30,25,8,11,5,,,,8,8,2,6,0.3,0.3
2024-08-14T0700,2166A,112.4397,39.3522,朔州市,平朔,颗粒物(PM10),81,111,57,40,21,4,,,,45,23,20,12,1.1,0.7
2024-08-14T0700,2167A,112.4575,39.3617,朔州市,朔唯,颗粒物(PM10),73,95,56,31,19,8,,,,38,20,16,13,0.7,0.6
2024-08-14T0700,2168A,112.4258,39.3197,朔州市,区政府,颗粒物(PM10),72,94,43,38,14,8,,,,40,17,31,11,1.0,0.7
2024-08-14T0700,2169A,112.4072,39.3278,朔州市,市环保局,颗粒物(PM10),67,84,46,33,20,8,,,,29,16,22,12,0.8,0.7
2024-08-14T0700,2170A,112.4272,39.3681,朔州市,市二中,颗粒物(PM10),96,141,62,39,24,3,,,,45,29,28,13,1.0,0.6
2024-08-14T0700,3571A,112.2931,39.53,朔州市,一水厂,,40,40,43,26,17,9,,,,19,20,5,9,0.7,0.6
