timepoint,stationcode,longitude,latitude,area,positionname,primarypollutant,aqi,pm10,pm10_24h,pm2_5,pm2_5_24h,o3,o3_24h,o3_8h,o3_8h_24h,no2,no2_24h,so2,so2_24h,co,co_24h
2025-12-10T2000,2240A,130.9762,45.3001,鸡西市,环保局,,37,37,30,14,20,55,55,56,55,7,13,6,7,0.4,0.4
2025-12-10T2000,2243A,130.9429,45.3039,鸡西市,第一中学,,22,22,24,11,17,52,52,58,56,10,10,5,5,0.3,0.4
2025-12-10T2000,3707A,131.0207,45.3073,鸡西市,欧美日汽修厂,,42,41,53,29,34,52,52,53,52,9,27,7,11,0.5,0.8
2025-12-10T2000,3709A,130.9967,45.3106,鸡西市,市政设施管理处,,,,45,,25,,,28,,,33,,9,,0.6
2025-12-10T2000,2367A,114.9754,27.0803,吉安市,红声器材厂,细颗粒物(PM2.5),84,96,101,62,67,115,115,138,138,35,30,10,10,0.5,0.6
2025-12-10T2000,2368A,114.9658,27.0999,吉安市,市森林工业局,细颗粒物(PM2.5),92,110,101,68,71,69,69,115,111,59,33,11,11,0.6,0.6
2025-12-10T2000,2369A,114.99,27.1312,吉安市,市环境监测站,细颗粒物(PM2.5),87,92,95,64,67,102,102,133,132,29,24,16,15,0.8,0.8
2025-12-10T2000,2370A,115.0093,27.0968,吉安市,青原区法院,细颗粒物(PM2.5),89,110,96,66,68,94,94,122,121,35,30,12,11,0.8,0.8
2025-12-10T2000,1772A,126.54,43.8622,吉林市,哈达湾,细颗粒物(PM2.5),62,64,78,44,54,42,42,36,36,18,31,10,15,0.8,1
2025-12-10T2000,1773A,126.5844,43.8358,吉林市,东局子,,,52,81,40,61,,,34,34,21,36,10,10,0.9,1.3
2025-12-10T2000,1774A,126.5052,43.8245,吉林市,电力学院,细颗粒物(PM2.5),62,56,88,44,69,35,35,39,38,31,36,16,17,0.8,1.1
2025-12-10T2000,1775A,126.6133,43.8972,吉林市,江北,,46,44,93,32,70,47,47,40,40,12,30,6,10,0.7,1.2
2025-12-10T2000,1776A,126.555,43.8306,吉林市,江南公园,细颗粒物(PM2.5),73,64,83,53,61,31,31,30,29,29,39,13,11,0.8,1.1
2025-12-10T2000,1778A,126.7061,43.7133,吉林市,丰满,细颗粒物(PM2.5),77,59,53,56,54,34,34,38,33,20,16,11,8,0.3,0.6
2025-12-10T2000,2868A,126.4739,43.953,吉林市,九站,,49,38,84,34,64,39,39,34,34,24,45,8,20,0.8,1
2025-12-10T2000,1299A,116.9862,36.6114,济南市,科干所,颗粒物(PM10),80,110,96,51,39,82,82,84,84,28,25,9,8,0.7,0.7
2025-12-10T2000,1300A,116.9376,36.665,济南市,农科所,颗粒物(PM10),85,120,105,56,42,71,71,79,79,38,34,9,8,0.8,0.7
2025-12-10T2000,1301A,117.1265,36.6734,济南市,开发区,细颗粒物(PM2.5),85,107,97,63,47,56,56,87,87,51,42,5,6,0.8,0.7
2025-12-10T2000,1303A,117.0624,36.6868,济南市,省种子仓库,细颗粒物(PM2.5),98,139,137,73,59,45,45,80,78,69,64,11,9,1.1,1.1
2025-12-10T2000,1304A,116.9489,36.6447,济南市,机床二厂,细颗粒物(PM2.5),89,115,108,66,56,68,68,78,78,48,36,15,12,0.7,0.6
2025-12-10T2000,1305A,117.0495,36.663,济南市,市监测站,细颗粒物(PM2.5),89,125,102,66,48,43,43,81,78,52,42,5,5,0.8,0.7
2025-12-10T2000,1306A,116.7675,36.5484,济南市,长清党校,"颗粒物(PM10),细颗粒物(PM2.5)",89,127,109,66,46,72,72,80,80,37,28,10,10,0.9,0.8
2025-12-10T2000,1616A,117.6795,36.229,济南市,技术学院,细颗粒物(PM2.5),147,183,133,112,73,13,13,75,69,97,61,17,14,1.0,0.7
2025-12-10T2000,1961A,117.532,36.6868,济南市,东山小学,细颗粒物(PM2.5),92,125,121,68,70,82,82,88,85,32,32,7,10,0.7,0.8
2025-12-10T2000,3059A,117.7161,36.2049,济南市,泰兴公司,细颗粒物(PM2.5),149,193,140,114,81,4,4,69,56,105,64,16,11,1.1,0.9
2025-12-10T2000,3064A,117.6867,36.2171,济南市,莱芜战役纪念馆,细颗粒物(PM2.5),155,195,133,118,77,11,11,76,68,97,59,16,22,1.0,0.6
2025-12-10T2000,3494A,117.1673,36.9782,济南市,济阳区政府,颗粒物(PM10),96,142,138,59,63,34,34,61,59,76,66,10,13,0.8,0.8
2025-12-10T2000,3495A,117.1171,36.63,济南市,锦屏中学,颗粒物(PM10),72,93,84,49,38,89,89,92,92,25,23,6,7,0.6,0.6
2025-12-10T2000,3682A,116.9814,36.6819,济南市,济南四建,细颗粒物(PM2.5),89,114,107,66,51,67,67,78,77,40,47,11,10,0.9,0.9
2025-12-10T2000,3683A,109.8331,40.6576,包头市,昆区政府,细颗粒物(PM2.5),55,56,109,39,62,50,50,65,65,40,64,11,28,0.6,1.9
2025-12-10T2000,1930A,107.185,34.3063,宝鸡市,庙沟村,,,,,,,,,,,,,,,,
2025-12-10T2000,1931A,107.0708,34.3017,宝鸡市,竹园沟,细颗粒物(PM2.5),63,58,79,45,59,49,49,80,79,20,24,7,7,0.5,0.4
2025-12-10T2000,1932A,107.1906,34.3672,宝鸡市,三陆医院,细颗粒物(PM2.5),143,156,127,109,85,4,4,70,62,87,48,7,9,0.8,0.8
2025-12-10T2000,1933A,107.1431,34.3547,宝鸡市,监测站,细颗粒物(PM2.5),104,85,107,78,78,31,31,65,64,40,36,5,6,0.5,0.6
2025-12-10T2000,1934A,107.1186,34.3739,宝鸡市,技工学校,细颗粒物(PM2.5),85,97,111,63,76,40,40,71,71,38,33,13,9,0.7,0.7
2025-12-10T2000,1936A,107.2058,34.3497,宝鸡市,文理学院,颗粒物(PM10),72,94,106,44,75,16,16,67,60,59,41,4,7,0.7,0.8
2025-12-10T2000,1937A,107.2386,34.3622,宝鸡市,三迪小学,细颗粒物(PM2.5),147,,117,112,87,6,6,70,60,84,48,5,8,1.4,0.9
2025-12-10T2000,4308A,107.3898,34.3601,宝鸡市,陈仓区北开路21号,细颗粒物(PM2.5),150,139,124,115,82,25,25,66,64,65,41,9,30,0.9,1
2025-12-10T2000,1051A,115.493,38.8632,保定市,游泳馆,细颗粒物(PM2.5),153,154,109,117,77,2,2,18,15,92,70,12,10,1.1,0.8
2025-12-10T2000,1052A,115.5213,38.8959,保定市,华电二区,细颗粒物(PM2.5),159,159,103,121,80,0,0,15,12,84,65,8,8,1.0,0.6
2025-12-10T2000,1053A,115.4713,38.9108,保定市,接待中心,细颗粒物(PM2.5),156,177,110,119,77,2,2,19,15,91,69,5,5,1.4,0.8
2025-12-10T2000,1054A,115.4612,38.8416,保定市,地表水厂,细颗粒物(PM2.5),160,187,122,122,75,11,11,28,24,97,73,9,8,1.2,0.7
2025-12-10T2000,3581A,115.31981,38.95208,保定市,满城区生态环境分局,细颗粒物(PM2.5),156,190,127,119,75,4,4,25,19,97,66,9,6,1.1,0.8
2025-12-10T2000,3582A,115.47694,38.76408,保定市,清苑区第二中学,细颗粒物(PM2.5),162,216,140,123,75,3,3,18,13,90,76,9,9,1.4,0.9
2025-12-10T2000,3583A,115.62909,39.02311,保定市,徐水物探局,细颗粒物(PM2.5),178,229,144,134,81,5,5,18,15,82,60,10,10,1.5,1
2025-12-10T2000,4004A,115.4202,38.8656,保定市,双鹰农机,细颗粒物(PM2.5),148,189,137,113,68,9,9,29,27,89,68,8,8,1.0,0.8
2025-12-10T2000,4034A,115.5150,38.8590,保定市,植保所站,细颗粒物(PM2.5),168,161,120,127,78,2,2,8,7,92,69,11,8,1.4,1.1
2025-12-10T2000,2594A,99.1678,25.1081,保山市,市环境监测站,,29,29,23,20,15,58,58,81,80,9,10,4,7,0.4,0.5
2025-12-10T2000,2595A,99.1711,25.1328,保山市,市环保局,,,33,26,20,20,,,86,86,3,7,4,4,,0.5
2025-12-10T2000,1866A,109.2262,21.588,北海市,牛尾岭水库,细颗粒物(PM2.5),115,95,54,87,50,67,67,105,99,19,11,11,8,0.8,0.6
2025-12-10T2000,1867A,109.1436,21.4086,北海市,海滩公园,细颗粒物(PM2.5),64,65,65,46,42,110,110,130,129,13,15,8,12,0.9,0.9
2025-12-10T2000,1868A,109.0981,21.4661,北海市,新市环保局,细颗粒物(PM2.5),77,87,68,56,52,100,100,126,123,26,23,14,16,1.0,0.9
2025-12-10T2000,1869A,109.1778,21.5233,北海市,北海工业园,细颗粒物(PM2.5),104,114,80,78,54,84,84,118,111,28,26,10,18,1.0,0.9
2025-12-10T2000,3400A,109.1911,21.4415,北海市,龙潭自来水厂,细颗粒物(PM2.5),88,76,70,65,57,105,105,124,123,16,18,7,9,1.0,1
2025-12-10T2000,1001A,116.3621,39.8784,北京市,万寿西宫,细颗粒物(PM2.5),98,117,101,73,57,7,7,22,18,69,67,5,5,0.7,0.9
2025-12-10T2000,1002A,116.2202,40.2915,北京市,定陵,,,,,,,,,,,,,,,,
2025-12-10T2000,1377A,112.8836,23.1588,佛山市,三水监测站,细颗粒物(PM2.5),93,129,105,69,64,10,10,95,79,121,69,9,10,1.0,0.9
2025-12-10T2000,1378A,112.867,23.185,佛山市,三水云东海,细颗粒物(PM2.5),78,90,86,57,61,21,21,89,78,73,57,7,8,1.1,1
2025-12-10T2000,3625A,113.2544,22.7642,佛山市,容桂街道办,颗粒物(PM10),53,56,93,34,58,86,86,110,109,35,64,5,8,0.6,0.8
2025-12-10T2000,1280A,119.3903,26.0543,福州市,鼓山,,20,20,34,10,11,49,49,71,60,23,14,1,1,0.8,0.8
2025-12-10T2000,1282A,119.2681,26.0504,福州市,师大,,36,36,37,16,8,52,52,79,70,33,17,8,6,0.7,0.4
2025-12-10T2000,1283A,119.2984,26.1028,福州市,五四北路,,49,49,38,22,9,43,43,77,66,35,16,4,5,0.7,0.4
2025-12-10T2000,1284A,119.2648,26.0768,福州市,杨桥西路,,41,41,38,16,8,50,50,80,71,28,14,4,4,0.7,0.4
2025-12-10T2000,1285A,119.317,26.0746,福州市,紫阳,,41,41,42,21,8,40,40,71,61,40,19,8,8,0.8,0.4
2025-12-10T2000,3048A,119.5799,26.0936,福州市,九龙,,13,,30,9,8,34,34,74,65,15,11,3,5,0.5,0.4
2025-12-10T2000,3526A,119.5189,25.9664,福州市,吴航,,42,42,30,20,11,34,34,72,65,36,14,7,7,0.6,0.4
2025-12-10T2000,1755A,123.7977,41.8491,抚顺市,望花区,细颗粒物(PM2.5),150,127,126,115,89,34,34,23,23,28,48,9,12,1.0,1.4
2025-12-10T2000,1756A,123.9161,41.8822,抚顺市,顺城区,细颗粒物(PM2.5),118,125,119,89,80,35,35,26,26,30,47,7,14,0.8,1.3
2025-12-10T2000,1757A,124.0436,41.8611,抚顺市,东洲区,细颗粒物(PM2.5),119,109,94,90,75,,,33,33,22,40,8,10,1.0,1.2
2025-12-10T2000,1758A,123.9247,41.8642,抚顺市,新抚区,细颗粒物(PM2.5),120,128,121,91,89,34,34,19,19,24,41,7,10,1.0,1.4
2025-12-10T2000,1759A,124.0972,41.8961,抚顺市,大伙房水库,细颗粒物(PM2.5),129,140,86,98,66,41,41,34,34,26,40,10,16,1.1,1.1
2025-12-10T2000,1760A,123.7086,41.8391,抚顺市,沈抚新城,细颗粒物(PM2.5),152,134,125,116,95,43,43,37,37,31,50,8,13,1.0,1.5
2025-12-10T2000,2376A,116.2127,28.0814,抚州市,桐源党溪,,,,,,,,,,,,,,,,
2025-12-10T2000,2377A,116.3544,27.9831,抚州市,市站,细颗粒物(PM2.5),107,112,96,80,64,105,105,125,125,28,27,11,11,1.5,1.3
2025-12-10T2000,2378A,116.3565,27.963,抚州市,血防站,,,,95,69,63,112,112,124,124,28,30,11,8,1.1,0.9
2025-12-10T2000,2379A,116.3564,28.0007,抚州市,采茶剧团,细颗粒物(PM2.5),113,116,95,85,67,116,116,120,120,18,17,11,11,0.9,1.3
2025-12-10T2000,2380A,116.385,27.9647,抚州市,医学分院,细颗粒物(PM2.5),123,131,100,93,65,118,118,130,130,22,26,10,7,1.3,1.2
2025-12-10T2000,2207A,121.6094,41.998,阜新市,工业园区,颗粒物(PM10),53,56,114,19,52,36,36,41,40,18,35,9,17,0.4,0.9
2025-12-10T2000,2208A,121.6697,42.0279,阜新市,长青街,,28,28,78,18,49,34,34,39,38,18,36,9,16,1.0,1.8
2025-12-10T2000,2209A,121.6673,42.0705,阜新市,农业园区,,47,47,78,19,43,40,40,43,41,15,23,6,21,0.3,0.7
2025-12-10T2000,2210A,121.6717,42.0224,阜新市,东苑,颗粒物(PM10),63,75,108,24,49,29,29,38,36,21,37,13,25,1.1,2
2025-12-10T2000,2211A,121.6506,42.0498,阜新市,玉龙新城,颗粒物(PM10),51,52,92,16,37,43,43,49,45,17,32,9,11,0.4,0.9
2025-12-10T2000,2301A,115.8277,32.8929,阜阳市,市监测站,细颗粒物(PM2.5),132,165,119,100,64,38,38,91,88,68,46,6,7,1.2,0.7
2025-12-10T2000,2303A,115.8554,32.8605,阜阳市,开发区,细颗粒物(PM2.5),108,161,114,81,58,65,65,91,91,57,43,7,8,0.8,0.7
2025-12-10T2000,2875A,115.784,32.8892,阜阳市,阜阳职业技术学院,细颗粒物(PM2.5),93,120,91,69,50,63,63,108,107,57,32,9,9,0.9,0.7
2025-12-10T2000,2566A,102.1879,31.914,阿坝藏族羌族自治州,州农科所,,,,,,,,,,,,,,,,
2025-12-10T2000,2568A,102.2502,31.8896,阿坝藏族羌族自治州,马师校,,40,36,16,28,15,31,31,63,61,35,18,5,5,0.7,0.6
2025-12-10T2000,3994A,102.2165,31.9024,阿坝藏族羌族自治州,马尔康中学西区,,43,34,14,30,11,37,37,70,69,38,16,6,6,0.8,0.6
2025-12-10T2000,2695A,80.292,41.1694,阿克苏地区,电视台,细颗粒物(PM2.5),115,154,137,87,65,52,52,66,66,58,44,10,8,0.5,0.6
2025-12-10T2000,2696A,80.2613,41.1551,阿克苏地区,艺术中心,细颗粒物(PM2.5),110,157,135,83,83,48,48,70,70,54,51,7,6,0.8,1.1
2025-12-10T2000,2204A,105.6467,38.8363,阿拉善盟,西城区西花园,,,,,,,,,,,,,,,,
2025-12-10T2000,2205A,105.6985,38.8411,阿拉善盟,蒙二幼,,,,44,,24,,,89,,,12,,11,,0.6
2025-12-10T2000,2206A,105.724,38.8516,阿拉善盟,环保局新楼,,,,35,,21,,,82,,,8,,11,,0.7
2025-12-10T2000,2708A,88.1264,47.8517,阿勒泰地区,市站,,35,,14,24,9,57,57,60,57,26,33,2,2,0.2,0.4
2025-12-10T2000,2630A,80.1161,32.5,阿里地区,阿里监测站,,25,,3,3,3,79,79,79,79,2,10,7,9,0.4,0.5
2025-12-10T2000,3192A,80.0903,32.5028,阿里地区,阿里藏医院,,27,6,18,3,10,84,84,78,78,2,12,8,14,0.4,0.6
2025-12-10T2000,2642A,109.0318,32.6537,安康市,香溪洞,,,,,,,,,,,,,,,,
2025-12-10T2000,2644A,109.0072,32.6975,安康市,汉滨区检察院,"颗粒物(PM10),细颗粒物(PM2.5)",77,103,84,56,48,21,21,66,64,46,33,4,5,0.8,0.8
2025-12-10T2000,4054A,109.0325,32.6913,安康市,市邮政管理局,细颗粒物(PM2.5),112,136,94,84,55,4,4,52,47,63,29,6,5,2.6,1.1
2025-12-10T2000,2291A,117.0809,30.5177,安庆市,环科院,,,138,110,,60,,,35,35,76,59,8,9,0.9,0.8
2025-12-10T2000,2292A,117.0331,30.5119,安庆市,马山宾馆,细颗粒物(PM2.5),125,142,111,95,65,28,28,45,45,66,58,7,9,1.0,0.9
2025-12-10T2000,2294A,116.9896,30.6145,安庆市,安庆大学,细颗粒物(PM2.5),112,130,112,84,67,29,29,67,67,74,41,9,9,0.8,0.7
2025-12-10T2000,3173A,117.0598,30.5351,安庆市,市人大,细颗粒物(PM2.5),120,141,108,91,63,19,19,53,51,80,53,8,10,0.9,0.6
2025-12-10T2000,3122A,105.9606,26.2611,安顺市,伍家关,,40,40,31,28,23,47,47,56,51,12,7,20,12,0.9,0.8
2025-12-10T2000,3123A,105.9408,26.2431,安顺市,凤凰山,细颗粒物(PM2.5),59,44,32,42,26,53,53,66,55,19,13,21,13,0.6,0.5
2025-12-10T2000,3124A,105.9439,26.2564,安顺市,金钟山,细颗粒物(PM2.5),53,40,30,37,23,53,53,65,58,16,11,23,15,0.9,0.7
2025-12-10T2000,3125A,105.8983,26.2481,安顺市,娄家坡,细颗粒物(PM2.5),64,48,31,46,26,44,44,66,54,23,12,24,16,0.9,0.7
2025-12-10T2000,1818A,114.4839,36.0621,安阳市,棉研所,,,,,,,,,,,,,,,,
2025-12-10T2000,1819A,114.3551,36.1017,安阳市,红庙街,细颗粒物(PM2.5),216,204,169,166,124,36,36,73,72,77,59,6,7,1.3,0.8
2025-12-10T2000,1820A,114.361,36.0681,安阳市,银杏小区,细颗粒物(PM2.5),222,211,178,172,136,42,42,77,77,60,52,5,5,1.2,0.7
2025-12-10T2000,3141A,114.3922,36.0878,安阳市,信访局,细颗粒物(PM2.5),215,211,180,165,132,56,56,82,82,62,55,6,6,1.0,0.7
2025-12-10T2000,3669A,114.4705,36.0637,安阳市,左辅环卫站,细颗粒物(PM2.5),229,244,210,179,140,67,67,87,87,41,47,5,4,0.9,0.8
2025-12-10T2000,3703A,114.2917,36.0949,安阳市,安钢职工学校,细颗粒物(PM2.5),229,253,193,179,135,38,38,69,69,77,56,6,6,1.5,1
2025-12-10T2000,1748A,123.044,41.1196,鞍山市,深沟寺,细颗粒物(PM2.5),210,219,144,160,100,28,28,31,17,56,56,18,18,1.4,1.6
2025-12-10T2000,1749A,123.011,41.0931,鞍山市,太阳城,细颗粒物(PM2.5),220,218,135,170,100,15,15,29,10,55,53,25,21,1.5,1.7
2025-12-10T2000,1750A,123.0485,41.1442,鞍山市,太平,细颗粒物(PM2.5),213,245,217,163,135,19,19,10,10,51,66,19,24,1.5,2.5
2025-12-10T2000,1751A,122.9642,41.0971,鞍山市,铁西三道街,细颗粒物(PM2.5),234,281,234,184,145,32,32,20,20,61,69,36,32,3.1,3.5
2025-12-10T2000,1753A,123.022,41.0821,鞍山市,明达新区,细颗粒物(PM2.5),204,208,128,154,90,30,30,28,23,36,35,20,18,1.4,1.7
2025-12-10T2000,1754A,123.1289,41.0228,鞍山市,千山,细颗粒物(PM2.5),203,169,79,153,72,,,23,11,,38,14,6,1.2,1
2025-12-10T2000,4201A,122.9446,41.0826,鞍山市,兴盛南路290号,细颗粒物(PM2.5),251,288,240,201,161,19,19,10,9,60,74,23,37,2.0,3.8
2025-12-10T2000,2195A,107.4212,40.761,巴彦淖尔市,附二中,,45,43,82,31,50,48,48,63,61,22,34,6,11,0.5,1
2025-12-10T2000,2196A,107.37,40.7372,巴彦淖尔市,市环保大楼,,44,44,77,26,41,49,49,77,70,29,34,4,5,0.5,0.8
2025-12-10T2000,1956A,86.1472,41.7538,巴音郭楞蒙古自治州,孔雀公园,颗粒物(PM10),88,126,126,40,56,59,59,70,70,35,46,13,12,0.7,0.9
2025-12-10T2000,1957A,86.1972,41.7166,巴音郭楞蒙古自治州,棉纺厂,颗粒物(PM10),99,147,132,35,40,48,48,68,68,41,44,11,9,0.9,0.8
2025-12-10T2000,1958A,86.2357,41.7173,巴音郭楞蒙古自治州,经济开发区,颗粒物(PM10),84,117,99,37,37,34,34,65,64,48,28,10,9,0.6,0.6
2025-12-10T2000,2914A,106.7677,31.8794,巴中市,苏山坪,,,,,,,,,,,,,,,,
2025-12-10T2000,3181A,106.7768,31.8526,巴中市,市五中,细颗粒物(PM2.5),94,91,93,70,70,19,19,52,52,36,22,5,5,1.1,1.1
2025-12-10T2000,3183A,106.7418,31.8654,巴中市,圣泉水务公司,细颗粒物(PM2.5),102,100,78,76,63,,,52,52,59,27,6,5,,1.2
2025-12-10T2000,3616A,106.7616,31.8344,巴中市,市中心医院,细颗粒物(PM2.5),95,89,86,71,73,6,6,43,43,50,23,6,6,1.5,1.4
2025-12-10T2000,2235A,122.7911,45.6077,白城市,洮北区环保局,,43,43,39,18,22,59,59,53,53,8,15,6,6,0.1,0.2
2025-12-10T2000,2236A,122.8738,45.5725,白城市,市环保局,,34,34,30,14,19,54,54,43,42,4,14,2,4,0.2,0.4
2025-12-10T2000,2231A,126.4219,41.9171,白山市,喜丰,颗粒物(PM10),63,75,99,42,41,5,5,8,4,57,48,22,15,1.2,1.1
2025-12-10T2000,2232A,126.4077,41.9419,白山市,环保局,细颗粒物(PM2.5),74,64,55,54,37,9,9,10,4,45,37,14,12,1.5,1.2
2025-12-10T2000,2647A,104.1724,36.5446,白银市,第三小学,颗粒物(PM10),78,106,157,50,67,27,27,72,68,73,56,18,36,0.8,1.2
2025-12-10T2000,2648A,104.1465,36.5482,白银市,动力公司,颗粒物(PM10),83,116,143,52,66,10,10,77,70,77,43,9,23,1.3,1.5
2025-12-10T2000,2512A,106.6103,23.9011,百色市,市监测站,细颗粒物(PM2.5),108,114,76,81,57,22,22,58,54,37,25,15,13,1.4,1
2025-12-10T2000,2513A,106.6538,23.8859,百色市,市中心血站,细颗粒物(PM2.5),135,136,89,103,68,7,7,49,47,66,39,17,15,1.7,1.1
2025-12-10T2000,3406A,106.6085,23.8798,百色市,祈福高中,细颗粒物(PM2.5),119,143,90,90,63,4,4,45,42,69,35,10,9,1.3,0.9
2025-12-10T2000,2270A,117.396,32.939,蚌埠市,工人疗养院,细颗粒物(PM2.5),119,151,118,90,55,72,72,93,93,51,48,9,9,0.9,0.6
2025-12-10T2000,2271A,117.3605,32.9427,蚌埠市,百货大楼,细颗粒物(PM2.5),150,171,107,115,56,39,39,89,86,86,52,9,9,1.3,0.7
2025-12-10T2000,2273A,117.4185,32.8911,蚌埠市,蚌埠学院,细颗粒物(PM2.5),128,153,109,97,57,54,54,93,92,69,51,10,10,0.9,0.6
2025-12-10T2000,2274A,117.3533,32.9673,蚌埠市,淮上区政府,细颗粒物(PM2.5),128,149,117,97,59,73,73,87,87,55,50,12,11,0.8,0.6
2025-12-10T2000,2275A,117.3145,32.8977,蚌埠市,高新区,细颗粒物(PM2.5),166,197,110,126,59,2,2,86,71,113,57,10,10,1.1,0.7
2025-12-10T2000,3715A,117.3092,32.9314,蚌埠市,蚌埠田家炳中学,细颗粒物(PM2.5),149,201,122,114,63,9,9,80,72,121,59,10,8,1.0,0.7
2025-12-10T2000,1585A,109.8756,40.6532,包头市,市环境监测站,颗粒物(PM10),57,64,102,14,48,28,28,56,56,55,60,14,30,0.8,1.9
2025-12-10T2000,1587A,109.9991,40.5842,包头市,包头八中,颗粒物(PM10),57,63,105,39,61,34,34,57,57,53,58,13,25,0.8,1.8
2025-12-10T2000,1588A,109.8538,40.6821,包头市,青山宾馆,,46,34,88,32,54,45,45,62,62,39,54,11,17,0.6,1.7
2025-12-10T2000,1589A,109.8642,40.6288,包头市,惠龙物流,颗粒物(PM10),57,64,107,23,57,36,36,58,58,48,62,13,32,0.7,2.2
2025-12-10T2000,1590A,110.0377,40.5546,包头市,东河鸿龙湾,,44,44,110,19,58,54,54,55,55,34,63,13,19,0.7,1.9
2025-12-10T2000,3283A,109.9154,40.5685,包头市,滨河大厦,,41,41,100,24,60,33,33,55,55,47,55,14,23,0.7,1.5
2025-12-10T2000,3419A,109.9447,40.6261,包头市,包头市委党校,,,55,94,24,51,,,60,60,49,59,14,28,0.8,1.7
2025-12-10T2000,1003A,116.4174,39.9289,北京市,东四,细颗粒物(PM2.5),90,122,97,67,54,10,10,22,16,63,62,8,7,0.7,0.9
2025-12-10T2000,1004A,116.4072,39.8863,北京市,天坛,细颗粒物(PM2.5),84,103,87,62,52,4,4,20,14,62,59,1,3,0.8,0.8
2025-12-10T2000,1005A,116.462,39.9365,北京市,农展馆,细颗粒物(PM2.5),103,128,96,77,52,12,12,18,14,54,54,8,6,1.0,1.1
2025-12-10T2000,1006A,116.3392,39.9295,北京市,官园,细颗粒物(PM2.5),87,109,94,64,50,4,4,18,14,66,61,6,6,0.8,0.8
2025-12-10T2000,1007A,116.2878,39.9611,北京市,海淀万柳,细颗粒物(PM2.5),80,104,91,59,48,3,3,11,9,68,62,4,5,0.8,0.7
2025-12-10T2000,1008A,116.6636,40.135,北京市,顺义新城,细颗粒物(PM2.5),82,107,90,60,47,7,7,19,16,55,48,9,6,0.7,0.6
2025-12-10T2000,1009A,116.6275,40.3275,北京市,怀柔镇,细颗粒物(PM2.5),80,92,66,59,42,9,9,23,18,52,39,6,6,0.8,0.6
2025-12-10T2000,1010A,116.2296,40.217,北京市,昌平镇,细颗粒物(PM2.5),95,114,76,71,47,4,4,10,8,70,54,6,6,1.2,0.9
2025-12-10T2000,1011A,116.3966,39.9821,北京市,奥体中心,颗粒物(PM10),76,102,93,55,49,11,11,17,15,63,69,7,6,0.8,0.9
2025-12-10T2000,3281A,115.9718,40.4529,北京市,延庆夏都,细颗粒物(PM2.5),185,208,117,139,75,5,5,15,13,75,53,5,4,1.8,1.1
2025-12-10T2000,3418A,116.8336,40.4095,北京市,密云新城,细颗粒物(PM2.5),73,85,76,53,43,21,21,25,24,42,40,5,3,0.6,0.6
2025-12-10T2000,3671A,116.088,39.9726,北京市,门头沟三家店,细颗粒物(PM2.5),102,119,83,76,46,3,3,18,10,61,43,5,3,0.7,0.6
2025-12-10T2000,3672A,116.1541,39.8204,北京市,丰台云岗,细颗粒物(PM2.5),90,119,93,67,49,2,2,16,11,74,61,6,6,0.8,0.6
2025-12-10T2000,3673A,116.6804,39.9081,北京市,通州东关,细颗粒物(PM2.5),88,117,115,65,62,2,2,15,12,70,68,5,6,0.8,0.8
2025-12-10T2000,3674A,115.9577,39.7603,北京市,房山燕山,细颗粒物(PM2.5),95,134,95,71,54,2,2,19,12,77,55,5,5,0.9,0.8
2025-12-10T2000,3675A,116.4672,39.7733,北京市,大兴旧宫,颗粒物(PM10),82,113,112,58,55,2,2,18,14,69,64,6,7,0.8,0.9
2025-12-10T2000,3694A,115.986,40.4563,北京市,延庆石河营,细颗粒物(PM2.5),172,211,119,130,73,9,9,16,15,73,53,5,5,1.6,1.1
2025-12-10T2000,3695A,116.6151,40.3053,北京市,怀柔新城,细颗粒物(PM2.5),88,95,67,65,43,6,6,21,17,45,36,3,4,0.6,0.5
2025-12-10T2000,3696A,116.2545,39.8768,北京市,丰台小屯,"颗粒物(PM10),细颗粒物(PM2.5)",83,116,102,61,51,2,2,15,11,72,65,5,5,0.8,0.8
2025-12-10T2000,3697A,116.84,40.3844,北京市,密云镇,细颗粒物(PM2.5),77,93,81,56,47,11,11,25,21,53,46,7,3,0.8,0.7
2025-12-10T2000,4182A,116.1942,39.9158,北京市,八角北路9号,细颗粒物(PM2.5),87,118,99,64,48,5,5,14,11,69,62,6,4,0.4,0.5
2025-12-10T2000,4194A,117.0790,40.1518,北京市,洳河巡河路,细颗粒物(PM2.5),153,194,104,117,63,3,3,22,16,71,45,3,3,1.3,0.7
2025-12-10T2000,1761A,123.8275,41.3064,本溪市,大峪,细颗粒物(PM2.5),186,197,127,140,73,10,10,12,11,70,48,17,13,1.8,1.9
2025-12-10T2000,1762A,123.7567,41.3325,本溪市,溪湖,细颗粒物(PM2.5),169,183,142,128,88,11,11,5,5,62,55,14,11,1.9,2.9
2025-12-10T2000,1763A,123.7169,41.3094,本溪市,彩屯,细颗粒物(PM2.5),180,182,146,136,106,10,10,4,4,56,54,14,16,1.9,3
2025-12-10T2000,1764A,123.7669,41.2864,本溪市,东明,细颗粒物(PM2.5),176,178,110,133,80,11,11,12,11,66,52,16,14,1.9,2
2025-12-10T2000,1765A,123.7992,41.2664,本溪市,新立屯,细颗粒物(PM2.5),178,148,89,134,70,9,9,9,9,70,51,18,14,2.0,1.8
2025-12-10T2000,1766A,123.8142,41.3472,本溪市,威宁,细颗粒物(PM2.5),185,211,150,139,80,8,8,7,7,61,40,12,9,1.8,2
2025-12-10T2000,2587A,105.2864,27.3125,毕节市,八中,细颗粒物(PM2.5),78,65,24,57,15,24,24,66,62,43,12,10,10,1.3,0.8
2025-12-10T2000,2588A,105.31,27.2944,毕节市,师专,,46,46,23,31,16,54,54,66,66,18,12,10,9,0.9,0.8
2025-12-10T2000,4263A,105.3688,27.3598,毕节市,工业大道,细颗粒物(PM2.5),60,57,19,43,14,47,47,72,71,20,10,11,10,0.9,0.9
2025-12-10T2000,1629A,118.0018,37.3617,滨州市,第二水厂,细颗粒物(PM2.5),118,163,145,89,85,13,13,61,57,90,77,18,21,1.3,0.9
2025-12-10T2000,1630A,117.9776,37.393,滨州市,北中新校,细颗粒物(PM2.5),104,134,126,78,78,7,7,66,58,96,74,11,16,1.3,0.9
2025-12-10T2000,3514A,117.9378,37.3956,滨州市,中海酒店,细颗粒物(PM2.5),138,175,131,105,84,14,14,67,56,93,85,17,18,1.7,1.1
2025-12-10T2000,3515A,117.9378,37.3553,滨州市,开发区一中,颗粒物(PM10),111,171,154,83,86,23,23,64,55,79,71,20,23,1.1,1.1
2025-12-10T2000,3516A,118.0917,37.694,滨州市,金海六路,颗粒物(PM10),111,171,163,78,87,7,7,58,47,94,82,16,21,0.7,0.9
2025-12-10T2000,4028A,117.9956,37.3753,滨州市,滨州市西街道办事处,细颗粒物(PM2.5),117,161,143,88,87,8,8,61,49,80,67,15,18,1.5,1
2025-12-10T2000,2311A,115.8072,33.8399,亳州市,污水处理厂,,,,126,,76,,,60,59,83,50,9,18,1.1,1
2025-12-10T2000,2312A,115.7789,33.8518,亳州市,三国揽胜宫,细颗粒物(PM2.5),110,158,143,83,73,52,52,64,64,60,44,9,14,1.0,0.9
2025-12-10T2000,3332A,115.7633,33.8034,亳州市,亳州学院,细颗粒物(PM2.5),127,138,123,96,77,63,63,77,77,54,39,9,8,0.9,0.8
2025-12-10T2000,2693A,82.0485,44.8556,博尔塔拉蒙古自治州,市党校,,31,31,36,11,12,32,32,32,30,18,16,2,2,0.5,0.6
2025-12-10T2000,2694A,82.0806,44.8969,博尔塔拉蒙古自治州,市环保局,,48,48,43,16,20,34,34,37,32,15,10,1,2,0.4,0.5
2025-12-10T2000,1071A,116.8842,38.2991,沧州市,沧县城建局,细颗粒物(PM2.5),209,213,188,159,135,9,9,33,32,105,81,8,11,1.5,1.4
2025-12-10T2000,1072A,116.8584,38.3254,沧州市,电视转播站,细颗粒物(PM2.5),216,227,186,166,132,1,1,27,26,104,87,6,8,1.6,1.4
2025-12-10T2000,1073A,116.8709,38.3228,沧州市,市环保局,细颗粒物(PM2.5),224,242,192,174,134,22,22,34,34,99,79,4,8,1.5,1.3
2025-12-10T2000,3324A,116.8136,38.3004,沧州市,河北水利电力学院,细颗粒物(PM2.5),201,251,196,151,108,4,4,31,27,110,81,11,12,1.3,1.1
2025-12-10T2000,2622A,97.1806,31.1273,昌都市,昌都监测站,细颗粒物(PM2.5),82,104,28,60,14,14,14,70,65,77,15,8,3,1.9,0.5
2025-12-10T2000,3719A,97.1714,31.1406,昌都市,昌都会议中心,,22,17,12,11,6,68,68,80,80,4,2,2,2,0.3,0.1
2025-12-10T2000,2690A,88.1236,43.8886,昌吉回族自治州,天山天池,,,,,,,,,,,,,,,,
2025-12-10T2000,2692A,87.2717,44.0297,昌吉回族自治州,新区政务中心,,45,34,78,31,51,42,42,35,35,28,26,5,5,0.6,0.8
2025-12-10T2000,3613A,87.3095,44.0142,昌吉回族自治州,亚心广场,,45,39,97,31,61,35,35,33,33,26,20,7,8,0.6,0.8
2025-12-10T2000,1120A,125.2863,43.9027,长春市,客车厂,,48,35,81,33,77,33,33,34,31,34,53,13,13,0.3,0.9
2025-12-10T2000,1121A,125.2841,43.8463,长春市,邮电学院,,42,42,90,29,70,20,20,29,27,46,50,11,10,0.4,0.8
2025-12-10T2000,1122A,125.3716,43.8772,长春市,劳动公园,,48,48,96,30,66,23,23,32,31,38,44,9,8,0.7,1
2025-12-10T2000,1123A,125.3297,43.8805,长春市,园林处,,43,31,80,30,63,31,31,32,32,30,42,8,8,0.4,0.9
2025-12-10T2000,1124A,125.4605,43.79,长春市,净月潭,,46,34,76,32,52,41,41,40,40,14,20,6,7,0.4,0.5
2025-12-10T2000,1125A,125.7194,43.515,长春市,甩湾子,细颗粒物(PM2.5),72,59,93,52,79,38,38,40,39,17,22,7,6,0.6,1
2025-12-10T2000,1126A,125.3863,43.8447,长春市,经开区环卫处,,46,46,86,31,61,30,30,29,29,33,48,8,8,0.4,0.8
2025-12-10T2000,1127A,125.245,43.7783,长春市,高新区管委会,,46,46,110,27,88,6,6,21,17,58,46,14,9,0.6,1.2
2025-12-10T2000,1128A,125.1761,43.8325,长春市,岱山公园,细颗粒物(PM2.5),64,51,110,46,90,9,9,24,19,58,59,12,13,0.6,1
2025-12-10T2000,4281A,125.3346,43.9164,长春市,北亚泰大街1068号,,42,41,109,29,91,14,14,30,29,46,49,9,11,0.6,1.2
2025-12-10T2000,1335A,113.0833,28.2325,长沙市,经开区环保局,细颗粒物(PM2.5),132,120,120,100,98,106,106,128,128,40,45,8,9,1.1,1
2025-12-10T2000,1336A,112.8872,28.2189,长沙市,高开区环保局,细颗粒物(PM2.5),173,160,148,131,125,67,67,127,123,54,66,8,7,1.6,1.4
2025-12-10T2000,1337A,113.0792,28.2053,长沙市,马坡岭,细颗粒物(PM2.5),127,163,147,96,102,53,53,129,124,70,62,6,7,1.3,1
2025-12-10T2000,1338A,112.9394,28.19,长沙市,湖南师范大学,细颗粒物(PM2.5),104,119,137,78,93,100,100,121,120,27,39,4,4,0.8,0.7
2025-12-10T2000,1339A,113.0178,28.1322,长沙市,雨花区环保局,细颗粒物(PM2.5),142,149,144,108,89,86,86,119,119,50,60,10,11,1.2,1
2025-12-10T2000,1340A,112.9792,28.2597,长沙市,伍家岭,细颗粒物(PM2.5),139,175,157,106,111,25,25,107,97,104,55,6,7,1.9,1.3
2025-12-10T2000,1341A,113.0014,28.1944,长沙市,火车新站,细颗粒物(PM2.5),168,168,158,127,110,71,71,116,114,70,61,9,9,1.8,1.3
2025-12-10T2000,1342A,112.9844,28.1178,长沙市,天心区环保局,细颗粒物(PM2.5),139,156,145,106,102,97,97,133,133,57,64,9,9,1.4,1.1
2025-12-10T2000,1343A,112.8908,28.1308,长沙市,湖南中医药大学,细颗粒物(PM2.5),144,152,146,110,111,23,23,124,112,91,48,7,8,1.6,1.2
2025-12-10T2000,1344A,112.9581,28.3611,长沙市,沙坪,,,,,,,,,,,,,,,,
2025-12-10T2000,1727A,113.1147,36.1547,长治市,清华站,细颗粒物(PM2.5),85,64,88,63,69,84,84,87,87,28,36,15,16,0.8,0.8
2025-12-10T2000,1730A,113.0886,36.2125,长治市,审计局,细颗粒物(PM2.5),94,78,93,70,70,84,84,83,83,27,40,13,15,1.0,0.9
2025-12-10T2000,1731A,113.0844,36.1856,长治市,长治八中,,,90,119,62,86,,,81,81,19,34,14,16,1.1,1
2025-12-10T2000,2845A,113.1569,36.1911,长治市,德盛苑,细颗粒物(PM2.5),92,73,80,68,62,89,89,90,90,20,24,13,14,1.0,0.8
2025-12-10T2000,3568A,113.06,36.0464,长治市,向阳小学,细颗粒物(PM2.5),122,150,122,92,73,,,93,93,30,37,13,16,1.1,1
2025-12-10T2000,3569A,112.8792,36.3144,长治市,屯留一中,细颗粒物(PM2.5),122,119,98,92,70,88,88,78,78,36,54,17,24,1.8,1.5
2025-12-10T2000,4189A,113.1131,36.19948,长治市,英华南巷50号,细颗粒物(PM2.5),100,82,99,75,70,84,84,81,81,32,40,12,13,0.9,0.9
2025-12-10T2000,4190A,113.2367,36.3344,长治市,学府街1号,细颗粒物(PM2.5),102,102,112,76,86,82,82,80,80,22,52,12,21,1.3,1.6
2025-12-10T2000,1854A,111.6975,28.9703,常德市,市二中,细颗粒物(PM2.5),127,148,162,96,113,92,92,127,127,39,27,8,8,1.0,0.9
2025-12-10T2000,1857A,111.7158,29.1456,常德市,白鹤山,,,,,,,,,,,,,,,,
2025-12-10T2000,3138A,111.7153,29.0289,常德市,武陵区永安,细颗粒物(PM2.5),140,182,175,107,118,85,85,109,109,34,30,7,7,1.0,0.9
2025-12-10T2000,3139A,111.6892,28.9881,常德市,鼎城区玉霞,细颗粒物(PM2.5),169,158,159,128,127,77,77,108,108,38,33,9,9,1.0,0.9
2025-12-10T2000,3140A,111.6625,29.0531,常德市,武陵区长庚,细颗粒物(PM2.5),166,175,179,126,136,61,61,108,107,54,31,7,7,1.3,0.9
2025-12-10T2000,1196A,119.9633,31.762,常州市,市监测站,颗粒物(PM10),79,107,64,48,25,9,9,62,50,80,53,33,8,0.8,0.7
2025-12-10T2000,1200A,119.9468,31.7069,常州市,武进监测站,颗粒物(PM10),68,86,54,45,22,16,16,66,54,69,42,19,12,0.6,0.4
2025-12-10T2000,1201A,119.9255,31.9087,常州市,安家,颗粒物(PM10),75,100,62,54,23,4,4,59,47,84,41,14,10,0.5,0.4
2025-12-10T2000,3002A,119.9805,31.8174,常州市,行政中心,颗粒物(PM10),62,74,55,40,22,28,28,66,60,59,42,20,7,0.7,0.6
2025-12-10T2000,3003A,120.0522,31.7748,常州市,经开区,颗粒物(PM10),92,134,70,62,23,6,6,62,54,79,41,8,8,0.6,0.5
2025-12-10T2000,3010A,119.9025,31.7964,常州市,钟楼,细颗粒物(PM2.5),73,84,59,53,22,22,22,65,52,60,41,16,10,0.7,0.7
2025-12-10T2000,3429A,119.8598,31.7066,常州市,武进经发区,细颗粒物(PM2.5),77,98,60,56,26,3,3,57,41,85,45,9,8,0.8,0.7
2025-12-10T2000,3430A,119.5826,31.7245,常州市,金坛城区,细颗粒物(PM2.5),89,96,63,66,32,9,9,57,45,68,37,8,9,0.8,0.7
2025-12-10T2000,2220A,120.4318,41.5881,朝阳市,西梁,,29,29,121,16,57,42,42,43,43,17,39,10,22,0.5,1
2025-12-10T2000,2221A,120.4521,41.5646,朝阳市,河畔小区,,22,22,82,14,54,41,41,46,46,16,37,6,18,0.5,1.1
2025-12-10T2000,2222A,120.4176,41.5648,朝阳市,八里堡,,29,29,95,16,54,45,45,44,44,17,41,7,17,0.7,1.2
2025-12-10T2000,2223A,120.3806,41.5969,朝阳市,农业园区,,33,27,86,23,49,33,33,41,41,28,40,16,22,0.5,0.8
2025-12-10T2000,1705A,116.6367,23.6719,潮州市,西园路,,,,,,,,,,,,,,,,
2025-12-10T2000,3026A,116.6183,23.6608,潮州市,市政府,,,62,56,42,26,,,116,116,21,12,6,7,0.5,0.5
2025-12-10T2000,4036A,116.6461,23.6761,潮州市,金山,细颗粒物(PM2.5),57,43,47,40,28,96,96,113,113,16,12,4,4,0.5,0.5
2025-12-10T2000,2472A,113.0073,25.9061,郴州市,马头岭,,,,,,,,,,,,,,,,
2025-12-10T2000,2473A,113.0116,25.8226,郴州市,市职中,细颗粒物(PM2.5),77,82,86,56,72,14,14,70,59,46,34,6,7,1.1,1
2025-12-10T2000,2475A,113.0383,25.8071,郴州市,市审计局,细颗粒物(PM2.5),78,83,92,57,73,23,23,72,66,46,38,3,5,1.0,0.9
2025-12-10T2000,2476A,113.0348,25.7759,郴州市,市环保局,颗粒物(PM10),60,70,101,42,66,60,60,75,75,25,35,4,5,0.7,0.8
2025-12-10T2000,4252A,113.0138,25.8011,郴州市,好美居路49号,,,58,81,50,72,41,41,69,65,46,45,,7,1.0,1.1
2025-12-10T2000,1431A,103.9728,30.7236,成都市,金泉两河,细颗粒物(PM2.5),98,100,101,73,79,5,5,75,71,80,40,3,3,1.1,0.8
2025-12-10T2000,1432A,104.176,30.6872,成都市,十里店,细颗粒物(PM2.5),109,112,109,82,79,58,58,85,85,55,46,3,3,0.8,0.7
2025-12-10T2000,1433A,104.079,30.5706,成都市,三瓦窑,细颗粒物(PM2.5),112,128,121,84,85,79,79,86,86,37,38,4,4,0.9,1
2025-12-10T2000,1434A,104.1114,30.63,成都市,沙河铺,细颗粒物(PM2.5),134,116,120,102,106,43,43,75,71,51,44,5,5,0.9,1
2025-12-10T2000,1437A,104.0786,30.6531,成都市,君平街,细颗粒物(PM2.5),142,146,127,108,95,61,61,84,84,60,38,5,4,0.9,0.9
2025-12-10T2000,1438A,103.613,31.0283,成都市,灵岩寺,,,,,,,,,,,,,,,,
2025-12-10T2000,2880A,104.0239,30.65639,成都市,大石西路,细颗粒物(PM2.5),125,112,87,95,80,14,14,61,58,71,41,6,6,1.0,0.8
2025-12-10T2000,3136A,104.2725,30.5589,成都市,龙泉驿区区政府,细颗粒物(PM2.5),92,95,93,68,72,80,80,83,83,19,25,5,6,0.7,0.7
2025-12-10T2000,3357A,104.0106,30.6931,成都市,金博路,细颗粒物(PM2.5),117,112,97,88,74,2,2,72,67,100,43,6,6,1.3,0.8
2025-12-10T2000,3359A,104.0578,30.5225,成都市,华阳,细颗粒物(PM2.5),122,124,114,92,82,,,93,93,,41,3,3,1.2,0.9
2025-12-10T2000,3488A,104.3880,30.7467,成都市,青石路225号,细颗粒物(PM2.5),89,81,103,66,82,78,78,92,92,28,32,5,5,0.6,0.6
2025-12-10T2000,3489A,104.0789,30.4072,成都市,科学城,细颗粒物(PM2.5),119,111,107,90,86,54,54,90,90,40,26,6,7,0.6,0.6
2025-12-10T2000,4011A,103.8506,30.6947,成都市,光华大道三段,细颗粒物(PM2.5),139,142,110,106,85,8,8,97,92,92,39,3,3,1.5,0.9
2025-12-10T2000,4224A,104.2433,30.5353,成都市,鲸龙路1057号,细颗粒物(PM2.5),104,102,106,78,85,72,72,80,80,30,32,6,6,0.6,0.7
2025-12-10T2000,1062A,117.9531,40.9081,承德市,铁路,细颗粒物(PM2.5),104,115,81,78,46,5,5,8,5,43,39,8,6,1.5,1.1
2025-12-10T2000,1063A,117.9392,40.9763,承德市,中国银行,颗粒物(PM10),66,82,72,39,39,2,2,12,8,37,35,3,3,0.9,0.9
2025-12-10T2000,1064A,117.9503,40.928,承德市,开发区,颗粒物(PM10),78,105,77,45,40,6,6,13,9,42,39,9,7,1.0,0.8
2025-12-10T2000,1066A,117.9268,41.0026,承德市,离宫,,,,,,,,,,,,,,,,
2025-12-10T2000,4274A,117.7994,40.9605,承德市,滨河大街98号,细颗粒物(PM2.5),130,128,93,99,56,4,4,8,6,47,42,8,7,1.6,1.3
2025-12-10T2000,2314A,117.47,30.6618,池州市,池州学院,细颗粒物(PM2.5),112,117,97,84,63,46,46,46,46,54,43,10,10,1.3,1.2
2025-12-10T2000,3237A,117.4918,30.6617,池州市,展览馆,细颗粒物(PM2.5),109,136,98,82,58,5,5,36,30,77,51,10,10,1.9,1.2
2025-12-10T2000,3333A,117.5627,30.695,池州市,第八中学,细颗粒物(PM2.5),105,138,103,79,58,2,2,36,28,94,55,8,8,1.8,1.3
2025-12-10T2000,3334A,117.5038,30.6243,池州市,第十二中学,细颗粒物(PM2.5),94,122,104,70,61,22,22,40,29,73,63,6,8,1.4,1.4
2025-12-10T2000,1744A,118.9233,42.2816,赤峰市,松山一中,,29,29,73,6,36,32,32,35,35,21,38,5,13,0.7,1.3
2025-12-10T2000,1745A,118.9576,42.2728,赤峰市,哈达街,,42,42,81,15,38,36,36,35,35,22,38,8,21,0.9,1.6
2025-12-10T2000,1746A,118.8788,42.2554,赤峰市,天义路,,25,25,67,16,49,37,37,35,35,20,40,6,12,0.6,1.2
2025-12-10T2000,3058A,119.2658,42.0353,赤峰市,银河街,,,58,101,25,47,,,41,41,12,31,8,19,0.5,1
2025-12-10T2000,3286A,118.9359,42.3147,赤峰市,桥北物流园区,,22,22,71,14,48,34,34,45,44,19,30,10,16,0.6,1.3
2025-12-10T2000,2521A,107.3476,22.4136,崇左市,市环保局江州分局,颗粒物(PM10),64,78,69,44,43,64,64,120,118,32,24,6,7,0.8,0.8
2025-12-10T2000,4256A,107.3750,22.3736,崇左市,石景林东路7号,,,47,54,31,43,,,121,121,32,26,7,7,0.7,0.8
2025-12-10T2000,2298A,118.3093,32.3153,滁州市,老年大学,细颗粒物(PM2.5),100,115,83,75,47,50,50,85,84,50,47,13,13,1.0,0.7
2025-12-10T2000,2299A,118.3244,32.2786,滁州市,人大宾馆,细颗粒物(PM2.5),127,131,84,96,49,,,76,76,55,52,8,9,0.8,0.7
2025-12-10T2000,3207A,118.3118,32.3038,滁州市,市政府原办公楼,细颗粒物(PM2.5),108,111,86,81,45,73,73,81,81,44,55,9,8,0.5,0.6
2025-12-10T2000,3331A,118.3267,32.2634,滁州市,图书馆,细颗粒物(PM2.5),105,117,84,79,42,,,91,91,49,55,8,11,0.8,0.6
2025-12-10T2000,2605A,101.5482,25.0441,楚雄彝族自治州,州环境监测站,,24,24,24,14,17,40,40,50,50,8,18,6,6,0.6,0.7
2025-12-10T2000,2606A,101.538,25.0492,楚雄彝族自治州,市经济开发区,,25,25,28,16,21,39,39,53,53,16,18,9,6,0.7,0.6
2025-12-10T2000,2548A,107.5277,31.2827,达州市,达州职业技术学院,,,,,,,,,,,,,,,,
2025-12-10T2000,2549A,107.5086,31.2186,达州市,市环境监测站,细颗粒物(PM2.5),144,142,135,110,106,3,3,26,25,61,37,6,7,1.3,1.3
2025-12-10T2000,2550A,107.4988,31.2132,达州市,凤凰小区,细颗粒物(PM2.5),160,178,148,122,111,4,4,28,28,69,39,7,7,1.5,1.2
2025-12-10T2000,2551A,107.5082,31.1986,达州市,达县机关宾馆,细颗粒物(PM2.5),120,163,154,91,111,3,3,21,20,56,39,4,5,1.3,1.3
2025-12-10T2000,2552A,107.4644,31.2124,达州市,市政中心,细颗粒物(PM2.5),147,184,179,112,120,,,37,37,64,39,7,8,1.6,1.3
2025-12-10T2000,2614A,100.1542,25.7054,大理白族自治州,大理市环境监测站,,23,16,19,16,21,62,62,64,64,11,9,6,6,0.6,0.7
2025-12-10T2000,2615A,100.2171,25.5811,大理白族自治州,大理古城,,40,40,22,24,15,24,24,78,70,49,15,8,8,0.7,0.5
2025-12-10T2000,1109A,121.612,38.9741,大连市,甘井子,,,118,97,68,62,,,73,71,93,64,14,15,0.7,0.5
2025-12-10T2000,1110A,121.565,38.9511,大连市,周水子,细颗粒物(PM2.5),97,128,110,72,63,11,11,76,63,85,57,8,11,1.1,1
2025-12-10T2000,1111A,121.5637,38.8845,大连市,星海三站,颗粒物(PM10),64,78,83,44,59,52,52,72,69,36,35,9,9,0.6,0.8
2025-12-10T2000,1112A,121.6302,38.9117,大连市,青泥洼桥,颗粒物(PM10),73,95,100,46,57,44,44,74,70,52,37,10,10,0.9,0.8
2025-12-10T2000,1113A,121.6251,38.8638,大连市,傅家庄,,,78,89,34,49,65,65,76,76,24,28,13,13,,0.6
2025-12-10T2000,1114A,121.5213,38.8661,大连市,七贤岭,颗粒物(PM10),70,90,93,43,58,61,61,76,72,31,33,10,9,0.6,0.9
2025-12-10T2000,1115A,121.2529,38.8061,大连市,旅顺,细颗粒物(PM2.5),93,118,101,69,63,50,50,73,71,46,26,8,8,0.7,0.6
2025-12-10T2000,1116A,121.7485,39.1311,大连市,金州,细颗粒物(PM2.5),145,190,117,111,73,11,11,64,58,69,49,10,14,1.3,0.8
2025-12-10T2000,1117A,121.7811,39.0496,大连市,开发区,细颗粒物(PM2.5),92,120,111,68,68,9,9,59,55,93,60,13,15,1.0,1.1
2025-12-10T2000,1118A,121.9762,39.0631,大连市,双D港,细颗粒物(PM2.5),89,115,89,66,56,29,29,67,65,55,33,13,12,1.1,0.8
2025-12-10T2000,1789A,124.81117,46.03138,大庆市,大同区,,46,43,34,32,19,22,22,47,36,25,13,8,6,0.9,0.7
2025-12-10T2000,1790A,125.129,46.533,大庆市,龙凤区,颗粒物(PM10),55,60,38,25,19,15,15,55,44,41,16,7,5,0.5,0.4
2025-12-10T2000,1791A,124.902,46.408,大庆市,红岗区,,29,29,28,11,24,34,34,54,50,31,18,7,7,0.7,0.6
2025-12-10T2000,1792A,125.153,46.586,大庆市,萨尔图区,,43,43,34,11,15,38,38,51,44,29,22,7,8,0.8,0.7
2025-12-10T2000,1793A,124.9042,46.6215,大庆市,让胡路区,,,44,29,33,22,,,59,58,19,12,9,7,,0.4
2025-12-10T2000,3481A,125.141,46.634,大庆市,萨区政府监测点,,28,28,31,3,7,30,30,53,41,32,18,8,9,0.5,0.4
2025-12-10T2000,1721A,113.3819,40.1097,大同市,果树场,,45,45,116,26,60,45,45,56,56,39,46,14,20,0.7,1.8
2025-12-10T2000,1723A,113.2994,40.0758,大同市,云冈宾馆,颗粒物(PM10),54,58,100,28,48,62,62,56,56,23,52,7,20,0.4,1.6
2025-12-10T2000,1724A,113.3444,40.0917,大同市,大同大学,,43,43,76,30,40,36,36,34,34,30,45,6,18,0.5,0.9
2025-12-10T2000,1725A,113.2661,40.1269,大同市,安家小村,,41,41,94,24,40,51,51,55,55,26,44,10,23,0.6,1.9
2025-12-10T2000,1726A,113.2711,40.0844,大同市,教育学院,,44,44,106,28,50,44,44,46,46,33,54,7,19,0.4,2
2025-12-10T2000,3282A,113.3397,40.0597,大同市,大同市卫生学校,,44,44,84,26,44,59,59,53,53,27,53,6,22,0.3,1.1
2025-12-10T2000,3565A,113.1367,40.1122,大同市,云冈站,颗粒物(PM10),51,51,78,28,31,40,40,68,67,38,38,8,21,0.5,0.7
2025-12-10T2000,3566A,113.1186,40.2556,大同市,图书馆,颗粒物(PM10),53,56,73,29,37,50,50,64,64,24,24,6,11,0.8,1
2025-12-10T2000,3567A,113.5931,40.0461,大同市,区一中,颗粒物(PM10),51,51,110,24,57,68,68,69,69,22,33,16,27,0.6,1
2025-12-10T2000,4199A,113.2798,40.0997,大同市,魏都大道141号,,48,48,117,20,50,60,60,60,60,24,52,7,22,0.5,2.3
2025-12-10T2000,2269A,124.1069,50.4097,大兴安岭地区,科技局,,23,,15,16,16,41,41,42,41,1,3,5,5,0.3,0.3
2025-12-10T2000,3663A,124.1164,50.4278,大兴安岭地区,红旗社区,,15,6,7,3,4,47,47,48,46,2,6,5,6,0.2,0.3
2025-12-10T2000,1600A,124.3303,40.0625,丹东市,江湾东路,细颗粒物(PM2.5),117,133,103,88,71,6,6,15,9,55,49,16,21,1.9,2.4
2025-12-10T2000,1601A,124.4256,40.1503,丹东市,临江后街,细颗粒物(PM2.5),80,96,91,59,55,6,6,9,6,40,40,16,16,1.2,1.3
2025-12-10T2000,1602A,124.3933,40.1461,丹东市,元宝山,细颗粒物(PM2.5),80,80,87,59,62,18,18,12,10,31,38,12,11,1.0,1.3
2025-12-10T2000,1603A,124.3633,40.1092,丹东市,民主桥,细颗粒物(PM2.5),89,120,98,66,55,9,9,17,14,49,49,12,12,1.2,1.5
2025-12-10T2000,3541A,109.5726,19.5167,儋州市,第一中学子站,,36,36,40,23,24,79,79,92,80,9,7,3,4,0.6,0.5
2025-12-10T2000,3542A,109.5567,19.5187,儋州市,东坡学校子站,,33,23,37,23,20,91,91,103,93,10,7,3,4,0.6,0.5
2025-12-10T2000,2616A,98.5842,24.428,德宏傣族景颇族自治州,德宏州监测站,细颗粒物(PM2.5),68,83,51,49,38,27,27,75,72,47,24,9,10,1.5,0.7
2025-12-10T2000,3677A,98.5881,24.4368,德宏傣族景颇族自治州,芒市人民政府综合楼,颗粒物(PM10),59,67,43,19,27,48,48,71,71,22,15,8,8,0.6,0.6
2025-12-10T2000,1901A,104.4239,31.1208,德阳市,东山公园,,,80,87,71,73,,,88,88,11,26,2,2,1.0,1
2025-12-10T2000,1902A,104.3826,31.1317,德阳市,西小区,细颗粒物(PM2.5),124,116,110,94,79,41,41,74,74,54,32,4,5,1.1,0.8
2025-12-10T2000,1904A,104.3553,31.1091,德阳市,耐火材料厂,细颗粒物(PM2.5),109,103,94,82,81,62,62,79,79,37,33,2,2,1.0,1
2025-12-10T2000,3639A,104.4019,31.1244,德阳市,市教育局,细颗粒物(PM2.5),104,89,84,78,74,20,20,76,74,77,34,2,2,1.2,1
2025-12-10T2000,1622A,116.3032,37.4674,德州市,儿童乐园,细颗粒物(PM2.5),203,259,166,153,88,9,9,64,57,91,50,14,16,1.4,1.1
2025-12-10T2000,1624A,116.2991,37.4451,德州市,监理站,细颗粒物(PM2.5),178,234,156,134,82,29,29,73,70,83,54,14,17,1.1,0.9
2025-12-10T2000,3066A,116.2721,37.4379,德州市,九衢泉纯净水厂,细颗粒物(PM2.5),170,229,159,129,84,21,21,59,55,83,61,16,17,1.7,1.4
2025-12-10T2000,3371A,116.3728,37.4403,德州市,开发区人民医院,细颗粒物(PM2.5),160,232,160,122,81,30,30,74,70,86,53,15,17,1.2,1
2025-12-10T2000,3511A,116.5652,37.3319,德州市,陵城艺术中心,细颗粒物(PM2.5),138,202,149,105,75,26,26,68,65,79,53,15,20,1.0,0.9
2025-12-10T2000,4292A,116.3525,37.4209,德州市,新河东路,细颗粒物(PM2.5),153,219,163,117,86,30,30,64,61,92,73,15,16,1.1,0.8
2025-12-10T2000,2621A,99.7056,27.8317,迪庆藏族自治州,迪庆州站,,,31,30,17,22,,,86,86,20,15,5,5,0.7,0.7
2025-12-10T2000,3180A,99.7136,27.8094,迪庆藏族自治州,质量技术监督局,,30,30,32,19,22,75,75,88,87,19,19,7,7,0.6,0.6
2025-12-10T2000,4257A,104.6092,35.5962,定西市,将台街,,,103,93,41,49,58,58,84,84,,35,15,12,0.4,0.7
2025-12-10T2000,4309A,104.6159,35.5701,定西市,正龙路62号,颗粒物(PM10),75,100,111,33,55,76,76,85,85,11,21,21,20,0.9,1.1
2025-12-10T2000,1389A,113.7547,23.0494,东莞市,莞城梨川,颗粒物(PM10),73,96,83,49,47,62,62,124,120,56,52,5,7,0.7,0.7
2025-12-10T2000,1390A,113.7944,23.0128,东莞市,东城石井,细颗粒物(PM2.5),70,85,67,51,43,51,51,123,113,58,41,8,9,0.8,0.7
2025-12-10T2000,1391A,113.7383,22.9658,东莞市,南城西平,细颗粒物(PM2.5),88,103,86,65,51,39,39,125,109,75,71,7,9,0.9,0.8
2025-12-10T2000,3319A,113.7338,23.0381,东莞市,万江金泰,细颗粒物(PM2.5),79,104,86,58,52,49,49,127,120,72,53,6,8,0.9,0.8
2025-12-10T2000,3626A,113.7533,23.0202,东莞市,南城元岭,细颗粒物(PM2.5),82,108,77,60,48,48,48,128,119,71,44,7,9,0.8,0.7
2025-12-10T2000,3627A,113.7875,23.0457,东莞市,东城主山,颗粒物(PM10),77,104,90,54,48,52,52,122,115,67,54,5,8,0.8,0.7
2025-12-10T2000,1666A,118.6614,37.4309,东营市,市环保局,,,110,141,58,78,,,49,49,76,69,34,30,0.9,1.2
2025-12-10T2000,3036A,118.6904,37.4338,东营市,开发区管委会,细颗粒物(PM2.5),77,101,140,56,76,13,13,55,51,72,62,20,44,0.6,0.7
2025-12-10T2000,3365A,118.5719,37.565,东营市,垦利区民丰路,细颗粒物(PM2.5),107,144,144,80,78,2,2,59,45,86,75,7,11,1.1,1
2025-12-10T2000,3498A,118.5055,37.8612,东营市,河口城区,细颗粒物(PM2.5),123,180,166,93,87,28,28,76,74,90,79,10,13,1.1,1.1
2025-12-10T2000,3646A,118.4978,37.4623,东营市,胜利站,细颗粒物(PM2.5),128,136,132,97,80,3,3,53,47,101,82,17,25,1.7,1.2
2025-12-10T2000,3734A,118.35,37.26,东营市,理想之城,颗粒物(PM10),92,134,150,66,77,3,3,60,46,77,69,11,22,1.2,1
2025-12-10T2000,1591A,110.0023,39.8129,鄂尔多斯市,综合楼,颗粒物(PM10),52,53,56,14,24,73,73,80,80,16,37,7,16,0.4,0.7
2025-12-10T2000,1592A,109.9486,39.8261,鄂尔多斯市,巴音孟克林场办事处,颗粒物(PM10),57,63,58,19,25,71,71,85,82,18,25,5,14,0.2,0.3
2025-12-10T2000,1593A,109.7736,39.5986,鄂尔多斯市,康泽苑,,39,39,53,12,27,66,66,86,84,19,27,8,9,0.4,0.5
2025-12-10T2000,1594A,109.8119,39.5989,鄂尔多斯市,华泰汽车城,颗粒物(PM10),51,51,55,14,26,63,63,82,80,23,39,3,5,0.3,0.6
2025-12-10T2000,1595A,109.9734,39.7884,鄂尔多斯市,奥林花园,颗粒物(PM10),58,66,78,17,25,70,70,78,77,16,47,8,11,0.3,0.5
2025-12-10T2000,2436A,114.8938,30.3994,鄂州市,市政府,细颗粒物(PM2.5),153,147,115,117,94,20,20,47,36,69,48,17,14,1.3,1
2025-12-10T2000,2437A,114.8989,30.3714,鄂州市,赵家坝,细颗粒物(PM2.5),139,157,123,106,91,37,37,50,44,55,44,17,14,1.4,1.2
2025-12-10T2000,3654A,114.8094,30.4089,鄂州市,精准医疗中心,细颗粒物(PM2.5),155,180,139,118,102,25,25,62,53,78,67,17,13,1.2,1.2
2025-12-10T2000,2454A,109.4978,30.2981,恩施土家族苗族自治州,湖北民院,细颗粒物(PM2.5),113,86,113,85,111,34,34,76,74,24,21,6,7,0.8,1.1
2025-12-10T2000,2455A,109.4707,30.2798,恩施土家族苗族自治州,州电力总公司,细颗粒物(PM2.5),108,117,113,81,96,9,9,68,64,71,33,6,6,1.1,0.8
2025-12-10T2000,3549A,109.5061,30.3772,恩施土家族苗族自治州,龙凤新区,细颗粒物(PM2.5),83,88,131,61,100,19,19,55,53,27,15,5,6,0.8,0.7
2025-12-10T2000,2499A,108.3411,21.6158,防城港市,沙万,细颗粒物(PM2.5),78,83,82,57,52,116,116,142,142,28,26,12,14,1.2,0.9
2025-12-10T2000,2500A,108.3514,21.7731,防城港市,防城档案局,,,,100,,56,122,122,145,144,25,29,7,6,1.0,1
2025-12-10T2000,2501A,108.3506,21.6414,防城港市,大海花园,细颗粒物(PM2.5),84,92,76,62,52,117,117,155,155,30,24,41,16,0.7,0.9
2025-12-10T2000,1371A,113.1294,23.0067,佛山市,湾梁,颗粒物(PM10),63,75,100,36,54,66,66,95,95,54,77,7,8,0.7,0.9
2025-12-10T2000,1372A,113.1083,23.0478,佛山市,华材职中,细颗粒物(PM2.5),87,105,116,64,75,71,71,94,94,55,86,8,8,0.9,1
2025-12-10T2000,1373A,113.144,23.0453,佛山市,南海气象局,,,70,95,46,54,74,74,88,88,42,77,8,9,,1.1
2025-12-10T2000,1374A,113.2881,22.8094,佛山市,顺德苏岗,颗粒物(PM10),65,80,81,41,51,74,74,109,105,45,62,7,9,0.7,0.8
2025-12-10T2000,1376A,112.8383,22.8678,佛山市,高明孔堂,颗粒物(PM10),70,90,86,50,60,78,78,92,92,37,49,5,9,0.7,0.8
2025-12-10T2000,3468A,115.7901,32.8613,阜阳市,市规划展馆,细颗粒物(PM2.5),107,103,101,80,56,107,107,113,113,28,31,8,9,0.7,0.6
2025-12-10T2000,3469A,115.836,32.9183,阜阳市,枣园社区,细颗粒物(PM2.5),114,163,121,86,67,1,1,86,80,145,56,8,7,1.0,0.8
2025-12-10T2000,2669A,102.9099,34.9841,甘南藏族自治州,州政府,颗粒物(PM10),64,78,51,38,24,9,9,82,76,67,35,15,10,1.0,0.8
2025-12-10T2000,3380A,102.8914,34.9617,甘南藏族自治州,甘肃民族师范学院,颗粒物(PM10),74,97,68,27,17,6,6,60,55,61,37,6,7,0.7,0.6
2025-12-10T2000,2570A,101.9603,30.0475,甘孜藏族自治州,水桥子,颗粒物(PM10),57,64,25,27,10,14,14,55,52,60,27,9,8,0.8,0.6
2025-12-10T2000,3065A,101.9533,29.9972,甘孜藏族自治州,州环保局,,34,34,31,6,5,59,59,60,60,16,30,6,6,0.4,0.4
2025-12-10T2000,3414A,115.8347,28.932,赣江新区,桑海产业园,细颗粒物(PM2.5),108,139,101,81,63,65,65,136,125,76,56,17,14,1.0,0.7
2025-12-10T2000,2362A,114.9017,25.9149,赣州市,通天岩,细颗粒物(PM2.5),70,80,56,51,43,50,50,113,100,13,12,16,17,1.2,1.2
2025-12-10T2000,2363A,114.9367,25.8664,赣州市,地委,细颗粒物(PM2.5),87,107,86,64,54,10,10,124,111,118,35,7,8,1.4,0.9
2025-12-10T2000,2364A,114.9461,25.8481,赣州市,气象台,颗粒物(PM10),105,159,100,66,53,10,10,126,110,148,46,6,6,1.8,0.9
2025-12-10T2000,2365A,114.9322,25.8333,赣州市,市图书馆,颗粒物(PM10),108,165,96,78,54,,,116,116,134,48,5,5,1.6,0.9
2025-12-10T2000,2366A,114.8905,25.8471,赣州市,华坚鞋城,细颗粒物(PM2.5),87,106,93,64,53,19,19,115,99,101,43,7,7,1.4,0.7
2025-12-10T2000,3109A,115.0093,25.8613,赣州市,赣县区卫计委,细颗粒物(PM2.5),133,111,85,101,74,48,48,112,105,65,42,8,9,1.2,1
2025-12-10T2000,2683A,106.2319,36.1417,固原市,马园,,,,,,,,,,,,,,,,
2025-12-10T2000,2684A,106.2792,36.0022,固原市,监测站,细颗粒物(PM2.5),185,153,113,139,40,,,78,,63,33,16,5,1.5,0.8
2025-12-10T2000,2685A,106.2375,36.0211,固原市,新区,颗粒物(PM10),110,169,110,48,34,15,15,81,64,73,34,6,4,1.0,0.8
2025-12-10T2000,3522A,106.2177,35.9959,固原市,原州区十五小,颗粒物(PM10),133,216,88,76,31,33,33,75,64,43,17,14,7,1.3,0.7
2025-12-10T2000,2543A,106.6308,30.5278,广安市,小平旧居,,,,,,,,,,,,,,,,
2025-12-10T2000,2544A,106.6303,30.4576,广安市,市委,,,,126,,108,,,56,,,25,,4,,1
2025-12-10T2000,2545A,106.6271,30.4663,广安市,友谊中学,细颗粒物(PM2.5),135,133,124,103,106,4,4,46,44,52,24,9,9,1.4,1.1
2025-12-10T2000,2547A,106.6388,30.4551,广安市,广电花园,,,,98,,108,,,38,,,21,,3,,0.9
2025-12-10T2000,2902A,106.6351,30.4865,广安市,北辰小学,细颗粒物(PM2.5),123,125,119,93,108,25,25,52,52,31,22,15,15,1.2,1.1
2025-12-10T2000,2523A,105.8945,32.4535,广元市,黑石坡,,,,,,,,,,,,,,,,
2025-12-10T2000,2524A,105.821,32.4444,广元市,老城,细颗粒物(PM2.5),68,76,68,49,55,6,6,44,41,70,38,8,12,1.2,1.2
2025-12-10T2000,2526A,105.8628,32.4287,广元市,监测站,,,,54,,54,32,32,46,46,31,34,4,8,,1.5
2025-12-10T2000,3617A,105.8047,32.4166,广元市,经开区,细颗粒物(PM2.5),72,81,89,52,63,1,1,40,38,66,34,5,9,1.3,1.2
2025-12-10T2000,1345A,113.2347,23.1423,广州市,广雅中学,细颗粒物(PM2.5),89,112,93,66,55,49,49,79,77,69,77,10,8,1.0,0.9
2025-12-10T2000,1346A,113.2612,23.105,广州市,市五中,,,55,78,33,51,82,82,103,100,46,77,6,8,,0.8
2025-12-10T2000,1348A,113.3478,23.0916,广州市,广东商学院,颗粒物(PM10),59,68,82,39,52,43,43,68,64,49,70,6,7,0.8,0.8
2025-12-10T2000,1349A,113.4332,23.1047,广州市,市八十六中,,47,47,69,30,45,66,66,80,79,48,78,8,9,0.9,1
2025-12-10T2000,1350A,113.3505,22.9483,广州市,番禺中学,颗粒物(PM10),58,65,90,32,55,87,87,99,99,32,65,5,7,0.3,0.6
2025-12-10T2000,1351A,113.2146,23.3916,广州市,花都师范,颗粒物(PM10),72,94,81,49,50,57,57,107,106,63,64,8,9,0.8,0.8
2025-12-10T2000,1352A,113.2597,23.1331,广州市,市监测站,,,47,77,,23,89,89,95,94,28,76,7,8,0.6,0.8
2025-12-10T2000,1353A,113.5618,23.312,广州市,九龙镇镇龙,细颗粒物(PM2.5),90,109,74,67,47,33,33,90,82,50,41,6,6,0.7,0.6
2025-12-10T2000,1354A,113.2765,23.1544,广州市,麓湖,颗粒物(PM10),51,51,62,34,46,54,54,80,76,42,64,8,8,0.7,0.8
2025-12-10T2000,1355A,113.443,23.3035,广州市,帽峰山森林公园,,,,,,,,,,,,,,,,
2025-12-10T2000,2846A,113.3221,23.1322,广州市,体育西,,47,47,66,29,45,75,75,92,91,35,61,7,8,0.6,0.7
2025-12-10T2000,3298A,113.5717,23.5491,广州市,从化街口,细颗粒物(PM2.5),127,129,73,96,54,24,24,89,86,58,45,12,10,1.2,0.9
2025-12-10T2000,3299A,113.3472,23.3692,广州市,白云竹料,细颗粒物(PM2.5),85,102,84,63,54,39,39,97,91,71,52,6,6,1.0,0.8
2025-12-10T2000,3300A,113.2981,23.237,广州市,白云嘉禾,颗粒物(PM10),64,78,80,45,48,29,29,93,88,76,57,7,8,1.0,0.8
2025-12-10T2000,3301A,113.4256,23.1716,广州市,黄埔科学城,,37,37,55,22,37,75,75,108,102,27,33,6,6,0.5,0.7
2025-12-10T2000,3302A,113.3942,23.0483,广州市,番禺大学城,颗粒物(PM10),55,60,96,25,49,90,90,100,100,25,74,10,12,0.5,0.7
2025-12-10T2000,3303A,113.4922,22.8168,广州市,南沙黄阁,细颗粒物(PM2.5),80,75,82,59,53,54,54,97,93,64,67,6,10,0.8,0.8
2025-12-10T2000,3304A,113.5342,22.7896,广州市,南沙街,细颗粒物(PM2.5),80,91,81,59,47,52,52,88,83,54,55,6,6,0.6,0.7
2025-12-10T2000,3443A,113.2902,23.5544,广州市,花都梯面,细颗粒物(PM2.5),59,56,52,42,39,37,37,100,90,37,33,6,9,0.2,0.9
2025-12-10T2000,3445A,113.7858,23.7478,广州市,从化良口,,49,45,36,34,30,56,56,90,88,24,21,7,7,0.7,0.6
2025-12-10T2000,3446A,113.8051,23.2614,广州市,增城荔城,细颗粒物(PM2.5),70,73,49,51,35,61,61,96,94,29,18,5,8,0.6,0.6
2025-12-10T2000,2505A,109.568,23.1478,贵港市,德智高中,,,,,,,,,,,,,,,,
2025-12-10T2000,2506A,109.6047,23.0666,贵港市,江南子站,细颗粒物(PM2.5),88,100,116,65,77,90,90,119,115,36,44,10,10,0.9,1
2025-12-10T2000,2508A,109.5669,23.1065,贵港市,荷城子站,细颗粒物(PM2.5),89,90,90,66,57,78,78,104,104,34,46,9,8,1.1,1.1
2025-12-10T2000,3405A,109.5886,23.1172,贵港市,新世纪学校,细颗粒物(PM2.5),92,105,88,68,59,82,82,113,113,29,33,10,8,0.9,0.9
2025-12-10T2000,4260A,109.5933,23.0951,贵港市,中山路155-3号,细颗粒物(PM2.5),80,76,88,59,61,97,97,121,121,29,38,10,10,0.7,0.8
2025-12-10T2000,1439A,106.6899,26.5998,贵阳市,马鞍山,,35,34,28,24,19,11,11,58,45,40,16,5,7,0.8,0.6
2025-12-10T2000,1441A,106.6243,26.6266,贵阳市,鉴湖路,颗粒物(PM10),60,70,40,39,20,33,33,56,53,41,19,8,6,0.7,0.6
2025-12-10T2000,1442A,106.7487,26.6343,贵阳市,燕子冲,细颗粒物(PM2.5),52,51,32,36,27,34,34,66,55,25,17,1,8,0.5,0.4
2025-12-10T2000,1443A,106.6555,26.4365,贵阳市,碧云窝,细颗粒物(PM2.5),70,70,41,51,22,33,33,60,47,21,15,7,8,0.5,0.5
2025-12-10T2000,1445A,106.7109,26.6027,贵阳市,红边门,细颗粒物(PM2.5),83,88,38,61,27,3,3,63,43,70,22,45,11,1.4,0.6
2025-12-10T2000,1446A,106.7164,26.5699,贵阳市,新华路,颗粒物(PM10),76,102,43,51,26,10,10,60,47,60,19,17,11,1.1,0.6
2025-12-10T2000,1447A,106.674,26.5424,贵阳市,太慈桥,颗粒物(PM10),51,51,34,34,22,13,13,64,48,39,18,4,6,0.5,0.3
2025-12-10T2000,1552A,106.805,26.3003,贵阳市,桐木岭,细颗粒物(PM2.5),62,56,43,44,30,29,29,83,53,9,6,3,1,0.9,0.7
2025-12-10T2000,4230A,106.6882,26.5695,贵阳市,花果园大街66号,细颗粒物(PM2.5),74,70,28,54,28,17,17,63,45,63,20,10,5,0.9,0.5
2025-12-10T2000,4231A,106.6873,26.5169,贵阳市,漓江路57号,细颗粒物(PM2.5),89,,28,66,26,24,24,61,44,46,21,9,9,1.0,0.8
2025-12-10T2000,1862A,110.4144,25.3167,桂林市,电子科大尧山校区,,,,,,,,,,,,,,,,
2025-12-10T2000,1864A,110.3089,25.2708,桂林市,龙隐路小学,细颗粒物(PM2.5),133,111,96,101,80,44,44,80,77,55,42,7,7,0.9,0.8
2025-12-10T2000,1865A,110.2869,25.2178,桂林市,八中,细颗粒物(PM2.5),130,133,96,99,83,21,21,74,69,72,38,8,7,1.2,0.9
2025-12-10T2000,3531A,110.296,25.1253,桂林市,旅游学院,细颗粒物(PM2.5),134,122,92,102,72,42,42,85,80,47,35,5,4,0.8,0.7
2025-12-10T2000,4222A,110.1835,25.2444,桂林市,环湖路276号,,,,98,,71,,,64,64,,49,,7,,0.6
2025-12-10T2000,4301A,110.2803,25.2773,桂林市,信义路13号,细颗粒物(PM2.5),118,122,107,89,71,42,42,85,78,56,44,5,6,1.3,1.1
2025-12-10T2000,2674A,100.2561,34.4714,果洛藏族自治州,玛沁县大武镇,颗粒物(PM10),52,53,48,20,12,60,60,90,86,9,5,16,16,0.4,0.4
2025-12-10T2000,1129A,126.5422,45.755,哈尔滨市,岭北,,,,,,,,,,,,,,,,
2025-12-10T2000,1130A,126.561,45.8167,哈尔滨市,松北商大,,,80,52,49,36,,,50,46,62,31,8,10,,0.6
2025-12-10T2000,1131A,126.979,45.5419,哈尔滨市,阿城会宁,细颗粒物(PM2.5),110,88,48,83,43,8,8,42,32,49,25,9,10,1.3,0.8
2025-12-10T2000,1132A,126.599,45.7222,哈尔滨市,南岗学府路,细颗粒物(PM2.5),62,59,48,44,28,20,20,44,38,38,25,13,12,0.8,0.6
2025-12-10T2000,1133A,126.689,45.7733,哈尔滨市,太平宏伟公园,细颗粒物(PM2.5),67,59,49,48,35,48,48,54,52,19,25,15,21,0.6,0.6
2025-12-10T2000,1134A,126.635,45.7667,哈尔滨市,道外承德广场,颗粒物(PM10),61,71,64,33,33,44,44,54,52,23,29,12,15,0.8,0.5
2025-12-10T2000,1135A,126.685,45.7319,哈尔滨市,香坊红旗大街,颗粒物(PM10),57,63,60,35,34,45,45,54,52,20,29,17,15,0.6,0.8
2025-12-10T2000,1136A,126.6411,45.7258,哈尔滨市,动力和平路,细颗粒物(PM2.5),57,48,50,40,34,21,21,52,46,41,29,15,17,0.7,0.6
2025-12-10T2000,1137A,126.593,45.7478,哈尔滨市,道里建国路,颗粒物(PM10),52,53,54,34,40,30,30,46,42,31,31,3,10,0.7,0.8
2025-12-10T2000,1138A,126.615,45.61,哈尔滨市,平房东轻厂,,,102,58,66,43,,,35,,74,33,18,13,1.2,0.9
2025-12-10T2000,1139A,126.595,45.9855,哈尔滨市,呼兰师专,细颗粒物(PM2.5),179,148,60,135,52,11,11,46,37,70,30,17,9,1.3,0.8
2025-12-10T2000,1140A,126.6206,45.6842,哈尔滨市,省农科院,细颗粒物(PM2.5),138,141,59,105,42,10,10,53,41,63,34,27,11,1.3,0.6
2025-12-10T2000,2688A,93.5128,42.8172,哈密市,地区监测站,,,100,72,46,41,,,62,60,21,22,8,11,0.1,0.2
2025-12-10T2000,2689A,93.4961,42.8328,哈密市,哈密师范学校,颗粒物(PM10),70,90,74,37,35,41,41,44,,21,26,10,7,0.4,0.5
2025-12-10T2000,2671A,100.9048,36.9639,海北藏族自治州,海晏县西海镇,,32,32,21,15,12,73,73,89,89,7,4,11,10,0.3,0.4
2025-12-10T2000,3867A,102.0738,36.5056,海东市,平安区公安北苑,颗粒物(PM10),80,109,79,55,51,65,65,72,71,30,31,52,25,1.0,1.4
2025-12-10T2000,1409A,110.576,19.9507,海口市,东寨港,,,,,,,,,,,,,,,,
2025-12-10T2000,1410A,110.3232,20.0574,海口市,海南大学,"颗粒物(PM10),细颗粒物(PM2.5)",58,66,53,41,29,125,125,127,122,12,10,7,6,0.6,0.4
2025-12-10T2000,1411A,110.283,20.0053,海口市,秀英海南医院,细颗粒物(PM2.5),55,56,44,39,27,121,121,120,113,15,13,8,8,0.3,0.3
2025-12-10T2000,1412A,110.338,19.9969,海口市,海南师范大学,细颗粒物(PM2.5),58,55,44,41,29,129,129,124,120,16,13,6,6,0.6,0.6
2025-12-10T2000,1413A,110.33,20.0356,海口市,龙华路环保局宿舍,细颗粒物(PM2.5),59,54,45,42,30,130,130,128,125,15,13,8,8,0.7,0.6
2025-12-10T2000,3539A,110.5111,19.9736,海口市,桂林洋子站,细颗粒物(PM2.5),59,66,47,42,28,124,124,112,105,14,10,8,7,0.5,0.4
2025-12-10T2000,2673A,100.6188,36.2866,海南藏族自治州,共和县恰卜恰镇,颗粒物(PM10),68,85,38,9,16,11,11,80,71,53,27,15,12,0.6,0.5
2025-12-10T2000,2676A,97.3731,37.3753,海西蒙古族藏族自治州,德令哈市,,,42,24,3,9,,,91,91,18,7,9,10,0.6,0.6
2025-12-10T2000,1048A,114.5302,36.6116,邯郸市,东污水处理厂,细颗粒物(PM2.5),252,243,185,202,145,30,30,36,36,84,74,14,10,1.4,1.2
2025-12-10T2000,1049A,114.4918,36.5713,邯郸市,矿院,细颗粒物(PM2.5),250,220,170,200,148,24,24,36,35,92,78,11,8,1.3,1.1
2025-12-10T2000,1050A,114.484,36.6133,邯郸市,丛台公园,细颗粒物(PM2.5),245,252,183,195,139,22,22,39,38,99,74,15,12,1.3,1.2
2025-12-10T2000,3458A,114.7895,36.5593,邯郸市,香泉濮院小区,细颗粒物(PM2.5),254,292,204,204,143,33,33,44,44,78,58,11,9,1.4,1.1
2025-12-10T2000,3579A,114.50634,36.77178,邯郸市,永年区实验高中,细颗粒物(PM2.5),210,257,177,160,99,6,6,34,30,127,88,14,12,1.5,1.3
2025-12-10T2000,3580A,114.20016,36.44293,邯郸市,峰峰矿区临水派出所,细颗粒物(PM2.5),260,,135,210,153,29,29,65,61,80,44,14,16,1.1,1.1
2025-12-10T2000,2634A,106.9893,33.1842,汉中市,汉川机床厂子校,,,,,,,,,,,,,,,,
2025-12-10T2000,2635A,107.0154,33.0706,汉中市,市监测站,细颗粒物(PM2.5),94,114,100,70,82,12,12,64,60,83,43,7,7,2.1,1.3
2025-12-10T2000,2636A,107.0089,33.1138,汉中市,鑫源开发区,细颗粒物(PM2.5),75,85,83,55,56,53,53,72,72,39,38,7,8,0.8,1
2025-12-10T2000,2637A,107.007,33.0323,汉中市,南郑大河坎水厂,细颗粒物(PM2.5),133,174,115,101,82,5,5,65,58,67,33,7,6,1.9,1.2
2025-12-10T2000,1223A,120.2072,30.2111,杭州市,滨江,,,,68,,22,,,40,,,47,,9,,0.4
2025-12-10T2000,1224A,120.0633,30.2747,杭州市,西溪,颗粒物(PM10),53,56,51,32,26,5,5,52,41,38,35,8,8,0.5,0.4
2025-12-10T2000,1226A,120.3417,30.3150,杭州市,下沙,颗粒物(PM10),62,73,55,33,24,1,1,47,33,93,51,7,8,0.8,0.6
2025-12-10T2000,1227A,120.1269,30.2456,杭州市,卧龙桥,,46,46,49,23,21,0,0,51,34,42,30,8,8,0.6,0.5
2025-12-10T2000,1228A,120.1903,30.2692,杭州市,浙江农大,颗粒物(PM10),85,119,62,54,27,3,3,50,34,103,59,10,8,1.2,0.5
2025-12-10T2000,1230A,120.1197,30.3119,杭州市,和睦小学,颗粒物(PM10),79,107,69,37,26,3,3,56,42,80,46,9,9,1.0,0.6
2025-12-10T2000,1231A,120.3019,30.4183,杭州市,临平镇,颗粒物(PM10),84,117,60,43,23,2,2,51,38,82,43,7,7,1.2,0.6
2025-12-10T2000,1232A,120.2753,30.1839,杭州市,城厢镇,,,,68,,29,,,40,,,50,,8,,0.6
2025-12-10T2000,1233A,120.0883,30.1808,杭州市,云栖,,50,50,69,21,30,8,8,49,37,46,43,4,5,0.4,0.5
2025-12-10T2000,3557A,119.9464,30.0494,杭州市,镇二中,颗粒物(PM10),66,81,60,46,32,2,2,45,37,88,50,6,6,1.0,0.8
2025-12-10T2000,3558A,119.7183,30.2367,杭州市,市府大楼,颗粒物(PM10),109,168,82,77,34,11,11,67,54,57,33,11,11,1.2,0.7
2025-12-10T2000,3656A,120.1556,30.2864,杭州市,消防大队,,,83,65,47,30,3,3,62,48,,40,5,5,1.1,0.5
2025-12-10T2000,1270A,117.1959,31.7848,合肥市,明珠广场,细颗粒物(PM2.5),110,141,94,83,43,10,10,59,50,79,55,7,9,1.0,0.7
2025-12-10T2000,1271A,117.3072,31.8764,合肥市,三里街,颗粒物(PM10),103,156,100,75,44,,,51,51,109,75,7,7,1.2,0.8
2025-12-10T2000,1272A,117.2588,31.8707,合肥市,琥珀山庄,细颗粒物(PM2.5),94,127,96,70,46,10,10,64,55,88,59,6,8,1.1,0.8
2025-12-10T2000,1273A,117.1604,31.9052,合肥市,董铺水库,,,,,,,,,,,,,,,,
2025-12-10T2000,1274A,117.25,31.8571,合肥市,长江中路,细颗粒物(PM2.5),107,144,96,80,47,15,15,64,56,90,55,9,10,1.0,0.7
2025-12-10T2000,1275A,117.266,31.9436,合肥市,庐阳区,细颗粒物(PM2.5),113,161,105,85,45,6,6,73,64,110,68,12,12,1.1,0.8
2025-12-10T2000,1276A,117.3453,31.8616,合肥市,瑶海区,颗粒物(PM10),102,153,98,73,42,1,1,60,45,105,68,7,7,0.9,0.7
2025-12-10T2000,1277A,117.3027,31.7964,合肥市,包河区,细颗粒物(PM2.5),100,124,94,75,46,14,14,71,58,86,78,8,11,1.1,0.8
2025-12-10T2000,1278A,117.2776,31.7385,合肥市,滨湖新区,细颗粒物(PM2.5),110,122,90,83,47,27,27,68,57,59,44,6,7,0.9,0.7
2025-12-10T2000,1279A,117.1318,31.8403,合肥市,高新区,细颗粒物(PM2.5),110,139,91,83,43,22,22,80,73,83,57,6,8,,0.8
2025-12-10T2000,3464A,117.3803,31.9147,合肥市,高教基地,细颗粒物(PM2.5),103,112,89,77,50,36,36,69,63,47,39,7,7,0.8,0.7
2025-12-10T2000,3614A,79.924,37.0877,和田地区,地区环保局,颗粒物(PM10),107,163,213,36,54,64,64,83,83,21,15,2,2,1.0,1.2
2025-12-10T2000,3615A,79.9131,37.113,和田地区,市环保局,颗粒物(PM10),125,200,193,24,30,77,77,95,95,29,27,2,3,0.4,0.2
2025-12-10T2000,2516A,108.2011,24.715,河池市,东仁乐园,,,,,,,,,,,,,,,,
2025-12-10T2000,2517A,108.0497,24.6947,河池市,市环保站,细颗粒物(PM2.5),84,84,69,62,58,57,57,80,80,22,31,9,7,1.0,0.9
2025-12-10T2000,2518A,108.0983,24.6989,河池市,市疾控中心,细颗粒物(PM2.5),117,91,76,88,61,42,42,80,80,43,37,9,9,1.2,1
2025-12-10T2000,1696A,114.6778,23.7569,河源市,源西,,,,,,,,,,,,,,,,
2025-12-10T2000,1697A,114.6944,23.7586,河源市,东埔,,,,52,,38,,,57,,,33,,6,,0.7
2025-12-10T2000,1698A,114.6892,23.7233,河源市,老城,,,,46,,32,,,61,,,23,,7,,0.7
2025-12-10T2000,1718A,115.4208,35.2464,菏泽市,气象局,细颗粒物(PM2.5),180,211,147,136,79,64,64,85,82,46,35,8,7,0.8,0.6
2025-12-10T2000,3374A,115.5564,35.0891,菏泽市,定陶老年大学,细颗粒物(PM2.5),160,190,133,122,68,60,60,80,80,53,43,5,6,0.9,0.7
2025-12-10T2000,4184A,115.4797,35.24401,菏泽市,永昌路1号,细颗粒物(PM2.5),152,184,146,116,74,67,67,80,80,43,41,7,7,0.7,0.6
2025-12-10T2000,4193A,115.4715,35.2800,菏泽市,长城路999号,细颗粒物(PM2.5),149,189,142,114,70,75,75,89,89,39,36,4,6,0.8,0.6
2025-12-10T2000,2514A,111.5264,24.4172,贺州市,环保小区,颗粒物(PM10),93,135,77,65,58,20,20,90,84,65,28,6,6,1.8,1.1
2025-12-10T2000,2515A,111.5608,24.4078,贺州市,政协大楼,细颗粒物(PM2.5),107,136,78,80,57,19,19,81,72,63,34,15,8,1.6,1
2025-12-10T2000,3534A,111.4744,24.4553,贺州市,西湾,细颗粒物(PM2.5),88,90,82,65,56,31,31,90,85,56,26,5,5,0.9,1.1
2025-12-10T2000,2385A,114.17,35.9019,鹤壁市,市监测站,细颗粒物(PM2.5),225,230,153,175,114,27,27,75,72,64,38,9,9,1.5,1
2025-12-10T2000,2386A,114.2956,35.7511,鹤壁市,市交警支队,细颗粒物(PM2.5),199,219,180,149,119,68,68,72,72,54,54,12,8,1.1,1
2025-12-10T2000,2387A,114.2878,35.7306,鹤壁市,迎宾馆,细颗粒物(PM2.5),206,208,182,156,120,77,77,81,81,45,46,10,10,1.1,1
2025-12-10T2000,3474A,114.2617,35.6822,鹤壁市,大新区,细颗粒物(PM2.5),203,219,184,153,130,45,45,71,71,69,68,10,10,1.3,1.2
2025-12-10T2000,3596A,114.1572,35.9603,鹤壁市,南山宾馆,细颗粒物(PM2.5),226,240,158,176,110,56,56,84,82,52,28,12,13,1.4,0.9
2025-12-10T2000,2244A,130.2537,47.3416,鹤岗市,哈啤分公司,,21,18,30,12,23,65,65,66,66,4,10,6,6,0.5,0.5
2025-12-10T2000,2245A,130.2684,47.3086,鹤岗市,斯达机电,,25,23,32,17,21,66,66,66,66,5,13,7,8,0.3,0.5
2025-12-10T2000,2246A,130.3114,47.3388,鹤岗市,东山纸板厂,,29,28,74,20,34,64,64,63,63,4,27,6,14,0.4,1.5
2025-12-10T2000,2247A,130.1097,47.3382,鹤岗市,五号水库,,,,,,,,,,,,,,,,
2025-12-10T2000,2263A,127.4833,50.2524,黑河市,交通局,,,,18,,16,,,41,,,11,,4,,0.6
2025-12-10T2000,2264A,127.5144,50.2341,黑河市,环保局,,26,,19,18,18,43,43,49,45,10,12,6,6,0.3,0.8
2025-12-10T2000,2265A,127.5291,50.2472,黑河市,大黑河岛,,,,,,,,,,,,,,,,
2025-12-10T2000,1074A,115.6838,37.7541,衡水市,电机北厂,细颗粒物(PM2.5),198,242,224,148,141,0,0,35,29,92,73,9,10,1.2,1.1
2025-12-10T2000,1075A,115.6303,37.7316,衡水市,市监测站,细颗粒物(PM2.5),196,212,186,147,132,0,0,38,31,100,77,10,10,1.2,1
2025-12-10T2000,3188A,115.6683,37.7217,衡水市,市城管局,细颗粒物(PM2.5),192,241,206,144,121,0,0,42,35,100,74,12,12,1.2,1
2025-12-10T2000,3459A,115.5989,37.5491,衡水市,地表水厂,细颗粒物(PM2.5),211,222,180,161,135,2,2,50,41,99,73,8,11,1.0,0.8
2025-12-10T2000,2456A,112.5003,26.9167,衡阳市,原169医院,,,,,,,,,,,,,,,,
2025-12-10T2000,2457A,112.6194,26.9258,衡阳市,衡阳化工总厂,细颗粒物(PM2.5),162,185,126,123,109,117,117,139,139,28,40,9,11,1.3,1.2
2025-12-10T2000,2458A,112.6211,26.8956,衡阳市,珠晖区环保局,细颗粒物(PM2.5),186,151,122,140,113,44,44,121,112,100,49,7,9,1.7,1.6
2025-12-10T2000,2459A,112.6197,26.8733,衡阳市,市委党校,细颗粒物(PM2.5),142,127,121,108,104,118,118,135,135,27,27,10,12,1.5,1.4
2025-12-10T2000,2460A,112.6006,26.8919,衡阳市,市监测站,细颗粒物(PM2.5),208,191,150,158,122,37,37,127,114,84,43,9,12,2.5,1.5
2025-12-10T2000,2461A,112.5664,26.9056,衡阳市,真空机电公司,细颗粒物(PM2.5),162,157,129,123,111,71,71,129,123,73,40,11,14,1.8,1.4
2025-12-10T2000,3399A,112.6703,26.882,衡阳市,师范学院,细颗粒物(PM2.5),139,157,142,106,100,69,69,126,122,46,33,13,16,1.4,1.1
2025-12-10T2000,2608A,103.3772,23.3993,红河哈尼族彝族自治州,污水处理厂,细颗粒物(PM2.5),54,52,38,38,32,63,63,75,74,10,11,5,9,0.4,0.4
2025-12-10T2000,2609A,103.3861,23.35,红河哈尼族彝族自治州,监测站,,49,36,39,34,32,63,63,77,74,7,6,8,7,0.5,0.3
2025-12-10T2000,3038A,103.3758,23.368,红河哈尼族彝族自治州,州图书馆,,40,40,30,28,22,63,63,76,74,8,7,6,5,0.5,0.5
2025-12-10T2000,1090A,111.6507,40.7517,呼和浩特市,呼市一监,,20,17,106,14,62,64,64,24,24,14,53,7,13,0.2,1
2025-12-10T2000,1091A,111.6572,40.8033,呼和浩特市,小召,,22,22,98,14,50,64,64,22,22,18,65,8,13,0.3,1.1
2025-12-10T2000,1094A,111.7516,40.8369,呼和浩特市,如意水处理厂,,34,34,90,20,49,50,50,34,34,26,57,8,13,0.5,1.1
2025-12-10T2000,1095A,111.7276,40.8062,呼和浩特市,二十九中,,31,31,91,18,45,61,61,30,30,17,58,10,17,0.3,0.8
2025-12-10T2000,1096A,111.5512,40.7866,呼和浩特市,工大金川校区,颗粒物(PM10),59,67,100,20,53,40,40,16,16,38,63,7,15,0.4,0.7
2025-12-10T2000,1097A,111.717,40.7612,呼和浩特市,化肥厂生活区,颗粒物(PM10),59,68,97,35,52,37,37,18,18,45,64,10,14,0.6,0.9
2025-12-10T2000,3698A,111.5968,40.8178,呼和浩特市,红旗小学,,22,14,92,14,49,68,68,26,26,11,60,7,16,0.3,0.9
2025-12-10T2000,3699A,111.6518,40.8389,呼和浩特市,海东办,,20,14,88,12,48,64,64,31,31,18,55,4,11,0.4,1.1
2025-12-10T2000,3061A,119.7512,49.1577,呼伦贝尔市,国华电力东,,42,37,20,29,13,34,34,55,44,35,23,4,5,0.8,0.6
2025-12-10T2000,4279A,119.7569,49.2222,呼伦贝尔市,伊敏大街东7号,,46,,23,32,17,43,43,50,46,10,7,6,6,0.8,0.8
2025-12-10T2000,1250A,120.0751,30.8669,湖州市,城西水厂,颗粒物(PM10),74,97,58,50,28,11,11,60,50,95,43,11,9,0.8,0.5
2025-12-10T2000,2873A,120.0830,30.8929,湖州市,仁皇山新区,颗粒物(PM10),61,71,56,35,27,25,25,53,46,59,41,8,8,0.7,0.5
2025-12-10T2000,2907A,120.1844,30.8596,湖州市,吴兴区站,颗粒物(PM10),65,80,57,37,24,16,16,57,46,73,36,7,7,1.0,0.8
2025-12-10T2000,3562A,120.4148,30.8538,湖州市,南浔区站,颗粒物(PM10),65,79,42,37,18,15,15,57,49,55,17,5,6,1.0,0.7
2025-12-10T2000,1607A,120.9049,40.7211,葫芦岛市,龙港区,颗粒物(PM10),66,81,140,36,110,34,34,48,42,28,53,16,35,0.7,1.3
2025-12-10T2000,1608A,120.8392,40.7514,葫芦岛市,化工街,颗粒物(PM10),75,100,153,31,98,35,35,46,44,20,48,11,37,0.5,1.2
2025-12-10T2000,1609A,120.8341,40.7073,葫芦岛市,新区,,,80,136,32,105,34,34,43,42,26,58,,29,,1.5
2025-12-10T2000,1610A,120.8695,40.7677,葫芦岛市,东城区,颗粒物(PM10),67,84,130,31,103,30,30,46,43,27,50,9,33,0.7,1.3
2025-12-10T2000,2482A,109.5981,27.5721,怀化市,林科所,,,,,,,,,,,,,,,,
2025-12-10T2000,2483A,109.9453,27.5444,怀化市,河西地税局,细颗粒物(PM2.5),108,122,80,81,56,34,34,89,78,52,26,7,7,1.0,0.7
2025-12-10T2000,2484A,109.9781,27.5342,怀化市,市四医院,细颗粒物(PM2.5),123,129,106,93,67,60,60,92,78,27,23,25,26,0.8,0.8
2025-12-10T2000,2485A,109.9972,27.5578,怀化市,监测楼,细颗粒物(PM2.5),119,131,96,90,64,62,62,102,93,34,27,19,11,0.6,0.5
2025-12-10T2000,2486A,110.0394,27.583,怀化市,市委党校,细颗粒物(PM2.5),122,126,96,92,68,45,45,98,86,39,29,42,24,0.9,0.7
2025-12-10T2000,1210A,119.036,33.5981,淮安市,钵池山,颗粒物(PM10),75,100,61,47,32,45,45,84,79,60,31,7,8,0.8,0.6
2025-12-10T2000,1211A,119.007,33.575,淮安市,北京南路,细颗粒物(PM2.5),85,100,65,63,32,21,21,68,59,78,30,8,8,0.8,0.6
2025-12-10T2000,1212A,118.989,33.6067,淮安市,市监测站,细颗粒物(PM2.5),98,92,55,73,32,43,43,74,73,61,29,9,10,0.7,0.5
2025-12-10T2000,1213A,119.135,33.5039,淮安市,楚州区监测站,细颗粒物(PM2.5),95,137,64,71,35,13,13,68,62,89,35,10,10,0.9,0.6
2025-12-10T2000,3426A,118.8755,33.2894,淮安市,新华书店,细颗粒物(PM2.5),87,111,74,64,40,64,64,70,70,52,38,11,11,1.0,0.7
2025-12-10T2000,4206A,119.0288,33.6319,淮安市,承德北路606号,颗粒物(PM10),89,127,76,53,34,27,27,68,65,75,29,8,8,1.2,0.6
2025-12-10T2000,2282A,116.8004,33.975,淮北市,监测站,细颗粒物(PM2.5),117,146,115,88,53,52,52,77,76,59,38,10,10,0.8,0.6
2025-12-10T2000,2283A,116.8091,33.9007,淮北市,烈山区政府,细颗粒物(PM2.5),134,158,117,102,55,53,53,80,79,63,40,14,13,0.6,0.5
2025-12-10T2000,3330A,116.8873,33.9836,淮北市,杜集区检察院,细颗粒物(PM2.5),122,147,111,92,56,58,58,86,84,50,29,10,8,0.8,0.7
2025-12-10T2000,4017A,116.7923,33.9535,淮北市,市博物馆,细颗粒物(PM2.5),143,170,120,109,60,42,42,80,75,68,37,12,12,0.7,0.5
2025-12-10T2000,2277A,116.8305,32.7727,淮南市,潘集区政府,细颗粒物(PM2.5),150,181,130,115,72,55,55,76,76,51,39,9,10,0.9,0.7
2025-12-10T2000,2279A,116.8569,32.5951,淮南市,谢家集区政府,细颗粒物(PM2.5),127,147,87,96,42,90,90,98,98,35,33,10,10,0.6,0.4
2025-12-10T2000,2280A,116.8281,32.633,淮南市,八公山区政府,细颗粒物(PM2.5),110,134,90,83,43,85,85,106,106,31,28,7,8,0.8,0.7
2025-12-10T2000,2281A,116.6325,32.6201,淮南市,焦岗湖风景区管理处,,,,,,,,,,,,,,,,
2025-12-10T2000,2894A,117.0566,32.6531,淮南市,经济技术开发区消防队,细颗粒物(PM2.5),130,145,108,99,56,72,72,94,94,54,48,4,4,0.9,0.6
2025-12-10T2000,3329A,117.0108,32.5893,淮南市,山南新区,细颗粒物(PM2.5),135,189,113,103,51,77,77,90,90,45,37,5,6,0.8,0.6
2025-12-10T2000,4209A,117.0031,32.6445,淮南市,国庆中路369号,细颗粒物(PM2.5),114,134,88,86,52,62,62,90,84,54,37,9,9,0.8,0.5
2025-12-10T2000,2446A,114.9028,30.4742,黄冈市,职工中心,细颗粒物(PM2.5),112,124,104,84,70,52,52,75,68,57,38,12,11,1.3,0.9
2025-12-10T2000,2929A,114.8858,30.4519,黄冈市,红卫路,细颗粒物(PM2.5),128,126,98,97,76,24,24,63,56,55,33,12,10,1.2,0.9
2025-12-10T2000,3398A,114.9136,30.4445,黄冈市,市林业局,细颗粒物(PM2.5),129,151,122,98,79,23,23,68,58,90,43,16,9,1.0,1.1
2025-12-10T2000,2672A,102.0199,35.5102,黄南藏族自治州,同仁县隆务镇,颗粒物(PM10),56,62,41,20,18,48,48,65,63,12,8,11,10,0.4,0.5
2025-12-10T2000,2295A,118.2903,29.6963,黄山市,延安路89号,细颗粒物(PM2.5),74,85,57,54,40,64,64,87,85,25,27,5,5,0.6,0.4
2025-12-10T2000,2297A,118.1371,30.2756,黄山市,黄山区政府5号楼,颗粒物(PM10),55,60,70,38,51,78,78,100,96,16,15,6,6,0.5,0.5
2025-12-10T2000,4210A,118.3354,29.7203,黄山市,滨江东路7-2号,细颗粒物(PM2.5),95,118,68,71,43,7,7,86,62,63,31,5,4,0.9,0.5
2025-12-10T2000,2423A,115.0601,30.2313,黄石市,沈家营,细颗粒物(PM2.5),130,162,132,99,77,4,4,45,40,75,52,7,9,1.3,1.2
2025-12-10T2000,2426A,114.8988,30.2019,黄石市,铁山,细颗粒物(PM2.5),183,,95,138,90,23,23,80,59,77,46,4,4,1.1,0.9
2025-12-10T2000,2427A,115.0307,30.2092,黄石市,团城山,细颗粒物(PM2.5),140,146,113,107,81,27,27,86,52,70,44,9,8,1.2,1
2025-12-10T2000,3149A,115.0235,30.1578,黄石市,笔架山北路,细颗粒物(PM2.5),162,215,157,123,87,22,22,62,52,61,37,7,7,1.6,1.4
2025-12-10T2000,4185A,115.0780,30.21118,黄石市,磁湖东路29号,细颗粒物(PM2.5),147,169,129,112,92,15,15,67,34,68,48,12,13,1.5,1.2
2025-12-10T2000,1392A,114.4183,23.0528,惠州市,河南岸金山湖子站,颗粒物(PM10),52,53,63,35,34,63,63,72,72,18,26,2,5,0.7,0.8
2025-12-10T2000,1393A,114.4053,23.0822,惠州市,下埔横江三路子站,颗粒物(PM10),55,60,65,38,34,63,63,80,76,23,22,5,7,0.7,0.7
2025-12-10T2000,1394A,114.4103,23.1142,惠州市,江北云山西路子站,颗粒物(PM10),54,57,62,36,36,69,69,87,84,26,26,6,9,0.6,0.6
2025-12-10T2000,1395A,114.4645,22.7833,惠州市,惠阳区承修路船湖子站,颗粒物(PM10),55,59,66,38,34,59,59,76,76,27,23,5,6,0.6,0.6
2025-12-10T2000,1396A,114.5317,22.7422,惠州市,大亚湾管委会子站,颗粒物(PM10),51,52,62,35,31,69,69,77,77,23,25,4,5,0.6,0.5
2025-12-10T2000,3314A,114.4338,22.8134,惠州市,惠阳秋长,,,66,59,43,33,,,89,89,61,26,9,8,0.7,0.6
2025-12-10T2000,3452A,114.6517,22.775,惠州市,大亚湾霞涌,,39,39,54,24,27,93,93,96,96,10,18,3,4,0.5,0.5
2025-12-10T2000,1653A,116.6251,35.4302,济宁市,火炬城,细颗粒物(PM2.5),140,157,124,107,72,39,39,69,65,55,33,9,9,0.5,0.4
2025-12-10T2000,1655A,116.5491,35.4042,济宁市,电化厂,细颗粒物(PM2.5),134,195,156,102,72,38,38,72,68,66,37,10,10,0.5,0.4
2025-12-10T2000,3500A,116.5814,35.3707,济宁市,北湖一中,细颗粒物(PM2.5),130,132,107,99,68,54,54,71,69,42,34,10,10,0.7,0.7
2025-12-10T2000,3501A,116.8249,35.5593,济宁市,服务中心,细颗粒物(PM2.5),123,137,142,93,66,44,44,73,71,38,41,16,14,0.6,0.5
2025-12-10T2000,3678A,116.5907,35.4054,济宁市,市第七中学,细颗粒物(PM2.5),113,144,119,85,62,57,57,78,76,47,37,11,12,0.6,0.6
2025-12-10T2000,2255A,130.2751,46.8028,佳木斯市,佳纺,,,,46,,27,,,38,,,18,,3,,0.4
2025-12-10T2000,2256A,130.3995,46.8307,佳木斯市,发电厂,,18,18,30,12,25,50,50,55,54,10,16,4,4,0.4,0.4
2025-12-10T2000,2257A,130.3258,46.7975,佳木斯市,环保局,,,,29,,23,,,44,,,14,,3,,0.3
2025-12-10T2000,2258A,130.3648,46.8032,佳木斯市,十一中,,,,34,,27,,,50,50,16,17,6,6,0.7,0.5
2025-12-10T2000,2259A,130.3794,46.7588,佳木斯市,四丰,,,,,,,,,,,,,,,,
2025-12-10T2000,1252A,120.7436,30.778,嘉兴市,清河小学,颗粒物(PM10),68,86,44,25,14,5,5,67,52,80,30,7,5,0.6,0.3
2025-12-10T2000,1253A,120.726,30.7478,嘉兴市,嘉兴学院,颗粒物(PM10),70,89,39,42,14,11,11,70,53,77,27,6,7,0.8,0.4
2025-12-10T2000,2872A,120.7846,30.7525,嘉兴市,南湖区残联,颗粒物(PM10),75,99,39,36,14,3,3,76,59,87,27,4,4,0.9,0.4
2025-12-10T2000,3407A,120.6916,30.7739,嘉兴市,秀洲住建,颗粒物(PM10),75,100,38,49,15,5,5,70,53,79,28,7,6,0.8,0.4
2025-12-10T2000,1945A,98.2908,39.7711,嘉峪关市,气象局,颗粒物(PM10),119,188,161,39,37,52,52,73,70,16,8,10,13,0.7,0.6
2025-12-10T2000,2884A,98.2672,39.7978,嘉峪关市,酒钢宾馆,颗粒物(PM10),114,178,166,46,38,53,53,74,69,27,13,17,21,0.8,0.6
2025-12-10T2000,3248A,98.2643,39.7724,嘉峪关市,雄关区,颗粒物(PM10),98,146,124,46,33,50,50,72,70,33,20,11,18,0.9,0.7
2025-12-10T2000,1383A,113.1064,22.6058,江门市,北街,细颗粒物(PM2.5),59,59,97,42,71,85,85,100,100,44,75,7,8,0.6,0.8
2025-12-10T2000,1384A,113.0731,22.5835,江门市,西区,细颗粒物(PM2.5),59,61,107,42,62,82,82,106,103,60,84,7,8,0.7,1.1
2025-12-10T2000,1385A,113.0219,22.5311,江门市,圭峰西,细颗粒物(PM2.5),62,51,93,44,72,85,85,105,105,43,57,7,7,0.7,0.8
2025-12-10T2000,1386A,113.0828,22.5947,江门市,东湖,细颗粒物(PM2.5),60,63,112,43,63,82,82,103,103,42,74,10,12,0.4,0.7
2025-12-10T2000,3311A,113.1075,22.5647,江门市,江海富民,细颗粒物(PM2.5),82,97,122,60,65,81,81,108,108,51,67,6,8,0.7,0.8
2025-12-10T2000,3449A,113.05,22.4667,江门市,新会银湖,细颗粒物(PM2.5),114,95,94,86,79,42,42,84,81,42,41,6,7,0.8,0.8
2025-12-10T2000,1830A,113.1992,35.2590,焦作市,影视城,,,,140,,83,,,66,,,36,,11,,0.8
2025-12-10T2000,3335A,113.3137,35.2641,焦作市,马村街道办,细颗粒物(PM2.5),216,243,171,166,126,33,33,74,72,69,39,12,11,1.3,1
2025-12-10T2000,3336A,113.2465,35.2373,焦作市,焦作技师学院,,,,172,,114,,,64,,,39,,12,,1.3
2025-12-10T2000,3477A,113.1656,35.2539,焦作市,中站许衡医院,细颗粒物(PM2.5),189,193,151,142,105,56,56,69,66,57,40,26,11,1.5,0.9
2025-12-10T2000,3981A,113.2449,35.1803,焦作市,原李万街道办,细颗粒物(PM2.5),208,222,182,158,125,40,40,80,79,69,53,13,12,1.2,1.2
2025-12-10T2000,4264A,113.2340,35.2190,焦作市,新安路1731号,细颗粒物(PM2.5),220,244,181,170,128,29,29,65,64,79,51,29,14,1.4,1.2
2025-12-10T2000,4295A,113.2722,35.2121,焦作市,人民路3066号,细颗粒物(PM2.5),179,239,184,135,102,37,37,69,69,68,48,17,12,1.1,1
2025-12-10T2000,1708A,116.3701,23.5345,揭阳市,新兴,颗粒物(PM10),54,58,60,34,34,70,70,102,99,30,27,7,12,0.5,0.5
2025-12-10T2000,1709A,116.3264,23.5443,揭阳市,西马,颗粒物(PM10),69,88,67,28,32,73,73,110,109,25,27,5,7,0.3,0.4
2025-12-10T2000,1710A,116.3611,23.5626,揭阳市,东兴,颗粒物(PM10),53,56,60,36,28,74,74,110,108,25,26,8,10,0.7,0.7
2025-12-10T2000,1711A,116.4151,23.5294,揭阳市,渔湖,颗粒物(PM10),53,55,56,24,28,73,73,113,110,30,24,10,10,1.3,0.7
2025-12-10T2000,3320A,116.403,23.5699,揭阳市,曲溪,颗粒物(PM10),58,65,61,35,31,74,74,119,117,28,25,8,8,1.3,0.5
2025-12-10T2000,1944A,102.1692,38.5167,金昌市,天庆家园,颗粒物(PM10),118,185,310,71,50,30,30,55,51,44,23,5,51,1.0,0.7
2025-12-10T2000,4022A,102.1647,38.5371,金昌市,金川区人防中心,颗粒物(PM10),114,177,327,68,54,42,42,71,67,43,18,5,27,0.9,0.6
2025-12-10T2000,4239A,102.1930,38.5319,金昌市,长春路96号,颗粒物(PM10),118,186,209,47,42,37,37,62,55,40,19,53,40,0.7,0.6
2025-12-10T2000,1262A,119.647,29.077,金华市,十五中,细颗粒物(PM2.5),95,120,70,71,32,9,9,84,69,94,53,5,4,1.2,0.4
2025-12-10T2000,1263A,119.686,29.1029,金华市,监测站,,,95,72,40,28,,,70,70,89,61,3,7,0.6,0.4
2025-12-10T2000,3659A,119.656,29.1131,金华市,气象局,颗粒物(PM10),82,114,65,57,25,4,4,71,61,99,53,4,4,0.8,0.3
2025-12-10T2000,1767A,121.1115,41.0879,锦州市,南山,颗粒物(PM10),59,68,134,34,102,40,40,48,47,19,44,10,45,0.6,1.3
2025-12-10T2000,1768A,121.0604,40.8428,锦州市,开发区,颗粒物(PM10),86,121,146,43,104,29,29,41,41,28,52,16,30,0.7,1.2
2025-12-10T2000,1769A,121.1836,41.1119,锦州市,百股街道,颗粒物(PM10),80,109,137,34,105,36,36,46,44,19,44,15,33,0.9,1.5
2025-12-10T2000,1770A,121.1178,41.1222,锦州市,天安街道,颗粒物(PM10),62,73,120,28,93,42,42,48,47,12,40,10,35,0.8,1.4
2025-12-10T2000,1771A,121.1303,41.1386,锦州市,北湖公园,颗粒物(PM10),60,70,111,24,80,43,43,45,44,14,33,11,26,0.5,0.9
2025-12-10T2000,2160A,112.85,35.5051,晋城市,自来水公司,细颗粒物(PM2.5),178,153,139,134,134,98,98,81,81,21,44,11,9,1.3,1.3
2025-12-10T2000,2161A,112.8318,35.4936,晋城市,白云商贸,颗粒物(PM10),101,152,140,75,73,94,94,82,82,24,40,9,5,1.0,0.9
2025-12-10T2000,2162A,112.8508,35.4887,晋城市,市环保局,,,122,143,73,79,,,85,85,20,43,12,9,1.1,1.1
2025-12-10T2000,2163A,112.8676,35.4897,晋城市,技术学院,细颗粒物(PM2.5),104,143,143,78,84,86,86,74,74,26,48,12,11,1.3,1.4
2025-12-10T2000,2165A,112.8453,35.546,晋城市,白马寺,细颗粒物(PM2.5),88,122,110,65,78,106,106,97,97,20,20,13,12,1.2,1.3
2025-12-10T2000,3620A,112.8271,35.4828,晋城市,泽州一中,细颗粒物(PM2.5),100,110,133,75,82,102,102,92,92,26,38,8,6,1.1,0.9
2025-12-10T2000,2173A,112.7249,37.7067,晋中市,南都小区,颗粒物(PM10),59,68,153,36,80,68,68,67,67,27,64,12,31,0.4,1.2
2025-12-10T2000,2174A,112.6991,37.6982,晋中市,榆次区政府,颗粒物(PM10),58,66,157,30,87,66,66,64,64,27,63,20,34,0.3,1.1
2025-12-10T2000,2865A,112.7195,37.6828,晋中市,榆次三中,,,,140,,78,,,29,,,61,,27,,1.3
2025-12-10T2000,4200A,112.7478,37.6954,晋中市,迎宾街26号,颗粒物(PM10),56,61,136,24,80,71,71,68,68,25,54,12,28,0.3,0.9
2025-12-10T2000,2439A,112.2014,31.0481,荆门市,竹园小学,细颗粒物(PM2.5),210,234,183,160,130,42,42,120,115,69,42,4,5,1.7,0.4
2025-12-10T2000,2440A,112.1969,30.9891,荆门市,掇刀,细颗粒物(PM2.5),217,244,194,167,136,70,70,120,115,66,57,8,7,1.1,0.9
2025-12-10T2000,2441A,112.2213,31.0386,荆门市,石化一小,细颗粒物(PM2.5),221,246,216,171,142,55,55,112,108,65,52,12,11,1.6,1.1
2025-12-10T2000,3012A,112.1849,31.0362,荆门市,西山林语,细颗粒物(PM2.5),200,189,160,150,120,90,90,121,120,30,28,7,7,1.3,1.2
2025-12-10T2000,3547A,112.1632,31.0138,荆门市,龙泉中学南校,细颗粒物(PM2.5),196,199,185,147,131,104,104,125,125,28,29,12,11,1.2,1.1
2025-12-10T2000,1844A,112.2494,30.3197,荆州市,市图书馆,细颗粒物(PM2.5),173,143,143,131,137,78,78,121,120,48,50,7,10,1.5,1.2
2025-12-10T2000,1845A,112.2008,30.3544,荆州市,市委党校,细颗粒物(PM2.5),176,167,159,133,137,58,58,100,99,59,62,5,7,1.3,1.2
2025-12-10T2000,3194A,112.2747,30.3122,荆州市,管委会,细颗粒物(PM2.5),175,142,148,132,135,68,68,116,113,46,53,7,9,1.4,1.2
2025-12-10T2000,4268A,112.1722,30.3366,荆州市,学苑路85号,细颗粒物(PM2.5),170,166,159,129,134,105,105,128,128,26,47,8,10,1.2,1.2
2025-12-10T2000,2342A,117.3102,29.3867,景德镇市,王港中学,,,,,,,,,,,,,,,,
2025-12-10T2000,2343A,117.2117,29.2933,景德镇市,老干部活动中心,细颗粒物(PM2.5),120,113,62,91,50,44,44,104,100,56,31,10,8,0.9,0.4
2025-12-10T2000,2344A,117.1894,29.2789,景德镇市,兽医站,颗粒物(PM10),81,112,71,55,37,73,73,110,110,19,16,13,9,0.9,0.7
2025-12-10T2000,2346A,117.2461,29.2956,景德镇市,陶研所,细颗粒物(PM2.5),80,70,57,59,43,67,67,102,100,28,30,4,5,1.2,0.9
2025-12-10T2000,4289A,117.1542,29.2566,景德镇市,青少年活动中心,颗粒物(PM10),88,126,71,64,39,38,38,110,105,66,31,15,9,0.6,0.4
2025-12-10T2000,1803A,115.9872,29.6815,九江市,十里,,,,119,,86,,,42,,,66,,9,,1.3
2025-12-10T2000,1804A,115.9584,29.7046,九江市,茅山头,细颗粒物(PM2.5),148,175,129,113,87,23,23,48,47,74,70,6,6,1.4,1.2
2025-12-10T2000,1805A,115.9877,29.7295,九江市,西园,细颗粒物(PM2.5),189,181,124,142,88,31,31,55,54,114,91,10,7,1.4,1.2
2025-12-10T2000,1808A,115.9114,29.6038,九江市,综合工业园,细颗粒物(PM2.5),180,180,126,136,108,13,13,65,52,99,83,4,4,0.9,0.8
2025-12-10T2000,1809A,116.0721,29.7535,九江市,石化总厂,细颗粒物(PM2.5),207,189,130,157,100,10,10,55,51,119,69,10,8,1.2,0.9
2025-12-10T2000,1810A,115.9773,29.5698,九江市,庐山气象台,,,,,,,,,,,,,,,,
2025-12-10T2000,3190A,116.0254,29.6994,九江市,外国语学校,细颗粒物(PM2.5),160,165,119,122,84,18,18,47,40,102,67,9,11,1.6,1.3
2025-12-10T2000,4253A,116.0102,29.6594,九江市,莲花大道8号,细颗粒物(PM2.5),170,159,120,129,99,16,16,59,52,74,48,5,7,1.0,1
2025-12-10T2000,4240A,98.4958,39.7339,酒泉市,玉门东路5号,颗粒物(PM10),123,195,202,63,40,62,62,75,75,24,14,12,11,0.9,0.5
2025-12-10T2000,4241A,98.5099,39.7506,酒泉市,北大街108号,颗粒物(PM10),112,173,213,47,37,49,49,71,71,30,16,13,11,0.9,0.5
2025-12-10T2000,2698A,76.0072,39.4467,喀什地区,巡警大队,颗粒物(PM10),131,212,208,77,85,48,48,73,73,64,59,13,10,1.4,1.6
2025-12-10T2000,2699A,75.9755,39.4694,喀什地区,吾办,颗粒物(PM10),137,223,210,72,99,,,77,77,69,62,12,10,1.4,2
2025-12-10T2000,4027A,75.9483,39.4689,喀什地区,老干局,颗粒物(PM10),138,225,241,77,97,42,42,70,70,56,56,7,7,1.2,2.3
2025-12-10T2000,1824A,114.3389,34.7781,开封市,肿瘤医院,细颗粒物(PM2.5),185,212,160,139,92,55,55,82,82,60,53,9,7,0.8,0.7
2025-12-10T2000,1826A,114.2885,34.7965,开封市,世纪星幼儿园,细颗粒物(PM2.5),214,188,147,164,115,62,62,85,85,59,51,12,11,1.1,0.9
2025-12-10T2000,3147A,114.3438,34.8106,开封市,龙亭公园,细颗粒物(PM2.5),222,202,153,172,113,56,56,82,82,60,55,13,12,1.3,1.1
2025-12-10T2000,3210A,114.3644,34.7964,开封市,汴京公园,细颗粒物(PM2.5),199,233,164,149,102,54,54,76,76,63,59,11,11,1.0,0.8
2025-12-10T2000,3473A,114.2485,34.8306,开封市,技师学院,细颗粒物(PM2.5),192,183,146,144,100,72,72,90,90,49,59,12,10,1.3,1.2
2025-12-10T2000,3592A,114.4644,34.7556,开封市,祥符区生态环境局,细颗粒物(PM2.5),198,236,168,148,103,60,60,79,79,63,57,5,5,0.6,0.5
2025-12-10T2000,1951A,84.895,45.6094,克拉玛依市,长征新村,,27,27,37,3,26,54,54,53,42,9,17,4,4,0.5,0.7
2025-12-10T2000,1952A,84.8988,45.5893,克拉玛依市,南林小区,,15,14,32,3,19,47,47,54,44,5,13,2,3,0.4,0.5
2025-12-10T2000,1954A,84.905,44.3396,克拉玛依市,独山子区,,18,16,30,12,21,43,43,42,36,11,14,5,6,0.4,0.7
2025-12-10T2000,1955A,85.6979,46.098,克拉玛依市,乌尔禾区商贸楼,,35,35,33,3,19,48,48,51,49,1,3,4,7,0.2,0.2
2025-12-10T2000,3612A,85.1045,45.6899,克拉玛依市,白碱滩区新站,,29,29,37,3,26,54,54,62,50,2,11,7,8,0.1,0.3
2025-12-10T2000,2697A,76.1454,39.7142,克孜勒苏柯尔克孜自治州,市人民政府,颗粒物(PM10),134,217,154,91,69,57,57,79,79,51,28,10,12,0.7,0.5
2025-12-10T2000,3665A,76.1658,39.7157,克孜勒苏柯尔克孜自治州,克州文化中心,颗粒物(PM10),129,207,162,76,70,67,67,76,76,43,41,12,13,1.3,1.1
2025-12-10T2000,1450A,102.8204,24.8886,昆明市,呈贡新区,,25,24,28,17,38,61,61,80,80,22,19,8,9,0.7,0.8
2025-12-10T2000,1451A,102.6251,24.9608,昆明市,西山森林公园,,,,,,,,,,,,,,,,
2025-12-10T2000,1452A,102.7252,25.0902,昆明市,龙泉镇,,,67,46,27,27,,,67,67,64,31,4,3,1.3,0.9
2025-12-10T2000,1453A,102.7266,25.0375,昆明市,东风东路,,35,35,40,24,31,45,45,76,75,42,24,8,6,0.6,0.6
2025-12-10T2000,1454A,102.6742,25.0669,昆明市,金鼎山,颗粒物(PM10),57,63,55,34,30,28,28,76,66,58,31,7,4,1.0,0.8
2025-12-10T2000,1455A,102.6644,25.0401,昆明市,碧鸡广场,细颗粒物(PM2.5),59,62,49,42,33,16,16,66,63,68,31,6,5,1.4,0.9
2025-12-10T2000,3179A,102.7494,25.0119,昆明市,官渡区博物馆,颗粒物(PM10),57,63,39,28,23,7,7,76,70,86,30,4,3,0.7,0.5
2025-12-10T2000,3375A,102.8017,24.8336,昆明市,青年创业园,,28,26,29,19,24,41,41,79,77,28,24,7,7,0.8,0.8
2025-12-10T2000,3550A,102.7997,24.9786,昆明市,昆明学院,,36,36,33,19,21,40,40,77,75,48,21,5,3,0.6,0.5
2025-12-10T2000,3551A,102.5967,24.6736,昆明市,晋宁区生态环境分局,细颗粒物(PM2.5),64,54,27,46,20,58,58,78,76,17,16,2,2,0.5,0.5
2025-12-10T2000,3552A,102.6678,24.9856,昆明市,云天化总部,,29,26,37,16,28,24,24,75,70,58,26,5,6,0.7,0.7
2025-12-10T2000,1456A,91.1319,29.6514,拉萨市,八廓街,,22,22,20,10,14,68,68,105,103,39,17,12,13,0.6,0.5
2025-12-10T2000,1457A,91.1221,29.6747,拉萨市,市环保局,,40,37,24,28,16,41,41,94,91,41,21,7,7,1.3,0.8
2025-12-10T2000,1458A,91.0874,29.6475,拉萨市,区监测站,,33,24,14,7,9,42,42,94,89,65,24,4,6,0.5,0.3
2025-12-10T2000,1459A,91.1774,29.6541,拉萨市,西藏大学,,36,29,18,25,12,66,66,98,98,44,21,9,9,0.9,0.6
2025-12-10T2000,1460A,90.9798,29.6588,拉萨市,区辐射站,颗粒物(PM10),53,55,20,36,12,40,40,95,90,74,20,7,5,1.3,0.4
2025-12-10T2000,1461A,91.0834,29.6292,拉萨市,拉萨火车站,,27,19,18,8,10,86,86,97,97,19,20,5,5,0.5,0.6
2025-12-10T2000,2520A,109.2203,23.7256,来宾市,来宾技工学校,细颗粒物(PM2.5),85,100,94,63,67,75,75,107,102,35,29,7,8,1.0,1
2025-12-10T2000,3535A,109.1781,23.7297,来宾市,兴宾区政府,细颗粒物(PM2.5),82,81,76,60,58,86,86,106,106,28,18,8,9,0.9,0.8
2025-12-10T2000,4002A,109.2416,23.7461,来宾市,中南小学,细颗粒物(PM2.5),85,115,95,63,65,47,47,96,95,52,38,5,6,1.1,1.1
2025-12-10T2000,1477A,104.1373,35.9454,兰州市,榆中兰大校区,,,,,,,,,,,,,,,,
2025-12-10T2000,1479A,103.831,36.0464,兰州市,铁路设计院,,,,,,,,,,,,,,,,
2025-12-10T2000,3241A,103.7439,36.0842,兰州市,百合公园,,,111,104,40,62,3,3,65,51,86,65,14,18,,1.9
2025-12-10T2000,3242A,103.9611,35.998,兰州市,和平,,,,108,,60,,,39,,,46,,20,,1.2
2025-12-10T2000,4236A,103.6293,36.0938,兰州市,庄浪东路808号,颗粒物(PM10),72,94,119,39,66,14,14,57,54,74,67,11,19,0.9,1.3
2025-12-10T2000,4237A,103.7251,36.1043,兰州市,安宁西路88号,颗粒物(PM10),90,129,133,39,61,25,25,72,72,70,69,8,12,0.7,1.2
2025-12-10T2000,4238A,103.8470,36.0676,兰州市,北滨河东路1号,颗粒物(PM10),91,132,115,35,58,3,3,61,57,92,67,12,16,1.1,1.7
2025-12-10T2000,3245A,103.6633,36.533,兰州新区,新区管委会,颗粒物(PM10),102,154,133,44,64,20,20,88,75,59,30,15,23,0.8,0.8
2025-12-10T2000,3246A,103.6975,36.4789,兰州新区,舟曲中学,细颗粒物(PM2.5),147,242,150,112,69,98,98,101,101,22,42,9,23,0.5,0.8
2025-12-10T2000,1067A,116.6708,39.5111,廊坊市,药材公司,细颗粒物(PM2.5),107,129,125,80,82,4,4,20,17,74,64,10,13,1.2,1.5
2025-12-10T2000,1068A,116.7214,39.5589,廊坊市,开发区,细颗粒物(PM2.5),130,158,134,99,87,1,1,21,16,77,66,9,11,1.3,1.4
2025-12-10T2000,1070A,116.7244,39.5269,廊坊市,北华航天学院,细颗粒物(PM2.5),120,163,139,91,90,2,2,20,16,74,64,8,12,1.3,1.4
2025-12-10T2000,2919A,116.7022,39.5453,廊坊市,河北工业大学,细颗粒物(PM2.5),125,168,142,95,87,2,2,19,16,77,66,11,13,1.2,1.4
2025-12-10T2000,2535A,103.7723,29.5462,乐山市,花湖湾,,,,,,,,,,,,,,,,
2025-12-10T2000,2536A,103.7627,29.5844,乐山市,牛耳桥,细颗粒物(PM2.5),103,98,105,77,91,1,1,64,62,71,30,8,7,,1
2025-12-10T2000,2537A,103.7508,29.6006,乐山市,市第三水厂,细颗粒物(PM2.5),90,84,98,67,80,2,2,61,59,77,33,6,6,1.5,1.1
2025-12-10T2000,2538A,103.7571,29.5664,乐山市,市监测站,细颗粒物(PM2.5),95,90,103,71,82,48,48,72,72,38,26,7,7,1.2,1.2
2025-12-10T2000,3361A,103.7311,29.5628,乐山市,理工大学,细颗粒物(PM2.5),85,80,91,63,76,41,41,68,68,38,25,8,8,0.9,0.9
2025-12-10T2000,2598A,100.2143,26.8576,丽江市,西南郊,,,,,,,,,,,,,,,,
2025-12-10T2000,2599A,100.2497,26.8802,丽江市,丽江古城,,49,49,24,6,10,76,76,87,84,21,15,10,8,0.5,0.4
2025-12-10T2000,2600A,100.2203,26.8906,丽江市,市中心,,43,43,20,21,11,57,57,86,79,38,18,9,7,0.6,0.4
2025-12-10T2000,1267A,119.914,28.4514,丽水市,监测站大楼,,,27,37,,19,,,67,,,25,4,5,,0.5
2025-12-10T2000,1268A,119.93,28.4586,丽水市,莲都小学,,,,35,,10,,,71,71,,27,,5,,0.3
2025-12-10T2000,1269A,119.879,28.4231,丽水市,余庄前,,42,42,29,22,13,26,26,66,57,9,16,4,4,0.3,0.3
2025-12-10T2000,1173A,119.176,34.5885,连云港市,市环境监测站,,,107,60,70,27,,,73,73,42,21,11,10,0.5,0.3
2025-12-10T2000,3000A,119.3581,34.6972,连云港市,德源药业,,,105,64,58,23,,,66,65,,25,,5,,0.5
2025-12-10T2000,3007A,119.178,34.844,连云港市,新城一中,细颗粒物(PM2.5),85,78,60,63,22,32,32,54,37,56,54,9,8,0.7,0.4
2025-12-10T2000,3008A,119.3608,34.7519,连云港市,胡沟管理处,颗粒物(PM10),70,90,51,46,16,41,41,71,49,57,32,8,9,1.2,1
2025-12-10T2000,3009A,119.1478,34.5911,连云港市,矿山设计院,细颗粒物(PM2.5),104,129,71,78,28,47,47,69,65,46,28,11,10,0.9,0.6
2025-12-10T2000,3434A,119.2413,34.6539,连云港市,工贸学校,颗粒物(PM10),96,141,63,57,24,61,61,74,73,33,21,10,10,0.9,0.7
2025-12-10T2000,3664A,119.4172,34.7341,连云港市,连云街道,颗粒物(PM10),78,105,52,53,20,16,16,73,54,81,27,9,7,1.0,0.7
2025-12-10T2000,2571A,102.3431,27.8099,凉山彝族自治州,青龙寺,,,,,,,,,,,,,,,,
2025-12-10T2000,2572A,102.2721,27.8415,凉山彝族自治州,邛海宾馆,颗粒物(PM10),51,51,34,28,24,67,67,84,84,23,17,10,10,0.7,0.6
2025-12-10T2000,2573A,102.2625,27.898,凉山彝族自治州,西昌市政府,,,,44,,30,,,58,,,22,,9,,0.8
2025-12-10T2000,2574A,102.2685,27.8851,凉山彝族自治州,凉山州政府,,,,47,,29,,,39,,,22,,9,,0.8
2025-12-10T2000,4229A,102.2342,27.8859,凉山彝族自治州,凯乐南路30号,,,56,54,29,31,52,52,72,72,,36,8,8,1.0,0.8
2025-12-10T2000,2212A,123.2,41.1953,辽阳市,宏伟区,细颗粒物(PM2.5),198,209,148,148,110,28,28,26,19,44,45,14,24,1.1,1.7
2025-12-10T2000,2213A,123.1683,41.2495,辽阳市,新华园,细颗粒物(PM2.5),173,213,178,131,120,25,25,15,15,50,62,13,17,0.9,2.1
2025-12-10T2000,2214A,123.2354,41.2639,辽阳市,滨河路,细颗粒物(PM2.5),183,238,166,138,107,15,15,17,8,50,54,12,19,1.5,1.9
2025-12-10T2000,2215A,123.149,41.2991,辽阳市,铁西工业园,细颗粒物(PM2.5),201,210,212,151,170,16,16,6,6,47,61,13,17,1.2,2.4
2025-12-10T2000,2227A,125.1358,42.8845,辽源市,环保局,"颗粒物(PM10),细颗粒物(PM2.5)",84,117,132,62,70,20,20,41,41,47,34,4,5,0.9,1.2
2025-12-10T2000,3239A,125.0764,42.9078,辽源市,银鹰制药,细颗粒物(PM2.5),87,81,100,64,70,12,12,43,42,50,32,6,7,0.9,1.1
2025-12-10T2000,1625A,115.9848,36.4372,聊城市,区政府,细颗粒物(PM2.5),128,167,132,97,66,63,63,81,81,46,41,14,14,1.0,0.8
2025-12-10T2000,2878A,116.0072,36.4343,聊城市,聊大东校,细颗粒物(PM2.5),132,180,149,100,73,66,66,82,82,44,41,12,13,1.0,0.8
2025-12-10T2000,3200A,115.9819,36.4978,聊城市,监控中心,细颗粒物(PM2.5),147,173,134,112,69,67,67,85,85,35,28,14,14,1.0,1
2025-12-10T2000,3513A,116.0445,36.4361,聊城市,九州社区,细颗粒物(PM2.5),124,164,136,94,64,71,71,90,89,39,34,8,7,0.6,0.6
2025-12-10T2000,4018A,116.0567,36.4608,聊城市,星美广场,细颗粒物(PM2.5),120,168,136,91,64,72,72,81,81,35,30,8,8,0.8,0.7
2025-12-10T2000,2632A,94.3681,29.6376,林芝市,林芝监测站,,23,23,12,15,7,60,60,80,80,30,9,6,5,0.5,0.3
2025-12-10T2000,2633A,94.3616,29.6616,林芝市,林芝人民医院,,,,,,,,,,,,,,,,
2025-12-10T2000,2603A,100.0781,23.8982,临沧市,市环保局,,,52,33,,38,32,32,71,68,26,12,10,9,0.6,0.5
2025-12-10T2000,2604A,100.0894,23.8822,临沧市,市气象局,,47,47,31,25,20,38,38,69,68,22,12,8,6,0.7,0.5
2025-12-10T2000,1733A,111.5531,36.0783,临汾市,临钢医院,细颗粒物(PM2.5),202,273,175,152,102,22,22,76,74,76,47,12,12,1.9,1.4
2025-12-10T2000,1734A,111.5028,36.0714,临汾市,技工学校,细颗粒物(PM2.5),190,237,179,143,102,40,40,70,70,59,51,15,12,2.1,1.5
2025-12-10T2000,1736A,111.5018,36.0855,临汾市,市委,细颗粒物(PM2.5),207,274,189,157,103,47,47,77,77,63,57,21,16,2.0,1.5
2025-12-10T2000,3018A,111.505,36.1014,临汾市,唐尧大酒店,细颗粒物(PM2.5),202,232,174,152,101,45,45,75,75,66,57,15,10,1.9,1.4
2025-12-10T2000,4244A,111.4879,36.0530,临汾市,启星学校,细颗粒物(PM2.5),200,241,170,150,103,43,43,77,77,79,61,16,13,1.9,1.4
2025-12-10T2000,4271A,103.2464,35.6123,临夏回族自治州,滨河东路1号,细颗粒物(PM2.5),137,150,147,104,83,7,7,70,67,85,39,10,11,2.2,1.4
2025-12-10T2000,4310A,103.2093,35.5995,临夏回族自治州,新华街21号,细颗粒物(PM2.5),98,143,147,73,96,48,48,69,69,33,33,17,13,1.2,1.6
2025-12-10T2000,1618A,118.3429,35.0532,临沂市,沂河小区,细颗粒物(PM2.5),153,173,113,117,68,33,33,68,64,70,47,20,23,1.0,0.6
2025-12-10T2000,1619A,118.295,35.0583,临沂市,鲁南制药厂,细颗粒物(PM2.5),207,222,114,157,68,4,4,64,52,114,51,26,25,1.3,0.7
2025-12-10T2000,1620A,118.2794,34.9976,临沂市,新光毛纺厂,,,,105,,65,,,41,,,51,,21,,0.8
2025-12-10T2000,1621A,118.3956,35.0888,临沂市,河东保险公司,细颗粒物(PM2.5),127,149,120,96,63,35,35,74,70,63,54,11,12,0.9,0.7
2025-12-10T2000,3370A,118.3564,35.0215,临沂市,十里堡居委,细颗粒物(PM2.5),140,188,106,107,49,8,8,68,59,100,52,26,30,1.5,1
2025-12-10T2000,3496A,118.3604,35.1084,临沂市,南坊新区,细颗粒物(PM2.5),134,141,109,102,59,46,46,72,71,59,55,16,18,1.2,0.9
2025-12-10T2000,3860A,118.3920,35.0300,临沂市,皇山花园小区,细颗粒物(PM2.5),122,180,118,92,56,33,33,75,70,69,49,24,22,1.1,0.8
2025-12-10T2000,1870A,109.4856,24.3895,柳州市,柳东小学,细颗粒物(PM2.5),92,83,89,68,72,96,96,98,98,12,27,9,17,0.8,0.9
2025-12-10T2000,1871A,109.4157,24.3277,柳州市,环保监测站,细颗粒物(PM2.5),132,133,107,100,77,24,24,77,74,68,47,12,13,1.5,1.1
2025-12-10T2000,1872A,109.389,24.341,柳州市,河西水厂,细颗粒物(PM2.5),168,232,143,127,84,25,25,76,66,68,52,24,17,1.3,1.2
2025-12-10T2000,1873A,109.4311,24.2921,柳州市,市四中,细颗粒物(PM2.5),109,139,108,82,69,23,23,86,80,67,45,13,12,1.5,1.1
2025-12-10T2000,1874A,109.4006,24.3631,柳州市,市九中,,,,111,,74,,,52,,,39,,13,,1.0
2025-12-10T2000,1875A,109.4958,24.3134,柳州市,古亭山,细颗粒物(PM2.5),80,86,75,59,52,32,32,93,86,45,44,9,9,1.1,1
2025-12-10T2000,3402A,109.5422,24.3996,柳州市,市二中,细颗粒物(PM2.5),99,106,90,74,71,28,28,80,77,39,37,8,12,1.2,0.9
2025-12-10T2000,2307A,116.5079,31.737,六安市,监测大楼,细颗粒物(PM2.5),89,90,82,66,48,50,50,84,82,49,35,5,6,0.8,0.6
2025-12-10T2000,2308A,116.4738,31.7643,六安市,皖西学院,细颗粒物(PM2.5),110,114,96,83,49,58,58,103,102,46,37,4,5,0.8,0.5
2025-12-10T2000,2309A,116.4996,31.7905,六安市,朝阳厂,,,90,86,73,51,,,93,93,61,47,4,5,0.9,0.6
2025-12-10T2000,2310A,116.5567,31.7886,六安市,开发区,细颗粒物(PM2.5),110,131,97,83,51,29,29,86,80,64,41,4,4,0.8,0.6
2025-12-10T2000,2576A,104.8,26.5892,六盘水市,窑上,细颗粒物(PM2.5),117,90,58,88,48,36,36,49,48,13,11,2,3,1.3,1
2025-12-10T2000,2577A,104.83,26.5917,六盘水市,黄土坡,细颗粒物(PM2.5),84,90,56,62,41,43,43,48,48,20,17,8,7,1.0,0.8
2025-12-10T2000,2578A,104.89,26.5939,六盘水市,水钢,细颗粒物(PM2.5),89,89,56,66,41,44,44,50,50,16,13,2,3,0.9,0.8
2025-12-10T2000,2579A,104.8475,26.5894,六盘水市,民中,细颗粒物(PM2.5),100,83,53,75,42,40,40,48,48,21,15,2,3,0.9,0.9
2025-12-10T2000,2580A,104.9544,26.5506,六盘水市,双水,细颗粒物(PM2.5),79,68,47,58,36,48,48,49,49,15,13,3,4,0.6,0.5
2025-12-10T2000,2335A,117.0189,25.1181,龙岩市,龙岩师专,,,,,,,,,,,,,,,,
2025-12-10T2000,2336A,117.0217,25.1033,龙岩市,龙岩市监测站,,47,47,39,31,24,29,29,99,90,61,26,17,19,1.3,0.6
2025-12-10T2000,2337A,117.0258,25.0661,龙岩市,闽西职业技术学院,颗粒物(PM10),58,65,46,20,25,57,57,102,94,29,21,6,8,0.5,0.5
2025-12-10T2000,2338A,117.0196,25.0306,龙岩市,龙岩学院,,24,22,35,15,25,75,75,101,100,6,14,6,7,0.4,0.5
2025-12-10T2000,2665A,105.0822,33.3261,陇南市,汉王镇固水子,,,,,,,,,,,,,,,,
2025-12-10T2000,2885A,104.9339,33.3826,陇南市,滨江中学,细颗粒物(PM2.5),145,197,83,111,48,8,8,45,40,80,38,29,12,5.2,1.7
2025-12-10T2000,3247A,104.955,33.371,陇南市,市总工会,颗粒物(PM10),104,158,94,67,48,6,6,47,44,64,36,8,6,1.4,0.9
2025-12-10T2000,2487A,111.9589,27.8901,娄底市,电视发射台,,,,,,,,,,,,,,,,
2025-12-10T2000,2488A,111.9975,27.725,娄底市,市监测站,细颗粒物(PM2.5),152,170,145,116,103,86,86,139,136,62,47,24,12,1.3,1.2
2025-12-10T2000,2489A,112.0194,27.7314,娄底市,市委党校,细颗粒物(PM2.5),172,192,142,130,106,40,40,118,108,81,40,11,10,1.9,1.1
2025-12-10T2000,2490A,111.9561,27.7569,娄底市,涟钢,细颗粒物(PM2.5),202,206,144,152,108,65,65,114,112,47,40,10,16,1.0,1.3
2025-12-10T2000,2491A,111.9892,27.7044,娄底市,市政府,细颗粒物(PM2.5),168,165,126,127,101,26,26,125,115,90,39,12,14,1.7,1
2025-12-10T2000,1893A,105.4324,28.9634,泸州市,九狮山,,,,,,,,,,,,,,,,
2025-12-10T2000,1894A,105.4427,28.9063,泸州市,小市上码头,细颗粒物(PM2.5),104,83,86,78,74,59,59,61,61,16,21,10,10,0.9,1
2025-12-10T2000,1895A,105.4241,28.8573,泸州市,兰田宪桥,细颗粒物(PM2.5),93,98,94,69,72,32,32,62,61,44,21,7,8,1.0,0.8
2025-12-10T2000,1896A,105.4379,28.8833,泸州市,市环监站,细颗粒物(PM2.5),92,90,88,68,64,56,56,62,62,25,20,9,9,0.8,0.8
2025-12-10T2000,4272A,105.3689,28.7783,泸州市,纳溪中医医院,细颗粒物(PM2.5),92,82,73,68,63,15,15,60,58,47,23,7,7,1.1,0.9
2025-12-10T2000,2183A,111.1406,37.5211,吕梁市,环保局,颗粒物(PM10),88,126,111,61,47,13,13,52,51,75,58,13,15,0.9,0.8
2025-12-10T2000,2185A,111.1297,37.5136,吕梁市,自来水公司,细颗粒物(PM2.5),79,102,170,58,60,21,21,50,50,57,52,11,23,1.0,0.9
2025-12-10T2000,2867A,111.1283,37.51,吕梁市,马茂庄小学,颗粒物(PM10),105,159,162,57,54,4,4,57,55,72,55,14,20,0.7,0.7
2025-12-10T2000,1812A,112.3931,34.6516,洛阳市,市委党校,细颗粒物(PM2.5),127,132,168,96,124,89,89,89,89,37,56,13,12,0.9,1
2025-12-10T2000,1815A,112.494,34.6886,洛阳市,河南林校,细颗粒物(PM2.5),148,171,182,113,136,77,77,77,77,44,59,16,12,0.8,0.9
2025-12-10T2000,1816A,112.3844,34.623,洛阳市,开发区管委会,细颗粒物(PM2.5),124,138,187,94,130,110,110,104,104,24,46,16,14,0.8,0.9
2025-12-10T2000,1817A,112.4267,34.6258,洛阳市,市委新办公区,细颗粒物(PM2.5),120,145,200,91,129,98,98,92,92,29,49,15,13,0.9,1.1
2025-12-10T2000,3340A,112.6005,34.6326,洛阳市,伊滨,细颗粒物(PM2.5),118,156,225,89,137,81,81,81,81,36,55,14,14,0.8,1.1
2025-12-10T2000,3341A,112.4951,34.6332,洛阳市,中移产业园,细颗粒物(PM2.5),114,131,186,86,133,94,94,76,76,33,58,14,14,0.8,1
2025-12-10T2000,3593A,112.5736,34.8993,洛阳市,吉利监测站,细颗粒物(PM2.5),218,230,212,168,152,31,31,69,68,78,60,10,13,1.1,1.1
2025-12-10T2000,3635A,112.3677,34.662,洛阳市,河科大西苑校区,细颗粒物(PM2.5),119,140,182,90,112,87,87,87,87,37,57,14,13,1.0,1.1
2025-12-10T2000,3636A,112.4388,34.6781,洛阳市,英才小学,细颗粒物(PM2.5),144,167,209,110,137,75,75,77,77,46,65,16,16,1.1,1.3
2025-12-10T2000,4214A,112.4600,34.6949,洛阳市,春都路1号院,细颗粒物(PM2.5),119,180,208,90,109,66,66,68,68,35,52,23,15,1.2,1.2
2025-12-10T2000,2399A,114.051,33.5699,漯河市,三五一五工厂,细颗粒物(PM2.5),218,228,199,168,137,34,34,86,84,79,56,10,8,1.1,0.9
2025-12-10T2000,2400A,114.0055,33.5698,漯河市,漯河大学,细颗粒物(PM2.5),175,182,173,132,124,50,50,93,92,73,60,8,8,1.0,0.9
2025-12-10T2000,2401A,114.0138,33.5828,漯河市,市水利局,细颗粒物(PM2.5),185,188,177,139,125,46,46,90,89,62,52,9,9,1.1,1
2025-12-10T2000,2402A,114.0261,33.5698,漯河市,市广电局,细颗粒物(PM2.5),179,190,181,135,127,66,66,86,86,49,53,8,8,1.0,0.9
2025-12-10T2000,3478A,113.9749,33.5664,漯河市,市图书馆,细颗粒物(PM2.5),163,187,199,124,130,66,66,86,86,40,51,7,6,0.8,0.8
2025-12-10T2000,4250A,114.0892,33.5882,漯河市,韶山路11号,细颗粒物(PM2.5),189,224,198,142,130,46,46,84,84,70,60,11,10,0.7,0.6
2025-12-10T2000,1798A,118.5092,31.6837,马鞍山市,湖东路四小,细颗粒物(PM2.5),115,141,76,87,40,4,4,48,37,106,44,7,9,1.2,0.6
2025-12-10T2000,1799A,118.5024,31.6449,马鞍山市,开发区,颗粒物(PM10),102,153,83,74,39,1,1,44,31,108,49,8,10,1.2,0.7
2025-12-10T2000,1802A,118.6245,31.7241,马鞍山市,濮塘,,,,,,,,,,,,,,,,
2025-12-10T2000,3633A,118.4918,31.6809,马鞍山市,雨山,细颗粒物(PM2.5),107,152,83,80,39,2,2,46,33,116,48,13,13,1.5,0.8
2025-12-10T2000,4191A,118.5274,31.72227,马鞍山市,慈湖高新区,细颗粒物(PM2.5),122,143,90,92,46,7,7,46,36,101,49,7,7,1.0,0.6
2025-12-10T2000,1686A,111.0286,21.4688,茂名市,电白南海,细颗粒物(PM2.5),83,90,86,61,56,76,76,110,103,30,23,12,14,1.2,1.2
2025-12-10T2000,1687A,110.9294,21.6533,茂名市,茂石化七小,细颗粒物(PM2.5),92,105,99,68,60,60,60,90,85,28,28,46,25,0.8,0.8
2025-12-10T2000,1688A,110.9107,21.6687,茂名市,健康路,细颗粒物(PM2.5),70,68,84,51,52,76,76,103,99,20,25,16,26,0.8,0.8
2025-12-10T2000,1689A,110.8592,21.6828,茂名市,高岭,颗粒物(PM10),71,92,103,51,57,52,52,62,,28,32,19,34,0.8,1
2025-12-10T2000,3450A,111.01,21.5165,茂名市,电白水东,细颗粒物(PM2.5),89,102,86,66,53,73,73,101,95,27,23,19,15,1.1,1
2025-12-10T2000,2539A,104.0308,30.0478,眉山市,黑龙滩水库,,,,,,,,,,,,,,,,
2025-12-10T2000,2540A,103.8416,30.0874,眉山市,气象局,细颗粒物(PM2.5),147,154,120,112,97,24,24,78,78,77,34,9,10,1.2,1
2025-12-10T2000,3137A,103.8578,30.0744,眉山市,市委党校,细颗粒物(PM2.5),134,136,100,102,83,25,25,76,76,78,31,8,7,1.3,0.7
2025-12-10T2000,3148A,103.8291,30.0564,眉山市,区人社局,细颗粒物(PM2.5),113,121,112,85,92,,,82,82,64,31,5,5,1.3,1.1
2025-12-10T2000,1690A,116.1231,24.3284,梅州市,梅江月梅,细颗粒物(PM2.5),82,,48,60,33,61,61,104,100,23,27,6,7,0.7,0.7
2025-12-10T2000,1691A,116.0797,24.2719,梅州市,梅县新城,细颗粒物(PM2.5),82,102,52,60,34,32,32,99,86,55,30,8,9,0.8,0.7
2025-12-10T2000,1692A,116.1248,24.2654,梅州市,环境监控中心,颗粒物(PM10),54,57,48,29,33,57,57,94,86,36,34,6,15,0.5,0.5
2025-12-10T2000,3315A,116.1233,24.2991,梅州市,梅龙,颗粒物(PM10),71,92,50,48,32,28,28,91,80,56,30,11,10,1.0,0.8
2025-12-10T2000,1878A,104.7778,31.4741,绵阳市,富乐山,细颗粒物(PM2.5),95,84,87,71,67,59,59,67,67,26,31,10,11,0.8,0.9
2025-12-10T2000,1880A,104.6697,31.4668,绵阳市,高新区自来水公司,细颗粒物(PM2.5),128,123,101,97,74,0,0,60,58,74,35,8,10,1.2,0.8
2025-12-10T2000,1881A,104.7287,31.5075,绵阳市,三水厂,细颗粒物(PM2.5),120,114,95,91,73,10,10,46,45,66,38,6,8,1.1,0.9
2025-12-10T2000,3491A,104.69,31.5322,绵阳市,西科大附属小学,细颗粒物(PM2.5),140,149,104,107,69,9,9,50,45,75,38,9,10,0.9,1
2025-12-10T2000,3492A,104.5648,31.5343,绵阳市,安州区旅游局,细颗粒物(PM2.5),134,145,82,102,70,4,4,62,59,87,31,10,11,1.9,0.9
2025-12-10T2000,4226A,104.7651,31.4531,绵阳市,绵阳市气象局,细颗粒物(PM2.5),109,106,94,82,66,19,19,58,58,78,35,7,10,0.9,0.8
2025-12-10T2000,1784A,129.61,44.561,牡丹江市,环保大楼,,50,46,36,35,24,49,49,47,47,20,22,7,10,0.3,0.4
2025-12-10T2000,1785A,129.6115,44.5782,牡丹江市,文化广场,,47,47,42,27,29,54,54,43,43,14,24,7,8,0.3,0.5
2025-12-10T2000,1786A,129.5904,44.5963,牡丹江市,第一医院,细颗粒物(PM2.5),69,,52,50,40,58,58,36,36,8,29,4,6,0.4,0.8
2025-12-10T2000,1787A,129.6364,44.6075,牡丹江市,机车工厂,细颗粒物(PM2.5),110,112,63,83,34,61,61,39,39,9,31,8,26,1.5,0.6
2025-12-10T2000,1788A,129.6386,44.5462,牡丹江市,第一中学,细颗粒物(PM2.5),63,,33,45,26,52,52,47,42,14,20,6,6,0.4,0.4
2025-12-10T2000,2531A,105.0703,29.61,内江市,市监测站,细颗粒物(PM2.5),140,147,97,107,91,14,14,78,75,63,22,6,5,1.7,1.1
2025-12-10T2000,2532A,105.0717,29.5947,内江市,东兴区政府,细颗粒物(PM2.5),132,132,104,100,90,16,16,67,66,66,26,4,4,1.1,0.8
2025-12-10T2000,2533A,105.0653,29.5817,内江市,内江二中,细颗粒物(PM2.5),134,168,118,102,94,,,72,72,76,29,4,5,1.6,1
2025-12-10T2000,2534A,105.0406,29.5822,内江市,内江日报社,细颗粒物(PM2.5),114,120,101,86,86,18,18,72,70,83,34,4,4,1.2,0.9
2025-12-10T2000,2628A,92.0657,31.4846,那曲市,那曲监测站,颗粒物(PM10),52,53,46,29,28,57,57,72,72,39,30,12,10,1.2,1.6
2025-12-10T2000,4243A,92.0515,31.4787,那曲市,那曲市委宣传部,,33,33,27,16,16,60,60,83,83,22,19,8,6,0.7,0.9
2025-12-10T2000,1290A,115.8931,28.6843,南昌市,省外办,细颗粒物(PM2.5),140,148,109,107,82,48,48,110,98,68,35,11,11,2.1,1.4
2025-12-10T2000,1291A,115.8886,28.7003,南昌市,省林业公司,细颗粒物(PM2.5),125,149,104,95,74,46,46,113,110,93,64,7,7,1.2,1
2025-12-10T2000,1292A,115.8126,28.7442,南昌市,林科所,细颗粒物(PM2.5),85,95,90,63,61,91,91,125,123,36,34,8,7,0.7,0.7
2025-12-10T2000,1294A,115.8518,28.687,南昌市,建工学校,细颗粒物(PM2.5),128,166,116,97,76,47,47,121,115,99,65,16,13,1.5,1.2
2025-12-10T2000,1295A,115.8921,28.6424,南昌市,象湖,细颗粒物(PM2.5),138,135,106,105,80,17,17,116,108,124,65,13,12,1.5,0.9
2025-12-10T2000,1296A,115.7423,28.7996,南昌市,武术学校,,,,,,,,,,,,,,,,
2025-12-10T2000,3046A,115.9084,28.6062,南昌市,机电学校,细颗粒物(PM2.5),134,168,128,102,83,13,13,127,114,131,69,13,13,1.3,1
2025-12-10T2000,3690A,115.9721,28.7031,南昌市,外国语学校,细颗粒物(PM2.5),125,166,125,95,81,76,76,114,114,60,54,15,15,1.1,0.9
2025-12-10T2000,4192A,115.9316,28.68677,南昌市,南京东路235号,细颗粒物(PM2.5),135,156,117,103,83,80,80,121,115,65,52,10,11,1.1,0.9
2025-12-10T2000,1905A,106.056,30.8064,南充市,西山风景区,,,,,,,,,,,,,,,,
2025-12-10T2000,1906A,106.0789,30.8023,南充市,南充市委,细颗粒物(PM2.5),93,95,102,69,89,2,2,52,50,85,31,5,5,1.4,0.9
2025-12-10T2000,1907A,106.1031,30.8217,南充市,南充炼油厂,细颗粒物(PM2.5),109,132,109,82,90,4,4,55,53,86,26,6,6,1.6,0.9
2025-12-10T2000,4227A,106.1083,30.7884,南充市,梨树横街98号,细颗粒物(PM2.5),97,109,103,72,80,12,12,59,58,75,25,6,6,1.2,0.8
2025-12-10T2000,4304A,106.1172,30.843,南充市,清泉寺北路188号,细颗粒物(PM2.5),85,87,88,63,73,37,37,64,64,60,26,5,5,0.9,0.8
2025-12-10T2000,4305A,106.067,30.7616,南充市,同庆路1号,细颗粒物(PM2.5),85,95,99,63,80,2,2,45,44,78,30,7,7,1.9,1.2
2025-12-10T2000,1151A,118.8086,32.1065,南京市,迈皋桥,细颗粒物(PM2.5),92,127,64,68,30,17,17,78,68,61,36,4,4,0.8,0.4
2025-12-10T2000,1152A,118.7538,32.0551,南京市,草场门,细颗粒物(PM2.5),77,102,70,56,30,6,6,60,51,106,47,7,6,1.1,0.7
2025-12-10T2000,1153A,118.7794,32.0745,南京市,山西路,颗粒物(PM10),79,107,70,56,28,6,6,70,62,105,44,4,4,1.0,0.7
2025-12-10T2000,1154A,118.7752,32.0023,南京市,中华门,"颗粒物(PM10),细颗粒物(PM2.5)",79,107,62,58,28,2,2,57,45,76,33,4,4,1.2,0.7
2025-12-10T2000,1155A,118.8109,32.0309,南京市,瑞金路,细颗粒物(PM2.5),94,122,66,70,34,11,11,56,42,105,51,4,4,1.8,0.6
2025-12-10T2000,1156A,118.7997,32.0754,南京市,玄武湖,颗粒物(PM10),73,95,60,50,26,14,14,67,57,40,30,4,4,1.9,0.8
2025-12-10T2000,1157A,118.6414,32.0931,南京市,浦口,颗粒物(PM10),80,109,76,53,32,48,48,65,64,37,38,8,9,0.6,0.6
2025-12-10T2000,1158A,118.7356,31.9996,南京市,奥体中心,细颗粒物(PM2.5),85,118,71,63,33,10,10,62,53,108,51,9,10,1.2,0.7
2025-12-10T2000,1159A,118.9125,32.1028,南京市,仙林大学城,颗粒物(PM10),78,105,68,53,28,2,2,65,51,107,44,14,9,2.2,0.8
2025-12-10T2000,3422A,118.8436,31.9198,南京市,江宁彩虹桥,颗粒物(PM10),75,100,66,51,30,2,2,70,54,95,44,5,4,0.9,0.6
2025-12-10T2000,3427A,118.8554,32.3578,南京市,六合雄州,细颗粒物(PM2.5),83,106,81,61,35,12,12,73,65,95,52,12,9,1.4,0.8
2025-12-10T2000,4249A,118.8708,31.3402,南京市,汶溪路181号,细颗粒物(PM2.5),109,105,62,82,40,42,42,64,60,48,38,6,6,0.9,0.6
2025-12-10T2000,4312A,119.019,31.6512,南京市,中山西路1号,细颗粒物(PM2.5),74,70,49,54,29,52,52,72,66,37,26,4,4,0.6,0.6
2025-12-10T2000,1401A,108.3103,22.7881,南宁市,二十一中,细颗粒物(PM2.5),74,70,82,54,63,100,100,121,121,32,41,6,7,0.7,0.8
2025-12-10T2000,1402A,108.3141,22.8528,南宁市,北湖,细颗粒物(PM2.5),94,100,96,70,68,66,66,127,124,69,55,10,12,1.1,1
2025-12-10T2000,1403A,108.3206,22.8225,南宁市,市监测站,细颗粒物(PM2.5),82,74,92,60,64,106,106,142,137,40,46,8,10,1.0,1.1
2025-12-10T2000,1404A,108.3829,22.8037,南宁市,大自然花园,细颗粒物(PM2.5),80,82,83,59,60,98,98,142,137,38,37,7,8,0.8,0.9
2025-12-10T2000,1405A,108.4394,22.7904,南宁市,仙葫,,,,,,,,,,,,,,,,
2025-12-10T2000,1406A,108.2397,22.8467,南宁市,区农职院,,,,80,,60,,,58,,,36,,13,,0.9
2025-12-10T2000,1407A,108.3275,22.735,南宁市,英华嘉园,细颗粒物(PM2.5),114,142,97,86,75,6,6,128,117,120,52,5,6,1.1,0.8
2025-12-10T2000,3401A,108.4834,22.7618,南宁市,红星社区,细颗粒物(PM2.5),107,102,83,80,62,91,91,134,134,36,38,7,7,0.9,0.8
2025-12-10T2000,4221A,108.2177,22.7774,南宁市,乐贤路16号,细颗粒物(PM2.5),85,111,95,63,58,89,89,126,126,49,49,6,6,0.8,0.9
2025-12-10T2000,2331A,118.0966,26.6761,南平市,茫荡山,,,29,23,14,12,100,100,92,92,,,2,2,,
2025-12-10T2000,2332A,118.1681,26.6369,南平市,南平市监测站,,50,47,32,35,18,39,39,87,78,31,19,3,6,1.0,0.6
2025-12-10T2000,2333A,118.1825,26.6489,南平市,南平铝业有限公司,细颗粒物(PM2.5),64,,35,46,21,25,25,87,78,43,24,5,7,0.7,0.5
2025-12-10T2000,2334A,118.1756,26.6272,南平市,南平七中,,33,29,33,23,17,56,56,89,84,19,14,4,6,0.5,0.4
2025-12-10T2000,1168A,120.9098,31.9663,南通市,狼山街道,,49,49,40,28,15,1,1,48,22,64,37,2,3,0.5,0.5
2025-12-10T2000,1169A,120.86,32.0005,南通市,虹桥,颗粒物(PM10),52,54,34,25,15,0,0,54,30,89,36,8,4,0.7,0.5
2025-12-10T2000,1170A,120.87,32.02,南通市,城中,颗粒物(PM10),58,66,43,24,15,1,1,52,30,92,40,9,5,0.6,0.5
2025-12-10T2000,1171A,120.94,31.93,南通市,星湖花园,颗粒物(PM10),58,66,42,36,19,4,4,44,17,87,44,6,4,0.7,0.5
2025-12-10T2000,1172A,120.81,32.0417,南通市,紫琅学院,颗粒物(PM10),63,76,43,26,11,0,0,54,11,93,46,9,5,0.9,0.7
2025-12-10T2000,3291A,121.067,32.062,南通市,通州监测站,颗粒物(PM10),51,51,29,27,16,3,3,64,30,82,31,4,3,0.8,0.5
2025-12-10T2000,3432A,120.9348,31.9883,南通市,环境教育馆,颗粒物(PM10),64,78,48,26,22,2,2,27,16,72,49,6,5,0.4,0.3
2025-12-10T2000,2404A,112.5224,33.0122,南阳市,瓦房庄,细颗粒物(PM2.5),173,177,164,131,117,67,67,103,103,41,38,8,9,1.2,1
2025-12-10T2000,2405A,112.5003,32.9735,南阳市,汉画馆,细颗粒物(PM2.5),166,179,178,126,122,38,38,106,101,,45,7,7,,1
2025-12-10T2000,2406A,112.5573,33.027,南阳市,气象站,细颗粒物(PM2.5),153,197,185,117,108,92,92,114,114,35,33,6,6,0.9,0.8
2025-12-10T2000,2407A,112.5481,32.9689,南阳市,理工学院,细颗粒物(PM2.5),153,186,170,117,109,66,66,107,106,59,42,10,9,0.9,1
2025-12-10T2000,4008A,112.5234,32.9922,南阳市,卧龙区政府,细颗粒物(PM2.5),155,198,197,118,120,54,54,93,93,58,46,8,8,0.9,0.9
2025-12-10T2000,1234A,121.8358,29.911,宁波市,区环保大楼,,30,30,33,12,11,41,41,73,67,32,43,4,5,0.5,0.4
2025-12-10T2000,1235A,121.56,29.82,宁波市,万里学院,,34,34,36,20,16,33,33,69,64,41,30,5,6,0.6,0.6
2025-12-10T2000,1236A,121.713,29.9572,宁波市,龙赛医院,,35,35,50,14,17,38,38,66,63,32,41,4,4,0.5,0.6
2025-12-10T2000,1239A,121.633,29.7733,宁波市,钱湖水厂,,21,21,33,10,15,58,58,77,75,10,19,6,7,0.4,0.4
2025-12-10T2000,1240A,121.5856,29.8635,宁波市,太古小学,,30,30,41,16,20,55,55,72,71,18,38,2,3,0.5,0.5
2025-12-10T2000,1241A,121.524,29.8674,宁波市,市环境监测中心,,37,37,42,12,15,51,51,64,61,19,40,4,7,0.5,0.5
2025-12-10T2000,2871A,121.6147,29.9017,宁波市,万里国际学校,,26,26,38,15,17,65,65,76,75,16,38,3,4,0.4,0.5
2025-12-10T2000,3710A,121.5594,29.8975,宁波市,白沙活动中心,,40,40,36,12,13,56,56,71,70,23,36,4,4,0.4,0.4
2025-12-10T2000,2339A,119.5001,26.6946,宁德市,金涵水库,,27,27,34,15,16,14,14,49,32,18,15,1,2,0.4,0.4
2025-12-10T2000,2341A,119.5388,26.6612,宁德市,宁德市监测站,,39,39,41,20,17,25,25,63,45,30,23,7,8,0.7,0.5
2025-12-10T2000,3209A,119.5231,26.6562,宁德市,宁德一中,,20,,38,14,20,44,44,61,48,12,19,8,9,0.3,0.3
2025-12-10T2000,2618A,98.8601,25.8567,怒江傈僳族自治州,州监测站,,40,39,29,28,21,55,55,70,70,14,11,8,7,0.5,0.4
2025-12-10T2000,2619A,98.8546,25.8417,怒江傈僳族自治州,泸水一中,,49,49,30,10,21,17,17,52,49,38,19,6,5,1.0,0.7
2025-12-10T2000,1888A,101.6891,26.571,攀枝花市,弄弄坪,颗粒物(PM10),65,79,58,39,35,64,64,86,86,38,32,25,21,2.5,2
2025-12-10T2000,1889A,101.5769,26.5928,攀枝花市,河门口,颗粒物(PM10),53,56,54,34,33,68,68,84,84,23,26,18,18,1.3,1.4
2025-12-10T2000,1890A,101.7169,26.585,攀枝花市,炳草岗,颗粒物(PM10),66,81,62,36,38,19,19,82,81,80,45,13,12,1.4,1.5
2025-12-10T2000,1891A,101.7369,26.5008,攀枝花市,仁和,"颗粒物(PM10),细颗粒物(PM2.5)",65,79,49,47,31,38,38,61,61,26,24,10,12,1.2,1.5
2025-12-10T2000,2835A,101.7227,26.567,攀枝花市,四十中小,细颗粒物(PM2.5),58,61,61,41,38,29,29,71,71,72,45,14,15,1.9,1.9
2025-12-10T2000,1604A,122.0303,41.1489,盘锦市,开发区,颗粒物(PM10),101,151,143,52,119,40,40,50,50,15,38,4,8,0.6,1.1
2025-12-10T2000,1605A,122.0485,41.0883,盘锦市,兴隆台,颗粒物(PM10),89,128,126,49,94,41,41,46,46,21,50,9,19,0.7,1.1
2025-12-10T2000,1606A,121.8297,41.1028,盘锦市,新生街道,颗粒物(PM10),78,105,133,28,106,35,35,46,46,22,44,7,11,0.3,0.7
2025-12-10T2000,1832A,113.3257,33.742,平顶山市,新华旅馆,细颗粒物(PM2.5),185,221,196,139,125,72,72,90,90,50,55,11,10,1.0,0.9
2025-12-10T2000,1833A,113.2919,33.737,平顶山市,规划设计院,细颗粒物(PM2.5),207,244,230,157,136,66,66,85,85,55,59,9,8,1.3,1
2025-12-10T2000,1834A,113.182,33.774,平顶山市,平顶山工学院,细颗粒物(PM2.5),188,207,196,141,126,109,109,114,114,27,42,9,12,0.8,0.8
2025-12-10T2000,3204A,113.3025,33.73,平顶山市,规划局,细颗粒物(PM2.5),203,232,205,153,126,75,75,88,88,52,54,11,10,1.1,1
2025-12-10T2000,3594A,112.8867,33.9116,平顶山市,石龙区,细颗粒物(PM2.5),175,198,202,132,114,84,84,116,116,47,59,8,8,0.6,0.7
2025-12-10T2000,2656A,106.6692,35.5461,平凉市,聚贤嘉苑,颗粒物(PM10),84,117,81,35,37,21,21,84,75,53,34,6,6,0.6,0.6
2025-12-10T2000,2657A,106.7021,35.5307,平凉市,博物馆,颗粒物(PM10),68,85,80,35,41,42,42,83,74,30,31,12,11,0.7,0.7
2025-12-10T2000,2347A,114.0997,27.5002,萍乡市,武功山,,,,,,,,,,,,,,,,
2025-12-10T2000,2348A,113.8385,27.6434,萍乡市,中医院,细颗粒物(PM2.5),140,160,134,107,85,24,24,129,113,81,50,9,17,2.9,3
2025-12-10T2000,2349A,113.8493,27.6253,萍乡市,市政府车库,细颗粒物(PM2.5),153,154,129,117,88,25,25,124,108,79,48,9,13,3.0,2.9
2025-12-10T2000,2350A,113.8676,27.6435,萍乡市,市环保局,细颗粒物(PM2.5),122,150,123,92,77,43,43,156,141,59,42,17,26,2.1,2
2025-12-10T2000,2351A,113.866,27.6198,萍乡市,安源区政府,细颗粒物(PM2.5),156,139,142,119,110,52,52,112,106,52,44,16,17,2.6,2.7
2025-12-10T2000,2319A,119.0141,25.4325,莆田市,荔城区仓后路,,29,29,35,15,10,59,59,89,82,20,10,4,4,0.6,0.5
2025-12-10T2000,2320A,119.0015,25.4553,莆田市,莆田市监测站,,23,18,28,16,9,55,55,93,84,21,10,5,4,0.6,0.4
2025-12-10T2000,2321A,119.1119,25.4561,莆田市,涵江区六中,,33,33,32,13,11,44,44,85,75,32,12,4,3,0.8,0.5
2025-12-10T2000,2322A,119.1013,25.3215,莆田市,秀屿区政府,,23,13,34,6,12,73,73,92,88,11,12,4,4,0.4,0.4
2025-12-10T2000,2323A,118.981,25.4792,莆田市,东圳水库,,32,22,23,22,12,62,62,97,87,18,10,5,4,1.2,1
2025-12-10T2000,2392A,115.0312,35.7636,濮阳市,环保局,细颗粒物(PM2.5),156,165,135,119,90,76,76,82,82,32,39,8,9,1.1,1
2025-12-10T2000,2394A,115.0574,35.7609,濮阳市,油田运输公司,细颗粒物(PM2.5),165,198,149,125,92,74,74,82,81,42,45,10,11,1.1,1
2025-12-10T2000,3021A,115,35.7668,濮阳市,濮水河管理处,细颗粒物(PM2.5),215,217,159,165,111,45,45,75,74,43,34,10,12,1.3,1.2
2025-12-10T2000,4216A,115.0924,35.7686,濮阳市,任丘路479号,细颗粒物(PM2.5),189,215,164,142,93,66,66,77,77,41,42,8,9,1.1,0.9
2025-12-10T2000,2601A,100.98,22.7633,普洱市,市环保局,颗粒物(PM10),58,66,40,24,16,26,26,67,62,22,10,4,4,0.4,0.4
2025-12-10T2000,2602A,100.9817,22.8322,普洱市,普洱第二中学,,39,39,36,16,16,37,37,60,57,14,14,4,4,0.3,0.3
2025-12-10T2000,2262A,131.0518,45.8751,七台河市,新一中,,,,,,,,,,,,,,,,
2025-12-10T2000,3345A,131.0577,45.7879,七台河市,中波台,,35,35,38,17,21,40,40,54,51,17,20,10,7,0.6,0.6
2025-12-10T2000,3637A,131.0176,45.7761,七台河市,人民广场,,35,28,40,24,24,42,42,54,50,22,26,8,7,0.5,0.6
2025-12-10T2000,3684A,130.8781,45.8222,七台河市,新建矿广场,,35,29,41,24,23,40,40,50,49,9,18,14,8,0.3,0.2
2025-12-10T2000,1779A,123.9305,47.3636,齐齐哈尔市,安居小区,,17,17,29,11,17,49,49,55,52,10,14,6,9,0.5,0.7
2025-12-10T2000,1780A,123.9488,47.3386,齐齐哈尔市,中心广场,,22,22,21,3,9,52,52,52,51,9,14,5,6,0.4,0.5
2025-12-10T2000,1781A,123.9483,47.3227,齐齐哈尔市,农牧车辆厂,,29,29,33,3,10,48,48,48,48,4,11,4,5,0.6,0.6
2025-12-10T2000,1783A,123.945,47.2988,齐齐哈尔市,市环境监测站,颗粒物(PM10),75,99,42,6,11,56,56,53,53,4,13,4,6,0.4,0.5
2025-12-10T2000,3662A,123.6333,47.2075,齐齐哈尔市,富区青少年活动中心,,21,21,51,9,19,43,43,47,45,14,23,5,9,0.5,0.7
2025-12-10T2000,2591A,107.9783,26.5747,黔东南苗族侗族自治州,市环境监测站,细颗粒物(PM2.5),62,52,59,44,48,55,55,62,59,12,20,5,6,0.7,0.7
