timepoint,stationcode,longitude,latitude,area,positionname,primarypollutant,aqi,pm10,pm10_24h,pm2_5,pm2_5_24h,o3,o3_24h,o3_8h,o3_8h_24h,no2,no2_24h,so2,so2_24h,co,co_24h
2025-05-08T2300,2566A,102.1879,31.914,阿坝藏族羌族自治州,州农科所,,50,50,31,19,11,70,,112,98,10,7,10,11,0.6,0.6
2025-05-08T2300,2568A,102.2502,31.8896,阿坝藏族羌族自治州,马师校,,,49,26,,19,,,118,116,34,10,4,6,0.4,0.5
2025-05-08T2300,3994A,102.2165,31.9024,阿坝藏族羌族自治州,马尔康中学西区,颗粒物(PM10),53,55,33,31,19,67,,126,113,20,5,4,4,0.2,0.2
2025-05-08T2300,2695A,80.292,41.1694,阿克苏地区,电视台,颗粒物(PM10),500,1206,2775,387,666,70,,87,79,13,13,7,4,0.5,0.5
2025-05-08T2300,2696A,80.2613,41.1551,阿克苏地区,艺术中心,颗粒物(PM10),500,1345,927,419,706,68,,85,78,14,22,3,4,0.5,0.5
2025-05-08T2300,2204A,105.6467,38.8363,阿拉善盟,西城区西花园,细颗粒物(PM2.5),57,47,94,40,38,104,,116,108,8,9,5,5,0.6,0.6
2025-05-08T2300,2205A,105.6985,38.8411,阿拉善盟,蒙二幼,颗粒物(PM10),71,92,109,15,30,89,,102,91,5,7,8,11,0.4,0.4
2025-05-08T2300,2206A,105.724,38.8516,阿拉善盟,环保局新楼,,49,49,90,16,35,94,,107,96,4,4,8,8,0.5,0.5
2025-05-08T2300,2708A,88.1264,47.8517,阿勒泰地区,市站,,32,32,13,3,4,76,,112,102,12,6,2,2,0.2,0.1
2025-05-08T2300,2630A,80.1161,32.5,阿里地区,阿里监测站,,37,25,23,9,11,118,,130,129,11,11,6,7,0.4,0.4
2025-05-08T2300,3192A,80.0903,32.5028,阿里地区,阿里藏医院,,43,26,28,10,11,136,,140,140,4,4,8,8,0.4,0.4
2025-05-08T2300,2642A,109.0318,32.6537,安康市,香溪洞,颗粒物(PM10),67,84,90,28,44,95,,120,104,6,5,7,7,0.4,0.4
2025-05-08T2300,2644A,109.0072,32.6975,安康市,汉滨区检察院,,47,47,102,28,40,98,,114,105,6,8,10,11,0.4,0.5
2025-05-08T2300,4054A,109.0325,32.6913,安康市,市邮政管理局,,47,47,99,21,41,101,,117,101,5,7,6,7,0.3,0.4
2025-05-08T2300,2291A,117.0809,30.5177,安庆市,环科院,,11,7,72,3,29,26,,96,40,22,19,2,2,0.6,0.7
2025-05-08T2300,2292A,117.0331,30.5119,安庆市,马山宾馆,,14,10,67,8,34,22,,96,39,27,20,3,5,0.9,0.9
2025-05-08T2300,2294A,116.9896,30.6145,安庆市,安庆大学,,39,,71,27,44,36,,64,50,19,26,3,4,0.5,0.6
2025-05-08T2300,3173A,117.0598,30.5351,安庆市,市人大,,13,13,70,7,32,34,,103,50,21,22,7,8,0.5,0.6
2025-05-08T2300,3122A,105.9606,26.2611,安顺市,伍家关,,40,40,26,9,20,37,,109,,20,7,3,4,0.6,0.4
2025-05-08T2300,3123A,105.9408,26.2431,安顺市,凤凰山,细颗粒物(PM2.5),62,,34,44,25,62,,115,98,16,8,9,7,0.7,0.6
2025-05-08T2300,3124A,105.9439,26.2564,安顺市,金钟山,细颗粒物(PM2.5),54,44,33,38,24,54,,109,93,14,6,7,6,0.4,0.3
2025-05-08T2300,3125A,105.8983,26.2481,安顺市,娄家坡,,48,48,46,27,24,65,,110,96,10,6,6,7,0.8,0.6
2025-05-08T2300,1818A,114.4839,36.0621,安阳市,棉研所,,,,,,,,,,,,,,,,
2025-05-08T2300,1819A,114.3551,36.1017,安阳市,红庙街,颗粒物(PM10),72,94,103,37,44,103,,145,128,2,3,2,4,0.5,0.6
2025-05-08T2300,1820A,114.361,36.0681,安阳市,银杏小区,颗粒物(PM10),74,98,104,52,56,103,,153,136,4,8,2,4,0.6,0.5
2025-05-08T2300,3141A,114.3922,36.0878,安阳市,信访局,颗粒物(PM10),73,95,112,45,52,109,,150,134,12,10,1,3,0.6,0.5
2025-05-08T2300,3669A,114.4705,36.0637,安阳市,左辅环卫站,颗粒物(PM10),81,111,114,48,51,96,,149,127,20,17,3,5,0.5,0.6
2025-05-08T2300,3703A,114.2917,36.0949,安阳市,安钢职工学校,细颗粒物(PM2.5),82,63,116,60,54,93,,141,124,8,12,2,4,0.7,0.7
2025-05-08T2300,1748A,123.044,41.1196,鞍山市,深沟寺,,30,30,33,11,14,92,,119,108,7,7,5,5,0.5,0.5
2025-05-08T2300,1749A,123.011,41.0931,鞍山市,太阳城,,30,25,31,9,14,95,,104,99,7,7,5,5,0.5,0.5
2025-05-08T2300,1750A,123.0485,41.1442,鞍山市,太平,,32,32,36,11,14,89,,106,96,8,9,7,7,0.6,0.6
2025-05-08T2300,1751A,122.9642,41.0971,鞍山市,铁西三道街,,42,42,44,13,17,91,,112,106,18,15,4,3,0.6,0.5
2025-05-08T2300,1753A,123.022,41.0821,鞍山市,明达新区,,33,28,30,7,10,105,,116,111,8,6,5,5,0.1,0.2
2025-05-08T2300,1754A,123.1289,41.0228,鞍山市,千山,,,,25,,11,,,104,,,7,,4,,0.4
2025-05-08T2300,4201A,122.9446,41.0826,鞍山市,兴盛南路290号,,50,50,45,15,15,81,,113,104,26,15,11,7,1.0,0.7
2025-05-08T2300,2195A,107.4212,40.761,巴彦淖尔市,附二中,,28,19,98,17,35,88,,92,85,5,6,8,8,0.3,0.3
2025-05-08T2300,2196A,107.37,40.7372,巴彦淖尔市,市环保大楼,,31,30,46,14,20,97,,103,93,7,8,4,4,0.3,0.5
2025-05-08T2300,1956A,86.1472,41.7538,巴音郭楞蒙古自治州,孔雀公园,颗粒物(PM10),84,117,794,23,112,74,,99,91,37,21,6,6,0.3,0.3
2025-05-08T2300,1957A,86.1972,41.7166,巴音郭楞蒙古自治州,棉纺厂,颗粒物(PM10),80,109,659,24,152,74,,102,97,25,12,10,3,0.4,0.2
2025-05-08T2300,1958A,86.2357,41.7173,巴音郭楞蒙古自治州,经济开发区,颗粒物(PM10),66,81,685,10,138,86,,101,99,8,7,6,7,0.4,0.3
2025-05-08T2300,2914A,106.7677,31.8794,巴中市,苏山坪,,27,24,31,16,22,84,,111,103,7,7,4,3,0.3,0.4
2025-05-08T2300,3181A,106.7768,31.8526,巴中市,市五中,,35,35,39,17,24,64,,109,96,7,8,6,6,0.4,0.5
2025-05-08T2300,3183A,106.7418,31.8654,巴中市,圣泉水务公司,,28,28,33,17,23,54,,108,94,20,10,7,7,0.3,0.4
2025-05-08T2300,3616A,106.7616,31.8344,巴中市,市中心医院,,30,30,35,16,24,72,,107,97,11,8,4,4,0.4,0.5
2025-05-08T2300,2235A,122.7911,45.6077,白城市,洮北区环保局,,40,40,42,26,28,82,,88,79,9,12,2,2,0.4,0.5
2025-05-08T2300,2236A,122.8738,45.5725,白城市,市环保局,,42,29,39,29,30,85,,85,82,5,9,3,3,0.5,0.5
2025-05-08T2300,2231A,126.4219,41.9171,白山市,喜丰,,46,46,73,13,24,99,,110,105,10,26,6,8,0.4,0.6
2025-05-08T2300,2232A,126.4077,41.9419,白山市,环保局,,50,50,54,16,20,107,,109,108,5,15,9,9,0.4,0.5
2025-05-08T2300,2647A,104.1724,36.5446,白银市,第三小学,颗粒物(PM10),54,58,52,21,20,74,,113,97,15,11,25,15,0.9,0.6
2025-05-08T2300,2648A,104.1465,36.5482,白银市,动力公司,,46,46,47,20,21,76,,114,101,12,11,17,16,0.5,0.5
2025-05-08T2300,2512A,106.6103,23.9011,百色市,市监测站,"颗粒物(PM10),细颗粒物(PM2.5)",53,56,54,37,33,98,,120,98,15,14,11,10,0.6,0.7
2025-05-08T2300,2513A,106.6538,23.8859,百色市,市中心血站,细颗粒物(PM2.5),63,,66,45,42,98,,124,106,9,12,16,14,0.8,0.9
2025-05-08T2300,3406A,106.6085,23.8798,百色市,祈福高中,颗粒物(PM10),56,62,57,35,34,83,,112,96,19,16,8,11,0.7,0.7
2025-05-08T2300,2270A,117.396,32.939,蚌埠市,工人疗养院,,31,7,70,3,27,97,,103,90,4,21,3,8,0.6,0.7
2025-05-08T2300,2271A,117.3605,32.9427,蚌埠市,百货大楼,,30,8,71,3,29,93,,108,84,5,11,5,7,0.2,0.4
2025-05-08T2300,2273A,117.4185,32.8911,蚌埠市,蚌埠学院,,,,62,7,30,87,,106,82,7,18,3,4,0.5,0.7
2025-05-08T2300,2274A,117.3533,32.9673,蚌埠市,淮上区政府,,33,,59,6,33,103,,103,91,4,22,4,6,0.3,0.5
2025-05-08T2300,2275A,117.3145,32.8977,蚌埠市,高新区,,29,,62,6,29,91,,112,87,6,18,4,5,0.4,0.5
2025-05-08T2300,3715A,117.3092,32.9314,蚌埠市,蚌埠田家炳中学,,31,12,74,3,28,97,,118,88,3,13,4,5,0.3,0.4
2025-05-08T2300,1585A,109.8756,40.6532,包头市,市环境监测站,颗粒物(PM10),58,66,98,20,33,77,,100,65,21,21,18,11,1.0,0.6
2025-05-08T2300,1587A,109.9991,40.5842,包头市,包头八中,颗粒物(PM10),58,65,98,16,41,94,,100,68,15,24,9,11,0.5,0.6
2025-05-08T2300,1588A,109.8538,40.6821,包头市,青山宾馆,颗粒物(PM10),56,61,92,33,40,61,,100,52,22,22,14,11,1.1,0.5
2025-05-08T2300,1589A,109.8642,40.6288,包头市,惠龙物流,颗粒物(PM10),57,64,102,21,31,89,,99,73,15,18,20,14,0.6,0.4
2025-05-08T2300,1590A,110.0377,40.5546,包头市,东河鸿龙湾,颗粒物(PM10),52,54,85,10,23,89,,96,70,12,21,8,10,0.5,0.5
2025-05-08T2300,3283A,109.9154,40.5685,包头市,滨河大厦,,46,46,89,17,31,99,,94,74,4,23,6,9,0.4,0.5
2025-05-08T2300,3419A,109.9447,40.6261,包头市,包头市委党校,颗粒物(PM10),56,61,94,19,37,88,,101,73,12,17,20,10,0.6,0.4
2025-05-08T2300,3683A,109.8331,40.6576,包头市,昆区政府,颗粒物(PM10),59,67,102,24,44,68,,100,77,33,19,27,13,1.7,0.9
2025-05-08T2300,1930A,107.185,34.3063,宝鸡市,庙沟村,颗粒物(PM10),57,63,83,23,49,90,,144,124,10,11,7,8,0.5,0.6
2025-05-08T2300,1931A,107.0708,34.3017,宝鸡市,竹园沟,,42,42,84,19,29,78,,138,110,8,11,4,5,0.2,0.3
2025-05-08T2300,1932A,107.1906,34.3672,宝鸡市,三陆医院,,43,43,102,24,37,85,,142,116,17,22,6,9,0.3,0.4
2025-05-08T2300,1933A,107.1431,34.3547,宝鸡市,监测站,,41,41,104,14,19,86,,136,112,11,14,4,6,0.3,0.4
2025-05-08T2300,1934A,107.1186,34.3739,宝鸡市,技工学校,,30,29,97,18,31,94,,136,115,3,9,7,10,0.5,0.6
2025-05-08T2300,1935A,107.3906,34.3528,宝鸡市,陈仓区环保局家属楼,颗粒物(PM10),53,56,108,19,41,85,,147,123,10,12,7,13,0.3,0.5
2025-05-08T2300,1936A,107.2058,34.3497,宝鸡市,文理学院,,50,50,101,21,50,93,,144,119,8,14,6,8,0.3,0.4
2025-05-08T2300,1937A,107.2386,34.3622,宝鸡市,三迪小学,,39,39,110,21,39,95,,145,121,4,15,6,8,0.2,0.3
2025-05-08T2300,1051A,115.493,38.8632,保定市,游泳馆,颗粒物(PM10),101,151,143,62,64,73,,120,107,21,33,5,6,0.2,0.3
2025-05-08T2300,1052A,115.5213,38.8959,保定市,华电二区,颗粒物(PM10),72,93,105,48,52,77,,130,108,20,26,3,5,0.7,0.5
2025-05-08T2300,1053A,115.4713,38.9108,保定市,接待中心,颗粒物(PM10),77,103,115,52,63,100,,126,111,12,25,2,3,0.2,0.5
2025-05-08T2300,1054A,115.4612,38.8416,保定市,地表水厂,颗粒物(PM10),77,103,127,35,48,85,,125,106,21,31,4,6,0.5,0.6
2025-05-08T2300,3581A,115.31981,38.95208,保定市,满城区生态环境分局,"颗粒物(PM10),细颗粒物(PM2.5)",79,107,130,58,60,66,,128,102,14,22,6,6,0.5,0.5
2025-05-08T2300,3582A,115.47694,38.76408,保定市,清苑区第二中学,颗粒物(PM10),89,127,133,59,63,69,,120,97,23,25,5,7,0.7,0.7
2025-05-08T2300,3583A,115.62909,39.02311,保定市,徐水物探局,颗粒物(PM10),83,116,129,48,53,79,,126,106,17,23,2,3,0.8,0.8
2025-05-08T2300,4004A,115.4202,38.8656,保定市,双鹰农机,颗粒物(PM10),65,80,106,45,52,74,,117,99,18,24,1,3,0.4,0.5
2025-05-08T2300,4034A,115.5150,38.8590,保定市,植保所站,颗粒物(PM10),71,92,109,49,59,51,,123,98,34,31,3,3,0.4,0.7
2025-05-08T2300,2594A,99.1678,25.1081,保山市,市环境监测站,,43,,33,30,26,87,,101,94,6,7,5,5,0.5,0.6
2025-05-08T2300,2595A,99.1711,25.1328,保山市,市环保局,,43,32,34,30,20,91,,108,100,4,5,6,5,0.4,0.4
2025-05-08T2300,1866A,109.2262,21.588,北海市,牛尾岭水库,,,16,16,10,9,118,,86,,,4,9,7,0.5,0.5
2025-05-08T2300,1867A,109.1436,21.4086,北海市,海滩公园,,32,29,31,3,6,102,,96,96,4,5,5,5,0.6,0.5
2025-05-08T2300,1868A,109.0981,21.4661,北海市,新市环保局,,,23,25,12,9,98,,96,96,,8,3,3,0.4,0.4
2025-05-08T2300,1869A,109.1778,21.5233,北海市,北海工业园,,29,,27,20,14,82,,97,96,8,9,7,8,0.4,0.3
2025-05-08T2300,3400A,109.1911,21.4415,北海市,龙潭自来水厂,,23,20,19,9,12,73,,93,91,7,5,7,7,0.3,0.3
2025-05-08T2300,1001A,116.3621,39.8784,北京市,万寿西宫,颗粒物(PM10),79,108,130,49,65,102,,172,148,27,31,3,4,0.6,0.6
2025-05-08T2300,1002A,116.2202,40.2915,北京市,定陵,,,,,,,,,,,,,,,,
2025-05-08T2300,1003A,116.4174,39.9289,北京市,东四,颗粒物(PM10),82,113,149,42,67,103,,162,142,28,33,6,6,0.7,0.8
2025-05-08T2300,1004A,116.4072,39.8863,北京市,天坛,颗粒物(PM10),76,101,121,47,62,90,,157,134,28,26,4,5,0.7,0.8
2025-05-08T2300,1005A,116.462,39.9365,北京市,农展馆,颗粒物(PM10),82,114,125,47,66,98,,157,140,21,27,5,4,1.1,1
2025-05-08T2300,1006A,116.3392,39.9295,北京市,官园,颗粒物(PM10),84,117,135,53,67,97,,156,137,26,30,5,6,0.7,0.7
2025-05-08T2300,1007A,116.2878,39.9611,北京市,海淀万柳,颗粒物(PM10),82,114,128,47,64,92,,142,130,18,26,6,6,0.6,0.6
2025-05-08T2300,1008A,116.6636,40.135,北京市,顺义新城,颗粒物(PM10),75,100,124,50,70,97,,149,132,18,22,8,9,0.8,0.8
2025-05-08T2300,1009A,116.6275,40.3275,北京市,怀柔镇,细颗粒物(PM2.5),97,114,118,72,75,105,,151,137,20,18,4,5,0.9,0.8
2025-05-08T2300,1010A,116.2296,40.217,北京市,昌平镇,细颗粒物(PM2.5),95,108,131,71,81,67,,146,125,16,25,2,4,0.7,0.7
2025-05-08T2300,1011A,116.3966,39.9821,北京市,奥体中心,颗粒物(PM10),78,105,129,44,65,102,,152,136,26,32,4,4,0.7,0.6
2025-05-08T2300,3281A,115.9718,40.4529,北京市,延庆夏都,,34,31,120,19,60,106,,142,136,9,14,3,4,0.5,0.6
2025-05-08T2300,3418A,116.8336,40.4095,北京市,密云新城,,41,41,107,23,57,127,,163,156,8,17,5,6,0.6,0.8
2025-05-08T2300,3671A,116.088,39.9726,北京市,门头沟三家店,,,,,,,,,,,,,,,,
2025-05-08T2300,3672A,116.1541,39.8204,北京市,丰台云岗,颗粒物(PM10),83,115,138,52,62,91,,161,135,27,30,5,6,0.6,0.6
2025-05-08T2300,3673A,116.6804,39.9081,北京市,通州东关,颗粒物(PM10),94,138,124,68,71,81,,155,142,26,21,7,8,0.8,0.8
2025-05-08T2300,3674A,115.9577,39.7603,北京市,房山燕山,颗粒物(PM10),83,116,143,52,74,110,,160,141,17,22,1,2,0.6,0.6
2025-05-08T2300,3675A,116.4672,39.7733,北京市,大兴旧宫,颗粒物(PM10),79,108,122,45,59,77,,158,132,30,26,1,2,0.7,0.6
2025-05-08T2300,3694A,115.986,40.4563,北京市,延庆石河营,,32,32,119,19,60,101,,135,127,10,15,2,2,0.6,0.6
2025-05-08T2300,3695A,116.6151,40.3053,北京市,怀柔新城,细颗粒物(PM2.5),89,110,108,66,69,103,,150,133,21,18,3,4,1.0,0.9
2025-05-08T2300,3696A,116.2545,39.8768,北京市,丰台小屯,颗粒物(PM10),84,118,122,36,57,72,,151,128,38,33,2,3,0.5,0.6
2025-05-08T2300,3697A,116.84,40.3844,北京市,密云镇,颗粒物(PM10),57,63,110,32,66,131,,170,165,10,19,6,7,0.6,0.8
2025-05-08T2300,4182A,116.1942,39.9158,北京市,八角北路9号,颗粒物(PM10),85,120,146,49,64,97,,152,132,24,36,6,6,0.6,0.7
2025-05-08T2300,4194A,117.0790,40.1518,北京市,洳河巡河路,细颗粒物(PM2.5),58,62,103,41,75,112,,179,161,15,16,7,6,0.6,0.7
2025-05-08T2300,1761A,123.8275,41.3064,本溪市,大峪,颗粒物(PM10),58,65,46,16,16,110,,118,116,7,6,6,6,0.4,0.5
2025-05-08T2300,1762A,123.7567,41.3325,本溪市,溪湖,颗粒物(PM10),56,61,45,18,18,101,,107,105,15,11,7,5,0.9,0.6
2025-05-08T2300,1763A,123.7169,41.3094,本溪市,彩屯,颗粒物(PM10),60,70,59,21,23,88,,102,95,24,23,16,17,1.9,1.8
2025-05-08T2300,1764A,123.7669,41.2864,本溪市,东明,颗粒物(PM10),56,61,55,18,16,116,,119,111,7,8,6,7,0.4,0.6
2025-05-08T2300,1765A,123.7992,41.2664,本溪市,新立屯,颗粒物(PM10),53,55,45,23,18,118,,116,114,8,9,5,5,0.3,0.4
2025-05-08T2300,1766A,123.8142,41.3472,本溪市,威宁,颗粒物(PM10),61,71,52,21,17,93,,110,104,6,4,4,4,0.5,0.5
2025-05-08T2300,2587A,105.2864,27.3125,毕节市,八中,,22,18,15,15,10,59,,83,74,10,7,5,4,0.6,0.5
2025-05-08T2300,2588A,105.31,27.2944,毕节市,师专,,27,27,16,16,9,49,,86,73,21,12,3,3,0.6,0.6
2025-05-08T2300,4263A,105.3688,27.3598,毕节市,工业大道,,33,33,14,23,10,58,,86,76,19,10,6,6,0.7,0.7
2025-05-08T2300,1629A,118.0018,37.3617,滨州市,第二水厂,颗粒物(PM10),62,73,87,27,36,92,,110,97,18,24,8,8,0.3,0.6
2025-05-08T2300,1630A,117.9776,37.393,滨州市,北中新校,颗粒物(PM10),57,63,76,19,34,90,,107,94,16,24,5,8,0.3,0.6
2025-05-08T2300,3514A,117.9378,37.3956,滨州市,中海酒店,颗粒物(PM10),60,70,81,29,37,100,,92,,13,18,6,8,0.6,0.8
2025-05-08T2300,3515A,117.9378,37.3553,滨州市,开发区一中,颗粒物(PM10),59,68,86,19,30,92,,112,97,16,27,5,7,0.4,0.7
2025-05-08T2300,3516A,118.0917,37.694,滨州市,金海六路,细颗粒物(PM2.5),62,54,62,44,38,106,,120,109,14,16,7,8,0.1,0.3
2025-05-08T2300,4028A,117.9956,37.3753,滨州市,滨州市西街道办事处,颗粒物(PM10),57,63,79,24,38,102,,124,109,14,21,5,6,0.3,0.5
2025-05-08T2300,2311A,115.8072,33.8399,亳州市,污水处理厂,,27,,70,16,34,85,,106,74,4,15,3,3,0.3,0.5
2025-05-08T2300,2312A,115.7789,33.8518,亳州市,三国揽胜宫,,28,18,69,12,33,89,,113,75,4,13,3,4,0.4,0.6
2025-05-08T2300,3332A,115.7633,33.8034,亳州市,亳州学院,,,12,73,,34,88,,110,79,6,15,1,2,0.3,0.7
2025-05-08T2300,2693A,82.0485,44.8556,博尔塔拉蒙古自治州,市党校,,40,40,36,21,11,104,,127,125,17,8,8,5,0.6,0.5
2025-05-08T2300,2694A,82.0806,44.8969,博尔塔拉蒙古自治州,市环保局,,,,39,,12,,,126,126,27,12,3,2,0.7,0.6
2025-05-08T2300,1071A,116.8842,38.2991,沧州市,沧县城建局,颗粒物(PM10),53,56,89,30,44,56,,101,78,33,32,2,4,0.4,0.6
2025-05-08T2300,1072A,116.8584,38.3254,沧州市,电视转播站,"颗粒物(PM10),细颗粒物(PM2.5)",55,60,92,39,52,57,,101,74,28,28,4,6,0.4,0.6
2025-05-08T2300,1073A,116.8709,38.3228,沧州市,市环保局,颗粒物(PM10),60,69,99,42,50,66,,112,85,29,29,8,11,0.4,0.6
2025-05-08T2300,3324A,116.8136,38.3004,沧州市,河北水利电力学院,颗粒物(PM10),52,53,83,31,41,70,,111,94,27,27,4,7,0.3,0.5
2025-05-08T2300,2622A,97.1806,31.1273,昌都市,昌都监测站,,42,42,29,23,15,95,,140,127,11,5,3,3,0.5,0.4
2025-05-08T2300,3719A,97.1714,31.1406,昌都市,昌都会议中心,,40,40,31,20,16,110,,145,136,5,3,3,3,0.2,0.2
2025-05-08T2300,2690A,88.1236,43.8886,昌吉回族自治州,天山天池,,21,20,7,10,3,65,,117,97,6,5,6,5,0.5,0.5
2025-05-08T2300,2692A,87.2717,44.0297,昌吉回族自治州,新区政务中心,,,64,47,26,20,,,138,137,31,17,6,8,0.5,0.4
2025-05-08T2300,3613A,87.3095,44.0142,昌吉回族自治州,亚心广场,颗粒物(PM10),78,105,61,24,13,50,,134,121,60,24,8,8,0.6,0.4
2025-05-08T2300,1119A,125.3325,43.9166,长春市,食品厂,颗粒物(PM10),55,60,49,23,25,99,,106,106,13,22,6,5,0.4,0.5
2025-05-08T2300,1120A,125.2863,43.9027,长春市,客车厂,颗粒物(PM10),55,60,49,25,26,95,,105,105,16,24,6,6,0.3,0.4
2025-05-08T2300,1121A,125.2841,43.8463,长春市,邮电学院,颗粒物(PM10),55,59,47,22,25,105,,116,116,13,18,6,6,0.3,0.4
2025-05-08T2300,1122A,125.3716,43.8772,长春市,劳动公园,颗粒物(PM10),56,62,47,17,24,105,,112,112,6,16,7,7,0.3,0.4
2025-05-08T2300,1123A,125.3297,43.8805,长春市,园林处,颗粒物(PM10),53,56,42,16,19,104,,115,115,7,16,7,7,0.5,0.6
2025-05-08T2300,1124A,125.4605,43.79,长春市,净月潭,颗粒物(PM10),53,56,44,19,22,93,,99,99,5,8,6,6,0.4,0.4
2025-05-08T2300,1125A,125.7194,43.515,长春市,甩湾子,,,,,,,,,,,,,,,,
2025-05-08T2300,1126A,125.3863,43.8447,长春市,经开区环卫处,颗粒物(PM10),57,64,57,17,20,99,,102,102,8,17,6,6,0.3,0.4
2025-05-08T2300,1127A,125.245,43.7783,长春市,高新区管委会,,49,49,43,23,25,98,,112,112,10,16,6,6,0.3,0.4
2025-05-08T2300,1128A,125.1761,43.8325,长春市,岱山公园,颗粒物(PM10),53,55,49,20,24,92,,105,105,14,25,6,5,0.4,0.4
2025-05-08T2300,1335A,113.0833,28.2325,长沙市,经开区环保局,,38,26,43,26,25,57,,68,59,20,18,4,5,0.6,0.6
2025-05-08T2300,1336A,112.8872,28.2189,长沙市,高开区环保局,,29,27,40,20,19,60,,75,71,12,7,5,6,0.5,0.6
2025-05-08T2300,1337A,113.0792,28.2053,长沙市,马坡岭,,33,25,41,23,23,59,,74,66,22,16,3,4,0.7,0.7
2025-05-08T2300,1338A,112.9394,28.19,长沙市,湖南师范大学,,35,25,41,24,20,63,,70,70,16,10,2,2,0.4,0.5
2025-05-08T2300,1339A,113.0178,28.1322,长沙市,雨花区环保局,,29,29,40,18,21,66,,74,71,12,9,4,5,0.8,0.8
2025-05-08T2300,1340A,112.9792,28.2597,长沙市,伍家岭,,48,,44,33,21,55,,72,66,17,12,3,3,0.6,0.6
2025-05-08T2300,1341A,113.0014,28.1944,长沙市,火车新站,,25,25,44,17,19,67,,69,69,13,12,7,7,0.6,0.8
2025-05-08T2300,1342A,112.9844,28.1178,长沙市,天心区环保局,,38,26,41,26,27,64,,68,68,14,13,3,4,0.6,0.6
2025-05-08T2300,1343A,112.8908,28.1308,长沙市,湖南中医药大学,,24,24,42,16,21,56,,64,64,9,10,2,3,0.6,0.7
2025-05-08T2300,1344A,112.9581,28.3611,长沙市,沙坪,,33,33,49,9,21,46,,63,63,11,12,2,3,0.6,0.7
2025-05-08T2300,1727A,113.1147,36.1547,长治市,清华站,,50,50,116,27,38,67,,106,92,19,17,6,8,1.0,1
2025-05-08T2300,1730A,113.0886,36.2125,长治市,审计局,,45,42,97,31,47,59,,109,93,26,20,7,10,0.6,0.8
2025-05-08T2300,1731A,113.0844,36.1856,长治市,长治八中,细颗粒物(PM2.5),54,53,123,38,53,66,,108,93,22,16,8,11,0.8,0.9
2025-05-08T2300,2845A,113.1569,36.1911,长治市,德盛苑,,46,46,114,22,46,65,,110,97,9,13,4,6,1.0,0.8
2025-05-08T2300,3568A,113.06,36.0464,长治市,向阳小学,细颗粒物(PM2.5),75,69,166,55,54,87,,109,95,14,22,7,12,0.7,1
2025-05-08T2300,3569A,112.8792,36.3144,长治市,屯留一中,,49,49,93,30,39,65,,97,89,25,22,8,12,0.2,0.7
2025-05-08T2300,4189A,113.1131,36.19948,长治市,英华南巷50号,,47,47,115,29,50,64,,107,92,18,16,5,8,0.8,1
2025-05-08T2300,4190A,113.2367,36.3344,长治市,学府街1号,,34,34,106,23,43,55,,117,80,41,25,1,5,0.5,0.9
2025-05-08T2300,1854A,111.6975,28.9703,常德市,市二中,,26,17,33,12,22,82,,83,83,7,11,5,6,0.6,0.8
2025-05-08T2300,1857A,111.7158,29.1456,常德市,白鹤山,,,,,,,,,,,,,,,,
2025-05-08T2300,3138A,111.7153,29.0289,常德市,武陵区永安,,26,15,35,8,20,82,,83,83,5,8,6,8,0.5,0.7
2025-05-08T2300,3139A,111.6892,28.9881,常德市,鼎城区玉霞,,27,16,34,8,17,85,,86,86,6,6,4,5,0.6,0.7
2025-05-08T2300,3140A,111.6625,29.0531,常德市,武陵区长庚,,30,9,33,8,18,93,,87,87,6,9,6,7,0.7,0.8
2025-05-08T2300,1196A,119.9633,31.762,常州市,市监测站,,29,19,70,7,20,90,,108,94,4,19,9,11,0.7,1.1
2025-05-08T2300,1200A,119.9468,31.7069,常州市,武进监测站,,32,32,74,3,17,86,,110,95,11,20,12,11,0.6,0.7
2025-05-08T2300,1201A,119.9255,31.9087,常州市,安家,,28,28,74,3,20,86,,79,,7,18,9,10,0.3,0.2
2025-05-08T2300,3002A,119.9805,31.8174,常州市,行政中心,,28,26,66,3,19,88,,106,92,10,22,17,17,0.4,0.4
2025-05-08T2300,3003A,120.0522,31.7748,常州市,经开区,,31,31,66,3,18,90,,106,96,14,25,6,7,1.8,0.5
2025-05-08T2300,3010A,119.9025,31.7964,常州市,钟楼,,30,21,66,3,18,94,,118,101,6,16,6,7,0.4,0.7
2025-05-08T2300,3429A,119.8598,31.7066,常州市,武进经发区,,27,14,66,6,22,84,,111,96,8,15,8,9,0.6,0.6
2025-05-08T2300,3430A,119.5826,31.7245,常州市,金坛城区,,36,36,70,8,21,81,,114,100,10,12,7,8,0.5,0.5
2025-05-08T2300,2220A,120.4318,41.5881,朝阳市,西梁,细颗粒物(PM2.5),55,,63,39,35,82,,127,115,16,15,6,6,0.5,0.5
2025-05-08T2300,2221A,120.4521,41.5646,朝阳市,河畔小区,细颗粒物(PM2.5),59,,61,42,40,94,,134,123,14,11,6,7,0.6,0.5
2025-05-08T2300,2222A,120.4176,41.5648,朝阳市,八里堡,细颗粒物(PM2.5),62,,73,44,39,91,,126,115,17,15,6,6,0.5,0.5
2025-05-08T2300,2223A,120.3806,41.5969,朝阳市,农业园区,细颗粒物(PM2.5),59,,70,42,46,96,,133,116,13,17,8,9,0.6,0.7
2025-05-08T2300,1705A,116.6367,23.6719,潮州市,西园路,颗粒物(PM10),55,59,47,29,22,30,,78,50,15,13,6,5,0.6,0.4
2025-05-08T2300,3026A,116.6183,23.6608,潮州市,市政府,颗粒物(PM10),60,69,52,29,24,53,,80,68,18,14,16,10,0.7,0.6
2025-05-08T2300,4036A,116.6461,23.6761,潮州市,金山,,45,45,44,28,22,33,,80,53,13,16,6,7,0.8,0.7
2025-05-08T2300,2472A,113.0073,25.9061,郴州市,马头岭,,30,30,32,3,14,41,,55,51,13,9,8,7,0.3,0.3
2025-05-08T2300,2473A,113.0116,25.8226,郴州市,市职中,,22,21,31,15,19,60,,62,61,8,10,3,5,0.5,0.6
2025-05-08T2300,2475A,113.0383,25.8071,郴州市,市审计局,,25,25,33,13,18,63,,63,63,8,10,2,3,0.4,0.5
2025-05-08T2300,2476A,113.0348,25.7759,郴州市,市环保局,,22,22,34,14,19,61,,58,58,6,9,2,5,0.4,0.5
2025-05-08T2300,4252A,113.0138,25.8011,郴州市,好美居路49号,,35,,35,24,21,62,,61,61,7,9,3,5,0.5,0.6
2025-05-08T2300,1431A,103.9728,30.7236,成都市,金泉两河,,49,49,30,26,15,24,,99,82,52,14,2,2,0.8,0.7
2025-05-08T2300,1432A,104.176,30.6872,成都市,十里店,,42,42,38,21,23,76,,142,127,31,12,4,3,0.5,0.5
2025-05-08T2300,1433A,104.079,30.5706,成都市,三瓦窑,,44,44,35,21,21,35,,124,107,69,28,4,4,0.7,0.6
2025-05-08T2300,1434A,104.1114,30.63,成都市,沙河铺,,49,49,41,25,23,60,,115,101,34,16,7,7,0.6,0.6
2025-05-08T2300,1437A,104.0786,30.6531,成都市,君平街,颗粒物(PM10),52,54,38,28,23,44,,101,87,40,19,6,6,0.7,0.6
2025-05-08T2300,1438A,103.613,31.0283,成都市,灵岩寺,,,,,,,,,,,,,,,,
2025-05-08T2300,2880A,104.0239,30.65639,成都市,大石西路,细颗粒物(PM2.5),59,46,35,42,24,43,,128,109,49,20,5,5,0.7,0.6
2025-05-08T2300,3136A,104.2725,30.5589,成都市,龙泉驿区区政府,,24,24,26,14,18,42,,64,59,19,16,4,4,0.4,0.5
2025-05-08T2300,3357A,104.0106,30.6931,成都市,金博路,,40,37,26,28,16,39,,109,95,41,17,8,7,0.6,0.5
2025-05-08T2300,3359A,104.0578,30.5225,成都市,华阳,,39,34,31,27,29,31,,113,90,45,19,6,6,0.8,0.7
2025-05-08T2300,3488A,104.3853,30.7453,成都市,青白江技师分院,,40,37,39,28,27,58,,139,118,45,20,4,4,0.4,0.4
2025-05-08T2300,3489A,104.0789,30.4072,成都市,科学城,,23,22,30,16,23,71,,106,101,20,12,4,4,0.5,0.5
2025-05-08T2300,4011A,103.8506,30.6947,成都市,光华大道三段,,36,29,31,25,18,92,,135,120,21,14,1,1,0.6,0.6
2025-05-08T2300,4224A,104.2433,30.5353,成都市,鲸龙路1057号,,30,30,36,15,26,47,,119,106,49,15,5,4,0.6,0.6
2025-05-08T2300,1062A,117.9531,40.9081,承德市,铁路,,35,31,91,19,43,109,,148,137,12,17,3,2,0.4,0.5
2025-05-08T2300,1063A,117.9392,40.9763,承德市,中国银行,,34,34,86,18,41,100,,143,123,10,13,3,2,0.4,0.5
2025-05-08T2300,1064A,117.9503,40.928,承德市,开发区,,42,42,87,28,42,110,,150,136,10,14,1,4,0.5,0.6
2025-05-08T2300,1065A,117.8051,40.9655,承德市,文化中心,,38,37,102,20,46,121,,148,128,9,16,3,8,0.4,0.6
2025-05-08T2300,1066A,117.9268,41.0026,承德市,离宫,细颗粒物(PM2.5),60,,87,43,57,105,,132,103,8,12,1,3,0.3,0.5
2025-05-08T2300,2314A,117.47,30.6618,池州市,池州学院,,13,8,68,3,29,40,,105,54,16,16,4,5,0.6,0.8
2025-05-08T2300,3237A,117.4918,30.6617,池州市,展览馆,,13,8,70,3,25,39,,101,52,13,13,4,4,0.6,0.8
2025-05-08T2300,3333A,117.5627,30.695,池州市,第八中学,,13,7,69,3,28,40,,100,56,12,13,4,5,0.6,0.8
2025-05-08T2300,3334A,117.5038,30.6243,池州市,第十二中学,,13,6,66,3,31,39,,70,57,17,20,3,3,0.9,0.8
2025-05-08T2300,1744A,118.9233,42.2816,赤峰市,松山一中,,33,33,78,12,30,78,,114,83,23,18,9,8,0.5,0.6
2025-05-08T2300,1745A,118.9576,42.2728,赤峰市,哈达街,,32,32,78,15,34,83,,113,84,17,18,9,11,0.5,0.5
2025-05-08T2300,1746A,118.8788,42.2554,赤峰市,天义路,,25,14,67,14,43,80,,119,85,17,15,7,7,0.3,0.4
2025-05-08T2300,3058A,119.2658,42.0353,赤峰市,银河街,颗粒物(PM10),55,60,95,22,39,82,,104,86,6,12,14,17,0.5,0.7
2025-05-08T2300,3286A,118.9359,42.3147,赤峰市,桥北物流园区,,29,29,80,3,36,71,,112,78,19,14,8,7,0.3,0.5
2025-05-08T2300,2521A,107.3476,22.4136,崇左市,市环保局江州分局,细颗粒物(PM2.5),67,72,54,48,36,102,,131,127,8,8,6,5,0.6,0.5
2025-05-08T2300,4256A,107.3750,22.3736,崇左市,石景林东路7号,细颗粒物(PM2.5),60,50,48,43,35,116,,138,135,8,11,4,3,0.6,0.5
2025-05-08T2300,2298A,118.3093,32.3153,滁州市,老年大学,,26,,59,18,30,68,,107,87,11,19,3,3,0.6,0.4
2025-05-08T2300,2299A,118.3244,32.2786,滁州市,人大宾馆,,32,,58,22,30,59,,100,77,12,17,8,8,0.4,0.4
2025-05-08T2300,3207A,118.3118,32.3038,滁州市,市政府原办公楼,,36,,56,25,33,67,,112,90,12,15,4,5,0.4,0.3
2025-05-08T2300,3331A,118.3267,32.2634,滁州市,图书馆,,22,,64,15,28,60,,96,77,9,14,8,8,0.5,0.4
2025-05-08T2300,2605A,101.5482,25.0441,楚雄彝族自治州,州环境监测站,,36,20,22,16,15,115,,124,119,7,7,6,6,0.3,0.4
2025-05-08T2300,2606A,101.538,25.0492,楚雄彝族自治州,市经济开发区,,47,47,25,19,16,105,,119,112,7,7,7,7,0.8,0.5
2025-05-08T2300,2548A,107.5277,31.2827,达州市,达州职业技术学院,,23,19,32,7,10,71,,93,87,14,14,5,6,0.3,0.5
2025-05-08T2300,2549A,107.5086,31.2186,达州市,市环境监测站,,28,24,34,3,10,89,,99,97,16,17,4,4,0.2,0.3
2025-05-08T2300,2550A,107.4988,31.2132,达州市,凤凰小区,,29,17,25,3,13,90,,97,95,15,14,6,6,0.3,0.4
2025-05-08T2300,2551A,107.5082,31.1986,达州市,达县机关宾馆,,25,17,28,10,9,77,,92,88,20,19,4,4,0.2,0.3
2025-05-08T2300,2552A,107.4644,31.2124,达州市,市政中心,,29,29,35,3,9,77,,90,87,14,12,1,2,0.2,0.3
2025-05-08T2300,2614A,100.1542,25.7054,大理白族自治州,大理市环境监测站,,31,,18,18,18,99,,107,105,7,6,7,7,0.3,0.3
2025-05-08T2300,2615A,100.2171,25.5811,大理白族自治州,大理古城,,27,27,20,12,15,73,,111,102,20,7,8,8,0.5,0.4
2025-05-08T2300,1109A,121.612,38.9741,大连市,甘井子,,34,34,42,8,14,98,,99,98,16,21,4,4,0.1,0.2
2025-05-08T2300,1110A,121.565,38.9511,大连市,周水子,,34,34,40,11,15,92,,106,98,14,16,9,6,0.3,0.3
2025-05-08T2300,1111A,121.5637,38.8845,大连市,星海三站,,32,30,40,9,16,102,,103,103,9,11,2,2,0.2,0.3
2025-05-08T2300,1112A,121.6302,38.9117,大连市,青泥洼桥,,32,27,36,11,14,101,,110,104,8,11,6,6,0.3,0.3
2025-05-08T2300,1113A,121.6251,38.8638,大连市,傅家庄,,34,28,37,8,11,108,,111,111,14,17,6,6,0.1,0.2
2025-05-08T2300,1114A,121.5213,38.8661,大连市,七贤岭,,32,29,39,9,15,100,,103,102,13,17,6,6,0.3,0.3
2025-05-08T2300,1115A,121.2529,38.8061,大连市,旅顺,,30,20,30,8,12,93,,92,92,12,16,4,4,0.2,0.2
2025-05-08T2300,1116A,121.7485,39.1311,大连市,金州,,33,21,31,11,16,105,,118,110,11,14,7,7,0.1,0.2
2025-05-08T2300,1117A,121.7811,39.0496,大连市,开发区,,34,34,40,11,13,97,,96,89,13,24,4,5,0.2,0.5
2025-05-08T2300,1118A,121.9762,39.0631,大连市,双D港,,34,19,28,7,9,108,,119,116,5,10,6,7,0.3,0.3
2025-05-08T2300,1789A,124.81117,46.03138,大庆市,大同区,,49,41,48,34,38,69,,79,74,11,14,4,5,0.7,0.6
2025-05-08T2300,1790A,125.129,46.533,大庆市,龙凤区,,33,33,40,21,29,90,,88,86,5,15,4,4,0.5,0.6
2025-05-08T2300,1791A,124.902,46.408,大庆市,红岗区,,33,23,38,23,26,93,,91,88,4,10,7,13,0.5,0.4
2025-05-08T2300,1792A,125.153,46.586,大庆市,萨尔图区,,36,25,48,25,32,80,,82,78,7,15,6,7,0.3,0.4
2025-05-08T2300,1793A,124.9042,46.6215,大庆市,让胡路区,,46,36,40,32,33,75,,85,81,9,21,6,7,0.4,0.5
2025-05-08T2300,3481A,125.141,46.634,大庆市,萨区政府监测点,,36,36,46,22,24,81,,89,84,5,13,5,6,0.5,0.5
2025-05-08T2300,1721A,113.3819,40.1097,大同市,果树场,,29,29,80,9,41,79,,106,93,11,21,6,8,0.3,0.4
2025-05-08T2300,1723A,113.2994,40.0758,大同市,云冈宾馆,颗粒物(PM10),52,54,91,21,28,94,,116,103,13,26,9,10,0.2,0.3
2025-05-08T2300,1724A,113.3444,40.0917,大同市,大同大学,,37,37,77,22,32,78,,111,96,19,25,3,4,0.4,0.5
2025-05-08T2300,1725A,113.2661,40.1269,大同市,安家小村,,43,43,96,18,30,91,,110,94,14,24,8,11,0.4,0.5
2025-05-08T2300,1726A,113.2711,40.0844,大同市,教育学院,颗粒物(PM10),52,53,92,23,33,88,,110,96,18,26,6,8,0.7,0.5
2025-05-08T2300,3282A,113.3397,40.0597,大同市,大同市卫生学校,,43,43,87,26,33,81,,105,94,14,23,8,10,0.7,0.7
2025-05-08T2300,3565A,113.1367,40.1122,大同市,云冈站,,39,39,91,20,36,64,,110,92,26,18,10,13,0.2,0.2
2025-05-08T2300,3566A,113.1186,40.2556,大同市,图书馆,颗粒物(PM10),55,60,90,28,37,67,,101,84,11,14,5,10,0.4,0.4
2025-05-08T2300,3567A,113.5931,40.0461,大同市,区一中,,36,36,86,25,32,95,,121,113,9,16,7,14,0.5,0.5
2025-05-08T2300,4199A,113.2798,40.0997,大同市,魏都大道141号,,50,50,107,27,35,101,,122,107,14,26,4,7,0.7,0.6
2025-05-08T2300,2269A,124.1069,50.4097,大兴安岭地区,科技局,颗粒物(PM10),53,56,47,35,29,71,,105,99,9,7,6,5,0.4,0.4
2025-05-08T2300,3663A,124.1164,50.4278,大兴安岭地区,红旗社区,细颗粒物(PM2.5),52,48,46,36,32,53,,110,96,14,15,5,5,0.5,0.5
2025-05-08T2300,1600A,124.3303,40.0625,丹东市,江湾东路,,30,30,30,18,18,70,,110,90,12,7,6,7,0.7,0.5
2025-05-08T2300,1601A,124.4256,40.1503,丹东市,临江后街,颗粒物(PM10),60,69,56,22,20,64,,107,86,16,12,6,7,0.7,0.7
2025-05-08T2300,1602A,124.3933,40.1461,丹东市,元宝山,,38,38,35,14,16,77,,105,89,13,11,8,8,0.6,0.6
2025-05-08T2300,1603A,124.3633,40.1092,丹东市,民主桥,,41,41,38,18,15,43,,107,84,31,10,9,7,1.1,0.8
2025-05-08T2300,3541A,109.5726,19.5167,儋州市,第一中学子站,,24,21,20,9,11,74,,77,77,4,5,6,5,0.5,0.5
2025-05-08T2300,3542A,109.5567,19.5187,儋州市,东坡学校子站,,29,29,19,9,13,71,,79,79,4,4,5,5,0.6,0.6
2025-05-08T2300,2616A,98.5842,24.428,德宏傣族景颇族自治州,德宏州监测站,细颗粒物(PM2.5),63,63,44,45,30,49,,101,83,15,13,8,8,0.8,0.7
2025-05-08T2300,3677A,98.5881,24.4368,德宏傣族景颇族自治州,芒市人民政府综合楼,颗粒物(PM10),68,85,54,42,29,55,,121,99,17,12,6,6,0.6,0.5
2025-05-08T2300,1901A,104.4239,31.1208,德阳市,东山公园,,38,35,28,26,20,105,,150,144,16,12,4,4,0.9,0.9
2025-05-08T2300,1902A,104.3826,31.1317,德阳市,西小区,"颗粒物(PM10),细颗粒物(PM2.5)",52,53,39,36,26,72,,141,127,34,21,6,5,0.9,0.8
2025-05-08T2300,1904A,104.3553,31.1091,德阳市,耐火材料厂,颗粒物(PM10),59,67,43,39,24,63,,150,129,38,18,7,6,0.6,0.5
2025-05-08T2300,3639A,104.4019,31.1244,德阳市,市教育局,,,41,37,,25,56,,159,136,60,18,7,6,0.7,0.6
2025-05-08T2300,1622A,116.3032,37.4674,德州市,儿童乐园,颗粒物(PM10),67,83,94,39,46,82,,109,90,20,19,7,8,0.6,0.6
2025-05-08T2300,1624A,116.2991,37.4451,德州市,监理站,颗粒物(PM10),67,83,95,39,48,77,,109,99,24,19,10,11,0.6,0.6
2025-05-08T2300,3066A,116.2721,37.4379,德州市,九衢泉纯净水厂,颗粒物(PM10),67,83,92,34,39,54,,106,95,40,26,8,9,0.6,0.7
2025-05-08T2300,3371A,116.3728,37.4403,德州市,开发区人民医院,颗粒物(PM10),69,88,97,36,38,76,,98,89,22,23,7,8,0.7,0.8
2025-05-08T2300,3372A,116.3572,37.4094,德州市,太阳城中学,颗粒物(PM10),75,100,102,41,43,81,,116,105,29,29,5,6,1.0,0.6
2025-05-08T2300,3511A,116.5652,37.3319,德州市,陵城艺术中心,颗粒物(PM10),65,80,102,29,41,96,,125,112,20,32,5,7,0.6,0.8
2025-05-08T2300,2621A,99.7056,27.8317,迪庆藏族自治州,迪庆州站,,36,36,27,16,12,83,,103,95,12,13,5,5,0.4,0.3
2025-05-08T2300,3180A,99.7136,27.8094,迪庆藏族自治州,质量技术监督局,,30,18,21,12,11,96,,120,106,7,8,5,4,0.4,0.4
2025-05-08T2300,4257A,104.6092,35.5962,定西市,将台街,颗粒物(PM10),69,87,80,32,30,88,,120,114,23,11,3,4,0.2,0.2
2025-05-08T2300,4309A,104.6159,35.5701,定西市,正龙路62号,颗粒物(PM10),63,76,68,24,27,99,,119,115,7,7,9,9,0.1,0.2
2025-05-08T2300,1389A,113.7547,23.0494,东莞市,莞城梨川,,39,39,36,23,19,41,,90,57,19,12,6,6,0.5,0.5
2025-05-08T2300,1390A,113.7944,23.0128,东莞市,东城石井,,41,41,37,16,16,30,,77,48,25,17,4,3,0.6,0.6
2025-05-08T2300,1391A,113.7383,22.9658,东莞市,南城西平,,45,45,33,14,9,30,,80,48,32,20,3,2,0.5,0.4
2025-05-08T2300,3319A,113.7338,23.0381,东莞市,万江金泰,,39,39,35,19,16,27,,80,45,22,13,5,5,0.6,0.6
2025-05-08T2300,3626A,113.7533,23.0202,东莞市,南城元岭,,32,32,35,18,17,34,,87,52,28,17,2,2,0.6,0.5
2025-05-08T2300,3627A,113.7875,23.0457,东莞市,东城主山,,35,35,35,16,14,38,,81,53,18,17,4,4,0.4,0.4
2025-05-08T2300,1666A,118.6614,37.4309,东营市,市环保局,,46,46,58,12,21,87,,110,101,19,18,6,9,0.4,0.5
2025-05-08T2300,3036A,118.6904,37.4338,东营市,开发区管委会,颗粒物(PM10),100,149,65,22,23,88,,106,94,17,18,5,6,0.4,0.6
2025-05-08T2300,3365A,118.5719,37.565,东营市,垦利区民丰路,,46,46,61,14,23,96,,115,107,26,26,6,6,0.6,0.7
2025-05-08T2300,3498A,118.5055,37.8612,东营市,河口城区,,46,46,61,12,21,96,,113,110,18,20,8,8,1.1,1.1
2025-05-08T2300,3646A,118.4978,37.4623,东营市,胜利站,,48,48,64,14,25,82,,105,92,20,21,10,9,0.6,0.8
2025-05-08T2300,3734A,118.35,37.26,东营市,理想之城,颗粒物(PM10),51,51,67,22,28,84,,117,105,24,21,6,6,0.5,0.6
2025-05-08T2300,1591A,110.0023,39.8129,鄂尔多斯市,综合楼,颗粒物(PM10),56,61,131,14,43,115,,101,95,6,22,6,9,0.3,0.4
2025-05-08T2300,1592A,109.9486,39.8261,鄂尔多斯市,巴音孟克林场办事处,颗粒物(PM10),56,61,118,17,37,114,,105,97,8,17,6,7,0.3,0.4
2025-05-08T2300,1593A,109.7736,39.5986,鄂尔多斯市,康泽苑,,41,41,87,12,34,70,,102,86,13,13,6,8,0.4,0.4
2025-05-08T2300,1594A,109.8119,39.5989,鄂尔多斯市,华泰汽车城,,44,44,96,12,35,58,,105,83,17,21,3,3,0.3,0.4
2025-05-08T2300,1595A,109.9734,39.7884,鄂尔多斯市,奥林花园,颗粒物(PM10),58,66,113,12,35,112,,105,85,7,23,3,5,0.5,0.5
2025-05-08T2300,2436A,114.8938,30.3994,鄂州市,市政府,,21,15,61,7,24,65,,108,73,17,13,6,7,1.3,1.3
2025-05-08T2300,2437A,114.8989,30.3714,鄂州市,赵家坝,,21,12,67,3,17,65,,104,78,17,6,5,4,2.0,0.9
2025-05-08T2300,3654A,114.8094,30.4089,鄂州市,精准医疗中心,,20,17,56,3,18,64,,93,75,13,11,4,7,0.5,0.8
2025-05-08T2300,2454A,109.4978,30.2981,恩施土家族苗族自治州,湖北民院,,39,39,34,18,18,19,,78,56,16,7,5,5,0.5,0.4
2025-05-08T2300,2455A,109.4707,30.2798,恩施土家族苗族自治州,州电力总公司,,,32,30,16,19,16,,74,58,16,9,,7,0.3,0.4
2025-05-08T2300,3549A,109.5061,30.3772,恩施土家族苗族自治州,龙凤新区,,30,30,29,15,17,38,,85,65,9,6,5,6,0.6,0.6
2025-05-08T2300,2499A,108.3411,21.6158,防城港市,沙万,,26,26,29,16,16,54,,59,54,7,11,1,3,0.5,0.5
2025-05-08T2300,2500A,108.3514,21.7731,防城港市,防城档案局,,22,22,28,13,14,64,,67,64,8,8,3,4,0.4,0.4
2025-05-08T2300,2501A,108.3506,21.6414,防城港市,大海花园,,,,32,,12,,,60,,,11,,4,,0.3
2025-05-08T2300,1371A,113.1294,23.0067,佛山市,湾梁,,29,29,35,16,13,31,,70,50,20,18,7,7,0.6,0.5
2025-05-08T2300,1372A,113.1083,23.0478,佛山市,华材职中,,31,31,31,14,13,33,,76,52,19,18,4,4,0.4,0.4
2025-05-08T2300,1373A,113.144,23.0453,佛山市,南海气象局,,28,28,35,15,16,31,,67,48,18,20,1,1,0.4,0.4
2025-05-08T2300,1374A,113.2881,22.8094,佛山市,顺德苏岗,,33,33,37,14,13,31,,64,45,15,12,5,5,0.5,0.5
2025-05-08T2300,1376A,112.8383,22.8678,佛山市,高明孔堂,,31,31,26,14,14,35,,60,49,10,7,5,5,0.6,0.6
2025-05-08T2300,1377A,112.8836,23.1588,佛山市,三水监测站,,35,24,26,24,21,23,,62,39,23,22,3,2,0.4,0.6
2025-05-08T2300,1378A,112.867,23.185,佛山市,三水云东海,,39,39,41,14,15,32,,75,52,21,21,3,3,0.5,0.5
2025-05-08T2300,3625A,113.2544,22.7642,佛山市,容桂街道办,,27,27,29,17,16,30,,64,45,20,16,5,5,0.7,0.6
2025-05-08T2300,1280A,119.3903,26.0543,福州市,鼓山,,,,44,,18,,,92,,,5,,3,,0.3
2025-05-08T2300,1282A,119.2681,26.0504,福州市,师大,颗粒物(PM10),58,66,51,31,19,72,,111,100,23,11,4,3,0.4,0.3
2025-05-08T2300,1283A,119.2984,26.1028,福州市,五四北路,颗粒物(PM10),53,56,47,28,19,80,,104,100,21,13,4,3,0.5,0.4
2025-05-08T2300,1284A,119.2648,26.0768,福州市,杨桥西路,颗粒物(PM10),62,74,58,30,20,74,,111,104,23,11,4,3,0.5,0.3
2025-05-08T2300,1285A,119.317,26.0746,福州市,紫阳,颗粒物(PM10),55,60,54,29,19,78,,107,94,22,16,6,6,0.4,0.4
2025-05-08T2300,3048A,119.5799,26.0936,福州市,九龙,颗粒物(PM10),53,56,49,29,21,84,,109,102,8,8,4,4,0.3,0.2
2025-05-08T2300,3526A,119.5189,25.9664,福州市,吴航,颗粒物(PM10),65,80,57,33,26,82,,114,108,18,8,4,4,0.4,0.4
2025-05-08T2300,1755A,123.7977,41.8491,抚顺市,望花区,颗粒物(PM10),62,73,68,27,24,97,,118,112,23,16,6,17,0.4,0.5
2025-05-08T2300,1756A,123.9161,41.8822,抚顺市,顺城区,颗粒物(PM10),56,62,53,20,20,110,,121,114,9,14,6,8,0.4,0.6
2025-05-08T2300,1757A,124.0436,41.8611,抚顺市,东洲区,,,45,46,22,17,,,113,110,,10,,7,,0.5
2025-05-08T2300,1758A,123.9247,41.8642,抚顺市,新抚区,颗粒物(PM10),57,63,59,21,16,101,,110,104,4,11,6,8,0.4,0.6
2025-05-08T2300,1759A,124.0972,41.8961,抚顺市,大伙房水库,颗粒物(PM10),58,66,42,20,16,114,,120,118,1,3,7,7,0.5,0.5
2025-05-08T2300,1760A,123.7086,41.8391,抚顺市,沈抚新城,颗粒物(PM10),58,66,57,22,18,97,,121,108,14,14,8,8,0.7,0.6
2025-05-08T2300,2376A,116.2127,28.0814,抚州市,桐源党溪,,32,32,43,11,17,60,,67,53,3,3,4,5,0.4,0.4
2025-05-08T2300,2377A,116.3544,27.9831,抚州市,市站,,,23,39,10,14,,,68,,4,4,1,2,0.8,0.7
2025-05-08T2300,2378A,116.3565,27.963,抚州市,血防站,,,33,44,6,15,,,69,,10,4,3,3,,0.9
2025-05-08T2300,2379A,116.3564,28.0007,抚州市,采茶剧团,,15,14,35,3,12,47,,64,39,2,2,3,3,0.7,0.7
2025-05-08T2300,2380A,116.385,27.9647,抚州市,医学分院,,21,21,39,9,13,48,,67,41,2,2,3,4,1.1,1.1
2025-05-08T2300,2207A,121.6094,41.998,阜新市,工业园区,,36,36,133,15,25,88,,140,126,17,11,8,10,0.5,0.5
2025-05-08T2300,2208A,121.6697,42.0279,阜新市,长青街,,43,43,83,16,18,94,,138,126,14,13,10,10,0.5,0.6
2025-05-08T2300,2209A,121.6673,42.0705,阜新市,农业园区,,37,37,98,19,33,93,,139,127,14,12,7,9,0.7,0.6
2025-05-08T2300,2210A,121.6717,42.0224,阜新市,东苑,细颗粒物(PM2.5),55,39,96,39,28,97,,142,129,15,14,9,10,0.5,0.5
2025-05-08T2300,2211A,121.6506,42.0498,阜新市,玉龙新城,,37,37,95,15,22,85,,136,122,12,10,9,11,0.7,0.6
2025-05-08T2300,2301A,115.8277,32.8929,阜阳市,市监测站,,26,22,71,18,36,62,,112,65,8,16,6,8,0.2,0.3
2025-05-08T2300,2303A,115.8554,32.8605,阜阳市,开发区,,21,20,88,14,30,67,,116,68,11,20,5,7,0.2,0.3
2025-05-08T2300,2875A,115.784,32.8892,阜阳市,阜阳职业技术学院,,23,,66,16,34,73,,127,74,8,15,4,6,0.4,0.5
2025-05-08T2300,3468A,115.7901,32.8613,阜阳市,市规划展馆,,28,,72,19,44,73,,127,76,6,13,6,8,0.4,0.5
2025-05-08T2300,3469A,115.836,32.9183,阜阳市,枣园社区,,,34,91,16,41,65,,117,66,8,17,3,5,,0.6
2025-05-08T2300,2669A,102.9099,34.9841,甘南藏族自治州,州政府,,42,42,93,21,31,79,,100,88,5,7,5,7,0.2,0.3
2025-05-08T2300,3380A,102.8914,34.9617,甘南藏族自治州,甘肃民族师范学院,,43,43,116,19,31,100,,123,110,4,12,7,8,0.2,0.4
2025-05-08T2300,2570A,101.9603,30.0475,甘孜藏族自治州,水桥子,颗粒物(PM10),54,57,28,30,11,4,,115,74,73,20,5,5,0.2,0.3
2025-05-08T2300,3065A,101.9533,29.9972,甘孜藏族自治州,州环保局,,37,37,28,14,8,64,,125,89,25,15,1,2,0.2,0.1
2025-05-08T2300,3414A,115.8347,28.932,赣江新区,桑海产业园,,15,6,23,3,12,45,,86,56,22,12,2,2,0.4,0.4
2025-05-08T2300,2362A,114.9017,25.9149,赣州市,通天岩,,26,26,22,3,5,52,,66,56,3,3,6,5,0.3,0.3
2025-05-08T2300,2363A,114.9367,25.8664,赣州市,地委,颗粒物(PM10),83,116,44,14,13,45,,59,48,7,6,10,3,0.4,0.4
2025-05-08T2300,2364A,114.9461,25.8481,赣州市,气象台,,22,22,23,12,8,46,,59,48,7,6,12,8,0.4,0.4
2025-05-08T2300,2365A,114.9322,25.8333,赣州市,市图书馆,,,20,17,13,10,41,,52,43,5,5,,4,,0.5
2025-05-08T2300,2366A,114.8905,25.8471,赣州市,华坚鞋城,,24,24,21,11,10,41,,55,46,7,5,6,4,0.4,0.4
2025-05-08T2300,3109A,115.0093,25.8613,赣州市,赣县区卫计委,,18,18,19,11,8,38,,52,43,5,3,3,2,0.7,0.7
2025-05-08T2300,2683A,106.2319,36.1417,固原市,马园,颗粒物(PM10),433,533,242,137,61,66,,114,104,17,23,5,6,0.5,0.6
2025-05-08T2300,2684A,106.2792,36.0022,固原市,监测站,颗粒物(PM10),500,897,211,166,49,86,,111,105,7,13,5,6,0.2,0.3
2025-05-08T2300,2685A,106.2375,36.0211,固原市,新区,颗粒物(PM10),500,783,182,215,57,78,,107,104,10,14,6,6,0.1,0.4
2025-05-08T2300,3522A,106.2177,35.9959,固原市,原州区十五小,颗粒物(PM10),500,682,177,159,54,85,,111,105,8,10,9,10,0.2,0.2
2025-05-08T2300,2543A,106.6308,30.5278,广安市,小平旧居,,,,,,,,,,,,,,,,
2025-05-08T2300,2544A,106.6303,30.4576,广安市,市委,颗粒物(PM10),51,52,28,28,19,63,,102,92,20,7,4,4,0.5,0.4
2025-05-08T2300,2545A,106.6271,30.4663,广安市,友谊中学,,47,47,32,27,17,60,,108,99,27,12,2,3,0.7,0.8
2025-05-08T2300,2547A,106.6388,30.4551,广安市,广电花园,,50,50,26,26,17,68,,104,96,22,9,6,6,0.5,0.4
2025-05-08T2300,2902A,106.6351,30.4865,广安市,北辰小学,,45,45,31,28,17,64,,109,101,21,9,6,6,0.5,0.4
2025-05-08T2300,2523A,105.8945,32.4535,广元市,黑石坡,颗粒物(PM10),59,67,43,18,12,100,,98,98,5,12,3,4,0.2,0.3
2025-05-08T2300,2524A,105.821,32.4444,广元市,老城,颗粒物(PM10),68,85,42,12,14,105,,101,98,2,8,1,2,0.5,0.7
2025-05-08T2300,2526A,105.8628,32.4287,广元市,监测站,颗粒物(PM10),59,68,32,33,20,105,,104,102,2,9,3,5,0.3,0.5
2025-05-08T2300,3617A,105.8047,32.4166,广元市,经开区,颗粒物(PM10),51,52,42,16,20,102,,104,101,6,15,4,6,0.4,0.6
2025-05-08T2300,1345A,113.2347,23.1423,广州市,广雅中学,,32,32,33,9,10,29,,68,50,19,15,3,3,0.4,0.4
2025-05-08T2300,1346A,113.2612,23.105,广州市,市五中,,31,31,32,14,15,29,,62,45,13,10,2,2,0.7,0.7
2025-05-08T2300,1348A,113.3478,23.0916,广州市,广东商学院,,33,33,30,18,17,32,,66,49,26,19,3,3,0.5,0.5
2025-05-08T2300,1349A,113.4332,23.1047,广州市,市八十六中,,28,28,31,13,14,2,,62,34,53,30,3,2,0.5,0.5
2025-05-08T2300,1350A,113.3505,22.9483,广州市,番禺中学,,31,31,31,16,16,30,,64,49,24,16,5,5,0.6,0.6
2025-05-08T2300,1351A,113.2146,23.3916,广州市,花都师范,,29,29,31,14,18,33,,72,53,13,17,4,4,0.5,0.6
2025-05-08T2300,1352A,113.2597,23.1331,广州市,市监测站,,34,34,34,12,14,31,,63,47,19,17,4,4,0.2,0.2
2025-05-08T2300,1353A,113.5618,23.312,广州市,九龙镇镇龙,,40,40,39,20,20,24,,74,38,29,19,5,6,0.4,0.4
2025-05-08T2300,1354A,113.2765,23.1544,广州市,麓湖,,27,27,30,12,15,30,,60,45,16,14,4,4,0.5,0.5
2025-05-08T2300,1355A,113.443,23.3035,广州市,帽峰山森林公园,,21,21,30,12,13,23,,63,36,24,14,6,5,0.9,0.6
2025-05-08T2300,2846A,113.3221,23.1322,广州市,体育西,,,33,34,19,17,,,61,46,22,20,4,4,,0.4
2025-05-08T2300,3298A,113.5717,23.5491,广州市,从化街口,,32,32,35,16,17,34,,98,70,16,11,6,6,0.4,0.5
2025-05-08T2300,3299A,113.3472,23.3692,广州市,白云竹料,,29,29,32,11,14,23,,73,46,28,17,2,2,0.5,0.5
2025-05-08T2300,3300A,113.2981,23.237,广州市,白云嘉禾,,30,30,31,14,15,23,,62,44,28,25,5,5,0.7,0.7
2025-05-08T2300,3301A,113.4256,23.1716,广州市,黄埔科学城,,30,30,31,13,16,6,,54,30,36,22,2,2,0.5,0.5
2025-05-08T2300,3302A,113.3942,23.0483,广州市,番禺大学城,,34,34,29,12,14,36,,68,50,20,17,4,4,0.6,0.6
2025-05-08T2300,3303A,113.4922,22.8168,广州市,南沙黄阁,,26,26,38,14,17,22,,62,43,31,12,4,4,0.6,0.6
2025-05-08T2300,3304A,113.5342,22.7896,广州市,南沙街,,38,38,35,14,16,8,,64,40,49,17,6,6,0.6,0.6
2025-05-08T2300,3443A,113.2902,23.5544,广州市,花都梯面,,33,33,32,10,14,18,,65,43,24,14,4,4,0.7,0.6
2025-05-08T2300,3445A,113.7858,23.7478,广州市,从化良口,,22,22,25,13,14,37,,80,60,10,8,6,6,0.7,0.7
2025-05-08T2300,3446A,113.8051,23.2614,广州市,增城荔城,,39,39,39,16,18,35,,93,60,20,12,8,8,0.4,0.4
2025-05-08T2300,2505A,109.568,23.1478,贵港市,德智高中,,,,,,,,,,,,,,,,
2025-05-08T2300,2506A,109.6047,23.0666,贵港市,江南子站,,28,27,28,19,20,52,,84,79,11,13,4,4,0.6,0.6
2025-05-08T2300,2508A,109.5669,23.1065,贵港市,荷城子站,,31,31,29,9,14,55,,74,72,12,14,4,5,0.3,0.3
2025-05-08T2300,3405A,109.5886,23.1172,贵港市,新世纪学校,,46,46,32,20,21,39,,76,70,19,15,4,4,0.8,0.6
2025-05-08T2300,4260A,109.5933,23.0951,贵港市,中山路155-3号,,33,33,35,20,20,46,,83,78,19,15,3,3,0.6,0.6
2025-05-08T2300,1439A,106.6899,26.5998,贵阳市,马鞍山,,,,20,,8,,,69,,,7,,3,,0.5
2025-05-08T2300,1441A,106.6243,26.6266,贵阳市,鉴湖路,,27,24,25,9,10,86,,108,101,13,11,10,7,0.5,0.4
2025-05-08T2300,1442A,106.7487,26.6343,贵阳市,燕子冲,,27,22,25,17,21,86,,98,94,12,12,7,7,0.3,0.4
2025-05-08T2300,1443A,106.6555,26.4365,贵阳市,碧云窝,,31,31,31,12,14,56,,112,89,23,10,4,4,0.5,0.4
2025-05-08T2300,1445A,106.7109,26.6027,贵阳市,红边门,,28,24,25,12,19,88,,110,102,8,7,9,9,0.3,0.4
2025-05-08T2300,1446A,106.7164,26.5699,贵阳市,新华路,,22,22,22,9,17,70,,105,94,12,13,8,20,0.3,0.5
2025-05-08T2300,1447A,106.674,26.5424,贵阳市,太慈桥,,24,12,18,12,11,76,,102,88,17,12,6,6,0.3,0.2
2025-05-08T2300,1552A,106.805,26.3003,贵阳市,桐木岭,,34,34,43,14,24,92,,114,109,9,6,4,3,0.8,0.9
2025-05-08T2300,4230A,106.6882,26.5695,贵阳市,花果园大街66号,,27,24,20,16,16,86,,106,98,8,6,3,3,0.3,0.3
2025-05-08T2300,4231A,106.6873,26.5169,贵阳市,漓江路57号,,26,14,26,9,16,81,,108,95,12,10,8,7,0.5,0.4
2025-05-08T2300,1862A,110.4144,25.3167,桂林市,电子科大尧山校区,,,,,,,,,,,,,,,,
2025-05-08T2300,1864A,110.3089,25.2708,桂林市,龙隐路小学,,31,,36,12,27,99,,82,82,4,12,7,9,0.4,0.6
2025-05-08T2300,1865A,110.2869,25.2178,桂林市,八中,,31,,34,9,21,98,,80,80,8,14,1,2,0.5,0.8
2025-05-08T2300,3531A,110.296,25.1253,桂林市,旅游学院,,30,,21,9,14,94,,80,80,5,11,1,3,0.5,0.7
2025-05-08T2300,4222A,110.1835,25.2444,桂林市,环湖路276号,,26,,34,12,26,81,,69,69,6,14,5,12,0.3,0.4
2025-05-08T2300,4301A,110.2803,25.2773,桂林市,信义路13号,,32,13,41,10,25,101,,84,84,6,14,1,3,0.4,0.6
2025-05-08T2300,2674A,100.2561,34.4714,果洛藏族自治州,玛沁县大武镇,颗粒物(PM10),137,223,113,48,31,110,,127,123,1,3,21,22,0.3,0.4
2025-05-08T2300,1129A,126.5422,45.755,哈尔滨市,岭北,,,,41,,29,,,64,,,27,,9,,0.7
2025-05-08T2300,1130A,126.561,45.8167,哈尔滨市,松北商大,,25,25,35,14,22,62,,94,80,15,25,7,7,0.6,0.6
2025-05-08T2300,1131A,126.979,45.5419,哈尔滨市,阿城会宁,,23,21,33,9,18,73,,94,77,12,20,4,6,0.5,0.6
2025-05-08T2300,1132A,126.599,45.7222,哈尔滨市,南岗学府路,,32,32,42,16,20,79,,90,84,15,23,5,5,0.8,0.6
2025-05-08T2300,1133A,126.689,45.7733,哈尔滨市,太平宏伟公园,,24,24,38,14,25,64,,93,80,22,30,4,5,0.6,0.6
2025-05-08T2300,1134A,126.635,45.7667,哈尔滨市,道外承德广场,,35,34,51,24,29,64,,87,77,15,28,6,7,0.6,0.7
2025-05-08T2300,1135A,126.685,45.7319,哈尔滨市,香坊红旗大街,,22,17,37,7,19,70,,88,77,18,29,8,9,0.6,0.7
2025-05-08T2300,1136A,126.6411,45.7258,哈尔滨市,动力和平路,,26,26,39,13,24,71,,85,77,12,20,7,8,0.5,0.6
2025-05-08T2300,1137A,126.593,45.7478,哈尔滨市,道里建国路,,39,39,39,15,25,74,,86,77,18,28,6,6,1.3,0.9
2025-05-08T2300,1138A,126.615,45.61,哈尔滨市,平房东轻厂,,29,18,33,18,19,91,,96,85,8,22,7,9,0.4,0.5
2025-05-08T2300,1139A,126.595,45.9855,哈尔滨市,呼兰师专,,24,19,34,14,26,74,,82,76,13,27,8,8,0.6,0.7
2025-05-08T2300,1140A,126.6206,45.6842,哈尔滨市,省农科院,,33,33,42,17,25,62,,84,75,22,27,9,9,1.0,0.7
2025-05-08T2300,2688A,93.5128,42.8172,哈密市,地区监测站,颗粒物(PM10),67,83,44,21,20,43,,115,106,61,10,62,11,0.3,0.2
2025-05-08T2300,2689A,93.4961,42.8328,哈密市,哈密师范学校,,46,46,32,16,10,45,,113,100,64,12,5,4,0.8,0.3
2025-05-08T2300,2671A,100.9048,36.9639,海北藏族自治州,海晏县西海镇,颗粒物(PM10),55,59,52,16,19,98,,133,129,4,5,10,8,0.4,0.4
2025-05-08T2300,3867A,102.0738,36.5056,海东市,平安区公安北苑,,45,45,62,7,27,96,,120,100,5,13,6,6,0.6,0.6
2025-05-08T2300,1409A,110.576,19.9507,海口市,东寨港,,15,10,11,10,8,40,,51,45,3,3,2,2,0.5,0.5
2025-05-08T2300,1410A,110.3232,20.0574,海口市,海南大学,,24,24,16,11,8,38,,70,51,5,4,4,3,0.4,0.4
2025-05-08T2300,1411A,110.283,20.0053,海口市,秀英海南医院,,23,21,18,16,10,28,,69,46,17,8,4,4,0.3,0.3
2025-05-08T2300,1412A,110.338,19.9969,海口市,海南师范大学,,19,17,17,13,9,39,,70,51,5,4,3,3,0.4,0.3
2025-05-08T2300,1413A,110.33,20.0356,海口市,龙华路环保局宿舍,,20,19,18,14,9,39,,67,51,6,6,4,4,0.3,0.3
2025-05-08T2300,3539A,110.5111,19.9736,海口市,桂林洋子站,,16,16,13,9,8,38,,57,46,5,4,4,4,0.2,0.2
2025-05-08T2300,2673A,100.6188,36.2866,海南藏族自治州,共和县恰卜恰镇,,46,44,118,30,44,146,,147,147,2,6,14,11,0.3,0.3
2025-05-08T2300,2676A,97.3731,37.3753,海西蒙古族藏族自治州,德令哈市,,40,33,120,9,26,128,,132,132,1,3,16,17,0.4,0.4
2025-05-08T2300,1048A,114.5302,36.6116,邯郸市,东污水处理厂,颗粒物(PM10),82,113,102,51,42,63,,114,93,36,26,4,5,0.6,0.5
2025-05-08T2300,1049A,114.4918,36.5713,邯郸市,矿院,颗粒物(PM10),81,111,91,53,42,54,,118,99,39,22,3,5,0.6,0.6
2025-05-08T2300,1050A,114.484,36.6133,邯郸市,丛台公园,颗粒物(PM10),90,129,102,49,41,77,,121,105,25,19,9,9,0.6,0.5
2025-05-08T2300,3458A,114.7895,36.5593,邯郸市,香泉濮院小区,颗粒物(PM10),89,128,108,42,31,60,,125,100,21,13,3,5,0.7,0.5
2025-05-08T2300,3579A,114.50634,36.77178,邯郸市,永年区实验高中,细颗粒物(PM2.5),94,114,103,70,55,51,,93,71,28,21,4,5,0.7,0.6
2025-05-08T2300,3580A,114.20016,36.44293,邯郸市,峰峰矿区临水派出所,颗粒物(PM10),53,56,82,33,38,118,,124,119,7,10,3,8,0.5,0.7
2025-05-08T2300,2634A,106.9893,33.1842,汉中市,汉川机床厂子校,颗粒物(PM10),59,68,36,23,25,100,,107,103,3,7,7,7,0.5,0.7
2025-05-08T2300,2635A,107.0154,33.0706,汉中市,市监测站,颗粒物(PM10),56,62,39,20,16,81,,100,92,6,7,5,5,0.4,0.8
2025-05-08T2300,2636A,107.0089,33.1138,汉中市,鑫源开发区,颗粒物(PM10),58,65,35,20,15,90,,104,97,6,9,4,5,0.3,0.6
2025-05-08T2300,2637A,107.007,33.0323,汉中市,南郑大河坎水厂,,50,50,36,22,20,73,,106,95,12,10,5,5,0.4,0.5
2025-05-08T2300,1223A,120.2072,30.2111,杭州市,滨江,,21,9,71,9,30,67,,94,65,19,31,6,6,0.3,0.9
2025-05-08T2300,1224A,120.0633,30.2747,杭州市,西溪,,27,27,59,16,26,30,,77,51,21,20,5,5,0.4,0.4
2025-05-08T2300,1226A,120.3417,30.3150,杭州市,下沙,,32,32,87,16,35,31,,94,63,56,36,6,7,0.5,0.5
2025-05-08T2300,1227A,120.1269,30.2456,杭州市,卧龙桥,,18,16,59,7,27,56,,98,63,13,19,6,6,0.6,0.6
2025-05-08T2300,1228A,120.1903,30.2692,杭州市,浙江农大,,18,6,63,3,30,55,,88,54,18,31,8,9,0.5,0.5
2025-05-08T2300,1230A,120.1197,30.3119,杭州市,和睦小学,,26,,66,18,33,58,,100,60,13,24,6,7,0.3,0.3
2025-05-08T2300,1231A,120.3019,30.4183,杭州市,临平镇,,41,41,78,22,33,47,,94,72,29,24,5,5,0.5,0.5
2025-05-08T2300,1232A,120.2753,30.1839,杭州市,城厢镇,,20,14,68,9,33,63,,92,56,11,31,6,7,0.6,0.7
2025-05-08T2300,1233A,120.0883,30.1808,杭州市,云栖,,22,22,59,10,26,34,,86,60,32,33,5,5,0.7,0.7
2025-05-08T2300,3557A,119.9464,30.0494,杭州市,镇二中,,,15,60,10,26,35,,66,44,,27,3,4,0.6,0.6
2025-05-08T2300,3558A,119.7183,30.2367,杭州市,市府大楼,,20,20,71,12,27,45,,71,62,18,22,7,8,0.6,0.6
2025-05-08T2300,3656A,120.1556,30.2864,杭州市,消防大队,,27,27,73,7,29,56,,98,60,20,30,4,4,0.6,0.6
2025-05-08T2300,1270A,117.1959,31.7848,合肥市,明珠广场,,20,14,60,14,26,49,,122,72,19,21,4,6,0.4,0.4
2025-05-08T2300,1271A,117.3072,31.8764,合肥市,三里街,,17,14,61,3,27,52,,108,64,12,21,3,5,0.6,0.6
2025-05-08T2300,1272A,117.2588,31.8707,合肥市,琥珀山庄,,28,,66,19,37,54,,119,71,18,22,3,4,0.7,0.8
2025-05-08T2300,1273A,117.1604,31.9052,合肥市,董铺水库,,19,12,74,7,27,60,,120,75,9,15,1,2,0.4,0.4
2025-05-08T2300,1274A,117.25,31.8571,合肥市,长江中路,,19,14,68,11,31,60,,120,74,13,20,5,7,0.6,0.6
2025-05-08T2300,1275A,117.266,31.9436,合肥市,庐阳区,,20,9,62,3,25,62,,121,75,10,21,6,8,0.6,0.6
2025-05-08T2300,1276A,117.3453,31.8616,合肥市,瑶海区,,18,14,64,7,30,55,,100,63,13,25,6,7,0.5,0.5
2025-05-08T2300,1277A,117.3027,31.7964,合肥市,包河区,,22,22,65,7,30,55,,124,77,18,23,6,7,0.6,0.5
2025-05-08T2300,1278A,117.2776,31.7385,合肥市,滨湖新区,,20,,60,14,30,45,,122,72,24,16,8,9,0.7,0.7
2025-05-08T2300,1279A,117.1318,31.8403,合肥市,高新区,,21,12,67,8,28,65,,126,76,8,19,2,3,0.6,0.6
2025-05-08T2300,3464A,117.3803,31.9147,合肥市,高教基地,,20,,59,14,33,49,,115,67,16,17,5,7,0.5,0.5
2025-05-08T2300,3614A,79.924,37.0877,和田地区,地区环保局,细颗粒物(PM2.5),129,,772,98,205,,,74,73,21,15,1,2,0.2,0.3
2025-05-08T2300,3615A,79.9131,37.113,和田地区,市环保局,颗粒物(PM10),263,394,691,97,189,48,,81,75,26,18,1,2,0.1,0.1
2025-05-08T2300,2516A,108.2011,24.715,河池市,东仁乐园,,,,,,,,,,,,,,,,
2025-05-08T2300,2517A,108.0497,24.6947,河池市,市环保站,,,,54,4,28,112,,111,111,3,6,5,7,0.6,0.7
2025-05-08T2300,2518A,108.0983,24.6989,河池市,市疾控中心,,35,14,43,3,27,109,,103,103,9,13,7,8,0.6,0.7
2025-05-08T2300,1696A,114.6778,23.7569,河源市,源西,,28,28,28,17,18,47,,63,51,8,7,3,3,0.7,0.7
2025-05-08T2300,1697A,114.6944,23.7586,河源市,东埔,,25,22,27,17,16,48,,74,56,12,11,3,4,0.4,0.5
2025-05-08T2300,1698A,114.6892,23.7233,河源市,老城,,25,25,31,17,18,45,,68,51,14,11,3,3,0.5,0.5
2025-05-08T2300,1718A,115.4208,35.2464,菏泽市,气象局,"颗粒物(PM10),细颗粒物(PM2.5)",54,58,96,38,45,76,,112,86,18,16,3,4,0.4,0.5
2025-05-08T2300,3374A,115.5564,35.0891,菏泽市,定陶老年大学,,46,46,74,24,32,63,,100,76,13,14,2,4,0.6,0.6
2025-05-08T2300,4184A,115.4797,35.24401,菏泽市,永昌路1号,颗粒物(PM10),53,56,87,33,44,61,,100,77,22,16,4,6,0.4,0.4
2025-05-08T2300,4193A,115.4715,35.2800,菏泽市,长城路999号,细颗粒物(PM2.5),54,55,83,38,43,63,,104,80,25,20,5,7,0.5,0.5
2025-05-08T2300,2514A,111.5264,24.4172,贺州市,环保小区,,50,39,25,35,18,31,,46,41,15,12,10,7,1.1,1
2025-05-08T2300,2515A,111.5608,24.4078,贺州市,政协大楼,,39,39,23,22,14,35,,46,39,15,12,10,8,0.6,0.6
2025-05-08T2300,3534A,111.4744,24.4553,贺州市,西湾,,46,46,24,24,13,24,,46,36,22,14,8,8,0.5,0.5
2025-05-08T2300,2385A,114.17,35.9019,鹤壁市,市监测站,细颗粒物(PM2.5),54,48,107,38,53,101,,150,130,10,20,3,5,0.6,0.7
2025-05-08T2300,2386A,114.2956,35.7511,鹤壁市,市交警支队,细颗粒物(PM2.5),57,,98,40,47,115,,147,130,10,20,4,6,0.5,0.8
2025-05-08T2300,2387A,114.2878,35.7306,鹤壁市,迎宾馆,,38,33,111,3,49,120,,148,131,6,14,3,4,0.4,0.6
2025-05-08T2300,3474A,114.2617,35.6822,鹤壁市,大新区,颗粒物(PM10),54,58,92,18,57,111,,144,127,6,15,6,8,0.5,0.6
2025-05-08T2300,3596A,114.1572,35.9603,鹤壁市,南山宾馆,细颗粒物(PM2.5),77,75,153,56,61,104,,156,134,4,13,3,7,0.4,0.5
2025-05-08T2300,2244A,130.2537,47.3416,鹤岗市,哈啤分公司,,43,36,25,30,19,58,,99,76,18,12,14,13,0.4,0.3
2025-05-08T2300,2245A,130.2684,47.3086,鹤岗市,斯达机电,,41,41,31,28,19,70,,101,85,15,14,11,14,0.4,0.3
2025-05-08T2300,2246A,130.3114,47.3388,鹤岗市,东山纸板厂,颗粒物(PM10),68,85,56,36,28,36,,100,64,23,19,13,13,0.6,0.4
2025-05-08T2300,2247A,130.1097,47.3382,鹤岗市,五号水库,,,,,,,,,,,,,,,,
2025-05-08T2300,2263A,127.4833,50.2524,黑河市,交通局,颗粒物(PM10),61,71,40,30,19,52,,116,91,20,12,7,9,0.4,0.4
2025-05-08T2300,2264A,127.5144,50.2341,黑河市,环保局,,45,45,33,22,22,76,,116,98,10,13,4,5,0.2,0.2
2025-05-08T2300,2265A,127.5291,50.2472,黑河市,大黑河岛,,,,,36,25,66,,107,87,14,10,2,2,0.3,0.2
2025-05-08T2300,1074A,115.6838,37.7541,衡水市,电机北厂,颗粒物(PM10),72,93,96,51,45,57,,90,77,19,19,3,5,0.3,0.4
2025-05-08T2300,1075A,115.6303,37.7316,衡水市,市监测站,细颗粒物(PM2.5),74,86,88,54,37,68,,88,80,17,22,4,8,0.3,0.4
2025-05-08T2300,3188A,115.6683,37.7217,衡水市,市城管局,细颗粒物(PM2.5),75,83,95,55,45,64,,84,77,18,22,4,8,0.5,0.5
2025-05-08T2300,3459A,115.5989,37.5491,衡水市,地表水厂,颗粒物(PM10),63,75,89,38,36,46,,83,72,17,33,8,8,0.4,0.4
2025-05-08T2300,2456A,112.5003,26.9167,衡阳市,原169医院,,25,,52,17,30,68,,93,88,9,9,4,4,0.7,0.6
2025-05-08T2300,2457A,112.6194,26.9258,衡阳市,衡阳化工总厂,,48,,55,33,26,54,,75,72,6,7,6,7,0.7,0.5
2025-05-08T2300,2458A,112.6211,26.8956,衡阳市,珠晖区环保局,,,25,53,,,50,,80,75,12,10,9,8,0.9,0.7
2025-05-08T2300,2459A,112.6197,26.8733,衡阳市,市委党校,,22,20,51,15,23,54,,75,72,8,6,4,4,0.7,0.6
2025-05-08T2300,2460A,112.6006,26.8919,衡阳市,市监测站,,24,24,51,12,26,54,,74,72,8,8,10,10,0.8,0.6
2025-05-08T2300,2461A,112.5664,26.9056,衡阳市,真空机电公司,,28,,54,19,30,60,,72,71,4,6,5,5,0.8,0.7
2025-05-08T2300,3399A,112.6703,26.882,衡阳市,师范学院,,20,20,52,12,26,59,,77,76,9,8,7,8,0.8,0.7
2025-05-08T2300,2608A,103.3772,23.3993,红河哈尼族彝族自治州,污水处理厂,细颗粒物(PM2.5),57,43,41,40,29,98,,117,112,8,7,5,7,0.5,0.5
2025-05-08T2300,2609A,103.3861,23.35,红河哈尼族彝族自治州,监测站,细颗粒物(PM2.5),65,63,46,47,29,93,,124,111,15,6,11,6,0.5,0.3
2025-05-08T2300,3038A,103.3758,23.368,红河哈尼族彝族自治州,州图书馆,,37,37,32,19,25,89,,110,100,9,6,4,3,0.3,0.3
2025-05-08T2300,1090A,111.6507,40.7517,呼和浩特市,呼市一监,,20,19,66,12,31,61,,93,80,9,12,7,8,0.5,0.5
2025-05-08T2300,1091A,111.6572,40.8033,呼和浩特市,小召,,25,12,64,10,26,77,,99,88,16,22,6,9,0.5,0.5
2025-05-08T2300,1094A,111.7516,40.8369,呼和浩特市,如意水处理厂,,24,24,70,12,29,62,,95,84,22,24,5,5,0.5,0.5
2025-05-08T2300,1095A,111.7276,40.8062,呼和浩特市,二十九中,,22,19,70,12,30,68,,99,89,12,15,3,4,0.6,0.5
2025-05-08T2300,1096A,111.5512,40.7866,呼和浩特市,工大金川校区,,17,17,69,10,31,53,,97,76,32,26,5,7,0.5,0.5
2025-05-08T2300,1097A,111.717,40.7612,呼和浩特市,化肥厂生活区,,24,24,78,13,36,73,,100,90,17,23,5,6,0.4,0.4
2025-05-08T2300,3698A,111.5968,40.8178,呼和浩特市,红旗小学,,26,,66,8,35,81,,94,80,14,32,3,5,0.4,0.5
2025-05-08T2300,3699A,111.6518,40.8389,呼和浩特市,海东办,,21,12,65,9,30,66,,91,78,17,23,7,8,0.4,0.5
2025-05-08T2300,2192A,119.7594,49.2261,呼伦贝尔市,区环保局,细颗粒物(PM2.5),60,52,48,43,35,79,,105,91,8,16,6,8,0.3,0.4
2025-05-08T2300,3061A,119.7512,49.1577,呼伦贝尔市,国华电力东,颗粒物(PM10),51,52,45,32,25,81,,109,99,8,11,5,5,0.4,0.3
2025-05-08T2300,1250A,120.0751,30.8669,湖州市,城西水厂,,39,39,71,24,30,67,,106,82,17,21,6,6,0.4,0.5
2025-05-08T2300,2873A,120.0830,30.8929,湖州市,仁皇山新区,,41,39,67,28,31,129,,140,140,18,21,4,4,0.7,0.7
2025-05-08T2300,2907A,120.1844,30.8596,湖州市,吴兴区站,,33,33,64,23,29,69,,98,82,14,17,6,7,0.5,0.4
2025-05-08T2300,3562A,120.4148,30.8538,湖州市,南浔区站,,28,14,58,7,22,88,,95,95,9,16,3,4,0.6,0.6
2025-05-08T2300,1607A,120.9049,40.7211,葫芦岛市,龙港区,,38,38,44,9,22,97,,123,116,14,12,8,8,0.5,0.5
2025-05-08T2300,1608A,120.8392,40.7514,葫芦岛市,化工街,颗粒物(PM10),51,51,57,17,23,90,,122,110,17,16,6,7,0.4,0.5
2025-05-08T2300,1609A,120.8341,40.7073,葫芦岛市,新区,,44,44,46,14,26,100,,122,115,12,14,7,7,0.5,0.5
2025-05-08T2300,1610A,120.8695,40.7677,葫芦岛市,东城区,,39,39,47,16,27,93,,119,110,17,16,4,5,0.5,0.6
2025-05-08T2300,2482A,109.5981,27.5721,怀化市,林科所,,16,16,33,3,16,31,,56,51,9,9,3,4,0.4,0.4
2025-05-08T2300,2483A,109.9453,27.5444,怀化市,河西地税局,,30,30,32,13,22,8,,56,39,16,11,4,6,0.6,0.6
2025-05-08T2300,2484A,109.9781,27.5342,怀化市,市四医院,,25,25,41,9,24,15,,63,50,20,9,2,4,0.6,0.8
2025-05-08T2300,2485A,109.9972,27.5578,怀化市,监测楼,,32,32,40,13,22,16,,64,51,25,11,3,2,0.4,0.4
2025-05-08T2300,2486A,110.0394,27.583,怀化市,市委党校,,25,25,32,7,22,6,,60,47,20,8,3,2,0.7,0.6
2025-05-08T2300,1210A,119.036,33.5981,淮安市,钵池山,,39,,46,18,30,122,,105,105,6,13,7,8,0.4,0.5
2025-05-08T2300,1211A,119.007,33.575,淮安市,北京南路,,39,,46,15,30,124,,106,106,7,11,7,8,0.3,0.4
2025-05-08T2300,1212A,118.989,33.6067,淮安市,市监测站,,39,,46,3,23,122,,105,105,6,12,7,8,0.2,0.3
2025-05-08T2300,1213A,119.135,33.5039,淮安市,楚州区监测站,,37,,48,19,32,116,,100,100,4,11,6,7,0.4,0.4
2025-05-08T2300,3426A,118.8755,33.2894,淮安市,新华书店,,37,6,49,3,24,118,,99,99,6,17,7,9,0.3,0.5
2025-05-08T2300,4206A,119.0288,33.6319,淮安市,承德北路606号,,39,,54,18,30,122,,103,103,3,11,6,7,0.3,0.4
2025-05-08T2300,2282A,116.8004,33.975,淮北市,监测站,,28,25,76,9,37,89,,103,79,6,15,5,6,0.5,0.8
2025-05-08T2300,2283A,116.8091,33.9007,淮北市,烈山区政府,,23,6,58,3,34,73,,96,76,2,13,4,5,0.5,0.8
2025-05-08T2300,3330A,116.8873,33.9836,淮北市,杜集区检察院,,29,,73,19,44,91,,98,82,9,17,6,7,0.8,0.8
2025-05-08T2300,4017A,116.7923,33.9535,淮北市,市博物馆,,30,,60,11,36,93,,103,83,7,14,4,6,0.6,0.8
2025-05-08T2300,2277A,116.8305,32.7727,淮南市,潘集区政府,,21,,65,10,34,65,,119,66,15,18,2,4,0.4,0.5
2025-05-08T2300,2279A,116.8569,32.5951,淮南市,谢家集区政府,,19,,61,12,31,58,,115,73,14,18,5,5,0.3,0.3
2025-05-08T2300,2280A,116.8281,32.633,淮南市,八公山区政府,,20,16,72,14,33,58,,117,71,15,10,6,7,0.4,0.5
2025-05-08T2300,2281A,116.6325,32.6201,淮南市,焦岗湖风景区管理处,,,,,,,,,,,,,,,,
2025-05-08T2300,2894A,117.0566,32.6531,淮南市,经济技术开发区消防队,,20,6,55,3,35,62,,111,71,14,20,4,6,0.4,0.5
2025-05-08T2300,3329A,117.0108,32.5893,淮南市,山南新区,细颗粒物(PM2.5),65,,75,47,42,65,,122,84,13,15,7,8,0.4,0.5
2025-05-08T2300,4209A,117.0031,32.6445,淮南市,国庆中路369号,,15,10,61,8,29,45,,115,55,8,14,10,11,0.3,0.4
2025-05-08T2300,2446A,114.9028,30.4742,黄冈市,职工中心,,,,,,,,,,,,,,,,
2025-05-08T2300,2929A,114.8858,30.4519,黄冈市,红卫路,,,,54,,24,67,,110,73,,2,5,7,1.0,0.7
2025-05-08T2300,3398A,114.9136,30.4445,黄冈市,市林业局,,21,12,50,6,21,67,,102,70,11,10,6,8,1.0,0.9
2025-05-08T2300,2672A,102.0199,35.5102,黄南藏族自治州,同仁县隆务镇,颗粒物(PM10),58,66,128,22,44,93,,118,105,3,3,4,4,0.2,0.3
2025-05-08T2300,2295A,118.2903,29.6963,黄山市,延安路89号,,20,10,53,8,26,62,,90,73,6,11,5,5,0.4,0.4
2025-05-08T2300,2297A,118.1371,30.2756,黄山市,黄山区政府5号楼,,17,11,44,6,16,54,,79,61,4,6,4,3,0.5,0.5
2025-05-08T2300,4210A,118.3354,29.7203,黄山市,滨江东路7-2号,,20,17,45,7,20,63,,90,74,7,9,4,4,0.5,0.6
2025-05-08T2300,2423A,115.0601,30.2313,黄石市,沈家营,,24,21,66,6,20,76,,87,68,7,12,7,7,0.6,0.7
2025-05-08T2300,2426A,114.8988,30.2019,黄石市,铁山,,19,19,60,9,21,55,,89,63,18,7,4,5,0.3,0.3
2025-05-08T2300,2427A,115.0307,30.2092,黄石市,团城山,,24,21,64,3,15,74,,89,67,9,10,6,8,0.5,0.6
2025-05-08T2300,3149A,115.0235,30.1578,黄石市,笔架山北路,,25,14,47,3,17,79,,90,70,7,7,5,7,0.7,0.8
2025-05-08T2300,4185A,115.0780,30.21118,黄石市,磁湖东路29号,,26,20,54,3,22,82,,94,75,10,10,6,7,0.6,0.6
2025-05-08T2300,1392A,114.4183,23.0528,惠州市,河南岸金山湖子站,,36,36,31,15,17,53,,70,57,11,10,9,8,0.4,0.5
2025-05-08T2300,1393A,114.4053,23.0822,惠州市,下埔横江三路子站,,,42,36,18,17,,,81,,10,10,8,8,0.4,0.6
2025-05-08T2300,1394A,114.4103,23.1142,惠州市,江北云山西路子站,,37,37,33,13,16,63,,80,68,8,8,10,10,0.5,0.5
2025-05-08T2300,1395A,114.4645,22.7833,惠州市,惠阳区承修路船湖子站,,48,48,37,18,18,72,,92,84,10,10,7,7,0.6,0.6
2025-05-08T2300,1396A,114.5317,22.7422,惠州市,大亚湾管委会子站,,47,47,47,16,18,72,,93,83,9,10,10,9,0.5,0.5
2025-05-08T2300,3314A,114.4338,22.8134,惠州市,惠阳秋长,,39,39,35,21,18,74,,92,86,10,10,6,5,0.4,0.5
2025-05-08T2300,3452A,114.6517,22.775,惠州市,大亚湾霞涌,,41,41,39,14,20,73,,90,83,8,7,8,8,0.6,0.6
2025-05-08T2300,2240A,130.9762,45.3001,鸡西市,环保局,,35,31,31,24,23,87,,105,88,10,14,6,6,0.5,0.5
2025-05-08T2300,2243A,130.9429,45.3039,鸡西市,第一中学,,30,25,29,21,22,81,,103,87,9,10,7,7,0.6,0.5
2025-05-08T2300,3707A,131.0207,45.3073,鸡西市,欧美日汽修厂,细颗粒物(PM2.5),54,,38,38,28,85,,103,88,8,14,5,7,0.5,0.5
2025-05-08T2300,3709A,130.9967,45.3106,鸡西市,市政设施管理处,,38,32,35,26,24,71,,95,77,10,17,8,9,0.6,0.5
2025-05-08T2300,2367A,114.9754,27.0803,吉安市,红声器材厂,,36,36,46,10,17,46,,59,53,4,6,9,10,0.5,0.5
2025-05-08T2300,2368A,114.9658,27.0999,吉安市,市森林工业局,,31,31,41,12,16,48,,60,54,4,6,7,8,0.5,0.4
2025-05-08T2300,2369A,114.99,27.1312,吉安市,市环境监测站,,31,31,36,10,15,47,,59,53,2,5,8,10,0.5,0.5
2025-05-08T2300,2370A,115.0093,27.0968,吉安市,青原区法院,,26,26,39,12,18,44,,57,50,6,8,12,14,0.4,0.5
2025-05-08T2300,1772A,126.54,43.8622,吉林市,哈达湾,,46,46,44,17,25,111,,96,96,6,17,6,6,0.4,0.5
2025-05-08T2300,1773A,126.5844,43.8358,吉林市,东局子,,45,45,40,17,24,113,,98,98,6,14,6,5,0.3,0.5
2025-05-08T2300,1774A,126.5052,43.8245,吉林市,电力学院,,38,38,54,14,35,110,,92,92,5,20,5,5,0.4,0.6
2025-05-08T2300,1775A,126.6133,43.8972,吉林市,江北,,46,46,52,23,29,102,,93,93,8,21,6,6,0.4,0.4
2025-05-08T2300,1776A,126.555,43.8306,吉林市,江南公园,,43,43,37,20,25,111,,93,93,4,14,6,5,0.3,0.4
2025-05-08T2300,1778A,126.7061,43.7133,吉林市,丰满,,,,,,,,,,,,,,,,
2025-05-08T2300,2868A,126.4739,43.953,吉林市,九站,,37,35,55,13,34,117,,92,92,5,27,6,10,0.3,0.5
2025-05-08T2300,1299A,116.9862,36.6114,济南市,科干所,,46,46,78,27,28,111,,151,127,11,13,3,4,0.4,0.2
2025-05-08T2300,1300A,116.9376,36.665,济南市,农科所,,46,46,86,29,35,97,,145,119,14,14,6,7,0.3,0.4
2025-05-08T2300,1301A,117.1265,36.6734,济南市,开发区,,46,46,80,24,29,112,,148,123,7,12,6,8,0.7,0.7
2025-05-08T2300,1303A,117.0624,36.6868,济南市,省种子仓库,颗粒物(PM10),54,58,49,27,29,109,,149,123,14,13,3,5,0.5,0.5
2025-05-08T2300,1304A,116.9489,36.6447,济南市,机床二厂,颗粒物(PM10),59,68,93,27,28,98,,144,120,12,14,7,9,0.6,0.5
2025-05-08T2300,1305A,117.0495,36.663,济南市,市监测站,,49,49,89,22,33,113,,148,123,10,14,7,9,0.5,0.5
2025-05-08T2300,1306A,116.7675,36.5484,济南市,长清党校,,49,46,86,34,41,108,,159,128,11,14,4,5,0.6,0.6
2025-05-08T2300,1616A,117.6795,36.229,济南市,技术学院,,36,36,68,19,27,90,,129,111,18,18,8,11,0.5,0.7
2025-05-08T2300,1961A,117.532,36.6868,济南市,东山小学,,34,24,81,10,24,106,,140,115,4,8,5,6,0.2,0.3
2025-05-08T2300,3059A,117.7161,36.2049,济南市,泰兴公司,,32,31,72,22,30,87,,128,106,14,17,4,6,0.2,0.3
2025-05-08T2300,3064A,117.6867,36.2171,济南市,莱芜战役纪念馆,,36,36,71,12,29,73,,129,107,18,19,4,6,0.6,0.9
2025-05-08T2300,3494A,117.1673,36.9782,济南市,济阳区政府,颗粒物(PM10),59,68,89,24,28,112,,142,116,11,15,3,4,0.4,0.6
2025-05-08T2300,3495A,117.1171,36.63,济南市,锦屏中学,,35,34,73,17,23,109,,146,123,9,12,5,7,0.6,0.5
2025-05-08T2300,3682A,116.9814,36.6819,济南市,济南四建,颗粒物(PM10),51,51,78,24,28,109,,156,129,10,12,3,5,0.5,0.5
2025-05-08T2300,1653A,116.6251,35.4302,济宁市,火炬城,,25,25,73,17,36,68,,107,76,5,8,5,7,0.5,0.5
2025-05-08T2300,1655A,116.5491,35.4042,济宁市,电化厂,,32,32,75,19,28,75,,107,84,3,8,3,3,0.7,0.7
2025-05-08T2300,3500A,116.5814,35.3707,济宁市,北湖一中,,35,35,79,22,31,64,,93,68,6,11,3,4,0.5,0.4
2025-05-08T2300,3501A,116.8249,35.5593,济宁市,服务中心,,29,29,55,15,23,57,,117,86,15,14,3,3,0.4,0.4
2025-05-08T2300,3678A,116.5907,35.4054,济宁市,市第七中学,,28,28,67,14,26,73,,104,80,5,10,4,7,0.5,0.4
2025-05-08T2300,2255A,130.2751,46.8028,佳木斯市,佳纺,,28,24,30,17,16,87,,107,97,9,9,5,5,0.5,0.4
2025-05-08T2300,2256A,130.3995,46.8307,佳木斯市,发电厂,,32,,45,22,18,95,,105,97,9,12,3,4,0.3,0.3
2025-05-08T2300,2257A,130.3258,46.7975,佳木斯市,环保局,,33,26,25,22,17,104,,113,104,8,9,6,6,0.7,0.6
2025-05-08T2300,2258A,130.3648,46.8032,佳木斯市,十一中,,35,32,26,24,17,90,,100,91,10,10,5,5,0.4,0.4
2025-05-08T2300,2259A,130.3794,46.7588,佳木斯市,四丰,,30,24,12,14,12,94,,100,95,6,6,1,1,0.3,0.2
2025-05-08T2300,1252A,120.7436,30.778,嘉兴市,清河小学,,27,9,56,6,17,86,,94,94,7,16,4,5,0.9,0.9
2025-05-08T2300,1253A,120.726,30.7478,嘉兴市,嘉兴学院,,27,26,62,3,19,86,,96,96,10,13,5,6,0.2,0.7
2025-05-08T2300,2872A,120.7846,30.7525,嘉兴市,南湖区残联,,30,,44,3,20,95,,103,103,5,13,5,6,0.4,0.4
2025-05-08T2300,3407A,120.6916,30.7739,嘉兴市,秀洲住建,,30,,62,3,16,95,,106,106,2,7,5,7,0.6,0.6
2025-05-08T2300,1945A,98.2908,39.7711,嘉峪关市,气象局,,27,27,71,7,20,77,,108,99,14,8,6,14,0.2,0.4
2025-05-08T2300,2884A,98.2672,39.7978,嘉峪关市,酒钢宾馆,,35,,67,24,20,75,,100,90,10,5,13,20,0.2,0.4
2025-05-08T2300,3248A,98.2643,39.7724,嘉峪关市,雄关区,,33,25,66,23,26,74,,106,97,19,9,10,13,0.3,0.4
2025-05-08T2300,1383A,113.1064,22.6058,江门市,北街,,24,24,28,9,12,36,,49,42,8,8,1,1,0.2,0.3
2025-05-08T2300,1384A,113.0731,22.5835,江门市,西区,,28,28,27,17,13,42,,58,50,10,8,6,6,0.4,0.4
2025-05-08T2300,1385A,113.0219,22.5311,江门市,圭峰西,,25,,26,17,14,39,,55,47,9,7,4,4,0.5,0.4
2025-05-08T2300,1386A,113.0828,22.5947,江门市,东湖,,32,32,25,14,13,43,,58,51,12,9,7,7,0.4,0.4
2025-05-08T2300,3311A,113.1075,22.5647,江门市,江海富民,,48,48,42,19,19,40,,55,49,11,7,7,7,0.4,0.4
2025-05-08T2300,3449A,113.05,22.4667,江门市,新会银湖,,26,26,25,16,15,31,,56,47,14,8,2,2,0.5,0.5
2025-05-08T2300,1830A,113.1992,35.2590,焦作市,影视城,,,,76,,24,,,,,,13,,12,,0.6
2025-05-08T2300,3169A,113.2725,35.2067,焦作市,太极体育中心,颗粒物(PM10),59,67,130,41,56,110,,158,135,9,10,2,10,0.3,0.3
2025-05-08T2300,3335A,113.3137,35.2641,焦作市,马村街道办,细颗粒物(PM2.5),62,72,129,44,56,81,,144,116,11,16,6,9,0.5,0.4
2025-05-08T2300,3336A,113.2465,35.2373,焦作市,焦作技师学院,颗粒物(PM10),75,100,114,31,46,95,,152,124,10,14,6,9,0.6,0.5
2025-05-08T2300,3477A,113.1656,35.2539,焦作市,中站许衡医院,细颗粒物(PM2.5),54,56,104,38,38,77,,152,118,13,12,6,8,0.7,0.6
2025-05-08T2300,3981A,113.2449,35.1803,焦作市,原李万街道办,颗粒物(PM10),53,55,116,29,42,90,,140,115,5,9,7,13,0.1,0.3
2025-05-08T2300,4264A,113.2340,35.2190,焦作市,新安路1731号,颗粒物(PM10),55,59,118,33,47,95,,150,125,9,14,4,9,0.6,0.6
2025-05-08T2300,1708A,116.3701,23.5345,揭阳市,新兴,,,138,68,55,34,43,,78,66,,2,6,7,0.8,0.7
2025-05-08T2300,1709A,116.3264,23.5443,揭阳市,西马,颗粒物(PM10),88,125,62,40,33,46,,80,67,22,17,8,8,1.0,0.8
2025-05-08T2300,1710A,116.3611,23.5626,揭阳市,东兴,颗粒物(PM10),106,161,70,56,35,49,,79,68,16,14,4,5,0.9,0.8
2025-05-08T2300,1711A,116.4151,23.5294,揭阳市,渔湖,颗粒物(PM10),90,130,61,25,25,42,,85,67,29,21,4,4,0.9,0.7
2025-05-08T2300,3320A,116.403,23.5699,揭阳市,曲溪,颗粒物(PM10),71,92,59,36,28,60,,85,76,21,23,21,19,0.7,0.6
2025-05-08T2300,1944A,102.1692,38.5167,金昌市,天庆家园,颗粒物(PM10),114,178,478,53,71,103,,114,100,2,3,6,7,0.8,0.7
2025-05-08T2300,4022A,102.1647,38.5371,金昌市,金川区人防中心,颗粒物(PM10),124,197,661,73,83,96,,116,100,3,4,3,4,0.6,0.5
2025-05-08T2300,4239A,102.1930,38.5319,金昌市,长春路96号,颗粒物(PM10),124,198,454,56,99,,,104,,1,2,5,9,0.3,0.4
2025-05-08T2300,1262A,119.647,29.077,金华市,十五中,,47,47,70,26,31,34,,113,56,32,21,2,2,0.5,0.5
2025-05-08T2300,1263A,119.686,29.1029,金华市,监测站,,50,50,75,29,35,19,,113,50,49,22,2,2,0.5,0.4
2025-05-08T2300,3659A,119.656,29.1131,金华市,气象局,,40,40,68,22,27,14,,104,46,54,30,2,2,0.5,0.5
2025-05-08T2300,1767A,121.1115,41.0879,锦州市,南山,,34,34,50,20,34,86,,128,113,20,14,6,11,0.5,0.6
2025-05-08T2300,1768A,121.0604,40.8428,锦州市,开发区,颗粒物(PM10),55,60,63,18,28,90,,123,110,25,22,5,6,0.5,0.6
2025-05-08T2300,1769A,121.1836,41.1119,锦州市,百股街道,,44,44,52,19,28,90,,130,116,18,14,4,7,0.5,0.6
2025-05-08T2300,1770A,121.1178,41.1222,锦州市,天安街道,颗粒物(PM10),51,51,56,27,37,91,,132,117,18,15,9,10,0.6,0.6
2025-05-08T2300,1771A,121.1303,41.1386,锦州市,北湖公园,,46,46,54,21,34,90,,130,116,20,16,12,10,0.6,0.6
2025-05-08T2300,2160A,112.85,35.5051,晋城市,自来水公司,颗粒物(PM10),120,190,143,,36,79,,153,120,14,15,,9,1.1,0.9
2025-05-08T2300,2161A,112.8318,35.4936,晋城市,白云商贸,颗粒物(PM10),54,57,142,29,36,88,,129,,15,16,6,8,1.0,0.8
2025-05-08T2300,2162A,112.8508,35.4887,晋城市,市环保局,颗粒物(PM10),53,56,138,29,40,79,,143,110,12,13,7,8,0.7,0.6
2025-05-08T2300,2163A,112.8676,35.4897,晋城市,技术学院,颗粒物(PM10),59,68,128,24,46,72,,142,106,16,17,6,8,1.1,0.8
2025-05-08T2300,2165A,112.8453,35.546,晋城市,白马寺,细颗粒物(PM2.5),55,,105,39,41,76,,152,112,9,11,5,8,1.0,0.9
2025-05-08T2300,3620A,112.8271,35.4828,晋城市,泽州一中,细颗粒物(PM2.5),52,47,123,36,46,93,,159,120,13,14,4,6,0.9,0.7
2025-05-08T2300,2173A,112.7249,37.7067,晋中市,南都小区,颗粒物(PM10),61,72,95,25,30,82,,119,93,12,21,4,6,0.3,0.4
2025-05-08T2300,2174A,112.6991,37.6982,晋中市,榆次区政府,,39,39,95,25,25,79,,114,91,17,23,4,7,0.4,0.5
2025-05-08T2300,2865A,112.7195,37.6828,晋中市,榆次三中,,39,39,92,17,33,84,,120,96,10,25,3,4,0.4,0.4
2025-05-08T2300,4200A,112.7478,37.6954,晋中市,迎宾街26号,,44,44,92,19,29,81,,113,91,12,21,2,4,0.5,0.4
2025-05-08T2300,2439A,112.2014,31.0481,荆门市,竹园小学,颗粒物(PM10),85,120,46,34,36,88,,92,91,9,10,4,5,0.3,0.2
2025-05-08T2300,2440A,112.1969,30.9891,荆门市,掇刀,,49,49,45,24,44,109,,100,100,8,17,2,3,0.3,0.4
2025-05-08T2300,2441A,112.2213,31.0386,荆门市,石化一小,,,,46,,35,,,87,87,,10,,7,,0.4
2025-05-08T2300,3012A,112.1849,31.0362,荆门市,西山林语,,46,46,36,28,34,78,,95,92,4,4,7,7,0.6,0.5
2025-05-08T2300,3547A,112.1632,31.0138,荆门市,龙泉中学南校,,43,43,36,28,23,107,,98,98,2,4,1,2,0.6,0.7
2025-05-08T2300,1844A,112.2494,30.3197,荆州市,市图书馆,,39,39,34,20,24,92,,89,89,11,11,4,4,0.4,0.6
2025-05-08T2300,1845A,112.2008,30.3544,荆州市,市委党校,,37,37,31,16,26,76,,80,80,8,10,6,6,0.5,0.6
2025-05-08T2300,3194A,112.2747,30.3122,荆州市,管委会,,26,24,30,12,27,82,,83,83,10,11,6,6,0.5,0.6
2025-05-08T2300,4268A,112.1722,30.3366,荆州市,学苑路85号,,33,24,28,23,23,81,,88,87,9,5,1,2,0.4,0.6
2025-05-08T2300,2342A,117.3102,29.3867,景德镇市,王港中学,,,,,,,,,,,,,,,,
2025-05-08T2300,2343A,117.2117,29.2933,景德镇市,老干部活动中心,,13,13,44,9,16,40,,90,57,14,10,8,6,0.4,0.4
2025-05-08T2300,2344A,117.1894,29.2789,景德镇市,兽医站,,23,23,53,9,18,36,,90,54,13,8,9,5,0.5,0.6
2025-05-08T2300,2345A,117.1547,29.2617,景德镇市,台达陶瓷,,31,31,46,18,20,35,,90,53,18,13,38,20,0.6,0.6
2025-05-08T2300,2346A,117.2461,29.2956,景德镇市,陶研所,,19,19,40,12,20,42,,93,60,13,9,9,9,0.5,0.4
2025-05-08T2300,1803A,115.9872,29.6815,九江市,十里,,19,,35,13,18,53,,99,42,8,9,1,2,0.5,0.6
2025-05-08T2300,1804A,115.9584,29.7046,九江市,茅山头,,18,,37,8,19,56,,93,48,9,14,4,6,0.6,0.7
2025-05-08T2300,1805A,115.9877,29.7295,九江市,西园,,23,9,45,3,15,72,,106,57,15,21,7,8,0.7,0.7
2025-05-08T2300,1808A,115.9114,29.6038,九江市,综合工业园,,25,16,39,3,14,25,,64,36,49,39,8,9,0.8,0.7
2025-05-08T2300,1809A,116.0721,29.7535,九江市,石化总厂,,20,18,51,13,28,61,,80,45,8,12,6,10,0.6,0.7
2025-05-08T2300,1810A,115.9773,29.5698,九江市,庐山气象台,,26,7,27,3,10,82,,98,80,4,5,8,7,1.0,0.8
2025-05-08T2300,3190A,116.0254,29.6994,九江市,外国语学校,,17,,33,3,16,53,,93,44,18,13,6,7,0.8,0.8
2025-05-08T2300,4253A,116.0102,29.6594,九江市,莲花大道8号,,20,,31,14,26,45,,101,48,4,4,4,4,0.6,0.6
2025-05-08T2300,4240A,98.4958,39.7339,酒泉市,玉门东路5号,,48,44,80,33,32,75,,104,96,8,2,39,10,0.5,0.3
2025-05-08T2300,4241A,98.5099,39.7506,酒泉市,北大街108号,,26,,61,18,21,79,,105,96,8,5,22,9,0.2,0.1
2025-05-08T2300,2698A,76.0072,39.4467,喀什地区,巡警大队,颗粒物(PM10),500,770,772,229,220,15,,110,94,84,38,5,6,1.2,0.7
2025-05-08T2300,2699A,75.9755,39.4694,喀什地区,吾办,颗粒物(PM10),500,647,719,409,368,28,,96,85,58,55,8,7,0.4,0.2
2025-05-08T2300,4027A,75.9483,39.4689,喀什地区,老干局,颗粒物(PM10),500,614,655,256,230,37,,90,81,52,24,3,5,0.4,0.3
2025-05-08T2300,1824A,114.3389,34.7781,开封市,肿瘤医院,细颗粒物(PM2.5),63,71,106,45,48,78,,108,82,8,15,7,9,0.7,0.8
2025-05-08T2300,1826A,114.2885,34.7965,开封市,世纪星幼儿园,细颗粒物(PM2.5),142,,108,108,82,77,,115,89,15,24,7,9,0.7,0.7
2025-05-08T2300,3147A,114.3438,34.8106,开封市,龙亭公园,,,60,102,45,62,,,111,,14,19,2,4,0.8,0.8
2025-05-08T2300,3210A,114.3644,34.7964,开封市,汴京公园,细颗粒物(PM2.5),67,78,121,48,57,69,,106,80,15,21,2,5,0.9,0.8
2025-05-08T2300,3473A,114.2485,34.8306,开封市,技师学院,细颗粒物(PM2.5),92,78,112,68,70,67,,111,86,24,24,4,5,1.0,0.9
2025-05-08T2300,3592A,114.4644,34.7556,开封市,祥符区生态环境局,颗粒物(PM10),67,83,98,40,61,51,,102,69,21,21,7,7,0.8,0.7
2025-05-08T2300,1951A,84.895,45.6094,克拉玛依市,长征新村,,,,18,,9,37,,113,102,60,14,,8,0.9,0.3
2025-05-08T2300,1952A,84.8988,45.5893,克拉玛依市,南林小区,颗粒物(PM10),53,56,19,23,12,14,,119,98,63,12,7,5,1.1,0.3
2025-05-08T2300,1954A,84.905,44.3396,克拉玛依市,独山子区,,46,46,36,12,13,69,,128,118,36,13,8,11,0.7,0.5
2025-05-08T2300,1955A,85.6979,46.098,克拉玛依市,乌尔禾区商贸楼,颗粒物(PM10),54,58,35,34,7,71,,118,108,24,10,11,12,0.8,0.4
2025-05-08T2300,3612A,85.1045,45.6899,克拉玛依市,白碱滩区新站,,32,32,12,7,8,79,,112,107,11,6,10,11,0.3,0.2
2025-05-08T2300,2697A,76.1454,39.7142,克孜勒苏柯尔克孜自治州,市人民政府,颗粒物(PM10),500,681,649,411,252,46,,110,99,53,13,4,10,0.4,0.3
2025-05-08T2300,3665A,76.1658,39.7157,克孜勒苏柯尔克孜自治州,克州文化中心,颗粒物(PM10),500,706,679,248,238,79,,110,103,,17,6,17,0.5,0.4
2025-05-08T2300,1450A,102.8204,24.8886,昆明市,呈贡新区,,42,42,36,25,22,71,,124,107,39,12,6,5,0.5,0.4
2025-05-08T2300,1451A,102.6251,24.9608,昆明市,西山森林公园,,,,,,,,,,,,,,,,
2025-05-08T2300,1452A,102.7252,25.0902,昆明市,龙泉镇,,42,42,24,25,15,59,,113,100,46,10,8,9,0.3,0.3
2025-05-08T2300,1453A,102.7266,25.0375,昆明市,东风东路,,,,28,,20,,,108,,,12,,8,,0.4
2025-05-08T2300,1454A,102.6742,25.0669,昆明市,金鼎山,,32,23,26,21,13,102,,115,109,12,11,1,2,0.5,0.5
2025-05-08T2300,1455A,102.6644,25.0401,昆明市,碧鸡广场,,37,37,28,25,17,98,,114,108,15,10,6,6,0.3,0.3
2025-05-08T2300,3179A,102.7494,25.0119,昆明市,官渡区博物馆,,33,28,29,23,17,94,,122,112,18,10,8,7,0.4,0.3
2025-05-08T2300,3375A,102.8017,24.8336,昆明市,青年创业园,颗粒物(PM10),52,54,32,29,19,98,,128,120,11,6,9,9,0.2,0.3
2025-05-08T2300,3550A,102.7997,24.9786,昆明市,昆明学院,,41,41,31,24,17,88,,122,111,23,9,8,5,0.4,0.3
2025-05-08T2300,3551A,102.5967,24.6736,昆明市,晋宁区生态环境分局,,42,39,22,29,16,87,,120,112,19,6,13,8,0.4,0.3
2025-05-08T2300,3552A,102.6678,24.9856,昆明市,云天化总部,,41,41,33,26,18,70,,116,103,32,12,9,7,0.5,0.3
2025-05-08T2300,1456A,91.1319,29.6514,拉萨市,八廓街,颗粒物(PM10),52,53,31,21,13,90,,138,128,29,18,6,7,0.4,0.3
2025-05-08T2300,1457A,91.1221,29.6747,拉萨市,市环保局,颗粒物(PM10),51,51,36,22,15,77,,130,113,23,18,4,4,0.6,0.5
2025-05-08T2300,1458A,91.0874,29.6475,拉萨市,区监测站,,,43,29,16,12,,,134,134,54,27,6,6,0.6,0.5
2025-05-08T2300,1459A,91.1774,29.6541,拉萨市,西藏大学,,41,41,29,21,13,101,,135,129,20,16,5,6,0.4,0.4
2025-05-08T2300,1460A,90.9798,29.6588,拉萨市,区辐射站,颗粒物(PM10),52,53,36,19,16,76,,125,113,25,26,6,6,0.5,0.4
2025-05-08T2300,1461A,91.0834,29.6292,拉萨市,拉萨火车站,,36,36,26,16,12,101,,130,126,16,16,3,4,0.4,0.4
2025-05-08T2300,2520A,109.2203,23.7256,来宾市,来宾技工学校,,37,37,58,21,30,74,,98,93,12,15,10,11,0.5,0.7
2025-05-08T2300,3535A,109.1781,23.7297,来宾市,兴宾区政府,,37,37,46,20,31,69,,85,81,12,16,4,5,0.6,0.7
2025-05-08T2300,4002A,109.2416,23.7461,来宾市,中南小学,,35,35,52,13,28,76,,97,91,9,15,4,7,0.5,0.6
2025-05-08T2300,1477A,104.1373,35.9454,兰州市,榆中兰大校区,,,,,,,,,,,,,,,,
2025-05-08T2300,1479A,103.831,36.0464,兰州市,铁路设计院,,38,38,46,17,20,54,,104,86,43,24,9,9,0.6,0.5
2025-05-08T2300,3241A,103.7439,36.0842,兰州市,百合公园,,29,29,45,18,18,70,,99,88,19,16,4,5,0.4,0.3
2025-05-08T2300,3242A,103.9611,35.998,兰州市,和平,颗粒物(PM10),52,54,57,23,24,52,,108,87,38,13,8,9,1.1,0.7
2025-05-08T2300,4236A,103.6293,36.0938,兰州市,庄浪东路808号,颗粒物(PM10),51,52,55,25,27,45,,104,88,46,21,10,11,0.3,0.3
2025-05-08T2300,4237A,103.7251,36.1043,兰州市,安宁西路88号,颗粒物(PM10),51,52,61,32,32,90,,114,104,11,12,6,6,0.2,0.2
2025-05-08T2300,4238A,103.8470,36.0676,兰州市,北滨河东路1号,,44,44,57,21,27,61,,115,98,38,22,8,10,0.6,0.6
2025-05-08T2300,3245A,103.6633,36.533,兰州新区,新区管委会,,43,36,47,30,30,77,,119,109,28,11,5,8,0.3,0.3
2025-05-08T2300,3246A,103.6975,36.4789,兰州新区,舟曲中学,,39,39,52,12,18,98,,117,112,15,12,6,6,0.4,0.4
2025-05-08T2300,1067A,116.6708,39.5111,廊坊市,药材公司,细颗粒物(PM2.5),87,121,114,64,66,76,,155,126,31,25,4,6,0.9,0.6
2025-05-08T2300,1068A,116.7214,39.5589,廊坊市,开发区,颗粒物(PM10),84,118,119,53,56,63,,160,126,40,34,5,4,0.9,0.6
2025-05-08T2300,1070A,116.7244,39.5269,廊坊市,北华航天学院,颗粒物(PM10),87,124,126,63,67,58,,154,121,42,36,7,6,1.0,0.6
2025-05-08T2300,2919A,116.7022,39.5453,廊坊市,河北工业大学,细颗粒物(PM2.5),90,128,130,67,62,61,,158,128,38,34,6,7,1.0,0.6
2025-05-08T2300,2535A,103.7723,29.5462,乐山市,花湖湾,细颗粒物(PM2.5),59,48,24,42,19,92,,154,145,26,11,4,4,0.7,0.6
2025-05-08T2300,2536A,103.7627,29.5844,乐山市,牛耳桥,,46,46,27,32,22,33,,140,108,54,19,7,7,0.9,0.7
2025-05-08T2300,2537A,103.7508,29.6006,乐山市,市第三水厂,,45,40,26,31,20,28,,134,106,67,19,5,5,1.0,0.7
2025-05-08T2300,2538A,103.7571,29.5664,乐山市,市监测站,,50,40,26,35,20,50,,140,120,40,13,7,7,1.0,0.9
2025-05-08T2300,3361A,103.7311,29.5628,乐山市,理工大学,,45,37,23,31,18,30,,147,124,53,12,4,5,0.8,0.6
2025-05-08T2300,2598A,100.2143,26.8576,丽江市,西南郊,,34,22,18,11,7,106,,121,112,2,2,5,5,0.7,0.7
2025-05-08T2300,2599A,100.2497,26.8802,丽江市,丽江古城,,30,20,18,13,11,94,,117,106,9,8,7,8,0.5,0.5
2025-05-08T2300,2600A,100.2203,26.8906,丽江市,市中心,,28,,15,8,8,89,,113,99,4,3,7,8,0.5,0.5
2025-05-08T2300,1267A,119.914,28.4514,丽水市,监测站大楼,,19,19,46,9,19,59,,111,71,12,12,2,2,0.4,0.4
2025-05-08T2300,1268A,119.93,28.4586,丽水市,莲都小学,,21,16,49,6,18,65,,120,69,7,10,3,3,0.3,0.4
2025-05-08T2300,1269A,119.879,28.4231,丽水市,余庄前,,25,25,47,3,18,14,,78,56,24,8,3,3,0.5,0.4
2025-05-08T2300,1173A,119.176,34.5885,连云港市,市环境监测站,,43,34,48,19,19,136,,112,112,8,12,6,6,0.4,0.4
2025-05-08T2300,3000A,119.3581,34.6972,连云港市,德源药业,,42,31,42,19,18,134,,115,115,2,8,9,9,0.4,0.5
2025-05-08T2300,3007A,119.178,34.844,连云港市,新城一中,颗粒物(PM10),51,52,54,18,16,130,,115,115,5,12,5,6,0.4,0.5
2025-05-08T2300,3008A,119.3608,34.7519,连云港市,胡沟管理处,,41,36,42,12,15,130,,107,107,7,18,6,11,0.6,0.6
2025-05-08T2300,3009A,119.1478,34.5911,连云港市,矿山设计院,,42,36,53,24,19,133,,110,110,5,9,6,8,0.4,0.5
2025-05-08T2300,3434A,119.2413,34.6539,连云港市,工贸学校,,44,27,40,16,21,138,,117,117,7,10,7,8,0.4,0.5
2025-05-08T2300,3664A,119.4172,34.7341,连云港市,连云街道,,43,41,43,16,16,135,,123,123,9,10,6,8,0.4,0.5
2025-05-08T2300,2571A,102.3431,27.8099,凉山彝族自治州,青龙寺,,22,21,22,3,4,70,,116,90,7,4,3,3,0.6,0.6
2025-05-08T2300,2572A,102.2721,27.8415,凉山彝族自治州,邛海宾馆,,21,16,25,13,14,67,,111,79,17,9,9,11,0.7,0.7
2025-05-08T2300,2573A,102.2625,27.898,凉山彝族自治州,西昌市政府,,24,24,22,14,13,73,,107,78,6,10,9,13,0.5,0.7
2025-05-08T2300,2574A,102.2685,27.8851,凉山彝族自治州,凉山州政府,,20,14,24,12,13,64,,113,79,12,11,6,10,0.9,0.6
2025-05-08T2300,4229A,102.2342,27.8859,凉山彝族自治州,凯乐南路30号,,32,32,37,11,15,50,,95,65,20,15,18,20,0.9,1.1
2025-05-08T2300,2212A,123.2,41.1953,辽阳市,宏伟区,,37,25,37,7,13,116,,120,118,4,6,6,6,0.3,0.3
2025-05-08T2300,2213A,123.1683,41.2495,辽阳市,新华园,,32,31,44,15,18,102,,110,107,6,7,6,6,0.4,0.4
2025-05-08T2300,2214A,123.2354,41.2639,辽阳市,滨河路,,34,31,42,15,16,106,,105,105,8,11,6,7,0.3,0.3
2025-05-08T2300,2215A,123.149,41.2991,辽阳市,铁西工业园,,31,29,55,17,20,98,,107,104,3,5,8,9,0.4,0.4
2025-05-08T2300,2227A,125.1358,42.8845,辽源市,环保局,颗粒物(PM10),51,51,46,17,16,117,,135,126,10,16,6,6,0.3,0.4
2025-05-08T2300,3239A,125.0764,42.9078,辽源市,银鹰制药,,47,47,53,16,24,119,,140,130,8,18,5,5,0.3,0.4
2025-05-08T2300,1625A,115.9848,36.4372,聊城市,区政府,颗粒物(PM10),56,61,99,33,31,77,,145,118,15,13,4,7,1.0,0.8
2025-05-08T2300,2878A,116.0072,36.4343,聊城市,聊大东校,细颗粒物(PM2.5),58,63,94,41,43,68,,142,115,15,11,4,8,0.6,0.5
2025-05-08T2300,3200A,115.9819,36.4978,聊城市,监控中心,颗粒物(PM10),53,56,98,34,36,77,,150,124,21,13,6,8,0.7,0.6
2025-05-08T2300,3513A,116.0445,36.4361,聊城市,九州社区,颗粒物(PM10),60,69,86,30,31,84,,154,126,14,12,3,6,0.5,0.5
2025-05-08T2300,4018A,116.0567,36.4608,聊城市,星美广场,颗粒物(PM10),58,66,82,27,26,76,,145,117,14,13,8,11,0.8,0.7
2025-05-08T2300,2632A,94.3681,29.6376,林芝市,林芝监测站,,30,24,15,12,6,96,,123,117,4,5,5,5,0.2,0.2
2025-05-08T2300,2633A,94.3616,29.6616,林芝市,林芝人民医院,,31,28,18,11,8,98,,124,119,2,3,5,5,0.3,0.3
2025-05-08T2300,2603A,100.0781,23.8982,临沧市,市环保局,细颗粒物(PM2.5),68,54,40,49,33,70,,111,102,15,11,7,7,0.7,0.6
2025-05-08T2300,2604A,100.0894,23.8822,临沧市,市气象局,,46,36,36,32,27,81,,120,112,16,12,9,8,0.7,0.6
2025-05-08T2300,1733A,111.5531,36.0783,临汾市,临钢医院,,20,20,99,14,27,62,,94,77,14,13,5,6,0.5,0.6
2025-05-08T2300,1734A,111.5028,36.0714,临汾市,技工学校,,30,24,93,21,36,69,,102,84,11,10,7,7,0.4,0.6
2025-05-08T2300,1736A,111.5018,36.0855,临汾市,市委,,42,42,104,8,33,65,,107,90,10,10,6,7,1.0,1
2025-05-08T2300,3018A,111.505,36.1014,临汾市,唐尧大酒店,,42,42,101,8,28,64,,99,85,14,12,4,4,0.4,0.6
2025-05-08T2300,4244A,111.4879,36.0530,临汾市,启星学校,,40,40,91,15,34,50,,98,79,18,11,6,7,0.6,0.6
2025-05-08T2300,4271A,103.2464,35.6123,临夏回族自治州,滨河东路1号,,,64,75,33,34,,,103,,21,9,4,6,0.2,0.3
2025-05-08T2300,4310A,103.2093,35.5995,临夏回族自治州,新华街21号,,47,47,65,20,24,81,,99,94,20,13,3,5,0.3,0.3
2025-05-08T2300,1618A,118.3429,35.0532,临沂市,沂河小区,,34,34,65,20,22,90,,101,90,7,10,8,8,0.6,0.3
2025-05-08T2300,1619A,118.295,35.0583,临沂市,鲁南制药厂,,35,,56,24,24,98,,110,98,14,14,4,4,0.9,0.6
2025-05-08T2300,1620A,118.2794,34.9976,临沂市,新光毛纺厂,,29,,33,20,23,90,,105,91,17,16,6,6,0.7,0.3
2025-05-08T2300,1621A,118.3956,35.0888,临沂市,河东保险公司,,31,19,53,12,20,97,,110,98,9,12,4,5,0.6,0.4
2025-05-08T2300,3370A,118.3564,35.0215,临沂市,十里堡居委,,32,24,52,22,23,101,,116,103,17,17,1,2,0.8,0.5
2025-05-08T2300,3496A,118.3604,35.1084,临沂市,南坊新区,,28,19,39,9,24,89,,100,89,11,13,5,6,0.5,0.4
2025-05-08T2300,3860A,118.3920,35.0300,临沂市,皇山花园小区,,30,24,56,21,24,96,,107,96,15,17,7,7,0.9,0.6
2025-05-08T2300,1870A,109.4856,24.3895,柳州市,柳东小学,,40,30,30,28,18,96,,107,105,5,9,9,9,0.5,0.6
2025-05-08T2300,1871A,109.4157,24.3277,柳州市,环保监测站,,31,31,36,14,26,95,,100,98,13,14,1,4,0.6,0.7
2025-05-08T2300,1872A,109.389,24.341,柳州市,河西水厂,,31,31,39,11,20,71,,87,84,19,12,4,5,0.9,0.7
2025-05-08T2300,1873A,109.4311,24.2921,柳州市,市四中,,32,30,43,22,23,77,,95,91,20,15,10,8,1.0,0.6
2025-05-08T2300,1874A,109.4006,24.3631,柳州市,市九中,,31,13,41,8,21,97,,94,93,5,13,8,8,0.4,0.7
2025-05-08T2300,1875A,109.4958,24.3134,柳州市,古亭山,,25,20,34,17,17,80,,91,89,6,12,6,7,0.8,0.9
2025-05-08T2300,3402A,109.5422,24.3996,柳州市,市二中,,27,24,33,12,17,84,,101,97,9,14,10,10,0.6,0.6
2025-05-08T2300,2307A,116.5079,31.737,六安市,监测大楼,,23,,56,7,28,71,,121,69,8,15,1,2,0.5,0.5
2025-05-08T2300,2308A,116.4738,31.7643,六安市,皖西学院,,24,,57,8,27,76,,123,73,8,15,5,5,0.5,0.5
2025-05-08T2300,2309A,116.4996,31.7905,六安市,朝阳厂,,21,,51,9,25,65,,114,60,10,18,4,4,0.3,0.4
2025-05-08T2300,2310A,116.5567,31.7886,六安市,开发区,,22,15,67,9,30,70,,101,67,8,24,4,5,0.5,0.6
2025-05-08T2300,2576A,104.8,26.5892,六盘水市,窑上,,32,24,30,22,16,58,,75,58,11,6,4,5,0.3,0.5
2025-05-08T2300,2577A,104.83,26.5917,六盘水市,黄土坡,,37,37,27,19,20,79,,87,75,16,14,10,10,0.2,0.6
2025-05-08T2300,2578A,104.89,26.5939,六盘水市,水钢,颗粒物(PM10),56,62,32,32,17,60,,88,74,43,14,20,10,2.1,0.9
2025-05-08T2300,2579A,104.8475,26.5894,六盘水市,民中,,30,22,27,9,14,95,,82,76,8,13,8,9,0.3,0.6
2025-05-08T2300,2580A,104.9544,26.5506,六盘水市,双水,,46,46,26,16,10,36,,92,76,36,11,15,10,1.2,0.6
2025-05-08T2300,2335A,117.0189,25.1181,龙岩市,龙岩师专,,,,,,,,,,,,,,,,
2025-05-08T2300,2336A,117.0217,25.1033,龙岩市,龙岩市监测站,,15,10,32,10,23,44,,68,54,15,16,5,7,0.6,0.7
2025-05-08T2300,2337A,117.0258,25.0661,龙岩市,闽西职业技术学院,,26,26,32,8,20,32,,62,40,13,15,5,8,0.5,0.7
2025-05-08T2300,2338A,117.0196,25.0306,龙岩市,龙岩学院,,16,16,29,6,17,30,,67,45,9,10,5,7,0.4,0.5
2025-05-08T2300,2665A,105.0822,33.3261,陇南市,汉王镇固水子,,,,,,,,,,,,,,,,
2025-05-08T2300,2885A,104.9339,33.3826,陇南市,滨江中学,,50,50,52,24,26,97,,99,99,3,5,9,10,0.3,0.3
2025-05-08T2300,3247A,104.955,33.371,陇南市,市总工会,,41,41,48,7,15,104,,106,106,3,6,8,8,0.3,0.3
2025-05-08T2300,2487A,111.9589,27.8901,娄底市,电视发射台,,27,27,73,11,25,50,,54,49,3,4,5,6,0.4,0.4
2025-05-08T2300,2488A,111.9975,27.725,娄底市,市监测站,,21,21,62,12,32,66,,58,58,11,15,7,10,0.5,0.8
2025-05-08T2300,2489A,112.0194,27.7314,娄底市,市委党校,,20,15,62,12,30,64,,58,58,2,6,4,4,0.3,0.4
2025-05-08T2300,2490A,111.9561,27.7569,娄底市,涟钢,,18,18,70,11,34,54,,50,49,16,18,13,18,1.0,1.4
2025-05-08T2300,2491A,111.9892,27.7044,娄底市,市政府,,19,19,55,11,29,58,,56,54,5,8,4,6,0.6,0.7
2025-05-08T2300,1893A,105.4324,28.9634,泸州市,九狮山,,,,,,,,,,,,,,,,
2025-05-08T2300,1894A,105.4427,28.9063,泸州市,小市上码头,,,52,46,29,30,,,,,20,14,11,7,0.8,0.7
2025-05-08T2300,1895A,105.4241,28.8573,泸州市,兰田宪桥,细颗粒物(PM2.5),52,44,40,36,34,53,,109,89,21,11,10,8,0.7,0.9
2025-05-08T2300,1896A,105.4379,28.8833,泸州市,市环监站,,,,,,,,,,,,,,,,
2025-05-08T2300,4272A,105.3689,28.7783,泸州市,纳溪中医医院,细颗粒物(PM2.5),55,45,39,39,32,32,,110,78,36,18,7,7,0.6,0.5
2025-05-08T2300,2183A,111.1406,37.5211,吕梁市,环保局,,48,48,111,20,40,85,,122,102,9,22,2,4,0.4,0.5
2025-05-08T2300,2185A,111.1297,37.5136,吕梁市,自来水公司,,42,42,111,16,40,80,,118,99,11,25,4,6,0.6,0.7
2025-05-08T2300,2867A,111.1283,37.51,吕梁市,马茂庄小学,,47,47,114,23,37,82,,116,95,9,28,6,8,0.4,0.5
2025-05-08T2300,1812A,112.3931,34.6516,洛阳市,市委党校,颗粒物(PM10),53,55,117,20,44,87,,141,125,10,17,4,7,0.7,0.7
2025-05-08T2300,1815A,112.494,34.6886,洛阳市,河南林校,,36,34,126,25,49,74,,156,128,14,17,5,8,0.6,0.5
2025-05-08T2300,1816A,112.3844,34.623,洛阳市,开发区管委会,,40,40,120,23,57,94,,159,138,8,15,4,9,0.5,0.5
2025-05-08T2300,1817A,112.4267,34.6258,洛阳市,市委新办公区,颗粒物(PM10),52,53,134,22,47,70,,150,127,11,17,4,7,0.5,0.5
2025-05-08T2300,3340A,112.6005,34.6326,洛阳市,伊滨,颗粒物(PM10),51,51,128,30,51,95,,164,142,12,19,4,8,0.4,0.5
2025-05-08T2300,3341A,112.4951,34.6332,洛阳市,中移产业园,,38,38,150,25,45,82,,161,136,12,16,4,8,0.7,0.8
2025-05-08T2300,3593A,112.5736,34.8993,洛阳市,吉利监测站,,38,35,134,26,50,78,,159,120,12,14,6,11,0.6,0.6
2025-05-08T2300,3635A,112.3677,34.662,洛阳市,河科大西苑校区,,42,42,125,19,41,107,,164,142,10,17,5,9,0.6,0.5
2025-05-08T2300,3636A,112.4388,34.6781,洛阳市,英才小学,,33,33,125,23,45,91,,159,134,13,19,3,7,0.6,0.6
2025-05-08T2300,4214A,112.4600,34.6949,洛阳市,春都路1号院,,49,49,122,22,45,91,,164,137,8,13,2,6,0.4,0.5
2025-05-08T2300,2399A,114.051,33.5699,漯河市,三五一五工厂,颗粒物(PM10),71,91,137,50,52,61,,99,78,10,16,4,5,0.7,0.9
2025-05-08T2300,2400A,114.0055,33.5698,漯河市,漯河大学,细颗粒物(PM2.5),62,68,120,44,53,65,,105,82,8,13,4,5,0.6,0.6
2025-05-08T2300,2401A,114.0138,33.5828,漯河市,市水利局,"颗粒物(PM10),细颗粒物(PM2.5)",62,73,129,44,50,59,,105,76,10,13,4,5,0.6,0.5
2025-05-08T2300,2402A,114.0261,33.5698,漯河市,市广电局,细颗粒物(PM2.5),75,71,119,55,61,59,,99,80,8,13,2,4,0.6,0.6
2025-05-08T2300,3478A,113.9749,33.5664,漯河市,市图书馆,颗粒物(PM10),69,87,132,47,62,63,,104,84,12,17,5,3,0.6,0.6
2025-05-08T2300,4250A,114.0892,33.5882,漯河市,韶山路11号,细颗粒物(PM2.5),89,89,130,66,60,55,,94,68,13,17,3,4,0.6,0.8
2025-05-08T2300,1798A,118.5092,31.6837,马鞍山市,湖东路四小,,22,,67,7,30,69,,104,88,9,10,5,5,0.6,0.6
2025-05-08T2300,1799A,118.5024,31.6449,马鞍山市,开发区,,18,9,64,6,27,55,,101,86,20,15,6,9,0.7,0.6
2025-05-08T2300,1802A,118.6245,31.7241,马鞍山市,濮塘,,21,11,56,3,24,66,,105,86,6,8,6,7,0.7,0.7
2025-05-08T2300,3633A,118.4918,31.6809,马鞍山市,雨山,,20,8,60,3,25,64,,106,87,13,12,5,6,0.6,0.6
2025-05-08T2300,4191A,118.5274,31.72227,马鞍山市,慈湖高新区,,28,,70,19,40,60,,98,80,16,15,6,7,0.6,0.6
2025-05-08T2300,1686A,111.0286,21.4688,茂名市,电白南海,,18,14,21,12,15,38,,50,45,6,5,1,3,0.8,0.8
2025-05-08T2300,1687A,110.9294,21.6533,茂名市,茂石化七小,,17,17,17,9,7,34,,45,41,8,6,2,2,0.3,0.3
2025-05-08T2300,1688A,110.9107,21.6687,茂名市,健康路,,22,22,17,12,11,37,,48,43,3,2,3,3,0.7,0.8
2025-05-08T2300,1689A,110.8592,21.6828,茂名市,高岭,,19,19,27,3,5,33,,44,40,11,10,3,3,0.5,0.6
2025-05-08T2300,3450A,111.01,21.5165,茂名市,电白水东,,13,7,11,7,6,39,,46,44,7,7,3,3,0.6,0.6
2025-05-08T2300,2539A,104.0308,30.0478,眉山市,黑龙滩水库,,31,31,21,20,21,70,,132,121,11,6,3,2,0.6,0.5
2025-05-08T2300,2540A,103.8416,30.0874,眉山市,气象局,细颗粒物(PM2.5),89,90,41,66,23,38,,137,117,51,16,1,3,0.6,0.4
2025-05-08T2300,3137A,103.8578,30.0744,眉山市,市委党校,细颗粒物(PM2.5),58,61,28,41,17,23,,131,114,63,18,8,8,0.6,0.4
2025-05-08T2300,3148A,103.8291,30.0564,眉山市,区人社局,细颗粒物(PM2.5),62,52,30,44,17,37,,128,109,57,20,10,9,0.7,0.4
2025-05-08T2300,1690A,116.1231,24.3284,梅州市,梅江月梅,,24,24,28,16,12,49,,70,59,6,5,7,6,0.7,0.7
2025-05-08T2300,1691A,116.0797,24.2719,梅州市,梅县新城,,23,16,26,16,19,53,,78,68,11,10,6,6,0.6,0.2
2025-05-08T2300,1692A,116.1248,24.2654,梅州市,环境监控中心,,29,29,29,17,11,12,,68,52,37,14,7,7,0.8,0.8
2025-05-08T2300,3315A,116.1233,24.2991,梅州市,梅龙,,,,28,14,13,51,,70,60,7,7,16,8,0.4,0.4
2025-05-08T2300,1878A,104.7778,31.4741,绵阳市,富乐山,颗粒物(PM10),57,63,35,26,23,91,,133,119,12,13,7,8,0.5,0.5
2025-05-08T2300,1880A,104.6697,31.4668,绵阳市,高新区自来水公司,颗粒物(PM10),59,68,38,24,22,39,,134,96,61,23,3,4,0.6,0.3
2025-05-08T2300,1881A,104.7287,31.5075,绵阳市,三水厂,颗粒物(PM10),56,62,36,33,26,28,,133,88,70,25,8,8,0.6,0.5
2025-05-08T2300,3491A,104.69,31.5322,绵阳市,西科大附属小学,颗粒物(PM10),52,54,33,32,21,64,,133,99,41,22,6,7,0.6,0.5
2025-05-08T2300,3492A,104.5648,31.5343,绵阳市,安州区旅游局,颗粒物(PM10),53,56,30,19,16,50,,121,87,28,17,6,10,0.6,0.5
2025-05-08T2300,4226A,104.7651,31.4531,绵阳市,绵阳市气象局,,48,48,39,30,24,74,,131,116,32,16,1,3,0.6,0.5
2025-05-08T2300,1784A,129.61,44.561,牡丹江市,环保大楼,,46,34,37,32,30,54,,64,56,15,22,6,6,0.3,0.4
2025-05-08T2300,1785A,129.6115,44.5782,牡丹江市,文化广场,细颗粒物(PM2.5),54,41,42,38,33,47,,63,56,23,25,11,10,0.7,0.6
2025-05-08T2300,1786A,129.5904,44.5963,牡丹江市,第一医院,,48,41,36,33,29,49,,72,60,12,17,7,7,0.7,0.7
2025-05-08T2300,1787A,129.6364,44.6075,牡丹江市,机车工厂,颗粒物(PM10),54,57,42,37,29,28,,62,50,20,21,7,6,0.6,0.6
2025-05-08T2300,1788A,129.6386,44.5462,牡丹江市,第一中学,,45,41,38,31,26,52,,70,58,12,21,5,5,0.4,0.4
2025-05-08T2300,2531A,105.0703,29.61,内江市,市监测站,细颗粒物(PM2.5),64,53,35,46,32,103,,138,126,15,10,14,12,0.6,0.5
2025-05-08T2300,2532A,105.0717,29.5947,内江市,东兴区政府,,,54,31,43,27,100,,140,132,16,11,,17,0.6,0.4
2025-05-08T2300,2533A,105.0653,29.5817,内江市,内江二中,细颗粒物(PM2.5),78,70,43,57,33,95,,139,128,23,17,8,6,0.6,0.5
2025-05-08T2300,2534A,105.0406,29.5822,内江市,内江日报社,细颗粒物(PM2.5),64,68,36,46,28,75,,127,115,34,10,5,5,0.6,0.5
2025-05-08T2300,2628A,92.0657,31.4846,那曲市,那曲监测站,细颗粒物(PM2.5),67,81,84,48,35,44,,131,104,62,19,12,8,1.5,0.6
2025-05-08T2300,4243A,92.0515,31.4787,那曲市,那曲市委宣传部,颗粒物(PM10),64,77,44,30,37,76,,135,119,37,14,9,7,0.9,0.5
2025-05-08T2300,1290A,115.8931,28.6843,南昌市,省外办,,19,18,37,9,18,59,,67,42,14,18,6,6,0.6,0.6
2025-05-08T2300,1291A,115.8886,28.7003,南昌市,省林业公司,,20,,26,9,16,63,,69,48,8,12,8,8,0.7,0.8
2025-05-08T2300,1292A,115.8126,28.7442,南昌市,林科所,,18,12,26,9,15,57,,65,32,6,22,4,3,0.6,0.5
2025-05-08T2300,1294A,115.8518,28.687,南昌市,建工学校,,20,20,34,10,20,63,,74,47,14,18,4,4,0.6,0.7
2025-05-08T2300,1295A,115.8921,28.6424,南昌市,象湖,,24,24,37,9,15,68,,69,49,13,15,10,8,0.6,0.7
2025-05-08T2300,1296A,115.7423,28.7996,南昌市,武术学校,,45,,26,31,17,18,,65,24,10,8,6,6,0.6,0.6
2025-05-08T2300,3046A,115.9084,28.6062,南昌市,机电学校,,23,20,37,7,16,71,,69,49,8,13,4,5,0.5,0.6
2025-05-08T2300,3690A,115.9721,28.7031,南昌市,外国语学校,,20,18,29,13,14,64,,82,55,12,10,7,7,0.4,0.4
2025-05-08T2300,4192A,115.9316,28.68677,南昌市,南京东路235号,,22,20,42,15,15,64,,78,54,17,16,10,10,0.9,1
2025-05-08T2300,1905A,106.056,30.8064,南充市,西山风景区,,,,,,,,,,,,,,,,
2025-05-08T2300,1906A,106.0789,30.8023,南充市,南充市委,,38,35,31,26,22,64,,109,100,26,10,5,4,0.4,0.4
2025-05-08T2300,1907A,106.1031,30.8217,南充市,南充炼油厂,颗粒物(PM10),55,59,35,37,23,58,,105,95,29,8,6,4,0.4,0.2
2025-05-08T2300,4227A,106.1083,30.7884,南充市,梨树横街98号,,50,50,33,30,22,58,,107,96,29,8,5,3,0.4,0.3
2025-05-08T2300,4304A,106.1172,30.843,南充市,清泉寺北路188号,颗粒物(PM10),54,58,38,32,19,57,,104,95,29,9,4,4,0.3,0.3
2025-05-08T2300,4305A,106.067,30.7616,南充市,同庆路1号,颗粒物(PM10),51,51,33,34,24,55,,99,89,27,10,6,4,0.3,0.2
2025-05-08T2300,1151A,118.8086,32.1065,南京市,迈皋桥,,19,12,52,3,20,59,,100,74,11,12,4,4,0.3,0.3
2025-05-08T2300,1152A,118.7538,32.0551,南京市,草场门,,17,9,52,9,22,54,,100,74,19,18,3,3,0.3,0.2
2025-05-08T2300,1153A,118.7794,32.0745,南京市,山西路,,19,14,55,3,18,58,,106,82,21,20,3,4,0.2,0.2
2025-05-08T2300,1154A,118.7752,32.0023,南京市,中华门,,17,,46,7,20,53,,96,72,17,14,5,6,0.4,0.4
2025-05-08T2300,1155A,118.8109,32.0309,南京市,瑞金路,,14,9,49,9,21,44,,103,69,19,9,7,6,0.4,0.4
2025-05-08T2300,1156A,118.7997,32.0754,南京市,玄武湖,,18,15,51,3,16,56,,98,75,5,7,4,4,0.5,0.5
2025-05-08T2300,1157A,118.6414,32.0931,南京市,浦口,,20,10,54,3,17,62,,110,87,17,20,5,6,0.6,0.6
2025-05-08T2300,1158A,118.7356,31.9996,南京市,奥体中心,,21,9,74,3,24,66,,108,88,14,14,3,4,0.3,0.3
2025-05-08T2300,1159A,118.9125,32.1028,南京市,仙林大学城,,20,12,53,7,19,62,,102,82,10,14,11,10,0.4,0.5
2025-05-08T2300,3422A,118.8436,31.9198,南京市,江宁彩虹桥,,20,6,50,3,20,62,,101,79,12,15,3,3,0.4,0.4
2025-05-08T2300,3427A,118.8554,32.3578,南京市,六合雄州,,23,23,61,11,20,61,,101,80,19,30,5,6,0.4,0.5
2025-05-08T2300,4249A,118.8708,31.3402,南京市,汶溪路181号,,22,6,46,3,25,68,,99,85,14,20,4,5,0.4,0.4
2025-05-08T2300,4312A,119.019,31.6512,南京市,中山西路1号,,23,6,44,3,22,71,,97,81,6,15,4,5,0.5,0.6
2025-05-08T2300,1401A,108.3103,22.7881,南宁市,二十一中,,26,26,28,16,17,69,,79,72,10,8,3,2,0.6,0.7
2025-05-08T2300,1402A,108.3141,22.8528,南宁市,北湖,,39,39,30,19,18,72,,84,79,6,8,4,5,0.5,0.7
2025-05-08T2300,1403A,108.3206,22.8225,南宁市,市监测站,,25,21,28,17,17,66,,72,68,5,6,4,4,0.4,0.4
2025-05-08T2300,1404A,108.3829,22.8037,南宁市,大自然花园,,27,27,30,16,18,85,,90,85,3,4,5,5,0.4,0.4
2025-05-08T2300,1405A,108.4394,22.7904,南宁市,仙葫,,25,25,30,17,18,76,,76,74,4,5,5,6,0.6,0.6
2025-05-08T2300,1406A,108.2397,22.8467,南宁市,区农职院,,38,,35,26,17,66,,76,70,9,9,4,3,0.7,0.7
2025-05-08T2300,1407A,108.3275,22.735,南宁市,英华嘉园,,34,34,29,15,17,68,,74,70,13,12,8,7,0.3,0.4
2025-05-08T2300,3401A,108.4834,22.7618,南宁市,红星社区,,29,29,30,14,19,89,,90,87,3,5,8,8,0.5,0.5
2025-05-08T2300,4221A,108.2177,22.7774,南宁市,乐贤路16号,,36,36,30,22,17,52,,71,61,15,10,4,4,0.5,0.5
2025-05-08T2300,2331A,118.0966,26.6761,南平市,茫荡山,,,,,,,,,,,,,,,,
2025-05-08T2300,2332A,118.1681,26.6369,南平市,南平市监测站,,,32,40,21,22,,,103,50,21,10,4,4,1.0,0.8
2025-05-08T2300,2333A,118.1825,26.6489,南平市,南平铝业有限公司,,26,26,41,11,19,18,,94,41,20,10,5,4,0.7,0.6
2025-05-08T2300,2334A,118.1756,26.6272,南平市,南平七中,,34,34,44,16,21,13,,99,42,23,8,4,4,0.7,0.6
2025-05-08T2300,1168A,120.9098,31.9663,南通市,狼山街道,,29,6,40,3,14,90,,117,116,15,16,4,4,0.7,0.5
2025-05-08T2300,1169A,120.86,32.0005,南通市,虹桥,,30,14,40,7,17,94,,117,117,16,19,1,2,0.6,0.5
2025-05-08T2300,1170A,120.87,32.02,南通市,城中,,30,6,47,3,15,94,,116,116,16,18,1,2,0.6,0.5
2025-05-08T2300,1171A,120.94,31.93,南通市,星湖花园,,28,7,40,3,15,89,,112,112,15,16,2,3,0.5,0.4
2025-05-08T2300,1172A,120.81,32.0417,南通市,紫琅学院,,28,8,41,3,12,89,,108,108,12,15,4,4,0.5,0.4
2025-05-08T2300,3291A,121.067,32.062,南通市,通州监测站,,33,6,41,3,13,105,,121,121,4,8,4,5,0.6,0.5
2025-05-08T2300,3432A,120.9348,31.9883,南通市,环境教育馆,,29,14,44,3,14,92,,118,118,12,13,2,2,0.3,0.2
2025-05-08T2300,2404A,112.5224,33.0122,南阳市,瓦房庄,颗粒物(PM10),86,122,110,56,43,90,,111,108,15,14,6,6,0.8,0.7
2025-05-08T2300,2405A,112.5003,32.9735,南阳市,汉画馆,颗粒物(PM10),86,122,98,58,43,79,,105,100,19,15,5,5,0.6,0.5
2025-05-08T2300,2406A,112.5573,33.027,南阳市,气象站,颗粒物(PM10),89,128,123,61,49,81,,111,106,14,13,5,5,0.5,0.3
2025-05-08T2300,2407A,112.5481,32.9689,南阳市,理工学院,颗粒物(PM10),84,117,103,61,47,81,,110,104,13,13,4,4,0.6,0.5
2025-05-08T2300,4008A,112.5234,32.9922,南阳市,卧龙区政府,细颗粒物(PM2.5),88,121,109,65,40,89,,106,104,17,17,4,4,0.6,0.5
2025-05-08T2300,1234A,121.8358,29.911,宁波市,区环保大楼,,21,16,51,9,16,66,,106,102,24,6,8,8,0.4,0.4
2025-05-08T2300,1235A,121.56,29.82,宁波市,万里学院,,27,22,50,6,16,84,,114,110,16,12,4,5,0.4,0.4
2025-05-08T2300,1236A,121.713,29.9572,宁波市,龙赛医院,,28,15,50,12,19,89,,117,113,10,7,6,6,0.4,0.3
2025-05-08T2300,1239A,121.633,29.7733,宁波市,钱湖水厂,,30,6,43,3,14,93,,119,114,5,6,8,8,0.4,0.4
2025-05-08T2300,1240A,121.5856,29.8635,宁波市,太古小学,,27,8,59,7,15,85,,108,105,10,8,6,6,0.5,0.5
2025-05-08T2300,1241A,121.524,29.8674,宁波市,市环境监测中心,,24,19,49,7,14,75,,104,100,17,15,9,10,0.7,0.6
2025-05-08T2300,2871A,121.6147,29.9017,宁波市,万里国际学校,,31,7,28,6,16,97,,113,111,7,9,8,8,0.6,0.6
2025-05-08T2300,3710A,121.5594,29.8975,宁波市,白沙活动中心,,27,10,41,3,13,86,,109,106,7,7,7,7,0.4,0.4
2025-05-08T2300,2339A,119.5001,26.6946,宁德市,金涵水库,,,,,,,,,,,,,,,,
2025-05-08T2300,2341A,119.5388,26.6612,宁德市,宁德市监测站,颗粒物(PM10),51,51,44,30,25,33,,101,65,36,18,5,5,0.5,0.5
2025-05-08T2300,3209A,119.5231,26.6562,宁德市,宁德一中,细颗粒物(PM2.5),57,48,42,40,25,39,,103,66,24,11,2,2,0.4,0.3
2025-05-08T2300,2618A,98.8601,25.8567,怒江傈僳族自治州,州监测站,,22,22,25,15,17,49,,65,62,6,5,8,8,0.3,0.3
2025-05-08T2300,2619A,98.8546,25.8417,怒江傈僳族自治州,泸水一中,,21,21,23,14,14,13,,46,34,19,11,6,6,0.4,0.3
2025-05-08T2300,1888A,101.6891,26.571,攀枝花市,弄弄坪,,28,28,30,10,14,68,,113,91,28,18,7,18,0.5,1.2
2025-05-08T2300,1889A,101.5769,26.5928,攀枝花市,河门口,,37,37,34,13,16,60,,118,103,25,10,6,8,0.4,0.4
2025-05-08T2300,1890A,101.7169,26.585,攀枝花市,炳草岗,,31,31,30,9,15,59,,120,99,37,15,2,5,0.5,0.6
2025-05-08T2300,1891A,101.7369,26.5008,攀枝花市,仁和,,26,26,25,12,13,72,,120,101,12,9,8,8,0.5,0.4
2025-05-08T2300,2835A,101.7227,26.567,攀枝花市,四十中小,,25,23,23,14,12,77,,125,107,27,11,11,10,0.6,0.6
2025-05-08T2300,1604A,122.0303,41.1489,盘锦市,开发区,,35,35,43,14,20,92,,135,106,15,14,8,9,0.4,0.4
2025-05-08T2300,1605A,122.0485,41.0883,盘锦市,兴隆台,,44,44,49,15,19,78,,119,89,17,17,10,9,0.5,0.5
2025-05-08T2300,1606A,121.8297,41.1028,盘锦市,新生街道,,32,25,33,15,21,101,,129,118,15,13,8,8,0.4,0.5
2025-05-08T2300,1832A,113.3257,33.742,平顶山市,新华旅馆,颗粒物(PM10),86,122,145,41,44,72,,94,86,25,25,5,6,0.7,0.6
2025-05-08T2300,1833A,113.2919,33.737,平顶山市,规划设计院,细颗粒物(PM2.5),97,134,153,72,64,82,,96,92,15,23,4,6,1.7,0.8
2025-05-08T2300,1834A,113.182,33.774,平顶山市,平顶山工学院,细颗粒物(PM2.5),94,127,149,70,64,82,,98,97,17,20,4,5,0.7,0.7
2025-05-08T2300,3204A,113.3025,33.73,平顶山市,规划局,颗粒物(PM10),92,134,150,56,52,79,,102,90,18,18,6,8,0.7,0.6
2025-05-08T2300,3594A,112.8867,33.9116,平顶山市,石龙区,细颗粒物(PM2.5),92,102,163,68,68,47,,119,100,33,27,5,9,0.7,0.7
2025-05-08T2300,2656A,106.6692,35.5461,平凉市,聚贤嘉苑,颗粒物(PM10),500,715,187,120,38,92,,110,110,7,16,11,8,0,0.2
2025-05-08T2300,2657A,106.7021,35.5307,平凉市,博物馆,颗粒物(PM10),500,762,194,124,39,96,,120,113,5,11,8,9,0.2,0.4
2025-05-08T2300,2347A,114.0997,27.5002,萍乡市,武功山,,15,6,11,3,5,45,,72,66,7,5,17,19,0.6,0.5
2025-05-08T2300,2348A,113.8385,27.6434,萍乡市,中医院,,36,36,43,21,19,29,,65,54,15,8,12,13,1.3,1.1
2025-05-08T2300,2349A,113.8493,27.6253,萍乡市,市政府车库,,36,25,34,25,27,28,,62,49,18,14,7,10,0.8,0.9
2025-05-08T2300,2350A,113.8676,27.6435,萍乡市,市环保局,,30,30,44,16,23,29,,60,53,18,14,6,9,1.1,0.9
2025-05-08T2300,2351A,113.866,27.6198,萍乡市,安源区政府,,25,25,52,11,20,30,,61,53,17,16,6,7,0.8,0.9
2025-05-08T2300,2319A,119.0141,25.4325,莆田市,荔城区仓后路,颗粒物(PM10),65,79,43,34,19,50,,122,98,33,11,4,3,0.7,0.5
2025-05-08T2300,2320A,119.0015,25.4553,莆田市,莆田市监测站,颗粒物(PM10),57,63,36,29,18,39,,117,94,17,6,5,4,0.7,0.5
2025-05-08T2300,2321A,119.1119,25.4561,莆田市,涵江区六中,细颗粒物(PM2.5),59,66,44,42,23,60,,128,101,32,17,7,5,0.6,0.4
2025-05-08T2300,2322A,119.1013,25.3215,莆田市,秀屿区政府,,47,47,45,30,26,82,,132,113,14,9,8,5,0.6,0.5
2025-05-08T2300,2323A,118.981,25.4792,莆田市,东圳水库,,,,,,,,,,,,,,,,
2025-05-08T2300,2392A,115.0312,35.7636,濮阳市,环保局,细颗粒物(PM2.5),57,49,83,40,40,94,,140,117,14,15,7,9,0.8,0.8
2025-05-08T2300,2394A,115.0574,35.7609,濮阳市,油田运输公司,,,,112,,36,,,125,,,15,,9,,0.8
2025-05-08T2300,3021A,115,35.7668,濮阳市,濮水河管理处,"颗粒物(PM10),细颗粒物(PM2.5)",55,59,98,39,41,82,,150,124,14,13,4,7,0.8,0.8
2025-05-08T2300,4216A,115.0924,35.7686,濮阳市,任丘路479号,颗粒物(PM10),72,94,109,49,41,85,,146,120,15,13,6,9,1.0,0.9
2025-05-08T2300,2601A,100.98,22.7633,普洱市,市环保局,细颗粒物(PM2.5),105,87,56,79,31,79,,111,105,15,9,8,7,0.8,0.6
2025-05-08T2300,2602A,100.9817,22.8322,普洱市,普洱第二中学,细颗粒物(PM2.5),59,49,42,42,26,72,,121,116,22,19,8,6,0.6,0.8
2025-05-08T2300,2262A,131.0518,45.8751,七台河市,新一中,,28,20,26,18,18,89,,121,99,10,10,14,12,1.2,1.1
2025-05-08T2300,3345A,131.0577,45.7879,七台河市,中波台,,22,16,24,12,15,68,,97,79,13,18,6,6,0.4,0.4
2025-05-08T2300,3637A,131.0176,45.7761,七台河市,人民广场,,25,24,31,17,25,77,,109,88,11,15,11,10,0.6,0.6
2025-05-08T2300,3684A,130.8781,45.8222,七台河市,新建矿广场,,32,22,33,22,20,71,,102,68,17,19,14,11,0.7,0.7
2025-05-08T2300,1779A,123.9305,47.3636,齐齐哈尔市,安居小区,细颗粒物(PM2.5),68,69,49,49,27,64,,94,79,25,21,3,4,0.6,0.4
2025-05-08T2300,1780A,123.9488,47.3386,齐齐哈尔市,中心广场,颗粒物(PM10),68,86,55,44,26,75,,103,85,28,21,3,6,0.6,0.4
2025-05-08T2300,1781A,123.9483,47.3227,齐齐哈尔市,农牧车辆厂,颗粒物(PM10),59,68,48,38,25,70,,98,84,25,18,5,6,0.3,0.3
2025-05-08T2300,1783A,123.945,47.2988,齐齐哈尔市,市环境监测站,颗粒物(PM10),52,53,44,35,25,72,,98,82,18,15,3,4,0.5,0.4
2025-05-08T2300,3662A,123.6333,47.2075,齐齐哈尔市,富区青少年活动中心,细颗粒物(PM2.5),55,55,53,39,33,63,,91,73,17,16,2,2,0.6,0.5
2025-05-08T2300,2591A,107.9783,26.5747,黔东南苗族侗族自治州,市环境监测站,,28,28,28,18,19,37,,91,79,33,10,3,3,0.6,0.5
2025-05-08T2300,2881A,107.8908,26.5311,黔东南苗族侗族自治州,凯里学院,,24,24,23,15,18,51,,103,92,20,7,2,3,0.4,0.4
2025-05-08T2300,2593A,107.5228,26.2403,黔南布依族苗族自治州,小围寨,,21,17,20,7,13,66,,100,97,8,6,2,3,0.3,0.3
2025-05-08T2300,3538A,107.5175,26.2978,黔南布依族苗族自治州,沙坝,,22,22,25,9,13,54,,104,98,13,6,3,4,0.4,0.4
2025-05-08T2300,2589A,104.9022,25.0925,黔西南布依族苗族自治州,场坝街,细颗粒物(PM2.5),82,70,28,60,20,113,,90,,7,7,5,4,0.3,0.5
2025-05-08T2300,2590A,104.8811,25.0992,黔西南布依族苗族自治州,坪东大道,,43,43,35,20,19,101,,133,119,13,12,9,3,0.3,0.3
2025-05-08T2300,2502A,108.6236,21.9667,钦州市,市环保站,,25,22,27,9,10,77,,81,79,12,12,1,3,0.7,0.6
2025-05-08T2300,2503A,108.6549,21.9481,钦州市,沙埠小学,,28,23,34,19,13,72,,84,74,15,13,7,6,0.6,1.7
2025-05-08T2300,2504A,108.5989,21.7431,钦州市,港区一小,,37,37,47,14,16,76,,68,68,8,14,7,8,0.6,0.6
2025-05-08T2300,3404A,108.5959,21.9633,钦州市,北职校,,30,30,33,16,16,69,,73,70,8,14,6,7,0.6,0.6
2025-05-08T2300,1043A,119.7493,40.0116,秦皇岛市,第一关,颗粒物(PM10),62,74,66,39,35,12,,108,75,84,22,4,4,0.3,0.3
2025-05-08T2300,1044A,119.5897,39.9499,秦皇岛市,监测站,颗粒物(PM10),61,72,72,27,30,70,,110,84,27,21,4,4,0.3,0.4
2025-05-08T2300,1046A,119.5251,39.9041,秦皇岛市,建设大厦,颗粒物(PM10),64,77,70,39,33,77,,107,87,28,22,2,2,0.2,0.3
2025-05-08T2300,3132A,119.610547,39.943889,秦皇岛市,文明里,颗粒物(PM10),64,78,71,15,26,74,,107,87,29,21,3,3,0.1,0.2
2025-05-08T2300,4198A,119.5090,39.8253,秦皇岛市,北戴河轮滑馆,颗粒物(PM10),52,54,59,23,31,82,,106,93,22,15,3,4,0.2,0.3
2025-05-08T2300,1307A,120.6659,36.2403,青岛市,仰口,,37,31,31,22,19,118,,121,120,4,7,6,7,0.3,0.2
2025-05-08T2300,1310A,120.4134,36.0658,青岛市,市南区东部子站,,34,34,36,12,12,97,,113,109,8,12,6,7,0.3,0.3
2025-05-08T2300,1311A,120.3664,36.1032,青岛市,四方区子站,,36,24,35,19,13,114,,124,120,10,14,2,2,0.6,0.6
2025-05-08T2300,1312A,120.2994,36.054,青岛市,市南区西部子站,,34,34,31,12,11,102,,114,110,11,16,6,6,0.6,0.6
2025-05-08T2300,1313A,120.4581,36.0858,青岛市,崂山区子站,,36,36,32,7,8,108,,123,119,11,12,8,8,0.3,0.3
2025-05-08T2300,1315A,120.3999,36.3083,青岛市,城阳区子站,,44,44,44,17,15,118,,112,105,8,13,4,4,0.3,0.4
2025-05-08T2300,1966A,120.0405,35.8735,青岛市,黄岛区4号,,35,27,34,9,10,111,,116,113,9,10,8,8,0.6,0.6
2025-05-08T2300,3362A,120.5014,36.4034,青岛市,即墨2号,,45,45,35,17,14,102,,111,108,5,7,6,6,0.5,0.5
2025-05-08T2300,3642A,120.3503,36.0736,青岛市,市北区南部,,34,34,36,14,10,98,,110,106,6,8,6,7,0.3,0.3
2025-05-08T2300,3643A,120.3948,36.1805,青岛市,李沧区北部,,29,29,44,14,18,92,,98,96,16,18,8,8,0.5,0.5
2025-05-08T2300,4290A,120.1969,35.9546,青岛市,珠江路669号,,32,31,38,15,14,100,,106,104,11,10,6,6,0.5,0.5
2025-05-08T2300,1702A,113.0426,23.691,清远市,环保大楼,,25,22,30,17,18,29,,77,60,18,20,5,5,0.7,0.8
2025-05-08T2300,1703A,113.0208,23.7106,清远市,凤城街办,,30,30,31,13,15,23,,63,51,22,25,6,5,0.5,0.5
2025-05-08T2300,3025A,113.0477,23.6344,清远市,技师学院,,34,34,34,13,15,26,,70,53,19,21,6,6,0.4,0.4
2025-05-08T2300,3318A,112.9903,23.7403,清远市,清新太和,,28,28,28,15,16,26,,52,45,18,21,7,7,0.6,0.6
2025-05-08T2300,3455A,113.076,23.7198,清远市,清城东城,,30,30,31,9,13,29,,67,53,17,17,6,6,0.6,0.5
2025-05-08T2300,2661A,107.6325,35.7357,庆阳市,庆阳五中,,,321,120,,48,90,,108,105,4,7,2,7,0.4,0.5
2025-05-08T2300,2662A,107.6364,35.7067,庆阳市,市环保局,颗粒物(PM10),178,306,115,58,32,91,,113,109,8,6,6,9,0.5,0.5
2025-05-08T2300,1916A,103.7897,25.5035,曲靖市,环境监测站,颗粒物(PM10),52,54,31,10,10,109,,124,114,8,11,4,5,0.3,0.4
2025-05-08T2300,1917A,103.8,25.5364,曲靖市,烟厂办公区,颗粒物(PM10),51,52,30,18,12,112,,128,120,6,7,4,4,0.3,0.4
2025-05-08T2300,3376A,103.7947,25.462,曲靖市,南苑二区,,35,31,27,17,11,110,,127,118,9,9,4,4,0.4,0.4
2025-05-08T2300,3377A,103.7444,25.5261,曲靖市,曲靖师范学院,颗粒物(PM10),61,72,31,7,13,110,,125,116,5,7,5,8,0.3,0.3
2025-05-08T2300,1264A,118.8692,28.9398,衢州市,环保大楼,,37,37,75,23,35,46,,90,62,18,16,3,3,0.4,0.5
2025-05-08T2300,1265A,118.8709,28.9666,衢州市,实验学校,,26,26,64,16,34,45,,97,62,19,15,1,2,0.4,0.4
2025-05-08T2300,1266A,118.8621,28.9808,衢州市,衢州学院,,23,22,65,16,35,36,,85,54,26,19,3,3,0.4,0.4
2025-05-08T2300,1611A,118.5819,24.9117,泉州市,涂山街,颗粒物(PM10),57,64,57,23,25,56,,134,94,28,13,8,4,0.6,0.6
2025-05-08T2300,1612A,118.5972,24.8978,泉州市,津头埔,,,,55,,25,,,128,95,31,17,5,2,,0.6
2025-05-08T2300,1613A,118.6663,24.9424,泉州市,万安,颗粒物(PM10),54,58,49,23,22,54,,131,94,25,14,4,3,0.7,0.6
2025-05-08T2300,1614A,118.6117,24.9604,泉州市,清源山,,,,,,,,,,,,,,,,
2025-05-08T2300,3529A,118.6333,24.9264,泉州市,城华南路,,45,45,40,20,19,61,,124,92,19,11,5,3,0.5,0.5
2025-05-08T2300,2626A,88.8876,29.2718,日喀则市,日喀则监测站,,38,38,28,17,11,110,,130,124,10,9,7,7,0.4,0.4
2025-05-08T2300,3726A,88.8781,29.2426,日喀则市,林业技术推广中心,,36,32,30,11,10,113,,133,126,3,2,7,7,0.2,0
2025-05-08T2300,1659A,119.471,35.4209,日照市,监测站,,38,36,45,20,16,119,,114,114,10,12,6,5,0.5,0.5
2025-05-08T2300,1660A,119.523,35.4216,日照市,市政府广场,,34,34,45,10,14,105,,109,108,5,5,3,4,0.4,0.4
2025-05-08T2300,1661A,119.5587,35.4044,日照市,港务局,,40,39,44,23,21,125,,124,124,6,7,4,5,0.7,0.7
2025-05-08T2300,3507A,119.5328,35.4625,日照市,职业技术学院,,36,29,44,9,11,114,,115,114,7,5,4,4,0.5,0.5
2025-05-08T2300,3604A,119.3266,35.1044,日照市,岚山环保分局,,41,41,48,22,18,129,,118,118,12,17,4,5,0.5,0.5
2025-05-08T2300,1835A,111.1922,34.7752,三门峡市,市政府,细颗粒物(PM2.5),62,56,145,44,58,92,,116,84,12,21,4,8,1.2,0.9
2025-05-08T2300,1836A,111.1587,34.7942,三门峡市,开发区,颗粒物(PM10),72,93,176,45,74,84,,111,83,10,18,5,8,1.0,0.8
2025-05-08T2300,1838A,111.143,34.7955,三门峡市,风景区,,44,44,138,29,56,92,,109,88,9,16,8,10,0.8,0.8
2025-05-08T2300,3039A,111.1911,34.7829,三门峡市,三门峡市第一小学,细颗粒物(PM2.5),57,54,142,40,56,95,,119,91,10,18,8,9,0.9,0.8
2025-05-08T2300,3598A,111.1,34.7167,三门峡市,富达温泉假日酒店,颗粒物(PM10),110,169,189,57,65,63,,113,75,28,22,8,9,0.6,0.5
2025-05-08T2300,2324A,117.6211,26.2625,三明市,三钢,,26,26,38,15,21,6,,86,30,32,17,4,4,1.0,0.9
2025-05-08T2300,2325A,117.635,26.2714,三明市,三明二中,,,26,36,18,20,,,82,41,29,14,2,2,1.0,0.7
2025-05-08T2300,2326A,117.6028,26.2378,三明市,三元区政府,,19,14,36,13,20,27,,93,45,21,14,3,4,0.5,0.8
2025-05-08T2300,2327A,117.7275,26.3108,三明市,洋溪,,,,,,,,,,,,,,,,
2025-05-08T2300,1876A,109.5078,18.2489,三亚市,河东子站,,19,14,13,11,9,58,,52,49,1,2,4,4,0.3,0.3
2025-05-08T2300,1877A,109.4964,18.2681,三亚市,河西子站,,19,19,15,13,10,57,,54,49,5,6,1,2,0.2,0.2
2025-05-08T2300,3540A,109.7348,18.3443,三亚市,君悦子站,,16,12,13,8,5,50,,51,49,12,4,2,2,0.2,0.2
2025-05-08T2300,2624A,91.7608,29.2313,山南市,山南监测站,,,,20,,9,,,80,,,9,,4,,0.3
2025-05-08T2300,2625A,91.7706,29.2436,山南市,山南人民医院,,40,40,33,19,14,121,,142,138,6,6,5,4,0.2,0.3
2025-05-08T2300,1674A,116.6794,23.3667,汕头市,金平子站,颗粒物(PM10),57,64,52,20,23,89,,87,87,14,19,4,5,0.8,0.7
2025-05-08T2300,1675A,116.7244,23.3633,汕头市,龙湖子站,,47,47,50,23,22,84,,97,94,9,9,4,4,0.5,0.5
2025-05-08T2300,1676A,116.7258,23.2775,汕头市,濠江子站,颗粒物(PM10),59,67,47,20,19,102,,117,114,5,7,3,4,0.6,0.6
2025-05-08T2300,1677A,116.7519,23.4714,汕头市,澄海子站,,,49,52,25,24,80,,93,88,,17,2,3,0.8,0.7
2025-05-08T2300,1678A,116.6092,23.2539,汕头市,潮阳子站,颗粒物(PM10),51,51,48,17,16,101,,98,98,7,12,7,7,0.5,0.5
2025-05-08T2300,3444A,116.454,23.2684,汕头市,潮南峡山,颗粒物(PM10),60,70,58,22,22,81,,87,78,5,6,4,4,0.6,0.5
2025-05-08T2300,3624A,116.4069,23.2533,汕头市,潮南子站,颗粒物(PM10),66,82,70,30,28,75,,91,82,10,10,4,4,0.7,0.6
