timepoint,stationcode,longitude,latitude,area,positionname,primarypollutant,aqi,pm10,pm10_24h,pm2_5,pm2_5_24h,o3,o3_24h,o3_8h,o3_8h_24h,no2,no2_24h,so2,so2_24h,co,co_24h
2025-05-08T0600,2566A,102.1879,31.914,阿坝藏族羌族自治州,州农科所,,22,10,14,8,8,68,,,,2,7,10,11,0.6,0.6
2025-05-08T0600,2568A,102.2502,31.8896,阿坝藏族羌族自治州,马师校,,42,,13,29,15,62,,,,4,10,6,5,0.5,0.5
2025-05-08T0600,3994A,102.2165,31.9024,阿坝藏族羌族自治州,马尔康中学西区,,24,21,19,12,13,76,,,,1,5,5,4,0.2,0.2
2025-05-08T0600,2695A,80.292,41.1694,阿克苏地区,电视台,颗粒物(PM10),185,320,312,116,103,35,,,,20,18,2,6,0.6,0.6
2025-05-08T0600,2696A,80.2613,41.1551,阿克苏地区,艺术中心,颗粒物(PM10),200,349,340,104,100,20,,,,31,28,5,4,0.5,0.6
2025-05-08T0600,2204A,105.6467,38.8363,阿拉善盟,西城区西花园,颗粒物(PM10),51,52,160,26,56,111,,,,7,8,5,5,0.5,0.5
2025-05-08T0600,2205A,105.6985,38.8411,阿拉善盟,蒙二幼,,49,49,165,17,54,94,,,,6,7,26,11,0.5,0.4
2025-05-08T0600,2206A,105.724,38.8516,阿拉善盟,环保局新楼,颗粒物(PM10),52,53,149,15,53,107,,,,3,4,10,8,0.4,0.4
2025-05-08T0600,2708A,88.1264,47.8517,阿勒泰地区,市站,,28,6,13,6,6,87,,,,2,6,2,2,0.1,0.1
2025-05-08T0600,2630A,80.1161,32.5,阿里地区,阿里监测站,,32,21,28,10,13,100,,,,3,9,6,8,0.4,0.4
2025-05-08T0600,3192A,80.0903,32.5028,阿里地区,阿里藏医院,,35,29,33,11,13,110,,,,1,4,7,8,0.3,0.4
2025-05-08T0600,2642A,109.0318,32.6537,安康市,香溪洞,颗粒物(PM10),81,112,76,45,33,102,,,,6,7,6,9,0.3,0.3
2025-05-08T0600,2644A,109.0072,32.6975,安康市,汉滨区检察院,颗粒物(PM10),78,105,90,38,37,90,,,,8,10,8,17,0.5,0.5
2025-05-08T0600,4054A,109.0325,32.6913,安康市,市邮政管理局,颗粒物(PM10),74,98,87,36,37,95,,,,7,8,7,9,0.3,0.4
2025-05-08T0600,2291A,117.0809,30.5177,安庆市,环科院,颗粒物(PM10),90,130,225,50,77,89,,,,20,17,3,5,0.8,0.7
2025-05-08T0600,2292A,117.0331,30.5119,安庆市,马山宾馆,颗粒物(PM10),85,120,201,60,73,78,,,,20,17,6,7,1.0,0.8
2025-05-08T0600,2294A,116.9896,30.6145,安庆市,安庆大学,细颗粒物(PM2.5),97,136,194,72,69,67,,,,20,23,4,5,0.6,0.6
2025-05-08T0600,3173A,117.0598,30.5351,安庆市,市人大,颗粒物(PM10),86,122,216,51,75,95,,,,21,21,8,9,0.7,0.5
2025-05-08T0600,3122A,105.9606,26.2611,安顺市,伍家关,,38,27,22,26,18,70,,,,3,5,2,3,0.3,0.3
2025-05-08T0600,3123A,105.9408,26.2431,安顺市,凤凰山,,38,35,27,26,25,69,,,,5,6,6,7,0.6,0.5
2025-05-08T0600,3124A,105.9439,26.2564,安顺市,金钟山,,38,33,28,26,22,66,,,,4,5,4,5,0.3,0.3
2025-05-08T0600,3125A,105.8983,26.2481,安顺市,娄家坡,,38,32,25,26,22,68,,,,4,6,5,6,0.6,0.6
2025-05-08T0600,1818A,114.4839,36.0621,安阳市,棉研所,,,,,,,,,,,,,,,,
2025-05-08T0600,1819A,114.3551,36.1017,安阳市,红庙街,颗粒物(PM10),65,79,142,32,40,119,,,,1,5,4,4,0.5,0.5
2025-05-08T0600,1820A,114.361,36.0681,安阳市,银杏小区,颗粒物(PM10),64,78,143,43,53,119,,,,7,10,4,5,0.4,0.4
2025-05-08T0600,3141A,114.3922,36.0878,安阳市,信访局,颗粒物(PM10),70,90,159,47,65,120,,,,10,12,3,4,0.5,0.4
2025-05-08T0600,3669A,114.4705,36.0637,安阳市,左辅环卫站,颗粒物(PM10),67,84,124,40,54,106,,,,14,17,4,5,0.7,0.7
2025-05-08T0600,3703A,114.2917,36.0949,安阳市,安钢职工学校,颗粒物(PM10),74,97,157,39,46,110,,,,11,12,4,4,0.6,0.5
2025-05-08T0600,1748A,123.044,41.1196,鞍山市,深沟寺,,35,35,33,20,19,105,,,,7,12,6,8,0.5,0.7
2025-05-08T0600,1749A,123.011,41.0931,鞍山市,太阳城,,32,30,27,18,17,100,,,,6,11,5,8,0.6,0.7
2025-05-08T0600,1750A,123.0485,41.1442,鞍山市,太平,,39,39,35,21,19,95,,,,8,12,7,10,0.5,0.7
2025-05-08T0600,1751A,122.9642,41.0971,鞍山市,铁西三道街,,38,38,39,21,20,102,,,,14,18,3,6,0.5,0.7
2025-05-08T0600,1753A,123.022,41.0821,鞍山市,明达新区,,35,29,28,14,16,111,,,,5,10,6,8,0.2,0.4
2025-05-08T0600,1754A,123.1289,41.0228,鞍山市,千山,,,,23,,11,,,95,,,8,,5,,0.6
2025-05-08T0600,4201A,122.9446,41.0826,鞍山市,兴盛南路290号,,42,42,37,17,20,97,,,,19,20,8,10,0.8,0.8
2025-05-08T0600,2195A,107.4212,40.761,巴彦淖尔市,附二中,颗粒物(PM10),59,68,238,35,67,78,,,,7,6,9,15,0.3,0.3
2025-05-08T0600,2196A,107.37,40.7372,巴彦淖尔市,市环保大楼,,,,187,,64,,,89,,,8,,4,,0.3
2025-05-08T0600,1956A,86.1472,41.7538,巴音郭楞蒙古自治州,孔雀公园,颗粒物(PM10),500,3233,761,441,114,77,,,,25,28,6,7,0.2,0.3
2025-05-08T0600,1957A,86.1972,41.7166,巴音郭楞蒙古自治州,棉纺厂,颗粒物(PM10),500,3833,540,477,154,97,,,,3,20,2,3,0.2,0.3
2025-05-08T0600,1958A,86.2357,41.7173,巴音郭楞蒙古自治州,经济开发区,颗粒物(PM10),500,1794,654,286,134,96,,,,2,12,7,8,0.3,0.2
2025-05-08T0600,2914A,106.7677,31.8794,巴中市,苏山坪,,29,25,45,20,28,73,,,,5,9,3,3,0.3,0.3
2025-05-08T0600,3181A,106.7768,31.8526,巴中市,市五中,,45,38,51,31,34,46,,,,7,13,6,6,0.5,0.5
2025-05-08T0600,3183A,106.7418,31.8654,巴中市,圣泉水务公司,,30,28,45,21,30,69,,,,7,12,7,7,0.4,0.5
2025-05-08T0600,3616A,106.7616,31.8344,巴中市,市中心医院,,38,38,48,26,32,38,,,,10,12,4,5,0.6,0.6
2025-05-08T0600,2235A,122.7911,45.6077,白城市,洮北区环保局,,39,39,42,26,26,92,,,,9,10,2,5,0.4,0.4
2025-05-08T0600,2236A,122.8738,45.5725,白城市,市环保局,,43,31,45,30,29,74,,,,9,7,2,3,0.4,0.4
2025-05-08T0600,2231A,126.4219,41.9171,白山市,喜丰,颗粒物(PM10),62,73,56,24,22,19,,,,32,30,9,8,0.6,0.6
2025-05-08T0600,2232A,126.4077,41.9419,白山市,环保局,,27,27,31,14,17,24,,,,17,16,10,4,0.3,0.4
2025-05-08T0600,2647A,104.1724,36.5446,白银市,第三小学,,31,31,111,16,44,79,,,,9,7,8,19,0.6,0.5
2025-05-08T0600,2648A,104.1465,36.5482,白银市,动力公司,,25,25,103,16,42,70,,,,11,9,9,20,0.4,0.4
2025-05-08T0600,2512A,106.6103,23.9011,百色市,市监测站,,44,44,40,30,23,38,,,,15,13,15,7,0.8,0.7
2025-05-08T0600,2513A,106.6538,23.8859,百色市,市中心血站,细颗粒物(PM2.5),54,53,50,38,29,47,,,,12,13,20,11,1.0,1
2025-05-08T0600,3406A,106.6085,23.8798,百色市,祈福高中,细颗粒物(PM2.5),57,51,50,40,26,28,,,,23,18,18,8,0.7,0.7
2025-05-08T0600,2270A,117.396,32.939,蚌埠市,工人疗养院,颗粒物(PM10),72,94,112,37,39,85,,,,26,18,14,9,0.8,0.7
2025-05-08T0600,2271A,117.3605,32.9427,蚌埠市,百货大楼,颗粒物(PM10),73,95,111,38,40,93,,,,10,14,9,7,0.4,0.4
2025-05-08T0600,2273A,117.4185,32.8911,蚌埠市,蚌埠学院,颗粒物(PM10),68,85,104,38,39,92,,,,14,14,4,5,0.7,0.6
2025-05-08T0600,2274A,117.3533,32.9673,蚌埠市,淮上区政府,颗粒物(PM10),71,92,104,45,45,85,,,,26,20,6,7,0.5,0.4
2025-05-08T0600,2275A,117.3145,32.8977,蚌埠市,高新区,颗粒物(PM10),74,97,104,45,44,98,,,,16,15,6,6,0.5,0.4
2025-05-08T0600,3715A,117.3092,32.9314,蚌埠市,蚌埠田家炳中学,颗粒物(PM10),77,103,112,34,41,103,,,,11,15,6,6,0.4,0.4
2025-05-08T0600,1585A,109.8756,40.6532,包头市,市环境监测站,颗粒物(PM10),120,190,123,54,41,104,,,,5,24,7,16,0.4,0.8
2025-05-08T0600,1587A,109.9991,40.5842,包头市,包头八中,颗粒物(PM10),100,149,118,58,47,99,,,,8,24,10,14,0.5,0.6
2025-05-08T0600,1588A,109.8538,40.6821,包头市,青山宾馆,颗粒物(PM10),111,172,115,62,48,103,,,,4,25,10,16,0.3,0.7
2025-05-08T0600,1589A,109.8642,40.6288,包头市,惠龙物流,颗粒物(PM10),124,197,117,51,32,104,,,,6,19,9,19,0.2,0.5
2025-05-08T0600,1590A,110.0377,40.5546,包头市,东河鸿龙湾,颗粒物(PM10),86,121,98,42,26,93,,,,8,19,8,11,0.3,0.5
2025-05-08T0600,3283A,109.9154,40.5685,包头市,滨河大厦,颗粒物(PM10),93,135,101,44,34,91,,,,14,22,6,9,0.4,0.5
2025-05-08T0600,3419A,109.9447,40.6261,包头市,包头市委党校,颗粒物(PM10),109,168,126,59,43,103,,,,3,19,7,12,0.3,0.5
2025-05-08T0600,3683A,109.8331,40.6576,包头市,昆区政府,颗粒物(PM10),119,187,129,52,49,104,,,,6,26,8,18,0.6,1
2025-05-08T0600,1930A,107.185,34.3063,宝鸡市,庙沟村,,39,,101,27,45,70,,,,9,10,7,8,0.6,0.6
2025-05-08T0600,1931A,107.0708,34.3017,宝鸡市,竹园沟,,39,31,101,27,44,44,,,,11,12,4,4,0.3,0.3
2025-05-08T0600,1932A,107.1906,34.3672,宝鸡市,三陆医院,,39,38,120,27,55,24,,,,29,26,7,8,0.4,0.4
2025-05-08T0600,1933A,107.1431,34.3547,宝鸡市,监测站,,42,42,131,6,97,30,,,,16,17,5,5,0.4,0.4
2025-05-08T0600,1934A,107.1186,34.3739,宝鸡市,技工学校,,24,24,124,16,56,38,,,,7,12,8,9,0.6,0.6
2025-05-08T0600,1935A,107.3906,34.3528,宝鸡市,陈仓区环保局家属楼,颗粒物(PM10),52,54,137,34,58,36,,,,20,16,28,19,0.7,0.6
2025-05-08T0600,1936A,107.2058,34.3497,宝鸡市,文理学院,,35,35,117,11,58,36,,,,17,17,7,7,0.4,0.4
2025-05-08T0600,1937A,107.2386,34.3622,宝鸡市,三迪小学,,39,39,149,27,68,29,,,,20,21,8,7,0.3,0.4
2025-05-08T0600,1051A,115.493,38.8632,保定市,游泳馆,颗粒物(PM10),95,140,132,62,58,7,,,,49,32,5,8,0.4,0.4
2025-05-08T0600,1052A,115.5213,38.8959,保定市,华电二区,,,99,102,47,49,,,,,45,25,10,4,0.4,0.4
2025-05-08T0600,1053A,115.4713,38.9108,保定市,接待中心,颗粒物(PM10),86,121,106,63,58,7,,,,42,22,2,4,0.8,0.8
2025-05-08T0600,1054A,115.4612,38.8416,保定市,地表水厂,颗粒物(PM10),91,132,129,49,51,12,,,,45,33,5,6,0.6,0.5
2025-05-08T0600,3581A,115.31981,38.95208,保定市,满城区生态环境分局,颗粒物(PM10),104,158,119,58,56,2,,,,47,23,5,6,0.5,0.5
2025-05-08T0600,3582A,115.47694,38.76408,保定市,清苑区第二中学,细颗粒物(PM2.5),109,156,135,82,59,,,,,41,26,6,7,0.8,0.5
2025-05-08T0600,3583A,115.62909,39.02311,保定市,徐水物探局,颗粒物(PM10),87,124,120,48,49,0,,,,45,22,3,3,0.7,0.7
2025-05-08T0600,4004A,115.4202,38.8656,保定市,双鹰农机,,,110,113,51,53,6,,,,40,25,,4,0.5,0.5
2025-05-08T0600,4034A,115.5150,38.8590,保定市,植保所站,颗粒物(PM10),84,118,109,52,49,0,,,,47,32,3,2,0.8,0.8
2025-05-08T0600,2594A,99.1678,25.1081,保山市,市环境监测站,,28,28,25,18,22,62,,,,5,7,4,4,0.5,0.6
2025-05-08T0600,2595A,99.1711,25.1328,保山市,市环保局,,42,31,29,29,19,78,,,,3,5,5,5,0.4,0.4
2025-05-08T0600,1866A,109.2262,21.588,北海市,牛尾岭水库,,,,24,,16,,,70,,,,,11,,0.7
2025-05-08T0600,1867A,109.1436,21.4086,北海市,海滩公园,,24,24,35,3,13,38,,,,6,8,5,6,0.5,0.6
2025-05-08T0600,1868A,109.0981,21.4661,北海市,新市环保局,,18,18,29,3,14,38,,,,7,10,3,5,0.4,0.5
2025-05-08T0600,1869A,109.1778,21.5233,北海市,北海工业园,,19,19,35,7,19,31,,,,8,13,7,10,0.3,0.4
2025-05-08T0600,3400A,109.1911,21.4415,北海市,龙潭自来水厂,,16,16,30,11,20,36,,,,5,8,7,9,0.3,0.4
2025-05-08T0600,1001A,116.3621,39.8784,北京市,万寿西宫,细颗粒物(PM2.5),129,182,112,98,48,15,,,,54,24,3,4,0.7,0.6
2025-05-08T0600,1002A,116.2202,40.2915,北京市,定陵,,,,,,,,,,,,,,,,
2025-05-08T0600,1003A,116.4174,39.9289,北京市,东四,细颗粒物(PM2.5),122,174,152,92,50,17,,,,55,26,4,5,0.9,0.6
2025-05-08T0600,1004A,116.4072,39.8863,北京市,天坛,细颗粒物(PM2.5),128,166,103,97,47,25,,,,40,19,3,4,1.0,0.8
2025-05-08T0600,1005A,116.462,39.9365,北京市,农展馆,细颗粒物(PM2.5),115,138,114,87,52,3,,,,55,26,3,4,1.1,0.8
2025-05-08T0600,1006A,116.3392,39.9295,北京市,官园,细颗粒物(PM2.5),123,169,113,93,47,20,,,,50,22,4,6,0.8,0.6
2025-05-08T0600,1007A,116.2878,39.9611,北京市,海淀万柳,细颗粒物(PM2.5),118,167,116,89,45,18,,,,43,21,5,6,0.6,0.5
2025-05-08T0600,1008A,116.6636,40.135,北京市,顺义新城,细颗粒物(PM2.5),112,137,93,84,53,36,,,,34,17,8,7,0.8,0.6
2025-05-08T0600,1009A,116.6275,40.3275,北京市,怀柔镇,细颗粒物(PM2.5),92,99,82,68,50,54,,,,13,15,3,4,0.7,0.7
2025-05-08T0600,1010A,116.2296,40.217,北京市,昌平镇,细颗粒物(PM2.5),98,125,103,73,52,0,,,,75,18,3,3,0.5,0.5
2025-05-08T0600,1011A,116.3966,39.9821,北京市,奥体中心,细颗粒物(PM2.5),123,151,110,93,48,20,,,,52,26,3,4,0.5,0.3
2025-05-08T0600,3281A,115.9718,40.4529,北京市,延庆夏都,颗粒物(PM10),94,137,102,66,51,66,,,,13,14,3,4,0.6,0.5
2025-05-08T0600,3418A,116.8336,40.4095,北京市,密云新城,细颗粒物(PM2.5),73,91,82,53,44,39,,,,18,14,4,5,0.7,0.6
2025-05-08T0600,3671A,116.088,39.9726,北京市,门头沟三家店,,,,,,,,,,,,,,,,
2025-05-08T0600,3672A,116.1541,39.8204,北京市,丰台云岗,颗粒物(PM10),105,160,119,54,45,9,,,,48,23,4,5,0.5,0.5
2025-05-08T0600,3673A,116.6804,39.9081,北京市,通州东关,细颗粒物(PM2.5),119,138,108,90,58,29,,,,31,17,6,7,1.0,0.7
2025-05-08T0600,3674A,115.9577,39.7603,北京市,房山燕山,颗粒物(PM10),93,136,107,64,49,34,,,,18,18,1,1,0.5,0.5
2025-05-08T0600,3675A,116.4672,39.7733,北京市,大兴旧宫,细颗粒物(PM2.5),125,173,137,95,44,13,,,,44,20,1,2,0.7,0.5
2025-05-08T0600,3694A,115.986,40.4563,北京市,延庆石河营,颗粒物(PM10),90,130,94,65,47,55,,,,15,15,2,2,0.6,0.6
2025-05-08T0600,3695A,116.6151,40.3053,北京市,怀柔新城,细颗粒物(PM2.5),94,94,83,70,50,62,,,,11,14,2,3,0.8,0.7
2025-05-08T0600,3696A,116.2545,39.8768,北京市,丰台小屯,细颗粒物(PM2.5),132,166,87,100,43,2,,,,68,26,2,3,0.7,0.5
2025-05-08T0600,3697A,116.84,40.3844,北京市,密云镇,细颗粒物(PM2.5),78,93,84,57,50,29,,,,36,18,5,6,0.7,0.6
2025-05-08T0600,4182A,116.1942,39.9158,北京市,八角北路9号,颗粒物(PM10),112,173,125,78,46,8,,,,67,29,5,5,0.7,0.5
2025-05-08T0600,4194A,117.0790,40.1518,北京市,洳河巡河路,细颗粒物(PM2.5),108,102,83,81,55,79,,,,15,13,5,4,0.7,0.5
2025-05-08T0600,1761A,123.8275,41.3064,本溪市,大峪,,43,43,38,21,18,114,,,,6,10,6,7,0.5,0.7
2025-05-08T0600,1762A,123.7567,41.3325,本溪市,溪湖,,40,40,45,24,22,108,,,,11,16,4,6,0.6,0.9
2025-05-08T0600,1763A,123.7169,41.3094,本溪市,彩屯,颗粒物(PM10),55,60,49,31,26,86,,,,28,27,18,19,2.2,1.9
2025-05-08T0600,1764A,123.7669,41.2864,本溪市,东明,,37,28,42,14,20,118,,,,6,14,7,9,0.7,0.9
2025-05-08T0600,1765A,123.7992,41.2664,本溪市,新立屯,,38,35,30,26,17,116,,,,10,14,5,6,0.5,0.6
2025-05-08T0600,1766A,123.8142,41.3472,本溪市,威宁,,43,43,41,20,18,101,,,,5,8,4,5,0.5,0.7
2025-05-08T0600,2587A,105.2864,27.3125,毕节市,八中,,25,6,40,3,28,77,,,,4,10,4,7,0.5,0.6
2025-05-08T0600,2588A,105.31,27.2944,毕节市,师专,,25,6,40,3,27,78,,,,6,13,3,9,0.5,0.6
2025-05-08T0600,4263A,105.3688,27.3598,毕节市,工业大道,,25,6,32,3,25,80,,,,8,12,6,7,0.6,0.7
2025-05-08T0600,1629A,118.0018,37.3617,滨州市,第二水厂,颗粒物(PM10),69,88,94,36,47,70,,,,35,35,8,11,0.8,0.9
2025-05-08T0600,1630A,117.9776,37.393,滨州市,北中新校,颗粒物(PM10),65,80,83,41,43,70,,,,34,34,11,12,0.7,0.8
2025-05-08T0600,3514A,117.9378,37.3956,滨州市,中海酒店,颗粒物(PM10),60,70,68,36,43,100,,,,16,25,10,10,0.8,0.9
2025-05-08T0600,3515A,117.9378,37.3553,滨州市,开发区一中,颗粒物(PM10),65,80,90,36,40,70,,,,30,38,6,9,0.8,0.9
2025-05-08T0600,3516A,118.0917,37.694,滨州市,金海六路,,,,63,,37,,,84,,,21,,8,,0.4
2025-05-08T0600,4028A,117.9956,37.3753,滨州市,滨州市西街道办事处,颗粒物(PM10),65,80,85,41,54,72,,,,33,31,6,8,0.7,0.8
2025-05-08T0600,2311A,115.8072,33.8399,亳州市,污水处理厂,颗粒物(PM10),73,96,98,34,33,94,,,,16,13,3,3,0.5,0.4
2025-05-08T0600,2312A,115.7789,33.8518,亳州市,三国揽胜宫,颗粒物(PM10),74,98,105,41,33,101,,,,13,10,5,5,0.6,0.4
2025-05-08T0600,3332A,115.7633,33.8034,亳州市,亳州学院,颗粒物(PM10),79,107,102,46,30,98,,,,16,13,2,3,0.8,0.6
2025-05-08T0600,2693A,82.0485,44.8556,博尔塔拉蒙古自治州,市党校,,43,43,44,3,14,53,,,,10,10,5,4,0.6,0.6
2025-05-08T0600,2694A,82.0806,44.8969,博尔塔拉蒙古自治州,市环保局,,24,24,44,8,18,51,,,,11,11,3,2,0.8,0.7
2025-05-08T0600,1071A,116.8842,38.2991,沧州市,沧县城建局,细颗粒物(PM2.5),73,94,85,53,42,56,,,,33,30,7,5,0.6,0.6
2025-05-08T0600,1072A,116.8584,38.3254,沧州市,电视转播站,细颗粒物(PM2.5),79,97,93,58,55,62,,,,28,27,8,6,0.6,0.6
2025-05-08T0600,1073A,116.8709,38.3228,沧州市,市环保局,颗粒物(PM10),77,103,94,54,48,72,,,,25,26,16,14,0.6,0.6
2025-05-08T0600,3324A,116.8136,38.3004,沧州市,河北水利电力学院,颗粒物(PM10),70,90,83,45,41,68,,,,29,26,8,9,0.5,0.5
2025-05-08T0600,2622A,97.1806,31.1273,昌都市,昌都监测站,,15,9,10,9,8,46,,,,2,6,4,4,0.3,0.3
2025-05-08T0600,3719A,97.1714,31.1406,昌都市,昌都会议中心,,16,13,12,10,8,51,,,,3,5,4,3,0.2,0.2
2025-05-08T0600,2690A,88.1236,43.8886,昌吉回族自治州,天山天池,,21,6,14,3,6,65,,,,4,4,5,5,0.4,0.5
2025-05-08T0600,2692A,87.2717,44.0297,昌吉回族自治州,新区政务中心,颗粒物(PM10),53,55,68,19,19,21,,,,32,13,7,9,0.5,0.3
2025-05-08T0600,3613A,87.3095,44.0142,昌吉回族自治州,亚心广场,,48,48,79,14,17,32,,,,40,19,8,8,0.5,0.3
2025-05-08T0600,1119A,125.3325,43.9166,长春市,食品厂,,46,46,50,32,29,56,,,,36,27,5,6,0.6,0.5
2025-05-08T0600,1120A,125.2863,43.9027,长春市,客车厂,细颗粒物(PM2.5),52,46,48,36,31,31,,,,52,29,5,6,0.5,0.5
2025-05-08T0600,1121A,125.2841,43.8463,长春市,邮电学院,,50,45,45,35,30,37,,,,20,20,5,7,0.5,0.4
2025-05-08T0600,1122A,125.3716,43.8772,长春市,劳动公园,,42,36,46,29,32,71,,,,21,18,7,8,0.5,0.4
2025-05-08T0600,1123A,125.3297,43.8805,长春市,园林处,,41,41,35,26,29,66,,,,28,17,6,7,0.6,0.5
2025-05-08T0600,1124A,125.4605,43.79,长春市,净月潭,,43,43,42,27,26,66,,,,8,11,6,7,0.5,0.4
2025-05-08T0600,1125A,125.7194,43.515,长春市,甩湾子,,,,,,,,,,,,,,,,
2025-05-08T0600,1126A,125.3863,43.8447,长春市,经开区环卫处,,47,47,57,23,24,66,,,,26,21,6,7,0.6,0.5
2025-05-08T0600,1127A,125.245,43.7783,长春市,高新区管委会,,41,41,42,26,30,79,,,,18,21,5,7,0.4,0.4
2025-05-08T0600,1128A,125.1761,43.8325,长春市,岱山公园,,32,31,45,22,30,86,,,,20,29,5,6,0.4,0.4
2025-05-08T0600,1335A,113.0833,28.2325,长沙市,经开区环保局,颗粒物(PM10),60,69,80,31,32,64,,,,14,21,6,6,0.6,0.6
2025-05-08T0600,1336A,112.8872,28.2189,长沙市,高开区环保局,颗粒物(PM10),53,55,76,25,32,68,,,,6,9,8,6,0.5,0.5
2025-05-08T0600,1337A,113.0792,28.2053,长沙市,马坡岭,颗粒物(PM10),56,62,71,28,31,70,,,,12,18,5,4,0.7,0.6
2025-05-08T0600,1338A,112.9394,28.19,长沙市,湖南师范大学,,50,50,72,22,29,64,,,,9,12,3,2,0.4,0.5
2025-05-08T0600,1339A,113.0178,28.1322,长沙市,雨花区环保局,,50,50,68,25,31,68,,,,9,11,7,5,0.7,0.6
2025-05-08T0600,1340A,112.9792,28.2597,长沙市,伍家岭,颗粒物(PM10),59,68,84,20,29,66,,,,10,17,5,4,0.5,0.6
2025-05-08T0600,1341A,113.0014,28.1944,长沙市,火车新站,颗粒物(PM10),57,64,78,29,35,62,,,,11,16,9,7,0.6,0.6
2025-05-08T0600,1342A,112.9844,28.1178,长沙市,天心区环保局,颗粒物(PM10),52,53,67,35,36,55,,,,16,14,8,9,0.5,0.7
2025-05-08T0600,1343A,112.8908,28.1308,长沙市,湖南中医药大学,颗粒物(PM10),51,51,71,22,38,56,,,,8,15,5,3,0.6,0.6
2025-05-08T0600,1344A,112.9581,28.3611,长沙市,沙坪,颗粒物(PM10),54,58,70,30,34,49,,,,14,12,3,3,0.6,0.6
2025-05-08T0600,1727A,113.1147,36.1547,长治市,清华站,颗粒物(PM10),101,152,151,44,49,107,,,,16,15,7,9,1.0,0.9
2025-05-08T0600,1730A,113.0886,36.2125,长治市,审计局,颗粒物(PM10),93,136,139,63,56,89,,,,25,19,9,12,1.4,0.9
2025-05-08T0600,1731A,113.0844,36.1856,长治市,长治八中,颗粒物(PM10),107,164,174,59,59,98,,,,16,18,11,10,1.3,0.8
2025-05-08T0600,2845A,113.1569,36.1911,长治市,德盛苑,颗粒物(PM10),97,143,150,56,60,86,,,,13,13,5,8,0.7,0.8
2025-05-08T0600,3568A,113.06,36.0464,长治市,向阳小学,颗粒物(PM10),118,186,194,57,59,66,,,,27,18,10,11,1.3,0.6
2025-05-08T0600,3569A,112.8792,36.3144,长治市,屯留一中,颗粒物(PM10),74,97,127,51,47,47,,,,34,23,14,15,0.7,0.8
2025-05-08T0600,4189A,113.1131,36.19948,长治市,英华南巷50号,颗粒物(PM10),103,156,161,58,54,92,,,,15,15,8,9,1.3,0.9
2025-05-08T0600,4190A,113.2367,36.3344,长治市,学府街1号,颗粒物(PM10),102,154,147,58,52,64,,,,35,25,6,7,1.4,0.7
2025-05-08T0600,1854A,111.6975,28.9703,常德市,市二中,,50,50,118,35,55,48,,,,10,16,6,10,1.0,0.8
2025-05-08T0600,1857A,111.7158,29.1456,常德市,白鹤山,,,,,,,,,,,,,,,,
2025-05-08T0600,3138A,111.7153,29.0289,常德市,武陵区永安,,49,49,156,34,60,54,,,,8,10,8,11,0.8,0.7
2025-05-08T0600,3139A,111.6892,28.9881,常德市,鼎城区玉霞,颗粒物(PM10),51,52,129,31,54,52,,,,5,12,5,9,0.9,0.8
2025-05-08T0600,3140A,111.6625,29.0531,常德市,武陵区长庚,,46,45,142,32,59,63,,,,7,12,7,10,0.9,0.8
2025-05-08T0600,1196A,119.9633,31.762,常州市,市监测站,颗粒物(PM10),72,93,97,26,32,77,,,,26,23,11,11,0.8,0.9
2025-05-08T0600,1200A,119.9468,31.7069,常州市,武进监测站,颗粒物(PM10),71,92,105,15,30,78,,,,28,25,13,12,0.6,0.7
2025-05-08T0600,1201A,119.9255,31.9087,常州市,安家,颗粒物(PM10),68,85,99,24,34,76,,,,22,22,10,11,0.1,0.3
2025-05-08T0600,3002A,119.9805,31.8174,常州市,行政中心,颗粒物(PM10),64,78,114,24,33,75,,,,26,24,17,17,0.3,0.5
2025-05-08T0600,3003A,120.0522,31.7748,常州市,经开区,颗粒物(PM10),64,78,102,23,29,75,,,,31,28,11,12,0.5,0.6
2025-05-08T0600,3010A,119.9025,31.7964,常州市,钟楼,颗粒物(PM10),67,84,95,23,33,83,,,,21,19,8,8,0.8,0.6
2025-05-08T0600,3429A,119.8598,31.7066,常州市,武进经发区,颗粒物(PM10),69,87,103,30,40,82,,,,19,18,9,10,0.6,0.6
2025-05-08T0600,3430A,119.5826,31.7245,常州市,金坛城区,颗粒物(PM10),74,98,104,28,34,91,,,,14,13,10,9,0.5,0.6
2025-05-08T0600,2220A,120.4318,41.5881,朝阳市,西梁,,,60,48,,27,94,,,,16,15,6,7,0.5,0.6
2025-05-08T0600,2221A,120.4521,41.5646,朝阳市,河畔小区,细颗粒物(PM2.5),73,,45,53,27,110,,,,9,10,7,8,0.6,0.5
2025-05-08T0600,2222A,120.4176,41.5648,朝阳市,八里堡,细颗粒物(PM2.5),68,57,54,49,26,95,,,,16,14,6,7,0.6,0.6
2025-05-08T0600,2223A,120.3806,41.5969,朝阳市,农业园区,细颗粒物(PM2.5),85,,47,63,32,77,,,,20,14,8,8,0.6,0.6
2025-05-08T0600,1705A,116.6367,23.6719,潮州市,西园路,,47,47,27,21,14,31,,,,14,9,3,4,0.3,0.4
2025-05-08T0600,3026A,116.6183,23.6608,潮州市,市政府,颗粒物(PM10),52,54,35,20,16,65,,,,9,11,13,18,0.5,0.6
2025-05-08T0600,4036A,116.6461,23.6761,潮州市,金山,,38,38,29,18,10,30,,,,15,12,6,6,0.6,0.6
2025-05-08T0600,2472A,113.0073,25.9061,郴州市,马头岭,,30,28,83,21,39,21,,,,8,17,7,20,0.3,0.7
2025-05-08T0600,2473A,113.0116,25.8226,郴州市,市职中,,41,41,77,28,56,19,,,,12,14,6,11,0.7,0.9
2025-05-08T0600,2475A,113.0383,25.8071,郴州市,市审计局,,29,29,72,14,50,28,,,,8,13,4,10,0.5,0.8
2025-05-08T0600,2476A,113.0348,25.7759,郴州市,市环保局,,38,38,79,6,44,26,,,,8,14,8,12,0.5,0.8
2025-05-08T0600,4252A,113.0138,25.8011,郴州市,好美居路49号,,33,33,77,22,48,31,,,,7,13,6,12,0.5,0.9
2025-05-08T0600,1431A,103.9728,30.7236,成都市,金泉两河,,38,,36,26,17,26,,,,16,15,2,3,0.7,0.7
2025-05-08T0600,1432A,104.176,30.6872,成都市,十里店,,43,41,36,30,20,63,,,,9,13,3,4,0.4,0.5
2025-05-08T0600,1433A,104.079,30.5706,成都市,三瓦窑,,43,36,34,30,22,36,,,,35,24,4,5,0.6,0.6
2025-05-08T0600,1434A,104.1114,30.63,成都市,沙河铺,,39,39,37,21,17,39,,,,10,15,6,7,0.6,0.6
2025-05-08T0600,1437A,104.0786,30.6531,成都市,君平街,,32,32,39,21,23,35,,,,22,22,6,7,0.6,0.6
2025-05-08T0600,1438A,103.613,31.0283,成都市,灵岩寺,,,,,,,,,,,,,,,,
2025-05-08T0600,2880A,104.0239,30.65639,成都市,大石西路,,41,41,42,22,25,47,,,,13,22,4,5,0.6,0.6
2025-05-08T0600,3136A,104.2725,30.5589,成都市,龙泉驿区区政府,,35,29,24,24,16,35,,,,17,13,4,4,0.5,0.4
2025-05-08T0600,3357A,104.0106,30.6931,成都市,金博路,,32,27,32,22,15,30,,,,20,18,7,8,0.4,0.5
2025-05-08T0600,3359A,104.0578,30.5225,成都市,华阳,,35,31,32,24,28,28,,,,20,19,6,6,0.7,0.6
2025-05-08T0600,3488A,104.3853,30.7453,成都市,青白江技师分院,,46,46,37,32,24,33,,,,32,21,2,3,0.5,0.4
2025-05-08T0600,3489A,104.0789,30.4072,成都市,科学城,,48,42,34,33,24,34,,,,22,14,4,4,0.5,0.5
2025-05-08T0600,4011A,103.8506,30.6947,成都市,光华大道三段,,39,28,37,27,22,41,,,,12,15,3,2,0.6,0.6
2025-05-08T0600,4224A,104.2433,30.5353,成都市,鲸龙路1057号,细颗粒物(PM2.5),54,46,37,38,26,64,,,,18,17,4,5,0.7,0.6
2025-05-08T0600,1062A,117.9531,40.9081,承德市,铁路,颗粒物(PM10),74,98,75,52,38,68,,,,24,17,2,2,0.7,0.5
2025-05-08T0600,1063A,117.9392,40.9763,承德市,中国银行,颗粒物(PM10),67,84,66,37,32,42,,,,19,11,3,2,0.5,0.5
2025-05-08T0600,1064A,117.9503,40.928,承德市,开发区,细颗粒物(PM2.5),69,82,67,50,37,64,,,,17,16,5,5,0.7,0.5
2025-05-08T0600,1065A,117.8051,40.9655,承德市,文化中心,颗粒物(PM10),83,115,78,52,36,58,,,,22,14,4,6,0.5,0.5
2025-05-08T0600,1066A,117.9268,41.0026,承德市,离宫,细颗粒物(PM2.5),83,85,65,61,46,44,,,,14,12,3,2,0.5,0.4
2025-05-08T0600,2314A,117.47,30.6618,池州市,池州学院,颗粒物(PM10),87,124,216,49,72,87,,,,16,16,5,6,1.0,0.6
2025-05-08T0600,3237A,117.4918,30.6617,池州市,展览馆,颗粒物(PM10),89,127,209,44,59,87,,,,14,14,4,6,1.0,0.7
2025-05-08T0600,3333A,117.5627,30.695,池州市,第八中学,颗粒物(PM10),88,125,209,47,67,83,,,,15,13,5,6,1.2,0.6
2025-05-08T0600,3334A,117.5038,30.6243,池州市,第十二中学,颗粒物(PM10),85,120,209,55,69,76,,,,18,21,3,4,1.0,0.7
2025-05-08T0600,1744A,118.9233,42.2816,赤峰市,松山一中,颗粒物(PM10),74,97,50,41,21,106,,,,14,19,8,8,0.6,0.5
2025-05-08T0600,1745A,118.9576,42.2728,赤峰市,哈达街,颗粒物(PM10),71,92,54,41,29,106,,,,14,19,14,13,0.6,0.5
2025-05-08T0600,1746A,118.8788,42.2554,赤峰市,天义路,细颗粒物(PM2.5),74,80,41,54,28,112,,,,12,13,7,7,0.5,0.4
2025-05-08T0600,3058A,119.2658,42.0353,赤峰市,银河街,颗粒物(PM10),73,96,62,46,31,87,,,,12,13,18,18,0.8,0.7
2025-05-08T0600,3286A,118.9359,42.3147,赤峰市,桥北物流园区,细颗粒物(PM2.5),79,96,47,58,31,106,,,,13,15,7,8,0.6,0.4
2025-05-08T0600,2521A,107.3476,22.4136,崇左市,市环保局江州分局,颗粒物(PM10),57,63,47,37,32,34,,,,14,8,5,6,0.5,0.5
2025-05-08T0600,4256A,107.3750,22.3736,崇左市,石景林东路7号,,40,28,42,28,34,31,,,,19,10,2,3,0.5,0.5
2025-05-08T0600,2298A,118.3093,32.3153,滁州市,老年大学,颗粒物(PM10),63,75,94,38,39,85,,,,28,15,5,3,0.8,0.4
2025-05-08T0600,2299A,118.3244,32.2786,滁州市,人大宾馆,颗粒物(PM10),66,82,97,36,42,79,,,,23,18,10,9,0.6,0.4
2025-05-08T0600,3207A,118.3118,32.3038,滁州市,市政府原办公楼,颗粒物(PM10),61,71,88,37,39,95,,,,17,13,8,5,0.7,0.3
2025-05-08T0600,3331A,118.3267,32.2634,滁州市,图书馆,颗粒物(PM10),69,87,104,34,42,77,,,,18,12,9,8,0.7,0.4
2025-05-08T0600,2605A,101.5482,25.0441,楚雄彝族自治州,州环境监测站,,34,18,18,14,13,107,,,,6,7,6,6,0.3,0.4
2025-05-08T0600,2606A,101.538,25.0492,楚雄彝族自治州,市经济开发区,,33,15,20,12,13,105,,,,4,7,6,6,0.4,0.5
2025-05-08T0600,2548A,107.5277,31.2827,达州市,达州职业技术学院,,21,21,46,7,18,48,,,,9,12,5,6,0.4,0.5
2025-05-08T0600,2549A,107.5086,31.2186,达州市,市环境监测站,,25,25,48,7,15,57,,,,11,18,4,5,0.2,0.3
2025-05-08T0600,2550A,107.4988,31.2132,达州市,凤凰小区,,19,12,44,9,17,58,,,,10,14,6,6,0.3,0.3
2025-05-08T0600,2551A,107.5082,31.1986,达州市,达县机关宾馆,,16,14,44,7,13,50,,,,10,16,4,5,0.3,0.3
2025-05-08T0600,2552A,107.4644,31.2124,达州市,市政中心,,23,23,51,7,15,62,,,,5,13,1,2,0.2,0.3
2025-05-08T0600,2614A,100.1542,25.7054,大理白族自治州,大理市环境监测站,,38,,22,26,17,98,,,,4,6,7,7,0.3,0.3
2025-05-08T0600,2615A,100.2171,25.5811,大理白族自治州,大理古城,,39,,23,27,14,100,,,,4,5,8,8,0.4,0.4
2025-05-08T0600,1109A,121.612,38.9741,大连市,甘井子,,41,41,37,16,18,75,,,,22,22,4,4,0.2,0.2
2025-05-08T0600,1110A,121.565,38.9511,大连市,周水子,,43,43,38,18,21,66,,,,21,17,8,7,0.3,0.3
2025-05-08T0600,1111A,121.5637,38.8845,大连市,星海三站,,44,44,45,18,28,72,,,,12,14,2,3,0.3,0.3
2025-05-08T0600,1112A,121.6302,38.9117,大连市,青泥洼桥,,43,43,34,16,20,76,,,,13,9,6,6,0.4,0.3
2025-05-08T0600,1113A,121.6251,38.8638,大连市,傅家庄,,42,42,38,12,20,73,,,,22,22,6,7,0.2,0.2
2025-05-08T0600,1114A,121.5213,38.8661,大连市,七贤岭,,47,47,44,18,25,70,,,,19,14,5,6,0.3,0.4
2025-05-08T0600,1115A,121.2529,38.8061,大连市,旅顺,,34,34,32,14,22,63,,,,15,18,4,4,0.2,0.2
2025-05-08T0600,1116A,121.7485,39.1311,大连市,金州,,32,32,37,15,21,90,,,,15,20,7,8,0.2,0.2
2025-05-08T0600,1117A,121.7811,39.0496,大连市,开发区,,35,35,35,14,19,73,,,,22,23,4,5,0.6,0.6
2025-05-08T0600,1118A,121.9762,39.0631,大连市,双D港,,28,28,30,10,20,41,,,,18,24,7,8,0.2,0.3
2025-05-08T0600,1789A,124.81117,46.03138,大庆市,大同区,细颗粒物(PM2.5),62,61,58,44,41,43,,,,17,14,5,5,0.6,0.5
2025-05-08T0600,1790A,125.129,46.533,大庆市,龙凤区,颗粒物(PM10),51,51,39,35,26,51,,,,17,16,4,4,0.5,0.5
2025-05-08T0600,1791A,124.902,46.408,大庆市,红岗区,,43,43,38,20,21,56,,,,11,10,17,12,0.4,0.3
2025-05-08T0600,1792A,125.153,46.586,大庆市,萨尔图区,细颗粒物(PM2.5),57,55,48,40,26,57,,,,16,14,7,7,0.3,0.3
2025-05-08T0600,1793A,124.9042,46.6215,大庆市,让胡路区,细颗粒物(PM2.5),55,48,35,39,26,50,,,,26,21,7,7,0.5,0.4
2025-05-08T0600,3481A,125.141,46.634,大庆市,萨区政府监测点,,42,42,42,24,18,71,,,,13,12,5,6,0.4,0.4
2025-05-08T0600,1721A,113.3819,40.1097,大同市,果树场,颗粒物(PM10),67,83,71,45,30,23,,,,30,23,6,9,0.6,0.4
2025-05-08T0600,1723A,113.2994,40.0758,大同市,云冈宾馆,颗粒物(PM10),80,109,84,30,27,18,,,,50,27,10,11,0.4,0.2
2025-05-08T0600,1724A,113.3444,40.0917,大同市,大同大学,,,,83,36,30,35,,,,37,25,3,8,0.6,0.4
2025-05-08T0600,1725A,113.2661,40.1269,大同市,安家小村,颗粒物(PM10),71,92,86,25,31,46,,,,29,24,12,13,0.4,0.4
2025-05-08T0600,1726A,113.2711,40.0844,大同市,教育学院,颗粒物(PM10),74,98,85,39,28,6,,,,52,26,7,8,0.6,0.4
2025-05-08T0600,3282A,113.3397,40.0597,大同市,大同市卫生学校,颗粒物(PM10),71,91,83,37,31,27,,,,39,26,10,10,0.8,0.7
2025-05-08T0600,3565A,113.1367,40.1122,大同市,云冈站,颗粒物(PM10),69,87,88,30,31,16,,,,29,20,11,14,0.3,0.2
2025-05-08T0600,3566A,113.1186,40.2556,大同市,图书馆,颗粒物(PM10),67,83,77,29,30,37,,,,13,15,10,12,0.3,0.3
2025-05-08T0600,3567A,113.5931,40.0461,大同市,区一中,细颗粒物(PM2.5),68,83,80,49,25,70,,,,16,18,16,16,0.5,0.4
2025-05-08T0600,4199A,113.2798,40.0997,大同市,魏都大道141号,颗粒物(PM10),82,114,99,45,31,13,,,,53,26,6,8,0.8,0.5
2025-05-08T0600,2269A,124.1069,50.4097,大兴安岭地区,科技局,,46,39,42,32,26,43,,,,4,7,4,5,0.3,0.3
2025-05-08T0600,3663A,124.1164,50.4278,大兴安岭地区,红旗社区,细颗粒物(PM2.5),64,48,35,46,25,16,,,,28,12,5,5,0.5,0.4
2025-05-08T0600,1600A,124.3303,40.0625,丹东市,江湾东路,,38,36,40,26,23,63,,,,10,10,8,12,0.6,0.6
2025-05-08T0600,1601A,124.4256,40.1503,丹东市,临江后街,,48,48,64,21,24,41,,,,14,13,6,8,0.7,0.8
2025-05-08T0600,1602A,124.3933,40.1461,丹东市,元宝山,,43,43,41,22,20,57,,,,12,13,7,9,0.6,0.7
2025-05-08T0600,1603A,124.3633,40.1092,丹东市,民主桥,,42,42,44,18,20,66,,,,8,11,6,8,0.8,0.8
2025-05-08T0600,3541A,109.5726,19.5167,儋州市,第一中学子站,,20,20,20,10,12,37,,,,7,6,4,5,0.5,0.5
2025-05-08T0600,3542A,109.5567,19.5187,儋州市,东坡学校子站,,20,20,21,12,12,46,,,,5,6,5,4,0.6,0.6
2025-05-08T0600,2616A,98.5842,24.428,德宏傣族景颇族自治州,德宏州监测站,,49,48,44,34,30,9,,,,24,14,8,9,0.8,0.7
2025-05-08T0600,3677A,98.5881,24.4368,德宏傣族景颇族自治州,芒市人民政府综合楼,,44,44,55,26,29,33,,,,11,12,5,6,0.5,0.6
2025-05-08T0600,1901A,104.4239,31.1208,德阳市,东山公园,,30,24,29,21,25,44,,,,15,12,4,4,0.8,0.8
2025-05-08T0600,1902A,104.3826,31.1317,德阳市,西小区,,33,28,39,23,27,48,,,,20,17,3,5,0.8,0.8
2025-05-08T0600,1904A,104.3553,31.1091,德阳市,耐火材料厂,,41,41,42,28,26,35,,,,24,17,5,6,0.5,0.5
2025-05-08T0600,3639A,104.4019,31.1244,德阳市,市教育局,,36,29,36,25,25,60,,,,14,15,5,6,0.6,0.6
2025-05-08T0600,1622A,116.3032,37.4674,德州市,儿童乐园,颗粒物(PM10),70,90,106,41,42,119,,,,11,20,8,8,0.5,0.5
2025-05-08T0600,1624A,116.2991,37.4451,德州市,监理站,颗粒物(PM10),69,88,103,44,44,119,,,,10,20,10,10,0.5,0.6
2025-05-08T0600,3066A,116.2721,37.4379,德州市,九衢泉纯净水厂,颗粒物(PM10),70,90,101,41,41,99,,,,22,30,7,8,0.6,0.6
2025-05-08T0600,3371A,116.3728,37.4403,德州市,开发区人民医院,颗粒物(PM10),74,97,101,39,36,90,,,,18,25,9,8,0.7,0.8
2025-05-08T0600,3372A,116.3572,37.4094,德州市,太阳城中学,颗粒物(PM10),69,88,102,41,41,94,,,,34,29,7,7,0.5,0.5
2025-05-08T0600,3511A,116.5652,37.3319,德州市,陵城艺术中心,颗粒物(PM10),82,114,104,46,41,52,,,,41,38,7,7,0.7,0.7
2025-05-08T0600,2621A,99.7056,27.8317,迪庆藏族自治州,迪庆州站,,,,24,,13,,,106,,,10,,5,,0.3
2025-05-08T0600,3180A,99.7136,27.8094,迪庆藏族自治州,质量技术监督局,,35,,18,14,8,111,,,,6,8,4,4,0.4,0.4
2025-05-08T0600,4257A,104.6092,35.5962,定西市,将台街,,46,46,59,28,24,94,,,,12,10,5,5,0.2,0.2
2025-05-08T0600,4309A,104.6159,35.5701,定西市,正龙路62号,,44,44,58,20,24,97,,,,6,8,9,9,0.2,0.2
2025-05-08T0600,1389A,113.7547,23.0494,东莞市,莞城梨川,,42,42,22,20,16,71,,,,8,23,6,6,0.5,0.6
2025-05-08T0600,1390A,113.7944,23.0128,东莞市,东城石井,,45,45,24,18,13,61,,,,16,27,3,3,0.6,0.6
2025-05-08T0600,1391A,113.7383,22.9658,东莞市,南城西平,,42,42,21,7,8,62,,,,18,27,3,2,0.4,0.4
2025-05-08T0600,3319A,113.7338,23.0381,东莞市,万江金泰,,,42,19,17,12,,,,,7,22,5,14,0.6,0.6
2025-05-08T0600,3626A,113.7533,23.0202,东莞市,南城元岭,,38,38,20,18,13,69,,,,12,25,2,2,0.5,0.6
2025-05-08T0600,3627A,113.7875,23.0457,东莞市,东城主山,,40,40,24,15,13,63,,,,15,28,4,4,0.4,0.5
2025-05-08T0600,1666A,118.6614,37.4309,东营市,市环保局,颗粒物(PM10),57,63,62,27,32,81,,,,17,24,9,11,0.7,0.7
2025-05-08T0600,3036A,118.6904,37.4338,东营市,开发区管委会,颗粒物(PM10),58,66,69,24,37,91,,,,13,21,5,10,0.6,0.7
2025-05-08T0600,3365A,118.5719,37.565,东营市,垦利区民丰路,颗粒物(PM10),59,68,64,27,34,90,,,,25,32,6,6,0.7,0.8
2025-05-08T0600,3498A,118.5055,37.8612,东营市,河口城区,颗粒物(PM10),57,63,61,22,31,92,,,,21,30,8,7,1.1,0.8
2025-05-08T0600,3646A,118.4978,37.4623,东营市,胜利站,颗粒物(PM10),54,58,60,27,33,85,,,,18,30,8,9,0.7,0.9
2025-05-08T0600,3734A,118.35,37.26,东营市,理想之城,颗粒物(PM10),59,68,74,31,37,74,,,,22,26,4,5,0.6,0.7
2025-05-08T0600,1591A,110.0023,39.8129,鄂尔多斯市,综合楼,颗粒物(PM10),167,283,106,75,36,69,,,,18,21,6,6,0.4,0.4
2025-05-08T0600,1592A,109.9486,39.8261,鄂尔多斯市,巴音孟克林场办事处,颗粒物(PM10),139,227,96,61,30,66,,,,19,15,6,7,0.3,0.3
2025-05-08T0600,1593A,109.7736,39.5986,鄂尔多斯市,康泽苑,颗粒物(PM10),65,80,89,31,30,30,,,,19,15,11,10,0.4,0.3
2025-05-08T0600,1594A,109.8119,39.5989,鄂尔多斯市,华泰汽车城,颗粒物(PM10),65,80,87,31,32,7,,,,43,23,2,4,0.4,0.4
2025-05-08T0600,1595A,109.9734,39.7884,鄂尔多斯市,奥林花园,颗粒物(PM10),96,141,92,36,30,18,,,,50,26,4,5,0.6,0.5
2025-05-08T0600,2436A,114.8938,30.3994,鄂州市,市政府,颗粒物(PM10),60,70,194,36,59,106,,,,11,17,7,10,1.2,1.1
2025-05-08T0600,2437A,114.8989,30.3714,鄂州市,赵家坝,颗粒物(PM10),65,79,199,22,51,102,,,,2,18,4,7,0.7,0.7
2025-05-08T0600,3654A,114.8094,30.4089,鄂州市,精准医疗中心,颗粒物(PM10),61,72,178,28,62,100,,,,5,23,4,22,0.4,1.7
2025-05-08T0600,2454A,109.4978,30.2981,恩施土家族苗族自治州,湖北民院,,30,30,51,21,23,65,,,,1,7,5,6,0.3,0.4
2025-05-08T0600,2455A,109.4707,30.2798,恩施土家族苗族自治州,州电力总公司,,26,23,44,18,22,54,,,,2,8,6,6,0.4,0.4
2025-05-08T0600,3549A,109.5061,30.3772,恩施土家族苗族自治州,龙凤新区,,,29,45,17,22,,,,,4,6,6,6,0.5,0.5
2025-05-08T0600,2499A,108.3411,21.6158,防城港市,沙万,,23,16,27,16,15,64,,,,7,12,2,4,0.5,0.5
2025-05-08T0600,2500A,108.3514,21.7731,防城港市,防城档案局,,31,31,26,12,14,47,,,,12,8,6,3,0.5,0.4
2025-05-08T0600,2501A,108.3506,21.6414,防城港市,大海花园,,28,28,26,14,10,70,,,,6,6,5,3,0.3,0.3
2025-05-08T0600,1371A,113.1294,23.0067,佛山市,湾梁,,34,34,21,8,9,40,,,,18,32,7,7,0.5,0.9
2025-05-08T0600,1372A,113.1083,23.0478,佛山市,华材职中,,29,29,19,9,10,42,,,,18,29,4,4,0.4,0.4
2025-05-08T0600,1373A,113.144,23.0453,佛山市,南海气象局,,28,28,28,16,13,40,,,,19,30,1,1,0.4,0.5
2025-05-08T0600,1374A,113.2881,22.8094,佛山市,顺德苏岗,,41,41,23,12,10,45,,,,10,21,5,5,0.5,0.5
2025-05-08T0600,1376A,112.8383,22.8678,佛山市,高明孔堂,,25,25,19,14,13,44,,,,7,15,4,5,0.5,0.6
2025-05-08T0600,1377A,112.8836,23.1588,佛山市,三水监测站,,27,27,22,6,16,27,,,,22,37,3,3,0.4,0.5
2025-05-08T0600,1378A,112.867,23.185,佛山市,三水云东海,,50,50,35,17,16,37,,,,22,36,3,2,0.5,0.5
2025-05-08T0600,3625A,113.2544,22.7642,佛山市,容桂街道办,,29,29,17,19,13,45,,,,17,23,5,5,0.6,0.7
2025-05-08T0600,1280A,119.3903,26.0543,福州市,鼓山,,,,63,,17,,,137,,,2,,3,,0.3
2025-05-08T0600,1282A,119.2681,26.0504,福州市,师大,,32,26,60,10,22,101,,,,3,8,3,3,0.2,0.3
2025-05-08T0600,1283A,119.2984,26.1028,福州市,五四北路,,31,23,63,7,23,98,,,,5,8,3,3,0.4,0.4
2025-05-08T0600,1284A,119.2648,26.0768,福州市,杨桥西路,,32,32,70,12,23,97,,,,6,9,3,3,0.3,0.3
2025-05-08T0600,1285A,119.317,26.0746,福州市,紫阳,,32,25,68,8,23,102,,,,5,11,6,5,0.3,0.3
2025-05-08T0600,3048A,119.5799,26.0936,福州市,九龙,,35,35,56,15,21,80,,,,5,6,4,4,0.2,0.2
2025-05-08T0600,3526A,119.5189,25.9664,福州市,吴航,,35,35,52,16,23,102,,,,4,6,4,4,0.4,0.4
2025-05-08T0600,1755A,123.7977,41.8491,抚顺市,望花区,,33,25,57,23,30,91,,,,25,22,32,18,0.5,0.7
2025-05-08T0600,1756A,123.9161,41.8822,抚顺市,顺城区,,35,33,48,14,24,109,,,,10,21,7,11,0.5,0.8
2025-05-08T0600,1757A,124.0436,41.8611,抚顺市,东洲区,,33,25,48,14,22,103,,,,6,16,8,9,0.4,0.7
2025-05-08T0600,1758A,123.9247,41.8642,抚顺市,新抚区,,34,34,49,12,22,79,,,,16,17,7,10,0.5,0.8
2025-05-08T0600,1759A,124.0972,41.8961,抚顺市,大伙房水库,,36,15,36,13,20,115,,,,2,8,7,10,0.5,0.7
2025-05-08T0600,1760A,123.7086,41.8391,抚顺市,沈抚新城,,31,18,42,12,21,99,,,,11,19,6,10,0.4,0.7
2025-05-08T0600,2376A,116.2127,28.0814,抚州市,桐源党溪,颗粒物(PM10),53,56,68,24,27,80,,,,3,4,5,8,0.4,0.5
2025-05-08T0600,2377A,116.3544,27.9831,抚州市,市站,颗粒物(PM10),54,57,71,20,26,72,,,,3,7,4,6,0.6,0.7
2025-05-08T0600,2378A,116.3565,27.963,抚州市,血防站,颗粒物(PM10),54,57,70,22,26,75,,,,3,7,3,4,0.8,0.8
2025-05-08T0600,2379A,116.3564,28.0007,抚州市,采茶剧团,颗粒物(PM10),52,54,69,23,24,69,,,,2,4,3,4,0.7,0.8
2025-05-08T0600,2380A,116.385,27.9647,抚州市,医学分院,颗粒物(PM10),55,59,70,17,26,70,,,,2,3,4,7,1.1,1
2025-05-08T0600,2207A,121.6094,41.998,阜新市,工业园区,,50,50,57,32,23,85,,,,15,12,11,13,0.5,0.5
2025-05-08T0600,2208A,121.6697,42.0279,阜新市,长青街,颗粒物(PM10),54,58,44,25,19,90,,,,14,15,11,12,0.6,0.6
2025-05-08T0600,2209A,121.6673,42.0705,阜新市,农业园区,细颗粒物(PM2.5),70,66,46,51,27,90,,,,12,11,9,11,0.6,0.6
2025-05-08T0600,2210A,121.6717,42.0224,阜新市,东苑,细颗粒物(PM2.5),55,46,50,39,23,95,,,,14,16,10,13,0.5,0.5
2025-05-08T0600,2211A,121.6506,42.0498,阜新市,玉龙新城,颗粒物(PM10),55,59,43,33,21,85,,,,13,11,12,13,0.7,0.7
2025-05-08T0600,2301A,115.8277,32.8929,阜阳市,市监测站,颗粒物(PM10),70,90,131,48,57,118,,,,16,16,10,9,0.3,0.2
2025-05-08T0600,2303A,115.8554,32.8605,阜阳市,开发区,颗粒物(PM10),89,128,165,38,42,120,,,,20,19,8,8,0.3,0.2
2025-05-08T0600,2875A,115.784,32.8892,阜阳市,阜阳职业技术学院,颗粒物(PM10),79,107,131,45,53,129,,,,14,13,8,7,0.4,0.4
2025-05-08T0600,3468A,115.7901,32.8613,阜阳市,市规划展馆,颗粒物(PM10),71,92,124,51,60,128,,,,13,10,9,9,0.5,0.3
2025-05-08T0600,3469A,115.836,32.9183,阜阳市,枣园社区,颗粒物(PM10),84,118,142,49,61,117,,,,19,15,10,6,0.6,0.5
2025-05-08T0600,2669A,102.9099,34.9841,甘南藏族自治州,州政府,颗粒物(PM10),74,97,104,30,37,33,,,,14,11,7,8,0.3,0.3
2025-05-08T0600,3380A,102.8914,34.9617,甘南藏族自治州,甘肃民族师范学院,颗粒物(PM10),81,112,110,36,34,26,,,,19,15,8,8,0.4,0.4
2025-05-08T0600,2570A,101.9603,30.0475,甘孜藏族自治州,水桥子,,11,8,12,6,7,35,,,,13,14,5,5,0.3,0.3
2025-05-08T0600,3065A,101.9533,29.9972,甘孜藏族自治州,州环保局,,12,,14,3,5,38,,,,18,16,1,2,0.0,0.1
2025-05-08T0600,3414A,115.8347,28.932,赣江新区,桑海产业园,,39,39,161,20,42,89,,,,5,15,2,4,0.4,0.5
2025-05-08T0600,2362A,114.9017,25.9149,赣州市,通天岩,,22,19,39,3,7,70,,,,3,5,4,4,0.3,0.4
2025-05-08T0600,2363A,114.9367,25.8664,赣州市,地委,,20,18,44,8,25,62,,,,2,9,4,4,0.4,0.5
2025-05-08T0600,2364A,114.9461,25.8481,赣州市,气象台,,20,16,42,3,20,62,,,,3,12,6,9,0.5,0.5
2025-05-08T0600,2365A,114.9322,25.8333,赣州市,市图书馆,,18,10,39,3,23,56,,,,2,10,4,5,0.5,0.5
2025-05-08T0600,2366A,114.8905,25.8471,赣州市,华坚鞋城,,19,16,44,8,22,58,,,,2,11,3,6,0.4,0.5
2025-05-08T0600,3109A,115.0093,25.8613,赣州市,赣县区卫计委,,17,9,36,3,20,53,,,,2,6,2,4,0.6,0.7
2025-05-08T0600,2683A,106.2319,36.1417,固原市,马园,颗粒物(PM10),88,126,143,48,64,19,,,,38,26,5,8,0.7,0.6
2025-05-08T0600,2684A,106.2792,36.0022,固原市,监测站,颗粒物(PM10),83,115,128,40,57,42,,,,18,15,6,7,0.4,0.4
2025-05-08T0600,2685A,106.2375,36.0211,固原市,新区,颗粒物(PM10),81,112,127,41,43,46,,,,19,16,6,7,0.5,0.4
2025-05-08T0600,3522A,106.2177,35.9959,固原市,原州区十五小,颗粒物(PM10),86,122,132,46,54,63,,,,14,12,11,11,0.3,0.2
2025-05-08T0600,2543A,106.6308,30.5278,广安市,小平旧居,,,,,,,,,,,,,,,,
2025-05-08T0600,2544A,106.6303,30.4576,广安市,市委,,23,,65,14,38,73,,,,3,10,4,6,0.3,0.5
2025-05-08T0600,2545A,106.6271,30.4663,广安市,友谊中学,,24,17,65,12,35,75,,,,8,16,3,4,0.8,0.9
2025-05-08T0600,2547A,106.6388,30.4551,广安市,广电花园,,25,23,62,13,38,78,,,,3,13,6,7,0.4,0.5
2025-05-08T0600,2902A,106.6351,30.4865,广安市,北辰小学,,23,21,65,10,35,72,,,,6,12,6,7,0.4,0.5
2025-05-08T0600,2523A,105.8945,32.4535,广元市,黑石坡,,27,27,38,8,10,43,,,,12,15,7,5,0.4,0.4
2025-05-08T0600,2524A,105.821,32.4444,广元市,老城,,26,16,35,8,19,82,,,,2,15,1,2,0.7,0.8
2025-05-08T0600,2526A,105.8628,32.4287,广元市,监测站,,29,26,29,20,20,71,,,,5,15,5,7,0.5,0.6
2025-05-08T0600,3617A,105.8047,32.4166,广元市,经开区,,35,35,42,24,24,35,,,,24,20,7,7,0.7,0.7
2025-05-08T0600,1345A,113.2347,23.1423,广州市,广雅中学,,35,35,22,11,9,56,,,,13,29,3,4,0.4,0.4
2025-05-08T0600,1346A,113.2612,23.105,广州市,市五中,,28,28,25,12,13,47,,,,10,23,1,2,0.7,0.8
2025-05-08T0600,1348A,113.3478,23.0916,广州市,广东商学院,,29,29,20,13,14,52,,,,22,33,3,4,0.5,0.6
2025-05-08T0600,1349A,113.4332,23.1047,广州市,市八十六中,,38,38,27,17,14,21,,,,50,48,3,3,0.6,0.7
2025-05-08T0600,1350A,113.3505,22.9483,广州市,番禺中学,,33,33,17,16,9,56,,,,14,26,5,5,0.6,0.7
2025-05-08T0600,1351A,113.2146,23.3916,广州市,花都师范,,30,30,23,18,17,40,,,,18,34,4,5,0.6,0.7
2025-05-08T0600,1352A,113.2597,23.1331,广州市,市监测站,,34,34,21,13,11,52,,,,17,31,5,5,0.2,0.2
2025-05-08T0600,1353A,113.5618,23.312,广州市,九龙镇镇龙,,40,40,23,22,14,48,,,,16,20,5,5,0.4,0.4
2025-05-08T0600,1354A,113.2765,23.1544,广州市,麓湖,,33,33,19,16,12,51,,,,11,28,4,4,0.6,0.6
2025-05-08T0600,1355A,113.443,23.3035,广州市,帽峰山森林公园,,37,37,17,14,10,61,,,,9,18,4,5,0.5,0.6
2025-05-08T0600,2846A,113.3221,23.1322,广州市,体育西,,33,33,21,15,12,51,,,,18,35,4,4,0.3,0.4
2025-05-08T0600,3298A,113.5717,23.5491,广州市,从化街口,,31,31,17,14,9,60,,,,6,12,6,6,0.4,0.5
2025-05-08T0600,3299A,113.3472,23.3692,广州市,白云竹料,,34,34,21,17,13,56,,,,13,24,2,2,0.5,0.6
2025-05-08T0600,3300A,113.2981,23.237,广州市,白云嘉禾,,33,33,22,16,14,42,,,,27,42,5,6,0.7,0.8
2025-05-08T0600,3301A,113.4256,23.1716,广州市,黄埔科学城,,33,33,24,18,15,37,,,,22,31,2,3,0.5,0.6
2025-05-08T0600,3302A,113.3942,23.0483,广州市,番禺大学城,,22,22,18,15,11,66,,,,14,29,5,5,0.6,0.6
2025-05-08T0600,3303A,113.4922,22.8168,广州市,南沙黄阁,,37,37,18,16,10,54,,,,11,17,4,4,0.7,0.7
2025-05-08T0600,3304A,113.5342,22.7896,广州市,南沙街,,39,39,21,17,10,61,,,,11,18,6,6,0.6,0.6
2025-05-08T0600,3443A,113.2902,23.5544,广州市,花都梯面,,34,34,18,16,10,55,,,,10,18,4,4,0.6,0.6
2025-05-08T0600,3445A,113.7858,23.7478,广州市,从化良口,,25,25,12,12,5,59,,,,6,8,6,6,0.7,0.7
2025-05-08T0600,3446A,113.8051,23.2614,广州市,增城荔城,,41,41,20,17,10,64,,,,10,13,8,7,0.4,0.4
2025-05-08T0600,2505A,109.568,23.1478,贵港市,德智高中,,,,,,,,,,,,,,,,
2025-05-08T0600,2506A,109.6047,23.0666,贵港市,江南子站,,31,31,37,21,26,12,,,,29,17,4,5,0.7,0.9
2025-05-08T0600,2508A,109.5669,23.1065,贵港市,荷城子站,,26,26,36,14,20,32,,,,17,16,5,5,0.3,0.4
2025-05-08T0600,3405A,109.5886,23.1172,贵港市,新世纪学校,,34,34,36,16,24,29,,,,15,16,4,5,0.6,0.7
2025-05-08T0600,4260A,109.5933,23.0951,贵港市,中山路155-3号,,44,44,46,21,25,27,,,,18,18,3,4,0.5,0.7
2025-05-08T0600,1439A,106.6899,26.5998,贵阳市,马鞍山,,,,18,,4,,,43,,,12,,3,,0.5
2025-05-08T0600,1441A,106.6243,26.6266,贵阳市,鉴湖路,,36,36,27,24,12,64,,,,8,15,6,6,0.5,0.5
2025-05-08T0600,1442A,106.7487,26.6343,贵阳市,燕子冲,,42,36,25,29,20,56,,,,9,15,1,2,0.4,0.4
2025-05-08T0600,1443A,106.6555,26.4365,贵阳市,碧云窝,,39,39,25,19,9,74,,,,4,9,4,4,0.4,0.5
2025-05-08T0600,1445A,106.7109,26.6027,贵阳市,红边门,,45,31,26,31,18,62,,,,2,13,8,4,0.3,0.3
2025-05-08T0600,1446A,106.7164,26.5699,贵阳市,新华路,,45,,19,31,17,58,,,,7,15,10,11,0.5,0.5
2025-05-08T0600,1447A,106.674,26.5424,贵阳市,太慈桥,,28,22,19,19,10,58,,,,7,14,6,5,0.2,0.2
2025-05-08T0600,1552A,106.805,26.3003,贵阳市,桐木岭,细颗粒物(PM2.5),52,51,29,36,15,79,,,,2,2,1,1,0.9,0.9
2025-05-08T0600,4230A,106.6882,26.5695,贵阳市,花果园大街66号,,36,36,22,25,19,62,,,,2,10,3,3,0.3,0.3
2025-05-08T0600,4231A,106.6873,26.5169,贵阳市,漓江路57号,,39,31,23,27,15,55,,,,7,11,7,7,0.4,0.3
2025-05-08T0600,1862A,110.4144,25.3167,桂林市,电子科大尧山校区,,,,,,,,,,,,,,,,
2025-05-08T0600,1864A,110.3089,25.2708,桂林市,龙隐路小学,,42,33,34,29,30,22,,,,12,15,8,9,0.7,0.7
2025-05-08T0600,1865A,110.2869,25.2178,桂林市,八中,,28,23,38,19,25,25,,,,14,20,3,3,1.0,1
2025-05-08T0600,3531A,110.296,25.1253,桂林市,旅游学院,,25,22,19,17,14,19,,,,18,16,2,2,0.8,0.8
2025-05-08T0600,4222A,110.1835,25.2444,桂林市,环湖路276号,细颗粒物(PM2.5),55,44,41,39,34,14,,,,24,19,10,18,0.6,0.5
2025-05-08T0600,4301A,110.2803,25.2773,桂林市,信义路13号,,49,49,44,30,33,29,,,,13,19,2,4,0.8,0.7
2025-05-08T0600,2674A,100.2561,34.4714,果洛藏族自治州,玛沁县大武镇,颗粒物(PM10),71,92,79,25,27,38,,,,3,4,21,23,0.4,0.4
2025-05-08T0600,1129A,126.5422,45.755,哈尔滨市,岭北,,39,39,35,27,25,44,,,,35,23,16,14,0.9,0.8
2025-05-08T0600,1130A,126.561,45.8167,哈尔滨市,松北商大,,21,21,37,12,24,46,,,,20,26,6,6,0.5,0.5
2025-05-08T0600,1131A,126.979,45.5419,哈尔滨市,阿城会宁,,48,48,39,28,22,12,,,,38,21,5,6,0.7,0.6
2025-05-08T0600,1132A,126.599,45.7222,哈尔滨市,南岗学府路,,50,50,47,24,22,20,,,,53,23,6,5,0.6,0.5
2025-05-08T0600,1133A,126.689,45.7733,哈尔滨市,太平宏伟公园,,43,39,43,30,26,27,,,,42,29,4,5,0.7,0.6
2025-05-08T0600,1134A,126.635,45.7667,哈尔滨市,道外承德广场,颗粒物(PM10),52,53,50,29,30,24,,,,46,29,7,6,0.8,0.6
2025-05-08T0600,1135A,126.685,45.7319,哈尔滨市,香坊红旗大街,颗粒物(PM10),51,51,43,26,18,23,,,,49,29,10,9,0.9,0.6
2025-05-08T0600,1136A,126.6411,45.7258,哈尔滨市,动力和平路,,38,37,43,26,28,29,,,,39,22,8,8,0.9,0.5
2025-05-08T0600,1137A,126.593,45.7478,哈尔滨市,道里建国路,,40,36,41,28,28,29,,,,45,26,6,6,1.4,0.7
2025-05-08T0600,1138A,126.615,45.61,哈尔滨市,平房东轻厂,,26,26,45,15,24,44,,,,22,26,10,9,0.7,0.4
2025-05-08T0600,1139A,126.595,45.9855,哈尔滨市,呼兰师专,,33,24,37,23,28,38,,,,32,28,7,8,0.6,0.6
2025-05-08T0600,1140A,126.6206,45.6842,哈尔滨市,省农科院,,45,45,54,30,31,24,,,,42,28,11,9,0.8,0.6
2025-05-08T0600,2688A,93.5128,42.8172,哈密市,地区监测站,颗粒物(PM10),59,68,254,26,61,92,,,,8,7,1,3,0.1,0.2
2025-05-08T0600,2689A,93.4961,42.8328,哈密市,哈密师范学校,,49,49,205,10,32,89,,,,8,7,4,4,0.2,0.2
2025-05-08T0600,2671A,100.9048,36.9639,海北藏族自治州,海晏县西海镇,颗粒物(PM10),51,51,93,17,33,51,,,,3,6,6,11,0.4,0.4
2025-05-08T0600,3867A,102.0738,36.5056,海东市,平安区公安北苑,,40,39,141,28,55,42,,,,2,5,4,9,0.5,0.5
2025-05-08T0600,1409A,110.576,19.9507,海口市,东寨港,,15,,15,10,11,35,,,,3,3,3,2,0.5,0.5
2025-05-08T0600,1410A,110.3232,20.0574,海口市,海南大学,,13,13,20,7,12,35,,,,3,7,3,3,0.3,0.3
2025-05-08T0600,1411A,110.283,20.0053,海口市,秀英海南医院,,12,12,23,3,13,35,,,,6,11,4,5,0.2,0.3
2025-05-08T0600,1412A,110.338,19.9969,海口市,海南师范大学,,14,14,20,8,10,35,,,,4,5,4,4,0.3,0.3
2025-05-08T0600,1413A,110.33,20.0356,海口市,龙华路环保局宿舍,,15,15,21,6,11,36,,,,4,7,4,4,0.2,0.2
2025-05-08T0600,3539A,110.5111,19.9736,海口市,桂林洋子站,,12,12,15,6,9,36,,,,4,4,4,4,0.2,0.2
2025-05-08T0600,2673A,100.6188,36.2866,海南藏族自治州,共和县恰卜恰镇,颗粒物(PM10),64,78,117,27,43,72,,,,7,6,10,11,0.3,0.3
2025-05-08T0600,2676A,97.3731,37.3753,海西蒙古族藏族自治州,德令哈市,颗粒物(PM10),64,78,168,23,47,96,,,,2,5,14,16,0.4,0.5
2025-05-08T0600,1048A,114.5302,36.6116,邯郸市,东污水处理厂,颗粒物(PM10),63,76,125,17,34,91,,,,17,21,4,5,0.4,0.4
2025-05-08T0600,1049A,114.4918,36.5713,邯郸市,矿院,颗粒物(PM10),64,77,106,27,39,78,,,,18,19,5,5,0.5,0.4
2025-05-08T0600,1050A,114.484,36.6133,邯郸市,丛台公园,颗粒物(PM10),70,90,140,25,39,89,,,,15,14,10,9,0.4,0.4
2025-05-08T0600,3458A,114.7895,36.5593,邯郸市,香泉濮院小区,颗粒物(PM10),71,92,136,27,32,96,,,,11,12,6,6,0.5,0.4
2025-05-08T0600,3579A,114.50634,36.77178,邯郸市,永年区实验高中,,,103,137,36,51,,,,,12,16,6,5,0.4,0.4
2025-05-08T0600,3580A,114.20016,36.44293,邯郸市,峰峰矿区临水派出所,颗粒物(PM10),60,69,114,28,44,93,,,,7,9,9,9,0.5,0.5
2025-05-08T0600,2634A,106.9893,33.1842,汉中市,汉川机床厂子校,,29,,32,20,26,60,,,,6,8,7,8,0.7,0.7
2025-05-08T0600,2635A,107.0154,33.0706,汉中市,市监测站,,22,22,40,11,21,58,,,,7,8,5,6,0.8,0.7
2025-05-08T0600,2636A,107.0089,33.1138,汉中市,鑫源开发区,,21,21,37,13,18,54,,,,10,11,5,7,0.6,0.5
2025-05-08T0600,2637A,107.007,33.0323,汉中市,南郑大河坎水厂,,23,23,32,15,20,54,,,,8,10,5,6,0.5,0.5
2025-05-08T0600,1223A,120.2072,30.2111,杭州市,滨江,颗粒物(PM10),73,96,121,38,41,68,,,,27,31,7,8,0.9,0.9
2025-05-08T0600,1224A,120.0633,30.2747,杭州市,西溪,颗粒物(PM10),62,74,79,30,37,22,,,,21,20,5,6,0.4,0.5
2025-05-08T0600,1226A,120.3417,30.3150,杭州市,下沙,颗粒物(PM10),95,140,123,60,44,52,,,,43,31,7,8,0.6,0.5
2025-05-08T0600,1227A,120.1269,30.2456,杭州市,卧龙桥,颗粒物(PM10),65,79,114,38,41,8,,,,23,22,6,8,0.6,0.6
2025-05-08T0600,1228A,120.1903,30.2692,杭州市,浙江农大,颗粒物(PM10),72,94,117,43,45,50,,,,35,34,9,10,0.6,0.5
2025-05-08T0600,1230A,120.1197,30.3119,杭州市,和睦小学,颗粒物(PM10),64,78,115,37,42,26,,,,33,24,8,9,0.3,0.4
2025-05-08T0600,1231A,120.3019,30.4183,杭州市,临平镇,颗粒物(PM10),79,107,131,48,37,54,,,,32,20,6,6,0.5,0.5
2025-05-08T0600,1232A,120.2753,30.1839,杭州市,城厢镇,颗粒物(PM10),73,95,119,42,47,7,,,,67,33,8,10,0.7,0.7
2025-05-08T0600,1233A,120.0883,30.1808,杭州市,云栖,颗粒物(PM10),60,70,113,35,39,0,,,,31,34,5,7,0.7,0.7
2025-05-08T0600,3557A,119.9464,30.0494,杭州市,镇二中,颗粒物(PM10),70,89,109,36,43,32,,,,35,27,5,4,0.6,0.6
2025-05-08T0600,3558A,119.7183,30.2367,杭州市,市府大楼,颗粒物(PM10),68,86,117,31,36,51,,,,23,19,8,8,0.5,0.5
2025-05-08T0600,3656A,120.1556,30.2864,杭州市,消防大队,颗粒物(PM10),75,100,116,49,46,43,,,,40,31,5,5,0.6,0.6
2025-05-08T0600,1270A,117.1959,31.7848,合肥市,明珠广场,,,92,146,36,44,110,,,,18,19,,9,0.4,0.4
2025-05-08T0600,1271A,117.3072,31.8764,合肥市,三里街,颗粒物(PM10),73,95,142,36,47,90,,,,26,23,7,8,0.6,0.6
2025-05-08T0600,1272A,117.2588,31.8707,合肥市,琥珀山庄,颗粒物(PM10),76,102,152,48,53,108,,,,19,20,5,7,0.7,0.7
2025-05-08T0600,1273A,117.1604,31.9052,合肥市,董铺水库,颗粒物(PM10),82,114,164,34,48,111,,,,14,16,1,2,0.4,0.5
2025-05-08T0600,1274A,117.25,31.8571,合肥市,长江中路,颗粒物(PM10),75,100,152,39,52,112,,,,16,19,7,9,0.6,0.6
2025-05-08T0600,1275A,117.266,31.9436,合肥市,庐阳区,颗粒物(PM10),76,102,151,36,49,102,,,,23,20,9,10,0.6,0.6
2025-05-08T0600,1276A,117.3453,31.8616,合肥市,瑶海区,颗粒物(PM10),79,107,152,37,49,84,,,,30,24,8,9,0.5,0.4
2025-05-08T0600,1277A,117.3027,31.7964,合肥市,包河区,颗粒物(PM10),71,92,150,36,55,107,,,,17,17,8,10,0.5,0.5
2025-05-08T0600,1278A,117.2776,31.7385,合肥市,滨湖新区,颗粒物(PM10),69,88,145,39,50,109,,,,14,14,9,10,0.7,0.7
2025-05-08T0600,1279A,117.1318,31.8403,合肥市,高新区,颗粒物(PM10),74,97,148,37,47,115,,,,17,18,4,5,0.5,0.5
2025-05-08T0600,3464A,117.3803,31.9147,合肥市,高教基地,颗粒物(PM10),73,95,144,51,50,98,,,,16,16,8,8,0.5,0.5
2025-05-08T0600,3614A,79.924,37.0877,和田地区,地区环保局,颗粒物(PM10),500,979,749,283,251,47,,,,12,19,3,2,0.3,0.4
2025-05-08T0600,3615A,79.9131,37.113,和田地区,市环保局,颗粒物(PM10),500,945,672,245,203,49,,,,6,23,3,2,0.1,0.2
2025-05-08T0600,2516A,108.2011,24.715,河池市,东仁乐园,,,,,,,,,,,,,,,,
2025-05-08T0600,2517A,108.0497,24.6947,河池市,市环保站,颗粒物(PM10),55,60,39,37,24,32,,,,8,7,8,7,0.7,0.7
2025-05-08T0600,2518A,108.0983,24.6989,河池市,市疾控中心,细颗粒物(PM2.5),53,53,32,37,23,31,,,,14,12,8,7,0.8,0.7
2025-05-08T0600,1696A,114.6778,23.7569,河源市,源西,,29,27,16,20,16,65,,,,4,10,3,3,0.7,0.8
2025-05-08T0600,1697A,114.6944,23.7586,河源市,东埔,,29,29,20,14,14,73,,,,8,13,4,4,0.4,0.5
2025-05-08T0600,1698A,114.6892,23.7233,河源市,老城,,31,31,16,16,15,69,,,,10,15,3,3,0.4,0.5
2025-05-08T0600,1718A,115.4208,35.2464,菏泽市,气象局,颗粒物(PM10),76,102,127,45,53,96,,,,14,14,4,4,0.5,0.4
2025-05-08T0600,3374A,115.5564,35.0891,菏泽市,定陶老年大学,颗粒物(PM10),69,88,104,36,37,86,,,,13,13,4,5,0.6,0.5
2025-05-08T0600,4184A,115.4797,35.24401,菏泽市,永昌路1号,颗粒物(PM10),76,102,132,46,49,87,,,,14,14,6,6,0.4,0.3
2025-05-08T0600,4193A,115.4715,35.2800,菏泽市,长城路999号,颗粒物(PM10),69,88,117,44,48,89,,,,18,17,7,8,0.5,0.4
2025-05-08T0600,2514A,111.5264,24.4172,贺州市,环保小区,,21,21,29,11,24,32,,,,6,8,6,6,0.9,1
2025-05-08T0600,2515A,111.5608,24.4078,贺州市,政协大楼,,15,15,27,7,18,32,,,,8,10,6,6,0.6,0.7
2025-05-08T0600,3534A,111.4744,24.4553,贺州市,西湾,,20,20,34,3,22,27,,,,11,11,8,8,0.5,0.7
2025-05-08T0600,2385A,114.17,35.9019,鹤壁市,市监测站,颗粒物(PM10),73,96,144,50,56,77,,,,19,21,4,4,0.6,0.5
2025-05-08T0600,2386A,114.2956,35.7511,鹤壁市,市交警支队,细颗粒物(PM2.5),80,91,135,59,44,96,,,,23,22,6,6,0.7,0.7
2025-05-08T0600,2387A,114.2878,35.7306,鹤壁市,迎宾馆,"颗粒物(PM10),细颗粒物(PM2.5)",74,98,139,54,58,97,,,,14,15,5,5,0.6,0.5
2025-05-08T0600,3474A,114.2617,35.6822,鹤壁市,大新区,颗粒物(PM10),63,75,113,39,41,103,,,,16,18,10,8,0.5,0.5
2025-05-08T0600,3596A,114.1572,35.9603,鹤壁市,南山宾馆,颗粒物(PM10),140,229,187,79,56,78,,,,19,13,8,7,0.5,0.4
2025-05-08T0600,2244A,130.2537,47.3416,鹤岗市,哈啤分公司,,33,33,22,23,19,26,,,,20,11,12,14,0.5,0.3
2025-05-08T0600,2245A,130.2684,47.3086,鹤岗市,斯达机电,,46,34,28,32,21,47,,,,20,14,11,14,0.4,0.3
2025-05-08T0600,2246A,130.3114,47.3388,鹤岗市,东山纸板厂,颗粒物(PM10),68,86,48,27,25,28,,,,32,15,18,13,2.3,0.3
2025-05-08T0600,2247A,130.1097,47.3382,鹤岗市,五号水库,,,,,,,,,,,,,,,,
2025-05-08T0600,2263A,127.4833,50.2524,黑河市,交通局,,32,32,33,15,13,73,,,,7,13,7,9,0.6,0.4
2025-05-08T0600,2264A,127.5144,50.2341,黑河市,环保局,,30,24,37,21,21,73,,,,9,17,4,5,0.2,0.3
2025-05-08T0600,2265A,127.5291,50.2472,黑河市,大黑河岛,,,,,13,9,84,,,,7,14,1,2,0.2,0.3
2025-05-08T0600,1074A,115.6838,37.7541,衡水市,电机北厂,颗粒物(PM10),75,99,121,54,45,80,,,,22,21,6,7,0.4,0.4
2025-05-08T0600,1075A,115.6303,37.7316,衡水市,市监测站,颗粒物(PM10),75,99,112,38,39,77,,,,22,22,11,10,0.4,0.5
2025-05-08T0600,3188A,115.6683,37.7217,衡水市,市城管局,,,102,113,47,44,,,,,31,23,11,7,0.5,0.5
2025-05-08T0600,3459A,115.5989,37.5491,衡水市,地表水厂,颗粒物(PM10),81,111,118,35,39,40,,,,44,35,10,9,0.5,0.5
2025-05-08T0600,2456A,112.5003,26.9167,衡阳市,原169医院,颗粒物(PM10),68,86,85,39,40,31,,,,14,14,2,3,0.6,0.6
2025-05-08T0600,2457A,112.6194,26.9258,衡阳市,衡阳化工总厂,颗粒物(PM10),63,75,103,34,42,36,,,,7,9,6,7,0.5,0.5
2025-05-08T0600,2458A,112.6211,26.8956,衡阳市,珠晖区环保局,,,71,88,,,,,,,13,16,7,8,0.7,0.7
2025-05-08T0600,2459A,112.6197,26.8733,衡阳市,市委党校,颗粒物(PM10),61,71,85,31,33,33,,,,8,9,2,2,0.6,0.6
2025-05-08T0600,2460A,112.6006,26.8919,衡阳市,市监测站,颗粒物(PM10),59,68,89,34,44,32,,,,9,11,8,10,0.5,0.6
2025-05-08T0600,2461A,112.5664,26.9056,衡阳市,真空机电公司,颗粒物(PM10),60,69,94,35,37,36,,,,8,9,5,5,0.6,0.7
2025-05-08T0600,3399A,112.6703,26.882,衡阳市,师范学院,颗粒物(PM10),62,74,91,38,44,32,,,,7,11,6,8,0.7,0.8
2025-05-08T0600,2608A,103.3772,23.3993,红河哈尼族彝族自治州,污水处理厂,,43,,35,30,25,77,,,,9,6,6,6,0.5,0.5
2025-05-08T0600,2609A,103.3861,23.35,红河哈尼族彝族自治州,监测站,,37,37,43,23,25,88,,,,5,6,6,6,0.3,0.3
2025-05-08T0600,3038A,103.3758,23.368,红河哈尼族彝族自治州,州图书馆,,43,35,30,30,23,82,,,,5,5,1,2,0.3,0.3
2025-05-08T0600,1090A,111.6507,40.7517,呼和浩特市,呼市一监,颗粒物(PM10),63,75,90,37,33,28,,,,21,15,9,10,0.7,0.5
2025-05-08T0600,1091A,111.6572,40.8033,呼和浩特市,小召,颗粒物(PM10),62,73,87,30,27,30,,,,33,24,11,12,0.5,0.5
2025-05-08T0600,1094A,111.7516,40.8369,呼和浩特市,如意水处理厂,颗粒物(PM10),67,84,84,36,31,25,,,,32,26,5,7,0.5,0.5
2025-05-08T0600,1095A,111.7276,40.8062,呼和浩特市,二十九中,颗粒物(PM10),68,86,84,35,31,24,,,,33,18,4,6,0.6,0.6
2025-05-08T0600,1096A,111.5512,40.7866,呼和浩特市,工大金川校区,颗粒物(PM10),66,81,88,33,31,24,,,,43,28,6,9,0.5,0.5
2025-05-08T0600,1097A,111.717,40.7612,呼和浩特市,化肥厂生活区,颗粒物(PM10),70,90,98,38,38,21,,,,40,27,6,10,0.5,0.5
2025-05-08T0600,3698A,111.5968,40.8178,呼和浩特市,红旗小学,颗粒物(PM10),64,78,94,40,35,17,,,,50,33,4,6,0.5,0.5
2025-05-08T0600,3699A,111.6518,40.8389,呼和浩特市,海东办,颗粒物(PM10),65,80,89,35,40,15,,,,43,25,8,10,0.5,0.5
2025-05-08T0600,2192A,119.7594,49.2261,呼伦贝尔市,区环保局,细颗粒物(PM2.5),52,50,46,36,33,40,,,,29,20,10,7,0.4,0.4
2025-05-08T0600,3061A,119.7512,49.1577,呼伦贝尔市,国华电力东,,42,42,39,25,21,67,,,,12,14,4,5,0.3,0.2
2025-05-08T0600,1250A,120.0751,30.8669,湖州市,城西水厂,颗粒物(PM10),77,104,106,42,40,71,,,,23,19,6,7,0.5,0.5
2025-05-08T0600,2873A,120.0830,30.8929,湖州市,仁皇山新区,颗粒物(PM10),76,101,106,44,40,64,,,,29,21,4,5,0.7,0.6
2025-05-08T0600,2907A,120.1844,30.8596,湖州市,吴兴区站,颗粒物(PM10),63,76,109,37,41,72,,,,18,17,7,7,0.4,0.4
2025-05-08T0600,3562A,120.4148,30.8538,湖州市,南浔区站,,,79,94,30,32,,,,,20,17,6,6,0.6,0.5
2025-05-08T0600,1607A,120.9049,40.7211,葫芦岛市,龙港区,细颗粒物(PM2.5),57,52,40,40,31,75,,,,13,11,8,9,0.5,0.6
2025-05-08T0600,1608A,120.8392,40.7514,葫芦岛市,化工街,颗粒物(PM10),52,53,49,24,27,80,,,,14,19,8,9,0.6,0.6
2025-05-08T0600,1609A,120.8341,40.7073,葫芦岛市,新区,细颗粒物(PM2.5),53,,38,37,34,82,,,,12,13,7,7,0.5,0.6
2025-05-08T0600,1610A,120.8695,40.7677,葫芦岛市,东城区,细颗粒物(PM2.5),58,,41,41,38,76,,,,14,19,4,6,0.6,0.7
2025-05-08T0600,2482A,109.5981,27.5721,怀化市,林科所,,45,45,62,26,29,42,,,,8,10,5,4,0.4,0.5
2025-05-08T0600,2483A,109.9453,27.5444,怀化市,河西地税局,,47,47,56,29,34,40,,,,6,11,6,9,0.5,0.5
2025-05-08T0600,2484A,109.9781,27.5342,怀化市,市四医院,颗粒物(PM10),51,52,68,34,37,31,,,,8,15,3,8,1.1,1
2025-05-08T0600,2485A,109.9972,27.5578,怀化市,监测楼,颗粒物(PM10),51,51,63,32,36,33,,,,9,14,2,3,0.3,0.4
2025-05-08T0600,2486A,110.0394,27.583,怀化市,市委党校,,45,45,52,29,36,28,,,,8,10,1,3,0.6,0.6
2025-05-08T0600,1210A,119.036,33.5981,淮安市,钵池山,颗粒物(PM10),51,51,61,30,34,89,,,,16,14,8,9,0.5,0.5
2025-05-08T0600,1211A,119.007,33.575,淮安市,北京南路,颗粒物(PM10),54,58,72,32,34,90,,,,15,13,9,9,0.5,0.5
2025-05-08T0600,1212A,118.989,33.6067,淮安市,市监测站,颗粒物(PM10),53,56,68,29,32,94,,,,13,15,9,9,0.3,0.4
2025-05-08T0600,1213A,119.135,33.5039,淮安市,楚州区监测站,颗粒物(PM10),52,54,72,33,37,73,,,,19,16,7,8,0.4,0.5
2025-05-08T0600,3426A,118.8755,33.2894,淮安市,新华书店,颗粒物(PM10),59,67,78,37,35,72,,,,20,18,10,9,0.6,0.6
2025-05-08T0600,4206A,119.0288,33.6319,淮安市,承德北路606号,颗粒物(PM10),57,63,80,32,34,90,,,,15,13,8,8,0.4,0.5
2025-05-08T0600,2282A,116.8004,33.975,淮北市,监测站,颗粒物(PM10),73,95,105,48,51,85,,,,15,15,6,7,0.8,0.7
2025-05-08T0600,2283A,116.8091,33.9007,淮北市,烈山区政府,颗粒物(PM10),72,94,105,41,44,81,,,,15,13,5,6,0.8,0.7
2025-05-08T0600,3330A,116.8873,33.9836,淮北市,杜集区检察院,颗粒物(PM10),73,96,105,52,56,83,,,,17,16,8,8,0.8,0.7
2025-05-08T0600,4017A,116.7923,33.9535,淮北市,市博物馆,细颗粒物(PM2.5),65,76,106,47,50,88,,,,15,15,7,7,0.8,0.6
2025-05-08T0600,2277A,116.8305,32.7727,淮南市,潘集区政府,颗粒物(PM10),76,102,117,45,51,100,,,,16,17,6,7,0.5,0.5
2025-05-08T0600,2279A,116.8569,32.5951,淮南市,谢家集区政府,颗粒物(PM10),68,86,116,39,48,99,,,,16,16,6,6,0.3,0.3
2025-05-08T0600,2280A,116.8281,32.633,淮南市,八公山区政府,颗粒物(PM10),79,108,124,40,46,101,,,,8,8,10,9,0.5,0.4
2025-05-08T0600,2281A,116.6325,32.6201,淮南市,焦岗湖风景区管理处,,,,,,,,,,,,,,,,
2025-05-08T0600,2894A,117.0566,32.6531,淮南市,经济技术开发区消防队,颗粒物(PM10),67,83,101,47,57,94,,,,20,18,6,7,0.4,0.4
2025-05-08T0600,3329A,117.0108,32.5893,淮南市,山南新区,颗粒物(PM10),84,118,134,46,47,105,,,,14,14,9,9,0.5,0.5
2025-05-08T0600,4209A,117.0031,32.6445,淮南市,国庆中路369号,颗粒物(PM10),75,99,110,39,47,100,,,,11,11,11,10,0.5,0.5
2025-05-08T0600,2446A,114.9028,30.4742,黄冈市,职工中心,,,,,,,,,,,,,,,,
2025-05-08T0600,2929A,114.8858,30.4519,黄冈市,红卫路,颗粒物(PM10),57,63,152,34,51,114,,,,2,4,6,9,0.6,0.6
2025-05-08T0600,3398A,114.9136,30.4445,黄冈市,市林业局,颗粒物(PM10),59,68,158,31,45,107,,,,4,14,7,12,0.8,0.8
2025-05-08T0600,2672A,102.0199,35.5102,黄南藏族自治州,同仁县隆务镇,颗粒物(PM10),66,82,150,34,62,74,,,,2,5,4,6,0.3,0.3
2025-05-08T0600,2295A,118.2903,29.6963,黄山市,延安路89号,颗粒物(PM10),69,87,161,40,92,72,,,,8,12,6,6,0.5,0.4
2025-05-08T0600,2297A,118.1371,30.2756,黄山市,黄山区政府5号楼,颗粒物(PM10),63,76,160,23,49,38,,,,4,7,3,4,0.5,0.4
2025-05-08T0600,4210A,118.3354,29.7203,黄山市,滨江东路7-2号,颗粒物(PM10),54,57,159,21,50,76,,,,8,12,4,5,0.6,0.5
2025-05-08T0600,2423A,115.0601,30.2313,黄石市,沈家营,颗粒物(PM10),72,93,183,36,53,96,,,,8,22,6,10,0.5,0.8
2025-05-08T0600,2426A,114.8988,30.2019,黄石市,铁山,颗粒物(PM10),64,78,153,35,58,91,,,,3,8,6,6,0.3,0.3
2025-05-08T0600,2427A,115.0307,30.2092,黄石市,团城山,颗粒物(PM10),73,96,176,34,47,82,,,,18,13,11,11,0.8,0.6
2025-05-08T0600,3149A,115.0235,30.1578,黄石市,笔架山北路,颗粒物(PM10),54,57,141,34,50,88,,,,5,10,9,10,0.7,0.7
2025-05-08T0600,4185A,115.0780,30.21118,黄石市,磁湖东路29号,颗粒物(PM10),66,81,174,40,56,78,,,,27,17,12,10,1.0,0.7
2025-05-08T0600,1392A,114.4183,23.0528,惠州市,河南岸金山湖子站,,31,31,22,16,14,69,,,,9,14,9,8,0.5,0.5
2025-05-08T0600,1393A,114.4053,23.0822,惠州市,下埔横江三路子站,,34,34,24,16,15,82,,,,8,13,9,8,0.6,0.6
2025-05-08T0600,1394A,114.4103,23.1142,惠州市,江北云山西路子站,,30,30,21,15,12,78,,,,7,11,9,10,0.5,0.5
2025-05-08T0600,1395A,114.4645,22.7833,惠州市,惠阳区承修路船湖子站,,44,44,24,20,16,73,,,,14,17,7,7,0.6,0.6
2025-05-08T0600,1396A,114.5317,22.7422,惠州市,大亚湾管委会子站,,44,44,23,22,13,66,,,,19,14,10,9,0.5,0.5
2025-05-08T0600,3314A,114.4338,22.8134,惠州市,惠阳秋长,,44,44,21,17,13,74,,,,16,18,6,12,0.6,0.6
2025-05-08T0600,3452A,114.6517,22.775,惠州市,大亚湾霞涌,,,51,26,31,14,,,,,6,6,9,7,0.6,0.6
2025-05-08T0600,2240A,130.9762,45.3001,鸡西市,环保局,,39,31,30,27,20,61,,,,14,12,7,6,0.5,0.5
2025-05-08T0600,2243A,130.9429,45.3039,鸡西市,第一中学,,35,30,27,24,19,59,,,,10,7,7,6,0.5,0.5
2025-05-08T0600,3707A,131.0207,45.3073,鸡西市,欧美日汽修厂,,48,42,38,33,25,39,,,,27,14,8,7,0.7,0.6
2025-05-08T0600,3709A,130.9967,45.3106,鸡西市,市政设施管理处,,38,33,54,26,22,53,,,,19,14,9,7,0.5,0.5
2025-05-08T0600,2367A,114.9754,27.0803,吉安市,红声器材厂,颗粒物(PM10),59,67,74,30,28,41,,,,10,12,10,12,0.4,0.5
2025-05-08T0600,2368A,114.9658,27.0999,吉安市,市森林工业局,颗粒物(PM10),55,60,68,30,28,42,,,,10,11,8,10,0.4,0.5
2025-05-08T0600,2369A,114.99,27.1312,吉安市,市环境监测站,颗粒物(PM10),51,52,60,22,29,29,,,,9,11,12,14,0.5,0.6
2025-05-08T0600,2370A,115.0093,27.0968,吉安市,青原区法院,颗粒物(PM10),56,62,71,34,32,25,,,,13,13,18,15,0.5,0.5
2025-05-08T0600,1772A,126.54,43.8622,吉林市,哈达湾,颗粒物(PM10),51,51,50,32,32,65,,,,19,17,7,7,0.5,0.5
2025-05-08T0600,1773A,126.5844,43.8358,吉林市,东局子,"颗粒物(PM10),细颗粒物(PM2.5)",52,53,45,36,34,52,,,,20,18,5,6,0.6,0.5
2025-05-08T0600,1774A,126.5052,43.8245,吉林市,电力学院,细颗粒物(PM2.5),87,94,71,64,48,18,,,,33,20,6,6,0.8,0.6
2025-05-08T0600,1775A,126.6133,43.8972,吉林市,江北,细颗粒物(PM2.5),69,84,54,50,33,35,,,,28,17,6,7,0.6,0.3
2025-05-08T0600,1776A,126.555,43.8306,吉林市,江南公园,,46,43,43,32,33,51,,,,16,14,5,6,0.5,0.4
2025-05-08T0600,1778A,126.7061,43.7133,吉林市,丰满,,,,,,,,,,,,,,,,
2025-05-08T0600,2868A,126.4739,43.953,吉林市,九站,细颗粒物(PM2.5),67,69,66,48,41,33,,,,41,25,12,11,0.6,0.6
2025-05-08T0600,1299A,116.9862,36.6114,济南市,科干所,颗粒物(PM10),73,95,88,32,30,141,,,,12,13,5,5,0.2,0.3
2025-05-08T0600,1300A,116.9376,36.665,济南市,农科所,颗粒物(PM10),74,98,90,34,41,137,,,,12,18,7,7,0.4,0.4
2025-05-08T0600,1301A,117.1265,36.6734,济南市,开发区,颗粒物(PM10),73,95,95,39,32,146,,,,10,17,9,8,0.8,0.6
2025-05-08T0600,1303A,117.0624,36.6868,济南市,省种子仓库,细颗粒物(PM2.5),52,44,48,36,36,150,,,,9,24,6,5,0.5,0.5
2025-05-08T0600,1304A,116.9489,36.6447,济南市,机床二厂,颗粒物(PM10),83,115,110,32,34,130,,,,12,19,9,9,0.6,0.5
2025-05-08T0600,1305A,117.0495,36.663,济南市,市监测站,颗粒物(PM10),77,103,104,37,44,151,,,,13,24,10,9,0.5,0.5
2025-05-08T0600,1306A,116.7675,36.5484,济南市,长清党校,"颗粒物(PM10),细颗粒物(PM2.5)",77,103,95,56,41,148,,,,14,17,7,6,0.7,0.6
2025-05-08T0600,1616A,117.6795,36.229,济南市,技术学院,颗粒物(PM10),65,80,87,31,36,107,,,,16,23,10,12,0.7,0.8
2025-05-08T0600,1961A,117.532,36.6868,济南市,东山小学,颗粒物(PM10),74,98,98,29,29,128,,,,8,18,6,8,0.4,0.5
2025-05-08T0600,3059A,117.7161,36.2049,济南市,泰兴公司,颗粒物(PM10),68,85,90,39,40,103,,,,18,25,5,8,0.4,0.4
2025-05-08T0600,3064A,117.6867,36.2171,济南市,莱芜战役纪念馆,颗粒物(PM10),65,80,86,29,34,105,,,,17,26,5,7,0.9,0.9
2025-05-08T0600,3494A,117.1673,36.9782,济南市,济阳区政府,颗粒物(PM10),70,90,97,24,34,115,,,,13,27,3,5,0.8,0.7
2025-05-08T0600,3495A,117.1171,36.63,济南市,锦屏中学,颗粒物(PM10),69,88,88,27,25,145,,,,12,12,7,7,0.6,0.5
2025-05-08T0600,3682A,116.9814,36.6819,济南市,济南四建,颗粒物(PM10),70,90,93,34,39,143,,,,8,22,5,5,0.6,0.5
2025-05-08T0600,1653A,116.6251,35.4302,济宁市,火炬城,颗粒物(PM10),64,78,89,41,46,85,,,,10,9,8,8,0.5,0.5
2025-05-08T0600,1655A,116.5491,35.4042,济宁市,电化厂,颗粒物(PM10),67,83,95,31,35,91,,,,8,10,2,4,0.6,0.6
2025-05-08T0600,3500A,116.5814,35.3707,济宁市,北湖一中,颗粒物(PM10),62,74,98,34,31,85,,,,10,12,5,6,0.4,0.4
2025-05-08T0600,3501A,116.8249,35.5593,济宁市,服务中心,颗粒物(PM10),51,52,63,23,27,86,,,,13,16,5,3,0.3,0.4
2025-05-08T0600,3678A,116.5907,35.4054,济宁市,市第七中学,颗粒物(PM10),58,65,86,31,40,88,,,,9,12,6,7,0.4,0.5
2025-05-08T0600,2255A,130.2751,46.8028,佳木斯市,佳纺,,47,47,26,21,18,67,,,,17,10,5,5,0.4,0.4
2025-05-08T0600,2256A,130.3995,46.8307,佳木斯市,发电厂,,26,24,27,18,16,67,,,,17,10,4,4,0.3,0.3
2025-05-08T0600,2257A,130.3258,46.7975,佳木斯市,环保局,,25,22,27,17,18,55,,,,26,10,6,6,0.6,0.5
2025-05-08T0600,2258A,130.3648,46.8032,佳木斯市,十一中,,23,21,29,16,19,66,,,,17,12,5,5,0.4,0.3
2025-05-08T0600,2259A,130.3794,46.7588,佳木斯市,四丰,,24,16,21,11,14,75,,,,6,8,1,1,0.3,0.2
2025-05-08T0600,1252A,120.7436,30.778,嘉兴市,清河小学,颗粒物(PM10),60,70,93,17,29,78,,,,15,16,5,6,0.9,0.8
2025-05-08T0600,1253A,120.726,30.7478,嘉兴市,嘉兴学院,颗粒物(PM10),63,76,88,24,28,75,,,,13,12,7,7,0.8,0.7
2025-05-08T0600,2872A,120.7846,30.7525,嘉兴市,南湖区残联,颗粒物(PM10),52,53,91,23,30,83,,,,11,13,6,7,0.4,0.5
2025-05-08T0600,3407A,120.6916,30.7739,嘉兴市,秀洲住建,颗粒物(PM10),69,87,100,17,30,85,,,,7,7,8,8,0.5,0.5
2025-05-08T0600,1945A,98.2908,39.7711,嘉峪关市,气象局,,48,48,128,12,34,100,,,,4,6,9,8,0.3,0.6
2025-05-08T0600,2884A,98.2672,39.7978,嘉峪关市,酒钢宾馆,颗粒物(PM10),60,70,151,17,36,88,,,,4,4,13,16,0.2,0.3
2025-05-08T0600,3248A,98.2643,39.7724,嘉峪关市,雄关区,颗粒物(PM10),56,61,109,27,29,97,,,,8,9,10,13,0.2,0.6
2025-05-08T0600,1383A,113.1064,22.6058,江门市,北街,,36,36,21,13,9,38,,,,8,10,2,2,0.2,0.3
2025-05-08T0600,1384A,113.0731,22.5835,江门市,西区,,34,34,16,10,9,41,,,,11,10,6,6,0.4,0.4
2025-05-08T0600,1385A,113.0219,22.5311,江门市,圭峰西,,23,23,21,14,10,46,,,,5,8,4,4,0.4,0.4
2025-05-08T0600,1386A,113.0828,22.5947,江门市,东湖,,30,30,15,13,10,44,,,,11,11,7,7,0.4,0.4
2025-05-08T0600,3311A,113.1075,22.5647,江门市,江海富民,,48,48,27,29,19,44,,,,8,9,7,7,0.4,0.4
2025-05-08T0600,3449A,113.05,22.4667,江门市,新会银湖,,24,24,21,16,12,41,,,,7,10,1,1,0.4,0.4
2025-05-08T0600,1830A,113.1992,35.2590,焦作市,影视城,,,,116,,37,,,,,,10,,9,,0.6
2025-05-08T0600,3169A,113.2725,35.2067,焦作市,太极体育中心,颗粒物(PM10),101,151,213,45,58,95,,,,13,12,10,9,0.3,0.2
2025-05-08T0600,3335A,113.3137,35.2641,焦作市,马村街道办,颗粒物(PM10),88,125,203,48,61,92,,,,18,15,11,9,0.2,0.1
2025-05-08T0600,3336A,113.2465,35.2373,焦作市,焦作技师学院,颗粒物(PM10),76,101,187,39,53,103,,,,14,13,10,9,0.6,0.4
2025-05-08T0600,3477A,113.1656,35.2539,焦作市,中站许衡医院,颗粒物(PM10),70,89,168,29,45,120,,,,8,10,8,8,0.5,0.5
2025-05-08T0600,3981A,113.2449,35.1803,焦作市,原李万街道办,颗粒物(PM10),90,129,194,36,58,90,,,,12,9,15,16,0.3,0.4
2025-05-08T0600,4264A,113.2340,35.2190,焦作市,新安路1731号,颗粒物(PM10),79,107,216,44,71,97,,,,16,13,9,9,0.6,0.4
2025-05-08T0600,1708A,116.3701,23.5345,揭阳市,新兴,颗粒物(PM10),52,54,44,26,24,71,,,,2,2,7,6,0.5,0.6
2025-05-08T0600,1709A,116.3264,23.5443,揭阳市,西马,颗粒物(PM10),52,54,42,26,25,73,,,,11,10,9,7,0.6,0.9
2025-05-08T0600,1710A,116.3611,23.5626,揭阳市,东兴,颗粒物(PM10),52,53,41,22,20,70,,,,7,10,6,6,0.6,0.7
2025-05-08T0600,1711A,116.4151,23.5294,揭阳市,渔湖,,38,38,45,25,24,75,,,,13,15,5,4,0.6,0.7
2025-05-08T0600,3320A,116.403,23.5699,揭阳市,曲溪,,50,50,39,26,20,69,,,,20,19,21,15,0.5,0.6
2025-05-08T0600,1944A,102.1692,38.5167,金昌市,天庆家园,颗粒物(PM10),169,288,132,89,43,108,,,,3,6,7,9,0.7,0.7
2025-05-08T0600,4022A,102.1647,38.5371,金昌市,金川区人防中心,颗粒物(PM10),199,348,182,94,49,110,,,,4,7,4,5,0.5,0.5
2025-05-08T0600,4239A,102.1930,38.5319,金昌市,长春路96号,颗粒物(PM10),174,297,130,79,43,103,,,,1,4,12,13,0.5,0.6
2025-05-08T0600,1262A,119.647,29.077,金华市,十五中,颗粒物(PM10),69,88,133,39,48,99,,,,17,17,2,3,0.5,0.5
2025-05-08T0600,1263A,119.686,29.1029,金华市,监测站,,,105,150,48,51,,,,,19,17,1,3,0.5,0.4
2025-05-08T0600,3659A,119.656,29.1131,金华市,气象局,颗粒物(PM10),68,86,132,36,41,99,,,,23,21,2,2,0.7,0.6
2025-05-08T0600,1767A,121.1115,41.0879,锦州市,南山,细颗粒物(PM2.5),72,,44,52,41,70,,,,16,17,6,11,0.6,0.7
2025-05-08T0600,1768A,121.0604,40.8428,锦州市,开发区,细颗粒物(PM2.5),52,40,55,36,36,80,,,,21,20,6,7,0.6,0.6
2025-05-08T0600,1769A,121.1836,41.1119,锦州市,百股街道,,49,,40,34,33,77,,,,13,14,6,9,0.6,0.7
2025-05-08T0600,1770A,121.1178,41.1222,锦州市,天安街道,细颗粒物(PM2.5),74,,45,54,42,74,,,,16,17,6,9,0.6,0.7
2025-05-08T0600,1771A,121.1303,41.1386,锦州市,北湖公园,细颗粒物(PM2.5),73,,45,53,40,74,,,,17,17,6,10,0.6,0.7
2025-05-08T0600,2160A,112.85,35.5051,晋城市,自来水公司,颗粒物(PM10),94,138,208,39,55,114,,,,15,14,9,9,0.8,0.6
2025-05-08T0600,2161A,112.8318,35.4936,晋城市,白云商贸,颗粒物(PM10),94,138,224,36,65,104,,,,20,15,7,7,0.8,0.5
2025-05-08T0600,2162A,112.8508,35.4887,晋城市,市环保局,颗粒物(PM10),103,155,236,36,59,99,,,,13,11,7,7,0.4,0.3
2025-05-08T0600,2163A,112.8676,35.4897,晋城市,技术学院,颗粒物(PM10),99,148,221,36,60,93,,,,16,14,8,8,0.6,0.5
2025-05-08T0600,2165A,112.8453,35.546,晋城市,白马寺,颗粒物(PM10),86,122,177,29,63,136,,,,9,8,7,6,0.7,0.4
2025-05-08T0600,3620A,112.8271,35.4828,晋城市,泽州一中,颗粒物(PM10),86,122,223,41,73,113,,,,13,12,5,5,0.5,0.4
2025-05-08T0600,2173A,112.7249,37.7067,晋中市,南都小区,颗粒物(PM10),79,108,82,25,28,55,,,,24,23,5,6,0.4,0.4
2025-05-08T0600,2174A,112.6991,37.6982,晋中市,榆次区政府,颗粒物(PM10),79,107,82,18,24,56,,,,26,24,6,6,0.4,0.4
2025-05-08T0600,2865A,112.7195,37.6828,晋中市,榆次三中,颗粒物(PM10),74,97,82,27,31,22,,,,44,29,4,3,0.4,0.5
2025-05-08T0600,4200A,112.7478,37.6954,晋中市,迎宾街26号,颗粒物(PM10),82,114,83,29,26,48,,,,25,26,4,4,0.4,0.4
2025-05-08T0600,2439A,112.2014,31.0481,荆门市,竹园小学,细颗粒物(PM2.5),77,,182,56,76,73,,,,8,13,5,7,0.2,0.1
2025-05-08T0600,2440A,112.1969,30.9891,荆门市,掇刀,细颗粒物(PM2.5),102,,206,76,77,74,,,,28,18,4,6,0.5,0.4
2025-05-08T0600,2441A,112.2213,31.0386,荆门市,石化一小,细颗粒物(PM2.5),59,44,199,42,76,68,,,,8,15,10,14,0.4,0.2
2025-05-08T0600,3012A,112.1849,31.0362,荆门市,西山林语,细颗粒物(PM2.5),78,,188,57,75,66,,,,5,8,6,9,0.6,0.5
2025-05-08T0600,3547A,112.1632,31.0138,荆门市,龙泉中学南校,,35,35,193,24,90,67,,,,3,9,2,4,0.7,0.7
2025-05-08T0600,1844A,112.2494,30.3197,荆州市,市图书馆,,48,37,151,33,74,73,,,,7,15,3,7,0.6,0.6
2025-05-08T0600,1845A,112.2008,30.3544,荆州市,市委党校,细颗粒物(PM2.5),52,,166,36,77,67,,,,8,16,6,9,0.6,0.6
2025-05-08T0600,3194A,112.2747,30.3122,荆州市,管委会,,42,36,141,29,74,57,,,,17,15,7,10,0.6,0.6
2025-05-08T0600,4268A,112.1722,30.3366,荆州市,学苑路85号,,45,,141,31,65,72,,,,2,12,2,8,0.6,0.6
2025-05-08T0600,2342A,117.3102,29.3867,景德镇市,王港中学,,,,,,,,,,,,,,,,
2025-05-08T0600,2343A,117.2117,29.2933,景德镇市,老干部活动中心,颗粒物(PM10),57,63,143,24,41,84,,,,8,11,6,7,0.4,0.5
2025-05-08T0600,2344A,117.1894,29.2789,景德镇市,兽医站,颗粒物(PM10),68,86,164,24,40,78,,,,3,10,4,6,0.6,0.6
2025-05-08T0600,2345A,117.1547,29.2617,景德镇市,台达陶瓷,颗粒物(PM10),57,64,156,28,42,82,,,,3,19,4,35,0.5,0.6
2025-05-08T0600,2346A,117.2461,29.2956,景德镇市,陶研所,颗粒物(PM10),55,60,129,29,52,87,,,,6,11,12,10,0.4,0.5
2025-05-08T0600,1803A,115.9872,29.6815,九江市,十里,颗粒物(PM10),59,68,165,33,52,99,,,,3,9,4,5,0.6,0.6
2025-05-08T0600,1804A,115.9584,29.7046,九江市,茅山头,颗粒物(PM10),65,79,187,27,45,100,,,,3,17,6,10,0.6,0.6
2025-05-08T0600,1805A,115.9877,29.7295,九江市,西园,颗粒物(PM10),62,74,155,22,43,101,,,,13,22,9,10,0.7,0.7
2025-05-08T0600,1808A,115.9114,29.6038,九江市,综合工业园,颗粒物(PM10),59,68,178,32,57,54,,,,41,28,10,12,0.7,0.7
2025-05-08T0600,1809A,116.0721,29.7535,九江市,石化总厂,颗粒物(PM10),62,73,203,37,52,74,,,,7,16,10,10,0.7,0.7
2025-05-08T0600,1810A,115.9773,29.5698,九江市,庐山气象台,颗粒物(PM10),52,53,135,6,39,85,,,,5,6,8,7,0.5,0.9
2025-05-08T0600,3190A,116.0254,29.6994,九江市,外国语学校,颗粒物(PM10),52,53,174,29,40,84,,,,9,12,9,10,0.8,0.8
2025-05-08T0600,4253A,116.0102,29.6594,九江市,莲花大道8号,"颗粒物(PM10),细颗粒物(PM2.5)",57,63,171,40,56,93,,,,2,5,6,8,0.6,0.6
2025-05-08T0600,4240A,98.4958,39.7339,酒泉市,玉门东路5号,颗粒物(PM10),60,70,197,32,42,98,,,,1,2,10,9,0.3,0.2
2025-05-08T0600,4241A,98.5099,39.7506,酒泉市,北大街108号,颗粒物(PM10),53,56,190,30,36,91,,,,6,5,13,10,0.0,0.2
2025-05-08T0600,2698A,76.0072,39.4467,喀什地区,巡警大队,颗粒物(PM10),500,697,1212,209,324,46,,,,22,29,4,5,0.5,0.6
2025-05-08T0600,2699A,75.9755,39.4694,喀什地区,吾办,颗粒物(PM10),500,618,1114,305,490,30,,,,,42,7,7,0.1,0.3
2025-05-08T0600,4027A,75.9483,39.4689,喀什地区,老干局,颗粒物(PM10),482,582,1037,209,347,39,,,,19,22,3,5,0.2,0.3
2025-05-08T0600,1824A,114.3389,34.7781,开封市,肿瘤医院,颗粒物(PM10),80,109,164,46,43,81,,,,26,12,8,8,0.7,0.6
2025-05-08T0600,1826A,114.2885,34.7965,开封市,世纪星幼儿园,细颗粒物(PM2.5),99,100,168,74,69,91,,,,27,19,10,10,0.6,0.6
2025-05-08T0600,3147A,114.3438,34.8106,开封市,龙亭公园,颗粒物(PM10),73,96,157,48,94,84,,,,26,17,5,4,0.7,0.6
2025-05-08T0600,3210A,114.3644,34.7964,开封市,汴京公园,颗粒物(PM10),76,101,174,47,58,75,,,,34,18,5,5,0.8,0.6
2025-05-08T0600,3473A,114.2485,34.8306,开封市,技师学院,细颗粒物(PM2.5),80,91,153,59,89,80,,,,25,17,5,6,0.8,0.7
2025-05-08T0600,3592A,114.4644,34.7556,开封市,祥符区生态环境局,细颗粒物(PM2.5),95,104,126,71,93,87,,,,33,21,7,7,0.7,0.5
2025-05-08T0600,1951A,84.895,45.6094,克拉玛依市,长征新村,,23,16,30,3,10,72,,,,10,11,7,8,0.2,0.2
2025-05-08T0600,1952A,84.8988,45.5893,克拉玛依市,南林小区,,20,18,29,14,13,55,,,,8,8,5,5,0.4,0.2
2025-05-08T0600,1954A,84.905,44.3396,克拉玛依市,独山子区,,,,32,17,11,60,,,,8,10,7,8,0.4,0.4
2025-05-08T0600,1955A,85.6979,46.098,克拉玛依市,乌尔禾区商贸楼,,47,47,46,3,8,53,,,,16,7,12,13,0.4,0.3
2025-05-08T0600,3612A,85.1045,45.6899,克拉玛依市,白碱滩区新站,,25,7,26,6,11,78,,,,2,6,10,11,0.2,0.2
2025-05-08T0600,2697A,76.1454,39.7142,克孜勒苏柯尔克孜自治州,市人民政府,颗粒物(PM10),490,590,1110,206,383,69,,,,8,12,8,13,0.3,0.3
2025-05-08T0600,3665A,76.1658,39.7157,克孜勒苏柯尔克孜自治州,克州文化中心,颗粒物(PM10),474,574,1111,209,382,73,,,,12,15,6,15,0.3,0.3
2025-05-08T0600,1450A,102.8204,24.8886,昆明市,呈贡新区,,31,28,31,20,19,98,,,,10,12,5,6,0.4,0.4
2025-05-08T0600,1451A,102.6251,24.9608,昆明市,西山森林公园,,,,,,,,,,,,,,,,
2025-05-08T0600,1452A,102.7252,25.0902,昆明市,龙泉镇,,30,23,22,14,13,96,,,,8,13,10,9,0.3,0.3
2025-05-08T0600,1453A,102.7266,25.0375,昆明市,东风东路,,31,24,26,11,15,99,,,,12,13,10,10,0.4,0.4
2025-05-08T0600,1454A,102.6742,25.0669,昆明市,金鼎山,,32,,20,12,10,102,,,,7,11,2,3,0.5,0.5
2025-05-08T0600,1455A,102.6644,25.0401,昆明市,碧鸡广场,,30,24,26,17,16,96,,,,12,12,8,8,0.4,0.4
2025-05-08T0600,3179A,102.7494,25.0119,昆明市,官渡区博物馆,,34,16,25,16,16,108,,,,5,10,7,7,0.4,0.3
2025-05-08T0600,3375A,102.8017,24.8336,昆明市,青年创业园,,33,33,24,15,14,104,,,,7,7,10,9,0.4,0.3
2025-05-08T0600,3550A,102.7997,24.9786,昆明市,昆明学院,,33,28,27,17,14,105,,,,5,8,5,5,0.3,0.3
2025-05-08T0600,3551A,102.5967,24.6736,昆明市,晋宁区生态环境分局,,32,14,15,14,11,100,,,,6,6,6,8,0.3,0.4
2025-05-08T0600,3552A,102.6678,24.9856,昆明市,云天化总部,,34,28,30,19,15,106,,,,5,13,6,7,0.3,0.3
2025-05-08T0600,1456A,91.1319,29.6514,拉萨市,八廓街,,22,22,23,9,13,54,,,,19,21,5,6,0.3,0.3
2025-05-08T0600,1457A,91.1221,29.6747,拉萨市,市环保局,,28,28,26,8,14,53,,,,11,17,4,4,0.5,0.6
2025-05-08T0600,1458A,91.0874,29.6475,拉萨市,区监测站,,24,24,19,13,11,34,,,,36,26,5,6,0.5,0.5
2025-05-08T0600,1459A,91.1774,29.6541,拉萨市,西藏大学,,22,22,20,11,11,57,,,,18,18,5,6,0.4,0.4
2025-05-08T0600,1460A,90.9798,29.6588,拉萨市,区辐射站,,29,29,24,13,13,36,,,,25,27,6,6,0.4,0.4
2025-05-08T0600,1461A,91.0834,29.6292,拉萨市,拉萨火车站,,19,19,15,8,9,51,,,,21,15,3,4,0.5,0.4
2025-05-08T0600,2520A,109.2203,23.7256,来宾市,来宾技工学校,细颗粒物(PM2.5),75,90,61,55,40,14,,,,26,18,17,11,1.0,1
2025-05-08T0600,3535A,109.1781,23.7297,来宾市,兴宾区政府,细颗粒物(PM2.5),60,62,53,43,36,18,,,,28,19,12,6,1.2,0.9
2025-05-08T0600,4002A,109.2416,23.7461,来宾市,中南小学,细颗粒物(PM2.5),75,76,57,55,38,10,,,,28,17,20,10,0.8,0.8
2025-05-08T0600,1477A,104.1373,35.9454,兰州市,榆中兰大校区,,,,,,,,,,,,,,,,
2025-05-08T0600,1479A,103.831,36.0464,兰州市,铁路设计院,,36,36,109,15,34,59,,,,25,22,8,9,0.5,0.5
2025-05-08T0600,3241A,103.7439,36.0842,兰州市,百合公园,,39,39,97,16,34,33,,,,37,15,1,4,0.3,0.3
2025-05-08T0600,3242A,103.9611,35.998,兰州市,和平,,30,30,123,14,56,56,,,,10,10,11,16,0.6,0.7
2025-05-08T0600,4236A,103.6293,36.0938,兰州市,庄浪东路808号,,44,44,120,26,46,62,,,,15,19,9,11,0.2,0.3
2025-05-08T0600,4237A,103.7251,36.1043,兰州市,安宁西路88号,,49,49,127,32,48,52,,,,22,13,4,6,0.2,0.3
2025-05-08T0600,4238A,103.8470,36.0676,兰州市,北滨河东路1号,,47,47,116,22,48,31,,,,43,20,9,12,0.5,0.5
2025-05-08T0600,3245A,103.6633,36.533,兰州新区,新区管委会,,42,40,92,29,50,68,,,,9,8,8,10,0.4,0.3
2025-05-08T0600,3246A,103.6975,36.4789,兰州新区,舟曲中学,,47,47,128,19,44,88,,,,10,9,5,9,0.4,0.5
2025-05-08T0600,1067A,116.6708,39.5111,廊坊市,药材公司,细颗粒物(PM2.5),103,120,108,77,59,12,,,,63,20,5,5,0.7,0.6
2025-05-08T0600,1068A,116.7214,39.5589,廊坊市,开发区,细颗粒物(PM2.5),85,107,114,63,49,0,,,,69,30,2,4,0.7,0.5
2025-05-08T0600,1070A,116.7244,39.5269,廊坊市,北华航天学院,细颗粒物(PM2.5),118,121,119,89,54,3,,,,78,31,5,7,0.8,0.5
2025-05-08T0600,2919A,116.7022,39.5453,廊坊市,河北工业大学,细颗粒物(PM2.5),102,119,121,76,54,2,,,,78,29,7,8,0.7,0.5
2025-05-08T0600,2535A,103.7723,29.5462,乐山市,花湖湾,,32,25,28,22,20,63,,,,8,10,6,6,0.6,0.6
2025-05-08T0600,2536A,103.7627,29.5844,乐山市,牛耳桥,,35,25,31,24,25,83,,,,11,12,7,7,0.6,0.6
2025-05-08T0600,2537A,103.7508,29.6006,乐山市,市第三水厂,,33,24,30,23,22,80,,,,11,13,4,4,0.7,0.7
2025-05-08T0600,2538A,103.7571,29.5664,乐山市,市监测站,,24,21,28,16,19,75,,,,8,10,6,6,0.9,0.9
2025-05-08T0600,3361A,103.7311,29.5628,乐山市,理工大学,,32,22,25,22,21,74,,,,8,10,4,4,0.5,0.6
2025-05-08T0600,2598A,100.2143,26.8576,丽江市,西南郊,,39,6,22,3,6,122,,,,1,2,5,5,0.7,0.7
2025-05-08T0600,2599A,100.2497,26.8802,丽江市,丽江古城,,35,,14,11,11,111,,,,9,8,8,8,0.5,0.5
2025-05-08T0600,2600A,100.2203,26.8906,丽江市,市中心,,33,,11,8,9,104,,,,2,3,8,7,0.5,0.4
2025-05-08T0600,1267A,119.914,28.4514,丽水市,监测站大楼,颗粒物(PM10),59,67,89,31,34,87,,,,14,11,2,2,0.5,0.5
2025-05-08T0600,1268A,119.93,28.4586,丽水市,莲都小学,颗粒物(PM10),66,81,100,28,33,114,,,,6,9,3,3,0.3,0.4
2025-05-08T0600,1269A,119.879,28.4231,丽水市,余庄前,颗粒物(PM10),61,71,89,31,35,54,,,,7,8,3,3,0.4,0.4
2025-05-08T0600,1173A,119.176,34.5885,连云港市,市环境监测站,,41,41,58,14,25,100,,,,10,13,6,7,0.4,0.5
2025-05-08T0600,3000A,119.3581,34.6972,连云港市,德源药业,,44,44,52,19,24,93,,,,13,13,10,10,0.8,0.6
2025-05-08T0600,3007A,119.178,34.844,连云港市,新城一中,颗粒物(PM10),52,54,58,22,22,86,,,,23,19,8,8,0.7,0.5
2025-05-08T0600,3008A,119.3608,34.7519,连云港市,胡沟管理处,,36,36,54,17,26,95,,,,25,24,17,16,0.7,0.8
2025-05-08T0600,3009A,119.1478,34.5911,连云港市,矿山设计院,颗粒物(PM10),51,51,68,14,28,100,,,,9,11,9,11,0.5,0.5
2025-05-08T0600,3434A,119.2413,34.6539,连云港市,工贸学校,,35,33,50,23,27,109,,,,10,12,9,9,0.5,0.5
2025-05-08T0600,3664A,119.4172,34.7341,连云港市,连云街道,,49,49,58,20,25,116,,,,11,19,10,11,0.6,0.6
2025-05-08T0600,2571A,102.3431,27.8099,凉山彝族自治州,青龙寺,,30,23,18,3,5,93,,,,5,4,4,4,0.6,0.6
2025-05-08T0600,2572A,102.2721,27.8415,凉山彝族自治州,邛海宾馆,,33,24,28,12,15,103,,,,4,8,12,11,0.6,0.7
2025-05-08T0600,2573A,102.2625,27.898,凉山彝族自治州,西昌市政府,,29,17,24,8,17,91,,,,8,10,19,14,0.7,0.8
2025-05-08T0600,2574A,102.2685,27.8851,凉山彝族自治州,凉山州政府,,32,28,29,9,15,100,,,,8,11,16,10,0.4,0.4
2025-05-08T0600,4229A,102.2342,27.8859,凉山彝族自治州,凯乐南路30号,,34,34,36,16,14,81,,,,10,13,24,20,1.5,1.1
2025-05-08T0600,2212A,123.2,41.1953,辽阳市,宏伟区,,42,34,29,29,16,116,,,,5,9,6,8,0.4,0.5
2025-05-08T0600,2213A,123.1683,41.2495,辽阳市,新华园,,38,35,38,26,20,104,,,,6,12,6,9,0.4,0.6
2025-05-08T0600,2214A,123.2354,41.2639,辽阳市,滨河路,,35,33,31,24,21,105,,,,12,13,7,9,0.3,0.4
2025-05-08T0600,2215A,123.149,41.2991,辽阳市,铁西工业园,,49,49,39,28,34,102,,,,5,11,10,14,0.3,0.6
2025-05-08T0600,2227A,125.1358,42.8845,辽源市,环保局,,35,35,52,9,25,77,,,,19,23,7,7,0.4,0.6
2025-05-08T0600,3239A,125.0764,42.9078,辽源市,银鹰制药,,31,31,48,19,30,69,,,,26,21,5,5,0.4,0.5
2025-05-08T0600,1625A,115.9848,36.4372,聊城市,区政府,颗粒物(PM10),70,90,111,33,33,106,,,,13,17,7,8,0.8,0.8
2025-05-08T0600,2878A,116.0072,36.4343,聊城市,聊大东校,颗粒物(PM10),71,92,106,45,45,103,,,,10,15,7,8,0.5,0.4
2025-05-08T0600,3200A,115.9819,36.4978,聊城市,监控中心,颗粒物(PM10),73,96,116,31,36,113,,,,12,17,8,8,0.6,0.6
2025-05-08T0600,3513A,116.0445,36.4361,聊城市,九州社区,颗粒物(PM10),69,87,93,31,30,115,,,,10,18,4,6,0.5,0.4
2025-05-08T0600,4018A,116.0567,36.4608,聊城市,星美广场,颗粒物(PM10),65,79,92,27,29,107,,,,11,20,9,10,0.6,0.6
2025-05-08T0600,2632A,94.3681,29.6376,林芝市,林芝监测站,,22,6,7,3,4,68,,,,5,5,5,5,0.3,0.3
2025-05-08T0600,2633A,94.3616,29.6616,林芝市,林芝人民医院,,23,6,9,3,5,72,,,,2,4,5,5,0.3,0.4
2025-05-08T0600,2603A,100.0781,23.8982,临沧市,市环保局,,30,30,35,17,30,29,,,,14,11,6,7,0.6,0.5
2025-05-08T0600,2604A,100.0894,23.8822,临沧市,市气象局,,39,31,32,27,24,34,,,,14,13,7,8,0.7,0.6
2025-05-08T0600,1733A,111.5531,36.0783,临汾市,临钢医院,颗粒物(PM10),107,164,176,46,40,89,,,,11,13,5,7,0.8,0.6
2025-05-08T0600,1734A,111.5028,36.0714,临汾市,技工学校,颗粒物(PM10),99,147,177,42,55,104,,,,7,11,7,9,0.7,0.6
2025-05-08T0600,1736A,111.5018,36.0855,临汾市,市委,颗粒物(PM10),108,165,179,48,57,109,,,,6,10,7,11,1.0,0.9
2025-05-08T0600,3018A,111.505,36.1014,临汾市,唐尧大酒店,颗粒物(PM10),101,151,158,39,46,98,,,,10,13,4,8,0.7,0.6
2025-05-08T0600,4244A,111.4879,36.0530,临汾市,启星学校,颗粒物(PM10),98,146,159,46,45,103,,,,7,12,7,10,0.7,0.6
2025-05-08T0600,4271A,103.2464,35.6123,临夏回族自治州,滨河东路1号,,44,44,163,26,66,44,,,,13,8,6,8,0.3,0.3
2025-05-08T0600,4310A,103.2093,35.5995,临夏回族自治州,新华街21号,,40,40,153,21,57,56,,,,16,13,4,7,0.3,0.3
2025-05-08T0600,1618A,118.3429,35.0532,临沂市,沂河小区,颗粒物(PM10),59,68,84,32,31,78,,,,12,12,7,10,0.3,0.3
2025-05-08T0600,1619A,118.295,35.0583,临沂市,鲁南制药厂,颗粒物(PM10),51,51,73,24,32,90,,,,16,16,4,8,0.6,0.6
2025-05-08T0600,1620A,118.2794,34.9976,临沂市,新光毛纺厂,,42,29,46,29,32,87,,,,19,18,6,10,0.4,0.4
2025-05-08T0600,1621A,118.3956,35.0888,临沂市,河东保险公司,颗粒物(PM10),52,53,67,21,33,71,,,,17,15,5,7,0.5,0.4
2025-05-08T0600,3370A,118.3564,35.0215,临沂市,十里堡居委,颗粒物(PM10),52,53,70,24,34,84,,,,23,19,2,5,0.5,0.5
2025-05-08T0600,3496A,118.3604,35.1084,临沂市,南坊新区,,32,31,43,22,32,78,,,,16,15,6,8,0.5,0.4
2025-05-08T0600,3860A,118.3920,35.0300,临沂市,皇山花园小区,颗粒物(PM10),54,58,73,27,34,66,,,,24,20,7,10,0.5,0.6
2025-05-08T0600,1870A,109.4856,24.3895,柳州市,柳东小学,,31,31,27,14,20,23,,,,16,10,12,10,0.7,0.7
2025-05-08T0600,1871A,109.4157,24.3277,柳州市,环保监测站,,44,44,36,25,22,20,,,,22,16,5,6,0.9,0.8
2025-05-08T0600,1872A,109.389,24.341,柳州市,河西水厂,,46,46,37,24,20,18,,,,21,13,6,7,0.9,0.8
2025-05-08T0600,1873A,109.4311,24.2921,柳州市,市四中,颗粒物(PM10),55,59,37,26,20,20,,,,25,17,8,9,0.8,0.8
2025-05-08T0600,1874A,109.4006,24.3631,柳州市,市九中,颗粒物(PM10),51,52,37,25,22,22,,,,21,13,8,10,0.9,0.8
2025-05-08T0600,1875A,109.4958,24.3134,柳州市,古亭山,,32,32,33,14,20,7,,,,26,13,8,9,1.2,0.9
2025-05-08T0600,3402A,109.5422,24.3996,柳州市,市二中,,39,39,28,22,19,12,,,,28,16,10,10,0.8,0.7
2025-05-08T0600,2307A,116.5079,31.737,六安市,监测大楼,颗粒物(PM10),75,99,149,42,51,115,,,,14,14,2,3,0.5,0.4
2025-05-08T0600,2308A,116.4738,31.7643,六安市,皖西学院,颗粒物(PM10),76,102,161,44,46,114,,,,16,15,6,6,0.5,0.4
2025-05-08T0600,2309A,116.4996,31.7905,六安市,朝阳厂,颗粒物(PM10),71,92,144,39,44,107,,,,19,19,4,5,0.4,0.3
2025-05-08T0600,2310A,116.5567,31.7886,六安市,开发区,颗粒物(PM10),84,118,179,46,58,102,,,,27,24,6,6,0.5,0.5
2025-05-08T0600,2576A,104.8,26.5892,六盘水市,窑上,,32,23,31,22,20,11,,,,3,7,5,5,0.4,0.5
2025-05-08T0600,2577A,104.83,26.5917,六盘水市,黄土坡,,43,34,29,30,22,16,,,,13,14,9,9,0.7,0.6
2025-05-08T0600,2578A,104.89,26.5939,六盘水市,水钢,,32,32,30,20,16,38,,,,13,10,8,8,0.8,0.4
2025-05-08T0600,2579A,104.8475,26.5894,六盘水市,民中,,39,33,27,27,17,25,,,,16,11,9,8,1.2,0.5
2025-05-08T0600,2580A,104.9544,26.5506,六盘水市,双水,,34,34,26,13,11,46,,,,7,10,8,9,0.5,0.5
2025-05-08T0600,2335A,117.0189,25.1181,龙岩市,龙岩师专,,,,,,,,,,,,,,,,
2025-05-08T0600,2336A,117.0217,25.1033,龙岩市,龙岩市监测站,细颗粒物(PM2.5),55,42,25,39,15,41,,,,18,13,12,6,0.7,0.6
2025-05-08T0600,2337A,117.0258,25.0661,龙岩市,闽西职业技术学院,,49,38,27,34,19,31,,,,20,13,14,6,0.7,0.6
2025-05-08T0600,2338A,117.0196,25.0306,龙岩市,龙岩学院,,39,39,27,24,18,29,,,,9,14,10,5,0.5,0.5
2025-05-08T0600,2665A,105.0822,33.3261,陇南市,汉王镇固水子,,,,,,,,,,,,,,,,
2025-05-08T0600,2885A,104.9339,33.3826,陇南市,滨江中学,,39,37,42,27,20,51,,,,11,8,10,10,0.3,0.4
2025-05-08T0600,3247A,104.955,33.371,陇南市,市总工会,,38,38,36,10,14,53,,,,2,8,8,8,0.3,0.4
2025-05-08T0600,2487A,111.9589,27.8901,娄底市,电视发射台,颗粒物(PM10),73,95,82,37,32,54,,,,6,4,6,5,0.5,0.5
2025-05-08T0600,2488A,111.9975,27.725,娄底市,市监测站,颗粒物(PM10),73,96,85,33,42,49,,,,12,20,10,14,0.6,0.8
2025-05-08T0600,2489A,112.0194,27.7314,娄底市,市委党校,,,98,83,42,44,,,,,5,11,4,4,0.3,0.4
2025-05-08T0600,2490A,111.9561,27.7569,娄底市,涟钢,,,113,85,43,43,,,,,46,15,45,17,3.3,1.2
2025-05-08T0600,2491A,111.9892,27.7044,娄底市,市政府,颗粒物(PM10),73,95,75,41,40,52,,,,7,9,6,5,0.6,0.7
2025-05-08T0600,1893A,105.4324,28.9634,泸州市,九狮山,,,,,,,,,,,,,,,,
2025-05-08T0600,1894A,105.4427,28.9063,泸州市,小市上码头,,,46,39,26,23,,,,,9,17,6,7,0.6,0.6
2025-05-08T0600,1895A,105.4241,28.8573,泸州市,兰田宪桥,细颗粒物(PM2.5),57,45,35,40,29,67,,,,7,14,8,7,0.8,0.6
2025-05-08T0600,1896A,105.4379,28.8833,泸州市,市环监站,,,,,,,,,,,,,,,,
2025-05-08T0600,4272A,105.3689,28.7783,泸州市,纳溪中医医院,细颗粒物(PM2.5),57,59,36,40,27,57,,,,10,22,6,6,0.6,0.5
2025-05-08T0600,2183A,111.1406,37.5211,吕梁市,环保局,颗粒物(PM10),92,133,107,45,38,6,,,,40,31,3,2,0.7,0.5
2025-05-08T0600,2185A,111.1297,37.5136,吕梁市,自来水公司,颗粒物(PM10),91,132,108,34,40,0,,,,44,31,6,4,0.6,0.7
2025-05-08T0600,2867A,111.1283,37.51,吕梁市,马茂庄小学,颗粒物(PM10),97,144,121,37,39,2,,,,49,37,10,5,0.4,0.5
2025-05-08T0600,1812A,112.3931,34.6516,洛阳市,市委党校,颗粒物(PM10),82,113,201,41,67,67,,,,18,18,8,9,0.7,0.6
2025-05-08T0600,1815A,112.494,34.6886,洛阳市,河南林校,颗粒物(PM10),89,127,228,48,69,67,,,,21,18,10,10,0.5,0.4
2025-05-08T0600,1816A,112.3844,34.623,洛阳市,开发区管委会,颗粒物(PM10),87,123,206,50,87,73,,,,16,16,10,10,0.5,0.5
2025-05-08T0600,1817A,112.4267,34.6258,洛阳市,市委新办公区,颗粒物(PM10),87,124,211,45,65,63,,,,21,18,8,8,0.5,0.4
2025-05-08T0600,3340A,112.6005,34.6326,洛阳市,伊滨,颗粒物(PM10),84,117,215,48,68,64,,,,21,18,9,10,0.5,0.4
2025-05-08T0600,3341A,112.4951,34.6332,洛阳市,中移产业园,颗粒物(PM10),99,148,250,47,65,68,,,,18,16,9,10,0.9,0.8
2025-05-08T0600,3593A,112.5736,34.8993,洛阳市,吉利监测站,颗粒物(PM10),94,138,241,47,79,97,,,,21,15,15,13,0.5,0.5
2025-05-08T0600,3635A,112.3677,34.662,洛阳市,河科大西苑校区,颗粒物(PM10),86,121,219,40,55,80,,,,19,18,10,11,0.5,0.5
2025-05-08T0600,3636A,112.4388,34.6781,洛阳市,英才小学,颗粒物(PM10),85,120,209,46,65,73,,,,21,20,8,8,0.5,0.5
2025-05-08T0600,4214A,112.4600,34.6949,洛阳市,春都路1号院,颗粒物(PM10),81,112,214,40,62,77,,,,16,15,6,7,0.6,0.5
2025-05-08T0600,2399A,114.051,33.5699,漯河市,三五一五工厂,颗粒物(PM10),112,173,247,52,74,97,,,,12,12,5,5,0.8,0.7
2025-05-08T0600,2400A,114.0055,33.5698,漯河市,漯河大学,颗粒物(PM10),108,165,226,51,79,94,,,,16,8,6,6,0.5,0.4
2025-05-08T0600,2401A,114.0138,33.5828,漯河市,市水利局,颗粒物(PM10),117,183,258,46,85,103,,,,10,9,5,5,0.3,0.3
2025-05-08T0600,2402A,114.0261,33.5698,漯河市,市广电局,颗粒物(PM10),105,159,227,56,84,95,,,,12,9,4,5,0.5,0.4
2025-05-08T0600,3478A,113.9749,33.5664,漯河市,市图书馆,颗粒物(PM10),110,170,262,62,89,104,,,,15,14,4,4,0.5,0.5
2025-05-08T0600,4250A,114.0892,33.5882,漯河市,韶山路11号,颗粒物(PM10),110,169,247,58,102,93,,,,13,12,6,4,0.7,0.6
2025-05-08T0600,1798A,118.5092,31.6837,马鞍山市,湖东路四小,颗粒物(PM10),66,81,110,39,39,94,,,,12,10,6,6,0.6,0.5
2025-05-08T0600,1799A,118.5024,31.6449,马鞍山市,开发区,颗粒物(PM10),71,92,117,39,41,92,,,,17,15,15,10,0.6,0.6
2025-05-08T0600,1802A,118.6245,31.7241,马鞍山市,濮塘,颗粒物(PM10),63,76,98,26,35,98,,,,8,8,7,8,0.6,0.6
2025-05-08T0600,3633A,118.4918,31.6809,马鞍山市,雨山,颗粒物(PM10),66,82,114,35,37,97,,,,15,12,8,8,0.5,0.6
2025-05-08T0600,4191A,118.5274,31.72227,马鞍山市,慈湖高新区,颗粒物(PM10),73,95,112,50,46,90,,,,12,15,10,10,0.6,0.6
2025-05-08T0600,1686A,111.0286,21.4688,茂名市,电白南海,,18,17,18,12,12,41,,,,4,5,2,2,0.8,0.7
2025-05-08T0600,1687A,110.9294,21.6533,茂名市,茂石化七小,,14,14,20,7,8,42,,,,5,5,2,2,0.3,0.4
2025-05-08T0600,1688A,110.9107,21.6687,茂名市,健康路,,14,12,20,9,12,44,,,,2,2,3,3,0.7,0.8
2025-05-08T0600,1689A,110.8592,21.6828,茂名市,高岭,,,19,28,3,6,40,,,,7,7,3,3,,0.6
2025-05-08T0600,3450A,111.01,21.5165,茂名市,电白水东,,14,7,10,3,5,42,,,,7,7,3,3,0.6,0.6
2025-05-08T0600,2539A,104.0308,30.0478,眉山市,黑龙滩水库,,43,,17,30,18,37,,,,14,7,3,2,0.6,0.5
2025-05-08T0600,2540A,103.8416,30.0874,眉山市,气象局,颗粒物(PM10),57,63,47,24,24,55,,,,17,19,3,9,0.4,0.4
2025-05-08T0600,3137A,103.8578,30.0744,眉山市,市委党校,,27,27,29,17,18,64,,,,15,15,8,9,0.5,0.4
2025-05-08T0600,3148A,103.8291,30.0564,眉山市,区人社局,,29,29,37,19,19,63,,,,17,17,9,10,0.4,0.4
2025-05-08T0600,1690A,116.1231,24.3284,梅州市,梅江月梅,,37,37,20,3,8,62,,,,6,5,6,5,0.7,0.7
2025-05-08T0600,1691A,116.0797,24.2719,梅州市,梅县新城,,33,33,25,13,14,46,,,,13,11,5,6,0,0.4
2025-05-08T0600,1692A,116.1248,24.2654,梅州市,环境监控中心,,40,40,19,6,10,19,,,,19,12,11,8,0.8,0.8
2025-05-08T0600,3315A,116.1233,24.2991,梅州市,梅龙,,,34,16,16,11,,,,,9,5,8,6,0.4,0.5
2025-05-08T0600,1878A,104.7778,31.4741,绵阳市,富乐山,,30,26,37,21,24,26,,,,9,12,8,8,0.4,0.4
2025-05-08T0600,1880A,104.6697,31.4668,绵阳市,高新区自来水公司,,42,42,44,14,27,35,,,,23,19,3,4,0.0,0.4
2025-05-08T0600,1881A,104.7287,31.5075,绵阳市,三水厂,,38,28,44,26,28,33,,,,21,16,7,8,0.5,0.5
2025-05-08T0600,3491A,104.69,31.5322,绵阳市,西科大附属小学,,39,39,42,25,24,28,,,,25,18,6,7,0.5,0.5
2025-05-08T0600,3492A,104.5648,31.5343,绵阳市,安州区旅游局,,39,39,34,22,19,33,,,,15,14,14,9,0.5,0.5
2025-05-08T0600,4226A,104.7651,31.4531,绵阳市,绵阳市气象局,,38,34,40,26,24,52,,,,14,15,2,6,0.5,0.5
2025-05-08T0600,1784A,129.61,44.561,牡丹江市,环保大楼,,33,30,28,23,21,38,,,,17,15,5,5,0.4,0.4
2025-05-08T0600,1785A,129.6115,44.5782,牡丹江市,文化广场,,39,39,34,23,28,41,,,,18,19,8,9,0.5,0.5
2025-05-08T0600,1786A,129.5904,44.5963,牡丹江市,第一医院,,36,36,33,22,22,32,,,,20,14,7,7,0.7,0.6
2025-05-08T0600,1787A,129.6364,44.6075,牡丹江市,机车工厂,细颗粒物(PM2.5),53,38,37,37,24,20,,,,24,16,6,7,0.6,0.5
2025-05-08T0600,1788A,129.6386,44.5462,牡丹江市,第一中学,,41,41,29,17,20,33,,,,17,17,5,5,0.3,0.3
2025-05-08T0600,2531A,105.0703,29.61,内江市,市监测站,,46,40,34,32,27,73,,,,4,9,13,12,0.5,0.7
2025-05-08T0600,2532A,105.0717,29.5947,内江市,东兴区政府,,32,27,28,22,22,74,,,,6,10,17,17,0.4,0.4
2025-05-08T0600,2533A,105.0653,29.5817,内江市,内江二中,,38,29,36,26,28,73,,,,13,20,6,7,0.5,0.5
2025-05-08T0600,2534A,105.0406,29.5822,内江市,内江日报社,,32,22,26,22,27,61,,,,6,8,3,10,0.5,0.5
2025-05-08T0600,2628A,92.0657,31.4846,那曲市,那曲监测站,颗粒物(PM10),56,61,46,23,20,61,,,,13,13,7,7,0.6,0.5
2025-05-08T0600,4243A,92.0515,31.4787,那曲市,那曲市委宣传部,细颗粒物(PM2.5),54,,10,38,28,73,,,,9,7,5,5,0.7,0.3
2025-05-08T0600,1290A,115.8931,28.6843,南昌市,省外办,,50,50,115,24,45,66,,,,12,18,5,8,0.7,0.6
2025-05-08T0600,1291A,115.8886,28.7003,南昌市,省林业公司,,39,39,155,22,43,72,,,,8,12,8,10,0.9,0.8
2025-05-08T0600,1292A,115.8126,28.7442,南昌市,林科所,,39,39,158,17,44,59,,,,12,18,3,5,0.5,0.5
2025-05-08T0600,1294A,115.8518,28.687,南昌市,建工学校,颗粒物(PM10),52,53,170,21,45,70,,,,13,17,4,7,0.9,0.7
2025-05-08T0600,1295A,115.8921,28.6424,南昌市,象湖,,47,47,133,22,39,68,,,,11,16,8,11,0.7,0.8
2025-05-08T0600,1296A,115.7423,28.7996,南昌市,武术学校,,30,30,121,19,28,62,,,,5,7,6,7,0.5,0.6
2025-05-08T0600,3046A,115.9084,28.6062,南昌市,机电学校,颗粒物(PM10),51,51,157,24,43,65,,,,18,19,4,6,0.5,0.5
2025-05-08T0600,3690A,115.9721,28.7031,南昌市,外国语学校,,40,40,146,15,38,87,,,,4,10,7,8,0.3,0.4
2025-05-08T0600,4192A,115.9316,28.68677,南昌市,南京东路235号,颗粒物(PM10),55,59,175,23,41,85,,,,8,16,8,12,0.9,0.9
2025-05-08T0600,1905A,106.056,30.8064,南充市,西山风景区,,,,,,,,,,,,,,,,
2025-05-08T0600,1906A,106.0789,30.8023,南充市,南充市委,,39,36,50,27,37,69,,,,6,11,4,4,0.5,0.6
2025-05-08T0600,1907A,106.1031,30.8217,南充市,南充炼油厂,,44,44,53,26,33,70,,,,4,9,3,4,0.2,0.3
2025-05-08T0600,4227A,106.1083,30.7884,南充市,梨树横街98号,,34,34,52,22,33,70,,,,5,10,2,4,0.2,0.3
2025-05-08T0600,4304A,106.1172,30.843,南充市,清泉寺北路188号,,35,35,57,23,34,62,,,,6,9,4,4,0.2,0.3
2025-05-08T0600,4305A,106.067,30.7616,南充市,同庆路1号,,39,31,47,27,35,67,,,,6,11,3,4,0.1,0.2
2025-05-08T0600,1151A,118.8086,32.1065,南京市,迈皋桥,颗粒物(PM10),54,57,77,24,30,90,,,,7,9,4,4,0.3,0.3
2025-05-08T0600,1152A,118.7538,32.0551,南京市,草场门,颗粒物(PM10),59,68,97,22,35,91,,,,16,17,3,2,0.2,0.1
2025-05-08T0600,1153A,118.7794,32.0745,南京市,山西路,颗粒物(PM10),59,68,98,22,32,96,,,,17,18,3,4,0.2,0.2
2025-05-08T0600,1154A,118.7752,32.0023,南京市,中华门,颗粒物(PM10),57,63,93,27,30,89,,,,12,14,7,7,0.3,0.4
2025-05-08T0600,1155A,118.8109,32.0309,南京市,瑞金路,颗粒物(PM10),60,70,100,22,31,92,,,,7,9,6,6,0.3,0.3
2025-05-08T0600,1156A,118.7997,32.0754,南京市,玄武湖,颗粒物(PM10),57,64,85,16,26,89,,,,5,8,4,4,0.5,0.6
2025-05-08T0600,1157A,118.6414,32.0931,南京市,浦口,颗粒物(PM10),61,72,99,21,30,101,,,,20,20,6,6,0.6,0.6
2025-05-08T0600,1158A,118.7356,31.9996,南京市,奥体中心,颗粒物(PM10),89,128,98,29,30,103,,,,12,13,4,4,0.3,0.3
2025-05-08T0600,1159A,118.9125,32.1028,南京市,仙林大学城,颗粒物(PM10),63,75,96,24,31,91,,,,15,13,10,10,0.4,0.5
2025-05-08T0600,3422A,118.8436,31.9198,南京市,江宁彩虹桥,颗粒物(PM10),56,62,86,22,34,94,,,,14,13,3,3,0.4,0.4
2025-05-08T0600,3427A,118.8554,32.3578,南京市,六合雄州,颗粒物(PM10),63,76,95,34,35,76,,,,40,35,7,7,0.5,0.5
2025-05-08T0600,4249A,118.8708,31.3402,南京市,汶溪路181号,颗粒物(PM10),51,51,105,30,38,79,,,,24,19,6,5,0.5,0.4
2025-05-08T0600,4312A,119.019,31.6512,南京市,中山西路1号,颗粒物(PM10),57,63,83,26,35,88,,,,16,16,10,7,0.6,0.5
2025-05-08T0600,1401A,108.3103,22.7881,南宁市,二十一中,,25,22,30,17,19,76,,,,6,9,3,3,0.7,0.7
2025-05-08T0600,1402A,108.3141,22.8528,南宁市,北湖,,33,33,32,20,21,76,,,,6,10,6,5,0.7,0.8
2025-05-08T0600,1403A,108.3206,22.8225,南宁市,市监测站,,28,25,30,19,21,68,,,,3,7,5,5,0.4,0.5
2025-05-08T0600,1404A,108.3829,22.8037,南宁市,大自然花园,,30,30,30,18,20,80,,,,4,6,5,5,0.5,0.5
2025-05-08T0600,1405A,108.4394,22.7904,南宁市,仙葫,,30,26,29,21,17,68,,,,6,7,6,6,0.7,0.7
2025-05-08T0600,1406A,108.2397,22.8467,南宁市,区农职院,,29,29,34,19,17,64,,,,9,10,4,3,0.9,0.9
2025-05-08T0600,1407A,108.3275,22.735,南宁市,英华嘉园,,29,25,35,20,19,66,,,,12,14,7,8,0.4,0.4
2025-05-08T0600,3401A,108.4834,22.7618,南宁市,红星社区,,31,31,30,19,17,77,,,,6,6,9,9,0.6,0.6
2025-05-08T0600,4221A,108.2177,22.7774,南宁市,乐贤路16号,,32,32,31,20,18,54,,,,14,11,4,4,0.6,0.5
2025-05-08T0600,2331A,118.0966,26.6761,南平市,茫荡山,,,,,,,,,,,,,,,,
2025-05-08T0600,2332A,118.1681,26.6369,南平市,南平市监测站,颗粒物(PM10),52,54,76,28,28,85,,,,7,6,4,4,0.7,0.7
2025-05-08T0600,2333A,118.1825,26.6489,南平市,南平铝业有限公司,颗粒物(PM10),51,51,80,23,25,83,,,,4,3,4,4,0.6,0.6
2025-05-08T0600,2334A,118.1756,26.6272,南平市,南平七中,颗粒物(PM10),56,62,82,24,27,82,,,,6,5,4,4,0.6,0.6
2025-05-08T0600,1168A,120.9098,31.9663,南通市,狼山街道,,39,39,58,11,21,72,,,,15,19,4,4,0.4,0.4
2025-05-08T0600,1169A,120.86,32.0005,南通市,虹桥,,34,34,60,13,26,72,,,,19,24,2,3,0.5,0.5
2025-05-08T0600,1170A,120.87,32.02,南通市,城中,,50,50,68,13,24,71,,,,18,21,2,4,0.5,0.5
2025-05-08T0600,1171A,120.94,31.93,南通市,星湖花园,,37,37,53,11,20,64,,,,15,19,2,4,0.2,0.4
2025-05-08T0600,1172A,120.81,32.0417,南通市,紫琅学院,,44,44,63,9,22,64,,,,17,24,5,6,0.4,0.4
2025-05-08T0600,3291A,121.067,32.062,南通市,通州监测站,,31,31,59,9,19,72,,,,9,11,5,5,0.5,0.5
2025-05-08T0600,3432A,120.9348,31.9883,南通市,环境教育馆,,41,41,64,11,23,69,,,,14,16,2,3,0.2,0.2
2025-05-08T0600,2404A,112.5224,33.0122,南阳市,瓦房庄,颗粒物(PM10),93,136,190,52,66,92,,,,14,13,6,7,0.6,0.6
2025-05-08T0600,2405A,112.5003,32.9735,南阳市,汉画馆,颗粒物(PM10),95,140,189,51,65,83,,,,16,14,6,7,0.4,0.3
2025-05-08T0600,2406A,112.5573,33.027,南阳市,气象站,颗粒物(PM10),104,157,222,53,69,94,,,,12,12,5,6,0.3,0.2
2025-05-08T0600,2407A,112.5481,32.9689,南阳市,理工学院,颗粒物(PM10),92,133,186,51,64,79,,,,16,12,6,6,0.4,0.4
2025-05-08T0600,4008A,112.5234,32.9922,南阳市,卧龙区政府,颗粒物(PM10),98,146,204,61,66,88,,,,18,15,5,6,0.4,0.4
2025-05-08T0600,1234A,121.8358,29.911,宁波市,区环保大楼,颗粒物(PM10),57,64,86,17,28,97,,,,2,15,8,9,0.4,0.4
2025-05-08T0600,1235A,121.56,29.82,宁波市,万里学院,颗粒物(PM10),58,65,75,22,24,87,,,,19,13,5,5,0.5,0.5
2025-05-08T0600,1236A,121.713,29.9572,宁波市,龙赛医院,颗粒物(PM10),65,79,90,20,25,95,,,,10,13,6,6,0.3,0.3
2025-05-08T0600,1239A,121.633,29.7733,宁波市,钱湖水厂,颗粒物(PM10),55,60,69,18,21,88,,,,6,7,8,8,0.4,0.3
2025-05-08T0600,1240A,121.5856,29.8635,宁波市,太古小学,颗粒物(PM10),66,82,95,17,21,93,,,,10,9,6,6,0.7,0.7
2025-05-08T0600,1241A,121.524,29.8674,宁波市,市环境监测中心,颗粒物(PM10),56,61,76,15,21,89,,,,16,15,10,10,0.6,0.6
2025-05-08T0600,2871A,121.6147,29.9017,宁波市,万里国际学校,,,,78,17,23,103,,,,8,11,8,8,0.6,0.5
2025-05-08T0600,3710A,121.5594,29.8975,宁波市,白沙活动中心,颗粒物(PM10),52,54,69,16,22,95,,,,10,10,8,8,0.4,0.4
2025-05-08T0600,2339A,119.5001,26.6946,宁德市,金涵水库,,,,,,,,,,,,,,,,
2025-05-08T0600,2341A,119.5388,26.6612,宁德市,宁德市监测站,颗粒物(PM10),57,64,72,30,29,91,,,,10,11,6,5,0.5,0.4
2025-05-08T0600,3209A,119.5231,26.6562,宁德市,宁德一中,颗粒物(PM10),55,60,67,24,24,97,,,,6,7,3,2,0.3,0.3
2025-05-08T0600,2618A,98.8601,25.8567,怒江傈僳族自治州,州监测站,,33,33,31,16,19,51,,,,3,6,9,8,0.3,0.4
2025-05-08T0600,2619A,98.8546,25.8417,怒江傈僳族自治州,泸水一中,,32,32,28,18,20,35,,,,6,12,6,6,0.3,0.3
2025-05-08T0600,1888A,101.6891,26.571,攀枝花市,弄弄坪,,38,38,34,11,16,81,,,,11,16,7,18,0.6,1.1
2025-05-08T0600,1889A,101.5769,26.5928,攀枝花市,河门口,,42,42,30,24,20,72,,,,13,10,11,13,0.5,0.8
2025-05-08T0600,1890A,101.7169,26.585,攀枝花市,炳草岗,,,38,30,20,15,,,,,13,12,2,9,0.5,0.5
2025-05-08T0600,1891A,101.7369,26.5008,攀枝花市,仁和,,30,30,31,16,18,70,,,,14,10,8,13,0.4,0.5
2025-05-08T0600,2835A,101.7227,26.567,攀枝花市,四十中小,,26,22,24,8,11,83,,,,10,7,8,12,0.5,0.5
2025-05-08T0600,1604A,122.0303,41.1489,盘锦市,开发区,,40,32,29,28,26,100,,,,14,13,9,11,0.5,0.6
2025-05-08T0600,1605A,122.0485,41.0883,盘锦市,兴隆台,,40,32,34,28,25,91,,,,15,14,8,9,0.5,0.7
2025-05-08T0600,1606A,121.8297,41.1028,盘锦市,新生街道,,48,,25,33,27,103,,,,13,14,8,10,0.5,0.6
2025-05-08T0600,1832A,113.3257,33.742,平顶山市,新华旅馆,颗粒物(PM10),108,165,244,40,61,98,,,,21,19,10,6,0.6,0.5
2025-05-08T0600,1833A,113.2919,33.737,平顶山市,规划设计院,颗粒物(PM10),105,160,246,64,87,91,,,,21,18,13,6,0.6,0.5
2025-05-08T0600,1834A,113.182,33.774,平顶山市,平顶山工学院,颗粒物(PM10),105,159,225,56,70,60,,,,26,13,6,5,0.6,0.5
2025-05-08T0600,3204A,113.3025,33.73,平顶山市,规划局,颗粒物(PM10),113,175,249,58,75,94,,,,17,13,18,8,0.6,0.5
2025-05-08T0600,3594A,112.8867,33.9116,平顶山市,石龙区,颗粒物(PM10),105,159,270,60,95,89,,,,16,23,8,8,0.6,0.5
2025-05-08T0600,2656A,106.6692,35.5461,平凉市,聚贤嘉苑,颗粒物(PM10),85,119,125,41,46,50,,,,22,20,3,10,0.4,0.5
2025-05-08T0600,2657A,106.7021,35.5307,平凉市,博物馆,颗粒物(PM10),82,113,129,33,35,52,,,,18,17,9,9,0.6,0.6
2025-05-08T0600,2347A,114.0997,27.5002,萍乡市,武功山,,20,20,39,3,13,35,,,,4,5,18,16,0.4,0.4
2025-05-08T0600,2348A,113.8385,27.6434,萍乡市,中医院,颗粒物(PM10),55,60,75,25,36,52,,,,5,8,14,14,1.1,0.9
2025-05-08T0600,2349A,113.8493,27.6253,萍乡市,市政府车库,颗粒物(PM10),51,51,64,28,36,43,,,,15,16,12,12,1.3,1.4
2025-05-08T0600,2350A,113.8676,27.6435,萍乡市,市环保局,颗粒物(PM10),55,60,76,28,37,46,,,,12,13,12,10,1.0,0.8
2025-05-08T0600,2351A,113.866,27.6198,萍乡市,安源区政府,颗粒物(PM10),56,62,74,29,38,33,,,,21,18,14,4,1.1,1
2025-05-08T0600,2319A,119.0141,25.4325,莆田市,荔城区仓后路,,26,24,55,9,24,83,,,,8,10,3,4,0.4,0.5
2025-05-08T0600,2320A,119.0015,25.4553,莆田市,莆田市监测站,,26,23,52,8,25,83,,,,2,5,4,4,0.4,0.5
2025-05-08T0600,2321A,119.1119,25.4561,莆田市,涵江区六中,,26,24,53,10,23,81,,,,15,13,5,4,0.4,0.4
2025-05-08T0600,2322A,119.1013,25.3215,莆田市,秀屿区政府,,33,20,49,7,21,104,,,,4,8,3,4,0.5,0.5
2025-05-08T0600,2323A,118.981,25.4792,莆田市,东圳水库,,,,,,,,,,,,,,,,
2025-05-08T0600,2392A,115.0312,35.7636,濮阳市,环保局,颗粒物(PM10),65,79,110,45,35,105,,,,15,15,8,9,0.8,0.7
2025-05-08T0600,2394A,115.0574,35.7609,濮阳市,油田运输公司,颗粒物(PM10),78,105,112,35,30,110,,,,16,15,7,8,0.8,0.7
2025-05-08T0600,3021A,115,35.7668,濮阳市,濮水河管理处,颗粒物(PM10),77,104,112,45,34,110,,,,14,13,6,7,0.7,0.6
2025-05-08T0600,4216A,115.0924,35.7686,濮阳市,任丘路479号,颗粒物(PM10),75,100,116,39,33,107,,,,14,12,8,8,0.9,0.7
2025-05-08T0600,2601A,100.98,22.7633,普洱市,市环保局,,50,50,52,25,23,45,,,,8,9,7,7,0.7,0.6
2025-05-08T0600,2602A,100.9817,22.8322,普洱市,普洱第二中学,,41,41,39,20,24,21,,,,28,19,6,6,0.8,0.7
2025-05-08T0600,2262A,131.0518,45.8751,七台河市,新一中,,,,26,,18,,,,,,11,,12,,0.8
2025-05-08T0600,3345A,131.0577,45.7879,七台河市,中波台,,26,23,26,18,14,35,,,,25,14,6,6,0.5,0.5
2025-05-08T0600,3637A,131.0176,45.7761,七台河市,人民广场,,45,32,32,31,23,34,,,,33,15,10,10,0.7,0.5
2025-05-08T0600,3684A,130.8781,45.8222,七台河市,新建矿广场,,28,22,49,19,22,32,,,,21,18,10,10,0.7,0.6
2025-05-08T0600,1779A,123.9305,47.3636,齐齐哈尔市,安居小区,颗粒物(PM10),54,57,38,26,20,44,,,,37,20,4,3,0.5,0.4
2025-05-08T0600,1780A,123.9488,47.3386,齐齐哈尔市,中心广场,,50,50,44,22,17,57,,,,30,18,10,9,0.5,0.3
2025-05-08T0600,1781A,123.9483,47.3227,齐齐哈尔市,农牧车辆厂,颗粒物(PM10),53,56,38,31,16,51,,,,24,17,6,5,0.3,0.3
2025-05-08T0600,1783A,123.945,47.2988,齐齐哈尔市,市环境监测站,,45,45,33,25,15,44,,,,19,12,4,3,0.4,0.3
2025-05-08T0600,3662A,123.6333,47.2075,齐齐哈尔市,富区青少年活动中心,颗粒物(PM10),66,82,45,44,25,19,,,,41,11,2,2,0.5,0.4
2025-05-08T0600,2591A,107.9783,26.5747,黔东南苗族侗族自治州,市环境监测站,,29,27,25,20,20,69,,,,2,7,3,3,0.5,0.5
2025-05-08T0600,2881A,107.8908,26.5311,黔东南苗族侗族自治州,凯里学院,,27,27,21,16,16,74,,,,2,6,2,2,0.4,0.4
2025-05-08T0600,2593A,107.5228,26.2403,黔南布依族苗族自治州,小围寨,,22,22,15,14,8,56,,,,6,8,3,2,0.3,0.3
2025-05-08T0600,3538A,107.5175,26.2978,黔南布依族苗族自治州,沙坝,,31,31,24,17,13,50,,,,4,10,4,4,0.5,0.5
2025-05-08T0600,2589A,104.9022,25.0925,黔西南布依族苗族自治州,场坝街,,32,32,30,22,18,41,,,,6,6,2,3,0.4,0.4
2025-05-08T0600,2590A,104.8811,25.0992,黔西南布依族苗族自治州,坪东大道,颗粒物(PM10),54,58,34,29,19,11,,,,18,10,2,2,0.3,0.2
2025-05-08T0600,2502A,108.6236,21.9667,钦州市,市环保站,,24,24,28,14,9,56,,,,17,13,2,4,0.7,0.7
2025-05-08T0600,2503A,108.6549,21.9481,钦州市,沙埠小学,,,,40,,16,,,43,,,18,,8,,0.8
2025-05-08T0600,2504A,108.5989,21.7431,钦州市,港区一小,,37,37,43,19,14,60,,,,13,14,7,8,0.6,0.6
2025-05-08T0600,3404A,108.5959,21.9633,钦州市,北职校,,32,30,29,22,14,35,,,,28,16,8,8,0.6,0.6
2025-05-08T0600,1043A,119.7493,40.0116,秦皇岛市,第一关,颗粒物(PM10),60,69,68,40,47,67,,,,17,20,4,6,0.3,0.6
2025-05-08T0600,1044A,119.5897,39.9499,秦皇岛市,监测站,颗粒物(PM10),66,81,82,37,35,64,,,,22,20,3,7,0.4,0.6
2025-05-08T0600,1046A,119.5251,39.9041,秦皇岛市,建设大厦,细颗粒物(PM2.5),70,65,67,51,35,58,,,,26,21,2,6,0.4,0.6
2025-05-08T0600,3132A,119.610547,39.943889,秦皇岛市,文明里,颗粒物(PM10),56,62,68,25,36,68,,,,18,21,2,6,0.3,0.5
2025-05-08T0600,4198A,119.5090,39.8253,秦皇岛市,北戴河轮滑馆,,50,50,55,28,37,80,,,,13,16,4,7,0.3,0.5
2025-05-08T0600,1307A,120.6659,36.2403,青岛市,仰口,,32,31,28,22,22,78,,,,8,8,7,6,0.2,0.2
2025-05-08T0600,1310A,120.4134,36.0658,青岛市,市南区东部子站,,44,44,29,17,11,90,,,,9,14,6,6,0.3,0.3
2025-05-08T0600,1311A,120.3664,36.1032,青岛市,四方区子站,,41,41,29,17,11,101,,,,13,16,2,2,0.6,0.6
2025-05-08T0600,1312A,120.2994,36.054,青岛市,市南区西部子站,,36,36,23,12,10,88,,,,16,18,6,6,0.6,0.6
2025-05-08T0600,1313A,120.4581,36.0858,青岛市,崂山区子站,,39,39,21,9,5,98,,,,13,10,8,8,0.3,0.3
2025-05-08T0600,1315A,120.3999,36.3083,青岛市,城阳区子站,,41,41,36,15,14,113,,,,11,17,4,4,0.4,0.4
2025-05-08T0600,1966A,120.0405,35.8735,青岛市,黄岛区4号,,46,46,28,9,10,108,,,,8,11,8,8,0.6,0.5
2025-05-08T0600,3362A,120.5014,36.4034,青岛市,即墨2号,,50,50,37,17,16,101,,,,10,12,6,6,0.6,0.5
2025-05-08T0600,3642A,120.3503,36.0736,青岛市,市北区南部,,47,47,25,14,9,87,,,,8,8,7,7,0.3,0.4
2025-05-08T0600,3643A,120.3948,36.1805,青岛市,李沧区北部,,46,46,31,19,16,87,,,,17,18,8,7,0.5,0.5
2025-05-08T0600,4290A,120.1969,35.9546,青岛市,珠江路669号,,44,44,27,20,13,100,,,,8,8,6,6,0.5,0.5
2025-05-08T0600,1702A,113.0426,23.691,清远市,环保大楼,,38,38,20,18,12,44,,,,14,22,5,5,0.8,0.8
2025-05-08T0600,1703A,113.0208,23.7106,清远市,凤城街办,,33,33,18,16,10,34,,,,18,25,4,5,0.5,0.5
2025-05-08T0600,3025A,113.0477,23.6344,清远市,技师学院,,35,35,20,17,12,37,,,,16,25,6,7,0.4,0.5
2025-05-08T0600,3318A,112.9903,23.7403,清远市,清新太和,,24,24,14,15,10,50,,,,14,19,7,7,0.6,0.6
2025-05-08T0600,3455A,113.076,23.7198,清远市,清城东城,,34,34,19,17,11,47,,,,11,16,7,7,0.3,0.3
2025-05-08T0600,2661A,107.6325,35.7357,庆阳市,庆阳五中,颗粒物(PM10),53,55,115,25,43,78,,,,11,7,8,6,0.6,0.5
2025-05-08T0600,2662A,107.6364,35.7067,庆阳市,市环保局,颗粒物(PM10),52,54,113,28,47,96,,,,6,6,8,8,0.5,0.5
2025-05-08T0600,1916A,103.7897,25.5035,曲靖市,环境监测站,,33,26,34,22,12,103,,,,9,11,6,5,0.4,0.4
2025-05-08T0600,1917A,103.8,25.5364,曲靖市,烟厂办公区,,33,22,30,9,11,105,,,,6,8,4,4,0.4,0.4
2025-05-08T0600,3376A,103.7947,25.462,曲靖市,南苑二区,,34,28,24,11,10,108,,,,8,8,4,6,0.4,0.5
2025-05-08T0600,3377A,103.7444,25.5261,曲靖市,曲靖师范学院,,33,23,36,13,14,104,,,,8,9,6,11,0.3,0.4
2025-05-08T0600,1264A,118.8692,28.9398,衢州市,环保大楼,颗粒物(PM10),81,111,160,55,53,92,,,,10,18,3,4,0.5,0.5
2025-05-08T0600,1265A,118.8709,28.9666,衢州市,实验学校,细颗粒物(PM2.5),75,91,145,55,51,100,,,,10,18,3,3,0.5,0.4
2025-05-08T0600,1266A,118.8621,28.9808,衢州市,衢州学院,"颗粒物(PM10),细颗粒物(PM2.5)",73,96,140,53,49,90,,,,14,23,3,4,0.5,0.4
2025-05-08T0600,1611A,118.5819,24.9117,泉州市,涂山街,颗粒物(PM10),56,61,55,29,25,61,,,,10,6,4,4,0.6,0.6
2025-05-08T0600,1612A,118.5972,24.8978,泉州市,津头埔,颗粒物(PM10),52,53,57,27,27,64,,,,13,13,2,2,0.6,0.6
2025-05-08T0600,1613A,118.6663,24.9424,泉州市,万安,,48,48,56,21,24,58,,,,15,11,3,4,0.5,0.6
2025-05-08T0600,1614A,118.6117,24.9604,泉州市,清源山,,,,,,,,,,,,,,,,
2025-05-08T0600,3529A,118.6333,24.9264,泉州市,城华南路,,32,32,45,17,22,74,,,,4,9,2,3,0.4,0.5
2025-05-08T0600,2626A,88.8876,29.2718,日喀则市,日喀则监测站,,21,19,16,8,8,67,,,,7,8,7,8,0.4,0.5
2025-05-08T0600,3726A,88.8781,29.2426,日喀则市,林业技术推广中心,,21,21,18,6,6,55,,,,2,2,7,7,0.0,0.1
2025-05-08T0600,1659A,119.471,35.4209,日照市,监测站,,48,48,50,11,21,104,,,,14,21,4,6,0.5,0.6
2025-05-08T0600,1660A,119.523,35.4216,日照市,市政府广场,,44,44,45,11,16,102,,,,5,11,3,4,0.4,0.5
2025-05-08T0600,1661A,119.5587,35.4044,日照市,港务局,颗粒物(PM10),51,51,40,21,22,116,,,,7,10,4,6,0.7,0.7
2025-05-08T0600,3507A,119.5328,35.4625,日照市,职业技术学院,,46,46,42,12,14,101,,,,4,8,4,5,0.5,0.5
2025-05-08T0600,3604A,119.3266,35.1044,日照市,岚山环保分局,,48,48,56,14,22,102,,,,27,23,5,6,0.5,0.6
2025-05-08T0600,1835A,111.1922,34.7752,三门峡市,市政府,颗粒物(PM10),94,137,211,56,95,108,,,,18,15,10,9,0.7,0.7
2025-05-08T0600,1836A,111.1587,34.7942,三门峡市,开发区,颗粒物(PM10),120,190,242,67,102,102,,,,17,14,12,10,0.7,0.6
2025-05-08T0600,1838A,111.143,34.7955,三门峡市,风景区,颗粒物(PM10),94,138,223,52,82,103,,,,16,12,13,12,0.7,0.6
2025-05-08T0600,3039A,111.1911,34.7829,三门峡市,三门峡市第一小学,颗粒物(PM10),95,139,227,47,84,112,,,,17,14,13,10,0.6,0.5
2025-05-08T0600,3598A,111.1,34.7167,三门峡市,富达温泉假日酒店,颗粒物(PM10),122,194,242,63,86,107,,,,11,13,9,10,0.3,0.4
2025-05-08T0600,2324A,117.6211,26.2625,三明市,三钢,,42,42,64,24,26,77,,,,8,11,2,4,0.6,0.7
2025-05-08T0600,2325A,117.635,26.2714,三明市,三明二中,,43,43,60,20,21,76,,,,7,10,3,2,0.4,0.4
2025-05-08T0600,2326A,117.6028,26.2378,三明市,三元区政府,,42,42,66,16,22,80,,,,8,10,1,3,0.5,0.5
2025-05-08T0600,2327A,117.7275,26.3108,三明市,洋溪,,,,,,,,,,,,,,,,
2025-05-08T0600,1876A,109.5078,18.2489,三亚市,河东子站,,14,8,14,8,9,43,,,,2,2,3,4,0.3,0.1
2025-05-08T0600,1877A,109.4964,18.2681,三亚市,河西子站,,15,12,20,6,11,45,,,,3,7,2,2,0.2,0.2
2025-05-08T0600,3540A,109.7348,18.3443,三亚市,君悦子站,,15,11,14,3,6,48,,,,3,4,2,2,0.2,0.2
2025-05-08T0600,2624A,91.7608,29.2313,山南市,山南监测站,,17,14,21,6,14,52,,,,10,6,3,3,0.3,0.3
2025-05-08T0600,2625A,91.7706,29.2436,山南市,山南人民医院,,21,19,25,9,11,65,,,,7,6,4,4,0.3,0.3
2025-05-08T0600,1674A,116.6794,23.3667,汕头市,金平子站,,44,44,37,18,16,65,,,,12,12,6,5,0.6,0.7
2025-05-08T0600,1675A,116.7244,23.3633,汕头市,龙湖子站,,39,39,41,16,15,83,,,,6,7,5,4,0.5,0.5
2025-05-08T0600,1676A,116.7258,23.2775,汕头市,濠江子站,,39,39,39,19,16,98,,,,5,6,4,4,0.6,0.6
2025-05-08T0600,1677A,116.7519,23.4714,汕头市,澄海子站,,36,36,43,18,15,86,,,,11,12,2,3,0.6,0.7
2025-05-08T0600,1678A,116.6092,23.2539,汕头市,潮阳子站,,40,40,40,12,9,96,,,,7,8,7,7,0.4,0.5
2025-05-08T0600,3444A,116.454,23.2684,汕头市,潮南峡山,,48,48,34,17,14,80,,,,4,4,5,4,0.5,0.6
2025-05-08T0600,3624A,116.4069,23.2533,汕头市,潮南子站,颗粒物(PM10),54,58,44,18,19,83,,,,6,8,4,4,0.6,0.6
2025-05-08T0600,1693A,115.3653,22.775,汕尾市,市环保局,颗粒物(PM10),51,52,38,25,19,96,,,,5,7,7,7,0.5,0.5
2025-05-08T0600,1694A,115.3706,22.7898,汕尾市,市政府,细颗粒物(PM2.5),59,52,35,42,22,92,,,,9,9,4,4,0.3,0.4
2025-05-08T0600,1695A,115.3622,22.7925,汕尾市,新城中学,颗粒物(PM10),52,53,37,32,19,95,,,,6,9,8,8,0.3,0.4
2025-05-08T0600,2645A,109.9154,33.8715,商洛市,监测站,颗粒物(PM10),88,126,184,58,94,88,,,,11,11,4,10,0.5,0.4
2025-05-08T0600,3045A,109.9643,33.8471,商洛市,商州区中学,颗粒物(PM10),82,114,209,54,98,98,,,,15,14,5,13,0.7,0.8
2025-05-08T0600,2408A,115.6702,34.4285,商丘市,环境监测站,颗粒物(PM10),79,108,120,54,39,86,,,,16,13,3,4,0.6,0.4
2025-05-08T0600,2409A,115.6458,34.4045,商丘市,粮食局,颗粒物(PM10),82,114,119,50,48,97,,,,16,13,4,3,0.6,0.4
2025-05-08T0600,2410A,115.6293,34.3948,商丘市,睢阳区环保局,"颗粒物(PM10),细颗粒物(PM2.5)",75,99,125,55,45,98,,,,18,15,2,3,0.6,0.4
2025-05-08T0600,3171A,115.6071,34.4465,商丘市,梁园区档案局,颗粒物(PM10),98,146,127,56,40,96,,,,31,14,5,4,0.2,0.3
2025-05-08T0600,1141A,121.4,31.238,上海市,普陀,颗粒物(PM10),53,55,68,16,26,81,,,,16,19,5,5,0.4,0.4
2025-05-08T0600,1142A,121.478,31.2036,上海市,十五厂,,50,50,66,17,24,78,,,,18,21,8,8,0.5,0.6
2025-05-08T0600,1143A,121.467,31.3008,上海市,虹口,颗粒物(PM10),53,56,71,17,24,81,,,,11,14,6,7,0.5,0.5
2025-05-08T0600,1147A,121.425,31.2261,上海市,静安监测站,颗粒物(PM10),52,54,69,17,21,80,,,,19,21,8,8,0.7,0.6
2025-05-08T0600,1148A,121.703,31.1907,上海市,浦东川沙,,47,47,61,16,21,76,,,,29,23,6,6,0.5,0.5
2025-05-08T0600,1149A,121.533,31.2284,上海市,浦东新区监测站,,46,46,60,9,18,85,,,,14,18,7,7,0.2,0.3
2025-05-08T0600,1150A,121.577,31.2071,上海市,浦东张江,,47,47,65,20,24,90,,,,11,15,6,6,0.6,0.6
2025-05-08T0600,3265A,121.4316,31.3322,上海市,宝山庙行,颗粒物(PM10),53,56,67,19,25,86,,,,15,17,6,6,0.4,0.5
2025-05-08T0600,3266A,121.8791,31.4662,上海市,崇明上实东滩,,39,39,36,12,10,106,,,,16,15,2,2,0.4,0.5
2025-05-08T0600,3268A,121.3162,31.2838,上海市,嘉定南翔,颗粒物(PM10),54,57,71,18,26,78,,,,16,20,6,6,0.6,0.6
2025-05-08T0600,3269A,121.3359,30.7456,上海市,金山新城,颗粒物(PM10),56,61,75,19,24,99,,,,10,11,4,3,0.4,0.5
2025-05-08T0600,3270A,121.4996,31.0739,上海市,闵行浦江,,50,50,67,14,26,76,,,,17,19,4,4,0.5,0.5
2025-05-08T0600,3271A,121.2886,31.1663,上海市,青浦徐泾,颗粒物(PM10),56,61,74,20,25,68,,,,26,22,6,6,0.5,0.5
2025-05-08T0600,3272A,121.2186,31.0378,上海市,松江图书馆,颗粒物(PM10),54,58,76,15,25,88,,,,18,22,7,7,0.5,0.5
2025-05-08T0600,3273A,121.3902,31.2059,上海市,长宁仙霞,颗粒物(PM10),52,54,81,19,28,79,,,,20,23,8,8,0.6,0.6
2025-05-08T0600,3274A,121.7965,31.0507,上海市,浦东惠南,,42,42,58,20,25,94,,,,8,10,7,8,0.7,0.7
2025-05-08T0600,3544A,121.4891,30.925,上海市,奉贤南桥新城,,47,47,60,22,33,88,,,,20,21,3,3,0.6,0.6
