timepoint,stationcode,longitude,latitude,area,positionname,primarypollutant,aqi,pm10,pm10_24h,pm2_5,pm2_5_24h,o3,o3_24h,o3_8h,o3_8h_24h,no2,no2_24h,so2,so2_24h,co,co_24h
2026-03-03T2200,2568A,102.2503,31.8896,阿坝藏族羌族自治州,马师校,,37,37,20,13,11,28,28,76,60,8,8,5,5,0.5,0.4
2026-03-03T2200,3994A,102.2174,31.9016,阿坝藏族羌族自治州,马尔康中学西区,,35,35,22,12,10,38,38,77,63,7,6,6,6,0.5,0.4
2026-03-03T2200,2695A,80.2899,41.1684,阿克苏地区,电视台,颗粒物(PM10),253,387,418,111,102,70,70,90,88,21,13,9,5,1.2,1.1
2026-03-03T2200,2696A,80.2592,41.1541,阿克苏地区,艺术中心,颗粒物(PM10),265,395,404,148,110,46,46,96,90,45,14,16,5,0.9,0.8
2026-03-03T2200,2205A,105.699,38.8409,阿拉善盟,蒙二幼,颗粒物(PM10),134,208,88,59,26,83,83,98,89,13,13,21,14,0.5,0.5
2026-03-03T2200,2206A,105.7198,38.8508,阿拉善盟,环保局新楼,颗粒物(PM10),78,88,68,31,22,91,91,96,95,5,6,9,10,0.4,0.5
2026-03-03T2200,2708A,88.1266,47.8515,阿勒泰地区,市站,,24,21,7,16,3,76,76,96,94,27,11,3,3,0.3,0.3
2026-03-03T2200,4166A,88.1198,47.7931,阿勒泰地区,阿勒泰路33号,,28,12,10,6,2,89,89,93,93,10,11,5,6,0.3,0.2
2026-03-03T2200,2630A,80.1171,32.4999,阿里地区,阿里监测站,NA,NA,12,12,3,4,NA,NA,96,95,3,6,10,9,0.3,0.3
2026-03-03T2200,3192A,80.0906,32.5029,阿里地区,阿里藏医院,,30,9,10,3,4,94,94,97,96,1,5,5,7,0.1,0.3
2026-03-03T2200,2644A,109.0088,32.6974,安康市,汉滨区检察院,颗粒物(PM10),73,82,21,41,13,38,38,78,68,19,10,5,4,0.8,0.7
2026-03-03T2200,4054A,109.0324,32.6913,安康市,市邮政管理局,细颗粒物(PM2.5),52,50,17,36,13,39,39,79,63,19,12,10,5,0.8,0.7
2026-03-03T2200,2291A,117.0806,30.5181,安庆市,环科院,细颗粒物(PM2.5),78,65,45,49,34,61,61,60,60,12,12,6,6,0.8,0.7
2026-03-03T2200,2292A,117.0331,30.5118,安庆市,马山宾馆,细颗粒物(PM2.5),86,65,45,53,39,58,58,58,58,14,13,5,4,0.7,0.7
2026-03-03T2200,2294A,116.9897,30.6146,安庆市,安庆大学,细颗粒物(PM2.5),82,63,44,51,32,57,57,67,NA,12,8,4,4,0.8,0.6
2026-03-03T2200,3173A,117.0598,30.5351,安庆市,市人大,细颗粒物(PM2.5),80,69,46,50,35,61,61,61,61,13,12,6,5,0.8,0.7
2026-03-03T2200,3123A,105.9408,26.2431,安顺市,凤凰山,,49,38,22,34,23,51,51,67,66,13,8,30,14,0.6,0.6
2026-03-03T2200,3124A,105.9443,26.2567,安顺市,金钟山,细颗粒物(PM2.5),54,NA,27,37,24,48,48,65,63,11,6,39,15,0.6,0.6
2026-03-03T2200,3125A,105.8983,26.248,安顺市,娄家坡,,50,NA,25,35,25,50,50,64,62,11,8,26,16,0.6,0.5
2026-03-03T2200,1819A,114.3552,36.1017,安阳市,红庙街,细颗粒物(PM2.5),146,139,91,110,109,53,53,82,61,20,18,1,3,1.3,0.9
2026-03-03T2200,1820A,114.361,36.0681,安阳市,银杏小区,细颗粒物(PM2.5),156,155,93,119,113,59,59,83,66,22,20,3,2,1.5,1
2026-03-03T2200,3141A,114.3921,36.0879,安阳市,信访局,细颗粒物(PM2.5),148,124,90,112,107,63,63,89,65,21,18,3,3,1.4,1
2026-03-03T2200,3669A,114.4706,36.0634,安阳市,左辅环卫站,NA,NA,NA,126,NA,107,68,68,76,61,13,18,2,2,1.0,0.8
2026-03-03T2200,4117A,114.2918,36.0769,安阳市,钢三路198号,细颗粒物(PM2.5),176,155,128,133,121,57,57,70,63,22,22,1,1,1.4,0.9
2026-03-03T2200,1748A,123.0441,41.1201,鞍山市,深沟寺,细颗粒物(PM2.5),316,283,370,266,289,12,12,23,10,61,68,8,14,1.8,2.8
2026-03-03T2200,1749A,123.011,41.0931,鞍山市,太阳城,细颗粒物(PM2.5),308,NA,368,258,315,8,8,18,10,72,68,10,16,2.4,3.1
2026-03-03T2200,1750A,123.0483,41.1445,鞍山市,太平,细颗粒物(PM2.5),297,321,349,247,262,14,14,22,19,62,61,18,20,1.7,2.8
2026-03-03T2200,1751A,122.964,41.0968,鞍山市,铁西三道街,细颗粒物(PM2.5),279,NA,406,229,323,40,40,24,20,45,69,12,15,1.1,2.4
2026-03-03T2200,1753A,123.0219,41.0822,鞍山市,明达新区,细颗粒物(PM2.5),325,291,379,275,317,22,22,22,16,54,60,35,19,1.6,2.5
2026-03-03T2200,4201A,122.944647,41.082639,鞍山市,兴盛南路290号,细颗粒物(PM2.5),390,NA,396,340,336,4,4,13,9,79,75,12,13,2.3,2.6
2026-03-03T2200,2195A,107.4206,40.7609,巴彦淖尔市,附二中,细颗粒物(PM2.5),118,128,154,79,43,57,57,81,71,17,7,11,10,0.7,0.5
2026-03-03T2200,2196A,107.37,40.7372,巴彦淖尔市,市环保大楼,颗粒物(PM10),107,138,149,61,40,70,70,82,77,15,7,8,5,0.5,0.4
2026-03-03T2200,1956A,86.1476,41.7529,巴音郭楞蒙古自治州,孔雀公园,颗粒物(PM10),130,197,85,37,21,90,90,86,86,9,8,12,10,0.3,0.3
2026-03-03T2200,1957A,86.1971,41.7166,巴音郭楞蒙古自治州,棉纺厂,颗粒物(PM10),120,170,87,54,23,88,88,89,89,12,9,/,/,/,/
2026-03-03T2200,1958A,86.236,41.7172,巴音郭楞蒙古自治州,经济开发区,颗粒物(PM10),111,147,70,21,14,82,82,82,82,8,5,8,7,0.5,0.5
2026-03-03T2200,3181A,106.776805,31.852614,巴中市,市五中,,43,31,20,30,15,26,26,62,57,20,16,7,8,0.9,0.9
2026-03-03T2200,3183A,106.7419,31.8654,巴中市,圣泉水务公司,,33,29,16,23,12,9,9,63,50,40,17,8,8,1.1,1
2026-03-03T2200,3616A,106.7617,31.8343,巴中市,市中心医院,,42,42,24,24,14,18,18,61,52,30,20,8,8,0.9,0.8
2026-03-03T2200,2235A,122.7909,45.608,白城市,洮北区环保局,细颗粒物(PM2.5),124,NA,45,86,35,76,76,81,80,6,8,4,6,0.3,0.3
2026-03-03T2200,2236A,122.8741,45.5725,白城市,市环保局,,48,48,31,31,23,72,72,83,82,8,8,5,4,0.4,0.3
2026-03-03T2200,2231A,126.4219,41.9172,白山市,喜丰,细颗粒物(PM2.5),153,150,55,117,29,68,68,78,66,19,14,8,10,1.5,0.9
2026-03-03T2200,2232A,126.4082,41.9416,白山市,环保局,细颗粒物(PM2.5),139,121,39,102,26,74,74,80,72,15,14,6,10,1.1,0.8
2026-03-03T2200,2647A,104.1727,36.5448,白银市,第三小学,细颗粒物(PM2.5),210,213,205,160,69,39,39,95,88,56,16,137,33,0.6,0.4
2026-03-03T2200,2648A,104.1467,36.5482,白银市,动力公司,颗粒物(PM10),500,616,218,173,68,16,16,91,80,63,14,32,16,0.8,0.6
2026-03-03T2200,2512A,106.6102,23.901,百色市,市监测站,,16,10,14,6,6,50,50,46,46,11,10,8,9,0.6,0.6
2026-03-03T2200,2513A,106.6524,23.8842,百色市,市中心血站,,16,12,14,3,6,51,51,45,45,15,15,8,8,0.7,0.8
2026-03-03T2200,4133A,106.6273,23.8798,百色市,龙景西路,,27,27,20,12,9,36,36,37,37,10,9,10,10,0.6,0.6
2026-03-03T2200,2270A,117.396,32.9389,蚌埠市,工人疗养院,细颗粒物(PM2.5),92,73,78,56,70,39,39,75,62,47,22,4,3,0.8,0.8
2026-03-03T2200,2271A,117.3606,32.9428,蚌埠市,百货大楼,细颗粒物(PM2.5),86,76,78,53,64,32,32,77,62,46,18,5,5,0.7,0.8
2026-03-03T2200,2273A,117.4183,32.8909,蚌埠市,蚌埠学院,细颗粒物(PM2.5),102,63,61,62,65,67,67,80,74,19,16,3,3,0.7,0.8
2026-03-03T2200,2274A,117.3534,32.9672,蚌埠市,淮上区政府,细颗粒物(PM2.5),110,105,72,71,69,56,56,81,72,29,17,4,4,0.7,0.8
2026-03-03T2200,2275A,117.3143,32.8977,蚌埠市,高新区,细颗粒物(PM2.5),96,73,67,58,71,69,69,72,70,17,19,5,6,0.7,0.8
2026-03-03T2200,3715A,117.3091,32.9314,蚌埠市,蚌埠田家炳中学,细颗粒物(PM2.5),84,79,79,52,67,66,66,76,72,21,18,4,4,0.7,0.7
2026-03-03T2200,1585A,109.8761,40.6533,包头市,市环境监测站,细颗粒物(PM2.5),179,168,147,135,35,46,46,94,78,45,14,20,7,0.9,0.5
2026-03-03T2200,1587A,109.9992,40.5843,包头市,包头八中,细颗粒物(PM2.5),159,215,158,121,41,17,17,88,73,71,14,22,9,0.6,0.2
2026-03-03T2200,1589A,109.8641,40.6288,包头市,惠龙物流,细颗粒物(PM2.5),117,149,145,78,30,53,53,94,80,41,14,17,11,0.8,0.6
2026-03-03T2200,1590A,110.0376,40.5546,包头市,东河鸿龙湾,颗粒物(PM10),126,187,146,78,27,38,38,92,74,55,18,14,12,0.6,0.5
2026-03-03T2200,3283A,109.9154,40.5684,包头市,滨河大厦,"颗粒物(PM10),细颗粒物(PM2.5)",114,154,130,75,33,48,48,96,80,45,18,19,11,0.6,0.6
2026-03-03T2200,3419A,109.9449,40.6259,包头市,包头市委党校,颗粒物(PM10),107,137,117,60,27,46,46,92,76,46,13,14,9,0.8,0.6
2026-03-03T2200,3683A,109.8332,40.6577,包头市,昆区政府,颗粒物(PM10),100,120,134,50,26,59,59,95,85,41,16,16,11,0.8,0.7
2026-03-03T2200,1931A,107.0802,34.3129,宝鸡市,竹园沟,细颗粒物(PM2.5),70,46,33,45,41,26,26,63,54,16,14,6,7,0.6,0.7
2026-03-03T2200,1933A,107.1429,34.3549,宝鸡市,监测站,颗粒物(PM10),120,170,51,76,40,14,14,57,50,30,20,11,6,0.7,0.7
2026-03-03T2200,1934A,107.1172,34.3759,宝鸡市,技工学校,颗粒物(PM10),235,374,61,140,40,15,15,64,58,43,21,22,6,0.9,0.8
2026-03-03T2200,1936A,107.2025,34.3518,宝鸡市,文理学院,颗粒物(PM10),195,340,57,137,42,5,5,65,58,43,23,12,5,0.9,0.8
2026-03-03T2200,1937A,107.2396,34.3626,宝鸡市,三迪小学,细颗粒物(PM2.5),274,365,56,224,44,6,6,63,57,60,27,17,5,1.0,0.8
2026-03-03T2200,4155A,107.1721,34.3558,宝鸡市,滨河北路,细颗粒物(PM2.5),134,117,45,97,40,13,13,61,54,41,23,8,6,0.8,0.8
2026-03-03T2200,4308A,107.3898,34.3601,宝鸡市,陈仓区北开路21号,细颗粒物(PM2.5),186,304,96,140,75,26,26,67,60,36,31,16,12,0.9,0.8
2026-03-03T2200,1051A,115.4803,38.8568,保定市,游泳馆,细颗粒物(PM2.5),159,NA,98,121,103,59,59,77,71,23,19,2,2,0.8,0.7
2026-03-03T2200,1052A,115.509,38.8895,保定市,华电二区,细颗粒物(PM2.5),152,NA,86,116,91,62,62,76,72,20,19,4,2,1.2,1.1
2026-03-03T2200,1053A,115.4588,38.9037,保定市,接待中心,细颗粒物(PM2.5),188,152,100,141,96,54,54,72,68,17,12,2,2,0.8,0.6
2026-03-03T2200,1054A,115.4484,38.8344,保定市,地表水厂,细颗粒物(PM2.5),153,142,118,117,98,62,62,89,72,17,18,5,4,0.8,0.6
2026-03-03T2200,3581A,115.3136,38.9511,保定市,满城区生态环境分局,细颗粒物(PM2.5),195,175,110,146,92,41,41,73,68,26,20,5,3,0.7,0.5
2026-03-03T2200,3582A,115.4709,38.7628,保定市,清苑区第二中学,细颗粒物(PM2.5),166,159,109,126,94,60,60,76,71,20,19,6,5,0.9,0.8
2026-03-03T2200,3583A,115.6231,39.0223,保定市,徐水物探局,细颗粒物(PM2.5),173,167,116,131,101,21,21,75,63,46,22,4,3,1.0,0.8
2026-03-03T2200,4004A,115.4199,38.8665,保定市,双鹰农机,细颗粒物(PM2.5),185,195,118,139,100,54,54,81,76,27,18,2,2,1.1,0.9
2026-03-03T2200,4034A,115.515,38.8589,保定市,植保所站,细颗粒物(PM2.5),175,142,108,132,97,59,59,75,71,26,24,3,3,0.9,0.8
2026-03-03T2200,2594A,99.1589,25.1137,保山市,市环境监测站,细颗粒物(PM2.5),82,73,53,51,36,119,119,124,122,9,10,3,2,0.1,0.1
2026-03-03T2200,2595A,99.1616,25.1381,保山市,市环保局,细颗粒物(PM2.5),84,73,60,52,39,123,123,129,127,6,7,5,4,0.5,0.4
2026-03-03T2200,1867A,109.1435,21.4085,北海市,海滩公园,,28,28,23,15,15,47,47,50,49,12,11,3,3,1.2,1.4
2026-03-03T2200,1868A,109.0983,21.466,北海市,新市环保局,,22,19,20,15,13,49,49,53,52,12,11,5,6,0.6,0.6
2026-03-03T2200,1869A,109.1775,21.5232,北海市,北海工业园,,27,27,18,18,15,44,44,48,46,9,8,7,6,0.7,0.8
2026-03-03T2200,3400A,109.1844,21.4396,北海市,龙潭自来水厂,,31,31,22,19,13,40,40,43,42,9,7,10,9,0.7,1.2
2026-03-03T2200,1001A,116.3611,39.8786,北京市,万寿西宫,细颗粒物(PM2.5),130,137,115,93,96,56,56,84,79,25,21,2,2,1.0,1
2026-03-03T2200,1003A,116.4174,39.9289,北京市,东四,细颗粒物(PM2.5),105,111,106,65,85,54,54,77,73,26,20,5,4,0.7,0.9
2026-03-03T2200,1004A,116.4073,39.8858,北京市,天坛,细颗粒物(PM2.5),123,126,104,85,85,35,35,76,66,25,21,2,2,0.9,1.1
2026-03-03T2200,1005A,116.4622,39.9364,北京市,农展馆,,27,27,90,11,77,62,62,84,81,17,14,5,5,0.4,0.9
2026-03-03T2200,1006A,116.3399,39.9293,北京市,官园,细颗粒物(PM2.5),126,143,102,88,88,52,52,72,69,25,17,4,4,0.9,0.9
2026-03-03T2200,1007A,116.2879,39.9613,北京市,海淀万柳,细颗粒物(PM2.5),127,134,93,89,80,42,42,70,64,34,23,3,3,1.0,0.9
2026-03-03T2200,1008A,116.6635,40.1349,北京市,顺义新城,,24,20,95,11,83,75,75,90,86,9,18,4,4,0.2,1.1
2026-03-03T2200,1009A,116.6275,40.327,北京市,怀柔镇,,22,9,84,6,74,68,68,76,76,11,22,4,4,0.3,1
2026-03-03T2200,1010A,116.2295,40.217,北京市,昌平镇,,17,13,77,6,64,54,54,80,74,22,21,2,2,0.5,0.9
2026-03-03T2200,1011A,116.3968,39.982,北京市,奥体中心,,18,18,88,7,70,55,55,75,70,22,15,5,5,0.6,1
2026-03-03T2200,3418A,116.8336,40.4095,北京市,密云新城,,24,9,82,3,69,76,76,81,81,6,15,3,2,0.2,0.7
2026-03-03T2200,3671A,116.0879,39.9725,北京市,门头沟三家店,,28,28,89,12,73,30,30,80,70,39,20,3,3,0.4,0.8
2026-03-03T2200,3672A,116.1507,39.8246,北京市,丰台云岗,细颗粒物(PM2.5),163,177,125,124,103,48,48,84,78,28,23,3,3,1.0,1.1
2026-03-03T2200,3674A,115.9578,39.7602,北京市,房山燕山,细颗粒物(PM2.5),78,70,120,49,100,56,56,75,71,14,18,3,3,0.6,1
2026-03-03T2200,3675A,116.4669,39.7734,北京市,大兴旧宫,细颗粒物(PM2.5),129,143,117,91,92,49,49,81,75,28,22,4,4,1.0,1
2026-03-03T2200,3694A,115.9859,40.4562,北京市,延庆石河营,,21,21,46,10,40,33,33,77,70,32,16,1,1,0.4,0.7
2026-03-03T2200,3695A,116.6151,40.3052,北京市,怀柔新城,,23,11,86,6,78,72,72,78,78,13,20,3,2,0.3,0.9
2026-03-03T2200,3696A,116.2542,39.8764,北京市,丰台小屯,细颗粒物(PM2.5),137,148,118,100,99,41,41,70,66,37,26,3,4,0.8,0.9
2026-03-03T2200,3697A,116.8399,40.3843,北京市,密云镇,,25,13,80,7,69,79,79,80,80,4,14,4,4,0.3,0.9
2026-03-03T2200,4057A,115.9423,40.4431,北京市,延庆百泉,,21,21,45,10,34,65,65,84,80,16,18,1,1,0.3,0.6
2026-03-03T2200,4058A,116.6598,39.9164,北京市,通州新华,,40,40,94,16,77,63,63,83,78,27,24,1,1,0.6,1
2026-03-03T2200,4182A,116.1942,39.9158,北京市,石景山八角,细颗粒物(PM2.5),130,158,111,92,82,42,42,71,66,30,21,9,6,0.8,0.7
2026-03-03T2200,4194A,117.078628,40.151726,北京市,平谷新城,,25,25,81,15,71,56,56,80,76,21,22,3,2,0.3,0.7
2026-03-03T2200,1761A,123.8274146,41.31234549,本溪市,大峪,细颗粒物(PM2.5),169,157,247,128,198,43,43,34,34,32,58,10,12,0.9,2.2
2026-03-03T2200,1763A,123.7169,41.3094,本溪市,彩屯,细颗粒物(PM2.5),200,NA,259,150,218,50,50,45,45,29,45,9,12,1.4,2.3
2026-03-03T2200,1764A,123.7672166,41.28649327,本溪市,东明,细颗粒物(PM2.5),227,241,215,177,211,48,48,38,38,31,48,14,13,1.5,2.5
2026-03-03T2200,1765A,123.799345,41.266614,本溪市,新立屯,细颗粒物(PM2.5),218,NA,173,168,176,46,46,42,42,34,48,7,8,1.2,2
2026-03-03T2200,1766A,123.829144,41.336777,本溪市,威宁,细颗粒物(PM2.5),172,200,268,130,194,48,48,37,37,30,54,5,6,0.9,2
2026-03-03T2200,2587A,105.287,27.3133,毕节市,八中,,40,31,13,28,11,37,37,40,40,8,9,10,10,0.7,0.8
2026-03-03T2200,2588A,105.3079,27.2987,毕节市,师专,NA,NA,NA,NA,NA,NA,NA,NA,NA,NA,NA,NA,NA,NA,NA,NA
2026-03-03T2200,4263A,105.3688,27.3598,毕节市,工业大道,,35,NA,14,24,10,46,46,41,41,8,9,12,11,/,/
2026-03-03T2200,1629A,117.9961,37.3604,滨州市,第二水厂,细颗粒物(PM2.5),119,88,114,80,98,64,64,59,59,17,21,8,8,0.8,0.7
2026-03-03T2200,1630A,117.9789,37.3931,滨州市,北中新校,细颗粒物(PM2.5),153,180,122,117,97,40,40,68,66,38,26,11,9,0.9,0.7
2026-03-03T2200,3514A,117.9379,37.3959,滨州市,中海酒店,细颗粒物(PM2.5),145,141,121,109,96,46,46,70,70,37,28,8,7,1.0,1
2026-03-03T2200,3515A,117.9381509,37.35547456,滨州市,开发区一中,细颗粒物(PM2.5),133,132,121,96,92,41,41,65,63,34,19,12,10,1.0,0.8
2026-03-03T2200,3516A,118.0914,37.6938,滨州市,金海六路,细颗粒物(PM2.5),170,173,122,129,104,12,12,72,56,79,36,5,5,1.4,1.1
2026-03-03T2200,4028A,117.9955,37.3752,滨州市,滨州市西街道办事处,细颗粒物(PM2.5),143,134,115,107,94,52,52,68,67,20,17,12,11,0.6,0.5
2026-03-03T2200,2311A,115.8071,33.8399,亳州市,污水处理厂,颗粒物(PM10),91,107,70,45,60,49,49,79,74,19,12,6,4,0.3,0.3
2026-03-03T2200,2312A,115.7789,33.8519,亳州市,三国揽胜宫,细颗粒物(PM2.5),117,102,79,78,68,46,46,74,69,19,11,4,4,0.5,0.5
2026-03-03T2200,3332A,115.7631,33.803,亳州市,亳州学院,细颗粒物(PM2.5),103,93,74,63,57,57,57,78,74,18,13,4,3,0.5,0.5
2026-03-03T2200,2693A,82.0482,44.8553,博尔塔拉蒙古自治州,市党校,颗粒物(PM10),78,88,60,38,15,66,66,78,77,25,15,15,4,0.5,0.6
2026-03-03T2200,2694A,82.0805,44.8966,博尔塔拉蒙古自治州,市环保局,细颗粒物(PM2.5),105,86,50,65,19,73,73,73,73,25,15,18,4,0.7,0.8
2026-03-03T2200,1071A,116.8733,38.2922,沧州市,沧县城建局,细颗粒物(PM2.5),139,120,112,102,104,56,56,85,79,32,21,2,5,0.7,0.8
2026-03-03T2200,1072A,116.8462,38.3189,沧州市,电视转播站,细颗粒物(PM2.5),135,102,110,98,113,58,58,88,82,31,23,2,2,0.7,0.7
2026-03-03T2200,1073A,116.8588,38.3161,沧州市,市环保局,细颗粒物(PM2.5),137,104,114,100,101,62,62,83,77,24,19,3,3,0.7,0.7
2026-03-03T2200,3324A,116.8011,38.294,沧州市,河北水利电力学院,细颗粒物(PM2.5),140,119,120,103,115,36,36,78,72,57,22,4,4,0.8,0.7
2026-03-03T2200,2622A,97.1813,31.1289,昌都市,昌都监测站,NA,NA,47,27,10,7,NA,NA,98,97,7,8,3,4,0.4,0.6
2026-03-03T2200,3719A,97.1707,31.1428,昌都市,昌都会议中心,,39,39,19,15,7,91,91,97,97,5,4,5,5,0.5,0.5
2026-03-03T2200,2692A,87.2722,44.0298,昌吉回族自治州,新区政务中心,,44,44,44,28,30,71,71,83,82,25,19,8,6,0.6,0.6
2026-03-03T2200,3613A,87.3069,44.0093,昌吉回族自治州,亚心广场,颗粒物(PM10),60,63,57,35,38,82,82,85,85,13,14,12,10,0.2,0.3
2026-03-03T2200,4164A,87.2057,43.9289,昌吉回族自治州,财政所,颗粒物(PM10),59,62,59,30,39,60,60,82,79,29,18,6,6,0.4,0.5
2026-03-03T2200,1120A,125.2874,43.9024,长春市,客车厂,细颗粒物(PM2.5),190,206,104,143,94,40,40,57,46,27,30,11,10,0.7,0.8
2026-03-03T2200,1121A,125.2943,43.8508,长春市,邮电学院,细颗粒物(PM2.5),141,159,106,105,88,53,53,60,51,19,24,11,10,0.7,0.8
2026-03-03T2200,1122A,125.3648,43.8745,长春市,劳动公园,细颗粒物(PM2.5),163,176,119,124,86,49,49,57,50,24,29,10,10,0.9,1
2026-03-03T2200,1123A,125.3233,43.8781,长春市,园林处,细颗粒物(PM2.5),176,186,106,133,94,42,42,58,48,24,25,9,9,0.5,0.7
2026-03-03T2200,1124A,125.4604,43.7904,长春市,净月潭,细颗粒物(PM2.5),148,167,95,112,81,46,46,63,56,24,18,10,8,0.4,0.6
2026-03-03T2200,1126A,125.38,43.8422,长春市,经开区环卫处,细颗粒物(PM2.5),140,176,104,104,84,47,47,55,48,29,33,13,8,0.6,0.7
2026-03-03T2200,1127A,125.234,43.7761,长春市,高新区管委会,细颗粒物(PM2.5),231,301,121,181,93,47,47,55,47,26,24,18,10,0.5,0.7
2026-03-03T2200,1128A,125.1695,43.83,长春市,岱山公园,细颗粒物(PM2.5),169,166,103,128,93,35,35,48,40,32,31,7,7,0.9,0.8
2026-03-03T2200,4281A,125.334645,43.916281,长春市,北亚泰大街1068号,细颗粒物(PM2.5),210,187,118,160,110,35,35,49,40,31,35,11,10,0.7,0.9
2026-03-03T2200,1335A,113.082,28.2421,长沙市,经开区环保局,颗粒物(PM10),60,63,42,39,30,27,27,30,30,25,19,4,3,0.7,0.7
2026-03-03T2200,1336A,112.8873,28.2202,长沙市,高开区环保局,细颗粒物(PM2.5),92,66,46,56,45,35,35,37,37,19,15,6,4,0.8,0.8
2026-03-03T2200,1337A,113.0785,28.2012,长沙市,马坡岭,细颗粒物(PM2.5),98,68,49,59,44,29,29,32,32,23,18,4,4,1.0,0.9
2026-03-03T2200,1338A,112.9448,28.1894,长沙市,湖南师范大学,细颗粒物(PM2.5),68,60,49,44,36,35,35,42,41,26,19,4,4,1.0,1
2026-03-03T2200,1339A,113.0177,28.1322,长沙市,雨花区环保局,细颗粒物(PM2.5),60,55,39,40,32,29,29,38,35,33,23,3,5,1.0,1.1
2026-03-03T2200,1340A,112.9795,28.2593,长沙市,伍家岭,细颗粒物(PM2.5),90,64,50,55,44,34,34,37,37,20,15,5,4,1.0,1
2026-03-03T2200,1341A,113.002,28.1944,长沙市,火车新站,细颗粒物(PM2.5),88,61,44,54,41,34,34,37,37,25,17,2,2,0.9,0.8
2026-03-03T2200,1342A,112.9846,28.1177,长沙市,天心区环保局,细颗粒物(PM2.5),76,57,44,48,37,34,34,39,38,24,16,6,5,0.6,0.5
2026-03-03T2200,1343A,112.8906,28.1307,长沙市,湖南中医药大学,"颗粒物(PM10),细颗粒物(PM2.5)",60,64,46,40,34,36,36,41,40,20,15,6,5,0.8,0.8
2026-03-03T2200,1727A,113.1146,36.1547,长治市,清华站,颗粒物(PM10),500,678,113,NA,79,38,38,155,138,67,25,52,15,1.5,1.1
2026-03-03T2200,1730A,113.0887,36.2126,长治市,审计局,细颗粒物(PM2.5),438,NA,71,407,113,78,78,180,172,42,19,36,12,1.3,0.9
2026-03-03T2200,1731A,113.0845,36.1856,长治市,长治八中,细颗粒物(PM2.5),500,580,111,504,115,56,56,162,152,51,20,33,13,1.4,1
2026-03-03T2200,2845A,113.1561,36.1912,长治市,德盛苑,细颗粒物(PM2.5),190,146,72,143,77,83,83,153,151,26,17,17,10,2.9,1.2
2026-03-03T2200,3568A,113.0603,36.0464,长治市,向阳小学,细颗粒物(PM2.5),226,246,111,176,79,70,70,156,147,36,24,24,17,1.3,1.3
2026-03-03T2200,3569A,112.8788,36.315,长治市,屯留一中,细颗粒物(PM2.5),319,NA,65,269,63,121,121,136,136,43,21,22,9,1.1,0.8
2026-03-03T2200,4189A,113.113092,36.199482,长治市,英华南巷50号,细颗粒物(PM2.5),406,438,98,359,103,71,71,158,152,46,21,33,11,2.1,1.2
2026-03-03T2200,4190A,113.23666,36.33435,长治市,学府街1号,细颗粒物(PM2.5),140,125,79,103,74,68,68,107,101,35,19,8,9,1.7,1.3
2026-03-03T2200,1854A,111.696,28.9725,常德市,市二中,,49,49,29,34,24,59,59,85,77,16,8,7,6,0.9,0.9
2026-03-03T2200,3138A,111.7152,29.0288,常德市,武陵区永安,,43,42,29,30,23,68,68,84,79,13,12,5,5,0.7,0.7
2026-03-03T2200,3139A,111.6891,28.9881,常德市,鼎城区玉霞,,49,44,25,34,20,48,48,89,82,20,11,8,7,0.4,0.5
2026-03-03T2200,3140A,111.6651,29.0526,常德市,武陵区长庚,细颗粒物(PM2.5),58,43,28,39,22,61,61,87,81,14,9,7,6,0.9,0.8
2026-03-03T2200,1196A,119.9524,31.7586,常州市,市监测站,,46,45,57,32,36,56,56,63,57,22,18,6,6,0.6,0.6
2026-03-03T2200,1200A,119.9351,31.703,常州市,武进监测站,细颗粒物(PM2.5),54,49,48,37,38,53,53,64,58,21,15,5,6,0.5,0.5
2026-03-03T2200,3002A,119.9701,31.813,常州市,行政中心,颗粒物(PM10),55,56,53,33,37,52,52,57,54,23,19,4,4,0.4,0.5
2026-03-03T2200,3003A,120.0434,31.7726,常州市,经开区,,46,46,52,31,35,53,53,62,57,25,19,5,6,0.6,0.9
2026-03-03T2200,3010A,119.8919,31.7892,常州市,钟楼,细颗粒物(PM2.5),56,50,47,38,39,47,47,63,61,16,18,6,6,0.6,0.3
2026-03-03T2200,3429A,119.8595,31.706,常州市,武进经发区,细颗粒物(PM2.5),58,49,54,39,46,43,43,59,54,27,19,6,6,0.8,0.8
2026-03-03T2200,3430A,119.5812,31.7256,常州市,金坛城区,细颗粒物(PM2.5),74,63,55,47,58,51,51,65,62,16,12,7,7,0.7,0.7
2026-03-03T2200,4089A,119.9551,31.863,常州市,崇义南街5-H号,,46,45,42,32,34,58,58,59,57,16,16,4,4,0.5,0.5
2026-03-03T2200,2220A,120.4318,41.588,朝阳市,西梁,细颗粒物(PM2.5),136,131,139,99,122,60,60,67,66,15,37,26,17,0.3,1
2026-03-03T2200,2221A,120.452,41.565,朝阳市,河畔小区,细颗粒物(PM2.5),152,200,108,116,95,62,62,80,77,21,29,27,12,0.6,1
2026-03-03T2200,2222A,120.4176,41.5648,朝阳市,八里堡,细颗粒物(PM2.5),146,183,131,110,126,67,67,75,72,18,35,25,16,0.6,1.1
2026-03-03T2200,3026A,116.6179,23.6608,潮州市,市政府,颗粒物(PM10),52,52,16,34,10,50,50,50,50,9,4,4,3,0.5,0.6
2026-03-03T2200,4036A,116.646,23.676,潮州市,金山,,38,38,19,23,10,52,52,42,42,10,7,2,2,0.6,0.8
2026-03-03T2200,2473A,113.0116,25.8228,郴州市,市职中,,48,36,22,33,20,17,17,25,17,12,10,2,2,0.8,0.8
2026-03-03T2200,2475A,113.0381,25.8074,郴州市,市审计局,,35,28,17,24,16,20,20,24,17,13,11,3,3,/,/
2026-03-03T2200,2476A,113.0348,25.7757,郴州市,市环保局,,40,33,34,28,19,22,22,28,21,14,12,3,4,0.7,0.6
2026-03-03T2200,4252A,113.0138,25.8011,郴州市,好美居路49号,细颗粒物(PM2.5),56,NA,18,38,18,27,27,31,26,12,10,4,3,/,/
2026-03-03T2200,1431A,103.9727,30.7242,成都市,金泉两河,,41,41,29,22,23,44,44,82,78,23,12,3,2,0.5,0.4
2026-03-03T2200,1432A,104.1423,30.6765,成都市,十里店,,44,44,33,26,25,49,49,77,72,25,18,4,4,0.6,0.5
2026-03-03T2200,1433A,104.0594,30.5765,成都市,三瓦窑,,50,50,27,32,22,28,28,82,75,43,18,3,2,0.6,0.5
2026-03-03T2200,1434A,104.1122,30.6306,成都市,沙河铺,,44,44,35,26,23,33,33,74,68,38,26,4,4,0.8,0.8
2026-03-03T2200,2880A,104.0219,30.6561,成都市,大石西路,颗粒物(PM10),53,53,32,25,26,33,33,75,71,45,21,5,4,0.5,0.4
2026-03-03T2200,3136A,104.2724,30.559,成都市,龙泉驿区区政府,,32,29,23,22,21,60,60,82,80,17,16,6,6,0.6,0.6
2026-03-03T2200,3357A,104.0028,30.6891,成都市,金博路,,42,NA,20,29,17,48,48,77,74,30,20,6,6,0.7,0.7
2026-03-03T2200,3359A,104.056,30.5228,成都市,华阳,,41,41,27,27,20,54,54,82,78,28,20,2,2,0.7,0.6
2026-03-03T2200,3488A,104.387954,30.746684,成都市,青石路225号,,39,39,39,27,27,29,29,58,40,43,32,5,4,0.8,0.9
2026-03-03T2200,3489A,104.0788,30.4054,成都市,科学城,,30,27,27,21,20,55,55,79,76,17,15,8,7,0.8,0.7
2026-03-03T2200,4011A,103.8505,30.6946,成都市,光华大道三段,颗粒物(PM10),53,54,40,21,18,53,53,81,78,29,18,4,3,0.6,0.6
2026-03-03T2200,4144A,104.3257,30.6406,成都市,八角井街185号,,44,44,37,16,22,56,56,80,76,17,17,4,4,0.6,0.6
2026-03-03T2200,4224A,104.2433276,30.53529463,成都市,鲸龙路1057号,细颗粒物(PM2.5),60,54,33,40,23,61,61,85,83,14,17,6,5,0.9,0.8
2026-03-03T2200,1062A,117.9531,40.908,承德市,铁路,细颗粒物(PM2.5),126,119,59,88,40,45,45,86,75,26,19,8,3,0.5,0.5
2026-03-03T2200,1063A,117.9397,40.9763,承德市,中国银行,细颗粒物(PM2.5),106,110,53,66,36,33,33,82,68,24,15,3,2,0.4,0.5
2026-03-03T2200,4073A,117.9462,40.95,承德市,杏林街1号,细颗粒物(PM2.5),94,85,51,57,40,64,64,86,80,11,12,8,4,0.3,0.5
2026-03-03T2200,4274A,117.7994,40.9605,承德市,滨河大街98号,细颗粒物(PM2.5),107,101,44,67,36,39,39,90,76,23,11,6,5,0.4,0.5
2026-03-03T2200,2314A,117.4698,30.6617,池州市,池州学院,细颗粒物(PM2.5),78,54,43,49,38,65,65,60,60,16,19,3,3,0.8,0.8
2026-03-03T2200,3237A,117.4918,30.6617,池州市,展览馆,细颗粒物(PM2.5),72,55,49,46,41,68,68,62,62,14,18,2,3,0.7,0.7
2026-03-03T2200,3333A,117.5626,30.695,池州市,第八中学,细颗粒物(PM2.5),54,47,42,37,32,68,68,61,61,16,20,3,3,0.6,0.7
2026-03-03T2200,3334A,117.5037,30.6242,池州市,第十二中学,细颗粒物(PM2.5),66,50,41,43,35,68,68,62,62,18,23,4,4,0.9,1
2026-03-03T2200,1744A,118.9229,42.2816,赤峰市,松山一中,颗粒物(PM10),198,346,88,125,56,43,43,67,60,32,22,28,17,0.9,0.8
2026-03-03T2200,1745A,118.9588,42.2733,赤峰市,哈达街,细颗粒物(PM2.5),192,205,60,144,48,33,33,81,70,49,24,87,30,0.6,0.6
2026-03-03T2200,1746A,118.8792,42.2551,赤峰市,天义路,颗粒物(PM10),99,118,44,54,39,76,76,86,81,14,17,14,16,0.5,0.6
2026-03-03T2200,3058A,119.2656,42.0356,赤峰市,银河街,"颗粒物(PM10),细颗粒物(PM2.5)",109,141,72,69,50,72,72,91,85,10,11,19,16,0.7,0.8
2026-03-03T2200,3286A,118.9359,42.3146,赤峰市,桥北物流园区,细颗粒物(PM2.5),88,61,38,54,33,70,70,87,83,13,14,6,5,0.5,0.6
2026-03-03T2200,2521A,107.3473,22.4137,崇左市,市环保局江州分局,,24,24,28,14,16,48,48,49,49,9,8,5,5,0.8,0.8
2026-03-03T2200,4256A,107.375,22.3736,崇左市,石景林东路7号,,19,19,25,10,16,50,50,52,52,10,11,4,4,0.8,1
2026-03-03T2200,3207A,118.31131,32.3033,滁州市,市政府原办公楼,NA,NA,NA,47,NA,55,NA,NA,72,NA,NA,14,NA,4,NA,0.7
2026-03-03T2200,3331A,118.3268,32.2633,滁州市,图书馆,颗粒物(PM10),58,60,46,38,40,60,60,72,69,17,15,6,7,0.5,0.5
2026-03-03T2200,4101A,118.3196,32.3335,滁州市,银山路666号,细颗粒物(PM2.5),64,49,43,42,47,67,67,79,74,10,9,4,4,0.6,0.7
2026-03-03T2200,4102A,118.3426,32.2979,滁州市,黄山路555号,细颗粒物(PM2.5),68,59,59,44,48,65,65,74,70,13,15,4,5,0.7,0.7
2026-03-03T2200,2606A,101.5379,25.0492,楚雄彝族自治州,市经济开发区,细颗粒物(PM2.5),78,58,52,49,36,92,92,112,108,17,17,8,5,1.2,0.9
2026-03-03T2200,4153A,101.5536,25.0343,楚雄彝族自治州,团结路562号,,50,46,43,35,29,110,110,122,119,9,12,6,6,0.6,0.7
2026-03-03T2200,2549A,107.5087,31.2186,达州市,市环境监测站,颗粒物(PM10),53,53,26,36,10,16,16,59,44,44,27,8,7,0.5,0.3
2026-03-03T2200,2550A,107.4988,31.2132,达州市,凤凰小区,细颗粒物(PM2.5),54,51,25,37,14,22,22,59,45,37,26,8,6,0.6,0.4
2026-03-03T2200,2551A,107.5081,31.1987,达州市,达县机关宾馆,细颗粒物(PM2.5),136,NA,25,99,19,6,6,64,43,48,33,5,5,0.8,0.6
2026-03-03T2200,2552A,107.4644,31.2124,达州市,市政中心,颗粒物(PM10),54,55,29,34,9,24,24,62,48,31,27,6,7,0.6,0.5
2026-03-03T2200,2614A,100.2168,25.5818,大理白族自治州,大理市环境监测站,细颗粒物(PM2.5),54,44,39,37,33,114,114,112,112,6,9,7,7,0.6,0.6
2026-03-03T2200,2615A,100.1542,25.7055,大理白族自治州,大理古城,颗粒物(PM10),53,54,42,34,28,113,113,116,114,5,10,8,8,0.5,0.5
2026-03-03T2200,1109A,121.6119,38.974,大连市,甘井子,细颗粒物(PM2.5),216,179,121,166,101,59,59,61,61,23,31,12,10,1.2,0.7
2026-03-03T2200,1110A,121.565,38.9509,大连市,周水子,细颗粒物(PM2.5),212,173,119,162,102,43,43,59,56,26,30,14,10,1.2,0.8
2026-03-03T2200,1111A,121.5637,38.8849,大连市,星海三站,细颗粒物(PM2.5),231,192,104,181,85,38,38,52,47,22,20,11,7,1.5,1
2026-03-03T2200,1112A,121.6301,38.9117,大连市,青泥洼桥,细颗粒物(PM2.5),196,180,106,147,88,54,54,65,56,42,37,14,11,1.6,1.1
2026-03-03T2200,1113A,121.6248,38.8643,大连市,傅家庄,细颗粒物(PM2.5),168,155,88,127,68,67,67,71,64,24,23,14,11,1.0,0.5
2026-03-03T2200,1114A,121.5117,38.8636,大连市,七贤岭,细颗粒物(PM2.5),183,149,82,138,66,57,57,70,67,26,21,11,7,1.9,1.2
2026-03-03T2200,1116A,121.7507,39.1339,大连市,金州,细颗粒物(PM2.5),200,181,132,150,105,46,46,60,57,27,25,11,13,1.4,0.8
2026-03-03T2200,1117A,121.7811,39.0495,大连市,开发区,细颗粒物(PM2.5),213,166,108,163,92,59,59,54,52,27,32,9,5,1.3,0.9
2026-03-03T2200,1118A,121.9762,39.0631,大连市,双D港,细颗粒物(PM2.5),166,167,108,126,82,65,65,65,65,23,21,13,9,1.0,0.8
2026-03-03T2200,4082A,121.2548,38.8188,大连市,旅顺,细颗粒物(PM2.5),235,218,120,185,102,26,26,57,50,35,22,13,8,1.7,1.1
2026-03-03T2200,1789A,124.8085,46.0381,大庆市,大同区,细颗粒物(PM2.5),150,NA,79,114,48,51,51,52,51,23,16,14,13,0.8,0.7
2026-03-03T2200,1790A,125.1166,46.5255,大庆市,龙凤区,细颗粒物(PM2.5),242,227,82,192,51,28,28,52,38,46,20,12,6,0.6,0.3
2026-03-03T2200,1791A,124.8894,46.4007,大庆市,红岗区,细颗粒物(PM2.5),140,NA,63,103,47,49,49,50,42,20,17,10,10,1.0,0.8
2026-03-03T2200,1792A,125.1391,46.578,大庆市,萨尔图区,细颗粒物(PM2.5),229,228,67,179,40,27,27,56,40,48,18,8,5,0.6,0.5
2026-03-03T2200,1793A,124.9026,46.6217,大庆市,让胡路区,细颗粒物(PM2.5),334,NA,78,284,62,23,23,53,40,41,20,7,8,0.7,0.5
2026-03-03T2200,3481A,125.127,46.6277,大庆市,萨区政府监测点,细颗粒物(PM2.5),134,187,61,97,35,32,32,62,44,40,13,9,9,0.6,0.4
2026-03-03T2200,1723A,113.2926,40.0759,大同市,云冈宾馆,细颗粒物(PM2.5),143,206,112,107,38,53,53,77,68,28,17,30,9,0.3,0.4
2026-03-03T2200,1724A,113.3437,40.0921,大同市,大同大学,颗粒物(PM10),87,101,112,41,30,74,74,86,84,15,14,7,4,0.4,0.5
2026-03-03T2200,1725A,113.2637,40.129,大同市,安家小村,颗粒物(PM10),123,178,133,84,37,56,56,84,73,27,16,12,9,0.6,0.5
2026-03-03T2200,3282A,113.3399,40.0586,大同市,大同市卫生学校,颗粒物(PM10),145,237,134,92,35,67,67,88,81,23,13,18,6,0.6,0.7
2026-03-03T2200,3565A,113.1371,40.1122,大同市,云冈站,细颗粒物(PM2.5),146,201,130,110,33,63,63,80,74,19,16,19,8,0.5,0.6
2026-03-03T2200,3566A,113.1186,40.2556,大同市,图书馆,颗粒物(PM10),112,151,118,43,34,54,54,82,72,8,12,4,8,0.6,0.6
2026-03-03T2200,3567A,113.5931,40.0459,大同市,区一中,颗粒物(PM10),83,95,114,39,39,72,72,88,83,12,12,20,10,0.6,0.5
2026-03-03T2200,4199A,113.2798248,40.09972476,大同市,魏都大道141号,细颗粒物(PM2.5),140,166,140,103,36,60,60,82,76,25,17,22,10,0.7,0.6
2026-03-03T2200,2269A,124.1068,50.4091,大兴安岭地区,科技局,细颗粒物(PM2.5),76,70,32,48,18,61,61,68,61,8,9,10,10,0.4,0.3
2026-03-03T2200,3663A,124.117,50.4279,大兴安岭地区,红旗社区,细颗粒物(PM2.5),178,158,27,134,20,27,27,81,64,39,6,18,8,0.5,0.2
2026-03-03T2200,1600A,124.33,40.0625,丹东市,江湾东路,细颗粒物(PM2.5),196,NA,66,147,58,41,41,74,54,22,22,12,11,0.8,0.8
2026-03-03T2200,1601A,124.4242,40.1513,丹东市,临江后街,细颗粒物(PM2.5),109,119,60,69,49,39,39,67,52,22,19,12,10,0.8,0.9
2026-03-03T2200,1602A,124.3935,40.1461,丹东市,元宝山,细颗粒物(PM2.5),134,107,50,97,39,32,32,65,51,24,18,7,7,0.8,0.8
2026-03-03T2200,1603A,124.3634,40.1093,丹东市,民主桥,细颗粒物(PM2.5),190,144,59,143,49,45,45,65,51,19,22,10,7,0.7,0.7
2026-03-03T2200,3541A,109.5726195,19.51688767,儋州市,第一中学子站,,16,7,30,3,22,51,51,43,43,5,6,6,6,0.6,0.5
2026-03-03T2200,3542A,109.5567,19.5187,儋州市,东坡学校子站,,17,14,32,3,24,54,54,45,45,5,7,4,4,0.7,0.6
2026-03-03T2200,2616A,98.5611,24.4273,德宏傣族景颇族自治州,德宏州监测站,细颗粒物(PM2.5),122,119,71,84,54,64,64,105,92,25,24,8,7,0.9,0.6
2026-03-03T2200,3677A,98.5887,24.4366,德宏傣族景颇族自治州,芒市人民政府综合楼,颗粒物(PM10),105,133,85,58,47,69,69,102,94,14,14,6,5,0.6,0.5
2026-03-03T2200,1901A,104.424,31.1209,德阳市,东山公园,细颗粒物(PM2.5),76,NA,27,48,21,58,58,80,78,20,16,4,3,0.9,0.8
2026-03-03T2200,1902A,104.3827,31.1318,德阳市,西小区,细颗粒物(PM2.5),74,53,46,47,24,48,48,80,76,38,26,5,5,0.8,0.7
2026-03-03T2200,1904A,104.3553,31.1091,德阳市,耐火材料厂,细颗粒物(PM2.5),72,63,42,46,29,43,43,78,74,36,27,3,2,0.8,0.7
2026-03-03T2200,4145A,104.4144,31.1495,德阳市,市林业局,细颗粒物(PM2.5),66,54,30,43,20,12,12,78,67,64,22,6,5,1.0,0.9
2026-03-03T2200,1622A,116.3034,37.4675,德州市,儿童乐园,细颗粒物(PM2.5),114,90,131,75,112,58,58,68,68,35,27,9,9,0.8,0.8
2026-03-03T2200,1624A,116.2992,37.4449,德州市,监理站,细颗粒物(PM2.5),116,97,134,77,109,79,79,77,77,21,28,4,4,1.0,1
2026-03-03T2200,3066A,116.2722,37.438,德州市,九衢泉纯净水厂,细颗粒物(PM2.5),120,90,142,82,120,70,70,40,40,23,36,5,3,0.9,1
2026-03-03T2200,3371A,116.3693,37.44,德州市,开发区人民医院,细颗粒物(PM2.5),123,110,141,85,114,72,72,72,72,15,20,11,10,0.8,0.8
2026-03-03T2200,3511A,116.5687,37.3331,德州市,陵城艺术中心,细颗粒物(PM2.5),130,117,124,92,108,61,61,71,71,22,19,3,6,1.2,1.1
2026-03-03T2200,4292A,116.352738,37.420875,德州市,新河东路,细颗粒物(PM2.5),112,97,127,73,100,71,71,72,72,18,24,9,9,1.0,1
2026-03-03T2200,2621A,99.7054,27.8319,迪庆藏族自治州,迪庆州站,细颗粒物(PM2.5),58,58,29,39,19,104,104,118,114,13,9,8,6,0.6,0.5
2026-03-03T2200,3180A,99.7122,27.8129,迪庆藏族自治州,质量技术监督局,,35,23,24,18,16,110,110,119,116,7,9,6,6,0.4,0.5
2026-03-03T2200,4257A,104.6092,35.5962,定西市,将台街,细颗粒物(PM2.5),111,107,79,72,41,77,77,102,97,9,15,13,10,0.5,0.7
2026-03-03T2200,4309A,104.6159,35.5701,定西市,正龙路62号,颗粒物(PM10),67,73,75,37,33,76,76,98,93,5,7,6,6,0.4,0.6
2026-03-03T2200,4071A,114.9883,38.5232,定州市,交通局,细颗粒物(PM2.5),135,119,95,98,86,51,51,87,69,29,21,7,8,1.0,0.9
2026-03-03T2200,4072A,115.0045,38.5136,定州市,第五中学,细颗粒物(PM2.5),139,138,110,102,87,43,43,83,63,31,13,6,6,1.0,0.8
2026-03-03T2200,1390A,113.7943,23.0132,东莞市,东城石井,,12,11,11,8,6,32,32,35,34,12,14,5,5,0.7,0.8
2026-03-03T2200,1391A,113.7384,22.9659,东莞市,南城西平,,11,11,10,6,5,22,22,30,27,19,18,6,6,0.8,0.8
2026-03-03T2200,3319A,113.7283,23.041,东莞市,万江金泰,,19,19,9,12,6,25,25,34,32,14,11,5,5,0.8,0.9
2026-03-03T2200,4129A,113.8666,23.1062,东莞市,裕兴路,,10,10,9,7,4,31,31,36,34,11,10,6,6,1.0,1.1
2026-03-03T2200,4130A,114.0076,22.9739,东莞市,教育路1号,,16,16,13,10,7,29,29,36,33,16,15,5,4,0.7,0.8
2026-03-03T2200,4131A,113.7981,22.8124,东莞市,长怡路1号,,20,20,16,11,7,27,27,33,32,17,15,5,5,0.8,0.8
2026-03-03T2200,1666A,118.6612,37.4313,东营市,市环保局,细颗粒物(PM2.5),176,158,112,133,95,38,38,57,49,27,22,7,6,1.0,0.9
2026-03-03T2200,3036A,118.6903,37.4337,东营市,开发区管委会,细颗粒物(PM2.5),168,135,112,127,98,44,44,59,51,34,29,6,6,0.8,0.7
2026-03-03T2200,3365A,118.5721,37.5654,东营市,垦利区民丰路,细颗粒物(PM2.5),225,239,120,175,110,12,12,59,47,63,32,11,9,1.0,0.8
2026-03-03T2200,3498A,118.5063,37.8606,东营市,河口城区,细颗粒物(PM2.5),150,171,125,115,99,45,45,64,61,30,23,4,4,1.4,1.3
2026-03-03T2200,3646A,118.4979,37.4623,东营市,胜利站,细颗粒物(PM2.5),245,302,136,195,102,21,21,53,45,49,27,9,6,1.3,0.9
2026-03-03T2200,3734A,118.5753,37.4405,东营市,理想之城,细颗粒物(PM2.5),190,207,129,143,99,17,17,60,46,60,26,4,3,1.1,1
2026-03-03T2200,1591A,110.0024,39.8127,鄂尔多斯市,综合楼,颗粒物(PM10),158,266,260,102,54,65,65,80,65,26,17,21,12,0.5,0.4
2026-03-03T2200,1592A,109.9485,39.8259,鄂尔多斯市,巴音孟克林场办事处,细颗粒物(PM2.5),255,234,229,205,67,66,66,85,71,24,13,13,7,0.5,0.3
2026-03-03T2200,1593A,109.7734,39.5987,鄂尔多斯市,康泽苑,颗粒物(PM10),144,232,204,74,41,44,44,88,77,37,12,19,9,0.5,0.4
2026-03-03T2200,1594A,109.8121,39.5987,鄂尔多斯市,华泰汽车城,颗粒物(PM10),112,151,197,32,38,44,44,91,76,33,11,7,5,0.6,0.4
2026-03-03T2200,1595A,109.9734,39.7884,鄂尔多斯市,奥林花园,细颗粒物(PM2.5),103,NA,230,63,51,61,61,84,72,29,17,11,7,0.3,0.2
2026-03-03T2200,2436A,114.894,30.3989,鄂州市,市政府,细颗粒物(PM2.5),180,159,44,136,38,22,22,56,47,37,20,10,7,1.5,0.8
2026-03-03T2200,2437A,114.8986,30.3714,鄂州市,赵家坝,细颗粒物(PM2.5),216,NA,41,166,42,20,20,65,54,34,14,9,6,1.4,0.8
2026-03-03T2200,3654A,114.8093,30.4091,鄂州市,精准医疗中心,细颗粒物(PM2.5),119,83,36,80,31,35,35,74,66,26,11,9,11,1.4,1
2026-03-03T2200,2454A,109.4978,30.2979,恩施土家族苗族自治州,湖北民院,细颗粒物(PM2.5),94,NA,19,57,10,21,21,52,45,17,10,8,6,0.7,0.6
2026-03-03T2200,3549A,109.5061,30.3771,恩施土家族苗族自治州,龙凤新区,细颗粒物(PM2.5),168,NA,12,127,17,9,9,46,34,13,5,6,7,0.6,0.5
2026-03-03T2200,2499A,108.3411,21.6159,防城港市,沙万,,29,29,25,14,13,52,52,55,55,9,9,7,6,0.8,0.8
2026-03-03T2200,2500A,108.3515,21.7733,防城港市,防城档案局,,26,26,23,18,14,50,50,54,54,8,7,6,5,0.8,0.8
2026-03-03T2200,2501A,108.3506,21.6414,防城港市,大海花园,,26,NA,16,18,16,55,55,59,59,9,8,7,7,0.8,0.8
2026-03-03T2200,1371A,113.1293,23.0065,佛山市,湾梁,,12,NA,8,8,7,23,23,26,24,19,18,/,/,/,/
2026-03-03T2200,1372A,113.1082,23.0477,佛山市,华材职中,,15,NA,9,10,8,21,21,24,22,21,20,6,6,0.6,0.7
2026-03-03T2200,1373A,113.1439,23.045,佛山市,南海气象局,,16,16,10,10,6,21,21,25,22,25,22,/,/,/,/
2026-03-03T2200,1374A,113.2879,22.8094,佛山市,顺德苏岗,,16,16,12,9,6,22,22,26,23,23,20,/,/,0.9,0.9
2026-03-03T2200,1376A,112.8384,22.8678,佛山市,高明孔堂,,12,12,10,6,5,22,22,26,23,13,11,/,/,/,/
2026-03-03T2200,1377A,112.8835,23.1584,佛山市,三水监测站,,12,NA,5,8,5,23,23,27,25,14,11,2,2,0.7,0.7
2026-03-03T2200,1378A,112.8668,23.185,佛山市,三水云东海,,16,16,11,9,4,17,17,27,24,18,14,/,/,/,/
2026-03-03T2200,3625A,113.2568,22.7629,佛山市,容桂街道办,,20,NA,8,14,7,15,15,24,20,31,25,/,/,/,/
2026-03-03T2200,1282A,119.2681,26.0506,福州市,师大,颗粒物(PM10),63,68,20,41,12,86,86,76,76,10,12,6,3,0.4,0.5
2026-03-03T2200,1283A,119.2983,26.1028,福州市,五四北路,细颗粒物(PM2.5),101,104,20,61,11,79,79,73,73,14,13,8,5,0.4,0.4
2026-03-03T2200,1284A,119.2648,26.0769,福州市,杨桥西路,颗粒物(PM10),56,58,19,37,11,85,85,74,74,10,12,5,4,/,/
2026-03-03T2200,3048A,119.5799,26.0937,福州市,九龙,,30,27,17,14,6,95,95,94,94,9,9,4,4,0.4,0.4
2026-03-03T2200,3526A,119.5188,25.9666,福州市,吴航,,30,27,17,17,11,93,93,90,90,9,10,4,4,0.5,0.5
2026-03-03T2200,4104A,119.3106,26.0648,福州市,路通桥巷6号,,49,NA,16,34,15,87,87,78,78,9,9,/,/,/,/
2026-03-03T2200,1755A,123.7974,41.8494,抚顺市,望花区,细颗粒物(PM2.5),230,368,272,180,196,44,44,44,44,34,51,17,16,1.0,1.5
2026-03-03T2200,1756A,123.9161,41.8827,抚顺市,顺城区,细颗粒物(PM2.5),207,187,216,157,191,40,40,52,51,43,50,12,14,0.9,1.5
2026-03-03T2200,1757A,124.0437,41.8615,抚顺市,东洲区,细颗粒物(PM2.5),217,256,246,167,182,53,53,43,43,27,48,11,12,0.9,1.6
2026-03-03T2200,1758A,123.9246,41.8638,抚顺市,新抚区,细颗粒物(PM2.5),189,261,255,142,182,57,57,54,54,27,46,10,11,0.9,1.6
2026-03-03T2200,1759A,124.0972,41.8961,抚顺市,大伙房水库,细颗粒物(PM2.5),127,123,204,89,165,73,73,58,58,18,42,10,12,0.7,1.4
2026-03-03T2200,1760A,123.708,41.8386,抚顺市,沈抚新城,细颗粒物(PM2.5),203,159,242,153,186,30,30,46,46,50,54,6,12,1.3,1.5
2026-03-03T2200,2377A,116.3544,27.9833,抚州市,市站,细颗粒物(PM2.5),70,50,25,45,22,77,77,81,81,6,4,4,5,1.1,1.1
2026-03-03T2200,2378A,116.3562,27.9631,抚州市,血防站,细颗粒物(PM2.5),76,51,29,48,20,74,74,78,78,12,10,3,3,1.4,1.4
2026-03-03T2200,2379A,116.3561,28.0007,抚州市,采茶剧团,细颗粒物(PM2.5),56,56,28,38,19,71,71,76,76,5,4,10,9,1.0,1
2026-03-03T2200,2380A,116.3854,27.9648,抚州市,医学分院,颗粒物(PM10),397,497,69,40,15,68,68,72,72,8,6,5,5,1.0,1
2026-03-03T2200,2207A,121.6095,41.9978,阜新市,工业园区,颗粒物(PM10),77,87,97,30,68,75,75,85,83,10,26,18,16,0.3,0.7
2026-03-03T2200,2208A,121.6567,42.0188,阜新市,长青街,颗粒物(PM10),54,55,76,27,60,65,65,74,72,10,22,12,13,0.4,0.8
2026-03-03T2200,2209A,121.6672,42.07,阜新市,农业园区,,24,24,78,6,48,71,71,74,73,8,14,3,7,0.4,1
2026-03-03T2200,2211A,121.6343,42.0455,阜新市,玉龙新城,,40,40,79,7,54,72,72,78,75,12,26,10,11,0.5,1
2026-03-03T2200,2301A,115.8276,32.8929,阜阳市,市监测站,细颗粒物(PM2.5),120,108,77,81,64,44,44,66,62,23,13,5,4,0.7,0.6
2026-03-03T2200,2303A,115.8551,32.8606,阜阳市,开发区,细颗粒物(PM2.5),116,131,80,77,65,45,45,68,64,25,19,4,4,0.7,0.6
2026-03-03T2200,2875A,115.783962,32.889217,阜阳市,阜阳职业技术学院,细颗粒物(PM2.5),122,89,61,84,58,58,58,81,76,18,12,5,5,0.7,0.5
2026-03-03T2200,3468A,115.79,32.8614,阜阳市,市规划展馆,细颗粒物(PM2.5),121,96,69,83,62,59,59,78,72,15,10,6,6,0.7,0.6
2026-03-03T2200,3469A,115.835101,32.918568,阜阳市,枣园社区,细颗粒物(PM2.5),122,106,74,84,67,52,52,71,66,16,12,8,7,0.8,0.7
2026-03-03T2200,2669A,102.9097,34.9841,甘南藏族自治州,州政府,细颗粒物(PM2.5),106,121,83,66,48,18,18,94,78,56,19,9,3,0.7,0.6
2026-03-03T2200,3380A,102.8915,34.9618,甘南藏族自治州,甘肃民族师范学院,颗粒物(PM10),71,79,84,26,34,24,24,93,77,47,24,4,7,0.5,0.4
2026-03-03T2200,2570A,101.96,30.048,甘孜藏族自治州,水桥子,,15,9,6,3,2,46,46,66,61,12,9,6,6,0.5,0.5
2026-03-03T2200,3065A,101.9534,29.9976,甘孜藏族自治州,州环保局,,20,8,5,3,3,64,64,74,69,10,8,5,6,0.5,0.4
2026-03-03T2200,2363A,114.9368,25.8663,赣州市,地委,,35,25,17,24,14,42,42,46,45,10,10,3,2,0.6,0.7
2026-03-03T2200,2364A,114.946,25.8483,赣州市,气象台,,40,40,29,28,17,48,48,48,48,12,10,7,5,0.5,0.7
2026-03-03T2200,2365A,114.932,25.8332,赣州市,市图书馆,,33,31,18,23,14,45,45,48,47,14,12,4,4,0.5,0.5
2026-03-03T2200,2366A,114.8905,25.8472,赣州市,华坚鞋城,,43,34,19,30,14,42,42,43,43,10,12,5,5,0.3,0.4
2026-03-03T2200,3109A,115.0094,25.8614,赣州市,赣县区卫计委,,38,30,14,26,13,43,43,47,45,11,10,3,4,0.8,0.9
2026-03-03T2200,2684A,106.2753,36.0057,固原市,监测站,细颗粒物(PM2.5),116,104,68,77,32,52,52,80,75,22,14,11,9,0.6,0.6
2026-03-03T2200,2685A,106.2384,36.0189,固原市,新区,细颗粒物(PM2.5),116,110,75,77,31,49,49,80,74,25,19,10,8,0.8,0.7
2026-03-03T2200,2544A,106.6307,30.4577,广安市,市委,细颗粒物(PM2.5),68,62,48,44,43,14,14,48,38,40,22,6,6,1.0,0.8
2026-03-03T2200,2545A,106.6266,30.4662,广安市,友谊中学,细颗粒物(PM2.5),62,64,45,41,35,9,9,48,37,42,21,11,11,1.1,0.8
2026-03-03T2200,2547A,106.6386,30.4551,广安市,广电花园,细颗粒物(PM2.5),68,48,37,44,42,12,12,45,35,33,20,8,8,1.0,0.8
2026-03-03T2200,2902A,106.6347,30.4868,广安市,北辰小学,,49,45,44,34,38,16,16,49,40,28,19,3,4,0.9,0.8
2026-03-03T2200,2524A,105.8211,32.4444,广元市,老城,,29,NA,23,20,10,44,44,76,72,25,14,7,6,1.0,0.8
2026-03-03T2200,2526A,105.8629,32.429,广元市,监测站,,29,29,23,14,8,42,42,70,66,16,14,4,5,0.7,0.6
2026-03-03T2200,3617A,105.8047,32.4167,广元市,经开区,,34,34,19,21,13,33,33,72,67,33,13,5,3,0.7,0.7
2026-03-03T2200,1345A,113.2346,23.1423,广州市,广雅中学,,22,21,17,15,10,19,19,22,22,23,20,2,2,0.6,0.7
2026-03-03T2200,1346A,113.2611,23.105,广州市,市五中,,15,14,10,10,7,25,25,31,29,20,17,6,6,/,/
2026-03-03T2200,1348A,113.3477,23.0916,广州市,广东商学院,,15,15,10,10,4,30,30,31,28,14,14,4,4,0.9,1
2026-03-03T2200,1349A,113.4332,23.105,广州市,市八十六中,,15,11,8,10,7,30,30,33,31,16,16,4,4,/,/
2026-03-03T2200,1350A,113.3506,22.9488,广州市,番禺中学,,25,25,13,14,6,23,23,29,26,18,16,3,3,0.8,0.8
2026-03-03T2200,1351A,113.2147,23.3918,广州市,花都师范,,13,13,8,3,5,26,26,31,31,14,11,5,5,0.9,1.1
2026-03-03T2200,1352A,113.2599,23.1329,广州市,市监测站,,19,16,12,13,8,23,23,27,25,20,17,3,2,/,/
2026-03-03T2200,1353A,113.5618,23.3119,广州市,九龙镇镇龙,,10,10,5,7,3,28,28,32,30,10,8,5,5,0.8,0.8
2026-03-03T2200,1354A,113.2764,23.1544,广州市,麓湖,,16,16,11,11,7,20,20,30,27,18,15,3,2,0.8,0.8
2026-03-03T2200,2846A,113.3209,23.1323,广州市,体育西,,22,19,12,15,9,27,27,32,31,18,16,5,5,0.9,0.9
2026-03-03T2200,3298A,113.5718,23.5493,广州市,从化街口,,12,10,7,8,5,36,36,36,34,11,10,8,8,0.7,0.7
2026-03-03T2200,3299A,113.3463,23.369,广州市,白云竹料,,11,9,6,6,4,34,34,39,38,10,10,3,3,0.8,0.8
2026-03-03T2200,3300A,113.2981,23.2365,广州市,白云嘉禾,,19,16,9,13,7,24,24,33,29,22,21,9,9,/,/
2026-03-03T2200,3301A,113.4256,23.1716,广州市,黄埔科学城,,13,10,7,9,5,33,33,33,32,8,7,4,5,0.7,0.8
2026-03-03T2200,3302A,113.3942,23.0485,广州市,番禺大学城,,13,10,28,9,4,32,32,32,30,16,17,2,2,0.7,0.5
2026-03-03T2200,3303A,113.4923,22.8169,广州市,南沙黄阁,,18,15,14,12,7,15,15,27,21,27,23,6,6,/,/
2026-03-03T2200,3304A,113.534,22.7893,广州市,南沙街,,22,22,15,10,6,18,18,24,22,17,18,7,7,0.7,0.8
2026-03-03T2200,3443A,113.2905,23.5541,广州市,花都梯面,,9,9,7,6,4,22,22,29,29,9,7,7,7,/,/
2026-03-03T2200,3445A,113.786,23.7479,广州市,从化良口,,13,10,6,6,3,40,40,41,39,6,6,4,4,/,/
2026-03-03T2200,3446A,113.805,23.2614,广州市,增城荔城,,10,6,5,3,2,32,32,40,37,9,8,6,6,0.7,0.7
2026-03-03T2200,2506A,109.604387,23.066791,贵港市,江南子站,,20,19,18,14,9,58,58,58,58,10,10,5,5,0.7,0.7
2026-03-03T2200,2508A,109.5669,23.1065,贵港市,荷城子站,,24,24,18,8,11,50,50,58,57,12,10,6,6,0.7,0.7
2026-03-03T2200,3405A,109.5886,23.1172,贵港市,新世纪学校,,29,29,21,17,11,54,54,61,61,12,11,/,/,0.8,0.7
2026-03-03T2200,4260A,109.5933,23.095,贵港市,中山路155-3号,,24,24,19,12,10,54,54,59,59,11,10,/,/,0.8,0.8
2026-03-03T2200,1439A,106.6863,26.6035,贵阳市,马鞍山,,49,34,17,34,14,41,41,61,52,9,6,8,5,/,/
2026-03-03T2200,1441A,106.6241,26.6266,贵阳市,鉴湖路,细颗粒物(PM2.5),74,63,30,47,18,35,35,58,50,13,8,8,6,0.4,0.4
2026-03-03T2200,1442A,106.7468,26.6344,贵阳市,燕子冲,,39,31,20,27,15,48,48,62,58,9,8,9,7,0.4,0.4
2026-03-03T2200,1443A,106.6556,26.4362,贵阳市,碧云窝,,49,44,26,34,15,45,45,66,60,12,9,14,10,/,/
2026-03-03T2200,1445A,106.6963,26.6063,贵阳市,红边门,,45,36,26,31,15,41,41,62,55,10,10,10,8,/,/
2026-03-03T2200,1446A,106.7162383,26.56964667,贵阳市,新华路,细颗粒物(PM2.5),82,68,31,51,16,38,38,54,49,18,12,11,9,0.1,0.2
2026-03-03T2200,1447A,106.6742,26.542,贵阳市,太慈桥,细颗粒物(PM2.5),100,70,21,60,17,50,50,63,60,16,12,7,4,/,/
2026-03-03T2200,4230A,106.688212,26.56952,贵阳市,花果园大街66号,细颗粒物(PM2.5),62,44,20,41,17,44,44,57,52,11,9,6,3,/,/
2026-03-03T2200,4231A,106.687268,26.516892,贵阳市,漓江路57号,细颗粒物(PM2.5),101,73,27,61,19,39,39,61,54,16,12,14,8,0.8,0.6
2026-03-03T2200,1864A,110.3091,25.2705,桂林市,龙隐路小学,,30,NA,14,21,15,54,54,62,56,8,6,3,3,0.7,0.7
2026-03-03T2200,1865A,110.2849361,25.22909545,桂林市,八中,,20,20,16,14,11,46,46,53,48,12,11,3,3,0.6,0.6
2026-03-03T2200,3531A,110.296,25.1254,桂林市,旅游学院,,30,30,21,20,12,55,55,66,60,9,9,5,4,0.6,0.6
2026-03-03T2200,4222A,110.1835,25.2444,桂林市,环湖路276号,,25,22,16,17,11,44,44,55,50,8,6,2,2,0.7,0.7
2026-03-03T2200,4301A,110.2803,25.2773,桂林市,信义路13号,,28,NA,14,19,13,50,50,57,50,8,7,3,3,0.8,0.8
2026-03-03T2200,2674A,100.2262,34.4854,果洛藏族自治州,玛沁县大武镇,细颗粒物(PM2.5),78,56,74,49,25,72,72,97,91,5,3,18,17,0.2,0.4
2026-03-03T2200,1130A,126.5557,45.8109,哈尔滨市,松北商大,细颗粒物(PM2.5),119,NA,47,80,34,42,42,61,41,20,15,8,8,0.6,0.5
2026-03-03T2200,1132A,126.6162,45.719,哈尔滨市,南岗学府路,细颗粒物(PM2.5),100,85,49,60,28,50,50,62,48,15,18,6,8,0.3,0.3
2026-03-03T2200,1133A,126.6894,45.7733,哈尔滨市,太平宏伟公园,细颗粒物(PM2.5),114,80,52,75,29,45,45,52,46,19,20,10,8,0.6,0.6
2026-03-03T2200,1134A,126.6361,45.7672,哈尔滨市,道外承德广场,颗粒物(PM10),185,319,95,73,29,48,48,49,44,18,23,7,10,0.6,0.7
2026-03-03T2200,1136A,126.644,45.7261,哈尔滨市,动力和平路,细颗粒物(PM2.5),115,NA,49,76,36,47,47,58,46,22,18,12,8,1.3,0.9
2026-03-03T2200,1137A,126.5933,45.7479,哈尔滨市,道里建国路,细颗粒物(PM2.5),110,NA,41,70,29,47,47,54,46,22,26,9,10,0.4,0.4
2026-03-03T2200,1138A,126.6127,45.6119,哈尔滨市,平房东轻厂,细颗粒物(PM2.5),105,NA,49,65,33,33,33,48,35,50,49,5,5,0.4,0.4
2026-03-03T2200,1139A,126.5875,45.9827,哈尔滨市,呼兰师专,细颗粒物(PM2.5),108,77,63,68,24,42,42,59,47,14,13,9,8,0.6,0.5
2026-03-03T2200,1140A,126.6299,45.6799,哈尔滨市,省农科院,细颗粒物(PM2.5),127,100,60,89,35,46,46,48,35,17,23,NA,3,0.6,0.5
2026-03-03T2200,4282A,126.6769,45.7379,哈尔滨市,华山路1号,细颗粒物(PM2.5),107,NA,48,67,28,53,53,63,49,20,17,11,11,0.6,0.5
2026-03-03T2200,4283A,126.9717,45.5356,哈尔滨市,解放大街52号,细颗粒物(PM2.5),66,57,40,43,23,50,50,79,58,14,16,10,14,0.5,0.4
2026-03-03T2200,2688A,93.5124,42.8176,哈密市,地区监测站,细颗粒物(PM2.5),58,58,41,39,19,59,59,73,70,11,14,8,6,0.4,0.5
2026-03-03T2200,2689A,93.5014,42.8312,哈密市,哈密师范学校,细颗粒物(PM2.5),117,117,49,78,26,53,53,74,69,18,20,24,15,0.4,0.8
2026-03-03T2200,2671A,100.9016,36.9464,海北藏族自治州,海晏县西海镇,,30,30,34,19,13,93,93,98,97,1,2,7,7,0.3,0.3
2026-03-03T2200,3867A,102.074,36.5056,海东市,平安区公安局北苑,细颗粒物(PM2.5),96,101,93,58,42,67,67,103,96,10,9,10,15,1.1,0.9
2026-03-03T2200,4163A,102.0984,36.5119,海东市,滨河路,细颗粒物(PM2.5),70,72,104,45,59,55,55,101,88,20,22,7,15,0.6,0.7
2026-03-03T2200,1410A,110.3189,20.0596,海口市,海南大学,,15,8,20,3,12,46,46,67,66,8,11,5,5,0.8,0.5
2026-03-03T2200,1411A,110.2827,20.0051,海口市,秀英海南医院,,18,18,24,3,17,46,46,59,59,8,20,7,7,0.6,0.4
2026-03-03T2200,1412A,110.3391,19.9979,海口市,海南师范大学,,19,19,24,3,15,48,48,60,59,8,10,5,5,0.6,0.5
2026-03-03T2200,1413A,110.3303,20.0359,海口市,龙华路环保局宿舍,,16,16,22,3,14,46,46,63,62,9,13,/,/,0.7,0.4
2026-03-03T2200,3539A,110.5111,19.9737,海口市,桂林洋子站,,18,18,24,9,13,50,50,57,57,11,9,/,/,/,/
2026-03-03T2200,4134A,110.1952,20.0451,海口市,长滨二路9号,,13,6,17,3,11,39,39,61,60,8,15,/,/,/,/
2026-03-03T2200,2673A,100.6158,36.2985,海南藏族自治州,共和县恰卜恰镇,细颗粒物(PM2.5),76,75,48,48,24,29,29,103,92,44,11,17,12,0.4,0.3
2026-03-03T2200,2676A,97.373,37.376,海西蒙古族藏族自治州,德令哈市,细颗粒物(PM2.5),90,91,37,55,14,73,73,106,101,12,3,22,19,0.4,0.4
2026-03-03T2200,1049A,114.492,36.5712,邯郸市,矿院,细颗粒物(PM2.5),123,105,94,85,87,71,71,74,66,19,22,3,3,1.4,1
2026-03-03T2200,1050A,114.4839,36.6136,邯郸市,丛台公园,细颗粒物(PM2.5),142,NA,112,106,110,75,75,85,67,15,17,6,6,1.4,1
2026-03-03T2200,3458A,114.7893,36.5592,邯郸市,香泉濮院小区,细颗粒物(PM2.5),114,108,86,75,71,76,76,79,71,11,12,3,3,1.2,0.9
2026-03-03T2200,3580A,114.1998,36.4439,邯郸市,峰峰矿区临水派出所,细颗粒物(PM2.5),123,102,101,85,94,66,66,71,55,7,15,6,7,1.0,1.1
2026-03-03T2200,4068A,114.5209,36.7697,邯郸市,建安街268号,细颗粒物(PM2.5),142,NA,99,106,107,64,64,70,66,18,20,1,2,1.2,0.9
2026-03-03T2200,4069A,114.5488,36.6177,邯郸市,丛台东路558号,细颗粒物(PM2.5),147,NA,89,111,103,75,75,79,73,13,18,3,3,1.4,1
2026-03-03T2200,2635A,107.0155,33.0707,汉中市,市监测站,细颗粒物(PM2.5),58,50,19,39,13,36,36,67,62,26,14,8,5,0.8,0.7
2026-03-03T2200,2636A,107.0083,33.114,汉中市,鑫源开发区,,49,43,20,34,14,32,32,69,61,24,14,5,5,0.7,0.6
2026-03-03T2200,2637A,107.0072,33.0323,汉中市,南郑大河坎水厂,细颗粒物(PM2.5),80,65,24,50,15,13,13,67,54,36,17,6,5,1.1,0.8
2026-03-03T2200,1223A,120.2073,30.2111,杭州市,滨江,细颗粒物(PM2.5),78,63,41,49,33,48,48,64,53,27,20,6,6,0.2,0.1
2026-03-03T2200,1224A,120.0625,30.2737,杭州市,西溪,细颗粒物(PM2.5),84,59,36,52,33,48,48,66,57,20,12,8,8,0.7,0.6
2026-03-03T2200,1226A,120.3417,30.315,杭州市,下沙,细颗粒物(PM2.5),94,61,38,57,36,31,31,65,45,40,21,8,7,0.8,0.6
2026-03-03T2200,1227A,120.1252,30.2465,杭州市,卧龙桥,细颗粒物(PM2.5),76,57,40,48,31,52,52,66,57,18,13,8,6,0.6,0.5
2026-03-03T2200,1228A,120.1902,30.2691,杭州市,浙江农大,颗粒物(PM10),70,78,57,44,31,50,50,68,57,21,16,6,5,0.7,0.7
2026-03-03T2200,1230A,120.1195,30.3121,杭州市,和睦小学,细颗粒物(PM2.5),84,63,45,52,35,46,46,66,55,24,15,4,4,0.7,0.6
2026-03-03T2200,1231A,120.3076,30.4146,杭州市,临平镇,细颗粒物(PM2.5),90,67,46,55,38,43,43,73,52,21,13,6,6,0.9,0.7
2026-03-03T2200,1232A,120.2753,30.1839,杭州市,城厢镇,细颗粒物(PM2.5),84,58,33,52,29,48,48,67,52,22,15,8,7,0.9,0.8
2026-03-03T2200,1233A,120.0883,30.1808,杭州市,云栖,细颗粒物(PM2.5),68,54,34,44,31,53,53,64,54,22,18,5,4,0.8,0.7
2026-03-03T2200,3557A,119.9463,30.0496,杭州市,镇二中,细颗粒物(PM2.5),72,NA,26,46,29,56,56,68,61,19,15,4,4,0.8,0.7
2026-03-03T2200,3558A,119.7184,30.2367,杭州市,市府大楼,细颗粒物(PM2.5),70,52,27,45,27,49,49,68,59,17,10,6,6,0.8,0.7
2026-03-03T2200,3656A,120.1554,30.2863,杭州市,消防大队,细颗粒物(PM2.5),86,58,36,53,36,45,45,61,51,23,16,6,7,1.0,0.9
2026-03-03T2200,1270A,117.1957,31.7845,合肥市,明珠广场,细颗粒物(PM2.5),68,58,58,44,49,64,64,77,75,12,14,5,5,0.9,0.9
2026-03-03T2200,1271A,117.307,31.8765,合肥市,三里街,细颗粒物(PM2.5),70,61,58,45,51,54,54,72,69,23,18,5,5,0.7,0.8
2026-03-03T2200,1272A,117.2587,31.8703,合肥市,琥珀山庄,细颗粒物(PM2.5),108,NA,64,68,60,62,62,77,75,21,19,7,6,0.8,0.9
2026-03-03T2200,1275A,117.2593,31.9376,合肥市,庐阳区,细颗粒物(PM2.5),68,68,65,44,53,62,62,76,72,17,16,2,2,0.8,0.9
2026-03-03T2200,1276A,117.345251,31.861615,合肥市,瑶海区,细颗粒物(PM2.5),64,61,59,42,48,56,56,80,74,27,21,5,4,0.7,0.8
2026-03-03T2200,1277A,117.3033,31.7967,合肥市,包河区,细颗粒物(PM2.5),66,58,57,43,46,62,62,66,64,22,33,8,8,0.8,0.9
2026-03-03T2200,1278A,117.278,31.7392,合肥市,滨湖新区,细颗粒物(PM2.5),64,56,54,42,43,63,63,77,76,10,15,2,3,0.7,0.8
2026-03-03T2200,1279A,117.1324,31.8395,合肥市,高新区,细颗粒物(PM2.5),64,61,60,42,48,68,68,77,75,13,14,4,4,0.7,0.8
2026-03-03T2200,3464A,117.3802,31.9148,合肥市,高教基地,,49,48,56,34,49,66,66,82,78,14,15,6,7,0.6,0.7
2026-03-03T2200,4098A,117.2518,31.8404,合肥市,中国科学技术大学,细颗粒物(PM2.5),66,56,56,43,49,63,63,80,79,14,12,8,7,0.8,0.9
2026-03-03T2200,3614A,79.9241,37.0878,和田地区,地区环保局,颗粒物(PM10),358,466,406,158,82,48,48,87,81,29,8,38,4,0.9,0.5
2026-03-03T2200,3615A,79.9132,37.1137,和田地区,市环保局,颗粒物(PM10),268,397,426,132,82,27,27,107,95,59,18,12,3,0.6,0.3
2026-03-03T2200,2517A,108.0496,24.6957,河池市,市环保站,,19,NA,7,13,5,44,44,50,46,3,3,4,3,0.7,0.7
2026-03-03T2200,4302A,108.0901,24.6945,河池市,上任中路54号,,17,11,7,6,5,52,52,50,50,8,8,5,5,0.5,0.5
2026-03-03T2200,1697A,114.6962,23.7538,河源市,东埔,,15,10,6,10,8,27,27,39,32,12,8,5,5,0.8,0.9
2026-03-03T2200,1698A,114.6895,23.7232,河源市,老城,,13,NA,10,9,7,28,28,42,35,13,8,6,6,0.8,0.8
2026-03-03T2200,3374A,115.5562,35.089,菏泽市,定陶老年大学,细颗粒物(PM2.5),140,124,96,104,88,62,62,74,67,17,14,4,4,0.8,0.5
2026-03-03T2200,4114A,115.4239,35.2593,菏泽市,黄河路600号,细颗粒物(PM2.5),169,157,109,128,93,52,52,68,65,21,16,3,3,1.0,0.7
2026-03-03T2200,4115A,115.5025,35.2727,菏泽市,菏泽市人社局,细颗粒物(PM2.5),155,144,107,118,100,54,54,66,63,19,18,3,3,0.9,0.8
2026-03-03T2200,4184A,115.479691,35.244011,菏泽市,永昌路1号,细颗粒物(PM2.5),158,141,111,120,99,59,59,74,69,21,20,2,1,0.8,0.7
2026-03-03T2200,4193A,115.471542,35.280012,菏泽市,长城路999号,细颗粒物(PM2.5),152,151,101,116,89,60,60,74,72,22,20,5,2,0.9,0.7
2026-03-03T2200,2514A,111.5264,24.4178,贺州市,环保小区,,22,22,13,15,8,38,38,51,43,8,8,3,3,1.3,1.2
2026-03-03T2200,2515A,111.561,24.4074,贺州市,政协大楼,,23,20,15,16,10,33,33,48,41,12,14,4,5,0.7,0.6
2026-03-03T2200,3534A,111.4744,24.455,贺州市,西湾,,22,22,14,13,8,36,36,47,39,9,9,4,4,1.0,0.9
2026-03-03T2200,2385A,114.17,35.9019,鹤壁市,市监测站,细颗粒物(PM2.5),147,148,130,111,112,47,47,70,55,21,19,3,4,1.8,1.2
2026-03-03T2200,2386A,114.2953,35.7512,鹤壁市,市交警支队,细颗粒物(PM2.5),155,161,123,118,107,51,51,72,54,20,25,8,6,1.3,1
2026-03-03T2200,2387A,114.2877,35.7302,鹤壁市,迎宾馆,细颗粒物(PM2.5),170,161,120,129,110,52,52,72,55,18,18,4,4,1.6,1.2
2026-03-03T2200,3474A,114.2616,35.6824,鹤壁市,大新区,细颗粒物(PM2.5),163,136,100,124,115,53,53,66,59,24,26,4,4,1.7,1.1
2026-03-03T2200,3596A,114.1573,35.9607,鹤壁市,南山宾馆,细颗粒物(PM2.5),140,144,125,104,113,47,47,63,58,31,26,1,1,1.7,1.1
2026-03-03T2200,2244A,130.2537,47.3416,鹤岗市,哈啤分公司,细颗粒物(PM2.5),56,NA,29,38,18,76,76,78,78,6,7,9,11,0.4,0.4
2026-03-03T2200,2245A,130.2683,47.3087,鹤岗市,斯达机电,细颗粒物(PM2.5),82,52,40,51,20,77,77,79,79,11,9,16,8,0.5,0.5
2026-03-03T2200,2246A,130.3114,47.3388,鹤岗市,东山纸板厂,颗粒物(PM10),58,60,43,37,16,70,70,78,76,11,10,10,9,0.7,0.6
2026-03-03T2200,2263A,127.4832,50.2524,黑河市,交通局,细颗粒物(PM2.5),72,75,41,46,22,71,71,79,75,15,14,12,11,0.4,0.4
2026-03-03T2200,2264A,127.5146,50.2339,黑河市,环保局,细颗粒物(PM2.5),120,106,39,81,31,79,79,77,77,9,14,19,13,0.4,0.4
2026-03-03T2200,1074A,115.6839,37.754,衡水市,电机北厂,细颗粒物(PM2.5),111,76,95,72,90,84,84,80,80,17,19,4,3,0.6,0.8
2026-03-03T2200,1075A,115.6303,37.7318,衡水市,市监测站,细颗粒物(PM2.5),126,90,92,88,86,59,59,71,59,22,23,5,5,0.8,0.7
2026-03-03T2200,3188A,115.6684,37.7216,衡水市,市城管局,细颗粒物(PM2.5),109,71,90,69,79,77,77,74,74,23,24,5,6,0.7,0.8
2026-03-03T2200,3459A,115.599,37.5491,衡水市,地表水厂,NA,NA,76,76,NA,79,74,74,76,75,14,18,4,4,0.7,0.7
2026-03-03T2200,2457A,112.6209,26.9268,衡阳市,衡阳化工总厂,细颗粒物(PM2.5),119,115,36,80,29,30,30,39,33,15,10,14,10,1.0,1.1
2026-03-03T2200,2458A,112.621,26.8957,衡阳市,珠晖区环保局,细颗粒物(PM2.5),96,84,31,58,23,24,24,34,30,28,17,7,5,1.2,1.2
2026-03-03T2200,2459A,112.628,26.8654,衡阳市,市委党校,细颗粒物(PM2.5),102,118,31,62,26,32,32,38,35,17,11,12,8,1.1,1
2026-03-03T2200,2460A,112.6007,26.8977,衡阳市,市监测站,细颗粒物(PM2.5),144,137,41,108,26,35,35,40,37,17,12,11,6,1.2,1.2
2026-03-03T2200,2461A,112.5658,26.9013,衡阳市,真空机电公司,细颗粒物(PM2.5),132,168,40,95,32,32,32,41,38,23,16,12,7,1.1,1.1
2026-03-03T2200,3399A,112.6703,26.8817,衡阳市,师范学院,细颗粒物(PM2.5),139,136,34,102,29,36,36,42,42,13,8,10,4,1.1,1.1
2026-03-03T2200,3038A,103.3757,23.3679,红河哈尼族彝族自治州,州图书馆,颗粒物(PM10),63,67,53,41,41,97,97,120,115,6,7,5,5,0.5,0.4
2026-03-03T2200,4154A,103.401,23.3561,红河哈尼族彝族自治州,蒙自市朝阳路,细颗粒物(PM2.5),62,61,42,41,38,106,106,129,123,8,8,8,7,0.3,0.3
2026-03-03T2200,1090A,111.6506,40.7517,呼和浩特市,呼市一监,细颗粒物(PM2.5),370,NA,92,320,41,25,25,92,77,63,16,51,11,0.8,0.4
2026-03-03T2200,1094A,111.7516,40.8369,呼和浩特市,如意水处理厂,细颗粒物(PM2.5),149,189,71,113,19,27,27,90,71,54,12,34,12,0.5,0.3
2026-03-03T2200,1095A,111.727798,40.806187,呼和浩特市,二十九中,细颗粒物(PM2.5),377,374,97,327,35,11,11,83,71,66,11,61,14,0.7,0.5
2026-03-03T2200,1097A,111.717,40.7617,呼和浩特市,化肥厂生活区,细颗粒物(PM2.5),277,341,89,227,30,26,26,84,66,54,14,52,12,0.6,0.3
2026-03-03T2200,3699A,111.6519,40.8389,呼和浩特市,海东办,细颗粒物(PM2.5),235,366,118,185,24,28,28,87,70,52,11,45,9,0.5,0.2
2026-03-03T2200,4275A,111.591512,40.827312,呼和浩特市,成吉思汗西街8号,颗粒物(PM10),140,222,112,94,20,38,38,79,62,36,13,17,7,0.4,0.4
2026-03-03T2200,4276A,111.6597,40.8077,呼和浩特市,公园东路75号,细颗粒物(PM2.5),200,293,110,150,23,50,50,82,73,36,13,40,12,0.7,0.5
2026-03-03T2200,4277A,111.5427,40.7846,呼和浩特市,金海路35号,颗粒物(PM10),122,177,98,46,18,56,56,82,72,23,15,13,8,0.3,0.3
2026-03-03T2200,3061A,119.7511,49.1576,呼伦贝尔市,国华电力东,颗粒物(PM10),55,56,37,36,24,84,84,90,86,12,10,7,6,0.1,0.3
2026-03-03T2200,4279A,119.7569,49.2222,呼伦贝尔市,伊敏大街东7号,颗粒物(PM10),51,51,37,35,22,77,77,81,80,12,9,8,7,0.5,0.5
2026-03-03T2200,1250A,120.075,30.867,湖州市,城西水厂,细颗粒物(PM2.5),86,60,47,53,41,58,58,74,62,19,16,5,5,0.8,0.7
2026-03-03T2200,2873A,120.083,30.8929,湖州市,仁皇山新区,细颗粒物(PM2.5),74,57,44,47,35,53,53,73,58,20,16,4,4,0.8,0.6
2026-03-03T2200,2907A,120.1846,30.8592,湖州市,吴兴区站,细颗粒物(PM2.5),82,58,42,51,38,39,39,61,44,19,16,4,4,1.0,0.8
2026-03-03T2200,3562A,120.4146,30.8538,湖州市,南浔区站,细颗粒物(PM2.5),60,48,39,40,36,55,55,76,55,18,15,7,7,0.7,0.7
2026-03-03T2200,1607A,120.904878,40.721091,葫芦岛市,龙港区,细颗粒物(PM2.5),159,122,111,121,89,29,29,58,49,50,32,12,13,0.9,0.9
2026-03-03T2200,1608A,120.8382,40.7521,葫芦岛市,化工街,细颗粒物(PM2.5),210,197,132,160,102,11,11,58,41,79,49,24,22,0.9,0.9
2026-03-03T2200,1609A,120.8339,40.7078,葫芦岛市,新区,细颗粒物(PM2.5),225,188,103,175,104,23,23,56,47,58,38,15,13,1.0,1
2026-03-03T2200,1610A,120.8697,40.7679,葫芦岛市,东城区,细颗粒物(PM2.5),206,162,113,156,107,5,5,60,43,90,46,16,27,1.1,1
2026-03-03T2200,2483A,109.9297,27.5383,怀化市,河西地税局,,38,38,23,25,19,3,3,56,36,23,11,2,3,/,/
2026-03-03T2200,2484A,109.9783,27.5342,怀化市,市四医院,,49,NA,20,34,20,9,9,57,42,28,11,6,6,0.7,0.5
2026-03-03T2200,2485A,109.9971,27.5579,怀化市,监测楼,,40,40,22,20,20,22,22,64,54,26,10,2,2,0.5,0.3
2026-03-03T2200,1210A,119.0566,33.5991,淮安市,钵池山,细颗粒物(PM2.5),100,73,62,60,56,59,59,62,62,14,15,9,9,0.8,0.8
2026-03-03T2200,1211A,119.0083,33.578,淮安市,北京南路,细颗粒物(PM2.5),103,70,63,63,59,53,53,56,56,12,14,6,6,0.6,0.8
2026-03-03T2200,1212A,118.9938,33.6083,淮安市,市监测站,细颗粒物(PM2.5),106,70,57,66,62,59,59,61,60,11,14,9,9,0.7,0.8
2026-03-03T2200,1213A,119.135,33.5038,淮安市,楚州区监测站,细颗粒物(PM2.5),102,76,62,62,58,58,58,60,60,12,12,5,5,0.5,0.5
2026-03-03T2200,3426A,118.8757,33.2897,淮安市,新华书店,细颗粒物(PM2.5),98,72,71,59,59,58,58,59,56,9,13,5,6,0.7,0.8
2026-03-03T2200,4092A,119.119691,33.550006,淮安市,枚皋中路89号,细颗粒物(PM2.5),103,74,65,63,57,61,61,63,63,14,15,8,9,0.6,0.8
2026-03-03T2200,4206A,119.028838,33.631911,淮安市,承德北路606号,细颗粒物(PM2.5),96,83,72,58,58,62,62,63,62,10,14,6,7,0.6,0.7
2026-03-03T2200,2282A,116.8005,33.9749,淮北市,监测站,细颗粒物(PM2.5),153,149,127,117,108,39,39,56,54,25,20,6,5,0.9,0.9
2026-03-03T2200,2283A,116.8094,33.9008,淮北市,烈山区政府,细颗粒物(PM2.5),139,131,115,102,104,47,47,59,58,23,21,4,3,0.7,0.7
2026-03-03T2200,4017A,116.7926,33.9534,淮北市,市博物馆,细颗粒物(PM2.5),165,161,126,125,111,39,39,54,52,24,20,3,1,0.9,0.9
2026-03-03T2200,4100A,116.8322,33.9884,淮北市,杜集区第一实验学校,细颗粒物(PM2.5),162,159,130,123,115,36,36,55,53,23,20,6,6,0.8,0.8
2026-03-03T2200,2277A,116.8304,32.7726,淮南市,潘集区政府,细颗粒物(PM2.5),105,NA,52,65,70,41,41,62,60,21,15,5,5,0.6,0.7
2026-03-03T2200,2279A,116.8569,32.5949,淮南市,谢家集区政府,细颗粒物(PM2.5),74,67,73,47,66,58,58,67,67,21,18,7,6,0.6,0.7
2026-03-03T2200,2280A,116.8279,32.6333,淮南市,八公山区政府,细颗粒物(PM2.5),98,89,82,59,74,58,58,66,66,19,16,9,5,0.6,0.7
2026-03-03T2200,2894A,117.0561,32.6536,淮南市,经济技术开发区消防队,细颗粒物(PM2.5),76,65,83,48,67,51,51,65,64,22,16,4,4,0.4,0.5
2026-03-03T2200,3329A,117.011,32.5891,淮南市,山南新区,细颗粒物(PM2.5),70,57,70,45,67,69,69,73,73,17,17,6,6,0.5,0.6
2026-03-03T2200,4209A,117.003137,32.644456,淮南市,国庆中路369号,细颗粒物(PM2.5),74,63,75,47,63,53,53,61,60,17,13,8,8,0.5,0.6
2026-03-03T2200,2446A,114.9021,30.474,黄冈市,职工中心,细颗粒物(PM2.5),117,NA,40,78,37,42,42,73,66,24,10,8,6,1.1,0.7
2026-03-03T2200,2929A,114.8858,30.4519,黄冈市,红卫路,细颗粒物(PM2.5),136,NA,37,99,36,28,28,64,56,29,12,7,4,1.1,0.6
2026-03-03T2200,3398A,114.9134,30.4446,黄冈市,市林业局,细颗粒物(PM2.5),159,125,41,121,36,38,38,73,64,33,13,4,4,1.0,0.6
2026-03-03T2200,2672A,102.02,35.5101,黄南藏族自治州,同仁县隆务镇,,38,38,47,22,20,83,83,91,88,2,2,9,9,0.1,0.2
2026-03-03T2200,2295A,118.2905,29.6965,黄山市,延安路89号,细颗粒物(PM2.5),68,NA,18,44,16,63,63,78,72,8,6,4,4,0.6,0.6
2026-03-03T2200,2297A,118.1369,30.2755,黄山市,黄山区政府5号楼,,46,NA,31,32,24,51,51,76,64,8,7,2,2,0.7,0.7
2026-03-03T2200,4210A,118.335445,29.720283,黄山市,滨江东路7-2号,"颗粒物(PM10),细颗粒物(PM2.5)",56,58,34,38,14,61,61,80,72,7,6,/,/,/,/
2026-03-03T2200,2423A,115.0547,30.2332,黄石市,沈家营,细颗粒物(PM2.5),108,79,44,68,29,52,52,63,62,23,16,6,9,1.3,1.2
2026-03-03T2200,2426A,114.899,30.211,黄石市,铁山,细颗粒物(PM2.5),118,NA,43,79,43,13,13,45,37,24,14,10,9,0.7,1
2026-03-03T2200,2427A,115.0259,30.2108,黄石市,团城山,细颗粒物(PM2.5),115,83,45,76,38,25,25,42,34,20,14,6,6,1.0,1
2026-03-03T2200,3149A,115.0174,30.1591,黄石市,笔架山北路,细颗粒物(PM2.5),130,116,61,92,42,31,31,25,25,23,22,8,9,1.0,1
2026-03-03T2200,4185A,115.078022,30.21118,黄石市,磁湖东路29号,细颗粒物(PM2.5),104,69,41,64,36,52,52,52,51,13,10,4,7,0.7,0.7
2026-03-03T2200,1392A,114.4181,23.0528,惠州市,河南岸金山湖子站,,11,11,7,3,3,28,28,39,36,10,8,6,6,0.8,0.8
2026-03-03T2200,1393A,114.4055,23.0824,惠州市,下埔横江三路子站,,12,12,8,8,4,28,28,43,38,10,7,7,7,0.8,0.8
2026-03-03T2200,1395A,114.4645,22.7832,惠州市,惠阳区承修路船湖子站,,9,9,11,3,6,24,24,31,30,10,9,6,6,0.7,0.7
2026-03-03T2200,1396A,114.5316,22.7423,惠州市,大亚湾管委会子站,,13,13,8,7,4,20,20,28,27,10,7,2,2,0.8,0.7
2026-03-03T2200,3314A,114.4334,22.8134,惠州市,惠阳秋长,,12,NA,8,8,5,25,25,36,34,11,9,/,/,/,/
2026-03-03T2200,3452A,114.6521,22.7755,惠州市,大亚湾霞涌,,9,6,10,3,5,26,26,32,31,9,8,/,/,/,/
2026-03-03T2200,4300A,114.4089,23.1147,惠州市,文华一路1号,,12,12,8,8,5,28,28,40,35,10,8,/,/,/,/
2026-03-03T2200,2240A,130.9618,45.2926,鸡西市,环保局,细颗粒物(PM2.5),156,222,66,119,44,46,46,75,60,25,21,23,18,0.3,0.2
2026-03-03T2200,2243A,130.9294,45.2959,鸡西市,第一中学,颗粒物(PM10),226,368,78,151,40,43,43,70,57,27,22,30,18,0.4,0.4
2026-03-03T2200,3707A,131.0069,45.2988,鸡西市,欧美日汽修厂,细颗粒物(PM2.5),120,124,64,82,37,47,47,74,62,19,18,20,17,1.0,1
2026-03-03T2200,2367A,114.9753,27.0803,吉安市,红声器材厂,细颗粒物(PM2.5),70,47,32,45,20,44,44,45,45,16,13,12,11,0.3,0.3
2026-03-03T2200,2369A,114.9903,27.1313,吉安市,市环境监测站,细颗粒物(PM2.5),78,59,27,49,21,47,47,51,51,14,11,10,8,/,/
2026-03-03T2200,2370A,115.009527,27.096792,吉安市,青原区法院,细颗粒物(PM2.5),72,56,30,46,21,53,53,53,53,14,12,9,7,0.6,0.7
2026-03-03T2200,1772A,126.54,43.8622,吉林市,哈达湾,细颗粒物(PM2.5),162,132,75,123,56,52,52,76,60,20,15,7,7,1.0,0.9
2026-03-03T2200,1773A,126.5843,43.8358,吉林市,东局子,细颗粒物(PM2.5),180,NA,80,136,80,44,44,76,53,19,14,4,4,0.8,0.7
2026-03-03T2200,1774A,126.5051,43.8243,吉林市,电力学院,细颗粒物(PM2.5),139,NA,79,102,56,57,57,78,64,16,13,6,7,0.8,0.7
2026-03-03T2200,1775A,126.6133,43.8971,吉林市,江北,细颗粒物(PM2.5),139,117,76,102,63,50,50,74,61,16,16,6,7,0.8,0.7
2026-03-03T2200,1776A,126.5549,43.8304,吉林市,江南公园,细颗粒物(PM2.5),179,NA,79,135,56,47,47,75,55,20,14,12,8,0.8,0.7
2026-03-03T2200,2868A,126.4737,43.953,吉林市,九站,细颗粒物(PM2.5),120,84,79,81,54,49,49,64,54,15,18,7,12,0.7,0.9
2026-03-03T2200,1299A,116.9866,36.6118,济南市,科干所,细颗粒物(PM2.5),117,97,124,78,96,33,33,30,28,30,32,4,4,NA,0.8
2026-03-03T2200,1300A,116.9379,36.6652,济南市,农科所,细颗粒物(PM2.5),145,127,137,109,116,32,32,26,26,29,31,5,5,0.9,0.9
2026-03-03T2200,1301A,117.1265,36.6736,济南市,开发区,细颗粒物(PM2.5),160,151,133,122,116,34,34,37,37,33,31,3,2,0.9,0.9
2026-03-03T2200,1303A,117.0616,36.6865,济南市,省种子仓库,细颗粒物(PM2.5),150,153,150,115,118,37,37,37,37,31,32,3,3,0.8,0.8
2026-03-03T2200,1304A,116.9495185,36.644937,济南市,机床二厂,细颗粒物(PM2.5),144,120,126,108,111,36,36,33,31,30,30,3,3,0.9,0.8
2026-03-03T2200,1305A,117.0496,36.6629,济南市,市监测站,细颗粒物(PM2.5),136,129,144,99,117,35,35,32,32,32,34,3,3,0.8,0.8
2026-03-03T2200,1306A,116.7674,36.5458,济南市,长清党校,细颗粒物(PM2.5),144,139,141,108,106,28,28,42,29,34,29,2,3,0.9,0.9
2026-03-03T2200,1961A,117.5323,36.6865,济南市,东山小学,细颗粒物(PM2.5),141,149,119,105,87,37,37,38,38,34,30,2,2,0.9,0.8
2026-03-03T2200,3059A,117.7181,36.205,济南市,泰兴公司,细颗粒物(PM2.5),185,188,101,139,65,22,22,95,69,44,26,10,8,1.1,1.3
2026-03-03T2200,3064A,117.6861,36.2172,济南市,莱芜战役纪念馆,细颗粒物(PM2.5),153,163,88,117,63,17,17,99,70,42,27,6,5,0.9,1
2026-03-03T2200,3494A,117.1673,36.9782,济南市,济阳区政府,细颗粒物(PM2.5),126,105,109,88,94,62,62,63,63,11,16,4,4,0.5,0.5
2026-03-03T2200,3495A,117.1168,36.6299,济南市,锦屏中学,细颗粒物(PM2.5),138,125,102,101,90,33,33,36,36,23,22,6,6,1.1,1
2026-03-03T2200,4108A,117.7107,36.2385,济南市,山财大街5号,细颗粒物(PM2.5),120,92,70,81,59,32,32,83,64,42,34,8,9,0.9,1
2026-03-03T2200,4109A,116.9744,36.6889,济南市,无影山路12号,细颗粒物(PM2.5),150,141,146,115,117,28,28,27,27,32,31,3,4,0.9,0.9
2026-03-03T2200,1653A,116.6229,35.4288,济宁市,火炬城,细颗粒物(PM2.5),152,136,97,116,92,39,39,65,60,33,23,4,3,1.0,0.9
2026-03-03T2200,3500A,116.5808,35.3703,济宁市,北湖一中,细颗粒物(PM2.5),176,203,102,133,94,30,30,64,58,36,21,6,4,0.9,0.8
2026-03-03T2200,3501A,116.8251,35.5592,济宁市,服务中心,细颗粒物(PM2.5),222,286,133,172,109,26,26,55,49,42,32,10,4,0.6,0.6
2026-03-03T2200,3678A,116.5907,35.4054,济宁市,市第七中学,细颗粒物(PM2.5),166,150,99,126,95,48,48,71,69,30,23,10,6,1.0,0.9
2026-03-03T2200,4111A,116.6075,35.4566,济宁市,任和路,细颗粒物(PM2.5),169,177,115,128,89,30,30,66,60,39,26,7,4,0.9,0.8
2026-03-03T2200,4112A,116.5648,35.3921,济宁市,文体南路1号,细颗粒物(PM2.5),201,232,120,151,93,32,32,68,62,40,23,6,2,0.7,0.6
2026-03-03T2200,4122A,112.6071,35.1015,济源市,市委党校,细颗粒物(PM2.5),185,192,128,139,84,59,59,89,82,20,18,4,6,1.0,1
2026-03-03T2200,4123A,112.596,35.0702,济源市,沁园中路1号,细颗粒物(PM2.5),186,165,103,140,81,59,59,92,83,21,19,4,5,1.1,1.2
2026-03-03T2200,2255A,130.2749,46.8028,佳木斯市,佳纺,,47,47,46,23,21,54,54,63,59,10,18,6,6,0.4,0.5
2026-03-03T2200,2257A,130.3258,46.7975,佳木斯市,环保局,"颗粒物(PM10),细颗粒物(PM2.5)",62,66,34,41,19,55,55,59,57,16,18,8,8,0.3,0.3
2026-03-03T2200,4285A,130.363,46.806,佳木斯市,顺和街,细颗粒物(PM2.5),103,NA,30,63,23,61,61,65,63,13,12,15,10,0.3,0.3
2026-03-03T2200,4286A,130.3952,46.8268,佳木斯市,长安路196号,,26,26,37,17,16,64,64,66,65,5,9,4,6,0.3,0.3
2026-03-03T2200,1252A,120.7439,30.778,嘉兴市,清河小学,,34,34,38,20,26,63,63,70,60,16,15,6,5,0.7,0.8
2026-03-03T2200,1253A,120.7261,30.7477,嘉兴市,嘉兴学院,,36,30,32,25,28,68,68,76,62,14,16,4,5,0.6,0.7
2026-03-03T2200,2872A,120.7845,30.7524,嘉兴市,南湖区残联,,38,32,34,26,28,63,63,74,60,15,14,3,3,0.6,0.7
2026-03-03T2200,3407A,120.6915,30.7741,嘉兴市,秀洲住建,,34,34,41,23,29,65,65,76,60,16,15,7,7,0.6,0.7
2026-03-03T2200,1945A,98.291,39.7705,嘉峪关市,气象局,细颗粒物(PM2.5),158,241,152,120,56,62,62,75,75,19,24,22,16,0.7,0.7
2026-03-03T2200,2884A,98.2672,39.7978,嘉峪关市,酒钢宾馆,细颗粒物(PM2.5),132,200,166,95,57,68,68,71,71,16,27,18,31,0.7,1.3
2026-03-03T2200,3248A,98.2644,39.7723,嘉峪关市,雄关区,细颗粒物(PM2.5),137,187,125,100,49,61,61,72,72,20,29,10,7,0.7,0.8
2026-03-03T2200,1383A,113.1063,22.6058,江门市,北街,,18,14,13,12,10,15,15,21,16,32,27,/,/,/,/
2026-03-03T2200,1384A,113.073,22.5835,江门市,西区,,15,13,12,10,7,12,12,21,15,27,22,/,/,/,/
2026-03-03T2200,1385A,113.0218,22.531,江门市,圭峰西,,10,8,11,3,6,17,17,22,20,20,16,/,/,/,/
2026-03-03T2200,1386A,113.0826,22.5947,江门市,东湖,,16,12,10,11,8,14,14,22,16,25,20,4,4,0.7,0.7
2026-03-03T2200,3311A,113.1077,22.5647,江门市,江海富民,,20,20,15,9,7,16,16,23,17,29,26,/,/,0.7,0.7
2026-03-03T2200,3449A,113.0496,22.4669,江门市,新会银湖,,14,10,12,8,8,13,13,20,13,27,25,6,6,0.7,0.7
2026-03-03T2200,3335A,113.3137,35.2643,焦作市,马村街道办,细颗粒物(PM2.5),190,159,120,143,120,46,46,71,61,22,18,9,7,1.3,1
2026-03-03T2200,3336A,113.2464,35.2374,焦作市,焦作技师学院,细颗粒物(PM2.5),183,165,120,138,106,48,48,70,60,21,18,8,7,1.4,1.2
2026-03-03T2200,3477A,113.1656,35.2536,焦作市,中站许衡医院,细颗粒物(PM2.5),160,134,135,122,108,66,66,74,70,16,23,7,9,1.1,1.2
2026-03-03T2200,3981A,113.2456,35.18,焦作市,原李万街道办,细颗粒物(PM2.5),175,159,117,132,104,47,47,70,60,20,16,10,9,1.5,1
2026-03-03T2200,4264A,113.234,35.219,焦作市,新安路1731号,细颗粒物(PM2.5),150,173,123,114,105,56,56,74,66,23,21,8,8,1.2,0.9
2026-03-03T2200,4295A,113.2722,35.2121,焦作市,人民路3066号,细颗粒物(PM2.5),150,137,116,114,101,54,54,80,63,23,19,6,6,1.4,1.1
2026-03-03T2200,1708A,116.3701,23.5345,揭阳市,新兴,细颗粒物(PM2.5),52,45,23,36,13,53,53,53,53,17,13,6,6,0.6,0.7
2026-03-03T2200,1709A,116.3261,23.5442,揭阳市,西马,,49,46,22,34,12,51,51,48,48,14,10,5,4,0.6,0.6
2026-03-03T2200,1710A,116.361,23.5627,揭阳市,东兴,细颗粒物(PM2.5),64,54,21,42,13,50,50,50,50,14,10,4,3,/,/
2026-03-03T2200,1711A,116.4151,23.5295,揭阳市,渔湖,,50,50,40,34,16,56,56,57,57,12,10,7,6,/,/
2026-03-03T2200,3320A,116.4028,23.5699,揭阳市,曲溪,颗粒物(PM10),51,51,22,34,12,52,52,58,58,19,12,12,7,0.7,0.8
2026-03-03T2200,1944A,102.1691,38.5166,金昌市,天庆家园,颗粒物(PM10),500,774,267,254,69,14,14,92,71,58,18,148,37,1.1,0.6
2026-03-03T2200,4022A,102.1648,38.5369,金昌市,金川区人防中心,颗粒物(PM10),500,600,200,394,77,36,36,93,81,NA,10,138,30,0.8,0.6
2026-03-03T2200,4239A,102.193042,38.531887,金昌市,长春路96号,颗粒物(PM10),439,539,198,NA,50,26,26,94,83,64,18,183,51,1.2,0.6
2026-03-03T2200,1262A,119.6478,29.0773,金华市,十五中,细颗粒物(PM2.5),98,75,28,59,20,55,55,79,67,24,16,3,3,0.5,0.4
2026-03-03T2200,1263A,119.6859,29.1032,金华市,监测站,细颗粒物(PM2.5),86,64,27,53,21,43,43,72,56,19,14,2,2,0.7,0.5
2026-03-03T2200,3659A,119.656,29.1132,金华市,气象局,细颗粒物(PM2.5),96,73,31,58,22,43,43,69,56,30,18,2,2,0.7,0.5
2026-03-03T2200,1767A,121.1114,41.0879,锦州市,南山,细颗粒物(PM2.5),226,241,111,176,106,13,13,66,56,64,37,10,13,1.3,1
2026-03-03T2200,1768A,121.060361,40.842794,锦州市,开发区,细颗粒物(PM2.5),168,NA,117,127,98,35,35,67,57,45,42,6,14,1.1,1
2026-03-03T2200,1769A,121.1836,41.1118,锦州市,百股街道,细颗粒物(PM2.5),249,NA,121,199,118,6,6,60,50,61,35,14,14,1.6,1.2
2026-03-03T2200,1770A,121.1176,41.1224,锦州市,天安街道,细颗粒物(PM2.5),214,215,123,164,109,17,17,58,49,54,36,10,14,1.1,0.9
2026-03-03T2200,1771A,121.1303,41.1385,锦州市,北湖公园,细颗粒物(PM2.5),217,193,128,167,110,20,20,61,51,47,36,8,12,1.1,1
2026-03-03T2200,2160A,112.8496,35.5051,晋城市,自来水公司,细颗粒物(PM2.5),150,128,81,114,58,93,93,99,99,14,17,4,6,0.8,1.1
2026-03-03T2200,2162A,112.8509,35.4886,晋城市,市环保局,细颗粒物(PM2.5),131,109,76,94,64,99,99,104,103,17,20,4,5,1.0,1.1
2026-03-03T2200,3620A,112.8258,35.4804,晋城市,泽州一中,细颗粒物(PM2.5),166,NA,67,126,50,93,93,104,101,16,18,4,3,0.9,0.9
2026-03-03T2200,4078A,112.8246,35.5152,晋城市,前书院路,细颗粒物(PM2.5),126,153,78,88,48,91,91,97,96,15,19,5,6,0.9,0.9
2026-03-03T2200,4079A,112.8864,35.4773,晋城市,祥云街666号,细颗粒物(PM2.5),145,117,87,109,71,94,94,102,101,12,17,6,6,0.8,1
2026-03-03T2200,2174A,112.6992,37.6984,晋中市,榆次区政府,细颗粒物(PM2.5),179,195,130,135,102,75,75,82,80,29,37,20,15,0.8,0.8
2026-03-03T2200,2865A,112.7195,37.683,晋中市,榆次三中,细颗粒物(PM2.5),241,324,140,191,99,76,76,86,83,24,34,30,18,0.3,0.6
2026-03-03T2200,4080A,112.7375,37.7215,晋中市,广安街188号,细颗粒物(PM2.5),125,147,129,87,90,77,77,82,82,29,35,11,12,0.4,0.8
2026-03-03T2200,4200A,112.7478,37.6954,晋中市,迎宾街26号,颗粒物(PM10),276,403,136,225,101,66,66,86,83,35,30,37,17,0.7,0.9
2026-03-03T2200,2439A,112.2012,31.048,荆门市,竹园小学,细颗粒物(PM2.5),60,52,45,40,36,69,69,96,89,21,15,1,2,0.8,0.6
2026-03-03T2200,2440A,112.1968,30.9892,荆门市,掇刀,细颗粒物(PM2.5),72,52,40,46,36,86,86,106,100,14,10,5,4,0.7,0.7
2026-03-03T2200,3012A,112.1849,31.0361,荆门市,西山林语,,50,50,39,31,33,68,68,98,90,13,12,4,4,0.6,0.7
2026-03-03T2200,3547A,112.1631,31.0134,荆门市,龙泉中学南校,NA,NA,NA,NA,NA,NA,NA,NA,NA,NA,NA,NA,NA,NA,NA,NA
2026-03-03T2200,4124A,112.2213,31.0654,荆门市,新台西路6号,细颗粒物(PM2.5),76,58,47,48,43,59,59,100,89,18,10,5,9,0.5,0.6
2026-03-03T2200,1844A,112.2493,30.3198,荆州市,市图书馆,,50,37,26,35,27,60,60,97,89,23,15,7,7,0.6,0.7
2026-03-03T2200,1845A,112.2009,30.3543,荆州市,市委党校,,49,45,33,34,34,55,55,88,80,25,18,9,7,0.6,0.6
2026-03-03T2200,3194A,112.2749,30.3124,荆州市,管委会,,49,34,37,34,26,56,56,94,84,19,15,8,8,0.7,0.7
2026-03-03T2200,4268A,112.1722,30.3366,荆州市,学苑路85号,细颗粒物(PM2.5),84,NA,35,52,34,53,53,102,92,24,16,4,2,0.7,0.8
2026-03-03T2200,2343A,117.2114,29.2931,景德镇市,老干部活动中心,,40,NA,11,28,13,61,61,70,68,4,3,4,4,0.6,0.6
2026-03-03T2200,2344A,117.1893,29.2789,景德镇市,兽医站,,40,36,20,28,8,66,66,75,73,6,5,4,3,0.5,0.5
2026-03-03T2200,2346A,117.246,29.2958,景德镇市,陶研所,,45,31,12,31,10,63,63,70,69,9,8,3,3,0.5,0.5
2026-03-03T2200,4289A,117.154766,29.256967,景德镇市,青少年活动中心,NA,NA,31,11,NA,9,60,60,68,66,6,5,3,3,/,/
2026-03-03T2200,1803A,115.9873,29.6816,九江市,十里,细颗粒物(PM2.5),84,61,37,52,36,66,66,85,74,19,20,6,5,0.6,0.6
2026-03-03T2200,1804A,115.9583,29.7047,九江市,茅山头,细颗粒物(PM2.5),103,71,39,63,42,64,64,84,72,13,16,4,4,0.6,0.7
2026-03-03T2200,1805A,115.9877,29.7295,九江市,西园,细颗粒物(PM2.5),88,58,38,54,36,62,62,81,69,20,23,4,3,0.7,0.8
2026-03-03T2200,1808A,115.9112,29.6038,九江市,综合工业园,细颗粒物(PM2.5),78,58,33,49,32,63,63,81,72,19,24,5,5,0.7,0.7
2026-03-03T2200,3190A,116.0254,29.6995,九江市,外国语学校,细颗粒物(PM2.5),74,52,32,47,32,56,56,75,62,17,19,5,5,0.6,0.6
2026-03-03T2200,4253A,116.010205,29.659402,九江市,莲花大道8号,细颗粒物(PM2.5),70,68,39,45,31,60,60,79,68,17,18,4,4,0.4,0.5
2026-03-03T2200,4240A,98.495752,39.733935,酒泉市,玉门东路5号,颗粒物(PM10),98,117,117,50,43,65,65,76,74,9,12,8,8,0.4,0.5
2026-03-03T2200,4241A,98.5099,39.7506,酒泉市,北大街108号,颗粒物(PM10),83,95,112,51,49,66,66,78,75,9,10,13,14,0.5,0.6
2026-03-03T2200,2698A,76.0071,39.466,喀什地区,巡警大队,颗粒物(PM10),215,360,325,140,93,41,41,75,70,57,31,12,6,1.1,0.8
2026-03-03T2200,2699A,75.9756,39.4693,喀什地区,吾办,颗粒物(PM10),196,341,326,122,99,35,35,71,68,52,28,18,13,1.0,0.6
2026-03-03T2200,4027A,75.9485,39.4688,喀什地区,老干局,颗粒物(PM10),236,375,338,130,89,46,46,73,72,41,25,16,6,1.0,0.9
2026-03-03T2200,1824A,114.3389,34.778,开封市,肿瘤医院,细颗粒物(PM2.5),163,NA,79,124,85,42,42,94,78,24,22,7,7,1.2,1
2026-03-03T2200,1826A,114.2884,34.7966,开封市,世纪星幼儿园,细颗粒物(PM2.5),163,NA,75,124,89,43,43,91,76,25,22,7,8,1.2,1
2026-03-03T2200,3147A,114.3434,34.8101,开封市,龙亭公园,细颗粒物(PM2.5),162,130,81,123,85,44,44,94,76,28,22,8,8,1.1,1
2026-03-03T2200,3210A,114.3645,34.7955,开封市,汴京公园,细颗粒物(PM2.5),148,140,83,112,75,41,41,95,75,26,21,4,4,1.1,0.9
2026-03-03T2200,3473A,114.2485,34.8306,开封市,技师学院,NA,NA,NA,71,NA,84,NA,NA,106,NA,NA,20,NA,7,NA,1.1
2026-03-03T2200,3592A,114.4518,34.7503,开封市,祥符区生态环境局,细颗粒物(PM2.5),160,151,98,122,87,42,42,136,73,34,24,6,6,1.1,1
2026-03-03T2200,1951A,84.886,45.6029,克拉玛依市,长征新村,,50,35,19,35,16,87,87,91,91,11,9,10,8,0.5,0.6
2026-03-03T2200,1952A,84.8894,45.5827,克拉玛依市,南林小区,细颗粒物(PM2.5),88,NA,21,54,7,86,86,96,96,5,4,18,6,0.4,0.4
2026-03-03T2200,1954A,84.896,44.3328,克拉玛依市,独山子区,细颗粒物(PM2.5),120,155,68,81,44,93,93,113,113,35,16,5,3,1.0,0.7
2026-03-03T2200,1955A,85.6888,46.0909,克拉玛依市,乌尔禾区商贸楼,,50,40,31,35,18,72,72,87,85,14,12,11,11,0.7,0.6
2026-03-03T2200,3612A,85.1045,45.6895,克拉玛依市,白碱滩区新站,,42,37,19,29,7,86,86,100,100,20,15,10,10,0.3,0.3
2026-03-03T2200,2697A,76.1457,39.7143,克孜勒苏柯尔克孜自治州,市人民政府,颗粒物(PM10),235,374,308,107,83,42,42,96,90,45,14,7,5,0.5,0.3
2026-03-03T2200,3665A,76.1654,39.7157,克孜勒苏柯尔克孜自治州,克州文化中心,颗粒物(PM10),279,405,311,128,92,56,56,88,85,31,17,17,7,1.1,0.5
2026-03-03T2200,1450A,102.8203,24.889,昆明市,呈贡新区,细颗粒物(PM2.5),84,62,48,52,36,69,69,135,117,13,20,5,5,1.0,0.7
2026-03-03T2200,1452A,102.7253,25.0904,昆明市,龙泉镇,细颗粒物(PM2.5),110,125,56,70,39,52,52,124,104,16,20,7,4,0.7,0.5
2026-03-03T2200,1453A,102.7267,25.0378,昆明市,东风东路,细颗粒物(PM2.5),80,86,54,50,37,64,64,133,114,19,18,6,6,0.8,0.6
2026-03-03T2200,1454A,102.6744,25.0671,昆明市,金鼎山,细颗粒物(PM2.5),120,109,62,82,40,NA,NA,136,124,21,21,8,6,0.9,0.7
2026-03-03T2200,1455A,102.6643,25.0401,昆明市,碧鸡广场,细颗粒物(PM2.5),110,108,58,71,40,60,60,129,110,21,22,9,8,0.7,0.5
2026-03-03T2200,3179A,102.7491,25.012,昆明市,官渡区博物馆,颗粒物(PM10),70,78,57,44,38,52,52,131,110,26,27,5,5,0.9,0.7
2026-03-03T2200,3375A,102.8016,24.8336,昆明市,青年创业园,颗粒物(PM10),73,82,49,32,34,66,66,129,113,12,21,5,5,0.8,0.6
2026-03-03T2200,3550A,102.8,24.9787,昆明市,昆明学院,细颗粒物(PM2.5),84,89,62,52,36,63,63,128,108,17,22,5,5,0.9,0.7
2026-03-03T2200,3551A,102.5969,24.6738,昆明市,晋宁区生态环境分局,细颗粒物(PM2.5),102,84,53,62,40,100,100,139,131,20,14,8,3,0.7,0.6
2026-03-03T2200,3552A,102.6673,24.9861,昆明市,云天化总部,细颗粒物(PM2.5),129,110,58,91,40,61,61,129,112,25,21,13,12,0.7,0.5
2026-03-03T2200,1456A,91.132,29.6515,拉萨市,八廓街,,29,23,22,12,11,91,91,114,109,32,13,7,5,0.9,0.8
2026-03-03T2200,1457A,91.1221,29.6748,拉萨市,市环保局,,24,14,22,7,10,75,75,97,93,19,14,4,4,0.5,0.4
2026-03-03T2200,1458A,91.0874,29.6476,拉萨市,区监测站,,30,15,14,9,8,96,96,108,105,14,13,4,4,0.6,0.6
2026-03-03T2200,1459A,91.1774,29.6541,拉萨市,西藏大学,,29,15,15,6,7,92,92,109,105,14,10,5,4,0.8,0.6
2026-03-03T2200,1460A,90.9798,29.6586,拉萨市,区辐射站,,30,20,27,11,17,96,96,108,105,12,18,3,4,0.4,0.5
2026-03-03T2200,1461A,91.0831,29.6292,拉萨市,拉萨火车站,,33,NA,14,12,8,103,103,107,106,3,13,4,4,0.4,0.5
2026-03-03T2200,2520A,109.2203,23.7252,来宾市,来宾技工学校,,19,19,22,12,9,48,48,56,54,6,6,9,8,0.8,0.9
2026-03-03T2200,3535A,109.1781,23.7293,来宾市,兴宾区政府,,19,19,16,13,8,58,58,63,62,8,10,6,6,0.7,0.7
2026-03-03T2200,4002A,109.2312,23.7428,来宾市,中南小学,,25,NA,18,17,11,47,47,55,53,9,8,6,6,0.7,0.7
2026-03-03T2200,1479A,103.8309,36.0467,兰州市,铁路设计院,NA,NA,NA,NA,NA,NA,NA,NA,NA,NA,NA,NA,NA,NA,NA,NA
2026-03-03T2200,3241A,103.7439,36.0841,兰州市,百合公园,细颗粒物(PM2.5),115,148,194,76,70,10,10,93,69,81,27,9,11,0.9,0.7
2026-03-03T2200,3242A,103.9613,35.9985,兰州市,和平,颗粒物(PM10),113,153,224,59,70,55,55,100,92,33,15,16,17,0.9,0.8
2026-03-03T2200,4236A,103.629272,36.093822,兰州市,庄浪东路808号,颗粒物(PM10),500,600,248,NA,82,57,57,98,80,87,25,100,15,1.2,0.5
2026-03-03T2200,4237A,103.7251,36.104344,兰州市,安宁西路88号,颗粒物(PM10),105,133,234,62,73,35,35,105,86,57,18,14,13,0.7,0.4
2026-03-03T2200,4238A,103.846982,36.067567,兰州市,北滨河东路1号,颗粒物(PM10),110,146,204,66,71,6,6,89,68,87,36,14,13,0.9,0.6
2026-03-03T2200,1067A,116.6712,39.5109,廊坊市,药材公司,细颗粒物(PM2.5),143,116,126,107,113,57,57,81,75,21,21,3,3,0.8,0.9
2026-03-03T2200,1068A,116.7215,39.5592,廊坊市,开发区,细颗粒物(PM2.5),142,123,124,106,101,65,65,88,83,24,23,3,3,0.8,0.9
2026-03-03T2200,1070A,116.7246,39.5273,廊坊市,北华航天学院,细颗粒物(PM2.5),136,125,127,99,102,68,68,86,82,19,19,2,3,0.8,0.9
2026-03-03T2200,2919A,116.7022,39.5454,廊坊市,河北工业大学,细颗粒物(PM2.5),145,138,135,109,105,60,60,84,79,18,15,3,3,0.8,0.9
2026-03-03T2200,2536A,103.7629,29.5844,乐山市,牛耳桥,,16,14,21,7,15,49,49,66,65,24,21,5,5,0.6,0.7
2026-03-03T2200,2537A,103.7501,29.6002,乐山市,市第三水厂,,17,17,19,8,15,40,40,68,63,32,20,3,3,0.8,0.8
2026-03-03T2200,2538A,103.7571,29.5664,乐山市,市监测站,,16,14,20,9,16,49,49,65,64,18,15,6,6,0.8,0.9
2026-03-03T2200,3361A,103.7313,29.563,乐山市,理工大学,,17,17,18,10,14,38,38,66,64,18,13,8,8,0.9,0.9
2026-03-03T2200,2599A,100.2497,26.8802,丽江市,丽江古城,细颗粒物(PM2.5),56,47,34,38,22,97,97,119,112,16,13,12,11,0.6,0.5
2026-03-03T2200,2600A,100.2203,26.8906,丽江市,市中心,,39,27,22,27,18,103,103,122,115,16,14,8,8,0.5,0.5
2026-03-03T2200,1267A,119.9141,28.4513,丽水市,监测站大楼,,45,NA,15,31,11,56,56,82,74,11,6,4,4,0.4,0.3
2026-03-03T2200,1268A,119.93,28.4589,丽水市,莲都小学,,45,42,17,31,11,55,55,82,74,14,9,/,/,/,/
2026-03-03T2200,1269A,119.8794,28.4232,丽水市,余庄前,,42,40,16,29,10,49,49,82,73,16,8,4,4,0.5,0.4
2026-03-03T2200,1173A,119.1759,34.5885,连云港市,市环境监测站,细颗粒物(PM2.5),110,75,64,70,60,56,56,61,59,24,23,6,7,0.7,0.8
2026-03-03T2200,3000A,119.3577,34.6971,连云港市,德源药业,细颗粒物(PM2.5),108,85,69,68,55,52,52,66,58,22,19,5,6,0.9,1
2026-03-03T2200,3007A,119.178,34.8442,连云港市,新城一中,细颗粒物(PM2.5),118,84,67,79,63,58,58,65,57,27,25,7,8,1.1,1.2
2026-03-03T2200,3008A,119.3607,34.7519,连云港市,胡沟管理处,细颗粒物(PM2.5),96,70,61,58,54,68,68,66,63,13,15,3,10,0.8,1.1
2026-03-03T2200,3009A,119.1478,34.5913,连云港市,矿山设计院,细颗粒物(PM2.5),103,85,69,63,57,50,50,63,58,26,21,8,9,1.0,1
2026-03-03T2200,3434A,119.2414,34.6539,连云港市,工贸学校,细颗粒物(PM2.5),109,84,65,69,58,53,53,66,63,19,20,10,10,1.1,1.1
2026-03-03T2200,3664A,119.4171,34.734,连云港市,连云街道,细颗粒物(PM2.5),102,82,73,62,58,57,57,60,59,30,25,5,8,0.6,0.6
2026-03-03T2200,2573A,102.2629,27.8981,凉山彝族自治州,西昌市政府,,19,13,16,3,6,58,58,61,61,6,5,6,7,0.7,0.7
2026-03-03T2200,2574A,102.2686,27.885,凉山彝族自治州,凉山州政府,,18,10,13,3,8,55,55,58,58,6,7,7,8,0.6,0.6
2026-03-03T2200,4229A,102.2342,27.8859,凉山彝族自治州,凯乐南路30号,,20,13,15,3,5,61,61,63,63,7,11,9,12,0.6,0.6
2026-03-03T2200,2212A,123.1978,41.2036,辽阳市,宏伟区,细颗粒物(PM2.5),322,312,321,272,284,27,27,42,40,38,47,9,14,1.2,2.1
2026-03-03T2200,2213A,123.1684,41.2497,辽阳市,新华园,细颗粒物(PM2.5),293,246,275,243,249,30,30,40,40,44,52,9,14,1.1,1.8
2026-03-03T2200,2214A,123.2355,41.2663,辽阳市,滨河路,细颗粒物(PM2.5),371,402,292,321,260,3,3,23,19,63,55,7,10,1.6,1.9
2026-03-03T2200,4083A,123.153,41.2874,辽阳市,铁西路150号,细颗粒物(PM2.5),322,285,266,272,229,7,7,32,25,67,51,7,12,1.7,1.6
2026-03-03T2200,2227A,125.1359,42.8845,辽源市,环保局,细颗粒物(PM2.5),121,131,130,83,100,67,67,72,66,10,21,6,8,0.5,1.1
2026-03-03T2200,4085A,125.0998,42.9134,辽源市,安宁大街333号,细颗粒物(PM2.5),106,73,121,66,100,62,62,65,62,8,21,5,7,0.7,1
2026-03-03T2200,1625A,115.9789,36.4372,聊城市,区政府,细颗粒物(PM2.5),148,149,124,112,98,47,47,56,43,23,22,10,10,1.4,1
2026-03-03T2200,3200A,115.9772,36.4986,聊城市,监控中心,细颗粒物(PM2.5),146,139,138,110,103,53,53,52,44,21,22,8,8,1.2,1
2026-03-03T2200,3513A,116.0443,36.436,聊城市,九州社区,细颗粒物(PM2.5),138,136,124,101,94,54,54,57,44,5,7,3,2,1.6,1
2026-03-03T2200,4018A,116.0564,36.4609,聊城市,星美广场,细颗粒物(PM2.5),144,141,138,108,109,59,59,57,44,12,15,4,3,1.2,1
2026-03-03T2200,4113A,116.0091,36.4495,聊城市,利民路,细颗粒物(PM2.5),146,180,134,110,101,54,54,58,46,19,22,6,7,1.2,0.9
2026-03-03T2200,2632A,94.3683,29.6373,林芝市,林芝监测站,,34,28,10,18,6,106,106,115,114,2,3,4,4,0.4,0.4
2026-03-03T2200,2633A,94.3616,29.6634,林芝市,林芝人民医院,NA,NA,NA,16,NA,7,NA,NA,112,111,NA,5,NA,3,NA,0.3
2026-03-03T2200,2603A,100.0779,23.8981,临沧市,市环保局,细颗粒物(PM2.5),101,63,54,61,39,112,112,130,128,8,7,10,9,0.5,0.5
2026-03-03T2200,2604A,100.0894,23.882,临沧市,市气象局,细颗粒物(PM2.5),102,72,50,62,41,108,108,131,128,12,8,8,6,0.5,0.4
2026-03-03T2200,1733A,111.5552,36.0791,临汾市,临钢医院,细颗粒物(PM2.5),212,226,99,162,79,58,58,96,92,35,24,13,10,2.6,1.6
2026-03-03T2200,1734A,111.4984,36.0734,临汾市,技工学校,细颗粒物(PM2.5),256,230,100,206,92,41,41,94,89,36,28,14,10,2.5,1.7
2026-03-03T2200,1736A,111.5017,36.0857,临汾市,市委,细颗粒物(PM2.5),243,267,115,193,80,40,40,95,89,44,28,9,6,2.2,1.7
2026-03-03T2200,3018A,111.5048,36.1015,临汾市,唐尧大酒店,细颗粒物(PM2.5),178,176,103,134,73,53,53,94,91,45,33,12,9,2.1,1.7
2026-03-03T2200,4244A,111.4879,36.053,临汾市,启星学校,细颗粒物(PM2.5),212,207,110,162,92,22,22,92,84,66,36,10,9,2.6,1.9
2026-03-03T2200,4271A,103.2464,35.6123,临夏回族自治州,滨河东路1号,细颗粒物(PM2.5),217,271,149,167,61,16,16,104,73,55,22,24,11,1.4,0.7
2026-03-03T2200,4310A,103.207136,35.599807,临夏回族自治州,新华街21号,颗粒物(PM10),432,532,182,197,62,4,4,90,66,72,20,45,14,2.7,0.7
2026-03-03T2200,1618A,118.3429,35.0532,临沂市,沂河小区,细颗粒物(PM2.5),148,175,61,112,45,29,29,75,64,36,19,9,8,0.8,0.5
2026-03-03T2200,1619A,118.2962,35.0568,临沂市,鲁南制药厂,细颗粒物(PM2.5),149,175,64,113,51,36,36,69,62,39,24,10,11,0.9,0.6
2026-03-03T2200,1620A,118.2793,34.9976,临沂市,新光毛纺厂,颗粒物(PM10),124,180,62,NA,48,37,37,78,65,27,19,9,9,1.1,0.8
2026-03-03T2200,1621A,118.3955,35.0889,临沂市,河东保险公司,细颗粒物(PM2.5),176,185,64,133,48,29,29,81,65,37,22,8,8,0.9,0.6
2026-03-03T2200,3370A,118.3563,35.0215,临沂市,十里堡居委,细颗粒物(PM2.5),142,149,55,106,43,36,36,82,69,35,22,8,7,1.2,0.8
2026-03-03T2200,3496A,118.359,35.1067,临沂市,南坊新区,细颗粒物(PM2.5),159,188,56,121,45,32,32,82,69,31,18,10,8,1.2,0.9
2026-03-03T2200,3860A,118.3915,35.0297,临沂市,皇山花园小区,细颗粒物(PM2.5),156,166,55,119,45,28,28,84,68,46,24,12,11,1.1,0.8
2026-03-03T2200,1870A,109.4854,24.3898,柳州市,柳东小学,,20,20,14,11,7,41,41,48,46,4,5,4,4,0.7,0.7
2026-03-03T2200,1871A,109.4109,24.3304,柳州市,环保监测站,,20,18,13,14,7,45,45,51,50,12,11,5,4,0.7,0.7
2026-03-03T2200,1872A,109.3886,24.3408,柳州市,河西水厂,,19,19,19,13,7,37,37,53,47,20,17,14,10,1.6,1.2
2026-03-03T2200,1873A,109.4263,24.2951,柳州市,市四中,,18,18,10,10,5,44,44,52,50,9,7,7,6,0.9,0.9
2026-03-03T2200,1874A,109.396,24.3658,柳州市,市九中,,24,24,15,16,8,36,36,46,43,10,8,8,7,0.7,0.7
2026-03-03T2200,1875A,109.4912,24.3164,柳州市,古亭山,,23,20,32,16,8,45,45,52,50,4,5,6,6,0.5,0.5
2026-03-03T2200,3402A,109.5422,24.3994,柳州市,市二中,,22,NA,18,15,9,42,42,55,46,7,9,5,5,0.6,0.6
2026-03-03T2200,2307A,116.5078,31.7369,六安市,监测大楼,细颗粒物(PM2.5),129,100,72,91,70,34,34,49,46,24,17,3,3,0.7,0.6
2026-03-03T2200,2308A,116.4738,31.7642,六安市,皖西学院,细颗粒物(PM2.5),140,126,80,104,69,29,29,54,50,26,16,4,4,0.6,0.6
2026-03-03T2200,2309A,116.4997,31.7904,六安市,朝阳厂,细颗粒物(PM2.5),129,105,68,91,67,31,31,57,54,29,18,4,5,0.8,0.7
2026-03-03T2200,2310A,116.5566,31.7885,六安市,开发区,细颗粒物(PM2.5),88,55,64,54,60,59,59,66,66,18,13,4,4,0.5,0.6
2026-03-03T2200,2577A,104.8293,26.592,六盘水市,黄土坡,,26,NA,18,18,15,40,40,48,44,10,11,8,7,0.7,0.8
2026-03-03T2200,2579A,104.8481,26.5898,六盘水市,民中,,26,24,23,18,14,37,37,47,43,10,10,4,4,0.7,0.7
2026-03-03T2200,2580A,104.9541,26.5506,六盘水市,双水,,31,31,23,12,14,39,39,46,46,7,8,4,4,0.7,0.7
2026-03-03T2200,4151A,104.8899,26.5685,六盘水市,钟山大道中段564号,,36,36,26,20,15,33,33,43,41,8,8,8,7,0.9,0.8
2026-03-03T2200,2336A,117.022,25.1031,龙岩市,龙岩市监测站,颗粒物(PM10),54,55,16,36,11,24,24,36,31,11,6,7,7,0.9,0.7
2026-03-03T2200,2337A,117.0257,25.0662,龙岩市,闽西职业技术学院,细颗粒物(PM2.5),68,68,20,44,14,20,20,37,21,12,6,9,7,0.9,0.8
2026-03-03T2200,2338A,117.0195,25.0306,龙岩市,龙岩学院,细颗粒物(PM2.5),104,104,17,64,11,6,6,34,22,16,7,7,4,/,/
2026-03-03T2200,2885A,104.9344,33.3827,陇南市,滨江中学,细颗粒物(PM2.5),100,106,56,60,27,24,24,66,56,36,19,13,10,1.7,0.8
2026-03-03T2200,3247A,104.9551,33.3709,陇南市,市总工会,颗粒物(PM10),65,70,54,30,24,52,52,67,65,11,17,5,7,0.8,0.8
2026-03-03T2200,2488A,111.9984,27.7346,娄底市,市监测站,,49,43,23,34,22,40,40,70,58,17,10,4,4,0.6,0.6
2026-03-03T2200,2491A,111.9888,27.7035,娄底市,市政府,,38,NA,22,26,17,35,35,67,57,11,11,1,2,0.4,0.4
2026-03-03T2200,4127A,111.9812,27.7591,娄底市,涟钢职大,,50,49,23,35,14,34,34,74,63,23,9,1,1,0.4,0.3
2026-03-03T2200,4128A,112.0303,27.7457,娄底市,娄底体校,,50,50,27,32,19,32,32,59,48,6,4,2,2,0.4,0.3
2026-03-03T2200,1894A,105.4427,28.9063,泸州市,小市上码头,细颗粒物(PM2.5),60,44,33,40,29,19,19,30,29,26,22,8,7,0.6,0.5
2026-03-03T2200,1895A,105.4241,28.8573,泸州市,兰田宪桥,,45,40,31,31,22,13,13,28,26,21,17,4,6,0.9,0.8
2026-03-03T2200,1896A,105.4378,28.8833,泸州市,市环监站,细颗粒物(PM2.5),88,56,40,54,38,17,17,29,28,27,21,7,6,0.4,0.4
2026-03-03T2200,4272A,105.3689,28.7783,泸州市,纳溪中医医院,细颗粒物(PM2.5),62,NA,25,41,26,10,10,35,28,21,18,6,6,0.8,0.7
2026-03-03T2200,2183A,111.1447,37.5212,吕梁市,环保局,细颗粒物(PM2.5),246,309,67,196,46,5,5,78,59,64,32,19,9,0.4,0.5
2026-03-03T2200,2185A,111.1285,37.5338,吕梁市,自来水公司,细颗粒物(PM2.5),425,NA,78,387,59,7,7,74,60,58,28,23,10,0.8,0.7
2026-03-03T2200,2867A,111.1225,37.5093,吕梁市,马茂庄小学,细颗粒物(PM2.5),342,428,84,292,57,6,6,73,55,54,29,27,10,0.9,0.8
2026-03-03T2200,1812A,112.3934,34.6517,洛阳市,市委党校,细颗粒物(PM2.5),169,NA,76,128,76,54,54,95,87,28,24,6,7,1.1,1.1
2026-03-03T2200,1815A,112.494,34.6883,洛阳市,河南林校,细颗粒物(PM2.5),179,NA,77,135,81,55,55,98,88,25,25,8,9,1.0,1
2026-03-03T2200,1816A,112.3843,34.623,洛阳市,开发区管委会,细颗粒物(PM2.5),162,146,91,123,71,61,61,102,95,23,20,9,9,1.0,1
2026-03-03T2200,1817A,112.4263,34.6249,洛阳市,市委新办公区,细颗粒物(PM2.5),166,147,90,126,80,58,58,100,92,27,24,8,8,0.9,0.9
2026-03-03T2200,3340A,112.6005,34.6323,洛阳市,伊滨,细颗粒物(PM2.5),166,133,92,126,80,58,58,98,90,23,22,9,9,1.1,1.1
2026-03-03T2200,3341A,112.495,34.6338,洛阳市,中移产业园,细颗粒物(PM2.5),175,NA,82,132,80,51,51,99,89,26,24,8,8,1.1,1.1
2026-03-03T2200,3593A,112.5736,34.8993,洛阳市,吉利监测站,细颗粒物(PM2.5),193,NA,74,145,82,53,53,93,84,25,21,8,8,0.9,0.9
2026-03-03T2200,3635A,112.3678,34.6623,洛阳市,河科大西苑校区,细颗粒物(PM2.5),170,NA,74,129,73,58,58,101,93,25,25,8,8,1.0,1.1
2026-03-03T2200,3636A,112.4387,34.678,洛阳市,英才小学,细颗粒物(PM2.5),180,143,88,136,78,56,56,98,89,27,24,8,9,1.0,1
2026-03-03T2200,4214A,112.460027,34.694929,洛阳市,春都路1号院,细颗粒物(PM2.5),169,132,85,128,72,51,51,87,80,24,25,7,8,1.0,1.1
2026-03-03T2200,2399A,114.051,33.5721,漯河市,三五一五工厂,细颗粒物(PM2.5),110,81,54,70,44,61,61,92,86,22,16,5,5,0.7,0.8
2026-03-03T2200,2400A,114.0055,33.5698,漯河市,漯河大学,细颗粒物(PM2.5),105,67,49,65,51,67,67,96,88,24,19,6,5,0.7,0.7
2026-03-03T2200,2401A,114.0134,33.5826,漯河市,市水利局,细颗粒物(PM2.5),94,73,49,57,42,65,65,96,87,26,17,5,5,0.6,0.6
2026-03-03T2200,2402A,114.0261,33.5697,漯河市,市广电局,细颗粒物(PM2.5),94,71,46,57,42,61,61,88,81,20,14,6,6,0.7,0.7
2026-03-03T2200,3478A,113.9691,33.568,漯河市,市图书馆,细颗粒物(PM2.5),102,89,56,62,43,62,62,90,82,21,15,6,6,0.7,0.7
2026-03-03T2200,4250A,114.089259,33.588274,漯河市,韶山路11号,细颗粒物(PM2.5),104,83,50,64,41,53,53,90,79,27,18,6,6,0.7,0.7
2026-03-03T2200,1798A,118.5084,31.6838,马鞍山市,湖东路四小,细颗粒物(PM2.5),92,69,54,56,48,52,52,59,57,20,19,6,5,0.6,0.6
2026-03-03T2200,1799A,118.5019,31.6449,马鞍山市,开发区,细颗粒物(PM2.5),92,67,57,56,46,49,49,64,59,26,21,5,4,0.7,0.7
2026-03-03T2200,3633A,118.4914,31.681,马鞍山市,雨山,细颗粒物(PM2.5),92,74,61,56,48,55,55,62,58,19,18,4,4,0.6,0.7
2026-03-03T2200,4191A,118.527362,31.722269,马鞍山市,慈湖高新区,细颗粒物(PM2.5),92,61,57,56,50,51,51,62,58,21,21,5,5,0.5,0.6
2026-03-03T2200,1686A,111.0285,21.469,茂名市,电白南海,,12,9,19,8,13,28,28,33,32,12,11,6,5,0.7,0.7
2026-03-03T2200,1687A,110.9294,21.6533,茂名市,茂石化七小,,20,19,19,14,14,18,18,24,23,17,15,7,7,0.8,0.7
2026-03-03T2200,1688A,110.9108,21.6688,茂名市,健康路,,16,NA,13,11,14,22,22,27,26,13,14,6,8,0.9,0.9
2026-03-03T2200,1689A,110.8592,21.6826,茂名市,高岭,,20,19,22,14,14,19,19,26,25,15,13,17,9,/,/
2026-03-03T2200,3450A,111.0101,21.5165,茂名市,电白水东,,12,NA,11,8,12,31,31,35,34,18,15,4,3,/,/
2026-03-03T2200,2540A,103.8414,30.0871,眉山市,气象局,,25,18,30,17,11,50,50,81,76,24,16,6,6,0.7,0.5
2026-03-03T2200,3148A,103.829,30.0563,眉山市,区人社局,颗粒物(PM10),66,72,35,25,14,38,38,71,66,26,19,8,8,0.8,0.8
2026-03-03T2200,4148A,103.8836,30.0695,眉山市,眉职院,,30,30,24,13,12,55,55,77,74,12,15,6,6,0.7,0.7
2026-03-03T2200,1690A,116.1248,24.3307,梅州市,梅江月梅,,23,NA,12,16,8,18,18,39,24,11,10,/,/,/,/
2026-03-03T2200,1691A,116.0798,24.2719,梅州市,梅县新城,,28,19,10,19,8,16,16,39,26,13,10,8,8,0.9,0.8
2026-03-03T2200,3315A,116.1234,24.2994,梅州市,梅龙,NA,NA,NA,7,26,8,17,17,43,28,10,7,6,5,1.0,0.8
2026-03-03T2200,1878A,104.7775,31.4741,绵阳市,富乐山,,25,22,20,17,12,58,58,73,71,5,9,9,9,0.6,0.6
2026-03-03T2200,1880A,104.6698,31.4668,绵阳市,高新区自来水公司,,49,49,24,27,11,5,5,70,60,60,22,10,9,1.1,0.9
2026-03-03T2200,3491A,104.6899,31.5324,绵阳市,西科大附属小学,,42,42,29,25,17,38,38,73,66,38,24,8,7,0.7,0.7
2026-03-03T2200,3492A,104.5647,31.5343,绵阳市,安州区旅游局,NA,NA,62,23,43,15,NA,NA,68,NA,46,21,4,4,1.0,0.7
2026-03-03T2200,4146A,104.7092,31.4972,绵阳市,科技城新区公安局,NA,NA,27,29,21,14,NA,NA,73,73,38,22,8,8,0.7,0.7
2026-03-03T2200,4226A,104.765114,31.453094,绵阳市,绵阳市气象局,,35,35,25,22,13,34,34,68,64,29,16,8,8,1.3,1.2
2026-03-03T2200,1784A,129.61,44.561,牡丹江市,环保大楼,细颗粒物(PM2.5),153,138,62,117,36,54,54,78,65,21,14,23,12,0.4,0.3
2026-03-03T2200,1787A,129.6364,44.6075,牡丹江市,机车工厂,细颗粒物(PM2.5),68,68,35,44,17,53,53,75,66,17,12,16,11,0.5,0.4
2026-03-03T2200,1788A,129.6386,44.5462,牡丹江市,第一中学,细颗粒物(PM2.5),104,NA,40,64,25,60,60,78,67,15,12,11,8,0.5,0.5
2026-03-03T2200,4287A,129.5992,44.5964,牡丹江市,东晓云街98号,细颗粒物(PM2.5),150,124,57,114,31,60,60,81,68,21,14,25,15,0.6,0.6
2026-03-03T2200,2531A,105.0703,29.61,内江市,市监测站,细颗粒物(PM2.5),60,46,36,40,32,39,39,69,65,23,18,6,6,0.7,0.6
2026-03-03T2200,2533A,105.0657,29.5807,内江市,内江二中,颗粒物(PM10),60,64,49,32,26,31,31,59,54,25,22,7,7,0.6,0.6
2026-03-03T2200,2534A,105.0407,29.5828,内江市,内江日报社,颗粒物(PM10),53,53,30,28,24,33,33,61,57,32,25,5,5,0.6,0.5
2026-03-03T2200,4147A,105.0433,29.6105,内江市,玉峰路西段888号,细颗粒物(PM2.5),62,NA,24,41,28,42,42,42,NA,26,20,7,6,0.6,0.5
2026-03-03T2200,2628A,92.0653,31.4846,那曲市,那曲监测站,细颗粒物(PM2.5),168,NA,37,127,29,35,35,101,89,89,21,28,6,2.8,0.9
2026-03-03T2200,4243A,92.0515,31.4787,那曲市,那曲市委宣传部,,43,39,22,30,17,62,62,112,105,30,10,10,6,1.2,0.7
2026-03-03T2200,1291A,115.8887,28.7006,南昌市,省林业公司,细颗粒物(PM2.5),74,53,34,47,27,60,60,77,72,13,14,4,4,0.7,0.7
2026-03-03T2200,1292A,115.813,28.7443,南昌市,林科所,"颗粒物(PM10),细颗粒物(PM2.5)",60,63,31,40,18,56,56,72,68,15,11,8,7,1.1,1.2
2026-03-03T2200,1294A,115.8518,28.687,南昌市,建工学校,颗粒物(PM10),68,74,46,43,25,52,52,68,64,19,15,8,7,0.5,0.5
2026-03-03T2200,1295A,115.8926,28.6425,南昌市,象湖,细颗粒物(PM2.5),86,59,33,53,30,56,56,73,69,17,16,9,7,1.0,1
2026-03-03T2200,3046A,115.9084,28.6062,南昌市,机电学校,颗粒物(PM10),75,84,48,38,20,59,59,78,73,15,13,5,4,0.6,0.6
2026-03-03T2200,3690A,115.9718,28.7032,南昌市,外国语学校,细颗粒物(PM2.5),86,70,41,53,30,53,53,75,68,21,17,7,7,0.8,0.8
2026-03-03T2200,4106A,115.7923,28.6873,南昌市,工业二路,颗粒物(PM10),65,71,39,41,19,62,62,78,75,17,14,5,4,0.6,0.6
2026-03-03T2200,4192A,115.931587,28.686774,南昌市,南京东路235号,细颗粒物(PM2.5),74,78,44,47,28,61,61,78,74,10,11,6,5,0.6,0.6
2026-03-03T2200,1906A,106.0791,30.8022,南充市,南充市委,细颗粒物(PM2.5),68,62,41,44,28,43,43,69,68,20,21,17,8,0.5,0.5
2026-03-03T2200,1907A,106.1038,30.8215,南充市,南充炼油厂,颗粒物(PM10),54,55,43,34,28,38,38,63,61,19,19,7,6,0.7,0.6
2026-03-03T2200,4227A,106.108336,30.788436,南充市,梨树横街98号,,45,40,37,31,29,49,49,67,66,12,16,6,7,0.5,0.5
2026-03-03T2200,4304A,106.1172,30.843,南充市,清泉寺北路188号,细颗粒物(PM2.5),62,NA,32,41,31,44,44,69,68,20,16,6,6,0.7,0.6
2026-03-03T2200,4305A,106.067,30.7616,南充市,同庆路1号,细颗粒物(PM2.5),98,NA,41,59,36,40,40,61,60,18,18,23,8,0.8,0.7
2026-03-03T2200,1151A,118.8033,32.1085,南京市,迈皋桥,细颗粒物(PM2.5),62,53,54,41,41,63,63,77,72,6,6,5,4,0.4,0.3
2026-03-03T2200,1152A,118.7487,32.057,南京市,草场门,细颗粒物(PM2.5),52,39,48,36,41,67,67,74,73,22,20,7,7,0.5,0.5
2026-03-03T2200,1154A,118.770105,32.004342,南京市,中华门,细颗粒物(PM2.5),54,51,48,37,42,58,58,67,65,12,11,5,4,0.5,0.6
2026-03-03T2200,1155A,118.8059,32.0329,南京市,瑞金路,细颗粒物(PM2.5),62,53,46,41,47,53,53,68,64,36,30,3,3,0.8,0.8
2026-03-03T2200,1156A,118.7946,32.0774,南京市,玄武湖,细颗粒物(PM2.5),54,50,53,37,42,51,51,66,62,31,24,5,6,0.6,0.5
2026-03-03T2200,1157A,118.6415,32.0964,南京市,浦口,细颗粒物(PM2.5),80,71,58,50,44,49,49,65,62,21,14,4,4,0.7,0.6
2026-03-03T2200,1158A,118.730129,32.000956,南京市,奥体中心,颗粒物(PM10),55,56,54,36,39,61,61,72,70,22,19,7,7,0.5,0.5
2026-03-03T2200,1159A,118.9072,32.1047,南京市,仙林大学城,颗粒物(PM10),58,61,48,36,38,58,58,69,67,17,14,4,5,0.7,0.7
2026-03-03T2200,3422A,118.8443,31.919,南京市,江宁彩虹桥,"颗粒物(PM10),细颗粒物(PM2.5)",58,60,51,39,39,64,64,77,74,19,13,4,4,0.7,0.7
2026-03-03T2200,3427A,118.8497,32.3599,南京市,六合雄州,细颗粒物(PM2.5),70,58,54,45,46,56,56,67,64,15,16,4,4,0.8,0.8
2026-03-03T2200,4086A,118.7641,32.0841,南京市,新模范马路66号,,50,46,53,35,44,75,75,93,88,21,13,4,4,0.8,0.8
2026-03-03T2200,4249A,118.8707617,31.34017673,南京市,汶溪路181号,细颗粒物(PM2.5),82,65,52,51,44,59,59,70,67,24,17,6,5,0.5,0.5
2026-03-03T2200,4312A,119.019,31.6512,南京市,中山西路1号,细颗粒物(PM2.5),60,48,41,40,36,53,53,67,63,13,10,4,4,1.0,0.9
2026-03-03T2200,1401A,108.3098,22.788,南宁市,二十一中,,30,21,14,21,13,48,48,53,52,13,13,5,4,0.7,0.7
2026-03-03T2200,1402A,108.3135,22.8529,南宁市,北湖,,35,32,18,24,14,46,46,56,53,12,10,2,2,0.7,0.7
2026-03-03T2200,1403A,108.3205,22.8222,南宁市,市监测站,,26,NA,16,18,11,50,50,57,56,13,12,6,6,0.7,0.7
2026-03-03T2200,1404A,108.3828,22.8038,南宁市,大自然花园,,30,30,18,18,10,50,50,56,56,12,10,6,5,0.8,0.8
2026-03-03T2200,1406A,108.2397,22.8462,南宁市,区农职院,,28,28,23,17,15,50,50,60,56,8,8,5,5,0.5,0.5
2026-03-03T2200,1407A,108.3285,22.7356,南宁市,英华嘉园,,28,20,19,19,12,48,48,54,53,9,8,4,3,0.8,0.8
2026-03-03T2200,3401A,108.4829,22.762,南宁市,红星社区,,25,20,17,17,12,56,56,58,58,10,8,5,4,0.7,0.7
2026-03-03T2200,4132A,108.2927,23.1477,南宁市,起凤路9号,,28,23,19,19,14,48,48,57,56,9,8,2,2,0.7,0.7
2026-03-03T2200,4221A,108.2177,22.7774,南宁市,乐贤路16号,,35,26,23,24,14,43,43,53,52,11,11,2,2,0.8,0.7
2026-03-03T2200,2332A,118.1682,26.6371,南平市,南平市监测站,细颗粒物(PM2.5),90,91,16,55,10,18,18,34,26,13,7,5,6,0.5,0.4
2026-03-03T2200,2334A,118.1757,26.6276,南平市,南平七中,,28,27,15,19,9,24,24,32,24,9,8,3,5,0.6,0.7
2026-03-03T2200,1168A,120.9056,31.9669,南通市,狼山街道,,24,24,27,8,21,72,72,70,70,8,9,3,3,0.4,0.7
2026-03-03T2200,1170A,120.8635,32.0231,南通市,城中,,26,26,30,7,36,78,78,72,72,10,10,6,4,0.4,0.6
2026-03-03T2200,1171A,120.9376,31.9301,南通市,星湖花园,,27,27,25,13,19,70,70,70,70,11,8,4,3,0.4,0.5
2026-03-03T2200,1172A,120.8053,32.046,南通市,紫琅学院,,28,25,29,19,21,74,74,71,71,10,10,4,4,0.6,0.7
2026-03-03T2200,3291A,121.0631,32.0644,南通市,通州监测站,,25,19,23,3,16,80,80,77,77,10,11,3,3,0.6,0.7
2026-03-03T2200,3432A,120.9348,31.9874,南通市,环境教育馆,,25,22,26,10,20,78,78,76,76,12,12,3,3,0.4,0.5
2026-03-03T2200,4091A,120.8692,31.9885,南通市,洪江路,,23,23,28,9,21,69,69,66,66,9,9,3,3,0.5,0.6
2026-03-03T2200,2404A,112.5338,33.0086,南阳市,瓦房庄,细颗粒物(PM2.5),109,94,59,69,41,60,60,95,89,27,18,6,4,1.0,0.9
2026-03-03T2200,2405A,112.5002,32.9734,南阳市,汉画馆,细颗粒物(PM2.5),136,119,63,99,55,47,47,93,84,38,20,40,7,1.2,0.9
2026-03-03T2200,2406A,112.5778,33.0144,南阳市,气象站,细颗粒物(PM2.5),111,114,68,72,43,54,54,104,95,36,21,6,5,1.0,0.9
2026-03-03T2200,2407A,112.548,32.9687,南阳市,理工学院,细颗粒物(PM2.5),120,92,60,82,44,63,63,92,85,24,16,6,5,1.0,0.9
2026-03-03T2200,4008A,112.5233,32.9921,南阳市,卧龙区政府,细颗粒物(PM2.5),102,78,61,62,44,58,58,89,83,28,18,7,6,1.0,0.8
2026-03-03T2200,1234A,121.8352,29.9111,宁波市,区环保大楼,,22,14,27,6,15,70,70,73,64,13,12,5,6,0.4,0.5
2026-03-03T2200,1235A,121.5595,29.8208,宁波市,万里学院,,23,23,24,13,18,64,64,73,68,18,16,4,3,0.4,0.5
2026-03-03T2200,1236A,121.713,29.9564,宁波市,龙赛医院,,22,14,28,6,16,70,70,67,61,9,16,4,5,0.4,0.5
2026-03-03T2200,1240A,121.5855,29.8635,宁波市,太古小学,,21,18,26,10,16,67,67,75,70,12,11,3,2,0.4,0.5
2026-03-03T2200,1241A,121.5239,29.8673,宁波市,市环境监测中心,,32,32,26,15,17,61,61,70,65,13,13,4,4,0.5,0.5
2026-03-03T2200,2871A,121.6156,29.9015,宁波市,万里国际学校,,23,23,21,8,17,66,66,73,67,14,12,4,3,0.6,0.6
2026-03-03T2200,3710A,121.5593,29.8976,宁波市,白沙活动中心,,22,22,18,11,18,63,63,71,67,12,10,4,4,0.4,0.5
2026-03-03T2200,4095A,121.8962,29.7529,宁波市,中科路88号,,24,11,22,6,15,74,74,75,70,11,10,5,5,0.5,0.6
2026-03-03T2200,2341A,119.5387,26.6611,宁德市,宁德市监测站,,35,35,21,19,12,88,88,78,78,10,12,4,4,0.4,0.5
2026-03-03T2200,3209A,119.5231,26.6562,宁德市,宁德一中,,37,37,22,21,14,93,93,82,82,10,11,4,4,0.2,0.3
2026-03-03T2200,2618A,98.859,25.8541,怒江傈僳族自治州,州监测站,细颗粒物(PM2.5),74,57,52,47,40,89,89,116,113,13,7,7,8,0.5,0.4
2026-03-03T2200,2619A,98.8607,25.8168,怒江傈僳族自治州,泸水一中,细颗粒物(PM2.5),102,68,48,62,40,63,63,111,102,23,14,6,5,0.9,0.6
2026-03-03T2200,1888A,101.6891,26.571,攀枝花市,弄弄坪,颗粒物(PM10),58,61,64,33,38,76,76,120,108,23,27,11,28,0.6,1.5
2026-03-03T2200,1889A,101.577,26.5914,攀枝花市,河门口,细颗粒物(PM2.5),62,60,58,41,37,60,60,114,102,31,16,23,21,1.0,0.8
2026-03-03T2200,1891A,101.7365,26.4986,攀枝花市,仁和,细颗粒物(PM2.5),66,60,50,43,40,62,62,110,94,13,12,8,8,0.6,0.6
2026-03-03T2200,2835A,101.7222,26.567,攀枝花市,四十中小,,50,50,56,28,40,76,76,114,101,20,27,57,19,0.7,1
2026-03-03T2200,1604A,122.0303,41.1489,盘锦市,开发区,细颗粒物(PM2.5),313,339,145,263,121,18,18,45,25,31,24,6,6,1.0,0.8
2026-03-03T2200,1605A,122.0486,41.0883,盘锦市,兴隆台,细颗粒物(PM2.5),381,474,159,331,136,22,22,38,28,65,53,9,8,1.3,1
2026-03-03T2200,1606A,121.8297,41.1026,盘锦市,新生街道,细颗粒物(PM2.5),243,219,112,193,108,10,10,50,35,66,53,6,8,1.1,1
2026-03-03T2200,1832A,113.3257,33.7423,平顶山市,新华旅馆,细颗粒物(PM2.5),82,75,81,51,66,71,71,104,94,17,21,6,6,0.4,0.6
2026-03-03T2200,1833A,113.2917,33.737,平顶山市,规划设计院,细颗粒物(PM2.5),100,89,85,60,65,67,67,101,93,15,18,8,6,0.6,0.8
2026-03-03T2200,1834A,113.182,33.7738,平顶山市,平顶山工学院,细颗粒物(PM2.5),88,69,62,54,57,79,79,108,101,13,15,4,3,0.3,0.5
2026-03-03T2200,3594A,112.8736,33.9068,平顶山市,石龙区,细颗粒物(PM2.5),104,73,75,64,61,76,76,104,99,20,13,7,5,0.9,1
2026-03-03T2200,4116A,113.284,33.7139,平顶山市,姚电大道23号,细颗粒物(PM2.5),113,NA,84,74,67,67,67,106,96,17,18,7,5,0.6,0.8
2026-03-03T2200,2656A,106.6633,35.5338,平凉市,聚贤嘉苑,颗粒物(PM10),56,58,60,34,30,44,44,65,63,24,17,1,7,0.7,0.8
2026-03-03T2200,2657A,106.7021,35.5307,平凉市,博物馆,细颗粒物(PM2.5),107,104,57,67,32,41,41,68,65,29,15,10,9,1.2,0.7
2026-03-03T2200,2348A,113.8384,27.6436,萍乡市,中医院,细颗粒物(PM2.5),70,71,48,45,32,13,13,18,16,20,15,3,4,0.7,0.7
2026-03-03T2200,2350A,113.8677,27.6438,萍乡市,市环保局,细颗粒物(PM2.5),88,64,42,54,33,14,14,22,20,20,15,4,5,0.9,0.9
2026-03-03T2200,2351A,113.8663,27.6202,萍乡市,安源区政府,细颗粒物(PM2.5),72,70,47,46,32,15,15,16,15,14,13,4,4,0.7,0.8
2026-03-03T2200,4107A,113.8686,27.6668,萍乡市,联洪村委会,细颗粒物(PM2.5),82,73,47,51,35,10,10,13,12,16,15,2,2,0.7,0.8
2026-03-03T2200,2319A,119.0142,25.4324,莆田市,荔城区仓后路,颗粒物(PM10),63,67,20,38,10,74,74,70,70,13,12,/,/,/,/
2026-03-03T2200,2320A,119.0016,25.4553,莆田市,莆田市监测站,NA,NA,34,15,21,8,NA,NA,63,63,7,9,NA,3,0.4,0.5
2026-03-03T2200,2321A,119.112,25.4561,莆田市,涵江区六中,,49,49,21,24,8,86,86,75,75,7,9,/,/,0.4,1
2026-03-03T2200,2322A,119.1014,25.3215,莆田市,秀屿区政府,,41,41,25,22,11,89,89,81,81,7,8,4,3,0.4,0.5
2026-03-03T2200,2392A,115.0312,35.7636,濮阳市,环保局,细颗粒物(PM2.5),120,102,81,82,80,45,45,78,46,25,20,6,6,1.2,1.2
2026-03-03T2200,3021A,115,35.7667,濮阳市,濮水河管理处,细颗粒物(PM2.5),117,106,92,78,76,42,42,79,47,21,17,6,6,1.1,1.1
2026-03-03T2200,4118A,115.0552,35.7816,濮阳市,中原东路68号,细颗粒物(PM2.5),115,112,93,76,76,44,44,81,46,32,28,4,4,0.9,0.8
2026-03-03T2200,4216A,115.0923632,35.76857718,濮阳市,任丘路479号,细颗粒物(PM2.5),131,137,99,94,82,32,32,80,43,28,19,4,4,1.4,1.2
2026-03-03T2200,2601A,100.9801,22.7634,普洱市,市环保局,细颗粒物(PM2.5),92,106,76,56,36,81,81,127,115,12,9,7,6,0.7,0.7
2026-03-03T2200,2602A,100.9763,22.8237,普洱市,普洱第二中学,细颗粒物(PM2.5),98,97,74,59,39,79,79,123,113,18,17,7,6,0.5,0.4
2026-03-03T2200,3345A,131.0413,45.7795,七台河市,中波台,,50,50,28,22,14,57,57,79,68,9,11,11,8,0.3,0.4
2026-03-03T2200,3637A,131.0136,45.7688,七台河市,人民广场,颗粒物(PM10),129,194,61,67,27,57,57,79,64,16,17,13,13,0.4,0.4
2026-03-03T2200,3684A,130.8639,45.8144,七台河市,新建矿广场,,28,22,33,19,15,60,60,77,69,12,18,5,7,0.2,0.2
2026-03-03T2200,1779A,123.9307,47.3641,齐齐哈尔市,安居小区,细颗粒物(PM2.5),176,NA,51,133,33,65,65,63,60,15,11,13,5,0.5,0.4
2026-03-03T2200,1780A,123.9497,47.3389,齐齐哈尔市,中心广场,细颗粒物(PM2.5),211,229,45,161,34,51,51,60,56,25,14,14,9,0.6,0.4
2026-03-03T2200,1781A,123.9483,47.3229,齐齐哈尔市,农牧车辆厂,细颗粒物(PM2.5),207,173,53,157,33,51,51,61,60,12,9,14,11,0.4,0.3
2026-03-03T2200,1783A,123.9442,47.2994,齐齐哈尔市,市环境监测站,细颗粒物(PM2.5),261,250,53,211,34,36,36,61,56,36,16,13,8,0.5,0.3
2026-03-03T2200,3662A,123.6341,47.2079,齐齐哈尔市,富区青少年活动中心,细颗粒物(PM2.5),213,165,66,163,30,48,48,64,56,18,9,11,6,0.7,0.4
2026-03-03T2200,2591A,107.9765,26.5724,黔东南苗族侗族自治州,市环境监测站,细颗粒物(PM2.5),106,NA,18,66,17,33,33,62,48,16,8,7,4,0.6,0.6
2026-03-03T2200,2881A,107.8909,26.531,黔东南苗族侗族自治州,凯里学院,,29,22,15,20,12,41,41,62,52,11,8,6,4,0.6,0.5
2026-03-03T2200,2593A,107.5223,26.2371,黔南布依族苗族自治州,小围寨,,33,NA,6,23,8,41,41,60,48,8,5,7,5,0.6,0.6
2026-03-03T2200,3538A,107.5175,26.2977,黔南布依族苗族自治州,沙坝,,25,22,12,17,8,48,48,63,54,4,4,5,4,0.8,0.8
2026-03-03T2200,2589A,104.9022,25.0943,黔西南布依族苗族自治州,场坝街,,45,45,38,26,28,60,60,68,65,9,9,3,4,0.6,0.6
2026-03-03T2200,2590A,104.8812,25.0994,黔西南布依族苗族自治州,坪东大道,细颗粒物(PM2.5),56,46,39,38,31,68,68,71,69,7,8,6,5,0.7,0.7
2026-03-03T2200,2502A,108.6238,21.9667,钦州市,市环保站,,34,34,23,13,14,52,52,57,56,12,10,4,3,0.7,0.7
2026-03-03T2200,2503A,108.655,21.9481,钦州市,沙埠小学,,24,24,21,15,11,54,54,60,60,10,9,4,4,0.5,0.6
2026-03-03T2200,2504A,108.5989,21.7435,钦州市,港区一小,,40,40,30,10,17,45,45,52,52,21,18,3,2,0.5,0.6
2026-03-03T2200,3404A,108.5959,21.9634,钦州市,北职校,,20,19,21,14,13,53,53,56,56,9,9,3,3,0.7,0.7
2026-03-03T2200,1046A,119.5247,39.9346,秦皇岛市,建设大厦,细颗粒物(PM2.5),193,179,127,145,99,47,47,75,64,36,27,9,9,1.3,1.1
2026-03-03T2200,3132A,119.5979,39.938,秦皇岛市,文明里,细颗粒物(PM2.5),214,226,130,164,100,34,34,63,50,52,33,13,12,1.4,1.2
2026-03-03T2200,4066A,119.7458,39.9952,秦皇岛市,南园路157号,细颗粒物(PM2.5),186,166,125,140,105,35,35,60,47,53,47,10,10,1.4,1.2
2026-03-03T2200,4067A,119.5131,39.8858,秦皇岛市,翠岛大街1号,细颗粒物(PM2.5),215,171,111,165,98,33,33,73,63,38,28,9,10,1.4,1.1
2026-03-03T2200,4198A,119.509013,39.825305,秦皇岛市,北戴河轮滑馆,颗粒物(PM10),128,192,120,NA,93,39,39,68,63,39,31,5,7,1.5,1.2
2026-03-03T2200,1310A,120.404,36.0625,青岛市,市南区东部子站,细颗粒物(PM2.5),146,161,88,110,67,56,56,61,61,23,19,10,8,0.9,0.8
2026-03-03T2200,1311A,120.362344,36.10282,青岛市,四方区子站,细颗粒物(PM2.5),142,136,91,106,72,69,69,72,72,18,17,7,5,0.8,0.8
2026-03-03T2200,1312A,120.294373,36.054183,青岛市,市南区西部子站,细颗粒物(PM2.5),120,105,79,81,70,68,68,71,71,22,18,3,2,0.8,0.8
2026-03-03T2200,1313A,120.4581,36.0858,青岛市,崂山区子站,细颗粒物(PM2.5),133,166,81,96,61,58,58,68,67,21,14,8,6,0.8,0.7
2026-03-03T2200,1315A,120.3945,36.3083,青岛市,城阳区子站,细颗粒物(PM2.5),155,190,98,118,71,60,60,71,69,28,23,11,6,0.9,0.8
2026-03-03T2200,3642A,120.3454,36.0735,青岛市,市北区南部,NA,NA,114,87,NA,66,56,56,65,65,26,20,5,4,0.8,0.8
2026-03-03T2200,3643A,120.3897,36.18,青岛市,李沧区北部,细颗粒物(PM2.5),148,163,93,112,72,56,56,68,66,28,21,11,8,0.8,0.7
2026-03-03T2200,4110A,120.5222,36.4089,青岛市,盟旺路653号,细颗粒物(PM2.5),127,151,79,89,57,76,76,81,78,14,12,5,2,0.8,0.8
2026-03-03T2200,4290A,120.196923,35.954556,青岛市,珠江路669号,细颗粒物(PM2.5),117,100,80,78,69,55,55,64,63,33,27,7,7,0.6,0.6
2026-03-03T2200,4291A,120.0424,35.8656,青岛市,黄岛区人民政府广场,细颗粒物(PM2.5),135,161,90,98,64,61,61,73,71,22,19,8,7,0.8,0.7
2026-03-03T2200,1703A,113.0218,23.7086,清远市,凤城街办,,10,6,4,3,3,31,31,32,32,10,9,/,/,/,/
2026-03-03T2200,3025A,113.0479,23.6343,清远市,技师学院,,10,7,6,3,3,30,30,31,30,12,11,4,4,0.6,0.6
2026-03-03T2200,3318A,112.9898,23.7403,清远市,清新太和,,12,6,3,3,1,36,36,37,35,11,10,4,4,0.8,0.7
2026-03-03T2200,3455A,113.076,23.72,清远市,清城东城,,10,6,4,3,2,30,30,34,33,16,12,/,/,/,/
2026-03-03T2200,2661A,107.6325,35.7357,庆阳市,庆阳五中,细颗粒物(PM2.5),110,81,40,71,25,68,68,72,72,16,12,5,5,0.7,0.6
2026-03-03T2200,2662A,107.6361,35.7067,庆阳市,市环保局,细颗粒物(PM2.5),90,65,36,55,22,69,69,74,74,15,12,5,7,0.8,0.8
2026-03-03T2200,1916A,103.7897,25.5036,曲靖市,环境监测站,细颗粒物(PM2.5),72,62,65,46,48,63,63,89,75,10,13,5,7,0.7,0.8
2026-03-03T2200,1917A,103.8013,25.5357,曲靖市,烟厂办公区,细颗粒物(PM2.5),56,53,60,38,42,56,56,74,65,8,11,4,5,0.6,0.7
2026-03-03T2200,3376A,103.7926,25.4651,曲靖市,南苑二区,NA,NA,71,65,NA,52,51,51,79,65,15,14,4,4,0.7,0.7
2026-03-03T2200,3377A,103.7442,25.5259,曲靖市,曲靖师范学院,细颗粒物(PM2.5),64,52,60,42,46,62,62,86,75,9,15,1,3,0.5,0.5
2026-03-03T2200,1264A,118.8694,28.94,衢州市,环保大楼,细颗粒物(PM2.5),68,55,21,44,16,54,54,86,74,20,13,/,/,/,/
2026-03-03T2200,1266A,118.8622,28.9809,衢州市,衢州学院,细颗粒物(PM2.5),74,54,19,47,15,49,49,80,68,20,15,4,3,0.7,0.5
2026-03-03T2200,4097A,118.9646,28.9832,衢州市,衢州三中,细颗粒物(PM2.5),72,58,21,46,16,50,50,78,66,17,11,6,5,0.8,0.6
2026-03-03T2200,1611A,118.5818,24.9116,泉州市,涂山街,,35,35,19,21,11,62,62,57,57,9,10,4,3,0.5,0.6
2026-03-03T2200,1612A,118.597,24.8976,泉州市,津头埔,,40,38,18,28,13,70,70,61,61,11,11,4,2,0.5,0.6
2026-03-03T2200,1613A,118.6669,24.9422,泉州市,万安,,42,NA,16,29,11,64,64,56,56,10,11,5,3,0.4,0.6
2026-03-03T2200,4105A,118.6355,24.9148,泉州市,霞新路6号,,32,29,14,22,11,65,65,56,56,10,10,/,/,0.4,0.5
2026-03-03T2200,2626A,88.8873,29.2723,日喀则市,日喀则监测站,细颗粒物(PM2.5),94,65,30,57,19,34,34,99,86,66,18,24,9,1.3,0.6
2026-03-03T2200,3726A,88.8775,29.2425,日喀则市,林业技术推广中心,,31,31,26,14,11,68,68,95,89,13,10,6,5,0.5,0.4
2026-03-03T2200,1659A,119.4711,35.421,日照市,监测站,细颗粒物(PM2.5),115,105,67,76,54,62,62,61,60,24,22,6,6,0.8,0.8
2026-03-03T2200,1660A,119.523,35.4216,日照市,市政府广场,细颗粒物(PM2.5),116,107,70,77,59,63,63,62,61,21,19,4,4,0.8,0.7
2026-03-03T2200,1661A,119.5511,35.4113,日照市,港务局,细颗粒物(PM2.5),121,110,76,83,59,66,66,64,64,23,22,3,4,0.8,0.7
2026-03-03T2200,3507A,119.5326,35.4627,日照市,职业技术学院,细颗粒物(PM2.5),118,97,71,79,59,70,70,66,66,22,22,6,6,0.9,0.9
2026-03-03T2200,3604A,119.3267,35.1043,日照市,岚山环保分局,细颗粒物(PM2.5),121,105,74,83,54,53,53,64,54,26,24,9,10,0.9,0.9
2026-03-03T2200,1835A,111.1922,34.7752,三门峡市,市政府,细颗粒物(PM2.5),113,NA,50,74,54,71,71,89,83,19,24,9,9,1.2,0.9
2026-03-03T2200,1836A,111.1588,34.794,三门峡市,开发区,NA,NA,NA,70,NA,62,NA,NA,91,91,22,18,9,11,1.1,1.1
2026-03-03T2200,3039A,111.1911,34.7829,三门峡市,三门峡市第一小学,细颗粒物(PM2.5),117,88,58,78,55,74,74,94,91,19,21,11,13,1.0,1
2026-03-03T2200,3598A,111.1031,34.719,三门峡市,富达温泉假日酒店,细颗粒物(PM2.5),105,92,66,65,55,69,69,94,92,32,29,11,26,0.6,0.7
2026-03-03T2200,2324A,117.621,26.2626,三明市,三钢,细颗粒物(PM2.5),84,82,19,52,14,17,17,39,29,16,8,11,5,0.7,0.6
2026-03-03T2200,2325A,117.6352,26.2714,三明市,三明二中,颗粒物(PM10),64,69,31,32,10,20,20,40,29,12,6,12,10,0.5,0.5
2026-03-03T2200,2326A,117.6028,26.2377,三明市,三元区政府,,46,46,12,29,9,28,28,44,34,10,6,5,4,0.7,0.7
2026-03-03T2200,1877A,109.4962,18.2682,三亚市,河西子站,,19,18,17,13,9,47,47,42,42,3,5,4,3,0.2,0.2
2026-03-03T2200,3540A,109.7348,18.3443,三亚市,君悦子站,,16,16,21,11,10,45,45,46,46,3,7,2,2,0.2,0.3
2026-03-03T2200,4135A,109.1714,18.3739,三亚市,城东小学站,,26,NA,16,18,10,43,43,43,40,4,6,/,/,/,/
2026-03-03T2200,2624A,91.7592,29.234,山南市,山南监测站,,28,14,22,3,14,88,88,104,101,6,5,3,5,0.3,0.3
2026-03-03T2200,2625A,91.7701,29.2436,山南市,山南人民医院,,29,14,23,12,8,90,90,105,101,3,3,6,8,0.4,0.4
2026-03-03T2200,1674A,116.6795,23.3666,汕头市,金平子站,,37,37,20,23,12,68,68,80,78,10,9,6,5,0.6,0.7
