timepoint,stationcode,longitude,latitude,area,positionname,primarypollutant,aqi,pm10,pm10_24h,pm2_5,pm2_5_24h,o3,o3_24h,o3_8h,o3_8h_24h,no2,no2_24h,so2,so2_24h,co,co_24h
2024-08-23T0800,2566A,102.1879,31.914,阿坝藏族羌族自治州,州农科所,,24,24,20,3,8,24,,37,37,15,13,12,7,0,0
2024-08-23T0800,2568A,102.2502,31.8896,阿坝藏族羌族自治州,马师校,,19,,15,13,10,22,,37,37,16,11,3,3,0.4,0.3
2024-08-23T0800,3994A,102.2165,31.9024,阿坝藏族羌族自治州,马尔康中学西区,,30,,15,21,15,35,,46,46,9,9,5,5,0.3,0.3
2024-08-23T0800,2695A,80.292,41.1694,阿克苏地区,电视台,,32,32,46,19,23,63,,55,55,13,18,1,2,0.5,0.5
2024-08-23T0800,2696A,80.2613,41.1551,阿克苏地区,艺术中心,,26,26,40,14,19,68,,54,54,14,21,3,4,0.5,0.6
2024-08-23T0800,2204A,105.6467,38.8363,阿拉善盟,西城区西花园,颗粒物(PM10),51,51,41,11,13,104,,124,124,19,12,8,8,1.0,0.8
2024-08-23T0800,2205A,105.6985,38.8411,阿拉善盟,蒙二幼,,31,24,24,11,11,98,,115,115,11,6,5,7,0.5,0.5
2024-08-23T0800,2206A,105.724,38.8516,阿拉善盟,环保局新楼,,36,20,21,9,11,114,,131,131,5,6,9,10,0.4,0.4
2024-08-23T0800,2708A,88.1264,47.8517,阿勒泰地区,市站,,26,12,18,12,7,82,,78,78,4,11,7,7,0.6,0.6
2024-08-23T0800,2630A,80.1161,32.5,阿里地区,阿里监测站,,34,,8,3,4,107,,105,105,4,8,6,6,0.2,0.2
2024-08-23T0800,3192A,80.0903,32.5028,阿里地区,阿里藏医院,,31,11,9,3,5,99,,105,105,3,4,7,6,0.3,0.3
2024-08-23T0800,2642A,109.0318,32.6537,安康市,香溪洞,颗粒物(PM10),63,76,51,23,21,31,,45,45,28,22,6,6,0.5,0.4
2024-08-23T0800,2643A,109.0281,32.6939,安康市,安康市监测站,,39,39,33,18,14,20,,31,31,11,8,10,8,0.8,0.5
2024-08-23T0800,2644A,109.0072,32.6975,安康市,汉滨区检察院,,26,24,28,18,22,18,,27,27,8,8,7,8,0.5,0.4
2024-08-23T0800,2291A,117.0809,30.5177,安庆市,环科院,,31,31,30,18,18,48,,34,34,23,21,7,6,0.6,0.6
2024-08-23T0800,2292A,117.0331,30.5119,安庆市,马山宾馆,,32,,21,22,22,47,,31,31,39,29,9,8,0.6,0.5
2024-08-23T0800,2294A,116.9896,30.6145,安庆市,安庆大学,,33,33,28,21,22,51,,54,54,17,12,9,8,0.5,0.6
2024-08-23T0800,3173A,117.0598,30.5351,安庆市,市人大,,39,27,28,27,22,55,,46,46,19,12,8,7,0.5,0.4
2024-08-23T0800,3122A,105.9606,26.2611,安顺市,伍家关,,,,,,,,,,,,,,,,
2024-08-23T0800,3123A,105.9408,26.2431,安顺市,凤凰山,,13,9,12,3,8,39,,44,44,5,4,8,7,0.4,0.4
2024-08-23T0800,3124A,105.9439,26.2564,安顺市,金钟山,,13,11,12,3,8,40,,45,45,4,3,6,5,0.6,0.6
2024-08-23T0800,3125A,105.8983,26.2481,安顺市,娄家坡,,13,6,13,3,9,39,,44,44,3,3,7,7,0.5,0.5
2024-08-23T0800,1818A,114.4839,36.0621,安阳市,棉研所,,,,,,,,,,,,,,,,
2024-08-23T0800,1819A,114.3551,36.1017,安阳市,红庙街,颗粒物(PM10),68,86,60,46,31,70,,72,72,21,7,9,4,1.2,0.7
2024-08-23T0800,1820A,114.361,36.0681,安阳市,银杏小区,,,58,55,,23,,,65,65,15,7,3,4,0.9,0.6
2024-08-23T0800,3141A,114.3922,36.0878,安阳市,信访局,颗粒物(PM10),57,63,58,37,28,30,,50,50,35,10,3,4,0.7,0.6
2024-08-23T0800,3669A,114.4705,36.0637,安阳市,左辅环卫站,细颗粒物(PM2.5),68,74,56,49,35,52,,68,68,18,12,6,6,0.5,0.6
2024-08-23T0800,3703A,114.2917,36.0949,安阳市,安钢职工学校,颗粒物(PM10),66,82,65,47,35,67,,62,62,17,13,4,6,0.7,0.7
2024-08-23T0800,1748A,123.044,41.1196,鞍山市,深沟寺,,22,22,23,3,11,24,,10,10,18,14,4,4,0.6,0.6
2024-08-23T0800,1749A,123.011,41.0931,鞍山市,太阳城,,21,21,25,12,14,40,,15,15,14,13,5,4,0.4,0.6
2024-08-23T0800,1750A,123.0485,41.1442,鞍山市,太平,,40,40,29,12,12,17,,12,12,41,22,8,5,0.7,0.7
2024-08-23T0800,1751A,122.9642,41.0971,鞍山市,铁西三道街,,17,17,28,6,16,37,,19,19,28,26,4,9,0.7,1.1
2024-08-23T0800,1752A,122.9341,41.0833,鞍山市,铁西工业园区,,45,45,29,18,14,19,,11,11,32,21,9,10,0.9,0.9
2024-08-23T0800,1753A,123.022,41.0821,鞍山市,明达新区,,15,14,21,3,6,45,,20,20,14,15,4,3,0.4,0.4
2024-08-23T0800,1754A,123.1289,41.0228,鞍山市,千山,,,,,,,,,,,,,,,,
2024-08-23T0800,2195A,107.4212,40.761,巴彦淖尔市,附二中,颗粒物(PM10),52,54,54,25,24,33,,7,7,51,33,6,6,0.7,0.6
2024-08-23T0800,2196A,107.37,40.7372,巴彦淖尔市,市环保大楼,颗粒物(PM10),59,67,52,22,15,37,,13,13,24,23,3,4,0.8,0.5
2024-08-23T0800,1956A,86.1472,41.7538,巴音郭楞蒙古自治州,孔雀公园,,47,47,79,19,25,114,,106,106,5,19,5,7,0.2,0.3
2024-08-23T0800,1957A,86.1972,41.7166,巴音郭楞蒙古自治州,棉纺厂,,50,50,85,11,28,105,,95,95,12,18,5,6,0.2,0.3
2024-08-23T0800,1958A,86.2357,41.7173,巴音郭楞蒙古自治州,经济开发区,,49,49,71,27,32,109,,104,104,4,6,7,7,0.2,0.2
2024-08-23T0800,2914A,106.7677,31.8794,巴中市,苏山坪,,32,32,30,22,23,98,,114,114,7,8,7,6,0.5,0.5
2024-08-23T0800,3182A,106.7656,31.8545,巴中市,丽阳花园,,43,40,37,30,28,41,,48,48,26,16,4,4,0.7,0.6
2024-08-23T0800,3183A,106.7418,31.8654,巴中市,圣泉水务公司,,33,31,32,23,24,47,,63,63,14,12,3,4,0.7,0.6
2024-08-23T0800,3616A,106.7616,31.8344,巴中市,市中心医院,,43,42,39,30,29,44,,37,37,24,15,5,5,0.7,0.7
2024-08-23T0800,2235A,122.7911,45.6077,白城市,洮北区环保局,,17,17,13,7,6,32,,44,44,14,10,4,6,0.6,0.5
2024-08-23T0800,2236A,122.8738,45.5725,白城市,市环保局,,17,17,24,3,5,25,,16,16,12,19,1,4,0.5,0.5
2024-08-23T0800,2231A,126.4219,41.9171,白山市,喜丰,,15,15,16,3,5,48,,36,36,7,9,8,8,0.7,0.7
2024-08-23T0800,2232A,126.4077,41.9419,白山市,环保局,,17,17,18,3,6,46,,37,37,5,12,6,6,0.6,0.7
2024-08-23T0800,2647A,104.1724,36.5446,白银市,第三小学,,45,45,42,21,23,91,,106,106,21,11,16,34,0.6,0.6
2024-08-23T0800,2648A,104.1465,36.5482,白银市,动力公司,,32,32,37,20,20,81,,90,90,12,11,8,21,0.5,0.5
2024-08-23T0800,2512A,106.6103,23.9011,百色市,市监测站,,29,29,29,12,14,10,,12,12,18,15,15,12,0.8,0.7
2024-08-23T0800,2513A,106.6538,23.8859,百色市,市中心血站,,35,35,32,17,18,14,,16,16,19,16,14,12,0.7,0.7
2024-08-23T0800,3406A,106.6085,23.8798,百色市,祈福高中,,31,31,33,16,15,13,,12,12,18,17,11,10,0.8,0.8
2024-08-23T0800,2270A,117.396,32.939,蚌埠市,工人疗养院,,,,42,,19,,,76,76,15,8,,9,0.6,0.5
2024-08-23T0800,2271A,117.3605,32.9427,蚌埠市,百货大楼,颗粒物(PM10),53,55,46,26,23,61,,71,71,10,5,8,8,0.6,0.6
2024-08-23T0800,2273A,117.4185,32.8911,蚌埠市,蚌埠学院,颗粒物(PM10),53,56,39,28,20,51,,65,65,18,12,9,7,0.7,0.6
2024-08-23T0800,2274A,117.3533,32.9673,蚌埠市,淮上区政府,颗粒物(PM10),51,51,45,25,26,68,,76,76,11,7,8,10,0.8,0.8
2024-08-23T0800,2275A,117.3145,32.8977,蚌埠市,高新区,颗粒物(PM10),58,66,44,31,24,43,,60,60,23,11,7,7,0.8,0.7
2024-08-23T0800,3715A,117.3092,32.9314,蚌埠市,蚌埠田家炳中学,,49,49,46,29,26,49,,59,59,12,7,6,10,0.6,0.7
2024-08-23T0800,1585A,109.8756,40.6532,包头市,市环境监测站,,35,35,26,9,11,26,,40,40,36,20,8,10,0.6,0.5
2024-08-23T0800,1587A,109.9991,40.5842,包头市,包头八中,颗粒物(PM10),53,55,34,35,15,22,,18,18,50,28,33,14,2.5,1.3
2024-08-23T0800,1588A,109.8538,40.6821,包头市,青山宾馆,,18,18,18,10,9,26,,36,36,32,20,6,9,0.6,0.6
2024-08-23T0800,1589A,109.8642,40.6288,包头市,惠龙物流,,27,27,24,12,11,23,,35,35,39,20,10,11,0.9,0.8
2024-08-23T0800,1590A,110.0377,40.5546,包头市,东河鸿龙湾,,49,49,34,27,16,24,,24,24,41,21,24,12,2.4,1
2024-08-23T0800,3283A,109.9154,40.5685,包头市,滨河大厦,,34,34,22,10,12,23,,16,16,41,28,13,11,0.9,0.7
2024-08-23T0800,3419A,109.9447,40.6261,包头市,包头市委党校,,35,35,24,18,12,18,,22,22,48,32,10,7,0.8,0.6
2024-08-23T0800,3683A,109.8331,40.6576,包头市,昆区政府,,25,25,20,15,10,33,,47,47,27,18,6,8,0.6,0.6
2024-08-23T0800,1930A,107.185,34.3063,宝鸡市,庙沟村,颗粒物(PM10),83,115,60,27,22,78,,96,96,11,10,7,7,0.5,0.5
2024-08-23T0800,1931A,107.0708,34.3017,宝鸡市,竹园沟,,39,36,42,27,24,37,,48,48,17,13,8,8,0.6,0.6
2024-08-23T0800,1932A,107.1906,34.3672,宝鸡市,三陆医院,,49,49,53,30,31,29,,37,37,28,24,13,12,0.8,0.7
2024-08-23T0800,1933A,107.1431,34.3547,宝鸡市,监测站,颗粒物(PM10),51,52,84,30,33,32,,54,54,23,23,7,8,0.6,0.6
2024-08-23T0800,1934A,107.1186,34.3739,宝鸡市,技工学校,,45,40,48,31,31,35,,51,51,13,15,9,9,0.7,0.6
2024-08-23T0800,1935A,107.3906,34.3528,宝鸡市,陈仓区环保局家属楼,颗粒物(PM10),51,52,52,31,24,34,,52,52,30,23,8,9,0.7,0.6
2024-08-23T0800,1936A,107.2058,34.3497,宝鸡市,文理学院,,50,50,51,34,37,37,,56,56,21,19,9,10,0.7,0.6
2024-08-23T0800,1937A,107.2386,34.3622,宝鸡市,三迪小学,,48,46,54,33,32,32,,53,53,21,17,9,9,0.8,0.7
2024-08-23T0800,1051A,115.493,38.8632,保定市,游泳馆,颗粒物(PM10),52,54,40,24,16,30,,27,27,46,29,2,3,0.4,0.3
2024-08-23T0800,1052A,115.5213,38.8959,保定市,华电二区,颗粒物(PM10),53,55,40,22,17,14,,14,14,37,22,9,4,0.4,0.2
2024-08-23T0800,1053A,115.4713,38.9108,保定市,接待中心,,48,48,38,20,14,34,,21,21,22,18,1,2,0.5,0.5
2024-08-23T0800,1054A,115.4612,38.8416,保定市,地表水厂,颗粒物(PM10),64,77,56,31,18,16,,13,13,54,31,3,2,0.6,0.4
2024-08-23T0800,3581A,115.31981,38.95208,保定市,满城区生态环境分局,颗粒物(PM10),52,53,36,17,12,38,,36,36,31,18,4,4,0.4,0.3
2024-08-23T0800,3582A,115.47694,38.76408,保定市,清苑区第二中学,颗粒物(PM10),70,89,53,38,26,49,,38,38,38,22,5,5,0.6,0.4
2024-08-23T0800,3583A,115.62909,39.02311,保定市,徐水物探局,,35,35,40,14,10,22,,13,13,26,21,4,4,0.5,0.5
2024-08-23T0800,4004A,115.4202,38.8656,保定市,双鹰农机,颗粒物(PM10),51,52,38,13,14,36,,21,21,31,25,3,2,0.4,0.4
2024-08-23T0800,4034A,115.5150,38.8590,保定市,植保所站,颗粒物(PM10),51,51,42,21,21,26,,16,16,37,27,2,4,0.7,0.5
2024-08-23T0800,2594A,99.1678,25.1081,保山市,市环境监测站,,33,33,31,20,15,39,,36,36,9,10,6,6,0.6,0.5
2024-08-23T0800,2595A,99.1711,25.1328,保山市,市环保局,,26,26,32,12,12,28,,40,40,6,7,5,6,0.5,0.5
2024-08-23T0800,1866A,109.2262,21.588,北海市,牛尾岭水库,,,,,,,,,,,,,,,,
2024-08-23T0800,1867A,109.1436,21.4086,北海市,海滩公园,,49,49,47,17,8,13,,42,42,13,7,4,4,0.8,0.7
2024-08-23T0800,1868A,109.0981,21.4661,北海市,新市环保局,,37,37,21,24,12,19,,43,43,16,9,5,3,0.6,0.5
2024-08-23T0800,1869A,109.1778,21.5233,北海市,北海工业园,,39,35,27,27,16,10,,23,23,19,12,9,6,0.6,0.5
2024-08-23T0800,3400A,109.1911,21.4415,北海市,龙潭自来水厂,,46,46,21,30,13,16,,33,33,11,8,4,4,0.6,0.5
2024-08-23T0800,1001A,116.3621,39.8784,北京市,万寿西宫,颗粒物(PM10),61,72,31,42,15,41,,32,32,27,20,2,3,1.2,0.6
2024-08-23T0800,1002A,116.2202,40.2915,北京市,定陵,,25,25,12,12,6,2,,5,5,5,3,2,2,0.4,0.4
2024-08-23T0800,1003A,116.4174,39.9289,北京市,东四,"颗粒物(PM10),细颗粒物(PM2.5)",92,133,38,68,18,50,,,,28,24,5,3,1.3,0.8
2024-08-23T0800,1004A,116.4072,39.8863,北京市,天坛,细颗粒物(PM2.5),62,72,29,44,16,43,,27,27,26,17,2,3,1.2,0.6
2024-08-23T0800,1005A,116.462,39.9365,北京市,农展馆,颗粒物(PM10),59,67,32,40,15,52,,34,34,15,16,9,8,1.3,0.6
2024-08-23T0800,1006A,116.3392,39.9295,北京市,官园,颗粒物(PM10),67,84,32,43,17,40,,20,20,25,20,5,3,1.0,0.5
2024-08-23T0800,1007A,116.2878,39.9611,北京市,海淀万柳,颗粒物(PM10),61,72,29,37,11,24,,18,18,33,19,3,3,0.7,0.3
2024-08-23T0800,1008A,116.6636,40.135,北京市,顺义新城,,44,44,23,21,13,50,,34,34,13,14,3,3,0.8,0.4
2024-08-23T0800,1009A,116.6275,40.3275,北京市,怀柔镇,,20,20,14,10,7,25,,27,27,13,8,5,5,0.5,0.4
2024-08-23T0800,1010A,116.2296,40.217,北京市,昌平镇,,46,46,16,23,8,36,,35,35,18,9,5,4,0.7,0.3
2024-08-23T0800,1011A,116.3966,39.9821,北京市,奥体中心,颗粒物(PM10),58,66,31,38,16,49,,20,20,30,28,3,2,1.4,0.5
2024-08-23T0800,1012A,116.184,39.9136,北京市,古城,颗粒物(PM10),65,79,31,35,13,27,,37,37,34,18,2,1,0.7,0.4
2024-08-23T0800,3281A,115.9718,40.4529,北京市,延庆夏都,,23,23,15,9,6,14,,10,10,14,10,3,3,0.4,0.4
2024-08-23T0800,3417A,117.0709,40.1465,北京市,平谷新城,,49,49,24,25,14,66,,62,62,9,6,1,3,1.1,0.5
2024-08-23T0800,3418A,116.8336,40.4095,北京市,密云新城,,18,18,14,6,5,29,,25,25,4,4,3,3,0.4,0.3
2024-08-23T0800,3671A,116.088,39.9726,北京市,门头沟三家店,,25,25,24,10,11,19,,24,24,14,10,1,2,0.4,0.3
2024-08-23T0800,3672A,116.1541,39.8204,北京市,丰台云岗,颗粒物(PM10),51,52,30,21,12,11,,15,15,28,17,3,3,0.6,0.4
2024-08-23T0800,3673A,116.6804,39.9081,北京市,通州东关,颗粒物(PM10),63,75,37,43,17,51,,39,39,20,18,2,3,1.4,0.6
2024-08-23T0800,3674A,115.9577,39.7603,北京市,房山燕山,,23,23,26,12,11,21,,26,26,6,11,3,3,0.4,0.4
2024-08-23T0800,3675A,116.4672,39.7733,北京市,大兴旧宫,细颗粒物(PM2.5),67,72,28,48,16,29,,21,21,11,9,3,3,1.1,0.5
2024-08-23T0800,3694A,115.986,40.4563,北京市,延庆石河营,,23,23,15,12,7,7,,5,5,10,9,3,3,0.4,0.4
2024-08-23T0800,3695A,116.6151,40.3053,北京市,怀柔新城,,21,21,14,12,9,24,,30,30,5,4,3,3,0.5,0.4
2024-08-23T0800,3696A,116.2545,39.8768,北京市,丰台小屯,颗粒物(PM10),57,63,28,29,14,15,,10,10,37,24,6,5,0.8,0.4
2024-08-23T0800,3697A,116.84,40.3844,北京市,密云镇,,25,25,15,9,7,21,,11,11,12,11,3,3,0.4,0.4
2024-08-23T0800,1761A,123.8275,41.3064,本溪市,大峪,,31,31,32,12,13,34,,18,18,17,14,7,6,0.7,0.7
2024-08-23T0800,1762A,123.7567,41.3325,本溪市,溪湖,,29,29,23,11,11,37,,13,13,13,13,4,3,0.7,0.8
2024-08-23T0800,1763A,123.7169,41.3094,本溪市,彩屯,,29,29,22,14,14,28,,13,13,24,18,8,6,1.0,0.8
2024-08-23T0800,1764A,123.7669,41.2864,本溪市,东明,,33,33,27,12,12,29,,25,25,23,19,7,5,0.9,0.9
2024-08-23T0800,1765A,123.7992,41.2664,本溪市,新立屯,,18,18,20,10,6,29,,15,15,19,17,4,3,0.6,0.7
2024-08-23T0800,1766A,123.8142,41.3472,本溪市,威宁,,34,34,21,21,16,16,,8,8,23,19,8,9,0.9,0.8
2024-08-23T0800,2587A,105.2864,27.3125,毕节市,八中,,35,,31,24,22,16,,36,36,14,12,7,10,0.5,0.4
2024-08-23T0800,2588A,105.31,27.2944,毕节市,师专,,29,28,29,20,20,23,,42,42,19,15,12,11,0.5,0.5
2024-08-23T0800,3537A,105.3631,27.3533,毕节市,长征村,,35,27,29,24,24,24,,44,44,14,10,8,9,0.5,0.4
2024-08-23T0800,1629A,118.0018,37.3617,滨州市,第二水厂,颗粒物(PM10),73,95,54,46,33,32,,49,49,43,16,4,3,0.9,0.8
2024-08-23T0800,1630A,117.9776,37.393,滨州市,北中新校,颗粒物(PM10),71,92,54,48,31,41,,46,46,45,19,7,5,0.9,0.6
2024-08-23T0800,3514A,117.9378,37.3956,滨州市,中海酒店,颗粒物(PM10),71,92,50,39,29,63,,81,81,38,15,10,6,0.9,0.6
2024-08-23T0800,3515A,117.9378,37.3553,滨州市,开发区一中,颗粒物(PM10),71,92,55,48,35,44,,49,49,51,23,9,7,0.8,0.6
2024-08-23T0800,3516A,118.0917,37.694,滨州市,金海六路,颗粒物(PM10),65,80,54,44,29,70,,40,40,35,26,4,4,0.9,0.7
2024-08-23T0800,4028A,117.9956,37.3753,滨州市,滨州市西街道办事处,颗粒物(PM10),81,112,58,53,37,44,,64,64,39,13,7,5,1.0,0.8
2024-08-23T0800,2311A,115.8072,33.8399,亳州市,污水处理厂,,36,36,37,18,21,65,,66,66,14,12,14,10,0.6,0.6
2024-08-23T0800,2312A,115.7789,33.8518,亳州市,三国揽胜宫,,,32,36,21,22,,,88,88,12,8,7,5,0.6,0.5
2024-08-23T0800,3332A,115.7633,33.8034,亳州市,亳州学院,,32,20,27,16,19,102,,95,95,8,6,5,5,0.4,0.4
2024-08-23T0800,2693A,82.0485,44.8556,博尔塔拉蒙古自治州,市党校,,20,20,23,8,11,62,,65,65,6,10,6,7,0.3,0.4
2024-08-23T0800,2694A,82.0806,44.8969,博尔塔拉蒙古自治州,市环保局,,26,26,35,13,11,48,,57,57,11,15,6,5,0.4,0.5
2024-08-23T0800,1071A,116.8842,38.2991,沧州市,沧县城建局,细颗粒物(PM2.5),75,75,48,55,33,55,,73,73,37,14,3,3,1.1,0.9
2024-08-23T0800,1072A,116.8584,38.3254,沧州市,电视转播站,细颗粒物(PM2.5),70,71,49,51,35,82,,60,60,19,14,3,3,0.9,0.8
2024-08-23T0800,1073A,116.8709,38.3228,沧州市,市环保局,颗粒物(PM10),59,67,52,39,29,81,,72,72,21,13,4,4,0.8,0.6
2024-08-23T0800,3324A,116.8136,38.3004,沧州市,河北水利电力学院,颗粒物(PM10),75,100,60,35,36,67,,71,71,35,18,5,5,0.9,0.7
2024-08-23T0800,2622A,97.1806,31.1273,昌都市,昌都监测站,,10,10,12,7,8,16,,23,23,14,12,6,5,0.6,0.5
2024-08-23T0800,3719A,97.1714,31.1406,昌都市,昌都会议中心,,11,11,11,7,6,23,,31,31,5,5,6,6,0.4,0.3
2024-08-23T0800,2690A,88.1236,43.8886,昌吉回族自治州,天山天池,,22,10,11,3,6,70,,67,67,3,4,13,15,0.4,0.4
2024-08-23T0800,2692A,87.2717,44.0297,昌吉回族自治州,新区政务中心,,46,46,41,25,15,25,,16,16,42,37,8,10,0.9,0.9
2024-08-23T0800,3613A,87.3095,44.0142,昌吉回族自治州,亚心广场,颗粒物(PM10),51,51,55,17,17,16,,13,13,60,48,5,7,0.8,0.7
2024-08-23T0800,1119A,125.3325,43.9166,长春市,食品厂,,,31,21,10,12,,,33,33,26,21,5,3,0.5,0.4
2024-08-23T0800,1120A,125.2863,43.9027,长春市,客车厂,,28,28,18,8,10,35,,38,38,30,18,7,6,0.6,0.5
2024-08-23T0800,1121A,125.2841,43.8463,长春市,邮电学院,,15,11,14,3,6,47,,33,33,24,12,7,6,0.5,0.4
2024-08-23T0800,1122A,125.3716,43.8772,长春市,劳动公园,,20,20,16,8,7,48,,49,49,27,16,9,7,0.7,0.6
2024-08-23T0800,1123A,125.3297,43.8805,长春市,园林处,,16,16,13,8,5,38,,42,42,30,13,4,3,0.6,0.5
2024-08-23T0800,1124A,125.4605,43.79,长春市,净月潭,,21,21,18,7,6,30,,16,16,18,9,6,5,0.4,0.4
2024-08-23T0800,1125A,125.7194,43.515,长春市,甩湾子,,,,,,,,,,,,,,,,
2024-08-23T0800,1126A,125.3863,43.8447,长春市,经开区环卫处,,,24,17,8,6,,,47,47,33,15,7,6,0.6,0.5
2024-08-23T0800,1127A,125.245,43.7783,长春市,高新区管委会,,24,24,18,12,11,41,,33,33,29,18,5,2,0.6,0.5
2024-08-23T0800,1128A,125.1761,43.8325,长春市,岱山公园,,22,22,14,3,6,38,,30,30,22,15,3,2,0.4,0.4
2024-08-23T0800,1335A,113.0833,28.2325,长沙市,经开区环保局,,,,32,,16,,,86,,,13,,2,,0.4
2024-08-23T0800,1336A,112.8872,28.2189,长沙市,高开区环保局,,26,26,31,15,16,37,,37,37,9,11,6,4,0.6,0.7
2024-08-23T0800,1337A,113.0792,28.2053,长沙市,马坡岭,,29,29,32,15,17,24,,19,19,10,10,5,4,0.5,0.5
2024-08-23T0800,1338A,112.9394,28.19,长沙市,湖南师范大学,,23,22,35,16,15,33,,34,34,9,11,7,5,0.6,0.6
2024-08-23T0800,1339A,113.0178,28.1322,长沙市,雨花区环保局,,26,26,30,15,16,34,,32,32,10,11,8,6,0.4,0.3
2024-08-23T0800,1340A,112.9792,28.2597,长沙市,伍家岭,,33,33,32,12,15,32,,28,28,7,10,7,4,0.7,0.6
2024-08-23T0800,1341A,113.0014,28.1944,长沙市,火车新站,,27,27,34,14,16,35,,32,32,9,10,8,6,0.5,0.5
2024-08-23T0800,1342A,112.9844,28.1178,长沙市,天心区环保局,,29,29,32,16,15,25,,31,31,14,12,5,4,1.0,0.8
2024-08-23T0800,1343A,112.8908,28.1308,长沙市,湖南中医药大学,,31,31,35,14,18,34,,18,18,8,18,7,6,0.6,0.5
2024-08-23T0800,1344A,112.9581,28.3611,长沙市,沙坪,,20,20,22,14,15,27,,22,22,10,12,9,8,0.6,0.7
2024-08-23T0800,1727A,113.1147,36.1547,长治市,清华站,颗粒物(PM10),68,85,40,27,20,57,,86,86,33,17,6,7,0.7,0.6
2024-08-23T0800,1728A,113.1031,36.1989,长治市,监测站,,50,50,41,19,19,80,,92,92,28,21,8,8,1.4,1
2024-08-23T0800,1730A,113.0886,36.2125,长治市,审计局,颗粒物(PM10),54,57,38,29,20,43,,86,86,50,22,5,6,0.9,0.7
2024-08-23T0800,1731A,113.0844,36.1856,长治市,长治八中,颗粒物(PM10),63,76,45,30,21,39,,90,90,40,17,6,7,0.8,0.7
2024-08-23T0800,2845A,113.1569,36.1911,长治市,德盛苑,,42,41,36,29,19,82,,132,132,17,9,8,9,1.3,1
2024-08-23T0800,3568A,113.06,36.0464,长治市,向阳小学,颗粒物(PM10),51,52,54,29,33,66,,110,110,24,13,8,10,0.6,0.6
2024-08-23T0800,3569A,112.8792,36.3144,长治市,屯留一中,颗粒物(PM10),51,52,49,31,27,49,,49,49,23,19,7,10,0.6,0.6
2024-08-23T0800,3570A,113.235,36.3489,长治市,潞城四中,,49,49,51,27,30,53,,58,58,25,19,6,7,1.2,1.1
2024-08-23T0800,1854A,111.6975,28.9703,常德市,市二中,,29,27,30,20,19,28,,49,49,18,7,10,8,0.5,0.5
2024-08-23T0800,1857A,111.7158,29.1456,常德市,白鹤山,,,,,,,,,,,,,,,,
2024-08-23T0800,3138A,111.7153,29.0289,常德市,武陵区永安,,27,27,29,13,16,44,,52,52,7,7,8,9,0.5,0.5
2024-08-23T0800,3139A,111.6892,28.9881,常德市,鼎城区玉霞,,41,41,29,24,21,30,,43,43,13,8,7,8,0.6,0.6
2024-08-23T0800,3140A,111.6625,29.0531,常德市,武陵区长庚,,24,24,28,15,18,40,,54,54,8,7,7,8,0.5,0.6
2024-08-23T0800,1196A,119.9633,31.762,常州市,市监测站,,,75,42,43,28,,,105,105,26,16,24,7,0.7,0.6
2024-08-23T0800,1200A,119.9468,31.7069,常州市,武进监测站,细颗粒物(PM2.5),62,53,35,44,27,91,,105,105,20,9,15,23,1.3,1.2
2024-08-23T0800,1201A,119.9255,31.9087,常州市,安家,细颗粒物(PM2.5),63,62,40,45,32,69,,71,71,28,22,5,5,0.9,0.8
2024-08-23T0800,3002A,119.9805,31.8174,常州市,行政中心,细颗粒物(PM2.5),69,62,37,50,30,92,,110,110,25,14,9,8,0.6,0.5
2024-08-23T0800,3003A,120.0522,31.7748,常州市,经开区,"颗粒物(PM10),细颗粒物(PM2.5)",54,58,38,38,25,105,,103,103,20,15,8,8,0.8,0.9
2024-08-23T0800,3010A,119.9025,31.7964,常州市,钟楼,细颗粒物(PM2.5),65,62,35,47,26,77,,100,100,32,14,7,6,0.9,0.8
2024-08-23T0800,3429A,119.8598,31.7066,常州市,武进经发区,颗粒物(PM10),60,70,45,39,28,75,,82,82,29,18,12,10,0.7,0.7
2024-08-23T0800,3430A,119.5826,31.7245,常州市,金坛城区,,43,43,32,27,23,56,,74,74,25,15,10,9,0.7,0.6
2024-08-23T0800,2220A,120.4318,41.5881,朝阳市,西梁,,,,,,,,,,,,,,,,
2024-08-23T0800,2221A,120.4521,41.5646,朝阳市,河畔小区,,19,19,18,7,8,22,,20,20,8,7,8,6,0.9,0.7
2024-08-23T0800,2222A,120.4176,41.5648,朝阳市,八里堡,,24,24,25,12,12,19,,13,13,13,16,9,6,1.4,0.7
2024-08-23T0800,2223A,120.3806,41.5969,朝阳市,农业园区,,16,16,14,3,6,17,,11,11,14,8,5,4,0.8,0.6
2024-08-23T0800,1705A,116.6367,23.6719,潮州市,西园路,,24,24,23,10,14,6,,12,12,7,12,3,4,0.3,0.3
2024-08-23T0800,3026A,116.6183,23.6608,潮州市,市政府,,27,27,29,10,13,12,,12,12,7,13,5,15,0.5,0.5
2024-08-23T0800,4036A,116.6461,23.6761,潮州市,金山,,21,21,26,10,17,7,,13,13,7,10,5,7,0.6,0.7
2024-08-23T0800,2472A,113.0073,25.9061,郴州市,马头岭,颗粒物(PM10),67,84,19,21,5,32,,23,23,12,6,8,7,0.6,0.4
2024-08-23T0800,2473A,113.0116,25.8226,郴州市,市职中,,17,17,12,3,7,28,,29,29,9,6,10,7,0.4,0.3
2024-08-23T0800,2474A,113.0161,25.8001,郴州市,兴隆步行街,,25,25,15,8,8,30,,33,33,13,8,8,6,0.4,0.3
2024-08-23T0800,2475A,113.0383,25.8071,郴州市,市审计局,,16,16,12,6,8,26,,29,29,11,8,4,3,0.4,0.4
2024-08-23T0800,2476A,113.0348,25.7759,郴州市,市环保局,,16,11,13,11,7,42,,43,43,9,8,5,3,0.3,0.3
2024-08-23T0800,1431A,103.9728,30.7236,成都市,金泉两河,细颗粒物(PM2.5),69,64,62,50,41,65,,92,92,18,12,8,4,0.7,0.7
2024-08-23T0800,1432A,104.176,30.6872,成都市,十里店,细颗粒物(PM2.5),79,88,72,58,47,46,,63,63,23,17,3,3,1.0,0.8
2024-08-23T0800,1433A,104.079,30.5706,成都市,三瓦窑,细颗粒物(PM2.5),93,78,64,69,47,30,,36,36,62,42,8,4,0.8,0.6
2024-08-23T0800,1434A,104.1114,30.63,成都市,沙河铺,细颗粒物(PM2.5),74,69,67,54,47,61,,78,78,31,23,10,8,0.7,0.7
2024-08-23T0800,1437A,104.0786,30.6531,成都市,君平街,细颗粒物(PM2.5),64,74,71,46,46,56,,85,85,33,23,11,8,0.9,0.7
2024-08-23T0800,1438A,103.613,31.0283,成都市,灵岩寺,,,,,,,,,,,,,,,,
2024-08-23T0800,2880A,104.0239,30.65639,成都市,大石西路,细颗粒物(PM2.5),82,76,66,60,49,43,,65,65,32,20,6,7,0.8,0.7
2024-08-23T0800,3136A,104.2725,30.5589,成都市,龙泉驿区区政府,细颗粒物(PM2.5),58,61,49,41,34,60,,110,110,31,13,8,6,0.8,0.7
2024-08-23T0800,3357A,104.0106,30.6931,成都市,金博路,颗粒物(PM10),65,80,67,46,43,36,,64,64,25,11,2,2,1.0,0.9
2024-08-23T0800,3359A,104.0578,30.5225,成都市,华阳,细颗粒物(PM2.5),77,78,62,56,40,49,,68,68,32,21,2,3,0.9,0.8
2024-08-23T0800,3487A,104.2394,30.5319,成都市,车城东七路,细颗粒物(PM2.5),99,97,66,74,50,37,,84,84,46,18,8,5,1.0,0.7
2024-08-23T0800,3488A,104.3853,30.7453,成都市,青白江技师分院,细颗粒物(PM2.5),58,54,48,41,37,24,,49,49,58,26,2,2,1.1,0.9
2024-08-23T0800,3489A,104.0789,30.4072,成都市,科学城,细颗粒物(PM2.5),82,76,62,60,48,34,,47,47,28,15,4,4,0.8,0.6
2024-08-23T0800,4011A,103.8506,30.6947,成都市,光华大道三段,细颗粒物(PM2.5),59,62,63,42,38,83,,103,103,18,14,4,2,0.7,0.7
2024-08-23T0800,1062A,117.9531,40.9081,承德市,铁路,,37,37,26,3,10,7,,10,10,21,16,8,8,0.3,0.3
2024-08-23T0800,1063A,117.9392,40.9763,承德市,中国银行,,40,40,27,12,10,10,,7,7,16,14,4,4,0.4,0.4
2024-08-23T0800,1064A,117.9503,40.928,承德市,开发区,,31,31,27,10,9,6,,6,6,19,15,6,6,0.5,0.4
2024-08-23T0800,1065A,117.8051,40.9655,承德市,文化中心,,29,29,30,3,9,10,,5,5,18,19,6,7,0.4,0.3
2024-08-23T0800,1066A,117.9268,41.0026,承德市,离宫,,15,15,28,3,6,2,,1,1,8,8,2,2,0.3,0.4
2024-08-23T0800,2314A,117.47,30.6618,池州市,池州学院,,33,33,35,22,23,57,,51,51,14,8,5,5,0.9,0.8
2024-08-23T0800,3237A,117.4918,30.6617,池州市,展览馆,,34,34,35,21,21,61,,58,58,10,6,4,5,1.1,0.9
2024-08-23T0800,3333A,117.5627,30.695,池州市,第八中学,,32,32,33,18,20,40,,35,35,12,12,4,4,0.9,0.7
2024-08-23T0800,3334A,117.5038,30.6243,池州市,第十二中学,,41,41,34,21,22,41,,38,38,25,11,5,4,1.6,1.1
2024-08-23T0800,1744A,118.9233,42.2816,赤峰市,松山一中,,15,15,14,3,3,15,,12,12,20,18,10,10,0.8,0.7
2024-08-23T0800,1745A,118.9576,42.2728,赤峰市,哈达街,,10,10,12,6,7,17,,17,17,13,12,9,9,0.5,0.5
2024-08-23T0800,1746A,118.8788,42.2554,赤峰市,天义路,,19,16,14,13,9,18,,17,17,20,16,10,8,0.4,0.4
2024-08-23T0800,3058A,119.2658,42.0353,赤峰市,银河街,,29,29,18,15,8,15,,8,8,12,12,17,13,0.6,0.5
2024-08-23T0800,3286A,118.9359,42.3147,赤峰市,桥北物流园区,,27,27,17,3,8,10,,6,6,16,17,7,7,0.8,0.6
2024-08-23T0800,2521A,107.3476,22.4136,崇左市,市环保局江州分局,,10,10,24,3,8,22,,16,16,6,7,5,6,0.5,0.6
2024-08-23T0800,2522A,107.3702,22.3707,崇左市,城南新区,,12,12,13,3,8,27,,24,24,6,5,4,3,0.4,0.5
2024-08-23T0800,2298A,118.3093,32.3153,滁州市,老年大学,,,,34,,24,65,,72,72,16,8,14,8,0.5,0.4
2024-08-23T0800,2299A,118.3244,32.2786,滁州市,人大宾馆,,44,44,41,26,24,66,,68,68,17,12,5,6,0.6,0.5
2024-08-23T0800,3207A,118.3118,32.3038,滁州市,市政府原办公楼,,43,37,34,30,29,59,,66,66,19,10,14,8,0.6,0.6
2024-08-23T0800,3331A,118.3267,32.2634,滁州市,图书馆,,48,48,40,24,22,62,,66,66,18,10,11,5,0.4,0.4
2024-08-23T0800,2605A,101.5482,25.0441,楚雄彝族自治州,州环境监测站,,8,6,16,3,11,24,,32,32,5,6,4,4,0.4,0.5
2024-08-23T0800,2606A,101.538,25.0492,楚雄彝族自治州,市经济开发区,,7,6,22,3,12,20,,31,31,10,7,5,5,0.5,0.6
2024-08-23T0800,2548A,107.5277,31.2827,达州市,达州职业技术学院,颗粒物(PM10),60,69,51,32,27,19,,15,15,46,34,12,7,0.9,0.8
2024-08-23T0800,2549A,107.5086,31.2186,达州市,市环境监测站,颗粒物(PM10),57,63,46,36,24,14,,25,25,43,26,12,8,0.7,0.6
2024-08-23T0800,2550A,107.4988,31.2132,达州市,凤凰小区,颗粒物(PM10),60,70,42,41,27,27,,34,34,34,23,14,9,0.7,0.6
2024-08-23T0800,2551A,107.5082,31.1986,达州市,达县机关宾馆,颗粒物(PM10),51,51,45,18,21,35,,40,40,33,27,12,7,0.5,0.4
2024-08-23T0800,2552A,107.4644,31.2124,达州市,市政中心,颗粒物(PM10),59,68,58,36,30,28,,33,33,32,26,9,6,0.9,0.7
2024-08-23T0800,2614A,100.1542,25.7054,大理白族自治州,大理市环境监测站,,26,26,30,16,16,18,,55,55,27,12,4,4,0.9,0.6
2024-08-23T0800,2615A,100.2171,25.5811,大理白族自治州,大理古城,,22,22,28,6,17,42,,51,51,12,11,8,7,0.8,0.7
2024-08-23T0800,1109A,121.612,38.9741,大连市,甘井子,,17,15,28,9,25,54,,62,62,14,18,6,7,0.4,0.6
2024-08-23T0800,1110A,121.565,38.9511,大连市,周水子,,,19,27,12,22,,,49,49,20,21,8,7,0.6,0.9
2024-08-23T0800,1111A,121.5637,38.8845,大连市,星海三站,,20,20,28,14,24,50,,67,67,13,9,6,8,0.4,0.6
2024-08-23T0800,1112A,121.6302,38.9117,大连市,青泥洼桥,,25,19,35,17,26,39,,60,60,23,12,8,7,0.6,0.9
2024-08-23T0800,1113A,121.6251,38.8638,大连市,傅家庄,,23,19,26,16,27,52,,70,70,16,11,8,8,0.5,0.8
2024-08-23T0800,1114A,121.5213,38.8661,大连市,七贤岭,,18,14,30,12,24,56,,68,68,9,8,8,8,0.4,0.6
2024-08-23T0800,1115A,121.2529,38.8061,大连市,旅顺,,29,25,23,20,21,54,,78,78,11,13,10,9,0.6,0.7
2024-08-23T0800,1116A,121.7485,39.1311,大连市,金州,,15,15,26,10,23,39,,42,42,14,10,6,7,0.4,0.7
2024-08-23T0800,1117A,121.7811,39.0496,大连市,开发区,,20,20,31,9,25,52,,60,60,9,9,8,10,0.4,0.7
2024-08-23T0800,1118A,121.9762,39.0631,大连市,双D港,,26,26,32,14,26,44,,52,52,15,13,8,7,0.5,0.8
2024-08-23T0800,1789A,124.81117,46.03138,大庆市,大同区,,40,40,21,25,17,43,,30,30,17,9,11,9,0.4,0.3
2024-08-23T0800,1790A,125.129,46.533,大庆市,龙凤区,,36,36,32,21,13,63,,41,41,14,13,4,4,0.4,0.4
2024-08-23T0800,1791A,124.902,46.408,大庆市,红岗区,,23,23,27,13,15,46,,29,29,24,14,10,8,0.5,0.4
2024-08-23T0800,1792A,125.153,46.586,大庆市,萨尔图区,,40,,16,28,9,50,,54,54,26,9,6,6,0.3,0.2
2024-08-23T0800,1793A,124.9042,46.6215,大庆市,让胡路区,,22,22,24,14,12,37,,18,18,31,17,6,6,0.4,0.2
2024-08-23T0800,3481A,125.141,46.634,大庆市,萨区政府监测点,,28,28,24,16,10,28,,42,42,35,10,7,7,0.3,0.2
2024-08-23T0800,1721A,113.3819,40.1097,大同市,果树场,,,,,,,,,,,,,,,,
2024-08-23T0800,1723A,113.2994,40.0758,大同市,云冈宾馆,,49,49,40,26,15,33,,31,31,21,25,11,10,0.9,0.6
2024-08-23T0800,1724A,113.3444,40.0917,大同市,大同大学,,39,39,29,19,14,26,,34,34,35,22,16,10,0.6,0.5
2024-08-23T0800,1725A,113.2661,40.1269,大同市,安家小村,颗粒物(PM10),64,78,46,15,11,30,,18,18,35,22,17,11,1.4,0.7
2024-08-23T0800,1726A,113.2711,40.0844,大同市,教育学院,颗粒物(PM10),61,71,50,24,18,21,,18,18,36,34,17,14,1.6,0.8
2024-08-23T0800,3282A,113.3397,40.0597,大同市,大同市卫生学校,,,20,37,,17,,,28,28,31,26,14,10,0.8,0.7
2024-08-23T0800,3565A,113.1367,40.1122,大同市,云冈站,颗粒物(PM10),51,52,42,22,17,13,,7,7,32,26,16,12,0.7,0.6
2024-08-23T0800,3566A,113.1186,40.2556,大同市,图书馆,,20,17,22,14,13,25,,20,20,13,11,8,11,0.4,0.4
2024-08-23T0800,3567A,113.5931,40.0461,大同市,区一中,,32,32,24,8,10,44,,54,54,18,12,7,8,0.5,0.5
2024-08-23T0800,3676A,113.2802,40.0995,大同市,第二人民医院,颗粒物(PM10),53,56,40,19,16,23,,22,22,28,24,15,12,1.2,0.6
2024-08-23T0800,2269A,124.1069,50.4097,大兴安岭地区,科技局,,35,,22,24,18,59,,55,55,3,4,1,2,0.2,0.2
2024-08-23T0800,3663A,124.1164,50.4278,大兴安岭地区,红旗社区,,17,,12,10,13,53,,50,50,2,3,5,6,0.3,0.3
2024-08-23T0800,1600A,124.3303,40.0625,丹东市,江湾东路,,18,18,10,12,8,43,,19,19,11,12,4,6,0.9,0.8
2024-08-23T0800,1601A,124.4256,40.1503,丹东市,临江后街,,18,18,10,9,5,47,,25,25,13,11,6,5,1.0,0.7
2024-08-23T0800,1602A,124.3933,40.1461,丹东市,元宝山,,22,22,13,10,6,38,,25,25,5,5,2,2,0.8,0.6
2024-08-23T0800,1603A,124.3633,40.1092,丹东市,民主桥,,18,18,13,10,6,41,,20,20,15,18,2,2,0.8,0.6
2024-08-23T0800,3541A,109.5726,19.5167,儋州市,第一中学子站,,19,19,16,10,10,34,,27,27,4,4,4,4,0.5,0.5
2024-08-23T0800,3542A,109.5567,19.5187,儋州市,东坡学校子站,,16,16,16,11,11,32,,28,28,6,3,4,2,0.6,0.6
2024-08-23T0800,2616A,98.5842,24.428,德宏傣族景颇族自治州,德宏州监测站,,23,23,20,8,12,7,,13,13,8,10,8,18,0.7,0.6
2024-08-23T0800,3677A,98.5881,24.4368,德宏傣族景颇族自治州,芒市人民政府综合楼,,30,30,49,3,10,4,,10,10,10,12,8,12,0.8,0.8
2024-08-23T0800,1901A,104.4239,31.1208,德阳市,东山公园,,43,42,48,30,29,76,,83,83,15,15,4,4,0.7,0.7
2024-08-23T0800,1902A,104.3826,31.1317,德阳市,西小区,,45,45,49,30,35,73,,80,80,18,15,4,10,0.8,0.8
2024-08-23T0800,1904A,104.3553,31.1091,德阳市,耐火材料厂,颗粒物(PM10),52,54,56,28,34,70,,74,74,20,13,4,11,0.7,0.7
2024-08-23T0800,3639A,104.4019,31.1244,德阳市,市教育局,,48,48,52,25,31,68,,77,77,21,15,3,3,0.8,0.7
2024-08-23T0800,1622A,116.3032,37.4674,德州市,儿童乐园,颗粒物(PM10),57,63,50,34,28,99,,95,95,24,13,10,10,0.7,0.7
2024-08-23T0800,1624A,116.2991,37.4451,德州市,监理站,颗粒物(PM10),58,66,50,34,28,79,,85,85,22,11,10,9,0.7,0.7
2024-08-23T0800,3066A,116.2721,37.4379,德州市,九衢泉纯净水厂,颗粒物(PM10),71,92,53,44,31,74,,67,67,31,15,9,8,0.8,0.8
2024-08-23T0800,3371A,116.3728,37.4403,德州市,开发区人民医院,颗粒物(PM10),59,68,54,39,29,39,,59,59,40,32,8,10,1.0,0.8
2024-08-23T0800,3372A,116.3572,37.4094,德州市,太阳城中学,,,,50,,31,,,130,,,21,,10,,0.8
2024-08-23T0800,3511A,116.5652,37.3319,德州市,陵城艺术中心,颗粒物(PM10),58,66,50,29,23,90,,92,92,24,16,14,9,1.0,0.8
2024-08-23T0800,2621A,99.7056,27.8317,迪庆藏族自治州,迪庆州站,,26,26,26,18,16,25,,42,42,12,12,10,10,0.5,0.4
2024-08-23T0800,3180A,99.7136,27.8094,迪庆藏族自治州,质量技术监督局,,36,36,27,20,13,22,,47,47,18,14,8,10,0.7,0.5
2024-08-23T0800,2663A,104.6241,35.5734,定西市,东关小学,,46,44,35,32,24,35,,40,40,20,13,2,2,0.3,0.2
2024-08-23T0800,2664A,104.6194,35.5934,定西市,供电公司,,46,46,42,32,29,21,,42,42,30,12,6,6,0.5,0.2
2024-08-23T0800,1389A,113.7547,23.0494,东莞市,莞城梨川,细颗粒物(PM2.5),57,58,36,40,23,8,,5,5,42,40,7,6,1.0,0.9
2024-08-23T0800,1390A,113.7944,23.0128,东莞市,东城石井,,,51,29,44,15,,,,,38,32,6,4,,0.7
2024-08-23T0800,1391A,113.7383,22.9658,东莞市,南城西平,,49,49,31,26,15,9,,5,5,30,32,2,2,0.7,0.6
2024-08-23T0800,3319A,113.7338,23.0381,东莞市,万江金泰,细颗粒物(PM2.5),52,52,32,36,22,3,,1,1,42,38,7,6,1.1,0.9
2024-08-23T0800,3626A,113.7533,23.0202,东莞市,南城元岭,,50,50,32,34,20,4,,2,2,34,31,8,7,1.0,0.8
2024-08-23T0800,3627A,113.7875,23.0457,东莞市,东城主山,,48,48,38,29,22,6,,2,2,36,37,8,8,0.7,0.7
2024-08-23T0800,1666A,118.6614,37.4309,东营市,市环保局,"颗粒物(PM10),细颗粒物(PM2.5)",64,78,51,46,30,103,,82,82,42,22,11,8,0.7,0.4
2024-08-23T0800,3036A,118.6904,37.4338,东营市,开发区管委会,细颗粒物(PM2.5),70,88,60,51,30,84,,58,58,45,25,10,8,0.5,0.3
2024-08-23T0800,3365A,118.5719,37.565,东营市,垦利区民丰路,颗粒物(PM10),63,75,50,44,30,72,,55,55,33,15,8,7,0.7,0.4
2024-08-23T0800,3498A,118.5055,37.8612,东营市,河口城区,细颗粒物(PM2.5),62,66,38,44,24,75,,60,60,15,8,7,5,1.1,0.9
2024-08-23T0800,3646A,118.4978,37.4623,东营市,胜利站,细颗粒物(PM2.5),62,56,45,44,28,89,,66,66,56,26,10,8,1.1,0.7
2024-08-23T0800,3734A,118.35,37.26,东营市,理想之城,细颗粒物(PM2.5),70,88,48,51,34,65,,39,39,42,24,8,6,0.7,0.4
2024-08-23T0800,1591A,110.0023,39.8129,鄂尔多斯市,综合楼,颗粒物(PM10),69,88,67,27,18,61,,69,69,46,41,20,14,0.9,0.7
2024-08-23T0800,1592A,109.9486,39.8261,鄂尔多斯市,巴音孟克林场办事处,颗粒物(PM10),65,80,59,29,23,62,,50,50,40,38,13,10,0.8,0.7
2024-08-23T0800,1593A,109.7736,39.5986,鄂尔多斯市,康泽苑,颗粒物(PM10),62,73,50,24,17,31,,34,34,22,23,6,7,0.9,0.7
2024-08-23T0800,1594A,109.8119,39.5989,鄂尔多斯市,华泰汽车城,颗粒物(PM10),63,75,48,34,24,16,,20,20,37,33,8,9,0.7,0.6
2024-08-23T0800,1595A,109.9734,39.7884,鄂尔多斯市,奥林花园,颗粒物(PM10),68,85,60,34,22,18,,32,32,59,41,8,7,1.1,0.7
2024-08-23T0800,2436A,114.8938,30.3994,鄂州市,市政府,,48,48,44,14,18,69,,79,79,8,6,3,3,0.7,0.8
2024-08-23T0800,2437A,114.8989,30.3714,鄂州市,赵家坝,,47,47,43,19,18,54,,64,64,16,14,10,10,0.7,0.5
2024-08-23T0800,3654A,114.8094,30.4089,鄂州市,精准医疗中心,颗粒物(PM10),52,53,41,18,20,45,,54,54,39,16,20,13,3.4,1.2
2024-08-23T0800,2454A,109.4978,30.2981,恩施土家族苗族自治州,湖北民院,,28,28,26,18,22,33,,40,40,21,17,8,8,0.6,0.6
2024-08-23T0800,2455A,109.4707,30.2798,恩施土家族苗族自治州,州电力总公司,,32,31,26,22,21,21,,23,23,24,18,7,7,0.7,0.7
2024-08-23T0800,3549A,109.5061,30.3772,恩施土家族苗族自治州,龙凤新区,,22,19,25,15,19,33,,40,40,6,8,6,6,0.6,0.7
2024-08-23T0800,2499A,108.3411,21.6158,防城港市,沙万,,11,,17,7,9,35,,23,23,13,14,7,11,0.6,0.8
2024-08-23T0800,2500A,108.3514,21.7731,防城港市,防城档案局,,13,11,18,9,10,34,,12,12,6,11,6,6,0.6,0.7
2024-08-23T0800,2501A,108.3506,21.6414,防城港市,大海花园,,12,,14,6,7,38,,23,23,10,13,5,6,0.5,0.6
2024-08-23T0800,1371A,113.1294,23.0067,佛山市,湾梁,,36,36,24,18,17,6,,4,4,37,28,8,7,0.8,0.7
2024-08-23T0800,1372A,113.1083,23.0478,佛山市,华材职中,,31,31,22,13,11,6,,3,3,34,29,6,6,0.6,0.4
2024-08-23T0800,1373A,113.144,23.0453,佛山市,南海气象局,,36,36,27,16,14,5,,2,2,32,25,6,5,0.8,0.6
2024-08-23T0800,1374A,113.2881,22.8094,佛山市,顺德苏岗,颗粒物(PM10),51,51,22,24,11,1,,0,0,36,27,8,7,1.0,0.7
2024-08-23T0800,1376A,112.8383,22.8678,佛山市,高明孔堂,,32,32,23,10,10,9,,4,4,14,15,7,6,0.6,0.5
2024-08-23T0800,1377A,112.8836,23.1588,佛山市,三水监测站,,,39,28,18,15,5,,3,3,36,33,,5,0.7,0.6
2024-08-23T0800,1378A,112.867,23.185,佛山市,三水云东海,,50,50,30,25,17,1,,0,0,32,29,11,10,0.7,0.6
2024-08-23T0800,3625A,113.2544,22.7642,佛山市,容桂街道办,,39,39,23,27,15,3,,2,2,38,33,6,6,1.1,0.8
2024-08-23T0800,1280A,119.3903,26.0543,福州市,鼓山,,,,,,,,,,,,,,,,
2024-08-23T0800,1282A,119.2681,26.0504,福州市,师大,,37,37,28,12,5,14,,10,10,10,15,4,4,0.5,0.4
2024-08-23T0800,1283A,119.2984,26.1028,福州市,五四北路,,,,,14,11,22,,18,18,13,17,4,3,0.5,0.4
2024-08-23T0800,1284A,119.2648,26.0768,福州市,杨桥西路,,34,34,29,12,9,16,,10,10,11,16,4,3,0.5,0.5
2024-08-23T0800,1285A,119.317,26.0746,福州市,紫阳,,38,38,27,12,10,12,,,,15,20,6,6,0.5,0.5
2024-08-23T0800,3048A,119.5799,26.0936,福州市,九龙,,32,32,25,13,10,13,,10,10,13,12,6,6,0.4,0.4
2024-08-23T0800,3526A,119.5189,25.9664,福州市,吴航,,34,34,23,15,12,10,,6,6,14,13,6,6,0.7,0.6
2024-08-23T0800,1755A,123.7977,41.8491,抚顺市,望花区,,30,30,18,13,10,34,,23,23,10,6,8,6,0.5,0.4
2024-08-23T0800,1756A,123.9161,41.8822,抚顺市,顺城区,,40,40,22,14,11,19,,13,13,26,14,3,2,0.4,0.3
2024-08-23T0800,1757A,124.0436,41.8611,抚顺市,东洲区,,27,27,17,10,11,29,,29,29,14,8,4,5,0.4,0.4
2024-08-23T0800,1758A,123.9247,41.8642,抚顺市,新抚区,,34,34,17,17,10,22,,20,20,22,11,6,6,0.4,0.3
2024-08-23T0800,1759A,124.0972,41.8961,抚顺市,大伙房水库,,22,19,17,15,12,26,,25,25,7,8,4,3,0.6,0.6
2024-08-23T0800,1760A,123.7086,41.8391,抚顺市,沈抚新城,,17,17,20,8,10,36,,14,14,8,12,6,5,0.4,0.4
2024-08-23T0800,2376A,116.2127,28.0814,抚州市,桐源党溪,,31,31,30,13,13,28,,13,13,5,5,5,5,0.8,0.8
2024-08-23T0800,2377A,116.3544,27.9831,抚州市,市站,,29,29,27,14,13,33,,31,31,8,7,3,4,0.5,0.5
2024-08-23T0800,2378A,116.3565,27.963,抚州市,血防站,,29,29,28,13,12,26,,25,25,7,6,3,5,0.5,0.5
2024-08-23T0800,2379A,116.3564,28.0007,抚州市,采茶剧团,,,31,28,14,12,,,22,22,9,8,5,4,0.6,0.6
2024-08-23T0800,2380A,116.385,27.9647,抚州市,医学分院,,33,33,29,14,11,19,,17,17,10,11,4,5,0.9,0.8
2024-08-23T0800,2207A,121.6094,41.998,阜新市,工业园区,,24,24,19,13,9,21,,6,6,17,17,9,4,0.7,0.6
2024-08-23T0800,2208A,121.6697,42.0279,阜新市,长青街,,27,27,18,10,10,19,,5,5,16,12,5,5,0.6,0.6
2024-08-23T0800,2209A,121.6673,42.0705,阜新市,农业园区,,18,18,16,7,3,22,,24,24,15,8,3,2,0.5,0.5
2024-08-23T0800,2210A,121.6717,42.0224,阜新市,东苑,,18,18,18,10,7,27,,13,13,16,15,9,7,0.4,0.5
2024-08-23T0800,2211A,121.6506,42.0498,阜新市,玉龙新城,,37,37,24,8,7,16,,7,7,14,13,5,4,0.6,0.6
2024-08-23T0800,2301A,115.8277,32.8929,阜阳市,市监测站,,,51,34,21,19,,,88,88,18,10,8,6,0.6,0.5
2024-08-23T0800,2303A,115.8554,32.8605,阜阳市,开发区,,39,39,37,22,17,66,,87,87,21,11,7,6,0.5,0.5
2024-08-23T0800,2875A,115.784,32.8892,阜阳市,阜阳职业技术学院,,,39,32,16,18,77,,92,92,,9,8,6,0.5,0.5
2024-08-23T0800,3468A,115.7901,32.8613,阜阳市,市规划展馆,,44,44,38,25,23,63,,82,82,20,11,8,6,0.7,0.6
2024-08-23T0800,3469A,115.836,32.9183,阜阳市,枣园社区,颗粒物(PM10),51,52,37,27,22,59,,91,91,25,12,6,5,0.7,0.6
2024-08-23T0800,2669A,102.9099,34.9841,甘南藏族自治州,州政府,,27,27,24,17,17,22,,41,41,19,8,7,8,0.5,0.4
2024-08-23T0800,3380A,102.8914,34.9617,甘南藏族自治州,甘肃民族师范学院,颗粒物(PM10),52,54,26,18,12,9,,35,35,29,11,5,4,0.5,0.5
2024-08-23T0800,2570A,101.9603,30.0475,甘孜藏族自治州,水桥子,,29,29,25,16,16,16,,29,29,27,15,5,4,0.4,0.3
2024-08-23T0800,3065A,101.9533,29.9972,甘孜藏族自治州,州环保局,,34,34,26,18,10,10,,28,28,36,19,3,2,0.3,0.3
2024-08-23T0800,3414A,115.8347,28.932,赣江新区,桑海产业园,,36,36,35,12,17,25,,19,19,24,21,14,11,0.4,0.2
2024-08-23T0800,2362A,114.9017,25.9149,赣州市,通天岩,,,,,,,,,,,,,,,,
2024-08-23T0800,2363A,114.9367,25.8664,赣州市,地委,,38,38,24,13,13,20,,20,20,12,11,6,5,0.9,0.9
2024-08-23T0800,2364A,114.9461,25.8481,赣州市,气象台,,24,24,23,16,12,28,,29,29,16,9,15,13,0.4,0.5
2024-08-23T0800,2365A,114.9322,25.8333,赣州市,市图书馆,,21,21,20,12,11,50,,53,53,7,6,4,4,0.7,0.7
2024-08-23T0800,2366A,114.8905,25.8471,赣州市,华坚鞋城,,26,26,23,9,10,34,,32,32,9,8,1,2,0.3,0.3
2024-08-23T0800,3109A,115.0093,25.8613,赣州市,赣县区卫计委,,31,31,24,13,11,29,,17,17,17,17,8,6,0.7,0.7
2024-08-23T0800,2683A,106.2319,36.1417,固原市,马园,颗粒物(PM10),56,61,62,33,19,22,,41,41,38,20,5,5,0.8,0.8
2024-08-23T0800,2684A,106.2792,36.0022,固原市,监测站,,42,35,33,29,25,37,,62,62,27,10,10,5,0.4,0.3
2024-08-23T0800,2685A,106.2375,36.0211,固原市,新区,,42,30,33,29,25,51,,69,69,22,9,7,6,0.5,0.5
2024-08-23T0800,3522A,106.2177,35.9959,固原市,原州区十五小,,38,38,32,23,21,39,,68,68,36,11,9,8,0.8,0.7
2024-08-23T0800,2543A,106.6308,30.5278,广安市,小平旧居,,,,,,,,,,,,,,,,
2024-08-23T0800,2544A,106.6303,30.4576,广安市,市委,,46,45,38,32,26,51,,47,47,25,16,8,9,0.6,0.5
2024-08-23T0800,2545A,106.6271,30.4663,广安市,友谊中学,,50,50,36,35,24,48,,58,58,29,17,8,8,0.7,0.5
2024-08-23T0800,2547A,106.6388,30.4551,广安市,广电花园,颗粒物(PM10),58,66,39,33,24,32,,46,46,26,15,13,14,0.8,0.6
2024-08-23T0800,2902A,106.6351,30.4865,广安市,北辰小学,颗粒物(PM10),54,58,44,28,26,62,,60,60,15,14,9,10,0.6,0.4
2024-08-23T0800,2523A,105.8945,32.4535,广元市,黑石坡,颗粒物(PM10),51,51,34,31,25,47,,71,71,14,10,9,8,0.5,0.5
2024-08-23T0800,2524A,105.821,32.4444,广元市,老城,,36,36,31,23,15,19,,28,28,36,28,1,2,0.9,0.7
2024-08-23T0800,2526A,105.8628,32.4287,广元市,监测站,,40,28,31,28,19,38,,56,56,18,11,3,3,0.8,0.7
2024-08-23T0800,3617A,105.8047,32.4166,广元市,经开区,,49,49,44,33,32,16,,28,28,34,22,3,4,0.8,0.7
2024-08-23T0800,1345A,113.2347,23.1423,广州市,广雅中学,,32,32,18,15,10,6,,4,4,43,35,6,5,0.8,0.6
2024-08-23T0800,1346A,113.2612,23.105,广州市,市五中,,41,41,29,24,24,8,,6,6,42,34,5,4,0.9,0.7
2024-08-23T0800,1348A,113.3478,23.0916,广州市,广东商学院,,49,49,31,32,20,5,,4,4,39,34,5,4,0.9,0.7
2024-08-23T0800,1349A,113.4332,23.1047,广州市,市八十六中,,42,42,29,23,17,6,,5,5,39,40,6,5,1.0,0.7
2024-08-23T0800,1350A,113.3505,22.9483,广州市,番禺中学,,40,40,24,26,18,7,,6,6,41,33,5,5,0.8,0.5
2024-08-23T0800,1351A,113.2146,23.3916,广州市,花都师范,,31,31,22,14,10,6,,4,4,37,37,7,6,0.6,0.5
2024-08-23T0800,1352A,113.2597,23.1331,广州市,市监测站,,39,39,26,25,14,9,,4,4,40,31,6,5,0.8,0.5
2024-08-23T0800,1353A,113.5618,23.312,广州市,九龙镇镇龙,,21,21,22,12,15,6,,8,8,20,24,6,6,0.6,0.6
2024-08-23T0800,1354A,113.2765,23.1544,广州市,麓湖,,36,36,26,21,14,3,,2,2,35,30,5,4,1.0,0.8
2024-08-23T0800,1355A,113.443,23.3035,广州市,帽峰山森林公园,,21,21,18,14,9,13,,8,8,16,17,3,3,0.5,0.4
2024-08-23T0800,2846A,113.3221,23.1322,广州市,体育西,,40,40,28,28,17,4,,3,3,31,27,7,5,1.1,0.8
2024-08-23T0800,3298A,113.5717,23.5491,广州市,从化街口,,24,24,22,11,14,13,,8,8,11,18,7,7,0.8,0.7
2024-08-23T0800,3299A,113.3472,23.3692,广州市,白云竹料,,28,28,25,14,14,8,,5,5,23,27,4,4,0.8,0.7
2024-08-23T0800,3300A,113.2981,23.237,广州市,白云嘉禾,,46,46,29,25,14,7,,4,4,42,36,6,5,0.9,0.8
2024-08-23T0800,3301A,113.4256,23.1716,广州市,黄埔科学城,,39,39,28,22,15,6,,4,4,34,34,7,6,0.9,0.7
2024-08-23T0800,3302A,113.3942,23.0483,广州市,番禺大学城,,36,31,24,25,15,1,,0,0,34,34,7,6,0.9,0.7
2024-08-23T0800,3303A,113.4922,22.8168,广州市,南沙黄阁,,46,46,28,31,17,9,,5,5,32,34,5,5,1.1,0.8
2024-08-23T0800,3304A,113.5342,22.7896,广州市,南沙街,,30,30,25,16,13,10,,4,4,18,24,5,5,0.7,0.7
2024-08-23T0800,3443A,113.2902,23.5544,广州市,花都梯面,,38,38,22,18,11,6,,6,6,26,22,4,4,0.7,0.6
2024-08-23T0800,3445A,113.7858,23.7478,广州市,从化良口,,16,16,18,6,8,13,,9,9,8,12,5,5,0.7,0.7
2024-08-23T0800,3446A,113.8051,23.2614,广州市,增城荔城,,22,22,25,12,14,12,,13,13,16,18,7,6,0.6,0.6
2024-08-23T0800,2505A,109.568,23.1478,贵港市,德智高中,,,,,,,,,,,,,,,,
2024-08-23T0800,2506A,109.6047,23.0666,贵港市,江南子站,颗粒物(PM10),78,105,41,36,16,9,,18,18,27,14,12,9,1.0,0.7
2024-08-23T0800,2507A,109.6014,23.0948,贵港市,贵城子站,,43,43,33,24,18,11,,22,22,23,13,11,8,1.3,0.7
2024-08-23T0800,2508A,109.5669,23.1065,贵港市,荷城子站,,39,39,26,12,9,18,,30,30,19,10,13,10,0.8,0.5
2024-08-23T0800,3405A,109.5886,23.1172,贵港市,新世纪学校,,36,36,30,15,13,18,,25,25,14,10,9,10,0.6,0.6
2024-08-23T0800,1439A,106.6899,26.5998,贵阳市,马鞍山,,11,6,10,3,0,33,,39,39,8,6,4,4,0.3,0.3
2024-08-23T0800,1440A,106.6971,26.5694,贵阳市,市环保站,,12,,21,8,13,32,,39,39,11,12,5,5,0.2,0.2
2024-08-23T0800,1441A,106.6243,26.6266,贵阳市,鉴湖路,,11,9,15,3,5,34,,39,39,5,5,5,6,0.4,0.4
2024-08-23T0800,1442A,106.7487,26.6343,贵阳市,燕子冲,,13,,6,9,9,32,,38,38,10,8,8,8,0.5,0.5
2024-08-23T0800,1443A,106.6555,26.4365,贵阳市,碧云窝,,,,19,,5,,,65,,,5,,6,,0.3
2024-08-23T0800,1444A,106.694,26.5161,贵阳市,中院村,,24,24,22,3,8,22,,32,32,18,11,12,8,0.4,0.4
2024-08-23T0800,1445A,106.7109,26.6027,贵阳市,红边门,,14,14,19,9,15,26,,34,34,16,13,6,6,0.3,0.4
2024-08-23T0800,1446A,106.7164,26.5699,贵阳市,新华路,,22,22,18,3,8,27,,33,33,14,11,7,6,0.5,0.4
2024-08-23T0800,1447A,106.674,26.5424,贵阳市,太慈桥,,11,6,14,3,4,33,,37,37,7,7,4,6,0.3,0.4
2024-08-23T0800,1552A,106.805,26.3003,贵阳市,桐木岭,,,,,,,,,,,,,,,,
2024-08-23T0800,1862A,110.4144,25.3167,桂林市,电子科大尧山校区,,38,38,22,20,8,20,,16,16,7,5,31,6,0.5,0.5
2024-08-23T0800,1863A,110.2819,25.2697,桂林市,监测站,,18,,18,12,11,17,,24,24,16,10,6,6,0.5,0.5
2024-08-23T0800,1864A,110.3089,25.2708,桂林市,龙隐路小学,,,14,15,,12,24,,28,28,9,6,6,6,0.3,0.3
2024-08-23T0800,1865A,110.2869,25.2178,桂林市,八中,,14,14,15,3,4,17,,13,13,12,10,5,6,0.6,0.5
2024-08-23T0800,3403A,110.1764,25.2381,桂林市,创业大厦,,22,22,14,14,11,8,,12,12,25,11,7,6,0.3,0.3
2024-08-23T0800,3531A,110.296,25.1253,桂林市,旅游学院,,9,9,7,3,4,12,,22,22,13,7,6,6,0.3,0.3
2024-08-23T0800,2674A,100.2561,34.4714,果洛藏族自治州,玛沁县大武镇,,23,23,26,9,11,34,,49,49,11,4,5,5,0.5,0.4
2024-08-23T0800,1129A,126.5422,45.755,哈尔滨市,岭北,,22,15,12,10,10,70,,57,57,10,10,10,9,0.1,0.3
2024-08-23T0800,1130A,126.561,45.8167,哈尔滨市,松北商大,,16,16,14,3,4,46,,30,30,15,16,8,7,0.5,0.5
2024-08-23T0800,1131A,126.979,45.5419,哈尔滨市,阿城会宁,,21,21,24,10,14,51,,37,37,13,16,8,7,1.2,0.8
2024-08-23T0800,1132A,126.599,45.7222,哈尔滨市,南岗学府路,,,17,22,6,6,,,46,46,11,9,7,6,0.4,0.4
2024-08-23T0800,1133A,126.689,45.7733,哈尔滨市,太平宏伟公园,,,8,17,3,7,,,45,45,13,13,2,2,0.4,0.4
2024-08-23T0800,1134A,126.635,45.7667,哈尔滨市,道外承德广场,,23,23,21,3,4,51,,44,44,17,14,11,11,0.5,0.4
2024-08-23T0800,1135A,126.685,45.7319,哈尔滨市,香坊红旗大街,,20,19,15,9,10,63,,52,52,12,12,4,3,0.5,0.6
2024-08-23T0800,1136A,126.6411,45.7258,哈尔滨市,动力和平路,,19,13,15,3,4,58,,45,45,15,14,6,6,0.5,0.4
2024-08-23T0800,1137A,126.593,45.7478,哈尔滨市,道里建国路,,17,9,16,3,6,54,,38,38,13,14,6,6,0.1,0.3
2024-08-23T0800,1138A,126.615,45.61,哈尔滨市,平房东轻厂,,19,9,24,7,8,59,,29,29,17,24,5,5,0.3,0.4
2024-08-23T0800,1139A,126.595,45.9855,哈尔滨市,呼兰师专,,16,13,11,3,5,50,,40,40,14,11,10,9,0.4,0.5
2024-08-23T0800,1140A,126.6206,45.6842,哈尔滨市,省农科院,,19,10,16,6,7,60,,42,42,12,15,6,5,0.5,0.4
2024-08-23T0800,2688A,93.5128,42.8172,哈密市,地区监测站,,43,43,52,11,16,71,,95,95,27,15,3,3,0.3,0.3
2024-08-23T0800,2689A,93.4961,42.8328,哈密市,哈密师范学校,颗粒物(PM10),86,122,40,21,14,18,,74,74,56,18,4,5,1.2,0.6
2024-08-23T0800,2671A,100.9048,36.9639,海北藏族自治州,海晏县西海镇,颗粒物(PM10),51,52,55,23,24,83,,118,118,22,9,17,19,0.6,0.6
2024-08-23T0800,3867A,102.0738,36.5056,海东市,平安区公安北苑,,40,39,63,28,26,70,,96,96,8,13,5,14,0.4,0.9
2024-08-23T0800,1409A,110.576,19.9507,海口市,东寨港,,,,,,,,,,,,,,,,
2024-08-23T0800,1410A,110.3232,20.0574,海口市,海南大学,,16,16,19,6,10,29,,29,29,7,8,6,6,0.4,0.3
2024-08-23T0800,1411A,110.283,20.0053,海口市,秀英海南医院,,14,14,21,7,11,19,,24,24,13,12,6,7,0.2,0.3
2024-08-23T0800,1412A,110.338,19.9969,海口市,海南师范大学,,16,16,20,8,11,21,,22,22,10,8,7,7,0.4,0.3
2024-08-23T0800,1413A,110.33,20.0356,海口市,龙华路环保局宿舍,,14,14,20,3,9,25,,26,26,8,7,7,7,0.2,0.3
2024-08-23T0800,3539A,110.5111,19.9736,海口市,桂林洋子站,,15,15,17,3,12,20,,22,22,6,6,6,6,0.2,0.3
2024-08-23T0800,2673A,100.6188,36.2866,海南藏族自治州,共和县恰卜恰镇,,47,47,57,28,28,103,,119,119,15,11,18,17,0.9,0.5
2024-08-23T0800,2676A,97.3731,37.3753,海西蒙古族藏族自治州,德令哈市,颗粒物(PM10),62,74,100,16,30,83,,70,70,9,9,9,9,0.6,0.4
2024-08-23T0800,1048A,114.5302,36.6116,邯郸市,东污水处理厂,颗粒物(PM10),75,99,70,48,35,48,,58,58,32,22,2,6,0.7,1.1
2024-08-23T0800,1049A,114.4918,36.5713,邯郸市,矿院,细颗粒物(PM2.5),79,99,64,58,35,40,,46,46,22,12,3,5,0.8,0.8
2024-08-23T0800,1050A,114.484,36.6133,邯郸市,丛台公园,,,85,52,49,33,48,,64,64,,10,13,11,2.1,1.1
2024-08-23T0800,3458A,114.7895,36.5593,邯郸市,香泉濮院小区,颗粒物(PM10),59,68,53,32,19,64,,94,94,17,11,3,3,0.5,0.7
2024-08-23T0800,3579A,114.50634,36.77178,邯郸市,永年区实验高中,颗粒物(PM10),73,96,70,42,34,58,,74,74,22,14,9,5,1.4,0.7
2024-08-23T0800,3580A,114.20016,36.44293,邯郸市,峰峰矿区临水派出所,,41,41,32,27,25,122,,133,133,4,5,10,8,0.9,0.7
2024-08-23T0800,2634A,106.9893,33.1842,汉中市,汉川机床厂子校,,25,23,33,17,19,31,,26,26,10,9,4,4,0.6,0.6
2024-08-23T0800,2635A,107.0154,33.0706,汉中市,市监测站,,44,44,44,28,26,31,,33,33,13,9,8,7,0.9,0.8
2024-08-23T0800,2636A,107.0089,33.1138,汉中市,鑫源开发区,,,37,41,,26,28,,35,35,15,12,9,9,0.6,0.6
2024-08-23T0800,2637A,107.007,33.0323,汉中市,南郑大河坎水厂,,35,35,37,23,24,34,,37,37,12,6,8,8,0.7,0.6
2024-08-23T0800,1223A,120.2072,30.2111,杭州市,滨江,,42,42,38,20,17,44,,33,33,23,17,5,4,0.8,0.7
2024-08-23T0800,1224A,120.0633,30.2747,杭州市,西溪,,32,29,22,22,19,50,,17,17,23,22,6,6,0.8,0.7
2024-08-23T0800,1226A,120.3461,30.3153,杭州市,下沙,,46,46,48,22,22,72,,54,54,19,27,6,6,0.9,0.8
2024-08-23T0800,1227A,120.1269,30.2456,杭州市,卧龙桥,,30,29,24,21,19,44,,22,22,18,16,7,5,0.7,0.7
2024-08-23T0800,1228A,120.1903,30.2692,杭州市,浙江农大,,32,31,26,22,20,36,,32,32,33,23,8,8,0.8,0.7
2024-08-23T0800,1230A,120.1197,30.3119,杭州市,和睦小学,,32,32,30,17,19,40,,31,31,29,20,6,6,0.7,0.7
2024-08-23T0800,1231A,120.3019,30.4183,杭州市,临平镇,,48,48,53,22,17,37,,43,43,40,26,5,5,0.9,0.8
2024-08-23T0800,1232A,120.2697,30.1819,杭州市,城厢镇,,38,38,39,26,22,50,,37,37,21,19,6,5,1.0,0.8
2024-08-23T0800,1233A,120.0883,30.1808,杭州市,云栖,,24,24,19,14,13,23,,6,6,24,24,8,8,0.8,0.7
2024-08-23T0800,3557A,119.9464,30.0494,杭州市,镇二中,,37,37,36,22,25,30,,24,24,24,28,8,8,1.0,0.9
2024-08-23T0800,3558A,119.7183,30.2367,杭州市,市府大楼,,32,32,26,22,18,27,,29,29,20,13,6,5,0.7,0.6
2024-08-23T0800,3656A,120.1556,30.2864,杭州市,消防大队,,35,35,32,22,21,53,,32,32,20,21,7,7,1.0,0.9
2024-08-23T0800,1270A,117.1959,31.7848,合肥市,明珠广场,,44,44,30,22,23,60,,60,60,24,14,7,6,0.6,0.5
2024-08-23T0800,1271A,117.3072,31.8764,合肥市,三里街,,44,44,33,22,20,44,,52,52,28,15,4,4,0.6,0.5
2024-08-23T0800,1272A,117.2588,31.8707,合肥市,琥珀山庄,,36,34,38,25,24,71,,72,72,17,9,6,6,0.5,0.5
2024-08-23T0800,1273A,117.1604,31.9052,合肥市,董铺水库,,29,29,33,17,22,69,,67,67,11,8,2,2,0.4,0.4
2024-08-23T0800,1274A,117.25,31.8571,合肥市,长江中路,,39,39,39,27,26,67,,69,69,19,10,8,7,0.7,0.7
2024-08-23T0800,1275A,117.266,31.9436,合肥市,庐阳区,,34,34,32,17,18,73,,74,74,20,11,4,4,0.5,0.5
2024-08-23T0800,1276A,117.336,31.8586,合肥市,瑶海区,颗粒物(PM10),91,132,40,32,22,53,,56,56,23,16,6,6,0.6,0.6
2024-08-23T0800,1277A,117.3027,31.7964,合肥市,包河区,,34,34,34,22,22,72,,62,62,12,10,6,6,0.6,0.5
2024-08-23T0800,1278A,117.2776,31.7385,合肥市,滨湖新区,,36,36,29,17,18,64,,69,69,14,9,8,7,0.7,0.6
2024-08-23T0800,1279A,117.1318,31.8403,合肥市,高新区,,38,36,32,26,23,65,,64,64,16,11,9,9,0.6,0.6
2024-08-23T0800,3464A,117.3803,31.9147,合肥市,高教基地,,39,39,32,16,22,58,,60,60,12,9,9,9,0.5,0.5
2024-08-23T0800,3614A,79.924,37.0877,和田地区,地区环保局,颗粒物(PM10),500,652,724,216,183,75,,75,75,2,4,6,6,0.4,0.5
2024-08-23T0800,3615A,79.9131,37.113,和田地区,市环保局,颗粒物(PM10),484,584,642,166,138,79,,80,80,2,6,7,7,0.7,0.6
2024-08-23T0800,2516A,108.2011,24.715,河池市,东仁乐园,,16,16,18,3,5,12,,8,8,8,9,3,5,0.6,0.6
2024-08-23T0800,2517A,108.0497,24.6947,河池市,市环保站,,25,25,19,9,11,15,,16,16,14,10,8,8,0.5,0.5
2024-08-23T0800,2518A,108.0983,24.6989,河池市,市疾控中心,,24,24,23,8,11,11,,7,7,14,16,8,8,0.6,0.6
2024-08-23T0800,1696A,114.6778,23.7569,河源市,源西,细颗粒物(PM2.5),68,,20,49,25,16,,12,12,17,21,4,4,0.7,0.6
2024-08-23T0800,1697A,114.6944,23.7586,河源市,东埔,,32,32,21,21,17,22,,20,20,19,21,2,2,0.7,0.6
2024-08-23T0800,1698A,114.6892,23.7233,河源市,老城,,33,33,27,15,16,20,,16,16,13,17,4,4,0.6,0.5
2024-08-23T0800,1718A,115.4208,35.2464,菏泽市,气象局,颗粒物(PM10),53,55,47,30,19,91,,88,88,19,15,8,5,0.4,0.3
2024-08-23T0800,1719A,115.4747,35.2375,菏泽市,市政协,颗粒物(PM10),54,57,45,33,22,75,,65,65,20,14,6,5,0.3,0.3
2024-08-23T0800,3374A,115.5564,35.0891,菏泽市,定陶老年大学,颗粒物(PM10),57,63,37,29,11,54,,54,54,28,16,6,6,0.6,0.4
2024-08-23T0800,3647A,115.4702,35.2706,菏泽市,菏泽医专,颗粒物(PM10),59,68,47,31,17,62,,68,68,31,19,4,6,0.6,0.5
2024-08-23T0800,2514A,111.5264,24.4172,贺州市,环保小区,,22,22,19,8,6,16,,24,24,14,11,8,8,0.5,0.5
2024-08-23T0800,2515A,111.5608,24.4078,贺州市,政协大楼,,28,28,23,18,10,14,,24,24,13,10,9,8,0.5,0.5
2024-08-23T0800,3534A,111.4744,24.4553,贺州市,西湾,,25,25,16,12,9,16,,20,20,13,13,8,7,0.5,0.5
2024-08-23T0800,2385A,114.17,35.9019,鹤壁市,市监测站,,49,49,45,28,28,86,,90,90,13,9,3,5,0.7,0.6
2024-08-23T0800,2386A,114.2956,35.7511,鹤壁市,市交警支队,颗粒物(PM10),56,61,58,39,35,57,,49,49,30,24,8,7,0.8,0.8
2024-08-23T0800,2387A,114.2878,35.7306,鹤壁市,迎宾馆,,46,46,52,15,33,71,,64,64,23,20,7,8,0.8,0.8
2024-08-23T0800,3474A,114.2617,35.6822,鹤壁市,大新区,,,54,58,,,49,,36,36,23,23,4,5,0.6,0.6
2024-08-23T0800,3596A,114.1572,35.9603,鹤壁市,南山宾馆,,23,20,30,12,18,73,,125,125,3,3,3,6,0.3,0.3
2024-08-23T0800,2244A,130.2537,47.3416,鹤岗市,哈啤分公司,,29,21,18,20,12,62,,54,54,3,6,12,13,0.4,0.4
2024-08-23T0800,2245A,130.2684,47.3086,鹤岗市,斯达机电,,27,27,20,13,9,70,,57,57,5,7,14,14,0.3,0.3
2024-08-23T0800,2246A,130.3114,47.3388,鹤岗市,东山纸板厂,,21,21,16,14,18,64,,57,57,3,6,16,16,0.3,0.4
2024-08-23T0800,2247A,130.1097,47.3382,鹤岗市,五号水库,,22,,10,7,8,69,,53,53,4,5,11,12,0.2,0.1
2024-08-23T0800,2263A,127.4833,50.2524,黑河市,交通局,,25,25,26,12,14,50,,40,40,9,11,6,8,0.4,0.4
2024-08-23T0800,2264A,127.5144,50.2341,黑河市,环保局,,22,22,21,12,14,47,,39,39,7,9,4,5,0.2,0.2
2024-08-23T0800,2265A,127.5291,50.2472,黑河市,大黑河岛,,,,13,24,15,,,,,13,10,1,2,,
2024-08-23T0800,1074A,115.6838,37.7541,衡水市,电机北厂,颗粒物(PM10),51,52,49,33,29,110,,60,60,13,14,5,6,0.4,0.7
2024-08-23T0800,1075A,115.6303,37.7316,衡水市,市监测站,颗粒物(PM10),57,64,54,35,29,99,,75,75,19,17,6,6,0.5,0.8
2024-08-23T0800,3188A,115.6683,37.7217,衡水市,市城管局,颗粒物(PM10),59,68,56,30,30,76,,48,48,26,19,5,4,0.5,0.8
2024-08-23T0800,3459A,115.5989,37.5491,衡水市,地表水厂,颗粒物(PM10),67,84,65,41,30,56,,28,28,14,21,4,6,0.6,0.7
2024-08-23T0800,2456A,112.5003,26.9167,衡阳市,原169医院,,20,20,21,10,10,23,,28,28,16,8,10,9,0.4,0.4
2024-08-23T0800,2457A,112.6194,26.9258,衡阳市,衡阳化工总厂,,,16,24,,,25,,22,22,9,8,11,8,0.6,0.6
2024-08-23T0800,2458A,112.6211,26.8956,衡阳市,珠晖区环保局,,,18,19,,,30,,34,34,8,6,11,8,0.6,0.6
2024-08-23T0800,2459A,112.6197,26.8733,衡阳市,市委党校,,30,30,24,10,11,26,,26,26,10,9,17,11,0.7,0.6
2024-08-23T0800,2460A,112.6006,26.8919,衡阳市,市监测站,,22,18,19,15,12,28,,28,28,11,8,15,9,0.8,0.7
2024-08-23T0800,2461A,112.5664,26.9056,衡阳市,真空机电公司,,29,29,20,12,13,26,,28,28,12,8,13,9,0.7,0.7
2024-08-23T0800,3399A,112.6703,26.882,衡阳市,师范学院,,27,27,21,11,10,23,,22,22,8,9,12,9,0.5,0.5
2024-08-23T0800,2608A,103.3772,23.3993,红河哈尼族彝族自治州,污水处理厂,,13,,8,9,9,24,,24,24,8,5,6,5,0.3,0.3
2024-08-23T0800,2609A,103.3861,23.35,红河哈尼族彝族自治州,监测站,,14,14,11,3,8,26,,22,22,6,5,7,9,0.3,0.3
2024-08-23T0800,3038A,103.3758,23.368,红河哈尼族彝族自治州,州图书馆,,9,6,5,3,6,27,,26,26,6,4,4,5,0.2,0.2
2024-08-23T0800,1090A,111.6507,40.7517,呼和浩特市,呼市一监,,22,22,24,8,9,51,,56,56,17,14,8,9,0.8,0.5
2024-08-23T0800,1091A,111.6572,40.8033,呼和浩特市,小召,,14,14,16,6,8,44,,48,48,23,20,5,6,0.5,0.5
2024-08-23T0800,1094A,111.7516,40.8369,呼和浩特市,如意水处理厂,,25,25,13,6,4,32,,41,41,31,17,6,6,0.4,0.3
2024-08-23T0800,1095A,111.7276,40.8062,呼和浩特市,二十九中,,25,25,19,10,7,41,,43,43,28,20,4,4,0.7,0.5
2024-08-23T0800,1096A,111.5512,40.7866,呼和浩特市,工大金川校区,,33,33,24,9,9,25,,48,48,44,22,2,4,0.5,0.4
2024-08-23T0800,1097A,111.717,40.7612,呼和浩特市,化肥厂生活区,,40,40,32,14,10,52,,58,58,18,18,8,8,1.2,0.5
2024-08-23T0800,3698A,111.5968,40.8178,呼和浩特市,红旗小学,,44,44,17,11,6,27,,55,55,36,18,4,3,0.4,0.4
2024-08-23T0800,3699A,111.6518,40.8389,呼和浩特市,海东办,,27,27,16,10,7,41,,32,32,27,24,6,5,0.7,0.7
2024-08-23T0800,2192A,119.7594,49.2261,呼伦贝尔市,区环保局,细颗粒物(PM2.5),79,94,105,58,89,17,,21,21,18,21,4,4,0.8,1.2
2024-08-23T0800,3061A,119.7512,49.1577,呼伦贝尔市,国华电力东,细颗粒物(PM2.5),79,,94,58,79,25,,29,29,7,8,6,4,0.7,1
2024-08-23T0800,1250A,120.0751,30.8669,湖州市,城西水厂,颗粒物(PM10),52,53,43,35,29,25,,33,33,50,30,6,4,0.6,0.6
2024-08-23T0800,2873A,120.0875,30.8955,湖州市,仁皇山新区,,49,49,47,33,31,17,,44,44,53,25,8,7,0.9,0.8
2024-08-23T0800,2907A,120.1844,30.8596,湖州市,吴兴区站,细颗粒物(PM2.5),63,61,44,45,32,32,,68,68,48,19,8,7,0.8,0.6
2024-08-23T0800,3562A,120.4148,30.8538,湖州市,南浔区站,细颗粒物(PM2.5),65,57,41,47,28,56,,76,76,34,15,4,4,0.8,0.6
2024-08-23T0800,1607A,120.9092,40.7136,葫芦岛市,龙港区,,25,20,26,17,16,32,,14,14,25,25,24,14,0.6,0.7
2024-08-23T0800,1608A,120.8392,40.7514,葫芦岛市,化工街,,17,17,23,9,17,22,,11,11,19,24,51,16,0.5,0.7
2024-08-23T0800,1609A,120.8341,40.7073,葫芦岛市,新区,,16,6,30,6,22,25,,12,12,31,33,18,10,0.6,0.7
2024-08-23T0800,1610A,120.8695,40.7677,葫芦岛市,东城区,,44,44,27,7,15,15,,6,6,26,26,24,19,0.3,0.4
2024-08-23T0800,2482A,109.5981,27.5721,怀化市,林科所,,13,12,14,3,7,40,,44,44,14,15,8,6,0.2,0.3
2024-08-23T0800,2483A,109.9453,27.5444,怀化市,河西地税局,,15,12,15,8,11,45,,49,49,5,4,11,11,0.5,0.5
2024-08-23T0800,2484A,109.9781,27.5342,怀化市,市四医院,,17,17,20,8,11,41,,44,44,7,6,6,5,0.6,0.5
2024-08-23T0800,2485A,109.9972,27.5578,怀化市,监测楼,,17,17,17,3,8,43,,46,46,6,5,6,5,0.5,0.5
2024-08-23T0800,2486A,110.0394,27.583,怀化市,市委党校,,26,,14,18,10,43,,47,47,6,4,4,4,0.5,0.5
2024-08-23T0800,1210A,119.036,33.5981,淮安市,钵池山,,44,44,33,26,26,80,,80,80,19,15,7,8,0.8,0.8
2024-08-23T0800,1211A,119.007,33.575,淮安市,北京南路,颗粒物(PM10),58,66,37,29,22,66,,65,65,24,14,5,4,0.8,0.8
2024-08-23T0800,1212A,118.989,33.6067,淮安市,市监测站,颗粒物(PM10),65,80,42,39,29,81,,84,84,30,15,11,7,2.1,1
2024-08-23T0800,1213A,119.135,33.5039,淮安市,楚州区监测站,颗粒物(PM10),57,63,47,26,24,67,,31,31,23,23,6,5,0.7,0.6
2024-08-23T0800,1214A,119.0186,33.6297,淮安市,淮阴区监测站,颗粒物(PM10),64,78,43,25,26,76,,82,82,31,17,12,5,1.3,0.8
2024-08-23T0800,3426A,118.8755,33.2894,淮安市,新华书店,,,56,31,37,21,51,,66,66,,15,7,6,0.8,0.7
2024-08-23T0800,2282A,116.8004,33.975,淮北市,监测站,颗粒物(PM10),54,58,44,32,26,80,,86,86,16,9,9,6,0.8,0.7
2024-08-23T0800,2283A,116.8091,33.9007,淮北市,烈山区政府,颗粒物(PM10),56,61,56,36,30,66,,62,62,24,16,10,8,0.7,0.6
2024-08-23T0800,3330A,116.8873,33.9836,淮北市,杜集区检察院,细颗粒物(PM2.5),52,50,51,36,31,82,,68,68,14,10,6,3,0.7,0.7
2024-08-23T0800,4017A,116.7923,33.9535,淮北市,市博物馆,颗粒物(PM10),57,64,51,34,27,72,,76,76,22,13,6,5,0.9,0.8
2024-08-23T0800,2277A,116.8305,32.7727,淮南市,潘集区政府,颗粒物(PM10),55,60,44,20,23,36,,58,58,26,14,8,6,0.7,0.6
2024-08-23T0800,2278A,117.0067,32.6524,淮南市,师范学院,,41,41,42,22,21,63,,73,73,13,7,5,4,0.5,0.5
2024-08-23T0800,2279A,116.8569,32.5951,淮南市,谢家集区政府,颗粒物(PM10),53,56,36,31,24,39,,57,57,30,13,8,6,0.4,0.4
2024-08-23T0800,2280A,116.8281,32.633,淮南市,八公山区政府,,49,49,41,26,22,49,,56,56,20,11,9,5,0.4,0.4
2024-08-23T0800,2281A,116.6325,32.6201,淮南市,焦岗湖风景区管理处,,31,27,24,6,8,99,,99,99,13,9,3,4,0.2,0.3
2024-08-23T0800,2894A,117.0566,32.6531,淮南市,经济技术开发区消防队,,31,31,35,15,14,56,,52,52,17,11,5,4,0.4,0.4
2024-08-23T0800,3329A,117.0108,32.5893,淮南市,山南新区,颗粒物(PM10),51,52,49,27,23,60,,65,65,23,13,6,4,0.6,0.6
2024-08-23T0800,2446A,114.9028,30.4742,黄冈市,职工中心,颗粒物(PM10),52,54,42,30,25,65,,70,70,19,14,24,11,0.4,0.4
2024-08-23T0800,2929A,114.8858,30.4519,黄冈市,红卫路,,39,39,40,26,26,63,,72,72,15,12,12,10,0.4,0.5
2024-08-23T0800,3398A,114.9136,30.4445,黄冈市,市林业局,,28,,37,19,22,57,,69,69,17,12,8,8,0.4,0.5
2024-08-23T0800,2672A,102.0199,35.5102,黄南藏族自治州,同仁县隆务镇,,22,22,34,15,18,63,,75,75,1,3,11,12,0.4,0.5
2024-08-23T0800,2295A,118.2903,29.6963,黄山市,延安路89号,,41,41,40,14,11,22,,19,19,5,5,5,5,0.6,0.6
2024-08-23T0800,2296A,118.327,29.7178,黄山市,黄山东路89号,,31,31,27,3,9,27,,19,19,8,6,4,4,0.5,0.5
2024-08-23T0800,2297A,118.1371,30.2756,黄山市,黄山区政府5号楼,,23,23,23,10,13,15,,14,14,6,5,6,6,0.5,0.5
2024-08-23T0800,2423A,115.0601,30.2313,黄石市,沈家营,颗粒物(PM10),70,89,75,24,21,36,,42,42,35,29,20,48,1.4,1
2024-08-23T0800,2424A,115.0817,30.2006,黄石市,陈家湾,颗粒物(PM10),55,60,56,17,20,59,,65,65,15,11,3,4,0.6,0.6
2024-08-23T0800,2426A,114.8988,30.2019,黄石市,铁山,,45,45,39,19,20,64,,63,63,15,10,8,9,0.3,0.4
2024-08-23T0800,2427A,115.0307,30.2092,黄石市,团城山,颗粒物(PM10),57,64,48,22,21,50,,52,52,33,17,17,13,1.1,0.7
2024-08-23T0800,3149A,115.0235,30.1578,黄石市,笔架山北路,颗粒物(PM10),54,57,50,17,15,49,,57,57,20,12,10,8,0.4,0.5
2024-08-23T0800,1392A,114.4183,23.0528,惠州市,河南岸金山湖子站,,38,38,20,22,11,12,,7,7,18,15,6,4,0.8,0.6
2024-08-23T0800,1393A,114.4053,23.0822,惠州市,下埔横江三路子站,,29,29,20,18,12,22,,19,19,20,16,5,4,0.8,0.6
2024-08-23T0800,1394A,114.4103,23.1142,惠州市,江北云山西路子站,,30,30,20,12,9,19,,16,16,20,15,5,4,0.8,0.7
2024-08-23T0800,1395A,114.4645,22.7833,惠州市,惠阳区承修路船湖子站,,50,50,28,28,16,11,,3,3,27,26,7,5,0.9,0.7
2024-08-23T0800,1396A,114.5317,22.7422,惠州市,大亚湾管委会子站,,32,32,25,14,11,4,,3,3,25,25,7,6,0.8,0.6
2024-08-23T0800,3314A,114.4338,22.8134,惠州市,惠阳秋长,,29,27,22,20,13,12,,4,4,26,26,8,6,0.8,0.6
2024-08-23T0800,3452A,114.6517,22.775,惠州市,大亚湾霞涌,,50,,20,35,10,8,,7,7,11,11,3,3,0.5,0.5
2024-08-23T0800,2240A,130.9762,45.3001,鸡西市,环保局,,10,9,21,3,8,30,,30,30,3,8,5,5,0.2,0.3
2024-08-23T0800,2243A,130.9429,45.3039,鸡西市,第一中学,,10,6,19,3,5,32,,28,28,4,7,4,4,0.2,0.2
2024-08-23T0800,3707A,131.0207,45.3073,鸡西市,欧美日汽修厂,,10,,13,3,9,32,,26,26,4,8,3,4,0.2,0.3
2024-08-23T0800,3709A,130.9967,45.3106,鸡西市,市政设施管理处,,,5,30,,10,34,,28,28,7,14,5,5,0.2,0.3
2024-08-23T0800,2367A,114.9754,27.0803,吉安市,红声器材厂,,36,36,27,20,13,40,,34,34,17,11,14,11,0.6,0.5
2024-08-23T0800,2368A,114.9658,27.0999,吉安市,市森林工业局,,30,30,24,19,15,46,,40,40,18,12,16,10,0.5,0.4
2024-08-23T0800,2369A,114.99,27.1312,吉安市,市环境监测站,,31,31,22,18,10,34,,38,38,14,8,15,12,0.7,0.6
2024-08-23T0800,2370A,115.0093,27.0968,吉安市,青原区法院,,33,33,24,20,13,37,,40,40,14,10,11,9,0.5,0.5
2024-08-23T0800,1772A,126.54,43.8622,吉林市,哈达湾,,18,15,15,9,7,56,,46,46,13,10,12,6,0.5,0.5
2024-08-23T0800,1773A,126.5844,43.8358,吉林市,东局子,,26,26,19,12,10,60,,50,50,16,14,16,6,0.5,0.5
2024-08-23T0800,1774A,126.5052,43.8245,吉林市,电力学院,,19,13,16,3,5,60,,48,48,5,6,4,4,0.6,0.6
2024-08-23T0800,1775A,126.6133,43.8972,吉林市,江北,,19,19,29,9,13,52,,35,35,10,13,10,9,0.5,0.4
2024-08-23T0800,1776A,126.555,43.8306,吉林市,江南公园,,17,11,14,3,5,54,,45,45,15,12,7,5,0.6,1.2
2024-08-23T0800,1778A,126.7061,43.7133,吉林市,丰满,,,,,,,,,,,,,,,,
2024-08-23T0800,2868A,126.4739,43.953,吉林市,九站,,16,,8,10,10,51,,31,31,8,11,10,6,0.5,0.6
2024-08-23T0800,1299A,116.9862,36.6114,济南市,科干所,,41,41,47,24,24,113,,119,119,26,15,6,6,0.8,0.7
2024-08-23T0800,1300A,116.9376,36.665,济南市,农科所,颗粒物(PM10),51,51,44,27,25,68,,58,58,35,23,7,7,0.6,0.5
2024-08-23T0800,1301A,117.1265,36.6734,济南市,开发区,,46,46,46,17,22,104,,86,86,33,27,8,8,0.6,0.5
2024-08-23T0800,1303A,117.0624,36.6868,济南市,省种子仓库,颗粒物(PM10),56,61,50,19,24,66,,62,62,77,36,7,6,0.6,0.6
2024-08-23T0800,1304A,116.9489,36.6447,济南市,机床二厂,颗粒物(PM10),68,85,56,20,19,78,,64,64,37,25,8,8,0.8,0.6
2024-08-23T0800,1305A,117.0495,36.663,济南市,市监测站,颗粒物(PM10),51,51,44,17,26,76,,81,81,71,25,9,9,0.8,0.6
2024-08-23T0800,1306A,116.7675,36.5484,济南市,长清党校,,42,42,40,20,25,99,,96,96,18,17,11,11,0.8,0.8
2024-08-23T0800,1616A,117.6795,36.229,济南市,技术学院,颗粒物(PM10),58,66,48,39,28,55,,45,45,32,24,16,13,1.4,1.4
2024-08-23T0800,1961A,117.532,36.6868,济南市,东山小学,,46,46,42,17,20,79,,88,88,36,21,7,7,0.8,0.7
2024-08-23T0800,3059A,117.7161,36.2049,济南市,泰兴公司,颗粒物(PM10),60,70,50,36,27,33,,24,24,56,36,16,11,1.2,0.8
2024-08-23T0800,3064A,117.6867,36.2171,济南市,莱芜战役纪念馆,,,75,48,36,24,,,38,38,39,23,,15,1.2,0.8
2024-08-23T0800,3494A,117.1673,36.9782,济南市,济阳区政府,颗粒物(PM10),63,76,67,29,29,87,,42,42,32,33,10,11,0.6,0.7
2024-08-23T0800,3495A,117.1171,36.63,济南市,锦屏中学,,37,37,38,15,22,114,,102,102,13,12,10,9,0.6,0.6
2024-08-23T0800,3682A,116.9814,36.6819,济南市,济南四建,,44,44,43,20,22,110,,86,86,30,21,8,8,0.7,0.7
2024-08-23T0800,1653A,116.6251,35.4302,济宁市,火炬城,颗粒物(PM10),56,61,41,34,20,73,,81,81,22,12,15,10,1.3,0.8
2024-08-23T0800,1655A,116.5491,35.4042,济宁市,电化厂,颗粒物(PM10),60,69,46,36,25,62,,80,80,29,15,13,8,1.1,0.7
2024-08-23T0800,3500A,116.5814,35.3707,济宁市,北湖一中,细颗粒物(PM2.5),62,64,43,44,19,51,,58,58,28,16,10,7,0.9,0.5
2024-08-23T0800,3501A,116.8249,35.5593,济宁市,服务中心,颗粒物(PM10),55,60,44,24,22,63,,55,55,23,18,6,6,0.6,0.5
2024-08-23T0800,3678A,116.5907,35.4054,济宁市,市第七中学,颗粒物(PM10),55,59,41,31,20,56,,62,62,31,17,10,6,1.1,0.7
2024-08-23T0800,2255A,130.2751,46.8028,佳木斯市,佳纺,,18,10,14,3,9,55,,42,42,7,6,5,10,0.5,0.5
2024-08-23T0800,2256A,130.3995,46.8307,佳木斯市,发电厂,,17,10,14,3,8,54,,46,46,3,6,7,5,0.5,0.5
2024-08-23T0800,2257A,130.3258,46.7975,佳木斯市,环保局,,17,11,16,6,8,54,,41,41,5,7,8,8,0.5,0.5
2024-08-23T0800,2258A,130.3648,46.8032,佳木斯市,十一中,,17,11,15,3,8,54,,48,48,9,8,6,6,0.4,0.5
2024-08-23T0800,2259A,130.3794,46.7588,佳木斯市,四丰,,,11,12,7,6,43,,37,37,,,1,1,0.4,0.5
2024-08-23T0800,1252A,120.7436,30.778,嘉兴市,清河小学,颗粒物(PM10),52,54,38,30,19,74,,66,66,24,20,6,4,0.9,0.8
2024-08-23T0800,1253A,120.726,30.7478,嘉兴市,嘉兴学院,,50,47,44,35,24,65,,57,57,29,20,2,2,0.7,0.6
2024-08-23T0800,2872A,120.7846,30.7525,嘉兴市,南湖区残联,,43,43,34,30,23,91,,81,81,23,15,4,4,0.8,0.7
2024-08-23T0800,3407A,120.6916,30.7739,嘉兴市,秀洲住建,,50,50,35,33,23,60,,50,50,30,19,4,3,0.8,0.7
2024-08-23T0800,1945A,98.2908,39.7711,嘉峪关市,气象局,颗粒物(PM10),59,68,68,19,19,47,,66,66,33,18,19,18,0.5,0.6
2024-08-23T0800,2884A,98.2672,39.7978,嘉峪关市,酒钢宾馆,颗粒物(PM10),54,58,64,12,21,50,,72,72,28,16,8,20,0.3,0.4
2024-08-23T0800,3248A,98.2643,39.7724,嘉峪关市,雄关区,,47,47,58,15,15,38,,60,60,40,19,16,13,0.4,0.5
2024-08-23T0800,1383A,113.1064,22.6058,江门市,北街,,30,30,31,20,15,11,,5,5,26,29,4,4,0.8,0.7
2024-08-23T0800,1384A,113.0731,22.5835,江门市,西区,,29,29,28,15,16,15,,4,4,23,26,5,5,0.8,0.7
2024-08-23T0800,1385A,113.0219,22.5311,江门市,圭峰西,,32,30,27,22,13,12,,8,8,22,21,3,3,0.9,0.7
2024-08-23T0800,1386A,113.0828,22.5947,江门市,东湖,,35,35,29,8,11,15,,4,4,20,23,5,5,0.6,0.7
2024-08-23T0800,3311A,113.1075,22.5647,江门市,江海富民,颗粒物(PM10),51,51,43,32,23,9,,5,5,29,29,7,6,0.8,0.7
2024-08-23T0800,3449A,113.05,22.4667,江门市,新会银湖,,49,49,31,24,15,10,,6,6,18,18,6,6,0.9,0.7
2024-08-23T0800,1828A,113.227,35.2125,焦作市,市环保局,颗粒物(PM10),51,52,40,34,25,54,,102,102,36,17,4,5,0.8,0.7
2024-08-23T0800,1830A,113.1992,35.2590,焦作市,影视城,,,,,,,,,,,,,,,,
2024-08-23T0800,3169A,113.2725,35.2067,焦作市,太极体育中心,细颗粒物(PM2.5),54,48,56,38,27,48,,62,62,42,20,5,4,0.8,0.8
2024-08-23T0800,3335A,113.3137,35.2641,焦作市,马村街道办,颗粒物(PM10),59,68,45,36,27,68,,106,106,30,15,8,4,0.8,0.7
2024-08-23T0800,3336A,113.2465,35.2373,焦作市,焦作技师学院,颗粒物(PM10),59,68,45,36,21,54,,116,116,26,13,3,9,0.9,0.8
2024-08-23T0800,3477A,113.1656,35.2539,焦作市,中站许衡医院,,35,31,34,18,23,111,,127,127,26,18,5,8,0.6,0.7
2024-08-23T0800,3981A,113.2449,35.1803,焦作市,原李万街道办,细颗粒物(PM2.5),64,76,47,46,28,41,,54,54,40,22,16,8,0.5,0.6
2024-08-23T0800,1708A,116.3701,23.5345,揭阳市,新兴,,20,20,28,14,12,11,,8,8,19,20,7,5,0.8,0.7
2024-08-23T0800,1709A,116.3264,23.5443,揭阳市,西马,,34,34,30,14,13,12,,8,8,13,14,9,5,0.7,0.7
2024-08-23T0800,1710A,116.3611,23.5626,揭阳市,东兴,,26,26,30,13,10,11,,6,6,15,15,6,4,1.0,0.9
2024-08-23T0800,1711A,116.4151,23.5294,揭阳市,渔湖,,,,29,,11,16,,8,8,18,21,,5,0.7,0.6
2024-08-23T0800,3320A,116.403,23.5699,揭阳市,曲溪,,31,31,24,12,10,6,,3,3,24,20,3,2,0.9,0.8
2024-08-23T0800,1944A,102.1692,38.5167,金昌市,天庆家园,颗粒物(PM10),66,82,66,39,23,42,,55,55,53,20,6,22,1.5,0.5
2024-08-23T0800,3170A,102.1864,38.5253,金昌市,市委党校,,45,45,41,18,18,34,,51,51,37,16,11,18,0.9,0.8
2024-08-23T0800,4022A,102.1647,38.5371,金昌市,金川区人防中心,颗粒物(PM10),62,73,58,26,18,39,,58,58,40,14,9,16,1.1,0.8
2024-08-23T0800,1262A,119.647,29.077,金华市,十五中,,,50,41,25,19,45,,42,42,25,20,5,3,,0.6
2024-08-23T0800,1263A,119.686,29.1029,金华市,监测站,颗粒物(PM10),54,57,38,32,22,50,,36,36,23,24,7,4,0.8,0.6
2024-08-23T0800,3659A,119.656,29.1131,金华市,气象局,颗粒物(PM10),52,53,40,25,23,42,,27,27,24,25,7,6,0.8,0.6
2024-08-23T0800,1767A,121.1115,41.0879,锦州市,南山,,15,15,22,6,14,22,,10,10,15,17,9,5,0.6,0.7
2024-08-23T0800,1768A,121.0533,40.8434,锦州市,开发区,颗粒物(PM10),51,52,35,33,21,17,,8,8,20,24,13,8,1.2,1
2024-08-23T0800,1769A,121.1836,41.1119,锦州市,百股街道,,22,22,18,3,6,17,,5,5,19,14,10,4,0.7,0.7
2024-08-23T0800,1770A,121.1178,41.1222,锦州市,天安街道,,25,25,20,11,14,18,,17,17,26,15,6,6,0.9,0.8
2024-08-23T0800,1771A,121.1303,41.1386,锦州市,北湖公园,,18,18,20,6,10,28,,19,19,13,10,14,6,0.8,0.8
2024-08-23T0800,2160A,112.85,35.5051,晋城市,自来水公司,颗粒物(PM10),58,66,56,36,28,62,,65,65,30,24,8,9,1.9,1.3
2024-08-23T0800,2161A,112.8318,35.4936,晋城市,白云商贸,颗粒物(PM10),52,53,51,27,22,72,,64,64,25,22,10,11,1.7,1.3
2024-08-23T0800,2162A,112.8508,35.4887,晋城市,市环保局,颗粒物(PM10),63,76,64,36,29,66,,49,49,27,28,9,11,1.6,1.2
2024-08-23T0800,2163A,112.8676,35.4897,晋城市,技术学院,颗粒物(PM10),51,52,46,27,26,64,,64,64,30,25,10,11,1.4,1.2
2024-08-23T0800,2165A,112.8453,35.546,晋城市,白马寺,,,,,,,,,,,,,,,,
2024-08-23T0800,3620A,112.8271,35.4828,晋城市,泽州一中,颗粒物(PM10),59,68,47,34,23,69,,66,66,27,22,11,12,2.4,1.3
2024-08-23T0800,2171A,112.7532,37.6945,晋中市,锦纶小区,颗粒物(PM10),51,51,50,17,19,43,,54,54,18,18,8,10,0.5,0.5
2024-08-23T0800,2173A,112.7249,37.7067,晋中市,南都小区,颗粒物(PM10),52,53,46,19,27,33,,58,58,36,21,6,9,0.6,0.7
2024-08-23T0800,2174A,112.6991,37.6982,晋中市,榆次区政府,颗粒物(PM10),52,53,50,15,26,32,,60,60,36,19,8,10,0.3,0.4
2024-08-23T0800,2865A,112.7195,37.6828,晋中市,榆次三中,颗粒物(PM10),53,56,50,17,19,38,,46,46,28,19,7,10,0.6,0.7
2024-08-23T0800,2439A,112.2014,31.0481,荆门市,竹园小学,,43,43,40,22,26,46,,64,64,19,12,16,10,0.6,0.6
2024-08-23T0800,2440A,112.1969,30.9891,荆门市,掇刀,,43,43,39,29,24,49,,64,64,21,14,10,7,0.6,0.6
2024-08-23T0800,2441A,112.2213,31.0386,荆门市,石化一小,,44,44,43,27,27,45,,55,55,22,15,13,15,0.6,0.6
2024-08-23T0800,3012A,112.1849,31.0362,荆门市,西山林语,,32,32,36,20,21,42,,60,60,19,11,10,9,0.6,0.6
2024-08-23T0800,3547A,112.1632,31.0138,荆门市,龙泉中学南校,,32,30,35,22,23,48,,62,62,15,9,9,9,0.6,0.5
2024-08-23T0800,1844A,112.2494,30.3197,荆州市,市图书馆,,32,32,30,16,24,39,,50,50,14,13,6,7,0.8,0.7
2024-08-23T0800,1845A,112.2008,30.3544,荆州市,市委党校,,28,26,30,19,23,41,,53,53,14,10,8,9,0.7,0.7
2024-08-23T0800,3194A,112.2747,30.3122,荆州市,管委会,,30,30,31,15,23,45,,53,53,12,10,7,6,0.7,0.6
2024-08-23T0800,3548A,112.1655,30.3364,荆州市,学苑路,,42,38,35,29,24,40,,50,50,15,10,6,7,0.7,0.7
2024-08-23T0800,2342A,117.3102,29.3867,景德镇市,王港中学,,,,,,,,,,,,,,,,
2024-08-23T0800,2343A,117.2117,29.2933,景德镇市,老干部活动中心,,25,23,27,17,17,16,,10,10,12,14,6,7,0.4,0.7
2024-08-23T0800,2344A,117.1894,29.2789,景德镇市,兽医站,,34,34,36,16,17,25,,19,19,8,11,6,9,0.5,0.6
2024-08-23T0800,2345A,117.1547,29.2617,景德镇市,台达陶瓷,,33,33,30,19,18,24,,18,18,11,19,6,18,0.4,0.4
2024-08-23T0800,2346A,117.2461,29.2956,景德镇市,陶研所,,34,34,32,18,12,24,,19,19,14,13,8,10,0.4,0.3
2024-08-23T0800,1803A,115.9872,29.6815,九江市,十里,,42,42,31,26,19,38,,46,46,30,15,10,9,0.8,0.7
2024-08-23T0800,1804A,115.9584,29.7046,九江市,茅山头,,39,,30,27,21,34,,36,36,22,17,9,10,0.6,0.7
2024-08-23T0800,1805A,115.9877,29.7295,九江市,西园,,38,37,29,26,18,26,,24,24,37,25,27,10,0.6,0.5
2024-08-23T0800,1806A,116.0172,29.6547,九江市,五七二七厂,,29,29,23,17,19,54,,57,57,14,10,9,8,0.4,0.4
2024-08-23T0800,1808A,115.9114,29.6038,九江市,综合工业园,,30,22,29,21,22,33,,60,60,19,16,10,9,0.8,0.7
2024-08-23T0800,1809A,116.0721,29.7535,九江市,石化总厂,,28,28,34,17,18,33,,47,47,14,12,10,12,0.7,0.7
2024-08-23T0800,1810A,115.9773,29.5698,九江市,庐山气象台,,32,23,26,19,21,100,,104,104,2,3,23,11,0.9,0.9
2024-08-23T0800,3190A,116.0254,29.6994,九江市,外国语学校,,26,21,25,18,16,42,,54,54,14,10,8,9,0.6,0.6
2024-08-23T0800,2658A,98.5061,39.7443,酒泉市,仓门街子站,,46,46,71,10,17,78,,80,80,14,12,11,12,0.4,0.3
2024-08-23T0800,2659A,98.4989,39.7256,酒泉市,油田生活基地,颗粒物(PM10),51,51,77,7,21,47,,75,75,37,17,19,12,0.5,0.3
2024-08-23T0800,2698A,76.0072,39.4467,喀什地区,巡警大队,,28,18,47,6,7,87,,102,102,17,11,4,4,0.3,0.3
2024-08-23T0800,2699A,75.9755,39.4694,喀什地区,吾办,,26,14,49,6,18,83,,95,95,11,13,5,4,0.5,0.5
2024-08-23T0800,4027A,75.9483,39.4689,喀什地区,老干局,,35,35,53,3,8,61,,87,87,14,12,5,5,0.5,0.4
2024-08-23T0800,1824A,114.3389,34.7781,开封市,肿瘤医院,颗粒物(PM10),64,78,54,31,21,58,,64,64,28,17,4,5,0.7,0.5
2024-08-23T0800,1826A,114.2885,34.7965,开封市,世纪星幼儿园,,,56,47,,,83,,74,74,21,13,4,5,0.7,0.6
2024-08-23T0800,3147A,114.3438,34.8106,开封市,龙亭公园,颗粒物(PM10),53,55,48,28,21,68,,71,71,23,15,3,4,0.8,0.7
2024-08-23T0800,3210A,114.3644,34.7964,开封市,汴京公园,细颗粒物(PM2.5),63,69,56,45,30,59,,55,55,28,20,5,6,0.6,0.5
2024-08-23T0800,3473A,114.2485,34.8306,开封市,技师学院,,50,50,53,30,23,96,,93,93,15,14,2,4,0.9,0.8
2024-08-23T0800,3592A,114.4644,34.7556,开封市,祥符区生态环境局,颗粒物(PM10),59,67,62,35,27,36,,21,21,31,35,4,5,0.7,0.6
2024-08-23T0800,1951A,84.895,45.6094,克拉玛依市,长征新村,,27,13,26,7,7,85,,88,88,2,9,7,7,0.3,0.4
2024-08-23T0800,1952A,84.8988,45.5893,克拉玛依市,南林小区,,29,11,22,3,9,90,,91,91,1,12,10,9,0.1,0.3
2024-08-23T0800,1954A,84.905,44.3396,克拉玛依市,独山子区,,28,28,27,12,10,57,,94,94,14,10,7,8,0.4,0.4
2024-08-23T0800,1955A,85.6979,46.098,克拉玛依市,乌尔禾区商贸楼,,19,19,22,8,8,55,,72,72,18,12,7,6,0.4,0.3
2024-08-23T0800,3612A,85.1045,45.6899,克拉玛依市,白碱滩区新站,,31,20,21,8,6,97,,97,97,2,6,9,9,0.2,0.2
2024-08-23T0800,2697A,76.1454,39.7142,克孜勒苏柯尔克孜自治州,市人民政府,,27,20,51,8,19,86,,88,88,3,9,1,6,0.5,0.5
2024-08-23T0800,3665A,76.1658,39.7157,克孜勒苏柯尔克孜自治州,克州文化中心,,42,42,46,12,20,86,,92,92,2,6,4,10,0.4,0.4
2024-08-23T0800,1450A,102.8204,24.8886,昆明市,呈贡新区,,21,21,26,3,11,19,,22,22,14,13,10,7,0.6,0.6
2024-08-23T0800,1451A,102.6251,24.9608,昆明市,西山森林公园,,,,,,,,,,,,,,,,
2024-08-23T0800,1452A,102.7252,25.0902,昆明市,龙泉镇,,18,18,18,6,9,18,,20,20,13,12,6,7,0.6,0.6
2024-08-23T0800,1453A,102.7266,25.0375,昆明市,东风东路,,15,15,15,8,9,14,,20,20,18,14,6,5,0.5,0.5
2024-08-23T0800,1454A,102.6742,25.0669,昆明市,金鼎山,,8,8,24,3,8,22,,26,26,14,10,7,8,0.3,0.3
2024-08-23T0800,1455A,102.6644,25.0401,昆明市,碧鸡广场,,14,14,14,6,8,21,,20,20,10,11,4,4,0.4,0.4
2024-08-23T0800,3179A,102.7494,25.0119,昆明市,官渡区博物馆,,15,15,16,9,8,14,,20,20,16,12,8,7,0.3,0.3
2024-08-23T0800,3375A,102.8017,24.8336,昆明市,青年创业园,,11,11,14,6,9,16,,9,9,11,12,5,5,0.4,0.5
2024-08-23T0800,3550A,102.7997,24.9786,昆明市,昆明学院,,13,13,21,3,10,18,,18,18,12,16,5,6,0.4,0.5
2024-08-23T0800,3551A,102.5967,24.6736,昆明市,晋宁区生态环境分局,,10,10,17,3,8,19,,15,15,8,10,4,5,0.4,0.4
2024-08-23T0800,3552A,102.6678,24.9856,昆明市,云天化总部,,8,7,11,3,8,22,,24,24,10,7,7,6,0.6,0.5
2024-08-23T0800,1456A,91.1319,29.6514,拉萨市,八廓街,,16,,12,7,7,49,,61,61,13,11,7,7,0.3,0.2
2024-08-23T0800,1457A,91.1221,29.6747,拉萨市,市环保局,,17,17,11,7,7,49,,67,67,17,12,8,7,0.2,0.2
2024-08-23T0800,1458A,91.0874,29.6475,拉萨市,区监测站,,13,7,8,3,6,39,,66,66,23,11,8,8,0.1,0.2
2024-08-23T0800,1459A,91.1774,29.6541,拉萨市,西藏大学,,16,7,8,3,6,51,,62,62,6,6,9,8,0.3,0.1
2024-08-23T0800,1460A,90.9798,29.6588,拉萨市,区辐射站,,17,10,10,3,5,54,,68,68,11,10,8,8,0.2,0.2
2024-08-23T0800,1461A,91.0834,29.6292,拉萨市,拉萨火车站,,16,,9,6,6,49,,65,65,15,10,4,5,0.2,0.2
2024-08-23T0800,2520A,109.2203,23.7256,来宾市,来宾技工学校,,31,31,32,16,13,3,,5,5,18,14,10,16,0.7,0.6
2024-08-23T0800,3535A,109.1781,23.7297,来宾市,兴宾区政府,,23,23,20,3,9,4,,11,11,14,8,6,6,0.6,0.7
2024-08-23T0800,4002A,109.2416,23.7461,来宾市,中南小学,,27,27,28,8,14,8,,8,8,16,13,11,14,0.8,0.8
2024-08-23T0800,1476A,103.631,36.1031,兰州市,兰炼宾馆,,32,31,35,22,22,34,,60,60,35,14,8,16,0.5,0.5
2024-08-23T0800,1477A,104.1373,35.9454,兰州市,榆中兰大校区,,,,,,,,,,,,,,,,
2024-08-23T0800,1478A,103.8412,36.0726,兰州市,生物制品所,,47,47,38,31,25,35,,66,66,35,21,6,8,0.6,0.5
2024-08-23T0800,1479A,103.831,36.0464,兰州市,铁路设计院,,40,38,45,28,27,39,,68,68,52,27,9,12,0.8,0.6
2024-08-23T0800,3186A,103.7158,36.1058,兰州市,教育港,颗粒物(PM10),54,57,52,36,30,28,,61,61,33,15,4,10,0.5,0.5
2024-08-23T0800,3241A,103.7439,36.0842,兰州市,百合公园,,30,28,39,21,21,27,,58,58,33,19,10,11,0.5,0.4
2024-08-23T0800,3242A,103.9611,35.998,兰州市,和平,,33,33,38,14,18,52,,82,82,31,12,9,9,0.7,0.6
2024-08-23T0800,3245A,103.6633,36.533,兰州新区,新区管委会,颗粒物(PM10),55,59,42,22,23,67,,98,98,19,9,9,12,0.5,0.5
2024-08-23T0800,3246A,103.6975,36.4789,兰州新区,舟曲中学,颗粒物(PM10),56,61,46,29,23,56,,99,99,43,11,24,15,0.5,0.4
2024-08-23T0800,1067A,116.6708,39.5111,廊坊市,药材公司,,45,45,35,22,13,26,,29,29,34,24,2,2,0.5,0.4
2024-08-23T0800,1068A,116.7214,39.5589,廊坊市,开发区,颗粒物(PM10),58,65,32,33,14,24,,15,15,25,21,2,1,0.7,0.4
2024-08-23T0800,1070A,116.7244,39.5269,廊坊市,北华航天学院,颗粒物(PM10),61,72,45,27,13,24,,16,16,24,21,2,1,0.7,0.4
2024-08-23T0800,2919A,116.7022,39.5453,廊坊市,河北工业大学,,,44,33,30,16,27,,24,24,22,21,,2,0.6,0.4
2024-08-23T0800,2535A,103.7723,29.5462,乐山市,花湖湾,细颗粒物(PM2.5),72,62,57,52,54,63,,71,71,25,20,5,6,1.2,0.9
2024-08-23T0800,2536A,103.7627,29.5844,乐山市,牛耳桥,细颗粒物(PM2.5),62,56,66,44,50,77,,59,59,26,24,2,2,1.2,0.9
2024-08-23T0800,2537A,103.7508,29.6006,乐山市,市第三水厂,细颗粒物(PM2.5),65,56,68,47,50,87,,80,80,28,24,6,3,1.2,0.9
2024-08-23T0800,2538A,103.7571,29.5664,乐山市,市监测站,细颗粒物(PM2.5),55,56,66,39,51,86,,79,79,22,18,10,6,1.4,0.9
2024-08-23T0800,3361A,103.7311,29.5628,乐山市,理工大学,细颗粒物(PM2.5),62,55,69,44,54,85,,72,72,24,20,8,5,1.1,0.9
2024-08-23T0800,2598A,100.2143,26.8576,丽江市,西南郊,,,,,,,,,,,,,,,,
2024-08-23T0800,2599A,100.2497,26.8802,丽江市,丽江古城,,35,26,27,24,19,34,,40,40,18,13,9,9,0.7,0.6
2024-08-23T0800,2600A,100.2203,26.8906,丽江市,市中心,,26,24,24,18,17,25,,49,49,23,9,9,9,0.7,0.6
2024-08-23T0800,1267A,119.914,28.4514,丽水市,监测站大楼,,21,21,24,9,10,44,,27,27,18,16,3,3,0.3,0.3
2024-08-23T0800,1268A,119.93,28.4586,丽水市,莲都小学,,24,24,32,16,11,45,,30,30,15,15,4,4,0.3,0.3
2024-08-23T0800,1269A,119.879,28.4231,丽水市,余庄前,,35,34,28,24,17,26,,8,8,23,14,3,3,0.5,0.4
2024-08-23T0800,1173A,119.176,34.5885,连云港市,市环境监测站,细颗粒物(PM2.5),58,61,50,41,32,74,,79,79,24,17,8,10,0.6,0.5
2024-08-23T0800,3000A,119.3581,34.6972,连云港市,德源药业,颗粒物(PM10),54,58,54,34,29,68,,50,50,29,22,7,6,0.7,0.6
2024-08-23T0800,3007A,119.178,34.844,连云港市,新城一中,,47,47,49,28,32,87,,67,67,17,14,4,4,0.9,0.8
2024-08-23T0800,3008A,119.3608,34.7519,连云港市,胡沟管理处,,44,44,38,24,24,64,,106,106,29,10,7,8,1.1,0.9
2024-08-23T0800,3009A,119.1478,34.5911,连云港市,矿山设计院,细颗粒物(PM2.5),55,58,48,39,31,69,,70,70,21,16,4,6,0.8,0.7
2024-08-23T0800,3434A,119.2413,34.6539,连云港市,工贸学校,,31,31,41,20,28,97,,103,103,6,7,7,8,0.8,0.8
2024-08-23T0800,3664A,119.4172,34.7341,连云港市,连云街道,,34,34,36,21,26,74,,121,121,34,12,6,4,0.7,0.6
2024-08-23T0800,2571A,102.3431,27.8099,凉山彝族自治州,青龙寺,,35,35,30,19,19,39,,64,64,14,7,12,10,0.9,0.5
2024-08-23T0800,2572A,102.2721,27.8415,凉山彝族自治州,邛海宾馆,,28,26,34,19,24,51,,60,60,17,14,13,15,0.8,0.7
2024-08-23T0800,2573A,102.2625,27.898,凉山彝族自治州,西昌市政府,,30,28,34,21,23,65,,82,82,12,10,10,14,0.7,0.8
2024-08-23T0800,2574A,102.2685,27.8851,凉山彝族自治州,凉山州政府,,30,30,38,18,24,58,,77,77,17,13,7,12,0.9,0.7
2024-08-23T0800,2575A,102.237,27.8914,凉山彝族自治州,长安,,33,33,39,23,24,40,,64,64,26,17,9,13,1.1,1
2024-08-23T0800,2212A,123.2,41.1953,辽阳市,宏伟区,,25,25,26,10,10,49,,23,23,14,15,10,7,0.6,0.7
2024-08-23T0800,2213A,123.1683,41.2495,辽阳市,新华园,,28,28,23,10,10,38,,20,20,16,15,12,7,0.6,0.6
2024-08-23T0800,2214A,123.2354,41.2639,辽阳市,滨河路,,32,32,26,13,11,36,,13,13,15,15,10,8,0.4,0.4
2024-08-23T0800,2215A,123.149,41.2991,辽阳市,铁西工业园,,16,12,28,11,10,25,,8,8,18,14,12,9,1.1,0.9
2024-08-23T0800,2227A,125.1358,42.8845,辽源市,环保局,,18,18,18,12,5,47,,37,37,12,4,7,6,0.5,0.5
2024-08-23T0800,3239A,125.0764,42.9078,辽源市,银鹰制药,,26,22,11,18,7,44,,32,32,20,8,5,4,0.7,0.7
2024-08-23T0800,1625A,115.9848,36.4372,聊城市,区政府,颗粒物(PM10),51,52,43,23,20,89,,97,97,23,15,18,12,0.6,0.5
2024-08-23T0800,2878A,116.0072,36.4343,聊城市,聊大东校,颗粒物(PM10),54,58,44,36,29,70,,76,76,26,17,8,10,0.7,0.6
2024-08-23T0800,3200A,115.9819,36.4978,聊城市,监控中心,颗粒物(PM10),55,59,44,24,22,81,,95,95,30,17,18,9,0.7,0.5
2024-08-23T0800,3513A,116.0445,36.4361,聊城市,九州社区,,,,,,,,,,,,,,,,
2024-08-23T0800,4018A,116.0567,36.4608,聊城市,星美广场,颗粒物(PM10),51,52,41,23,21,73,,80,80,25,15,7,7,0.5,0.4
2024-08-23T0800,2632A,94.3681,29.6376,林芝市,林芝监测站,,6,,6,3,4,17,,37,37,5,3,9,9,0.3,0.3
2024-08-23T0800,2633A,94.3616,29.6616,林芝市,林芝人民医院,,10,,7,7,4,21,,39,39,5,4,7,7,0.2,0.2
2024-08-23T0800,2603A,100.0781,23.8982,临沧市,市环保局,,14,14,18,8,15,7,,14,14,9,8,5,5,0.3,0.3
2024-08-23T0800,2604A,100.0894,23.8822,临沧市,市气象局,,15,15,15,10,11,8,,14,14,12,9,6,5,0.3,0.2
2024-08-23T0800,1733A,111.5531,36.0783,临汾市,临钢医院,颗粒物(PM10),54,57,49,19,20,60,,57,57,17,17,8,7,0.8,0.7
2024-08-23T0800,1734A,111.5028,36.0714,临汾市,技工学校,颗粒物(PM10),59,68,61,23,22,62,,58,58,22,24,4,5,0.9,0.8
2024-08-23T0800,1736A,111.5018,36.0855,临汾市,市委,颗粒物(PM10),51,51,53,25,22,60,,61,61,21,22,5,5,1.1,0.9
2024-08-23T0800,3018A,111.505,36.1014,临汾市,唐尧大酒店,颗粒物(PM10),57,64,48,14,19,45,,51,51,25,20,4,4,0.9,0.7
2024-08-23T0800,3668A,111.5036,36.0414,临汾市,城南,颗粒物(PM10),54,58,61,22,22,57,,37,37,20,24,6,5,0.9,0.8
2024-08-23T0800,2667A,103.2069,35.5993,临夏回族自治州,环保局,颗粒物(PM10),53,55,50,27,26,21,,44,44,18,11,7,8,0.5,0.5
2024-08-23T0800,2668A,103.2417,35.6057,临夏回族自治州,建设大厦,,36,36,41,22,21,23,,50,50,10,8,6,7,0.4,0.4
2024-08-23T0800,1618A,118.3429,35.0532,临沂市,沂河小区,细颗粒物(PM2.5),105,112,77,79,56,63,,42,42,36,23,13,11,1.0,0.7
2024-08-23T0800,1619A,118.295,35.0583,临沂市,鲁南制药厂,细颗粒物(PM2.5),78,97,75,57,51,71,,30,30,46,34,9,7,0.8,0.6
2024-08-23T0800,1620A,118.2794,34.9976,临沂市,新光毛纺厂,细颗粒物(PM2.5),128,124,89,97,66,66,,28,28,42,32,15,11,1.3,1
2024-08-23T0800,1621A,118.3956,35.0888,临沂市,河东保险公司,细颗粒物(PM2.5),114,119,68,86,45,67,,24,24,60,34,13,10,0.9,0.7
2024-08-23T0800,3370A,118.3564,35.0215,临沂市,十里堡居委,细颗粒物(PM2.5),125,105,71,95,59,53,,32,32,30,18,13,11,1.2,0.9
2024-08-23T0800,3496A,118.3604,35.1084,临沂市,南坊新区,细颗粒物(PM2.5),94,112,67,70,38,51,,35,35,60,28,12,11,1.1,0.8
2024-08-23T0800,3860A,118.3920,35.0300,临沂市,皇山花园小区,细颗粒物(PM2.5),108,110,72,81,49,76,,40,40,51,29,14,11,1.1,0.7
2024-08-23T0800,1870A,109.4856,24.3895,柳州市,柳东小学,,27,27,32,3,9,17,,21,21,12,12,9,9,0.6,0.7
2024-08-23T0800,1871A,109.4157,24.3277,柳州市,环保监测站,,30,30,24,16,14,15,,14,14,16,14,9,9,1.0,0.9
2024-08-23T0800,1872A,109.389,24.341,柳州市,河西水厂,,48,48,32,26,16,12,,14,14,13,13,19,9,0.9,0.9
2024-08-23T0800,1873A,109.4311,24.2921,柳州市,市四中,,32,32,23,16,10,18,,13,13,13,16,7,7,0.8,0.8
2024-08-23T0800,1874A,109.4006,24.3631,柳州市,市九中,,33,33,27,12,10,19,,17,17,13,12,5,6,0.7,0.7
2024-08-23T0800,1875A,109.4958,24.3134,柳州市,古亭山,,35,35,23,12,9,7,,5,5,21,19,18,9,0.9,0.9
2024-08-23T0800,3402A,109.5422,24.3996,柳州市,市二中,,31,31,19,17,8,14,,15,15,15,12,15,8,0.7,0.7
2024-08-23T0800,2307A,116.5079,31.737,六安市,监测大楼,,33,33,23,15,15,71,,71,71,18,8,7,6,0.5,0.5
2024-08-23T0800,2308A,116.4738,31.7643,六安市,皖西学院,,43,43,30,20,17,78,,75,75,13,8,5,4,0.7,0.7
2024-08-23T0800,2309A,116.4996,31.7905,六安市,朝阳厂,,31,31,26,21,16,79,,73,73,12,6,3,5,0.4,0.2
2024-08-23T0800,2310A,116.5567,31.7886,六安市,开发区,,38,38,33,23,20,60,,50,50,15,9,4,3,0.7,0.5
2024-08-23T0800,2576A,104.8,26.5892,六盘水市,窑上,,,,,,,,,,,,,,,,
2024-08-23T0800,2577A,104.83,26.5917,六盘水市,黄土坡,,21,21,20,10,14,34,,46,46,12,7,7,6,0.5,0.4
2024-08-23T0800,2578A,104.89,26.5939,六盘水市,水钢,,33,33,29,12,11,40,,53,53,11,7,7,7,0.4,0.4
2024-08-23T0800,2579A,104.8475,26.5894,六盘水市,民中,,18,17,21,12,11,47,,56,56,9,6,7,7,0.4,0.4
2024-08-23T0800,2580A,104.9544,26.5506,六盘水市,双水,,26,24,21,18,11,43,,48,48,7,6,6,6,0.4,0.3
2024-08-23T0800,2335A,117.0189,25.1181,龙岩市,龙岩师专,,,,,,,,,,,,,,,,
2024-08-23T0800,2336A,117.0217,25.1033,龙岩市,龙岩市监测站,,25,25,19,11,9,8,,3,3,13,16,5,4,0.5,0.5
2024-08-23T0800,2337A,117.0258,25.0661,龙岩市,闽西职业技术学院,颗粒物(PM10),52,53,25,13,11,5,,3,3,14,15,9,10,0.4,0.4
2024-08-23T0800,2338A,117.0196,25.0306,龙岩市,龙岩学院,,,,15,14,7,17,,12,12,8,4,,3,0.3,0.3
2024-08-23T0800,2665A,105.0822,33.3261,陇南市,汉王镇固水子,,,,,,,,,,,,,,,,
2024-08-23T0800,2885A,104.9339,33.3826,陇南市,滨江中学,颗粒物(PM10),60,70,56,27,30,52,,72,72,19,10,6,5,0.5,0.4
2024-08-23T0800,3247A,104.955,33.371,陇南市,市总工会,,43,43,42,21,21,70,,90,90,11,6,6,6,0.4,0.4
2024-08-23T0800,2487A,111.9589,27.8901,娄底市,电视发射台,,31,31,38,11,17,11,,11,11,6,7,6,7,0.6,0.6
2024-08-23T0800,2488A,111.9975,27.725,娄底市,市监测站,,23,23,27,16,16,28,,32,32,10,6,12,8,0.5,0.5
2024-08-23T0800,2489A,112.0194,27.7314,娄底市,市委党校,,24,24,27,14,16,26,,30,30,8,6,13,10,0.5,0.4
2024-08-23T0800,2490A,111.9561,27.7569,娄底市,涟钢,,40,40,36,9,19,9,,12,12,18,20,9,10,0.2,0.6
2024-08-23T0800,2491A,111.9892,27.7044,娄底市,市政府,,19,19,21,9,13,27,,31,31,9,7,6,6,0.4,0.3
2024-08-23T0800,1893A,105.4324,28.9634,泸州市,九狮山,,34,34,36,22,22,36,,50,50,1,35,5,5,0.8,0.4
2024-08-23T0800,1894A,105.4427,28.9063,泸州市,小市上码头,,27,27,34,15,20,45,,70,70,22,14,8,7,0.4,0.4
2024-08-23T0800,1895A,105.4241,28.8573,泸州市,兰田宪桥,,46,40,36,32,25,22,,31,31,28,22,6,7,0.6,0.4
2024-08-23T0800,1896A,105.4379,28.8833,泸州市,市环监站,,32,32,30,20,21,22,,67,67,44,14,10,7,0.7,0.4
2024-08-23T0800,3490A,105.3617,28.7703,泸州市,纳溪区环保局,细颗粒物(PM2.5),59,51,43,42,37,17,,30,30,37,28,7,5,0.6,0.5
2024-08-23T0800,2183A,111.1406,37.5211,吕梁市,环保局,颗粒物(PM10),60,69,57,20,23,30,,31,31,27,24,8,6,0.6,0.5
2024-08-23T0800,2185A,111.1297,37.5136,吕梁市,自来水公司,颗粒物(PM10),87,123,77,30,21,19,,19,19,31,23,6,4,0.7,0.6
2024-08-23T0800,2867A,111.1283,37.51,吕梁市,马茂庄小学,颗粒物(PM10),96,142,80,41,23,26,,22,22,35,29,8,4,0.8,0.5
2024-08-23T0800,1812A,112.3931,34.6516,洛阳市,市委党校,,41,41,40,19,22,50,,31,31,23,22,7,9,0.9,0.8
2024-08-23T0800,1814A,112.4657,34.6871,洛阳市,豫西宾馆,颗粒物(PM10),51,52,46,25,22,38,,17,17,30,27,7,6,0.8,0.6
2024-08-23T0800,1815A,112.494,34.6886,洛阳市,河南林校,,47,47,38,20,22,40,,19,19,28,25,5,5,0.8,0.7
2024-08-23T0800,1816A,112.3844,34.623,洛阳市,开发区管委会,,35,35,29,19,20,41,,31,31,18,16,2,3,0.6,0.5
2024-08-23T0800,1817A,112.4267,34.6258,洛阳市,市委新办公区,,40,32,30,28,25,44,,31,31,8,22,4,5,0.6,0.6
2024-08-23T0800,3340A,112.6005,34.6326,洛阳市,伊滨,,46,46,44,24,23,23,,18,18,12,11,4,6,0.7,0.6
2024-08-23T0800,3341A,112.4951,34.6332,洛阳市,中移产业园,,38,36,38,26,24,41,,14,14,15,21,5,6,0.8,0.7
2024-08-23T0800,3593A,112.5736,34.8993,洛阳市,吉利监测站,,27,27,39,18,19,57,,40,40,9,19,3,3,0.8,0.7
2024-08-23T0800,3635A,112.3677,34.662,洛阳市,河科大西苑校区,,39,39,34,18,15,46,,28,28,22,22,9,8,0.9,0.8
2024-08-23T0800,3636A,112.4388,34.6781,洛阳市,英才小学,颗粒物(PM10),57,63,40,31,25,31,,13,13,31,25,7,6,0.8,0.7
2024-08-23T0800,2399A,114.051,33.5699,漯河市,三五一五工厂,,42,42,43,26,27,85,,75,75,14,12,6,6,0.7,0.6
2024-08-23T0800,2400A,114.0055,33.5698,漯河市,漯河大学,,45,45,44,29,26,80,,79,79,11,8,11,10,0.7,0.7
2024-08-23T0800,2401A,114.0138,33.5828,漯河市,市水利局,颗粒物(PM10),52,53,47,24,26,74,,72,72,12,9,8,8,0.7,0.7
2024-08-23T0800,2402A,114.0261,33.5698,漯河市,市广电局,,46,46,42,26,23,81,,78,78,12,8,9,8,0.7,0.7
2024-08-23T0800,3478A,113.9749,33.5664,漯河市,市图书馆,细颗粒物(PM2.5),52,46,47,36,30,68,,67,67,13,9,8,7,0.7,0.7
2024-08-23T0800,3479A,114.0967,33.5906,漯河市,召陵区卫健委,颗粒物(PM10),51,51,47,32,32,81,,70,70,13,13,2,3,0.7,0.6
2024-08-23T0800,1798A,118.5092,31.6837,马鞍山市,湖东路四小,颗粒物(PM10),52,53,42,30,24,52,,37,37,29,26,9,8,1.1,0.9
2024-08-23T0800,1799A,118.5024,31.6449,马鞍山市,开发区,颗粒物(PM10),51,51,46,24,22,32,,9,9,38,39,5,4,1.0,0.9
2024-08-23T0800,1800A,118.5228,31.7231,马鞍山市,慈湖,,42,42,41,29,23,48,,30,30,31,22,8,6,1.2,0.9
2024-08-23T0800,1802A,118.6245,31.7241,马鞍山市,濮塘,,33,33,34,18,25,50,,41,41,20,18,6,6,1.0,0.9
2024-08-23T0800,3633A,118.4918,31.6809,马鞍山市,雨山,,46,46,36,25,21,47,,32,32,26,21,8,7,0.9,0.7
2024-08-23T0800,1686A,111.0286,21.4688,茂名市,电白南海,,24,24,26,14,15,30,,32,32,12,10,7,7,0.5,0.4
2024-08-23T0800,1687A,110.9294,21.6533,茂名市,茂石化七小,,22,22,23,14,16,22,,29,29,10,8,4,4,0.4,0.4
2024-08-23T0800,1688A,110.9107,21.6687,茂名市,健康路,,19,19,20,7,8,26,,35,35,10,7,10,9,0.5,0.5
2024-08-23T0800,1689A,110.8592,21.6828,茂名市,高岭,,19,19,19,3,8,29,,32,32,8,9,11,11,0.4,0.4
2024-08-23T0800,3450A,111.01,21.5165,茂名市,电白水东,,18,12,17,12,13,29,,29,29,11,8,4,4,0.4,0.4
2024-08-23T0800,2539A,104.0308,30.0478,眉山市,黑龙滩水库,细颗粒物(PM2.5),67,74,54,48,36,18,,45,45,22,10,5,6,0.7,0.5
2024-08-23T0800,2540A,103.8416,30.0874,眉山市,气象局,细颗粒物(PM2.5),67,65,63,48,48,52,,32,32,39,35,8,9,0.8,0.8
2024-08-23T0800,3137A,103.8578,30.0744,眉山市,市委党校,细颗粒物(PM2.5),62,66,67,44,42,72,,65,65,36,29,11,10,0.6,0.6
2024-08-23T0800,3148A,103.8291,30.0564,眉山市,区人社局,细颗粒物(PM2.5),55,46,52,39,44,70,,55,55,42,39,12,9,0.7,0.7
2024-08-23T0800,1690A,116.1231,24.3284,梅州市,梅江月梅,,33,33,22,11,10,10,,7,7,11,8,7,7,0.4,0.4
2024-08-23T0800,1691A,116.0797,24.2719,梅州市,梅县新城,,20,20,19,3,8,16,,7,7,9,9,5,4,0.5,0.4
2024-08-23T0800,1692A,116.1248,24.2654,梅州市,环境监控中心,,25,25,29,14,13,10,,4,4,12,15,6,4,0.4,0.4
2024-08-23T0800,3315A,116.1233,24.2991,梅州市,梅龙,,16,14,15,11,11,16,,5,5,12,12,10,8,0.5,0.5
2024-08-23T0800,1878A,104.7778,31.4741,绵阳市,富乐山,,46,39,44,32,34,65,,66,66,11,9,3,3,0.8,0.8
2024-08-23T0800,1879A,104.7563,31.4535,绵阳市,市人大,颗粒物(PM10),54,58,59,36,37,42,,55,55,36,23,10,10,0.8,0.7
2024-08-23T0800,1880A,104.6697,31.4668,绵阳市,高新区自来水公司,颗粒物(PM10),54,58,56,29,34,62,,73,73,27,21,18,16,0.8,0.7
2024-08-23T0800,1881A,104.7287,31.5075,绵阳市,三水厂,细颗粒物(PM2.5),68,66,58,49,44,15,,39,39,55,24,4,5,1.1,1
2024-08-23T0800,3491A,104.69,31.5322,绵阳市,西科大附属小学,颗粒物(PM10),59,68,62,41,39,49,,58,58,30,22,10,10,0.8,0.7
2024-08-23T0800,3492A,104.5648,31.5343,绵阳市,安州区旅游局,颗粒物(PM10),53,56,49,36,39,91,,102,102,14,12,4,5,0.7,0.7
2024-08-23T0800,1784A,129.61,44.561,牡丹江市,环保大楼,,18,12,13,12,12,41,,36,36,10,9,7,7,0.3,0.3
2024-08-23T0800,1785A,129.6115,44.5782,牡丹江市,文化广场,,30,,16,21,17,40,,35,35,13,10,7,8,0.3,0.3
2024-08-23T0800,1786A,129.5904,44.5963,牡丹江市,第一医院,,15,13,18,8,12,47,,36,36,10,9,5,5,0.4,0.4
2024-08-23T0800,1787A,129.6364,44.6075,牡丹江市,机车工厂,,25,18,21,17,14,41,,26,26,9,10,5,6,0.3,0.4
2024-08-23T0800,1788A,129.6386,44.5462,牡丹江市,第一中学,,20,20,23,8,13,48,,37,37,8,9,5,5,0.3,0.4
2024-08-23T0800,2531A,105.0703,29.61,内江市,市监测站,,46,,54,32,52,36,,72,72,38,21,9,9,0.5,0.6
2024-08-23T0800,2532A,105.0717,29.5947,内江市,东兴区政府,,46,46,51,24,45,57,,78,78,22,19,11,9,0.5,0.8
2024-08-23T0800,2533A,105.0653,29.5817,内江市,内江二中,细颗粒物(PM2.5),84,,49,62,52,44,,68,68,31,20,8,8,0.6,0.8
2024-08-23T0800,2534A,105.0406,29.5822,内江市,内江日报社,,36,29,49,25,48,38,,63,63,36,27,9,9,0.4,0.6
2024-08-23T0800,2628A,92.0657,31.4846,那曲市,那曲监测站,,30,,25,21,19,29,,52,52,5,6,5,5,0.3,0.3
2024-08-23T0800,3128A,92.0506,31.4797,那曲市,那曲会议中心,,19,19,17,8,5,35,,54,54,10,6,5,4,0.4,0.4
2024-08-23T0800,1290A,115.8931,28.6843,南昌市,省外办,,35,35,34,17,17,38,,37,37,19,12,10,10,0.6,0.5
2024-08-23T0800,1291A,115.8886,28.7003,南昌市,省林业公司,,29,29,26,12,14,39,,34,34,17,11,9,8,0.7,0.6
2024-08-23T0800,1292A,115.8126,28.7442,南昌市,林科所,,36,36,24,14,12,26,,10,10,15,12,22,9,0.5,0.7
2024-08-23T0800,1294A,115.8518,28.687,南昌市,建工学校,,24,24,22,3,7,43,,33,33,14,11,11,10,0.5,0.5
2024-08-23T0800,1295A,115.8921,28.6424,南昌市,象湖,,34,34,24,15,15,37,,30,30,18,13,8,6,0.7,0.6
2024-08-23T0800,1296A,115.7423,28.7996,南昌市,武术学校,,34,34,24,12,19,19,,16,16,8,9,2,3,0.5,0.4
2024-08-23T0800,1298A,115.9314,28.6842,南昌市,省站,,38,38,30,18,17,38,,31,31,16,14,11,9,0.7,0.6
2024-08-23T0800,3046A,115.9084,28.6062,南昌市,机电学校,,,46,32,19,14,26,,25,25,14,10,9,8,,0.6
2024-08-23T0800,3690A,115.9721,28.7031,南昌市,外国语学校,,50,50,36,19,14,32,,26,26,20,15,7,8,0.6,0.6
2024-08-23T0800,1905A,106.056,30.8064,南充市,西山风景区,细颗粒物(PM2.5),62,48,33,44,33,42,,63,63,17,11,2,3,1.0,0.8
2024-08-23T0800,1906A,106.0789,30.8023,南充市,南充市委,细颗粒物(PM2.5),67,68,54,48,36,21,,26,26,32,22,6,8,0.8,0.5
2024-08-23T0800,1907A,106.1031,30.8217,南充市,南充炼油厂,细颗粒物(PM2.5),79,88,66,58,48,18,,40,40,42,17,6,8,0.6,0.5
2024-08-23T0800,1908A,106.1064,30.7856,南充市,高坪区监测站,细颗粒物(PM2.5),68,64,48,49,32,33,,47,47,29,21,7,7,0.7,0.6
2024-08-23T0800,1909A,106.0642,30.7636,南充市,嘉陵区环保局,颗粒物(PM10),65,79,48,46,31,33,,42,42,35,22,4,5,0.7,0.5
2024-08-23T0800,1910A,106.1087,30.8388,南充市,市环境监测站,颗粒物(PM10),60,69,62,42,42,40,,49,49,20,19,6,8,0.5,0.4
2024-08-23T0800,1151A,118.8086,32.1065,南京市,迈皋桥,,37,37,31,22,19,41,,31,31,32,21,9,5,0.7,0.5
2024-08-23T0800,1152A,118.7538,32.0551,南京市,草场门,,41,41,35,27,19,54,,47,47,32,21,15,8,1.2,0.7
2024-08-23T0800,1153A,118.7794,32.0745,南京市,山西路,,46,46,35,22,23,55,,50,50,35,17,5,4,1.2,0.7
2024-08-23T0800,1154A,118.7752,32.0023,南京市,中华门,,36,36,34,24,21,40,,40,40,32,17,4,4,0.9,0.8
2024-08-23T0800,1155A,118.8109,32.0309,南京市,瑞金路,,48,48,39,27,24,45,,40,40,33,14,6,4,0.8,0.8
2024-08-23T0800,1156A,118.7997,32.0754,南京市,玄武湖,,40,40,41,23,18,38,,37,37,16,6,4,4,0.9,0.7
2024-08-23T0800,1157A,118.6414,32.0931,南京市,浦口,,36,35,37,25,18,30,,36,36,34,12,10,8,1.0,0.7
2024-08-23T0800,1158A,118.7356,31.9996,南京市,奥体中心,,44,44,36,29,26,54,,46,46,24,19,11,7,0.8,0.6
2024-08-23T0800,1159A,118.9125,32.1028,南京市,仙林大学城,,41,41,40,27,24,47,,44,44,32,19,8,8,0.9,0.9
2024-08-23T0800,3422A,118.8436,31.9198,南京市,江宁彩虹桥,,30,30,38,19,24,26,,28,28,28,20,4,4,0.8,0.8
2024-08-23T0800,3423A,119.0138,31.6494,南京市,溧水永阳,,31,31,29,16,20,61,,64,64,14,10,3,4,0.6,0.6
2024-08-23T0800,3424A,118.879,31.3302,南京市,高淳老职中,,35,29,27,24,21,62,,58,58,12,8,9,6,0.7,0.6
2024-08-23T0800,3427A,118.8554,32.3578,南京市,六合雄州,,47,47,33,32,25,48,,19,19,49,43,14,6,0.8,0.5
2024-08-23T0800,1401A,108.3103,22.7881,南宁市,二十一中,,37,37,23,18,15,35,,35,35,10,10,3,3,0.9,0.8
2024-08-23T0800,1402A,108.3141,22.8528,南宁市,北湖,,31,31,26,21,12,32,,39,39,13,12,4,3,0.9,0.8
2024-08-23T0800,1403A,108.3206,22.8225,南宁市,市监测站,,35,35,26,19,17,33,,40,40,13,11,5,5,0.7,0.7
2024-08-23T0800,1404A,108.3829,22.8037,南宁市,大自然花园,,26,26,25,15,15,34,,41,41,10,10,4,4,0.7,0.6
2024-08-23T0800,1405A,108.4394,22.7904,南宁市,仙葫,,18,18,23,3,13,34,,42,42,11,6,6,6,0.6,0.6
2024-08-23T0800,1406A,108.2397,22.8467,南宁市,区农职院,,46,46,29,16,14,9,,16,16,18,15,6,6,1.0,0.8
2024-08-23T0800,1407A,108.3275,22.735,南宁市,英华嘉园,,40,40,30,20,15,21,,25,25,20,18,6,6,0.8,0.7
2024-08-23T0800,1408A,108.2257,22.7757,南宁市,沙井镇街道办,,40,40,31,18,14,7,,5,5,17,17,2,2,0.5,0.6
2024-08-23T0800,3401A,108.4834,22.7618,南宁市,红星社区,,22,22,23,15,14,29,,34,34,14,10,6,6,0.7,0.8
2024-08-23T0800,2331A,118.0966,26.6761,南平市,茫荡山,,,,,,,,,,,,,,,,
2024-08-23T0800,2332A,118.1681,26.6369,南平市,南平市监测站,,38,38,20,18,7,11,,8,8,15,12,4,4,0.9,0.7
2024-08-23T0800,2333A,118.1825,26.6489,南平市,南平铝业有限公司,,32,32,24,15,8,11,,7,7,12,12,5,6,0.7,0.6
2024-08-23T0800,2334A,118.1756,26.6272,南平市,南平七中,,33,33,23,16,7,6,,3,3,11,9,4,4,0.8,0.7
2024-08-23T0800,1168A,120.9098,31.9663,南通市,狼山街道,,36,36,33,22,27,77,,30,30,36,25,11,8,0.7,0.7
2024-08-23T0800,1169A,120.86,32.0005,南通市,虹桥,,37,37,40,23,29,80,,61,61,36,30,7,7,0.9,1
2024-08-23T0800,1170A,120.87,32.02,南通市,城中,颗粒物(PM10),51,52,49,22,26,93,,71,71,37,27,12,9,1.0,1
2024-08-23T0800,1171A,120.94,31.93,南通市,星湖花园,,36,36,35,18,24,84,,62,62,42,29,8,6,1.0,1
2024-08-23T0800,1172A,120.81,32.0417,南通市,紫琅学院,,29,27,44,20,26,88,,66,66,36,40,10,11,1.1,1.1
2024-08-23T0800,3291A,121.067,32.062,南通市,通州监测站,,46,46,45,24,29,82,,80,80,30,18,6,6,0.9,1
2024-08-23T0800,3432A,120.9348,31.9883,南通市,环境教育馆,,44,44,46,21,28,77,,42,42,38,27,8,7,0.7,0.8
2024-08-23T0800,2404A,112.5224,33.0122,南阳市,瓦房庄,,46,46,43,21,25,50,,70,70,17,14,6,5,0.5,0.5
2024-08-23T0800,2405A,112.5003,32.9735,南阳市,汉画馆,,46,46,51,25,34,46,,57,57,21,19,5,5,0.6,0.6
2024-08-23T0800,2406A,112.5573,33.027,南阳市,气象站,,50,50,48,14,24,45,,55,55,12,13,4,5,0.6,0.6
2024-08-23T0800,2407A,112.5481,32.9689,南阳市,理工学院,,42,42,41,22,27,47,,64,64,17,17,8,6,0.6,0.5
2024-08-23T0800,4008A,112.5234,32.9922,南阳市,卧龙区政府,,46,46,46,26,28,42,,68,68,25,16,5,5,0.8,0.7
2024-08-23T0800,1234A,121.8358,29.911,宁波市,区环保大楼,,26,26,31,11,15,53,,64,64,26,18,7,8,1.1,0.7
2024-08-23T0800,1235A,121.56,29.82,宁波市,万里学院,,35,33,26,24,18,59,,61,61,20,14,10,9,0.7,0.6
2024-08-23T0800,1236A,121.713,29.9572,宁波市,龙赛医院,,26,26,30,14,13,59,,58,58,25,18,11,9,0.7,0.7
2024-08-23T0800,1239A,121.633,29.7733,宁波市,钱湖水厂,,21,21,21,13,13,65,,60,60,9,9,7,7,0.7,0.7
2024-08-23T0800,1240A,121.5856,29.8635,宁波市,太古小学,,34,34,28,11,13,48,,58,58,28,17,6,6,1.0,0.9
2024-08-23T0800,1241A,121.524,29.8674,宁波市,市环境监测中心,,22,22,19,8,11,57,,66,66,23,15,4,5,0.7,0.7
2024-08-23T0800,2871A,121.6147,29.9017,宁波市,万里国际学校,,21,21,19,13,14,50,,67,67,26,15,7,7,0.6,0.5
2024-08-23T0800,3710A,121.5594,29.8975,宁波市,白沙活动中心,,20,20,24,12,13,58,,66,66,22,16,8,8,0.7,0.7
2024-08-23T0800,2339A,119.5001,26.6946,宁德市,金涵水库,,,,,,,,,,,,,,,,
2024-08-23T0800,2341A,119.5388,26.6612,宁德市,宁德市监测站,,24,24,21,9,10,10,,14,14,15,11,5,5,0.6,0.5
2024-08-23T0800,3209A,119.5231,26.6562,宁德市,宁德一中,,24,24,24,10,15,12,,13,13,10,7,5,4,0.6,0.5
2024-08-23T0800,2618A,98.8601,25.8567,怒江傈僳族自治州,州监测站,,27,27,25,16,15,32,,62,62,14,10,6,5,0.5,0.5
2024-08-23T0800,2619A,98.8546,25.8417,怒江傈僳族自治州,泸水一中,,23,22,23,16,14,25,,55,55,17,13,5,5,0.4,0.4
2024-08-23T0800,1888A,101.6891,26.571,攀枝花市,弄弄坪,颗粒物(PM10),71,92,79,30,38,21,,35,35,37,30,31,32,1.5,1.4
2024-08-23T0800,1889A,101.5769,26.5928,攀枝花市,河门口,细颗粒物(PM2.5),55,57,52,39,34,25,,38,38,29,22,10,18,1.3,1.4
2024-08-23T0800,1890A,101.7169,26.585,攀枝花市,炳草岗,颗粒物(PM10),66,82,69,39,39,24,,45,45,39,30,52,40,0.8,0.8
2024-08-23T0800,1891A,101.7369,26.5008,攀枝花市,仁和,,36,36,44,22,33,24,,44,44,22,16,5,12,0.6,0.7
2024-08-23T0800,2835A,101.7227,26.567,攀枝花市,四十中小,二氧化硫,74,64,62,30,37,36,,52,52,29,31,314,79,1.4,0.9
2024-08-23T0800,1604A,122.0303,41.1489,盘锦市,开发区,,18,,20,12,9,52,,27,27,19,11,7,6,0.4,0.4
2024-08-23T0800,1605A,122.0485,41.0883,盘锦市,兴隆台,,14,12,18,3,6,30,,20,20,27,14,4,4,0.7,0.5
2024-08-23T0800,1606A,121.8297,41.1028,盘锦市,新生街道,,15,15,16,8,8,29,,11,11,24,15,40,7,0.7,0.7
2024-08-23T0800,1832A,113.3257,33.742,平顶山市,新华旅馆,颗粒物(PM10),78,105,64,41,30,28,,54,54,39,20,7,5,0.6,0.4
2024-08-23T0800,1833A,113.2919,33.737,平顶山市,规划设计院,颗粒物(PM10),52,54,40,30,26,26,,50,50,31,19,7,7,1.1,0.9
2024-08-23T0800,1834A,113.182,33.774,平顶山市,平顶山工学院,,,,,,,,,,,,,,,,
2024-08-23T0800,3204A,113.3025,33.73,平顶山市,规划局,颗粒物(PM10),69,88,57,34,28,20,,42,42,36,21,4,3,1.0,0.8
2024-08-23T0800,3594A,112.8867,33.9116,平顶山市,石龙区,颗粒物(PM10),76,101,73,28,18,20,,14,14,57,37,10,8,0.7,0.5
2024-08-23T0800,2656A,106.6692,35.5461,平凉市,聚贤嘉苑,颗粒物(PM10),51,51,49,20,22,15,,50,50,43,23,7,8,0.4,0.4
2024-08-23T0800,2657A,106.7021,35.5307,平凉市,博物馆,颗粒物(PM10),51,52,54,26,22,26,,53,53,42,28,9,9,0.6,0.7
2024-08-23T0800,2347A,114.0997,27.5002,萍乡市,武功山,,9,9,5,3,4,23,,22,22,4,4,8,8,0.3,0.4
2024-08-23T0800,2348A,113.8385,27.6434,萍乡市,中医院,,29,,20,20,13,30,,18,18,8,8,5,5,0.6,0.6
2024-08-23T0800,2349A,113.8493,27.6253,萍乡市,市政府车库,,19,19,23,11,12,23,,22,22,7,7,13,13,0.6,0.6
2024-08-23T0800,2350A,113.8676,27.6435,萍乡市,市环保局,,32,32,22,18,13,22,,16,16,9,8,12,14,1.0,0.7
2024-08-23T0800,2351A,113.866,27.6198,萍乡市,安源区政府,,31,31,31,7,10,17,,12,12,14,10,12,11,0.4,0.4
2024-08-23T0800,2319A,119.0141,25.4325,莆田市,荔城区仓后路,,45,45,34,29,14,18,,17,17,23,16,7,7,0.8,0.7
2024-08-23T0800,2320A,119.0015,25.4553,莆田市,莆田市监测站,,23,23,29,7,7,15,,13,13,7,7,6,6,0.5,0.5
2024-08-23T0800,2321A,119.1119,25.4561,莆田市,涵江区六中,,39,39,34,21,13,13,,9,9,20,20,6,7,0.7,0.6
2024-08-23T0800,2322A,119.1013,25.3215,莆田市,秀屿区政府,,39,,27,27,16,22,,21,21,31,21,9,8,0.7,0.6
2024-08-23T0800,2323A,118.981,25.4792,莆田市,东圳水库,,,,,,,,,,,,,,,,
2024-08-23T0800,2392A,115.0312,35.7636,濮阳市,环保局,细颗粒物(PM2.5),55,55,40,39,24,66,,76,76,21,13,13,7,0.8,0.6
2024-08-23T0800,2394A,115.0574,35.7609,濮阳市,油田运输公司,颗粒物(PM10),56,62,42,37,24,63,,67,67,19,14,12,4,0.8,0.5
2024-08-23T0800,2395A,115.0866,35.7754,濮阳市,油田物探公司,细颗粒物(PM2.5),54,55,42,38,26,66,,73,73,18,10,9,6,0.8,0.7
2024-08-23T0800,3021A,115,35.7668,濮阳市,濮水河管理处,细颗粒物(PM2.5),55,43,37,39,27,40,,35,35,17,13,4,4,0.8,0.7
2024-08-23T0800,2601A,100.98,22.7633,普洱市,市环保局,,15,15,15,10,11,25,,25,25,4,4,1,2,0.3,0.3
2024-08-23T0800,2602A,100.9817,22.8322,普洱市,普洱第二中学,,,,,10,11,16,,22,22,7,7,7,6,0.5,0.5
2024-08-23T0800,2262A,131.0518,45.8751,七台河市,新一中,,19,8,14,3,8,58,,44,44,5,7,9,10,0.8,0.9
2024-08-23T0800,3345A,131.0577,45.7879,七台河市,中波台,,15,,5,8,8,45,,32,32,9,16,10,11,0.5,0.5
2024-08-23T0800,3637A,131.0176,45.7761,七台河市,人民广场,,,,12,8,8,46,,34,34,10,12,9,9,0.3,0.4
2024-08-23T0800,3684A,130.8781,45.8222,七台河市,新建矿广场,,30,,12,21,12,36,,31,31,14,13,7,6,0.3,0.4
2024-08-23T0800,1779A,123.9305,47.3636,齐齐哈尔市,安居小区,,26,26,29,14,16,32,,19,19,12,18,9,9,0.4,0.5
2024-08-23T0800,1780A,123.9488,47.3386,齐齐哈尔市,中心广场,,24,24,31,15,11,37,,33,33,14,23,2,2,0.3,0.5
2024-08-23T0800,1781A,123.9483,47.3227,齐齐哈尔市,农牧车辆厂,,,29,39,3,12,,,22,22,,20,,8,,0.3
2024-08-23T0800,1783A,123.945,47.2988,齐齐哈尔市,市环境监测站,,23,23,35,12,19,43,,13,13,17,22,7,7,0.3,0.4
2024-08-23T0800,3662A,123.6333,47.2075,齐齐哈尔市,富区青少年活动中心,,22,22,34,11,9,41,,19,19,14,14,5,5,0.6,0.6
2024-08-23T0800,2591A,107.9783,26.5747,黔东南苗族侗族自治州,市环境监测站,,12,9,10,8,9,38,,47,47,8,6,4,4,0.4,0.4
2024-08-23T0800,2881A,107.8908,26.5311,黔东南苗族侗族自治州,凯里学院,,29,29,9,8,8,32,,41,41,8,4,3,2,0.6,0.5
2024-08-23T0800,2593A,107.5228,26.2403,黔南布依族苗族自治州,小围寨,,11,6,3,3,1,34,,37,37,4,3,5,5,0.3,0.4
2024-08-23T0800,3538A,107.5175,26.2978,黔南布依族苗族自治州,沙坝,,11,6,8,3,3,34,,39,39,5,3,3,4,0.5,0.4
2024-08-23T0800,2589A,104.9022,25.0925,黔西南布依族苗族自治州,场坝街,,10,9,16,7,8,23,,24,24,5,5,3,2,0.2,0.1
2024-08-23T0800,2590A,104.8811,25.0992,黔西南布依族苗族自治州,坪东大道,,14,14,16,9,8,21,,19,19,3,4,5,5,0.0,0
2024-08-23T0800,2502A,108.6236,21.9667,钦州市,市环保站,,19,19,30,9,13,27,,14,14,11,21,7,7,0.7,0.8
2024-08-23T0800,2503A,108.6549,21.9481,钦州市,沙埠小学,,30,30,33,14,14,23,,17,17,14,21,5,6,0.5,0.6
2024-08-23T0800,2504A,108.5989,21.7431,钦州市,港区一小,,17,17,28,3,11,39,,35,35,11,22,8,8,0.6,0.7
2024-08-23T0800,3404A,108.5959,21.9633,钦州市,北职校,,41,41,32,17,17,21,,3,3,14,19,5,5,0.6,0.8
2024-08-23T0800,1042A,119.5134,39.8207,秦皇岛市,北戴河环保局,,31,31,35,3,8,37,,30,30,19,19,4,3,0.5,0.6
2024-08-23T0800,1043A,119.7493,40.0116,秦皇岛市,第一关,,29,22,34,20,25,22,,4,4,30,32,2,2,0.4,0.4
2024-08-23T0800,1044A,119.5897,39.9499,秦皇岛市,监测站,,38,38,41,14,21,14,,23,23,27,22,3,3,0.5,0.6
2024-08-23T0800,1046A,119.5251,39.9041,秦皇岛市,建设大厦,,39,39,32,6,9,14,,22,22,22,19,3,4,0.4,0.4
2024-08-23T0800,3132A,119.610547,39.943889,秦皇岛市,文明里,,32,32,27,3,10,20,,27,27,27,17,1,2,0.5,0.6
2024-08-23T0800,1307A,120.6659,36.2403,青岛市,仰口,细颗粒物(PM2.5),55,53,40,39,34,109,,138,138,12,8,7,7,0.4,0.3
2024-08-23T0800,1310A,120.4134,36.0658,青岛市,市南区东部子站,颗粒物(PM10),57,63,49,31,21,70,,98,98,34,17,10,9,1.1,0.9
2024-08-23T0800,1311A,120.3664,36.1032,青岛市,四方区子站,颗粒物(PM10),59,68,50,36,34,87,,98,98,30,10,26,14,1.1,1
2024-08-23T0800,1312A,120.2994,36.054,青岛市,市南区西部子站,颗粒物(PM10),60,70,55,34,27,54,,78,78,32,20,10,10,1.0,1
2024-08-23T0800,1313A,120.4581,36.0858,青岛市,崂山区子站,颗粒物(PM10),58,66,49,34,31,85,,91,91,25,17,10,10,0.8,0.9
2024-08-23T0800,1314A,120.1983,35.9608,青岛市,黄岛区子站,颗粒物(PM10),56,61,47,37,35,56,,94,94,44,20,12,11,1.0,0.9
2024-08-23T0800,1315A,120.3999,36.3083,青岛市,城阳区子站,颗粒物(PM10),60,70,50,29,28,59,,96,96,43,20,9,9,1.0,0.9
2024-08-23T0800,1966A,120.0405,35.8735,青岛市,黄岛区4号,颗粒物(PM10),65,80,54,39,34,36,,66,66,56,21,11,11,1.0,0.9
2024-08-23T0800,3362A,120.5014,36.4034,青岛市,即墨2号,颗粒物(PM10),63,76,62,41,42,84,,117,117,29,17,6,7,0.9,0.8
2024-08-23T0800,3642A,120.3503,36.0736,青岛市,市北区南部,细颗粒物(PM2.5),58,48,45,41,33,69,,88,88,44,20,10,9,1.2,1
2024-08-23T0800,3643A,120.3948,36.1805,青岛市,李沧区北部,颗粒物(PM10),58,66,55,39,37,90,,107,107,31,21,12,10,0.9,1
2024-08-23T0800,1702A,113.0426,23.691,清远市,环保大楼,,36,36,39,14,14,6,,9,9,24,22,8,6,0.6,0.7
2024-08-23T0800,1703A,113.0208,23.7106,清远市,凤城街办,,36,36,29,19,18,1,,5,5,26,19,6,5,0.6,0.4
2024-08-23T0800,3025A,113.0477,23.6344,清远市,技师学院,,33,33,29,14,16,11,,10,10,20,22,4,4,0.8,0.7
2024-08-23T0800,3318A,112.9903,23.7403,清远市,清新太和,,39,39,33,19,18,4,,8,8,18,17,4,4,0.7,0.7
2024-08-23T0800,3455A,113.076,23.7198,清远市,清城东城,,35,35,27,18,15,3,,10,10,17,14,6,6,0.6,0.5
2024-08-23T0800,2661A,107.6325,35.7357,庆阳市,庆阳五中,,46,46,37,32,12,82,,122,122,16,8,6,6,0.7,0.6
2024-08-23T0800,2662A,107.6364,35.7067,庆阳市,市环保局,,44,44,34,22,16,88,,117,117,22,9,8,9,0.7,0.6
2024-08-23T0800,1916A,103.7897,25.5035,曲靖市,环境监测站,,14,14,32,9,10,23,,19,19,12,14,7,6,0.5,0.5
2024-08-23T0800,1917A,103.8,25.5364,曲靖市,烟厂办公区,,20,20,22,6,11,28,,21,21,10,13,4,4,0.4,0.4
2024-08-23T0800,3376A,103.7947,25.462,曲靖市,南苑二区,,24,24,17,12,9,22,,19,19,13,11,9,8,0.6,0.5
2024-08-23T0800,3377A,103.7444,25.5261,曲靖市,曲靖师范学院,,28,28,22,16,11,16,,15,15,19,13,16,9,0.6,0.5
2024-08-23T0800,1264A,118.8692,28.9398,衢州市,环保大楼,颗粒物(PM10),51,51,39,31,24,19,,18,18,29,22,2,3,0.6,0.5
2024-08-23T0800,1265A,118.8709,28.9666,衢州市,实验学校,颗粒物(PM10),53,56,39,34,25,27,,17,17,18,15,7,5,0.5,0.4
2024-08-23T0800,1266A,118.8621,28.9808,衢州市,衢州学院,颗粒物(PM10),51,52,40,30,21,24,,14,14,32,27,6,6,0.5,0.4
2024-08-23T0800,1611A,118.5819,24.9117,泉州市,涂山街,,43,43,31,19,16,17,,11,11,19,25,2,3,0.8,0.6
2024-08-23T0800,1612A,118.5972,24.8978,泉州市,津头埔,,40,40,33,20,17,18,,13,13,17,26,3,5,0.9,0.7
2024-08-23T0800,1613A,118.6663,24.9424,泉州市,万安,,39,39,28,20,15,8,,6,6,22,23,2,2,0.8,0.6
2024-08-23T0800,1614A,118.6117,24.9604,泉州市,清源山,,,,,,,,,,,,,,,,
2024-08-23T0800,3529A,118.6333,24.9264,泉州市,城华南路,,31,31,26,15,14,16,,11,11,10,16,4,4,0.7,0.6
2024-08-23T0800,2626A,88.8876,29.2718,日喀则市,日喀则监测站,,20,6,9,3,3,62,,71,71,5,5,5,5,0.4,0.4
2024-08-23T0800,3726A,88.8781,29.2426,日喀则市,林业技术推广中心,,20,,6,3,4,61,,67,67,5,6,7,7,0.5,0.5
2024-08-23T0800,1659A,119.471,35.4209,日照市,监测站,细颗粒物(PM2.5),59,61,47,42,35,34,,33,33,42,24,12,10,0.8,0.8
2024-08-23T0800,1660A,119.523,35.4216,日照市,市政府广场,细颗粒物(PM2.5),62,56,50,44,33,73,,61,61,29,23,14,13,0.8,0.8
2024-08-23T0800,1661A,119.5587,35.4044,日照市,港务局,颗粒物(PM10),59,68,69,30,29,62,,54,54,42,34,16,13,0.8,0.8
2024-08-23T0800,3507A,119.5328,35.4625,日照市,职业技术学院,颗粒物(PM10),57,63,51,39,32,71,,60,60,36,27,13,11,0.9,0.9
2024-08-23T0800,3604A,119.3266,35.1044,日照市,岚山环保分局,颗粒物(PM10),52,53,54,32,28,70,,52,52,24,24,10,12,0.7,0.8
2024-08-23T0800,1835A,111.1922,34.7752,三门峡市,市政府,,48,48,36,16,14,32,,34,34,35,23,11,10,0.8,0.5
2024-08-23T0800,1836A,111.1587,34.7942,三门峡市,开发区,,41,41,33,25,21,55,,44,44,20,18,15,11,0.7,0.6
2024-08-23T0800,1838A,111.143,34.7955,三门峡市,风景区,,,,,,,,,,,,,,,,
2024-08-23T0800,3039A,111.1911,34.7829,三门峡市,三门峡市第一小学,,28,28,31,9,15,63,,57,57,12,14,13,11,0.7,0.6
2024-08-23T0800,3598A,111.1,34.7167,三门峡市,富达温泉假日酒店,,30,29,33,21,14,54,,61,61,20,15,13,12,0.6,0.5
2024-08-23T0800,2324A,117.6211,26.2625,三明市,三钢,,33,25,22,23,11,17,,9,9,16,12,8,9,0.7,0.8
2024-08-23T0800,2325A,117.635,26.2714,三明市,三明二中,,23,23,19,10,7,15,,11,11,9,11,4,5,0.6,0.6
2024-08-23T0800,2326A,117.6028,26.2378,三明市,三元区政府,,32,32,25,10,8,10,,8,8,11,10,3,4,0.5,0.4
2024-08-23T0800,2327A,117.7275,26.3108,三明市,洋溪,,,,,,,,,,,,,,,,
2024-08-23T0800,1876A,109.5078,18.2489,三亚市,河东子站,,18,18,21,11,11,25,,29,29,7,4,3,3,0.0,0
2024-08-23T0800,1877A,109.4964,18.2681,三亚市,河西子站,,14,14,17,7,9,16,,19,19,8,6,2,2,0.3,0.2
2024-08-23T0800,3540A,109.7348,18.3443,三亚市,君悦子站,,23,23,21,9,9,14,,10,10,8,7,1,1,0.2,0.2
2024-08-23T0800,2624A,91.7608,29.2313,山南市,山南监测站,,11,6,7,3,4,35,,53,53,9,5,7,7,0.3,0.3
2024-08-23T0800,2625A,91.7706,29.2436,山南市,山南人民医院,,14,7,12,3,7,42,,57,57,9,8,7,7,0.4,0.4
2024-08-23T0800,1674A,116.6794,23.3667,汕头市,金平子站,,40,35,24,28,15,17,,11,11,19,14,5,4,1.2,0.8
2024-08-23T0800,1675A,116.7244,23.3633,汕头市,龙湖子站,,23,23,23,13,11,21,,17,17,18,16,7,6,1.3,0.6
2024-08-23T0800,1676A,116.7258,23.2775,汕头市,濠江子站,,23,16,22,16,16,12,,4,4,17,24,6,6,1.0,0.7
2024-08-23T0800,1677A,116.7519,23.4714,汕头市,澄海子站,,33,33,26,21,16,18,,24,24,24,16,8,5,0.9,0.9
2024-08-23T0800,1678A,116.6092,23.2539,汕头市,潮阳子站,,33,33,22,14,8,23,,20,20,12,8,5,5,0.9,0.6
2024-08-23T0800,3444A,116.454,23.2684,汕头市,潮南峡山,,36,36,32,19,17,18,,12,12,6,7,4,5,0.6,0.6
2024-08-23T0800,3624A,116.4069,23.2533,汕头市,潮南子站,,48,48,46,26,18,15,,18,18,16,12,4,4,0.8,0.8
2024-08-23T0800,1693A,115.3653,22.775,汕尾市,市环保局,,18,18,19,10,9,14,,8,8,17,17,8,6,0.6,0.5
2024-08-23T0800,1694A,115.3706,22.7898,汕尾市,市政府,,18,16,17,12,10,14,,11,11,18,15,6,5,0.5,0.4
2024-08-23T0800,1695A,115.3622,22.7925,汕尾市,新城中学,,18,18,22,10,10,15,,10,10,15,16,7,6,0.7,0.6
2024-08-23T0800,2645A,109.9154,33.8715,商洛市,监测站,,30,30,34,16,17,14,,16,16,17,15,3,4,0.7,0.6
2024-08-23T0800,3045A,109.9643,33.8471,商洛市,商州区中学,,38,38,34,16,18,8,,16,16,19,15,7,6,0.9,0.7
2024-08-23T0800,2408A,115.6702,34.4285,商丘市,环境监测站,颗粒物(PM10),66,81,53,30,25,69,,42,42,19,18,14,5,0.7,0.6
2024-08-23T0800,2409A,115.6458,34.4045,商丘市,粮食局,颗粒物(PM10),58,65,45,37,25,79,,90,90,14,7,12,7,0.3,0.3
2024-08-23T0800,2410A,115.6293,34.3948,商丘市,睢阳区环保局,颗粒物(PM10),56,61,49,34,24,82,,84,84,13,10,18,7,0.5,0.4
2024-08-23T0800,3171A,115.6071,34.4465,商丘市,梁园区档案局,颗粒物(PM10),51,51,46,28,21,87,,92,92,11,7,13,7,0.6,0.5
2024-08-23T0800,1141A,121.4,31.238,上海市,普陀,,26,26,32,12,21,71,,75,75,27,19,10,7,0.6,0.5
2024-08-23T0800,1142A,121.478,31.2036,上海市,十五厂,,23,23,33,16,25,62,,70,70,28,19,9,8,0.6,0.6
2024-08-23T0800,1143A,121.467,31.3008,上海市,虹口,,31,31,35,14,26,72,,80,80,32,20,10,9,0.8,0.8
2024-08-23T0800,1144A,121.412,31.1654,上海市,徐汇上师大,,41,41,38,20,25,49,,65,65,43,25,6,5,0.7,0.7
2024-08-23T0800,1145A,121.536,31.2659,上海市,杨浦四漂,,27,27,40,17,26,75,,71,71,24,23,7,7,0.6,0.5
2024-08-23T0800,1147A,121.425,31.2261,上海市,静安监测站,,22,22,32,13,23,69,,75,75,26,19,8,6,0.8,0.7
2024-08-23T0800,1148A,121.703,31.1907,上海市,浦东川沙,,34,34,33,18,22,64,,64,64,30,24,6,6,0.8,0.7
2024-08-23T0800,1149A,121.533,31.2284,上海市,浦东新区监测站,,25,22,35,17,24,57,,66,66,26,20,5,5,0.8,0.8
2024-08-23T0800,1150A,121.577,31.2071,上海市,浦东张江,,29,29,35,19,28,44,,64,64,39,24,6,5,1.0,0.9
2024-08-23T0800,3265A,121.4316,31.3322,上海市,宝山庙行,,26,25,36,13,24,82,,90,90,29,21,8,6,0.6,0.6
2024-08-23T0800,3266A,121.8791,31.4662,上海市,崇明上实东滩,,19,16,25,13,19,60,,65,65,21,17,10,9,0.8,0.9
