timepoint,stationcode,longitude,latitude,area,positionname,primarypollutant,aqi,pm10,pm10_24h,pm2_5,pm2_5_24h,o3,o3_24h,o3_8h,o3_8h_24h,no2,no2_24h,so2,so2_24h,co,co_24h
2024-08-23T2200,2566A,102.1879,31.914,阿坝藏族羌族自治州,州农科所,,35,35,24,18,8,33,,79,58,20,13,9,8,0,0
2024-08-23T2200,2568A,102.2502,31.8896,阿坝藏族羌族自治州,马师校,,30,29,17,21,11,44,,95,72,17,13,3,3,0.4,0.4
2024-08-23T2200,3994A,102.2165,31.9024,阿坝藏族羌族自治州,马尔康中学西区,,36,36,17,24,15,48,,100,84,16,9,4,5,0.4,0.3
2024-08-23T2200,2695A,80.292,41.1694,阿克苏地区,电视台,,48,,40,33,21,100,,107,107,10,16,2,2,0.4,0.5
2024-08-23T2200,2696A,80.2613,41.1551,阿克苏地区,艺术中心,,36,,35,25,15,105,,113,113,9,17,5,4,0.6,0.6
2024-08-23T2200,2204A,105.6467,38.8363,阿拉善盟,西城区西花园,,44,31,41,11,13,139,,150,149,9,11,9,9,0.9,0.9
2024-08-23T2200,2205A,105.6985,38.8411,阿拉善盟,蒙二幼,,43,43,34,12,13,122,,133,132,4,6,6,7,0.5,0.5
2024-08-23T2200,2206A,105.724,38.8516,阿拉善盟,环保局新楼,,40,28,26,10,11,127,,136,136,8,6,9,10,0.3,0.4
2024-08-23T2200,2708A,88.1264,47.8517,阿勒泰地区,市站,,30,30,19,10,7,58,,103,96,36,12,7,7,0.6,0.5
2024-08-23T2200,2630A,80.1161,32.5,阿里地区,阿里监测站,,35,15,6,9,4,112,,117,116,6,7,6,6,0.2,0.2
2024-08-23T2200,3192A,80.0903,32.5028,阿里地区,阿里藏医院,,33,13,9,3,5,103,,112,110,4,3,7,7,0.3,0.3
2024-08-23T2200,2642A,109.0318,32.6537,安康市,香溪洞,,40,32,42,28,25,83,,101,95,5,21,5,6,0.4,0.4
2024-08-23T2200,2643A,109.0281,32.6939,安康市,安康市监测站,,39,39,35,19,18,78,,108,99,5,7,6,7,0.6,0.6
2024-08-23T2200,2291A,117.0809,30.5177,安庆市,环科院,,28,23,32,19,19,56,,119,101,38,21,6,7,0.5,0.6
2024-08-23T2200,2292A,117.0331,30.5119,安庆市,马山宾馆,,36,36,25,24,21,70,,125,100,26,29,8,9,0.5,0.5
2024-08-23T2200,2294A,116.9896,30.6145,安庆市,安庆大学,,48,39,30,33,22,65,,128,107,12,12,8,9,0.6,0.6
2024-08-23T2200,3173A,117.0598,30.5351,安庆市,市人大,,47,47,29,25,23,69,,120,107,20,13,7,7,0.6,0.5
2024-08-23T2200,3123A,105.9408,26.2431,安顺市,凤凰山,,29,,11,20,8,45,,74,68,7,3,8,8,0.4,0.4
2024-08-23T2200,3124A,105.9439,26.2564,安顺市,金钟山,,16,16,11,8,6,47,,76,70,5,4,5,6,0.3,0.5
2024-08-23T2200,3125A,105.8983,26.2481,安顺市,娄家坡,,15,8,9,6,7,47,,77,70,4,3,7,7,0.5,0.5
2024-08-23T2200,1819A,114.3551,36.1017,安阳市,红庙街,颗粒物(PM10),52,54,63,19,30,124,,182,153,2,7,2,3,0.4,0.6
2024-08-23T2200,1820A,114.361,36.0681,安阳市,银杏小区,,,21,43,,26,110,,176,145,6,6,1,4,0.3,0.6
2024-08-23T2200,3141A,114.3922,36.0878,安阳市,信访局,,46,46,59,22,32,118,,188,156,2,12,2,3,0.5,0.6
2024-08-23T2200,3669A,114.4705,36.0637,安阳市,左辅环卫站,,40,40,57,27,37,95,,161,135,10,11,5,6,0.5,0.6
2024-08-23T2200,3703A,114.2917,36.0949,安阳市,安钢职工学校,颗粒物(PM10),51,52,64,31,35,87,,172,145,18,12,4,5,0.5,0.6
2024-08-23T2200,1748A,123.044,41.1196,鞍山市,深沟寺,,32,32,25,15,11,47,,109,89,33,16,4,5,0.7,0.6
2024-08-23T2200,1749A,123.011,41.0931,鞍山市,太阳城,,32,32,27,20,17,55,,115,104,23,14,4,4,0.5,0.5
2024-08-23T2200,1750A,123.0485,41.1442,鞍山市,太平,颗粒物(PM10),55,60,36,29,15,30,,126,102,45,26,3,6,1.0,0.7
2024-08-23T2200,1751A,122.9642,41.0971,鞍山市,铁西三道街,"颗粒物(PM10),细颗粒物(PM2.5)",72,93,33,52,17,20,,133,117,71,27,5,8,1.0,0.9
2024-08-23T2200,1752A,122.9341,41.0833,鞍山市,铁西工业园区,颗粒物(PM10),60,70,40,32,18,22,,127,103,52,28,12,13,0.7,1
2024-08-23T2200,1753A,123.022,41.0821,鞍山市,明达新区,,34,34,22,12,8,51,,121,108,24,16,3,4,0.5,0.4
2024-08-23T2200,2195A,107.4212,40.761,巴彦淖尔市,附二中,颗粒物(PM10),68,86,56,31,23,53,,127,102,55,37,8,11,0.6,0.6
2024-08-23T2200,2196A,107.37,40.7372,巴彦淖尔市,市环保大楼,颗粒物(PM10),64,77,51,17,17,61,,118,96,48,24,4,4,0.6,0.5
2024-08-23T2200,1956A,86.1472,41.7538,巴音郭楞蒙古自治州,孔雀公园,颗粒物(PM10),57,64,67,14,22,64,,112,89,21,14,5,6,0.3,0.3
2024-08-23T2200,1957A,86.1972,41.7166,巴音郭楞蒙古自治州,棉纺厂,颗粒物(PM10),61,72,69,27,25,64,,103,92,23,17,4,5,0.3,0.3
2024-08-23T2200,1958A,86.2357,41.7173,巴音郭楞蒙古自治州,经济开发区,,41,41,59,25,27,58,,104,90,26,10,5,6,0.3,0.2
2024-08-23T2200,2914A,106.7677,31.8794,巴中市,苏山坪,,40,24,30,17,18,128,,129,129,6,7,2,4,0.5,0.5
2024-08-23T2200,3182A,106.7656,31.8545,巴中市,丽阳花园,细颗粒物(PM2.5),54,50,36,38,28,52,,124,102,29,16,5,4,0.7,0.6
2024-08-23T2200,3183A,106.7418,31.8654,巴中市,圣泉水务公司,细颗粒物(PM2.5),52,48,33,36,25,53,,125,102,27,12,4,4,0.8,0.7
2024-08-23T2200,3616A,106.7616,31.8344,巴中市,市中心医院,细颗粒物(PM2.5),55,51,38,39,28,56,,123,100,21,16,5,5,0.8,0.6
2024-08-23T2200,2235A,122.7911,45.6077,白城市,洮北区环保局,,23,21,18,3,6,71,,82,78,6,9,2,4,0.5,0.8
2024-08-23T2200,2236A,122.8738,45.5725,白城市,市环保局,,29,29,22,10,7,45,,70,61,15,15,1,2,0.5,0.5
2024-08-23T2200,2231A,126.4219,41.9171,白山市,喜丰,,46,46,20,19,8,23,,101,80,28,8,9,7,0.7,0.7
2024-08-23T2200,2232A,126.4077,41.9419,白山市,环保局,,36,36,18,20,9,48,,91,78,11,6,6,6,0.6,0.6
2024-08-23T2200,2647A,104.1724,36.5446,白银市,第三小学,,34,34,42,20,23,87,,118,110,16,12,7,20,0.5,0.6
2024-08-23T2200,2648A,104.1465,36.5482,白银市,动力公司,,,,34,22,20,94,,116,109,16,12,8,12,0.4,0.5
2024-08-23T2200,2512A,106.6103,23.9011,百色市,市监测站,,14,14,25,8,12,16,,35,26,13,15,11,13,0.7,0.7
2024-08-23T2200,2513A,106.6538,23.8859,百色市,市中心血站,,22,22,29,13,15,10,,36,24,26,17,10,13,0.8,0.7
2024-08-23T2200,3406A,106.6085,23.8798,百色市,祈福高中,,26,26,29,3,14,8,,35,25,22,17,7,10,0.8,0.8
2024-08-23T2200,2270A,117.396,32.939,蚌埠市,工人疗养院,,34,34,46,11,21,92,,148,132,10,10,7,9,0.4,0.5
2024-08-23T2200,2271A,117.3605,32.9427,蚌埠市,百货大楼,,37,37,50,17,25,100,,153,139,5,8,5,8,0.4,0.6
2024-08-23T2200,2273A,117.4185,32.8911,蚌埠市,蚌埠学院,,31,31,41,17,21,79,,160,132,16,12,6,7,0.5,0.6
2024-08-23T2200,2274A,117.3533,32.9673,蚌埠市,淮上区政府,,39,39,50,21,28,96,,162,145,13,10,6,10,0.7,0.9
2024-08-23T2200,2275A,117.3145,32.8977,蚌埠市,高新区,,44,44,46,20,25,97,,152,133,11,12,5,7,0.6,0.7
2024-08-23T2200,3715A,117.3092,32.9314,蚌埠市,蚌埠田家炳中学,,35,32,47,18,27,109,,146,132,1,8,4,10,0.5,0.7
2024-08-23T2200,1585A,109.8756,40.6532,包头市,市环境监测站,颗粒物(PM10),51,52,33,13,13,15,,158,126,96,30,7,15,1.0,0.8
2024-08-23T2200,1587A,109.9991,40.5842,包头市,包头八中,,,70,42,30,17,34,,184,164,,34,,20,1.0,1.4
2024-08-23T2200,1588A,109.8538,40.6821,包头市,青山宾馆,,44,44,25,25,11,18,,150,118,84,30,7,14,0.9,0.9
2024-08-23T2200,1589A,109.8642,40.6288,包头市,惠龙物流,颗粒物(PM10),51,52,35,22,15,53,,166,138,55,29,8,21,0.8,1
2024-08-23T2200,1590A,110.0377,40.5546,包头市,东河鸿龙湾,颗粒物(PM10),57,63,43,30,22,48,,187,160,58,28,8,23,1.3,1.3
2024-08-23T2200,3283A,109.9154,40.5685,包头市,滨河大厦,,24,24,32,9,16,58,,179,152,48,33,8,20,0.7,0.9
2024-08-23T2200,3419A,109.9447,40.6261,包头市,包头市委党校,,44,43,32,20,14,39,,177,149,88,38,7,13,0.8,0.8
2024-08-23T2200,3683A,109.8331,40.6576,包头市,昆区政府,,47,45,31,27,15,14,,151,127,94,30,7,17,1.0,0.9
2024-08-23T2200,1930A,107.185,34.3063,宝鸡市,庙沟村,,47,47,61,29,27,124,,167,153,20,11,7,7,0.5,0.5
2024-08-23T2200,1931A,107.0708,34.3017,宝鸡市,竹园沟,,48,48,48,32,28,85,,179,149,18,14,8,9,0.6,0.6
2024-08-23T2200,1932A,107.1906,34.3672,宝鸡市,三陆医院,颗粒物(PM10),59,67,53,35,31,81,,174,157,35,25,9,12,0.9,0.8
2024-08-23T2200,1933A,107.1431,34.3547,宝鸡市,监测站,颗粒物(PM10),60,69,70,39,34,84,,171,142,26,23,8,8,0.6,0.6
2024-08-23T2200,1934A,107.1186,34.3739,宝鸡市,技工学校,细颗粒物(PM2.5),62,58,52,44,34,79,,174,147,20,16,9,9,0.8,0.7
2024-08-23T2200,1935A,107.3906,34.3528,宝鸡市,陈仓区环保局家属楼,颗粒物(PM10),61,72,55,40,29,105,,179,164,37,24,8,8,0.7,0.6
2024-08-23T2200,1936A,107.2058,34.3497,宝鸡市,文理学院,颗粒物(PM10),59,68,51,40,36,71,,182,159,36,19,10,10,0.8,0.7
2024-08-23T2200,1937A,107.2386,34.3622,宝鸡市,三迪小学,颗粒物(PM10),57,64,54,36,34,84,,174,158,29,17,9,10,0.9,0.8
2024-08-23T2200,1051A,115.493,38.8632,保定市,游泳馆,,33,33,48,13,24,83,,168,135,17,29,3,2,0.3,0.4
2024-08-23T2200,1052A,115.5213,38.8959,保定市,华电二区,,35,33,49,24,19,81,,166,131,12,24,2,4,0.4,0.4
2024-08-23T2200,1053A,115.4713,38.9108,保定市,接待中心,,34,34,46,8,18,73,,147,118,14,19,1,1,0.5,0.6
2024-08-23T2200,1054A,115.4612,38.8416,保定市,地表水厂,,42,42,65,14,24,57,,167,125,23,28,3,3,0.5,0.5
2024-08-23T2200,3581A,115.31981,38.95208,保定市,满城区生态环境分局,,27,19,37,9,13,84,,167,133,20,19,4,5,0.4,0.4
2024-08-23T2200,3582A,115.47694,38.76408,保定市,清苑区第二中学,,44,44,64,22,33,82,,172,136,23,23,5,5,0.6,0.6
2024-08-23T2200,3583A,115.62909,39.02311,保定市,徐水物探局,,36,36,45,7,15,83,,157,123,15,20,2,4,0.5,0.5
2024-08-23T2200,4004A,115.4202,38.8656,保定市,双鹰农机,,31,23,45,11,17,99,,176,141,9,22,2,3,0.4,0.5
2024-08-23T2200,4034A,115.5150,38.8590,保定市,植保所站,,34,27,49,14,24,106,,196,153,8,28,2,4,0.1,0.5
2024-08-23T2200,2594A,99.1678,25.1081,保山市,市环境监测站,,22,22,29,10,13,28,,67,52,6,8,5,6,1.0,0.7
2024-08-23T2200,2595A,99.1711,25.1328,保山市,市环保局,,25,25,30,3,11,34,,78,56,3,6,5,5,0.5,0.5
2024-08-23T2200,1867A,109.1436,21.4086,北海市,海滩公园,,30,30,27,10,6,51,,63,62,10,8,4,4,0.7,0.7
2024-08-23T2200,1868A,109.0981,21.4661,北海市,新市环保局,,20,16,21,14,11,57,,70,69,12,10,3,3,0.6,0.5
2024-08-23T2200,1869A,109.1778,21.5233,北海市,北海工业园,,29,26,21,20,14,26,,63,56,24,13,5,6,0.6,0.5
2024-08-23T2200,3400A,109.1911,21.4415,北海市,龙潭自来水厂,,23,23,18,15,12,31,,63,57,14,8,3,4,0.6,0.5
2024-08-23T2200,1001A,116.3621,39.8784,北京市,万寿西宫,,26,22,43,12,22,81,,166,132,19,20,3,3,0.6,0.8
2024-08-23T2200,1002A,116.2202,40.2915,北京市,定陵,,12,12,27,6,14,28,,114,92,4,4,1,2,0.4,0.6
2024-08-23T2200,1003A,116.4174,39.9289,北京市,东四,,28,28,66,16,33,77,,173,138,22,26,3,4,0.8,1
2024-08-23T2200,1004A,116.4072,39.8863,北京市,天坛,,25,24,43,16,24,79,,157,123,18,19,3,3,0.5,0.7
2024-08-23T2200,1005A,116.462,39.9365,北京市,农展馆,,26,26,46,15,24,72,,150,123,14,19,8,8,0.4,0.8
2024-08-23T2200,1006A,116.3392,39.9295,北京市,官园,,24,23,46,16,22,76,,169,135,15,22,3,4,0.5,0.7
2024-08-23T2200,1007A,116.2878,39.9611,北京市,海淀万柳,,30,12,43,8,23,93,,148,125,10,21,2,3,0.3,0.6
2024-08-23T2200,1008A,116.6636,40.135,北京市,顺义新城,,29,12,39,7,25,92,,145,127,8,14,3,3,0.4,0.7
2024-08-23T2200,1009A,116.6275,40.3275,北京市,怀柔镇,,19,15,27,8,14,60,,134,113,14,10,5,6,0.5,0.6
2024-08-23T2200,1010A,116.2296,40.217,北京市,昌平镇,,18,15,37,9,19,55,,133,108,12,11,4,4,0.4,0.6
2024-08-23T2200,1011A,116.3966,39.9821,北京市,奥体中心,,,13,47,13,25,82,,145,123,20,29,3,3,,0.9
2024-08-23T2200,1012A,116.184,39.9136,北京市,古城,,26,,41,3,20,81,,150,124,17,20,1,1,0.4,0.6
2024-08-23T2200,3281A,115.9718,40.4529,北京市,延庆夏都,,15,12,25,6,13,46,,105,88,9,10,3,3,0.4,0.5
2024-08-23T2200,3417A,117.0709,40.1465,北京市,平谷新城,,23,13,33,8,18,71,,138,118,7,7,3,2,0.5,0.8
2024-08-23T2200,3418A,116.8336,40.4095,北京市,密云新城,,15,10,25,3,12,48,,126,104,8,6,3,3,0.4,0.5
2024-08-23T2200,3671A,116.088,39.9726,北京市,门头沟三家店,,20,15,38,8,19,64,,137,120,16,13,1,1,0.4,0.5
2024-08-23T2200,3672A,116.1541,39.8204,北京市,丰台云岗,,18,16,43,7,20,57,,155,119,17,20,3,2,0.4,0.5
2024-08-23T2200,3673A,116.6804,39.9081,北京市,通州东关,,29,14,53,9,29,91,,160,136,12,18,3,2,0.4,0.8
2024-08-23T2200,3674A,115.9577,39.7603,北京市,房山燕山,,25,25,36,14,17,73,,149,125,17,11,3,3,0.4,0.5
2024-08-23T2200,3675A,116.4672,39.7733,北京市,大兴旧宫,,28,17,41,10,24,89,,160,131,2,10,3,3,0.5,0.7
2024-08-23T2200,3694A,115.986,40.4563,北京市,延庆石河营,,12,11,26,7,14,36,,108,84,6,7,3,3,0.3,0.4
2024-08-23T2200,3695A,116.6151,40.3053,北京市,怀柔新城,,20,14,27,6,15,63,,129,110,11,5,3,3,0.5,0.6
2024-08-23T2200,3696A,116.2545,39.8768,北京市,丰台小屯,,29,12,41,3,19,92,,146,124,13,26,5,5,0.4,0.6
2024-08-23T2200,3697A,116.84,40.3844,北京市,密云镇,,18,12,25,3,14,57,,123,100,15,13,3,3,0.4,0.6
2024-08-23T2200,1761A,123.8275,41.3064,本溪市,大峪,,26,26,23,12,12,29,,107,82,14,12,6,6,0.6,0.6
2024-08-23T2200,1762A,123.7567,41.3325,本溪市,溪湖,,39,39,25,12,10,18,,110,82,36,14,2,3,0.7,0.7
2024-08-23T2200,1763A,123.7169,41.3094,本溪市,彩屯,,30,30,21,20,12,30,,106,81,25,18,6,7,0.8,0.8
2024-08-23T2200,1764A,123.7669,41.2864,本溪市,东明,,34,34,29,16,13,35,,116,92,29,19,5,6,0.9,0.8
2024-08-23T2200,1765A,123.7992,41.2664,本溪市,新立屯,,21,21,23,7,7,32,,109,74,30,18,4,4,0.5,0.6
2024-08-23T2200,1766A,123.8142,41.3472,本溪市,威宁,,36,36,26,14,14,8,,98,58,26,19,8,8,0.7,0.7
2024-08-23T2200,2587A,105.2864,27.3125,毕节市,八中,细颗粒物(PM2.5),58,46,30,41,22,44,,126,100,18,13,7,8,0.6,0.4
2024-08-23T2200,2588A,105.31,27.2944,毕节市,师专,细颗粒物(PM2.5),69,85,32,50,22,32,,124,97,35,18,6,10,0.8,0.5
2024-08-23T2200,3537A,105.3631,27.3533,毕节市,长征村,细颗粒物(PM2.5),67,57,29,48,24,47,,118,89,22,13,8,9,0.6,0.4
2024-08-23T2200,1629A,118.0018,37.3617,滨州市,第二水厂,细颗粒物(PM2.5),64,70,57,46,36,127,,176,160,11,16,2,3,0.9,0.8
2024-08-23T2200,1630A,117.9776,37.393,滨州市,北中新校,,,80,59,51,35,,,171,145,18,21,14,6,0.6,0.6
2024-08-23T2200,3514A,117.9378,37.3956,滨州市,中海酒店,细颗粒物(PM2.5),64,73,57,46,32,164,,189,171,10,16,15,7,0.8,0.7
2024-08-23T2200,3515A,117.9378,37.3553,滨州市,开发区一中,细颗粒物(PM2.5),64,75,58,46,36,144,,189,176,16,22,6,6,0.7,0.6
2024-08-23T2200,3516A,118.0917,37.694,滨州市,金海六路,颗粒物(PM10),61,71,67,41,37,118,,199,176,12,24,6,5,0.7,0.7
2024-08-23T2200,4028A,117.9956,37.3753,滨州市,滨州市西街道办事处,"颗粒物(PM10),细颗粒物(PM2.5)",62,73,60,44,38,153,,194,180,8,13,8,5,0.7,0.7
2024-08-23T2200,2311A,115.8072,33.8399,亳州市,污水处理厂,,31,31,32,17,19,75,,117,103,13,10,9,8,0.7,0.6
2024-08-23T2200,2312A,115.7789,33.8518,亳州市,三国揽胜宫,,31,28,33,20,21,98,,128,116,8,7,3,5,0.6,0.5
2024-08-23T2200,3332A,115.7633,33.8034,亳州市,亳州学院,,33,17,21,13,16,103,,131,124,7,5,2,4,0.4,0.4
2024-08-23T2200,2693A,82.0485,44.8556,博尔塔拉蒙古自治州,市党校,,39,39,27,18,9,87,,120,117,31,11,9,7,0.6,0.4
2024-08-23T2200,2694A,82.0806,44.8969,博尔塔拉蒙古自治州,市环保局,颗粒物(PM10),54,57,36,18,13,56,,112,107,45,15,5,5,1.0,0.5
2024-08-23T2200,1071A,116.8842,38.2991,沧州市,沧县城建局,,37,31,49,25,35,116,,155,140,6,13,2,3,0.6,0.8
2024-08-23T2200,1072A,116.8584,38.3254,沧州市,电视转播站,,46,46,54,7,34,114,,159,144,7,13,5,4,0.5,0.7
2024-08-23T2200,1073A,116.8709,38.3228,沧州市,市环保局,,36,28,53,23,32,114,,154,140,6,12,2,4,0.3,0.5
2024-08-23T2200,3324A,116.8136,38.3004,沧州市,河北水利电力学院,,38,34,61,15,28,121,,160,143,7,15,4,5,0.4,0.6
2024-08-23T2200,2622A,97.1806,31.1273,昌都市,昌都监测站,,26,26,12,16,7,64,,100,96,27,11,5,5,0.7,0.5
2024-08-23T2200,3719A,97.1714,31.1406,昌都市,昌都会议中心,,28,24,12,15,7,88,,110,109,7,6,6,6,0.5,0.3
2024-08-23T2200,2690A,88.1236,43.8886,昌吉回族自治州,天山天池,,23,23,15,14,6,60,,120,104,4,4,19,16,0.5,0.4
2024-08-23T2200,2692A,87.2717,44.0297,昌吉回族自治州,新区政务中心,,49,49,53,18,19,70,,134,120,47,42,10,11,0.7,0.9
2024-08-23T2200,3613A,87.3095,44.0142,昌吉回族自治州,亚心广场,颗粒物(PM10),58,66,71,17,22,70,,138,125,44,57,4,7,0.4,0.7
2024-08-23T2200,1119A,125.3325,43.9166,长春市,食品厂,颗粒物(PM10),52,54,25,27,13,19,,90,66,56,22,4,4,0.5,0.4
2024-08-23T2200,1120A,125.2863,43.9027,长春市,客车厂,,49,49,23,23,12,12,,91,58,60,22,6,6,0.7,0.5
2024-08-23T2200,1121A,125.2841,43.8463,长春市,邮电学院,,29,29,20,14,9,20,,94,61,30,14,6,6,0.5,0.4
2024-08-23T2200,1122A,125.3716,43.8772,长春市,劳动公园,颗粒物(PM10),51,51,22,24,9,42,,100,79,35,16,7,7,0.7,0.6
2024-08-23T2200,1123A,125.3297,43.8805,长春市,园林处,,50,50,20,20,9,43,,94,76,36,15,4,3,0.7,0.5
2024-08-23T2200,1124A,125.4605,43.79,长春市,净月潭,,19,19,18,8,7,38,,94,72,3,6,5,6,0.3,0.3
2024-08-23T2200,1126A,125.3863,43.8447,长春市,经开区环卫处,,41,41,23,14,8,14,,95,64,56,20,6,6,0.5,0.4
2024-08-23T2200,1127A,125.245,43.7783,长春市,高新区管委会,颗粒物(PM10),52,53,24,23,13,10,,102,65,47,20,3,3,0.6,0.5
2024-08-23T2200,1128A,125.1761,43.8325,长春市,岱山公园,,33,30,21,14,8,17,,90,61,66,23,2,2,0.5,0.4
2024-08-23T2200,1335A,113.0833,28.2325,长沙市,经开区环保局,,38,38,30,18,13,73,,106,100,22,14,2,2,0.4,0.4
2024-08-23T2200,1336A,112.8872,28.2189,长沙市,高开区环保局,,35,35,29,11,14,89,,113,105,10,11,2,4,0.7,0.6
2024-08-23T2200,1337A,113.0792,28.2053,长沙市,马坡岭,,38,38,30,14,16,70,,105,97,17,11,3,4,0.5,0.5
2024-08-23T2200,1338A,112.9394,28.19,长沙市,湖南师范大学,,35,35,34,23,16,68,,126,110,18,10,6,7,0.6,0.6
2024-08-23T2200,1339A,113.0178,28.1322,长沙市,雨花区环保局,,,,31,45,20,88,,56,,13,16,5,6,0.4,0.4
2024-08-23T2200,1340A,112.9792,28.2597,长沙市,伍家岭,,37,37,33,16,16,82,,123,110,10,10,2,4,0.6,0.6
2024-08-23T2200,1341A,113.0014,28.1944,长沙市,火车新站,,34,34,33,17,15,89,,120,112,12,11,4,6,0.4,0.5
2024-08-23T2200,1342A,112.9844,28.1178,长沙市,天心区环保局,,36,36,32,19,16,83,,116,105,14,14,3,4,0.2,0.5
2024-08-23T2200,1343A,112.8908,28.1308,长沙市,湖南中医药大学,,39,39,34,15,17,63,,116,97,29,19,4,6,0.6,0.5
2024-08-23T2200,1344A,112.9581,28.3611,长沙市,沙坪,,48,,22,33,16,62,,132,112,13,12,7,8,0.7,0.7
2024-08-23T2200,1727A,113.1147,36.1547,长治市,清华站,,43,34,45,14,20,135,,186,171,6,19,7,7,0.5,0.6
2024-08-23T2200,1728A,113.1031,36.1989,长治市,监测站,,41,36,42,14,19,130,,187,172,14,20,8,8,0.9,1.1
2024-08-23T2200,1730A,113.0886,36.2125,长治市,审计局,,42,34,38,17,20,132,,174,163,6,20,6,6,0.5,0.8
2024-08-23T2200,1731A,113.0844,36.1856,长治市,长治八中,,40,40,47,18,22,124,,177,166,16,16,6,6,0.5,0.7
2024-08-23T2200,2845A,113.1569,36.1911,长治市,德盛苑,,45,32,36,19,20,142,,195,178,9,10,7,8,1.5,1
2024-08-23T2200,3568A,113.06,36.0464,长治市,向阳小学,颗粒物(PM10),56,61,58,29,33,123,,185,169,9,13,9,9,0.5,0.6
2024-08-23T2200,3569A,112.8792,36.3144,长治市,屯留一中,细颗粒物(PM2.5),59,55,49,42,27,163,,178,174,13,18,9,9,0.6,0.7
2024-08-23T2200,3570A,113.235,36.3489,长治市,潞城四中,颗粒物(PM10),52,54,48,26,28,128,,189,169,12,18,7,7,0.7,1.1
2024-08-23T2200,1854A,111.6975,28.9703,常德市,市二中,,42,30,25,29,15,77,,89,87,8,7,11,8,0.5,0.5
2024-08-23T2200,3138A,111.7153,29.0289,常德市,武陵区永安,,39,39,26,20,14,69,,90,85,8,7,14,9,0.6,0.5
2024-08-23T2200,3139A,111.6892,28.9881,常德市,鼎城区玉霞,,,53,26,,17,44,,89,79,43,11,16,8,0.6,0.5
2024-08-23T2200,3140A,111.6625,29.0531,常德市,武陵区长庚,,37,37,24,21,13,75,,93,91,12,6,14,8,0.6,0.5
2024-08-23T2200,1196A,119.9633,31.762,常州市,市监测站,,42,,48,26,29,133,,183,147,31,19,6,8,0.6,0.6
2024-08-23T2200,1200A,119.9468,31.7069,常州市,武进监测站,,47,37,38,27,26,148,,158,136,14,9,7,17,1.1,1.1
2024-08-23T2200,1201A,119.9255,31.9087,常州市,安家,,46,42,46,32,34,51,,174,127,45,24,6,5,0.9,0.8
2024-08-23T2200,3002A,119.9805,31.8174,常州市,行政中心,,44,44,41,29,34,137,,184,150,24,16,7,8,0.7,0.5
2024-08-23T2200,3003A,120.0522,31.7748,常州市,经开区,臭氧1小时,53,37,47,25,30,162,,201,147,16,18,8,8,0.8,0.9
2024-08-23T2200,3010A,119.9025,31.7964,常州市,钟楼,,38,34,39,26,26,121,,140,121,20,16,8,7,0.6,0.7
2024-08-23T2200,3429A,119.8598,31.7066,常州市,武进经发区,,49,49,48,30,30,114,,154,129,32,19,12,10,0.7,0.7
2024-08-23T2200,3430A,119.5826,31.7245,常州市,金坛城区,,37,37,40,20,24,107,,157,143,17,16,8,8,0.6,0.6
2024-08-23T2200,2220A,120.4318,41.5881,朝阳市,西梁,,,13,13,,1,71,,,,5,6,5,6,,
2024-08-23T2200,2221A,120.4521,41.5646,朝阳市,河畔小区,,27,23,19,7,7,84,,91,89,8,6,8,6,0.7,0.7
2024-08-23T2200,2222A,120.4176,41.5648,朝阳市,八里堡,,34,34,29,10,9,67,,89,78,14,15,6,6,0.7,0.8
2024-08-23T2200,2223A,120.3806,41.5969,朝阳市,农业园区,,20,20,22,12,8,47,,89,70,11,9,4,5,0.7,0.7
2024-08-23T2200,1705A,116.6367,23.6719,潮州市,西园路,,11,,26,7,14,33,,47,37,8,11,2,3,0.2,0.3
2024-08-23T2200,3026A,116.6183,23.6608,潮州市,市政府,,15,,26,10,13,38,,79,49,11,13,10,15,0.5,0.6
2024-08-23T2200,4036A,116.6461,23.6761,潮州市,金山,,15,,21,10,13,39,,59,46,6,8,5,6,0.6,0.6
2024-08-23T2200,2472A,113.0073,25.9061,郴州市,马头岭,,28,28,23,9,12,29,,73,59,13,7,6,7,0.4,0.5
2024-08-23T2200,2473A,113.0116,25.8226,郴州市,市职中,,32,32,15,16,10,34,,86,64,12,7,7,7,0.5,0.4
2024-08-23T2200,2474A,113.0161,25.8001,郴州市,兴隆步行街,,35,35,18,19,11,24,,80,59,17,9,6,6,0.5,0.4
2024-08-23T2200,2475A,113.0383,25.8071,郴州市,市审计局,,38,36,15,26,10,14,,81,59,26,9,3,3,0.6,0.4
2024-08-23T2200,2476A,113.0348,25.7759,郴州市,市环保局,,49,37,15,34,10,23,,79,57,23,8,5,3,0.5,0.3
2024-08-23T2200,1431A,103.9728,30.7236,成都市,金泉两河,,39,22,53,19,36,124,,181,168,9,11,1,3,0.5,0.6
2024-08-23T2200,1432A,104.176,30.6872,成都市,十里店,细颗粒物(PM2.5),63,52,67,45,43,126,,172,140,28,17,3,3,0.7,0.8
2024-08-23T2200,1433A,104.079,30.5706,成都市,三瓦窑,,43,39,56,14,40,135,,204,165,27,37,1,4,0.4,0.5
2024-08-23T2200,1434A,104.1114,30.63,成都市,沙河铺,,45,34,59,25,40,141,,193,160,22,22,5,7,0.6,0.6
2024-08-23T2200,1437A,104.0786,30.6531,成都市,君平街,,42,37,62,23,41,133,,210,178,22,23,3,8,0.5,0.6
2024-08-23T2200,2880A,104.0239,30.65639,成都市,大石西路,,49,49,60,30,42,110,,186,159,20,20,3,6,0.5,0.6
2024-08-23T2200,3136A,104.2725,30.5589,成都市,龙泉驿区区政府,,41,41,44,27,30,102,,181,147,23,13,4,5,0.6,0.7
2024-08-23T2200,3357A,104.0106,30.6931,成都市,金博路,,38,38,55,13,33,109,,168,149,9,11,2,2,0.8,0.9
2024-08-23T2200,3359A,104.0578,30.5225,成都市,华阳,,47,39,55,22,35,149,,191,164,16,19,2,3,0.7,0.7
2024-08-23T2200,3487A,104.2394,30.5319,成都市,车城东七路,颗粒物(PM10),53,55,60,30,42,123,,186,157,25,18,3,5,0.6,0.7
2024-08-23T2200,3488A,104.3853,30.7453,成都市,青白江技师分院,,29,25,43,20,31,69,,160,127,44,28,2,2,0.9,0.9
2024-08-23T2200,3489A,104.0789,30.4072,成都市,科学城,臭氧1小时,60,46,57,31,44,168,,206,174,13,16,4,4,0.6,0.6
2024-08-23T2200,4011A,103.8506,30.6947,成都市,光华大道三段,,36,33,59,11,34,114,,175,160,9,12,2,2,0.7,0.6
2024-08-23T2200,1062A,117.9531,40.9081,承德市,铁路,,30,18,25,3,9,18,,76,60,60,22,7,8,0.4,0.4
2024-08-23T2200,1063A,117.9392,40.9763,承德市,中国银行,,31,31,26,14,8,24,,90,66,21,15,3,4,0.4,0.4
2024-08-23T2200,1064A,117.9503,40.928,承德市,开发区,,18,16,25,12,11,46,,84,70,18,16,5,6,0.3,0.4
2024-08-23T2200,1065A,117.8051,40.9655,承德市,文化中心,,20,20,29,3,10,57,,97,84,11,17,6,7,0.3,0.3
2024-08-23T2200,1066A,117.9268,41.0026,承德市,离宫,,36,36,26,3,6,5,,60,31,7,7,2,2,0.4,0.4
2024-08-23T2200,2314A,117.47,30.6618,池州市,池州学院,细颗粒物(PM2.5),55,48,32,39,23,74,,132,125,15,9,8,6,0.9,0.8
2024-08-23T2200,3237A,117.4918,30.6617,池州市,展览馆,,44,44,34,30,20,75,,130,122,12,7,6,5,0.9,0.8
2024-08-23T2200,3333A,117.5627,30.695,池州市,第八中学,,44,44,35,28,21,76,,128,111,22,14,5,4,0.7,0.7
2024-08-23T2200,3334A,117.5038,30.6243,池州市,第十二中学,,49,49,36,34,23,43,,129,104,32,14,3,4,1.1,1.2
2024-08-23T2200,1744A,118.9233,42.2816,赤峰市,松山一中,,24,24,15,6,3,55,,81,68,20,19,10,10,0.6,0.7
2024-08-23T2200,1745A,118.9576,42.2728,赤峰市,哈达街,,15,12,14,7,7,46,,76,61,15,13,8,9,0.5,0.5
2024-08-23T2200,1746A,118.8788,42.2554,赤峰市,天义路,,21,6,12,3,8,66,,90,77,14,15,7,8,0.2,0.3
2024-08-23T2200,3058A,119.2658,42.0353,赤峰市,银河街,,21,21,24,14,11,61,,86,71,9,11,14,16,0.4,0.5
2024-08-23T2200,3286A,118.9359,42.3147,赤峰市,桥北物流园区,,14,14,17,7,9,34,,89,69,26,18,7,8,0.6,0.6
2024-08-23T2200,2521A,107.3476,22.4136,崇左市,市环保局江州分局,,28,28,15,9,5,17,,45,38,13,5,6,6,0.6,0.5
2024-08-23T2200,2522A,107.3702,22.3707,崇左市,城南新区,,,61,15,3,6,,,46,45,11,5,5,4,0.5,0.4
2024-08-23T2200,2298A,118.3093,32.3153,滁州市,老年大学,,37,37,36,18,24,55,,138,104,19,12,8,10,0.5,0.5
2024-08-23T2200,2299A,118.3244,32.2786,滁州市,人大宾馆,,48,48,41,33,28,81,,138,114,20,14,6,5,0.8,0.6
2024-08-23T2200,3207A,118.3118,32.3038,滁州市,市政府原办公楼,,48,46,35,33,29,60,,130,103,28,14,7,8,0.8,0.6
2024-08-23T2200,3331A,118.3267,32.2634,滁州市,图书馆,细颗粒物(PM2.5),55,50,42,39,27,74,,135,106,21,13,4,5,0.6,0.4
2024-08-23T2200,2605A,101.5482,25.0441,楚雄彝族自治州,州环境监测站,,14,7,8,3,3,44,,61,59,4,4,4,4,0.4,0.4
2024-08-23T2200,2606A,101.538,25.0492,楚雄彝族自治州,市经济开发区,,24,24,11,6,5,43,,60,58,5,5,5,5,0.5,0.5
2024-08-23T2200,2548A,107.5277,31.2827,达州市,达州职业技术学院,颗粒物(PM10),61,72,47,32,27,23,,101,73,20,26,6,8,0.8,0.7
2024-08-23T2200,2549A,107.5086,31.2186,达州市,市环境监测站,颗粒物(PM10),53,55,45,31,23,54,,109,89,36,27,7,8,0.6,0.6
2024-08-23T2200,2550A,107.4988,31.2132,达州市,凤凰小区,颗粒物(PM10),54,58,42,34,26,50,,118,98,39,24,7,10,0.7,0.6
2024-08-23T2200,2551A,107.5082,31.1986,达州市,达县机关宾馆,细颗粒物(PM2.5),62,68,42,44,23,15,,116,88,74,29,6,6,0.6,0.4
2024-08-23T2200,2552A,107.4644,31.2124,达州市,市政中心,"颗粒物(PM10),细颗粒物(PM2.5)",62,73,49,44,28,33,,121,96,58,27,6,6,1.0,0.7
2024-08-23T2200,2614A,100.1542,25.7054,大理白族自治州,大理市环境监测站,,36,36,29,19,17,52,,101,88,12,11,4,4,0.5,0.5
2024-08-23T2200,2615A,100.2171,25.5811,大理白族自治州,大理古城,,35,32,25,24,14,59,,99,87,23,11,9,7,0.7,0.7
2024-08-23T2200,1109A,121.612,38.9741,大连市,甘井子,,28,15,18,13,13,88,,108,102,20,16,7,7,0.6,0.5
2024-08-23T2200,1110A,121.565,38.9511,大连市,周水子,,21,14,20,11,12,67,,98,92,29,21,8,7,0.7,0.6
2024-08-23T2200,1111A,121.5637,38.8845,大连市,星海三站,,31,17,20,9,13,98,,107,103,9,9,7,6,0.3,0.4
2024-08-23T2200,1112A,121.6302,38.9117,大连市,青泥洼桥,,31,31,21,15,16,70,,107,100,25,15,8,8,0.6,0.6
2024-08-23T2200,1113A,121.6251,38.8638,大连市,傅家庄,,27,19,23,13,18,84,,124,102,24,11,8,8,0.5,0.5
2024-08-23T2200,1114A,121.5213,38.8661,大连市,七贤岭,,26,26,19,10,12,79,,106,102,10,9,7,7,0.4,0.4
2024-08-23T2200,1115A,121.2529,38.8061,大连市,旅顺,,,,14,11,13,,,119,119,20,9,9,8,0.5,0.5
2024-08-23T2200,1116A,121.7485,39.1311,大连市,金州,,23,22,18,16,12,46,,100,83,14,12,6,7,0.3,0.4
2024-08-23T2200,1117A,121.7811,39.0496,大连市,开发区,,34,34,26,19,14,83,,110,100,16,11,8,9,0.4,0.4
2024-08-23T2200,1118A,121.9762,39.0631,大连市,双D港,,24,24,24,14,15,65,,129,109,16,15,6,7,0.5,0.6
2024-08-23T2200,1789A,124.81117,46.03138,大庆市,大同区,,39,,27,27,22,53,,86,74,12,10,8,8,0.4,0.4
2024-08-23T2200,1790A,125.129,46.533,大庆市,龙凤区,,35,35,41,17,17,56,,102,74,14,16,4,4,0.5,0.4
2024-08-23T2200,1791A,124.902,46.408,大庆市,红岗区,,36,36,30,24,17,42,,91,71,22,15,8,8,0.5,0.4
2024-08-23T2200,1792A,125.153,46.586,大庆市,萨尔图区,,32,29,26,22,15,62,,83,67,11,13,6,6,0.4,0.3
2024-08-23T2200,1793A,124.9042,46.6215,大庆市,让胡路区,,49,49,30,19,13,28,,84,65,27,19,5,6,0.4,0.3
2024-08-23T2200,3481A,125.141,46.634,大庆市,萨区政府监测点,,25,25,29,9,13,64,,81,73,6,14,7,7,0.2,0.2
2024-08-23T2200,1723A,113.2994,40.0758,大同市,云冈宾馆,颗粒物(PM10),66,82,51,38,20,52,,130,117,56,29,7,11,1.1,0.7
2024-08-23T2200,1724A,113.3444,40.0917,大同市,大同大学,颗粒物(PM10),54,57,37,25,19,72,,130,117,34,25,8,11,0.5,0.5
2024-08-23T2200,1725A,113.2661,40.1269,大同市,安家小村,,45,45,60,15,15,69,,125,113,36,28,10,13,0.5,0.8
2024-08-23T2200,1726A,113.2711,40.0844,大同市,教育学院,颗粒物(PM10),71,92,65,46,24,32,,126,106,76,40,10,15,1.2,0.9
2024-08-23T2200,3282A,113.3397,40.0597,大同市,大同市卫生学校,颗粒物(PM10),55,60,44,32,21,54,,131,115,53,31,8,11,0.8,0.7
2024-08-23T2200,3565A,113.1367,40.1122,大同市,云冈站,颗粒物(PM10),54,57,54,31,21,40,,124,108,31,31,8,12,0.6,0.6
2024-08-23T2200,3566A,113.1186,40.2556,大同市,图书馆,,39,38,31,27,16,71,,138,119,22,14,9,13,0.5,0.4
2024-08-23T2200,3567A,113.5931,40.0461,大同市,区一中,,31,31,28,19,14,97,,136,120,10,13,5,8,0.6,0.6
2024-08-23T2200,3676A,113.2802,40.0995,大同市,第二人民医院,颗粒物(PM10),58,66,52,40,21,68,,134,120,52,30,11,13,0.7,0.7
2024-08-23T2200,2269A,124.1069,50.4097,大兴安岭地区,科技局,,26,24,19,18,16,28,,80,68,10,4,5,2,0.3,0.2
2024-08-23T2200,3663A,124.1164,50.4278,大兴安岭地区,红旗社区,,18,12,8,12,9,14,,80,64,13,3,6,6,0.4,0.4
2024-08-23T2200,1600A,124.3303,40.0625,丹东市,江湾东路,,17,17,15,7,11,25,,87,62,20,12,2,6,0.7,0.8
2024-08-23T2200,1601A,124.4256,40.1503,丹东市,临江后街,,19,18,15,13,8,37,,84,63,19,13,7,6,0.7,0.8
2024-08-23T2200,1602A,124.3933,40.1461,丹东市,元宝山,,15,10,18,8,8,48,,68,59,3,4,1,1,0.4,0.6
2024-08-23T2200,1603A,124.3633,40.1092,丹东市,民主桥,,15,14,16,8,8,46,,78,59,10,16,1,2,0.5,0.7
2024-08-23T2200,3541A,109.5726,19.5167,儋州市,第一中学子站,,20,20,18,6,8,36,,64,51,6,4,4,4,0.5,0.5
2024-08-23T2200,3542A,109.5567,19.5187,儋州市,东坡学校子站,,16,16,16,8,9,42,,70,56,5,4,4,3,0.5,0.6
2024-08-23T2200,2616A,98.5842,24.428,德宏傣族景颇族自治州,德宏州监测站,,20,20,22,11,13,19,,46,35,16,12,23,18,0.7,0.7
2024-08-23T2200,3677A,98.5881,24.4368,德宏傣族景颇族自治州,芒市人民政府综合楼,,27,27,72,12,11,16,,46,36,20,14,29,18,0.6,0.7
2024-08-23T2200,1901A,104.4239,31.1208,德阳市,东山公园,,37,33,44,25,29,118,,154,147,12,15,4,4,0.6,0.7
2024-08-23T2200,1902A,104.3826,31.1317,德阳市,西小区,细颗粒物(PM2.5),53,47,46,37,34,72,,151,130,27,15,3,9,0.9,0.8
2024-08-23T2200,1904A,104.3553,31.1091,德阳市,耐火材料厂,颗粒物(PM10),55,59,53,34,33,83,,138,116,18,21,3,11,0.7,0.7
2024-08-23T2200,3639A,104.4019,31.1244,德阳市,市教育局,,40,35,48,28,29,90,,151,134,24,15,3,3,0.6,0.7
2024-08-23T2200,1622A,116.3032,37.4674,德州市,儿童乐园,颗粒物(PM10),58,66,59,17,30,134,,188,180,12,15,8,9,0.7,0.7
2024-08-23T2200,1624A,116.2991,37.4451,德州市,监理站,颗粒物(PM10),58,66,61,12,28,138,,195,184,11,12,6,8,0.6,0.7
2024-08-23T2200,3066A,116.2721,37.4379,德州市,九衢泉纯净水厂,颗粒物(PM10),57,63,62,17,32,138,,132,132,11,34,7,8,0.7,0.7
2024-08-23T2200,3371A,116.3728,37.4403,德州市,开发区人民医院,颗粒物(PM10),59,68,64,17,30,131,,166,162,8,15,7,9,0.7,0.8
2024-08-23T2200,3372A,116.3572,37.4094,德州市,太阳城中学,,,,62,17,30,135,,148,148,9,23,,46,0.6,0.8
2024-08-23T2200,3511A,116.5652,37.3319,德州市,陵城艺术中心,颗粒物(PM10),115,180,58,17,22,136,,170,154,8,16,9,10,0.6,0.8
2024-08-23T2200,2621A,99.7056,27.8317,迪庆藏族自治州,迪庆州站,,38,38,35,21,17,109,,120,118,11,11,10,10,0.5,0.4
2024-08-23T2200,3180A,99.7136,27.8094,迪庆藏族自治州,质量技术监督局,,32,30,31,18,13,102,,110,108,14,13,9,10,0.6,0.6
2024-08-23T2200,2663A,104.6241,35.5734,定西市,东关小学,,42,38,39,29,25,69,,105,95,11,13,2,2,0.2,0.2
2024-08-23T2200,2664A,104.6194,35.5934,定西市,供电公司,,39,36,42,27,29,53,,110,97,28,13,6,6,0.4,0.3
2024-08-23T2200,1389A,113.7547,23.0494,东莞市,莞城梨川,颗粒物(PM10),51,52,46,31,27,27,,100,59,40,40,6,6,0.9,0.9
2024-08-23T2200,1390A,113.7944,23.0128,东莞市,东城石井,,37,37,39,21,26,13,,95,48,29,37,4,5,0.7,0.7
2024-08-23T2200,1391A,113.7383,22.9658,东莞市,南城西平,,49,49,42,27,23,22,,96,64,50,36,3,3,0.7,0.7
2024-08-23T2200,3319A,113.7338,23.0381,东莞市,万江金泰,颗粒物(PM10),52,54,43,31,28,25,,102,59,42,40,6,6,0.9,1
2024-08-23T2200,3626A,113.7533,23.0202,东莞市,南城元岭,,50,50,45,29,28,17,,94,63,50,35,7,7,0.8,0.8
2024-08-23T2200,3627A,113.7875,23.0457,东莞市,东城主山,,48,48,46,29,27,20,,96,53,40,38,8,8,0.7,0.7
2024-08-23T2200,1666A,118.6614,37.4309,东营市,市环保局,,48,41,59,27,37,153,,204,182,9,20,3,9,0.4,0.5
2024-08-23T2200,3036A,118.6904,37.4338,东营市,开发区管委会,,48,48,68,27,38,151,,202,180,11,25,8,9,0.4,0.4
2024-08-23T2200,3365A,118.5719,37.565,东营市,垦利区民丰路,,46,46,60,31,37,124,,177,155,9,15,6,8,0.4,0.5
2024-08-23T2200,3498A,118.5055,37.8612,东营市,河口城区,,44,44,50,29,33,132,,158,147,4,8,4,5,0.9,1
2024-08-23T2200,3646A,118.4978,37.4623,东营市,胜利站,,45,40,56,29,37,143,,188,172,12,29,6,8,0.7,0.8
2024-08-23T2200,3734A,118.35,37.26,东营市,理想之城,,45,36,56,31,40,144,,189,176,10,24,4,9,0.4,0.5
2024-08-23T2200,1591A,110.0023,39.8129,鄂尔多斯市,综合楼,颗粒物(PM10),71,92,61,24,14,40,,144,126,80,41,11,14,0.8,0.7
2024-08-23T2200,1592A,109.9486,39.8261,鄂尔多斯市,巴音孟克林场办事处,颗粒物(PM10),78,105,61,27,19,8,,129,92,94,43,8,9,1.1,0.6
2024-08-23T2200,1593A,109.7736,39.5986,鄂尔多斯市,康泽苑,,44,44,46,12,15,37,,138,110,45,22,6,6,1.0,0.9
2024-08-23T2200,1594A,109.8119,39.5989,鄂尔多斯市,华泰汽车城,,44,44,48,19,22,16,,131,84,78,37,8,8,0.8,0.6
2024-08-23T2200,1595A,109.9734,39.7884,鄂尔多斯市,奥林花园,颗粒物(PM10),81,112,58,31,18,11,,130,100,80,43,7,7,1.3,0.6
2024-08-23T2200,2436A,114.8938,30.3994,鄂州市,市政府,颗粒物(PM10),55,59,48,28,19,93,,160,142,11,8,7,5,0.7,0.7
2024-08-23T2200,2437A,114.8989,30.3714,鄂州市,赵家坝,颗粒物(PM10),52,53,45,23,18,90,,153,134,16,14,11,11,0.5,0.6
2024-08-23T2200,3654A,114.8094,30.4089,鄂州市,精准医疗中心,,43,43,41,12,19,104,,156,146,10,17,10,14,0.6,1.1
2024-08-23T2200,2454A,109.4978,30.2981,恩施土家族苗族自治州,湖北民院,,29,26,26,20,20,89,,106,90,11,17,8,8,0.5,0.6
2024-08-23T2200,2455A,109.4707,30.2798,恩施土家族苗族自治州,州电力总公司,,31,31,26,14,19,84,,99,82,13,19,7,7,0.6,0.7
2024-08-23T2200,3549A,109.5061,30.3772,恩施土家族苗族自治州,龙凤新区,,30,21,23,3,17,93,,107,97,5,7,6,6,0.6,0.6
2024-08-23T2200,2499A,108.3411,21.6158,防城港市,沙万,,40,40,17,11,8,10,,44,39,45,18,10,11,1.3,0.8
2024-08-23T2200,2500A,108.3514,21.7731,防城港市,防城档案局,,31,31,17,11,9,4,,39,31,14,9,6,6,0.8,0.7
2024-08-23T2200,2501A,108.3506,21.6414,防城港市,大海花园,,33,33,12,8,6,25,,45,43,19,12,8,7,1.1,0.6
2024-08-23T2200,1371A,113.1294,23.0067,佛山市,湾梁,,39,39,29,18,18,36,,111,89,41,30,7,7,0.8,0.8
2024-08-23T2200,1372A,113.1083,23.0478,佛山市,华材职中,,39,39,30,17,14,29,,107,85,42,32,6,6,0.4,0.4
2024-08-23T2200,1373A,113.144,23.0453,佛山市,南海气象局,,46,46,34,24,18,47,,101,88,34,28,6,5,0.6,0.6
2024-08-23T2200,1374A,113.2881,22.8094,佛山市,顺德苏岗,,37,37,25,14,14,6,,89,64,44,26,6,7,0.7,0.7
2024-08-23T2200,1376A,112.8383,22.8678,佛山市,高明孔堂,,39,39,24,13,11,17,,75,62,26,14,7,7,0.6,0.5
2024-08-23T2200,1377A,112.8836,23.1588,佛山市,三水监测站,,21,14,29,9,20,16,,100,84,41,29,4,5,0.5,0.6
2024-08-23T2200,1378A,112.867,23.185,佛山市,三水云东海,,13,13,41,7,23,17,,93,81,20,28,6,10,0.5,0.6
2024-08-23T2200,3625A,113.2544,22.7642,佛山市,容桂街道办,,34,34,27,17,17,12,,84,66,35,30,6,6,0.7,0.8
2024-08-23T2200,1282A,119.2681,26.0504,福州市,师大,,47,47,35,23,14,78,,128,119,20,12,4,4,0.5,0.5
2024-08-23T2200,1283A,119.2984,26.1028,福州市,五四北路,,,,,31,15,102,,129,127,17,15,4,3,0.6,0.5
2024-08-23T2200,1284A,119.2648,26.0768,福州市,杨桥西路,,44,44,35,29,16,95,,126,124,17,14,4,3,0.5,0.5
2024-08-23T2200,1285A,119.317,26.0746,福州市,紫阳,,48,44,36,33,15,84,,124,117,20,18,6,6,0.6,0.5
2024-08-23T2200,3048A,119.5799,26.0936,福州市,九龙,,26,18,31,18,17,58,,122,103,7,13,5,6,0.4,0.4
2024-08-23T2200,3526A,119.5189,25.9664,福州市,吴航,,43,43,34,22,17,52,,123,100,15,14,5,6,0.8,0.7
2024-08-23T2200,1755A,123.7977,41.8491,抚顺市,望花区,,25,23,20,17,10,40,,101,81,23,9,8,8,0.5,0.4
2024-08-23T2200,1756A,123.9161,41.8822,抚顺市,顺城区,,24,24,23,16,12,13,,96,57,35,20,2,3,0.4,0.3
2024-08-23T2200,1757A,124.0436,41.8611,抚顺市,东洲区,,27,27,14,10,10,26,,90,68,19,9,5,5,0.4,0.3
2024-08-23T2200,1758A,123.9247,41.8642,抚顺市,新抚区,,32,32,21,11,10,18,,96,66,28,14,6,6,0.2,0.2
2024-08-23T2200,1759A,124.0972,41.8961,抚顺市,大伙房水库,,18,14,15,12,12,28,,94,72,21,10,3,4,0.6,0.6
2024-08-23T2200,1760A,123.7086,41.8391,抚顺市,沈抚新城,,16,14,21,11,9,25,,105,77,21,14,5,6,0.4,0.4
2024-08-23T2200,2376A,116.2127,28.0814,抚州市,桐源党溪,颗粒物(PM10),54,57,34,35,15,22,,89,68,16,6,7,6,0.7,0.8
2024-08-23T2200,2377A,116.3544,27.9831,抚州市,市站,,41,41,30,22,15,71,,90,86,8,7,5,3,0.3,0.5
2024-08-23T2200,2378A,116.3565,27.963,抚州市,血防站,,35,35,29,20,15,68,,92,89,7,6,4,4,0.5,0.5
2024-08-23T2200,2379A,116.3564,28.0007,抚州市,采茶剧团,,38,35,30,26,16,68,,91,86,7,9,4,4,0.5,0.6
2024-08-23T2200,2380A,116.385,27.9647,抚州市,医学分院,,39,39,31,22,14,52,,91,84,15,10,3,5,0.7,0.8
2024-08-23T2200,2207A,121.6094,41.998,阜新市,工业园区,颗粒物(PM10),54,58,32,34,16,26,,113,86,35,18,13,9,0.9,0.7
2024-08-23T2200,2208A,121.6697,42.0279,阜新市,长青街,颗粒物(PM10),53,55,30,29,14,22,,97,71,31,15,13,8,0.8,0.6
2024-08-23T2200,2209A,121.6673,42.0705,阜新市,农业园区,,50,50,24,29,11,67,,86,73,16,13,15,8,0.7,0.5
2024-08-23T2200,2210A,121.6717,42.0224,阜新市,东苑,颗粒物(PM10),58,65,32,36,17,25,,98,76,38,18,30,13,0.6,0.5
2024-08-23T2200,2211A,121.6506,42.0498,阜新市,玉龙新城,,46,46,33,22,11,25,,100,68,36,17,8,8,0.8,0.6
2024-08-23T2200,2301A,115.8277,32.8929,阜阳市,市监测站,,30,27,33,21,20,79,,130,112,14,9,7,7,0.6,0.6
2024-08-23T2200,2303A,115.8554,32.8605,阜阳市,开发区,,37,37,33,17,18,85,,134,111,12,11,6,6,0.5,0.5
2024-08-23T2200,2875A,115.784,32.8892,阜阳市,阜阳职业技术学院,,32,32,29,16,15,88,,128,111,13,8,6,6,0.5,0.5
2024-08-23T2200,3468A,115.7901,32.8613,阜阳市,市规划展馆,,36,31,36,25,23,83,,129,107,13,11,6,6,0.6,0.6
2024-08-23T2200,3469A,115.836,32.9183,阜阳市,枣园社区,,32,26,39,22,24,83,,130,114,17,12,6,6,0.7,0.6
2024-08-23T2200,2669A,102.9099,34.9841,甘南藏族自治州,州政府,,43,38,25,30,18,79,,98,86,5,8,8,8,0.4,0.4
2024-08-23T2200,3380A,102.8914,34.9617,甘南藏族自治州,甘肃民族师范学院,颗粒物(PM10),53,56,26,19,11,30,,108,91,42,12,6,5,0.4,0.4
2024-08-23T2200,2570A,101.9603,30.0475,甘孜藏族自治州,水桥子,,38,27,27,26,18,113,,128,123,9,14,4,4,0.6,0.4
2024-08-23T2200,3065A,101.9533,29.9972,甘孜藏族自治州,州环保局,,35,35,30,3,11,109,,128,125,8,19,2,2,0.4,0.3
2024-08-23T2200,3414A,115.8347,28.932,赣江新区,桑海产业园,颗粒物(PM10),52,53,38,20,17,31,,116,82,50,27,10,11,0.3,0.2
2024-08-23T2200,2363A,114.9367,25.8664,赣州市,地委,,34,34,29,19,14,53,,102,88,15,11,5,5,0.8,0.8
2024-08-23T2200,2364A,114.9461,25.8481,赣州市,气象台,,32,32,27,17,14,48,,94,80,8,10,9,14,0.4,0.4
2024-08-23T2200,2365A,114.9322,25.8333,赣州市,市图书馆,,34,34,25,11,12,52,,104,89,15,7,4,4,0.8,0.7
2024-08-23T2200,2366A,114.8905,25.8471,赣州市,华坚鞋城,,45,38,26,31,13,51,,93,78,11,8,31,3,0.3,0.3
2024-08-23T2200,3109A,115.0093,25.8613,赣州市,赣县区卫计委,,28,27,27,19,14,37,,97,82,26,17,6,6,0.7,0.6
2024-08-23T2200,2683A,106.2319,36.1417,固原市,马园,颗粒物(PM10),60,70,68,24,23,48,,118,93,52,22,5,5,0.8,0.8
2024-08-23T2200,2684A,106.2792,36.0022,固原市,监测站,,45,41,34,31,26,87,,118,102,16,12,8,9,0.3,0.3
2024-08-23T2200,2685A,106.2375,36.0211,固原市,新区,细颗粒物(PM2.5),57,,33,40,26,82,,114,98,17,10,7,6,0.5,0.5
2024-08-23T2200,3522A,106.2177,35.9959,固原市,原州区十五小,,37,37,33,24,22,92,,120,104,13,12,8,9,0.8,0.7
2024-08-23T2200,2544A,106.6303,30.4576,广安市,市委,,35,35,35,24,25,84,,146,127,28,17,10,9,0.5,0.5
2024-08-23T2200,2545A,106.6271,30.4663,广安市,友谊中学,,41,41,35,19,23,59,,146,120,37,17,7,8,0.6,0.5
2024-08-23T2200,2547A,106.6388,30.4551,广安市,广电花园,,35,35,39,19,23,80,,144,121,27,15,15,15,0.6,0.6
2024-08-23T2200,2902A,106.6351,30.4865,广安市,北辰小学,,39,35,41,27,24,66,,148,125,24,13,8,9,0.4,0.4
2024-08-23T2200,2523A,105.8945,32.4535,广元市,黑石坡,,33,21,32,19,22,103,,130,117,6,9,7,9,0.4,0.5
2024-08-23T2200,2524A,105.821,32.4444,广元市,老城,细颗粒物(PM2.5),53,46,34,37,16,16,,144,105,70,31,2,2,0.9,0.8
2024-08-23T2200,2526A,105.8628,32.4287,广元市,监测站,,35,35,29,17,18,74,,147,119,14,12,2,3,0.6,0.7
2024-08-23T2200,3617A,105.8047,32.4166,广元市,经开区,,48,47,44,33,29,39,,148,111,45,23,4,5,0.6,0.7
2024-08-23T2200,1345A,113.2347,23.1423,广州市,广雅中学,颗粒物(PM10),55,60,35,35,16,26,,120,101,69,41,7,5,0.8,0.6
2024-08-23T2200,1346A,113.2612,23.105,广州市,市五中,细颗粒物(PM2.5),58,56,36,41,27,22,,120,105,67,40,4,4,0.9,0.8
2024-08-23T2200,1348A,113.3478,23.0916,广州市,广东商学院,颗粒物(PM10),58,65,44,40,29,11,,101,70,69,41,8,4,0.8,0.8
2024-08-23T2200,1349A,113.4332,23.1047,广州市,市八十六中,颗粒物(PM10),59,68,41,37,23,33,,95,58,51,47,6,5,0.9,0.8
2024-08-23T2200,1350A,113.3505,22.9483,广州市,番禺中学,,31,30,30,11,19,10,,118,86,62,36,4,5,0.6,0.6
2024-08-23T2200,1351A,113.2146,23.3916,广州市,花都师范,,42,42,35,23,20,4,,79,54,64,46,7,6,0.7,0.6
2024-08-23T2200,1352A,113.2597,23.1331,广州市,市监测站,颗粒物(PM10),58,65,37,31,20,25,,109,92,65,38,8,5,0.6,0.5
2024-08-23T2200,1353A,113.5618,23.312,广州市,九龙镇镇龙,,26,26,26,15,16,12,,39,33,28,21,6,6,0.6,0.5
2024-08-23T2200,1354A,113.2765,23.1544,广州市,麓湖,细颗粒物(PM2.5),59,62,35,42,20,30,,73,48,58,36,6,4,1.0,0.9
2024-08-23T2200,1355A,113.443,23.3035,广州市,帽峰山森林公园,,31,31,24,19,14,55,,52,44,17,19,3,3,0.5,0.4
2024-08-23T2200,2846A,113.3221,23.1322,广州市,体育西,颗粒物(PM10),61,71,45,43,26,20,,115,87,62,33,8,6,1.0,0.9
2024-08-23T2200,3298A,113.5717,23.5491,广州市,从化街口,,35,35,24,20,13,21,,45,29,19,16,6,7,0.8,0.7
2024-08-23T2200,3299A,113.3472,23.3692,广州市,白云竹料,,36,36,32,20,18,3,,58,25,32,29,4,4,0.9,0.7
2024-08-23T2200,3300A,113.2981,23.237,广州市,白云嘉禾,"颗粒物(PM10),细颗粒物(PM2.5)",65,79,42,47,23,20,,91,61,78,48,5,5,1.1,0.9
2024-08-23T2200,3301A,113.4256,23.1716,广州市,黄埔科学城,颗粒物(PM10),53,56,37,34,20,14,,75,41,54,36,6,6,0.9,0.8
2024-08-23T2200,3302A,113.3942,23.0483,广州市,番禺大学城,细颗粒物(PM2.5),55,52,30,39,22,4,,90,62,87,39,7,7,0.8,0.7
2024-08-23T2200,3303A,113.4922,22.8168,广州市,南沙黄阁,,29,24,37,20,23,31,,117,85,25,30,4,4,0.7,0.8
2024-08-23T2200,3304A,113.5342,22.7896,广州市,南沙街,,24,24,30,14,18,7,,103,67,39,23,4,5,0.6,0.7
2024-08-23T2200,3443A,113.2902,23.5544,广州市,花都梯面,,40,40,33,21,17,9,,73,41,37,24,4,4,0.7,0.6
2024-08-23T2200,3445A,113.7858,23.7478,广州市,从化良口,,18,18,16,7,6,8,,37,22,18,11,5,5,0.8,0.7
2024-08-23T2200,3446A,113.8051,23.2614,广州市,增城荔城,,16,16,25,10,14,20,,67,42,13,15,7,7,0.5,0.5
2024-08-23T2200,2506A,109.6047,23.0666,贵港市,江南子站,,31,31,40,15,18,14,,42,26,24,20,8,8,0.9,0.7
2024-08-23T2200,2507A,109.6014,23.0948,贵港市,贵城子站,,30,30,33,18,18,17,,41,26,16,16,7,8,0.6,0.7
2024-08-23T2200,2508A,109.5669,23.1065,贵港市,荷城子站,,27,27,26,9,9,18,,41,27,17,13,10,10,0.4,0.5
2024-08-23T2200,3405A,109.5886,23.1172,贵港市,新世纪学校,,22,22,28,10,11,13,,42,27,19,13,11,9,0.6,0.6
2024-08-23T2200,1439A,106.6899,26.5998,贵阳市,马鞍山,,17,17,8,3,0,44,,69,60,7,6,4,4,0.3,0.3
2024-08-23T2200,1440A,106.6971,26.5694,贵阳市,市环保站,,44,44,19,16,12,35,,64,50,23,15,5,5,0.2,0.2
2024-08-23T2200,1441A,106.6243,26.6266,贵阳市,鉴湖路,,14,14,12,9,4,43,,74,64,7,5,5,5,0.4,0.3
2024-08-23T2200,1442A,106.7487,26.6343,贵阳市,燕子冲,,15,9,5,9,8,45,,76,64,8,7,6,7,0.4,0.4
2024-08-23T2200,1443A,106.6555,26.4365,贵阳市,碧云窝,,14,12,14,3,2,43,,64,55,7,5,5,6,0.3,0.3
2024-08-23T2200,1444A,106.694,26.5161,贵阳市,中院村,,14,9,16,7,7,43,,65,56,7,9,6,8,0.4,0.4
2024-08-23T2200,1445A,106.7109,26.6027,贵阳市,红边门,,32,22,16,22,13,41,,72,58,13,12,3,5,0.3,0.3
2024-08-23T2200,1446A,106.7164,26.5699,贵阳市,新华路,,17,17,15,7,5,43,,68,57,8,9,3,6,0.3,0.3
2024-08-23T2200,1447A,106.674,26.5424,贵阳市,太慈桥,,15,6,4,3,3,45,,70,59,6,7,4,4,0.4,0.3
2024-08-23T2200,1862A,110.4144,25.3167,桂林市,电子科大尧山校区,,23,23,26,10,10,29,,60,49,4,5,4,10,0.5,0.5
2024-08-23T2200,1863A,110.2819,25.2697,桂林市,监测站,,18,15,19,12,11,30,,58,42,14,12,6,5,0.5,0.5
2024-08-23T2200,1864A,110.3089,25.2708,桂林市,龙隐路小学,,20,20,15,12,12,27,,57,40,10,8,5,6,0.3,0.3
2024-08-23T2200,1865A,110.2869,25.2178,桂林市,八中,,23,23,17,7,5,23,,53,39,10,10,6,6,0.5,0.5
2024-08-23T2200,3403A,110.1764,25.2381,桂林市,创业大厦,,,,17,,12,35,,48,42,,14,6,6,,0.3
2024-08-23T2200,3531A,110.296,25.1253,桂林市,旅游学院,,10,6,8,3,4,30,,54,44,11,8,5,5,0.3,0.3
2024-08-23T2200,2674A,100.2561,34.4714,果洛藏族自治州,玛沁县大武镇,,25,,16,17,12,79,,96,88,1,3,8,6,0.4,0.4
2024-08-23T2200,1129A,126.5422,45.755,哈尔滨市,岭北,,36,33,21,25,14,70,,101,90,17,12,9,9,0.4,0.4
2024-08-23T2200,1130A,126.561,45.8167,哈尔滨市,松北商大,,37,37,21,16,7,25,,76,63,46,17,7,7,0.7,0.6
2024-08-23T2200,1131A,126.979,45.5419,哈尔滨市,阿城会宁,,45,45,27,19,13,40,,88,74,24,15,6,8,0.6,0.9
2024-08-23T2200,1132A,126.599,45.7222,哈尔滨市,南岗学府路,颗粒物(PM10),58,66,29,25,11,40,,94,81,35,11,6,6,0.6,0.4
2024-08-23T2200,1133A,126.689,45.7733,哈尔滨市,太平宏伟公园,,48,48,26,22,10,44,,88,82,28,13,6,5,0.5,0.4
2024-08-23T2200,1134A,126.635,45.7667,哈尔滨市,道外承德广场,,42,42,25,3,5,56,,86,81,24,15,10,11,0.5,0.5
2024-08-23T2200,1135A,126.685,45.7319,哈尔滨市,香坊红旗大街,,41,41,24,26,15,62,,94,87,19,12,4,4,0.7,0.5
2024-08-23T2200,1136A,126.6411,45.7258,哈尔滨市,动力和平路,颗粒物(PM10),58,65,24,19,9,51,,91,81,34,15,6,6,0.6,0.5
2024-08-23T2200,1137A,126.593,45.7478,哈尔滨市,道里建国路,,43,43,26,21,8,46,,84,75,24,16,9,7,0.4,0.2
2024-08-23T2200,1138A,126.615,45.61,哈尔滨市,平房东轻厂,颗粒物(PM10),52,54,30,12,12,24,,86,50,50,27,5,5,0.4,0.3
2024-08-23T2200,1139A,126.595,45.9855,哈尔滨市,呼兰师专,,39,30,19,27,9,58,,72,67,11,11,10,10,0.6,0.5
2024-08-23T2200,1140A,126.6206,45.6842,哈尔滨市,省农科院,颗粒物(PM10),71,91,27,36,16,10,,87,54,61,21,7,6,0.7,0.5
2024-08-23T2200,2688A,93.5128,42.8172,哈密市,地区监测站,颗粒物(PM10),59,67,59,24,17,66,,133,114,56,21,3,3,0.6,0.4
2024-08-23T2200,2689A,93.4961,42.8328,哈密市,哈密师范学校,颗粒物(PM10),65,79,46,25,16,55,,130,108,53,22,5,5,1.0,0.7
2024-08-23T2200,2671A,100.9048,36.9639,海北藏族自治州,海晏县西海镇,颗粒物(PM10),52,53,38,32,21,141,,136,136,12,9,16,17,0.5,0.6
2024-08-23T2200,3867A,102.0738,36.5056,海东市,平安区公安北苑,,45,39,46,31,27,107,,144,136,18,13,8,13,1.0,0.8
2024-08-23T2200,1410A,110.3232,20.0574,海口市,海南大学,,31,31,19,15,9,35,,64,53,15,7,6,6,0.5,0.4
2024-08-23T2200,1411A,110.283,20.0053,海口市,秀英海南医院,,30,27,20,21,10,19,,65,45,20,11,7,7,0.4,0.3
2024-08-23T2200,1412A,110.338,19.9969,海口市,海南师范大学,,25,25,20,16,10,20,,65,48,18,9,7,7,0.5,0.4
2024-08-23T2200,1413A,110.33,20.0356,海口市,龙华路环保局宿舍,,24,24,19,16,8,20,,62,48,19,7,8,8,0.4,0.2
2024-08-23T2200,3539A,110.5111,19.9736,海口市,桂林洋子站,,33,33,17,17,9,19,,64,40,19,7,7,6,0.3,0.2
2024-08-23T2200,2673A,100.6188,36.2866,海南藏族自治州,共和县恰卜恰镇,细颗粒物(PM2.5),52,40,42,36,31,107,,121,118,6,8,12,16,0.6,0.6
2024-08-23T2200,2676A,97.3731,37.3753,海西蒙古族藏族自治州,德令哈市,,36,36,68,19,23,98,,114,110,5,7,9,9,0.2,0.4
2024-08-23T2200,1048A,114.5302,36.6116,邯郸市,东污水处理厂,颗粒物(PM10),54,58,67,17,30,100,,169,137,18,16,2,3,0.4,0.7
2024-08-23T2200,1049A,114.4918,36.5713,邯郸市,矿院,,48,48,63,29,36,98,,184,148,10,12,2,3,0.5,0.7
2024-08-23T2200,1050A,114.484,36.6133,邯郸市,丛台公园,,36,31,52,25,32,111,,164,136,6,4,1,5,0.4,0.7
2024-08-23T2200,3458A,114.7895,36.5593,邯郸市,香泉濮院小区,颗粒物(PM10),51,52,52,21,18,117,,165,156,9,10,1,2,0.6,0.5
2024-08-23T2200,3579A,114.50634,36.77178,邯郸市,永年区实验高中,,43,43,77,30,38,106,,212,163,21,15,3,6,0.2,0.9
2024-08-23T2200,3580A,114.20016,36.44293,邯郸市,峰峰矿区临水派出所,,37,25,36,20,27,116,,198,162,6,6,1,7,0.4,0.8
2024-08-23T2200,2634A,106.9893,33.1842,汉中市,汉川机床厂子校,,46,37,31,32,20,67,,116,110,12,9,4,4,0.6,0.6
2024-08-23T2200,2635A,107.0154,33.0706,汉中市,市监测站,颗粒物(PM10),62,74,46,33,26,70,,128,118,20,9,8,7,0.9,0.8
2024-08-23T2200,2636A,107.0089,33.1138,汉中市,鑫源开发区,细颗粒物(PM2.5),100,,40,75,24,57,,126,114,24,12,10,9,0.6,0.6
2024-08-23T2200,2637A,107.007,33.0323,汉中市,南郑大河坎水厂,颗粒物(PM10),53,55,39,29,25,44,,125,105,8,7,8,8,0.7,0.6
2024-08-23T2200,1223A,120.2072,30.2111,杭州市,滨江,,,55,42,30,21,,,169,169,37,21,6,4,0.7,0.7
2024-08-23T2200,1224A,120.0633,30.2747,杭州市,西溪,,49,,30,34,26,87,,161,150,25,23,6,6,0.7,0.7
2024-08-23T2200,1226A,120.3461,30.3153,杭州市,下沙,,49,49,55,22,28,83,,189,163,41,26,7,6,0.8,0.8
2024-08-23T2200,1227A,120.1269,30.2456,杭州市,卧龙桥,,38,36,30,26,23,58,,186,156,26,16,5,5,0.8,0.7
2024-08-23T2200,1228A,120.1903,30.2692,杭州市,浙江农大,,41,41,33,27,23,95,,171,154,34,26,10,8,0.7,0.7
2024-08-23T2200,1230A,120.1197,30.3119,杭州市,和睦小学,,40,40,35,26,22,117,,192,180,24,22,8,6,0.6,0.6
2024-08-23T2200,1231A,120.3019,30.4183,杭州市,临平镇,,33,31,53,16,21,105,,196,168,24,25,4,5,0.8,0.8
2024-08-23T2200,1232A,120.2697,30.1819,杭州市,城厢镇,颗粒物(PM10),51,51,46,33,27,92,,187,172,32,20,8,6,0.7,0.8
2024-08-23T2200,1233A,120.0883,30.1808,杭州市,云栖,,29,29,27,15,16,38,,166,132,46,23,8,8,0.8,0.7
2024-08-23T2200,3557A,119.9464,30.0494,杭州市,镇二中,细颗粒物(PM2.5),59,65,39,42,26,106,,151,148,27,23,8,8,0.8,0.8
2024-08-23T2200,3558A,119.7183,30.2367,杭州市,市府大楼,,43,43,30,29,21,93,,158,150,22,14,5,6,0.7,0.6
2024-08-23T2200,3656A,120.1556,30.2864,杭州市,消防大队,,42,42,40,25,25,106,,186,169,28,21,8,7,0.8,0.9
2024-08-23T2200,1270A,117.1959,31.7848,合肥市,明珠广场,,42,39,32,29,25,81,,166,137,32,17,6,6,0.6,0.5
2024-08-23T2200,1271A,117.3072,31.8764,合肥市,三里街,,48,48,36,27,21,92,,158,131,29,18,4,4,0.6,0.5
2024-08-23T2200,1272A,117.2588,31.8707,合肥市,琥珀山庄,,44,44,40,28,26,114,,168,147,13,11,5,6,0.6,0.5
2024-08-23T2200,1273A,117.1604,31.9052,合肥市,董铺水库,,41,41,35,22,21,76,,136,125,18,10,2,2,0.5,0.4
2024-08-23T2200,1274A,117.25,31.8571,合肥市,长江中路,,41,41,42,25,27,107,,163,140,14,12,7,7,0.8,0.7
2024-08-23T2200,1275A,117.266,31.9436,合肥市,庐阳区,颗粒物(PM10),56,61,37,29,21,80,,177,147,37,15,4,4,0.6,0.5
2024-08-23T2200,1276A,117.336,31.8586,合肥市,瑶海区,,48,48,46,24,23,74,,151,120,41,19,6,6,0.7,0.6
2024-08-23T2200,1277A,117.3027,31.7964,合肥市,包河区,颗粒物(PM10),51,51,37,31,25,96,,154,129,24,13,6,6,0.5,0.5
2024-08-23T2200,1278A,117.2776,31.7385,合肥市,滨湖新区,,33,29,29,22,19,103,,139,126,14,10,7,7,0.7,0.6
2024-08-23T2200,1279A,117.1318,31.8403,合肥市,高新区,,46,44,35,32,26,83,,144,128,27,14,9,9,0.7,0.6
2024-08-23T2200,3464A,117.3803,31.9147,合肥市,高教基地,颗粒物(PM10),56,61,34,30,22,52,,131,102,48,12,9,9,0.6,0.5
2024-08-23T2200,3614A,79.924,37.0877,和田地区,地区环保局,颗粒物(PM10),159,267,625,75,184,84,,97,97,14,8,7,6,0.5,0.5
2024-08-23T2200,3615A,79.9131,37.113,和田地区,市环保局,颗粒物(PM10),149,248,581,73,157,84,,97,97,13,6,7,7,0.5,0.5
2024-08-23T2200,2516A,108.2011,24.715,河池市,东仁乐园,,19,19,18,12,5,27,,47,38,12,8,5,4,0.7,0.6
2024-08-23T2200,2517A,108.0497,24.6947,河池市,市环保站,,13,13,19,9,8,39,,48,43,8,9,8,8,0.5,0.5
2024-08-23T2200,2518A,108.0983,24.6989,河池市,市疾控中心,,15,12,22,10,9,27,,48,38,16,14,8,8,0.6,0.6
2024-08-23T2200,1696A,114.6778,23.7569,河源市,源西,,19,11,19,8,27,7,,65,32,37,22,4,4,0.6,0.6
2024-08-23T2200,1697A,114.6944,23.7586,河源市,东埔,,16,7,21,7,16,16,,68,38,32,21,2,2,0.7,0.6
2024-08-23T2200,1698A,114.6892,23.7233,河源市,老城,,18,18,25,3,14,2,,72,36,36,18,5,4,0.6,0.5
2024-08-23T2200,1718A,115.4208,35.2464,菏泽市,气象局,颗粒物(PM10),52,54,46,27,22,127,,160,150,16,14,4,5,0.4,0.3
2024-08-23T2200,1719A,115.4747,35.2375,菏泽市,市政协,颗粒物(PM10),53,56,46,30,26,110,,158,144,15,15,3,4,0.4,0.3
2024-08-23T2200,3374A,115.5564,35.0891,菏泽市,定陶老年大学,颗粒物(PM10),53,56,42,22,17,89,,137,122,15,15,7,5,0.6,0.5
2024-08-23T2200,3647A,115.4702,35.2706,菏泽市,菏泽医专,颗粒物(PM10),55,59,50,22,20,100,,163,141,27,20,7,6,0.7,0.6
2024-08-23T2200,2514A,111.5264,24.4172,贺州市,环保小区,,22,22,20,10,8,21,,58,42,20,12,6,7,0.5,0.6
2024-08-23T2200,2515A,111.5608,24.4078,贺州市,政协大楼,,37,37,25,11,8,9,,61,43,25,12,5,8,0.6,0.5
2024-08-23T2200,3534A,111.4744,24.4553,贺州市,西湾,,22,18,19,15,9,13,,59,43,18,13,7,7,0.5,0.5
2024-08-23T2200,2385A,114.17,35.9019,鹤壁市,市监测站,,38,38,42,24,26,113,,180,156,8,9,3,3,0.5,0.5
2024-08-23T2200,2386A,114.2956,35.7511,鹤壁市,市交警支队,,49,46,51,34,29,96,,162,147,27,20,2,5,0.6,0.7
2024-08-23T2200,2387A,114.2878,35.7306,鹤壁市,迎宾馆,,44,44,44,28,29,97,,165,152,28,17,5,6,0.8,0.7
2024-08-23T2200,3474A,114.2617,35.6822,鹤壁市,大新区,,,46,47,,,71,,157,128,31,21,3,3,0.5,0.5
2024-08-23T2200,3596A,114.1572,35.9603,鹤壁市,南山宾馆,,41,41,26,20,18,104,,176,146,6,3,10,4,0.4,0.3
2024-08-23T2200,2244A,130.2537,47.3416,鹤岗市,哈啤分公司,,32,24,21,22,19,39,,65,48,4,2,12,12,0.4,0.4
2024-08-23T2200,2245A,130.2684,47.3086,鹤岗市,斯达机电,,35,35,26,15,15,45,,70,51,11,6,13,14,0.3,0.3
2024-08-23T2200,2246A,130.3114,47.3388,鹤岗市,东山纸板厂,,,,17,30,22,44,,68,53,7,3,16,16,,0.4
2024-08-23T2200,2247A,130.1097,47.3382,鹤岗市,五号水库,,16,8,10,8,7,50,,69,55,4,3,11,12,0.2,0.1
2024-08-23T2200,2263A,127.4833,50.2524,黑河市,交通局,,28,28,29,18,14,42,,58,52,8,7,6,6,0.5,0.4
2024-08-23T2200,2264A,127.5144,50.2341,黑河市,环保局,,33,33,26,23,15,41,,54,51,10,6,4,5,0.4,0.3
2024-08-23T2200,2265A,127.5291,50.2472,黑河市,大黑河岛,,,,12,15,17,,,,,8,10,2,3,,
2024-08-23T2200,1074A,115.6838,37.7541,衡水市,电机北厂,颗粒物(PM10),51,51,56,22,29,118,,183,163,9,14,4,4,0.4,0.4
2024-08-23T2200,1075A,115.6303,37.7316,衡水市,市监测站,,41,38,58,17,27,130,,189,169,10,16,5,5,0.5,0.5
2024-08-23T2200,3188A,115.6683,37.7217,衡水市,市城管局,,45,45,59,23,28,127,,191,170,10,19,4,4,0.4,0.5
2024-08-23T2200,3459A,115.5989,37.5491,衡水市,地表水厂,颗粒物(PM10),82,114,70,11,29,114,,182,156,3,17,2,3,0.6,0.6
2024-08-23T2200,2456A,112.5003,26.9167,衡阳市,原169医院,,38,38,22,12,10,52,,79,71,10,6,7,8,0.5,0.4
2024-08-23T2200,2457A,112.6194,26.9258,衡阳市,衡阳化工总厂,,,35,26,,,46,,88,74,16,10,9,9,0.8,0.6
2024-08-23T2200,2458A,112.6211,26.8956,衡阳市,珠晖区环保局,,,35,20,,,57,,87,78,8,6,8,8,0.6,0.6
2024-08-23T2200,2459A,112.6197,26.8733,衡阳市,市委党校,,47,47,27,21,12,44,,86,73,19,10,11,12,0.7,0.6
2024-08-23T2200,2460A,112.6006,26.8919,衡阳市,市监测站,,32,32,20,20,15,48,,88,76,16,8,9,9,0.8,0.7
2024-08-23T2200,2461A,112.5664,26.9056,衡阳市,真空机电公司,,30,30,20,11,10,59,,84,75,7,7,6,8,0.6,0.6
2024-08-23T2200,3399A,112.6703,26.882,衡阳市,师范学院,,30,30,26,16,11,42,,83,72,16,11,8,10,0.6,0.5
2024-08-23T2200,2608A,103.3772,23.3993,红河哈尼族彝族自治州,污水处理厂,,15,11,9,10,10,23,,39,35,9,6,9,7,0.3,0.3
2024-08-23T2200,2609A,103.3861,23.35,红河哈尼族彝族自治州,监测站,,18,12,11,12,8,23,,38,35,4,6,7,10,0.3,0.3
2024-08-23T2200,3038A,103.3758,23.368,红河哈尼族彝族自治州,州图书馆,,13,13,8,3,7,24,,38,35,6,6,5,8,0.3,0.2
2024-08-23T2200,1090A,111.6507,40.7517,呼和浩特市,呼市一监,颗粒物(PM10),59,68,27,24,11,68,,154,130,29,14,9,10,0.6,0.6
2024-08-23T2200,1091A,111.6572,40.8033,呼和浩特市,小召,颗粒物(PM10),57,63,26,32,10,42,,143,120,64,24,7,6,0.8,0.5
2024-08-23T2200,1094A,111.7516,40.8369,呼和浩特市,如意水处理厂,,37,37,23,13,7,71,,143,124,31,20,6,6,0.4,0.4
2024-08-23T2200,1095A,111.7276,40.8062,呼和浩特市,二十九中,颗粒物(PM10),59,67,26,28,11,50,,155,134,58,23,5,5,0.8,0.6
2024-08-23T2200,1096A,111.5512,40.7866,呼和浩特市,工大金川校区,,41,41,28,18,10,72,,143,127,32,23,3,4,0.6,0.5
2024-08-23T2200,1097A,111.717,40.7612,呼和浩特市,化肥厂生活区,颗粒物(PM10),85,119,36,41,12,34,,154,126,69,17,8,8,0.8,0.5
2024-08-23T2200,3698A,111.5968,40.8178,呼和浩特市,红旗小学,,29,29,29,13,9,87,,145,127,21,23,4,4,0.5,0.4
2024-08-23T2200,3699A,111.6518,40.8389,呼和浩特市,海东办,,,48,28,23,11,26,,147,119,77,29,,6,0.9,0.8
2024-08-23T2200,2192A,119.7594,49.2261,呼伦贝尔市,区环保局,细颗粒物(PM2.5),73,71,77,53,62,44,,82,74,15,14,4,4,0.7,0.8
2024-08-23T2200,3061A,119.7512,49.1577,呼伦贝尔市,国华电力东,细颗粒物(PM2.5),67,58,69,48,58,48,,82,76,7,6,3,3,0.7,0.8
2024-08-23T2200,1250A,120.0751,30.8669,湖州市,城西水厂,,45,39,48,25,32,144,,178,165,18,31,4,4,0.5,0.5
2024-08-23T2200,2873A,120.0875,30.8955,湖州市,仁皇山新区,,46,42,51,30,35,145,,196,180,18,25,7,7,0.7,0.8
2024-08-23T2200,2907A,120.1844,30.8596,湖州市,吴兴区站,,37,37,46,22,33,118,,179,164,35,20,7,7,0.6,0.6
2024-08-23T2200,3562A,120.4148,30.8538,湖州市,南浔区站,,36,30,39,22,29,115,,166,158,20,16,5,4,0.8,0.7
2024-08-23T2200,1607A,120.9092,40.7136,葫芦岛市,龙港区,,20,17,25,13,13,64,,98,83,19,22,9,21,0.3,0.6
2024-08-23T2200,1608A,120.8392,40.7514,葫芦岛市,化工街,,36,36,22,17,12,12,,105,74,55,22,8,21,0.6,0.6
2024-08-23T2200,1609A,120.8341,40.7073,葫芦岛市,新区,,22,22,24,6,12,39,,99,75,42,28,9,11,0.4,0.6
2024-08-23T2200,1610A,120.8695,40.7677,葫芦岛市,东城区,,43,43,27,11,10,3,,108,70,68,25,7,20,0.3,0.3
2024-08-23T2200,2482A,109.5981,27.5721,怀化市,林科所,,14,14,11,7,6,37,,65,57,18,14,5,6,0.2,0.3
2024-08-23T2200,2483A,109.9453,27.5444,怀化市,河西地税局,,28,28,13,15,8,40,,69,57,7,5,3,7,0.5,0.5
2024-08-23T2200,2484A,109.9781,27.5342,怀化市,市四医院,,16,16,18,8,9,32,,75,62,14,6,4,5,0.6,0.5
2024-08-23T2200,2485A,109.9972,27.5578,怀化市,监测楼,,,21,16,12,7,,,74,73,11,5,6,5,0.6,0.5
2024-08-23T2200,2486A,110.0394,27.583,怀化市,市委党校,,38,38,15,14,8,30,,73,59,17,5,6,4,0.5,0.4
2024-08-23T2200,1210A,119.036,33.5981,淮安市,钵池山,颗粒物(PM10),51,51,36,33,26,45,,140,98,58,19,7,7,1.0,0.8
2024-08-23T2200,1211A,119.007,33.575,淮安市,北京南路,细颗粒物(PM2.5),57,58,41,40,25,68,,130,108,28,15,4,4,1.1,0.9
2024-08-23T2200,1212A,118.989,33.6067,淮安市,市监测站,细颗粒物(PM2.5),58,61,44,41,30,95,,148,134,30,16,6,8,1.1,1
2024-08-23T2200,1213A,119.135,33.5039,淮安市,楚州区监测站,颗粒物(PM10),52,54,49,29,26,67,,125,92,41,28,5,5,0.8,0.7
2024-08-23T2200,1214A,119.0186,33.6297,淮安市,淮阴区监测站,颗粒物(PM10),63,75,50,32,27,43,,156,110,53,21,4,6,0.9,0.8
2024-08-23T2200,3426A,118.8755,33.2894,淮安市,新华书店,,43,41,36,30,27,89,,139,124,24,17,6,6,0.8,0.8
2024-08-23T2200,2282A,116.8004,33.975,淮北市,监测站,颗粒物(PM10),57,63,48,28,27,104,,182,160,14,10,6,7,0.8,0.7
2024-08-23T2200,2283A,116.8091,33.9007,淮北市,烈山区政府,颗粒物(PM10),59,67,58,28,29,85,,184,157,23,16,5,8,0.7,0.6
2024-08-23T2200,3330A,116.8873,33.9836,淮北市,杜集区检察院,细颗粒物(PM2.5),54,40,47,38,31,105,,177,150,10,9,3,3,0.7,0.7
2024-08-23T2200,4017A,116.7923,33.9535,淮北市,市博物馆,,50,50,51,26,28,103,,182,158,14,14,5,6,0.8,0.8
2024-08-23T2200,2277A,116.8305,32.7727,淮南市,潘集区政府,颗粒物(PM10),53,56,44,36,25,76,,147,122,19,15,4,6,0.7,0.7
2024-08-23T2200,2278A,117.0067,32.6524,淮南市,师范学院,,43,43,43,3,21,106,,138,130,7,9,4,4,0.5,0.5
2024-08-23T2200,2279A,116.8569,32.5951,淮南市,谢家集区政府,颗粒物(PM10),54,57,38,26,26,72,,127,114,31,15,8,6,0.4,0.4
2024-08-23T2200,2280A,116.8281,32.633,淮南市,八公山区政府,颗粒物(PM10),51,51,44,25,23,85,,130,118,19,13,6,6,0.4,0.4
2024-08-23T2200,2281A,116.6325,32.6201,淮南市,焦岗湖风景区管理处,,29,29,25,8,9,60,,99,85,19,11,5,5,0.3,0.3
2024-08-23T2200,2894A,117.0566,32.6531,淮南市,经济技术开发区消防队,,44,44,33,17,14,87,,132,120,15,12,4,4,0.5,0.4
2024-08-23T2200,3329A,117.0108,32.5893,淮南市,山南新区,,45,45,47,30,24,88,,127,119,16,14,4,4,0.6,0.6
2024-08-23T2200,2446A,114.9028,30.4742,黄冈市,职工中心,,36,31,42,25,25,75,,164,137,9,13,7,12,0.4,0.4
2024-08-23T2200,2929A,114.8858,30.4519,黄冈市,红卫路,,40,32,40,28,26,80,,164,138,8,13,8,10,0.4,0.5
2024-08-23T2200,3398A,114.9136,30.4445,黄冈市,市林业局,,,,29,21,22,77,,168,142,7,11,8,7,0.4,0.5
2024-08-23T2200,2672A,102.0199,35.5102,黄南藏族自治州,同仁县隆务镇,,34,27,32,14,19,107,,128,122,1,2,8,11,0.3,0.4
2024-08-23T2200,2295A,118.2903,29.6963,黄山市,延安路89号,,44,44,39,27,12,36,,116,91,10,6,5,5,0.6,0.6
2024-08-23T2200,2296A,118.327,29.7178,黄山市,黄山东路89号,,37,37,30,19,12,36,,110,80,16,7,4,4,0.6,0.5
2024-08-23T2200,2297A,118.1371,30.2756,黄山市,黄山区政府5号楼,,33,23,23,23,14,38,,94,76,9,6,6,6,0.5,0.5
2024-08-23T2200,2423A,115.0601,30.2313,黄石市,沈家营,颗粒物(PM10),54,58,71,9,20,98,,155,128,10,22,10,9,0.5,0.8
2024-08-23T2200,2424A,115.0817,30.2006,黄石市,陈家湾,,37,37,54,12,18,98,,143,137,8,11,9,4,0.4,0.5
2024-08-23T2200,2426A,114.8988,30.2019,黄石市,铁山,,28,18,37,7,17,89,,156,138,5,11,7,9,0.4,0.3
2024-08-23T2200,2427A,115.0307,30.2092,黄石市,团城山,,48,48,47,7,19,89,,158,133,14,17,7,13,0.5,0.7
2024-08-23T2200,3149A,115.0235,30.1578,黄石市,笔架山北路,颗粒物(PM10),51,51,45,7,12,90,,137,129,12,11,5,8,0.2,0.3
2024-08-23T2200,1392A,114.4183,23.0528,惠州市,河南岸金山湖子站,,22,22,27,10,15,34,,94,68,14,16,4,4,0.6,0.7
2024-08-23T2200,1393A,114.4053,23.0822,惠州市,下埔横江三路子站,,20,20,26,10,15,40,,102,71,11,17,3,4,0.5,0.6
2024-08-23T2200,1394A,114.4103,23.1142,惠州市,江北云山西路子站,,18,18,25,12,10,36,,99,64,10,16,4,4,0.6,0.7
2024-08-23T2200,1395A,114.4645,22.7833,惠州市,惠阳区承修路船湖子站,,29,29,36,16,21,36,,112,82,23,27,5,5,0.7,0.7
2024-08-23T2200,1396A,114.5317,22.7422,惠州市,大亚湾管委会子站,,32,32,30,21,18,28,,104,64,29,28,7,7,0.3,0.5
2024-08-23T2200,3314A,114.4338,22.8134,惠州市,惠阳秋长,,22,22,28,13,17,37,,128,95,21,25,5,6,0.5,0.6
2024-08-23T2200,3452A,114.6517,22.775,惠州市,大亚湾霞涌,,,12,22,11,19,,,64,48,10,13,3,3,,0.4
2024-08-23T2200,2240A,130.9762,45.3001,鸡西市,环保局,,40,40,18,24,8,38,,54,48,10,4,5,5,0.4,0.3
2024-08-23T2200,2243A,130.9429,45.3039,鸡西市,第一中学,,41,41,20,24,9,39,,66,57,11,5,4,4,0.3,0.2
2024-08-23T2200,3707A,131.0207,45.3073,鸡西市,欧美日汽修厂,,40,40,13,26,13,40,,62,53,10,7,5,3,0.4,0.3
2024-08-23T2200,3709A,130.9967,45.3106,鸡西市,市政设施管理处,颗粒物(PM10),52,53,28,28,12,37,,63,54,12,9,6,5,0.4,0.2
2024-08-23T2200,2367A,114.9754,27.0803,吉安市,红声器材厂,,39,39,31,26,16,46,,95,75,12,11,9,10,0.6,0.5
2024-08-23T2200,2368A,114.9658,27.0999,吉安市,市森林工业局,,38,38,29,23,17,44,,95,76,13,14,7,10,0.5,0.4
2024-08-23T2200,2369A,114.99,27.1312,吉安市,市环境监测站,,33,31,26,23,13,54,,91,75,10,9,11,12,0.7,0.6
2024-08-23T2200,2370A,115.0093,27.0968,吉安市,青原区法院,,39,39,29,23,17,52,,100,79,13,11,8,9,0.5,0.5
2024-08-23T2200,1772A,126.54,43.8622,吉林市,哈达湾,,30,30,14,20,8,29,,103,83,45,14,10,9,0.7,0.5
2024-08-23T2200,1773A,126.5844,43.8358,吉林市,东局子,,39,39,20,11,10,11,,107,74,48,16,5,8,0.7,0.4
2024-08-23T2200,1774A,126.5052,43.8245,吉林市,电力学院,,49,49,19,14,5,15,,99,70,32,9,5,5,0.7,0.6
2024-08-23T2200,1775A,126.6133,43.8972,吉林市,江北,,38,38,24,17,11,24,,96,69,24,12,6,9,0.4,0.4
2024-08-23T2200,1776A,126.555,43.8306,吉林市,江南公园,,38,38,14,8,4,21,,98,72,40,18,5,7,0.8,1.4
2024-08-23T2200,2868A,126.4739,43.953,吉林市,九站,,32,31,12,18,9,9,,91,68,63,16,18,8,0.6,0.5
2024-08-23T2200,1299A,116.9862,36.6114,济南市,科干所,,46,46,38,29,22,82,,167,135,38,17,5,6,0.9,0.7
2024-08-23T2200,1300A,116.9376,36.665,济南市,农科所,,49,49,40,32,24,73,,174,140,59,26,6,7,0.8,0.5
2024-08-23T2200,1301A,117.1265,36.6734,济南市,开发区,,49,49,46,20,19,101,,215,192,41,30,7,8,0.7,0.6
2024-08-23T2200,1303A,117.0624,36.6868,济南市,省种子仓库,颗粒物(PM10),62,73,50,29,21,66,,215,161,73,45,5,6,0.8,0.6
2024-08-23T2200,1304A,116.9489,36.6447,济南市,机床二厂,颗粒物(PM10),52,54,52,20,18,92,,190,155,46,30,7,8,0.9,0.7
2024-08-23T2200,1305A,117.0495,36.663,济南市,市监测站,颗粒物(PM10),51,51,42,32,23,85,,204,162,52,30,7,9,0.9,0.6
2024-08-23T2200,1306A,116.7675,36.5484,济南市,长清党校,,49,49,38,24,25,124,,181,166,30,17,10,11,0.8,0.8
2024-08-23T2200,1616A,117.6795,36.229,济南市,技术学院,颗粒物(PM10),52,53,49,27,28,39,,178,144,64,26,10,13,1.2,1.3
2024-08-23T2200,1961A,117.532,36.6868,济南市,东山小学,,49,49,42,22,20,85,,197,163,37,23,7,8,0.7,0.7
2024-08-23T2200,3059A,117.7161,36.2049,济南市,泰兴公司,颗粒物(PM10),59,68,51,29,26,34,,174,136,74,40,11,13,0.9,0.9
2024-08-23T2200,3064A,117.6867,36.2171,济南市,莱芜战役纪念馆,颗粒物(PM10),58,66,48,34,24,65,,163,141,40,25,16,13,1.1,0.9
2024-08-23T2200,3494A,117.1673,36.9782,济南市,济阳区政府,颗粒物(PM10),57,63,67,34,27,155,,227,204,11,33,11,11,0.7,0.6
2024-08-23T2200,3495A,117.1171,36.63,济南市,锦屏中学,,37,37,35,22,18,100,,188,164,16,13,9,10,0.7,0.6
2024-08-23T2200,3682A,116.9814,36.6819,济南市,济南四建,颗粒物(PM10),57,63,40,37,21,60,,188,145,73,26,7,8,1.2,0.7
2024-08-23T2200,1653A,116.6251,35.4302,济宁市,火炬城,颗粒物(PM10),54,57,44,24,23,116,,163,154,19,12,8,10,1.1,0.9
2024-08-23T2200,1655A,116.5491,35.4042,济宁市,电化厂,,50,50,48,31,28,136,,160,158,16,14,8,8,0.9,0.8
2024-08-23T2200,3500A,116.5814,35.3707,济宁市,北湖一中,,50,50,45,27,23,116,,161,152,16,14,6,6,0.7,0.6
2024-08-23T2200,3501A,116.8249,35.5593,济宁市,服务中心,颗粒物(PM10),61,72,45,26,22,73,,169,149,29,18,5,5,0.6,0.5
2024-08-23T2200,3678A,116.5907,35.4054,济宁市,市第七中学,,,49,47,34,25,,,163,163,20,17,5,6,0.9,0.8
2024-08-23T2200,2255A,130.2751,46.8028,佳木斯市,佳纺,,29,29,22,19,11,27,,70,48,21,8,6,7,0.6,0.5
2024-08-23T2200,2256A,130.3995,46.8307,佳木斯市,发电厂,,27,27,19,17,13,43,,70,54,6,3,8,6,0.6,0.5
2024-08-23T2200,2257A,130.3258,46.7975,佳木斯市,环保局,,25,22,19,17,11,35,,69,49,13,6,7,8,0.6,0.5
2024-08-23T2200,2258A,130.3648,46.8032,佳木斯市,十一中,,30,29,20,21,11,45,,74,55,15,7,7,6,0.5,0.5
2024-08-23T2200,2259A,130.3794,46.7588,佳木斯市,四丰,,,27,19,14,9,20,,66,45,,,1,1,0.5,0.5
2024-08-23T2200,1252A,120.7436,30.778,嘉兴市,清河小学,,28,23,41,12,23,87,,191,164,26,21,7,5,0.6,0.8
2024-08-23T2200,1253A,120.726,30.7478,嘉兴市,嘉兴学院,,32,32,51,11,26,85,,194,161,20,22,2,2,0.5,0.7
2024-08-23T2200,2872A,120.7846,30.7525,嘉兴市,南湖区残联,,27,27,37,14,24,86,,219,183,30,18,7,5,0.7,0.7
2024-08-23T2200,3407A,120.6916,30.7739,嘉兴市,秀洲住建,,28,17,38,11,28,87,,212,169,18,21,4,3,0.6,0.7
2024-08-23T2200,1945A,98.2908,39.7711,嘉峪关市,气象局,颗粒物(PM10),59,68,60,19,18,109,,128,124,15,17,5,16,0.4,0.5
2024-08-23T2200,2884A,98.2672,39.7978,嘉峪关市,酒钢宾馆,颗粒物(PM10),58,66,53,27,19,109,,130,128,23,15,22,14,1.4,0.5
2024-08-23T2200,3248A,98.2643,39.7724,嘉峪关市,雄关区,颗粒物(PM10),54,58,51,14,14,104,,124,122,11,16,7,10,0.5,0.4
2024-08-23T2200,1383A,113.1064,22.6058,江门市,北街,,18,17,28,12,15,20,,56,45,20,22,4,4,0.7,0.7
2024-08-23T2200,1384A,113.0731,22.5835,江门市,西区,,25,23,25,17,16,18,,63,46,23,22,5,5,0.5,0.6
2024-08-23T2200,1385A,113.0219,22.5311,江门市,圭峰西,,23,22,32,16,15,12,,52,41,24,16,3,3,0.7,0.7
2024-08-23T2200,1386A,113.0828,22.5947,江门市,东湖,,29,21,28,20,12,23,,60,45,17,19,5,5,0.6,0.7
2024-08-23T2200,3311A,113.1075,22.5647,江门市,江海富民,,,36,42,25,20,20,,76,58,,25,6,6,0.5,0.6
2024-08-23T2200,3449A,113.05,22.4667,江门市,新会银湖,,35,35,34,14,16,8,,64,38,16,14,6,6,0.6,0.7
2024-08-23T2200,1828A,113.227,35.2125,焦作市,市环保局,细颗粒物(PM2.5),53,52,43,37,27,149,,201,181,16,16,2,5,0.6,0.6
2024-08-23T2200,3169A,113.2725,35.2067,焦作市,太极体育中心,,47,45,59,29,30,150,,192,174,15,19,2,4,0.8,0.7
2024-08-23T2200,3335A,113.3137,35.2641,焦作市,马村街道办,颗粒物(PM10),51,51,44,30,30,148,,193,178,14,13,3,3,0.5,0.6
2024-08-23T2200,3336A,113.2465,35.2373,焦作市,焦作技师学院,颗粒物(PM10),51,52,50,24,24,136,,200,178,12,11,2,4,0.6,0.7
2024-08-23T2200,3477A,113.1656,35.2539,焦作市,中站许衡医院,臭氧1小时,60,34,37,31,26,168,,193,176,11,14,4,5,0.5,0.6
2024-08-23T2200,3981A,113.2449,35.1803,焦作市,原李万街道办,颗粒物(PM10),53,55,56,29,31,149,,196,176,16,20,5,9,0.8,0.6
2024-08-23T2200,1708A,116.3701,23.5345,揭阳市,新兴,,13,11,24,9,13,40,,75,58,15,17,3,5,0.6,0.7
2024-08-23T2200,1709A,116.3264,23.5443,揭阳市,西马,,13,13,26,3,11,41,,71,58,9,11,4,5,0.6,0.6
2024-08-23T2200,1710A,116.3611,23.5626,揭阳市,东兴,,15,14,27,10,12,27,,77,57,28,15,4,5,0.9,0.9
2024-08-23T2200,1711A,116.4151,23.5294,揭阳市,渔湖,,17,17,23,8,9,34,,74,54,21,20,4,5,0.5,0.5
2024-08-23T2200,3320A,116.403,23.5699,揭阳市,曲溪,,13,,22,9,12,40,,79,57,16,19,1,2,0.6,0.7
2024-08-23T2200,1944A,102.1692,38.5167,金昌市,天庆家园,细颗粒物(PM2.5),54,51,45,38,20,125,,138,135,11,18,8,10,0.7,0.6
2024-08-23T2200,3170A,102.1864,38.5253,金昌市,市委党校,,46,46,38,13,14,121,,138,134,10,16,11,15,0.5,1
2024-08-23T2200,4022A,102.1647,38.5371,金昌市,金川区人防中心,颗粒物(PM10),63,76,57,24,15,112,,137,129,9,14,9,11,0.4,0.7
2024-08-23T2200,1262A,119.647,29.077,金华市,十五中,颗粒物(PM10),51,51,44,15,20,111,,152,140,22,20,4,4,0.2,0.4
2024-08-23T2200,1263A,119.686,29.1029,金华市,监测站,颗粒物(PM10),53,56,43,32,25,88,,154,135,37,25,3,4,0.6,0.7
2024-08-23T2200,3659A,119.656,29.1131,金华市,气象局,,46,46,43,22,22,102,,148,127,24,28,5,6,0.6,0.6
2024-08-23T2200,1767A,121.1115,41.0879,锦州市,南山,,28,20,24,19,13,56,,102,88,23,16,6,6,0.7,0.6
2024-08-23T2200,1768A,121.0533,40.8434,锦州市,开发区,颗粒物(PM10),80,110,47,21,16,9,,99,72,78,27,16,10,0.9,0.9
2024-08-23T2200,1769A,121.1836,41.1119,锦州市,百股街道,,26,26,23,12,6,38,,90,73,19,15,5,6,0.7,0.7
2024-08-23T2200,1770A,121.1178,41.1222,锦州市,天安街道,,39,39,25,22,13,51,,103,92,29,16,11,7,1.0,0.8
2024-08-23T2200,1771A,121.1303,41.1386,锦州市,北湖公园,,37,37,23,21,11,59,,98,90,20,12,10,8,1.4,0.8
2024-08-23T2200,2160A,112.85,35.5051,晋城市,自来水公司,颗粒物(PM10),57,64,53,22,27,161,,199,198,19,23,9,9,0.8,1
2024-08-23T2200,2161A,112.8318,35.4936,晋城市,白云商贸,臭氧1小时,63,49,53,27,23,170,,198,198,18,21,10,10,0.9,1
2024-08-23T2200,2162A,112.8508,35.4887,晋城市,市环保局,颗粒物(PM10),56,62,63,27,28,146,,194,190,26,27,10,10,0.8,0.9
2024-08-23T2200,2163A,112.8676,35.4897,晋城市,技术学院,,46,46,44,24,25,128,,192,186,38,26,9,10,0.8,0.9
2024-08-23T2200,3620A,112.8271,35.4828,晋城市,泽州一中,颗粒物(PM10),57,64,49,29,24,156,,186,185,21,21,9,11,0.9,1.1
2024-08-23T2200,2171A,112.7532,37.6945,晋中市,锦纶小区,,46,46,50,22,19,109,,187,162,21,18,9,10,0.6,0.5
2024-08-23T2200,2173A,112.7249,37.7067,晋中市,南都小区,,48,48,50,30,27,122,,191,169,24,22,3,5,0.8,0.7
2024-08-23T2200,2174A,112.6991,37.6982,晋中市,榆次区政府,颗粒物(PM10),53,56,48,23,23,114,,187,167,27,19,8,9,0.4,0.3
2024-08-23T2200,2865A,112.7195,37.6828,晋中市,榆次三中,颗粒物(PM10),56,61,50,22,18,106,,187,162,23,19,7,8,0.7,0.7
2024-08-23T2200,2439A,112.2014,31.0481,荆门市,竹园小学,,28,28,39,12,22,82,,134,115,10,13,11,12,0.5,0.6
2024-08-23T2200,2440A,112.1969,30.9891,荆门市,掇刀,臭氧1小时,132,33,37,14,23,263,,137,137,16,14,7,8,0.6,0.6
2024-08-23T2200,2441A,112.2213,31.0386,荆门市,石化一小,,46,46,42,14,27,61,,136,113,22,16,12,13,0.5,0.6
2024-08-23T2200,3012A,112.1849,31.0362,荆门市,西山林语,,37,37,35,16,20,84,,136,118,12,12,9,9,0.6,0.6
2024-08-23T2200,3547A,112.1632,31.0138,荆门市,龙泉中学南校,,30,30,33,17,23,84,,139,119,8,10,9,8,0.5,0.5
2024-08-23T2200,1844A,112.2494,30.3197,荆州市,市图书馆,,30,30,22,18,18,82,,105,96,14,11,8,7,0.7,0.7
2024-08-23T2200,1845A,112.2008,30.3544,荆州市,市委党校,,32,29,23,22,19,84,,107,97,13,9,18,9,0.6,0.6
2024-08-23T2200,3194A,112.2747,30.3122,荆州市,管委会,,28,26,24,12,17,87,,111,100,9,9,6,6,0.6,0.6
2024-08-23T2200,3548A,112.1655,30.3364,荆州市,学苑路,,29,,31,20,21,77,,70,,13,10,7,7,0.7,0.7
2024-08-23T2200,2343A,117.2117,29.2933,景德镇市,老干部活动中心,,36,32,35,25,22,38,,108,85,20,15,6,8,0.4,0.5
2024-08-23T2200,2344A,117.1894,29.2789,景德镇市,兽医站,,50,50,40,25,21,48,,101,77,14,12,8,9,0.4,0.5
2024-08-23T2200,2345A,117.1547,29.2617,景德镇市,台达陶瓷,,47,47,40,29,23,30,,88,70,45,18,64,20,0.5,0.4
2024-08-23T2200,2346A,117.2461,29.2956,景德镇市,陶研所,,36,36,37,22,17,54,,100,80,11,13,20,12,0.3,0.4
2024-08-23T2200,1803A,115.9872,29.6815,九江市,十里,,40,33,33,28,21,72,,127,105,18,16,8,9,0.8,0.8
2024-08-23T2200,1804A,115.9584,29.7046,九江市,茅山头,颗粒物(PM10),51,52,32,32,19,49,,126,105,31,20,9,8,0.7,0.7
2024-08-23T2200,1805A,115.9877,29.7295,九江市,西园,,36,36,29,20,21,95,,131,112,18,26,8,10,0.3,0.5
2024-08-23T2200,1806A,116.0172,29.6547,九江市,五七二七厂,,31,31,25,17,19,90,,118,105,10,11,7,8,0.3,0.4
2024-08-23T2200,1808A,115.9114,29.6038,九江市,综合工业园,,49,49,32,34,23,53,,128,107,37,14,7,8,1.1,0.8
2024-08-23T2200,1809A,116.0721,29.7535,九江市,石化总厂,,44,44,32,27,18,91,,131,118,17,13,11,11,0.8,0.7
2024-08-23T2200,1810A,115.9773,29.5698,九江市,庐山气象台,,37,28,25,19,20,116,,112,112,2,3,7,11,1.0,0.8
2024-08-23T2200,3190A,116.0254,29.6994,九江市,外国语学校,,44,44,32,28,19,106,,137,126,8,11,9,9,0.7,0.7
2024-08-23T2200,2658A,98.5061,39.7443,酒泉市,仓门街子站,颗粒物(PM10),67,83,56,20,14,104,,122,121,10,10,9,11,0.4,0.3
2024-08-23T2200,2659A,98.4989,39.7256,酒泉市,油田生活基地,颗粒物(PM10),82,114,65,19,11,106,,124,124,13,14,10,11,0.3,0.3
2024-08-23T2200,2698A,76.0072,39.4467,喀什地区,巡警大队,,49,49,42,6,6,91,,119,116,18,14,3,4,0.4,0.3
2024-08-23T2200,2699A,75.9755,39.4694,喀什地区,吾办,,48,48,36,23,13,92,,114,112,19,13,4,4,0.5,0.5
2024-08-23T2200,4027A,75.9483,39.4689,喀什地区,老干局,颗粒物(PM10),51,51,39,3,5,94,,113,112,14,12,5,5,0.5,0.5
2024-08-23T2200,1824A,114.3389,34.7781,开封市,肿瘤医院,颗粒物(PM10),61,71,58,33,25,71,,145,122,27,17,4,4,0.6,0.6
2024-08-23T2200,1826A,114.2885,34.7965,开封市,世纪星幼儿园,,,128,55,,,85,,149,134,28,13,4,4,0.8,0.7
2024-08-23T2200,3147A,114.3438,34.8106,开封市,龙亭公园,颗粒物(PM10),59,67,55,32,28,79,,143,124,18,14,4,3,0.8,0.8
2024-08-23T2200,3210A,114.3644,34.7964,开封市,汴京公园,颗粒物(PM10),58,66,59,33,35,88,,151,129,18,19,6,6,0.6,0.6
2024-08-23T2200,3473A,114.2485,34.8306,开封市,技师学院,颗粒物(PM10),54,57,52,30,25,58,,161,132,44,14,2,2,1.0,0.8
2024-08-23T2200,3592A,114.4644,34.7556,开封市,祥符区生态环境局,颗粒物(PM10),57,63,64,32,34,34,,133,94,69,36,4,4,0.7,0.7
2024-08-23T2200,1951A,84.895,45.6094,克拉玛依市,长征新村,,43,43,24,12,8,63,,116,108,40,8,7,7,0.7,0.4
2024-08-23T2200,1952A,84.8988,45.5893,克拉玛依市,南林小区,颗粒物(PM10),62,73,21,42,10,6,,109,78,81,15,17,11,1.9,0.3
2024-08-23T2200,1954A,84.905,44.3396,克拉玛依市,独山子区,颗粒物(PM10),58,65,38,26,14,103,,147,144,30,14,11,10,0.7,0.5
2024-08-23T2200,1955A,85.6979,46.098,克拉玛依市,乌尔禾区商贸楼,颗粒物(PM10),62,74,23,19,8,56,,108,84,57,17,7,6,0.5,0.4
2024-08-23T2200,3612A,85.1045,45.6899,克拉玛依市,白碱滩区新站,,40,40,24,6,6,97,,119,112,11,5,9,9,0.3,0.2
2024-08-23T2200,2697A,76.1454,39.7142,克孜勒苏柯尔克孜自治州,市人民政府,,,34,39,13,14,,,125,125,15,6,1,2,0.3,0.4
2024-08-23T2200,3665A,76.1658,39.7157,克孜勒苏柯尔克孜自治州,克州文化中心,,33,30,30,14,14,103,,123,122,5,3,4,4,0.2,0.4
2024-08-23T2200,1450A,102.8204,24.8886,昆明市,呈贡新区,,19,18,19,13,10,51,,78,75,21,12,4,7,0.6,0.6
2024-08-23T2200,1452A,102.7252,25.0902,昆明市,龙泉镇,,33,33,17,6,8,90,,107,105,10,11,6,7,0.6,0.6
2024-08-23T2200,1453A,102.7266,25.0375,昆明市,东风东路,,29,17,14,10,9,91,,92,92,14,13,4,5,0.5,0.5
2024-08-23T2200,1454A,102.6742,25.0669,昆明市,金鼎山,,31,31,16,3,5,94,,100,98,11,10,7,8,0.3,0.3
2024-08-23T2200,1455A,102.6644,25.0401,昆明市,碧鸡广场,,30,29,14,12,6,96,,90,90,11,10,3,4,0.4,0.4
2024-08-23T2200,3179A,102.7494,25.0119,昆明市,官渡区博物馆,,26,20,16,7,8,82,,98,96,17,12,5,7,0.3,0.2
2024-08-23T2200,3375A,102.8017,24.8336,昆明市,青年创业园,,17,14,14,9,9,54,,80,77,15,12,3,5,0.4,0.5
2024-08-23T2200,3550A,102.7997,24.9786,昆明市,昆明学院,,35,34,19,24,9,74,,95,93,25,14,5,6,0.5,0.4
2024-08-23T2200,3551A,102.5967,24.6736,昆明市,晋宁区生态环境分局,,23,23,16,12,7,35,,71,64,8,9,5,4,0.4,0.4
2024-08-23T2200,3552A,102.6678,24.9856,昆明市,云天化总部,,30,15,10,12,7,96,,90,90,8,7,4,6,0.5,0.5
2024-08-23T2200,1456A,91.1319,29.6514,拉萨市,八廓街,,20,11,9,8,7,64,,93,88,19,11,7,7,0.4,0.3
2024-08-23T2200,1457A,91.1221,29.6747,拉萨市,市环保局,,21,14,10,8,7,67,,94,90,14,11,6,7,0.2,0.2
2024-08-23T2200,1458A,91.0874,29.6475,拉萨市,区监测站,,20,8,10,3,6,62,,84,81,18,11,7,8,0.3,0.2
2024-08-23T2200,1459A,91.1774,29.6541,拉萨市,西藏大学,,,14,8,8,6,,,91,91,17,6,8,7,0.4,0.2
2024-08-23T2200,1460A,90.9798,29.6588,拉萨市,区辐射站,,19,19,11,9,6,57,,84,77,20,10,8,8,0.3,0.2
2024-08-23T2200,1461A,91.0834,29.6292,拉萨市,拉萨火车站,,,10,8,3,6,72,,82,81,8,11,6,5,,0.2
2024-08-23T2200,2520A,109.2203,23.7256,来宾市,来宾技工学校,,16,16,31,7,12,22,,36,27,11,14,8,17,0.6,0.6
2024-08-23T2200,3535A,109.1781,23.7297,来宾市,兴宾区政府,,16,16,22,9,8,18,,39,28,10,10,5,9,0.6,0.6
2024-08-23T2200,4002A,109.2416,23.7461,来宾市,中南小学,,11,11,23,3,10,32,,47,37,8,13,10,14,0.6,0.7
2024-08-23T2200,1476A,103.631,36.1031,兰州市,兰炼宾馆,,45,41,37,31,24,86,,170,140,14,16,8,10,0.4,0.4
2024-08-23T2200,1478A,103.8412,36.0726,兰州市,生物制品所,,45,33,38,31,24,89,,145,122,19,20,10,8,0.6,0.5
2024-08-23T2200,1479A,103.831,36.0464,兰州市,铁路设计院,,41,41,44,23,25,75,,141,113,33,27,12,9,0.8,0.6
2024-08-23T2200,3186A,103.7158,36.1058,兰州市,教育港,,42,42,49,28,32,92,,166,134,12,14,7,7,0.5,0.5
2024-08-23T2200,3241A,103.7439,36.0842,兰州市,百合公园,,46,46,39,22,20,100,,162,133,13,18,8,9,0.4,0.5
2024-08-23T2200,3242A,103.9611,35.998,兰州市,和平,,34,34,41,21,18,102,,131,116,10,13,8,9,0.7,0.7
2024-08-23T2200,3245A,103.6633,36.533,兰州新区,新区管委会,,38,38,41,22,22,114,,150,134,5,8,5,10,0.4,0.5
2024-08-23T2200,3246A,103.6975,36.4789,兰州新区,舟曲中学,,39,39,46,16,22,112,,153,136,6,10,7,15,0.4,0.4
2024-08-23T2200,1067A,116.6708,39.5111,廊坊市,药材公司,,33,30,45,3,17,104,,169,143,10,22,3,2,0.3,0.4
2024-08-23T2200,1068A,116.7214,39.5589,廊坊市,开发区,,,,47,,23,,,165,151,,21,,2,,0.5
2024-08-23T2200,1070A,116.7244,39.5269,廊坊市,北华航天学院,,29,28,58,3,18,90,,168,141,9,21,1,1,0.3,0.5
2024-08-23T2200,2919A,116.7022,39.5453,廊坊市,河北工业大学,,30,,45,6,20,95,,168,143,10,20,3,2,0.3,0.4
2024-08-23T2200,2535A,103.7723,29.5462,乐山市,花湖湾,细颗粒物(PM2.5),59,66,55,42,49,107,,193,178,28,20,5,5,0.8,0.8
2024-08-23T2200,2536A,103.7627,29.5844,乐山市,牛耳桥,细颗粒物(PM2.5),64,60,63,46,49,103,,198,182,23,21,2,2,0.8,0.8
2024-08-23T2200,2537A,103.7508,29.6006,乐山市,市第三水厂,颗粒物(PM10),54,57,68,36,49,105,,207,186,23,22,2,3,0.9,1
2024-08-23T2200,2538A,103.7571,29.5664,乐山市,市监测站,细颗粒物(PM2.5),57,55,60,40,43,118,,202,186,17,16,4,5,1.0,1.1
2024-08-23T2200,3361A,103.7311,29.5628,乐山市,理工大学,细颗粒物(PM2.5),65,52,61,47,50,106,,208,185,19,18,4,5,0.8,0.8
2024-08-23T2200,2599A,100.2497,26.8802,丽江市,丽江古城,,41,41,31,26,22,54,,107,98,27,14,9,9,0.7,0.6
2024-08-23T2200,2600A,100.2203,26.8906,丽江市,市中心,,37,37,29,23,19,67,,111,102,19,10,9,9,0.7,0.7
2024-08-23T2200,1267A,119.914,28.4514,丽水市,监测站大楼,,30,21,25,13,12,94,,129,111,11,16,2,3,0.3,0.3
2024-08-23T2200,1268A,119.93,28.4586,丽水市,莲都小学,,30,26,30,13,14,95,,132,113,9,15,4,4,0.2,0.3
2024-08-23T2200,1269A,119.879,28.4231,丽水市,余庄前,,25,23,26,17,17,63,,122,101,12,14,3,3,0.4,0.4
2024-08-23T2200,1173A,119.176,34.5885,连云港市,市环境监测站,,41,41,46,27,31,127,,165,147,14,17,7,7,0.6,0.5
2024-08-23T2200,3000A,119.3581,34.6972,连云港市,德源药业,,46,46,52,29,27,123,,184,160,15,23,5,6,0.6,0.6
2024-08-23T2200,3007A,119.178,34.844,连云港市,新城一中,,46,46,49,29,30,114,,181,153,27,17,3,4,1.0,0.9
2024-08-23T2200,3008A,119.3608,34.7519,连云港市,胡沟管理处,颗粒物(PM10),51,51,40,27,22,118,,154,138,21,16,8,8,1.0,1
2024-08-23T2200,3009A,119.1478,34.5911,连云港市,矿山设计院,,46,46,47,27,28,119,,152,139,16,18,3,3,0.8,0.8
2024-08-23T2200,3434A,119.2413,34.6539,连云港市,工贸学校,,45,36,38,31,27,141,,171,153,3,6,6,6,0.8,0.9
2024-08-23T2200,3664A,119.4172,34.7341,连云港市,连云街道,细颗粒物(PM2.5),52,46,43,36,24,154,,177,170,9,18,3,4,0.8,0.7
2024-08-23T2200,2571A,102.3431,27.8099,凉山彝族自治州,青龙寺,,31,31,31,21,20,63,,146,116,7,7,5,9,0.4,0.6
2024-08-23T2200,2572A,102.2721,27.8415,凉山彝族自治州,邛海宾馆,,32,32,35,22,23,69,,152,127,17,14,9,13,0.6,0.7
2024-08-23T2200,2573A,102.2625,27.898,凉山彝族自治州,西昌市政府,,32,32,33,21,24,85,,159,138,9,9,8,12,0.7,0.8
2024-08-23T2200,2574A,102.2685,27.8851,凉山彝族自治州,凉山州政府,,48,44,40,33,25,81,,164,143,15,12,6,10,0.8,0.7
2024-08-23T2200,2575A,102.237,27.8914,凉山彝族自治州,长安,,47,47,41,26,25,86,,158,139,8,14,7,11,0.7,0.8
2024-08-23T2200,2212A,123.2,41.1953,辽阳市,宏伟区,,43,43,28,13,11,69,,123,113,23,14,7,9,0.7,0.7
2024-08-23T2200,2213A,123.1683,41.2495,辽阳市,新华园,颗粒物(PM10),52,54,29,18,13,30,,119,104,48,17,10,10,0.7,0.6
2024-08-23T2200,2214A,123.2354,41.2639,辽阳市,滨河路,,40,40,31,22,16,16,,116,93,45,18,9,10,0.5,0.4
2024-08-23T2200,2215A,123.149,41.2991,辽阳市,铁西工业园,颗粒物(PM10),54,58,32,29,13,28,,118,94,31,15,10,10,1.1,1
2024-08-23T2200,2227A,125.1358,42.8845,辽源市,环保局,,41,41,20,22,10,22,,103,82,34,8,5,6,0.7,0.5
2024-08-23T2200,3239A,125.0764,42.9078,辽源市,银鹰制药,,38,38,19,19,12,15,,93,68,45,14,5,5,0.8,0.7
2024-08-23T2200,1625A,115.9848,36.4372,聊城市,区政府,颗粒物(PM10),52,53,43,28,22,121,,166,159,24,15,8,12,0.6,0.5
2024-08-23T2200,2878A,116.0072,36.4343,聊城市,聊大东校,,41,41,46,28,30,117,,170,159,26,18,6,10,0.7,0.6
2024-08-23T2200,3200A,115.9819,36.4978,聊城市,监控中心,颗粒物(PM10),58,66,44,36,23,100,,168,156,37,17,6,8,0.6,0.5
2024-08-23T2200,3513A,116.0445,36.4361,聊城市,九州社区,,,63,59,38,38,,,,,,22,81,123,0.5,0.5
2024-08-23T2200,4018A,116.0567,36.4608,聊城市,星美广场,颗粒物(PM10),64,78,50,39,25,91,,160,140,32,16,8,7,0.6,0.4
2024-08-23T2200,2632A,94.3681,29.6376,林芝市,林芝监测站,,14,12,7,9,4,44,,58,57,5,2,9,9,0.4,0.3
2024-08-23T2200,2633A,94.3616,29.6616,林芝市,林芝人民医院,,13,12,11,8,5,41,,59,57,8,4,7,7,0.3,0.2
2024-08-23T2200,2603A,100.0781,23.8982,临沧市,市环保局,,35,,13,24,12,24,,42,37,9,8,5,5,0.3,0.3
2024-08-23T2200,2604A,100.0894,23.8822,临沧市,市气象局,,12,11,13,8,8,23,,39,35,8,9,4,4,0.2,0.2
2024-08-23T2200,1733A,111.5531,36.0783,临汾市,临钢医院,颗粒物(PM10),69,87,56,29,21,63,,197,166,45,16,6,7,1.0,0.7
2024-08-23T2200,1734A,111.5028,36.0714,临汾市,技工学校,颗粒物(PM10),65,79,62,25,22,64,,196,159,47,24,5,5,0.8,0.8
2024-08-23T2200,1736A,111.5018,36.0855,临汾市,市委,颗粒物(PM10),66,82,52,29,23,55,,200,158,49,23,4,6,1.0,1
2024-08-23T2200,3018A,111.505,36.1014,临汾市,唐尧大酒店,颗粒物(PM10),71,91,52,25,19,40,,180,144,57,22,3,5,0.8,0.8
2024-08-23T2200,3668A,111.5036,36.0414,临汾市,城南,颗粒物(PM10),70,89,60,25,22,77,,206,165,39,23,4,5,0.9,0.8
2024-08-23T2200,2667A,103.2069,35.5993,临夏回族自治州,环保局,,27,23,35,18,23,85,,111,102,3,6,6,7,0.2,0.3
2024-08-23T2200,2668A,103.2417,35.6057,临夏回族自治州,建设大厦,,45,35,31,31,18,64,,112,103,5,5,4,5,0.2,0.3
2024-08-23T2200,1618A,118.3429,35.0532,临沂市,沂河小区,颗粒物(PM10),51,51,86,35,61,121,,201,165,26,25,12,12,0.6,0.8
2024-08-23T2200,1619A,118.295,35.0583,临沂市,鲁南制药厂,,44,44,80,28,53,131,,212,174,16,34,6,7,0.4,0.6
2024-08-23T2200,1620A,118.2794,34.9976,临沂市,新光毛纺厂,,41,41,97,27,69,115,,193,159,18,32,6,12,0.7,1
2024-08-23T2200,1621A,118.3956,35.0888,临沂市,河东保险公司,颗粒物(PM10),52,53,79,30,53,108,,202,156,32,37,7,10,0.5,0.7
2024-08-23T2200,3370A,118.3564,35.0215,临沂市,十里堡居委,,39,34,76,27,64,124,,194,164,21,17,10,13,0.8,0.9
2024-08-23T2200,3496A,118.3604,35.1084,临沂市,南坊新区,颗粒物(PM10),56,61,76,31,47,121,,225,174,21,30,9,11,0.8,0.8
2024-08-23T2200,3860A,118.3920,35.0300,临沂市,皇山花园小区,,,44,75,29,53,114,,182,153,21,29,,13,0.8,0.8
2024-08-23T2200,1870A,109.4856,24.3895,柳州市,柳东小学,,14,14,30,3,8,35,,56,43,11,12,11,9,0.6,0.6
2024-08-23T2200,1871A,109.4157,24.3277,柳州市,环保监测站,,17,17,28,8,15,28,,53,40,15,13,8,9,0.8,0.9
2024-08-23T2200,1872A,109.389,24.341,柳州市,河西水厂,,18,18,32,3,14,19,,52,39,21,13,6,9,0.8,0.8
2024-08-23T2200,1873A,109.4311,24.2921,柳州市,市四中,,15,11,27,10,14,30,,57,44,11,14,6,7,0.7,0.8
2024-08-23T2200,1874A,109.4006,24.3631,柳州市,市九中,,19,19,28,3,10,29,,57,45,14,12,5,6,0.5,0.6
2024-08-23T2200,1875A,109.4958,24.3134,柳州市,古亭山,,16,,25,8,11,10,,59,43,31,19,6,10,0.7,0.8
2024-08-23T2200,3402A,109.5422,24.3996,柳州市,市二中,,10,10,21,3,9,28,,54,44,17,11,6,9,0.6,0.6
2024-08-23T2200,2307A,116.5079,31.737,六安市,监测大楼,,29,25,25,20,17,75,,141,112,11,8,7,6,0.5,0.5
2024-08-23T2200,2308A,116.4738,31.7643,六安市,皖西学院,,29,23,33,20,18,84,,140,117,6,7,5,4,0.4,0.6
2024-08-23T2200,2309A,116.4996,31.7905,六安市,朝阳厂,,29,,25,20,17,82,,144,117,6,6,2,2,0.4,0.4
2024-08-23T2200,2310A,116.5567,31.7886,六安市,开发区,,45,43,31,31,21,81,,142,108,12,9,4,3,0.4,0.5
2024-08-23T2200,2577A,104.83,26.5917,六盘水市,黄土坡,,24,24,22,10,14,74,,120,108,13,9,5,7,0.4,0.5
2024-08-23T2200,2578A,104.89,26.5939,六盘水市,水钢,,28,26,28,12,9,89,,118,111,7,7,7,8,0.4,0.4
2024-08-23T2200,2579A,104.8475,26.5894,六盘水市,民中,,29,22,22,12,11,91,,119,111,7,7,8,8,0.4,0.4
2024-08-23T2200,2580A,104.9544,26.5506,六盘水市,双水,,25,17,20,8,10,78,,107,100,9,6,6,6,0.3,0.3
2024-08-23T2200,2336A,117.0217,25.1033,龙岩市,龙岩市监测站,,26,,23,9,11,83,,74,69,11,15,4,5,0.3,0.4
2024-08-23T2200,2337A,117.0258,25.0661,龙岩市,闽西职业技术学院,,27,10,28,3,10,85,,74,74,9,12,3,10,0.3,0.4
2024-08-23T2200,2338A,117.0196,25.0306,龙岩市,龙岩学院,,,,30,4,9,86,,74,74,7,5,3,3,0.3,0.3
2024-08-23T2200,2885A,104.9339,33.3826,陇南市,滨江中学,颗粒物(PM10),58,66,55,34,28,120,,135,130,9,10,5,6,0.4,0.4
2024-08-23T2200,3247A,104.955,33.371,陇南市,市总工会,,45,45,42,23,21,130,,136,134,5,6,6,6,0.3,0.4
2024-08-23T2200,2487A,111.9589,27.8901,娄底市,电视发射台,,25,24,33,17,14,29,,90,63,6,7,6,7,0.6,0.6
2024-08-23T2200,2488A,111.9975,27.725,娄底市,市监测站,,30,,26,21,15,56,,85,76,7,6,5,8,0.6,0.5
2024-08-23T2200,2489A,112.0194,27.7314,娄底市,市委党校,,30,28,25,21,15,50,,74,66,7,6,8,10,0.5,0.5
2024-08-23T2200,2490A,111.9561,27.7569,娄底市,涟钢,,34,34,32,20,16,45,,60,57,16,17,14,12,0.7,0.5
2024-08-23T2200,2491A,111.9892,27.7044,娄底市,市政府,,26,,22,18,15,54,,83,77,10,8,6,6,0.5,0.4
2024-08-23T2200,1893A,105.4324,28.9634,泸州市,九狮山,细颗粒物(PM2.5),57,56,30,40,19,49,,142,116,10,9,5,5,0.6,0.3
2024-08-23T2200,1894A,105.4427,28.9063,泸州市,小市上码头,,38,38,30,17,15,109,,152,143,17,13,6,8,0.3,0.3
2024-08-23T2200,1895A,105.4241,28.8573,泸州市,兰田宪桥,,29,25,30,20,20,78,,150,132,34,20,7,7,0.4,0.4
2024-08-23T2200,1896A,105.4379,28.8833,泸州市,市环监站,,34,32,28,22,19,108,,145,135,19,13,7,7,0.4,0.4
2024-08-23T2200,3490A,105.3617,28.7703,泸州市,纳溪区环保局,,39,39,38,12,27,54,,153,123,40,27,6,5,0.6,0.5
2024-08-23T2200,2183A,111.1406,37.5211,吕梁市,环保局,颗粒物(PM10),80,109,74,29,23,62,,152,123,42,24,5,7,0.6,0.5
2024-08-23T2200,2185A,111.1297,37.5136,吕梁市,自来水公司,颗粒物(PM10),63,76,82,28,22,70,,152,126,30,25,4,5,0.7,0.6
2024-08-23T2200,2867A,111.1283,37.51,吕梁市,马茂庄小学,颗粒物(PM10),76,102,84,28,24,55,,157,123,47,31,4,4,0.7,0.6
2024-08-23T2200,1812A,112.3931,34.6516,洛阳市,市委党校,颗粒物(PM10),51,52,48,31,29,122,,180,160,24,24,7,8,0.8,0.9
2024-08-23T2200,1814A,112.4657,34.6871,洛阳市,豫西宾馆,颗粒物(PM10),57,63,53,28,27,98,,170,149,32,27,5,6,0.7,0.7
2024-08-23T2200,1815A,112.494,34.6886,洛阳市,河南林校,颗粒物(PM10),56,62,47,31,27,98,,174,149,34,27,5,5,0.7,0.8
2024-08-23T2200,1816A,112.3844,34.623,洛阳市,开发区管委会,,42,42,39,28,26,109,,182,158,21,17,3,3,0.6,0.6
2024-08-23T2200,1817A,112.4267,34.6258,洛阳市,市委新办公区,细颗粒物(PM2.5),54,46,38,38,33,114,,181,160,16,16,5,5,0.7,0.7
2024-08-23T2200,3340A,112.6005,34.6326,洛阳市,伊滨,颗粒物(PM10),59,67,63,40,29,111,,179,161,12,11,6,5,0.7,0.7
2024-08-23T2200,3341A,112.4951,34.6332,洛阳市,中移产业园,颗粒物(PM10),54,58,50,37,31,104,,184,158,20,23,4,5,0.9,0.9
2024-08-23T2200,3593A,112.5736,34.8993,洛阳市,吉利监测站,颗粒物(PM10),60,70,50,36,27,86,,186,147,25,18,7,4,0.8,0.9
2024-08-23T2200,3635A,112.3677,34.662,洛阳市,河科大西苑校区,,43,43,42,23,21,131,,179,164,17,21,7,9,0.7,0.8
2024-08-23T2200,3636A,112.4388,34.6781,洛阳市,英才小学,,46,46,47,31,33,105,,173,152,24,26,6,6,0.6,0.7
2024-08-23T2200,2399A,114.051,33.5699,漯河市,三五一五工厂,颗粒物(PM10),52,54,48,33,30,46,,131,103,38,16,6,6,0.8,0.6
2024-08-23T2200,2400A,114.0055,33.5698,漯河市,漯河大学,,45,33,47,31,30,81,,147,120,17,9,10,10,0.7,0.7
2024-08-23T2200,2401A,114.0138,33.5828,漯河市,市水利局,,44,44,53,24,29,71,,140,114,21,10,7,7,0.8,0.7
2024-08-23T2200,2402A,114.0261,33.5698,漯河市,市广电局,,44,44,45,22,30,79,,143,118,21,10,8,8,0.7,0.7
2024-08-23T2200,3478A,113.9749,33.5664,漯河市,市图书馆,,48,48,51,27,33,87,,151,124,16,11,9,7,0.6,0.7
2024-08-23T2200,3479A,114.0967,33.5906,漯河市,召陵区卫健委,颗粒物(PM10),60,69,54,37,35,56,,129,101,31,14,3,3,0.7,0.6
2024-08-23T2200,1798A,118.5092,31.6837,马鞍山市,湖东路四小,,50,40,45,35,27,94,,162,130,20,28,6,8,0.8,1
2024-08-23T2200,1799A,118.5024,31.6449,马鞍山市,开发区,颗粒物(PM10),55,60,50,31,26,35,,157,103,61,38,4,5,0.8,1
2024-08-23T2200,1800A,118.5228,31.7231,马鞍山市,慈湖,,44,44,44,30,28,83,,158,118,26,24,5,6,0.7,0.9
2024-08-23T2200,1802A,118.6245,31.7241,马鞍山市,濮塘,,36,,33,25,25,101,,132,,10,16,6,6,0.7,0.9
2024-08-23T2200,3633A,118.4918,31.6809,马鞍山市,雨山,,35,35,40,24,24,100,,158,128,13,21,5,7,0.5,0.7
2024-08-23T2200,1686A,111.0286,21.4688,茂名市,电白南海,,24,24,23,14,16,54,,66,65,10,9,7,7,0.5,0.4
2024-08-23T2200,1687A,110.9294,21.6533,茂名市,茂石化七小,,35,,20,24,17,43,,61,56,12,8,8,5,0.4,0.3
2024-08-23T2200,1688A,110.9107,21.6687,茂名市,健康路,,24,24,19,12,8,47,,69,64,12,7,16,10,0.5,0.4
2024-08-23T2200,1689A,110.8592,21.6828,茂名市,高岭,,29,29,20,17,10,33,,55,48,16,9,26,16,0.4,0.4
2024-08-23T2200,3450A,111.01,21.5165,茂名市,电白水东,,18,12,12,12,12,49,,58,58,8,7,4,4,0.4,0.4
2024-08-23T2200,2539A,104.0308,30.0478,眉山市,黑龙滩水库,颗粒物(PM10),52,53,54,30,35,120,,185,160,10,11,4,4,0.6,0.6
2024-08-23T2200,2540A,103.8416,30.0874,眉山市,气象局,臭氧1小时,59,40,64,34,49,167,,220,198,20,36,8,8,0.6,0.7
2024-08-23T2200,3137A,103.8578,30.0744,眉山市,市委党校,臭氧1小时,74,39,68,31,44,179,,225,204,14,28,9,10,0.5,0.6
2024-08-23T2200,3148A,103.8291,30.0564,眉山市,区人社局,臭氧1小时,78,39,50,22,42,182,,227,208,16,38,8,10,0.6,0.7
2024-08-23T2200,1690A,116.1231,24.3284,梅州市,梅江月梅,,10,10,23,3,10,32,,74,60,18,9,6,7,0.4,0.4
2024-08-23T2200,1691A,116.0797,24.2719,梅州市,梅县新城,,13,6,19,3,8,41,,67,60,7,8,4,4,0.4,0.4
2024-08-23T2200,1692A,116.1248,24.2654,梅州市,环境监控中心,,18,16,25,12,14,28,,66,56,18,13,4,4,0.4,0.4
2024-08-23T2200,3315A,116.1233,24.2991,梅州市,梅龙,,13,6,14,3,11,41,,75,62,11,11,8,8,0.5,0.5
2024-08-23T2200,1878A,104.7778,31.4741,绵阳市,富乐山,,49,40,43,34,35,89,,140,128,18,8,3,3,0.8,0.8
2024-08-23T2200,1879A,104.7563,31.4535,绵阳市,市人大,,48,48,52,27,34,99,,148,135,29,22,7,11,0.6,0.7
2024-08-23T2200,1880A,104.6697,31.4668,绵阳市,高新区自来水公司,,,46,52,29,31,106,,159,142,24,18,,17,0.6,0.7
2024-08-23T2200,1881A,104.7287,31.5075,绵阳市,三水厂,颗粒物(PM10),52,53,54,31,41,81,,146,131,36,23,4,4,0.8,1
2024-08-23T2200,3491A,104.69,31.5322,绵阳市,西科大附属小学,,43,42,55,30,36,103,,147,138,20,19,10,10,0.6,0.7
2024-08-23T2200,3492A,104.5648,31.5343,绵阳市,安州区旅游局,细颗粒物(PM2.5),52,44,45,36,36,130,,166,153,13,12,4,4,0.6,0.7
2024-08-23T2200,1784A,129.61,44.561,牡丹江市,环保大楼,细颗粒物(PM2.5),52,,15,36,15,36,,73,60,15,7,6,7,0.4,0.3
2024-08-23T2200,1785A,129.6115,44.5782,牡丹江市,文化广场,,49,49,20,30,18,35,,68,56,16,9,7,7,0.4,0.3
2024-08-23T2200,1786A,129.5904,44.5963,牡丹江市,第一医院,细颗粒物(PM2.5),57,,24,40,19,37,,73,60,17,7,5,5,0.5,0.4
2024-08-23T2200,1787A,129.6364,44.6075,牡丹江市,机车工厂,颗粒物(PM10),57,64,26,34,18,30,,71,56,15,8,7,6,0.6,0.3
2024-08-23T2200,1788A,129.6386,44.5462,牡丹江市,第一中学,颗粒物(PM10),53,55,25,12,13,18,,77,53,11,9,5,5,0.4,0.3
2024-08-23T2200,2531A,105.0703,29.61,内江市,市监测站,细颗粒物(PM2.5),64,68,38,46,37,84,,167,138,54,23,14,10,0.7,0.5
2024-08-23T2200,2532A,105.0717,29.5947,内江市,东兴区政府,细颗粒物(PM2.5),52,48,41,36,32,94,,169,152,46,19,12,11,0.6,0.5
2024-08-23T2200,2533A,105.0653,29.5817,内江市,内江二中,,,41,35,,63,59,,156,136,48,20,7,8,0.7,0.7
2024-08-23T2200,2534A,105.0406,29.5822,内江市,内江日报社,,,,37,,38,,,167,164,59,28,8,9,,0.5
2024-08-23T2200,2628A,92.0657,31.4846,那曲市,那曲监测站,颗粒物(PM10),51,52,25,17,14,39,,53,49,6,6,6,5,0.4,0.3
2024-08-23T2200,3128A,92.0506,31.4797,那曲市,那曲会议中心,,25,25,15,11,5,48,,64,60,10,6,5,4,0.4,0.4
2024-08-23T2200,1290A,115.8931,28.6843,南昌市,省外办,,43,43,36,24,19,62,,117,85,23,15,10,10,0.7,0.6
2024-08-23T2200,1291A,115.8886,28.7003,南昌市,省林业公司,颗粒物(PM10),53,56,30,27,16,28,,117,90,45,15,6,8,0.8,0.7
2024-08-23T2200,1292A,115.8126,28.7442,南昌市,林科所,,34,34,25,14,14,41,,115,90,19,13,7,9,0.6,0.6
2024-08-23T2200,1294A,115.8518,28.687,南昌市,建工学校,,39,35,25,27,9,73,,111,92,17,14,9,10,0.5,0.5
2024-08-23T2200,1295A,115.8921,28.6424,南昌市,象湖,,36,36,27,16,17,73,,122,98,22,15,5,6,0.7,0.7
2024-08-23T2200,1296A,115.7423,28.7996,南昌市,武术学校,,41,41,27,11,17,38,,82,62,11,8,2,3,0.6,0.4
2024-08-23T2200,1298A,115.9314,28.6842,南昌市,省站,,48,48,30,33,20,56,,108,85,26,17,8,9,0.8,0.7
2024-08-23T2200,3046A,115.9084,28.6062,南昌市,机电学校,颗粒物(PM10),51,51,38,22,16,51,,116,84,18,13,7,8,0.7,0.7
2024-08-23T2200,3690A,115.9721,28.7031,南昌市,外国语学校,,40,40,35,27,14,58,,116,89,20,16,7,7,0.6,0.6
2024-08-23T2200,1905A,106.056,30.8064,南充市,西山风景区,,33,33,31,22,31,103,,136,126,18,11,1,2,0.8,0.8
2024-08-23T2200,1906A,106.0789,30.8023,南充市,南充市委,,48,48,53,28,35,77,,146,128,30,21,7,7,0.6,0.5
2024-08-23T2200,1907A,106.1031,30.8217,南充市,南充炼油厂,细颗粒物(PM2.5),70,66,65,51,47,100,,151,131,19,17,9,7,0.6,0.6
2024-08-23T2200,1908A,106.1064,30.7856,南充市,高坪区监测站,,40,40,47,22,33,86,,138,117,29,20,6,6,0.7,0.6
2024-08-23T2200,1909A,106.0642,30.7636,南充市,嘉陵区环保局,细颗粒物(PM2.5),64,48,45,46,30,106,,148,134,21,23,6,5,0.6,0.5
2024-08-23T2200,1910A,106.1087,30.8388,南充市,市环境监测站,细颗粒物(PM2.5),70,68,61,51,40,91,,147,128,25,18,9,7,0.6,0.4
2024-08-23T2200,1151A,118.8086,32.1065,南京市,迈皋桥,,42,42,33,22,21,4,,151,79,38,26,9,8,0.5,0.6
2024-08-23T2200,1152A,118.7538,32.0551,南京市,草场门,,46,46,37,19,20,84,,159,121,31,25,5,9,0.5,0.8
2024-08-23T2200,1153A,118.7794,32.0745,南京市,山西路,,44,44,41,29,25,34,,162,105,53,29,4,4,0.8,0.8
2024-08-23T2200,1154A,118.7752,32.0023,南京市,中华门,,35,31,34,24,22,71,,141,109,17,18,4,4,0.5,0.7
2024-08-23T2200,1155A,118.8109,32.0309,南京市,瑞金路,,39,27,38,27,24,94,,162,129,9,13,4,5,0.5,0.7
2024-08-23T2200,1156A,118.7997,32.0754,南京市,玄武湖,颗粒物(PM10),56,62,44,26,20,2,,138,80,59,12,4,4,0.8,0.8
2024-08-23T2200,1157A,118.6414,32.0931,南京市,浦口,,42,42,37,24,20,76,,161,124,12,15,7,8,0.7,0.8
2024-08-23T2200,1158A,118.7356,31.9996,南京市,奥体中心,,42,38,37,29,26,102,,158,128,16,19,3,6,0.3,0.6
2024-08-23T2200,1159A,118.9125,32.1028,南京市,仙林大学城,,41,41,37,19,23,63,,168,122,29,21,6,7,0.7,0.8
2024-08-23T2200,3422A,118.8436,31.9198,南京市,江宁彩虹桥,,32,32,37,22,23,96,,145,116,13,20,4,4,0.5,0.7
2024-08-23T2200,3423A,119.0138,31.6494,南京市,溧水永阳,,31,31,27,21,20,67,,126,114,22,9,4,4,0.6,0.5
2024-08-23T2200,3424A,118.879,31.3302,南京市,高淳老职中,,35,24,31,24,23,109,,134,126,9,9,4,6,0.6,0.6
2024-08-23T2200,3427A,118.8554,32.3578,南京市,六合雄州,,29,29,38,10,24,48,,182,122,30,43,4,7,0.6,0.7
2024-08-23T2200,1401A,108.3103,22.7881,南宁市,二十一中,,26,26,28,13,15,31,,45,42,10,12,3,3,0.7,0.8
2024-08-23T2200,1402A,108.3141,22.8528,南宁市,北湖,,33,33,30,22,21,23,,39,35,20,14,2,3,0.8,0.8
2024-08-23T2200,1403A,108.3206,22.8225,南宁市,市监测站,,25,25,28,12,16,28,,43,40,14,15,4,5,0.6,0.7
2024-08-23T2200,1404A,108.3829,22.8037,南宁市,大自然花园,,24,24,26,12,14,26,,41,37,15,12,4,4,0.6,0.7
2024-08-23T2200,1405A,108.4394,22.7904,南宁市,仙葫,,25,25,24,9,9,32,,42,37,8,8,6,6,0.7,0.7
2024-08-23T2200,1406A,108.2397,22.8467,南宁市,区农职院,,37,37,34,13,11,14,,45,37,25,18,6,6,0.8,0.8
2024-08-23T2200,1407A,108.3275,22.735,南宁市,英华嘉园,,15,13,30,10,16,27,,41,40,11,18,5,6,0.5,0.7
2024-08-23T2200,1408A,108.2257,22.7757,南宁市,沙井镇街道办,,40,40,32,16,14,14,,57,44,25,18,2,2,0.6,0.5
2024-08-23T2200,3401A,108.4834,22.7618,南宁市,红星社区,,32,32,24,15,15,27,,40,35,10,11,5,5,0.7,0.8
2024-08-23T2200,2332A,118.1681,26.6369,南平市,南平市监测站,,25,25,27,8,11,26,,92,70,22,13,5,4,0.9,0.7
2024-08-23T2200,2333A,118.1825,26.6489,南平市,南平铝业有限公司,,32,32,28,13,13,22,,90,65,26,13,10,6,0.7,0.6
2024-08-23T2200,2334A,118.1756,26.6272,南平市,南平七中,,31,31,28,12,12,30,,90,66,13,9,4,4,0.8,0.7
2024-08-23T2200,1168A,120.9098,31.9663,南通市,狼山街道,,,,33,17,27,109,,209,180,19,26,7,9,,0.7
2024-08-23T2200,1169A,120.86,32.0005,南通市,虹桥,,36,21,35,13,25,115,,200,185,12,26,6,6,0.7,0.8
2024-08-23T2200,1170A,120.87,32.02,南通市,城中,,,26,45,13,24,,,218,216,16,25,5,8,0.7,0.8
2024-08-23T2200,1171A,120.94,31.93,南通市,星湖花园,,31,14,34,11,21,99,,212,176,21,28,5,7,0.7,0.9
2024-08-23T2200,1172A,120.81,32.0417,南通市,紫琅学院,,39,20,34,12,20,124,,164,161,17,30,8,9,0.9,1
2024-08-23T2200,3291A,121.067,32.062,南通市,通州监测站,,34,14,39,7,24,107,,206,176,11,16,2,5,0.6,0.8
2024-08-23T2200,3432A,120.9348,31.9883,南通市,环境教育馆,,34,29,44,10,25,108,,217,180,14,24,4,6,0.5,0.7
2024-08-23T2200,2404A,112.5224,33.0122,南阳市,瓦房庄,,40,40,46,27,30,71,,142,118,12,11,5,5,0.5,0.5
2024-08-23T2200,2405A,112.5003,32.9735,南阳市,汉画馆,,40,40,51,22,31,67,,135,115,16,16,4,4,0.6,0.6
2024-08-23T2200,2406A,112.5573,33.027,南阳市,气象站,颗粒物(PM10),54,57,53,24,25,66,,136,112,12,11,3,4,0.6,0.6
2024-08-23T2200,2407A,112.5481,32.9689,南阳市,理工学院,,39,39,43,24,28,65,,138,115,17,14,5,5,0.5,0.6
2024-08-23T2200,4008A,112.5234,32.9922,南阳市,卧龙区政府,,49,49,50,27,29,66,,141,115,15,14,4,4,0.7,0.7
2024-08-23T2200,1234A,121.8358,29.911,宁波市,区环保大楼,,32,32,33,19,16,94,,186,140,13,19,7,9,0.6,0.7
2024-08-23T2200,1235A,121.56,29.82,宁波市,万里学院,,36,36,32,22,21,96,,198,146,12,16,9,10,0.6,0.7
2024-08-23T2200,1236A,121.713,29.9572,宁波市,龙赛医院,,36,36,32,14,13,90,,190,134,17,20,8,10,0.6,0.7
2024-08-23T2200,1239A,121.633,29.7733,宁波市,钱湖水厂,,32,32,24,17,15,100,,190,143,9,9,7,7,0.7,0.7
2024-08-23T2200,1240A,121.5856,29.8635,宁波市,太古小学,,27,25,32,14,15,86,,190,139,13,18,6,6,0.8,0.9
2024-08-23T2200,1241A,121.524,29.8674,宁波市,市环境监测中心,,29,28,25,14,12,90,,197,150,13,16,5,5,0.5,0.6
2024-08-23T2200,2871A,121.6147,29.9017,宁波市,万里国际学校,,31,25,23,15,15,98,,200,148,9,17,6,7,0.4,0.5
2024-08-23T2200,3710A,121.5594,29.8975,宁波市,白沙活动中心,,29,28,28,11,13,90,,194,146,12,17,7,8,0.6,0.7
2024-08-23T2200,2341A,119.5388,26.6612,宁德市,宁德市监测站,,36,36,30,19,13,83,,112,112,23,14,10,5,1.1,0.6
2024-08-23T2200,3209A,119.5231,26.6562,宁德市,宁德一中,,40,40,32,14,18,78,,90,90,7,11,4,4,0.9,0.6
2024-08-23T2200,2618A,98.8601,25.8567,怒江傈僳族自治州,州监测站,,37,37,27,21,18,62,,98,91,12,9,5,5,0.5,0.5
2024-08-23T2200,2619A,98.8546,25.8417,怒江傈僳族自治州,泸水一中,,30,,26,21,16,54,,86,76,13,12,5,5,0.4,0.4
2024-08-23T2200,1888A,101.6891,26.571,攀枝花市,弄弄坪,,44,44,65,22,27,74,,134,129,28,25,20,36,1.3,1.3
2024-08-23T2200,1889A,101.5769,26.5928,攀枝花市,河门口,,38,38,41,23,27,91,,125,117,16,21,8,13,0.8,1.1
2024-08-23T2200,1890A,101.7169,26.585,攀枝花市,炳草岗,颗粒物(PM10),58,65,59,23,30,84,,150,146,36,27,17,42,0.8,0.8
2024-08-23T2200,1891A,101.7369,26.5008,攀枝花市,仁和,,33,33,26,21,18,61,,105,100,18,14,4,5,0.5,0.5
2024-08-23T2200,2835A,101.7227,26.567,攀枝花市,四十中小,,48,48,53,33,30,64,,145,138,60,27,23,84,1.2,1
2024-08-23T2200,1604A,122.0303,41.1489,盘锦市,开发区,颗粒物(PM10),55,59,26,36,16,62,,110,99,28,15,6,6,0.6,0.4
2024-08-23T2200,1605A,122.0485,41.0883,盘锦市,兴隆台,,39,39,25,20,8,75,,101,89,22,18,5,4,0.6,0.5
2024-08-23T2200,1606A,121.8297,41.1028,盘锦市,新生街道,,20,19,21,14,10,62,,94,86,12,16,5,9,0.6,0.7
2024-08-23T2200,1832A,113.3257,33.742,平顶山市,新华旅馆,,,48,74,32,35,,,164,134,30,22,4,5,0.5,0.5
2024-08-23T2200,1833A,113.2919,33.737,平顶山市,规划设计院,,46,41,49,32,33,86,,172,121,17,22,6,6,0.9,1
2024-08-23T2200,1834A,113.182,33.774,平顶山市,平顶山工学院,,,42,42,22,22,,,,,,,,,1.2,1.2
2024-08-23T2200,3204A,113.3025,33.73,平顶山市,规划局,,46,44,67,32,37,79,,155,115,18,22,2,2,0.9,0.9
2024-08-23T2200,3594A,112.8867,33.9116,平顶山市,石龙区,颗粒物(PM10),69,88,93,28,29,61,,144,118,22,38,7,8,0.7,0.7
2024-08-23T2200,2656A,106.6692,35.5461,平凉市,聚贤嘉苑,,46,46,51,27,24,56,,121,72,28,28,6,7,0.4,0.4
2024-08-23T2200,2657A,106.7021,35.5307,平凉市,博物馆,颗粒物(PM10),60,69,54,26,22,28,,131,90,80,35,8,9,1.7,0.8
2024-08-23T2200,2347A,114.0997,27.5002,萍乡市,武功山,,10,10,5,3,6,16,,62,38,5,4,7,8,0.4,0.3
2024-08-23T2200,2348A,113.8385,27.6434,萍乡市,中医院,,24,6,19,3,11,76,,72,69,3,8,3,5,0.4,0.5
2024-08-23T2200,2349A,113.8493,27.6253,萍乡市,市政府车库,细颗粒物(PM2.5),63,,18,45,12,54,,64,54,7,8,11,13,0.4,0.5
2024-08-23T2200,2350A,113.8676,27.6435,萍乡市,市环保局,,39,33,24,27,14,55,,65,56,3,10,10,14,0.6,0.8
2024-08-23T2200,2351A,113.866,27.6198,萍乡市,安源区政府,,31,31,26,7,7,52,,64,60,7,10,8,10,0.2,0.3
2024-08-23T2200,2319A,119.0141,25.4325,莆田市,荔城区仓后路,,29,29,36,13,18,36,,98,54,15,17,7,7,0.8,0.7
2024-08-23T2200,2320A,119.0015,25.4553,莆田市,莆田市监测站,,26,26,32,8,11,34,,99,53,4,8,6,6,0.5,0.5
2024-08-23T2200,2321A,119.1119,25.4561,莆田市,涵江区六中,,33,33,37,13,16,31,,104,64,19,20,6,6,0.8,0.7
2024-08-23T2200,2322A,119.1013,25.3215,莆田市,秀屿区政府,,26,,28,18,22,55,,114,76,22,23,7,7,0.7,0.7
2024-08-23T2200,2392A,115.0312,35.7636,濮阳市,环保局,,46,41,42,32,27,109,,145,137,16,13,5,6,0.7,0.6
2024-08-23T2200,2394A,115.0574,35.7609,濮阳市,油田运输公司,,49,49,43,26,26,111,,159,145,19,14,2,4,0.6,0.6
2024-08-23T2200,2395A,115.0866,35.7754,濮阳市,油田物探公司,,,50,42,31,28,,,149,147,14,10,5,6,0.4,0.6
2024-08-23T2200,3021A,115,35.7668,濮阳市,濮水河管理处,,45,45,39,29,30,82,,136,114,18,12,3,3,0.7,0.6
2024-08-23T2200,2601A,100.98,22.7633,普洱市,市环保局,,25,17,14,17,12,18,,28,25,6,4,5,3,0.4,0.3
2024-08-23T2200,2602A,100.9817,22.8322,普洱市,普洱第二中学,,16,14,15,11,11,12,,28,22,6,6,6,6,0.4,0.4
2024-08-23T2200,2262A,131.0518,45.8751,七台河市,新一中,,40,36,17,28,10,44,,82,63,13,7,10,9,1.0,0.9
2024-08-23T2200,3345A,131.0577,45.7879,七台河市,中波台,,30,30,13,15,7,24,,61,46,27,13,10,10,0.7,0.6
2024-08-23T2200,3637A,131.0176,45.7761,七台河市,人民广场,颗粒物(PM10),52,54,20,25,11,24,,63,44,28,13,10,9,0.6,0.4
2024-08-23T2200,3684A,130.8781,45.8222,七台河市,新建矿广场,细颗粒物(PM2.5),52,48,23,36,15,18,,59,40,22,13,5,5,0.3,0.4
2024-08-23T2200,1779A,123.9305,47.3636,齐齐哈尔市,安居小区,颗粒物(PM10),57,63,32,31,19,12,,66,53,44,19,8,9,0.8,0.5
2024-08-23T2200,1780A,123.9488,47.3386,齐齐哈尔市,中心广场,颗粒物(PM10),51,52,35,25,14,27,,66,56,36,20,2,2,0.6,0.5
2024-08-23T2200,1781A,123.9483,47.3227,齐齐哈尔市,农牧车辆厂,,48,48,42,20,12,25,,69,60,24,19,8,8,0.3,0.4
2024-08-23T2200,1783A,123.945,47.2988,齐齐哈尔市,市环境监测站,,37,37,38,24,23,37,,72,62,25,20,7,7,0.4,0.4
2024-08-23T2200,3662A,123.6333,47.2075,齐齐哈尔市,富区青少年活动中心,,47,47,38,19,12,46,,73,63,16,15,4,4,0.7,0.6
2024-08-23T2200,2591A,107.9783,26.5747,黔东南苗族侗族自治州,市环境监测站,,17,7,9,7,8,54,,52,52,6,5,3,3,0.5,0.4
2024-08-23T2200,2881A,107.8908,26.5311,黔东南苗族侗族自治州,凯里学院,,18,9,8,7,7,55,,52,52,4,4,2,2,0.5,0.5
2024-08-23T2200,2593A,107.5228,26.2403,黔南布依族苗族自治州,小围寨,,16,14,4,3,1,49,,54,54,5,3,4,4,0.4,0.4
2024-08-23T2200,3538A,107.5175,26.2978,黔南布依族苗族自治州,沙坝,,16,7,6,3,3,51,,56,55,3,3,4,4,0.3,0.4
2024-08-23T2200,2589A,104.9022,25.0925,黔西南布依族苗族自治州,场坝街,,,35,18,3,7,,,76,68,6,6,3,2,0.2,0.1
2024-08-23T2200,2590A,104.8811,25.0992,黔西南布依族苗族自治州,坪东大道,,22,22,18,7,7,22,,78,60,17,6,6,6,0.3,0.1
2024-08-23T2200,2502A,108.6236,21.9667,钦州市,市环保站,,29,29,21,9,8,39,,48,48,17,19,10,7,0.8,0.7
2024-08-23T2200,2503A,108.6549,21.9481,钦州市,沙埠小学,,35,35,26,10,11,24,,53,47,26,17,5,5,0.6,0.5
2024-08-23T2200,2504A,108.5989,21.7431,钦州市,港区一小,,,37,33,14,10,36,,50,49,38,24,9,10,,0.8
2024-08-23T2200,3404A,108.5959,21.9633,钦州市,北职校,,46,43,27,32,14,30,,48,46,24,18,5,4,0.9,0.7
2024-08-23T2200,1042A,119.5134,39.8207,秦皇岛市,北戴河环保局,,29,29,28,8,6,47,,89,76,18,15,2,2,0.4,0.4
2024-08-23T2200,1043A,119.7493,40.0116,秦皇岛市,第一关,,33,30,29,23,18,0,,89,48,62,30,3,2,0.3,0.3
2024-08-23T2200,1044A,119.5897,39.9499,秦皇岛市,监测站,,42,42,33,19,16,4,,88,63,68,23,3,3,0.6,0.5
2024-08-23T2200,1046A,119.5251,39.9041,秦皇岛市,建设大厦,,32,32,26,8,7,21,,96,67,44,18,3,3,0.5,0.3
2024-08-23T2200,3132A,119.610547,39.943889,秦皇岛市,文明里,,23,23,20,10,7,36,,92,76,36,15,1,2,0.6,0.5
2024-08-23T2200,1307A,120.6659,36.2403,青岛市,仰口,,45,45,46,31,37,126,,150,131,9,8,6,8,0.3,0.4
2024-08-23T2200,1310A,120.4134,36.0658,青岛市,市南区东部子站,,40,39,54,14,24,126,,198,175,23,23,6,9,0.9,0.9
2024-08-23T2200,1311A,120.3664,36.1032,青岛市,四方区子站,,,31,48,31,32,,,185,,6,16,10,15,1.0,0.9
2024-08-23T2200,1312A,120.2994,36.054,青岛市,市南区西部子站,,39,36,58,20,29,123,,181,157,16,27,8,10,1.0,1
2024-08-23T2200,1313A,120.4581,36.0858,青岛市,崂山区子站,,44,36,55,27,33,139,,200,186,22,23,8,10,0.8,0.8
2024-08-23T2200,1314A,120.1983,35.9608,青岛市,黄岛区子站,臭氧1小时,53,36,48,29,35,162,,194,182,14,20,9,10,0.9,0.9
2024-08-23T2200,1315A,120.3999,36.3083,青岛市,城阳区子站,,46,46,52,27,29,139,,190,155,18,22,7,8,0.8,0.9
2024-08-23T2200,1966A,120.0405,35.8735,青岛市,黄岛区4号,细颗粒物(PM2.5),52,39,54,36,34,142,,193,178,14,23,9,12,0.8,0.9
2024-08-23T2200,3362A,120.5014,36.4034,青岛市,即墨2号,颗粒物(PM10),56,62,65,36,37,122,,181,147,16,17,6,7,0.7,0.8
2024-08-23T2200,3642A,120.3503,36.0736,青岛市,市北区南部,,45,45,54,31,35,130,,175,157,20,23,7,8,1.0,1
2024-08-23T2200,3643A,120.3948,36.1805,青岛市,李沧区北部,,50,36,51,31,34,158,,182,170,14,20,8,9,0.9,0.9
2024-08-23T2200,1702A,113.0426,23.691,清远市,环保大楼,,36,36,55,17,18,39,,103,92,19,21,6,7,0.7,0.7
2024-08-23T2200,1703A,113.0208,23.7106,清远市,凤城街办,,,31,46,20,27,,,80,80,20,22,5,5,0.6,0.5
2024-08-23T2200,3025A,113.0477,23.6344,清远市,技师学院,,45,45,47,25,25,42,,118,103,21,23,4,4,0.7,0.7
2024-08-23T2200,3318A,112.9903,23.7403,清远市,清新太和,,40,36,44,28,27,32,,74,66,14,19,3,4,0.8,0.7
2024-08-23T2200,3455A,113.076,23.7198,清远市,清城东城,,31,31,47,19,23,36,,93,83,15,15,6,6,0.5,0.5
2024-08-23T2200,2661A,107.6325,35.7357,庆阳市,庆阳五中,,41,41,39,14,16,87,,141,121,10,8,6,6,0.5,0.6
2024-08-23T2200,2662A,107.6364,35.7067,庆阳市,市环保局,,29,27,34,14,18,90,,141,120,10,9,8,9,0.5,0.6
2024-08-23T2200,1916A,103.7897,25.5035,曲靖市,环境监测站,,,,27,,12,,,114,114,16,14,5,8,0.4,0.5
2024-08-23T2200,1917A,103.8,25.5364,曲靖市,烟厂办公区,,32,32,25,18,13,64,,111,103,14,12,3,6,0.4,0.4
2024-08-23T2200,3376A,103.7947,25.462,曲靖市,南苑二区,,22,22,21,12,11,65,,114,105,13,11,4,8,0.5,0.5
2024-08-23T2200,3377A,103.7444,25.5261,曲靖市,曲靖师范学院,,23,22,26,12,14,71,,124,116,11,15,7,14,0.5,0.5
2024-08-23T2200,1264A,118.8692,28.9398,衢州市,环保大楼,,36,36,36,24,22,82,,130,122,25,22,7,3,0.7,0.5
2024-08-23T2200,1265A,118.8709,28.9666,衢州市,实验学校,,45,45,37,27,24,49,,126,118,33,17,4,6,0.5,0.4
2024-08-23T2200,1266A,118.8621,28.9808,衢州市,衢州学院,颗粒物(PM10),51,52,38,32,22,49,,129,106,35,27,5,6,0.4,0.4
2024-08-23T2200,1611A,118.5819,24.9117,泉州市,涂山街,,23,23,35,12,20,53,,136,93,24,24,1,3,0.6,0.7
2024-08-23T2200,1612A,118.5972,24.8978,泉州市,津头埔,,,,39,14,22,51,,135,88,,24,2,5,,0.8
2024-08-23T2200,1613A,118.6663,24.9424,泉州市,万安,,22,22,33,8,22,33,,143,73,24,23,1,2,0.6,0.7
2024-08-23T2200,3529A,118.6333,24.9264,泉州市,城华南路,,20,20,30,9,16,41,,122,66,12,16,3,4,0.6,0.6
2024-08-23T2200,2626A,88.8876,29.2718,日喀则市,日喀则监测站,,19,11,6,3,3,59,,72,70,4,4,5,5,0.3,0.4
2024-08-23T2200,3726A,88.8781,29.2426,日喀则市,林业技术推广中心,,16,10,5,8,4,51,,70,66,7,6,7,7,0.5,0.5
2024-08-23T2200,1659A,119.471,35.4209,日照市,监测站,,49,48,48,34,35,137,,183,163,25,28,11,10,1.1,0.9
2024-08-23T2200,1660A,119.523,35.4216,日照市,市政府广场,,47,46,53,31,34,149,,200,186,18,21,10,14,0.8,1
2024-08-23T2200,1661A,119.5587,35.4044,日照市,港务局,细颗粒物(PM2.5),52,48,67,36,33,146,,185,171,17,33,11,14,0.7,0.9
2024-08-23T2200,3507A,119.5328,35.4625,日照市,职业技术学院,臭氧1小时,53,41,53,31,34,162,,200,187,17,26,9,13,0.9,1
2024-08-23T2200,3604A,119.3266,35.1044,日照市,岚山环保分局,,48,48,54,24,28,147,,168,160,17,25,8,11,0.7,0.8
2024-08-23T2200,1835A,111.1922,34.7752,三门峡市,市政府,,48,45,40,27,18,153,,146,141,11,21,9,10,0.7,0.6
2024-08-23T2200,1836A,111.1587,34.7942,三门峡市,开发区,颗粒物(PM10),58,66,45,37,30,126,,150,142,21,18,9,11,0.7,0.7
2024-08-23T2200,3039A,111.1911,34.7829,三门峡市,三门峡市第一小学,细颗粒物(PM2.5),52,40,40,36,22,142,,146,143,11,12,9,11,0.7,0.7
2024-08-23T2200,3598A,111.1,34.7167,三门峡市,富达温泉假日酒店,,49,49,36,32,20,100,,142,124,18,14,12,12,0.7,0.6
2024-08-23T2200,2324A,117.6211,26.2625,三明市,三钢,,24,24,27,14,17,22,,84,61,18,12,5,7,0.6,0.6
2024-08-23T2200,2325A,117.635,26.2714,三明市,三明二中,,20,20,24,9,11,32,,90,70,15,10,2,4,0.6,0.6
2024-08-23T2200,2326A,117.6028,26.2378,三明市,三元区政府,,,27,32,18,12,,,82,63,26,13,3,3,0.6,0.5
2024-08-23T2200,1876A,109.5078,18.2489,三亚市,河东子站,,,17,16,11,10,21,,40,30,,4,3,3,,0
2024-08-23T2200,1877A,109.4964,18.2681,三亚市,河西子站,,20,20,16,11,8,12,,36,24,13,7,2,2,0.3,0.2
2024-08-23T2200,3540A,109.7348,18.3443,三亚市,君悦子站,,25,25,20,11,8,15,,38,28,12,8,1,1,0.4,0.2
2024-08-23T2200,2624A,91.7608,29.2313,山南市,山南监测站,,24,,8,10,4,76,,77,77,2,4,7,7,0.3,0.3
2024-08-23T2200,2625A,91.7706,29.2436,山南市,山南人民医院,,25,10,12,8,8,77,,76,76,5,7,7,7,0.3,0.4
2024-08-23T2200,1674A,116.6794,23.3667,汕头市,金平子站,,10,,28,3,16,31,,77,58,13,13,4,4,0.5,0.7
2024-08-23T2200,1675A,116.7244,23.3633,汕头市,龙湖子站,,,,26,4,12,38,,80,62,13,14,7,6,0.6,0.7
2024-08-23T2200,1676A,116.7258,23.2775,汕头市,濠江子站,,13,,24,3,20,40,,69,52,10,19,5,6,0.9,0.7
2024-08-23T2200,1677A,116.7519,23.4714,汕头市,澄海子站,,11,,24,7,13,35,,97,73,18,14,5,4,0.7,0.8
2024-08-23T2200,1678A,116.6092,23.2539,汕头市,潮阳子站,,35,,27,24,12,46,,87,70,5,8,5,5,0.6,0.7
2024-08-23T2200,3444A,116.454,23.2684,汕头市,潮南峡山,,32,32,33,10,20,30,,73,56,13,7,5,5,0.9,0.6
2024-08-23T2200,3624A,116.4069,23.2533,汕头市,潮南子站,,19,19,44,13,18,30,,74,56,19,14,4,4,0.7,0.8
2024-08-23T2200,1693A,115.3653,22.775,汕尾市,市环保局,,18,14,19,12,11,34,,64,49,13,15,6,7,0.5,0.5
2024-08-23T2200,1694A,115.3706,22.7898,汕尾市,市政府,,,23,18,10,11,30,,60,45,,16,,5,0.4,0.4
2024-08-23T2200,1695A,115.3622,22.7925,汕尾市,新城中学,,24,24,23,12,12,35,,58,44,10,15,6,6,0.6,0.6
2024-08-23T2200,2645A,109.9154,33.8715,商洛市,监测站,颗粒物(PM10),54,58,42,26,20,72,,118,99,14,19,12,5,0.7,0.7
2024-08-23T2200,3045A,109.9643,33.8471,商洛市,商州区中学,,47,47,40,25,20,54,,110,82,17,15,8,8,0.7,0.7
2024-08-23T2200,2408A,115.6702,34.4285,商丘市,环境监测站,,,,62,,29,,,152,142,,19,,6,,0.6
2024-08-23T2200,2409A,115.6458,34.4045,商丘市,粮食局,,44,44,50,29,29,109,,158,137,8,7,6,7,0.5,0.4
2024-08-23T2200,2410A,115.6293,34.3948,商丘市,睢阳区环保局,,49,49,53,26,28,112,,160,138,8,8,5,8,0.5,0.5
2024-08-23T2200,3171A,115.6071,34.4465,商丘市,梁园区档案局,,40,37,50,28,26,120,,156,138,6,8,7,8,0.6,0.5
2024-08-23T2200,1141A,121.4,31.238,上海市,普陀,,24,24,34,13,18,70,,204,148,24,20,5,7,0.5,0.5
2024-08-23T2200,1142A,121.478,31.2036,上海市,十五厂,,,22,31,14,21,,,201,162,19,22,8,8,0.4,0.5
2024-08-23T2200,1143A,121.467,31.3008,上海市,虹口,,22,22,33,14,21,68,,193,129,24,21,8,9,0.6,0.7
2024-08-23T2200,1144A,121.412,31.1654,上海市,徐汇上师大,,25,24,35,17,22,66,,199,143,33,26,5,6,0.7,0.7
2024-08-23T2200,1145A,121.536,31.2659,上海市,杨浦四漂,,25,25,36,12,20,70,,195,125,22,23,7,7,0.4,0.5
2024-08-23T2200,1147A,121.425,31.2261,上海市,静安监测站,,23,21,31,12,20,72,,205,148,20,18,5,6,0.7,0.7
2024-08-23T2200,1148A,121.703,31.1907,上海市,浦东川沙,,44,44,31,23,19,105,,173,110,18,24,6,6,0.6,0.7
2024-08-23T2200,1149A,121.533,31.2284,上海市,浦东新区监测站,,25,25,29,9,19,72,,178,120,18,20,5,5,0.7,0.7
2024-08-23T2200,1150A,121.577,31.2071,上海市,浦东张江,,40,40,33,20,23,81,,162,105,24,27,5,6,0.8,0.9
2024-08-23T2200,3265A,121.4316,31.3322,上海市,宝山庙行,,28,28,35,17,20,74,,202,139,29,23,5,7,0.5,0.6
2024-08-23T2200,3266A,121.8791,31.4662,上海市,崇明上实东滩,,32,28,17,22,13,100,,146,112,16,14,8,8,0.8,0.8
2024-08-23T2200,3268A,121.3162,31.2838,上海市,嘉定南翔,,26,19,35,12,22,81,,197,136,24,32,6,7,0.6,0.7
2024-08-23T2200,3269A,121.3359,30.7456,上海市,金山新城,,32,19,21,9,15,101,,162,125,7,15,5,6,0.6,0.7
2024-08-23T2200,3270A,121.4996,31.0739,上海市,闵行浦江,,28,28,26,18,19,89,,183,135,18,18,6,7,0.8,0.8
2024-08-23T2200,3271A,121.2886,31.1663,上海市,青浦徐泾,,25,25,32,15,24,78,,207,147,26,23,6,7,0.5,0.6
2024-08-23T2200,3272A,121.2186,31.0378,上海市,松江图书馆,,26,26,29,16,20,73,,206,149,26,22,6,6,0.7,0.7
2024-08-23T2200,3273A,121.3902,31.2059,上海市,长宁仙霞,,26,22,33,12,19,81,,200,148,20,22,7,10,0.6,0.8
2024-08-23T2200,3274A,121.7965,31.0507,上海市,浦东惠南,,44,44,32,25,18,110,,157,117,9,19,8,8,0.6,0.7
2024-08-23T2200,3544A,121.4891,30.925,上海市,奉贤南桥新城,,28,26,27,13,18,87,,166,121,18,22,7,8,0.5,0.6
