timepoint,stationcode,longitude,latitude,area,positionname,primarypollutant,aqi,pm10,pm10_24h,pm2_5,pm2_5_24h,o3,o3_24h,o3_8h,o3_8h_24h,no2,no2_24h,so2,so2_24h,co,co_24h
2022-10-22T11:00:00,1001A,116.3621,39.8784,北京市,万寿西宫,,19,13,110,4,75,132,59,57,52,3,35,3,3,0.3,0.7
2022-10-22T11:00:00,1002A,116.2202,40.2915,北京市,定陵(对照点),,20,14,104,3,58,150,62,85,61,2,14,3,3,0.1,0.4
2022-10-22T11:00:00,1003A,116.4174,39.9289,北京市,东四,,24,24,130,5,76,142,60,57,57,9,43,3,3,0.1,0.6
2022-10-22T11:00:00,1004A,116.4072,39.8863,北京市,天坛,,20,17,103,4,68,140,61,66,59,10,29,1,2,0.1,0.5
2022-10-22T11:00:00,1005A,116.462,39.9365,北京市,农展馆,,17,15,110,4,72,122,53,49,49,10,38,3,4,0.2,0.6
2022-10-22T11:00:00,1006A,116.3392,39.9295,北京市,官园,,18,15,112,3,71,142,57,72,53,4,24,3,3,0.2,0.6
2022-10-22T11:00:00,1007A,116.2878,39.9611,北京市,海淀万柳,,19,10,109,2,70,126,58,53,53,8,45,1,2,0.3,0.6
2022-10-22T11:00:00,1008A,116.6636,40.135,北京市,顺义新城,,20,12,130,3,80,132,63,50,50,6,38,3,3,0.1,0.6
2022-10-22T11:00:00,1009A,116.6275,40.3275,北京市,怀柔镇,,18,9,97,3,65,132,55,65,54,7,24,3,3,0.3,0.6
2022-10-22T11:00:00,1010A,116.2296,40.217,北京市,昌平镇,,19,19,103,4,65,128,50,76,47,6,23,3,2,0.1,0.6
2022-10-22T11:00:00,1011A,116.3966,39.9821,北京市,奥体中心,,19,17,109,3,74,143,58,71,54,8,32,3,5,0.1,0.6
2022-10-22T11:00:00,1012A,116.184,39.9136,北京市,古城,,20,9,110,2,64,134,62,60,59,6,28,3,3,0.2,0.6
2022-10-22T11:00:00,1015A,117.1444,39.1661,天津市,勤俭道,,44,44,146,7,87,150,59,40,40,13,52,4,9,0.3,0.9
2022-10-22T11:00:00,1017A,117.237,39.1082,天津市,大直沽八号路,,40,40,138,7,67,148,59,73,61,12,42,4,9,0.3,0.9
2022-10-22T11:00:00,1018A,117.202,39.0927,天津市,前进道,,41,41,132,7,74,155,62,78,66,15,42,6,11,0.1,0.7
2022-10-22T11:00:00,1019A,117.1837,39.2133,天津市,淮河道,,43,43,154,7,87,154,63,47,47,13,64,6,11,0.3,0.9
2022-10-22T11:00:00,1021A,117.307,39.0877,天津市,跃进路,,45,45,142,8,67,148,59,45,45,14,64,5,9,0.4,0.9
2022-10-22T11:00:00,1023A,117.707,39.0343,天津市,第四大街,颗粒物(PM10),65,80,142,40,90,145,45,31,23,30,79,7,7,0.6,0.9
2022-10-22T11:00:00,1024A,117.457,38.8394,天津市,永明路,,42,42,121,10,79,136,52,21,21,16,74,5,9,0.4,0.7
2022-10-22T11:00:00,1026A,117.764,39.1587,天津市,汉北路,细颗粒物(PM2.5),103,146,144,77,86,128,68,22,22,39,78,12,11,1.0,0.9
2022-10-22T11:00:00,1027A,117.157,38.9194,天津市,团泊洼(对照点),,38,38,139,6,79,155,57,42,42,6,53,6,11,0.6,1
2022-10-22T11:00:00,1029A,114.4422,38.0444,石家庄市,职工医院,颗粒物(PM10),78,105,150,29,90,152,73,28,20,19,69,4,8,0.3,0.8
2022-10-22T11:00:00,1030A,114.6063,38.0266,石家庄市,高新区,颗粒物(PM10),57,64,133,21,84,162,70,62,58,15,49,1,8,0.3,1
2022-10-22T11:00:00,1031A,114.4898,38.1328,石家庄市,西北水源,颗粒物(PM10),60,69,173,27,98,171,64,35,35,36,64,3,5,0.6,1.1
2022-10-22T11:00:00,1032A,114.4586,38.0058,石家庄市,西南高教,颗粒物(PM10),64,78,147,34,96,158,86,49,49,20,56,5,10,0.4,0.9
2022-10-22T11:00:00,1033A,114.5331,38.0178,石家庄市,世纪公园,颗粒物(PM10),63,75,144,22,93,149,71,82,52,17,46,3,6,0.4,1.1
2022-10-22T11:00:00,1034A,114.509,38.0457,石家庄市,人民会堂,颗粒物(PM10),61,71,144,31,98,163,72,93,50,24,52,5,12,0.7,1.3
2022-10-22T11:00:00,1035A,114.3524,37.8911,石家庄市,封龙山(对照点),颗粒物(PM10),60,70,104,25,57,187,81,113,78,17,29,5,11,0.4,0.8
2022-10-22T11:00:00,1037A,118.131,39.6363,唐山市,雷达站,细颗粒物(PM2.5),104,135,146,78,100,152,74,25,25,59,79,9,5,1.0,0.7
2022-10-22T11:00:00,1038A,118.1725,39.6334,唐山市,物资局,,,,143,,96,138,73,26,26,53,83,12,8,1.0,0.9
2022-10-22T11:00:00,1040A,118.1705,39.6506,唐山市,十二中,,,,133,,91,145,65,22,22,50,74,11,6,1.1,0.9
2022-10-22T11:00:00,1041A,118.1869,39.622,唐山市,小山,颗粒物(PM10),80,110,133,56,93,141,78,25,25,38,71,10,7,0.9,0.8
2022-10-22T11:00:00,1042A,119.5134,39.8207,秦皇岛市,北戴河环保局,,32,32,113,6,65,143,68,59,59,21,46,6,10,0,0.7
2022-10-22T11:00:00,1043A,119.7493,40.0116,秦皇岛市,第一关,,,,120,12,69,156,70,54,54,,44,6,10,0.2,0.8
2022-10-22T11:00:00,1044A,119.5897,39.9499,秦皇岛市,监测站,,32,32,123,8,74,148,60,58,42,21,54,7,13,0.2,0.9
2022-10-22T11:00:00,1046A,119.5251,39.9041,秦皇岛市,建设大厦,,27,27,123,9,67,154,70,58,54,25,52,5,12,0.2,1
2022-10-22T11:00:00,1047A,114.5129,36.61763,邯郸市,环保局,,,,,,,,,,,,,,,,
2022-10-22T11:00:00,1048A,114.5302,36.6116,邯郸市,东污水处理厂,细颗粒物(PM2.5),132,128,123,100,79,156,110,49,49,30,59,8,9,0.8,1
2022-10-22T11:00:00,1049A,114.4918,36.5713,邯郸市,矿院,细颗粒物(PM2.5),139,156,123,106,80,162,118,55,55,30,57,12,11,0.9,1
2022-10-22T11:00:00,1050A,114.484,36.6133,邯郸市,丛台公园,,,130,108,,78,164,119,66,56,,45,7,14,0.7,0.9
2022-10-22T11:00:00,1051A,115.493,38.8632,保定市,游泳馆,细颗粒物(PM2.5),129,133,179,98,154,178,95,76,64,33,42,8,10,0.6,1
2022-10-22T11:00:00,1052A,115.5213,38.8959,保定市,华电二区,细颗粒物(PM2.5),123,129,176,93,144,157,91,75,56,32,46,5,8,0.7,1.1
2022-10-22T11:00:00,1053A,115.4713,38.9108,保定市,接待中心,细颗粒物(PM2.5),124,126,184,94,132,162,98,109,56,33,45,7,8,0.6,0.9
2022-10-22T11:00:00,1054A,115.4612,38.8416,保定市,地表水厂,颗粒物(PM10),119,187,208,84,129,156,92,67,45,44,71,8,9,0.8,1
2022-10-22T11:00:00,1055A,115.4323,38.8697,保定市,胶片厂,细颗粒物(PM2.5),149,139,170,114,156,179,103,70,54,45,50,6,7,1.3,1.1
2022-10-22T11:00:00,1056A,115.5086,38.8639,保定市,监测站,细颗粒物(PM2.5),108,129,201,81,152,170,84,75,45,44,60,8,8,0.7,1.2
2022-10-22T11:00:00,1057A,114.8883,40.8336,张家口市,人民公园,颗粒物(PM10),54,58,85,3,26,158,70,77,64,9,16,6,8,0.1,0.2
2022-10-22T11:00:00,1059A,114.8687,40.8042,张家口市,五金库,,23,15,81,5,26,155,72,73,66,10,16,9,11,0.2,0.3
2022-10-22T11:00:00,1060A,114.8902,40.762,张家口市,世纪豪园,,23,9,85,3,30,158,71,77,66,13,23,1,4,0.3,0.5
2022-10-22T11:00:00,1061A,114.8916,40.8661,张家口市,北泵房(对照点),,23,16,85,8,28,162,73,72,62,7,16,5,7,0.4,0.5
2022-10-22T11:00:00,1062A,117.9531,40.9081,承德市,铁路,,37,37,113,12,43,121,67,29,29,11,65,5,14,0.2,0.8
2022-10-22T11:00:00,1063A,117.9392,40.9763,承德市,中国银行,,28,28,111,4,57,134,66,26,26,8,57,3,11,0.2,1
2022-10-22T11:00:00,1064A,117.9503,40.928,承德市,开发区,颗粒物(PM10),53,56,111,22,49,138,74,26,26,6,61,2,11,0.2,1
2022-10-22T11:00:00,1065A,117.8051,40.9655,承德市,文化中心,,37,37,133,4,59,131,67,83,39,10,50,2,26,0.2,1
2022-10-22T11:00:00,1066A,117.9268,41.0026,承德市,离宫(对照点),,34,34,95,8,44,129,64,65,50,7,31,6,15,0.2,0.7
2022-10-22T11:00:00,1067A,116.6708,39.5111,廊坊市,药材公司,,44,44,136,12,71,153,66,48,48,17,50,2,5,0.3,0.6
2022-10-22T11:00:00,1068A,116.7214,39.5589,廊坊市,开发区,,36,36,126,3,74,145,68,45,45,17,63,6,9,0.3,0.7
2022-10-22T11:00:00,1070A,116.7244,39.5269,廊坊市,北华航天学院,颗粒物(PM10),55,60,140,5,76,155,66,54,54,20,55,2,6,0.2,0.6
2022-10-22T11:00:00,1071A,116.8842,38.2991,沧州市,沧县城建局,颗粒物(PM10),76,101,116,24,66,159,62,66,59,18,47,4,8,0,0.3
2022-10-22T11:00:00,1072A,116.8584,38.3254,沧州市,电视转播站,颗粒物(PM10),64,77,112,11,61,172,75,92,55,14,41,9,12,0.3,0.5
2022-10-22T11:00:00,1073A,116.8709,38.3228,沧州市,市环保局,颗粒物(PM10),78,105,120,20,65,167,68,99,56,17,47,6,10,0.2,0.6
2022-10-22T11:00:00,1074A,115.6838,37.7541,衡水市,电机北厂,颗粒物(PM10),81,112,137,40,79,171,63,94,28,33,47,4,5,0.3,0.5
2022-10-22T11:00:00,1075A,115.6303,37.7316,衡水市,市监测站,,,,,45,81,172,62,65,28,34,50,,10,0.5,0.6
2022-10-22T11:00:00,1077A,114.4704,37.0886,邢台市,达活泉,细颗粒物(PM2.5),100,147,128,75,80,157,117,81,81,28,45,12,18,1.0,1.4
2022-10-22T11:00:00,1078A,114.5062,37.0349,邢台市,邢师高专,细颗粒物(PM2.5),113,152,121,85,81,149,114,78,78,22,47,8,12,0.9,1.4
2022-10-22T11:00:00,1079A,114.5237,37.0851,邢台市,路桥公司,细颗粒物(PM2.5),122,140,123,92,83,160,122,79,79,26,41,11,16,0.7,1.2
2022-10-22T11:00:00,1080A,114.4725,37.0719,邢台市,市环保局,颗粒物(PM10),121,192,164,75,79,155,117,79,79,27,46,11,14,0.8,1.3
2022-10-22T11:00:00,1081A,112.5139,37.8873,太原市,尖草坪,颗粒物(PM10),63,76,154,22,83,131,35,11,11,51,79,49,14,2.0,1.3
2022-10-22T11:00:00,1083A,112.434,38.0108,太原市,上兰(对照点),,,,,,,,,,,,,,,,
2022-10-22T11:00:00,1084A,112.469,37.7124,太原市,晋源,,,,136,,71,136,58,17,15,,72,,21,1.1,1.1
2022-10-22T11:00:00,1085A,112.5583,37.7394,太原市,小店,颗粒物(PM10),68,85,184,17,88,127,58,16,16,26,79,9,16,0.4,1.2
2022-10-22T11:00:00,1086A,112.5369,37.8692,太原市,桃园,颗粒物(PM10),56,62,150,17,82,130,54,15,15,27,79,7,10,0.4,1.4
2022-10-22T11:00:00,1087A,112.57,37.8195,太原市,坞城,颗粒物(PM10),60,69,151,16,77,129,58,17,17,25,78,8,13,0.5,1.2
2022-10-22T11:00:00,1088A,112.549,37.9854,太原市,南寨,颗粒物(PM10),89,127,140,21,73,106,41,10,10,41,62,9,12,0.3,0.9
2022-10-22T11:00:00,1089A,112.4701,37.782,太原市,金胜,,,,,,,,,,,,,,,,
2022-10-22T11:00:00,1090A,111.6507,40.7517,呼和浩特市,呼市一监,,,,,,,,,,,,,,,,
2022-10-22T11:00:00,1091A,111.6572,40.8033,呼和浩特市,小召,颗粒物(PM10),60,70,97,19,31,179,62,67,52,18,18,27,14,0.4,0.4
2022-10-22T11:00:00,1094A,111.7516,40.8369,呼和浩特市,如意水处理厂,颗粒物(PM10),51,52,78,11,27,162,56,64,49,16,16,10,8,0.4,0.5
2022-10-22T11:00:00,1095A,111.7276,40.8062,呼和浩特市,二十九中,,42,42,97,12,30,168,59,62,50,15,15,13,11,0.6,0.6
2022-10-22T11:00:00,1096A,111.5512,40.7866,呼和浩特市,工大金川校区,,,78,99,16,31,164,55,61,42,13,15,27,19,,
2022-10-22T11:00:00,1097A,111.717,40.7612,呼和浩特市,化肥厂生活区,,,55,81,14,34,158,59,69,53,,,15,14,0.4,0.5
2022-10-22T11:00:00,1098A,123.6836,41.9339,沈阳市,森林路(对照点),,,,,,,,,,,,,,,,
2022-10-22T11:00:00,1099A,123.505,41.7406,沈阳市,浑南东路,,20,20,58,5,26,126,62,49,49,12,28,11,14,0.4,0.8
2022-10-22T11:00:00,1100A,123.4231,41.6989,沈阳市,新秀街,,20,15,65,12,31,121,62,53,53,15,43,7,11,0.4,0.8
2022-10-22T11:00:00,1102A,123.5903,41.8411,沈阳市,东陵路,,21,18,52,12,27,130,66,48,48,11,26,10,12,0.3,0.5
2022-10-22T11:00:00,1103A,123.4264,41.8467,沈阳市,陵东街,,20,18,60,6,24,125,63,45,45,15,41,8,9,0.4,0.7
2022-10-22T11:00:00,1104A,123.4114,41.7653,沈阳市,文化路,,21,21,45,7,26,126,61,50,50,15,31,10,11,0.3,0.6
2022-10-22T11:00:00,1105A,123.4678,41.7867,沈阳市,小河沿,,24,24,58,7,25,118,58,49,49,16,33,8,8,0.4,0.6
2022-10-22T11:00:00,1106A,123.4017,41.7972,沈阳市,太原街,,27,27,61,9,26,127,60,46,46,20,42,6,8,0.4,0.7
2022-10-22T11:00:00,1108A,123.3783,41.9228,沈阳市,京沈街,,22,16,42,9,20,134,68,51,51,11,25,8,12,0.3,0.5
2022-10-22T11:00:00,1109A,121.612,38.9741,大连市,甘井子,细颗粒物(PM2.5),77,76,85,56,53,124,69,77,67,22,29,7,6,1.2,0.7
2022-10-22T11:00:00,1110A,121.565,38.9511,大连市,周水子,颗粒物(PM10),71,91,86,45,44,126,68,85,67,25,32,10,7,0.9,0.7
2022-10-22T11:00:00,1111A,121.5637,38.8845,大连市,星海三站,细颗粒物(PM2.5),118,121,91,89,61,81,64,59,54,30,29,9,6,1.3,0.9
2022-10-22T11:00:00,1112A,121.6302,38.9117,大连市,青泥洼桥,颗粒物(PM10),92,134,77,34,41,104,76,81,57,41,33,9,7,1.2,0.8
2022-10-22T11:00:00,1113A,121.6251,38.8638,大连市,傅家庄,细颗粒物(PM2.5),104,100,51,78,35,82,61,58,49,33,25,10,7,1.2,0.8
2022-10-22T11:00:00,1114A,121.5213,38.8661,大连市,七贤岭,细颗粒物(PM2.5),80,98,72,59,36,119,95,60,60,20,26,10,8,1.1,0.8
2022-10-22T11:00:00,1115A,121.2529,38.8061,大连市,旅顺,颗粒物(PM10),68,85,55,33,30,114,81,77,60,15,20,7,8,0.8,0.7
2022-10-22T11:00:00,1116A,121.7485,39.1311,大连市,金州,细颗粒物(PM2.5),65,76,76,47,51,131,70,75,66,36,39,15,13,0.8,0.6
2022-10-22T11:00:00,1117A,121.7811,39.0496,大连市,开发区,细颗粒物(PM2.5),112,104,60,84,43,102,91,61,58,32,40,11,12,0.8,0.6
2022-10-22T11:00:00,1118A,121.9762,39.0631,大连市,双D港,,,114,56,62,25,110,86,62,60,18,18,67,12,,0.9
2022-10-22T11:00:00,1119A,125.3325,43.9166,长春市,食品厂,,28,16,63,19,33,109,36,40,22,23,35,6,6,0.4,0.5
2022-10-22T11:00:00,1120A,125.2863,43.9027,长春市,客车厂,,42,28,59,29,31,109,35,36,20,34,42,7,8,0.3,0.5
2022-10-22T11:00:00,1121A,125.2841,43.8463,长春市,邮电学院,,35,33,60,24,26,121,42,38,26,26,38,10,11,0.3,0.4
2022-10-22T11:00:00,1122A,125.3716,43.8772,长春市,劳动公园,,39,36,58,27,29,119,36,39,25,23,32,7,9,0.3,0.4
2022-10-22T11:00:00,1123A,125.3297,43.8805,长春市,园林处,,26,20,56,18,38,111,39,41,27,23,31,5,7,0.4,0.5
2022-10-22T11:00:00,1124A,125.4605,43.79,长春市,净月潭,,31,31,53,15,17,118,31,42,17,24,27,7,6,0.4,0.4
2022-10-22T11:00:00,1125A,125.7194,43.515,长春市,甩湾子(对照点),,,,,,,,,,,,,,,,
2022-10-22T11:00:00,1126A,125.3863,43.8447,长春市,经开区环卫处,,40,40,54,24,31,120,36,27,27,27,37,9,10,0.4,0.4
2022-10-22T11:00:00,1127A,125.245,43.7783,长春市,高新区管委会,,45,37,64,31,33,114,37,23,23,26,43,8,6,0.4,0.4
2022-10-22T11:00:00,1128A,125.1761,43.8325,长春市,岱山公园,,32,27,68,22,29,119,45,23,23,20,44,8,9,0.4,0.5
2022-10-22T11:00:00,1129A,126.5422,45.755,哈尔滨市,岭北(对照点),,22,22,52,15,31,105,48,26,26,9,19,1,4,0,0
2022-10-22T11:00:00,1130A,126.561,45.8167,哈尔滨市,松北商大,,33,33,45,9,23,120,55,27,27,14,21,17,10,0.7,0.7
2022-10-22T11:00:00,1131A,126.979,45.5419,哈尔滨市,阿城会宁,,41,41,60,11,22,112,36,30,22,24,22,20,13,0.5,0.5
2022-10-22T11:00:00,1132A,126.599,45.7222,哈尔滨市,南岗学府路,,33,33,53,7,24,111,52,34,27,12,24,7,6,0.5,0.5
2022-10-22T11:00:00,1133A,126.689,45.7733,哈尔滨市,太平宏伟公园,,27,27,46,10,26,117,53,35,35,9,17,15,13,0.3,0.4
2022-10-22T11:00:00,1134A,126.635,45.7667,哈尔滨市,道外承德广场,,22,22,50,4,23,105,38,35,31,36,22,14,12,0.3,0.4
2022-10-22T11:00:00,1135A,126.685,45.7319,哈尔滨市,香坊红旗大街,,27,27,48,11,20,110,53,35,34,13,20,10,11,0.3,0.4
2022-10-22T11:00:00,1136A,126.6411,45.7258,哈尔滨市,动力和平路,,27,27,47,6,21,104,47,31,26,17,26,7,10,0.3,0.5
2022-10-22T11:00:00,1137A,126.593,45.7478,哈尔滨市,道里建国路,,30,30,43,11,21,101,46,29,27,15,23,12,13,0.2,0.4
2022-10-22T11:00:00,1138A,126.615,45.61,哈尔滨市,平房东轻厂,,,20,64,13,29,102,43,15,15,10,37,10,9,,0.5
2022-10-22T11:00:00,1139A,126.595,45.9855,哈尔滨市,呼兰师专,,23,20,38,16,34,99,46,28,26,11,16,8,10,0.4,0.6
2022-10-22T11:00:00,1140A,126.6206,45.6842,哈尔滨市,省农科院,,34,34,52,11,25,113,53,35,25,10,23,10,11,0.8,0.8
2022-10-22T11:00:00,1141A,121.4,31.238,上海市,普陀,细颗粒物(PM2.5),52,44,50,36,27,106,63,24,24,29,36,8,5,1.3,0.6
2022-10-22T11:00:00,1142A,121.478,31.2036,上海市,十五厂,,46,46,38,30,26,112,71,38,38,26,40,7,8,0.6,0.6
2022-10-22T11:00:00,1143A,121.467,31.3008,上海市,虹口,颗粒物(PM10),53,56,37,23,22,99,55,16,16,22,35,6,6,0.7,0.6
2022-10-22T11:00:00,1144A,121.412,31.1654,上海市,徐汇上师大,颗粒物(PM10),56,62,48,38,26,114,62,25,25,35,43,8,8,0.8,0.6
2022-10-22T11:00:00,1145A,121.536,31.2659,上海市,杨浦四漂,,36,36,38,17,19,109,82,45,45,18,46,7,7,0.4,0.4
2022-10-22T11:00:00,1146A,120.978,31.0935,上海市,青浦淀山湖(对照点),,,,,,,,,,,,,,,,
2022-10-22T11:00:00,1147A,121.425,31.2261,上海市,静安监测站,颗粒物(PM10),58,66,50,39,25,103,60,35,27,29,34,8,6,0.9,0.6
2022-10-22T11:00:00,1148A,121.703,31.1907,上海市,浦东川沙,,32,25,41,22,22,105,69,20,20,18,46,9,9,0.6,0.6
2022-10-22T11:00:00,1149A,121.533,31.2284,上海市,浦东新区监测站,,42,42,40,27,25,102,70,37,37,6,29,6,6,0.6,0.5
2022-10-22T11:00:00,1150A,121.577,31.2071,上海市,浦东张江,,35,35,34,24,21,103,64,23,23,22,40,5,4,0.8,0.7
2022-10-22T11:00:00,1151A,118.8086,32.1065,南京市,迈皋桥,颗粒物(PM10),77,104,81,48,38,146,146,39,39,35,48,11,5,0.6,0.5
2022-10-22T11:00:00,1152A,118.7538,32.0551,南京市,草场门,细颗粒物(PM2.5),94,100,86,70,50,121,121,35,35,41,79,19,7,1.4,0.9
2022-10-22T11:00:00,1153A,118.7794,32.0745,南京市,山西路,颗粒物(PM10),65,80,88,44,42,157,157,45,45,26,72,12,6,0.7,0.6
2022-10-22T11:00:00,1154A,118.7752,32.0023,南京市,中华门,颗粒物(PM10),76,102,91,44,40,145,145,42,42,33,73,14,7,0.7,0.9
2022-10-22T11:00:00,1155A,118.8109,32.0309,南京市,瑞金路,颗粒物(PM10),67,84,69,39,38,146,146,38,38,8,53,6,5,0.5,0.6
2022-10-22T11:00:00,1156A,118.7997,32.0754,南京市,玄武湖,细颗粒物(PM2.5),68,74,75,49,38,154,154,39,39,26,54,8,5,0.5,0.7
2022-10-22T11:00:00,1157A,118.6414,32.0931,南京市,浦口,颗粒物(PM10),54,57,55,36,33,134,134,79,78,20,27,6,4,0.5,0.5
2022-10-22T11:00:00,1158A,118.7356,31.9996,南京市,奥体中心,细颗粒物(PM2.5),85,105,75,63,38,115,115,42,42,45,72,16,5,1.5,0.7
2022-10-22T11:00:00,1159A,118.9125,32.1028,南京市,仙林大学城,颗粒物(PM10),64,78,72,36,34,134,134,34,34,22,57,8,4,0.7,0.7
2022-10-22T11:00:00,1160A,120.561,31.2472,苏州市,上方山(对照点),颗粒物(PM10),56,61,42,36,28,134,94,25,25,29,26,8,5,0.5,0.4
2022-10-22T11:00:00,1161A,120.628,31.2864,苏州市,南门,,,,,,,,,,,,,,,,
2022-10-22T11:00:00,1162A,120.591,31.3019,苏州市,彩香,,50,50,52,31,30,150,129,37,37,15,24,7,6,0.6,0.5
2022-10-22T11:00:00,1163A,120.596,31.3264,苏州市,轧钢厂,颗粒物(PM10),51,51,53,27,27,148,130,40,40,21,29,7,6,0.6,0.5
2022-10-22T11:00:00,1164A,120.613,31.2703,苏州市,吴中区,,,48,52,29,29,154,121,42,42,17,33,,7,0.5,0.4
2022-10-22T11:00:00,1165A,120.543,31.2994,苏州市,苏州新区,颗粒物(PM10),55,60,52,36,29,141,98,33,33,32,27,10,7,0.7,0.6
2022-10-22T11:00:00,1166A,120.669,31.3097,苏州市,苏州工业园区,,45,45,53,28,28,145,112,29,29,21,30,6,6,0.6,0.6
2022-10-22T11:00:00,1167A,120.641,31.3708,苏州市,相城区,,49,49,52,26,27,145,127,44,44,18,43,8,7,0.5,0.5
2022-10-22T11:00:00,1168A,120.9098,31.9663,南通市,狼山街道,,46,46,38,31,17,137,137,41,41,18,24,11,7,0.7,0.5
2022-10-22T11:00:00,1169A,120.86,32.0005,南通市,虹桥,细颗粒物(PM2.5),62,55,40,44,34,106,106,41,41,36,37,10,7,0.7,0.5
2022-10-22T11:00:00,1170A,120.87,32.02,南通市,城中,细颗粒物(PM2.5),67,50,37,48,46,120,120,49,41,20,32,7,4,0.4,0.3
2022-10-22T11:00:00,1171A,120.94,31.93,南通市,星湖花园,"颗粒物(PM10),细颗粒物(PM2.5)",55,59,34,39,20,122,122,41,37,20,28,11,7,0.8,0.4
2022-10-22T11:00:00,1172A,120.81,32.0417,南通市,紫琅学院,细颗粒物(PM2.5),83,66,46,61,25,134,134,35,35,30,37,14,8,0.9,0.6
2022-10-22T11:00:00,1173A,119.176,34.5885,连云港市,市环境监测站,,44,44,38,22,17,107,83,56,32,18,28,6,6,0.3,0.3
2022-10-22T11:00:00,1177A,117.179,34.2761,徐州市,黄河新村,颗粒物(PM10),98,146,108,65,51,155,96,46,26,57,48,11,9,1.1,1.1
2022-10-22T11:00:00,1178A,117.1918,34.2384,徐州市,淮塔,颗粒物(PM10),79,108,103,46,52,157,120,25,25,36,46,10,7,0.8,0.8
2022-10-22T11:00:00,1180A,117.256,34.2153,徐州市,新城区,细颗粒物(PM2.5),92,110,91,68,54,150,80,16,16,58,52,14,9,0.8,0.7
2022-10-22T11:00:00,1181A,117.244,34.2911,徐州市,桃园路,颗粒物(PM10),82,114,96,58,49,151,100,31,31,51,39,13,9,1.3,1.2
2022-10-22T11:00:00,1182A,117.2933,34.2778,徐州市,农科院,颗粒物(PM10),79,107,87,56,45,142,75,36,18,62,54,18,9,0.9,0.7
2022-10-22T11:00:00,1186A,119.389,32.3761,扬州市,邗江监测站,,46,46,69,30,38,122,66,17,17,15,43,3,5,0.8,0.8
2022-10-22T11:00:00,1188A,120.269,31.4867,无锡市,雪浪,颗粒物(PM10),59,68,43,39,22,136,100,55,55,25,17,10,7,0.9,0.6
2022-10-22T11:00:00,1189A,120.275,31.6219,无锡市,黄巷,颗粒物(PM10),68,85,72,41,31,132,105,29,29,64,64,17,9,1.9,1
2022-10-22T11:00:00,1190A,120.294,31.56,无锡市,曹张,细颗粒物(PM2.5),67,70,53,48,29,140,95,46,46,44,50,16,10,1.8,0.8
2022-10-22T11:00:00,1191A,120.242,31.5031,无锡市,漆塘,细颗粒物(PM2.5),63,68,34,45,21,145,109,46,46,23,12,13,9,1.1,0.7
2022-10-22T11:00:00,1192A,120.3489,31.5863,无锡市,东亭,细颗粒物(PM2.5),73,90,66,53,32,146,73,19,19,51,57,13,9,1.4,1
2022-10-22T11:00:00,1193A,120.354,31.5475,无锡市,旺庄,,,78,60,41,27,146,70,17,17,44,54,,11,1.7,0.9
2022-10-22T11:00:00,1194A,120.245,31.5631,无锡市,荣巷,颗粒物(PM10),63,75,46,41,25,144,106,53,53,51,22,18,8,1.8,0.7
2022-10-22T11:00:00,1195A,120.299,31.6817,无锡市,堰桥,,,,65,,38,152,144,30,30,36,57,,8,,1
2022-10-22T11:00:00,1196A,119.9633,31.762,常州市,市监测站,细颗粒物(PM2.5),84,109,92,62,49,130,126,31,31,45,67,10,6,0.9,0.9
2022-10-22T11:00:00,1200A,119.9468,31.7069,常州市,武进监测站,颗粒物(PM10),88,125,91,63,45,147,135,31,31,58,69,16,9,1.1,0.8
2022-10-22T11:00:00,1201A,119.9255,31.9087,常州市,安家,细颗粒物(PM2.5),93,117,89,69,48,131,128,30,30,28,53,8,6,0.8,0.8
2022-10-22T11:00:00,1203A,119.6707,32.1875,镇江市,新区办事处,细颗粒物(PM2.5),84,80,73,62,46,129,58,18,18,32,56,4,7,0.9,0.9
2022-10-22T11:00:00,1204A,119.4974,32.1968,镇江市,职教中心,细颗粒物(PM2.5),100,86,88,75,55,127,58,18,18,30,53,4,6,0.6,0.5
2022-10-22T11:00:00,1205A,119.4303,32.1328,镇江市,丹徒区监测站,细颗粒物(PM2.5),104,78,77,78,53,134,58,19,19,25,55,3,5,0.7,0.5
2022-10-22T11:00:00,1206A,119.905,32.4878,泰州市,公园路,细颗粒物(PM2.5),62,53,41,44,26,105,27,12,12,22,28,10,7,0.8,0.7
2022-10-22T11:00:00,1207A,119.9189,32.4625,泰州市,莲花,细颗粒物(PM2.5),92,71,46,68,36,105,34,24,14,20,29,10,8,0.8,0.8
2022-10-22T11:00:00,1209A,119.888,32.4639,泰州市,留学生创业园,细颗粒物(PM2.5),88,71,54,65,33,106,37,15,13,17,32,19,10,0.8,0.7
2022-10-22T11:00:00,1210A,119.036,33.5981,淮安市,钵池山,,31,31,40,20,25,108,71,23,23,19,30,5,6,0.7,0.7
2022-10-22T11:00:00,1211A,119.007,33.575,淮安市,北京南路,颗粒物(PM10),51,51,47,28,30,110,78,29,29,22,28,9,9,0.5,0.6
2022-10-22T11:00:00,1212A,118.989,33.6067,淮安市,市监测站,,36,36,44,21,29,107,72,20,20,24,35,3,4,0.8,0.9
2022-10-22T11:00:00,1213A,119.135,33.5039,淮安市,楚州区监测站,,42,42,45,19,26,103,78,28,28,19,27,7,7,0.6,0.7
2022-10-22T11:00:00,1214A,119.0186,33.6297,淮安市,淮阴区监测站,,44,44,50,23,28,100,63,17,17,22,38,5,5,0.4,0.5
2022-10-22T11:00:00,1215A,120.118,33.4022,盐城市,盐城电厂,,34,34,31,14,14,110,86,43,43,9,23,6,6,0.4,0.5
2022-10-22T11:00:00,1216A,120.156,33.3942,盐城市,市监测站,,44,44,34,20,20,96,83,42,40,17,27,5,4,0.4,0.4
2022-10-22T11:00:00,1218A,120.2144,33.38,盐城市,开发区管委会,,45,45,30,22,18,105,90,39,37,15,24,7,6,0.6,0.6
2022-10-22T11:00:00,1220A,118.293,33.9528,宿迁市,宿迁学院,细颗粒物(PM2.5),52,51,68,36,35,106,106,29,29,27,53,11,10,0.8,0.8
2022-10-22T11:00:00,1221A,118.2442,33.9592,宿迁市,宿迁中学,,50,50,68,26,30,109,109,33,33,14,48,7,7,0.5,0.6
2022-10-22T11:00:00,1223A,120.2072,30.2111,杭州市,滨江,颗粒物(PM10),67,83,74,39,33,136,81,46,46,34,40,4,5,0.5,0.5
2022-10-22T11:00:00,1224A,120.0633,30.2747,杭州市,西溪,细颗粒物(PM2.5),70,82,58,51,35,137,84,26,26,29,25,8,7,0.6,0.7
2022-10-22T11:00:00,1225A,119.026,29.635,杭州市,千岛湖(对照点),,,,,,,,,,,,,,,,
2022-10-22T11:00:00,1226A,120.3461,30.3153,杭州市,下沙,细颗粒物(PM2.5),63,73,60,45,32,141,97,57,57,29,37,8,8,0.6,0.5
2022-10-22T11:00:00,1227A,120.1269,30.2456,杭州市,卧龙桥,细颗粒物(PM2.5),65,66,46,47,32,149,82,26,26,34,25,6,6,0.6,0.6
2022-10-22T11:00:00,1228A,120.1903,30.2692,杭州市,浙江农大,颗粒物(PM10),56,62,54,38,30,143,78,38,38,38,38,6,6,0.6,0.5
2022-10-22T11:00:00,1229A,120.157,30.2897,杭州市,朝晖五区,,,,,,,,,,,,,,,,
2022-10-22T11:00:00,1230A,120.1197,30.3119,杭州市,和睦小学,细颗粒物(PM2.5),77,102,69,56,38,146,74,32,32,44,47,5,10,0.7,0.7
2022-10-22T11:00:00,1231A,120.3019,30.4183,杭州市,临平镇,颗粒物(PM10),63,75,68,44,32,141,116,61,61,22,23,7,6,0.7,0.6
2022-10-22T11:00:00,1232A,120.2697,30.1819,杭州市,城厢镇,细颗粒物(PM2.5),69,74,65,50,42,132,93,38,38,29,38,7,7,0.8,0.8
2022-10-22T11:00:00,1233A,120.0883,30.1808,杭州市,云栖,细颗粒物(PM2.5),55,48,44,39,26,126,92,29,29,33,27,6,5,0.5,0.5
2022-10-22T11:00:00,1234A,121.8358,29.911,宁波市,区环保大楼,,40,36,34,28,22,108,71,26,26,11,29,14,11,0.5,0.5
2022-10-22T11:00:00,1235A,121.56,29.82,宁波市,万里学院,细颗粒物(PM2.5),94,102,61,70,39,114,78,37,37,25,30,6,8,0.7,0.6
2022-10-22T11:00:00,1236A,121.713,29.9572,宁波市,龙赛医院,细颗粒物(PM2.5),62,72,66,44,36,151,73,22,22,31,46,10,12,0.7,0.6
2022-10-22T11:00:00,1239A,121.633,29.7733,宁波市,钱湖水厂,细颗粒物(PM2.5),79,70,42,58,30,105,54,27,20,39,17,6,6,0.7,0.6
2022-10-22T11:00:00,1240A,121.5856,29.8635,宁波市,太古小学,,,82,56,,46,114,68,25,25,27,40,9,12,0.6,0.6
2022-10-22T11:00:00,1241A,121.524,29.8674,宁波市,市环境监测中心,细颗粒物(PM2.5),78,103,63,57,33,106,70,24,24,22,35,6,9,0.5,0.5
2022-10-22T11:00:00,1242A,120.634,28.0089,温州市,瓯海,,43,43,60,22,35,116,101,29,29,16,40,8,8,0.3,0.4
2022-10-22T11:00:00,1243A,120.6748,27.9939,温州市,南浦,,38,38,57,19,30,128,102,42,42,16,33,6,6,0.3,0.4
2022-10-22T11:00:00,1244A,120.76,27.9747,温州市,龙湾,,47,47,57,19,25,127,90,36,36,27,41,7,9,0.4,0.4
2022-10-22T11:00:00,1245A,120.6709,28.0167,温州市,市站,,46,46,52,21,25,131,110,44,44,20,34,7,6,0.4,0.4
2022-10-22T11:00:00,1246A,120.598,30.0911,绍兴市,袍江站,,,,,,,,,,,,,,,,
2022-10-22T11:00:00,1247A,120.6053,29.9928,绍兴市,城东开发委,细颗粒物(PM2.5),84,67,66,62,51,128,87,29,29,21,31,8,9,0.6,0.6
2022-10-22T11:00:00,1250A,120.0751,30.8669,湖州市,城西水厂,细颗粒物(PM2.5),70,84,67,51,37,145,97,30,30,43,59,17,8,0.8,0.6
2022-10-22T11:00:00,1252A,120.7436,30.778,嘉兴市,清河小学,,47,47,49,24,24,100,92,45,25,25,34,8,7,0.3,0.3
2022-10-22T11:00:00,1253A,120.726,30.7478,嘉兴市,嘉兴学院,细颗粒物(PM2.5),57,59,46,40,35,147,92,30,28,25,32,7,6,0.4,0.4
2022-10-22T11:00:00,1255A,121.273,28.6459,台州市,黄岩环保大楼,,29,24,40,16,22,131,90,47,47,10,15,6,7,0.3,0.4
2022-10-22T11:00:00,1256A,121.419,28.6542,台州市,台州环保大楼,,29,29,42,15,25,117,86,42,42,10,20,7,7,0.3,0.4
2022-10-22T11:00:00,1257A,121.377,28.5773,台州市,路桥田洋王,,29,28,44,16,29,125,90,42,42,6,14,5,7,0.4,0.5
2022-10-22T11:00:00,1258A,122.122,30.0203,舟山市,定海檀枫,,31,29,27,19,14,99,99,42,42,14,14,5,4,0.4,0.3
2022-10-22T11:00:00,1259A,122.3094,29.9558,舟山市,普陀东港,,27,24,28,15,14,105,86,50,50,17,16,4,5,0.3,0.3
2022-10-22T11:00:00,1260A,122.19,29.9944,舟山市,临城新区,,30,17,30,16,17,94,94,45,45,12,13,6,6,0.4,0.4
2022-10-22T11:00:00,1261A,119.649,29.1131,金华市,四中(停运161031),,,,,,,,,,,,,,,,
2022-10-22T11:00:00,1262A,119.647,29.077,金华市,十五中,细颗粒物(PM2.5),74,82,60,54,34,137,121,56,56,35,49,16,11,0.6,0.7
2022-10-22T11:00:00,1263A,119.686,29.1029,金华市,监测站,颗粒物(PM10),68,86,66,47,34,146,124,48,48,31,53,6,7,0.5,0.5
2022-10-22T11:00:00,1264A,118.8692,28.9398,衢州市,环保大楼,细颗粒物(PM2.5),70,69,68,51,40,132,121,30,30,28,42,9,7,0.6,0.7
2022-10-22T11:00:00,1265A,118.8709,28.9666,衢州市,实验学校,细颗粒物(PM2.5),83,74,60,61,41,143,90,29,29,61,52,12,8,0.6,0.6
2022-10-22T11:00:00,1266A,118.8621,28.9808,衢州市,衢州学院,细颗粒物(PM2.5),83,85,62,61,38,143,100,34,34,41,43,12,8,0.5,0.5
2022-10-22T11:00:00,1267A,119.914,28.4514,丽水市,监测站大楼,颗粒物(PM10),53,56,45,29,27,111,93,37,37,22,31,11,11,0.4,0.4
2022-10-22T11:00:00,1268A,119.93,28.4586,丽水市,莲都小学,颗粒物(PM10),53,55,44,28,19,120,101,42,42,21,24,9,8,0.4,0.3
2022-10-22T11:00:00,1269A,119.879,28.4231,丽水市,余庄前,颗粒物(PM10),52,53,35,13,13,125,105,33,33,26,22,8,6,0.4,0.3
2022-10-22T11:00:00,1270A,117.1959,31.7848,合肥市,明珠广场,颗粒物(PM10),98,145,130,66,61,133,133,30,30,31,77,13,11,0.5,0.7
2022-10-22T11:00:00,1271A,117.3072,31.8764,合肥市,三里街,颗粒物(PM10),85,120,108,56,48,137,137,31,31,32,74,16,11,0.6,0.8
2022-10-22T11:00:00,1272A,117.2588,31.8707,合肥市,琥珀山庄,颗粒物(PM10),87,123,100,53,49,113,109,25,25,38,55,15,10,0.8,0.9
2022-10-22T11:00:00,1273A,117.1604,31.9052,合肥市,董铺水库(对照点),颗粒物(PM10),84,117,99,55,46,115,115,21,21,17,51,10,7,0.6,0.7
2022-10-22T11:00:00,1274A,117.25,31.8571,合肥市,长江中路,细颗粒物(PM2.5),110,143,116,83,65,122,121,26,26,28,61,14,9,0.7,0.9
2022-10-22T11:00:00,1275A,117.266,31.9436,合肥市,庐阳区,颗粒物(PM10),93,136,126,68,59,125,125,25,25,35,81,12,10,0.7,0.7
2022-10-22T11:00:00,1276A,117.336,31.8586,合肥市,瑶海区,细颗粒物(PM2.5),90,124,105,67,55,126,126,29,29,42,71,23,15,0.8,0.9
2022-10-22T11:00:00,1277A,117.3027,31.7964,合肥市,包河区,颗粒物(PM10),89,127,110,61,52,119,119,31,31,42,81,16,15,0.7,0.8
2022-10-22T11:00:00,1278A,117.2776,31.7385,合肥市,滨湖新区,颗粒物(PM10),91,132,119,58,54,122,122,26,26,36,69,14,13,0.4,0.5
2022-10-22T11:00:00,1279A,117.1318,31.8403,合肥市,高新区,颗粒物(PM10),81,111,123,53,59,126,126,44,44,33,79,9,7,0.6,0.7
2022-10-22T11:00:00,1280A,119.3903,26.0543,福州市,鼓山(对照点),,,,,,,,,,,,,,,,
2022-10-22T11:00:00,1282A,119.2681,26.0504,福州市,师大,,48,48,42,19,19,118,83,79,56,12,13,5,5,0.3,0.3
2022-10-22T11:00:00,1283A,119.2984,26.1028,福州市,五四北路,,46,46,39,16,17,104,81,78,64,14,11,4,4,0.3,0.4
2022-10-22T11:00:00,1284A,119.2648,26.0768,福州市,杨桥西路,,40,40,41,15,15,111,85,77,57,12,12,4,4,0.3,0.4
2022-10-22T11:00:00,1285A,119.317,26.0746,福州市,紫阳,,,,38,,16,109,,80,65,,10,,7,,0.3
2022-10-22T11:00:00,1286A,118.1608,24.8169,厦门市,溪东(对照点),,,,,,,,,,,,,,,,
2022-10-22T11:00:00,1287A,118.1514,24.4767,厦门市,洪文,,38,38,54,16,21,121,48,48,40,34,27,2,4,0.4,0.3
2022-10-22T11:00:00,1288A,118.0661,24.4444,厦门市,鼓浪屿,颗粒物(PM10),70,90,62,47,29,133,41,43,28,58,37,14,9,0.6,0.5
2022-10-22T11:00:00,1290A,115.8931,28.6843,南昌市,省外办,颗粒物(PM10),67,84,75,41,33,160,123,93,93,25,36,15,12,1.0,0.7
2022-10-22T11:00:00,1291A,115.8886,28.7003,南昌市,省林业公司,颗粒物(PM10),64,78,69,29,28,152,123,85,85,27,46,12,9,0.8,0.6
2022-10-22T11:00:00,1292A,115.8126,28.7442,南昌市,林科所,颗粒物(PM10),56,61,52,31,27,168,138,128,119,17,22,13,12,0.9,0.7
2022-10-22T11:00:00,1294A,115.8518,28.687,南昌市,建工学校,细颗粒物(PM2.5),62,56,59,44,30,160,129,109,109,30,36,14,12,1.0,0.8
2022-10-22T11:00:00,1295A,115.8921,28.6424,南昌市,象湖,颗粒物(PM10),58,66,56,39,33,161,126,99,99,19,27,11,8,0.8,0.7
2022-10-22T11:00:00,1296A,115.7423,28.7996,南昌市,武术学校(对照点),细颗粒物(PM2.5),52,50,38,36,28,129,100,47,47,13,11,12,7,0.7,0.5
2022-10-22T11:00:00,1298A,115.9314,28.6842,南昌市,省站,颗粒物(PM10),71,92,87,43,41,152,119,87,87,26,37,12,10,0.9,0.7
2022-10-22T11:00:00,1299A,116.9862,36.6114,济南市,科干所,颗粒物(PM10),85,119,69,46,32,156,82,149,90,84,34,10,6,0.9,0.6
2022-10-22T11:00:00,1300A,116.9376,36.665,济南市,农科所,颗粒物(PM10),97,144,80,42,27,145,59,86,51,82,49,10,6,0.5,0.4
2022-10-22T11:00:00,1301A,117.1265,36.6734,济南市,开发区,颗粒物(PM10),81,112,74,41,33,150,79,118,62,75,61,8,5,0.7,0.5
2022-10-22T11:00:00,1303A,117.0624,36.6868,济南市,省种子仓库,颗粒物(PM10),86,122,86,44,33,154,63,54,29,81,71,11,5,0.6,0.7
2022-10-22T11:00:00,1304A,116.9489,36.6447,济南市,机床二厂,颗粒物(PM10),90,129,91,54,37,155,70,93,56,84,56,11,7,0.9,0.8
2022-10-22T11:00:00,1305A,117.0495,36.663,济南市,市监测站,颗粒物(PM10),88,125,80,42,36,161,75,122,63,82,63,12,8,0.7,0.8
2022-10-22T11:00:00,1306A,116.7675,36.5484,济南市,长清党校,颗粒物(PM10),77,103,65,44,30,161,105,105,85,42,34,11,9,0.6,0.5
2022-10-22T11:00:00,1307A,120.6659,36.2403,青岛市,仰口(对照点),,34,31,21,12,12,127,106,125,106,22,14,3,2,1.0,0.9
2022-10-22T11:00:00,1308A,120.3905,36.1851,青岛市,李沧区子站,,,,,,,,,,,,,,,,
2022-10-22T11:00:00,1309A,120.3471,36.0699,青岛市,市北区子站,,,,,,,,,,,,,,,,
2022-10-22T11:00:00,1310A,120.4134,36.0658,青岛市,市南区东部子站,颗粒物(PM10),60,70,26,29,9,126,94,102,60,45,22,20,8,0.8,0.5
2022-10-22T11:00:00,1311A,120.3664,36.1032,青岛市,四方区子站,颗粒物(PM10),60,70,32,34,16,106,84,84,36,33,30,16,7,0.8,0.5
2022-10-22T11:00:00,1312A,120.2994,36.054,青岛市,市南区西部子站,细颗粒物(PM2.5),89,58,30,66,13,131,62,91,37,51,32,12,9,1.0,0.6
2022-10-22T11:00:00,1313A,120.4581,36.0858,青岛市,崂山区子站,颗粒物(PM10),67,84,30,34,12,127,97,84,61,48,27,10,6,0.8,0.5
2022-10-22T11:00:00,1314A,120.1983,35.9608,青岛市,黄岛区子站,颗粒物(PM10),75,100,30,46,19,132,107,106,63,64,29,16,7,0.7,0.4
2022-10-22T11:00:00,1315A,120.3999,36.3083,青岛市,城阳区子站,颗粒物(PM10),70,89,43,32,12,112,74,76,42,62,38,12,6,1.0,0.6
2022-10-22T11:00:00,1316A,113.69031,34.76122,郑州市,烟厂,细颗粒物(PM2.5),83,96,86,61,71,184,111,60,60,22,39,13,8,0.9,0.8
2022-10-22T11:00:00,1317A,113.65724,34.77134,郑州市,郑纺机,细颗粒物(PM2.5),88,97,93,65,75,189,114,45,45,22,46,17,12,0.9,0.9
2022-10-22T11:00:00,1318A,113.67526,34.80246,郑州市,银行学校,细颗粒物(PM2.5),84,84,86,62,76,160,93,61,61,25,37,15,11,1.1,1
2022-10-22T11:00:00,1319A,113.56746,34.81334,郑州市,供水公司,颗粒物(PM10),67,84,85,45,58,184,116,67,67,22,30,16,12,1.0,0.9
2022-10-22T11:00:00,1320A,113.7329,34.7178,郑州市,经开区管委,细颗粒物(PM2.5),75,77,83,55,59,184,120,69,69,15,28,14,8,0.8,0.6
2022-10-22T11:00:00,1321A,113.73961,34.77172,郑州市,四十七中,颗粒物(PM10),71,91,88,34,38,186,114,62,62,18,34,16,12,0.8,0.7
2022-10-22T11:00:00,1322A,113.60532,34.74838,郑州市,市监测站,,,98,92,,44,184,118,66,66,21,29,16,10,0.9,0.7
2022-10-22T11:00:00,1323A,113.64164,34.7525,郑州市,河医大,细颗粒物(PM2.5),89,107,91,66,66,176,105,53,53,29,36,16,11,0.9,0.8
2022-10-22T11:00:00,1324A,113.51488,34.91089,郑州市,岗李水库(对照点),,,,,,,,,,,,,,,,
2022-10-22T11:00:00,1325A,114.3677,30.5584,武汉市,东湖梨园,细颗粒物(PM2.5),102,110,72,76,56,134,98,29,29,62,71,18,10,1.7,1.4
2022-10-22T11:00:00,1326A,114.2529,30.558,武汉市,汉阳月湖,颗粒物(PM10),98,145,103,68,78,125,97,41,41,61,85,10,9,1.1,1.1
2022-10-22T11:00:00,1327A,114.282,30.6189,武汉市,汉口花桥,颗粒物(PM10),87,123,107,61,68,128,109,38,37,42,81,12,12,0.8,1.1
2022-10-22T11:00:00,1328A,114.3025,30.5332,武汉市,武昌紫阳,颗粒物(PM10),74,98,98,41,62,142,95,40,40,55,82,12,11,0.9,1.1
2022-10-22T11:00:00,1329A,114.3646,30.6217,武汉市,青山钢花,颗粒物(PM10),72,94,119,46,74,124,93,38,38,49,93,10,12,0.5,0.9
2022-10-22T11:00:00,1330A,114.1566,30.4825,武汉市,沌口新区,细颗粒物(PM2.5),122,147,107,92,76,149,66,30,30,111,95,11,12,1.0,1
2022-10-22T11:00:00,1331A,114.3014,30.5944,武汉市,汉口江滩,颗粒物(PM10),64,77,95,45,70,134,99,66,66,56,77,11,10,1.0,1.2
2022-10-22T11:00:00,1333A,114.135,30.6319,武汉市,吴家山,颗粒物(PM10),79,108,116,51,74,163,114,30,30,39,89,11,10,0.9,1
2022-10-22T11:00:00,1334A,113.8454,30.2917,武汉市,沉湖七壕(对照点),颗粒物(PM10),96,141,96,69,72,178,119,84,60,26,27,12,9,1.0,0.9
2022-10-22T11:00:00,1335A,113.0833,28.2325,长沙市,经开区环保局,细颗粒物(PM2.5),120,101,75,91,58,192,140,82,82,25,31,,8,,0.6
2022-10-22T11:00:00,1336A,112.8872,28.2189,长沙市,高开区环保局,细颗粒物(PM2.5),102,90,75,76,70,179,158,114,114,12,15,12,10,0.6,0.5
2022-10-22T11:00:00,1337A,113.0792,28.2053,长沙市,马坡岭,细颗粒物(PM2.5),123,85,80,93,68,187,126,84,84,15,21,12,10,0.6,0.5
2022-10-22T11:00:00,1338A,112.9394,28.19,长沙市,湖南师范大学,细颗粒物(PM2.5),105,78,76,79,72,173,140,115,115,17,17,8,5,0.8,0.8
2022-10-22T11:00:00,1339A,113.0178,28.1322,长沙市,雨花区环保局,,,83,73,,53,166,129,77,77,23,26,12,10,0.9,0.6
2022-10-22T11:00:00,1340A,112.9792,28.2597,长沙市,伍家岭,细颗粒物(PM2.5),114,101,89,86,66,182,146,101,101,18,26,11,8,0.8,0.7
2022-10-22T11:00:00,1341A,113.0014,28.1944,长沙市,火车新站,细颗粒物(PM2.5),98,96,76,73,54,197,143,107,107,21,20,12,9,0.6,0.5
2022-10-22T11:00:00,1342A,112.9844,28.1178,长沙市,天心区环保局,细颗粒物(PM2.5),100,93,69,75,66,201,140,107,107,23,26,11,9,0.6,0.5
2022-10-22T11:00:00,1343A,112.8908,28.1308,长沙市,湖南中医药大学,细颗粒物(PM2.5),90,112,87,67,61,193,146,107,107,12,16,7,5,0.8,0.7
2022-10-22T11:00:00,1344A,112.9581,28.3611,长沙市,沙坪(对照点),细颗粒物(PM2.5),115,125,77,87,65,160,145,106,102,18,16,10,8,0.8,0.6
2022-10-22T11:00:00,1345A,113.2347,23.1423,广州市,广雅中学,颗粒物(PM10),56,62,93,31,47,240,124,42,42,35,84,9,8,0.7,0.9
2022-10-22T11:00:00,1346A,113.2612,23.105,广州市,市五中,颗粒物(PM10),54,58,80,34,53,285,148,58,58,32,64,8,8,0.6,0.9
2022-10-22T11:00:00,1348A,113.3478,23.0916,广州市,广东商学院,,46,42,67,23,34,251,147,52,52,20,58,8,7,0.6,0.7
2022-10-22T11:00:00,1349A,113.4332,23.1047,广州市,市八十六中,,46,46,75,26,31,227,136,53,39,29,66,10,9,0.5,0.7
2022-10-22T11:00:00,1350A,113.3505,22.9483,广州市,番禺中学,颗粒物(PM10),55,60,71,31,42,287,148,66,66,42,47,13,12,0.6,0.7
2022-10-22T11:00:00,1351A,113.2146,23.3916,广州市,花都师范,,45,34,71,18,38,235,142,62,62,11,49,11,10,0.6,0.8
2022-10-22T11:00:00,1352A,113.2597,23.1331,广州市,市监测站,颗粒物(PM10),55,60,81,36,44,278,142,51,51,34,72,8,7,0.8,0.9
2022-10-22T11:00:00,1353A,113.5618,23.312,广州市,九龙镇镇龙,颗粒物(PM10),57,64,105,31,46,195,132,30,30,27,63,5,5,0.6,0.7
2022-10-22T11:00:00,1354A,113.2765,23.1544,广州市,麓湖,颗粒物(PM10),54,57,70,31,42,257,148,39,39,29,74,6,4,0.5,0.7
2022-10-22T11:00:00,1355A,113.443,23.3035,广州市,帽峰山森林公园(对照点),,42,42,55,25,31,199,134,119,64,15,27,8,8,0.3,0.4
2022-10-22T11:00:00,1356A,114.1063,22.5545,深圳市,通心岭子站,颗粒物(PM10),51,52,43,22,20,198,133,81,60,30,17,6,5,0.6,0.6
2022-10-22T11:00:00,1357A,114.117,22.5625,深圳市,洪湖,颗粒物(PM10),52,53,49,27,22,198,129,82,41,32,26,9,7,0.6,0.6
2022-10-22T11:00:00,1358A,113.987,22.5417,深圳市,华侨城,细颗粒物(PM2.5),52,52,53,36,26,210,137,74,62,25,24,7,6,0.4,0.5
2022-10-22T11:00:00,1359A,113.9181,22.5171,深圳市,南海子站,,48,44,52,25,25,241,151,83,83,15,19,6,5,0.4,0.4
2022-10-22T11:00:00,1360A,114.2458,22.5689,深圳市,盐田,,40,32,32,21,16,177,128,74,74,17,18,10,6,0.5,0.5
2022-10-22T11:00:00,1361A,114.2283,22.7244,深圳市,龙岗,,39,38,47,22,21,170,124,65,46,15,22,9,5,0.4,0.5
2022-10-22T11:00:00,1362A,113.8953,22.5861,深圳市,西乡,,,,,,,,,,,,,,,,
2022-10-22T11:00:00,1363A,114.494,22.5422,深圳市,南澳,,42,28,29,15,12,134,133,64,64,13,9,16,11,0.6,0.6
2022-10-22T11:00:00,1364A,114.41,22.6342,深圳市,葵涌,,38,31,30,20,15,153,121,56,56,14,13,7,6,0.7,0.6
2022-10-22T11:00:00,1365A,114.297,22.5978,深圳市,梅沙,,43,43,39,23,15,173,137,89,89,22,11,12,9,0.5,0.5
2022-10-22T11:00:00,1366A,114.0678,22.738,深圳市,观澜,,49,49,69,21,26,208,139,49,49,26,34,9,6,0.6,0.5
2022-10-22T11:00:00,1367A,113.5814,22.2618,珠海市,吉大,细颗粒物(PM2.5),92,45,37,68,26,196,135,78,75,23,14,8,6,0.4,0.4
2022-10-22T11:00:00,1368A,113.4881,22.2335,珠海市,前山,颗粒物(PM10),57,64,57,25,19,217,129,76,58,32,31,9,6,0.3,0.3
2022-10-22T11:00:00,1369A,113.628,22.4251,珠海市,唐家,细颗粒物(PM2.5),77,50,41,56,25,261,124,56,47,33,20,10,7,0.5,0.4
2022-10-22T11:00:00,1370A,113.299,22.2281,珠海市,斗门,颗粒物(PM10),78,105,48,35,21,240,158,70,52,25,23,12,8,0.8,0.5
2022-10-22T11:00:00,1371A,113.1294,23.0067,佛山市,湾梁,颗粒物(PM10),57,63,86,27,39,309,149,62,62,36,57,10,10,0.6,0.7
2022-10-22T11:00:00,1372A,113.1083,23.0478,佛山市,华材职中,颗粒物(PM10),73,96,91,30,48,295,129,58,58,46,71,12,12,0.5,0.7
2022-10-22T11:00:00,1373A,113.144,23.0453,佛山市,南海气象局,颗粒物(PM10),61,71,85,21,51,304,135,48,48,38,65,10,9,0.2,0.5
2022-10-22T11:00:00,1374A,113.2881,22.8094,佛山市,顺德苏岗,颗粒物(PM10),62,74,72,39,40,290,132,75,54,36,48,9,9,0.8,0.9
2022-10-22T11:00:00,1375A,113.2544,22.7642,佛山市,容桂街道办,,,,,,,,,,,,,,,,
2022-10-22T11:00:00,1376A,112.8383,22.8678,佛山市,高明孔堂,颗粒物(PM10),92,134,85,54,53,338,146,134,94,54,36,19,12,0.8,0.8
2022-10-22T11:00:00,1377A,112.8836,23.1588,佛山市,三水监测站,颗粒物(PM10),65,80,97,30,54,237,129,38,38,31,79,10,11,0.5,0.7
2022-10-22T11:00:00,1378A,112.867,23.185,佛山市,三水云东海,颗粒物(PM10),52,54,79,28,44,241,132,38,38,24,56,15,9,0.5,0.6
2022-10-22T11:00:00,1379A,113.3769,22.5211,中山市,华柏园,细颗粒物(PM2.5),70,69,58,51,32,309,159,73,73,39,34,9,6,0.6,0.6
2022-10-22T11:00:00,1380A,113.3881,22.5497,中山市,张溪,细颗粒物(PM2.5),109,100,72,82,37,312,175,69,69,35,41,11,7,0.5,0.5
2022-10-22T11:00:00,1381A,113.4075,22.5111,中山市,紫马岭,,,148,59,44,33,306,151,56,56,31,27,,7,0.5,0.5
2022-10-22T11:00:00,1382A,113.4411,22.4853,中山市,长江旅游区(对照点),细颗粒物(PM2.5),85,93,48,63,30,290,131,63,48,33,18,13,7,0.7,0.6
2022-10-22T11:00:00,1383A,113.1064,22.6058,江门市,北街,颗粒物(PM10),70,89,65,50,34,353,167,82,79,37,30,10,8,0.8,0.7
2022-10-22T11:00:00,1384A,113.0731,22.5835,江门市,西区,"颗粒物(PM10),臭氧1小时",73,95,73,40,40,331,178,81,76,37,38,11,9,0.7,0.8
2022-10-22T11:00:00,1385A,113.0219,22.5311,江门市,圭峰西,,,71,65,59,37,368,183,90,89,31,33,,9,0.5,0.6
2022-10-22T11:00:00,1386A,113.0828,22.5947,江门市,东湖,臭氧1小时,74,90,78,45,38,325,179,91,77,34,31,10,8,0.7,0.7
2022-10-22T11:00:00,1387A,113.7875,23.0457,东莞市,东城主山,,,,,,,,,,,,,,,,
2022-10-22T11:00:00,1388A,113.7533,23.0202,东莞市,南城元岭,,,,,,,,,,,,,,,,
2022-10-22T11:00:00,1389A,113.7547,23.0494,东莞市,莞城梨川,颗粒物(PM10),53,55,69,27,32,211,153,138,138,27,27,12,11,0.7,0.8
2022-10-22T11:00:00,1390A,113.7944,23.0128,东莞市,东城石井,臭氧1小时,60,45,54,25,29,191,168,50,50,14,24,13,11,0.7,0.7
2022-10-22T11:00:00,1391A,113.7383,22.9658,东莞市,南城西平,颗粒物(PM10),63,75,72,32,30,192,155,42,42,23,47,15,12,0.8,0.8
2022-10-22T11:00:00,1392A,114.4183,23.0528,惠州市,河南岸金山湖子站,,47,47,56,27,25,148,117,51,45,21,23,16,7,0.6,0.6
2022-10-22T11:00:00,1393A,114.4053,23.0822,惠州市,下埔横江三路子站,颗粒物(PM10),59,67,58,25,26,160,131,64,51,17,23,15,8,0.4,0.4
2022-10-22T11:00:00,1394A,114.4103,23.1142,惠州市,江北云山西路子站,,,,,,,,,,,,,,,,
2022-10-22T11:00:00,1395A,114.4645,22.7833,惠州市,惠阳区承修路船湖子站,颗粒物(PM10),61,72,64,25,23,178,126,92,56,20,20,10,7,0.8,0.8
2022-10-22T11:00:00,1396A,114.5317,22.7422,惠州市,大亚湾管委会子站,颗粒物(PM10),52,53,46,17,19,161,117,94,64,11,18,5,4,0.7,0.7
2022-10-22T11:00:00,1397A,112.4267,23.0706,肇庆市,睦岗子站,,49,45,69,28,40,262,155,43,38,30,67,14,10,0.6,0.7
2022-10-22T11:00:00,1398A,112.4645,23.0475,肇庆市,城中子站,颗粒物(PM10),52,54,76,34,44,250,101,60,31,60,61,17,23,0.7,0.7
2022-10-22T11:00:00,1399A,112.5544,23.1522,肇庆市,坑口子站,颗粒物(PM10),54,58,51,36,32,252,144,118,96,33,26,19,12,0.6,0.6
2022-10-22T11:00:00,1400A,112.4753,23.1,肇庆市,七星岩子站(对照点),细颗粒物(PM2.5),54,50,62,38,35,241,142,94,81,19,29,11,8,0.7,0.7
2022-10-22T11:00:00,1401A,108.3103,22.7881,南宁市,二十一中,颗粒物(PM10),55,60,55,26,31,161,58,36,22,28,37,12,12,0.8,0.8
2022-10-22T11:00:00,1402A,108.3141,22.8528,南宁市,北湖,,44,44,60,27,36,155,70,59,31,21,22,11,12,0.6,0.8
2022-10-22T11:00:00,1403A,108.3206,22.8225,南宁市,市监测站,颗粒物(PM10),56,62,63,24,34,150,46,29,17,38,49,14,14,0.8,0.8
2022-10-22T11:00:00,1404A,108.3829,22.8037,南宁市,大自然花园,颗粒物(PM10),51,52,54,29,32,165,50,39,24,33,31,12,9,0.9,0.9
2022-10-22T11:00:00,1405A,108.4394,22.7904,南宁市,仙葫(对照点),颗粒物(PM10),54,57,56,28,33,157,53,17,16,32,39,8,6,0.8,0.8
2022-10-22T11:00:00,1406A,108.2397,22.8467,南宁市,区农职院,,35,34,48,24,26,155,84,58,21,15,30,10,12,0.8,0.9
2022-10-22T11:00:00,1407A,108.3275,22.735,南宁市,英华嘉园,颗粒物(PM10),53,55,53,23,32,153,38,43,22,32,28,14,11,0.9,0.8
2022-10-22T11:00:00,1408A,108.2257,22.7757,南宁市,沙井镇街道办,,37,37,48,21,25,152,52,32,23,21,29,14,9,0.7,0.7
2022-10-22T11:00:00,1409A,110.576,19.9507,海口市,东寨港(对照点),,,45,31,18,8,50,50,19,19,,,4,5,0.3,0.3
2022-10-22T11:00:00,1410A,110.3232,20.0574,海口市,海南大学,,43,43,42,17,10,118,116,97,97,7,8,6,6,0.6,0.6
2022-10-22T11:00:00,1411A,110.283,20.0053,海口市,秀英海南医院,,44,44,42,11,12,124,124,83,70,11,15,5,4,0.5,0.5
2022-10-22T11:00:00,1412A,110.338,19.9969,海口市,海南师范大学,,46,46,45,19,12,123,123,88,88,9,9,5,5,0.6,0.6
2022-10-22T11:00:00,1413A,110.33,20.0356,海口市,龙华路环保局宿舍,,39,39,40,14,11,120,120,89,87,10,9,5,4,0.6,0.6
2022-10-22T11:00:00,1414A,106.3787,29.8279,重庆市,缙云山(对照点),颗粒物(PM10),58,65,54,39,30,206,118,188,149,32,17,7,10,0.6,0.4
2022-10-22T11:00:00,1416A,106.4213,29.8253,重庆市,天生,细颗粒物(PM2.5),90,105,91,67,63,201,15,31,8,81,54,14,16,1.1,0.8
2022-10-22T11:00:00,1417A,106.6263,29.7228,重庆市,两路,细颗粒物(PM2.5),77,98,82,56,50,192,52,89,45,95,67,21,17,1.0,0.8
2022-10-22T11:00:00,1418A,106.2953,29.5983,重庆市,虎溪,颗粒物(PM10),68,85,71,48,46,218,21,22,22,83,74,15,14,1.0,0.7
2022-10-22T11:00:00,1419A,106.5777,29.5102,重庆市,南坪,,,89,86,59,56,193,,60,48,68,61,12,12,0.9,0.9
2022-10-22T11:00:00,1420A,106.6556,29.6277,重庆市,唐家沱,颗粒物(PM10),66,81,104,47,57,213,52,21,21,69,88,15,14,0.6,0.6
2022-10-22T11:00:00,1421A,106.6349,29.4906,重庆市,茶园,颗粒物(PM10),79,108,108,56,57,204,35,44,19,90,93,14,13,1.2,1.1
2022-10-22T11:00:00,1422A,106.3754,29.4572,重庆市,白市驿,细颗粒物(PM2.5),128,137,105,97,59,208,18,128,56,97,45,27,20,1.1,0.7
2022-10-22T11:00:00,1425A,106.6205,29.7166,重庆市,空港,细颗粒物(PM2.5),78,100,85,57,51,186,55,111,51,88,66,26,19,0.9,0.7
2022-10-22T11:00:00,1426A,106.4782,29.4875,重庆市,新山村,细颗粒物(PM2.5),123,143,111,93,67,216,13,8,8,132,127,19,12,1.2,1.1
2022-10-22T11:00:00,1427A,106.5616,29.6453,重庆市,礼嘉,颗粒物(PM10),89,127,107,60,51,212,29,7,7,113,112,14,14,1.0,1
2022-10-22T11:00:00,1428A,106.4522,29.7091,重庆市,蔡家,颗粒物(PM10),95,139,96,63,53,193,12,38,13,89,67,8,10,0.9,0.6
2022-10-22T11:00:00,1429A,106.5093,29.3917,重庆市,鱼新街,细颗粒物(PM2.5),79,105,108,58,70,208,16,17,16,105,86,19,19,1.1,1.1
2022-10-22T11:00:00,1431A,103.9728,30.7236,成都市,金泉两河,颗粒物(PM10),79,107,102,52,70,193,63,17,17,46,56,19,9,0.7,0.9
2022-10-22T11:00:00,1432A,104.1419,30.6764,成都市,十里店,细颗粒物(PM2.5),127,146,113,96,65,179,31,6,6,,81,,7,1.0,1
2022-10-22T11:00:00,1433A,104.0594,30.5767,成都市,三瓦窑,细颗粒物(PM2.5),122,139,128,92,70,195,28,5,5,107,91,6,4,1.0,0.9
2022-10-22T11:00:00,1434A,104.1122,30.6306,成都市,沙河铺,颗粒物(PM10),98,146,105,68,59,197,20,3,3,93,71,14,6,1.0,1
2022-10-22T11:00:00,1437A,104.0431,30.6556,成都市,君平街,细颗粒物(PM2.5),104,112,107,78,76,197,53,12,12,58,82,24,8,1.1,1.2
2022-10-22T11:00:00,1438A,103.6202,31.0201,成都市,灵岩寺(对照点),,49,49,46,33,31,165,84,116,77,22,12,11,11,0.6,0.5
2022-10-22T11:00:00,1439A,106.6899,26.5998,贵阳市,马鞍山,细颗粒物(PM2.5),83,61,42,61,39,76,48,19,19,18,16,5,4,0.7,0.6
2022-10-22T11:00:00,1440A,106.6971,26.5694,贵阳市,市环保站,细颗粒物(PM2.5),64,68,57,46,43,80,48,18,18,30,39,8,4,0.6,0.7
2022-10-22T11:00:00,1441A,106.6243,26.6266,贵阳市,鉴湖路,细颗粒物(PM2.5),58,58,61,41,44,98,85,36,36,17,25,5,4,0.6,0.7
2022-10-22T11:00:00,1442A,106.7487,26.6343,贵阳市,燕子冲,细颗粒物(PM2.5),73,58,51,53,46,93,65,20,20,25,22,9,5,0.7,0.7
2022-10-22T11:00:00,1443A,106.6555,26.4365,贵阳市,碧云窝,细颗粒物(PM2.5),70,75,58,51,42,88,66,18,18,24,28,11,5,0.5,0.7
2022-10-22T11:00:00,1444A,106.694,26.5161,贵阳市,中院村,细颗粒物(PM2.5),73,68,63,53,46,90,67,26,26,25,38,13,7,0.6,0.8
2022-10-22T11:00:00,1445A,106.7109,26.6027,贵阳市,红边门,细颗粒物(PM2.5),85,73,56,63,50,89,55,21,21,27,33,9,6,0.7,0.7
2022-10-22T11:00:00,1446A,106.7164,26.5699,贵阳市,新华路,,,58,50,,45,95,76,31,31,12,26,10,4,0.6,0.7
2022-10-22T11:00:00,1447A,106.674,26.5424,贵阳市,太慈桥,细颗粒物(PM2.5),67,70,53,48,34,86,63,19,19,19,19,5,3,0.7,0.7
2022-10-22T11:00:00,1450A,102.8204,24.8886,昆明市,呈贡新区,,28,21,38,19,20,99,52,19,19,15,31,13,7,0.5,0.5
2022-10-22T11:00:00,1451A,102.6251,24.9608,昆明市,西山森林公园(对照点),,32,16,17,22,12,83,43,77,40,19,10,6,6,0.7,0.6
2022-10-22T11:00:00,1452A,102.7252,25.0902,昆明市,龙泉镇,,23,22,34,16,21,103,53,18,18,10,53,7,7,0.4,0.5
2022-10-22T11:00:00,1453A,102.7266,25.0375,昆明市,东风东路,,36,36,33,20,18,98,42,16,16,23,28,9,7,0.6,0.6
2022-10-22T11:00:00,1454A,102.6742,25.0669,昆明市,金鼎山,,47,47,32,25,18,86,44,24,24,20,21,20,11,0.6,0.5
2022-10-22T11:00:00,1455A,102.6644,25.0401,昆明市,碧鸡广场,细颗粒物(PM2.5),52,41,29,36,23,86,46,43,31,25,26,20,12,0.6,0.5
2022-10-22T11:00:00,1456A,91.1319,29.6514,拉萨市,八廓街,,,12,9,,,110,94,98,82,9,9,7,7,0,0
2022-10-22T11:00:00,1457A,91.1221,29.6747,拉萨市,市环保局,,30,14,9,5,3,107,94,100,74,7,7,1,2,0.2,0.2
2022-10-22T11:00:00,1458A,91.0874,29.6475,拉萨市,区监测站,,34,5,8,3,2,124,107,114,95,4,3,8,8,0.3,0.3
2022-10-22T11:00:00,1459A,91.1774,29.6541,拉萨市,西藏大学,,29,7,13,4,3,113,91,101,83,7,7,9,10,0,0.1
2022-10-22T11:00:00,1460A,90.9798,29.6588,拉萨市,区辐射站,,29,5,5,6,5,111,91,106,85,6,5,9,9,0.2,0.2
2022-10-22T11:00:00,1461A,91.0834,29.6292,拉萨市,拉萨火车站,,30,5,9,2,3,117,95,107,93,7,4,10,10,0,0
2022-10-22T11:00:00,1462A,108.882,34.2749,西安市,高压开关厂,细颗粒物(PM2.5),140,186,152,107,91,163,18,8,8,99,83,9,9,1.1,1.1
2022-10-22T11:00:00,1463A,108.993,34.2629,西安市,兴庆小区,颗粒物(PM10),78,105,89,56,50,159,42,24,20,56,53,8,9,0.8,0.7
2022-10-22T11:00:00,1464A,109.06,34.2572,西安市,纺织城,颗粒物(PM10),70,90,102,43,50,159,53,13,13,48,58,10,9,0.8,0.9
2022-10-22T11:00:00,1465A,108.9356,34.2173,西安市,小寨,"颗粒物(PM10),细颗粒物(PM2.5)",77,104,112,56,49,155,61,17,17,43,68,10,10,0.9,1.1
2022-10-22T11:00:00,1466A,108.954,34.2713,西安市,市人民体育场,细颗粒物(PM2.5),102,116,105,76,72,158,40,11,11,62,63,8,7,0.8,0.8
2022-10-22T11:00:00,1467A,108.8922,34.2322,西安市,高新西区,细颗粒物(PM2.5),82,103,122,60,66,160,49,14,14,52,75,8,8,0.9,1.2
2022-10-22T11:00:00,1468A,108.935,34.3474,西安市,经开区,"颗粒物(PM10),细颗粒物(PM2.5)",82,113,121,60,68,162,28,7,7,64,80,7,8,0.8,1
2022-10-22T11:00:00,1469A,108.906,34.1546,西安市,长安区,颗粒物(PM10),80,110,113,57,49,151,57,15,15,50,51,6,6,0.7,0.7
2022-10-22T11:00:00,1470A,109.2,34.6575,西安市,阎良区,,,,,,,,,,,,,,,,
2022-10-22T11:00:00,1471A,109.2186,34.3731,西安市,临潼区,颗粒物(PM10),86,121,105,55,56,162,46,69,37,57,42,10,7,0.9,0.7
2022-10-22T11:00:00,1472A,108.869,34.378,西安市,草滩(对照点),细颗粒物(PM2.5),89,126,133,66,72,150,23,17,17,87,91,8,10,1.1,1
2022-10-22T11:00:00,1473A,108.985,34.1978,西安市,曲江文化产业集团,细颗粒物(PM2.5),90,106,101,67,64,154,72,22,19,39,69,10,8,0.8,0.8
2022-10-22T11:00:00,1474A,109.051,34.3213,西安市,广运潭,颗粒物(PM10),76,102,96,52,52,156,38,28,28,63,66,14,7,0.7,0.6
2022-10-22T11:00:00,1476A,103.631,36.1031,兰州市,兰炼宾馆,颗粒物(PM10),68,86,75,37,37,120,44,40,33,42,44,83,27,0.9,0.7
2022-10-22T11:00:00,1477A,104.1373,35.9454,兰州市,榆中兰大校区(对照点),,,,,,,,,,,,,,,,
2022-10-22T11:00:00,1478A,103.8412,36.0726,兰州市,生物制品所,,,70,70,34,35,118,44,17,14,,50,30,13,0.8,0.7
2022-10-22T11:00:00,1479A,103.831,36.0464,兰州市,铁路设计院,颗粒物(PM10),65,79,74,34,33,117,50,39,30,54,54,28,16,1.1,1
2022-10-22T11:00:00,1480A,101.748,36.6428,西宁市,市环境监测站,,,,,,,,,,,,,,,,
2022-10-22T11:00:00,1482A,101.834,36.5819,西宁市,四陆医院,,,,,,,,,,,,,,,,
2022-10-22T11:00:00,1483A,101.524,36.6867,西宁市,第五水厂(对照点),,,,,,,,,,,,,,,,
2022-10-22T11:00:00,1484A,105.9512,38.6016,银川市,贺兰山马莲口(对照点),,35,35,55,17,25,165,75,69,62,19,21,26,22,0.4,0.5
2022-10-22T11:00:00,1488A,106.2328,38.4975,银川市,贺兰山东路,,43,43,64,23,36,156,61,50,41,22,24,17,18,0.6,0.6
2022-10-22T11:00:00,1489A,106.1358,38.5036,银川市,学院路,颗粒物(PM10),56,62,76,14,29,146,61,42,29,19,31,22,23,1.0,1
2022-10-22T11:00:00,1490A,87.5801,43.8303,乌鲁木齐市,监测站,,35,35,29,18,20,78,24,15,8,39,34,6,6,0.8,0.7
2022-10-22T11:00:00,1491A,87.6046,43.768,乌鲁木齐市,收费所,,46,27,29,32,20,91,39,67,39,33,23,8,8,0.6,0.3
2022-10-22T11:00:00,1492A,87.4754,43.9469,乌鲁木齐市,新疆农科院农场(对照点),,29,12,10,20,17,78,7,5,2,48,35,6,6,1.0,0.9
2022-10-22T11:00:00,1493A,87.5525,43.8711,乌鲁木齐市,铁路局,,33,33,27,22,19,78,35,30,12,24,28,6,6,0.8,0.8
2022-10-22T11:00:00,1494A,87.6432,43.831,乌鲁木齐市,三十一中学,,,37,36,,,84,60,67,64,19,17,14,11,0.6,0.3
2022-10-22T11:00:00,1496A,87.7216,44.1747,乌鲁木齐市,米东区环保局,颗粒物(PM10),53,55,40,32,22,84,18,5,5,33,22,11,7,0.5,0.4
2022-10-22T11:00:00,1508A,112.9433,27.8614,湘潭市,板塘,细颗粒物(PM2.5),109,80,80,82,70,233,147,108,108,20,25,13,12,0.5,0.5
2022-10-22T11:00:00,1511A,112.9118,27.8403,湘潭市,市监测站,细颗粒物(PM2.5),95,81,69,71,63,224,137,104,104,19,23,11,9,0.6,0.6
2022-10-22T11:00:00,1512A,112.8937,27.8728,湘潭市,江麓,细颗粒物(PM2.5),85,88,83,63,68,231,154,117,117,15,19,10,9,0.5,0.5
2022-10-22T11:00:00,1513A,112.9227,27.8159,湘潭市,岳塘,细颗粒物(PM2.5),99,101,84,74,65,240,145,112,112,24,28,8,8,0.6,0.5
2022-10-22T11:00:00,1514A,112.9074,27.9119,湘潭市,科大,细颗粒物(PM2.5),89,88,90,66,65,232,160,114,114,18,22,8,6,0.6,0.6
2022-10-22T11:00:00,1515A,113.135,27.8244,株洲市,天台山庄,细颗粒物(PM2.5),74,63,61,54,54,237,148,105,82,25,33,6,7,0.4,0.4
2022-10-22T11:00:00,1518A,113.095,27.8867,株洲市,株冶医院,细颗粒物(PM2.5),85,85,73,63,67,233,144,92,62,27,43,6,8,0.4,0.5
2022-10-22T11:00:00,1519A,113.167,27.8667,株洲市,市四中,细颗粒物(PM2.5),78,70,62,57,54,246,155,92,78,20,34,6,8,0.5,0.5
2022-10-22T11:00:00,1520A,113.143,27.8381,株洲市,火车站,颗粒物(PM10),74,97,75,52,55,246,162,112,87,23,35,6,7,0.6,0.6
2022-10-22T11:00:00,1524A,113.13,27.8528,株洲市,市监测站,细颗粒物(PM2.5),82,68,77,60,66,234,153,108,79,19,31,4,3,0.6,0.6
2022-10-22T11:00:00,1552A,106.805,26.3003,贵阳市,桐木岭(对照点),,,,,,,,,,,,,,,,
2022-10-22T11:00:00,1559A,113.251,27.8336,株洲市,大京风景区(对照点),细颗粒物(PM2.5),54,53,57,38,42,212,142,98,75,15,16,6,6,0.5,0.5
2022-10-22T11:00:00,1562A,113.0048,27.9153,湘潭市,昭山,细颗粒物(PM2.5),97,119,97,72,60,225,154,98,98,16,28,5,5,0.6,0.6
2022-10-22T11:00:00,1564A,112.4876,27.9164,湘潭市,韶山(对照点),细颗粒物(PM2.5),67,81,69,48,33,201,163,139,139,18,17,14,11,0.6,0.6
2022-10-22T11:00:00,1585A,109.8756,40.6532,包头市,市环境监测站,颗粒物(PM10),51,52,92,11,27,110,64,54,42,35,19,103,21,2.6,1.1
2022-10-22T11:00:00,1587A,109.9991,40.5842,包头市,包头八中,颗粒物(PM10),62,73,112,33,21,116,55,52,24,33,25,45,19,1.5,0.7
2022-10-22T11:00:00,1588A,109.8538,40.6821,包头市,青山宾馆,颗粒物(PM10),54,57,97,28,20,103,53,48,39,32,21,62,24,2.1,1
2022-10-22T11:00:00,1589A,109.8642,40.6288,包头市,惠龙物流,颗粒物(PM10),59,68,88,34,29,122,74,62,40,44,20,80,17,2.2,1.1
2022-10-22T11:00:00,1590A,110.0377,40.5546,包头市,东河鸿龙湾,颗粒物(PM10),74,97,97,41,25,104,53,52,16,32,26,29,14,0.7,0.4
2022-10-22T11:00:00,1591A,110.0023,39.8129,鄂尔多斯市,综合楼,颗粒物(PM10),58,66,80,16,14,93,40,37,35,28,21,12,7,0.4,0.4
2022-10-22T11:00:00,1592A,109.9486,39.8261,鄂尔多斯市,巴音孟克林场办事处,,46,46,92,14,22,104,79,47,47,8,21,7,7,0.6,0.6
2022-10-22T11:00:00,1593A,109.7736,39.5986,鄂尔多斯市,康泽苑,颗粒物(PM10),71,92,89,22,22,104,61,61,48,18,12,4,4,0.7,0.6
2022-10-22T11:00:00,1594A,109.8119,39.5989,鄂尔多斯市,华泰汽车城,颗粒物(PM10),74,97,93,31,29,96,43,39,29,24,12,5,6,0.4,0.4
2022-10-22T11:00:00,1595A,109.9734,39.7884,鄂尔多斯市,奥林花园,颗粒物(PM10),68,85,111,24,22,98,58,39,30,23,27,33,9,0.5,0.4
2022-10-22T11:00:00,1596A,122.2414,40.6592,营口市,学府南路,,,,,,,,,,,,,,,,
2022-10-22T11:00:00,1597A,122.2703,40.7094,营口市,大庆路,,26,26,80,7,56,164,73,51,51,15,38,6,8,0.4,1.1
2022-10-22T11:00:00,1598A,122.215,40.6511,营口市,镜湖西路,,33,33,81,4,47,154,66,63,48,9,26,3,5,0.5,1
2022-10-22T11:00:00,1599A,122.167,40.6655,营口市,西炮台,,22,13,86,6,59,157,70,58,51,12,26,7,12,0.4,0.8
2022-10-22T11:00:00,1600A,124.3303,40.0625,丹东市,江湾东路,,37,37,34,24,17,108,90,74,59,18,18,11,11,0.5,0.5
2022-10-22T11:00:00,1601A,124.4256,40.1503,丹东市,临江后街,,40,40,31,22,12,113,77,78,72,25,8,8,8,0.7,0.8
2022-10-22T11:00:00,1602A,124.3933,40.1461,丹东市,元宝山,,49,40,30,34,18,105,62,69,57,44,22,11,10,0.8,0.8
2022-10-22T11:00:00,1603A,124.3633,40.1092,丹东市,民主桥,,,47,34,27,15,108,72,75,62,32,9,12,10,,0.7
2022-10-22T11:00:00,1604A,122.0303,41.1489,盘锦市,开发区,,21,13,49,4,56,142,66,56,56,16,29,6,8,0.5,0.9
2022-10-22T11:00:00,1605A,122.0485,41.0883,盘锦市,兴隆台,,21,9,53,5,52,146,66,60,56,9,22,8,10,0.4,0.8
2022-10-22T11:00:00,1606A,121.8297,41.1028,盘锦市,新生街道,,21,15,39,6,44,151,66,53,53,11,20,9,10,0.5,0.9
2022-10-22T11:00:00,1607A,120.9092,40.7136,葫芦岛市,龙港区,,27,27,90,2,60,147,64,55,55,15,32,16,15,0.0,0.8
2022-10-22T11:00:00,1608A,120.8392,40.7514,葫芦岛市,化工街,,,22,119,,,159,76,64,62,7,40,,,0.4,1.2
2022-10-22T11:00:00,1609A,120.8341,40.7073,葫芦岛市,新区,,25,25,88,0,67,141,72,60,60,19,46,9,12,0.3,1.2
2022-10-22T11:00:00,1610A,120.8695,40.7677,葫芦岛市,东城区,,22,22,97,4,72,138,65,62,55,5,36,11,15,0.4,1.2
2022-10-22T11:00:00,1611A,118.5819,24.9117,泉州市,涂山街,,37,37,42,12,13,127,72,69,69,6,10,6,7,0.6,0.6
2022-10-22T11:00:00,1612A,118.5972,24.8978,泉州市,津头埔,,30,30,40,9,18,121,63,65,65,9,9,6,7,0.4,0.5
2022-10-22T11:00:00,1613A,118.6663,24.9424,泉州市,万安,,25,23,36,6,17,132,77,73,72,4,8,6,8,0.5,0.5
2022-10-22T11:00:00,1614A,118.6117,24.9604,泉州市,清源山(对照点),,,,,,,,,,,,,,,,
2022-10-22T11:00:00,1616A,117.6795,36.229,济南市,技术学院,细颗粒物(PM2.5),92,132,115,68,52,165,119,33,33,40,62,15,8,1.4,1.3
2022-10-22T11:00:00,1618A,118.3429,35.0532,临沂市,沂河小区,颗粒物(PM10),76,102,75,47,40,139,111,28,28,61,51,14,17,0.7,0.6
2022-10-22T11:00:00,1619A,118.295,35.0583,临沂市,鲁南制药厂,,,112,87,55,45,146,107,30,30,,55,,20,0.8,0.7
2022-10-22T11:00:00,1620A,118.2794,34.9976,临沂市,新光毛纺厂,颗粒物(PM10),85,119,86,61,43,140,112,30,30,60,54,12,13,1.0,0.9
2022-10-22T11:00:00,1621A,118.3956,35.0888,临沂市,河东保险公司,颗粒物(PM10),79,107,70,52,40,145,106,31,31,41,40,11,8,0.8,0.7
2022-10-22T11:00:00,1622A,116.3032,37.4674,德州市,儿童乐园,颗粒物(PM10),97,143,123,25,58,165,65,97,45,40,51,7,10,0.3,0.6
2022-10-22T11:00:00,1624A,116.2991,37.4451,德州市,监理站,颗粒物(PM10),88,125,128,45,72,168,72,76,50,30,47,9,13,0.4,0.7
2022-10-22T11:00:00,1625A,115.9848,36.4372,聊城市,区政府,细颗粒物(PM2.5),100,143,108,75,54,169,98,87,60,38,31,16,11,0.7,0.6
2022-10-22T11:00:00,1628A,118.0062,37.3803,滨州市,市环保局,细颗粒物(PM2.5),178,252,133,134,69,164,116,62,62,34,43,19,23,1.1,0.9
2022-10-22T11:00:00,1629A,118.0018,37.3617,滨州市,第二水厂,细颗粒物(PM2.5),159,207,118,121,61,163,119,60,60,43,61,15,18,1.0,0.8
2022-10-22T11:00:00,1630A,117.9776,37.393,滨州市,北中新校,细颗粒物(PM2.5),145,180,93,111,64,159,114,48,48,,55,19,17,,0.8
2022-10-22T11:00:00,1631A,118.0414,36.8103,淄博市,人民公园,细颗粒物(PM2.5),130,185,123,99,70,165,96,28,28,66,74,33,17,1.4,0.9
2022-10-22T11:00:00,1632A,118.0253,36.8406,淄博市,东风化工厂,,,,,,,,,,,,,,,,
2022-10-22T11:00:00,1633A,117.8525,36.4847,淄博市,双山,颗粒物(PM10),97,143,85,54,51,150,116,78,69,38,40,9,11,0.6,0.7
2022-10-22T11:00:00,1634A,117.9592,36.6331,淄博市,气象站,颗粒物(PM10),100,149,110,46,51,156,128,81,54,39,60,18,15,0.8,0.9
2022-10-22T11:00:00,1635A,118.3092,36.8194,淄博市,莆田园,细颗粒物(PM2.5),98,132,105,73,61,164,115,83,49,47,56,21,12,0.8,1.9
2022-10-22T11:00:00,1636A,117.8661,36.805,淄博市,三金集团,,,,,,,,,,,,,,,,
2022-10-22T11:00:00,1637A,117.558,34.8438,枣庄市,市中区政府,颗粒物(PM10),82,114,102,56,48,158,119,34,34,48,57,30,12,0.8,0.8
2022-10-22T11:00:00,1638A,117.2852,34.7837,枣庄市,薛城环保局,颗粒物(PM10),77,103,86,48,41,152,123,53,45,37,54,16,12,0.9,0.9
2022-10-22T11:00:00,1639A,117.5852,34.7745,枣庄市,峄城区政府,颗粒物(PM10),69,88,116,39,49,156,141,39,39,23,52,31,12,1.2,1
2022-10-22T11:00:00,1640A,117.7276,34.5578,枣庄市,台儿庄区环保局,颗粒物(PM10),71,92,81,41,46,153,108,30,30,33,53,14,12,0.9,1
2022-10-22T11:00:00,1641A,117.4518,35.0992,枣庄市,山亭区环保局,细颗粒物(PM2.5),74,88,71,54,38,171,156,71,71,29,36,21,13,0.9,0.9
2022-10-22T11:00:00,1642A,121.2514,37.5639,烟台市,开发区,细颗粒物(PM2.5),77,80,39,56,21,113,99,54,42,30,38,22,10,0.8,0.6
2022-10-22T11:00:00,1643A,121.3719,37.5433,烟台市,轴承厂,,,97,42,60,24,119,97,85,85,,24,22,9,0.6,0.3
2022-10-22T11:00:00,1644A,121.3181,37.5436,烟台市,西郊化工站,颗粒物(PM10),81,112,52,57,19,115,99,86,80,44,32,26,10,1.0,0.8
2022-10-22T11:00:00,1645A,121.4478,37.4822,烟台市,莱山环保局,颗粒物(PM10),71,92,39,48,15,132,132,96,96,23,17,22,8,0.6,0.4
2022-10-22T11:00:00,1646A,121.2611,37.4967,烟台市,福山环保局,颗粒物(PM10),76,102,54,46,21,99,90,18,18,43,52,16,8,0.5,0.5
2022-10-22T11:00:00,1648A,119.12,36.7019,潍坊市,仲裁委,,,,,,,,,,,,,,,,
2022-10-22T11:00:00,1650A,119.1437,36.7023,潍坊市,环保局,颗粒物(PM10),82,114,91,55,46,118,109,44,32,49,57,19,6,0.8,0.8
2022-10-22T11:00:00,1652A,119.1936,36.7729,潍坊市,寒亭监测站,,,,,,,,,,,,,,,,
2022-10-22T11:00:00,1653A,116.6251,35.4302,济宁市,火炬城,细颗粒物(PM2.5),107,108,67,80,44,169,106,93,51,46,31,16,9,0.9,0.6
2022-10-22T11:00:00,1655A,116.5491,35.4042,济宁市,电化厂,细颗粒物(PM2.5),113,126,82,85,48,166,118,96,66,34,30,18,17,1.0,0.7
2022-10-22T11:00:00,1656A,117.1437,36.1937,泰安市,监测站,细颗粒物(PM2.5),104,134,73,78,35,162,116,52,52,36,31,20,10,1.6,0.6
2022-10-22T11:00:00,1657A,117.0885,36.2017,泰安市,人口学校,颗粒物(PM10),82,114,62,56,30,147,106,85,47,36,27,19,10,1.0,0.3
2022-10-22T11:00:00,1658A,117.1089,36.1758,泰安市,电力学校,颗粒物(PM10),81,112,70,51,31,155,111,36,36,37,45,20,10,1.6,0.9
2022-10-22T11:00:00,1659A,119.471,35.4209,日照市,监测站,颗粒物(PM10),62,73,43,34,23,127,71,12,12,49,42,8,9,0.9,1
2022-10-22T11:00:00,1660A,119.523,35.4216,日照市,市政府广场,颗粒物(PM10),58,66,38,32,19,126,72,18,18,42,38,7,6,0.8,0.7
2022-10-22T11:00:00,1661A,119.5587,35.4044,日照市,港务局,颗粒物(PM10),57,63,44,28,19,148,82,18,18,27,39,8,7,0.6,0.5
2022-10-22T11:00:00,1662A,122.1214,37.4236,威海市,华夏技校,颗粒物(PM10),65,80,28,44,15,144,144,96,96,20,11,18,6,0.4,0.2
2022-10-22T11:00:00,1663A,122.0508,37.5236,威海市,山大分校,颗粒物(PM10),55,59,27,27,9,117,109,101,101,22,13,6,4,0.5,0.3
2022-10-22T11:00:00,1664A,122.1067,37.5072,威海市,市监测站,"颗粒物(PM10),细颗粒物(PM2.5)",62,73,29,44,17,122,122,94,76,23,21,12,5,0.6,0.4
2022-10-22T11:00:00,1665A,118.5019,37.4658,东营市,西城阳光环保公司,,,,,,,,,,,,,,,,
2022-10-22T11:00:00,1666A,118.6614,37.4309,东营市,市环保局,细颗粒物(PM2.5),138,175,98,105,52,145,118,37,37,42,64,20,24,1.1,1
2022-10-22T11:00:00,1669A,113.5824,24.7733,韶关市,市八中,颗粒物(PM10),55,59,58,25,31,168,136,55,55,13,33,19,17,0.5,0.6
2022-10-22T11:00:00,1670A,113.5556,24.8082,韶关市,碧湖山庄,,,,,,,,,,,,,,,,
2022-10-22T11:00:00,1671A,113.5917,24.7972,韶关市,园林处,,43,30,51,14,33,171,136,75,52,10,26,19,18,0.4,0.5
2022-10-22T11:00:00,1672A,113.6735,24.7791,韶关市,韶关学院,颗粒物(PM10),60,70,51,18,33,160,135,47,47,16,32,12,11,0.5,0.6
2022-10-22T11:00:00,1673A,113.5971,24.6863,韶关市,曲江监测站,颗粒物(PM10),68,86,60,34,30,179,136,54,54,32,33,24,15,0.8,0.9
2022-10-22T11:00:00,1674A,116.6794,23.3667,汕头市,金平子站,颗粒物(PM10),73,96,51,48,29,142,56,52,46,54,26,21,13,0.9,0.6
2022-10-22T11:00:00,1675A,116.7244,23.3633,汕头市,龙湖子站,颗粒物(PM10),68,85,63,32,24,141,78,63,63,31,20,17,12,0.8,0.6
2022-10-22T11:00:00,1676A,116.7258,23.2775,汕头市,濠江子站,颗粒物(PM10),68,85,47,34,27,141,74,63,50,37,22,20,12,1.1,0.8
2022-10-22T11:00:00,1677A,116.7519,23.4714,汕头市,澄海子站,,49,43,50,34,30,139,82,67,67,28,21,20,15,0.7,0.7
2022-10-22T11:00:00,1678A,116.6092,23.2539,汕头市,潮阳子站,,,,44,,21,134,66,59,59,35,18,,10,1.1,0.7
2022-10-22T11:00:00,1679A,116.4069,23.2533,汕头市,潮南子站,,,,,,,,,,,,,,,,
2022-10-22T11:00:00,1680A,110.3539,21.2706,湛江市,湛江影剧院,颗粒物(PM10),60,69,56,38,32,156,126,52,52,18,26,55,17,0.7,0.6
2022-10-22T11:00:00,1681A,110.3928,21.2228,湛江市,市环境监测站,颗粒物(PM10),56,62,50,36,34,150,122,81,57,15,19,25,14,0.5,0.5
2022-10-22T11:00:00,1682A,110.4019,21.1997,湛江市,环保局宿舍,颗粒物(PM10),55,59,52,29,30,149,132,74,54,14,23,21,10,0.6,0.6
2022-10-22T11:00:00,1683A,110.4111,21.2028,湛江市,霞山游泳场,,,,53,,26,101,,103,,,17,,16,,0.6
2022-10-22T11:00:00,1684A,110.3316,21.2679,湛江市,麻章区环保局,细颗粒物(PM2.5),72,65,68,52,45,158,125,56,39,20,31,35,16,0.5,0.5
2022-10-22T11:00:00,1685A,110.4558,21.2567,湛江市,坡头区环保局,,48,48,47,26,27,156,120,100,58,14,14,20,12,0.6,0.6
2022-10-22T11:00:00,1686A,111.0286,21.4688,茂名市,电白南海,颗粒物(PM10),62,73,71,29,30,150,131,71,64,13,24,15,12,0.5,0.5
2022-10-22T11:00:00,1687A,110.9294,21.6533,茂名市,茂石化七小,颗粒物(PM10),68,85,69,48,35,159,140,93,78,17,18,32,20,0.7,0.6
2022-10-22T11:00:00,1688A,110.9107,21.6687,茂名市,健康路,颗粒物(PM10),67,83,64,42,30,166,143,79,77,13,18,32,19,0.8,0.7
2022-10-22T11:00:00,1689A,110.8592,21.6828,茂名市,高岭,颗粒物(PM10),57,63,63,39,38,175,135,74,56,9,20,26,20,0.7,0.7
2022-10-22T11:00:00,1690A,116.1231,24.3284,梅州市,梅江月梅,颗粒物(PM10),51,52,44,24,27,173,99,33,33,24,32,14,13,0.5,0.5
2022-10-22T11:00:00,1691A,116.0797,24.2719,梅州市,梅县新城,颗粒物(PM10),54,57,51,26,29,160,87,28,28,34,43,11,9,0.6,0.6
2022-10-22T11:00:00,1692A,116.1248,24.2654,梅州市,环境监控中心,颗粒物(PM10),61,72,53,22,27,159,102,30,30,29,44,13,10,0.4,0.5
2022-10-22T11:00:00,1693A,115.3653,22.775,汕尾市,市环保局,,42,42,37,16,15,125,91,85,72,13,10,10,8,0.6,0.6
2022-10-22T11:00:00,1694A,115.3706,22.7898,汕尾市,市政府,,43,43,34,22,22,125,87,90,66,16,11,9,8,0.5,0.5
2022-10-22T11:00:00,1695A,115.3622,22.7925,汕尾市,新城中学,,49,49,50,21,20,124,92,80,73,10,10,10,9,0.4,0.4
2022-10-22T11:00:00,1696A,114.6778,23.7569,河源市,源西(对照点),颗粒物(PM10),53,55,54,18,27,156,129,44,44,11,46,13,7,0.3,0.4
2022-10-22T11:00:00,1697A,114.6944,23.7586,河源市,东埔,,48,48,56,20,27,164,138,45,45,11,35,12,7,0.6,0.7
2022-10-22T11:00:00,1698A,114.6892,23.7233,河源市,老城,颗粒物(PM10),56,62,60,23,24,162,131,41,41,13,27,12,6,0.7,0.7
2022-10-22T11:00:00,1699A,111.9797,21.8593,阳江市,鸳鸯湖(对照点),颗粒物(PM10),54,57,45,36,29,173,131,130,62,21,13,9,7,0.8,0.7
2022-10-22T11:00:00,1700A,111.9508,21.8536,阳江市,南恩路,,,,,,,,,,,,,,,,
2022-10-22T11:00:00,1701A,111.9491,21.8658,阳江市,马南垌,颗粒物(PM10),54,58,48,24,27,176,128,117,53,16,22,11,8,0.7,0.7
2022-10-22T11:00:00,1702A,113.0426,23.691,清远市,环保大楼(对照点),臭氧1小时,64,30,51,24,35,246,171,75,70,11,40,10,8,0.6,0.9
2022-10-22T11:00:00,1703A,113.0208,23.7106,清远市,凤城街办,,,44,60,28,36,222,130,77,35,,46,6,5,0.6,0.9
2022-10-22T11:00:00,1705A,116.6367,23.6719,潮州市,西园路(对照点),,43,39,50,30,29,142,70,71,71,14,13,9,9,0.6,0.5
2022-10-22T11:00:00,1706A,116.6447,23.6706,潮州市,档案局,颗粒物(PM10),51,51,49,24,29,141,78,70,70,11,12,12,11,0.7,0.6
2022-10-22T11:00:00,1708A,116.3701,23.5345,揭阳市,新兴,颗粒物(PM10),70,90,59,50,41,159,93,66,66,28,15,15,13,1.0,0.7
2022-10-22T11:00:00,1709A,116.3264,23.5443,揭阳市,西马,颗粒物(PM10),69,88,64,44,36,147,81,53,53,32,18,13,11,0.9,0.7
2022-10-22T11:00:00,1710A,116.3611,23.5626,揭阳市,东兴,,,92,62,48,33,148,82,40,38,,24,12,13,,0.7
2022-10-22T11:00:00,1711A,116.4151,23.5294,揭阳市,渔湖,颗粒物(PM10),77,104,62,46,32,136,66,58,52,35,19,22,11,0.8,0.6
2022-10-22T11:00:00,1712A,112.0392,22.9169,云浮市,新市府(对照点),,,,,,,,,,,,,,,,
2022-10-22T11:00:00,1713A,112.0369,22.9394,云浮市,市监测站,,,,,,,,,,,,,,,,
2022-10-22T11:00:00,1714A,112.0539,22.9539,云浮市,牧羊,颗粒物(PM10),65,80,68,32,36,226,139,39,34,22,42,25,30,0.7,0.8
2022-10-22T11:00:00,1715A,102.575,24.3711,玉溪市,东风水库,,29,29,26,16,16,76,34,15,15,11,14,4,4,0.7,0.8
2022-10-22T11:00:00,1718A,115.4208,35.2464,菏泽市,气象局,颗粒物(PM10),92,134,109,67,58,184,123,103,81,58,38,14,11,0.6,0.6
2022-10-22T11:00:00,1719A,115.4747,35.2375,菏泽市,市政协,细颗粒物(PM2.5),107,143,111,80,66,187,130,105,72,50,46,10,5,0.6,0.5
2022-10-22T11:00:00,1720A,115.455,35.27,菏泽市,菏泽学院,,,,,,,,,,,,,,,,
2022-10-22T11:00:00,1721A,113.3819,40.1097,大同市,果树场(对照点),,,,,,,,,,,,,,,,
2022-10-22T11:00:00,1723A,113.2994,40.0758,大同市,云冈宾馆,,45,45,90,15,28,144,60,58,43,15,19,10,15,0.3,0.4
2022-10-22T11:00:00,1724A,113.3444,40.0917,大同市,大同大学,,33,33,89,3,22,159,68,61,55,8,13,8,13,0.3,0.4
2022-10-22T11:00:00,1725A,113.2661,40.1269,大同市,安家小村,,,,,,,,,,,,,,,,
2022-10-22T11:00:00,1726A,113.2711,40.0844,大同市,教育学院,,47,47,93,8,33,145,61,54,42,10,17,8,21,0.3,0.4
2022-10-22T11:00:00,1727A,113.1147,36.1547,长治市,清华站,颗粒物(PM10),104,158,115,70,67,189,52,13,13,55,63,18,13,1.3,1.1
2022-10-22T11:00:00,1728A,113.1031,36.1989,长治市,监测站,细颗粒物(PM2.5),79,96,98,58,62,172,55,24,22,50,57,17,13,1.0,1.2
2022-10-22T11:00:00,1730A,113.0886,36.2125,长治市,审计局,细颗粒物(PM2.5),83,90,96,61,65,175,56,16,16,44,58,14,9,0.9,1
2022-10-22T11:00:00,1731A,113.0844,36.1856,长治市,长治八中,颗粒物(PM10),81,111,126,55,59,171,60,15,15,43,56,20,14,0.8,0.8
2022-10-22T11:00:00,1733A,111.5531,36.0783,临汾市,临钢医院,细颗粒物(PM2.5),122,93,83,92,86,162,65,48,41,26,28,3,6,1.5,1.3
2022-10-22T11:00:00,1734A,111.5028,36.0714,临汾市,技工学校,细颗粒物(PM2.5),129,106,98,98,97,164,52,40,35,30,32,8,13,1.2,1.3
2022-10-22T11:00:00,1735A,111.5169,36.0822,临汾市,工商学校,,,,,,,,,,,,,,,,
2022-10-22T11:00:00,1736A,111.5018,36.0855,临汾市,市委,细颗粒物(PM2.5),118,88,91,89,88,164,63,39,34,26,32,2,8,1.4,1.2
2022-10-22T11:00:00,1738A,113.5758,37.8572,阳泉市,市中心,颗粒物(PM10),83,115,113,17,49,150,72,64,34,27,58,9,16,0.4,0.8
2022-10-22T11:00:00,1739A,113.4894,37.8731,阳泉市,赛鱼,颗粒物(PM10),57,64,105,18,58,144,68,45,21,26,68,10,17,0.3,0.7
2022-10-22T11:00:00,1740A,113.5819,37.8486,阳泉市,南庄,颗粒物(PM10),58,66,104,36,55,148,76,54,38,21,48,10,19,0.5,0.9
2022-10-22T11:00:00,1741A,113.6292,37.8531,阳泉市,白羊墅,,,,,,,,,,,,,,,,
2022-10-22T11:00:00,1742A,113.5614,37.8703,阳泉市,平坦,颗粒物(PM10),98,145,116,18,56,154,72,50,33,27,62,8,15,0.5,0.9
2022-10-22T11:00:00,1743A,113.5158,37.8392,阳泉市,大阳泉,颗粒物(PM10),54,58,80,24,57,153,76,75,56,24,42,9,16,0.4,0.7
2022-10-22T11:00:00,1744A,118.9233,42.2816,赤峰市,松山一中,,29,29,28,11,12,102,58,58,33,23,26,14,14,0.4,0.5
2022-10-22T11:00:00,1745A,118.9576,42.2728,赤峰市,哈达街,,43,43,35,16,12,116,62,63,34,18,23,15,21,0.5,0.5
2022-10-22T11:00:00,1746A,118.8788,42.2554,赤峰市,天义路,,35,35,30,8,10,108,59,39,39,19,23,16,14,0.4,0.4
2022-10-22T11:00:00,1748A,123.044,41.1196,鞍山市,深沟寺,,23,23,69,11,43,157,65,86,41,16,29,8,11,0.3,0.8
2022-10-22T11:00:00,1749A,123.011,41.0931,鞍山市,太阳城,,22,22,73,6,43,155,65,97,44,14,24,9,10,0.4,0.8
2022-10-22T11:00:00,1750A,123.0485,41.1442,鞍山市,太平,,20,20,81,7,49,134,52,61,35,28,47,10,16,0.2,0.8
2022-10-22T11:00:00,1751A,122.9642,41.0971,鞍山市,铁西三道街,,30,30,114,8,60,149,52,26,26,28,63,29,20,1.7,1.7
2022-10-22T11:00:00,1752A,122.9341,41.0833,鞍山市,铁西工业园区,,26,26,113,9,60,152,58,27,27,19,60,13,18,0.4,1.2
2022-10-22T11:00:00,1753A,123.022,41.0821,鞍山市,明达新区,,23,23,83,9,49,146,58,56,38,12,27,10,11,0.5,1
2022-10-22T11:00:00,1754A,123.1289,41.0228,鞍山市,千山(对照点),,,,,,,,,,,,,,,,
2022-10-22T11:00:00,1755A,123.7977,41.8491,抚顺市,望花区,,23,9,78,4,38,131,72,53,53,9,36,10,15,0.6,1
2022-10-22T11:00:00,1756A,123.9161,41.8822,抚顺市,顺城区,,20,18,78,5,40,122,64,49,49,16,37,10,13,0.6,1
2022-10-22T11:00:00,1757A,124.0436,41.8611,抚顺市,东洲区,,43,21,91,30,46,131,72,53,53,13,33,9,13,0.5,0.9
2022-10-22T11:00:00,1758A,123.9247,41.8642,抚顺市,新抚区,,22,13,88,5,44,132,70,47,47,17,36,2,5,0.5,1
2022-10-22T11:00:00,1759A,124.0972,41.8961,抚顺市,大伙房水库,,21,12,83,4,40,126,67,51,51,8,26,4,8,0.5,0.9
2022-10-22T11:00:00,1760A,123.7086,41.8391,抚顺市,沈抚新城,,22,21,77,6,34,128,69,52,52,7,27,8,10,0.2,0.5
2022-10-22T11:00:00,1761A,123.8275,41.3064,本溪市,大峪,,18,3,59,6,40,128,55,37,37,19,42,10,12,0.5,0.9
2022-10-22T11:00:00,1762A,123.7567,41.3325,本溪市,溪湖,,49,49,110,5,54,150,63,43,43,14,41,11,12,0.4,0.8
2022-10-22T11:00:00,1763A,123.7169,41.3094,本溪市,彩屯,,38,38,98,4,58,141,58,35,30,17,42,9,13,0.6,1
2022-10-22T11:00:00,1764A,123.7669,41.2864,本溪市,东明,,34,34,87,14,46,140,57,36,36,24,58,11,15,0.5,1.1
2022-10-22T11:00:00,1765A,123.7992,41.2664,本溪市,新立屯,,33,33,58,6,36,137,61,38,38,18,55,8,11,0.6,0.9
2022-10-22T11:00:00,1766A,123.8142,41.3472,本溪市,威宁,,25,25,88,7,42,126,56,27,27,15,52,9,9,0.5,0.9
2022-10-22T11:00:00,1767A,121.1115,41.0879,锦州市,南山,,26,26,71,1,64,129,64,52,52,15,38,8,13,0.3,0.9
2022-10-22T11:00:00,1768A,121.0533,40.8434,锦州市,开发区,,,47,85,9,75,125,,35,33,6,42,,13,0.4,1.1
2022-10-22T11:00:00,1769A,121.1836,41.1119,锦州市,百股街道,,37,37,88,7,64,135,68,55,55,12,36,20,20,1.0,1.4
2022-10-22T11:00:00,1770A,121.1178,41.1222,锦州市,天安街道,,22,18,77,11,63,127,70,61,56,12,38,8,16,0.2,1
2022-10-22T11:00:00,1771A,121.1303,41.1386,锦州市,北湖公园,,22,22,69,6,56,140,69,61,59,6,28,10,16,0.5,1.1
2022-10-22T11:00:00,1772A,126.54,43.8622,吉林市,哈达湾,,43,43,70,28,40,131,41,66,27,24,29,10,13,0.6,0.8
2022-10-22T11:00:00,1773A,126.5844,43.8358,吉林市,东局子,颗粒物(PM10),54,58,80,35,43,127,36,55,21,26,33,22,11,0.6,0.8
2022-10-22T11:00:00,1774A,126.5052,43.8245,吉林市,电力学院,细颗粒物(PM2.5),75,89,83,55,42,131,23,27,19,36,31,22,12,0.9,0.8
2022-10-22T11:00:00,1775A,126.6133,43.8972,吉林市,江北,,50,50,74,32,37,128,39,52,25,15,24,5,7,0.6,0.7
2022-10-22T11:00:00,1776A,126.555,43.8306,吉林市,江南公园,颗粒物(PM10),52,53,73,35,39,128,31,43,19,31,31,8,10,0.5,0.6
2022-10-22T11:00:00,1778A,126.7061,43.7133,吉林市,丰满(对照点),,,,,,,,,,,,,,,,
2022-10-22T11:00:00,1779A,123.9305,47.3636,齐齐哈尔市,安居小区,,40,40,38,16,10,62,46,20,20,10,16,5,5,0.4,0.4
2022-10-22T11:00:00,1780A,123.9488,47.3386,齐齐哈尔市,中心广场,,29,29,28,2,5,66,44,31,28,16,13,6,7,0.3,0.3
2022-10-22T11:00:00,1781A,123.9483,47.3227,齐齐哈尔市,农牧车辆厂,,31,31,28,10,5,70,47,28,27,11,11,5,5,0.3,0.3
2022-10-22T11:00:00,1783A,123.945,47.2988,齐齐哈尔市,市环境监测站,,28,28,29,17,15,68,47,31,26,8,10,4,4,0.3,0.3
2022-10-22T11:00:00,1784A,129.61,44.561,牡丹江市,环保大楼,,19,16,53,9,26,118,58,80,56,8,16,1,3,0.3,0.4
2022-10-22T11:00:00,1785A,129.6115,44.5782,牡丹江市,文化广场,,20,20,57,8,26,112,53,76,53,11,18,3,4,0.3,0.5
2022-10-22T11:00:00,1786A,129.5904,44.5963,牡丹江市,第一医院,,17,17,52,7,29,109,54,72,52,8,15,5,6,0.5,0.7
2022-10-22T11:00:00,1787A,129.6364,44.6075,牡丹江市,机车工厂,,32,32,68,5,26,113,61,74,53,6,18,1,2,0.4,0.6
2022-10-22T11:00:00,1788A,129.6386,44.5462,牡丹江市,第一中学,,19,9,53,6,24,118,59,74,55,8,14,1,2,0.3,0.5
2022-10-22T11:00:00,1789A,124.81117,46.03138,大庆市,大同区,,16,16,40,8,21,81,51,32,32,6,17,4,4,0.3,0.4
2022-10-22T11:00:00,1790A,125.129,46.533,大庆市,龙凤区,,31,31,29,12,20,56,44,28,26,12,17,4,6,0.3,0.2
2022-10-22T11:00:00,1791A,124.902,46.408,大庆市,红岗区,,16,7,31,5,21,69,49,29,29,8,18,9,6,0.3,0.4
2022-10-22T11:00:00,1792A,125.153,46.586,大庆市,萨尔图区,,28,14,18,19,15,41,41,30,26,14,18,9,8,0.4,0.5
2022-10-22T11:00:00,1793A,124.9042,46.6215,大庆市,让胡路区,,23,20,34,16,21,61,44,33,30,8,15,5,3,0.2,0.3
2022-10-22T11:00:00,1794A,118.3606,31.3519,芜湖市,监测站,细颗粒物(PM2.5),70,82,93,51,52,90,87,20,20,53,85,15,15,0.8,1.2
2022-10-22T11:00:00,1795A,118.3714,31.4134,芜湖市,科创中心,"颗粒物(PM10),细颗粒物(PM2.5)",60,70,89,43,50,112,112,30,30,43,82,14,12,0.6,1
2022-10-22T11:00:00,1796A,118.3673,31.3131,芜湖市,四水厂,细颗粒物(PM2.5),77,76,89,56,49,99,68,20,20,74,80,16,14,0.8,1.1
2022-10-22T11:00:00,1797A,118.4022,31.3839,芜湖市,济民医院(对照点),,,,,,,,,,,,,,,,
2022-10-22T11:00:00,1798A,118.5092,31.6837,马鞍山市,湖东路四小,颗粒物(PM10),62,73,77,38,40,123,123,37,37,29,69,16,15,0.8,1.2
2022-10-22T11:00:00,1799A,118.5024,31.6449,马鞍山市,开发区,细颗粒物(PM2.5),78,70,76,57,46,118,118,34,34,39,66,22,14,1.0,1.1
2022-10-22T11:00:00,1800A,118.5228,31.7231,马鞍山市,慈湖,细颗粒物(PM2.5),68,43,92,49,49,127,127,31,31,28,76,10,14,0.8,1
2022-10-22T11:00:00,1801A,118.48,31.6928,马鞍山市,马钢动力厂,,,,,,,,,,,,,,,,
2022-10-22T11:00:00,1802A,118.6245,31.7241,马鞍山市,濮塘(对照点),"颗粒物(PM10),细颗粒物(PM2.5)",62,74,51,44,31,127,88,36,30,52,34,20,6,1.6,0.7
2022-10-22T11:00:00,1803A,115.9872,29.6815,九江市,十里,细颗粒物(PM2.5),79,97,84,58,53,201,130,37,37,38,51,22,13,1.2,1
2022-10-22T11:00:00,1804A,115.9584,29.7046,九江市,茅山头,细颗粒物(PM2.5),85,111,84,63,53,188,117,41,31,40,44,30,17,1.4,1.1
2022-10-22T11:00:00,1805A,115.9877,29.7295,九江市,西园,细颗粒物(PM2.5),93,124,99,69,63,176,116,42,42,49,59,31,20,1.3,0.9
2022-10-22T11:00:00,1806A,116.0172,29.6547,九江市,五七二七厂,"颗粒物(PM10),细颗粒物(PM2.5)",73,96,74,53,42,194,128,80,67,40,31,18,12,0.7,0.6
2022-10-22T11:00:00,1808A,115.9114,29.6038,九江市,综合工业园,细颗粒物(PM2.5),83,110,82,61,54,174,119,58,46,48,50,24,16,0.9,0.8
2022-10-22T11:00:00,1809A,116.0721,29.7535,九江市,石化总厂,颗粒物(PM10),88,126,109,58,62,180,136,47,47,32,52,16,15,1.1,0.9
2022-10-22T11:00:00,1810A,115.9773,29.5698,九江市,庐山气象台(对照点),,50,28,23,35,19,154,118,124,124,17,11,10,9,0.7,0.5
2022-10-22T11:00:00,1811A,112.3628,34.6692,洛阳市,中信二小,,,,,,,,,,,,,,,,
2022-10-22T11:00:00,1812A,112.3931,34.6516,洛阳市,市委党校,细颗粒物(PM2.5),110,150,116,83,63,168,83,32,32,46,59,15,9,0.9,0.8
2022-10-22T11:00:00,1814A,112.4657,34.6871,洛阳市,豫西宾馆,颗粒物(PM10),126,201,128,89,74,173,60,15,15,62,63,14,11,0.8,0.7
2022-10-22T11:00:00,1815A,112.494,34.6886,洛阳市,河南林校,细颗粒物(PM2.5),120,126,103,91,66,170,95,30,30,40,56,15,8,0.8,0.7
2022-10-22T11:00:00,1816A,112.3844,34.623,洛阳市,开发区管委会,细颗粒物(PM2.5),73,79,82,53,57,164,88,58,47,22,28,7,6,0.4,0.4
2022-10-22T11:00:00,1817A,112.4267,34.6258,洛阳市,市委新办公区,细颗粒物(PM2.5),78,86,83,57,56,163,92,70,68,25,33,8,8,0.5,0.6
2022-10-22T11:00:00,1818A,114.4839,36.0621,安阳市,棉研所(对照点),,,,,,,,,,,,,,,,
2022-10-22T11:00:00,1819A,114.3551,36.1017,安阳市,红庙街,细颗粒物(PM2.5),98,110,110,73,76,174,115,46,46,29,55,14,16,0.7,0.9
2022-10-22T11:00:00,1820A,114.361,36.0681,安阳市,银杏小区,细颗粒物(PM2.5),109,122,101,82,83,172,117,49,49,28,57,12,17,0.9,1
2022-10-22T11:00:00,1824A,114.3389,34.7781,开封市,肿瘤医院,细颗粒物(PM2.5),114,107,114,86,87,196,105,71,71,31,47,11,7,1.1,0.8
2022-10-22T11:00:00,1826A,114.2885,34.7965,开封市,世纪星幼儿园,细颗粒物(PM2.5),114,115,115,86,83,180,98,74,69,32,47,,10,1.3,1.1
2022-10-22T11:00:00,1828A,113.227,35.2125,焦作市,市环保局,细颗粒物(PM2.5),85,105,104,63,70,167,69,74,35,38,34,15,12,1.2,1.1
2022-10-22T11:00:00,1829A,113.2464,35.1764,焦作市,高新区政府（停运20220628）,,,,,,,,,,,,,,,,
2022-10-22T11:00:00,1830A,113.1992,35.2590,焦作市,影视城(对照点),,,,,,,,,,,,,,,,
2022-10-22T11:00:00,1832A,113.3257,33.742,平顶山市,新华旅馆,细颗粒物(PM2.5),73,68,94,53,63,162,104,44,44,16,40,11,7,0.6,0.7
2022-10-22T11:00:00,1833A,113.2919,33.737,平顶山市,规划设计院,颗粒物(PM10),65,79,93,36,48,178,110,53,53,20,51,10,7,0.3,0.4
2022-10-22T11:00:00,1834A,113.182,33.774,平顶山市,平顶山工学院,颗粒物(PM10),69,87,85,29,45,182,121,63,63,19,31,8,8,0.7,0.7
2022-10-22T11:00:00,1835A,111.1922,34.7752,三门峡市,市政府,细颗粒物(PM2.5),120,98,88,91,72,152,44,15,15,50,76,20,11,0.8,0.7
2022-10-22T11:00:00,1836A,111.1587,34.7942,三门峡市,开发区,细颗粒物(PM2.5),113,129,109,85,73,169,48,50,25,48,35,15,8,0.9,0.8
2022-10-22T11:00:00,1838A,111.143,34.7955,三门峡市,风景区(对照点),,,,,,,,,,,,,,,,
2022-10-22T11:00:00,1839A,111.3009,30.7157,宜昌市,四零三,,,,,,,,,,,,,,,,
2022-10-22T11:00:00,1840A,111.2992,30.6981,宜昌市,白龙岗,细颗粒物(PM2.5),79,88,89,58,65,194,94,93,62,39,38,5,6,0.6,0.7
2022-10-22T11:00:00,1841A,111.3549,30.6465,宜昌市,伍家岗,细颗粒物(PM2.5),77,85,100,56,68,192,87,58,53,44,50,7,7,0.7,0.7
2022-10-22T11:00:00,1842A,111.2628,30.6961,宜昌市,点军区,细颗粒物(PM2.5),77,65,100,56,72,191,75,50,48,43,29,7,8,0.7,0.7
2022-10-22T11:00:00,1843A,111.3275,30.7819,宜昌市,夷陵区,颗粒物(PM10),60,69,94,39,70,190,90,66,54,34,41,10,11,0.6,0.7
2022-10-22T11:00:00,1844A,112.2494,30.3197,荆州市,市图书馆,细颗粒物(PM2.5),125,102,104,95,92,197,99,102,102,46,38,14,10,1.0,0.9
2022-10-22T11:00:00,1845A,112.2008,30.3544,荆州市,市委党校,细颗粒物(PM2.5),105,105,124,79,95,200,114,93,93,35,42,13,9,1.0,1
2022-10-22T11:00:00,1847A,113.1094,29.3578,岳阳市,南湖风景区,细颗粒物(PM2.5),117,103,71,88,57,170,144,104,104,38,28,21,15,1.0,0.8
2022-10-22T11:00:00,1848A,113.1493,29.4251,岳阳市,城陵矶,细颗粒物(PM2.5),92,111,69,68,44,151,130,77,73,50,46,19,8,0.8,0.7
2022-10-22T11:00:00,1849A,113.1497,29.3575,岳阳市,开发区,细颗粒物(PM2.5),104,105,66,78,58,154,150,120,108,31,25,14,13,0.9,0.7
2022-10-22T11:00:00,1850A,113.2621,29.4758,岳阳市,云溪区,细颗粒物(PM2.5),95,101,69,71,49,157,157,112,108,22,25,15,16,0.8,0.7
2022-10-22T11:00:00,1851A,112.9943,29.4402,岳阳市,君山区,细颗粒物(PM2.5),112,98,69,84,57,154,135,80,73,,29,,9,0.8,0.7
2022-10-22T11:00:00,1852A,113.2117,29.355,岳阳市,金凤水库(对照点),细颗粒物(PM2.5),100,95,63,75,48,167,167,124,124,18,19,11,11,0.9,0.8
2022-10-22T11:00:00,1854A,111.6975,28.9703,常德市,市二中,细颗粒物(PM2.5),102,104,64,76,46,146,129,40,38,25,35,15,8,0.6,0.5
2022-10-22T11:00:00,1857A,111.7158,29.1456,常德市,白鹤山(对照点),细颗粒物(PM2.5),104,90,49,78,40,157,148,103,102,13,12,8,4,0.6,0.5
2022-10-22T11:00:00,1858A,110.5319,29.1217,张家界市,永定新区,颗粒物(PM10),54,58,45,36,31,127,103,33,33,14,18,5,4,0.2,0.2
2022-10-22T11:00:00,1859A,110.4697,29.1242,张家界市,电业局,颗粒物(PM10),57,63,38,32,25,132,101,38,35,22,20,6,5,0.4,0.4
2022-10-22T11:00:00,1860A,110.5594,29.3547,张家界市,未央路,细颗粒物(PM2.5),62,56,39,44,30,142,142,63,63,8,9,6,4,0.2,0.1
2022-10-22T11:00:00,1861A,110.4417,29.315,张家界市,袁家界(对照点),细颗粒物(PM2.5),60,58,37,43,31,160,160,151,151,14,14,12,10,0.6,0.6
2022-10-22T11:00:00,1862A,110.4144,25.3167,桂林市,电子科大尧山校区(对照点),臭氧1小时,73,68,60,44,45,178,178,165,165,10,10,13,16,0.7,0.7
2022-10-22T11:00:00,1863A,110.2819,25.2697,桂林市,监测站,细颗粒物(PM2.5),70,84,75,51,50,192,164,158,158,14,17,11,12,0.7,0.7
2022-10-22T11:00:00,1864A,110.3089,25.2708,桂林市,龙隐路小学,细颗粒物(PM2.5),72,69,64,52,51,182,156,155,144,10,13,13,16,0.7,0.7
2022-10-22T11:00:00,1865A,110.2869,25.2178,桂林市,八中,颗粒物(PM10),70,89,67,48,45,188,163,155,150,20,20,12,13,0.5,0.5
2022-10-22T11:00:00,1866A,109.2262,21.588,北海市,牛尾岭水库(对照点),,,,,,,,,,,,,,,,
2022-10-22T11:00:00,1867A,109.1436,21.4086,北海市,海滩公园,细颗粒物(PM2.5),64,72,69,46,45,209,120,110,97,15,15,12,11,0.9,0.9
2022-10-22T11:00:00,1868A,109.0981,21.4661,北海市,新市环保局,细颗粒物(PM2.5),73,62,64,53,55,181,105,108,95,13,16,14,12,0.7,0.7
2022-10-22T11:00:00,1869A,109.1778,21.5233,北海市,北海工业园,"颗粒物(PM10),细颗粒物(PM2.5)",70,89,85,51,54,179,111,75,64,23,24,14,11,0.7,0.7
2022-10-22T11:00:00,1870A,109.4856,24.3895,柳州市,柳东小学,细颗粒物(PM2.5),62,62,54,44,40,168,144,106,106,8,11,12,24,0.7,0.6
2022-10-22T11:00:00,1871A,109.4157,24.3277,柳州市,环保监测站,颗粒物(PM10),63,75,74,42,47,177,138,91,91,20,34,17,25,0.6,0.9
2022-10-22T11:00:00,1872A,109.389,24.341,柳州市,河西水厂,细颗粒物(PM2.5),72,74,81,52,51,168,107,78,78,33,32,32,24,2.0,1.5
2022-10-22T11:00:00,1873A,109.4311,24.2921,柳州市,市四中,颗粒物(PM10),65,79,83,40,46,174,138,91,91,12,29,17,22,0.6,1
2022-10-22T11:00:00,1874A,109.4006,24.3631,柳州市,市九中,颗粒物(PM10),59,68,76,40,46,174,126,93,93,16,27,18,26,1.0,1.2
2022-10-22T11:00:00,1875A,109.4958,24.3134,柳州市,古亭山,细颗粒物(PM2.5),57,62,55,40,39,171,136,68,68,9,37,16,16,0.7,0.7
2022-10-22T11:00:00,1876A,109.5078,18.2489,三亚市,河东子站,,41,38,15,14,7,130,130,86,86,7,4,4,2,0.3,0.3
2022-10-22T11:00:00,1877A,109.4964,18.2681,三亚市,河西子站,,30,25,13,16,7,94,94,64,64,8,5,2,2,0.3,0.3
2022-10-22T11:00:00,1878A,104.7778,31.4741,绵阳市,富乐山,,49,43,44,34,31,157,80,44,44,15,27,6,5,0.5,0.6
2022-10-22T11:00:00,1879A,104.7563,31.4535,绵阳市,市人大,颗粒物(PM10),55,60,65,23,39,146,58,24,24,34,55,6,5,0.6,0.7
2022-10-22T11:00:00,1880A,104.6697,31.4668,绵阳市,高新区自来水公司,细颗粒物(PM2.5),77,81,76,56,38,160,64,25,25,38,55,13,12,0.7,0.7
2022-10-22T11:00:00,1881A,104.7287,31.5075,绵阳市,三水厂,颗粒物(PM10),69,88,78,49,42,152,40,9,9,37,48,4,5,0.6,0.6
2022-10-22T11:00:00,1882A,104.563,28.793,宜宾市,石马中学(对照点),细颗粒物(PM2.5),88,81,97,65,67,186,93,27,27,25,40,9,9,1.0,1.1
2022-10-22T11:00:00,1883A,104.6201,28.7728,宜宾市,市委,细颗粒物(PM2.5),79,88,98,58,65,206,102,33,33,44,58,11,12,0.7,0.8
2022-10-22T11:00:00,1884A,104.6055,28.793,宜宾市,宜宾四中,细颗粒物(PM2.5),89,94,106,66,71,207,103,41,41,41,55,8,9,0.8,0.8
2022-10-22T11:00:00,1885A,104.639,28.7562,宜宾市,市政府,,,,119,,66,210,102,37,37,51,75,9,9,0.7,0.9
2022-10-22T11:00:00,1886A,104.5742,28.7199,宜宾市,黄金嘴,细颗粒物(PM2.5),78,81,97,57,68,204,124,58,58,20,47,11,11,0.8,0.9
2022-10-22T11:00:00,1888A,101.6891,26.571,攀枝花市,弄弄坪,细颗粒物(PM2.5),79,90,92,58,57,162,48,38,38,29,41,32,26,1.0,1.8
2022-10-22T11:00:00,1889A,101.5769,26.5928,攀枝花市,河门口,"颗粒物(PM10),细颗粒物(PM2.5)",69,88,62,50,38,172,36,43,27,33,24,36,23,2.2,1.7
2022-10-22T11:00:00,1890A,101.7169,26.585,攀枝花市,炳草岗,细颗粒物(PM2.5),88,68,69,65,59,157,38,39,38,33,47,46,32,1.0,1.6
2022-10-22T11:00:00,1891A,101.7369,26.5008,攀枝花市,仁和,细颗粒物(PM2.5),87,90,59,64,41,150,74,46,26,26,22,115,25,1.7,1.2
2022-10-22T11:00:00,1893A,105.4324,28.9634,泸州市,九狮山(对照点),细颗粒物(PM2.5),130,133,88,99,84,137,7,24,4,78,32,14,14,0.7,0.6
2022-10-22T11:00:00,1894A,105.4427,28.9063,泸州市,小市上码头,细颗粒物(PM2.5),178,163,134,134,100,199,24,14,14,72,59,18,13,1.1,0.9
2022-10-22T11:00:00,1895A,105.4241,28.8573,泸州市,兰田宪桥,细颗粒物(PM2.5),147,144,133,112,102,196,24,46,27,65,39,14,15,1.1,1
2022-10-22T11:00:00,1896A,105.4379,28.8833,泸州市,市环监站,细颗粒物(PM2.5),142,136,126,108,97,169,40,48,42,60,50,14,15,0.7,0.8
2022-10-22T11:00:00,1897A,104.7547,29.3628,自贡市,大塘山(对照点),,,,,,,,,,,,,,,,
2022-10-22T11:00:00,1900A,104.7692,29.3411,自贡市,春华路,,,,,,,,,,,,,,,,
2022-10-22T11:00:00,1901A,104.4239,31.1208,德阳市,东山公园,颗粒物(PM10),61,72,88,37,45,155,73,68,42,26,37,7,16,0.6,0.7
2022-10-22T11:00:00,1902A,104.3826,31.1317,德阳市,西小区,颗粒物(PM10),70,89,93,43,50,154,63,15,15,34,56,7,12,0.7,0.8
2022-10-22T11:00:00,1903A,104.4053,31.1167,德阳市,市检察院,,,,,,,,,,,,,,,,
2022-10-22T11:00:00,1904A,104.3553,31.1091,德阳市,耐火材料厂,细颗粒物(PM2.5),74,75,109,54,60,150,61,16,16,36,58,9,14,0.6,0.7
2022-10-22T11:00:00,1905A,106.056,30.8064,南充市,西山风景区(对照点),,,,,,,,,,,,,,,,
2022-10-22T11:00:00,1906A,106.0789,30.8023,南充市,南充市委,细颗粒物(PM2.5),79,82,71,58,41,151,61,51,38,34,27,15,8,0.9,0.7
2022-10-22T11:00:00,1907A,106.1031,30.8217,南充市,南充炼油厂,细颗粒物(PM2.5),70,85,83,51,47,156,66,39,39,24,34,16,13,0.6,0.6
2022-10-22T11:00:00,1908A,106.1064,30.7856,南充市,高坪区监测站,细颗粒物(PM2.5),79,95,86,58,52,142,67,28,28,14,36,15,10,0.5,0.6
2022-10-22T11:00:00,1909A,106.0642,30.7636,南充市,嘉陵区环保局,细颗粒物(PM2.5),82,93,76,60,53,161,78,46,46,28,35,22,23,0.6,0.6
2022-10-22T11:00:00,1910A,106.1087,30.8388,南充市,市环境监测站,细颗粒物(PM2.5),79,88,75,58,50,144,60,42,42,24,32,12,12,0.6,0.6
2022-10-22T11:00:00,1911A,106.9222,27.6869,遵义市,丁字口,细颗粒物(PM2.5),78,51,65,57,54,133,89,44,44,27,31,18,13,1.0,1
2022-10-22T11:00:00,1912A,106.9242,27.7019,遵义市,凤凰山,颗粒物(PM10),64,77,69,45,43,151,114,74,65,20,28,9,9,0.8,0.7
2022-10-22T11:00:00,1913A,106.8906,27.6486,遵义市,忠庄,"颗粒物(PM10),细颗粒物(PM2.5)",63,76,78,45,47,147,120,41,41,22,36,8,6,0.6,0.7
2022-10-22T11:00:00,1914A,106.9231,27.6506,遵义市,舟水桥,颗粒物(PM10),68,86,80,43,48,147,90,25,25,32,32,14,7,0.7,0.7
2022-10-22T11:00:00,1915A,106.9178,27.72,遵义市,干田坝,细颗粒物(PM2.5),70,78,66,51,43,142,108,53,53,28,31,13,10,0.7,0.7
2022-10-22T11:00:00,1916A,103.7897,25.5035,曲靖市,环境监测站,,22,16,26,15,19,118,62,51,37,16,13,4,4,0.7,1
2022-10-22T11:00:00,1917A,103.8,25.5364,曲靖市,烟厂办公区,,29,29,22,15,15,119,57,51,37,13,12,11,8,0.5,0.6
2022-10-22T11:00:00,1918A,108.7197,34.3956,咸阳市,气象站(对照点),颗粒物(PM10),128,205,158,96,92,129,19,6,6,102,77,12,10,1.2,1
2022-10-22T11:00:00,1919A,108.673,34.3155,咸阳市,实验中学,细颗粒物(PM2.5),140,222,180,107,86,166,22,8,8,84,70,7,6,1.2,1.1
2022-10-22T11:00:00,1920A,108.7233,34.3617,咸阳市,师范学院,细颗粒物(PM2.5),150,221,176,115,101,151,28,6,6,112,71,10,8,1.2,1
2022-10-22T11:00:00,1922A,109.0656,35.0994,铜川市,党校(对照点),,48,48,98,10,57,110,67,46,46,28,62,14,15,0.2,0.7
2022-10-22T11:00:00,1923A,109.0697,35.0697,铜川市,王益区政府,颗粒物(PM10),65,80,98,11,48,142,76,31,31,24,47,15,19,0.4,0.8
2022-10-22T11:00:00,1924A,108.9344,34.9058,铜川市,新区管委会,颗粒物(PM10),58,66,100,10,41,147,79,79,64,18,35,14,13,0.3,0.7
2022-10-22T11:00:00,1925A,108.9589,34.8731,铜川市,新区兰芝公司,,,,,,,,,,,,,,,,
2022-10-22T11:00:00,1926A,109.4131,36.6275,延安市,枣园(对照点),,40,40,47,13,21,146,48,20,19,17,32,5,5,0.3,0.3
2022-10-22T11:00:00,1927A,109.4761,36.6028,延安市,延大医附院,颗粒物(PM10),56,62,57,15,24,144,33,14,14,28,43,5,5,0.5,0.6
2022-10-22T11:00:00,1928A,109.4824,36.5767,延安市,市监测站,,,,,,,,,,,,,,,,
2022-10-22T11:00:00,1929A,109.5056,36.6106,延安市,百米大道,颗粒物(PM10),55,60,66,21,32,141,38,12,12,31,52,7,8,0.6,0.7
2022-10-22T11:00:00,1930A,107.185,34.3063,宝鸡市,庙沟村(对照点),颗粒物(PM10),51,52,60,18,27,145,84,103,58,13,28,7,6,0.4,0.5
2022-10-22T11:00:00,1931A,107.0708,34.3017,宝鸡市,竹园沟,颗粒物(PM10),52,53,55,18,30,158,66,83,65,32,28,7,7,0.5,0.6
2022-10-22T11:00:00,1932A,107.1906,34.3672,宝鸡市,三陆医院,颗粒物(PM10),67,84,91,30,48,160,34,38,35,40,40,8,8,0.8,0.8
2022-10-22T11:00:00,1933A,107.1431,34.3547,宝鸡市,监测站,颗粒物(PM10),55,60,67,25,36,156,39,44,38,41,39,7,7,0.6,0.6
2022-10-22T11:00:00,1934A,107.1186,34.3739,宝鸡市,技工学校,颗粒物(PM10),56,62,76,31,49,161,61,50,49,24,34,13,7,0.6,0.7
2022-10-22T11:00:00,1935A,107.3906,34.3528,宝鸡市,陈仓区环保局家属楼,颗粒物(PM10),73,95,121,33,46,157,34,28,28,41,56,10,9,0.8,0.9
2022-10-22T11:00:00,1936A,107.2058,34.3497,宝鸡市,文理学院,颗粒物(PM10),59,68,83,28,47,160,45,44,40,40,44,9,8,0.5,0.6
2022-10-22T11:00:00,1937A,107.2386,34.3622,宝鸡市,三迪小学,颗粒物(PM10),63,76,96,30,52,163,42,36,30,42,55,9,9,0.6,0.8
2022-10-22T11:00:00,1938A,109.5293,34.5101,渭南市,农科所(对照点),细颗粒物(PM2.5),138,161,117,105,72,159,69,43,39,50,51,13,10,0.9,0.7
2022-10-22T11:00:00,1939A,109.4974,34.4877,渭南市,日报社,细颗粒物(PM2.5),153,146,121,117,90,155,73,24,24,49,70,18,13,0.7,0.6
2022-10-22T11:00:00,1940A,109.4636,34.493,渭南市,体育馆,细颗粒物(PM2.5),150,129,124,115,90,166,71,49,32,49,72,19,15,0.8,0.7
2022-10-22T11:00:00,1941A,109.4259,34.5023,渭南市,高新一小,细颗粒物(PM2.5),160,150,145,122,102,155,56,14,14,47,70,20,14,0.8,0.8
2022-10-22T11:00:00,1943A,102.1725,38.5339,金昌市,新川苑,颗粒物(PM10),89,127,86,44,27,90,71,36,36,28,30,50,12,0.9,0.8
2022-10-22T11:00:00,1944A,102.1692,38.5167,金昌市,天庆家园,颗粒物(PM10),78,106,71,36,23,89,79,32,32,28,33,83,12,1.0,0.9
2022-10-22T11:00:00,1945A,98.2908,39.7711,嘉峪关市,气象局,颗粒物(PM10),52,53,65,22,18,93,75,58,58,18,26,77,11,0.4,0.3
2022-10-22T11:00:00,1947A,106.3394,38.817,石嘴山市,沙湖旅游区(对照点),颗粒物(PM10),58,66,82,23,35,131,62,40,40,22,22,24,17,0.8,0.7
2022-10-22T11:00:00,1948A,106.3668,39.0145,石嘴山市,大武口朝阳西街,颗粒物(PM10),65,80,67,26,29,95,56,43,30,25,21,27,12,0.7,0.5
2022-10-22T11:00:00,1949A,106.7704,39.2282,石嘴山市,惠农南大街,颗粒物(PM10),61,71,70,37,18,84,36,44,32,31,27,31,21,1.0,1.1
2022-10-22T11:00:00,1950A,106.7099,39.1325,石嘴山市,红果子镇惠新街,颗粒物(PM10),94,137,77,37,18,91,39,80,30,38,18,53,20,1.5,0.6
2022-10-22T11:00:00,1951A,84.895,45.6094,克拉玛依市,长征新村,,20,11,19,0,8,93,63,73,69,7,7,5,6,0.2,0.2
2022-10-22T11:00:00,1952A,84.8988,45.5893,克拉玛依市,南林小区,,20,15,18,10,15,96,62,70,69,9,9,1,2,0.3,0.3
2022-10-22T11:00:00,1953A,85.1186,45.6886,克拉玛依市,白碱滩区,,,,,,,,,,,,,,,,
2022-10-22T11:00:00,1954A,84.905,44.3396,克拉玛依市,独山子区,,45,45,35,29,21,83,50,56,54,29,19,9,9,0.6,0.4
2022-10-22T11:00:00,1955A,85.6979,46.098,克拉玛依市,乌尔禾区商贸楼,,18,9,18,12,11,88,45,53,52,8,10,2,3,0.2,0.2
2022-10-22T11:00:00,1956A,86.1472,41.7538,巴音郭楞州,孔雀公园,颗粒物(PM10),117,183,321,49,83,86,54,14,14,13,23,4,3,0.3,0.2
2022-10-22T11:00:00,1957A,86.1972,41.7166,巴音郭楞州,棉纺厂,颗粒物(PM10),100,149,261,30,60,93,74,51,51,9,10,5,5,0.1,0.2
2022-10-22T11:00:00,1958A,86.2357,41.7173,巴音郭楞州,经济开发区,颗粒物(PM10),109,168,266,27,56,92,77,63,53,8,8,6,6,0.3,0.2
2022-10-22T11:00:00,1959A,118.746,36.881,寿光市,监测站,,,,,,,,,,,,,,,,
2022-10-22T11:00:00,1960A,118.780,36.864,寿光市,世纪学校,,,,,,,,,,,,,,,,
2022-10-22T11:00:00,1961A,117.532,36.6868,济南市,东山小学,颗粒物(PM10),84,117,86,42,31,160,132,112,59,31,49,8,6,1.1,0.3
2022-10-22T11:00:00,1962A,117.541,36.710,章丘市,明水开发区,,,,,,,,,,,,,,,,
2022-10-22T11:00:00,1963A,120.610,36.440,即墨市,环保局子站,,,,,,,,,,,,,,,,
2022-10-22T11:00:00,1964A,120.470,36.390,即墨市,开发区子站,,,,,,,,,,,,,,,,
2022-10-22T11:00:00,1965A,120.005,35.878,胶南市,JN子站,,,,,,,,,,,,,,,,
2022-10-22T11:00:00,1966A,120.0405,35.8735,青岛市,黄岛区4号,颗粒物(PM10),65,80,38,39,19,134,131,79,69,39,30,19,9,0.9,0.8
2022-10-22T11:00:00,1967A,120.008,36.283,胶州市,胶州环保局,,,,,,,,,,,,,,,,
2022-10-22T11:00:00,1968A,120.014,36.253,胶州市,胶州一中,,,,,,,,,,,,,,,,
2022-10-22T11:00:00,1969A,120.537,36.865,莱西市,环保局子站,,,,,,,,,,,,,,,,
2022-10-22T11:00:00,1970A,120.515,36.885,莱西市,人民广场子站,,,,,,,,,,,,,,,,
2022-10-22T11:00:00,1971A,119.952,36.792,平度市,1号,,,,,,,,,,,,,,,,
2022-10-22T11:00:00,1972A,119.976,36.799,平度市,2号,,,,,,,,,,,,,,,,
2022-10-22T11:00:00,1973A,120.747,37.825,蓬莱市,蓬莱环保局,,,,,,,,,,,,,,,,
2022-10-22T11:00:00,1974A,120.773,37.809,蓬莱市,蓬莱博物馆,,,,,,,,,,,,,,,,
2022-10-22T11:00:00,1975A,120.399,37.374,招远市,招远环保局,,,,,,,,,,,,,,,,
2022-10-22T11:00:00,1976A,120.394,37.364,招远市,招远教育局,,,,,,,,,,,,,,,,
2022-10-22T11:00:00,1977A,119.941,37.177,莱州市,莱州环保局,,,,,,,,,,,,,,,,
2022-10-22T11:00:00,1978A,119.959,37.180,莱州市,莱州外经委,,,,,,,,,,,,,,,,
2022-10-22T11:00:00,1979A,122.471,37.154,荣成市,荣成市环保局办公楼,,,,,,,,,,,,,,,,
2022-10-22T11:00:00,1980A,122.410,37.161,荣成市,山东成山轮胎公司,,,,,,,,,,,,,,,,
2022-10-22T11:00:00,1981A,122.038,37.197,文登市,文登市环保局,,,,,,,,,,,,,,,,
2022-10-22T11:00:00,1982A,122.0693,37.2174,威海市,文登开发区,颗粒物(PM10),60,70,29,39,12,119,119,83,62,23,21,11,5,0.6,0.4
2022-10-22T11:00:00,1983A,121.531,36.913,乳山市,乳山市环保局,,,,,,,,,,,,,,,,
2022-10-22T11:00:00,1984A,121.544,36.907,乳山市,乳山市气象局,,,,,,,,,,,,,,,,
2022-10-22T11:00:00,1985A,120.636,31.155,吴江市,吴江市环保局,,,,,,,,,,,,,,,,
2022-10-22T11:00:00,1986A,120.635,31.170,吴江市,教师进修学校,,,,,,,,,,,,,,,,
2022-10-22T11:00:00,1987A,120.658,31.172,吴江市,吴江开发区,,,,,,,,,,,,,,,,
2022-10-22T11:00:00,1988A,120.953,31.388,昆山市,昆山实验小学,,,,,,,,,,,,,,,,
2022-10-22T11:00:00,1989A,120.999,31.381,昆山市,震川中学,,,,,,,,,,,,,,,,
2022-10-22T11:00:00,1990A,120.758,31.670,常熟市,海虞子站,,,,,,,,,,,,,,,,
2022-10-22T11:00:00,1991A,120.721,31.671,常熟市,兴福子站,,,,,,,,,,,,,,,,
2022-10-22T11:00:00,1992A,120.734,31.656,常熟市,菱塘子站,,,,,,,,,,,,,,,,
2022-10-22T11:00:00,1993A,120.526,31.874,张家港市,张家港市监测站,,,,,,,,,,,,,,,,
2022-10-22T11:00:00,1994A,120.550,31.882,张家港市,城北小学,,,,,,,,,,,,,,,,
2022-10-22T11:00:00,1995A,121.115,31.453,太仓市,太仓市监测站,,,,,,,,,,,,,,,,
2022-10-22T11:00:00,1996A,121.140,31.422,太仓市,科教新城实小,,,,,,,,,,,,,,,,
2022-10-22T11:00:00,1997A,119.146,31.955,句容市,消防指挥中心,,,,,,,,,,,,,,,,
2022-10-22T11:00:00,1998A,119.180,31.955,句容市,房家坝,,,,,,,,,,,,,,,,
2022-10-22T11:00:00,1999A,120.268,31.920,江阴市,虹桥邮政,,,,,,,,,,,,,,,,
2022-10-22T11:00:00,2000A,120.237,31.909,江阴市,五星公园,,,,,,,,,,,,,,,,
2022-10-22T11:00:00,2001A,120.302,31.920,江阴市,第二实验小学,,,,,,,,,,,,,,,,
2022-10-22T11:00:00,2002A,119.818,31.354,宜兴市,宜兴市环保局,,,,,,,,,,,,,,,,
2022-10-22T11:00:00,2003A,119.794,31.371,宜兴市,宜园,,,,,,,,,,,,,,,,
2022-10-22T11:00:00,2004A,119.579,31.751,金坛市,金坛市环境监测站,,,,,,,,,,,,,,,,
2022-10-22T11:00:00,2005A,119.579,31.737,金坛市,金坛市自来水公司,,,,,,,,,,,,,,,,
2022-10-22T11:00:00,2006A,119.460,31.400,溧阳市,溧阳市东门子站,,,,,,,,,,,,,,,,
2022-10-22T11:00:00,2007A,119.438,31.317,溧阳市,燕山子站,,,,,,,,,,,,,,,,
2022-10-22T11:00:00,2008A,121.173,31.896,海门市,海门市监测站,,,,,,,,,,,,,,,,
2022-10-22T11:00:00,2009A,121.1518,31.89708,海门市,社会福利院,,,,,,,,,,,,,,,,
2022-10-22T11:00:00,2010A,119.7183,30.2366,临安市,市政府,,,,,,,,,,,,,,,,
2022-10-22T11:00:00,2011A,119.6942,30.2311,临安市,四中,,,,,,,,,,,,,,,,
2022-10-22T11:00:00,2012A,119.954,30.054,富阳市,监测站,,,,,,,,,,,,,,,,
2022-10-22T11:00:00,2013A,119.946,30.049,富阳市,富春二小,,,,,,,,,,,,,,,,
2022-10-22T11:00:00,2014A,120.091,29.305,义乌市,江东,,,,,,,,,,,,,,,,
2022-10-22T11:00:00,2015A,120.040,29.334,义乌市,北苑,,,,,,,,,,,,,,,,
2022-10-22T11:00:00,2016A,120.251,29.719,诸暨市,图书馆,,,,,,,,,,,,,,,,
2022-10-22T11:00:00,2017A,120.209,29.732,诸暨市,富林印务,,,,,,,,,,,,,,,,
2022-10-22T11:00:00,2018A,121.989,39.625,瓦房店市,抱龙山庄,,,,,,,,,,,,,,,,
2022-10-22T11:00:00,2019A,122.011,39.617,瓦房店市,东山公园,,,,,,,,,,,,,,,,
2022-10-22T11:00:00,2031A,113.1817,27.9958,株洲市,云田中学,细颗粒物(PM2.5),95,85,65,71,50,220,141,97,80,23,27,8,8,0.7,0.5
2022-10-22T11:00:00,2054A,114.1099,32.1059,信阳市,平桥分局,颗粒物(PM10),65,80,61,40,31,151,122,53,53,28,30,11,9,0.8,0.7
2022-10-22T11:00:00,2064A,113.9956,32.1271,信阳市,南湾水厂,,48,48,40,7,6,155,128,104,97,16,16,9,7,0.6,0.6
2022-10-22T11:00:00,2065A,114.0775,32.1195,信阳市,市酿酒公司,颗粒物(PM10),51,52,45,34,27,150,131,40,40,24,42,11,9,0.8,0.8
2022-10-22T11:00:00,2066A,114.0609,32.1399,信阳市,审计局,细颗粒物(PM2.5),63,69,57,45,35,148,133,42,42,22,42,9,7,0.6,0.7
2022-10-22T11:00:00,2067A,114.6613,33.6128,周口市,市环境监测站,细颗粒物(PM2.5),130,177,111,99,74,189,127,95,44,34,39,12,10,0.9,0.9
2022-10-22T11:00:00,2068A,114.6758,33.6347,周口市,周口师范,细颗粒物(PM2.5),195,181,95,146,67,187,120,114,50,47,34,13,8,1.1,0.7
2022-10-22T11:00:00,2069A,114.6546,33.5979,周口市,市运管处,细颗粒物(PM2.5),129,193,110,98,69,189,124,118,37,36,44,7,6,0.9,0.8
2022-10-22T11:00:00,2070A,114.6369,33.6406,周口市,川汇区环保局,细颗粒物(PM2.5),158,188,113,120,75,184,116,92,55,57,42,7,5,0.7,0.7
2022-10-22T11:00:00,2075A,117.6336,24.4674,漳州市,九湖(对照点),,,,,,,,,,,,,,,,
2022-10-22T11:00:00,2160A,112.85,35.5051,晋城市,自来水公司,细颗粒物(PM2.5),113,69,102,85,61,170,103,62,41,34,49,19,11,1.9,1.6
2022-10-22T11:00:00,2161A,112.8318,35.4936,晋城市,白云商贸,细颗粒物(PM2.5),104,81,94,78,51,159,99,39,39,30,40,15,8,1.5,1.3
2022-10-22T11:00:00,2162A,112.8508,35.4887,晋城市,市环保局,细颗粒物(PM2.5),113,141,87,85,59,167,84,26,26,44,58,19,9,2.0,1.2
2022-10-22T11:00:00,2163A,112.8676,35.4897,晋城市,技术学院,细颗粒物(PM2.5),125,80,96,95,64,158,98,32,32,36,55,21,9,1.6,1
2022-10-22T11:00:00,2164A,112.8271,35.4828,晋城市,泽州一中,,,,,,,,,,,,,,,,
2022-10-22T11:00:00,2165A,112.8453,35.546,晋城市,白马寺 (对照点),,,,,,,,,,,,,,,,
2022-10-22T11:00:00,2166A,112.4397,39.3522,朔州市,平朔,颗粒物(PM10),95,139,136,33,30,134,50,60,16,28,32,17,16,0.3,0.4
2022-10-22T11:00:00,2167A,112.4575,39.3617,朔州市,朔唯,颗粒物(PM10),98,146,143,35,32,142,41,21,13,39,38,23,20,0.4,0.5
2022-10-22T11:00:00,2168A,112.4258,39.3197,朔州市,区政府,颗粒物(PM10),100,150,122,27,28,133,65,64,34,16,24,7,9,0.4,0.5
2022-10-22T11:00:00,2169A,112.4072,39.3278,朔州市,市环保局,颗粒物(PM10),104,157,127,38,35,130,67,62,34,20,27,8,11,0.5,0.5
2022-10-22T11:00:00,2170A,112.4272,39.3681,朔州市,市二中,颗粒物(PM10),122,193,137,37,33,141,42,51,18,36,31,25,18,0.3,0.4
2022-10-22T11:00:00,2171A,112.7532,37.6945,晋中市,锦纶小区,颗粒物(PM10),70,89,152,31,83,150,40,14,14,38,60,10,13,0.4,0.8
2022-10-22T11:00:00,2173A,112.7249,37.7067,晋中市,南都小区,颗粒物(PM10),53,55,175,24,89,153,60,15,15,18,71,7,11,0.2,1
2022-10-22T11:00:00,2174A,112.6991,37.6982,晋中市,榆次区政府,颗粒物(PM10),55,60,153,30,91,150,64,17,17,20,66,11,14,0.3,1
2022-10-22T11:00:00,2175A,110.9956,35.0147,运城市,运城中学,细颗粒物(PM2.5),135,149,124,103,92,161,78,68,42,17,16,20,16,1.7,1.1
2022-10-22T11:00:00,2176A,111.0233,35.0611,运城市,禹都开发区,,,,,,,,,,,,,,,,
2022-10-22T11:00:00,2178A,110.9686,35.0303,运城市,地区技校,细颗粒物(PM2.5),127,161,128,96,85,182,91,78,40,19,22,22,16,1.3,1
2022-10-22T11:00:00,2179A,111.0414,35.1147,运城市,空港新区,细颗粒物(PM2.5),162,176,141,123,102,185,103,84,36,23,32,20,19,2.2,1.5
2022-10-22T11:00:00,2181A,112.7383,38.4519,忻州市,开发区,颗粒物(PM10),75,100,104,28,45,134,54,57,42,25,45,17,20,0.4,0.6
2022-10-22T11:00:00,2182A,112.7003,38.4928,忻州市,会展中心,颗粒物(PM10),73,96,103,21,42,140,60,64,38,19,45,13,17,0.2,0.5
2022-10-22T11:00:00,2183A,111.1406,37.5211,吕梁市,环保局,颗粒物(PM10),70,90,106,14,29,139,28,7,7,36,57,8,6,0.5,0.5
2022-10-22T11:00:00,2185A,111.1297,37.5136,吕梁市,自来水公司,颗粒物(PM10),84,117,128,23,35,134,26,7,7,35,52,6,6,0.5,0.7
2022-10-22T11:00:00,2186A,106.8288,39.6778,乌海市,聚英学校,,,,,,,,,,,,,,,,
2022-10-22T11:00:00,2187A,106.8174,39.6973,乌海市,市林业局,,48,48,49,21,21,96,80,49,49,15,18,16,7,0.5,0.4
2022-10-22T11:00:00,2188A,106.7907,39.6667,乌海市,中海勃湾学校,,46,46,56,25,25,99,82,48,25,33,27,52,8,2.2,0.4
2022-10-22T11:00:00,2191A,122.2532,43.6801,通辽市,艺术职业学校,,28,28,40,15,8,81,58,68,47,15,22,5,6,0.0,0
2022-10-22T11:00:00,2192A,119.7594,49.2261,呼伦贝尔市,区环保局,,16,16,38,10,26,55,43,24,24,9,25,5,5,0.4,0.6
2022-10-22T11:00:00,2194A,107.5936,40.916,巴彦淖尔市,秋林养殖基地(对照点),,,,,,,,,,,,,,,,
2022-10-22T11:00:00,2195A,107.4212,40.761,巴彦淖尔市,附二中,颗粒物(PM10),62,73,130,24,33,85,59,67,40,15,14,3,5,0.4,0.4
2022-10-22T11:00:00,2196A,107.37,40.7372,巴彦淖尔市,市环保大楼,颗粒物(PM10),76,101,123,24,34,92,66,69,40,12,16,4,3,0.4,0.4
2022-10-22T11:00:00,2197A,113.1306,40.9923,乌兰察布市,集宁新区,,48,48,80,14,29,137,48,68,46,22,15,12,10,0.5,0.4
2022-10-22T11:00:00,2200A,122.0392,46.0656,兴安盟,胜华新制药厂,,22,22,38,11,18,76,53,29,19,9,17,2,3,0.2,0.3
2022-10-22T11:00:00,2201A,121.9504,46.0741,兴安盟,科右前旗环保局,,24,24,31,11,19,76,53,36,16,13,19,3,4,0.2,0.2
2022-10-22T11:00:00,2202A,116.1042,43.9317,锡林郭勒盟,市环保监测站,,20,19,12,9,6,80,62,62,52,5,5,7,9,0.2,0.2
2022-10-22T11:00:00,2203A,116.0781,43.9311,锡林郭勒盟,市政府,,19,4,13,2,4,74,59,58,48,6,7,9,10,0.2,0.2
2022-10-22T11:00:00,2204A,105.6467,38.8363,阿拉善盟,西城区西花园(对照点),,33,33,27,7,10,92,80,71,65,13,14,8,7,0.3,0.3
2022-10-22T11:00:00,2205A,105.6985,38.8411,阿拉善盟,蒙二幼,,37,37,30,24,15,91,82,78,70,10,8,8,9,0.2,0.3
2022-10-22T11:00:00,2206A,105.724,38.8516,阿拉善盟,环保局新楼,,28,18,19,14,10,93,87,88,88,10,7,5,5,0.3,0.3
2022-10-22T11:00:00,2207A,121.6094,41.998,阜新市,工业园区,,26,26,40,6,10,114,69,56,56,15,25,5,7,0.3,0.3
2022-10-22T11:00:00,2208A,121.6697,42.0279,阜新市,长青街,,22,22,38,7,17,123,69,57,57,10,24,4,6,0.3,0.4
2022-10-22T11:00:00,2209A,121.6673,42.0705,阜新市,农业园区,,21,18,28,3,9,100,66,57,57,8,13,7,8,0.2,0.3
2022-10-22T11:00:00,2210A,121.6717,42.0224,阜新市,东苑,,23,22,47,9,12,123,73,61,61,10,27,3,12,0.5,0.6
2022-10-22T11:00:00,2211A,121.6506,42.0498,阜新市,玉龙新城,,25,25,35,2,8,108,68,54,51,8,24,6,7,0.3,0.4
2022-10-22T11:00:00,2212A,123.2,41.1953,辽阳市,宏伟区,,41,41,79,10,31,142,50,42,28,23,46,11,15,0.5,0.9
2022-10-22T11:00:00,2213A,123.1683,41.2495,辽阳市,新华园,,35,35,90,12,44,127,54,36,36,21,49,16,17,0.2,0.9
2022-10-22T11:00:00,2214A,123.2354,41.2639,辽阳市,滨河路,颗粒物(PM10),51,52,75,10,56,148,52,44,28,26,49,6,11,0.6,1.2
2022-10-22T11:00:00,2215A,123.149,41.2991,辽阳市,铁西工业园,,26,26,90,9,77,150,59,34,34,17,47,12,15,0.2,0.9
2022-10-22T11:00:00,2216A,123.8139,42.3022,铁岭市,汇工街西,,24,24,54,5,25,133,69,57,57,10,25,6,17,0.4,0.6
2022-10-22T11:00:00,2217A,123.8649,42.2923,铁岭市,水上乐园,,26,26,61,6,24,119,63,48,48,11,37,7,12,0.7,0.8
2022-10-22T11:00:00,2218A,123.8486,42.2867,铁岭市,银州路东段,,20,19,64,10,23,121,62,52,52,15,33,5,7,0.8,1
2022-10-22T11:00:00,2219A,123.7153,42.2217,铁岭市,金沙江路北,,21,12,46,9,19,130,67,57,57,14,21,10,10,0.4,0.5
2022-10-22T11:00:00,2220A,120.4318,41.5881,朝阳市,西梁,,21,12,39,10,19,133,66,56,51,10,17,8,18,0.5,0.7
2022-10-22T11:00:00,2221A,120.4521,41.5646,朝阳市,河畔小区,,28,28,38,9,17,133,63,54,54,8,13,9,38,0.6,0.8
2022-10-22T11:00:00,2222A,120.4176,41.5648,朝阳市,八里堡,,26,26,44,9,17,132,66,54,52,6,16,8,16,0.5,0.7
2022-10-22T11:00:00,2223A,120.3806,41.5969,朝阳市,农业园区,,21,17,45,10,19,133,67,59,45,9,22,5,10,0.5,0.6
2022-10-22T11:00:00,2225A,124.4002,43.1713,四平市,一商场,,28,19,52,19,20,118,50,40,40,14,23,3,5,0.2,0.6
2022-10-22T11:00:00,2226A,124.388,43.193,四平市,境园,,22,22,57,10,19,120,52,40,40,12,24,5,7,0.1,0.8
2022-10-22T11:00:00,2227A,125.1358,42.8845,辽源市,环保局,,35,27,49,24,31,131,58,38,38,15,23,14,11,0.5,0.7
2022-10-22T11:00:00,2229A,125.9358,41.7173,通化市,光明,,19,11,29,4,14,117,60,55,42,21,24,15,12,0.4,0.4
2022-10-22T11:00:00,2230A,125.9446,41.7325,通化市,铁路,,19,10,34,9,15,124,58,45,45,30,29,15,12,0.7,0.6
2022-10-22T11:00:00,2231A,126.4219,41.9171,白山市,喜丰,,22,22,41,14,15,114,67,69,57,12,19,9,9,0.7,0.8
2022-10-22T11:00:00,2232A,126.4077,41.9419,白山市,环保局,,38,38,52,9,20,115,58,48,48,19,24,13,11,0.7,0.8
2022-10-22T11:00:00,2233A,124.8006,45.1214,松原市,江南,,25,25,44,11,21,92,39,39,31,10,19,5,5,0.3,0.4
2022-10-22T11:00:00,2234A,124.7965,45.1722,松原市,江北,,27,27,48,9,22,92,41,29,28,7,19,4,4,0.3,0.4
2022-10-22T11:00:00,2235A,122.7911,45.6077,白城市,洮北区环保局,,39,27,39,27,20,100,68,52,49,13,17,6,5,0.2,0.2
2022-10-22T11:00:00,2236A,122.8738,45.5725,白城市,市环保局,,22,22,40,7,11,96,60,45,44,7,12,5,6,0.4,0.4
2022-10-22T11:00:00,2237A,129.47,42.8883,延边朝鲜族自治州,妇幼医院,,22,11,53,11,26,112,69,95,59,14,33,6,13,0.4,0.6
2022-10-22T11:00:00,2238A,129.5055,42.9108,延边朝鲜族自治州,延边医院,,21,21,51,13,23,106,66,88,71,15,26,7,10,0.4,0.6
2022-10-22T11:00:00,2239A,129.3964,42.8881,延边朝鲜族自治州,朝阳川镇医院,,22,13,49,10,21,113,70,89,62,11,20,7,8,0.4,0.5
2022-10-22T11:00:00,2240A,130.9762,45.3001,鸡西市,环保局,,22,22,54,7,26,100,46,80,40,10,17,5,4,0.2,0.4
2022-10-22T11:00:00,2243A,130.9429,45.3039,鸡西市,第一中学,,22,22,50,8,25,118,53,88,44,4,7,6,5,0.3,0.5
2022-10-22T11:00:00,2244A,130.2537,47.3416,鹤岗市,哈啤分公司,,18,11,20,10,16,55,55,49,44,5,8,6,7,0.1,0.2
2022-10-22T11:00:00,2245A,130.2684,47.3086,鹤岗市,斯达机电,,17,8,22,6,15,53,53,51,43,5,10,6,5,0.3,0.3
2022-10-22T11:00:00,2246A,130.3114,47.3388,鹤岗市,东山纸板厂,,20,20,24,8,19,58,58,50,46,1,8,6,7,0.3,0.4
2022-10-22T11:00:00,2247A,130.1097,47.3382,鹤岗市,五号水库(对照点),,18,7,17,6,13,58,56,48,48,3,6,5,5,0.1,0.1
2022-10-22T11:00:00,2248A,131.1511,46.6937,双鸭山市,双合村,,22,12,34,15,32,74,55,44,44,6,17,5,5,0.2,0.3
2022-10-22T11:00:00,2249A,131.1652,46.6191,双鸭山市,南小市,,27,27,36,8,25,54,54,42,42,4,20,5,7,0.2,0.4
2022-10-22T11:00:00,2250A,131.1524,46.6554,双鸭山市,环保局,,21,21,38,12,28,63,62,54,54,6,16,4,3,0.2,0.3
2022-10-22T11:00:00,2251A,131.12,46.5656,双鸭山市,苗圃(对照点),,20,20,38,12,34,87,49,37,37,5,16,6,7,0.3,0.5
2022-10-22T11:00:00,2252A,128.5159,47.4311,伊春市,环保局,,16,11,18,4,13,53,50,34,30,5,10,4,5,0.3,0.4
2022-10-22T11:00:00,2253A,128.9102,47.7412,伊春市,电力嘉园,,17,8,23,6,19,59,54,43,33,2,7,1,2,0.2,0.3
2022-10-22T11:00:00,2254A,129.5029,48.471,伊春市,汤旺河国家公园(对照点),,32,32,47,19,25,57,49,38,38,3,5,6,6,0.2,0.2
2022-10-22T11:00:00,2255A,130.2751,46.8028,佳木斯市,佳纺,,23,23,35,12,21,50,50,37,37,7,18,1,4,0.3,0.4
2022-10-22T11:00:00,2256A,130.3995,46.8307,佳木斯市,发电厂,,16,13,38,8,22,50,50,39,39,4,12,1,2,0.3,0.5
2022-10-22T11:00:00,2257A,130.3258,46.7975,佳木斯市,环保局,,19,16,31,13,25,50,50,38,36,5,20,4,5,0.3,0.5
2022-10-22T11:00:00,2258A,130.3648,46.8032,佳木斯市,十一中,,16,15,31,9,21,51,51,46,40,8,19,2,2,0.4,0.5
2022-10-22T11:00:00,2259A,130.3794,46.7588,佳木斯市,四丰(对照点),,,15,30,,45,47,47,35,31,,,1,1,0.3,0.4
2022-10-22T11:00:00,2262A,131.0518,45.8751,七台河市,新一中(对照点),,19,15,41,12,22,82,59,48,48,4,16,8,10,0.2,0.2
2022-10-22T11:00:00,2263A,127.4833,50.2524,黑河市,交通局,,,13,30,1,8,53,48,46,45,12,6,,5,0.5,0.5
2022-10-22T11:00:00,2264A,127.5144,50.2341,黑河市,环保局,,17,5,20,9,12,56,54,49,48,5,7,6,11,0.5,0.5
2022-10-22T11:00:00,2265A,127.5291,50.2472,黑河市,大黑河岛(对照点),,,,,,,58,55,48,48,2,2,4,6,0.1,0.2
2022-10-22T11:00:00,2266A,126.9785,46.6365,绥化市,人和东街,,16,15,31,8,19,101,50,42,30,8,13,3,3,0.4,0.5
2022-10-22T11:00:00,2267A,126.964,46.6528,绥化市,党政办公中心,,20,10,27,7,20,101,62,52,38,7,11,4,4,0.4,0.5
2022-10-22T11:00:00,2269A,124.1069,50.4097,大兴安岭地区,科技局,,16,5,9,7,12,60,49,39,35,3,7,2,4,0.3,0.3
2022-10-22T11:00:00,2270A,117.396,32.939,蚌埠市,工人疗养院,颗粒物(PM10),85,120,123,62,68,122,110,38,38,20,53,8,10,0.5,0.6
2022-10-22T11:00:00,2271A,117.3605,32.9427,蚌埠市,百货大楼,细颗粒物(PM2.5),99,83,97,74,69,140,106,25,25,26,55,12,11,0.5,0.6
2022-10-22T11:00:00,2273A,117.4185,32.8911,蚌埠市,蚌埠学院,颗粒物(PM10),67,84,108,44,62,125,109,28,28,21,61,11,14,0.6,0.6
2022-10-22T11:00:00,2274A,117.3533,32.9673,蚌埠市,淮上区政府,细颗粒物(PM2.5),100,124,118,75,69,138,107,27,27,18,44,11,10,0.4,0.4
2022-10-22T11:00:00,2275A,117.3145,32.8977,蚌埠市,高新区,细颗粒物(PM2.5),94,106,101,70,63,137,111,28,28,27,63,14,10,0.6,0.7
2022-10-22T11:00:00,2277A,116.8305,32.7727,淮南市,潘集区政府,细颗粒物(PM2.5),140,143,132,107,92,148,139,58,40,15,41,7,10,0.4,0.4
2022-10-22T11:00:00,2278A,117.0067,32.6524,淮南市,师范学院,细颗粒物(PM2.5),138,168,142,105,87,146,128,36,36,21,41,12,11,0.6,0.8
2022-10-22T11:00:00,2279A,116.8569,32.5951,淮南市,谢家集区政府,细颗粒物(PM2.5),130,156,133,99,83,161,139,84,73,30,40,30,24,0.5,0.6
2022-10-22T11:00:00,2280A,116.8281,32.633,淮南市,八公山区政府,细颗粒物(PM2.5),137,124,103,104,88,171,125,104,83,28,26,13,19,0.6,0.7
2022-10-22T11:00:00,2281A,116.6325,32.6201,淮南市,焦岗湖风景区管理处(对照点),细颗粒物(PM2.5),153,166,105,117,65,158,128,27,27,6,15,20,11,0.5,0.6
2022-10-22T11:00:00,2282A,116.8004,33.975,淮北市,监测站,颗粒物(PM10),77,104,65,53,38,159,105,71,47,39,29,15,8,1.0,0.7
2022-10-22T11:00:00,2283A,116.8091,33.9007,淮北市,烈山区政府,细颗粒物(PM2.5),110,116,76,83,47,161,125,43,43,33,47,10,6,0.6,0.5
2022-10-22T11:00:00,2284A,116.7856,33.9477,淮北市,职业技术学院,颗粒物(PM10),73,96,78,49,42,156,120,39,39,34,53,12,8,1.1,1
2022-10-22T11:00:00,2285A,117.8177,30.9412,铜陵市,市第四中学,颗粒物(PM10),85,119,108,47,57,140,99,31,31,34,60,16,14,0.6,0.8
2022-10-22T11:00:00,2286A,117.8059,30.9273,铜陵市,市公路局,颗粒物(PM10),67,84,99,42,67,145,95,29,29,37,51,12,13,0.6,0.8
2022-10-22T11:00:00,2287A,117.7807,30.9413,铜陵市,市新民污水厂,细颗粒物(PM2.5),69,84,97,50,54,149,92,27,27,37,49,39,16,0.5,0.5
2022-10-22T11:00:00,2288A,117.7439,30.8792,铜陵市,市第九中学,细颗粒物(PM2.5),84,112,128,62,65,138,80,25,25,46,60,20,11,0.7,0.8
2022-10-22T11:00:00,2289A,117.846,30.9413,铜陵市,车站新区,细颗粒物(PM2.5),70,80,86,51,59,142,109,30,30,19,46,18,11,0.5,0.6
2022-10-22T11:00:00,2290A,117.8483,30.97,铜陵市,市职教基地,"颗粒物(PM10),细颗粒物(PM2.5)",62,73,87,44,56,155,109,30,30,16,32,18,10,0.7,0.8
2022-10-22T11:00:00,2291A,117.0809,30.5177,安庆市,环科院,颗粒物(PM10),73,96,84,51,52,168,140,92,63,20,30,12,14,0.7,0.7
2022-10-22T11:00:00,2292A,117.0331,30.5119,安庆市,马山宾馆,颗粒物(PM10),71,91,76,45,46,170,143,91,71,19,28,12,12,0.8,0.8
2022-10-22T11:00:00,2294A,116.9896,30.6145,安庆市,安庆大学,细颗粒物(PM2.5),58,61,58,41,36,163,156,96,90,16,23,8,8,0.7,0.7
2022-10-22T11:00:00,2295A,118.2903,29.6963,黄山市,延安路89号,,37,23,23,22,16,141,116,46,46,15,17,6,5,0.2,0.2
2022-10-22T11:00:00,2296A,118.327,29.7178,黄山市,黄山东路89号,,,47,36,25,22,135,121,41,41,14,22,,5,0.1,0.2
2022-10-22T11:00:00,2297A,118.1371,30.2756,黄山市,黄山区政府5号楼,颗粒物(PM10),51,52,42,24,20,131,123,45,45,14,12,7,5,0.5,0.4
2022-10-22T11:00:00,2298A,118.3093,32.3153,滁州市,老年大学,细颗粒物(PM2.5),69,77,57,50,35,109,107,23,23,19,38,9,8,0.4,0.4
2022-10-22T11:00:00,2299A,118.3244,32.2786,滁州市,人大宾馆,颗粒物(PM10),77,103,74,45,30,110,110,47,47,31,41,7,4,0.4,0.5
2022-10-22T11:00:00,2301A,115.8277,32.8929,阜阳市,市监测站,细颗粒物(PM2.5),113,143,144,85,91,157,131,46,46,35,59,12,12,,0.8
2022-10-22T11:00:00,2303A,115.8554,32.8605,阜阳市,开发区,细颗粒物(PM2.5),107,126,155,80,101,171,143,44,44,37,63,11,8,0.7,0.9
2022-10-22T11:00:00,2306A,116.989,33.6306,宿州市,火车站,,,,,,,,,,,,,,,,
2022-10-22T11:00:00,2307A,116.5079,31.737,六安市,监测大楼,颗粒物(PM10),65,80,86,46,52,146,107,53,53,27,48,11,8,0.4,0.5
2022-10-22T11:00:00,2308A,116.4738,31.7643,六安市,皖西学院,颗粒物(PM10),62,74,93,38,49,152,97,44,44,26,43,16,7,0.7,0.6
2022-10-22T11:00:00,2309A,116.4996,31.7905,六安市,朝阳厂,细颗粒物(PM2.5),75,75,87,55,58,141,93,36,36,32,49,11,5,0.6,0.7
2022-10-22T11:00:00,2310A,116.5567,31.7886,六安市,开发区,颗粒物(PM10),80,109,126,52,64,152,108,30,30,30,50,12,9,0.4,0.6
2022-10-22T11:00:00,2311A,115.8072,33.8399,亳州市,污水处理厂,细颗粒物(PM2.5),120,136,90,91,61,157,137,35,33,28,44,36,15,0.7,0.6
2022-10-22T11:00:00,2312A,115.7789,33.8518,亳州市,三国揽胜宫,细颗粒物(PM2.5),135,152,95,103,64,163,136,66,66,30,38,46,16,0.8,0.8
2022-10-22T11:00:00,2314A,117.47,30.6618,池州市,池州学院,细颗粒物(PM2.5),83,80,94,61,63,158,107,29,29,32,43,25,13,1.0,0.8
2022-10-22T11:00:00,2315A,117.4974,30.6539,池州市,平天湖(对照点),,,,,,,,,,,,,,,,
