timepoint,stationcode,longitude,latitude,area,positionname,primarypollutant,aqi,pm10,pm10_24h,pm2_5,pm2_5_24h,o3,o3_24h,o3_8h,o3_8h_24h,no2,no2_24h,so2,so2_24h,co,co_24h
2022-10-22T15:00:00,1001A,116.3621,39.8784,北京市,万寿西宫,,22,11,87,4,57,123,70,60,60,2,28,3,3,0.2,0.6
2022-10-22T15:00:00,1002A,116.2202,40.2915,北京市,定陵(对照点),,24,21,81,4,42,150,76,85,65,3,10,3,2,0.2,0.3
2022-10-22T15:00:00,1003A,116.4174,39.9289,北京市,东四,,24,16,103,4,58,142,74,64,64,8,36,3,3,0.1,0.5
2022-10-22T15:00:00,1004A,116.4072,39.8863,北京市,天坛,,24,12,79,3,51,140,76,66,65,10,24,1,2,0.1,0.4
2022-10-22T15:00:00,1005A,116.462,39.9365,北京市,农展馆,,21,12,86,3,55,122,65,55,55,12,33,3,3,0.1,0.5
2022-10-22T15:00:00,1006A,116.3392,39.9295,北京市,官园,,22,13,87,3,53,142,70,72,59,4,21,3,2,0.2,0.5
2022-10-22T15:00:00,1007A,116.2878,39.9611,北京市,海淀万柳,,22,9,85,3,52,126,69,58,58,11,40,1,2,0.2,0.5
2022-10-22T15:00:00,1008A,116.6636,40.135,北京市,顺义新城,,23,11,106,3,64,120,72,60,60,10,35,3,3,0.1,0.5
2022-10-22T15:00:00,1009A,116.6275,40.3275,北京市,怀柔镇,,20,11,76,3,50,127,64,65,57,14,21,3,3,0.3,0.6
2022-10-22T15:00:00,1010A,116.2296,40.217,北京市,昌平镇,,20,17,80,4,48,128,64,76,52,10,19,3,2,0.1,0.5
2022-10-22T15:00:00,1011A,116.3966,39.9821,北京市,奥体中心,,22,13,87,3,56,143,70,71,60,8,28,3,4,0.1,0.5
2022-10-22T15:00:00,1012A,116.184,39.9136,北京市,古城,,22,10,83,3,46,134,69,62,62,7,24,3,2,0.2,0.5
2022-10-22T15:00:00,1015A,117.1444,39.1661,天津市,勤俭道,,28,28,130,5,74,150,79,61,61,12,49,4,8,0.3,0.8
2022-10-22T15:00:00,1017A,117.237,39.1082,天津市,大直沽八号路,,29,29,122,6,55,148,79,73,62,10,38,4,8,0.3,0.8
2022-10-22T15:00:00,1018A,117.202,39.0927,天津市,前进道,,28,28,116,5,62,155,82,78,68,13,38,5,9,0.1,0.6
2022-10-22T15:00:00,1019A,117.1837,39.2133,天津市,淮河道,,26,26,137,5,75,153,82,63,63,13,61,6,9,0.3,0.8
2022-10-22T15:00:00,1021A,117.307,39.0877,天津市,跃进路,,50,50,127,12,56,148,79,62,62,16,60,5,8,0.4,0.9
2022-10-22T15:00:00,1023A,117.707,39.0343,天津市,第四大街,颗粒物(PM10),76,101,144,48,90,145,68,51,51,44,80,10,7,0.8,0.9
2022-10-22T15:00:00,1024A,117.457,38.8394,天津市,永明路,颗粒物(PM10),82,114,118,48,73,136,100,59,59,28,71,12,9,0.9,0.7
2022-10-22T15:00:00,1026A,117.764,39.1587,天津市,汉北路,颗粒物(PM10),86,122,146,62,85,116,116,72,72,26,77,14,11,1.0,1
2022-10-22T15:00:00,1027A,117.157,38.9194,天津市,团泊洼(对照点),,28,28,125,4,68,155,75,60,60,4,51,6,10,0.5,1
2022-10-22T15:00:00,1029A,114.4422,38.0444,石家庄市,职工医院,颗粒物(PM10),63,76,134,14,77,151,105,63,63,14,64,5,7,0.2,0.7
2022-10-22T15:00:00,1030A,114.6063,38.0266,石家庄市,高新区,颗粒物(PM10),56,61,121,17,70,162,100,76,76,9,45,3,6,0.3,0.8
2022-10-22T15:00:00,1031A,114.4898,38.1328,石家庄市,西北水源,,,72,152,9,81,171,,47,47,,64,7,5,0.4,1
2022-10-22T15:00:00,1032A,114.4586,38.0058,石家庄市,西南高教,颗粒物(PM10),56,61,132,21,82,158,120,88,88,16,51,7,9,0.2,0.8
2022-10-22T15:00:00,1033A,114.5331,38.0178,石家庄市,世纪公园,颗粒物(PM10),68,85,130,16,79,149,100,82,68,17,42,4,5,0.4,1
2022-10-22T15:00:00,1034A,114.509,38.0457,石家庄市,人民会堂,颗粒物(PM10),71,92,130,18,83,160,106,93,72,20,48,6,10,0.6,1.2
2022-10-22T15:00:00,1035A,114.3524,37.8911,石家庄市,封龙山(对照点),颗粒物(PM10),59,67,95,19,49,187,96,113,82,22,26,5,10,0.4,0.7
2022-10-22T15:00:00,1037A,118.131,39.6363,唐山市,雷达站,颗粒物(PM10),66,81,147,17,96,148,89,68,68,21,78,3,5,0.2,0.8
2022-10-22T15:00:00,1038A,118.1725,39.6334,唐山市,物资局,颗粒物(PM10),72,93,146,30,94,132,80,63,63,24,82,4,9,0.3,0.9
2022-10-22T15:00:00,1040A,118.1705,39.6506,唐山市,十二中,颗粒物(PM10),71,92,137,15,83,141,75,58,58,22,73,2,7,0.3,0.9
2022-10-22T15:00:00,1041A,118.1869,39.622,唐山市,小山,颗粒物(PM10),69,87,136,16,90,141,80,64,64,15,68,3,7,0.3,0.8
2022-10-22T15:00:00,1042A,119.5134,39.8207,秦皇岛市,北戴河环保局,,29,29,101,4,59,132,81,70,70,21,43,5,9,0,0.6
2022-10-22T15:00:00,1043A,119.7493,40.0116,秦皇岛市,第一关,,,31,107,5,62,134,86,69,69,,46,5,9,0.2,0.8
2022-10-22T15:00:00,1044A,119.5897,39.9499,秦皇岛市,监测站,,42,42,113,12,66,127,77,59,59,12,50,6,12,0.2,0.8
2022-10-22T15:00:00,1046A,119.5251,39.9041,秦皇岛市,建设大厦,,35,35,111,13,59,146,83,69,69,25,49,5,10,0.2,0.8
2022-10-22T15:00:00,1047A,114.5129,36.61763,邯郸市,环保局,,,,,,,,,,,,,,,,
2022-10-22T15:00:00,1048A,114.5302,36.6116,邯郸市,东污水处理厂,,,,126,34,76,156,109,98,98,21,57,4,8,0.3,0.9
2022-10-22T15:00:00,1049A,114.4918,36.5713,邯郸市,矿院,颗粒物(PM10),71,92,125,32,79,162,119,107,107,18,54,7,10,0.3,0.9
2022-10-22T15:00:00,1050A,114.484,36.6133,邯郸市,丛台公园,颗粒物(PM10),65,80,110,38,75,164,120,111,111,17,42,4,12,0.2,0.8
2022-10-22T15:00:00,1051A,115.493,38.8632,保定市,游泳馆,,46,46,168,6,138,178,100,84,84,8,38,5,9,0.1,0.9
2022-10-22T15:00:00,1052A,115.5213,38.8959,保定市,华电二区,,43,43,159,13,130,157,89,75,72,7,41,3,7,0.2,1.1
2022-10-22T15:00:00,1053A,115.4713,38.9108,保定市,接待中心,颗粒物(PM10),51,52,169,8,119,158,92,109,78,18,42,4,7,0.1,0.8
2022-10-22T15:00:00,1054A,115.4612,38.8416,保定市,地表水厂,颗粒物(PM10),54,58,193,15,119,156,88,69,69,13,64,4,8,0.2,1
2022-10-22T15:00:00,1055A,115.4323,38.8697,保定市,胶片厂,颗粒物(PM10),51,51,158,9,139,179,97,81,81,17,47,3,6,0.7,1.1
2022-10-22T15:00:00,1056A,115.5086,38.8639,保定市,监测站,颗粒物(PM10),54,57,186,18,138,170,94,75,72,9,56,3,7,0,1.1
2022-10-22T15:00:00,1057A,114.8883,40.8336,张家口市,人民公园,,26,11,78,2,20,158,82,77,72,6,14,6,8,0.0,0.1
2022-10-22T15:00:00,1059A,114.8687,40.8042,张家口市,五金库,,26,15,69,5,19,155,83,73,73,9,14,8,10,0.2,0.3
2022-10-22T15:00:00,1060A,114.8902,40.762,张家口市,世纪豪园,,26,3,71,4,22,158,83,77,72,10,20,3,3,0.3,0.4
2022-10-22T15:00:00,1061A,114.8916,40.8661,张家口市,北泵房(对照点),,27,7,73,2,22,162,84,74,74,6,13,5,6,0.4,0.4
2022-10-22T15:00:00,1062A,117.9531,40.9081,承德市,铁路,,23,19,98,8,37,100,72,58,58,12,60,4,9,0.2,0.7
2022-10-22T15:00:00,1063A,117.9392,40.9763,承德市,中国银行,,24,24,96,2,47,125,71,55,55,11,54,3,7,0.2,0.9
2022-10-22T15:00:00,1064A,117.9503,40.928,承德市,开发区,,29,29,96,8,42,132,79,61,61,8,56,2,8,0.2,0.9
2022-10-22T15:00:00,1065A,117.8051,40.9655,承德市,文化中心,颗粒物(PM10),60,70,111,5,47,131,75,83,65,11,44,1,8,0.2,0.7
2022-10-22T15:00:00,1066A,117.9268,41.0026,承德市,离宫(对照点),,22,12,81,6,35,123,70,65,62,5,27,6,12,0.2,0.6
2022-10-22T15:00:00,1067A,116.6708,39.5111,廊坊市,药材公司,,26,14,117,2,59,153,81,69,69,18,45,1,4,0.3,0.6
2022-10-22T15:00:00,1068A,116.7214,39.5589,廊坊市,开发区,,28,28,108,3,62,145,81,69,69,17,57,6,8,0.3,0.6
2022-10-22T15:00:00,1070A,116.7244,39.5269,廊坊市,北华航天学院,,28,28,122,2,62,155,79,68,68,20,50,2,5,0.2,0.5
2022-10-22T15:00:00,1071A,116.8842,38.2991,沧州市,沧县城建局,颗粒物(PM10),51,52,115,17,61,150,91,70,70,14,46,3,7,0,0.3
2022-10-22T15:00:00,1072A,116.8584,38.3254,沧州市,电视转播站,颗粒物(PM10),56,61,110,5,55,172,97,92,78,14,40,12,12,0.3,0.5
2022-10-22T15:00:00,1073A,116.8709,38.3228,沧州市,市环保局,颗粒物(PM10),63,75,118,13,61,167,92,99,73,20,46,6,9,0.2,0.5
2022-10-22T15:00:00,1074A,115.6838,37.7541,衡水市,电机北厂,颗粒物(PM10),69,88,133,13,70,167,110,94,63,17,45,3,4,0.2,0.4
2022-10-22T15:00:00,1075A,115.6303,37.7316,衡水市,市监测站,颗粒物(PM10),61,72,76,21,78,172,108,65,62,14,49,2,9,0.2,0.6
2022-10-22T15:00:00,1077A,114.4704,37.0886,邢台市,达活泉,颗粒物(PM10),72,94,129,29,74,157,119,104,104,21,42,9,15,0.6,1.3
2022-10-22T15:00:00,1078A,114.5062,37.0349,邢台市,邢师高专,颗粒物(PM10),68,86,120,27,75,149,108,100,100,12,42,6,9,0.5,1.1
2022-10-22T15:00:00,1079A,114.5237,37.0851,邢台市,路桥公司,颗粒物(PM10),68,86,119,24,75,160,116,106,106,17,36,7,13,0.3,1
2022-10-22T15:00:00,1080A,114.4725,37.0719,邢台市,市环保局,颗粒物(PM10),82,113,162,34,74,155,117,102,102,16,42,7,12,0.3,1.1
2022-10-22T15:00:00,1081A,112.5139,37.8873,太原市,尖草坪,颗粒物(PM10),60,70,139,16,71,131,80,46,46,23,74,13,14,0.6,1.3
2022-10-22T15:00:00,1083A,112.434,38.0108,太原市,上兰(对照点),,,,,,,,,,,,,,,,
2022-10-22T15:00:00,1084A,112.469,37.7124,太原市,晋源,颗粒物(PM10),70,90,122,30,59,136,78,53,53,26,66,11,17,0.5,1
2022-10-22T15:00:00,1085A,112.5583,37.7394,太原市,小店,颗粒物(PM10),78,106,169,24,75,127,81,52,52,33,73,13,13,0.5,1.1
2022-10-22T15:00:00,1086A,112.5369,37.8692,太原市,桃园,颗粒物(PM10),56,62,134,16,69,130,80,52,52,25,74,10,9,0.6,1.3
2022-10-22T15:00:00,1087A,112.57,37.8195,太原市,坞城,颗粒物(PM10),64,78,134,21,64,129,83,54,54,28,72,12,11,0.6,1.1
2022-10-22T15:00:00,1088A,112.549,37.9854,太原市,南寨,颗粒物(PM10),67,84,134,14,62,106,81,48,48,18,56,8,8,0.2,0.7
2022-10-22T15:00:00,1089A,112.4701,37.782,太原市,金胜,,,,,,,,,,,,,,,,
2022-10-22T15:00:00,1090A,111.6507,40.7517,呼和浩特市,呼市一监,,,,,,,,,,,,,,,,
2022-10-22T15:00:00,1091A,111.6572,40.8033,呼和浩特市,小召,颗粒物(PM10),67,83,85,21,19,179,114,69,69,12,15,13,14,0.4,0.3
2022-10-22T15:00:00,1094A,111.7516,40.8369,呼和浩特市,如意水处理厂,颗粒物(PM10),60,70,64,15,15,161,100,65,65,9,13,11,7,0.4,0.4
2022-10-22T15:00:00,1095A,111.7276,40.8062,呼和浩特市,二十九中,颗粒物(PM10),54,58,84,19,17,168,104,66,66,10,13,13,10,0.6,0.6
2022-10-22T15:00:00,1096A,111.5512,40.7866,呼和浩特市,工大金川校区,,,96,89,20,20,164,96,64,64,9,12,14,17,,
2022-10-22T15:00:00,1097A,111.717,40.7612,呼和浩特市,化肥厂生活区,,,75,65,20,20,157,106,69,68,,,11,13,0.4,0.4
2022-10-22T15:00:00,1098A,123.6836,41.9339,沈阳市,森林路(对照点),,,,,,,,,,,,,,,,
2022-10-22T15:00:00,1099A,123.505,41.7406,沈阳市,浑南东路,,25,21,53,5,23,125,77,62,62,10,27,10,14,0.4,0.7
2022-10-22T15:00:00,1100A,123.4231,41.6989,沈阳市,新秀街,,25,19,58,11,28,118,78,66,66,12,41,6,10,0.4,0.7
2022-10-22T15:00:00,1102A,123.5903,41.8411,沈阳市,东陵路,,32,32,46,12,23,127,79,64,64,8,25,8,11,0.3,0.4
2022-10-22T15:00:00,1103A,123.4264,41.8467,沈阳市,陵东街,,24,17,52,4,19,124,76,66,66,12,40,6,8,0.4,0.7
2022-10-22T15:00:00,1104A,123.4114,41.7653,沈阳市,文化路,,24,20,39,7,21,126,76,65,65,11,30,8,11,0.3,0.5
2022-10-22T15:00:00,1105A,123.4678,41.7867,沈阳市,小河沿,,27,27,50,7,21,118,74,61,61,10,30,6,7,0.4,0.6
2022-10-22T15:00:00,1106A,123.4017,41.7972,沈阳市,太原街,,24,24,53,9,22,125,72,63,63,19,42,5,7,0.4,0.6
2022-10-22T15:00:00,1108A,123.3783,41.9228,沈阳市,京沈街,,25,16,36,8,16,128,77,66,66,11,24,6,11,0.3,0.4
2022-10-22T15:00:00,1109A,121.612,38.9741,大连市,甘井子,,26,8,79,4,51,124,82,77,70,11,28,5,6,0.6,0.7
2022-10-22T15:00:00,1110A,121.565,38.9511,大连市,周水子,,27,27,83,7,42,124,83,85,69,13,31,5,7,0.2,0.7
2022-10-22T15:00:00,1111A,121.5637,38.8845,大连市,星海三站,,22,10,88,8,60,81,68,59,59,16,29,7,7,0.6,0.9
2022-10-22T15:00:00,1112A,121.6302,38.9117,大连市,青泥洼桥,,25,14,76,3,41,104,77,81,65,23,35,6,7,0.5,0.8
2022-10-22T15:00:00,1113A,121.6251,38.8638,大连市,傅家庄,,39,39,55,9,36,82,60,58,55,18,26,5,7,0.6,0.8
2022-10-22T15:00:00,1114A,121.5213,38.8661,大连市,七贤岭,,29,12,69,8,36,119,92,83,83,10,26,6,8,0.5,0.8
2022-10-22T15:00:00,1115A,121.2529,38.8061,大连市,旅顺,,31,31,55,3,27,114,84,77,73,8,18,4,7,0.4,0.6
2022-10-22T15:00:00,1116A,121.7485,39.1311,大连市,金州,,25,22,74,4,48,119,78,75,65,20,38,9,13,0.2,0.6
2022-10-22T15:00:00,1117A,121.7811,39.0496,大连市,开发区,,36,36,62,6,43,99,85,72,72,17,39,6,12,0.2,0.6
2022-10-22T15:00:00,1118A,121.9762,39.0631,大连市,双D港,,24,11,56,12,26,101,75,73,73,5,18,8,12,0.6,0.9
2022-10-22T15:00:00,1119A,125.3325,43.9166,长春市,食品厂,,26,26,52,12,30,83,41,40,31,22,36,4,6,0.3,0.5
2022-10-22T15:00:00,1120A,125.2863,43.9027,长春市,客车厂,,20,19,50,14,28,83,40,36,32,23,42,9,8,0.3,0.4
2022-10-22T15:00:00,1121A,125.2841,43.8463,长春市,邮电学院,,19,15,50,13,27,97,51,40,40,20,38,12,10,0.2,0.4
2022-10-22T15:00:00,1122A,125.3716,43.8772,长春市,劳动公园,,18,16,49,12,27,100,47,39,35,17,32,6,9,0.2,0.3
2022-10-22T15:00:00,1123A,125.3297,43.8805,长春市,园林处,,16,14,45,11,35,94,45,41,36,20,31,4,7,0.3,0.5
2022-10-22T15:00:00,1124A,125.4605,43.79,长春市,净月潭,,24,24,46,9,16,101,48,42,33,18,28,6,6,0.3,0.4
2022-10-22T15:00:00,1125A,125.7194,43.515,长春市,甩湾子(对照点),,,,,,,,,,,,,,,,
2022-10-22T15:00:00,1126A,125.3863,43.8447,长春市,经开区环卫处,,19,19,48,12,28,101,51,36,36,18,36,7,10,0.3,0.4
2022-10-22T15:00:00,1127A,125.245,43.7783,长春市,高新区管委会,,17,15,57,11,30,92,54,40,40,13,44,4,6,0.2,0.4
2022-10-22T15:00:00,1128A,125.1761,43.8325,长春市,岱山公园,,20,18,59,14,27,91,55,44,44,15,43,6,9,0.3,0.5
2022-10-22T15:00:00,1129A,126.5422,45.755,哈尔滨市,岭北(对照点),,19,11,37,7,25,73,60,48,48,5,16,3,3,0.3,0.1
2022-10-22T15:00:00,1130A,126.561,45.8167,哈尔滨市,松北商大,,22,16,34,4,16,74,69,52,52,9,20,5,9,0.5,0.7
2022-10-22T15:00:00,1131A,126.979,45.5419,哈尔滨市,阿城会宁,,32,32,47,16,19,89,52,39,39,14,21,10,13,0.3,0.5
2022-10-22T15:00:00,1132A,126.599,45.7222,哈尔滨市,南岗学府路,,20,12,41,3,16,77,61,45,45,8,22,4,6,0.5,0.5
2022-10-22T15:00:00,1133A,126.689,45.7733,哈尔滨市,太平宏伟公园,,21,12,33,3,18,77,65,52,52,6,15,8,12,0.3,0.4
2022-10-22T15:00:00,1134A,126.635,45.7667,哈尔滨市,道外承德广场,,41,41,44,6,17,74,59,45,45,13,20,10,12,0.2,0.4
2022-10-22T15:00:00,1135A,126.685,45.7319,哈尔滨市,香坊红旗大街,,20,16,35,9,15,84,62,50,50,10,19,6,10,0.3,0.4
2022-10-22T15:00:00,1136A,126.6411,45.7258,哈尔滨市,动力和平路,,22,22,34,2,14,77,56,42,42,14,24,8,9,0.4,0.4
2022-10-22T15:00:00,1137A,126.593,45.7478,哈尔滨市,道里建国路,,,18,31,9,17,73,60,44,44,13,21,,12,0.2,0.3
2022-10-22T15:00:00,1138A,126.615,45.61,哈尔滨市,平房东轻厂,,20,20,52,9,22,74,47,41,41,14,34,8,9,0.5,0.4
2022-10-22T15:00:00,1139A,126.595,45.9855,哈尔滨市,呼兰师专,,19,16,26,13,25,60,60,44,44,10,14,7,8,0.4,0.6
2022-10-22T15:00:00,1140A,126.6206,45.6842,哈尔滨市,省农科院,,24,24,38,10,20,83,65,48,48,7,21,6,11,0,0.6
2022-10-22T15:00:00,1141A,121.4,31.238,上海市,普陀,,49,45,50,34,29,108,108,66,66,20,38,7,5,1.1,0.8
2022-10-22T15:00:00,1142A,121.478,31.2036,上海市,十五厂,,49,49,40,27,26,115,115,76,76,17,41,8,8,0.7,0.6
2022-10-22T15:00:00,1143A,121.467,31.3008,上海市,虹口,,46,46,39,21,24,82,82,53,53,12,35,4,6,0.6,0.6
2022-10-22T15:00:00,1144A,121.412,31.1654,上海市,徐汇上师大,颗粒物(PM10),56,61,52,29,29,112,112,67,67,25,45,8,7,0.9,0.7
2022-10-22T15:00:00,1145A,121.536,31.2659,上海市,杨浦四漂,,44,44,40,23,21,112,112,80,80,19,46,7,7,0.5,0.4
2022-10-22T15:00:00,1146A,120.978,31.0935,上海市,青浦淀山湖(对照点),,,,,,,,,,,,,,,,
2022-10-22T15:00:00,1147A,121.425,31.2261,上海市,静安监测站,颗粒物(PM10),53,55,53,29,27,112,112,64,64,18,36,7,6,1.0,0.7
2022-10-22T15:00:00,1148A,121.703,31.1907,上海市,浦东川沙,颗粒物(PM10),57,63,42,22,23,94,75,60,60,18,46,8,9,0.5,0.6
2022-10-22T15:00:00,1149A,121.533,31.2284,上海市,浦东新区监测站,细颗粒物(PM2.5),58,43,41,41,29,100,100,71,71,5,27,6,6,0.7,0.5
2022-10-22T15:00:00,1150A,121.577,31.2071,上海市,浦东张江,,48,48,35,32,23,105,105,64,64,18,41,5,5,0.9,0.7
2022-10-22T15:00:00,1151A,118.8086,32.1065,南京市,迈皋桥,颗粒物(PM10),53,56,83,31,40,150,147,111,111,15,47,4,6,0.4,0.5
2022-10-22T15:00:00,1152A,118.7538,32.0551,南京市,草场门,细颗粒物(PM2.5),63,61,84,45,54,168,148,112,112,23,77,9,8,1.0,1
2022-10-22T15:00:00,1153A,118.7794,32.0745,南京市,山西路,臭氧1小时,63,56,89,31,45,188,170,131,131,10,70,4,7,0.4,0.7
2022-10-22T15:00:00,1154A,118.7752,32.0023,南京市,中华门,"颗粒物(PM10),臭氧1小时",57,63,96,31,42,187,165,128,128,17,72,8,8,0.7,0.9
2022-10-22T15:00:00,1155A,118.8109,32.0309,南京市,瑞金路,臭氧1小时,52,49,70,27,40,177,161,122,122,1,50,4,5,0.4,0.6
2022-10-22T15:00:00,1156A,118.7997,32.0754,南京市,玄武湖,,50,40,75,27,40,172,158,120,120,12,53,4,5,0.4,0.7
2022-10-22T15:00:00,1157A,118.6414,32.0931,南京市,浦口,,50,45,54,24,34,164,158,128,128,14,23,4,4,0.5,0.5
2022-10-22T15:00:00,1158A,118.7356,31.9996,南京市,奥体中心,臭氧1小时,63,68,78,36,41,192,170,128,128,23,70,8,6,0.7,0.8
2022-10-22T15:00:00,1159A,118.9125,32.1028,南京市,仙林大学城,,48,48,74,24,35,149,141,104,104,8,57,3,4,0.5,0.7
2022-10-22T15:00:00,1160A,120.561,31.2472,苏州市,上方山(对照点),臭氧1小时,68,65,48,38,30,174,174,101,101,21,27,6,6,0.7,0.5
2022-10-22T15:00:00,1161A,120.628,31.2864,苏州市,南门,,,,,,,,,,,,,,,,
2022-10-22T15:00:00,1162A,120.591,31.3019,苏州市,彩香,臭氧1小时,104,61,56,39,33,207,207,128,128,16,25,6,6,0.6,0.5
2022-10-22T15:00:00,1163A,120.596,31.3264,苏州市,轧钢厂,臭氧1小时,99,72,57,38,30,199,199,130,130,31,31,7,6,0.7,0.5
2022-10-22T15:00:00,1164A,120.613,31.2703,苏州市,吴中区,,,56,56,,32,195,195,134,134,20,34,7,7,0.6,0.5
2022-10-22T15:00:00,1165A,120.543,31.2994,苏州市,苏州新区,臭氧1小时,93,75,57,48,33,194,194,112,112,22,29,9,8,0.9,0.6
2022-10-22T15:00:00,1166A,120.669,31.3097,苏州市,苏州工业园区,臭氧1小时,93,64,56,38,31,194,194,111,111,21,30,7,6,0.8,0.6
2022-10-22T15:00:00,1167A,120.641,31.3708,苏州市,相城区,臭氧1小时,106,91,57,52,31,212,212,128,128,25,43,8,7,0.8,0.5
2022-10-22T15:00:00,1168A,120.9098,31.9663,南通市,狼山街道,臭氧1小时,60,52,42,34,21,177,168,120,120,15,22,7,7,0.5,0.5
2022-10-22T15:00:00,1169A,120.86,32.0005,南通市,虹桥,细颗粒物(PM2.5),65,64,46,47,40,182,163,115,115,19,34,6,7,0.6,0.6
2022-10-22T15:00:00,1170A,120.87,32.02,南通市,城中,细颗粒物(PM2.5),69,60,42,50,54,170,150,112,112,13,30,4,4,0.3,0.4
2022-10-22T15:00:00,1171A,120.94,31.93,南通市,星湖花园,颗粒物(PM10),57,64,39,36,25,169,152,111,111,13,26,8,7,0.6,0.4
2022-10-22T15:00:00,1172A,120.81,32.0417,南通市,紫琅学院,臭氧1小时,74,58,52,39,32,196,179,127,127,14,35,7,8,0.6,0.7
2022-10-22T15:00:00,1173A,119.176,34.5885,连云港市,市环境监测站,臭氧1小时,65,51,43,29,20,172,172,93,93,12,28,9,6,0.5,0.3
2022-10-22T15:00:00,1177A,117.179,34.2761,徐州市,黄河新村,臭氧1小时,104,107,114,51,55,207,207,112,112,23,49,13,10,1.2,1.1
2022-10-22T15:00:00,1178A,117.1918,34.2384,徐州市,淮塔,,,117,111,51,56,195,,102,102,27,48,12,8,1.0,0.8
2022-10-22T15:00:00,1180A,117.256,34.2153,徐州市,新城区,臭氧1小时,102,100,97,51,58,203,203,102,102,34,55,14,10,0.9,0.8
2022-10-22T15:00:00,1181A,117.244,34.2911,徐州市,桃园路,臭氧1小时,95,97,104,31,52,196,196,112,112,18,40,12,9,1.3,1.2
2022-10-22T15:00:00,1182A,117.2933,34.2778,徐州市,农科院,臭氧1小时,85,83,94,29,49,188,188,96,96,20,56,10,11,0.7,0.8
2022-10-22T15:00:00,1186A,119.389,32.3761,扬州市,邗江监测站,,46,46,68,24,39,123,123,64,64,12,41,3,5,0.6,0.8
2022-10-22T15:00:00,1188A,120.269,31.4867,无锡市,雪浪,臭氧1小时,121,100,55,63,31,242,242,139,139,29,21,12,8,1.0,0.7
2022-10-22T15:00:00,1189A,120.275,31.6219,无锡市,黄巷,细颗粒物(PM2.5),85,100,85,63,39,179,171,111,111,34,69,12,10,1.4,1.1
2022-10-22T15:00:00,1190A,120.294,31.56,无锡市,曹张,臭氧1小时,105,97,63,61,37,212,210,133,133,30,54,12,11,1.0,0.9
2022-10-22T15:00:00,1191A,120.242,31.5031,无锡市,漆塘,臭氧1小时,122,100,46,66,29,244,244,142,142,23,15,14,10,1.0,0.8
2022-10-22T15:00:00,1192A,120.3489,31.5863,无锡市,东亭,臭氧1小时,99,95,76,61,40,213,199,115,115,33,61,13,10,1.2,1.1
2022-10-22T15:00:00,1193A,120.354,31.5475,无锡市,旺庄,臭氧1小时,107,100,67,63,34,215,214,121,121,39,58,15,11,1.2,1
2022-10-22T15:00:00,1194A,120.245,31.5631,无锡市,荣巷,臭氧1小时,121,95,57,58,33,242,242,149,149,28,26,14,10,1.1,0.8
2022-10-22T15:00:00,1195A,120.299,31.6817,无锡市,堰桥,细颗粒物(PM2.5),73,83,74,53,47,202,173,133,133,26,60,13,10,1.2,1.1
2022-10-22T15:00:00,1196A,119.9633,31.762,常州市,市监测站,"颗粒物(PM10),细颗粒物(PM2.5)",90,129,106,67,56,179,138,110,110,23,68,5,7,0.6,0.9
2022-10-22T15:00:00,1200A,119.9468,31.7069,常州市,武进监测站,颗粒物(PM10),87,123,103,53,50,211,168,123,123,26,72,7,9,0.7,0.9
2022-10-22T15:00:00,1201A,119.9255,31.9087,常州市,安家,细颗粒物(PM2.5),92,106,102,68,56,158,132,95,95,21,55,5,6,0.8,0.9
2022-10-22T15:00:00,1203A,119.6707,32.1875,镇江市,新区办事处,细颗粒物(PM2.5),59,51,76,42,51,125,72,45,45,44,58,3,6,0.6,0.9
2022-10-22T15:00:00,1204A,119.4974,32.1968,镇江市,职教中心,细颗粒物(PM2.5),73,56,92,53,61,126,102,58,58,17,54,4,6,0.3,0.5
2022-10-22T15:00:00,1205A,119.4303,32.1328,镇江市,丹徒区监测站,细颗粒物(PM2.5),78,51,82,57,60,134,113,67,67,16,56,2,5,0.4,0.5
2022-10-22T15:00:00,1206A,119.905,32.4878,泰州市,公园路,颗粒物(PM10),56,61,45,39,30,134,134,58,58,13,27,9,7,0.7,0.7
2022-10-22T15:00:00,1207A,119.9189,32.4625,泰州市,莲花,细颗粒物(PM2.5),58,59,51,41,41,133,133,58,58,14,28,7,8,0.7,0.8
2022-10-22T15:00:00,1209A,119.888,32.4639,泰州市,留学生创业园,细颗粒物(PM2.5),54,48,57,38,39,133,133,59,59,12,29,15,12,0.6,0.7
2022-10-22T15:00:00,1210A,119.036,33.5981,淮安市,钵池山,,42,36,40,19,25,134,134,80,80,11,30,7,6,0.6,0.7
2022-10-22T15:00:00,1211A,119.007,33.575,淮安市,北京南路,,45,39,48,25,31,142,142,87,87,14,28,9,9,0.4,0.6
2022-10-22T15:00:00,1212A,118.989,33.6067,淮安市,市监测站,,,39,45,,30,144,144,83,83,15,34,4,4,0.8,0.9
2022-10-22T15:00:00,1213A,119.135,33.5039,淮安市,楚州区监测站,,42,42,46,22,27,134,134,86,86,12,27,8,7,0.6,0.7
2022-10-22T15:00:00,1214A,119.0186,33.6297,淮安市,淮阴区监测站,,44,42,50,21,29,138,138,77,77,12,37,6,5,0.4,0.5
2022-10-22T15:00:00,1215A,120.118,33.4022,盐城市,盐城电厂,,40,36,33,16,15,129,127,90,90,8,23,9,6,0.4,0.5
2022-10-22T15:00:00,1216A,120.156,33.3942,盐城市,市监测站,,35,35,36,19,20,116,112,80,80,10,27,5,4,0.3,0.4
2022-10-22T15:00:00,1218A,120.2144,33.38,盐城市,开发区管委会,,43,43,32,19,19,125,121,86,86,10,23,6,6,0.6,0.6
2022-10-22T15:00:00,1220A,118.293,33.9528,宿迁市,宿迁学院,臭氧1小时,89,70,70,47,39,191,191,105,105,19,52,14,10,0.8,0.9
2022-10-22T15:00:00,1221A,118.2442,33.9592,宿迁市,宿迁中学,臭氧1小时,94,67,70,38,32,195,195,110,110,14,46,16,8,0.6,0.7
2022-10-22T15:00:00,1223A,120.2072,30.2111,杭州市,滨江,臭氧1小时,92,51,80,27,37,193,193,111,111,22,41,8,5,0.5,0.5
2022-10-22T15:00:00,1224A,120.0633,30.2747,杭州市,西溪,臭氧1小时,80,58,61,40,37,184,184,101,101,19,26,10,8,0.6,0.7
2022-10-22T15:00:00,1225A,119.026,29.635,杭州市,千岛湖(对照点),,,,,,,,,,,,,,,,
2022-10-22T15:00:00,1226A,120.3461,30.3153,杭州市,下沙,臭氧1小时,101,48,64,30,35,201,201,124,124,25,36,11,8,0.6,0.5
2022-10-22T15:00:00,1227A,120.1269,30.2456,杭州市,卧龙桥,臭氧1小时,99,51,50,23,34,199,199,104,104,22,26,9,6,0.6,0.6
2022-10-22T15:00:00,1228A,120.1903,30.2692,杭州市,浙江农大,臭氧1小时,89,38,57,27,32,191,191,103,103,30,40,10,7,0.6,0.5
2022-10-22T15:00:00,1229A,120.157,30.2897,杭州市,朝晖五区,,,,,,,,,,,,,,,,
2022-10-22T15:00:00,1230A,120.1197,30.3119,杭州市,和睦小学,臭氧1小时,94,78,76,44,42,195,195,104,104,27,49,9,9,0.8,0.7
2022-10-22T15:00:00,1231A,120.3019,30.4183,杭州市,临平镇,臭氧1小时,99,43,72,25,35,199,199,128,128,17,23,10,7,0.7,0.6
2022-10-22T15:00:00,1232A,120.2697,30.1819,杭州市,城厢镇,臭氧1小时,104,59,71,30,48,207,207,112,112,22,40,10,8,0.8,0.8
2022-10-22T15:00:00,1233A,120.0883,30.1808,杭州市,云栖,臭氧1小时,87,38,44,21,27,189,189,104,104,20,27,7,5,0.5,0.5
2022-10-22T15:00:00,1234A,121.8358,29.911,宁波市,区环保大楼,,31,19,34,13,23,103,97,67,67,5,28,9,10,0.4,0.5
2022-10-22T15:00:00,1235A,121.56,29.82,宁波市,万里学院,细颗粒物(PM2.5),69,73,69,50,45,127,114,86,86,23,31,6,8,0.6,0.7
2022-10-22T15:00:00,1236A,121.713,29.9572,宁波市,龙赛医院,,43,32,64,16,36,135,135,81,81,18,42,8,12,0.4,0.6
2022-10-22T15:00:00,1239A,121.633,29.7733,宁波市,钱湖水厂,,49,47,48,34,37,127,127,67,67,20,21,7,6,0.6,0.6
2022-10-22T15:00:00,1240A,121.5856,29.8635,宁波市,太古小学,细颗粒物(PM2.5),60,56,64,43,53,114,104,71,71,26,42,9,12,0.5,0.7
2022-10-22T15:00:00,1241A,121.524,29.8674,宁波市,市环境监测中心,"颗粒物(PM10),细颗粒物(PM2.5)",65,79,71,47,38,115,96,73,73,25,36,7,8,0.5,0.5
2022-10-22T15:00:00,1242A,120.634,28.0089,温州市,瓯海,,49,49,62,24,37,156,125,105,105,34,40,8,8,0.3,0.4
2022-10-22T15:00:00,1243A,120.6748,27.9939,温州市,南浦,,47,47,57,22,30,136,128,97,97,19,34,7,6,0.2,0.4
2022-10-22T15:00:00,1244A,120.76,27.9747,温州市,龙湾,,42,42,59,16,25,130,130,91,91,20,42,7,7,0.3,0.4
2022-10-22T15:00:00,1245A,120.6709,28.0167,温州市,市站,颗粒物(PM10),51,51,54,16,26,144,130,101,101,20,35,8,6,0.3,0.4
2022-10-22T15:00:00,1246A,120.598,30.0911,绍兴市,袍江站,,,,,,,,,,,,,,,,
2022-10-22T15:00:00,1247A,120.6053,29.9928,绍兴市,城东开发委,臭氧1小时,92,70,74,46,59,193,193,101,101,20,33,10,9,0.6,0.6
2022-10-22T15:00:00,1250A,120.0751,30.8669,湖州市,城西水厂,臭氧1小时,119,84,73,58,41,238,238,126,126,24,59,12,9,0.7,0.6
2022-10-22T15:00:00,1252A,120.7436,30.778,嘉兴市,清河小学,臭氧1小时,73,52,51,39,26,178,178,98,98,23,35,8,8,0.3,0.3
2022-10-22T15:00:00,1253A,120.726,30.7478,嘉兴市,嘉兴学院,臭氧1小时,70,57,49,36,38,176,176,99,99,19,33,6,6,0.4,0.4
2022-10-22T15:00:00,1255A,121.273,28.6459,台州市,黄岩环保大楼,,34,19,39,11,22,109,108,83,83,8,15,6,6,0.3,0.4
2022-10-22T15:00:00,1256A,121.419,28.6542,台州市,台州环保大楼,,39,39,43,16,24,114,104,84,84,10,20,7,7,0.3,0.4
2022-10-22T15:00:00,1257A,121.377,28.5773,台州市,路桥田洋王,,42,42,45,23,29,113,109,88,88,6,14,6,7,0.4,0.5
2022-10-22T15:00:00,1258A,122.122,30.0203,舟山市,定海檀枫,,28,25,27,14,15,119,87,88,88,7,14,4,4,0.3,0.3
2022-10-22T15:00:00,1259A,122.3094,29.9558,舟山市,普陀东港,,28,25,27,16,14,107,87,81,81,14,16,4,4,0.2,0.3
2022-10-22T15:00:00,1260A,122.19,29.9944,舟山市,临城新区,,27,15,30,14,18,112,85,83,83,8,13,5,5,0.3,0.4
2022-10-22T15:00:00,1261A,119.649,29.1131,金华市,四中(停运161031),,,,,,,,,,,,,,,,
2022-10-22T15:00:00,1262A,119.647,29.077,金华市,十五中,臭氧1小时,109,83,67,47,40,218,218,127,127,34,51,14,12,0.6,0.7
2022-10-22T15:00:00,1263A,119.686,29.1029,金华市,监测站,臭氧1小时,122,77,71,47,37,244,244,137,137,25,55,6,8,0.5,0.5
2022-10-22T15:00:00,1264A,118.8692,28.9398,衢州市,环保大楼,,48,28,69,15,40,153,153,112,112,11,42,4,7,0.4,0.7
2022-10-22T15:00:00,1265A,118.8709,28.9666,衢州市,实验学校,臭氧1小时,63,31,60,17,41,170,170,100,100,22,52,5,8,0.5,0.6
2022-10-22T15:00:00,1266A,118.8621,28.9808,衢州市,衢州学院,臭氧1小时,70,32,62,18,38,176,176,107,107,14,43,6,8,0.3,0.5
2022-10-22T15:00:00,1267A,119.914,28.4514,丽水市,监测站大楼,,42,42,49,29,28,144,122,92,92,6,32,6,11,0.2,0.4
2022-10-22T15:00:00,1268A,119.93,28.4586,丽水市,莲都小学,颗粒物(PM10),62,74,49,23,21,146,116,94,94,16,25,6,8,0.2,0.4
2022-10-22T15:00:00,1269A,119.879,28.4231,丽水市,余庄前,,46,29,38,12,14,161,145,102,102,9,23,6,6,0.3,0.3
2022-10-22T15:00:00,1270A,117.1959,31.7848,合肥市,明珠广场,臭氧1小时,85,80,129,46,61,189,188,119,119,19,72,11,11,0.4,0.7
2022-10-22T15:00:00,1271A,117.3072,31.8764,合肥市,三里街,臭氧1小时,82,70,107,34,49,185,185,116,116,18,69,10,11,0.5,0.8
2022-10-22T15:00:00,1272A,117.2588,31.8707,合肥市,琥珀山庄,臭氧1小时,85,85,101,44,50,188,188,112,112,18,52,11,10,0.7,0.9
2022-10-22T15:00:00,1273A,117.1604,31.9052,合肥市,董铺水库(对照点),颗粒物(PM10),59,68,98,32,46,161,161,91,91,15,47,8,8,0.6,0.7
2022-10-22T15:00:00,1274A,117.25,31.8571,合肥市,长江中路,臭氧1小时,92,83,116,48,65,193,193,114,114,14,58,10,9,0.6,0.9
2022-10-22T15:00:00,1275A,117.266,31.9436,合肥市,庐阳区,臭氧1小时,89,85,124,51,59,191,191,112,112,19,75,9,9,0.5,0.7
2022-10-22T15:00:00,1276A,117.336,31.8586,合肥市,瑶海区,臭氧1小时,69,75,106,40,56,175,175,108,108,20,68,14,15,0.7,0.9
2022-10-22T15:00:00,1277A,117.3027,31.7964,合肥市,包河区,臭氧1小时,78,68,111,36,53,182,182,114,114,24,78,13,15,0.7,0.9
2022-10-22T15:00:00,1278A,117.2776,31.7385,合肥市,滨湖新区,臭氧1小时,83,85,123,39,56,186,186,110,110,17,68,12,14,0.4,0.5
2022-10-22T15:00:00,1279A,117.1318,31.8403,合肥市,高新区,臭氧1小时,73,73,120,39,58,178,178,124,124,17,72,7,7,0.5,0.7
2022-10-22T15:00:00,1280A,119.3903,26.0543,福州市,鼓山(对照点),,,,,,,,,,,,,,,,
2022-10-22T15:00:00,1282A,119.2681,26.0504,福州市,师大,,31,31,42,11,19,105,84,80,80,10,13,4,5,0.3,0.3
2022-10-22T15:00:00,1283A,119.2984,26.1028,福州市,五四北路,,28,28,39,12,16,101,88,78,71,11,12,4,4,0.4,0.4
2022-10-22T15:00:00,1284A,119.2648,26.0768,福州市,杨桥西路,,32,32,42,12,15,109,87,78,78,12,14,4,4,0.3,0.4
2022-10-22T15:00:00,1285A,119.317,26.0746,福州市,紫阳,,33,33,38,12,16,104,85,80,74,10,11,6,7,0.4,0.4
2022-10-22T15:00:00,1286A,118.1608,24.8169,厦门市,溪东(对照点),,,,,,,,,,,,,,,,
2022-10-22T15:00:00,1287A,118.1514,24.4767,厦门市,洪文,,30,30,50,14,20,117,76,57,57,18,28,3,4,0.3,0.3
2022-10-22T15:00:00,1288A,118.0661,24.4444,厦门市,鼓浪屿,,44,44,66,19,31,122,74,54,54,52,44,8,10,0.5,0.5
2022-10-22T15:00:00,1290A,115.8931,28.6843,南昌市,省外办,臭氧1小时,68,52,75,26,35,174,174,132,132,13,35,11,12,0.6,0.8
2022-10-22T15:00:00,1291A,115.8886,28.7003,南昌市,省林业公司,臭氧1小时,57,46,71,22,30,165,165,126,126,21,47,7,9,0.5,0.6
2022-10-22T15:00:00,1292A,115.8126,28.7442,南昌市,林科所,臭氧1小时,79,41,50,24,28,183,183,147,147,11,20,9,11,0.7,0.8
2022-10-22T15:00:00,1294A,115.8518,28.687,南昌市,建工学校,臭氧1小时,67,38,58,31,31,173,173,139,139,22,36,11,12,0.8,0.8
2022-10-22T15:00:00,1295A,115.8921,28.6424,南昌市,象湖,臭氧1小时,62,47,56,27,34,169,169,132,132,10,26,6,8,0.6,0.7
2022-10-22T15:00:00,1296A,115.7423,28.7996,南昌市,武术学校(对照点),,50,46,39,35,30,151,151,102,102,6,11,11,8,0.5,0.6
2022-10-22T15:00:00,1298A,115.9314,28.6842,南昌市,省站,颗粒物(PM10),58,66,89,31,43,162,162,124,124,15,36,9,10,0.6,0.7
2022-10-22T15:00:00,1299A,116.9862,36.6114,济南市,科干所,颗粒物(PM10),87,124,80,22,32,156,114,149,79,24,37,5,6,0.4,0.6
2022-10-22T15:00:00,1300A,116.9376,36.665,济南市,农科所,颗粒物(PM10),86,122,91,17,28,142,114,86,64,15,51,5,6,0.2,0.4
2022-10-22T15:00:00,1301A,117.1265,36.6734,济南市,开发区,颗粒物(PM10),85,120,84,24,34,140,116,118,71,28,63,4,5,0.4,0.5
2022-10-22T15:00:00,1303A,117.0624,36.6868,济南市,省种子仓库,颗粒物(PM10),91,132,98,34,36,153,125,67,67,16,74,3,6,0.3,0.7
2022-10-22T15:00:00,1304A,116.9489,36.6447,济南市,机床二厂,颗粒物(PM10),89,127,104,24,39,154,121,93,73,16,58,5,7,0.6,0.8
2022-10-22T15:00:00,1305A,117.0495,36.663,济南市,市监测站,颗粒物(PM10),92,134,91,24,36,161,128,122,71,17,65,8,8,0.4,0.8
2022-10-22T15:00:00,1306A,116.7675,36.5484,济南市,长清党校,颗粒物(PM10),85,120,76,17,30,161,108,105,94,6,34,5,8,0.3,0.5
2022-10-22T15:00:00,1307A,120.6659,36.2403,青岛市,仰口(对照点),颗粒物(PM10),57,63,26,31,15,161,161,125,121,18,14,7,3,0.7,0.9
2022-10-22T15:00:00,1308A,120.3905,36.1851,青岛市,李沧区子站,,,,,,,,,,,,,,,,
2022-10-22T15:00:00,1309A,120.3471,36.0699,青岛市,市北区子站,,,,,,,,,,,,,,,,
2022-10-22T15:00:00,1310A,120.4134,36.0658,青岛市,市南区东部子站,臭氧1小时,88,122,40,48,15,190,190,113,113,34,26,24,10,0.7,0.5
2022-10-22T15:00:00,1311A,120.3664,36.1032,青岛市,四方区子站,颗粒物(PM10),82,114,44,51,22,178,178,97,97,31,35,21,9,0.7,0.6
2022-10-22T15:00:00,1312A,120.2994,36.054,青岛市,市南区西部子站,细颗粒物(PM2.5),83,102,41,61,22,207,178,97,97,49,39,34,11,0.9,0.7
2022-10-22T15:00:00,1313A,120.4581,36.0858,青岛市,崂山区子站,臭氧1小时,97,107,42,51,18,197,197,118,118,29,30,15,7,0.8,0.5
2022-10-22T15:00:00,1314A,120.1983,35.9608,青岛市,黄岛区子站,臭氧1小时,103,119,45,61,26,212,206,114,114,39,36,30,9,0.6,0.5
2022-10-22T15:00:00,1315A,120.3999,36.3083,青岛市,城阳区子站,臭氧1小时,78,92,51,34,17,182,182,105,105,37,39,17,7,0.8,0.7
2022-10-22T15:00:00,1316A,113.69031,34.76122,郑州市,烟厂,颗粒物(PM10),101,152,97,43,67,184,157,115,115,13,39,8,8,0.7,0.9
2022-10-22T15:00:00,1317A,113.65724,34.77134,郑州市,郑纺机,颗粒物(PM10),103,155,101,47,72,189,163,115,115,15,46,14,12,0.7,0.9
2022-10-22T15:00:00,1318A,113.67526,34.80246,郑州市,银行学校,颗粒物(PM10),93,135,93,42,71,157,133,99,99,17,37,11,11,0.9,1.1
2022-10-22T15:00:00,1319A,113.56746,34.81334,郑州市,供水公司,颗粒物(PM10),88,126,88,30,53,184,165,120,120,11,30,12,12,0.8,0.9
2022-10-22T15:00:00,1320A,113.7329,34.7178,郑州市,经开区管委,颗粒物(PM10),97,143,92,49,57,183,164,121,121,12,28,8,8,0.7,0.7
2022-10-22T15:00:00,1321A,113.73961,34.77172,郑州市,四十七中,颗粒物(PM10),97,144,97,34,37,186,157,121,121,13,34,12,12,0.6,0.8
2022-10-22T15:00:00,1322A,113.60532,34.74838,郑州市,市监测站,,,142,99,,43,184,169,122,122,14,29,11,10,0.8,0.7
2022-10-22T15:00:00,1323A,113.64164,34.7525,郑州市,河医大,颗粒物(PM10),103,155,102,55,64,176,150,108,108,25,36,13,11,0.8,0.8
2022-10-22T15:00:00,1324A,113.51488,34.91089,郑州市,岗李水库(对照点),,,,,,,,,,,,,,,,
2022-10-22T15:00:00,1325A,114.3677,30.5584,武汉市,东湖梨园,臭氧1小时,101,56,75,29,56,202,202,112,112,19,69,8,9,1.6,1.5
2022-10-22T15:00:00,1326A,114.2529,30.558,武汉市,汉阳月湖,臭氧1小时,95,63,104,36,77,196,196,117,117,19,80,8,8,0.8,1.1
2022-10-22T15:00:00,1327A,114.282,30.6189,武汉市,汉口花桥,臭氧1小时,83,62,106,27,66,186,186,111,111,16,76,11,12,0.6,1.1
2022-10-22T15:00:00,1328A,114.3025,30.5332,武汉市,武昌紫阳,臭氧1小时,94,66,97,32,60,195,195,119,119,21,77,10,10,0.7,1.1
2022-10-22T15:00:00,1329A,114.3646,30.6217,武汉市,青山钢花,臭氧1小时,65,56,114,31,69,175,172,104,104,17,87,9,11,0.3,0.8
2022-10-22T15:00:00,1330A,114.1566,30.4825,武汉市,沌口新区,臭氧1小时,82,59,110,34,75,185,185,98,98,26,95,10,11,0.7,0.9
2022-10-22T15:00:00,1331A,114.3014,30.5944,武汉市,汉口江滩,臭氧1小时,92,56,94,28,66,193,193,119,119,16,71,8,10,0.8,1.1
2022-10-22T15:00:00,1333A,114.135,30.6319,武汉市,吴家山,臭氧1小时,75,52,109,34,71,182,180,111,111,35,85,9,10,0.8,1
2022-10-22T15:00:00,1334A,113.8454,30.2917,武汉市,沉湖七壕(对照点),臭氧1小时,105,72,99,39,72,209,209,122,122,18,24,11,9,0.7,0.9
2022-10-22T15:00:00,1335A,113.0833,28.2325,长沙市,经开区环保局,臭氧1小时,102,77,77,55,58,204,204,147,147,20,31,9,8,0.6,0.6
2022-10-22T15:00:00,1336A,112.8872,28.2189,长沙市,高开区环保局,臭氧1小时,98,57,72,43,65,198,198,159,159,9,14,10,10,0.4,0.5
2022-10-22T15:00:00,1337A,113.0792,28.2053,长沙市,马坡岭,臭氧1小时,101,77,81,54,68,202,202,138,138,10,21,11,10,0.5,0.5
2022-10-22T15:00:00,1338A,112.9394,28.19,长沙市,湖南师范大学,臭氧1小时,93,64,72,47,66,194,194,150,150,14,16,6,5,0.6,0.8
2022-10-22T15:00:00,1339A,113.0178,28.1322,长沙市,雨花区环保局,,,69,74,,54,172,172,121,121,18,25,10,10,0.9,0.7
2022-10-22T15:00:00,1340A,112.9792,28.2597,长沙市,伍家岭,臭氧1小时,109,80,85,51,64,218,218,155,155,13,26,9,8,0.7,0.7
2022-10-22T15:00:00,1341A,113.0014,28.1944,长沙市,火车新站,臭氧1小时,102,74,76,46,54,204,204,150,150,16,20,10,9,0.5,0.5
2022-10-22T15:00:00,1342A,112.9844,28.1178,长沙市,天心区环保局,臭氧1小时,94,71,71,39,65,195,195,148,148,18,26,9,9,0.5,0.5
2022-10-22T15:00:00,1343A,112.8908,28.1308,长沙市,湖南中医药大学,臭氧1小时,88,76,85,40,58,190,190,147,147,7,15,6,5,0.6,0.7
2022-10-22T15:00:00,1344A,112.9581,28.3611,长沙市,沙坪(对照点),臭氧1小时,102,67,76,45,63,204,204,156,156,16,16,8,8,0.6,0.6
2022-10-22T15:00:00,1345A,113.2347,23.1423,广州市,广雅中学,,44,35,86,15,44,240,138,102,102,23,81,6,7,0.5,0.9
2022-10-22T15:00:00,1346A,113.2612,23.105,广州市,市五中,臭氧1小时,62,33,76,15,50,285,169,131,131,13,61,6,7,0.4,0.8
2022-10-22T15:00:00,1348A,113.3478,23.0916,广州市,广东商学院,臭氧1小时,54,31,63,14,32,249,163,125,125,13,56,6,7,0.5,0.7
2022-10-22T15:00:00,1349A,113.4332,23.1047,广州市,市八十六中,,48,31,71,16,30,220,151,114,114,12,65,8,9,0.4,0.6
2022-10-22T15:00:00,1350A,113.3505,22.9483,广州市,番禺中学,臭氧1小时,79,41,66,15,39,287,183,138,138,17,45,10,12,0.4,0.7
2022-10-22T15:00:00,1351A,113.2146,23.3916,广州市,花都师范,,44,23,65,12,35,188,140,122,122,8,46,7,9,0.5,0.8
2022-10-22T15:00:00,1352A,113.2597,23.1331,广州市,市监测站,臭氧1小时,55,23,75,18,42,278,164,123,123,13,70,6,7,0.5,0.9
2022-10-22T15:00:00,1353A,113.5618,23.312,广州市,九龙镇镇龙,,40,28,98,14,43,186,126,96,96,8,62,5,5,0.4,0.7
2022-10-22T15:00:00,1354A,113.2765,23.1544,广州市,麓湖,臭氧1小时,65,29,65,17,39,257,172,124,124,10,72,5,4,0.4,0.7
2022-10-22T15:00:00,1355A,113.443,23.3035,广州市,帽峰山森林公园(对照点),,47,26,52,15,29,199,149,123,123,8,27,6,8,0.2,0.4
2022-10-22T15:00:00,1356A,114.1063,22.5545,深圳市,通心岭子站,,44,29,41,13,19,198,139,113,113,9,17,6,5,0.5,0.6
2022-10-22T15:00:00,1357A,114.117,22.5625,深圳市,洪湖,,45,32,46,21,22,198,141,106,106,14,27,8,7,0.6,0.6
2022-10-22T15:00:00,1358A,113.987,22.5417,深圳市,华侨城,,50,37,50,24,24,195,159,118,118,18,23,8,6,0.4,0.4
2022-10-22T15:00:00,1359A,113.9181,22.5171,深圳市,南海子站,臭氧1小时,53,33,48,14,24,241,162,140,140,8,16,5,5,0.3,0.4
2022-10-22T15:00:00,1360A,114.2458,22.5689,深圳市,盐田,,40,25,30,17,16,146,125,114,114,22,18,8,7,0.5,0.5
2022-10-22T15:00:00,1361A,114.2283,22.7244,深圳市,龙岗,,44,31,44,13,20,154,139,104,104,6,22,6,5,0.4,0.4
2022-10-22T15:00:00,1362A,113.8953,22.5861,深圳市,西乡,,,,,,,,,,,,,,,,
2022-10-22T15:00:00,1363A,114.494,22.5422,深圳市,南澳,,41,34,29,19,13,162,130,116,116,10,10,14,12,0.6,0.6
2022-10-22T15:00:00,1364A,114.41,22.6342,深圳市,葵涌,,34,24,30,13,16,136,107,103,103,6,12,6,6,0.6,0.6
2022-10-22T15:00:00,1365A,114.297,22.5978,深圳市,梅沙,,41,33,37,16,15,156,129,126,126,9,11,9,9,0.5,0.5
2022-10-22T15:00:00,1366A,114.0678,22.738,深圳市,观澜,,45,37,65,15,25,208,141,118,118,14,34,8,7,0.5,0.5
2022-10-22T15:00:00,1367A,113.5814,22.2618,珠海市,吉大,臭氧1小时,115,48,39,30,33,252,229,156,156,16,15,7,6,0.4,0.4
2022-10-22T15:00:00,1368A,113.4881,22.2335,珠海市,前山,臭氧1小时,117,47,57,31,22,250,233,141,141,31,33,8,6,0.3,0.3
2022-10-22T15:00:00,1369A,113.628,22.4251,珠海市,唐家,臭氧1小时,107,50,43,28,27,260,213,142,142,16,21,9,7,0.5,0.5
2022-10-22T15:00:00,1370A,113.299,22.2281,珠海市,斗门,臭氧1小时,124,46,52,24,22,247,247,151,151,23,24,12,9,0.5,0.5
2022-10-22T15:00:00,1371A,113.1294,23.0067,佛山市,湾梁,臭氧1小时,69,36,82,17,37,309,175,130,130,12,55,7,9,0.5,0.7
2022-10-22T15:00:00,1372A,113.1083,23.0478,佛山市,华材职中,,50,31,84,21,45,295,157,113,113,19,67,10,12,0.4,0.7
2022-10-22T15:00:00,1373A,113.144,23.0453,佛山市,南海气象局,臭氧1小时,53,37,82,11,47,304,162,117,117,16,62,7,9,0.1,0.4
2022-10-22T15:00:00,1374A,113.2881,22.8094,佛山市,顺德苏岗,臭氧1小时,97,33,70,19,39,290,197,135,135,17,47,8,8,0.7,0.9
2022-10-22T15:00:00,1375A,113.2544,22.7642,佛山市,容桂街道办,,,,,,,,,,,,,,,,
2022-10-22T15:00:00,1376A,112.8383,22.8678,佛山市,高明孔堂,臭氧1小时,82,42,78,15,44,333,185,143,143,12,31,11,12,0.5,0.7
2022-10-22T15:00:00,1377A,112.8836,23.1588,佛山市,三水监测站,臭氧1小时,55,34,88,24,48,207,164,116,116,11,76,6,10,0.4,0.7
2022-10-22T15:00:00,1378A,112.867,23.185,佛山市,三水云东海,臭氧1小时,54,32,71,16,40,219,163,116,116,11,53,8,9,0.3,0.6
2022-10-22T15:00:00,1379A,113.3769,22.5211,中山市,华柏园,臭氧1小时,109,59,57,28,33,309,218,148,148,21,34,9,7,0.5,0.6
2022-10-22T15:00:00,1380A,113.3881,22.5497,中山市,张溪,臭氧1小时,109,64,73,31,36,312,218,149,149,18,41,9,7,0.4,0.5
2022-10-22T15:00:00,1381A,113.4075,22.5111,中山市,紫马岭,臭氧1小时,113,54,61,41,35,306,226,154,154,17,28,10,8,0.5,0.5
2022-10-22T15:00:00,1382A,113.4411,22.4853,中山市,长江旅游区(对照点),臭氧1小时,111,63,50,36,32,290,222,139,139,20,19,9,7,0.6,0.6
2022-10-22T15:00:00,1383A,113.1064,22.6058,江门市,北街,臭氧1小时,112,54,67,20,34,353,224,169,169,17,31,9,8,0.6,0.7
2022-10-22T15:00:00,1384A,113.0731,22.5835,江门市,西区,臭氧1小时,118,45,74,17,39,331,235,174,174,22,39,9,9,0.5,0.8
2022-10-22T15:00:00,1385A,113.0219,22.5311,江门市,圭峰西,臭氧1小时,116,57,66,22,38,368,232,182,182,20,34,7,9,0.4,0.6
2022-10-22T15:00:00,1386A,113.0828,22.5947,江门市,东湖,臭氧1小时,114,32,76,23,38,325,227,173,173,18,32,8,8,0.5,0.7
2022-10-22T15:00:00,1387A,113.7875,23.0457,东莞市,东城主山,,,,,,,,,,,,,,,,
2022-10-22T15:00:00,1388A,113.7533,23.0202,东莞市,南城元岭,,,,,,,,,,,,,,,,
2022-10-22T15:00:00,1389A,113.7547,23.0494,东莞市,莞城梨川,臭氧1小时,54,37,71,13,34,170,163,129,129,14,41,10,10,0.6,0.8
2022-10-22T15:00:00,1390A,113.7944,23.0128,东莞市,东城石井,臭氧1小时,62,26,52,13,28,191,169,131,131,10,25,12,11,0.6,0.7
2022-10-22T15:00:00,1391A,113.7383,22.9658,东莞市,南城西平,臭氧1小时,59,61,71,26,30,192,167,122,122,14,46,14,12,0.5,0.8
2022-10-22T15:00:00,1392A,114.4183,23.0528,惠州市,河南岸金山湖子站,,44,43,57,18,25,148,139,104,104,12,23,9,7,0.6,0.6
2022-10-22T15:00:00,1393A,114.4053,23.0822,惠州市,下埔横江三路子站,,50,50,59,18,27,160,158,117,117,12,23,10,8,0.4,0.4
2022-10-22T15:00:00,1394A,114.4103,23.1142,惠州市,江北云山西路子站,,,,,,,,,,,,,,,,
2022-10-22T15:00:00,1395A,114.4645,22.7833,惠州市,惠阳区承修路船湖子站,颗粒物(PM10),53,56,65,22,24,178,147,115,115,16,20,8,7,0.8,0.8
2022-10-22T15:00:00,1396A,114.5317,22.7422,惠州市,大亚湾管委会子站,,40,33,44,17,19,136,128,105,105,10,17,4,4,0.7,0.6
2022-10-22T15:00:00,1397A,112.4267,23.0706,肇庆市,睦岗子站,,,31,65,21,38,262,180,125,125,22,65,,10,0.5,0.7
2022-10-22T15:00:00,1398A,112.4645,23.0475,肇庆市,城中子站,臭氧1小时,72,30,71,18,41,250,177,112,112,13,58,12,22,0.3,0.6
2022-10-22T15:00:00,1399A,112.5544,23.1522,肇庆市,坑口子站,臭氧1小时,73,34,46,19,30,226,178,142,142,18,25,12,11,0.5,0.6
2022-10-22T15:00:00,1400A,112.4753,23.1,肇庆市,七星岩子站(对照点),臭氧1小时,64,33,57,16,33,241,171,134,134,9,27,6,7,0.5,0.7
2022-10-22T15:00:00,1401A,108.3103,22.7881,南宁市,二十一中,臭氧1小时,101,53,55,34,30,201,201,92,92,19,36,12,12,0.8,0.8
2022-10-22T15:00:00,1402A,108.3141,22.8528,南宁市,北湖,臭氧1小时,64,55,60,35,34,186,171,94,94,9,22,13,12,0.5,0.7
2022-10-22T15:00:00,1403A,108.3206,22.8225,南宁市,市监测站,臭氧1小时,102,71,64,29,32,203,203,87,87,22,49,16,15,0.7,0.8
2022-10-22T15:00:00,1404A,108.3829,22.8037,南宁市,大自然花园,细颗粒物(PM2.5),52,50,53,36,31,165,156,82,82,12,31,12,10,0.7,0.9
2022-10-22T15:00:00,1405A,108.4394,22.7904,南宁市,仙葫(对照点),,49,48,54,33,32,157,154,82,82,10,38,8,7,0.6,0.7
2022-10-22T15:00:00,1406A,108.2397,22.8467,南宁市,区农职院,臭氧1小时,105,59,49,33,26,209,209,102,102,20,31,12,12,0.9,0.9
2022-10-22T15:00:00,1407A,108.3275,22.735,南宁市,英华嘉园,臭氧1小时,68,42,52,38,30,174,174,79,79,15,28,12,11,0.8,0.8
2022-10-22T15:00:00,1408A,108.2257,22.7757,南宁市,沙井镇街道办,臭氧1小时,80,66,48,33,25,184,184,86,86,18,30,12,10,0.7,0.7
2022-10-22T15:00:00,1409A,110.576,19.9507,海口市,东寨港(对照点),,,42,32,17,9,70,70,47,47,,,3,4,0.3,0.3
2022-10-22T15:00:00,1410A,110.3232,20.0574,海口市,海南大学,,49,40,41,25,12,154,154,123,123,9,8,8,6,0.6,0.6
2022-10-22T15:00:00,1411A,110.283,20.0053,海口市,秀英海南医院,臭氧1小时,55,48,42,27,13,165,164,118,118,7,15,6,4,0.5,0.5
2022-10-22T15:00:00,1412A,110.338,19.9969,海口市,海南师范大学,臭氧1小时,53,44,44,18,13,162,162,124,124,6,10,7,5,0.7,0.6
2022-10-22T15:00:00,1413A,110.33,20.0356,海口市,龙华路环保局宿舍,,49,45,40,20,12,154,154,118,118,6,9,5,4,0.7,0.6
2022-10-22T15:00:00,1414A,106.3787,29.8279,重庆市,缙云山(对照点),颗粒物(PM10),73,95,61,52,33,206,163,188,135,45,22,13,10,0.7,0.5
2022-10-22T15:00:00,1416A,106.4213,29.8253,重庆市,天生,细颗粒物(PM2.5),114,116,96,86,65,201,167,52,52,49,59,24,15,1.1,0.9
2022-10-22T15:00:00,1417A,106.6263,29.7228,重庆市,两路,细颗粒物(PM2.5),75,91,85,55,52,192,117,89,60,77,69,25,18,1.1,0.8
2022-10-22T15:00:00,1418A,106.2953,29.5983,重庆市,虎溪,细颗粒物(PM2.5),83,110,75,61,48,218,172,65,65,44,79,32,16,0.8,0.8
2022-10-22T15:00:00,1419A,106.5777,29.5102,重庆市,南坪,细颗粒物(PM2.5),79,97,88,58,57,193,168,77,77,38,65,15,12,0.9,0.9
2022-10-22T15:00:00,1420A,106.6556,29.6277,重庆市,唐家沱,细颗粒物(PM2.5),94,109,107,70,58,213,180,65,65,52,89,35,15,0.9,0.7
2022-10-22T15:00:00,1421A,106.6349,29.4906,重庆市,茶园,颗粒物(PM10),90,130,116,63,61,201,89,44,44,103,104,15,12,1.2,1.2
2022-10-22T15:00:00,1422A,106.3754,29.4572,重庆市,白市驿,细颗粒物(PM2.5),117,,108,88,64,208,159,128,70,52,49,35,22,0.9,0.8
2022-10-22T15:00:00,1425A,106.6205,29.7166,重庆市,空港,细颗粒物(PM2.5),80,77,88,59,53,186,128,111,62,66,67,27,20,0.9,0.8
2022-10-22T15:00:00,1426A,106.4782,29.4875,重庆市,新山村,细颗粒物(PM2.5),104,123,114,78,70,216,132,42,42,86,135,14,11,0.8,1.2
2022-10-22T15:00:00,1427A,106.5616,29.6453,重庆市,礼嘉,颗粒物(PM10),90,130,111,59,52,212,118,54,54,93,112,21,14,1.2,1.1
2022-10-22T15:00:00,1428A,106.4522,29.7091,重庆市,蔡家,,,,104,,55,193,108,38,35,94,77,18,10,1.0,0.7
2022-10-22T15:00:00,1429A,106.5093,29.3917,重庆市,鱼新街,细颗粒物(PM2.5),88,114,113,65,73,208,113,39,39,58,93,24,17,1.0,1.1
2022-10-22T15:00:00,1431A,103.9728,30.7236,成都市,金泉两河,臭氧1小时,82,66,102,39,70,193,185,90,90,18,56,8,9,0.5,0.9
2022-10-22T15:00:00,1432A,104.1419,30.6764,成都市,十里店,颗粒物(PM10),61,71,116,38,68,179,156,74,74,22,83,8,7,0.6,1
2022-10-22T15:00:00,1433A,104.0594,30.5767,成都市,三瓦窑,臭氧1小时,83,75,131,39,73,195,186,74,74,34,92,4,4,0.5,0.9
2022-10-22T15:00:00,1434A,104.1122,30.6306,成都市,沙河铺,颗粒物(PM10),66,81,109,42,63,197,161,66,66,30,71,7,6,0.5,1
2022-10-22T15:00:00,1437A,104.0431,30.6556,成都市,君平街,细颗粒物(PM2.5),88,89,112,65,80,197,176,80,80,34,83,7,8,0.8,1.2
2022-10-22T15:00:00,1438A,103.6202,31.0201,成都市,灵岩寺(对照点),颗粒物(PM10),51,52,48,35,32,165,147,116,103,10,12,8,11,0.5,0.5
2022-10-22T15:00:00,1439A,106.6899,26.5998,贵阳市,马鞍山,细颗粒物(PM2.5),58,44,46,41,42,114,110,69,69,6,15,6,4,0.5,0.6
2022-10-22T15:00:00,1440A,106.6971,26.5694,贵阳市,市环保站,,46,46,59,29,43,130,130,71,71,13,36,7,5,0.4,0.6
2022-10-22T15:00:00,1441A,106.6243,26.6266,贵阳市,鉴湖路,,46,46,62,31,44,135,130,93,93,9,24,7,5,0.7,0.7
2022-10-22T15:00:00,1442A,106.7487,26.6343,贵阳市,燕子冲,细颗粒物(PM2.5),59,51,55,42,49,130,129,78,78,18,21,7,6,0.5,0.7
2022-10-22T15:00:00,1443A,106.6555,26.4365,贵阳市,碧云窝,颗粒物(PM10),51,51,62,29,45,134,130,80,80,8,25,6,6,0.4,0.6
2022-10-22T15:00:00,1444A,106.694,26.5161,贵阳市,中院村,,42,41,67,29,49,116,115,78,78,12,36,7,8,0.5,0.8
2022-10-22T15:00:00,1445A,106.7109,26.6027,贵阳市,红边门,细颗粒物(PM2.5),67,46,58,48,51,134,134,77,77,11,32,8,7,0.6,0.7
2022-10-22T15:00:00,1446A,106.7164,26.5699,贵阳市,新华路,细颗粒物(PM2.5),52,34,53,36,47,124,124,84,84,6,25,5,5,0.6,0.7
2022-10-22T15:00:00,1447A,106.674,26.5424,贵阳市,太慈桥,,48,48,57,31,39,128,128,72,72,8,17,5,4,0.5,0.7
2022-10-22T15:00:00,1450A,102.8204,24.8886,昆明市,呈贡新区,,22,18,34,12,18,84,69,49,49,9,30,6,7,0.4,0.5
2022-10-22T15:00:00,1451A,102.6251,24.9608,昆明市,西山森林公园(对照点),,30,8,16,15,11,93,93,77,53,8,10,8,6,0.6,0.6
2022-10-22T15:00:00,1452A,102.7252,25.0902,昆明市,龙泉镇,,26,1,31,9,19,89,82,52,52,16,49,6,7,0.3,0.5
2022-10-22T15:00:00,1453A,102.7266,25.0375,昆明市,东风东路,,25,13,30,8,16,96,80,46,46,9,27,5,7,0.4,0.6
2022-10-22T15:00:00,1454A,102.6742,25.0669,昆明市,金鼎山,,25,8,29,9,18,86,77,48,48,7,20,5,11,0.3,0.5
2022-10-22T15:00:00,1455A,102.6644,25.0401,昆明市,碧鸡广场,,25,8,27,6,22,83,79,54,54,9,25,8,12,0.4,0.5
2022-10-22T15:00:00,1456A,91.1319,29.6514,拉萨市,八廓街,,,2,8,,,119,119,98,95,8,9,7,7,0,0
2022-10-22T15:00:00,1457A,91.1221,29.6747,拉萨市,市环保局,,37,3,8,0,2,117,117,100,91,4,7,2,2,0.2,0.2
2022-10-22T15:00:00,1458A,91.0874,29.6475,拉萨市,区监测站,,41,2,7,0,2,130,130,114,105,2,3,8,8,0.3,0.3
2022-10-22T15:00:00,1459A,91.1774,29.6541,拉萨市,西藏大学,,37,1,12,4,3,118,118,101,95,6,7,10,10,0,0.1
2022-10-22T15:00:00,1460A,90.9798,29.6588,拉萨市,区辐射站,,36,4,4,7,5,114,114,106,92,4,5,8,8,0.2,0.2
2022-10-22T15:00:00,1461A,91.0834,29.6292,拉萨市,拉萨火车站,,38,3,7,5,3,121,121,107,101,3,4,10,10,0,0
2022-10-22T15:00:00,1462A,108.882,34.2749,西安市,高压开关厂,细颗粒物(PM2.5),108,121,157,81,89,163,157,50,50,43,89,8,8,0.6,1.1
2022-10-22T15:00:00,1463A,108.993,34.2629,西安市,兴庆小区,细颗粒物(PM2.5),118,121,86,89,49,159,155,71,71,33,53,11,9,0.7,0.7
2022-10-22T15:00:00,1464A,109.06,34.2572,西安市,纺织城,细颗粒物(PM2.5),113,138,100,85,51,159,152,68,68,40,59,14,10,0.9,0.9
2022-10-22T15:00:00,1465A,108.9356,34.2173,西安市,小寨,细颗粒物(PM2.5),92,129,109,68,48,164,164,76,76,32,69,10,10,0.9,1.2
2022-10-22T15:00:00,1466A,108.954,34.2713,西安市,市人民体育场,细颗粒物(PM2.5),143,125,105,109,70,158,157,69,69,37,64,11,7,0.7,0.8
2022-10-22T15:00:00,1467A,108.8922,34.2322,西安市,高新西区,细颗粒物(PM2.5),94,124,121,70,66,162,162,70,70,42,77,8,8,0.9,1.2
2022-10-22T15:00:00,1468A,108.935,34.3474,西安市,经开区,细颗粒物(PM2.5),133,117,117,101,66,162,144,58,58,41,80,12,8,0.7,1
2022-10-22T15:00:00,1469A,108.906,34.1546,西安市,长安区,细颗粒物(PM2.5),94,127,112,70,50,163,163,79,79,28,52,8,6,0.7,0.7
2022-10-22T15:00:00,1470A,109.2,34.6575,西安市,阎良区,,,,,,,,,,,,,,,,
2022-10-22T15:00:00,1471A,109.2186,34.3731,西安市,临潼区,细颗粒物(PM2.5),98,130,106,73,55,162,159,70,70,33,44,13,8,0.7,0.7
2022-10-22T15:00:00,1472A,108.869,34.378,西安市,草滩(对照点),细颗粒物(PM2.5),118,122,131,89,68,150,139,51,51,52,91,13,9,0.9,1.1
2022-10-22T15:00:00,1473A,108.985,34.1978,西安市,曲江文化产业集团,细颗粒物(PM2.5),112,112,98,84,61,177,177,85,85,30,70,9,8,0.8,0.8
2022-10-22T15:00:00,1474A,109.051,34.3213,西安市,广运潭,细颗粒物(PM2.5),117,129,95,88,50,156,141,71,71,37,65,12,8,0.7,0.6
2022-10-22T15:00:00,1476A,103.631,36.1031,兰州市,兰炼宾馆,颗粒物(PM10),61,71,78,32,36,132,132,70,70,24,45,21,28,0.6,0.7
2022-10-22T15:00:00,1477A,104.1373,35.9454,兰州市,榆中兰大校区(对照点),,,,,,,,,,,,,,,,
2022-10-22T15:00:00,1478A,103.8412,36.0726,兰州市,生物制品所,颗粒物(PM10),60,69,69,34,34,118,112,56,56,25,49,12,12,0.6,0.7
2022-10-22T15:00:00,1479A,103.831,36.0464,兰州市,铁路设计院,颗粒物(PM10),61,71,74,28,30,122,122,68,68,24,53,15,15,0.8,1
2022-10-22T15:00:00,1480A,101.748,36.6428,西宁市,市环境监测站,,,,,,,,,,,,,,,,
2022-10-22T15:00:00,1482A,101.834,36.5819,西宁市,四陆医院,,,,,,,,,,,,,,,,
2022-10-22T15:00:00,1483A,101.524,36.6867,西宁市,第五水厂(对照点),,,,,,,,,,,,,,,,
2022-10-22T15:00:00,1484A,105.9512,38.6016,银川市,贺兰山马莲口(对照点),,37,37,48,11,21,165,106,80,80,19,20,21,19,0.4,0.4
2022-10-22T15:00:00,1488A,106.2328,38.4975,银川市,贺兰山东路,,34,27,52,23,31,155,106,66,66,12,23,12,16,0.5,0.6
2022-10-22T15:00:00,1489A,106.1358,38.5036,银川市,学院路,颗粒物(PM10),51,51,65,10,22,146,100,59,59,15,30,15,20,0.9,0.9
2022-10-22T15:00:00,1490A,87.5801,43.8303,乌鲁木齐市,监测站,,36,36,31,21,22,75,63,33,33,27,36,13,7,0.7,0.7
2022-10-22T15:00:00,1491A,87.6046,43.768,乌鲁木齐市,收费所,,49,44,32,34,21,91,84,67,48,22,25,11,8,0.4,0.4
2022-10-22T15:00:00,1492A,87.4754,43.9469,乌鲁木齐市,新疆农科院农场(对照点),,40,10,11,28,18,62,62,25,25,26,36,9,6,0.9,0.9
2022-10-22T15:00:00,1493A,87.5525,43.8711,乌鲁木齐市,铁路局,,36,36,29,22,21,78,69,39,39,18,28,11,7,0.8,0.8
2022-10-22T15:00:00,1494A,87.6432,43.831,乌鲁木齐市,三十一中学,,,53,39,,,82,74,67,67,24,19,15,12,0.4,0.4
2022-10-22T15:00:00,1496A,87.7216,44.1747,乌鲁木齐市,米东区环保局,细颗粒物(PM2.5),55,56,44,39,24,84,74,33,33,18,24,20,8,0.5,0.4
2022-10-22T15:00:00,1508A,112.9433,27.8614,湘潭市,板塘,臭氧1小时,101,64,78,41,68,224,201,153,153,17,24,12,12,0.4,0.5
2022-10-22T15:00:00,1511A,112.9118,27.8403,湘潭市,市监测站,臭氧1小时,80,54,68,32,62,208,184,140,140,16,22,10,9,0.5,0.6
2022-10-22T15:00:00,1512A,112.8937,27.8728,湘潭市,江麓,,,,82,,67,136,,138,,,19,,9,,0.5
2022-10-22T15:00:00,1513A,112.9227,27.8159,湘潭市,岳塘,,,66,84,32,64,223,197,156,156,19,27,5,8,,0.5
2022-10-22T15:00:00,1514A,112.9074,27.9119,湘潭市,科大,臭氧1小时,103,67,90,49,64,218,206,156,156,16,21,7,6,0.6,0.6
2022-10-22T15:00:00,1515A,113.135,27.8244,株洲市,天台山庄,臭氧1小时,108,61,63,44,57,237,216,151,151,23,33,5,6,0.4,0.5
2022-10-22T15:00:00,1518A,113.095,27.8867,株洲市,株冶医院,臭氧1小时,105,71,75,42,69,233,209,148,148,,44,10,8,0.2,0.5
2022-10-22T15:00:00,1519A,113.167,27.8667,株洲市,市四中,臭氧1小时,111,66,65,46,56,246,221,152,152,27,34,7,8,0.5,0.5
2022-10-22T15:00:00,1520A,113.143,27.8381,株洲市,火车站,臭氧1小时,113,73,78,44,58,246,226,164,164,21,35,7,7,0.6,0.6
2022-10-22T15:00:00,1524A,113.13,27.8528,株洲市,市监测站,臭氧1小时,107,68,77,44,67,234,214,151,151,16,30,8,4,0.6,0.6
2022-10-22T15:00:00,1552A,106.805,26.3003,贵阳市,桐木岭(对照点),,,,,,,,,,,,,,,,
2022-10-22T15:00:00,1559A,113.251,27.8336,株洲市,大京风景区(对照点),臭氧1小时,104,70,60,44,45,212,207,147,147,13,17,6,5,0.5,0.5
2022-10-22T15:00:00,1562A,113.0048,27.9153,湘潭市,昭山,臭氧1小时,104,91,96,51,62,213,208,154,154,16,26,6,5,0.6,0.6
2022-10-22T15:00:00,1564A,112.4876,27.9164,湘潭市,韶山(对照点),臭氧1小时,80,60,67,40,35,197,184,165,165,20,17,11,11,0.5,0.6
2022-10-22T15:00:00,1585A,109.8756,40.6532,包头市,市环境监测站,颗粒物(PM10),74,98,84,43,21,113,97,66,66,14,18,21,22,1.4,1.1
2022-10-22T15:00:00,1587A,109.9991,40.5842,包头市,包头八中,颗粒物(PM10),70,89,101,24,17,105,105,59,59,16,22,19,16,0.9,0.6
2022-10-22T15:00:00,1588A,109.8538,40.6821,包头市,青山宾馆,颗粒物(PM10),77,104,85,19,16,103,96,64,64,12,19,21,22,1.0,0.9
2022-10-22T15:00:00,1589A,109.8642,40.6288,包头市,惠龙物流,颗粒物(PM10),67,84,82,23,25,104,99,66,66,18,17,19,16,1.4,1
2022-10-22T15:00:00,1590A,110.0377,40.5546,包头市,东河鸿龙湾,颗粒物(PM10),58,66,93,14,22,96,95,56,56,9,24,13,12,0.4,0.4
2022-10-22T15:00:00,1591A,110.0023,39.8129,鄂尔多斯市,综合楼,,23,22,73,2,12,83,71,48,48,7,20,5,7,0.3,0.4
2022-10-22T15:00:00,1592A,109.9486,39.8261,鄂尔多斯市,巴音孟克林场办事处,,31,31,83,7,20,93,87,68,68,6,21,5,7,0.5,0.6
2022-10-22T15:00:00,1593A,109.7736,39.5986,鄂尔多斯市,康泽苑,,,27,83,5,20,100,92,67,67,8,12,,4,,0.6
2022-10-22T15:00:00,1594A,109.8119,39.5989,鄂尔多斯市,华泰汽车城,,25,24,86,9,27,92,80,51,51,2,12,5,6,0.3,0.4
2022-10-22T15:00:00,1595A,109.9734,39.7884,鄂尔多斯市,奥林花园,,34,34,98,5,20,84,82,52,52,9,27,8,8,0.2,0.3
2022-10-22T15:00:00,1596A,122.2414,40.6592,营口市,学府南路,,,,,,,,,,,,,,,,
2022-10-22T15:00:00,1597A,122.2703,40.7094,营口市,大庆路,,27,23,74,5,49,159,86,73,73,11,36,5,7,0.4,1
2022-10-22T15:00:00,1598A,122.215,40.6511,营口市,镜湖西路,,27,27,75,2,41,154,77,65,65,7,24,2,4,0.5,1
2022-10-22T15:00:00,1599A,122.167,40.6655,营口市,西炮台,,25,10,77,5,53,157,79,68,68,10,25,6,11,0.3,0.7
2022-10-22T15:00:00,1600A,124.3303,40.0625,丹东市,江湾东路,,27,21,35,8,19,106,86,80,80,12,18,12,10,0.5,0.5
2022-10-22T15:00:00,1601A,124.4256,40.1503,丹东市,临江后街,,27,16,35,6,14,112,85,83,83,13,10,10,9,0.5,0.8
2022-10-22T15:00:00,1602A,124.3933,40.1461,丹东市,元宝山,,25,21,32,5,20,105,79,69,67,15,23,11,10,0.6,0.9
2022-10-22T15:00:00,1603A,124.3633,40.1092,丹东市,民主桥,,25,24,36,11,17,108,80,75,75,19,13,12,11,0.6,0.7
2022-10-22T15:00:00,1604A,122.0303,41.1489,盘锦市,开发区,,23,19,41,2,46,142,72,66,66,15,27,5,7,0.5,0.8
2022-10-22T15:00:00,1605A,122.0485,41.0883,盘锦市,兴隆台,,23,16,46,3,43,142,73,67,67,10,20,8,9,0.3,0.7
2022-10-22T15:00:00,1606A,121.8297,41.1028,盘锦市,新生街道,,24,18,31,4,34,147,74,66,66,12,18,8,9,0.5,0.7
2022-10-22T15:00:00,1607A,120.9092,40.7136,葫芦岛市,龙港区,,25,22,75,3,51,145,77,66,66,15,30,26,15,0.1,0.6
2022-10-22T15:00:00,1608A,120.8392,40.7514,葫芦岛市,化工街,,,14,100,,,159,81,73,73,8,37,,,0.4,1.1
2022-10-22T15:00:00,1609A,120.8341,40.7073,葫芦岛市,新区,,25,24,71,7,54,141,78,70,70,18,43,10,11,0.3,1
2022-10-22T15:00:00,1610A,120.8695,40.7677,葫芦岛市,东城区,,23,17,82,5,62,131,71,64,64,5,32,11,14,0.4,1
2022-10-22T15:00:00,1611A,118.5819,24.9117,泉州市,涂山街,,30,29,39,11,13,127,95,78,78,8,10,6,7,0.6,0.6
2022-10-22T15:00:00,1612A,118.5972,24.8978,泉州市,津头埔,,33,33,38,16,17,121,95,75,75,8,10,7,7,0.4,0.5
2022-10-22T15:00:00,1613A,118.6663,24.9424,泉州市,万安,,34,33,34,11,16,131,106,85,85,7,9,8,8,0.5,0.5
2022-10-22T15:00:00,1614A,118.6117,24.9604,泉州市,清源山(对照点),,,,,,,,,,,,,,,,
2022-10-22T15:00:00,1616A,117.6795,36.229,济南市,技术学院,颗粒物(PM10),98,146,126,44,57,165,131,100,100,28,63,9,8,0.8,1.3
2022-10-22T15:00:00,1618A,118.3429,35.0532,临沂市,沂河小区,臭氧1小时,95,85,80,58,44,196,196,114,114,12,54,11,18,0.6,0.6
2022-10-22T15:00:00,1619A,118.295,35.0583,临沂市,鲁南制药厂,臭氧1小时,105,85,94,44,48,209,209,127,127,24,57,11,20,,0.7
2022-10-22T15:00:00,1620A,118.2794,34.9976,临沂市,新光毛纺厂,臭氧1小时,101,88,94,58,49,202,202,117,117,25,57,7,13,0.8,0.9
2022-10-22T15:00:00,1621A,118.3956,35.0888,临沂市,河东保险公司,臭氧1小时,99,83,75,50,44,199,199,116,116,17,40,10,8,0.7,0.7
2022-10-22T15:00:00,1622A,116.3032,37.4674,德州市,儿童乐园,颗粒物(PM10),67,84,122,7,52,165,99,97,64,19,50,4,9,0.1,0.5
2022-10-22T15:00:00,1624A,116.2991,37.4451,德州市,监理站,颗粒物(PM10),62,73,127,4,65,168,104,76,72,12,46,6,13,0.3,0.6
2022-10-22T15:00:00,1625A,115.9848,36.4372,聊城市,区政府,颗粒物(PM10),81,111,115,19,53,169,103,87,85,15,31,9,12,0.4,0.6
2022-10-22T15:00:00,1628A,118.0062,37.3803,滨州市,市环保局,颗粒物(PM10),106,162,153,57,77,164,142,104,104,14,45,16,23,0.8,1
2022-10-22T15:00:00,1629A,118.0018,37.3617,滨州市,第二水厂,颗粒物(PM10),108,166,138,48,69,163,136,103,103,20,63,12,18,0.8,0.9
2022-10-22T15:00:00,1630A,117.9776,37.393,滨州市,北中新校,颗粒物(PM10),103,156,111,51,70,159,143,110,110,18,56,14,16,0.8,0.9
2022-10-22T15:00:00,1631A,118.0414,36.8103,淄博市,人民公园,细颗粒物(PM2.5),172,217,148,130,88,204,202,112,112,34,76,12,18,0.8,1
2022-10-22T15:00:00,1632A,118.0253,36.8406,淄博市,东风化工厂,,,,,,,,,,,,,,,,
2022-10-22T15:00:00,1633A,117.8525,36.4847,淄博市,双山,细颗粒物(PM2.5),148,230,107,113,58,159,159,106,106,36,42,23,11,0.8,0.7
2022-10-22T15:00:00,1634A,117.9592,36.6331,淄博市,气象站,颗粒物(PM10),134,218,135,85,59,203,203,117,117,40,63,12,17,0.9,1
2022-10-22T15:00:00,1635A,118.3092,36.8194,淄博市,莆田园,细颗粒物(PM2.5),156,212,129,119,73,217,215,130,130,38,59,18,14,1.0,1.9
2022-10-22T15:00:00,1636A,117.8661,36.805,淄博市,三金集团,,,,,,,,,,,,,,,,
2022-10-22T15:00:00,1637A,117.558,34.8438,枣庄市,市中区政府,臭氧1小时,105,92,108,44,51,210,210,123,123,22,58,16,14,0.6,0.8
2022-10-22T15:00:00,1638A,117.2852,34.7837,枣庄市,薛城环保局,臭氧1小时,99,117,93,56,45,202,199,129,129,29,55,18,14,0.9,0.9
2022-10-22T15:00:00,1639A,117.5852,34.7745,枣庄市,峄城区政府,臭氧1小时,89,83,118,34,51,191,191,124,124,26,51,14,13,0.9,1.1
2022-10-22T15:00:00,1640A,117.7276,34.5578,枣庄市,台儿庄区环保局,臭氧1小时,89,68,85,39,49,191,191,114,114,19,51,16,12,0.8,1
2022-10-22T15:00:00,1641A,117.4518,35.0992,枣庄市,山亭区环保局,臭氧1小时,105,70,74,34,40,209,209,146,146,25,36,13,13,0.8,0.9
2022-10-22T15:00:00,1642A,121.2514,37.5639,烟台市,开发区,颗粒物(PM10),67,83,49,24,27,113,89,68,68,18,40,10,10,0.5,0.6
2022-10-22T15:00:00,1643A,121.3719,37.5433,烟台市,轴承厂,细颗粒物(PM2.5),107,75,51,80,35,118,104,98,98,11,25,9,9,0.4,0.4
2022-10-22T15:00:00,1644A,121.3181,37.5436,烟台市,西郊化工站,颗粒物(PM10),63,75,63,21,24,116,103,92,92,20,34,9,11,0.7,0.8
2022-10-22T15:00:00,1645A,121.4478,37.4822,烟台市,莱山环保局,颗粒物(PM10),64,78,51,29,22,132,120,114,114,12,18,9,9,0.5,0.4
2022-10-22T15:00:00,1646A,121.2611,37.4967,烟台市,福山环保局,,,90,69,29,30,110,93,69,69,23,54,,9,0.3,0.5
2022-10-22T15:00:00,1648A,119.12,36.7019,潍坊市,仲裁委,,,,,,,,,,,,,,,,
2022-10-22T15:00:00,1650A,119.1437,36.7023,潍坊市,环保局,细颗粒物(PM2.5),153,195,112,117,59,177,166,103,103,30,60,11,9,1.0,0.9
2022-10-22T15:00:00,1652A,119.1936,36.7729,潍坊市,寒亭监测站,,,,,,,,,,,,,,,,
2022-10-22T15:00:00,1653A,116.6251,35.4302,济宁市,火炬城,臭氧1小时,102,69,75,68,53,204,204,113,113,17,34,10,10,0.5,0.6
2022-10-22T15:00:00,1655A,116.5491,35.4042,济宁市,电化厂,臭氧1小时,99,116,92,70,55,199,199,127,127,23,32,14,17,0.6,0.7
2022-10-22T15:00:00,1656A,117.1437,36.1937,泰安市,监测站,颗粒物(PM10),86,122,82,30,43,177,121,115,115,13,32,9,10,0.4,0.6
2022-10-22T15:00:00,1657A,117.0885,36.2017,泰安市,人口学校,颗粒物(PM10),81,112,69,39,34,167,139,108,108,16,28,11,10,0.3,0.4
2022-10-22T15:00:00,1658A,117.1089,36.1758,泰安市,电力学校,颗粒物(PM10),78,105,77,41,36,173,148,108,108,22,46,10,10,0.8,0.9
2022-10-22T15:00:00,1659A,119.471,35.4209,日照市,监测站,颗粒物(PM10),71,92,51,49,28,151,124,81,81,58,45,18,10,1.0,1
2022-10-22T15:00:00,1660A,119.523,35.4216,日照市,市政府广场,颗粒物(PM10),70,90,44,46,24,164,164,82,82,28,38,12,7,0.8,0.7
2022-10-22T15:00:00,1661A,119.5587,35.4044,日照市,港务局,颗粒物(PM10),85,119,54,42,23,153,131,81,81,54,41,15,8,0.8,0.6
2022-10-22T15:00:00,1662A,122.1214,37.4236,威海市,华夏技校,细颗粒物(PM2.5),85,97,39,63,23,144,144,123,123,26,14,9,8,0.6,0.3
2022-10-22T15:00:00,1663A,122.0508,37.5236,威海市,山大分校,颗粒物(PM10),79,107,38,56,16,148,148,116,116,20,15,5,5,0.7,0.3
2022-10-22T15:00:00,1664A,122.1067,37.5072,威海市,市监测站,"颗粒物(PM10),细颗粒物(PM2.5)",77,103,41,56,23,138,138,99,99,21,23,7,6,0.8,0.5
2022-10-22T15:00:00,1665A,118.5019,37.4658,东营市,西城阳光环保公司,,,,,,,,,,,,,,,,
2022-10-22T15:00:00,1666A,118.6614,37.4309,东营市,市环保局,颗粒物(PM10),56,61,106,17,58,145,104,92,92,12,64,9,24,0.6,1
2022-10-22T15:00:00,1669A,113.5824,24.7733,韶关市,市八中,,49,26,58,24,31,161,155,120,120,8,33,12,17,0.4,0.6
2022-10-22T15:00:00,1670A,113.5556,24.8082,韶关市,碧湖山庄,,,,,,,,,,,,,,,,
2022-10-22T15:00:00,1671A,113.5917,24.7972,韶关市,园林处,,50,31,51,22,33,161,160,119,119,5,26,12,18,0.3,0.5
2022-10-22T15:00:00,1672A,113.6735,24.7791,韶关市,韶关学院,,49,48,51,14,33,162,154,118,118,9,31,11,11,0.4,0.6
2022-10-22T15:00:00,1673A,113.5971,24.6863,韶关市,曲江监测站,,50,27,59,18,29,172,160,118,118,5,33,9,14,0.5,0.9
2022-10-22T15:00:00,1674A,116.6794,23.3667,汕头市,金平子站,,36,36,55,22,31,142,89,69,69,24,28,12,14,0.6,0.6
2022-10-22T15:00:00,1675A,116.7244,23.3633,汕头市,龙湖子站,,50,50,67,25,26,141,86,76,76,26,23,13,12,0.7,0.6
2022-10-22T15:00:00,1676A,116.7258,23.2775,汕头市,濠江子站,颗粒物(PM10),57,63,53,23,29,141,87,75,75,20,25,12,12,0.7,0.8
2022-10-22T15:00:00,1677A,116.7519,23.4714,汕头市,澄海子站,,41,41,52,25,31,139,96,83,83,20,22,14,16,0.6,0.7
2022-10-22T15:00:00,1678A,116.6092,23.2539,汕头市,潮阳子站,颗粒物(PM10),54,57,49,23,23,134,101,79,79,24,21,13,11,0.6,0.7
2022-10-22T15:00:00,1679A,116.4069,23.2533,汕头市,潮南子站,,,,,,,,,,,,,,,,
2022-10-22T15:00:00,1680A,110.3539,21.2706,湛江市,湛江影剧院,臭氧1小时,75,58,58,30,33,180,180,124,124,12,26,15,19,0.6,0.6
2022-10-22T15:00:00,1681A,110.3928,21.2228,湛江市,市环境监测站,颗粒物(PM10),55,59,52,30,35,161,157,120,120,8,19,12,15,0.5,0.5
2022-10-22T15:00:00,1682A,110.4019,21.1997,湛江市,环保局宿舍,颗粒物(PM10),53,55,54,30,32,152,146,119,119,12,24,13,12,0.6,0.6
2022-10-22T15:00:00,1683A,110.4111,21.2028,湛江市,霞山游泳场,,,,55,,27,94,,103,,,19,,17,,0.6
2022-10-22T15:00:00,1684A,110.3316,21.2679,湛江市,麻章区环保局,臭氧1小时,75,58,69,25,45,180,180,120,120,11,32,15,18,0.4,0.5
2022-10-22T15:00:00,1685A,110.4558,21.2567,湛江市,坡头区环保局,,50,50,49,27,28,156,156,113,113,6,16,10,14,0.6,0.6
2022-10-22T15:00:00,1686A,111.0286,21.4688,茂名市,电白南海,"颗粒物(PM10),臭氧1小时",59,68,70,27,30,167,167,120,120,15,25,10,12,0.4,0.5
2022-10-22T15:00:00,1687A,110.9294,21.6533,茂名市,茂石化七小,,47,44,70,24,37,159,148,122,122,9,18,16,21,0.4,0.6
2022-10-22T15:00:00,1688A,110.9107,21.6687,茂名市,健康路,臭氧1小时,58,45,66,25,33,166,166,131,131,7,18,17,20,0.6,0.7
2022-10-22T15:00:00,1689A,110.8592,21.6828,茂名市,高岭,臭氧1小时,79,66,65,46,39,183,183,128,128,10,20,27,22,0.8,0.7
2022-10-22T15:00:00,1690A,116.1231,24.3284,梅州市,梅江月梅,,43,32,45,12,27,173,136,100,100,15,33,12,13,0.4,0.5
2022-10-22T15:00:00,1691A,116.0797,24.2719,梅州市,梅县新城,,,22,51,18,29,160,134,87,87,,45,9,9,0.4,0.6
2022-10-22T15:00:00,1692A,116.1248,24.2654,梅州市,环境监控中心,,39,24,52,20,27,159,124,86,86,14,44,8,10,0.4,0.5
2022-10-22T15:00:00,1693A,115.3653,22.775,汕尾市,市环保局,,25,18,36,10,15,115,80,86,86,8,11,8,8,0.6,0.6
2022-10-22T15:00:00,1694A,115.3706,22.7898,汕尾市,市政府,,26,24,34,10,22,115,81,90,80,8,12,8,8,0.5,0.5
2022-10-22T15:00:00,1695A,115.3622,22.7925,汕尾市,新城中学,,26,26,47,10,20,114,82,84,84,6,10,9,9,0.4,0.4
2022-10-22T15:00:00,1696A,114.6778,23.7569,河源市,源西(对照点),,41,29,53,13,27,155,130,111,111,9,46,7,7,0.2,0.4
2022-10-22T15:00:00,1697A,114.6944,23.7586,河源市,东埔,,46,31,55,12,27,164,147,119,119,7,35,7,7,0.5,0.7
2022-10-22T15:00:00,1698A,114.6892,23.7233,河源市,老城,,46,40,60,15,24,159,146,112,112,4,27,6,6,0.6,0.7
2022-10-22T15:00:00,1699A,111.9797,21.8593,阳江市,鸳鸯湖(对照点),臭氧1小时,110,57,45,33,30,225,219,143,143,13,14,13,8,0.7,0.7
2022-10-22T15:00:00,1700A,111.9508,21.8536,阳江市,南恩路,,,,,,,,,,,,,,,,
2022-10-22T15:00:00,1701A,111.9491,21.8658,阳江市,马南垌,臭氧1小时,98,53,48,26,28,201,198,127,127,16,22,12,8,0.5,0.7
2022-10-22T15:00:00,1702A,113.0426,23.691,清远市,环保大楼(对照点),臭氧1小时,99,26,50,21,35,246,199,154,154,5,39,7,8,0.6,0.9
2022-10-22T15:00:00,1703A,113.0208,23.7106,清远市,凤城街办,,49,28,58,14,34,216,156,114,114,9,44,5,5,0.6,0.9
2022-10-22T15:00:00,1705A,116.6367,23.6719,潮州市,西园路(对照点),颗粒物(PM10),54,57,53,31,31,142,103,83,83,22,15,11,9,0.7,0.6
2022-10-22T15:00:00,1706A,116.6447,23.6706,潮州市,档案局,颗粒物(PM10),54,58,50,31,30,141,104,84,84,20,13,13,12,0.7,0.7
2022-10-22T15:00:00,1708A,116.3701,23.5345,揭阳市,新兴,颗粒物(PM10),58,66,64,28,44,154,123,97,97,10,17,12,13,0.6,0.7
2022-10-22T15:00:00,1709A,116.3264,23.5443,揭阳市,西马,颗粒物(PM10),54,58,66,26,39,147,97,82,82,12,20,8,11,0.7,0.8
2022-10-22T15:00:00,1710A,116.3611,23.5626,揭阳市,东兴,颗粒物(PM10),56,62,66,29,37,148,111,88,88,12,26,8,13,0.7,0.8
2022-10-22T15:00:00,1711A,116.4151,23.5294,揭阳市,渔湖,颗粒物(PM10),55,60,63,28,33,129,127,78,78,18,20,8,11,0.7,0.7
2022-10-22T15:00:00,1712A,112.0392,22.9169,云浮市,新市府(对照点),,,,,,,,,,,,,,,,
2022-10-22T15:00:00,1713A,112.0369,22.9394,云浮市,市监测站,,,,,,,,,,,,,,,,
2022-10-22T15:00:00,1714A,112.0539,22.9539,云浮市,牧羊,臭氧1小时,54,42,66,22,34,214,163,112,112,6,40,12,29,0.6,0.8
2022-10-22T15:00:00,1715A,102.575,24.3711,玉溪市,东风水库,,23,4,24,9,15,76,72,42,42,5,13,4,4,0.6,0.7
2022-10-22T15:00:00,1718A,115.4208,35.2464,菏泽市,气象局,细颗粒物(PM2.5),108,148,119,81,64,205,205,135,135,36,40,22,13,0.7,0.7
2022-10-22T15:00:00,1719A,115.4747,35.2375,菏泽市,市政协,细颗粒物(PM2.5),132,135,120,100,74,210,210,132,132,31,48,11,6,0.5,0.5
2022-10-22T15:00:00,1720A,115.455,35.27,菏泽市,菏泽学院,,,,,,,,,,,,,,,,
2022-10-22T15:00:00,1721A,113.3819,40.1097,大同市,果树场(对照点),,,,,,,,,,,,,,,,
2022-10-22T15:00:00,1723A,113.2994,40.0758,大同市,云冈宾馆,,43,43,77,4,20,123,79,60,60,9,16,11,12,0.3,0.3
2022-10-22T15:00:00,1724A,113.3444,40.0917,大同市,大同大学,,27,16,78,0,14,132,84,68,68,4,10,6,11,0.3,0.4
2022-10-22T15:00:00,1725A,113.2661,40.1269,大同市,安家小村,,,,,,,,,,,,,,,,
2022-10-22T15:00:00,1726A,113.2711,40.0844,大同市,教育学院,,25,14,82,5,28,124,80,62,62,5,15,6,18,0.2,0.4
2022-10-22T15:00:00,1727A,113.1147,36.1547,长治市,清华站,颗粒物(PM10),59,67,118,24,63,189,145,71,71,13,62,14,13,0.7,1.1
2022-10-22T15:00:00,1728A,113.1031,36.1989,长治市,监测站,颗粒物(PM10),51,52,97,27,58,161,130,68,68,21,56,12,13,0.4,1.1
2022-10-22T15:00:00,1730A,113.0886,36.2125,长治市,审计局,,48,48,95,27,61,163,136,69,69,14,57,9,9,0.5,1
2022-10-22T15:00:00,1731A,113.0844,36.1856,长治市,长治八中,颗粒物(PM10),58,66,122,28,56,161,132,68,68,14,55,15,14,0.3,0.8
2022-10-22T15:00:00,1733A,111.5531,36.0783,临汾市,临钢医院,细颗粒物(PM2.5),82,69,86,60,88,162,146,80,80,21,28,5,5,1.1,1.4
2022-10-22T15:00:00,1734A,111.5028,36.0714,临汾市,技工学校,细颗粒物(PM2.5),93,106,106,69,100,164,140,72,72,26,33,10,12,0.9,1.3
2022-10-22T15:00:00,1735A,111.5169,36.0822,临汾市,工商学校,,,,,,,,,,,,,,,,
2022-10-22T15:00:00,1736A,111.5018,36.0855,临汾市,市委,细颗粒物(PM2.5),84,73,94,62,90,164,136,74,74,27,32,4,7,0.9,1.2
2022-10-22T15:00:00,1738A,113.5758,37.8572,阳泉市,市中心,颗粒物(PM10),52,54,114,7,46,142,86,66,66,16,57,7,15,0.3,0.7
2022-10-22T15:00:00,1739A,113.4894,37.8731,阳泉市,赛鱼,,31,31,99,6,51,140,84,58,58,14,66,7,16,0.3,0.6
2022-10-22T15:00:00,1740A,113.5819,37.8486,阳泉市,南庄,,32,32,98,14,50,142,87,61,61,14,46,9,17,0.4,0.9
2022-10-22T15:00:00,1741A,113.6292,37.8531,阳泉市,白羊墅,,,,,,,,,,,,,,,,
2022-10-22T15:00:00,1742A,113.5614,37.8703,阳泉市,平坦,,47,47,115,7,50,153,92,66,66,13,60,6,14,0.4,0.8
2022-10-22T15:00:00,1743A,113.5158,37.8392,阳泉市,大阳泉,,34,34,76,14,53,152,88,75,74,19,40,8,15,0.3,0.7
2022-10-22T15:00:00,1744A,118.9233,42.2816,赤峰市,松山一中,,23,6,21,5,8,80,71,58,55,17,25,12,14,0.4,0.4
2022-10-22T15:00:00,1745A,118.9576,42.2728,赤峰市,哈达街,,24,3,29,2,9,83,76,63,58,11,22,10,20,0.4,0.5
2022-10-22T15:00:00,1746A,118.8788,42.2554,赤峰市,天义路,,23,14,24,2,7,84,73,60,60,14,22,13,14,0.4,0.4
2022-10-22T15:00:00,1748A,123.044,41.1196,鞍山市,深沟寺,,24,19,61,9,38,157,76,86,62,13,27,7,10,0.3,0.7
2022-10-22T15:00:00,1749A,123.011,41.0931,鞍山市,太阳城,,25,22,64,8,37,155,79,97,63,12,22,8,10,0.4,0.8
2022-10-22T15:00:00,1750A,123.0485,41.1442,鞍山市,太平,,22,17,70,5,42,130,69,61,53,15,44,9,15,0.2,0.7
2022-10-22T15:00:00,1751A,122.9642,41.0971,鞍山市,铁西三道街,,22,17,101,5,53,149,70,52,52,19,62,14,20,0.8,1.7
2022-10-22T15:00:00,1752A,122.9341,41.0833,鞍山市,铁西工业园区,,23,14,103,6,53,151,71,53,53,18,60,9,17,0.3,1.1
2022-10-22T15:00:00,1753A,123.022,41.0821,鞍山市,明达新区,,23,20,73,7,43,145,71,56,56,8,25,8,10,0.5,0.9
2022-10-22T15:00:00,1754A,123.1289,41.0228,鞍山市,千山(对照点),,,,,,,,,,,,,,,,
2022-10-22T15:00:00,1755A,123.7977,41.8491,抚顺市,望花区,,30,30,66,10,34,131,82,69,69,12,34,8,14,0.6,0.9
2022-10-22T15:00:00,1756A,123.9161,41.8822,抚顺市,顺城区,,28,28,69,8,35,122,73,62,62,16,35,9,12,0.6,0.9
2022-10-22T15:00:00,1757A,124.0436,41.8611,抚顺市,东洲区,,,2,78,7,41,125,74,68,68,,32,9,12,0.5,0.8
2022-10-22T15:00:00,1758A,123.9247,41.8642,抚顺市,新抚区,,32,32,76,9,39,132,79,66,66,17,35,2,4,0.5,0.9
2022-10-22T15:00:00,1759A,124.0972,41.8961,抚顺市,大伙房水库,,23,21,73,8,36,122,71,63,63,8,25,4,6,0.5,0.8
2022-10-22T15:00:00,1760A,123.7086,41.8391,抚顺市,沈抚新城,,27,27,65,9,29,124,80,67,67,8,26,7,9,0.2,0.5
2022-10-22T15:00:00,1761A,123.8275,41.3064,本溪市,大峪,,24,24,55,5,38,128,71,58,58,14,41,8,11,0.4,0.9
2022-10-22T15:00:00,1762A,123.7567,41.3325,本溪市,溪湖,,38,38,108,4,50,150,67,60,60,21,41,14,12,0.3,0.7
2022-10-22T15:00:00,1763A,123.7169,41.3094,本溪市,彩屯,,35,35,93,4,53,141,71,54,54,14,42,7,11,0.4,1
2022-10-22T15:00:00,1764A,123.7669,41.2864,本溪市,东明,,24,22,83,12,45,140,76,60,60,14,57,9,14,0.4,1
2022-10-22T15:00:00,1765A,123.7992,41.2664,本溪市,新立屯,,28,28,56,5,34,137,74,60,60,16,55,8,11,0.4,0.8
2022-10-22T15:00:00,1766A,123.8142,41.3472,本溪市,威宁,,22,18,84,9,39,126,68,54,54,11,50,6,8,0.4,0.8
2022-10-22T15:00:00,1767A,121.1115,41.0879,锦州市,南山,,22,22,62,0,52,121,66,60,60,17,35,6,12,0.3,0.8
2022-10-22T15:00:00,1768A,121.0533,40.8434,锦州市,开发区,颗粒物(PM10),69,88,73,6,66,103,74,61,61,5,38,9,11,0.4,1
2022-10-22T15:00:00,1769A,121.1836,41.1119,锦州市,百股街道,,25,25,81,2,56,130,74,66,66,10,32,5,17,0.6,1.3
2022-10-22T15:00:00,1770A,121.1178,41.1222,锦州市,天安街道,,27,27,69,10,53,122,73,66,66,15,33,5,15,0.2,0.9
2022-10-22T15:00:00,1771A,121.1303,41.1386,锦州市,北湖公园,,24,18,60,6,47,127,75,67,67,8,25,6,15,0.5,1
2022-10-22T15:00:00,1772A,126.54,43.8622,吉林市,哈达湾,,31,31,67,20,39,119,44,66,36,22,30,7,13,0.5,0.7
2022-10-22T15:00:00,1773A,126.5844,43.8358,吉林市,东局子,,34,34,77,19,43,115,45,55,31,24,34,6,12,0.5,0.7
2022-10-22T15:00:00,1774A,126.5052,43.8245,吉林市,电力学院,,,,86,,45,121,,27,18,,34,8,13,,0.9
2022-10-22T15:00:00,1775A,126.6133,43.8972,吉林市,江北,,28,28,68,19,37,115,50,52,38,20,24,11,7,0.5,0.7
2022-10-22T15:00:00,1776A,126.555,43.8306,吉林市,江南公园,,32,31,70,22,39,113,47,43,31,17,32,6,10,0.4,0.6
2022-10-22T15:00:00,1778A,126.7061,43.7133,吉林市,丰满(对照点),,,,,,,,,,,,,,,,
2022-10-22T15:00:00,1779A,123.9305,47.3636,齐齐哈尔市,安居小区,,29,29,28,3,9,53,53,40,40,12,16,5,5,0.4,0.5
2022-10-22T15:00:00,1780A,123.9488,47.3386,齐齐哈尔市,中心广场,,17,11,20,5,4,54,53,42,42,14,14,7,7,0.3,0.3
2022-10-22T15:00:00,1781A,123.9483,47.3227,齐齐哈尔市,农牧车辆厂,,27,27,20,2,4,56,54,42,42,13,11,6,5,0.3,0.3
2022-10-22T15:00:00,1783A,123.945,47.2988,齐齐哈尔市,市环境监测站,,18,14,16,2,12,57,57,43,43,8,10,5,4,0.3,0.3
2022-10-22T15:00:00,1784A,129.61,44.561,牡丹江市,环保大楼,,21,21,50,14,25,111,62,80,58,8,15,1,2,0.2,0.4
2022-10-22T15:00:00,1785A,129.6115,44.5782,牡丹江市,文化广场,,20,20,51,8,26,104,60,76,55,8,17,3,4,0.3,0.4
2022-10-22T15:00:00,1786A,129.5904,44.5963,牡丹江市,第一医院,,23,23,48,10,29,104,58,72,54,8,14,5,6,0.5,0.7
2022-10-22T15:00:00,1787A,129.6364,44.6075,牡丹江市,机车工厂,,43,43,62,8,26,107,65,74,60,6,17,1,2,0.4,0.6
2022-10-22T15:00:00,1788A,129.6386,44.5462,牡丹江市,第一中学,,23,23,50,10,23,114,63,74,58,7,13,1,2,0.3,0.5
2022-10-22T15:00:00,1789A,124.81117,46.03138,大庆市,大同区,,19,6,25,3,14,70,60,48,48,5,14,3,4,0.3,0.4
2022-10-22T15:00:00,1790A,125.129,46.533,大庆市,龙凤区,,18,10,21,6,15,57,55,42,42,6,15,3,6,0.1,0.2
2022-10-22T15:00:00,1791A,124.902,46.408,大庆市,红岗区,,19,7,21,4,15,67,60,46,46,5,16,7,6,0.2,0.3
2022-10-22T15:00:00,1792A,125.153,46.586,大庆市,萨尔图区,,18,15,17,6,13,55,55,41,41,10,16,8,8,0.4,0.4
2022-10-22T15:00:00,1793A,124.9042,46.6215,大庆市,让胡路区,,18,10,23,6,16,60,55,44,44,5,13,2,3,0.2,0.2
2022-10-22T15:00:00,1794A,118.3606,31.3519,芜湖市,监测站,颗粒物(PM10),58,65,93,31,53,163,163,96,96,24,81,12,16,0.6,1.2
2022-10-22T15:00:00,1795A,118.3714,31.4134,芜湖市,科创中心,臭氧1小时,75,66,90,40,51,180,180,114,114,27,77,12,13,0.5,1
2022-10-22T15:00:00,1796A,118.3673,31.3131,芜湖市,四水厂,颗粒物(PM10),63,75,91,40,51,169,169,96,96,24,79,12,15,0.6,1.1
2022-10-22T15:00:00,1797A,118.4022,31.3839,芜湖市,济民医院(对照点),,,,,,,,,,,,,,,,
2022-10-22T15:00:00,1798A,118.5092,31.6837,马鞍山市,湖东路四小,臭氧1小时,85,62,80,34,41,188,188,120,120,18,67,8,15,0.6,1.1
2022-10-22T15:00:00,1799A,118.5024,31.6449,马鞍山市,开发区,臭氧1小时,79,72,79,38,48,183,183,116,116,26,66,14,16,0.8,1.2
2022-10-22T15:00:00,1800A,118.5228,31.7231,马鞍山市,慈湖,臭氧1小时,87,58,91,45,52,189,189,115,115,22,72,8,12,0.7,1
2022-10-22T15:00:00,1801A,118.48,31.6928,马鞍山市,马钢动力厂,,,,,,,,,,,,,,,,
2022-10-22T15:00:00,1802A,118.6245,31.7241,马鞍山市,濮塘(对照点),臭氧1小时,101,70,58,40,34,202,202,116,116,17,36,13,7,1.1,0.8
2022-10-22T15:00:00,1803A,115.9872,29.6815,九江市,十里,臭氧1小时,84,61,89,32,56,201,187,124,124,18,52,9,13,0.6,1
2022-10-22T15:00:00,1804A,115.9584,29.7046,九江市,茅山头,臭氧1小时,74,46,88,45,57,188,179,116,116,14,44,9,17,0.8,1.1
2022-10-22T15:00:00,1805A,115.9877,29.7295,九江市,西园,臭氧1小时,72,47,101,38,65,185,177,116,116,25,56,12,20,0.5,0.9
2022-10-22T15:00:00,1806A,116.0172,29.6547,九江市,五七二七厂,臭氧1小时,55,53,79,33,45,194,164,137,137,48,33,9,12,0.5,0.6
2022-10-22T15:00:00,1808A,115.9114,29.6038,九江市,综合工业园,颗粒物(PM10),72,93,91,46,58,186,162,121,121,76,54,11,17,0.6,0.8
2022-10-22T15:00:00,1809A,116.0721,29.7535,九江市,石化总厂,臭氧1小时,79,59,111,21,62,183,183,123,123,20,51,11,15,0.7,0.9
2022-10-22T15:00:00,1810A,115.9773,29.5698,九江市,庐山气象台(对照点),臭氧1小时,69,57,28,43,23,175,175,138,138,21,13,15,10,0.7,0.6
2022-10-22T15:00:00,1811A,112.3628,34.6692,洛阳市,中信二小,,,,,,,,,,,,,,,,
2022-10-22T15:00:00,1812A,112.3931,34.6516,洛阳市,市委党校,臭氧1小时,77,78,119,36,64,181,181,98,98,12,61,11,9,0.5,0.9
2022-10-22T15:00:00,1814A,112.4657,34.6871,洛阳市,豫西宾馆,臭氧1小时,78,76,129,46,74,182,182,88,88,8,65,9,10,0.3,0.7
2022-10-22T15:00:00,1815A,112.494,34.6886,洛阳市,河南林校,臭氧1小时,84,76,105,49,68,187,187,101,101,14,57,10,8,0.5,0.7
2022-10-22T15:00:00,1816A,112.3844,34.623,洛阳市,开发区管委会,臭氧1小时,74,69,82,35,56,179,179,104,104,10,28,8,5,0.3,0.4
2022-10-22T15:00:00,1817A,112.4267,34.6258,洛阳市,市委新办公区,臭氧1小时,65,75,83,36,54,172,172,113,113,17,34,9,8,0.5,0.6
2022-10-22T15:00:00,1818A,114.4839,36.0621,安阳市,棉研所(对照点),,,,,,,,,,,,,,,,
2022-10-22T15:00:00,1819A,114.3551,36.1017,安阳市,红庙街,细颗粒物(PM2.5),87,119,116,64,78,174,157,115,115,21,53,13,15,0.4,0.9
2022-10-22T15:00:00,1820A,114.361,36.0681,安阳市,银杏小区,细颗粒物(PM2.5),108,124,107,81,84,172,167,122,122,20,56,10,16,0.6,1
2022-10-22T15:00:00,1824A,114.3389,34.7781,开封市,肿瘤医院,颗粒物(PM10),85,120,116,52,87,196,183,123,123,16,45,6,7,0.8,0.9
2022-10-22T15:00:00,1826A,114.2885,34.7965,开封市,世纪星幼儿园,细颗粒物(PM2.5),135,138,124,103,86,180,170,127,127,17,47,4,8,0.8,1.1
2022-10-22T15:00:00,1828A,113.227,35.2125,焦作市,市环保局,臭氧1小时,75,81,102,44,67,180,180,96,96,14,32,13,12,0.8,1.1
2022-10-22T15:00:00,1829A,113.2464,35.1764,焦作市,高新区政府（停运20220628）,,,,,,,,,,,,,,,,
2022-10-22T15:00:00,1830A,113.1992,35.2590,焦作市,影视城(对照点),,,,,,,,,,,,,,,,
2022-10-22T15:00:00,1832A,113.3257,33.742,平顶山市,新华旅馆,颗粒物(PM10),82,113,96,58,59,170,167,107,107,14,40,12,8,0.7,0.7
2022-10-22T15:00:00,1833A,113.2919,33.737,平顶山市,规划设计院,颗粒物(PM10),87,124,96,53,48,185,185,121,121,20,50,11,7,0.5,0.5
2022-10-22T15:00:00,1834A,113.182,33.774,平顶山市,平顶山工学院,臭氧1小时,89,119,87,44,44,191,191,130,130,15,30,11,8,0.8,0.7
2022-10-22T15:00:00,1835A,111.1922,34.7752,三门峡市,市政府,,,84,92,73,75,152,146,68,68,,69,16,10,,0.7
2022-10-22T15:00:00,1836A,111.1587,34.7942,三门峡市,开发区,细颗粒物(PM2.5),97,102,113,72,74,169,155,74,74,23,35,12,8,0.8,0.8
2022-10-22T15:00:00,1838A,111.143,34.7955,三门峡市,风景区(对照点),,,,,,,,,,,,,,,,
2022-10-22T15:00:00,1839A,111.3009,30.7157,宜昌市,四零三,,,,,,,,,,,,,,,,
2022-10-22T15:00:00,1840A,111.2992,30.6981,宜昌市,白龙岗,臭氧1小时,89,61,84,29,60,194,191,110,110,25,37,7,6,0.5,0.7
2022-10-22T15:00:00,1841A,111.3549,30.6465,宜昌市,伍家岗,臭氧1小时,65,52,94,31,63,181,172,110,110,44,51,9,7,0.5,0.7
2022-10-22T15:00:00,1842A,111.2628,30.6961,宜昌市,点军区,臭氧1小时,73,49,95,27,67,191,178,101,101,29,29,8,7,0.6,0.7
2022-10-22T15:00:00,1843A,111.3275,30.7819,宜昌市,夷陵区,臭氧1小时,87,53,89,31,64,189,189,110,110,24,40,10,10,0.5,0.7
2022-10-22T15:00:00,1844A,112.2494,30.3197,荆州市,市图书馆,臭氧1小时,95,71,97,65,88,197,196,133,133,19,38,8,10,0.7,0.9
2022-10-22T15:00:00,1845A,112.2008,30.3544,荆州市,市委党校,臭氧1小时,94,78,113,48,85,199,195,134,134,22,40,8,9,0.8,1
2022-10-22T15:00:00,1847A,113.1094,29.3578,岳阳市,南湖风景区,臭氧1小时,101,73,73,60,59,203,201,155,155,12,27,11,17,0.7,0.8
2022-10-22T15:00:00,1848A,113.1493,29.4251,岳阳市,城陵矶,臭氧1小时,70,74,71,46,44,176,176,124,124,25,46,12,10,0.7,0.7
2022-10-22T15:00:00,1849A,113.1497,29.3575,岳阳市,开发区,臭氧1小时,78,69,69,32,58,187,182,147,147,21,25,10,12,0.6,0.7
2022-10-22T15:00:00,1850A,113.2621,29.4758,岳阳市,云溪区,臭氧1小时,98,75,69,50,51,198,198,149,149,20,24,14,15,0.7,0.7
2022-10-22T15:00:00,1851A,112.9943,29.4402,岳阳市,君山区,臭氧1小时,88,72,72,60,58,190,190,143,143,16,28,11,10,0.7,0.7
2022-10-22T15:00:00,1852A,113.2117,29.355,岳阳市,金凤水库(对照点),臭氧1小时,99,57,61,38,46,199,199,163,163,12,18,7,11,0.8,0.8
2022-10-22T15:00:00,1854A,111.6975,28.9703,常德市,市二中,臭氧1小时,92,97,72,67,52,193,193,122,122,17,34,10,8,0.5,0.5
2022-10-22T15:00:00,1857A,111.7158,29.1456,常德市,白鹤山(对照点),臭氧1小时,83,75,55,54,44,193,186,147,147,12,12,7,4,0.5,0.5
2022-10-22T15:00:00,1858A,110.5319,29.1217,张家界市,永定新区,颗粒物(PM10),51,52,45,31,30,150,150,97,97,9,17,5,4,0.2,0.2
2022-10-22T15:00:00,1859A,110.4697,29.1242,张家界市,电业局,颗粒物(PM10),51,51,40,32,26,141,134,89,89,35,24,6,5,0.3,0.4
2022-10-22T15:00:00,1860A,110.5594,29.3547,张家界市,未央路,颗粒物(PM10),51,52,42,26,31,155,151,118,118,7,8,5,4,0.2,0.1
2022-10-22T15:00:00,1861A,110.4417,29.315,张家界市,袁家界(对照点),细颗粒物(PM2.5),65,71,42,47,35,163,161,154,154,12,14,11,10,0.5,0.6
2022-10-22T15:00:00,1862A,110.4144,25.3167,桂林市,电子科大尧山校区(对照点),细颗粒物(PM2.5),52,35,58,36,44,178,150,169,166,6,10,8,16,0.5,0.7
2022-10-22T15:00:00,1863A,110.2819,25.2697,桂林市,监测站,颗粒物(PM10),51,51,71,31,47,164,147,160,156,10,17,8,11,0.6,0.7
2022-10-22T15:00:00,1864A,110.3089,25.2708,桂林市,龙隐路小学,,49,40,60,34,48,156,136,155,148,7,12,8,15,0.6,0.7
2022-10-22T15:00:00,1865A,110.2869,25.2178,桂林市,八中,,46,46,64,28,44,165,145,155,155,12,20,7,12,0.4,0.5
2022-10-22T15:00:00,1866A,109.2262,21.588,北海市,牛尾岭水库(对照点),,,,,,,,,,,,,,,,
2022-10-22T15:00:00,1867A,109.1436,21.4086,北海市,海滩公园,臭氧1小时,98,72,72,54,47,209,198,139,139,13,16,10,11,1.0,0.9
2022-10-22T15:00:00,1868A,109.0981,21.4661,北海市,新市环保局,臭氧1小时,80,33,64,58,56,186,184,130,130,14,16,11,12,0.7,0.7
2022-10-22T15:00:00,1869A,109.1778,21.5233,北海市,北海工业园,臭氧1小时,78,93,86,56,54,182,182,120,120,17,24,13,11,0.7,0.7
2022-10-22T15:00:00,1870A,109.4856,24.3895,柳州市,柳东小学,臭氧1小时,63,45,56,36,40,170,170,140,140,5,11,11,23,0.7,0.6
2022-10-22T15:00:00,1871A,109.4157,24.3277,柳州市,环保监测站,臭氧1小时,60,57,71,39,45,168,168,136,136,15,34,18,25,0.6,0.9
2022-10-22T15:00:00,1872A,109.389,24.341,柳州市,河西水厂,细颗粒物(PM2.5),54,55,77,38,48,158,152,115,115,15,31,18,23,1.4,1.5
2022-10-22T15:00:00,1873A,109.4311,24.2921,柳州市,市四中,颗粒物(PM10),62,74,81,38,44,168,168,135,135,10,28,16,21,0.6,1
2022-10-22T15:00:00,1874A,109.4006,24.3631,柳州市,市九中,颗粒物(PM10),55,60,74,37,43,160,148,125,125,15,26,19,26,1.1,1.2
2022-10-22T15:00:00,1875A,109.4958,24.3134,柳州市,古亭山,臭氧1小时,53,53,53,34,37,162,162,126,126,7,37,14,16,0.7,0.7
2022-10-22T15:00:00,1876A,109.5078,18.2489,三亚市,河东子站,,34,32,19,12,10,130,107,113,113,7,5,4,3,0.4,0.3
2022-10-22T15:00:00,1877A,109.4964,18.2681,三亚市,河西子站,,27,24,17,17,10,113,86,91,91,6,5,2,2,0.4,0.3
2022-10-22T15:00:00,1878A,104.7778,31.4741,绵阳市,富乐山,臭氧1小时,54,42,45,30,32,163,163,97,97,10,27,6,5,0.5,0.6
2022-10-22T15:00:00,1879A,104.7563,31.4535,绵阳市,市人大,,48,42,66,18,39,151,151,79,79,15,55,5,5,0.4,0.7
2022-10-22T15:00:00,1880A,104.6697,31.4668,绵阳市,高新区自来水公司,臭氧1小时,57,44,76,38,38,165,165,93,93,12,54,12,12,0.5,0.7
2022-10-22T15:00:00,1881A,104.7287,31.5075,绵阳市,三水厂,,47,45,78,28,43,152,149,73,73,8,48,5,5,0.5,0.6
2022-10-22T15:00:00,1882A,104.563,28.793,宜宾市,石马中学(对照点),臭氧1小时,70,49,95,33,65,176,176,100,100,16,40,10,8,0.9,1.1
2022-10-22T15:00:00,1883A,104.6201,28.7728,宜宾市,市委,臭氧1小时,83,56,96,36,63,188,186,104,104,18,58,13,12,0.5,0.8
2022-10-22T15:00:00,1884A,104.6055,28.793,宜宾市,宜宾四中,臭氧1小时,84,56,103,39,70,188,187,112,112,14,55,9,9,0.6,0.8
2022-10-22T15:00:00,1885A,104.639,28.7562,宜宾市,市政府,,,78,115,44,65,206,164,110,110,,80,12,9,0.6,0.9
2022-10-22T15:00:00,1886A,104.5742,28.7199,宜宾市,黄金嘴,臭氧1小时,67,52,94,36,66,204,173,125,125,26,48,12,11,0.8,0.9
2022-10-22T15:00:00,1888A,101.6891,26.571,攀枝花市,弄弄坪,,48,48,85,31,52,162,116,72,72,11,37,29,24,0.9,1.4
2022-10-22T15:00:00,1889A,101.5769,26.5928,攀枝花市,河门口,,46,46,64,31,39,172,122,59,59,18,26,51,27,1.8,1.8
2022-10-22T15:00:00,1890A,101.7169,26.585,攀枝花市,炳草岗,,43,28,63,30,54,157,110,62,62,10,43,33,31,0.9,1.3
2022-10-22T15:00:00,1891A,101.7369,26.5008,攀枝花市,仁和,,49,43,61,34,42,150,130,71,71,11,22,56,31,0.9,1.1
2022-10-22T15:00:00,1893A,105.4324,28.9634,泸州市,九狮山(对照点),细颗粒物(PM2.5),74,58,90,54,83,137,97,36,36,42,38,17,13,0.4,0.6
2022-10-22T15:00:00,1894A,105.4427,28.9063,泸州市,小市上码头,细颗粒物(PM2.5),130,116,138,99,104,199,151,64,64,33,63,17,14,0.8,0.9
2022-10-22T15:00:00,1895A,105.4241,28.8573,泸州市,兰田宪桥,细颗粒物(PM2.5),134,123,139,102,106,182,129,59,59,43,44,21,14,1.0,1
2022-10-22T15:00:00,1896A,105.4379,28.8833,泸州市,市环监站,细颗粒物(PM2.5),89,82,129,66,100,169,122,61,61,34,54,19,15,0.6,0.8
2022-10-22T15:00:00,1897A,104.7547,29.3628,自贡市,大塘山(对照点),,,,,,,,,,,,,,,,
2022-10-22T15:00:00,1900A,104.7692,29.3411,自贡市,春华路,,,,,,,,,,,,,,,,
2022-10-22T15:00:00,1901A,104.4239,31.1208,德阳市,东山公园,颗粒物(PM10),60,70,89,30,46,167,167,100,100,11,37,7,16,0.5,0.7
2022-10-22T15:00:00,1902A,104.3826,31.1317,德阳市,西小区,颗粒物(PM10),52,53,93,26,50,159,159,82,82,11,56,4,12,0.5,0.8
2022-10-22T15:00:00,1903A,104.4053,31.1167,德阳市,市检察院,,,,,,,,,,,,,,,,
2022-10-22T15:00:00,1904A,104.3553,31.1091,德阳市,耐火材料厂,,48,48,107,31,60,153,153,77,77,16,56,7,12,0.5,0.7
2022-10-22T15:00:00,1905A,106.056,30.8064,南充市,西山风景区(对照点),,,,,,,,,,,,,,,,
2022-10-22T15:00:00,1906A,106.0789,30.8023,南充市,南充市委,颗粒物(PM10),68,85,74,44,43,156,156,89,89,14,27,7,8,0.6,0.7
2022-10-22T15:00:00,1907A,106.1031,30.8217,南充市,南充炼油厂,颗粒物(PM10),64,78,86,42,49,161,161,92,92,8,34,9,13,0.5,0.6
2022-10-22T15:00:00,1908A,106.1064,30.7856,南充市,高坪区监测站,"颗粒物(PM10),细颗粒物(PM2.5)",55,59,88,39,53,144,144,82,82,4,36,10,11,0.3,0.7
2022-10-22T15:00:00,1909A,106.0642,30.7636,南充市,嘉陵区环保局,颗粒物(PM10),64,78,79,27,54,163,163,96,96,14,36,12,24,0.3,0.7
2022-10-22T15:00:00,1910A,106.1087,30.8388,南充市,市环境监测站,颗粒物(PM10),63,75,78,42,50,148,148,85,85,13,32,9,12,0.5,0.6
2022-10-22T15:00:00,1911A,106.9222,27.6869,遵义市,丁字口,细颗粒物(PM2.5),67,69,67,48,56,169,161,105,105,11,30,15,13,0.9,1
2022-10-22T15:00:00,1912A,106.9242,27.7019,遵义市,凤凰山,臭氧1小时,68,52,70,38,44,180,174,118,118,13,27,11,9,0.7,0.7
2022-10-22T15:00:00,1913A,106.8906,27.6486,遵义市,忠庄,臭氧1小时,59,56,80,32,47,183,167,113,113,16,36,7,5,0.7,0.7
2022-10-22T15:00:00,1914A,106.9231,27.6506,遵义市,舟水桥,颗粒物(PM10),54,58,81,34,49,170,157,99,99,14,31,12,6,0.5,0.7
2022-10-22T15:00:00,1915A,106.9178,27.72,遵义市,干田坝,臭氧1小时,72,53,66,38,45,190,177,119,119,13,31,12,10,0.7,0.7
2022-10-22T15:00:00,1916A,103.7897,25.5035,曲靖市,环境监测站,,27,12,22,17,17,100,86,59,59,8,12,4,4,0.6,0.9
2022-10-22T15:00:00,1917A,103.8,25.5364,曲靖市,烟厂办公区,,,,19,,12,106,90,61,61,7,11,5,7,0.5,0.5
2022-10-22T15:00:00,1918A,108.7197,34.3956,咸阳市,气象站(对照点),细颗粒物(PM2.5),84,93,162,62,90,129,123,48,48,38,80,12,10,0.9,1.1
2022-10-22T15:00:00,1919A,108.673,34.3155,咸阳市,实验中学,细颗粒物(PM2.5),115,168,184,87,84,166,164,66,66,45,71,7,6,0.8,1.2
2022-10-22T15:00:00,1920A,108.7233,34.3617,咸阳市,师范学院,细颗粒物(PM2.5),93,123,184,69,99,151,128,57,57,54,74,10,8,0.8,1
2022-10-22T15:00:00,1922A,109.0656,35.0994,铜川市,党校(对照点),颗粒物(PM10),75,99,94,38,50,110,102,71,71,28,57,17,14,0.4,0.6
2022-10-22T15:00:00,1923A,109.0697,35.0697,铜川市,王益区政府,颗粒物(PM10),76,102,94,50,43,139,130,78,78,29,44,11,17,0.5,0.8
2022-10-22T15:00:00,1924A,108.9344,34.9058,铜川市,新区管委会,颗粒物(PM10),87,123,100,62,43,153,153,89,89,19,35,14,13,0.6,0.7
2022-10-22T15:00:00,1925A,108.9589,34.8731,铜川市,新区兰芝公司,,,,,,,,,,,,,,,,
2022-10-22T15:00:00,1926A,109.4131,36.6275,延安市,枣园(对照点),,45,45,45,13,18,142,106,58,58,9,30,6,5,0.3,0.3
2022-10-22T15:00:00,1927A,109.4761,36.6028,延安市,延大医附院,,48,48,54,14,21,144,95,50,50,12,42,6,5,0.4,0.6
2022-10-22T15:00:00,1928A,109.4824,36.5767,延安市,市监测站,,,,,,,,,,,,,,,,
2022-10-22T15:00:00,1929A,109.5056,36.6106,延安市,百米大道,,48,48,64,14,29,140,84,45,45,23,51,8,8,0.4,0.7
2022-10-22T15:00:00,1930A,107.185,34.3063,宝鸡市,庙沟村(对照点),颗粒物(PM10),52,53,58,19,25,145,108,103,76,18,28,7,6,0.5,0.5
2022-10-22T15:00:00,1931A,107.0708,34.3017,宝鸡市,竹园沟,颗粒物(PM10),55,60,52,25,25,158,137,84,84,22,28,7,6,0.5,0.5
2022-10-22T15:00:00,1932A,107.1906,34.3672,宝鸡市,三陆医院,颗粒物(PM10),61,72,85,30,44,160,106,56,56,22,40,9,7,0.6,0.7
2022-10-22T15:00:00,1933A,107.1431,34.3547,宝鸡市,监测站,颗粒物(PM10),57,64,63,25,30,156,129,61,61,24,40,9,7,0.4,0.6
2022-10-22T15:00:00,1934A,107.1186,34.3739,宝鸡市,技工学校,颗粒物(PM10),62,74,71,26,43,161,120,68,68,29,34,9,7,0.5,0.6
2022-10-22T15:00:00,1935A,107.3906,34.3528,宝鸡市,陈仓区环保局家属楼,颗粒物(PM10),59,68,116,27,40,157,108,56,56,26,56,10,9,0.5,0.8
2022-10-22T15:00:00,1936A,107.2058,34.3497,宝鸡市,文理学院,颗粒物(PM10),61,72,77,25,37,160,111,64,64,32,44,10,8,0.4,0.5
2022-10-22T15:00:00,1937A,107.2386,34.3622,宝鸡市,三迪小学,颗粒物(PM10),66,81,90,31,43,163,111,53,53,33,56,12,9,0.5,0.7
2022-10-22T15:00:00,1938A,109.5293,34.5101,渭南市,农科所(对照点),细颗粒物(PM2.5),85,114,119,63,74,159,154,84,84,18,49,11,10,0.6,0.7
2022-10-22T15:00:00,1939A,109.4974,34.4877,渭南市,日报社,细颗粒物(PM2.5),99,107,123,74,89,160,159,89,89,24,67,12,11,0.4,0.6
2022-10-22T15:00:00,1940A,109.4636,34.493,渭南市,体育馆,细颗粒物(PM2.5),85,114,126,63,91,170,170,92,92,22,69,10,13,0.5,0.7
2022-10-22T15:00:00,1941A,109.4259,34.5023,渭南市,高新一小,细颗粒物(PM2.5),87,102,148,64,102,155,148,76,76,20,68,14,14,0.6,0.8
2022-10-22T15:00:00,1943A,102.1725,38.5339,金昌市,新川苑,颗粒物(PM10),89,127,104,49,34,139,139,78,78,21,32,34,23,0.6,0.8
2022-10-22T15:00:00,1944A,102.1692,38.5167,金昌市,天庆家园,颗粒物(PM10),93,135,90,59,32,147,147,79,79,26,36,85,40,0.8,1
2022-10-22T15:00:00,1945A,98.2908,39.7711,嘉峪关市,气象局,颗粒物(PM10),63,75,70,29,21,119,119,74,74,10,27,20,20,0.6,0.4
2022-10-22T15:00:00,1947A,106.3394,38.817,石嘴山市,沙湖旅游区(对照点),颗粒物(PM10),59,68,76,23,30,131,112,74,74,15,21,16,15,0.7,0.7
2022-10-22T15:00:00,1948A,106.3668,39.0145,石嘴山市,大武口朝阳西街,颗粒物(PM10),57,64,70,25,27,111,111,60,60,15,22,13,15,0.5,0.6
2022-10-22T15:00:00,1949A,106.7704,39.2282,石嘴山市,惠农南大街,颗粒物(PM10),65,79,73,30,23,81,77,48,48,31,30,39,27,1.1,1.2
2022-10-22T15:00:00,1950A,106.7099,39.1325,石嘴山市,红果子镇惠新街,颗粒物(PM10),84,117,88,42,23,94,93,80,52,31,22,42,25,1.4,0.8
2022-10-22T15:00:00,1951A,84.895,45.6094,克拉玛依市,长征新村,,23,21,15,3,7,93,72,73,68,16,7,5,5,0.2,0.2
2022-10-22T15:00:00,1952A,84.8988,45.5893,克拉玛依市,南林小区,,33,33,16,9,14,96,76,70,70,16,9,1,2,0.3,0.3
2022-10-22T15:00:00,1953A,85.1186,45.6886,克拉玛依市,白碱滩区,,,,,,,,,,,,,,,,
2022-10-22T15:00:00,1954A,84.905,44.3396,克拉玛依市,独山子区,,32,32,37,16,22,94,94,69,69,14,18,8,8,0.4,0.5
2022-10-22T15:00:00,1955A,85.6979,46.098,克拉玛依市,乌尔禾区商贸楼,,25,14,16,9,11,88,80,58,58,6,10,4,3,0.2,0.2
2022-10-22T15:00:00,1956A,86.1472,41.7538,巴音郭楞州,孔雀公园,颗粒物(PM10),478,578,369,124,91,86,78,48,48,4,23,4,4,0.3,0.3
2022-10-22T15:00:00,1957A,86.1972,41.7166,巴音郭楞州,棉纺厂,颗粒物(PM10),500,722,325,166,73,93,83,70,70,4,10,6,5,0.2,0.2
2022-10-22T15:00:00,1958A,86.2357,41.7173,巴音郭楞州,经济开发区,颗粒物(PM10),500,634,322,127,66,92,82,72,72,6,8,8,6,0.4,0.3
2022-10-22T15:00:00,1961A,117.532,36.6868,济南市,东山小学,颗粒物(PM10),123,195,106,68,38,170,170,112,106,24,51,9,6,0.4,0.4
2022-10-22T15:00:00,1966A,120.0405,35.8735,青岛市,黄岛区4号,臭氧1小时,70,78,46,39,23,176,176,118,118,34,34,12,10,0.9,0.8
2022-10-22T15:00:00,1982A,122.0693,37.2174,威海市,文登开发区,细颗粒物(PM2.5),98,134,46,73,23,154,140,108,108,22,22,10,7,0.8,0.5
2022-10-22T15:00:00,2031A,113.1817,27.9958,株洲市,云田中学,臭氧1小时,104,80,69,50,54,220,207,144,144,20,27,9,8,0.7,0.6
2022-10-22T15:00:00,2054A,114.1099,32.1059,信阳市,平桥分局,臭氧1小时,93,78,66,42,34,194,194,125,125,15,30,11,9,0.7,0.7
2022-10-22T15:00:00,2064A,113.9956,32.1271,信阳市,南湾水厂,臭氧1小时,95,69,42,5,4,196,196,137,137,15,16,10,8,0.7,0.6
2022-10-22T15:00:00,2065A,114.0775,32.1195,信阳市,市酿酒公司,臭氧1小时,97,61,49,41,30,197,197,124,124,14,42,12,9,0.7,0.8
2022-10-22T15:00:00,2066A,114.0609,32.1399,信阳市,审计局,臭氧1小时,95,58,60,51,38,196,196,124,124,13,42,10,8,0.6,0.8
2022-10-22T15:00:00,2067A,114.6613,33.6128,周口市,市环境监测站,细颗粒物(PM2.5),149,118,119,114,84,207,207,123,123,17,40,14,11,0.9,1
2022-10-22T15:00:00,2068A,114.6758,33.6347,周口市,周口师范,臭氧1小时,105,100,102,76,74,209,209,122,122,26,35,11,8,0.8,0.7
2022-10-22T15:00:00,2069A,114.6546,33.5979,周口市,市运管处,臭氧1小时,104,109,119,74,74,207,207,118,118,22,46,9,7,0.9,0.9
2022-10-22T15:00:00,2070A,114.6369,33.6406,周口市,川汇区环保局,细颗粒物(PM2.5),109,128,120,82,81,199,199,120,120,33,45,9,6,0.7,0.7
2022-10-22T15:00:00,2075A,117.6336,24.4674,漳州市,九湖(对照点),,,,,,,,,,,,,,,,
2022-10-22T15:00:00,2160A,112.85,35.5051,晋城市,自来水公司,颗粒物(PM10),63,76,103,19,61,170,153,97,97,17,48,9,11,0.8,1.5
2022-10-22T15:00:00,2161A,112.8318,35.4936,晋城市,白云商贸,,46,34,92,19,51,159,145,93,93,10,39,8,8,0.4,1.3
2022-10-22T15:00:00,2162A,112.8508,35.4887,晋城市,市环保局,,47,44,88,19,58,167,149,90,90,15,57,9,10,0.5,1.2
2022-10-22T15:00:00,2163A,112.8676,35.4897,晋城市,技术学院,,46,46,94,31,63,158,144,91,91,17,54,8,9,0.4,1
2022-10-22T15:00:00,2164A,112.8271,35.4828,晋城市,泽州一中,,,,,,,,,,,,,,,,
2022-10-22T15:00:00,2165A,112.8453,35.546,晋城市,白马寺 (对照点),,,,,,,,,,,,,,,,
2022-10-22T15:00:00,2166A,112.4397,39.3522,朔州市,平朔,,48,48,138,10,28,116,84,60,50,4,31,4,16,0.2,0.4
2022-10-22T15:00:00,2167A,112.4575,39.3617,朔州市,朔唯,,48,48,144,11,30,125,89,51,51,5,37,4,20,0.3,0.4
2022-10-22T15:00:00,2168A,112.4258,39.3197,朔州市,区政府,,50,50,123,4,26,117,86,64,60,4,23,3,9,0.3,0.5
2022-10-22T15:00:00,2169A,112.4072,39.3278,朔州市,市环保局,颗粒物(PM10),55,59,127,12,33,109,84,62,59,8,26,2,11,0.4,0.5
2022-10-22T15:00:00,2170A,112.4272,39.3681,朔州市,市二中,,49,49,140,17,32,123,89,52,52,5,31,3,17,0.2,0.4
2022-10-22T15:00:00,2171A,112.7532,37.6945,晋中市,锦纶小区,颗粒物(PM10),69,87,138,27,71,139,93,54,54,21,56,11,10,0.3,0.6
2022-10-22T15:00:00,2173A,112.7249,37.7067,晋中市,南都小区,颗粒物(PM10),54,57,155,29,78,142,97,56,56,21,67,9,9,0.2,0.8
2022-10-22T15:00:00,2174A,112.6991,37.6982,晋中市,榆次区政府,颗粒物(PM10),73,95,140,28,80,138,96,58,58,27,62,13,12,0.4,0.9
2022-10-22T15:00:00,2175A,110.9956,35.0147,运城市,运城中学,颗粒物(PM10),78,105,128,44,89,161,146,90,90,7,15,17,15,0.6,1.1
2022-10-22T15:00:00,2176A,111.0233,35.0611,运城市,禹都开发区,,,,,,,,,,,,,,,,
2022-10-22T15:00:00,2178A,110.9686,35.0303,运城市,地区技校,颗粒物(PM10),84,117,134,41,84,182,159,100,100,11,22,19,16,0.6,1
2022-10-22T15:00:00,2179A,111.0414,35.1147,运城市,空港新区,细颗粒物(PM2.5),115,143,150,87,107,185,180,111,111,14,32,22,20,1.1,1.6
2022-10-22T15:00:00,2181A,112.7383,38.4519,忻州市,开发区,颗粒物(PM10),53,56,92,7,34,127,84,58,58,8,40,8,16,0.3,0.5
2022-10-22T15:00:00,2182A,112.7003,38.4928,忻州市,会展中心,颗粒物(PM10),56,61,92,9,31,139,82,64,59,10,41,8,14,0.2,0.4
2022-10-22T15:00:00,2183A,111.1406,37.5211,吕梁市,环保局,颗粒物(PM10),82,113,112,19,28,139,64,31,31,25,56,10,7,0.2,0.5
2022-10-22T15:00:00,2185A,111.1297,37.5136,吕梁市,自来水公司,颗粒物(PM10),80,109,134,19,33,134,61,29,29,23,51,7,6,0.3,0.6
2022-10-22T15:00:00,2186A,106.8288,39.6778,乌海市,聚英学校,,,,,,,,,,,,,,,,
2022-10-22T15:00:00,2187A,106.8174,39.6973,乌海市,市林业局,,30,14,48,8,20,112,94,79,79,2,18,5,8,0.3,0.4
2022-10-22T15:00:00,2188A,106.7907,39.6667,乌海市,中海勃湾学校,,31,15,57,9,26,121,99,74,74,6,27,3,9,0.3,0.5
2022-10-22T15:00:00,2191A,122.2532,43.6801,通辽市,艺术职业学校,,23,20,34,0,8,81,71,68,57,13,20,5,6,0,0
2022-10-22T15:00:00,2192A,119.7594,49.2261,呼伦贝尔市,区环保局,,19,15,34,8,23,59,59,42,42,9,24,4,5,0.3,0.5
2022-10-22T15:00:00,2194A,107.5936,40.916,巴彦淖尔市,秋林养殖基地(对照点),,,,,,,,,,,,,,,,
2022-10-22T15:00:00,2195A,107.4212,40.761,巴彦淖尔市,附二中,,42,42,114,11,32,83,83,67,61,5,14,4,5,0.3,0.4
2022-10-22T15:00:00,2196A,107.37,40.7372,巴彦淖尔市,市环保大楼,,35,35,106,14,34,93,93,69,66,4,16,4,3,0.3,0.4
2022-10-22T15:00:00,2197A,113.1306,40.9923,乌兰察布市,集宁新区,,25,23,70,8,24,137,79,68,56,3,12,6,9,0.4,0.4
2022-10-22T15:00:00,2200A,122.0392,46.0656,兴安盟,胜华新制药厂,,20,15,37,10,17,72,64,46,46,7,17,2,3,0.2,0.3
2022-10-22T15:00:00,2201A,121.9504,46.0741,兴安盟,科右前旗环保局,,21,15,30,6,18,71,65,45,45,7,19,3,4,0.2,0.2
2022-10-22T15:00:00,2202A,116.1042,43.9317,锡林郭勒盟,市环保监测站,,23,11,12,2,6,76,72,64,64,3,4,8,9,0.2,0.2
2022-10-22T15:00:00,2203A,116.0781,43.9311,锡林郭勒盟,市政府,,23,18,12,2,3,71,71,62,62,2,7,9,9,0.1,0.2
2022-10-22T15:00:00,2204A,105.6467,38.8363,阿拉善盟,西城区西花园(对照点),,30,23,26,9,10,96,96,78,78,6,14,7,7,0.3,0.3
2022-10-22T15:00:00,2205A,105.6985,38.8411,阿拉善盟,蒙二幼,,31,20,30,15,16,98,97,80,80,4,9,8,9,0.2,0.3
2022-10-22T15:00:00,2206A,105.724,38.8516,阿拉善盟,环保局新楼,,31,12,18,7,10,99,97,91,91,6,7,5,5,0.3,0.3
2022-10-22T15:00:00,2207A,121.6094,41.998,阜新市,工业园区,,24,24,35,6,8,81,71,64,64,13,24,5,6,0.3,0.3
2022-10-22T15:00:00,2208A,121.6697,42.0279,阜新市,长青街,,22,21,32,5,13,81,70,64,64,10,23,4,6,0.3,0.4
2022-10-22T15:00:00,2209A,121.6673,42.0705,阜新市,农业园区,,21,15,21,4,6,76,67,62,62,8,12,7,8,0.1,0.3
2022-10-22T15:00:00,2210A,121.6717,42.0224,阜新市,东苑,,24,24,41,7,10,85,74,67,67,10,25,3,10,0.5,0.6
2022-10-22T15:00:00,2211A,121.6506,42.0498,阜新市,玉龙新城,,22,17,30,2,6,78,69,62,62,7,22,5,7,0.3,0.4
2022-10-22T15:00:00,2212A,123.2,41.1953,辽阳市,宏伟区,,23,15,72,8,28,136,72,54,54,11,45,9,14,0.4,0.9
2022-10-22T15:00:00,2213A,123.1683,41.2495,辽阳市,新华园,,22,14,82,10,40,127,70,54,54,15,46,12,15,0.2,0.7
2022-10-22T15:00:00,2214A,123.2354,41.2639,辽阳市,滨河路,,39,39,70,6,48,146,73,54,54,18,48,4,10,0.6,1.1
2022-10-22T15:00:00,2215A,123.149,41.2991,辽阳市,铁西工业园,,23,20,82,8,70,150,73,56,56,15,44,10,14,0.3,0.8
2022-10-22T15:00:00,2216A,123.8139,42.3022,铁岭市,汇工街西,,29,29,47,8,20,132,82,70,70,8,23,5,15,0.5,0.6
2022-10-22T15:00:00,2217A,123.8649,42.2923,铁岭市,水上乐园,,24,24,53,10,22,116,71,62,62,19,36,6,11,0.8,0.8
2022-10-22T15:00:00,2218A,123.8486,42.2867,铁岭市,银州路东段,,29,29,54,11,21,120,71,63,63,15,32,5,6,0.7,0.9
2022-10-22T15:00:00,2219A,123.7153,42.2217,铁岭市,金沙江路北,,27,27,40,9,15,130,75,68,68,14,20,8,9,0.3,0.4
2022-10-22T15:00:00,2220A,120.4318,41.5881,朝阳市,西梁,,23,14,31,7,14,86,71,61,61,10,16,7,16,0.5,0.6
2022-10-22T15:00:00,2221A,120.4521,41.5646,朝阳市,河畔小区,,22,22,28,8,11,91,68,63,63,10,12,7,36,0.6,0.7
2022-10-22T15:00:00,2222A,120.4176,41.5648,朝阳市,八里堡,,23,19,36,8,12,86,72,61,61,5,14,8,14,0.5,0.6
2022-10-22T15:00:00,2223A,120.3806,41.5969,朝阳市,农业园区,,23,15,35,8,14,89,72,62,62,8,21,5,9,0.5,0.6
2022-10-22T15:00:00,2225A,124.4002,43.1713,四平市,一商场,,28,28,45,14,17,85,56,50,50,20,23,4,4,0.5,0.6
2022-10-22T15:00:00,2226A,124.388,43.193,四平市,境园,,20,20,50,5,16,86,63,54,54,13,23,5,7,0.2,0.8
2022-10-22T15:00:00,2227A,125.1358,42.8845,辽源市,环保局,,26,20,46,18,29,119,68,57,57,10,23,12,11,0.5,0.6
2022-10-22T15:00:00,2229A,125.9358,41.7173,通化市,光明,,23,22,28,16,14,110,70,61,61,15,25,10,12,0.3,0.4
2022-10-22T15:00:00,2230A,125.9446,41.7325,通化市,铁路,,25,17,34,9,15,115,80,66,66,10,29,7,12,0.4,0.6
2022-10-22T15:00:00,2231A,126.4219,41.9171,白山市,喜丰,,40,40,39,15,16,110,66,69,61,18,20,5,9,0.7,0.8
2022-10-22T15:00:00,2232A,126.4077,41.9419,白山市,环保局,,37,37,52,17,21,110,65,56,56,13,25,7,11,0.6,0.8
2022-10-22T15:00:00,2233A,124.8006,45.1214,松原市,江南,,19,16,37,3,16,81,58,44,44,8,17,4,4,0.3,0.4
2022-10-22T15:00:00,2234A,124.7965,45.1722,松原市,江北,,21,3,41,2,17,84,65,46,46,4,17,1,4,0.2,0.4
2022-10-22T15:00:00,2235A,122.7911,45.6077,白城市,洮北区环保局,,26,18,34,5,19,92,83,67,67,9,16,5,5,0.2,0.2
2022-10-22T15:00:00,2236A,122.8738,45.5725,白城市,市环保局,,24,14,35,11,12,91,76,61,61,5,12,5,6,0.4,0.4
2022-10-22T15:00:00,2237A,129.47,42.8883,延边朝鲜族自治州,妇幼医院,,20,20,49,9,25,112,63,95,64,16,31,6,12,0.4,0.6
2022-10-22T15:00:00,2238A,129.5055,42.9108,延边朝鲜族自治州,延边医院,,50,50,46,13,22,106,67,88,66,11,21,7,9,0.4,0.6
2022-10-22T15:00:00,2239A,129.3964,42.8881,延边朝鲜族自治州,朝阳川镇医院,,24,24,45,8,21,110,64,89,64,15,19,5,7,0.4,0.5
2022-10-22T15:00:00,2240A,130.9762,45.3001,鸡西市,环保局,,18,16,45,5,23,93,55,80,46,8,16,3,4,0.1,0.4
2022-10-22T15:00:00,2243A,130.9429,45.3039,鸡西市,第一中学,,20,12,46,3,23,116,63,88,53,2,7,4,5,0.3,0.4
2022-10-22T15:00:00,2244A,130.2537,47.3416,鹤岗市,哈啤分公司,,18,6,17,9,14,56,55,52,52,4,6,6,6,0.1,0.2
2022-10-22T15:00:00,2245A,130.2684,47.3086,鹤岗市,斯达机电,,19,19,20,9,14,58,56,52,52,5,7,5,5,0.2,0.3
2022-10-22T15:00:00,2246A,130.3114,47.3388,鹤岗市,东山纸板厂,,27,27,23,13,17,59,57,54,54,3,5,5,6,0.2,0.3
2022-10-22T15:00:00,2247A,130.1097,47.3382,鹤岗市,五号水库(对照点),,19,8,16,7,13,59,59,56,56,2,5,4,5,0.1,0.1
2022-10-22T15:00:00,2248A,131.1511,46.6937,双鸭山市,双合村,,19,9,25,6,26,59,58,53,53,7,13,5,5,0.2,0.3
2022-10-22T15:00:00,2249A,131.1652,46.6191,双鸭山市,南小市,,19,17,29,4,19,60,60,54,54,5,14,5,7,0.2,0.3
2022-10-22T15:00:00,2250A,131.1524,46.6554,双鸭山市,环保局,,21,17,32,11,23,67,67,60,60,5,12,4,3,0.2,0.3
2022-10-22T15:00:00,2251A,131.12,46.5656,双鸭山市,苗圃(对照点),,18,10,33,7,30,56,55,49,49,4,14,3,7,0.2,0.5
2022-10-22T15:00:00,2252A,128.5159,47.4311,伊春市,环保局,,18,18,17,6,11,56,56,46,46,6,8,5,5,0.3,0.3
2022-10-22T15:00:00,2253A,128.9102,47.7412,伊春市,电力嘉园,,19,13,22,4,17,59,59,49,49,3,5,1,2,0.2,0.3
2022-10-22T15:00:00,2254A,129.5029,48.471,伊春市,汤旺河国家公园(对照点),,36,36,45,15,24,51,49,46,46,3,4,5,6,0.0,0.2
2022-10-22T15:00:00,2255A,130.2751,46.8028,佳木斯市,佳纺,,17,16,26,4,17,55,52,49,49,12,14,2,4,0.3,0.4
2022-10-22T15:00:00,2256A,130.3995,46.8307,佳木斯市,发电厂,,18,12,30,4,17,56,56,50,50,3,8,1,2,0.3,0.4
2022-10-22T15:00:00,2257A,130.3258,46.7975,佳木斯市,环保局,,18,7,23,5,19,56,56,49,49,7,15,4,4,0.3,0.4
2022-10-22T15:00:00,2258A,130.3648,46.8032,佳木斯市,十一中,,17,11,22,3,16,56,53,49,49,10,14,3,2,0.4,0.5
2022-10-22T15:00:00,2259A,130.3794,46.7588,佳木斯市,四丰(对照点),,,7,21,,53,51,51,43,43,,,1,1,0.2,0.4
2022-10-22T15:00:00,2262A,131.0518,45.8751,七台河市,新一中(对照点),,22,17,36,12,21,82,69,59,59,4,13,7,8,0.3,0.1
2022-10-22T15:00:00,2263A,127.4833,50.2524,黑河市,交通局,,,,22,,6,56,56,50,50,9,6,1,5,0.6,0.5
2022-10-22T15:00:00,2264A,127.5144,50.2341,黑河市,环保局,,20,10,16,8,10,61,61,54,54,5,6,6,9,0.5,0.5
2022-10-22T15:00:00,2265A,127.5291,50.2472,黑河市,大黑河岛(对照点),,,,,,,58,56,54,54,3,2,18,8,0.2,0.2
2022-10-22T15:00:00,2266A,126.9785,46.6365,绥化市,人和东街,,21,8,19,4,10,68,66,50,50,6,12,1,3,0.4,0.4
2022-10-22T15:00:00,2267A,126.964,46.6528,绥化市,党政办公中心,,26,5,15,4,11,82,82,60,60,5,9,3,4,0.3,0.4
2022-10-22T15:00:00,2269A,124.1069,50.4097,大兴安岭地区,科技局,,20,12,10,6,11,64,63,50,50,5,6,2,3,0.3,0.3
2022-10-22T15:00:00,2270A,117.396,32.939,蚌埠市,工人疗养院,臭氧1小时,74,78,124,47,70,179,179,112,112,19,49,9,10,0.4,0.5
2022-10-22T15:00:00,2271A,117.3605,32.9427,蚌埠市,百货大楼,细颗粒物(PM2.5),82,90,97,60,71,177,177,104,104,16,52,12,11,0.4,0.6
2022-10-22T15:00:00,2273A,117.4185,32.8911,蚌埠市,蚌埠学院,臭氧1小时,70,63,106,36,62,176,176,105,105,16,57,9,13,0.5,0.6
2022-10-22T15:00:00,2274A,117.3533,32.9673,蚌埠市,淮上区政府,细颗粒物(PM2.5),110,119,122,83,74,176,176,105,105,7,42,11,10,0.3,0.4
2022-10-22T15:00:00,2275A,117.3145,32.8977,蚌埠市,高新区,细颗粒物(PM2.5),104,104,104,78,67,178,178,104,104,19,60,10,10,0.6,0.7
2022-10-22T15:00:00,2277A,116.8305,32.7727,淮南市,潘集区政府,臭氧1小时,100,100,132,64,92,200,200,123,123,15,40,5,9,0.4,0.5
2022-10-22T15:00:00,2278A,117.0067,32.6524,淮南市,师范学院,细颗粒物(PM2.5),90,102,143,67,89,188,188,114,114,20,40,10,10,0.6,0.8
2022-10-22T15:00:00,2279A,116.8569,32.5951,淮南市,谢家集区政府,臭氧1小时,74,64,133,28,84,179,179,138,138,18,37,11,24,0.3,0.6
2022-10-22T15:00:00,2280A,116.8281,32.633,淮南市,八公山区政府,臭氧1小时,95,58,105,49,90,196,196,135,135,14,24,12,18,0.6,0.7
2022-10-22T15:00:00,2281A,116.6325,32.6201,淮南市,焦岗湖风景区管理处(对照点),臭氧1小时,100,102,110,61,68,200,200,116,116,1,15,10,11,0.4,0.5
2022-10-22T15:00:00,2282A,116.8004,33.975,淮北市,监测站,臭氧1小时,94,89,71,55,43,195,195,112,112,17,31,11,8,0.6,0.7
2022-10-22T15:00:00,2283A,116.8091,33.9007,淮北市,烈山区政府,臭氧1小时,97,81,83,65,51,197,197,120,120,22,48,8,6,0.5,0.5
2022-10-22T15:00:00,2284A,116.7856,33.9477,淮北市,职业技术学院,"颗粒物(PM10),细颗粒物(PM2.5)",79,107,84,58,46,183,182,115,115,34,54,10,8,0.7,1
2022-10-22T15:00:00,2285A,117.8177,30.9412,铜陵市,市第四中学,颗粒物(PM10),71,92,103,41,55,173,173,106,106,28,58,11,11,0.4,0.7
2022-10-22T15:00:00,2286A,117.8059,30.9273,铜陵市,市公路局,臭氧1小时,68,74,100,40,68,174,174,105,105,18,48,13,11,0.4,0.7
2022-10-22T15:00:00,2287A,117.7807,30.9413,铜陵市,市新民污水厂,臭氧1小时,78,68,98,37,55,182,182,110,110,18,47,14,15,0.3,0.5
2022-10-22T15:00:00,2288A,117.7439,30.8792,铜陵市,市第九中学,"细颗粒物(PM2.5),臭氧1小时",67,75,128,48,66,173,173,99,99,35,58,10,10,0.5,0.8
2022-10-22T15:00:00,2289A,117.846,30.9413,铜陵市,车站新区,臭氧1小时,67,56,79,25,55,173,173,106,106,15,40,7,8,0.3,0.5
2022-10-22T15:00:00,2290A,117.8483,30.97,铜陵市,市职教基地,臭氧1小时,77,53,84,37,54,181,181,110,110,12,29,8,8,0.6,0.7
2022-10-22T15:00:00,2291A,117.0809,30.5177,安庆市,环科院,臭氧1小时,78,45,84,30,53,182,182,132,132,16,27,8,13,0.5,0.7
2022-10-22T15:00:00,2292A,117.0331,30.5119,安庆市,马山宾馆,臭氧1小时,88,48,77,30,47,190,190,137,137,15,26,7,12,0.6,0.8
2022-10-22T15:00:00,2294A,116.9896,30.6145,安庆市,安庆大学,臭氧1小时,84,49,57,31,36,187,187,142,142,14,21,8,8,0.6,0.7
2022-10-22T15:00:00,2295A,118.2903,29.6963,黄山市,延安路89号,臭氧1小时,55,19,23,14,17,172,164,116,116,8,17,5,5,0.1,0.2
2022-10-22T15:00:00,2296A,118.327,29.7178,黄山市,黄山东路89号,,47,33,37,18,22,168,149,114,114,11,22,5,5,0.1,0.2
2022-10-22T15:00:00,2297A,118.1371,30.2756,黄山市,黄山区政府5号楼,臭氧1小时,63,40,45,12,21,170,170,110,110,11,12,12,6,0.6,0.5
2022-10-22T15:00:00,2298A,118.3093,32.3153,滁州市,老年大学,,46,46,56,27,35,147,147,102,102,14,34,12,9,0.3,0.4
2022-10-22T15:00:00,2299A,118.3244,32.2786,滁州市,人大宾馆,颗粒物(PM10),57,63,77,28,33,151,148,110,110,20,39,9,5,0.3,0.5
2022-10-22T15:00:00,2301A,115.8277,32.8929,阜阳市,市监测站,细颗粒物(PM2.5),110,157,149,83,93,189,189,122,122,35,59,13,13,0.6,0.9
2022-10-22T15:00:00,2303A,115.8554,32.8605,阜阳市,开发区,臭氧1小时,105,97,156,61,101,210,210,132,132,21,61,9,9,0.5,0.9
2022-10-22T15:00:00,2306A,116.989,33.6306,宿州市,火车站,,,,,,,,,,,,,,,,
2022-10-22T15:00:00,2307A,116.5079,31.737,六安市,监测大楼,臭氧1小时,79,82,90,48,54,183,183,120,120,15,47,7,8,0.4,0.5
2022-10-22T15:00:00,2308A,116.4738,31.7643,六安市,皖西学院,臭氧1小时,88,87,96,36,50,190,190,120,120,11,41,7,7,0.4,0.6
2022-10-22T15:00:00,2309A,116.4996,31.7905,六安市,朝阳厂,细颗粒物(PM2.5),77,76,90,56,60,174,174,110,110,16,47,5,5,0.5,0.7
2022-10-22T15:00:00,2310A,116.5567,31.7886,六安市,开发区,臭氧1小时,82,99,128,46,64,185,185,116,116,19,48,12,10,0.4,0.6
2022-10-22T15:00:00,2311A,115.8072,33.8399,亳州市,污水处理厂,臭氧1小时,97,74,96,44,65,197,197,123,123,15,44,6,16,0.5,0.6
2022-10-22T15:00:00,2312A,115.7789,33.8518,亳州市,三国揽胜宫,臭氧1小时,103,95,102,51,68,206,206,138,138,14,38,6,16,0.6,0.8
2022-10-22T15:00:00,2314A,117.47,30.6618,池州市,池州学院,臭氧1小时,87,59,97,45,66,189,189,114,114,13,42,10,14,0.5,0.8
2022-10-22T15:00:00,2315A,117.4974,30.6539,池州市,平天湖(对照点),,,,,,,,,,,,,,,,
2022-10-22T15:00:00,2316A,118.7581,30.9454,宣城市,鳌峰子站,臭氧1小时,80,68,70,51,44,184,184,108,108,13,45,7,7,0.8,0.6
2022-10-22T15:00:00,2317A,118.7385,30.9743,宣城市,敬亭山子站,臭氧1小时,88,80,66,44,41,190,190,111,111,18,26,10,7,0.8,0.6
2022-10-22T15:00:00,2318A,118.7173,30.9427,宣城市,开发区子站,细颗粒物(PM2.5),75,82,76,55,47,177,177,104,104,16,50,10,7,0.9,0.7
2022-10-22T15:00:00,2319A,119.0141,25.4325,莆田市,荔城区仓后路,,29,23,27,14,13,110,92,82,82,10,7,5,5,0.6,0.6
2022-10-22T15:00:00,2320A,119.0015,25.4553,莆田市,莆田市监测站,,30,25,24,9,12,125,95,84,84,6,7,6,6,0.5,0.5
2022-10-22T15:00:00,2321A,119.1119,25.4561,莆田市,涵江区六中,,26,21,26,9,15,95,82,76,76,6,6,7,7,0.6,0.5
2022-10-22T15:00:00,2322A,119.1013,25.3215,莆田市,秀屿区政府,,32,32,29,14,14,97,83,82,80,5,6,7,7,0.6,0.6
2022-10-22T15:00:00,2323A,118.981,25.4792,莆田市,东圳水库(对照点),,,,,,,,,,,,,,,,
2022-10-22T15:00:00,2324A,117.6211,26.2625,三明市,三钢,,42,21,34,16,22,134,134,97,97,6,25,6,6,0.3,0.4
2022-10-22T15:00:00,2325A,117.635,26.2714,三明市,三明二中,,40,31,30,14,17,127,127,90,90,6,24,5,5,0.3,0.4
2022-10-22T15:00:00,2326A,117.6028,26.2378,三明市,三元区政府,,38,25,44,17,23,119,119,84,84,10,35,6,9,0.4,0.8
2022-10-22T15:00:00,2327A,117.7275,26.3108,三明市,洋溪(对照点),,,,,,,,,,,,,,,,
2022-10-22T15:00:00,2331A,118.0966,26.6761,南平市,茫荡山(对照点),,,,,,,,,,,,,,,,
2022-10-22T15:00:00,2332A,118.1681,26.6369,南平市,南平市监测站,,44,24,33,11,17,138,138,96,96,6,27,7,7,0.4,0.6
2022-10-22T15:00:00,2333A,118.1825,26.6489,南平市,南平铝业有限公司,,41,36,38,12,25,129,129,90,90,7,29,6,11,0.4,0.6
2022-10-22T15:00:00,2334A,118.1756,26.6272,南平市,南平七中,,45,39,34,18,21,144,144,104,104,6,22,6,6,0.5,0.6
2022-10-22T15:00:00,2335A,117.0189,25.1181,龙岩市,龙岩师专(对照点),,,,,,,,,,,,,,,,
2022-10-22T15:00:00,2336A,117.0217,25.1033,龙岩市,龙岩市监测站,,29,16,32,13,17,117,90,81,81,10,25,9,10,0.3,0.5
2022-10-22T15:00:00,2337A,117.0258,25.0661,龙岩市,闽西职业技术学院,,29,14,44,12,18,118,91,73,73,9,36,7,20,0.5,0.5
2022-10-22T15:00:00,2338A,117.0196,25.0306,龙岩市,龙岩学院,,28,18,30,6,20,126,89,75,75,7,24,4,8,0.4,0.4
2022-10-22T15:00:00,2339A,119.5001,26.6946,宁德市,金涵水库(对照点),,,,,,,,,,,,,,,,
2022-10-22T15:00:00,2341A,119.5388,26.6612,宁德市,宁德市监测站,,35,30,36,13,18,119,109,79,79,8,17,9,8,0.5,0.5
2022-10-22T15:00:00,2342A,117.3102,29.3867,景德镇市,王港中学(对照点),,29,22,34,12,18,96,92,68,68,3,7,4,6,0.0,0.1
2022-10-22T15:00:00,2343A,117.2117,29.2933,景德镇市,老干部活动中心,,43,37,84,8,32,150,136,100,100,6,33,6,8,0.7,0.9
2022-10-22T15:00:00,2344A,117.1894,29.2789,景德镇市,兽医站,,45,25,52,27,32,161,141,109,109,10,33,6,9,0.5,0.6
2022-10-22T15:00:00,2345A,117.1547,29.2617,景德镇市,台达陶瓷,,43,30,60,19,30,145,135,103,103,11,39,9,15,0.6,0.8
2022-10-22T15:00:00,2346A,117.2461,29.2956,景德镇市,陶研所,,40,27,58,15,25,138,128,86,86,4,27,5,6,0.6,0.7
2022-10-22T15:00:00,2347A,114.0997,27.5002,萍乡市,武功山(对照点),臭氧1小时,65,43,29,28,20,173,172,128,128,12,12,26,17,0.6,0.5
2022-10-22T15:00:00,2348A,113.8385,27.6434,萍乡市,中医院,臭氧1小时,95,52,81,30,47,199,196,138,138,17,34,9,27,0.7,1.1
2022-10-22T15:00:00,2349A,113.8493,27.6253,萍乡市,市政府车库,臭氧1小时,108,59,75,33,50,215,215,152,152,17,30,15,20,0.6,0.9
2022-10-22T15:00:00,2350A,113.8676,27.6435,萍乡市,市环保局,臭氧1小时,105,53,74,36,49,209,209,146,146,16,26,17,26,0.9,1.1
2022-10-22T15:00:00,2351A,113.866,27.6198,萍乡市,安源区政府,臭氧1小时,102,52,65,28,45,204,204,148,148,15,25,16,20,0.6,0.7
2022-10-22T15:00:00,2352A,115.0861,27.9317,新余市,北岗(对照点),颗粒物(PM10),54,58,81,34,40,92,92,62,62,9,19,16,23,0.6,0.7
2022-10-22T15:00:00,2353A,114.9886,27.8431,新余市,飞宇,颗粒物(PM10),53,55,63,31,35,143,140,106,106,10,24,25,28,0.3,0.4
2022-10-22T15:00:00,2354A,114.9231,27.8246,新余市,第二水厂,细颗粒物(PM2.5),60,58,65,43,38,157,157,118,118,13,22,24,23,0.7,0.7
2022-10-22T15:00:00,2355A,114.9308,27.8036,新余市,市气象局,臭氧1小时,59,50,61,29,37,167,167,119,119,9,16,26,23,0.5,0.6
2022-10-22T15:00:00,2357A,116.9822,28.1136,鹰潭市,龙虎山(对照点),臭氧1小时,102,64,50,19,19,204,204,138,138,9,13,17,7,0.4,0.4
2022-10-22T15:00:00,2358A,117.0564,28.2642,鹰潭市,新监测站,臭氧1小时,74,66,61,31,34,179,179,124,124,4,23,16,33,0.3,0.3
2022-10-22T15:00:00,2359A,117.0311,28.2475,鹰潭市,财苑宾馆,臭氧1小时,89,66,69,31,34,200,191,141,141,6,27,17,24,0.2,0.5
2022-10-22T15:00:00,2360A,117.0222,28.2264,鹰潭市,体育馆,,,66,66,30,35,204,196,134,134,,28,14,14,0.3,0.5
2022-10-22T15:00:00,2361A,117.0017,28.2131,鹰潭市,三川水表,臭氧1小时,92,71,76,24,35,196,193,124,124,9,26,15,14,0.6,0.6
2022-10-22T15:00:00,2362A,114.9017,25.9149,赣州市,通天岩(对照点),,50,25,39,11,22,174,158,138,138,4,9,10,10,0.4,0.4
2022-10-22T15:00:00,2363A,114.9367,25.8664,赣州市,地委,,50,50,70,20,34,168,148,119,119,34,41,28,17,0.8,0.8
2022-10-22T15:00:00,2364A,114.9461,25.8481,赣州市,气象台,臭氧1小时,57,34,57,32,32,178,165,139,139,10,32,18,15,0.4,0.5
2022-10-22T15:00:00,2365A,114.9322,25.8333,赣州市,市图书馆,臭氧1小时,59,39,58,23,29,179,167,140,140,7,35,4,5,0.6,0.7
2022-10-22T15:00:00,2366A,114.8905,25.8471,赣州市,华坚鞋城,,47,38,68,20,34,166,149,131,131,10,29,12,18,0.6,0.7
2022-10-22T15:00:00,2367A,114.9754,27.0803,吉安市,红声器材厂,臭氧1小时,73,54,61,29,30,182,178,139,139,12,18,11,15,0.5,0.6
2022-10-22T15:00:00,2368A,114.9658,27.0999,吉安市,市森林工业局,臭氧1小时,84,55,56,31,31,189,187,150,150,10,19,10,14,0.3,0.4
2022-10-22T15:00:00,2369A,114.99,27.1312,吉安市,市环境监测站,臭氧1小时,83,56,58,26,30,186,186,146,146,16,22,7,12,0.4,0.4
2022-10-22T15:00:00,2370A,115.0093,27.0968,吉安市,青原区法院,臭氧1小时,77,50,59,29,37,181,181,140,140,9,23,13,18,0.6,0.5
2022-10-22T15:00:00,2371A,114.3408,27.8064,宜春市,槟榔水业(对照点),,,,,,,,,,,,,,,,
