timepoint,stationcode,longitude,latitude,area,positionname,primarypollutant,aqi,pm10,pm10_24h,pm2_5,pm2_5_24h,o3,o3_24h,o3_8h,o3_8h_24h,no2,no2_24h,so2,so2_24h,co,co_24h
2025-01-10T2000,2566A,102.1879,31.914,阿坝藏族羌族自治州,州农科所,,31,31,24,12,9,77,,67,67,7,11,6,6,0.7,0.7
2025-01-10T2000,2568A,102.2502,31.8896,阿坝藏族羌族自治州,马师校,,36,33,14,25,13,18,,57,51,40,13,6,6,0.6,0.3
2025-01-10T2000,3994A,102.2165,31.9024,阿坝藏族羌族自治州,马尔康中学西区,,35,27,13,24,14,61,,67,67,16,8,6,5,0.6,0.4
2025-01-10T2000,2695A,80.292,41.1694,阿克苏地区,电视台,细颗粒物(PM2.5),94,100,97,70,70,35,,49,32,47,41,3,3,0.9,1
2025-01-10T2000,2696A,80.2613,41.1551,阿克苏地区,艺术中心,,,79,94,62,67,,,52,27,34,34,4,4,0.9,1.2
2025-01-10T2000,2204A,105.6467,38.8363,阿拉善盟,西城区西花园,,42,42,43,25,22,79,,90,90,19,12,12,11,0.7,0.6
2025-01-10T2000,2205A,105.6985,38.8411,阿拉善盟,蒙二幼,,27,27,34,12,12,81,,87,86,9,8,4,4,0.6,0.5
2025-01-10T2000,2206A,105.724,38.8516,阿拉善盟,环保局新楼,,28,24,30,10,12,88,,88,87,6,6,7,7,0.5,0.5
2025-01-10T2000,2708A,88.1264,47.8517,阿勒泰地区,市站,,17,15,25,8,16,35,,47,47,34,32,8,9,0.4,0.5
2025-01-10T2000,2630A,80.1161,32.5,阿里地区,阿里监测站,,30,6,9,3,4,94,,84,84,1,5,5,7,0.5,0.5
2025-01-10T2000,3192A,80.0903,32.5028,阿里地区,阿里藏医院,,29,6,12,3,5,92,,87,87,1,6,5,8,0.5,0.6
2025-01-10T2000,2642A,109.0318,32.6537,安康市,香溪洞,细颗粒物(PM2.5),64,62,53,46,38,71,,70,70,22,16,11,10,0.6,0.6
2025-01-10T2000,2644A,109.0072,32.6975,安康市,汉滨区检察院,细颗粒物(PM2.5),93,100,69,69,44,33,,68,65,50,29,6,6,0.8,0.6
2025-01-10T2000,4054A,109.0325,32.6913,安康市,市邮政管理局,细颗粒物(PM2.5),135,140,76,103,52,14,,61,58,72,36,8,6,1.7,0.8
2025-01-10T2000,2291A,117.0809,30.5177,安庆市,环科院,细颗粒物(PM2.5),58,61,40,41,24,56,,70,68,29,19,8,7,0.4,0.4
2025-01-10T2000,2292A,117.0331,30.5119,安庆市,马山宾馆,颗粒物(PM10),54,57,41,36,24,49,,68,64,33,17,9,9,0.6,0.5
2025-01-10T2000,2294A,116.9896,30.6145,安庆市,安庆大学,,,,39,28,23,35,,75,70,41,15,6,6,0.7,0.6
2025-01-10T2000,3173A,117.0598,30.5351,安庆市,市人大,细颗粒物(PM2.5),62,64,40,44,24,48,,71,66,33,24,8,8,0.7,0.5
2025-01-10T2000,3122A,105.9606,26.2611,安顺市,伍家关,,,,25,53,23,72,,82,79,20,13,19,10,0.5,0.5
2025-01-10T2000,3123A,105.9408,26.2431,安顺市,凤凰山,细颗粒物(PM2.5),57,42,27,40,26,65,,72,71,20,14,27,16,0.5,0.5
2025-01-10T2000,3124A,105.9439,26.2564,安顺市,金钟山,细颗粒物(PM2.5),59,48,30,42,28,65,,72,72,16,11,26,16,0.6,0.6
2025-01-10T2000,3125A,105.8983,26.2481,安顺市,娄家坡,细颗粒物(PM2.5),54,40,28,38,29,62,,69,68,20,12,24,15,0.4,0.4
2025-01-10T2000,1818A,114.4839,36.0621,安阳市,棉研所,细颗粒物(PM2.5),114,,79,86,53,7,,45,42,70,47,14,13,1.0,1
2025-01-10T2000,1819A,114.3551,36.1017,安阳市,红庙街,细颗粒物(PM2.5),69,69,63,50,43,14,,50,45,51,32,7,10,1.2,0.9
2025-01-10T2000,1820A,114.361,36.0681,安阳市,银杏小区,细颗粒物(PM2.5),68,83,72,49,44,7,,43,39,66,42,6,7,1.1,0.8
2025-01-10T2000,3141A,114.3922,36.0878,安阳市,信访局,细颗粒物(PM2.5),59,58,64,42,43,12,,41,40,58,38,8,6,0.7,0.5
2025-01-10T2000,3669A,114.4705,36.0637,安阳市,左辅环卫站,细颗粒物(PM2.5),68,84,82,49,52,24,,49,48,42,40,10,9,0.8,0.7
2025-01-10T2000,3703A,114.2917,36.0949,安阳市,安钢职工学校,细颗粒物(PM2.5),104,,80,78,50,13,,49,45,62,41,9,9,1.1,0.9
2025-01-10T2000,1748A,123.044,41.1196,鞍山市,深沟寺,细颗粒物(PM2.5),62,70,63,44,36,26,,47,46,42,33,12,14,0.9,1.1
2025-01-10T2000,1749A,123.011,41.0931,鞍山市,太阳城,颗粒物(PM10),56,61,69,33,42,43,,47,47,32,43,7,21,0.8,1.5
2025-01-10T2000,1750A,123.0485,41.1442,鞍山市,太平,细颗粒物(PM2.5),83,107,71,61,38,19,,40,39,60,38,32,13,1.1,1.1
2025-01-10T2000,1751A,122.9642,41.0971,鞍山市,铁西三道街,颗粒物(PM10),63,76,108,39,63,18,,45,43,56,47,11,21,1.0,1.6
2025-01-10T2000,1752A,122.9341,41.0833,鞍山市,铁西工业园区,细颗粒物(PM2.5),212,218,116,162,66,24,,47,44,81,54,21,17,2.6,1.7
2025-01-10T2000,1753A,123.022,41.0821,鞍山市,明达新区,颗粒物(PM10),56,61,69,32,39,28,,43,43,26,26,10,21,0.9,1.6
2025-01-10T2000,1754A,123.1289,41.0228,鞍山市,千山,,,,56,,36,,,23,,,30,,9,,1.3
2025-01-10T2000,2195A,107.4212,40.761,巴彦淖尔市,附二中,颗粒物(PM10),52,54,63,24,26,61,,70,70,15,18,4,6,0.6,0.6
2025-01-10T2000,2196A,107.37,40.7372,巴彦淖尔市,市环保大楼,颗粒物(PM10),52,54,57,27,22,60,,72,72,15,16,4,6,0.4,0.5
2025-01-10T2000,1956A,86.1472,41.7538,巴音郭楞蒙古自治州,孔雀公园,,33,25,49,23,40,68,,61,61,10,33,2,3,0.5,0.7
2025-01-10T2000,1957A,86.1972,41.7166,巴音郭楞蒙古自治州,棉纺厂,,36,36,61,17,31,69,,65,65,18,42,1,2,0.4,0.7
2025-01-10T2000,1958A,86.2357,41.7173,巴音郭楞蒙古自治州,经济开发区,,27,27,52,15,30,72,,64,64,17,35,2,2,0.5,0.6
2025-01-10T2000,2914A,106.7677,31.8794,巴中市,苏山坪,细颗粒物(PM2.5),67,64,44,48,38,56,,62,62,18,10,4,3,0.4,0.5
2025-01-10T2000,3182A,106.7656,31.8545,巴中市,丽阳花园,细颗粒物(PM2.5),80,81,69,59,50,20,,52,51,54,29,4,3,0.9,0.7
2025-01-10T2000,3183A,106.7418,31.8654,巴中市,圣泉水务公司,细颗粒物(PM2.5),82,72,59,60,48,37,,56,56,36,30,4,3,0.6,0.6
2025-01-10T2000,3616A,106.7616,31.8344,巴中市,市中心医院,细颗粒物(PM2.5),74,77,68,54,60,14,,51,50,54,29,4,4,0.9,0.8
2025-01-10T2000,2235A,122.7911,45.6077,白城市,洮北区环保局,细颗粒物(PM2.5),83,66,43,61,44,54,,66,64,29,24,8,6,0.8,0.7
2025-01-10T2000,2236A,122.8738,45.5725,白城市,市环保局,细颗粒物(PM2.5),59,56,63,42,52,7,,58,44,64,37,6,5,0.5,0.7
2025-01-10T2000,2231A,126.4219,41.9171,白山市,喜丰,颗粒物(PM10),53,55,41,29,20,24,,59,54,54,18,12,15,0.8,0.5
2025-01-10T2000,2232A,126.4077,41.9419,白山市,环保局,细颗粒物(PM2.5),80,85,58,59,25,25,,54,45,32,15,22,22,1.2,0.7
2025-01-10T2000,2647A,104.1724,36.5446,白银市,第三小学,颗粒物(PM10),66,82,80,33,25,47,,75,63,27,13,18,13,1.0,0.8
2025-01-10T2000,2648A,104.1465,36.5482,白银市,动力公司,颗粒物(PM10),61,71,79,32,26,66,,78,72,22,16,22,9,0.8,0.7
2025-01-10T2000,2512A,106.6103,23.9011,百色市,市监测站,,28,28,20,18,15,65,,76,75,13,12,8,8,0.9,0.8
2025-01-10T2000,2513A,106.6538,23.8859,百色市,市中心血站,,42,41,24,29,18,64,,76,75,17,11,6,8,0.6,0.6
2025-01-10T2000,3406A,106.6085,23.8798,百色市,祈福高中,颗粒物(PM10),55,60,29,18,18,61,,78,76,20,13,5,5,0.7,0.6
2025-01-10T2000,2270A,117.396,32.939,蚌埠市,工人疗养院,颗粒物(PM10),62,73,54,43,34,28,,58,54,63,38,8,7,0.7,0.5
2025-01-10T2000,2271A,117.3605,32.9427,蚌埠市,百货大楼,细颗粒物(PM2.5),62,58,53,44,35,40,,61,59,43,34,8,8,0.8,0.6
2025-01-10T2000,2273A,117.4185,32.8911,蚌埠市,蚌埠学院,"颗粒物(PM10),细颗粒物(PM2.5)",57,63,56,40,34,35,,64,60,46,29,9,9,0.4,0.4
2025-01-10T2000,2274A,117.3533,32.9673,蚌埠市,淮上区政府,细颗粒物(PM2.5),63,73,65,45,42,29,,61,58,52,41,10,9,0.7,0.5
2025-01-10T2000,2275A,117.3145,32.8977,蚌埠市,高新区,细颗粒物(PM2.5),105,107,70,79,46,13,,58,51,69,46,12,11,0.7,0.5
2025-01-10T2000,3715A,117.3092,32.9314,蚌埠市,蚌埠田家炳中学,细颗粒物(PM2.5),62,64,67,44,42,19,,59,50,62,43,11,8,0.8,0.6
2025-01-10T2000,1585A,109.8756,40.6532,包头市,市环境监测站,颗粒物(PM10),54,57,63,18,25,52,,56,56,34,42,17,19,1.1,1.1
2025-01-10T2000,1587A,109.9991,40.5842,包头市,包头八中,颗粒物(PM10),51,52,69,19,34,27,,56,54,50,41,6,19,0.7,1.1
2025-01-10T2000,1588A,109.8538,40.6821,包头市,青山宾馆,颗粒物(PM10),60,69,54,29,32,8,,48,44,69,44,12,16,0.9,1.1
2025-01-10T2000,1589A,109.8642,40.6288,包头市,惠龙物流,颗粒物(PM10),56,61,54,17,27,58,,62,62,30,39,16,21,0.7,1
2025-01-10T2000,1590A,110.0377,40.5546,包头市,东河鸿龙湾,,45,45,59,16,26,16,,59,56,53,40,11,19,0.8,1.1
2025-01-10T2000,3283A,109.9154,40.5685,包头市,滨河大厦,,34,34,51,10,25,54,,61,61,26,40,6,12,0.3,0.6
2025-01-10T2000,3419A,109.9447,40.6261,包头市,包头市委党校,颗粒物(PM10),55,59,75,33,28,49,,56,56,28,40,6,16,0.9,1.3
2025-01-10T2000,3683A,109.8331,40.6576,包头市,昆区政府,颗粒物(PM10),58,66,51,39,28,25,,48,47,60,39,20,20,1.5,1.1
2025-01-10T2000,1930A,107.185,34.3063,宝鸡市,庙沟村,,32,32,48,16,33,77,,78,78,10,26,6,7,0.5,0.6
2025-01-10T2000,1931A,107.0708,34.3017,宝鸡市,竹园沟,细颗粒物(PM2.5),62,66,56,44,42,61,,78,78,18,23,6,6,0.6,0.6
2025-01-10T2000,1932A,107.1906,34.3672,宝鸡市,三陆医院,细颗粒物(PM2.5),65,78,71,47,48,21,,60,59,62,37,6,7,0.6,0.6
2025-01-10T2000,1933A,107.1431,34.3547,宝鸡市,监测站,细颗粒物(PM2.5),102,90,67,76,44,31,,60,60,43,36,7,7,0.8,0.7
2025-01-10T2000,1934A,107.1186,34.3739,宝鸡市,技工学校,细颗粒物(PM2.5),64,73,64,46,44,33,,63,62,45,26,8,6,0.8,0.7
2025-01-10T2000,1935A,107.3906,34.3528,宝鸡市,陈仓区环保局家属楼,细颗粒物(PM2.5),127,,78,96,54,11,,60,58,78,42,10,35,1.1,1
2025-01-10T2000,1936A,107.2058,34.3497,宝鸡市,文理学院,细颗粒物(PM2.5),60,62,69,43,42,20,,71,62,66,35,6,7,0.6,0.7
2025-01-10T2000,1937A,107.2386,34.3622,宝鸡市,三迪小学,,,,65,,47,,,31,,,35,,8,,0.6
2025-01-10T2000,1051A,115.493,38.8632,保定市,游泳馆,颗粒物(PM10),65,80,58,45,37,15,,45,39,72,52,2,4,0.9,0.7
2025-01-10T2000,1052A,115.5213,38.8959,保定市,华电二区,细颗粒物(PM2.5),59,60,52,42,40,33,,41,41,46,43,3,4,0.6,0.4
2025-01-10T2000,1053A,115.4713,38.9108,保定市,接待中心,颗粒物(PM10),52,53,55,32,36,47,,46,46,30,42,1,2,0.7,0.7
2025-01-10T2000,1054A,115.4612,38.8416,保定市,地表水厂,颗粒物(PM10),65,79,80,36,47,21,,37,34,59,52,1,3,0.4,0.5
2025-01-10T2000,3581A,115.31981,38.95208,保定市,满城区生态环境分局,颗粒物(PM10),74,97,64,48,34,14,,47,40,77,42,6,3,0.7,0.7
2025-01-10T2000,3582A,115.47694,38.76408,保定市,清苑区第二中学,颗粒物(PM10),54,58,77,35,43,47,,47,47,35,55,4,6,0.4,0.5
2025-01-10T2000,3583A,115.62909,39.02311,保定市,徐水物探局,颗粒物(PM10),58,66,53,34,32,20,,39,36,60,52,2,3,0.5,0.5
2025-01-10T2000,4004A,115.4202,38.8656,保定市,双鹰农机,颗粒物(PM10),59,68,59,35,34,39,,51,48,40,41,2,4,0.4,0.4
2025-01-10T2000,4034A,115.5150,38.8590,保定市,植保所站,颗粒物(PM10),73,95,67,52,41,18,,40,37,63,46,3,5,0.7,0.6
2025-01-10T2000,2594A,99.1678,25.1081,保山市,市环境监测站,,40,,29,28,24,60,,78,78,9,13,4,4,0.4,0.6
2025-01-10T2000,2595A,99.1711,25.1328,保山市,市环保局,,43,,30,30,24,68,,78,78,5,9,6,6,0.3,0.4
2025-01-10T2000,1866A,109.2262,21.588,北海市,牛尾岭水库,,,52,46,37,39,57,,52,52,,10,6,5,0.6,0.6
2025-01-10T2000,1867A,109.1436,21.4086,北海市,海滩公园,颗粒物(PM10),57,64,67,34,39,112,,109,109,16,16,8,8,0.7,0.8
2025-01-10T2000,1868A,109.0981,21.4661,北海市,新市环保局,细颗粒物(PM2.5),55,53,50,39,38,111,,109,109,18,18,8,7,0.8,0.8
2025-01-10T2000,1869A,109.1778,21.5233,北海市,北海工业园,细颗粒物(PM2.5),74,72,66,54,43,105,,108,108,20,16,10,10,0.7,0.7
2025-01-10T2000,3400A,109.1911,21.4415,北海市,龙潭自来水厂,细颗粒物(PM2.5),58,55,63,41,48,104,,105,104,21,20,7,8,0.7,0.6
2025-01-10T2000,1001A,116.3621,39.8784,北京市,万寿西宫,,50,50,22,35,12,2,,46,31,83,31,4,3,0.6,0.3
2025-01-10T2000,1002A,116.2202,40.2915,北京市,定陵,,,,,,,,,,,,,,,,
2025-01-10T2000,1003A,116.4174,39.9289,北京市,东四,,32,32,18,19,11,34,,54,47,33,21,2,2,0.4,0.3
2025-01-10T2000,1004A,116.4072,39.8863,北京市,天坛,,41,41,19,24,12,17,,55,42,48,25,3,3,0.3,0.3
2025-01-10T2000,1005A,116.462,39.9365,北京市,农展馆,,21,21,16,13,8,52,,66,63,27,24,3,2,0.5,0.4
2025-01-10T2000,1006A,116.3392,39.9295,北京市,官园,,39,39,22,20,12,17,,49,39,54,28,4,4,0.8,0.6
2025-01-10T2000,1007A,116.2878,39.9611,北京市,海淀万柳,,28,28,23,11,8,32,,49,42,38,34,3,2,0.6,0.5
2025-01-10T2000,1008A,116.6636,40.135,北京市,顺义新城,,48,48,14,19,7,3,,51,39,64,14,3,3,0.6,0.2
2025-01-10T2000,1009A,116.6275,40.3275,北京市,怀柔镇,,33,33,13,21,9,39,,61,56,25,13,2,2,0.6,0.4
2025-01-10T2000,1010A,116.2296,40.217,北京市,昌平镇,,,25,18,13,8,,,63,63,15,12,3,3,0.5,0.5
2025-01-10T2000,1011A,116.3966,39.9821,北京市,奥体中心,,32,32,18,10,9,46,,60,60,27,25,5,4,0.3,0.2
2025-01-10T2000,3281A,115.9718,40.4529,北京市,延庆夏都,,21,21,24,9,12,45,,54,52,22,19,3,2,0.3,0.3
2025-01-10T2000,3417A,117.0709,40.1465,北京市,平谷新城,,46,46,11,25,5,25,,65,56,32,7,3,3,0.6,0.3
2025-01-10T2000,3418A,116.8336,40.4095,北京市,密云新城,,27,27,11,15,7,39,,64,57,15,6,1,1,0.3,0.2
2025-01-10T2000,3671A,116.088,39.9726,北京市,门头沟三家店,,22,22,21,12,10,52,,57,57,12,21,5,9,0.4,0.3
2025-01-10T2000,3672A,116.1541,39.8204,北京市,丰台云岗,颗粒物(PM10),55,59,34,33,12,23,,41,38,46,39,2,2,0.4,0.3
2025-01-10T2000,3673A,116.6804,39.9081,北京市,通州东关,颗粒物(PM10),51,52,23,23,9,10,,53,40,56,15,2,1,0.4,0.2
2025-01-10T2000,3674A,115.9577,39.7603,北京市,房山燕山,,21,20,26,14,15,65,,51,51,12,26,6,5,0.3,0.5
2025-01-10T2000,3675A,116.4672,39.7733,北京市,大兴旧宫,颗粒物(PM10),53,55,21,28,9,2,,46,32,65,31,1,2,0.5,0.4
2025-01-10T2000,3694A,115.986,40.4563,北京市,延庆石河营,,18,11,22,6,14,57,,54,53,11,18,3,2,0.2,0.3
2025-01-10T2000,3695A,116.6151,40.3053,北京市,怀柔新城,,26,26,13,15,8,42,,56,51,15,10,1,2,0.3,0.2
2025-01-10T2000,3696A,116.2545,39.8768,北京市,丰台小屯,颗粒物(PM10),53,56,28,25,12,2,,43,28,83,44,4,4,0.6,0.4
2025-01-10T2000,3697A,116.84,40.3844,北京市,密云镇,颗粒物(PM10),55,59,15,33,7,1,,62,46,62,15,3,3,0.6,0.2
2025-01-10T2000,4182A,116.1942,39.91583,北京市,八角,,40,40,27,20,13,43,,40,38,22,33,2,1,0.4,0.4
2025-01-10T2000,1761A,123.8275,41.3064,本溪市,大峪,细颗粒物(PM2.5),95,111,83,71,51,16,,40,36,60,48,6,6,1.8,1.8
2025-01-10T2000,1762A,123.7567,41.3325,本溪市,溪湖,细颗粒物(PM2.5),132,199,117,100,53,8,,38,34,68,42,14,12,1.6,1.4
2025-01-10T2000,1763A,123.7169,41.3094,本溪市,彩屯,细颗粒物(PM2.5),134,141,101,102,75,7,,29,26,73,51,8,10,1.8,2
2025-01-10T2000,1764A,123.7669,41.2864,本溪市,东明,细颗粒物(PM2.5),114,113,88,86,56,8,,33,29,78,54,21,14,1.4,1.5
2025-01-10T2000,1765A,123.7992,41.2664,本溪市,新立屯,细颗粒物(PM2.5),85,97,84,63,45,15,,48,42,70,53,3,5,1.3,2.6
2025-01-10T2000,1766A,123.8142,41.3472,本溪市,威宁,细颗粒物(PM2.5),129,139,89,98,51,14,,45,38,68,41,6,4,1.7,1.2
2025-01-10T2000,2587A,105.2864,27.3125,毕节市,八中,,40,39,26,28,18,39,,56,50,15,12,8,8,0.6,0.5
2025-01-10T2000,2588A,105.31,27.2944,毕节市,师专,,43,32,22,30,20,35,,53,48,17,15,8,10,0.7,0.6
2025-01-10T2000,3537A,105.3631,27.3533,毕节市,长征村,,33,26,20,23,17,39,,58,53,9,8,8,10,0.5,0.4
2025-01-10T2000,1629A,118.0018,37.3617,滨州市,第二水厂,颗粒物(PM10),73,95,49,44,22,20,,54,48,57,40,25,13,0.8,0.4
2025-01-10T2000,1630A,117.9776,37.393,滨州市,北中新校,细颗粒物(PM2.5),67,80,55,48,28,6,,55,46,70,44,12,19,0.7,0.6
2025-01-10T2000,3514A,117.9378,37.3956,滨州市,中海酒店,细颗粒物(PM2.5),83,83,50,61,33,11,,53,45,63,39,17,16,0.9,0.7
2025-01-10T2000,3515A,117.9378,37.3553,滨州市,开发区一中,颗粒物(PM10),64,78,56,36,26,29,,56,52,52,48,12,12,0.5,0.4
2025-01-10T2000,3516A,118.0917,37.694,滨州市,金海六路,颗粒物(PM10),64,78,58,41,32,8,,53,46,80,55,15,15,1.0,0.6
2025-01-10T2000,4028A,117.9956,37.3753,滨州市,滨州市西街道办事处,细颗粒物(PM2.5),73,85,44,53,28,16,,52,46,52,34,12,11,0.9,0.6
2025-01-10T2000,2311A,115.8072,33.8399,亳州市,污水处理厂,细颗粒物(PM2.5),92,105,64,68,40,30,,66,61,42,31,16,6,0.8,0.4
2025-01-10T2000,2312A,115.7789,33.8518,亳州市,三国揽胜宫,颗粒物(PM10),62,73,61,42,37,30,,74,69,53,31,7,7,0.8,0.5
2025-01-10T2000,3332A,115.7633,33.8034,亳州市,亳州学院,颗粒物(PM10),60,70,54,38,27,30,,70,66,47,27,6,5,0.6,0.4
2025-01-10T2000,2693A,82.0485,44.8556,博尔塔拉蒙古自治州,市党校,,35,35,33,18,23,45,,66,58,23,19,6,6,0.9,0.7
2025-01-10T2000,2694A,82.0806,44.8969,博尔塔拉蒙古自治州,市环保局,,34,34,49,22,24,49,,52,44,30,18,7,7,0.9,1
2025-01-10T2000,1071A,116.8842,38.2991,沧州市,沧县城建局,颗粒物(PM10),72,94,58,51,32,9,,43,40,75,46,6,8,0.7,0.4
2025-01-10T2000,1072A,116.8584,38.3254,沧州市,电视转播站,"颗粒物(PM10),细颗粒物(PM2.5)",55,59,48,39,26,4,,49,44,81,46,2,8,0.8,0.5
2025-01-10T2000,1073A,116.8709,38.3228,沧州市,市环保局,细颗粒物(PM2.5),69,54,45,50,30,18,,49,47,65,39,6,6,0.5,0.3
2025-01-10T2000,3324A,116.8136,38.3004,沧州市,河北水利电力学院,细颗粒物(PM2.5),77,80,52,56,35,5,,44,40,72,42,9,9,0.7,0.4
2025-01-10T2000,2622A,97.1806,31.1273,昌都市,昌都监测站,,28,18,28,15,14,87,,86,86,7,18,6,6,0.4,0.6
2025-01-10T2000,3719A,97.1714,31.1406,昌都市,昌都会议中心,,,,10,,9,,,89,89,1,5,4,5,0.3,0.6
2025-01-10T2000,2690A,88.1236,43.8886,昌吉回族自治州,天山天池,,,,5,,4,45,,85,64,2,2,5,4,0.4,0.6
2025-01-10T2000,2692A,87.2717,44.0297,昌吉回族自治州,新区政务中心,细颗粒物(PM2.5),80,96,60,59,39,18,,21,21,35,45,1,2,1.1,1.1
2025-01-10T2000,3613A,87.3095,44.0142,昌吉回族自治州,亚心广场,细颗粒物(PM2.5),98,90,58,73,44,15,,31,27,48,48,5,7,1.2,1.1
2025-01-10T2000,1119A,125.3325,43.9166,长春市,食品厂,细颗粒物(PM2.5),152,129,71,116,62,12,,35,31,63,44,16,15,1.2,0.8
2025-01-10T2000,1120A,125.2863,43.9027,长春市,客车厂,细颗粒物(PM2.5),137,115,70,104,68,21,,41,38,61,44,14,14,0.9,0.7
2025-01-10T2000,1121A,125.2841,43.8463,长春市,邮电学院,细颗粒物(PM2.5),98,87,73,73,61,25,,46,44,53,45,13,22,0.7,0.7
2025-01-10T2000,1122A,125.3716,43.8772,长春市,劳动公园,细颗粒物(PM2.5),105,102,66,79,54,30,,46,44,57,49,18,25,0.4,0.4
2025-01-10T2000,1123A,125.3297,43.8805,长春市,园林处,细颗粒物(PM2.5),103,87,63,77,54,29,,39,39,46,42,13,16,0.8,0.7
2025-01-10T2000,1124A,125.4605,43.79,长春市,净月潭,细颗粒物(PM2.5),80,69,58,59,47,19,,48,44,55,36,7,8,0.8,0.6
2025-01-10T2000,1125A,125.7194,43.515,长春市,甩湾子,,,,,,,,,,,,,,,,
2025-01-10T2000,1126A,125.3863,43.8447,长春市,经开区环卫处,细颗粒物(PM2.5),97,99,64,72,50,18,,40,38,62,48,16,15,0.8,0.7
2025-01-10T2000,1127A,125.245,43.7783,长春市,高新区管委会,细颗粒物(PM2.5),104,,55,78,49,10,,50,43,67,44,6,10,0.8,0.7
2025-01-10T2000,1128A,125.1761,43.8325,长春市,岱山公园,细颗粒物(PM2.5),104,,62,78,58,11,,51,42,74,40,8,9,0.9,0.7
2025-01-10T2000,1335A,113.0833,28.2325,长沙市,经开区环保局,颗粒物(PM10),58,66,74,30,33,63,,73,73,32,35,6,4,0.4,0.5
2025-01-10T2000,1336A,112.8872,28.2189,长沙市,高开区环保局,颗粒物(PM10),58,66,71,26,34,72,,74,74,20,32,8,6,0.5,0.6
2025-01-10T2000,1337A,113.0792,28.2053,长沙市,马坡岭,颗粒物(PM10),62,74,70,33,38,76,,84,84,25,33,6,6,0.6,0.7
2025-01-10T2000,1338A,112.9394,28.19,长沙市,湖南师范大学,颗粒物(PM10),56,61,75,34,41,76,,77,77,20,35,6,10,0.5,0.7
2025-01-10T2000,1339A,113.0178,28.1322,长沙市,雨花区环保局,颗粒物(PM10),58,65,69,27,33,75,,76,76,22,34,8,7,0.5,0.6
2025-01-10T2000,1340A,112.9792,28.2597,长沙市,伍家岭,颗粒物(PM10),55,60,72,27,34,69,,73,73,24,36,6,5,0.3,0.4
2025-01-10T2000,1341A,113.0014,28.1944,长沙市,火车新站,颗粒物(PM10),56,61,70,34,42,74,,77,77,27,35,5,5,0.4,0.5
2025-01-10T2000,1342A,112.9844,28.1178,长沙市,天心区环保局,,,36,74,30,40,74,,75,75,,35,5,3,0.5,0.6
2025-01-10T2000,1343A,112.8908,28.1308,长沙市,湖南中医药大学,细颗粒物(PM2.5),62,65,72,44,41,70,,75,75,30,35,9,7,0.6,0.6
2025-01-10T2000,1344A,112.9581,28.3611,长沙市,沙坪,,43,41,50,30,39,66,,76,76,19,22,9,8,0.6,0.7
2025-01-10T2000,1727A,113.1147,36.1547,长治市,清华站,颗粒物(PM10),51,51,48,27,31,27,,55,55,45,29,17,20,0.9,0.9
2025-01-10T2000,1728A,113.1031,36.1989,长治市,监测站,颗粒物(PM10),57,63,52,29,34,35,,58,57,37,29,15,18,0.7,1.1
2025-01-10T2000,1730A,113.0886,36.2125,长治市,审计局,,46,46,52,31,35,26,,57,56,41,28,16,20,0.8,0.9
2025-01-10T2000,1731A,113.0844,36.1856,长治市,长治八中,颗粒物(PM10),57,63,72,33,41,39,,55,55,26,27,13,18,0.8,0.9
2025-01-10T2000,2845A,113.1569,36.1911,长治市,德盛苑,,42,42,53,27,31,42,,61,61,30,23,11,14,1.0,1.1
2025-01-10T2000,3568A,113.06,36.0464,长治市,向阳小学,颗粒物(PM10),58,65,70,38,38,43,,60,60,29,24,17,32,0.7,0.7
2025-01-10T2000,3569A,112.8792,36.3144,长治市,屯留一中,颗粒物(PM10),51,52,52,30,31,31,,58,56,53,46,15,20,1.1,1.2
2025-01-10T2000,3570A,113.235,36.3489,长治市,潞城四中,,,,,,,,,,,,,,,,
2025-01-10T2000,1854A,111.6975,28.9703,常德市,市二中,细颗粒物(PM2.5),90,93,85,67,68,68,,85,85,22,22,7,5,0.8,0.8
2025-01-10T2000,1857A,111.7158,29.1456,常德市,白鹤山,,,,,,,,,,,,,,,,
2025-01-10T2000,3138A,111.7153,29.0289,常德市,武陵区永安,细颗粒物(PM2.5),77,84,76,56,51,78,,86,86,16,17,5,6,0.6,0.7
2025-01-10T2000,3139A,111.6892,28.9881,常德市,鼎城区玉霞,细颗粒物(PM2.5),75,92,96,55,65,78,,85,85,12,19,7,6,0.7,0.8
2025-01-10T2000,3140A,111.6625,29.0531,常德市,武陵区长庚,细颗粒物(PM2.5),70,83,98,51,65,78,,84,84,16,22,4,4,0.6,0.7
2025-01-10T2000,1196A,119.9633,31.762,常州市,市监测站,颗粒物(PM10),59,68,44,35,24,23,,59,51,61,27,10,10,0.5,0.3
2025-01-10T2000,1200A,119.9468,31.7069,常州市,武进监测站,细颗粒物(PM2.5),55,55,40,39,23,20,,59,50,64,29,12,13,0.6,0.5
2025-01-10T2000,1201A,119.9255,31.9087,常州市,安家,颗粒物(PM10),60,69,45,39,22,12,,60,47,82,45,10,10,0.6,0.5
2025-01-10T2000,3002A,119.9805,31.8174,常州市,行政中心,,,,37,,21,21,,57,47,,29,,6,0.6,0.5
2025-01-10T2000,3003A,120.0522,31.7748,常州市,经开区,"颗粒物(PM10),细颗粒物(PM2.5)",55,59,41,39,19,7,,65,49,86,40,10,11,0.5,0.4
2025-01-10T2000,3010A,119.9025,31.7964,常州市,钟楼,颗粒物(PM10),56,62,46,36,22,27,,54,48,57,34,11,10,0.5,0.4
2025-01-10T2000,3429A,119.8598,31.7066,常州市,武进经发区,细颗粒物(PM2.5),70,83,55,51,26,7,,63,55,86,41,10,8,0.6,0.5
2025-01-10T2000,3430A,119.5826,31.7245,常州市,金坛城区,颗粒物(PM10),61,71,51,43,29,36,,67,62,46,23,9,8,0.7,0.6
2025-01-10T2000,2220A,120.4318,41.5881,朝阳市,西梁,颗粒物(PM10),135,219,66,102,38,11,,53,45,76,51,26,17,,1.3
2025-01-10T2000,2221A,120.4521,41.5646,朝阳市,河畔小区,细颗粒物(PM2.5),69,,49,50,24,21,,71,66,51,29,9,7,1.0,0.9
2025-01-10T2000,2222A,120.4176,41.5648,朝阳市,八里堡,细颗粒物(PM2.5),193,149,59,145,35,21,,60,47,72,36,21,11,2.3,0.9
2025-01-10T2000,2223A,120.3806,41.5969,朝阳市,农业园区,细颗粒物(PM2.5),60,50,45,43,32,23,,55,48,48,34,12,11,1.0,0.9
2025-01-10T2000,1705A,116.6367,23.6719,潮州市,西园路,颗粒物(PM10),65,79,66,42,39,106,,107,107,19,19,6,7,0.3,0.2
2025-01-10T2000,3026A,116.6183,23.6608,潮州市,市政府,颗粒物(PM10),57,63,60,32,30,97,,98,98,19,18,5,6,0.4,0.3
2025-01-10T2000,4036A,116.6461,23.6761,潮州市,金山,颗粒物(PM10),53,55,58,36,35,98,,100,100,20,18,7,8,0.4,0.5
2025-01-10T2000,2472A,113.0073,25.9061,郴州市,马头岭,颗粒物(PM10),61,72,62,41,35,87,,94,94,19,20,10,9,0.6,0.6
2025-01-10T2000,2473A,113.0116,25.8226,郴州市,市职中,细颗粒物(PM2.5),78,80,50,57,40,45,,84,83,43,19,6,5,0.7,0.6
2025-01-10T2000,2474A,113.0161,25.8001,郴州市,兴隆步行街,细颗粒物(PM2.5),67,72,58,48,45,74,,86,86,27,20,6,6,0.6,0.6
2025-01-10T2000,2475A,113.0383,25.8071,郴州市,市审计局,细颗粒物(PM2.5),65,64,52,47,38,69,,85,85,25,15,6,5,0.6,0.5
2025-01-10T2000,2476A,113.0348,25.7759,郴州市,市环保局,细颗粒物(PM2.5),74,70,51,54,45,69,,82,82,22,15,8,8,0.6,0.5
2025-01-10T2000,1431A,103.9728,30.7236,成都市,金泉两河,细颗粒物(PM2.5),57,45,53,40,37,18,,38,28,40,31,2,2,0.8,0.7
2025-01-10T2000,1432A,104.176,30.6872,成都市,十里店,细颗粒物(PM2.5),53,42,53,37,44,32,,32,31,27,33,2,2,0.5,0.4
2025-01-10T2000,1433A,104.079,30.5706,成都市,三瓦窑,,,47,54,42,43,,,26,24,26,33,3,3,0.6,0.5
2025-01-10T2000,1434A,104.1114,30.63,成都市,沙河铺,细颗粒物(PM2.5),68,,55,49,40,22,,30,26,26,29,1,2,0.6,0.5
2025-01-10T2000,1437A,104.0786,30.6531,成都市,君平街,细颗粒物(PM2.5),63,,51,45,41,32,,40,23,25,30,4,4,0.8,0.7
2025-01-10T2000,1438A,103.613,31.0283,成都市,灵岩寺,,,,,,,,,,,,,,,,
2025-01-10T2000,2880A,104.0239,30.65639,成都市,大石西路,,42,42,52,22,39,34,,38,23,21,28,3,3,0.7,0.6
2025-01-10T2000,3136A,104.2725,30.5589,成都市,龙泉驿区区政府,,49,39,40,34,37,37,,45,44,15,16,3,2,0.5,0.5
2025-01-10T2000,3357A,104.0106,30.6931,成都市,金博路,细颗粒物(PM2.5),53,42,50,37,37,29,,33,22,21,26,2,2,0.7,0.7
2025-01-10T2000,3359A,104.0578,30.5225,成都市,华阳,细颗粒物(PM2.5),62,46,52,44,44,14,,38,20,34,29,3,3,0.8,0.7
2025-01-10T2000,3487A,104.2394,30.5319,成都市,车城东七路,,50,42,46,35,37,32,,49,39,16,16,1,1,0.5,0.5
2025-01-10T2000,3488A,104.3853,30.7453,成都市,青白江技师分院,细颗粒物(PM2.5),64,,44,46,41,31,,46,45,23,23,2,2,0.6,0.6
2025-01-10T2000,3489A,104.0789,30.4072,成都市,科学城,细颗粒物(PM2.5),64,52,52,46,46,22,,36,34,25,20,4,4,0.7,0.5
2025-01-10T2000,4011A,103.8506,30.6947,成都市,光华大道三段,细颗粒物(PM2.5),58,46,50,41,36,26,,45,34,30,24,3,2,0.7,0.6
2025-01-10T2000,1062A,117.9531,40.9081,承德市,铁路,,25,25,23,3,10,70,,70,70,9,14,4,4,0.2,0.3
2025-01-10T2000,1063A,117.9392,40.9763,承德市,中国银行,,46,46,33,22,11,33,,60,58,27,16,1,2,0.5,0.4
2025-01-10T2000,1064A,117.9503,40.928,承德市,开发区,,25,25,32,15,19,73,,75,75,12,19,2,2,0.2,0.3
2025-01-10T2000,1065A,117.8051,40.9655,承德市,文化中心,,25,25,33,14,12,58,,69,68,16,19,3,2,0.3,0.4
2025-01-10T2000,1066A,117.9268,41.0026,承德市,离宫,,43,38,25,30,20,51,,61,61,15,11,4,4,0.3,0.3
2025-01-10T2000,2314A,117.47,30.6618,池州市,池州学院,细颗粒物(PM2.5),69,83,49,50,30,40,,66,63,41,28,19,9,0.4,0.5
2025-01-10T2000,3237A,117.4918,30.6617,池州市,展览馆,细颗粒物(PM2.5),60,65,65,43,43,40,,,,38,38,8,8,0.6,0.6
2025-01-10T2000,3333A,117.5627,30.695,池州市,第八中学,细颗粒物(PM2.5),68,72,50,49,28,37,,65,62,40,28,6,6,0.4,0.5
2025-01-10T2000,3334A,117.5038,30.6243,池州市,第十二中学,细颗粒物(PM2.5),58,63,45,41,28,28,,68,62,54,33,6,4,0.4,0.5
2025-01-10T2000,1744A,118.9233,42.2816,赤峰市,松山一中,,19,19,25,13,14,49,,61,61,28,30,10,16,0.6,0.9
2025-01-10T2000,1745A,118.9576,42.2728,赤峰市,哈达街,,23,19,20,11,14,40,,60,60,46,29,10,7,0.9,0.8
2025-01-10T2000,1746A,118.8788,42.2554,赤峰市,天义路,,27,22,21,13,12,24,,57,54,54,24,10,12,0.6,0.5
2025-01-10T2000,3058A,119.2658,42.0353,赤峰市,银河街,,50,50,34,12,20,37,,49,47,29,24,19,21,0.8,0.9
2025-01-10T2000,3286A,118.9359,42.3147,赤峰市,桥北物流园区,,20,,15,14,13,30,,59,57,40,29,16,11,0.7,0.7
2025-01-10T2000,2521A,107.3476,22.4136,崇左市,市环保局江州分局,,38,38,30,15,18,84,,92,92,18,5,6,5,0.6,0.5
2025-01-10T2000,2522A,107.3702,22.3707,崇左市,城南新区,,39,39,27,18,11,92,,94,94,17,13,6,5,0.6,0.6
2025-01-10T2000,2298A,118.3093,32.3153,滁州市,老年大学,,43,43,44,30,26,38,,69,65,39,29,3,3,0.5,0.4
2025-01-10T2000,2299A,118.3244,32.2786,滁州市,人大宾馆,细颗粒物(PM2.5),55,41,48,39,30,30,,68,63,44,19,8,9,0.7,0.5
2025-01-10T2000,3207A,118.3118,32.3038,滁州市,市政府原办公楼,颗粒物(PM10),51,51,44,29,29,39,,66,60,43,31,5,6,0.4,0.1
2025-01-10T2000,3331A,118.3267,32.2634,滁州市,图书馆,,48,48,48,29,25,24,,68,64,53,24,5,8,0.4,0.2
2025-01-10T2000,2605A,101.5482,25.0441,楚雄彝族自治州,州环境监测站,,36,33,31,25,28,71,,77,77,8,21,6,6,0.6,0.6
2025-01-10T2000,2606A,101.538,25.0492,楚雄彝族自治州,市经济开发区,,42,42,36,29,28,66,,72,72,12,22,5,6,0.7,0.7
2025-01-10T2000,2548A,107.5277,31.2827,达州市,达州职业技术学院,细颗粒物(PM2.5),87,85,70,64,55,15,,42,41,45,23,6,6,0.7,0.7
2025-01-10T2000,2549A,107.5086,31.2186,达州市,市环境监测站,细颗粒物(PM2.5),70,83,67,51,46,10,,31,31,61,34,6,6,1.0,0.8
2025-01-10T2000,2550A,107.4988,31.2132,达州市,凤凰小区,细颗粒物(PM2.5),85,102,64,63,50,8,,36,36,68,33,8,7,1.0,0.7
2025-01-10T2000,2551A,107.5082,31.1986,达州市,达县机关宾馆,细颗粒物(PM2.5),89,92,66,66,50,4,,32,31,57,34,6,5,1.0,0.8
2025-01-10T2000,2552A,107.4644,31.2124,达州市,市政中心,细颗粒物(PM2.5),92,114,77,68,46,4,,33,32,71,40,4,3,1.2,0.8
2025-01-10T2000,2614A,100.1542,25.7054,大理白族自治州,大理市环境监测站,,33,,18,23,18,83,,87,87,8,9,7,7,0.5,0.5
2025-01-10T2000,2615A,100.2171,25.5811,大理白族自治州,大理古城,,30,25,19,21,14,79,,87,87,10,11,5,5,0.7,0.7
2025-01-10T2000,1109A,121.612,38.9741,大连市,甘井子,,34,34,36,16,14,59,,74,72,27,27,6,8,0.6,0.6
2025-01-10T2000,1110A,121.565,38.9511,大连市,周水子,,31,31,41,14,18,54,,67,64,27,35,13,13,0.5,0.7
2025-01-10T2000,1111A,121.5637,38.8845,大连市,星海三站,,25,25,40,13,18,58,,67,65,17,22,10,11,0.5,0.5
2025-01-10T2000,1112A,121.6302,38.9117,大连市,青泥洼桥,,37,37,29,14,12,51,,60,59,21,18,12,11,0.6,0.6
2025-01-10T2000,1113A,121.6251,38.8638,大连市,傅家庄,,24,24,25,10,11,57,,67,66,13,13,9,10,0.6,0.6
2025-01-10T2000,1114A,121.5213,38.8661,大连市,七贤岭,,29,29,38,16,13,65,,71,70,16,17,9,9,0.7,0.7
2025-01-10T2000,1115A,121.2529,38.8061,大连市,旅顺,,33,33,23,16,10,64,,73,72,15,12,11,11,0.6,0.5
2025-01-10T2000,1116A,121.7485,39.1311,大连市,金州,,24,24,29,11,14,61,,70,68,17,14,11,8,0.5,0.6
2025-01-10T2000,1117A,121.7811,39.0496,大连市,开发区,,23,19,22,6,12,71,,66,64,13,23,9,11,0.1,0.2
2025-01-10T2000,1118A,121.9762,39.0631,大连市,双D港,,,28,25,25,13,67,,76,75,16,9,,10,0.8,0.7
2025-01-10T2000,1789A,124.81117,46.03138,大庆市,大同区,细颗粒物(PM2.5),100,87,52,75,46,30,,51,42,40,23,9,5,0.8,0.5
2025-01-10T2000,1790A,125.129,46.533,大庆市,龙凤区,颗粒物(PM10),54,58,41,37,27,37,,48,40,43,40,6,6,0.7,0.7
2025-01-10T2000,1791A,124.902,46.408,大庆市,红岗区,颗粒物(PM10),51,52,31,25,22,32,,43,40,37,24,7,8,0.8,0.5
2025-01-10T2000,1792A,125.153,46.586,大庆市,萨尔图区,细颗粒物(PM2.5),83,83,31,61,23,20,,40,33,72,60,7,6,0.8,0.5
2025-01-10T2000,1793A,124.9042,46.6215,大庆市,让胡路区,细颗粒物(PM2.5),72,63,33,52,31,31,,56,49,50,26,6,7,0.7,0.5
2025-01-10T2000,3481A,125.141,46.634,大庆市,萨区政府监测点,,49,49,30,31,16,10,,50,40,73,39,9,6,0.9,0.5
2025-01-10T2000,1721A,113.3819,40.1097,大同市,果树场,,39,32,60,27,36,38,,49,46,36,40,14,17,0.8,1.1
2025-01-10T2000,1723A,113.2994,40.0758,大同市,云冈宾馆,,37,37,53,9,25,47,,46,46,28,36,13,38,0.5,1.3
2025-01-10T2000,1724A,113.3444,40.0917,大同市,大同大学,,24,24,46,11,24,48,,47,47,20,29,14,41,0.5,0.9
2025-01-10T2000,1725A,113.2661,40.1269,大同市,安家小村,,24,24,85,9,29,55,,54,54,17,32,15,34,0.5,2.1
2025-01-10T2000,1726A,113.2711,40.0844,大同市,教育学院,,42,42,84,13,36,36,,38,38,40,48,14,33,0.6,1.9
2025-01-10T2000,3282A,113.3397,40.0597,大同市,大同市卫生学校,,33,33,54,16,26,43,,40,40,33,40,8,38,0.5,1.1
2025-01-10T2000,3565A,113.1367,40.1122,大同市,云冈站,颗粒物(PM10),52,53,75,14,29,25,,52,49,44,37,14,33,0.3,0.8
2025-01-10T2000,3566A,113.1186,40.2556,大同市,图书馆,,40,40,47,14,28,47,,62,62,12,18,9,24,0.4,1
2025-01-10T2000,3567A,113.5931,40.0461,大同市,区一中,颗粒物(PM10),99,147,79,43,31,12,,38,33,60,37,49,39,1.4,1.1
2025-01-10T2000,3676A,113.2802,40.0995,大同市,第二人民医院,,33,33,76,12,32,37,,46,46,41,43,15,33,0.7,1.7
2025-01-10T2000,2269A,124.1069,50.4097,大兴安岭地区,科技局,,42,42,20,28,17,58,,73,62,10,5,7,10,0.4,0.3
2025-01-10T2000,3663A,124.1164,50.4278,大兴安岭地区,红旗社区,细颗粒物(PM2.5),98,114,26,73,19,6,,64,43,55,14,22,4,0.9,0.4
2025-01-10T2000,1600A,124.3303,40.0625,丹东市,江湾东路,细颗粒物(PM2.5),70,53,34,51,25,37,,63,59,37,19,10,9,1.5,0.7
2025-01-10T2000,1601A,124.4256,40.1503,丹东市,临江后街,细颗粒物(PM2.5),63,57,36,45,24,48,,67,62,30,19,7,8,1.2,0.7
2025-01-10T2000,1602A,124.3933,40.1461,丹东市,元宝山,,50,50,31,34,20,27,,56,53,34,16,8,8,1.7,0.9
2025-01-10T2000,1603A,124.3633,40.1092,丹东市,民主桥,细颗粒物(PM2.5),54,49,34,38,19,30,,59,52,43,23,12,9,1.7,0.7
2025-01-10T2000,3541A,109.5726,19.5167,儋州市,第一中学子站,颗粒物(PM10),57,64,85,37,52,110,,110,104,14,16,6,7,0.6,0.7
2025-01-10T2000,3542A,109.5567,19.5187,儋州市,东坡学校子站,颗粒物(PM10),64,77,86,39,54,118,,123,112,13,15,7,8,0.7,0.8
2025-01-10T2000,2616A,98.5842,24.428,德宏傣族景颇族自治州,德宏州监测站,颗粒物(PM10),57,64,53,37,33,43,,80,80,27,23,7,9,0.9,0.7
2025-01-10T2000,3677A,98.5881,24.4368,德宏傣族景颇族自治州,芒市人民政府综合楼,颗粒物(PM10),52,53,46,26,31,54,,76,76,18,18,7,7,0.7,0.6
2025-01-10T2000,1901A,104.4239,31.1208,德阳市,东山公园,细颗粒物(PM2.5),60,,48,43,45,47,,48,48,13,16,1,1,0.6,0.5
2025-01-10T2000,1902A,104.3826,31.1317,德阳市,西小区,细颗粒物(PM2.5),65,54,63,47,49,37,,42,42,20,27,3,3,0.7,0.6
2025-01-10T2000,1904A,104.3553,31.1091,德阳市,耐火材料厂,细颗粒物(PM2.5),60,,52,43,50,34,,41,41,22,27,3,4,0.7,0.7
2025-01-10T2000,3639A,104.4019,31.1244,德阳市,市教育局,细颗粒物(PM2.5),70,,51,51,47,39,,43,43,20,28,3,3,0.8,0.7
2025-01-10T2000,1622A,116.3032,37.4674,德州市,儿童乐园,颗粒物(PM10),65,80,58,41,28,26,,56,51,54,32,9,10,1.0,0.8
2025-01-10T2000,1624A,116.2991,37.4451,德州市,监理站,颗粒物(PM10),51,51,56,27,30,32,,61,57,52,43,10,13,0.9,0.7
2025-01-10T2000,3066A,116.2721,37.4379,德州市,九衢泉纯净水厂,颗粒物(PM10),64,78,69,41,39,22,,59,54,58,46,16,15,1.0,0.8
2025-01-10T2000,3371A,116.3728,37.4403,德州市,开发区人民医院,颗粒物(PM10),59,68,57,36,27,24,,60,54,59,36,13,13,1.0,0.7
2025-01-10T2000,3372A,116.3572,37.4094,德州市,太阳城中学,颗粒物(PM10),54,58,69,31,37,36,,61,58,49,48,12,13,0.9,0.7
2025-01-10T2000,3511A,116.5652,37.3319,德州市,陵城艺术中心,细颗粒物(PM2.5),89,122,61,66,29,8,,53,44,70,34,21,13,1.3,0.8
2025-01-10T2000,2621A,99.7056,27.8317,迪庆藏族自治州,迪庆州站,,33,33,26,21,18,86,,90,88,9,11,8,9,0.5,0.5
2025-01-10T2000,3180A,99.7136,27.8094,迪庆藏族自治州,质量技术监督局,,24,16,19,12,14,76,,80,79,9,10,7,7,0.6,0.5
2025-01-10T2000,2663A,104.6241,35.5734,定西市,东关小学,细颗粒物(PM2.5),62,69,77,44,36,54,,64,64,20,15,16,10,0.5,0.5
2025-01-10T2000,2664A,104.6194,35.5934,定西市,供电公司,颗粒物(PM10),65,80,67,41,31,41,,72,70,41,26,10,8,0.9,0.8
2025-01-10T2000,1389A,113.7547,23.0494,东莞市,莞城梨川,,45,45,44,22,21,67,,93,90,37,21,6,7,0.6,0.6
2025-01-10T2000,1390A,113.7944,23.0128,东莞市,东城石井,,39,39,41,17,19,71,,89,88,28,19,7,7,0.5,0.5
2025-01-10T2000,1391A,113.7383,22.9658,东莞市,南城西平,,32,32,41,13,20,54,,93,89,54,30,4,5,0.4,0.4
2025-01-10T2000,3319A,113.7338,23.0381,东莞市,万江金泰,,50,50,42,21,20,62,,89,87,34,18,12,11,0.6,0.6
2025-01-10T2000,3626A,113.7533,23.0202,东莞市,南城元岭,,41,41,40,19,21,69,,96,94,34,17,8,8,0.6,0.6
2025-01-10T2000,3627A,113.7875,23.0457,东莞市,东城主山,,38,38,38,17,19,70,,84,83,22,16,8,10,0.6,0.6
2025-01-10T2000,1666A,118.6614,37.4309,东营市,市环保局,,32,29,40,22,24,43,,51,49,35,42,6,16,0.5,0.6
2025-01-10T2000,3036A,118.6904,37.4338,东营市,开发区管委会,,38,38,46,22,25,47,,54,53,39,47,4,13,0.6,0.7
2025-01-10T2000,3365A,118.5719,37.565,东营市,垦利区民丰路,,41,41,39,22,22,19,,49,45,58,41,12,16,0.5,0.5
2025-01-10T2000,3498A,118.5055,37.8612,东营市,河口城区,颗粒物(PM10),54,58,36,22,16,29,,66,62,55,37,4,6,0.8,0.6
2025-01-10T2000,3646A,118.4978,37.4623,东营市,胜利站,颗粒物(PM10),56,62,49,29,27,13,,45,40,69,43,10,14,0.7,0.8
2025-01-10T2000,3734A,118.35,37.26,东营市,理想之城,,46,46,56,24,29,11,,49,40,74,49,6,10,0.6,0.6
2025-01-10T2000,1591A,110.0023,39.8129,鄂尔多斯市,综合楼,,,68,47,14,13,,,73,73,17,29,6,12,0.5,0.7
2025-01-10T2000,1592A,109.9486,39.8261,鄂尔多斯市,巴音孟克林场办事处,颗粒物(PM10),59,68,41,19,16,65,,70,70,21,25,7,11,0.4,0.4
2025-01-10T2000,1593A,109.7736,39.5986,鄂尔多斯市,康泽苑,颗粒物(PM10),56,61,34,22,17,71,,72,72,11,17,6,7,0.5,0.5
2025-01-10T2000,1594A,109.8119,39.5989,鄂尔多斯市,华泰汽车城,颗粒物(PM10),63,75,35,22,16,70,,71,71,14,26,8,8,0.4,0.5
2025-01-10T2000,1595A,109.9734,39.7884,鄂尔多斯市,奥林花园,颗粒物(PM10),57,63,57,14,14,58,,66,66,25,35,10,10,0.6,0.6
2025-01-10T2000,2436A,114.8938,30.3994,鄂州市,市政府,细颗粒物(PM2.5),57,50,38,40,25,42,,65,65,52,29,10,9,0.5,0.4
2025-01-10T2000,2437A,114.8989,30.3714,鄂州市,赵家坝,细颗粒物(PM2.5),54,39,40,38,24,56,,73,73,34,23,8,9,0.5,0.5
2025-01-10T2000,3654A,114.8094,30.4089,鄂州市,精准医疗中心,细颗粒物(PM2.5),80,59,50,59,31,50,,82,79,42,27,19,14,0.6,0.6
2025-01-10T2000,2454A,109.4978,30.2981,恩施土家族苗族自治州,湖北民院,,,,57,69,60,17,,69,64,36,11,8,8,0.9,0.7
2025-01-10T2000,2455A,109.4707,30.2798,恩施土家族苗族自治州,州电力总公司,细颗粒物(PM2.5),80,76,64,59,53,37,,66,64,40,25,8,8,0.9,0.7
2025-01-10T2000,3549A,109.5061,30.3772,恩施土家族苗族自治州,龙凤新区,细颗粒物(PM2.5),70,66,63,51,49,29,,62,59,37,16,6,6,0.9,0.7
2025-01-10T2000,2499A,108.3411,21.6158,防城港市,沙万,,46,44,40,32,25,100,,101,101,20,15,7,6,0.5,0.5
2025-01-10T2000,2500A,108.3514,21.7731,防城港市,防城档案局,颗粒物(PM10),57,64,66,33,26,98,,98,98,22,21,6,6,0.5,0.5
2025-01-10T2000,2501A,108.3506,21.6414,防城港市,大海花园,,41,41,44,26,26,104,,103,103,15,12,6,5,0.6,0.6
2025-01-10T2000,1371A,113.1294,23.0067,佛山市,湾梁,,46,46,54,20,19,76,,82,82,34,31,9,9,0.4,0.4
2025-01-10T2000,1372A,113.1083,23.0478,佛山市,华材职中,颗粒物(PM10),52,53,67,26,32,70,,88,87,44,31,10,10,0.7,0.7
2025-01-10T2000,1373A,113.144,23.0453,佛山市,南海气象局,,34,34,47,22,27,69,,79,79,32,24,9,9,0.6,0.5
2025-01-10T2000,1374A,113.2881,22.8094,佛山市,顺德苏岗,,32,22,48,22,22,65,,73,73,30,24,9,8,0.4,0.5
2025-01-10T2000,1376A,112.8383,22.8678,佛山市,高明孔堂,,45,45,62,25,34,82,,94,94,24,19,9,10,0.4,0.5
2025-01-10T2000,1377A,112.8836,23.1588,佛山市,三水监测站,,39,39,63,25,41,79,,91,91,34,26,9,12,0.4,0.5
2025-01-10T2000,1378A,112.867,23.185,佛山市,三水云东海,,50,50,53,16,31,63,,92,88,36,24,9,11,0.5,0.6
2025-01-10T2000,3625A,113.2544,22.7642,佛山市,容桂街道办,,36,36,52,24,25,73,,79,79,31,27,8,8,0.5,0.5
2025-01-10T2000,1280A,119.3903,26.0543,福州市,鼓山,,,,33,,23,,,74,,,11,,3,,0.5
2025-01-10T2000,1282A,119.2681,26.0504,福州市,师大,,28,28,44,11,35,83,,87,87,21,21,3,6,0.4,0.5
2025-01-10T2000,1283A,119.2984,26.1028,福州市,五四北路,,27,27,40,8,32,83,,87,87,17,21,1,3,0.2,0.4
2025-01-10T2000,1284A,119.2648,26.0768,福州市,杨桥西路,,28,28,45,9,33,86,,89,89,16,17,1,4,0.4,0.5
2025-01-10T2000,1285A,119.317,26.0746,福州市,紫阳,,28,28,44,9,34,82,,82,82,20,24,4,6,0.3,0.5
2025-01-10T2000,3048A,119.5799,26.0936,福州市,九龙,,27,27,34,3,21,82,,86,86,10,13,1,2,0.3,0.4
2025-01-10T2000,3526A,119.5189,25.9664,福州市,吴航,,27,13,40,7,25,84,,86,86,11,16,2,3,0.2,0.5
2025-01-10T2000,1755A,123.7977,41.8491,抚顺市,望花区,细颗粒物(PM2.5),82,92,110,60,71,39,,39,39,34,43,2,5,0.8,1.1
2025-01-10T2000,1756A,123.9161,41.8822,抚顺市,顺城区,细颗粒物(PM2.5),120,110,90,91,61,17,,46,41,64,45,8,7,1.4,1.1
2025-01-10T2000,1757A,124.0436,41.8611,抚顺市,东洲区,细颗粒物(PM2.5),102,95,78,76,52,27,,56,45,41,20,6,5,1.2,0.9
2025-01-10T2000,1758A,123.9247,41.8642,抚顺市,新抚区,细颗粒物(PM2.5),77,81,102,56,65,15,,45,39,70,48,3,6,1.0,1
2025-01-10T2000,1759A,124.0972,41.8961,抚顺市,大伙房水库,细颗粒物(PM2.5),112,120,81,84,62,22,,56,44,54,32,9,9,1.1,0.8
2025-01-10T2000,1760A,123.7086,41.8391,抚顺市,沈抚新城,细颗粒物(PM2.5),82,67,91,60,68,26,,41,39,47,41,7,7,0.9,1.3
2025-01-10T2000,2376A,116.2127,28.0814,抚州市,桐源党溪,,42,42,51,20,22,54,,71,70,3,3,1,2,0.4,0.5
2025-01-10T2000,2377A,116.3544,27.9831,抚州市,市站,,48,48,46,27,21,82,,85,85,14,16,17,9,0.6,0.9
2025-01-10T2000,2378A,116.3565,27.963,抚州市,血防站,颗粒物(PM10),51,52,50,28,21,83,,86,86,11,13,6,5,0.5,0.5
2025-01-10T2000,2379A,116.3564,28.0007,抚州市,采茶剧团,,46,46,45,23,21,66,,67,67,11,11,5,6,0.9,0.9
2025-01-10T2000,2380A,116.385,27.9647,抚州市,医学分院,颗粒物(PM10),54,57,48,25,19,65,,69,69,11,12,16,8,0.2,0.3
2025-01-10T2000,2207A,121.6094,41.998,阜新市,工业园区,细颗粒物(PM2.5),133,126,56,101,24,17,,68,58,65,25,36,10,2.2,0.7
2025-01-10T2000,2208A,121.6697,42.0279,阜新市,长青街,,,,31,66,13,10,,67,59,,14,,6,1.0,0.5
2025-01-10T2000,2209A,121.6673,42.0705,阜新市,农业园区,,25,,22,17,6,46,,64,62,19,6,28,9,0.8,0.7
2025-01-10T2000,2210A,121.6717,42.0224,阜新市,东苑,细颗粒物(PM2.5),125,120,39,95,17,12,,57,48,47,17,49,12,1.3,0.5
2025-01-10T2000,2211A,121.6506,42.0498,阜新市,玉龙新城,细颗粒物(PM2.5),138,163,58,105,27,21,,69,53,54,27,14,6,1.6,0.7
2025-01-10T2000,2301A,115.8277,32.8929,阜阳市,市监测站,细颗粒物(PM2.5),78,72,53,57,40,20,,67,60,59,37,7,7,0.7,0.5
2025-01-10T2000,2303A,115.8554,32.8605,阜阳市,开发区,颗粒物(PM10),86,122,72,41,36,7,,66,56,75,32,8,9,0.9,0.5
2025-01-10T2000,2875A,115.784,32.8892,阜阳市,阜阳职业技术学院,颗粒物(PM10),60,69,59,36,37,6,,71,62,75,37,8,8,0.5,0.5
2025-01-10T2000,3468A,115.7901,32.8613,阜阳市,市规划展馆,,48,43,53,33,33,50,,74,72,35,29,7,7,0.4,0.3
2025-01-10T2000,3469A,115.836,32.9183,阜阳市,枣园社区,细颗粒物(PM2.5),58,53,62,41,38,33,,73,66,47,39,4,6,0.5,0.4
2025-01-10T2000,2669A,102.9099,34.9841,甘南藏族自治州,州政府,颗粒物(PM10),64,78,66,26,42,68,,76,76,10,15,6,8,0.3,0.4
2025-01-10T2000,3380A,102.8914,34.9617,甘南藏族自治州,甘肃民族师范学院,颗粒物(PM10),62,73,74,26,42,70,,80,80,20,22,3,6,0.3,0.6
2025-01-10T2000,2570A,101.9603,30.0475,甘孜藏族自治州,水桥子,,21,12,11,8,8,67,,77,77,9,13,2,2,0.4,0.6
2025-01-10T2000,3065A,101.9533,29.9972,甘孜藏族自治州,州环保局,,25,14,16,12,7,77,,79,79,11,11,4,4,0.6,0.5
2025-01-10T2000,3414A,115.8347,28.932,赣江新区,桑海产业园,,46,46,47,31,22,55,,62,62,23,26,8,8,0.4,0.5
2025-01-10T2000,2362A,114.9017,25.9149,赣州市,通天岩,,41,41,40,25,24,56,,83,81,8,5,1,3,0.6,0.6
2025-01-10T2000,2363A,114.9367,25.8664,赣州市,地委,,47,47,44,20,23,67,,72,72,17,14,2,2,1.0,1
2025-01-10T2000,2364A,114.9461,25.8481,赣州市,气象台,颗粒物(PM10),117,183,68,13,18,74,,82,82,23,20,9,11,0.6,0.6
2025-01-10T2000,2365A,114.9322,25.8333,赣州市,市图书馆,,39,39,40,18,19,72,,79,79,24,20,5,4,0.5,0.5
2025-01-10T2000,2366A,114.8905,25.8471,赣州市,华坚鞋城,,35,35,45,13,19,62,,61,34,8,10,7,7,0.3,0.3
2025-01-10T2000,3109A,115.0093,25.8613,赣州市,赣县区卫计委,,42,42,47,25,32,68,,73,73,16,13,8,5,0.3,0.3
2025-01-10T2000,2683A,106.2319,36.1417,固原市,马园,颗粒物(PM10),77,104,78,26,36,51,,69,68,28,35,7,8,0.9,1
2025-01-10T2000,2684A,106.2792,36.0022,固原市,监测站,颗粒物(PM10),55,59,53,16,23,73,,79,78,16,20,6,9,0.5,0.7
2025-01-10T2000,2685A,106.2375,36.0211,固原市,新区,颗粒物(PM10),56,61,52,15,19,72,,79,78,16,24,6,6,0.3,0.4
2025-01-10T2000,3522A,106.2177,35.9959,固原市,原州区十五小,颗粒物(PM10),68,85,49,29,19,72,,81,80,17,16,9,7,0.5,0.5
2025-01-10T2000,2543A,106.6308,30.5278,广安市,小平旧居,,,,,,,,,,,,,,,,
2025-01-10T2000,2544A,106.6303,30.4576,广安市,市委,细颗粒物(PM2.5),58,41,45,41,40,35,,45,45,22,21,2,2,0.8,0.7
2025-01-10T2000,2545A,106.6271,30.4663,广安市,友谊中学,细颗粒物(PM2.5),52,39,42,36,38,34,,44,44,21,20,2,2,0.7,0.7
2025-01-10T2000,2547A,106.6388,30.4551,广安市,广电花园,细颗粒物(PM2.5),52,36,43,36,36,34,,46,46,22,23,2,2,0.8,0.6
2025-01-10T2000,2902A,106.6351,30.4865,广安市,北辰小学,,46,39,41,32,38,36,,48,48,18,18,1,1,0.8,0.8
2025-01-10T2000,2523A,105.8945,32.4535,广元市,黑石坡,,41,41,46,6,42,53,,67,67,15,15,4,5,0.3,0.5
2025-01-10T2000,2524A,105.821,32.4444,广元市,老城,"颗粒物(PM10),细颗粒物(PM2.5)",52,54,68,36,40,60,,68,68,24,38,1,2,0.7,0.8
2025-01-10T2000,2526A,105.8628,32.4287,广元市,监测站,细颗粒物(PM2.5),64,,53,46,46,61,,75,75,29,26,3,3,0.6,0.9
2025-01-10T2000,3617A,105.8047,32.4166,广元市,经开区,细颗粒物(PM2.5),54,50,61,38,47,51,,66,66,32,33,4,6,0.7,0.8
2025-01-10T2000,1345A,113.2347,23.1423,广州市,广雅中学,颗粒物(PM10),56,62,60,28,27,70,,81,81,37,28,11,10,0.5,0.4
2025-01-10T2000,1346A,113.2612,23.105,广州市,市五中,颗粒物(PM10),57,64,54,33,29,68,,89,88,32,20,6,5,0.7,0.6
2025-01-10T2000,1348A,113.3478,23.0916,广州市,广东商学院,,39,39,43,15,23,74,,89,88,32,20,5,5,0.4,0.4
2025-01-10T2000,1349A,113.4332,23.1047,广州市,市八十六中,,49,49,48,20,21,83,,96,96,26,19,6,7,0.5,0.6
2025-01-10T2000,1350A,113.3505,22.9483,广州市,番禺中学,,42,42,52,19,23,82,,92,92,30,25,4,4,0.6,0.7
2025-01-10T2000,1351A,113.2146,23.3916,广州市,花都师范,,48,48,51,23,25,78,,87,87,30,20,8,9,0.5,0.5
2025-01-10T2000,1352A,113.2597,23.1331,广州市,市监测站,颗粒物(PM10),54,57,55,24,25,67,,90,88,33,21,8,7,0.6,0.6
2025-01-10T2000,1353A,113.5618,23.312,广州市,九龙镇镇龙,,36,36,39,19,19,87,,92,92,16,16,6,6,0.5,0.5
2025-01-10T2000,1354A,113.2765,23.1544,广州市,麓湖,,47,47,51,23,25,44,,87,81,46,24,5,5,0.6,0.6
2025-01-10T2000,1355A,113.443,23.3035,广州市,帽峰山森林公园,,31,31,36,11,12,89,,99,99,10,8,7,7,0.3,0.4
2025-01-10T2000,2846A,113.3221,23.1322,广州市,体育西,颗粒物(PM10),51,52,48,23,23,65,,86,85,28,15,7,7,0.6,0.5
2025-01-10T2000,3298A,113.5717,23.5491,广州市,从化街口,,36,36,39,19,21,92,,96,96,14,12,6,7,0.4,0.4
2025-01-10T2000,3299A,113.3472,23.3692,广州市,白云竹料,颗粒物(PM10),71,91,44,51,23,57,,95,91,43,15,9,8,0.6,0.4
2025-01-10T2000,3300A,113.2981,23.237,广州市,白云嘉禾,颗粒物(PM10),65,80,66,26,24,52,,88,84,57,26,8,8,0.5,0.5
2025-01-10T2000,3301A,113.4256,23.1716,广州市,黄埔科学城,,36,36,42,19,23,82,,94,94,18,13,5,8,0.6,0.6
2025-01-10T2000,3302A,113.3942,23.0483,广州市,番禺大学城,,38,38,49,17,21,89,,98,98,24,23,8,7,0.4,0.5
2025-01-10T2000,3303A,113.4922,22.8168,广州市,南沙黄阁,,48,48,58,19,25,60,,84,82,50,32,5,7,0.5,0.5
2025-01-10T2000,3304A,113.5342,22.7896,广州市,南沙街,颗粒物(PM10),53,56,53,18,23,60,,86,83,44,30,6,7,0.5,0.6
2025-01-10T2000,3443A,113.2902,23.5544,广州市,花都梯面,,35,35,42,11,16,92,,96,96,15,13,8,8,0.5,0.5
2025-01-10T2000,3445A,113.7858,23.7478,广州市,从化良口,,31,31,34,18,19,97,,99,99,13,12,7,7,0.4,0.4
2025-01-10T2000,3446A,113.8051,23.2614,广州市,增城荔城,,28,28,37,16,20,78,,94,94,16,12,5,6,0.7,0.7
2025-01-10T2000,2505A,109.568,23.1478,贵港市,德智高中,,,,,,,,,,,,,,,,
2025-01-10T2000,2506A,109.6047,23.0666,贵港市,江南子站,"颗粒物(PM10),细颗粒物(PM2.5)",57,63,44,40,29,102,,104,104,19,16,5,3,0.7,0.6
2025-01-10T2000,2507A,109.6014,23.0948,贵港市,贵城子站,细颗粒物(PM2.5),62,70,43,44,33,92,,95,95,17,14,9,8,0.7,0.6
2025-01-10T2000,2508A,109.5669,23.1065,贵港市,荷城子站,颗粒物(PM10),56,61,46,36,27,90,,91,91,19,16,10,9,0.6,0.6
2025-01-10T2000,3405A,109.5886,23.1172,贵港市,新世纪学校,颗粒物(PM10),64,78,51,43,30,94,,97,97,17,16,10,8,0.6,0.6
2025-01-10T2000,1439A,106.6899,26.5998,贵阳市,马鞍山,,39,39,27,22,18,69,,76,76,18,13,7,4,0.3,0.3
2025-01-10T2000,1440A,106.6971,26.5694,贵阳市,市环保站,,,,,,,,,,,,,,,,
2025-01-10T2000,1441A,106.6243,26.6266,贵阳市,鉴湖路,,44,44,26,29,16,65,,73,73,17,10,6,5,0.4,0.5
2025-01-10T2000,1442A,106.7487,26.6343,贵阳市,燕子冲,,44,44,23,29,25,78,,76,76,13,9,10,8,0.4,0.3
2025-01-10T2000,1443A,106.6555,26.4365,贵阳市,碧云窝,颗粒物(PM10),53,56,36,27,21,57,,67,66,37,19,19,14,0.5,0.5
2025-01-10T2000,1444A,106.694,26.5161,贵阳市,中院村,细颗粒物(PM2.5),52,44,33,36,24,66,,67,62,19,14,17,11,0.6,0.5
2025-01-10T2000,1445A,106.7109,26.6027,贵阳市,红边门,,49,46,32,34,25,76,,76,76,21,17,18,10,0.6,0.5
2025-01-10T2000,1446A,106.7164,26.5699,贵阳市,新华路,,46,46,31,29,23,76,,77,77,17,12,9,6,0.5,0.4
2025-01-10T2000,1447A,106.674,26.5424,贵阳市,太慈桥,,,41,25,27,22,71,,72,72,19,13,,9,0.4,0.4
2025-01-10T2000,1552A,106.805,26.3003,贵阳市,桐木岭,细颗粒物(PM2.5),64,58,40,46,27,66,,75,66,10,4,15,10,0.3,0.3
2025-01-10T2000,1862A,110.4144,25.3167,桂林市,电子科大尧山校区,,33,33,35,22,28,100,,103,103,6,7,7,7,0.7,0.7
2025-01-10T2000,1863A,110.2819,25.2697,桂林市,监测站,,43,41,43,30,36,89,,96,96,25,20,13,10,0.7,0.8
2025-01-10T2000,1864A,110.3089,25.2708,桂林市,龙隐路小学,,,39,42,34,38,99,,106,106,19,16,,11,0.6,0.6
2025-01-10T2000,1865A,110.2869,25.2178,桂林市,八中,,46,38,42,32,38,92,,96,96,19,15,10,9,0.8,0.8
2025-01-10T2000,3403A,110.1764,25.2381,桂林市,创业大厦,颗粒物(PM10),54,58,51,31,40,96,,101,101,18,16,9,10,0.7,0.7
2025-01-10T2000,3531A,110.296,25.1253,桂林市,旅游学院,,39,34,40,27,34,95,,53,,13,15,6,8,0.9,0.9
2025-01-10T2000,2674A,100.2561,34.4714,果洛藏族自治州,玛沁县大武镇,,45,45,33,23,16,96,,90,90,1,7,11,13,0.4,0.5
2025-01-10T2000,1129A,126.5422,45.755,哈尔滨市,岭北,细颗粒物(PM2.5),201,172,104,151,91,22,,51,46,73,56,23,23,2.0,2
2025-01-10T2000,1130A,126.561,45.8167,哈尔滨市,松北商大,细颗粒物(PM2.5),125,,80,95,71,18,,46,42,64,55,4,5,1.1,1
2025-01-10T2000,1131A,126.979,45.5419,哈尔滨市,阿城会宁,细颗粒物(PM2.5),225,321,95,175,84,8,,57,46,71,30,8,9,1.9,1
2025-01-10T2000,1132A,126.599,45.7222,哈尔滨市,南岗学府路,细颗粒物(PM2.5),165,139,115,125,92,17,,41,37,70,56,16,11,1.0,1
2025-01-10T2000,1133A,126.689,45.7733,哈尔滨市,太平宏伟公园,细颗粒物(PM2.5),326,,133,276,109,6,,14,,98,64,9,8,2.4,1.4
2025-01-10T2000,1134A,126.635,45.7667,哈尔滨市,道外承德广场,细颗粒物(PM2.5),144,122,101,110,75,25,,28,27,54,55,13,19,0.9,0.9
2025-01-10T2000,1135A,126.685,45.7319,哈尔滨市,香坊红旗大街,细颗粒物(PM2.5),169,,110,128,99,18,,24,23,63,65,24,31,1.0,1.3
2025-01-10T2000,1136A,126.6411,45.7258,哈尔滨市,动力和平路,细颗粒物(PM2.5),152,,102,116,92,13,,34,30,61,54,20,20,1.0,1.1
2025-01-10T2000,1137A,126.593,45.7478,哈尔滨市,道里建国路,细颗粒物(PM2.5),142,,99,108,89,15,,29,26,67,62,15,21,0.9,0.9
2025-01-10T2000,1138A,126.615,45.61,哈尔滨市,平房东轻厂,细颗粒物(PM2.5),190,163,94,143,82,7,,44,31,89,56,21,10,1.5,0.9
2025-01-10T2000,1139A,126.595,45.9855,哈尔滨市,呼兰师专,,,,98,,95,,,44,44,,52,,13,,1.2
2025-01-10T2000,1140A,126.6206,45.6842,哈尔滨市,省农科院,细颗粒物(PM2.5),202,177,123,152,110,9,,34,26,79,64,23,16,1.5,1.3
2025-01-10T2000,2688A,93.5128,42.8172,哈密市,地区监测站,,,88,73,39,34,29,,51,50,56,25,,6,0.8,0.6
2025-01-10T2000,2689A,93.4961,42.8328,哈密市,哈密师范学校,颗粒物(PM10),68,86,73,34,35,35,,46,45,45,36,8,7,0.8,0.8
2025-01-10T2000,2671A,100.9048,36.9639,海北藏族自治州,海晏县西海镇,颗粒物(PM10),140,229,65,19,25,98,,95,95,3,11,5,15,0.7,0.8
2025-01-10T2000,3867A,102.0738,36.5056,海东市,平安区公安北苑,颗粒物(PM10),70,89,70,44,30,56,,69,68,31,23,22,20,0.7,0.6
2025-01-10T2000,1409A,110.576,19.9507,海口市,东寨港,,42,32,56,29,40,108,,107,105,6,8,13,11,0.7,0.8
2025-01-10T2000,1410A,110.3232,20.0574,海口市,海南大学,颗粒物(PM10),53,55,73,33,45,121,,119,119,20,20,7,8,0.5,0.6
2025-01-10T2000,1411A,110.283,20.0053,海口市,秀英海南医院,颗粒物(PM10),57,63,78,30,44,126,,120,120,12,19,5,6,0.5,0.6
2025-01-10T2000,1412A,110.338,19.9969,海口市,海南师范大学,颗粒物(PM10),56,62,78,31,42,126,,122,122,13,14,7,8,0.5,0.6
2025-01-10T2000,1413A,110.33,20.0356,海口市,龙华路环保局宿舍,颗粒物(PM10),54,57,75,31,44,125,,122,122,12,14,7,8,0.5,0.6
2025-01-10T2000,3539A,110.5111,19.9736,海口市,桂林洋子站,颗粒物(PM10),55,59,65,36,40,120,,125,120,12,12,6,6,0.5,0.5
2025-01-10T2000,2673A,100.6188,36.2866,海南藏族自治州,共和县恰卜恰镇,颗粒物(PM10),138,225,92,24,29,103,,106,106,2,20,8,10,0.8,1
2025-01-10T2000,2676A,97.3731,37.3753,海西蒙古族藏族自治州,德令哈市,颗粒物(PM10),63,75,84,27,14,94,,96,96,9,11,14,15,0.5,0.5
2025-01-10T2000,1048A,114.5302,36.6116,邯郸市,东污水处理厂,细颗粒物(PM2.5),113,116,54,85,38,10,,39,37,68,42,12,8,1.3,1
2025-01-10T2000,1049A,114.4918,36.5713,邯郸市,矿院,颗粒物(PM10),58,65,65,34,39,13,,37,36,61,51,7,7,0.9,0.9
2025-01-10T2000,1050A,114.484,36.6133,邯郸市,丛台公园,细颗粒物(PM2.5),60,67,59,43,31,26,,45,44,49,40,6,7,0.9,0.9
2025-01-10T2000,3458A,114.7895,36.5593,邯郸市,香泉濮院小区,颗粒物(PM10),63,75,73,37,41,35,,60,54,41,32,15,10,1.1,0.8
2025-01-10T2000,3579A,114.50634,36.77178,邯郸市,永年区实验高中,颗粒物(PM10),71,91,68,49,31,11,,37,34,78,44,12,11,1.0,0.8
2025-01-10T2000,3580A,114.20016,36.44293,邯郸市,峰峰矿区临水派出所,颗粒物(PM10),53,56,54,35,30,34,,45,44,41,28,13,16,0.6,0.8
2025-01-10T2000,2634A,106.9893,33.1842,汉中市,汉川机床厂子校,细颗粒物(PM2.5),72,55,46,52,41,59,,70,70,14,12,8,7,0.6,0.6
2025-01-10T2000,2635A,107.0154,33.0706,汉中市,市监测站,细颗粒物(PM2.5),68,69,93,49,76,57,,64,64,35,50,7,7,0.8,1.4
2025-01-10T2000,2636A,107.0089,33.1138,汉中市,鑫源开发区,细颗粒物(PM2.5),83,68,86,61,72,55,,69,69,34,47,10,8,0.8,1.1
2025-01-10T2000,2637A,107.007,33.0323,汉中市,南郑大河坎水厂,细颗粒物(PM2.5),77,70,124,56,87,51,,68,68,39,37,11,10,0.9,1.3
2025-01-10T2000,1223A,120.2072,30.2111,杭州市,滨江,颗粒物(PM10),60,70,45,42,21,37,,56,53,45,30,8,8,0.5,0.5
2025-01-10T2000,1224A,120.0633,30.2747,杭州市,西溪,颗粒物(PM10),58,65,37,39,22,42,,64,60,47,34,8,8,0.9,0.8
2025-01-10T2000,1226A,120.3461,30.3153,杭州市,下沙,颗粒物(PM10),74,97,55,53,26,3,,58,48,90,41,10,9,0.7,0.6
2025-01-10T2000,1227A,120.1269,30.2456,杭州市,卧龙桥,,49,49,34,31,21,27,,63,54,41,27,7,8,0.4,0.3
2025-01-10T2000,1228A,120.1903,30.2692,杭州市,浙江农大,细颗粒物(PM2.5),67,72,40,48,21,30,,56,52,54,35,10,9,0.6,0.5
2025-01-10T2000,1230A,120.1197,30.3119,杭州市,和睦小学,颗粒物(PM10),55,59,37,32,21,37,,59,55,52,29,10,9,0.8,0.7
2025-01-10T2000,1231A,120.3019,30.4183,杭州市,临平镇,细颗粒物(PM2.5),87,89,49,64,26,28,,65,60,56,27,9,8,0.6,0.7
2025-01-10T2000,1232A,120.2697,30.1819,杭州市,城厢镇,颗粒物(PM10),64,77,48,39,23,18,,58,48,65,33,7,7,0.6,0.6
2025-01-10T2000,1233A,120.0883,30.1808,杭州市,云栖,颗粒物(PM10),53,56,36,31,18,36,,68,61,35,23,5,6,0.6,0.5
2025-01-10T2000,3557A,119.9464,30.0494,杭州市,镇二中,颗粒物(PM10),53,56,29,32,19,38,,61,57,47,31,7,7,0.5,0.5
2025-01-10T2000,3558A,119.7183,30.2367,杭州市,市府大楼,颗粒物(PM10),57,63,32,37,22,46,,70,66,46,29,8,8,0.6,0.5
2025-01-10T2000,3656A,120.1556,30.2864,杭州市,消防大队,"颗粒物(PM10),细颗粒物(PM2.5)",73,96,47,53,24,31,,61,56,60,32,11,10,0.5,0.4
2025-01-10T2000,1270A,117.1959,31.7848,合肥市,明珠广场,颗粒物(PM10),53,56,57,31,30,14,,57,52,70,40,10,11,0.6,0.6
2025-01-10T2000,1271A,117.3072,31.8764,合肥市,三里街,颗粒物(PM10),52,53,52,29,29,38,,62,59,47,38,7,7,0.6,0.5
2025-01-10T2000,1272A,117.2588,31.8707,合肥市,琥珀山庄,颗粒物(PM10),53,56,58,35,34,34,,64,61,52,36,7,8,0.8,0.7
2025-01-10T2000,1273A,117.1604,31.9052,合肥市,董铺水库,颗粒物(PM10),64,78,60,44,27,40,,66,64,44,37,6,5,0.4,0.4
2025-01-10T2000,1274A,117.25,31.8571,合肥市,长江中路,细颗粒物(PM2.5),63,56,55,45,34,39,,58,56,47,40,8,8,0.6,0.5
2025-01-10T2000,1275A,117.266,31.9436,合肥市,庐阳区,颗粒物(PM10),63,75,62,36,33,36,,70,65,44,35,5,4,0.8,0.8
2025-01-10T2000,1276A,117.336,31.8586,合肥市,瑶海区,颗粒物(PM10),52,53,53,29,28,43,,60,57,39,34,8,8,0.6,0.6
2025-01-10T2000,1277A,117.3027,31.7964,合肥市,包河区,颗粒物(PM10),73,95,55,44,30,4,,55,44,94,56,8,5,0.6,0.4
2025-01-10T2000,1278A,117.2776,31.7385,合肥市,滨湖新区,颗粒物(PM10),56,61,54,34,26,26,,52,50,57,39,8,9,0.4,0.3
2025-01-10T2000,1279A,117.1318,31.8403,合肥市,高新区,颗粒物(PM10),51,51,56,32,29,57,,62,62,28,38,8,8,0.3,0.4
2025-01-10T2000,3464A,117.3803,31.9147,合肥市,高教基地,颗粒物(PM10),51,52,53,35,29,39,,67,61,34,26,8,8,0.5,0.4
2025-01-10T2000,3614A,79.924,37.0877,和田地区,地区环保局,颗粒物(PM10),136,221,165,49,40,72,,78,78,26,24,12,12,0.1,0.2
2025-01-10T2000,3615A,79.9131,37.113,和田地区,市环保局,颗粒物(PM10),108,165,143,34,45,70,,80,80,34,50,11,14,1.2,1.5
2025-01-10T2000,2516A,108.2011,24.715,河池市,东仁乐园,,,,25,,18,,,75,,,12,,9,,0.6
2025-01-10T2000,2517A,108.0497,24.6947,河池市,市环保站,,43,31,21,30,20,72,,80,78,5,3,7,7,0.6,0.5
2025-01-10T2000,2518A,108.0983,24.6989,河池市,市疾控中心,,40,36,23,28,20,73,,77,77,6,5,6,6,0.4,0.4
2025-01-10T2000,1696A,114.6778,23.7569,河源市,源西,,33,31,37,23,25,84,,89,89,11,9,7,7,0.4,0.4
2025-01-10T2000,1697A,114.6944,23.7586,河源市,东埔,,38,32,42,26,26,91,,97,97,19,16,6,6,0.6,0.6
2025-01-10T2000,1698A,114.6892,23.7233,河源市,老城,,45,38,43,31,25,91,,93,93,15,15,6,6,0.6,0.6
2025-01-10T2000,1718A,115.4208,35.2464,菏泽市,气象局,细颗粒物(PM2.5),99,139,91,74,47,40,,65,62,47,40,7,8,0.7,0.6
2025-01-10T2000,3374A,115.5564,35.0891,菏泽市,定陶老年大学,细颗粒物(PM2.5),113,134,78,85,43,23,,70,61,70,45,13,19,0.8,0.5
2025-01-10T2000,4184A,115.4797,35.24401,菏泽市,永昌路1号,细颗粒物(PM2.5),100,129,80,75,43,34,,66,62,63,48,9,10,1.2,1.1
2025-01-10T2000,4193A,115.4715,35.2800,菏泽市,长城路999号,颗粒物(PM10),84,118,81,59,38,45,,64,62,49,42,3,4,0.6,0.5
2025-01-10T2000,2514A,111.5264,24.4172,贺州市,环保小区,细颗粒物(PM2.5),65,74,46,47,34,87,,92,92,20,15,8,7,0.7,0.7
2025-01-10T2000,2515A,111.5608,24.4078,贺州市,政协大楼,颗粒物(PM10),68,85,52,47,28,74,,87,87,20,13,7,5,0.6,0.6
2025-01-10T2000,3534A,111.4744,24.4553,贺州市,西湾,细颗粒物(PM2.5),63,71,49,45,37,95,,96,96,15,15,9,7,0.6,0.6
2025-01-10T2000,2385A,114.17,35.9019,鹤壁市,市监测站,细颗粒物(PM2.5),104,136,90,78,48,3,,44,35,,39,9,8,1.0,0.6
2025-01-10T2000,2386A,114.2956,35.7511,鹤壁市,市交警支队,细颗粒物(PM2.5),87,118,83,64,42,2,,36,31,83,54,9,8,1.5,0.8
2025-01-10T2000,2387A,114.2878,35.7306,鹤壁市,迎宾馆,细颗粒物(PM2.5),102,123,82,76,39,2,,38,34,83,51,8,7,1.4,0.7
2025-01-10T2000,3474A,114.2617,35.6822,鹤壁市,大新区,细颗粒物(PM2.5),90,74,77,67,50,3,,36,31,78,56,10,9,1.0,0.7
2025-01-10T2000,3596A,114.1572,35.9603,鹤壁市,南山宾馆,细颗粒物(PM2.5),94,81,64,70,48,26,,52,46,45,27,11,9,0.9,0.7
2025-01-10T2000,2244A,130.2537,47.3416,鹤岗市,哈啤分公司,,45,,23,31,20,61,,66,63,5,4,13,14,0.6,0.4
2025-01-10T2000,2245A,130.2684,47.3086,鹤岗市,斯达机电,,38,32,30,26,22,68,,69,60,5,11,12,12,0.3,0.2
2025-01-10T2000,2246A,130.3114,47.3388,鹤岗市,东山纸板厂,细颗粒物(PM2.5),79,,51,58,30,26,,53,32,38,30,14,15,1.4,0.6
2025-01-10T2000,2247A,130.1097,47.3382,鹤岗市,五号水库,,29,29,18,19,11,79,,89,86,8,8,6,7,0.4,0.4
2025-01-10T2000,2263A,127.4833,50.2524,黑河市,交通局,,45,35,21,31,18,38,,67,46,26,14,6,6,0.7,0.5
2025-01-10T2000,2264A,127.5144,50.2341,黑河市,环保局,细颗粒物(PM2.5),124,99,20,94,18,14,,70,42,67,14,14,5,1.7,0.4
2025-01-10T2000,2265A,127.5291,50.2472,黑河市,大黑河岛,,,28,13,23,10,6,,6,6,9,9,3,2,,
2025-01-10T2000,1074A,115.6838,37.7541,衡水市,电机北厂,颗粒物(PM10),59,68,50,40,30,7,,54,48,69,37,9,11,0.7,0.5
2025-01-10T2000,1075A,115.6303,37.7316,衡水市,市监测站,细颗粒物(PM2.5),59,56,50,42,30,28,,52,50,46,43,12,15,0.8,0.5
2025-01-10T2000,3188A,115.6683,37.7217,衡水市,市城管局,颗粒物(PM10),68,86,54,45,34,6,,50,46,73,50,6,12,0.8,0.6
2025-01-10T2000,3459A,115.5989,37.5491,衡水市,地表水厂,细颗粒物(PM2.5),98,88,54,73,41,22,,51,48,88,50,27,14,1.2,0.7
2025-01-10T2000,2456A,112.5003,26.9167,衡阳市,原169医院,,43,33,44,30,35,37,,57,56,47,25,9,27,0.4,0.5
2025-01-10T2000,2457A,112.6194,26.9258,衡阳市,衡阳化工总厂,颗粒物(PM10),51,51,60,32,44,49,,70,70,42,28,6,9,0.8,0.7
2025-01-10T2000,2458A,112.6211,26.8956,衡阳市,珠晖区环保局,细颗粒物(PM2.5),53,50,52,37,43,53,,68,68,39,29,10,12,0.7,0.7
2025-01-10T2000,2459A,112.6197,26.8733,衡阳市,市委党校,,46,45,53,32,42,67,,79,79,31,25,11,12,0.7,0.8
2025-01-10T2000,2460A,112.6006,26.8919,衡阳市,市监测站,细颗粒物(PM2.5),73,73,67,53,52,68,,76,76,25,22,8,11,0.8,0.7
2025-01-10T2000,2461A,112.5664,26.9056,衡阳市,真空机电公司,颗粒物(PM10),51,51,68,35,44,73,,75,75,20,25,6,7,0.6,0.7
2025-01-10T2000,3399A,112.6703,26.882,衡阳市,师范学院,颗粒物(PM10),59,67,57,38,48,63,,81,79,32,25,14,12,0.7,0.7
2025-01-10T2000,2608A,103.3772,23.3993,红河哈尼族彝族自治州,污水处理厂,细颗粒物(PM2.5),57,41,43,40,41,37,,38,38,13,13,6,7,0.6,0.6
2025-01-10T2000,2609A,103.3861,23.35,红河哈尼族彝族自治州,监测站,细颗粒物(PM2.5),55,,44,39,40,33,,33,33,15,14,7,8,0.6,0.6
2025-01-10T2000,3038A,103.3758,23.368,红河哈尼族彝族自治州,州图书馆,,36,,28,25,31,39,,32,32,10,14,7,8,0.6,0.6
2025-01-10T2000,1090A,111.6507,40.7517,呼和浩特市,呼市一监,颗粒物(PM10),79,107,50,57,28,10,,52,45,62,39,13,12,0.9,0.8
2025-01-10T2000,1091A,111.6572,40.8033,呼和浩特市,小召,颗粒物(PM10),62,73,48,32,23,28,,49,48,51,52,11,10,0.7,1.1
2025-01-10T2000,1094A,111.7516,40.8369,呼和浩特市,如意水处理厂,颗粒物(PM10),64,77,42,39,24,23,,46,43,36,37,12,10,0.6,0.6
2025-01-10T2000,1095A,111.7276,40.8062,呼和浩特市,二十九中,颗粒物(PM10),56,62,41,36,20,27,,44,44,45,39,11,9,0.7,0.7
2025-01-10T2000,1096A,111.5512,40.7866,呼和浩特市,工大金川校区,颗粒物(PM10),60,69,48,23,20,18,,44,40,50,49,7,10,0.6,0.7
2025-01-10T2000,1097A,111.717,40.7612,呼和浩特市,化肥厂生活区,颗粒物(PM10),54,58,41,28,23,22,,48,46,54,41,9,8,0.6,0.9
2025-01-10T2000,3698A,111.5968,40.8178,呼和浩特市,红旗小学,,36,36,46,19,23,22,,42,40,47,50,6,10,0.5,0.7
2025-01-10T2000,3699A,111.6518,40.8389,呼和浩特市,海东办,颗粒物(PM10),53,56,46,23,24,11,,46,44,60,49,4,6,0.8,0.9
2025-01-10T2000,2192A,119.7594,49.2261,呼伦贝尔市,区环保局,细颗粒物(PM2.5),52,51,26,36,21,8,,53,48,60,22,6,6,1.1,0.5
2025-01-10T2000,3061A,119.7512,49.1577,呼伦贝尔市,国华电力东,,49,38,33,34,20,54,,65,62,12,8,3,3,0.4,0.3
2025-01-10T2000,1250A,120.0751,30.8669,湖州市,城西水厂,颗粒物(PM10),64,77,58,43,28,46,,68,67,47,38,9,10,0.7,0.5
2025-01-10T2000,2873A,120.0875,30.8955,湖州市,仁皇山新区,颗粒物(PM10),59,67,44,39,24,44,,69,65,47,38,9,9,0.6,0.5
2025-01-10T2000,2907A,120.1844,30.8596,湖州市,吴兴区站,颗粒物(PM10),60,69,44,37,22,53,,67,66,38,31,8,7,0.6,0.6
2025-01-10T2000,3562A,120.4148,30.8538,湖州市,南浔区站,颗粒物(PM10),58,66,48,38,22,54,,68,65,36,27,10,10,0.5,0.4
2025-01-10T2000,1607A,120.9092,40.7136,葫芦岛市,龙港区,,50,50,57,25,34,68,,78,74,12,35,14,27,0.3,0.5
2025-01-10T2000,1608A,120.8392,40.7514,葫芦岛市,化工街,颗粒物(PM10),93,136,85,61,44,8,,60,52,72,42,48,41,1.1,1
2025-01-10T2000,1609A,120.8341,40.7073,葫芦岛市,新区,细颗粒物(PM2.5),62,53,62,44,38,8,,64,57,73,53,13,15,0.9,0.9
2025-01-10T2000,1610A,120.8695,40.7677,葫芦岛市,东城区,细颗粒物(PM2.5),128,,68,97,40,11,,59,50,71,43,36,33,1.4,0.6
2025-01-10T2000,2482A,109.5981,27.5721,怀化市,林科所,,40,33,35,28,34,90,,81,81,12,14,34,11,0.9,0.9
2025-01-10T2000,2483A,109.9453,27.5444,怀化市,河西地税局,细颗粒物(PM2.5),68,72,64,49,50,64,,74,74,18,12,20,7,1.0,0.9
2025-01-10T2000,2484A,109.9781,27.5342,怀化市,市四医院,细颗粒物(PM2.5),69,71,74,50,54,47,,34,34,20,15,4,5,1.0,0.9
2025-01-10T2000,2485A,109.9972,27.5578,怀化市,监测楼,细颗粒物(PM2.5),70,69,63,51,47,69,,73,73,25,18,2,4,0.6,0.6
2025-01-10T2000,2486A,110.0394,27.583,怀化市,市委党校,细颗粒物(PM2.5),67,71,64,48,50,63,,69,69,26,19,6,6,0.6,0.7
2025-01-10T2000,1210A,119.036,33.5981,淮安市,钵池山,颗粒物(PM10),65,80,54,36,26,36,,68,62,43,34,13,8,1.0,0.8
2025-01-10T2000,1211A,119.007,33.575,淮安市,北京南路,颗粒物(PM10),71,92,53,35,22,7,,57,48,69,35,9,10,0.9,0.7
2025-01-10T2000,1212A,118.989,33.6067,淮安市,市监测站,细颗粒物(PM2.5),77,80,50,56,31,14,,61,53,65,39,7,8,0.7,0.7
2025-01-10T2000,1213A,119.135,33.5039,淮安市,楚州区监测站,颗粒物(PM10),69,88,60,33,21,29,,57,54,48,36,8,9,0.6,0.7
2025-01-10T2000,1214A,119.0186,33.6297,淮安市,淮阴区监测站,颗粒物(PM10),71,92,59,38,25,24,,63,58,58,41,8,8,0.9,0.9
2025-01-10T2000,3426A,118.8755,33.2894,淮安市,新华书店,,50,50,61,30,32,48,,63,61,32,39,8,9,0.5,0.5
2025-01-10T2000,2282A,116.8004,33.975,淮北市,监测站,细颗粒物(PM2.5),72,69,61,52,34,11,,58,51,66,35,9,8,0.7,0.3
2025-01-10T2000,2283A,116.8091,33.9007,淮北市,烈山区政府,颗粒物(PM10),74,98,74,40,37,18,,59,52,64,39,7,6,0.7,0.6
2025-01-10T2000,3330A,116.8873,33.9836,淮北市,杜集区检察院,颗粒物(PM10),58,66,77,34,41,54,,62,60,22,35,3,4,0.4,0.4
2025-01-10T2000,4017A,116.7923,33.9535,淮北市,市博物馆,细颗粒物(PM2.5),72,85,64,52,38,14,,60,53,71,41,7,8,0.8,0.5
2025-01-10T2000,2277A,116.8305,32.7727,淮南市,潘集区政府,细颗粒物(PM2.5),102,95,71,76,49,25,,67,60,65,37,12,11,0.5,0.4
2025-01-10T2000,2278A,117.0067,32.6524,淮南市,师范学院,,,,,,,,,,,,,,,,
2025-01-10T2000,2279A,116.8569,32.5951,淮南市,谢家集区政府,颗粒物(PM10),55,60,60,36,23,54,,62,60,27,28,7,8,0.6,0.5
2025-01-10T2000,2280A,116.8281,32.633,淮南市,八公山区政府,颗粒物(PM10),52,53,52,35,30,69,,68,68,15,25,5,6,0.4,0.4
2025-01-10T2000,2281A,116.6325,32.6201,淮南市,焦岗湖风景区管理处,,49,49,46,29,27,16,,52,48,36,19,2,2,0.4,0.3
2025-01-10T2000,2894A,117.0566,32.6531,淮南市,经济技术开发区消防队,细颗粒物(PM2.5),104,122,76,78,43,42,,67,61,38,23,9,9,0.5,0.5
2025-01-10T2000,3329A,117.0108,32.5893,淮南市,山南新区,颗粒物(PM10),64,78,62,36,34,46,,67,61,37,24,10,9,0.5,0.5
2025-01-10T2000,2446A,114.9028,30.4742,黄冈市,职工中心,细颗粒物(PM2.5),62,64,42,44,25,56,,74,73,28,26,8,8,1.0,0.3
2025-01-10T2000,2929A,114.8858,30.4519,黄冈市,红卫路,颗粒物(PM10),54,58,39,36,24,55,,71,70,35,23,8,6,0.8,0.7
2025-01-10T2000,3398A,114.9136,30.4445,黄冈市,市林业局,细颗粒物(PM2.5),67,56,35,48,26,53,,72,71,28,15,10,10,0.8,0.6
2025-01-10T2000,2672A,102.0199,35.5102,黄南藏族自治州,同仁县隆务镇,,,109,80,,46,97,,91,91,3,8,8,9,0.4,0.6
2025-01-10T2000,2295A,118.2903,29.6963,黄山市,延安路89号,细颗粒物(PM2.5),57,58,29,40,21,49,,77,73,24,15,5,5,0.3,0.3
2025-01-10T2000,2296A,118.327,29.7178,黄山市,黄山东路89号,颗粒物(PM10),53,55,41,22,18,38,,73,66,30,18,7,7,0.4,0.3
2025-01-10T2000,2297A,118.1371,30.2756,黄山市,黄山区政府5号楼,细颗粒物(PM2.5),57,55,33,40,22,44,,73,69,13,11,8,8,0.5,0.5
2025-01-10T2000,2423A,115.0601,30.2313,黄石市,沈家营,细颗粒物(PM2.5),58,52,50,41,28,54,,66,66,27,30,11,13,0.6,0.6
2025-01-10T2000,2426A,114.8988,30.2019,黄石市,铁山,颗粒物(PM10),56,61,47,33,34,55,,72,70,33,23,9,13,0.6,0.7
2025-01-10T2000,2427A,115.0307,30.2092,黄石市,团城山,颗粒物(PM10),53,55,50,35,28,60,,66,66,23,26,11,8,0.7,0.7
2025-01-10T2000,3149A,115.0235,30.1578,黄石市,笔架山北路,,44,44,45,29,30,74,,71,71,17,23,10,11,0.7,0.8
2025-01-10T2000,4185A,115.0780,30.21118,黄石市,磁湖东路29号,颗粒物(PM10),61,71,58,41,34,60,,68,68,28,26,16,15,0.8,0.8
2025-01-10T2000,1392A,114.4183,23.0528,惠州市,河南岸金山湖子站,,43,43,49,20,24,80,,92,92,19,12,8,8,0.6,0.6
2025-01-10T2000,1393A,114.4053,23.0822,惠州市,下埔横江三路子站,,,39,47,19,24,,,96,96,15,15,8,9,,0.7
2025-01-10T2000,1394A,114.4103,23.1142,惠州市,江北云山西路子站,,,,53,18,23,90,,97,97,19,17,8,9,0.6,0.6
2025-01-10T2000,1395A,114.4645,22.7833,惠州市,惠阳区承修路船湖子站,,46,46,58,17,23,69,,86,85,20,13,9,10,0.4,0.4
2025-01-10T2000,1396A,114.5317,22.7422,惠州市,大亚湾管委会子站,,32,32,46,14,22,83,,90,90,24,20,12,12,0.4,0.4
2025-01-10T2000,3314A,114.4338,22.8134,惠州市,惠阳秋长,,39,39,54,16,23,81,,92,91,18,14,11,5,0.5,0.5
2025-01-10T2000,3452A,114.6517,22.775,惠州市,大亚湾霞涌,,47,47,55,21,28,79,,88,88,16,13,9,9,0.6,0.7
2025-01-10T2000,2240A,130.9762,45.3001,鸡西市,环保局,,30,27,25,21,23,53,,59,57,12,8,6,6,0.3,0.3
2025-01-10T2000,2243A,130.9429,45.3039,鸡西市,第一中学,,42,37,24,29,20,61,,72,70,10,5,7,6,0.3,0.2
2025-01-10T2000,3707A,131.0207,45.3073,鸡西市,欧美日汽修厂,细颗粒物(PM2.5),69,,35,50,31,61,,68,63,23,12,26,30,0.6,0.7
2025-01-10T2000,3709A,130.9967,45.3106,鸡西市,市政设施管理处,,43,38,25,30,21,53,,66,58,21,16,6,5,0.3,0.3
2025-01-10T2000,2367A,114.9754,27.0803,吉安市,红声器材厂,,35,35,47,21,22,66,,73,73,22,22,10,12,0.4,0.5
2025-01-10T2000,2368A,114.9658,27.0999,吉安市,市森林工业局,,35,35,43,22,21,69,,75,75,25,26,13,14,0.5,0.6
2025-01-10T2000,2369A,114.99,27.1312,吉安市,市环境监测站,,42,36,38,29,25,72,,78,78,16,17,14,16,0.5,0.5
2025-01-10T2000,2370A,115.0093,27.0968,吉安市,青原区法院,,45,45,47,19,23,67,,76,76,30,34,7,10,0.3,0.4
2025-01-10T2000,1772A,126.54,43.8622,吉林市,哈达湾,细颗粒物(PM2.5),75,57,42,55,34,52,,62,61,29,22,12,10,0.8,0.7
2025-01-10T2000,1773A,126.5844,43.8358,吉林市,东局子,细颗粒物(PM2.5),87,91,42,64,34,22,,61,55,55,24,7,8,1.2,0.7
2025-01-10T2000,1774A,126.5052,43.8245,吉林市,电力学院,,,,47,244,54,13,,59,46,68,28,27,12,3.3,1
2025-01-10T2000,1775A,126.6133,43.8972,吉林市,江北,细颗粒物(PM2.5),155,149,49,118,44,20,,54,46,61,28,12,17,1.9,0.7
2025-01-10T2000,1776A,126.555,43.8306,吉林市,江南公园,细颗粒物(PM2.5),122,105,46,92,40,27,,60,55,53,26,13,11,1.2,0.9
2025-01-10T2000,1778A,126.7061,43.7133,吉林市,丰满,,,,33,,33,,,50,,,10,,6,,0.6
2025-01-10T2000,2868A,126.4739,43.953,吉林市,九站,细颗粒物(PM2.5),108,87,49,81,40,29,,61,52,54,31,7,6,1.1,0.7
2025-01-10T2000,1299A,116.9862,36.6114,济南市,科干所,颗粒物(PM10),58,66,40,34,15,44,,68,60,40,38,13,14,0.8,0.8
2025-01-10T2000,1300A,116.9376,36.665,济南市,农科所,颗粒物(PM10),83,115,53,51,15,10,,58,48,84,43,22,13,1.0,0.7
2025-01-10T2000,1301A,117.1265,36.6734,济南市,开发区,颗粒物(PM10),63,76,33,44,18,28,,64,55,57,31,11,7,0.9,0.6
2025-01-10T2000,1303A,117.0624,36.6868,济南市,省种子仓库,颗粒物(PM10),69,88,44,46,15,28,,64,55,55,32,12,8,0.9,0.6
2025-01-10T2000,1304A,116.9489,36.6447,济南市,机床二厂,颗粒物(PM10),92,134,56,59,17,8,,58,42,76,40,78,26,1.1,1
2025-01-10T2000,1305A,117.0495,36.663,济南市,市监测站,颗粒物(PM10),63,76,36,37,12,18,,68,54,71,37,14,6,1.0,0.7
2025-01-10T2000,1306A,116.7675,36.5484,济南市,长清党校,细颗粒物(PM2.5),77,83,41,56,18,35,,68,63,55,42,9,7,0.8,0.6
2025-01-10T2000,1616A,117.6795,36.229,济南市,技术学院,细颗粒物(PM2.5),64,75,51,46,29,22,,49,46,57,44,20,16,2.0,1.3
2025-01-10T2000,1961A,117.532,36.6868,济南市,东山小学,颗粒物(PM10),69,88,39,34,13,11,,55,46,73,37,13,7,0.9,0.7
2025-01-10T2000,3059A,117.7161,36.2049,济南市,泰兴公司,颗粒物(PM10),70,90,60,48,33,9,,52,46,71,47,15,13,0.9,0.7
2025-01-10T2000,3064A,117.6867,36.2171,济南市,莱芜战役纪念馆,颗粒物(PM10),71,92,61,46,28,25,,54,50,61,48,17,12,1.1,0.9
2025-01-10T2000,3494A,117.1673,36.9782,济南市,济阳区政府,颗粒物(PM10),75,100,52,46,18,16,,52,46,55,34,15,13,0.8,0.5
2025-01-10T2000,3495A,117.1171,36.63,济南市,锦屏中学,颗粒物(PM10),57,63,17,37,10,32,,62,,49,23,14,6,0.6,0.3
2025-01-10T2000,3682A,116.9814,36.6819,济南市,济南四建,颗粒物(PM10),71,92,42,51,18,11,,57,47,80,44,21,13,0.7,0.4
2025-01-10T2000,1653A,116.6251,35.4302,济宁市,火炬城,颗粒物(PM10),59,68,46,36,15,36,,59,56,44,32,11,8,0.7,0.6
2025-01-10T2000,1655A,116.5491,35.4042,济宁市,电化厂,颗粒物(PM10),60,70,59,34,26,44,,63,61,38,35,9,11,0.7,0.6
2025-01-10T2000,3500A,116.5814,35.3707,济宁市,北湖一中,颗粒物(PM10),51,51,39,24,15,55,,62,62,30,36,4,4,0.6,0.4
2025-01-10T2000,3501A,116.8249,35.5593,济宁市,服务中心,颗粒物(PM10),67,84,63,42,25,34,,57,55,51,47,17,14,0.8,0.7
2025-01-10T2000,3678A,116.5907,35.4054,济宁市,市第七中学,细颗粒物(PM2.5),62,66,46,44,19,27,,63,58,56,34,8,4,1.0,0.8
2025-01-10T2000,2255A,130.2751,46.8028,佳木斯市,佳纺,细颗粒物(PM2.5),87,71,43,64,40,30,,65,53,50,17,14,6,1.0,0.7
2025-01-10T2000,2256A,130.3995,46.8307,佳木斯市,发电厂,细颗粒物(PM2.5),62,,32,44,32,32,,62,53,41,19,8,6,0.8,0.7
2025-01-10T2000,2257A,130.3258,46.7975,佳木斯市,环保局,细颗粒物(PM2.5),59,59,41,42,33,22,,56,45,54,24,15,9,0.9,0.6
2025-01-10T2000,2258A,130.3648,46.8032,佳木斯市,十一中,细颗粒物(PM2.5),63,48,34,45,33,40,,59,54,41,21,9,6,0.8,0.6
2025-01-10T2000,2259A,130.3794,46.7588,佳木斯市,四丰,颗粒物(PM10),52,54,55,30,39,60,,65,64,11,13,1,1,0.7,0.8
2025-01-10T2000,1252A,120.7436,30.778,嘉兴市,清河小学,颗粒物(PM10),59,68,39,41,17,22,,59,50,64,31,12,12,1.0,1
2025-01-10T2000,1253A,120.726,30.7478,嘉兴市,嘉兴学院,,,,37,,20,31,,65,57,53,25,9,9,0.6,0.7
2025-01-10T2000,2872A,120.7846,30.7525,嘉兴市,南湖区残联,细颗粒物(PM2.5),77,64,44,56,25,33,,64,57,56,24,10,10,0.8,0.8
2025-01-10T2000,3407A,120.6916,30.7739,嘉兴市,秀洲住建,颗粒物(PM10),77,103,53,22,11,28,,66,58,59,29,9,8,0.6,0.6
2025-01-10T2000,1945A,98.2908,39.7711,嘉峪关市,气象局,颗粒物(PM10),117,183,108,22,12,93,,89,89,4,9,6,6,0.0,0
2025-01-10T2000,2884A,98.2672,39.7978,嘉峪关市,酒钢宾馆,颗粒物(PM10),114,178,112,19,14,93,,83,83,4,10,9,17,0.5,0.5
2025-01-10T2000,3248A,98.2643,39.7724,嘉峪关市,雄关区,颗粒物(PM10),120,189,90,22,14,93,,90,90,9,14,6,7,0.5,0.4
2025-01-10T2000,1383A,113.1064,22.6058,江门市,北街,,48,48,53,23,24,64,,87,86,49,30,7,7,0.6,0.6
2025-01-10T2000,1384A,113.0731,22.5835,江门市,西区,颗粒物(PM10),56,61,67,26,25,69,,84,84,37,24,10,10,0.6,0.5
2025-01-10T2000,1385A,113.0219,22.5311,江门市,圭峰西,,37,37,51,21,26,81,,90,90,29,29,8,8,0.6,0.6
2025-01-10T2000,1386A,113.0828,22.5947,江门市,东湖,,47,47,53,24,33,71,,87,86,32,25,9,9,0.5,0.5
2025-01-10T2000,3311A,113.1075,22.5647,江门市,江海富民,颗粒物(PM10),55,59,71,20,27,64,,87,86,48,32,10,9,0.5,0.5
2025-01-10T2000,3449A,113.05,22.4667,江门市,新会银湖,,41,41,53,22,27,46,,84,81,60,31,8,8,0.5,0.5
2025-01-10T2000,1828A,113.227,35.2125,焦作市,市环保局,细颗粒物(PM2.5),93,110,80,69,45,31,,48,44,41,30,13,10,1.4,0.9
2025-01-10T2000,1830A,113.1992,35.2590,焦作市,影视城,细颗粒物(PM2.5),78,79,69,57,40,46,,51,49,32,24,14,13,1.3,1.2
2025-01-10T2000,3169A,113.2725,35.2067,焦作市,太极体育中心,颗粒物(PM10),93,136,92,35,30,28,,48,44,55,40,16,14,0.9,0.6
2025-01-10T2000,3335A,113.3137,35.2641,焦作市,马村街道办,细颗粒物(PM2.5),102,127,82,76,44,25,,45,40,48,28,14,11,1.9,0.9
2025-01-10T2000,3336A,113.2465,35.2373,焦作市,焦作技师学院,细颗粒物(PM2.5),98,115,77,73,42,29,,49,46,60,39,19,11,0.9,0.4
2025-01-10T2000,3477A,113.1656,35.2539,焦作市,中站许衡医院,细颗粒物(PM2.5),85,105,69,63,40,18,,45,36,56,29,24,11,1.0,0.8
2025-01-10T2000,3981A,113.2449,35.1803,焦作市,原李万街道办,颗粒物(PM10),92,134,85,61,44,32,,48,44,40,34,12,9,1.1,0.9
2025-01-10T2000,1708A,116.3701,23.5345,揭阳市,新兴,颗粒物(PM10),60,69,61,42,37,106,,101,101,24,21,7,8,0.6,0.6
2025-01-10T2000,1709A,116.3264,23.5443,揭阳市,西马,颗粒物(PM10),68,85,64,40,30,112,,104,104,22,19,8,9,0.6,0.5
2025-01-10T2000,1710A,116.3611,23.5626,揭阳市,东兴,颗粒物(PM10),62,73,66,40,32,105,,102,102,24,23,10,11,0.7,0.7
2025-01-10T2000,1711A,116.4151,23.5294,揭阳市,渔湖,细颗粒物(PM2.5),69,72,68,50,33,111,,111,111,25,23,17,13,0.7,0.7
2025-01-10T2000,3320A,116.403,23.5699,揭阳市,曲溪,颗粒物(PM10),68,86,68,47,38,113,,112,112,30,32,3,3,0.8,0.7
2025-01-10T2000,1944A,102.1692,38.5167,金昌市,天庆家园,颗粒物(PM10),56,62,77,12,28,84,,84,84,4,14,13,34,0.7,0.8
2025-01-10T2000,3170A,102.1864,38.5253,金昌市,市委党校,,50,50,95,18,29,85,,74,74,5,16,7,66,0.5,0.7
2025-01-10T2000,4022A,102.1647,38.5371,金昌市,金川区人防中心,颗粒物(PM10),76,101,95,11,27,90,,88,88,5,13,10,17,0.5,0.6
2025-01-10T2000,1262A,119.647,29.077,金华市,十五中,颗粒物(PM10),66,82,44,46,16,13,,62,52,76,37,4,4,0.6,0.6
2025-01-10T2000,1263A,119.686,29.1029,金华市,监测站,颗粒物(PM10),66,82,47,45,21,6,,60,49,82,42,6,6,0.7,0.5
2025-01-10T2000,3659A,119.656,29.1131,金华市,气象局,颗粒物(PM10),71,92,45,50,19,2,,51,43,84,40,5,4,0.7,0.5
2025-01-10T2000,1767A,121.1115,41.0879,锦州市,南山,细颗粒物(PM2.5),152,,65,116,52,31,,68,60,60,40,63,19,1.5,1.1
2025-01-10T2000,1768A,121.0533,40.8434,锦州市,开发区,颗粒物(PM10),63,75,83,25,38,7,,67,57,85,51,20,39,0.5,1
2025-01-10T2000,1769A,121.1836,41.1119,锦州市,百股街道,细颗粒物(PM2.5),122,124,64,92,45,27,,65,50,51,35,18,14,1.7,0.9
2025-01-10T2000,1770A,121.1178,41.1222,锦州市,天安街道,颗粒物(PM10),53,56,52,35,28,27,,67,54,48,28,12,15,0.9,0.9
2025-01-10T2000,1771A,121.1303,41.1386,锦州市,北湖公园,细颗粒物(PM2.5),102,96,37,76,22,18,,68,54,57,16,24,13,1.3,0.7
2025-01-10T2000,2160A,112.85,35.5051,晋城市,自来水公司,,46,46,64,17,38,55,,64,64,23,36,8,13,0.5,0.9
2025-01-10T2000,2161A,112.8318,35.4936,晋城市,白云商贸,颗粒物(PM10),65,79,76,17,34,58,,65,65,24,35,8,13,0.6,1
2025-01-10T2000,2162A,112.8508,35.4887,晋城市,市环保局,颗粒物(PM10),53,56,72,19,38,57,,65,65,24,37,8,13,0.6,0.9
2025-01-10T2000,2163A,112.8676,35.4897,晋城市,技术学院,,41,41,70,19,36,60,,70,70,24,39,7,13,0.6,0.9
2025-01-10T2000,2165A,112.8453,35.546,晋城市,白马寺,,45,45,60,28,37,40,,47,47,14,20,12,20,0.5,0.9
2025-01-10T2000,3620A,112.8271,35.4828,晋城市,泽州一中,,47,47,67,19,37,59,,66,66,24,36,8,14,0.5,1.1
2025-01-10T2000,2171A,112.7532,37.6945,晋中市,锦纶小区,颗粒物(PM10),76,102,60,29,25,26,,44,42,46,34,11,15,0.5,0.5
2025-01-10T2000,2173A,112.7249,37.7067,晋中市,南都小区,颗粒物(PM10),68,85,59,40,28,28,,46,44,47,38,11,17,0.6,0.6
2025-01-10T2000,2174A,112.6991,37.6982,晋中市,榆次区政府,颗粒物(PM10),68,85,62,39,29,27,,43,41,47,36,13,15,0.7,0.7
2025-01-10T2000,2865A,112.7195,37.6828,晋中市,榆次三中,颗粒物(PM10),80,110,64,41,26,27,,43,42,43,37,14,17,0.7,0.7
2025-01-10T2000,2439A,112.2014,31.0481,荆门市,竹园小学,颗粒物(PM10),115,180,91,68,49,45,,73,72,48,32,12,13,0.8,0.7
2025-01-10T2000,2440A,112.1969,30.9891,荆门市,掇刀,细颗粒物(PM2.5),109,111,84,82,44,23,,75,70,74,32,13,12,1.0,0.7
2025-01-10T2000,2441A,112.2213,31.0386,荆门市,石化一小,细颗粒物(PM2.5),94,102,100,70,54,30,,74,72,64,38,10,10,0.7,0.6
2025-01-10T2000,3012A,112.1849,31.0362,荆门市,西山林语,细颗粒物(PM2.5),80,73,71,59,43,67,,78,78,23,24,9,10,0.6,0.6
2025-01-10T2000,3547A,112.1632,31.0138,荆门市,龙泉中学南校,细颗粒物(PM2.5),87,98,79,64,49,47,,74,72,37,20,10,13,0.7,0.8
2025-01-10T2000,1844A,112.2494,30.3197,荆州市,市图书馆,细颗粒物(PM2.5),64,67,73,46,56,63,,76,76,38,33,7,9,0.7,0.7
2025-01-10T2000,1845A,112.2008,30.3544,荆州市,市委党校,颗粒物(PM10),61,72,77,41,55,49,,66,66,43,38,8,8,0.6,0.6
2025-01-10T2000,3194A,112.2747,30.3122,荆州市,管委会,细颗粒物(PM2.5),64,73,79,46,60,56,,76,76,32,28,6,8,0.8,0.8
2025-01-10T2000,3548A,112.1655,30.3364,荆州市,学苑路,细颗粒物(PM2.5),72,69,74,52,56,70,,74,74,40,50,11,11,0.8,0.8
2025-01-10T2000,2342A,117.3102,29.3867,景德镇市,王港中学,,,,,,,,,,,,,,,,
2025-01-10T2000,2343A,117.2117,29.2933,景德镇市,老干部活动中心,,48,46,29,33,20,22,,63,59,43,17,7,6,0.9,0.7
2025-01-10T2000,2344A,117.1894,29.2789,景德镇市,兽医站,颗粒物(PM10),52,54,41,20,14,30,,73,69,44,14,15,4,0.6,0.5
2025-01-10T2000,2345A,117.1547,29.2617,景德镇市,台达陶瓷,颗粒物(PM10),62,74,38,36,17,32,,70,65,60,22,69,20,0.5,0.4
2025-01-10T2000,2346A,117.2461,29.2956,景德镇市,陶研所,,,55,30,14,16,28,,72,66,,12,20,5,0.5,0.5
2025-01-10T2000,1803A,115.9872,29.6815,九江市,十里,细颗粒物(PM2.5),58,52,35,41,26,30,,72,68,45,20,8,8,0.6,0.5
2025-01-10T2000,1804A,115.9584,29.7046,九江市,茅山头,细颗粒物(PM2.5),64,61,38,46,25,65,,74,73,31,21,9,9,0.7,0.6
2025-01-10T2000,1805A,115.9877,29.7295,九江市,西园,颗粒物(PM10),51,51,33,30,25,49,,62,61,37,24,7,7,0.3,0.5
2025-01-10T2000,1806A,116.0172,29.6547,九江市,五七二七厂,颗粒物(PM10),51,51,42,26,23,56,,64,64,22,22,7,7,0.7,0.5
2025-01-10T2000,1808A,115.9114,29.6038,九江市,综合工业园,细颗粒物(PM2.5),67,62,36,48,27,44,,68,66,49,26,10,9,0.3,0.4
2025-01-10T2000,1809A,116.0721,29.7535,九江市,石化总厂,细颗粒物(PM2.5),53,54,44,37,30,48,,70,68,31,14,10,11,0.5,0.5
2025-01-10T2000,1810A,115.9773,29.5698,九江市,庐山气象台,,36,30,22,25,15,76,,74,74,9,9,15,8,0.8,0.8
2025-01-10T2000,3190A,116.0254,29.6994,九江市,外国语学校,细颗粒物(PM2.5),52,51,44,36,23,36,,62,58,37,20,10,8,0.6,0.5
2025-01-10T2000,2658A,98.5061,39.7443,酒泉市,仓门街子站,颗粒物(PM10),430,530,212,38,24,92,,88,88,4,8,5,7,0.2,0.3
2025-01-10T2000,2659A,98.4989,39.7256,酒泉市,油田生活基地,颗粒物(PM10),125,200,162,24,19,86,,84,84,5,9,5,7,0.3,0.3
2025-01-10T2000,2698A,76.0072,39.4467,喀什地区,巡警大队,颗粒物(PM10),60,70,128,40,58,82,,67,67,22,58,6,6,0.8,1.9
2025-01-10T2000,2699A,75.9755,39.4694,喀什地区,吾办,颗粒物(PM10),73,96,130,45,80,75,,62,62,28,56,3,3,1.0,2
2025-01-10T2000,4027A,75.9483,39.4689,喀什地区,老干局,颗粒物(PM10),74,97,141,46,68,69,,69,69,40,52,7,5,1.2,2.3
2025-01-10T2000,1824A,114.3389,34.7781,开封市,肿瘤医院,细颗粒物(PM2.5),110,132,93,83,59,16,,52,46,64,50,7,6,0.8,0.6
2025-01-10T2000,1826A,114.2885,34.7965,开封市,世纪星幼儿园,细颗粒物(PM2.5),113,120,92,85,65,19,,48,42,62,50,5,5,0.6,0.6
2025-01-10T2000,3147A,114.3438,34.8106,开封市,龙亭公园,细颗粒物(PM2.5),112,122,83,84,54,17,,54,48,74,56,6,5,1.2,0.9
2025-01-10T2000,3210A,114.3644,34.7964,开封市,汴京公园,细颗粒物(PM2.5),127,149,98,96,63,6,,55,46,86,59,8,6,0.9,0.7
2025-01-10T2000,3473A,114.2485,34.8306,开封市,技师学院,颗粒物(PM10),73,96,76,51,40,37,,51,48,49,50,5,5,0.5,0.5
2025-01-10T2000,3592A,114.4644,34.7556,开封市,祥符区生态环境局,细颗粒物(PM2.5),135,176,100,103,62,11,,56,43,80,55,8,6,0.8,0.5
2025-01-10T2000,1951A,84.895,45.6094,克拉玛依市,长征新村,细颗粒物(PM2.5),60,64,87,43,57,59,,59,59,26,29,5,5,0.9,0.9
2025-01-10T2000,1952A,84.8988,45.5893,克拉玛依市,南林小区,"颗粒物(PM10),细颗粒物(PM2.5)",59,68,82,42,60,55,,61,61,25,18,6,6,1.1,1.2
2025-01-10T2000,1954A,84.905,44.3396,克拉玛依市,独山子区,细颗粒物(PM2.5),68,52,31,49,27,39,,72,57,49,24,5,5,0.7,0.4
2025-01-10T2000,1955A,85.6979,46.098,克拉玛依市,乌尔禾区商贸楼,细颗粒物(PM2.5),52,36,44,36,39,60,,68,66,36,32,4,4,0.9,0.9
2025-01-10T2000,3612A,85.1045,45.6899,克拉玛依市,白碱滩区新站,"颗粒物(PM10),细颗粒物(PM2.5)",59,68,75,42,52,62,,62,61,23,19,4,4,1.3,1.3
2025-01-10T2000,2697A,76.1454,39.7142,克孜勒苏柯尔克孜自治州,市人民政府,"颗粒物(PM10),细颗粒物(PM2.5)",59,67,62,42,38,76,,82,82,22,14,5,4,0.8,0.6
2025-01-10T2000,3665A,76.1658,39.7157,克孜勒苏柯尔克孜自治州,克州文化中心,细颗粒物(PM2.5),58,64,58,41,37,78,,82,82,20,17,8,7,0.6,0.5
2025-01-10T2000,1450A,102.8204,24.8886,昆明市,呈贡新区,,32,31,21,22,17,20,,34,23,19,15,5,3,0.8,0.7
2025-01-10T2000,1451A,102.6251,24.9608,昆明市,西山森林公园,,,,,,,,,,,,,,,,
2025-01-10T2000,1452A,102.7252,25.0902,昆明市,龙泉镇,细颗粒物(PM2.5),54,,27,38,20,18,,26,23,28,22,6,6,0.9,0.9
2025-01-10T2000,1453A,102.7266,25.0375,昆明市,东风东路,,48,44,30,33,24,10,,19,13,29,25,5,5,0.9,0.8
2025-01-10T2000,1454A,102.6742,25.0669,昆明市,金鼎山,,,48,33,,25,11,,23,16,35,28,7,5,1.2,1
2025-01-10T2000,1455A,102.6644,25.0401,昆明市,碧鸡广场,细颗粒物(PM2.5),52,50,34,36,23,7,,18,12,40,31,4,4,1.1,0.9
2025-01-10T2000,3179A,102.7494,25.0119,昆明市,官渡区博物馆,,49,38,32,34,24,8,,18,13,34,28,6,9,0.8,0.8
2025-01-10T2000,3375A,102.8017,24.8336,昆明市,青年创业园,,20,20,21,14,16,14,,30,24,22,15,4,4,0.8,0.8
2025-01-10T2000,3550A,102.7997,24.9786,昆明市,昆明学院,,45,45,28,19,13,8,,25,18,32,22,8,8,0.8,0.7
2025-01-10T2000,3551A,102.5967,24.6736,昆明市,晋宁区生态环境分局,颗粒物(PM10),56,61,46,34,27,28,,37,34,19,16,1,1,0.7,0.6
2025-01-10T2000,3552A,102.6678,24.9856,昆明市,云天化总部,,50,50,31,34,22,6,,24,16,41,27,5,5,1.0,0.8
2025-01-10T2000,1456A,91.1319,29.6514,拉萨市,八廓街,,48,48,24,25,13,54,,97,94,57,21,8,6,0.8,0.4
2025-01-10T2000,1457A,91.1221,29.6747,拉萨市,市环保局,细颗粒物(PM2.5),57,59,50,40,27,70,,97,96,43,34,8,6,1.0,1.2
2025-01-10T2000,1458A,91.0874,29.6475,拉萨市,区监测站,,33,22,23,14,14,60,,100,99,66,37,7,6,0.6,0.6
2025-01-10T2000,1459A,91.1774,29.6541,拉萨市,西藏大学,,29,26,23,12,11,90,,104,104,30,16,7,5,0.4,0.4
2025-01-10T2000,1460A,90.9798,29.6588,拉萨市,区辐射站,颗粒物(PM10),51,52,37,35,26,46,,92,90,77,40,13,9,1.0,0.8
2025-01-10T2000,1461A,91.0834,29.6292,拉萨市,拉萨火车站,,29,15,24,14,16,92,,106,106,27,37,4,4,0.6,0.9
2025-01-10T2000,2520A,109.2203,23.7256,来宾市,来宾技工学校,细颗粒物(PM2.5),65,51,52,47,36,82,,91,91,18,15,6,5,0.6,0.6
2025-01-10T2000,3535A,109.1781,23.7297,来宾市,兴宾区政府,细颗粒物(PM2.5),55,55,39,39,27,81,,93,93,25,15,7,5,0.7,0.7
2025-01-10T2000,4002A,109.2416,23.7461,来宾市,中南小学,细颗粒物(PM2.5),78,60,44,57,31,78,,92,92,23,13,9,4,0.8,0.7
2025-01-10T2000,1476A,103.631,36.1031,兰州市,兰炼宾馆,颗粒物(PM10),61,72,85,41,33,64,,68,65,31,26,15,15,0.5,0.5
2025-01-10T2000,1477A,104.1373,35.9454,兰州市,榆中兰大校区,,,,,,,,,,,,,,,,
2025-01-10T2000,1478A,103.8412,36.0726,兰州市,生物制品所,颗粒物(PM10),64,77,83,40,36,54,,68,64,33,35,14,13,0.5,0.5
2025-01-10T2000,1479A,103.831,36.0464,兰州市,铁路设计院,颗粒物(PM10),69,87,86,39,36,31,,60,57,67,43,12,9,0.8,0.6
2025-01-10T2000,3186A,103.7158,36.1058,兰州市,教育港,颗粒物(PM10),71,92,97,40,36,45,,66,63,44,28,17,16,0.6,0.5
2025-01-10T2000,3241A,103.7439,36.0842,兰州市,百合公园,颗粒物(PM10),57,63,80,28,26,46,,66,64,44,28,12,11,0.7,0.6
2025-01-10T2000,3242A,103.9611,35.998,兰州市,和平,颗粒物(PM10),63,75,81,37,31,51,,77,74,40,28,16,14,0.7,0.6
2025-01-10T2000,3245A,103.6633,36.533,兰州新区,新区管委会,颗粒物(PM10),53,56,79,35,37,71,,80,80,19,17,12,10,0.4,0.5
2025-01-10T2000,3246A,103.6975,36.4789,兰州新区,舟曲中学,颗粒物(PM10),70,89,98,40,30,65,,76,75,21,16,11,10,0.4,0.3
2025-01-10T2000,1067A,116.6708,39.5111,廊坊市,药材公司,颗粒物(PM10),51,51,25,24,13,8,,56,44,76,44,4,3,0.7,0.5
2025-01-10T2000,1068A,116.7214,39.5589,廊坊市,开发区,,40,40,20,18,9,12,,62,47,69,40,4,3,0.6,0.4
2025-01-10T2000,1070A,116.7244,39.5269,廊坊市,北华航天学院,颗粒物(PM10),51,51,26,22,11,21,,61,50,63,31,4,3,0.6,0.4
2025-01-10T2000,2919A,116.7022,39.5453,廊坊市,河北工业大学,颗粒物(PM10),85,119,27,34,13,15,,61,54,67,41,5,4,0.6,0.4
2025-01-10T2000,2535A,103.7723,29.5462,乐山市,花湖湾,细颗粒物(PM2.5),93,70,88,69,78,13,,41,40,43,18,5,5,0.6,0.5
2025-01-10T2000,2536A,103.7627,29.5844,乐山市,牛耳桥,细颗粒物(PM2.5),84,73,64,62,56,6,,35,33,50,24,5,5,0.7,0.6
2025-01-10T2000,2537A,103.7508,29.6006,乐山市,市第三水厂,细颗粒物(PM2.5),83,70,62,61,55,8,,37,36,53,24,4,4,0.7,0.6
2025-01-10T2000,2538A,103.7571,29.5664,乐山市,市监测站,细颗粒物(PM2.5),73,55,51,53,43,14,,36,36,34,15,4,4,0.7,0.7
2025-01-10T2000,3361A,103.7311,29.5628,乐山市,理工大学,细颗粒物(PM2.5),84,64,60,62,53,7,,40,36,45,18,7,7,0.6,0.5
2025-01-10T2000,2598A,100.2143,26.8576,丽江市,西南郊,,25,14,20,3,14,78,,89,88,7,6,4,4,1.5,1.2
2025-01-10T2000,2599A,100.2497,26.8802,丽江市,丽江古城,,,30,26,20,24,65,,84,82,20,10,,8,0.8,0.7
2025-01-10T2000,2600A,100.2203,26.8906,丽江市,市中心,,23,20,13,16,10,67,,82,81,18,10,10,9,0.6,0.6
2025-01-10T2000,1267A,119.914,28.4514,丽水市,监测站大楼,,43,40,34,30,18,52,,68,67,28,20,5,5,0.4,0.4
2025-01-10T2000,1268A,119.93,28.4586,丽水市,莲都小学,,50,50,34,26,16,56,,72,70,31,21,7,7,0.5,0.5
2025-01-10T2000,1269A,119.879,28.4231,丽水市,余庄前,,48,48,28,29,16,43,,75,71,26,21,4,4,0.3,0.3
2025-01-10T2000,1173A,119.176,34.5885,连云港市,市环境监测站,颗粒物(PM10),59,68,38,36,17,19,,65,54,65,33,18,13,1.1,1
2025-01-10T2000,3000A,119.3581,34.6972,连云港市,德源药业,颗粒物(PM10),69,88,41,41,19,7,,55,45,71,36,15,10,0.5,0.5
2025-01-10T2000,3007A,119.178,34.844,连云港市,新城一中,细颗粒物(PM2.5),55,53,46,39,26,42,,63,58,46,40,11,12,1.0,1
2025-01-10T2000,3008A,119.3608,34.7519,连云港市,胡沟管理处,,48,48,29,19,15,6,,53,45,68,26,6,7,0.6,0.7
2025-01-10T2000,3009A,119.1478,34.5911,连云港市,矿山设计院,"颗粒物(PM10),细颗粒物(PM2.5)",62,73,43,44,20,15,,58,47,62,36,23,12,0.8,0.7
2025-01-10T2000,3434A,119.2413,34.6539,连云港市,工贸学校,颗粒物(PM10),56,61,43,30,21,44,,67,62,31,28,17,12,0.7,0.8
2025-01-10T2000,3664A,119.4172,34.7341,连云港市,连云街道,,36,36,40,18,14,64,,60,60,17,24,10,12,0.6,0.7
2025-01-10T2000,2571A,102.3431,27.8099,凉山彝族自治州,青龙寺,,19,19,21,8,9,44,,65,64,7,9,5,5,0.6,0.6
2025-01-10T2000,2572A,102.2721,27.8415,凉山彝族自治州,邛海宾馆,,25,24,19,17,13,50,,58,58,13,11,8,9,0.7,0.7
2025-01-10T2000,2573A,102.2625,27.898,凉山彝族自治州,西昌市政府,,38,27,23,26,18,46,,59,59,21,13,9,8,0.8,0.7
2025-01-10T2000,2574A,102.2685,27.8851,凉山彝族自治州,凉山州政府,,28,25,21,19,16,50,,59,59,15,12,8,9,0.6,0.6
2025-01-10T2000,2575A,102.237,27.8914,凉山彝族自治州,长安,,43,42,23,30,18,44,,58,57,24,15,10,8,1.0,0.8
2025-01-10T2000,2212A,123.2,41.1953,辽阳市,宏伟区,细颗粒物(PM2.5),83,63,73,61,45,18,,40,38,46,31,13,15,0.8,0.8
2025-01-10T2000,2213A,123.1683,41.2495,辽阳市,新华园,细颗粒物(PM2.5),69,76,90,50,57,34,,41,41,46,50,10,20,1.2,1.6
2025-01-10T2000,2214A,123.2354,41.2639,辽阳市,滨河路,细颗粒物(PM2.5),92,74,71,68,49,28,,43,43,49,38,9,13,0.9,0.9
2025-01-10T2000,2215A,123.149,41.2991,辽阳市,铁西工业园,细颗粒物(PM2.5),82,107,101,60,67,2,,38,31,63,43,22,10,1.3,1.4
2025-01-10T2000,2227A,125.1358,42.8845,辽源市,环保局,细颗粒物(PM2.5),92,88,62,68,44,15,,58,50,62,41,12,14,2.4,1.1
2025-01-10T2000,3239A,125.0764,42.9078,辽源市,银鹰制药,细颗粒物(PM2.5),94,78,46,70,38,11,,60,48,59,36,9,7,1.3,0.7
2025-01-10T2000,1625A,115.9848,36.4372,聊城市,区政府,细颗粒物(PM2.5),79,103,57,58,29,15,,63,56,76,34,17,14,1.2,0.8
2025-01-10T2000,2878A,116.0072,36.4343,聊城市,聊大东校,,,119,70,,35,11,,58,49,84,40,12,12,1.0,0.7
2025-01-10T2000,3200A,115.9819,36.4978,聊城市,监控中心,细颗粒物(PM2.5),119,156,69,90,33,10,,57,47,92,52,22,16,1.4,0.9
2025-01-10T2000,3513A,116.0445,36.4361,聊城市,九州社区,细颗粒物(PM2.5),84,114,64,62,34,14,,63,57,78,38,15,13,0.7,0.5
2025-01-10T2000,4018A,116.0567,36.4608,聊城市,星美广场,细颗粒物(PM2.5),114,154,65,86,31,8,,59,52,72,29,20,15,0.8,0.6
2025-01-10T2000,2632A,94.3681,29.6376,林芝市,林芝监测站,,44,44,9,12,7,90,,89,89,1,2,6,6,0.4,0.4
2025-01-10T2000,2633A,94.3616,29.6616,林芝市,林芝人民医院,,44,44,13,10,7,85,,84,84,4,6,6,6,0.5,0.5
2025-01-10T2000,2603A,100.0781,23.8982,临沧市,市环保局,细颗粒物(PM2.5),82,63,36,60,26,51,,77,77,33,15,14,10,0.7,0.4
2025-01-10T2000,2604A,100.0894,23.8822,临沧市,市气象局,,46,42,34,32,27,56,,73,73,22,16,10,10,0.7,0.5
2025-01-10T2000,1733A,111.5531,36.0783,临汾市,临钢医院,,20,20,67,9,35,49,,49,49,17,34,2,8,0.6,1.1
2025-01-10T2000,1734A,111.5028,36.0714,临汾市,技工学校,,33,31,74,23,45,55,,50,50,14,34,4,14,0.3,1.1
2025-01-10T2000,1736A,111.5018,36.0855,临汾市,市委,,30,30,80,7,34,55,,54,54,18,37,3,13,0.3,0.9
2025-01-10T2000,3018A,111.505,36.1014,临汾市,唐尧大酒店,,45,45,82,8,34,50,,51,51,17,36,4,11,0.4,0.8
2025-01-10T2000,3668A,111.5036,36.0414,临汾市,城南,,38,,70,26,42,60,,50,50,13,37,1,8,0.4,1
2025-01-10T2000,2667A,103.2069,35.5993,临夏回族自治州,环保局,颗粒物(PM10),60,69,75,36,32,56,,60,60,15,15,8,11,0.5,0.5
2025-01-10T2000,2668A,103.2417,35.6057,临夏回族自治州,建设大厦,颗粒物(PM10),67,84,83,44,42,56,,67,66,15,17,10,13,0.6,0.7
2025-01-10T2000,1618A,118.3429,35.0532,临沂市,沂河小区,颗粒物(PM10),65,80,47,40,25,27,,59,56,59,38,33,17,0.7,0.6
2025-01-10T2000,1619A,118.295,35.0583,临沂市,鲁南制药厂,颗粒物(PM10),79,107,56,52,25,7,,62,54,79,38,44,17,0.7,0.3
2025-01-10T2000,1620A,118.2794,34.9976,临沂市,新光毛纺厂,细颗粒物(PM2.5),73,85,48,53,27,20,,65,58,59,34,25,14,0.8,0.6
2025-01-10T2000,1621A,118.3956,35.0888,临沂市,河东保险公司,颗粒物(PM10),58,66,45,35,22,37,,59,58,43,36,17,10,0.9,0.7
2025-01-10T2000,3370A,118.3564,35.0215,临沂市,十里堡居委,颗粒物(PM10),59,68,46,41,23,33,,62,58,46,33,20,16,0.7,0.5
2025-01-10T2000,3496A,118.3604,35.1084,临沂市,南坊新区,颗粒物(PM10),63,75,44,41,23,29,,61,58,58,37,17,10,0.7,0.4
2025-01-10T2000,3860A,118.3920,35.0300,临沂市,皇山花园小区,颗粒物(PM10),59,68,45,31,17,34,,61,59,50,37,18,11,0.3,0.2
2025-01-10T2000,1870A,109.4856,24.3895,柳州市,柳东小学,细颗粒物(PM2.5),59,61,39,42,28,70,,83,83,15,13,11,10,0.7,0.6
2025-01-10T2000,1871A,109.4157,24.3277,柳州市,环保监测站,颗粒物(PM10),57,63,41,36,28,68,,79,79,18,14,11,11,0.5,0.5
2025-01-10T2000,1872A,109.389,24.341,柳州市,河西水厂,细颗粒物(PM2.5),64,69,55,46,34,51,,74,72,34,29,24,21,2.2,1.8
2025-01-10T2000,1873A,109.4311,24.2921,柳州市,市四中,,48,36,33,33,32,72,,84,84,15,11,8,8,0.5,0.6
2025-01-10T2000,1874A,109.4006,24.3631,柳州市,市九中,,,,35,,29,,,79,79,18,16,8,8,0.7,0.7
2025-01-10T2000,1875A,109.4958,24.3134,柳州市,古亭山,,46,37,32,32,25,72,,86,86,12,10,11,11,0.6,0.7
2025-01-10T2000,3402A,109.5422,24.3996,柳州市,市二中,细颗粒物(PM2.5),54,41,36,38,30,66,,80,80,15,16,10,10,0.6,0.6
2025-01-10T2000,2307A,116.5079,31.737,六安市,监测大楼,细颗粒物(PM2.5),55,57,57,39,37,55,,66,65,29,30,6,6,0.5,0.6
2025-01-10T2000,2308A,116.4738,31.7643,六安市,皖西学院,"颗粒物(PM10),细颗粒物(PM2.5)",52,53,65,36,38,56,,70,69,31,29,6,5,0.5,0.7
2025-01-10T2000,2309A,116.4996,31.7905,六安市,朝阳厂,颗粒物(PM10),51,51,51,33,37,50,,70,68,35,28,3,4,0.4,0.4
2025-01-10T2000,2310A,116.5567,31.7886,六安市,开发区,颗粒物(PM10),62,74,72,35,43,28,,71,65,52,36,5,4,0.6,0.6
2025-01-10T2000,2576A,104.8,26.5892,六盘水市,窑上,,33,32,37,23,20,23,,70,36,28,12,9,8,0.8,0.6
2025-01-10T2000,2577A,104.83,26.5917,六盘水市,黄土坡,细颗粒物(PM2.5),59,54,26,42,21,27,,65,34,31,16,16,10,1.1,0.7
2025-01-10T2000,2578A,104.89,26.5939,六盘水市,水钢,细颗粒物(PM2.5),62,,28,44,22,39,,66,44,23,13,11,6,0.8,0.6
2025-01-10T2000,2579A,104.8475,26.5894,六盘水市,民中,细颗粒物(PM2.5),58,50,25,41,18,34,,64,40,27,14,15,10,1.0,0.7
2025-01-10T2000,2580A,104.9544,26.5506,六盘水市,双水,细颗粒物(PM2.5),60,44,25,43,21,45,,65,49,22,11,11,8,0.8,0.7
2025-01-10T2000,2335A,117.0189,25.1181,龙岩市,龙岩师专,,,,,,,,,,,,,,,,
2025-01-10T2000,2336A,117.0217,25.1033,龙岩市,龙岩市监测站,,30,24,36,21,21,90,,96,96,19,16,7,8,0.4,0.4
2025-01-10T2000,2337A,117.0258,25.0661,龙岩市,闽西职业技术学院,,31,23,35,18,20,97,,97,97,10,10,4,5,0.5,0.5
2025-01-10T2000,2338A,117.0196,25.0306,龙岩市,龙岩学院,,28,28,36,18,20,89,,94,94,17,12,4,5,0.3,0.4
2025-01-10T2000,2665A,105.0822,33.3261,陇南市,汉王镇固水子,,,,,,,,,,,,,,,,
2025-01-10T2000,2885A,104.9339,33.3826,陇南市,滨江中学,颗粒物(PM10),61,72,59,37,36,68,,76,76,16,24,6,44,0.5,0.8
2025-01-10T2000,3247A,104.955,33.371,陇南市,市总工会,颗粒物(PM10),56,61,59,26,32,75,,79,78,12,20,4,14,0.6,0.7
2025-01-10T2000,2487A,111.9589,27.8901,娄底市,电视发射台,细颗粒物(PM2.5),52,44,39,36,34,77,,88,88,18,17,8,8,0.5,0.5
2025-01-10T2000,2488A,111.9975,27.725,娄底市,市监测站,细颗粒物(PM2.5),67,68,65,48,41,82,,92,92,22,25,10,13,0.5,0.6
2025-01-10T2000,2489A,112.0194,27.7314,娄底市,市委党校,颗粒物(PM10),60,69,63,40,38,74,,82,82,28,27,6,9,0.5,0.6
2025-01-10T2000,2490A,111.9561,27.7569,娄底市,涟钢,细颗粒物(PM2.5),82,96,59,60,41,73,,83,83,27,16,5,5,1.2,0.5
2025-01-10T2000,2491A,111.9892,27.7044,娄底市,市政府,细颗粒物(PM2.5),67,66,58,48,41,78,,83,83,22,21,6,6,0.7,0.8
2025-01-10T2000,1893A,105.4324,28.9634,泸州市,九狮山,,,,,,,,,,,,,,,,
2025-01-10T2000,1894A,105.4427,28.9063,泸州市,小市上码头,,49,45,40,34,34,24,,36,36,30,26,3,2,0.5,0.6
2025-01-10T2000,1895A,105.4241,28.8573,泸州市,兰田宪桥,细颗粒物(PM2.5),52,39,29,36,37,20,,39,38,34,24,3,3,0.7,0.7
2025-01-10T2000,1896A,105.4379,28.8833,泸州市,市环监站,,46,38,38,32,32,13,,31,31,35,25,4,4,0.5,0.5
2025-01-10T2000,3490A,105.3617,28.7703,泸州市,纳溪区环保局,颗粒物(PM10),54,58,39,35,36,17,,34,34,28,22,4,4,0.7,0.7
2025-01-10T2000,2183A,111.1406,37.5211,吕梁市,环保局,颗粒物(PM10),64,78,65,43,22,4,,49,47,59,37,3,5,0.6,0.5
2025-01-10T2000,2185A,111.1297,37.5136,吕梁市,自来水公司,颗粒物(PM10),58,65,96,35,28,35,,50,50,30,33,5,11,0.5,0.6
2025-01-10T2000,2867A,111.1283,37.51,吕梁市,马茂庄小学,颗粒物(PM10),72,93,71,38,21,14,,53,52,49,39,18,8,0.7,0.6
2025-01-10T2000,1812A,112.3931,34.6516,洛阳市,市委党校,颗粒物(PM10),69,88,97,39,48,46,,48,48,30,48,8,10,0.6,0.8
2025-01-10T2000,1814A,112.4657,34.6871,洛阳市,豫西宾馆,颗粒物(PM10),81,112,111,48,55,40,,46,46,39,44,10,8,0.9,1
2025-01-10T2000,1815A,112.494,34.6886,洛阳市,河南林校,细颗粒物(PM2.5),80,99,92,59,66,38,,41,41,33,42,9,5,0.8,0.7
2025-01-10T2000,1816A,112.3844,34.623,洛阳市,开发区管委会,细颗粒物(PM2.5),73,83,96,53,67,52,,54,54,20,38,6,8,0.7,0.8
2025-01-10T2000,1817A,112.4267,34.6258,洛阳市,市委新办公区,颗粒物(PM10),73,95,106,46,67,56,,57,57,22,39,7,7,0.4,0.6
2025-01-10T2000,3340A,112.6005,34.6326,洛阳市,伊滨,颗粒物(PM10),66,82,126,39,54,50,,50,50,28,44,8,7,0.6,0.8
2025-01-10T2000,3341A,112.4951,34.6332,洛阳市,中移产业园,颗粒物(PM10),65,79,88,33,47,55,,53,53,24,40,7,8,0.6,0.7
2025-01-10T2000,3593A,112.5736,34.8993,洛阳市,吉利监测站,颗粒物(PM10),64,78,76,45,48,45,,52,52,32,41,10,7,0.7,0.7
2025-01-10T2000,3635A,112.3677,34.662,洛阳市,河科大西苑校区,颗粒物(PM10),71,91,105,47,60,48,,51,51,26,41,6,10,0.7,0.9
2025-01-10T2000,3636A,112.4388,34.6781,洛阳市,英才小学,颗粒物(PM10),73,95,103,45,59,39,,45,45,45,52,9,10,0.7,0.8
2025-01-10T2000,2399A,114.051,33.5699,漯河市,三五一五工厂,细颗粒物(PM2.5),93,115,84,69,51,26,,64,60,57,37,10,10,0.8,0.7
2025-01-10T2000,2400A,114.0055,33.5698,漯河市,漯河大学,细颗粒物(PM2.5),94,114,85,70,50,6,,64,56,80,44,11,8,0.8,0.6
2025-01-10T2000,2401A,114.0138,33.5828,漯河市,市水利局,细颗粒物(PM2.5),94,107,79,70,51,21,,63,59,52,35,9,9,0.9,0.6
2025-01-10T2000,2402A,114.0261,33.5698,漯河市,市广电局,细颗粒物(PM2.5),78,100,81,57,52,33,,64,61,34,35,13,8,0.5,0.7
2025-01-10T2000,3478A,113.9749,33.5664,漯河市,市图书馆,细颗粒物(PM2.5),82,94,85,60,51,50,,63,62,37,43,8,8,0.3,0.3
2025-01-10T2000,3479A,114.0967,33.5906,漯河市,召陵区卫健委,细颗粒物(PM2.5),80,95,91,59,57,37,,62,60,49,47,10,10,0.6,0.5
2025-01-10T2000,1798A,118.5092,31.6837,马鞍山市,湖东路四小,,47,47,51,31,23,16,,61,57,67,39,4,9,0.8,0.9
2025-01-10T2000,1799A,118.5024,31.6449,马鞍山市,开发区,颗粒物(PM10),65,80,57,43,28,4,,64,58,74,38,7,8,0.9,0.9
2025-01-10T2000,1802A,118.6245,31.7241,马鞍山市,濮塘,,45,39,39,31,24,59,,71,70,15,19,8,8,0.2,0.2
2025-01-10T2000,3633A,118.4918,31.6809,马鞍山市,雨山,,46,46,51,31,30,31,,63,60,48,34,8,9,0.8,1
2025-01-10T2000,4191A,118.5274,31.72227,马鞍山市,慈湖高新区,,,35,38,,,,,,,60,41,11,9,0.6,0.5
2025-01-10T2000,1686A,111.0286,21.4688,茂名市,电白南海,颗粒物(PM10),65,80,95,36,52,81,,108,108,44,28,7,12,0.6,0.7
2025-01-10T2000,1687A,110.9294,21.6533,茂名市,茂石化七小,颗粒物(PM10),70,90,87,44,42,92,,108,108,27,17,11,12,0.9,0.8
2025-01-10T2000,1688A,110.9107,21.6687,茂名市,健康路,细颗粒物(PM2.5),77,95,84,56,49,91,,109,109,33,17,12,14,0.8,0.7
2025-01-10T2000,1689A,110.8592,21.6828,茂名市,高岭,颗粒物(PM10),75,100,91,51,51,84,,103,103,46,19,13,27,0.9,0.8
2025-01-10T2000,3450A,111.01,21.5165,茂名市,电白水东,颗粒物(PM10),58,66,91,31,51,98,,108,108,17,19,12,22,0.8,0.8
2025-01-10T2000,2539A,104.0308,30.0478,眉山市,黑龙滩水库,颗粒物(PM10),55,59,55,35,35,34,,50,49,12,7,2,3,0.8,0.8
2025-01-10T2000,2540A,103.8416,30.0874,眉山市,气象局,细颗粒物(PM2.5),89,86,68,66,47,5,,35,30,55,28,3,4,0.8,0.5
2025-01-10T2000,3137A,103.8578,30.0744,眉山市,市委党校,细颗粒物(PM2.5),77,58,47,56,40,9,,40,33,51,24,3,3,0.5,0.4
2025-01-10T2000,3148A,103.8291,30.0564,眉山市,区人社局,,,61,45,56,41,9,,39,34,,30,5,5,0.8,0.6
2025-01-10T2000,1690A,116.1231,24.3284,梅州市,梅江月梅,,35,35,40,24,28,74,,90,90,27,15,9,10,0.5,0.5
2025-01-10T2000,1691A,116.0797,24.2719,梅州市,梅县新城,,36,30,39,25,26,94,,95,95,13,15,7,7,0.4,0.6
2025-01-10T2000,1692A,116.1248,24.2654,梅州市,环境监控中心,,45,40,40,31,28,83,,90,90,18,14,7,8,0.6,0.6
2025-01-10T2000,3315A,116.1233,24.2991,梅州市,梅龙,,41,41,44,22,27,86,,88,88,16,17,8,8,0.6,0.6
2025-01-10T2000,1878A,104.7778,31.4741,绵阳市,富乐山,,48,43,49,33,37,71,,58,58,15,17,2,3,0.7,0.7
2025-01-10T2000,1879A,104.7563,31.4535,绵阳市,市人大,,,,56,,40,,,54,,,22,,3,,0.7
2025-01-10T2000,1880A,104.6697,31.4668,绵阳市,高新区自来水公司,,,51,51,31,37,53,,50,50,24,19,2,3,,0.6
2025-01-10T2000,1881A,104.7287,31.5075,绵阳市,三水厂,细颗粒物(PM2.5),59,42,48,42,41,73,,59,59,15,22,4,5,0.6,0.7
2025-01-10T2000,3491A,104.69,31.5322,绵阳市,西科大附属小学,,45,38,55,31,41,67,,56,56,10,22,5,5,0.8,0.8
2025-01-10T2000,3492A,104.5648,31.5343,绵阳市,安州区旅游局,细颗粒物(PM2.5),77,,51,56,47,23,,32,32,23,23,8,9,0.7,0.7
2025-01-10T2000,1784A,129.61,44.561,牡丹江市,环保大楼,细颗粒物(PM2.5),73,66,47,53,36,25,,52,46,49,24,10,9,0.8,0.5
2025-01-10T2000,1785A,129.6115,44.5782,牡丹江市,文化广场,细颗粒物(PM2.5),63,63,52,45,39,31,,55,52,49,25,10,10,1.2,0.8
2025-01-10T2000,1786A,129.5904,44.5963,牡丹江市,第一医院,细颗粒物(PM2.5),65,57,47,47,44,34,,57,54,43,22,8,9,0.6,0.4
2025-01-10T2000,1787A,129.6364,44.6075,牡丹江市,机车工厂,细颗粒物(PM2.5),67,72,50,48,35,25,,54,49,48,24,18,11,1.1,0.7
2025-01-10T2000,1788A,129.6386,44.5462,牡丹江市,第一中学,细颗粒物(PM2.5),74,,42,54,36,37,,55,44,30,22,8,8,0.7,0.6
2025-01-10T2000,2531A,105.0703,29.61,内江市,市监测站,细颗粒物(PM2.5),53,44,30,37,34,18,,18,18,20,19,4,4,0.7,0.8
2025-01-10T2000,2532A,105.0717,29.5947,内江市,东兴区政府,,48,,34,33,31,20,,18,18,26,22,3,3,0.8,0.9
2025-01-10T2000,2533A,105.0653,29.5817,内江市,内江二中,细颗粒物(PM2.5),52,41,41,36,36,21,,18,18,29,23,7,7,0.8,0.8
2025-01-10T2000,2534A,105.0406,29.5822,内江市,内江日报社,,43,39,35,30,32,15,,13,13,31,26,7,7,0.8,0.9
2025-01-10T2000,2628A,92.0657,31.4846,那曲市,那曲监测站,,42,32,43,29,37,94,,103,103,4,17,4,9,0.4,1.1
2025-01-10T2000,3128A,92.0506,31.4797,那曲市,那曲会议中心,,39,39,50,15,24,90,,101,101,2,14,2,4,0.3,0.9
2025-01-10T2000,1290A,115.8931,28.6843,南昌市,省外办,颗粒物(PM10),52,54,58,27,28,52,,58,57,33,30,6,7,0.5,0.6
2025-01-10T2000,1291A,115.8886,28.7003,南昌市,省林业公司,,39,39,43,19,24,53,,64,64,35,30,8,10,0.3,0.4
2025-01-10T2000,1292A,115.8126,28.7442,南昌市,林科所,,32,29,38,22,22,56,,68,66,29,21,7,10,0.5,0.5
2025-01-10T2000,1294A,115.8518,28.687,南昌市,建工学校,,40,40,44,23,27,59,,66,66,22,19,10,11,0.6,0.7
2025-01-10T2000,1295A,115.8921,28.6424,南昌市,象湖,,42,42,37,27,24,59,,71,70,25,21,8,8,0.4,0.4
2025-01-10T2000,1296A,115.7423,28.7996,南昌市,武术学校,,32,26,30,22,22,47,,56,55,15,18,2,2,0.6,0.6
2025-01-10T2000,1298A,115.9314,28.6842,南昌市,省站,,46,46,44,23,23,58,,64,64,17,15,9,10,0.4,0.5
2025-01-10T2000,3046A,115.9084,28.6062,南昌市,机电学校,颗粒物(PM10),51,52,53,29,25,53,,64,63,24,18,12,13,0.5,0.5
2025-01-10T2000,3690A,115.9721,28.7031,南昌市,外国语学校,,42,42,49,22,22,56,,63,63,22,19,6,8,0.4,0.5
2025-01-10T2000,1905A,106.056,30.8064,南充市,西山风景区,细颗粒物(PM2.5),62,44,36,44,33,20,,22,22,15,18,3,3,0.5,0.8
2025-01-10T2000,1906A,106.0789,30.8023,南充市,南充市委,细颗粒物(PM2.5),72,62,51,52,42,6,,21,20,36,29,3,3,0.7,0.6
2025-01-10T2000,1907A,106.1031,30.8217,南充市,南充炼油厂,细颗粒物(PM2.5),67,62,52,48,41,12,,25,25,35,28,3,3,0.4,0.5
2025-01-10T2000,1908A,106.1064,30.7856,南充市,高坪区监测站,细颗粒物(PM2.5),58,61,52,41,40,12,,21,20,40,30,2,2,0.7,0.6
2025-01-10T2000,1909A,106.0642,30.7636,南充市,嘉陵区环保局,细颗粒物(PM2.5),64,57,55,46,40,4,,20,19,35,30,3,3,0.6,0.6
2025-01-10T2000,1910A,106.1087,30.8388,南充市,市环境监测站,细颗粒物(PM2.5),69,54,52,50,40,15,,29,29,22,19,5,4,0.5,0.5
2025-01-10T2000,1151A,118.8086,32.1065,南京市,迈皋桥,颗粒物(PM10),53,56,38,29,20,14,,61,55,70,43,4,4,0.5,0.4
2025-01-10T2000,1152A,118.7538,32.0551,南京市,草场门,颗粒物(PM10),51,51,41,31,22,26,,59,56,63,40,6,8,0.3,0.2
2025-01-10T2000,1153A,118.7794,32.0745,南京市,山西路,颗粒物(PM10),53,56,47,31,23,44,,68,67,74,48,5,4,0.4,0.3
2025-01-10T2000,1154A,118.7752,32.0023,南京市,中华门,颗粒物(PM10),51,51,41,29,21,17,,50,44,73,43,5,7,0.7,0.6
2025-01-10T2000,1155A,118.8109,32.0309,南京市,瑞金路,颗粒物(PM10),53,56,46,34,23,14,,53,46,78,43,3,4,0.9,1
2025-01-10T2000,1156A,118.7997,32.0754,南京市,玄武湖,,50,50,43,28,18,3,,55,50,39,22,8,8,0.9,0.8
2025-01-10T2000,1157A,118.6414,32.0931,南京市,浦口,,33,33,44,18,21,55,,63,63,16,19,9,9,0.3,0.3
2025-01-10T2000,1158A,118.7356,31.9996,南京市,奥体中心,,49,49,46,29,24,32,,60,57,59,42,8,10,0.5,0.4
2025-01-10T2000,1159A,118.9125,32.1028,南京市,仙林大学城,颗粒物(PM10),54,58,44,34,23,16,,56,50,59,36,8,8,0.7,0.5
2025-01-10T2000,3422A,118.8436,31.9198,南京市,江宁彩虹桥,颗粒物(PM10),57,64,48,29,21,7,,56,47,79,39,8,8,0.5,0.5
2025-01-10T2000,3423A,119.0138,31.6494,南京市,溧水永阳,细颗粒物(PM2.5),65,70,37,47,29,11,,58,50,23,34,4,4,0.9,0.4
2025-01-10T2000,3424A,118.879,31.3302,南京市,高淳老职中,,50,50,35,33,27,39,,64,61,42,27,7,5,0.6,0.4
2025-01-10T2000,3427A,118.8554,32.3578,南京市,六合雄州,颗粒物(PM10),53,55,42,36,23,26,,58,52,29,26,3,4,0.7,0.7
2025-01-10T2000,1401A,108.3103,22.7881,南宁市,二十一中,,,,32,,19,,,103,103,,20,5,3,0.7,0.7
2025-01-10T2000,1402A,108.3141,22.8528,南宁市,北湖,,45,45,30,31,20,83,,94,94,22,17,8,6,0.8,0.8
2025-01-10T2000,1403A,108.3206,22.8225,南宁市,市监测站,,50,50,33,35,28,83,,93,93,25,18,18,9,0.8,0.7
2025-01-10T2000,1404A,108.3829,22.8037,南宁市,大自然花园,,46,39,32,32,24,85,,93,93,22,17,6,5,0.9,0.9
2025-01-10T2000,1405A,108.4394,22.7904,南宁市,仙葫,,42,39,31,29,20,81,,90,90,14,12,5,4,0.6,0.6
2025-01-10T2000,1406A,108.2397,22.8467,南宁市,区农职院,,37,37,32,23,21,73,,96,95,28,15,7,6,0.8,0.7
2025-01-10T2000,1407A,108.3275,22.735,南宁市,英华嘉园,,48,48,35,29,17,83,,95,95,20,16,7,6,0.7,0.7
2025-01-10T2000,1408A,108.2257,22.7757,南宁市,沙井镇街道办,,,,,,,,,,,,,,,,
2025-01-10T2000,3401A,108.4834,22.7618,南宁市,红星社区,,45,37,29,31,20,87,,95,95,20,15,10,8,0.6,0.7
2025-01-10T2000,2331A,118.0966,26.6761,南平市,茫荡山,,,,,,,,,,,,,,,,
2025-01-10T2000,2332A,118.1681,26.6369,南平市,南平市监测站,,46,46,44,32,28,58,,96,93,34,15,5,6,0.5,0.3
2025-01-10T2000,2333A,118.1825,26.6489,南平市,南平铝业有限公司,,49,41,42,34,30,62,,97,94,31,14,5,6,0.6,0.4
2025-01-10T2000,2334A,118.1756,26.6272,南平市,南平七中,,49,39,42,34,30,65,,98,95,25,13,4,5,0.6,0.5
2025-01-10T2000,1168A,120.9098,31.9663,南通市,狼山街道,,45,45,36,20,14,54,,69,66,22,12,6,6,0.6,0.5
2025-01-10T2000,1169A,120.86,32.0005,南通市,虹桥,细颗粒物(PM2.5),52,46,34,36,17,48,,68,63,26,15,6,5,0.6,0.4
2025-01-10T2000,1170A,120.87,32.02,南通市,城中,颗粒物(PM10),57,63,43,39,16,49,,70,65,32,18,7,6,0.9,0.8
2025-01-10T2000,1171A,120.94,31.93,南通市,星湖花园,,39,39,36,23,16,51,,60,56,24,18,5,5,0.4,0.3
2025-01-10T2000,1172A,120.81,32.0417,南通市,紫琅学院,颗粒物(PM10),51,51,38,29,15,43,,69,64,35,19,4,4,0.4,0.3
2025-01-10T2000,3291A,121.067,32.062,南通市,通州监测站,细颗粒物(PM2.5),52,51,34,36,14,54,,76,70,29,17,4,3,0.4,0.4
2025-01-10T2000,3432A,120.9348,31.9883,南通市,环境教育馆,,44,44,35,19,12,54,,74,70,29,15,4,4,0.6,0.5
2025-01-10T2000,2404A,112.5224,33.0122,南阳市,瓦房庄,细颗粒物(PM2.5),83,100,83,61,49,46,,65,64,38,29,10,8,0.6,0.5
2025-01-10T2000,2405A,112.5003,32.9735,南阳市,汉画馆,细颗粒物(PM2.5),80,101,79,59,48,25,,66,62,61,33,8,7,0.6,0.5
2025-01-10T2000,2406A,112.5573,33.027,南阳市,气象站,颗粒物(PM10),83,115,90,56,42,41,,68,66,47,32,9,7,0.6,0.6
2025-01-10T2000,2407A,112.5481,32.9689,南阳市,理工学院,细颗粒物(PM2.5),98,114,75,73,48,23,,68,63,61,28,8,7,0.8,0.6
2025-01-10T2000,4008A,112.5234,32.9922,南阳市,卧龙区政府,细颗粒物(PM2.5),80,90,77,59,43,41,,63,61,39,31,7,6,0.6,0.5
2025-01-10T2000,1234A,121.8358,29.911,宁波市,区环保大楼,颗粒物(PM10),56,61,40,34,13,30,,64,55,54,22,9,14,0.6,0.5
2025-01-10T2000,1235A,121.56,29.82,宁波市,万里学院,颗粒物(PM10),63,76,37,36,17,40,,66,60,40,20,5,5,0.5,0.5
2025-01-10T2000,1236A,121.713,29.9572,宁波市,龙赛医院,颗粒物(PM10),56,62,41,22,17,16,,66,52,72,27,10,9,0.6,0.5
2025-01-10T2000,1239A,121.633,29.7733,宁波市,钱湖水厂,颗粒物(PM10),54,57,40,24,16,39,,72,63,37,21,5,6,0.4,0.4
2025-01-10T2000,1240A,121.5856,29.8635,宁波市,太古小学,颗粒物(PM10),57,64,41,30,16,40,,68,61,42,20,8,8,0.5,0.5
2025-01-10T2000,1241A,121.524,29.8674,宁波市,市环境监测中心,细颗粒物(PM2.5),63,74,37,45,15,28,,66,56,50,21,7,7,0.6,0.5
2025-01-10T2000,2871A,121.6147,29.9017,宁波市,万里国际学校,细颗粒物(PM2.5),53,49,35,37,17,18,,65,50,65,25,7,7,0.5,0.4
2025-01-10T2000,3710A,121.5594,29.8975,宁波市,白沙活动中心,颗粒物(PM10),51,52,34,33,16,15,,70,58,71,24,9,9,0.6,0.5
2025-01-10T2000,2339A,119.5001,26.6946,宁德市,金涵水库,,,,,,,,,,,,,,,,
2025-01-10T2000,2341A,119.5388,26.6612,宁德市,宁德市监测站,,28,19,48,19,38,76,,89,88,10,11,3,6,0.4,0.5
2025-01-10T2000,3209A,119.5231,26.6562,宁德市,宁德一中,,30,30,48,20,38,81,,93,93,17,18,2,5,0.3,0.4
2025-01-10T2000,2618A,98.8601,25.8567,怒江傈僳族自治州,州监测站,颗粒物(PM10),53,56,31,34,22,41,,56,56,29,15,3,3,0.7,0.6
2025-01-10T2000,2619A,98.8546,25.8417,怒江傈僳族自治州,泸水一中,细颗粒物(PM2.5),64,70,30,46,22,10,,44,42,43,18,8,7,1.1,0.5
2025-01-10T2000,1888A,101.6891,26.571,攀枝花市,弄弄坪,,43,42,60,30,40,49,,80,80,40,29,18,22,1.1,1.1
2025-01-10T2000,1889A,101.5769,26.5928,攀枝花市,河门口,,41,41,52,28,36,63,,83,83,33,30,15,16,0.9,1.4
2025-01-10T2000,1890A,101.7169,26.585,攀枝花市,炳草岗,颗粒物(PM10),60,70,72,28,44,38,,81,81,57,41,14,16,0.7,1
2025-01-10T2000,1891A,101.7369,26.5008,攀枝花市,仁和,细颗粒物(PM2.5),57,62,53,40,36,29,,57,56,35,26,9,14,0.8,1.2
2025-01-10T2000,2835A,101.7227,26.567,攀枝花市,四十中小,细颗粒物(PM2.5),92,97,65,68,43,22,,71,71,80,46,17,19,2.0,1.3
2025-01-10T2000,1604A,122.0303,41.1489,盘锦市,开发区,颗粒物(PM10),67,83,59,44,45,45,,68,58,29,34,14,13,0.5,0.5
2025-01-10T2000,1605A,122.0485,41.0883,盘锦市,兴隆台,细颗粒物(PM2.5),85,73,60,63,43,21,,64,54,55,41,19,18,0.8,0.8
2025-01-10T2000,1606A,121.8297,41.1028,盘锦市,新生街道,细颗粒物(PM2.5),80,,43,59,26,57,,71,70,32,44,14,12,0.8,0.8
2025-01-10T2000,1832A,113.3257,33.742,平顶山市,新华旅馆,细颗粒物(PM2.5),82,98,99,60,48,53,,67,67,31,40,10,8,0.6,0.5
2025-01-10T2000,1833A,113.2919,33.737,平顶山市,规划设计院,细颗粒物(PM2.5),83,102,97,61,57,43,,69,68,41,38,8,7,0.6,0.4
2025-01-10T2000,1834A,113.182,33.774,平顶山市,平顶山工学院,颗粒物(PM10),82,114,116,58,60,41,,71,68,41,34,5,5,0.8,0.9
2025-01-10T2000,3204A,113.3025,33.73,平顶山市,规划局,细颗粒物(PM2.5),78,83,93,57,59,58,,63,63,26,37,8,7,0.5,0.6
2025-01-10T2000,3594A,112.8867,33.9116,平顶山市,石龙区,颗粒物(PM10),62,74,98,35,48,68,,69,69,10,27,9,8,0.8,0.8
2025-01-10T2000,2656A,106.6692,35.5461,平凉市,聚贤嘉苑,颗粒物(PM10),58,65,53,26,23,84,,92,92,18,24,12,14,0.5,0.5
2025-01-10T2000,2657A,106.7021,35.5307,平凉市,博物馆,颗粒物(PM10),63,76,58,28,27,90,,93,93,10,21,11,15,0.5,0.6
2025-01-10T2000,2347A,114.0997,27.5002,萍乡市,武功山,细颗粒物(PM2.5),57,,31,40,28,60,,82,81,14,11,8,8,0.7,0.6
2025-01-10T2000,2348A,113.8385,27.6434,萍乡市,中医院,细颗粒物(PM2.5),87,109,69,64,45,33,,76,73,54,23,11,8,1.3,1
2025-01-10T2000,2349A,113.8493,27.6253,萍乡市,市政府车库,细颗粒物(PM2.5),70,82,62,51,54,31,,76,74,54,24,11,10,1.3,1
2025-01-10T2000,2350A,113.8676,27.6435,萍乡市,市环保局,细颗粒物(PM2.5),68,78,74,49,53,44,,73,72,48,27,12,11,1.0,1
2025-01-10T2000,2351A,113.866,27.6198,萍乡市,安源区政府,细颗粒物(PM2.5),93,,70,69,48,44,,76,76,35,20,6,8,1.0,0.8
2025-01-10T2000,2319A,119.0141,25.4325,莆田市,荔城区仓后路,,34,34,53,7,31,83,,87,86,14,15,2,3,0.5,0.6
2025-01-10T2000,2320A,119.0015,25.4553,莆田市,莆田市监测站,,27,18,52,7,34,86,,91,91,15,18,3,4,0.3,0.4
2025-01-10T2000,2321A,119.1119,25.4561,莆田市,涵江区六中,,28,26,52,3,28,87,,90,90,12,18,1,2,0.3,0.4
2025-01-10T2000,2322A,119.1013,25.3215,莆田市,秀屿区政府,,,,45,5,27,87,,89,89,10,17,1,2,0.3,0.4
2025-01-10T2000,2323A,118.981,25.4792,莆田市,东圳水库,,,,,,,,,,,,,,,,
2025-01-10T2000,2392A,115.0312,35.7636,濮阳市,环保局,颗粒物(PM10),62,74,54,41,26,8,,49,42,76,34,6,8,1.2,0.6
2025-01-10T2000,2394A,115.0574,35.7609,濮阳市,油田运输公司,颗粒物(PM10),83,116,72,45,32,4,,49,38,77,38,7,8,1.4,0.7
2025-01-10T2000,2395A,115.0866,35.7754,濮阳市,油田物探公司,,,126,80,48,29,6,,52,40,,,7,9,1.2,0.7
2025-01-10T2000,3021A,115,35.7668,濮阳市,濮水河管理处,颗粒物(PM10),81,111,69,50,29,12,,47,39,60,38,9,8,0.7,0.6
2025-01-10T2000,2601A,100.98,22.7633,普洱市,市环保局,颗粒物(PM10),56,62,49,26,18,57,,78,77,8,8,4,4,0.6,0.6
2025-01-10T2000,2602A,100.9817,22.8322,普洱市,普洱第二中学,,50,50,48,26,28,57,,79,77,9,22,5,5,0.6,0.6
2025-01-10T2000,2262A,131.0518,45.8751,七台河市,新一中,,28,28,41,12,32,83,,87,86,9,14,11,12,1.9,1.9
2025-01-10T2000,3345A,131.0577,45.7879,七台河市,中波台,,49,47,47,34,38,47,,62,55,37,28,16,14,0.8,0.8
2025-01-10T2000,3637A,131.0176,45.7761,七台河市,人民广场,细颗粒物(PM2.5),54,54,69,38,48,36,,58,50,50,35,9,10,0.8,0.9
2025-01-10T2000,3684A,130.8781,45.8222,七台河市,新建矿广场,颗粒物(PM10),52,53,48,30,40,41,,41,,38,32,16,13,0.8,0.6
2025-01-10T2000,1779A,123.9305,47.3636,齐齐哈尔市,安居小区,细颗粒物(PM2.5),53,48,29,37,18,11,,62,43,67,25,7,7,1.0,0.5
2025-01-10T2000,1780A,123.9488,47.3386,齐齐哈尔市,中心广场,颗粒物(PM10),53,55,20,33,15,27,,65,44,49,19,3,3,1.1,0.5
2025-01-10T2000,1781A,123.9483,47.3227,齐齐哈尔市,农牧车辆厂,细颗粒物(PM2.5),72,,25,52,10,12,,61,31,63,22,8,6,0.8,0.4
2025-01-10T2000,1783A,123.945,47.2988,齐齐哈尔市,市环境监测站,细颗粒物(PM2.5),160,144,38,122,20,16,,65,44,73,23,11,5,1.7,0.6
2025-01-10T2000,3662A,123.6333,47.2075,齐齐哈尔市,富区青少年活动中心,颗粒物(PM10),81,112,33,45,17,40,,65,58,38,18,13,9,1.3,0.7
2025-01-10T2000,2591A,107.9783,26.5747,黔东南苗族侗族自治州,市环境监测站,细颗粒物(PM2.5),59,53,39,42,33,78,,80,80,16,12,5,3,0.5,0.4
2025-01-10T2000,2881A,107.8908,26.5311,黔东南苗族侗族自治州,凯里学院,,48,48,39,33,27,76,,77,77,16,9,5,3,0.5,0.4
2025-01-10T2000,2593A,107.5228,26.2403,黔南布依族苗族自治州,小围寨,,49,46,29,34,23,76,,70,70,12,10,7,5,0.5,0.4
2025-01-10T2000,3538A,107.5175,26.2978,黔南布依族苗族自治州,沙坝,,,,33,,24,72,,69,69,13,10,9,6,0.5,0.4
2025-01-10T2000,2589A,104.9022,25.0925,黔西南布依族苗族自治州,场坝街,,,,36,,29,,,48,46,17,14,,5,0.5,0.5
2025-01-10T2000,2590A,104.8811,25.0992,黔西南布依族苗族自治州,坪东大道,细颗粒物(PM2.5),58,,37,41,33,41,,43,42,16,15,5,5,0.7,0.6
2025-01-10T2000,2502A,108.6236,21.9667,钦州市,市环保站,颗粒物(PM10),59,68,53,24,22,83,,93,93,28,19,7,8,0.8,0.8
2025-01-10T2000,2503A,108.6549,21.9481,钦州市,沙埠小学,颗粒物(PM10),52,54,50,29,23,88,,96,96,25,18,7,6,0.6,0.5
2025-01-10T2000,2504A,108.5989,21.7431,钦州市,港区一小,颗粒物(PM10),62,73,82,28,25,84,,92,92,31,22,8,7,0.7,0.7
2025-01-10T2000,3404A,108.5959,21.9633,钦州市,北职校,颗粒物(PM10),55,60,45,32,27,80,,92,92,25,15,7,6,0.7,0.7
2025-01-10T2000,1042A,119.5134,39.8207,秦皇岛市,北戴河环保局,,34,34,25,20,16,53,,67,63,19,34,2,2,0.5,0.4
2025-01-10T2000,1043A,119.7493,40.0116,秦皇岛市,第一关,,33,33,26,23,22,37,,63,52,43,70,6,5,0.5,0.5
2025-01-10T2000,1044A,119.5897,39.9499,秦皇岛市,监测站,"二氧化氮,颗粒物(PM10)",53,56,36,31,20,5,,56,48,105,55,7,5,0.8,0.5
2025-01-10T2000,1046A,119.5251,39.9041,秦皇岛市,建设大厦,颗粒物(PM10),78,106,41,42,31,9,,62,56,72,43,6,2,1.2,0.7
2025-01-10T2000,3132A,119.610547,39.943889,秦皇岛市,文明里,颗粒物(PM10),60,69,37,34,24,18,,60,54,61,39,9,5,0.7,0.4
2025-01-10T2000,1307A,120.6659,36.2403,青岛市,仰口,,43,42,23,30,17,62,,70,69,22,11,8,5,0.7,0.7
2025-01-10T2000,1310A,120.4134,36.0658,青岛市,市南区东部子站,颗粒物(PM10),51,51,38,29,16,38,,58,55,45,26,13,13,0.7,0.6
2025-01-10T2000,1311A,120.3664,36.1032,青岛市,四方区子站,,44,44,30,24,18,33,,62,60,58,30,14,13,0.9,0.7
2025-01-10T2000,1312A,120.2994,36.054,青岛市,市南区西部子站,,44,44,24,20,10,56,,62,62,22,18,13,12,0.8,0.8
2025-01-10T2000,1313A,120.4581,36.0858,青岛市,崂山区子站,,36,36,30,17,14,46,,63,61,36,26,13,10,0.9,0.8
2025-01-10T2000,1314A,120.1983,35.9608,青岛市,黄岛区子站,颗粒物(PM10),57,63,25,32,15,6,,66,47,83,29,14,9,0.9,0.7
2025-01-10T2000,1315A,120.3999,36.3083,青岛市,城阳区子站,颗粒物(PM10),59,68,45,34,21,27,,62,56,58,42,28,13,0.9,1
2025-01-10T2000,1966A,120.0405,35.8735,青岛市,黄岛区4号,颗粒物(PM10),58,66,30,34,13,20,,66,58,67,25,13,10,1.0,0.7
2025-01-10T2000,3362A,120.5014,36.4034,青岛市,即墨2号,细颗粒物(PM2.5),65,72,48,47,27,34,,60,57,51,36,13,14,0.9,0.9
2025-01-10T2000,3642A,120.3503,36.0736,青岛市,市北区南部,,42,42,30,27,14,44,,60,57,43,30,10,10,0.7,0.6
2025-01-10T2000,3643A,120.3948,36.1805,青岛市,李沧区北部,颗粒物(PM10),54,58,44,34,28,24,,57,52,60,40,18,14,1.0,0.8
2025-01-10T2000,1702A,113.0426,23.691,清远市,环保大楼,,29,24,41,17,28,90,,93,93,14,11,7,5,0.5,0.6
2025-01-10T2000,1703A,113.0208,23.7106,清远市,凤城街办,,32,32,42,18,27,87,,93,93,17,15,12,21,0.5,0.7
2025-01-10T2000,3025A,113.0477,23.6344,清远市,技师学院,,44,44,49,16,22,89,,92,92,19,18,9,8,0.8,0.8
2025-01-10T2000,3318A,112.9903,23.7403,清远市,清新太和,,30,21,42,11,23,93,,100,100,15,15,9,10,0.5,0.6
2025-01-10T2000,3455A,113.076,23.7198,清远市,清城东城,,30,30,43,14,24,91,,95,94,13,13,14,12,0.3,0.7
2025-01-10T2000,2661A,107.6325,35.7357,庆阳市,庆阳五中,颗粒物(PM10),56,62,59,28,27,66,,75,75,17,14,5,6,0.5,0.5
