timepoint,stationcode,longitude,latitude,area,positionname,primarypollutant,aqi,pm10,pm10_24h,pm2_5,pm2_5_24h,o3,o3_24h,o3_8h,o3_8h_24h,no2,no2_24h,so2,so2_24h,co,co_24h
2025-11-27T0700,2566A,102.1879,31.914,阿坝藏族羌族自治州,州农科所,,,,,,,,,,,,,,,,
2025-11-27T0700,2568A,102.2502,31.8896,阿坝藏族羌族自治州,马师校,,20,,19,14,17,39,39,,,7,18,5,5,0.4,0.5
2025-11-27T0700,3994A,102.2165,31.9024,阿坝藏族羌族自治州,马尔康中学西区,,28,,15,19,13,47,47,,,5,12,4,5,0.4,0.4
2025-11-27T0700,2695A,80.292,41.1694,阿克苏地区,电视台,颗粒物(PM10),94,137,230,55,100,39,39,,,30,59,9,10,1.2,2
2025-11-27T0700,2696A,80.2613,41.1551,阿克苏地区,艺术中心,"颗粒物(PM10),细颗粒物(PM2.5)",97,143,196,72,91,45,45,,,29,74,6,8,0.9,1.4
2025-11-27T0700,2204A,105.6467,38.8363,阿拉善盟,西城区西花园,,,,,,,,,,,,,,,,
2025-11-27T0700,2205A,105.6985,38.8411,阿拉善盟,蒙二幼,颗粒物(PM10),65,79,259,19,40,78,78,,,5,4,7,7,0.9,0.9
2025-11-27T0700,2206A,105.724,38.8516,阿拉善盟,环保局新楼,颗粒物(PM10),60,69,238,20,49,80,80,,,4,4,9,9,0.6,0.6
2025-11-27T0700,2708A,88.1264,47.8517,阿勒泰地区,市站,,25,,18,3,9,78,78,,,3,30,3,4,0.6,0.8
2025-11-27T0700,2630A,80.1161,32.5,阿里地区,阿里监测站,,18,,3,3,3,55,55,,,2,6,6,6,0.3,0.3
2025-11-27T0700,3192A,80.0903,32.5028,阿里地区,阿里藏医院,,24,24,29,9,9,47,47,,,4,6,11,10,0.4,0.6
2025-11-27T0700,2642A,109.0318,32.6537,安康市,香溪洞,,,,,,,,,,,,,,,,
2025-11-27T0700,2644A,109.0072,32.6975,安康市,汉滨区检察院,颗粒物(PM10),51,51,66,35,39,3,3,,,19,23,4,5,0.3,0.6
2025-11-27T0700,4054A,109.0325,32.6913,安康市,市邮政管理局,颗粒物(PM10),57,63,74,30,39,0,0,,,25,31,4,4,0.7,0.9
2025-11-27T0700,2291A,117.0809,30.5177,安庆市,环科院,颗粒物(PM10),109,168,86,30,44,43,43,,,21,39,5,7,0.4,0.5
2025-11-27T0700,2292A,117.0331,30.5119,安庆市,马山宾馆,颗粒物(PM10),102,153,99,31,39,50,50,,,19,38,5,7,0.3,0.4
2025-11-27T0700,2294A,116.9896,30.6145,安庆市,安庆大学,颗粒物(PM10),153,255,112,32,40,64,64,,,3,32,6,8,0.3,0.6
2025-11-27T0700,3173A,117.0598,30.5351,安庆市,市人大,颗粒物(PM10),115,180,104,35,40,45,45,,,20,34,7,8,0.3,0.3
2025-11-27T0700,3122A,105.9606,26.2611,安顺市,伍家关,,44,44,53,29,35,78,78,,,19,15,14,22,0.4,0.8
2025-11-27T0700,3123A,105.9408,26.2431,安顺市,凤凰山,,49,49,61,30,48,82,82,,,16,20,10,24,0.5,0.6
2025-11-27T0700,3124A,105.9439,26.2564,安顺市,金钟山,颗粒物(PM10),51,51,52,35,39,78,78,,,12,14,19,25,0.5,0.6
2025-11-27T0700,3125A,105.8983,26.2481,安顺市,娄家坡,,47,47,59,30,40,78,78,,,12,16,12,19,0.5,0.6
2025-11-27T0700,1818A,114.4839,36.0621,安阳市,棉研所,,,,,,,,,,,,,,,,
2025-11-27T0700,1819A,114.3551,36.1017,安阳市,红庙街,颗粒物(PM10),192,334,383,58,54,43,43,,,21,14,15,7,1.2,0.8
2025-11-27T0700,1820A,114.361,36.0681,安阳市,银杏小区,颗粒物(PM10),186,321,341,64,61,51,51,,,10,12,1,3,0.5,0.4
2025-11-27T0700,3141A,114.3922,36.0878,安阳市,信访局,颗粒物(PM10),205,353,366,52,54,54,54,,,14,15,8,5,0.5,0.4
2025-11-27T0700,3669A,114.4705,36.0637,安阳市,左辅环卫站,颗粒物(PM10),226,368,399,60,55,59,59,,,10,14,6,4,0.8,0.6
2025-11-27T0700,3703A,114.2917,36.0949,安阳市,安钢职工学校,颗粒物(PM10),191,332,399,72,67,53,53,,,6,9,3,3,1.3,0.8
2025-11-27T0700,1748A,123.044,41.1196,鞍山市,深沟寺,,30,30,51,15,28,35,35,,,18,21,8,9,0.6,0.7
2025-11-27T0700,1749A,123.011,41.0931,鞍山市,太阳城,,33,33,51,15,27,33,33,,,17,18,10,11,0.6,0.7
2025-11-27T0700,1750A,123.0485,41.1442,鞍山市,太平,,26,26,57,12,28,37,37,,,19,21,9,10,0.7,0.8
2025-11-27T0700,1751A,122.9642,41.0971,鞍山市,铁西三道街,,22,22,67,11,35,29,29,,,23,32,13,17,1.3,1.5
2025-11-27T0700,1753A,123.022,41.0821,鞍山市,明达新区,,24,24,46,12,27,38,38,,,15,18,8,10,0.5,0.5
2025-11-27T0700,1754A,123.1289,41.0228,鞍山市,千山,,,,28,,23,,,41,,,19,,4,,0.3
2025-11-27T0700,4201A,122.9446,41.0826,鞍山市,兴盛南路290号,,26,26,64,11,32,33,33,,,21,34,9,12,0.6,1
2025-11-27T0700,2195A,107.4212,40.761,巴彦淖尔市,附二中,颗粒物(PM10),109,168,357,41,72,54,54,,,5,5,3,4,0.3,0.3
2025-11-27T0700,2196A,107.37,40.7372,巴彦淖尔市,市环保大楼,颗粒物(PM10),112,174,392,41,72,57,57,,,5,5,7,7,0.3,0.3
2025-11-27T0700,1956A,86.1472,41.7538,巴音郭楞蒙古自治州,孔雀公园,颗粒物(PM10),95,140,145,49,42,60,60,,,22,34,7,8,0.6,0.7
2025-11-27T0700,1957A,86.1972,41.7166,巴音郭楞蒙古自治州,棉纺厂,颗粒物(PM10),101,152,175,42,36,72,72,,,12,29,7,7,0.7,0.8
2025-11-27T0700,1958A,86.2357,41.7173,巴音郭楞蒙古自治州,经济开发区,颗粒物(PM10),89,127,141,38,35,61,61,,,21,25,6,7,0.5,0.6
2025-11-27T0700,2914A,106.7677,31.8794,巴中市,苏山坪,,,,,,,,,,,,,,,,
2025-11-27T0700,3181A,106.7768,31.8526,巴中市,市五中,"颗粒物(PM10),细颗粒物(PM2.5)",65,80,78,47,41,2,2,,,18,24,7,8,0.8,0.7
2025-11-27T0700,3183A,106.7418,31.8654,巴中市,圣泉水务公司,颗粒物(PM10),51,51,73,28,42,7,7,,,18,26,4,5,0.5,0.6
2025-11-27T0700,3616A,106.7616,31.8344,巴中市,市中心医院,细颗粒物(PM2.5),60,49,67,43,41,0,0,,,18,25,5,5,0.8,0.8
2025-11-27T0700,2235A,122.7911,45.6077,白城市,洮北区环保局,,19,19,49,8,28,52,52,,,14,14,10,7,0.2,0.3
2025-11-27T0700,2236A,122.8738,45.5725,白城市,市环保局,,18,,42,12,24,57,57,,,6,9,3,5,0.3,0.3
2025-11-27T0700,2231A,126.4219,41.9171,白山市,喜丰,,32,29,111,22,70,51,51,,,17,22,8,10,0.8,0.8
2025-11-27T0700,2232A,126.4077,41.9419,白山市,环保局,,29,28,94,20,76,39,39,,,30,23,9,9,1.0,1
2025-11-27T0700,2647A,104.1724,36.5446,白银市,第三小学,颗粒物(PM10),180,310,312,62,55,33,33,,,23,21,36,15,0.9,0.6
2025-11-27T0700,2648A,104.1465,36.5482,白银市,动力公司,颗粒物(PM10),177,304,312,67,66,39,39,,,19,18,33,12,1.1,0.6
2025-11-27T0700,2512A,106.6103,23.9011,百色市,市监测站,,34,34,35,23,22,6,6,,,25,17,6,6,0.5,0.5
2025-11-27T0700,2513A,106.6538,23.8859,百色市,市中心血站,,43,41,47,30,28,0,0,,,33,31,6,6,0.6,0.5
2025-11-27T0700,3406A,106.6085,23.8798,百色市,祈福高中,,35,35,46,22,22,25,25,,,14,18,5,5,0.4,0.4
2025-11-27T0700,2270A,117.396,32.939,蚌埠市,工人疗养院,颗粒物(PM10),440,540,236,70,46,49,49,,,14,25,4,6,0.2,0.3
2025-11-27T0700,2271A,117.3605,32.9427,蚌埠市,百货大楼,颗粒物(PM10),500,601,244,89,48,48,48,,,11,22,5,6,0.2,0.3
2025-11-27T0700,2273A,117.4185,32.8911,蚌埠市,蚌埠学院,颗粒物(PM10),500,664,281,100,58,55,55,,,9,27,4,6,0.1,0.3
2025-11-27T0700,2274A,117.3533,32.9673,蚌埠市,淮上区政府,颗粒物(PM10),500,630,260,71,44,48,48,,,15,27,6,9,0.1,0.3
2025-11-27T0700,2275A,117.3145,32.8977,蚌埠市,高新区,颗粒物(PM10),500,676,275,87,54,51,51,,,8,27,5,8,0.2,0.3
2025-11-27T0700,3715A,117.3092,32.9314,蚌埠市,蚌埠田家炳中学,颗粒物(PM10),500,647,287,79,54,50,50,,,13,31,2,6,0.2,0.3
2025-11-27T0700,1585A,109.8756,40.6532,包头市,市环境监测站,,19,19,283,3,58,21,21,,,30,18,9,9,0.7,0.7
2025-11-27T0700,1587A,109.9991,40.5842,包头市,包头八中,,31,31,317,15,60,6,6,,,44,16,3,4,0.8,0.6
2025-11-27T0700,1588A,109.8538,40.6821,包头市,青山宾馆,,23,18,251,16,56,7,7,,,45,21,10,8,1.2,0.6
2025-11-27T0700,1589A,109.8642,40.6288,包头市,惠龙物流,,24,24,263,3,51,35,35,,,21,17,8,9,0.6,0.7
2025-11-27T0700,1590A,110.0377,40.5546,包头市,东河鸿龙湾,,34,34,250,6,43,6,6,,,48,18,8,6,0.6,0.5
2025-11-27T0700,3283A,109.9154,40.5685,包头市,滨河大厦,,23,23,287,9,57,7,7,,,46,16,10,8,0.7,0.5
2025-11-27T0700,3419A,109.9447,40.6261,包头市,包头市委党校,,29,29,324,3,51,22,22,,,34,13,7,7,0.6,0.5
2025-11-27T0700,3683A,109.8331,40.6576,包头市,昆区政府,,27,27,250,10,47,27,27,,,33,23,11,14,0.6,0.8
2025-11-27T0700,1930A,107.185,34.3063,宝鸡市,庙沟村,,,,,,,,,,,,,,,,
2025-11-27T0700,1931A,107.0708,34.3017,宝鸡市,竹园沟,颗粒物(PM10),142,233,251,36,46,68,68,,,1,11,6,6,0,0.1
2025-11-27T0700,1932A,107.1906,34.3672,宝鸡市,三陆医院,颗粒物(PM10),175,300,315,54,64,17,17,,,39,34,6,6,0.4,0.4
2025-11-27T0700,1933A,107.1431,34.3547,宝鸡市,监测站,颗粒物(PM10),154,258,304,47,62,25,25,,,19,20,4,4,0.3,0.3
2025-11-27T0700,1934A,107.1186,34.3739,宝鸡市,技工学校,颗粒物(PM10),163,275,308,62,63,40,40,,,17,18,4,4,0.4,0.4
2025-11-27T0700,1936A,107.2058,34.3497,宝鸡市,文理学院,颗粒物(PM10),149,248,309,53,65,24,24,,,24,24,4,6,0.4,0.5
2025-11-27T0700,1937A,107.2386,34.3622,宝鸡市,三迪小学,颗粒物(PM10),177,303,341,83,78,10,10,,,39,33,4,6,0.4,0.4
2025-11-27T0700,4308A,107.3898,34.3601,宝鸡市,陈仓区北开路21号,颗粒物(PM10),182,314,336,64,61,21,21,,,27,30,30,29,0.4,0.4
2025-11-27T0700,1051A,115.493,38.8632,保定市,游泳馆,,29,29,122,3,50,59,59,,,1,27,4,7,0.5,0.5
2025-11-27T0700,1052A,115.5213,38.8959,保定市,华电二区,,25,25,108,14,49,62,62,,,10,36,3,4,0.7,0.4
2025-11-27T0700,1053A,115.4713,38.9108,保定市,接待中心,,32,32,112,15,50,57,57,,,5,30,3,3,0.1,0.3
2025-11-27T0700,1054A,115.4612,38.8416,保定市,地表水厂,,26,26,136,3,46,60,60,,,12,32,2,4,0,0.2
2025-11-27T0700,3581A,115.31981,38.95208,保定市,满城区生态环境分局,,21,12,131,3,41,65,65,,,6,30,1,3,0.0,0.2
2025-11-27T0700,3582A,115.47694,38.76408,保定市,清苑区第二中学,,20,20,152,3,42,57,57,,,4,28,2,6,0.2,0.4
2025-11-27T0700,3583A,115.62909,39.02311,保定市,徐水物探局,,22,22,153,9,50,43,43,,,11,28,4,7,0.3,0.5
2025-11-27T0700,4004A,115.4202,38.8656,保定市,双鹰农机,,25,18,157,17,52,60,60,,,9,28,3,5,0.2,0.4
2025-11-27T0700,4034A,115.5150,38.8590,保定市,植保所站,,32,32,128,22,52,57,57,,,2,29,3,5,0.3,0.5
2025-11-27T0700,2594A,99.1678,25.1081,保山市,市环境监测站,,27,27,25,12,18,72,72,,,6,9,10,9,0.3,0.4
2025-11-27T0700,2595A,99.1711,25.1328,保山市,市环保局,,30,29,27,21,24,77,77,,,4,6,6,6,0.3,0.4
2025-11-27T0700,1866A,109.2262,21.588,北海市,牛尾岭水库,,33,,46,23,30,36,36,,,7,8,4,5,0.1,0.1
2025-11-27T0700,1867A,109.1436,21.4086,北海市,海滩公园,,48,48,62,27,29,70,70,,,13,13,9,9,0.3,0.4
2025-11-27T0700,1868A,109.0981,21.4661,北海市,新市环保局,,45,45,67,29,36,70,70,,,13,13,16,10,0.5,0.5
2025-11-27T0700,1869A,109.1778,21.5233,北海市,北海工业园,颗粒物(PM10),51,52,65,27,36,67,67,,,15,17,12,10,0.6,0.5
2025-11-27T0700,3400A,109.1911,21.4415,北海市,龙潭自来水厂,,46,46,65,31,36,64,64,,,15,13,15,14,0.3,0.3
2025-11-27T0700,1001A,116.3621,39.8784,北京市,万寿西宫,,20,8,68,3,31,61,61,,,5,34,2,3,0.4,0.5
2025-11-27T0700,1002A,116.2202,40.2915,北京市,定陵,,,,,,,,,,,,,,,,
2025-11-27T0700,1003A,116.4174,39.9289,北京市,东四,,17,13,77,3,29,54,54,,,9,29,2,4,0.6,0.8
2025-11-27T0700,1004A,116.4072,39.8863,北京市,天坛,,18,10,67,3,27,55,55,,,9,31,2,3,0.2,0.4
2025-11-27T0700,1005A,116.462,39.9365,北京市,农展馆,,18,7,64,3,25,55,55,,,5,28,3,5,0.4,0.6
2025-11-27T0700,1006A,116.3392,39.9295,北京市,官园,,18,10,75,3,31,56,56,,,3,29,3,5,0.3,0.5
2025-11-27T0700,1007A,116.2878,39.9611,北京市,海淀万柳,,17,9,64,3,29,53,53,,,4,29,3,4,0.3,0.5
2025-11-27T0700,1008A,116.6636,40.135,北京市,顺义新城,,15,10,62,3,22,46,46,,,8,28,3,4,0.6,0.8
2025-11-27T0700,1009A,116.6275,40.3275,北京市,怀柔镇,,19,6,45,3,23,59,59,,,2,23,5,6,0.3,0.4
2025-11-27T0700,1010A,116.2296,40.217,北京市,昌平镇,,17,7,63,3,27,53,53,,,6,27,4,6,0.3,0.5
2025-11-27T0700,1011A,116.3966,39.9821,北京市,奥体中心,,18,7,61,3,26,56,56,,,9,32,3,5,0.3,0.5
2025-11-27T0700,3281A,115.9718,40.4529,北京市,延庆夏都,,20,7,72,3,28,62,62,,,2,18,3,3,0.2,0.5
2025-11-27T0700,3418A,116.8336,40.4095,北京市,密云新城,,15,6,52,3,24,46,46,,,6,24,2,3,0.4,0.5
2025-11-27T0700,3671A,116.088,39.9726,北京市,门头沟三家店,,19,8,64,3,24,58,58,,,2,21,2,2,0.4,0.5
2025-11-27T0700,3672A,116.1541,39.8204,北京市,丰台云岗,,19,6,67,3,27,59,59,,,3,26,2,3,0.3,0.4
2025-11-27T0700,3673A,116.6804,39.9081,北京市,通州东关,,15,15,72,3,28,43,43,,,14,34,5,6,0.4,0.4
2025-11-27T0700,3674A,115.9577,39.7603,北京市,房山燕山,,19,9,70,3,27,59,59,,,2,24,4,4,0.3,0.4
2025-11-27T0700,3675A,116.4672,39.7733,北京市,大兴旧宫,,19,8,72,3,27,58,58,,,4,30,3,4,0.2,0.4
2025-11-27T0700,3694A,115.986,40.4563,北京市,延庆石河营,,18,6,70,3,25,56,56,,,2,19,2,3,0.3,0.5
2025-11-27T0700,3695A,116.6151,40.3053,北京市,怀柔新城,,20,6,46,3,24,61,61,,,2,20,2,4,0.2,0.4
2025-11-27T0700,3696A,116.2545,39.8768,北京市,丰台小屯,,17,8,74,3,30,52,52,,,5,32,3,3,0.2,0.4
2025-11-27T0700,3697A,116.84,40.3844,北京市,密云镇,,15,15,56,7,25,37,37,,,20,29,1,2,0.3,0.5
2025-11-27T0700,4182A,116.1942,39.9158,北京市,八角北路9号,,16,8,73,3,27,51,51,,,2,30,1,2,0.0,0.3
2025-11-27T0700,4194A,117.0790,40.1518,北京市,洳河巡河路,,17,6,82,3,27,52,52,,,3,27,4,8,0.4,0.5
2025-11-27T0700,1761A,123.8275,41.3064,本溪市,大峪,,45,45,47,29,26,32,32,,,21,21,8,10,0.9,1
2025-11-27T0700,1762A,123.7567,41.3325,本溪市,溪湖,,49,49,56,28,29,37,37,,,15,22,8,11,0.7,0.8
2025-11-27T0700,1763A,123.7169,41.3094,本溪市,彩屯,,42,42,55,28,37,32,32,,,17,29,6,14,0.7,2
2025-11-27T0700,1764A,123.7669,41.2864,本溪市,东明,,41,41,47,26,26,35,35,,,18,19,8,9,0.5,0.5
2025-11-27T0700,1765A,123.7992,41.2664,本溪市,新立屯,,43,43,45,23,26,37,37,,,20,22,6,7,0.5,0.4
2025-11-27T0700,1766A,123.8142,41.3472,本溪市,威宁,,47,47,64,27,32,29,29,,,16,21,6,8,0.9,1
2025-11-27T0700,2587A,105.2864,27.3125,毕节市,八中,细颗粒物(PM2.5),64,69,80,46,57,21,21,,,12,11,9,9,0.6,0.6
2025-11-27T0700,2588A,105.31,27.2944,毕节市,师专,细颗粒物(PM2.5),64,65,81,46,59,16,16,,,12,15,6,8,0.8,0.7
2025-11-27T0700,4263A,105.3688,27.3598,毕节市,工业大道,细颗粒物(PM2.5),74,72,92,54,68,14,14,,,13,14,10,10,1.3,0.9
2025-11-27T0700,1629A,118.0018,37.3617,滨州市,第二水厂,,39,39,209,3,56,49,49,,,10,30,7,14,0.2,0.5
2025-11-27T0700,1630A,117.9776,37.393,滨州市,北中新校,,27,27,159,3,53,47,47,,,18,40,6,11,0.1,0.4
2025-11-27T0700,3514A,117.9378,37.3956,滨州市,中海酒店,,24,24,177,7,50,56,56,,,5,23,5,15,0.4,0.7
2025-11-27T0700,3515A,117.9378,37.3553,滨州市,开发区一中,,41,41,219,3,56,47,47,,,12,28,8,17,0.4,0.7
2025-11-27T0700,3516A,118.0917,37.694,滨州市,金海六路,,32,32,208,3,48,48,48,,,12,42,3,14,0.2,0.6
2025-11-27T0700,4028A,117.9956,37.3753,滨州市,滨州市西街道办事处,,29,29,191,3,55,48,48,,,8,25,6,12,0.2,0.6
2025-11-27T0700,2311A,115.8072,33.8399,亳州市,污水处理厂,颗粒物(PM10),259,391,272,69,57,61,61,,,8,22,1,9,0.3,0.3
2025-11-27T0700,2312A,115.7789,33.8518,亳州市,三国揽胜宫,颗粒物(PM10),304,423,236,74,56,57,57,,,10,20,3,3,0.3,0.4
2025-11-27T0700,3332A,115.7633,33.8034,亳州市,亳州学院,颗粒物(PM10),197,344,239,60,51,55,55,,,16,25,2,5,0.2,0.3
2025-11-27T0700,2693A,82.0485,44.8556,博尔塔拉蒙古自治州,市党校,,33,33,53,12,25,59,59,,,9,18,2,2,0.3,0.4
2025-11-27T0700,2694A,82.0806,44.8969,博尔塔拉蒙古自治州,市环保局,,23,19,44,16,21,35,35,,,7,13,7,7,0.6,0.6
2025-11-27T0700,1071A,116.8842,38.2991,沧州市,沧县城建局,,33,33,151,15,65,47,47,,,12,37,1,8,0.3,0.5
2025-11-27T0700,1072A,116.8584,38.3254,沧州市,电视转播站,,40,40,138,14,62,39,39,,,18,39,2,6,0.4,0.7
2025-11-27T0700,1073A,116.8709,38.3228,沧州市,市环保局,,37,37,147,24,67,42,42,,,10,32,2,6,0.3,0.4
2025-11-27T0700,3324A,116.8136,38.3004,沧州市,河北水利电力学院,,33,24,167,23,53,36,36,,,14,33,5,9,0.4,0.4
2025-11-27T0700,2622A,97.1806,31.1273,昌都市,昌都监测站,,18,8,20,6,10,55,55,,,2,9,3,4,0.4,0.5
2025-11-27T0700,3719A,97.1714,31.1406,昌都市,昌都会议中心,,19,10,18,7,8,58,58,,,2,2,2,3,0.2,0.2
2025-11-27T0700,2690A,88.1236,43.8886,昌吉回族自治州,天山天池,,,,,,,,,,,,,,,,
2025-11-27T0700,2692A,87.2717,44.0297,昌吉回族自治州,新区政务中心,,43,43,54,28,37,39,39,,,20,34,3,3,0.7,1
2025-11-27T0700,3613A,87.3095,44.0142,昌吉回族自治州,亚心广场,颗粒物(PM10),62,73,65,39,42,38,38,,,15,31,6,7,0.5,0.8
2025-11-27T0700,1120A,125.2863,43.9027,长春市,客车厂,,49,37,110,34,97,24,24,,,33,34,8,11,0.4,0.8
2025-11-27T0700,1121A,125.2841,43.8463,长春市,邮电学院,,46,34,127,32,97,35,35,,,23,35,10,14,0.4,0.8
2025-11-27T0700,1122A,125.3716,43.8772,长春市,劳动公园,,36,36,120,17,79,39,39,,,21,33,9,13,0.5,0.7
2025-11-27T0700,1123A,125.3297,43.8805,长春市,园林处,,36,31,111,25,91,33,33,,,19,30,6,10,0.4,0.8
2025-11-27T0700,1124A,125.4605,43.79,长春市,净月潭,,38,38,118,15,76,41,41,,,16,27,7,9,0.4,0.8
2025-11-27T0700,1125A,125.7194,43.515,长春市,甩湾子,颗粒物(PM10),51,52,163,31,146,38,38,,,14,32,5,7,0.0,0.7
2025-11-27T0700,1126A,125.3863,43.8447,长春市,经开区环卫处,,35,35,117,22,84,35,35,,,20,33,7,11,0.3,0.7
2025-11-27T0700,1127A,125.245,43.7783,长春市,高新区管委会,,36,,131,25,107,31,31,,,15,33,6,10,0.3,0.8
2025-11-27T0700,1128A,125.1761,43.8325,长春市,岱山公园,,30,26,126,21,99,33,33,,,16,35,6,10,0.4,0.9
2025-11-27T0700,4281A,125.3346,43.9164,长春市,北亚泰大街1068号,,45,35,109,31,95,28,28,,,22,35,6,10,0.4,0.9
2025-11-27T0700,1335A,113.0833,28.2325,长沙市,经开区环保局,颗粒物(PM10),72,94,87,28,36,51,51,,,22,35,6,6,0.4,0.5
2025-11-27T0700,1336A,112.8872,28.2189,长沙市,高开区环保局,细颗粒物(PM2.5),79,85,84,58,42,33,33,,,21,26,7,7,0.6,0.6
2025-11-27T0700,1337A,113.0792,28.2053,长沙市,马坡岭,颗粒物(PM10),76,101,90,29,38,59,59,,,23,46,8,7,0.5,0.7
2025-11-27T0700,1338A,112.9394,28.19,长沙市,湖南师范大学,颗粒物(PM10),68,85,85,38,33,54,54,,,23,30,7,6,0.6,0.7
2025-11-27T0700,1339A,113.0178,28.1322,长沙市,雨花区环保局,颗粒物(PM10),66,82,86,28,31,54,54,,,27,35,9,9,0.3,0.3
2025-11-27T0700,1340A,112.9792,28.2597,长沙市,伍家岭,颗粒物(PM10),66,81,90,36,31,24,24,,,48,44,8,6,0.3,0.4
2025-11-27T0700,1341A,113.0014,28.1944,长沙市,火车新站,颗粒物(PM10),70,89,91,36,36,52,52,,,30,40,9,7,0.4,0.5
2025-11-27T0700,1342A,112.9844,28.1178,长沙市,天心区环保局,颗粒物(PM10),67,83,86,34,37,44,44,,,33,35,8,7,0.3,0.4
2025-11-27T0700,1343A,112.8908,28.1308,长沙市,湖南中医药大学,颗粒物(PM10),67,84,91,45,37,15,15,,,43,38,7,7,0.5,0.5
2025-11-27T0700,1344A,112.9581,28.3611,长沙市,沙坪,,,,,,,,,,,,,,,,
2025-11-27T0700,1727A,113.1147,36.1547,长治市,清华站,颗粒物(PM10),154,257,256,53,50,49,49,,,14,15,9,10,0.2,0.3
2025-11-27T0700,1730A,113.0886,36.2125,长治市,审计局,颗粒物(PM10),146,242,264,51,51,43,43,,,23,18,6,7,0.3,0.4
2025-11-27T0700,1731A,113.0844,36.1856,长治市,长治八中,颗粒物(PM10),156,262,290,70,65,48,48,,,11,11,8,8,0.4,0.4
2025-11-27T0700,2845A,113.1569,36.1911,长治市,德盛苑,颗粒物(PM10),136,221,279,56,53,52,52,,,20,15,6,7,0.2,0.3
2025-11-27T0700,3568A,113.06,36.0464,长治市,向阳小学,颗粒物(PM10),148,245,312,64,63,52,52,,,17,12,10,11,0.4,0.4
2025-11-27T0700,3569A,112.8792,36.3144,长治市,屯留一中,颗粒物(PM10),138,226,280,56,54,45,45,,,15,14,7,8,0.3,0.4
2025-11-27T0700,4189A,113.1131,36.19948,长治市,英华南巷50号,颗粒物(PM10),149,248,292,61,72,54,54,,,9,12,4,5,0.4,0.5
2025-11-27T0700,4190A,113.2367,36.3344,长治市,学府街1号,颗粒物(PM10),113,176,306,62,63,38,38,,,21,15,14,8,0.9,0.8
2025-11-27T0700,1854A,111.6975,28.9703,常德市,市二中,颗粒物(PM10),52,53,65,32,32,12,12,,,17,20,5,6,0.4,0.4
2025-11-27T0700,1857A,111.7158,29.1456,常德市,白鹤山,,,,,,,,,,,,,,,,
2025-11-27T0700,3138A,111.7153,29.0289,常德市,武陵区永安,细颗粒物(PM2.5),72,79,70,52,40,23,23,,,17,15,11,8,0.5,0.4
2025-11-27T0700,3139A,111.6892,28.9881,常德市,鼎城区玉霞,颗粒物(PM10),54,58,64,37,39,4,4,,,16,18,6,6,0.7,0.6
2025-11-27T0700,3140A,111.6625,29.0531,常德市,武陵区长庚,细颗粒物(PM2.5),75,87,74,55,42,24,24,,,22,20,8,5,0.4,0.3
2025-11-27T0700,1196A,119.9633,31.762,常州市,市监测站,颗粒物(PM10),105,160,117,36,49,46,46,,,22,51,1,8,0.4,0.7
2025-11-27T0700,1200A,119.9468,31.7069,常州市,武进监测站,颗粒物(PM10),108,165,117,41,52,56,56,,,13,45,4,12,0.2,0.5
2025-11-27T0700,1201A,119.9255,31.9087,常州市,安家,颗粒物(PM10),114,178,115,39,49,35,35,,,23,55,8,13,0.4,0.7
2025-11-27T0700,3002A,119.9805,31.8174,常州市,行政中心,颗粒物(PM10),192,333,132,35,46,44,44,,,23,42,6,11,0.4,0.7
2025-11-27T0700,3003A,120.0522,31.7748,常州市,经开区,颗粒物(PM10),120,190,136,39,50,49,49,,,15,44,7,12,0.2,0.8
2025-11-27T0700,3010A,119.9025,31.7964,常州市,钟楼,颗粒物(PM10),98,146,111,53,50,43,43,,,24,43,7,15,0.4,0.6
2025-11-27T0700,3429A,119.8598,31.7066,常州市,武进经发区,颗粒物(PM10),119,188,128,34,53,44,44,,,24,45,9,13,0.4,0.6
2025-11-27T0700,3430A,119.5826,31.7245,常州市,金坛城区,颗粒物(PM10),137,223,133,32,53,56,56,,,13,33,6,9,0.4,0.7
2025-11-27T0700,2220A,120.4318,41.5881,朝阳市,西梁,,13,12,50,9,24,41,41,,,13,18,7,9,0.4,0.5
2025-11-27T0700,2221A,120.4521,41.5646,朝阳市,河畔小区,,13,12,42,8,20,40,40,,,17,17,8,9,0.4,0.5
2025-11-27T0700,2222A,120.4176,41.5648,朝阳市,八里堡,,15,15,48,10,21,37,37,,,18,20,7,10,0.1,0.3
2025-11-27T0700,2223A,120.3806,41.5969,朝阳市,农业园区,,14,,36,8,20,42,42,,,11,16,8,8,0.3,0.5
2025-11-27T0700,1705A,116.6367,23.6719,潮州市,西园路,,,,,,,,,,,,,,,,
2025-11-27T0700,3026A,116.6183,23.6608,潮州市,市政府,,48,48,77,17,31,72,72,,,6,12,5,6,0.4,0.5
2025-11-27T0700,4036A,116.6461,23.6761,潮州市,金山,,38,38,65,21,36,65,65,,,7,11,3,3,0.4,0.4
2025-11-27T0700,2472A,113.0073,25.9061,郴州市,马头岭,,,,,,,,,,,,,,,,
2025-11-27T0700,2473A,113.0116,25.8226,郴州市,市职中,细颗粒物(PM2.5),53,49,60,37,33,4,4,,,24,25,2,10,0.6,0.5
2025-11-27T0700,2475A,113.0383,25.8071,郴州市,市审计局,颗粒物(PM10),54,57,65,30,33,6,6,,,27,28,4,12,0.6,0.5
2025-11-27T0700,2476A,113.0348,25.7759,郴州市,市环保局,细颗粒物(PM2.5),57,59,76,40,40,2,2,,,32,30,1,10,0.5,0.6
2025-11-27T0700,4252A,113.0138,25.8011,郴州市,好美居路49号,,46,43,63,32,37,16,16,,,28,30,5,13,0.4,0.4
2025-11-27T0700,1431A,103.9728,30.7236,成都市,金泉两河,细颗粒物(PM2.5),132,126,117,100,77,0,0,,,39,44,2,3,0.8,0.7
2025-11-27T0700,1432A,104.176,30.6872,成都市,十里店,细颗粒物(PM2.5),133,132,127,101,84,5,5,,,49,53,4,4,0.9,0.9
2025-11-27T0700,1433A,104.079,30.5706,成都市,三瓦窑,细颗粒物(PM2.5),144,164,130,110,77,2,2,,,46,54,8,5,1.0,0.9
2025-11-27T0700,1434A,104.1114,30.63,成都市,沙河铺,细颗粒物(PM2.5),144,126,126,110,95,1,1,,,43,57,5,4,0.8,0.9
2025-11-27T0700,1437A,104.0786,30.6531,成都市,君平街,细颗粒物(PM2.5),186,158,132,140,99,1,1,,,44,53,17,5,1.3,1
2025-11-27T0700,1438A,103.613,31.0283,成都市,灵岩寺,,,,,,,,,,,,,,,,
2025-11-27T0700,2880A,104.0239,30.65639,成都市,大石西路,细颗粒物(PM2.5),125,118,98,95,74,1,1,,,40,49,4,3,1.1,0.9
2025-11-27T0700,3136A,104.2725,30.5589,成都市,龙泉驿区区政府,细颗粒物(PM2.5),100,102,99,75,55,21,21,,,26,32,6,6,0.7,0.6
2025-11-27T0700,3357A,104.0106,30.6931,成都市,金博路,细颗粒物(PM2.5),137,120,109,104,73,0,0,,,43,50,9,5,1.1,0.9
2025-11-27T0700,3359A,104.0578,30.5225,成都市,华阳,细颗粒物(PM2.5),144,151,118,110,76,6,6,,,38,51,4,5,0.9,0.8
2025-11-27T0700,3488A,104.3880,30.7467,成都市,青石路225号,细颗粒物(PM2.5),92,92,110,68,69,2,2,,,33,42,4,5,0.8,0.8
2025-11-27T0700,3489A,104.0789,30.4072,成都市,科学城,细颗粒物(PM2.5),105,117,113,79,71,4,4,,,32,44,6,6,0.9,0.7
2025-11-27T0700,4011A,103.8506,30.6947,成都市,光华大道三段,细颗粒物(PM2.5),129,134,125,98,86,2,2,,,34,44,3,3,0.9,0.9
2025-11-27T0700,4224A,104.2433,30.5353,成都市,鲸龙路1057号,细颗粒物(PM2.5),118,132,109,89,67,13,13,,,29,42,6,6,0.9,0.8
2025-11-27T0700,1062A,117.9531,40.9081,承德市,铁路,,20,20,63,3,27,50,50,,,7,30,3,7,0.2,0.7
2025-11-27T0700,1063A,117.9392,40.9763,承德市,中国银行,,14,14,51,6,21,37,37,,,10,23,2,4,0.2,0.5
2025-11-27T0700,1064A,117.9503,40.928,承德市,开发区,,30,30,62,16,30,57,57,,,3,23,4,9,0.1,0.5
2025-11-27T0700,1066A,117.9268,41.0026,承德市,离宫,,,,,,,,,,,,,,,,
2025-11-27T0700,4274A,117.7994,40.9605,承德市,滨河大街98号,,13,,50,9,26,41,41,,,5,23,3,6,0.2,0.7
2025-11-27T0700,2314A,117.47,30.6618,池州市,池州学院,颗粒物(PM10),97,143,97,35,38,43,43,,,21,29,6,9,0.4,0.7
2025-11-27T0700,3237A,117.4918,30.6617,池州市,展览馆,,,66,88,30,35,,,,,32,30,6,8,1.1,0.7
2025-11-27T0700,3333A,117.5627,30.695,池州市,第八中学,颗粒物(PM10),122,193,111,39,38,42,42,,,28,33,7,10,0.6,0.7
2025-11-27T0700,3334A,117.5038,30.6243,池州市,第十二中学,颗粒物(PM10),77,103,91,34,31,10,10,,,48,35,6,8,1.1,1
2025-11-27T0700,1744A,118.9233,42.2816,赤峰市,松山一中,,14,9,36,3,12,35,35,,,27,28,6,10,0.5,0.6
2025-11-27T0700,1745A,118.9576,42.2728,赤峰市,哈达街,,13,11,38,8,12,41,41,,,15,20,12,15,0.5,0.5
2025-11-27T0700,1746A,118.8788,42.2554,赤峰市,天义路,,12,9,28,3,13,37,37,,,24,17,11,9,0.7,0.6
2025-11-27T0700,3058A,119.2658,42.0353,赤峰市,银河街,,18,18,55,3,24,53,53,,,8,17,9,11,0.4,0.7
2025-11-27T0700,3286A,118.9359,42.3147,赤峰市,桥北物流园区,细颗粒物(PM2.5),53,,34,37,19,28,28,,,18,16,9,19,0.4,0.5
2025-11-27T0700,2521A,107.3476,22.4136,崇左市,市环保局江州分局,,46,46,52,26,26,4,4,,,20,16,7,6,0.5,0.4
2025-11-27T0700,4256A,107.3750,22.3736,崇左市,石景林东路7号,,33,33,41,23,25,24,24,,,13,14,7,8,0.5,0.5
2025-11-27T0700,2298A,118.3093,32.3153,滁州市,老年大学,颗粒物(PM10),230,371,152,52,44,54,54,,,7,22,10,11,0.3,0.6
2025-11-27T0700,2299A,118.3244,32.2786,滁州市,人大宾馆,颗粒物(PM10),365,472,183,48,43,58,58,,,3,25,4,10,0.2,0.5
2025-11-27T0700,3207A,118.3118,32.3038,滁州市,市政府原办公楼,颗粒物(PM10),255,388,161,53,43,57,57,,,11,27,4,9,0.3,0.7
2025-11-27T0700,3331A,118.3267,32.2634,滁州市,图书馆,颗粒物(PM10),255,388,144,45,34,58,58,,,7,25,6,12,0.2,0.5
2025-11-27T0700,2605A,101.5482,25.0441,楚雄彝族自治州,州环境监测站,,30,30,35,21,23,5,5,,,30,31,19,13,0.7,0.8
2025-11-27T0700,2606A,101.538,25.0492,楚雄彝族自治州,市经济开发区,,32,32,44,19,26,11,11,,,16,21,6,10,0.5,0.6
2025-11-27T0700,2548A,107.5277,31.2827,达州市,达州职业技术学院,,,,,,,,,,,,,,,,
2025-11-27T0700,2549A,107.5086,31.2186,达州市,市环境监测站,颗粒物(PM10),53,55,74,36,39,1,1,,,25,39,5,10,0.7,0.8
2025-11-27T0700,2550A,107.4988,31.2132,达州市,凤凰小区,,,56,87,39,44,3,3,,,28,43,4,9,,0.7
2025-11-27T0700,2551A,107.5082,31.1986,达州市,达县机关宾馆,细颗粒物(PM2.5),64,61,88,46,46,2,2,,,27,41,4,8,0.7,0.8
2025-11-27T0700,2552A,107.4644,31.2124,达州市,市政中心,颗粒物(PM10),59,67,94,36,42,3,3,,,27,42,5,9,0.6,0.8
2025-11-27T0700,2614A,100.1542,25.7054,大理白族自治州,大理市环境监测站,,38,,26,26,25,62,62,,,7,22,6,6,0.6,0.7
2025-11-27T0700,2615A,100.2171,25.5811,大理白族自治州,大理古城,,38,28,34,26,20,56,56,,,13,16,7,8,0.5,0.6
2025-11-27T0700,1109A,121.612,38.9741,大连市,甘井子,,49,49,74,8,32,45,45,,,18,39,15,15,0.3,0.7
2025-11-27T0700,1110A,121.565,38.9511,大连市,周水子,,45,45,71,10,37,48,48,,,11,39,4,7,0.2,0.5
2025-11-27T0700,1111A,121.5637,38.8845,大连市,星海三站,,42,42,62,8,32,47,47,,,15,26,6,9,0.3,0.5
2025-11-27T0700,1112A,121.6302,38.9117,大连市,青泥洼桥,,25,25,69,8,29,46,46,,,15,30,10,13,0.3,0.5
2025-11-27T0700,1113A,121.6251,38.8638,大连市,傅家庄,,42,42,68,8,29,45,45,,,12,20,8,11,0.1,0.4
2025-11-27T0700,1114A,121.5213,38.8661,大连市,七贤岭,颗粒物(PM10),51,51,72,9,32,48,48,,,9,27,6,8,0.3,0.6
2025-11-27T0700,1115A,121.2529,38.8061,大连市,旅顺,,30,30,70,10,34,53,53,,,5,21,6,7,0.2,0.5
2025-11-27T0700,1116A,121.7485,39.1311,大连市,金州,,30,30,74,8,32,50,50,,,4,30,6,10,0.2,0.5
2025-11-27T0700,1117A,121.7811,39.0496,大连市,开发区,,50,50,63,8,31,47,47,,,8,30,9,10,0.3,0.5
2025-11-27T0700,1118A,121.9762,39.0631,大连市,双D港,,43,43,74,10,27,52,52,,,10,19,10,13,0.5,0.6
2025-11-27T0700,1789A,124.81117,46.03138,大庆市,大同区,,25,25,100,13,74,54,54,,,7,19,5,7,0.6,0.9
2025-11-27T0700,1790A,125.129,46.533,大庆市,龙凤区,,29,27,90,20,64,51,51,,,12,22,6,7,0.5,0.8
2025-11-27T0700,1791A,124.902,46.408,大庆市,红岗区,,22,22,75,8,52,47,47,,,10,17,4,6,0.2,0.4
2025-11-27T0700,1792A,125.153,46.586,大庆市,萨尔图区,,15,15,100,9,74,41,41,,,18,29,9,9,0.4,0.7
2025-11-27T0700,1793A,124.9042,46.6215,大庆市,让胡路区,,23,23,76,14,54,55,55,,,9,17,6,8,0.4,0.6
2025-11-27T0700,3481A,125.141,46.634,大庆市,萨区政府监测点,,17,17,94,3,55,49,49,,,6,17,8,10,0.3,0.6
2025-11-27T0700,1721A,113.3819,40.1097,大同市,果树场,,36,36,239,8,42,36,36,,,24,18,7,8,0.8,0.5
2025-11-27T0700,1723A,113.2994,40.0758,大同市,云冈宾馆,,35,35,274,7,40,44,44,,,14,10,8,5,0.4,0.3
2025-11-27T0700,1724A,113.3444,40.0917,大同市,大同大学,,17,17,270,9,53,46,46,,,18,13,4,3,0.4,0.4
2025-11-27T0700,1725A,113.2661,40.1269,大同市,安家小村,,18,16,285,12,23,48,48,,,10,8,9,7,0.5,0.3
2025-11-27T0700,1726A,113.2711,40.0844,大同市,教育学院,,20,20,292,8,47,41,41,,,19,11,7,4,0.5,0.3
2025-11-27T0700,3282A,113.3397,40.0597,大同市,大同市卫生学校,,24,24,264,13,44,40,40,,,19,14,18,5,0.7,0.5
2025-11-27T0700,3565A,113.1367,40.1122,大同市,云冈站,,18,18,271,3,55,44,44,,,11,7,5,4,0.5,0.4
2025-11-27T0700,3566A,113.1186,40.2556,大同市,图书馆,,14,14,311,6,65,41,41,,,5,5,3,4,0.4,0.4
2025-11-27T0700,3567A,113.5931,40.0461,大同市,区一中,,26,22,305,18,35,43,43,,,15,10,12,7,0.4,0.4
2025-11-27T0700,4199A,113.2798,40.0997,大同市,魏都大道141号,,22,22,298,14,46,39,39,,,21,12,5,4,0.7,0.6
2025-11-27T0700,2269A,124.1069,50.4097,大兴安岭地区,科技局,,16,15,25,11,16,31,31,,,3,7,4,5,0.2,0.3
2025-11-27T0700,3663A,124.1164,50.4278,大兴安岭地区,红旗社区,,13,9,29,8,22,14,14,,,26,21,17,8,0.3,0.5
2025-11-27T0700,1600A,124.3303,40.0625,丹东市,江湾东路,,45,34,56,31,42,34,34,,,23,19,8,11,0.9,1
2025-11-27T0700,1601A,124.4256,40.1503,丹东市,临江后街,,32,32,51,20,33,26,26,,,25,19,7,9,0.7,0.6
2025-11-27T0700,1602A,124.3933,40.1461,丹东市,元宝山,,33,30,48,23,39,37,37,,,15,17,6,9,0.9,0.8
2025-11-27T0700,1603A,124.3633,40.1092,丹东市,民主桥,,33,33,63,21,41,38,38,,,26,31,6,10,1.0,1.1
2025-11-27T0700,3541A,109.5726,19.5167,儋州市,第一中学子站,颗粒物(PM10),51,51,65,25,31,66,66,,,8,9,10,9,0.5,0.5
2025-11-27T0700,3542A,109.5567,19.5187,儋州市,东坡学校子站,颗粒物(PM10),52,53,58,26,31,67,67,,,13,12,4,4,0.5,0.6
2025-11-27T0700,2616A,98.5842,24.428,德宏傣族景颇族自治州,德宏州监测站,,40,31,38,28,29,4,4,,,24,20,8,8,0.6,0.6
2025-11-27T0700,3677A,98.5881,24.4368,德宏傣族景颇族自治州,芒市人民政府综合楼,,28,26,37,19,20,19,19,,,11,14,7,7,0.6,0.6
2025-11-27T0700,1901A,104.4239,31.1208,德阳市,东山公园,细颗粒物(PM2.5),118,109,110,89,69,31,31,,,20,32,1,2,0.9,0.9
2025-11-27T0700,1902A,104.3826,31.1317,德阳市,西小区,细颗粒物(PM2.5),124,136,128,94,71,2,2,,,44,41,4,4,0.9,0.7
2025-11-27T0700,1904A,104.3553,31.1091,德阳市,耐火材料厂,细颗粒物(PM2.5),129,130,125,98,82,2,2,,,52,50,3,2,1.1,0.9
2025-11-27T0700,3639A,104.4019,31.1244,德阳市,市教育局,细颗粒物(PM2.5),114,108,110,86,71,21,21,,,42,46,1,1,0.9,0.8
2025-11-27T0700,1622A,116.3032,37.4674,德州市,儿童乐园,,41,41,199,3,41,45,45,,,14,22,10,12,0.4,0.6
2025-11-27T0700,1624A,116.2991,37.4451,德州市,监理站,,19,19,203,3,37,57,57,,,9,23,10,13,0.3,0.4
2025-11-27T0700,3066A,116.2721,37.4379,德州市,九衢泉纯净水厂,,22,22,193,3,39,44,44,,,20,31,12,20,0.7,0.8
2025-11-27T0700,3371A,116.3728,37.4403,德州市,开发区人民医院,,28,19,190,19,46,57,57,,,14,27,12,15,0.4,0.6
2025-11-27T0700,3511A,116.5652,37.3319,德州市,陵城艺术中心,,29,29,192,3,40,52,52,,,23,34,11,13,0.2,0.4
2025-11-27T0700,4292A,116.3525,37.4209,德州市,新河东路,,19,19,185,3,42,54,54,,,19,39,9,13,0.4,0.7
2025-11-27T0700,2621A,99.7056,27.8317,迪庆藏族自治州,迪庆州站,,23,23,32,12,21,36,36,,,9,13,5,6,0.6,0.8
2025-11-27T0700,3180A,99.7136,27.8094,迪庆藏族自治州,质量技术监督局,,33,23,46,23,27,33,33,,,14,21,7,8,0.5,0.7
2025-11-27T0700,4257A,104.6092,35.5962,定西市,将台街,颗粒物(PM10),134,218,244,44,50,12,12,,,24,20,8,8,0.6,0.6
2025-11-27T0700,4309A,104.6159,35.5701,定西市,正龙路62号,颗粒物(PM10),138,226,269,48,49,30,30,,,12,13,7,6,0.3,0.4
2025-11-27T0700,1389A,113.7547,23.0494,东莞市,莞城梨川,,40,40,68,17,29,76,76,,,15,24,5,6,0.5,0.5
2025-11-27T0700,1390A,113.7944,23.0128,东莞市,东城石井,,37,37,62,14,27,71,71,,,15,20,8,9,0.3,0.4
2025-11-27T0700,1391A,113.7383,22.9658,东莞市,南城西平,,38,38,64,13,27,52,52,,,35,37,9,10,0.4,0.5
2025-11-27T0700,3319A,113.7338,23.0381,东莞市,万江金泰,,41,41,68,16,28,73,73,,,12,23,6,7,0.6,0.7
2025-11-27T0700,3626A,113.7533,23.0202,东莞市,南城元岭,,32,32,65,14,28,80,80,,,13,21,7,9,0.2,0.3
2025-11-27T0700,3627A,113.7875,23.0457,东莞市,东城主山,,38,38,70,15,32,74,74,,,18,24,3,4,0.2,0.3
2025-11-27T0700,1666A,118.6614,37.4309,东营市,市环保局,,,56,185,7,46,39,39,,,21,39,7,14,,0.8
2025-11-27T0700,3036A,118.6904,37.4338,东营市,开发区管委会,颗粒物(PM10),59,68,190,7,50,45,45,,,19,42,6,11,0.2,0.5
2025-11-27T0700,3365A,118.5719,37.565,东营市,垦利区民丰路,,46,46,178,3,46,43,43,,,17,42,3,7,0.7,1
2025-11-27T0700,3498A,118.5055,37.8612,东营市,河口城区,,39,39,143,3,43,63,63,,,13,42,3,6,0.3,0.6
2025-11-27T0700,3646A,118.4978,37.4623,东营市,胜利站,颗粒物(PM10),76,102,176,3,48,43,43,,,20,48,9,15,0.5,0.8
2025-11-27T0700,3734A,118.35,37.26,东营市,理想之城,颗粒物(PM10),56,61,198,9,48,40,40,,,21,43,12,12,0.4,0.7
2025-11-27T0700,1591A,110.0023,39.8129,鄂尔多斯市,综合楼,颗粒物(PM10),111,171,272,41,43,47,47,,,13,7,7,6,0.4,0.3
2025-11-27T0700,1592A,109.9486,39.8261,鄂尔多斯市,巴音孟克林场办事处,颗粒物(PM10),141,232,344,56,48,58,58,,,9,6,6,5,0.3,0.2
2025-11-27T0700,1593A,109.7736,39.5986,鄂尔多斯市,康泽苑,颗粒物(PM10),125,200,182,51,50,45,45,,,11,6,3,4,0.3,0.2
2025-11-27T0700,1594A,109.8119,39.5989,鄂尔多斯市,华泰汽车城,颗粒物(PM10),97,144,354,29,50,35,35,,,13,6,5,5,0.2,0.2
2025-11-27T0700,1595A,109.9734,39.7884,鄂尔多斯市,奥林花园,颗粒物(PM10),122,193,437,39,42,42,42,,,13,11,6,8,0.4,0.3
2025-11-27T0700,2436A,114.8938,30.3994,鄂州市,市政府,颗粒物(PM10),80,109,92,40,43,27,27,,,33,46,10,18,0.5,1
2025-11-27T0700,2437A,114.8989,30.3714,鄂州市,赵家坝,颗粒物(PM10),78,106,97,38,40,37,37,,,18,29,9,12,0.6,0.8
2025-11-27T0700,3654A,114.8094,30.4089,鄂州市,精准医疗中心,颗粒物(PM10),70,90,92,42,43,18,18,,,50,45,4,7,1.0,1
2025-11-27T0700,2454A,109.4978,30.2981,恩施土家族苗族自治州,湖北民院,细颗粒物(PM2.5),52,46,66,36,54,14,14,,,11,17,6,7,0.6,0.7
2025-11-27T0700,2455A,109.4707,30.2798,恩施土家族苗族自治州,州电力总公司,细颗粒物(PM2.5),64,53,74,46,57,2,2,,,12,24,6,6,0.6,0.7
2025-11-27T0700,3549A,109.5061,30.3772,恩施土家族苗族自治州,龙凤新区,,39,39,57,26,36,3,3,,,6,17,7,7,0.0,0.1
2025-11-27T0700,2499A,108.3411,21.6158,防城港市,沙万,,50,50,57,22,26,71,71,,,8,12,8,8,0.3,0.4
2025-11-27T0700,2500A,108.3514,21.7731,防城港市,防城档案局,颗粒物(PM10),55,59,70,15,27,71,71,,,11,16,6,7,0.3,0.4
2025-11-27T0700,2501A,108.3506,21.6414,防城港市,大海花园,,33,33,51,20,26,78,78,,,8,11,7,7,0.4,0.4
2025-11-27T0700,1371A,113.1294,23.0067,佛山市,湾梁,,41,41,67,22,24,43,43,,,35,28,14,10,0.6,0.5
2025-11-27T0700,1372A,113.1083,23.0478,佛山市,华材职中,,48,48,77,28,34,41,41,,,38,36,12,9,0.5,0.5
2025-11-27T0700,1373A,113.144,23.0453,佛山市,南海气象局,,47,47,72,23,27,47,47,,,32,28,13,10,0.5,0.5
2025-11-27T0700,1374A,113.2881,22.8094,佛山市,顺德苏岗,,35,35,61,14,25,54,54,,,28,30,8,9,0.2,0.4
2025-11-27T0700,1376A,112.8383,22.8678,佛山市,高明孔堂,颗粒物(PM10),53,55,75,25,29,48,48,,,28,28,14,9,0.4,0.3
2025-11-27T0700,1377A,112.8836,23.1588,佛山市,三水监测站,颗粒物(PM10),57,63,74,24,31,42,42,,,33,31,12,11,0.6,0.5
2025-11-27T0700,1378A,112.867,23.185,佛山市,三水云东海,,35,35,64,23,28,38,38,,,34,32,8,9,0.4,0.5
2025-11-27T0700,3625A,113.2544,22.7642,佛山市,容桂街道办,,36,36,69,17,28,53,53,,,31,33,7,7,0.5,0.6
2025-11-27T0700,1280A,119.3903,26.0543,福州市,鼓山,,,,80,,22,,,95,,,9,,2,,0.6
2025-11-27T0700,1282A,119.2681,26.0504,福州市,师大,颗粒物(PM10),61,71,96,37,32,61,61,,,19,15,9,7,0.3,0.3
2025-11-27T0700,1283A,119.2984,26.1028,福州市,五四北路,颗粒物(PM10),65,80,92,29,29,67,67,,,19,17,5,5,0.5,0.5
2025-11-27T0700,1284A,119.2648,26.0768,福州市,杨桥西路,颗粒物(PM10),63,76,97,30,28,56,56,,,19,14,5,5,0.4,0.4
2025-11-27T0700,1285A,119.317,26.0746,福州市,紫阳,颗粒物(PM10),66,82,91,32,29,68,68,,,22,16,8,7,0.5,0.5
2025-11-27T0700,3048A,119.5799,26.0936,福州市,九龙,颗粒物(PM10),63,75,79,26,25,82,82,,,10,10,5,4,0.3,0.3
2025-11-27T0700,3526A,119.5189,25.9664,福州市,吴航,颗粒物(PM10),65,79,82,29,25,54,54,,,32,14,7,7,0.4,0.4
2025-11-27T0700,1755A,123.7977,41.8491,抚顺市,望花区,,35,33,72,24,36,32,32,,,18,24,8,12,0.5,0.7
2025-11-27T0700,1756A,123.9161,41.8822,抚顺市,顺城区,,37,37,68,24,35,36,36,,,16,25,5,8,0.5,0.7
2025-11-27T0700,1757A,124.0436,41.8611,抚顺市,东洲区,,43,43,59,22,30,36,36,,,14,19,5,8,0.5,0.7
2025-11-27T0700,1758A,123.9247,41.8642,抚顺市,新抚区,,39,39,74,23,37,34,34,,,15,22,6,9,0.5,0.8
2025-11-27T0700,1759A,124.0972,41.8961,抚顺市,大伙房水库,,42,42,57,27,31,44,44,,,14,15,9,11,0.5,0.6
2025-11-27T0700,1760A,123.7086,41.8391,抚顺市,沈抚新城,,33,33,70,20,35,40,40,,,11,19,5,9,0.5,0.7
2025-11-27T0700,2376A,116.2127,28.0814,抚州市,桐源党溪,,,,,,,,,,,,,,,,
2025-11-27T0700,2377A,116.3544,27.9831,抚州市,市站,颗粒物(PM10),69,88,105,36,39,30,30,,,21,23,11,10,0.6,0.6
2025-11-27T0700,2378A,116.3565,27.963,抚州市,血防站,颗粒物(PM10),65,79,99,35,39,14,14,,,35,24,4,8,0.5,0.5
2025-11-27T0700,2379A,116.3564,28.0007,抚州市,采茶剧团,颗粒物(PM10),69,87,107,44,42,6,6,,,33,20,4,7,0.5,0.6
2025-11-27T0700,2380A,116.385,27.9647,抚州市,医学分院,颗粒物(PM10),78,106,121,38,45,32,32,,,24,25,5,7,1.0,1
2025-11-27T0700,2207A,121.6094,41.998,阜新市,工业园区,,19,19,56,3,26,48,48,,,10,20,6,15,0.2,0.5
2025-11-27T0700,2208A,121.6697,42.0279,阜新市,长青街,,16,6,42,3,19,50,50,,,5,18,6,15,0.3,0.6
2025-11-27T0700,2209A,121.6673,42.0705,阜新市,农业园区,,15,6,44,3,16,47,47,,,7,16,3,11,0.2,0.4
2025-11-27T0700,2210A,121.6717,42.0224,阜新市,东苑,,16,8,51,8,24,50,50,,,8,21,5,20,0.4,0.7
2025-11-27T0700,2211A,121.6506,42.0498,阜新市,玉龙新城,,15,6,54,3,23,48,48,,,9,21,9,15,0.3,0.6
2025-11-27T0700,2301A,115.8277,32.8929,阜阳市,市监测站,颗粒物(PM10),175,299,180,81,52,59,59,,,6,17,3,5,0.2,0.3
2025-11-27T0700,2303A,115.8554,32.8605,阜阳市,开发区,颗粒物(PM10),246,382,249,48,34,64,64,,,12,20,4,5,0.3,0.4
2025-11-27T0700,2875A,115.784,32.8892,阜阳市,阜阳职业技术学院,颗粒物(PM10),173,296,173,60,40,65,65,,,9,16,5,6,0.1,0.2
2025-11-27T0700,3468A,115.7901,32.8613,阜阳市,市规划展馆,颗粒物(PM10),195,339,270,54,49,62,62,,,7,14,6,5,0.4,0.6
2025-11-27T0700,3469A,115.836,32.9183,阜阳市,枣园社区,颗粒物(PM10),249,384,221,64,46,65,65,,,12,21,3,3,0.1,0.2
2025-11-27T0700,2669A,102.9099,34.9841,甘南藏族自治州,州政府,颗粒物(PM10),53,55,77,34,35,24,24,,,27,27,5,6,0.8,0.7
2025-11-27T0700,3380A,102.8914,34.9617,甘南藏族自治州,甘肃民族师范学院,颗粒物(PM10),53,56,78,13,16,15,15,,,32,15,5,5,0.8,0.5
2025-11-27T0700,2570A,101.9603,30.0475,甘孜藏族自治州,水桥子,,17,11,25,3,7,53,53,,,16,29,7,8,0.5,0.5
2025-11-27T0700,3065A,101.9533,29.9972,甘孜藏族自治州,州环保局,,22,14,23,8,5,70,70,,,5,12,5,5,0.5,0.5
2025-11-27T0700,3414A,115.8347,28.932,赣江新区,桑海产业园,颗粒物(PM10),51,51,82,20,25,31,31,,,37,36,12,12,0.5,0.6
2025-11-27T0700,2362A,114.9017,25.9149,赣州市,通天岩,,44,44,58,17,19,41,41,,,4,6,16,16,1.2,1
2025-11-27T0700,2363A,114.9367,25.8664,赣州市,地委,颗粒物(PM10),57,64,64,27,26,30,30,,,18,20,6,7,0.4,0.4
2025-11-27T0700,2364A,114.9461,25.8481,赣州市,气象台,颗粒物(PM10),64,77,76,27,23,12,12,,,34,26,6,6,0.7,0.7
2025-11-27T0700,2365A,114.9322,25.8333,赣州市,市图书馆,颗粒物(PM10),58,65,74,27,28,12,12,,,41,24,3,5,0.4,0.5
2025-11-27T0700,2366A,114.8905,25.8471,赣州市,华坚鞋城,颗粒物(PM10),60,70,74,28,23,30,30,,,27,19,5,5,0.3,0.3
2025-11-27T0700,3109A,115.0093,25.8613,赣州市,赣县区卫计委,,49,36,70,34,32,14,14,,,20,21,7,7,0.5,0.5
2025-11-27T0700,2683A,106.2319,36.1417,固原市,马园,,,,,,,,,,,,,,,,
2025-11-27T0700,2684A,106.2792,36.0022,固原市,监测站,颗粒物(PM10),85,120,326,30,49,76,76,,,7,7,5,4,0.4,0.3
2025-11-27T0700,2685A,106.2375,36.0211,固原市,新区,颗粒物(PM10),86,121,310,21,44,82,82,,,3,3,6,4,0.2,0.1
2025-11-27T0700,3522A,106.2177,35.9959,固原市,原州区十五小,颗粒物(PM10),86,122,302,27,50,77,77,,,4,4,9,8,0.4,0.4
2025-11-27T0700,2543A,106.6308,30.5278,广安市,小平旧居,,,,,,,,,,,,,,,,
2025-11-27T0700,2544A,106.6303,30.4576,广安市,市委,细颗粒物(PM2.5),93,98,94,69,60,29,29,,,37,32,3,4,0.7,0.7
2025-11-27T0700,2545A,106.6271,30.4663,广安市,友谊中学,细颗粒物(PM2.5),80,87,85,59,50,24,24,,,37,31,7,7,1.0,0.9
2025-11-27T0700,2547A,106.6388,30.4551,广安市,广电花园,细颗粒物(PM2.5),85,82,79,63,52,32,32,,,28,23,3,3,0.8,0.7
2025-11-27T0700,2902A,106.6351,30.4865,广安市,北辰小学,细颗粒物(PM2.5),73,76,84,53,51,14,14,,,23,21,13,14,1.2,0.8
2025-11-27T0700,2523A,105.8945,32.4535,广元市,黑石坡,,,,,,,,,,,,,,,,
2025-11-27T0700,2524A,105.821,32.4444,广元市,老城,颗粒物(PM10),70,89,74,29,30,5,5,,,43,40,4,5,0.7,0.7
2025-11-27T0700,2526A,105.8628,32.4287,广元市,监测站,颗粒物(PM10),57,64,56,30,29,4,4,,,34,27,4,5,0.9,0.8
2025-11-27T0700,3617A,105.8047,32.4166,广元市,经开区,颗粒物(PM10),63,75,79,29,33,1,1,,,35,36,4,6,0.7,0.7
2025-11-27T0700,1345A,113.2347,23.1423,广州市,广雅中学,,49,49,75,21,30,32,32,,,54,42,11,10,0.5,0.6
2025-11-27T0700,1346A,113.2612,23.105,广州市,市五中,,45,45,72,21,32,46,46,,,45,32,12,12,0.5,0.5
2025-11-27T0700,1348A,113.3478,23.0916,广州市,广东商学院,,38,38,66,16,26,62,62,,,22,23,8,8,0.3,0.5
2025-11-27T0700,1349A,113.4332,23.1047,广州市,市八十六中,,35,35,52,18,26,55,55,,,26,16,7,8,0.3,0.4
2025-11-27T0700,1350A,113.3505,22.9483,广州市,番禺中学,,36,36,74,13,28,65,65,,,20,25,4,6,0.1,0.3
2025-11-27T0700,1351A,113.2146,23.3916,广州市,花都师范,,49,49,71,20,26,66,66,,,18,19,13,10,0.3,0.3
2025-11-27T0700,1352A,113.2597,23.1331,广州市,市监测站,,49,49,78,21,29,32,32,,,52,36,10,10,0.4,0.4
2025-11-27T0700,1353A,113.5618,23.312,广州市,九龙镇镇龙,,35,35,70,14,29,60,60,,,15,22,6,7,0.3,0.4
2025-11-27T0700,1354A,113.2765,23.1544,广州市,麓湖,,43,43,65,22,30,16,16,,,63,34,10,10,0.6,0.7
2025-11-27T0700,1355A,113.443,23.3035,广州市,帽峰山森林公园,,,,,,,,,,,,,,,,
2025-11-27T0700,2846A,113.3221,23.1322,广州市,体育西,,41,41,71,20,31,48,48,,,33,30,12,11,0.5,0.6
2025-11-27T0700,3298A,113.5717,23.5491,广州市,从化街口,,38,38,70,15,28,45,45,,,31,22,7,8,0.5,0.5
2025-11-27T0700,3299A,113.3472,23.3692,广州市,白云竹料,,49,49,71,23,28,60,60,,,20,20,7,7,0.5,0.5
2025-11-27T0700,3300A,113.2981,23.237,广州市,白云嘉禾,颗粒物(PM10),51,52,82,23,31,44,44,,,36,41,10,9,0.4,0.4
2025-11-27T0700,3301A,113.4256,23.1716,广州市,黄埔科学城,,32,32,63,12,25,80,80,,,8,15,6,7,0.5,0.5
2025-11-27T0700,3302A,113.3942,23.0483,广州市,番禺大学城,,42,42,59,13,25,56,56,,,30,23,9,11,0.3,0.3
2025-11-27T0700,3303A,113.4922,22.8168,广州市,南沙黄阁,颗粒物(PM10),53,55,81,12,25,52,52,,,43,39,9,11,0.3,0.4
2025-11-27T0700,3304A,113.5342,22.7896,广州市,南沙街,颗粒物(PM10),51,52,80,22,33,66,66,,,22,36,8,9,0.4,0.5
2025-11-27T0700,3443A,113.2902,23.5544,广州市,花都梯面,,35,35,61,17,26,60,60,,,16,17,11,10,0.3,0.4
2025-11-27T0700,3445A,113.7858,23.7478,广州市,从化良口,,34,34,54,11,22,80,80,,,9,11,8,8,0.4,0.5
2025-11-27T0700,3446A,113.8051,23.2614,广州市,增城荔城,,37,37,63,18,29,72,72,,,11,14,7,6,0.4,0.4
2025-11-27T0700,2505A,109.568,23.1478,贵港市,德智高中,,,,,,,,,,,,,,,,
2025-11-27T0700,2506A,109.6047,23.0666,贵港市,江南子站,细颗粒物(PM2.5),94,132,77,70,38,50,50,,,38,21,8,9,0.9,0.6
2025-11-27T0700,2508A,109.5669,23.1065,贵港市,荷城子站,,48,48,60,19,24,69,69,,,13,16,8,7,0.5,0.5
2025-11-27T0700,3405A,109.5886,23.1172,贵港市,新世纪学校,颗粒物(PM10),54,58,67,23,30,70,70,,,7,11,8,6,0.3,0.4
2025-11-27T0700,4260A,109.5933,23.0951,贵港市,中山路155-3号,,40,40,54,25,32,70,70,,,12,13,8,8,0.3,0.3
2025-11-27T0700,1439A,106.6899,26.5998,贵阳市,马鞍山,颗粒物(PM10),54,58,57,36,36,38,38,,,12,17,3,7,0.5,0.5
2025-11-27T0700,1441A,106.6243,26.6266,贵阳市,鉴湖路,颗粒物(PM10),60,70,76,34,35,68,68,,,20,34,2,7,0.5,0.6
2025-11-27T0700,1442A,106.7487,26.6343,贵阳市,燕子冲,细颗粒物(PM2.5),77,75,63,56,50,70,70,,,12,17,10,10,0.6,0.4
2025-11-27T0700,1443A,106.6555,26.4365,贵阳市,碧云窝,颗粒物(PM10),60,70,80,36,39,66,66,,,13,20,4,10,1.0,0.8
2025-11-27T0700,1445A,106.7109,26.6027,贵阳市,红边门,颗粒物(PM10),59,68,66,41,43,83,83,,,12,19,10,13,0.2,0.2
2025-11-27T0700,1446A,106.7164,26.5699,贵阳市,新华路,颗粒物(PM10),65,80,73,44,43,72,72,,,23,19,13,26,0.3,0.2
2025-11-27T0700,1447A,106.674,26.5424,贵阳市,太慈桥,颗粒物(PM10),54,58,64,31,40,34,34,,,24,25,4,9,0.3,0.4
2025-11-27T0700,1552A,106.805,26.3003,贵阳市,桐木岭,细颗粒物(PM2.5),70,83,69,51,44,89,89,,,3,7,10,16,1.1,0.9
2025-11-27T0700,4230A,106.6882,26.5695,贵阳市,花果园大街66号,细颗粒物(PM2.5),67,61,61,48,48,77,77,,,16,22,5,9,0.5,0.6
2025-11-27T0700,4231A,106.6873,26.5169,贵阳市,漓江路57号,细颗粒物(PM2.5),58,56,57,41,41,66,66,,,16,22,12,17,0.4,0.5
2025-11-27T0700,1862A,110.4144,25.3167,桂林市,电子科大尧山校区,,,,,,,,,,,,,,,,
2025-11-27T0700,1864A,110.3089,25.2708,桂林市,龙隐路小学,,48,48,50,23,25,87,87,,,11,15,12,10,0.5,0.5
2025-11-27T0700,1865A,110.2869,25.2178,桂林市,八中,,48,48,51,24,29,83,83,,,12,17,14,11,0.4,0.4
2025-11-27T0700,3531A,110.296,25.1253,桂林市,旅游学院,,44,44,50,22,23,85,85,,,10,17,9,8,0.3,0.3
2025-11-27T0700,4222A,110.1835,25.2444,桂林市,环湖路276号,颗粒物(PM10),53,56,51,29,26,73,73,,,11,13,19,15,0.4,0.4
2025-11-27T0700,4301A,110.2803,25.2773,桂林市,信义路13号,,40,40,48,24,24,83,83,,,11,14,14,12,0.3,0.3
2025-11-27T0700,2674A,100.2561,34.4714,果洛藏族自治州,玛沁县大武镇,,32,32,40,7,13,39,39,,,5,5,10,10,0.4,0.3
2025-11-27T0700,1129A,126.5422,45.755,哈尔滨市,岭北,,,,,,,,,,,,,,,,
2025-11-27T0700,1130A,126.561,45.8167,哈尔滨市,松北商大,"颗粒物(PM10),细颗粒物(PM2.5)",69,87,218,50,169,15,15,,,29,36,6,8,0.6,0.9
2025-11-27T0700,1131A,126.979,45.5419,哈尔滨市,阿城会宁,细颗粒物(PM2.5),277,,234,227,216,18,18,,,45,39,5,10,1.3,1.2
2025-11-27T0700,1132A,126.599,45.7222,哈尔滨市,南岗学府路,颗粒物(PM10),82,114,222,48,172,13,13,,,31,34,20,13,0.6,1
2025-11-27T0700,1133A,126.689,45.7733,哈尔滨市,太平宏伟公园,颗粒物(PM10),79,107,220,52,169,15,15,,,26,34,29,14,0.7,1.1
2025-11-27T0700,1134A,126.635,45.7667,哈尔滨市,道外承德广场,颗粒物(PM10),98,146,258,43,165,20,20,,,27,37,10,11,0.3,0.7
2025-11-27T0700,1135A,126.685,45.7319,哈尔滨市,香坊红旗大街,细颗粒物(PM2.5),70,80,228,51,185,20,20,,,24,36,16,19,0.7,1.2
2025-11-27T0700,1136A,126.6411,45.7258,哈尔滨市,动力和平路,颗粒物(PM10),83,116,232,40,176,18,18,,,25,34,9,11,0.7,1.1
2025-11-27T0700,1137A,126.593,45.7478,哈尔滨市,道里建国路,颗粒物(PM10),77,104,195,53,168,14,14,,,26,37,15,21,0.4,1.1
2025-11-27T0700,1138A,126.615,45.61,哈尔滨市,平房东轻厂,细颗粒物(PM2.5),80,64,224,59,187,14,14,,,33,39,8,10,0.7,1.3
2025-11-27T0700,1139A,126.595,45.9855,哈尔滨市,呼兰师专,细颗粒物(PM2.5),115,123,191,87,179,23,23,,,18,30,7,12,0.7,1.1
2025-11-27T0700,1140A,126.6206,45.6842,哈尔滨市,省农科院,细颗粒物(PM2.5),112,128,240,84,187,21,21,,,28,39,6,8,0.6,0.9
2025-11-27T0700,2688A,93.5128,42.8172,哈密市,地区监测站,颗粒物(PM10),51,52,63,21,30,56,56,,,15,31,5,6,0.2,0.5
2025-11-27T0700,2689A,93.4961,42.8328,哈密市,哈密师范学校,颗粒物(PM10),52,53,53,23,26,30,30,,,39,42,9,8,0.9,0.7
2025-11-27T0700,2671A,100.9048,36.9639,海北藏族自治州,海晏县西海镇,,24,,43,14,20,74,74,,,1,1,9,9,0.3,0.3
2025-11-27T0700,3867A,102.0738,36.5056,海东市,平安区公安北苑,,46,46,60,17,17,38,38,,,25,14,10,9,0.8,0.7
2025-11-27T0700,1409A,110.576,19.9507,海口市,东寨港,,,,,,,,,,,,,,,,
2025-11-27T0700,1410A,110.3232,20.0574,海口市,海南大学,颗粒物(PM10),54,58,61,26,28,75,75,,,10,10,10,9,0.4,0.3
2025-11-27T0700,1411A,110.283,20.0053,海口市,秀英海南医院,颗粒物(PM10),56,61,59,27,28,75,75,,,14,12,12,10,0.3,0.3
2025-11-27T0700,1412A,110.338,19.9969,海口市,海南师范大学,,,63,59,25,29,79,79,,,12,11,,8,0.4,0.4
2025-11-27T0700,1413A,110.33,20.0356,海口市,龙华路环保局宿舍,颗粒物(PM10),54,58,59,28,29,78,78,,,13,12,12,10,0.5,0.6
2025-11-27T0700,3539A,110.5111,19.9736,海口市,桂林洋子站,,44,44,62,19,29,94,94,,,8,11,8,9,0.2,0.3
2025-11-27T0700,2673A,100.6188,36.2866,海南藏族自治州,共和县恰卜恰镇,,23,23,44,7,14,35,35,,,21,5,12,12,0.6,0.5
2025-11-27T0700,2676A,97.3731,37.3753,海西蒙古族藏族自治州,德令哈市,,25,23,31,8,10,80,80,,,1,9,13,15,0.4,0.4
2025-11-27T0700,1048A,114.5302,36.6116,邯郸市,东污水处理厂,颗粒物(PM10),120,189,211,54,68,53,53,,,12,20,5,7,0.5,0.5
2025-11-27T0700,1049A,114.4918,36.5713,邯郸市,矿院,颗粒物(PM10),107,164,210,58,76,42,42,,,17,19,5,7,0.5,0.6
2025-11-27T0700,1050A,114.484,36.6133,邯郸市,丛台公园,颗粒物(PM10),119,187,190,51,56,50,50,,,14,18,8,6,0.6,0.5
2025-11-27T0700,3458A,114.7895,36.5593,邯郸市,香泉濮院小区,颗粒物(PM10),107,164,269,37,62,46,46,,,11,14,10,8,0.4,0.6
2025-11-27T0700,3579A,114.50634,36.77178,邯郸市,永年区实验高中,颗粒物(PM10),67,84,189,26,49,54,54,,,13,21,3,6,0.4,0.6
2025-11-27T0700,3580A,114.20016,36.44293,邯郸市,峰峰矿区临水派出所,颗粒物(PM10),136,222,210,66,62,68,68,,,10,11,3,5,0.3,0.4
2025-11-27T0700,2634A,106.9893,33.1842,汉中市,汉川机床厂子校,,,,,,,,,,,,,,,,
2025-11-27T0700,2635A,107.0154,33.0706,汉中市,市监测站,颗粒物(PM10),68,86,84,42,56,19,19,,,37,30,12,6,1.0,0.9
2025-11-27T0700,2636A,107.0089,33.1138,汉中市,鑫源开发区,颗粒物(PM10),84,118,91,34,54,18,18,,,31,37,8,9,0.9,1.1
2025-11-27T0700,2637A,107.007,33.0323,汉中市,南郑大河坎水厂,颗粒物(PM10),56,61,75,30,47,12,12,,,19,23,8,8,0.6,0.7
2025-11-27T0700,1223A,120.2072,30.2111,杭州市,滨江,颗粒物(PM10),73,95,133,38,53,4,4,,,62,60,8,9,0.7,0.7
2025-11-27T0700,1224A,120.0633,30.2747,杭州市,西溪,颗粒物(PM10),62,73,97,34,39,0,0,,,33,37,8,8,0.3,0.3
2025-11-27T0700,1226A,120.3417,30.3150,杭州市,下沙,,,120,132,37,62,,,,,34,63,9,9,0.5,0.6
2025-11-27T0700,1227A,120.1269,30.2456,杭州市,卧龙桥,颗粒物(PM10),64,77,97,30,41,41,41,,,22,34,9,8,0.3,0.4
2025-11-27T0700,1228A,120.1903,30.2692,杭州市,浙江农大,颗粒物(PM10),76,102,136,48,62,1,1,,,62,67,8,9,0.8,0.8
2025-11-27T0700,1230A,120.1197,30.3119,杭州市,和睦小学,颗粒物(PM10),72,94,131,47,54,3,3,,,54,54,10,11,0.7,0.7
2025-11-27T0700,1231A,120.3019,30.4183,杭州市,临平镇,颗粒物(PM10),99,148,137,27,47,49,49,,,16,60,8,9,0.4,0.6
2025-11-27T0700,1232A,120.2753,30.1839,杭州市,城厢镇,颗粒物(PM10),82,114,132,46,53,4,4,,,60,62,8,9,0.4,0.4
2025-11-27T0700,1233A,120.0883,30.1808,杭州市,云栖,颗粒物(PM10),68,86,119,39,44,4,4,,,36,40,3,4,0.8,0.6
2025-11-27T0700,3557A,119.9464,30.0494,杭州市,镇二中,颗粒物(PM10),71,91,120,50,50,2,2,,,46,51,7,6,1.1,0.9
2025-11-27T0700,3558A,119.7183,30.2367,杭州市,市府大楼,颗粒物(PM10),60,69,123,32,46,14,14,,,27,31,10,11,0.5,0.5
2025-11-27T0700,3656A,120.1556,30.2864,杭州市,消防大队,颗粒物(PM10),75,100,131,43,53,6,6,,,52,55,5,7,0.5,0.5
2025-11-27T0700,1270A,117.1959,31.7848,合肥市,明珠广场,颗粒物(PM10),405,505,176,66,42,58,58,,,6,45,6,9,0.4,0.6
2025-11-27T0700,1271A,117.3072,31.8764,合肥市,三里街,颗粒物(PM10),355,464,170,56,40,46,46,,,20,50,5,7,0.4,0.7
2025-11-27T0700,1272A,117.2588,31.8707,合肥市,琥珀山庄,颗粒物(PM10),432,532,186,55,47,54,54,,,10,38,6,7,0.3,0.7
2025-11-27T0700,1273A,117.1604,31.9052,合肥市,董铺水库,,,,,,,,,,,,,,,,
2025-11-27T0700,1274A,117.25,31.8571,合肥市,长江中路,颗粒物(PM10),417,517,197,69,48,52,52,,,12,37,6,8,0.4,0.6
2025-11-27T0700,1275A,117.266,31.9436,合肥市,庐阳区,颗粒物(PM10),385,488,170,61,39,52,52,,,15,38,5,7,0.4,0.6
2025-11-27T0700,1276A,117.3453,31.8616,合肥市,瑶海区,颗粒物(PM10),439,539,189,71,43,56,56,,,17,44,4,6,0.3,0.6
2025-11-27T0700,1277A,117.3027,31.7964,合肥市,包河区,颗粒物(PM10),434,534,181,63,43,48,48,,,13,47,4,8,0.4,0.6
2025-11-27T0700,1278A,117.2776,31.7385,合肥市,滨湖新区,颗粒物(PM10),481,581,198,73,50,53,53,,,18,52,4,7,0.4,0.7
2025-11-27T0700,1279A,117.1318,31.8403,合肥市,高新区,颗粒物(PM10),427,527,181,68,43,58,58,,,15,37,3,5,0.4,0.6
2025-11-27T0700,3464A,117.3803,31.9147,合肥市,高教基地,颗粒物(PM10),392,493,179,59,43,54,54,,,13,38,5,8,0.3,0.5
2025-11-27T0700,3614A,79.924,37.0877,和田地区,地区环保局,颗粒物(PM10),97,144,231,38,70,49,49,,,30,30,6,11,1.3,1.6
2025-11-27T0700,3615A,79.9131,37.113,和田地区,市环保局,颗粒物(PM10),82,114,202,32,61,58,58,,,29,46,6,5,1.5,2
2025-11-27T0700,2516A,108.2011,24.715,河池市,东仁乐园,,,,,,,,,,,,,,,,
2025-11-27T0700,2517A,108.0497,24.6947,河池市,市环保站,,33,27,41,23,24,5,5,,,25,24,3,3,0.5,0.5
2025-11-27T0700,2518A,108.0983,24.6989,河池市,市疾控中心,,42,36,50,29,34,2,2,,,28,31,4,5,0.6,0.6
2025-11-27T0700,1696A,114.6778,23.7569,河源市,源西,,,,,,,,,,,,,,,,
2025-11-27T0700,1697A,114.6944,23.7586,河源市,东埔,,50,50,71,24,30,74,74,,,14,16,8,8,0.3,0.4
2025-11-27T0700,1698A,114.6892,23.7233,河源市,老城,颗粒物(PM10),53,55,72,14,26,71,71,,,15,15,7,7,0.4,0.5
2025-11-27T0700,1718A,115.4208,35.2464,菏泽市,气象局,颗粒物(PM10),374,479,376,77,76,43,43,,,16,23,3,5,0.3,0.4
2025-11-27T0700,3374A,115.5564,35.0891,菏泽市,定陶老年大学,颗粒物(PM10),296,417,321,61,54,39,39,,,25,28,4,5,0.1,0.2
2025-11-27T0700,4184A,115.4797,35.24401,菏泽市,永昌路1号,颗粒物(PM10),367,473,369,70,68,41,41,,,18,27,3,4,0.3,0.4
2025-11-27T0700,4193A,115.4715,35.2800,菏泽市,长城路999号,颗粒物(PM10),332,445,361,70,65,40,40,,,15,26,3,4,0.3,0.4
2025-11-27T0700,2514A,111.5264,24.4172,贺州市,环保小区,,44,44,56,25,33,47,47,,,15,23,6,6,0.6,0.6
2025-11-27T0700,2515A,111.5608,24.4078,贺州市,政协大楼,,48,48,54,24,27,35,35,,,19,20,8,8,0.8,0.8
2025-11-27T0700,3534A,111.4744,24.4553,贺州市,西湾,颗粒物(PM10),62,74,62,40,30,10,10,,,41,26,6,7,0.8,0.6
2025-11-27T0700,2385A,114.17,35.9019,鹤壁市,市监测站,颗粒物(PM10),152,254,237,67,66,42,42,,,11,9,4,5,0.3,0.4
2025-11-27T0700,2386A,114.2956,35.7511,鹤壁市,市交警支队,颗粒物(PM10),180,310,296,50,58,39,39,,,13,21,3,3,0.4,0.5
2025-11-27T0700,2387A,114.2878,35.7306,鹤壁市,迎宾馆,颗粒物(PM10),187,324,360,44,54,44,44,,,16,23,3,5,0.4,0.6
2025-11-27T0700,3474A,114.2617,35.6822,鹤壁市,大新区,颗粒物(PM10),215,360,314,96,58,48,48,,,17,23,3,5,0.3,0.5
2025-11-27T0700,3596A,114.1572,35.9603,鹤壁市,南山宾馆,颗粒物(PM10),174,297,333,44,43,60,60,,,2,4,1,3,0.3,0.3
2025-11-27T0700,2244A,130.2537,47.3416,鹤岗市,哈啤分公司,颗粒物(PM10),54,58,41,31,24,28,28,,,11,14,13,14,0.6,0.6
2025-11-27T0700,2245A,130.2684,47.3086,鹤岗市,斯达机电,,43,43,52,17,19,29,29,,,15,17,14,15,0.6,0.7
2025-11-27T0700,2246A,130.3114,47.3388,鹤岗市,东山纸板厂,,29,21,58,20,18,29,29,,,16,18,14,16,1.1,0.9
2025-11-27T0700,2247A,130.1097,47.3382,鹤岗市,五号水库,,,,,,,,,,,,,,,,
2025-11-27T0700,2263A,127.4833,50.2524,黑河市,交通局,,39,36,44,27,28,38,38,,,8,18,4,4,0.3,0.4
2025-11-27T0700,2264A,127.5144,50.2341,黑河市,环保局,,33,26,41,23,31,41,41,,,8,14,4,7,0.4,0.5
2025-11-27T0700,2265A,127.5291,50.2472,黑河市,大黑河岛,,,,,,,,,,,,,,,,
2025-11-27T0700,1074A,115.6838,37.7541,衡水市,电机北厂,,25,17,181,17,45,44,44,,,12,20,5,8,0.2,0.4
2025-11-27T0700,1075A,115.6303,37.7316,衡水市,市监测站,,40,,166,28,52,45,45,,,10,22,9,10,0.2,0.4
2025-11-27T0700,3188A,115.6683,37.7217,衡水市,市城管局,,20,16,201,14,48,48,48,,,11,24,4,6,0.3,0.4
2025-11-27T0700,3459A,115.5989,37.5491,衡水市,地表水厂,,20,20,181,7,45,58,58,,,4,23,6,9,0.2,0.4
2025-11-27T0700,2456A,112.5003,26.9167,衡阳市,原169医院,,,,,,,,,,,,,,,,
2025-11-27T0700,2457A,112.6194,26.9258,衡阳市,衡阳化工总厂,颗粒物(PM10),61,71,81,41,43,13,13,,,46,37,8,26,0.8,0.9
2025-11-27T0700,2458A,112.6211,26.8956,衡阳市,珠晖区环保局,细颗粒物(PM2.5),67,74,79,48,43,1,1,,,56,47,5,9,1.1,1.1
2025-11-27T0700,2459A,112.6197,26.8733,衡阳市,市委党校,颗粒物(PM10),64,77,77,44,39,12,12,,,44,32,22,21,1.4,1.3
2025-11-27T0700,2460A,112.6006,26.8919,衡阳市,市监测站,颗粒物(PM10),66,81,94,44,47,28,28,,,35,40,8,21,0.9,1
2025-11-27T0700,2461A,112.5664,26.9056,衡阳市,真空机电公司,颗粒物(PM10),63,75,83,43,41,36,36,,,27,34,10,15,0.9,0.9
2025-11-27T0700,3399A,112.6703,26.882,衡阳市,师范学院,颗粒物(PM10),63,75,83,39,35,1,1,,,51,31,13,16,1.2,1
2025-11-27T0700,2608A,103.3772,23.3993,红河哈尼族彝族自治州,污水处理厂,细颗粒物(PM2.5),68,72,63,49,41,68,68,,,13,16,10,26,0.4,0.4
2025-11-27T0700,2609A,103.3861,23.35,红河哈尼族彝族自治州,监测站,细颗粒物(PM2.5),87,70,62,64,46,80,80,,,10,15,8,19,0.4,0.3
2025-11-27T0700,3038A,103.3758,23.368,红河哈尼族彝族自治州,州图书馆,"颗粒物(PM10),细颗粒物(PM2.5)",59,68,57,42,37,70,70,,,10,12,8,26,0.6,0.5
2025-11-27T0700,1090A,111.6507,40.7517,呼和浩特市,呼市一监,,27,27,157,9,40,28,28,,,13,15,5,7,0.4,0.5
2025-11-27T0700,1091A,111.6572,40.8033,呼和浩特市,小召,,29,29,117,12,31,28,28,,,21,22,9,9,0.5,0.5
2025-11-27T0700,1094A,111.7516,40.8369,呼和浩特市,如意水处理厂,,19,19,118,7,31,31,31,,,19,18,8,8,0.6,0.6
2025-11-27T0700,1095A,111.7276,40.8062,呼和浩特市,二十九中,,29,29,152,9,34,29,29,,,20,17,10,11,0.3,0.3
2025-11-27T0700,1096A,111.5512,40.7866,呼和浩特市,工大金川校区,,25,25,210,9,39,23,23,,,33,18,8,8,0.3,0.4
2025-11-27T0700,1097A,111.717,40.7612,呼和浩特市,化肥厂生活区,,32,32,153,9,38,34,34,,,18,18,6,6,0.5,0.6
2025-11-27T0700,3698A,111.5968,40.8178,呼和浩特市,红旗小学,,17,17,69,10,33,24,24,,,26,19,8,10,0.3,0.4
2025-11-27T0700,3699A,111.6518,40.8389,呼和浩特市,海东办,,19,19,68,6,29,36,36,,,16,17,6,6,0.2,0.2
2025-11-27T0700,3061A,119.7512,49.1577,呼伦贝尔市,国华电力东,,25,25,24,11,15,51,51,,,12,8,8,8,0.3,0.4
2025-11-27T0700,4279A,119.7569,49.2222,呼伦贝尔市,伊敏大街东7号,,29,,23,20,16,56,56,,,3,3,6,6,0.6,0.5
2025-11-27T0700,1250A,120.0751,30.8669,湖州市,城西水厂,颗粒物(PM10),84,117,122,40,53,24,24,,,45,56,12,11,0.5,0.6
2025-11-27T0700,2873A,120.0830,30.8929,湖州市,仁皇山新区,颗粒物(PM10),95,140,117,38,54,46,46,,,27,51,10,10,0.3,0.5
2025-11-27T0700,2907A,120.1844,30.8596,湖州市,吴兴区站,颗粒物(PM10),82,113,122,36,53,42,42,,,25,50,8,9,0.8,0.9
2025-11-27T0700,3562A,120.4148,30.8538,湖州市,南浔区站,颗粒物(PM10),85,120,123,33,51,44,44,,,35,67,7,9,0.5,0.6
2025-11-27T0700,1607A,120.9049,40.7211,葫芦岛市,龙港区,,15,9,72,9,30,45,45,,,13,27,9,14,0.5,0.7
2025-11-27T0700,1608A,120.8392,40.7514,葫芦岛市,化工街,,15,6,79,3,28,45,45,,,15,31,10,17,0.2,0.5
2025-11-27T0700,1609A,120.8341,40.7073,葫芦岛市,新区,,15,9,64,3,30,48,48,,,12,32,6,12,0.5,0.7
2025-11-27T0700,1610A,120.8695,40.7677,葫芦岛市,东城区,,16,6,65,6,30,50,50,,,14,34,7,12,0.6,0.9
2025-11-27T0700,2482A,109.5981,27.5721,怀化市,林科所,,,,,,,,,,,,,,,,
2025-11-27T0700,2483A,109.9453,27.5444,怀化市,河西地税局,,40,40,56,26,29,0,0,,,16,19,4,6,0.3,0.4
2025-11-27T0700,2484A,109.9781,27.5342,怀化市,市四医院,颗粒物(PM10),67,83,66,41,35,0,0,,,30,27,17,11,0.4,0.4
2025-11-27T0700,2485A,109.9972,27.5578,怀化市,监测楼,颗粒物(PM10),55,60,60,31,32,0,0,,,24,23,5,4,0.1,0.1
2025-11-27T0700,2486A,110.0394,27.583,怀化市,市委党校,颗粒物(PM10),51,52,63,31,35,0,0,,,21,21,11,17,0.4,0.5
2025-11-27T0700,1210A,119.036,33.5981,淮安市,钵池山,颗粒物(PM10),447,547,166,69,43,48,48,,,13,31,6,11,0.3,0.7
2025-11-27T0700,1211A,119.007,33.575,淮安市,北京南路,颗粒物(PM10),491,591,178,52,37,47,47,,,12,35,6,10,0.3,0.7
2025-11-27T0700,1212A,118.989,33.6067,淮安市,市监测站,颗粒物(PM10),500,615,183,78,43,50,50,,,12,34,6,10,0.5,0.8
2025-11-27T0700,1213A,119.135,33.5039,淮安市,楚州区监测站,颗粒物(PM10),500,603,182,64,42,46,46,,,15,39,8,11,0.7,0.8
2025-11-27T0700,3426A,118.8755,33.2894,淮安市,新华书店,颗粒物(PM10),471,571,178,70,45,46,46,,,11,31,8,11,0.5,0.7
2025-11-27T0700,4206A,119.0288,33.6319,淮安市,承德北路606号,颗粒物(PM10),471,571,174,49,37,46,46,,,9,27,5,9,0.5,0.8
2025-11-27T0700,2282A,116.8004,33.975,淮北市,监测站,颗粒物(PM10),479,579,235,86,54,50,50,,,18,33,6,8,0.3,0.4
2025-11-27T0700,2283A,116.8091,33.9007,淮北市,烈山区政府,颗粒物(PM10),419,519,263,88,57,46,46,,,19,32,7,10,0.2,0.4
2025-11-27T0700,3330A,116.8873,33.9836,淮北市,杜集区检察院,颗粒物(PM10),500,658,316,104,60,52,52,,,12,22,,6,0.2,0.3
2025-11-27T0700,4017A,116.7923,33.9535,淮北市,市博物馆,颗粒物(PM10),500,615,264,95,58,39,39,,,24,30,8,11,0.1,0.2
2025-11-27T0700,2277A,116.8305,32.7727,淮南市,潘集区政府,颗粒物(PM10),500,660,273,103,58,51,51,,,13,23,4,6,0.4,0.5
2025-11-27T0700,2279A,116.8569,32.5951,淮南市,谢家集区政府,颗粒物(PM10),489,589,248,85,43,57,57,,,10,26,6,8,0.5,0.5
2025-11-27T0700,2280A,116.8281,32.633,淮南市,八公山区政府,颗粒物(PM10),443,543,223,79,41,55,55,,,9,19,6,6,0.3,0.4
2025-11-27T0700,2281A,116.6325,32.6201,淮南市,焦岗湖风景区管理处,,,,,,,,,,,,,,,,
2025-11-27T0700,2894A,117.0566,32.6531,淮南市,经济技术开发区消防队,颗粒物(PM10),500,736,267,98,48,51,51,,,17,26,10,9,0.3,0.3
2025-11-27T0700,3329A,117.0108,32.5893,淮南市,山南新区,颗粒物(PM10),500,843,308,134,53,51,51,,,21,30,5,4,0.3,0.4
2025-11-27T0700,4209A,117.0031,32.6445,淮南市,国庆中路369号,颗粒物(PM10),425,525,198,91,47,48,48,,,12,24,3,3,0.5,0.5
2025-11-27T0700,2446A,114.9028,30.4742,黄冈市,职工中心,颗粒物(PM10),65,80,67,37,35,39,39,,,22,33,6,8,0.4,0.7
2025-11-27T0700,2929A,114.8858,30.4519,黄冈市,红卫路,颗粒物(PM10),64,77,62,37,40,36,36,,,23,34,7,9,0.4,0.6
2025-11-27T0700,3398A,114.9136,30.4445,黄冈市,市林业局,颗粒物(PM10),92,134,84,33,38,51,51,,,19,37,4,5,0.4,0.7
2025-11-27T0700,2672A,102.0199,35.5102,黄南藏族自治州,同仁县隆务镇,,37,37,88,8,21,61,61,,,2,3,8,9,0.2,0.3
2025-11-27T0700,2295A,118.2903,29.6963,黄山市,延安路89号,细颗粒物(PM2.5),53,53,72,37,42,11,11,,,16,17,3,4,0.4,0.4
2025-11-27T0700,2297A,118.1371,30.2756,黄山市,黄山区政府5号楼,,42,42,68,28,37,9,9,,,7,8,5,6,0.6,0.6
2025-11-27T0700,4210A,118.3354,29.7203,黄山市,滨江东路7-2号,细颗粒物(PM2.5),58,54,85,41,48,0,0,,,15,21,4,4,0.4,0.4
2025-11-27T0700,2423A,115.0601,30.2313,黄石市,沈家营,颗粒物(PM10),74,97,84,33,32,39,39,,,19,25,8,10,1.0,1.1
2025-11-27T0700,2426A,114.8988,30.2019,黄石市,铁山,颗粒物(PM10),89,128,86,56,39,47,47,,,19,46,7,10,0.5,0.6
2025-11-27T0700,2427A,115.0307,30.2092,黄石市,团城山,颗粒物(PM10),74,98,81,28,29,35,35,,,26,29,6,8,0.5,0.6
2025-11-27T0700,3149A,115.0235,30.1578,黄石市,笔架山北路,颗粒物(PM10),111,172,139,28,39,46,46,,,15,37,9,15,0.7,1
2025-11-27T0700,4185A,115.0780,30.21118,黄石市,磁湖东路29号,颗粒物(PM10),79,107,90,39,39,39,39,,,20,28,11,14,0.6,0.9
2025-11-27T0700,1392A,114.4183,23.0528,惠州市,河南岸金山湖子站,颗粒物(PM10),54,57,75,22,31,66,66,,,22,26,9,7,0.4,0.5
2025-11-27T0700,1393A,114.4053,23.0822,惠州市,下埔横江三路子站,颗粒物(PM10),55,59,78,24,32,79,79,,,9,17,8,9,0.5,0.5
2025-11-27T0700,1394A,114.4103,23.1142,惠州市,江北云山西路子站,颗粒物(PM10),54,57,77,22,30,86,86,,,13,21,7,7,0.5,0.5
2025-11-27T0700,1395A,114.4645,22.7833,惠州市,惠阳区承修路船湖子站,颗粒物(PM10),54,57,78,24,33,79,79,,,13,23,9,8,0.4,0.5
2025-11-27T0700,1396A,114.5317,22.7422,惠州市,大亚湾管委会子站,颗粒物(PM10),53,55,72,22,30,82,82,,,9,20,7,7,0.6,0.7
2025-11-27T0700,3314A,114.4338,22.8134,惠州市,惠阳秋长,颗粒物(PM10),56,61,80,24,34,87,87,,,8,22,12,12,0.3,0.4
2025-11-27T0700,3452A,114.6517,22.775,惠州市,大亚湾霞涌,颗粒物(PM10),56,62,71,27,31,77,77,,,12,16,8,7,0.6,0.6
2025-11-27T0700,2240A,130.9762,45.3001,鸡西市,环保局,颗粒物(PM10),51,52,72,25,41,13,13,,,23,34,12,14,0.6,0.8
2025-11-27T0700,2243A,130.9429,45.3039,鸡西市,第一中学,,42,33,61,29,35,15,15,,,23,32,10,12,0.5,0.6
2025-11-27T0700,3707A,131.0207,45.3073,鸡西市,欧美日汽修厂,,37,37,80,21,47,14,14,,,20,28,14,17,0.7,1
2025-11-27T0700,3709A,130.9967,45.3106,鸡西市,市政设施管理处,颗粒物(PM10),51,51,84,22,44,55,55,,,25,33,14,16,0.5,0.9
2025-11-27T0700,2367A,114.9754,27.0803,吉安市,红声器材厂,颗粒物(PM10),67,83,82,46,29,12,12,,,33,24,7,9,0.9,0.7
2025-11-27T0700,2368A,114.9658,27.0999,吉安市,市森林工业局,颗粒物(PM10),57,63,81,31,29,24,24,,,19,21,9,10,0.5,0.4
2025-11-27T0700,2369A,114.99,27.1312,吉安市,市环境监测站,颗粒物(PM10),56,61,76,28,29,25,25,,,18,18,12,14,0.5,0.5
2025-11-27T0700,2370A,115.0093,27.0968,吉安市,青原区法院,颗粒物(PM10),61,71,81,31,31,0,0,,,46,37,9,11,0.8,0.6
2025-11-27T0700,1772A,126.54,43.8622,吉林市,哈达湾,细颗粒物(PM2.5),82,80,134,60,114,27,27,,,23,28,8,10,0.9,1.2
2025-11-27T0700,1773A,126.5844,43.8358,吉林市,东局子,细颗粒物(PM2.5),85,88,148,63,126,13,13,,,24,24,9,9,0.8,1.1
2025-11-27T0700,1774A,126.5052,43.8245,吉林市,电力学院,细颗粒物(PM2.5),82,66,127,60,119,26,26,,,20,29,7,10,0.8,1.1
2025-11-27T0700,1775A,126.6133,43.8972,吉林市,江北,细颗粒物(PM2.5),99,94,184,74,147,16,16,,,21,25,6,6,0.8,1
2025-11-27T0700,1776A,126.555,43.8306,吉林市,江南公园,细颗粒物(PM2.5),89,68,138,66,126,23,23,,,24,28,5,8,0.6,0.8
2025-11-27T0700,1778A,126.7061,43.7133,吉林市,丰满,细颗粒物(PM2.5),108,,115,81,130,18,18,,,27,22,10,10,0.9,0.9
2025-11-27T0700,2868A,126.4739,43.953,吉林市,九站,细颗粒物(PM2.5),77,63,137,56,114,23,23,,,29,32,5,10,1.0,1.3
2025-11-27T0700,1299A,116.9862,36.6114,济南市,科干所,,24,24,165,7,39,48,48,,,13,17,9,10,0.4,0.5
2025-11-27T0700,1300A,116.9376,36.665,济南市,农科所,细颗粒物(PM2.5),98,,171,73,38,47,47,,,13,21,8,10,0.4,0.5
2025-11-27T0700,1301A,117.1265,36.6734,济南市,开发区,,24,24,153,10,35,52,52,,,11,17,4,6,0.5,0.6
2025-11-27T0700,1303A,117.0624,36.6868,济南市,省种子仓库,,36,36,175,9,36,48,48,,,11,19,8,9,0.3,0.5
2025-11-27T0700,1304A,116.9489,36.6447,济南市,机床二厂,,35,29,196,24,54,44,44,,,19,28,9,12,0.3,0.4
2025-11-27T0700,1305A,117.0495,36.663,济南市,市监测站,,32,32,173,3,38,45,45,,,14,18,4,5,0.2,0.3
2025-11-27T0700,1306A,116.7675,36.5484,济南市,长清党校,,46,46,216,3,41,42,42,,,18,22,7,10,0.5,0.6
2025-11-27T0700,1616A,117.6795,36.229,济南市,技术学院,,31,31,194,7,51,58,58,,,11,27,9,14,0.3,0.7
2025-11-27T0700,1961A,117.532,36.6868,济南市,东山小学,,37,37,169,3,39,53,53,,,9,17,8,10,0.4,0.5
2025-11-27T0700,3059A,117.7161,36.2049,济南市,泰兴公司,,39,39,184,7,48,60,60,,,9,29,7,11,0.1,0.4
2025-11-27T0700,3064A,117.6867,36.2171,济南市,莱芜战役纪念馆,,34,34,166,9,48,62,62,,,7,24,8,15,0.2,0.7
2025-11-27T0700,3494A,117.1673,36.9782,济南市,济阳区政府,,32,32,167,3,38,45,45,,,15,26,8,12,0.3,0.5
2025-11-27T0700,3495A,117.1171,36.63,济南市,锦屏中学,,27,27,151,3,25,54,54,,,12,17,4,6,0.4,0.6
2025-11-27T0700,3682A,116.9814,36.6819,济南市,济南四建,,31,31,176,7,36,42,42,,,18,21,7,8,0.3,0.4
2025-11-27T0700,1653A,116.6251,35.4302,济宁市,火炬城,颗粒物(PM10),197,344,237,48,65,40,40,,,17,23,3,7,0,0.1
2025-11-27T0700,1655A,116.5491,35.4042,济宁市,电化厂,颗粒物(PM10),222,365,290,68,72,39,39,,,21,34,2,6,0.1,0.2
2025-11-27T0700,3500A,116.5814,35.3707,济宁市,北湖一中,颗粒物(PM10),176,301,224,57,72,43,43,,,14,25,1,5,0.2,0.4
2025-11-27T0700,3501A,116.8249,35.5593,济宁市,服务中心,颗粒物(PM10),333,446,245,43,61,37,37,,,16,25,6,7,0,0.1
2025-11-27T0700,3678A,116.5907,35.4054,济宁市,市第七中学,颗粒物(PM10),226,368,266,51,57,44,44,,,16,27,2,6,0.2,0.3
2025-11-27T0700,2255A,130.2751,46.8028,佳木斯市,佳纺,,32,32,64,22,29,17,17,,,14,19,4,5,0.5,0.5
2025-11-27T0700,2256A,130.3995,46.8307,佳木斯市,发电厂,,32,28,52,22,23,23,23,,,8,13,2,4,0.4,0.4
2025-11-27T0700,2257A,130.3258,46.7975,佳木斯市,环保局,,32,28,56,22,29,20,20,,,12,18,2,4,0.3,0.4
2025-11-27T0700,2258A,130.3648,46.8032,佳木斯市,十一中,,46,38,51,32,26,25,25,,,7,13,3,4,0.2,0.4
2025-11-27T0700,2259A,130.3794,46.7588,佳木斯市,四丰,,,,,,,,,,,,,,,,
2025-11-27T0700,1252A,120.7436,30.778,嘉兴市,清河小学,颗粒物(PM10),81,111,103,33,37,30,30,,,37,44,6,6,0.6,0.6
2025-11-27T0700,1253A,120.726,30.7478,嘉兴市,嘉兴学院,颗粒物(PM10),79,108,102,36,39,20,20,,,51,53,10,8,0.6,0.5
2025-11-27T0700,2872A,120.7846,30.7525,嘉兴市,南湖区残联,颗粒物(PM10),82,114,108,38,46,27,27,,,41,42,6,7,0.5,0.4
2025-11-27T0700,3407A,120.6916,30.7739,嘉兴市,秀洲住建,颗粒物(PM10),81,112,98,36,43,36,36,,,31,52,7,7,0.5,0.5
2025-11-27T0700,1945A,98.2908,39.7711,嘉峪关市,气象局,,36,36,84,14,15,48,48,,,23,12,21,15,1.0,0.6
2025-11-27T0700,2884A,98.2672,39.7978,嘉峪关市,酒钢宾馆,颗粒物(PM10),60,70,66,29,14,30,30,,,42,10,39,16,1.5,0.4
2025-11-27T0700,3248A,98.2643,39.7724,嘉峪关市,雄关区,,43,43,52,20,18,16,16,,,70,15,22,13,1.2,0.6
2025-11-27T0700,1383A,113.1064,22.6058,江门市,北街,,41,41,75,20,31,59,59,,,26,35,10,9,0.4,0.5
2025-11-27T0700,1384A,113.0731,22.5835,江门市,西区,颗粒物(PM10),51,51,81,15,31,60,60,,,24,37,10,9,0.4,0.5
2025-11-27T0700,1385A,113.0219,22.5311,江门市,圭峰西,,38,38,72,17,30,68,68,,,17,27,8,7,0.4,0.4
2025-11-27T0700,1386A,113.0828,22.5947,江门市,东湖,,43,43,74,21,32,60,60,,,24,32,12,11,0.3,0.4
2025-11-27T0700,3311A,113.1075,22.5647,江门市,江海富民,颗粒物(PM10),56,61,77,11,24,64,64,,,25,33,13,13,0.6,0.6
2025-11-27T0700,3449A,113.05,22.4667,江门市,新会银湖,,44,44,76,20,34,52,52,,,26,34,9,8,0.3,0.4
2025-11-27T0700,1830A,113.1992,35.2590,焦作市,影视城,颗粒物(PM10),125,200,320,40,38,73,73,,,6,9,10,13,0.5,0.5
2025-11-27T0700,3335A,113.3137,35.2641,焦作市,马村街道办,颗粒物(PM10),133,216,230,60,47,62,62,,,2,7,3,6,0.2,0.3
2025-11-27T0700,3336A,113.2465,35.2373,焦作市,焦作技师学院,颗粒物(PM10),146,242,272,48,46,64,64,,,7,9,4,7,0.3,0.5
2025-11-27T0700,3477A,113.1656,35.2539,焦作市,中站许衡医院,颗粒物(PM10),141,232,240,54,47,68,68,,,4,8,3,4,0.3,0.4
2025-11-27T0700,3981A,113.2449,35.1803,焦作市,原李万街道办,颗粒物(PM10),149,247,299,51,49,63,63,,,12,12,1,4,0.2,0.4
2025-11-27T0700,4264A,113.2340,35.2190,焦作市,新安路1731号,颗粒物(PM10),157,264,287,78,62,63,63,,,11,13,9,11,0.3,0.5
2025-11-27T0700,4295A,113.2722,35.2121,焦作市,人民路3066号,颗粒物(PM10),160,269,284,53,43,67,67,,,2,7,4,5,0.4,0.5
2025-11-27T0700,1708A,116.3701,23.5345,揭阳市,新兴,细颗粒物(PM2.5),70,84,90,51,47,8,8,,,57,36,11,12,0.8,0.6
2025-11-27T0700,1709A,116.3264,23.5443,揭阳市,西马,颗粒物(PM10),55,60,89,32,46,30,30,,,40,34,6,7,0.6,0.7
2025-11-27T0700,1710A,116.3611,23.5626,揭阳市,东兴,颗粒物(PM10),53,56,91,27,36,46,46,,,27,37,8,13,0.6,0.6
2025-11-27T0700,1711A,116.4151,23.5294,揭阳市,渔湖,细颗粒物(PM2.5),59,50,93,42,45,42,42,,,34,33,12,9,0.6,0.7
2025-11-27T0700,3320A,116.403,23.5699,揭阳市,曲溪,细颗粒物(PM2.5),55,48,91,39,45,52,52,,,25,30,4,7,0.5,0.6
2025-11-27T0700,1944A,102.1692,38.5167,金昌市,天庆家园,,46,46,166,16,30,44,44,,,16,9,9,6,0.8,0.5
2025-11-27T0700,4022A,102.1647,38.5371,金昌市,金川区人防中心,,,36,180,16,37,39,39,,,14,9,,3,0.6,0.5
2025-11-27T0700,4239A,102.1930,38.5319,金昌市,长春路96号,颗粒物(PM10),51,52,163,14,37,44,44,,,16,8,47,16,0.7,0.5
2025-11-27T0700,1262A,119.647,29.077,金华市,十五中,颗粒物(PM10),73,95,143,41,52,14,14,,,43,52,4,4,0.5,0.6
2025-11-27T0700,1263A,119.686,29.1029,金华市,监测站,颗粒物(PM10),87,124,162,51,55,4,4,,,61,60,5,5,0.5,0.5
2025-11-27T0700,3659A,119.656,29.1131,金华市,气象局,颗粒物(PM10),87,123,151,56,57,1,1,,,68,81,6,5,0.6,0.5
2025-11-27T0700,1767A,121.1115,41.0879,锦州市,南山,,17,,55,6,33,52,52,,,8,24,8,15,0.3,0.6
2025-11-27T0700,1768A,121.0604,40.8428,锦州市,开发区,,15,,90,9,32,48,48,,,9,36,8,19,0.4,0.8
2025-11-27T0700,1769A,121.1836,41.1119,锦州市,百股街道,,14,8,62,3,27,42,42,,,12,25,9,15,0.6,0.9
2025-11-27T0700,1770A,121.1178,41.1222,锦州市,天安街道,,16,,58,10,30,50,50,,,6,21,8,14,0.5,0.8
2025-11-27T0700,1771A,121.1303,41.1386,锦州市,北湖公园,,15,8,60,3,31,48,48,,,8,23,8,13,0.4,0.7
2025-11-27T0700,2160A,112.85,35.5051,晋城市,自来水公司,颗粒物(PM10),160,269,311,68,58,71,71,,,2,5,1,4,0.3,0.7
2025-11-27T0700,2161A,112.8318,35.4936,晋城市,白云商贸,颗粒物(PM10),155,260,346,53,57,63,63,,,2,11,3,4,0.4,0.6
2025-11-27T0700,2162A,112.8508,35.4887,晋城市,市环保局,颗粒物(PM10),166,282,314,53,52,65,65,,,1,9,1,4,0.1,0.4
2025-11-27T0700,2163A,112.8676,35.4897,晋城市,技术学院,颗粒物(PM10),156,262,297,68,52,59,59,,,11,18,3,6,0.2,0.5
2025-11-27T0700,2165A,112.8453,35.546,晋城市,白马寺,颗粒物(PM10),146,241,277,60,68,70,70,,,7,9,5,7,0.1,0.2
2025-11-27T0700,3620A,112.8271,35.4828,晋城市,泽州一中,颗粒物(PM10),175,300,329,63,64,70,70,,,6,11,2,4,0.3,0.4
2025-11-27T0700,2173A,112.7249,37.7067,晋中市,南都小区,颗粒物(PM10),95,140,329,26,47,50,50,,,10,18,7,13,0.6,0.6
2025-11-27T0700,2174A,112.6991,37.6982,晋中市,榆次区政府,颗粒物(PM10),101,151,316,33,55,42,42,,,13,18,8,13,0.5,0.6
2025-11-27T0700,2865A,112.7195,37.6828,晋中市,榆次三中,颗粒物(PM10),120,190,374,31,44,42,42,,,13,15,8,12,1.4,0.7
2025-11-27T0700,4200A,112.7478,37.6954,晋中市,迎宾街26号,颗粒物(PM10),108,166,316,31,46,49,49,,,14,18,9,13,0.7,0.5
2025-11-27T0700,2439A,112.2014,31.0481,荆门市,竹园小学,颗粒物(PM10),99,148,125,27,43,37,37,,,23,35,3,4,0,0.2
2025-11-27T0700,2440A,112.1969,30.9891,荆门市,掇刀,颗粒物(PM10),120,189,135,38,44,62,62,,,17,26,3,2,0.4,0.5
2025-11-27T0700,2441A,112.2213,31.0386,荆门市,石化一小,颗粒物(PM10),99,148,145,24,50,8,8,,,54,46,7,11,0.6,0.5
2025-11-27T0700,3012A,112.1849,31.0362,荆门市,西山林语,颗粒物(PM10),97,144,115,32,37,58,58,,,8,18,3,5,0.2,0.4
2025-11-27T0700,3547A,112.1632,31.0138,荆门市,龙泉中学南校,颗粒物(PM10),123,195,146,38,44,63,63,,,13,20,5,8,0.1,0.2
2025-11-27T0700,1844A,112.2494,30.3197,荆州市,市图书馆,细颗粒物(PM2.5),80,94,91,59,50,8,8,,,44,39,7,7,0.8,0.8
2025-11-27T0700,1845A,112.2008,30.3544,荆州市,市委党校,细颗粒物(PM2.5),85,90,92,63,56,3,3,,,45,40,6,6,0.8,0.7
2025-11-27T0700,3194A,112.2747,30.3122,荆州市,管委会,细颗粒物(PM2.5),82,93,87,60,51,8,8,,,44,41,8,8,0.9,0.8
2025-11-27T0700,4268A,112.1722,30.3366,荆州市,学苑路85号,细颗粒物(PM2.5),83,94,84,61,47,5,5,,,37,34,1,1,0.8,0.8
2025-11-27T0700,2342A,117.3102,29.3867,景德镇市,王港中学,,,,,,,,,,,,,,,,
2025-11-27T0700,2343A,117.2117,29.2933,景德镇市,老干部活动中心,颗粒物(PM10),63,75,93,40,41,2,2,,,19,24,6,10,0.8,0.6
2025-11-27T0700,2344A,117.1894,29.2789,景德镇市,兽医站,颗粒物(PM10),66,81,106,41,34,2,2,,,36,38,8,17,0.6,0.4
2025-11-27T0700,2346A,117.2461,29.2956,景德镇市,陶研所,细颗粒物(PM2.5),59,66,76,42,40,2,2,,,22,21,4,4,0.8,0.6
2025-11-27T0700,4289A,117.1542,29.2566,景德镇市,青少年活动中心,颗粒物(PM10),64,77,105,40,39,0,0,,,40,39,7,45,0.9,0.6
2025-11-27T0700,1803A,115.9872,29.6815,九江市,十里,颗粒物(PM10),63,75,83,33,37,40,40,,,42,45,7,9,0.7,0.7
2025-11-27T0700,1804A,115.9584,29.7046,九江市,茅山头,颗粒物(PM10),64,78,77,38,30,15,15,,,49,44,6,6,0.7,0.7
2025-11-27T0700,1805A,115.9877,29.7295,九江市,西园,颗粒物(PM10),64,78,80,36,33,53,53,,,38,48,10,9,0.6,0.7
2025-11-27T0700,1808A,115.9114,29.6038,九江市,综合工业园,颗粒物(PM10),63,75,90,35,34,39,39,,,43,44,4,6,0.5,0.5
2025-11-27T0700,1809A,116.0721,29.7535,九江市,石化总厂,颗粒物(PM10),77,104,101,46,32,28,28,,,50,44,14,9,0.7,0.5
2025-11-27T0700,1810A,115.9773,29.5698,九江市,庐山气象台,,,,,,,,,,,,,,,,
2025-11-27T0700,3190A,116.0254,29.6994,九江市,外国语学校,颗粒物(PM10),68,85,82,30,31,42,42,,,35,41,8,7,0.7,0.8
2025-11-27T0700,4253A,116.0102,29.6594,九江市,莲花大道8号,颗粒物(PM10),62,74,83,35,33,68,68,,,18,29,7,8,0.4,0.4
2025-11-27T0700,4240A,98.4958,39.7339,酒泉市,玉门东路5号,,36,36,152,12,20,56,56,,,17,15,15,12,0.3,0.5
2025-11-27T0700,4241A,98.5099,39.7506,酒泉市,北大街108号,,36,36,179,9,28,42,42,,,20,16,19,10,0.6,0.5
2025-11-27T0700,2698A,76.0072,39.4467,喀什地区,巡警大队,颗粒物(PM10),90,129,262,54,97,2,2,,,55,64,6,10,1.4,2.1
2025-11-27T0700,2699A,75.9755,39.4694,喀什地区,吾办,颗粒物(PM10),76,101,250,48,106,4,4,,,54,71,2,7,1.5,2.2
2025-11-27T0700,4027A,75.9483,39.4689,喀什地区,老干局,颗粒物(PM10),57,63,248,27,93,32,32,,,22,60,3,6,1.3,2.4
2025-11-27T0700,1824A,114.3389,34.7781,开封市,肿瘤医院,颗粒物(PM10),178,305,319,47,50,64,64,,,8,17,8,10,0.3,0.4
2025-11-27T0700,1826A,114.2885,34.7965,开封市,世纪星幼儿园,颗粒物(PM10),167,284,307,62,57,64,64,,,12,18,8,10,0.3,0.5
2025-11-27T0700,3147A,114.3438,34.8106,开封市,龙亭公园,颗粒物(PM10),169,288,350,47,49,61,61,,,10,20,6,10,0.8,0.9
2025-11-27T0700,3210A,114.3644,34.7964,开封市,汴京公园,颗粒物(PM10),179,307,350,60,53,58,58,,,16,25,8,10,0.2,0.3
2025-11-27T0700,3473A,114.2485,34.8306,开封市,技师学院,颗粒物(PM10),161,272,285,62,54,57,57,,,17,24,5,8,0.3,0.6
2025-11-27T0700,3592A,114.4644,34.7556,开封市,祥符区生态环境局,颗粒物(PM10),232,372,308,60,56,65,65,,,19,27,6,8,0.2,0.3
2025-11-27T0700,1951A,84.895,45.6094,克拉玛依市,长征新村,,31,31,35,17,21,14,14,,,17,26,6,6,0.5,0.5
2025-11-27T0700,1952A,84.8988,45.5893,克拉玛依市,南林小区,,36,36,36,19,16,14,14,,,14,20,1,2,0.2,0.2
2025-11-27T0700,1954A,84.905,44.3396,克拉玛依市,独山子区,,20,20,36,14,24,52,52,,,8,21,5,5,0.3,0.5
2025-11-27T0700,1955A,85.6979,46.098,克拉玛依市,乌尔禾区商贸楼,,28,28,26,16,13,10,10,,,22,20,7,6,0.4,0.4
2025-11-27T0700,3612A,85.1045,45.6899,克拉玛依市,白碱滩区新站,,26,,24,18,15,10,10,,,23,21,7,6,0.3,0.3
2025-11-27T0700,2697A,76.1454,39.7142,克孜勒苏柯尔克孜自治州,市人民政府,,49,49,107,16,48,70,70,,,5,16,5,12,0.1,0.3
2025-11-27T0700,3665A,76.1658,39.7157,克孜勒苏柯尔克孜自治州,克州文化中心,,43,43,111,17,39,70,70,,,3,20,7,10,0.2,0.6
2025-11-27T0700,1450A,102.8204,24.8886,昆明市,呈贡新区,细颗粒物(PM2.5),58,,50,41,63,76,76,,,11,25,2,6,0.5,0.7
2025-11-27T0700,1451A,102.6251,24.9608,昆明市,西山森林公园,,,,,,,,,,,,,,,,
2025-11-27T0700,1452A,102.7252,25.0902,昆明市,龙泉镇,,30,30,40,18,26,65,65,,,10,24,3,3,0.4,0.5
2025-11-27T0700,1453A,102.7266,25.0375,昆明市,东风东路,,29,29,57,18,34,77,77,,,10,27,3,5,0.2,0.5
2025-11-27T0700,1454A,102.6742,25.0669,昆明市,金鼎山,,32,31,58,22,33,66,66,,,10,20,4,4,0.5,0.6
2025-11-27T0700,1455A,102.6644,25.0401,昆明市,碧鸡广场,,32,32,57,20,34,72,72,,,11,30,4,6,0.3,0.6
2025-11-27T0700,3179A,102.7494,25.0119,昆明市,官渡区博物馆,,38,32,62,26,35,52,52,,,29,40,2,4,0.3,0.5
2025-11-27T0700,3375A,102.8017,24.8336,昆明市,青年创业园,,40,40,59,23,34,67,67,,,11,20,4,6,0.5,0.6
2025-11-27T0700,3550A,102.7997,24.9786,昆明市,昆明学院,,,,74,,39,,,46,,,38,,4,,0.5
2025-11-27T0700,3551A,102.5967,24.6736,昆明市,晋宁区生态环境分局,,35,35,59,24,38,84,84,,,8,24,2,4,0.2,0.5
2025-11-27T0700,3552A,102.6678,24.9856,昆明市,云天化总部,,30,30,56,18,31,81,81,,,8,31,4,7,0.3,0.7
2025-11-27T0700,1456A,91.1319,29.6514,拉萨市,八廓街,,21,11,20,3,13,66,66,,,6,14,11,7,0.1,0.3
2025-11-27T0700,1457A,91.1221,29.6747,拉萨市,市环保局,,15,9,22,6,11,47,47,,,12,17,11,8,0.6,0.7
2025-11-27T0700,1458A,91.0874,29.6475,拉萨市,区监测站,,21,10,14,3,8,65,65,,,11,20,13,6,0.4,0.5
2025-11-27T0700,1459A,91.1774,29.6541,拉萨市,西藏大学,,19,13,16,7,8,58,58,,,10,15,8,5,0.1,0.1
2025-11-27T0700,1460A,90.9798,29.6588,拉萨市,区辐射站,,18,8,27,3,13,55,55,,,12,26,5,6,0.3,0.5
2025-11-27T0700,1461A,91.0834,29.6292,拉萨市,拉萨火车站,,14,9,19,9,11,43,43,,,17,18,7,6,0.8,0.7
2025-11-27T0700,2520A,109.2203,23.7256,来宾市,来宾技工学校,,39,39,52,18,24,67,67,,,13,15,7,10,0.6,0.6
2025-11-27T0700,3535A,109.1781,23.7297,来宾市,兴宾区政府,,34,34,47,19,25,76,76,,,8,10,6,8,0.3,0.4
2025-11-27T0700,4002A,109.2416,23.7461,来宾市,中南小学,,46,46,57,21,27,62,62,,,14,17,8,10,0.6,0.6
2025-11-27T0700,1477A,104.1373,35.9454,兰州市,榆中兰大校区,,,,,,,,,,,,,,,,
2025-11-27T0700,1479A,103.831,36.0464,兰州市,铁路设计院,,,,,,,,,,,,,,,,
2025-11-27T0700,3241A,103.7439,36.0842,兰州市,百合公园,颗粒物(PM10),143,235,215,48,52,2,2,,,46,39,8,10,0.8,0.7
2025-11-27T0700,3242A,103.9611,35.998,兰州市,和平,颗粒物(PM10),145,240,217,49,51,5,5,,,43,27,5,5,1.2,0.7
2025-11-27T0700,4236A,103.6293,36.0938,兰州市,庄浪东路808号,颗粒物(PM10),152,253,206,71,52,9,9,,,46,46,10,11,0.6,0.8
2025-11-27T0700,4237A,103.7251,36.1043,兰州市,安宁西路88号,颗粒物(PM10),179,308,261,59,56,4,4,,,50,38,3,5,0.5,0.7
2025-11-27T0700,4238A,103.8470,36.0676,兰州市,北滨河东路1号,颗粒物(PM10),163,275,252,54,57,2,2,,,52,48,14,10,1.8,1
2025-11-27T0700,3245A,103.6633,36.533,兰州新区,新区管委会,颗粒物(PM10),136,221,233,62,60,16,16,,,17,17,14,9,0.6,0.4
2025-11-27T0700,3246A,103.6975,36.4789,兰州新区,舟曲中学,颗粒物(PM10),210,357,301,65,59,50,50,,,17,20,20,8,0.5,0.4
2025-11-27T0700,1067A,116.6708,39.5111,廊坊市,药材公司,,19,19,80,3,40,18,18,,,7,42,2,6,0.3,0.6
2025-11-27T0700,1068A,116.7214,39.5589,廊坊市,开发区,,18,10,96,3,40,57,57,,,11,45,2,4,0.2,0.4
2025-11-27T0700,1070A,116.7244,39.5269,廊坊市,北华航天学院,,19,11,94,3,40,58,58,,,7,44,3,5,0.2,0.5
2025-11-27T0700,2919A,116.7022,39.5453,廊坊市,河北工业大学,,19,12,91,3,39,58,58,,,7,41,3,6,0.2,0.5
2025-11-27T0700,2535A,103.7723,29.5462,乐山市,花湖湾,,,,,,,,,,,,,,,,
2025-11-27T0700,2536A,103.7627,29.5844,乐山市,牛耳桥,细颗粒物(PM2.5),93,90,107,69,77,1,1,,,26,34,6,7,1.1,0.9
2025-11-27T0700,2537A,103.7508,29.6006,乐山市,市第三水厂,细颗粒物(PM2.5),88,90,104,65,74,1,1,,,36,41,5,7,1.1,1
2025-11-27T0700,2538A,103.7571,29.5664,乐山市,市监测站,细颗粒物(PM2.5),69,72,101,50,73,0,0,,,24,34,6,7,1.0,1
2025-11-27T0700,3361A,103.7311,29.5628,乐山市,理工大学,细颗粒物(PM2.5),69,68,99,50,70,0,0,,,20,34,7,8,1.0,0.9
2025-11-27T0700,2598A,100.2143,26.8576,丽江市,西南郊,,18,7,31,3,17,57,57,,,7,10,5,6,0.8,1
2025-11-27T0700,2599A,100.2497,26.8802,丽江市,丽江古城,,18,14,32,9,20,55,55,,,13,13,9,8,0.5,0.6
2025-11-27T0700,2600A,100.2203,26.8906,丽江市,市中心,,20,,26,3,21,62,62,,,12,16,8,8,0.5,0.5
2025-11-27T0700,1267A,119.914,28.4514,丽水市,监测站大楼,,48,48,84,31,34,7,7,,,25,31,5,6,0.4,0.5
2025-11-27T0700,1268A,119.93,28.4586,丽水市,莲都小学,颗粒物(PM10),58,65,99,25,34,3,3,,,33,36,5,5,0.5,0.5
2025-11-27T0700,1269A,119.879,28.4231,丽水市,余庄前,,50,50,83,32,39,2,2,,,15,23,3,4,0.3,0.3
2025-11-27T0700,1173A,119.176,34.5885,连云港市,市环境监测站,颗粒物(PM10),324,439,162,58,46,23,23,,,37,34,7,11,0.8,0.9
2025-11-27T0700,3000A,119.3581,34.6972,连云港市,德源药业,颗粒物(PM10),339,451,172,68,44,20,20,,,38,34,6,7,0.5,0.6
2025-11-27T0700,3007A,119.178,34.844,连云港市,新城一中,颗粒物(PM10),127,204,113,41,50,50,50,,,14,34,8,9,0.6,0.7
2025-11-27T0700,3008A,119.3608,34.7519,连云港市,胡沟管理处,颗粒物(PM10),196,342,153,58,40,47,47,,,12,30,6,9,0.5,0.6
2025-11-27T0700,3009A,119.1478,34.5911,连云港市,矿山设计院,颗粒物(PM10),312,429,168,51,43,10,10,,,29,21,6,7,0.4,0.5
2025-11-27T0700,3434A,119.2413,34.6539,连云港市,工贸学校,颗粒物(PM10),280,406,136,59,46,40,40,,,11,21,9,11,0.7,0.8
2025-11-27T0700,3664A,119.4172,34.7341,连云港市,连云街道,颗粒物(PM10),185,319,134,48,39,50,50,,,9,17,6,7,0.3,0.5
2025-11-27T0700,2571A,102.3431,27.8099,凉山彝族自治州,青龙寺,,,,,,,,,,,,,,,,
2025-11-27T0700,2572A,102.2721,27.8415,凉山彝族自治州,邛海宾馆,,19,17,33,13,19,38,38,,,19,12,5,6,0.5,0.6
2025-11-27T0700,2573A,102.2625,27.898,凉山彝族自治州,西昌市政府,,16,16,38,3,25,51,51,,,5,12,5,7,0.2,0.5
2025-11-27T0700,2574A,102.2685,27.8851,凉山彝族自治州,凉山州政府,,26,,46,18,29,46,46,,,6,16,6,8,0.4,0.7
2025-11-27T0700,4229A,102.2342,27.8859,凉山彝族自治州,凯乐南路30号,,20,20,44,7,25,30,30,,,28,32,4,7,0.5,0.8
2025-11-27T0700,2212A,123.2,41.1953,辽阳市,宏伟区,,23,22,50,16,27,38,38,,,25,17,4,6,0.4,0.5
2025-11-27T0700,2213A,123.1683,41.2495,辽阳市,新华园,,25,21,54,17,28,34,34,,,16,21,1,3,0.4,0.4
2025-11-27T0700,2214A,123.2354,41.2639,辽阳市,滨河路,,30,29,53,21,29,34,34,,,16,20,5,6,0.6,0.7
2025-11-27T0700,2215A,123.149,41.2991,辽阳市,铁西工业园,,30,,58,21,33,37,37,,,10,17,6,8,0.6,0.8
2025-11-27T0700,2227A,125.1358,42.8845,辽源市,环保局,颗粒物(PM10),68,85,111,42,58,31,31,,,18,24,2,5,0.5,0.8
2025-11-27T0700,3239A,125.0764,42.9078,辽源市,银鹰制药,细颗粒物(PM2.5),54,52,91,38,63,38,38,,,14,27,4,6,0.4,0.7
2025-11-27T0700,1625A,115.9848,36.4372,聊城市,区政府,颗粒物(PM10),82,114,294,16,49,45,45,,,18,26,8,11,0.4,0.6
2025-11-27T0700,2878A,116.0072,36.4343,聊城市,聊大东校,颗粒物(PM10),89,127,277,22,64,43,43,,,17,24,6,9,0.4,0.6
2025-11-27T0700,3200A,115.9819,36.4978,聊城市,监控中心,颗粒物(PM10),92,133,353,22,63,43,43,,,14,18,8,10,0.5,0.7
2025-11-27T0700,3513A,116.0445,36.4361,聊城市,九州社区,颗粒物(PM10),85,120,294,20,53,54,54,,,11,18,1,4,0.5,0.6
2025-11-27T0700,4018A,116.0567,36.4608,聊城市,星美广场,颗粒物(PM10),83,115,257,18,49,50,50,,,9,17,1,4,0.2,0.4
2025-11-27T0700,2632A,94.3681,29.6376,林芝市,林芝监测站,,19,6,11,3,8,58,58,,,2,9,1,2,0.2,0.2
2025-11-27T0700,2633A,94.3616,29.6616,林芝市,林芝人民医院,,17,10,15,6,7,53,53,,,3,6,3,2,0.2,0.3
2025-11-27T0700,2603A,100.0781,23.8982,临沧市,市环保局,,28,26,30,19,34,18,18,,,6,8,4,6,0.6,0.7
2025-11-27T0700,2604A,100.0894,23.8822,临沧市,市气象局,,19,19,26,11,17,23,23,,,10,11,10,10,0.4,0.4
2025-11-27T0700,1733A,111.5531,36.0783,临汾市,临钢医院,颗粒物(PM10),199,347,409,50,53,20,20,,,35,21,3,7,0.4,0.7
2025-11-27T0700,1734A,111.5028,36.0714,临汾市,技工学校,颗粒物(PM10),209,356,410,63,67,33,33,,,20,18,2,6,0.3,0.6
2025-11-27T0700,1736A,111.5018,36.0855,临汾市,市委,颗粒物(PM10),263,394,393,42,47,37,37,,,19,19,4,8,0.4,0.7
2025-11-27T0700,3018A,111.505,36.1014,临汾市,唐尧大酒店,颗粒物(PM10),191,331,358,51,56,41,41,,,16,18,3,6,0.5,0.7
2025-11-27T0700,4244A,111.4879,36.0530,临汾市,启星学校,颗粒物(PM10),185,320,379,49,56,35,35,,,19,20,2,7,0.3,0.6
2025-11-27T0700,4271A,103.2464,35.6123,临夏回族自治州,滨河东路1号,颗粒物(PM10),97,143,152,59,67,3,3,,,15,17,5,5,1.4,1.2
2025-11-27T0700,4310A,103.2093,35.5995,临夏回族自治州,新华街21号,细颗粒物(PM2.5),112,158,155,84,72,0,0,,,29,26,6,10,2.0,1.4
2025-11-27T0700,1618A,118.3429,35.0532,临沂市,沂河小区,颗粒物(PM10),165,280,226,50,64,40,40,,,23,38,10,15,0.4,0.5
2025-11-27T0700,1619A,118.295,35.0583,临沂市,鲁南制药厂,颗粒物(PM10),168,285,259,47,68,42,42,,,26,43,13,17,0.3,0.5
2025-11-27T0700,1620A,118.2794,34.9976,临沂市,新光毛纺厂,颗粒物(PM10),139,227,230,44,64,49,49,,,14,37,7,16,0.4,0.6
2025-11-27T0700,1621A,118.3956,35.0888,临沂市,河东保险公司,颗粒物(PM10),162,273,210,40,58,48,48,,,22,40,10,13,0.3,0.4
2025-11-27T0700,3370A,118.3564,35.0215,临沂市,十里堡居委,颗粒物(PM10),172,293,249,29,55,45,45,,,21,42,11,18,0.4,0.7
2025-11-27T0700,3496A,118.3604,35.1084,临沂市,南坊新区,颗粒物(PM10),176,302,233,44,59,47,47,,,21,35,12,15,0.4,0.6
2025-11-27T0700,3860A,118.3920,35.0300,临沂市,皇山花园小区,颗粒物(PM10),184,317,245,44,55,46,46,,,20,36,11,18,0.3,0.5
2025-11-27T0700,1870A,109.4856,24.3895,柳州市,柳东小学,,33,33,48,19,30,82,82,,,5,9,8,10,0.3,0.3
2025-11-27T0700,1871A,109.4157,24.3277,柳州市,环保监测站,,40,40,52,24,30,66,66,,,10,15,9,10,0.3,0.4
2025-11-27T0700,1872A,109.389,24.341,柳州市,河西水厂,,48,48,68,27,35,56,56,,,24,24,22,16,1.1,0.6
2025-11-27T0700,1873A,109.4311,24.2921,柳州市,市四中,,32,32,52,21,26,71,71,,,10,17,10,12,0.4,0.5
2025-11-27T0700,1874A,109.4006,24.3631,柳州市,市九中,,46,46,57,23,36,62,62,,,18,20,13,11,0.4,0.4
2025-11-27T0700,1875A,109.4958,24.3134,柳州市,古亭山,,30,30,46,17,22,60,60,,,7,19,9,10,0.5,0.5
2025-11-27T0700,3402A,109.5422,24.3996,柳州市,市二中,,39,36,47,27,30,26,26,,,20,22,7,8,0.6,0.6
2025-11-27T0700,2307A,116.5079,31.737,六安市,监测大楼,颗粒物(PM10),329,443,130,53,29,60,60,,,7,19,3,4,0.3,0.3
2025-11-27T0700,2308A,116.4738,31.7643,六安市,皖西学院,颗粒物(PM10),390,492,138,53,29,59,59,,,10,18,2,3,0.3,0.4
2025-11-27T0700,2309A,116.4996,31.7905,六安市,朝阳厂,颗粒物(PM10),220,364,110,40,27,57,57,,,9,22,3,4,0.3,0.4
2025-11-27T0700,2310A,116.5567,31.7886,六安市,开发区,颗粒物(PM10),400,500,156,62,37,53,53,,,12,28,1,3,0.2,0.3
2025-11-27T0700,2576A,104.8,26.5892,六盘水市,窑上,,31,31,54,21,37,49,49,,,14,11,5,8,0.4,0.5
2025-11-27T0700,2577A,104.83,26.5917,六盘水市,黄土坡,,41,41,53,28,32,42,42,,,18,18,4,7,0.4,0.5
2025-11-27T0700,2578A,104.89,26.5939,六盘水市,水钢,颗粒物(PM10),55,60,71,33,46,39,39,,,32,26,30,18,2.0,1.3
2025-11-27T0700,2579A,104.8475,26.5894,六盘水市,民中,,43,43,54,29,38,34,34,,,30,22,8,8,0.6,0.6
2025-11-27T0700,2580A,104.9544,26.5506,六盘水市,双水,颗粒物(PM10),53,56,62,36,41,37,37,,,23,18,8,9,1.6,0.7
2025-11-27T0700,2335A,117.0189,25.1181,龙岩市,龙岩师专,,,,,,,,,,,,,,,,
2025-11-27T0700,2336A,117.0217,25.1033,龙岩市,龙岩市监测站,,40,40,45,25,24,51,51,,,20,19,14,11,0.5,0.5
2025-11-27T0700,2337A,117.0258,25.0661,龙岩市,闽西职业技术学院,,46,46,52,30,28,30,30,,,23,26,6,11,0.5,0.5
2025-11-27T0700,2338A,117.0196,25.0306,龙岩市,龙岩学院,,40,40,49,28,26,48,48,,,12,15,6,7,0.5,0.5
2025-11-27T0700,2665A,105.0822,33.3261,陇南市,汉王镇固水子,,,,,,,,,,,,,,,,
2025-11-27T0700,2885A,104.9339,33.3826,陇南市,滨江中学,颗粒物(PM10),102,153,112,42,46,26,26,,,26,32,17,14,1.0,1.5
2025-11-27T0700,3247A,104.955,33.371,陇南市,市总工会,颗粒物(PM10),96,142,100,38,39,32,32,,,20,19,7,7,0.7,0.8
2025-11-27T0700,2487A,111.9589,27.8901,娄底市,电视发射台,,,,,,,,,,,,,,,,
2025-11-27T0700,2488A,111.9975,27.725,娄底市,市监测站,细颗粒物(PM2.5),78,82,87,57,48,8,8,,,48,40,40,32,1.4,1.6
2025-11-27T0700,2489A,112.0194,27.7314,娄底市,市委党校,细颗粒物(PM2.5),78,77,89,57,49,8,8,,,32,42,11,16,1.2,1.2
2025-11-27T0700,2490A,111.9561,27.7569,娄底市,涟钢,细颗粒物(PM2.5),68,70,93,49,51,26,26,,,17,35,7,24,1.1,1.9
2025-11-27T0700,2491A,111.9892,27.7044,娄底市,市政府,细颗粒物(PM2.5),69,66,91,50,59,9,9,,,21,34,11,16,0.6,0.9
2025-11-27T0700,1893A,105.4324,28.9634,泸州市,九狮山,,,,,,,,,,,,,,,,
2025-11-27T0700,1894A,105.4427,28.9063,泸州市,小市上码头,细颗粒物(PM2.5),82,86,94,60,61,21,21,,,17,27,17,13,0.7,0.7
2025-11-27T0700,1895A,105.4241,28.8573,泸州市,兰田宪桥,细颗粒物(PM2.5),98,101,98,73,69,13,13,,,17,23,7,8,0.6,0.6
2025-11-27T0700,1896A,105.4379,28.8833,泸州市,市环监站,细颗粒物(PM2.5),79,95,92,58,58,14,14,,,26,29,11,8,0.6,0.6
2025-11-27T0700,4272A,105.3689,28.7783,泸州市,纳溪中医医院,细颗粒物(PM2.5),87,79,95,64,71,7,7,,,12,17,9,10,0.6,0.7
2025-11-27T0700,2183A,111.1406,37.5211,吕梁市,环保局,颗粒物(PM10),162,274,376,53,59,17,17,,,34,19,4,5,0.3,0.3
2025-11-27T0700,2185A,111.1297,37.5136,吕梁市,自来水公司,颗粒物(PM10),156,261,371,45,55,17,17,,,32,17,1,6,0.3,0.4
2025-11-27T0700,2867A,111.1283,37.51,吕梁市,马茂庄小学,颗粒物(PM10),173,296,458,53,67,13,13,,,36,21,5,6,0.4,0.4
2025-11-27T0700,1812A,112.3931,34.6516,洛阳市,市委党校,颗粒物(PM10),215,360,289,92,63,50,50,,,14,21,8,10,0.3,0.4
2025-11-27T0700,1815A,112.494,34.6886,洛阳市,河南林校,颗粒物(PM10),269,398,333,80,54,40,40,,,21,19,8,9,0.5,0.5
2025-11-27T0700,1816A,112.3844,34.623,洛阳市,开发区管委会,颗粒物(PM10),197,344,258,85,58,54,54,,,10,16,7,9,0.4,0.5
2025-11-27T0700,1817A,112.4267,34.6258,洛阳市,市委新办公区,颗粒物(PM10),235,374,256,80,54,52,52,,,17,19,8,9,0.2,0.3
2025-11-27T0700,3340A,112.6005,34.6326,洛阳市,伊滨,颗粒物(PM10),345,456,315,104,61,49,49,,,8,13,7,8,0.2,0.3
2025-11-27T0700,3341A,112.4951,34.6332,洛阳市,中移产业园,颗粒物(PM10),305,424,358,91,67,50,50,,,22,23,7,8,0.2,0.3
2025-11-27T0700,3593A,112.5736,34.8993,洛阳市,吉利监测站,颗粒物(PM10),222,365,283,66,47,37,37,,,24,18,7,7,0.5,0.4
2025-11-27T0700,3635A,112.3677,34.662,洛阳市,河科大西苑校区,颗粒物(PM10),298,418,336,63,47,29,29,,,34,24,6,9,0.5,0.6
2025-11-27T0700,3636A,112.4388,34.6781,洛阳市,英才小学,颗粒物(PM10),309,427,340,95,74,29,29,,,32,25,9,10,0.5,0.6
2025-11-27T0700,4214A,112.4600,34.6949,洛阳市,春都路1号院,颗粒物(PM10),340,452,399,76,58,24,24,,,39,23,9,10,0.6,0.6
2025-11-27T0700,2399A,114.051,33.5699,漯河市,三五一五工厂,颗粒物(PM10),446,546,282,111,60,56,56,,,12,14,6,7,0.1,0.3
2025-11-27T0700,2400A,114.0055,33.5698,漯河市,漯河大学,颗粒物(PM10),390,492,281,78,50,60,60,,,16,19,4,6,0.3,0.4
2025-11-27T0700,2401A,114.0138,33.5828,漯河市,市水利局,颗粒物(PM10),415,515,333,97,59,54,54,,,20,20,6,8,0.3,0.3
2025-11-27T0700,2402A,114.0261,33.5698,漯河市,市广电局,颗粒物(PM10),423,523,336,92,55,54,54,,,16,15,5,7,0.2,0.3
2025-11-27T0700,3478A,113.9749,33.5664,漯河市,市图书馆,颗粒物(PM10),479,579,283,94,52,51,51,,,15,17,3,4,0.4,0.4
2025-11-27T0700,4250A,114.0892,33.5882,漯河市,韶山路11号,颗粒物(PM10),415,515,255,91,51,46,46,,,20,21,9,8,0.2,0.3
2025-11-27T0700,1798A,118.5092,31.6837,马鞍山市,湖东路四小,颗粒物(PM10),276,403,169,41,46,53,53,,,17,38,12,8,1.0,0.8
2025-11-27T0700,1799A,118.5024,31.6449,马鞍山市,开发区,颗粒物(PM10),289,412,174,43,57,61,61,,,9,38,3,5,0.3,0.6
2025-11-27T0700,1802A,118.6245,31.7241,马鞍山市,濮塘,,,,,,,,,,,,,,,,
2025-11-27T0700,3633A,118.4918,31.6809,马鞍山市,雨山,颗粒物(PM10),317,433,170,44,49,46,46,,,25,39,10,10,1.9,0.8
2025-11-27T0700,4191A,118.5274,31.72227,马鞍山市,慈湖高新区,颗粒物(PM10),276,403,169,45,51,38,38,,,33,46,36,15,1.4,1.1
2025-11-27T0700,1686A,111.0286,21.4688,茂名市,电白南海,颗粒物(PM10),53,56,72,31,29,62,62,,,18,17,14,14,1.0,1.1
2025-11-27T0700,1687A,110.9294,21.6533,茂名市,茂石化七小,,44,44,62,27,27,66,66,,,11,14,13,15,0.5,0.6
2025-11-27T0700,1688A,110.9107,21.6687,茂名市,健康路,,46,46,60,24,29,64,64,,,16,18,25,20,0.5,0.5
2025-11-27T0700,1689A,110.8592,21.6828,茂名市,高岭,颗粒物(PM10),58,66,81,19,33,55,55,,,19,25,16,18,0.6,0.7
2025-11-27T0700,3450A,111.01,21.5165,茂名市,电白水东,,39,39,62,22,27,69,69,,,14,15,14,11,0.4,0.5
2025-11-27T0700,2539A,104.0308,30.0478,眉山市,黑龙滩水库,,,,,,,,,,,,,,,,
2025-11-27T0700,2540A,103.8416,30.0874,眉山市,气象局,细颗粒物(PM2.5),89,78,107,66,81,2,2,,,25,36,10,12,0.9,0.9
2025-11-27T0700,3137A,103.8578,30.0744,眉山市,市委党校,细颗粒物(PM2.5),89,78,106,66,74,1,1,,,27,45,5,7,1.0,1
2025-11-27T0700,3148A,103.8291,30.0564,眉山市,区人社局,细颗粒物(PM2.5),85,98,120,63,87,3,3,,,24,38,6,8,1.3,1.3
2025-11-27T0700,1690A,116.1231,24.3284,梅州市,梅江月梅,,49,49,54,26,30,31,31,,,24,23,15,8,0.5,0.5
2025-11-27T0700,1691A,116.0797,24.2719,梅州市,梅县新城,,46,46,64,24,33,1,1,,,37,36,6,8,0.4,0.5
2025-11-27T0700,1692A,116.1248,24.2654,梅州市,环境监控中心,,45,45,57,31,31,2,2,,,41,38,23,18,0.6,0.7
2025-11-27T0700,3315A,116.1233,24.2991,梅州市,梅龙,,48,48,54,28,29,21,21,,,26,21,29,16,0.5,0.5
2025-11-27T0700,1878A,104.7778,31.4741,绵阳市,富乐山,细颗粒物(PM2.5),75,92,91,55,53,2,2,,,27,29,10,10,0.6,0.5
2025-11-27T0700,1880A,104.6697,31.4668,绵阳市,高新区自来水公司,细颗粒物(PM2.5),107,129,112,80,64,1,1,,,29,37,10,11,0.8,0.6
2025-11-27T0700,1881A,104.7287,31.5075,绵阳市,三水厂,细颗粒物(PM2.5),90,105,97,67,63,1,1,,,30,33,12,13,1.0,0.7
2025-11-27T0700,3491A,104.69,31.5322,绵阳市,西科大附属小学,颗粒物(PM10),70,90,107,42,59,2,2,,,34,34,7,8,0.8,0.6
2025-11-27T0700,3492A,104.5648,31.5343,绵阳市,安州区旅游局,颗粒物(PM10),73,96,96,51,60,4,4,,,25,29,5,9,0.6,0.7
2025-11-27T0700,4226A,104.7651,31.4531,绵阳市,绵阳市气象局,细颗粒物(PM2.5),87,99,100,64,53,3,3,,,32,39,12,9,0.9,0.7
2025-11-27T0700,1784A,129.61,44.561,牡丹江市,环保大楼,细颗粒物(PM2.5),83,94,74,61,56,4,4,,,45,45,22,14,0.7,0.8
2025-11-27T0700,1785A,129.6115,44.5782,牡丹江市,文化广场,细颗粒物(PM2.5),88,102,96,65,62,8,8,,,48,47,20,17,0.8,0.9
2025-11-27T0700,1786A,129.5904,44.5963,牡丹江市,第一医院,细颗粒物(PM2.5),107,86,92,80,81,3,3,,,43,42,19,16,0.8,0.9
2025-11-27T0700,1787A,129.6364,44.6075,牡丹江市,机车工厂,细颗粒物(PM2.5),87,102,97,64,54,8,8,,,41,42,9,11,0.7,0.8
2025-11-27T0700,1788A,129.6386,44.5462,牡丹江市,第一中学,细颗粒物(PM2.5),92,68,77,68,68,7,7,,,41,40,9,7,0.7,0.8
2025-11-27T0700,2531A,105.0703,29.61,内江市,市监测站,细颗粒物(PM2.5),89,81,74,66,58,12,12,,,20,27,3,3,1.0,0.8
2025-11-27T0700,2532A,105.0717,29.5947,内江市,东兴区政府,细颗粒物(PM2.5),119,90,75,90,54,3,3,,,27,31,3,4,0.8,0.6
2025-11-27T0700,2533A,105.0653,29.5817,内江市,内江二中,细颗粒物(PM2.5),94,99,84,70,59,1,1,,,25,33,4,4,1.0,0.8
2025-11-27T0700,2534A,105.0406,29.5822,内江市,内江日报社,细颗粒物(PM2.5),105,95,79,79,61,15,15,,,25,33,3,3,0.7,0.5
2025-11-27T0700,2628A,92.0657,31.4846,那曲市,那曲监测站,,22,22,48,12,25,37,37,,,15,23,8,11,0.9,1.2
2025-11-27T0700,4243A,92.0515,31.4787,那曲市,那曲市委宣传部,,36,36,31,23,21,25,25,,,24,18,8,7,1.7,1.2
2025-11-27T0700,1290A,115.8931,28.6843,南昌市,省外办,颗粒物(PM10),60,69,87,41,44,4,4,,,76,55,4,4,1.5,1.1
2025-11-27T0700,1291A,115.8886,28.7003,南昌市,省林业公司,颗粒物(PM10),62,73,101,34,38,13,13,,,60,47,5,6,0.9,0.8
2025-11-27T0700,1292A,115.8126,28.7442,南昌市,林科所,颗粒物(PM10),59,68,82,27,25,17,17,,,52,35,4,5,0.4,0.3
2025-11-27T0700,1294A,115.8518,28.687,南昌市,建工学校,颗粒物(PM10),72,94,109,34,40,1,1,,,71,50,12,12,0.8,0.8
2025-11-27T0700,1295A,115.8921,28.6424,南昌市,象湖,颗粒物(PM10),67,84,102,39,42,0,0,,,58,52,10,10,0.8,0.9
2025-11-27T0700,1296A,115.7423,28.7996,南昌市,武术学校,,,,,,,,,,,,,,,,
2025-11-27T0700,3046A,115.9084,28.6062,南昌市,机电学校,颗粒物(PM10),64,78,121,39,44,0,0,,,52,55,8,11,0.6,0.7
2025-11-27T0700,3690A,115.9721,28.7031,南昌市,外国语学校,颗粒物(PM10),62,73,101,38,39,31,31,,,50,46,11,11,0.5,0.6
2025-11-27T0700,4192A,115.9316,28.68677,南昌市,南京东路235号,颗粒物(PM10),68,86,115,24,38,41,41,,,42,55,10,9,0.7,0.8
2025-11-27T0700,1905A,106.056,30.8064,南充市,西山风景区,,,,,,,,,,,,,,,,
2025-11-27T0700,1906A,106.0789,30.8023,南充市,南充市委,细颗粒物(PM2.5),78,95,88,57,51,22,22,,,25,37,5,5,0.5,0.7
2025-11-27T0700,1907A,106.1031,30.8217,南充市,南充炼油厂,细颗粒物(PM2.5),83,102,98,61,55,20,20,,,25,38,7,7,0.6,0.7
2025-11-27T0700,4227A,106.1083,30.7884,南充市,梨树横街98号,细颗粒物(PM2.5),78,90,87,57,48,20,20,,,24,28,6,6,0.5,0.5
2025-11-27T0700,4304A,106.1172,30.843,南充市,清泉寺北路188号,,,77,78,47,50,12,12,,,26,28,5,6,,0.5
2025-11-27T0700,4305A,106.067,30.7616,南充市,同庆路1号,细颗粒物(PM2.5),70,87,83,51,46,14,14,,,22,32,6,6,0.6,0.7
2025-11-27T0700,1151A,118.8086,32.1065,南京市,迈皋桥,颗粒物(PM10),169,287,126,34,35,57,57,,,1,31,4,4,0.4,0.6
2025-11-27T0700,1152A,118.7538,32.0551,南京市,草场门,颗粒物(PM10),349,459,186,39,36,50,50,,,18,44,2,6,0.2,0.6
2025-11-27T0700,1153A,118.7794,32.0745,南京市,山西路,颗粒物(PM10),408,508,195,39,36,54,54,,,7,38,4,4,0.3,0.7
2025-11-27T0700,1154A,118.7752,32.0023,南京市,中华门,颗粒物(PM10),315,432,158,46,41,54,54,,,8,30,4,4,0.2,0.5
2025-11-27T0700,1155A,118.8109,32.0309,南京市,瑞金路,颗粒物(PM10),245,381,156,51,41,51,51,,,2,40,4,4,0.2,0.4
2025-11-27T0700,1156A,118.7997,32.0754,南京市,玄武湖,颗粒物(PM10),169,288,123,40,33,55,55,,,23,25,4,4,0.2,0.6
2025-11-27T0700,1157A,118.6414,32.0931,南京市,浦口,颗粒物(PM10),279,405,159,37,34,59,59,,,13,32,7,10,0.5,0.7
2025-11-27T0700,1158A,118.7356,31.9996,南京市,奥体中心,颗粒物(PM10),270,399,156,41,38,59,59,,,14,46,4,8,0.2,0.6
2025-11-27T0700,1159A,118.9125,32.1028,南京市,仙林大学城,颗粒物(PM10),373,478,175,51,36,50,50,,,13,34,4,7,0.5,0.6
2025-11-27T0700,3422A,118.8436,31.9198,南京市,江宁彩虹桥,颗粒物(PM10),193,336,133,39,37,68,68,,,3,38,4,5,0.3,0.5
2025-11-27T0700,3427A,118.8554,32.3578,南京市,六合雄州,颗粒物(PM10),198,345,123,48,39,55,55,,,18,34,6,12,0.2,0.6
2025-11-27T0700,4249A,118.8708,31.3402,南京市,汶溪路181号,颗粒物(PM10),163,275,110,47,50,54,54,,,21,33,5,7,0.4,0.6
2025-11-27T0700,4312A,119.019,31.6512,南京市,中山西路1号,颗粒物(PM10),194,337,117,48,41,49,49,,,14,33,3,5,0.4,0.6
2025-11-27T0700,1401A,108.3103,22.7881,南宁市,二十一中,,40,33,56,28,33,23,23,,,44,32,7,9,0.4,0.4
2025-11-27T0700,1402A,108.3141,22.8528,南宁市,北湖,,45,45,62,10,28,53,53,,,25,40,11,13,0.5,0.6
2025-11-27T0700,1403A,108.3206,22.8225,南宁市,市监测站,,39,,55,27,34,54,54,,,24,33,11,13,0.5,0.5
2025-11-27T0700,1404A,108.3829,22.8037,南宁市,大自然花园,,43,43,56,24,31,55,55,,,19,25,15,10,0.4,0.4
2025-11-27T0700,1405A,108.4394,22.7904,南宁市,仙葫,,,,,,,,,,,,,,,,
2025-11-27T0700,1406A,108.2397,22.8467,南宁市,区农职院,,45,45,56,21,27,59,59,,,12,27,8,8,0.6,0.7
2025-11-27T0700,1407A,108.3275,22.735,南宁市,英华嘉园,颗粒物(PM10),55,59,65,30,34,5,5,,,49,38,5,7,0.8,0.8
2025-11-27T0700,3401A,108.4834,22.7618,南宁市,红星社区,,37,37,48,19,24,35,35,,,34,25,8,8,0.4,0.5
2025-11-27T0700,4221A,108.2177,22.7774,南宁市,乐贤路16号,颗粒物(PM10),51,52,72,30,34,20,20,,,33,34,20,10,0.4,0.5
2025-11-27T0700,2331A,118.0966,26.6761,南平市,茫荡山,,,,57,,25,,,129,,,,,1,,
2025-11-27T0700,2332A,118.1681,26.6369,南平市,南平市监测站,,46,46,54,29,32,23,23,,,21,28,3,6,0.4,0.6
2025-11-27T0700,2333A,118.1825,26.6489,南平市,南平铝业有限公司,细颗粒物(PM2.5),54,46,55,38,34,7,7,,,32,31,6,7,0.6,0.6
2025-11-27T0700,2334A,118.1756,26.6272,南平市,南平七中,,49,43,57,34,33,26,26,,,18,20,4,7,0.4,0.6
2025-11-27T0700,1168A,120.9098,31.9663,南通市,狼山街道,颗粒物(PM10),172,293,111,37,40,49,49,,,18,57,4,7,0.4,0.7
2025-11-27T0700,1169A,120.86,32.0005,南通市,虹桥,颗粒物(PM10),141,232,98,39,42,47,47,,,21,58,4,8,0.1,0.3
2025-11-27T0700,1170A,120.87,32.02,南通市,城中,颗粒物(PM10),181,312,123,38,41,45,45,,,20,59,6,10,0.6,0.8
2025-11-27T0700,1171A,120.94,31.93,南通市,星湖花园,颗粒物(PM10),195,340,122,45,44,26,26,,,48,62,4,8,0.3,0.6
2025-11-27T0700,1172A,120.81,32.0417,南通市,紫琅学院,颗粒物(PM10),176,301,117,28,37,49,49,,,17,59,5,8,0.5,0.7
2025-11-27T0700,3291A,121.067,32.062,南通市,通州监测站,颗粒物(PM10),133,215,92,36,41,43,43,,,25,66,6,8,0.4,0.7
2025-11-27T0700,3432A,120.9348,31.9883,南通市,环境教育馆,颗粒物(PM10),163,276,109,29,41,52,52,,,15,58,6,9,0.3,0.6
2025-11-27T0700,2404A,112.5224,33.0122,南阳市,瓦房庄,颗粒物(PM10),139,228,137,45,40,47,47,,,18,26,6,9,0.5,0.6
2025-11-27T0700,2405A,112.5003,32.9735,南阳市,汉画馆,颗粒物(PM10),146,241,135,54,41,30,30,,,34,29,6,7,0.4,0.6
2025-11-27T0700,2406A,112.5573,33.027,南阳市,气象站,颗粒物(PM10),181,311,171,46,36,51,51,,,22,30,7,10,0.5,0.7
2025-11-27T0700,2407A,112.5481,32.9689,南阳市,理工学院,颗粒物(PM10),150,249,144,50,36,42,42,,,25,25,5,7,0.5,0.6
2025-11-27T0700,4008A,112.5234,32.9922,南阳市,卧龙区政府,颗粒物(PM10),156,262,133,49,41,39,39,,,27,29,6,8,0.4,0.6
2025-11-27T0700,1234A,121.8358,29.911,宁波市,区环保大楼,颗粒物(PM10),67,84,94,37,39,25,25,,,64,68,7,9,0.8,0.8
2025-11-27T0700,1235A,121.56,29.82,宁波市,万里学院,颗粒物(PM10),74,98,125,48,53,1,1,,,66,64,6,8,0.6,0.6
2025-11-27T0700,1236A,121.713,29.9572,宁波市,龙赛医院,颗粒物(PM10),83,115,120,55,52,7,7,,,62,59,4,6,0.6,0.6
2025-11-27T0700,1239A,121.633,29.7733,宁波市,钱湖水厂,细颗粒物(PM2.5),73,93,93,53,44,26,26,,,30,35,5,7,0.9,0.8
2025-11-27T0700,1240A,121.5856,29.8635,宁波市,太古小学,颗粒物(PM10),75,100,116,54,53,0,0,,,60,58,3,5,1.1,0.9
2025-11-27T0700,1241A,121.524,29.8674,宁波市,市环境监测中心,颗粒物(PM10),72,93,117,46,56,0,0,,,59,63,8,9,0.9,0.8
2025-11-27T0700,2871A,121.6147,29.9017,宁波市,万里国际学校,颗粒物(PM10),75,99,109,48,51,3,3,,,66,58,4,7,0.8,0.7
2025-11-27T0700,3710A,121.5594,29.8975,宁波市,白沙活动中心,颗粒物(PM10),74,97,106,50,49,3,3,,,69,61,4,7,0.9,0.8
2025-11-27T0700,2339A,119.5001,26.6946,宁德市,金涵水库,,,,89,,31,,,62,,,11,,3,,0.4
2025-11-27T0700,2341A,119.5388,26.6612,宁德市,宁德市监测站,颗粒物(PM10),53,55,82,28,29,51,51,,,16,17,7,9,0.5,0.5
2025-11-27T0700,3209A,119.5231,26.6562,宁德市,宁德一中,颗粒物(PM10),53,55,81,19,30,50,50,,,14,14,7,9,0.5,0.5
2025-11-27T0700,2618A,98.8601,25.8567,怒江傈僳族自治州,州监测站,,18,18,23,10,16,34,34,,,6,9,6,6,0.2,0.3
2025-11-27T0700,2619A,98.8546,25.8417,怒江傈僳族自治州,泸水一中,,15,12,21,10,16,10,10,,,10,16,7,7,0.5,0.5
2025-11-27T0700,1888A,101.6891,26.571,攀枝花市,弄弄坪,,40,40,53,24,34,31,31,,,18,24,6,14,0.7,1.2
2025-11-27T0700,1889A,101.5769,26.5928,攀枝花市,河门口,颗粒物(PM10),58,65,61,37,34,11,11,,,23,26,13,28,1.6,1.6
2025-11-27T0700,1890A,101.7169,26.585,攀枝花市,炳草岗,颗粒物(PM10),68,85,69,42,38,0,0,,,40,45,6,14,0.9,1.1
2025-11-27T0700,1891A,101.7369,26.5008,攀枝花市,仁和,,37,37,58,22,35,17,17,,,19,19,6,15,0.7,1
2025-11-27T0700,2835A,101.7227,26.567,攀枝花市,四十中小,颗粒物(PM10),54,58,59,34,34,2,2,,,38,42,9,18,1.0,1.2
2025-11-27T0700,1604A,122.0303,41.1489,盘锦市,开发区,,15,8,56,3,23,47,47,,,5,20,3,5,0.2,0.5
2025-11-27T0700,1605A,122.0485,41.0883,盘锦市,兴隆台,,15,14,56,6,23,46,46,,,9,29,7,9,0.2,0.5
2025-11-27T0700,1606A,121.8297,41.1028,盘锦市,新生街道,,13,10,54,3,18,30,30,,,25,30,8,10,0.2,0.4
2025-11-27T0700,1832A,113.3257,33.742,平顶山市,新华旅馆,颗粒物(PM10),186,322,232,81,55,65,65,,,7,14,6,7,0.3,0.3
2025-11-27T0700,1833A,113.2919,33.737,平顶山市,规划设计院,颗粒物(PM10),183,316,215,68,52,65,65,,,13,19,5,6,0.2,0.3
2025-11-27T0700,1834A,113.182,33.774,平顶山市,平顶山工学院,颗粒物(PM10),171,292,193,63,48,59,59,,,15,19,8,7,0.5,0.5
2025-11-27T0700,3204A,113.3025,33.73,平顶山市,规划局,颗粒物(PM10),202,351,256,55,42,68,68,,,9,16,5,7,0.4,0.4
2025-11-27T0700,3594A,112.8867,33.9116,平顶山市,石龙区,颗粒物(PM10),239,377,314,81,51,54,54,,,18,19,3,5,0.3,0.3
2025-11-27T0700,2656A,106.6692,35.5461,平凉市,聚贤嘉苑,颗粒物(PM10),68,85,294,24,49,40,40,,,34,25,5,5,0.5,0.5
2025-11-27T0700,2657A,106.7021,35.5307,平凉市,博物馆,颗粒物(PM10),83,115,261,41,54,4,4,,,46,25,13,10,1.7,1
2025-11-27T0700,2347A,114.0997,27.5002,萍乡市,武功山,,,,,,,,,,,,,,,,
2025-11-27T0700,2348A,113.8385,27.6434,萍乡市,中医院,颗粒物(PM10),57,64,81,31,30,9,9,,,36,36,4,8,0.9,0.8
2025-11-27T0700,2349A,113.8493,27.6253,萍乡市,市政府车库,,45,45,76,31,40,16,16,,,26,30,6,13,0.7,1.1
2025-11-27T0700,2350A,113.8676,27.6435,萍乡市,市环保局,颗粒物(PM10),52,54,78,31,37,24,24,,,19,23,10,15,0.7,0.6
2025-11-27T0700,2351A,113.866,27.6198,萍乡市,安源区政府,细颗粒物(PM2.5),52,52,78,36,43,10,10,,,24,27,6,13,0.8,1
2025-11-27T0700,2319A,119.0141,25.4325,莆田市,荔城区仓后路,颗粒物(PM10),58,66,79,31,23,86,86,,,11,10,3,3,0.5,0.4
2025-11-27T0700,2320A,119.0015,25.4553,莆田市,莆田市监测站,颗粒物(PM10),53,56,69,28,23,94,94,,,9,10,4,4,0.4,0.4
2025-11-27T0700,2321A,119.1119,25.4561,莆田市,涵江区六中,颗粒物(PM10),53,55,67,23,19,94,94,,,8,8,4,4,0.4,0.4
2025-11-27T0700,2322A,119.1013,25.3215,莆田市,秀屿区政府,颗粒物(PM10),56,61,77,29,25,92,92,,,10,10,4,4,0.5,0.4
2025-11-27T0700,2323A,118.981,25.4792,莆田市,东圳水库,,,,55,,18,,,108,,,9,,4,,0.9
2025-11-27T0700,2392A,115.0312,35.7636,濮阳市,环保局,颗粒物(PM10),200,350,317,45,53,42,42,,,8,20,5,8,0.7,0.6
2025-11-27T0700,2394A,115.0574,35.7609,濮阳市,油田运输公司,颗粒物(PM10),181,312,315,48,54,53,53,,,13,25,5,8,0.4,0.5
2025-11-27T0700,3021A,115,35.7668,濮阳市,濮水河管理处,颗粒物(PM10),176,302,331,69,70,52,52,,,9,20,6,9,0.5,0.6
2025-11-27T0700,4216A,115.0924,35.7686,濮阳市,任丘路479号,颗粒物(PM10),187,324,325,38,48,54,54,,,11,25,5,8,0.3,0.5
2025-11-27T0700,2601A,100.98,22.7633,普洱市,市环保局,,46,46,50,23,20,37,37,,,14,12,7,7,0.4,0.3
2025-11-27T0700,2602A,100.9817,22.8322,普洱市,普洱第二中学,,39,39,42,18,22,64,64,,,10,16,6,5,0.2,0.3
2025-11-27T0700,2262A,131.0518,45.8751,七台河市,新一中,,,,,,,,,,,,,,,,
2025-11-27T0700,3345A,131.0577,45.7879,七台河市,中波台,,35,35,40,22,19,24,24,,,11,14,7,7,0.5,0.5
2025-11-27T0700,3637A,131.0176,45.7761,七台河市,人民广场,,46,44,55,32,31,22,22,,,16,20,8,8,0.5,0.5
2025-11-27T0700,3684A,130.8781,45.8222,七台河市,新建矿广场,颗粒物(PM10),67,83,86,38,47,8,8,,,38,35,53,18,0.6,0.6
2025-11-27T0700,1779A,123.9305,47.3636,齐齐哈尔市,安居小区,,21,21,50,14,28,52,52,,,13,14,10,9,0.3,0.4
2025-11-27T0700,1780A,123.9488,47.3386,齐齐哈尔市,中心广场,,18,18,41,3,23,54,54,,,14,16,6,6,0.4,0.4
2025-11-27T0700,1781A,123.9483,47.3227,齐齐哈尔市,农牧车辆厂,,19,19,48,3,22,48,48,,,7,10,4,4,0.5,0.5
2025-11-27T0700,1783A,123.945,47.2988,齐齐哈尔市,市环境监测站,,18,11,52,3,28,57,57,,,10,14,7,6,0.5,0.6
2025-11-27T0700,3662A,123.6333,47.2075,齐齐哈尔市,富区青少年活动中心,,35,35,56,3,28,48,48,,,19,18,5,5,0.5,0.6
2025-11-27T0700,2591A,107.9783,26.5747,黔东南苗族侗族自治州,市环境监测站,细颗粒物(PM2.5),62,54,46,44,32,41,41,,,16,24,6,6,0.5,0.5
2025-11-27T0700,2881A,107.8908,26.5311,黔东南苗族侗族自治州,凯里学院,细颗粒物(PM2.5),53,46,47,37,29,20,20,,,17,19,5,6,0.5,0.5
2025-11-27T0700,2593A,107.5228,26.2403,黔南布依族苗族自治州,小围寨,颗粒物(PM10),52,53,43,34,27,73,73,,,7,8,15,10,0.7,0.6
2025-11-27T0700,3538A,107.5175,26.2978,黔南布依族苗族自治州,沙坝,细颗粒物(PM2.5),58,58,50,41,33,48,48,,,16,14,7,8,0.8,0.7
2025-11-27T0700,2589A,104.9022,25.0925,黔西南布依族苗族自治州,场坝街,颗粒物(PM10),51,51,55,34,42,58,58,,,16,20,13,22,0.4,0.5
2025-11-27T0700,2590A,104.8811,25.0992,黔西南布依族苗族自治州,坪东大道,,49,42,52,34,40,59,59,,,19,19,4,10,0.4,0.6
2025-11-27T0700,2502A,108.6236,21.9667,钦州市,市环保站,颗粒物(PM10),52,53,68,24,29,62,62,,,17,16,5,6,0.8,0.7
2025-11-27T0700,2503A,108.6549,21.9481,钦州市,沙埠小学,,41,41,66,21,32,68,68,,,15,18,7,10,0.4,0.6
2025-11-27T0700,2504A,108.5989,21.7431,钦州市,港区一小,颗粒物(PM10),57,64,71,23,28,45,45,,,40,28,19,10,0.7,0.8
2025-11-27T0700,3404A,108.5959,21.9633,钦州市,北职校,,44,44,60,30,30,56,56,,,15,13,10,10,0.3,0.6
2025-11-27T0700,1043A,119.7493,40.0116,秦皇岛市,第一关,,29,,88,20,45,48,48,,,19,45,6,14,0.2,0.7
2025-11-27T0700,1044A,119.5897,39.9499,秦皇岛市,监测站,,49,49,94,20,37,60,60,,,12,46,8,19,0,0.5
2025-11-27T0700,1046A,119.5251,39.9041,秦皇岛市,建设大厦,,33,29,95,23,46,62,62,,,6,42,5,18,0.2,1
2025-11-27T0700,3132A,119.610547,39.943889,秦皇岛市,文明里,,43,,92,30,37,55,55,,,2,40,10,20,0.1,0.8
2025-11-27T0700,4198A,119.5090,39.8253,秦皇岛市,北戴河轮滑馆,,25,20,94,17,38,61,61,,,2,37,5,15,0.2,1.2
2025-11-27T0700,1307A,120.6659,36.2403,青岛市,仰口,,,,,,,,,,,,,,,,
2025-11-27T0700,1310A,120.4134,36.0658,青岛市,市南区东部子站,颗粒物(PM10),223,366,163,73,38,38,38,,,18,23,10,11,0.5,0.6
2025-11-27T0700,1311A,120.3664,36.1032,青岛市,四方区子站,颗粒物(PM10),209,356,168,88,46,45,45,,,10,21,4,6,0.3,0.4
2025-11-27T0700,1312A,120.2994,36.054,青岛市,市南区西部子站,颗粒物(PM10),202,351,170,78,42,43,43,,,16,29,8,10,0.5,0.6
2025-11-27T0700,1313A,120.4581,36.0858,青岛市,崂山区子站,颗粒物(PM10),233,373,160,85,37,39,39,,,18,24,10,11,0.5,0.6
2025-11-27T0700,1315A,120.3999,36.3083,青岛市,城阳区子站,颗粒物(PM10),250,385,178,68,35,37,37,,,22,36,6,8,0.6,0.7
2025-11-27T0700,3362A,120.5014,36.4034,青岛市,即墨2号,颗粒物(PM10),175,299,176,71,43,25,25,,,29,32,6,8,0.5,0.5
2025-11-27T0700,3642A,120.3503,36.0736,青岛市,市北区南部,颗粒物(PM10),238,376,121,78,38,41,41,,,14,24,3,4,0.5,0.5
2025-11-27T0700,3643A,120.3948,36.1805,青岛市,李沧区北部,颗粒物(PM10),220,364,170,83,44,34,34,,,19,35,7,10,0.5,0.7
2025-11-27T0700,4290A,120.1969,35.9546,青岛市,珠江路669号,颗粒物(PM10),170,290,181,71,46,51,51,,,10,22,9,12,0.2,0.4
2025-11-27T0700,4291A,120.0424,35.8656,青岛市,黄岛区人民政府广场,颗粒物(PM10),145,239,162,51,40,51,51,,,12,30,6,11,0.2,0.6
2025-11-27T0700,1702A,113.0426,23.691,清远市,环保大楼,,,,,,,,,,,,,,,,
2025-11-27T0700,1703A,113.0208,23.7106,清远市,凤城街办,,37,37,53,14,19,79,79,,,14,15,10,9,0.4,0.4
2025-11-27T0700,3025A,113.0477,23.6344,清远市,技师学院,,42,42,59,18,22,62,62,,,19,18,11,9,0.3,0.3
2025-11-27T0700,3318A,112.9903,23.7403,清远市,清新太和,,39,39,54,13,19,68,68,,,17,11,12,13,0.4,0.4
2025-11-27T0700,3455A,113.076,23.7198,清远市,清城东城,,36,36,60,15,20,77,77,,,13,16,10,11,0.3,0.3
2025-11-27T0700,2661A,107.6325,35.7357,庆阳市,庆阳五中,颗粒物(PM10),132,214,299,55,57,57,57,,,10,6,4,3,0.4,0.3
2025-11-27T0700,2662A,107.6364,35.7067,庆阳市,市环保局,颗粒物(PM10),129,207,292,51,62,53,53,,,13,8,3,2,0.5,0.5
2025-11-27T0700,1916A,103.7897,25.5035,曲靖市,环境监测站,颗粒物(PM10),51,51,57,31,30,54,54,,,10,19,6,7,0.6,0.6
2025-11-27T0700,1917A,103.8,25.5364,曲靖市,烟厂办公区,,46,45,55,32,30,52,52,,,10,19,4,8,0.5,0.5
2025-11-27T0700,3376A,103.7947,25.462,曲靖市,南苑二区,,47,47,57,31,28,54,54,,,13,18,7,9,0.4,0.4
2025-11-27T0700,3377A,103.7444,25.5261,曲靖市,曲靖师范学院,,42,39,53,29,37,58,58,,,10,20,5,5,0.4,0.4
2025-11-27T0700,1264A,118.8692,28.9398,衢州市,环保大楼,颗粒物(PM10),81,111,143,51,55,20,20,,,40,43,11,7,0.7,0.7
2025-11-27T0700,1265A,118.8709,28.9666,衢州市,实验学校,颗粒物(PM10),77,103,133,48,52,14,14,,,53,46,17,9,0.5,0.6
2025-11-27T0700,1266A,118.8621,28.9808,衢州市,衢州学院,颗粒物(PM10),78,106,134,48,50,9,9,,,54,48,14,10,0.7,0.6
2025-11-27T0700,1611A,118.5819,24.9117,泉州市,涂山街,颗粒物(PM10),55,59,83,24,24,85,85,,,6,6,3,3,0.4,0.3
2025-11-27T0700,1612A,118.5972,24.8978,泉州市,津头埔,颗粒物(PM10),53,56,80,27,25,82,82,,,11,11,4,4,0.5,0.4
2025-11-27T0700,1613A,118.6663,24.9424,泉州市,万安,颗粒物(PM10),57,64,89,24,24,81,81,,,12,8,4,4,0.4,0.3
2025-11-27T0700,1614A,118.6117,24.9604,泉州市,清源山,,,,75,,17,,,107,,,7,,4,,0.3
2025-11-27T0700,3529A,118.6333,24.9264,泉州市,城华南路,颗粒物(PM10),55,59,79,26,24,92,92,,,4,6,5,4,0.4,0.4
2025-11-27T0700,2626A,88.8876,29.2718,日喀则市,日喀则监测站,,15,15,30,3,12,46,46,,,10,16,7,11,0.3,0.4
2025-11-27T0700,3726A,88.8781,29.2426,日喀则市,林业技术推广中心,,21,21,25,6,8,32,32,,,5,8,5,6,0.4,0.3
2025-11-27T0700,1659A,119.471,35.4209,日照市,监测站,颗粒物(PM10),128,205,163,39,49,54,54,,,15,41,6,14,0.5,0.8
2025-11-27T0700,1660A,119.523,35.4216,日照市,市政府广场,颗粒物(PM10),124,197,146,50,47,53,53,,,13,38,5,14,0.6,1
2025-11-27T0700,1661A,119.5587,35.4044,日照市,港务局,颗粒物(PM10),126,202,163,53,58,55,55,,,12,41,7,17,0.4,1.1
2025-11-27T0700,3507A,119.5328,35.4625,日照市,职业技术学院,颗粒物(PM10),125,200,157,41,45,55,55,,,12,36,6,13,0.5,0.8
2025-11-27T0700,3604A,119.3266,35.1044,日照市,岚山环保分局,颗粒物(PM10),189,327,169,45,45,41,41,,,19,35,9,11,0.6,0.7
2025-11-27T0700,1835A,111.1922,34.7752,三门峡市,市政府,颗粒物(PM10),151,252,232,66,60,50,50,,,17,23,12,10,0.4,0.5
2025-11-27T0700,1836A,111.1587,34.7942,三门峡市,开发区,颗粒物(PM10),186,321,236,61,54,52,52,,,14,21,6,8,0.2,0.3
2025-11-27T0700,1838A,111.143,34.7955,三门峡市,风景区,颗粒物(PM10),166,281,258,72,56,56,56,,,12,17,7,8,0.4,0.5
2025-11-27T0700,3039A,111.1911,34.7829,三门峡市,三门峡市第一小学,颗粒物(PM10),185,320,289,57,54,52,52,,,18,22,14,10,0.4,0.4
2025-11-27T0700,3598A,111.1,34.7167,三门峡市,富达温泉假日酒店,颗粒物(PM10),166,282,275,61,61,43,43,,,21,24,13,14,0.6,0.6
2025-11-27T0700,2324A,117.6211,26.2625,三明市,三钢,细颗粒物(PM2.5),54,50,55,38,37,10,10,,,26,22,5,7,2.6,0.8
2025-11-27T0700,2325A,117.635,26.2714,三明市,三明二中,,42,40,52,29,33,10,10,,,20,18,5,7,1.2,0.7
2025-11-27T0700,2326A,117.6028,26.2378,三明市,三元区政府,,50,50,59,32,30,10,10,,,23,25,5,6,1.3,0.9
2025-11-27T0700,2327A,117.7275,26.3108,三明市,洋溪,,,,38,,34,,,71,,,12,,15,,1.3
2025-11-27T0700,1876A,109.5078,18.2489,三亚市,河东子站,细颗粒物(PM2.5),58,46,48,41,35,93,93,,,15,12,6,6,0.6,0.5
2025-11-27T0700,1877A,109.4964,18.2681,三亚市,河西子站,细颗粒物(PM2.5),53,48,52,37,31,104,104,,,10,12,5,5,0.6,0.5
2025-11-27T0700,3540A,109.7348,18.3443,三亚市,君悦子站,,46,46,56,30,29,109,109,,,8,10,7,6,0.5,0.5
2025-11-27T0700,2624A,91.7608,29.2313,山南市,山南监测站,,9,9,18,3,9,28,28,,,13,14,4,4,0.2,0.3
2025-11-27T0700,2625A,91.7706,29.2436,山南市,山南人民医院,,12,12,19,3,9,29,29,,,10,10,6,6,0.3,0.4
2025-11-27T0700,1674A,116.6794,23.3667,汕头市,金平子站,,49,49,83,30,33,49,49,,,26,20,12,8,0.6,0.5
2025-11-27T0700,1675A,116.7244,23.3633,汕头市,龙湖子站,,48,48,83,27,27,58,58,,,16,17,12,11,0.4,0.4
2025-11-27T0700,1676A,116.7258,23.2775,汕头市,濠江子站,,47,47,84,28,29,61,61,,,14,12,10,8,0.6,0.5
2025-11-27T0700,1677A,116.7519,23.4714,汕头市,澄海子站,,46,46,81,27,34,56,56,,,20,22,14,11,0.6,0.6
2025-11-27T0700,1678A,116.6092,23.2539,汕头市,潮阳子站,,36,36,76,23,27,56,56,,,24,18,10,8,0.6,0.5
2025-11-27T0700,3444A,116.454,23.2684,汕头市,潮南峡山,颗粒物(PM10),51,52,85,25,37,76,76,,,11,18,10,11,0.6,0.7
