timepoint,stationcode,longitude,latitude,area,positionname,primarypollutant,aqi,pm10,pm10_24h,pm2_5,pm2_5_24h,o3,o3_24h,o3_8h,o3_8h_24h,no2,no2_24h,so2,so2_24h,co,co_24h
2022-10-15T01:00:00,1001A,116.3621,39.8784,北京市,万寿西宫,细颗粒物(PM2.5),179,185,168,135,114,143,4,4,4,88,66,3,3,1.4,1
2022-10-15T01:00:00,1002A,116.2202,40.2915,北京市,定陵(对照点),细颗粒物(PM2.5),153,165,156,117,107,156,78,78,78,10,15,3,3,0.7,0.6
2022-10-15T01:00:00,1003A,116.4174,39.9289,北京市,东四,细颗粒物(PM2.5),182,216,185,137,116,152,2,2,2,113,71,1,2,1.4,1
2022-10-15T01:00:00,1004A,116.4072,39.8863,北京市,天坛,细颗粒物(PM2.5),176,172,155,133,109,147,1,1,1,65,52,3,3,1.3,0.9
2022-10-15T01:00:00,1005A,116.462,39.9365,北京市,农展馆,细颗粒物(PM2.5),169,180,157,128,107,143,0,0,0,107,74,3,3,1.3,0.9
2022-10-15T01:00:00,1006A,116.3392,39.9295,北京市,官园,细颗粒物(PM2.5),178,172,168,134,118,152,18,18,18,79,60,3,2,1.0,0.9
2022-10-15T01:00:00,1007A,116.2878,39.9611,北京市,海淀万柳,细颗粒物(PM2.5),169,200,181,128,117,138,34,34,34,76,74,2,4,0.8,0.8
2022-10-15T01:00:00,1008A,116.6636,40.135,北京市,顺义新城,细颗粒物(PM2.5),158,183,174,120,107,134,49,49,49,48,54,3,3,0.8,0.7
2022-10-15T01:00:00,1009A,116.6275,40.3275,北京市,怀柔镇,细颗粒物(PM2.5),149,153,147,114,107,141,72,72,72,37,48,3,3,0.7,0.7
2022-10-15T01:00:00,1010A,116.2296,40.217,北京市,昌平镇,细颗粒物(PM2.5),160,167,157,122,111,138,82,82,82,21,33,3,3,0.7,0.7
2022-10-15T01:00:00,1011A,116.3966,39.9821,北京市,奥体中心,细颗粒物(PM2.5),193,203,171,145,118,148,35,35,35,70,76,3,2,0.9,0.9
2022-10-15T01:00:00,1012A,116.184,39.9136,北京市,古城,细颗粒物(PM2.5),163,194,198,124,121,147,15,15,15,71,63,3,3,1.1,1.1
2022-10-15T01:00:00,1015A,117.1444,39.1661,天津市,勤俭道,细颗粒物(PM2.5),196,212,181,147,126,168,32,32,32,62,71,8,12,1.0,1.1
2022-10-15T01:00:00,1017A,117.237,39.1082,天津市,大直沽八号路,细颗粒物(PM2.5),148,178,178,113,108,168,49,49,49,52,70,8,11,0.9,1.1
2022-10-15T01:00:00,1018A,117.202,39.0927,天津市,前进道,细颗粒物(PM2.5),172,178,173,130,121,166,37,37,37,64,72,8,12,0.5,0.7
2022-10-15T01:00:00,1019A,117.1837,39.2133,天津市,淮河道,细颗粒物(PM2.5),192,227,200,144,121,196,40,40,40,55,69,9,12,0.8,1
2022-10-15T01:00:00,1021A,117.307,39.0877,天津市,跃进路,细颗粒物(PM2.5),152,218,184,116,103,165,9,9,9,87,80,8,12,0.9,1
2022-10-15T01:00:00,1023A,117.707,39.0343,天津市,第四大街,细颗粒物(PM2.5),155,158,153,118,111,125,38,38,38,64,59,6,8,0.8,0.8
2022-10-15T01:00:00,1024A,117.457,38.8394,天津市,永明路,细颗粒物(PM2.5),124,138,150,94,98,136,2,2,2,92,64,7,13,0.8,0.8
2022-10-15T01:00:00,1026A,117.764,39.1587,天津市,汉北路,细颗粒物(PM2.5),140,152,160,107,106,132,13,13,13,80,75,10,12,1.4,1
2022-10-15T01:00:00,1027A,117.157,38.9194,天津市,团泊洼(对照点),细颗粒物(PM2.5),124,177,158,94,91,182,63,63,63,39,51,9,13,1.1,1.2
2022-10-15T01:00:00,1029A,114.4422,38.0444,石家庄市,职工医院,细颗粒物(PM2.5),83,91,148,61,93,132,5,5,5,93,69,6,8,0.9,1
2022-10-15T01:00:00,1030A,114.6063,38.0266,石家庄市,高新区,细颗粒物(PM2.5),143,154,154,109,111,128,14,14,14,101,74,5,9,1.3,1.1
2022-10-15T01:00:00,1031A,114.4898,38.1328,石家庄市,西北水源,细颗粒物(PM2.5),122,169,168,92,100,132,6,6,6,86,71,3,7,1.0,1
2022-10-15T01:00:00,1032A,114.4586,38.0058,石家庄市,西南高教,细颗粒物(PM2.5),98,103,143,73,110,130,9,9,9,87,72,8,9,1.0,1.1
2022-10-15T01:00:00,1033A,114.5331,38.0178,石家庄市,世纪公园,细颗粒物(PM2.5),132,136,162,100,117,123,7,7,7,96,74,7,10,1.5,1.2
2022-10-15T01:00:00,1034A,114.509,38.0457,石家庄市,人民会堂,细颗粒物(PM2.5),133,157,162,101,118,137,14,14,14,95,77,10,13,1.1,1.2
2022-10-15T01:00:00,1035A,114.3524,37.8911,石家庄市,封龙山(对照点),,47,47,84,19,53,156,122,122,122,15,33,8,14,0.7,1.2
2022-10-15T01:00:00,1037A,118.131,39.6363,唐山市,雷达站,细颗粒物(PM2.5),168,167,159,127,114,154,12,12,12,99,90,6,9,1.0,0.9
2022-10-15T01:00:00,1038A,118.1725,39.6334,唐山市,物资局,细颗粒物(PM2.5),158,147,140,120,100,148,3,3,3,89,82,6,9,0.9,0.9
2022-10-15T01:00:00,1040A,118.1705,39.6506,唐山市,十二中,细颗粒物(PM2.5),185,154,140,139,100,150,1,1,1,92,85,4,7,1.1,0.9
2022-10-15T01:00:00,1041A,118.1869,39.622,唐山市,小山,细颗粒物(PM2.5),159,148,133,121,101,151,0,0,0,100,83,5,8,0.6,0.8
2022-10-15T01:00:00,1042A,119.5134,39.8207,秦皇岛市,北戴河环保局,细颗粒物(PM2.5),207,202,137,157,99,157,43,43,43,65,54,12,16,1.4,0.9
2022-10-15T01:00:00,1043A,119.7493,40.0116,秦皇岛市,第一关,细颗粒物(PM2.5),168,164,141,127,101,164,8,8,8,94,62,10,13,1.1,1
2022-10-15T01:00:00,1044A,119.5897,39.9499,秦皇岛市,监测站,细颗粒物(PM2.5),209,202,138,159,105,158,43,43,43,68,52,16,16,1.5,1
2022-10-15T01:00:00,1046A,119.5251,39.9041,秦皇岛市,建设大厦,细颗粒物(PM2.5),185,196,143,139,95,173,58,58,58,54,51,17,16,1.7,1.1
2022-10-15T01:00:00,1047A,114.5129,36.61763,邯郸市,环保局,,,,,,,,,,,,,,,,
2022-10-15T01:00:00,1048A,114.5302,36.6116,邯郸市,东污水处理厂,细颗粒物(PM2.5),180,166,127,136,106,169,3,3,3,95,71,7,20,1.0,1.2
2022-10-15T01:00:00,1049A,114.4918,36.5713,邯郸市,矿院,细颗粒物(PM2.5),152,161,143,116,101,165,2,2,2,97,70,8,26,1.1,1.3
2022-10-15T01:00:00,1050A,114.484,36.6133,邯郸市,丛台公园,细颗粒物(PM2.5),169,181,133,128,95,172,5,5,5,91,60,10,13,0.8,1
2022-10-15T01:00:00,1051A,115.493,38.8632,保定市,游泳馆,细颗粒物(PM2.5),247,212,182,197,160,175,83,83,83,65,77,14,13,1.6,1.5
2022-10-15T01:00:00,1052A,115.5213,38.8959,保定市,华电二区,细颗粒物(PM2.5),233,207,171,183,138,159,83,83,83,45,61,4,4,1.7,1.4
2022-10-15T01:00:00,1053A,115.4713,38.9108,保定市,接待中心,细颗粒物(PM2.5),230,264,225,180,143,148,82,82,82,46,64,10,8,1.2,1.1
2022-10-15T01:00:00,1054A,115.4612,38.8416,保定市,地表水厂,细颗粒物(PM2.5),215,243,208,165,132,153,8,8,8,134,80,9,10,1.2,1
2022-10-15T01:00:00,1055A,115.4323,38.8697,保定市,胶片厂,细颗粒物(PM2.5),289,250,183,239,169,174,60,60,60,70,67,12,14,1.1,1.1
2022-10-15T01:00:00,1056A,115.5086,38.8639,保定市,监测站,细颗粒物(PM2.5),241,223,194,191,148,174,84,84,84,47,68,11,10,0.9,0.8
2022-10-15T01:00:00,1057A,114.8883,40.8336,张家口市,人民公园,,41,41,49,13,23,123,66,66,66,8,15,6,8,0.0,0.2
2022-10-15T01:00:00,1059A,114.8687,40.8042,张家口市,五金库,,,24,50,15,28,118,,,,9,22,8,10,0.6,0.8
2022-10-15T01:00:00,1060A,114.8902,40.762,张家口市,世纪豪园,,33,33,69,13,39,108,71,71,71,14,28,1,4,0.3,0.5
2022-10-15T01:00:00,1061A,114.8916,40.8661,张家口市,北泵房(对照点),,41,41,59,15,28,126,66,66,66,8,17,6,7,0.4,0.6
2022-10-15T01:00:00,1062A,117.9531,40.9081,承德市,铁路,细颗粒物(PM2.5),82,100,98,60,54,130,47,47,47,45,56,5,11,0.6,0.7
2022-10-15T01:00:00,1063A,117.9392,40.9763,承德市,中国银行,颗粒物(PM10),84,117,94,60,55,139,6,6,6,74,60,2,10,0.9,0.8
2022-10-15T01:00:00,1064A,117.9503,40.928,承德市,开发区,细颗粒物(PM2.5),95,87,91,71,53,137,29,29,29,66,59,4,10,0.8,0.8
2022-10-15T01:00:00,1065A,117.8051,40.9655,承德市,文化中心,细颗粒物(PM2.5),105,153,142,79,71,146,30,30,30,69,60,3,27,0.7,0.9
2022-10-15T01:00:00,1066A,117.9268,41.0026,承德市,离宫(对照点),细颗粒物(PM2.5),87,78,72,64,49,140,47,47,47,49,38,8,15,0.6,0.6
2022-10-15T01:00:00,1067A,116.6708,39.5111,廊坊市,药材公司,细颗粒物(PM2.5),205,234,186,155,111,167,46,46,46,67,57,12,12,1.1,0.9
2022-10-15T01:00:00,1068A,116.7214,39.5589,廊坊市,开发区,细颗粒物(PM2.5),170,185,162,129,111,169,2,2,2,96,66,9,10,1.1,0.7
2022-10-15T01:00:00,1070A,116.7244,39.5269,廊坊市,北华航天学院,细颗粒物(PM2.5),202,192,186,152,128,166,10,10,10,83,78,10,12,1.2,1.1
2022-10-15T01:00:00,1071A,116.8842,38.2991,沧州市,沧县城建局,细颗粒物(PM2.5),163,155,129,124,90,138,49,49,49,64,70,7,7,0.7,0.7
2022-10-15T01:00:00,1072A,116.8584,38.3254,沧州市,电视转播站,细颗粒物(PM2.5),139,152,130,106,83,158,62,62,62,50,57,7,6,0.6,0.6
2022-10-15T01:00:00,1073A,116.8709,38.3228,沧州市,市环保局,细颗粒物(PM2.5),170,157,138,129,89,149,62,62,62,52,60,8,7,0.6,0.6
2022-10-15T01:00:00,1074A,115.6838,37.7541,衡水市,电机北厂,细颗粒物(PM2.5),153,173,154,117,95,180,82,82,82,39,52,11,11,0.5,0.6
2022-10-15T01:00:00,1075A,115.6303,37.7316,衡水市,市监测站,细颗粒物(PM2.5),158,187,160,120,101,154,46,46,46,55,54,6,8,0.5,0.7
2022-10-15T01:00:00,1077A,114.4704,37.0886,邢台市,达活泉,细颗粒物(PM2.5),138,156,139,105,101,156,23,23,23,79,67,18,16,2.4,1.7
2022-10-15T01:00:00,1078A,114.5062,37.0349,邢台市,邢师高专,细颗粒物(PM2.5),132,128,117,100,94,146,5,5,5,84,61,7,9,1.4,1.5
2022-10-15T01:00:00,1079A,114.5237,37.0851,邢台市,路桥公司,细颗粒物(PM2.5),134,155,141,102,96,161,42,42,42,52,54,10,9,1.1,1.2
2022-10-15T01:00:00,1080A,114.4725,37.0719,邢台市,市环保局,细颗粒物(PM2.5),128,153,161,97,104,147,6,6,6,93,67,11,14,1.8,1.4
2022-10-15T01:00:00,1081A,112.5139,37.8873,太原市,尖草坪,颗粒物(PM10),66,82,100,36,63,123,3,3,3,86,64,5,10,0.7,1.1
2022-10-15T01:00:00,1083A,112.434,38.0108,太原市,上兰(对照点),,,,,,,,,,,,,,,,
2022-10-15T01:00:00,1084A,112.469,37.7124,太原市,晋源,细颗粒物(PM2.5),65,76,135,47,93,114,5,5,5,73,56,12,20,1.1,1.7
2022-10-15T01:00:00,1085A,112.5583,37.7394,太原市,小店,,,115,128,55,88,110,2,2,2,88,66,10,14,1.1,1.2
2022-10-15T01:00:00,1086A,112.5369,37.8692,太原市,桃园,颗粒物(PM10),62,73,110,36,74,116,2,2,2,88,62,4,10,0.9,1.3
2022-10-15T01:00:00,1087A,112.57,37.8195,太原市,坞城,细颗粒物(PM2.5),105,152,129,79,84,118,5,5,5,84,63,6,11,1.2,1.3
2022-10-15T01:00:00,1088A,112.549,37.9854,太原市,南寨,颗粒物(PM10),78,106,96,31,47,126,1,1,1,69,43,6,8,0.4,0.8
2022-10-15T01:00:00,1089A,112.4701,37.782,太原市,金胜,,,,,,,,,,,,,,,,
2022-10-15T01:00:00,1090A,111.6507,40.7517,呼和浩特市,呼市一监,细颗粒物(PM2.5),84,112,113,62,70,134,26,26,26,47,28,11,12,0.7,0.8
2022-10-15T01:00:00,1091A,111.6572,40.8033,呼和浩特市,小召,颗粒物(PM10),73,95,118,49,74,141,46,46,46,43,32,9,14,0.5,0.7
2022-10-15T01:00:00,1094A,111.7516,40.8369,呼和浩特市,如意水处理厂,颗粒物(PM10),69,87,97,33,50,133,33,33,33,56,35,6,9,0.6,0.6
2022-10-15T01:00:00,1095A,111.7276,40.8062,呼和浩特市,二十九中,颗粒物(PM10),69,88,107,46,60,136,36,36,36,50,31,8,12,0.7,0.7
2022-10-15T01:00:00,1096A,111.5512,40.7866,呼和浩特市,工大金川校区,颗粒物(PM10),86,122,136,50,90,125,12,12,12,55,30,10,14,0.5,0.5
2022-10-15T01:00:00,1097A,111.717,40.7612,呼和浩特市,化肥厂生活区,颗粒物(PM10),84,118,101,54,54,128,14,14,14,69,34,9,28,0.6,0.6
2022-10-15T01:00:00,1098A,123.6836,41.9339,沈阳市,森林路(对照点),,,,,,,,,,,,,,,,
2022-10-15T01:00:00,1099A,123.505,41.7406,沈阳市,浑南东路,颗粒物(PM10),62,74,82,35,42,125,4,4,4,58,42,26,26,2.3,1.3
2022-10-15T01:00:00,1100A,123.4231,41.6989,沈阳市,新秀街,颗粒物(PM10),65,80,85,45,44,118,40,40,40,65,56,35,33,1.7,1.3
2022-10-15T01:00:00,1102A,123.5903,41.8411,沈阳市,东陵路,细颗粒物(PM2.5),59,58,81,42,51,128,36,36,36,28,33,15,21,1.0,1.8
2022-10-15T01:00:00,1103A,123.4264,41.8467,沈阳市,陵东街,颗粒物(PM10),71,92,99,50,60,114,9,9,9,70,54,10,15,1.7,1.5
2022-10-15T01:00:00,1104A,123.4114,41.7653,沈阳市,文化路,细颗粒物(PM2.5),84,86,82,62,60,121,68,68,68,37,45,55,27,1.3,1.3
2022-10-15T01:00:00,1105A,123.4678,41.7867,沈阳市,小河沿,颗粒物(PM10),76,101,100,48,64,116,5,5,5,64,53,6,15,1.9,1.4
2022-10-15T01:00:00,1106A,123.4017,41.7972,沈阳市,太原街,细颗粒物(PM2.5),90,126,108,67,58,124,66,66,66,44,50,41,22,1.4,1.3
2022-10-15T01:00:00,1108A,123.3783,41.9228,沈阳市,京沈街,细颗粒物(PM2.5),92,96,82,68,63,123,48,48,48,60,54,21,20,1.2,1.4
2022-10-15T01:00:00,1109A,121.612,38.9741,大连市,甘井子,细颗粒物(PM2.5),125,125,90,95,64,132,64,64,64,23,43,5,6,0.5,0.5
2022-10-15T01:00:00,1110A,121.565,38.9511,大连市,周水子,细颗粒物(PM2.5),127,169,106,96,61,142,16,16,16,89,56,7,7,0.9,0.8
2022-10-15T01:00:00,1111A,121.5637,38.8845,大连市,星海三站,细颗粒物(PM2.5),144,143,98,110,78,147,71,71,71,27,48,7,10,0.8,0.8
2022-10-15T01:00:00,1112A,121.6302,38.9117,大连市,青泥洼桥,细颗粒物(PM2.5),112,124,87,84,54,143,79,79,79,40,50,6,7,0.8,0.9
2022-10-15T01:00:00,1113A,121.6251,38.8638,大连市,傅家庄,细颗粒物(PM2.5),99,105,64,74,45,155,94,94,94,29,24,10,11,1.0,0.8
2022-10-15T01:00:00,1114A,121.5213,38.8661,大连市,七贤岭,颗粒物(PM10),70,89,77,50,38,160,6,6,6,40,30,5,7,0.9,0.8
2022-10-15T01:00:00,1115A,121.2529,38.8061,大连市,旅顺,颗粒物(PM10),54,58,64,31,40,142,76,76,76,17,25,5,7,0.6,0.6
2022-10-15T01:00:00,1116A,121.7485,39.1311,大连市,金州,细颗粒物(PM2.5),115,130,83,87,61,123,100,100,100,30,38,10,9,0.6,0.6
2022-10-15T01:00:00,1117A,121.7811,39.0496,大连市,开发区,细颗粒物(PM2.5),124,128,78,94,60,128,51,51,51,64,57,8,7,0.7,0.6
2022-10-15T01:00:00,1118A,121.9762,39.0631,大连市,双D港,细颗粒物(PM2.5),84,88,50,62,36,144,70,70,70,15,17,8,9,0.8,0.7
2022-10-15T01:00:00,1119A,125.3325,43.9166,长春市,食品厂,细颗粒物(PM2.5),99,90,80,74,57,100,83,83,83,34,50,9,7,0.9,0.9
2022-10-15T01:00:00,1120A,125.2863,43.9027,长春市,客车厂,细颗粒物(PM2.5),100,72,70,75,64,114,90,90,90,33,46,10,9,1.1,1
2022-10-15T01:00:00,1121A,125.2841,43.8463,长春市,邮电学院,颗粒物(PM10),76,102,83,41,34,119,98,98,98,31,39,10,9,1.1,0.9
2022-10-15T01:00:00,1122A,125.3716,43.8772,长春市,劳动公园,细颗粒物(PM2.5),88,76,68,65,52,114,97,97,97,24,39,9,7,1.0,0.9
2022-10-15T01:00:00,1123A,125.3297,43.8805,长春市,园林处,细颗粒物(PM2.5),84,78,72,62,53,124,100,100,100,26,37,9,7,1.0,0.9
2022-10-15T01:00:00,1124A,125.4605,43.79,长春市,净月潭,颗粒物(PM10),58,65,54,34,27,132,79,79,79,21,20,6,7,0.8,0.8
2022-10-15T01:00:00,1125A,125.7194,43.515,长春市,甩湾子(对照点),,,,,,,,,,,,,,,,
2022-10-15T01:00:00,1126A,125.3863,43.8447,长春市,经开区环卫处,细颗粒物(PM2.5),93,115,108,69,54,119,70,70,70,33,55,8,7,0.9,0.9
2022-10-15T01:00:00,1127A,125.245,43.7783,长春市,高新区管委会,细颗粒物(PM2.5),119,92,69,90,69,131,40,40,40,62,54,8,8,0.9,0.8
2022-10-15T01:00:00,1128A,125.1761,43.8325,长春市,岱山公园,颗粒物(PM10),75,99,77,45,36,119,54,54,54,60,65,11,10,1.0,0.9
2022-10-15T01:00:00,1129A,126.5422,45.755,哈尔滨市,岭北(对照点),细颗粒物(PM2.5),138,145,141,105,91,102,71,71,71,31,44,12,12,1.1,1.1
2022-10-15T01:00:00,1130A,126.561,45.8167,哈尔滨市,松北商大,颗粒物(PM10),96,142,107,63,62,82,76,76,76,22,39,8,6,0.9,0.9
2022-10-15T01:00:00,1131A,126.979,45.5419,哈尔滨市,阿城会宁,颗粒物(PM10),70,89,101,36,44,113,82,82,82,15,25,12,12,0.9,0.9
2022-10-15T01:00:00,1132A,126.599,45.7222,哈尔滨市,南岗学府路,颗粒物(PM10),113,176,159,80,89,95,38,38,38,51,59,24,22,0.5,0.9
2022-10-15T01:00:00,1133A,126.689,45.7733,哈尔滨市,太平宏伟公园,细颗粒物(PM2.5),105,143,153,79,78,102,62,62,62,38,44,29,17,0.9,0.8
2022-10-15T01:00:00,1134A,126.635,45.7667,哈尔滨市,道外承德广场,颗粒物(PM10),97,144,143,69,72,89,58,58,58,44,57,10,12,1.0,1.2
2022-10-15T01:00:00,1135A,126.685,45.7319,哈尔滨市,香坊红旗大街,颗粒物(PM10),97,144,158,65,60,90,56,56,56,38,58,14,17,1.1,1.1
2022-10-15T01:00:00,1136A,126.6411,45.7258,哈尔滨市,动力和平路,,,138,140,,72,89,47,47,47,50,59,18,17,1.3,1.3
2022-10-15T01:00:00,1137A,126.593,45.7478,哈尔滨市,道里建国路,颗粒物(PM10),79,107,129,51,57,93,75,75,75,36,57,20,23,1.2,1.8
2022-10-15T01:00:00,1138A,126.615,45.61,哈尔滨市,平房东轻厂,颗粒物(PM10),82,113,115,58,56,100,65,65,65,21,33,8,8,0.8,0.8
2022-10-15T01:00:00,1139A,126.595,45.9855,哈尔滨市,呼兰师专,细颗粒物(PM2.5),117,129,133,88,86,79,67,67,67,35,54,13,14,1.2,1.2
2022-10-15T01:00:00,1140A,126.6206,45.6842,哈尔滨市,省农科院,颗粒物(PM10),82,114,142,47,55,105,70,70,70,30,47,10,9,0.8,0.9
2022-10-15T01:00:00,1141A,121.4,31.238,上海市,普陀,,43,43,38,22,14,101,45,45,45,48,34,3,3,0.8,0.7
2022-10-15T01:00:00,1142A,121.478,31.2036,上海市,十五厂,,32,30,36,22,18,104,73,73,73,32,30,6,7,0.5,0.5
2022-10-15T01:00:00,1143A,121.467,31.3008,上海市,虹口,,34,34,34,22,15,95,30,30,30,58,35,4,5,0.6,0.6
2022-10-15T01:00:00,1144A,121.412,31.1654,上海市,徐汇上师大,,37,37,40,20,17,102,73,73,73,23,23,5,6,0.7,0.6
2022-10-15T01:00:00,1145A,121.536,31.2659,上海市,杨浦四漂,,34,34,32,22,11,125,67,67,67,45,35,7,8,0.9,0.8
2022-10-15T01:00:00,1146A,120.978,31.0935,上海市,青浦淀山湖(对照点),,,,,,,,,,,,,,,,
2022-10-15T01:00:00,1147A,121.425,31.2261,上海市,静安监测站,,43,43,40,24,18,100,55,55,55,43,34,5,6,0.7,0.7
2022-10-15T01:00:00,1148A,121.703,31.1907,上海市,浦东川沙,,38,38,42,22,15,94,57,57,57,39,32,8,8,0.7,0.7
2022-10-15T01:00:00,1149A,121.533,31.2284,上海市,浦东新区监测站,,44,44,36,28,19,100,54,54,54,42,34,6,6,0.5,0.6
2022-10-15T01:00:00,1150A,121.577,31.2071,上海市,浦东张江,,35,27,33,24,17,93,41,41,41,48,37,5,4,0.8,0.7
2022-10-15T01:00:00,1151A,118.8086,32.1065,南京市,迈皋桥,,45,45,49,24,18,138,28,28,28,54,44,5,7,0.3,0.4
2022-10-15T01:00:00,1152A,118.7538,32.0551,南京市,草场门,,40,40,45,12,15,134,53,53,53,38,39,1,2,0.5,0.5
2022-10-15T01:00:00,1153A,118.7794,32.0745,南京市,山西路,颗粒物(PM10),53,56,46,24,20,148,16,16,16,66,35,4,4,0.3,0.3
2022-10-15T01:00:00,1154A,118.7752,32.0023,南京市,中华门,颗粒物(PM10),56,61,43,9,8,134,46,46,46,42,36,4,4,0.4,0.4
2022-10-15T01:00:00,1155A,118.8109,32.0309,南京市,瑞金路,,26,26,37,17,19,141,57,57,57,44,35,4,4,0.5,0.5
2022-10-15T01:00:00,1156A,118.7997,32.0754,南京市,玄武湖,颗粒物(PM10),56,62,47,21,18,145,14,14,14,65,38,5,4,0.4,0.4
2022-10-15T01:00:00,1157A,118.6414,32.0931,南京市,浦口,,40,40,41,24,21,159,46,46,46,35,30,4,5,0.4,0.4
2022-10-15T01:00:00,1158A,118.7356,31.9996,南京市,奥体中心,,46,46,44,17,18,137,49,49,49,37,34,3,3,0.3,0.3
2022-10-15T01:00:00,1159A,118.9125,32.1028,南京市,仙林大学城,,36,36,41,12,14,142,59,59,59,25,30,2,3,0.4,0.4
2022-10-15T01:00:00,1160A,120.561,31.2472,苏州市,上方山(对照点),,46,46,45,20,19,112,39,39,39,39,24,6,5,0.4,0.4
2022-10-15T01:00:00,1161A,120.628,31.2864,苏州市,南门,,,,,,,,,,,,,,,,
2022-10-15T01:00:00,1162A,120.591,31.3019,苏州市,彩香,,47,47,38,26,20,129,58,58,58,24,20,5,5,0.6,0.6
2022-10-15T01:00:00,1163A,120.596,31.3264,苏州市,轧钢厂,,48,48,40,25,19,125,48,48,48,34,29,5,6,0.6,0.6
2022-10-15T01:00:00,1164A,120.613,31.2703,苏州市,吴中区,,49,49,36,26,17,125,66,66,66,26,28,6,5,0.5,0.5
2022-10-15T01:00:00,1165A,120.543,31.2994,苏州市,苏州新区,,44,44,35,25,19,111,61,61,61,18,22,6,6,0.6,0.6
2022-10-15T01:00:00,1166A,120.669,31.3097,苏州市,苏州工业园区,,49,49,36,27,19,120,57,57,57,28,23,7,6,0.6,0.6
2022-10-15T01:00:00,1167A,120.641,31.3708,苏州市,相城区,,43,43,37,23,17,119,65,65,65,28,28,6,7,0.6,0.6
2022-10-15T01:00:00,1168A,120.9098,31.9663,南通市,狼山街道,,28,28,29,17,10,122,51,51,51,27,19,6,6,0.3,0.3
2022-10-15T01:00:00,1169A,120.86,32.0005,南通市,虹桥,,40,28,31,28,19,116,56,56,56,27,15,4,4,0.4,0.4
2022-10-15T01:00:00,1170A,120.87,32.02,南通市,城中,,43,37,32,30,23,111,61,61,61,30,21,3,2,0.3,0.3
2022-10-15T01:00:00,1171A,120.94,31.93,南通市,星湖花园,,42,38,30,29,18,112,60,60,60,27,19,6,6,0.5,0.4
2022-10-15T01:00:00,1172A,120.81,32.0417,南通市,紫琅学院,细颗粒物(PM2.5),58,50,39,41,21,129,26,26,26,51,29,8,6,0.6,0.5
2022-10-15T01:00:00,1173A,119.176,34.5885,连云港市,市环境监测站,,39,39,37,27,19,138,52,52,52,33,24,6,7,0.2,0.3
2022-10-15T01:00:00,1177A,117.179,34.2761,徐州市,黄河新村,颗粒物(PM10),65,80,75,35,34,163,52,52,52,46,34,8,9,1.0,0.8
2022-10-15T01:00:00,1178A,117.1918,34.2384,徐州市,淮塔,颗粒物(PM10),61,71,70,31,33,170,24,24,24,53,36,6,7,0.7,0.7
2022-10-15T01:00:00,1180A,117.256,34.2153,徐州市,新城区,颗粒物(PM10),52,54,62,29,32,162,58,58,58,33,31,7,8,0.5,0.5
2022-10-15T01:00:00,1181A,117.244,34.2911,徐州市,桃园路,颗粒物(PM10),53,56,74,24,32,162,56,56,56,28,34,6,8,0.9,1
2022-10-15T01:00:00,1182A,117.2933,34.2778,徐州市,农科院,颗粒物(PM10),52,53,61,24,28,147,38,38,38,59,48,9,10,0.6,0.5
2022-10-15T01:00:00,1186A,119.389,32.3761,扬州市,邗江监测站,,28,27,38,19,19,125,74,74,74,19,19,6,8,0.6,0.7
2022-10-15T01:00:00,1188A,120.269,31.4867,无锡市,雪浪,,31,31,40,14,17,121,57,57,57,26,25,6,7,0.6,0.6
2022-10-15T01:00:00,1189A,120.275,31.6219,无锡市,黄巷,,48,48,51,24,20,121,25,25,25,59,40,7,9,0.6,0.9
2022-10-15T01:00:00,1190A,120.294,31.56,无锡市,曹张,,28,23,42,19,21,117,52,52,52,35,29,7,9,0.5,0.7
2022-10-15T01:00:00,1191A,120.242,31.5031,无锡市,漆塘,,34,34,37,18,15,125,44,44,44,29,22,9,10,0.8,0.8
2022-10-15T01:00:00,1192A,120.3489,31.5863,无锡市,东亭,,39,39,42,24,20,114,45,45,45,31,29,7,8,0.7,0.8
2022-10-15T01:00:00,1193A,120.354,31.5475,无锡市,旺庄,,29,29,40,14,18,121,54,54,54,36,30,10,11,0.6,0.7
2022-10-15T01:00:00,1194A,120.245,31.5631,无锡市,荣巷,,39,39,39,19,20,121,57,57,57,26,28,7,9,0.6,0.9
2022-10-15T01:00:00,1195A,120.299,31.6817,无锡市,堰桥,,32,19,36,22,22,125,44,44,44,27,23,6,9,1.1,1.2
2022-10-15T01:00:00,1196A,119.9633,31.762,常州市,市监测站,,49,42,42,34,26,123,55,55,55,35,33,6,5,0.5,0.5
2022-10-15T01:00:00,1200A,119.9468,31.7069,常州市,武进监测站,颗粒物(PM10),56,62,45,25,19,135,47,47,47,38,34,10,8,0.6,0.6
2022-10-15T01:00:00,1201A,119.9255,31.9087,常州市,安家,,47,47,43,19,22,141,42,42,42,37,28,5,6,0.4,0.5
2022-10-15T01:00:00,1203A,119.6707,32.1875,镇江市,新区办事处,,38,34,29,26,18,115,52,52,52,28,23,8,9,0.6,0.5
2022-10-15T01:00:00,1204A,119.4974,32.1968,镇江市,职教中心,,38,38,44,20,25,130,80,80,80,24,30,4,6,0.5,0.6
2022-10-15T01:00:00,1205A,119.4303,32.1328,镇江市,丹徒区监测站,,43,35,36,30,32,133,82,82,82,17,24,4,5,0.3,0.4
2022-10-15T01:00:00,1206A,119.905,32.4878,泰州市,公园路,,34,34,33,19,19,107,55,55,55,16,18,6,6,0.5,0.5
2022-10-15T01:00:00,1207A,119.9189,32.4625,泰州市,莲花,,32,24,34,22,24,104,65,65,65,18,19,5,6,0.6,0.6
2022-10-15T01:00:00,1209A,119.888,32.4639,泰州市,留学生创业园,,38,38,35,23,20,112,66,66,66,17,18,5,7,0.4,0.4
2022-10-15T01:00:00,1210A,119.036,33.5981,淮安市,钵池山,,36,31,37,25,25,128,41,41,41,39,25,6,6,0.6,0.6
2022-10-15T01:00:00,1211A,119.007,33.575,淮安市,北京南路,,48,39,42,33,25,134,56,56,56,23,26,8,8,0.5,0.6
2022-10-15T01:00:00,1212A,118.989,33.6067,淮安市,市监测站,,38,29,37,26,22,135,57,57,57,25,27,8,8,0.5,0.5
2022-10-15T01:00:00,1213A,119.135,33.5039,淮安市,楚州区监测站,,45,44,37,31,21,123,44,44,44,31,21,7,6,0.6,0.5
2022-10-15T01:00:00,1214A,119.0186,33.6297,淮安市,淮阴区监测站,,45,42,46,31,29,129,61,61,61,21,27,5,5,0.5,0.5
2022-10-15T01:00:00,1215A,120.118,33.4022,盐城市,盐城电厂,细颗粒物(PM2.5),67,68,42,48,32,128,23,23,23,49,32,8,6,0.6,0.5
2022-10-15T01:00:00,1216A,120.156,33.3942,盐城市,市监测站,"颗粒物(PM10),细颗粒物(PM2.5)",54,57,38,38,25,114,31,31,31,49,31,7,6,0.5,0.4
2022-10-15T01:00:00,1218A,120.2144,33.38,盐城市,开发区管委会,细颗粒物(PM2.5),54,51,32,38,20,117,36,36,36,30,28,8,10,0.5,0.5
2022-10-15T01:00:00,1220A,118.293,33.9528,宿迁市,宿迁学院,颗粒物(PM10),59,67,41,29,20,137,49,49,49,36,29,5,5,0.3,0.3
2022-10-15T01:00:00,1221A,118.2442,33.9592,宿迁市,宿迁中学,,48,48,36,18,18,139,72,72,72,20,24,5,5,0.2,0.3
2022-10-15T01:00:00,1223A,120.2072,30.2111,杭州市,滨江,,42,42,50,12,21,143,76,76,76,23,32,4,5,0.5,0.5
2022-10-15T01:00:00,1224A,120.0633,30.2747,杭州市,西溪,,43,43,44,24,25,104,8,8,8,23,25,8,8,0.7,0.6
2022-10-15T01:00:00,1225A,119.026,29.635,杭州市,千岛湖(对照点),,,,,,,,,,,,,,,,
2022-10-15T01:00:00,1226A,120.3461,30.3153,杭州市,下沙,,33,33,43,13,19,140,59,59,59,36,39,7,8,0.5,0.6
2022-10-15T01:00:00,1227A,120.1269,30.2456,杭州市,卧龙桥,,35,35,37,21,21,120,19,19,19,22,27,5,6,0.5,0.5
2022-10-15T01:00:00,1228A,120.1903,30.2692,杭州市,浙江农大,,28,28,40,12,21,132,86,86,86,16,35,6,7,0.4,0.5
2022-10-15T01:00:00,1229A,120.157,30.2897,杭州市,朝晖五区,,,,,,,,,,,,,,,,
2022-10-15T01:00:00,1230A,120.1197,30.3119,杭州市,和睦小学,,46,46,54,20,24,120,43,43,43,45,40,3,4,0.6,0.6
2022-10-15T01:00:00,1231A,120.3019,30.4183,杭州市,临平镇,,45,45,49,10,20,144,47,47,47,30,27,6,7,0.6,0.6
2022-10-15T01:00:00,1232A,120.2697,30.1819,杭州市,城厢镇,颗粒物(PM10),51,52,50,26,25,139,59,59,59,32,30,6,7,0.5,0.5
2022-10-15T01:00:00,1233A,120.0883,30.1808,杭州市,云栖,,32,32,31,16,18,118,32,32,32,29,29,6,6,0.5,0.5
2022-10-15T01:00:00,1234A,121.8358,29.911,宁波市,区环保大楼,,28,28,28,14,11,106,59,59,59,35,26,7,8,0.4,0.4
2022-10-15T01:00:00,1235A,121.56,29.82,宁波市,万里学院,,29,29,33,10,13,110,75,75,75,20,19,7,6,0.5,0.5
2022-10-15T01:00:00,1236A,121.713,29.9572,宁波市,龙赛医院,,29,26,37,10,11,112,91,91,91,13,18,8,8,0.4,0.4
2022-10-15T01:00:00,1239A,121.633,29.7733,宁波市,钱湖水厂,,26,26,31,11,15,108,65,65,65,16,20,5,5,0.4,0.5
2022-10-15T01:00:00,1240A,121.5856,29.8635,宁波市,太古小学,,28,28,30,12,14,102,66,66,66,26,24,9,8,0.4,0.5
2022-10-15T01:00:00,1241A,121.524,29.8674,宁波市,市环境监测中心,,35,35,32,11,10,101,61,61,61,22,18,5,6,0.3,0.3
2022-10-15T01:00:00,1242A,120.634,28.0089,温州市,瓯海,颗粒物(PM10),53,55,54,29,27,134,58,58,58,38,34,6,7,0.5,0.5
2022-10-15T01:00:00,1243A,120.6748,27.9939,温州市,南浦,,39,39,50,21,25,139,90,90,90,13,28,5,6,0.3,0.3
2022-10-15T01:00:00,1244A,120.76,27.9747,温州市,龙湾,,40,40,49,17,22,137,71,71,71,30,29,6,7,0.5,0.5
2022-10-15T01:00:00,1245A,120.6709,28.0167,温州市,市站,,38,38,40,19,20,145,92,92,92,14,30,6,6,0.4,0.4
2022-10-15T01:00:00,1246A,120.598,30.0911,绍兴市,袍江站,,,,,,,,,,,,,,,,
2022-10-15T01:00:00,1247A,120.6053,29.9928,绍兴市,城东开发委,,45,45,51,25,29,124,58,58,58,22,35,9,10,0.4,0.5
2022-10-15T01:00:00,1250A,120.0751,30.8669,湖州市,城西水厂,,38,38,39,23,18,140,65,65,65,36,39,5,6,0.4,0.5
2022-10-15T01:00:00,1252A,120.7436,30.778,嘉兴市,清河小学,颗粒物(PM10),51,51,36,23,16,121,50,50,50,38,33,6,7,0.5,0.4
2022-10-15T01:00:00,1253A,120.726,30.7478,嘉兴市,嘉兴学院,,48,48,38,30,23,123,60,60,60,27,27,5,5,0.3,0.3
2022-10-15T01:00:00,1255A,121.273,28.6459,台州市,黄岩环保大楼,,38,38,36,18,19,128,80,80,80,14,16,6,6,0.4,0.4
2022-10-15T01:00:00,1256A,121.419,28.6542,台州市,台州环保大楼,,32,32,34,15,16,135,79,79,79,11,14,6,7,0.3,0.3
2022-10-15T01:00:00,1257A,121.377,28.5773,台州市,路桥田洋王,,37,37,39,18,22,124,77,77,77,11,11,6,5,0.4,0.4
2022-10-15T01:00:00,1258A,122.122,30.0203,舟山市,定海檀枫,,28,24,24,9,9,103,89,89,89,10,10,3,3,0.2,0.2
2022-10-15T01:00:00,1259A,122.3094,29.9558,舟山市,普陀东港,,32,23,26,8,9,109,102,102,102,11,15,4,4,0.3,0.3
2022-10-15T01:00:00,1260A,122.19,29.9944,舟山市,临城新区,,29,21,29,8,8,99,91,91,91,9,11,5,5,0.3,0.2
2022-10-15T01:00:00,1261A,119.649,29.1131,金华市,四中(停运161031),,,,,,,,,,,,,,,,
2022-10-15T01:00:00,1262A,119.647,29.077,金华市,十五中,细颗粒物(PM2.5),72,77,59,52,35,121,26,26,26,59,40,6,8,0.6,0.5
2022-10-15T01:00:00,1263A,119.686,29.1029,金华市,监测站,颗粒物(PM10),73,96,62,51,35,127,25,25,25,62,44,6,11,0.6,0.5
2022-10-15T01:00:00,1264A,118.8692,28.9398,衢州市,环保大楼,颗粒物(PM10),57,64,50,31,30,128,25,25,25,44,25,5,6,0.5,0.5
2022-10-15T01:00:00,1265A,118.8709,28.9666,衢州市,实验学校,,38,38,49,24,29,137,57,57,57,33,28,6,6,0.4,0.5
2022-10-15T01:00:00,1266A,118.8621,28.9808,衢州市,衢州学院,,38,38,45,23,27,127,40,40,40,48,28,5,6,0.4,0.4
2022-10-15T01:00:00,1267A,119.914,28.4514,丽水市,监测站大楼,颗粒物(PM10),51,52,42,26,27,124,46,46,46,27,22,8,7,0.3,0.4
2022-10-15T01:00:00,1268A,119.93,28.4586,丽水市,莲都小学,颗粒物(PM10),58,65,50,36,25,129,55,55,55,25,21,7,6,0.4,0.3
2022-10-15T01:00:00,1269A,119.879,28.4231,丽水市,余庄前,,44,44,39,28,20,135,24,24,24,17,14,6,6,0.4,0.3
2022-10-15T01:00:00,1270A,117.1959,31.7848,合肥市,明珠广场,,44,44,63,12,28,165,66,66,66,33,34,7,9,0.4,0.6
2022-10-15T01:00:00,1271A,117.3072,31.8764,合肥市,三里街,,42,42,54,12,18,146,47,47,47,49,36,7,8,0.5,0.6
2022-10-15T01:00:00,1272A,117.2588,31.8707,合肥市,琥珀山庄,,39,39,55,14,25,140,51,51,51,29,31,7,8,0.6,0.7
2022-10-15T01:00:00,1273A,117.1604,31.9052,合肥市,董铺水库(对照点),颗粒物(PM10),58,66,58,29,23,130,49,49,49,30,24,6,5,0.4,0.7
2022-10-15T01:00:00,1274A,117.25,31.8571,合肥市,长江中路,,44,44,53,24,29,151,63,63,63,28,25,9,10,0.5,0.6
2022-10-15T01:00:00,1275A,117.266,31.9436,合肥市,庐阳区,,48,48,61,22,29,141,34,34,34,53,37,10,11,0.4,0.5
2022-10-15T01:00:00,1276A,117.336,31.8586,合肥市,瑶海区,,39,39,60,16,27,143,57,57,57,35,31,11,12,0.5,0.6
2022-10-15T01:00:00,1277A,117.3027,31.7964,合肥市,包河区,颗粒物(PM10),53,56,63,19,27,145,6,6,6,91,61,10,11,0.6,0.6
2022-10-15T01:00:00,1278A,117.2776,31.7385,合肥市,滨湖新区,,46,46,61,14,23,151,69,69,69,21,33,9,10,0.4,0.6
2022-10-15T01:00:00,1279A,117.1318,31.8403,合肥市,高新区,颗粒物(PM10),54,58,61,31,30,152,55,55,55,43,37,1,2,0.5,0.7
2022-10-15T01:00:00,1280A,119.3903,26.0543,福州市,鼓山(对照点),,,,,,,,,,,,,,,,
2022-10-15T01:00:00,1282A,119.2681,26.0504,福州市,师大,,41,41,43,17,18,128,98,98,98,10,13,5,4,0.6,0.5
2022-10-15T01:00:00,1283A,119.2984,26.1028,福州市,五四北路,,,,39,,16,117,96,96,96,9,11,4,4,0.4,0.3
2022-10-15T01:00:00,1284A,119.2648,26.0768,福州市,杨桥西路,,43,43,42,16,14,132,98,98,98,11,11,4,4,0.4,0.3
2022-10-15T01:00:00,1285A,119.317,26.0746,福州市,紫阳,,41,41,39,20,17,121,104,104,104,10,10,6,5,0.5,0.4
2022-10-15T01:00:00,1286A,118.1608,24.8169,厦门市,溪东(对照点),,,,,,,,,,,,,,,,
2022-10-15T01:00:00,1287A,118.1514,24.4767,厦门市,洪文,颗粒物(PM10),51,52,44,20,21,145,81,81,81,24,19,4,3,0.3,0.3
2022-10-15T01:00:00,1288A,118.0661,24.4444,厦门市,鼓浪屿,,48,48,40,18,15,149,78,78,78,22,17,6,5,0.4,0.3
2022-10-15T01:00:00,1290A,115.8931,28.6843,南昌市,省外办,颗粒物(PM10),58,65,65,28,27,167,100,100,100,25,22,11,12,0.7,0.6
2022-10-15T01:00:00,1291A,115.8886,28.7003,南昌市,省林业公司,颗粒物(PM10),53,56,52,27,23,165,96,96,96,33,25,7,8,0.7,0.6
2022-10-15T01:00:00,1292A,115.8126,28.7442,南昌市,林科所,,48,48,45,24,22,172,132,132,132,13,15,10,9,0.7,0.6
2022-10-15T01:00:00,1294A,115.8518,28.687,南昌市,建工学校,颗粒物(PM10),57,64,55,35,27,171,115,115,115,24,22,11,10,0.7,0.6
2022-10-15T01:00:00,1295A,115.8921,28.6424,南昌市,象湖,颗粒物(PM10),52,53,47,29,27,167,103,103,103,23,17,6,7,0.7,0.6
2022-10-15T01:00:00,1296A,115.7423,28.7996,南昌市,武术学校(对照点),,46,37,32,32,23,148,50,50,50,9,7,14,14,1.3,0.9
2022-10-15T01:00:00,1298A,115.9314,28.6842,南昌市,省站,颗粒物(PM10),63,76,66,41,34,156,98,98,98,23,23,10,10,0.8,0.7
2022-10-15T01:00:00,1299A,116.9862,36.6114,济南市,科干所,细颗粒物(PM2.5),74,88,90,54,49,131,31,31,31,58,53,4,6,0.7,0.7
2022-10-15T01:00:00,1300A,116.9376,36.665,济南市,农科所,颗粒物(PM10),85,120,103,44,43,122,2,2,2,73,62,6,6,0.7,0.6
2022-10-15T01:00:00,1301A,117.1265,36.6734,济南市,开发区,细颗粒物(PM2.5),90,122,101,67,47,123,22,22,22,66,74,4,6,0.6,0.7
2022-10-15T01:00:00,1303A,117.0624,36.6868,济南市,省种子仓库,颗粒物(PM10),84,117,108,59,45,129,9,9,9,83,76,2,5,1.1,1.1
2022-10-15T01:00:00,1304A,116.9489,36.6447,济南市,机床二厂,颗粒物(PM10),95,139,121,61,56,132,5,5,5,81,66,6,8,0.8,0.9
2022-10-15T01:00:00,1305A,117.0495,36.663,济南市,市监测站,细颗粒物(PM2.5),83,112,101,61,45,130,9,9,9,84,70,6,8,0.9,0.8
2022-10-15T01:00:00,1306A,116.7675,36.5484,济南市,长清党校,细颗粒物(PM2.5),77,93,82,56,50,131,30,30,30,61,44,4,6,0.5,0.5
2022-10-15T01:00:00,1307A,120.6659,36.2403,青岛市,仰口(对照点),,46,46,24,22,16,120,104,104,104,15,9,4,4,0.5,0.5
2022-10-15T01:00:00,1308A,120.3905,36.1851,青岛市,李沧区子站,,,,,,,,,,,,,,,,
2022-10-15T01:00:00,1309A,120.3471,36.0699,青岛市,市北区子站,,,,,,,,,,,,,,,,
2022-10-15T01:00:00,1310A,120.4134,36.0658,青岛市,市南区东部子站,,44,44,27,29,15,118,29,29,29,47,34,6,8,0.7,0.5
2022-10-15T01:00:00,1311A,120.3664,36.1032,青岛市,四方区子站,颗粒物(PM10),69,88,47,46,24,95,5,5,5,77,54,7,7,1.3,0.7
2022-10-15T01:00:00,1312A,120.2994,36.054,青岛市,市南区西部子站,颗粒物(PM10),54,58,30,34,20,116,39,39,39,63,40,10,10,0.6,0.6
2022-10-15T01:00:00,1313A,120.4581,36.0858,青岛市,崂山区子站,颗粒物(PM10),52,53,33,31,16,115,10,10,10,77,36,5,6,0.6,0.4
2022-10-15T01:00:00,1314A,120.1983,35.9608,青岛市,黄岛区子站,,,,64,63,30,118,24,24,24,76,56,5,7,0.7,0.6
2022-10-15T01:00:00,1315A,120.3999,36.3083,青岛市,城阳区子站,颗粒物(PM10),57,63,61,26,21,122,11,11,11,58,59,5,6,0.8,0.7
2022-10-15T01:00:00,1316A,113.69031,34.76122,郑州市,烟厂,细颗粒物(PM2.5),95,108,94,71,70,102,2,2,2,103,68,6,7,1.3,1
2022-10-15T01:00:00,1317A,113.65724,34.77134,郑州市,郑纺机,细颗粒物(PM2.5),95,112,101,71,80,104,4,4,4,88,65,9,12,1.4,1
2022-10-15T01:00:00,1318A,113.67526,34.80246,郑州市,银行学校,细颗粒物(PM2.5),109,128,91,82,75,72,10,10,10,75,58,6,8,1.2,1.1
2022-10-15T01:00:00,1319A,113.56746,34.81334,郑州市,供水公司,颗粒物(PM10),79,108,93,53,53,106,4,4,4,67,40,7,10,1.2,1.1
2022-10-15T01:00:00,1320A,113.7329,34.7178,郑州市,经开区管委,颗粒物(PM10),84,117,99,50,52,108,2,2,2,47,41,5,7,1.2,0.9
2022-10-15T01:00:00,1321A,113.73961,34.77172,郑州市,四十七中,颗粒物(PM10),97,144,103,59,49,101,3,3,3,87,63,8,10,1.2,1.1
2022-10-15T01:00:00,1322A,113.60532,34.74838,郑州市,市监测站,颗粒物(PM10),102,154,112,61,54,104,2,2,2,82,64,6,8,1.0,0.9
2022-10-15T01:00:00,1323A,113.64164,34.7525,郑州市,河医大,细颗粒物(PM2.5),83,92,98,61,64,101,2,2,2,73,60,7,10,1.3,1
2022-10-15T01:00:00,1324A,113.51488,34.91089,郑州市,岗李水库(对照点),,,,,,,,,,,,,,,,
2022-10-15T01:00:00,1325A,114.3677,30.5584,武汉市,东湖梨园,,44,34,34,22,22,178,139,139,139,20,21,9,9,0.6,0.7
2022-10-15T01:00:00,1326A,114.2529,30.558,武汉市,汉阳月湖,,45,45,45,27,24,173,118,118,118,30,33,6,7,0.7,0.7
2022-10-15T01:00:00,1327A,114.282,30.6189,武汉市,汉口花桥,,43,43,45,22,22,162,120,120,120,25,32,10,10,0.8,0.8
2022-10-15T01:00:00,1328A,114.3025,30.5332,武汉市,武昌紫阳,,45,45,43,26,25,170,121,121,121,25,32,8,9,0.7,0.7
2022-10-15T01:00:00,1329A,114.3646,30.6217,武汉市,青山钢花,,46,46,46,27,29,154,116,116,116,24,33,9,9,0.6,0.6
2022-10-15T01:00:00,1330A,114.1566,30.4825,武汉市,沌口新区,细颗粒物(PM2.5),53,54,49,37,30,164,130,130,130,31,47,8,9,0.8,0.8
2022-10-15T01:00:00,1331A,114.3014,30.5944,武汉市,汉口江滩,,43,42,40,30,27,170,126,126,126,23,29,8,8,0.6,0.6
2022-10-15T01:00:00,1333A,114.135,30.6319,武汉市,吴家山,,48,48,47,32,28,167,124,124,124,28,40,8,9,0.7,0.7
2022-10-15T01:00:00,1334A,113.8454,30.2917,武汉市,沉湖七壕(对照点),颗粒物(PM10),52,53,47,29,23,189,98,98,98,27,21,8,9,0.6,0.7
2022-10-15T01:00:00,1335A,113.0833,28.2325,长沙市,经开区环保局,"颗粒物(PM10),细颗粒物(PM2.5)",59,67,82,42,55,183,123,123,123,31,31,8,8,0.5,0.5
2022-10-15T01:00:00,1336A,112.8872,28.2189,长沙市,高开区环保局,细颗粒物(PM2.5),85,85,83,63,59,183,99,99,99,36,21,11,10,0.6,0.5
2022-10-15T01:00:00,1337A,113.0792,28.2053,长沙市,马坡岭,细颗粒物(PM2.5),65,64,79,47,56,181,104,104,104,38,34,10,10,0.5,0.5
2022-10-15T01:00:00,1338A,112.9394,28.19,长沙市,湖南师范大学,颗粒物(PM10),65,79,81,39,45,160,103,103,103,27,20,5,4,1.2,0.6
2022-10-15T01:00:00,1339A,113.0178,28.1322,长沙市,雨花区环保局,细颗粒物(PM2.5),60,52,69,43,46,168,125,125,125,26,28,10,9,0.4,0.4
2022-10-15T01:00:00,1340A,112.9792,28.2597,长沙市,伍家岭,细颗粒物(PM2.5),74,86,84,54,50,179,89,89,89,40,30,8,8,0.8,0.7
2022-10-15T01:00:00,1341A,113.0014,28.1944,长沙市,火车新站,细颗粒物(PM2.5),58,61,75,41,46,170,111,111,111,24,21,9,8,0.7,0.6
2022-10-15T01:00:00,1342A,112.9844,28.1178,长沙市,天心区环保局,颗粒物(PM10),57,64,73,35,38,170,94,94,94,37,28,7,8,0.5,0.5
2022-10-15T01:00:00,1343A,112.8908,28.1308,长沙市,湖南中医药大学,细颗粒物(PM2.5),104,87,85,78,59,174,74,74,74,30,14,6,5,0.7,0.6
2022-10-15T01:00:00,1344A,112.9581,28.3611,长沙市,沙坪(对照点),细颗粒物(PM2.5),65,75,70,47,53,172,117,117,117,22,22,9,7,0.8,0.7
2022-10-15T01:00:00,1345A,113.2347,23.1423,广州市,广雅中学,颗粒物(PM10),58,66,57,33,28,154,59,59,59,66,52,8,8,0.7,0.7
2022-10-15T01:00:00,1346A,113.2612,23.105,广州市,市五中,,41,41,44,27,29,180,113,113,113,24,26,12,12,0.7,0.7
2022-10-15T01:00:00,1348A,113.3478,23.0916,广州市,广东商学院,,49,49,49,23,24,167,92,92,92,35,30,7,7,0.6,0.5
2022-10-15T01:00:00,1349A,113.4332,23.1047,广州市,市八十六中,颗粒物(PM10),55,60,52,26,24,160,47,47,47,78,48,8,8,0.8,0.7
2022-10-15T01:00:00,1350A,113.3505,22.9483,广州市,番禺中学,颗粒物(PM10),54,57,50,28,26,190,61,61,61,64,38,10,10,0.6,0.5
2022-10-15T01:00:00,1351A,113.2146,23.3916,广州市,花都师范,,41,41,38,23,21,172,122,122,122,17,16,11,10,0.5,0.5
2022-10-15T01:00:00,1352A,113.2597,23.1331,广州市,市监测站,,49,49,49,27,26,181,91,91,91,43,34,9,8,0.6,0.6
2022-10-15T01:00:00,1353A,113.5618,23.312,广州市,九龙镇镇龙,颗粒物(PM10),65,80,55,36,26,137,30,30,30,56,28,5,6,0.7,0.7
2022-10-15T01:00:00,1354A,113.2765,23.1544,广州市,麓湖,,43,43,40,26,23,171,101,101,101,31,26,6,5,0.5,0.5
2022-10-15T01:00:00,1355A,113.443,23.3035,广州市,帽峰山森林公园(对照点),,35,35,37,22,22,155,104,104,104,14,12,8,9,0.5,0.5
2022-10-15T01:00:00,1356A,114.1063,22.5545,深圳市,通心岭子站,,39,39,44,19,22,174,97,97,97,11,17,4,5,0.6,0.6
2022-10-15T01:00:00,1357A,114.117,22.5625,深圳市,洪湖,颗粒物(PM10),53,56,49,23,22,171,55,55,55,47,22,6,7,0.7,0.6
2022-10-15T01:00:00,1358A,113.987,22.5417,深圳市,华侨城,颗粒物(PM10),51,52,52,21,24,186,85,85,85,16,21,5,6,1.0,0.9
2022-10-15T01:00:00,1359A,113.9181,22.5171,深圳市,南海子站,,42,42,45,22,22,206,105,105,105,16,17,4,5,0.4,0.4
2022-10-15T01:00:00,1360A,114.2458,22.5689,深圳市,盐田,,33,33,35,19,19,160,87,87,87,15,15,5,7,0.6,0.6
2022-10-15T01:00:00,1361A,114.2283,22.7244,深圳市,龙岗,,50,50,51,21,24,159,94,94,94,15,18,4,6,0.5,0.5
2022-10-15T01:00:00,1362A,113.8953,22.5861,深圳市,西乡,,,,,,,,,,,,,,,,
2022-10-15T01:00:00,1363A,114.494,22.5422,深圳市,南澳,,31,31,37,17,18,176,70,70,70,9,11,12,12,0.7,0.7
2022-10-15T01:00:00,1364A,114.41,22.6342,深圳市,葵涌,,30,30,34,19,19,148,64,64,64,9,12,6,6,0.6,0.6
2022-10-15T01:00:00,1365A,114.297,22.5978,深圳市,梅沙,,41,41,48,16,20,169,102,102,102,6,11,8,9,0.6,0.6
2022-10-15T01:00:00,1366A,114.0678,22.738,深圳市,观澜,颗粒物(PM10),64,78,67,34,28,170,54,54,54,37,28,5,6,0.6,0.5
2022-10-15T01:00:00,1367A,113.5814,22.2618,珠海市,吉大,颗粒物(PM10),54,57,57,23,28,235,87,87,87,32,21,5,6,0.5,0.4
2022-10-15T01:00:00,1368A,113.4881,22.2335,珠海市,前山,,44,44,55,22,25,212,115,115,115,19,35,7,7,0.3,0.3
2022-10-15T01:00:00,1369A,113.628,22.4251,珠海市,唐家,,44,44,47,22,27,217,80,80,80,21,18,7,7,0.4,0.4
2022-10-15T01:00:00,1370A,113.299,22.2281,珠海市,斗门,颗粒物(PM10),54,58,55,30,28,246,85,85,85,28,31,8,9,0.6,0.5
2022-10-15T01:00:00,1371A,113.1294,23.0067,佛山市,湾梁,颗粒物(PM10),56,61,49,25,25,199,68,68,68,58,30,9,9,0.7,0.6
2022-10-15T01:00:00,1372A,113.1083,23.0478,佛山市,华材职中,颗粒物(PM10),64,78,53,37,28,176,16,16,16,113,51,13,12,0.8,0.6
2022-10-15T01:00:00,1373A,113.144,23.0453,佛山市,南海气象局,颗粒物(PM10),55,60,48,31,27,177,37,37,37,94,46,9,9,0.6,0.4
2022-10-15T01:00:00,1374A,113.2881,22.8094,佛山市,顺德苏岗,颗粒物(PM10),51,51,39,31,21,188,29,29,29,80,46,9,9,0.8,0.7
2022-10-15T01:00:00,1375A,113.2544,22.7642,佛山市,容桂街道办,,,,,,,,,,,,,,,,
2022-10-15T01:00:00,1376A,112.8383,22.8678,佛山市,高明孔堂,细颗粒物(PM2.5),64,75,54,46,29,202,39,39,39,62,30,20,13,0.7,0.6
2022-10-15T01:00:00,1377A,112.8836,23.1588,佛山市,三水监测站,颗粒物(PM10),59,68,51,34,31,169,71,71,71,49,35,10,8,0.7,0.6
2022-10-15T01:00:00,1378A,112.867,23.185,佛山市,三水云东海,,48,43,46,33,29,178,58,58,58,43,32,8,9,0.6,0.5
2022-10-15T01:00:00,1379A,113.3769,22.5211,中山市,华柏园,颗粒物(PM10),54,57,50,28,29,226,63,63,63,45,38,6,8,0.7,0.6
2022-10-15T01:00:00,1380A,113.3881,22.5497,中山市,张溪,颗粒物(PM10),68,86,60,29,35,228,43,43,43,68,39,6,9,0.5,0.5
2022-10-15T01:00:00,1381A,113.4075,22.5111,中山市,紫马岭,,43,43,54,29,29,236,62,62,62,33,33,7,10,0.5,0.5
2022-10-15T01:00:00,1382A,113.4411,22.4853,中山市,长江旅游区(对照点),,45,37,43,31,31,232,48,48,48,21,20,6,7,0.6,0.6
2022-10-15T01:00:00,1383A,113.1064,22.6058,江门市,北街,颗粒物(PM10),59,67,54,30,28,231,31,31,31,92,48,11,10,0.8,0.6
2022-10-15T01:00:00,1384A,113.0731,22.5835,江门市,西区,颗粒物(PM10),58,66,58,32,29,242,38,38,38,73,45,10,10,0.8,0.7
2022-10-15T01:00:00,1385A,113.0219,22.5311,江门市,圭峰西,颗粒物(PM10),51,52,50,33,28,234,66,66,66,59,35,11,9,0.7,0.6
2022-10-15T01:00:00,1386A,113.0828,22.5947,江门市,东湖,颗粒物(PM10),56,61,54,25,25,239,44,44,44,67,40,10,9,0.8,0.7
2022-10-15T01:00:00,1387A,113.7875,23.0457,东莞市,东城主山,,,,,,,,,,,,,,,,
2022-10-15T01:00:00,1388A,113.7533,23.0202,东莞市,南城元岭,,,,,,,,,,,,,,,,
2022-10-15T01:00:00,1389A,113.7547,23.0494,东莞市,莞城梨川,,43,43,45,24,25,177,116,116,116,23,29,10,10,0.8,0.8
2022-10-15T01:00:00,1390A,113.7944,23.0128,东莞市,东城石井,,49,49,42,30,25,177,73,73,73,26,24,15,14,0.8,0.8
2022-10-15T01:00:00,1391A,113.7383,22.9658,东莞市,南城西平,颗粒物(PM10),60,70,54,37,27,175,10,10,10,104,56,12,12,0.7,0.5
2022-10-15T01:00:00,1392A,114.4183,23.0528,惠州市,河南岸金山湖子站,,45,45,50,26,23,147,118,118,118,18,19,8,9,0.5,0.5
2022-10-15T01:00:00,1393A,114.4053,23.0822,惠州市,下埔横江三路子站,,48,48,46,25,23,153,127,127,127,18,19,15,12,0.6,0.6
2022-10-15T01:00:00,1394A,114.4103,23.1142,惠州市,江北云山西路子站,,,,,,,,,,,,,,,,
2022-10-15T01:00:00,1395A,114.4645,22.7833,惠州市,惠阳区承修路船湖子站,颗粒物(PM10),75,99,65,39,27,157,48,48,48,29,15,9,8,1.1,0.8
2022-10-15T01:00:00,1396A,114.5317,22.7422,惠州市,大亚湾管委会子站,,26,25,41,18,19,150,65,65,65,29,18,3,4,0.7,0.8
2022-10-15T01:00:00,1397A,112.4267,23.0706,肇庆市,睦岗子站,,47,47,45,27,25,183,57,57,57,62,51,6,8,0.6,0.5
2022-10-15T01:00:00,1398A,112.4645,23.0475,肇庆市,城中子站,,48,48,44,27,24,179,81,81,81,52,40,10,12,0.6,0.5
2022-10-15T01:00:00,1399A,112.5544,23.1522,肇庆市,坑口子站,,36,34,34,25,24,179,77,77,77,35,25,8,11,0.6,0.6
2022-10-15T01:00:00,1400A,112.4753,23.1,肇庆市,七星岩子站(对照点),,40,38,42,25,23,179,125,125,125,10,11,4,6,0.5,0.5
2022-10-15T01:00:00,1401A,108.3103,22.7881,南宁市,二十一中,细颗粒物(PM2.5),97,83,62,72,36,168,5,5,5,115,53,10,10,1.2,0.8
2022-10-15T01:00:00,1402A,108.3141,22.8528,南宁市,北湖,颗粒物(PM10),67,84,76,42,37,167,11,11,11,77,47,10,18,0.8,0.7
2022-10-15T01:00:00,1403A,108.3206,22.8225,南宁市,市监测站,细颗粒物(PM2.5),67,68,70,48,38,155,8,8,8,113,68,16,14,1.0,0.7
2022-10-15T01:00:00,1404A,108.3829,22.8037,南宁市,大自然花园,,49,32,49,34,31,156,79,79,79,35,34,14,11,0.6,0.7
2022-10-15T01:00:00,1405A,108.4394,22.7904,南宁市,仙葫(对照点),颗粒物(PM10),90,130,86,47,37,160,15,15,15,83,49,28,18,0.9,0.7
2022-10-15T01:00:00,1406A,108.2397,22.8467,南宁市,区农职院,,38,38,46,26,28,182,50,50,50,43,34,9,12,0.6,0.6
2022-10-15T01:00:00,1407A,108.3275,22.735,南宁市,英华嘉园,颗粒物(PM10),66,81,62,42,33,152,11,11,11,80,43,13,13,0.9,0.8
2022-10-15T01:00:00,1408A,108.2257,22.7757,南宁市,沙井镇街道办,颗粒物(PM10),98,145,83,43,36,163,5,5,5,65,47,11,12,0.6,0.5
2022-10-15T01:00:00,1409A,110.576,19.9507,海口市,东寨港(对照点),,,41,37,17,23,87,73,73,73,,,8,9,0.3,0.4
2022-10-15T01:00:00,1410A,110.3232,20.0574,海口市,海南大学,臭氧1小时,92,46,48,29,27,193,193,193,193,9,10,7,7,0.6,0.6
2022-10-15T01:00:00,1411A,110.283,20.0053,海口市,秀英海南医院,臭氧1小时,83,57,50,18,24,186,186,186,186,8,10,5,5,0.6,0.6
2022-10-15T01:00:00,1412A,110.338,19.9969,海口市,海南师范大学,臭氧1小时,69,51,49,17,23,178,175,175,175,9,10,5,6,0.6,0.6
2022-10-15T01:00:00,1413A,110.33,20.0356,海口市,龙华路环保局宿舍,臭氧1小时,78,44,45,24,26,185,182,182,182,6,7,5,6,0.6,0.6
2022-10-15T01:00:00,1414A,106.3787,29.8279,重庆市,缙云山(对照点),颗粒物(PM10),53,55,47,28,26,105,83,83,83,22,22,4,4,0.4,0.4
2022-10-15T01:00:00,1416A,106.4213,29.8253,重庆市,天生,细颗粒物(PM2.5),73,88,82,53,54,52,2,2,2,42,36,10,10,0.8,0.8
2022-10-15T01:00:00,1417A,106.6263,29.7228,重庆市,两路,细颗粒物(PM2.5),77,94,71,56,45,60,7,7,7,66,38,7,10,0.7,0.6
2022-10-15T01:00:00,1418A,106.2953,29.5983,重庆市,虎溪,细颗粒物(PM2.5),80,86,74,59,49,71,5,5,5,60,42,8,11,0.8,0.7
2022-10-15T01:00:00,1419A,106.5777,29.5102,重庆市,南坪,细颗粒物(PM2.5),109,133,115,82,74,49,4,4,4,80,50,16,19,1.2,1
2022-10-15T01:00:00,1420A,106.6556,29.6277,重庆市,唐家沱,颗粒物(PM10),72,94,97,42,48,46,8,8,8,48,56,8,12,0.5,0.5
2022-10-15T01:00:00,1421A,106.6349,29.4906,重庆市,茶园,细颗粒物(PM2.5),92,113,110,68,73,64,13,13,13,67,45,10,17,0.7,0.7
2022-10-15T01:00:00,1422A,106.3754,29.4572,重庆市,白市驿,细颗粒物(PM2.5),115,92,91,87,62,52,49,49,49,26,35,10,11,0.8,0.8
2022-10-15T01:00:00,1425A,106.6205,29.7166,重庆市,空港,细颗粒物(PM2.5),73,93,72,53,51,65,6,6,6,60,28,8,13,0.6,0.5
2022-10-15T01:00:00,1426A,106.4782,29.4875,重庆市,新山村,颗粒物(PM10),96,141,111,67,76,47,5,5,5,81,60,10,11,0.8,0.7
2022-10-15T01:00:00,1427A,106.5616,29.6453,重庆市,礼嘉,细颗粒物(PM2.5),73,88,68,53,48,65,8,8,8,75,45,12,12,0.9,0.7
2022-10-15T01:00:00,1428A,106.4522,29.7091,重庆市,蔡家,细颗粒物(PM2.5),73,80,74,53,47,49,4,4,4,54,40,5,7,0.7,0.7
2022-10-15T01:00:00,1429A,106.5093,29.3917,重庆市,鱼新街,细颗粒物(PM2.5),110,105,110,83,83,44,4,4,4,58,44,26,22,1.2,1.2
2022-10-15T01:00:00,1431A,103.9728,30.7236,成都市,金泉两河,细颗粒物(PM2.5),74,78,80,54,46,118,1,1,1,52,39,3,3,0.8,0.6
2022-10-15T01:00:00,1432A,104.1419,30.6764,成都市,十里店,细颗粒物(PM2.5),93,111,88,69,63,73,0,0,0,72,50,2,2,0.9,0.7
2022-10-15T01:00:00,1433A,104.0594,30.5767,成都市,三瓦窑,细颗粒物(PM2.5),118,125,98,89,67,63,0,0,0,73,57,5,5,0.7,0.5
2022-10-15T01:00:00,1434A,104.1122,30.6306,成都市,沙河铺,细颗粒物(PM2.5),97,90,88,72,59,69,0,0,0,51,42,3,3,0.9,0.7
2022-10-15T01:00:00,1437A,104.0431,30.6556,成都市,君平街,细颗粒物(PM2.5),105,114,87,79,62,93,2,2,2,81,50,7,6,0.9,0.7
2022-10-15T01:00:00,1438A,103.6202,31.0201,成都市,灵岩寺(对照点),,24,24,24,15,15,80,48,48,48,16,12,9,6,0.7,0.7
2022-10-15T01:00:00,1439A,106.6899,26.5998,贵阳市,马鞍山,细颗粒物(PM2.5),62,56,54,44,40,125,68,68,68,14,14,6,7,0.7,0.6
2022-10-15T01:00:00,1440A,106.6971,26.5694,贵阳市,市环保站,颗粒物(PM10),58,66,54,37,37,111,71,71,71,16,18,8,8,0.4,0.4
2022-10-15T01:00:00,1441A,106.6243,26.6266,贵阳市,鉴湖路,,46,46,53,29,32,118,85,85,85,10,12,5,6,0.5,0.5
2022-10-15T01:00:00,1442A,106.7487,26.6343,贵阳市,燕子冲,细颗粒物(PM2.5),64,66,62,46,47,116,74,74,74,10,11,9,10,0.3,0.4
2022-10-15T01:00:00,1443A,106.6555,26.4365,贵阳市,碧云窝,颗粒物(PM10),59,68,66,41,37,128,68,68,68,18,16,7,9,0.5,0.5
2022-10-15T01:00:00,1444A,106.694,26.5161,贵阳市,中院村,细颗粒物(PM2.5),64,63,59,46,38,116,75,75,75,17,16,10,9,0.5,0.5
2022-10-15T01:00:00,1445A,106.7109,26.6027,贵阳市,红边门,细颗粒物(PM2.5),58,61,58,41,42,124,74,74,74,18,14,8,8,0.5,0.5
2022-10-15T01:00:00,1446A,106.7164,26.5699,贵阳市,新华路,细颗粒物(PM2.5),55,48,52,39,42,117,76,76,76,11,12,6,7,0.4,0.4
2022-10-15T01:00:00,1447A,106.674,26.5424,贵阳市,太慈桥,颗粒物(PM10),58,66,63,36,34,118,80,80,80,14,14,6,6,0.4,0.4
2022-10-15T01:00:00,1450A,102.8204,24.8886,昆明市,呈贡新区,细颗粒物(PM2.5),83,82,42,61,32,79,39,39,39,28,16,12,10,0.6,0.5
2022-10-15T01:00:00,1451A,102.6251,24.9608,昆明市,西山森林公园(对照点),,42,20,44,29,16,68,43,43,43,16,18,6,6,0.8,0.8
2022-10-15T01:00:00,1452A,102.7252,25.0902,昆明市,龙泉镇,,29,29,32,18,21,66,48,48,48,19,21,6,6,0.5,0.4
2022-10-15T01:00:00,1453A,102.7266,25.0375,昆明市,东风东路,,40,34,36,28,26,66,44,44,44,18,22,5,5,0.6,0.6
2022-10-15T01:00:00,1454A,102.6742,25.0669,昆明市,金鼎山,,50,22,32,35,29,59,47,47,47,12,17,4,3,0.5,0.6
2022-10-15T01:00:00,1455A,102.6644,25.0401,昆明市,碧鸡广场,,45,32,44,31,42,68,52,52,52,15,21,8,7,0.5,0.6
2022-10-15T01:00:00,1456A,91.1319,29.6514,拉萨市,八廓街,,,5,5,,,114,69,69,69,9,7,8,8,0,0
2022-10-15T01:00:00,1457A,91.1221,29.6747,拉萨市,市环保局,,,4,5,0,1,114,65,65,65,7,6,2,2,,
2022-10-15T01:00:00,1458A,91.0874,29.6475,拉萨市,区监测站,,27,8,5,0,1,126,85,85,85,8,5,9,9,0.2,0.2
2022-10-15T01:00:00,1459A,91.1774,29.6541,拉萨市,西藏大学,,23,10,7,3,2,115,72,72,72,14,8,11,11,0.1,0.1
2022-10-15T01:00:00,1460A,90.9798,29.6588,拉萨市,区辐射站,,18,10,5,12,10,113,56,56,56,16,8,9,9,0.1,0.1
2022-10-15T01:00:00,1461A,91.0834,29.6292,拉萨市,拉萨火车站,,25,7,5,4,2,118,79,79,79,7,5,10,10,0,0
2022-10-15T01:00:00,1462A,108.882,34.2749,西安市,高压开关厂,颗粒物(PM10),75,99,88,43,50,65,5,5,5,72,54,11,10,1.4,0.9
2022-10-15T01:00:00,1463A,108.993,34.2629,西安市,兴庆小区,,45,45,73,24,38,73,18,18,18,40,50,6,6,0.5,0.8
2022-10-15T01:00:00,1464A,109.06,34.2572,西安市,纺织城,颗粒物(PM10),65,79,89,30,39,66,3,3,3,41,41,8,9,0.7,0.8
2022-10-15T01:00:00,1465A,108.9356,34.2173,西安市,小寨,颗粒物(PM10),53,55,83,29,36,68,3,3,3,59,53,11,10,1.0,1
2022-10-15T01:00:00,1466A,108.954,34.2713,西安市,市人民体育场,颗粒物(PM10),66,81,73,46,58,66,4,4,4,53,42,5,6,1.1,0.9
2022-10-15T01:00:00,1467A,108.8922,34.2322,西安市,高新西区,颗粒物(PM10),70,89,81,40,41,73,5,5,5,74,54,9,7,1.8,1
2022-10-15T01:00:00,1468A,108.935,34.3474,西安市,经开区,颗粒物(PM10),70,90,72,42,43,60,4,4,4,63,48,6,7,1.6,0.9
2022-10-15T01:00:00,1469A,108.906,34.1546,西安市,长安区,颗粒物(PM10),62,74,96,27,39,89,6,6,6,48,44,4,5,0.6,0.7
2022-10-15T01:00:00,1470A,109.2,34.6575,西安市,阎良区,,,,,,,,,,,,,,,,
2022-10-15T01:00:00,1471A,109.2186,34.3731,西安市,临潼区,,37,37,74,20,34,84,38,38,38,26,36,4,5,0.6,0.7
2022-10-15T01:00:00,1472A,108.869,34.378,西安市,草滩(对照点),,,129,94,35,46,55,12,12,12,58,50,15,12,1.5,1.2
2022-10-15T01:00:00,1473A,108.985,34.1978,西安市,曲江文化产业集团,,50,50,89,28,55,75,2,2,2,62,52,9,7,0.8,0.9
2022-10-15T01:00:00,1474A,109.051,34.3213,西安市,广运潭,颗粒物(PM10),59,67,81,30,42,72,2,2,2,56,44,6,7,0.7,0.8
2022-10-15T01:00:00,1476A,103.631,36.1031,兰州市,兰炼宾馆,颗粒物(PM10),83,116,130,55,50,126,6,6,6,89,54,9,25,0.8,0.7
2022-10-15T01:00:00,1477A,104.1373,35.9454,兰州市,榆中兰大校区(对照点),,,,,,,,,,,,,,,,
2022-10-15T01:00:00,1478A,103.8412,36.0726,兰州市,生物制品所,颗粒物(PM10),82,114,153,47,47,110,5,5,5,82,56,5,9,0.5,0.5
2022-10-15T01:00:00,1479A,103.831,36.0464,兰州市,铁路设计院,颗粒物(PM10),90,130,133,51,48,110,7,7,7,83,58,8,14,0.9,0.8
2022-10-15T01:00:00,1480A,101.748,36.6428,西宁市,市环境监测站,,,,,,,,,,,,,,,,
2022-10-15T01:00:00,1482A,101.834,36.5819,西宁市,四陆医院,,,,,,,,,,,,,,,,
2022-10-15T01:00:00,1483A,101.524,36.6867,西宁市,第五水厂(对照点),,,,,,,,,,,,,,,,
2022-10-15T01:00:00,1484A,105.9512,38.6016,银川市,贺兰山马莲口(对照点),,35,35,34,17,15,132,99,99,99,9,11,11,15,0.1,0.2
2022-10-15T01:00:00,1488A,106.2328,38.4975,银川市,贺兰山东路,颗粒物(PM10),65,79,61,34,32,117,18,18,18,60,35,6,9,0.5,0.5
2022-10-15T01:00:00,1489A,106.1358,38.5036,银川市,学院路,颗粒物(PM10),129,207,79,46,25,103,16,16,16,53,35,8,11,0.8,0.8
2022-10-15T01:00:00,1490A,87.5801,43.8303,乌鲁木齐市,监测站,,48,48,42,27,21,115,29,29,29,56,36,6,7,0.9,0.6
2022-10-15T01:00:00,1491A,87.6046,43.768,乌鲁木齐市,收费所,,44,44,39,27,21,125,30,30,30,35,25,9,9,0.3,0.3
2022-10-15T01:00:00,1492A,87.4754,43.9469,乌鲁木齐市,新疆农科院农场(对照点),,46,23,17,32,25,80,2,2,2,66,37,5,7,1.1,1
2022-10-15T01:00:00,1493A,87.5525,43.8711,乌鲁木齐市,铁路局,颗粒物(PM10),54,57,40,31,21,126,30,30,30,56,28,6,7,0.9,0.7
2022-10-15T01:00:00,1494A,87.6432,43.831,乌鲁木齐市,三十一中学,颗粒物(PM10),65,80,57,23,20,114,55,55,55,27,21,9,12,0.3,0.4
2022-10-15T01:00:00,1496A,87.7216,44.1747,乌鲁木齐市,米东区环保局,颗粒物(PM10),86,121,74,42,25,112,10,10,10,56,32,17,11,0.5,0.4
2022-10-15T01:00:00,1508A,112.9433,27.8614,湘潭市,板塘,细颗粒物(PM2.5),85,68,72,63,55,192,103,103,103,34,25,5,6,0.4,0.3
2022-10-15T01:00:00,1511A,112.9118,27.8403,湘潭市,市监测站,,,71,70,60,54,166,,,,31,25,10,10,0.6,0.6
2022-10-15T01:00:00,1512A,112.8937,27.8728,湘潭市,江麓,颗粒物(PM10),68,86,79,48,50,189,118,118,118,27,23,12,12,0.5,0.5
2022-10-15T01:00:00,1513A,112.9227,27.8159,湘潭市,岳塘,细颗粒物(PM2.5),82,84,81,60,53,194,107,107,107,36,29,7,8,0.5,0.5
2022-10-15T01:00:00,1514A,112.9074,27.9119,湘潭市,科大,细颗粒物(PM2.5),75,83,82,55,53,188,105,105,105,28,20,6,7,0.6,0.5
2022-10-15T01:00:00,1515A,113.135,27.8244,株洲市,天台山庄,,49,49,58,34,44,207,123,123,123,36,38,7,6,0.4,0.4
2022-10-15T01:00:00,1518A,113.095,27.8867,株洲市,株冶医院,颗粒物(PM10),58,66,73,37,47,201,77,77,77,71,44,9,8,0.7,0.5
2022-10-15T01:00:00,1519A,113.167,27.8667,株洲市,市四中,细颗粒物(PM2.5),57,51,62,40,39,210,92,92,92,48,40,8,9,0.6,0.5
2022-10-15T01:00:00,1520A,113.143,27.8381,株洲市,火车站,颗粒物(PM10),59,68,69,39,41,214,123,123,123,40,35,9,7,0.5,0.6
2022-10-15T01:00:00,1524A,113.13,27.8528,株洲市,市监测站,颗粒物(PM10),54,58,69,34,43,211,119,119,119,37,40,11,10,0.5,0.6
2022-10-15T01:00:00,1552A,106.805,26.3003,贵阳市,桐木岭(对照点),,,,,,,,,,,,,,,,
2022-10-15T01:00:00,1559A,113.251,27.8336,株洲市,大京风景区(对照点),,41,41,52,28,32,198,69,69,69,17,17,3,4,0.5,0.5
2022-10-15T01:00:00,1562A,113.0048,27.9153,湘潭市,昭山,颗粒物(PM10),71,92,101,45,54,191,87,87,87,38,33,4,5,0.5,0.5
2022-10-15T01:00:00,1564A,112.4876,27.9164,湘潭市,韶山(对照点),臭氧1小时,67,80,63,40,32,189,173,173,173,16,16,10,11,0.6,0.6
2022-10-15T01:00:00,1585A,109.8756,40.6532,包头市,市环境监测站,颗粒物(PM10),58,65,61,19,24,104,3,3,3,71,33,11,17,0.8,1
2022-10-15T01:00:00,1587A,109.9991,40.5842,包头市,包头八中,颗粒物(PM10),65,80,91,18,31,105,1,1,1,71,45,8,21,0.6,0.8
2022-10-15T01:00:00,1588A,109.8538,40.6821,包头市,青山宾馆,,,,59,,22,66,,66,,,25,,21,,0.8
2022-10-15T01:00:00,1589A,109.8642,40.6288,包头市,惠龙物流,颗粒物(PM10),54,57,67,21,34,103,5,5,5,72,43,8,20,1.0,1.3
2022-10-15T01:00:00,1590A,110.0377,40.5546,包头市,东河鸿龙湾,颗粒物(PM10),56,62,70,22,26,104,18,18,18,49,34,8,18,0.6,0.7
2022-10-15T01:00:00,1591A,110.0023,39.8129,鄂尔多斯市,综合楼,,34,34,38,11,11,94,79,79,79,14,18,5,6,0.4,0.5
2022-10-15T01:00:00,1592A,109.9486,39.8261,鄂尔多斯市,巴音孟克林场办事处,,39,39,44,19,17,103,68,68,68,26,18,6,6,0.4,0.4
2022-10-15T01:00:00,1593A,109.7736,39.5986,鄂尔多斯市,康泽苑,,44,44,40,14,12,110,69,69,69,13,13,5,5,0.6,0.6
2022-10-15T01:00:00,1594A,109.8119,39.5989,鄂尔多斯市,华泰汽车城,,44,44,41,24,19,114,37,37,37,15,13,5,5,0.8,0.7
2022-10-15T01:00:00,1595A,109.9734,39.7884,鄂尔多斯市,奥林花园,颗粒物(PM10),80,110,70,31,20,98,4,4,4,77,46,8,8,0.7,0.6
2022-10-15T01:00:00,1596A,122.2414,40.6592,营口市,学府南路,,,,,,,,,,,,,,,,
2022-10-15T01:00:00,1597A,122.2703,40.7094,营口市,大庆路,细颗粒物(PM2.5),102,98,88,76,69,142,98,98,98,39,41,6,7,0.9,1
2022-10-15T01:00:00,1598A,122.215,40.6511,营口市,镜湖西路,细颗粒物(PM2.5),104,109,97,78,66,154,120,120,120,27,33,9,8,1.1,1.1
2022-10-15T01:00:00,1599A,122.167,40.6655,营口市,西炮台,细颗粒物(PM2.5),120,122,99,91,71,152,113,113,113,31,32,10,7,1.1,0.9
2022-10-15T01:00:00,1600A,124.3303,40.0625,丹东市,江湾东路,颗粒物(PM10),93,135,89,43,40,62,4,4,4,34,38,9,13,2.0,1.2
2022-10-15T01:00:00,1601A,124.4256,40.1503,丹东市,临江后街,,41,41,47,28,30,66,5,5,5,32,29,6,8,1.0,0.9
2022-10-15T01:00:00,1602A,124.3933,40.1461,丹东市,元宝山,,45,39,43,31,32,47,5,5,5,40,40,9,9,1.1,1
2022-10-15T01:00:00,1603A,124.3633,40.1092,丹东市,民主桥,颗粒物(PM10),58,65,60,33,31,47,3,3,3,32,38,9,11,1.3,1.1
2022-10-15T01:00:00,1604A,122.0303,41.1489,盘锦市,开发区,细颗粒物(PM2.5),139,47,51,106,83,120,94,94,94,26,32,10,11,0.8,0.9
2022-10-15T01:00:00,1605A,122.0485,41.0883,盘锦市,兴隆台,细颗粒物(PM2.5),138,92,63,105,84,127,90,90,90,19,32,19,17,0.9,1
2022-10-15T01:00:00,1606A,121.8297,41.1028,盘锦市,新生街道,细颗粒物(PM2.5),117,57,43,88,78,143,112,112,112,13,17,6,7,0.8,0.9
2022-10-15T01:00:00,1607A,120.9092,40.7136,葫芦岛市,龙港区,细颗粒物(PM2.5),163,151,134,124,99,166,49,49,49,48,29,11,12,0.9,0.8
2022-10-15T01:00:00,1608A,120.8392,40.7514,葫芦岛市,化工街,细颗粒物(PM2.5),185,198,152,139,108,171,6,6,6,73,46,7,10,1.5,1.1
2022-10-15T01:00:00,1609A,120.8341,40.7073,葫芦岛市,新区,细颗粒物(PM2.5),188,165,120,141,111,164,39,39,39,49,40,8,10,1.1,1
2022-10-15T01:00:00,1610A,120.8695,40.7677,葫芦岛市,东城区,细颗粒物(PM2.5),196,182,126,147,111,151,4,4,4,61,44,10,13,1.6,1.2
2022-10-15T01:00:00,1611A,118.5819,24.9117,泉州市,涂山街,,33,28,41,13,14,148,103,103,103,7,11,8,8,0.4,0.4
2022-10-15T01:00:00,1612A,118.5972,24.8978,泉州市,津头埔,,32,26,42,14,19,143,102,102,102,5,10,7,7,0.3,0.4
2022-10-15T01:00:00,1613A,118.6663,24.9424,泉州市,万安,,35,35,40,22,19,155,92,92,92,16,10,7,7,0.4,0.5
2022-10-15T01:00:00,1614A,118.6117,24.9604,泉州市,清源山(对照点),,,,,,,,,,,,,,,,
2022-10-15T01:00:00,1616A,117.6795,36.229,济南市,技术学院,颗粒物(PM10),96,141,127,50,48,133,1,1,1,79,65,7,12,1.4,1.6
2022-10-15T01:00:00,1618A,118.3429,35.0532,临沂市,沂河小区,颗粒物(PM10),62,73,66,38,38,135,64,64,64,32,31,28,10,0.6,0.6
2022-10-15T01:00:00,1619A,118.295,35.0583,临沂市,鲁南制药厂,颗粒物(PM10),62,73,60,39,29,154,76,76,76,47,40,16,9,0.8,0.9
2022-10-15T01:00:00,1620A,118.2794,34.9976,临沂市,新光毛纺厂,细颗粒物(PM2.5),62,68,61,44,36,145,53,53,53,45,41,12,13,0.7,0.7
2022-10-15T01:00:00,1621A,118.3956,35.0888,临沂市,河东保险公司,细颗粒物(PM2.5),72,90,69,52,34,129,44,44,44,48,44,8,7,0.7,0.6
2022-10-15T01:00:00,1622A,116.3032,37.4674,德州市,儿童乐园,细颗粒物(PM2.5),122,143,109,92,66,150,36,36,36,86,60,8,8,0.8,0.7
2022-10-15T01:00:00,1624A,116.2991,37.4451,德州市,监理站,细颗粒物(PM2.5),132,166,135,100,78,154,30,30,30,84,63,12,12,0.8,0.7
2022-10-15T01:00:00,1625A,115.9848,36.4372,聊城市,区政府,细颗粒物(PM2.5),118,143,123,89,65,132,20,20,20,46,50,6,8,0.7,0.6
2022-10-15T01:00:00,1628A,118.0062,37.3803,滨州市,市环保局,细颗粒物(PM2.5),114,140,170,86,105,144,22,22,22,77,54,14,32,1.2,1.5
2022-10-15T01:00:00,1629A,118.0018,37.3617,滨州市,第二水厂,细颗粒物(PM2.5),100,120,152,75,86,135,8,8,8,102,65,10,26,0.8,0.9
2022-10-15T01:00:00,1630A,117.9776,37.393,滨州市,北中新校,细颗粒物(PM2.5),98,83,121,73,89,129,9,9,9,74,59,7,18,1.1,1
2022-10-15T01:00:00,1631A,118.0414,36.8103,淄博市,人民公园,细颗粒物(PM2.5),149,166,154,114,98,145,3,3,3,81,75,9,23,1.3,1.2
2022-10-15T01:00:00,1632A,118.0253,36.8406,淄博市,东风化工厂,,,,,,,,,,,,,,,,
2022-10-15T01:00:00,1633A,117.8525,36.4847,淄博市,双山,细颗粒物(PM2.5),107,121,104,80,66,143,30,30,30,43,41,9,10,0.9,1
2022-10-15T01:00:00,1634A,117.9592,36.6331,淄博市,气象站,细颗粒物(PM2.5),107,152,128,80,64,142,3,3,3,85,66,23,16,1.1,0.9
2022-10-15T01:00:00,1635A,118.3092,36.8194,淄博市,莆田园,细颗粒物(PM2.5),113,149,133,85,77,133,5,5,5,75,66,22,22,4.1,2.5
2022-10-15T01:00:00,1636A,117.8661,36.805,淄博市,三金集团,,,,,,,,,,,,,,,,
2022-10-15T01:00:00,1637A,117.558,34.8438,枣庄市,市中区政府,颗粒物(PM10),128,205,97,90,43,147,25,25,25,112,53,39,16,0.8,0.7
2022-10-15T01:00:00,1638A,117.2852,34.7837,枣庄市,薛城环保局,细颗粒物(PM2.5),85,105,73,63,43,146,14,14,14,76,41,19,14,0.8,0.8
2022-10-15T01:00:00,1639A,117.5852,34.7745,枣庄市,峄城区政府,颗粒物(PM10),86,122,79,63,38,148,48,48,48,63,38,11,16,0.9,0.8
2022-10-15T01:00:00,1640A,117.7276,34.5578,枣庄市,台儿庄区环保局,细颗粒物(PM2.5),64,75,59,46,34,162,32,32,32,48,32,10,15,0.9,0.7
2022-10-15T01:00:00,1641A,117.4518,35.0992,枣庄市,山亭区环保局,细颗粒物(PM2.5),70,75,58,51,33,145,62,62,62,36,28,9,11,0.8,0.8
2022-10-15T01:00:00,1642A,121.2514,37.5639,烟台市,开发区,细颗粒物(PM2.5),113,151,83,85,50,153,0,0,0,98,56,11,12,1.3,0.9
2022-10-15T01:00:00,1643A,121.3719,37.5433,烟台市,轴承厂,细颗粒物(PM2.5),77,78,65,56,48,137,65,65,65,23,30,9,12,0.6,0.5
2022-10-15T01:00:00,1644A,121.3181,37.5436,烟台市,西郊化工站,细颗粒物(PM2.5),100,110,81,75,48,143,32,32,32,62,50,10,17,1.1,1
2022-10-15T01:00:00,1645A,121.4478,37.4822,烟台市,莱山环保局,细颗粒物(PM2.5),65,66,64,47,38,137,82,82,82,13,25,8,10,0.6,0.6
2022-10-15T01:00:00,1646A,121.2611,37.4967,烟台市,福山环保局,细颗粒物(PM2.5),104,119,99,78,54,127,24,24,24,62,73,8,11,1.0,1
2022-10-15T01:00:00,1648A,119.12,36.7019,潍坊市,仲裁委,,,,,,,,,,,,,,,,
2022-10-15T01:00:00,1650A,119.1437,36.7023,潍坊市,环保局,细颗粒物(PM2.5),143,178,131,109,77,132,1,1,1,90,67,7,12,1.7,1.3
2022-10-15T01:00:00,1652A,119.1936,36.7729,潍坊市,寒亭监测站,,,,,,,,,,,,,,,,
2022-10-15T01:00:00,1653A,116.6251,35.4302,济宁市,火炬城,细颗粒物(PM2.5),117,115,75,88,60,134,7,7,7,82,44,9,12,0.8,0.6
2022-10-15T01:00:00,1655A,116.5491,35.4042,济宁市,电化厂,细颗粒物(PM2.5),132,147,101,100,66,134,15,15,15,67,47,12,13,0.8,0.7
2022-10-15T01:00:00,1656A,117.1437,36.1937,泰安市,监测站,颗粒物(PM10),63,75,90,38,39,125,36,36,36,31,29,8,10,0.5,0.6
2022-10-15T01:00:00,1657A,117.0885,36.2017,泰安市,人口学校,颗粒物(PM10),53,56,82,29,29,116,63,63,63,17,22,8,10,0.2,0.3
2022-10-15T01:00:00,1658A,117.1089,36.1758,泰安市,电力学校,颗粒物(PM10),71,92,98,44,45,128,4,4,4,56,45,7,9,0.9,0.9
2022-10-15T01:00:00,1659A,119.471,35.4209,日照市,监测站,,41,41,34,24,20,103,0,0,0,68,51,5,7,0.7,0.7
2022-10-15T01:00:00,1660A,119.523,35.4216,日照市,市政府广场,,44,44,28,20,17,115,29,29,29,40,30,4,4,0.6,0.5
2022-10-15T01:00:00,1661A,119.5587,35.4044,日照市,港务局,,29,29,27,12,13,124,47,47,47,22,21,4,4,0.5,0.5
2022-10-15T01:00:00,1662A,122.1214,37.4236,威海市,华夏技校,细颗粒物(PM2.5),64,53,51,46,36,134,99,99,99,24,26,5,6,0.6,0.5
2022-10-15T01:00:00,1663A,122.0508,37.5236,威海市,山大分校,细颗粒物(PM2.5),83,85,52,61,30,149,61,61,61,43,26,5,5,0.6,0.4
2022-10-15T01:00:00,1664A,122.1067,37.5072,威海市,市监测站,细颗粒物(PM2.5),59,59,51,42,33,138,69,69,69,23,31,8,8,0.5,0.6
2022-10-15T01:00:00,1665A,118.5019,37.4658,东营市,西城阳光环保公司,,,,,,,,,,,,,,,,
2022-10-15T01:00:00,1666A,118.6614,37.4309,东营市,市环保局,细颗粒物(PM2.5),125,124,137,95,96,201,26,26,26,106,62,17,19,1.3,1.2
2022-10-15T01:00:00,1669A,113.5824,24.7733,韶关市,市八中,,40,40,42,20,24,156,114,114,114,15,16,15,19,0.7,0.7
2022-10-15T01:00:00,1670A,113.5556,24.8082,韶关市,碧湖山庄,,,,,,,,,,,,,,,,
2022-10-15T01:00:00,1671A,113.5917,24.7972,韶关市,园林处,,43,40,38,30,27,150,118,118,118,7,10,16,20,1.1,1
2022-10-15T01:00:00,1672A,113.6735,24.7791,韶关市,韶关学院,,32,28,34,22,24,154,58,58,58,37,21,9,9,0.5,0.5
2022-10-15T01:00:00,1673A,113.5971,24.6863,韶关市,曲江监测站,颗粒物(PM10),54,57,47,28,23,164,23,23,23,66,28,12,11,1.1,0.7
2022-10-15T01:00:00,1674A,116.6794,23.3667,汕头市,金平子站,,38,32,37,26,19,141,66,66,66,16,14,11,11,0.5,0.6
2022-10-15T01:00:00,1675A,116.7244,23.3633,汕头市,龙湖子站,,38,38,50,21,18,149,74,74,74,17,14,11,11,0.5,0.5
2022-10-15T01:00:00,1676A,116.7258,23.2775,汕头市,濠江子站,,32,26,33,22,16,140,73,73,73,14,12,9,9,0.7,0.7
2022-10-15T01:00:00,1677A,116.7519,23.4714,汕头市,澄海子站,细颗粒物(PM2.5),53,51,40,37,22,154,76,76,76,21,17,17,14,0.7,0.7
2022-10-15T01:00:00,1678A,116.6092,23.2539,汕头市,潮阳子站,,29,29,38,11,16,140,72,72,72,6,9,8,9,0.6,0.6
2022-10-15T01:00:00,1679A,116.4069,23.2533,汕头市,潮南子站,,,,,,,,,,,,,,,,
2022-10-15T01:00:00,1680A,110.3539,21.2706,湛江市,湛江影剧院,细颗粒物(PM2.5),64,67,53,46,31,191,111,111,111,30,22,12,25,0.7,0.5
2022-10-15T01:00:00,1681A,110.3928,21.2228,湛江市,市环境监测站,细颗粒物(PM2.5),64,68,49,46,32,178,147,147,147,16,15,12,14,0.7,0.6
2022-10-15T01:00:00,1682A,110.4019,21.1997,湛江市,环保局宿舍,细颗粒物(PM2.5),62,72,50,44,30,170,153,153,153,22,17,10,14,0.6,0.5
2022-10-15T01:00:00,1683A,110.4111,21.2028,湛江市,霞山游泳场,细颗粒物(PM2.5),64,72,52,46,33,170,145,145,145,22,16,14,17,0.6,0.6
2022-10-15T01:00:00,1684A,110.3316,21.2679,湛江市,麻章区环保局,细颗粒物(PM2.5),85,77,59,63,36,188,100,100,100,29,18,15,31,0.7,0.5
2022-10-15T01:00:00,1685A,110.4558,21.2567,湛江市,坡头区环保局,细颗粒物(PM2.5),87,70,57,64,38,174,134,134,134,22,14,15,17,0.9,0.6
2022-10-15T01:00:00,1686A,111.0286,21.4688,茂名市,电白南海,颗粒物(PM10),59,68,62,34,27,192,92,92,92,24,19,20,13,0.6,0.5
2022-10-15T01:00:00,1687A,110.9294,21.6533,茂名市,茂石化七小,颗粒物(PM10),54,58,56,34,31,162,123,123,123,14,16,20,22,0.5,0.6
2022-10-15T01:00:00,1688A,110.9107,21.6687,茂名市,健康路,颗粒物(PM10),54,58,52,30,28,175,76,76,76,38,20,72,34,0.8,0.8
2022-10-15T01:00:00,1689A,110.8592,21.6828,茂名市,高岭,细颗粒物(PM2.5),89,122,74,66,42,166,31,31,31,52,29,36,40,0.8,0.7
2022-10-15T01:00:00,1690A,116.1231,24.3284,梅州市,梅江月梅,,30,30,33,19,19,156,80,80,80,34,27,11,12,0.4,0.4
2022-10-15T01:00:00,1691A,116.0797,24.2719,梅州市,梅县新城,,32,32,34,21,21,142,31,31,31,59,31,7,8,0.5,0.5
2022-10-15T01:00:00,1692A,116.1248,24.2654,梅州市,环境监控中心,颗粒物(PM10),59,68,42,28,21,159,20,20,20,70,34,21,12,0.5,0.5
2022-10-15T01:00:00,1693A,115.3653,22.775,汕尾市,市环保局,,37,37,38,14,15,132,83,83,83,8,10,7,8,0.6,0.6
2022-10-15T01:00:00,1694A,115.3706,22.7898,汕尾市,市政府,,34,34,36,22,22,130,82,82,82,6,10,7,8,0.5,0.6
2022-10-15T01:00:00,1695A,115.3622,22.7925,汕尾市,新城中学,,41,41,42,21,18,133,79,79,79,7,8,8,9,0.4,0.5
2022-10-15T01:00:00,1696A,114.6778,23.7569,河源市,源西(对照点),,45,45,42,27,23,146,71,71,71,48,18,11,9,0.6,0.5
2022-10-15T01:00:00,1697A,114.6944,23.7586,河源市,东埔,,44,44,42,29,24,157,114,114,114,23,15,10,9,0.7,0.7
2022-10-15T01:00:00,1698A,114.6892,23.7233,河源市,老城,,50,50,47,26,23,159,114,114,114,17,12,9,8,0.7,0.7
2022-10-15T01:00:00,1699A,111.9797,21.8593,阳江市,鸳鸯湖(对照点),,,,,,,,,,,,,,,,
2022-10-15T01:00:00,1700A,111.9508,21.8536,阳江市,南恩路,,,,,,,,,,,,,,,,
2022-10-15T01:00:00,1701A,111.9491,21.8658,阳江市,马南垌,细颗粒物(PM2.5),55,53,48,39,29,177,98,98,98,41,27,10,11,0.6,0.5
2022-10-15T01:00:00,1702A,113.0426,23.691,清远市,环保大楼(对照点),,42,41,36,29,24,199,133,133,133,16,12,9,9,0.6,0.5
2022-10-15T01:00:00,1703A,113.0208,23.7106,清远市,凤城街办,,39,36,38,22,23,140,122,122,122,14,17,6,6,0.7,0.8
2022-10-15T01:00:00,1705A,116.6367,23.6719,潮州市,西园路(对照点),,45,43,45,31,25,156,68,68,68,12,11,9,9,0.7,0.6
2022-10-15T01:00:00,1706A,116.6447,23.6706,潮州市,档案局,,50,50,46,31,24,153,69,69,69,13,11,11,10,0.7,0.7
2022-10-15T01:00:00,1708A,116.3701,23.5345,揭阳市,新兴,细颗粒物(PM2.5),53,47,51,37,31,140,76,76,76,14,12,14,14,0.6,0.6
2022-10-15T01:00:00,1709A,116.3264,23.5443,揭阳市,西马,颗粒物(PM10),58,66,53,34,26,133,76,76,76,16,13,10,9,0.8,0.7
2022-10-15T01:00:00,1710A,116.3611,23.5626,揭阳市,东兴,,36,36,47,25,18,132,62,62,62,24,9,11,9,0.7,0.7
2022-10-15T01:00:00,1711A,116.4151,23.5294,揭阳市,渔湖,,49,49,50,22,24,130,63,63,63,20,17,8,11,0.6,0.6
2022-10-15T01:00:00,1712A,112.0392,22.9169,云浮市,新市府(对照点),,,,,,,,,,,,,,,,
2022-10-15T01:00:00,1713A,112.0369,22.9394,云浮市,市监测站,,,,,,,,,,,,,,,,
2022-10-15T01:00:00,1714A,112.0539,22.9539,云浮市,牧羊,颗粒物(PM10),66,81,47,29,25,162,2,2,2,77,34,28,27,0.7,0.6
2022-10-15T01:00:00,1715A,102.575,24.3711,玉溪市,东风水库,颗粒物(PM10),51,51,27,30,19,85,69,69,69,11,8,5,4,0.7,0.7
2022-10-15T01:00:00,1718A,115.4208,35.2464,菏泽市,气象局,细颗粒物(PM2.5),124,159,122,94,65,132,7,7,7,92,61,5,8,0.9,0.7
2022-10-15T01:00:00,1719A,115.4747,35.2375,菏泽市,市政协,细颗粒物(PM2.5),134,152,116,102,71,122,7,7,7,87,65,3,6,1.0,0.5
2022-10-15T01:00:00,1720A,115.455,35.27,菏泽市,菏泽学院,,,,,,,,,,,,,,,,
2022-10-15T01:00:00,1721A,113.3819,40.1097,大同市,果树场(对照点),,,,,,,,,,,,,,,,
2022-10-15T01:00:00,1723A,113.2994,40.0758,大同市,云冈宾馆,颗粒物(PM10),52,54,55,24,28,103,37,37,37,29,22,12,15,0.9,0.7
2022-10-15T01:00:00,1724A,113.3444,40.0917,大同市,大同大学,颗粒物(PM10),52,53,61,17,23,111,65,65,65,16,19,26,15,0.6,0.5
2022-10-15T01:00:00,1725A,113.2661,40.1269,大同市,安家小村,颗粒物(PM10),78,105,68,14,25,110,20,20,20,55,28,22,19,0.9,0.5
2022-10-15T01:00:00,1726A,113.2711,40.0844,大同市,教育学院,颗粒物(PM10),55,59,54,26,24,104,41,41,41,29,19,22,18,0.5,0.4
2022-10-15T01:00:00,1727A,113.1147,36.1547,长治市,清华站,细颗粒物(PM2.5),79,89,68,58,57,166,6,6,6,63,42,8,9,0.7,1
2022-10-15T01:00:00,1728A,113.1031,36.1989,长治市,监测站,细颗粒物(PM2.5),98,91,69,73,57,148,20,20,20,51,38,14,8,1.0,1.1
2022-10-15T01:00:00,1730A,113.0886,36.2125,长治市,审计局,细颗粒物(PM2.5),67,76,65,48,57,148,8,8,8,69,40,8,11,1.0,1.2
2022-10-15T01:00:00,1731A,113.0844,36.1856,长治市,长治八中,颗粒物(PM10),69,87,79,40,47,152,7,7,7,60,39,11,12,0.6,0.9
2022-10-15T01:00:00,1733A,111.5531,36.0783,临汾市,临钢医院,细颗粒物(PM2.5),170,108,84,129,95,136,15,15,15,56,36,2,5,1.7,1.3
2022-10-15T01:00:00,1734A,111.5028,36.0714,临汾市,技工学校,细颗粒物(PM2.5),188,154,97,141,98,138,12,12,12,59,37,8,9,1.6,1.4
2022-10-15T01:00:00,1735A,111.5169,36.0822,临汾市,工商学校,,,,,,,,,,,,,,,,
2022-10-15T01:00:00,1736A,111.5018,36.0855,临汾市,市委,细颗粒物(PM2.5),180,137,94,136,92,137,20,20,20,50,35,2,5,1.6,1.4
2022-10-15T01:00:00,1738A,113.5758,37.8572,阳泉市,市中心,颗粒物(PM10),68,86,105,34,54,128,3,3,3,84,66,9,18,0.7,1
2022-10-15T01:00:00,1739A,113.4894,37.8731,阳泉市,赛鱼,颗粒物(PM10),77,104,82,50,55,108,5,5,5,84,59,13,19,0.8,0.9
2022-10-15T01:00:00,1740A,113.5819,37.8486,阳泉市,南庄,颗粒物(PM10),69,88,94,38,54,124,4,4,4,69,51,13,23,0.8,1.1
2022-10-15T01:00:00,1741A,113.6292,37.8531,阳泉市,白羊墅,,,,,,,,,,,,,,,,
2022-10-15T01:00:00,1742A,113.5614,37.8703,阳泉市,平坦,颗粒物(PM10),67,84,98,40,53,127,8,8,8,96,66,12,18,0.8,1.1
2022-10-15T01:00:00,1743A,113.5158,37.8392,阳泉市,大阳泉,细颗粒物(PM2.5),73,82,68,53,53,127,81,81,81,48,43,16,19,0.8,1
2022-10-15T01:00:00,1744A,118.9233,42.2816,赤峰市,松山一中,颗粒物(PM10),54,57,33,31,15,126,8,8,8,50,30,12,13,0.7,0.5
2022-10-15T01:00:00,1745A,118.9576,42.2728,赤峰市,哈达街,颗粒物(PM10),57,64,41,36,18,134,57,57,57,27,30,12,13,0.5,0.5
2022-10-15T01:00:00,1746A,118.8788,42.2554,赤峰市,天义路,颗粒物(PM10),53,56,35,30,16,128,22,22,22,44,28,15,14,0.7,0.7
2022-10-15T01:00:00,1748A,123.044,41.1196,鞍山市,深沟寺,细颗粒物(PM2.5),94,93,80,70,58,136,127,127,127,10,12,9,10,0.7,0.7
2022-10-15T01:00:00,1749A,123.011,41.0931,鞍山市,太阳城,细颗粒物(PM2.5),88,91,82,65,56,136,125,125,125,11,15,8,10,0.8,0.9
2022-10-15T01:00:00,1750A,123.0485,41.1442,鞍山市,太平,细颗粒物(PM2.5),89,87,78,66,56,133,94,94,94,22,18,10,12,0.6,0.6
2022-10-15T01:00:00,1751A,122.9642,41.0971,鞍山市,铁西三道街,细颗粒物(PM2.5),98,118,101,73,65,132,98,98,98,41,30,15,11,2.2,1.2
2022-10-15T01:00:00,1752A,122.9341,41.0833,鞍山市,铁西工业园区,细颗粒物(PM2.5),95,101,99,71,68,134,122,122,122,12,22,10,11,0.9,1
2022-10-15T01:00:00,1753A,123.022,41.0821,鞍山市,明达新区,细颗粒物(PM2.5),95,93,79,71,60,136,132,132,132,9,13,10,11,0.8,1
2022-10-15T01:00:00,1754A,123.1289,41.0228,鞍山市,千山(对照点),,,,,,,,,,,,,,,,
2022-10-15T01:00:00,1755A,123.7977,41.8491,抚顺市,望花区,细颗粒物(PM2.5),99,90,80,74,62,136,24,24,24,35,29,9,16,1.3,1.1
2022-10-15T01:00:00,1756A,123.9161,41.8822,抚顺市,顺城区,细颗粒物(PM2.5),95,102,77,71,56,149,3,3,3,49,35,10,13,1.5,1.2
2022-10-15T01:00:00,1757A,124.0436,41.8611,抚顺市,东洲区,细颗粒物(PM2.5),54,41,61,38,46,161,46,46,46,10,19,7,9,0.9,0.9
2022-10-15T01:00:00,1758A,123.9247,41.8642,抚顺市,新抚区,细颗粒物(PM2.5),98,94,81,73,61,155,10,10,10,33,27,2,5,1.4,1.1
2022-10-15T01:00:00,1759A,124.0972,41.8961,抚顺市,大伙房水库,细颗粒物(PM2.5),59,36,47,42,36,132,44,44,44,16,14,5,6,0.8,0.7
2022-10-15T01:00:00,1760A,123.7086,41.8391,抚顺市,沈抚新城,细颗粒物(PM2.5),97,106,94,72,66,128,14,14,14,38,27,12,21,1.3,1.8
2022-10-15T01:00:00,1761A,123.8275,41.3064,本溪市,大峪,细颗粒物(PM2.5),54,44,55,38,29,65,38,38,38,24,41,7,8,0.8,1.1
2022-10-15T01:00:00,1762A,123.7567,41.3325,本溪市,溪湖,"颗粒物(PM10),细颗粒物(PM2.5)",67,83,79,48,47,50,4,4,4,47,50,6,7,1.0,1.3
2022-10-15T01:00:00,1763A,123.7169,41.3094,本溪市,彩屯,细颗粒物(PM2.5),84,101,125,62,78,42,4,4,4,51,57,8,16,2.0,2.3
2022-10-15T01:00:00,1764A,123.7669,41.2864,本溪市,东明,"颗粒物(PM10),细颗粒物(PM2.5)",52,54,71,36,32,79,11,11,11,59,58,8,10,1.0,1.3
2022-10-15T01:00:00,1765A,123.7992,41.2664,本溪市,新立屯,细颗粒物(PM2.5),63,46,53,45,35,18,4,4,4,56,56,6,7,0.7,0.9
2022-10-15T01:00:00,1766A,123.8142,41.3472,本溪市,威宁,颗粒物(PM10),53,56,54,31,26,35,4,4,4,38,41,5,6,1.1,1
2022-10-15T01:00:00,1767A,121.1115,41.0879,锦州市,南山,细颗粒物(PM2.5),203,89,86,153,126,133,17,17,17,49,43,6,16,1.7,1.3
2022-10-15T01:00:00,1768A,121.0533,40.8434,锦州市,开发区,细颗粒物(PM2.5),205,178,133,155,127,143,11,11,11,89,57,18,25,1.4,1.4
2022-10-15T01:00:00,1769A,121.1836,41.1119,锦州市,百股街道,细颗粒物(PM2.5),206,170,108,156,113,153,4,4,4,64,47,5,13,1.9,1.4
2022-10-15T01:00:00,1770A,121.1178,41.1222,锦州市,天安街道,细颗粒物(PM2.5),222,152,107,172,124,127,9,9,9,92,69,8,15,2.0,1.5
2022-10-15T01:00:00,1771A,121.1303,41.1386,锦州市,北湖公园,细颗粒物(PM2.5),220,117,90,170,123,140,34,34,34,50,50,6,11,1.6,1.4
2022-10-15T01:00:00,1772A,126.54,43.8622,吉林市,哈达湾,,41,41,76,23,47,147,77,77,77,24,35,8,10,0.7,0.9
2022-10-15T01:00:00,1773A,126.5844,43.8358,吉林市,东局子,,44,44,83,25,47,139,81,81,81,16,40,5,6,0.7,0.9
2022-10-15T01:00:00,1774A,126.5052,43.8245,吉林市,电力学院,细颗粒物(PM2.5),104,116,100,78,65,146,40,40,40,30,44,8,10,1.0,1.1
2022-10-15T01:00:00,1775A,126.6133,43.8972,吉林市,江北,,36,36,73,24,48,137,67,67,67,15,35,4,6,0.7,0.9
2022-10-15T01:00:00,1776A,126.555,43.8306,吉林市,江南公园,,40,40,75,28,51,140,75,75,75,14,36,6,9,0.8,0.9
2022-10-15T01:00:00,1778A,126.7061,43.7133,吉林市,丰满(对照点),,,,,,,,,,,,,,,,
2022-10-15T01:00:00,1779A,123.9305,47.3636,齐齐哈尔市,安居小区,细颗粒物(PM2.5),77,98,68,56,22,81,67,67,67,14,27,5,6,1.0,0.8
2022-10-15T01:00:00,1780A,123.9488,47.3386,齐齐哈尔市,中心广场,颗粒物(PM10),77,104,65,50,18,82,73,73,73,20,31,8,8,0.6,0.5
2022-10-15T01:00:00,1781A,123.9483,47.3227,齐齐哈尔市,农牧车辆厂,颗粒物(PM10),74,97,54,31,14,84,69,69,69,17,21,7,7,0.7,0.4
2022-10-15T01:00:00,1783A,123.945,47.2988,齐齐哈尔市,市环境监测站,颗粒物(PM10),71,92,53,48,29,84,71,71,71,14,20,5,5,0.7,0.4
2022-10-15T01:00:00,1784A,129.61,44.561,牡丹江市,环保大楼,颗粒物(PM10),70,89,72,46,36,101,7,7,7,47,46,3,4,0.9,0.8
2022-10-15T01:00:00,1785A,129.6115,44.5782,牡丹江市,文化广场,细颗粒物(PM2.5),95,99,89,71,39,98,6,6,6,47,47,3,5,1.1,1
2022-10-15T01:00:00,1786A,129.5904,44.5963,牡丹江市,第一医院,细颗粒物(PM2.5),72,61,70,52,38,88,28,28,28,24,43,6,7,1.0,1.1
2022-10-15T01:00:00,1787A,129.6364,44.6075,牡丹江市,机车工厂,颗粒物(PM10),78,105,79,56,32,105,24,24,24,38,42,1,2,1.0,0.8
2022-10-15T01:00:00,1788A,129.6386,44.5462,牡丹江市,第一中学,细颗粒物(PM2.5),65,56,64,47,29,118,3,3,3,41,36,2,3,0.7,0.7
2022-10-15T01:00:00,1789A,124.81117,46.03138,大庆市,大同区,细颗粒物(PM2.5),115,147,71,87,37,97,72,72,72,16,26,5,5,0.9,0.5
2022-10-15T01:00:00,1790A,125.129,46.533,大庆市,龙凤区,细颗粒物(PM2.5),99,89,50,74,27,83,60,60,60,15,22,4,7,1.0,0.7
2022-10-15T01:00:00,1791A,124.902,46.408,大庆市,红岗区,细颗粒物(PM2.5),100,96,37,75,20,94,73,73,73,16,22,6,7,1.3,0.9
2022-10-15T01:00:00,1792A,125.153,46.586,大庆市,萨尔图区,细颗粒物(PM2.5),105,114,61,79,36,85,72,72,72,20,24,8,10,0.9,0.6
2022-10-15T01:00:00,1793A,124.9042,46.6215,大庆市,让胡路区,,,,,,,83,71,71,71,21,30,5,3,2.5,2.2
2022-10-15T01:00:00,1794A,118.3606,31.3519,芜湖市,监测站,颗粒物(PM10),52,54,44,35,27,140,45,45,45,57,42,9,9,0.8,0.7
2022-10-15T01:00:00,1795A,118.3714,31.4134,芜湖市,科创中心,颗粒物(PM10),56,61,45,30,24,148,61,61,61,36,43,6,6,0.6,0.6
2022-10-15T01:00:00,1796A,118.3673,31.3131,芜湖市,四水厂,颗粒物(PM10),52,54,43,23,23,135,70,70,70,34,35,8,8,0.4,0.5
2022-10-15T01:00:00,1797A,118.4022,31.3839,芜湖市,济民医院(对照点),,,,,,,,,,,,,,,,
2022-10-15T01:00:00,1798A,118.5092,31.6837,马鞍山市,湖东路四小,,42,42,38,22,21,143,61,61,61,23,31,5,6,0.5,0.6
2022-10-15T01:00:00,1799A,118.5024,31.6449,马鞍山市,开发区,,39,39,46,25,26,138,52,52,52,34,39,6,7,0.7,0.8
2022-10-15T01:00:00,1800A,118.5228,31.7231,马鞍山市,慈湖,,50,50,45,26,26,140,65,65,65,31,38,12,13,0.6,0.7
2022-10-15T01:00:00,1801A,118.48,31.6928,马鞍山市,马钢动力厂,,,,,,,,,,,,,,,,
2022-10-15T01:00:00,1802A,118.6245,31.7241,马鞍山市,濮塘(对照点),,38,38,37,21,21,145,62,62,62,20,13,4,4,0.4,0.5
2022-10-15T01:00:00,1803A,115.9872,29.6815,九江市,十里,颗粒物(PM10),54,58,52,36,25,176,102,102,102,29,23,8,8,0.7,0.7
2022-10-15T01:00:00,1804A,115.9584,29.7046,九江市,茅山头,,46,46,46,32,27,166,119,119,119,23,23,10,10,0.8,0.7
2022-10-15T01:00:00,1805A,115.9877,29.7295,九江市,西园,颗粒物(PM10),54,58,52,35,27,171,119,119,119,25,27,10,10,0.7,0.6
2022-10-15T01:00:00,1806A,116.0172,29.6547,九江市,五七二七厂,,42,42,41,28,23,167,134,134,134,14,17,8,8,0.7,0.6
2022-10-15T01:00:00,1808A,115.9114,29.6038,九江市,综合工业园,,50,50,48,29,26,144,121,121,121,28,33,10,10,0.8,0.7
2022-10-15T01:00:00,1809A,116.0721,29.7535,九江市,石化总厂,颗粒物(PM10),54,57,53,33,22,166,103,103,103,29,26,10,10,0.8,0.7
2022-10-15T01:00:00,1810A,115.9773,29.5698,九江市,庐山气象台(对照点),,48,31,28,29,23,164,152,152,152,14,12,11,7,0.8,0.7
2022-10-15T01:00:00,1811A,112.3628,34.6692,洛阳市,中信二小,,,,,,,,,,,,,,,,
2022-10-15T01:00:00,1812A,112.3931,34.6516,洛阳市,市委党校,细颗粒物(PM2.5),103,111,126,77,79,107,42,42,42,37,39,7,9,0.8,0.8
2022-10-15T01:00:00,1814A,112.4657,34.6871,洛阳市,豫西宾馆,细颗粒物(PM2.5),112,119,110,84,81,104,12,12,12,63,50,7,9,0.9,0.9
2022-10-15T01:00:00,1815A,112.494,34.6886,洛阳市,河南林校,细颗粒物(PM2.5),113,106,108,85,79,112,19,19,19,59,42,7,8,0.8,0.7
2022-10-15T01:00:00,1816A,112.3844,34.623,洛阳市,开发区管委会,细颗粒物(PM2.5),98,84,94,73,76,108,25,25,25,36,27,3,6,0.6,0.6
2022-10-15T01:00:00,1817A,112.4267,34.6258,洛阳市,市委新办公区,细颗粒物(PM2.5),109,99,100,82,78,120,50,50,50,33,29,6,7,0.7,0.6
2022-10-15T01:00:00,1818A,114.4839,36.0621,安阳市,棉研所(对照点),,,,,,,,,,,,,,,,
2022-10-15T01:00:00,1819A,114.3551,36.1017,安阳市,红庙街,细颗粒物(PM2.5),178,187,146,134,101,150,6,6,6,98,76,13,30,1.3,0.8
2022-10-15T01:00:00,1820A,114.361,36.0681,安阳市,银杏小区,颗粒物(PM10),114,178,133,,73,140,6,6,6,119,80,12,29,1.2,0.9
2022-10-15T01:00:00,1824A,114.3389,34.7781,开封市,肿瘤医院,细颗粒物(PM2.5),166,145,96,126,85,130,0,0,0,71,55,9,9,1.5,1
2022-10-15T01:00:00,1826A,114.2885,34.7965,开封市,世纪星幼儿园,细颗粒物(PM2.5),107,110,95,80,78,126,3,3,3,63,51,7,9,1.6,1
2022-10-15T01:00:00,1828A,113.227,35.2125,焦作市,市环保局,颗粒物(PM10),78,105,137,51,83,102,0,0,0,62,56,9,16,1.3,1.2
2022-10-15T01:00:00,1829A,113.2464,35.1764,焦作市,高新区政府（停运20220628）,,,,,,,,,,,,,,,,
2022-10-15T01:00:00,1830A,113.1992,35.2590,焦作市,影视城(对照点),,,,,,,,,,,,,,,,
2022-10-15T01:00:00,1832A,113.3257,33.742,平顶山市,新华旅馆,细颗粒物(PM2.5),120,147,115,91,73,129,60,60,60,27,24,7,7,0.8,0.5
2022-10-15T01:00:00,1833A,113.2919,33.737,平顶山市,规划设计院,细颗粒物(PM2.5),104,129,109,78,65,132,26,26,26,59,36,4,6,0.9,0.7
2022-10-15T01:00:00,1834A,113.182,33.774,平顶山市,平顶山工学院,细颗粒物(PM2.5),119,155,115,90,66,132,58,58,58,40,29,8,8,0.9,0.7
2022-10-15T01:00:00,1835A,111.1922,34.7752,三门峡市,市政府,细颗粒物(PM2.5),65,46,78,47,78,111,14,14,14,42,42,5,8,0.7,0.8
2022-10-15T01:00:00,1836A,111.1587,34.7942,三门峡市,开发区,细颗粒物(PM2.5),77,94,127,56,77,110,19,19,19,32,32,4,6,0.8,0.9
2022-10-15T01:00:00,1838A,111.143,34.7955,三门峡市,风景区(对照点),,,,,,,,,,,,,,,,
2022-10-15T01:00:00,1839A,111.3009,30.7157,宜昌市,四零三,,,,,,,,,,,,,,,,
2022-10-15T01:00:00,1840A,111.2992,30.6981,宜昌市,白龙岗,,27,27,38,17,19,141,74,74,74,15,32,4,5,0.4,0.4
2022-10-15T01:00:00,1841A,111.3549,30.6465,宜昌市,伍家岗,颗粒物(PM10),51,52,39,29,19,157,7,7,7,68,42,5,5,0.6,0.4
2022-10-15T01:00:00,1842A,111.2628,30.6961,宜昌市,点军区,细颗粒物(PM2.5),55,53,38,39,23,142,42,42,42,16,20,6,6,0.5,0.4
2022-10-15T01:00:00,1843A,111.3275,30.7819,宜昌市,夷陵区,颗粒物(PM10),57,63,45,29,24,148,43,43,43,28,28,7,8,0.4,0.4
2022-10-15T01:00:00,1844A,112.2494,30.3197,荆州市,市图书馆,细颗粒物(PM2.5),75,72,63,55,48,178,118,118,118,22,20,8,7,0.7,0.6
2022-10-15T01:00:00,1845A,112.2008,30.3544,荆州市,市委党校,细颗粒物(PM2.5),78,78,63,57,42,179,83,83,83,37,21,10,7,0.9,0.8
2022-10-15T01:00:00,1847A,113.1094,29.3578,岳阳市,南湖风景区,细颗粒物(PM2.5),72,80,65,52,49,181,105,105,105,38,32,17,12,0.9,0.7
2022-10-15T01:00:00,1848A,113.1493,29.4251,岳阳市,城陵矶,细颗粒物(PM2.5),89,113,74,66,45,162,29,29,29,93,48,9,12,0.8,0.7
2022-10-15T01:00:00,1849A,113.1497,29.3575,岳阳市,开发区,细颗粒物(PM2.5),103,84,67,77,51,169,52,52,52,57,31,13,10,0.8,0.6
2022-10-15T01:00:00,1850A,113.2621,29.4758,岳阳市,云溪区,细颗粒物(PM2.5),74,85,65,54,41,175,98,98,98,32,27,8,7,0.8,0.6
2022-10-15T01:00:00,1851A,112.9943,29.4402,岳阳市,君山区,细颗粒物(PM2.5),117,114,67,88,48,179,92,92,92,28,24,10,9,0.7,0.6
2022-10-15T01:00:00,1852A,113.2117,29.355,岳阳市,金凤水库(对照点),细颗粒物(PM2.5),67,72,65,48,39,180,96,96,96,30,22,7,7,0.8,0.7
2022-10-15T01:00:00,1854A,111.6975,28.9703,常德市,市二中,细颗粒物(PM2.5),82,90,73,60,46,185,38,38,38,68,29,8,8,0.6,0.5
2022-10-15T01:00:00,1857A,111.7158,29.1456,常德市,白鹤山(对照点),细颗粒物(PM2.5),65,60,47,47,30,187,142,142,142,13,12,8,6,0.4,0.4
2022-10-15T01:00:00,1858A,110.5319,29.1217,张家界市,永定新区,颗粒物(PM10),52,54,44,35,26,146,59,59,59,35,27,4,4,0.3,0.3
2022-10-15T01:00:00,1859A,110.4697,29.1242,张家界市,电业局,,37,37,37,23,22,157,86,86,86,15,18,4,4,0.3,0.3
2022-10-15T01:00:00,1860A,110.5594,29.3547,张家界市,未央路,,,30,32,24,24,147,,,,9,9,3,4,0.2,0.2
2022-10-15T01:00:00,1861A,110.4417,29.315,张家界市,袁家界(对照点),,41,41,32,21,20,141,11,11,11,14,13,10,10,0.5,0.4
2022-10-15T01:00:00,1862A,110.4144,25.3167,桂林市,电子科大尧山校区(对照点),臭氧1小时,87,56,54,36,38,208,189,189,189,8,8,17,16,0.7,0.7
2022-10-15T01:00:00,1863A,110.2819,25.2697,桂林市,监测站,颗粒物(PM10),53,55,56,35,37,173,156,156,156,14,16,10,10,0.5,0.5
2022-10-15T01:00:00,1864A,110.3089,25.2708,桂林市,龙隐路小学,细颗粒物(PM2.5),55,50,47,39,38,180,155,155,155,12,11,11,11,0.7,0.6
2022-10-15T01:00:00,1865A,110.2869,25.2178,桂林市,八中,,49,46,52,34,35,174,155,155,155,15,16,10,10,0.5,0.5
2022-10-15T01:00:00,1866A,109.2262,21.588,北海市,牛尾岭水库(对照点),,,,,,,,,,,,,,,,
2022-10-15T01:00:00,1867A,109.1436,21.4086,北海市,海滩公园,颗粒物(PM10),55,59,51,29,27,184,159,159,159,10,12,11,11,0.6,0.6
2022-10-15T01:00:00,1868A,109.0981,21.4661,北海市,新市环保局,细颗粒物(PM2.5),64,62,50,46,37,182,138,138,138,13,11,11,11,0.5,0.5
2022-10-15T01:00:00,1869A,109.1778,21.5233,北海市,北海工业园,"颗粒物(PM10),细颗粒物(PM2.5)",55,60,62,39,35,170,133,133,133,16,19,13,11,0.6,0.6
2022-10-15T01:00:00,1870A,109.4856,24.3895,柳州市,柳东小学,,46,46,41,27,30,163,143,143,143,8,8,9,12,0.6,0.5
2022-10-15T01:00:00,1871A,109.4157,24.3277,柳州市,环保监测站,,50,50,55,32,35,168,111,111,111,26,25,20,22,0.7,0.7
2022-10-15T01:00:00,1872A,109.389,24.341,柳州市,河西水厂,颗粒物(PM10),65,80,82,33,45,149,77,77,77,34,34,18,28,0.9,0.9
2022-10-15T01:00:00,1873A,109.4311,24.2921,柳州市,市四中,颗粒物(PM10),57,63,58,29,34,165,114,114,114,17,19,13,19,0.6,0.7
2022-10-15T01:00:00,1874A,109.4006,24.3631,柳州市,市九中,细颗粒物(PM2.5),63,64,69,45,39,144,97,97,97,26,29,29,25,0.8,0.8
2022-10-15T01:00:00,1875A,109.4958,24.3134,柳州市,古亭山,,46,23,43,22,27,174,145,145,145,15,18,13,13,0.6,0.5
2022-10-15T01:00:00,1876A,109.5078,18.2489,三亚市,河东子站,,27,11,18,4,10,136,85,85,85,3,5,3,4,0.4,0.4
2022-10-15T01:00:00,1877A,109.4964,18.2681,三亚市,河西子站,,25,14,19,5,12,128,77,77,77,3,6,4,4,0.4,0.4
2022-10-15T01:00:00,1878A,104.7778,31.4741,绵阳市,富乐山,颗粒物(PM10),56,61,61,36,35,91,24,24,24,36,32,5,11,0.6,0.6
2022-10-15T01:00:00,1879A,104.7563,31.4535,绵阳市,市人大,细颗粒物(PM2.5),90,106,77,67,52,87,0,0,0,67,52,3,12,0.8,0.7
2022-10-15T01:00:00,1880A,104.6697,31.4668,绵阳市,高新区自来水公司,颗粒物(PM10),91,132,96,56,48,89,5,5,5,59,42,25,22,0.8,0.6
2022-10-15T01:00:00,1881A,104.7287,31.5075,绵阳市,三水厂,细颗粒物(PM2.5),99,113,79,74,49,92,1,1,1,48,44,5,10,0.8,0.6
2022-10-15T01:00:00,1882A,104.563,28.793,宜宾市,石马中学(对照点),颗粒物(PM10),64,77,75,36,43,81,6,6,6,40,23,9,8,0.6,0.6
2022-10-15T01:00:00,1883A,104.6201,28.7728,宜宾市,市委,细颗粒物(PM2.5),65,75,62,47,43,78,6,6,6,54,38,7,8,0.5,0.5
2022-10-15T01:00:00,1884A,104.6055,28.793,宜宾市,宜宾四中,细颗粒物(PM2.5),67,76,70,48,48,90,3,3,3,56,32,10,8,0.7,0.7
2022-10-15T01:00:00,1885A,104.639,28.7562,宜宾市,市政府,颗粒物(PM10),67,84,73,46,46,82,1,1,1,59,38,7,8,0.7,0.6
2022-10-15T01:00:00,1886A,104.5742,28.7199,宜宾市,黄金嘴,颗粒物(PM10),60,69,57,42,39,85,2,2,2,48,34,8,9,0.8,0.7
2022-10-15T01:00:00,1888A,101.6891,26.571,攀枝花市,弄弄坪,,25,25,32,13,17,28,25,25,25,17,25,13,12,0.8,0.8
2022-10-15T01:00:00,1889A,101.5769,26.5928,攀枝花市,河门口,,46,43,27,27,16,31,4,4,4,41,27,76,33,4.6,1.9
2022-10-15T01:00:00,1890A,101.7169,26.585,攀枝花市,炳草岗,,23,23,31,14,18,24,24,24,24,18,26,20,16,0.9,0.9
2022-10-15T01:00:00,1891A,101.7369,26.5008,攀枝花市,仁和,细颗粒物(PM2.5),72,87,34,52,20,39,5,5,5,33,19,266,48,2.5,1.1
2022-10-15T01:00:00,1893A,105.4324,28.9634,泸州市,九狮山(对照点),细颗粒物(PM2.5),94,105,65,70,66,73,24,24,24,21,21,9,11,0.4,0.4
2022-10-15T01:00:00,1894A,105.4427,28.9063,泸州市,小市上码头,细颗粒物(PM2.5),150,144,108,115,84,112,45,45,45,34,28,33,17,0.7,0.6
2022-10-15T01:00:00,1895A,105.4241,28.8573,泸州市,兰田宪桥,细颗粒物(PM2.5),110,107,95,83,73,106,19,19,19,37,26,8,15,0.8,0.7
2022-10-15T01:00:00,1896A,105.4379,28.8833,泸州市,市环监站,细颗粒物(PM2.5),135,133,103,103,75,89,26,26,26,42,31,10,21,0.8,0.6
2022-10-15T01:00:00,1897A,104.7547,29.3628,自贡市,大塘山(对照点),,,,,,,,,,,,,,,,
2022-10-15T01:00:00,1900A,104.7692,29.3411,自贡市,春华路,,,,,,,,,,,,,,,,
2022-10-15T01:00:00,1901A,104.4239,31.1208,德阳市,东山公园,细颗粒物(PM2.5),64,72,91,46,55,86,34,34,34,36,47,5,6,0.6,0.7
2022-10-15T01:00:00,1902A,104.3826,31.1317,德阳市,西小区,颗粒物(PM10),70,90,100,39,48,64,1,1,1,70,63,5,6,0.9,0.7
2022-10-15T01:00:00,1903A,104.4053,31.1167,德阳市,市检察院,,,,,,,,,,,,,,,,
2022-10-15T01:00:00,1904A,104.3553,31.1091,德阳市,耐火材料厂,颗粒物(PM10),87,124,106,55,59,79,3,3,3,64,55,9,9,0.7,0.7
2022-10-15T01:00:00,1905A,106.056,30.8064,南充市,西山风景区(对照点),,,,,,,,,,,,,,,,
2022-10-15T01:00:00,1906A,106.0789,30.8023,南充市,南充市委,,,,68,,38,17,,8,,,33,,13,,0.6
2022-10-15T01:00:00,1907A,106.1031,30.8217,南充市,南充炼油厂,细颗粒物(PM2.5),77,101,79,56,43,54,14,14,14,41,36,25,14,0.7,0.6
2022-10-15T01:00:00,1908A,106.1064,30.7856,南充市,高坪区监测站,细颗粒物(PM2.5),122,110,77,92,54,46,17,17,17,28,30,66,23,0.6,0.6
2022-10-15T01:00:00,1909A,106.0642,30.7636,南充市,嘉陵区环保局,细颗粒物(PM2.5),120,115,76,91,65,52,11,11,11,34,36,27,18,0.6,0.5
2022-10-15T01:00:00,1910A,106.1087,30.8388,南充市,市环境监测站,细颗粒物(PM2.5),83,87,69,61,46,47,1,1,1,36,34,12,14,0.7,0.6
2022-10-15T01:00:00,1911A,106.9222,27.6869,遵义市,丁字口,,42,39,51,29,37,96,72,72,72,7,9,6,7,0.5,0.6
2022-10-15T01:00:00,1912A,106.9242,27.7019,遵义市,凤凰山,,47,47,50,24,34,114,81,81,81,13,10,4,5,0.5,0.6
2022-10-15T01:00:00,1913A,106.8906,27.6486,遵义市,忠庄,颗粒物(PM10),51,52,49,29,30,101,69,69,69,11,13,1,2,0.4,0.4
2022-10-15T01:00:00,1914A,106.9231,27.6506,遵义市,舟水桥,颗粒物(PM10),52,53,57,31,33,99,66,66,66,17,16,4,4,0.3,0.4
2022-10-15T01:00:00,1915A,106.9178,27.72,遵义市,干田坝,,47,47,52,26,36,106,70,70,70,12,10,5,5,0.5,0.5
2022-10-15T01:00:00,1916A,103.7897,25.5035,曲靖市,环境监测站,,45,42,52,31,39,91,36,36,36,13,18,3,5,0.6,0.6
2022-10-15T01:00:00,1917A,103.8,25.5364,曲靖市,烟厂办公区,,39,38,48,27,32,95,39,39,39,12,15,9,10,0.6,0.7
2022-10-15T01:00:00,1918A,108.7197,34.3956,咸阳市,气象站(对照点),颗粒物(PM10),81,112,95,49,48,46,4,4,4,63,53,8,7,0.9,0.9
2022-10-15T01:00:00,1919A,108.673,34.3155,咸阳市,实验中学,颗粒物(PM10),78,106,109,38,45,60,3,3,3,55,46,5,5,0.9,0.9
2022-10-15T01:00:00,1920A,108.7233,34.3617,咸阳市,师范学院,颗粒物(PM10),84,118,109,38,48,47,1,1,1,56,46,7,6,0.8,1
2022-10-15T01:00:00,1922A,109.0656,35.0994,铜川市,党校(对照点),颗粒物(PM10),56,62,68,34,46,64,2,2,2,45,48,12,13,0.6,0.8
2022-10-15T01:00:00,1923A,109.0697,35.0697,铜川市,王益区政府,颗粒物(PM10),57,63,76,34,46,78,4,4,4,37,39,11,11,0.8,1
2022-10-15T01:00:00,1924A,108.9344,34.9058,铜川市,新区管委会,颗粒物(PM10),59,68,88,34,45,76,13,13,13,37,38,8,12,0.6,0.8
2022-10-15T01:00:00,1925A,108.9589,34.8731,铜川市,新区兰芝公司,,,,,,,,,,,,,,,,
2022-10-15T01:00:00,1926A,109.4131,36.6275,延安市,枣园(对照点),,38,38,33,13,15,110,6,6,6,37,23,4,4,0.6,0.6
2022-10-15T01:00:00,1927A,109.4761,36.6028,延安市,延大医附院,颗粒物(PM10),53,56,45,14,18,105,3,3,3,46,30,5,5,0.5,0.5
2022-10-15T01:00:00,1928A,109.4824,36.5767,延安市,市监测站,,,,,,,,,,,,,,,,
2022-10-15T01:00:00,1929A,109.5056,36.6106,延安市,百米大道,颗粒物(PM10),53,56,46,24,22,101,3,3,3,56,38,6,6,0.7,0.6
2022-10-15T01:00:00,1930A,107.185,34.3063,宝鸡市,庙沟村(对照点),,24,24,30,10,15,83,41,41,41,35,21,5,6,0.3,0.4
2022-10-15T01:00:00,1931A,107.0708,34.3017,宝鸡市,竹园沟,,37,37,31,12,17,96,36,36,36,15,17,6,7,0.4,0.5
2022-10-15T01:00:00,1932A,107.1906,34.3672,宝鸡市,三陆医院,颗粒物(PM10),55,59,58,35,31,69,10,10,10,28,27,8,7,0.5,0.6
2022-10-15T01:00:00,1933A,107.1431,34.3547,宝鸡市,监测站,,34,34,41,17,20,59,13,13,13,36,34,6,7,0.4,0.6
2022-10-15T01:00:00,1934A,107.1186,34.3739,宝鸡市,技工学校,颗粒物(PM10),53,56,45,16,26,81,20,20,20,28,25,6,7,0.6,0.7
2022-10-15T01:00:00,1935A,107.3906,34.3528,宝鸡市,陈仓区环保局家属楼,颗粒物(PM10),59,68,71,24,26,82,2,2,2,48,38,6,7,0.5,0.6
2022-10-15T01:00:00,1936A,107.2058,34.3497,宝鸡市,文理学院,颗粒物(PM10),51,52,51,18,23,72,20,20,20,35,36,6,8,0.5,0.6
2022-10-15T01:00:00,1937A,107.2386,34.3622,宝鸡市,三迪小学,颗粒物(PM10),55,59,57,24,26,71,9,9,9,46,43,7,8,0.4,0.6
2022-10-15T01:00:00,1938A,109.5293,34.5101,渭南市,农科所(对照点),,45,36,104,31,75,76,35,35,35,26,44,5,9,0.5,0.8
2022-10-15T01:00:00,1939A,109.4974,34.4877,渭南市,日报社,颗粒物(PM10),52,53,107,31,76,56,4,4,4,55,56,10,12,0.7,1
2022-10-15T01:00:00,1940A,109.4636,34.493,渭南市,体育馆,颗粒物(PM10),54,58,104,33,79,80,10,10,10,59,56,11,10,0.5,0.8
2022-10-15T01:00:00,1941A,109.4259,34.5023,渭南市,高新一小,"颗粒物(PM10),细颗粒物(PM2.5)",67,84,109,48,76,68,3,3,3,49,54,9,11,0.4,0.6
2022-10-15T01:00:00,1943A,102.1725,38.5339,金昌市,新川苑,,50,50,56,13,20,100,48,48,48,25,21,8,20,0.7,0.7
2022-10-15T01:00:00,1944A,102.1692,38.5167,金昌市,天庆家园,颗粒物(PM10),53,55,56,28,17,102,42,42,42,29,27,34,24,0.8,0.8
2022-10-15T01:00:00,1945A,98.2908,39.7711,嘉峪关市,气象局,颗粒物(PM10),53,56,44,12,13,99,81,81,81,10,16,4,11,0.2,0.3
2022-10-15T01:00:00,1947A,106.3394,38.817,石嘴山市,沙湖旅游区(对照点),颗粒物(PM10),72,94,90,41,36,123,16,16,16,52,25,8,12,0.5,0.5
2022-10-15T01:00:00,1948A,106.3668,39.0145,石嘴山市,大武口朝阳西街,颗粒物(PM10),63,75,89,24,40,111,77,77,77,19,35,12,23,0.5,0.9
2022-10-15T01:00:00,1949A,106.7704,39.2282,石嘴山市,惠农南大街,"颗粒物(PM10),细颗粒物(PM2.5)",78,106,85,57,41,121,1,1,1,70,41,36,36,1.1,1
2022-10-15T01:00:00,1950A,106.7099,39.1325,石嘴山市,红果子镇惠新街,细颗粒物(PM2.5),163,206,135,124,54,116,18,18,18,80,46,62,36,1.1,0.9
2022-10-15T01:00:00,1951A,84.895,45.6094,克拉玛依市,长征新村,颗粒物(PM10),54,57,43,13,10,98,40,40,40,36,26,5,6,0.4,0.4
2022-10-15T01:00:00,1952A,84.8988,45.5893,克拉玛依市,南林小区,颗粒物(PM10),56,62,47,31,19,110,6,6,6,70,35,3,3,1.3,0.7
2022-10-15T01:00:00,1953A,85.1186,45.6886,克拉玛依市,白碱滩区,,,,,,,,,,,,,,,,
2022-10-15T01:00:00,1954A,84.905,44.3396,克拉玛依市,独山子区,颗粒物(PM10),57,63,51,24,16,125,66,66,66,17,12,7,10,0.5,0.4
2022-10-15T01:00:00,1955A,85.6979,46.098,克拉玛依市,乌尔禾区商贸楼,,39,39,22,22,11,103,38,38,38,28,12,4,4,0.8,0.8
2022-10-15T01:00:00,1956A,86.1472,41.7538,巴音郭楞州,孔雀公园,颗粒物(PM10),105,159,128,43,33,94,7,7,7,60,22,3,4,0.3,0.2
2022-10-15T01:00:00,1957A,86.1972,41.7166,巴音郭楞州,棉纺厂,颗粒物(PM10),120,190,152,56,36,98,42,42,42,18,13,5,5,0.2,0.2
2022-10-15T01:00:00,1958A,86.2357,41.7173,巴音郭楞州,经济开发区,颗粒物(PM10),105,160,131,39,26,96,55,55,55,8,9,6,6,0.3,0.2
2022-10-15T01:00:00,1959A,118.746,36.881,寿光市,监测站,,,,,,,,,,,,,,,,
2022-10-15T01:00:00,1960A,118.780,36.864,寿光市,世纪学校,,,,,,,,,,,,,,,,
2022-10-15T01:00:00,1961A,117.532,36.6868,济南市,东山小学,颗粒物(PM10),86,122,102,61,50,128,12,12,12,69,56,4,6,0.7,0.8
2022-10-15T01:00:00,1962A,117.541,36.710,章丘市,明水开发区,,,,,,,,,,,,,,,,
2022-10-15T01:00:00,1963A,120.610,36.440,即墨市,环保局子站,,,,,,,,,,,,,,,,
2022-10-15T01:00:00,1964A,120.470,36.390,即墨市,开发区子站,,,,,,,,,,,,,,,,
2022-10-15T01:00:00,1965A,120.005,35.878,胶南市,JN子站,,,,,,,,,,,,,,,,
2022-10-15T01:00:00,1966A,120.0405,35.8735,青岛市,黄岛区4号,颗粒物(PM10),74,97,38,51,21,124,17,17,17,94,46,7,6,0.8,0.6
2022-10-15T01:00:00,1967A,120.008,36.283,胶州市,胶州环保局,,,,,,,,,,,,,,,,
2022-10-15T01:00:00,1968A,120.014,36.253,胶州市,胶州一中,,,,,,,,,,,,,,,,
2022-10-15T01:00:00,1969A,120.537,36.865,莱西市,环保局子站,,,,,,,,,,,,,,,,
2022-10-15T01:00:00,1970A,120.515,36.885,莱西市,人民广场子站,,,,,,,,,,,,,,,,
2022-10-15T01:00:00,1971A,119.952,36.792,平度市,1号,,,,,,,,,,,,,,,,
2022-10-15T01:00:00,1972A,119.976,36.799,平度市,2号,,,,,,,,,,,,,,,,
2022-10-15T01:00:00,1973A,120.747,37.825,蓬莱市,蓬莱环保局,,,,,,,,,,,,,,,,
2022-10-15T01:00:00,1974A,120.773,37.809,蓬莱市,蓬莱博物馆,,,,,,,,,,,,,,,,
2022-10-15T01:00:00,1975A,120.399,37.374,招远市,招远环保局,,,,,,,,,,,,,,,,
2022-10-15T01:00:00,1976A,120.394,37.364,招远市,招远教育局,,,,,,,,,,,,,,,,
2022-10-15T01:00:00,1977A,119.941,37.177,莱州市,莱州环保局,,,,,,,,,,,,,,,,
2022-10-15T01:00:00,1978A,119.959,37.180,莱州市,莱州外经委,,,,,,,,,,,,,,,,
2022-10-15T01:00:00,1979A,122.471,37.154,荣成市,荣成市环保局办公楼,,,,,,,,,,,,,,,,
2022-10-15T01:00:00,1980A,122.410,37.161,荣成市,山东成山轮胎公司,,,,,,,,,,,,,,,,
2022-10-15T01:00:00,1981A,122.038,37.197,文登市,文登市环保局,,,,,,,,,,,,,,,,
2022-10-15T01:00:00,1982A,122.0693,37.2174,威海市,文登开发区,细颗粒物(PM2.5),92,88,67,68,44,136,18,18,18,52,34,5,5,0.8,0.7
2022-10-15T01:00:00,1983A,121.531,36.913,乳山市,乳山市环保局,,,,,,,,,,,,,,,,
2022-10-15T01:00:00,1984A,121.544,36.907,乳山市,乳山市气象局,,,,,,,,,,,,,,,,
2022-10-15T01:00:00,1985A,120.636,31.155,吴江市,吴江市环保局,,,,,,,,,,,,,,,,
2022-10-15T01:00:00,1986A,120.635,31.170,吴江市,教师进修学校,,,,,,,,,,,,,,,,
2022-10-15T01:00:00,1987A,120.658,31.172,吴江市,吴江开发区,,,,,,,,,,,,,,,,
2022-10-15T01:00:00,1988A,120.953,31.388,昆山市,昆山实验小学,,,,,,,,,,,,,,,,
2022-10-15T01:00:00,1989A,120.999,31.381,昆山市,震川中学,,,,,,,,,,,,,,,,
2022-10-15T01:00:00,1990A,120.758,31.670,常熟市,海虞子站,,,,,,,,,,,,,,,,
2022-10-15T01:00:00,1991A,120.721,31.671,常熟市,兴福子站,,,,,,,,,,,,,,,,
2022-10-15T01:00:00,1992A,120.734,31.656,常熟市,菱塘子站,,,,,,,,,,,,,,,,
2022-10-15T01:00:00,1993A,120.526,31.874,张家港市,张家港市监测站,,,,,,,,,,,,,,,,
2022-10-15T01:00:00,1994A,120.550,31.882,张家港市,城北小学,,,,,,,,,,,,,,,,
2022-10-15T01:00:00,1995A,121.115,31.453,太仓市,太仓市监测站,,,,,,,,,,,,,,,,
2022-10-15T01:00:00,1996A,121.140,31.422,太仓市,科教新城实小,,,,,,,,,,,,,,,,
2022-10-15T01:00:00,1997A,119.146,31.955,句容市,消防指挥中心,,,,,,,,,,,,,,,,
2022-10-15T01:00:00,1998A,119.180,31.955,句容市,房家坝,,,,,,,,,,,,,,,,
2022-10-15T01:00:00,1999A,120.268,31.920,江阴市,虹桥邮政,,,,,,,,,,,,,,,,
2022-10-15T01:00:00,2000A,120.237,31.909,江阴市,五星公园,,,,,,,,,,,,,,,,
2022-10-15T01:00:00,2001A,120.302,31.920,江阴市,第二实验小学,,,,,,,,,,,,,,,,
2022-10-15T01:00:00,2002A,119.818,31.354,宜兴市,宜兴市环保局,,,,,,,,,,,,,,,,
2022-10-15T01:00:00,2003A,119.794,31.371,宜兴市,宜园,,,,,,,,,,,,,,,,
2022-10-15T01:00:00,2004A,119.579,31.751,金坛市,金坛市环境监测站,,,,,,,,,,,,,,,,
2022-10-15T01:00:00,2005A,119.579,31.737,金坛市,金坛市自来水公司,,,,,,,,,,,,,,,,
2022-10-15T01:00:00,2006A,119.460,31.400,溧阳市,溧阳市东门子站,,,,,,,,,,,,,,,,
2022-10-15T01:00:00,2007A,119.438,31.317,溧阳市,燕山子站,,,,,,,,,,,,,,,,
2022-10-15T01:00:00,2008A,121.173,31.896,海门市,海门市监测站,,,,,,,,,,,,,,,,
2022-10-15T01:00:00,2009A,121.1518,31.89708,海门市,社会福利院,,,,,,,,,,,,,,,,
2022-10-15T01:00:00,2010A,119.7183,30.2366,临安市,市政府,,,,,,,,,,,,,,,,
2022-10-15T01:00:00,2011A,119.6942,30.2311,临安市,四中,,,,,,,,,,,,,,,,
2022-10-15T01:00:00,2012A,119.954,30.054,富阳市,监测站,,,,,,,,,,,,,,,,
2022-10-15T01:00:00,2013A,119.946,30.049,富阳市,富春二小,,,,,,,,,,,,,,,,
2022-10-15T01:00:00,2014A,120.091,29.305,义乌市,江东,,,,,,,,,,,,,,,,
2022-10-15T01:00:00,2015A,120.040,29.334,义乌市,北苑,,,,,,,,,,,,,,,,
2022-10-15T01:00:00,2016A,120.251,29.719,诸暨市,图书馆,,,,,,,,,,,,,,,,
2022-10-15T01:00:00,2017A,120.209,29.732,诸暨市,富林印务,,,,,,,,,,,,,,,,
2022-10-15T01:00:00,2018A,121.989,39.625,瓦房店市,抱龙山庄,,,,,,,,,,,,,,,,
2022-10-15T01:00:00,2019A,122.011,39.617,瓦房店市,东山公园,,,,,,,,,,,,,,,,
2022-10-15T01:00:00,2031A,113.1817,27.9958,株洲市,云田中学,颗粒物(PM10),56,61,63,35,40,197,115,115,115,28,28,9,9,0.6,0.6
2022-10-15T01:00:00,2054A,114.1099,32.1059,信阳市,平桥分局,颗粒物(PM10),78,105,85,56,46,169,20,20,20,66,37,9,10,0.7,0.6
2022-10-15T01:00:00,2064A,113.9956,32.1271,信阳市,南湾水厂,"颗粒物(PM10),细颗粒物(PM2.5)",77,104,78,56,41,173,103,103,103,26,22,9,9,0.6,0.6
2022-10-15T01:00:00,2065A,114.0775,32.1195,信阳市,市酿酒公司,颗粒物(PM10),70,89,68,39,38,173,39,39,39,66,38,9,10,0.8,0.7
2022-10-15T01:00:00,2066A,114.0609,32.1399,信阳市,审计局,细颗粒物(PM2.5),74,86,77,54,49,167,35,35,35,70,42,8,8,0.6,0.6
2022-10-15T01:00:00,2067A,114.6613,33.6128,周口市,市环境监测站,细颗粒物(PM2.5),93,133,84,69,41,161,55,55,55,43,29,8,9,0.9,0.8
2022-10-15T01:00:00,2068A,114.6758,33.6347,周口市,周口师范,细颗粒物(PM2.5),114,138,86,86,48,160,34,34,34,71,43,5,6,0.9,0.8
2022-10-15T01:00:00,2069A,114.6546,33.5979,周口市,市运管处,细颗粒物(PM2.5),95,138,81,71,43,164,69,69,69,47,38,5,5,0.8,0.7
2022-10-15T01:00:00,2070A,114.6369,33.6406,周口市,川汇区环保局,细颗粒物(PM2.5),138,167,100,105,63,158,40,40,40,62,47,5,4,2.8,1.2
2022-10-15T01:00:00,2075A,117.6336,24.4674,漳州市,九湖(对照点),,,,,,,,,,,,,,,,
2022-10-15T01:00:00,2160A,112.85,35.5051,晋城市,自来水公司,细颗粒物(PM2.5),92,119,87,68,55,98,6,6,6,62,36,8,10,1.3,1.1
2022-10-15T01:00:00,2161A,112.8318,35.4936,晋城市,白云商贸,"颗粒物(PM10),细颗粒物(PM2.5)",79,107,81,58,45,118,10,10,10,55,43,5,8,1.2,1.1
2022-10-15T01:00:00,2162A,112.8508,35.4887,晋城市,市环保局,细颗粒物(PM2.5),98,92,77,73,56,121,5,5,5,70,41,8,10,1.3,1.1
2022-10-15T01:00:00,2163A,112.8676,35.4897,晋城市,技术学院,细颗粒物(PM2.5),104,100,93,78,77,106,5,5,5,77,50,6,9,1.0,1.4
2022-10-15T01:00:00,2164A,112.8271,35.4828,晋城市,泽州一中,,,,,,,,,,,,,,,,
2022-10-15T01:00:00,2165A,112.8453,35.546,晋城市,白马寺 (对照点),,,,,,,,,,,,,,,,
2022-10-15T01:00:00,2166A,112.4397,39.3522,朔州市,平朔,颗粒物(PM10),78,105,58,28,29,110,10,10,10,58,22,14,8,0.6,0.5
2022-10-15T01:00:00,2167A,112.4575,39.3617,朔州市,朔唯,颗粒物(PM10),84,117,73,34,32,109,2,2,2,76,35,26,11,0.6,0.6
2022-10-15T01:00:00,2168A,112.4258,39.3197,朔州市,区政府,颗粒物(PM10),63,75,62,22,21,112,43,43,43,21,18,3,6,0.5,0.5
2022-10-15T01:00:00,2169A,112.4072,39.3278,朔州市,市环保局,,,,56,,33,63,,58,,,20,,10,,0.8
2022-10-15T01:00:00,2170A,112.4272,39.3681,朔州市,市二中,颗粒物(PM10),85,119,71,27,30,113,9,9,9,56,25,14,9,1.1,1
2022-10-15T01:00:00,2171A,112.7532,37.6945,晋中市,锦纶小区,细颗粒物(PM2.5),93,104,105,69,74,121,10,10,10,56,40,7,14,0.6,0.9
2022-10-15T01:00:00,2173A,112.7249,37.7067,晋中市,南都小区,"颗粒物(PM10),细颗粒物(PM2.5)",79,108,111,58,69,121,6,6,6,69,47,6,15,0.7,0.9
2022-10-15T01:00:00,2174A,112.6991,37.6982,晋中市,榆次区政府,细颗粒物(PM2.5),82,99,107,60,77,112,22,22,22,51,46,8,14,0.7,1
2022-10-15T01:00:00,2175A,110.9956,35.0147,运城市,运城中学,细颗粒物(PM2.5),110,117,159,83,113,94,44,44,44,15,22,7,15,0.8,0.8
2022-10-15T01:00:00,2176A,111.0233,35.0611,运城市,禹都开发区,,,,,,,,,,,,,,,,
2022-10-15T01:00:00,2178A,110.9686,35.0303,运城市,地区技校,细颗粒物(PM2.5),120,122,154,91,102,104,32,32,32,22,25,8,14,1.0,0.9
2022-10-15T01:00:00,2179A,111.0414,35.1147,运城市,空港新区,细颗粒物(PM2.5),144,149,144,110,105,111,50,50,50,18,28,8,12,0.5,0.6
2022-10-15T01:00:00,2181A,112.7383,38.4519,忻州市,开发区,颗粒物(PM10),58,65,84,24,48,120,7,7,7,68,44,15,14,0.8,1
2022-10-15T01:00:00,2182A,112.7003,38.4928,忻州市,会展中心,颗粒物(PM10),53,55,82,26,45,121,46,46,46,33,36,14,14,0.4,0.6
2022-10-15T01:00:00,2183A,111.1406,37.5211,吕梁市,环保局,颗粒物(PM10),63,76,71,28,31,108,3,3,3,52,44,5,6,0.3,0.5
2022-10-15T01:00:00,2185A,111.1297,37.5136,吕梁市,自来水公司,颗粒物(PM10),86,122,68,32,28,102,1,1,1,47,36,2,3,0.5,0.6
2022-10-15T01:00:00,2186A,106.8288,39.6778,乌海市,聚英学校,,,,,,,,,,,,,,,,
2022-10-15T01:00:00,2187A,106.8174,39.6973,乌海市,市林业局,颗粒物(PM10),54,58,43,26,19,112,52,52,52,26,18,14,6,0.6,0.4
2022-10-15T01:00:00,2188A,106.7907,39.6667,乌海市,中海勃湾学校,颗粒物(PM10),56,61,42,34,24,111,74,74,74,20,19,21,9,0.5,0.4
2022-10-15T01:00:00,2191A,122.2532,43.6801,通辽市,艺术职业学校,细颗粒物(PM2.5),145,139,120,111,81,127,75,75,75,26,39,6,10,0.3,0.5
2022-10-15T01:00:00,2192A,119.7594,49.2261,呼伦贝尔市,区环保局,,25,18,32,17,16,77,49,49,49,4,7,4,4,0.5,0.5
2022-10-15T01:00:00,2194A,107.5936,40.916,巴彦淖尔市,秋林养殖基地(对照点),,,,,,,,,,,,,,,,
2022-10-15T01:00:00,2195A,107.4212,40.761,巴彦淖尔市,附二中,颗粒物(PM10),58,65,83,26,23,93,72,72,72,8,10,3,4,0.3,0.4
2022-10-15T01:00:00,2196A,107.37,40.7372,巴彦淖尔市,市环保大楼,"颗粒物(PM10),细颗粒物(PM2.5)",58,66,93,41,42,96,67,67,67,9,15,4,5,0.4,0.6
2022-10-15T01:00:00,2197A,113.1306,40.9923,乌兰察布市,集宁新区,颗粒物(PM10),58,66,52,29,25,113,95,95,95,12,10,9,10,0.4,0.4
2022-10-15T01:00:00,2200A,122.0392,46.0656,兴安盟,胜华新制药厂,,46,46,30,28,15,100,48,48,48,14,12,3,4,0.3,0.3
2022-10-15T01:00:00,2201A,121.9504,46.0741,兴安盟,科右前旗环保局,,34,34,28,19,18,83,62,62,62,8,21,4,4,0.1,0.3
2022-10-15T01:00:00,2202A,116.1042,43.9317,锡林郭勒盟,市环保监测站,,38,38,32,3,7,85,27,27,27,16,14,10,8,0.2,0.3
2022-10-15T01:00:00,2203A,116.0781,43.9311,锡林郭勒盟,市政府,,36,36,30,6,5,84,27,27,27,24,19,8,9,0.2,0.2
2022-10-15T01:00:00,2204A,105.6467,38.8363,阿拉善盟,西城区西花园(对照点),,38,38,51,10,18,104,80,80,80,12,16,7,7,0.4,0.4
2022-10-15T01:00:00,2205A,105.6985,38.8411,阿拉善盟,蒙二幼,,38,30,48,26,22,102,82,82,82,7,13,8,8,0.3,0.4
2022-10-15T01:00:00,2206A,105.724,38.8516,阿拉善盟,环保局新楼,,30,18,26,13,17,99,95,95,95,6,10,6,5,0.3,0.3
2022-10-15T01:00:00,2207A,121.6094,41.998,阜新市,工业园区,颗粒物(PM10),105,160,163,65,48,136,4,4,4,89,58,15,19,1.4,1.2
2022-10-15T01:00:00,2208A,121.6697,42.0279,阜新市,长青街,细颗粒物(PM2.5),158,121,121,120,108,148,33,33,33,43,43,8,17,1.3,1.2
2022-10-15T01:00:00,2209A,121.6673,42.0705,阜新市,农业园区,细颗粒物(PM2.5),138,134,140,105,101,129,94,94,94,19,22,12,18,1.1,1
2022-10-15T01:00:00,2210A,121.6717,42.0224,阜新市,东苑,颗粒物(PM10),116,182,173,67,67,141,72,72,72,49,53,28,31,1.4,1.4
2022-10-15T01:00:00,2211A,121.6506,42.0498,阜新市,玉龙新城,细颗粒物(PM2.5),117,120,114,88,91,143,4,4,4,68,51,7,14,1.0,1
2022-10-15T01:00:00,2212A,123.2,41.1953,辽阳市,宏伟区,,46,46,44,27,25,100,78,78,78,13,21,8,10,0.7,0.7
2022-10-15T01:00:00,2213A,123.1683,41.2495,辽阳市,新华园,颗粒物(PM10),68,85,70,36,40,94,66,66,66,27,34,10,11,0.6,0.7
2022-10-15T01:00:00,2214A,123.2354,41.2639,辽阳市,滨河路,细颗粒物(PM2.5),64,35,45,46,41,112,97,97,97,13,27,4,5,0.8,0.9
2022-10-15T01:00:00,2215A,123.149,41.2991,辽阳市,铁西工业园,细颗粒物(PM2.5),99,76,81,74,71,96,77,77,77,29,42,8,11,0.6,0.7
2022-10-15T01:00:00,2216A,123.8139,42.3022,铁岭市,汇工街西,细颗粒物(PM2.5),90,84,88,67,66,141,91,91,91,27,30,16,15,1.5,1.3
2022-10-15T01:00:00,2217A,123.8649,42.2923,铁岭市,水上乐园,细颗粒物(PM2.5),103,95,66,77,58,121,66,66,66,35,36,11,9,1.2,1
2022-10-15T01:00:00,2218A,123.8486,42.2867,铁岭市,银州路东段,颗粒物(PM10),71,92,95,47,47,136,84,84,84,28,30,8,8,1.5,1.2
2022-10-15T01:00:00,2219A,123.7153,42.2217,铁岭市,金沙江路北,细颗粒物(PM2.5),97,67,65,72,65,136,76,76,76,27,39,18,18,1.6,1.3
2022-10-15T01:00:00,2220A,120.4318,41.5881,朝阳市,西梁,细颗粒物(PM2.5),98,102,88,73,65,127,71,71,71,25,22,13,17,1.1,1.1
2022-10-15T01:00:00,2221A,120.4521,41.5646,朝阳市,河畔小区,细颗粒物(PM2.5),89,100,90,66,65,130,91,91,91,20,19,12,19,1.1,1.1
2022-10-15T01:00:00,2222A,120.4176,41.5648,朝阳市,八里堡,细颗粒物(PM2.5),82,95,80,60,56,126,43,43,43,39,25,12,17,0.9,1
2022-10-15T01:00:00,2223A,120.3806,41.5969,朝阳市,农业园区,细颗粒物(PM2.5),90,99,84,67,63,128,91,91,91,25,27,10,15,1.2,1.2
2022-10-15T01:00:00,2225A,124.4002,43.1713,四平市,一商场,细颗粒物(PM2.5),88,108,88,65,54,131,96,96,96,19,30,13,10,1.0,0.8
2022-10-15T01:00:00,2226A,124.388,43.193,四平市,境园,细颗粒物(PM2.5),79,94,80,58,52,133,84,84,84,28,34,15,11,1.1,0.8
2022-10-15T01:00:00,2227A,125.1358,42.8845,辽源市,环保局,细颗粒物(PM2.5),97,90,74,72,55,136,15,15,15,46,43,8,9,1.1,1.2
2022-10-15T01:00:00,2229A,125.9358,41.7173,通化市,光明,,29,25,35,20,20,64,18,18,18,12,26,11,20,0.4,0.8
2022-10-15T01:00:00,2230A,125.9446,41.7325,通化市,铁路,,33,33,44,21,24,62,25,25,25,8,28,9,21,0.7,1.1
2022-10-15T01:00:00,2231A,126.4219,41.9171,白山市,喜丰,颗粒物(PM10),108,166,101,32,27,63,6,6,6,44,46,11,14,1.0,1
2022-10-15T01:00:00,2232A,126.4077,41.9419,白山市,环保局,,,,80,,24,12,,13,,,53,,12,,1.0
2022-10-15T01:00:00,2233A,124.8006,45.1214,松原市,江南,细颗粒物(PM2.5),78,90,91,57,59,103,79,79,79,16,37,5,7,0.8,0.8
2022-10-15T01:00:00,2234A,124.7965,45.1722,松原市,江北,细颗粒物(PM2.5),83,88,68,61,40,111,86,86,86,14,26,5,4,0.8,0.7
2022-10-15T01:00:00,2235A,122.7911,45.6077,白城市,洮北区环保局,细颗粒物(PM2.5),148,114,65,113,40,117,84,84,84,17,23,5,6,0.5,0.3
2022-10-15T01:00:00,2236A,122.8738,45.5725,白城市,市环保局,颗粒物(PM10),83,115,69,58,23,110,69,69,69,24,26,6,6,0.8,0.5
2022-10-15T01:00:00,2237A,129.47,42.8883,延边朝鲜族自治州,妇幼医院,颗粒物(PM10),52,53,48,27,24,32,4,4,4,31,35,6,6,0.7,0.7
2022-10-15T01:00:00,2238A,129.5055,42.9108,延边朝鲜族自治州,延边医院,颗粒物(PM10),65,79,63,38,33,23,6,6,6,39,45,9,9,1.0,0.9
2022-10-15T01:00:00,2239A,129.3964,42.8881,延边朝鲜族自治州,朝阳川镇医院,,40,40,44,21,23,60,5,5,5,22,27,6,6,0.7,0.6
2022-10-15T01:00:00,2240A,130.9762,45.3001,鸡西市,环保局,细颗粒物(PM2.5),74,95,72,54,37,118,18,18,18,52,40,2,6,1.0,0.7
2022-10-15T01:00:00,2243A,130.9429,45.3039,鸡西市,第一中学,细颗粒物(PM2.5),67,71,59,48,31,134,89,89,89,13,12,5,6,0.2,0.1
2022-10-15T01:00:00,2244A,130.2537,47.3416,鹤岗市,哈啤分公司,颗粒物(PM10),66,82,74,40,33,100,58,58,58,23,33,6,9,0.5,0.6
2022-10-15T01:00:00,2245A,130.2684,47.3086,鹤岗市,斯达机电,细颗粒物(PM2.5),79,88,84,58,38,111,58,58,58,31,29,7,6,0.7,0.6
2022-10-15T01:00:00,2246A,130.3114,47.3388,鹤岗市,东山纸板厂,颗粒物(PM10),96,142,130,48,45,104,7,7,7,42,42,8,9,1.2,1.1
2022-10-15T01:00:00,2247A,130.1097,47.3382,鹤岗市,五号水库(对照点),,30,30,39,11,22,114,54,54,54,12,15,6,7,0.1,0.1
2022-10-15T01:00:00,2248A,131.1511,46.6937,双鸭山市,双合村,细颗粒物(PM2.5),98,132,106,73,54,129,67,67,67,24,31,12,13,1.9,1.6
2022-10-15T01:00:00,2249A,131.1652,46.6191,双鸭山市,南小市,细颗粒物(PM2.5),57,61,89,40,42,128,75,75,75,9,24,4,8,0.4,0.5
2022-10-15T01:00:00,2250A,131.1524,46.6554,双鸭山市,环保局,颗粒物(PM10),69,88,78,44,44,133,56,56,56,26,31,4,7,0.9,0.7
2022-10-15T01:00:00,2251A,131.12,46.5656,双鸭山市,苗圃(对照点),,,,41,,35,93,,82,,,8,,5,,0.5
2022-10-15T01:00:00,2252A,128.5159,47.4311,伊春市,环保局,,33,18,35,23,29,76,29,29,29,14,21,5,6,0.5,0.6
2022-10-15T01:00:00,2253A,128.9102,47.7412,伊春市,电力嘉园,,25,25,37,13,18,78,20,20,20,13,20,4,7,0.4,0.4
2022-10-15T01:00:00,2254A,129.5029,48.471,伊春市,汤旺河国家公园(对照点),,,,,8,16,77,17,17,17,3,5,5,5,0.2,0.3
2022-10-15T01:00:00,2255A,130.2751,46.8028,佳木斯市,佳纺,细颗粒物(PM2.5),75,92,75,55,44,130,37,37,37,20,22,3,3,1.4,1.2
2022-10-15T01:00:00,2256A,130.3995,46.8307,佳木斯市,发电厂,细颗粒物(PM2.5),107,113,86,80,52,129,34,34,34,23,22,1,2,0.9,0.8
2022-10-15T01:00:00,2257A,130.3258,46.7975,佳木斯市,环保局,颗粒物(PM10),59,68,56,25,21,128,92,92,92,20,22,4,5,0.7,0.7
2022-10-15T01:00:00,2258A,130.3648,46.8032,佳木斯市,十一中,细颗粒物(PM2.5),87,74,62,64,47,129,53,53,53,47,29,2,4,0.8,0.8
2022-10-15T01:00:00,2259A,130.3794,46.7588,佳木斯市,四丰(对照点),,,65,51,67,47,132,95,95,95,,,1,1,0.6,0.5
2022-10-15T01:00:00,2262A,131.0518,45.8751,七台河市,新一中(对照点),,,,,,,150,41,41,41,17,28,8,11,0.0,0.3
2022-10-15T01:00:00,2263A,127.4833,50.2524,黑河市,交通局,,36,36,37,17,13,77,50,50,50,9,15,7,6,0.9,0.9
2022-10-15T01:00:00,2264A,127.5144,50.2341,黑河市,环保局,,16,9,10,10,12,81,51,51,51,10,11,8,8,0.3,0.2
2022-10-15T01:00:00,2265A,127.5291,50.2472,黑河市,大黑河岛(对照点),,,,,,,83,46,46,46,3,3,6,6,0.2,0.3
2022-10-15T01:00:00,2266A,126.9785,46.6365,绥化市,人和东街,细颗粒物(PM2.5),132,145,115,100,75,116,62,62,62,23,33,10,10,0.9,0.8
2022-10-15T01:00:00,2267A,126.964,46.6528,绥化市,党政办公中心,细颗粒物(PM2.5),145,116,92,111,71,113,77,77,77,22,28,9,10,1.0,0.7
2022-10-15T01:00:00,2269A,124.1069,50.4097,大兴安岭地区,科技局,,28,25,31,19,12,82,50,50,50,9,8,4,4,0.3,0.2
2022-10-15T01:00:00,2270A,117.396,32.939,蚌埠市,工人疗养院,细颗粒物(PM2.5),118,142,71,89,40,136,64,64,64,34,24,6,9,0.5,0.3
2022-10-15T01:00:00,2271A,117.3605,32.9427,蚌埠市,百货大楼,细颗粒物(PM2.5),78,93,56,57,35,133,57,57,57,42,31,8,9,0.6,0.4
2022-10-15T01:00:00,2273A,117.4185,32.8911,蚌埠市,蚌埠学院,颗粒物(PM10),67,83,59,44,30,135,11,11,11,101,55,15,15,0.4,0.3
2022-10-15T01:00:00,2274A,117.3533,32.9673,蚌埠市,淮上区政府,细颗粒物(PM2.5),94,109,58,70,31,131,39,39,39,43,22,7,8,0.8,0.5
2022-10-15T01:00:00,2275A,117.3145,32.8977,蚌埠市,高新区,颗粒物(PM10),80,109,51,46,28,136,46,46,46,56,41,8,9,0.5,0.5
2022-10-15T01:00:00,2277A,116.8305,32.7727,淮南市,潘集区政府,细颗粒物(PM2.5),85,92,75,63,49,149,50,50,50,34,23,7,6,0.3,0.3
2022-10-15T01:00:00,2278A,117.0067,32.6524,淮南市,师范学院,细颗粒物(PM2.5),65,59,61,47,40,143,52,52,52,32,31,8,11,0.6,0.6
2022-10-15T01:00:00,2279A,116.8569,32.5951,淮南市,谢家集区政府,细颗粒物(PM2.5),64,74,64,46,35,147,79,79,79,26,27,17,11,0.5,0.4
2022-10-15T01:00:00,2280A,116.8281,32.633,淮南市,八公山区政府,细颗粒物(PM2.5),64,51,52,46,40,149,65,65,65,29,19,24,12,0.5,0.4
2022-10-15T01:00:00,2281A,116.6325,32.6201,淮南市,焦岗湖风景区管理处(对照点),颗粒物(PM10),56,61,68,32,36,150,39,39,39,18,10,5,5,0.3,0.4
2022-10-15T01:00:00,2282A,116.8004,33.975,淮北市,监测站,,50,50,59,18,34,160,67,67,67,19,24,6,7,0.4,0.5
2022-10-15T01:00:00,2283A,116.8091,33.9007,淮北市,烈山区政府,颗粒物(PM10),53,56,52,35,37,160,52,52,52,36,26,4,5,0.5,0.5
2022-10-15T01:00:00,2284A,116.7856,33.9477,淮北市,职业技术学院,,40,40,57,26,33,147,76,76,76,26,32,6,7,0.7,0.8
2022-10-15T01:00:00,2285A,117.8177,30.9412,铜陵市,市第四中学,颗粒物(PM10),57,63,56,34,26,149,34,34,34,51,27,5,7,0.6,0.4
2022-10-15T01:00:00,2286A,117.8059,30.9273,铜陵市,市公路局,,49,49,50,29,31,147,57,57,57,33,23,7,7,0.4,0.4
2022-10-15T01:00:00,2287A,117.7807,30.9413,铜陵市,市新民污水厂,细颗粒物(PM2.5),54,54,47,38,26,155,17,17,17,56,47,9,10,0.5,0.4
2022-10-15T01:00:00,2288A,117.7439,30.8792,铜陵市,市第九中学,,,,75,71,32,145,7,7,7,96,46,4,11,0.7,1.1
2022-10-15T01:00:00,2289A,117.846,30.9413,铜陵市,车站新区,,50,50,39,32,22,151,40,40,40,39,23,4,5,0.4,0.4
2022-10-15T01:00:00,2290A,117.8483,30.97,铜陵市,市职教基地,颗粒物(PM10),62,74,49,40,27,156,22,22,22,36,17,4,6,0.6,0.5
2022-10-15T01:00:00,2291A,117.0809,30.5177,安庆市,环科院,颗粒物(PM10),56,61,52,38,30,158,97,97,97,31,19,8,9,0.7,0.6
2022-10-15T01:00:00,2292A,117.0331,30.5119,安庆市,马山宾馆,,50,41,48,35,29,157,116,116,116,17,18,7,7,0.7,0.6
2022-10-15T01:00:00,2294A,116.9896,30.6145,安庆市,安庆大学,细颗粒物(PM2.5),55,43,46,39,28,154,122,122,122,21,21,7,8,0.7,0.6
2022-10-15T01:00:00,2295A,118.2903,29.6963,黄山市,延安路89号,,26,26,20,2,12,118,38,38,38,12,12,5,5,0.2,0.2
2022-10-15T01:00:00,2296A,118.327,29.7178,黄山市,黄山东路89号,,33,33,30,22,14,115,39,39,39,15,14,5,6,0.1,0.1
2022-10-15T01:00:00,2297A,118.1371,30.2756,黄山市,黄山区政府5号楼,,43,43,33,20,15,131,48,48,48,10,9,8,8,0.4,0.2
2022-10-15T01:00:00,2298A,118.3093,32.3153,滁州市,老年大学,,39,39,39,26,22,134,47,47,47,23,22,3,5,0.4,0.3
2022-10-15T01:00:00,2299A,118.3244,32.2786,滁州市,人大宾馆,,49,49,48,20,17,133,57,57,57,34,28,5,4,0.3,0.3
2022-10-15T01:00:00,2301A,115.8277,32.8929,阜阳市,市监测站,细颗粒物(PM2.5),109,115,81,82,52,158,31,31,31,68,35,12,10,0.6,0.6
2022-10-15T01:00:00,2303A,115.8554,32.8605,阜阳市,开发区,细颗粒物(PM2.5),128,146,91,97,59,155,26,26,26,60,39,7,8,0.7,0.5
2022-10-15T01:00:00,2306A,116.989,33.6306,宿州市,火车站,,,,,,,,,,,,,,,,
2022-10-15T01:00:00,2307A,116.5079,31.737,六安市,监测大楼,,46,44,67,32,37,156,90,90,90,13,31,7,8,0.2,0.4
2022-10-15T01:00:00,2308A,116.4738,31.7643,六安市,皖西学院,颗粒物(PM10),60,70,74,42,35,162,92,92,92,14,28,7,7,0.4,0.5
2022-10-15T01:00:00,2309A,116.4996,31.7905,六安市,朝阳厂,细颗粒物(PM2.5),54,51,68,38,39,156,68,68,68,30,33,6,3,0.4,0.5
2022-10-15T01:00:00,2310A,116.5567,31.7886,六安市,开发区,"颗粒物(PM10),细颗粒物(PM2.5)",67,83,85,48,39,152,63,63,63,25,42,6,10,0.3,0.5
2022-10-15T01:00:00,2311A,115.8072,33.8399,亳州市,污水处理厂,细颗粒物(PM2.5),109,118,79,82,53,152,27,27,27,51,29,6,6,0.6,0.4
2022-10-15T01:00:00,2312A,115.7789,33.8518,亳州市,三国揽胜宫,细颗粒物(PM2.5),80,96,72,59,45,158,52,52,52,37,23,6,5,0.6,0.5
2022-10-15T01:00:00,2314A,117.47,30.6618,池州市,池州学院,"颗粒物(PM10),细颗粒物(PM2.5)",62,73,58,44,33,155,36,36,36,52,30,6,8,0.7,0.6
