timepoint,stationcode,longitude,latitude,area,positionname,primarypollutant,aqi,pm10,pm10_24h,pm2_5,pm2_5_24h,o3,o3_24h,o3_8h,o3_8h_24h,no2,no2_24h,so2,so2_24h,co,co_24h
2026-03-22T2300,2568A,102.2503,31.8896,阿坝藏族羌族自治州,马师校,,24,24,21,7,9,49,49,106,85,18,9,5,5,0.4,0.3
2026-03-22T2300,3994A,102.2174,31.9016,阿坝藏族羌族自治州,马尔康中学西区,,22,14,22,11,10,69,69,106,90,9,9,3,3,0.2,0.3
2026-03-22T2300,2695A,80.2899,41.1684,阿克苏地区,电视台,颗粒物(PM10),124,181,146,81,79,8,8,106,92,94,33,4,3,1.5,1.1
2026-03-22T2300,2696A,80.2592,41.1541,阿克苏地区,艺术中心,颗粒物(PM10),120,170,144,67,65,15,15,110,93,87,32,5,5,0.3,0.5
2026-03-22T2300,2205A,105.699,38.8409,阿拉善盟,蒙二幼,,48,48,81,11,23,83,83,90,84,5,6,8,7,0.5,0.5
2026-03-22T2300,2206A,105.7198,38.8508,阿拉善盟,环保局新楼,,33,33,78,3,20,82,82,86,80,4,5,7,7,0.4,0.3
2026-03-22T2300,2708A,88.1266,47.8515,阿勒泰地区,市站,,27,24,14,3,2,84,84,94,86,11,7,5,5,0.3,0.2
2026-03-22T2300,4166A,88.1198,47.7931,阿勒泰地区,阿勒泰路33号,,27,27,14,3,2,85,85,93,88,10,7,5,6,0.2,0.2
2026-03-22T2300,2630A,80.1171,32.4999,阿里地区,阿里监测站,,30,15,8,3,2,96,96,120,108,7,3,11,10,0.3,0.2
2026-03-22T2300,3192A,80.0906,32.5029,阿里地区,阿里藏医院,,35,8,5,3,2,112,112,127,115,1,2,5,5,0.1,0.1
2026-03-22T2300,2644A,109.0088,32.6974,安康市,汉滨区检察院,颗粒物(PM10),64,69,68,28,32,14,14,51,27,29,27,4,5,0.5,0.6
2026-03-22T2300,4054A,109.0324,32.6913,安康市,市邮政管理局,颗粒物(PM10),85,99,79,44,34,4,4,57,20,39,29,6,9,0.9,0.8
2026-03-22T2300,2291A,117.0806,30.5181,安庆市,环科院,细颗粒物(PM2.5),62,47,42,41,38,2,2,56,22,68,51,9,8,1.0,0.9
2026-03-22T2300,2292A,117.0331,30.5118,安庆市,马山宾馆,细颗粒物(PM2.5),62,NA,39,41,41,6,6,49,28,56,39,6,5,0.9,0.8
2026-03-22T2300,2294A,116.9897,30.6146,安庆市,安庆大学,,45,45,49,31,37,5,5,50,17,45,36,4,5,0.9,0.9
2026-03-22T2300,3173A,117.0598,30.5351,安庆市,市人大,,49,47,43,34,33,26,26,58,34,32,43,8,7,0.8,0.8
2026-03-22T2300,3123A,105.9408,26.2431,安顺市,凤凰山,,24,23,24,16,20,74,74,65,65,8,14,12,17,0.6,0.7
2026-03-22T2300,3124A,105.9443,26.2567,安顺市,金钟山,,32,NA,19,22,19,69,69,64,64,6,9,8,13,0.6,0.7
2026-03-22T2300,3125A,105.8983,26.248,安顺市,娄家坡,,24,24,22,15,18,74,74,72,72,5,11,7,14,0.7,0.8
2026-03-22T2300,1819A,114.3552,36.1017,安阳市,红庙街,颗粒物(PM10),74,83,87,28,45,40,40,95,73,41,17,2,4,0.4,0.5
2026-03-22T2300,1820A,114.361,36.0681,安阳市,银杏小区,颗粒物(PM10),77,87,91,36,47,22,22,99,71,49,18,2,4,0.2,0.3
2026-03-22T2300,3141A,114.3921,36.0879,安阳市,信访局,颗粒物(PM10),65,71,87,28,48,40,40,102,82,38,15,2,4,0.2,0.2
2026-03-22T2300,3669A,114.4706,36.0634,安阳市,左辅环卫站,颗粒物(PM10),65,70,106,23,46,58,58,98,81,23,12,4,4,0.3,0.5
2026-03-22T2300,4117A,114.2918,36.0769,安阳市,钢三路198号,颗粒物(PM10),85,99,93,33,46,15,15,93,67,60,20,4,7,0.5,0.6
2026-03-22T2300,1748A,123.0441,41.1201,鞍山市,深沟寺,细颗粒物(PM2.5),128,127,114,90,80,26,26,105,44,30,24,8,11,1.0,1.1
2026-03-22T2300,1749A,123.011,41.0931,鞍山市,太阳城,细颗粒物(PM2.5),163,160,116,124,87,38,38,113,59,35,21,7,9,1.1,1
2026-03-22T2300,1750A,123.0483,41.1445,鞍山市,太平,细颗粒物(PM2.5),139,146,121,102,80,13,13,104,47,45,25,9,11,1.5,1.1
2026-03-22T2300,1751A,122.964,41.0968,鞍山市,铁西三道街,细颗粒物(PM2.5),158,152,124,120,86,10,10,104,50,63,31,7,12,1.4,1.1
2026-03-22T2300,1753A,123.0219,41.0822,鞍山市,明达新区,细颗粒物(PM2.5),159,153,113,121,86,29,29,112,56,36,20,7,10,1.0,0.8
2026-03-22T2300,4201A,122.944647,41.082639,鞍山市,兴盛南路290号,细颗粒物(PM2.5),202,229,134,152,91,2,2,101,44,72,31,10,11,2.2,1.3
2026-03-22T2300,2195A,107.4206,40.7609,巴彦淖尔市,附二中,颗粒物(PM10),61,65,73,37,19,76,76,99,92,18,10,9,10,0.5,0.3
2026-03-22T2300,2196A,107.37,40.7372,巴彦淖尔市,市环保大楼,颗粒物(PM10),63,68,71,35,18,81,81,102,96,20,12,8,7,0.6,0.4
2026-03-22T2300,1956A,86.1476,41.7529,巴音郭楞蒙古自治州,孔雀公园,颗粒物(PM10),110,146,164,59,50,55,55,89,84,34,14,10,10,0.5,0.3
2026-03-22T2300,1957A,86.1971,41.7166,巴音郭楞蒙古自治州,棉纺厂,颗粒物(PM10),131,199,213,69,51,48,48,94,85,32,6,/,/,/,/
2026-03-22T2300,1958A,86.236,41.7172,巴音郭楞蒙古自治州,经济开发区,颗粒物(PM10),113,152,166,51,47,64,64,81,77,17,7,7,7,0.4,0.3
2026-03-22T2300,3181A,106.776805,31.852614,巴中市,市五中,,47,47,33,30,19,15,15,60,50,29,19,8,8,0.7,0.8
2026-03-22T2300,3183A,106.7419,31.8654,巴中市,圣泉水务公司,,44,44,26,22,15,44,44,65,58,18,16,9,9,0.6,0.7
2026-03-22T2300,3616A,106.7617,31.8343,巴中市,市中心医院,颗粒物(PM10),54,55,34,30,20,6,6,63,45,40,20,10,10,0.8,0.7
2026-03-22T2300,2235A,122.7909,45.608,白城市,洮北区环保局,细颗粒物(PM2.5),147,156,141,111,100,54,54,110,78,49,25,10,6,0.9,0.6
2026-03-22T2300,2236A,122.8741,45.5725,白城市,市环保局,细颗粒物(PM2.5),150,163,161,115,113,13,13,105,53,70,29,12,8,0.9,0.7
2026-03-22T2300,2231A,126.4219,41.9172,白山市,喜丰,细颗粒物(PM2.5),88,67,77,54,52,66,66,92,74,17,26,11,13,1.0,0.9
2026-03-22T2300,2232A,126.4082,41.9416,白山市,环保局,细颗粒物(PM2.5),80,50,63,50,54,68,68,98,56,14,22,10,11,0.9,0.8
2026-03-22T2300,2647A,104.1727,36.5448,白银市,第三小学,颗粒物(PM10),106,134,181,47,68,65,65,91,82,15,16,5,47,0.2,0.2
2026-03-22T2300,2648A,104.1467,36.5482,白银市,动力公司,颗粒物(PM10),108,140,195,49,67,69,69,84,79,13,23,4,26,0.5,0.6
2026-03-22T2300,2512A,106.6102,23.901,百色市,市监测站,细颗粒物(PM2.5),106,77,55,66,44,9,9,51,39,37,21,22,21,1.2,0.9
2026-03-22T2300,2513A,106.6524,23.8842,百色市,市中心血站,细颗粒物(PM2.5),110,75,61,70,51,14,14,51,40,38,21,20,19,1.0,0.9
2026-03-22T2300,4133A,106.6273,23.8798,百色市,龙景西路,细颗粒物(PM2.5),120,88,76,81,53,6,6,50,37,40,22,30,24,1.1,0.8
2026-03-22T2300,2270A,117.396,32.9389,蚌埠市,工人疗养院,细颗粒物(PM2.5),119,114,104,80,59,53,53,136,109,73,35,8,6,0.6,0.5
2026-03-22T2300,2271A,117.3606,32.9428,蚌埠市,百货大楼,细颗粒物(PM2.5),114,108,87,75,52,66,66,139,118,58,30,7,7,0.6,0.6
2026-03-22T2300,2273A,117.4183,32.8909,蚌埠市,蚌埠学院,细颗粒物(PM2.5),108,83,84,68,53,95,95,137,97,33,34,6,6,0.6,0.6
2026-03-22T2300,2274A,117.3534,32.9672,蚌埠市,淮上区政府,细颗粒物(PM2.5),117,100,88,78,56,102,102,144,124,36,35,6,7,0.6,0.5
2026-03-22T2300,2275A,117.3143,32.8977,蚌埠市,高新区,细颗粒物(PM2.5),106,102,85,66,53,76,76,131,115,50,27,8,8,0.7,0.6
2026-03-22T2300,3715A,117.3091,32.9314,蚌埠市,蚌埠田家炳中学,细颗粒物(PM2.5),115,110,102,76,55,74,74,135,117,48,26,5,7,0.6,0.5
2026-03-22T2300,1585A,109.8761,40.6533,包头市,市环境监测站,细颗粒物(PM2.5),106,116,52,66,22,22,22,117,96,88,19,9,8,0.8,0.5
2026-03-22T2300,1587A,109.9992,40.5843,包头市,包头八中,颗粒物(PM10),86,100,53,50,23,34,34,102,87,74,20,11,10,0.8,0.4
2026-03-22T2300,1589A,109.8641,40.6288,包头市,惠龙物流,细颗粒物(PM2.5),109,104,46,69,24,38,38,110,97,73,16,12,9,0.8,0.4
2026-03-22T2300,1590A,110.0376,40.5546,包头市,东河鸿龙湾,颗粒物(PM10),83,95,51,47,23,37,37,109,92,96,32,11,10,0.8,0.5
2026-03-22T2300,3283A,109.9154,40.5684,包头市,滨河大厦,细颗粒物(PM2.5),92,88,51,56,30,48,48,112,100,70,21,13,11,0.9,0.6
2026-03-22T2300,3419A,109.9449,40.6259,包头市,包头市委党校,颗粒物(PM10),70,78,43,44,20,37,37,108,94,70,17,11,9,0.6,0.4
2026-03-22T2300,3683A,109.8332,40.6577,包头市,昆区政府,细颗粒物(PM2.5),120,105,47,81,23,29,29,109,88,92,24,9,8,1.1,0.6
2026-03-22T2300,1931A,107.0802,34.3129,宝鸡市,竹园沟,颗粒物(PM10),104,130,140,43,38,50,50,106,84,20,15,6,6,0.4,0.4
2026-03-22T2300,1933A,107.1429,34.3549,宝鸡市,监测站,颗粒物(PM10),110,144,134,50,38,41,41,91,75,30,22,6,7,0.2,0.3
2026-03-22T2300,1934A,107.1172,34.3759,宝鸡市,技工学校,颗粒物(PM10),112,150,129,48,35,52,52,102,87,32,20,7,6,0.4,0.4
2026-03-22T2300,1936A,107.2025,34.3518,宝鸡市,文理学院,颗粒物(PM10),117,163,130,50,38,25,25,99,77,43,20,4,5,0.5,0.5
2026-03-22T2300,1937A,107.2396,34.3626,宝鸡市,三迪小学,颗粒物(PM10),115,157,139,55,42,33,33,99,79,54,29,4,5,0.5,0.5
2026-03-22T2300,4155A,107.1721,34.3558,宝鸡市,滨河北路,颗粒物(PM10),127,190,137,55,43,37,37,99,79,47,22,5,6,0.6,0.6
2026-03-22T2300,4308A,107.3898,34.3601,宝鸡市,陈仓区北开路21号,颗粒物(PM10),118,166,157,54,50,40,40,100,80,54,28,8,31,0.4,0.6
2026-03-22T2300,1051A,115.4803,38.8568,保定市,游泳馆,颗粒物(PM10),80,92,79,41,45,40,40,95,75,53,23,9,11,0.7,0.5
2026-03-22T2300,1052A,115.509,38.8895,保定市,华电二区,颗粒物(PM10),79,90,70,35,38,33,33,94,74,40,17,1,2,0.7,0.6
2026-03-22T2300,1053A,115.4588,38.9037,保定市,接待中心,细颗粒物(PM2.5),76,78,74,48,43,41,41,95,77,44,21,3,3,0.5,0.3
2026-03-22T2300,1054A,115.4484,38.8344,保定市,地表水厂,颗粒物(PM10),80,92,84,39,36,58,58,96,74,39,26,7,5,0.4,0.4
2026-03-22T2300,3581A,115.3136,38.9511,保定市,满城区生态环境分局,颗粒物(PM10),90,105,85,48,33,45,45,97,79,36,19,5,6,0.5,0.4
2026-03-22T2300,3582A,115.4709,38.7628,保定市,清苑区第二中学,颗粒物(PM10),80,92,91,38,43,69,69,97,77,23,22,9,7,0.6,0.4
2026-03-22T2300,3583A,115.6231,39.0223,保定市,徐水物探局,颗粒物(PM10),95,112,102,46,51,38,38,98,72,49,26,2,2,0.4,0.4
2026-03-22T2300,4004A,115.4199,38.8665,保定市,双鹰农机,颗粒物(PM10),98,116,101,50,47,52,52,100,80,36,23,4,4,0.5,0.4
2026-03-22T2300,4034A,115.515,38.8589,保定市,植保所站,颗粒物(PM10),93,110,96,51,45,24,24,93,67,60,26,4,3,0.7,0.3
2026-03-22T2300,2594A,99.1589,25.1137,保山市,市环境监测站,,21,18,26,10,22,67,67,92,87,8,13,5,5,0.3,0.3
2026-03-22T2300,2595A,99.1616,25.1381,保山市,市环保局,,25,NA,29,15,24,79,79,95,90,5,9,5,5,0.3,0.4
2026-03-22T2300,1867A,109.1435,21.4085,北海市,海滩公园,,33,32,26,23,13,54,54,75,70,11,8,8,7,0.6,0.5
2026-03-22T2300,1868A,109.0983,21.466,北海市,新市环保局,,29,29,23,18,15,54,54,73,69,10,8,8,8,0.6,0.5
2026-03-22T2300,1869A,109.1775,21.5232,北海市,北海工业园,NA,NA,30,31,22,16,48,48,70,64,NA,5,8,7,0.6,0.4
2026-03-22T2300,3400A,109.1844,21.4396,北海市,龙潭自来水厂,,43,32,22,30,12,46,46,69,65,8,5,4,4,0.8,0.6
2026-03-22T2300,1001A,116.3611,39.8786,北京市,万寿西宫,颗粒物(PM10),105,131,94,64,55,76,76,97,77,42,43,4,3,0.7,0.7
2026-03-22T2300,1003A,116.4174,39.9289,北京市,东四,细颗粒物(PM2.5),112,142,100,73,58,89,89,97,93,41,39,8,7,0.6,0.6
2026-03-22T2300,1004A,116.4073,39.8858,北京市,天坛,颗粒物(PM10),105,131,89,57,54,45,45,84,65,41,30,4,4,0.9,0.8
2026-03-22T2300,1005A,116.4622,39.9364,北京市,农展馆,细颗粒物(PM2.5),106,129,97,66,60,63,63,97,83,47,38,6,5,0.7,0.6
2026-03-22T2300,1006A,116.3399,39.9293,北京市,官园,细颗粒物(PM2.5),103,124,90,63,52,74,74,84,75,40,43,4,3,0.6,0.5
2026-03-22T2300,1007A,116.2879,39.9613,北京市,海淀万柳,,47,47,76,14,43,17,17,73,50,50,41,3,4,0.4,0.4
2026-03-22T2300,1008A,116.6635,40.1349,北京市,顺义新城,细颗粒物(PM2.5),114,150,98,75,62,85,85,102,89,24,23,8,6,0.7,0.5
2026-03-22T2300,1009A,116.6275,40.327,北京市,怀柔镇,,33,33,83,16,53,39,39,90,65,24,19,4,5,0.6,0.7
2026-03-22T2300,1010A,116.2295,40.217,北京市,昌平镇,,25,23,62,9,38,78,78,82,78,6,21,2,3,0.3,0.5
2026-03-22T2300,1011A,116.3968,39.982,北京市,奥体中心,细颗粒物(PM2.5),106,133,92,66,51,72,72,81,70,41,49,6,5,0.7,0.7
2026-03-22T2300,3418A,116.8336,40.4095,北京市,密云新城,,27,27,95,9,56,42,42,94,71,31,22,3,3,0.5,0.7
2026-03-22T2300,3671A,116.0879,39.9725,北京市,门头沟三家店,,42,42,73,15,43,13,13,86,45,46,32,4,4,0.4,0.5
2026-03-22T2300,3672A,116.1507,39.8246,北京市,丰台云岗,,46,46,78,13,41,38,38,92,84,44,26,2,3,0.4,0.5
2026-03-22T2300,3674A,115.9578,39.7602,北京市,房山燕山,,19,17,60,3,34,59,59,82,77,12,15,4,4,0.3,0.5
2026-03-22T2300,3675A,116.4669,39.7734,北京市,大兴旧宫,颗粒物(PM10),108,139,99,61,53,59,59,90,75,38,38,5,5,0.6,0.6
2026-03-22T2300,3694A,115.9859,40.4562,北京市,延庆石河营,,27,27,64,10,38,28,28,88,55,36,32,2,2,0.4,0.6
2026-03-22T2300,3695A,116.6151,40.3052,北京市,怀柔新城,,40,40,78,18,54,55,55,91,70,16,14,3,4,0.4,0.5
2026-03-22T2300,3696A,116.2542,39.8764,北京市,丰台小屯,颗粒物(PM10),83,95,94,34,46,11,11,83,49,92,53,5,5,0.6,0.4
2026-03-22T2300,3697A,116.8399,40.3843,北京市,密云镇,,39,39,94,16,61,30,30,96,60,52,35,4,4,0.4,0.6
2026-03-22T2300,4057A,115.9423,40.4431,北京市,延庆百泉,,18,18,60,7,35,39,39,80,64,28,24,1,2,0.4,0.5
2026-03-22T2300,4058A,116.6598,39.9164,北京市,通州新华,颗粒物(PM10),125,183,136,84,77,59,59,90,78,42,52,7,6,0.7,0.6
2026-03-22T2300,4182A,116.1942,39.9158,北京市,石景山八角,,47,47,83,15,43,15,15,83,60,55,33,3,3,0.4,0.5
2026-03-22T2300,4194A,117.078628,40.151726,北京市,平谷新城,细颗粒物(PM2.5),129,170,134,91,87,93,93,104,104,17,20,5,2,1.1,0.7
2026-03-22T2300,1761A,123.8274146,41.31234549,本溪市,大峪,细颗粒物(PM2.5),96,108,97,58,62,4,4,108,19,42,25,10,11,1.2,0.8
2026-03-22T2300,1763A,123.7169,41.3094,本溪市,彩屯,细颗粒物(PM2.5),126,134,104,88,72,6,6,98,23,32,30,9,14,1.8,1.9
2026-03-22T2300,1764A,123.7672166,41.28649327,本溪市,东明,细颗粒物(PM2.5),122,NA,66,84,64,5,5,110,28,45,25,10,10,1.3,0.8
2026-03-22T2300,1765A,123.799345,41.266614,本溪市,新立屯,细颗粒物(PM2.5),128,104,62,90,58,5,5,113,19,29,18,7,8,1.0,0.7
2026-03-22T2300,1766A,123.829144,41.336777,本溪市,威宁,颗粒物(PM10),75,84,90,40,55,8,8,104,20,27,22,7,9,1.1,0.8
2026-03-22T2300,2587A,105.287,27.3133,毕节市,八中,细颗粒物(PM2.5),68,59,38,44,23,40,40,76,64,14,12,11,11,0.7,0.6
2026-03-22T2300,2588A,105.3079,27.2987,毕节市,师专,细颗粒物(PM2.5),60,61,34,40,21,39,39,68,58,14,12,11,11,0.6,0.6
2026-03-22T2300,4263A,105.3688,27.3598,毕节市,工业大道,颗粒物(PM10),51,51,34,32,20,47,47,88,68,11,11,11,10,/,/
2026-03-22T2300,1629A,117.9961,37.3604,滨州市,第二水厂,细颗粒物(PM2.5),188,183,130,141,87,90,90,132,116,30,20,53,15,1.0,0.8
2026-03-22T2300,1630A,117.9789,37.3931,滨州市,北中新校,细颗粒物(PM2.5),158,149,123,120,86,92,92,132,113,33,23,13,9,0.5,0.4
2026-03-22T2300,3514A,117.9379,37.3959,滨州市,中海酒店,细颗粒物(PM2.5),150,136,124,114,84,106,106,134,121,26,23,15,13,0.8,0.7
2026-03-22T2300,3515A,117.9381509,37.35547456,滨州市,开发区一中,细颗粒物(PM2.5),179,175,134,135,86,95,95,122,112,22,15,48,19,1.0,0.8
2026-03-22T2300,3516A,118.0914,37.6938,滨州市,金海六路,细颗粒物(PM2.5),183,149,117,138,88,80,80,131,115,32,24,5,9,0.9,0.8
2026-03-22T2300,4028A,117.9955,37.3752,滨州市,滨州市西街道办事处,细颗粒物(PM2.5),168,173,132,127,85,92,92,129,114,30,21,19,12,1.1,0.9
2026-03-22T2300,2311A,115.8071,33.8399,亳州市,污水处理厂,细颗粒物(PM2.5),120,156,117,82,69,91,91,138,126,35,19,14,8,0.3,0.3
2026-03-22T2300,2312A,115.7789,33.8519,亳州市,三国揽胜宫,细颗粒物(PM2.5),132,169,132,95,74,96,96,130,121,23,15,14,7,0.4,0.3
2026-03-22T2300,3332A,115.7631,33.803,亳州市,亳州学院,细颗粒物(PM2.5),121,134,110,83,67,113,113,136,131,15,12,10,7,0.4,0.3
2026-03-22T2300,2693A,82.0482,44.8553,博尔塔拉蒙古自治州,市党校,颗粒物(PM10),85,98,63,22,21,65,65,107,102,26,7,4,3,0.3,0.3
2026-03-22T2300,2694A,82.0805,44.8966,博尔塔拉蒙古自治州,市环保局,颗粒物(PM10),75,84,56,27,25,66,66,97,90,34,22,4,3,0.4,0.5
2026-03-22T2300,1071A,116.8733,38.2922,沧州市,沧县城建局,细颗粒物(PM2.5),106,128,109,66,74,91,91,103,90,34,26,5,4,0.7,0.7
2026-03-22T2300,1072A,116.8462,38.3189,沧州市,电视转播站,细颗粒物(PM2.5),120,124,100,82,70,96,96,103,97,28,22,3,3,0.5,0.5
2026-03-22T2300,1073A,116.8588,38.3161,沧州市,市环保局,颗粒物(PM10),108,140,112,61,69,94,94,104,95,24,19,12,12,0.4,0.4
2026-03-22T2300,3324A,116.8011,38.294,沧州市,河北水利电力学院,细颗粒物(PM2.5),120,132,105,82,70,90,90,101,94,29,24,10,10,0.6,0.5
2026-03-22T2300,2622A,97.1813,31.1289,昌都市,昌都监测站,,26,26,11,12,5,72,72,101,85,12,8,4,4,0.7,0.6
2026-03-22T2300,3719A,97.1707,31.1428,昌都市,昌都会议中心,,30,12,9,11,7,93,93,113,100,6,5,5,5,0.4,0.4
2026-03-22T2300,2692A,87.2722,44.0298,昌吉回族自治州,新区政务中心,细颗粒物(PM2.5),72,64,40,46,29,72,72,100,96,47,32,8,8,0.9,0.7
2026-03-22T2300,3613A,87.3069,44.0093,昌吉回族自治州,亚心广场,颗粒物(PM10),74,83,51,37,27,81,81,112,110,39,26,13,13,0.8,0.9
2026-03-22T2300,4164A,87.2057,43.9289,昌吉回族自治州,财政所,颗粒物(PM10),80,92,49,37,23,51,51,92,82,23,13,8,9,0.6,0.6
2026-03-22T2300,1120A,125.2874,43.9024,长春市,客车厂,细颗粒物(PM2.5),209,242,150,159,126,12,12,107,62,95,52,9,12,1.7,1.1
2026-03-22T2300,1121A,125.2943,43.8508,长春市,邮电学院,细颗粒物(PM2.5),142,156,152,106,116,45,45,110,87,53,37,10,11,1.0,0.9
2026-03-22T2300,1122A,125.3648,43.8745,长春市,劳动公园,细颗粒物(PM2.5),135,156,158,98,124,48,48,112,92,50,36,10,10,0.9,1.1
2026-03-22T2300,1123A,125.3233,43.8781,长春市,园林处,细颗粒物(PM2.5),133,137,142,96,118,48,48,117,93,48,31,8,10,0.8,0.9
2026-03-22T2300,1124A,125.4604,43.7904,长春市,净月潭,细颗粒物(PM2.5),117,125,142,78,114,57,57,106,97,29,24,6,9,0.7,0.8
2026-03-22T2300,1126A,125.38,43.8422,长春市,经开区环卫处,细颗粒物(PM2.5),250,NA,170,200,132,2,2,108,80,106,51,8,8,1.9,1.1
2026-03-22T2300,1127A,125.234,43.7761,长春市,高新区管委会,细颗粒物(PM2.5),162,193,143,123,111,3,3,108,68,86,42,7,10,1.2,1
2026-03-22T2300,1128A,125.1695,43.83,长春市,岱山公园,细颗粒物(PM2.5),122,123,132,84,108,32,32,115,92,68,40,8,8,0.8,0.7
2026-03-22T2300,4281A,125.334645,43.916281,长春市,北亚泰大街1068号,细颗粒物(PM2.5),137,142,158,100,125,13,13,99,68,82,47,10,11,0.9,0.9
2026-03-22T2300,1335A,113.082,28.2421,长沙市,经开区环保局,,40,36,30,28,20,4,4,51,35,48,31,3,3,0.9,0.7
2026-03-22T2300,1336A,112.8873,28.2202,长沙市,高开区环保局,颗粒物(PM10),54,55,31,33,21,2,2,52,NA,50,29,4,4,1.4,1
2026-03-22T2300,1337A,113.0785,28.2012,长沙市,马坡岭,,43,36,30,30,22,1,1,49,34,46,34,4,4,1.1,0.9
2026-03-22T2300,1338A,112.9448,28.1894,长沙市,湖南师范大学,,41,41,29,28,19,19,19,45,30,28,23,4,4,1.3,1.2
2026-03-22T2300,1339A,113.0177,28.1322,长沙市,雨花区环保局,细颗粒物(PM2.5),52,42,32,36,24,7,7,44,33,52,32,3,3,1.4,1.2
2026-03-22T2300,1340A,112.9795,28.2593,长沙市,伍家岭,,48,47,33,33,26,7,7,59,41,43,27,3,3,1.0,0.6
2026-03-22T2300,1341A,113.002,28.1944,长沙市,火车新站,细颗粒物(PM2.5),64,54,34,42,27,7,7,49,37,54,33,3,3,1.4,1
2026-03-22T2300,1342A,112.9846,28.1177,长沙市,天心区环保局,,45,NA,28,31,25,12,12,46,39,50,32,5,5,1.1,1
2026-03-22T2300,1343A,112.8906,28.1307,长沙市,湖南中医药大学,,36,36,25,24,19,2,2,49,26,39,27,5,5,1.1,0.9
2026-03-22T2300,1727A,113.1146,36.1547,长治市,清华站,颗粒物(PM10),59,62,69,20,27,86,86,106,96,14,17,10,12,0.6,0.6
2026-03-22T2300,1730A,113.0887,36.2126,长治市,审计局,颗粒物(PM10),60,63,66,19,27,88,88,106,98,16,17,10,14,0.7,0.6
2026-03-22T2300,1731A,113.0845,36.1856,长治市,长治八中,颗粒物(PM10),76,86,84,30,30,83,83,104,96,12,13,11,14,0.7,0.7
2026-03-22T2300,2845A,113.1561,36.1912,长治市,德盛苑,颗粒物(PM10),58,60,70,23,31,95,95,111,106,12,13,10,13,0.6,0.7
2026-03-22T2300,3568A,113.0603,36.0464,长治市,向阳小学,颗粒物(PM10),86,100,108,31,31,92,92,113,102,23,27,15,16,0.3,0.4
2026-03-22T2300,3569A,112.8788,36.315,长治市,屯留一中,颗粒物(PM10),74,83,81,18,25,81,81,106,92,19,25,8,9,0.8,0.6
2026-03-22T2300,4189A,113.113092,36.199482,长治市,英华南巷50号,颗粒物(PM10),69,76,80,13,30,86,86,109,100,21,19,7,13,0.7,0.7
2026-03-22T2300,4190A,113.23666,36.33435,长治市,学府街1号,颗粒物(PM10),54,55,72,16,25,82,82,94,90,16,19,4,8,0.5,0.7
2026-03-22T2300,1854A,111.696,28.9725,常德市,市二中,,32,NA,39,22,25,47,47,77,68,12,12,6,6,1.1,1
2026-03-22T2300,3138A,111.7152,29.0288,常德市,武陵区永安,,32,22,39,22,32,55,55,77,73,11,14,3,4,0.9,0.9
2026-03-22T2300,3139A,111.6891,28.9881,常德市,鼎城区玉霞,,29,NA,34,20,26,48,48,78,68,12,19,7,8,1.0,0.9
2026-03-22T2300,3140A,111.6651,29.0526,常德市,武陵区长庚,,30,NA,40,21,37,61,61,80,75,9,13,6,7,1.1,1.1
2026-03-22T2300,1196A,119.9524,31.7586,常州市,市监测站,细颗粒物(PM2.5),113,134,81,74,45,33,33,124,95,79,32,10,10,1.0,0.7
2026-03-22T2300,1200A,119.9351,31.703,常州市,武进监测站,细颗粒物(PM2.5),117,131,70,78,39,50,50,117,101,62,23,12,8,0.9,0.5
2026-03-22T2300,3002A,119.9701,31.813,常州市,行政中心,细颗粒物(PM2.5),106,111,80,66,53,34,34,118,92,77,35,8,7,0.8,0.5
2026-03-22T2300,3003A,120.0434,31.7726,常州市,经开区,颗粒物(PM10),105,133,91,62,51,7,7,129,85,116,43,12,11,1.1,0.9
2026-03-22T2300,3010A,119.8919,31.7892,常州市,钟楼,细颗粒物(PM2.5),106,92,64,66,39,61,61,130,110,54,27,8,8,0.4,0.2
2026-03-22T2300,3429A,119.8595,31.706,常州市,武进经发区,细颗粒物(PM2.5),92,94,57,56,38,21,21,120,81,100,35,9,10,1.1,0.7
2026-03-22T2300,3430A,119.5812,31.7256,常州市,金坛城区,细颗粒物(PM2.5),112,96,52,73,46,46,46,122,105,61,18,9,9,0.9,0.7
2026-03-22T2300,4089A,119.9551,31.863,常州市,崇义南街5-H号,细颗粒物(PM2.5),104,126,76,64,51,1,1,117,76,126,41,7,6,0.9,0.6
2026-03-22T2300,2220A,120.4318,41.588,朝阳市,西梁,细颗粒物(PM2.5),175,168,153,132,126,36,36,116,86,61,28,13,15,1.1,1.2
2026-03-22T2300,2221A,120.452,41.565,朝阳市,河畔小区,细颗粒物(PM2.5),129,104,123,91,106,57,57,124,102,43,22,10,12,0.8,0.9
2026-03-22T2300,2222A,120.4176,41.5648,朝阳市,八里堡,细颗粒物(PM2.5),160,146,130,122,119,32,32,117,88,62,27,12,13,1.1,1.1
2026-03-22T2300,3026A,116.6179,23.6608,潮州市,市政府,,43,30,55,30,35,104,104,147,132,17,17,3,4,0.6,0.6
2026-03-22T2300,4036A,116.646,23.676,潮州市,金山,,50,48,48,35,35,93,93,150,132,24,19,6,5,0.6,0.5
2026-03-22T2300,2473A,113.0116,25.8228,郴州市,市职中,细颗粒物(PM2.5),62,51,52,41,42,8,8,25,20,25,22,4,7,0.9,1
2026-03-22T2300,2475A,113.0381,25.8074,郴州市,市审计局,细颗粒物(PM2.5),58,50,54,39,44,1,1,24,17,21,19,6,12,/,/
2026-03-22T2300,2476A,113.0348,25.7757,郴州市,市环保局,细颗粒物(PM2.5),62,60,64,41,46,5,5,27,21,24,23,10,15,0.3,0.6
2026-03-22T2300,4252A,113.0138,25.8011,郴州市,好美居路49号,细颗粒物(PM2.5),68,47,47,44,41,8,8,27,21,26,23,3,10,/,/
2026-03-22T2300,1431A,103.9727,30.7242,成都市,金泉两河,,50,50,53,25,39,77,77,99,91,13,21,1,1,0.3,0.4
2026-03-22T2300,1432A,104.1423,30.6765,成都市,十里店,,45,45,57,25,36,71,71,94,88,18,21,4,4,0.4,0.5
2026-03-22T2300,1433A,104.0594,30.5765,成都市,三瓦窑,颗粒物(PM10),53,53,57,28,39,68,68,95,85,18,20,2,2,0.8,0.8
2026-03-22T2300,1434A,104.1122,30.6306,成都市,沙河铺,,45,45,53,25,35,66,66,84,77,29,31,4,5,0.5,0.5
2026-03-22T2300,2880A,104.0219,30.6561,成都市,大石西路,颗粒物(PM10),52,52,61,28,45,74,74,94,88,16,22,6,7,0.6,0.7
2026-03-22T2300,3136A,104.2724,30.559,成都市,龙泉驿区区政府,颗粒物(PM10),56,58,48,26,29,48,48,93,78,30,17,6,7,0.6,0.6
2026-03-22T2300,3357A,104.0028,30.6891,成都市,金博路,,38,37,50,26,41,78,78,101,93,20,28,5,5,0.6,0.7
2026-03-22T2300,3359A,104.056,30.5228,成都市,华阳,颗粒物(PM10),51,51,56,27,36,70,70,96,86,27,25,3,3,0.5,0.5
2026-03-22T2300,3488A,104.387954,30.746684,成都市,青石路225号,,43,43,54,26,36,64,64,91,72,19,30,6,6,0.6,0.7
2026-03-22T2300,3489A,104.0788,30.4054,成都市,科学城,,39,39,53,24,38,58,58,102,92,30,17,6,7,0.9,0.8
2026-03-22T2300,4011A,103.8505,30.6946,成都市,光华大道三段,,48,48,65,20,38,74,74,108,100,19,23,4,3,0.5,0.6
2026-03-22T2300,4144A,104.3257,30.6406,成都市,八角井街185号,颗粒物(PM10),65,70,55,25,33,42,42,82,66,27,20,3,4,0.7,0.7
2026-03-22T2300,4224A,104.2433276,30.53529463,成都市,鲸龙路1057号,,44,44,50,23,32,51,51,95,77,37,23,6,6,0.5,0.5
2026-03-22T2300,1062A,117.9531,40.908,承德市,铁路,细颗粒物(PM2.5),111,113,119,72,69,52,52,116,91,42,29,4,4,0.6,0.6
2026-03-22T2300,1063A,117.9397,40.9763,承德市,中国银行,细颗粒物(PM2.5),111,92,110,72,64,68,68,111,94,21,22,3,3,0.5,0.6
2026-03-22T2300,4073A,117.9462,40.95,承德市,杏林街1号,细颗粒物(PM2.5),115,112,118,76,72,77,77,120,109,26,20,4,5,0.6,0.7
2026-03-22T2300,4274A,117.7994,40.9605,承德市,滨河大街98号,细颗粒物(PM2.5),110,113,99,70,66,81,81,113,99,19,25,5,5,0.5,0.5
2026-03-22T2300,2314A,117.4698,30.6617,池州市,池州学院,,40,40,33,26,23,21,21,81,55,40,29,5,5,1.0,1
2026-03-22T2300,3237A,117.4918,30.6617,池州市,展览馆,,46,46,34,30,23,26,26,82,56,33,26,4,4,1.1,1.1
2026-03-22T2300,3333A,117.5626,30.695,池州市,第八中学,,49,49,32,28,20,15,15,81,54,55,28,8,5,1.1,0.9
2026-03-22T2300,3334A,117.5037,30.6242,池州市,第十二中学,,40,40,31,27,22,10,10,78,45,50,34,4,5,0.8,1.1
2026-03-22T2300,1744A,118.9229,42.2816,赤峰市,松山一中,颗粒物(PM10),65,70,81,29,54,60,60,113,74,28,23,6,6,0.5,0.6
2026-03-22T2300,1745A,118.9588,42.2733,赤峰市,哈达街,细颗粒物(PM2.5),105,95,91,65,58,19,19,91,59,64,26,13,14,0.9,0.7
2026-03-22T2300,1746A,118.8792,42.2551,赤峰市,天义路,细颗粒物(PM2.5),80,80,72,50,51,16,16,106,62,56,23,11,7,0.8,0.6
2026-03-22T2300,3058A,119.2656,42.0356,赤峰市,银河街,细颗粒物(PM2.5),104,114,123,64,81,38,38,121,80,31,20,12,12,0.8,0.6
2026-03-22T2300,3286A,118.9359,42.3146,赤峰市,桥北物流园区,颗粒物(PM10),75,84,80,41,50,28,28,108,60,58,23,3,4,0.6,0.6
2026-03-22T2300,2521A,107.3473,22.4137,崇左市,市环保局江州分局,细颗粒物(PM2.5),190,187,116,143,85,44,44,87,69,23,24,7,10,1.1,1
2026-03-22T2300,4256A,107.375,22.3736,崇左市,石景林东路7号,细颗粒物(PM2.5),136,107,99,99,82,39,39,92,72,30,27,6,6,1.1,1.1
2026-03-22T2300,3207A,118.31131,32.3033,滁州市,市政府原办公楼,细颗粒物(PM2.5),98,67,71,59,66,87,87,131,117,24,25,5,6,0.5,0.5
2026-03-22T2300,3331A,118.3268,32.2633,滁州市,图书馆,颗粒物(PM10),69,76,78,40,48,86,86,132,116,26,25,9,10,0.5,0.6
2026-03-22T2300,4101A,118.3196,32.3335,滁州市,银山路666号,细颗粒物(PM2.5),96,73,73,58,58,76,76,144,124,26,27,9,11,0.8,0.7
2026-03-22T2300,4102A,118.3426,32.2979,滁州市,黄山路555号,细颗粒物(PM2.5),88,84,90,54,58,81,81,147,126,56,32,6,7,0.8,0.8
2026-03-22T2300,2606A,101.5379,25.0492,楚雄彝族自治州,市经济开发区,,23,21,36,16,26,59,59,89,73,12,15,4,4,0.6,0.6
2026-03-22T2300,4153A,101.5536,25.0343,楚雄彝族自治州,团结路562号,,20,NA,29,10,24,61,61,95,78,4,13,2,4,0.4,0.4
2026-03-22T2300,2549A,107.5087,31.2186,达州市,市环境监测站,颗粒物(PM10),53,54,44,22,19,4,4,63,39,47,30,7,8,0.4,0.4
2026-03-22T2300,2550A,107.4988,31.2132,达州市,凤凰小区,颗粒物(PM10),53,53,46,29,21,2,2,66,41,54,30,7,7,0.5,0.4
2026-03-22T2300,2551A,107.5081,31.1987,达州市,达县机关宾馆,颗粒物(PM10),65,70,48,36,24,2,2,65,37,54,33,7,7,0.6,0.6
2026-03-22T2300,2552A,107.4644,31.2124,达州市,市政中心,颗粒物(PM10),62,66,50,30,17,6,6,72,49,57,30,7,7,0.7,0.6
2026-03-22T2300,2614A,100.2168,25.5818,大理白族自治州,大理市环境监测站,,29,NA,21,10,18,91,91,88,81,6,8,6,7,0.5,0.5
2026-03-22T2300,2615A,100.1542,25.7055,大理白族自治州,大理古城,,29,NA,23,15,20,92,92,87,83,6,10,4,7,0.3,0.5
2026-03-22T2300,1109A,121.6119,38.974,大连市,甘井子,细颗粒物(PM2.5),137,144,95,100,67,33,33,97,58,59,33,8,8,1.0,0.7
2026-03-22T2300,1110A,121.565,38.9509,大连市,周水子,细颗粒物(PM2.5),132,136,108,95,69,13,13,84,42,65,35,8,10,1.2,0.8
2026-03-22T2300,1111A,121.5637,38.8849,大连市,星海三站,细颗粒物(PM2.5),135,113,81,98,65,41,41,92,51,43,27,6,4,1.2,0.8
2026-03-22T2300,1112A,121.6301,38.9117,大连市,青泥洼桥,细颗粒物(PM2.5),139,141,91,102,64,16,16,100,47,69,27,5,5,1.1,0.9
2026-03-22T2300,1113A,121.6248,38.8643,大连市,傅家庄,细颗粒物(PM2.5),130,130,93,92,60,26,26,97,64,61,26,8,7,1.2,0.7
2026-03-22T2300,1114A,121.5117,38.8636,大连市,七贤岭,细颗粒物(PM2.5),122,115,86,84,58,67,67,88,56,24,28,6,7,0.9,0.7
2026-03-22T2300,1116A,121.7507,39.1339,大连市,金州,细颗粒物(PM2.5),114,98,95,75,69,104,104,100,78,14,24,9,8,0.9,0.8
2026-03-22T2300,1117A,121.7811,39.0495,大连市,开发区,细颗粒物(PM2.5),137,120,87,100,66,9,9,97,51,80,32,6,8,1.2,0.7
2026-03-22T2300,1118A,121.9762,39.0631,大连市,双D港,细颗粒物(PM2.5),113,95,79,74,63,105,105,100,94,16,21,6,5,1.4,0.8
2026-03-22T2300,4082A,121.2548,38.8188,大连市,旅顺,细颗粒物(PM2.5),123,117,86,85,61,28,28,84,43,28,23,7,7,0.9,0.6
2026-03-22T2300,1789A,124.8085,46.0381,大庆市,大同区,NA,NA,NA,133,NA,98,98,98,111,105,107,30,33,14,2.4,0.8
2026-03-22T2300,1790A,125.1166,46.5255,大庆市,龙凤区,细颗粒物(PM2.5),118,112,116,79,89,43,43,97,75,44,28,9,5,0.5,0.5
2026-03-22T2300,1791A,124.8894,46.4007,大庆市,红岗区,细颗粒物(PM2.5),104,80,79,64,64,47,47,102,82,46,18,15,10,0.9,0.6
2026-03-22T2300,1792A,125.1391,46.578,大庆市,萨尔图区,细颗粒物(PM2.5),111,104,126,72,89,29,29,99,77,60,30,7,6,1.1,0.8
2026-03-22T2300,1793A,124.9026,46.6217,大庆市,让胡路区,细颗粒物(PM2.5),106,94,88,66,68,20,20,106,70,72,20,7,6,1.1,0.7
2026-03-22T2300,3481A,125.127,46.6277,大庆市,萨区政府监测点,细颗粒物(PM2.5),86,85,118,53,85,53,53,95,81,29,25,10,9,0.5,0.6
2026-03-22T2300,1723A,113.2926,40.0759,大同市,云冈宾馆,颗粒物(PM10),55,57,65,27,18,47,47,91,78,32,19,9,8,0.9,0.7
2026-03-22T2300,1724A,113.3437,40.0921,大同市,大同大学,颗粒物(PM10),51,51,70,19,18,56,56,96,82,30,25,17,8,0.6,0.6
2026-03-22T2300,1725A,113.2637,40.129,大同市,安家小村,,50,50,67,28,21,31,31,93,76,44,20,18,16,0.9,0.7
2026-03-22T2300,3282A,113.3399,40.0586,大同市,大同市卫生学校,颗粒物(PM10),52,52,72,25,20,43,43,100,86,36,21,7,6,0.5,0.4
2026-03-22T2300,3565A,113.1371,40.1122,大同市,云冈站,颗粒物(PM10),52,52,59,25,16,11,11,90,62,59,20,15,7,0.6,0.5
2026-03-22T2300,3566A,113.1186,40.2556,大同市,图书馆,,43,43,63,23,17,41,41,88,72,17,12,8,7,1.0,0.7
2026-03-22T2300,3567A,113.5931,40.0459,大同市,区一中,,29,29,67,12,18,76,76,96,90,8,11,9,12,1.0,1
2026-03-22T2300,4199A,113.2798248,40.09972476,大同市,魏都大道141号,颗粒物(PM10),53,54,75,22,18,53,53,95,81,26,19,10,10,1.1,0.7
2026-03-22T2300,2269A,124.1068,50.4091,大兴安岭地区,科技局,,26,19,19,15,10,82,82,84,78,2,3,7,6,0.4,0.4
2026-03-22T2300,3663A,124.117,50.4279,大兴安岭地区,红旗社区,,20,19,15,14,12,63,63,84,76,9,10,12,11,0.7,0.5
2026-03-22T2300,1600A,124.33,40.0625,丹东市,江湾东路,细颗粒物(PM2.5),103,75,72,63,56,88,88,118,92,17,18,8,9,0.5,0.7
2026-03-22T2300,1601A,124.4242,40.1513,丹东市,临江后街,细颗粒物(PM2.5),105,80,88,65,64,83,83,112,89,10,19,10,13,0.5,0.8
2026-03-22T2300,1602A,124.3935,40.1461,丹东市,元宝山,细颗粒物(PM2.5),107,84,78,67,57,62,62,107,77,20,19,6,11,0.7,0.8
2026-03-22T2300,1603A,124.3634,40.1093,丹东市,民主桥,细颗粒物(PM2.5),108,86,84,68,57,78,78,117,85,15,18,5,6,0.5,0.5
2026-03-22T2300,3541A,109.5726195,19.51688767,儋州市,第一中学子站,,35,35,24,20,13,65,65,69,69,7,5,6,6,0.4,0.3
2026-03-22T2300,3542A,109.5567,19.5187,儋州市,东坡学校子站,,32,27,22,22,13,75,75,75,75,6,4,6,7,0.4,0.3
2026-03-22T2300,2616A,98.5611,24.4273,德宏傣族景颇族自治州,德宏州监测站,,45,NA,30,31,36,38,38,76,67,15,13,6,6,1.0,1
2026-03-22T2300,3677A,98.5887,24.4366,德宏傣族景颇族自治州,芒市人民政府综合楼,,43,43,47,17,30,37,37,72,64,16,15,2,2,0.8,0.8
2026-03-22T2300,1901A,104.424,31.1209,德阳市,东山公园,,39,39,53,14,34,48,48,94,83,18,20,3,4,0.6,0.7
2026-03-22T2300,1902A,104.3827,31.1318,德阳市,西小区,,47,47,68,14,37,50,50,93,77,19,28,7,7,0.7,0.8
2026-03-22T2300,1904A,104.3553,31.1091,德阳市,耐火材料厂,,42,42,68,14,41,50,50,95,81,19,28,4,3,0.5,0.6
2026-03-22T2300,4145A,104.4144,31.1495,德阳市,市林业局,颗粒物(PM10),51,51,56,17,35,45,45,95,77,21,24,6,6,0.6,0.7
2026-03-22T2300,1622A,116.3034,37.4675,德州市,儿童乐园,颗粒物(PM10),103,127,110,50,51,54,54,103,79,54,24,14,12,0.7,0.7
2026-03-22T2300,1624A,116.2992,37.4449,德州市,监理站,颗粒物(PM10),101,122,103,41,48,80,80,112,94,44,27,3,4,0.7,0.8
2026-03-22T2300,3066A,116.2722,37.438,德州市,九衢泉纯净水厂,颗粒物(PM10),93,110,98,39,49,54,54,104,86,51,29,6,5,0.7,0.5
2026-03-22T2300,3371A,116.3693,37.44,德州市,开发区人民医院,颗粒物(PM10),102,124,106,46,49,52,52,103,82,60,25,10,8,0.7,0.6
2026-03-22T2300,3511A,116.5687,37.3331,德州市,陵城艺术中心,细颗粒物(PM2.5),109,136,116,69,64,58,58,103,81,33,17,12,9,0.9,0.8
2026-03-22T2300,4292A,116.352738,37.420875,德州市,新河东路,颗粒物(PM10),95,112,104,40,47,52,52,101,76,53,23,11,10,0.7,0.7
2026-03-22T2300,2621A,99.7054,27.8319,迪庆藏族自治州,迪庆州站,,29,10,13,6,9,91,91,94,88,6,7,6,7,0.6,0.6
2026-03-22T2300,3180A,99.7122,27.8129,迪庆藏族自治州,质量技术监督局,,32,12,19,9,9,100,100,107,98,5,6,6,6,0.4,0.4
2026-03-22T2300,4257A,104.6092,35.5962,定西市,将台街,颗粒物(PM10),75,85,143,34,47,80,80,110,101,16,8,10,8,0.4,0.3
2026-03-22T2300,4309A,104.6159,35.5701,定西市,正龙路62号,颗粒物(PM10),89,104,152,29,44,73,73,103,94,18,9,4,4,0.4,0.3
2026-03-22T2300,4071A,114.9883,38.5232,定州市,交通局,颗粒物(PM10),53,54,69,16,24,71,71,93,84,29,17,11,12,0.4,0.5
2026-03-22T2300,4072A,115.0045,38.5136,定州市,第五中学,颗粒物(PM10),70,77,77,18,24,42,42,93,82,57,16,7,8,0.3,0.4
2026-03-22T2300,1390A,113.7943,23.0132,东莞市,东城石井,,31,31,33,16,19,60,60,128,94,20,19,3,4,0.6,0.6
2026-03-22T2300,1391A,113.7384,22.9659,东莞市,南城西平,,46,46,31,24,17,80,80,112,91,23,17,5,4,0.6,0.6
2026-03-22T2300,3319A,113.7283,23.041,东莞市,万江金泰,颗粒物(PM10),52,52,35,25,22,78,78,122,96,26,17,5,5,0.7,0.7
2026-03-22T2300,4129A,113.8666,23.1062,东莞市,裕兴路,,47,47,41,21,20,59,59,137,102,28,17,7,7,0.7,0.7
2026-03-22T2300,4130A,114.0076,22.9739,东莞市,教育路1号,颗粒物(PM10),53,53,40,26,20,70,70,134,101,25,18,5,5,0.7,0.7
2026-03-22T2300,4131A,113.7981,22.8124,东莞市,长怡路1号,,41,41,36,20,17,85,85,116,98,24,18,4,4,0.7,0.7
2026-03-22T2300,1666A,118.6612,37.4313,东营市,市环保局,细颗粒物(PM2.5),170,134,124,129,97,113,113,142,138,14,23,8,16,0.6,0.7
2026-03-22T2300,3036A,118.6903,37.4337,东营市,开发区管委会,细颗粒物(PM2.5),172,131,116,130,95,117,117,153,147,19,31,9,16,0.7,0.8
2026-03-22T2300,3365A,118.5721,37.5654,东营市,垦利区民丰路,NA,NA,NA,109,NA,89,NA,NA,136,NA,NA,22,NA,5,NA,0.9
2026-03-22T2300,3498A,118.5063,37.8606,东营市,河口城区,细颗粒物(PM2.5),193,NA,129,145,101,100,100,149,133,17,23,9,16,0.8,0.8
2026-03-22T2300,3646A,118.4979,37.4623,东营市,胜利站,细颗粒物(PM2.5),150,139,132,114,88,105,105,128,123,15,22,8,12,0.9,1
2026-03-22T2300,3734A,118.5753,37.4405,东营市,理想之城,细颗粒物(PM2.5),144,134,127,108,88,117,117,141,136,23,31,6,10,1.0,1
2026-03-22T2300,1591A,110.0024,39.8127,鄂尔多斯市,综合楼,颗粒物(PM10),53,53,69,25,21,79,79,91,85,33,20,11,8,0.5,0.4
2026-03-22T2300,1592A,109.9485,39.8259,鄂尔多斯市,巴音孟克林场办事处,颗粒物(PM10),53,53,69,28,19,83,83,96,87,25,19,9,7,0.5,0.4
2026-03-22T2300,1593A,109.7734,39.5987,鄂尔多斯市,康泽苑,颗粒物(PM10),63,68,74,25,20,37,37,94,78,54,15,9,8,0.5,0.3
2026-03-22T2300,1594A,109.8121,39.5987,鄂尔多斯市,华泰汽车城,颗粒物(PM10),79,90,74,30,22,9,9,96,63,80,22,6,6,0.6,0.4
2026-03-22T2300,1595A,109.9734,39.7884,鄂尔多斯市,奥林花园,颗粒物(PM10),63,68,72,27,21,54,54,93,77,50,25,8,7,0.6,0.4
2026-03-22T2300,2436A,114.894,30.3989,鄂州市,市政府,细颗粒物(PM2.5),98,93,74,59,47,29,29,79,68,44,27,10,10,1.0,0.9
2026-03-22T2300,2437A,114.8986,30.3714,鄂州市,赵家坝,细颗粒物(PM2.5),101,107,78,61,49,34,34,93,77,35,23,8,10,1.3,1.1
2026-03-22T2300,3654A,114.8093,30.4091,鄂州市,精准医疗中心,颗粒物(PM10),88,102,77,51,46,46,46,100,89,29,22,7,16,1.3,1
2026-03-22T2300,2454A,109.4978,30.2979,恩施土家族苗族自治州,湖北民院,颗粒物(PM10),55,56,41,32,25,6,6,52,35,25,16,6,7,0.7,0.6
2026-03-22T2300,3549A,109.5061,30.3771,恩施土家族苗族自治州,龙凤新区,,47,47,39,24,20,19,19,47,34,8,7,8,7,0.4,0.4
2026-03-22T2300,2499A,108.3411,21.6159,防城港市,沙万,NA,NA,NA,53,25,30,0,0,39,30,69,26,6,7,0.6,0.7
2026-03-22T2300,2500A,108.3515,21.7733,防城港市,防城档案局,,42,42,56,29,35,5,5,47,38,26,18,6,7,0.7,0.8
2026-03-22T2300,2501A,108.3506,21.6414,防城港市,大海花园,颗粒物(PM10),73,81,47,32,35,6,6,47,41,30,24,9,10,0.5,0.8
2026-03-22T2300,1371A,113.1293,23.0065,佛山市,湾梁,,39,36,39,27,29,79,79,109,99,14,19,/,/,/,/
2026-03-22T2300,1372A,113.1082,23.0477,佛山市,华材职中,,39,36,40,27,29,78,78,106,97,16,22,7,7,0.4,0.4
2026-03-22T2300,1373A,113.1439,23.045,佛山市,南海气象局,,40,35,41,28,27,68,68,97,85,21,23,/,/,/,/
2026-03-22T2300,1374A,113.2879,22.8094,佛山市,顺德苏岗,,35,35,40,20,21,82,82,112,102,13,18,/,/,0.5,0.5
2026-03-22T2300,1376A,112.8384,22.8678,佛山市,高明孔堂,,34,34,32,14,18,70,70,93,85,10,14,/,/,/,/
2026-03-22T2300,1377A,112.8835,23.1584,佛山市,三水监测站,,41,41,48,28,34,57,57,74,56,23,39,3,4,0.6,0.6
2026-03-22T2300,1378A,112.8668,23.185,佛山市,三水云东海,颗粒物(PM10),65,70,61,29,32,56,56,74,49,28,30,/,/,/,/
2026-03-22T2300,3625A,113.2568,22.7629,佛山市,容桂街道办,,32,31,32,22,23,69,69,102,92,23,21,/,/,/,/
2026-03-22T2300,1282A,119.2681,26.0506,福州市,师大,,27,26,38,13,23,84,84,120,107,19,22,4,4,0.5,0.5
2026-03-22T2300,1283A,119.2983,26.1028,福州市,五四北路,,27,16,38,13,28,84,84,117,106,21,24,6,5,0.7,0.7
2026-03-22T2300,1284A,119.2648,26.0769,福州市,杨桥西路,,28,22,37,10,24,87,87,126,114,18,20,4,5,/,/
2026-03-22T2300,3048A,119.5799,26.0937,福州市,九龙,,22,14,24,9,22,70,70,120,104,13,17,4,5,0.4,0.5
2026-03-22T2300,3526A,119.5188,25.9666,福州市,吴航,颗粒物(PM10),52,52,35,32,23,70,70,112,94,30,22,5,6,0.6,0.7
2026-03-22T2300,4104A,119.3106,26.0648,福州市,路通桥巷6号,,25,20,37,13,27,77,77,116,100,17,19,/,/,/,/
2026-03-22T2300,1755A,123.7974,41.8494,抚顺市,望花区,细颗粒物(PM2.5),153,177,113,117,78,27,27,114,24,33,30,18,21,1.1,1.1
2026-03-22T2300,1756A,123.9161,41.8827,抚顺市,顺城区,细颗粒物(PM2.5),156,150,94,119,83,36,36,112,24,31,31,12,14,1.1,1
2026-03-22T2300,1757A,124.0437,41.8615,抚顺市,东洲区,细颗粒物(PM2.5),129,133,105,91,77,52,52,118,35,16,16,11,13,1.0,0.8
2026-03-22T2300,1758A,123.9246,41.8638,抚顺市,新抚区,细颗粒物(PM2.5),137,130,103,100,76,45,45,102,24,22,32,9,12,1.0,0.9
2026-03-22T2300,1759A,124.0972,41.8961,抚顺市,大伙房水库,细颗粒物(PM2.5),96,84,88,58,65,55,55,127,57,16,11,11,12,0.9,0.7
2026-03-22T2300,1760A,123.708,41.8386,抚顺市,沈抚新城,细颗粒物(PM2.5),114,123,102,75,75,2,2,105,18,56,37,11,14,2.3,1.1
2026-03-22T2300,2377A,116.3544,27.9833,抚州市,市站,,21,21,37,9,30,33,33,32,32,9,15,10,8,1.0,1.1
2026-03-22T2300,2378A,116.3562,27.9631,抚州市,血防站,,35,32,40,24,28,30,30,29,29,14,20,8,6,1.0,1
2026-03-22T2300,2379A,116.3561,28.0007,抚州市,采茶剧团,,30,30,43,13,27,32,32,29,29,13,20,5,5,0.8,0.9
2026-03-22T2300,2380A,116.3854,27.9648,抚州市,医学分院,,34,34,46,17,26,36,36,34,34,13,19,9,9,1.2,1.3
2026-03-22T2300,2207A,121.6095,41.9978,阜新市,工业园区,细颗粒物(PM2.5),140,179,131,104,105,32,32,116,71,44,29,20,12,1.0,0.9
2026-03-22T2300,2208A,121.6567,42.0188,阜新市,长青街,细颗粒物(PM2.5),140,122,107,104,99,14,14,113,80,58,22,9,9,1.5,0.9
2026-03-22T2300,2209A,121.6672,42.07,阜新市,农业园区,细颗粒物(PM2.5),84,62,137,52,95,79,79,113,97,21,20,8,8,1.1,0.9
2026-03-22T2300,2211A,121.6343,42.0455,阜新市,玉龙新城,细颗粒物(PM2.5),125,117,137,87,108,3,3,112,57,69,33,10,11,1.3,1
2026-03-22T2300,2301A,115.8276,32.8929,阜阳市,市监测站,细颗粒物(PM2.5),94,100,92,57,45,45,45,125,80,66,28,6,6,0.6,0.5
2026-03-22T2300,2303A,115.8551,32.8606,阜阳市,开发区,颗粒物(PM10),98,117,105,56,46,63,63,127,94,33,20,6,6,0.6,0.6
2026-03-22T2300,2875A,115.783962,32.889217,阜阳市,阜阳职业技术学院,颗粒物(PM10),85,99,78,39,35,84,84,130,111,25,15,8,8,0.8,0.8
2026-03-22T2300,3468A,115.79,32.8614,阜阳市,市规划展馆,颗粒物(PM10),84,97,88,48,44,105,105,137,122,22,16,8,8,0.6,0.5
2026-03-22T2300,3469A,115.835101,32.918568,阜阳市,枣园社区,细颗粒物(PM2.5),112,122,95,73,47,51,51,126,88,45,23,6,6,0.5,0.5
2026-03-22T2300,2669A,102.9097,34.9841,甘南藏族自治州,州政府,颗粒物(PM10),77,87,80,40,29,75,75,85,82,2,3,4,5,0.4,0.3
2026-03-22T2300,3380A,102.8915,34.9618,甘南藏族自治州,甘肃民族师范学院,颗粒物(PM10),89,104,93,37,28,85,85,104,100,13,4,3,2,0.4,0.4
2026-03-22T2300,2570A,101.96,30.048,甘孜藏族自治州,水桥子,,18,18,10,8,4,50,50,80,71,15,7,6,6,0.2,0.2
2026-03-22T2300,3065A,101.9534,29.9976,甘孜藏族自治州,州环保局,,18,18,10,12,6,51,51,96,NA,15,13,5,6,0.3,0.6
2026-03-22T2300,2363A,114.9368,25.8663,赣州市,地委,,32,30,32,22,17,50,50,70,60,10,21,4,4,0.9,1.1
2026-03-22T2300,2364A,114.946,25.8483,赣州市,气象台,,36,36,36,18,21,62,62,85,74,13,24,4,5,0.7,0.7
2026-03-22T2300,2365A,114.932,25.8332,赣州市,市图书馆,,27,27,30,14,19,63,63,74,69,8,21,4,4,0.8,0.8
2026-03-22T2300,2366A,114.8905,25.8472,赣州市,华坚鞋城,,34,34,41,20,21,54,54,77,66,10,21,5,6,0.5,0.5
2026-03-22T2300,3109A,115.0094,25.8614,赣州市,赣县区卫计委,,42,29,29,29,16,48,48,68,59,15,21,4,3,0.8,0.8
2026-03-22T2300,2684A,106.2753,36.0057,固原市,监测站,颗粒物(PM10),68,75,162,18,44,83,83,100,95,8,14,9,9,0.2,0.4
2026-03-22T2300,2685A,106.2384,36.0189,固原市,新区,颗粒物(PM10),64,69,164,23,45,87,87,104,99,8,16,7,7,0.2,0.3
2026-03-22T2300,2544A,106.6307,30.4577,广安市,市委,细颗粒物(PM2.5),64,47,40,42,30,71,71,95,87,16,18,8,7,0.6,0.7
2026-03-22T2300,2545A,106.6266,30.4662,广安市,友谊中学,颗粒物(PM10),52,52,37,32,20,66,66,99,87,21,17,7,7,0.9,0.8
2026-03-22T2300,2547A,106.6386,30.4551,广安市,广电花园,细颗粒物(PM2.5),60,59,46,40,28,61,61,94,85,21,19,6,6,0.8,0.8
2026-03-22T2300,2902A,106.6347,30.4868,广安市,北辰小学,,48,43,40,33,26,72,72,94,88,13,14,8,7,0.8,0.8
2026-03-22T2300,2524A,105.8211,32.4444,广元市,老城,,43,43,52,19,17,5,5,39,25,51,37,10,12,0.8,0.8
2026-03-22T2300,2526A,105.8629,32.429,广元市,监测站,,50,50,44,17,13,18,18,48,35,32,28,4,5,0.6,0.6
2026-03-22T2300,3617A,105.8047,32.4167,广元市,经开区,颗粒物(PM10),60,63,50,22,24,5,5,42,32,56,37,4,10,0.8,0.7
2026-03-22T2300,1345A,113.2346,23.1423,广州市,广雅中学,颗粒物(PM10),52,52,39,26,23,56,56,99,80,31,28,3,2,0.7,0.7
2026-03-22T2300,1346A,113.2611,23.105,广州市,市五中,,43,43,36,26,27,69,69,117,94,29,29,7,7,/,/
2026-03-22T2300,1348A,113.3477,23.0916,广州市,广东商学院,,45,45,35,24,22,50,50,101,80,33,29,5,5,0.9,0.8
2026-03-22T2300,1349A,113.4332,23.105,广州市,市八十六中,,38,38,32,21,19,35,35,105,75,55,32,5,5,/,/
2026-03-22T2300,1350A,113.3506,22.9488,广州市,番禺中学,,46,46,37,23,21,68,68,121,103,22,21,4,3,0.8,0.8
2026-03-22T2300,1351A,113.2147,23.3918,广州市,花都师范,,45,45,46,25,31,46,46,100,83,37,38,6,6,0.7,0.9
2026-03-22T2300,1352A,113.2599,23.1329,广州市,市监测站,,46,46,39,25,23,65,65,102,84,21,24,1,1,/,/
2026-03-22T2300,1353A,113.5618,23.3119,广州市,九龙镇镇龙,颗粒物(PM10),51,51,44,28,27,28,28,107,72,56,29,6,6,0.5,0.5
2026-03-22T2300,1354A,113.2764,23.1544,广州市,麓湖,,43,43,34,24,21,62,62,105,88,25,24,3,3,0.7,0.7
2026-03-22T2300,2846A,113.3209,23.1323,广州市,体育西,,46,46,37,23,20,66,66,109,88,28,31,6,6,0.7,0.7
2026-03-22T2300,3298A,113.5718,23.5493,广州市,从化街口,细颗粒物(PM2.5),74,66,57,47,40,44,44,111,82,33,26,6,6,0.9,0.8
2026-03-22T2300,3299A,113.3463,23.369,广州市,白云竹料,,46,46,50,26,32,42,42,108,88,39,30,4,4,0.7,0.8
2026-03-22T2300,3300A,113.2981,23.2365,广州市,白云嘉禾,颗粒物(PM10),51,51,49,26,29,35,35,111,86,53,36,7,7,/,/
2026-03-22T2300,3301A,113.4256,23.1716,广州市,黄埔科学城,,45,45,39,24,28,59,59,118,90,34,32,9,8,0.6,0.6
2026-03-22T2300,3302A,113.3942,23.0485,广州市,番禺大学城,,44,44,38,26,25,80,80,129,105,25,27,6,6,0.5,0.6
2026-03-22T2300,3303A,113.4923,22.8169,广州市,南沙黄阁,,40,40,37,24,20,82,82,114,103,28,21,7,6,/,/
2026-03-22T2300,3304A,113.534,22.7893,广州市,南沙街,,43,43,34,25,18,85,85,108,98,15,13,8,8,0.6,0.5
2026-03-22T2300,3443A,113.2905,23.5541,广州市,花都梯面,,46,46,42,27,28,4,4,93,56,33,24,7,7,/,/
2026-03-22T2300,3445A,113.786,23.7479,广州市,从化良口,,36,31,35,25,26,35,35,86,64,22,17,4,4,/,/
2026-03-22T2300,3446A,113.805,23.2614,广州市,增城荔城,细颗粒物(PM2.5),52,50,45,36,30,47,47,154,102,23,20,5,6,0.6,0.5
2026-03-22T2300,2506A,109.604387,23.066791,贵港市,江南子站,细颗粒物(PM2.5),128,175,126,90,50,4,4,39,24,48,43,9,10,1.1,1.1
2026-03-22T2300,2508A,109.5669,23.1065,贵港市,荷城子站,细颗粒物(PM2.5),132,122,96,95,66,8,8,35,24,47,41,11,11,1.1,1
2026-03-22T2300,3405A,109.5886,23.1172,贵港市,新世纪学校,细颗粒物(PM2.5),130,141,95,93,62,5,5,42,27,62,40,/,/,1.0,1
2026-03-22T2300,4260A,109.5933,23.095,贵港市,中山路155-3号,细颗粒物(PM2.5),127,151,117,89,71,3,3,40,27,47,35,/,/,1.2,1.1
2026-03-22T2300,1439A,106.6863,26.6035,贵阳市,马鞍山,细颗粒物(PM2.5),60,NA,25,40,20,32,32,34,22,17,17,6,6,/,/
2026-03-22T2300,1441A,106.6241,26.6266,贵阳市,鉴湖路,,29,29,29,13,14,46,46,42,38,12,19,8,6,0.4,0.5
2026-03-22T2300,1442A,106.7468,26.6344,贵阳市,燕子冲,,31,31,27,18,17,9,9,44,27,23,16,6,7,1.3,1.3
2026-03-22T2300,1443A,106.6556,26.4362,贵阳市,碧云窝,,22,19,26,15,16,52,52,48,48,8,15,7,10,/,/
2026-03-22T2300,1445A,106.6963,26.6063,贵阳市,红边门,细颗粒物(PM2.5),62,53,35,41,19,5,5,38,16,42,24,31,15,/,/
2026-03-22T2300,1446A,106.7162383,26.56964667,贵阳市,新华路,颗粒物(PM10),62,66,39,24,17,6,6,39,20,36,22,12,10,1.3,0.8
2026-03-22T2300,1447A,106.6742,26.542,贵阳市,太慈桥,,40,NA,29,28,19,44,44,40,35,14,19,6,7,/,/
2026-03-22T2300,4230A,106.688212,26.56952,贵阳市,花果园大街66号,,16,12,27,11,19,34,34,32,24,17,22,4,4,/,/
2026-03-22T2300,4231A,106.687268,26.516892,贵阳市,漓江路57号,,42,NA,21,29,20,44,44,36,32,13,21,13,11,0.7,0.9
2026-03-22T2300,1864A,110.3091,25.2705,桂林市,龙隐路小学,,17,14,35,9,29,8,8,19,2,34,29,4,7,0.9,1
2026-03-22T2300,1865A,110.2849361,25.22909545,桂林市,八中,,17,17,36,3,16,2,2,14,2,34,31,3,4,1.1,1.2
2026-03-22T2300,3531A,110.296,25.1254,桂林市,旅游学院,,33,33,39,19,29,0,0,17,2,38,27,6,6,1.4,1.1
2026-03-22T2300,4222A,110.1835,25.2444,桂林市,环湖路276号,,20,12,36,8,30,3,3,16,2,40,32,5,9,1.1,1.1
2026-03-22T2300,4301A,110.2803,25.2773,桂林市,信义路13号,,16,16,35,6,29,9,9,14,1,29,34,4,10,1.3,1.5
2026-03-22T2300,2674A,100.2262,34.4854,果洛藏族自治州,玛沁县大武镇,,48,48,41,23,20,82,82,104,91,1,3,11,8,0.4,0.4
2026-03-22T2300,1130A,126.5557,45.8109,哈尔滨市,松北商大,细颗粒物(PM2.5),108,68,204,68,171,30,30,111,86,38,31,10,14,0.7,1.1
2026-03-22T2300,1132A,126.6162,45.719,哈尔滨市,南岗学府路,颗粒物(PM10),53,54,216,31,144,50,50,116,93,33,30,8,13,0,0.3
2026-03-22T2300,1133A,126.6894,45.7733,哈尔滨市,太平宏伟公园,细颗粒物(PM2.5),112,NA,212,73,161,50,50,112,85,25,31,3,7,0.6,1
2026-03-22T2300,1134A,126.6361,45.7672,哈尔滨市,道外承德广场,NA,NA,NA,273,NA,167,NA,NA,119,105,NA,34,NA,14,NA,0.9
2026-03-22T2300,1136A,126.644,45.7261,哈尔滨市,动力和平路,,38,36,220,26,149,68,68,113,94,18,32,12,19,1.1,1.5
2026-03-22T2300,1137A,126.5933,45.7479,哈尔滨市,道里建国路,细颗粒物(PM2.5),72,56,203,46,153,35,35,108,82,53,37,10,16,0.8,1
2026-03-22T2300,1138A,126.6127,45.6119,哈尔滨市,平房东轻厂,二氧化氮(NO2),75,49,200,35,154,25,25,90,59,149,89,66,64,0.3,0.7
2026-03-22T2300,1139A,126.5875,45.9827,哈尔滨市,呼兰师专,细颗粒物(PM2.5),142,144,227,106,173,30,30,102,68,50,38,15,13,0.8,1
2026-03-22T2300,1140A,126.6299,45.6799,哈尔滨市,省农科院,,42,40,230,29,152,63,63,112,94,19,32,9,14,0.3,0.8
2026-03-22T2300,4282A,126.6769,45.7379,哈尔滨市,华山路1号,细颗粒物(PM2.5),58,48,218,39,149,55,55,110,90,32,38,20,12,0.7,1.2
2026-03-22T2300,4283A,126.9717,45.5356,哈尔滨市,解放大街52号,细颗粒物(PM2.5),140,158,271,104,155,37,37,130,90,42,34,15,14,0.7,0.4
2026-03-22T2300,2688A,93.5124,42.8176,哈密市,地区监测站,,48,48,41,31,16,23,23,94,78,57,17,8,6,0.8,0.3
2026-03-22T2300,2689A,93.5014,42.8312,哈密市,哈密师范学校,颗粒物(PM10),66,72,47,28,17,27,27,99,84,64,26,8,8,0.9,0.5
2026-03-22T2300,2671A,100.9016,36.9464,海北藏族自治州,海晏县西海镇,颗粒物(PM10),68,75,125,32,43,41,41,96,80,18,5,9,10,0.5,0.5
2026-03-22T2300,3867A,102.074,36.5056,海东市,平安区公安局北苑,颗粒物(PM10),105,133,149,59,57,63,63,97,83,9,10,10,17,0.8,0.8
2026-03-22T2300,4163A,102.0984,36.5119,海东市,滨河路,颗粒物(PM10),117,162,165,59,55,10,10,78,43,49,31,9,15,0.9,0.9
2026-03-22T2300,1410A,110.3189,20.0596,海口市,海南大学,,30,30,24,16,17,55,55,71,63,4,5,5,5,0.4,0.3
2026-03-22T2300,1411A,110.2827,20.0051,海口市,秀英海南医院,,28,28,32,17,17,45,45,66,55,9,8,8,8,0.3,0.3
2026-03-22T2300,1412A,110.3391,19.9979,海口市,海南师范大学,,40,40,28,16,16,48,48,73,60,8,7,6,6,0.5,0.4
2026-03-22T2300,1413A,110.3303,20.0359,海口市,龙华路环保局宿舍,,33,33,30,17,18,54,54,73,64,7,7,/,/,0.5,0.5
2026-03-22T2300,3539A,110.5111,19.9737,海口市,桂林洋子站,,39,39,28,22,17,38,38,70,58,12,7,/,/,/,/
2026-03-22T2300,4134A,110.1952,20.0451,海口市,长滨二路9号,,30,30,25,17,18,52,52,68,62,4,4,/,/,/,/
2026-03-22T2300,2673A,100.6158,36.2985,海南藏族自治州,共和县恰卜恰镇,,47,47,89,26,40,72,72,96,91,18,8,11,12,0.3,0.3
2026-03-22T2300,2676A,97.373,37.376,海西蒙古族藏族自治州,德令哈市,,33,33,45,14,20,105,105,130,126,7,3,16,15,0.4,0.4
2026-03-22T2300,1049A,114.492,36.5712,邯郸市,矿院,颗粒物(PM10),63,68,73,23,31,22,22,99,72,62,16,6,4,0.5,0.5
2026-03-22T2300,1050A,114.4839,36.6136,邯郸市,丛台公园,颗粒物(PM10),65,71,77,36,42,17,17,99,75,60,15,1,4,0.5,0.5
2026-03-22T2300,3458A,114.7893,36.5592,邯郸市,香泉濮院小区,颗粒物(PM10),66,72,88,10,26,56,56,100,83,23,13,2,2,0.3,0.4
2026-03-22T2300,3580A,114.1998,36.4439,邯郸市,峰峰矿区临水派出所,,48,48,70,10,26,92,92,102,94,4,9,4,6,0.5,0.6
2026-03-22T2300,4068A,114.5209,36.7697,邯郸市,建安街268号,"颗粒物(PM10),细颗粒物(PM2.5)",86,100,82,53,49,8,8,93,49,69,27,3,3,0.6,0.5
2026-03-22T2300,4069A,114.5488,36.6177,邯郸市,丛台东路558号,细颗粒物(PM2.5),58,59,73,39,43,3,3,99,65,79,24,1,2,0.5,0.4
2026-03-22T2300,2635A,107.0155,33.0707,汉中市,市监测站,细颗粒物(PM2.5),102,94,63,62,36,6,6,42,22,39,31,7,8,1.1,0.9
2026-03-22T2300,2636A,107.0083,33.114,汉中市,鑫源开发区,细颗粒物(PM2.5),125,120,64,87,40,6,6,48,27,48,33,5,7,1.2,0.9
2026-03-22T2300,2637A,107.0072,33.0323,汉中市,南郑大河坎水厂,细颗粒物(PM2.5),102,96,60,62,35,2,2,37,17,31,26,4,5,1.1,0.8
2026-03-22T2300,1223A,120.2073,30.2111,杭州市,滨江,颗粒物(PM10),66,72,72,40,42,4,4,61,32,64,38,7,8,1.3,1
2026-03-22T2300,1224A,120.0625,30.2737,杭州市,西溪,颗粒物(PM10),56,58,75,31,39,0,0,68,39,53,27,8,9,1.1,0.8
2026-03-22T2300,1226A,120.3417,30.315,杭州市,下沙,颗粒物(PM10),79,90,88,47,49,31,31,76,48,54,41,8,9,1.0,0.7
2026-03-22T2300,1227A,120.1252,30.2465,杭州市,卧龙桥,,43,43,66,27,37,19,19,64,37,30,28,7,8,0.5,0.4
2026-03-22T2300,1228A,120.1902,30.2691,杭州市,浙江农大,细颗粒物(PM2.5),54,47,58,37,43,11,11,66,36,60,45,6,7,1.1,0.8
2026-03-22T2300,1230A,120.1195,30.3121,杭州市,和睦小学,颗粒物(PM10),75,84,87,44,52,11,11,68,40,52,33,7,8,1.1,0.8
2026-03-22T2300,1231A,120.3076,30.4146,杭州市,临平镇,颗粒物(PM10),55,56,63,37,44,41,41,99,84,42,31,6,7,1.1,0.7
2026-03-22T2300,1232A,120.2753,30.1839,杭州市,城厢镇,细颗粒物(PM2.5),60,62,67,40,43,1,1,60,30,43,27,9,9,1.0,0.7
2026-03-22T2300,1233A,120.0883,30.1808,杭州市,云栖,,46,46,64,22,29,13,13,53,24,31,37,5,6,0.8,0.7
2026-03-22T2300,3557A,119.9463,30.0496,杭州市,镇二中,细颗粒物(PM2.5),58,43,50,39,48,1,1,42,21,46,37,4,5,1.0,0.8
2026-03-22T2300,3558A,119.7184,30.2367,杭州市,市府大楼,,48,47,53,33,38,40,40,79,61,20,22,6,7,0.5,0.4
2026-03-22T2300,3656A,120.1554,30.2863,杭州市,消防大队,颗粒物(PM10),65,71,78,41,53,24,24,65,45,40,33,8,8,1.1,0.8
2026-03-22T2300,1270A,117.1957,31.7845,合肥市,明珠广场,细颗粒物(PM2.5),98,110,72,59,38,23,23,118,85,91,25,6,6,1.2,0.8
2026-03-22T2300,1271A,117.307,31.8765,合肥市,三里街,颗粒物(PM10),84,97,76,39,43,4,4,112,67,115,44,6,6,1.0,0.9
2026-03-22T2300,1272A,117.2587,31.8703,合肥市,琥珀山庄,颗粒物(PM10),83,95,72,48,40,25,25,117,71,87,39,7,7,1.5,0.8
2026-03-22T2300,1275A,117.2593,31.9376,合肥市,庐阳区,颗粒物(PM10),84,97,72,43,37,71,71,116,94,53,31,6,5,0.9,0.9
2026-03-22T2300,1276A,117.345251,31.861615,合肥市,瑶海区,颗粒物(PM10),84,97,84,43,40,64,64,117,84,66,40,6,6,0.9,0.8
2026-03-22T2300,1277A,117.3033,31.7967,合肥市,包河区,颗粒物(PM10),112,151,82,54,38,3,3,119,72,161,60,11,9,1.4,0.9
2026-03-22T2300,1278A,117.278,31.7392,合肥市,滨湖新区,颗粒物(PM10),86,100,81,49,39,85,85,134,120,46,19,4,4,1.0,0.8
2026-03-22T2300,1279A,117.1324,31.8395,合肥市,高新区,颗粒物(PM10),62,66,62,32,34,54,54,116,92,61,22,5,5,1.0,0.8
2026-03-22T2300,3464A,117.3802,31.9148,合肥市,高教基地,颗粒物(PM10),84,97,76,48,41,64,64,126,79,56,34,10,8,0.7,0.6
2026-03-22T2300,4098A,117.2518,31.8404,合肥市,中国科学技术大学,颗粒物(PM10),74,83,64,36,33,54,54,125,99,55,25,6,6,1.0,0.8
2026-03-22T2300,3614A,79.9241,37.0878,和田地区,地区环保局,颗粒物(PM10),140,222,230,56,55,78,78,103,98,15,8,3,3,0.4,0.4
2026-03-22T2300,3615A,79.9132,37.1137,和田地区,市环保局,颗粒物(PM10),142,228,224,59,61,69,69,96,90,18,14,3,3,NA,0.7
2026-03-22T2300,2517A,108.0496,24.6957,河池市,市环保站,,33,30,31,23,23,3,3,21,12,19,11,4,4,1.0,0.8
2026-03-22T2300,4302A,108.0901,24.6945,河池市,上任中路54号,,39,NA,32,27,21,0,0,13,6,22,14,6,6,1.0,0.8
2026-03-22T2300,1697A,114.6962,23.7538,河源市,东埔,,36,35,32,25,25,76,76,96,87,12,13,5,5,0.7,0.8
2026-03-22T2300,1698A,114.6895,23.7232,河源市,老城,,48,48,34,27,25,61,61,96,86,14,11,6,6,0.7,0.8
2026-03-22T2300,3374A,115.5562,35.089,菏泽市,定陶老年大学,颗粒物(PM10),109,141,130,53,73,76,76,134,111,29,19,7,6,0.4,0.4
2026-03-22T2300,4114A,115.4239,35.2593,菏泽市,黄河路600号,颗粒物(PM10),120,171,149,56,72,30,30,126,97,61,19,4,4,0.5,0.5
2026-03-22T2300,4115A,115.5025,35.2727,菏泽市,菏泽市人社局,颗粒物(PM10),110,145,127,64,73,59,59,128,98,40,22,10,6,0.5,0.5
2026-03-22T2300,4184A,115.479691,35.244011,菏泽市,永昌路1号,颗粒物(PM10),110,144,136,58,72,81,81,144,117,35,22,5,4,0.4,0.4
2026-03-22T2300,4193A,115.471542,35.280012,菏泽市,长城路999号,颗粒物(PM10),119,167,135,66,70,51,51,131,105,45,18,15,11,0.5,0.4
2026-03-22T2300,2514A,111.5264,24.4178,贺州市,环保小区,细颗粒物(PM2.5),124,120,67,86,45,6,6,24,17,51,35,6,6,1.6,1.1
2026-03-22T2300,2515A,111.561,24.4074,贺州市,政协大楼,细颗粒物(PM2.5),118,115,63,79,48,0,0,21,10,52,43,7,7,1.8,1.2
2026-03-22T2300,3534A,111.4744,24.455,贺州市,西湾,细颗粒物(PM2.5),133,158,73,96,45,5,5,28,22,39,28,8,7,1.3,1
2026-03-22T2300,2385A,114.17,35.9019,鹤壁市,市监测站,颗粒物(PM10),80,91,92,34,46,51,51,101,77,32,20,17,10,0.4,0.9
2026-03-22T2300,2386A,114.2953,35.7512,鹤壁市,市交警支队,颗粒物(PM10),73,81,99,31,40,40,40,95,68,41,26,6,8,0.5,0.6
2026-03-22T2300,2387A,114.2877,35.7302,鹤壁市,迎宾馆,颗粒物(PM10),75,85,107,27,44,39,39,99,67,37,22,12,9,0.7,0.6
2026-03-22T2300,3474A,114.2616,35.6824,鹤壁市,大新区,颗粒物(PM10),70,78,96,41,48,47,47,102,74,29,24,5,8,0.7,0.8
2026-03-22T2300,3596A,114.1573,35.9607,鹤壁市,南山宾馆,颗粒物(PM10),52,52,105,17,43,88,88,101,92,3,11,7,10,0.2,0.8
2026-03-22T2300,2244A,130.2537,47.3416,鹤岗市,哈啤分公司,细颗粒物(PM2.5),62,53,48,41,43,63,63,90,72,14,12,12,11,0.5,0.4
2026-03-22T2300,2245A,130.2683,47.3087,鹤岗市,斯达机电,细颗粒物(PM2.5),70,65,57,45,43,68,68,94,76,16,13,11,11,0.6,0.6
2026-03-22T2300,2246A,130.3114,47.3388,鹤岗市,东山纸板厂,颗粒物(PM10),99,118,94,46,52,22,22,89,44,42,28,13,11,1.3,1
2026-03-22T2300,2263A,127.4832,50.2524,黑河市,交通局,颗粒物(PM10),55,56,37,29,18,39,39,84,58,37,21,10,8,0.5,0.4
2026-03-22T2300,2264A,127.5146,50.2339,黑河市,环保局,,31,31,44,21,31,52,52,84,75,30,33,8,8,0.5,0.6
2026-03-22T2300,1074A,115.6839,37.754,衡水市,电机北厂,颗粒物(PM10),107,137,98,60,48,41,41,99,78,75,25,3,4,0.3,0.5
2026-03-22T2300,1075A,115.6303,37.7318,衡水市,市监测站,颗粒物(PM10),85,99,87,49,46,38,38,96,82,42,17,1,3,0.5,0.4
2026-03-22T2300,3188A,115.6684,37.7216,衡水市,市城管局,颗粒物(PM10),81,93,97,40,48,29,29,98,79,76,20,4,6,0.5,0.5
2026-03-22T2300,3459A,115.599,37.5491,衡水市,地表水厂,颗粒物(PM10),83,96,93,31,50,6,6,100,66,98,24,4,5,0.4,0.5
2026-03-22T2300,2457A,112.6209,26.9268,衡阳市,衡阳化工总厂,,42,37,32,29,24,21,21,27,17,12,17,11,5,1.1,1.1
2026-03-22T2300,2458A,112.621,26.8957,衡阳市,珠晖区环保局,,26,24,31,18,22,17,17,26,16,19,24,10,6,1.2,1.2
2026-03-22T2300,2459A,112.628,26.8654,衡阳市,市委党校,,32,26,32,22,24,19,19,28,18,14,19,23,7,1.2,1.3
2026-03-22T2300,2460A,112.6007,26.8977,衡阳市,市监测站,,28,28,34,19,24,23,23,27,19,17,25,23,8,1.0,1
2026-03-22T2300,2461A,112.5658,26.9013,衡阳市,真空机电公司,细颗粒物(PM2.5),52,36,32,36,26,17,17,28,20,22,23,12,7,1.3,1.3
2026-03-22T2300,3399A,112.6703,26.8817,衡阳市,师范学院,,28,28,33,18,21,22,22,30,24,10,15,18,7,1.1,1.1
2026-03-22T2300,3038A,103.3757,23.3679,红河哈尼族彝族自治州,州图书馆,,25,25,20,15,17,68,68,86,76,8,7,4,5,0.4,0.4
2026-03-22T2300,4154A,103.401,23.3561,红河哈尼族彝族自治州,蒙自市朝阳路,,22,15,18,13,17,69,69,92,80,6,7,8,9,0.3,0.3
2026-03-22T2300,1090A,111.6506,40.7517,呼和浩特市,呼市一监,细颗粒物(PM2.5),160,161,57,122,32,43,43,115,99,50,15,12,9,1.0,0.5
2026-03-22T2300,1094A,111.7516,40.8369,呼和浩特市,如意水处理厂,细颗粒物(PM2.5),150,166,40,114,25,56,56,108,99,58,12,14,9,0.8,0.3
2026-03-22T2300,1095A,111.727798,40.806187,呼和浩特市,二十九中,细颗粒物(PM2.5),212,NA,54,162,33,55,55,102,94,46,14,13,9,1.0,0.4
2026-03-22T2300,1097A,111.717,40.7617,呼和浩特市,化肥厂生活区,细颗粒物(PM2.5),250,268,66,200,49,54,54,112,99,50,18,11,8,1.1,0.4
2026-03-22T2300,3699A,111.6519,40.8389,呼和浩特市,海东办,细颗粒物(PM2.5),88,68,35,54,14,57,57,97,83,32,12,7,5,0.5,0.3
2026-03-22T2300,4275A,111.591512,40.827312,呼和浩特市,成吉思汗西街8号,,29,29,33,12,12,55,55,94,83,34,14,4,4,0.3,0.2
2026-03-22T2300,4276A,111.6597,40.8077,呼和浩特市,公园东路75号,细颗粒物(PM2.5),125,117,50,87,20,69,69,99,92,28,13,11,9,0.6,0.4
2026-03-22T2300,4277A,111.5427,40.7846,呼和浩特市,金海路35号,,45,NA,49,31,24,59,59,106,99,25,14,8,8,0.3,0.3
2026-03-22T2300,3061A,119.7511,49.1576,呼伦贝尔市,国华电力东,,26,23,29,17,21,83,83,105,94,14,13,5,5,0.3,0.3
2026-03-22T2300,4279A,119.7569,49.2222,呼伦贝尔市,伊敏大街东7号,,28,22,32,16,21,88,88,104,99,11,13,6,6,0.2,0.3
2026-03-22T2300,1250A,120.075,30.867,湖州市,城西水厂,,41,41,49,28,35,15,15,102,60,82,36,6,6,0.6,0.5
2026-03-22T2300,2873A,120.083,30.8929,湖州市,仁皇山新区,,38,38,53,24,32,31,31,99,73,68,30,4,5,0.8,0.7
2026-03-22T2300,2907A,120.1846,30.8592,湖州市,吴兴区站,颗粒物(PM10),57,59,65,32,34,52,52,118,90,39,23,6,6,0.6,0.5
2026-03-22T2300,3562A,120.4146,30.8538,湖州市,南浔区站,颗粒物(PM10),65,70,56,39,35,67,67,112,98,26,19,5,5,0.8,0.7
2026-03-22T2300,1607A,120.904878,40.721091,葫芦岛市,龙港区,细颗粒物(PM2.5),166,155,132,126,103,45,45,96,70,28,23,8,24,1.2,1
2026-03-22T2300,1608A,120.8382,40.7521,葫芦岛市,化工街,细颗粒物(PM2.5),227,251,175,177,127,3,3,80,48,87,46,17,20,1.6,0.9
2026-03-22T2300,1609A,120.8339,40.7078,葫芦岛市,新区,细颗粒物(PM2.5),218,NA,118,168,118,1,1,89,55,86,30,9,10,1.3,0.9
2026-03-22T2300,1610A,120.8697,40.7679,葫芦岛市,东城区,细颗粒物(PM2.5),235,197,125,185,123,3,3,82,50,85,41,31,16,1.6,1.1
2026-03-22T2300,2483A,109.9297,27.5383,怀化市,河西地税局,,37,37,19,19,11,1,1,48,24,33,15,4,3,/,/
2026-03-22T2300,2484A,109.9783,27.5342,怀化市,市四医院,,29,27,18,20,11,13,13,45,34,21,15,7,6,0.6,0.5
2026-03-22T2300,2485A,109.9971,27.5579,怀化市,监测楼,,29,22,18,20,12,13,13,48,33,18,10,3,3,0.4,0.4
2026-03-22T2300,1210A,119.0566,33.5991,淮安市,钵池山,细颗粒物(PM2.5),116,107,84,77,62,52,52,134,113,53,33,7,9,0.5,0.5
2026-03-22T2300,1211A,119.0083,33.578,淮安市,北京南路,细颗粒物(PM2.5),130,102,80,93,69,65,65,126,113,31,25,8,10,0.6,0.7
2026-03-22T2300,1212A,118.9938,33.6083,淮安市,市监测站,细颗粒物(PM2.5),137,NA,74,100,72,70,70,138,121,36,28,5,8,0.5,0.6
2026-03-22T2300,1213A,119.135,33.5038,淮安市,楚州区监测站,细颗粒物(PM2.5),121,95,87,83,71,56,56,120,101,36,28,6,7,0.7,0.8
2026-03-22T2300,3426A,118.8757,33.2897,淮安市,新华书店,细颗粒物(PM2.5),113,113,91,74,54,57,57,122,100,43,24,7,8,0.5,0.6
2026-03-22T2300,4092A,119.119691,33.550006,淮安市,枚皋中路89号,NA,NA,NA,94,NA,75,NA,NA,126,120,29,23,10,11,0.7,0.8
2026-03-22T2300,4206A,119.028838,33.631911,淮安市,承德北路606号,细颗粒物(PM2.5),122,136,105,84,64,56,56,128,106,37,26,8,10,0.5,0.6
2026-03-22T2300,2282A,116.8005,33.9749,淮北市,监测站,细颗粒物(PM2.5),120,141,122,81,71,90,90,145,130,35,23,8,8,0.8,0.8
2026-03-22T2300,2283A,116.8094,33.9008,淮北市,烈山区政府,细颗粒物(PM2.5),126,148,114,88,72,80,80,145,126,25,22,6,8,0.6,0.6
2026-03-22T2300,4017A,116.7926,33.9534,淮北市,市博物馆,细颗粒物(PM2.5),121,118,118,83,76,96,96,140,128,27,22,7,6,0.8,0.8
2026-03-22T2300,4100A,116.8322,33.9884,淮北市,杜集区第一实验学校,细颗粒物(PM2.5),120,160,128,82,71,79,79,136,113,33,21,11,9,0.8,0.7
2026-03-22T2300,2277A,116.8304,32.7726,淮南市,潘集区政府,颗粒物(PM10),87,101,94,53,43,64,64,128,97,33,26,7,8,0.6,0.6
2026-03-22T2300,2279A,116.8569,32.5949,淮南市,谢家集区政府,颗粒物(PM10),84,97,79,49,42,85,85,136,112,35,27,8,9,0.7,0.6
2026-03-22T2300,2280A,116.8279,32.6333,淮南市,八公山区政府,颗粒物(PM10),85,99,79,52,44,82,82,133,113,22,16,8,12,0.6,0.6
2026-03-22T2300,2894A,117.0561,32.6536,淮南市,经济技术开发区消防队,细颗粒物(PM2.5),94,100,83,57,45,94,94,124,110,27,25,8,9,0.6,0.6
2026-03-22T2300,3329A,117.011,32.5891,淮南市,山南新区,颗粒物(PM10),115,158,94,58,45,96,96,140,126,35,24,10,8,1.0,0.6
2026-03-22T2300,4209A,117.003137,32.644456,淮南市,国庆中路369号,细颗粒物(PM2.5),88,94,78,54,46,96,96,117,106,21,19,10,10,0.7,0.6
2026-03-22T2300,2446A,114.9021,30.474,黄冈市,职工中心,细颗粒物(PM2.5),108,100,73,68,47,47,47,96,85,27,18,9,7,1.4,1.2
2026-03-22T2300,2929A,114.8858,30.4519,黄冈市,红卫路,细颗粒物(PM2.5),106,92,68,66,48,43,43,98,85,35,20,6,5,0.8,0.7
2026-03-22T2300,3398A,114.9134,30.4446,黄冈市,市林业局,细颗粒物(PM2.5),105,123,84,65,49,49,49,98,85,30,21,4,4,1.1,0.9
2026-03-22T2300,2672A,102.02,35.5101,黄南藏族自治州,同仁县隆务镇,颗粒物(PM10),86,100,110,34,39,82,82,96,91,2,4,11,11,0.4,0.4
2026-03-22T2300,2295A,118.2905,29.6965,黄山市,延安路89号,,29,26,31,20,23,18,18,36,27,21,16,4,4,0.6,0.5
2026-03-22T2300,2297A,118.1369,30.2755,黄山市,黄山区政府5号楼,,27,27,24,7,8,19,19,56,34,9,11,3,3,0.7,0.6
2026-03-22T2300,4210A,118.335445,29.720283,黄山市,滨江东路7-2号,,36,36,41,23,24,17,17,38,28,26,21,/,/,/,/
2026-03-22T2300,2423A,115.0547,30.2332,黄石市,沈家营,细颗粒物(PM2.5),98,104,83,59,46,47,47,78,63,27,29,6,13,1.4,1.1
2026-03-22T2300,2426A,114.899,30.211,黄石市,铁山,细颗粒物(PM2.5),105,66,56,65,52,15,15,75,56,49,21,9,10,0.8,1.3
2026-03-22T2300,2427A,115.0259,30.2108,黄石市,团城山,细颗粒物(PM2.5),96,92,72,58,48,60,60,81,70,25,24,21,11,1.4,1.2
2026-03-22T2300,3149A,115.0174,30.1591,黄石市,笔架山北路,细颗粒物(PM2.5),106,128,105,66,52,32,32,80,62,22,18,9,10,1.4,1.3
2026-03-22T2300,4185A,115.078022,30.21118,黄石市,磁湖东路29号,细颗粒物(PM2.5),106,118,90,66,51,44,44,80,62,28,33,6,6,1.8,1.4
2026-03-22T2300,1392A,114.4181,23.0528,惠州市,河南岸金山湖子站,颗粒物(PM10),53,53,36,30,22,67,67,130,108,22,9,6,8,0.7,0.6
2026-03-22T2300,1393A,114.4055,23.0824,惠州市,下埔横江三路子站,颗粒物(PM10),60,64,42,31,22,68,68,130,109,24,11,4,5,0.8,0.7
2026-03-22T2300,1395A,114.4645,22.7832,惠州市,惠阳区承修路船湖子站,,45,45,37,26,21,76,76,113,100,20,11,7,6,0.6,0.6
2026-03-22T2300,1396A,114.5316,22.7423,惠州市,大亚湾管委会子站,,42,42,37,24,20,98,98,110,104,13,10,3,3,0.6,0.6
2026-03-22T2300,3314A,114.4334,22.8134,惠州市,惠阳秋长,,39,39,31,26,19,91,91,120,107,18,11,/,/,/,/
2026-03-22T2300,3452A,114.6521,22.7755,惠州市,大亚湾霞涌,,30,30,27,20,17,64,64,122,112,26,10,/,/,/,/
2026-03-22T2300,4300A,114.4089,23.1147,惠州市,文华一路1号,颗粒物(PM10),53,54,37,30,22,72,72,135,113,25,12,/,/,/,/
2026-03-22T2300,2240A,130.9618,45.2926,鸡西市,环保局,细颗粒物(PM2.5),121,91,118,83,82,70,70,88,74,14,33,12,14,0.4,0.7
2026-03-22T2300,2243A,130.9294,45.2959,鸡西市,第一中学,细颗粒物(PM2.5),115,86,97,76,78,67,67,91,73,10,22,3,6,0.3,0.4
2026-03-22T2300,3707A,131.0069,45.2988,鸡西市,欧美日汽修厂,细颗粒物(PM2.5),124,102,140,86,86,47,47,79,62,23,38,9,14,1.0,1.1
2026-03-22T2300,2367A,114.9753,27.0803,吉安市,红声器材厂,,34,34,43,16,26,17,17,26,16,26,27,7,7,1.1,1
2026-03-22T2300,2369A,114.9903,27.1313,吉安市,市环境监测站,,27,27,37,18,25,11,11,27,18,29,19,13,9,/,/
2026-03-22T2300,2370A,115.009527,27.096792,吉安市,青原区法院,,29,29,42,10,25,22,22,26,20,21,26,2,4,0.7,0.6
2026-03-22T2300,1772A,126.54,43.8622,吉林市,哈达湾,细颗粒物(PM2.5),169,158,122,128,96,47,47,108,61,25,19,7,8,1.1,0.9
2026-03-22T2300,1773A,126.5843,43.8358,吉林市,东局子,细颗粒物(PM2.5),215,NA,122,165,129,31,31,112,56,29,20,5,7,1.1,0.9
2026-03-22T2300,1774A,126.5051,43.8243,吉林市,电力学院,细颗粒物(PM2.5),153,172,129,117,94,31,31,109,61,30,22,6,8,1.4,0.9
2026-03-22T2300,1775A,126.6133,43.8971,吉林市,江北,细颗粒物(PM2.5),189,153,124,142,106,30,30,111,57,19,21,7,8,1.1,0.8
2026-03-22T2300,1776A,126.5549,43.8304,吉林市,江南公园,细颗粒物(PM2.5),137,118,112,100,89,49,49,110,61,17,18,7,9,1.1,0.9
2026-03-22T2300,2868A,126.4737,43.953,吉林市,九站,细颗粒物(PM2.5),186,173,135,140,102,32,32,105,49,47,30,7,10,1.1,0.9
2026-03-22T2300,1299A,116.9866,36.6118,济南市,科干所,颗粒物(PM10),101,122,116,51,66,90,90,136,107,26,18,7,7,0.6,0.7
2026-03-22T2300,1300A,116.9379,36.6652,济南市,农科所,细颗粒物(PM2.5),113,149,124,74,76,9,9,127,77,92,29,7,7,1.0,0.7
2026-03-22T2300,1301A,117.1265,36.6736,济南市,开发区,颗粒物(PM10),109,142,111,52,62,50,50,137,102,58,24,4,5,0.8,0.7
2026-03-22T2300,1303A,117.0616,36.6865,济南市,省种子仓库,颗粒物(PM10),116,161,125,60,65,14,14,132,90,87,24,4,5,0.8,0.7
2026-03-22T2300,1304A,116.9495185,36.644937,济南市,机床二厂,颗粒物(PM10),109,142,124,62,72,53,53,128,99,51,22,7,7,0.9,0.7
2026-03-22T2300,1305A,117.0496,36.6629,济南市,市监测站,颗粒物(PM10),110,144,126,63,63,68,68,134,103,40,20,5,5,0.7,0.6
2026-03-22T2300,1306A,116.7674,36.5458,济南市,长清党校,颗粒物(PM10),107,137,129,51,70,81,81,128,108,35,24,5,5,0.5,0.6
2026-03-22T2300,1961A,117.5323,36.6865,济南市,东山小学,颗粒物(PM10),116,161,128,67,66,56,56,138,106,56,23,7,5,0.8,0.7
2026-03-22T2300,3059A,117.7181,36.205,济南市,泰兴公司,颗粒物(PM10),110,144,134,58,69,37,37,144,111,78,28,11,39,0.9,1
2026-03-22T2300,3064A,117.6861,36.2172,济南市,莱芜战役纪念馆,颗粒物(PM10),109,141,122,54,64,82,82,153,126,43,23,8,19,0.7,0.8
2026-03-22T2300,3494A,117.1673,36.9782,济南市,济阳区政府,细颗粒物(PM2.5),147,161,131,111,79,86,86,116,97,31,23,13,8,0.8,0.6
2026-03-22T2300,3495A,117.1168,36.6299,济南市,锦屏中学,颗粒物(PM10),93,110,111,53,65,74,74,128,100,21,18,8,9,0.7,0.7
2026-03-22T2300,4108A,117.7107,36.2385,济南市,山财大街5号,颗粒物(PM10),101,122,121,56,66,83,83,140,113,44,28,13,30,0.5,0.6
2026-03-22T2300,4109A,116.9744,36.6889,济南市,无影山路12号,颗粒物(PM10),108,139,111,64,72,47,47,122,87,60,25,6,6,0.9,0.8
2026-03-22T2300,1653A,116.6229,35.4288,济宁市,火炬城,细颗粒物(PM2.5),106,114,108,66,78,81,81,135,115,26,20,3,3,0.6,0.7
2026-03-22T2300,3500A,116.5808,35.3703,济宁市,北湖一中,细颗粒物(PM2.5),103,113,100,63,78,93,93,143,127,22,17,8,8,0.5,0.6
2026-03-22T2300,3501A,116.8251,35.5592,济宁市,服务中心,颗粒物(PM10),113,152,136,69,80,72,72,141,115,31,19,4,4,0.7,0.8
2026-03-22T2300,3678A,116.5907,35.4054,济宁市,市第七中学,细颗粒物(PM2.5),104,121,102,64,77,95,95,150,130,24,20,8,7,0.6,0.8
2026-03-22T2300,4111A,116.6075,35.4566,济宁市,任和路,颗粒物(PM10),114,155,141,65,80,82,82,143,119,27,19,8,7,0.6,0.8
2026-03-22T2300,4112A,116.5648,35.3921,济宁市,文体南路1号,细颗粒物(PM2.5),104,126,134,64,77,90,90,147,126,28,21,6,6,0.6,0.7
2026-03-22T2300,4122A,112.6071,35.1015,济源市,市委党校,颗粒物(PM10),110,146,192,51,51,81,81,114,104,25,21,14,9,0.6,0.5
2026-03-22T2300,4123A,112.596,35.0702,济源市,沁园中路1号,颗粒物(PM10),105,131,187,46,53,80,80,113,100,24,24,5,7,0.5,0.6
2026-03-22T2300,2255A,130.2749,46.8028,佳木斯市,佳纺,细颗粒物(PM2.5),137,190,110,100,82,12,12,85,32,51,41,8,6,1.0,0.8
2026-03-22T2300,2257A,130.3258,46.7975,佳木斯市,环保局,细颗粒物(PM2.5),119,128,97,80,78,4,4,82,30,54,41,8,5,0.9,0.7
2026-03-22T2300,4285A,130.363,46.806,佳木斯市,顺和街,细颗粒物(PM2.5),122,115,89,84,81,8,8,81,34,62,38,8,6,0.9,0.7
2026-03-22T2300,4286A,130.3952,46.8268,佳木斯市,长安路196号,细颗粒物(PM2.5),113,97,86,74,72,7,7,82,43,60,27,6,5,0.8,0.5
2026-03-22T2300,1252A,120.7439,30.778,嘉兴市,清河小学,细颗粒物(PM2.5),94,74,48,57,29,39,39,102,87,57,28,6,6,0.5,0.4
2026-03-22T2300,1253A,120.7261,30.7477,嘉兴市,嘉兴学院,细颗粒物(PM2.5),82,92,55,51,27,45,45,105,88,46,29,6,6,0.8,0.6
2026-03-22T2300,2872A,120.7845,30.7524,嘉兴市,南湖区残联,细颗粒物(PM2.5),92,56,37,56,30,61,61,104,90,47,26,5,5,0.9,0.7
2026-03-22T2300,3407A,120.6915,30.7741,嘉兴市,秀洲住建,细颗粒物(PM2.5),84,66,50,52,28,6,6,106,68,93,33,8,8,0.6,0.5
2026-03-22T2300,1945A,98.291,39.7705,嘉峪关市,气象局,颗粒物(PM10),113,153,126,35,28,77,77,94,91,18,16,8,33,0.4,0.8
2026-03-22T2300,2884A,98.2672,39.7978,嘉峪关市,酒钢宾馆,颗粒物(PM10),101,122,128,38,30,68,68,98,93,22,14,12,44,0.5,0.7
2026-03-22T2300,3248A,98.2644,39.7723,嘉峪关市,雄关区,颗粒物(PM10),95,112,98,36,28,44,44,96,87,41,17,8,24,0.3,0.5
2026-03-22T2300,1383A,113.1063,22.6058,江门市,北街,,25,25,32,17,18,70,70,96,87,14,15,/,/,/,/
2026-03-22T2300,1384A,113.073,22.5835,江门市,西区,,32,32,33,22,20,74,74,106,96,16,14,/,/,/,/
2026-03-22T2300,1385A,113.0218,22.531,江门市,圭峰西,,33,23,30,23,19,75,75,102,93,10,10,/,/,/,/
2026-03-22T2300,1386A,113.0826,22.5947,江门市,东湖,,38,38,31,24,20,71,71,102,92,14,14,7,6,0.6,0.5
2026-03-22T2300,3311A,113.1077,22.5647,江门市,江海富民,,41,41,50,22,20,78,78,109,98,15,13,/,/,0.4,0.4
2026-03-22T2300,3449A,113.0496,22.4669,江门市,新会银湖,,43,NA,32,30,18,60,60,105,91,20,19,6,6,0.4,0.3
2026-03-22T2300,3335A,113.3137,35.2643,焦作市,马村街道办,颗粒物(PM10),78,89,124,32,50,75,75,113,99,25,23,8,10,0.5,0.7
2026-03-22T2300,3336A,113.2464,35.2374,焦作市,焦作技师学院,颗粒物(PM10),85,99,126,22,43,75,75,116,102,18,17,8,9,0.5,0.6
2026-03-22T2300,3477A,113.1656,35.2536,焦作市,中站许衡医院,颗粒物(PM10),90,106,124,23,41,91,91,123,114,17,15,10,10,0.4,0.6
2026-03-22T2300,3981A,113.2456,35.18,焦作市,原李万街道办,颗粒物(PM10),89,104,122,34,44,64,64,112,98,22,17,13,12,0.8,0.7
2026-03-22T2300,4264A,113.234,35.219,焦作市,新安路1731号,颗粒物(PM10),86,100,134,29,46,78,78,124,110,24,21,9,11,0.7,0.7
2026-03-22T2300,4295A,113.2722,35.2121,焦作市,人民路3066号,颗粒物(PM10),92,108,130,33,51,74,74,125,106,23,29,9,10,0.2,0.4
2026-03-22T2300,1708A,116.3701,23.5345,揭阳市,新兴,,48,44,45,33,30,86,86,124,110,25,20,12,8,1.1,0.8
2026-03-22T2300,1709A,116.3261,23.5442,揭阳市,西马,,50,50,52,35,32,87,87,130,112,19,17,8,6,0.9,0.8
2026-03-22T2300,1710A,116.361,23.5627,揭阳市,东兴,细颗粒物(PM2.5),68,64,50,44,31,81,81,134,117,25,17,8,7,/,/
2026-03-22T2300,1711A,116.4151,23.5295,揭阳市,渔湖,细颗粒物(PM2.5),52,42,46,36,33,106,106,151,136,19,17,7,5,/,/
2026-03-22T2300,3320A,116.4028,23.5699,揭阳市,曲溪,细颗粒物(PM2.5),64,54,47,42,29,95,95,147,131,20,15,9,8,1.1,0.7
2026-03-22T2300,1944A,102.1691,38.5166,金昌市,天庆家园,颗粒物(PM10),115,158,141,57,49,85,85,97,94,7,7,1,10,0.7,0.6
2026-03-22T2300,4022A,102.1648,38.5369,金昌市,金川区人防中心,颗粒物(PM10),117,162,148,59,51,80,80,92,87,8,9,7,25,0.5,0.5
2026-03-22T2300,4239A,102.193042,38.531887,金昌市,长春路96号,颗粒物(PM10),119,167,141,54,45,75,75,90,87,10,7,8,18,0.8,0.8
2026-03-22T2300,1262A,119.6478,29.0773,金华市,十五中,"颗粒物(PM10),细颗粒物(PM2.5)",58,60,36,39,22,14,14,57,27,50,27,4,4,0.8,0.6
2026-03-22T2300,1263A,119.6859,29.1032,金华市,监测站,"颗粒物(PM10),细颗粒物(PM2.5)",52,52,27,36,18,0,0,40,16,68,40,4,4,0.7,0.6
2026-03-22T2300,3659A,119.656,29.1132,金华市,气象局,颗粒物(PM10),53,54,34,32,19,2,2,26,7,62,35,2,3,0.8,0.6
2026-03-22T2300,1767A,121.1114,41.0879,锦州市,南山,细颗粒物(PM2.5),250,221,138,200,130,4,4,104,69,85,34,9,11,1.9,1
2026-03-22T2300,1768A,121.060361,40.842794,锦州市,开发区,细颗粒物(PM2.5),208,247,127,158,106,1,1,89,39,102,36,9,8,1.3,0.8
2026-03-22T2300,1769A,121.1836,41.1118,锦州市,百股街道,细颗粒物(PM2.5),247,197,144,197,141,45,45,106,74,37,30,17,12,1.6,1.1
2026-03-22T2300,1770A,121.1176,41.1224,锦州市,天安街道,细颗粒物(PM2.5),262,260,146,212,133,3,3,99,60,84,38,9,11,2.7,1.3
2026-03-22T2300,1771A,121.1303,41.1385,锦州市,北湖公园,细颗粒物(PM2.5),261,NA,146,211,131,22,22,108,79,68,30,11,11,3.0,1.1
2026-03-22T2300,2160A,112.8496,35.5051,晋城市,自来水公司,颗粒物(PM10),83,95,127,21,30,99,99,113,112,18,18,6,8,0.2,0.6
2026-03-22T2300,2162A,112.8509,35.4886,晋城市,市环保局,颗粒物(PM10),80,91,117,26,39,102,102,117,115,9,11,6,9,0.5,0.8
2026-03-22T2300,3620A,112.8258,35.4804,晋城市,泽州一中,颗粒物(PM10),95,112,121,25,35,107,107,119,119,12,13,5,7,0.7,0.9
2026-03-22T2300,4078A,112.8246,35.5152,晋城市,前书院路,颗粒物(PM10),79,90,120,27,30,93,93,111,110,16,13,8,8,0.7,0.8
2026-03-22T2300,4079A,112.8864,35.4773,晋城市,祥云街666号,颗粒物(PM10),70,78,110,29,44,103,103,114,113,10,13,8,8,0.3,0.5
2026-03-22T2300,2174A,112.6992,37.6984,晋中市,榆次区政府,颗粒物(PM10),51,51,63,23,22,59,59,91,81,31,23,9,10,0.5,0.6
2026-03-22T2300,2865A,112.7195,37.683,晋中市,榆次三中,颗粒物(PM10),51,51,63,19,23,62,62,96,86,22,21,11,10,0.3,0.5
2026-03-22T2300,4080A,112.7375,37.7215,晋中市,广安街188号,,42,42,61,19,20,52,52,96,79,28,21,11,11,0.3,0.2
2026-03-22T2300,4200A,112.7478,37.6954,晋中市,迎宾街26号,颗粒物(PM10),51,51,59,23,21,56,56,99,86,28,20,10,9,0.4,0.5
2026-03-22T2300,2439A,112.2012,31.048,荆门市,竹园小学,细颗粒物(PM2.5),88,93,71,54,42,99,99,116,107,17,19,1,2,1.0,1.3
2026-03-22T2300,2440A,112.1968,30.9892,荆门市,掇刀,细颗粒物(PM2.5),103,90,68,63,44,87,87,120,109,21,18,8,7,0.8,0.8
2026-03-22T2300,3012A,112.1849,31.0361,荆门市,西山林语,颗粒物(PM10),74,83,66,46,41,94,94,114,105,13,14,5,6,0.9,0.9
2026-03-22T2300,3547A,112.1631,31.0134,荆门市,龙泉中学南校,细颗粒物(PM2.5),96,93,76,58,47,89,89,122,109,14,14,3,6,0.5,0.5
2026-03-22T2300,4124A,112.2213,31.0654,荆门市,新台西路6号,细颗粒物(PM2.5),90,71,65,55,45,92,92,108,101,32,28,6,7,0.7,0.7
2026-03-22T2300,1844A,112.2493,30.3198,荆州市,市图书馆,NA,NA,NA,47,24,40,NA,NA,117,NA,NA,25,9,7,0.9,0.8
2026-03-22T2300,1845A,112.2009,30.3543,荆州市,市委党校,颗粒物(PM10),58,60,54,28,46,32,32,90,68,40,29,7,7,1.0,0.9
2026-03-22T2300,3194A,112.2749,30.3124,荆州市,管委会,细颗粒物(PM2.5),82,57,54,51,47,43,43,104,76,27,23,14,12,0.9,0.8
2026-03-22T2300,4268A,112.1722,30.3366,荆州市,学苑路85号,细颗粒物(PM2.5),76,61,54,48,42,34,34,113,84,32,15,2,1,1.1,1.2
2026-03-22T2300,2343A,117.2114,29.2931,景德镇市,老干部活动中心,,15,NA,22,10,18,29,29,30,24,10,14,4,5,0.5,0.6
2026-03-22T2300,2344A,117.1893,29.2789,景德镇市,兽医站,,21,21,30,7,17,30,30,40,31,14,14,4,4,0.8,0.8
2026-03-22T2300,2346A,117.246,29.2958,景德镇市,陶研所,,18,18,20,9,16,21,21,30,28,18,19,4,4,1.0,1
2026-03-22T2300,4289A,117.154766,29.256967,景德镇市,青少年活动中心,,18,12,22,12,19,22,22,30,25,18,17,3,4,/,/
2026-03-22T2300,1803A,115.9873,29.6816,九江市,十里,颗粒物(PM10),58,61,55,37,38,20,20,63,48,47,47,11,9,1.1,1.2
2026-03-22T2300,1804A,115.9583,29.7047,九江市,茅山头,细颗粒物(PM2.5),64,58,53,42,44,20,20,56,45,55,48,4,4,0.9,0.8
2026-03-22T2300,1805A,115.9877,29.7295,九江市,西园,细颗粒物(PM2.5),52,46,54,36,38,32,32,60,44,60,68,4,4,0.9,0.9
2026-03-22T2300,1808A,115.9112,29.6038,九江市,综合工业园,颗粒物(PM10),54,55,43,30,32,7,7,54,36,51,44,8,8,0.7,0.7
2026-03-22T2300,3190A,116.0254,29.6995,九江市,外国语学校,,49,37,37,34,32,25,25,59,47,37,39,5,4,1.0,1
2026-03-22T2300,4253A,116.010205,29.659402,九江市,莲花大道8号,颗粒物(PM10),51,51,40,33,28,20,20,54,46,23,29,4,4,0.8,0.8
2026-03-22T2300,4240A,98.495752,39.733935,酒泉市,玉门东路5号,颗粒物(PM10),116,161,106,44,31,60,60,90,83,16,7,6,6,0.4,0.3
2026-03-22T2300,4241A,98.5099,39.7506,酒泉市,北大街108号,颗粒物(PM10),110,144,100,48,31,60,60,87,80,19,9,7,7,0.5,0.3
2026-03-22T2300,2698A,76.0071,39.466,喀什地区,巡警大队,颗粒物(PM10),110,145,189,54,64,72,72,114,110,38,34,5,4,0.8,0.9
2026-03-22T2300,2699A,75.9756,39.4693,喀什地区,吾办,颗粒物(PM10),116,160,186,61,67,56,56,111,104,48,32,3,3,0.6,0.9
2026-03-22T2300,4027A,75.9485,39.4688,喀什地区,老干局,颗粒物(PM10),116,160,185,50,51,74,74,114,110,35,27,4,3,0.8,1
2026-03-22T2300,1824A,114.3389,34.778,开封市,肿瘤医院,颗粒物(PM10),104,130,115,60,63,48,48,126,98,66,32,15,9,0.8,0.8
2026-03-22T2300,1826A,114.2884,34.7966,开封市,世纪星幼儿园,细颗粒物(PM2.5),103,123,105,63,54,56,56,119,99,45,21,10,10,0.9,0.8
2026-03-22T2300,3147A,114.3434,34.8101,开封市,龙亭公园,颗粒物(PM10),107,137,114,57,53,45,45,122,98,63,27,11,11,1.0,0.9
2026-03-22T2300,3210A,114.3645,34.7955,开封市,汴京公园,细颗粒物(PM2.5),109,127,111,69,61,38,38,127,97,70,29,6,6,0.6,0.6
2026-03-22T2300,3473A,114.2485,34.8306,开封市,技师学院,颗粒物(PM10),93,110,89,45,54,58,58,122,103,54,18,7,7,0.9,1
2026-03-22T2300,3592A,114.4518,34.7503,开封市,祥符区生态环境局,颗粒物(PM10),117,162,125,60,64,41,41,123,88,69,36,7,10,0.6,0.7
2026-03-22T2300,1951A,84.886,45.6029,克拉玛依市,长征新村,,50,50,30,24,9,84,84,98,98,24,14,6,6,0.5,0.4
2026-03-22T2300,1952A,84.8894,45.5827,克拉玛依市,南林小区,颗粒物(PM10),56,58,35,21,6,73,73,107,104,27,13,3,4,0.5,0.3
2026-03-22T2300,1954A,84.896,44.3328,克拉玛依市,独山子区,细颗粒物(PM2.5),64,67,85,42,42,38,38,121,91,38,18,5,7,0.8,0.9
2026-03-22T2300,1955A,85.6888,46.0909,克拉玛依市,乌尔禾区商贸楼,颗粒物(PM10),58,60,38,22,13,50,50,88,80,23,13,2,2,0.3,0.2
2026-03-22T2300,3612A,85.1045,45.6895,克拉玛依市,白碱滩区新站,,41,41,26,26,5,77,77,103,100,21,10,5,5,0.6,0.5
2026-03-22T2300,2697A,76.1457,39.7143,克孜勒苏柯尔克孜自治州,市人民政府,颗粒物(PM10),124,182,170,59,49,83,83,113,111,32,7,5,4,0.4,0.3
2026-03-22T2300,3665A,76.1654,39.7157,克孜勒苏柯尔克孜自治州,克州文化中心,颗粒物(PM10),127,190,171,65,56,80,80,111,109,33,12,7,6,0.6,0.3
2026-03-22T2300,1450A,102.8203,24.889,昆明市,呈贡新区,,22,6,40,3,36,68,68,96,77,21,16,4,6,0.7,0.8
2026-03-22T2300,1452A,102.7253,25.0904,昆明市,龙泉镇,,17,16,48,6,34,22,22,89,65,34,25,3,4,0.5,0.7
2026-03-22T2300,1453A,102.7267,25.0378,昆明市,东风东路,,25,8,49,3,38,78,78,94,79,11,15,2,7,0.4,0.7
2026-03-22T2300,1454A,102.6744,25.0671,昆明市,金鼎山,,25,NA,51,13,36,78,78,92,78,8,20,2,3,0.5,0.7
2026-03-22T2300,1455A,102.6643,25.0401,昆明市,碧鸡广场,,17,12,49,10,38,54,54,88,74,28,22,4,8,0.4,0.6
2026-03-22T2300,3179A,102.7491,25.012,昆明市,官渡区博物馆,,21,NA,47,6,35,66,66,92,72,12,16,3,6,0.6,0.7
2026-03-22T2300,3375A,102.8016,24.8336,昆明市,青年创业园,,18,18,53,3,37,44,44,92,74,25,19,4,8,0.6,0.7
2026-03-22T2300,3550A,102.8,24.9787,昆明市,昆明学院,,24,NA,49,12,33,74,74,91,74,13,13,4,7,0.6,0.7
2026-03-22T2300,3551A,102.5969,24.6738,昆明市,晋宁区生态环境分局,,20,17,52,11,36,62,62,94,76,27,25,7,8,0.5,0.6
2026-03-22T2300,3552A,102.6673,24.9861,昆明市,云天化总部,,25,11,48,3,34,79,79,97,80,10,18,7,9,0.6,0.7
2026-03-22T2300,1456A,91.132,29.6515,拉萨市,八廓街,,38,25,15,3,6,119,119,130,125,5,10,6,5,0.3,0.4
2026-03-22T2300,1457A,91.1221,29.6748,拉萨市,市环保局,,36,24,15,3,6,114,114,126,123,7,12,2,3,0.5,0.5
2026-03-22T2300,1458A,91.0874,29.6476,拉萨市,区监测站,,36,15,11,11,7,115,115,122,117,6,13,4,4,0.5,0.5
2026-03-22T2300,1459A,91.1774,29.6541,拉萨市,西藏大学,,37,20,13,13,7,118,118,126,124,6,11,4,4,0.3,0.4
2026-03-22T2300,1460A,90.9798,29.6586,拉萨市,区辐射站,,33,31,15,15,8,103,103,119,108,16,16,4,4,0.4,0.4
2026-03-22T2300,1461A,91.0831,29.6292,拉萨市,拉萨火车站,,37,22,12,7,6,116,116,123,120,3,8,4,4,0.4,0.5
2026-03-22T2300,2520A,109.2203,23.7252,来宾市,来宾技工学校,细颗粒物(PM2.5),132,108,88,95,76,5,5,24,17,35,28,3,7,1.3,1.4
2026-03-22T2300,3535A,109.1781,23.7293,来宾市,兴宾区政府,细颗粒物(PM2.5),131,114,97,94,74,5,5,24,18,35,28,6,10,1.1,1.2
2026-03-22T2300,4002A,109.2312,23.7428,来宾市,中南小学,细颗粒物(PM2.5),141,NA,83,105,78,3,3,27,19,32,27,6,8,1.1,1.2
2026-03-22T2300,1479A,103.8309,36.0467,兰州市,铁路设计院,颗粒物(PM10),109,142,173,53,56,42,42,77,69,50,28,5,5,0.1,0.2
2026-03-22T2300,3241A,103.7439,36.0841,兰州市,百合公园,颗粒物(PM10),117,164,168,77,68,3,3,75,53,75,25,9,7,0.7,0.4
2026-03-22T2300,3242A,103.9613,35.9985,兰州市,和平,颗粒物(PM10),122,177,192,57,60,63,63,92,77,18,14,14,10,0.5,0.5
2026-03-22T2300,4236A,103.629272,36.093822,兰州市,庄浪东路808号,颗粒物(PM10),112,149,174,66,66,40,40,79,64,36,22,11,9,0.5,0.5
2026-03-22T2300,4237A,103.7251,36.104344,兰州市,安宁西路88号,颗粒物(PM10),130,197,199,76,73,19,19,88,72,61,14,10,9,0.5,0.4
2026-03-22T2300,4238A,103.846982,36.067567,兰州市,北滨河东路1号,颗粒物(PM10),117,164,173,72,72,4,4,77,59,77,30,10,9,1.0,0.7
2026-03-22T2300,1067A,116.6712,39.5109,廊坊市,药材公司,细颗粒物(PM2.5),137,152,115,100,73,64,64,95,86,47,24,4,3,0.8,0.5
2026-03-22T2300,1068A,116.7215,39.5592,廊坊市,开发区,细颗粒物(PM2.5),140,156,117,103,72,56,56,96,85,46,26,5,2,0.8,0.5
2026-03-22T2300,1070A,116.7246,39.5273,廊坊市,北华航天学院,细颗粒物(PM2.5),130,153,121,92,71,58,58,100,91,49,24,7,4,0.9,0.5
2026-03-22T2300,2919A,116.7022,39.5454,廊坊市,河北工业大学,细颗粒物(PM2.5),136,156,120,99,69,57,57,98,90,47,21,7,4,0.9,0.5
2026-03-22T2300,2536A,103.7629,29.5844,乐山市,牛耳桥,,46,46,52,29,37,81,81,98,84,16,19,6,6,0.5,0.6
2026-03-22T2300,2537A,103.7501,29.6002,乐山市,市第三水厂,,43,39,45,30,36,76,76,100,86,20,23,4,4,0.7,0.7
2026-03-22T2300,2538A,103.7571,29.5664,乐山市,市监测站,,45,44,51,31,36,79,79,99,91,15,17,2,3,0.8,0.8
2026-03-22T2300,3361A,103.7313,29.563,乐山市,理工大学,,49,40,45,34,39,70,70,100,88,16,16,8,7,0.7,0.7
2026-03-22T2300,2599A,100.2497,26.8802,丽江市,丽江古城,,25,20,27,3,14,79,79,88,85,9,10,8,8,0.5,0.5
2026-03-22T2300,2600A,100.2203,26.8906,丽江市,市中心,,25,NA,18,12,15,80,80,87,84,12,14,9,10,0.3,0.3
2026-03-22T2300,1267A,119.9141,28.4513,丽水市,监测站大楼,,44,44,22,28,12,43,43,82,58,27,16,5,4,0.6,0.4
2026-03-22T2300,1268A,119.93,28.4589,丽水市,莲都小学,颗粒物(PM10),55,57,23,30,11,44,44,79,60,26,18,/,/,/,/
2026-03-22T2300,1269A,119.8794,28.4232,丽水市,余庄前,,39,39,22,24,14,13,13,71,37,28,18,3,4,0.7,0.5
2026-03-22T2300,1173A,119.1759,34.5885,连云港市,市环境监测站,细颗粒物(PM2.5),130,119,77,92,58,95,95,134,126,25,26,12,11,0.6,0.5
2026-03-22T2300,3000A,119.3577,34.6971,连云港市,德源药业,颗粒物(PM10),117,163,90,73,50,51,51,126,112,68,28,7,7,0.8,0.7
2026-03-22T2300,3007A,119.178,34.8442,连云港市,新城一中,细颗粒物(PM2.5),110,94,84,71,64,76,76,103,87,41,37,6,8,0.5,0.6
2026-03-22T2300,3008A,119.3607,34.7519,连云港市,胡沟管理处,颗粒物(PM10),110,144,90,61,47,19,19,78,32,130,53,15,11,0.8,0.8
2026-03-22T2300,3009A,119.1478,34.5913,连云港市,矿山设计院,细颗粒物(PM2.5),123,134,87,85,51,97,97,138,130,42,36,12,10,0.9,0.8
2026-03-22T2300,3434A,119.2414,34.6539,连云港市,工贸学校,细颗粒物(PM2.5),117,107,80,78,56,133,133,148,146,19,20,11,11,0.7,0.5
2026-03-22T2300,3664A,119.4171,34.734,连云港市,连云街道,细颗粒物(PM2.5),104,105,89,64,53,130,130,131,131,14,27,5,7,0.7,0.7
2026-03-22T2300,2573A,102.2629,27.8981,凉山彝族自治州,西昌市政府,,33,28,28,20,20,104,104,106,103,6,9,11,12,0.9,0.8
2026-03-22T2300,2574A,102.2686,27.885,凉山彝族自治州,凉山州政府,,28,24,28,17,17,87,87,89,87,8,9,8,8,0.7,0.6
2026-03-22T2300,4229A,102.2342,27.8859,凉山彝族自治州,凯乐南路30号,,30,29,30,15,14,94,94,95,94,7,10,10,16,0.6,0.5
2026-03-22T2300,2212A,123.1978,41.2036,辽阳市,宏伟区,细颗粒物(PM2.5),162,137,88,123,82,7,7,93,25,29,16,8,9,1.3,0.8
2026-03-22T2300,2213A,123.1684,41.2497,辽阳市,新华园,细颗粒物(PM2.5),158,158,105,120,88,0,0,111,26,54,26,9,10,1.8,0.9
2026-03-22T2300,2214A,123.2355,41.2663,辽阳市,滨河路,细颗粒物(PM2.5),140,115,89,104,80,0,0,99,24,42,26,6,8,1.3,0.8
2026-03-22T2300,4083A,123.153,41.2874,辽阳市,铁西路150号,细颗粒物(PM2.5),148,170,105,112,88,4,4,105,28,57,27,10,12,2.0,0.9
2026-03-22T2300,2227A,125.1359,42.8845,辽源市,环保局,细颗粒物(PM2.5),209,194,134,159,123,10,10,99,28,38,36,6,9,1.5,1.1
2026-03-22T2300,4085A,125.0998,42.9134,辽源市,安宁大街333号,细颗粒物(PM2.5),222,192,140,172,124,5,5,105,28,45,33,3,7,1.5,1
2026-03-22T2300,1625A,115.9789,36.4372,聊城市,区政府,颗粒物(PM10),101,122,120,46,62,43,43,106,85,44,18,10,10,0.8,0.7
2026-03-22T2300,3200A,115.9772,36.4986,聊城市,监控中心,颗粒物(PM10),111,147,124,44,63,10,10,114,73,88,23,13,11,0.8,0.8
2026-03-22T2300,3513A,116.0443,36.436,聊城市,九州社区,颗粒物(PM10),101,122,120,54,68,80,80,119,97,36,21,4,3,0.6,0.7
2026-03-22T2300,4018A,116.0564,36.4609,聊城市,星美广场,颗粒物(PM10),105,133,135,48,69,75,75,113,85,38,13,8,6,0.7,0.8
2026-03-22T2300,4113A,116.0091,36.4495,聊城市,利民路,颗粒物(PM10),104,128,117,45,64,54,54,119,93,58,23,10,9,0.8,0.7
2026-03-22T2300,2632A,94.3683,29.6373,林芝市,林芝监测站,,30,6,8,3,4,93,93,103,100,1,2,1,2,0.4,0.4
2026-03-22T2300,2633A,94.3616,29.6634,林芝市,林芝人民医院,,30,12,18,12,11,95,95,106,102,1,2,2,2,0.4,0.5
2026-03-22T2300,2603A,100.0779,23.8981,临沧市,市环保局,,35,NA,45,24,40,29,29,70,61,10,10,5,6,0.8,0.7
2026-03-22T2300,2604A,100.0894,23.882,临沧市,市气象局,,35,27,46,24,42,31,31,78,68,14,11,6,6,0.5,1
2026-03-22T2300,1733A,111.5552,36.0791,临汾市,临钢医院,颗粒物(PM10),121,174,183,38,38,16,16,97,68,49,24,8,8,0.7,0.5
2026-03-22T2300,1734A,111.4984,36.0734,临汾市,技工学校,颗粒物(PM10),140,224,192,71,48,24,24,93,66,49,22,11,7,0.9,0.5
2026-03-22T2300,1736A,111.5017,36.0857,临汾市,市委,颗粒物(PM10),139,221,199,61,43,38,38,96,72,48,22,10,6,1.0,0.7
2026-03-22T2300,3018A,111.5048,36.1015,临汾市,唐尧大酒店,颗粒物(PM10),137,215,187,66,42,34,34,92,70,51,23,12,8,0.8,0.5
2026-03-22T2300,4244A,111.4879,36.053,临汾市,启星学校,颗粒物(PM10),131,200,173,66,42,27,27,94,64,67,33,10,6,0.8,0.4
2026-03-22T2300,4271A,103.2464,35.6123,临夏回族自治州,滨河东路1号,颗粒物(PM10),164,277,177,110,56,4,4,79,58,59,22,10,11,1.2,0.4
2026-03-22T2300,4310A,103.207136,35.599807,临夏回族自治州,新华街21号,颗粒物(PM10),136,213,175,72,49,45,45,72,64,14,6,10,9,0.8,0.5
2026-03-22T2300,1618A,118.3429,35.0532,临沂市,沂河小区,细颗粒物(PM2.5),149,161,118,113,72,71,71,153,130,40,24,12,17,0.6,0.5
2026-03-22T2300,1619A,118.2962,35.0568,临沂市,鲁南制药厂,细颗粒物(PM2.5),152,161,114,116,73,66,66,154,131,56,33,14,19,0.7,0.5
2026-03-22T2300,1620A,118.2793,34.9976,临沂市,新光毛纺厂,细颗粒物(PM2.5),150,158,107,114,71,79,79,150,128,50,38,13,18,0.7,0.6
2026-03-22T2300,1621A,118.3955,35.0889,临沂市,河东保险公司,细颗粒物(PM2.5),145,141,110,109,73,72,72,162,122,41,35,9,14,0.4,0.4
2026-03-22T2300,3370A,118.3563,35.0215,临沂市,十里堡居委,细颗粒物(PM2.5),150,144,102,115,73,73,73,158,132,55,34,12,17,0.7,0.6
2026-03-22T2300,3496A,118.359,35.1067,临沂市,南坊新区,细颗粒物(PM2.5),150,134,107,115,75,76,76,150,124,40,30,12,16,0.5,0.5
2026-03-22T2300,3860A,118.3915,35.0297,临沂市,皇山花园小区,细颗粒物(PM2.5),156,144,111,119,76,69,69,164,131,51,33,14,17,0.7,0.6
2026-03-22T2300,1870A,109.4854,24.3898,柳州市,柳东小学,细颗粒物(PM2.5),116,84,52,77,46,9,9,29,16,22,17,6,8,1.0,1
2026-03-22T2300,1871A,109.4109,24.3304,柳州市,环保监测站,细颗粒物(PM2.5),119,115,68,80,52,0,0,15,5,33,29,11,11,1.5,1.3
2026-03-22T2300,1872A,109.3886,24.3408,柳州市,河西水厂,细颗粒物(PM2.5),113,116,81,74,55,0,0,14,6,28,27,12,13,1.2,1.1
2026-03-22T2300,1873A,109.4263,24.2951,柳州市,市四中,细颗粒物(PM2.5),126,116,70,88,54,0,0,21,6,40,28,14,11,1.7,1.3
2026-03-22T2300,1874A,109.396,24.3658,柳州市,市九中,细颗粒物(PM2.5),114,144,81,75,57,0,0,11,4,24,24,12,15,1.3,1.2
2026-03-22T2300,1875A,109.4912,24.3164,柳州市,古亭山,细颗粒物(PM2.5),126,NA,59,88,48,0,0,22,9,37,23,8,9,1.4,1.1
2026-03-22T2300,3402A,109.5422,24.3994,柳州市,市二中,细颗粒物(PM2.5),84,69,53,52,46,4,4,25,15,24,18,8,7,1.0,1
2026-03-22T2300,2307A,116.5078,31.7369,六安市,监测大楼,,38,38,50,24,34,85,85,113,98,22,21,4,4,0.5,0.5
2026-03-22T2300,2308A,116.4738,31.7642,六安市,皖西学院,颗粒物(PM10),55,57,55,30,36,52,52,117,92,40,16,5,4,0.5,0.5
2026-03-22T2300,2309A,116.4997,31.7904,六安市,朝阳厂,颗粒物(PM10),54,55,52,34,36,32,32,113,83,67,26,5,5,0.7,0.5
2026-03-22T2300,2310A,116.5566,31.7885,六安市,开发区,颗粒物(PM10),68,74,52,39,39,42,42,119,90,57,29,5,5,0.5,0.5
2026-03-22T2300,2577A,104.8293,26.592,六盘水市,黄土坡,,45,41,45,31,31,59,59,71,70,18,13,6,6,0.6,0.6
2026-03-22T2300,2579A,104.8481,26.5898,六盘水市,民中,,50,42,45,35,30,60,60,69,69,14,12,4,4,0.7,0.6
2026-03-22T2300,2580A,104.9541,26.5506,六盘水市,双水,,39,36,42,27,25,68,68,72,72,8,10,4,4,0.4,0.5
2026-03-22T2300,4151A,104.8899,26.5685,六盘水市,钟山大道中段564号,,50,50,48,35,28,68,68,73,73,9,9,7,7,0.7,0.7
2026-03-22T2300,2336A,117.022,25.1031,龙岩市,龙岩市监测站,,33,NA,30,23,24,49,49,93,79,17,14,6,8,0.9,0.8
2026-03-22T2300,2337A,117.0257,25.0662,龙岩市,闽西职业技术学院,,29,29,30,20,22,43,43,90,72,15,11,4,7,0.5,0.6
2026-03-22T2300,2338A,117.0195,25.0306,龙岩市,龙岩学院,,30,23,28,21,21,48,48,90,74,10,9,3,4,/,/
2026-03-22T2300,2885A,104.9344,33.3827,陇南市,滨江中学,颗粒物(PM10),70,78,89,28,29,68,68,86,80,14,14,6,6,0.7,0.7
2026-03-22T2300,3247A,104.9551,33.3709,陇南市,市总工会,颗粒物(PM10),89,104,95,28,28,75,75,84,79,8,14,5,5,0.6,0.7
2026-03-22T2300,2488A,111.9984,27.7346,娄底市,市监测站,,29,26,37,20,28,15,15,34,31,29,22,5,8,1.1,1.3
2026-03-22T2300,2491A,111.9888,27.7035,娄底市,市政府,,40,NA,33,28,39,11,11,32,24,22,15,8,5,1.3,0.8
2026-03-22T2300,4127A,111.9812,27.7591,娄底市,涟钢职大,,25,20,37,17,27,11,11,34,26,27,18,1,3,0.8,0.9
2026-03-22T2300,4128A,112.0303,27.7457,娄底市,娄底体校,,23,23,43,16,29,14,14,29,26,14,16,2,2,1.1,1
2026-03-22T2300,1894A,105.4427,28.9063,泸州市,小市上码头,细颗粒物(PM2.5),54,43,38,37,31,76,76,103,93,15,19,8,9,0.7,0.7
2026-03-22T2300,1895A,105.4241,28.8573,泸州市,兰田宪桥,,47,47,43,30,28,64,64,91,70,19,17,7,7,0.8,0.7
2026-03-22T2300,1896A,105.4378,28.8833,泸州市,市环监站,颗粒物(PM10),59,62,51,37,29,60,60,92,78,28,24,5,6,0.7,0.7
2026-03-22T2300,4272A,105.3689,28.7783,泸州市,纳溪中医医院,颗粒物(PM10),59,62,49,34,30,57,57,95,75,22,20,8,9,0.8,0.8
2026-03-22T2300,2183A,111.1447,37.5212,吕梁市,环保局,颗粒物(PM10),100,119,95,35,32,0,0,67,46,36,30,6,7,0.2,0.2
2026-03-22T2300,2185A,111.1285,37.5338,吕梁市,自来水公司,颗粒物(PM10),93,110,93,33,30,17,17,72,59,38,25,6,6,0.4,0.4
2026-03-22T2300,2867A,111.1225,37.5093,吕梁市,马茂庄小学,颗粒物(PM10),105,131,100,31,27,1,1,68,47,60,33,5,5,0.5,0.4
2026-03-22T2300,1812A,112.3934,34.6517,洛阳市,市委党校,颗粒物(PM10),109,142,161,54,53,68,68,118,102,37,27,11,9,0.7,0.7
2026-03-22T2300,1815A,112.494,34.6883,洛阳市,河南林校,颗粒物(PM10),105,132,165,38,58,67,67,121,99,42,35,13,12,0.6,0.7
2026-03-22T2300,1816A,112.3843,34.623,洛阳市,开发区管委会,颗粒物(PM10),119,168,166,55,46,74,74,123,109,36,24,13,12,0.5,0.4
2026-03-22T2300,1817A,112.4263,34.6249,洛阳市,市委新办公区,颗粒物(PM10),119,168,161,47,50,71,71,121,100,28,21,12,10,0.6,0.6
2026-03-22T2300,3340A,112.6005,34.6323,洛阳市,伊滨,颗粒物(PM10),123,179,163,56,56,62,62,116,99,41,28,12,9,0.7,0.7
2026-03-22T2300,3341A,112.495,34.6338,洛阳市,中移产业园,颗粒物(PM10),112,149,160,59,53,62,62,121,102,39,30,11,11,0.5,0.5
2026-03-22T2300,3593A,112.5736,34.8993,洛阳市,吉利监测站,颗粒物(PM10),104,129,158,50,52,86,86,120,110,25,21,14,11,0.5,0.5
2026-03-22T2300,3635A,112.3678,34.6623,洛阳市,河科大西苑校区,颗粒物(PM10),110,144,174,64,57,76,76,129,109,39,31,12,10,0.5,0.9
2026-03-22T2300,3636A,112.4387,34.678,洛阳市,英才小学,颗粒物(PM10),107,137,188,39,62,65,65,122,102,46,41,12,12,0.6,0.8
2026-03-22T2300,4214A,112.460027,34.694929,洛阳市,春都路1号院,颗粒物(PM10),115,157,200,49,61,64,64,121,102,42,32,9,10,0.7,0.8
2026-03-22T2300,2399A,114.051,33.5721,漯河市,三五一五工厂,颗粒物(PM10),114,156,123,66,49,109,109,133,124,24,19,8,7,0.5,0.5
2026-03-22T2300,2400A,114.0055,33.5698,漯河市,漯河大学,细颗粒物(PM2.5),110,133,109,71,55,117,117,137,131,24,21,8,8,0.6,0.6
2026-03-22T2300,2401A,114.0134,33.5826,漯河市,市水利局,细颗粒物(PM2.5),113,141,112,74,50,111,111,129,124,23,19,10,7,0.7,0.6
2026-03-22T2300,2402A,114.0261,33.5697,漯河市,市广电局,细颗粒物(PM2.5),110,134,111,70,52,117,117,133,128,20,17,8,8,0.6,0.6
2026-03-22T2300,3478A,113.9691,33.568,漯河市,市图书馆,颗粒物(PM10),113,152,119,64,51,111,111,130,125,23,19,7,7,0.6,0.6
2026-03-22T2300,4250A,114.089259,33.588274,漯河市,韶山路11号,颗粒物(PM10),114,154,121,65,56,81,81,119,98,37,23,8,8,0.4,0.4
2026-03-22T2300,1798A,118.5084,31.6838,马鞍山市,湖东路四小,细颗粒物(PM2.5),94,107,75,57,53,62,62,126,99,49,29,8,11,1.1,0.9
2026-03-22T2300,1799A,118.5019,31.6449,马鞍山市,开发区,细颗粒物(PM2.5),96,91,79,58,55,44,44,128,102,55,35,6,9,1.0,0.8
2026-03-22T2300,3633A,118.4914,31.681,马鞍山市,雨山,颗粒物(PM10),69,76,72,39,40,55,55,128,104,46,26,6,10,1.1,0.9
2026-03-22T2300,4191A,118.527362,31.722269,马鞍山市,慈湖高新区,颗粒物(PM10),90,105,88,46,48,105,105,132,116,26,28,8,9,0.6,0.7
2026-03-22T2300,1686A,111.0285,21.469,茂名市,电白南海,,39,39,36,15,16,70,70,76,73,8,9,5,5,0.8,0.8
2026-03-22T2300,1687A,110.9294,21.6533,茂名市,茂石化七小,,46,46,40,21,24,61,61,71,64,12,14,5,8,0.5,0.5
2026-03-22T2300,1688A,110.9108,21.6688,茂名市,健康路,,34,34,31,16,20,69,69,75,70,10,12,3,6,0.6,0.6
2026-03-22T2300,1689A,110.8592,21.6826,茂名市,高岭,,46,46,45,21,22,67,67,76,70,13,12,7,5,/,/
2026-03-22T2300,3450A,111.0101,21.5165,茂名市,电白水东,,29,29,28,18,18,71,71,76,74,9,9,4,4,/,/
2026-03-22T2300,2540A,103.8414,30.0871,眉山市,气象局,颗粒物(PM10),71,79,62,38,33,47,47,108,97,33,23,7,8,0.7,0.7
2026-03-22T2300,3148A,103.829,30.0563,眉山市,区人社局,颗粒物(PM10),65,70,58,37,35,53,53,99,84,39,26,9,13,0.8,0.8
2026-03-22T2300,4148A,103.8836,30.0695,眉山市,眉职院,颗粒物(PM10),70,77,59,35,34,54,54,102,84,30,22,6,9,0.7,0.7
2026-03-22T2300,1690A,116.1248,24.3307,梅州市,梅江月梅,,43,43,41,30,27,33,33,105,74,24,17,/,/,/,/
2026-03-22T2300,1691A,116.0798,24.2719,梅州市,梅县新城,细颗粒物(PM2.5),70,70,46,45,33,9,9,106,67,48,23,8,9,0.8,0.7
2026-03-22T2300,3315A,116.1234,24.2994,梅州市,梅龙,"颗粒物(PM10),细颗粒物(PM2.5)",56,58,43,38,31,12,12,105,73,40,14,6,7,1.0,0.8
2026-03-22T2300,1878A,104.7775,31.4741,绵阳市,富乐山,,40,40,43,17,22,58,58,79,69,11,21,6,6,0.7,0.8
2026-03-22T2300,1880A,104.6698,31.4668,绵阳市,高新区自来水公司,,44,44,50,18,25,34,34,75,64,32,26,8,8,0.6,0.7
2026-03-22T2300,3491A,104.6899,31.5324,绵阳市,西科大附属小学,,50,50,52,22,28,20,20,76,61,45,26,8,8,0.7,0.7
2026-03-22T2300,3492A,104.5647,31.5343,绵阳市,安州区旅游局,颗粒物(PM10),56,58,61,14,28,55,55,73,63,12,16,4,5,0.6,0.6
2026-03-22T2300,4146A,104.7092,31.4972,绵阳市,科技城新区公安局,,40,40,55,18,24,36,36,69,61,25,22,7,8,0.6,0.7
2026-03-22T2300,4226A,104.765114,31.453094,绵阳市,绵阳市气象局,,43,43,47,15,24,56,56,68,62,13,27,7,8,0.6,0.7
2026-03-22T2300,1784A,129.61,44.561,牡丹江市,环保大楼,细颗粒物(PM2.5),78,63,96,49,84,47,47,78,65,24,34,2,5,0.8,0.9
2026-03-22T2300,1787A,129.6364,44.6075,牡丹江市,机车工厂,细颗粒物(PM2.5),107,88,121,67,96,39,39,64,47,34,46,5,12,0.9,1
2026-03-22T2300,1788A,129.6386,44.5462,牡丹江市,第一中学,细颗粒物(PM2.5),88,61,77,54,75,21,21,71,49,36,41,4,6,0.7,0.7
2026-03-22T2300,4287A,129.5992,44.5964,牡丹江市,东晓云街98号,细颗粒物(PM2.5),100,80,108,60,90,53,53,72,46,18,32,3,6,0.7,0.9
2026-03-22T2300,2531A,105.0703,29.61,内江市,市监测站,细颗粒物(PM2.5),52,43,43,36,28,69,69,92,78,14,16,7,8,0.6,0.5
2026-03-22T2300,2533A,105.0657,29.5807,内江市,内江二中,颗粒物(PM10),55,56,49,34,26,68,68,95,83,26,23,9,9,0.6,0.5
2026-03-22T2300,2534A,105.0407,29.5828,内江市,内江日报社,,48,42,39,33,25,68,68,96,82,20,19,15,14,0.6,0.6
2026-03-22T2300,4147A,105.0433,29.6105,内江市,玉峰路西段888号,细颗粒物(PM2.5),58,54,39,39,29,75,75,100,84,21,20,10,9,0.5,0.5
2026-03-22T2300,2628A,92.0653,31.4846,那曲市,那曲监测站,,48,33,22,33,18,86,86,122,110,29,12,11,10,1.1,0.6
2026-03-22T2300,4243A,92.0515,31.4787,那曲市,那曲市委宣传部,,32,NA,16,22,10,102,102,133,121,16,6,9,8,0.9,0.6
2026-03-22T2300,1291A,115.8887,28.7006,南昌市,省林业公司,NA,NA,22,34,17,30,NA,NA,46,NA,21,27,3,3,0.3,0.3
2026-03-22T2300,1292A,115.813,28.7443,南昌市,林科所,,22,22,35,14,27,0,0,38,26,43,32,7,7,0.5,0.4
2026-03-22T2300,1294A,115.8518,28.687,南昌市,建工学校,,38,38,53,22,32,11,11,45,38,45,32,8,8,0.9,0.9
2026-03-22T2300,1295A,115.8926,28.6425,南昌市,象湖,,33,NA,33,23,33,23,23,44,39,23,28,7,7,1.0,0.9
2026-03-22T2300,3046A,115.9084,28.6062,南昌市,机电学校,,43,43,54,28,37,14,14,38,34,36,30,4,4,0.8,0.8
2026-03-22T2300,3690A,115.9718,28.7032,南昌市,外国语学校,,30,NA,34,21,37,37,37,49,45,18,17,7,8,0.8,0.8
2026-03-22T2300,4106A,115.7923,28.6873,南昌市,工业二路,,48,48,56,30,36,28,28,37,34,25,29,4,4,0.9,0.9
2026-03-22T2300,4192A,115.931587,28.686774,南昌市,南京东路235号,,33,33,50,16,32,38,38,52,48,10,15,4,5,0.7,0.7
2026-03-22T2300,1906A,106.0791,30.8022,南充市,南充市委,,47,47,35,25,21,31,31,74,61,39,24,7,7,0.6,0.7
2026-03-22T2300,1907A,106.1038,30.8215,南充市,南充炼油厂,,48,48,40,28,24,44,44,70,63,24,19,5,5,0.5,0.5
2026-03-22T2300,4227A,106.108336,30.788436,南充市,梨树横街98号,,48,48,41,30,26,50,50,84,78,29,23,6,6,0.4,0.4
2026-03-22T2300,4304A,106.1172,30.843,南充市,清泉寺北路188号,颗粒物(PM10),54,55,40,22,19,44,44,84,79,26,18,6,6,0.5,0.5
2026-03-22T2300,4305A,106.067,30.7616,南充市,同庆路1号,,50,50,36,17,14,38,38,87,65,39,21,7,7,0.7,0.6
2026-03-22T2300,1151A,118.8033,32.1085,南京市,迈皋桥,细颗粒物(PM2.5),80,71,69,50,46,75,75,152,135,37,19,6,8,0.4,0.4
2026-03-22T2300,1152A,118.7487,32.057,南京市,草场门,颗粒物(PM10),65,70,64,42,39,97,97,140,130,50,39,9,10,0.6,0.5
2026-03-22T2300,1154A,118.770105,32.004342,南京市,中华门,细颗粒物(PM2.5),70,68,67,45,40,101,101,138,128,27,20,4,6,0.7,0.7
2026-03-22T2300,1155A,118.8059,32.0329,南京市,瑞金路,细颗粒物(PM2.5),70,70,71,45,45,93,93,130,117,73,42,4,5,1.0,0.9
2026-03-22T2300,1156A,118.7946,32.0774,南京市,玄武湖,细颗粒物(PM2.5),78,85,67,49,44,79,79,130,116,38,17,8,9,0.9,0.9
2026-03-22T2300,1157A,118.6415,32.0964,南京市,浦口,细颗粒物(PM2.5),90,82,76,55,46,99,99,137,128,23,22,5,6,0.7,0.5
2026-03-22T2300,1158A,118.730129,32.000956,南京市,奥体中心,颗粒物(PM10),75,84,72,46,40,93,93,139,128,41,27,7,7,0.5,0.4
2026-03-22T2300,1159A,118.9072,32.1047,南京市,仙林大学城,细颗粒物(PM2.5),76,83,71,48,41,77,77,143,119,44,26,7,9,0.7,0.6
2026-03-22T2300,3422A,118.8443,31.919,南京市,江宁彩虹桥,颗粒物(PM10),69,76,66,37,36,92,92,139,127,57,26,3,4,0.8,0.7
2026-03-22T2300,3427A,118.8497,32.3599,南京市,六合雄州,细颗粒物(PM2.5),66,67,65,43,49,64,64,131,105,36,30,5,4,0.7,0.7
2026-03-22T2300,4086A,118.7641,32.0841,南京市,新模范马路66号,颗粒物(PM10),74,83,71,46,39,80,80,149,130,46,27,4,4,1.0,1
2026-03-22T2300,4249A,118.8707617,31.34017673,南京市,汶溪路181号,颗粒物(PM10),54,55,49,33,32,27,27,123,99,75,23,5,6,0.7,0.5
2026-03-22T2300,4312A,119.019,31.6512,南京市,中山西路1号,颗粒物(PM10),65,70,58,39,41,62,62,115,95,27,15,5,4,0.8,0.7
2026-03-22T2300,1401A,108.3098,22.788,南宁市,二十一中,,23,23,56,16,41,25,25,42,40,18,21,6,4,0.6,0.8
2026-03-22T2300,1402A,108.3135,22.8529,南宁市,北湖,颗粒物(PM10),51,51,60,31,49,13,13,40,34,34,25,4,3,0.9,0.9
2026-03-22T2300,1403A,108.3205,22.8222,南宁市,市监测站,,38,38,55,16,40,14,14,38,33,25,20,3,2,0.6,0.8
2026-03-22T2300,1404A,108.3828,22.8038,南宁市,大自然花园,,23,22,58,16,44,34,34,49,47,16,19,6,5,0.3,0.6
2026-03-22T2300,1406A,108.2397,22.8462,南宁市,区农职院,,32,32,66,16,36,16,16,36,31,25,28,5,7,0.2,0.5
2026-03-22T2300,1407A,108.3285,22.7356,南宁市,英华嘉园,,36,36,66,18,40,18,18,38,34,31,27,7,4,0.5,0.8
2026-03-22T2300,3401A,108.4829,22.762,南宁市,红星社区,细颗粒物(PM2.5),76,50,55,48,48,4,4,38,27,32,22,5,5,0.8,0.9
2026-03-22T2300,4132A,108.2927,23.1477,南宁市,起凤路9号,,38,38,72,26,58,16,16,40,34,24,21,4,8,0.5,0.7
2026-03-22T2300,4221A,108.2177,22.7774,南宁市,乐贤路16号,,33,33,58,15,38,15,15,39,34,31,27,4,5,0.6,0.9
2026-03-22T2300,2332A,118.1682,26.6371,南平市,南平市监测站,,32,30,23,22,15,33,33,79,58,14,10,5,4,0.6,0.6
2026-03-22T2300,2334A,118.1757,26.6276,南平市,南平七中,,30,NA,24,21,14,33,33,80,57,15,10,2,4,0.8,0.7
2026-03-22T2300,1168A,120.9056,31.9669,南通市,狼山街道,细颗粒物(PM2.5),70,69,54,45,30,42,42,105,82,43,33,4,6,0.5,0.5
2026-03-22T2300,1170A,120.8635,32.0231,南通市,城中,颗粒物(PM10),66,72,60,34,32,54,54,104,88,34,26,4,6,0.7,0.7
2026-03-22T2300,1171A,120.9376,31.9301,南通市,星湖花园,细颗粒物(PM2.5),68,69,50,44,30,41,41,103,82,38,30,5,6,0.5,0.5
2026-03-22T2300,1172A,120.8053,32.046,南通市,紫琅学院,细颗粒物(PM2.5),101,106,58,61,33,17,17,114,80,66,35,6,7,1.1,0.9
2026-03-22T2300,3291A,121.0631,32.0644,南通市,通州监测站,颗粒物(PM10),60,63,56,38,39,53,53,101,86,20,19,3,4,0.5,0.5
2026-03-22T2300,3432A,120.9348,31.9874,南通市,环境教育馆,细颗粒物(PM2.5),70,61,53,45,32,33,33,110,81,44,30,4,6,0.6,0.5
2026-03-22T2300,4091A,120.8692,31.9885,南通市,洪江路,细颗粒物(PM2.5),76,60,56,48,32,56,56,96,80,30,33,5,6,0.7,0.8
2026-03-22T2300,2404A,112.5338,33.0086,南阳市,瓦房庄,颗粒物(PM10),103,127,91,45,34,103,103,123,116,16,14,6,6,0.6,0.6
2026-03-22T2300,2405A,112.5002,32.9734,南阳市,汉画馆,颗粒物(PM10),104,128,98,55,55,107,107,124,116,18,18,6,7,0.6,0.7
2026-03-22T2300,2406A,112.5778,33.0144,南阳市,气象站,颗粒物(PM10),116,160,110,41,36,100,100,127,116,23,18,6,7,0.6,0.6
2026-03-22T2300,2407A,112.548,32.9687,南阳市,理工学院,颗粒物(PM10),101,122,91,44,39,98,98,120,111,17,15,7,8,0.6,0.6
2026-03-22T2300,4008A,112.5233,32.9921,南阳市,卧龙区政府,颗粒物(PM10),108,139,93,42,41,104,104,122,115,14,15,8,8,0.5,0.6
2026-03-22T2300,1234A,121.8352,29.9111,宁波市,区环保大楼,颗粒物(PM10),70,77,47,27,16,1,1,81,36,118,47,10,7,0.4,0.4
2026-03-22T2300,1235A,121.5595,29.8208,宁波市,万里学院,颗粒物(PM10),53,54,37,34,17,49,49,90,78,47,23,7,6,0.7,0.5
2026-03-22T2300,1236A,121.713,29.9564,宁波市,龙赛医院,颗粒物(PM10),65,70,37,36,18,61,61,85,64,32,29,5,5,0.4,0.4
2026-03-22T2300,1240A,121.5855,29.8635,宁波市,太古小学,颗粒物(PM10),56,58,36,31,15,47,47,92,76,54,29,4,5,0.7,0.5
2026-03-22T2300,1241A,121.5239,29.8673,宁波市,市环境监测中心,颗粒物(PM10),56,58,37,36,19,51,51,94,78,45,27,11,10,0.8,0.6
2026-03-22T2300,2871A,121.6156,29.9015,宁波市,万里国际学校,,47,47,33,28,15,45,45,91,67,56,27,5,5,0.6,0.5
2026-03-22T2300,3710A,121.5593,29.8976,宁波市,白沙活动中心,,46,42,33,32,19,59,59,94,73,37,24,7,6,0.5,0.4
2026-03-22T2300,4095A,121.8962,29.7529,宁波市,中科路88号,,27,25,23,12,9,86,86,100,92,15,14,6,6,0.4,0.4
2026-03-22T2300,2341A,119.5387,26.6611,宁德市,宁德市监测站,,31,30,34,16,27,97,97,123,114,18,21,5,5,0.6,0.8
2026-03-22T2300,3209A,119.5231,26.6562,宁德市,宁德一中,,28,NA,33,19,28,86,86,117,108,19,18,6,6,0.4,0.6
2026-03-22T2300,2618A,98.859,25.8541,怒江傈僳族自治州,州监测站,,27,27,37,13,25,44,44,67,61,11,11,7,7,0.6,0.6
2026-03-22T2300,2619A,98.8607,25.8168,怒江傈僳族自治州,泸水一中,,30,23,32,21,30,27,27,56,50,17,17,5,5,0.7,0.6
2026-03-22T2300,1888A,101.6891,26.571,攀枝花市,弄弄坪,颗粒物(PM10),51,51,47,24,25,22,22,100,79,50,23,5,10,1.0,0.8
2026-03-22T2300,1889A,101.577,26.5914,攀枝花市,河门口,,31,31,75,15,33,54,54,91,86,16,26,8,22,0.8,1
2026-03-22T2300,1891A,101.7365,26.4986,攀枝花市,仁和,,32,31,38,22,29,33,33,100,73,17,13,8,11,0.7,0.8
2026-03-22T2300,2835A,101.7222,26.567,攀枝花市,四十中小,细颗粒物(PM2.5),58,48,40,39,28,31,31,103,82,43,27,6,9,1.1,0.9
2026-03-22T2300,1604A,122.0303,41.1489,盘锦市,开发区,细颗粒物(PM2.5),223,209,107,173,106,1,1,92,63,51,24,7,7,1.9,0.8
2026-03-22T2300,1605A,122.0486,41.0883,盘锦市,兴隆台,细颗粒物(PM2.5),221,NA,82,171,100,2,2,90,45,90,30,7,7,1.8,0.8
2026-03-22T2300,1606A,121.8297,41.1026,盘锦市,新生街道,细颗粒物(PM2.5),142,NA,82,106,102,2,2,92,59,95,32,8,8,1.1,0.7
2026-03-22T2300,1832A,113.3257,33.7423,平顶山市,新华旅馆,颗粒物(PM10),109,143,133,54,44,87,87,130,115,36,23,10,4,0.4,0.3
2026-03-22T2300,1833A,113.2917,33.737,平顶山市,规划设计院,颗粒物(PM10),110,145,138,43,46,96,96,123,114,25,23,11,9,0.5,0.5
2026-03-22T2300,1834A,113.182,33.7738,平顶山市,平顶山工学院,颗粒物(PM10),110,144,130,42,41,111,111,135,127,19,16,6,7,0.5,0.5
2026-03-22T2300,3594A,112.8736,33.9068,平顶山市,石龙区,颗粒物(PM10),124,181,187,51,43,81,81,126,116,42,33,12,11,0.4,0.4
2026-03-22T2300,4116A,113.284,33.7139,平顶山市,姚电大道23号,颗粒物(PM10),127,188,145,52,45,111,111,131,126,21,23,7,8,0.8,0.8
2026-03-22T2300,2656A,106.6633,35.5338,平凉市,聚贤嘉苑,颗粒物(PM10),128,192,185,51,52,96,96,111,109,15,22,7,7,0.5,0.4
2026-03-22T2300,2657A,106.7021,35.5307,平凉市,博物馆,颗粒物(PM10),124,182,182,56,58,100,100,114,110,18,20,10,9,0.8,0.4
2026-03-22T2300,2348A,113.8384,27.6436,萍乡市,中医院,,46,39,31,32,24,1,1,43,11,42,22,6,4,2.2,1.3
2026-03-22T2300,2350A,113.8677,27.6438,萍乡市,市环保局,,35,32,31,24,27,6,6,45,12,33,19,7,7,1.7,1.3
2026-03-22T2300,2351A,113.8663,27.6202,萍乡市,安源区政府,NA,NA,42,32,33,28,0,0,26,3,35,22,6,5,NA,1
2026-03-22T2300,4107A,113.8686,27.6668,萍乡市,联洪村委会,,32,30,35,22,23,2,2,40,9,33,18,2,3,1.1,0.9
2026-03-22T2300,2319A,119.0142,25.4324,莆田市,荔城区仓后路,细颗粒物(PM2.5),113,NA,34,74,25,58,58,120,95,36,20,/,/,/,/
2026-03-22T2300,2320A,119.0016,25.4553,莆田市,莆田市监测站,,32,NA,27,22,19,71,71,128,106,11,12,2,3,0.6,0.5
2026-03-22T2300,2321A,119.112,25.4561,莆田市,涵江区六中,,28,24,29,19,18,51,51,118,92,36,21,/,/,0.5,0.5
2026-03-22T2300,2322A,119.1014,25.3215,莆田市,秀屿区政府,,30,29,31,21,23,72,72,131,105,15,13,7,5,0.4,0.5
2026-03-22T2300,2392A,115.0312,35.7636,濮阳市,环保局,颗粒物(PM10),78,88,92,35,46,23,23,103,72,71,23,6,6,0.7,0.5
2026-03-22T2300,3021A,115,35.7667,濮阳市,濮水河管理处,颗粒物(PM10),58,60,99,15,49,32,32,109,77,39,20,7,8,0.3,0.4
2026-03-22T2300,4118A,115.0552,35.7816,濮阳市,中原东路68号,颗粒物(PM10),93,110,104,43,48,7,7,104,70,63,18,6,7,1.1,0.6
2026-03-22T2300,4216A,115.0923632,35.76857718,濮阳市,任丘路479号,颗粒物(PM10),81,93,104,28,52,14,14,110,71,74,28,6,6,0.7,0.5
2026-03-22T2300,2601A,100.9801,22.7634,普洱市,市环保局,颗粒物(PM10),51,51,62,23,32,77,77,101,81,9,10,7,6,0.6,0.7
2026-03-22T2300,2602A,100.9763,22.8237,普洱市,普洱第二中学,,47,47,57,29,35,78,78,104,80,12,16,6,6,0.6,0.7
2026-03-22T2300,3345A,131.0413,45.7795,七台河市,中波台,细颗粒物(PM2.5),169,152,125,128,102,62,62,115,89,37,24,6,7,0.7,0.6
2026-03-22T2300,3637A,131.0136,45.7688,七台河市,人民广场,细颗粒物(PM2.5),150,168,152,114,99,37,37,100,67,53,36,10,12,1.0,0.9
2026-03-22T2300,3684A,130.8639,45.8144,七台河市,新建矿广场,细颗粒物(PM2.5),208,219,164,158,114,36,36,99,71,37,40,6,12,1.0,0.8
2026-03-22T2300,1779A,123.9307,47.3641,齐齐哈尔市,安居小区,细颗粒物(PM2.5),144,117,67,108,47,49,49,103,74,32,17,7,6,1.0,0.7
2026-03-22T2300,1780A,123.9497,47.3389,齐齐哈尔市,中心广场,细颗粒物(PM2.5),134,119,57,97,37,71,71,100,88,27,14,11,10,1.2,0.7
2026-03-22T2300,1781A,123.9483,47.3229,齐齐哈尔市,农牧车辆厂,细颗粒物(PM2.5),136,127,62,99,42,NA,NA,101,NA,30,13,14,8,0.7,0.3
2026-03-22T2300,1783A,123.9442,47.2994,齐齐哈尔市,市环境监测站,细颗粒物(PM2.5),195,180,69,146,43,57,57,98,81,42,15,7,4,1.0,0.5
2026-03-22T2300,3662A,123.6341,47.2079,齐齐哈尔市,富区青少年活动中心,细颗粒物(PM2.5),232,226,139,182,91,51,51,103,76,39,22,13,7,1.5,1
2026-03-22T2300,2591A,107.9765,26.5724,黔东南苗族侗族自治州,市环境监测站,,36,36,19,18,14,16,16,30,24,19,14,5,3,0.9,0.8
2026-03-22T2300,2881A,107.8909,26.531,黔东南苗族侗族自治州,凯里学院,,31,31,15,19,10,22,22,34,24,14,13,5,4,1.0,0.9
2026-03-22T2300,2593A,107.5223,26.2371,黔南布依族苗族自治州,小围寨,,36,36,18,22,15,20,20,28,24,9,9,7,6,0.7,0.7
2026-03-22T2300,3538A,107.5175,26.2977,黔南布依族苗族自治州,沙坝,,44,44,23,25,13,4,4,21,14,16,10,4,4,1.1,1
2026-03-22T2300,2589A,104.9022,25.0943,黔西南布依族苗族自治州,场坝街,,38,34,36,26,33,63,63,76,72,7,8,4,4,0.4,0.5
2026-03-22T2300,2590A,104.8812,25.0994,黔西南布依族苗族自治州,坪东大道,,43,43,42,22,31,55,55,74,62,8,10,5,5,0.6,0.7
2026-03-22T2300,2502A,108.6238,21.9667,钦州市,市环保站,颗粒物(PM10),56,58,59,31,35,22,22,44,36,31,21,7,5,0.7,1.2
2026-03-22T2300,2503A,108.655,21.9481,钦州市,沙埠小学,颗粒物(PM10),57,59,61,24,40,23,23,50,36,34,22,4,4,0.6,1.1
2026-03-22T2300,2504A,108.5989,21.7435,钦州市,港区一小,颗粒物(PM10),63,67,54,25,30,36,36,56,48,14,13,3,4,0.6,0.8
2026-03-22T2300,3404A,108.5959,21.9634,钦州市,北职校,,48,48,49,24,38,13,13,46,34,32,17,6,4,0.6,0.9
2026-03-22T2300,1046A,119.5247,39.9346,秦皇岛市,建设大厦,细颗粒物(PM2.5),100,91,114,60,89,47,47,97,77,28,17,4,6,0.7,0.8
2026-03-22T2300,3132A,119.5979,39.938,秦皇岛市,文明里,细颗粒物(PM2.5),103,88,116,63,80,63,63,92,76,21,24,8,9,0.6,0.6
2026-03-22T2300,4066A,119.7458,39.9952,秦皇岛市,南园路157号,细颗粒物(PM2.5),100,67,110,60,88,31,31,97,66,55,38,6,8,0.7,0.6
2026-03-22T2300,4067A,119.5131,39.8858,秦皇岛市,翠岛大街1号,细颗粒物(PM2.5),74,53,110,47,84,67,67,97,86,22,20,6,9,0.5,0.6
2026-03-22T2300,4198A,119.509013,39.825305,秦皇岛市,北戴河轮滑馆,,39,39,108,23,78,89,89,93,85,21,26,6,7,0.5,0.7
2026-03-22T2300,1310A,120.404,36.0625,青岛市,市南区东部子站,细颗粒物(PM2.5),108,95,73,68,51,59,59,117,88,33,14,10,9,0.7,0.6
2026-03-22T2300,1311A,120.362344,36.10282,青岛市,四方区子站,细颗粒物(PM2.5),129,144,83,91,58,29,29,118,84,70,23,7,7,1.3,0.8
2026-03-22T2300,1312A,120.294373,36.054183,青岛市,市南区西部子站,细颗粒物(PM2.5),106,85,62,66,48,25,25,104,75,75,26,6,3,0.7,0.6
2026-03-22T2300,1313A,120.4581,36.0858,青岛市,崂山区子站,细颗粒物(PM2.5),98,88,71,59,46,76,76,126,94,31,20,8,8,0.7,0.6
2026-03-22T2300,1315A,120.3945,36.3083,青岛市,城阳区子站,细颗粒物(PM2.5),144,171,101,108,58,48,48,121,73,65,35,10,8,1.4,0.9
2026-03-22T2300,3642A,120.3454,36.0735,青岛市,市北区南部,细颗粒物(PM2.5),111,100,75,72,45,36,36,120,89,60,17,5,2,1.4,0.9
2026-03-22T2300,3643A,120.3897,36.18,青岛市,李沧区北部,细颗粒物(PM2.5),140,151,87,103,58,42,42,112,82,63,28,12,10,1.3,0.8
2026-03-22T2300,4110A,120.5222,36.4089,青岛市,盟旺路653号,细颗粒物(PM2.5),124,127,84,86,51,84,84,140,106,13,15,4,4,0.9,0.8
2026-03-22T2300,4290A,120.196923,35.954556,青岛市,珠江路669号,细颗粒物(PM2.5),101,75,68,61,51,63,63,124,106,35,16,5,5,0.6,0.6
2026-03-22T2300,4291A,120.0424,35.8656,青岛市,黄岛区人民政府广场,颗粒物(PM10),58,61,60,37,38,86,86,110,94,13,16,7,8,0.6,0.6
2026-03-22T2300,1703A,113.0218,23.7086,清远市,凤城街办,细颗粒物(PM2.5),98,81,54,59,47,36,36,62,57,41,34,/,/,/,/
2026-03-22T2300,3025A,113.0479,23.6343,清远市,技师学院,细颗粒物(PM2.5),90,93,53,55,35,20,20,79,65,52,30,6,6,0.7,0.7
2026-03-22T2300,3318A,112.9898,23.7403,清远市,清新太和,,49,49,53,26,33,41,41,73,66,30,26,6,6,0.7,0.7
2026-03-22T2300,3455A,113.076,23.72,清远市,清城东城,细颗粒物(PM2.5),92,100,65,56,40,33,33,64,60,31,28,/,/,/,/
2026-03-22T2300,2661A,107.6325,35.7357,庆阳市,庆阳五中,颗粒物(PM10),63,67,137,25,42,76,76,99,89,11,8,5,5,0.2,0.2
2026-03-22T2300,2662A,107.6361,35.7067,庆阳市,市环保局,颗粒物(PM10),60,63,130,21,40,77,77,101,91,13,11,8,7,0.3,0.2
2026-03-22T2300,1916A,103.7897,25.5036,曲靖市,环境监测站,,29,29,50,15,35,78,78,107,87,10,15,7,8,0.3,0.5
2026-03-22T2300,1917A,103.8013,25.5357,曲靖市,烟厂办公区,,23,23,51,10,33,68,68,95,79,13,13,5,5,0.5,0.6
2026-03-22T2300,3376A,103.7926,25.4651,曲靖市,南苑二区,,20,16,47,8,33,61,61,97,80,16,14,4,4,0.5,0.5
2026-03-22T2300,3377A,103.7442,25.5259,曲靖市,曲靖师范学院,,26,25,52,8,38,81,81,102,82,6,12,3,4,0.3,0.5
2026-03-22T2300,1264A,118.8694,28.94,衢州市,环保大楼,,42,39,37,29,26,26,26,48,40,24,26,/,/,/,/
2026-03-22T2300,1266A,118.8622,28.9809,衢州市,衢州学院,,30,28,32,21,23,26,26,47,36,28,27,4,4,0.6,0.6
2026-03-22T2300,4097A,118.9646,28.9832,衢州市,衢州三中,,32,31,37,22,25,16,16,46,35,31,26,6,7,0.7,0.6
2026-03-22T2300,1611A,118.5818,24.9116,泉州市,涂山街,,32,28,35,22,24,71,71,116,88,20,22,4,5,0.7,0.7
2026-03-22T2300,1612A,118.597,24.8976,泉州市,津头埔,,39,29,33,27,24,73,73,122,94,23,21,4,4,0.6,0.6
2026-03-22T2300,1613A,118.6669,24.9422,泉州市,万安,,46,46,33,25,24,34,34,106,86,49,18,4,4,0.6,0.6
2026-03-22T2300,4105A,118.6355,24.9148,泉州市,霞新路6号,,34,34,32,22,21,56,56,103,84,22,19,/,/,0.6,0.6
2026-03-22T2300,2626A,88.8873,29.2723,日喀则市,日喀则监测站,,37,22,15,10,5,118,118,127,122,4,6,7,8,0.5,0.5
2026-03-22T2300,3726A,88.8775,29.2425,日喀则市,林业技术推广中心,,37,35,26,8,5,116,116,123,119,3,8,10,10,0.4,0.5
2026-03-22T2300,1659A,119.4711,35.421,日照市,监测站,细颗粒物(PM2.5),130,129,86,93,53,28,28,101,77,65,42,9,12,1.0,0.9
2026-03-22T2300,1660A,119.523,35.4216,日照市,市政府广场,细颗粒物(PM2.5),109,97,83,69,50,63,63,101,96,31,37,6,9,0.8,0.7
2026-03-22T2300,1661A,119.5511,35.4113,日照市,港务局,细颗粒物(PM2.5),84,78,78,52,43,74,74,104,96,24,31,4,6,0.6,0.6
2026-03-22T2300,3507A,119.5326,35.4627,日照市,职业技术学院,细颗粒物(PM2.5),116,105,84,77,47,78,78,109,104,31,32,8,10,1.1,0.9
2026-03-22T2300,3604A,119.3267,35.1043,日照市,岚山环保分局,细颗粒物(PM2.5),96,75,86,58,53,114,114,123,123,25,33,10,12,0.7,0.8
2026-03-22T2300,1835A,111.1922,34.7752,三门峡市,市政府,颗粒物(PM10),123,179,147,38,49,42,42,110,88,41,35,10,10,0.7,0.7
2026-03-22T2300,1836A,111.1588,34.794,三门峡市,开发区,颗粒物(PM10),129,194,156,41,56,70,70,110,98,16,22,11,11,0.5,0.5
2026-03-22T2300,3039A,111.1911,34.7829,三门峡市,三门峡市第一小学,颗粒物(PM10),116,161,166,33,52,62,62,112,96,20,29,13,13,0.6,0.6
2026-03-22T2300,3598A,111.1031,34.719,三门峡市,富达温泉假日酒店,颗粒物(PM10),120,172,176,42,53,55,55,116,97,28,27,12,15,0.7,0.7
2026-03-22T2300,2324A,117.621,26.2626,三明市,三钢,,40,30,29,28,26,22,22,81,61,26,17,4,10,0.7,0.9
2026-03-22T2300,2325A,117.6352,26.2714,三明市,三明二中,,32,30,33,22,21,23,23,72,52,20,17,4,8,0.7,1
2026-03-22T2300,2326A,117.6028,26.2377,三明市,三元区政府,,48,41,32,33,28,8,8,78,44,30,19,5,8,1.1,1.1
2026-03-22T2300,1877A,109.4962,18.2682,三亚市,河西子站,,16,16,20,11,12,44,44,57,52,6,5,4,4,0.3,0.4
2026-03-22T2300,3540A,109.7348,18.3443,三亚市,君悦子站,,26,26,20,18,14,42,42,60,56,11,5,4,4,0.4,0.4
2026-03-22T2300,4135A,109.1714,18.3739,三亚市,城东小学站,,28,28,26,12,14,40,40,62,53,10,7,/,/,/,/
2026-03-22T2300,2624A,91.7592,29.234,山南市,山南监测站,,32,13,8,3,3,102,102,120,117,1,4,4,4,0.3,0.3
2026-03-22T2300,2625A,91.7701,29.2436,山南市,山南人民医院,,33,11,12,3,3,105,105,124,120,1,4,7,6,0.3,0.3
2026-03-22T2300,1674A,116.6795,23.3666,汕头市,金平子站,,35,21,29,17,23,112,112,140,130,13,15,4,5,0.6,0.6
2026-03-22T2300,1675A,116.7248,23.3632,汕头市,龙湖子站,,35,NA,28,18,20,112,112,129,123,12,14,5,5,/,/
2026-03-22T2300,1676A,116.7257,23.2774,汕头市,濠江子站,,39,NA,27,27,18,83,83,120,112,18,15,7,7,/,/
