timepoint,stationcode,longitude,latitude,area,positionname,primarypollutant,aqi,pm10,pm10_24h,pm2_5,pm2_5_24h,o3,o3_24h,o3_8h,o3_8h_24h,no2,no2_24h,so2,so2_24h,co,co_24h
2026-01-04T1400,2568A,102.2503,31.8896,阿坝藏族羌族自治州,马师校,,19,13,26,13,17,58,,62,46,16,18,4,4,0.6,0.6
2026-01-04T1400,3994A,102.2174,31.9016,阿坝藏族羌族自治州,马尔康中学西区,,26,26,19,10,11,76,,63,61,6,13,6,6,0.5,0.6
2026-01-04T1400,2695A,80.2899,41.1684,阿克苏地区,电视台,细颗粒物(PM2.5),64,53,67,46,43,26,,19,18,29,30,5,5,0.7,0.7
2026-01-04T1400,2696A,80.2592,41.1541,阿克苏地区,艺术中心,细颗粒物(PM2.5),54,52,58,38,45,46,,28,22,17,21,4,4,0.6,0.6
2026-01-04T1400,2205A,105.699,38.8409,阿拉善盟,蒙二幼,,32,28,45,22,35,88,,64,64,10,20,10,10,0.5,0.7
2026-01-04T1400,2206A,105.7198,38.8508,阿拉善盟,环保局新楼,,28,27,36,19,29,79,,72,67,10,14,9,10,0.6,0.7
2026-01-04T1400,2708A,88.1266,47.8515,阿勒泰地区,市站,,23,6,13,3,5,72,,70,60,20,31,2,6,0.3,0.4
2026-01-04T1400,4166A,88.1198,47.7931,阿勒泰地区,阿勒泰路33号,,19,15,15,7,4,56,,78,63,37,28,12,7,0.4,0.4
2026-01-04T1400,2630A,80.1171,32.4999,阿里地区,阿里监测站,,25,,2,3,2,79,,64,64,3,9,6,10,0.4,0.5
2026-01-04T1400,3192A,80.0906,32.5029,阿里地区,阿里藏医院,,28,6,12,3,6,89,,62,60,2,7,9,11,0.4,0.5
2026-01-04T1400,2644A,109.0088,32.6974,安康市,汉滨区检察院,细颗粒物(PM2.5),57,47,55,40,53,46,,20,20,14,25,5,8,0.7,0.8
2026-01-04T1400,4054A,109.0324,32.6913,安康市,市邮政管理局,细颗粒物(PM2.5),55,48,60,39,53,44,,17,17,13,26,5,6,0.7,0.8
2026-01-04T1400,2291A,117.0806,30.5181,安庆市,环科院,细颗粒物(PM2.5),94,80,71,70,59,38,,34,29,29,26,6,7,0.7,0.6
2026-01-04T1400,2292A,117.0331,30.5118,安庆市,马山宾馆,细颗粒物(PM2.5),94,81,73,70,57,43,,34,30,27,29,8,7,0.7,0.6
2026-01-04T1400,2294A,116.9897,30.6146,安庆市,安庆大学,细颗粒物(PM2.5),102,82,71,76,59,26,,28,28,43,38,4,5,0.9,0.8
2026-01-04T1400,3173A,117.0598,30.5351,安庆市,市人大,细颗粒物(PM2.5),80,72,73,59,59,49,,31,30,26,34,7,8,0.5,0.6
2026-01-04T1400,3123A,105.9408,26.2431,安顺市,凤凰山,,19,,11,13,8,56,,41,41,11,13,14,12,0.9,0.9
2026-01-04T1400,3124A,105.9443,26.2567,安顺市,金钟山,,18,,10,12,8,57,,43,43,9,10,14,12,0.8,0.8
2026-01-04T1400,3125A,105.8983,26.248,安顺市,娄家坡,,17,16,17,11,13,54,,37,37,10,13,14,20,0.8,0.9
2026-01-04T1400,1819A,114.3552,36.1017,安阳市,红庙街,细颗粒物(PM2.5),228,,130,178,129,27,,16,16,44,40,6,4,1.7,1.1
2026-01-04T1400,1820A,114.361,36.0681,安阳市,银杏小区,细颗粒物(PM2.5),241,,132,191,140,28,,17,17,42,38,6,4,1.6,1
2026-01-04T1400,3141A,114.3921,36.0879,安阳市,信访局,细颗粒物(PM2.5),234,190,135,184,135,33,,20,20,42,36,2,3,1.7,1
2026-01-04T1400,3669A,114.4706,36.0634,安阳市,左辅环卫站,细颗粒物(PM2.5),223,178,150,173,136,36,,23,23,35,27,4,4,1.3,0.9
2026-01-04T1400,4117A,114.2918,36.0769,安阳市,钢三路198号,细颗粒物(PM2.5),270,251,179,220,151,19,,14,14,50,43,9,5,2.0,1.1
2026-01-04T1400,1748A,123.0441,41.1201,鞍山市,深沟寺,细颗粒物(PM2.5),124,114,68,94,50,46,,35,35,47,42,15,12,1.7,1.7
2026-01-04T1400,1749A,123.011,41.0931,鞍山市,太阳城,细颗粒物(PM2.5),119,110,71,90,50,32,,38,38,58,47,52,25,3.8,2.5
2026-01-04T1400,1750A,123.0483,41.1445,鞍山市,太平,细颗粒物(PM2.5),127,144,89,96,55,37,,23,23,52,50,18,17,1.7,1.7
2026-01-04T1400,1751A,122.964,41.0968,鞍山市,铁西三道街,细颗粒物(PM2.5),113,137,122,85,65,39,,28,28,57,57,22,22,2.1,2.7
2026-01-04T1400,1753A,123.0219,41.0822,鞍山市,明达新区,细颗粒物(PM2.5),122,121,76,92,53,34,,33,33,33,32,56,23,3.8,2.4
2026-01-04T1400,4201A,122.944647,41.082639,鞍山市,兴盛南路290号,细颗粒物(PM2.5),123,183,157,93,80,42,,20,20,59,66,22,21,1.9,2.4
2026-01-04T1400,2195A,107.4206,40.7609,巴彦淖尔市,附二中,,41,41,88,28,48,60,,27,27,9,40,6,12,0.4,0.7
2026-01-04T1400,2196A,107.37,40.7372,巴彦淖尔市,市环保大楼,,38,38,80,17,39,68,,32,32,11,42,7,10,0.4,0.8
2026-01-04T1400,1956A,86.1476,41.7529,巴音郭楞蒙古自治州,孔雀公园,颗粒物(PM10),75,99,127,36,30,37,,14,13,31,33,7,6,0.4,0.5
2026-01-04T1400,1957A,86.1971,41.7166,巴音郭楞蒙古自治州,棉纺厂,颗粒物(PM10),78,106,137,19,22,40,,22,16,27,31,/,/,/,/
2026-01-04T1400,1958A,86.236,41.7172,巴音郭楞蒙古自治州,经济开发区,颗粒物(PM10),72,94,98,18,18,47,,21,18,12,23,4,4,0.5,0.6
2026-01-04T1400,3181A,106.776805,31.852614,巴中市,市五中,细颗粒物(PM2.5),55,50,55,39,45,37,,17,17,12,17,5,5,0.9,0.9
2026-01-04T1400,3183A,106.7419,31.8654,巴中市,圣泉水务公司,细颗粒物(PM2.5),54,42,44,38,40,41,,20,20,11,22,4,5,0.6,0.7
2026-01-04T1400,3616A,106.7617,31.8343,巴中市,市中心医院,细颗粒物(PM2.5),59,50,48,42,41,38,,20,20,12,18,7,6,0.9,0.9
2026-01-04T1400,2235A,122.7909,45.608,白城市,洮北区环保局,,25,25,40,7,37,71,,49,49,9,29,3,5,0.2,0.5
2026-01-04T1400,2236A,122.8741,45.5725,白城市,市环保局,,22,,35,14,31,68,,48,48,6,30,4,7,0.4,0.5
2026-01-04T1400,2231A,126.4219,41.9172,白山市,喜丰,,,56,82,38,48,64,,33,33,,44,19,14,1.0,1.3
2026-01-04T1400,2232A,126.4082,41.9416,白山市,环保局,细颗粒物(PM2.5),55,48,74,39,54,60,,28,28,17,38,11,13,1.0,1.7
2026-01-04T1400,2647A,104.1727,36.5448,白银市,第三小学,细颗粒物(PM2.5),73,54,51,53,45,75,,46,42,19,21,15,4,0.8,0.8
2026-01-04T1400,2648A,104.1467,36.5482,白银市,动力公司,细颗粒物(PM2.5),64,,47,46,45,79,,46,46,15,15,13,4,0.7,0.7
2026-01-04T1400,2512A,106.6102,23.901,百色市,市监测站,细颗粒物(PM2.5),69,54,51,50,35,15,,25,18,31,19,13,13,1.0,0.8
2026-01-04T1400,2513A,106.6524,23.8842,百色市,市中心血站,细颗粒物(PM2.5),82,,52,60,45,18,,26,18,35,24,10,12,1.0,0.8
2026-01-04T1400,4133A,106.6273,23.8798,百色市,龙景西路,细颗粒物(PM2.5),114,86,67,86,61,14,,19,8,25,18,12,15,0.8,0.7
2026-01-04T1400,2270A,117.396,32.9389,蚌埠市,工人疗养院,细颗粒物(PM2.5),73,77,87,53,57,49,,19,19,37,40,8,7,0.7,0.6
2026-01-04T1400,2271A,117.3606,32.9428,蚌埠市,百货大楼,细颗粒物(PM2.5),73,75,68,53,53,37,,14,14,50,48,8,6,0.8,0.7
2026-01-04T1400,2273A,117.4183,32.8909,蚌埠市,蚌埠学院,细颗粒物(PM2.5),57,44,63,40,51,59,,28,28,33,35,7,5,0.6,0.5
2026-01-04T1400,2274A,117.3534,32.9672,蚌埠市,淮上区政府,细颗粒物(PM2.5),75,66,79,55,60,47,,13,13,41,50,4,4,0.7,0.7
2026-01-04T1400,2275A,117.3143,32.8977,蚌埠市,高新区,细颗粒物(PM2.5),72,61,68,52,56,48,,25,25,38,36,10,8,0.7,0.5
2026-01-04T1400,3715A,117.3091,32.9314,蚌埠市,蚌埠田家炳中学,细颗粒物(PM2.5),82,84,80,60,59,35,,20,16,51,45,8,10,0.7,0.6
2026-01-04T1400,1585A,109.8761,40.6533,包头市,市环境监测站,,30,30,139,12,77,72,,58,58,10,48,7,29,0.2,2
2026-01-04T1400,1587A,109.9992,40.5843,包头市,包头八中,,24,24,108,10,64,73,,55,55,11,47,2,17,0.2,1.5
2026-01-04T1400,1589A,109.8641,40.6288,包头市,惠龙物流,,27,27,113,3,61,74,,62,62,9,42,9,29,0.3,1.7
2026-01-04T1400,1590A,110.0376,40.5546,包头市,东河鸿龙湾,,29,29,85,3,49,75,,53,53,12,59,9,17,0.3,1.3
2026-01-04T1400,3283A,109.9154,40.5684,包头市,滨河大厦,,22,18,75,3,46,70,,59,59,4,33,4,14,0.4,1.3
2026-01-04T1400,3419A,109.9449,40.6259,包头市,包头市委党校,,30,29,109,21,64,67,,55,55,11,46,14,25,0.4,1.8
2026-01-04T1400,3683A,109.8332,40.6577,包头市,昆区政府,,28,28,121,8,62,72,,58,58,11,46,7,34,0.5,2
2026-01-04T1400,1931A,107.0802,34.3129,宝鸡市,竹园沟,细颗粒物(PM2.5),53,51,43,37,47,66,,52,47,11,10,6,6,0.4,0.5
2026-01-04T1400,1933A,107.1429,34.3549,宝鸡市,监测站,细颗粒物(PM2.5),75,73,57,55,61,56,,43,32,21,22,5,4,0.8,0.8
2026-01-04T1400,1934A,107.1172,34.3759,宝鸡市,技工学校,细颗粒物(PM2.5),74,74,57,54,63,59,,40,35,11,15,5,4,0.7,0.8
2026-01-04T1400,1936A,107.2025,34.3518,宝鸡市,文理学院,细颗粒物(PM2.5),80,64,58,59,61,52,,46,36,22,22,5,4,0.6,0.6
2026-01-04T1400,1937A,107.2396,34.3626,宝鸡市,三迪小学,细颗粒物(PM2.5),83,75,56,61,66,56,,42,34,21,24,5,3,0.7,0.8
2026-01-04T1400,4155A,107.1721,34.3558,宝鸡市,滨河北路,细颗粒物(PM2.5),70,61,61,51,55,60,,51,42,21,22,6,6,0.7,0.8
2026-01-04T1400,4308A,107.3898,34.3601,宝鸡市,陈仓区北开路21号,细颗粒物(PM2.5),89,76,66,66,70,63,,66,62,20,23,12,25,0.6,0.7
2026-01-04T1400,1051A,115.4803,38.8568,保定市,游泳馆,细颗粒物(PM2.5),92,90,157,68,134,23,,13,13,59,78,9,12,1.1,1.6
2026-01-04T1400,1052A,115.509,38.8895,保定市,华电二区,细颗粒物(PM2.5),87,86,140,64,130,22,,9,9,41,61,6,7,1.1,1.8
2026-01-04T1400,1053A,115.4588,38.9037,保定市,接待中心,细颗粒物(PM2.5),87,82,149,64,121,24,,10,10,46,64,4,5,0.7,1.3
2026-01-04T1400,1054A,115.4484,38.8344,保定市,地表水厂,细颗粒物(PM2.5),90,96,177,67,133,26,,18,18,62,74,6,8,0.9,1.5
2026-01-04T1400,3581A,115.3136,38.9511,保定市,满城区生态环境分局,,,85,180,46,132,42,,1,,40,76,6,9,,1.8
2026-01-04T1400,3582A,115.4709,38.7628,保定市,清苑区第二中学,颗粒物(PM10),87,124,218,60,145,19,,12,12,70,79,9,11,0.9,1.6
2026-01-04T1400,3583A,115.6231,39.0223,保定市,徐水物探局,细颗粒物(PM2.5),69,86,194,50,131,25,,10,10,47,73,8,12,0.7,1.5
2026-01-04T1400,4004A,115.4199,38.8665,保定市,双鹰农机,颗粒物(PM10),80,110,193,56,116,32,,20,20,51,63,10,11,0.7,1.4
2026-01-04T1400,4034A,115.515,38.8589,保定市,植保所站,细颗粒物(PM2.5),103,87,159,77,145,12,,5,5,71,90,2,6,0.9,1.5
2026-01-04T1400,2594A,99.1589,25.1137,保山市,市环境监测站,,26,19,18,3,16,83,,35,35,5,8,4,8,0.2,0.5
2026-01-04T1400,2595A,99.1616,25.1381,保山市,市环保局,,33,33,19,23,16,86,,40,40,4,6,4,4,0.4,0.4
2026-01-04T1400,1867A,109.1435,21.4085,北海市,海滩公园,颗粒物(PM10),54,57,39,34,23,137,,96,96,15,15,13,10,0.5,0.4
2026-01-04T1400,1868A,109.0983,21.466,北海市,新市环保局,颗粒物(PM10),52,53,41,27,27,131,,91,91,15,18,6,6,0.6,0.7
2026-01-04T1400,1869A,109.1775,21.5232,北海市,北海工业园,颗粒物(PM10),54,58,51,24,32,126,,75,75,9,18,10,12,0.6,0.7
2026-01-04T1400,3400A,109.1844,21.4396,北海市,龙潭自来水厂,细颗粒物(PM2.5),57,51,41,40,28,134,,90,90,13,15,12,8,0.7,0.6
2026-01-04T1400,1001A,116.3611,39.8786,北京市,万寿西宫,,24,24,74,11,45,49,,23,23,24,63,2,4,0.3,0.7
2026-01-04T1400,1003A,116.4174,39.9289,北京市,东四,,21,21,68,9,39,55,,23,23,18,50,2,4,0.5,1
2026-01-04T1400,1004A,116.4073,39.8858,北京市,天坛,,24,24,64,11,40,47,,20,20,27,54,3,2,0.4,0.8
2026-01-04T1400,1005A,116.4622,39.9364,北京市,农展馆,,23,23,67,11,39,52,,18,18,18,49,4,5,0.5,0.8
2026-01-04T1400,1006A,116.3399,39.9293,北京市,官园,,23,23,76,12,46,51,,22,22,19,56,4,6,0.4,0.8
2026-01-04T1400,1007A,116.2879,39.9613,北京市,海淀万柳,,26,26,70,13,39,42,,15,15,25,59,3,4,0.6,0.8
2026-01-04T1400,1008A,116.6635,40.1349,北京市,顺义新城,,21,14,64,3,33,65,,25,25,6,45,4,5,0.4,0.7
2026-01-04T1400,1009A,116.6275,40.327,北京市,怀柔镇,,19,14,40,7,23,59,,30,30,8,30,6,6,0.4,0.6
2026-01-04T1400,1010A,116.2295,40.217,北京市,昌平镇,颗粒物(PM10),57,63,57,32,30,19,,7,7,48,45,6,5,0.7,0.8
2026-01-04T1400,1011A,116.3968,39.982,北京市,奥体中心,,24,24,64,13,39,43,,20,20,33,65,4,5,0.5,0.9
2026-01-04T1400,3418A,116.8336,40.4095,北京市,密云新城,,21,9,41,3,23,67,,50,50,7,29,3,3,0.4,0.5
2026-01-04T1400,3671A,116.0879,39.9725,北京市,门头沟三家店,颗粒物(PM10),56,61,69,30,34,31,,17,17,37,42,5,4,0.7,0.7
2026-01-04T1400,3672A,116.1507,39.8246,北京市,丰台云岗,,32,32,84,14,46,45,,16,16,29,58,3,4,0.5,0.7
2026-01-04T1400,3674A,115.9578,39.7602,北京市,房山燕山,颗粒物(PM10),61,72,74,37,43,25,,14,14,44,38,5,5,0.6,0.6
2026-01-04T1400,3675A,116.4669,39.7734,北京市,大兴旧宫,颗粒物(PM10),59,68,88,38,44,34,,12,12,42,57,7,4,0.9,1
2026-01-04T1400,3694A,115.9859,40.4562,北京市,延庆石河营,,,40,60,24,37,42,,17,17,22,36,6,4,,1.1
2026-01-04T1400,3695A,116.6151,40.3052,北京市,怀柔新城,,18,13,39,6,24,56,,30,30,9,23,4,4,0.2,0.4
2026-01-04T1400,3696A,116.2542,39.8764,北京市,丰台小屯,,25,25,95,12,48,43,,15,15,23,65,4,5,0.5,1
2026-01-04T1400,3697A,116.8399,40.3843,北京市,密云镇,,21,10,50,3,29,67,,35,35,5,38,1,2,0.3,0.6
2026-01-04T1400,4057A,115.9423,40.4431,北京市,延庆百泉,颗粒物(PM10),51,51,58,31,40,43,,14,14,23,38,5,3,0.6,0.9
2026-01-04T1400,4058A,116.6598,39.9164,北京市,通州新华,颗粒物(PM10),56,62,98,35,52,32,,9,9,46,67,6,5,0.7,0.9
2026-01-04T1400,4182A,116.1942,39.9158,北京市,石景山八角,,32,32,84,15,45,40,,15,15,26,59,2,4,0.2,0.7
2026-01-04T1400,4194A,117.078628,40.151726,北京市,平谷新城,细颗粒物(PM2.5),59,65,87,42,59,33,,13,13,42,49,4,3,0.7,0.9
2026-01-04T1400,1761A,123.8274146,41.31234549,本溪市,大峪,"颗粒物(PM10),细颗粒物(PM2.5)",69,88,92,50,55,45,,20,20,42,44,33,16,3.8,2.3
2026-01-04T1400,1763A,123.7169,41.3094,本溪市,彩屯,颗粒物(PM10),62,74,124,42,90,61,,20,20,25,50,19,14,1.5,3
2026-01-04T1400,1764A,123.7672166,41.28649327,本溪市,东明,颗粒物(PM10),68,85,94,39,62,50,,19,19,34,49,36,15,2.7,2.8
2026-01-04T1400,1765A,123.799345,41.266614,本溪市,新立屯,颗粒物(PM10),63,76,58,31,39,49,,22,22,34,46,32,17,3.0,2.9
2026-01-04T1400,1766A,123.829144,41.336777,本溪市,威宁,颗粒物(PM10),96,142,119,60,71,44,,20,20,46,49,24,10,3.3,2.1
2026-01-04T1400,2587A,105.287,27.3133,毕节市,八中,,11,11,12,7,7,30,,33,28,9,11,9,9,0.9,0.8
2026-01-04T1400,2588A,105.3079,27.2987,毕节市,师专,,16,16,10,9,6,32,,33,29,9,10,7,7,0.9,0.8
2026-01-04T1400,4263A,105.3688,27.3598,毕节市,工业大道,,18,15,10,12,9,27,,27,25,7,8,9,9,/,/
2026-01-04T1400,1629A,117.9961,37.3604,滨州市,第二水厂,细颗粒物(PM2.5),114,136,172,86,111,56,,20,20,37,63,17,16,1.1,1.3
2026-01-04T1400,1630A,117.9789,37.3931,滨州市,北中新校,细颗粒物(PM2.5),140,134,164,107,131,55,,25,25,40,56,12,12,0.9,1.3
2026-01-04T1400,3514A,117.9379,37.3959,滨州市,中海酒店,细颗粒物(PM2.5),153,144,159,117,136,65,,38,38,34,56,14,12,0.9,1.4
2026-01-04T1400,3515A,117.9381509,37.35547456,滨州市,开发区一中,细颗粒物(PM2.5),134,129,164,102,139,66,,24,24,24,51,19,18,0.9,1.2
2026-01-04T1400,3516A,118.0914,37.6938,滨州市,金海六路,细颗粒物(PM2.5),144,139,188,110,148,60,,26,26,41,69,17,19,0.9,1.5
2026-01-04T1400,4028A,117.9955,37.3752,滨州市,滨州市西街道办事处,细颗粒物(PM2.5),153,141,176,117,147,59,,26,26,33,54,16,14,1.0,1.5
2026-01-04T1400,2311A,115.8071,33.8399,亳州市,污水处理厂,,48,41,71,33,58,72,,37,37,16,34,4,5,0.4,0.5
2026-01-04T1400,2312A,115.7789,33.8519,亳州市,三国揽胜宫,颗粒物(PM10),52,53,75,32,52,64,,37,37,15,23,4,4,0.4,0.5
2026-01-04T1400,3332A,115.7631,33.803,亳州市,亳州学院,,50,40,65,35,55,74,,42,42,13,23,3,3,0.3,0.4
2026-01-04T1400,2693A,82.0482,44.8553,博尔塔拉蒙古自治州,市党校,颗粒物(PM10),81,112,99,55,52,27,,35,23,22,27,2,3,1.2,1.1
2026-01-04T1400,2694A,82.0805,44.8966,博尔塔拉蒙古自治州,市环保局,颗粒物(PM10),80,109,110,56,51,36,,26,26,26,32,8,8,1.0,1
2026-01-04T1400,1071A,116.8733,38.2922,沧州市,沧县城建局,细颗粒物(PM2.5),222,196,184,172,172,52,,22,22,37,60,7,5,1.1,1.4
2026-01-04T1400,1072A,116.8462,38.3189,沧州市,电视转播站,细颗粒物(PM2.5),240,,178,190,157,46,,17,17,34,51,8,9,0.9,1.1
2026-01-04T1400,1073A,116.8588,38.3161,沧州市,市环保局,细颗粒物(PM2.5),230,190,179,180,161,32,,15,15,32,49,7,7,0.9,1.1
2026-01-04T1400,3324A,116.8011,38.294,沧州市,河北水利电力学院,细颗粒物(PM2.5),195,197,190,146,139,42,,19,19,38,56,9,11,1.0,1.2
2026-01-04T1400,2622A,97.1813,31.1289,昌都市,昌都监测站,,24,20,25,3,9,76,,61,61,11,8,1,1,0.3,0.3
2026-01-04T1400,3719A,97.1707,31.1428,昌都市,昌都会议中心,,22,12,12,8,7,70,,62,58,3,2,3,2,0.5,0.4
2026-01-04T1400,2692A,87.2722,44.0298,昌吉回族自治州,新区政务中心,细颗粒物(PM2.5),100,114,120,75,78,52,,14,14,33,56,7,7,1.0,1.3
2026-01-04T1400,3613A,87.3069,44.0093,昌吉回族自治州,亚心广场,细颗粒物(PM2.5),144,149,142,110,93,43,,16,16,36,53,8,7,1.5,1.5
2026-01-04T1400,4164A,87.2057,43.9289,昌吉回族自治州,财政所,细颗粒物(PM2.5),127,150,87,96,55,58,,60,48,30,24,6,5,0.8,0.7
2026-01-04T1400,1120A,125.2874,43.9024,长春市,客车厂,细颗粒物(PM2.5),89,,99,66,105,58,,34,34,21,52,8,15,0.5,1.1
2026-01-04T1400,1121A,125.2943,43.8508,长春市,邮电学院,"颗粒物(PM10),细颗粒物(PM2.5)",60,69,116,43,91,58,,32,32,17,49,10,15,0.4,1.1
2026-01-04T1400,1122A,125.3648,43.8745,长春市,劳动公园,颗粒物(PM10),60,69,115,34,85,58,,29,29,19,52,8,9,0.7,1.4
2026-01-04T1400,1123A,125.3233,43.8781,长春市,园林处,细颗粒物(PM2.5),59,63,102,42,86,59,,32,32,13,44,10,11,0.4,1
2026-01-04T1400,1124A,125.4604,43.7904,长春市,净月潭,细颗粒物(PM2.5),87,99,114,64,84,54,,32,32,27,38,8,8,0.7,1.2
2026-01-04T1400,1126A,125.38,43.8422,长春市,经开区环卫处,颗粒物(PM10),67,84,131,41,90,57,,25,25,26,55,13,9,0.6,1.3
2026-01-04T1400,1127A,125.234,43.7761,长春市,高新区管委会,细颗粒物(PM2.5),138,121,133,105,124,63,,31,31,27,52,8,9,1.0,1.6
2026-01-04T1400,1128A,125.1695,43.83,长春市,岱山公园,"颗粒物(PM10),细颗粒物(PM2.5)",59,67,114,42,102,62,,33,33,17,52,8,12,0.5,1.3
2026-01-04T1400,4281A,125.334645,43.916281,长春市,北亚泰大街1068号,细颗粒物(PM2.5),63,58,99,45,90,58,,29,29,18,52,8,16,0.6,1.1
2026-01-04T1400,1335A,113.082,28.2421,长沙市,经开区环保局,,50,41,50,35,44,23,,15,15,25,22,3,3,0.5,0.5
2026-01-04T1400,1336A,112.8873,28.2202,长沙市,高开区环保局,细颗粒物(PM2.5),53,38,55,37,50,24,,18,18,16,22,4,4,0.7,0.7
2026-01-04T1400,1337A,113.0785,28.2012,长沙市,马坡岭,,50,42,50,35,44,24,,16,14,28,27,4,4,0.9,0.8
2026-01-04T1400,1338A,112.9448,28.1894,长沙市,湖南师范大学,,43,39,51,30,39,23,,22,22,25,27,4,4,0.6,0.6
2026-01-04T1400,1339A,113.0177,28.1322,长沙市,雨花区环保局,,,,49,,41,,,16,,,25,,6,,0.5
2026-01-04T1400,1340A,112.9795,28.2593,长沙市,伍家岭,,46,41,57,32,42,21,,16,16,20,20,4,4,0.5,0.5
2026-01-04T1400,1341A,113.002,28.1944,长沙市,火车新站,颗粒物(PM10),53,56,58,36,44,22,,21,19,24,23,7,7,0.6,0.5
2026-01-04T1400,1342A,112.9846,28.1177,长沙市,天心区环保局,,46,42,49,32,41,30,,19,19,24,30,4,4,0.6,0.6
2026-01-04T1400,1343A,112.8906,28.1307,长沙市,湖南中医药大学,,45,34,52,31,45,21,,20,20,25,27,5,5,0.6,0.6
2026-01-04T1400,1727A,113.1146,36.1547,长治市,清华站,细颗粒物(PM2.5),138,,82,105,77,48,,40,40,27,48,18,19,1.4,1.2
2026-01-04T1400,1730A,113.0887,36.2126,长治市,审计局,细颗粒物(PM2.5),117,,78,88,75,49,,40,40,22,46,20,19,1.1,1
2026-01-04T1400,1731A,113.0845,36.1856,长治市,长治八中,细颗粒物(PM2.5),140,,101,107,87,50,,39,39,18,39,18,19,1.3,1.2
2026-01-04T1400,2845A,113.1561,36.1912,长治市,德盛苑,细颗粒物(PM2.5),147,,65,112,65,49,,41,41,22,33,17,15,1.4,1
2026-01-04T1400,3568A,113.0603,36.0464,长治市,向阳小学,细颗粒物(PM2.5),144,126,103,110,79,59,,42,42,24,46,17,22,1.6,1.3
2026-01-04T1400,3569A,112.8788,36.315,长治市,屯留一中,细颗粒物(PM2.5),102,,76,76,74,64,,53,45,19,37,12,16,0.8,0.9
2026-01-04T1400,4189A,113.113092,36.199482,长治市,英华南巷50号,细颗粒物(PM2.5),128,,92,97,81,50,,43,42,20,42,14,15,1.2,1.1
2026-01-04T1400,4190A,113.23666,36.33435,长治市,学府街1号,细颗粒物(PM2.5),168,,76,127,77,51,,37,37,24,48,12,18,1.6,1.5
2026-01-04T1400,1854A,111.696,28.9725,常德市,市二中,细颗粒物(PM2.5),60,44,58,43,56,25,,29,28,19,19,4,4,0.8,0.7
2026-01-04T1400,3138A,111.7152,29.0288,常德市,武陵区永安,细颗粒物(PM2.5),60,49,65,43,53,25,,34,30,23,17,3,3,0.9,0.7
2026-01-04T1400,3139A,111.6891,28.9881,常德市,鼎城区玉霞,细颗粒物(PM2.5),59,44,56,42,54,27,,30,29,24,20,7,7,0.8,0.7
2026-01-04T1400,3140A,111.6651,29.0526,常德市,武陵区长庚,细颗粒物(PM2.5),58,47,62,41,56,35,,32,29,18,19,3,3,0.8,0.7
2026-01-04T1400,1196A,119.9524,31.7586,常州市,市监测站,细颗粒物(PM2.5),109,118,106,82,74,21,,13,13,80,73,6,5,0.8,1
2026-01-04T1400,1200A,119.9351,31.703,常州市,武进监测站,细颗粒物(PM2.5),103,108,92,77,71,14,,14,14,83,63,12,9,0.7,0.9
2026-01-04T1400,3002A,119.9701,31.813,常州市,行政中心,细颗粒物(PM2.5),104,113,89,78,65,20,,18,18,79,64,8,8,1.1,0.9
2026-01-04T1400,3003A,120.0434,31.7726,常州市,经开区,细颗粒物(PM2.5),109,133,119,82,74,16,,15,15,83,64,12,10,1.3,1.2
2026-01-04T1400,3010A,119.8919,31.7892,常州市,钟楼,细颗粒物(PM2.5),100,107,84,75,64,30,,20,20,60,60,9,9,0.7,0.9
2026-01-04T1400,3429A,119.8595,31.706,常州市,武进经发区,细颗粒物(PM2.5),118,114,92,89,73,28,,,,65,66,12,11,0.8,0.9
2026-01-04T1400,3430A,119.5812,31.7256,常州市,金坛城区,细颗粒物(PM2.5),123,110,92,93,77,26,,16,13,50,45,8,10,1.0,0.9
2026-01-04T1400,4089A,119.9551,31.863,常州市,崇义南街5-H号,细颗粒物(PM2.5),109,105,87,82,70,26,,16,16,77,70,8,7,0.9,0.9
2026-01-04T1400,2220A,120.4318,41.588,朝阳市,西梁,颗粒物(PM10),56,62,139,25,84,55,,18,18,26,47,11,18,0.7,1.9
2026-01-04T1400,2221A,120.452,41.565,朝阳市,河畔小区,,45,45,92,24,70,63,,23,23,18,41,9,14,0.7,1.5
2026-01-04T1400,2222A,120.4176,41.5648,朝阳市,八里堡,,33,31,109,23,75,56,,21,21,26,48,12,18,0.9,1.9
2026-01-04T1400,3026A,116.6179,23.6608,潮州市,市政府,颗粒物(PM10),59,68,56,20,30,122,,70,70,12,16,12,8,0.5,0.4
2026-01-04T1400,4036A,116.646,23.676,潮州市,金山,颗粒物(PM10),52,53,48,19,33,111,,70,70,10,12,6,4,0.4,0.3
2026-01-04T1400,2473A,113.0116,25.8228,郴州市,市职中,细颗粒物(PM2.5),84,67,54,62,47,27,,17,17,13,17,6,5,0.6,0.6
2026-01-04T1400,2475A,113.0381,25.8074,郴州市,市审计局,细颗粒物(PM2.5),82,67,55,60,47,30,,18,18,17,19,8,4,/,/
2026-01-04T1400,2476A,113.0348,25.7757,郴州市,市环保局,细颗粒物(PM2.5),82,79,62,60,44,35,,20,20,20,25,10,5,0.7,0.6
2026-01-04T1400,4252A,113.0138,25.8011,郴州市,好美居路49号,细颗粒物(PM2.5),99,76,55,74,50,32,,20,20,18,21,8,5,/,/
2026-01-04T1400,1431A,103.9727,30.7242,成都市,金泉两河,,34,34,26,16,9,62,,22,22,20,30,2,2,0.6,0.7
2026-01-04T1400,1432A,104.1423,30.6765,成都市,十里店,,26,26,20,8,11,68,,27,27,19,29,4,3,0.6,0.6
2026-01-04T1400,1433A,104.0594,30.5765,成都市,三瓦窑,,33,30,25,23,16,71,,26,26,17,31,3,3,0.6,0.7
2026-01-04T1400,1434A,104.1122,30.6306,成都市,沙河铺,,40,40,29,25,20,66,,21,21,16,31,5,4,0.5,0.6
2026-01-04T1400,2880A,104.0219,30.6561,成都市,大石西路,,35,35,29,14,19,58,,22,22,21,29,5,4,0.6,0.6
2026-01-04T1400,3136A,104.2724,30.559,成都市,龙泉驿区区政府,,32,22,13,22,12,43,,18,18,11,20,6,6,0.7,0.7
2026-01-04T1400,3357A,104.0028,30.6891,成都市,金博路,,23,,14,16,10,61,,24,24,22,31,6,5,0.7,0.8
2026-01-04T1400,3359A,104.056,30.5228,成都市,华阳,,39,29,20,27,18,70,,28,28,16,30,3,3,0.5,0.6
2026-01-04T1400,3488A,104.387954,30.746684,成都市,青石路225号,细颗粒物(PM2.5),52,45,23,36,16,58,,24,24,17,23,6,6,0.6,0.7
2026-01-04T1400,3489A,104.0788,30.4054,成都市,科学城,细颗粒物(PM2.5),59,44,20,42,18,70,,28,28,8,21,6,5,0.6,0.8
2026-01-04T1400,4011A,103.8505,30.6946,成都市,光华大道三段,,26,26,26,13,13,74,,29,29,14,25,3,3,0.6,0.7
2026-01-04T1400,4144A,104.3257,30.6406,成都市,八角井街185号,,49,,28,34,18,64,,28,28,14,24,5,4,0.8,1
2026-01-04T1400,4224A,104.2433276,30.53529463,成都市,鲸龙路1057号,,43,37,24,30,18,68,,27,27,15,25,6,5,0.4,0.4
2026-01-04T1400,1062A,117.9531,40.908,承德市,铁路,,33,33,70,3,38,44,,17,17,24,40,6,11,0.5,1.3
2026-01-04T1400,1063A,117.9397,40.9763,承德市,中国银行,颗粒物(PM10),59,67,76,15,37,46,,22,22,19,32,4,6,0.6,1.1
2026-01-04T1400,4073A,117.9462,40.95,承德市,杏林街1号,,49,49,67,19,42,44,,19,19,24,38,7,10,0.7,1.3
2026-01-04T1400,4274A,117.7994,40.9605,承德市,滨河大街98号,,22,16,69,11,30,69,,26,26,9,39,5,11,0.2,1
2026-01-04T1400,2314A,117.4698,30.6617,池州市,池州学院,细颗粒物(PM2.5),99,84,82,74,70,48,,38,29,30,33,6,6,0.7,0.8
2026-01-04T1400,3237A,117.4918,30.6617,池州市,展览馆,细颗粒物(PM2.5),85,82,74,63,59,44,,34,28,35,37,4,4,1.0,1
2026-01-04T1400,3333A,117.5626,30.695,池州市,第八中学,细颗粒物(PM2.5),98,90,80,73,65,36,,35,26,43,39,9,5,1.0,1
2026-01-04T1400,3334A,117.5037,30.6242,池州市,第十二中学,细颗粒物(PM2.5),87,76,74,64,59,50,,25,25,35,43,5,4,1.0,1.1
2026-01-04T1400,1744A,118.9229,42.2816,赤峰市,松山一中,,34,34,95,3,53,68,,29,29,12,52,3,30,0.6,1.8
2026-01-04T1400,1745A,118.9588,42.2733,赤峰市,哈达街,颗粒物(PM10),54,58,90,32,53,74,,36,36,15,45,4,31,0.5,1.6
2026-01-04T1400,1746A,118.8792,42.2551,赤峰市,天义路,,23,10,72,10,61,72,,39,39,8,46,5,21,0.3,1.4
2026-01-04T1400,3058A,119.2656,42.0356,赤峰市,银河街,,44,44,144,23,95,63,,29,29,14,41,20,27,0.8,2.9
2026-01-04T1400,3286A,118.9359,42.3146,赤峰市,桥北物流园区,,24,9,70,8,55,75,,33,33,8,42,4,22,0.4,1.4
2026-01-04T1400,2521A,107.3473,22.4137,崇左市,市环保局江州分局,细颗粒物(PM2.5),78,90,58,57,39,38,,27,27,19,19,8,8,0.8,0.7
2026-01-04T1400,4256A,107.375,22.3736,崇左市,石景林东路7号,细颗粒物(PM2.5),93,90,48,69,42,38,,27,27,28,22,11,8,1.0,0.6
2026-01-04T1400,3207A,118.31131,32.3033,滁州市,市政府原办公楼,细颗粒物(PM2.5),82,67,75,60,58,66,,36,36,28,51,6,6,0.7,0.9
2026-01-04T1400,3331A,118.3268,32.2633,滁州市,图书馆,细颗粒物(PM2.5),82,67,70,60,60,63,,33,33,23,51,9,10,0.7,1
2026-01-04T1400,4101A,118.3196,32.3335,滁州市,银山路666号,细颗粒物(PM2.5),112,,72,84,73,51,,28,28,27,45,8,9,1.0,1.1
2026-01-04T1400,4102A,118.3426,32.2979,滁州市,黄山路555号,细颗粒物(PM2.5),105,,85,79,71,62,,37,37,30,53,11,12,0.8,1
2026-01-04T1400,2606A,101.5379,25.0492,楚雄彝族自治州,市经济开发区,,23,10,21,9,17,71,,31,31,4,17,4,4,0.4,0.6
2026-01-04T1400,4153A,101.5536,25.0343,楚雄彝族自治州,团结路562号,,23,12,16,3,13,71,,32,32,2,10,1,2,0.3,0.4
2026-01-04T1400,2549A,107.5087,31.2186,达州市,市环境监测站,细颗粒物(PM2.5),62,51,58,44,44,42,,17,17,23,30,5,5,0.4,0.5
2026-01-04T1400,2550A,107.4988,31.2132,达州市,凤凰小区,细颗粒物(PM2.5),58,56,63,41,48,44,,19,19,14,26,4,4,0.4,0.5
2026-01-04T1400,2551A,107.5081,31.1987,达州市,达县机关宾馆,颗粒物(PM10),52,53,67,33,50,36,,13,13,19,32,2,2,0.5,0.6
2026-01-04T1400,2552A,107.4644,31.2124,达州市,市政中心,细颗粒物(PM2.5),62,69,68,44,46,49,,21,21,15,29,5,5,0.3,0.4
2026-01-04T1400,2614A,100.2168,25.5818,大理白族自治州,大理市环境监测站,,23,14,14,9,14,73,,58,58,6,8,6,6,0.5,0.5
2026-01-04T1400,2615A,100.1542,25.7055,大理白族自治州,大理古城,,27,6,17,6,11,86,,71,64,3,10,8,8,0.5,0.6
2026-01-04T1400,1109A,121.6119,38.974,大连市,甘井子,,40,40,45,27,27,66,,61,45,18,28,11,11,0.3,0.4
2026-01-04T1400,1110A,121.565,38.9509,大连市,周水子,,42,42,52,28,35,56,,32,32,23,50,13,12,0.5,0.7
2026-01-04T1400,1111A,121.5637,38.8849,大连市,星海三站,,39,34,38,27,26,62,,46,46,22,27,10,11,0.6,0.8
2026-01-04T1400,1112A,121.6301,38.9117,大连市,青泥洼桥,,43,43,43,28,33,55,,31,31,24,46,11,10,0.5,0.6
2026-01-04T1400,1113A,121.6248,38.8643,大连市,傅家庄,,38,35,38,26,24,50,,49,45,24,30,11,11,0.2,0.2
2026-01-04T1400,1114A,121.5117,38.8636,大连市,七贤岭,,32,32,36,22,20,60,,59,57,18,18,9,9,0.7,0.6
2026-01-04T1400,1116A,121.7507,39.1339,大连市,金州,细颗粒物(PM2.5),54,49,40,38,27,57,,78,68,28,21,14,11,0.6,0.4
2026-01-04T1400,1117A,121.7811,39.0495,大连市,开发区,颗粒物(PM10),51,51,68,35,42,55,,29,29,19,48,6,7,0.7,1
2026-01-04T1400,1118A,121.9762,39.0631,大连市,双D港,,50,50,32,30,22,65,,76,72,21,16,16,14,0.6,0.6
2026-01-04T1400,4082A,121.2548,38.8188,大连市,旅顺,,42,42,65,21,50,64,,40,40,11,22,8,11,0.6,0.9
2026-01-04T1400,1789A,124.8085,46.0381,大庆市,大同区,,29,29,41,8,27,67,,54,54,7,22,5,6,0.2,0.4
2026-01-04T1400,1790A,125.1166,46.5255,大庆市,龙凤区,,28,28,35,9,21,57,,47,47,23,28,17,11,0.4,0.9
2026-01-04T1400,1791A,124.8894,46.4007,大庆市,红岗区,,29,22,28,20,20,57,,48,48,14,20,6,6,0.4,0.5
2026-01-04T1400,1792A,125.1391,46.578,大庆市,萨尔图区,,33,33,37,11,21,61,,46,46,9,23,8,8,0.3,0.4
2026-01-04T1400,1793A,124.9026,46.6217,大庆市,让胡路区,,23,23,29,16,26,71,,56,56,4,13,7,8,0.3,0.4
2026-01-04T1400,3481A,125.127,46.6277,大庆市,萨区政府监测点,,22,22,32,7,16,68,,50,50,6,25,9,9,0.5,0.7
2026-01-04T1400,1723A,113.2926,40.0759,大同市,云冈宾馆,,20,6,96,3,43,61,,39,39,8,50,5,16,0.3,1.8
2026-01-04T1400,1724A,113.3437,40.0921,大同市,大同大学,,22,22,62,8,32,66,,49,49,9,46,5,15,0.4,1.2
2026-01-04T1400,1725A,113.2637,40.129,大同市,安家小村,,21,17,83,3,39,67,,44,44,7,48,10,19,0.2,1.6
2026-01-04T1400,3282A,113.3399,40.0586,大同市,大同市卫生学校,,20,17,80,7,41,62,,45,45,12,51,4,15,0.2,1.3
2026-01-04T1400,3565A,113.1371,40.1122,大同市,云冈站,,34,34,73,11,34,62,,38,38,6,43,6,17,0.5,1.2
2026-01-04T1400,3566A,113.1186,40.2556,大同市,图书馆,,39,39,97,10,61,58,,42,42,12,42,7,16,0.6,1.8
2026-01-04T1400,3567A,113.5931,40.0459,大同市,区一中,,31,31,102,6,53,68,,35,35,12,49,10,29,0.6,1.5
2026-01-04T1400,4199A,113.2798248,40.09972476,大同市,魏都大道141号,,26,26,110,3,44,63,,38,38,8,48,4,14,0.3,1.9
2026-01-04T1400,2269A,124.1068,50.4091,大兴安岭地区,科技局,,20,15,16,8,13,63,,59,58,1,2,4,4,0.3,0.3
2026-01-04T1400,3663A,124.117,50.4279,大兴安岭地区,红旗社区,,22,6,6,3,4,68,,66,66,2,3,4,5,0.2,0.2
2026-01-04T1400,1600A,124.33,40.0625,丹东市,江湾东路,细颗粒物(PM2.5),62,61,91,44,74,57,,32,32,22,40,24,24,1.3,2.3
2026-01-04T1400,1601A,124.4242,40.1513,丹东市,临江后街,,42,42,81,26,55,63,,32,32,12,39,8,16,0.9,1.6
2026-01-04T1400,1602A,124.3935,40.1461,丹东市,元宝山,细颗粒物(PM2.5),55,50,67,39,56,56,,27,27,21,37,12,15,1.0,1.4
2026-01-04T1400,1603A,124.3634,40.1093,丹东市,民主桥,颗粒物(PM10),56,62,81,36,56,50,,29,29,28,40,13,13,0.9,1.3
2026-01-04T1400,3541A,109.5726195,19.51688767,儋州市,第一中学子站,,27,27,37,17,20,78,,72,72,2,5,3,4,0.4,0.5
2026-01-04T1400,3542A,109.5567,19.5187,儋州市,东坡学校子站,,30,30,37,14,18,84,,75,75,1,5,4,4,0.4,0.5
2026-01-04T1400,2616A,98.5611,24.4273,德宏傣族景颇族自治州,德宏州监测站,细颗粒物(PM2.5),64,63,39,46,31,43,,14,14,14,17,9,7,0.7,0.7
2026-01-04T1400,3677A,98.5887,24.4366,德宏傣族景颇族自治州,芒市人民政府综合楼,细颗粒物(PM2.5),64,57,40,46,26,36,,13,13,14,14,10,9,0.7,0.7
2026-01-04T1400,1901A,104.424,31.1209,德阳市,东山公园,,28,28,20,17,16,50,,23,23,17,19,3,2,0.8,0.8
2026-01-04T1400,1902A,104.3827,31.1318,德阳市,西小区,,44,44,38,17,20,60,,24,24,17,25,2,2,0.8,0.9
2026-01-04T1400,1904A,104.3553,31.1091,德阳市,耐火材料厂,,33,31,28,23,22,57,,20,20,19,29,1,1,0.8,0.8
2026-01-04T1400,4145A,104.4144,31.1495,德阳市,市林业局,,39,27,29,27,20,60,,20,20,10,20,3,2,0.7,0.8
2026-01-04T1400,1622A,116.3034,37.4675,德州市,儿童乐园,细颗粒物(PM2.5),175,166,155,132,120,34,,28,28,52,47,20,16,1.5,1.5
2026-01-04T1400,1624A,116.2992,37.4449,德州市,监理站,细颗粒物(PM2.5),170,171,154,129,123,46,,36,36,52,52,23,18,1.2,1.2
2026-01-04T1400,3066A,116.2722,37.438,德州市,九衢泉纯净水厂,细颗粒物(PM2.5),160,153,159,122,130,40,,20,20,42,54,27,24,1.0,1.1
2026-01-04T1400,3371A,116.3693,37.44,德州市,开发区人民医院,细颗粒物(PM2.5),128,144,157,97,113,55,,30,30,46,65,20,17,0.9,0.9
2026-01-04T1400,3511A,116.5687,37.3331,德州市,陵城艺术中心,细颗粒物(PM2.5),153,156,164,117,132,42,,18,18,54,64,18,20,1.1,1.3
2026-01-04T1400,4292A,116.352738,37.420875,德州市,新河东路,细颗粒物(PM2.5),140,141,159,107,132,50,,20,20,45,71,22,16,1.2,1.4
2026-01-04T1400,2621A,99.7054,27.8319,迪庆藏族自治州,迪庆州站,,28,10,23,10,15,87,,67,67,4,8,4,5,0.3,0.4
2026-01-04T1400,3180A,99.7122,27.8129,迪庆藏族自治州,质量技术监督局,,30,13,20,7,16,94,,71,71,4,10,5,6,0.4,0.5
2026-01-04T1400,4257A,104.6092,35.5962,定西市,将台街,细颗粒物(PM2.5),67,78,76,48,57,90,,42,42,9,28,10,9,0.2,0.6
2026-01-04T1400,4309A,104.6159,35.5701,定西市,正龙路62号,细颗粒物(PM2.5),60,48,74,43,60,84,,46,46,8,14,8,6,0.5,0.8
2026-01-04T1400,1390A,113.7943,23.0132,东莞市,东城石井,,36,34,53,21,32,113,,58,58,18,38,9,9,0.7,0.8
2026-01-04T1400,1391A,113.7384,22.9659,东莞市,南城西平,,39,39,63,23,37,118,,56,56,20,59,9,10,0.6,0.7
2026-01-04T1400,3319A,113.7283,23.041,东莞市,万江金泰,颗粒物(PM10),52,53,61,33,34,110,,64,64,19,37,6,6,0.7,0.8
2026-01-04T1400,4129A,113.8666,23.1062,东莞市,裕兴路,,40,38,63,18,35,126,,69,69,10,36,5,10,0.6,0.7
2026-01-04T1400,4130A,114.0076,22.9739,东莞市,教育路1号,颗粒物(PM10),53,55,75,30,41,132,,62,62,20,52,7,6,0.8,0.9
2026-01-04T1400,4131A,113.7981,22.8124,东莞市,长怡路1号,颗粒物(PM10),57,63,70,33,35,139,,64,64,24,49,10,9,0.7,0.7
2026-01-04T1400,1666A,118.6612,37.4313,东营市,市环保局,细颗粒物(PM2.5),156,156,156,119,122,60,,32,32,35,65,17,20,1.1,1.3
2026-01-04T1400,3036A,118.6903,37.4337,东营市,开发区管委会,细颗粒物(PM2.5),156,151,154,119,122,67,,36,36,33,68,20,22,1.1,1.3
2026-01-04T1400,3365A,118.5721,37.5654,东营市,垦利区民丰路,细颗粒物(PM2.5),180,163,157,136,124,54,,24,24,38,61,13,11,1.2,1.4
2026-01-04T1400,3498A,118.5063,37.8606,东营市,河口城区,细颗粒物(PM2.5),192,188,176,144,133,72,,36,36,31,50,8,7,1.2,1.3
2026-01-04T1400,3646A,118.4979,37.4623,东营市,胜利站,细颗粒物(PM2.5),147,154,173,112,133,70,,30,30,34,72,20,19,1.4,1.7
2026-01-04T1400,3734A,118.5753,37.4405,东营市,理想之城,细颗粒物(PM2.5),153,151,156,117,124,56,,26,26,43,72,14,13,1.1,1.4
2026-01-04T1400,1591A,110.0024,39.8127,鄂尔多斯市,综合楼,,29,29,39,7,17,70,,48,48,10,28,9,11,0.4,0.6
2026-01-04T1400,1592A,109.9485,39.8259,鄂尔多斯市,巴音孟克林场办事处,颗粒物(PM10),51,51,48,14,17,68,,45,45,14,30,7,13,0.3,0.7
2026-01-04T1400,1593A,109.7734,39.5987,鄂尔多斯市,康泽苑,,27,22,31,9,16,86,,63,63,5,15,6,6,0.2,0.4
2026-01-04T1400,1594A,109.8121,39.5987,鄂尔多斯市,华泰汽车城,,26,24,35,7,16,81,,48,48,6,21,3,4,0.3,0.5
2026-01-04T1400,1595A,109.9734,39.7884,鄂尔多斯市,奥林花园,颗粒物(PM10),53,56,49,7,13,60,,48,48,19,27,3,6,0.4,0.7
2026-01-04T1400,2436A,114.894,30.3989,鄂州市,市政府,细颗粒物(PM2.5),72,60,48,52,42,34,,61,49,21,22,4,6,1.0,0.7
2026-01-04T1400,2437A,114.8986,30.3714,鄂州市,赵家坝,细颗粒物(PM2.5),78,,49,57,45,43,,55,42,14,17,6,7,0.8,0.4
2026-01-04T1400,3654A,114.8093,30.4091,鄂州市,精准医疗中心,细颗粒物(PM2.5),74,,57,54,50,55,,58,49,12,17,4,4,1.0,0.8
2026-01-04T1400,2454A,109.4978,30.2979,恩施土家族苗族自治州,湖北民院,细颗粒物(PM2.5),52,,41,36,43,66,,33,33,11,12,6,6,0.7,0.7
2026-01-04T1400,3549A,109.5061,30.3771,恩施土家族苗族自治州,龙凤新区,细颗粒物(PM2.5),55,45,50,39,45,31,,19,19,12,10,6,7,0.5,0.5
2026-01-04T1400,2499A,108.3411,21.6159,防城港市,沙万,,38,,79,26,43,116,,62,62,15,28,8,8,0.5,0.8
2026-01-04T1400,2500A,108.3515,21.7733,防城港市,防城档案局,颗粒物(PM10),55,60,77,28,50,97,,49,49,14,26,8,6,0.5,0.8
2026-01-04T1400,2501A,108.3506,21.6414,防城港市,大海花园,颗粒物(PM10),51,51,60,26,40,125,,65,65,6,23,8,11,0.5,1
2026-01-04T1400,1371A,113.1293,23.0065,佛山市,湾梁,细颗粒物(PM2.5),70,73,74,51,46,83,,27,27,58,67,/,/,/,/
2026-01-04T1400,1372A,113.1082,23.0477,佛山市,华材职中,颗粒物(PM10),64,78,87,44,42,91,,33,33,51,68,6,7,0.6,0.8
2026-01-04T1400,1373A,113.1439,23.045,佛山市,南海气象局,细颗粒物(PM2.5),78,87,79,57,43,90,,27,27,53,68,/,/,/,/
2026-01-04T1400,1374A,113.2879,22.8094,佛山市,顺德苏岗,颗粒物(PM10),51,51,62,31,40,108,,52,52,37,56,/,/,0.7,0.8
2026-01-04T1400,1376A,112.8384,22.8678,佛山市,高明孔堂,细颗粒物(PM2.5),89,70,65,66,46,103,,42,42,50,41,/,/,/,/
2026-01-04T1400,1377A,112.8835,23.1584,佛山市,三水监测站,细颗粒物(PM2.5),68,73,87,49,55,117,,47,47,28,56,9,12,0.6,0.7
2026-01-04T1400,1378A,112.8668,23.185,佛山市,三水云东海,细颗粒物(PM2.5),70,58,78,51,50,124,,49,49,29,41,/,/,/,/
2026-01-04T1400,3625A,113.2568,22.7629,佛山市,容桂街道办,"颗粒物(PM10),细颗粒物(PM2.5)",58,66,69,41,42,81,,29,29,43,52,/,/,/,/
2026-01-04T1400,1282A,119.2681,26.0506,福州市,师大,,36,36,34,8,18,86,,60,60,18,25,7,8,0.3,0.5
2026-01-04T1400,1283A,119.2983,26.1028,福州市,五四北路,,33,33,31,8,13,85,,60,60,14,20,5,5,0.4,0.5
2026-01-04T1400,1284A,119.2648,26.0769,福州市,杨桥西路,,30,30,31,8,14,86,,63,63,11,16,5,5,/,/
2026-01-04T1400,3048A,119.5799,26.0937,福州市,九龙,,29,28,26,8,12,90,,72,72,14,16,5,5,0.4,0.5
2026-01-04T1400,3526A,119.5188,25.9666,福州市,吴航,,32,32,26,13,15,77,,54,54,25,22,6,6,0.5,0.6
2026-01-04T1400,4104A,119.3106,26.0648,福州市,路通桥巷6号,,36,36,33,15,18,77,,,,13,16,/,/,/,/
2026-01-04T1400,1755A,123.7974,41.8494,抚顺市,望花区,细颗粒物(PM2.5),149,164,153,114,112,36,,19,19,62,63,25,15,2.3,2.2
2026-01-04T1400,1756A,123.9161,41.8827,抚顺市,顺城区,细颗粒物(PM2.5),138,171,128,105,93,36,,23,23,67,60,34,14,3.6,2.1
2026-01-04T1400,1757A,124.0437,41.8615,抚顺市,东洲区,细颗粒物(PM2.5),130,150,117,99,93,37,,22,22,54,58,20,19,2.8,2.2
2026-01-04T1400,1758A,123.9246,41.8638,抚顺市,新抚区,细颗粒物(PM2.5),135,190,133,103,97,32,,20,20,69,57,29,11,3.8,2.1
2026-01-04T1400,1759A,124.0972,41.8961,抚顺市,大伙房水库,细颗粒物(PM2.5),134,126,106,102,79,47,,30,30,47,52,27,17,3.1,2
2026-01-04T1400,1760A,123.708,41.8386,抚顺市,沈抚新城,细颗粒物(PM2.5),192,150,145,144,116,34,,24,24,73,64,21,14,2.3,2.3
2026-01-04T1400,2377A,116.3544,27.9833,抚州市,市站,细颗粒物(PM2.5),62,57,51,44,37,36,,42,32,20,16,11,11,0.6,0.5
2026-01-04T1400,2378A,116.3562,27.9631,抚州市,血防站,细颗粒物(PM2.5),59,62,55,42,38,35,,47,29,26,20,9,9,1.0,0.7
2026-01-04T1400,2379A,116.3561,28.0007,抚州市,采茶剧团,细颗粒物(PM2.5),59,59,53,42,37,37,,41,32,19,13,8,9,0.9,0.7
2026-01-04T1400,2380A,116.3854,27.9648,抚州市,医学分院,颗粒物(PM10),57,63,56,38,35,39,,48,35,24,17,6,9,0.7,0.6
2026-01-04T1400,2207A,121.6095,41.9978,阜新市,工业园区,,23,23,108,7,61,73,,40,40,6,35,8,20,0.3,1
2026-01-04T1400,2208A,121.6567,42.0188,阜新市,长青街,,23,13,72,3,55,73,,42,42,6,35,7,12,0.3,0.9
2026-01-04T1400,2209A,121.6672,42.07,阜新市,农业园区,,32,32,55,3,35,70,,56,56,7,22,6,18,0.3,0.6
2026-01-04T1400,2211A,121.6343,42.0455,阜新市,玉龙新城,,31,31,98,3,57,70,,39,39,7,40,8,10,0.2,1
2026-01-04T1400,2301A,115.8276,32.8929,阜阳市,市监测站,细颗粒物(PM2.5),98,95,83,73,63,47,,22,22,29,41,6,5,0.7,0.7
2026-01-04T1400,2303A,115.8551,32.8606,阜阳市,开发区,细颗粒物(PM2.5),94,95,73,70,56,26,,16,16,39,38,6,5,0.6,0.5
2026-01-04T1400,2875A,115.783962,32.889217,阜阳市,阜阳职业技术学院,细颗粒物(PM2.5),85,80,68,63,51,66,,46,41,14,23,7,6,0.7,0.7
2026-01-04T1400,3468A,115.79,32.8614,阜阳市,市规划展馆,细颗粒物(PM2.5),102,88,68,76,55,62,,48,38,19,24,8,6,0.6,0.4
2026-01-04T1400,3469A,115.835101,32.918568,阜阳市,枣园社区,细颗粒物(PM2.5),98,93,78,73,63,47,,25,22,30,43,8,6,0.4,0.4
2026-01-04T1400,2669A,102.9097,34.9841,甘南藏族自治州,州政府,颗粒物(PM10),135,219,75,43,55,72,,35,35,20,27,6,3,0.8,0.9
2026-01-04T1400,3380A,102.8915,34.9618,甘南藏族自治州,甘肃民族师范学院,细颗粒物(PM2.5),73,79,76,53,55,64,,42,42,26,29,7,5,0.7,0.6
2026-01-04T1400,2570A,101.96,30.048,甘孜藏族自治州,水桥子,,17,8,7,3,5,53,,45,42,8,12,6,6,0.7,0.6
2026-01-04T1400,3065A,101.9534,29.9976,甘孜藏族自治州,州环保局,,17,11,11,7,5,53,,45,44,8,11,6,6,0.6,0.6
2026-01-04T1400,2363A,114.9368,25.8663,赣州市,地委,颗粒物(PM10),54,57,44,33,24,52,,22,22,33,25,8,8,0.9,0.7
2026-01-04T1400,2364A,114.946,25.8483,赣州市,气象台,颗粒物(PM10),58,66,53,27,20,59,,29,29,45,40,3,2,0.9,0.8
2026-01-04T1400,2365A,114.932,25.8332,赣州市,市图书馆,颗粒物(PM10),53,56,43,32,25,50,,26,26,38,34,4,4,0.9,0.7
2026-01-04T1400,2366A,114.8905,25.8472,赣州市,华坚鞋城,,50,50,42,32,23,59,,26,26,28,29,7,5,0.5,0.4
2026-01-04T1400,3109A,115.0094,25.8614,赣州市,赣县区卫计委,细颗粒物(PM2.5),67,55,38,48,31,50,,23,23,29,26,8,8,0.5,0.4
2026-01-04T1400,2684A,106.2753,36.0057,固原市,监测站,,29,,51,17,47,92,,61,61,9,23,5,4,0.5,0.8
2026-01-04T1400,2685A,106.2384,36.0189,固原市,新区,,30,18,46,11,41,96,,74,74,6,15,3,3,0.5,0.7
2026-01-04T1400,2544A,106.6307,30.4577,广安市,市委,细颗粒物(PM2.5),55,47,49,39,37,51,,33,29,15,19,5,5,0.8,0.8
2026-01-04T1400,2545A,106.6266,30.4662,广安市,友谊中学,细颗粒物(PM2.5),54,43,43,38,38,60,,41,40,5,7,7,6,0.6,0.6
2026-01-04T1400,2547A,106.6386,30.4551,广安市,广电花园,细颗粒物(PM2.5),52,,45,36,37,52,,30,28,13,17,8,8,0.6,0.6
2026-01-04T1400,2902A,106.6347,30.4868,广安市,北辰小学,细颗粒物(PM2.5),59,51,45,42,40,55,,35,35,13,12,18,15,0.9,0.9
2026-01-04T1400,2524A,105.8211,32.4444,广元市,老城,,49,,42,34,33,84,,50,50,14,31,8,4,0.5,0.9
2026-01-04T1400,2526A,105.8629,32.429,广元市,监测站,,39,39,46,27,30,84,,41,41,10,25,2,3,0.6,1
2026-01-04T1400,3617A,105.8047,32.4167,广元市,经开区,,45,43,42,31,34,76,,40,40,12,28,2,3,0.6,0.9
2026-01-04T1400,1345A,113.2346,23.1423,广州市,广雅中学,颗粒物(PM10),58,65,72,37,41,113,,41,41,20,58,3,3,0.7,0.7
2026-01-04T1400,1346A,113.2611,23.105,广州市,市五中,颗粒物(PM10),55,60,63,34,38,118,,54,54,39,68,9,9,/,/
2026-01-04T1400,1348A,113.3477,23.0916,广州市,广东商学院,,41,41,59,25,39,111,,46,46,17,55,7,7,0.4,0.6
2026-01-04T1400,1349A,113.4332,23.105,广州市,市八十六中,,38,28,52,18,36,120,,49,49,15,59,8,9,/,/
2026-01-04T1400,1350A,113.3506,22.9488,广州市,番禺中学,颗粒物(PM10),52,54,76,29,45,110,,52,52,32,63,5,6,0.5,0.6
2026-01-04T1400,1351A,113.2147,23.3918,广州市,花都师范,颗粒物(PM10),60,70,63,40,37,110,,48,48,33,56,6,7,0.5,0.6
2026-01-04T1400,1352A,113.2599,23.1329,广州市,市监测站,颗粒物(PM10),54,57,66,33,42,110,,44,44,32,64,2,2,/,/
2026-01-04T1400,1353A,113.5618,23.3119,广州市,九龙镇镇龙,颗粒物(PM10),52,53,56,31,32,112,,54,54,19,36,6,6,0.4,0.5
2026-01-04T1400,1354A,113.2764,23.1544,广州市,麓湖,颗粒物(PM10),52,53,52,31,34,113,,50,50,23,54,8,8,0.3,0.4
2026-01-04T1400,2846A,113.3209,23.1323,广州市,体育西,颗粒物(PM10),55,59,61,32,38,108,,52,52,31,56,6,6,0.6,0.7
2026-01-04T1400,3298A,113.5718,23.5493,广州市,从化街口,"颗粒物(PM10),细颗粒物(PM2.5)",52,53,51,36,35,126,,50,50,18,33,9,8,0.6,0.7
2026-01-04T1400,3299A,113.3463,23.369,广州市,白云竹料,,45,45,64,25,39,129,,58,58,16,40,4,4,0.4,0.6
2026-01-04T1400,3300A,113.2981,23.2365,广州市,白云嘉禾,颗粒物(PM10),57,63,61,28,33,126,,50,50,24,52,6,4,/,/
2026-01-04T1400,3301A,113.4256,23.1716,广州市,黄埔科学城,,38,35,46,21,29,121,,65,65,17,34,5,6,0.5,0.6
2026-01-04T1400,3302A,113.3942,23.0485,广州市,番禺大学城,,50,50,62,24,35,120,,58,58,20,52,9,10,0.5,0.6
2026-01-04T1400,3303A,113.4923,22.8169,广州市,南沙黄阁,颗粒物(PM10),59,67,65,28,35,130,,76,76,31,48,12,9,/,/
2026-01-04T1400,3304A,113.534,22.7893,广州市,南沙街,,47,47,59,25,33,123,,82,82,25,36,7,7,0.5,0.6
2026-01-04T1400,3443A,113.2905,23.5541,广州市,花都梯面,颗粒物(PM10),55,59,36,30,22,125,,57,57,17,29,7,6,/,/
2026-01-04T1400,3445A,113.786,23.7479,广州市,从化良口,,33,30,20,23,16,100,,48,48,7,12,8,7,/,/
2026-01-04T1400,3446A,113.805,23.2614,广州市,增城荔城,,35,33,33,24,23,106,,59,59,11,20,7,8,0.5,0.5
2026-01-04T1400,2506A,109.604387,23.066791,贵港市,江南子站,,,75,76,54,50,70,,43,43,25,33,10,10,,0.9
2026-01-04T1400,2508A,109.5669,23.1065,贵港市,荷城子站,颗粒物(PM10),57,63,60,36,38,66,,45,45,23,24,11,9,0.6,0.7
2026-01-04T1400,3405A,109.5886,23.1172,贵港市,新世纪学校,颗粒物(PM10),63,75,67,41,41,73,,46,46,23,27,/,/,0.5,0.5
2026-01-04T1400,4260A,109.5933,23.095,贵港市,中山路155-3号,细颗粒物(PM2.5),73,64,58,53,44,77,,48,48,24,28,/,/,0.8,0.8
2026-01-04T1400,1439A,106.6863,26.6035,贵阳市,马鞍山,,25,22,14,17,12,44,,21,21,11,16,8,5,/,/
2026-01-04T1400,1441A,106.6241,26.6266,贵阳市,鉴湖路,,22,22,17,9,7,55,,32,32,13,19,6,3,0.5,0.6
2026-01-04T1400,1442A,106.7468,26.6344,贵阳市,燕子冲,,28,,19,19,20,48,,19,19,12,17,9,8,0.8,0.8
2026-01-04T1400,1443A,106.6556,26.4362,贵阳市,碧云窝,,41,41,22,19,9,30,,16,16,23,17,16,5,/,/
2026-01-04T1400,1445A,106.6963,26.6063,贵阳市,红边门,,24,24,18,14,13,32,,18,18,18,19,10,8,/,/
2026-01-04T1400,1446A,106.7162383,26.56964667,贵阳市,新华路,,31,31,22,14,10,36,,23,23,17,17,9,7,0.6,0.6
2026-01-04T1400,1447A,106.6742,26.542,贵阳市,太慈桥,,24,24,15,14,9,42,,26,26,17,20,5,4,/,/
2026-01-04T1400,4230A,106.688212,26.56952,贵阳市,花果园大街66号,,22,,9,15,13,39,,23,23,14,18,5,2,/,/
2026-01-04T1400,4231A,106.687268,26.516892,贵阳市,漓江路57号,,34,34,18,17,11,35,,18,18,20,21,11,8,0.8,0.8
2026-01-04T1400,1864A,110.3091,25.2705,桂林市,龙隐路小学,细颗粒物(PM2.5),99,81,52,74,60,20,,29,24,26,16,6,6,0.5,0.4
2026-01-04T1400,1865A,110.2849361,25.22909545,桂林市,八中,细颗粒物(PM2.5),90,73,52,67,56,24,,26,22,27,22,7,7,0.7,0.6
2026-01-04T1400,3531A,110.296,25.1254,桂林市,旅游学院,细颗粒物(PM2.5),70,68,46,51,41,33,,30,28,23,18,4,4,0.7,0.6
2026-01-04T1400,4222A,110.1835,25.2444,桂林市,环湖路276号,细颗粒物(PM2.5),79,70,57,58,48,20,,29,22,27,20,6,6,0.6,0.6
2026-01-04T1400,4301A,110.2803,25.2773,桂林市,信义路13号,细颗粒物(PM2.5),82,76,52,60,49,18,,31,23,32,22,5,4,0.7,0.6
2026-01-04T1400,2674A,100.2262,34.4854,果洛藏族自治州,玛沁县大武镇,,30,17,38,3,9,94,,48,48,1,3,10,14,0.3,0.4
2026-01-04T1400,1130A,126.5557,45.8109,哈尔滨市,松北商大,,50,50,65,22,49,65,,38,38,13,34,6,10,0.5,0.7
2026-01-04T1400,1132A,126.6162,45.719,哈尔滨市,南岗学府路,,47,47,70,22,50,60,,33,33,14,32,9,12,0.6,0.9
2026-01-04T1400,1133A,126.6894,45.7733,哈尔滨市,太平宏伟公园,,40,40,55,21,43,66,,44,44,10,31,12,24,0.3,0.6
2026-01-04T1400,1134A,126.6361,45.7672,哈尔滨市,道外承德广场,,48,48,76,18,45,65,,43,43,14,34,8,12,0,0.2
2026-01-04T1400,1136A,126.644,45.7261,哈尔滨市,动力和平路,,40,40,66,22,46,61,,37,37,16,34,11,17,0.6,0.8
2026-01-04T1400,1137A,126.5933,45.7479,哈尔滨市,道里建国路,,36,33,60,25,52,63,,41,41,12,30,13,19,0,0.1
2026-01-04T1400,1138A,126.6127,45.6119,哈尔滨市,平房东轻厂,,36,,65,25,93,60,,33,33,15,40,5,7,0.2,0.5
2026-01-04T1400,1139A,126.5875,45.9827,哈尔滨市,呼兰师专,,30,,64,21,65,60,,42,42,9,29,6,9,0.4,0.8
2026-01-04T1400,1140A,126.6299,45.6799,哈尔滨市,省农科院,,39,39,93,25,69,60,,31,31,17,45,12,15,1.3,1.2
2026-01-04T1400,4282A,126.6769,45.7379,哈尔滨市,华山路1号,,46,46,60,21,45,50,,41,41,20,37,19,31,0.6,0.8
2026-01-04T1400,4283A,126.9717,45.5356,哈尔滨市,解放大街52号,,26,26,126,3,80,63,,32,32,14,40,20,16,0.5,1.2
2026-01-04T1400,2688A,93.5124,42.8176,哈密市,地区监测站,,38,38,48,25,31,62,,61,60,9,13,5,4,0.0,0.1
2026-01-04T1400,2689A,93.5014,42.8312,哈密市,哈密师范学校,,40,37,55,28,25,62,,56,56,12,29,8,7,0.2,0.4
2026-01-04T1400,2671A,100.9016,36.9464,海北藏族自治州,海晏县西海镇,,47,47,78,24,65,83,,58,58,13,22,12,14,0.7,1.1
2026-01-04T1400,3867A,102.074,36.5056,海东市,平安区公安局北苑,细颗粒物(PM2.5),100,92,80,75,71,52,,40,32,27,17,28,19,1.3,1
2026-01-04T1400,4163A,102.0984,36.5119,海东市,滨河路,细颗粒物(PM2.5),108,86,76,81,72,58,,27,27,33,38,29,18,1.2,1
2026-01-04T1400,1410A,110.3189,20.0596,海口市,海南大学,,41,41,37,18,16,113,,98,98,7,7,6,6,0.3,0.3
2026-01-04T1400,1411A,110.2827,20.0051,海口市,秀英海南医院,,46,46,41,18,15,97,,86,86,7,9,8,7,0.3,0.3
2026-01-04T1400,1412A,110.3391,19.9979,海口市,海南师范大学,,45,45,39,19,16,110,,94,94,8,9,6,5,0.4,0.4
2026-01-04T1400,1413A,110.3303,20.0359,海口市,龙华路环保局宿舍,,43,43,37,19,17,112,,97,97,8,9,/,/,0.6,0.5
2026-01-04T1400,3539A,110.5111,19.9737,海口市,桂林洋子站,,38,38,36,18,17,106,,91,91,7,8,/,/,/,/
2026-01-04T1400,4134A,110.1952,20.0451,海口市,长滨二路9号,,37,37,32,18,16,105,,95,95,6,6,/,/,/,/
2026-01-04T1400,2673A,100.6158,36.2985,海南藏族自治州,共和县恰卜恰镇,,42,33,55,29,43,86,,55,55,6,20,10,11,0.6,0.7
2026-01-04T1400,2676A,97.373,37.376,海西蒙古族藏族自治州,德令哈市,,28,22,17,3,9,87,,78,78,11,6,14,12,0.7,0.5
2026-01-04T1400,1049A,114.492,36.5712,邯郸市,矿院,细颗粒物(PM2.5),269,,158,219,172,21,,12,12,46,53,2,5,1.5,1.2
2026-01-04T1400,1050A,114.4839,36.6136,邯郸市,丛台公园,细颗粒物(PM2.5),257,218,175,207,161,24,,17,13,41,44,5,7,1.5,1.2
2026-01-04T1400,3458A,114.7893,36.5592,邯郸市,香泉濮院小区,细颗粒物(PM2.5),248,207,156,198,154,38,,25,25,49,43,8,6,1.3,1.2
2026-01-04T1400,3580A,114.1998,36.4439,邯郸市,峰峰矿区临水派出所,细颗粒物(PM2.5),291,,127,241,178,34,,22,22,38,41,11,12,2.0,1.4
2026-01-04T1400,4068A,114.5209,36.7697,邯郸市,建安街268号,细颗粒物(PM2.5),273,,182,223,172,17,,10,10,56,61,8,10,1.7,1.5
2026-01-04T1400,4069A,114.5488,36.6177,邯郸市,丛台东路558号,细颗粒物(PM2.5),263,260,214,213,178,29,,17,17,43,57,6,9,1.4,1.2
2026-01-04T1400,2635A,107.0155,33.0707,汉中市,市监测站,颗粒物(PM10),52,54,55,34,57,78,,32,32,12,23,6,4,0.5,0.8
2026-01-04T1400,2636A,107.0083,33.114,汉中市,鑫源开发区,细颗粒物(PM2.5),52,40,56,36,59,79,,38,38,13,23,5,6,0.3,0.7
2026-01-04T1400,2637A,107.0072,33.0323,汉中市,南郑大河坎水厂,细颗粒物(PM2.5),55,50,74,39,64,79,,32,32,10,20,8,5,0.8,1.1
2026-01-04T1400,1223A,120.2073,30.2111,杭州市,滨江,细颗粒物(PM2.5),107,110,106,80,81,15,,11,11,57,60,6,7,0.8,0.7
2026-01-04T1400,1224A,120.0625,30.2737,杭州市,西溪,细颗粒物(PM2.5),112,110,92,84,72,9,,9,9,65,54,10,8,1.0,1
2026-01-04T1400,1226A,120.3417,30.315,杭州市,下沙,细颗粒物(PM2.5),118,105,109,89,88,19,,12,12,62,66,9,10,0.8,1.1
2026-01-04T1400,1227A,120.1252,30.2465,杭州市,卧龙桥,细颗粒物(PM2.5),117,111,92,88,74,8,,12,12,54,36,10,10,1.0,0.9
2026-01-04T1400,1228A,120.1902,30.2691,杭州市,浙江农大,细颗粒物(PM2.5),127,122,118,96,95,9,,10,10,65,67,4,5,0.8,0.7
2026-01-04T1400,1230A,120.1195,30.3121,杭州市,和睦小学,细颗粒物(PM2.5),118,126,112,89,83,7,,8,8,60,56,6,6,1.0,1
2026-01-04T1400,1231A,120.3076,30.4146,杭州市,临平镇,细颗粒物(PM2.5),122,138,123,92,86,7,,5,5,70,64,8,8,0.9,0.8
2026-01-04T1400,1232A,120.2753,30.1839,杭州市,城厢镇,细颗粒物(PM2.5),93,100,102,69,74,26,,14,14,56,63,8,9,0.6,0.6
2026-01-04T1400,1233A,120.0883,30.1808,杭州市,云栖,细颗粒物(PM2.5),108,101,93,81,75,13,,9,8,53,40,4,3,0.9,0.9
2026-01-04T1400,3557A,119.9463,30.0496,杭州市,镇二中,细颗粒物(PM2.5),114,93,82,86,79,16,,11,11,54,47,7,6,1.1,0.9
2026-01-04T1400,3558A,119.7184,30.2367,杭州市,市府大楼,细颗粒物(PM2.5),109,114,105,82,76,20,,18,18,35,31,10,10,1.1,1
2026-01-04T1400,3656A,120.1554,30.2863,杭州市,消防大队,细颗粒物(PM2.5),122,114,101,92,85,7,,10,10,60,57,7,7,0.5,0.4
2026-01-04T1400,1270A,117.1957,31.7845,合肥市,明珠广场,,,,80,,62,,,65,,,46,,6,,0.9
2026-01-04T1400,1271A,117.307,31.8765,合肥市,三里街,细颗粒物(PM2.5),73,61,76,53,59,17,,18,10,63,58,4,6,0.8,0.8
2026-01-04T1400,1272A,117.2587,31.8703,合肥市,琥珀山庄,细颗粒物(PM2.5),80,63,76,59,61,29,,26,21,49,46,8,9,1.0,1
2026-01-04T1400,1275A,117.2593,31.9376,合肥市,庐阳区,细颗粒物(PM2.5),92,85,90,68,62,19,,13,13,67,69,2,4,1.0,0.9
2026-01-04T1400,1276A,117.345251,31.861615,合肥市,瑶海区,细颗粒物(PM2.5),68,66,79,49,60,30,,18,18,57,63,4,6,0.9,0.9
2026-01-04T1400,1277A,117.3033,31.7967,合肥市,包河区,细颗粒物(PM2.5),85,73,80,63,66,18,,12,12,68,66,6,7,0.9,1
2026-01-04T1400,1278A,117.278,31.7392,合肥市,滨湖新区,细颗粒物(PM2.5),110,83,75,83,67,41,,31,27,36,38,4,5,0.9,0.9
2026-01-04T1400,1279A,117.1324,31.8395,合肥市,高新区,细颗粒物(PM2.5),84,68,72,62,56,19,,29,25,59,48,4,5,0.9,0.8
2026-01-04T1400,3464A,117.3802,31.9148,合肥市,高教基地,细颗粒物(PM2.5),87,66,76,64,65,54,,29,29,31,46,7,8,0.8,0.9
2026-01-04T1400,4098A,117.2518,31.8404,合肥市,中国科学技术大学,细颗粒物(PM2.5),65,58,70,47,54,34,,30,26,50,45,5,7,0.6,0.7
2026-01-04T1400,3614A,79.9241,37.0878,和田地区,地区环保局,,49,48,46,34,28,50,,49,40,11,13,1,2,0.7,0.8
2026-01-04T1400,3615A,79.9132,37.1137,和田地区,市环保局,颗粒物(PM10),54,57,42,29,22,55,,47,40,14,21,1,2,0.2,0.4
2026-01-04T1400,2517A,108.0496,24.6957,河池市,市环保站,,28,20,27,19,24,28,,29,27,12,11,2,5,0.8,0.7
2026-01-04T1400,4302A,108.0901,24.6945,河池市,上任中路54号,,22,22,29,11,27,18,,27,21,18,13,3,6,0.8,0.7
2026-01-04T1400,1697A,114.6962,23.7538,河源市,东埔,,30,29,31,21,22,94,,43,43,10,30,7,7,0.6,0.8
2026-01-04T1400,1698A,114.6895,23.7232,河源市,老城,,30,25,33,19,24,96,,42,42,7,22,7,7,0.7,0.8
2026-01-04T1400,3374A,115.5562,35.089,菏泽市,定陶老年大学,细颗粒物(PM2.5),144,134,100,110,82,39,,36,33,26,22,2,2,0.9,0.8
2026-01-04T1400,4114A,115.4239,35.2593,菏泽市,黄河路600号,细颗粒物(PM2.5),72,91,109,52,87,73,,40,40,13,24,3,3,0.9,1
2026-01-04T1400,4115A,115.5025,35.2727,菏泽市,菏泽市人社局,细颗粒物(PM2.5),82,67,96,60,80,67,,42,39,13,21,3,2,0.5,0.6
2026-01-04T1400,4184A,115.479691,35.244011,菏泽市,永昌路1号,细颗粒物(PM2.5),79,69,102,58,85,71,,42,42,15,23,6,5,0.5,0.6
2026-01-04T1400,4193A,115.471542,35.280012,菏泽市,长城路999号,细颗粒物(PM2.5),72,61,99,52,79,74,,46,43,11,19,4,4,0.9,1
2026-01-04T1400,2514A,111.5264,24.4178,贺州市,环保小区,,48,48,59,29,46,86,,34,34,18,24,8,7,0.6,0.7
2026-01-04T1400,2515A,111.561,24.4074,贺州市,政协大楼,,49,43,60,34,48,94,,31,31,18,30,7,11,0.6,0.8
2026-01-04T1400,3534A,111.4744,24.455,贺州市,西湾,颗粒物(PM10),53,55,58,35,44,68,,35,35,23,26,8,8,0.7,0.8
2026-01-04T1400,2385A,114.17,35.9019,鹤壁市,市监测站,细颗粒物(PM2.5),246,203,163,196,145,24,,13,13,34,43,4,5,1.8,1.4
2026-01-04T1400,2386A,114.2953,35.7512,鹤壁市,市交警支队,细颗粒物(PM2.5),217,194,154,167,130,18,,9,9,44,50,2,5,1.8,1.1
2026-01-04T1400,2387A,114.2877,35.7302,鹤壁市,迎宾馆,细颗粒物(PM2.5),229,,153,179,133,22,,11,11,31,41,6,7,1.8,1.3
2026-01-04T1400,3474A,114.2616,35.6824,鹤壁市,大新区,细颗粒物(PM2.5),245,,146,195,141,28,,16,16,30,48,6,8,1.9,1.3
2026-01-04T1400,3596A,114.1573,35.9607,鹤壁市,南山宾馆,细颗粒物(PM2.5),249,207,165,199,144,29,,15,15,37,42,8,8,1.9,1.3
2026-01-04T1400,2244A,130.2537,47.3416,鹤岗市,哈啤分公司,,23,,24,12,22,71,,64,64,2,6,5,7,0.2,0.3
2026-01-04T1400,2245A,130.2683,47.3087,鹤岗市,斯达机电,,24,22,27,15,24,76,,68,68,4,7,4,5,0.3,0.4
2026-01-04T1400,2246A,130.3114,47.3388,鹤岗市,东山纸板厂,,36,36,23,6,18,76,,70,70,3,6,6,7,0.3,0.6
2026-01-04T1400,2263A,127.4832,50.2524,黑河市,交通局,,22,,13,15,13,69,,67,67,4,7,4,4,0.3,0.3
2026-01-04T1400,2264A,127.5146,50.2339,黑河市,环保局,,19,16,14,11,13,60,,64,64,13,10,10,6,0.4,0.3
2026-01-04T1400,1074A,115.6839,37.754,衡水市,电机北厂,细颗粒物(PM2.5),206,182,178,156,150,34,,11,11,47,49,8,7,1.0,1.1
2026-01-04T1400,1075A,115.6303,37.7318,衡水市,市监测站,细颗粒物(PM2.5),207,172,162,157,141,32,,16,12,50,46,8,7,1.0,1.1
2026-01-04T1400,3188A,115.6684,37.7216,衡水市,市城管局,细颗粒物(PM2.5),195,176,164,146,137,40,,13,13,47,52,10,9,1.0,1.2
2026-01-04T1400,3459A,115.599,37.5491,衡水市,地表水厂,细颗粒物(PM2.5),208,,146,158,150,41,,15,15,35,54,7,7,0.9,1
2026-01-04T1400,2457A,112.6209,26.9268,衡阳市,衡阳化工总厂,细颗粒物(PM2.5),77,,50,56,51,21,,29,21,19,16,8,6,1.2,1
2026-01-04T1400,2458A,112.621,26.8957,衡阳市,珠晖区环保局,细颗粒物(PM2.5),77,,47,56,52,16,,24,16,25,21,4,4,1.1,0.9
2026-01-04T1400,2459A,112.628,26.8654,衡阳市,市委党校,细颗粒物(PM2.5),79,,48,58,51,19,,30,20,22,19,9,9,1.0,0.9
2026-01-04T1400,2460A,112.6007,26.8977,衡阳市,市监测站,细颗粒物(PM2.5),92,86,75,68,58,22,,28,21,19,17,6,7,1.0,0.8
2026-01-04T1400,2461A,112.5658,26.9013,衡阳市,真空机电公司,细颗粒物(PM2.5),83,70,69,61,57,20,,25,18,22,20,9,7,1.0,0.9
2026-01-04T1400,3399A,112.6703,26.8817,衡阳市,师范学院,细颗粒物(PM2.5),69,59,61,50,48,18,,26,19,25,21,3,4,0.9,0.8
2026-01-04T1400,3038A,103.3757,23.3679,红河哈尼族彝族自治州,州图书馆,,19,7,8,3,4,60,,44,43,5,7,6,6,0.5,0.6
2026-01-04T1400,4154A,103.401,23.3561,红河哈尼族彝族自治州,蒙自市朝阳路,,20,12,12,7,8,62,,47,47,3,5,9,8,0.4,0.5
2026-01-04T1400,1090A,111.6506,40.7517,呼和浩特市,呼市一监,细颗粒物(PM2.5),127,132,105,96,78,32,,15,15,37,49,9,7,1.0,1.3
2026-01-04T1400,1094A,111.7516,40.8369,呼和浩特市,如意水处理厂,细颗粒物(PM2.5),77,93,99,56,62,38,,22,22,41,55,11,15,0.9,1.2
2026-01-04T1400,1095A,111.727798,40.806187,呼和浩特市,二十九中,细颗粒物(PM2.5),100,103,100,75,63,27,,14,14,46,55,13,16,1.1,1.2
2026-01-04T1400,1097A,111.717,40.7617,呼和浩特市,化肥厂生活区,细颗粒物(PM2.5),95,117,106,71,67,30,,10,10,43,56,9,12,1.0,1.3
2026-01-04T1400,3699A,111.6519,40.8389,呼和浩特市,海东办,细颗粒物(PM2.5),119,134,112,90,66,30,,17,17,41,57,8,10,0.9,1.2
2026-01-04T1400,4275A,111.591512,40.827312,呼和浩特市,成吉思汗西街8号,细颗粒物(PM2.5),97,119,97,72,46,31,,47,33,45,41,11,9,1.1,0.9
2026-01-04T1400,4276A,111.6597,40.8077,呼和浩特市,公园东路75号,细颗粒物(PM2.5),112,132,115,84,68,29,,16,16,47,60,8,12,1.0,1.1
2026-01-04T1400,4277A,111.5427,40.7846,呼和浩特市,金海路35号,细颗粒物(PM2.5),105,123,124,79,80,30,,13,13,42,53,16,14,0.8,1.1
2026-01-04T1400,3061A,119.7511,49.1576,呼伦贝尔市,国华电力东,,22,12,25,7,21,70,,59,59,16,24,8,6,0.3,0.4
2026-01-04T1400,4279A,119.7569,49.2222,呼伦贝尔市,伊敏大街东7号,,22,21,29,13,21,68,,53,53,10,23,10,8,0.4,0.5
2026-01-04T1400,1250A,120.075,30.867,湖州市,城西水厂,细颗粒物(PM2.5),149,143,112,114,84,18,,13,13,67,59,11,10,0.7,0.7
2026-01-04T1400,2873A,120.083,30.8929,湖州市,仁皇山新区,细颗粒物(PM2.5),144,142,109,110,88,20,,18,16,91,73,16,11,0.7,0.6
2026-01-04T1400,2907A,120.1846,30.8592,湖州市,吴兴区站,细颗粒物(PM2.5),142,129,111,108,92,14,,15,14,75,63,8,8,0.8,0.7
2026-01-04T1400,3562A,120.4146,30.8538,湖州市,南浔区站,细颗粒物(PM2.5),142,138,109,108,85,16,,10,10,78,68,8,7,0.9,0.8
2026-01-04T1400,1607A,120.904878,40.721091,葫芦岛市,龙港区,,39,39,86,11,64,67,,34,34,10,39,15,25,0.6,1.6
2026-01-04T1400,1608A,120.8382,40.7521,葫芦岛市,化工街,,34,34,93,19,58,66,,35,35,12,43,20,52,0.4,1.1
2026-01-04T1400,1609A,120.8339,40.7078,葫芦岛市,新区,,36,36,64,17,48,68,,32,32,14,50,16,17,0.6,1.2
2026-01-04T1400,1610A,120.8697,40.7679,葫芦岛市,东城区,颗粒物(PM10),51,51,85,14,64,68,,35,35,12,46,15,46,0.6,1.4
2026-01-04T1400,2483A,109.9297,27.5383,怀化市,河西地税局,,18,18,25,11,25,35,,31,26,10,12,3,3,/,/
2026-01-04T1400,2484A,109.9783,27.5342,怀化市,市四医院,,32,27,29,22,26,17,,23,14,13,13,9,9,0.7,0.7
2026-01-04T1400,2485A,109.9971,27.5579,怀化市,监测楼,,36,27,22,25,22,28,,33,24,19,15,3,2,0.3,0.3
2026-01-04T1400,1210A,119.0566,33.5991,淮安市,钵池山,细颗粒物(PM2.5),75,70,60,55,45,49,,27,22,41,46,10,9,0.5,0.6
2026-01-04T1400,1211A,119.0083,33.578,淮安市,北京南路,细颗粒物(PM2.5),82,83,67,60,47,39,,17,17,42,53,11,9,1.0,1
2026-01-04T1400,1212A,118.9938,33.6083,淮安市,市监测站,细颗粒物(PM2.5),70,61,60,51,47,45,,20,19,42,45,12,10,0.9,0.9
2026-01-04T1400,1213A,119.135,33.5038,淮安市,楚州区监测站,细颗粒物(PM2.5),104,88,66,78,49,33,,16,16,48,59,14,11,0.8,0.7
2026-01-04T1400,3426A,118.8757,33.2897,淮安市,新华书店,细颗粒物(PM2.5),122,101,70,92,56,33,,19,17,49,45,13,11,1.2,0.9
2026-01-04T1400,4092A,119.119691,33.550006,淮安市,枚皋中路89号,细颗粒物(PM2.5),110,107,70,83,53,44,,24,24,48,55,14,9,0.8,0.8
2026-01-04T1400,4206A,119.028838,33.631911,淮安市,承德北路606号,细颗粒物(PM2.5),72,70,77,52,44,47,,23,18,44,52,10,10,0.9,0.9
2026-01-04T1400,2282A,116.8005,33.9749,淮北市,监测站,细颗粒物(PM2.5),108,118,92,81,67,49,,42,42,48,40,12,10,0.8,0.6
2026-01-04T1400,2283A,116.8094,33.9008,淮北市,烈山区政府,细颗粒物(PM2.5),102,94,97,76,78,40,,32,32,32,38,15,11,0.7,0.5
2026-01-04T1400,4017A,116.7926,33.9534,淮北市,市博物馆,细颗粒物(PM2.5),109,124,96,82,67,48,,36,36,46,38,14,11,0.5,0.3
2026-01-04T1400,4100A,116.8322,33.9884,淮北市,杜集区第一实验学校,细颗粒物(PM2.5),105,111,94,79,71,51,,35,35,31,26,11,9,0.7,0.6
2026-01-04T1400,2277A,116.8304,32.7726,淮南市,潘集区政府,细颗粒物(PM2.5),79,66,81,58,67,51,,38,38,28,36,6,7,0.7,0.7
2026-01-04T1400,2279A,116.8569,32.5949,淮南市,谢家集区政府,细颗粒物(PM2.5),68,55,75,49,46,56,,42,42,30,37,8,9,0.4,0.5
2026-01-04T1400,2280A,116.8279,32.6333,淮南市,八公山区政府,细颗粒物(PM2.5),55,44,70,39,55,61,,52,52,22,24,4,5,0.5,0.5
2026-01-04T1400,2894A,117.0561,32.6536,淮南市,经济技术开发区消防队,细颗粒物(PM2.5),73,63,78,53,56,58,,40,40,28,38,5,5,0.6,0.6
2026-01-04T1400,3329A,117.011,32.5891,淮南市,山南新区,,50,50,72,34,49,67,,45,43,21,25,2,3,0.6,0.6
2026-01-04T1400,4209A,117.003137,32.644456,淮南市,国庆中路369号,细颗粒物(PM2.5),67,62,69,48,55,48,,40,40,31,31,5,6,0.7,0.7
2026-01-04T1400,2446A,114.9021,30.474,黄冈市,职工中心,细颗粒物(PM2.5),73,68,54,53,39,49,,56,49,20,20,6,8,1.1,0.8
2026-01-04T1400,2929A,114.8858,30.4519,黄冈市,红卫路,细颗粒物(PM2.5),60,54,52,43,41,54,,57,47,18,24,6,8,0.7,0.6
2026-01-04T1400,3398A,114.9134,30.4446,黄冈市,市林业局,细颗粒物(PM2.5),70,,52,51,42,53,,59,48,17,23,4,6,0.9,0.8
2026-01-04T1400,2672A,102.02,35.5101,黄南藏族自治州,同仁县隆务镇,细颗粒物(PM2.5),57,,52,40,46,69,,53,53,8,6,11,10,0.4,0.6
2026-01-04T1400,2295A,118.2905,29.6965,黄山市,延安路89号,细颗粒物(PM2.5),67,58,37,48,32,38,,19,19,24,18,4,4,0.6,0.5
2026-01-04T1400,2297A,118.1369,30.2755,黄山市,黄山区政府5号楼,,46,,36,32,31,34,,23,23,12,15,6,6,0.5,0.6
2026-01-04T1400,4210A,118.335445,29.720283,黄山市,滨江东路7-2号,细颗粒物(PM2.5),110,87,59,83,48,28,,19,19,34,22,/,/,/,/
2026-01-04T1400,2423A,115.0547,30.2332,黄石市,沈家营,,48,40,56,33,35,38,,48,43,18,16,6,7,1.3,1.1
2026-01-04T1400,2426A,114.899,30.211,黄石市,铁山,细颗粒物(PM2.5),74,55,52,54,54,34,,45,39,15,19,5,6,0.5,0.6
2026-01-04T1400,2427A,115.0259,30.2108,黄石市,团城山,细颗粒物(PM2.5),68,,58,49,43,36,,50,45,25,19,6,6,1.2,0.8
2026-01-04T1400,3149A,115.0174,30.1591,黄石市,笔架山北路,细颗粒物(PM2.5),60,65,68,43,42,34,,44,37,27,17,7,6,1.2,1
2026-01-04T1400,4185A,115.078022,30.21118,黄石市,磁湖东路29号,细颗粒物(PM2.5),67,51,53,48,44,26,,44,34,24,19,6,8,1.2,0.8
2026-01-04T1400,1392A,114.4181,23.0528,惠州市,河南岸金山湖子站,颗粒物(PM10),51,51,50,33,32,100,,45,45,24,28,5,5,0.6,0.7
2026-01-04T1400,1393A,114.4055,23.0824,惠州市,下埔横江三路子站,颗粒物(PM10),52,53,52,29,31,108,,52,52,18,26,7,9,0.6,0.7
2026-01-04T1400,1395A,114.4645,22.7832,惠州市,惠阳区承修路船湖子站,,48,48,54,27,30,112,,64,64,16,26,7,7,0.5,0.6
2026-01-04T1400,1396A,114.5316,22.7423,惠州市,大亚湾管委会子站,,42,42,50,23,27,112,,59,59,13,24,7,6,0.3,0.3
2026-01-04T1400,3314A,114.4334,22.8134,惠州市,惠阳秋长,颗粒物(PM10),52,53,53,28,31,120,,75,75,19,33,/,/,/,/
2026-01-04T1400,3452A,114.6521,22.7755,惠州市,大亚湾霞涌,颗粒物(PM10),52,54,45,29,27,115,,85,85,16,18,/,/,/,/
2026-01-04T1400,4300A,114.4089,23.1147,惠州市,文华一路1号,,50,50,54,30,33,111,,50,50,21,33,/,/,/,/
2026-01-04T1400,2240A,130.9618,45.2926,鸡西市,环保局,,34,34,34,3,21,67,,57,57,4,8,6,6,0.2,0.4
2026-01-04T1400,2243A,130.9294,45.2959,鸡西市,第一中学,,23,23,31,3,23,69,,61,61,5,8,3,3,0.3,0.4
2026-01-04T1400,3707A,131.0069,45.2988,鸡西市,欧美日汽修厂,颗粒物(PM10),55,60,41,3,25,70,,58,58,5,10,4,5,0.4,0.5
2026-01-04T1400,2367A,114.9753,27.0803,吉安市,红声器材厂,颗粒物(PM10),59,67,51,39,31,39,,40,30,24,23,12,12,0.7,0.6
2026-01-04T1400,2369A,114.9903,27.1313,吉安市,市环境监测站,细颗粒物(PM2.5),59,53,47,42,33,43,,38,32,18,17,16,15,/,/
2026-01-04T1400,2370A,115.009527,27.096792,吉安市,青原区法院,细颗粒物(PM2.5),62,62,46,44,34,35,,42,30,22,18,14,13,0.6,0.5
2026-01-04T1400,1772A,126.54,43.8622,吉林市,哈达湾,细颗粒物(PM2.5),82,76,85,60,64,61,,45,45,29,36,9,11,1.3,1.6
2026-01-04T1400,1773A,126.5843,43.8358,吉林市,东局子,细颗粒物(PM2.5),63,64,83,45,70,53,,32,32,22,38,8,8,1.2,1.8
2026-01-04T1400,1774A,126.5051,43.8243,吉林市,电力学院,细颗粒物(PM2.5),60,52,109,43,91,59,,37,37,23,44,13,15,0.8,1.7
2026-01-04T1400,1775A,126.6133,43.8971,吉林市,江北,细颗粒物(PM2.5),82,78,106,60,83,48,,32,32,30,40,11,9,1.2,1.8
2026-01-04T1400,1776A,126.5549,43.8304,吉林市,江南公园,细颗粒物(PM2.5),72,52,89,52,74,55,,31,31,22,40,12,12,1.0,1.6
2026-01-04T1400,2868A,126.4737,43.953,吉林市,九站,细颗粒物(PM2.5),57,50,100,40,80,60,,32,32,21,47,6,11,0.8,1.5
2026-01-04T1400,1299A,116.9866,36.6118,济南市,科干所,细颗粒物(PM2.5),85,100,93,63,64,61,,62,47,36,32,10,8,1.0,0.9
2026-01-04T1400,1300A,116.9379,36.6652,济南市,农科所,细颗粒物(PM2.5),98,100,107,73,81,54,,36,36,39,44,8,8,0.9,1
2026-01-04T1400,1301A,117.1265,36.6736,济南市,开发区,细颗粒物(PM2.5),123,120,113,93,86,32,,41,29,57,44,7,4,0.9,1
2026-01-04T1400,1303A,117.0616,36.6865,济南市,省种子仓库,细颗粒物(PM2.5),125,141,133,95,89,27,,18,18,63,61,10,8,0.9,1
2026-01-04T1400,1304A,116.9495185,36.644937,济南市,机床二厂,细颗粒物(PM2.5),98,93,119,73,93,62,,34,34,33,50,11,20,0.9,1.1
2026-01-04T1400,1305A,117.0496,36.6629,济南市,市监测站,细颗粒物(PM2.5),110,122,104,83,78,28,,27,19,55,43,9,5,0.9,0.9
2026-01-04T1400,1306A,116.7674,36.5458,济南市,长清党校,细颗粒物(PM2.5),110,100,96,83,77,62,,50,44,19,28,12,7,0.8,0.8
2026-01-04T1400,1961A,117.5323,36.6865,济南市,东山小学,细颗粒物(PM2.5),150,156,112,115,86,51,,43,43,48,40,11,5,1.4,1.1
2026-01-04T1400,3059A,117.7181,36.205,济南市,泰兴公司,细颗粒物(PM2.5),119,112,154,90,128,74,,29,29,30,56,14,8,1.4,1.3
2026-01-04T1400,3064A,117.6861,36.2172,济南市,莱芜战役纪念馆,细颗粒物(PM2.5),127,119,154,96,129,64,,25,25,35,58,18,11,1.9,1.3
2026-01-04T1400,3494A,117.1673,36.9782,济南市,济阳区政府,细颗粒物(PM2.5),204,208,153,154,115,39,,29,29,54,52,28,12,1.4,1
2026-01-04T1400,3495A,117.1168,36.6299,济南市,锦屏中学,细颗粒物(PM2.5),95,107,83,71,62,33,,55,49,65,29,11,4,0.8,0.7
2026-01-04T1400,4108A,117.7107,36.2385,济南市,山财大街5号,细颗粒物(PM2.5),129,163,165,98,112,58,,39,39,44,52,22,9,2.5,1.2
2026-01-04T1400,4109A,116.9744,36.6889,济南市,无影山路12号,细颗粒物(PM2.5),118,112,129,89,95,42,,21,19,46,51,10,13,0.8,1.1
2026-01-04T1400,1653A,116.6229,35.4288,济宁市,火炬城,细颗粒物(PM2.5),138,111,99,105,98,56,,38,38,22,30,8,7,0.7,0.6
2026-01-04T1400,3500A,116.5808,35.3703,济宁市,北湖一中,细颗粒物(PM2.5),145,,93,111,93,54,,29,29,22,33,7,6,0.8,0.7
2026-01-04T1400,3501A,116.8251,35.5592,济宁市,服务中心,细颗粒物(PM2.5),123,121,130,93,90,47,,28,28,38,48,11,12,0.8,0.7
2026-01-04T1400,3678A,116.5907,35.4054,济宁市,市第七中学,细颗粒物(PM2.5),113,122,104,85,86,58,,35,35,23,38,10,9,0.8,0.8
2026-01-04T1400,4111A,116.6075,35.4566,济宁市,任和路,细颗粒物(PM2.5),130,119,117,99,87,57,,34,34,22,35,8,7,0.8,0.7
2026-01-04T1400,4112A,116.5648,35.3921,济宁市,文体南路1号,细颗粒物(PM2.5),124,119,114,94,89,52,,31,31,23,31,5,5,0.7,0.6
2026-01-04T1400,2255A,130.2749,46.8028,佳木斯市,佳纺,,24,24,36,15,31,53,,47,47,15,18,10,9,0.2,0.3
2026-01-04T1400,2257A,130.3258,46.7975,佳木斯市,环保局,,20,16,37,13,28,64,,52,52,9,17,6,10,0.6,0.6
2026-01-04T1400,4285A,130.363,46.806,佳木斯市,顺和街,,20,20,33,11,25,53,,46,46,12,20,7,10,0.5,0.6
2026-01-04T1400,4286A,130.3952,46.8268,佳木斯市,长安路196号,,20,15,30,12,27,61,,59,59,8,10,5,5,0.3,0.4
2026-01-04T1400,1252A,120.7439,30.778,嘉兴市,清河小学,细颗粒物(PM2.5),104,116,100,78,74,26,,21,21,65,66,8,8,0.7,0.7
2026-01-04T1400,1253A,120.7261,30.7477,嘉兴市,嘉兴学院,细颗粒物(PM2.5),114,119,101,86,71,31,,23,23,54,50,9,8,0.9,1
2026-01-04T1400,2872A,120.7845,30.7524,嘉兴市,南湖区残联,细颗粒物(PM2.5),100,94,97,75,73,36,,24,24,52,57,7,6,0.7,0.8
2026-01-04T1400,3407A,120.6915,30.7741,嘉兴市,秀洲住建,细颗粒物(PM2.5),135,139,102,103,79,27,,16,16,64,66,10,8,0.8,0.7
2026-01-04T1400,1945A,98.291,39.7705,嘉峪关市,气象局,,27,27,51,17,28,82,,70,70,8,23,15,22,0.4,0.6
2026-01-04T1400,2884A,98.2672,39.7978,嘉峪关市,酒钢宾馆,,48,48,61,22,34,78,,63,63,9,17,27,28,0.7,0.7
2026-01-04T1400,3248A,98.2644,39.7723,嘉峪关市,雄关区,,32,32,45,16,29,81,,66,66,12,28,12,25,0.3,0.5
2026-01-04T1400,1383A,113.1063,22.6058,江门市,北街,颗粒物(PM10),60,69,74,37,47,125,,50,50,30,60,/,/,/,/
2026-01-04T1400,1384A,113.073,22.5835,江门市,西区,颗粒物(PM10),61,72,89,43,48,123,,48,48,34,63,/,/,/,/
2026-01-04T1400,1385A,113.0218,22.531,江门市,圭峰西,细颗粒物(PM2.5),62,66,62,44,43,127,,60,60,37,40,/,/,/,/
2026-01-04T1400,1386A,113.0826,22.5947,江门市,东湖,颗粒物(PM10),60,69,77,42,45,127,,50,50,36,61,9,8,0.5,0.7
2026-01-04T1400,3311A,113.1077,22.5647,江门市,江海富民,颗粒物(PM10),73,96,92,43,41,128,,56,56,42,62,/,/,0.4,0.6
2026-01-04T1400,3449A,113.0496,22.4669,江门市,新会银湖,细颗粒物(PM2.5),65,68,70,47,56,131,,54,54,34,45,10,8,0.6,0.7
2026-01-04T1400,3335A,113.3137,35.2643,焦作市,马村街道办,细颗粒物(PM2.5),134,,127,102,122,46,,32,32,21,33,6,7,1.0,1.2
2026-01-04T1400,3336A,113.2464,35.2374,焦作市,焦作技师学院,细颗粒物(PM2.5),110,112,141,83,116,48,,31,31,23,39,10,10,1.0,1.2
2026-01-04T1400,3477A,113.1656,35.2536,焦作市,中站许衡医院,细颗粒物(PM2.5),125,117,125,95,113,35,,28,28,29,41,5,10,1.1,1.3
2026-01-04T1400,3981A,113.2456,35.18,焦作市,原李万街道办,细颗粒物(PM2.5),122,92,112,92,105,48,,38,38,20,27,6,5,1.0,1.1
2026-01-04T1400,4264A,113.234,35.219,焦作市,新安路1731号,细颗粒物(PM2.5),113,89,131,85,117,53,,33,33,12,26,6,6,0.9,1.1
2026-01-04T1400,4295A,113.2722,35.2121,焦作市,人民路3066号,细颗粒物(PM2.5),115,114,132,87,94,42,,32,32,17,28,6,6,0.9,1
2026-01-04T1400,1708A,116.3701,23.5345,揭阳市,新兴,颗粒物(PM10),51,52,57,22,44,106,,61,61,18,30,9,11,0.5,0.6
2026-01-04T1400,1709A,116.3261,23.5442,揭阳市,西马,,47,47,61,18,39,101,,59,59,14,24,5,7,0.6,0.7
2026-01-04T1400,1710A,116.361,23.5627,揭阳市,东兴,颗粒物(PM10),53,56,61,25,34,96,,52,52,11,28,9,11,/,/
2026-01-04T1400,1711A,116.4151,23.5295,揭阳市,渔湖,,47,47,59,17,36,107,,58,58,17,31,5,6,/,/
2026-01-04T1400,3320A,116.4028,23.5699,揭阳市,曲溪,颗粒物(PM10),55,60,65,35,36,117,,61,61,19,28,3,6,0.5,0.5
2026-01-04T1400,1944A,102.1691,38.5166,金昌市,天庆家园,,29,29,51,14,34,77,,50,50,7,19,3,3,0.5,0.8
2026-01-04T1400,4022A,102.1648,38.5369,金昌市,金川区人防中心,,30,30,48,17,33,78,,56,56,6,16,6,6,0.4,0.7
2026-01-04T1400,4239A,102.193042,38.531887,金昌市,长春路96号,,28,28,48,16,32,78,,46,46,5,22,7,6,0.6,1
2026-01-04T1400,1262A,119.6478,29.0773,金华市,十五中,细颗粒物(PM2.5),113,117,107,85,75,24,,20,20,66,61,4,4,0.9,0.8
2026-01-04T1400,1263A,119.6859,29.1032,金华市,监测站,细颗粒物(PM2.5),123,127,112,93,80,15,,13,13,98,81,4,3,0.9,0.8
2026-01-04T1400,3659A,119.656,29.1132,金华市,气象局,细颗粒物(PM2.5),103,120,110,77,74,11,,10,10,72,64,5,4,0.8,0.8
2026-01-04T1400,1767A,121.1114,41.0879,锦州市,南山,,23,16,76,14,73,73,,35,35,10,41,8,15,0.5,1.5
2026-01-04T1400,1768A,121.060361,40.842794,锦州市,开发区,,35,35,90,18,62,70,,38,38,12,48,8,42,0.4,1.2
2026-01-04T1400,1769A,121.1836,41.1118,锦州市,百股街道,,39,39,83,9,71,73,,33,33,10,44,9,20,0.5,1.4
2026-01-04T1400,1770A,121.1176,41.1224,锦州市,天安街道,,25,19,76,8,63,77,,38,38,10,42,10,18,0.6,1.6
2026-01-04T1400,1771A,121.1303,41.1385,锦州市,北湖公园,,23,17,77,8,63,73,,39,39,7,38,8,18,0.5,1.3
2026-01-04T1400,2160A,112.8496,35.5051,晋城市,自来水公司,细颗粒物(PM2.5),135,113,87,103,74,52,,40,39,18,25,6,7,1.6,1.3
2026-01-04T1400,2162A,112.8509,35.4886,晋城市,市环保局,细颗粒物(PM2.5),119,124,99,90,70,57,,44,44,18,25,5,6,1.6,1.3
2026-01-04T1400,3620A,112.8258,35.4804,晋城市,泽州一中,细颗粒物(PM2.5),125,99,82,95,70,63,,50,50,16,22,4,5,1.1,0.8
2026-01-04T1400,4078A,112.8246,35.5152,晋城市,前书院路,细颗粒物(PM2.5),108,120,94,81,54,50,,39,39,18,27,5,5,1.5,1
2026-01-04T1400,4079A,112.8864,35.4773,晋城市,祥云街666号,细颗粒物(PM2.5),138,108,91,105,80,58,,47,46,18,25,5,7,1.4,1
2026-01-04T1400,2174A,112.6992,37.6984,晋中市,榆次区政府,细颗粒物(PM2.5),190,168,197,143,146,34,,15,15,43,66,21,26,1.6,1.8
2026-01-04T1400,2865A,112.7195,37.683,晋中市,榆次三中,细颗粒物(PM2.5),153,161,190,117,128,35,,14,14,40,63,20,28,1.7,1.9
2026-01-04T1400,4080A,112.7375,37.7215,晋中市,广安街188号,细颗粒物(PM2.5),183,188,219,138,144,34,,17,17,46,71,15,20,1.8,1.7
2026-01-04T1400,4200A,112.7478,37.6954,晋中市,迎宾街26号,细颗粒物(PM2.5),156,158,180,119,126,36,,16,16,43,65,22,27,1.7,1.8
2026-01-04T1400,2439A,112.2012,31.048,荆门市,竹园小学,细颗粒物(PM2.5),104,90,111,78,93,38,,18,18,20,30,4,4,0.6,0.5
2026-01-04T1400,2440A,112.1968,30.9892,荆门市,掇刀,细颗粒物(PM2.5),104,86,98,78,84,36,,24,23,18,23,2,3,0.7,0.6
2026-01-04T1400,3012A,112.1849,31.0361,荆门市,西山林语,细颗粒物(PM2.5),95,85,94,71,81,34,,21,21,23,26,4,5,1.0,0.8
2026-01-04T1400,3547A,112.1631,31.0134,荆门市,龙泉中学南校,细颗粒物(PM2.5),108,94,104,81,87,37,,38,29,12,13,6,7,0.4,0.4
2026-01-04T1400,4124A,112.2213,31.0654,荆门市,新台西路6号,细颗粒物(PM2.5),124,94,102,94,92,45,,21,21,19,26,7,8,0.8,0.7
2026-01-04T1400,1844A,112.2493,30.3198,荆州市,市图书馆,细颗粒物(PM2.5),103,,64,77,77,44,,38,37,17,22,5,8,0.8,0.8
2026-01-04T1400,1845A,112.2009,30.3543,荆州市,市委党校,细颗粒物(PM2.5),108,,71,81,74,35,,31,31,18,23,3,5,0.9,0.9
2026-01-04T1400,3194A,112.2749,30.3124,荆州市,管委会,细颗粒物(PM2.5),98,,66,73,77,40,,34,34,22,32,5,7,0.8,0.8
2026-01-04T1400,4268A,112.1722,30.3366,荆州市,学苑路85号,细颗粒物(PM2.5),93,,64,69,65,42,,36,36,18,20,6,12,0.7,0.7
2026-01-04T1400,2343A,117.2114,29.2931,景德镇市,老干部活动中心,,49,42,38,34,31,16,,17,16,31,22,11,9,0.5,0.4
2026-01-04T1400,2344A,117.1893,29.2789,景德镇市,兽医站,,36,36,38,23,27,24,,20,20,31,23,12,10,1.0,0.8
2026-01-04T1400,2346A,117.246,29.2958,景德镇市,陶研所,,43,,36,30,29,28,,16,16,20,19,4,4,0.3,0.6
2026-01-04T1400,4289A,117.154766,29.256967,景德镇市,青少年活动中心,,49,,42,34,31,36,,18,18,31,30,16,12,/,/
2026-01-04T1400,1803A,115.9873,29.6816,九江市,十里,细颗粒物(PM2.5),59,57,55,42,48,49,,38,38,31,36,5,6,0.8,0.8
2026-01-04T1400,1804A,115.9583,29.7047,九江市,茅山头,细颗粒物(PM2.5),64,74,55,46,46,50,,42,40,16,26,5,5,0.8,0.8
2026-01-04T1400,1805A,115.9877,29.7295,九江市,西园,颗粒物(PM10),53,55,54,33,37,60,,50,47,27,36,3,3,0.7,0.8
2026-01-04T1400,1808A,115.9112,29.6038,九江市,综合工业园,细颗粒物(PM2.5),85,66,55,63,54,36,,27,27,41,45,3,3,0.8,0.8
2026-01-04T1400,3190A,116.0254,29.6995,九江市,外国语学校,细颗粒物(PM2.5),63,58,53,45,44,42,,34,32,27,32,8,8,0.7,0.8
2026-01-04T1400,4253A,116.010205,29.659402,九江市,莲花大道8号,细颗粒物(PM2.5),80,59,55,59,51,37,,40,31,27,20,3,4,0.5,0.5
2026-01-04T1400,4240A,98.495752,39.733935,酒泉市,玉门东路5号,颗粒物(PM10),54,58,50,29,24,67,,51,45,10,16,34,16,0.8,0.5
2026-01-04T1400,4241A,98.5099,39.7506,酒泉市,北大街108号,,48,48,50,27,25,69,,44,41,10,23,27,16,0.6,0.6
2026-01-04T1400,2698A,76.0071,39.466,喀什地区,巡警大队,细颗粒物(PM2.5),60,58,54,43,38,51,,47,42,12,14,3,3,0.6,0.7
2026-01-04T1400,2699A,75.9756,39.4693,喀什地区,吾办,细颗粒物(PM2.5),69,56,56,50,45,50,,44,40,9,12,6,6,0.6,0.8
2026-01-04T1400,4027A,75.9485,39.4688,喀什地区,老干局,细颗粒物(PM2.5),60,64,60,43,40,51,,46,40,10,12,2,2,0.8,0.9
2026-01-04T1400,1824A,114.3389,34.778,开封市,肿瘤医院,细颗粒物(PM2.5),85,70,100,63,90,55,,27,27,17,25,4,4,1.1,1.3
2026-01-04T1400,1826A,114.2884,34.7966,开封市,世纪星幼儿园,细颗粒物(PM2.5),118,,95,89,106,38,,23,23,27,26,2,2,0.7,0.7
2026-01-04T1400,3147A,114.3434,34.8101,开封市,龙亭公园,细颗粒物(PM2.5),83,69,98,61,105,57,,31,31,17,23,4,3,1.3,1.4
2026-01-04T1400,3210A,114.3645,34.7955,开封市,汴京公园,细颗粒物(PM2.5),77,,112,56,95,62,,30,30,19,28,4,4,0.7,0.8
2026-01-04T1400,3473A,114.2485,34.8306,开封市,技师学院,细颗粒物(PM2.5),108,,94,81,100,36,,26,26,25,24,5,6,1.0,1
2026-01-04T1400,3592A,114.4518,34.7503,开封市,祥符区生态环境局,细颗粒物(PM2.5),57,47,113,40,88,73,,41,41,13,27,4,3,0.5,0.8
2026-01-04T1400,1951A,84.886,45.6029,克拉玛依市,长征新村,细颗粒物(PM2.5),93,85,85,69,62,40,,28,28,22,30,5,5,1.0,1
2026-01-04T1400,1952A,84.8894,45.5827,克拉玛依市,南林小区,颗粒物(PM10),68,86,84,48,49,43,,26,26,16,24,3,3,1.0,1
2026-01-04T1400,1954A,84.896,44.3328,克拉玛依市,独山子区,颗粒物(PM10),108,166,83,77,43,43,,57,43,49,41,5,5,0.9,0.8
2026-01-04T1400,1955A,85.6888,46.0909,克拉玛依市,乌尔禾区商贸楼,细颗粒物(PM2.5),84,69,79,62,61,35,,28,19,28,28,4,5,1.0,1.1
2026-01-04T1400,3612A,85.1045,45.6895,克拉玛依市,白碱滩区新站,颗粒物(PM10),96,141,119,69,62,16,,10,10,20,17,8,7,0.8,0.7
2026-01-04T1400,2697A,76.1457,39.7143,克孜勒苏柯尔克孜自治州,市人民政府,颗粒物(PM10),55,60,62,36,41,43,,48,40,12,12,5,5,0.4,0.4
2026-01-04T1400,3665A,76.1654,39.7157,克孜勒苏柯尔克孜自治州,克州文化中心,"颗粒物(PM10),细颗粒物(PM2.5)",53,56,51,37,40,47,,47,43,8,9,3,3,0.6,0.6
2026-01-04T1400,1450A,102.8203,24.889,昆明市,呈贡新区,,27,22,22,10,12,85,,63,63,5,15,2,4,0.2,0.3
2026-01-04T1400,1452A,102.7253,25.0904,昆明市,龙泉镇,,26,,22,11,13,81,,49,49,7,19,3,3,0.5,0.5
2026-01-04T1400,1453A,102.7267,25.0378,昆明市,东风东路,,26,18,21,13,16,82,,61,61,12,18,4,5,0.4,0.5
2026-01-04T1400,1454A,102.6744,25.0671,昆明市,金鼎山,,25,20,30,11,17,79,,45,45,6,21,3,3,0.4,0.5
2026-01-04T1400,1455A,102.6643,25.0401,昆明市,碧鸡广场,,25,19,25,15,17,78,,46,46,9,23,4,4,0.5,0.6
2026-01-04T1400,3179A,102.7491,25.012,昆明市,官渡区博物馆,,27,13,20,10,15,84,,61,61,7,18,2,3,0.2,0.3
2026-01-04T1400,3375A,102.8016,24.8336,昆明市,青年创业园,,27,15,18,12,12,85,,68,68,2,7,4,4,0.3,0.3
2026-01-04T1400,3550A,102.8,24.9787,昆明市,昆明学院,,27,16,17,10,11,85,,72,72,6,10,2,3,0.4,0.5
2026-01-04T1400,3551A,102.5969,24.6738,昆明市,晋宁区生态环境分局,,24,13,23,9,14,74,,50,50,2,12,2,2,0.4,0.5
2026-01-04T1400,3552A,102.6673,24.9861,昆明市,云天化总部,,27,19,20,11,13,84,,60,60,7,16,5,6,0.4,0.5
2026-01-04T1400,1456A,91.132,29.6515,拉萨市,八廓街,,31,16,19,8,10,97,,78,78,2,5,7,7,0.4,0.5
2026-01-04T1400,1457A,91.1221,29.6748,拉萨市,市环保局,,29,12,15,6,10,90,,72,72,8,12,6,7,0.4,0.5
2026-01-04T1400,1458A,91.0874,29.6476,拉萨市,区监测站,,28,12,12,3,6,89,,73,73,7,13,4,4,0.7,0.8
2026-01-04T1400,1459A,91.1774,29.6541,拉萨市,西藏大学,,29,9,14,3,7,92,,76,76,7,9,4,5,0.2,0.3
2026-01-04T1400,1460A,90.9798,29.6586,拉萨市,区辐射站,,28,16,19,7,10,89,,63,63,8,17,4,4,0.4,0.6
2026-01-04T1400,1461A,91.0831,29.6292,拉萨市,拉萨火车站,,28,18,16,3,7,88,,79,65,11,13,4,4,0.4,0.5
2026-01-04T1400,2520A,109.2203,23.7252,来宾市,来宾技工学校,细颗粒物(PM2.5),80,70,79,59,76,34,,16,16,14,20,10,10,0.7,0.6
2026-01-04T1400,3535A,109.1781,23.7293,来宾市,兴宾区政府,细颗粒物(PM2.5),95,88,78,71,64,44,,22,22,12,20,7,9,0.7,0.7
2026-01-04T1400,4002A,109.2312,23.7428,来宾市,中南小学,细颗粒物(PM2.5),78,60,75,57,73,36,,16,16,14,21,8,8,0.9,0.7
2026-01-04T1400,1479A,103.8309,36.0467,兰州市,铁路设计院,,,,,,,,,,,,,,,,
2026-01-04T1400,3241A,103.7439,36.0841,兰州市,百合公园,细颗粒物(PM2.5),59,50,68,42,52,52,,29,25,31,31,10,8,1.3,1
2026-01-04T1400,3242A,103.9613,35.9985,兰州市,和平,细颗粒物(PM2.5),120,,72,91,74,75,,49,38,16,22,8,4,1.2,1
2026-01-04T1400,4236A,103.629272,36.093822,兰州市,庄浪东路808号,细颗粒物(PM2.5),94,82,75,70,58,59,,46,34,46,33,20,12,1.4,0.8
2026-01-04T1400,4237A,103.7251,36.104344,兰州市,安宁西路88号,细颗粒物(PM2.5),59,60,78,42,52,56,,54,34,38,30,11,6,1.2,0.7
2026-01-04T1400,4238A,103.846982,36.067567,兰州市,北滨河东路1号,细颗粒物(PM2.5),53,44,74,37,54,75,,32,32,23,37,13,8,1.1,1
2026-01-04T1400,1067A,116.6712,39.5109,廊坊市,药材公司,细颗粒物(PM2.5),130,126,128,99,96,26,,9,9,65,71,14,6,1.5,1.3
2026-01-04T1400,1068A,116.7215,39.5592,廊坊市,开发区,细颗粒物(PM2.5),125,134,110,95,75,30,,9,9,64,74,13,6,1.4,1.3
2026-01-04T1400,1070A,116.7246,39.5273,廊坊市,北华航天学院,细颗粒物(PM2.5),138,160,134,105,94,23,,7,7,66,73,15,7,1.5,1.4
2026-01-04T1400,2919A,116.7022,39.5454,廊坊市,河北工业大学,细颗粒物(PM2.5),134,169,133,102,87,27,,8,8,62,75,16,8,1.5,1.3
2026-01-04T1400,2536A,103.7629,29.5844,乐山市,牛耳桥,,42,,25,29,23,16,,16,10,26,24,7,7,0.8,0.6
2026-01-04T1400,2537A,103.7501,29.6002,乐山市,市第三水厂,,39,31,26,27,22,13,,13,8,28,27,6,6,0.7,0.6
2026-01-04T1400,2538A,103.7571,29.5664,乐山市,市监测站,,48,37,24,33,22,16,,13,9,23,22,6,6,0.8,0.7
2026-01-04T1400,3361A,103.7313,29.563,乐山市,理工大学,,43,43,24,30,19,15,,10,9,24,22,5,4,0.8,0.6
2026-01-04T1400,2599A,100.2497,26.8802,丽江市,丽江古城,,29,19,20,8,7,90,,77,77,7,11,7,7,0.5,0.5
2026-01-04T1400,2600A,100.2203,26.8906,丽江市,市中心,,30,16,11,12,9,93,,81,81,8,11,6,6,0.3,0.3
2026-01-04T1400,1267A,119.9141,28.4513,丽水市,监测站大楼,颗粒物(PM10),51,51,52,31,36,57,,30,30,34,36,7,6,0.6,0.7
2026-01-04T1400,1268A,119.93,28.4589,丽水市,莲都小学,颗粒物(PM10),51,52,65,30,45,56,,33,33,38,43,/,/,/,/
2026-01-04T1400,1269A,119.8794,28.4232,丽水市,余庄前,细颗粒物(PM2.5),62,67,56,44,42,41,,27,27,54,31,6,4,0.4,0.4
2026-01-04T1400,1173A,119.1759,34.5885,连云港市,市环境监测站,细颗粒物(PM2.5),85,78,89,63,74,51,,26,26,35,44,14,12,0.8,1
2026-01-04T1400,3000A,119.3577,34.6971,连云港市,德源药业,细颗粒物(PM2.5),92,102,110,68,73,40,,17,17,56,56,6,4,0.6,0.6
2026-01-04T1400,3007A,119.178,34.8442,连云港市,新城一中,细颗粒物(PM2.5),148,131,116,113,100,54,,22,22,36,48,17,15,1.0,0.9
2026-01-04T1400,3008A,119.3607,34.7519,连云港市,胡沟管理处,细颗粒物(PM2.5),92,80,72,68,59,61,,48,48,34,35,14,10,1.2,1
2026-01-04T1400,3009A,119.1478,34.5913,连云港市,矿山设计院,细颗粒物(PM2.5),83,80,92,61,66,51,,39,30,35,39,9,9,0.9,1
2026-01-04T1400,3434A,119.2414,34.6539,连云港市,工贸学校,细颗粒物(PM2.5),110,105,78,83,65,54,,54,49,33,20,16,13,0.7,0.6
2026-01-04T1400,3664A,119.4171,34.734,连云港市,连云街道,细颗粒物(PM2.5),97,103,71,72,56,23,,63,48,73,25,14,8,0.9,0.7
2026-01-04T1400,2573A,102.2629,27.8981,凉山彝族自治州,西昌市政府,,30,30,26,21,12,74,,49,43,11,13,11,10,0.8,0.7
2026-01-04T1400,2574A,102.2686,27.885,凉山彝族自治州,凉山州政府,,36,36,25,15,15,73,,50,43,11,13,13,11,0.8,0.7
2026-01-04T1400,4229A,102.2342,27.8859,凉山彝族自治州,凯乐南路30号,,38,38,28,20,13,72,,50,44,17,15,10,9,0.7,0.7
2026-01-04T1400,2212A,123.1978,41.2036,辽阳市,宏伟区,细颗粒物(PM2.5),109,95,111,82,95,49,,24,24,25,36,12,19,1.1,1.7
2026-01-04T1400,2213A,123.1684,41.2497,辽阳市,新华园,细颗粒物(PM2.5),119,102,109,90,88,45,,24,24,41,52,14,37,1.4,1.7
2026-01-04T1400,2214A,123.2355,41.2663,辽阳市,滨河路,细颗粒物(PM2.5),94,97,109,70,76,48,,28,28,31,46,10,14,1.0,1.3
2026-01-04T1400,4083A,123.153,41.2874,辽阳市,铁西路150号,细颗粒物(PM2.5),125,131,129,95,91,44,,23,23,42,54,14,33,1.6,2
2026-01-04T1400,2227A,125.1359,42.8845,辽源市,环保局,"颗粒物(PM10),细颗粒物(PM2.5)",70,89,142,51,76,57,,28,28,30,43,12,7,1.2,2
2026-01-04T1400,4085A,125.0998,42.9134,辽源市,安宁大街333号,细颗粒物(PM2.5),73,81,101,53,81,63,,34,34,25,41,14,8,0.6,1.3
2026-01-04T1400,1625A,115.9789,36.4372,聊城市,区政府,细颗粒物(PM2.5),133,134,116,101,90,40,,35,32,40,43,13,12,1.1,1
2026-01-04T1400,3200A,115.9772,36.4986,聊城市,监控中心,细颗粒物(PM2.5),144,130,115,110,100,52,,42,36,33,37,12,11,0.8,0.8
2026-01-04T1400,3513A,116.0443,36.436,聊城市,九州社区,细颗粒物(PM2.5),127,135,124,96,93,53,,36,36,29,34,7,3,0.9,0.7
2026-01-04T1400,4018A,116.0564,36.4609,聊城市,星美广场,细颗粒物(PM2.5),138,144,132,105,98,49,,32,30,27,31,4,4,0.9,0.8
2026-01-04T1400,4113A,116.0091,36.4495,聊城市,利民路,细颗粒物(PM2.5),147,137,123,112,99,42,,34,34,36,39,13,11,0.9,0.7
2026-01-04T1400,2632A,94.3683,29.6373,林芝市,林芝监测站,,27,6,8,3,6,85,,73,67,1,3,4,4,0.3,0.3
2026-01-04T1400,2633A,94.3616,29.6634,林芝市,林芝人民医院,,25,6,11,3,6,77,,67,59,4,4,5,6,0.4,0.3
2026-01-04T1400,2603A,100.0779,23.8981,临沧市,市环保局,,39,,22,27,35,87,,40,40,2,5,5,5,0.3,0.4
2026-01-04T1400,2604A,100.0894,23.882,临沧市,市气象局,,26,22,26,15,19,83,,39,39,2,8,4,5,0.3,0.5
2026-01-04T1400,1733A,111.5552,36.0791,临汾市,临钢医院,细颗粒物(PM2.5),263,246,274,213,209,34,,20,20,30,41,5,6,2.7,3.4
2026-01-04T1400,1734A,111.4984,36.0734,临汾市,技工学校,细颗粒物(PM2.5),263,259,254,213,197,28,,16,16,32,44,5,6,3.0,3.5
2026-01-04T1400,1736A,111.5017,36.0857,临汾市,市委,细颗粒物(PM2.5),276,282,281,226,206,31,,17,17,37,50,7,8,2.9,3.3
2026-01-04T1400,3018A,111.5048,36.1015,临汾市,唐尧大酒店,细颗粒物(PM2.5),266,248,244,216,196,31,,17,17,34,47,2,4,3.0,3.4
2026-01-04T1400,4244A,111.4879,36.053,临汾市,启星学校,细颗粒物(PM2.5),238,230,231,188,178,32,,17,17,36,53,6,5,2.9,3.5
2026-01-04T1400,4271A,103.2464,35.6123,临夏回族自治州,滨河东路1号,细颗粒物(PM2.5),92,104,106,68,77,75,,36,36,13,25,6,5,0.7,1.1
2026-01-04T1400,4310A,103.207136,35.599807,临夏回族自治州,新华街21号,细颗粒物(PM2.5),79,86,85,58,68,58,,34,34,16,22,9,8,0.8,1
2026-01-04T1400,1618A,118.3429,35.0532,临沂市,沂河小区,细颗粒物(PM2.5),189,158,151,142,133,30,,18,18,92,68,23,22,1.3,1.2
2026-01-04T1400,1619A,118.2962,35.0568,临沂市,鲁南制药厂,细颗粒物(PM2.5),169,178,167,128,134,14,,10,10,104,76,28,31,1.0,1.3
2026-01-04T1400,1620A,118.2793,34.9976,临沂市,新光毛纺厂,细颗粒物(PM2.5),179,173,154,135,127,28,,17,17,94,64,25,32,1.2,1.2
2026-01-04T1400,1621A,118.3955,35.0889,临沂市,河东保险公司,细颗粒物(PM2.5),158,151,158,120,119,37,,17,17,70,60,17,15,0.9,1.3
2026-01-04T1400,3370A,118.3563,35.0215,临沂市,十里堡居委,细颗粒物(PM2.5),185,183,160,139,120,30,,21,21,102,74,30,30,1.7,1.4
2026-01-04T1400,3496A,118.359,35.1067,临沂市,南坊新区,细颗粒物(PM2.5),149,149,134,114,109,42,,16,16,72,59,16,15,,1.1
2026-01-04T1400,3860A,118.3915,35.0297,临沂市,皇山花园小区,细颗粒物(PM2.5),150,163,150,115,109,61,,31,31,68,71,22,27,1.2,1.2
2026-01-04T1400,1870A,109.4854,24.3898,柳州市,柳东小学,细颗粒物(PM2.5),124,96,60,94,56,20,,19,19,15,16,8,9,0.9,0.8
2026-01-04T1400,1871A,109.4109,24.3304,柳州市,环保监测站,细颗粒物(PM2.5),90,74,66,67,52,16,,16,16,21,22,5,7,0.8,0.7
2026-01-04T1400,1872A,109.3886,24.3408,柳州市,河西水厂,细颗粒物(PM2.5),99,75,76,74,60,11,,17,15,25,24,10,11,1.2,0.7
2026-01-04T1400,1873A,109.4263,24.2951,柳州市,市四中,颗粒物(PM10),69,88,55,47,41,18,,19,18,23,22,8,10,0.9,0.8
2026-01-04T1400,1874A,109.396,24.3658,柳州市,市九中,细颗粒物(PM2.5),87,,65,64,57,11,,15,14,22,24,8,11,0.8,0.8
2026-01-04T1400,1875A,109.4912,24.3164,柳州市,古亭山,细颗粒物(PM2.5),115,117,55,87,48,25,,21,21,19,16,9,10,1.0,0.8
2026-01-04T1400,3402A,109.5422,24.3994,柳州市,市二中,细颗粒物(PM2.5),129,140,57,98,50,18,,18,18,25,18,7,8,0.9,0.6
2026-01-04T1400,2307A,116.5078,31.7369,六安市,监测大楼,细颗粒物(PM2.5),69,,59,50,53,52,,45,38,18,24,2,3,0.5,0.6
2026-01-04T1400,2308A,116.4738,31.7642,六安市,皖西学院,颗粒物(PM10),53,55,68,34,53,58,,49,37,17,24,4,4,0.4,0.6
2026-01-04T1400,2309A,116.4997,31.7904,六安市,朝阳厂,细颗粒物(PM2.5),65,51,61,47,51,51,,45,35,23,29,5,5,0.5,0.6
2026-01-04T1400,2310A,116.5566,31.7885,六安市,开发区,细颗粒物(PM2.5),74,64,71,54,55,38,,42,27,33,30,1,1,0.5,0.5
2026-01-04T1400,2577A,104.8293,26.592,六盘水市,黄土坡,,13,13,14,7,11,32,,29,29,11,14,11,9,0.8,0.8
2026-01-04T1400,2579A,104.8481,26.5898,六盘水市,民中,,13,13,15,9,10,28,,25,25,12,14,4,4,0.7,0.7
2026-01-04T1400,2580A,104.9541,26.5506,六盘水市,双水,,23,22,12,16,8,34,,30,30,9,11,4,3,0.5,0.5
2026-01-04T1400,4151A,104.8899,26.5685,六盘水市,钟山大道中段564号,,25,25,19,13,10,29,,27,27,12,12,5,5,0.9,0.9
2026-01-04T1400,2336A,117.022,25.1031,龙岩市,龙岩市监测站,,42,42,33,18,22,94,,51,51,14,26,10,22,0.4,0.5
2026-01-04T1400,2337A,117.0257,25.0662,龙岩市,闽西职业技术学院,,37,37,38,11,21,97,,50,50,11,22,9,13,0.4,0.5
2026-01-04T1400,2338A,117.0195,25.0306,龙岩市,龙岩学院,,31,31,30,10,21,97,,51,51,9,15,10,9,/,/
2026-01-04T1400,2885A,104.9344,33.3827,陇南市,滨江中学,颗粒物(PM10),54,58,65,32,37,74,,53,53,11,23,5,8,0.8,1.1
2026-01-04T1400,3247A,104.9551,33.3709,陇南市,市总工会,,,72,72,43,36,47,,48,36,,25,3,4,0.6,0.9
2026-01-04T1400,2488A,111.9984,27.7346,娄底市,市监测站,细颗粒物(PM2.5),55,42,56,39,46,24,,30,28,17,16,5,5,0.8,0.7
2026-01-04T1400,2491A,111.9888,27.7035,娄底市,市政府,,43,,48,30,49,22,,30,25,16,13,5,5,0.6,0.6
2026-01-04T1400,4127A,111.9812,27.7591,娄底市,涟钢职大,,45,45,58,21,44,22,,27,23,20,17,5,4,0.7,0.5
2026-01-04T1400,4128A,112.0303,27.7457,娄底市,娄底体校,,40,32,53,28,45,23,,28,24,13,14,2,2,0.7,0.6
2026-01-04T1400,1894A,105.4427,28.9063,泸州市,小市上码头,,39,39,48,22,30,42,,22,22,11,17,7,7,0.8,0.8
2026-01-04T1400,1895A,105.4241,28.8573,泸州市,兰田宪桥,,40,35,41,28,30,36,,21,21,14,18,7,7,0.9,0.9
2026-01-04T1400,1896A,105.4378,28.8833,泸州市,市环监站,,36,34,42,25,29,39,,22,22,18,21,7,8,0.6,0.6
2026-01-04T1400,4272A,105.3689,28.7783,泸州市,纳溪中医医院,,49,46,46,34,35,35,,23,23,10,16,7,7,0.8,0.8
2026-01-04T1400,2183A,111.1447,37.5212,吕梁市,环保局,颗粒物(PM10),70,90,106,46,46,25,,12,12,41,51,18,13,0.9,0.9
2026-01-04T1400,2185A,111.1285,37.5338,吕梁市,自来水公司,颗粒物(PM10),71,91,122,44,47,26,,11,11,40,49,16,15,1.1,1
2026-01-04T1400,2867A,111.1225,37.5093,吕梁市,马茂庄小学,颗粒物(PM10),76,102,122,48,45,24,,9,9,40,54,16,15,0.9,0.9
2026-01-04T1400,1812A,112.3934,34.6517,洛阳市,市委党校,细颗粒物(PM2.5),67,60,86,48,77,63,,49,44,20,26,11,10,0.6,0.9
2026-01-04T1400,1815A,112.494,34.6883,洛阳市,河南林校,"颗粒物(PM10),细颗粒物(PM2.5)",57,64,92,40,89,57,,45,37,19,27,16,12,0.8,1
2026-01-04T1400,1816A,112.3843,34.623,洛阳市,开发区管委会,细颗粒物(PM2.5),80,65,93,59,84,61,,48,44,15,22,9,9,0.7,0.9
2026-01-04T1400,1817A,112.4263,34.6249,洛阳市,市委新办公区,细颗粒物(PM2.5),83,65,98,61,86,65,,50,46,17,23,12,10,0.7,0.9
2026-01-04T1400,3340A,112.6005,34.6323,洛阳市,伊滨,细颗粒物(PM2.5),83,75,98,61,84,56,,50,43,29,28,12,8,1.0,1
2026-01-04T1400,3341A,112.495,34.6338,洛阳市,中移产业园,细颗粒物(PM2.5),77,57,87,56,87,58,,47,39,27,34,11,10,0.7,0.9
2026-01-04T1400,3593A,112.5736,34.8993,洛阳市,吉利监测站,细颗粒物(PM2.5),113,89,90,85,96,55,,55,48,27,31,10,8,1.2,1.1
2026-01-04T1400,3635A,112.3678,34.6623,洛阳市,河科大西苑校区,细颗粒物(PM2.5),74,56,90,54,78,63,,47,42,20,27,10,10,0.6,0.9
2026-01-04T1400,3636A,112.4387,34.678,洛阳市,英才小学,细颗粒物(PM2.5),79,,96,58,90,66,,52,44,28,35,13,12,0.8,1
2026-01-04T1400,4214A,112.460027,34.694929,洛阳市,春都路1号院,细颗粒物(PM2.5),63,64,107,45,76,52,,41,33,15,23,12,11,0.9,1.1
2026-01-04T1400,2399A,114.051,33.5721,漯河市,三五一五工厂,细颗粒物(PM2.5),97,89,112,72,87,68,,42,42,9,22,8,7,0.9,1
2026-01-04T1400,2400A,114.0055,33.5698,漯河市,漯河大学,细颗粒物(PM2.5),85,,89,63,82,71,,44,44,14,24,8,6,0.7,0.8
2026-01-04T1400,2401A,114.0134,33.5826,漯河市,市水利局,细颗粒物(PM2.5),85,63,89,63,82,63,,41,41,16,22,8,7,0.8,0.9
2026-01-04T1400,2402A,114.0261,33.5697,漯河市,市广电局,细颗粒物(PM2.5),89,,89,66,85,72,,46,46,8,18,8,7,0.8,0.8
2026-01-04T1400,3478A,113.9691,33.568,漯河市,市图书馆,细颗粒物(PM2.5),89,80,102,66,88,64,,44,44,13,20,6,5,1.0,1
2026-01-04T1400,4250A,114.089259,33.588274,漯河市,韶山路11号,细颗粒物(PM2.5),100,94,104,75,85,62,,38,38,14,22,8,7,0.6,0.7
2026-01-04T1400,1798A,118.5084,31.6838,马鞍山市,湖东路四小,细颗粒物(PM2.5),120,121,98,91,71,12,,22,15,63,48,11,6,2.0,0.9
2026-01-04T1400,1799A,118.5019,31.6449,马鞍山市,开发区,细颗粒物(PM2.5),162,132,107,123,90,11,,19,12,64,47,12,8,1.9,0.8
2026-01-04T1400,3633A,118.4914,31.681,马鞍山市,雨山,细颗粒物(PM2.5),127,122,99,96,76,12,,28,16,65,45,12,9,2.1,0.8
2026-01-04T1400,4191A,118.527362,31.722269,马鞍山市,慈湖高新区,细颗粒物(PM2.5),159,166,106,121,86,7,,15,11,70,48,12,7,1.9,0.7
2026-01-04T1400,1686A,111.0285,21.469,茂名市,电白南海,颗粒物(PM10),53,56,56,27,29,106,,83,83,22,18,80,21,0.5,0.5
2026-01-04T1400,1687A,110.9294,21.6533,茂名市,茂石化七小,,48,48,50,17,24,116,,89,89,12,18,6,7,0.2,0.4
2026-01-04T1400,1688A,110.9108,21.6688,茂名市,健康路,,41,39,44,19,26,131,,100,100,15,20,8,9,0.6,0.7
2026-01-04T1400,1689A,110.8592,21.6826,茂名市,高岭,颗粒物(PM10),57,63,66,19,25,137,,83,83,13,21,10,16,/,/
2026-01-04T1400,3450A,111.0101,21.5165,茂名市,电白水东,,48,48,49,19,25,115,,85,85,10,16,12,24,/,/
2026-01-04T1400,2540A,103.8414,30.0871,眉山市,气象局,,39,29,30,27,19,58,,18,18,17,27,8,8,0.7,0.8
2026-01-04T1400,3148A,103.829,30.0563,眉山市,区人社局,,35,35,29,22,14,58,,16,16,13,25,8,6,0.7,0.8
2026-01-04T1400,4148A,103.8836,30.0695,眉山市,眉职院,,36,36,22,23,12,49,,17,17,15,20,1,1,0.7,0.7
2026-01-04T1400,1690A,116.1248,24.3307,梅州市,梅江月梅,,39,38,39,27,23,86,,39,39,17,28,/,/,/,/
2026-01-04T1400,1691A,116.0798,24.2719,梅州市,梅县新城,,35,35,38,22,28,95,,38,38,17,31,8,8,0.5,0.5
2026-01-04T1400,3315A,116.1234,24.2994,梅州市,梅龙,,29,29,40,19,26,89,,40,40,12,28,9,10,0.5,0.6
2026-01-04T1400,1878A,104.7775,31.4741,绵阳市,富乐山,,42,39,27,29,24,56,,15,15,9,16,12,11,0.8,0.8
2026-01-04T1400,1880A,104.6698,31.4668,绵阳市,高新区自来水公司,,42,37,34,29,28,40,,11,11,20,27,9,8,0.8,0.8
2026-01-04T1400,3491A,104.6899,31.5324,绵阳市,西科大附属小学,,46,36,34,32,26,49,,12,12,16,20,9,8,1.0,1.3
2026-01-04T1400,3492A,104.5647,31.5343,绵阳市,安州区旅游局,,35,,28,24,26,46,,13,13,16,19,16,11,0.7,0.7
2026-01-04T1400,4146A,104.7092,31.4972,绵阳市,科技城新区公安局,,38,30,30,26,25,54,,12,12,14,21,4,4,0.7,0.8
2026-01-04T1400,4226A,104.765114,31.453094,绵阳市,绵阳市气象局,,33,,31,23,26,53,,12,12,13,23,8,10,0.8,0.9
2026-01-04T1400,1784A,129.61,44.561,牡丹江市,环保大楼,,47,47,50,25,34,69,,49,49,9,25,7,12,0.7,1
2026-01-04T1400,1787A,129.6364,44.6075,牡丹江市,机车工厂,,45,45,67,20,39,70,,40,40,8,26,1,8,0.3,0.6
2026-01-04T1400,1788A,129.6386,44.5462,牡丹江市,第一中学,,33,30,50,23,36,66,,44,44,5,28,4,7,0.4,0.7
2026-01-04T1400,4287A,129.5992,44.5964,牡丹江市,东晓云街98号,,40,35,53,28,40,68,,38,38,7,26,3,5,0.3,0.7
2026-01-04T1400,2531A,105.0703,29.61,内江市,市监测站,,35,31,40,24,33,49,,32,28,14,16,4,4,0.6,0.5
2026-01-04T1400,2533A,105.0657,29.5807,内江市,内江二中,,36,32,48,25,31,32,,26,21,21,20,4,4,0.8,0.8
2026-01-04T1400,2534A,105.0407,29.5828,内江市,内江日报社,,,,36,24,31,34,,26,26,21,21,,2,0.6,0.5
2026-01-04T1400,4147A,105.0433,29.6105,内江市,玉峰路西段888号,,31,31,41,19,29,51,,33,30,12,14,4,3,0.6,0.6
2026-01-04T1400,2628A,92.0653,31.4846,那曲市,那曲监测站,,33,33,45,21,28,83,,50,50,9,24,6,10,0.6,1.3
2026-01-04T1400,4243A,92.0515,31.4787,那曲市,那曲市委宣传部,,26,6,26,3,14,82,,42,42,4,13,4,5,0.5,0.9
2026-01-04T1400,1291A,115.8887,28.7006,南昌市,省林业公司,细颗粒物(PM2.5),62,44,47,44,45,51,,36,36,22,27,4,5,1.3,1
2026-01-04T1400,1292A,115.813,28.7443,南昌市,林科所,细颗粒物(PM2.5),58,,42,41,35,39,,28,28,26,32,5,6,0.7,0.6
2026-01-04T1400,1294A,115.8518,28.687,南昌市,建工学校,细颗粒物(PM2.5),68,61,56,49,46,43,,35,34,30,33,13,15,0.7,0.6
2026-01-04T1400,1295A,115.8926,28.6425,南昌市,象湖,细颗粒物(PM2.5),62,56,49,44,45,49,,32,32,26,32,10,11,0.8,0.9
2026-01-04T1400,3046A,115.9084,28.6062,南昌市,机电学校,细颗粒物(PM2.5),67,58,62,48,48,53,,33,33,25,32,4,6,0.8,0.7
2026-01-04T1400,3690A,115.9718,28.7032,南昌市,外国语学校,细颗粒物(PM2.5),77,59,57,56,49,30,,30,30,43,31,12,13,0.6,0.6
2026-01-04T1400,4106A,115.7923,28.6873,南昌市,工业二路,细颗粒物(PM2.5),67,54,54,48,43,55,,27,27,15,28,5,6,0.4,0.4
2026-01-04T1400,4192A,115.931587,28.686774,南昌市,南京东路235号,细颗粒物(PM2.5),75,,51,55,51,57,,42,42,30,35,6,7,0.5,0.3
2026-01-04T1400,1906A,106.0791,30.8022,南充市,南充市委,细颗粒物(PM2.5),57,41,34,40,31,34,,16,16,13,21,4,4,0.7,0.6
2026-01-04T1400,1907A,106.1038,30.8215,南充市,南充炼油厂,细颗粒物(PM2.5),55,48,47,39,38,35,,18,18,12,18,6,6,0.5,0.5
2026-01-04T1400,4227A,106.108336,30.788436,南充市,梨树横街98号,,49,39,35,34,30,37,,28,22,14,21,5,5,0.6,0.6
2026-01-04T1400,4304A,106.1172,30.843,南充市,清泉寺北路188号,细颗粒物(PM2.5),52,,29,36,30,36,,18,15,11,16,6,6,0.8,0.8
2026-01-04T1400,4305A,106.067,30.7616,南充市,同庆路1号,,45,36,39,31,33,38,,16,16,12,22,6,5,1.0,0.7
2026-01-04T1400,1151A,118.8033,32.1085,南京市,迈皋桥,细颗粒物(PM2.5),104,112,79,78,58,25,,31,24,58,40,,4,1.0,0.9
2026-01-04T1400,1152A,118.7487,32.057,南京市,草场门,细颗粒物(PM2.5),104,95,84,78,63,21,,25,21,60,49,6,7,0.6,0.6
2026-01-04T1400,1154A,118.770105,32.004342,南京市,中华门,细颗粒物(PM2.5),100,100,77,75,62,19,,23,12,61,42,5,4,0.8,0.7
2026-01-04T1400,1155A,118.8059,32.0329,南京市,瑞金路,细颗粒物(PM2.5),117,107,81,88,66,17,,28,19,97,71,4,4,0.9,0.9
2026-01-04T1400,1156A,118.7946,32.0774,南京市,玄武湖,细颗粒物(PM2.5),108,120,80,81,59,17,,27,18,38,25,4,4,0.8,0.7
2026-01-04T1400,1157A,118.6415,32.0964,南京市,浦口,细颗粒物(PM2.5),100,108,83,75,58,21,,30,13,57,48,9,9,1.1,0.9
2026-01-04T1400,1158A,118.730129,32.000956,南京市,奥体中心,细颗粒物(PM2.5),107,102,82,80,64,27,,36,22,73,55,7,7,0.8,0.7
2026-01-04T1400,1159A,118.9072,32.1047,南京市,仙林大学城,细颗粒物(PM2.5),117,119,82,88,61,18,,33,17,62,37,8,7,1.0,0.9
2026-01-04T1400,3422A,118.8443,31.919,南京市,江宁彩虹桥,细颗粒物(PM2.5),110,111,85,83,66,10,,20,10,60,44,4,4,0.7,0.6
2026-01-04T1400,3427A,118.8497,32.3599,南京市,六合雄州,细颗粒物(PM2.5),84,94,79,62,55,45,,19,19,38,49,11,10,0.7,0.7
2026-01-04T1400,4086A,118.7641,32.0841,南京市,新模范马路66号,细颗粒物(PM2.5),122,142,91,92,65,15,,29,17,66,42,6,7,1.1,1
2026-01-04T1400,4249A,118.8707617,31.34017673,南京市,汶溪路181号,细颗粒物(PM2.5),129,108,93,98,89,48,,34,34,41,43,11,6,0.7,0.7
2026-01-04T1400,4312A,119.019,31.6512,南京市,中山西路1号,细颗粒物(PM2.5),127,,80,96,80,30,,20,14,44,38,4,4,0.8,0.8
2026-01-04T1400,1401A,108.3098,22.788,南宁市,二十一中,细颗粒物(PM2.5),80,64,53,59,48,51,,31,31,24,25,7,6,0.9,0.9
2026-01-04T1400,1402A,108.3135,22.8529,南宁市,北湖,细颗粒物(PM2.5),67,62,54,48,47,61,,43,43,26,26,6,6,0.8,0.8
2026-01-04T1400,1403A,108.3205,22.8222,南宁市,市监测站,细颗粒物(PM2.5),64,72,53,46,36,59,,32,32,19,23,10,8,0.8,0.8
2026-01-04T1400,1404A,108.3828,22.8038,南宁市,大自然花园,细颗粒物(PM2.5),73,71,59,53,42,67,,37,37,20,30,8,7,0.8,0.8
2026-01-04T1400,1406A,108.2397,22.8462,南宁市,区农职院,细颗粒物(PM2.5),70,70,55,51,44,52,,34,34,29,29,11,9,0.9,0.9
2026-01-04T1400,1407A,108.3285,22.7356,南宁市,英华嘉园,细颗粒物(PM2.5),85,78,59,63,54,61,,34,34,21,21,6,5,0.7,0.7
2026-01-04T1400,3401A,108.4829,22.762,南宁市,红星社区,细颗粒物(PM2.5),67,65,56,48,44,75,,41,41,14,19,10,7,0.8,0.8
2026-01-04T1400,4132A,108.2927,23.1477,南宁市,起凤路9号,细颗粒物(PM2.5),98,80,52,73,46,24,,14,14,17,15,3,3,0.9,0.8
2026-01-04T1400,4221A,108.2177,22.7774,南宁市,乐贤路16号,细颗粒物(PM2.5),68,76,68,49,40,49,,28,28,20,25,6,6,0.7,0.7
2026-01-04T1400,2332A,118.1682,26.6371,南平市,南平市监测站,,25,14,25,8,19,78,,43,43,6,18,4,6,0.3,0.5
2026-01-04T1400,2334A,118.1757,26.6276,南平市,南平七中,,28,28,25,8,17,78,,45,45,7,16,4,6,0.4,0.5
2026-01-04T1400,1168A,120.9056,31.9669,南通市,狼山街道,细颗粒物(PM2.5),78,81,81,57,63,31,,15,15,44,58,7,5,0.8,1.3
2026-01-04T1400,1170A,120.8635,32.0231,南通市,城中,细颗粒物(PM2.5),63,70,89,45,60,28,,14,14,50,71,8,9,0.6,1.2
2026-01-04T1400,1171A,120.9376,31.9301,南通市,星湖花园,细颗粒物(PM2.5),78,73,77,57,58,35,,20,20,44,59,7,7,1.0,1.5
2026-01-04T1400,1172A,120.8053,32.046,南通市,紫琅学院,细颗粒物(PM2.5),64,70,93,46,61,28,,12,12,50,72,8,10,0.7,1.3
2026-01-04T1400,3291A,121.0631,32.0644,南通市,通州监测站,细颗粒物(PM2.5),62,58,73,44,56,45,,27,27,41,55,6,7,0.8,1
2026-01-04T1400,3432A,120.9348,31.9874,南通市,环境教育馆,细颗粒物(PM2.5),65,68,81,47,63,32,,15,15,46,72,8,7,0.7,1.2
2026-01-04T1400,4091A,120.8692,31.9885,南通市,洪江路,细颗粒物(PM2.5),77,75,86,56,64,26,,14,14,54,73,8,7,0.5,0.9
2026-01-04T1400,2404A,112.5338,33.0086,南阳市,瓦房庄,细颗粒物(PM2.5),109,,103,82,100,51,,39,33,11,15,6,6,0.8,0.8
2026-01-04T1400,2405A,112.5002,32.9734,南阳市,汉画馆,细颗粒物(PM2.5),104,79,107,78,99,50,,32,32,12,18,6,6,0.9,0.9
2026-01-04T1400,2406A,112.5778,33.0144,南阳市,气象站,细颗粒物(PM2.5),89,80,111,66,93,55,,41,33,11,16,4,5,0.8,0.8
2026-01-04T1400,2407A,112.548,32.9687,南阳市,理工学院,细颗粒物(PM2.5),77,67,97,56,82,54,,40,33,9,16,5,5,1.0,1
2026-01-04T1400,4008A,112.5233,32.9921,南阳市,卧龙区政府,细颗粒物(PM2.5),100,78,118,75,98,47,,37,33,13,16,5,5,0.8,0.8
2026-01-04T1400,1234A,121.8352,29.9111,宁波市,区环保大楼,,25,25,54,14,34,71,,37,37,21,56,6,6,0.6,0.9
2026-01-04T1400,1235A,121.5595,29.8208,宁波市,万里学院,,31,31,70,15,49,72,,38,38,17,52,5,5,0.3,0.6
2026-01-04T1400,1236A,121.713,29.9564,宁波市,龙赛医院,,49,49,78,26,47,55,,28,28,38,58,6,5,0.6,0.7
2026-01-04T1400,1240A,121.5855,29.8635,宁波市,太古小学,,30,30,71,18,40,70,,37,37,17,50,3,3,0.4,0.7
2026-01-04T1400,1241A,121.5239,29.8673,宁波市,市环境监测中心,,39,39,66,9,47,65,,32,32,15,47,7,7,0.6,0.8
2026-01-04T1400,2871A,121.6156,29.9015,宁波市,万里国际学校,,38,38,66,17,47,74,,36,36,16,56,4,5,0.4,0.6
2026-01-04T1400,3710A,121.5593,29.8976,宁波市,白沙活动中心,,44,44,64,25,47,64,,34,34,26,58,5,5,0.5,0.8
2026-01-04T1400,4095A,121.8962,29.7529,宁波市,中科路88号,,27,13,40,7,29,85,,54,54,5,31,4,5,0.6,0.8
2026-01-04T1400,2341A,119.5387,26.6611,宁德市,宁德市监测站,,48,48,29,20,22,57,,44,43,30,21,8,7,0.6,0.6
2026-01-04T1400,3209A,119.5231,26.6562,宁德市,宁德一中,,35,32,29,24,23,72,,51,51,19,15,5,5,0.6,0.7
2026-01-04T1400,2618A,98.859,25.8541,怒江傈僳族自治州,州监测站,,21,18,28,9,21,67,,35,35,5,10,8,6,0.3,0.4
2026-01-04T1400,2619A,98.8607,25.8168,怒江傈僳族自治州,泸水一中,,30,23,22,21,18,60,,26,26,6,12,6,6,0.4,0.5
2026-01-04T1400,1888A,101.6891,26.571,攀枝花市,弄弄坪,,28,,35,17,17,88,,38,38,12,23,9,18,0.8,1.3
2026-01-04T1400,1889A,101.577,26.5914,攀枝花市,河门口,,27,27,40,13,17,83,,32,32,10,22,15,16,0.8,0.8
2026-01-04T1400,1891A,101.7365,26.4986,攀枝花市,仁和,,29,22,26,14,14,92,,46,46,9,16,11,9,0.5,0.6
2026-01-04T1400,2835A,101.7222,26.567,攀枝花市,四十中小,,28,28,30,19,17,85,,36,36,9,23,16,12,0.7,0.9
2026-01-04T1400,1604A,122.0303,41.1489,盘锦市,开发区,,30,30,82,12,71,68,,30,30,8,34,6,9,0.4,1.3
2026-01-04T1400,1605A,122.0486,41.0883,盘锦市,兴隆台,,29,29,69,13,55,69,,24,24,15,54,7,10,0.4,1.5
2026-01-04T1400,1606A,121.8297,41.1026,盘锦市,新生街道,,29,29,66,9,51,72,,31,31,16,45,6,9,0.3,0.9
2026-01-04T1400,1832A,113.3257,33.7423,平顶山市,新华旅馆,细颗粒物(PM2.5),73,61,102,53,85,56,,49,49,16,19,8,6,0.6,0.7
2026-01-04T1400,1833A,113.2917,33.737,平顶山市,规划设计院,,,76,111,54,86,58,,47,47,23,25,,5,0.7,0.9
2026-01-04T1400,1834A,113.182,33.7738,平顶山市,平顶山工学院,细颗粒物(PM2.5),73,57,87,53,79,62,,54,54,13,17,8,6,0.5,0.5
2026-01-04T1400,3594A,112.8736,33.9068,平顶山市,石龙区,细颗粒物(PM2.5),63,47,92,45,79,69,,52,52,18,28,6,6,0.8,1
2026-01-04T1400,4116A,113.284,33.7139,平顶山市,姚电大道23号,细颗粒物(PM2.5),77,68,113,56,91,59,,50,50,15,18,10,8,0.9,1
2026-01-04T1400,2656A,106.6633,35.5338,平凉市,聚贤嘉苑,,31,26,52,21,40,99,,75,75,3,12,9,8,0.6,0.8
2026-01-04T1400,2657A,106.7021,35.5307,平凉市,博物馆,,35,31,57,24,45,96,,72,72,7,14,9,9,0.6,0.8
2026-01-04T1400,2348A,113.8384,27.6436,萍乡市,中医院,细颗粒物(PM2.5),105,126,69,79,50,16,,43,28,37,22,5,6,1.3,0.8
2026-01-04T1400,2350A,113.8677,27.6438,萍乡市,市环保局,细颗粒物(PM2.5),80,67,59,59,51,25,,49,36,29,20,12,15,0.7,0.3
2026-01-04T1400,2351A,113.8663,27.6202,萍乡市,安源区政府,细颗粒物(PM2.5),97,82,69,72,52,18,,29,22,25,24,8,12,1.1,1
2026-01-04T1400,4107A,113.8686,27.6668,萍乡市,联洪村委会,细颗粒物(PM2.5),80,81,64,59,47,25,,42,31,38,23,6,7,0.9,0.8
2026-01-04T1400,2319A,119.0142,25.4324,莆田市,荔城区仓后路,,32,32,34,11,15,95,,66,66,12,15,/,/,/,/
2026-01-04T1400,2320A,119.0016,25.4553,莆田市,莆田市监测站,,42,42,24,12,11,101,,82,82,10,8,4,3,0.5,0.5
2026-01-04T1400,2321A,119.112,25.4561,莆田市,涵江区六中,,31,31,30,12,14,95,,68,68,12,15,/,/,0.5,0.5
2026-01-04T1400,2322A,119.1014,25.3215,莆田市,秀屿区政府,,,23,34,15,17,101,,72,72,,13,4,3,0.4,0.6
2026-01-04T1400,2392A,115.0312,35.7636,濮阳市,环保局,细颗粒物(PM2.5),160,144,86,122,88,28,,33,21,29,24,7,7,1.6,1.5
2026-01-04T1400,3021A,115,35.7667,濮阳市,濮水河管理处,细颗粒物(PM2.5),160,151,116,122,91,32,,36,25,33,35,8,7,1.2,1
2026-01-04T1400,4118A,115.0552,35.7816,濮阳市,中原东路68号,细颗粒物(PM2.5),179,179,130,135,99,30,,36,24,31,26,6,5,1.1,0.9
2026-01-04T1400,4216A,115.0923632,35.76857718,濮阳市,任丘路479号,细颗粒物(PM2.5),175,149,115,132,106,25,,22,17,39,35,7,5,1.2,0.9
2026-01-04T1400,2601A,100.9801,22.7634,普洱市,市环保局,,43,,42,30,27,55,,30,30,6,14,5,5,0.5,0.5
2026-01-04T1400,2602A,100.9763,22.8237,普洱市,普洱第二中学,,29,29,32,14,18,61,,32,32,6,14,5,4,0.4,0.5
2026-01-04T1400,3345A,131.0413,45.7795,七台河市,中波台,颗粒物(PM10),57,64,54,11,34,68,,50,50,5,18,5,9,0.4,0.6
2026-01-04T1400,3637A,131.0136,45.7688,七台河市,人民广场,颗粒物(PM10),61,72,64,11,40,68,,48,48,8,23,6,10,0.4,0.6
2026-01-04T1400,3684A,130.8639,45.8144,七台河市,新建矿广场,颗粒物(PM10),68,85,56,15,34,65,,47,47,5,13,6,11,0.2,0.5
2026-01-04T1400,1779A,123.9307,47.3641,齐齐哈尔市,安居小区,,22,21,32,14,24,68,,58,58,6,20,7,7,0.4,0.5
2026-01-04T1400,1780A,123.9497,47.3389,齐齐哈尔市,中心广场,,21,6,18,3,13,65,,56,56,8,14,6,6,0.4,0.5
2026-01-04T1400,1781A,123.9483,47.3229,齐齐哈尔市,农牧车辆厂,,20,14,27,9,16,64,,56,56,8,13,4,3,0.2,0.3
2026-01-04T1400,1783A,123.9442,47.2994,齐齐哈尔市,市环境监测站,,23,22,30,7,18,72,,61,58,5,18,6,7,0.4,0.5
2026-01-04T1400,3662A,123.6341,47.2079,齐齐哈尔市,富区青少年活动中心,颗粒物(PM10),64,78,44,7,26,69,,56,56,6,20,4,8,0.4,0.7
2026-01-04T1400,2591A,107.9765,26.5724,黔东南苗族侗族自治州,市环境监测站,,48,33,16,33,15,18,,23,11,15,14,7,5,0.8,0.8
2026-01-04T1400,2881A,107.8909,26.531,黔东南苗族侗族自治州,凯里学院,,22,22,9,14,7,20,,28,18,14,13,5,4,0.8,0.7
2026-01-04T1400,2593A,107.5223,26.2371,黔南布依族苗族自治州,小围寨,,20,17,4,14,4,18,,22,15,7,7,5,5,0.8,0.8
2026-01-04T1400,3538A,107.5175,26.2977,黔南布依族苗族自治州,沙坝,,28,24,8,19,8,14,,23,14,13,11,8,5,0.9,0.8
2026-01-04T1400,2589A,104.9022,25.0943,黔西南布依族苗族自治州,场坝街,,14,14,21,7,11,16,,20,17,9,8,7,4,0.7,0.7
2026-01-04T1400,2590A,104.8812,25.0994,黔西南布依族苗族自治州,坪东大道,,9,9,19,6,11,14,,20,18,9,7,5,4,0.7,0.7
2026-01-04T1400,2502A,108.6238,21.9667,钦州市,市环保站,颗粒物(PM10),57,63,81,17,51,101,,48,48,14,28,3,4,0.6,1.1
2026-01-04T1400,2503A,108.655,21.9481,钦州市,沙埠小学,,50,50,68,25,53,111,,58,58,12,28,5,6,0.5,0.7
2026-01-04T1400,2504A,108.5989,21.7435,钦州市,港区一小,颗粒物(PM10),54,57,71,32,44,102,,59,59,13,34,7,8,0.5,0.7
2026-01-04T1400,3404A,108.5959,21.9634,钦州市,北职校,,44,44,72,19,51,101,,44,44,9,24,8,8,0.5,1
2026-01-04T1400,1046A,119.5247,39.9346,秦皇岛市,建设大厦,细颗粒物(PM2.5),58,42,85,41,52,55,,20,20,22,48,15,9,0.5,1
2026-01-04T1400,3132A,119.5979,39.938,秦皇岛市,文明里,,49,49,89,27,38,52,,18,18,22,50,17,11,0.2,0.8
2026-01-04T1400,4066A,119.7458,39.9952,秦皇岛市,南园路157号,颗粒物(PM10),56,61,92,32,59,51,,26,26,26,51,14,11,0.5,1.4
2026-01-04T1400,4067A,119.5131,39.8858,秦皇岛市,翠岛大街1号,,39,31,57,27,36,57,,26,26,21,44,16,12,0.6,0.9
2026-01-04T1400,4198A,119.509013,39.825305,秦皇岛市,北戴河轮滑馆,,46,34,68,32,47,63,,26,26,17,48,10,6,0.3,1.5
2026-01-04T1400,1310A,120.404,36.0625,青岛市,市南区东部子站,细颗粒物(PM2.5),168,173,106,127,72,42,,24,24,76,59,22,15,1.3,1
2026-01-04T1400,1311A,120.362344,36.10282,青岛市,四方区子站,细颗粒物(PM2.5),216,175,97,166,87,37,,23,23,97,61,15,8,1.5,1.2
2026-01-04T1400,1312A,120.294373,36.054183,青岛市,市南区西部子站,细颗粒物(PM2.5),214,207,117,164,81,36,,26,26,75,57,9,8,1.5,1
2026-01-04T1400,1313A,120.4581,36.0858,青岛市,崂山区子站,细颗粒物(PM2.5),100,102,90,75,63,85,,44,44,29,44,14,14,1.0,1
2026-01-04T1400,1315A,120.3945,36.3083,青岛市,城阳区子站,细颗粒物(PM2.5),144,178,136,110,78,66,,28,28,59,70,20,13,1.5,1.5
2026-01-04T1400,3642A,120.3454,36.0735,青岛市,市北区南部,细颗粒物(PM2.5),208,190,109,158,80,32,,22,22,98,55,21,9,1.5,1
2026-01-04T1400,3643A,120.3897,36.18,青岛市,李沧区北部,细颗粒物(PM2.5),233,232,117,183,91,30,,20,20,105,66,17,14,1.8,1.3
2026-01-04T1400,4110A,120.5222,36.4089,青岛市,盟旺路653号,细颗粒物(PM2.5),156,184,129,119,91,74,,31,31,43,72,11,10,1.0,1
2026-01-04T1400,4290A,120.196923,35.954556,青岛市,珠江路669号,细颗粒物(PM2.5),182,173,118,137,88,26,,14,14,101,77,23,16,1.2,1
2026-01-04T1400,4291A,120.0424,35.8656,青岛市,黄岛区人民政府广场,细颗粒物(PM2.5),113,102,144,85,105,74,,32,32,41,61,12,11,1.0,1.7
2026-01-04T1400,1703A,113.0218,23.7086,清远市,凤城街办,细颗粒物(PM2.5),72,71,38,52,26,120,,58,58,26,26,/,/,/,/
2026-01-04T1400,3025A,113.0479,23.6343,清远市,技师学院,,49,49,49,31,29,126,,50,50,22,40,8,10,0.6,0.7
2026-01-04T1400,3318A,112.9898,23.7403,清远市,清新太和,细颗粒物(PM2.5),77,75,36,56,24,133,,64,64,24,21,10,7,0.5,0.5
2026-01-04T1400,3455A,113.076,23.72,清远市,清城东城,颗粒物(PM10),52,53,38,34,24,127,,52,52,20,29,/,/,/,/
2026-01-04T1400,2661A,107.6325,35.7357,庆阳市,庆阳五中,,36,33,51,25,47,88,,84,80,12,14,6,4,0.5,0.6
2026-01-04T1400,2662A,107.6361,35.7067,庆阳市,市环保局,,37,37,55,24,44,89,,84,80,9,11,2,1,0.4,0.4
2026-01-04T1400,1916A,103.7897,25.5036,曲靖市,环境监测站,,28,,21,13,10,88,,57,57,6,11,2,3,0.5,0.6
2026-01-04T1400,1917A,103.8013,25.5357,曲靖市,烟厂办公区,,28,16,21,3,10,87,,59,59,6,10,4,3,0.2,0.3
2026-01-04T1400,3376A,103.7926,25.4651,曲靖市,南苑二区,,29,19,19,9,12,90,,60,60,3,6,4,4,0.4,0.4
2026-01-04T1400,3377A,103.7442,25.5259,曲靖市,曲靖师范学院,,28,,22,11,13,88,,58,58,5,10,1,3,0.3,0.4
2026-01-04T1400,1264A,118.8694,28.94,衢州市,环保大楼,细颗粒物(PM2.5),92,91,91,68,70,46,,29,29,44,50,/,/,/,/
2026-01-04T1400,1266A,118.8622,28.9809,衢州市,衢州学院,细颗粒物(PM2.5),92,91,79,68,62,43,,28,28,44,44,6,5,0.4,0.4
2026-01-04T1400,4097A,118.9646,28.9832,衢州市,衢州三中,细颗粒物(PM2.5),85,87,94,63,72,46,,24,24,36,44,6,5,0.5,0.5
2026-01-04T1400,1611A,118.5818,24.9116,泉州市,涂山街,,34,34,37,21,22,105,,68,68,12,14,3,3,0.4,0.4
2026-01-04T1400,1612A,118.597,24.8976,泉州市,津头埔,,37,37,37,22,23,106,,68,68,15,18,5,5,0.5,0.5
2026-01-04T1400,1613A,118.6669,24.9422,泉州市,万安,,43,43,37,20,18,108,,68,68,16,16,4,3,0.5,0.4
2026-01-04T1400,4105A,118.6355,24.9148,泉州市,霞新路6号,,37,31,29,21,21,116,,72,72,11,14,/,/,0.4,0.4
2026-01-04T1400,2626A,88.8873,29.2723,日喀则市,日喀则监测站,,27,13,23,3,11,84,,58,53,3,10,5,8,0.4,0.5
2026-01-04T1400,3726A,88.8775,29.2425,日喀则市,林业技术推广中心,,26,13,24,3,8,82,,61,55,2,4,9,11,0.3,0.4
2026-01-04T1400,1659A,119.4711,35.421,日照市,监测站,细颗粒物(PM2.5),115,114,135,87,102,55,,21,21,56,67,17,16,1.2,1.3
2026-01-04T1400,1660A,119.523,35.4216,日照市,市政府广场,细颗粒物(PM2.5),104,97,114,78,90,74,,33,33,36,54,17,14,0.8,0.8
2026-01-04T1400,1661A,119.5511,35.4113,日照市,港务局,细颗粒物(PM2.5),120,105,126,91,98,74,,38,38,34,61,15,12,1.0,0.9
2026-01-04T1400,3507A,119.5326,35.4627,日照市,职业技术学院,细颗粒物(PM2.5),94,100,118,70,79,74,,37,37,40,57,15,12,1.2,1.1
2026-01-04T1400,3604A,119.3267,35.1043,日照市,岚山环保分局,细颗粒物(PM2.5),168,171,147,127,114,65,,31,31,54,52,29,34,1.4,1.5
2026-01-04T1400,1835A,111.1922,34.7752,三门峡市,市政府,细颗粒物(PM2.5),93,70,112,69,129,68,,39,39,15,27,6,7,0.6,1
2026-01-04T1400,1836A,111.1588,34.794,三门峡市,开发区,细颗粒物(PM2.5),89,83,146,66,129,61,,39,39,16,23,4,4,0.7,1
2026-01-04T1400,3039A,111.1911,34.7829,三门峡市,三门峡市第一小学,细颗粒物(PM2.5),84,74,117,62,126,63,,38,38,16,26,9,8,0.7,1
2026-01-04T1400,3598A,111.1031,34.719,三门峡市,富达温泉假日酒店,细颗粒物(PM2.5),93,,115,69,115,69,,46,46,20,37,13,13,0.6,1
2026-01-04T1400,2324A,117.621,26.2626,三明市,三钢,,35,32,33,24,28,76,,39,39,19,24,16,10,1.8,1.1
2026-01-04T1400,2325A,117.6352,26.2714,三明市,三明二中,,46,46,29,20,22,72,,39,39,19,21,20,11,1.9,0.8
2026-01-04T1400,2326A,117.6028,26.2377,三明市,三元区政府,,37,37,34,25,25,78,,35,35,18,26,8,7,1.0,0.8
2026-01-04T1400,1877A,109.4962,18.2682,三亚市,河西子站,,42,42,35,17,17,103,,91,91,5,8,4,4,0.4,0.5
2026-01-04T1400,3540A,109.7348,18.3443,三亚市,君悦子站,颗粒物(PM10),56,62,38,16,16,95,,77,77,5,9,5,5,0.5,0.5
2026-01-04T1400,4135A,109.1714,18.3739,三亚市,城东小学站,,30,27,31,9,17,96,,75,75,5,8,/,/,/,/
2026-01-04T1400,2624A,91.7592,29.234,山南市,山南监测站,,28,17,19,8,6,88,,71,66,2,4,4,4,0.3,0.2
2026-01-04T1400,2625A,91.7701,29.2436,山南市,山南人民医院,,26,10,21,3,7,82,,74,65,3,5,3,2,0.3,0.3
2026-01-04T1400,1674A,116.6795,23.3666,汕头市,金平子站,,50,50,45,32,31,130,,77,77,27,21,9,9,1.0,0.7
2026-01-04T1400,1675A,116.7248,23.3632,汕头市,龙湖子站,,47,47,40,25,22,119,,72,72,18,16,11,12,/,/
2026-01-04T1400,1676A,116.7257,23.2774,汕头市,濠江子站,,47,47,38,22,25,98,,72,72,16,16,10,8,/,/
2026-01-04T1400,1677A,116.7518,23.4712,汕头市,澄海子站,,47,47,47,26,32,116,,72,72,16,19,9,9,0.7,0.7
2026-01-04T1400,1678A,116.6088,23.2539,汕头市,潮阳子站,颗粒物(PM10),53,55,43,20,24,125,,71,71,19,19,9,8,0.6,0.6
2026-01-04T1400,3444A,116.4539,23.2684,汕头市,潮南峡山,,36,34,49,18,30,113,,76,76,12,17,10,11,0.5,0.6
2026-01-04T1400,3624A,116.4069,23.2533,汕头市,潮南子站,,48,48,61,24,34,112,,70,70,13,19,8,9,/,/
2026-01-04T1400,1693A,115.3653,22.7751,汕尾市,市环保局,,40,40,40,18,28,103,,83,83,13,16,7,7,0.5,0.5
2026-01-04T1400,1695A,115.362,22.7926,汕尾市,新城中学,颗粒物(PM10),55,59,40,19,27,105,,65,65,12,13,5,6,0.4,0.4
2026-01-04T1400,2645A,109.9155,33.8714,商洛市,监测站,细颗粒物(PM2.5),58,48,48,41,43,86,,79,79,14,20,5,4,0.5,0.6
2026-01-04T1400,3045A,109.9647,33.8486,商洛市,商州区中学,细颗粒物(PM2.5),63,53,46,45,47,88,,81,81,9,16,6,5,0.6,0.7
2026-01-04T1400,2408A,115.6701,34.4283,商丘市,环境监测站,细颗粒物(PM2.5),85,71,72,63,67,61,,54,46,16,17,2,2,0.3,0.4
2026-01-04T1400,2409A,115.6458,34.4047,商丘市,粮食局,细颗粒物(PM2.5),79,84,67,58,68,51,,47,40,19,18,4,4,0.5,0.6
2026-01-04T1400,3171A,115.6069,34.4465,商丘市,梁园区档案局,细颗粒物(PM2.5),92,72,65,68,65,40,,40,35,19,18,4,3,0.6,0.6
2026-01-04T1400,4119A,115.6701,34.3767,商丘市,北海东路185号,细颗粒物(PM2.5),98,90,90,73,71,43,,36,36,21,29,2,2,0.5,0.5
2026-01-04T1400,4120A,115.6172,34.3704,商丘市,中山大街3号,细颗粒物(PM2.5),100,94,98,75,78,51,,36,36,20,28,3,3,0.4,0.4
2026-01-04T1400,1141A,121.401,31.2382,上海市,普陀,细颗粒物(PM2.5),53,50,64,37,47,57,,32,32,44,67,7,8,0.5,0.7
2026-01-04T1400,1142A,121.4774,31.2043,上海市,十五厂,细颗粒物(PM2.5),55,48,65,39,43,52,,35,35,44,69,8,8,0.7,0.8
2026-01-04T1400,1143A,121.4673,31.3011,上海市,虹口,颗粒物(PM10),56,62,76,32,44,50,,25,25,36,67,12,12,0.3,0.6
2026-01-04T1400,1147A,121.4253,31.226,上海市,静安监测站,,49,48,63,34,44,61,,43,43,38,61,8,8,0.5,0.6
2026-01-04T1400,1148A,121.7029,31.1905,上海市,浦东川沙,,41,41,68,24,39,68,,40,40,22,64,8,9,0.5,0.8
2026-01-04T1400,1149A,121.5339,31.229,上海市,浦东新区监测站,,42,42,61,27,41,68,,39,39,30,60,7,8,0.5,0.8
2026-01-04T1400,1150A,121.5776,31.2038,上海市,浦东张江,,43,43,65,27,40,71,,41,41,26,57,8,8,0.6,0.8
2026-01-04T1400,3265A,121.4242,31.3303,上海市,宝山庙行,颗粒物(PM10),57,63,73,37,48,47,,24,24,48,78,8,8,0.5,0.8
2026-01-04T1400,3266A,121.8789,31.4662,上海市,崇明上实东滩,,23,22,42,16,31,54,,42,42,32,28,6,6,0,0.2
2026-01-04T1400,3268A,121.316,31.2839,上海市,嘉定南翔,颗粒物(PM10),55,59,69,34,51,40,,18,18,52,69,6,6,0.6,0.8
2026-01-04T1400,3269A,121.3357,30.7455,上海市,金山新城,细颗粒物(PM2.5),52,,44,36,46,72,,68,68,34,34,12,11,1.0,0.9
2026-01-04T1400,3270A,121.4996,31.0741,上海市,闵行浦江,,39,39,64,23,45,65,,34,34,27,60,8,8,0.4,0.5
2026-01-04T1400,3271A,121.2886,31.1663,上海市,青浦徐泾,"颗粒物(PM10),细颗粒物(PM2.5)",52,54,69,36,49,51,,25,25,44,73,6,6,0.7,1
2026-01-04T1400,3272A,121.2193,31.0382,上海市,松江图书馆,,42,42,78,20,36,76,,31,31,22,68,8,8,0.4,0.6
2026-01-04T1400,3273A,121.3904,31.206,上海市,长宁仙霞,,46,46,62,32,43,54,,33,33,43,66,8,8,0.5,0.7
2026-01-04T1400,3274A,121.7964,31.0507,上海市,浦东惠南,,29,28,55,20,38,70,,46,46,19,48,6,6,0.6,0.6
2026-01-04T1400,3544A,121.4891,30.925,上海市,奉贤南桥新城,,42,42,72,24,55,68,,38,38,29,61,10,9,0.7,0.8
2026-01-04T1400,4183A,121.417401,31.16637,上海市,冠生园路458号,,,,69,,48,,,25,25,,75,,5,,0.6
2026-01-04T1400,4205A,121.541914,31.268301,上海市,宁武路151号,颗粒物(PM10),64,77,82,39,47,28,,15,15,65,74,6,6,0.6,0.8
2026-01-04T1400,2382A,117.9758,28.4439,上饶市,市监测站,颗粒物(PM10),62,73,70,41,42,62,,46,46,30,28,7,8,/,/
2026-01-04T1400,2383A,117.9521,28.4637,上饶市,凤凰光学,颗粒物(PM10),61,72,68,42,37,46,,36,31,33,30,12,10,0.8,0.7
2026-01-04T1400,3685A,117.897,28.4316,上饶市,双创科技城,颗粒物(PM10),60,69,62,41,46,54,,55,47,46,35,7,6,0.7,0.7
