timepoint,stationcode,longitude,latitude,area,positionname,primarypollutant,aqi,pm10,pm10_24h,pm2_5,pm2_5_24h,o3,o3_24h,o3_8h,o3_8h_24h,no2,no2_24h,so2,so2_24h,co,co_24h
2026-01-04T0700,2568A,102.2503,31.8896,阿坝藏族羌族自治州,马师校,,20,16,25,14,16,54,,,,7,17,4,4,0.5,0.6
2026-01-04T0700,3994A,102.2174,31.9016,阿坝藏族羌族自治州,马尔康中学西区,,19,16,15,7,9,59,,,,6,13,6,5,0.5,0.6
2026-01-04T0700,2695A,80.2899,41.1684,阿克苏地区,电视台,细颗粒物(PM2.5),52,52,73,36,45,24,,,,22,32,4,5,0.7,0.8
2026-01-04T0700,2696A,80.2592,41.1541,阿克苏地区,艺术中心,细颗粒物(PM2.5),62,55,66,44,51,32,,,,16,24,3,4,0.6,0.7
2026-01-04T0700,2205A,105.699,38.8409,阿拉善盟,蒙二幼,,18,14,57,10,49,55,,,,19,18,10,11,0.5,0.8
2026-01-04T0700,2206A,105.7198,38.8508,阿拉善盟,环保局新楼,,22,9,52,7,42,70,,,,8,14,9,11,0.5,0.8
2026-01-04T0700,2708A,88.1266,47.8515,阿勒泰地区,市站,,26,6,14,3,5,81,,,,3,32,2,9,0.4,0.4
2026-01-04T0700,4166A,88.1198,47.7931,阿勒泰地区,阿勒泰路33号,,27,7,15,3,4,84,,,,6,28,5,6,0.2,0.4
2026-01-04T0700,2630A,80.1171,32.4999,阿里地区,阿里监测站,,20,6,3,3,2,63,,,,4,10,12,10,0.4,0.5
2026-01-04T0700,3192A,80.0906,32.5029,阿里地区,阿里藏医院,,20,12,14,8,8,63,,,,8,8,15,12,0.5,0.5
2026-01-04T0700,2644A,109.0088,32.6974,安康市,汉滨区检察院,细颗粒物(PM2.5),74,55,52,54,51,9,,,,24,25,10,8,0.8,0.8
2026-01-04T0700,4054A,109.0324,32.6913,安康市,市邮政管理局,细颗粒物(PM2.5),75,60,57,55,51,7,,,,27,25,6,5,0.8,0.8
2026-01-04T0700,2291A,117.0806,30.5181,安庆市,环科院,细颗粒物(PM2.5),95,85,72,71,57,25,,,,33,23,6,7,0.7,0.6
2026-01-04T0700,2292A,117.0331,30.5118,安庆市,马山宾馆,细颗粒物(PM2.5),92,85,71,68,54,25,,,,36,27,5,6,0.7,0.6
2026-01-04T0700,2294A,116.9897,30.6146,安庆市,安庆大学,细颗粒物(PM2.5),88,76,66,65,55,24,,,,29,38,4,5,0.8,0.7
2026-01-04T0700,3173A,117.0598,30.5351,安庆市,市人大,细颗粒物(PM2.5),97,89,72,72,58,18,,,,41,31,7,8,0.7,0.6
2026-01-04T0700,3123A,105.9408,26.2431,安顺市,凤凰山,,10,8,11,3,7,32,,,,10,13,9,12,0.9,0.9
2026-01-04T0700,3124A,105.9443,26.2567,安顺市,金钟山,,11,7,11,7,8,35,,,,8,10,9,12,0.8,0.8
2026-01-04T0700,3125A,105.8983,26.248,安顺市,娄家坡,,12,12,16,7,13,27,,,,13,12,20,17,0.8,0.8
2026-01-04T0700,1819A,114.3552,36.1017,安阳市,红庙街,细颗粒物(PM2.5),158,,129,120,125,8,,,,35,39,3,5,0.9,1.1
2026-01-04T0700,1820A,114.361,36.0681,安阳市,银杏小区,细颗粒物(PM2.5),169,,129,128,135,11,,,,29,38,2,4,0.8,0.9
2026-01-04T0700,3141A,114.3921,36.0879,安阳市,信访局,细颗粒物(PM2.5),173,,132,131,128,16,,,,28,36,3,3,0.9,1
2026-01-04T0700,3669A,114.4706,36.0634,安阳市,左辅环卫站,细颗粒物(PM2.5),160,131,145,122,133,16,,,,21,25,2,4,0.7,0.9
2026-01-04T0700,4117A,114.2918,36.0769,安阳市,钢三路198号,细颗粒物(PM2.5),179,161,170,135,140,7,,,,35,41,3,5,0.9,1.1
2026-01-04T0700,1748A,123.0441,41.1201,鞍山市,深沟寺,,40,40,65,25,47,28,,,,23,41,7,14,1.6,1.7
2026-01-04T0700,1749A,123.011,41.0931,鞍山市,太阳城,,42,42,68,26,48,37,,,,25,48,19,28,2.6,2.7
2026-01-04T0700,1750A,123.0483,41.1445,鞍山市,太平,,43,43,83,25,50,21,,,,37,48,11,18,1.6,1.6
2026-01-04T0700,1751A,122.964,41.0968,鞍山市,铁西三道街,颗粒物(PM10),65,79,114,44,65,11,,,,58,54,16,24,2.9,2.5
2026-01-04T0700,1753A,123.0219,41.0822,鞍山市,明达新区,,48,48,75,32,52,22,,,,25,33,16,26,3.8,2.6
2026-01-04T0700,4201A,122.944647,41.082639,鞍山市,兴盛南路290号,颗粒物(PM10),92,133,135,57,78,2,,,,68,62,18,24,3.2,2.4
2026-01-04T0700,2195A,107.4206,40.7609,巴彦淖尔市,附二中,细颗粒物(PM2.5),98,110,93,73,50,11,,,,46,42,11,14,0.6,0.8
2026-01-04T0700,2196A,107.37,40.7372,巴彦淖尔市,市环保大楼,颗粒物(PM10),67,83,86,42,43,0,,,,48,47,5,11,0.8,0.8
2026-01-04T0700,1956A,86.1476,41.7529,巴音郭楞蒙古自治州,孔雀公园,颗粒物(PM10),72,94,143,27,29,0,,,,63,26,6,6,0.5,0.5
2026-01-04T0700,1957A,86.1971,41.7166,巴音郭楞蒙古自治州,棉纺厂,颗粒物(PM10),87,123,144,12,22,13,,,,37,21,/,/,/,/
2026-01-04T0700,1958A,86.236,41.7172,巴音郭楞蒙古自治州,经济开发区,颗粒物(PM10),66,81,109,11,18,17,,,,18,19,4,4,0.5,0.5
2026-01-04T0700,3181A,106.776805,31.852614,巴中市,市五中,细颗粒物(PM2.5),62,52,52,44,43,7,,,,16,18,5,5,0.9,0.9
2026-01-04T0700,3183A,106.7419,31.8654,巴中市,圣泉水务公司,细颗粒物(PM2.5),59,46,40,42,37,6,,,,19,21,5,5,0.7,0.6
2026-01-04T0700,3616A,106.7617,31.8343,巴中市,市中心医院,细颗粒物(PM2.5),59,47,43,42,38,12,,,,14,19,6,6,0.9,0.9
2026-01-04T0700,2235A,122.7909,45.608,白城市,洮北区环保局,,35,30,41,24,40,42,,,,26,28,7,6,0.4,0.5
2026-01-04T0700,2236A,122.8741,45.5725,白城市,市环保局,,18,,34,12,29,54,,,,17,29,4,7,0.3,0.4
2026-01-04T0700,2231A,126.4219,41.9172,白山市,喜丰,细颗粒物(PM2.5),67,80,74,48,42,10,,,,46,39,16,15,1.3,1.2
2026-01-04T0700,2232A,126.4082,41.9416,白山市,环保局,细颗粒物(PM2.5),62,66,68,44,49,5,,,,40,36,11,12,1.8,1.6
2026-01-04T0700,2647A,104.1727,36.5448,白银市,第三小学,细颗粒物(PM2.5),54,52,49,38,46,46,,,,23,16,3,3,0.8,0.7
2026-01-04T0700,2648A,104.1467,36.5482,白银市,动力公司,细颗粒物(PM2.5),54,40,48,38,47,32,,,,21,12,3,3,0.8,0.6
2026-01-04T0700,2512A,106.6102,23.901,百色市,市监测站,,46,44,42,32,27,15,,,,23,14,18,11,0.8,0.7
2026-01-04T0700,2513A,106.6524,23.8842,百色市,市中心血站,细颗粒物(PM2.5),60,,44,43,36,16,,,,26,18,11,10,0.8,0.7
2026-01-04T0700,4133A,106.6273,23.8798,百色市,龙景西路,细颗粒物(PM2.5),85,63,53,63,48,5,,,,25,12,20,13,0.8,0.6
2026-01-04T0700,2270A,117.396,32.9389,蚌埠市,工人疗养院,细颗粒物(PM2.5),90,94,90,67,61,1,,,,66,32,9,6,0.8,0.5
2026-01-04T0700,2271A,117.3606,32.9428,蚌埠市,百货大楼,细颗粒物(PM2.5),80,79,65,59,52,2,,,,66,38,9,6,0.8,0.6
2026-01-04T0700,2273A,117.4183,32.8909,蚌埠市,蚌埠学院,细颗粒物(PM2.5),80,66,60,59,50,14,,,,39,30,4,4,0.6,0.4
2026-01-04T0700,2274A,117.3534,32.9672,蚌埠市,淮上区政府,细颗粒物(PM2.5),105,90,74,79,60,6,,,,57,37,5,3,0.8,0.6
2026-01-04T0700,2275A,117.3143,32.8977,蚌埠市,高新区,细颗粒物(PM2.5),75,68,68,55,57,23,,,,33,29,7,7,0.7,0.4
2026-01-04T0700,3715A,117.3091,32.9314,蚌埠市,蚌埠田家炳中学,细颗粒物(PM2.5),78,75,75,57,59,20,,,,44,35,6,9,0.7,0.5
2026-01-04T0700,1585A,109.8761,40.6533,包头市,市环境监测站,,37,37,164,3,100,46,,,,18,62,5,34,0.2,2.8
2026-01-04T0700,1587A,109.9992,40.5843,包头市,包头八中,,47,47,139,8,92,46,,,,22,60,3,24,0.3,2.2
2026-01-04T0700,1589A,109.8641,40.6288,包头市,惠龙物流,,34,34,130,9,75,55,,,,13,55,7,34,0.3,2.3
2026-01-04T0700,1590A,110.0376,40.5546,包头市,东河鸿龙湾,,30,30,105,3,67,40,,,,36,70,7,20,0.4,1.7
2026-01-04T0700,3283A,109.9154,40.5684,包头市,滨河大厦,,33,33,97,3,65,53,,,,8,46,2,18,0.5,1.8
2026-01-04T0700,3419A,109.9449,40.6259,包头市,包头市委党校,,38,38,134,15,89,47,,,,17,60,8,31,0.4,2.5
2026-01-04T0700,3683A,109.8332,40.6577,包头市,昆区政府,,45,45,158,8,82,52,,,,14,61,8,42,0.5,2.9
2026-01-04T0700,1931A,107.0802,34.3129,宝鸡市,竹园沟,细颗粒物(PM2.5),52,,52,36,59,48,,,,7,11,5,6,0.5,0.6
2026-01-04T0700,1933A,107.1429,34.3549,宝鸡市,监测站,细颗粒物(PM2.5),77,,65,56,70,30,,,,21,22,4,4,0.8,0.8
2026-01-04T0700,1934A,107.1172,34.3759,宝鸡市,技工学校,细颗粒物(PM2.5),78,,63,57,73,31,,,,23,14,6,3,0.8,0.8
2026-01-04T0700,1936A,107.2025,34.3518,宝鸡市,文理学院,细颗粒物(PM2.5),77,57,66,56,73,36,,,,20,22,4,4,0.6,0.6
2026-01-04T0700,1937A,107.2396,34.3626,宝鸡市,三迪小学,细颗粒物(PM2.5),87,,65,64,77,28,,,,27,24,3,3,0.7,0.8
2026-01-04T0700,4155A,107.1721,34.3558,宝鸡市,滨河北路,细颗粒物(PM2.5),69,56,72,50,65,41,,,,20,22,5,5,0.8,0.8
2026-01-04T0700,4308A,107.3898,34.3601,宝鸡市,陈仓区北开路21号,细颗粒物(PM2.5),85,,77,63,83,51,,,,21,26,22,6,0.7,0.7
2026-01-04T0700,1051A,115.4803,38.8568,保定市,游泳馆,细颗粒物(PM2.5),170,162,155,129,132,4,,,,82,75,12,12,1.6,1.6
2026-01-04T0700,1052A,115.509,38.8895,保定市,华电二区,细颗粒物(PM2.5),152,136,139,116,129,2,,,,59,59,6,8,1.9,1.8
2026-01-04T0700,1053A,115.4588,38.9037,保定市,接待中心,细颗粒物(PM2.5),160,149,148,122,120,1,,,,68,60,6,5,1.4,1.3
2026-01-04T0700,1054A,115.4484,38.8344,保定市,地表水厂,细颗粒物(PM2.5),180,180,183,136,136,8,,,,78,73,8,8,1.6,1.6
2026-01-04T0700,3581A,115.3136,38.9511,保定市,满城区生态环境分局,细颗粒物(PM2.5),163,175,175,124,130,1,,,,68,74,7,9,1.9,1.8
2026-01-04T0700,3582A,115.4709,38.7628,保定市,清苑区第二中学,细颗粒物(PM2.5),244,262,206,194,139,2,,,,85,74,9,11,1.9,1.5
2026-01-04T0700,3583A,115.6231,39.0223,保定市,徐水物探局,细颗粒物(PM2.5),166,184,199,126,134,3,,,,64,72,14,12,1.6,1.5
2026-01-04T0700,4004A,115.4199,38.8665,保定市,双鹰农机,细颗粒物(PM2.5),158,185,194,120,118,10,,,,70,60,11,11,1.4,1.4
2026-01-04T0700,4034A,115.515,38.8589,保定市,植保所站,细颗粒物(PM2.5),199,159,158,149,139,0,,,,93,87,3,6,1.6,1.5
2026-01-04T0700,2594A,99.1589,25.1137,保山市,市环境监测站,,28,,14,19,16,14,,,,6,7,6,8,0.5,0.4
2026-01-04T0700,2595A,99.1616,25.1381,保山市,市环保局,,19,19,16,10,15,22,,,,5,4,4,4,0.3,0.4
2026-01-04T0700,1867A,109.1435,21.4085,北海市,海滩公园,,43,43,38,29,21,73,,,,19,15,12,9,0.4,0.5
2026-01-04T0700,1868A,109.0983,21.466,北海市,新市环保局,,45,37,38,31,26,75,,,,20,17,10,5,0.7,0.7
2026-01-04T0700,1869A,109.1775,21.5232,北海市,北海工业园,细颗粒物(PM2.5),53,54,46,37,30,57,,,,20,15,23,10,0.6,0.6
2026-01-04T0700,3400A,109.1844,21.4396,北海市,龙潭自来水厂,细颗粒物(PM2.5),60,59,38,43,27,60,,,,20,14,10,8,0.7,0.6
2026-01-04T0700,1001A,116.3611,39.8786,北京市,万寿西宫,,47,47,74,26,45,11,,,,44,65,2,4,0.5,0.7
2026-01-04T0700,1003A,116.4174,39.9289,北京市,东四,,45,45,68,26,38,7,,,,46,49,3,4,0.7,1
2026-01-04T0700,1004A,116.4073,39.8858,北京市,天坛,,49,49,63,31,39,2,,,,51,54,1,3,0.7,0.8
2026-01-04T0700,1005A,116.4622,39.9364,北京市,农展馆,,48,48,64,30,37,2,,,,47,47,4,5,0.7,0.8
2026-01-04T0700,1006A,116.3399,39.9293,北京市,官园,颗粒物(PM10),55,59,75,34,45,2,,,,58,57,5,6,0.7,0.8
2026-01-04T0700,1007A,116.2879,39.9613,北京市,海淀万柳,颗粒物(PM10),55,59,67,33,38,1,,,,57,60,3,4,0.9,0.8
2026-01-04T0700,1008A,116.6635,40.1349,北京市,顺义新城,,47,47,58,24,31,7,,,,40,40,4,5,0.6,0.6
2026-01-04T0700,1009A,116.6275,40.327,北京市,怀柔镇,,40,40,37,23,21,10,,,,37,28,7,6,0.6,0.6
2026-01-04T0700,1010A,116.2295,40.217,北京市,昌平镇,颗粒物(PM10),52,54,54,33,28,0,,,,46,45,5,5,0.9,0.8
2026-01-04T0700,1011A,116.3968,39.982,北京市,奥体中心,颗粒物(PM10),53,55,64,34,39,0,,,,68,67,5,6,0.8,1
2026-01-04T0700,3418A,116.8336,40.4095,北京市,密云新城,,29,29,41,16,23,31,,,,19,28,3,3,0.5,0.6
2026-01-04T0700,3671A,116.0879,39.9725,北京市,门头沟三家店,颗粒物(PM10),51,52,68,24,34,4,,,,38,41,3,4,0.7,0.7
2026-01-04T0700,3672A,116.1507,39.8246,北京市,丰台云岗,颗粒物(PM10),61,71,81,38,45,5,,,,55,55,3,4,0.7,0.7
2026-01-04T0700,3674A,115.9578,39.7602,北京市,房山燕山,颗粒物(PM10),58,65,68,40,40,4,,,,44,35,4,4,0.7,0.6
2026-01-04T0700,3675A,116.4669,39.7734,北京市,大兴旧宫,颗粒物(PM10),74,98,68,50,32,1,,,,73,52,4,3,1.1,0.8
2026-01-04T0700,3694A,115.9859,40.4562,北京市,延庆石河营,细颗粒物(PM2.5),53,53,54,37,34,3,,,,28,33,2,4,1.3,1.1
2026-01-04T0700,3695A,116.6151,40.3052,北京市,怀柔新城,,38,38,36,25,22,14,,,,25,22,4,4,0.4,0.4
2026-01-04T0700,3696A,116.2542,39.8764,北京市,丰台小屯,颗粒物(PM10),66,82,96,43,49,1,,,,67,66,4,5,1.0,1
2026-01-04T0700,3697A,116.8399,40.3843,北京市,密云镇,,38,38,49,23,29,2,,,,45,37,2,2,0.6,0.6
2026-01-04T0700,4057A,115.9423,40.4431,北京市,延庆百泉,细颗粒物(PM2.5),59,62,52,42,36,0,,,,33,36,1,3,1.0,0.9
2026-01-04T0700,4058A,116.6598,39.9164,北京市,通州新华,细颗粒物(PM2.5),73,91,76,53,38,0,,,,63,60,4,4,0.9,0.7
2026-01-04T0700,4182A,116.1942,39.9158,北京市,石景山八角,"颗粒物(PM10),细颗粒物(PM2.5)",64,77,81,46,43,4,,,,62,59,2,4,0.7,0.6
2026-01-04T0700,4194A,117.078628,40.151726,北京市,平谷新城,细颗粒物(PM2.5),64,62,84,46,57,5,,,,41,47,2,2,0.8,0.9
2026-01-04T0700,1761A,123.8274146,41.31234549,本溪市,大峪,颗粒物(PM10),62,74,90,38,54,2,,,,45,42,7,16,2.0,2.3
2026-01-04T0700,1763A,123.7169,41.3094,本溪市,彩屯,细颗粒物(PM2.5),176,172,121,133,85,1,,,,60,49,9,17,6.6,2.8
2026-01-04T0700,1764A,123.7672166,41.28649327,本溪市,东明,细颗粒物(PM2.5),72,86,103,52,69,3,,,,47,49,8,16,2.4,3.2
2026-01-04T0700,1765A,123.799345,41.266614,本溪市,新立屯,,25,18,63,17,43,3,,,,44,47,8,17,1.3,3
2026-01-04T0700,1766A,123.829144,41.336777,本溪市,威宁,颗粒物(PM10),76,102,110,54,68,5,,,,44,47,5,11,2.2,2
2026-01-04T0700,2587A,105.287,27.3133,毕节市,八中,,10,8,14,3,10,29,,,,9,12,8,9,0.8,0.8
2026-01-04T0700,2588A,105.3079,27.2987,毕节市,师专,,10,6,11,3,8,30,,,,7,11,7,7,0.9,0.8
2026-01-04T0700,4263A,105.3688,27.3598,毕节市,工业大道,,9,6,11,3,10,27,,,,5,9,9,9,/,/
2026-01-04T0700,1629A,117.9961,37.3604,滨州市,第二水厂,细颗粒物(PM2.5),159,183,148,121,95,1,,,,73,52,18,14,1.3,1.1
2026-01-04T0700,1630A,117.9789,37.3931,滨州市,北中新校,细颗粒物(PM2.5),192,171,144,144,114,5,,,,64,49,18,10,1.2,1.1
2026-01-04T0700,3514A,117.9379,37.3959,滨州市,中海酒店,细颗粒物(PM2.5),211,173,140,161,119,18,,,,54,51,9,10,1.1,1.3
2026-01-04T0700,3515A,117.9381509,37.35547456,滨州市,开发区一中,细颗粒物(PM2.5),199,168,141,149,120,1,,,,69,42,20,15,1.3,1
2026-01-04T0700,3516A,118.0914,37.6938,滨州市,金海六路,细颗粒物(PM2.5),203,190,162,153,127,4,,,,84,61,13,16,1.6,1.3
2026-01-04T0700,4028A,117.9955,37.3752,滨州市,滨州市西街道办事处,细颗粒物(PM2.5),213,197,153,163,129,0,,,,61,46,14,13,1.5,1.3
2026-01-04T0700,2311A,115.8071,33.8399,亳州市,污水处理厂,细颗粒物(PM2.5),107,88,69,80,59,2,,,,65,30,6,5,0.6,0.4
2026-01-04T0700,2312A,115.7789,33.8519,亳州市,三国揽胜宫,细颗粒物(PM2.5),94,89,73,70,52,2,,,,49,20,4,3,0.6,0.5
2026-01-04T0700,3332A,115.7631,33.803,亳州市,亳州学院,细颗粒物(PM2.5),93,89,72,69,57,20,,,,37,21,4,4,0.5,0.4
2026-01-04T0700,2693A,82.0482,44.8553,博尔塔拉蒙古自治州,市党校,颗粒物(PM10),75,99,90,46,46,31,,,,22,22,2,4,1.1,1.1
2026-01-04T0700,2694A,82.0805,44.8966,博尔塔拉蒙古自治州,市环保局,颗粒物(PM10),92,134,102,58,47,22,,,,31,30,9,8,1.0,1
2026-01-04T0700,1071A,116.8733,38.2922,沧州市,沧县城建局,细颗粒物(PM2.5),238,203,161,188,147,6,,,,76,54,8,4,1.8,1.2
2026-01-04T0700,1072A,116.8462,38.3189,沧州市,电视转播站,细颗粒物(PM2.5),213,188,155,163,136,1,,,,55,47,6,9,1.2,1
2026-01-04T0700,1073A,116.8588,38.3161,沧州市,市环保局,细颗粒物(PM2.5),229,183,156,179,139,5,,,,62,43,7,7,1.3,1
2026-01-04T0700,3324A,116.8011,38.294,沧州市,河北水利电力学院,细颗粒物(PM2.5),200,197,173,150,125,3,,,,66,52,12,10,1.3,1.1
2026-01-04T0700,2622A,97.1813,31.1289,昌都市,昌都监测站,,20,19,30,3,10,62,,,,2,10,1,2,0.2,0.3
2026-01-04T0700,3719A,97.1707,31.1428,昌都市,昌都会议中心,,18,8,12,6,7,56,,,,2,2,2,2,0.4,0.4
2026-01-04T0700,2692A,87.2722,44.0298,昌吉回族自治州,新区政务中心,"颗粒物(PM10),细颗粒物(PM2.5)",69,87,115,50,75,4,,,,54,52,7,7,1.1,1.2
2026-01-04T0700,3613A,87.3069,44.0093,昌吉回族自治州,亚心广场,细颗粒物(PM2.5),100,124,134,75,85,9,,,,51,49,7,7,1.3,1.4
2026-01-04T0700,4164A,87.2057,43.9289,昌吉回族自治州,财政所,"颗粒物(PM10),细颗粒物(PM2.5)",58,66,79,41,49,62,,,,10,19,5,5,0.7,0.6
2026-01-04T0700,1120A,125.2874,43.9024,长春市,客车厂,细颗粒物(PM2.5),127,,94,96,97,8,,,,63,52,18,16,1.5,1.1
2026-01-04T0700,1121A,125.2943,43.8508,长春市,邮电学院,细颗粒物(PM2.5),104,105,110,78,84,7,,,,56,49,26,16,1.6,1.1
2026-01-04T0700,1122A,125.3648,43.8745,长春市,劳动公园,细颗粒物(PM2.5),115,122,108,87,80,5,,,,58,51,7,9,1.9,1.4
2026-01-04T0700,1123A,125.3233,43.8781,长春市,园林处,,,,97,,78,,,,,,44,,13,,0.9
2026-01-04T0700,1124A,125.4604,43.7904,长春市,净月潭,细颗粒物(PM2.5),100,91,105,75,74,24,,,,30,35,6,9,1.2,1.1
2026-01-04T0700,1126A,125.38,43.8422,长春市,经开区环卫处,细颗粒物(PM2.5),118,124,124,89,84,3,,,,58,54,7,9,1.7,1.2
2026-01-04T0700,1127A,125.234,43.7761,长春市,高新区管委会,细颗粒物(PM2.5),180,,120,136,110,5,,,,53,51,8,10,2.1,1.5
2026-01-04T0700,1128A,125.1695,43.83,长春市,岱山公园,细颗粒物(PM2.5),105,100,105,79,94,8,,,,58,50,17,13,1.8,1.2
2026-01-04T0700,4281A,125.334645,43.916281,长春市,北亚泰大街1068号,细颗粒物(PM2.5),109,89,94,82,83,6,,,,62,51,12,17,1.5,1.1
2026-01-04T0700,1335A,113.082,28.2421,长沙市,经开区环保局,,,,57,,47,,,32,,,23,,3,,0.5
2026-01-04T0700,1336A,112.8873,28.2202,长沙市,高开区环保局,,,,61,,55,,,39,,,22,,4,,0.7
2026-01-04T0700,1337A,113.0785,28.2012,长沙市,马坡岭,,,,55,,46,,,36,,,27,,4,,0.8
2026-01-04T0700,1338A,112.9448,28.1894,长沙市,湖南师范大学,,,,59,,44,,,40,,,28,,4,,0.6
2026-01-04T0700,1339A,113.0177,28.1322,长沙市,雨花区环保局,,,,56,,43,,,44,,,24,,7,,0.5
2026-01-04T0700,1340A,112.9795,28.2593,长沙市,伍家岭,,,,64,,47,,,31,,,22,,4,,0.5
2026-01-04T0700,1341A,113.002,28.1944,长沙市,火车新站,细颗粒物(PM2.5),70,,59,51,47,18,,,,19,23,8,7,0.5,0.4
2026-01-04T0700,1342A,112.9846,28.1177,长沙市,天心区环保局,,,,55,,43,,,47,,,30,,5,,0.6
2026-01-04T0700,1343A,112.8906,28.1307,长沙市,湖南中医药大学,,,,56,,47,,,45,,,28,,5,,0.6
2026-01-04T0700,1727A,113.1146,36.1547,长治市,清华站,细颗粒物(PM2.5),64,48,90,46,80,43,,,,23,53,14,19,1.1,1.2
2026-01-04T0700,1730A,113.0887,36.2126,长治市,审计局,细颗粒物(PM2.5),64,,84,46,79,38,,,,23,51,10,19,0.7,1.1
2026-01-04T0700,1731A,113.0845,36.1856,长治市,长治八中,细颗粒物(PM2.5),62,55,110,44,92,37,,,,18,45,10,19,0.9,1.3
2026-01-04T0700,2845A,113.1561,36.1912,长治市,德盛苑,细颗粒物(PM2.5),67,,67,48,66,31,,,,29,34,10,14,0.9,1
2026-01-04T0700,3568A,113.0603,36.0464,长治市,向阳小学,细颗粒物(PM2.5),88,80,100,65,74,47,,,,24,46,14,22,1.6,1.2
2026-01-04T0700,3569A,112.8788,36.315,长治市,屯留一中,细颗粒物(PM2.5),90,70,73,67,70,40,,,,29,39,2,17,1.0,0.8
2026-01-04T0700,4189A,113.113092,36.199482,长治市,英华南巷50号,细颗粒物(PM2.5),70,,95,51,84,40,,,,21,48,9,15,0.7,1.1
2026-01-04T0700,4190A,113.23666,36.33435,长治市,学府街1号,细颗粒物(PM2.5),93,,83,69,78,18,,,,46,50,20,18,1.8,1.7
2026-01-04T0700,1854A,111.696,28.9725,常德市,市二中,细颗粒物(PM2.5),79,,68,58,64,31,,,,14,19,4,4,0.6,0.6
2026-01-04T0700,3138A,111.7152,29.0288,常德市,武陵区永安,细颗粒物(PM2.5),64,49,74,46,60,34,,,,16,16,3,3,0.6,0.7
2026-01-04T0700,3139A,111.6891,28.9881,常德市,鼎城区玉霞,细颗粒物(PM2.5),65,,66,47,63,32,,,,17,20,7,7,0.7,0.7
2026-01-04T0700,3140A,111.6651,29.0526,常德市,武陵区长庚,细颗粒物(PM2.5),53,42,73,37,65,32,,,,16,19,3,3,0.7,0.7
2026-01-04T0700,1196A,119.9524,31.7586,常州市,市监测站,细颗粒物(PM2.5),102,104,94,76,63,2,,,,85,61,4,5,0.9,0.9
2026-01-04T0700,1200A,119.9351,31.703,常州市,武进监测站,细颗粒物(PM2.5),107,106,78,80,60,2,,,,86,48,8,9,1.2,0.7
2026-01-04T0700,3002A,119.9701,31.813,常州市,行政中心,细颗粒物(PM2.5),95,94,75,71,54,2,,,,79,52,8,7,0.7,0.8
2026-01-04T0700,3003A,120.0434,31.7726,常州市,经开区,细颗粒物(PM2.5),115,129,101,87,61,4,,,,76,51,10,7,1.1,1.1
2026-01-04T0700,3010A,119.8919,31.7892,常州市,钟楼,细颗粒物(PM2.5),99,91,72,74,54,5,,,,80,49,8,9,0.9,0.8
2026-01-04T0700,3429A,119.8595,31.706,常州市,武进经发区,细颗粒物(PM2.5),112,106,77,84,62,,,,,87,52,9,11,1.2,0.8
2026-01-04T0700,3430A,119.5812,31.7256,常州市,金坛城区,细颗粒物(PM2.5),108,99,82,81,68,7,,,,64,33,12,10,1.0,0.9
2026-01-04T0700,4089A,119.9551,31.863,常州市,崇义南街5-H号,细颗粒物(PM2.5),109,102,72,82,57,0,,,,82,58,6,6,0.9,0.8
2026-01-04T0700,2220A,120.4318,41.588,朝阳市,西梁,细颗粒物(PM2.5),104,136,135,78,81,1,,,,45,46,16,20,2.1,1.8
2026-01-04T0700,2221A,120.452,41.565,朝阳市,河畔小区,细颗粒物(PM2.5),82,76,85,60,63,2,,,,44,40,9,16,1.6,1.4
2026-01-04T0700,2222A,120.4176,41.5648,朝阳市,八里堡,细颗粒物(PM2.5),88,102,106,65,72,3,,,,43,47,14,20,1.8,1.8
2026-01-04T0700,3026A,116.6179,23.6608,潮州市,市政府,,48,45,44,33,27,34,,,,20,12,9,7,0.4,0.4
2026-01-04T0700,4036A,116.646,23.676,潮州市,金山,,43,34,40,30,29,37,,,,12,10,3,4,0.3,0.3
2026-01-04T0700,2473A,113.0116,25.8228,郴州市,市职中,细颗粒物(PM2.5),67,53,46,48,42,5,,,,16,15,3,4,0.6,0.5
2026-01-04T0700,2475A,113.0381,25.8074,郴州市,市审计局,细颗粒物(PM2.5),60,55,48,43,42,7,,,,22,16,1,3,/,/
2026-01-04T0700,2476A,113.0348,25.7757,郴州市,市环保局,细颗粒物(PM2.5),64,50,56,46,39,5,,,,23,22,3,4,0.6,0.6
2026-01-04T0700,4252A,113.0138,25.8011,郴州市,好美居路49号,细颗粒物(PM2.5),68,55,51,49,46,8,,,,17,18,3,5,/,/
2026-01-04T0700,1431A,103.9727,30.7242,成都市,金泉两河,,32,32,20,16,6,1,,,,31,28,2,2,0.7,0.6
2026-01-04T0700,1432A,104.1423,30.6765,成都市,十里店,,26,20,16,18,9,11,,,,31,27,3,3,0.6,0.6
2026-01-04T0700,1433A,104.0594,30.5765,成都市,三瓦窑,,48,45,20,33,10,1,,,,36,29,3,3,0.7,0.6
2026-01-04T0700,1434A,104.1122,30.6306,成都市,沙河铺,,44,44,23,30,14,6,,,,33,29,4,3,0.6,0.6
2026-01-04T0700,2880A,104.0219,30.6561,成都市,大石西路,,35,35,25,17,18,8,,,,27,27,4,4,0.6,0.5
2026-01-04T0700,3136A,104.2724,30.559,成都市,龙泉驿区区政府,,25,,9,17,8,1,,,,29,20,6,6,0.7,0.7
2026-01-04T0700,3357A,104.0028,30.6891,成都市,金博路,,28,,11,19,8,10,,,,28,29,5,4,0.8,0.8
2026-01-04T0700,3359A,104.056,30.5228,成都市,华阳,,32,24,14,22,11,11,,,,27,30,3,3,0.6,0.6
2026-01-04T0700,3488A,104.387954,30.746684,成都市,青石路225号,,49,,20,34,15,0,,,,27,23,6,6,0.6,0.7
2026-01-04T0700,3489A,104.0788,30.4054,成都市,科学城,,39,31,13,27,11,4,,,,23,21,6,5,0.9,0.8
2026-01-04T0700,4011A,103.8505,30.6946,成都市,光华大道三段,,,,17,,6,,,34,,,23,,2,,0.7
2026-01-04T0700,4144A,104.3257,30.6406,成都市,八角井街185号,,35,35,26,20,13,5,,,,27,23,3,4,1.1,1
2026-01-04T0700,4224A,104.2433276,30.53529463,成都市,鲸龙路1057号,,25,21,19,17,13,2,,,,28,25,5,5,0.5,0.4
2026-01-04T0700,1062A,117.9531,40.908,承德市,铁路,颗粒物(PM10),65,79,68,41,37,2,,,,40,39,6,11,1.5,1.3
2026-01-04T0700,1063A,117.9397,40.9763,承德市,中国银行,颗粒物(PM10),63,76,73,37,36,5,,,,30,31,3,6,0.9,1.1
2026-01-04T0700,4073A,117.9462,40.95,承德市,杏林街1号,颗粒物(PM10),56,61,65,36,41,1,,,,37,37,5,10,1.0,1.3
2026-01-04T0700,4274A,117.7994,40.9605,承德市,滨河大街98号,颗粒物(PM10),80,110,78,50,31,4,,,,45,41,9,25,1.8,1.4
2026-01-04T0700,2314A,117.4698,30.6617,池州市,池州学院,细颗粒物(PM2.5),94,78,81,70,68,31,,,,27,29,6,6,0.9,0.7
2026-01-04T0700,3237A,117.4918,30.6617,池州市,展览馆,细颗粒物(PM2.5),83,74,71,61,56,32,,,,28,32,2,4,1.1,1
2026-01-04T0700,3333A,117.5626,30.695,池州市,第八中学,细颗粒物(PM2.5),93,84,75,69,61,35,,,,29,33,4,4,1.0,0.8
2026-01-04T0700,3334A,117.5037,30.6242,池州市,第十二中学,细颗粒物(PM2.5),79,71,77,58,60,13,,,,43,40,2,4,1.2,1.2
2026-01-04T0700,1744A,118.9229,42.2816,赤峰市,松山一中,细颗粒物(PM2.5),62,55,96,44,54,7,,,,44,55,23,29,1.7,1.9
2026-01-04T0700,1745A,118.9588,42.2733,赤峰市,哈达街,,39,38,91,27,53,18,,,,30,48,12,32,1.1,1.6
2026-01-04T0700,1746A,118.8792,42.2551,赤峰市,天义路,,35,33,74,24,62,17,,,,34,49,18,20,0.9,1.5
2026-01-04T0700,3058A,119.2656,42.0356,赤峰市,银河街,细颗粒物(PM2.5),144,145,144,110,96,4,,,,39,41,19,31,3.7,2.8
2026-01-04T0700,3286A,118.9359,42.3146,赤峰市,桥北物流园区,,43,38,69,30,57,4,,,,37,44,12,21,1.2,1.4
2026-01-04T0700,2521A,107.3473,22.4137,崇左市,市环保局江州分局,细颗粒物(PM2.5),62,64,47,44,31,24,,,,15,17,7,8,0.7,0.7
2026-01-04T0700,4256A,107.375,22.3736,崇左市,石景林东路7号,细颗粒物(PM2.5),67,53,37,48,31,23,,,,21,19,8,8,0.6,0.6
2026-01-04T0700,3207A,118.31131,32.3033,滁州市,市政府原办公楼,细颗粒物(PM2.5),84,85,69,62,51,6,,,,58,47,9,6,0.8,0.8
2026-01-04T0700,3331A,118.3268,32.2633,滁州市,图书馆,细颗粒物(PM2.5),83,67,63,61,59,5,,,,61,51,12,10,0.8,1
2026-01-04T0700,4101A,118.3196,32.3335,滁州市,银山路666号,细颗粒物(PM2.5),89,,63,66,63,0,,,,40,39,8,9,0.9,1.1
2026-01-04T0700,4102A,118.3426,32.2979,滁州市,黄山路555号,细颗粒物(PM2.5),105,88,77,79,63,4,,,,52,48,13,12,0.9,1
2026-01-04T0700,2606A,101.5379,25.0492,楚雄彝族自治州,市经济开发区,,20,15,22,14,17,11,,,,11,18,4,4,0.4,0.6
2026-01-04T0700,4153A,101.5536,25.0343,楚雄彝族自治州,团结路562号,,16,,18,11,15,14,,,,10,11,1,2,0.4,0.5
2026-01-04T0700,2549A,107.5087,31.2186,达州市,市环境监测站,细颗粒物(PM2.5),67,60,50,48,37,2,,,,28,29,5,5,0.5,0.4
2026-01-04T0700,2550A,107.4988,31.2132,达州市,凤凰小区,细颗粒物(PM2.5),67,63,55,48,42,5,,,,26,25,3,4,0.5,0.4
2026-01-04T0700,2551A,107.5081,31.1987,达州市,达县机关宾馆,细颗粒物(PM2.5),79,78,57,58,42,3,,,,32,31,2,2,0.7,0.6
2026-01-04T0700,2552A,107.4644,31.2124,达州市,市政中心,细颗粒物(PM2.5),67,71,61,48,40,8,,,,33,26,5,5,0.4,0.3
2026-01-04T0700,2614A,100.2168,25.5818,大理白族自治州,大理市环境监测站,,17,13,15,11,16,53,,,,6,11,6,6,0.5,0.5
2026-01-04T0700,2615A,100.1542,25.7055,大理白族自治州,大理古城,,29,,19,20,10,65,,,,9,6,9,8,0.6,0.5
2026-01-04T0700,1109A,121.6119,38.974,大连市,甘井子,,29,29,57,13,37,54,,,,26,27,12,11,0.3,0.4
2026-01-04T0700,1110A,121.565,38.9509,大连市,周水子,,34,34,62,17,44,22,,,,47,45,10,11,0.6,0.8
2026-01-04T0700,1111A,121.5637,38.8849,大连市,星海三站,,28,28,51,16,38,28,,,,33,25,11,10,0.9,0.9
2026-01-04T0700,1112A,121.6301,38.9117,大连市,青泥洼桥,,32,31,42,22,45,14,,,,53,44,8,11,0.6,0.8
2026-01-04T0700,1113A,121.6248,38.8643,大连市,傅家庄,,23,23,52,10,35,52,,,,22,30,10,12,0.2,0.4
2026-01-04T0700,1114A,121.5117,38.8636,大连市,七贤岭,,32,32,49,19,31,53,,,,18,20,8,9,0.8,0.7
2026-01-04T0700,1116A,121.7507,39.1339,大连市,金州,,50,44,55,35,39,76,,,,12,24,10,10,0.3,0.5
2026-01-04T0700,1117A,121.7811,39.0495,大连市,开发区,颗粒物(PM10),51,52,79,26,52,5,,,,62,48,8,8,1.0,1
2026-01-04T0700,1118A,121.9762,39.0631,大连市,双D港,,24,16,47,9,33,75,,,,8,20,12,14,0.4,0.8
2026-01-04T0700,4082A,121.2548,38.8188,大连市,旅顺,细颗粒物(PM2.5),52,48,72,36,55,31,,,,22,21,23,9,0.9,0.9
2026-01-04T0700,1789A,124.8085,46.0381,大庆市,大同区,,31,31,45,14,30,54,,,,8,22,5,6,0.3,0.4
2026-01-04T0700,1790A,125.1166,46.5255,大庆市,龙凤区,,20,15,37,14,25,44,,,,30,31,8,12,0.4,0.8
2026-01-04T0700,1791A,124.8894,46.4007,大庆市,红岗区,,26,26,31,18,21,45,,,,18,21,6,7,0.5,0.5
2026-01-04T0700,1792A,125.1391,46.578,大庆市,萨尔图区,,13,12,38,8,23,39,,,,24,26,12,9,0.4,0.5
2026-01-04T0700,1793A,124.9026,46.6217,大庆市,让胡路区,,28,,32,19,29,59,,,,9,14,9,8,0.4,0.5
2026-01-04T0700,3481A,125.127,46.6277,大庆市,萨区政府监测点,,16,15,34,3,17,51,,,,15,26,8,9,0.6,0.8
2026-01-04T0700,1723A,113.2926,40.0759,大同市,云冈宾馆,,34,34,105,19,54,29,,,,30,57,15,20,1.7,2.2
2026-01-04T0700,1724A,113.3437,40.0921,大同市,大同大学,,29,29,71,12,39,43,,,,21,53,8,18,1.1,1.4
2026-01-04T0700,1725A,113.2637,40.129,大同市,安家小村,颗粒物(PM10),52,54,107,21,51,22,,,,39,54,15,23,1.6,2.2
2026-01-04T0700,3282A,113.3399,40.0586,大同市,大同市卫生学校,,29,29,91,16,48,41,,,,25,59,10,19,1.5,1.6
2026-01-04T0700,3565A,113.1371,40.1122,大同市,云冈站,颗粒物(PM10),53,56,83,24,38,4,,,,52,49,17,21,1.2,1.3
2026-01-04T0700,3566A,113.1186,40.2556,大同市,图书馆,细颗粒物(PM2.5),79,86,103,58,72,7,,,,36,45,13,19,1.8,2
2026-01-04T0700,3567A,113.5931,40.0459,大同市,区一中,颗粒物(PM10),70,90,100,43,50,12,,,,49,50,19,33,1.7,1.4
2026-01-04T0700,4199A,113.2798248,40.09972476,大同市,魏都大道141号,颗粒物(PM10),53,55,129,23,55,24,,,,39,53,11,19,1.7,2.4
2026-01-04T0700,2269A,124.1068,50.4091,大兴安岭地区,科技局,,18,,15,12,13,54,,,,4,2,4,5,0.3,0.3
2026-01-04T0700,3663A,124.117,50.4279,大兴安岭地区,红旗社区,,21,,6,6,5,65,,,,2,4,5,5,0.2,0.2
2026-01-04T0700,1600A,124.33,40.0625,丹东市,江湾东路,细颗粒物(PM2.5),67,57,81,48,66,13,,,,36,36,20,20,1.5,1.9
2026-01-04T0700,1601A,124.4242,40.1513,丹东市,临江后街,细颗粒物(PM2.5),72,74,75,52,52,5,,,,53,37,42,14,1.8,1.5
2026-01-04T0700,1602A,124.3935,40.1461,丹东市,元宝山,细颗粒物(PM2.5),94,85,59,70,49,4,,,,44,34,15,14,1.8,1.2
2026-01-04T0700,1603A,124.3634,40.1093,丹东市,民主桥,细颗粒物(PM2.5),62,70,73,44,52,4,,,,49,37,13,16,1.2,1.1
2026-01-04T0700,3541A,109.5726195,19.51688767,儋州市,第一中学子站,,37,37,37,20,20,60,,,,6,6,3,4,0.5,0.5
2026-01-04T0700,3542A,109.5567,19.5187,儋州市,东坡学校子站,,35,35,36,19,18,54,,,,9,6,4,4,0.5,0.5
2026-01-04T0700,2616A,98.5611,24.4273,德宏傣族景颇族自治州,德宏州监测站,,33,27,34,23,31,2,,,,19,19,6,6,0.7,0.7
2026-01-04T0700,3677A,98.5887,24.4366,德宏傣族景颇族自治州,芒市人民政府综合楼,,39,,39,27,27,4,,,,18,14,8,9,0.7,0.8
2026-01-04T0700,1901A,104.424,31.1209,德阳市,东山公园,,42,,14,29,14,5,,,,23,16,2,2,0.8,0.7
2026-01-04T0700,1902A,104.3827,31.1318,德阳市,西小区,,40,40,30,24,16,6,,,,32,22,1,2,0.9,0.9
2026-01-04T0700,1904A,104.3553,31.1091,德阳市,耐火材料厂,,42,36,22,29,18,0,,,,34,27,1,1,0.8,0.8
2026-01-04T0700,4145A,104.4144,31.1495,德阳市,市林业局,,33,28,22,23,13,2,,,,24,17,2,2,0.8,0.7
2026-01-04T0700,1622A,116.3034,37.4675,德州市,儿童乐园,细颗粒物(PM2.5),140,146,151,107,118,25,,,,44,42,22,15,1.5,1.4
2026-01-04T0700,1624A,116.2992,37.4449,德州市,监理站,细颗粒物(PM2.5),147,129,148,112,120,28,,,,51,47,20,16,1.2,1.1
2026-01-04T0700,3066A,116.2722,37.438,德州市,九衢泉纯净水厂,细颗粒物(PM2.5),140,124,153,107,127,11,,,,54,48,13,23,1.1,1
2026-01-04T0700,3371A,116.3693,37.44,德州市,开发区人民医院,细颗粒物(PM2.5),134,139,154,102,114,23,,,,63,60,20,16,1.0,0.9
2026-01-04T0700,3511A,116.5687,37.3331,德州市,陵城艺术中心,细颗粒物(PM2.5),168,149,153,127,126,5,,,,73,56,17,19,1.2,1.2
2026-01-04T0700,4292A,116.352738,37.420875,德州市,新河东路,细颗粒物(PM2.5),156,132,154,119,129,6,,,,72,65,16,15,1.4,1.3
2026-01-04T0700,2621A,99.7054,27.8319,迪庆藏族自治州,迪庆州站,,22,15,18,15,12,60,,,,6,6,5,5,0.3,0.3
2026-01-04T0700,3180A,99.7122,27.8129,迪庆藏族自治州,质量技术监督局,,25,,17,17,13,69,,,,6,6,5,6,0.4,0.4
2026-01-04T0700,4257A,104.6092,35.5962,定西市,将台街,细颗粒物(PM2.5),70,66,71,51,54,13,,,,38,26,7,8,0.5,0.6
2026-01-04T0700,4309A,104.6159,35.5701,定西市,正龙路62号,细颗粒物(PM2.5),75,77,71,55,56,34,,,,8,14,5,5,0.8,0.8
2026-01-04T0700,1390A,113.7943,23.0132,东莞市,东城石井,"颗粒物(PM10),细颗粒物(PM2.5)",60,69,46,43,28,2,,,,64,30,9,9,0.9,0.7
2026-01-04T0700,1391A,113.7384,22.9659,东莞市,南城西平,细颗粒物(PM2.5),64,72,54,46,32,0,,,,70,52,10,10,0.8,0.7
2026-01-04T0700,3319A,113.7283,23.041,东莞市,万江金泰,颗粒物(PM10),61,71,52,40,30,21,,,,49,32,7,6,0.8,0.7
2026-01-04T0700,4129A,113.8666,23.1062,东莞市,裕兴路,颗粒物(PM10),56,62,57,38,33,21,,,,43,32,11,8,0.7,0.7
2026-01-04T0700,4130A,114.0076,22.9739,东莞市,教育路1号,颗粒物(PM10),71,92,63,51,34,2,,,,68,48,6,6,1.0,0.9
2026-01-04T0700,4131A,113.7981,22.8124,东莞市,长怡路1号,颗粒物(PM10),65,79,61,40,30,16,,,,70,41,9,8,0.8,0.7
2026-01-04T0700,1666A,118.6612,37.4313,东营市,市环保局,细颗粒物(PM2.5),188,173,136,141,105,3,,,,81,64,27,20,1.4,1.3
2026-01-04T0700,3036A,118.6903,37.4337,东营市,开发区管委会,细颗粒物(PM2.5),185,170,137,139,103,3,,,,90,68,28,22,1.5,1.3
2026-01-04T0700,3365A,118.5721,37.5654,东营市,垦利区民丰路,细颗粒物(PM2.5),180,163,138,136,105,1,,,,72,58,11,11,1.4,1.3
2026-01-04T0700,3498A,118.5063,37.8606,东营市,河口城区,细颗粒物(PM2.5),170,188,150,129,109,6,,,,69,46,6,6,1.6,1.2
2026-01-04T0700,3646A,118.4979,37.4623,东营市,胜利站,细颗粒物(PM2.5),206,183,150,156,114,1,,,,82,71,20,17,1.6,1.6
2026-01-04T0700,3734A,118.5753,37.4405,东营市,理想之城,细颗粒物(PM2.5),185,168,137,139,107,1,,,,92,68,16,12,1.6,1.4
2026-01-04T0700,1591A,110.0024,39.8127,鄂尔多斯市,综合楼,,48,48,40,17,22,43,,,,24,37,11,12,0.6,0.8
2026-01-04T0700,1592A,109.9485,39.8259,鄂尔多斯市,巴音孟克林场办事处,颗粒物(PM10),57,63,39,12,16,43,,,,25,34,12,10,0.6,0.7
2026-01-04T0700,1593A,109.7734,39.5987,鄂尔多斯市,康泽苑,,24,24,28,12,16,60,,,,10,16,5,5,0.3,0.4
2026-01-04T0700,1594A,109.8121,39.5987,鄂尔多斯市,华泰汽车城,,39,39,31,17,15,46,,,,19,22,3,3,0.5,0.4
2026-01-04T0700,1595A,109.9734,39.7884,鄂尔多斯市,奥林花园,颗粒物(PM10),56,61,44,14,15,48,,,,21,34,6,6,0.6,0.7
2026-01-04T0700,2436A,114.894,30.3989,鄂州市,市政府,细颗粒物(PM2.5),54,47,48,38,43,49,,,,19,23,6,6,0.6,0.7
2026-01-04T0700,2437A,114.8986,30.3714,鄂州市,赵家坝,细颗粒物(PM2.5),65,,56,47,45,47,,,,11,18,6,8,0.4,0.4
2026-01-04T0700,3654A,114.8093,30.4091,鄂州市,精准医疗中心,细颗粒物(PM2.5),74,57,58,54,50,55,,,,12,19,4,4,0.8,0.9
2026-01-04T0700,2454A,109.4978,30.2979,恩施土家族苗族自治州,湖北民院,细颗粒物(PM2.5),57,,42,40,44,32,,,,10,12,6,6,0.7,0.6
2026-01-04T0700,3549A,109.5061,30.3771,恩施土家族苗族自治州,龙凤新区,细颗粒物(PM2.5),54,40,50,38,45,8,,,,6,10,7,7,0.5,0.5
2026-01-04T0700,2499A,108.3411,21.6159,防城港市,沙万,颗粒物(PM10),96,142,66,56,39,30,,,,39,25,14,7,1.4,0.8
2026-01-04T0700,2500A,108.3515,21.7733,防城港市,防城档案局,细颗粒物(PM2.5),78,78,68,57,42,27,,,,20,24,6,5,0.8,0.7
2026-01-04T0700,2501A,108.3506,21.6414,防城港市,大海花园,细颗粒物(PM2.5),70,72,53,51,35,33,,,,27,19,17,9,1.6,1
2026-01-04T0700,1371A,113.1293,23.0065,佛山市,湾梁,细颗粒物(PM2.5),78,80,56,57,34,1,,,,74,51,/,/,/,/
2026-01-04T0700,1372A,113.1082,23.0477,佛山市,华材职中,颗粒物(PM10),76,102,68,55,33,5,,,,72,53,7,6,0.9,0.7
2026-01-04T0700,1373A,113.1439,23.045,佛山市,南海气象局,细颗粒物(PM2.5),73,74,60,53,32,1,,,,76,54,/,/,/,/
2026-01-04T0700,1374A,113.2879,22.8094,佛山市,顺德苏岗,细颗粒物(PM2.5),67,67,49,48,34,0,,,,78,48,/,/,0.9,0.7
2026-01-04T0700,1376A,112.8384,22.8678,佛山市,高明孔堂,细颗粒物(PM2.5),62,65,52,44,35,8,,,,43,34,/,/,/,/
2026-01-04T0700,1377A,112.8835,23.1584,佛山市,三水监测站,细颗粒物(PM2.5),87,100,69,64,43,3,,,,65,48,17,8,0.8,0.6
2026-01-04T0700,1378A,112.8668,23.185,佛山市,三水云东海,细颗粒物(PM2.5),77,67,62,56,38,0,,,,49,33,/,/,/,/
2026-01-04T0700,3625A,113.2568,22.7629,佛山市,容桂街道办,细颗粒物(PM2.5),79,92,56,58,35,2,,,,79,40,/,/,/,/
2026-01-04T0700,1282A,119.2681,26.0506,福州市,师大,,32,32,30,14,21,53,,,,24,23,10,8,0.6,0.5
2026-01-04T0700,1283A,119.2983,26.1028,福州市,五四北路,,31,31,25,11,16,47,,,,24,18,5,5,0.6,0.5
2026-01-04T0700,1284A,119.2648,26.0769,福州市,杨桥西路,,29,29,29,10,17,55,,,,16,14,5,5,/,/
2026-01-04T0700,3048A,119.5799,26.0937,福州市,九龙,,21,21,26,6,18,63,,,,13,17,5,6,0.5,0.5
2026-01-04T0700,3526A,119.5188,25.9666,福州市,吴航,,29,29,28,15,20,40,,,,34,18,6,6,0.7,0.5
2026-01-04T0700,4104A,119.3106,26.0648,福州市,路通桥巷6号,,,21,33,15,20,,,,,14,14,/,/,/,/
2026-01-04T0700,1755A,123.7974,41.8494,抚顺市,望花区,细颗粒物(PM2.5),128,132,139,97,102,4,,,,55,58,7,14,2.0,2.2
2026-01-04T0700,1756A,123.9161,41.8827,抚顺市,顺城区,细颗粒物(PM2.5),102,116,116,76,84,4,,,,60,56,9,14,1.8,1.9
2026-01-04T0700,1757A,124.0437,41.8615,抚顺市,东洲区,细颗粒物(PM2.5),137,109,104,104,84,4,,,,51,53,5,19,2.0,2
2026-01-04T0700,1758A,123.9246,41.8638,抚顺市,新抚区,细颗粒物(PM2.5),124,119,122,94,88,2,,,,52,53,7,11,1.9,1.8
2026-01-04T0700,1759A,124.0972,41.8961,抚顺市,大伙房水库,细颗粒物(PM2.5),103,103,95,77,70,4,,,,52,47,13,17,1.7,1.8
2026-01-04T0700,1760A,123.708,41.8386,抚顺市,沈抚新城,细颗粒物(PM2.5),125,125,132,95,105,9,,,,55,59,8,15,2.3,2.1
2026-01-04T0700,2377A,116.3544,27.9833,抚州市,市站,,49,49,50,33,37,38,,,,15,13,10,10,0.5,0.4
2026-01-04T0700,2378A,116.3562,27.9631,抚州市,血防站,颗粒物(PM10),53,55,56,32,37,35,,,,17,18,6,9,0.7,0.7
2026-01-04T0700,2379A,116.3561,28.0007,抚州市,采茶剧团,细颗粒物(PM2.5),53,50,54,37,37,36,,,,11,10,5,9,0.7,0.6
2026-01-04T0700,2380A,116.3854,27.9648,抚州市,医学分院,颗粒物(PM10),52,54,53,35,34,41,,,,14,13,5,9,0.6,0.6
2026-01-04T0700,2207A,121.6095,41.9978,阜新市,工业园区,颗粒物(PM10),95,140,117,61,67,3,,,,37,37,16,22,1.2,1.1
2026-01-04T0700,2208A,121.6567,42.0188,阜新市,长青街,细颗粒物(PM2.5),88,93,76,65,60,1,,,,43,37,11,12,1.2,1
2026-01-04T0700,2209A,121.6672,42.07,阜新市,农业园区,颗粒物(PM10),52,53,56,29,36,40,,,,17,22,16,19,0.5,0.6
2026-01-04T0700,2211A,121.6343,42.0455,阜新市,玉龙新城,颗粒物(PM10),77,104,103,42,63,6,,,,47,42,11,10,0.9,1
2026-01-04T0700,2301A,115.8276,32.8929,阜阳市,市监测站,细颗粒物(PM2.5),95,77,79,71,61,18,,,,41,33,5,4,0.7,0.7
2026-01-04T0700,2303A,115.8551,32.8606,阜阳市,开发区,细颗粒物(PM2.5),83,74,63,61,53,19,,,,38,30,5,4,0.6,0.5
2026-01-04T0700,2875A,115.783962,32.889217,阜阳市,阜阳职业技术学院,细颗粒物(PM2.5),75,68,59,55,49,50,,,,21,18,7,6,0.7,0.6
2026-01-04T0700,3468A,115.79,32.8614,阜阳市,市规划展馆,细颗粒物(PM2.5),82,87,65,60,53,38,,,,26,20,7,6,0.5,0.4
2026-01-04T0700,3469A,115.835101,32.918568,阜阳市,枣园社区,细颗粒物(PM2.5),94,90,74,70,62,20,,,,44,36,7,5,0.4,0.4
2026-01-04T0700,2669A,102.9097,34.9841,甘南藏族自治州,州政府,细颗粒物(PM2.5),73,60,59,53,51,37,,,,19,20,2,3,0.8,0.8
2026-01-04T0700,3380A,102.8915,34.9618,甘南藏族自治州,甘肃民族师范学院,细颗粒物(PM2.5),67,69,69,48,49,39,,,,23,24,3,3,0.5,0.6
2026-01-04T0700,2570A,101.96,30.048,甘孜藏族自治州,水桥子,,15,6,9,3,5,48,,,,8,13,6,6,0.7,0.6
2026-01-04T0700,3065A,101.9534,29.9976,甘孜藏族自治州,州环保局,,15,6,14,3,5,48,,,,6,12,6,6,0.6,0.6
2026-01-04T0700,2363A,114.9368,25.8663,赣州市,地委,,46,46,39,23,20,6,,,,29,20,8,8,0.7,0.7
2026-01-04T0700,2364A,114.946,25.8483,赣州市,气象台,,48,48,46,19,17,7,,,,44,33,2,2,0.7,0.7
2026-01-04T0700,2365A,114.932,25.8332,赣州市,市图书馆,,43,43,36,23,20,10,,,,36,27,4,4,0.7,0.6
2026-01-04T0700,2366A,114.8905,25.8472,赣州市,华坚鞋城,颗粒物(PM10),52,53,35,31,20,4,,,,45,23,8,5,0.5,0.4
2026-01-04T0700,3109A,115.0094,25.8614,赣州市,赣县区卫计委,,38,33,32,26,27,4,,,,22,21,8,8,0.4,0.4
2026-01-04T0700,2684A,106.2753,36.0057,固原市,监测站,细颗粒物(PM2.5),64,48,60,46,56,49,,,,26,20,4,3,1.5,0.7
2026-01-04T0700,2685A,106.2384,36.0189,固原市,新区,,38,38,59,23,55,53,,,,23,13,2,2,0.9,0.8
2026-01-04T0700,2544A,106.6307,30.4577,广安市,市委,细颗粒物(PM2.5),54,46,46,38,34,24,,,,21,17,5,5,0.8,0.8
2026-01-04T0700,2545A,106.6266,30.4662,广安市,友谊中学,细颗粒物(PM2.5),55,41,39,39,35,36,,,,5,5,6,6,0.6,0.5
2026-01-04T0700,2547A,106.6386,30.4551,广安市,广电花园,细颗粒物(PM2.5),53,45,41,37,34,19,,,,18,16,8,8,0.6,0.6
2026-01-04T0700,2902A,106.6347,30.4868,广安市,北辰小学,细颗粒物(PM2.5),59,,42,42,36,31,,,,11,10,16,14,0.9,0.8
2026-01-04T0700,2524A,105.8211,32.4444,广元市,老城,,40,34,39,28,31,7,,,,30,32,4,4,1.2,0.9
2026-01-04T0700,2526A,105.8629,32.429,广元市,监测站,,50,50,41,31,29,4,,,,25,25,3,3,1.2,1
2026-01-04T0700,3617A,105.8047,32.4167,广元市,经开区,,40,36,37,28,34,1,,,,27,30,5,4,1.0,0.9
2026-01-04T0700,1345A,113.2346,23.1423,广州市,广雅中学,颗粒物(PM10),67,83,59,47,34,1,,,,64,49,3,3,0.8,0.6
2026-01-04T0700,1346A,113.2611,23.105,广州市,市五中,细颗粒物(PM2.5),63,72,52,45,33,3,,,,91,57,10,9,/,/
2026-01-04T0700,1348A,113.3477,23.0916,广州市,广东商学院,细颗粒物(PM2.5),67,67,51,48,33,1,,,,74,47,7,6,0.7,0.5
2026-01-04T0700,1349A,113.4332,23.105,广州市,市八十六中,细颗粒物(PM2.5),53,50,48,37,33,1,,,,72,52,8,8,/,/
2026-01-04T0700,1350A,113.3506,22.9488,广州市,番禺中学,细颗粒物(PM2.5),72,88,66,52,39,3,,,,80,57,11,5,0.8,0.5
2026-01-04T0700,1351A,113.2147,23.3918,广州市,花都师范,颗粒物(PM10),59,67,52,40,30,2,,,,66,47,5,7,0.7,0.6
2026-01-04T0700,1352A,113.2599,23.1329,广州市,市监测站,细颗粒物(PM2.5),64,73,55,46,36,1,,,,73,54,2,2,/,/
2026-01-04T0700,1353A,113.5618,23.3119,广州市,九龙镇镇龙,,44,44,51,28,30,2,,,,31,33,5,5,0.4,0.5
2026-01-04T0700,1354A,113.2764,23.1544,广州市,麓湖,细颗粒物(PM2.5),62,58,43,44,30,2,,,,61,46,7,8,0.6,0.4
2026-01-04T0700,2846A,113.3209,23.1323,广州市,体育西,细颗粒物(PM2.5),60,62,52,43,34,2,,,,77,47,6,6,0.7,0.6
2026-01-04T0700,3298A,113.5718,23.5493,广州市,从化街口,,45,44,45,31,32,0,,,,32,30,7,8,0.7,0.7
2026-01-04T0700,3299A,113.3463,23.369,广州市,白云竹料,细颗粒物(PM2.5),59,62,58,42,36,3,,,,44,36,4,4,0.6,0.5
2026-01-04T0700,3300A,113.2981,23.2365,广州市,白云嘉禾,颗粒物(PM10),57,63,52,36,29,6,,,,50,46,4,4,/,/
2026-01-04T0700,3301A,113.4256,23.1716,广州市,黄埔科学城,,50,50,43,34,27,13,,,,42,30,6,6,0.7,0.6
2026-01-04T0700,3302A,113.3942,23.0485,广州市,番禺大学城,颗粒物(PM10),61,72,51,40,31,8,,,,64,46,11,8,0.6,0.6
2026-01-04T0700,3303A,113.4923,22.8169,广州市,南沙黄阁,颗粒物(PM10),52,54,57,32,32,48,,,,42,42,7,9,/,/
2026-01-04T0700,3304A,113.534,22.7893,广州市,南沙街,颗粒物(PM10),52,53,51,30,30,66,,,,26,33,6,7,0.6,0.6
2026-01-04T0700,3443A,113.2905,23.5541,广州市,花都梯面,,34,34,27,22,19,1,,,,32,25,5,7,/,/
2026-01-04T0700,3445A,113.786,23.7479,广州市,从化良口,,18,16,20,12,16,15,,,,17,11,6,7,/,/
2026-01-04T0700,3446A,113.805,23.2614,广州市,增城荔城,,39,37,31,27,22,18,,,,26,18,12,8,0.5,0.5
2026-01-04T0700,2506A,109.604387,23.066791,贵港市,江南子站,细颗粒物(PM2.5),57,53,66,40,43,35,,,,24,27,10,9,0.7,0.9
2026-01-04T0700,2508A,109.5669,23.1065,贵港市,荷城子站,细颗粒物(PM2.5),64,73,52,46,33,26,,,,32,21,13,8,0.7,0.7
2026-01-04T0700,3405A,109.5886,23.1172,贵港市,新世纪学校,细颗粒物(PM2.5),69,85,57,50,36,18,,,,41,24,/,/,0.6,0.5
2026-01-04T0700,4260A,109.5933,23.095,贵港市,中山路155-3号,细颗粒物(PM2.5),65,66,50,47,39,24,,,,36,24,/,/,0.9,0.8
2026-01-04T0700,1439A,106.6863,26.6035,贵阳市,马鞍山,,28,22,13,19,12,12,,,,13,17,4,4,/,/
2026-01-04T0700,1441A,106.6241,26.6266,贵阳市,鉴湖路,,12,12,18,3,8,24,,,,16,20,2,2,0.6,0.6
2026-01-04T0700,1442A,106.7468,26.6344,贵阳市,燕子冲,,39,29,16,27,18,10,,,,16,16,6,7,0.8,0.8
2026-01-04T0700,1443A,106.6556,26.4362,贵阳市,碧云窝,,19,19,18,9,7,16,,,,12,14,3,3,/,/
2026-01-04T0700,1445A,106.6963,26.6063,贵阳市,红边门,,25,19,15,17,11,18,,,,12,18,7,8,/,/
2026-01-04T0700,1446A,106.7162383,26.56964667,贵阳市,新华路,,28,27,20,19,8,17,,,,16,17,7,5,0.6,0.5
2026-01-04T0700,1447A,106.6742,26.542,贵阳市,太慈桥,,17,17,14,7,8,23,,,,16,20,4,4,/,/
2026-01-04T0700,4230A,106.688212,26.56952,贵阳市,花果园大街66号,,23,,7,16,12,16,,,,16,20,3,2,/,/
2026-01-04T0700,4231A,106.687268,26.516892,贵阳市,漓江路57号,,28,24,15,19,9,10,,,,20,20,9,7,0.8,0.7
2026-01-04T0700,1864A,110.3091,25.2705,桂林市,龙隐路小学,细颗粒物(PM2.5),85,,44,63,55,27,,,,15,13,6,6,0.4,0.4
2026-01-04T0700,1865A,110.2849361,25.22909545,桂林市,八中,细颗粒物(PM2.5),77,,46,56,50,24,,,,20,19,7,7,0.6,0.6
2026-01-04T0700,3531A,110.296,25.1254,桂林市,旅游学院,细颗粒物(PM2.5),52,41,38,36,34,31,,,,12,15,3,4,0.6,0.6
2026-01-04T0700,4222A,110.1835,25.2444,桂林市,环湖路276号,细颗粒物(PM2.5),70,63,48,51,42,25,,,,18,18,6,5,0.5,0.5
2026-01-04T0700,4301A,110.2803,25.2773,桂林市,信义路13号,细颗粒物(PM2.5),68,,44,49,43,29,,,,19,19,4,4,0.6,0.6
2026-01-04T0700,2674A,100.2262,34.4854,果洛藏族自治州,玛沁县大武镇,,38,38,45,3,11,39,,,,2,4,16,16,0.4,0.5
2026-01-04T0700,1130A,126.5557,45.8109,哈尔滨市,松北商大,颗粒物(PM10),54,57,81,35,63,8,,,,45,35,5,8,0.7,0.8
2026-01-04T0700,1132A,126.6162,45.719,哈尔滨市,南岗学府路,细颗粒物(PM2.5),54,55,97,38,72,13,,,,36,35,11,10,0.8,1
2026-01-04T0700,1133A,126.6894,45.7733,哈尔滨市,太平宏伟公园,,46,36,79,32,61,28,,,,28,37,18,23,0.6,0.8
2026-01-04T0700,1134A,126.6361,45.7672,哈尔滨市,道外承德广场,颗粒物(PM10),55,59,103,31,65,23,,,,37,41,10,12,0.2,0.4
2026-01-04T0700,1136A,126.644,45.7261,哈尔滨市,动力和平路,,50,47,92,35,65,11,,,,41,38,15,15,0.8,1
2026-01-04T0700,1137A,126.5933,45.7479,哈尔滨市,道里建国路,,49,,84,34,72,24,,,,28,36,17,19,0,0.4
2026-01-04T0700,1138A,126.6127,45.6119,哈尔滨市,平房东轻厂,细颗粒物(PM2.5),67,48,81,48,101,3,,,,50,43,7,7,0.6,0.7
2026-01-04T0700,1139A,126.5875,45.9827,哈尔滨市,呼兰师专,细颗粒物(PM2.5),60,,84,43,82,22,,,,27,33,7,10,0.6,1
2026-01-04T0700,1140A,126.6299,45.6799,哈尔滨市,省农科院,细颗粒物(PM2.5),80,73,107,59,82,8,,,,53,46,10,15,1.1,1.2
2026-01-04T0700,4282A,126.6769,45.7379,哈尔滨市,华山路1号,,48,36,89,33,65,27,,,,29,42,32,29,0.7,1
2026-01-04T0700,4283A,126.9717,45.5356,哈尔滨市,解放大街52号,颗粒物(PM10),84,118,121,12,84,12,,,,41,38,15,15,1.1,1.1
2026-01-04T0700,2688A,93.5124,42.8176,哈密市,地区监测站,,50,50,47,32,31,65,,,,8,14,3,4,0.0,0.1
2026-01-04T0700,2689A,93.5014,42.8312,哈密市,哈密师范学校,颗粒物(PM10),51,51,55,24,24,63,,,,11,28,6,7,0.1,0.4
2026-01-04T0700,2671A,100.9016,36.9464,海北藏族自治州,海晏县西海镇,细颗粒物(PM2.5),94,73,75,70,64,55,,,,18,22,12,15,1.1,1.1
2026-01-04T0700,3867A,102.074,36.5056,海东市,平安区公安局北苑,细颗粒物(PM2.5),98,77,77,73,67,34,,,,10,17,11,19,1.0,1
2026-01-04T0700,4163A,102.0984,36.5119,海东市,滨河路,细颗粒物(PM2.5),95,87,72,71,70,14,,,,44,37,8,18,1.0,1
2026-01-04T0700,1410A,110.3189,20.0596,海口市,海南大学,,40,40,35,16,15,94,,,,7,8,5,6,0.3,0.3
2026-01-04T0700,1411A,110.2827,20.0051,海口市,秀英海南医院,,35,35,39,16,15,81,,,,9,9,7,8,0.3,0.3
2026-01-04T0700,1412A,110.3391,19.9979,海口市,海南师范大学,,36,36,38,17,16,88,,,,9,10,5,6,0.4,0.4
2026-01-04T0700,1413A,110.3303,20.0359,海口市,龙华路环保局宿舍,,35,35,36,19,16,91,,,,10,10,/,/,0.5,0.5
2026-01-04T0700,3539A,110.5111,19.9737,海口市,桂林洋子站,,36,36,34,18,17,87,,,,8,9,/,/,/,/
2026-01-04T0700,4134A,110.1952,20.0451,海口市,长滨二路9号,,35,35,29,16,16,90,,,,5,6,/,/,/,/
2026-01-04T0700,2673A,100.6158,36.2985,海南藏族自治州,共和县恰卜恰镇,,43,40,60,30,49,43,,,,16,21,10,12,0.6,0.8
2026-01-04T0700,2676A,97.373,37.376,海西蒙古族藏族自治州,德令哈市,,24,12,19,3,9,75,,,,3,7,11,12,0.4,0.5
2026-01-04T0700,1049A,114.492,36.5712,邯郸市,矿院,细颗粒物(PM2.5),208,166,148,158,164,7,,,,48,49,2,6,1.1,1.2
2026-01-04T0700,1050A,114.4839,36.6136,邯郸市,丛台公园,细颗粒物(PM2.5),221,197,157,171,147,6,,,,61,39,5,8,1.3,1.2
2026-01-04T0700,3458A,114.7893,36.5592,邯郸市,香泉濮院小区,细颗粒物(PM2.5),200,,145,150,146,15,,,,46,38,4,6,1.1,1.1
2026-01-04T0700,3580A,114.1998,36.4439,邯郸市,峰峰矿区临水派出所,细颗粒物(PM2.5),247,,114,197,159,9,,,,56,37,11,11,1.4,1.4
2026-01-04T0700,4068A,114.5209,36.7697,邯郸市,建安街268号,细颗粒物(PM2.5),231,196,175,181,160,6,,,,58,59,9,11,1.5,1.6
2026-01-04T0700,4069A,114.5488,36.6177,邯郸市,丛台东路558号,细颗粒物(PM2.5),236,226,201,186,161,6,,,,59,54,6,10,1.3,1.2
2026-01-04T0700,2635A,107.0155,33.0707,汉中市,市监测站,细颗粒物(PM2.5),88,,48,65,54,11,,,,21,24,4,4,1.0,0.8
2026-01-04T0700,2636A,107.0083,33.114,汉中市,鑫源开发区,细颗粒物(PM2.5),88,,46,65,54,17,,,,23,22,4,4,0.8,0.6
2026-01-04T0700,2637A,107.0072,33.0323,汉中市,南郑大河坎水厂,细颗粒物(PM2.5),77,67,72,56,63,10,,,,12,23,4,5,1.0,1.1
2026-01-04T0700,1223A,120.2073,30.2111,杭州市,滨江,细颗粒物(PM2.5),93,90,104,69,81,4,,,,51,53,6,7,0.7,0.6
2026-01-04T0700,1224A,120.0625,30.2737,杭州市,西溪,细颗粒物(PM2.5),92,87,88,68,69,0,,,,58,46,8,8,1.0,0.9
2026-01-04T0700,1226A,120.3417,30.315,杭州市,下沙,细颗粒物(PM2.5),107,110,106,80,87,1,,,,60,58,8,10,1.4,1.2
2026-01-04T0700,1227A,120.1252,30.2465,杭州市,卧龙桥,细颗粒物(PM2.5),105,96,87,79,71,1,,,,39,27,10,10,0.9,0.9
2026-01-04T0700,1228A,120.1902,30.2691,杭州市,浙江农大,细颗粒物(PM2.5),120,112,112,91,91,2,,,,59,58,4,5,0.7,0.6
2026-01-04T0700,1230A,120.1195,30.3121,杭州市,和睦小学,细颗粒物(PM2.5),110,109,107,83,81,2,,,,56,47,6,6,1.0,0.9
2026-01-04T0700,1231A,120.3076,30.4146,杭州市,临平镇,细颗粒物(PM2.5),125,130,112,95,81,1,,,,71,53,9,8,0.8,0.7
2026-01-04T0700,1232A,120.2753,30.1839,杭州市,城厢镇,细颗粒物(PM2.5),97,93,99,72,73,4,,,,51,56,7,9,0.6,0.5
2026-01-04T0700,1233A,120.0883,30.1808,杭州市,云栖,细颗粒物(PM2.5),104,91,91,78,74,3,,,,38,32,3,3,0.9,0.8
2026-01-04T0700,3557A,119.9463,30.0496,杭州市,镇二中,细颗粒物(PM2.5),102,76,78,76,78,2,,,,48,40,6,6,0.9,0.8
2026-01-04T0700,3558A,119.7184,30.2367,杭州市,市府大楼,细颗粒物(PM2.5),94,93,103,70,76,19,,,,24,27,10,10,0.9,0.9
2026-01-04T0700,3656A,120.1554,30.2863,杭州市,消防大队,细颗粒物(PM2.5),109,101,96,82,82,1,,,,57,48,7,7,0.3,0.3
2026-01-04T0700,1270A,117.1957,31.7845,合肥市,明珠广场,细颗粒物(PM2.5),94,80,80,70,62,16,,,,55,40,6,7,1.1,0.9
2026-01-04T0700,1271A,117.307,31.8765,合肥市,三里街,细颗粒物(PM2.5),85,83,79,63,60,4,,,,71,50,6,7,0.8,0.8
2026-01-04T0700,1272A,117.2587,31.8703,合肥市,琥珀山庄,细颗粒物(PM2.5),92,83,78,68,62,23,,,,51,38,10,10,1.4,1
2026-01-04T0700,1275A,117.2593,31.9376,合肥市,庐阳区,细颗粒物(PM2.5),83,85,88,61,60,12,,,,66,61,3,4,0.9,0.9
2026-01-04T0700,1276A,117.345251,31.861615,合肥市,瑶海区,细颗粒物(PM2.5),85,80,85,63,62,10,,,,70,55,6,6,0.9,0.9
2026-01-04T0700,1277A,117.3033,31.7967,合肥市,包河区,细颗粒物(PM2.5),89,83,83,66,68,3,,,,82,57,8,8,1.0,0.9
2026-01-04T0700,1278A,117.278,31.7392,合肥市,滨湖新区,细颗粒物(PM2.5),98,78,75,73,67,23,,,,52,31,5,5,1.0,0.9
2026-01-04T0700,1279A,117.1324,31.8395,合肥市,高新区,细颗粒物(PM2.5),87,83,72,64,56,27,,,,52,40,5,5,0.9,0.7
2026-01-04T0700,3464A,117.3802,31.9148,合肥市,高教基地,细颗粒物(PM2.5),89,75,80,66,66,18,,,,42,42,8,8,0.9,0.9
2026-01-04T0700,4098A,117.2518,31.8404,合肥市,中国科学技术大学,细颗粒物(PM2.5),82,80,72,60,55,28,,,,45,38,7,7,0.8,0.7
2026-01-04T0700,3614A,79.9241,37.0878,和田地区,地区环保局,,36,36,50,19,32,46,,,,9,14,1,2,0.8,0.8
2026-01-04T0700,3615A,79.9132,37.1137,和田地区,市环保局,,16,,55,11,30,44,,,,23,24,3,2,0.4,1
2026-01-04T0700,2517A,108.0496,24.6957,河池市,市环保站,,30,,29,21,24,28,,,,9,10,2,5,0.8,0.7
2026-01-04T0700,4302A,108.0901,24.6945,河池市,上任中路54号,,29,20,31,20,30,24,,,,12,12,4,7,0.7,0.6
2026-01-04T0700,1697A,114.6962,23.7538,河源市,东埔,,28,28,29,19,22,3,,,,34,28,6,6,0.8,0.7
2026-01-04T0700,1698A,114.6895,23.7232,河源市,老城,,25,25,30,14,23,10,,,,23,19,8,7,0.9,0.7
2026-01-04T0700,3374A,115.5562,35.089,菏泽市,定陶老年大学,细颗粒物(PM2.5),98,90,94,73,78,31,,,,20,21,2,2,0.7,0.7
2026-01-04T0700,4114A,115.4239,35.2593,菏泽市,黄河路600号,细颗粒物(PM2.5),113,98,108,85,91,32,,,,23,24,2,3,1.0,1
2026-01-04T0700,4115A,115.5025,35.2727,菏泽市,菏泽市人社局,细颗粒物(PM2.5),108,96,96,81,82,30,,,,23,20,2,2,0.6,0.6
2026-01-04T0700,4184A,115.479691,35.244011,菏泽市,永昌路1号,细颗粒物(PM2.5),112,97,99,84,85,31,,,,24,21,4,4,0.6,0.6
2026-01-04T0700,4193A,115.471542,35.280012,菏泽市,长城路999号,细颗粒物(PM2.5),104,102,98,78,79,38,,,,19,18,4,4,1.0,1
2026-01-04T0700,2514A,111.5264,24.4178,贺州市,环保小区,细颗粒物(PM2.5),60,62,55,43,43,18,,,,26,21,7,6,0.7,0.6
2026-01-04T0700,2515A,111.561,24.4074,贺州市,政协大楼,细颗粒物(PM2.5),59,54,55,42,45,1,,,,28,27,11,10,0.7,0.7
2026-01-04T0700,3534A,111.4744,24.455,贺州市,西湾,细颗粒物(PM2.5),65,60,50,47,39,22,,,,17,22,6,7,0.7,0.7
2026-01-04T0700,2385A,114.17,35.9019,鹤壁市,市监测站,细颗粒物(PM2.5),168,158,147,127,126,2,,,,42,39,4,5,1.1,1.2
2026-01-04T0700,2386A,114.2953,35.7512,鹤壁市,市交警支队,细颗粒物(PM2.5),165,154,142,125,121,0,,,,53,48,8,5,1.1,1
2026-01-04T0700,2387A,114.2877,35.7302,鹤壁市,迎宾馆,细颗粒物(PM2.5),179,144,144,135,124,0,,,,46,39,6,6,1.3,1.1
2026-01-04T0700,3474A,114.2616,35.6824,鹤壁市,大新区,细颗粒物(PM2.5),199,,143,149,124,2,,,,48,48,7,7,1.3,1.2
2026-01-04T0700,3596A,114.1573,35.9607,鹤壁市,南山宾馆,细颗粒物(PM2.5),176,174,138,133,118,5,,,,43,35,5,7,1.1,1
2026-01-04T0700,2244A,130.2537,47.3416,鹤岗市,哈啤分公司,,39,31,26,27,26,58,,,,8,7,5,7,0.4,0.4
2026-01-04T0700,2245A,130.2683,47.3087,鹤岗市,斯达机电,,38,,30,26,26,64,,,,8,8,6,6,0.4,0.4
2026-01-04T0700,2246A,130.3114,47.3388,鹤岗市,东山纸板厂,,36,32,23,25,19,64,,,,8,7,8,7,0.9,0.6
2026-01-04T0700,2263A,127.4832,50.2524,黑河市,交通局,,20,,14,13,14,64,,,,6,6,5,4,0.3,0.3
2026-01-04T0700,2264A,127.5146,50.2339,黑河市,环保局,,20,8,15,7,13,63,,,,8,10,4,5,0.3,0.3
2026-01-04T0700,1074A,115.6839,37.754,衡水市,电机北厂,细颗粒物(PM2.5),215,193,157,165,133,0,,,,55,41,4,6,1.2,1
2026-01-04T0700,1075A,115.6303,37.7318,衡水市,市监测站,细颗粒物(PM2.5),189,147,142,142,128,13,,,,47,38,7,7,1.1,1
2026-01-04T0700,3188A,115.6684,37.7216,衡水市,市城管局,细颗粒物(PM2.5),189,146,145,142,124,6,,,,56,44,8,8,1.2,1
2026-01-04T0700,3459A,115.599,37.5491,衡水市,地表水厂,细颗粒物(PM2.5),203,,134,153,140,3,,,,52,48,6,7,1.0,0.9
2026-01-04T0700,2457A,112.6209,26.9268,衡阳市,衡阳化工总厂,细颗粒物(PM2.5),78,,51,57,50,17,,,,20,15,5,6,1.1,1
2026-01-04T0700,2458A,112.621,26.8957,衡阳市,珠晖区环保局,细颗粒物(PM2.5),77,,48,56,51,18,,,,20,19,4,5,0.9,0.9
2026-01-04T0700,2459A,112.628,26.8654,衡阳市,市委党校,细颗粒物(PM2.5),73,,48,53,50,27,,,,16,17,8,10,0.9,0.9
2026-01-04T0700,2460A,112.6007,26.8977,衡阳市,市监测站,细颗粒物(PM2.5),79,76,75,58,56,16,,,,19,15,6,7,0.9,0.8
2026-01-04T0700,2461A,112.5658,26.9013,衡阳市,真空机电公司,细颗粒物(PM2.5),87,70,69,64,55,11,,,,24,18,6,8,1.0,0.9
2026-01-04T0700,3399A,112.6703,26.8817,衡阳市,师范学院,细颗粒物(PM2.5),64,56,64,46,47,30,,,,18,19,2,4,0.8,0.8
2026-01-04T0700,3038A,103.3757,23.3679,红河哈尼族彝族自治州,州图书馆,,13,7,7,3,4,40,,,,5,7,6,6,0.6,0.6
2026-01-04T0700,4154A,103.401,23.3561,红河哈尼族彝族自治州,蒙自市朝阳路,,14,10,12,3,8,42,,,,4,5,9,8,0.5,0.5
2026-01-04T0700,1090A,111.6506,40.7517,呼和浩特市,呼市一监,细颗粒物(PM2.5),118,107,92,89,66,2,,,,47,50,4,7,1.6,1.3
2026-01-04T0700,1094A,111.7516,40.8369,呼和浩特市,如意水处理厂,细颗粒物(PM2.5),67,74,96,48,59,3,,,,54,58,11,16,1.2,1.2
2026-01-04T0700,1095A,111.727798,40.806187,呼和浩特市,二十九中,颗粒物(PM10),71,91,91,48,57,2,,,,54,55,14,17,1.2,1.1
2026-01-04T0700,1097A,111.717,40.7617,呼和浩特市,化肥厂生活区,细颗粒物(PM2.5),102,108,90,76,56,2,,,,48,53,8,12,1.7,1.2
2026-01-04T0700,3699A,111.6519,40.8389,呼和浩特市,海东办,细颗粒物(PM2.5),85,92,101,63,59,3,,,,56,58,7,11,1.3,1.1
2026-01-04T0700,4275A,111.591512,40.827312,呼和浩特市,成吉思汗西街8号,颗粒物(PM10),54,58,88,3,40,56,,,,9,44,3,10,0.3,1
2026-01-04T0700,4276A,111.6597,40.8077,呼和浩特市,公园东路75号,细颗粒物(PM2.5),79,88,98,58,58,6,,,,59,60,11,12,1.1,1
2026-01-04T0700,4277A,111.5427,40.7846,呼和浩特市,金海路35号,细颗粒物(PM2.5),114,139,103,86,64,0,,,,52,54,13,15,1.3,1
2026-01-04T0700,3061A,119.7511,49.1576,呼伦贝尔市,国华电力东,,21,21,26,11,21,51,,,,16,26,5,6,0.3,0.4
2026-01-04T0700,4279A,119.7569,49.2222,呼伦贝尔市,伊敏大街东7号,,30,,33,21,23,43,,,,17,26,7,8,0.5,0.5
2026-01-04T0700,1250A,120.075,30.867,湖州市,城西水厂,细颗粒物(PM2.5),114,110,101,86,75,8,,,,65,47,11,10,0.6,0.6
2026-01-04T0700,2873A,120.083,30.8929,湖州市,仁皇山新区,细颗粒物(PM2.5),115,105,101,87,83,20,,,,65,59,11,10,0.6,0.6
2026-01-04T0700,2907A,120.1846,30.8592,湖州市,吴兴区站,细颗粒物(PM2.5),129,117,100,98,83,8,,,,73,51,8,8,0.8,0.7
2026-01-04T0700,3562A,120.4146,30.8538,湖州市,南浔区站,细颗粒物(PM2.5),93,82,101,69,78,0,,,,80,55,6,7,0.7,0.7
2026-01-04T0700,1607A,120.904878,40.721091,葫芦岛市,龙港区,细颗粒物(PM2.5),118,117,98,89,75,6,,,,50,44,31,41,2.1,1.8
2026-01-04T0700,1608A,120.8382,40.7521,葫芦岛市,化工街,细颗粒物(PM2.5),73,92,99,53,64,6,,,,47,47,25,53,1.1,1.2
2026-01-04T0700,1609A,120.8339,40.7078,葫芦岛市,新区,细颗粒物(PM2.5),67,62,69,48,53,4,,,,56,52,13,20,1.4,1.2
2026-01-04T0700,1610A,120.8697,40.7679,葫芦岛市,东城区,细颗粒物(PM2.5),98,81,95,73,75,5,,,,56,50,24,48,1.8,1.5
2026-01-04T0700,2483A,109.9297,27.5383,怀化市,河西地税局,,23,,37,16,37,26,,,,10,12,3,4,/,/
2026-01-04T0700,2484A,109.9783,27.5342,怀化市,市四医院,,26,,39,18,35,21,,,,9,10,8,9,0.6,0.6
2026-01-04T0700,2485A,109.9971,27.5579,怀化市,监测楼,,18,13,20,12,21,32,,,,11,12,2,3,0.2,0.3
2026-01-04T0700,1210A,119.0566,33.5991,淮安市,钵池山,细颗粒物(PM2.5),64,53,53,46,41,14,,,,50,36,7,9,0.6,0.6
2026-01-04T0700,1211A,119.0083,33.578,淮安市,北京南路,细颗粒物(PM2.5),69,68,60,50,42,0,,,,65,45,8,9,1.2,1
2026-01-04T0700,1212A,118.9938,33.6083,淮安市,市监测站,"颗粒物(PM10),细颗粒物(PM2.5)",67,83,50,48,41,1,,,,56,36,9,10,1.1,0.8
2026-01-04T0700,1213A,119.135,33.5038,淮安市,楚州区监测站,细颗粒物(PM2.5),62,61,54,44,40,0,,,,68,49,10,10,0.8,0.6
2026-01-04T0700,3426A,118.8757,33.2897,淮安市,新华书店,细颗粒物(PM2.5),87,75,60,64,47,5,,,,58,35,10,11,1.0,0.8
2026-01-04T0700,4092A,119.119691,33.550006,淮安市,枚皋中路89号,细颗粒物(PM2.5),74,61,61,54,45,4,,,,65,44,7,8,0.9,0.7
2026-01-04T0700,4206A,119.028838,33.631911,淮安市,承德北路606号,颗粒物(PM10),82,114,64,46,39,2,,,,69,40,8,9,1.1,0.8
2026-01-04T0700,2282A,116.8005,33.9749,淮北市,监测站,细颗粒物(PM2.5),89,94,95,66,70,28,,,,45,35,9,9,0.6,0.6
2026-01-04T0700,2283A,116.8094,33.9008,淮北市,烈山区政府,细颗粒物(PM2.5),103,101,96,77,78,27,,,,33,37,11,10,0.4,0.5
2026-01-04T0700,4017A,116.7926,33.9534,淮北市,市博物馆,细颗粒物(PM2.5),89,101,99,66,72,29,,,,43,33,11,10,0.2,0.4
2026-01-04T0700,4100A,116.8322,33.9884,淮北市,杜集区第一实验学校,细颗粒物(PM2.5),100,102,95,75,75,19,,,,31,22,8,8,0.6,0.6
2026-01-04T0700,2277A,116.8304,32.7726,淮南市,潘集区政府,细颗粒物(PM2.5),97,91,85,72,71,17,,,,39,33,6,6,0.8,0.6
2026-01-04T0700,2279A,116.8569,32.5949,淮南市,谢家集区政府,细颗粒物(PM2.5),82,101,76,60,48,24,,,,48,33,11,8,0.6,0.4
2026-01-04T0700,2280A,116.8279,32.6333,淮南市,八公山区政府,细颗粒物(PM2.5),80,85,65,59,52,41,,,,27,22,7,5,0.8,0.5
2026-01-04T0700,2894A,117.0561,32.6536,淮南市,经济技术开发区消防队,细颗粒物(PM2.5),79,90,81,58,60,25,,,,41,35,5,5,0.8,0.5
2026-01-04T0700,3329A,117.011,32.5891,淮南市,山南新区,细颗粒物(PM2.5),92,84,73,68,52,44,,,,23,21,3,2,0.7,0.5
2026-01-04T0700,4209A,117.003137,32.644456,淮南市,国庆中路369号,细颗粒物(PM2.5),90,85,67,67,60,39,,,,27,27,8,5,0.9,0.6
2026-01-04T0700,2446A,114.9021,30.474,黄冈市,职工中心,细颗粒物(PM2.5),57,49,54,40,38,49,,,,12,19,6,8,0.7,0.7
2026-01-04T0700,2929A,114.8858,30.4519,黄冈市,红卫路,细颗粒物(PM2.5),59,44,52,42,39,50,,,,16,23,6,8,0.6,0.6
2026-01-04T0700,3398A,114.9134,30.4446,黄冈市,市林业局,细颗粒物(PM2.5),58,48,53,41,41,50,,,,16,22,4,6,0.7,0.7
2026-01-04T0700,2672A,102.02,35.5101,黄南藏族自治州,同仁县隆务镇,细颗粒物(PM2.5),53,45,56,37,48,51,,,,2,6,9,10,0.5,0.6
2026-01-04T0700,2295A,118.2905,29.6965,黄山市,延安路89号,,33,33,35,8,29,11,,,,20,15,3,4,0.5,0.5
2026-01-04T0700,2297A,118.1369,30.2755,黄山市,黄山区政府5号楼,,43,39,41,30,33,12,,,,14,15,6,6,0.6,0.6
2026-01-04T0700,4210A,118.335445,29.720283,黄山市,滨江东路7-2号,细颗粒物(PM2.5),52,47,52,36,40,12,,,,19,17,/,/,/,/
2026-01-04T0700,2423A,115.0547,30.2332,黄石市,沈家营,,47,47,61,31,38,43,,,,9,16,5,9,1.1,1.2
2026-01-04T0700,2426A,114.899,30.211,黄石市,铁山,,46,33,54,32,54,47,,,,8,18,4,6,0.7,0.7
2026-01-04T0700,2427A,115.0259,30.2108,黄石市,团城山,,49,49,61,30,45,52,,,,10,18,6,7,0.6,0.7
2026-01-04T0700,3149A,115.0174,30.1591,黄石市,笔架山北路,颗粒物(PM10),52,54,75,28,45,45,,,,11,16,7,7,0.9,1
2026-01-04T0700,4185A,115.078022,30.21118,黄石市,磁湖东路29号,细颗粒物(PM2.5),57,46,57,40,45,41,,,,16,17,6,11,0.7,0.7
2026-01-04T0700,1392A,114.4181,23.0528,惠州市,河南岸金山湖子站,颗粒物(PM10),51,52,42,33,26,4,,,,36,24,4,5,0.7,0.6
2026-01-04T0700,1393A,114.4055,23.0824,惠州市,下埔横江三路子站,颗粒物(PM10),56,61,43,38,26,13,,,,37,21,8,8,0.7,0.6
2026-01-04T0700,1395A,114.4645,22.7832,惠州市,惠阳区承修路船湖子站,颗粒物(PM10),58,66,47,36,26,18,,,,40,23,9,7,0.7,0.6
2026-01-04T0700,1396A,114.5316,22.7423,惠州市,大亚湾管委会子站,颗粒物(PM10),56,62,43,35,22,19,,,,47,19,5,6,0.4,0.3
2026-01-04T0700,3314A,114.4334,22.8134,惠州市,惠阳秋长,,48,48,46,33,28,41,,,,35,29,/,/,/,/
2026-01-04T0700,3452A,114.6521,22.7755,惠州市,大亚湾霞涌,,41,41,38,28,23,72,,,,17,17,/,/,/,/
2026-01-04T0700,4300A,114.4089,23.1147,惠州市,文华一路1号,细颗粒物(PM2.5),57,62,45,40,28,3,,,,40,27,/,/,/,/
2026-01-04T0700,2240A,130.9618,45.2926,鸡西市,环保局,,38,38,32,25,22,46,,,,11,8,6,6,0.5,0.4
2026-01-04T0700,2243A,130.9294,45.2959,鸡西市,第一中学,,49,,30,34,23,52,,,,11,8,3,3,0.5,0.4
2026-01-04T0700,3707A,131.0069,45.2988,鸡西市,欧美日汽修厂,,45,45,36,28,24,52,,,,12,10,5,6,0.6,0.5
2026-01-04T0700,2367A,114.9753,27.0803,吉安市,红声器材厂,颗粒物(PM10),54,57,46,36,28,33,,,,22,20,11,12,0.6,0.5
2026-01-04T0700,2369A,114.9903,27.1313,吉安市,市环境监测站,,50,50,43,34,30,30,,,,18,14,14,14,/,/
2026-01-04T0700,2370A,115.009527,27.096792,吉安市,青原区法院,细颗粒物(PM2.5),54,54,47,38,31,37,,,,16,15,12,14,0.6,0.5
2026-01-04T0700,1772A,126.54,43.8622,吉林市,哈达湾,细颗粒物(PM2.5),89,85,76,66,57,27,,,,43,35,8,13,1.6,1.7
2026-01-04T0700,1773A,126.5843,43.8358,吉林市,东局子,细颗粒物(PM2.5),93,87,73,69,62,8,,,,42,36,4,8,1.9,1.6
2026-01-04T0700,1774A,126.5051,43.8243,吉林市,电力学院,细颗粒物(PM2.5),123,106,105,93,87,10,,,,49,43,11,16,1.7,1.6
2026-01-04T0700,1775A,126.6133,43.8971,吉林市,江北,细颗粒物(PM2.5),158,147,97,120,76,15,,,,40,38,6,10,2.1,1.7
2026-01-04T0700,1776A,126.5549,43.8304,吉林市,江南公园,细颗粒物(PM2.5),99,87,81,74,66,4,,,,48,37,6,13,1.8,1.5
2026-01-04T0700,2868A,126.4737,43.953,吉林市,九站,细颗粒物(PM2.5),117,109,92,88,73,4,,,,55,45,16,11,1.8,1.5
2026-01-04T0700,1299A,116.9866,36.6118,济南市,科干所,细颗粒物(PM2.5),70,70,92,51,67,54,,,,29,25,7,8,0.9,0.9
2026-01-04T0700,1300A,116.9379,36.6652,济南市,农科所,细颗粒物(PM2.5),104,105,107,78,91,31,,,,42,37,6,8,0.9,1
2026-01-04T0700,1301A,117.1265,36.6736,济南市,开发区,细颗粒物(PM2.5),98,85,108,73,85,53,,,,22,35,3,4,0.8,1
2026-01-04T0700,1303A,117.0616,36.6865,济南市,省种子仓库,细颗粒物(PM2.5),104,119,124,78,88,8,,,,64,48,5,7,1.1,1
2026-01-04T0700,1304A,116.9495185,36.644937,济南市,机床二厂,细颗粒物(PM2.5),108,115,115,81,94,15,,,,62,42,15,18,1.2,1.1
2026-01-04T0700,1305A,117.0496,36.6629,济南市,市监测站,细颗粒物(PM2.5),83,85,98,61,79,22,,,,43,29,4,5,0.8,0.9
2026-01-04T0700,1306A,116.7674,36.5458,济南市,长清党校,细颗粒物(PM2.5),80,73,97,59,79,45,,,,28,23,6,7,0.7,0.8
2026-01-04T0700,1961A,117.5323,36.6865,济南市,东山小学,细颗粒物(PM2.5),110,105,103,83,81,20,,,,54,34,3,5,1.0,1
2026-01-04T0700,3059A,117.7181,36.205,济南市,泰兴公司,细颗粒物(PM2.5),178,149,145,134,122,6,,,,54,54,7,9,1.3,1.2
2026-01-04T0700,3064A,117.6861,36.2172,济南市,莱芜战役纪念馆,细颗粒物(PM2.5),160,144,142,122,120,5,,,,58,54,7,10,1.1,1.1
2026-01-04T0700,3494A,117.1673,36.9782,济南市,济阳区政府,细颗粒物(PM2.5),135,139,134,103,102,17,,,,52,45,8,9,0.8,0.8
2026-01-04T0700,3495A,117.1168,36.6299,济南市,锦屏中学,细颗粒物(PM2.5),70,66,82,51,64,53,,,,23,22,3,3,0.6,0.7
2026-01-04T0700,4108A,117.7107,36.2385,济南市,山财大街5号,细颗粒物(PM2.5),147,154,156,112,108,12,,,,55,50,6,10,1.1,1.1
2026-01-04T0700,4109A,116.9744,36.6889,济南市,无影山路12号,细颗粒物(PM2.5),145,152,119,111,92,3,,,,72,39,14,11,1.5,0.9
2026-01-04T0700,1653A,116.6229,35.4288,济宁市,火炬城,细颗粒物(PM2.5),149,,93,114,94,28,,,,40,26,8,7,0.7,0.6
2026-01-04T0700,3500A,116.5808,35.3703,济宁市,北湖一中,细颗粒物(PM2.5),163,,84,124,86,5,,,,58,28,6,6,0.9,0.6
2026-01-04T0700,3501A,116.8251,35.5592,济宁市,服务中心,细颗粒物(PM2.5),129,152,124,98,88,10,,,,55,43,11,12,0.8,0.7
2026-01-04T0700,3678A,116.5907,35.4054,济宁市,市第七中学,细颗粒物(PM2.5),140,127,98,107,82,13,,,,55,33,10,8,1.0,0.7
2026-01-04T0700,4111A,116.6075,35.4566,济宁市,任和路,细颗粒物(PM2.5),139,136,110,106,84,19,,,,44,31,8,6,0.8,0.7
2026-01-04T0700,4112A,116.5648,35.3921,济宁市,文体南路1号,细颗粒物(PM2.5),148,135,106,113,83,10,,,,50,26,5,4,0.8,0.6
2026-01-04T0700,2255A,130.2749,46.8028,佳木斯市,佳纺,细颗粒物(PM2.5),54,46,39,38,32,36,,,,28,19,14,10,0.5,0.3
2026-01-04T0700,2257A,130.3258,46.7975,佳木斯市,环保局,,49,38,41,34,30,37,,,,28,18,8,9,0.8,0.5
2026-01-04T0700,4285A,130.363,46.806,佳木斯市,顺和街,,48,40,37,33,27,34,,,,30,21,13,10,0.9,0.5
2026-01-04T0700,4286A,130.3952,46.8268,佳木斯市,长安路196号,,46,33,34,32,29,48,,,,16,14,6,6,0.5,0.4
2026-01-04T0700,1252A,120.7439,30.778,嘉兴市,清河小学,细颗粒物(PM2.5),88,85,98,65,70,2,,,,71,159,9,8,0.8,0.7
2026-01-04T0700,1253A,120.7261,30.7477,嘉兴市,嘉兴学院,细颗粒物(PM2.5),75,74,99,55,68,8,,,,54,45,8,8,0.9,0.9
2026-01-04T0700,2872A,120.7845,30.7524,嘉兴市,南湖区残联,细颗粒物(PM2.5),89,84,93,66,70,2,,,,60,52,5,6,1.0,0.8
2026-01-04T0700,3407A,120.6915,30.7741,嘉兴市,秀洲住建,细颗粒物(PM2.5),85,78,100,63,76,2,,,,71,59,7,8,0.8,0.6
2026-01-04T0700,1945A,98.291,39.7705,嘉峪关市,气象局,,39,39,55,22,29,69,,,,8,28,34,17,0.4,0.6
2026-01-04T0700,2884A,98.2672,39.7978,嘉峪关市,酒钢宾馆,颗粒物(PM10),51,51,65,29,36,62,,,,7,17,28,28,0.4,0.7
2026-01-04T0700,3248A,98.2644,39.7723,嘉峪关市,雄关区,,39,34,47,27,27,68,,,,13,31,42,24,0.3,0.6
2026-01-04T0700,1383A,113.1063,22.6058,江门市,北街,细颗粒物(PM2.5),72,71,61,52,41,1,,,,82,48,/,/,/,/
2026-01-04T0700,1384A,113.073,22.5835,江门市,西区,细颗粒物(PM2.5),75,96,72,55,40,0,,,,81,53,/,/,/,/
2026-01-04T0700,1385A,113.0218,22.531,江门市,圭峰西,细颗粒物(PM2.5),59,,50,42,36,23,,,,38,31,/,/,/,/
2026-01-04T0700,1386A,113.0826,22.5947,江门市,东湖,细颗粒物(PM2.5),74,79,65,54,37,1,,,,77,51,8,8,0.7,0.6
2026-01-04T0700,3311A,113.1077,22.5647,江门市,江海富民,颗粒物(PM10),77,103,73,45,31,1,,,,91,51,/,/,0.6,0.5
2026-01-04T0700,3449A,113.0496,22.4669,江门市,新会银湖,细颗粒物(PM2.5),73,60,57,53,47,0,,,,40,38,6,8,0.8,0.7
2026-01-04T0700,3335A,113.3137,35.2643,焦作市,马村街道办,细颗粒物(PM2.5),132,,126,100,124,34,,,,19,34,6,8,0.9,1.2
2026-01-04T0700,3336A,113.2464,35.2374,焦作市,焦作技师学院,细颗粒物(PM2.5),122,114,139,92,114,33,,,,21,40,7,11,1.0,1.2
2026-01-04T0700,3477A,113.1656,35.2536,焦作市,中站许衡医院,细颗粒物(PM2.5),127,108,120,96,109,31,,,,28,41,11,11,1.2,1.4
2026-01-04T0700,3981A,113.2456,35.18,焦作市,原李万街道办,细颗粒物(PM2.5),110,109,114,83,107,38,,,,14,28,3,6,0.9,1.1
2026-01-04T0700,4264A,113.234,35.219,焦作市,新安路1731号,细颗粒物(PM2.5),118,111,130,89,116,34,,,,11,27,4,7,0.9,1.1
2026-01-04T0700,4295A,113.2722,35.2121,焦作市,人民路3066号,细颗粒物(PM2.5),94,101,127,70,94,35,,,,11,29,4,7,0.8,1
2026-01-04T0700,1708A,116.3701,23.5345,揭阳市,新兴,细颗粒物(PM2.5),73,59,49,53,40,9,,,,51,26,10,12,0.8,0.6
2026-01-04T0700,1709A,116.3261,23.5442,揭阳市,西马,细颗粒物(PM2.5),63,58,55,45,35,12,,,,39,21,6,7,0.8,0.7
2026-01-04T0700,1710A,116.361,23.5627,揭阳市,东兴,颗粒物(PM10),58,66,52,40,28,14,,,,38,25,11,11,/,/
2026-01-04T0700,1711A,116.4151,23.5295,揭阳市,渔湖,细颗粒物(PM2.5),77,66,49,56,30,5,,,,56,27,4,6,/,/
2026-01-04T0700,3320A,116.4028,23.5699,揭阳市,曲溪,颗粒物(PM10),63,76,54,38,31,22,,,,38,23,4,7,0.5,0.5
2026-01-04T0700,1944A,102.1691,38.5166,金昌市,天庆家园,,34,34,59,19,44,38,,,,22,17,1,6,1.0,0.8
2026-01-04T0700,4022A,102.1648,38.5369,金昌市,金川区人防中心,,27,27,57,18,45,56,,,,12,15,4,8,0.7,0.8
2026-01-04T0700,4239A,102.193042,38.531887,金昌市,长春路96号,,31,31,56,18,40,44,,,,20,17,5,7,1.1,0.9
2026-01-04T0700,1262A,119.6478,29.0773,金华市,十五中,细颗粒物(PM2.5),93,100,106,69,75,1,,,,64,50,4,3,0.9,0.8
2026-01-04T0700,1263A,119.6859,29.1032,金华市,监测站,细颗粒物(PM2.5),104,114,111,78,82,0,,,,81,67,3,3,0.8,0.8
2026-01-04T0700,3659A,119.656,29.1132,金华市,气象局,细颗粒物(PM2.5),99,104,109,74,75,3,,,,56,54,4,3,0.8,0.7
2026-01-04T0700,1767A,121.1114,41.0879,锦州市,南山,细颗粒物(PM2.5),89,92,78,66,76,6,,,,41,43,14,16,1.3,1.5
2026-01-04T0700,1768A,121.060361,40.842794,锦州市,开发区,细颗粒物(PM2.5),100,99,95,75,66,6,,,,48,49,63,46,1.4,1.3
2026-01-04T0700,1769A,121.1836,41.1118,锦州市,百股街道,细颗粒物(PM2.5),119,,79,90,71,4,,,,48,43,13,20,1.8,1.4
2026-01-04T0700,1770A,121.1176,41.1224,锦州市,天安街道,细颗粒物(PM2.5),97,92,77,72,65,4,,,,45,43,27,20,1.8,1.6
2026-01-04T0700,1771A,121.1303,41.1385,锦州市,北湖公园,细颗粒物(PM2.5),109,85,81,82,70,8,,,,58,39,15,18,1.7,1.3
2026-01-04T0700,2160A,112.8496,35.5051,晋城市,自来水公司,细颗粒物(PM2.5),104,85,97,78,81,33,,,,28,29,4,8,1.3,1.6
2026-01-04T0700,2162A,112.8509,35.4886,晋城市,市环保局,"颗粒物(PM10),细颗粒物(PM2.5)",83,115,109,61,74,41,,,,23,30,4,7,1.3,1.5
2026-01-04T0700,3620A,112.8258,35.4804,晋城市,泽州一中,细颗粒物(PM2.5),94,72,88,70,68,53,,,,14,25,4,5,0.8,0.8
2026-01-04T0700,4078A,112.8246,35.5152,晋城市,前书院路,细颗粒物(PM2.5),74,93,90,54,49,34,,,,25,32,4,6,1.1,1
2026-01-04T0700,4079A,112.8864,35.4773,晋城市,祥云街666号,细颗粒物(PM2.5),107,94,105,80,91,40,,,,25,30,4,9,1.0,1.2
2026-01-04T0700,2174A,112.6992,37.6984,晋中市,榆次区政府,细颗粒物(PM2.5),229,234,184,179,131,2,,,,68,65,32,24,2.1,1.5
2026-01-04T0700,2865A,112.7195,37.683,晋中市,榆次三中,细颗粒物(PM2.5),160,202,170,122,111,0,,,,62,59,29,25,2.0,1.5
2026-01-04T0700,4080A,112.7375,37.7215,晋中市,广安街188号,细颗粒物(PM2.5),228,264,206,178,132,4,,,,74,69,20,20,1.9,1.6
2026-01-04T0700,4200A,112.7478,37.6954,晋中市,迎宾街26号,细颗粒物(PM2.5),180,197,163,136,112,1,,,,64,61,30,24,1.8,1.6
2026-01-04T0700,2439A,112.2012,31.048,荆门市,竹园小学,细颗粒物(PM2.5),127,116,109,96,93,12,,,,33,28,1,4,0.5,0.4
2026-01-04T0700,2440A,112.1968,30.9892,荆门市,掇刀,细颗粒物(PM2.5),110,96,100,83,86,15,,,,28,21,2,3,0.5,0.6
2026-01-04T0700,3012A,112.1849,31.0361,荆门市,西山林语,细颗粒物(PM2.5),103,93,96,77,83,15,,,,23,24,5,5,0.8,0.7
2026-01-04T0700,3547A,112.1631,31.0134,荆门市,龙泉中学南校,细颗粒物(PM2.5),108,102,107,81,89,27,,,,17,11,6,7,0.3,0.4
2026-01-04T0700,4124A,112.2213,31.0654,荆门市,新台西路6号,细颗粒物(PM2.5),124,104,102,94,92,19,,,,19,28,7,8,0.7,0.7
2026-01-04T0700,1844A,112.2493,30.3198,荆州市,市图书馆,细颗粒物(PM2.5),102,,65,76,78,39,,,,15,21,16,8,0.8,0.8
2026-01-04T0700,1845A,112.2009,30.3543,荆州市,市委党校,细颗粒物(PM2.5),99,,71,74,76,34,,,,15,24,14,5,0.9,0.9
2026-01-04T0700,3194A,112.2749,30.3124,荆州市,管委会,细颗粒物(PM2.5),104,,68,78,78,38,,,,16,32,13,7,0.7,0.8
2026-01-04T0700,4268A,112.1722,30.3366,荆州市,学苑路85号,细颗粒物(PM2.5),84,67,65,62,65,36,,,,17,19,10,12,0.7,0.7
2026-01-04T0700,2343A,117.2114,29.2931,景德镇市,老干部活动中心,,39,29,42,27,30,12,,,,17,19,7,8,0.3,0.4
2026-01-04T0700,2344A,117.1893,29.2789,景德镇市,兽医站,,36,36,38,22,28,17,,,,20,20,7,10,0.8,0.6
2026-01-04T0700,2346A,117.246,29.2958,景德镇市,陶研所,,,32,31,,28,6,,,,21,15,4,4,0.7,0.7
2026-01-04T0700,4289A,117.154766,29.256967,景德镇市,青少年活动中心,,35,30,41,24,30,19,,,,22,24,3,9,/,/
2026-01-04T0700,1803A,115.9873,29.6816,九江市,十里,细颗粒物(PM2.5),73,,54,53,48,35,,,,33,34,6,7,1.1,0.9
2026-01-04T0700,1804A,115.9583,29.7047,九江市,茅山头,"颗粒物(PM10),细颗粒物(PM2.5)",52,53,54,36,46,33,,,,27,26,6,5,0.8,0.9
2026-01-04T0700,1805A,115.9877,29.7295,九江市,西园,细颗粒物(PM2.5),55,52,54,39,39,37,,,,38,35,2,4,0.7,0.8
2026-01-04T0700,1808A,115.9112,29.6038,九江市,综合工业园,细颗粒物(PM2.5),82,70,51,60,52,17,,,,42,43,2,4,0.8,0.8
2026-01-04T0700,3190A,116.0254,29.6995,九江市,外国语学校,细颗粒物(PM2.5),69,52,50,50,44,26,,,,36,28,9,8,0.9,0.8
2026-01-04T0700,4253A,116.010205,29.659402,九江市,莲花大道8号,细颗粒物(PM2.5),68,58,56,49,48,34,,,,18,17,4,4,0.8,0.5
2026-01-04T0700,4240A,98.495752,39.733935,酒泉市,玉门东路5号,,31,31,51,15,23,51,,,,7,13,17,11,0.3,0.4
2026-01-04T0700,4241A,98.5099,39.7506,酒泉市,北大街108号,,19,19,50,11,23,44,,,,16,20,11,11,0.4,0.5
2026-01-04T0700,2698A,76.0071,39.466,喀什地区,巡警大队,,42,42,55,28,39,47,,,,10,13,2,3,0.6,0.7
2026-01-04T0700,2699A,75.9756,39.4693,喀什地区,吾办,,45,40,56,31,45,44,,,,9,12,3,6,0.6,0.8
2026-01-04T0700,4027A,75.9485,39.4688,喀什地区,老干局,,45,42,61,31,40,46,,,,8,11,1,2,0.8,0.9
2026-01-04T0700,1824A,114.3389,34.778,开封市,肿瘤医院,细颗粒物(PM2.5),133,117,102,101,92,14,,,,31,25,7,4,1.3,1.2
2026-01-04T0700,1826A,114.2884,34.7966,开封市,世纪星幼儿园,细颗粒物(PM2.5),152,,96,116,109,16,,,,31,25,3,2,0.8,0.7
2026-01-04T0700,3147A,114.3434,34.8101,开封市,龙亭公园,细颗粒物(PM2.5),153,,99,117,110,21,,,,27,22,3,3,1.5,1.5
2026-01-04T0700,3210A,114.3645,34.7955,开封市,汴京公园,细颗粒物(PM2.5),139,117,117,106,100,19,,,,32,27,4,4,0.9,0.8
2026-01-04T0700,3473A,114.2485,34.8306,开封市,技师学院,细颗粒物(PM2.5),143,,99,109,103,20,,,,27,24,5,6,1.1,1
2026-01-04T0700,3592A,114.4518,34.7503,开封市,祥符区生态环境局,细颗粒物(PM2.5),134,121,113,102,95,19,,,,29,27,3,3,0.8,0.8
2026-01-04T0700,1951A,84.886,45.6029,克拉玛依市,长征新村,细颗粒物(PM2.5),84,87,88,62,63,29,,,,26,32,4,5,1.0,1
2026-01-04T0700,1952A,84.8894,45.5827,克拉玛依市,南林小区,细颗粒物(PM2.5),69,83,87,50,49,28,,,,20,25,2,3,1.0,1
2026-01-04T0700,1954A,84.896,44.3328,克拉玛依市,独山子区,,42,41,77,29,41,66,,,,12,34,5,5,0.5,0.8
2026-01-04T0700,1955A,85.6888,46.0909,克拉玛依市,乌尔禾区商贸楼,细颗粒物(PM2.5),78,86,75,57,60,24,,,,24,25,4,4,1.1,1.1
2026-01-04T0700,3612A,85.1045,45.6895,克拉玛依市,白碱滩区新站,细颗粒物(PM2.5),99,120,118,74,61,7,,,,22,17,6,7,0.7,0.7
2026-01-04T0700,2697A,76.1457,39.7143,克孜勒苏柯尔克孜自治州,市人民政府,颗粒物(PM10),54,57,63,35,43,48,,,,8,10,5,5,0.3,0.4
2026-01-04T0700,3665A,76.1654,39.7157,克孜勒苏柯尔克孜自治州,克州文化中心,细颗粒物(PM2.5),52,40,52,36,42,45,,,,8,8,3,3,0.6,0.6
2026-01-04T0700,1450A,102.8203,24.889,昆明市,呈贡新区,,17,17,21,11,11,46,,,,17,14,3,5,0.4,0.3
2026-01-04T0700,1452A,102.7253,25.0904,昆明市,龙泉镇,,23,23,22,14,13,26,,,,21,17,3,3,0.5,0.5
2026-01-04T0700,1453A,102.7267,25.0378,昆明市,东风东路,,26,18,20,18,15,52,,,,15,17,4,5,0.5,0.5
2026-01-04T0700,1454A,102.6744,25.0671,昆明市,金鼎山,,34,34,30,12,17,19,,,,31,20,3,3,0.5,0.5
2026-01-04T0700,1455A,102.6643,25.0401,昆明市,碧鸡广场,,28,26,25,19,17,17,,,,33,21,3,5,0.6,0.6
2026-01-04T0700,3179A,102.7491,25.012,昆明市,官渡区博物馆,,20,,22,14,14,49,,,,14,20,3,3,0.3,0.3
2026-01-04T0700,3375A,102.8016,24.8336,昆明市,青年创业园,,18,14,18,11,12,56,,,,5,6,3,4,0.3,0.3
2026-01-04T0700,3550A,102.8,24.9787,昆明市,昆明学院,,21,13,18,10,11,65,,,,8,10,2,3,0.5,0.5
2026-01-04T0700,3551A,102.5969,24.6738,昆明市,晋宁区生态环境分局,,32,23,22,22,14,19,,,,26,12,2,2,0.8,0.5
2026-01-04T0700,3552A,102.6673,24.9861,昆明市,云天化总部,,20,20,20,12,13,44,,,,14,16,6,6,0.5,0.5
2026-01-04T0700,1456A,91.132,29.6515,拉萨市,八廓街,,24,13,22,6,13,76,,,,1,9,6,7,0.4,0.5
2026-01-04T0700,1457A,91.1221,29.6748,拉萨市,市环保局,,22,,21,9,13,70,,,,8,14,6,7,0.4,0.6
2026-01-04T0700,1458A,91.0874,29.6476,拉萨市,区监测站,,23,10,12,3,7,72,,,,9,15,4,4,0.8,0.8
2026-01-04T0700,1459A,91.1774,29.6541,拉萨市,西藏大学,,23,10,18,7,11,72,,,,8,13,5,5,0.2,0.3
2026-01-04T0700,1460A,90.9798,29.6586,拉萨市,区辐射站,,18,14,23,6,14,55,,,,17,19,5,4,0.5,0.6
2026-01-04T0700,1461A,91.0831,29.6292,拉萨市,拉萨火车站,,24,8,15,3,7,74,,,,10,11,4,4,0.5,0.5
2026-01-04T0700,2520A,109.2203,23.7252,来宾市,来宾技工学校,细颗粒物(PM2.5),112,84,62,84,62,7,,,,26,17,13,7,0.6,0.4
2026-01-04T0700,3535A,109.1781,23.7293,来宾市,兴宾区政府,细颗粒物(PM2.5),117,103,57,88,46,13,,,,25,17,12,7,0.8,0.6
2026-01-04T0700,4002A,109.2312,23.7428,来宾市,中南小学,细颗粒物(PM2.5),114,87,58,86,58,6,,,,26,18,12,6,0.8,0.6
2026-01-04T0700,1479A,103.8309,36.0467,兰州市,铁路设计院,,,,,,,,,,,,,,,,
2026-01-04T0700,3241A,103.7439,36.0841,兰州市,百合公园,细颗粒物(PM2.5),69,69,69,50,57,22,,,,39,25,6,6,1.2,0.8
2026-01-04T0700,3242A,103.9613,35.9985,兰州市,和平,细颗粒物(PM2.5),77,,74,56,76,34,,,,27,16,3,3,1.4,0.8
2026-01-04T0700,4236A,103.629272,36.093822,兰州市,庄浪东路808号,细颗粒物(PM2.5),62,66,74,44,59,33,,,,34,27,9,10,0.7,0.7
2026-01-04T0700,4237A,103.7251,36.104344,兰州市,安宁西路88号,细颗粒物(PM2.5),68,70,81,49,57,34,,,,42,23,3,5,0.5,0.6
2026-01-04T0700,4238A,103.846982,36.067567,兰州市,北滨河东路1号,颗粒物(PM10),70,89,74,50,60,19,,,,50,32,6,7,0.9,0.8
2026-01-04T0700,1067A,116.6712,39.5109,廊坊市,药材公司,细颗粒物(PM2.5),127,139,111,96,81,2,,,,81,65,6,5,1.5,1.1
2026-01-04T0700,1068A,116.7215,39.5592,廊坊市,开发区,细颗粒物(PM2.5),122,142,92,92,59,0,,,,82,73,4,4,1.5,1.1
2026-01-04T0700,1070A,116.7246,39.5273,廊坊市,北华航天学院,细颗粒物(PM2.5),145,142,110,111,75,1,,,,87,66,7,5,1.7,1.2
2026-01-04T0700,2919A,116.7022,39.5454,廊坊市,河北工业大学,细颗粒物(PM2.5),135,156,113,103,70,1,,,,83,69,8,7,1.5,1.1
2026-01-04T0700,2536A,103.7629,29.5844,乐山市,牛耳桥,,28,23,28,19,24,8,,,,23,24,8,7,0.6,0.6
2026-01-04T0700,2537A,103.7501,29.6002,乐山市,市第三水厂,,28,24,27,19,22,8,,,,24,25,5,5,0.6,0.6
2026-01-04T0700,2538A,103.7571,29.5664,乐山市,市监测站,,28,20,26,19,24,9,,,,20,21,6,6,0.7,0.7
2026-01-04T0700,3361A,103.7313,29.563,乐山市,理工大学,,26,21,25,18,20,8,,,,21,21,4,4,0.6,0.6
2026-01-04T0700,2599A,100.2497,26.8802,丽江市,丽江古城,,20,14,21,6,9,63,,,,20,13,6,7,0.6,0.5
2026-01-04T0700,2600A,100.2203,26.8906,丽江市,市中心,,24,9,10,9,8,75,,,,10,12,6,6,0.3,0.3
2026-01-04T0700,1267A,119.9141,28.4513,丽水市,监测站大楼,,48,39,51,33,38,5,,,,33,32,6,6,0.7,0.7
2026-01-04T0700,1268A,119.93,28.4589,丽水市,莲都小学,颗粒物(PM10),51,52,70,35,51,6,,,,38,39,/,/,/,/
2026-01-04T0700,1269A,119.8794,28.4232,丽水市,余庄前,细颗粒物(PM2.5),58,48,59,41,46,1,,,,24,26,4,4,0.4,0.4
2026-01-04T0700,1173A,119.1759,34.5885,连云港市,市环境监测站,细颗粒物(PM2.5),98,83,89,73,74,10,,,,54,36,10,11,1.1,0.9
2026-01-04T0700,3000A,119.3577,34.6971,连云港市,德源药业,细颗粒物(PM2.5),77,78,100,56,72,1,,,,58,47,3,5,0.5,0.6
2026-01-04T0700,3007A,119.178,34.8442,连云港市,新城一中,细颗粒物(PM2.5),147,126,108,112,95,2,,,,61,41,10,18,0.9,0.9
2026-01-04T0700,3008A,119.3607,34.7519,连云港市,胡沟管理处,细颗粒物(PM2.5),77,61,77,56,62,45,,,,30,33,10,10,1.0,1
2026-01-04T0700,3009A,119.1478,34.5913,连云港市,矿山设计院,细颗粒物(PM2.5),85,78,94,63,68,35,,,,30,32,9,9,0.9,1
2026-01-04T0700,3434A,119.2414,34.6539,连云港市,工贸学校,细颗粒物(PM2.5),75,65,85,55,72,50,,,,17,20,11,13,0.6,0.7
2026-01-04T0700,3664A,119.4171,34.734,连云港市,连云街道,细颗粒物(PM2.5),74,69,64,54,50,53,,,,19,18,9,6,0.7,0.6
2026-01-04T0700,2573A,102.2629,27.8981,凉山彝族自治州,西昌市政府,,18,18,30,10,14,37,,,,16,14,7,10,0.7,0.7
2026-01-04T0700,2574A,102.2686,27.885,凉山彝族自治州,凉山州政府,,27,27,25,14,16,31,,,,19,14,7,12,0.7,0.7
2026-01-04T0700,4229A,102.2342,27.8859,凉山彝族自治州,凯乐南路30号,,31,31,29,16,13,33,,,,20,16,5,10,0.5,0.7
2026-01-04T0700,2212A,123.1978,41.2036,辽阳市,宏伟区,细颗粒物(PM2.5),117,91,107,88,86,5,,,,32,35,19,20,2.0,1.7
2026-01-04T0700,2213A,123.1684,41.2497,辽阳市,新华园,细颗粒物(PM2.5),87,90,105,64,83,2,,,,49,50,51,36,1.7,1.7
2026-01-04T0700,2214A,123.2355,41.2663,辽阳市,滨河路,细颗粒物(PM2.5),74,81,105,54,72,10,,,,44,44,21,15,1.2,1.2
2026-01-04T0700,4083A,123.153,41.2874,辽阳市,铁西路150号,细颗粒物(PM2.5),78,79,122,57,85,4,,,,50,52,52,33,1.8,1.9
2026-01-04T0700,2227A,125.1359,42.8845,辽源市,环保局,颗粒物(PM10),86,122,143,63,74,9,,,,44,40,5,8,1.7,2
2026-01-04T0700,4085A,125.0998,42.9134,辽源市,安宁大街333号,细颗粒物(PM2.5),109,89,97,82,76,12,,,,38,39,2,9,1.5,1.3
2026-01-04T0700,1625A,115.9789,36.4372,聊城市,区政府,细颗粒物(PM2.5),113,107,113,85,89,29,,,,46,39,13,12,1.0,1
2026-01-04T0700,3200A,115.9772,36.4986,聊城市,监控中心,细颗粒物(PM2.5),122,101,110,92,99,34,,,,41,33,12,11,0.8,0.8
2026-01-04T0700,3513A,116.0443,36.436,聊城市,九州社区,细颗粒物(PM2.5),112,105,120,84,93,35,,,,29,30,4,2,0.7,0.7
2026-01-04T0700,4018A,116.0564,36.4609,聊城市,星美广场,细颗粒物(PM2.5),132,128,124,100,94,17,,,,38,25,4,4,0.8,0.8
2026-01-04T0700,4113A,116.0091,36.4495,聊城市,利民路,细颗粒物(PM2.5),120,106,120,91,101,32,,,,40,37,10,11,0.7,0.7
2026-01-04T0700,2632A,94.3683,29.6373,林芝市,林芝监测站,,21,,9,3,6,67,,,,1,2,4,4,0.3,0.3
2026-01-04T0700,2633A,94.3616,29.6634,林芝市,林芝人民医院,,20,8,12,6,6,61,,,,2,2,6,6,0.4,0.3
2026-01-04T0700,2603A,100.0779,23.8981,临沧市,市环保局,,48,,21,33,35,25,,,,4,6,4,5,0.4,0.4
2026-01-04T0700,2604A,100.0894,23.882,临沧市,市气象局,,22,,25,15,18,24,,,,5,8,4,5,0.4,0.5
2026-01-04T0700,1733A,111.5552,36.0791,临汾市,临钢医院,细颗粒物(PM2.5),268,298,229,218,173,8,,,,44,38,6,5,3.9,2.8
2026-01-04T0700,1734A,111.4984,36.0734,临汾市,技工学校,细颗粒物(PM2.5),256,278,220,206,167,6,,,,47,42,8,6,4.1,3
2026-01-04T0700,1736A,111.5017,36.0857,临汾市,市委,细颗粒物(PM2.5),260,295,243,210,176,7,,,,53,47,9,8,3.9,2.8
2026-01-04T0700,3018A,111.5048,36.1015,临汾市,唐尧大酒店,细颗粒物(PM2.5),251,268,211,201,166,1,,,,56,44,4,4,4.2,2.9
2026-01-04T0700,4244A,111.4879,36.053,临汾市,启星学校,细颗粒物(PM2.5),223,230,200,173,150,6,,,,52,51,5,5,4.0,2.9
2026-01-04T0700,4271A,103.2464,35.6123,临夏回族自治州,滨河东路1号,细颗粒物(PM2.5),103,112,101,77,74,26,,,,18,25,3,6,1.1,1.1
2026-01-04T0700,4310A,103.207136,35.599807,临夏回族自治州,新华街21号,细颗粒物(PM2.5),100,93,80,75,63,20,,,,26,21,5,9,1.2,0.9
2026-01-04T0700,1618A,118.3429,35.0532,临沂市,沂河小区,细颗粒物(PM2.5),203,166,128,153,116,2,,,,78,57,18,22,1.5,1.1
2026-01-04T0700,1619A,118.2962,35.0568,临沂市,鲁南制药厂,细颗粒物(PM2.5),213,188,139,163,115,3,,,,77,62,27,27,1.6,1
2026-01-04T0700,1620A,118.2793,34.9976,临沂市,新光毛纺厂,细颗粒物(PM2.5),214,180,134,164,110,4,,,,74,52,28,29,1.7,1
2026-01-04T0700,1621A,118.3955,35.0889,临沂市,河东保险公司,细颗粒物(PM2.5),218,227,124,168,95,5,,,,68,44,14,14,2.1,1
2026-01-04T0700,3370A,118.3563,35.0215,临沂市,十里堡居委,细颗粒物(PM2.5),185,173,143,139,104,4,,,,78,63,25,31,1.7,1.3
2026-01-04T0700,3496A,118.359,35.1067,临沂市,南坊新区,细颗粒物(PM2.5),199,175,110,149,90,3,,,,76,45,15,14,1.7,0.9
2026-01-04T0700,3860A,118.3915,35.0297,临沂市,皇山花园小区,细颗粒物(PM2.5),195,197,130,146,93,9,,,,87,56,29,27,1.7,1.1
2026-01-04T0700,1870A,109.4854,24.3898,柳州市,柳东小学,细颗粒物(PM2.5),87,68,50,64,47,15,,,,13,14,10,9,0.7,0.7
2026-01-04T0700,1871A,109.4109,24.3304,柳州市,环保监测站,细颗粒物(PM2.5),52,51,55,36,45,14,,,,19,18,7,6,0.6,0.6
2026-01-04T0700,1872A,109.3886,24.3408,柳州市,河西水厂,细颗粒物(PM2.5),65,58,59,47,51,15,,,,20,20,23,10,0.6,0.6
2026-01-04T0700,1873A,109.4263,24.2951,柳州市,市四中,细颗粒物(PM2.5),53,37,46,37,35,18,,,,16,19,10,10,0.7,0.7
2026-01-04T0700,1874A,109.396,24.3658,柳州市,市九中,细颗粒物(PM2.5),73,,57,53,51,14,,,,20,20,10,9,0.9,0.7
2026-01-04T0700,1875A,109.4912,24.3164,柳州市,古亭山,细颗粒物(PM2.5),65,58,45,47,38,18,,,,13,14,11,10,0.8,0.7
2026-01-04T0700,3402A,109.5422,24.3994,柳州市,市二中,细颗粒物(PM2.5),73,61,40,53,36,14,,,,19,15,8,8,0.7,0.6
2026-01-04T0700,2307A,116.5078,31.7369,六安市,监测大楼,细颗粒物(PM2.5),87,72,54,64,46,32,,,,30,22,3,3,0.7,0.6
2026-01-04T0700,2308A,116.4738,31.7642,六安市,皖西学院,细颗粒物(PM2.5),90,84,61,67,45,34,,,,28,22,4,5,0.6,0.5
2026-01-04T0700,2309A,116.4997,31.7904,六安市,朝阳厂,细颗粒物(PM2.5),82,63,57,60,46,30,,,,33,27,7,6,0.7,0.6
2026-01-04T0700,2310A,116.5566,31.7885,六安市,开发区,细颗粒物(PM2.5),88,77,65,65,48,19,,,,49,24,1,1,0.7,0.5
2026-01-04T0700,2577A,104.8293,26.592,六盘水市,黄土坡,,9,,16,3,12,28,,,,7,15,7,8,0.6,0.8
2026-01-04T0700,2579A,104.8481,26.5898,六盘水市,民中,,9,8,17,3,11,26,,,,6,14,3,3,0.6,0.7
2026-01-04T0700,2580A,104.9541,26.5506,六盘水市,双水,,10,7,10,3,7,29,,,,6,11,3,3,0.4,0.4
2026-01-04T0700,4151A,104.8899,26.5685,六盘水市,钟山大道中段564号,,8,6,19,3,10,24,,,,9,11,4,6,0.8,0.9
2026-01-04T0700,2336A,117.022,25.1031,龙岩市,龙岩市监测站,,29,27,27,20,19,24,,,,23,23,20,20,0.6,0.4
2026-01-04T0700,2337A,117.0257,25.0662,龙岩市,闽西职业技术学院,,40,40,30,25,19,21,,,,22,18,10,12,0.4,0.4
2026-01-04T0700,2338A,117.0195,25.0306,龙岩市,龙岩学院,,38,34,27,26,19,24,,,,18,13,8,9,/,/
2026-01-04T0700,2885A,104.9344,33.3827,陇南市,滨江中学,细颗粒物(PM2.5),59,62,56,42,30,50,,,,17,24,7,7,0.9,1.1
2026-01-04T0700,3247A,104.9551,33.3709,陇南市,市总工会,细颗粒物(PM2.5),64,73,60,46,29,42,,,,16,23,3,3,0.9,0.9
2026-01-04T0700,2488A,111.9984,27.7346,娄底市,市监测站,颗粒物(PM10),53,56,60,36,50,34,,,,13,16,4,5,0.6,0.6
2026-01-04T0700,2491A,111.9888,27.7035,娄底市,市政府,细颗粒物(PM2.5),64,,52,46,52,23,,,,13,12,5,5,0.5,0.5
2026-01-04T0700,4127A,111.9812,27.7591,娄底市,涟钢职大,细颗粒物(PM2.5),70,56,58,51,45,32,,,,13,15,3,4,0.5,0.5
2026-01-04T0700,4128A,112.0303,27.7457,娄底市,娄底体校,细颗粒物(PM2.5),65,54,55,47,47,26,,,,13,14,2,2,0.6,0.6
2026-01-04T0700,1894A,105.4427,28.9063,泸州市,小市上码头,细颗粒物(PM2.5),55,57,40,39,27,10,,,,20,16,8,8,0.8,0.8
2026-01-04T0700,1895A,105.4241,28.8573,泸州市,兰田宪桥,颗粒物(PM10),51,51,35,34,27,12,,,,20,18,7,7,0.9,0.9
2026-01-04T0700,1896A,105.4378,28.8833,泸州市,市环监站,细颗粒物(PM2.5),54,52,36,38,25,14,,,,22,20,8,8,0.6,0.6
2026-01-04T0700,4272A,105.3689,28.7783,泸州市,纳溪中医医院,细颗粒物(PM2.5),62,49,42,44,30,17,,,,15,17,8,7,0.8,0.8
2026-01-04T0700,2183A,111.1447,37.5212,吕梁市,环保局,颗粒物(PM10),88,125,92,53,40,3,,,,45,47,10,13,0.9,0.8
2026-01-04T0700,2185A,111.1285,37.5338,吕梁市,自来水公司,颗粒物(PM10),94,138,109,44,42,2,,,,45,46,24,14,1.1,0.9
2026-01-04T0700,2867A,111.1225,37.5093,吕梁市,马茂庄小学,颗粒物(PM10),92,134,108,46,40,0,,,,55,50,14,16,1.0,0.8
2026-01-04T0700,1812A,112.3934,34.6517,洛阳市,市委党校,细颗粒物(PM2.5),103,77,92,77,80,44,,,,24,27,8,10,0.9,0.9
2026-01-04T0700,1815A,112.494,34.6883,洛阳市,河南林校,细颗粒物(PM2.5),114,,98,86,96,36,,,,24,28,9,11,0.9,1
2026-01-04T0700,1816A,112.3843,34.623,洛阳市,开发区管委会,细颗粒物(PM2.5),108,,102,81,90,45,,,,19,24,8,9,0.8,0.9
2026-01-04T0700,1817A,112.4263,34.6249,洛阳市,市委新办公区,细颗粒物(PM2.5),115,87,105,87,92,46,,,,21,24,9,10,0.8,0.9
2026-01-04T0700,3340A,112.6005,34.6323,洛阳市,伊滨,细颗粒物(PM2.5),109,86,105,82,89,44,,,,23,29,6,8,1.0,1
2026-01-04T0700,3341A,112.495,34.6338,洛阳市,中移产业园,细颗粒物(PM2.5),113,,93,85,92,41,,,,32,35,9,10,0.8,0.9
2026-01-04T0700,3593A,112.5736,34.8993,洛阳市,吉利监测站,细颗粒物(PM2.5),114,,91,86,96,57,,,,19,31,7,8,0.9,1.1
2026-01-04T0700,3635A,112.3678,34.6623,洛阳市,河科大西苑校区,细颗粒物(PM2.5),99,75,98,74,83,40,,,,27,28,7,9,0.8,0.9
2026-01-04T0700,3636A,112.4387,34.678,洛阳市,英才小学,细颗粒物(PM2.5),120,,105,91,97,44,,,,32,36,8,11,1.0,1
2026-01-04T0700,4214A,112.460027,34.694929,洛阳市,春都路1号院,细颗粒物(PM2.5),97,91,118,72,82,33,,,,19,24,8,11,1.0,1.1
2026-01-04T0700,2399A,114.051,33.5721,漯河市,三五一五工厂,细颗粒物(PM2.5),108,114,117,81,89,34,,,,19,23,6,7,1.0,1
2026-01-04T0700,2400A,114.0055,33.5698,漯河市,漯河大学,细颗粒物(PM2.5),110,90,92,83,85,31,,,,23,26,5,6,0.8,0.8
2026-01-04T0700,2401A,114.0134,33.5826,漯河市,市水利局,细颗粒物(PM2.5),117,90,92,88,84,30,,,,21,24,7,7,0.9,0.9
2026-01-04T0700,2402A,114.0261,33.5697,漯河市,市广电局,细颗粒物(PM2.5),118,,94,89,88,39,,,,13,21,6,7,0.8,0.8
2026-01-04T0700,3478A,113.9691,33.568,漯河市,市图书馆,细颗粒物(PM2.5),122,106,107,92,91,33,,,,15,22,4,5,1.0,1
2026-01-04T0700,4250A,114.089259,33.588274,漯河市,韶山路11号,细颗粒物(PM2.5),117,111,109,88,87,37,,,,18,23,6,6,0.7,0.7
2026-01-04T0700,1798A,118.5084,31.6838,马鞍山市,湖东路四小,细颗粒物(PM2.5),100,97,87,75,63,26,,,,39,40,6,4,0.8,0.8
2026-01-04T0700,1799A,118.5019,31.6449,马鞍山市,开发区,细颗粒物(PM2.5),127,110,94,96,77,12,,,,57,38,9,6,0.8,0.7
2026-01-04T0700,3633A,118.4914,31.681,马鞍山市,雨山,细颗粒物(PM2.5),113,115,90,85,68,30,,,,38,35,9,7,0.7,0.7
2026-01-04T0700,4191A,118.527362,31.722269,马鞍山市,慈湖高新区,细颗粒物(PM2.5),128,116,94,97,76,21,,,,45,39,5,6,0.6,0.6
2026-01-04T0700,1686A,111.0285,21.469,茂名市,电白南海,颗粒物(PM10),56,61,48,39,24,64,,,,19,17,16,18,0.6,0.5
2026-01-04T0700,1687A,110.9294,21.6533,茂名市,茂石化七小,颗粒物(PM10),51,51,47,27,23,75,,,,21,19,7,7,0.4,0.5
2026-01-04T0700,1688A,110.9108,21.6688,茂名市,健康路,,49,41,42,34,25,83,,,,22,20,14,13,0.7,0.7
2026-01-04T0700,1689A,110.8592,21.6826,茂名市,高岭,颗粒物(PM10),58,66,60,39,23,49,,,,24,20,21,15,/,/
2026-01-04T0700,3450A,111.0101,21.5165,茂名市,电白水东,颗粒物(PM10),54,58,43,36,23,71,,,,15,16,10,24,/,/
2026-01-04T0700,2540A,103.8414,30.0871,眉山市,气象局,,32,28,28,22,15,3,,,,24,25,8,8,0.7,0.7
2026-01-04T0700,3148A,103.829,30.0563,眉山市,区人社局,,25,25,26,12,10,5,,,,22,24,6,6,0.7,0.7
2026-01-04T0700,4148A,103.8836,30.0695,眉山市,眉职院,,25,25,16,15,6,4,,,,21,18,1,2,0.7,0.8
2026-01-04T0700,1690A,116.1248,24.3307,梅州市,梅江月梅,,39,39,34,22,19,3,,,,28,27,/,/,/,/
2026-01-04T0700,1691A,116.0798,24.2719,梅州市,梅县新城,,29,25,34,20,26,8,,,,25,30,7,8,0.4,0.5
2026-01-04T0700,3315A,116.1234,24.2994,梅州市,梅龙,,36,34,35,25,23,5,,,,28,27,9,10,0.5,0.5
2026-01-04T0700,1878A,104.7775,31.4741,绵阳市,富乐山,,36,27,21,25,19,0,,,,18,15,11,11,0.8,0.8
2026-01-04T0700,1880A,104.6698,31.4668,绵阳市,高新区自来水公司,,49,44,22,34,20,0,,,,26,25,9,8,0.8,0.7
2026-01-04T0700,3491A,104.6899,31.5324,绵阳市,西科大附属小学,,40,40,25,27,20,2,,,,18,18,8,8,1.4,1.2
2026-01-04T0700,3492A,104.5647,31.5343,绵阳市,安州区旅游局,,39,36,18,27,19,1,,,,16,18,13,9,0.7,0.6
2026-01-04T0700,4146A,104.7092,31.4972,绵阳市,科技城新区公安局,,45,40,22,31,19,0,,,,22,18,4,4,0.8,0.7
2026-01-04T0700,4226A,104.765114,31.453094,绵阳市,绵阳市气象局,,40,34,23,28,20,0,,,,20,21,8,9,1.0,0.8
2026-01-04T0700,1784A,129.61,44.561,牡丹江市,环保大楼,,50,50,48,30,34,33,,,,24,25,11,12,1.0,1
2026-01-04T0700,1787A,129.6364,44.6075,牡丹江市,机车工厂,颗粒物(PM10),90,130,67,62,40,7,,,,42,27,11,8,0.8,0.6
2026-01-04T0700,1788A,129.6386,44.5462,牡丹江市,第一中学,细颗粒物(PM2.5),54,39,50,38,37,20,,,,28,28,9,8,0.6,0.7
2026-01-04T0700,4287A,129.5992,44.5964,牡丹江市,东晓云街98号,细颗粒物(PM2.5),77,67,58,56,42,5,,,,52,25,5,6,1.2,0.8
2026-01-04T0700,2531A,105.0703,29.61,内江市,市监测站,,39,31,42,27,33,26,,,,15,16,4,4,0.5,0.5
2026-01-04T0700,2533A,105.0657,29.5807,内江市,内江二中,,40,36,49,28,33,24,,,,18,18,4,4,0.8,0.8
2026-01-04T0700,2534A,105.0407,29.5828,内江市,内江日报社,,40,,36,28,31,22,,,,22,21,2,2,0.5,0.6
2026-01-04T0700,4147A,105.0433,29.6105,内江市,玉峰路西段888号,,38,36,39,26,30,29,,,,11,14,3,3,0.5,0.6
2026-01-04T0700,2628A,92.0653,31.4846,那曲市,那曲监测站,,17,17,35,8,20,42,,,,11,20,6,9,0.8,1.2
2026-01-04T0700,4243A,92.0515,31.4787,那曲市,那曲市委宣传部,,31,31,19,20,7,25,,,,23,8,6,4,1.6,0.7
2026-01-04T0700,1291A,115.8887,28.7006,南昌市,省林业公司,细颗粒物(PM2.5),67,53,51,48,47,27,,,,35,24,6,6,1.1,1
2026-01-04T0700,1292A,115.813,28.7443,南昌市,林科所,,49,34,47,34,38,10,,,,37,30,5,7,0.6,0.5
2026-01-04T0700,1294A,115.8518,28.687,南昌市,建工学校,细颗粒物(PM2.5),64,62,57,46,48,29,,,,36,31,14,15,0.6,0.6
2026-01-04T0700,1295A,115.8926,28.6425,南昌市,象湖,细颗粒物(PM2.5),64,46,52,46,47,19,,,,39,30,9,12,0.8,0.9
2026-01-04T0700,3046A,115.9084,28.6062,南昌市,机电学校,细颗粒物(PM2.5),70,65,67,51,51,10,,,,40,29,4,7,0.7,0.7
2026-01-04T0700,3690A,115.9718,28.7032,南昌市,外国语学校,细颗粒物(PM2.5),73,56,58,53,48,30,,,,30,26,11,13,0.6,0.6
2026-01-04T0700,4106A,115.7923,28.6873,南昌市,工业二路,细颗粒物(PM2.5),63,53,56,45,44,11,,,,38,24,5,6,0.4,0.4
2026-01-04T0700,4192A,115.931587,28.686774,南昌市,南京东路235号,细颗粒物(PM2.5),74,,54,54,53,34,,,,36,34,6,8,0.4,0.3
2026-01-04T0700,1906A,106.0791,30.8022,南充市,南充市委,,43,34,33,30,30,13,,,,20,21,4,4,0.6,0.6
2026-01-04T0700,1907A,106.1038,30.8215,南充市,南充炼油厂,"颗粒物(PM10),细颗粒物(PM2.5)",53,56,47,37,37,15,,,,19,18,5,6,0.4,0.4
2026-01-04T0700,4227A,106.108336,30.788436,南充市,梨树横街98号,细颗粒物(PM2.5),55,,34,39,28,27,,,,21,20,5,5,1.0,0.6
2026-01-04T0700,4304A,106.1172,30.843,南充市,清泉寺北路188号,,38,26,28,26,30,9,,,,17,15,6,6,0.8,0.7
2026-01-04T0700,4305A,106.067,30.7616,南充市,同庆路1号,,49,42,36,34,32,5,,,,25,20,5,5,0.5,0.5
2026-01-04T0700,1151A,118.8033,32.1085,南京市,迈皋桥,细颗粒物(PM2.5),98,88,64,73,46,29,,,,31,31,4,4,0.9,0.8
2026-01-04T0700,1152A,118.7487,32.057,南京市,草场门,细颗粒物(PM2.5),94,92,68,70,52,26,,,,46,43,7,7,0.6,0.5
2026-01-04T0700,1154A,118.770105,32.004342,南京市,中华门,细颗粒物(PM2.5),98,90,63,73,50,12,,,,54,36,4,4,0.8,0.6
2026-01-04T0700,1155A,118.8059,32.0329,南京市,瑞金路,细颗粒物(PM2.5),98,90,64,73,51,33,,,,50,61,4,4,0.9,0.8
2026-01-04T0700,1156A,118.7946,32.0774,南京市,玄武湖,细颗粒物(PM2.5),97,93,63,72,45,26,,,,25,22,4,4,0.7,0.6
2026-01-04T0700,1157A,118.6415,32.0964,南京市,浦口,细颗粒物(PM2.5),87,88,70,64,50,12,,,,59,41,8,11,0.8,0.9
2026-01-04T0700,1158A,118.730129,32.000956,南京市,奥体中心,细颗粒物(PM2.5),107,93,68,80,54,21,,,,68,44,7,7,0.8,0.7
2026-01-04T0700,1159A,118.9072,32.1047,南京市,仙林大学城,细颗粒物(PM2.5),92,90,66,68,47,30,,,,33,28,6,7,1.0,0.8
2026-01-04T0700,3422A,118.8443,31.919,南京市,江宁彩虹桥,细颗粒物(PM2.5),100,87,70,75,53,0,,,,65,38,3,4,0.7,0.6
2026-01-04T0700,3427A,118.8497,32.3599,南京市,六合雄州,细颗粒物(PM2.5),88,88,66,65,45,7,,,,51,43,9,13,0.7,0.6
2026-01-04T0700,4086A,118.7641,32.0841,南京市,新模范马路66号,细颗粒物(PM2.5),113,102,74,85,53,30,,,,41,33,7,7,1.1,1
2026-01-04T0700,4249A,118.8707617,31.34017673,南京市,汶溪路181号,细颗粒物(PM2.5),138,,82,105,81,22,,,,55,38,6,6,0.8,0.7
2026-01-04T0700,4312A,119.019,31.6512,南京市,中山西路1号,细颗粒物(PM2.5),108,83,67,81,67,5,,,,48,32,4,4,0.9,0.7
2026-01-04T0700,1401A,108.3098,22.788,南宁市,二十一中,细颗粒物(PM2.5),72,68,44,52,38,20,,,,28,22,6,6,0.9,0.8
2026-01-04T0700,1402A,108.3135,22.8529,南宁市,北湖,细颗粒物(PM2.5),79,68,45,58,37,36,,,,27,23,6,6,0.9,0.8
2026-01-04T0700,1403A,108.3205,22.8222,南宁市,市监测站,细颗粒物(PM2.5),59,60,44,42,30,21,,,,28,19,8,8,0.9,0.7
2026-01-04T0700,1404A,108.3828,22.8038,南宁市,大自然花园,细颗粒物(PM2.5),69,67,47,50,32,16,,,,34,25,6,7,0.8,0.8
2026-01-04T0700,1406A,108.2397,22.8462,南宁市,区农职院,细颗粒物(PM2.5),72,58,46,52,37,19,,,,35,25,9,9,0.9,0.8
2026-01-04T0700,1407A,108.3285,22.7356,南宁市,英华嘉园,细颗粒物(PM2.5),83,70,44,61,39,27,,,,22,16,5,5,0.7,0.7
2026-01-04T0700,3401A,108.4829,22.762,南宁市,红星社区,细颗粒物(PM2.5),67,61,43,48,35,29,,,,21,15,7,6,0.8,0.7
2026-01-04T0700,4132A,108.2927,23.1477,南宁市,起凤路9号,细颗粒物(PM2.5),60,45,42,43,37,15,,,,11,12,4,3,0.8,0.8
2026-01-04T0700,4221A,108.2177,22.7774,南宁市,乐贤路16号,细颗粒物(PM2.5),67,73,55,48,33,22,,,,24,19,6,5,0.7,0.6
2026-01-04T0700,2332A,118.1682,26.6371,南平市,南平市监测站,,26,26,24,18,17,22,,,,17,16,5,5,0.4,0.5
2026-01-04T0700,2334A,118.1757,26.6276,南平市,南平七中,,28,25,24,19,17,26,,,,15,15,5,6,0.5,0.5
2026-01-04T0700,1168A,120.9056,31.9669,南通市,狼山街道,细颗粒物(PM2.5),92,85,68,68,54,1,,,,61,52,3,6,1.2,1.3
2026-01-04T0700,1170A,120.8635,32.0231,南通市,城中,细颗粒物(PM2.5),93,95,78,69,52,0,,,,71,63,5,11,1.1,1.2
2026-01-04T0700,1171A,120.9376,31.9301,南通市,星湖花园,细颗粒物(PM2.5),89,82,67,66,51,6,,,,63,53,5,9,1.3,1.5
2026-01-04T0700,1172A,120.8053,32.046,南通市,紫琅学院,细颗粒物(PM2.5),92,92,80,68,54,1,,,,69,65,5,11,1.0,1.2
2026-01-04T0700,3291A,121.0631,32.0644,南通市,通州监测站,细颗粒物(PM2.5),92,83,62,68,49,10,,,,48,50,4,7,0.8,1
2026-01-04T0700,3432A,120.9348,31.9874,南通市,环境教育馆,细颗粒物(PM2.5),82,78,69,60,52,1,,,,64,65,5,8,0.9,1.2
2026-01-04T0700,4091A,120.8692,31.9885,南通市,洪江路,细颗粒物(PM2.5),93,78,76,69,55,0,,,,74,67,4,8,0.8,1
2026-01-04T0700,2404A,112.5338,33.0086,南阳市,瓦房庄,细颗粒物(PM2.5),125,95,110,95,106,29,,,,17,15,6,6,0.8,0.8
2026-01-04T0700,2405A,112.5002,32.9734,南阳市,汉画馆,细颗粒物(PM2.5),112,92,115,84,104,32,,,,11,19,6,6,0.9,0.9
2026-01-04T0700,2406A,112.5778,33.0144,南阳市,气象站,细颗粒物(PM2.5),113,100,118,85,96,36,,,,12,16,4,5,0.8,0.8
2026-01-04T0700,2407A,112.548,32.9687,南阳市,理工学院,细颗粒物(PM2.5),87,82,104,64,87,37,,,,12,16,5,5,0.9,1
2026-01-04T0700,4008A,112.5233,32.9921,南阳市,卧龙区政府,细颗粒物(PM2.5),108,102,127,81,102,35,,,,14,16,4,5,0.8,0.8
2026-01-04T0700,1234A,121.8352,29.9111,宁波市,区环保大楼,,50,48,60,35,36,8,,,,53,56,4,7,0.8,0.8
2026-01-04T0700,1235A,121.5595,29.8208,宁波市,万里学院,细颗粒物(PM2.5),73,73,71,53,50,1,,,,56,50,5,5,0.6,0.6
2026-01-04T0700,1236A,121.713,29.9564,宁波市,龙赛医院,细颗粒物(PM2.5),64,74,75,46,46,9,,,,55,52,5,4,0.7,0.7
2026-01-04T0700,1240A,121.5855,29.8635,宁波市,太古小学,颗粒物(PM10),68,85,71,48,39,2,,,,53,47,2,4,0.8,0.7
2026-01-04T0700,1241A,121.5239,29.8673,宁波市,市环境监测中心,细颗粒物(PM2.5),73,70,65,53,48,0,,,,51,45,6,6,0.7,0.7
2026-01-04T0700,2871A,121.6156,29.9015,宁波市,万里国际学校,细颗粒物(PM2.5),72,72,63,52,48,3,,,,58,52,4,5,0.7,0.6
2026-01-04T0700,3710A,121.5593,29.8976,宁波市,白沙活动中心,细颗粒物(PM2.5),70,68,59,51,45,1,,,,62,53,4,5,0.9,0.8
2026-01-04T0700,4095A,121.8962,29.7529,宁波市,中科路88号,,32,32,44,21,33,38,,,,23,30,3,5,0.7,0.8
2026-01-04T0700,2341A,119.5387,26.6611,宁德市,宁德市监测站,,33,31,25,23,20,25,,,,35,17,7,8,0.6,0.5
2026-01-04T0700,3209A,119.5231,26.6562,宁德市,宁德一中,,26,25,26,18,20,43,,,,14,12,5,6,0.6,0.7
2026-01-04T0700,2618A,98.859,25.8541,怒江傈僳族自治州,州监测站,,26,24,26,18,19,26,,,,7,9,6,7,0.4,0.4
2026-01-04T0700,2619A,98.8607,25.8168,怒江傈僳族自治州,泸水一中,,15,11,23,10,17,15,,,,10,13,5,6,0.4,0.5
2026-01-04T0700,1888A,101.6891,26.571,攀枝花市,弄弄坪,颗粒物(PM10),52,54,40,29,20,9,,,,46,25,44,23,3.9,1.6
2026-01-04T0700,1889A,101.577,26.5914,攀枝花市,河门口,,33,33,35,15,16,12,,,,26,22,12,14,1.0,0.7
2026-01-04T0700,1891A,101.7365,26.4986,攀枝花市,仁和,,22,22,27,12,15,25,,,,23,18,7,11,0.5,0.9
2026-01-04T0700,2835A,101.7222,26.567,攀枝花市,四十中小,,26,26,34,14,19,14,,,,33,25,10,16,0.8,1.2
2026-01-04T0700,1604A,122.0303,41.1489,盘锦市,开发区,细颗粒物(PM2.5),98,82,76,73,67,2,,,,46,33,8,11,1.8,1.2
2026-01-04T0700,1605A,122.0486,41.0883,盘锦市,兴隆台,细颗粒物(PM2.5),117,96,67,88,52,2,,,,72,52,11,10,2.6,1.5
2026-01-04T0700,1606A,121.8297,41.1026,盘锦市,新生街道,细颗粒物(PM2.5),77,63,60,56,46,6,,,,47,45,7,9,1.2,0.9
2026-01-04T0700,1832A,113.3257,33.7423,平顶山市,新华旅馆,细颗粒物(PM2.5),85,81,108,63,93,49,,,,15,20,6,7,0.6,0.8
2026-01-04T0700,1833A,113.2917,33.737,平顶山市,规划设计院,细颗粒物(PM2.5),100,114,122,75,95,40,,,,24,25,5,6,0.9,1
2026-01-04T0700,1834A,113.182,33.7738,平顶山市,平顶山工学院,细颗粒物(PM2.5),67,62,96,48,88,61,,,,13,18,6,6,0.4,0.6
2026-01-04T0700,3594A,112.8736,33.9068,平顶山市,石龙区,细颗粒物(PM2.5),72,58,101,52,86,55,,,,19,32,5,6,0.9,1
2026-01-04T0700,4116A,113.284,33.7139,平顶山市,姚电大道23号,细颗粒物(PM2.5),84,86,128,62,100,50,,,,13,19,8,7,1.0,1.1
2026-01-04T0700,2656A,106.6633,35.5338,平凉市,聚贤嘉苑,,32,32,64,20,49,71,,,,9,14,7,7,0.6,0.9
2026-01-04T0700,2657A,106.7021,35.5307,平凉市,博物馆,细颗粒物(PM2.5),52,45,67,36,54,61,,,,15,17,8,9,0.8,0.9
2026-01-04T0700,2348A,113.8384,27.6436,萍乡市,中医院,细颗粒物(PM2.5),59,63,64,42,46,34,,,,19,18,5,7,0.8,0.7
2026-01-04T0700,2350A,113.8677,27.6438,萍乡市,市环保局,细颗粒物(PM2.5),68,60,61,49,51,43,,,,18,18,14,15,0.3,0.3
2026-01-04T0700,2351A,113.8663,27.6202,萍乡市,安源区政府,细颗粒物(PM2.5),69,74,66,50,48,24,,,,22,24,10,13,0.8,1
2026-01-04T0700,4107A,113.8686,27.6668,萍乡市,联洪村委会,细颗粒物(PM2.5),54,49,60,38,44,36,,,,18,19,6,9,0.6,0.8
2026-01-04T0700,2319A,119.0142,25.4324,莆田市,荔城区仓后路,,27,27,34,16,18,44,,,,20,14,/,/,/,/
2026-01-04T0700,2320A,119.0016,25.4553,莆田市,莆田市监测站,,23,14,27,3,15,72,,,,5,9,3,3,0.5,0.5
2026-01-04T0700,2321A,119.112,25.4561,莆田市,涵江区六中,,19,19,31,13,19,52,,,,20,12,/,/,0.4,0.4
2026-01-04T0700,2322A,119.1014,25.3215,莆田市,秀屿区政府,,26,26,34,13,24,55,,,,15,12,3,3,0.6,0.6
2026-01-04T0700,2392A,115.0312,35.7636,濮阳市,环保局,细颗粒物(PM2.5),102,,79,76,84,24,,,,18,21,6,6,1.4,1.5
2026-01-04T0700,3021A,115,35.7667,濮阳市,濮水河管理处,细颗粒物(PM2.5),104,100,110,78,88,28,,,,29,34,6,6,0.9,0.9
2026-01-04T0700,4118A,115.0552,35.7816,濮阳市,中原东路68号,细颗粒物(PM2.5),114,120,123,86,93,27,,,,21,23,4,5,0.8,0.8
2026-01-04T0700,4216A,115.0923632,35.76857718,濮阳市,任丘路479号,细颗粒物(PM2.5),125,102,108,95,101,14,,,,32,31,4,5,0.9,0.9
2026-01-04T0700,2601A,100.9801,22.7634,普洱市,市环保局,,38,30,44,26,27,15,,,,17,13,5,5,0.5,0.5
2026-01-04T0700,2602A,100.9763,22.8237,普洱市,普洱第二中学,,25,24,34,17,18,17,,,,11,14,4,5,0.4,0.4
2026-01-04T0700,3345A,131.0413,45.7795,七台河市,中波台,细颗粒物(PM2.5),67,53,51,48,34,36,,,,20,19,7,11,0.6,0.6
2026-01-04T0700,3637A,131.0136,45.7688,七台河市,人民广场,细颗粒物(PM2.5),83,68,57,61,41,32,,,,26,25,8,12,0.8,0.6
2026-01-04T0700,3684A,130.8639,45.8144,七台河市,新建矿广场,细颗粒物(PM2.5),70,73,54,51,34,22,,,,25,15,16,11,0.6,0.5
2026-01-04T0700,1779A,123.9307,47.3641,齐齐哈尔市,安居小区,,25,,36,17,28,49,,,,15,23,5,7,0.4,0.6
2026-01-04T0700,1780A,123.9497,47.3389,齐齐哈尔市,中心广场,,17,,21,7,15,52,,,,11,16,5,7,0.6,0.6
2026-01-04T0700,1781A,123.9483,47.3229,齐齐哈尔市,农牧车辆厂,,17,17,30,3,18,52,,,,10,14,3,3,0.3,0.3
2026-01-04T0700,1783A,123.9442,47.2994,齐齐哈尔市,市环境监测站,,20,20,33,6,21,56,,,,11,19,6,8,0.4,0.6
2026-01-04T0700,3662A,123.6341,47.2079,齐齐哈尔市,富区青少年活动中心,,23,23,42,3,30,51,,,,14,24,8,9,0.5,0.8
2026-01-04T0700,2591A,107.9765,26.5724,黔东南苗族侗族自治州,市环境监测站,,9,8,11,6,10,22,,,,8,11,4,4,0.7,0.8
2026-01-04T0700,2881A,107.8909,26.531,黔东南苗族侗族自治州,凯里学院,,9,,10,3,8,28,,,,7,12,4,4,0.7,0.7
2026-01-04T0700,2593A,107.5223,26.2371,黔南布依族苗族自治州,小围寨,,8,6,3,3,3,18,,,,6,7,5,5,0.8,0.8
2026-01-04T0700,3538A,107.5175,26.2977,黔南布依族苗族自治州,沙坝,,8,,5,3,5,22,,,,8,10,4,4,0.8,0.8
2026-01-04T0700,2589A,104.9022,25.0943,黔西南布依族苗族自治州,场坝街,,22,19,18,15,10,22,,,,5,7,3,3,0.6,0.7
2026-01-04T0700,2590A,104.8812,25.0994,黔西南布依族苗族自治州,坪东大道,,12,12,20,8,11,22,,,,5,6,4,4,0.6,0.7
2026-01-04T0700,2502A,108.6238,21.9667,钦州市,市环保站,细颗粒物(PM2.5),243,,73,193,46,25,,,,27,24,4,3,0.8,1.1
2026-01-04T0700,2503A,108.655,21.9481,钦州市,沙埠小学,细颗粒物(PM2.5),103,82,59,77,47,19,,,,34,27,8,5,0.8,0.7
2026-01-04T0700,2504A,108.5989,21.7435,钦州市,港区一小,细颗粒物(PM2.5),73,77,67,53,40,32,,,,38,34,8,8,0.7,0.7
2026-01-04T0700,3404A,108.5959,21.9634,钦州市,北职校,细颗粒物(PM2.5),94,88,60,70,44,13,,,,28,21,7,8,0.9,1.1
2026-01-04T0700,1046A,119.5247,39.9346,秦皇岛市,建设大厦,颗粒物(PM10),64,78,78,44,48,4,,,,49,47,7,9,1.1,1
2026-01-04T0700,3132A,119.5979,39.938,秦皇岛市,文明里,颗粒物(PM10),60,69,83,23,37,1,,,,53,56,9,12,0.6,0.9
2026-01-04T0700,4066A,119.7458,39.9952,秦皇岛市,南园路157号,细颗粒物(PM2.5),74,76,87,54,54,3,,,,60,50,9,11,1.1,1.3
2026-01-04T0700,4067A,119.5131,39.8858,秦皇岛市,翠岛大街1号,颗粒物(PM10),53,55,51,30,33,12,,,,44,42,11,12,1.0,0.9
2026-01-04T0700,4198A,119.509013,39.825305,秦皇岛市,北戴河轮滑馆,细颗粒物(PM2.5),67,73,66,48,43,3,,,,54,48,4,7,1.1,1.5
2026-01-04T0700,1310A,120.404,36.0625,青岛市,市南区东部子站,细颗粒物(PM2.5),122,132,77,92,52,8,,,,69,48,16,14,1.1,0.8
2026-01-04T0700,1311A,120.362344,36.10282,青岛市,四方区子站,细颗粒物(PM2.5),138,110,74,105,60,4,,,,68,52,8,10,1.2,1
2026-01-04T0700,1312A,120.294373,36.054183,青岛市,市南区西部子站,细颗粒物(PM2.5),125,136,83,95,55,16,,,,48,49,9,8,1.0,0.8
2026-01-04T0700,1313A,120.4581,36.0858,青岛市,崂山区子站,细颗粒物(PM2.5),125,127,72,95,48,24,,,,53,41,16,14,1.2,0.9
2026-01-04T0700,1315A,120.3945,36.3083,青岛市,城阳区子站,细颗粒物(PM2.5),95,122,94,71,51,10,,,,61,57,9,10,1.9,1.2
2026-01-04T0700,3642A,120.3454,36.0735,青岛市,市北区南部,细颗粒物(PM2.5),134,117,82,102,53,13,,,,52,41,9,7,1.0,0.8
2026-01-04T0700,3643A,120.3897,36.18,青岛市,李沧区北部,细颗粒物(PM2.5),132,132,79,100,63,4,,,,75,50,12,13,1.4,1
2026-01-04T0700,4110A,120.5222,36.4089,青岛市,盟旺路653号,细颗粒物(PM2.5),134,140,100,102,67,4,,,,85,63,8,10,1.4,0.7
2026-01-04T0700,4290A,120.196923,35.954556,青岛市,珠江路669号,细颗粒物(PM2.5),129,122,83,98,65,7,,,,95,56,16,14,1.1,0.9
2026-01-04T0700,4291A,120.0424,35.8656,青岛市,黄岛区人民政府广场,细颗粒物(PM2.5),134,141,121,102,87,9,,,,53,55,10,11,1.7,1.5
2026-01-04T0700,1703A,113.0218,23.7086,清远市,凤城街办,,32,32,29,22,20,31,,,,28,21,/,/,/,/
2026-01-04T0700,3025A,113.0479,23.6343,清远市,技师学院,颗粒物(PM10),56,62,40,33,26,2,,,,45,35,15,8,0.7,0.7
2026-01-04T0700,3318A,112.9898,23.7403,清远市,清新太和,,27,27,28,18,19,43,,,,16,17,7,6,0.6,0.5
2026-01-04T0700,3455A,113.076,23.72,清远市,清城东城,,32,32,31,21,19,9,,,,38,23,/,/,/,/
2026-01-04T0700,2661A,107.6325,35.7357,庆阳市,庆阳五中,细颗粒物(PM2.5),62,53,55,44,52,82,,,,11,16,4,4,0.5,0.6
2026-01-04T0700,2662A,107.6361,35.7067,庆阳市,市环保局,细颗粒物(PM2.5),57,54,59,40,50,82,,,,9,13,1,2,0.4,0.5
2026-01-04T0700,1916A,103.7897,25.5036,曲靖市,环境监测站,,27,27,21,14,9,33,,,,14,9,3,3,0.6,0.5
2026-01-04T0700,1917A,103.8013,25.5357,曲靖市,烟厂办公区,,21,21,20,10,10,36,,,,15,9,3,3,0.4,0.3
2026-01-04T0700,3376A,103.7926,25.4651,曲靖市,南苑二区,,19,16,17,13,11,41,,,,4,4,4,4,0.4,0.4
2026-01-04T0700,3377A,103.7442,25.5259,曲靖市,曲靖师范学院,,22,19,21,15,12,38,,,,15,9,3,4,0.4,0.4
2026-01-04T0700,1264A,118.8694,28.94,衢州市,环保大楼,细颗粒物(PM2.5),99,96,90,74,70,3,,,,60,43,/,/,/,/
2026-01-04T0700,1266A,118.8622,28.9809,衢州市,衢州学院,细颗粒物(PM2.5),89,83,76,66,62,4,,,,52,38,5,5,0.5,0.4
2026-01-04T0700,4097A,118.9646,28.9832,衢州市,衢州三中,细颗粒物(PM2.5),104,103,95,78,74,1,,,,52,39,5,5,0.6,0.5
2026-01-04T0700,1611A,118.5818,24.9116,泉州市,涂山街,,30,30,34,20,23,51,,,,15,12,3,3,0.4,0.4
2026-01-04T0700,1612A,118.597,24.8976,泉州市,津头埔,,30,30,34,21,24,53,,,,16,15,4,4,0.5,0.5
2026-01-04T0700,1613A,118.6669,24.9422,泉州市,万安,,30,30,36,16,21,40,,,,28,14,2,3,0.4,0.4
2026-01-04T0700,4105A,118.6355,24.9148,泉州市,霞新路6号,,26,24,34,18,25,52,,,,15,13,/,/,0.3,0.3
2026-01-04T0700,2626A,88.8873,29.2723,日喀则市,日喀则监测站,,19,19,19,11,9,38,,,,15,9,6,8,0.5,0.5
2026-01-04T0700,3726A,88.8775,29.2425,日喀则市,林业技术推广中心,,18,14,21,3,7,55,,,,3,4,11,11,0.3,0.3
2026-01-04T0700,1659A,119.4711,35.421,日照市,监测站,细颗粒物(PM2.5),133,136,120,101,91,1,,,,62,60,15,15,1.3,1.2
2026-01-04T0700,1660A,119.523,35.4216,日照市,市政府广场,细颗粒物(PM2.5),117,107,103,88,81,21,,,,52,47,13,13,0.7,0.7
2026-01-04T0700,1661A,119.5511,35.4113,日照市,港务局,细颗粒物(PM2.5),132,119,120,100,90,6,,,,68,59,12,12,0.8,0.8
2026-01-04T0700,3507A,119.5326,35.4627,日照市,职业技术学院,细颗粒物(PM2.5),94,105,107,70,71,28,,,,52,50,11,12,1.0,1
2026-01-04T0700,3604A,119.3267,35.1043,日照市,岚山环保分局,细颗粒物(PM2.5),180,168,124,136,96,14,,,,59,45,66,27,1.3,1.4
2026-01-04T0700,1835A,111.1922,34.7752,三门峡市,市政府,细颗粒物(PM2.5),169,,120,128,138,34,,,,22,26,6,8,0.9,1
2026-01-04T0700,1836A,111.1588,34.794,三门峡市,开发区,细颗粒物(PM2.5),168,146,150,127,135,34,,,,21,23,5,4,0.9,1
2026-01-04T0700,3039A,111.1911,34.7829,三门峡市,三门峡市第一小学,细颗粒物(PM2.5),165,,125,125,133,32,,,,22,25,8,8,1.0,1
2026-01-04T0700,3598A,111.1031,34.719,三门峡市,富达温泉假日酒店,细颗粒物(PM2.5),115,,133,87,127,43,,,,30,39,13,13,0.9,1.1
2026-01-04T0700,2324A,117.621,26.2626,三明市,三钢,,38,27,29,26,26,10,,,,27,22,10,9,0.8,0.8
2026-01-04T0700,2325A,117.6352,26.2714,三明市,三明二中,,30,30,26,20,21,9,,,,25,19,11,10,0.7,0.7
2026-01-04T0700,2326A,117.6028,26.2377,三明市,三元区政府,,35,29,30,24,22,1,,,,24,23,4,6,0.9,0.6
2026-01-04T0700,1877A,109.4962,18.2682,三亚市,河西子站,,27,26,35,12,17,85,,,,6,8,4,4,0.4,0.5
2026-01-04T0700,3540A,109.7348,18.3443,三亚市,君悦子站,,25,25,37,13,16,68,,,,8,9,5,5,0.5,0.5
2026-01-04T0700,4135A,109.1714,18.3739,三亚市,城东小学站,,22,22,30,15,17,61,,,,6,8,/,/,/,/
2026-01-04T0700,2624A,91.7592,29.234,山南市,山南监测站,,21,12,19,3,7,66,,,,2,4,4,4,0.2,0.2
2026-01-04T0700,2625A,91.7701,29.2436,山南市,山南人民医院,,23,14,20,6,8,71,,,,3,4,2,2,0.2,0.3
2026-01-04T0700,1674A,116.6795,23.3666,汕头市,金平子站,细颗粒物(PM2.5),59,53,37,42,27,52,,,,32,16,17,7,0.9,0.7
2026-01-04T0700,1675A,116.7248,23.3632,汕头市,龙湖子站,,44,44,34,26,19,52,,,,22,13,12,11,/,/
2026-01-04T0700,1676A,116.7257,23.2774,汕头市,濠江子站,,46,40,34,32,24,56,,,,21,13,11,8,/,/
2026-01-04T0700,1677A,116.7518,23.4712,汕头市,澄海子站,细颗粒物(PM2.5),55,,42,39,29,50,,,,18,17,10,8,0.7,0.7
2026-01-04T0700,1678A,116.6088,23.2539,汕头市,潮阳子站,细颗粒物(PM2.5),57,50,35,40,20,35,,,,36,13,12,7,0.7,0.5
2026-01-04T0700,3444A,116.4539,23.2684,汕头市,潮南峡山,细颗粒物(PM2.5),65,70,42,47,26,44,,,,26,15,14,10,0.7,0.6
2026-01-04T0700,3624A,116.4069,23.2533,汕头市,潮南子站,细颗粒物(PM2.5),65,68,51,47,28,39,,,,27,16,10,9,/,/
2026-01-04T0700,1693A,115.3653,22.7751,汕尾市,市环保局,,48,36,37,33,26,78,,,,13,15,8,7,0.5,0.5
2026-01-04T0700,1695A,115.362,22.7926,汕尾市,新城中学,,45,38,37,31,26,64,,,,12,12,6,6,0.4,0.4
2026-01-04T0700,2645A,109.9155,33.8714,商洛市,监测站,细颗粒物(PM2.5),63,49,55,45,49,72,,,,16,25,4,5,0.5,0.7
2026-01-04T0700,3045A,109.9647,33.8486,商洛市,商州区中学,细颗粒物(PM2.5),67,,54,48,54,75,,,,8,22,4,7,0.6,0.8
2026-01-04T0700,2408A,115.6701,34.4283,商丘市,环境监测站,细颗粒物(PM2.5),94,78,67,70,65,42,,,,18,15,2,2,0.4,0.4
2026-01-04T0700,2409A,115.6458,34.4047,商丘市,粮食局,细颗粒物(PM2.5),103,,62,77,64,36,,,,19,16,4,4,0.5,0.6
2026-01-04T0700,3171A,115.6069,34.4465,商丘市,梁园区档案局,细颗粒物(PM2.5),90,,60,67,61,34,,,,18,16,2,3,0.6,0.5
2026-01-04T0700,4119A,115.6701,34.3767,商丘市,北海东路185号,细颗粒物(PM2.5),102,100,86,76,68,33,,,,21,29,1,2,0.5,0.6
2026-01-04T0700,4120A,115.6172,34.3704,商丘市,中山大街3号,细颗粒物(PM2.5),108,99,94,81,74,26,,,,27,25,3,2,0.4,0.5
2026-01-04T0700,1141A,121.401,31.2382,上海市,普陀,,48,47,62,33,46,15,,,,67,60,7,8,0.7,0.7
2026-01-04T0700,1142A,121.4774,31.2043,上海市,十五厂,,40,40,64,23,43,14,,,,70,62,8,9,0.7,0.9
2026-01-04T0700,1143A,121.4673,31.3011,上海市,虹口,,43,43,73,29,42,7,,,,64,60,12,13,0.5,0.6
2026-01-04T0700,1147A,121.4253,31.226,上海市,静安监测站,,46,43,63,32,43,29,,,,54,57,8,9,0.5,0.6
2026-01-04T0700,1148A,121.7029,31.1905,上海市,浦东川沙,颗粒物(PM10),52,54,68,29,41,2,,,,83,62,9,10,0.7,0.9
2026-01-04T0700,1149A,121.5339,31.229,上海市,浦东新区监测站,,46,39,62,32,42,10,,,,80,56,8,9,0.7,0.9
2026-01-04T0700,1150A,121.5776,31.2038,上海市,浦东张江,,39,39,65,25,40,8,,,,73,54,8,9,0.7,0.9
2026-01-04T0700,3265A,121.4242,31.3303,上海市,宝山庙行,细颗粒物(PM2.5),58,48,71,41,47,3,,,,78,70,6,8,0.7,0.8
2026-01-04T0700,3266A,121.8789,31.4662,上海市,崇明上实东滩,,42,38,46,29,34,15,,,,22,27,4,7,0.1,0.3
2026-01-04T0700,3268A,121.316,31.2839,上海市,嘉定南翔,细颗粒物(PM2.5),64,59,68,46,50,1,,,,72,61,6,6,0.8,0.7
2026-01-04T0700,3269A,121.3357,30.7455,上海市,金山新城,,43,31,49,30,48,60,,,,29,35,9,10,0.8,0.9
2026-01-04T0700,3270A,121.4996,31.0741,上海市,闵行浦江,,48,42,65,33,45,2,,,,70,57,7,9,0.5,0.5
2026-01-04T0700,3271A,121.2886,31.1663,上海市,青浦徐泾,细颗粒物(PM2.5),55,51,67,39,48,0,,,,82,65,6,7,0.9,1
2026-01-04T0700,3272A,121.2193,31.0382,上海市,松江图书馆,颗粒物(PM10),55,59,78,27,34,1,,,,83,60,7,8,0.6,0.6
2026-01-04T0700,3273A,121.3904,31.206,上海市,长宁仙霞,,43,42,62,30,43,11,,,,70,62,8,8,0.7,0.7
2026-01-04T0700,3274A,121.7964,31.0507,上海市,浦东惠南,颗粒物(PM10),51,52,57,33,38,8,,,,66,49,10,7,0.6,0.8
2026-01-04T0700,3544A,121.4891,30.925,上海市,奉贤南桥新城,细颗粒物(PM2.5),59,51,73,42,55,7,,,,67,57,8,9,0.7,0.8
2026-01-04T0700,4183A,121.417401,31.16637,上海市,冠生园路458号,,45,41,66,31,47,12,,,,73,68,4,6,0.5,0.6
2026-01-04T0700,4205A,121.541914,31.268301,上海市,宁武路151号,颗粒物(PM10),52,54,72,30,44,2,,,,77,63,5,7,0.7,1.1
2026-01-04T0700,2382A,117.9758,28.4439,上饶市,市监测站,细颗粒物(PM2.5),69,78,65,50,40,40,,,,29,23,7,7,/,/
2026-01-04T0700,2383A,117.9521,28.4637,上饶市,凤凰光学,颗粒物(PM10),65,79,64,45,36,23,,,,35,24,12,10,0.7,0.7
2026-01-04T0700,3685A,117.897,28.4316,上饶市,双创科技城,细颗粒物(PM2.5),82,68,59,60,44,48,,,,34,29,8,6,0.8,0.7
2026-01-04T0700,4211A,118.190438,28.444845,上饶市,裕丰大道,细颗粒物(PM2.5),99,97,75,74,55,26,,,,44,30,12,12,1.0,0.8
2026-01-04T0700,1669A,113.5821,24.7733,韶关市,市八中,,49,49,38,32,26,7,,,,37,29,30,12,0.6,0.5
2026-01-04T0700,1671A,113.5916,24.7973,韶关市,园林处,,42,35,31,29,27,3,,,,38,31,27,12,/,/
2026-01-04T0700,1673A,113.5971,24.6864,韶关市,曲江监测站,颗粒物(PM10),52,54,36,33,26,8,,,,30,26,12,13,1.0,0.6
2026-01-04T0700,2809A,113.6668,24.7756,韶关市,大学路288号,,43,34,31,30,22,10,,,,16,15,14,13,/,/
2026-01-04T0700,3622A,113.5556,24.8082,韶关市,碧湖山庄,,48,48,39,30,25,11,,,,19,18,6,7,0.4,0.4
2026-01-04T0700,2464A,111.5277,27.2442,邵阳市,市化工厂,细颗粒物(PM2.5),87,74,64,64,53,14,,,,20,18,10,10,1.0,0.9
2026-01-04T0700,2466A,111.4327,27.2276,邵阳市,市环保局,细颗粒物(PM2.5),80,,52,59,53,37,,,,11,15,6,5,0.9,1
2026-01-04T0700,4218A,111.446,27.2472,邵阳市,北塔二期4-26地块,细颗粒物(PM2.5),84,,54,62,58,18,,,,16,16,5,6,0.9,0.9
2026-01-04T0700,4219A,111.4739,27.2282,邵阳市,邵水西路287号,细颗粒物(PM2.5),84,,50,62,54,21,,,,20,19,11,12,0.7,0.6
2026-01-04T0700,1247A,120.6053,29.9927,绍兴市,城东开发委,细颗粒物(PM2.5),74,63,85,54,76,17,,,,30,37,8,9,0.7,0.8
2026-01-04T0700,2921A,120.5482,30.0003,绍兴市,树下王站,细颗粒物(PM2.5),93,92,96,69,71,7,,,,46,40,6,7,0.8,0.8
2026-01-04T0700,3408A,120.5685,29.936,绍兴市,绍兴中专,细颗粒物(PM2.5),90,82,89,67,70,2,,,,39,35,7,8,0.7,0.7
2026-01-04T0700,3409A,120.4905,30.086,绍兴市,柯桥区政府,细颗粒物(PM2.5),112,103,93,84,76,4,,,,53,47,5,6,0.7,0.7
2026-01-04T0700,3410A,120.8751,30.0249,绍兴市,重华小学,细颗粒物(PM2.5),54,48,72,38,57,22,,,,31,34,4,6,0.6,0.7
2026-01-04T0700,3411A,120.837,30.0137,绍兴市,上虞中学,细颗粒物(PM2.5),59,50,69,42,58,10,,,,43,38,8,9,0.6,0.6
2026-01-04T0700,3560A,120.4715,30.0414,绍兴市,柯桥妇保,细颗粒物(PM2.5),102,94,90,76,69,6,,,,39,34,5,6,0.9,0.9
2026-01-04T0700,3658A,120.6156,30.0762,绍兴市,袍江中学,细颗粒物(PM2.5),104,94,102,78,83,1,,,,51,45,6,7,0.9,0.8
2026-01-04T0700,1356A,114.0948,22.5506,深圳市,通心岭子站,颗粒物(PM10),52,54,40,30,22,33,,,,35,17,7,7,0.7,0.6
2026-01-04T0700,1357A,114.1153,22.5713,深圳市,洪湖,颗粒物(PM10),57,63,48,34,25,4,,,,72,34,8,8,0.8,0.6
2026-01-04T0700,1358A,113.9823,22.5398,深圳市,华侨城,,43,43,39,28,24,47,,,,31,27,/,/,/,/
2026-01-04T0700,1359A,113.9181,22.517,深圳市,南海子站,,43,43,45,26,27,64,,,,21,21,6,6,0.6,0.6
2026-01-04T0700,1360A,114.2345,22.565,深圳市,盐田,,,33,33,16,19,84,,,,10,15,,8,0.5,0.6
2026-01-04T0700,1363A,114.4911,22.5381,深圳市,南澳,,22,20,31,15,18,70,,,,8,9,/,/,/,/
2026-01-04T0700,1364A,114.41,22.6346,深圳市,葵涌,,37,37,31,23,17,50,,,,18,15,7,7,0.6,0.6
2026-01-04T0700,1365A,114.2967,22.5978,深圳市,梅沙,,35,35,34,18,17,80,,,,13,11,/,/,/,/
2026-01-04T0700,1366A,114.0563,22.7353,深圳市,观澜,颗粒物(PM10),62,73,61,42,31,19,,,,40,35,7,7,0.8,0.7
2026-01-04T0700,3305A,114.0614,22.556,深圳市,莲花,,44,44,37,28,22,45,,,,27,23,/,/,/,/
2026-01-04T0700,3306A,114.0144,22.6163,深圳市,民治,颗粒物(PM10),53,55,46,31,26,50,,,,32,32,/,/,/,/
2026-01-04T0700,3307A,114.1756,22.6421,深圳市,横岗,颗粒物(PM10),59,68,47,41,28,39,,,,43,24,/,/,/,/
2026-01-04T0700,3447A,114.344,22.7115,深圳市,坪山,颗粒物(PM10),59,67,48,39,27,26,,,,50,28,9,9,0.8,0.7
2026-01-04T0700,3623A,113.8952,22.586,深圳市,西乡,颗粒物(PM10),53,56,45,36,26,37,,,,38,28,6,5,0.7,0.7
2026-01-04T0700,4220A,114.214113,22.713717,深圳市,黄阁路,"颗粒物(PM10),细颗粒物(PM2.5)",55,59,41,39,24,52,,,,28,20,7,7,0.8,0.6
2026-01-04T0700,1099A,123.5058,41.7084,沈阳市,浑南东路,细颗粒物(PM2.5),132,120,144,100,114,3,,,,67,78,12,16,2.0,2.2
2026-01-04T0700,1100A,123.4238,41.6992,沈阳市,新秀街,细颗粒物(PM2.5),123,118,136,93,96,7,,,,62,71,10,19,2.1,2
2026-01-04T0700,1102A,123.5903,41.8412,沈阳市,东陵路,细颗粒物(PM2.5),110,116,110,83,81,9,,,,53,57,14,16,2.5,1.8
2026-01-04T0700,1103A,123.4267,41.8466,沈阳市,陵东街,细颗粒物(PM2.5),137,141,119,104,89,0,,,,62,62,19,22,2.9,2.1
2026-01-04T0700,1104A,123.4116,41.7654,沈阳市,文化路,细颗粒物(PM2.5),134,140,135,102,98,5,,,,62,69,11,22,2.4,2
2026-01-04T0700,1105A,123.4673,41.787,沈阳市,小河沿,细颗粒物(PM2.5),143,147,124,109,92,7,,,,54,64,10,21,2.6,2
