timepoint,stationcode,longitude,latitude,area,positionname,primarypollutant,aqi,pm10,pm10_24h,pm2_5,pm2_5_24h,o3,o3_24h,o3_8h,o3_8h_24h,no2,no2_24h,so2,so2_24h,co,co_24h
2026-01-04T2300,2568A,102.2503,31.8896,阿坝藏族羌族自治州,马师校,,44,44,25,18,15,40,,73,65,16,13,5,4,0.6,0.6
2026-01-04T2300,3994A,102.2174,31.9016,阿坝藏族羌族自治州,马尔康中学西区,,30,30,21,17,11,47,,78,68,16,10,6,6,0.6,0.5
2026-01-04T2300,2695A,80.2899,41.1684,阿克苏地区,电视台,,50,50,62,21,39,65,,53,53,9,27,4,4,0.2,0.6
2026-01-04T2300,2696A,80.2592,41.1541,阿克苏地区,艺术中心,,42,31,52,29,40,65,,60,60,9,19,4,4,0.5,0.6
2026-01-04T2300,2205A,105.699,38.8409,阿拉善盟,蒙二幼,颗粒物(PM10),59,67,34,16,20,74,,84,79,11,18,10,10,0.5,0.6
2026-01-04T2300,2206A,105.7198,38.8508,阿拉善盟,环保局新楼,,22,16,22,12,17,68,,76,71,8,12,9,9,0.6,0.6
2026-01-04T2300,2708A,88.1266,47.8515,阿勒泰地区,市站,,22,18,10,7,5,70,,70,58,14,24,2,2,0.5,0.5
2026-01-04T2300,4166A,88.1198,47.7931,阿勒泰地区,阿勒泰路33号,,25,15,12,3,4,80,,78,68,11,23,6,7,0.3,0.4
2026-01-04T2300,2630A,80.1171,32.4999,阿里地区,阿里监测站,,27,6,3,3,3,85,,91,91,7,8,10,9,0.5,0.5
2026-01-04T2300,3192A,80.0906,32.5029,阿里地区,阿里藏医院,,31,10,12,3,6,99,,99,99,1,7,8,11,0.4,0.5
2026-01-04T2300,2644A,109.0088,32.6974,安康市,汉滨区检察院,细颗粒物(PM2.5),58,51,57,41,51,6,,37,22,29,26,4,7,0.8,0.8
2026-01-04T2300,4054A,109.0324,32.6913,安康市,市邮政管理局,细颗粒物(PM2.5),79,69,64,58,57,6,,31,16,29,27,5,6,1.0,0.9
2026-01-04T2300,2291A,117.0806,30.5181,安庆市,环科院,细颗粒物(PM2.5),99,84,82,74,69,33,,37,27,19,32,5,7,0.7,0.8
2026-01-04T2300,2292A,117.0331,30.5118,安庆市,马山宾馆,细颗粒物(PM2.5),99,84,83,74,67,30,,41,35,19,30,4,7,0.8,0.8
2026-01-04T2300,2294A,116.9897,30.6146,安庆市,安庆大学,细颗粒物(PM2.5),90,79,80,67,68,41,,28,26,15,39,4,4,0.8,0.9
2026-01-04T2300,3173A,117.0598,30.5351,安庆市,市人大,细颗粒物(PM2.5),100,87,80,75,68,37,,41,36,19,33,6,9,0.6,0.7
2026-01-04T2300,3123A,105.9408,26.2431,安顺市,凤凰山,,28,20,12,19,12,36,,52,46,13,13,14,11,1.0,0.9
2026-01-04T2300,3124A,105.9443,26.2567,安顺市,金钟山,,33,,12,23,14,37,,54,48,9,10,14,12,0.9,0.8
2026-01-04T2300,3125A,105.8983,26.248,安顺市,娄家坡,,,,19,,15,,,51,46,,13,,20,,0.9
2026-01-04T2300,1819A,114.3552,36.1017,安阳市,红庙街,细颗粒物(PM2.5),257,208,146,207,149,17,,39,35,56,41,6,5,1.7,1.3
2026-01-04T2300,1820A,114.361,36.0681,安阳市,银杏小区,细颗粒物(PM2.5),266,219,149,216,160,24,,42,39,48,38,7,5,1.6,1.2
2026-01-04T2300,3141A,114.3921,36.0879,安阳市,信访局,细颗粒物(PM2.5),265,226,159,215,155,29,,44,41,47,37,3,3,1.5,1.2
2026-01-04T2300,3669A,114.4706,36.0634,安阳市,左辅环卫站,细颗粒物(PM2.5),270,240,166,220,154,25,,42,38,45,26,6,4,1.4,1.1
2026-01-04T2300,4117A,114.2918,36.0769,安阳市,钢三路198号,细颗粒物(PM2.5),287,264,209,237,181,7,,27,21,58,44,9,6,2.5,1.6
2026-01-04T2300,1748A,123.0441,41.1201,鞍山市,深沟寺,,49,49,64,31,45,35,,45,34,28,38,7,12,1.1,1.5
2026-01-04T2300,1749A,123.011,41.0931,鞍山市,太阳城,细颗粒物(PM2.5),60,61,65,43,45,32,,45,42,33,40,9,22,1.0,2.3
2026-01-04T2300,1750A,123.0483,41.1445,鞍山市,太平,细颗粒物(PM2.5),72,80,81,52,50,12,,38,25,48,47,7,15,1.2,1.6
2026-01-04T2300,1751A,122.964,41.0968,鞍山市,铁西三道街,细颗粒物(PM2.5),89,119,110,66,58,12,,43,28,69,56,24,21,1.4,2.5
2026-01-04T2300,1753A,123.0219,41.0822,鞍山市,明达新区,细颗粒物(PM2.5),63,63,69,45,48,35,,44,44,22,27,10,21,0.7,2.2
2026-01-04T2300,4201A,122.944647,41.082639,鞍山市,兴盛南路290号,细颗粒物(PM2.5),112,166,151,84,70,2,,40,21,67,64,11,19,1.5,2.2
2026-01-04T2300,2195A,107.4206,40.7609,巴彦淖尔市,附二中,,28,28,65,18,38,51,,59,56,9,27,4,9,0.3,0.6
2026-01-04T2300,2196A,107.37,40.7372,巴彦淖尔市,市环保大楼,,29,29,62,12,29,63,,70,68,8,29,4,7,0.4,0.6
2026-01-04T2300,1956A,86.1476,41.7529,巴音郭楞蒙古自治州,孔雀公园,颗粒物(PM10),82,114,117,29,33,36,,44,44,24,35,7,6,0.5,0.5
2026-01-04T2300,1957A,86.1971,41.7166,巴音郭楞蒙古自治州,棉纺厂,颗粒物(PM10),80,109,133,23,23,37,,49,47,24,31,/,/,/,/
2026-01-04T2300,1958A,86.236,41.7172,巴音郭楞蒙古自治州,经济开发区,颗粒物(PM10),71,92,94,28,20,35,,44,39,18,22,4,4,0.6,0.6
2026-01-04T2300,3181A,106.776805,31.852614,巴中市,市五中,细颗粒物(PM2.5),88,85,56,65,45,4,,41,30,26,19,5,5,1.2,1
2026-01-04T2300,3183A,106.7419,31.8654,巴中市,圣泉水务公司,细颗粒物(PM2.5),65,55,48,47,43,2,,42,22,34,22,5,5,0.8,0.7
2026-01-04T2300,3616A,106.7617,31.8343,巴中市,市中心医院,细颗粒物(PM2.5),198,162,74,148,66,2,,36,16,29,20,7,7,1.1,1
2026-01-04T2300,2235A,122.7909,45.608,白城市,洮北区环保局,,25,25,37,12,29,58,,60,56,10,21,6,4,0.3,0.4
2026-01-04T2300,2236A,122.8741,45.5725,白城市,市环保局,,20,14,33,13,27,61,,63,60,6,17,5,6,0.3,0.4
2026-01-04T2300,2231A,126.4219,41.9172,白山市,喜丰,颗粒物(PM10),68,86,80,44,44,11,,54,34,56,44,13,16,1.7,1.5
2026-01-04T2300,2232A,126.4082,41.9416,白山市,环保局,细颗粒物(PM2.5),93,72,69,69,52,17,,46,24,36,36,9,13,1.5,1.7
2026-01-04T2300,2647A,104.1727,36.5448,白银市,第三小学,,30,30,50,19,40,72,,75,74,13,22,3,11,0.6,0.8
2026-01-04T2300,2648A,104.1467,36.5482,白银市,动力公司,,29,26,47,20,41,75,,78,77,9,16,4,10,0.5,0.7
2026-01-04T2300,2512A,106.6102,23.901,百色市,市监测站,,7,6,44,3,31,16,,25,15,10,22,7,12,0.7,0.9
2026-01-04T2300,2513A,106.6524,23.8842,百色市,市中心血站,,9,8,45,3,42,14,,26,14,17,28,8,11,0.7,0.9
2026-01-04T2300,4133A,106.6273,23.8798,百色市,龙景西路,,7,7,59,3,55,10,,19,14,8,21,7,13,0.6,0.7
2026-01-04T2300,2270A,117.396,32.9389,蚌埠市,工人疗养院,细颗粒物(PM2.5),83,93,87,61,59,18,,44,34,44,48,6,7,0.7,0.7
2026-01-04T2300,2271A,117.3606,32.9428,蚌埠市,百货大楼,细颗粒物(PM2.5),77,78,79,56,55,30,,41,37,36,52,5,6,0.6,0.7
2026-01-04T2300,2273A,117.4183,32.8909,蚌埠市,蚌埠学院,细颗粒物(PM2.5),83,75,68,61,54,22,,42,25,43,45,4,5,0.6,0.6
2026-01-04T2300,2274A,117.3534,32.9672,蚌埠市,淮上区政府,细颗粒物(PM2.5),93,90,85,69,63,26,,42,32,35,54,2,4,0.7,0.7
2026-01-04T2300,2275A,117.3143,32.8977,蚌埠市,高新区,细颗粒物(PM2.5),87,75,71,64,58,30,,38,28,31,42,6,8,0.5,0.6
2026-01-04T2300,3715A,117.3091,32.9314,蚌埠市,蚌埠田家炳中学,细颗粒物(PM2.5),84,82,85,62,61,29,,35,30,38,52,6,8,0.6,0.7
2026-01-04T2300,1585A,109.8761,40.6533,包头市,市环境监测站,,42,42,57,8,18,56,,68,61,11,16,5,8,0.3,0.3
2026-01-04T2300,1587A,109.9992,40.5843,包头市,包头八中,,49,49,61,10,20,56,,66,49,11,25,5,5,0.3,0.5
2026-01-04T2300,1589A,109.8641,40.6288,包头市,惠龙物流,,30,30,50,10,18,56,,69,59,10,16,9,11,0.5,0.4
2026-01-04T2300,1590A,110.0376,40.5546,包头市,东河鸿龙湾,,32,32,48,3,15,48,,70,49,19,33,14,10,0.5,0.6
2026-01-04T2300,3283A,109.9154,40.5684,包头市,滨河大厦,,30,30,37,10,16,50,,67,53,10,14,6,5,0.5,0.5
2026-01-04T2300,3419A,109.9449,40.6259,包头市,包头市委党校,,37,37,56,25,24,51,,63,54,14,19,13,12,0.4,0.6
2026-01-04T2300,3683A,109.8332,40.6577,包头市,昆区政府,,39,39,47,8,14,53,,66,59,14,18,10,10,0.6,0.6
2026-01-04T2300,1931A,107.0802,34.3129,宝鸡市,竹园沟,,26,,35,18,35,63,,76,73,10,9,6,6,0.3,0.4
2026-01-04T2300,1933A,107.1429,34.3549,宝鸡市,监测站,,46,32,49,32,47,45,,69,64,23,22,4,4,0.6,0.7
2026-01-04T2300,1934A,107.1172,34.3759,宝鸡市,技工学校,细颗粒物(PM2.5),52,,52,36,51,46,,72,66,10,15,2,4,0.6,0.7
2026-01-04T2300,1936A,107.2025,34.3518,宝鸡市,文理学院,细颗粒物(PM2.5),74,54,50,54,48,37,,68,61,27,23,4,4,0.6,0.5
2026-01-04T2300,1937A,107.2396,34.3626,宝鸡市,三迪小学,细颗粒物(PM2.5),79,58,54,58,55,39,,68,59,24,24,3,4,0.7,0.7
2026-01-04T2300,4155A,107.1721,34.3558,宝鸡市,滨河北路,细颗粒物(PM2.5),62,62,51,44,44,43,,79,71,25,22,5,6,0.8,0.7
2026-01-04T2300,4308A,107.3898,34.3601,宝鸡市,陈仓区北开路21号,细颗粒物(PM2.5),84,66,66,62,62,55,,79,66,21,23,14,26,0.8,0.7
2026-01-04T2300,1051A,115.4803,38.8568,保定市,游泳馆,细颗粒物(PM2.5),122,129,133,92,107,6,,18,7,86,77,10,10,1.5,1.4
2026-01-04T2300,1052A,115.509,38.8895,保定市,华电二区,细颗粒物(PM2.5),115,99,115,87,103,1,,15,4,58,59,4,5,1.4,1.6
2026-01-04T2300,1053A,115.4588,38.9037,保定市,接待中心,细颗粒物(PM2.5),107,105,119,80,93,2,,20,9,60,60,2,4,1.3,1.1
2026-01-04T2300,1054A,115.4484,38.8344,保定市,地表水厂,细颗粒物(PM2.5),109,121,151,82,108,8,,23,10,77,73,41,8,1.2,1.3
2026-01-04T2300,3581A,115.3136,38.9511,保定市,满城区生态环境分局,细颗粒物(PM2.5),100,119,146,75,97,2,,28,10,78,72,9,8,1.5,1.5
2026-01-04T2300,3582A,115.4709,38.7628,保定市,清苑区第二中学,细颗粒物(PM2.5),108,136,193,81,123,2,,15,3,83,82,8,9,1.0,1.4
2026-01-04T2300,3583A,115.6231,39.0223,保定市,徐水物探局,细颗粒物(PM2.5),145,164,164,111,108,4,,19,8,81,70,13,11,1.5,1.4
2026-01-04T2300,4004A,115.4199,38.8665,保定市,双鹰农机,细颗粒物(PM2.5),112,138,155,84,90,11,,28,18,66,61,10,10,1.2,1.1
2026-01-04T2300,4034A,115.515,38.8589,保定市,植保所站,细颗粒物(PM2.5),132,124,139,100,121,0,,8,1,93,89,5,5,1.8,1.4
2026-01-04T2300,2594A,99.1589,25.1137,保山市,市环境监测站,,29,,19,20,15,48,,76,65,7,8,3,6,0.4,0.4
2026-01-04T2300,2595A,99.1616,25.1381,保山市,市环保局,细颗粒物(PM2.5),55,,22,39,18,60,,79,71,3,6,4,4,0.4,0.4
2026-01-04T2300,1867A,109.1435,21.4085,北海市,海滩公园,颗粒物(PM10),53,56,43,29,24,112,,138,130,17,15,10,10,0.7,0.5
2026-01-04T2300,1868A,109.0983,21.466,北海市,新市环保局,细颗粒物(PM2.5),55,51,44,39,28,109,,131,125,19,17,5,6,0.7,0.6
2026-01-04T2300,1869A,109.1775,21.5232,北海市,北海工业园,颗粒物(PM10),53,56,54,32,32,100,,122,115,15,18,7,11,0.7,0.7
2026-01-04T2300,3400A,109.1844,21.4396,北海市,龙潭自来水厂,颗粒物(PM10),51,52,44,35,29,110,,132,125,12,14,8,9,0.8,0.7
2026-01-04T2300,1001A,116.3611,39.8786,北京市,万寿西宫,细颗粒物(PM2.5),104,131,71,78,40,2,,38,19,88,58,11,5,1.3,0.7
2026-01-04T2300,1003A,116.4174,39.9289,北京市,东四,细颗粒物(PM2.5),99,113,66,74,38,6,,41,23,66,48,10,4,1.7,1
2026-01-04T2300,1004A,116.4073,39.8858,北京市,天坛,细颗粒物(PM2.5),88,97,61,65,38,3,,37,20,72,51,3,3,1.4,0.9
2026-01-04T2300,1005A,116.4622,39.9364,北京市,农展馆,细颗粒物(PM2.5),90,106,68,67,39,4,,40,26,68,46,10,6,1.5,0.9
2026-01-04T2300,1006A,116.3399,39.9293,北京市,官园,细颗粒物(PM2.5),104,118,69,78,41,1,,40,22,78,52,12,6,1.4,0.8
2026-01-04T2300,1007A,116.2879,39.9613,北京市,海淀万柳,细颗粒物(PM2.5),77,100,66,56,35,1,,29,12,74,57,6,4,1.1,0.8
2026-01-04T2300,1008A,116.6635,40.1349,北京市,顺义新城,颗粒物(PM10),77,104,60,53,31,1,,48,22,65,42,7,6,1.2,0.7
2026-01-04T2300,1009A,116.6275,40.327,北京市,怀柔镇,,39,39,34,22,19,26,,48,32,22,27,7,6,0.6,0.6
2026-01-04T2300,1010A,116.2295,40.217,北京市,昌平镇,,43,43,54,22,30,14,,26,24,41,44,5,5,0.7,0.8
2026-01-04T2300,1011A,116.3968,39.982,北京市,奥体中心,细颗粒物(PM2.5),85,105,58,63,34,2,,35,20,86,62,8,6,1.6,0.9
2026-01-04T2300,3418A,116.8336,40.4095,北京市,密云新城,颗粒物(PM10),51,51,32,27,17,18,,64,43,36,22,4,3,0.7,0.5
2026-01-04T2300,3671A,116.0879,39.9725,北京市,门头沟三家店,颗粒物(PM10),53,56,59,27,28,2,,28,11,41,39,2,3,0.6,0.7
2026-01-04T2300,3672A,116.1507,39.8246,北京市,丰台云岗,颗粒物(PM10),68,86,71,47,37,16,,34,21,50,53,5,4,0.8,0.7
2026-01-04T2300,3674A,115.9578,39.7602,北京市,房山燕山,颗粒物(PM10),58,65,64,39,36,20,,29,26,34,38,5,5,0.7,0.6
2026-01-04T2300,3675A,116.4669,39.7734,北京市,大兴旧宫,细颗粒物(PM2.5),84,109,95,62,50,2,,33,22,69,56,4,5,1.4,1.1
2026-01-04T2300,3694A,115.9859,40.4562,北京市,延庆石河营,颗粒物(PM10),55,59,53,30,32,7,,36,20,43,32,3,3,0.9,1
2026-01-04T2300,3695A,116.6151,40.3052,北京市,怀柔新城,,31,31,31,21,20,29,,49,40,17,18,4,4,0.4,0.3
2026-01-04T2300,3696A,116.2542,39.8764,北京市,丰台小屯,颗粒物(PM10),80,109,84,56,42,2,,30,12,81,63,5,5,1.2,1
2026-01-04T2300,3697A,116.8399,40.3843,北京市,密云镇,颗粒物(PM10),54,57,44,28,23,2,,59,23,53,37,3,2,0.7,0.6
2026-01-04T2300,4057A,115.9423,40.4431,北京市,延庆百泉,,49,49,51,25,34,21,,41,33,28,30,3,3,0.5,0.8
2026-01-04T2300,4058A,116.6598,39.9164,北京市,通州新华,细颗粒物(PM2.5),104,131,105,78,60,0,,26,16,83,65,6,7,1.9,1.1
2026-01-04T2300,4182A,116.1942,39.9158,北京市,石景山八角,颗粒物(PM10),61,72,70,32,37,5,,28,14,61,57,3,3,0.6,0.6
2026-01-04T2300,4194A,117.078628,40.151726,北京市,平谷新城,细颗粒物(PM2.5),98,103,79,73,54,7,,31,20,49,45,3,3,1.3,1
2026-01-04T2300,1761A,123.8274146,41.31234549,本溪市,大峪,细颗粒物(PM2.5),114,117,107,86,66,7,,37,21,55,48,7,13,1.5,2.3
2026-01-04T2300,1763A,123.7169,41.3094,本溪市,彩屯,细颗粒物(PM2.5),134,129,140,102,107,7,,39,19,60,55,7,14,1.5,3.1
2026-01-04T2300,1764A,123.7672166,41.28649327,本溪市,东明,细颗粒物(PM2.5),147,,103,112,74,4,,37,17,67,52,8,15,2.0,2.6
2026-01-04T2300,1765A,123.799345,41.266614,本溪市,新立屯,,38,35,65,26,45,9,,36,13,46,47,8,16,1.0,2.6
2026-01-04T2300,1766A,123.829144,41.336777,本溪市,威宁,细颗粒物(PM2.5),156,178,128,119,79,7,,36,17,65,52,8,10,2.2,2.1
2026-01-04T2300,2587A,105.287,27.3133,毕节市,八中,,29,,12,20,9,45,,41,41,8,10,8,9,0.8,0.8
2026-01-04T2300,2588A,105.3079,27.2987,毕节市,师专,,20,20,14,13,8,49,,43,43,9,10,7,7,0.9,0.9
2026-01-04T2300,4263A,105.3688,27.3598,毕节市,工业大道,,29,28,14,20,11,44,,42,42,5,7,9,10,/,/
2026-01-04T2300,1629A,117.9961,37.3604,滨州市,第二水厂,细颗粒物(PM2.5),192,215,190,144,123,19,,47,36,46,62,11,16,1.2,1.3
2026-01-04T2300,1630A,117.9789,37.3931,滨州市,北中新校,细颗粒物(PM2.5),247,237,182,197,148,0,,51,31,66,57,8,12,1.2,1.3
2026-01-04T2300,3514A,117.9379,37.3959,滨州市,中海酒店,细颗粒物(PM2.5),250,229,179,200,154,11,,60,40,66,53,10,13,1.1,1.1
2026-01-04T2300,3515A,117.9381509,37.35547456,滨州市,开发区一中,细颗粒物(PM2.5),245,227,182,195,155,18,,54,43,41,50,15,19,1.2,1.2
2026-01-04T2300,3516A,118.0914,37.6938,滨州市,金海六路,细颗粒物(PM2.5),203,198,204,153,163,3,,52,25,82,70,14,21,1.4,1.5
2026-01-04T2300,4028A,117.9955,37.3752,滨州市,滨州市西街道办事处,细颗粒物(PM2.5),250,229,191,200,162,14,,52,38,46,51,10,14,1.3,1.4
2026-01-04T2300,2311A,115.8071,33.8399,亳州市,污水处理厂,细颗粒物(PM2.5),70,58,67,51,56,45,,65,52,21,32,4,5,0.4,0.5
2026-01-04T2300,2312A,115.7789,33.8519,亳州市,三国揽胜宫,细颗粒物(PM2.5),65,70,73,47,52,38,,58,45,17,21,3,3,0.5,0.5
2026-01-04T2300,3332A,115.7631,33.803,亳州市,亳州学院,细颗粒物(PM2.5),72,65,61,52,55,35,,64,48,20,21,2,3,0.4,0.4
2026-01-04T2300,2693A,82.0482,44.8553,博尔塔拉蒙古自治州,市党校,"颗粒物(PM10),细颗粒物(PM2.5)",78,106,111,57,61,26,,35,29,34,28,2,3,1.1,1.2
2026-01-04T2300,2694A,82.0805,44.8966,博尔塔拉蒙古自治州,市环保局,颗粒物(PM10),110,169,125,81,60,36,,40,37,44,36,8,9,1.4,1.1
2026-01-04T2300,1071A,116.8733,38.2922,沧州市,沧县城建局,细颗粒物(PM2.5),132,143,195,100,183,5,,43,21,75,66,8,8,2.3,1.6
2026-01-04T2300,1072A,116.8462,38.3189,沧州市,电视转播站,细颗粒物(PM2.5),188,171,194,141,173,0,,39,16,71,57,10,8,2.1,1.3
2026-01-04T2300,1073A,116.8588,38.3161,沧州市,市环保局,细颗粒物(PM2.5),178,152,191,134,176,5,,30,16,69,55,11,8,2.1,1.4
2026-01-04T2300,3324A,116.8011,38.294,沧州市,河北水利电力学院,细颗粒物(PM2.5),178,188,206,134,151,2,,40,20,78,61,14,12,2.3,1.4
2026-01-04T2300,2622A,97.1813,31.1289,昌都市,昌都监测站,颗粒物(PM10),56,62,34,19,12,48,,88,74,25,12,1,1,0.6,0.4
2026-01-04T2300,3719A,97.1707,31.1428,昌都市,昌都会议中心,,21,17,12,11,7,65,,85,83,3,2,3,2,0.5,0.4
2026-01-04T2300,2692A,87.2722,44.0298,昌吉回族自治州,新区政务中心,细颗粒物(PM2.5),169,180,121,128,79,3,,40,21,64,57,6,7,1.6,1.3
2026-01-04T2300,3613A,87.3069,44.0093,昌吉回族自治州,亚心广场,细颗粒物(PM2.5),170,178,140,129,92,6,,48,36,62,52,5,7,1.6,1.5
2026-01-04T2300,4164A,87.2057,43.9289,昌吉回族自治州,财政所,细颗粒物(PM2.5),89,98,97,66,65,54,,60,51,18,24,5,5,0.7,0.7
2026-01-04T2300,1120A,125.2874,43.9024,长春市,客车厂,细颗粒物(PM2.5),150,,79,115,84,30,,48,30,46,47,12,14,1.1,1
2026-01-04T2300,1121A,125.2943,43.8508,长春市,邮电学院,细颗粒物(PM2.5),148,128,93,113,76,22,,49,29,52,46,15,15,1.1,1
2026-01-04T2300,1122A,125.3648,43.8745,长春市,劳动公园,细颗粒物(PM2.5),123,106,92,93,66,23,,48,30,54,48,8,8,1.1,1.2
2026-01-04T2300,1123A,125.3233,43.8781,长春市,园林处,细颗粒物(PM2.5),119,95,75,90,65,22,,45,30,47,39,10,11,1.0,0.8
2026-01-04T2300,1124A,125.4604,43.7904,长春市,净月潭,细颗粒物(PM2.5),113,101,96,85,74,32,,47,39,32,33,6,7,1.1,1
2026-01-04T2300,1126A,125.38,43.8422,长春市,经开区环卫处,细颗粒物(PM2.5),118,111,104,89,72,12,,46,27,64,52,7,8,1.2,1.1
2026-01-04T2300,1127A,125.234,43.7761,长春市,高新区管委会,细颗粒物(PM2.5),127,100,115,96,104,26,,48,21,48,50,8,8,1.3,1.4
2026-01-04T2300,1128A,125.1695,43.83,长春市,岱山公园,细颗粒物(PM2.5),165,,95,125,86,26,,48,27,48,49,8,12,1.1,1.1
2026-01-04T2300,4281A,125.334645,43.916281,长春市,北亚泰大街1068号,细颗粒物(PM2.5),115,92,78,87,70,30,,43,29,40,46,10,16,1.0,1
2026-01-04T2300,1335A,113.082,28.2421,长沙市,经开区环保局,,42,31,40,29,36,19,,23,22,26,24,3,3,0.5,0.5
2026-01-04T2300,1336A,112.8873,28.2202,长沙市,高开区环保局,细颗粒物(PM2.5),53,,44,37,40,17,,24,21,19,18,4,4,0.8,0.7
2026-01-04T2300,1337A,113.0785,28.2012,长沙市,马坡岭,,42,31,41,29,36,28,,28,28,20,26,3,4,0.8,0.8
2026-01-04T2300,1338A,112.9448,28.1894,长沙市,湖南师范大学,,43,41,41,30,32,25,,30,30,26,24,4,4,0.6,0.6
2026-01-04T2300,1339A,113.0177,28.1322,长沙市,雨花区环保局,,49,34,37,34,34,23,,27,27,24,23,6,6,0.6,0.6
2026-01-04T2300,1340A,112.9795,28.2593,长沙市,伍家岭,,48,34,45,33,35,32,,33,33,14,18,4,4,0.5,0.5
2026-01-04T2300,1341A,113.002,28.1944,长沙市,火车新站,,42,40,58,29,35,33,,31,31,16,20,7,7,0.5,0.5
2026-01-04T2300,1342A,112.9846,28.1177,长沙市,天心区环保局,,48,36,41,33,35,27,,28,28,27,27,5,4,0.6,0.6
2026-01-04T2300,1343A,112.8906,28.1307,长沙市,湖南中医药大学,,49,37,42,34,37,26,,27,26,22,25,5,5,0.7,0.6
2026-01-04T2300,1727A,113.1146,36.1547,长治市,清华站,细颗粒物(PM2.5),64,46,73,46,72,54,,49,49,20,34,11,18,0.9,1.2
2026-01-04T2300,1730A,113.0887,36.2126,长治市,审计局,细颗粒物(PM2.5),73,,67,53,68,58,,55,55,16,31,10,18,1.0,1
2026-01-04T2300,1731A,113.0845,36.1856,长治市,长治八中,细颗粒物(PM2.5),73,55,80,53,77,56,,55,55,13,26,10,17,1.2,1.2
2026-01-04T2300,2845A,113.1561,36.1912,长治市,德盛苑,细颗粒物(PM2.5),67,,68,48,70,50,,48,48,13,28,8,14,1.0,1.1
2026-01-04T2300,3568A,113.0603,36.0464,长治市,向阳小学,细颗粒物(PM2.5),130,112,98,99,84,33,,52,42,38,34,16,19,1.7,1.4
2026-01-04T2300,3569A,112.8788,36.315,长治市,屯留一中,细颗粒物(PM2.5),160,,70,122,72,28,,57,41,37,29,6,7,1.5,1
2026-01-04T2300,4189A,113.113092,36.199482,长治市,英华南巷50号,细颗粒物(PM2.5),67,59,77,48,70,63,,57,57,13,28,9,14,1.0,1.1
2026-01-04T2300,4190A,113.23666,36.33435,长治市,学府街1号,细颗粒物(PM2.5),90,,71,67,78,52,,54,54,24,36,12,16,1.3,1.5
2026-01-04T2300,1854A,111.696,28.9725,常德市,市二中,细颗粒物(PM2.5),78,61,53,57,49,8,,30,26,37,22,4,4,1.0,0.7
2026-01-04T2300,3138A,111.7152,29.0288,常德市,武陵区永安,细颗粒物(PM2.5),63,57,57,45,44,17,,34,24,28,20,3,3,1.0,0.8
2026-01-04T2300,3139A,111.6891,28.9881,常德市,鼎城区玉霞,细颗粒物(PM2.5),79,64,53,58,47,3,,30,20,35,24,7,7,1.2,0.9
2026-01-04T2300,3140A,111.6651,29.0526,常德市,武陵区长庚,细颗粒物(PM2.5),72,61,53,52,46,15,,32,27,29,20,3,3,0.9,0.8
2026-01-04T2300,1196A,119.9524,31.7586,常州市,市监测站,细颗粒物(PM2.5),124,130,113,94,80,0,,23,15,87,81,4,5,1.1,1.1
2026-01-04T2300,1200A,119.9351,31.703,常州市,武进监测站,细颗粒物(PM2.5),125,127,103,95,78,0,,21,8,74,78,7,8,0.9,0.9
2026-01-04T2300,3002A,119.9701,31.813,常州市,行政中心,细颗粒物(PM2.5),120,108,98,91,75,1,,22,7,85,77,6,8,1.1,0.9
2026-01-04T2300,3003A,120.0434,31.7726,常州市,经开区,细颗粒物(PM2.5),114,154,127,86,78,2,,22,13,74,73,8,9,1.3,1.1
2026-01-04T2300,3010A,119.8919,31.7892,常州市,钟楼,细颗粒物(PM2.5),127,119,103,96,78,2,,26,8,75,71,6,8,1.0,1
2026-01-04T2300,3429A,119.8595,31.706,常州市,武进经发区,细颗粒物(PM2.5),132,114,108,100,88,3,,28,11,70,73,6,9,1.1,1
2026-01-04T2300,3430A,119.5812,31.7256,常州市,金坛城区,细颗粒物(PM2.5),117,101,100,88,84,18,,28,26,,51,6,9,0.9,1
2026-01-04T2300,4089A,119.9551,31.863,常州市,崇义南街5-H号,细颗粒物(PM2.5),120,104,96,91,84,0,,24,6,89,78,5,6,1.2,0.9
2026-01-04T2300,2220A,120.4318,41.588,朝阳市,西梁,,49,47,125,34,73,24,,41,35,48,45,11,16,0.8,1.7
2026-01-04T2300,2221A,120.452,41.565,朝阳市,河畔小区,细颗粒物(PM2.5),63,62,79,45,59,16,,49,36,46,39,7,11,1.1,1.4
2026-01-04T2300,2222A,120.4176,41.5648,朝阳市,八里堡,,48,48,91,19,56,42,,47,44,31,41,13,15,0.7,1.5
2026-01-04T2300,3026A,116.6179,23.6608,潮州市,市政府,细颗粒物(PM2.5),73,63,62,53,32,35,,104,79,44,21,20,10,0.7,0.5
2026-01-04T2300,4036A,116.646,23.676,潮州市,金山,细颗粒物(PM2.5),59,60,51,42,33,46,,102,82,22,14,4,4,0.5,0.4
2026-01-04T2300,2473A,113.0116,25.8228,郴州市,市职中,,49,44,59,34,52,18,,25,20,13,17,3,4,0.6,0.6
2026-01-04T2300,2475A,113.0381,25.8074,郴州市,市审计局,细颗粒物(PM2.5),57,42,60,40,53,13,,28,25,18,18,3,3,/,/
2026-01-04T2300,2476A,113.0348,25.7757,郴州市,市环保局,颗粒物(PM10),52,53,69,30,51,20,,32,30,20,22,3,5,0.6,0.7
2026-01-04T2300,4252A,113.0138,25.8011,郴州市,好美居路49号,细颗粒物(PM2.5),57,,59,40,57,25,,30,29,14,19,1,5,/,/
2026-01-04T2300,1431A,103.9727,30.7242,成都市,金泉两河,细颗粒物(PM2.5),73,68,38,53,21,21,,66,52,45,32,2,2,0.7,0.7
2026-01-04T2300,1432A,104.1423,30.6765,成都市,十里店,细颗粒物(PM2.5),58,56,33,41,22,16,,68,50,56,33,4,3,0.8,0.6
2026-01-04T2300,1433A,104.0594,30.5765,成都市,三瓦窑,细颗粒物(PM2.5),62,57,38,44,28,30,,68,54,42,33,5,3,0.8,0.7
2026-01-04T2300,1434A,104.1122,30.6306,成都市,沙河铺,细颗粒物(PM2.5),79,72,42,58,34,13,,62,45,55,32,3,4,0.7,0.6
2026-01-04T2300,2880A,104.0219,30.6561,成都市,大石西路,细颗粒物(PM2.5),58,59,42,41,29,24,,58,48,41,31,6,5,0.7,0.6
2026-01-04T2300,3136A,104.2724,30.559,成都市,龙泉驿区区政府,细颗粒物(PM2.5),52,41,23,36,21,21,,43,38,24,19,5,6,0.7,0.7
2026-01-04T2300,3357A,104.0028,30.6891,成都市,金博路,颗粒物(PM10),51,51,26,31,20,22,,65,54,47,31,5,5,0.9,0.8
2026-01-04T2300,3359A,104.056,30.5228,成都市,华阳,细颗粒物(PM2.5),52,48,31,36,28,32,,68,57,33,29,3,3,0.6,0.6
2026-01-04T2300,3488A,104.387954,30.746684,成都市,青石路225号,细颗粒物(PM2.5),63,50,34,45,27,31,,60,51,33,24,5,6,0.5,0.6
2026-01-04T2300,3489A,104.0788,30.4054,成都市,科学城,细颗粒物(PM2.5),55,47,35,39,32,32,,71,60,21,18,6,6,0.8,0.8
2026-01-04T2300,4011A,103.8505,30.6946,成都市,光华大道三段,细颗粒物(PM2.5),77,66,39,56,26,40,,74,64,31,25,3,3,0.7,0.7
2026-01-04T2300,4144A,104.3257,30.6406,成都市,八角井街185号,细颗粒物(PM2.5),58,59,41,41,27,36,,59,52,26,24,2,4,0.9,1
2026-01-04T2300,4224A,104.2433276,30.53529463,成都市,鲸龙路1057号,细颗粒物(PM2.5),67,54,33,48,27,25,,67,57,36,23,5,5,0.4,0.4
2026-01-04T2300,1062A,117.9531,40.908,承德市,铁路,,43,43,68,30,35,22,,30,17,27,38,6,8,0.7,1.1
2026-01-04T2300,1063A,117.9397,40.9763,承德市,中国银行,颗粒物(PM10),55,59,72,28,32,5,,35,15,38,30,2,4,0.7,0.8
2026-01-04T2300,4073A,117.9462,40.95,承德市,杏林街1号,细颗粒物(PM2.5),60,64,64,43,39,4,,37,19,48,37,4,6,0.9,1
2026-01-04T2300,4274A,117.7994,40.9605,承德市,滨河大街98号,,20,20,57,3,24,52,,60,52,12,29,3,7,0.2,0.8
2026-01-04T2300,2314A,117.4698,30.6617,池州市,池州学院,细颗粒物(PM2.5),97,80,82,72,72,26,,40,35,29,31,3,5,0.6,0.8
2026-01-04T2300,3237A,117.4918,30.6617,池州市,展览馆,细颗粒物(PM2.5),89,80,80,66,64,30,,40,35,30,35,2,3,0.7,1
2026-01-04T2300,3333A,117.5626,30.695,池州市,第八中学,细颗粒物(PM2.5),103,93,85,77,70,24,,36,29,37,38,8,6,0.8,1
2026-01-04T2300,3334A,117.5037,30.6242,池州市,第十二中学,细颗粒物(PM2.5),104,89,77,78,64,18,,37,26,41,42,4,4,1.0,1.2
2026-01-04T2300,1744A,118.9229,42.2816,赤峰市,松山一中,,42,41,61,29,35,4,,60,41,56,36,27,17,1.7,1.4
2026-01-04T2300,1745A,118.9588,42.2733,赤峰市,哈达街,,42,42,52,18,31,21,,63,48,35,30,13,12,1.1,1
2026-01-04T2300,1746A,118.8792,42.2551,赤峰市,天义路,细颗粒物(PM2.5),58,43,45,41,37,8,,64,41,51,32,14,13,1.2,1
2026-01-04T2300,3058A,119.2656,42.0356,赤峰市,银河街,,46,46,109,28,71,44,,59,51,18,30,19,22,0.8,2.2
2026-01-04T2300,3286A,118.9359,42.3146,赤峰市,桥北物流园区,,36,27,39,25,28,17,,63,44,39,31,23,12,0.8,0.9
2026-01-04T2300,2521A,107.3473,22.4137,崇左市,市环保局江州分局,细颗粒物(PM2.5),92,81,71,68,51,32,,41,40,24,21,8,8,0.8,0.7
2026-01-04T2300,4256A,107.375,22.3736,崇左市,石景林东路7号,细颗粒物(PM2.5),100,75,63,75,56,27,,42,39,33,25,9,8,0.8,0.7
2026-01-04T2300,3207A,118.31131,32.3033,滁州市,市政府原办公楼,细颗粒物(PM2.5),73,60,74,53,60,63,,61,58,17,42,5,6,0.5,0.7
2026-01-04T2300,3331A,118.3268,32.2633,滁州市,图书馆,细颗粒物(PM2.5),75,63,74,55,61,57,,57,53,12,40,8,9,0.6,0.8
2026-01-04T2300,4101A,118.3196,32.3335,滁州市,银山路666号,细颗粒物(PM2.5),99,,66,74,77,47,,54,53,13,34,7,8,0.8,1
2026-01-04T2300,4102A,118.3426,32.2979,滁州市,黄山路555号,细颗粒物(PM2.5),92,73,85,68,77,60,,62,58,17,43,9,11,0.7,0.9
2026-01-04T2300,2606A,101.5379,25.0492,楚雄彝族自治州,市经济开发区,,21,18,18,12,15,65,,74,70,10,14,4,4,0.5,0.5
2026-01-04T2300,4153A,101.5536,25.0343,楚雄彝族自治州,团结路562号,,23,,15,12,13,73,,74,74,2,10,2,2,0.3,0.4
2026-01-04T2300,2549A,107.5087,31.2186,达州市,市环境监测站,细颗粒物(PM2.5),85,81,66,63,49,2,,34,17,41,34,6,5,0.7,0.5
2026-01-04T2300,2550A,107.4988,31.2132,达州市,凤凰小区,细颗粒物(PM2.5),94,92,70,70,53,4,,38,21,41,30,4,4,0.7,0.5
2026-01-04T2300,2551A,107.5081,31.1987,达州市,达县机关宾馆,细颗粒物(PM2.5),104,110,75,78,56,4,,29,17,37,33,3,2,0.8,0.7
2026-01-04T2300,2552A,107.4644,31.2124,达州市,市政中心,细颗粒物(PM2.5),79,99,74,58,46,5,,42,27,46,31,6,6,0.7,0.4
2026-01-04T2300,2614A,100.2168,25.5818,大理白族自治州,大理市环境监测站,,28,,14,19,15,64,,73,70,11,8,6,6,0.5,0.5
2026-01-04T2300,2615A,100.1542,25.7055,大理白族自治州,大理古城,,22,17,16,11,11,68,,82,77,8,7,8,8,0.6,0.6
2026-01-04T2300,1109A,121.6119,38.974,大连市,甘井子,细颗粒物(PM2.5),57,49,41,40,28,47,,61,47,30,29,11,12,0.3,0.4
2026-01-04T2300,1110A,121.565,38.9509,大连市,周水子,细颗粒物(PM2.5),52,47,46,36,32,40,,49,42,35,43,12,12,0.6,0.7
2026-01-04T2300,1111A,121.5637,38.8849,大连市,星海三站,,50,43,36,35,27,39,,53,46,29,27,10,11,0.8,0.8
2026-01-04T2300,1112A,121.6301,38.9117,大连市,青泥洼桥,,50,47,44,35,31,44,,43,40,31,41,12,11,0.5,0.6
2026-01-04T2300,1113A,121.6248,38.8643,大连市,傅家庄,,36,36,35,25,23,50,,49,42,22,29,12,11,0.2,0.3
2026-01-04T2300,1114A,121.5117,38.8636,大连市,七贤岭,,45,42,34,31,23,52,,59,54,22,19,10,9,0.6,0.7
2026-01-04T2300,1116A,121.7507,39.1339,大连市,金州,细颗粒物(PM2.5),53,47,37,37,26,51,,78,52,27,21,13,12,0.6,0.5
2026-01-04T2300,1117A,121.7811,39.0495,大连市,开发区,,31,31,55,9,34,72,,54,54,5,37,6,7,0.4,0.9
2026-01-04T2300,1118A,121.9762,39.0631,大连市,双D港,,28,28,31,16,21,74,,76,61,11,15,12,15,0.6,0.6
2026-01-04T2300,4082A,121.2548,38.8188,大连市,旅顺,细颗粒物(PM2.5),57,62,58,40,41,50,,52,50,18,21,9,11,0.8,0.9
2026-01-04T2300,1789A,124.8085,46.0381,大庆市,大同区,,49,38,38,34,24,36,,60,45,32,19,6,6,0.4,0.4
2026-01-04T2300,1790A,125.1166,46.5255,大庆市,龙凤区,,48,48,31,25,16,40,,56,45,34,28,14,11,0.6,0.7
2026-01-04T2300,1791A,124.8894,46.4007,大庆市,红岗区,,35,29,27,24,19,38,,56,47,26,19,6,6,0.5,0.5
2026-01-04T2300,1792A,125.1391,46.578,大庆市,萨尔图区,,36,36,31,23,16,38,,53,38,28,22,9,9,0.5,0.4
2026-01-04T2300,1793A,124.9026,46.6217,大庆市,让胡路区,,42,33,26,29,24,57,,66,58,12,12,9,8,0.4,0.4
2026-01-04T2300,3481A,125.127,46.6277,大庆市,萨区政府监测点,,38,38,29,24,13,30,,60,42,38,23,9,9,0.9,0.7
2026-01-04T2300,1723A,113.2926,40.0759,大同市,云冈宾馆,,25,25,46,9,21,38,,56,49,22,28,7,10,0.6,1.4
2026-01-04T2300,1724A,113.3437,40.0921,大同市,大同大学,,27,27,41,12,18,51,,58,52,12,26,10,10,0.4,0.9
2026-01-04T2300,1725A,113.2637,40.129,大同市,安家小村,,30,30,52,12,21,46,,64,58,20,29,12,13,0.6,1.1
2026-01-04T2300,3282A,113.3399,40.0586,大同市,大同市卫生学校,,28,28,43,7,18,49,,56,52,15,29,8,9,0.5,1
2026-01-04T2300,3565A,113.1371,40.1122,大同市,云冈站,,42,42,50,14,21,21,,56,38,36,30,16,12,1.3,0.9
2026-01-04T2300,3566A,113.1186,40.2556,大同市,图书馆,,39,39,67,17,35,39,,56,48,18,25,15,11,0.6,1.2
2026-01-04T2300,3567A,113.5931,40.0459,大同市,区一中,,28,28,78,10,40,56,,62,58,10,34,14,20,0.3,1.2
2026-01-04T2300,4199A,113.2798248,40.09972476,大同市,魏都大道141号,,38,38,64,15,24,45,,56,51,17,30,6,9,0.6,1.4
2026-01-04T2300,2269A,124.1068,50.4091,大兴安岭地区,科技局,,20,17,16,14,12,54,,63,59,1,2,6,5,0.3,0.3
2026-01-04T2300,3663A,124.117,50.4279,大兴安岭地区,红旗社区,,19,9,6,7,4,60,,68,64,1,3,6,5,0.2,0.2
2026-01-04T2300,1600A,124.33,40.0625,丹东市,江湾东路,,32,32,83,21,63,54,,47,40,20,35,11,20,0.7,1.9
2026-01-04T2300,1601A,124.4242,40.1513,丹东市,临江后街,,34,34,72,18,46,56,,48,34,17,37,8,14,0.9,1.5
2026-01-04T2300,1602A,124.3935,40.1461,丹东市,元宝山,,37,37,64,24,50,56,,48,48,18,34,10,14,0.8,1.3
2026-01-04T2300,1603A,124.3634,40.1093,丹东市,民主桥,,46,46,74,17,44,57,,44,40,18,37,10,13,0.7,1.2
2026-01-04T2300,3541A,109.5726195,19.51688767,儋州市,第一中学子站,,46,46,38,22,20,63,,77,73,4,4,4,4,0.5,0.5
2026-01-04T2300,3542A,109.5567,19.5187,儋州市,东坡学校子站,,42,42,36,18,18,69,,84,79,3,4,5,4,0.5,0.5
2026-01-04T2300,2616A,98.5611,24.4273,德宏傣族景颇族自治州,德宏州监测站,细颗粒物(PM2.5),53,43,47,37,37,35,,56,49,17,21,6,7,0.7,0.7
2026-01-04T2300,3677A,98.5887,24.4366,德宏傣族景颇族自治州,芒市人民政府综合楼,,50,50,46,31,31,29,,53,49,13,16,8,9,0.8,0.7
2026-01-04T2300,1901A,104.424,31.1209,德阳市,东山公园,,42,32,27,29,23,44,,50,48,17,19,2,2,0.8,0.8
2026-01-04T2300,1902A,104.3827,31.1318,德阳市,西小区,颗粒物(PM10),58,65,47,35,26,8,,52,40,56,27,2,2,1.1,0.9
2026-01-04T2300,1904A,104.3553,31.1091,德阳市,耐火材料厂,细颗粒物(PM2.5),53,47,37,37,31,8,,52,40,53,31,1,1,0.9,0.8
2026-01-04T2300,4145A,104.4144,31.1495,德阳市,市林业局,细颗粒物(PM2.5),59,42,33,42,28,5,,48,34,46,23,2,2,0.8,0.8
2026-01-04T2300,1622A,116.3034,37.4675,德州市,儿童乐园,细颗粒物(PM2.5),235,234,165,185,128,4,,36,24,73,51,17,18,1.7,1.5
2026-01-04T2300,1624A,116.2992,37.4449,德州市,监理站,细颗粒物(PM2.5),240,232,165,190,131,23,,46,37,63,55,19,20,1.4,1.2
2026-01-04T2300,3066A,116.2722,37.438,德州市,九衢泉纯净水厂,细颗粒物(PM2.5),238,222,166,188,135,13,,35,27,56,55,19,25,1.2,1.1
2026-01-04T2300,3371A,116.3693,37.44,德州市,开发区人民医院,细颗粒物(PM2.5),228,237,169,178,122,10,,41,26,82,69,18,19,1.2,1
2026-01-04T2300,3511A,116.5687,37.3331,德州市,陵城艺术中心,细颗粒物(PM2.5),233,222,165,183,132,4,,36,21,69,64,20,20,1.6,1.3
2026-01-04T2300,4292A,116.352738,37.420875,德州市,新河东路,细颗粒物(PM2.5),238,219,167,188,138,13,,38,29,69,69,15,18,1.6,1.4
2026-01-04T2300,2621A,99.7054,27.8319,迪庆藏族自治州,迪庆州站,,33,29,22,23,16,60,,83,76,15,8,6,5,0.7,0.4
2026-01-04T2300,3180A,99.7122,27.8129,迪庆藏族自治州,质量技术监督局,,29,20,20,20,16,71,,88,82,12,10,4,5,0.7,0.5
2026-01-04T2300,4257A,104.6092,35.5962,定西市,将台街,"颗粒物(PM10),细颗粒物(PM2.5)",59,68,64,42,48,33,,90,77,40,25,13,10,0.7,0.6
2026-01-04T2300,4309A,104.6159,35.5701,定西市,正龙路62号,颗粒物(PM10),70,89,68,47,53,43,,82,71,20,13,12,7,0.8,0.7
2026-01-04T2300,1390A,113.7943,23.0132,东莞市,东城石井,颗粒物(PM10),55,60,49,34,30,35,,110,83,59,38,8,9,0.9,0.8
2026-01-04T2300,1391A,113.7384,22.9659,东莞市,南城西平,颗粒物(PM10),63,76,62,40,36,30,,113,74,80,59,9,10,0.8,0.7
2026-01-04T2300,3319A,113.7283,23.041,东莞市,万江金泰,细颗粒物(PM2.5),82,108,64,60,35,3,,108,66,94,44,6,6,1.4,0.8
2026-01-04T2300,4129A,113.8666,23.1062,东莞市,裕兴路,颗粒物(PM10),87,123,67,59,36,6,,121,71,92,44,14,10,1.1,0.8
2026-01-04T2300,4130A,114.0076,22.9739,东莞市,教育路1号,颗粒物(PM10),102,153,86,73,45,6,,118,66,113,61,7,7,1.1,0.9
2026-01-04T2300,4131A,113.7981,22.8124,东莞市,长怡路1号,颗粒物(PM10),70,89,69,41,34,5,,118,73,102,54,12,9,0.9,0.8
2026-01-04T2300,1666A,118.6612,37.4313,东营市,市环保局,细颗粒物(PM2.5),199,188,175,149,140,10,,58,40,57,59,9,19,1.3,1.3
2026-01-04T2300,3036A,118.6903,37.4337,东营市,开发区管委会,细颗粒物(PM2.5),206,190,171,156,140,13,,66,46,58,61,11,21,1.5,1.4
2026-01-04T2300,3365A,118.5721,37.5654,东营市,垦利区民丰路,细颗粒物(PM2.5),178,171,174,134,142,,,49,36,61,60,7,11,1.6,1.5
2026-01-04T2300,3498A,118.5063,37.8606,东营市,河口城区,细颗粒物(PM2.5),102,112,189,76,144,23,,59,30,52,53,7,7,1.1,1.3
2026-01-04T2300,3646A,118.4979,37.4623,东营市,胜利站,细颗粒物(PM2.5),243,246,195,193,153,1,,55,32,74,65,15,19,2.0,1.7
2026-01-04T2300,3734A,118.5753,37.4405,东营市,理想之城,细颗粒物(PM2.5),218,205,175,168,143,1,,49,24,73,69,6,13,1.5,1.4
2026-01-04T2300,1591A,110.0024,39.8127,鄂尔多斯市,综合楼,,31,31,37,9,14,54,,63,59,19,21,7,10,0.5,0.6
2026-01-04T2300,1592A,109.9485,39.8259,鄂尔多斯市,巴音孟克林场办事处,,19,19,51,9,15,52,,58,55,18,24,6,11,0.4,0.6
2026-01-04T2300,1593A,109.7734,39.5987,鄂尔多斯市,康泽苑,,21,17,32,12,16,65,,81,72,9,11,5,6,0.3,0.4
2026-01-04T2300,1594A,109.8121,39.5987,鄂尔多斯市,华泰汽车城,,19,19,36,12,15,60,,77,70,10,16,2,4,0.3,0.5
2026-01-04T2300,1595A,109.9734,39.7884,鄂尔多斯市,奥林花园,,31,31,51,7,12,56,,60,58,16,22,2,6,0.5,0.6
2026-01-04T2300,2436A,114.894,30.3989,鄂州市,市政府,细颗粒物(PM2.5),52,46,45,36,40,22,,61,26,19,20,4,5,0.9,0.8
2026-01-04T2300,2437A,114.8986,30.3714,鄂州市,赵家坝,细颗粒物(PM2.5),60,58,41,43,44,25,,55,32,14,14,6,6,0.7,0.5
2026-01-04T2300,3654A,114.8093,30.4091,鄂州市,精准医疗中心,细颗粒物(PM2.5),57,54,55,40,48,25,,58,33,17,15,4,4,0.9,1
2026-01-04T2300,2454A,109.4978,30.2979,恩施土家族苗族自治州,湖北民院,细颗粒物(PM2.5),93,,42,69,45,11,,48,28,15,15,6,6,0.9,0.8
2026-01-04T2300,3549A,109.5061,30.3771,恩施土家族苗族自治州,龙凤新区,细颗粒物(PM2.5),89,76,50,66,44,9,,28,18,11,11,7,7,0.7,0.6
2026-01-04T2300,2499A,108.3411,21.6159,防城港市,沙万,,,,100,59,41,62,,111,94,21,27,7,8,0.7,0.8
2026-01-04T2300,2500A,108.3515,21.7733,防城港市,防城档案局,细颗粒物(PM2.5),83,85,74,61,48,43,,91,74,18,21,5,6,0.7,0.8
2026-01-04T2300,2501A,108.3506,21.6414,防城港市,大海花园,细颗粒物(PM2.5),60,64,60,43,39,60,,122,103,15,19,8,10,0.8,0.9
2026-01-04T2300,1371A,113.1293,23.0065,佛山市,湾梁,颗粒物(PM10),62,73,80,37,47,12,,106,89,90,68,/,/,/,/
2026-01-04T2300,1372A,113.1082,23.0477,佛山市,华材职中,颗粒物(PM10),91,132,101,64,50,6,,113,84,116,72,6,7,1.2,0.8
2026-01-04T2300,1373A,113.1439,23.045,佛山市,南海气象局,颗粒物(PM10),75,100,82,53,49,18,,112,95,94,68,/,/,/,/
2026-01-04T2300,1374A,113.2879,22.8094,佛山市,顺德苏岗,颗粒物(PM10),56,62,64,39,39,27,,103,70,55,58,/,/,0.8,0.8
2026-01-04T2300,1376A,112.8384,22.8678,佛山市,高明孔堂,细颗粒物(PM2.5),59,58,68,42,48,70,,120,110,26,40,/,/,/,/
2026-01-04T2300,1377A,112.8835,23.1584,佛山市,三水监测站,细颗粒物(PM2.5),90,114,102,67,63,2,,113,64,114,65,7,12,0.9,0.8
2026-01-04T2300,1378A,112.8668,23.185,佛山市,三水云东海,细颗粒物(PM2.5),78,96,87,57,55,0,,119,92,115,48,/,/,/,/
2026-01-04T2300,3625A,113.2568,22.7629,佛山市,容桂街道办,颗粒物(PM10),73,95,76,48,45,63,,104,98,56,55,/,/,/,/
2026-01-04T2300,1282A,119.2681,26.0506,福州市,师大,,45,45,37,25,15,55,,78,70,39,27,8,8,0.6,0.5
2026-01-04T2300,1283A,119.2983,26.1028,福州市,五四北路,颗粒物(PM10),51,51,43,27,15,13,,74,40,64,31,5,5,0.8,0.6
2026-01-04T2300,1284A,119.2648,26.0769,福州市,杨桥西路,,46,46,35,24,14,35,,80,61,43,20,5,5,/,/
2026-01-04T2300,3048A,119.5799,26.0937,福州市,九龙,,36,36,28,19,12,21,,88,68,44,18,4,5,0.6,0.6
2026-01-04T2300,3526A,119.5188,25.9666,福州市,吴航,,35,35,31,16,14,39,,74,60,28,27,5,6,0.6,0.7
2026-01-04T2300,4104A,119.3106,26.0648,福州市,路通桥巷6号,颗粒物(PM10),51,52,36,28,19,58,,76,64,25,20,/,/,/,/
2026-01-04T2300,1755A,123.7974,41.8494,抚顺市,望花区,细颗粒物(PM2.5),238,226,173,188,134,5,,26,12,78,68,10,14,2.6,2.3
2026-01-04T2300,1756A,123.9161,41.8827,抚顺市,顺城区,细颗粒物(PM2.5),186,170,144,140,108,5,,31,12,74,65,8,12,2.1,2.1
2026-01-04T2300,1757A,124.0437,41.8615,抚顺市,东洲区,细颗粒物(PM2.5),203,156,129,153,107,6,,28,10,71,61,10,13,1.9,2.1
2026-01-04T2300,1758A,123.9246,41.8638,抚顺市,新抚区,细颗粒物(PM2.5),218,224,155,168,121,,,28,,72,62,6,10,2.4,2.2
2026-01-04T2300,1759A,124.0972,41.8961,抚顺市,大伙房水库,细颗粒物(PM2.5),185,167,123,139,98,3,,38,13,81,58,10,16,2.2,2
2026-01-04T2300,1760A,123.708,41.8386,抚顺市,沈抚新城,细颗粒物(PM2.5),206,213,158,156,130,11,,31,18,77,68,6,12,2.3,2.3
2026-01-04T2300,2377A,116.3544,27.9833,抚州市,市站,细颗粒物(PM2.5),52,46,52,36,39,45,,46,46,12,17,13,10,0.5,0.5
2026-01-04T2300,2378A,116.3562,27.9631,抚州市,血防站,细颗粒物(PM2.5),53,50,56,37,40,44,,47,44,12,20,6,7,0.7,0.8
2026-01-04T2300,2379A,116.3561,28.0007,抚州市,采茶剧团,细颗粒物(PM2.5),52,52,53,36,40,37,,42,41,6,14,17,8,0.7,0.7
2026-01-04T2300,2380A,116.3854,27.9648,抚州市,医学分院,颗粒物(PM10),52,53,58,32,38,51,,49,49,9,18,4,10,0.5,0.6
2026-01-04T2300,2207A,121.6095,41.9978,阜新市,工业园区,颗粒物(PM10),59,67,89,16,37,54,,66,45,12,27,11,15,0.4,0.8
2026-01-04T2300,2208A,121.6567,42.0188,阜新市,长青街,,29,29,60,9,40,58,,68,54,12,27,8,10,0.3,0.8
2026-01-04T2300,2209A,121.6672,42.07,阜新市,农业园区,,45,34,49,31,26,60,,66,60,10,16,17,14,0.5,0.5
2026-01-04T2300,2211A,121.6343,42.0455,阜新市,玉龙新城,,33,33,74,6,33,58,,62,39,11,33,7,9,0.3,0.7
2026-01-04T2300,2301A,115.8276,32.8929,阜阳市,市监测站,细颗粒物(PM2.5),70,69,90,51,68,49,,39,39,16,38,4,5,0.6,0.7
2026-01-04T2300,2303A,115.8551,32.8606,阜阳市,开发区,细颗粒物(PM2.5),88,68,83,65,65,34,,39,38,24,38,5,5,0.5,0.6
2026-01-04T2300,2875A,115.783962,32.889217,阜阳市,阜阳职业技术学院,细颗粒物(PM2.5),59,44,73,42,57,59,,54,51,9,23,5,6,0.6,0.7
2026-01-04T2300,3468A,115.79,32.8614,阜阳市,市规划展馆,细颗粒物(PM2.5),67,63,76,48,62,59,,53,51,12,24,5,6,0.4,0.5
2026-01-04T2300,3469A,115.835101,32.918568,阜阳市,枣园社区,细颗粒物(PM2.5),78,74,87,57,68,53,,44,44,17,39,4,6,0.3,0.4
2026-01-04T2300,2669A,102.9097,34.9841,甘南藏族自治州,州政府,,,85,81,44,50,,,74,68,58,29,4,4,1.1,0.8
2026-01-04T2300,3380A,102.8915,34.9618,甘南藏族自治州,甘肃民族师范学院,颗粒物(PM10),79,107,77,48,48,12,,71,48,55,34,7,5,0.8,0.6
2026-01-04T2300,2570A,101.96,30.048,甘孜藏族自治州,水桥子,,15,15,8,3,4,47,,63,61,18,12,5,6,0.7,0.7
2026-01-04T2300,3065A,101.9534,29.9976,甘孜藏族自治州,州环保局,,15,11,12,6,5,45,,61,60,19,12,5,6,0.5,0.6
2026-01-04T2300,2363A,114.9368,25.8663,赣州市,地委,颗粒物(PM10),55,59,51,36,29,49,,52,51,15,26,8,8,0.8,0.8
2026-01-04T2300,2364A,114.946,25.8483,赣州市,气象台,颗粒物(PM10),61,71,57,35,25,53,,55,52,17,39,2,3,0.8,0.8
2026-01-04T2300,2365A,114.932,25.8332,赣州市,市图书馆,细颗粒物(PM2.5),67,50,48,48,31,46,,48,46,17,34,3,4,0.7,0.7
2026-01-04T2300,2366A,114.8905,25.8472,赣州市,华坚鞋城,细颗粒物(PM2.5),52,50,48,36,28,48,,52,47,15,29,6,6,0.4,0.5
2026-01-04T2300,3109A,115.0094,25.8614,赣州市,赣县区卫计委,细颗粒物(PM2.5),68,52,46,49,37,37,,50,47,16,27,7,8,0.5,0.5
2026-01-04T2300,2684A,106.2753,36.0057,固原市,监测站,细颗粒物(PM2.5),54,51,39,38,35,70,,89,76,24,23,4,4,0.7,0.8
2026-01-04T2300,2685A,106.2384,36.0189,固原市,新区,细颗粒物(PM2.5),63,,34,45,30,60,,94,72,31,19,2,3,0.8,0.7
2026-01-04T2300,2544A,106.6307,30.4577,广安市,市委,细颗粒物(PM2.5),72,67,52,52,40,7,,46,33,41,23,6,5,1.1,0.9
2026-01-04T2300,2545A,106.6266,30.4662,广安市,友谊中学,细颗粒物(PM2.5),75,,44,55,42,9,,56,39,23,10,6,6,0.8,0.6
2026-01-04T2300,2547A,106.6386,30.4551,广安市,广电花园,细颗粒物(PM2.5),75,61,47,55,41,2,,45,28,35,20,8,8,0.9,0.7
2026-01-04T2300,2902A,106.6347,30.4868,广安市,北辰小学,细颗粒物(PM2.5),75,57,48,55,45,13,,54,38,18,14,18,17,1.0,0.9
2026-01-04T2300,2524A,105.8211,32.4444,广元市,老城,颗粒物(PM10),61,71,43,24,32,6,,82,44,69,35,6,6,0.7,0.8
2026-01-04T2300,2526A,105.8629,32.429,广元市,监测站,,28,28,43,19,27,47,,82,58,21,23,2,3,0.6,0.9
2026-01-04T2300,3617A,105.8047,32.4167,广元市,经开区,,45,45,41,29,31,2,,74,43,66,29,2,3,1.0,0.8
2026-01-04T2300,1345A,113.2346,23.1423,广州市,广雅中学,颗粒物(PM10),81,112,80,56,44,1,,103,61,122,66,3,3,1.2,0.9
2026-01-04T2300,1346A,113.2611,23.105,广州市,市五中,颗粒物(PM10),73,96,69,52,39,5,,116,76,123,74,8,9,/,/
2026-01-04T2300,1348A,113.3477,23.0916,广州市,广东商学院,细颗粒物(PM2.5),90,110,63,67,40,7,,103,69,103,61,6,7,0.9,0.6
2026-01-04T2300,1349A,113.4332,23.105,广州市,市八十六中,细颗粒物(PM2.5),83,92,53,61,37,2,,112,70,120,62,8,8,/,/
2026-01-04T2300,1350A,113.3506,22.9488,广州市,番禺中学,细颗粒物(PM2.5),94,126,82,70,45,5,,110,71,104,68,4,6,1.2,0.7
2026-01-04T2300,1351A,113.2147,23.3918,广州市,花都师范,细颗粒物(PM2.5),74,93,72,54,42,9,,127,98,109,59,6,6,1.1,0.7
2026-01-04T2300,1352A,113.2599,23.1329,广州市,市监测站,颗粒物(PM10),73,95,72,51,42,3,,102,67,119,69,1,2,/,/
2026-01-04T2300,1353A,113.5618,23.3119,广州市,九龙镇镇龙,颗粒物(PM10),71,91,59,51,34,20,,114,74,57,37,5,6,0.6,0.5
2026-01-04T2300,1354A,113.2764,23.1544,广州市,麓湖,二氧化氮(NO2),56,48,53,30,34,2,,101,60,112,60,7,8,0.5,0.4
2026-01-04T2300,2846A,113.3209,23.1323,广州市,体育西,细颗粒物(PM2.5),82,96,67,60,41,6,,109,75,123,64,5,6,1.3,0.8
2026-01-04T2300,3298A,113.5718,23.5493,广州市,从化街口,细颗粒物(PM2.5),74,82,58,54,39,3,,113,69,72,37,8,9,1.0,0.8
2026-01-04T2300,3299A,113.3463,23.369,广州市,白云竹料,细颗粒物(PM2.5),93,124,73,69,44,7,,126,81,94,45,5,4,0.9,0.6
2026-01-04T2300,3300A,113.2981,23.2365,广州市,白云嘉禾,颗粒物(PM10),75,100,68,53,34,11,,115,67,108,59,5,5,/,/
2026-01-04T2300,3301A,113.4256,23.1716,广州市,黄埔科学城,颗粒物(PM10),59,68,49,37,30,28,,120,79,63,38,6,6,0.7,0.6
2026-01-04T2300,3302A,113.3942,23.0485,广州市,番禺大学城,颗粒物(PM10),58,66,64,35,35,39,,117,,64,54,10,10,0.6,0.6
2026-01-04T2300,3303A,113.4923,22.8169,广州市,南沙黄阁,颗粒物(PM10),56,61,62,28,31,43,,109,70,62,51,9,9,/,/
2026-01-04T2300,3304A,113.534,22.7893,广州市,南沙街,颗粒物(PM10),56,62,55,31,29,63,,111,90,44,37,7,7,0.7,0.6
2026-01-04T2300,3443A,113.2905,23.5541,广州市,花都梯面,,44,44,47,25,27,2,,116,60,57,36,4,6,/,/
2026-01-04T2300,3445A,113.786,23.7479,广州市,从化良口,,26,26,23,18,18,52,,94,80,21,13,7,7,/,/
2026-01-04T2300,3446A,113.805,23.2614,广州市,增城荔城,,50,50,35,34,24,27,,97,62,38,22,5,8,0.7,0.5
2026-01-04T2300,2506A,109.604387,23.066791,贵港市,江南子站,细颗粒物(PM2.5),153,117,86,117,64,28,,66,44,26,32,4,9,0.9,0.9
2026-01-04T2300,2508A,109.5669,23.1065,贵港市,荷城子站,细颗粒物(PM2.5),134,,75,102,54,27,,52,34,24,26,4,9,0.8,0.7
2026-01-04T2300,3405A,109.5886,23.1172,贵港市,新世纪学校,细颗粒物(PM2.5),140,122,86,107,56,26,,57,34,25,29,/,/,0.7,0.6
2026-01-04T2300,4260A,109.5933,23.095,贵港市,中山路155-3号,细颗粒物(PM2.5),123,114,70,93,55,32,,64,42,26,29,/,/,0.9,0.8
2026-01-04T2300,1439A,106.6863,26.6035,贵阳市,马鞍山,,29,29,18,19,16,20,,38,30,16,14,5,5,/,/
2026-01-04T2300,1441A,106.6241,26.6266,贵阳市,鉴湖路,,34,34,23,17,10,40,,49,44,16,17,5,4,0.6,0.6
2026-01-04T2300,1442A,106.7468,26.6344,贵阳市,燕子冲,,32,27,25,22,23,30,,40,36,11,15,7,8,0.8,0.8
2026-01-04T2300,1443A,106.6556,26.4362,贵阳市,碧云窝,,41,41,32,24,16,27,,32,30,20,19,10,7,/,/
2026-01-04T2300,1445A,106.6963,26.6063,贵阳市,红边门,,35,31,24,24,17,27,,30,28,16,18,10,9,/,/
2026-01-04T2300,1446A,106.7162383,26.56964667,贵阳市,新华路,,36,36,30,24,17,35,,38,35,17,17,8,8,0.7,0.6
2026-01-04T2300,1447A,106.6742,26.542,贵阳市,太慈桥,,35,34,20,24,14,31,,39,36,19,20,5,4,/,/
2026-01-04T2300,4230A,106.688212,26.56952,贵阳市,花果园大街66号,,33,,15,23,17,25,,35,31,20,18,5,3,/,/
2026-01-04T2300,4231A,106.687268,26.516892,贵阳市,漓江路57号,,39,39,26,22,18,24,,33,29,22,21,8,9,0.9,0.8
2026-01-04T2300,1864A,110.3091,25.2705,桂林市,龙隐路小学,,36,32,51,25,56,20,,29,17,15,19,6,6,0.5,0.5
2026-01-04T2300,1865A,110.2849361,25.22909545,桂林市,八中,,49,,52,34,54,19,,26,15,19,24,6,7,0.7,0.7
2026-01-04T2300,3531A,110.296,25.1254,桂林市,旅游学院,,32,,49,22,42,24,,30,20,15,20,3,3,0.6,0.6
2026-01-04T2300,4222A,110.1835,25.2444,桂林市,环湖路276号,,35,24,57,24,48,23,,29,18,14,22,6,6,0.6,0.6
2026-01-04T2300,4301A,110.2803,25.2773,桂林市,信义路13号,,42,29,51,29,48,21,,31,15,17,24,4,4,0.7,0.7
2026-01-04T2300,2674A,100.2262,34.4854,果洛藏族自治州,玛沁县大武镇,,36,36,34,12,9,60,,92,86,5,3,13,13,0.4,0.4
2026-01-04T2300,1130A,126.5557,45.8109,哈尔滨市,松北商大,,43,35,46,30,31,16,,55,36,51,30,7,9,0.6,0.6
2026-01-04T2300,1132A,126.6162,45.719,哈尔滨市,南岗学府路,,40,33,51,28,34,34,,49,39,26,27,13,12,0.7,0.8
2026-01-04T2300,1133A,126.6894,45.7733,哈尔滨市,太平宏伟公园,,43,41,39,30,31,38,,56,43,31,25,32,26,0.6,0.5
2026-01-04T2300,1134A,126.6361,45.7672,哈尔滨市,道外承德广场,,50,50,53,25,30,37,,53,43,35,27,20,12,0.8,0.3
2026-01-04T2300,1136A,126.644,45.7261,哈尔滨市,动力和平路,,39,39,46,22,31,38,,51,42,27,28,27,17,0.7,0.7
2026-01-04T2300,1137A,126.5933,45.7479,哈尔滨市,道里建国路,,42,31,40,29,35,31,,50,36,36,24,16,16,0.9,0.3
2026-01-04T2300,1138A,126.6127,45.6119,哈尔滨市,平房东轻厂,细颗粒物(PM2.5),67,56,47,48,44,6,,46,18,64,38,18,8,0.7,0.5
2026-01-04T2300,1139A,126.5875,45.9827,哈尔滨市,呼兰师专,细颗粒物(PM2.5),64,46,47,46,47,12,,51,28,50,28,12,9,0.8,0.7
2026-01-04T2300,1140A,126.6299,45.6799,哈尔滨市,省农科院,,39,27,70,27,48,28,,43,31,42,39,17,15,0.6,1.2
2026-01-04T2300,4282A,126.6769,45.7379,哈尔滨市,华山路1号,,31,31,42,21,29,38,,48,43,26,28,25,29,0.7,0.7
2026-01-04T2300,4283A,126.9717,45.5356,哈尔滨市,解放大街52号,,,83,94,,62,8,,52,37,55,35,16,18,1.2,1
2026-01-04T2300,2688A,93.5124,42.8176,哈密市,地区监测站,颗粒物(PM10),66,81,50,44,33,13,,61,41,38,15,3,4,1.2,0.2
2026-01-04T2300,2689A,93.5014,42.8312,哈密市,哈密师范学校,颗粒物(PM10),68,85,59,38,28,14,,60,39,49,29,9,9,0.8,0.4
2026-01-04T2300,2671A,100.9016,36.9464,海北藏族自治州,海晏县西海镇,,28,26,60,19,49,47,,86,76,12,15,9,11,0.5,0.9
2026-01-04T2300,3867A,102.074,36.5056,海东市,平安区公安局北苑,细颗粒物(PM2.5),99,79,85,74,74,63,,67,67,18,18,29,18,1.0,1.1
2026-01-04T2300,4163A,102.0984,36.5119,海东市,滨河路,细颗粒物(PM2.5),93,76,82,69,76,61,,69,67,35,39,29,18,1.0,1.1
2026-01-04T2300,1410A,110.3189,20.0596,海口市,海南大学,,38,38,40,17,17,99,,114,109,6,7,6,6,0.3,0.3
2026-01-04T2300,1411A,110.2827,20.0051,海口市,秀英海南医院,,39,39,41,16,16,85,,98,94,9,8,7,7,0.3,0.3
2026-01-04T2300,1412A,110.3391,19.9979,海口市,海南师范大学,,41,41,41,17,18,91,,110,103,9,9,5,5,0.4,0.4
2026-01-04T2300,1413A,110.3303,20.0359,海口市,龙华路环保局宿舍,,,,38,,18,,,114,,,9,,,,0.5
2026-01-04T2300,3539A,110.5111,19.9737,海口市,桂林洋子站,,38,38,38,16,18,82,,103,94,8,8,/,/,/,/
2026-01-04T2300,4134A,110.1952,20.0451,海口市,长滨二路9号,,34,34,35,16,17,94,,108,104,5,5,/,/,/,/
2026-01-04T2300,2673A,100.6158,36.2985,海南藏族自治州,共和县恰卜恰镇,,46,46,41,15,30,26,,86,63,42,17,15,11,0.7,0.6
2026-01-04T2300,2676A,97.373,37.376,海西蒙古族藏族自治州,德令哈市,,26,26,20,17,10,66,,90,82,10,6,12,12,0.6,0.5
2026-01-04T2300,1049A,114.492,36.5712,邯郸市,矿院,细颗粒物(PM2.5),269,,176,219,192,25,,29,28,49,54,4,3,1.4,1.3
2026-01-04T2300,1050A,114.4839,36.6136,邯郸市,丛台公园,细颗粒物(PM2.5),257,214,197,207,184,28,,28,27,45,50,6,5,1.3,1.2
2026-01-04T2300,3458A,114.7893,36.5592,邯郸市,香泉濮院小区,细颗粒物(PM2.5),268,224,180,218,175,12,,42,34,63,45,6,6,1.5,1.2
2026-01-04T2300,3580A,114.1998,36.4439,邯郸市,峰峰矿区临水派出所,细颗粒物(PM2.5),304,,148,254,209,24,,40,34,54,47,11,12,1.7,1.6
2026-01-04T2300,4068A,114.5209,36.7697,邯郸市,建安街268号,细颗粒物(PM2.5),271,,202,221,198,18,,18,16,60,62,8,9,1.6,1.5
2026-01-04T2300,4069A,114.5488,36.6177,邯郸市,丛台东路558号,细颗粒物(PM2.5),273,270,240,223,201,15,,27,19,60,58,6,7,1.4,1.3
2026-01-04T2300,2635A,107.0155,33.0707,汉中市,市监测站,细颗粒物(PM2.5),83,71,58,61,55,30,,67,52,30,24,5,5,0.9,0.8
2026-01-04T2300,2636A,107.0083,33.114,汉中市,鑫源开发区,细颗粒物(PM2.5),112,87,59,84,59,4,,75,52,51,25,5,6,1.3,0.7
2026-01-04T2300,2637A,107.0072,33.0323,汉中市,南郑大河坎水厂,细颗粒物(PM2.5),82,80,72,60,60,33,,71,51,22,20,5,5,1.0,1
2026-01-04T2300,1223A,120.2073,30.2111,杭州市,滨江,细颗粒物(PM2.5),152,135,110,116,84,2,,12,1,74,63,6,7,0.7,0.8
2026-01-04T2300,1224A,120.0625,30.2737,杭州市,西溪,细颗粒物(PM2.5),132,124,100,100,76,0,,10,0,78,62,8,9,1.1,1
2026-01-04T2300,1226A,120.3417,30.315,杭州市,下沙,细颗粒物(PM2.5),156,153,118,119,93,4,,14,2,68,70,9,9,1.0,1.1
2026-01-04T2300,1227A,120.1252,30.2465,杭州市,卧龙桥,细颗粒物(PM2.5),127,128,106,96,82,0,,12,1,61,45,10,10,1.0,0.9
2026-01-04T2300,1228A,120.1902,30.2691,杭州市,浙江农大,细颗粒物(PM2.5),152,158,127,116,99,4,,10,2,72,70,4,4,0.8,0.8
2026-01-04T2300,1230A,120.1195,30.3121,杭州市,和睦小学,细颗粒物(PM2.5),139,159,123,106,89,2,,8,2,69,61,6,6,1.0,1
2026-01-04T2300,1231A,120.3076,30.4146,杭州市,临平镇,细颗粒物(PM2.5),142,132,132,108,94,13,,6,5,47,67,8,8,0.8,0.8
2026-01-04T2300,1232A,120.2753,30.1839,杭州市,城厢镇,细颗粒物(PM2.5),130,128,105,99,77,2,,17,3,72,64,9,8,0.7,0.7
2026-01-04T2300,1233A,120.0883,30.1808,杭州市,云栖,细颗粒物(PM2.5),117,106,95,88,78,0,,12,5,57,45,4,4,1.0,0.9
2026-01-04T2300,3557A,119.9463,30.0496,杭州市,镇二中,细颗粒物(PM2.5),108,,88,81,83,2,,12,3,55,54,5,6,0.9,1
2026-01-04T2300,3558A,119.7184,30.2367,杭州市,市府大楼,细颗粒物(PM2.5),115,138,113,87,78,0,,18,4,62,37,10,10,1.0,1.1
2026-01-04T2300,3656A,120.1554,30.2863,杭州市,消防大队,细颗粒物(PM2.5),145,130,108,111,89,1,,11,2,70,62,7,7,0.4,0.4
2026-01-04T2300,1270A,117.1957,31.7845,合肥市,明珠广场,细颗粒物(PM2.5),94,88,89,70,72,26,,22,8,40,56,5,6,0.9,1
2026-01-04T2300,1271A,117.307,31.8765,合肥市,三里街,细颗粒物(PM2.5),83,83,77,61,61,34,,33,33,36,56,5,6,0.8,0.8
2026-01-04T2300,1272A,117.2587,31.8703,合肥市,琥珀山庄,细颗粒物(PM2.5),92,83,84,68,67,29,,27,27,35,50,8,9,1.0,1.1
2026-01-04T2300,1275A,117.2593,31.9376,合肥市,庐阳区,细颗粒物(PM2.5),73,80,90,53,62,35,,44,44,38,63,2,3,0.9,0.9
2026-01-04T2300,1276A,117.345251,31.861615,合肥市,瑶海区,细颗粒物(PM2.5),92,92,77,68,60,31,,41,41,41,58,5,5,1.0,0.9
2026-01-04T2300,1277A,117.3033,31.7967,合肥市,包河区,细颗粒物(PM2.5),94,90,86,70,70,16,,15,13,56,73,6,7,0.9,1
2026-01-04T2300,1278A,117.278,31.7392,合肥市,滨湖新区,细颗粒物(PM2.5),113,97,85,85,76,11,,35,20,58,48,4,4,1.0,1
2026-01-04T2300,1279A,117.1324,31.8395,合肥市,高新区,细颗粒物(PM2.5),93,80,80,69,64,38,,29,29,35,51,4,5,0.8,0.8
2026-01-04T2300,3464A,117.3802,31.9148,合肥市,高教基地,细颗粒物(PM2.5),97,95,71,72,63,33,,51,48,34,40,7,7,0.9,0.8
2026-01-04T2300,4098A,117.2518,31.8404,合肥市,中国科学技术大学,细颗粒物(PM2.5),84,82,80,62,62,35,,30,22,34,51,5,6,0.7,0.8
2026-01-04T2300,3614A,79.9241,37.0878,和田地区,地区环保局,,41,41,46,19,27,50,,54,52,17,13,2,2,0.7,0.8
2026-01-04T2300,3615A,79.9132,37.1137,和田地区,市环保局,,33,,41,23,21,56,,56,55,15,20,2,2,0.9,0.4
2026-01-04T2300,2517A,108.0496,24.6957,河池市,市环保站,,19,13,19,13,20,18,,29,20,11,12,2,2,0.9,0.8
2026-01-04T2300,4302A,108.0901,24.6945,河池市,上任中路54号,,22,20,22,15,18,6,,27,16,19,13,4,4,0.8,0.7
2026-01-04T2300,1697A,114.6962,23.7538,河源市,东埔,细颗粒物(PM2.5),62,63,38,44,27,5,,84,44,66,35,6,7,1.1,0.8
2026-01-04T2300,1698A,114.6895,23.7232,河源市,老城,颗粒物(PM10),55,60,35,38,21,17,,86,57,49,23,6,7,0.9,0.8
2026-01-04T2300,3374A,115.5562,35.089,菏泽市,定陶老年大学,细颗粒物(PM2.5),201,163,106,151,92,6,,43,28,41,25,3,2,1.3,0.9
2026-01-04T2300,4114A,115.4239,35.2593,菏泽市,黄河路600号,细颗粒物(PM2.5),216,195,117,166,100,18,,48,22,40,27,3,3,1.3,1.1
2026-01-04T2300,4115A,115.5025,35.2727,菏泽市,菏泽市人社局,细颗粒物(PM2.5),211,200,112,161,94,22,,48,26,32,23,5,3,0.9,0.7
2026-01-04T2300,4184A,115.479691,35.244011,菏泽市,永昌路1号,细颗粒物(PM2.5),214,196,115,164,99,24,,52,30,34,25,8,5,0.9,0.7
2026-01-04T2300,4193A,115.471542,35.280012,菏泽市,长城路999号,细颗粒物(PM2.5),211,195,113,161,93,21,,50,25,35,23,6,4,1.4,1.2
2026-01-04T2300,2514A,111.5264,24.4178,贺州市,环保小区,细颗粒物(PM2.5),73,69,61,53,50,36,,60,47,15,22,8,7,0.7,0.7
2026-01-04T2300,2515A,111.561,24.4074,贺州市,政协大楼,细颗粒物(PM2.5),74,66,61,54,46,33,,59,44,15,26,10,10,0.8,0.7
2026-01-04T2300,3534A,111.4744,24.455,贺州市,西湾,细颗粒物(PM2.5),72,67,64,52,47,35,,53,43,14,23,8,8,0.9,0.8
2026-01-04T2300,2385A,114.17,35.9019,鹤壁市,市监测站,细颗粒物(PM2.5),220,185,183,170,167,28,,33,33,29,39,7,5,2.1,1.8
2026-01-04T2300,2386A,114.2953,35.7512,鹤壁市,市交警支队,细颗粒物(PM2.5),254,225,181,204,157,25,,24,24,44,49,5,5,2.1,1.6
2026-01-04T2300,2387A,114.2877,35.7302,鹤壁市,迎宾馆,细颗粒物(PM2.5),248,215,173,198,157,28,,27,27,34,40,9,7,2.2,1.7
2026-01-04T2300,3474A,114.2616,35.6824,鹤壁市,大新区,细颗粒物(PM2.5),250,,159,200,172,35,,36,36,33,41,9,8,2.1,1.7
2026-01-04T2300,3596A,114.1573,35.9607,鹤壁市,南山宾馆,细颗粒物(PM2.5),244,205,190,194,170,29,,34,34,38,42,8,7,2.3,1.8
2026-01-04T2300,2244A,130.2537,47.3416,鹤岗市,哈啤分公司,,21,18,21,14,20,67,,70,68,4,5,5,6,0.3,0.3
2026-01-04T2300,2245A,130.2683,47.3087,鹤岗市,斯达机电,,29,21,24,20,22,70,,74,72,6,6,5,5,0.4,0.4
2026-01-04T2300,2246A,130.3114,47.3388,鹤岗市,东山纸板厂,,25,25,27,17,16,62,,75,72,14,6,8,7,0.5,0.5
2026-01-04T2300,2263A,127.4832,50.2524,黑河市,交通局,,20,,12,14,14,60,,68,62,2,6,3,4,0.3,0.3
2026-01-04T2300,2264A,127.5146,50.2339,黑河市,环保局,,23,23,14,12,13,50,,64,55,12,9,15,6,0.3,0.3
2026-01-04T2300,1074A,115.6839,37.754,衡水市,电机北厂,细颗粒物(PM2.5),286,288,206,236,173,0,,35,22,71,56,8,6,1.6,1.2
2026-01-04T2300,1075A,115.6303,37.7318,衡水市,市监测站,细颗粒物(PM2.5),277,245,183,227,163,1,,34,22,75,52,9,7,1.6,1.2
2026-01-04T2300,3188A,115.6684,37.7216,衡水市,市城管局,细颗粒物(PM2.5),262,257,189,212,158,14,,38,31,63,55,11,9,1.5,1.2
2026-01-04T2300,3459A,115.599,37.5491,衡水市,地表水厂,细颗粒物(PM2.5),274,,161,224,167,11,,35,28,53,50,7,6,1.3,1
2026-01-04T2300,2457A,112.6209,26.9268,衡阳市,衡阳化工总厂,,35,25,47,24,49,26,,29,21,12,16,5,6,1.0,1.1
2026-01-04T2300,2458A,112.621,26.8957,衡阳市,珠晖区环保局,,43,,42,30,51,24,,24,18,13,22,3,4,0.9,1
2026-01-04T2300,2459A,112.628,26.8654,衡阳市,市委党校,,30,21,44,21,50,28,,30,23,15,20,6,9,0.9,1
2026-01-04T2300,2460A,112.6007,26.8977,衡阳市,市监测站,,50,44,72,35,56,25,,28,19,12,18,5,6,0.8,0.9
2026-01-04T2300,2461A,112.5658,26.9013,衡阳市,真空机电公司,,38,35,67,26,56,21,,25,21,18,20,5,6,0.9,1
2026-01-04T2300,3399A,112.6703,26.8817,衡阳市,师范学院,,26,25,55,18,46,28,,26,23,16,22,3,3,0.8,0.9
2026-01-04T2300,3038A,103.3757,23.3679,红河哈尼族彝族自治州,州图书馆,,17,10,9,7,5,54,,58,55,5,6,6,6,0.5,0.6
2026-01-04T2300,4154A,103.401,23.3561,红河哈尼族彝族自治州,蒙自市朝阳路,,15,12,12,10,7,47,,60,55,5,4,9,8,0.4,0.4
2026-01-04T2300,1090A,111.6506,40.7517,呼和浩特市,呼市一监,,22,22,93,9,67,58,,46,46,13,40,6,7,0.3,1.1
2026-01-04T2300,1094A,111.7516,40.8369,呼和浩特市,如意水处理厂,,18,18,74,8,46,55,,51,51,16,41,10,12,0.3,1
2026-01-04T2300,1095A,111.727798,40.806187,呼和浩特市,二十九中,,23,23,92,8,54,58,,41,41,12,45,10,15,0.3,1
2026-01-04T2300,1097A,111.717,40.7617,呼和浩特市,化肥厂生活区,,33,33,108,15,68,37,,21,21,30,53,7,11,0.5,1.2
2026-01-04T2300,3699A,111.6519,40.8389,呼和浩特市,海东办,,19,14,83,7,51,60,,59,59,12,42,8,8,0.2,0.9
2026-01-04T2300,4275A,111.591512,40.827312,呼和浩特市,成吉思汗西街8号,,24,24,66,8,29,49,,53,53,13,26,10,6,0.4,0.7
2026-01-04T2300,4276A,111.6597,40.8077,呼和浩特市,公园东路75号,,22,22,91,8,54,47,,47,47,23,48,9,10,0.2,0.9
2026-01-04T2300,4277A,111.5427,40.7846,呼和浩特市,金海路35号,,24,24,114,8,71,48,,37,37,21,46,9,13,0,0.9
2026-01-04T2300,3061A,119.7511,49.1576,呼伦贝尔市,国华电力东,细颗粒物(PM2.5),64,48,24,46,21,24,,67,52,40,22,5,7,0.8,0.4
2026-01-04T2300,4279A,119.7569,49.2222,呼伦贝尔市,伊敏大街东7号,,28,,22,19,18,62,,63,58,13,16,7,8,0.4,0.5
2026-01-04T2300,1250A,120.075,30.867,湖州市,城西水厂,细颗粒物(PM2.5),104,123,125,78,95,16,,22,20,62,67,10,11,0.8,0.7
2026-01-04T2300,2873A,120.083,30.8929,湖州市,仁皇山新区,细颗粒物(PM2.5),134,121,124,102,99,26,,25,24,65,83,11,12,0.8,0.7
2026-01-04T2300,2907A,120.1846,30.8592,湖州市,吴兴区站,细颗粒物(PM2.5),129,117,122,98,101,24,,19,19,55,72,6,8,0.9,0.8
2026-01-04T2300,3562A,120.4146,30.8538,湖州市,南浔区站,细颗粒物(PM2.5),118,120,117,89,93,15,,19,17,65,75,6,7,1.0,0.9
2026-01-04T2300,1607A,120.904878,40.721091,葫芦岛市,龙港区,细颗粒物(PM2.5),77,77,93,56,62,6,,53,22,60,46,24,37,1.5,1.7
2026-01-04T2300,1608A,120.8382,40.7521,葫芦岛市,化工街,细颗粒物(PM2.5),117,146,96,88,59,9,,56,24,60,46,32,43,2.0,1.2
2026-01-04T2300,1609A,120.8339,40.7078,葫芦岛市,新区,细颗粒物(PM2.5),90,76,68,67,46,4,,57,24,73,52,13,19,1.4,1.2
2026-01-04T2300,1610A,120.8697,40.7679,葫芦岛市,东城区,细颗粒物(PM2.5),88,101,78,65,56,9,,55,23,57,47,83,49,1.5,1.3
2026-01-04T2300,2483A,109.9297,27.5383,怀化市,河西地税局,颗粒物(PM10),59,68,25,38,22,1,,31,14,19,14,4,3,/,/
2026-01-04T2300,2484A,109.9783,27.5342,怀化市,市四医院,细颗粒物(PM2.5),72,57,32,52,26,0,,23,7,24,19,9,8,1.0,0.7
2026-01-04T2300,2485A,109.9971,27.5579,怀化市,监测楼,细颗粒物(PM2.5),64,54,28,46,23,2,,33,16,24,19,2,2,0.6,0.3
2026-01-04T2300,1210A,119.0566,33.5991,淮安市,钵池山,细颗粒物(PM2.5),87,66,74,64,56,43,,34,30,38,51,10,10,0.5,0.6
2026-01-04T2300,1211A,119.0083,33.578,淮安市,北京南路,细颗粒物(PM2.5),88,70,81,65,60,19,,24,14,49,58,10,10,0.9,1
2026-01-04T2300,1212A,118.9938,33.6083,淮安市,市监测站,细颗粒物(PM2.5),79,70,74,58,59,12,,26,15,60,54,10,12,0.8,1
2026-01-04T2300,1213A,119.135,33.5038,淮安市,楚州区监测站,细颗粒物(PM2.5),103,81,82,77,66,20,,32,24,48,63,10,11,0.8,0.8
2026-01-04T2300,3426A,118.8757,33.2897,淮安市,新华书店,细颗粒物(PM2.5),98,77,80,73,70,36,,35,35,31,47,9,11,1.0,1
2026-01-04T2300,4092A,119.119691,33.550006,淮安市,枚皋中路89号,细颗粒物(PM2.5),125,108,90,95,72,32,,45,37,42,58,9,10,0.8,0.9
2026-01-04T2300,4206A,119.028838,33.631911,淮安市,承德北路606号,细颗粒物(PM2.5),89,83,92,66,55,19,,29,20,60,57,10,11,0.9,1
2026-01-04T2300,2282A,116.8005,33.9749,淮北市,监测站,细颗粒物(PM2.5),115,120,106,87,74,23,,46,31,41,43,8,10,0.7,0.7
2026-01-04T2300,2283A,116.8094,33.9008,淮北市,烈山区政府,细颗粒物(PM2.5),92,84,103,68,82,43,,39,33,24,40,9,12,0.4,0.6
2026-01-04T2300,4017A,116.7926,33.9534,淮北市,市博物馆,细颗粒物(PM2.5),125,133,108,95,73,16,,43,33,44,41,9,12,0.7,0.4
2026-01-04T2300,4100A,116.8322,33.9884,淮北市,杜集区第一实验学校,细颗粒物(PM2.5),123,112,106,93,80,21,,41,23,29,32,8,9,0.7,0.6
2026-01-04T2300,2277A,116.8304,32.7726,淮南市,潘集区政府,细颗粒物(PM2.5),89,77,80,66,67,28,,52,38,37,36,6,6,0.7,0.7
2026-01-04T2300,2279A,116.8569,32.5949,淮南市,谢家集区政府,细颗粒物(PM2.5),75,63,75,55,51,36,,53,38,30,37,7,9,0.4,0.5
2026-01-04T2300,2280A,116.8279,32.6333,淮南市,八公山区政府,细颗粒物(PM2.5),79,72,78,58,66,41,,60,44,20,25,4,5,0.5,0.6
2026-01-04T2300,2894A,117.0561,32.6536,淮南市,经济技术开发区消防队,细颗粒物(PM2.5),78,89,79,57,56,30,,51,38,32,38,5,6,0.6,0.6
2026-01-04T2300,3329A,117.011,32.5891,淮南市,山南新区,细颗粒物(PM2.5),105,99,74,79,52,31,,54,39,31,29,2,3,0.6,0.7
2026-01-04T2300,4209A,117.003137,32.644456,淮南市,国庆中路369号,细颗粒物(PM2.5),103,78,71,77,57,30,,46,36,30,32,5,7,0.6,0.7
2026-01-04T2300,2446A,114.9021,30.474,黄冈市,职工中心,,46,46,51,31,37,32,,56,34,14,16,5,6,0.8,0.8
2026-01-04T2300,2929A,114.8858,30.4519,黄冈市,红卫路,细颗粒物(PM2.5),52,45,47,36,37,27,,57,29,22,20,8,6,0.9,0.6
2026-01-04T2300,3398A,114.9134,30.4446,黄冈市,市林业局,细颗粒物(PM2.5),52,46,45,36,40,29,,59,34,20,19,5,4,0.9,0.8
2026-01-04T2300,2672A,102.02,35.5101,黄南藏族自治州,同仁县隆务镇,细颗粒物(PM2.5),54,53,51,38,41,51,,68,63,7,6,10,10,0.5,0.5
2026-01-04T2300,2295A,118.2905,29.6965,黄山市,延安路89号,,40,34,41,28,36,23,,45,40,14,18,3,3,0.5,0.6
2026-01-04T2300,2297A,118.1369,30.2755,黄山市,黄山区政府5号楼,,49,44,35,34,30,37,,31,31,14,15,6,6,0.9,0.6
2026-01-04T2300,4210A,118.335445,29.720283,黄山市,滨江东路7-2号,细颗粒物(PM2.5),64,,58,46,53,27,,39,38,15,22,/,/,/,/
2026-01-04T2300,2423A,115.0547,30.2332,黄石市,沈家营,颗粒物(PM10),51,52,51,29,32,25,,48,32,16,15,4,5,1.2,1.2
2026-01-04T2300,2426A,114.899,30.211,黄石市,铁山,细颗粒物(PM2.5),65,52,50,47,50,23,,45,32,23,14,4,5,0.8,0.7
2026-01-04T2300,2427A,115.0259,30.2108,黄石市,团城山,细颗粒物(PM2.5),57,48,54,40,41,25,,50,36,17,18,6,6,0.9,0.8
2026-01-04T2300,3149A,115.0174,30.1591,黄石市,笔架山北路,颗粒物(PM10),55,59,63,33,39,24,,44,28,19,18,7,7,1.2,1.1
2026-01-04T2300,4185A,115.078022,30.21118,黄石市,磁湖东路29号,细颗粒物(PM2.5),54,47,50,38,43,25,,44,29,15,18,5,6,0.9,0.9
2026-01-04T2300,1392A,114.4181,23.0528,惠州市,河南岸金山湖子站,颗粒物(PM10),56,61,57,34,35,27,,88,62,44,32,4,5,0.8,0.7
2026-01-04T2300,1393A,114.4055,23.0824,惠州市,下埔横江三路子站,颗粒物(PM10),66,82,62,43,35,5,,101,59,71,36,6,8,1.1,0.8
2026-01-04T2300,1395A,114.4645,22.7832,惠州市,惠阳区承修路船湖子站,颗粒物(PM10),81,111,66,50,35,5,,112,72,89,37,8,8,1.0,0.7
2026-01-04T2300,1396A,114.5316,22.7423,惠州市,大亚湾管委会子站,颗粒物(PM10),56,62,55,32,29,3,,108,66,92,37,6,6,0.5,0.4
2026-01-04T2300,3314A,114.4334,22.8134,惠州市,惠阳秋长,颗粒物(PM10),76,102,65,50,36,26,,122,81,79,41,/,/,/,/
2026-01-04T2300,3452A,114.6521,22.7755,惠州市,大亚湾霞涌,颗粒物(PM10),52,54,49,21,26,79,,110,97,25,19,/,/,/,/
2026-01-04T2300,4300A,114.4089,23.1147,惠州市,文华一路1号,颗粒物(PM10),69,87,60,45,36,1,,109,70,91,44,/,/,/,/
2026-01-04T2300,2240A,130.9618,45.2926,鸡西市,环保局,,20,20,32,11,17,60,,65,61,6,7,5,6,0.3,0.3
2026-01-04T2300,2243A,130.9294,45.2959,鸡西市,第一中学,,26,,27,18,19,62,,68,65,7,7,3,3,0.4,0.4
2026-01-04T2300,3707A,131.0069,45.2988,鸡西市,欧美日汽修厂,,26,22,41,18,21,64,,66,63,8,10,5,5,0.4,0.5
2026-01-04T2300,2367A,114.9753,27.0803,吉安市,红声器材厂,颗粒物(PM10),56,62,57,39,38,19,,40,33,33,26,11,12,1.3,0.8
2026-01-04T2300,2369A,114.9903,27.1313,吉安市,市环境监测站,细颗粒物(PM2.5),59,55,55,42,40,20,,40,29,29,21,18,16,/,/
2026-01-04T2300,2370A,115.009527,27.096792,吉安市,青原区法院,细颗粒物(PM2.5),67,51,51,48,41,26,,42,31,22,21,9,13,1.0,0.6
2026-01-04T2300,1772A,126.54,43.8622,吉林市,哈达湾,细颗粒物(PM2.5),79,78,78,58,60,53,,66,60,30,32,7,10,1.2,1.4
2026-01-04T2300,1773A,126.5843,43.8358,吉林市,东局子,细颗粒物(PM2.5),84,76,79,62,61,44,,50,38,25,34,4,6,1.3,1.6
2026-01-04T2300,1774A,126.5051,43.8243,吉林市,电力学院,细颗粒物(PM2.5),85,74,108,63,91,43,,54,36,31,42,12,14,0.9,1.6
2026-01-04T2300,1775A,126.6133,43.8971,吉林市,江北,细颗粒物(PM2.5),89,79,92,66,73,45,,51,39,24,34,7,8,1.2,1.6
2026-01-04T2300,1776A,126.5549,43.8304,吉林市,江南公园,细颗粒物(PM2.5),90,79,79,67,69,38,,53,41,30,36,8,9,1.2,1.4
2026-01-04T2300,2868A,126.4737,43.953,吉林市,九站,细颗粒物(PM2.5),60,48,83,43,68,50,,52,45,24,40,7,9,0.9,1.3
2026-01-04T2300,1299A,116.9866,36.6118,济南市,科干所,细颗粒物(PM2.5),168,166,109,127,75,30,,62,43,56,41,11,9,1.3,1
2026-01-04T2300,1300A,116.9379,36.6652,济南市,农科所,细颗粒物(PM2.5),192,190,125,144,93,5,,52,32,80,51,14,9,1.3,1.1
2026-01-04T2300,1301A,117.1265,36.6736,济南市,开发区,细颗粒物(PM2.5),204,188,126,154,100,9,,45,40,68,43,8,6,1.3,1
2026-01-04T2300,1303A,117.0616,36.6865,济南市,省种子仓库,细颗粒物(PM2.5),201,195,150,151,103,13,,49,44,71,62,12,10,1.2,1.1
2026-01-04T2300,1304A,116.9495185,36.644937,济南市,机床二厂,细颗粒物(PM2.5),204,183,130,154,101,15,,51,38,68,52,12,17,1.3,1.2
2026-01-04T2300,1305A,117.0496,36.6629,济南市,市监测站,细颗粒物(PM2.5),192,183,124,144,92,19,,46,43,54,46,7,7,1.1,1
2026-01-04T2300,1306A,116.7674,36.5458,济南市,长清党校,细颗粒物(PM2.5),192,188,115,144,89,8,,53,28,71,37,18,9,1.2,0.9
2026-01-04T2300,1961A,117.5323,36.6865,济南市,东山小学,细颗粒物(PM2.5),196,212,148,147,110,7,,55,30,79,52,8,8,1.5,1.3
2026-01-04T2300,3059A,117.7181,36.205,济南市,泰兴公司,细颗粒物(PM2.5),225,202,160,175,133,10,,53,31,80,57,11,10,1.3,1.3
2026-01-04T2300,3064A,117.6861,36.2172,济南市,莱芜战役纪念馆,细颗粒物(PM2.5),223,202,157,173,132,19,,53,37,67,57,14,13,1.1,1.2
2026-01-04T2300,3494A,117.1673,36.9782,济南市,济阳区政府,细颗粒物(PM2.5),223,212,170,173,129,24,,45,33,51,57,11,13,1.1,1.1
2026-01-04T2300,3495A,117.1168,36.6299,济南市,锦屏中学,细颗粒物(PM2.5),160,159,103,122,78,34,,55,48,45,35,7,5,1.0,0.8
2026-01-04T2300,4108A,117.7107,36.2385,济南市,山财大街5号,细颗粒物(PM2.5),204,231,167,154,112,29,,60,39,55,51,13,10,1.1,1.2
2026-01-04T2300,4109A,116.9744,36.6889,济南市,无影山路12号,细颗粒物(PM2.5),211,200,148,161,110,3,,44,31,81,59,17,14,1.2,1.1
2026-01-04T2300,1653A,116.6229,35.4288,济宁市,火炬城,细颗粒物(PM2.5),216,,114,166,114,9,,50,31,51,35,7,8,1.0,0.7
2026-01-04T2300,3500A,116.5808,35.3703,济宁市,北湖一中,细颗粒物(PM2.5),201,152,110,151,110,5,,47,25,58,39,6,7,1.0,0.8
2026-01-04T2300,3501A,116.8251,35.5592,济宁市,服务中心,细颗粒物(PM2.5),190,183,145,143,103,2,,42,20,59,52,13,13,1.0,0.8
2026-01-04T2300,3678A,116.5907,35.4054,济宁市,市第七中学,细颗粒物(PM2.5),185,154,118,139,100,18,,53,35,47,40,8,9,1.1,0.9
2026-01-04T2300,4111A,116.6075,35.4566,济宁市,任和路,细颗粒物(PM2.5),201,202,140,151,105,1,,48,24,62,40,9,8,1.1,0.8
2026-01-04T2300,4112A,116.5648,35.3921,济宁市,文体南路1号,细颗粒物(PM2.5),208,199,135,158,108,2,,46,21,62,38,5,6,1.0,0.7
2026-01-04T2300,2255A,130.2749,46.8028,佳木斯市,佳纺,,26,26,30,17,25,57,,55,55,12,17,10,9,0.2,0.3
2026-01-04T2300,2257A,130.3258,46.7975,佳木斯市,环保局,,35,24,30,24,23,59,,62,57,13,16,8,9,0.8,0.8
2026-01-04T2300,4285A,130.363,46.806,佳木斯市,顺和街,,28,26,30,19,20,50,,53,50,17,19,10,10,0.6,0.7
2026-01-04T2300,4286A,130.3952,46.8268,佳木斯市,长安路196号,,32,32,24,21,22,62,,63,62,8,9,6,5,0.3,0.4
2026-01-04T2300,1252A,120.7439,30.778,嘉兴市,清河小学,细颗粒物(PM2.5),140,131,113,107,85,5,,24,5,76,73,6,7,0.7,0.7
2026-01-04T2300,1253A,120.7261,30.7477,嘉兴市,嘉兴学院,细颗粒物(PM2.5),128,132,110,97,79,9,,24,6,60,63,7,8,1.0,1
2026-01-04T2300,2872A,120.7845,30.7524,嘉兴市,南湖区残联,细颗粒物(PM2.5),139,137,108,106,82,4,,29,7,73,67,5,5,0.9,0.9
2026-01-04T2300,3407A,120.6915,30.7741,嘉兴市,秀洲住建,细颗粒物(PM2.5),142,127,113,108,89,5,,19,8,68,71,7,8,0.8,0.7
2026-01-04T2300,1945A,98.291,39.7705,嘉峪关市,气象局,,44,44,40,24,23,44,,78,71,41,16,14,23,0.7,0.5
2026-01-04T2300,2884A,98.2672,39.7978,嘉峪关市,酒钢宾馆,颗粒物(PM10),51,51,52,29,28,28,,70,53,38,17,15,34,0.9,0.8
2026-01-04T2300,3248A,98.2644,39.7723,嘉峪关市,雄关区,颗粒物(PM10),52,54,44,35,28,10,,72,50,63,29,10,25,0.6,0.6
2026-01-04T2300,1383A,113.1063,22.6058,江门市,北街,颗粒物(PM10),71,91,77,50,47,7,,121,80,98,64,/,/,/,/
2026-01-04T2300,1384A,113.073,22.5835,江门市,西区,细颗粒物(PM2.5),85,109,95,63,51,5,,118,71,106,72,/,/,/,/
2026-01-04T2300,1385A,113.0218,22.531,江门市,圭峰西,细颗粒物(PM2.5),72,72,66,52,44,53,,128,105,54,42,/,/,/,/
2026-01-04T2300,1386A,113.0826,22.5947,江门市,东湖,"颗粒物(PM10),细颗粒物(PM2.5)",78,105,81,57,47,1,,121,76,112,68,7,8,1.3,0.7
2026-01-04T2300,3311A,113.1077,22.5647,江门市,江海富民,颗粒物(PM10),71,92,99,37,42,7,,126,82,110,67,/,/,1.3,0.6
2026-01-04T2300,3449A,113.0496,22.4669,江门市,新会银湖,细颗粒物(PM2.5),92,80,73,68,54,19,,121,78,55,45,7,8,0.8,0.7
2026-01-04T2300,3335A,113.3137,35.2643,焦作市,马村街道办,细颗粒物(PM2.5),162,144,116,123,113,15,,43,33,33,30,7,7,1.7,1.2
2026-01-04T2300,3336A,113.2464,35.2374,焦作市,焦作技师学院,细颗粒物(PM2.5),170,150,128,129,106,19,,44,34,36,33,10,9,1.6,1.1
2026-01-04T2300,3477A,113.1656,35.2536,焦作市,中站许衡医院,细颗粒物(PM2.5),144,148,115,110,102,16,,43,37,37,33,5,8,1.3,1.2
2026-01-04T2300,3981A,113.2456,35.18,焦作市,原李万街道办,细颗粒物(PM2.5),163,137,109,124,97,23,,45,37,24,24,3,4,1.4,1.1
2026-01-04T2300,4264A,113.234,35.219,焦作市,新安路1731号,细颗粒物(PM2.5),156,139,121,119,106,21,,44,35,23,22,5,6,1.4,1.1
2026-01-04T2300,4295A,113.2722,35.2121,焦作市,人民路3066号,细颗粒物(PM2.5),137,137,125,104,86,15,,40,30,28,25,5,6,1.3,1
2026-01-04T2300,1708A,116.3701,23.5345,揭阳市,新兴,细颗粒物(PM2.5),74,73,62,54,41,52,,95,75,48,34,13,11,0.8,0.7
2026-01-04T2300,1709A,116.3261,23.5442,揭阳市,西马,细颗粒物(PM2.5),69,83,66,50,38,55,,93,77,34,27,13,7,1.0,0.8
2026-01-04T2300,1710A,116.361,23.5627,揭阳市,东兴,颗粒物(PM10),70,90,63,43,35,43,,88,68,45,32,14,10,/,/
2026-01-04T2300,1711A,116.4151,23.5295,揭阳市,渔湖,颗粒物(PM10),62,73,61,23,33,56,,98,81,41,33,5,6,/,/
2026-01-04T2300,3320A,116.4028,23.5699,揭阳市,曲溪,颗粒物(PM10),64,77,67,39,36,46,,102,84,55,31,10,5,0.7,0.6
2026-01-04T2300,1944A,102.1691,38.5166,金昌市,天庆家园,,42,36,41,29,26,70,,77,75,10,16,1,3,0.7,0.7
2026-01-04T2300,4022A,102.1648,38.5369,金昌市,金川区人防中心,,40,,39,28,26,69,,77,74,9,12,4,6,0.6,0.6
2026-01-04T2300,4239A,102.193042,38.531887,金昌市,长春路96号,,34,34,41,21,25,73,,78,76,7,18,4,6,0.6,0.9
2026-01-04T2300,1262A,119.6478,29.0773,金华市,十五中,细颗粒物(PM2.5),119,124,110,90,76,6,,29,22,64,64,5,5,0.9,0.9
2026-01-04T2300,1263A,119.6859,29.1032,金华市,监测站,细颗粒物(PM2.5),103,112,116,77,81,10,,21,16,72,84,3,4,0.8,0.9
2026-01-04T2300,3659A,119.656,29.1132,金华市,气象局,细颗粒物(PM2.5),92,100,112,68,75,5,,13,9,60,68,3,4,0.7,0.8
2026-01-04T2300,1767A,121.1114,41.0879,锦州市,南山,细颗粒物(PM2.5),103,83,83,77,77,7,,63,32,64,42,13,15,1.8,1.6
2026-01-04T2300,1768A,121.060361,40.842794,锦州市,开发区,细颗粒物(PM2.5),93,114,96,69,67,5,,60,29,67,48,57,41,1.6,1.3
2026-01-04T2300,1769A,121.1836,41.1118,锦州市,百股街道,细颗粒物(PM2.5),107,89,83,80,69,6,,60,31,61,42,17,18,2.0,1.5
2026-01-04T2300,1770A,121.1176,41.1224,锦州市,天安街道,细颗粒物(PM2.5),75,73,70,55,54,17,,66,39,53,38,17,17,1.5,1.5
2026-01-04T2300,1771A,121.1303,41.1385,锦州市,北湖公园,细颗粒物(PM2.5),88,115,76,65,61,26,,64,40,39,35,12,17,1.5,1.4
2026-01-04T2300,2160A,112.8496,35.5051,晋城市,自来水公司,细颗粒物(PM2.5),120,106,101,91,88,42,,47,42,24,25,6,6,1.2,1.3
2026-01-04T2300,2162A,112.8509,35.4886,晋城市,市环保局,细颗粒物(PM2.5),113,130,108,85,79,46,,53,48,23,24,6,5,1.3,1.4
2026-01-04T2300,3620A,112.8258,35.4804,晋城市,泽州一中,细颗粒物(PM2.5),113,102,89,85,82,51,,57,50,22,21,5,5,0.8,0.9
2026-01-04T2300,4078A,112.8246,35.5152,晋城市,前书院路,细颗粒物(PM2.5),99,116,108,74,66,42,,47,42,23,25,5,5,1.1,1.1
2026-01-04T2300,4079A,112.8864,35.4773,晋城市,祥云街666号,细颗粒物(PM2.5),139,110,97,106,88,46,,55,49,24,23,7,6,1.1,1.1
2026-01-04T2300,2174A,112.6992,37.6984,晋中市,榆次区政府,细颗粒物(PM2.5),178,156,196,134,152,3,,26,11,58,62,13,24,1.4,1.9
2026-01-04T2300,2865A,112.7195,37.683,晋中市,榆次三中,细颗粒物(PM2.5),160,171,187,122,127,0,,26,10,50,59,12,25,1.7,1.9
2026-01-04T2300,4080A,112.7375,37.7215,晋中市,广安街188号,细颗粒物(PM2.5),206,224,220,156,154,2,,26,9,58,67,8,15,1.4,1.6
2026-01-04T2300,4200A,112.7478,37.6954,晋中市,迎宾街26号,细颗粒物(PM2.5),175,173,180,132,132,1,,28,13,51,60,11,25,1.7,1.8
2026-01-04T2300,2439A,112.2012,31.048,荆门市,竹园小学,细颗粒物(PM2.5),105,84,106,79,89,32,,32,30,21,29,14,2,0.5,0.6
2026-01-04T2300,2440A,112.1968,30.9892,荆门市,掇刀,细颗粒物(PM2.5),109,99,96,82,82,30,,35,34,23,22,2,2,0.6,0.6
2026-01-04T2300,3012A,112.1849,31.0361,荆门市,西山林语,细颗粒物(PM2.5),95,84,89,71,76,33,,32,31,18,25,4,4,0.8,0.9
2026-01-04T2300,3547A,112.1631,31.0134,荆门市,龙泉中学南校,细颗粒物(PM2.5),114,96,97,86,83,33,,38,34,8,12,6,6,0.5,0.4
2026-01-04T2300,4124A,112.2213,31.0654,荆门市,新台西路6号,细颗粒物(PM2.5),107,84,101,80,94,30,,36,31,19,25,7,7,0.8,0.8
2026-01-04T2300,1844A,112.2493,30.3198,荆州市,市图书馆,细颗粒物(PM2.5),108,,61,81,77,17,,38,30,35,21,6,8,1.0,0.8
2026-01-04T2300,1845A,112.2009,30.3543,荆州市,市委党校,细颗粒物(PM2.5),115,91,74,87,77,8,,34,24,33,22,3,5,1.2,0.9
2026-01-04T2300,3194A,112.2749,30.3124,荆州市,管委会,细颗粒物(PM2.5),108,,62,81,76,8,,34,22,42,31,4,7,1.0,0.8
2026-01-04T2300,4268A,112.1722,30.3366,荆州市,学苑路85号,细颗粒物(PM2.5),105,85,67,79,70,27,,41,34,33,20,4,6,0.8,0.8
2026-01-04T2300,2343A,117.2114,29.2931,景德镇市,老干部活动中心,,50,,34,35,30,32,,42,42,11,19,7,8,0.6,0.4
2026-01-04T2300,2344A,117.1893,29.2789,景德镇市,兽医站,,33,25,36,23,25,31,,41,40,14,21,7,8,0.9,0.8
2026-01-04T2300,2346A,117.246,29.2958,景德镇市,陶研所,细颗粒物(PM2.5),55,,36,39,33,34,,37,37,11,18,5,4,0.4,0.5
2026-01-04T2300,4289A,117.154766,29.256967,景德镇市,青少年活动中心,,43,,38,30,30,33,,44,41,16,28,9,11,/,/
2026-01-04T2300,1803A,115.9873,29.6816,九江市,十里,细颗粒物(PM2.5),77,66,60,56,53,34,,44,28,27,37,4,5,1.0,0.9
2026-01-04T2300,1804A,115.9583,29.7047,九江市,茅山头,细颗粒物(PM2.5),72,73,62,52,51,30,,44,24,19,25,5,5,1.0,0.9
2026-01-04T2300,1805A,115.9877,29.7295,九江市,西园,细颗粒物(PM2.5),74,63,58,54,42,34,,51,31,31,35,2,3,1.0,0.8
2026-01-04T2300,1808A,115.9112,29.6038,九江市,综合工业园,细颗粒物(PM2.5),87,66,64,64,60,18,,30,23,44,46,2,3,0.9,0.8
2026-01-04T2300,3190A,116.0254,29.6995,九江市,外国语学校,细颗粒物(PM2.5),67,50,59,48,48,30,,36,23,24,33,7,8,1.0,0.8
2026-01-04T2300,4253A,116.010205,29.659402,九江市,莲花大道8号,细颗粒物(PM2.5),82,83,62,60,56,29,,40,25,18,24,2,3,0.7,0.6
2026-01-04T2300,4240A,98.495752,39.733935,酒泉市,玉门东路5号,细颗粒物(PM2.5),72,88,48,52,26,18,,76,64,38,15,9,16,1.0,0.6
2026-01-04T2300,4241A,98.5099,39.7506,酒泉市,北大街108号,颗粒物(PM10),69,88,48,45,26,14,,75,64,52,23,7,15,1.0,0.6
2026-01-04T2300,2698A,76.0071,39.466,喀什地区,巡警大队,细颗粒物(PM2.5),58,53,55,41,40,44,,47,43,16,15,2,3,0.8,0.7
2026-01-04T2300,2699A,75.9756,39.4693,喀什地区,吾办,细颗粒物(PM2.5),64,66,56,46,45,41,,46,42,14,12,4,5,0.7,0.7
2026-01-04T2300,4027A,75.9485,39.4688,喀什地区,老干局,"颗粒物(PM10),细颗粒物(PM2.5)",60,69,61,43,41,41,,48,46,17,13,3,2,1.3,0.9
2026-01-04T2300,1824A,114.3389,34.778,开封市,肿瘤医院,细颗粒物(PM2.5),210,167,101,160,93,23,,46,30,32,26,4,4,2.2,1.4
2026-01-04T2300,1826A,114.2884,34.7966,开封市,世纪星幼儿园,细颗粒物(PM2.5),227,,97,177,109,27,,38,28,32,29,3,2,1.6,0.8
2026-01-04T2300,3147A,114.3434,34.8101,开封市,龙亭公园,细颗粒物(PM2.5),262,,99,212,110,18,,42,26,34,26,3,3,2.4,1.6
2026-01-04T2300,3210A,114.3645,34.7955,开封市,汴京公园,细颗粒物(PM2.5),213,201,111,163,96,18,,48,30,38,29,4,4,1.7,0.9
2026-01-04T2300,3473A,114.2485,34.8306,开封市,技师学院,细颗粒物(PM2.5),227,,97,177,107,14,,30,20,39,29,6,6,2.0,1.2
2026-01-04T2300,3592A,114.4518,34.7503,开封市,祥符区生态环境局,细颗粒物(PM2.5),204,198,107,154,86,13,,61,33,42,26,4,4,1.7,0.8
2026-01-04T2300,1951A,84.886,45.6029,克拉玛依市,长征新村,细颗粒物(PM2.5),98,99,91,73,65,15,,39,26,50,34,5,4,1.2,1
2026-01-04T2300,1952A,84.8894,45.5827,克拉玛依市,南林小区,颗粒物(PM10),79,108,90,52,50,14,,38,27,39,27,3,3,1.2,1.1
2026-01-04T2300,1954A,84.896,44.3328,克拉玛依市,独山子区,细颗粒物(PM2.5),128,159,110,97,66,14,,57,25,78,45,5,5,1.3,0.9
2026-01-04T2300,1955A,85.6888,46.0909,克拉玛依市,乌尔禾区商贸楼,细颗粒物(PM2.5),99,86,84,74,63,11,,37,28,44,33,5,5,1.3,1.2
2026-01-04T2300,3612A,85.1045,45.6895,克拉玛依市,白碱滩区新站,颗粒物(PM10),92,134,121,64,66,13,,22,22,27,22,7,7,0.8,0.7
2026-01-04T2300,2697A,76.1457,39.7143,克孜勒苏柯尔克孜自治州,市人民政府,颗粒物(PM10),56,62,59,35,39,54,,52,52,11,12,5,5,0.4,0.4
2026-01-04T2300,3665A,76.1654,39.7157,克孜勒苏柯尔克孜自治州,克州文化中心,"颗粒物(PM10),细颗粒物(PM2.5)",52,54,49,36,38,52,,51,51,9,10,2,3,0.7,0.6
2026-01-04T2300,1450A,102.8203,24.889,昆明市,呈贡新区,,29,24,22,20,12,50,,80,63,22,16,3,3,0.2,0.3
2026-01-04T2300,1452A,102.7253,25.0904,昆明市,龙泉镇,,34,34,23,12,12,24,,76,58,36,18,3,4,0.6,0.5
2026-01-04T2300,1453A,102.7267,25.0378,昆明市,东风东路,,28,19,20,19,15,63,,77,68,16,17,4,5,0.4,0.5
2026-01-04T2300,1454A,102.6744,25.0671,昆明市,金鼎山,,39,,34,27,17,50,,74,62,16,20,4,4,0.5,0.5
2026-01-04T2300,1455A,102.6643,25.0401,昆明市,碧鸡广场,,33,33,25,20,18,42,,76,63,26,22,4,4,0.5,0.6
2026-01-04T2300,3179A,102.7491,25.012,昆明市,官渡区博物馆,,21,16,17,13,13,65,,79,71,13,14,2,3,0.2,0.3
2026-01-04T2300,3375A,102.8016,24.8336,昆明市,青年创业园,,23,23,16,16,12,56,,83,68,10,6,5,4,0.3,0.3
2026-01-04T2300,3550A,102.8,24.9787,昆明市,昆明学院,,20,20,16,13,10,62,,82,74,13,9,3,3,0.5,0.5
2026-01-04T2300,3551A,102.5969,24.6738,昆明市,晋宁区生态环境分局,,47,47,22,27,15,33,,73,56,25,13,2,2,0.5,0.5
2026-01-04T2300,3552A,102.6673,24.9861,昆明市,云天化总部,,22,16,19,10,12,69,,80,74,8,13,5,5,0.4,0.5
2026-01-04T2300,1456A,91.132,29.6515,拉萨市,八廓街,,36,30,18,25,11,61,,94,78,24,9,8,7,0.8,0.5
2026-01-04T2300,1457A,91.1221,29.6748,拉萨市,市环保局,细颗粒物(PM2.5),53,47,19,37,14,41,,89,68,33,16,10,8,1.3,0.6
2026-01-04T2300,1458A,91.0874,29.6476,拉萨市,区监测站,,24,24,13,16,7,61,,89,75,30,17,5,4,1.2,0.9
2026-01-04T2300,1459A,91.1774,29.6541,拉萨市,西藏大学,,25,25,15,7,7,72,,91,84,16,11,6,5,0.4,0.3
2026-01-04T2300,1460A,90.9798,29.6586,拉萨市,区辐射站,,44,44,26,26,14,50,,87,70,34,23,6,4,0.9,0.7
2026-01-04T2300,1461A,91.0831,29.6292,拉萨市,拉萨火车站,,32,24,16,19,8,29,,92,78,63,17,6,4,1.1,0.5
2026-01-04T2300,2520A,109.2203,23.7252,来宾市,来宾技工学校,,8,8,80,3,76,25,,30,24,7,20,5,10,0.4,0.7
2026-01-04T2300,3535A,109.1781,23.7293,来宾市,兴宾区政府,,,,87,,73,,,47,34,,20,,9,,0.8
2026-01-04T2300,4002A,109.2312,23.7428,来宾市,中南小学,,13,13,76,3,72,24,,31,24,8,21,3,8,0.6,0.8
2026-01-04T2300,1479A,103.8309,36.0467,兰州市,铁路设计院,,,,,,,,,,,,,,,,
2026-01-04T2300,3241A,103.7439,36.0841,兰州市,百合公园,细颗粒物(PM2.5),54,50,65,38,48,64,,66,66,18,33,11,10,0.7,1.1
2026-01-04T2300,3242A,103.9613,35.9985,兰州市,和平,细颗粒物(PM2.5),68,52,67,49,66,44,,74,64,30,24,3,4,0.8,1.1
2026-01-04T2300,4236A,103.629272,36.093822,兰州市,庄浪东路808号,细颗粒物(PM2.5),62,52,77,44,56,72,,54,49,18,39,17,14,0.5,0.9
2026-01-04T2300,4237A,103.7251,36.104344,兰州市,安宁西路88号,细颗粒物(PM2.5),54,53,74,38,46,72,,77,77,20,31,9,7,0.5,0.7
2026-01-04T2300,4238A,103.846982,36.067567,兰州市,北滨河东路1号,细颗粒物(PM2.5),67,60,67,48,47,57,,76,70,33,38,9,10,0.7,1
2026-01-04T2300,1067A,116.6712,39.5109,廊坊市,药材公司,细颗粒物(PM2.5),140,144,146,107,108,1,,22,12,72,74,11,10,2.4,1.7
2026-01-04T2300,1068A,116.7215,39.5592,廊坊市,开发区,细颗粒物(PM2.5),124,134,131,94,90,0,,22,9,84,76,14,9,2.3,1.6
2026-01-04T2300,1070A,116.7246,39.5273,廊坊市,北华航天学院,细颗粒物(PM2.5),163,159,153,124,106,2,,21,11,77,74,16,11,2.9,1.9
2026-01-04T2300,2919A,116.7022,39.5454,廊坊市,河北工业大学,细颗粒物(PM2.5),134,162,154,102,99,2,,21,11,79,75,16,13,2.5,1.7
2026-01-04T2300,2536A,103.7629,29.5844,乐山市,牛耳桥,细颗粒物(PM2.5),54,43,31,38,27,2,,20,14,31,27,7,7,0.7,0.7
2026-01-04T2300,2537A,103.7501,29.6002,乐山市,市第三水厂,细颗粒物(PM2.5),68,57,33,49,28,1,,20,16,38,30,6,6,0.8,0.7
2026-01-04T2300,2538A,103.7571,29.5664,乐山市,市监测站,细颗粒物(PM2.5),54,49,29,38,26,3,,20,16,37,24,6,6,0.9,0.7
2026-01-04T2300,3361A,103.7313,29.563,乐山市,理工大学,颗粒物(PM10),53,55,38,34,24,1,,21,16,35,23,4,4,0.8,0.7
2026-01-04T2300,2599A,100.2497,26.8802,丽江市,丽江古城,,27,27,21,13,8,71,,88,77,11,12,8,7,0.6,0.6
2026-01-04T2300,2600A,100.2203,26.8906,丽江市,市中心,,25,10,11,9,9,77,,90,84,9,10,6,6,0.4,0.3
2026-01-04T2300,1267A,119.9141,28.4513,丽水市,监测站大楼,颗粒物(PM10),62,74,58,41,38,1,,45,16,50,40,6,7,1.0,0.8
2026-01-04T2300,1268A,119.93,28.4589,丽水市,莲都小学,颗粒物(PM10),73,96,64,41,36,4,,49,18,65,50,/,/,/,/
2026-01-04T2300,1269A,119.8794,28.4232,丽水市,余庄前,颗粒物(PM10),57,63,54,35,38,0,,41,15,45,36,5,5,0.5,0.4
2026-01-04T2300,1173A,119.1759,34.5885,连云港市,市环境监测站,细颗粒物(PM2.5),160,144,105,122,88,7,,46,30,62,48,13,13,1.0,1
2026-01-04T2300,3000A,119.3577,34.6971,连云港市,德源药业,细颗粒物(PM2.5),140,146,120,107,83,3,,34,16,69,61,4,5,0.6,0.6
2026-01-04T2300,3007A,119.178,34.8442,连云港市,新城一中,细颗粒物(PM2.5),178,154,129,134,112,10,,43,24,61,53,26,17,1.0,1
2026-01-04T2300,3008A,119.3607,34.7519,连云港市,胡沟管理处,细颗粒物(PM2.5),132,127,89,100,72,4,,48,17,75,46,11,11,1.1,1.1
2026-01-04T2300,3009A,119.1478,34.5913,连云港市,矿山设计院,细颗粒物(PM2.5),153,146,110,117,81,4,,45,26,63,42,11,10,1.2,1.1
2026-01-04T2300,3434A,119.2414,34.6539,连云港市,工贸学校,细颗粒物(PM2.5),149,132,93,114,78,21,,54,33,44,28,14,15,0.8,0.7
2026-01-04T2300,3664A,119.4171,34.734,连云港市,连云街道,细颗粒物(PM2.5),124,116,89,94,69,40,,63,43,39,34,14,11,1.0,0.8
2026-01-04T2300,2573A,102.2629,27.8981,凉山彝族自治州,西昌市政府,,30,30,29,16,20,51,,76,68,6,13,5,8,0.5,0.6
2026-01-04T2300,2574A,102.2686,27.885,凉山彝族自治州,凉山州政府,,32,29,32,22,17,47,,74,66,9,13,6,10,0.7,0.7
2026-01-04T2300,4229A,102.2342,27.8859,凉山彝族自治州,凯乐南路30号,细颗粒物(PM2.5),55,57,42,39,26,26,,76,64,34,18,5,9,0.6,0.7
2026-01-04T2300,2212A,123.1978,41.2036,辽阳市,宏伟区,细颗粒物(PM2.5),102,,102,76,90,12,,42,31,38,34,6,17,1.1,1.6
2026-01-04T2300,2213A,123.1684,41.2497,辽阳市,新华园,细颗粒物(PM2.5),212,,105,162,84,7,,42,24,63,49,11,30,2.5,1.6
2026-01-04T2300,2214A,123.2355,41.2663,辽阳市,滨河路,细颗粒物(PM2.5),110,110,103,83,73,17,,38,21,50,46,14,12,1.0,1.1
2026-01-04T2300,4083A,123.153,41.2874,辽阳市,铁西路150号,细颗粒物(PM2.5),95,101,116,71,81,20,,39,24,46,49,13,29,1.6,1.8
2026-01-04T2300,2227A,125.1359,42.8845,辽源市,环保局,颗粒物(PM10),105,160,136,71,72,17,,53,38,56,42,4,6,1.8,1.7
2026-01-04T2300,4085A,125.0998,42.9134,辽源市,安宁大街333号,细颗粒物(PM2.5),93,96,94,69,78,23,,57,45,60,39,7,8,0.7,1.1
2026-01-04T2300,1625A,115.9789,36.4372,聊城市,区政府,细颗粒物(PM2.5),202,186,128,152,100,18,,40,36,59,44,14,13,1.4,1.1
2026-01-04T2300,3200A,115.9772,36.4986,聊城市,监控中心,细颗粒物(PM2.5),230,210,136,180,116,13,,48,30,62,42,14,12,1.4,0.9
2026-01-04T2300,3513A,116.0443,36.436,聊城市,九州社区,细颗粒物(PM2.5),178,167,135,134,101,36,,53,49,37,35,5,4,1.0,0.8
2026-01-04T2300,4018A,116.0564,36.4609,聊城市,星美广场,细颗粒物(PM2.5),205,199,148,155,109,20,,45,36,43,34,6,5,1.2,0.9
2026-01-04T2300,4113A,116.0091,36.4495,聊城市,利民路,细颗粒物(PM2.5),201,196,138,151,108,21,,42,38,55,41,11,11,1.1,0.8
2026-01-04T2300,2632A,94.3683,29.6373,林芝市,林芝监测站,,22,22,10,12,7,38,,82,62,25,8,4,4,0.5,0.4
2026-01-04T2300,2633A,94.3616,29.6634,林芝市,林芝人民医院,,22,20,14,15,8,55,,74,67,10,7,5,6,0.5,0.4
2026-01-04T2300,2603A,100.0779,23.8981,临沧市,市环保局,细颗粒物(PM2.5),89,,25,66,39,34,,78,62,11,6,5,6,0.6,0.4
2026-01-04T2300,2604A,100.0894,23.882,临沧市,市气象局,细颗粒物(PM2.5),59,44,29,42,23,29,,71,52,14,10,5,5,0.6,0.5
2026-01-04T2300,1733A,111.5552,36.0791,临汾市,临钢医院,细颗粒物(PM2.5),241,262,275,191,211,4,,32,20,44,40,4,6,2.7,3.2
2026-01-04T2300,1734A,111.4984,36.0734,临汾市,技工学校,,,,257,,201,,,28,25,,43,,6,,3.4
2026-01-04T2300,1736A,111.5017,36.0857,临汾市,市委,细颗粒物(PM2.5),254,301,287,204,210,4,,30,23,63,50,7,8,2.8,3.2
2026-01-04T2300,3018A,111.5048,36.1015,临汾市,唐尧大酒店,细颗粒物(PM2.5),247,257,251,197,204,1,,29,16,60,49,3,4,3.0,3.4
2026-01-04T2300,4244A,111.4879,36.053,临汾市,启星学校,细颗粒物(PM2.5),183,233,232,138,176,1,,28,14,64,53,6,6,2.9,3.3
2026-01-04T2300,4271A,103.2464,35.6123,临夏回族自治州,滨河东路1号,细颗粒物(PM2.5),160,196,120,122,86,11,,68,42,44,28,4,5,1.5,1.1
2026-01-04T2300,4310A,103.207136,35.599807,临夏回族自治州,新华街21号,细颗粒物(PM2.5),112,113,96,84,76,42,,60,56,33,24,15,9,1.1,1
2026-01-04T2300,1618A,118.3429,35.0532,临沂市,沂河小区,细颗粒物(PM2.5),217,193,175,167,156,6,,34,22,78,80,33,22,1.2,1.3
2026-01-04T2300,1619A,118.2962,35.0568,临沂市,鲁南制药厂,细颗粒物(PM2.5),217,215,197,167,158,3,,25,15,78,84,32,31,1.1,1.4
2026-01-04T2300,1620A,118.2793,34.9976,临沂市,新光毛纺厂,细颗粒物(PM2.5),212,202,180,162,151,4,,32,19,72,73,28,31,1.2,1.4
2026-01-04T2300,1621A,118.3955,35.0889,临沂市,河东保险公司,细颗粒物(PM2.5),185,180,184,139,139,14,,30,21,62,74,23,17,1.1,1.4
2026-01-04T2300,3370A,118.3563,35.0215,临沂市,十里堡居委,细颗粒物(PM2.5),180,178,182,136,136,5,,34,16,79,85,27,30,1.4,1.6
2026-01-04T2300,3496A,118.359,35.1067,临沂市,南坊新区,细颗粒物(PM2.5),203,190,168,153,134,8,,38,20,72,72,25,18,1.2,1.3
2026-01-04T2300,3860A,118.3915,35.0297,临沂市,皇山花园小区,细颗粒物(PM2.5),172,180,176,130,128,13,,42,20,75,87,29,29,1.3,1.3
2026-01-04T2300,1870A,109.4854,24.3898,柳州市,柳东小学,,9,7,57,6,54,22,,20,20,7,15,7,8,0.7,0.8
2026-01-04T2300,1871A,109.4109,24.3304,柳州市,环保监测站,,16,16,57,8,46,13,,16,14,23,23,10,7,1.3,0.8
2026-01-04T2300,1872A,109.3886,24.3408,柳州市,河西水厂,,18,17,67,12,52,21,,17,13,13,24,9,14,0.5,0.8
2026-01-04T2300,1873A,109.4263,24.2951,柳州市,市四中,,13,13,46,8,36,16,,19,16,20,21,10,10,1.1,0.8
2026-01-04T2300,1874A,109.396,24.3658,柳州市,市九中,,13,13,48,3,51,19,,15,14,18,23,15,11,1.0,0.9
2026-01-04T2300,1875A,109.4912,24.3164,柳州市,古亭山,,8,6,45,3,40,22,,23,20,7,14,9,10,0.8,0.8
2026-01-04T2300,3402A,109.5422,24.3994,柳州市,市二中,,7,6,50,3,43,22,,18,18,10,18,7,8,0.6,0.7
2026-01-04T2300,2307A,116.5078,31.7369,六安市,监测大楼,细颗粒物(PM2.5),78,72,62,57,55,42,,49,44,19,24,2,3,0.6,0.6
2026-01-04T2300,2308A,116.4738,31.7642,六安市,皖西学院,细颗粒物(PM2.5),83,72,75,61,57,47,,52,46,18,25,4,4,0.5,0.6
2026-01-04T2300,2309A,116.4997,31.7904,六安市,朝阳厂,细颗粒物(PM2.5),80,66,68,59,56,38,,46,39,22,28,7,5,0.6,0.6
2026-01-04T2300,2310A,116.5566,31.7885,六安市,开发区,细颗粒物(PM2.5),95,85,82,71,63,35,,42,30,23,32,1,1,0.5,0.6
2026-01-04T2300,2577A,104.8293,26.592,六盘水市,黄土坡,,28,23,13,19,11,25,,30,27,14,12,11,10,0.8,0.8
2026-01-04T2300,2579A,104.8481,26.5898,六盘水市,民中,,25,24,15,17,9,20,,25,21,15,13,4,4,0.8,0.7
2026-01-04T2300,2580A,104.9541,26.5506,六盘水市,双水,,26,24,17,18,11,27,,34,30,12,10,5,4,0.5,0.5
2026-01-04T2300,4151A,104.8899,26.5685,六盘水市,钟山大道中段564号,,24,24,19,14,11,24,,29,26,12,11,5,5,1.0,0.9
2026-01-04T2300,2336A,117.022,25.1031,龙岩市,龙岩市监测站,,30,30,32,18,20,18,,87,60,48,27,29,19,0.6,0.5
2026-01-04T2300,2337A,117.0257,25.0662,龙岩市,闽西职业技术学院,,27,27,38,14,20,34,,89,60,32,23,19,13,0.4,0.4
2026-01-04T2300,2338A,117.0195,25.0306,龙岩市,龙岩学院,,18,18,29,12,20,52,,87,71,12,14,8,9,/,/
2026-01-04T2300,2885A,104.9344,33.3827,陇南市,滨江中学,颗粒物(PM10),68,86,70,46,41,36,,69,59,36,20,10,7,1.6,1
2026-01-04T2300,3247A,104.9551,33.3709,陇南市,市总工会,颗粒物(PM10),63,75,71,35,40,46,,68,64,22,20,2,3,0.7,0.8
2026-01-04T2300,2488A,111.9984,27.7346,娄底市,市监测站,,45,34,47,31,38,13,,30,14,20,18,7,5,0.8,0.7
2026-01-04T2300,2491A,111.9888,27.7035,娄底市,市政府,,39,27,38,27,39,10,,30,15,13,13,4,5,0.6,0.6
2026-01-04T2300,4127A,111.9812,27.7591,娄底市,涟钢职大,,38,33,46,26,36,12,,27,12,16,19,3,4,0.7,0.6
2026-01-04T2300,4128A,112.0303,27.7457,娄底市,娄底体校,,43,43,45,26,37,9,,28,14,15,14,2,2,0.8,0.7
2026-01-04T2300,1894A,105.4427,28.9063,泸州市,小市上码头,,47,47,46,32,30,0,,44,28,54,22,7,7,1.3,0.9
2026-01-04T2300,1895A,105.4241,28.8573,泸州市,兰田宪桥,细颗粒物(PM2.5),60,55,45,43,33,4,,34,20,28,21,9,7,1.3,1
2026-01-04T2300,1896A,105.4378,28.8833,泸州市,市环监站,,43,43,41,29,29,5,,36,26,50,26,8,7,1.2,0.7
2026-01-04T2300,4272A,105.3689,28.7783,泸州市,纳溪中医医院,细颗粒物(PM2.5),64,55,50,46,40,2,,32,16,18,17,8,8,1.1,0.9
2026-01-04T2300,2183A,111.1447,37.5212,吕梁市,环保局,颗粒物(PM10),79,108,112,41,47,2,,20,8,54,50,6,12,0.9,0.9
2026-01-04T2300,2185A,111.1285,37.5338,吕梁市,自来水公司,颗粒物(PM10),81,111,125,48,48,2,,19,8,54,48,6,14,1.1,1.1
2026-01-04T2300,2867A,111.1225,37.5093,吕梁市,马茂庄小学,颗粒物(PM10),89,128,127,43,47,0,,17,6,56,52,10,15,1.0,1
2026-01-04T2300,1812A,112.3934,34.6517,洛阳市,市委党校,细颗粒物(PM2.5),77,64,77,56,71,64,,63,63,24,24,9,9,0.6,0.8
2026-01-04T2300,1815A,112.494,34.6883,洛阳市,河南林校,细颗粒物(PM2.5),100,79,85,75,81,41,,52,48,35,26,12,12,0.9,0.9
2026-01-04T2300,1816A,112.3843,34.623,洛阳市,开发区管委会,细颗粒物(PM2.5),80,74,83,59,75,54,,62,60,22,20,7,8,0.7,0.8
2026-01-04T2300,1817A,112.4263,34.6249,洛阳市,市委新办公区,细颗粒物(PM2.5),84,73,87,62,78,63,,66,65,19,21,8,9,0.7,0.8
2026-01-04T2300,3340A,112.6005,34.6323,洛阳市,伊滨,细颗粒物(PM2.5),85,80,88,63,76,58,,60,59,27,26,7,8,0.8,0.9
2026-01-04T2300,3341A,112.495,34.6338,洛阳市,中移产业园,细颗粒物(PM2.5),90,68,78,67,79,54,,59,58,31,31,9,9,0.7,0.8
2026-01-04T2300,3593A,112.5736,34.8993,洛阳市,吉利监测站,细颗粒物(PM2.5),122,94,82,92,89,19,,57,46,46,29,5,8,1.0,1.1
2026-01-04T2300,3635A,112.3678,34.6623,洛阳市,河科大西苑校区,细颗粒物(PM2.5),72,63,80,52,70,64,,61,61,21,25,9,9,0.6,0.8
2026-01-04T2300,3636A,112.4387,34.678,洛阳市,英才小学,细颗粒物(PM2.5),92,75,87,68,83,64,,61,60,33,34,10,11,0.8,0.9
2026-01-04T2300,4214A,112.460027,34.694929,洛阳市,春都路1号院,细颗粒物(PM2.5),82,95,99,60,68,41,,49,46,30,22,11,11,0.9,1
2026-01-04T2300,2399A,114.051,33.5721,漯河市,三五一五工厂,细颗粒物(PM2.5),109,104,109,82,87,37,,57,47,20,20,6,7,1.0,1
2026-01-04T2300,2400A,114.0055,33.5698,漯河市,漯河大学,细颗粒物(PM2.5),100,88,87,75,79,42,,60,48,24,24,5,6,0.8,0.8
2026-01-04T2300,2401A,114.0134,33.5826,漯河市,市水利局,细颗粒物(PM2.5),104,88,86,78,81,38,,52,41,22,22,7,7,0.9,0.9
2026-01-04T2300,2402A,114.0261,33.5697,漯河市,市广电局,细颗粒物(PM2.5),105,81,86,79,84,43,,59,48,17,17,6,7,0.8,0.8
2026-01-04T2300,3478A,113.9691,33.568,漯河市,市图书馆,细颗粒物(PM2.5),109,96,99,82,84,34,,54,44,25,19,4,5,1.0,1
2026-01-04T2300,4250A,114.089259,33.588274,漯河市,韶山路11号,细颗粒物(PM2.5),113,104,104,85,86,22,,50,36,30,23,6,6,0.7,0.7
2026-01-04T2300,1798A,118.5084,31.6838,马鞍山市,湖东路四小,细颗粒物(PM2.5),112,112,113,84,86,24,,22,6,40,56,6,7,1.1,1.3
2026-01-04T2300,1799A,118.5019,31.6449,马鞍山市,开发区,细颗粒物(PM2.5),124,105,120,94,104,28,,19,10,36,55,5,8,1.0,1.1
2026-01-04T2300,3633A,118.4914,31.681,马鞍山市,雨山,细颗粒物(PM2.5),115,109,113,87,90,17,,28,7,48,56,10,10,1.3,1.2
2026-01-04T2300,4191A,118.527362,31.722269,马鞍山市,慈湖高新区,细颗粒物(PM2.5),124,108,125,94,102,20,,15,10,48,59,5,8,1.0,1
2026-01-04T2300,1686A,111.0285,21.469,茂名市,电白南海,颗粒物(PM10),56,61,60,36,34,85,,120,111,28,20,8,17,0.7,0.6
2026-01-04T2300,1687A,110.9294,21.6533,茂名市,茂石化七小,颗粒物(PM10),54,58,54,31,26,83,,112,101,24,20,7,14,0.3,0.4
2026-01-04T2300,1688A,110.9108,21.6688,茂名市,健康路,,46,46,46,22,27,101,,126,116,23,22,9,16,0.7,0.7
2026-01-04T2300,1689A,110.8592,21.6826,茂名市,高岭,颗粒物(PM10),59,68,71,27,27,79,,127,106,35,24,10,17,/,/
2026-01-04T2300,3450A,111.0101,21.5165,茂名市,电白水东,颗粒物(PM10),56,61,53,31,27,94,,113,110,16,14,17,13,/,/
2026-01-04T2300,2540A,103.8414,30.0871,眉山市,气象局,细颗粒物(PM2.5),77,93,40,56,27,4,,54,40,47,26,8,8,1.0,0.8
2026-01-04T2300,3148A,103.829,30.0563,眉山市,区人社局,细颗粒物(PM2.5),70,72,37,51,23,4,,48,33,42,24,6,6,1.0,0.8
2026-01-04T2300,4148A,103.8836,30.0695,眉山市,眉职院,,,,31,,19,,,51,47,,18,,1,,0.8
2026-01-04T2300,1690A,116.1248,24.3307,梅州市,梅江月梅,,45,45,42,28,26,14,,92,73,50,27,/,/,/,/
2026-01-04T2300,1691A,116.0798,24.2719,梅州市,梅县新城,细颗粒物(PM2.5),68,68,44,49,32,3,,85,48,62,35,7,8,0.7,0.6
2026-01-04T2300,3315A,116.1234,24.2994,梅州市,梅龙,颗粒物(PM10),51,51,46,33,28,19,,82,54,46,30,21,10,0.7,0.6
2026-01-04T2300,1878A,104.7775,31.4741,绵阳市,富乐山,细颗粒物(PM2.5),53,44,31,37,26,2,,46,31,44,20,11,11,1.1,0.8
2026-01-04T2300,1880A,104.6698,31.4668,绵阳市,高新区自来水公司,细颗粒物(PM2.5),77,98,49,56,35,1,,35,19,50,34,10,9,1.1,0.9
2026-01-04T2300,3491A,104.6899,31.5324,绵阳市,西科大附属小学,细颗粒物(PM2.5),85,88,49,63,40,3,,41,26,37,26,9,8,1.4,1.2
2026-01-04T2300,3492A,104.5647,31.5343,绵阳市,安州区旅游局,细颗粒物(PM2.5),100,94,42,75,38,3,,39,24,37,25,17,14,1.1,0.8
2026-01-04T2300,4146A,104.7092,31.4972,绵阳市,科技城新区公安局,细颗粒物(PM2.5),85,79,40,63,33,0,,44,30,52,28,4,4,1.1,0.8
2026-01-04T2300,4226A,104.765114,31.453094,绵阳市,绵阳市气象局,细颗粒物(PM2.5),64,73,39,46,29,1,,42,25,50,32,11,9,1.3,1
2026-01-04T2300,1784A,129.61,44.561,牡丹江市,环保大楼,,43,43,50,24,32,57,,64,58,13,19,8,10,0.8,0.9
2026-01-04T2300,1787A,129.6364,44.6075,牡丹江市,机车工厂,颗粒物(PM10),52,53,66,32,36,26,,64,45,32,26,24,9,0.5,0.5
2026-01-04T2300,1788A,129.6386,44.5462,牡丹江市,第一中学,,19,19,36,13,29,44,,58,46,22,20,4,6,0.4,0.5
2026-01-04T2300,4287A,129.5992,44.5964,牡丹江市,东晓云街98号,"颗粒物(PM10),细颗粒物(PM2.5)",52,54,49,36,38,40,,62,50,19,25,4,5,0.8,0.7
2026-01-04T2300,2531A,105.0703,29.61,内江市,市监测站,细颗粒物(PM2.5),68,61,44,49,35,13,,48,34,34,21,5,4,1.0,0.7
2026-01-04T2300,2533A,105.0657,29.5807,内江市,内江二中,细颗粒物(PM2.5),58,64,46,41,31,6,,39,27,54,26,4,4,1.1,0.9
2026-01-04T2300,2534A,105.0407,29.5828,内江市,内江日报社,细颗粒物(PM2.5),57,48,36,40,29,14,,47,29,41,27,2,2,0.7,0.6
2026-01-04T2300,4147A,105.0433,29.6105,内江市,玉峰路西段888号,细颗粒物(PM2.5),59,63,40,42,28,33,,51,40,29,20,4,3,0.8,0.7
2026-01-04T2300,2628A,92.0653,31.4846,那曲市,那曲监测站,细颗粒物(PM2.5),132,121,49,100,34,29,,79,59,56,30,17,11,2.2,1.4
2026-01-04T2300,4243A,92.0515,31.4787,那曲市,那曲市委宣传部,,45,42,27,31,18,23,,81,61,45,19,11,6,2.0,1.1
2026-01-04T2300,1291A,115.8887,28.7006,南昌市,省林业公司,细颗粒物(PM2.5),85,,45,63,46,15,,42,25,31,30,3,4,1.3,1.1
2026-01-04T2300,1292A,115.813,28.7443,南昌市,林科所,细颗粒物(PM2.5),62,56,41,44,36,22,,33,17,29,34,5,5,0.7,0.6
2026-01-04T2300,1294A,115.8518,28.687,南昌市,建工学校,细颗粒物(PM2.5),82,89,56,60,46,15,,36,20,38,37,12,13,0.8,0.7
2026-01-04T2300,1295A,115.8926,28.6425,南昌市,象湖,细颗粒物(PM2.5),85,,48,63,47,20,,41,26,28,34,8,9,0.9,0.9
2026-01-04T2300,3046A,115.9084,28.6062,南昌市,机电学校,细颗粒物(PM2.5),92,73,61,68,49,26,,48,33,25,34,4,5,0.7,0.7
2026-01-04T2300,3690A,115.9718,28.7032,南昌市,外国语学校,细颗粒物(PM2.5),77,68,59,56,51,18,,33,25,31,35,10,12,0.7,0.6
2026-01-04T2300,4106A,115.7923,28.6873,南昌市,工业二路,细颗粒物(PM2.5),70,59,52,51,44,24,,40,24,20,28,4,5,0.5,0.4
2026-01-04T2300,4192A,115.931587,28.686774,南昌市,南京东路235号,细颗粒物(PM2.5),94,,52,70,53,22,,47,31,39,38,6,6,0.5,0.4
2026-01-04T2300,1906A,106.0791,30.8022,南充市,南充市委,细颗粒物(PM2.5),90,79,42,67,38,3,,32,19,35,25,4,4,0.9,0.7
2026-01-04T2300,1907A,106.1038,30.8215,南充市,南充炼油厂,细颗粒物(PM2.5),92,95,55,68,43,1,,34,24,38,23,6,6,0.9,0.5
2026-01-04T2300,4227A,106.108336,30.788436,南充市,梨树横街98号,细颗粒物(PM2.5),83,71,42,61,35,4,,40,27,41,24,6,5,1.2,0.7
2026-01-04T2300,4304A,106.1172,30.843,南充市,清泉寺北路188号,细颗粒物(PM2.5),70,54,33,51,36,3,,43,35,40,18,6,6,1.0,0.8
2026-01-04T2300,4305A,106.067,30.7616,南充市,同庆路1号,细颗粒物(PM2.5),67,58,44,48,36,1,,37,22,36,23,6,5,0.9,1.3
2026-01-04T2300,1151A,118.8033,32.1085,南京市,迈皋桥,细颗粒物(PM2.5),73,62,89,53,66,50,,42,42,20,38,2,3,0.7,0.9
2026-01-04T2300,1152A,118.7487,32.057,南京市,草场门,细颗粒物(PM2.5),73,63,92,53,70,36,,28,28,36,50,5,7,0.4,0.6
2026-01-04T2300,1154A,118.770105,32.004342,南京市,中华门,细颗粒物(PM2.5),83,70,91,61,74,41,,23,21,27,49,5,5,0.8,0.9
2026-01-04T2300,1155A,118.8059,32.0329,南京市,瑞金路,细颗粒物(PM2.5),83,83,94,61,76,45,,28,24,46,69,4,4,0.8,0.9
2026-01-04T2300,1156A,118.7946,32.0774,南京市,玄武湖,细颗粒物(PM2.5),68,75,95,49,69,40,,30,30,25,28,4,4,0.5,0.7
2026-01-04T2300,1157A,118.6415,32.0964,南京市,浦口,细颗粒物(PM2.5),88,83,94,65,67,44,,45,45,24,46,7,8,0.7,0.9
2026-01-04T2300,1158A,118.730129,32.000956,南京市,奥体中心,细颗粒物(PM2.5),85,81,95,63,76,46,,36,31,38,60,6,7,0.6,0.9
2026-01-04T2300,1159A,118.9072,32.1047,南京市,仙林大学城,细颗粒物(PM2.5),77,68,91,56,71,32,,33,18,38,48,5,7,0.9,1
2026-01-04T2300,3422A,118.8443,31.919,南京市,江宁彩虹桥,细颗粒物(PM2.5),100,107,102,75,78,11,,20,7,38,50,4,4,0.8,0.7
2026-01-04T2300,3427A,118.8497,32.3599,南京市,六合雄州,细颗粒物(PM2.5),82,70,82,60,57,44,,48,48,25,44,8,9,0.5,0.6
2026-01-04T2300,4086A,118.7641,32.0841,南京市,新模范马路66号,细颗粒物(PM2.5),74,74,105,54,79,42,,30,30,32,48,4,6,0.8,1.1
2026-01-04T2300,4249A,118.8707617,31.34017673,南京市,汶溪路181号,细颗粒物(PM2.5),113,90,99,85,96,14,,47,41,66,46,8,7,1.1,0.8
2026-01-04T2300,4312A,119.019,31.6512,南京市,中山西路1号,细颗粒物(PM2.5),119,90,82,90,87,2,,26,16,52,43,3,4,1.1,0.8
2026-01-04T2300,1401A,108.3098,22.788,南宁市,二十一中,细颗粒物(PM2.5),100,,60,75,57,18,,53,42,29,27,5,6,0.9,0.9
2026-01-04T2300,1402A,108.3135,22.8529,南宁市,北湖,细颗粒物(PM2.5),62,62,64,44,54,7,,57,30,34,29,22,6,0.9,0.9
2026-01-04T2300,1403A,108.3205,22.8222,南宁市,市监测站,细颗粒物(PM2.5),87,71,63,64,46,6,,54,37,34,26,11,9,0.9,0.8
2026-01-04T2300,1404A,108.3828,22.8038,南宁市,大自然花园,细颗粒物(PM2.5),92,82,69,68,52,26,,63,52,28,30,6,7,0.9,0.8
2026-01-04T2300,1406A,108.2397,22.8462,南宁市,区农职院,细颗粒物(PM2.5),62,,61,44,51,15,,46,24,19,29,7,9,0.9,0.9
2026-01-04T2300,1407A,108.3285,22.7356,南宁市,英华嘉园,细颗粒物(PM2.5),98,,67,73,62,32,,64,55,22,23,4,5,0.8,0.7
2026-01-04T2300,3401A,108.4829,22.762,南宁市,红星社区,细颗粒物(PM2.5),97,74,66,72,55,34,,69,55,14,20,6,8,0.9,0.8
2026-01-04T2300,4132A,108.2927,23.1477,南宁市,起凤路9号,,26,20,56,18,50,18,,25,21,9,15,1,3,0.9,0.9
2026-01-04T2300,4221A,108.2177,22.7774,南宁市,乐贤路16号,细颗粒物(PM2.5),62,56,75,44,49,13,,49,30,11,24,3,5,0.7,0.7
2026-01-04T2300,2332A,118.1682,26.6371,南平市,南平市监测站,,36,34,27,25,19,8,,70,44,42,20,4,6,0.6,0.5
2026-01-04T2300,2334A,118.1757,26.6276,南平市,南平七中,,26,,24,18,17,22,,71,50,29,18,4,6,0.6,0.5
2026-01-04T2300,1168A,120.9056,31.9669,南通市,狼山街道,细颗粒物(PM2.5),100,79,76,75,63,7,,30,22,60,54,2,4,1.1,1.1
2026-01-04T2300,1170A,120.8635,32.0231,南通市,城中,细颗粒物(PM2.5),107,89,83,80,59,3,,31,20,72,62,4,6,0.9,0.9
2026-01-04T2300,1171A,120.9376,31.9301,南通市,星湖花园,细颗粒物(PM2.5),100,76,74,75,58,13,,33,26,58,53,3,6,1.2,1.2
2026-01-04T2300,1172A,120.8053,32.046,南通市,紫琅学院,细颗粒物(PM2.5),113,99,87,85,63,2,,26,17,69,64,3,5,1.0,1
2026-01-04T2300,3291A,121.0631,32.0644,南通市,通州监测站,细颗粒物(PM2.5),85,66,66,63,56,30,,40,34,36,45,3,4,0.9,0.8
2026-01-04T2300,3432A,120.9348,31.9874,南通市,环境教育馆,细颗粒物(PM2.5),98,75,74,73,62,6,,29,19,70,64,4,6,0.9,0.9
2026-01-04T2300,4091A,120.8692,31.9885,南通市,洪江路,细颗粒物(PM2.5),110,90,84,83,65,5,,25,19,69,65,2,5,0.7,0.7
2026-01-04T2300,2404A,112.5338,33.0086,南阳市,瓦房庄,细颗粒物(PM2.5),118,92,93,89,90,33,,48,41,26,18,6,6,1.0,0.9
2026-01-04T2300,2405A,112.5002,32.9734,南阳市,汉画馆,细颗粒物(PM2.5),112,99,97,84,88,10,,51,28,35,21,6,6,1.1,1
2026-01-04T2300,2406A,112.5778,33.0144,南阳市,气象站,细颗粒物(PM2.5),107,100,100,80,83,42,,52,48,25,18,5,5,0.8,0.8
2026-01-04T2300,2407A,112.548,32.9687,南阳市,理工学院,细颗粒物(PM2.5),93,95,89,69,72,23,,49,35,38,22,6,5,1.1,1
2026-01-04T2300,4008A,112.5233,32.9921,南阳市,卧龙区政府,细颗粒物(PM2.5),118,104,102,89,88,24,,45,38,32,19,6,5,1.0,0.9
2026-01-04T2300,1234A,121.8352,29.9111,宁波市,区环保大楼,细颗粒物(PM2.5),77,94,56,56,34,9,,58,38,78,49,8,6,0.8,0.8
2026-01-04T2300,1235A,121.5595,29.8208,宁波市,万里学院,细颗粒物(PM2.5),115,125,74,87,50,21,,56,26,60,52,5,5,0.6,0.6
2026-01-04T2300,1236A,121.713,29.9564,宁波市,龙赛医院,细颗粒物(PM2.5),94,99,80,70,48,12,,44,28,72,57,5,5,0.7,0.7
2026-01-04T2300,1240A,121.5855,29.8635,宁波市,太古小学,颗粒物(PM10),81,111,74,57,39,24,,54,24,51,49,3,3,0.6,0.7
2026-01-04T2300,1241A,121.5239,29.8673,宁波市,市环境监测中心,细颗粒物(PM2.5),147,127,74,112,51,15,,39,17,63,51,7,7,0.9,0.8
2026-01-04T2300,2871A,121.6156,29.9015,宁波市,万里国际学校,细颗粒物(PM2.5),104,99,71,78,50,10,,47,16,70,57,4,5,0.6,0.6
2026-01-04T2300,3710A,121.5593,29.8976,宁波市,白沙活动中心,细颗粒物(PM2.5),113,96,67,85,50,18,,43,17,60,58,5,5,0.7,0.8
2026-01-04T2300,4095A,121.8962,29.7529,宁波市,中科路88号,细颗粒物(PM2.5),70,62,37,51,26,35,,77,42,41,27,8,5,0.7,0.7
2026-01-04T2300,2341A,119.5387,26.6611,宁德市,宁德市监测站,,29,29,35,14,19,31,,62,54,27,24,6,7,0.8,0.6
2026-01-04T2300,3209A,119.5231,26.6562,宁德市,宁德一中,,30,26,31,21,22,27,,62,46,22,19,4,5,0.8,0.7
2026-01-04T2300,2618A,98.859,25.8541,怒江傈僳族自治州,州监测站,,38,33,28,26,21,44,,68,60,11,10,6,6,0.5,0.4
2026-01-04T2300,2619A,98.8607,25.8168,怒江傈僳族自治州,泸水一中,,46,34,25,32,19,20,,54,37,22,15,6,6,0.7,0.5
2026-01-04T2300,1888A,101.6891,26.571,攀枝花市,弄弄坪,颗粒物(PM10),55,60,38,28,21,24,,84,64,47,27,16,15,1.1,1.3
2026-01-04T2300,1889A,101.577,26.5914,攀枝花市,河门口,颗粒物(PM10),51,52,45,27,20,23,,76,60,32,24,39,24,0.7,0.9
2026-01-04T2300,1891A,101.7365,26.4986,攀枝花市,仁和,,36,36,29,21,17,34,,81,59,21,17,7,9,0.7,0.6
2026-01-04T2300,2835A,101.7222,26.567,攀枝花市,四十中小,,44,44,31,27,18,17,,75,46,52,31,13,12,1.4,1
2026-01-04T2300,1604A,122.0303,41.1489,盘锦市,开发区,细颗粒物(PM2.5),104,93,80,78,66,4,,56,29,52,34,7,8,1.3,1.3
2026-01-04T2300,1605A,122.0486,41.0883,盘锦市,兴隆台,细颗粒物(PM2.5),114,,67,86,54,6,,56,32,,55,8,10,1.2,1.3
2026-01-04T2300,1606A,121.8297,41.1026,盘锦市,新生街道,颗粒物(PM10),53,56,59,35,42,7,,60,36,61,42,7,8,0.7,0.8
2026-01-04T2300,1832A,113.3257,33.7423,平顶山市,新华旅馆,细颗粒物(PM2.5),123,137,98,93,78,12,,58,40,47,22,6,6,0.7,0.7
2026-01-04T2300,1833A,113.2917,33.737,平顶山市,规划设计院,细颗粒物(PM2.5),100,106,100,75,77,41,,61,56,41,27,7,6,0.6,0.8
2026-01-04T2300,1834A,113.182,33.7738,平顶山市,平顶山工学院,细颗粒物(PM2.5),83,73,78,61,69,69,,66,66,14,16,7,7,0.4,0.5
2026-01-04T2300,3594A,112.8736,33.9068,平顶山市,石龙区,细颗粒物(PM2.5),78,62,75,57,65,79,,75,75,22,24,6,6,0.8,0.9
2026-01-04T2300,4116A,113.284,33.7139,平顶山市,姚电大道23号,细颗粒物(PM2.5),100,97,100,75,81,55,,63,60,20,19,10,9,0.7,0.9
2026-01-04T2300,2656A,106.6633,35.5338,平凉市,聚贤嘉苑,,41,41,38,24,28,47,,93,61,38,19,10,8,0.8,0.7
2026-01-04T2300,2657A,106.7021,35.5307,平凉市,博物馆,细颗粒物(PM2.5),57,51,47,40,35,44,,92,68,36,18,11,9,1.1,0.8
2026-01-04T2300,2348A,113.8384,27.6436,萍乡市,中医院,,38,38,74,23,50,11,,43,16,27,26,3,5,1.2,1
2026-01-04T2300,2350A,113.8677,27.6438,萍乡市,市环保局,,,41,60,32,52,,,49,18,34,25,15,15,1.2,0.6
2026-01-04T2300,2351A,113.8663,27.6202,萍乡市,安源区政府,,50,50,77,35,60,4,,29,9,29,26,11,11,0.9,1
2026-01-04T2300,4107A,113.8686,27.6668,萍乡市,联洪村委会,,49,37,64,34,47,17,,42,23,31,27,5,6,0.7,0.8
2026-01-04T2300,2319A,119.0142,25.4324,莆田市,荔城区仓后路,颗粒物(PM10),51,52,37,33,15,30,,92,72,42,18,/,/,/,/
2026-01-04T2300,2320A,119.0016,25.4553,莆田市,莆田市监测站,,29,29,27,20,12,53,,96,75,16,10,4,4,0.8,0.6
2026-01-04T2300,2321A,119.112,25.4561,莆田市,涵江区六中,,50,50,36,30,16,30,,90,62,47,22,/,/,1.0,0.6
2026-01-04T2300,2322A,119.1014,25.3215,莆田市,秀屿区政府,,34,34,33,23,16,55,,95,81,21,15,4,4,1.0,0.6
2026-01-04T2300,2392A,115.0312,35.7636,濮阳市,环保局,细颗粒物(PM2.5),219,182,113,169,112,14,,33,22,45,28,7,7,1.8,1.5
2026-01-04T2300,3021A,115,35.7667,濮阳市,濮水河管理处,细颗粒物(PM2.5),225,217,144,175,113,14,,36,24,56,37,6,6,1.4,1.1
2026-01-04T2300,4118A,115.0552,35.7816,濮阳市,中原东路68号,细颗粒物(PM2.5),244,267,162,194,126,18,,36,26,47,31,6,5,1.3,1
2026-01-04T2300,4216A,115.0923632,35.76857718,濮阳市,任丘路479号,细颗粒物(PM2.5),248,214,138,198,127,10,,28,21,55,38,6,5,1.4,1.1
2026-01-04T2300,2601A,100.9801,22.7634,普洱市,市环保局,,49,49,42,19,23,16,,59,45,10,12,4,4,0.5,0.5
2026-01-04T2300,2602A,100.9763,22.8237,普洱市,普洱第二中学,,39,39,31,23,19,9,,65,48,22,14,4,5,0.6,0.5
2026-01-04T2300,3345A,131.0413,45.7795,七台河市,中波台,,33,32,53,23,30,48,,64,57,16,16,10,8,0.5,0.5
2026-01-04T2300,3637A,131.0136,45.7688,七台河市,人民广场,,45,44,60,31,38,45,,64,56,24,20,12,9,0.6,0.6
2026-01-04T2300,3684A,130.8639,45.8144,七台河市,新建矿广场,,40,,55,28,32,50,,63,58,10,12,8,10,0.4,0.4
2026-01-04T2300,1779A,123.9307,47.3641,齐齐哈尔市,安居小区,,25,20,23,17,15,58,,63,51,12,16,8,7,0.4,0.5
2026-01-04T2300,1780A,123.9497,47.3389,齐齐哈尔市,中心广场,,19,14,11,9,8,60,,60,54,9,13,8,6,0.4,0.5
2026-01-04T2300,1781A,123.9483,47.3229,齐齐哈尔市,农牧车辆厂,,20,17,21,14,13,57,,59,51,7,12,4,4,0.3,0.3
2026-01-04T2300,1783A,123.9442,47.2994,齐齐哈尔市,市环境监测站,,21,15,21,7,10,66,,65,56,6,12,7,7,0.4,0.5
2026-01-04T2300,3662A,123.6341,47.2079,齐齐哈尔市,富区青少年活动中心,,19,14,34,7,13,59,,60,54,8,14,5,7,0.5,0.5
2026-01-04T2300,2591A,107.9765,26.5724,黔东南苗族侗族自治州,市环境监测站,,38,30,23,26,21,10,,23,18,18,15,6,6,0.8,0.8
2026-01-04T2300,2881A,107.8909,26.531,黔东南苗族侗族自治州,凯里学院,,29,22,18,20,12,16,,28,13,13,15,5,4,0.8,0.8
2026-01-04T2300,2593A,107.5223,26.2371,黔南布依族苗族自治州,小围寨,,35,24,13,24,12,10,,22,14,10,8,4,5,0.8,0.8
2026-01-04T2300,3538A,107.5175,26.2977,黔南布依族苗族自治州,沙坝,,39,27,18,27,16,12,,23,14,12,11,6,5,0.9,0.9
2026-01-04T2300,2589A,104.9022,25.0943,黔西南布依族苗族自治州,场坝街,,29,29,23,16,13,30,,20,20,10,10,4,4,0.7,0.7
2026-01-04T2300,2590A,104.8812,25.0994,黔西南布依族苗族自治州,坪东大道,,20,20,20,10,12,34,,22,22,9,9,5,5,0.7,0.7
2026-01-04T2300,2502A,108.6238,21.9667,钦州市,市环保站,细颗粒物(PM2.5),117,122,85,88,61,40,,98,75,27,26,4,4,1.0,0.9
2026-01-04T2300,2503A,108.655,21.9481,钦州市,沙埠小学,细颗粒物(PM2.5),142,,73,108,60,44,,107,81,28,26,7,6,0.8,0.7
2026-01-04T2300,2504A,108.5989,21.7435,钦州市,港区一小,细颗粒物(PM2.5),97,101,75,72,44,37,,108,83,43,38,7,8,0.9,0.7
2026-01-04T2300,3404A,108.5959,21.9634,钦州市,北职校,细颗粒物(PM2.5),127,120,79,96,55,34,,98,73,27,25,8,8,0.9,1
2026-01-04T2300,1046A,119.5247,39.9346,秦皇岛市,建设大厦,细颗粒物(PM2.5),114,133,83,86,52,6,,42,23,66,50,12,10,1.6,1
2026-01-04T2300,3132A,119.5979,39.938,秦皇岛市,文明里,细颗粒物(PM2.5),104,131,89,78,37,1,,43,20,76,53,13,12,1.1,0.7
2026-01-04T2300,4066A,119.7458,39.9952,秦皇岛市,南园路157号,细颗粒物(PM2.5),112,121,91,84,55,6,,47,21,81,53,17,13,1.8,1.2
2026-01-04T2300,4067A,119.5131,39.8858,秦皇岛市,翠岛大街1号,细颗粒物(PM2.5),65,74,58,47,36,5,,49,32,65,44,12,13,1.0,0.9
2026-01-04T2300,4198A,119.509013,39.825305,秦皇岛市,北戴河轮滑馆,细颗粒物(PM2.5),73,66,70,53,47,14,,56,30,58,48,5,6,1.4,1.3
2026-01-04T2300,1310A,120.404,36.0625,青岛市,市南区东部子站,细颗粒物(PM2.5),156,175,149,119,103,9,,37,24,81,71,14,17,1.4,1.2
2026-01-04T2300,1311A,120.362344,36.10282,青岛市,四方区子站,细颗粒物(PM2.5),203,,124,153,120,5,,39,23,79,70,9,10,1.5,1.3
2026-01-04T2300,1312A,120.294373,36.054183,青岛市,市南区西部子站,细颗粒物(PM2.5),199,195,154,149,114,12,,48,42,66,59,7,9,1.3,1.2
2026-01-04T2300,1313A,120.4581,36.0858,青岛市,崂山区子站,细颗粒物(PM2.5),160,158,132,122,93,39,,55,28,50,58,15,15,1.5,1.2
2026-01-04T2300,1315A,120.3945,36.3083,青岛市,城阳区子站,细颗粒物(PM2.5),209,254,171,159,104,12,,56,38,76,66,16,15,2.2,1.7
2026-01-04T2300,3642A,120.3454,36.0735,青岛市,市北区南部,细颗粒物(PM2.5),195,177,156,146,113,3,,34,24,73,68,9,11,1.4,1.2
2026-01-04T2300,3643A,120.3897,36.18,青岛市,李沧区北部,细颗粒物(PM2.5),233,217,162,183,128,5,,32,18,83,76,16,16,1.9,1.5
2026-01-04T2300,4110A,120.5222,36.4089,青岛市,盟旺路653号,细颗粒物(PM2.5),228,239,160,178,118,19,,60,43,66,66,8,10,1.5,1.2
2026-01-04T2300,4290A,120.196923,35.954556,青岛市,珠江路669号,细颗粒物(PM2.5),196,175,161,147,121,15,,26,18,80,99,15,18,1.3,1.2
2026-01-04T2300,4291A,120.0424,35.8656,青岛市,黄岛区人民政府广场,细颗粒物(PM2.5),208,185,166,158,129,10,,52,26,91,71,12,13,1.7,1.7
2026-01-04T2300,1703A,113.0218,23.7086,清远市,凤城街办,,49,49,46,33,32,56,,117,88,40,31,/,/,/,/
2026-01-04T2300,3025A,113.0479,23.6343,清远市,技师学院,颗粒物(PM10),67,83,56,45,31,28,,119,80,63,44,6,10,0.9,0.8
2026-01-04T2300,3318A,112.9898,23.7403,清远市,清新太和,,34,30,41,16,27,107,,131,122,13,22,6,8,0.4,0.5
2026-01-04T2300,3455A,113.076,23.72,清远市,清城东城,颗粒物(PM10),54,58,43,33,26,35,,118,83,40,30,/,/,/,/
2026-01-04T2300,2661A,107.6325,35.7357,庆阳市,庆阳五中,,35,29,42,24,36,93,,90,90,11,14,4,5,0.5,0.5
2026-01-04T2300,2662A,107.6361,35.7067,庆阳市,市环保局,,30,29,46,20,33,93,,93,93,9,10,2,2,0.4,0.4
2026-01-04T2300,1916A,103.7897,25.5036,曲靖市,环境监测站,,37,37,22,12,11,8,,86,65,20,11,6,3,1.0,0.6
2026-01-04T2300,1917A,103.8013,25.5357,曲靖市,烟厂办公区,,32,32,23,14,10,9,,86,63,21,11,8,4,0.8,0.4
2026-01-04T2300,3376A,103.7926,25.4651,曲靖市,南苑二区,,29,29,20,12,11,12,,90,70,18,7,5,4,1.0,0.5
2026-01-04T2300,3377A,103.7442,25.5259,曲靖市,曲靖师范学院,,41,41,23,26,14,8,,87,66,21,11,3,3,0.9,0.4
2026-01-04T2300,1264A,118.8694,28.94,衢州市,环保大楼,细颗粒物(PM2.5),75,71,90,55,69,31,,42,23,30,54,/,/,/,/
2026-01-04T2300,1266A,118.8622,28.9809,衢州市,衢州学院,细颗粒物(PM2.5),70,68,83,51,64,29,,40,23,30,50,5,5,0.3,0.4
2026-01-04T2300,4097A,118.9646,28.9832,衢州市,衢州三中,细颗粒物(PM2.5),74,73,94,54,70,28,,39,27,30,48,5,5,0.5,0.6
2026-01-04T2300,1611A,118.5818,24.9116,泉州市,涂山街,颗粒物(PM10),56,62,42,38,23,40,,94,75,34,20,2,3,0.8,0.5
2026-01-04T2300,1612A,118.597,24.8976,泉州市,津头埔,,50,50,41,33,23,41,,96,78,48,23,4,5,0.7,0.5
2026-01-04T2300,1613A,118.6669,24.9422,泉州市,万安,,,64,41,36,19,,,98,78,70,23,3,3,0.7,0.5
2026-01-04T2300,4105A,118.6355,24.9148,泉州市,霞新路6号,颗粒物(PM10),60,69,34,38,20,2,,97,52,68,25,/,/,0.7,0.4
2026-01-04T2300,2626A,88.8873,29.2723,日喀则市,日喀则监测站,细颗粒物(PM2.5),54,54,29,38,12,73,,91,78,20,14,12,9,0.8,0.6
2026-01-04T2300,3726A,88.8775,29.2425,日喀则市,林业技术推广中心,,28,26,25,19,9,65,,88,83,8,5,12,11,0.5,0.4
2026-01-04T2300,1659A,119.4711,35.421,日照市,监测站,细颗粒物(PM2.5),209,195,150,159,111,37,,32,20,55,71,13,17,1.4,1.4
2026-01-04T2300,1660A,119.523,35.4216,日照市,市政府广场,细颗粒物(PM2.5),205,185,124,155,100,42,,56,47,52,56,15,14,1.1,0.8
2026-01-04T2300,1661A,119.5511,35.4113,日照市,港务局,细颗粒物(PM2.5),212,195,136,162,105,47,,61,51,51,58,14,12,1.3,0.9
2026-01-04T2300,3507A,119.5326,35.4627,日照市,职业技术学院,细颗粒物(PM2.5),178,183,124,134,88,48,,70,60,50,53,12,13,1.4,1.2
2026-01-04T2300,3604A,119.3267,35.1043,日照市,岚山环保分局,细颗粒物(PM2.5),234,237,173,184,136,11,,44,22,84,61,62,39,2.0,1.6
2026-01-04T2300,1835A,111.1922,34.7752,三门峡市,市政府,细颗粒物(PM2.5),93,81,89,69,98,6,,66,51,63,29,9,7,1.0,0.9
2026-01-04T2300,1836A,111.1588,34.794,三门峡市,开发区,细颗粒物(PM2.5),84,84,115,62,97,27,,61,55,45,24,5,5,0.8,0.8
2026-01-04T2300,3039A,111.1911,34.7829,三门峡市,三门峡市第一小学,细颗粒物(PM2.5),84,80,92,62,93,34,,64,58,36,25,8,8,1.0,0.9
2026-01-04T2300,3598A,111.1031,34.719,三门峡市,富达温泉假日酒店,细颗粒物(PM2.5),75,64,91,55,89,48,,71,66,24,32,12,13,1.0,0.9
2026-01-04T2300,2324A,117.621,26.2626,三明市,三钢,,40,34,36,28,28,15,,67,32,44,32,6,11,1.2,1.4
2026-01-04T2300,2325A,117.6352,26.2714,三明市,三明二中,,39,28,32,27,23,17,,65,37,39,27,9,13,1.2,1.1
2026-01-04T2300,2326A,117.6028,26.2377,三明市,三元区政府,,39,39,38,24,25,17,,66,30,41,31,6,7,0.7,0.9
2026-01-04T2300,1877A,109.4962,18.2682,三亚市,河西子站,,42,42,37,18,16,81,,97,91,8,7,4,4,0.5,0.5
2026-01-04T2300,3540A,109.7348,18.3443,三亚市,君悦子站,,49,49,42,18,16,78,,94,87,8,8,5,5,0.5,0.5
2026-01-04T2300,4135A,109.1714,18.3739,三亚市,城东小学站,颗粒物(PM10),56,62,35,24,16,46,,96,80,17,8,/,/,/,/
2026-01-04T2300,2624A,91.7592,29.234,山南市,山南监测站,,48,48,23,17,10,63,,84,78,17,8,4,4,0.5,0.3
2026-01-04T2300,2625A,91.7701,29.2436,山南市,山南人民医院,,25,20,18,9,7,78,,83,81,6,7,3,2,0.3,0.3
2026-01-04T2300,1674A,116.6795,23.3666,汕头市,金平子站,,38,30,47,26,30,85,,122,109,24,24,4,10,0.7,0.8
2026-01-04T2300,1675A,116.7248,23.3632,汕头市,龙湖子站,,33,30,41,23,22,90,,110,103,18,19,9,12,/,/
2026-01-04T2300,1676A,116.7257,23.2774,汕头市,濠江子站,,42,,38,29,26,92,,105,102,16,19,7,9,/,/
2026-01-04T2300,1677A,116.7518,23.4712,汕头市,澄海子站,,50,47,49,35,31,85,,116,106,22,21,6,9,0.8,0.7
2026-01-04T2300,1678A,116.6088,23.2539,汕头市,潮阳子站,颗粒物(PM10),54,58,44,33,24,54,,120,104,39,22,7,9,0.9,0.6
2026-01-04T2300,3444A,116.4539,23.2684,汕头市,潮南峡山,,48,48,48,29,29,58,,111,94,25,19,8,11,0.7,0.6
2026-01-04T2300,3624A,116.4069,23.2533,汕头市,潮南子站,颗粒物(PM10),68,85,62,42,34,49,,107,91,37,21,7,9,/,/
2026-01-04T2300,1693A,115.3653,22.7751,汕尾市,市环保局,,46,41,39,32,25,84,,98,86,21,16,7,7,0.6,0.5
2026-01-04T2300,1695A,115.362,22.7926,汕尾市,新城中学,,50,43,42,35,25,78,,91,82,17,16,5,5,0.5,0.4
2026-01-04T2300,2645A,109.9155,33.8714,商洛市,监测站,细颗粒物(PM2.5),54,50,44,38,38,68,,84,79,33,19,6,5,0.6,0.5
2026-01-04T2300,3045A,109.9647,33.8486,商洛市,商州区中学,细颗粒物(PM2.5),64,57,45,46,42,58,,87,80,31,14,8,6,0.9,0.7
2026-01-04T2300,2408A,115.6701,34.4283,商丘市,环境监测站,细颗粒物(PM2.5),118,90,72,89,69,22,,54,40,34,20,2,2,0.5,0.4
2026-01-04T2300,2409A,115.6458,34.4047,商丘市,粮食局,细颗粒物(PM2.5),119,96,69,90,71,25,,48,38,30,21,3,4,1.0,0.6
2026-01-04T2300,3171A,115.6069,34.4465,商丘市,梁园区档案局,细颗粒物(PM2.5),103,,65,77,68,16,,44,30,35,22,4,3,0.7,0.6
2026-01-04T2300,4119A,115.6701,34.3767,商丘市,北海东路185号,细颗粒物(PM2.5),118,101,90,89,71,22,,49,40,32,28,1,2,0.6,0.5
2026-01-04T2300,4120A,115.6172,34.3704,商丘市,中山大街3号,细颗粒物(PM2.5),107,99,97,80,76,21,,49,32,37,29,3,3,0.4,0.4
2026-01-04T2300,1141A,121.401,31.2382,上海市,普陀,细颗粒物(PM2.5),74,81,63,54,45,9,,45,21,71,66,6,7,0.6,0.7
2026-01-04T2300,1142A,121.4774,31.2043,上海市,十五厂,细颗粒物(PM2.5),70,81,61,51,41,10,,46,22,66,68,6,8,0.7,0.8
2026-01-04T2300,1143A,121.4673,31.3011,上海市,虹口,,,87,73,51,42,,,34,13,51,62,7,11,0.8,0.5
2026-01-04T2300,1147A,121.4253,31.226,上海市,静安监测站,细颗粒物(PM2.5),75,81,60,55,43,9,,52,26,71,59,6,8,0.6,0.6
2026-01-04T2300,1148A,121.7029,31.1905,上海市,浦东川沙,细颗粒物(PM2.5),70,79,58,51,33,15,,60,31,51,53,7,8,0.6,0.6
2026-01-04T2300,1149A,121.5339,31.229,上海市,浦东新区监测站,细颗粒物(PM2.5),78,86,56,57,37,14,,55,23,61,60,6,7,0.8,0.7
2026-01-04T2300,1150A,121.5776,31.2038,上海市,浦东张江,细颗粒物(PM2.5),77,84,58,56,36,14,,60,28,54,55,6,7,0.7,0.7
2026-01-04T2300,3265A,121.4242,31.3303,上海市,宝山庙行,细颗粒物(PM2.5),82,88,74,60,47,11,,34,16,62,73,6,7,0.6,0.7
2026-01-04T2300,3266A,121.8789,31.4662,上海市,崇明上实东滩,细颗粒物(PM2.5),69,63,38,50,28,38,,53,37,23,29,4,5,0.7,0.3
2026-01-04T2300,3268A,121.316,31.2839,上海市,嘉定南翔,细颗粒物(PM2.5),74,78,68,54,48,13,,30,20,56,69,4,5,0.6,0.7
2026-01-04T2300,3269A,121.3357,30.7455,上海市,金山新城,细颗粒物(PM2.5),108,,49,81,47,1,,69,19,86,47,6,9,1.0,0.9
