timepoint,stationcode,longitude,latitude,area,positionname,primarypollutant,aqi,pm10,pm10_24h,pm2_5,pm2_5_24h,o3,o3_24h,o3_8h,o3_8h_24h,no2,no2_24h,so2,so2_24h,co,co_24h
2026-01-04T1300,2568A,102.2503,31.8896,阿坝藏族羌族自治州,马师校,,18,14,26,12,17,57,,62,47,15,18,4,4,0.6,0.6
2026-01-04T1300,3994A,102.2174,31.9016,阿坝藏族羌族自治州,马尔康中学西区,,22,20,18,13,11,70,,63,60,8,13,6,6,0.5,0.6
2026-01-04T1300,2695A,80.2899,41.1684,阿克苏地区,电视台,颗粒物(PM10),69,87,68,47,43,13,,19,16,36,30,5,5,0.9,0.7
2026-01-04T1300,2696A,80.2592,41.1541,阿克苏地区,艺术中心,细颗粒物(PM2.5),59,53,59,42,46,23,,28,21,26,21,3,4,0.7,0.6
2026-01-04T1300,2205A,105.699,38.8409,阿拉善盟,蒙二幼,,28,24,46,19,36,85,,63,61,12,20,10,10,0.5,0.7
2026-01-04T1300,2206A,105.7198,38.8508,阿拉善盟,环保局新楼,,25,24,37,17,31,78,,72,66,11,14,9,10,0.6,0.7
2026-01-04T1300,2708A,88.1266,47.8515,阿勒泰地区,市站,,20,8,13,3,5,64,,70,61,29,32,3,8,0.3,0.4
2026-01-04T1300,4166A,88.1198,47.7931,阿勒泰地区,阿勒泰路33号,,20,14,15,3,4,61,,78,66,31,27,18,7,0.4,0.4
2026-01-04T1300,2630A,80.1171,32.4999,阿里地区,阿里监测站,,23,6,2,3,2,71,,62,62,4,9,6,10,0.4,0.5
2026-01-04T1300,3192A,80.0906,32.5029,阿里地区,阿里藏医院,,26,19,12,18,6,72,,62,55,8,7,12,12,0.6,0.5
2026-01-04T1300,2644A,109.0088,32.6974,安康市,汉滨区检察院,细颗粒物(PM2.5),64,52,55,46,53,38,,16,16,17,25,6,8,0.7,0.8
2026-01-04T1300,4054A,109.0324,32.6913,安康市,市邮政管理局,细颗粒物(PM2.5),67,56,61,48,54,34,,13,13,17,26,6,6,0.8,0.8
2026-01-04T1300,2291A,117.0806,30.5181,安庆市,环科院,细颗粒物(PM2.5),89,78,70,66,57,52,,34,29,18,26,6,7,0.6,0.6
2026-01-04T1300,2292A,117.0331,30.5118,安庆市,马山宾馆,细颗粒物(PM2.5),89,81,73,66,55,52,,34,29,22,28,6,7,0.7,0.6
2026-01-04T1300,2294A,116.9897,30.6146,安庆市,安庆大学,细颗粒物(PM2.5),99,87,70,74,58,41,,28,28,21,37,4,5,0.8,0.8
2026-01-04T1300,3173A,117.0598,30.5351,安庆市,市人大,细颗粒物(PM2.5),89,84,73,66,59,49,,31,28,25,34,8,9,0.6,0.6
2026-01-04T1300,3123A,105.9408,26.2431,安顺市,凤凰山,,18,,11,12,8,52,,38,38,12,13,13,12,0.9,0.9
2026-01-04T1300,3124A,105.9443,26.2567,安顺市,金钟山,,18,,10,12,8,53,,40,40,9,10,13,12,0.8,0.8
2026-01-04T1300,3125A,105.8983,26.248,安顺市,娄家坡,,16,16,17,11,13,48,,34,34,11,13,14,20,0.8,0.9
2026-01-04T1300,1819A,114.3552,36.1017,安阳市,红庙街,细颗粒物(PM2.5),226,,130,176,127,24,,13,13,44,40,5,4,1.6,1.1
2026-01-04T1300,1820A,114.361,36.0681,安阳市,银杏小区,细颗粒物(PM2.5),228,,129,178,138,26,,14,14,38,38,4,4,1.4,0.9
2026-01-04T1300,3141A,114.3921,36.0879,安阳市,信访局,细颗粒物(PM2.5),224,,132,174,132,28,,17,17,40,35,3,3,1.4,1
2026-01-04T1300,3669A,114.4706,36.0634,安阳市,左辅环卫站,细颗粒物(PM2.5),209,174,148,159,134,32,,21,21,27,27,4,4,1.0,0.9
2026-01-04T1300,4117A,114.2918,36.0769,安阳市,钢三路198号,细颗粒物(PM2.5),256,229,175,206,147,24,,12,12,45,42,7,5,1.8,1.1
2026-01-04T1300,1748A,123.0441,41.1201,鞍山市,深沟寺,细颗粒物(PM2.5),92,86,66,68,48,49,,33,33,34,41,18,13,1.4,1.7
2026-01-04T1300,1749A,123.011,41.0931,鞍山市,太阳城,细颗粒物(PM2.5),92,89,69,68,48,40,,38,38,48,46,51,24,3.6,2.5
2026-01-04T1300,1750A,123.0483,41.1445,鞍山市,太平,细颗粒物(PM2.5),90,105,85,67,52,36,,22,22,43,49,28,17,1.4,1.6
2026-01-04T1300,1751A,122.964,41.0968,鞍山市,铁西三道街,细颗粒物(PM2.5),84,104,120,62,63,45,,24,24,41,56,28,23,2.1,2.7
2026-01-04T1300,1753A,123.0219,41.0822,鞍山市,明达新区,细颗粒物(PM2.5),94,96,74,70,51,42,,31,31,28,31,47,22,3.1,2.4
2026-01-04T1300,4201A,122.944647,41.082639,鞍山市,兴盛南路290号,颗粒物(PM10),88,126,153,55,78,41,,15,15,50,65,22,21,1.0,2.4
2026-01-04T1300,2195A,107.4206,40.7609,巴彦淖尔市,附二中,颗粒物(PM10),51,52,90,31,48,44,,21,21,21,40,7,12,0.5,0.7
2026-01-04T1300,2196A,107.37,40.7372,巴彦淖尔市,市环保大楼,,48,48,81,18,39,59,,24,24,16,43,7,10,0.5,0.8
2026-01-04T1300,1956A,86.1476,41.7529,巴音郭楞蒙古自治州,孔雀公园,颗粒物(PM10),70,89,129,27,29,30,,14,9,38,33,7,6,0.4,0.5
2026-01-04T1300,1957A,86.1971,41.7166,巴音郭楞蒙古自治州,棉纺厂,颗粒物(PM10),79,108,138,26,22,34,,22,13,30,30,/,/,/,/
2026-01-04T1300,1958A,86.236,41.7172,巴音郭楞蒙古自治州,经济开发区,颗粒物(PM10),61,72,98,16,19,32,,21,15,24,24,4,4,0.6,0.6
2026-01-04T1300,3181A,106.776805,31.852614,巴中市,市五中,细颗粒物(PM2.5),55,48,55,39,45,33,,13,13,16,17,5,5,0.9,0.9
2026-01-04T1300,3183A,106.7419,31.8654,巴中市,圣泉水务公司,细颗粒物(PM2.5),53,43,44,37,40,36,,15,15,16,22,5,5,0.7,0.7
2026-01-04T1300,3616A,106.7617,31.8343,巴中市,市中心医院,细颗粒物(PM2.5),57,47,47,40,41,34,,17,17,14,18,7,6,0.9,0.9
2026-01-04T1300,2235A,122.7909,45.608,白城市,洮北区环保局,,24,24,40,16,38,67,,46,46,11,29,3,5,0.2,0.5
2026-01-04T1300,2236A,122.8741,45.5725,白城市,市环保局,,35,27,35,24,31,62,,47,47,8,30,5,7,0.5,0.5
2026-01-04T1300,2231A,126.4219,41.9172,白山市,喜丰,,,,82,,47,60,,25,25,,42,2,14,1.1,1.3
2026-01-04T1300,2232A,126.4082,41.9416,白山市,环保局,细颗粒物(PM2.5),75,74,74,55,54,52,,21,21,27,38,14,13,1.3,1.7
2026-01-04T1300,2647A,104.1727,36.5448,白银市,第三小学,细颗粒物(PM2.5),78,66,51,57,45,65,,46,37,21,20,16,4,0.8,0.8
2026-01-04T1300,2648A,104.1467,36.5482,白银市,动力公司,细颗粒物(PM2.5),68,49,47,49,45,72,,44,41,15,15,16,4,0.8,0.7
2026-01-04T1300,2512A,106.6102,23.901,百色市,市监测站,细颗粒物(PM2.5),75,63,50,55,34,16,,25,18,32,18,18,13,1.0,0.8
2026-01-04T1300,2513A,106.6524,23.8842,百色市,市中心血站,细颗粒物(PM2.5),94,,52,70,44,19,,26,19,38,23,12,12,1.0,0.8
2026-01-04T1300,4133A,106.6273,23.8798,百色市,龙景西路,细颗粒物(PM2.5),122,99,66,92,60,10,,19,8,28,17,15,15,0.8,0.7
2026-01-04T1300,2270A,117.396,32.9389,蚌埠市,工人疗养院,细颗粒物(PM2.5),75,79,87,55,57,46,,13,13,38,39,9,7,0.8,0.6
2026-01-04T1300,2271A,117.3606,32.9428,蚌埠市,百货大楼,细颗粒物(PM2.5),95,112,67,71,52,18,,10,10,60,47,8,6,1.1,0.6
2026-01-04T1300,2273A,117.4183,32.8909,蚌埠市,蚌埠学院,细颗粒物(PM2.5),59,46,63,42,51,62,,23,23,25,34,7,4,0.7,0.5
2026-01-04T1300,2274A,117.3534,32.9672,蚌埠市,淮上区政府,细颗粒物(PM2.5),95,90,79,71,60,28,,8,8,56,48,6,4,0.8,0.7
2026-01-04T1300,2275A,117.3143,32.8977,蚌埠市,高新区,细颗粒物(PM2.5),78,68,68,57,55,46,,25,22,37,35,11,8,0.7,0.5
2026-01-04T1300,3715A,117.3091,32.9314,蚌埠市,蚌埠田家炳中学,细颗粒物(PM2.5),94,106,79,70,58,25,,20,14,56,43,10,10,0.8,0.6
2026-01-04T1300,1585A,109.8761,40.6533,包头市,市环境监测站,,35,35,151,15,86,70,,56,56,10,52,7,31,0.2,2.3
2026-01-04T1300,1587A,109.9992,40.5843,包头市,包头八中,,23,23,113,10,68,72,,52,52,12,49,2,18,0.3,1.5
2026-01-04T1300,1589A,109.8641,40.6288,包头市,惠龙物流,,33,33,118,7,65,72,,59,59,10,44,10,31,0.3,1.8
2026-01-04T1300,1590A,110.0376,40.5546,包头市,东河鸿龙湾,,38,38,88,3,52,72,,48,48,14,61,9,18,0.4,1.4
2026-01-04T1300,3283A,109.9154,40.5684,包头市,滨河大厦,,30,30,78,8,49,69,,57,57,3,35,4,14,0.5,1.3
2026-01-04T1300,3419A,109.9449,40.6259,包头市,包头市委党校,,30,30,113,10,67,67,,52,52,12,48,11,26,0.4,1.9
2026-01-04T1300,3683A,109.8332,40.6577,包头市,昆区政府,,39,39,139,10,64,69,,55,55,12,50,8,37,0.5,2.3
2026-01-04T1300,1931A,107.0802,34.3129,宝鸡市,竹园沟,细颗粒物(PM2.5),60,,43,43,48,58,,52,46,9,10,6,6,0.5,0.6
2026-01-04T1300,1933A,107.1429,34.3549,宝鸡市,监测站,细颗粒物(PM2.5),92,69,57,68,61,40,,43,30,25,22,5,4,0.9,0.8
2026-01-04T1300,1934A,107.1172,34.3759,宝鸡市,技工学校,细颗粒物(PM2.5),83,67,56,61,64,44,,40,33,14,15,6,4,0.8,0.8
2026-01-04T1300,1936A,107.2025,34.3518,宝鸡市,文理学院,细颗粒物(PM2.5),87,,58,64,62,44,,46,34,20,22,5,4,0.6,0.6
2026-01-04T1300,1937A,107.2396,34.3626,宝鸡市,三迪小学,细颗粒物(PM2.5),90,69,56,67,67,44,,42,32,23,24,4,3,0.8,0.8
2026-01-04T1300,4155A,107.1721,34.3558,宝鸡市,滨河北路,细颗粒物(PM2.5),80,70,61,59,55,46,,51,40,24,22,6,6,0.8,0.8
2026-01-04T1300,4308A,107.3898,34.3601,宝鸡市,陈仓区北开路21号,细颗粒物(PM2.5),94,71,67,70,71,60,,66,61,21,24,28,25,0.8,0.7
2026-01-04T1300,1051A,115.4803,38.8568,保定市,游泳馆,细颗粒物(PM2.5),92,88,158,68,135,20,,11,11,64,78,10,12,1.2,1.6
2026-01-04T1300,1052A,115.509,38.8895,保定市,华电二区,细颗粒物(PM2.5),89,82,141,66,131,15,,7,7,49,61,6,7,1.3,1.8
2026-01-04T1300,1053A,115.4588,38.9037,保定市,接待中心,细颗粒物(PM2.5),88,84,150,65,122,17,,8,8,54,63,4,5,0.8,1.3
2026-01-04T1300,1054A,115.4484,38.8344,保定市,地表水厂,细颗粒物(PM2.5),92,99,179,68,135,25,,16,16,63,74,6,8,1.0,1.5
2026-01-04T1300,3581A,115.3136,38.9511,保定市,满城区生态环境分局,,,97,181,61,133,28,,1,,52,76,,10,0.9,1.7
2026-01-04T1300,3582A,115.4709,38.7628,保定市,清苑区第二中学,细颗粒物(PM2.5),92,125,219,68,147,18,,9,9,67,78,7,11,1.0,1.6
2026-01-04T1300,3583A,115.6231,39.0223,保定市,徐水物探局,细颗粒物(PM2.5),90,110,198,67,134,18,,7,7,55,73,9,12,0.9,1.5
2026-01-04T1300,4004A,115.4199,38.8665,保定市,双鹰农机,颗粒物(PM10),83,116,195,58,118,26,,17,17,57,63,10,11,0.9,1.4
2026-01-04T1300,4034A,115.515,38.8589,保定市,植保所站,细颗粒物(PM2.5),85,86,160,63,146,10,,4,4,73,91,3,7,1.0,1.5
2026-01-04T1300,2594A,99.1589,25.1137,保山市,市环境监测站,,40,36,18,28,17,72,,26,26,11,9,4,8,0.4,0.5
2026-01-04T1300,2595A,99.1616,25.1381,保山市,市环保局,,46,44,19,32,15,76,,32,32,10,6,4,4,0.5,0.4
2026-01-04T1300,1867A,109.1435,21.4085,北海市,海滩公园,细颗粒物(PM2.5),53,46,38,37,22,117,,88,88,15,15,10,10,0.4,0.4
2026-01-04T1300,1868A,109.0983,21.466,北海市,新市环保局,,46,46,41,29,27,114,,84,84,13,18,5,6,0.6,0.7
2026-01-04T1300,1869A,109.1775,21.5232,北海市,北海工业园,颗粒物(PM10),51,52,51,27,32,103,,66,66,13,18,8,12,0.7,0.7
2026-01-04T1300,3400A,109.1844,21.4396,北海市,龙潭自来水厂,,46,46,40,21,28,113,,79,79,12,15,10,8,0.6,0.6
2026-01-04T1300,1001A,116.3611,39.8786,北京市,万寿西宫,,30,30,75,14,45,42,,18,18,27,63,2,4,0.4,0.7
2026-01-04T1300,1003A,116.4174,39.9289,北京市,东四,,27,27,69,13,39,46,,17,17,25,50,2,4,0.6,1
2026-01-04T1300,1004A,116.4073,39.8858,北京市,天坛,,,28,65,14,41,40,,14,14,31,54,3,3,,0.8
2026-01-04T1300,1005A,116.4622,39.9364,北京市,农展馆,,30,30,67,14,39,39,,12,12,27,49,4,5,0.6,0.9
2026-01-04T1300,1006A,116.3399,39.9293,北京市,官园,,27,27,77,14,47,43,,16,16,23,56,4,6,0.5,0.8
2026-01-04T1300,1007A,116.2879,39.9613,北京市,海淀万柳,,31,31,71,15,40,36,,10,10,28,59,3,4,0.7,0.9
2026-01-04T1300,1008A,116.6635,40.1349,北京市,顺义新城,,32,32,64,14,34,52,,18,18,14,45,5,5,0.5,0.7
2026-01-04T1300,1009A,116.6275,40.327,北京市,怀柔镇,,18,17,40,8,23,55,,24,24,9,30,6,6,0.4,0.6
2026-01-04T1300,1010A,116.2295,40.217,北京市,昌平镇,颗粒物(PM10),62,73,56,40,30,17,,5,5,50,45,7,5,0.8,0.8
2026-01-04T1300,1011A,116.3968,39.982,北京市,奥体中心,,26,26,64,14,39,38,,15,15,34,65,4,6,0.5,0.9
2026-01-04T1300,3418A,116.8336,40.4095,北京市,密云新城,,20,10,42,3,23,62,,45,45,9,29,3,3,0.4,0.5
2026-01-04T1300,3671A,116.0879,39.9725,北京市,门头沟三家店,颗粒物(PM10),63,75,69,37,34,21,,14,14,44,41,5,4,0.8,0.7
2026-01-04T1300,3672A,116.1507,39.8246,北京市,丰台云岗,,,77,85,35,47,28,,10,10,44,58,,4,0.8,0.7
2026-01-04T1300,3674A,115.9578,39.7602,北京市,房山燕山,颗粒物(PM10),69,88,73,46,43,18,,11,11,49,38,6,5,0.6,0.6
2026-01-04T1300,3675A,116.4669,39.7734,北京市,大兴旧宫,细颗粒物(PM2.5),82,104,86,60,43,18,,8,8,60,57,9,4,1.2,1
2026-01-04T1300,3694A,115.9859,40.4562,北京市,延庆石河营,,47,47,60,29,37,36,,12,12,27,35,6,4,0.7,1.1
2026-01-04T1300,3695A,116.6151,40.3052,北京市,怀柔新城,,19,19,39,10,24,48,,25,25,13,23,4,4,0.2,0.4
2026-01-04T1300,3696A,116.2542,39.8764,北京市,丰台小屯,,38,38,96,19,49,36,,10,10,27,66,4,5,0.6,1
2026-01-04T1300,3697A,116.8399,40.3843,北京市,密云镇,,20,11,49,3,29,63,,27,27,5,38,2,2,0.3,0.6
2026-01-04T1300,4057A,115.9423,40.4431,北京市,延庆百泉,颗粒物(PM10),54,57,58,35,40,34,,8,8,28,38,6,3,0.7,0.9
2026-01-04T1300,4058A,116.6598,39.9164,北京市,通州新华,细颗粒物(PM2.5),97,124,97,72,51,15,,5,5,69,67,9,5,1.3,0.9
2026-01-04T1300,4182A,116.1942,39.9158,北京市,石景山八角,颗粒物(PM10),51,52,85,27,45,33,,11,11,32,60,3,4,0.4,0.7
2026-01-04T1300,4194A,117.078628,40.151726,北京市,平谷新城,细颗粒物(PM2.5),69,79,86,50,59,26,,10,10,48,49,4,3,0.9,0.9
2026-01-04T1300,1761A,123.8274146,41.31234549,本溪市,大峪,细颗粒物(PM2.5),109,129,91,82,55,36,,15,15,54,44,35,16,5.3,2.3
2026-01-04T1300,1763A,123.7169,41.3094,本溪市,彩屯,细颗粒物(PM2.5),98,108,123,73,89,47,,12,12,40,50,20,14,3.0,3
2026-01-04T1300,1764A,123.7672166,41.28649327,本溪市,东明,颗粒物(PM10),89,128,94,51,61,39,,13,13,44,49,39,15,4.2,2.8
2026-01-04T1300,1765A,123.799345,41.266614,本溪市,新立屯,颗粒物(PM10),94,137,59,53,40,43,,16,16,41,46,40,17,4.7,2.9
2026-01-04T1300,1766A,123.829144,41.336777,本溪市,威宁,细颗粒物(PM2.5),122,169,119,92,71,30,,16,16,53,49,22,11,3.9,2.1
2026-01-04T1300,2587A,105.287,27.3133,毕节市,八中,,9,9,12,3,8,28,,33,28,9,11,9,9,0.8,0.8
2026-01-04T1300,2588A,105.3079,27.2987,毕节市,师专,,12,12,10,6,6,30,,33,29,9,11,8,7,0.9,0.8
2026-01-04T1300,4263A,105.3688,27.3598,毕节市,工业大道,,12,10,10,8,9,26,,27,25,6,8,9,9,/,/
2026-01-04T1300,1629A,117.9961,37.3604,滨州市,第二水厂,细颗粒物(PM2.5),138,158,171,105,111,46,,13,13,54,63,21,16,1.4,1.3
2026-01-04T1300,1630A,117.9789,37.3931,滨州市,北中新校,细颗粒物(PM2.5),147,139,164,112,131,62,,20,20,35,55,15,12,1.1,1.3
2026-01-04T1300,3514A,117.9379,37.3959,滨州市,中海酒店,细颗粒物(PM2.5),168,141,158,127,135,70,,32,32,30,55,19,12,1.1,1.4
2026-01-04T1300,3515A,117.9381509,37.35547456,滨州市,开发区一中,细颗粒物(PM2.5),185,166,163,139,138,49,,16,16,49,50,29,18,1.3,1.2
2026-01-04T1300,3516A,118.0914,37.6938,滨州市,金海六路,细颗粒物(PM2.5),188,173,187,141,148,54,,19,19,50,69,24,18,1.2,1.5
2026-01-04T1300,4028A,117.9955,37.3752,滨州市,滨州市西街道办事处,细颗粒物(PM2.5),156,136,176,119,146,65,,19,19,29,53,19,14,1.2,1.5
2026-01-04T1300,2311A,115.8071,33.8399,亳州市,污水处理厂,细颗粒物(PM2.5),52,47,71,36,58,74,,28,28,13,34,4,5,0.3,0.5
2026-01-04T1300,2312A,115.7789,33.8519,亳州市,三国揽胜宫,颗粒物(PM10),56,62,75,37,52,65,,32,30,13,23,4,4,0.4,0.5
2026-01-04T1300,3332A,115.7631,33.803,亳州市,亳州学院,细颗粒物(PM2.5),52,42,66,36,56,74,,41,37,11,23,3,3,0.3,0.4
2026-01-04T1300,2693A,82.0482,44.8553,博尔塔拉蒙古自治州,市党校,颗粒物(PM10),84,118,97,58,51,25,,35,24,26,26,3,3,1.2,1.1
2026-01-04T1300,2694A,82.0805,44.8966,博尔塔拉蒙古自治州,市环保局,颗粒物(PM10),81,112,109,55,51,36,,24,23,22,32,7,8,1.0,1
2026-01-04T1300,1071A,116.8733,38.2922,沧州市,沧县城建局,细颗粒物(PM2.5),233,,181,183,170,40,,16,16,43,59,5,5,1.1,1.4
2026-01-04T1300,1072A,116.8462,38.3189,沧州市,电视转播站,细颗粒物(PM2.5),216,174,176,166,154,41,,12,12,33,51,8,9,0.9,1.1
2026-01-04T1300,1073A,116.8588,38.3161,沧州市,市环保局,细颗粒物(PM2.5),219,189,176,169,158,27,,12,12,35,49,6,7,0.9,1.1
2026-01-04T1300,3324A,116.8011,38.294,沧州市,河北水利电力学院,细颗粒物(PM2.5),176,190,188,133,137,46,,14,14,29,56,12,11,0.9,1.2
2026-01-04T1300,2622A,97.1813,31.1289,昌都市,昌都监测站,,23,21,26,11,9,71,,60,60,9,8,2,1,0.4,0.3
2026-01-04T1300,3719A,97.1707,31.1428,昌都市,昌都会议中心,,21,15,12,8,7,67,,62,56,2,2,3,2,0.5,0.4
2026-01-04T1300,2692A,87.2722,44.0298,昌吉回族自治州,新区政务中心,细颗粒物(PM2.5),88,120,120,65,76,30,,8,8,46,55,7,7,1.3,1.3
2026-01-04T1300,3613A,87.3069,44.0093,昌吉回族自治州,亚心广场,细颗粒物(PM2.5),128,141,141,97,91,33,,12,12,41,53,9,7,1.5,1.5
2026-01-04T1300,4164A,87.2057,43.9289,昌吉回族自治州,财政所,细颗粒物(PM2.5),134,128,84,102,53,30,,60,48,56,23,7,5,1.1,0.7
2026-01-04T1300,1120A,125.2874,43.9024,长春市,客车厂,细颗粒物(PM2.5),78,76,100,57,106,60,,29,29,21,53,8,15,0.6,1.1
2026-01-04T1300,1121A,125.2943,43.8508,长春市,邮电学院,细颗粒物(PM2.5),110,104,117,83,92,57,,26,26,24,50,11,16,0.8,1.2
2026-01-04T1300,1122A,125.3648,43.8745,长春市,劳动公园,细颗粒物(PM2.5),82,109,117,60,86,54,,22,22,26,53,9,9,0.9,1.4
2026-01-04T1300,1123A,125.3233,43.8781,长春市,园林处,细颗粒物(PM2.5),100,110,103,75,88,51,,27,27,23,45,12,11,0.7,1
2026-01-04T1300,1124A,125.4604,43.7904,长春市,净月潭,细颗粒物(PM2.5),90,95,114,67,83,47,,28,28,33,39,9,8,0.8,1.2
2026-01-04T1300,1126A,125.38,43.8422,长春市,经开区环卫处,细颗粒物(PM2.5),84,106,133,62,91,55,,18,18,29,56,11,9,0.8,1.3
2026-01-04T1300,1127A,125.234,43.7761,长春市,高新区管委会,细颗粒物(PM2.5),138,120,132,105,123,55,,24,24,29,52,10,9,1.0,1.6
2026-01-04T1300,1128A,125.1695,43.83,长春市,岱山公园,细颗粒物(PM2.5),114,119,115,86,104,58,,26,26,25,52,9,12,0.7,1.3
2026-01-04T1300,4281A,125.334645,43.916281,长春市,北亚泰大街1068号,细颗粒物(PM2.5),98,116,101,73,91,52,,23,23,26,53,23,17,0.8,1.1
2026-01-04T1300,1335A,113.082,28.2421,长沙市,经开区环保局,细颗粒物(PM2.5),54,42,51,38,45,15,,14,14,29,23,3,3,0.5,0.5
2026-01-04T1300,1336A,112.8873,28.2202,长沙市,高开区环保局,细颗粒物(PM2.5),52,42,56,36,51,20,,17,17,18,22,4,4,0.7,0.7
2026-01-04T1300,1337A,113.0785,28.2012,长沙市,马坡岭,细颗粒物(PM2.5),58,46,51,41,45,21,,16,13,28,27,4,4,0.8,0.8
2026-01-04T1300,1338A,112.9448,28.1894,长沙市,湖南师范大学,,45,42,52,31,40,32,,21,21,20,27,4,4,0.6,0.6
2026-01-04T1300,1339A,113.0177,28.1322,长沙市,雨花区环保局,,,,49,,41,,,44,,,25,,7,,0.5
2026-01-04T1300,1340A,112.9795,28.2593,长沙市,伍家岭,,48,47,58,33,43,22,,16,16,23,20,4,4,0.5,0.5
2026-01-04T1300,1341A,113.002,28.1944,长沙市,火车新站,细颗粒物(PM2.5),55,57,58,39,45,23,,21,19,25,23,7,7,0.6,0.5
2026-01-04T1300,1342A,112.9846,28.1177,长沙市,天心区环保局,细颗粒物(PM2.5),54,42,49,38,41,28,,18,17,24,30,4,4,0.6,0.6
2026-01-04T1300,1343A,112.8906,28.1307,长沙市,湖南中医药大学,,43,37,52,30,46,27,,19,19,21,27,5,5,0.6,0.6
2026-01-04T1300,1727A,113.1146,36.1547,长治市,清华站,细颗粒物(PM2.5),132,,82,100,76,44,,39,39,28,48,19,19,1.3,1.1
2026-01-04T1300,1730A,113.0887,36.2126,长治市,审计局,细颗粒物(PM2.5),122,,78,92,74,48,,39,39,20,46,15,19,1.3,1
2026-01-04T1300,1731A,113.0845,36.1856,长治市,长治八中,细颗粒物(PM2.5),118,92,101,89,87,44,,37,37,19,40,15,19,1.5,1.2
2026-01-04T1300,2845A,113.1561,36.1912,长治市,德盛苑,细颗粒物(PM2.5),125,,64,95,63,47,,40,40,21,33,14,15,1.2,1
2026-01-04T1300,3568A,113.0603,36.0464,长治市,向阳小学,细颗粒物(PM2.5),132,116,102,100,77,55,,41,41,24,46,18,22,1.5,1.3
2026-01-04T1300,3569A,112.8788,36.315,长治市,屯留一中,细颗粒物(PM2.5),130,,77,99,75,49,,53,43,28,37,11,16,1.4,0.9
2026-01-04T1300,4189A,113.113092,36.199482,长治市,英华南巷50号,细颗粒物(PM2.5),117,90,92,88,80,46,,43,43,19,42,12,15,1.3,1.1
2026-01-04T1300,4190A,113.23666,36.33435,长治市,学府街1号,细颗粒物(PM2.5),134,,76,102,75,45,,33,33,24,48,11,18,1.9,1.4
2026-01-04T1300,1854A,111.696,28.9725,常德市,市二中,细颗粒物(PM2.5),62,,60,44,57,27,,29,29,19,20,4,4,0.8,0.6
2026-01-04T1300,3138A,111.7152,29.0288,常德市,武陵区永安,细颗粒物(PM2.5),63,,66,45,54,24,,34,31,23,17,3,3,0.8,0.7
2026-01-04T1300,3139A,111.6891,28.9881,常德市,鼎城区玉霞,细颗粒物(PM2.5),62,,58,44,56,25,,30,29,23,20,7,7,0.9,0.7
2026-01-04T1300,3140A,111.6651,29.0526,常德市,武陵区长庚,细颗粒物(PM2.5),58,43,64,41,58,30,,32,29,19,19,2,3,0.8,0.7
2026-01-04T1300,1196A,119.9524,31.7586,常州市,市监测站,细颗粒物(PM2.5),117,115,105,88,72,22,,10,10,82,71,7,5,1.1,1
2026-01-04T1300,1200A,119.9351,31.703,常州市,武进监测站,细颗粒物(PM2.5),109,102,90,82,70,24,,12,12,76,60,10,9,0.7,0.9
2026-01-04T1300,3002A,119.9701,31.813,常州市,行政中心,细颗粒物(PM2.5),98,104,87,73,63,28,,16,16,71,61,9,8,1.1,0.8
2026-01-04T1300,3003A,120.0434,31.7726,常州市,经开区,细颗粒物(PM2.5),113,121,116,85,72,24,,14,14,73,61,13,10,1.4,1.2
2026-01-04T1300,3010A,119.8919,31.7892,常州市,钟楼,细颗粒物(PM2.5),109,101,82,82,63,32,,17,17,66,58,10,9,0.9,0.9
2026-01-04T1300,3429A,119.8595,31.706,常州市,武进经发区,细颗粒物(PM2.5),109,110,90,82,71,25,,,,74,63,13,11,0.8,0.9
2026-01-04T1300,3430A,119.5812,31.7256,常州市,金坛城区,细颗粒物(PM2.5),127,116,90,96,75,14,,16,12,67,43,11,10,1.1,0.9
2026-01-04T1300,4089A,119.9551,31.863,常州市,崇义南街5-H号,细颗粒物(PM2.5),103,95,85,77,68,32,,13,13,71,67,9,7,1.0,0.9
2026-01-04T1300,2220A,120.4318,41.588,朝阳市,西梁,颗粒物(PM10),81,112,140,39,84,45,,11,11,35,48,14,19,1.1,1.9
2026-01-04T1300,2221A,120.452,41.565,朝阳市,河畔小区,颗粒物(PM10),78,105,94,45,71,51,,15,15,25,41,15,15,1.2,1.6
2026-01-04T1300,2222A,120.4176,41.5648,朝阳市,八里堡,颗粒物(PM10),59,68,110,32,75,51,,14,14,26,48,14,19,1.0,1.9
2026-01-04T1300,3026A,116.6179,23.6608,潮州市,市政府,颗粒物(PM10),60,70,54,24,30,120,,61,61,14,16,10,8,0.5,0.4
2026-01-04T1300,4036A,116.646,23.676,潮州市,金山,颗粒物(PM10),59,67,48,25,33,105,,61,61,13,12,5,4,0.4,0.3
2026-01-04T1300,2473A,113.0116,25.8228,郴州市,市职中,细颗粒物(PM2.5),75,60,52,55,46,35,,14,14,10,16,7,5,0.6,0.5
2026-01-04T1300,2475A,113.0381,25.8074,郴州市,市审计局,细颗粒物(PM2.5),77,67,53,56,46,29,,16,16,16,18,9,4,/,/
2026-01-04T1300,2476A,113.0348,25.7757,郴州市,市环保局,细颗粒物(PM2.5),79,83,60,58,43,34,,16,16,21,25,12,5,0.7,0.6
2026-01-04T1300,4252A,113.0138,25.8011,郴州市,好美居路49号,细颗粒物(PM2.5),87,64,54,64,49,34,,18,18,15,20,9,5,/,/
2026-01-04T1300,1431A,103.9727,30.7242,成都市,金泉两河,,38,38,26,3,9,53,,14,14,22,30,2,2,0.7,0.7
2026-01-04T1300,1432A,104.1423,30.6765,成都市,十里店,,19,19,19,9,11,60,,21,21,20,29,4,3,0.6,0.6
2026-01-04T1300,1433A,104.0594,30.5765,成都市,三瓦窑,,32,24,24,22,15,57,,18,18,22,31,3,3,0.6,0.7
2026-01-04T1300,1434A,104.1122,30.6306,成都市,沙河铺,,46,38,28,32,20,54,,14,14,20,31,4,4,0.6,0.6
2026-01-04T1300,2880A,104.0219,30.6561,成都市,大石西路,,27,27,29,14,19,45,,17,17,26,29,5,4,0.6,0.6
2026-01-04T1300,3136A,104.2724,30.559,成都市,龙泉驿区区政府,,32,,12,22,11,40,,13,13,10,20,6,6,0.7,0.7
2026-01-04T1300,3357A,104.0028,30.6891,成都市,金博路,,19,,14,13,9,50,,18,18,26,31,6,4,0.8,0.8
2026-01-04T1300,3359A,104.056,30.5228,成都市,华阳,,35,34,19,24,17,59,,20,20,19,30,3,3,0.5,0.6
2026-01-04T1300,3488A,104.387954,30.746684,成都市,青石路225号,,33,33,22,17,15,59,,17,17,12,23,6,6,0.5,0.7
2026-01-04T1300,3489A,104.0788,30.4054,成都市,科学城,,50,42,19,35,16,62,,20,20,8,21,6,5,0.7,0.8
2026-01-04T1300,4011A,103.8505,30.6946,成都市,光华大道三段,,25,25,25,3,12,62,,22,22,19,26,5,3,0.7,0.7
2026-01-04T1300,4144A,104.3257,30.6406,成都市,八角井街185号,,46,,28,32,17,58,,20,20,12,24,4,4,0.9,1
2026-01-04T1300,4224A,104.2433276,30.53529463,成都市,鲸龙路1057号,,46,38,23,32,17,61,,19,19,17,26,6,5,0.4,0.4
2026-01-04T1300,1062A,117.9531,40.908,承德市,铁路,,46,46,70,8,39,36,,12,12,26,40,7,11,0.7,1.3
2026-01-04T1300,1063A,117.9397,40.9763,承德市,中国银行,颗粒物(PM10),54,58,76,13,38,46,,17,17,15,32,4,6,0.4,1.1
2026-01-04T1300,4073A,117.9462,40.95,承德市,杏林街1号,,50,50,67,17,43,41,,13,13,22,38,5,10,0.6,1.3
2026-01-04T1300,4274A,117.7994,40.9605,承德市,滨河大街98号,,20,6,69,3,30,61,,17,17,13,39,6,12,0.3,1.1
2026-01-04T1300,2314A,117.4698,30.6617,池州市,池州学院,细颗粒物(PM2.5),110,96,82,83,69,33,,38,26,38,33,8,6,0.8,0.7
2026-01-04T1300,3237A,117.4918,30.6617,池州市,展览馆,细颗粒物(PM2.5),97,94,74,72,58,29,,34,25,44,37,6,4,1.1,1
2026-01-04T1300,3333A,117.5626,30.695,池州市,第八中学,细颗粒物(PM2.5),105,98,79,79,64,28,,35,26,50,38,14,5,1.1,1
2026-01-04T1300,3334A,117.5037,30.6242,池州市,第十二中学,细颗粒物(PM2.5),95,85,74,71,59,40,,21,21,40,43,8,4,1.1,1.1
2026-01-04T1300,1744A,118.9229,42.2816,赤峰市,松山一中,颗粒物(PM10),52,54,96,12,54,68,,21,21,9,53,3,30,0.7,1.9
2026-01-04T1300,1745A,118.9588,42.2733,赤峰市,哈达街,颗粒物(PM10),60,70,90,36,53,69,,29,29,23,45,6,31,0.7,1.6
2026-01-04T1300,1746A,118.8792,42.2551,赤峰市,天义路,,23,23,73,10,62,70,,32,32,10,47,5,21,0.3,1.4
2026-01-04T1300,3058A,119.2656,42.0356,赤峰市,银河街,细颗粒物(PM2.5),70,79,148,51,98,59,,22,22,14,42,21,28,0.9,2.9
2026-01-04T1300,3286A,118.9359,42.3146,赤峰市,桥北物流园区,,29,29,71,15,56,75,,25,25,6,42,5,23,0.4,1.4
2026-01-04T1300,2521A,107.3473,22.4137,崇左市,市环保局江州分局,细颗粒物(PM2.5),77,90,56,56,38,34,,25,25,20,19,8,8,0.9,0.7
2026-01-04T1300,4256A,107.375,22.3736,崇左市,石景林东路7号,细颗粒物(PM2.5),87,79,46,64,41,36,,26,24,25,21,9,8,0.8,0.6
2026-01-04T1300,3207A,118.31131,32.3033,滁州市,市政府原办公楼,细颗粒物(PM2.5),84,71,74,62,57,63,,29,29,27,51,5,6,0.6,0.9
2026-01-04T1300,3331A,118.3268,32.2633,滁州市,图书馆,细颗粒物(PM2.5),79,76,69,58,60,64,,26,26,21,51,9,10,0.7,1
2026-01-04T1300,4101A,118.3196,32.3335,滁州市,银山路666号,细颗粒物(PM2.5),113,,71,85,71,49,,22,22,30,44,8,9,1.0,1.1
2026-01-04T1300,4102A,118.3426,32.2979,滁州市,黄山路555号,细颗粒物(PM2.5),103,,84,77,70,66,,29,29,24,52,10,12,0.8,1
2026-01-04T1300,2606A,101.5379,25.0492,楚雄彝族自治州,市经济开发区,,22,12,21,11,16,69,,24,24,4,17,4,4,0.4,0.6
2026-01-04T1300,4153A,101.5536,25.0343,楚雄彝族自治州,团结路562号,,22,14,16,3,13,68,,24,24,2,10,1,2,0.3,0.5
2026-01-04T1300,2549A,107.5087,31.2186,达州市,市环境监测站,细颗粒物(PM2.5),55,54,57,39,43,35,,12,12,25,30,5,5,0.4,0.5
2026-01-04T1300,2550A,107.4988,31.2132,达州市,凤凰小区,细颗粒物(PM2.5),58,56,63,41,48,37,,15,15,19,27,4,4,0.4,0.5
2026-01-04T1300,2551A,107.5081,31.1987,达州市,达县机关宾馆,细颗粒物(PM2.5),72,61,67,52,50,28,,9,9,24,33,3,2,0.5,0.6
2026-01-04T1300,2552A,107.4644,31.2124,达州市,市政中心,细颗粒物(PM2.5),62,67,68,44,45,43,,16,16,18,29,6,5,0.3,0.4
2026-01-04T1300,2614A,100.2168,25.5818,大理白族自治州,大理市环境监测站,,24,15,14,8,14,74,,57,55,5,8,6,6,0.5,0.5
2026-01-04T1300,2615A,100.1542,25.7055,大理白族自治州,大理古城,,27,12,17,10,11,85,,71,62,3,10,8,8,0.5,0.6
2026-01-04T1300,1109A,121.6119,38.974,大连市,甘井子,,40,40,46,25,27,65,,61,45,17,28,10,11,0.2,0.3
2026-01-04T1300,1110A,121.565,38.9509,大连市,周水子,,41,41,52,27,35,57,,28,28,21,50,12,12,0.6,0.7
2026-01-04T1300,1111A,121.5637,38.8849,大连市,星海三站,,36,33,39,25,26,63,,43,42,22,27,10,11,0.6,0.8
2026-01-04T1300,1112A,121.6301,38.9117,大连市,青泥洼桥,,45,45,42,28,33,49,,26,26,29,46,11,10,0.5,0.6
2026-01-04T1300,1113A,121.6248,38.8643,大连市,傅家庄,,38,34,38,26,24,48,,49,45,27,30,11,11,0.2,0.2
2026-01-04T1300,1114A,121.5117,38.8636,大连市,七贤岭,,30,30,37,21,20,62,,59,56,17,18,9,9,0.6,0.7
2026-01-04T1300,1116A,121.7507,39.1339,大连市,金州,,40,37,40,28,27,66,,78,70,21,21,12,10,0.4,0.4
2026-01-04T1300,1117A,121.7811,39.0495,大连市,开发区,,50,50,69,32,42,52,,24,24,21,48,7,7,0.7,1
2026-01-04T1300,1118A,121.9762,39.0631,大连市,双D港,,38,36,33,26,23,71,,76,74,15,16,15,14,0.6,0.6
2026-01-04T1300,4082A,121.2548,38.8188,大连市,旅顺,,40,40,65,20,50,65,,36,36,11,22,8,11,0.6,0.9
2026-01-04T1300,1789A,124.8085,46.0381,大庆市,大同区,,23,23,41,11,27,66,,53,53,7,22,6,6,0.2,0.4
2026-01-04T1300,1790A,125.1166,46.5255,大庆市,龙凤区,,35,35,36,14,21,60,,46,46,19,29,8,11,0.8,0.9
2026-01-04T1300,1791A,124.8894,46.4007,大庆市,红岗区,,25,17,29,17,20,59,,47,47,12,20,6,6,0.3,0.5
2026-01-04T1300,1792A,125.1391,46.578,大庆市,萨尔图区,,34,34,37,13,21,61,,44,44,9,23,8,8,0.3,0.4
2026-01-04T1300,1793A,124.9026,46.6217,大庆市,让胡路区,,22,20,30,15,27,70,,56,55,3,13,8,8,0.3,0.5
2026-01-04T1300,3481A,125.127,46.6277,大庆市,萨区政府监测点,,21,18,32,7,16,66,,47,47,7,25,8,9,0.5,0.7
2026-01-04T1300,1723A,113.2926,40.0759,大同市,云冈宾馆,,,,100,9,45,59,,34,34,8,52,4,17,0.4,1.9
2026-01-04T1300,1724A,113.3437,40.0921,大同市,大同大学,,32,32,64,3,33,61,,46,46,10,47,4,15,0.6,1.3
2026-01-04T1300,1725A,113.2637,40.129,大同市,安家小村,,21,20,85,6,41,67,,37,37,7,49,8,20,0.2,1.6
2026-01-04T1300,3282A,113.3399,40.0586,大同市,大同市卫生学校,,31,31,82,7,42,58,,43,43,13,52,4,16,0.2,1.3
2026-01-04T1300,3565A,113.1371,40.1122,大同市,云冈站,,37,37,74,12,35,59,,32,32,6,44,5,18,0.5,1.2
2026-01-04T1300,3566A,113.1186,40.2556,大同市,图书馆,,45,45,100,15,63,58,,35,35,11,43,9,17,0.6,1.9
2026-01-04T1300,3567A,113.5931,40.0459,大同市,区一中,颗粒物(PM10),58,66,103,10,54,61,,28,28,19,50,12,31,0.7,1.5
2026-01-04T1300,4199A,113.2798248,40.09972476,大同市,魏都大道141号,,35,35,113,9,46,60,,32,32,9,49,4,15,0.3,1.9
2026-01-04T1300,2269A,124.1068,50.4091,大兴安岭地区,科技局,,20,11,16,8,13,62,,59,58,1,2,4,4,0.3,0.3
2026-01-04T1300,3663A,124.117,50.4279,大兴安岭地区,红旗社区,,22,,6,3,4,69,,65,65,2,3,5,5,0.2,0.2
2026-01-04T1300,1600A,124.33,40.0625,丹东市,江湾东路,细颗粒物(PM2.5),67,66,90,48,73,52,,26,26,26,40,26,24,1.5,2.2
2026-01-04T1300,1601A,124.4242,40.1513,丹东市,临江后街,颗粒物(PM10),51,52,80,32,55,60,,26,26,13,39,13,16,1.0,1.6
2026-01-04T1300,1602A,124.3935,40.1461,丹东市,元宝山,细颗粒物(PM2.5),59,53,66,42,55,50,,21,21,25,37,15,15,1.1,1.4
2026-01-04T1300,1603A,124.3634,40.1093,丹东市,民主桥,颗粒物(PM10),58,65,80,39,56,50,,23,23,25,40,14,13,0.9,1.3
2026-01-04T1300,3541A,109.5726195,19.51688767,儋州市,第一中学子站,,29,29,37,18,20,77,,70,70,2,5,3,4,0.4,0.5
2026-01-04T1300,3542A,109.5567,19.5187,儋州市,东坡学校子站,,33,33,37,15,18,83,,73,73,1,5,4,4,0.4,0.5
2026-01-04T1300,2616A,98.5611,24.4273,德宏傣族景颇族自治州,德宏州监测站,细颗粒物(PM2.5),64,62,38,46,30,30,,9,9,17,17,10,6,0.7,0.7
2026-01-04T1300,3677A,98.5887,24.4366,德宏傣族景颇族自治州,芒市人民政府综合楼,细颗粒物(PM2.5),63,62,39,45,25,24,,8,8,17,14,11,9,0.8,0.7
2026-01-04T1300,1901A,104.424,31.1209,德阳市,东山公园,,29,29,19,17,16,44,,17,17,19,18,3,2,0.8,0.8
2026-01-04T1300,1902A,104.3827,31.1318,德阳市,西小区,,47,47,37,23,20,51,,17,17,19,25,2,2,0.9,0.9
2026-01-04T1300,1904A,104.3553,31.1091,德阳市,耐火材料厂,,36,35,28,25,22,49,,14,14,19,29,2,1,0.8,0.8
2026-01-04T1300,4145A,104.4144,31.1495,德阳市,市林业局,,50,49,28,35,19,42,,13,13,20,20,3,2,0.8,0.8
2026-01-04T1300,1622A,116.3034,37.4675,德州市,儿童乐园,细颗粒物(PM2.5),147,141,155,112,120,40,,27,27,41,46,22,16,1.4,1.4
2026-01-04T1300,1624A,116.2992,37.4449,德州市,监理站,细颗粒物(PM2.5),144,139,152,110,122,49,,34,34,45,51,26,18,1.1,1.1
2026-01-04T1300,3066A,116.2722,37.438,德州市,九衢泉纯净水厂,细颗粒物(PM2.5),153,151,158,117,130,32,,16,16,46,54,24,24,1.0,1
2026-01-04T1300,3371A,116.3693,37.44,德州市,开发区人民医院,细颗粒物(PM2.5),125,144,157,95,114,47,,26,26,49,65,20,17,0.9,0.9
2026-01-04T1300,3511A,116.5687,37.3331,德州市,陵城艺术中心,细颗粒物(PM2.5),140,129,163,107,132,46,,16,15,46,64,17,20,1.1,1.3
2026-01-04T1300,4292A,116.352738,37.420875,德州市,新河东路,细颗粒物(PM2.5),144,144,158,110,132,37,,15,15,53,70,23,16,1.2,1.4
2026-01-04T1300,2621A,99.7054,27.8319,迪庆藏族自治州,迪庆州站,,28,23,23,18,15,88,,64,64,5,8,4,5,0.3,0.4
2026-01-04T1300,3180A,99.7122,27.8129,迪庆藏族自治州,质量技术监督局,,30,21,20,3,16,95,,71,67,5,10,5,6,0.4,0.5
2026-01-04T1300,4257A,104.6092,35.5962,定西市,将台街,细颗粒物(PM2.5),63,53,75,45,57,81,,33,33,13,28,12,9,0.5,0.6
2026-01-04T1300,4309A,104.6159,35.5701,定西市,正龙路62号,细颗粒物(PM2.5),70,57,75,51,61,76,,40,40,12,14,10,6,0.7,0.9
2026-01-04T1300,1390A,113.7943,23.0132,东莞市,东城石井,,41,41,54,26,33,113,,44,44,22,38,9,9,0.7,0.8
2026-01-04T1300,1391A,113.7384,22.9659,东莞市,南城西平,颗粒物(PM10),51,51,63,31,37,113,,42,42,28,59,10,10,0.7,0.7
2026-01-04T1300,3319A,113.7283,23.041,东莞市,万江金泰,,50,50,60,30,34,107,,52,52,18,37,6,6,0.7,0.8
2026-01-04T1300,4129A,113.8666,23.1062,东莞市,裕兴路,,45,45,63,22,35,119,,56,56,11,36,6,10,0.6,0.7
2026-01-04T1300,4130A,114.0076,22.9739,东莞市,教育路1号,颗粒物(PM10),53,55,74,31,40,112,,45,45,21,52,7,6,0.8,0.9
2026-01-04T1300,4131A,113.7981,22.8124,东莞市,长怡路1号,颗粒物(PM10),58,65,69,36,35,111,,48,48,30,49,9,9,0.7,0.7
2026-01-04T1300,1666A,118.6612,37.4313,东营市,市环保局,细颗粒物(PM2.5),134,129,154,102,121,68,,24,24,28,65,16,20,1.0,1.3
2026-01-04T1300,3036A,118.6903,37.4337,东营市,开发区管委会,细颗粒物(PM2.5),144,135,152,110,120,74,,28,28,25,68,18,22,1.0,1.3
2026-01-04T1300,3365A,118.5721,37.5654,东营市,垦利区民丰路,细颗粒物(PM2.5),168,149,155,127,122,52,,17,17,37,61,12,11,1.2,1.4
2026-01-04T1300,3498A,118.5063,37.8606,东营市,河口城区,细颗粒物(PM2.5),209,200,174,159,132,58,,27,27,35,50,8,7,1.2,1.3
2026-01-04T1300,3646A,118.4979,37.4623,东营市,胜利站,细颗粒物(PM2.5),153,149,172,117,132,61,,22,22,36,72,22,18,1.3,1.7
2026-01-04T1300,3734A,118.5753,37.4405,东营市,理想之城,细颗粒物(PM2.5),138,132,154,105,123,62,,20,20,38,72,15,13,1.1,1.4
2026-01-04T1300,1591A,110.0024,39.8127,鄂尔多斯市,综合楼,,41,41,38,17,17,52,,45,44,23,29,17,11,0.7,0.6
2026-01-04T1300,1592A,109.9485,39.8259,鄂尔多斯市,巴音孟克林场办事处,颗粒物(PM10),51,51,47,14,17,54,,41,41,23,30,9,12,0.5,0.7
2026-01-04T1300,1593A,109.7734,39.5987,鄂尔多斯市,康泽苑,,26,22,31,9,16,81,,60,60,6,15,5,6,0.3,0.4
2026-01-04T1300,1594A,109.8121,39.5987,鄂尔多斯市,华泰汽车城,,24,22,35,9,16,75,,44,44,7,22,3,4,0.3,0.5
2026-01-04T1300,1595A,109.9734,39.7884,鄂尔多斯市,奥林花园,颗粒物(PM10),54,58,47,12,13,55,,47,46,24,27,6,6,0.6,0.7
2026-01-04T1300,2436A,114.894,30.3989,鄂州市,市政府,细颗粒物(PM2.5),73,,47,53,42,29,,61,51,22,22,4,6,0.9,0.7
2026-01-04T1300,2437A,114.8986,30.3714,鄂州市,赵家坝,细颗粒物(PM2.5),80,,50,59,44,37,,55,43,16,17,6,8,0.8,0.4
2026-01-04T1300,3654A,114.8093,30.4091,鄂州市,精准医疗中心,细颗粒物(PM2.5),70,52,56,51,50,57,,58,48,10,17,4,4,0.9,0.8
2026-01-04T1300,2454A,109.4978,30.2979,恩施土家族苗族自治州,湖北民院,细颗粒物(PM2.5),53,,42,37,43,44,,27,27,11,12,6,6,0.7,0.7
2026-01-04T1300,3549A,109.5061,30.3771,恩施土家族苗族自治州,龙凤新区,细颗粒物(PM2.5),60,47,50,43,45,25,,16,16,15,10,6,7,0.5,0.5
2026-01-04T1300,2499A,108.3411,21.6159,防城港市,沙万,,43,43,80,28,43,100,,53,53,17,28,8,8,0.5,0.8
2026-01-04T1300,2500A,108.3515,21.7733,防城港市,防城档案局,颗粒物(PM10),56,62,77,36,49,82,,42,42,17,26,8,6,0.6,0.8
2026-01-04T1300,2501A,108.3506,21.6414,防城港市,大海花园,,50,50,60,32,40,106,,55,55,10,23,10,11,0.6,1.1
2026-01-04T1300,1371A,113.1293,23.0065,佛山市,湾梁,细颗粒物(PM2.5),75,85,72,55,44,61,,17,17,71,66,/,/,/,/
2026-01-04T1300,1372A,113.1082,23.0477,佛山市,华材职中,"颗粒物(PM10),细颗粒物(PM2.5)",69,88,86,50,41,68,,22,22,68,66,7,7,0.6,0.8
2026-01-04T1300,1373A,113.1439,23.045,佛山市,南海气象局,细颗粒物(PM2.5),82,89,77,60,42,62,,16,16,66,67,/,/,/,/
2026-01-04T1300,1374A,113.2879,22.8094,佛山市,顺德苏岗,颗粒物(PM10),53,56,62,31,39,101,,38,38,34,56,/,/,0.7,0.8
2026-01-04T1300,1376A,112.8384,22.8678,佛山市,高明孔堂,细颗粒物(PM2.5),88,83,64,65,44,90,,30,30,50,39,/,/,/,/
2026-01-04T1300,1377A,112.8835,23.1584,佛山市,三水监测站,细颗粒物(PM2.5),75,78,86,55,54,101,,33,33,33,56,11,11,0.6,0.7
2026-01-04T1300,1378A,112.8668,23.185,佛山市,三水云东海,细颗粒物(PM2.5),79,85,76,58,48,105,,33,33,37,41,/,/,/,/
2026-01-04T1300,3625A,113.2568,22.7629,佛山市,容桂街道办,颗粒物(PM10),63,75,68,41,42,64,,26,20,50,51,/,/,/,/
2026-01-04T1300,1282A,119.2681,26.0506,福州市,师大,,43,43,34,13,19,73,,58,57,22,25,8,8,0.4,0.5
2026-01-04T1300,1283A,119.2983,26.1028,福州市,五四北路,,42,42,31,10,14,78,,56,56,14,20,5,5,0.4,0.5
2026-01-04T1300,1284A,119.2648,26.0769,福州市,杨桥西路,,29,29,31,10,15,75,,60,60,13,16,5,5,/,/
2026-01-04T1300,3048A,119.5799,26.0937,福州市,九龙,,28,28,26,7,13,85,,69,69,13,16,5,6,0.4,0.5
2026-01-04T1300,3526A,119.5188,25.9666,福州市,吴航,,32,32,26,12,15,72,,54,50,23,22,7,6,0.6,0.6
2026-01-04T1300,4104A,119.3106,26.0648,福州市,路通桥巷6号,,35,35,34,16,19,71,,,,14,16,/,/,/,/
2026-01-04T1300,1755A,123.7974,41.8494,抚顺市,望花区,细颗粒物(PM2.5),159,187,151,121,110,33,,15,15,63,62,35,15,4.3,2.2
2026-01-04T1300,1756A,123.9161,41.8827,抚顺市,顺城区,细颗粒物(PM2.5),135,128,126,103,91,35,,19,19,62,60,36,14,3.1,2
2026-01-04T1300,1757A,124.0437,41.8615,抚顺市,东洲区,细颗粒物(PM2.5),124,139,116,94,91,34,,17,17,53,57,16,19,2.5,2.1
2026-01-04T1300,1758A,123.9246,41.8638,抚顺市,新抚区,细颗粒物(PM2.5),156,175,131,119,96,37,,16,16,63,56,16,11,3.8,2
2026-01-04T1300,1759A,124.0972,41.8961,抚顺市,大伙房水库,细颗粒物(PM2.5),105,79,104,79,78,48,,25,25,38,51,29,17,2.8,2
2026-01-04T1300,1760A,123.708,41.8386,抚顺市,沈抚新城,细颗粒物(PM2.5),186,154,143,140,114,37,,21,21,64,63,23,14,2.5,2.3
2026-01-04T1300,2377A,116.3544,27.9833,抚州市,市站,细颗粒物(PM2.5),57,59,50,40,37,34,,42,32,22,15,12,11,0.6,0.5
2026-01-04T1300,2378A,116.3562,27.9631,抚州市,血防站,细颗粒物(PM2.5),63,60,55,45,38,29,,47,31,30,19,8,9,0.9,0.7
2026-01-04T1300,2379A,116.3561,28.0007,抚州市,采茶剧团,细颗粒物(PM2.5),59,62,53,42,36,34,,41,33,22,12,9,9,0.9,0.7
2026-01-04T1300,2380A,116.3854,27.9648,抚州市,医学分院,颗粒物(PM10),55,60,55,38,34,36,,48,36,27,16,14,9,0.7,0.6
2026-01-04T1300,2207A,121.6095,41.9978,阜新市,工业园区,,23,18,108,8,61,71,,31,31,6,35,8,20,0.3,1
2026-01-04T1300,2208A,121.6567,42.0188,阜新市,长青街,,23,9,72,3,55,72,,33,33,6,35,7,12,0.3,0.9
2026-01-04T1300,2209A,121.6672,42.07,阜新市,农业园区,,25,25,54,3,35,68,,52,52,7,22,6,18,0.3,0.6
2026-01-04T1300,2211A,121.6343,42.0455,阜新市,玉龙新城,,22,17,97,3,57,68,,31,31,7,40,7,10,0.2,1
2026-01-04T1300,2301A,115.8276,32.8929,阜阳市,市监测站,细颗粒物(PM2.5),95,94,82,71,62,32,,22,18,39,40,6,4,0.7,0.7
2026-01-04T1300,2303A,115.8551,32.8606,阜阳市,开发区,细颗粒物(PM2.5),90,108,72,67,55,15,,16,15,45,37,6,5,0.6,0.5
2026-01-04T1300,2875A,115.783962,32.889217,阜阳市,阜阳职业技术学院,细颗粒物(PM2.5),75,80,66,55,50,57,,46,39,18,23,7,6,0.8,0.7
2026-01-04T1300,3468A,115.79,32.8614,阜阳市,市规划展馆,细颗粒物(PM2.5),105,93,66,79,54,46,,48,36,28,24,9,6,0.6,0.4
2026-01-04T1300,3469A,115.835101,32.918568,阜阳市,枣园社区,细颗粒物(PM2.5),100,99,77,75,62,35,,25,20,36,43,8,6,0.4,0.4
2026-01-04T1300,2669A,102.9097,34.9841,甘南藏族自治州,州政府,细颗粒物(PM2.5),98,86,67,73,55,42,,30,30,30,26,7,3,1.2,0.9
2026-01-04T1300,3380A,102.8915,34.9618,甘南藏族自治州,甘肃民族师范学院,细颗粒物(PM2.5),90,90,75,67,54,50,,40,40,28,29,12,4,0.8,0.6
2026-01-04T1300,2570A,101.96,30.048,甘孜藏族自治州,水桥子,,16,6,7,3,5,49,,45,41,10,12,6,6,0.7,0.6
2026-01-04T1300,3065A,101.9534,29.9976,甘孜藏族自治州,州环保局,,15,13,12,8,5,47,,45,43,12,11,6,6,0.6,0.6
2026-01-04T1300,2363A,114.9368,25.8663,赣州市,地委,颗粒物(PM10),53,56,43,32,23,30,,16,16,40,25,9,8,0.9,0.7
2026-01-04T1300,2364A,114.946,25.8483,赣州市,气象台,颗粒物(PM10),60,70,51,27,19,50,,23,23,46,39,3,2,0.9,0.8
2026-01-04T1300,2365A,114.932,25.8332,赣州市,市图书馆,"颗粒物(PM10),细颗粒物(PM2.5)",53,55,42,37,25,46,,20,20,39,33,3,4,1.0,0.7
2026-01-04T1300,2366A,114.8905,25.8472,赣州市,华坚鞋城,颗粒物(PM10),53,55,41,27,23,47,,20,19,33,28,8,5,0.5,0.4
2026-01-04T1300,3109A,115.0094,25.8614,赣州市,赣县区卫计委,细颗粒物(PM2.5),68,,37,49,30,46,,18,18,30,26,8,8,0.5,0.4
2026-01-04T1300,2684A,106.2753,36.0057,固原市,监测站,,29,,53,20,49,90,,56,56,10,23,5,4,0.5,0.8
2026-01-04T1300,2685A,106.2384,36.0189,固原市,新区,,30,26,48,14,43,95,,69,69,6,16,3,3,0.5,0.8
2026-01-04T1300,2544A,106.6307,30.4577,广安市,市委,细颗粒物(PM2.5),54,50,49,38,37,44,,33,26,17,19,5,5,0.8,0.8
2026-01-04T1300,2545A,106.6266,30.4662,广安市,友谊中学,细颗粒物(PM2.5),55,45,42,39,37,55,,41,37,6,7,6,6,0.6,0.6
2026-01-04T1300,2547A,106.6386,30.4551,广安市,广电花园,细颗粒物(PM2.5),58,47,45,41,37,45,,30,25,13,17,8,8,0.6,0.6
2026-01-04T1300,2902A,106.6347,30.4868,广安市,北辰小学,细颗粒物(PM2.5),57,50,45,40,40,51,,35,32,13,11,17,15,0.9,0.9
2026-01-04T1300,2524A,105.8211,32.4444,广元市,老城,细颗粒物(PM2.5),52,,42,36,33,92,,40,40,14,31,6,4,0.6,0.9
2026-01-04T1300,2526A,105.8629,32.429,广元市,监测站,,45,39,46,31,30,81,,31,31,12,25,3,3,0.6,1
2026-01-04T1300,3617A,105.8047,32.4167,广元市,经开区,,50,49,42,35,35,76,,31,31,10,28,2,4,0.6,0.9
2026-01-04T1300,1345A,113.2346,23.1423,广州市,广雅中学,细颗粒物(PM2.5),70,87,72,51,41,90,,27,27,36,58,4,3,0.8,0.7
2026-01-04T1300,1346A,113.2611,23.105,广州市,市五中,"颗粒物(PM10),细颗粒物(PM2.5)",62,74,62,44,37,96,,40,40,52,68,10,9,/,/
2026-01-04T1300,1348A,113.3477,23.0916,广州市,广东商学院,,50,50,59,32,38,99,,32,32,21,55,7,7,0.5,0.6
2026-01-04T1300,1349A,113.4332,23.105,广州市,市八十六中,,39,39,53,26,36,107,,34,34,22,59,8,9,/,/
2026-01-04T1300,1350A,113.3506,22.9488,广州市,番禺中学,颗粒物(PM10),60,70,76,37,45,96,,38,38,40,62,6,6,0.5,0.6
2026-01-04T1300,1351A,113.2147,23.3918,广州市,花都师范,细颗粒物(PM2.5),65,78,62,47,36,100,,34,34,36,55,7,7,0.5,0.6
2026-01-04T1300,1352A,113.2599,23.1329,广州市,市监测站,"颗粒物(PM10),细颗粒物(PM2.5)",63,76,66,45,42,85,,31,31,46,64,3,2,/,/
2026-01-04T1300,1353A,113.5618,23.3119,广州市,九龙镇镇龙,颗粒物(PM10),53,56,55,31,32,97,,40,40,21,35,6,5,0.4,0.5
2026-01-04T1300,1354A,113.2764,23.1544,广州市,麓湖,颗粒物(PM10),61,71,51,42,34,90,,36,36,37,54,9,8,0.4,0.4
2026-01-04T1300,2846A,113.3209,23.1323,广州市,体育西,颗粒物(PM10),54,57,60,31,38,104,,40,40,25,56,6,6,0.6,0.7
2026-01-04T1300,3298A,113.5718,23.5493,广州市,从化街口,细颗粒物(PM2.5),54,53,50,38,35,108,,35,35,18,32,9,8,0.6,0.7
2026-01-04T1300,3299A,113.3463,23.369,广州市,白云竹料,颗粒物(PM10),51,51,64,30,39,121,,42,42,17,40,4,4,0.4,0.6
2026-01-04T1300,3300A,113.2981,23.2365,广州市,白云嘉禾,颗粒物(PM10),60,70,61,33,33,112,,36,36,28,52,6,4,/,/
2026-01-04T1300,3301A,113.4256,23.1716,广州市,黄埔科学城,,41,41,46,24,29,112,,52,52,19,34,6,6,0.6,0.6
2026-01-04T1300,3302A,113.3942,23.0485,广州市,番禺大学城,颗粒物(PM10),54,58,61,32,36,107,,43,43,27,52,10,10,0.5,0.6
2026-01-04T1300,3303A,113.4923,22.8169,广州市,南沙黄阁,颗粒物(PM10),59,67,64,38,36,121,,62,62,37,48,11,9,/,/
2026-01-04T1300,3304A,113.534,22.7893,广州市,南沙街,颗粒物(PM10),60,70,59,35,33,117,,73,73,33,36,8,7,0.6,0.6
2026-01-04T1300,3443A,113.2905,23.5541,广州市,花都梯面,颗粒物(PM10),55,60,35,32,22,119,,41,41,18,28,6,6,/,/
2026-01-04T1300,3445A,113.786,23.7479,广州市,从化良口,,32,28,20,22,16,94,,38,38,7,12,8,7,/,/
2026-01-04T1300,3446A,113.805,23.2614,广州市,增城荔城,,36,35,33,25,23,95,,49,49,12,19,7,8,0.5,0.5
2026-01-04T1300,2506A,109.604387,23.066791,贵港市,江南子站,,,70,75,52,49,63,,38,38,25,32,,10,0.9,0.9
2026-01-04T1300,2508A,109.5669,23.1065,贵港市,荷城子站,颗粒物(PM10),57,63,60,39,38,63,,42,40,22,24,10,9,0.7,0.7
2026-01-04T1300,3405A,109.5886,23.1172,贵港市,新世纪学校,颗粒物(PM10),64,78,66,43,41,69,,40,40,23,27,/,/,0.5,0.5
2026-01-04T1300,4260A,109.5933,23.095,贵港市,中山路155-3号,细颗粒物(PM2.5),69,72,57,50,43,72,,41,41,23,27,/,/,0.8,0.8
2026-01-04T1300,1439A,106.6863,26.6035,贵阳市,马鞍山,,20,14,14,14,12,37,,17,17,12,16,8,5,/,/
2026-01-04T1300,1441A,106.6241,26.6266,贵阳市,鉴湖路,,19,19,17,7,7,47,,28,28,17,19,5,3,0.6,0.6
2026-01-04T1300,1442A,106.7468,26.6344,贵阳市,燕子冲,,25,22,19,17,20,33,,14,14,16,17,12,8,0.9,0.8
2026-01-04T1300,1443A,106.6556,26.4362,贵阳市,碧云窝,,36,36,21,22,9,26,,14,13,21,17,15,4,/,/
2026-01-04T1300,1445A,106.6963,26.6063,贵阳市,红边门,,32,27,17,22,13,31,,16,16,16,19,12,8,/,/
2026-01-04T1300,1446A,106.7162383,26.56964667,贵阳市,新华路,,24,24,22,14,10,38,,20,20,15,17,10,7,0.6,0.6
2026-01-04T1300,1447A,106.6742,26.542,贵阳市,太慈桥,,25,24,14,17,8,32,,23,23,22,20,5,4,/,/
2026-01-04T1300,4230A,106.688212,26.56952,贵阳市,花果园大街66号,,23,,9,16,13,32,,20,20,16,19,5,2,/,/
2026-01-04T1300,4231A,106.687268,26.516892,贵阳市,漓江路57号,,28,27,18,19,10,32,,15,15,20,20,10,8,0.8,0.8
2026-01-04T1300,1864A,110.3091,25.2705,桂林市,龙隐路小学,细颗粒物(PM2.5),94,,50,70,59,24,,29,25,22,16,6,6,0.5,0.4
2026-01-04T1300,1865A,110.2849361,25.22909545,桂林市,八中,细颗粒物(PM2.5),92,73,51,68,55,22,,26,22,30,22,7,7,0.7,0.6
2026-01-04T1300,3531A,110.296,25.1254,桂林市,旅游学院,细颗粒物(PM2.5),79,61,44,58,40,30,,30,28,24,17,4,4,0.7,0.6
2026-01-04T1300,4222A,110.1835,25.2444,桂林市,环湖路276号,细颗粒物(PM2.5),83,80,56,61,47,25,,29,23,25,20,6,6,0.6,0.5
2026-01-04T1300,4301A,110.2803,25.2773,桂林市,信义路13号,细颗粒物(PM2.5),79,74,51,58,48,25,,31,24,27,22,4,4,0.7,0.6
2026-01-04T1300,2674A,100.2262,34.4854,果洛藏族自治州,玛沁县大武镇,,24,19,39,3,9,75,,44,42,4,3,16,14,0.4,0.4
2026-01-04T1300,1130A,126.5557,45.8109,哈尔滨市,松北商大,颗粒物(PM10),58,65,66,30,51,60,,31,31,16,34,8,10,0.6,0.7
2026-01-04T1300,1132A,126.6162,45.719,哈尔滨市,南岗学府路,,50,50,74,30,52,53,,27,27,19,33,10,12,0.7,0.9
2026-01-04T1300,1133A,126.6894,45.7733,哈尔滨市,太平宏伟公园,,44,44,60,22,46,64,,40,40,12,33,20,24,0.3,0.6
2026-01-04T1300,1134A,126.6361,45.7672,哈尔滨市,道外承德广场,颗粒物(PM10),53,56,80,27,48,64,,38,38,14,35,9,12,0.0,0.2
2026-01-04T1300,1136A,126.644,45.7261,哈尔滨市,动力和平路,,43,43,70,27,48,58,,31,31,17,35,14,17,0.6,0.8
2026-01-04T1300,1137A,126.5933,45.7479,哈尔滨市,道里建国路,颗粒物(PM10),55,60,64,33,55,60,,36,36,15,31,14,19,0,0.2
2026-01-04T1300,1138A,126.6127,45.6119,哈尔滨市,平房东轻厂,,46,33,69,32,95,58,,27,27,17,41,5,7,0.3,0.6
2026-01-04T1300,1139A,126.5875,45.9827,哈尔滨市,呼兰师专,细颗粒物(PM2.5),52,44,68,36,68,56,,36,36,12,30,9,10,0.6,0.8
2026-01-04T1300,1140A,126.6299,45.6799,哈尔滨市,省农科院,颗粒物(PM10),56,62,97,36,71,56,,24,24,21,45,14,15,1.4,1.2
2026-01-04T1300,4282A,126.6769,45.7379,哈尔滨市,华山路1号,,48,48,64,21,48,55,,38,38,19,38,22,32,0.6,0.8
2026-01-04T1300,4283A,126.9717,45.5356,哈尔滨市,解放大街52号,,43,43,130,10,84,57,,26,26,19,41,23,16,0.6,1.2
2026-01-04T1300,2688A,93.5124,42.8176,哈密市,地区监测站,,49,,48,34,32,59,,61,60,9,13,5,4,0.0,0.1
2026-01-04T1300,2689A,93.5014,42.8312,哈密市,哈密师范学校,,40,30,55,28,25,59,,55,55,13,29,8,7,0.2,0.4
2026-01-04T1300,2671A,100.9016,36.9464,海北藏族自治州,海晏县西海镇,细颗粒物(PM2.5),82,63,78,60,66,72,,54,54,20,22,16,15,1.1,1.1
2026-01-04T1300,3867A,102.074,36.5056,海东市,平安区公安局北苑,细颗粒物(PM2.5),114,,78,86,70,40,,40,31,28,16,18,18,1.3,1
2026-01-04T1300,4163A,102.0984,36.5119,海东市,滨河路,细颗粒物(PM2.5),109,82,75,82,71,48,,26,23,34,37,18,17,1.2,1
2026-01-04T1300,1410A,110.3189,20.0596,海口市,海南大学,,41,41,37,18,16,105,,95,95,7,7,6,6,0.3,0.3
2026-01-04T1300,1411A,110.2827,20.0051,海口市,秀英海南医院,,45,45,40,18,15,92,,84,84,9,9,8,7,0.3,0.3
2026-01-04T1300,1412A,110.3391,19.9979,海口市,海南师范大学,,46,46,39,20,16,102,,92,92,8,9,6,5,0.4,0.4
2026-01-04T1300,1413A,110.3303,20.0359,海口市,龙华路环保局宿舍,,43,43,37,20,17,105,,95,95,9,9,/,/,0.6,0.5
2026-01-04T1300,3539A,110.5111,19.9737,海口市,桂林洋子站,,37,37,35,18,17,101,,89,89,7,8,/,/,/,/
2026-01-04T1300,4134A,110.1952,20.0451,海口市,长滨二路9号,,38,38,31,18,16,102,,93,93,6,6,/,/,/,/
2026-01-04T1300,2673A,100.6158,36.2985,海南藏族自治州,共和县恰卜恰镇,,46,40,56,32,44,80,,50,50,8,20,10,11,0.6,0.7
2026-01-04T1300,2676A,97.373,37.376,海西蒙古族藏族自治州,德令哈市,,27,13,18,3,9,84,,77,77,6,6,14,12,0.4,0.5
2026-01-04T1300,1049A,114.492,36.5712,邯郸市,矿院,细颗粒物(PM2.5),265,,156,215,170,23,,10,10,47,53,3,5,1.4,1.3
2026-01-04T1300,1050A,114.4839,36.6136,邯郸市,丛台公园,细颗粒物(PM2.5),267,221,172,217,159,23,,17,11,46,44,5,8,1.5,1.2
2026-01-04T1300,3458A,114.7893,36.5592,邯郸市,香泉濮院小区,细颗粒物(PM2.5),229,200,153,179,151,41,,22,22,37,42,8,7,1.2,1.2
2026-01-04T1300,3580A,114.1998,36.4439,邯郸市,峰峰矿区临水派出所,细颗粒物(PM2.5),243,,123,193,173,55,,19,19,28,41,20,12,2.2,1.4
2026-01-04T1300,4068A,114.5209,36.7697,邯郸市,建安街268号,细颗粒物(PM2.5),266,,179,216,169,14,,9,9,56,61,8,11,1.8,1.5
2026-01-04T1300,4069A,114.5488,36.6177,邯郸市,丛台东路558号,细颗粒物(PM2.5),271,240,212,221,175,24,,14,14,50,57,7,10,1.5,1.3
2026-01-04T1300,2635A,107.0155,33.0707,汉中市,市监测站,细颗粒物(PM2.5),63,63,54,45,58,66,,23,23,15,23,7,4,0.7,0.8
2026-01-04T1300,2636A,107.0083,33.114,汉中市,鑫源开发区,细颗粒物(PM2.5),62,63,56,44,60,71,,30,30,15,23,6,6,0.5,0.7
2026-01-04T1300,2637A,107.0072,33.0323,汉中市,南郑大河坎水厂,细颗粒物(PM2.5),59,59,74,42,65,70,,23,23,9,21,6,5,0.7,1.1
2026-01-04T1300,1223A,120.2073,30.2111,杭州市,滨江,细颗粒物(PM2.5),105,108,105,79,81,16,,9,9,54,59,7,7,0.8,0.7
2026-01-04T1300,1224A,120.0625,30.2737,杭州市,西溪,细颗粒物(PM2.5),110,109,92,83,71,10,,8,8,66,52,10,8,1.0,0.9
2026-01-04T1300,1226A,120.3417,30.315,杭州市,下沙,细颗粒物(PM2.5),123,107,108,93,88,21,,9,9,57,65,8,10,,1.1
2026-01-04T1300,1227A,120.1252,30.2465,杭州市,卧龙桥,细颗粒物(PM2.5),115,109,91,87,74,11,,11,11,51,34,10,10,1.0,0.9
2026-01-04T1300,1228A,120.1902,30.2691,杭州市,浙江农大,细颗粒物(PM2.5),118,112,116,89,93,17,,9,9,57,65,4,5,0.7,0.7
2026-01-04T1300,1230A,120.1195,30.3121,杭州市,和睦小学,细颗粒物(PM2.5),117,125,111,88,82,9,,7,7,56,54,6,6,1.0,0.9
2026-01-04T1300,1231A,120.3076,30.4146,杭州市,临平镇,细颗粒物(PM2.5),122,137,121,92,85,9,,4,4,66,62,8,8,0.9,0.8
2026-01-04T1300,1232A,120.2753,30.1839,杭州市,城厢镇,细颗粒物(PM2.5),100,104,102,75,74,17,,12,12,58,61,8,9,0.7,0.6
2026-01-04T1300,1233A,120.0883,30.1808,杭州市,云栖,细颗粒物(PM2.5),112,104,93,84,74,13,,9,7,55,38,4,3,1.0,0.8
2026-01-04T1300,3557A,119.9463,30.0496,杭州市,镇二中,细颗粒物(PM2.5),115,98,81,87,78,16,,9,9,54,46,7,6,1.1,0.9
2026-01-04T1300,3558A,119.7184,30.2367,杭州市,市府大楼,细颗粒物(PM2.5),108,113,104,81,76,21,,18,18,36,30,10,10,1.1,1
2026-01-04T1300,3656A,120.1554,30.2863,杭州市,消防大队,细颗粒物(PM2.5),122,112,99,92,84,18,,9,9,52,55,7,7,0.4,0.4
2026-01-04T1300,1270A,117.1957,31.7845,合肥市,明珠广场,,,,79,,61,,,65,18,,45,,7,,0.9
2026-01-04T1300,1271A,117.307,31.8765,合肥市,三里街,细颗粒物(PM2.5),70,51,76,51,59,20,,18,12,57,56,4,7,0.8,0.8
2026-01-04T1300,1272A,117.2587,31.8703,合肥市,琥珀山庄,细颗粒物(PM2.5),85,73,76,63,61,21,,26,22,57,44,8,9,1.1,1
2026-01-04T1300,1275A,117.2593,31.9376,合肥市,庐阳区,细颗粒物(PM2.5),98,107,89,73,61,8,,12,12,77,68,3,4,1.1,0.9
2026-01-04T1300,1276A,117.345251,31.861615,合肥市,瑶海区,细颗粒物(PM2.5),83,63,79,61,60,26,,16,16,60,62,4,6,1.0,0.9
2026-01-04T1300,1277A,117.3033,31.7967,合肥市,包河区,细颗粒物(PM2.5),92,70,79,68,65,20,,11,11,66,63,6,7,1.0,0.9
2026-01-04T1300,1278A,117.278,31.7392,合肥市,滨湖新区,细颗粒物(PM2.5),104,83,74,78,66,39,,31,24,43,37,4,5,0.9,0.9
2026-01-04T1300,1279A,117.1324,31.8395,合肥市,高新区,细颗粒物(PM2.5),84,70,71,62,55,30,,29,27,49,47,4,5,0.9,0.8
2026-01-04T1300,3464A,117.3802,31.9148,合肥市,高教基地,细颗粒物(PM2.5),90,,77,67,65,47,,24,24,36,46,7,8,0.8,0.9
2026-01-04T1300,4098A,117.2518,31.8404,合肥市,中国科学技术大学,细颗粒物(PM2.5),74,74,70,54,54,27,,30,25,55,43,5,7,0.7,0.7
2026-01-04T1300,3614A,79.9241,37.0878,和田地区,地区环保局,,48,48,48,26,29,56,,49,41,11,14,1,2,0.7,0.8
2026-01-04T1300,3615A,79.9132,37.1137,和田地区,市环保局,,43,42,44,30,23,56,,47,38,14,21,3,2,0.4,0.5
2026-01-04T1300,2517A,108.0496,24.6957,河池市,市环保站,,30,23,27,21,24,24,,29,28,17,11,2,5,0.9,0.7
2026-01-04T1300,4302A,108.0901,24.6945,河池市,上任中路54号,,23,23,29,13,27,22,,27,23,16,13,4,7,0.8,0.7
2026-01-04T1300,1697A,114.6962,23.7538,河源市,东埔,,30,30,31,21,22,88,,32,32,11,30,7,7,0.6,0.8
2026-01-04T1300,1698A,114.6895,23.7232,河源市,老城,,38,38,33,22,24,86,,30,30,10,22,7,7,0.7,0.8
2026-01-04T1300,3374A,115.5562,35.089,菏泽市,定陶老年大学,细颗粒物(PM2.5),156,144,98,119,81,38,,36,32,24,22,3,2,0.9,0.8
2026-01-04T1300,4114A,115.4239,35.2593,菏泽市,黄河路600号,细颗粒物(PM2.5),110,118,110,83,89,57,,37,35,18,24,4,3,1.0,1
2026-01-04T1300,4115A,115.5025,35.2727,菏泽市,菏泽市人社局,细颗粒物(PM2.5),117,105,98,88,82,52,,42,35,18,21,5,2,0.7,0.6
2026-01-04T1300,4184A,115.479691,35.244011,菏泽市,永昌路1号,细颗粒物(PM2.5),122,107,103,92,86,54,,42,37,20,23,7,5,0.7,0.6
2026-01-04T1300,4193A,115.471542,35.280012,菏泽市,长城路999号,细颗粒物(PM2.5),112,101,101,84,80,56,,46,39,18,19,5,4,1.1,1
2026-01-04T1300,2514A,111.5264,24.4178,贺州市,环保小区,,48,38,58,33,46,61,,25,25,20,24,8,7,0.6,0.7
2026-01-04T1300,2515A,111.561,24.4074,贺州市,政协大楼,,42,42,60,19,48,67,,19,19,20,30,8,11,0.6,0.7
2026-01-04T1300,3534A,111.4744,24.455,贺州市,西湾,细颗粒物(PM2.5),58,57,57,41,44,65,,29,29,24,26,9,8,0.7,0.8
2026-01-04T1300,2385A,114.17,35.9019,鹤壁市,市监测站,细颗粒物(PM2.5),249,201,160,199,141,23,,11,11,37,42,5,5,2.0,1.4
2026-01-04T1300,2386A,114.2953,35.7512,鹤壁市,市交警支队,细颗粒物(PM2.5),216,184,151,166,128,20,,7,7,43,50,5,5,1.9,1.1
2026-01-04T1300,2387A,114.2877,35.7302,鹤壁市,迎宾馆,细颗粒物(PM2.5),220,181,151,170,130,27,,8,8,30,41,9,7,2.0,1.3
2026-01-04T1300,3474A,114.2616,35.6824,鹤壁市,大新区,细颗粒物(PM2.5),225,181,145,175,137,31,,13,13,30,48,9,8,2.1,1.3
2026-01-04T1300,3596A,114.1573,35.9607,鹤壁市,南山宾馆,细颗粒物(PM2.5),254,217,161,204,140,23,,12,12,42,42,9,7,2.1,1.2
2026-01-04T1300,2244A,130.2537,47.3416,鹤岗市,哈啤分公司,,22,14,24,9,22,70,,63,63,2,6,5,7,0.2,0.3
2026-01-04T1300,2245A,130.2683,47.3087,鹤岗市,斯达机电,,24,21,28,14,25,76,,67,67,3,7,4,5,0.3,0.4
2026-01-04T1300,2246A,130.3114,47.3388,鹤岗市,东山纸板厂,,33,33,22,9,18,76,,68,68,2,6,5,7,0.3,0.6
2026-01-04T1300,2263A,127.4832,50.2524,黑河市,交通局,,23,,13,12,14,72,,66,66,3,7,4,4,0.3,0.3
2026-01-04T1300,2264A,127.5146,50.2339,黑河市,环保局,,21,9,14,9,13,66,,64,64,10,10,10,6,0.3,0.3
2026-01-04T1300,1074A,115.6839,37.754,衡水市,电机北厂,细颗粒物(PM2.5),220,197,177,170,149,25,,6,6,48,48,10,7,1.1,1.1
2026-01-04T1300,1075A,115.6303,37.7318,衡水市,市监测站,细颗粒物(PM2.5),207,188,160,157,140,23,,16,10,58,45,8,7,1.1,1.1
2026-01-04T1300,3188A,115.6684,37.7216,衡水市,市城管局,细颗粒物(PM2.5),193,188,162,145,136,26,,9,9,60,52,10,9,1.2,1.2
2026-01-04T1300,3459A,115.599,37.5491,衡水市,地表水厂,细颗粒物(PM2.5),201,,144,151,149,32,,10,10,40,54,7,7,0.9,1
2026-01-04T1300,2457A,112.6209,26.9268,衡阳市,衡阳化工总厂,细颗粒物(PM2.5),77,,50,56,50,21,,29,21,18,16,6,6,1.2,1
2026-01-04T1300,2458A,112.621,26.8957,衡阳市,珠晖区环保局,细颗粒物(PM2.5),79,,47,58,52,14,,24,17,27,21,4,4,1.1,0.9
2026-01-04T1300,2459A,112.628,26.8654,衡阳市,市委党校,细颗粒物(PM2.5),80,,48,59,51,17,,30,22,24,18,10,9,1.0,0.9
2026-01-04T1300,2460A,112.6007,26.8977,衡阳市,市监测站,细颗粒物(PM2.5),87,84,74,64,58,22,,28,21,19,16,6,7,1.0,0.8
2026-01-04T1300,2461A,112.5658,26.9013,衡阳市,真空机电公司,细颗粒物(PM2.5),89,73,69,66,56,18,,25,17,24,20,8,7,1.1,0.9
2026-01-04T1300,3399A,112.6703,26.8817,衡阳市,师范学院,细颗粒物(PM2.5),70,68,61,51,47,18,,26,20,26,21,3,4,0.9,0.8
2026-01-04T1300,3038A,103.3757,23.3679,红河哈尼族彝族自治州,州图书馆,,,8,8,,4,53,,44,41,5,7,5,6,0.6,0.6
2026-01-04T1300,4154A,103.401,23.3561,红河哈尼族彝族自治州,蒙自市朝阳路,,16,14,12,8,8,51,,45,45,6,5,8,8,0.5,0.5
2026-01-04T1300,1090A,111.6506,40.7517,呼和浩特市,呼市一监,细颗粒物(PM2.5),108,105,102,81,76,28,,11,11,35,49,7,7,1.1,1.3
2026-01-04T1300,1094A,111.7516,40.8369,呼和浩特市,如意水处理厂,颗粒物(PM10),51,51,98,29,61,50,,17,17,22,54,10,15,0.6,1.2
2026-01-04T1300,1095A,111.727798,40.806187,呼和浩特市,二十九中,细颗粒物(PM2.5),72,72,98,52,61,28,,11,11,43,55,13,17,1.0,1.2
2026-01-04T1300,1097A,111.717,40.7617,呼和浩特市,化肥厂生活区,细颗粒物(PM2.5),105,127,104,79,66,21,,6,6,51,56,10,12,1.2,1.3
2026-01-04T1300,3699A,111.6519,40.8389,呼和浩特市,海东办,细颗粒物(PM2.5),98,112,111,73,64,30,,13,13,41,58,7,10,0.9,1.2
2026-01-04T1300,4275A,111.591512,40.827312,呼和浩特市,成吉思汗西街8号,细颗粒物(PM2.5),134,166,97,102,46,24,,47,35,58,41,8,9,1.1,0.9
2026-01-04T1300,4276A,111.6597,40.8077,呼和浩特市,公园东路75号,细颗粒物(PM2.5),103,129,112,77,66,23,,13,13,50,60,9,12,1.2,1.1
2026-01-04T1300,4277A,111.5427,40.7846,呼和浩特市,金海路35号,细颗粒物(PM2.5),127,158,123,96,79,28,,10,10,45,53,17,14,1.0,1.1
2026-01-04T1300,3061A,119.7511,49.1576,呼伦贝尔市,国华电力东,,22,7,25,6,21,68,,57,57,17,24,8,6,0.3,0.4
2026-01-04T1300,4279A,119.7569,49.2222,呼伦贝尔市,伊敏大街东7号,,22,22,30,14,22,66,,50,50,10,24,10,8,0.4,0.5
2026-01-04T1300,1250A,120.075,30.867,湖州市,城西水厂,细颗粒物(PM2.5),148,142,109,113,82,18,,13,12,75,57,11,10,0.7,0.6
2026-01-04T1300,2873A,120.083,30.8929,湖州市,仁皇山新区,细颗粒物(PM2.5),149,149,107,114,87,15,,18,16,100,70,13,11,0.7,0.6
2026-01-04T1300,2907A,120.1846,30.8592,湖州市,吴兴区站,细颗粒物(PM2.5),142,128,109,108,90,17,,15,15,68,60,7,8,0.8,0.7
2026-01-04T1300,3562A,120.4146,30.8538,湖州市,南浔区站,细颗粒物(PM2.5),147,144,106,112,83,12,,8,8,90,66,9,7,0.9,0.8
2026-01-04T1300,1607A,120.904878,40.721091,葫芦岛市,龙港区,,46,46,89,10,66,65,,26,26,10,40,15,26,0.6,1.6
2026-01-04T1300,1608A,120.8382,40.7521,葫芦岛市,化工街,,39,39,97,22,60,64,,28,28,11,44,23,53,0.4,1.1
2026-01-04T1300,1609A,120.8339,40.7078,葫芦岛市,新区,颗粒物(PM10),51,52,67,15,49,65,,24,24,14,51,17,18,0.6,1.2
2026-01-04T1300,1610A,120.8697,40.7679,葫芦岛市,东城区,,48,48,87,13,65,66,,27,27,12,47,15,46,0.6,1.4
2026-01-04T1300,2483A,109.9297,27.5383,怀化市,河西地税局,,15,14,26,10,27,32,,31,25,12,12,3,3,/,/
2026-01-04T1300,2484A,109.9783,27.5342,怀化市,市四医院,,38,30,31,26,27,10,,23,14,20,13,9,8,0.7,0.7
2026-01-04T1300,2485A,109.9971,27.5579,怀化市,监测楼,,42,38,21,29,21,22,,33,24,23,14,3,2,0.4,0.3
2026-01-04T1300,1210A,119.0566,33.5991,淮安市,钵池山,细颗粒物(PM2.5),73,68,59,53,44,46,,27,19,44,45,10,9,0.5,0.6
2026-01-04T1300,1211A,119.0083,33.578,淮安市,北京南路,细颗粒物(PM2.5),75,68,65,55,46,41,,12,12,38,52,11,9,0.9,1
2026-01-04T1300,1212A,118.9938,33.6083,淮安市,市监测站,细颗粒物(PM2.5),70,68,59,51,46,33,,20,14,55,44,13,10,1.0,0.9
2026-01-04T1300,1213A,119.135,33.5038,淮安市,楚州区监测站,细颗粒物(PM2.5),104,100,64,78,47,34,,12,12,46,58,13,11,0.8,0.7
2026-01-04T1300,3426A,118.8757,33.2897,淮安市,新华书店,细颗粒物(PM2.5),108,92,68,81,54,34,,19,14,48,43,12,11,1.1,0.9
2026-01-04T1300,4092A,119.119691,33.550006,淮安市,枚皋中路89号,细颗粒物(PM2.5),100,100,68,75,51,49,,20,20,44,54,12,9,0.8,0.8
2026-01-04T1300,4206A,119.028838,33.631911,淮安市,承德北路606号,细颗粒物(PM2.5),73,83,77,53,43,39,,23,14,52,51,11,10,0.9,0.9
2026-01-04T1300,2282A,116.8005,33.9749,淮北市,监测站,细颗粒物(PM2.5),108,117,91,81,66,50,,40,40,47,39,12,10,0.8,0.6
2026-01-04T1300,2283A,116.8094,33.9008,淮北市,烈山区政府,细颗粒物(PM2.5),108,97,96,81,77,43,,31,31,31,37,15,11,0.6,0.5
2026-01-04T1300,4017A,116.7926,33.9534,淮北市,市博物馆,,,125,95,75,66,44,,33,33,45,36,14,11,,0.3
2026-01-04T1300,4100A,116.8322,33.9884,淮北市,杜集区第一实验学校,细颗粒物(PM2.5),104,107,93,78,70,52,,31,31,30,25,11,9,0.7,0.6
2026-01-04T1300,2277A,116.8304,32.7726,淮南市,潘集区政府,细颗粒物(PM2.5),63,56,81,45,67,62,,34,34,24,35,6,7,0.6,0.7
2026-01-04T1300,2279A,116.8569,32.5949,淮南市,谢家集区政府,细颗粒物(PM2.5),59,49,74,42,45,57,,39,39,32,36,8,9,0.5,0.5
2026-01-04T1300,2280A,116.8279,32.6333,淮南市,八公山区政府,细颗粒物(PM2.5),150,125,70,115,55,67,,51,51,19,24,3,5,0.5,0.5
2026-01-04T1300,2894A,117.0561,32.6536,淮南市,经济技术开发区消防队,细颗粒物(PM2.5),63,64,78,45,56,58,,35,35,28,37,5,5,0.6,0.6
2026-01-04T1300,3329A,117.011,32.5891,淮南市,山南新区,细颗粒物(PM2.5),68,66,71,49,49,58,,45,40,26,24,2,3,0.6,0.6
2026-01-04T1300,4209A,117.003137,32.644456,淮南市,国庆中路369号,细颗粒物(PM2.5),69,,68,50,55,51,,38,38,30,30,6,6,0.7,0.7
2026-01-04T1300,2446A,114.9021,30.474,黄冈市,职工中心,细颗粒物(PM2.5),65,61,53,47,38,41,,56,50,23,19,8,8,1.2,0.7
2026-01-04T1300,2929A,114.8858,30.4519,黄冈市,红卫路,细颗粒物(PM2.5),68,54,52,49,41,46,,57,46,24,24,7,8,0.8,0.6
2026-01-04T1300,3398A,114.9134,30.4446,黄冈市,市林业局,细颗粒物(PM2.5),70,61,52,51,41,43,,59,48,25,23,8,6,1.1,0.8
2026-01-04T1300,2672A,102.02,35.5101,黄南藏族自治州,同仁县隆务镇,细颗粒物(PM2.5),58,,52,41,46,62,,51,51,8,6,11,10,0.4,0.6
2026-01-04T1300,2295A,118.2905,29.6965,黄山市,延安路89号,细颗粒物(PM2.5),78,60,36,57,31,27,,17,17,25,18,4,4,0.7,0.5
2026-01-04T1300,2297A,118.1369,30.2755,黄山市,黄山区政府5号楼,,36,34,36,25,31,32,,20,20,13,15,6,6,0.6,0.6
2026-01-04T1300,4210A,118.335445,29.720283,黄山市,滨江东路7-2号,细颗粒物(PM2.5),118,93,56,89,45,27,,18,17,34,21,/,/,/,/
2026-01-04T1300,2423A,115.0547,30.2332,黄石市,沈家营,,43,40,57,30,35,39,,48,44,22,16,5,7,1.3,1.1
2026-01-04T1300,2426A,114.899,30.211,黄石市,铁山,细颗粒物(PM2.5),93,,52,69,54,34,,45,40,27,18,6,6,0.8,0.6
2026-01-04T1300,2427A,115.0259,30.2108,黄石市,团城山,细颗粒物(PM2.5),59,,58,42,43,38,,50,47,23,18,6,6,1.0,0.7
2026-01-04T1300,3149A,115.0174,30.1591,黄石市,笔架山北路,细颗粒物(PM2.5),74,62,69,54,42,23,,44,39,36,17,6,6,1.4,1
2026-01-04T1300,4185A,115.078022,30.21118,黄石市,磁湖东路29号,细颗粒物(PM2.5),60,,53,43,44,28,,44,37,22,19,6,8,1.0,0.8
2026-01-04T1300,1392A,114.4181,23.0528,惠州市,河南岸金山湖子站,颗粒物(PM10),53,56,49,35,31,81,,33,33,29,28,6,5,0.6,0.7
2026-01-04T1300,1393A,114.4055,23.0824,惠州市,下埔横江三路子站,,47,47,51,27,30,98,,40,40,17,25,8,9,0.6,0.7
2026-01-04T1300,1395A,114.4645,22.7832,惠州市,惠阳区承修路船湖子站,,46,46,53,27,30,104,,54,54,16,26,7,7,0.5,0.6
2026-01-04T1300,1396A,114.5316,22.7423,惠州市,大亚湾管委会子站,,42,42,49,23,27,105,,56,50,12,24,7,6,0.3,0.3
2026-01-04T1300,3314A,114.4334,22.8134,惠州市,惠阳秋长,,44,44,52,26,31,110,,66,66,17,33,/,/,/,/
2026-01-04T1300,3452A,114.6521,22.7755,惠州市,大亚湾霞涌,颗粒物(PM10),53,56,44,34,27,103,,80,80,17,18,/,/,/,/
2026-01-04T1300,4300A,114.4089,23.1147,惠州市,文华一路1号,颗粒物(PM10),52,53,53,33,32,106,,37,37,22,32,/,/,/,/
2026-01-04T1300,2240A,130.9618,45.2926,鸡西市,环保局,,32,32,34,12,22,69,,55,55,2,8,5,6,0.2,0.4
2026-01-04T1300,2243A,130.9294,45.2959,鸡西市,第一中学,,,25,31,,23,70,,59,59,3,8,3,3,0.3,0.4
2026-01-04T1300,3707A,131.0069,45.2988,鸡西市,欧美日汽修厂,,,59,40,,25,68,,57,56,7,10,5,5,0.4,0.5
2026-01-04T1300,2367A,114.9753,27.0803,吉安市,红声器材厂,"颗粒物(PM10),细颗粒物(PM2.5)",59,68,50,42,31,36,,40,30,27,22,14,12,0.7,0.6
2026-01-04T1300,2369A,114.9903,27.1313,吉安市,市环境监测站,细颗粒物(PM2.5),58,61,47,41,32,36,,38,31,22,16,18,14,/,/
2026-01-04T1300,2370A,115.009527,27.096792,吉安市,青原区法院,细颗粒物(PM2.5),60,,44,43,33,36,,42,31,23,18,15,13,0.6,0.5
2026-01-04T1300,1772A,126.54,43.8622,吉林市,哈达湾,细颗粒物(PM2.5),69,62,83,50,63,67,,42,42,18,36,9,12,1.2,1.6
2026-01-04T1300,1773A,126.5843,43.8358,吉林市,东局子,颗粒物(PM10),53,56,83,32,69,58,,27,27,15,38,8,8,1.1,1.8
2026-01-04T1300,1774A,126.5051,43.8243,吉林市,电力学院,,45,35,108,31,90,64,,31,31,14,43,13,15,0.7,1.7
2026-01-04T1300,1775A,126.6133,43.8971,吉林市,江北,细颗粒物(PM2.5),67,64,105,48,82,55,,29,29,20,39,11,9,1.2,1.8
2026-01-04T1300,1776A,126.5549,43.8304,吉林市,江南公园,细颗粒物(PM2.5),57,,89,40,74,59,,26,26,14,39,9,12,0.9,1.6
2026-01-04T1300,2868A,126.4737,43.953,吉林市,九站,细颗粒物(PM2.5),88,88,100,65,80,48,,25,25,32,47,9,11,1.3,1.5
2026-01-04T1300,1299A,116.9866,36.6118,济南市,科干所,细颗粒物(PM2.5),80,95,93,59,64,58,,62,47,40,32,12,8,1.0,0.9
2026-01-04T1300,1300A,116.9379,36.6652,济南市,农科所,细颗粒物(PM2.5),95,83,107,71,82,57,,36,33,35,44,7,8,0.8,1
2026-01-04T1300,1301A,117.1265,36.6736,济南市,开发区,细颗粒物(PM2.5),123,127,111,93,84,24,,41,32,63,42,8,4,0.9,1
2026-01-04T1300,1303A,117.0616,36.6865,济南市,省种子仓库,细颗粒物(PM2.5),113,129,131,85,88,25,,15,15,64,59,12,8,0.8,1
2026-01-04T1300,1304A,116.9495185,36.644937,济南市,机床二厂,细颗粒物(PM2.5),95,88,119,71,93,63,,30,30,31,49,11,20,0.9,1.1
2026-01-04T1300,1305A,117.0496,36.6629,济南市,市监测站,细颗粒物(PM2.5),113,125,103,85,78,22,,27,21,61,41,10,5,0.9,0.9
2026-01-04T1300,1306A,116.7674,36.5458,济南市,长清党校,细颗粒物(PM2.5),110,107,96,83,77,58,,50,43,21,28,10,7,0.8,0.8
2026-01-04T1300,1961A,117.5323,36.6865,济南市,东山小学,细颗粒物(PM2.5),117,117,110,88,84,63,,43,43,33,39,8,5,1.2,1
2026-01-04T1300,3059A,117.7181,36.205,济南市,泰兴公司,细颗粒物(PM2.5),134,117,154,102,129,59,,21,21,42,56,16,8,1.2,1.2
2026-01-04T1300,3064A,117.6861,36.2172,济南市,莱芜战役纪念馆,细颗粒物(PM2.5),135,124,154,103,129,55,,17,17,42,58,22,11,1.7,1.2
2026-01-04T1300,3494A,117.1673,36.9782,济南市,济阳区政府,细颗粒物(PM2.5),211,210,149,161,112,32,,26,26,57,51,30,11,1.5,0.9
2026-01-04T1300,3495A,117.1168,36.6299,济南市,锦屏中学,细颗粒物(PM2.5),104,105,81,78,62,33,,55,52,66,27,8,3,0.8,0.7
2026-01-04T1300,4108A,117.7107,36.2385,济南市,山财大街5号,细颗粒物(PM2.5),118,139,164,89,112,62,,35,35,41,51,18,8,1.8,1.2
2026-01-04T1300,4109A,116.9744,36.6889,济南市,无影山路12号,细颗粒物(PM2.5),107,100,129,80,95,43,,21,14,47,50,9,13,0.8,1.1
2026-01-04T1300,1653A,116.6229,35.4288,济宁市,火炬城,细颗粒物(PM2.5),125,,98,95,97,54,,36,36,20,29,7,7,0.7,0.6
2026-01-04T1300,3500A,116.5808,35.3703,济宁市,北湖一中,细颗粒物(PM2.5),122,,92,92,92,51,,25,24,21,33,6,6,0.7,0.7
2026-01-04T1300,3501A,116.8251,35.5592,济宁市,服务中心,细颗粒物(PM2.5),107,127,130,80,89,46,,23,23,42,48,12,12,0.7,0.7
2026-01-04T1300,3678A,116.5907,35.4054,济宁市,市第七中学,细颗粒物(PM2.5),104,89,104,78,86,56,,29,29,22,38,9,9,0.8,0.8
2026-01-04T1300,4111A,116.6075,35.4566,济宁市,任和路,细颗粒物(PM2.5),127,107,116,96,86,52,,30,30,25,35,8,7,0.8,0.7
2026-01-04T1300,4112A,116.5648,35.3921,济宁市,文体南路1号,细颗粒物(PM2.5),125,117,114,95,88,51,,28,27,20,31,4,5,0.7,0.6
2026-01-04T1300,2255A,130.2749,46.8028,佳木斯市,佳纺,,28,23,37,19,32,56,,45,45,12,18,8,9,0.2,0.3
2026-01-04T1300,2257A,130.3258,46.7975,佳木斯市,环保局,,30,24,38,21,29,66,,50,50,6,18,6,10,0.6,0.6
2026-01-04T1300,4285A,130.363,46.806,佳木斯市,顺和街,,23,23,34,12,26,55,,44,44,10,20,7,10,0.5,0.6
2026-01-04T1300,4286A,130.3952,46.8268,佳木斯市,长安路196号,,23,,31,16,28,65,,58,58,2,10,4,5,0.3,0.4
2026-01-04T1300,1252A,120.7439,30.778,嘉兴市,清河小学,细颗粒物(PM2.5),83,92,100,61,74,33,,18,18,52,77,8,8,0.6,0.7
2026-01-04T1300,1253A,120.7261,30.7477,嘉兴市,嘉兴学院,细颗粒物(PM2.5),93,94,100,69,70,27,,19,19,52,49,9,8,0.9,0.9
2026-01-04T1300,2872A,120.7845,30.7524,嘉兴市,南湖区残联,细颗粒物(PM2.5),85,81,96,63,72,36,,20,20,47,56,6,6,0.7,0.8
2026-01-04T1300,3407A,120.6915,30.7741,嘉兴市,秀洲住建,细颗粒物(PM2.5),118,121,101,89,78,22,,13,13,64,64,9,8,0.7,0.7
2026-01-04T1300,1945A,98.291,39.7705,嘉峪关市,气象局,,39,39,52,19,28,76,,68,68,9,23,23,21,0.4,0.6
2026-01-04T1300,2884A,98.2672,39.7978,嘉峪关市,酒钢宾馆,,35,34,61,24,34,74,,61,61,9,17,16,29,0.6,0.7
2026-01-04T1300,3248A,98.2644,39.7723,嘉峪关市,雄关区,,38,38,45,21,29,76,,64,64,14,28,15,26,0.3,0.5
2026-01-04T1300,1383A,113.1063,22.6058,江门市,北街,颗粒物(PM10),64,77,73,41,47,106,,35,35,42,60,/,/,/,/
2026-01-04T1300,1384A,113.073,22.5835,江门市,西区,细颗粒物(PM2.5),68,81,88,49,48,102,,33,33,45,63,/,/,/,/
2026-01-04T1300,1385A,113.0218,22.531,江门市,圭峰西,颗粒物(PM10),66,82,61,46,42,106,,50,50,44,40,/,/,/,/
2026-01-04T1300,1386A,113.0826,22.5947,江门市,东湖,细颗粒物(PM2.5),70,78,77,51,45,106,,34,34,47,61,10,8,0.5,0.7
2026-01-04T1300,3311A,113.1077,22.5647,江门市,江海富民,颗粒物(PM10),75,100,90,39,40,112,,40,40,44,62,/,/,0.4,0.6
2026-01-04T1300,3449A,113.0496,22.4669,江门市,新会银湖,细颗粒物(PM2.5),59,60,70,42,55,116,,38,38,28,44,8,8,0.6,0.7
2026-01-04T1300,3335A,113.3137,35.2643,焦作市,马村街道办,细颗粒物(PM2.5),149,,126,114,122,34,,31,31,26,34,6,7,1.2,1.2
2026-01-04T1300,3336A,113.2464,35.2374,焦作市,焦作技师学院,细颗粒物(PM2.5),168,155,141,127,116,29,,29,29,34,39,9,10,1.3,1.2
2026-01-04T1300,3477A,113.1656,35.2536,焦作市,中站许衡医院,细颗粒物(PM2.5),168,144,126,127,114,25,,28,27,37,42,6,10,1.4,1.3
2026-01-04T1300,3981A,113.2456,35.18,焦作市,原李万街道办,细颗粒物(PM2.5),149,154,113,114,104,35,,36,36,24,27,4,5,1.1,1.1
2026-01-04T1300,4264A,113.234,35.219,焦作市,新安路1731号,细颗粒物(PM2.5),172,143,131,130,117,28,,31,30,25,26,6,6,1.2,1.1
2026-01-04T1300,4295A,113.2722,35.2121,焦作市,人民路3066号,细颗粒物(PM2.5),139,141,131,106,94,29,,32,31,24,28,6,6,1.1,1
2026-01-04T1300,1708A,116.3701,23.5345,揭阳市,新兴,颗粒物(PM10),55,59,57,26,44,99,,50,50,22,30,10,11,0.6,0.6
2026-01-04T1300,1709A,116.3261,23.5442,揭阳市,西马,颗粒物(PM10),54,57,61,24,39,98,,48,48,17,23,6,7,0.6,0.7
2026-01-04T1300,1710A,116.361,23.5627,揭阳市,东兴,颗粒物(PM10),57,63,60,32,34,92,,42,42,18,28,9,11,/,/
2026-01-04T1300,1711A,116.4151,23.5295,揭阳市,渔湖,颗粒物(PM10),55,60,59,23,36,96,,46,46,22,31,8,6,/,/
2026-01-04T1300,3320A,116.4028,23.5699,揭阳市,曲溪,细颗粒物(PM2.5),54,56,64,38,36,100,,52,52,20,28,5,7,0.5,0.5
2026-01-04T1300,1944A,102.1691,38.5166,金昌市,天庆家园,,29,29,52,16,35,74,,46,46,7,19,4,3,0.5,0.8
2026-01-04T1300,4022A,102.1648,38.5369,金昌市,金川区人防中心,,34,34,50,16,34,76,,54,54,6,16,6,6,0.4,0.7
2026-01-04T1300,4239A,102.193042,38.531887,金昌市,长春路96号,,27,27,50,14,33,74,,43,43,6,22,7,6,0.6,1
2026-01-04T1300,1262A,119.6478,29.0773,金华市,十五中,细颗粒物(PM2.5),108,115,106,81,74,27,,17,17,65,58,5,4,0.8,0.8
2026-01-04T1300,1263A,119.6859,29.1032,金华市,监测站,细颗粒物(PM2.5),114,126,111,86,79,24,,11,11,84,78,4,3,0.9,0.8
2026-01-04T1300,3659A,119.656,29.1132,金华市,气象局,细颗粒物(PM2.5),104,125,109,78,73,12,,9,9,75,62,5,4,0.8,0.8
2026-01-04T1300,1767A,121.1114,41.0879,锦州市,南山,,23,20,77,13,74,71,,27,27,9,41,10,15,0.5,1.5
2026-01-04T1300,1768A,121.060361,40.842794,锦州市,开发区,,45,45,91,17,62,67,,31,31,11,48,8,42,0.4,1.2
2026-01-04T1300,1769A,121.1836,41.1118,锦州市,百股街道,颗粒物(PM10),51,52,84,9,71,70,,24,24,9,44,12,20,0.6,1.4
2026-01-04T1300,1770A,121.1176,41.1224,锦州市,天安街道,,24,21,77,8,64,74,,29,29,10,42,12,19,0.6,1.6
2026-01-04T1300,1771A,121.1303,41.1385,锦州市,北湖公园,,24,24,78,8,64,70,,31,31,7,38,9,19,0.5,1.3
2026-01-04T1300,2160A,112.8496,35.5051,晋城市,自来水公司,细颗粒物(PM2.5),137,110,87,104,75,47,,40,37,19,25,5,7,1.7,1.3
2026-01-04T1300,2162A,112.8509,35.4886,晋城市,市环保局,细颗粒物(PM2.5),132,110,99,100,70,53,,44,43,17,26,5,6,1.7,1.3
2026-01-04T1300,3620A,112.8258,35.4804,晋城市,泽州一中,细颗粒物(PM2.5),140,,82,107,69,59,,50,49,16,22,4,5,1.2,0.8
2026-01-04T1300,4078A,112.8246,35.5152,晋城市,前书院路,细颗粒物(PM2.5),107,126,93,80,53,46,,39,37,18,28,5,5,1.5,1
2026-01-04T1300,4079A,112.8864,35.4773,晋城市,祥云街666号,细颗粒物(PM2.5),129,106,92,98,80,54,,47,46,18,26,5,8,1.4,1
2026-01-04T1300,2174A,112.6992,37.6984,晋中市,榆次区政府,细颗粒物(PM2.5),206,185,196,156,144,32,,11,11,42,67,23,26,1.9,1.8
2026-01-04T1300,2865A,112.7195,37.683,晋中市,榆次三中,细颗粒物(PM2.5),163,173,189,124,127,32,,10,10,38,63,23,28,2.3,1.8
2026-01-04T1300,4080A,112.7375,37.7215,晋中市,广安街188号,细颗粒物(PM2.5),189,190,217,142,143,32,,13,13,49,72,16,20,1.8,1.7
2026-01-04T1300,4200A,112.7478,37.6954,晋中市,迎宾街26号,细颗粒物(PM2.5),168,158,179,127,125,35,,12,12,40,66,24,27,1.9,1.8
2026-01-04T1300,2439A,112.2012,31.048,荆门市,竹园小学,细颗粒物(PM2.5),104,98,112,78,94,34,,14,14,21,30,2,3,0.7,0.5
2026-01-04T1300,2440A,112.1968,30.9892,荆门市,掇刀,细颗粒物(PM2.5),103,85,100,77,84,36,,24,22,16,23,1,3,0.6,0.6
2026-01-04T1300,3012A,112.1849,31.0361,荆门市,西山林语,细颗粒物(PM2.5),98,77,95,73,82,31,,21,19,21,26,4,5,0.8,0.8
2026-01-04T1300,3547A,112.1631,31.0134,荆门市,龙泉中学南校,细颗粒物(PM2.5),110,89,105,83,88,38,,38,28,10,13,6,7,0.4,0.4
2026-01-04T1300,4124A,112.2213,31.0654,荆门市,新台西路6号,细颗粒物(PM2.5),129,104,102,98,92,38,,20,18,24,26,7,8,0.9,0.7
2026-01-04T1300,1844A,112.2493,30.3198,荆州市,市图书馆,细颗粒物(PM2.5),102,,64,76,77,42,,38,36,19,22,6,8,0.8,0.8
2026-01-04T1300,1845A,112.2009,30.3543,荆州市,市委党校,细颗粒物(PM2.5),104,,71,78,73,33,,31,30,19,23,3,5,0.9,0.9
2026-01-04T1300,3194A,112.2749,30.3124,荆州市,管委会,细颗粒物(PM2.5),97,,66,72,77,31,,33,33,26,32,6,7,0.8,0.8
2026-01-04T1300,4268A,112.1722,30.3366,荆州市,学苑路85号,细颗粒物(PM2.5),97,,63,72,65,40,,36,36,20,20,6,13,0.8,0.7
2026-01-04T1300,2343A,117.2114,29.2931,景德镇市,老干部活动中心,细颗粒物(PM2.5),54,44,37,38,30,17,,17,16,30,21,12,8,0.5,0.4
2026-01-04T1300,2344A,117.1893,29.2789,景德镇市,兽医站,,38,38,37,22,27,25,,20,19,27,22,13,10,0.9,0.7
2026-01-04T1300,2346A,117.246,29.2958,景德镇市,陶研所,,36,25,35,25,28,25,,12,12,16,18,4,4,0.3,0.6
2026-01-04T1300,4289A,117.154766,29.256967,景德镇市,青少年活动中心,,45,39,42,31,31,30,,18,17,31,29,14,11,/,/
2026-01-04T1300,1803A,115.9873,29.6816,九江市,十里,细颗粒物(PM2.5),62,58,54,44,48,47,,38,38,31,36,5,6,0.8,0.8
2026-01-04T1300,1804A,115.9583,29.7047,九江市,茅山头,细颗粒物(PM2.5),59,55,54,42,46,47,,42,39,18,26,7,5,0.8,0.8
2026-01-04T1300,1805A,115.9877,29.7295,九江市,西园,"颗粒物(PM10),细颗粒物(PM2.5)",53,55,53,37,37,55,,50,45,30,36,4,3,0.7,0.8
2026-01-04T1300,1808A,115.9112,29.6038,九江市,综合工业园,细颗粒物(PM2.5),84,67,54,62,54,32,,24,24,44,45,3,3,0.8,0.8
2026-01-04T1300,3190A,116.0254,29.6995,九江市,外国语学校,细颗粒物(PM2.5),65,62,52,47,44,39,,34,32,29,31,8,8,0.7,0.8
2026-01-04T1300,4253A,116.010205,29.659402,九江市,莲花大道8号,细颗粒物(PM2.5),80,66,54,59,50,36,,40,31,28,19,4,4,0.5,0.5
2026-01-04T1300,4240A,98.495752,39.733935,酒泉市,玉门东路5号,颗粒物(PM10),58,66,52,31,25,61,,51,44,15,16,38,15,1.1,0.5
2026-01-04T1300,4241A,98.5099,39.7506,酒泉市,北大街108号,颗粒物(PM10),54,58,52,29,25,61,,44,40,20,23,39,15,1.1,0.6
2026-01-04T1300,2698A,76.0071,39.466,喀什地区,巡警大队,细颗粒物(PM2.5),59,59,54,42,38,45,,47,42,15,14,3,3,0.6,0.7
2026-01-04T1300,2699A,75.9756,39.4693,喀什地区,吾办,细颗粒物(PM2.5),68,63,56,49,45,47,,44,40,10,12,6,6,0.7,0.8
2026-01-04T1300,4027A,75.9485,39.4688,喀什地区,老干局,细颗粒物(PM2.5),63,65,60,45,40,36,,46,40,21,12,2,2,0.9,0.9
2026-01-04T1300,1824A,114.3389,34.778,开封市,肿瘤医院,细颗粒物(PM2.5),93,81,102,69,91,49,,23,23,18,25,5,4,1.2,1.3
2026-01-04T1300,1826A,114.2884,34.7966,开封市,世纪星幼儿园,细颗粒物(PM2.5),115,,96,87,107,44,,21,21,22,26,3,2,0.7,0.7
2026-01-04T1300,3147A,114.3434,34.8101,开封市,龙亭公园,细颗粒物(PM2.5),110,85,100,83,107,44,,27,27,21,23,4,3,1.4,1.4
2026-01-04T1300,3210A,114.3645,34.7955,开封市,汴京公园,细颗粒物(PM2.5),94,79,115,70,97,53,,26,26,21,28,5,4,0.8,0.8
2026-01-04T1300,3473A,114.2485,34.8306,开封市,技师学院,细颗粒物(PM2.5),109,,95,82,100,40,,24,24,21,24,6,6,1.0,1
2026-01-04T1300,3592A,114.4518,34.7503,开封市,祥符区生态环境局,细颗粒物(PM2.5),62,53,114,44,90,74,,34,34,12,27,4,3,0.5,0.8
2026-01-04T1300,1951A,84.886,45.6029,克拉玛依市,长征新村,细颗粒物(PM2.5),83,85,86,61,62,40,,27,27,21,30,5,5,0.9,1
2026-01-04T1300,1952A,84.8894,45.5827,克拉玛依市,南林小区,细颗粒物(PM2.5),69,84,84,50,50,39,,24,24,16,24,4,3,1.0,1
2026-01-04T1300,1954A,84.896,44.3328,克拉玛依市,独山子区,颗粒物(PM10),93,136,78,55,41,57,,57,46,42,40,5,5,0.8,0.8
2026-01-04T1300,1955A,85.6888,46.0909,克拉玛依市,乌尔禾区商贸楼,细颗粒物(PM2.5),75,78,78,55,60,25,,28,18,32,27,4,5,1.0,1.1
2026-01-04T1300,3612A,85.1045,45.6895,克拉玛依市,白碱滩区新站,细颗粒物(PM2.5),95,138,118,71,61,13,,10,10,18,17,8,7,0.8,0.7
2026-01-04T1300,2697A,76.1457,39.7143,克孜勒苏柯尔克孜自治州,市人民政府,颗粒物(PM10),55,59,62,37,41,38,,48,41,15,12,5,5,0.3,0.4
2026-01-04T1300,3665A,76.1654,39.7157,克孜勒苏柯尔克孜自治州,克州文化中心,细颗粒物(PM2.5),57,54,50,40,41,42,,47,43,10,9,2,3,0.6,0.6
2026-01-04T1300,1450A,102.8203,24.889,昆明市,呈贡新区,,27,22,22,14,12,85,,59,59,7,15,3,4,0.2,0.3
2026-01-04T1300,1452A,102.7253,25.0904,昆明市,龙泉镇,,26,,22,11,13,82,,44,44,6,19,4,3,0.4,0.5
2026-01-04T1300,1453A,102.7267,25.0378,昆明市,东风东路,,27,27,20,17,16,80,,58,58,14,18,6,5,0.5,0.5
2026-01-04T1300,1454A,102.6744,25.0671,昆明市,金鼎山,,30,30,30,11,17,81,,39,39,4,21,3,3,0.4,0.5
2026-01-04T1300,1455A,102.6643,25.0401,昆明市,碧鸡广场,,25,24,25,17,17,79,,39,39,8,23,5,4,0.6,0.6
2026-01-04T1300,3179A,102.7491,25.012,昆明市,官渡区博物馆,,26,,20,14,15,82,,56,56,9,19,3,4,0.3,0.3
2026-01-04T1300,3375A,102.8016,24.8336,昆明市,青年创业园,,27,14,18,12,12,86,,64,64,2,7,3,4,0.3,0.3
2026-01-04T1300,3550A,102.8,24.9787,昆明市,昆明学院,,27,19,17,12,11,84,,69,69,6,10,2,3,0.5,0.5
2026-01-04T1300,3551A,102.5969,24.6738,昆明市,晋宁区生态环境分局,,24,12,23,9,14,75,,44,44,2,12,2,2,0.4,0.5
2026-01-04T1300,3552A,102.6673,24.9861,昆明市,云天化总部,,27,22,20,14,13,85,,57,57,6,16,5,6,0.4,0.5
2026-01-04T1300,1456A,91.132,29.6515,拉萨市,八廓街,,28,18,19,8,10,88,,76,76,2,5,7,7,0.4,0.5
2026-01-04T1300,1457A,91.1221,29.6748,拉萨市,市环保局,,26,13,15,6,10,81,,70,70,13,12,6,7,0.4,0.5
2026-01-04T1300,1458A,91.0874,29.6476,拉萨市,区监测站,,27,13,12,3,6,86,,72,72,6,12,4,4,0.8,0.8
2026-01-04T1300,1459A,91.1774,29.6541,拉萨市,西藏大学,,28,11,14,3,7,87,,76,74,6,9,4,5,0.2,0.3
2026-01-04T1300,1460A,90.9798,29.6586,拉萨市,区辐射站,,28,28,19,12,10,79,,59,59,15,17,4,4,0.5,0.6
2026-01-04T1300,1461A,91.0831,29.6292,拉萨市,拉萨火车站,,27,25,15,7,7,84,,79,64,10,12,4,4,0.4,0.5
2026-01-04T1300,2520A,109.2203,23.7252,来宾市,来宾技工学校,细颗粒物(PM2.5),75,63,77,55,74,28,,16,13,14,20,10,9,0.7,0.5
2026-01-04T1300,3535A,109.1781,23.7293,来宾市,兴宾区政府,细颗粒物(PM2.5),108,101,76,81,62,32,,19,19,15,20,8,9,0.9,0.7
2026-01-04T1300,4002A,109.2312,23.7428,来宾市,中南小学,细颗粒物(PM2.5),78,64,74,57,71,28,,13,12,15,21,8,8,0.9,0.7
2026-01-04T1300,1479A,103.8309,36.0467,兰州市,铁路设计院,,,,,,,,,,,,,,,,
2026-01-04T1300,3241A,103.7439,36.0841,兰州市,百合公园,细颗粒物(PM2.5),67,57,68,48,53,41,,29,22,36,31,15,8,1.6,1
2026-01-04T1300,3242A,103.9613,35.9985,兰州市,和平,细颗粒物(PM2.5),155,,72,118,74,60,,49,34,21,21,10,4,1.4,1
2026-01-04T1300,4236A,103.629272,36.093822,兰州市,庄浪东路808号,细颗粒物(PM2.5),102,106,75,76,57,48,,46,33,54,32,22,11,1.7,0.8
2026-01-04T1300,4237A,103.7251,36.104344,兰州市,安宁西路88号,细颗粒物(PM2.5),63,74,79,45,52,46,,54,33,44,30,13,5,1.3,0.7
2026-01-04T1300,4238A,103.846982,36.067567,兰州市,北滨河东路1号,细颗粒物(PM2.5),60,56,74,43,55,62,,26,26,24,37,14,8,1.4,1
2026-01-04T1300,1067A,116.6712,39.5109,廊坊市,药材公司,细颗粒物(PM2.5),148,139,125,113,93,17,,6,6,75,71,13,6,1.6,1.3
2026-01-04T1300,1068A,116.7215,39.5592,廊坊市,开发区,细颗粒物(PM2.5),156,157,105,119,71,22,,5,5,72,75,16,5,1.7,1.3
2026-01-04T1300,1070A,116.7246,39.5273,廊坊市,北华航天学院,细颗粒物(PM2.5),158,181,129,120,91,17,,5,5,70,72,17,7,1.7,1.4
2026-01-04T1300,2919A,116.7022,39.5454,廊坊市,河北工业大学,细颗粒物(PM2.5),156,189,128,119,84,19,,5,5,69,74,18,8,1.7,1.3
2026-01-04T1300,2536A,103.7629,29.5844,乐山市,牛耳桥,,38,,26,26,23,14,,16,10,23,24,7,7,0.7,0.6
2026-01-04T1300,2537A,103.7501,29.6002,乐山市,市第三水厂,,39,31,26,27,22,10,,13,8,28,26,6,6,0.8,0.6
2026-01-04T1300,2538A,103.7571,29.5664,乐山市,市监测站,,39,30,23,27,22,15,,13,9,21,22,7,6,0.8,0.7
2026-01-04T1300,3361A,103.7313,29.563,乐山市,理工大学,,35,30,23,24,19,14,,10,9,24,22,5,4,0.7,0.6
2026-01-04T1300,2599A,100.2497,26.8802,丽江市,丽江古城,,29,20,19,11,7,91,,73,73,7,11,7,7,0.5,0.5
2026-01-04T1300,2600A,100.2203,26.8906,丽江市,市中心,,29,14,11,11,9,91,,79,79,8,11,6,6,0.3,0.3
2026-01-04T1300,1267A,119.9141,28.4513,丽水市,监测站大楼,颗粒物(PM10),56,61,51,34,36,44,,24,24,40,35,8,6,0.6,0.7
2026-01-04T1300,1268A,119.93,28.4589,丽水市,莲都小学,颗粒物(PM10),53,56,65,33,46,48,,27,27,43,42,/,/,/,/
2026-01-04T1300,1269A,119.8794,28.4232,丽水市,余庄前,细颗粒物(PM2.5),69,73,56,50,43,44,,22,22,49,30,5,4,0.4,0.4
2026-01-04T1300,1173A,119.1759,34.5885,连云港市,市环境监测站,细颗粒物(PM2.5),89,78,89,66,74,66,,21,21,19,43,15,12,0.8,1
2026-01-04T1300,3000A,119.3577,34.6971,连云港市,德源药业,细颗粒物(PM2.5),92,100,109,68,73,47,,13,13,46,54,5,4,0.5,0.6
2026-01-04T1300,3007A,119.178,34.8442,连云港市,新城一中,细颗粒物(PM2.5),144,126,114,110,99,46,,16,16,41,47,19,16,1.0,0.9
2026-01-04T1300,3008A,119.3607,34.7519,连云港市,胡沟管理处,细颗粒物(PM2.5),73,80,72,53,59,64,,48,46,28,35,13,10,1.1,1
2026-01-04T1300,3009A,119.1478,34.5913,连云港市,矿山设计院,细颗粒物(PM2.5),85,83,92,63,66,63,,39,29,24,38,9,9,0.9,1
2026-01-04T1300,3434A,119.2414,34.6539,连云港市,工贸学校,细颗粒物(PM2.5),105,99,78,79,66,59,,54,48,27,20,15,13,0.6,0.6
2026-01-04T1300,3664A,119.4171,34.734,连云港市,连云街道,细颗粒物(PM2.5),90,91,70,67,55,60,,63,52,39,22,8,8,0.9,0.7
2026-01-04T1300,2573A,102.2629,27.8981,凉山彝族自治州,西昌市政府,,29,29,26,20,12,63,,49,40,14,13,10,10,0.7,0.7
2026-01-04T1300,2574A,102.2686,27.885,凉山彝族自治州,凉山州政府,,37,37,24,15,15,62,,50,40,15,12,11,11,0.7,0.6
2026-01-04T1300,4229A,102.2342,27.8859,凉山彝族自治州,凯乐南路30号,,37,37,27,17,12,63,,50,40,18,15,8,9,0.6,0.7
2026-01-04T1300,2212A,123.1978,41.2036,辽阳市,宏伟区,细颗粒物(PM2.5),90,90,110,67,94,49,,19,19,21,36,12,19,1.0,1.7
2026-01-04T1300,2213A,123.1684,41.2497,辽阳市,新华园,细颗粒物(PM2.5),92,85,107,68,86,48,,19,19,32,51,14,37,1.2,1.7
2026-01-04T1300,2214A,123.2355,41.2663,辽阳市,滨河路,细颗粒物(PM2.5),88,90,109,65,75,47,,23,23,29,46,11,14,0.9,1.3
2026-01-04T1300,4083A,123.153,41.2874,辽阳市,铁西路150号,细颗粒物(PM2.5),107,109,127,80,89,46,,18,18,34,54,16,33,1.6,2
2026-01-04T1300,2227A,125.1359,42.8845,辽源市,环保局,细颗粒物(PM2.5),88,102,143,65,75,59,,22,22,24,42,11,7,1.1,2
2026-01-04T1300,4085A,125.0998,42.9134,辽源市,安宁大街333号,细颗粒物(PM2.5),70,72,100,51,81,62,,28,28,26,40,18,8,0.7,1.3
2026-01-04T1300,1625A,115.9789,36.4372,聊城市,区政府,细颗粒物(PM2.5),132,122,115,100,89,40,,35,31,36,42,14,12,1.1,1
2026-01-04T1300,3200A,115.9772,36.4986,聊城市,监控中心,细颗粒物(PM2.5),144,127,114,110,100,46,,42,34,35,37,13,11,0.8,0.8
2026-01-04T1300,3513A,116.0443,36.436,聊城市,九州社区,细颗粒物(PM2.5),132,131,124,100,93,,,34,33,28,33,3,3,0.8,0.7
2026-01-04T1300,4018A,116.0564,36.4609,聊城市,星美广场,细颗粒物(PM2.5),134,141,132,102,98,42,,32,28,28,30,5,4,0.9,0.8
2026-01-04T1300,4113A,116.0091,36.4495,聊城市,利民路,细颗粒物(PM2.5),145,134,123,111,99,37,,33,33,37,39,11,11,0.8,0.7
2026-01-04T1300,2632A,94.3683,29.6373,林芝市,林芝监测站,,25,10,8,3,6,78,,73,64,3,3,4,4,0.3,0.3
2026-01-04T1300,2633A,94.3616,29.6634,林芝市,林芝人民医院,,22,8,11,3,6,69,,67,57,6,4,5,6,0.4,0.3
2026-01-04T1300,2603A,100.0779,23.8981,临沧市,市环保局,,43,36,22,30,35,73,,33,33,4,5,6,5,0.4,0.4
2026-01-04T1300,2604A,100.0894,23.882,临沧市,市气象局,,35,35,26,21,19,73,,32,32,6,8,5,5,0.4,0.5
2026-01-04T1300,1733A,111.5552,36.0791,临汾市,临钢医院,细颗粒物(PM2.5),284,274,270,234,205,33,,18,18,31,41,6,6,2.9,3.3
2026-01-04T1300,1734A,111.4984,36.0734,临汾市,技工学校,细颗粒物(PM2.5),277,262,249,227,193,28,,13,13,32,44,6,7,3.1,3.5
2026-01-04T1300,1736A,111.5017,36.0857,临汾市,市委,细颗粒物(PM2.5),285,299,276,235,202,33,,14,14,36,50,8,8,2.9,3.3
2026-01-04T1300,3018A,111.5048,36.1015,临汾市,唐尧大酒店,细颗粒物(PM2.5),277,248,240,227,192,33,,13,13,31,47,3,4,3.0,3.4
2026-01-04T1300,4244A,111.4879,36.053,临汾市,启星学校,细颗粒物(PM2.5),244,228,228,194,174,29,,14,14,38,53,6,5,3.1,3.5
2026-01-04T1300,4271A,103.2464,35.6123,临夏回族自治州,滨河东路1号,细颗粒物(PM2.5),93,115,105,69,76,60,,30,30,13,25,5,5,0.7,1.1
2026-01-04T1300,4310A,103.207136,35.599807,临夏回族自治州,新华街21号,细颗粒物(PM2.5),94,93,84,70,67,53,,29,29,14,22,8,8,0.9,1
2026-01-04T1300,1618A,118.3429,35.0532,临沂市,沂河小区,细颗粒物(PM2.5),175,144,148,132,131,40,,14,14,76,66,18,22,1.2,1.2
2026-01-04T1300,1619A,118.2962,35.0568,临沂市,鲁南制药厂,细颗粒物(PM2.5),166,149,163,126,132,27,,9,9,83,73,22,31,1.0,1.3
2026-01-04T1300,1620A,118.2793,34.9976,临沂市,新光毛纺厂,细颗粒物(PM2.5),175,151,151,132,125,36,,14,14,74,61,26,31,1.2,1.2
2026-01-04T1300,1621A,118.3955,35.0889,临沂市,河东保险公司,细颗粒物(PM2.5),147,139,155,112,117,39,,13,13,63,58,18,15,0.9,1.3
2026-01-04T1300,3370A,118.3563,35.0215,临沂市,十里堡居委,细颗粒物(PM2.5),153,163,156,117,117,45,,18,18,77,71,22,30,1.4,1.4
2026-01-04T1300,3496A,118.359,35.1067,临沂市,南坊新区,细颗粒物(PM2.5),153,146,131,117,108,36,,16,9,76,57,17,15,,1.1
2026-01-04T1300,3860A,118.3915,35.0297,临沂市,皇山花园小区,细颗粒物(PM2.5),142,146,148,108,107,54,,24,24,74,70,22,27,1.3,1.2
2026-01-04T1300,1870A,109.4854,24.3898,柳州市,柳东小学,细颗粒物(PM2.5),105,81,58,79,53,21,,18,18,23,16,8,9,1.0,0.8
2026-01-04T1300,1871A,109.4109,24.3304,柳州市,环保监测站,细颗粒物(PM2.5),85,82,64,63,50,18,,16,16,28,21,5,7,0.8,0.7
2026-01-04T1300,1872A,109.3886,24.3408,柳州市,河西水厂,细颗粒物(PM2.5),108,106,74,81,59,13,,17,15,31,24,10,11,1.1,0.6
2026-01-04T1300,1873A,109.4263,24.2951,柳州市,市四中,细颗粒物(PM2.5),75,72,53,55,40,22,,19,18,26,22,9,11,0.9,0.7
2026-01-04T1300,1874A,109.396,24.3658,柳州市,市九中,细颗粒物(PM2.5),85,72,66,63,57,16,,15,15,24,24,8,11,0.9,0.8
2026-01-04T1300,1875A,109.4912,24.3164,柳州市,古亭山,细颗粒物(PM2.5),117,88,52,88,45,29,,20,20,19,16,9,10,0.9,0.7
2026-01-04T1300,3402A,109.5422,24.3994,柳州市,市二中,细颗粒物(PM2.5),169,159,52,128,47,22,,18,18,31,18,8,8,1.0,0.6
2026-01-04T1300,2307A,116.5078,31.7369,六安市,监测大楼,细颗粒物(PM2.5),69,52,59,50,52,46,,45,37,24,24,2,3,0.5,0.6
2026-01-04T1300,2308A,116.4738,31.7642,六安市,皖西学院,细颗粒物(PM2.5),72,64,67,52,53,50,,49,35,21,24,4,4,0.5,0.6
2026-01-04T1300,2309A,116.4997,31.7904,六安市,朝阳厂,细颗粒物(PM2.5),69,51,60,50,51,51,,45,34,25,29,5,5,0.5,0.6
2026-01-04T1300,2310A,116.5566,31.7885,六安市,开发区,细颗粒物(PM2.5),72,63,70,52,54,42,,42,28,28,29,1,1,0.5,0.5
2026-01-04T1300,2577A,104.8293,26.592,六盘水市,黄土坡,,16,16,15,6,12,32,,28,28,11,14,13,9,1.0,0.8
2026-01-04T1300,2579A,104.8481,26.5898,六盘水市,民中,,13,13,15,7,10,30,,25,25,9,14,4,4,0.7,0.7
2026-01-04T1300,2580A,104.9541,26.5506,六盘水市,双水,,22,22,11,3,7,35,,30,30,8,11,3,3,0.5,0.5
2026-01-04T1300,4151A,104.8899,26.5685,六盘水市,钟山大道中段564号,,20,20,19,11,10,31,,26,26,10,12,5,5,0.9,0.9
2026-01-04T1300,2336A,117.022,25.1031,龙岩市,龙岩市监测站,,46,46,32,19,22,85,,42,42,18,26,12,22,0.5,0.5
2026-01-04T1300,2337A,117.0257,25.0662,龙岩市,闽西职业技术学院,,45,45,37,22,21,85,,41,41,16,21,9,13,0.5,0.5
2026-01-04T1300,2338A,117.0195,25.0306,龙岩市,龙岩学院,,46,46,30,13,21,81,,42,42,13,15,11,9,/,/
2026-01-04T1300,2885A,104.9344,33.3827,陇南市,滨江中学,细颗粒物(PM2.5),59,59,64,42,36,65,,53,51,16,24,6,8,0.9,1.1
2026-01-04T1300,3247A,104.9551,33.3709,陇南市,市总工会,细颗粒物(PM2.5),65,70,70,47,35,26,,48,36,12,24,3,4,0.7,0.9
2026-01-04T1300,2488A,111.9984,27.7346,娄底市,市监测站,细颗粒物(PM2.5),57,46,57,40,46,27,,30,28,17,16,4,5,0.8,0.6
2026-01-04T1300,2491A,111.9888,27.7035,娄底市,市政府,细颗粒物(PM2.5),57,,49,40,50,27,,30,25,13,13,5,5,0.6,0.5
2026-01-04T1300,4127A,111.9812,27.7591,娄底市,涟钢职大,颗粒物(PM10),52,54,58,29,45,24,,27,22,21,17,6,4,0.7,0.5
2026-01-04T1300,4128A,112.0303,27.7457,娄底市,娄底体校,,46,,53,32,46,25,,28,25,13,14,2,2,0.7,0.6
2026-01-04T1300,1894A,105.4427,28.9063,泸州市,小市上码头,,43,43,47,27,30,38,,19,19,11,17,7,7,0.8,0.8
2026-01-04T1300,1895A,105.4241,28.8573,泸州市,兰田宪桥,,40,40,40,25,29,30,,18,18,13,18,7,7,0.9,0.9
2026-01-04T1300,1896A,105.4378,28.8833,泸州市,市环监站,,38,37,41,26,29,36,,20,20,17,21,7,8,0.6,0.6
2026-01-04T1300,4272A,105.3689,28.7783,泸州市,纳溪中医医院,细颗粒物(PM2.5),52,49,46,36,34,33,,20,20,10,16,7,7,0.8,0.8
2026-01-04T1300,2183A,111.1447,37.5212,吕梁市,环保局,颗粒物(PM10),72,94,106,47,45,20,,10,10,44,51,18,13,0.9,0.8
2026-01-04T1300,2185A,111.1285,37.5338,吕梁市,自来水公司,"颗粒物(PM10),细颗粒物(PM2.5)",67,84,122,48,46,19,,8,8,44,49,18,15,1.0,1
2026-01-04T1300,2867A,111.1225,37.5093,吕梁市,马茂庄小学,颗粒物(PM10),79,108,122,50,45,19,,6,6,43,54,19,15,0.9,0.9
2026-01-04T1300,1812A,112.3934,34.6517,洛阳市,市委党校,细颗粒物(PM2.5),77,57,87,56,78,55,,49,41,22,26,13,10,0.7,0.9
2026-01-04T1300,1815A,112.494,34.6883,洛阳市,河南林校,细颗粒物(PM2.5),97,82,94,72,91,43,,45,34,26,27,17,11,1.0,1
2026-01-04T1300,1816A,112.3843,34.623,洛阳市,开发区管委会,细颗粒物(PM2.5),84,62,94,62,85,57,,48,42,15,22,10,9,0.7,0.9
2026-01-04T1300,1817A,112.4263,34.6249,洛阳市,市委新办公区,细颗粒物(PM2.5),78,79,99,57,88,57,,50,43,19,23,13,10,0.8,0.9
2026-01-04T1300,3340A,112.6005,34.6323,洛阳市,伊滨,细颗粒物(PM2.5),100,77,99,75,85,45,,50,42,31,28,11,8,1.1,1
2026-01-04T1300,3341A,112.495,34.6338,洛阳市,中移产业园,细颗粒物(PM2.5),89,68,88,66,89,47,,47,37,31,34,13,10,0.9,0.9
2026-01-04T1300,3593A,112.5736,34.8993,洛阳市,吉利监测站,细颗粒物(PM2.5),127,98,90,96,96,49,,55,48,27,31,9,8,1.4,1.1
2026-01-04T1300,3635A,112.3678,34.6623,洛阳市,河科大西苑校区,细颗粒物(PM2.5),74,54,91,54,79,56,,47,40,22,28,12,10,0.7,0.9
2026-01-04T1300,3636A,112.4387,34.678,洛阳市,英才小学,细颗粒物(PM2.5),90,,97,67,92,58,,52,42,30,35,16,12,0.9,1
2026-01-04T1300,4214A,112.460027,34.694929,洛阳市,春都路1号院,细颗粒物(PM2.5),75,86,109,55,77,43,,41,31,19,23,15,11,1.0,1.1
2026-01-04T1300,2399A,114.051,33.5721,漯河市,三五一五工厂,细颗粒物(PM2.5),100,102,113,75,88,61,,38,38,10,22,9,7,1.0,1
2026-01-04T1300,2400A,114.0055,33.5698,漯河市,漯河大学,细颗粒物(PM2.5),89,74,90,66,82,64,,40,40,17,24,8,6,0.8,0.8
2026-01-04T1300,2401A,114.0134,33.5826,漯河市,市水利局,细颗粒物(PM2.5),92,73,90,68,83,57,,38,38,17,22,8,7,0.9,0.9
2026-01-04T1300,2402A,114.0261,33.5697,漯河市,市广电局,细颗粒物(PM2.5),97,,90,72,86,65,,42,42,10,18,9,7,0.8,0.8
2026-01-04T1300,3478A,113.9691,33.568,漯河市,市图书馆,细颗粒物(PM2.5),92,84,103,68,88,57,,41,41,15,20,7,5,1.1,1
2026-01-04T1300,4250A,114.089259,33.588274,漯河市,韶山路11号,细颗粒物(PM2.5),103,91,105,77,85,52,,35,35,16,22,7,7,0.7,0.7
2026-01-04T1300,1798A,118.5084,31.6838,马鞍山市,湖东路四小,细颗粒物(PM2.5),123,149,96,93,69,10,,22,16,65,46,16,6,1.9,0.8
2026-01-04T1300,1799A,118.5019,31.6449,马鞍山市,开发区,细颗粒物(PM2.5),155,139,104,118,87,8,,19,12,63,45,11,7,1.2,0.7
2026-01-04T1300,3633A,118.4914,31.681,马鞍山市,雨山,细颗粒物(PM2.5),124,144,97,94,74,10,,28,18,68,43,19,9,1.8,0.8
2026-01-04T1300,4191A,118.527362,31.722269,马鞍山市,慈湖高新区,细颗粒物(PM2.5),153,164,102,117,84,5,,15,12,76,46,16,7,1.7,0.7
2026-01-04T1300,1686A,111.0285,21.469,茂名市,电白南海,颗粒物(PM10),54,58,56,17,29,111,,77,77,14,17,9,18,0.5,0.5
2026-01-04T1300,1687A,110.9294,21.6533,茂名市,茂石化七小,,48,48,50,27,24,111,,84,84,13,18,7,7,0.3,0.4
2026-01-04T1300,1688A,110.9108,21.6688,茂名市,健康路,,44,44,44,24,26,122,,94,94,17,20,10,9,0.7,0.7
2026-01-04T1300,1689A,110.8592,21.6826,茂名市,高岭,颗粒物(PM10),57,63,65,19,25,126,,75,74,13,21,13,15,/,/
2026-01-04T1300,3450A,111.0101,21.5165,茂名市,电白水东,,44,44,48,19,25,105,,79,79,8,16,8,24,/,/
2026-01-04T1300,2540A,103.8414,30.0871,眉山市,气象局,,42,31,30,29,18,37,,11,11,33,27,9,8,0.9,0.8
2026-01-04T1300,3148A,103.829,30.0563,眉山市,区人社局,,42,40,29,29,13,34,,9,9,24,25,7,6,0.8,0.8
2026-01-04T1300,4148A,103.8836,30.0695,眉山市,眉职院,,31,31,20,20,11,34,,11,11,20,20,2,1,0.8,0.7
2026-01-04T1300,1690A,116.1248,24.3307,梅州市,梅江月梅,,48,48,39,31,23,72,,29,29,20,28,/,/,/,/
2026-01-04T1300,1691A,116.0798,24.2719,梅州市,梅县新城,,46,46,38,31,28,77,,28,28,22,31,8,8,0.5,0.5
2026-01-04T1300,3315A,116.1234,24.2994,梅州市,梅龙,,41,41,40,27,26,72,,30,30,18,28,10,10,0.5,0.6
2026-01-04T1300,1878A,104.7775,31.4741,绵阳市,富乐山,,46,43,26,32,23,35,,8,8,12,16,11,11,0.8,0.8
2026-01-04T1300,1880A,104.6698,31.4668,绵阳市,高新区自来水公司,,40,40,33,27,27,26,,6,6,21,27,9,8,0.8,0.8
2026-01-04T1300,3491A,104.6899,31.5324,绵阳市,西科大附属小学,细颗粒物(PM2.5),54,46,33,38,25,21,,6,6,23,20,8,8,1.3,1.3
2026-01-04T1300,3492A,104.5647,31.5343,绵阳市,安州区旅游局,,42,,28,29,26,26,,9,8,19,19,13,11,0.8,0.7
2026-01-04T1300,4146A,104.7092,31.4972,绵阳市,科技城新区公安局,,49,40,29,34,24,24,,10,5,21,21,4,4,0.8,0.8
2026-01-04T1300,4226A,104.765114,31.453094,绵阳市,绵阳市气象局,,48,,31,33,25,27,,6,6,17,23,11,10,0.9,0.9
2026-01-04T1300,1784A,129.61,44.561,牡丹江市,环保大楼,,39,39,50,22,34,68,,45,45,9,25,7,12,0.7,1
2026-01-04T1300,1787A,129.6364,44.6075,牡丹江市,机车工厂,,37,37,67,11,39,70,,33,33,7,26,1,8,0.3,0.6
2026-01-04T1300,1788A,129.6386,44.5462,牡丹江市,第一中学,,36,33,50,25,36,65,,39,39,6,28,4,7,0.4,0.7
2026-01-04T1300,4287A,129.5992,44.5964,牡丹江市,东晓云街98号,,45,36,54,31,40,68,,31,31,7,26,3,5,0.4,0.8
2026-01-04T1300,2531A,105.0703,29.61,内江市,市监测站,,46,33,41,32,33,33,,32,26,20,16,4,4,0.6,0.5
2026-01-04T1300,2533A,105.0657,29.5807,内江市,内江二中,,40,35,49,28,32,24,,26,20,24,20,4,4,0.8,0.8
2026-01-04T1300,2534A,105.0407,29.5828,内江市,内江日报社,,,,36,27,32,28,,26,24,21,21,,2,0.6,0.5
2026-01-04T1300,4147A,105.0433,29.6105,内江市,玉峰路西段888号,,36,36,42,23,30,34,,33,28,18,14,3,3,0.6,0.6
2026-01-04T1300,2628A,92.0653,31.4846,那曲市,那曲监测站,细颗粒物(PM2.5),83,83,45,61,28,75,,44,44,24,24,13,10,1.0,1.3
2026-01-04T1300,4243A,92.0515,31.4787,那曲市,那曲市委宣传部,,24,24,26,14,14,72,,36,36,14,13,5,5,0.7,0.9
2026-01-04T1300,1291A,115.8887,28.7006,南昌市,省林业公司,细颗粒物(PM2.5),64,,47,46,45,44,,34,34,26,27,4,6,1.2,1
2026-01-04T1300,1292A,115.813,28.7443,南昌市,林科所,细颗粒物(PM2.5),52,44,43,36,35,37,,25,25,26,32,5,6,0.7,0.6
2026-01-04T1300,1294A,115.8518,28.687,南昌市,建工学校,细颗粒物(PM2.5),64,53,56,46,46,39,,35,33,28,33,13,15,0.7,0.6
2026-01-04T1300,1295A,115.8926,28.6425,南昌市,象湖,细颗粒物(PM2.5),62,,49,44,46,45,,30,30,26,32,10,12,0.8,0.9
2026-01-04T1300,3046A,115.9084,28.6062,南昌市,机电学校,细颗粒物(PM2.5),64,57,62,46,48,54,,28,28,24,32,5,6,0.6,0.7
2026-01-04T1300,3690A,115.9718,28.7032,南昌市,外国语学校,细颗粒物(PM2.5),74,57,56,54,49,31,,30,30,41,30,13,13,0.6,0.6
2026-01-04T1300,4106A,115.7923,28.6873,南昌市,工业二路,细颗粒物(PM2.5),67,56,54,48,43,34,,25,22,25,28,5,6,0.5,0.4
2026-01-04T1300,4192A,115.931587,28.686774,南昌市,南京东路235号,细颗粒物(PM2.5),59,50,51,42,50,54,,39,39,29,35,6,7,0.4,0.3
2026-01-04T1300,1906A,106.0791,30.8022,南充市,南充市委,细颗粒物(PM2.5),52,36,34,36,31,23,,14,14,14,21,4,4,0.7,0.6
2026-01-04T1300,1907A,106.1038,30.8215,南充市,南充炼油厂,细颗粒物(PM2.5),52,46,47,36,38,24,,17,16,13,18,5,6,0.5,0.5
2026-01-04T1300,4227A,106.108336,30.788436,南充市,梨树横街98号,,37,37,35,25,30,30,,28,22,16,21,5,5,0.7,0.6
2026-01-04T1300,4304A,106.1172,30.843,南充市,清泉寺北路188号,,43,,28,30,30,27,,18,12,11,16,6,6,0.8,0.8
2026-01-04T1300,4305A,106.067,30.7616,南充市,同庆路1号,,39,37,38,27,33,31,,12,12,12,22,5,5,0.5,0.6
2026-01-04T1300,1151A,118.8033,32.1085,南京市,迈皋桥,细颗粒物(PM2.5),94,106,77,70,57,24,,31,25,55,38,4,4,1.0,0.9
2026-01-04T1300,1152A,118.7487,32.057,南京市,草场门,细颗粒物(PM2.5),107,119,82,80,61,15,,25,22,65,48,8,7,0.6,0.6
2026-01-04T1300,1154A,118.770105,32.004342,南京市,中华门,细颗粒物(PM2.5),113,112,75,85,61,12,,23,11,65,41,5,4,0.9,0.7
2026-01-04T1300,1155A,118.8059,32.0329,南京市,瑞金路,细颗粒物(PM2.5),119,119,79,90,64,13,,28,19,112,68,4,4,1.0,0.9
2026-01-04T1300,1156A,118.7946,32.0774,南京市,玄武湖,细颗粒物(PM2.5),112,118,77,84,57,13,,27,20,38,24,4,4,0.8,0.6
2026-01-04T1300,1157A,118.6415,32.0964,南京市,浦口,细颗粒物(PM2.5),100,105,81,75,58,19,,30,14,56,47,9,9,1.1,0.9
2026-01-04T1300,1158A,118.730129,32.000956,南京市,奥体中心,细颗粒物(PM2.5),117,110,81,88,62,23,,36,22,76,53,8,7,0.8,0.7
2026-01-04T1300,1159A,118.9072,32.1047,南京市,仙林大学城,细颗粒物(PM2.5),119,114,80,90,59,18,,33,19,60,35,8,7,1.0,0.9
2026-01-04T1300,3422A,118.8443,31.919,南京市,江宁彩虹桥,细颗粒物(PM2.5),113,126,82,85,65,14,,20,11,60,43,4,4,0.7,0.6
2026-01-04T1300,3427A,118.8497,32.3599,南京市,六合雄州,细颗粒物(PM2.5),94,111,78,70,54,32,,14,14,50,49,10,10,0.8,0.7
2026-01-04T1300,4086A,118.7641,32.0841,南京市,新模范马路66号,细颗粒物(PM2.5),115,137,88,87,63,10,,29,18,68,41,7,7,1.2,1
2026-01-04T1300,4249A,118.8707617,31.34017673,南京市,汶溪路181号,细颗粒物(PM2.5),133,114,92,101,88,40,,31,31,41,42,8,6,0.7,0.7
2026-01-04T1300,4312A,119.019,31.6512,南京市,中山西路1号,细颗粒物(PM2.5),122,97,78,92,79,20,,20,10,48,37,4,4,0.8,0.8
2026-01-04T1300,1401A,108.3098,22.788,南宁市,二十一中,细颗粒物(PM2.5),78,,52,57,47,40,,27,27,28,25,7,6,0.9,0.9
2026-01-04T1300,1402A,108.3135,22.8529,南宁市,北湖,细颗粒物(PM2.5),70,53,53,51,46,52,,40,40,30,26,7,6,0.8,0.8
2026-01-04T1300,1403A,108.3205,22.8222,南宁市,市监测站,细颗粒物(PM2.5),63,51,52,45,35,45,,28,28,24,23,10,8,0.8,0.8
2026-01-04T1300,1404A,108.3828,22.8038,南宁市,大自然花园,细颗粒物(PM2.5),72,73,58,52,41,54,,31,31,25,30,8,7,0.8,0.8
2026-01-04T1300,1406A,108.2397,22.8462,南宁市,区农职院,细颗粒物(PM2.5),68,52,54,49,43,43,,30,30,32,28,10,9,0.9,0.9
2026-01-04T1300,1407A,108.3285,22.7356,南宁市,英华嘉园,细颗粒物(PM2.5),87,91,58,64,52,49,,31,30,22,21,7,5,0.8,0.7
2026-01-04T1300,3401A,108.4829,22.762,南宁市,红星社区,细颗粒物(PM2.5),69,76,54,50,43,62,,36,36,18,19,10,7,0.8,0.8
2026-01-04T1300,4132A,108.2927,23.1477,南宁市,起凤路9号,细颗粒物(PM2.5),89,72,49,66,44,19,,14,12,15,14,3,3,0.9,0.8
2026-01-04T1300,4221A,108.2177,22.7774,南宁市,乐贤路16号,细颗粒物(PM2.5),63,71,66,45,39,45,,23,23,20,24,6,6,0.7,0.7
2026-01-04T1300,2332A,118.1682,26.6371,南平市,南平市监测站,,23,22,26,12,19,71,,37,37,10,18,6,6,0.5,0.5
2026-01-04T1300,2334A,118.1757,26.6276,南平市,南平七中,,34,34,25,10,17,73,,39,39,9,16,6,6,0.4,0.5
2026-01-04T1300,1168A,120.9056,31.9669,南通市,狼山街道,细颗粒物(PM2.5),72,66,80,52,63,35,,11,11,37,58,6,5,0.8,1.3
2026-01-04T1300,1170A,120.8635,32.0231,南通市,城中,细颗粒物(PM2.5),63,65,89,45,59,33,,11,11,42,71,7,10,0.5,1.2
2026-01-04T1300,1171A,120.9376,31.9301,南通市,星湖花园,细颗粒物(PM2.5),87,85,77,64,58,35,,16,16,41,59,8,8,1.0,1.5
2026-01-04T1300,1172A,120.8053,32.046,南通市,紫琅学院,细颗粒物(PM2.5),67,67,93,48,61,34,,9,9,43,72,8,10,0.7,1.3
2026-01-04T1300,3291A,121.0631,32.0644,南通市,通州监测站,,45,39,72,31,56,48,,24,24,35,55,7,7,0.7,1
2026-01-04T1300,3432A,120.9348,31.9874,南通市,环境教育馆,细颗粒物(PM2.5),70,66,81,51,62,35,,11,11,44,72,8,8,0.7,1.2
2026-01-04T1300,4091A,120.8692,31.9885,南通市,洪江路,细颗粒物(PM2.5),77,82,87,56,63,30,,10,10,46,73,7,7,0.4,0.9
2026-01-04T1300,2404A,112.5338,33.0086,南阳市,瓦房庄,细颗粒物(PM2.5),105,83,104,79,100,44,,39,31,13,15,6,6,0.8,0.8
2026-01-04T1300,2405A,112.5002,32.9734,南阳市,汉画馆,细颗粒物(PM2.5),112,,108,84,100,45,,32,28,11,18,6,6,0.9,0.9
2026-01-04T1300,2406A,112.5778,33.0144,南阳市,气象站,细颗粒物(PM2.5),110,94,113,83,94,44,,41,30,14,16,5,5,0.8,0.8
2026-01-04T1300,2407A,112.548,32.9687,南阳市,理工学院,细颗粒物(PM2.5),79,78,99,58,83,47,,40,31,9,16,4,5,1.0,1
2026-01-04T1300,4008A,112.5233,32.9921,南阳市,卧龙区政府,细颗粒物(PM2.5),108,87,119,81,98,41,,37,31,14,16,5,5,0.8,0.8
2026-01-04T1300,1234A,121.8352,29.9111,宁波市,区环保大楼,,22,22,56,14,34,70,,30,30,20,57,6,6,0.6,0.9
2026-01-04T1300,1235A,121.5595,29.8208,宁波市,万里学院,,42,42,71,26,49,68,,29,29,21,52,6,5,0.4,0.6
2026-01-04T1300,1236A,121.713,29.9564,宁波市,龙赛医院,颗粒物(PM10),62,74,79,42,48,34,,22,22,60,58,7,5,0.6,0.7
2026-01-04T1300,1240A,121.5855,29.8635,宁波市,太古小学,,35,35,71,21,41,66,,29,29,18,50,3,3,0.4,0.7
2026-01-04T1300,1241A,121.5239,29.8673,宁波市,市环境监测中心,,44,44,67,17,48,61,,24,24,17,47,7,7,0.6,0.8
2026-01-04T1300,2871A,121.6156,29.9015,宁波市,万里国际学校,,41,41,66,20,48,69,,28,28,17,56,4,5,0.4,0.6
2026-01-04T1300,3710A,121.5593,29.8976,宁波市,白沙活动中心,,44,44,63,24,48,64,,26,26,24,57,6,5,0.5,0.8
2026-01-04T1300,4095A,121.8962,29.7529,宁波市,中科路88号,,25,16,41,9,31,80,,48,48,5,31,5,5,0.6,0.8
2026-01-04T1300,2341A,119.5387,26.6611,宁德市,宁德市监测站,,42,42,29,22,22,58,,44,42,28,20,7,7,0.7,0.6
2026-01-04T1300,3209A,119.5231,26.6562,宁德市,宁德一中,,43,39,29,30,23,64,,51,48,22,15,6,6,0.7,0.7
2026-01-04T1300,2618A,98.859,25.8541,怒江傈僳族自治州,州监测站,,22,22,28,15,22,60,,30,30,6,10,6,6,0.4,0.4
2026-01-04T1300,2619A,98.8607,25.8168,怒江傈僳族自治州,泸水一中,,43,,22,30,18,52,,21,21,8,12,5,6,0.4,0.5
2026-01-04T1300,1888A,101.6891,26.571,攀枝花市,弄弄坪,,29,21,35,20,17,75,,32,31,21,23,10,18,0.7,1.3
2026-01-04T1300,1889A,101.577,26.5914,攀枝花市,河门口,,45,45,39,21,17,68,,24,24,20,22,31,16,1.6,0.8
2026-01-04T1300,1891A,101.7365,26.4986,攀枝花市,仁和,,39,39,26,23,14,79,,39,39,19,16,20,9,0.9,0.6
2026-01-04T1300,2835A,101.7222,26.567,攀枝花市,四十中小,,32,32,30,19,17,77,,28,28,13,23,18,12,0.8,0.9
2026-01-04T1300,1604A,122.0303,41.1489,盘锦市,开发区,,38,38,81,21,71,64,,22,22,9,34,6,9,0.5,1.3
2026-01-04T1300,1605A,122.0486,41.0883,盘锦市,兴隆台,,,47,70,25,56,65,,15,15,19,55,8,10,,1.5
2026-01-04T1300,1606A,121.8297,41.1026,盘锦市,新生街道,,46,46,66,17,52,67,,23,23,19,45,8,9,0.4,0.9
2026-01-04T1300,1832A,113.3257,33.7423,平顶山市,新华旅馆,细颗粒物(PM2.5),80,70,103,59,86,55,,46,46,14,19,8,6,0.7,0.7
2026-01-04T1300,1833A,113.2917,33.737,平顶山市,规划设计院,,,74,112,56,88,55,,42,42,22,25,,5,0.7,0.9
2026-01-04T1300,1834A,113.182,33.7738,平顶山市,平顶山工学院,细颗粒物(PM2.5),70,55,88,51,80,60,,52,52,16,17,8,6,0.5,0.5
2026-01-04T1300,3594A,112.8736,33.9068,平顶山市,石龙区,细颗粒物(PM2.5),67,52,93,48,81,66,,50,50,17,28,7,6,0.8,1
2026-01-04T1300,4116A,113.284,33.7139,平顶山市,姚电大道23号,细颗粒物(PM2.5),74,75,115,54,93,57,,47,47,14,18,11,8,0.9,1
2026-01-04T1300,2656A,106.6633,35.5338,平凉市,聚贤嘉苑,,30,28,54,20,41,94,,70,70,4,12,10,8,0.6,0.8
2026-01-04T1300,2657A,106.7021,35.5307,平凉市,博物馆,,36,32,58,25,46,93,,68,68,7,15,9,9,0.6,0.8
2026-01-04T1300,2348A,113.8384,27.6436,萍乡市,中医院,细颗粒物(PM2.5),83,85,66,61,48,28,,43,31,28,21,4,6,1.2,0.8
2026-01-04T1300,2350A,113.8677,27.6438,萍乡市,市环保局,细颗粒物(PM2.5),84,64,59,62,51,36,,49,38,25,20,12,15,0.7,0.3
2026-01-04T1300,2351A,113.8663,27.6202,萍乡市,安源区政府,细颗粒物(PM2.5),98,83,68,73,51,19,,29,22,26,24,9,12,1.5,1
2026-01-04T1300,4107A,113.8686,27.6668,萍乡市,联洪村委会,细颗粒物(PM2.5),88,83,62,65,46,28,,42,33,38,22,5,7,0.8,0.8
2026-01-04T1300,2319A,119.0142,25.4324,莆田市,荔城区仓后路,,41,41,34,13,16,95,,63,62,12,15,/,/,/,/
2026-01-04T1300,2320A,119.0016,25.4553,莆田市,莆田市监测站,,32,29,24,12,12,100,,79,79,9,8,4,3,0.5,0.5
2026-01-04T1300,2321A,119.112,25.4561,莆田市,涵江区六中,,39,39,30,13,15,86,,63,63,14,15,/,/,0.5,0.5
2026-01-04T1300,2322A,119.1014,25.3215,莆田市,秀屿区政府,,41,41,35,17,18,90,,67,67,11,13,4,3,0.5,0.6
2026-01-04T1300,2392A,115.0312,35.7636,濮阳市,环保局,细颗粒物(PM2.5),163,,83,124,87,26,,33,21,32,23,8,7,1.7,1.5
2026-01-04T1300,3021A,115,35.7667,濮阳市,濮水河管理处,细颗粒物(PM2.5),149,159,114,114,90,31,,36,25,35,34,8,7,1.2,1
2026-01-04T1300,4118A,115.0552,35.7816,濮阳市,中原东路68号,细颗粒物(PM2.5),195,161,128,146,97,30,,36,24,33,26,7,6,1.2,0.9
2026-01-04T1300,4216A,115.0923632,35.76857718,濮阳市,任丘路479号,细颗粒物(PM2.5),182,145,113,137,104,25,,22,16,41,35,8,5,1.3,0.9
2026-01-04T1300,2601A,100.9801,22.7634,普洱市,市环保局,,36,32,42,25,26,43,,25,25,9,14,4,4,0.5,0.5
2026-01-04T1300,2602A,100.9763,22.8237,普洱市,普洱第二中学,,31,31,32,14,18,56,,26,26,9,14,5,4,0.5,0.5
2026-01-04T1300,3345A,131.0413,45.7795,七台河市,中波台,颗粒物(PM10),59,68,54,14,34,66,,47,47,6,18,5,9,0.4,0.6
2026-01-04T1300,3637A,131.0136,45.7688,七台河市,人民广场,颗粒物(PM10),66,82,63,20,41,66,,44,44,9,24,7,10,0.4,0.6
2026-01-04T1300,3684A,130.8639,45.8144,七台河市,新建矿广场,颗粒物(PM10),70,90,54,16,34,64,,42,42,5,14,7,11,0.3,0.5
2026-01-04T1300,1779A,123.9307,47.3641,齐齐哈尔市,安居小区,,28,28,32,8,25,68,,57,57,7,21,7,7,0.4,0.6
2026-01-04T1300,1780A,123.9497,47.3389,齐齐哈尔市,中心广场,,21,7,19,3,13,66,,55,54,8,15,6,7,0.4,0.6
2026-01-04T1300,1781A,123.9483,47.3229,齐齐哈尔市,农牧车辆厂,,29,29,28,17,16,64,,54,54,5,13,4,3,0.2,0.3
2026-01-04T1300,1783A,123.9442,47.2994,齐齐哈尔市,市环境监测站,,25,25,30,3,19,71,,61,57,5,18,6,7,0.4,0.5
2026-01-04T1300,3662A,123.6341,47.2079,齐齐哈尔市,富区青少年活动中心,颗粒物(PM10),51,51,42,7,27,65,,54,54,9,20,5,9,0.6,0.7
2026-01-04T1300,2591A,107.9765,26.5724,黔东南苗族侗族自治州,市环境监测站,细颗粒物(PM2.5),55,39,16,39,14,12,,23,12,21,14,7,5,1.0,0.8
2026-01-04T1300,2881A,107.8909,26.531,黔东南苗族侗族自治州,凯里学院,,16,14,9,11,6,17,,28,19,16,13,4,3,0.8,0.7
2026-01-04T1300,2593A,107.5223,26.2371,黔南布依族苗族自治州,小围寨,,13,12,4,9,4,15,,22,15,7,7,5,5,0.8,0.8
2026-01-04T1300,3538A,107.5175,26.2977,黔南布依族苗族自治州,沙坝,,32,22,7,22,7,12,,23,14,13,11,9,5,0.9,0.8
2026-01-04T1300,2589A,104.9022,25.0943,黔西南布依族苗族自治州,场坝街,,15,15,21,3,11,12,,20,18,11,8,5,4,0.7,0.7
2026-01-04T1300,2590A,104.8812,25.0994,黔西南布依族苗族自治州,坪东大道,,14,14,19,7,11,14,,20,19,9,7,5,4,0.7,0.7
2026-01-04T1300,2502A,108.6238,21.9667,钦州市,市环保站,,48,48,80,19,51,92,,39,39,15,28,4,4,0.6,1.1
2026-01-04T1300,2503A,108.655,21.9481,钦州市,沙埠小学,,38,38,68,24,53,100,,46,46,12,28,5,6,0.4,0.7
2026-01-04T1300,2504A,108.5989,21.7435,钦州市,港区一小,细颗粒物(PM2.5),52,,70,36,44,84,,50,50,17,35,8,8,0.6,0.7
2026-01-04T1300,3404A,108.5959,21.9634,钦州市,北职校,颗粒物(PM10),54,58,72,23,52,90,,32,32,11,24,10,8,0.5,1
2026-01-04T1300,1046A,119.5247,39.9346,秦皇岛市,建设大厦,细颗粒物(PM2.5),62,53,84,44,51,48,,13,13,28,48,13,9,0.6,1
2026-01-04T1300,3132A,119.5979,39.938,秦皇岛市,文明里,颗粒物(PM10),57,64,89,25,38,50,,12,12,27,50,18,11,0.3,0.8
2026-01-04T1300,4066A,119.7458,39.9952,秦皇岛市,南园路157号,颗粒物(PM10),52,54,91,30,58,54,,20,20,21,50,14,11,0.6,1.4
2026-01-04T1300,4067A,119.5131,39.8858,秦皇岛市,翠岛大街1号,,39,39,56,27,36,57,,19,19,19,44,16,12,0.7,0.9
2026-01-04T1300,4198A,119.509013,39.825305,秦皇岛市,北戴河轮滑馆,细颗粒物(PM2.5),53,48,69,37,46,62,,19,19,17,48,12,6,0.4,1.5
2026-01-04T1300,1310A,120.404,36.0625,青岛市,市南区东部子站,细颗粒物(PM2.5),122,134,100,92,68,55,,21,20,47,56,16,15,1.1,1
2026-01-04T1300,1311A,120.362344,36.10282,青岛市,四方区子站,细颗粒物(PM2.5),192,146,92,144,82,42,,20,20,72,58,18,8,1.4,1.1
2026-01-04T1300,1312A,120.294373,36.054183,青岛市,市南区西部子站,细颗粒物(PM2.5),209,205,110,159,76,39,,24,24,67,55,8,8,1.5,0.9
2026-01-04T1300,1313A,120.4581,36.0858,青岛市,崂山区子站,细颗粒物(PM2.5),94,100,88,70,61,75,,39,39,29,44,13,14,1.0,1
2026-01-04T1300,1315A,120.3945,36.3083,青岛市,城阳区子站,细颗粒物(PM2.5),211,271,131,161,74,38,,21,21,105,69,26,12,2.1,1.5
2026-01-04T1300,3642A,120.3454,36.0735,青岛市,市北区南部,细颗粒物(PM2.5),178,182,104,134,75,48,,20,20,60,51,17,8,1.3,0.9
2026-01-04T1300,3643A,120.3897,36.18,青岛市,李沧区北部,细颗粒物(PM2.5),199,193,110,149,85,38,,20,16,83,63,17,14,1.6,1.2
2026-01-04T1300,4110A,120.5222,36.4089,青岛市,盟旺路653号,细颗粒物(PM2.5),195,218,125,146,88,51,,23,23,67,72,11,10,1.3,1
2026-01-04T1300,4290A,120.196923,35.954556,青岛市,珠江路669号,细颗粒物(PM2.5),175,190,112,132,84,20,,11,11,105,73,26,16,1.3,1
2026-01-04T1300,4291A,120.0424,35.8656,青岛市,黄岛区人民政府广场,细颗粒物(PM2.5),144,144,142,110,103,53,,24,24,61,60,14,11,1.3,1.6
2026-01-04T1300,1703A,113.0218,23.7086,清远市,凤城街办,细颗粒物(PM2.5),75,71,36,55,25,114,,47,47,26,26,/,/,/,/
2026-01-04T1300,3025A,113.0479,23.6343,清远市,技师学院,颗粒物(PM10),52,54,48,35,28,118,,34,34,24,40,9,10,0.7,0.7
2026-01-04T1300,3318A,112.9898,23.7403,清远市,清新太和,细颗粒物(PM2.5),78,72,34,57,23,114,,53,53,26,20,10,7,0.5,0.5
2026-01-04T1300,3455A,113.076,23.72,清远市,清城东城,细颗粒物(PM2.5),59,64,37,42,24,115,,38,38,24,28,/,/,/,/
2026-01-04T1300,2661A,107.6325,35.7357,庆阳市,庆阳五中,,45,38,52,31,48,83,,84,80,13,14,5,4,0.5,0.6
2026-01-04T1300,2662A,107.6361,35.7067,庆阳市,市环保局,,43,43,55,30,45,84,,84,80,9,11,2,1,0.4,0.4
2026-01-04T1300,1916A,103.7897,25.5036,曲靖市,环境监测站,,27,,22,14,10,84,,50,50,6,11,3,3,0.5,0.6
2026-01-04T1300,1917A,103.8013,25.5357,曲靖市,烟厂办公区,,26,14,21,8,10,82,,53,53,7,10,4,3,0.3,0.3
2026-01-04T1300,3376A,103.7926,25.4651,曲靖市,南苑二区,,27,22,18,7,12,86,,54,54,3,6,4,4,0.4,0.4
2026-01-04T1300,3377A,103.7442,25.5259,曲靖市,曲靖师范学院,,27,,22,12,13,84,,52,52,6,10,2,3,0.4,0.4
2026-01-04T1300,1264A,118.8694,28.94,衢州市,环保大楼,细颗粒物(PM2.5),92,91,91,68,70,46,,25,25,45,49,/,/,/,/
2026-01-04T1300,1266A,118.8622,28.9809,衢州市,衢州学院,细颗粒物(PM2.5),92,90,78,68,61,44,,23,23,42,43,6,5,0.4,0.4
2026-01-04T1300,4097A,118.9646,28.9832,衢州市,衢州三中,细颗粒物(PM2.5),97,100,94,72,72,32,,19,19,46,43,6,5,0.6,0.5
2026-01-04T1300,1611A,118.5818,24.9116,泉州市,涂山街,,36,36,37,20,23,94,,62,62,11,14,3,3,0.4,0.4
2026-01-04T1300,1612A,118.597,24.8976,泉州市,津头埔,,36,36,37,18,23,94,,62,62,13,17,5,5,0.5,0.5
2026-01-04T1300,1613A,118.6669,24.9422,泉州市,万安,,34,34,37,14,18,98,,61,61,10,16,3,3,0.4,0.4
2026-01-04T1300,4105A,118.6355,24.9148,泉州市,霞新路6号,,31,26,30,17,22,98,,64,64,8,14,/,/,0.3,0.4
2026-01-04T1300,2626A,88.8873,29.2723,日喀则市,日喀则监测站,,25,20,23,15,11,77,,58,48,5,10,5,8,0.4,0.5
2026-01-04T1300,3726A,88.8775,29.2425,日喀则市,林业技术推广中心,,24,14,24,7,8,76,,61,52,2,4,9,11,0.3,0.4
2026-01-04T1300,1659A,119.4711,35.421,日照市,监测站,细颗粒物(PM2.5),123,124,134,93,101,48,,14,14,58,66,15,15,1.1,1.3
2026-01-04T1300,1660A,119.523,35.4216,日照市,市政府广场,细颗粒物(PM2.5),122,107,112,92,89,53,,28,28,49,53,16,13,0.9,0.8
2026-01-04T1300,1661A,119.5511,35.4113,日照市,港务局,细颗粒物(PM2.5),119,107,124,90,96,65,,30,30,36,61,13,12,0.9,0.9
2026-01-04T1300,3507A,119.5326,35.4627,日照市,职业技术学院,细颗粒物(PM2.5),98,102,117,73,78,62,,31,31,46,56,14,12,1.2,1.1
2026-01-04T1300,3604A,119.3267,35.1043,日照市,岚山环保分局,细颗粒物(PM2.5),176,173,143,133,111,55,,28,26,55,51,31,33,1.4,1.5
2026-01-04T1300,1835A,111.1922,34.7752,三门峡市,市政府,细颗粒物(PM2.5),107,,114,80,132,56,,35,35,19,27,7,7,0.7,1
2026-01-04T1300,1836A,111.1588,34.794,三门峡市,开发区,细颗粒物(PM2.5),107,96,148,80,132,51,,36,36,18,23,4,4,0.7,1
2026-01-04T1300,3039A,111.1911,34.7829,三门峡市,三门峡市第一小学,细颗粒物(PM2.5),98,77,120,73,128,52,,34,34,19,26,8,8,0.8,1
2026-01-04T1300,3598A,111.1031,34.719,三门峡市,富达温泉假日酒店,细颗粒物(PM2.5),93,,119,69,118,66,,41,41,22,38,13,13,0.7,1
2026-01-04T1300,2324A,117.621,26.2626,三明市,三钢,,39,39,33,26,28,67,,31,31,22,24,18,10,2.1,1
2026-01-04T1300,2325A,117.6352,26.2714,三明市,三明二中,,34,34,28,18,22,59,,32,32,24,21,27,11,2.6,0.8
2026-01-04T1300,2326A,117.6028,26.2377,三明市,三元区政府,,46,46,34,23,25,72,,26,26,19,25,10,7,1.2,0.8
2026-01-04T1300,1877A,109.4962,18.2682,三亚市,河西子站,,41,41,35,17,17,99,,88,88,6,8,4,4,0.5,0.5
2026-01-04T1300,3540A,109.7348,18.3443,三亚市,君悦子站,颗粒物(PM10),58,66,38,16,15,95,,73,73,5,9,5,5,0.5,0.5
2026-01-04T1300,4135A,109.1714,18.3739,三亚市,城东小学站,,30,30,31,10,17,92,,72,72,4,8,/,/,/,/
2026-01-04T1300,2624A,91.7592,29.234,山南市,山南监测站,,24,21,18,7,6,76,,71,63,5,4,4,4,0.3,0.2
2026-01-04T1300,2625A,91.7701,29.2436,山南市,山南人民医院,,22,15,20,3,7,70,,74,64,5,5,3,2,0.3,0.3
2026-01-04T1300,1674A,116.6795,23.3666,汕头市,金平子站,颗粒物(PM10),51,51,45,28,31,110,,66,66,23,20,8,9,0.7,0.7
2026-01-04T1300,1675A,116.7248,23.3632,汕头市,龙湖子站,,41,41,39,23,22,97,,64,64,18,16,12,11,/,/
2026-01-04T1300,1676A,116.7257,23.2774,汕头市,濠江子站,颗粒物(PM10),52,54,38,26,26,94,,68,68,20,16,10,8,/,/
2026-01-04T1300,1677A,116.7518,23.4712,汕头市,澄海子站,,47,47,47,22,32,100,,64,64,17,19,10,9,0.7,0.7
2026-01-04T1300,1678A,116.6088,23.2539,汕头市,潮阳子站,颗粒物(PM10),54,58,42,29,25,113,,66,64,27,18,12,8,0.7,0.6
2026-01-04T1300,3444A,116.4539,23.2684,汕头市,潮南峡山,,33,32,49,17,30,104,,67,67,12,17,11,11,0.5,0.6
2026-01-04T1300,3624A,116.4069,23.2533,汕头市,潮南子站,,43,43,62,22,34,99,,62,62,15,19,8,9,/,/
2026-01-04T1300,1693A,115.3653,22.7751,汕尾市,市环保局,,34,34,40,18,28,97,,83,80,12,16,7,7,0.5,0.5
2026-01-04T1300,1695A,115.362,22.7926,汕尾市,新城中学,,46,46,40,18,28,52,,64,60,12,13,4,6,0.4,0.4
2026-01-04T1300,2645A,109.9155,33.8714,商洛市,监测站,细颗粒物(PM2.5),55,45,49,39,44,86,,77,77,14,21,5,4,0.5,0.6
2026-01-04T1300,3045A,109.9647,33.8486,商洛市,商州区中学,细颗粒物(PM2.5),62,52,48,44,48,88,,79,79,9,17,5,5,0.6,0.7
2026-01-04T1300,2408A,115.6701,34.4283,商丘市,环境监测站,细颗粒物(PM2.5),87,70,71,64,67,51,,54,45,19,17,2,2,0.4,0.4
2026-01-04T1300,2409A,115.6458,34.4047,商丘市,粮食局,细颗粒物(PM2.5),107,81,67,80,68,41,,47,39,21,18,4,4,0.6,0.6
2026-01-04T1300,3171A,115.6069,34.4465,商丘市,梁园区档案局,细颗粒物(PM2.5),95,,64,71,65,37,,40,35,21,17,4,3,0.6,0.6
2026-01-04T1300,4119A,115.6701,34.3767,商丘市,北海东路185号,细颗粒物(PM2.5),104,104,89,78,71,38,,34,34,21,29,2,2,0.6,0.5
2026-01-04T1300,4120A,115.6172,34.3704,商丘市,中山大街3号,细颗粒物(PM2.5),109,108,97,82,77,47,,34,34,17,27,3,3,0.4,0.4
2026-01-04T1300,1141A,121.401,31.2382,上海市,普陀,细颗粒物(PM2.5),58,56,64,41,47,50,,28,28,50,67,7,8,0.5,0.7
2026-01-04T1300,1142A,121.4774,31.2043,上海市,十五厂,细颗粒物(PM2.5),57,61,65,40,43,50,,30,30,48,69,8,8,0.7,0.9
2026-01-04T1300,1143A,121.4673,31.3011,上海市,虹口,颗粒物(PM10),58,65,76,36,44,44,,20,20,41,66,12,12,0.3,0.6
2026-01-04T1300,1147A,121.4253,31.226,上海市,静安监测站,细颗粒物(PM2.5),60,55,63,43,44,54,,39,39,45,61,8,8,0.5,0.6
2026-01-04T1300,1148A,121.7029,31.1905,上海市,浦东川沙,,47,47,69,23,40,65,,32,32,24,65,8,9,0.5,0.8
2026-01-04T1300,1149A,121.5339,31.229,上海市,浦东新区监测站,,48,48,61,27,41,65,,33,33,34,61,8,8,0.5,0.8
2026-01-04T1300,1150A,121.5776,31.2038,上海市,浦东张江,,50,50,65,29,40,68,,34,34,29,58,8,8,0.6,0.8
2026-01-04T1300,3265A,121.4242,31.3303,上海市,宝山庙行,颗粒物(PM10),57,64,73,37,48,43,,18,18,52,78,8,8,0.5,0.8
2026-01-04T1300,3266A,121.8789,31.4662,上海市,崇明上实东滩,,25,23,43,17,32,58,,37,37,28,29,6,6,0.0,0.3
2026-01-04T1300,3268A,121.316,31.2839,上海市,嘉定南翔,颗粒物(PM10),53,56,69,36,51,42,,13,13,48,68,7,6,0.6,0.8
2026-01-04T1300,3269A,121.3357,30.7455,上海市,金山新城,,43,33,45,30,46,76,,68,68,29,34,11,11,0.9,0.9
2026-01-04T1300,3270A,121.4996,31.0741,上海市,闵行浦江,,43,40,65,30,46,67,,27,27,25,60,8,8,0.4,0.5
2026-01-04T1300,3271A,121.2886,31.1663,上海市,青浦徐泾,颗粒物(PM10),53,56,69,33,49,50,,18,18,42,72,6,7,0.8,1
2026-01-04T1300,3272A,121.2193,31.0382,上海市,松江图书馆,颗粒物(PM10),53,56,79,24,36,60,,22,22,38,68,8,8,0.4,0.6
2026-01-04T1300,3273A,121.3904,31.206,上海市,长宁仙霞,颗粒物(PM10),52,54,62,33,43,52,,29,29,46,66,8,8,0.5,0.7
2026-01-04T1300,3274A,121.7964,31.0507,上海市,浦东惠南,,31,31,56,21,38,71,,39,39,22,48,6,6,0.5,0.6
2026-01-04T1300,3544A,121.4891,30.925,上海市,奉贤南桥新城,,38,38,72,21,56,72,,30,30,24,61,10,9,0.8,0.8
2026-01-04T1300,4183A,121.417401,31.16637,上海市,冠生园路458号,,,,68,,48,,,56,23,,74,,5,,0.6
2026-01-04T1300,4205A,121.541914,31.268301,上海市,宁武路151号,颗粒物(PM10),63,76,80,36,47,29,,13,13,64,73,7,6,0.6,0.8
