timepoint,stationcode,longitude,latitude,area,positionname,primarypollutant,aqi,pm10,pm10_24h,pm2_5,pm2_5_24h,o3,o3_24h,o3_8h,o3_8h_24h,no2,no2_24h,so2,so2_24h,co,co_24h
2026-01-04T1800,2568A,102.2503,31.8896,阿坝藏族羌族自治州,马师校,,26,24,27,17,17,82,,70,70,10,17,4,4,0.6,0.6
2026-01-04T1800,3994A,102.2174,31.9016,阿坝藏族羌族自治州,马尔康中学西区,,32,32,21,15,11,84,,76,76,7,13,6,6,0.5,0.6
2026-01-04T1800,2695A,80.2899,41.1684,阿克苏地区,电视台,细颗粒物(PM2.5),53,50,64,37,41,56,,36,36,17,29,4,4,0.3,0.7
2026-01-04T1800,2696A,80.2592,41.1541,阿克苏地区,艺术中心,,50,43,57,35,43,64,,41,41,8,20,3,4,0.5,0.6
2026-01-04T1800,2205A,105.699,38.8409,阿拉善盟,蒙二幼,,40,40,39,27,29,80,,82,82,17,20,10,10,0.6,0.7
2026-01-04T1800,2206A,105.7198,38.8508,阿拉善盟,环保局新楼,,38,33,29,26,23,70,,75,75,12,13,9,9,0.6,0.7
2026-01-04T1800,2708A,88.1266,47.8515,阿勒泰地区,市站,,22,8,11,3,5,70,,70,60,22,27,3,3,0.3,0.5
2026-01-04T1800,4166A,88.1198,47.7931,阿勒泰地区,阿勒泰路33号,,23,14,13,3,5,71,,78,63,22,28,7,7,0.3,0.4
2026-01-04T1800,2630A,80.1171,32.4999,阿里地区,阿里监测站,,30,,2,3,2,94,,80,80,2,9,6,10,0.3,0.5
2026-01-04T1800,3192A,80.0906,32.5029,阿里地区,阿里藏医院,,32,6,12,3,6,101,,82,82,1,7,9,12,0.4,0.5
2026-01-04T1800,2644A,109.0088,32.6974,安康市,汉滨区检察院,细颗粒物(PM2.5),69,62,55,50,52,33,,35,35,32,24,5,7,0.9,0.8
2026-01-04T1800,4054A,109.0324,32.6913,安康市,市邮政管理局,细颗粒物(PM2.5),82,68,60,60,53,24,,31,31,35,26,5,6,1.0,0.8
2026-01-04T1800,2291A,117.0806,30.5181,安庆市,环科院,细颗粒物(PM2.5),82,79,78,60,65,30,,37,37,36,30,7,7,0.9,0.7
2026-01-04T1800,2292A,117.0331,30.5118,安庆市,马山宾馆,细颗粒物(PM2.5),82,61,78,60,61,32,,40,40,34,31,6,7,1.0,0.7
2026-01-04T1800,2294A,116.9897,30.6146,安庆市,安庆大学,细颗粒物(PM2.5),84,77,78,62,64,27,,28,27,47,41,4,4,0.9,0.9
2026-01-04T1800,3173A,117.0598,30.5351,安庆市,市人大,细颗粒物(PM2.5),79,65,78,58,63,34,,40,40,36,37,9,9,0.8,0.7
2026-01-04T1800,3123A,105.9408,26.2431,安顺市,凤凰山,,36,,11,25,9,49,,52,52,17,13,14,12,1.0,0.9
2026-01-04T1800,3124A,105.9443,26.2567,安顺市,金钟山,,42,,10,29,10,50,,53,53,14,10,15,13,0.8,0.8
2026-01-04T1800,3125A,105.8983,26.248,安顺市,娄家坡,,33,23,17,23,13,48,,49,49,15,13,18,20,0.9,0.8
2026-01-04T1800,1819A,114.3552,36.1017,安阳市,红庙街,细颗粒物(PM2.5),192,,136,144,136,46,,35,35,29,40,7,5,1.6,1.2
2026-01-04T1800,1820A,114.361,36.0681,安阳市,银杏小区,细颗粒物(PM2.5),211,,136,161,146,50,,38,38,26,38,7,4,1.6,1.1
2026-01-04T1800,3141A,114.3921,36.0879,安阳市,信访局,细颗粒物(PM2.5),203,,145,153,140,52,,40,40,26,36,2,3,1.6,1.1
2026-01-04T1800,3669A,114.4706,36.0634,安阳市,左辅环卫站,细颗粒物(PM2.5),202,158,154,152,142,50,,40,40,16,27,5,4,1.4,1
2026-01-04T1800,4117A,114.2918,36.0769,安阳市,钢三路198号,细颗粒物(PM2.5),260,234,194,210,164,26,,26,26,41,44,7,5,2.1,1.3
2026-01-04T1800,1748A,123.0441,41.1201,鞍山市,深沟寺,细颗粒物(PM2.5),62,67,69,44,50,40,,45,45,33,41,9,12,0.9,1.7
2026-01-04T1800,1749A,123.011,41.0931,鞍山市,太阳城,颗粒物(PM10),54,57,72,37,51,46,,45,45,29,45,12,23,0.9,2.4
2026-01-04T1800,1750A,123.0483,41.1445,鞍山市,太平,细颗粒物(PM2.5),72,84,89,52,55,32,,38,38,42,48,11,16,1.0,1.7
2026-01-04T1800,1751A,122.964,41.0968,鞍山市,铁西三道街,颗粒物(PM10),55,59,122,33,65,33,,43,43,50,56,23,22,1.4,2.6
2026-01-04T1800,1753A,123.0219,41.0822,鞍山市,明达新区,颗粒物(PM10),51,52,78,35,55,50,,44,44,19,30,13,22,0.6,2.3
2026-01-04T1800,4201A,122.944647,41.082639,鞍山市,兴盛南路290号,颗粒物(PM10),74,97,156,42,76,20,,39,39,65,65,24,21,1.5,2.4
2026-01-04T1800,2195A,107.4206,40.7609,巴彦淖尔市,附二中,,38,38,81,22,44,59,,55,55,16,36,8,11,0.4,0.7
2026-01-04T1800,2196A,107.37,40.7372,巴彦淖尔市,市环保大楼,,41,41,76,23,36,73,,65,65,10,40,5,9,0.4,0.7
2026-01-04T1800,1956A,86.1476,41.7529,巴音郭楞蒙古自治州,孔雀公园,颗粒物(PM10),69,87,128,35,31,52,,35,35,12,35,6,6,0.4,0.5
2026-01-04T1800,1957A,86.1971,41.7166,巴音郭楞蒙古自治州,棉纺厂,颗粒物(PM10),80,109,138,33,23,54,,38,38,13,32,/,/,/,/
2026-01-04T1800,1958A,86.236,41.7172,巴音郭楞蒙古自治州,经济开发区,颗粒物(PM10),65,80,100,27,19,40,,35,35,19,24,5,4,0.6,0.6
2026-01-04T1800,3181A,106.776805,31.852614,巴中市,市五中,细颗粒物(PM2.5),53,48,56,37,45,45,,39,39,23,17,5,5,1.0,0.9
2026-01-04T1800,3183A,106.7419,31.8654,巴中市,圣泉水务公司,细颗粒物(PM2.5),55,42,45,39,41,49,,42,42,17,22,5,5,0.7,0.7
2026-01-04T1800,3616A,106.7617,31.8343,巴中市,市中心医院,,,,49,,43,,,36,36,,18,,7,,0.9
2026-01-04T1800,2235A,122.7909,45.608,白城市,洮北区环保局,颗粒物(PM10),54,58,41,34,35,52,,60,60,25,29,7,4,0.6,0.5
2026-01-04T1800,2236A,122.8741,45.5725,白城市,市环保局,颗粒物(PM10),51,51,37,30,30,53,,61,61,18,26,7,6,0.4,0.5
2026-01-04T1800,2231A,126.4219,41.9172,白山市,喜丰,颗粒物(PM10),54,57,83,32,46,46,,54,53,33,45,16,16,1.4,1.4
2026-01-04T1800,2232A,126.4082,41.9416,白山市,环保局,细颗粒物(PM2.5),58,64,71,41,53,25,,46,46,42,37,18,13,1.9,1.8
2026-01-04T1800,2647A,104.1727,36.5448,白银市,第三小学,,47,47,54,29,45,76,,66,66,17,22,21,11,0.7,0.8
2026-01-04T1800,2648A,104.1467,36.5482,白银市,动力公司,颗粒物(PM10),55,59,51,31,46,76,,72,72,15,17,13,10,0.6,0.7
2026-01-04T1800,2512A,106.6102,23.901,百色市,市监测站,,48,48,50,26,35,13,,25,17,31,22,8,13,1.0,0.9
2026-01-04T1800,2513A,106.6524,23.8842,百色市,市中心血站,细颗粒物(PM2.5),58,45,50,41,46,20,,26,21,31,26,8,12,1.0,0.8
2026-01-04T1800,4133A,106.6273,23.8798,百色市,龙景西路,细颗粒物(PM2.5),62,46,67,44,62,14,,19,14,26,20,8,14,0.7,0.7
2026-01-04T1800,2270A,117.396,32.9389,蚌埠市,工人疗养院,细颗粒物(PM2.5),73,69,86,53,59,53,,40,40,30,44,7,7,0.7,0.7
2026-01-04T1800,2271A,117.3606,32.9428,蚌埠市,百货大楼,细颗粒物(PM2.5),64,56,76,46,54,55,,35,35,30,52,6,6,0.6,0.7
2026-01-04T1800,2273A,117.4183,32.8909,蚌埠市,蚌埠学院,细颗粒物(PM2.5),67,68,65,48,53,34,,40,40,52,41,5,5,0.6,0.6
2026-01-04T1800,2274A,117.3534,32.9672,蚌埠市,淮上区政府,细颗粒物(PM2.5),68,63,80,49,61,52,,38,38,32,52,4,4,0.7,0.7
2026-01-04T1800,2275A,117.3143,32.8977,蚌埠市,高新区,细颗粒物(PM2.5),67,61,69,48,56,34,,37,37,47,40,6,8,0.6,0.6
2026-01-04T1800,3715A,117.3091,32.9314,蚌埠市,蚌埠田家炳中学,细颗粒物(PM2.5),72,58,82,52,60,53,,34,34,34,48,6,10,0.6,0.6
2026-01-04T1800,1585A,109.8761,40.6533,包头市,市环境监测站,,35,35,98,3,46,63,,68,68,15,33,5,17,0.2,1.1
2026-01-04T1800,1587A,109.9992,40.5843,包头市,包头八中,,39,39,90,11,49,54,,66,66,26,38,3,11,0.2,1.1
2026-01-04T1800,1589A,109.8641,40.6288,包头市,惠龙物流,,21,21,89,7,45,55,,69,69,25,31,9,22,0.4,1.1
2026-01-04T1800,1590A,110.0376,40.5546,包头市,东河鸿龙湾,,,32,73,7,38,,,70,70,23,49,9,13,0.4,1.1
2026-01-04T1800,3283A,109.9154,40.5684,包头市,滨河大厦,,37,37,61,10,35,57,,67,67,12,24,4,9,0.5,1
2026-01-04T1800,3419A,109.9449,40.6259,包头市,包头市委党校,,34,34,90,3,48,56,,63,63,19,36,12,18,0.4,1.3
2026-01-04T1800,3683A,109.8332,40.6577,包头市,昆区政府,,32,32,87,13,42,54,,66,66,28,31,7,22,0.6,1.1
2026-01-04T1800,1931A,107.0802,34.3129,宝鸡市,竹园沟,,46,35,41,32,43,72,,70,70,10,10,6,6,0.4,0.5
2026-01-04T1800,1933A,107.1429,34.3549,宝鸡市,监测站,,42,32,54,29,54,80,,63,63,22,21,6,4,0.7,0.8
2026-01-04T1800,1934A,107.1172,34.3759,宝鸡市,技工学校,,33,32,56,23,57,90,,66,66,13,15,5,4,0.4,0.7
2026-01-04T1800,1936A,107.2025,34.3518,宝鸡市,文理学院,,32,,55,22,55,87,,65,65,20,22,6,4,0.4,0.6
2026-01-04T1800,1937A,107.2396,34.3626,宝鸡市,三迪小学,,40,,55,28,61,87,,67,67,18,23,5,4,0.5,0.7
2026-01-04T1800,4155A,107.1721,34.3558,宝鸡市,滨河北路,,30,25,55,20,49,96,,72,72,19,21,7,6,0.5,0.7
2026-01-04T1800,4308A,107.3898,34.3601,宝鸡市,陈仓区北开路21号,,48,,63,33,65,95,,79,79,16,22,8,25,0.4,0.7
2026-01-04T1800,1051A,115.4803,38.8568,保定市,游泳馆,细颗粒物(PM2.5),90,98,146,67,122,3,,18,17,84,79,8,10,1.2,1.5
2026-01-04T1800,1052A,115.509,38.8895,保定市,华电二区,细颗粒物(PM2.5),109,93,130,82,120,2,,15,14,60,62,4,6,1.3,1.7
2026-01-04T1800,1053A,115.4588,38.9037,保定市,接待中心,细颗粒物(PM2.5),78,93,134,57,108,7,,20,20,65,61,3,4,0.6,1.2
2026-01-04T1800,1054A,115.4484,38.8344,保定市,地表水厂,细颗粒物(PM2.5),92,103,163,68,122,7,,23,22,81,75,4,6,1.0,1.4
2026-01-04T1800,3581A,115.3136,38.9511,保定市,满城区生态环境分局,颗粒物(PM10),75,100,166,46,118,6,,28,28,76,75,7,9,0.9,1.7
2026-01-04T1800,3582A,115.4709,38.7628,保定市,清苑区第二中学,细颗粒物(PM2.5),104,143,209,78,136,2,,15,15,88,83,7,10,1.0,1.5
2026-01-04T1800,3583A,115.6231,39.0223,保定市,徐水物探局,细颗粒物(PM2.5),107,132,178,80,119,4,,19,19,76,72,10,11,1.0,1.4
2026-01-04T1800,4004A,115.4199,38.8665,保定市,双鹰农机,细颗粒物(PM2.5),69,84,178,50,106,19,,28,28,61,62,9,10,0.8,1.2
2026-01-04T1800,4034A,115.515,38.8589,保定市,植保所站,细颗粒物(PM2.5),132,106,151,100,136,0,,8,8,94,92,3,5,1.0,1.4
2026-01-04T1800,2594A,99.1589,25.1137,保山市,市环境监测站,,26,16,18,3,15,83,,71,71,6,8,3,7,0.2,0.5
2026-01-04T1800,2595A,99.1616,25.1381,保山市,市环保局,,26,21,21,16,16,83,,73,73,3,6,4,4,0.4,0.4
2026-01-04T1800,1867A,109.1435,21.4085,北海市,海滩公园,,49,49,42,20,24,140,,130,130,12,15,8,10,0.6,0.4
2026-01-04T1800,1868A,109.0983,21.466,北海市,新市环保局,,46,46,42,22,27,131,,124,124,15,17,4,6,0.6,0.6
2026-01-04T1800,1869A,109.1775,21.5232,北海市,北海工业园,,40,40,53,22,32,126,,112,112,12,18,7,12,0.6,0.7
2026-01-04T1800,3400A,109.1844,21.4396,北海市,龙潭自来水厂,,42,42,42,23,29,132,,124,124,13,15,7,8,0.7,0.7
2026-01-04T1800,1001A,116.3611,39.8786,北京市,万寿西宫,颗粒物(PM10),56,61,72,34,42,31,,38,38,49,60,6,4,0.6,0.7
2026-01-04T1800,1003A,116.4174,39.9289,北京市,东四,颗粒物(PM10),52,54,66,28,38,32,,40,40,39,48,5,4,0.7,1
2026-01-04T1800,1004A,116.4073,39.8858,北京市,天坛,,50,50,62,27,39,28,,37,37,37,52,4,3,0.7,0.8
2026-01-04T1800,1005A,116.4622,39.9364,北京市,农展馆,颗粒物(PM10),52,53,66,27,38,39,,38,38,30,47,8,5,0.8,0.8
2026-01-04T1800,1006A,116.3399,39.9293,北京市,官园,颗粒物(PM10),52,54,71,33,43,33,,40,40,40,53,6,6,0.7,0.8
2026-01-04T1800,1007A,116.2879,39.9613,北京市,海淀万柳,颗粒物(PM10),54,58,67,25,36,11,,29,29,58,56,3,4,0.6,0.8
2026-01-04T1800,1008A,116.6635,40.1349,北京市,顺义新城,颗粒物(PM10),54,57,62,29,33,27,,48,48,43,43,9,5,0.7,0.7
2026-01-04T1800,1009A,116.6275,40.327,北京市,怀柔镇,,28,28,39,12,22,31,,48,48,36,29,6,6,0.7,0.6
2026-01-04T1800,1010A,116.2295,40.217,北京市,昌平镇,,42,42,57,18,31,20,,19,19,47,45,5,5,0.6,0.8
2026-01-04T1800,1011A,116.3968,39.982,北京市,奥体中心,,41,41,61,22,37,27,,35,35,55,63,5,5,0.7,0.9
2026-01-04T1800,3418A,116.8336,40.4095,北京市,密云新城,,22,22,38,11,21,62,,64,64,10,26,3,3,0.4,0.5
2026-01-04T1800,3671A,116.0879,39.9725,北京市,门头沟三家店,颗粒物(PM10),53,55,64,26,31,12,,28,27,43,40,3,3,0.7,0.7
2026-01-04T1800,3672A,116.1507,39.8246,北京市,丰台云岗,颗粒物(PM10),58,65,76,32,41,28,,33,32,50,55,6,4,0.7,0.7
2026-01-04T1800,3674A,115.9578,39.7602,北京市,房山燕山,,48,48,68,23,39,24,,26,26,40,38,5,4,0.4,0.6
2026-01-04T1800,3675A,116.4669,39.7734,北京市,大兴旧宫,颗粒物(PM10),58,66,90,33,45,34,,32,32,37,56,6,5,0.9,1
2026-01-04T1800,3694A,115.9859,40.4562,北京市,延庆石河营,,23,23,56,9,35,40,,36,36,22,32,4,3,0.4,1
2026-01-04T1800,3695A,116.6151,40.3052,北京市,怀柔新城,,16,16,37,8,24,44,,48,48,17,22,4,4,0.2,0.4
2026-01-04T1800,3696A,116.2542,39.8764,北京市,丰台小屯,颗粒物(PM10),56,61,90,32,46,15,,30,30,58,63,5,4,0.8,1
2026-01-04T1800,3697A,116.8399,40.3843,北京市,密云镇,,37,37,48,11,28,27,,59,59,43,37,2,2,0.6,0.6
2026-01-04T1800,4057A,115.9423,40.4431,北京市,延庆百泉,,21,21,56,9,38,42,,37,37,16,36,3,3,0.4,0.9
2026-01-04T1800,4058A,116.6598,39.9164,北京市,通州新华,颗粒物(PM10),60,70,99,36,53,25,,25,25,48,66,7,5,0.9,0.9
2026-01-04T1800,4182A,116.1942,39.9158,北京市,石景山八角,颗粒物(PM10),55,59,78,27,42,13,,28,28,59,58,3,3,0.4,0.6
2026-01-04T1800,4194A,117.078628,40.151726,北京市,平谷新城,细颗粒物(PM2.5),73,89,81,53,55,23,,29,29,57,47,8,3,1.1,0.9
2026-01-04T1800,1761A,123.8274146,41.31234549,本溪市,大峪,细颗粒物(PM2.5),128,152,98,97,59,19,,37,37,67,45,15,14,1.7,2.3
2026-01-04T1800,1763A,123.7169,41.3094,本溪市,彩屯,细颗粒物(PM2.5),153,149,127,117,94,19,,39,39,71,51,12,14,1.6,3
2026-01-04T1800,1764A,123.7672166,41.28649327,本溪市,东明,细颗粒物(PM2.5),132,100,97,100,65,20,,36,36,64,50,19,15,1.6,2.8
2026-01-04T1800,1765A,123.799345,41.266614,本溪市,新立屯,细颗粒物(PM2.5),84,82,60,62,40,4,,36,35,67,46,11,16,2.2,2.9
2026-01-04T1800,1766A,123.829144,41.336777,本溪市,威宁,细颗粒物(PM2.5),155,120,121,118,73,16,,36,36,82,49,10,10,1.7,2.1
2026-01-04T1800,2587A,105.287,27.3133,毕节市,八中,,26,,11,18,6,38,,33,32,11,10,9,9,0.9,0.8
2026-01-04T1800,2588A,105.3079,27.2987,毕节市,师专,,29,27,10,20,6,39,,34,34,12,10,8,7,0.9,0.9
2026-01-04T1800,4263A,105.3688,27.3598,毕节市,工业大道,,29,26,11,20,9,38,,31,31,8,8,9,9,/,/
2026-01-04T1800,1629A,117.9961,37.3604,滨州市,第二水厂,细颗粒物(PM2.5),178,202,178,134,114,41,,43,43,47,65,16,16,1.2,1.3
2026-01-04T1800,1630A,117.9789,37.3931,滨州市,北中新校,细颗粒物(PM2.5),201,185,169,151,135,35,,49,49,50,58,10,11,1.0,1.3
2026-01-04T1800,3514A,117.9379,37.3959,滨州市,中海酒店,细颗粒物(PM2.5),211,193,164,161,140,42,,59,59,51,57,14,12,0.9,1.3
2026-01-04T1800,3515A,117.9381509,37.35547456,滨州市,开发区一中,细颗粒物(PM2.5),199,173,167,149,142,46,,50,50,38,52,16,19,1.0,1.2
2026-01-04T1800,3516A,118.0914,37.6938,滨州市,金海六路,细颗粒物(PM2.5),213,205,197,163,156,37,,52,52,55,69,13,19,1.2,1.5
2026-01-04T1800,4028A,117.9955,37.3752,滨州市,滨州市西街道办事处,细颗粒物(PM2.5),225,202,182,175,152,39,,50,50,46,56,14,14,1.2,1.5
2026-01-04T1800,2311A,115.8071,33.8399,亳州市,污水处理厂,细颗粒物(PM2.5),64,58,70,46,56,55,,64,64,25,34,3,5,0.4,0.5
2026-01-04T1800,2312A,115.7789,33.8519,亳州市,三国揽胜宫,细颗粒物(PM2.5),67,56,74,48,52,50,,58,58,18,22,2,3,0.5,0.5
2026-01-04T1800,3332A,115.7631,33.803,亳州市,亳州学院,细颗粒物(PM2.5),72,58,64,52,55,53,,63,63,18,22,2,3,0.4,0.4
2026-01-04T1800,2693A,82.0482,44.8553,博尔塔拉蒙古自治州,市党校,细颗粒物(PM2.5),95,124,106,71,56,45,,35,30,24,27,3,3,1.3,1.2
2026-01-04T1800,2694A,82.0805,44.8966,博尔塔拉蒙古自治州,市环保局,颗粒物(PM10),90,130,114,64,54,45,,38,38,31,33,11,8,1.1,1
2026-01-04T1800,1071A,116.8733,38.2922,沧州市,沧县城建局,细颗粒物(PM2.5),268,228,194,218,183,27,,43,43,82,62,10,6,1.9,1.5
2026-01-04T1800,1072A,116.8462,38.3189,沧州市,电视转播站,细颗粒物(PM2.5),247,241,187,197,169,19,,39,39,77,53,11,8,1.7,1.2
2026-01-04T1800,1073A,116.8588,38.3161,沧州市,市环保局,细颗粒物(PM2.5),250,216,188,200,172,19,,30,30,73,51,9,7,1.7,1.2
2026-01-04T1800,3324A,116.8011,38.294,沧州市,河北水利电力学院,细颗粒物(PM2.5),231,246,200,181,147,38,,40,40,65,57,13,11,2.0,1.3
2026-01-04T1800,2622A,97.1813,31.1289,昌都市,昌都监测站,,36,36,25,6,10,102,,83,83,2,8,1,1,0.2,0.3
2026-01-04T1800,3719A,97.1707,31.1428,昌都市,昌都会议中心,,29,9,13,3,7,91,,76,76,2,2,2,2,0.4,0.4
2026-01-04T1800,2692A,87.2722,44.0298,昌吉回族自治州,新区政务中心,细颗粒物(PM2.5),118,129,124,89,82,44,,37,37,41,57,6,7,1.2,1.3
2026-01-04T1800,3613A,87.3069,44.0093,昌吉回族自治州,亚心广场,细颗粒物(PM2.5),147,149,144,112,96,65,,42,42,35,53,6,7,1.4,1.5
2026-01-04T1800,4164A,87.2057,43.9289,昌吉回族自治州,财政所,细颗粒物(PM2.5),128,140,95,97,62,54,,60,52,41,26,5,5,0.8,0.7
2026-01-04T1800,1120A,125.2874,43.9024,长春市,客车厂,细颗粒物(PM2.5),53,52,87,37,91,23,,48,48,57,49,18,14,0.7,1
2026-01-04T1800,1121A,125.2943,43.8508,长春市,邮电学院,,46,37,101,32,81,37,,49,49,36,46,11,15,0.5,1
2026-01-04T1800,1122A,125.3648,43.8745,长春市,劳动公园,,45,45,104,21,73,38,,48,48,36,49,8,8,0.7,1.3
2026-01-04T1800,1123A,125.3233,43.8781,长春市,园林处,,43,32,86,30,73,31,,45,45,37,41,10,11,0.5,0.9
2026-01-04T1800,1124A,125.4604,43.7904,长春市,净月潭,,48,35,104,33,78,41,,46,46,26,36,6,7,0.5,1.1
2026-01-04T1800,1126A,125.38,43.8422,长春市,经开区环卫处,,46,46,116,23,80,37,,46,46,42,52,6,8,0.6,1.2
2026-01-04T1800,1127A,125.234,43.7761,长春市,高新区管委会,颗粒物(PM10),59,67,123,30,113,10,,48,46,66,50,8,8,0.8,1.5
2026-01-04T1800,1128A,125.1695,43.83,长春市,岱山公园,细颗粒物(PM2.5),62,,102,44,90,22,,48,47,54,50,8,12,0.5,1.2
2026-01-04T1800,4281A,125.334645,43.916281,长春市,北亚泰大街1068号,细颗粒物(PM2.5),53,39,87,37,78,34,,43,43,41,49,10,16,0.6,1
2026-01-04T1800,1335A,113.082,28.2421,长沙市,经开区环保局,,33,24,45,23,39,22,,20,20,29,23,3,3,0.5,0.5
2026-01-04T1800,1336A,112.8873,28.2202,长沙市,高开区环保局,,28,24,50,19,45,23,,23,23,19,20,4,4,0.8,0.7
2026-01-04T1800,1337A,113.0785,28.2012,长沙市,马坡岭,,33,33,45,22,40,30,,24,24,26,26,4,4,1.4,0.8
2026-01-04T1800,1338A,112.9448,28.1894,长沙市,湖南师范大学,,30,21,47,21,36,29,,29,29,24,25,4,4,0.6,0.6
2026-01-04T1800,1339A,113.0177,28.1322,长沙市,雨花区环保局,,39,30,44,27,38,22,,16,,25,25,6,6,0.6,0.6
2026-01-04T1800,1340A,112.9795,28.2593,长沙市,伍家岭,,32,28,51,22,38,37,,27,27,15,18,4,4,0.5,0.5
2026-01-04T1800,1341A,113.002,28.1944,长沙市,火车新站,颗粒物(PM10),78,105,64,31,40,26,,24,24,25,22,8,7,0.5,0.5
2026-01-04T1800,1342A,112.9846,28.1177,长沙市,天心区环保局,,35,28,46,24,39,27,,24,24,28,29,4,4,0.6,0.6
2026-01-04T1800,1343A,112.8906,28.1307,长沙市,湖南中医药大学,,28,24,49,19,43,24,,26,26,28,27,5,5,0.6,0.6
2026-01-04T1800,1727A,113.1146,36.1547,长治市,清华站,细颗粒物(PM2.5),98,75,84,73,80,50,,45,45,28,44,15,20,1.1,1.2
2026-01-04T1800,1730A,113.0887,36.2126,长治市,审计局,细颗粒物(PM2.5),92,,80,68,78,43,,46,46,27,43,13,21,1.0,1.1
2026-01-04T1800,1731A,113.0845,36.1856,长治市,长治八中,细颗粒物(PM2.5),104,,101,78,91,46,,47,47,22,36,16,20,1.2,1.3
2026-01-04T1800,2845A,113.1561,36.1912,长治市,德盛苑,细颗粒物(PM2.5),117,,69,88,70,41,,46,46,25,31,10,15,1.1,1.1
2026-01-04T1800,3568A,113.0603,36.0464,长治市,向阳小学,细颗粒物(PM2.5),119,,101,90,81,44,,51,51,39,42,16,21,1.2,1.3
2026-01-04T1800,3569A,112.8788,36.315,长治市,屯留一中,细颗粒物(PM2.5),59,,68,42,68,51,,57,57,30,33,8,14,0.5,0.9
2026-01-04T1800,4189A,113.113092,36.199482,长治市,英华南巷50号,细颗粒物(PM2.5),94,74,93,70,83,45,,46,46,26,39,11,16,1.1,1.1
2026-01-04T1800,4190A,113.23666,36.33435,长治市,学府街1号,细颗粒物(PM2.5),74,54,78,54,79,45,,49,49,27,47,8,17,1.0,1.5
2026-01-04T1800,1854A,111.696,28.9725,常德市,市二中,细颗粒物(PM2.5),59,47,55,42,51,39,,29,29,18,20,4,4,0.8,0.7
2026-01-04T1800,3138A,111.7152,29.0288,常德市,武陵区永安,细颗粒物(PM2.5),57,54,60,40,48,28,,34,29,24,17,3,3,0.9,0.7
2026-01-04T1800,3139A,111.6891,28.9881,常德市,鼎城区玉霞,细颗粒物(PM2.5),60,52,52,43,50,31,,30,29,25,20,7,7,0.9,0.8
2026-01-04T1800,3140A,111.6651,29.0526,常德市,武陵区长庚,细颗粒物(PM2.5),60,53,56,43,50,33,,32,31,21,18,3,3,0.8,0.7
2026-01-04T1800,1196A,119.9524,31.7586,常州市,市监测站,细颗粒物(PM2.5),105,113,110,79,78,14,,22,22,80,79,3,5,0.9,1.1
2026-01-04T1800,1200A,119.9351,31.703,常州市,武进监测站,细颗粒物(PM2.5),107,107,98,80,75,8,,21,20,84,70,7,8,0.8,0.9
2026-01-04T1800,3002A,119.9701,31.813,常州市,行政中心,细颗粒物(PM2.5),99,91,95,74,71,5,,22,21,86,72,6,8,0.8,0.9
2026-01-04T1800,3003A,120.0434,31.7726,常州市,经开区,细颗粒物(PM2.5),89,116,124,66,76,13,,22,22,71,71,8,9,1.0,1.2
2026-01-04T1800,3010A,119.8919,31.7892,常州市,钟楼,细颗粒物(PM2.5),119,128,94,90,72,4,,26,24,81,68,6,9,0.9,0.9
2026-01-04T1800,3429A,119.8595,31.706,常州市,武进经发区,细颗粒物(PM2.5),128,111,101,97,81,12,,28,25,76,73,7,11,0.9,0.9
2026-01-04T1800,3430A,119.5812,31.7256,常州市,金坛城区,细颗粒物(PM2.5),112,97,100,84,83,24,,24,24,45,49,6,9,0.9,1
2026-01-04T1800,4089A,119.9551,31.863,常州市,崇义南街5-H号,细颗粒物(PM2.5),114,87,94,86,78,8,,24,24,79,77,6,6,0.9,0.9
2026-01-04T1800,2220A,120.4318,41.588,朝阳市,西梁,颗粒物(PM10),70,90,139,48,84,18,,36,36,63,49,13,18,1.1,1.9
2026-01-04T1800,2221A,120.452,41.565,朝阳市,河畔小区,,39,33,91,27,70,41,,47,47,35,42,8,13,0.8,1.5
2026-01-04T1800,2222A,120.4176,41.5648,朝阳市,八里堡,颗粒物(PM10),69,88,109,37,73,27,,40,40,56,48,14,17,1.0,1.8
2026-01-04T1800,3026A,116.6179,23.6608,潮州市,市政府,颗粒物(PM10),51,52,60,21,29,68,,104,104,30,18,6,9,0.8,0.5
2026-01-04T1800,4036A,116.646,23.676,潮州市,金山,,43,40,50,30,31,78,,101,101,13,13,4,4,0.6,0.4
2026-01-04T1800,2473A,113.0116,25.8228,郴州市,市职中,细颗粒物(PM2.5),87,67,59,64,51,24,,25,25,17,18,4,4,0.6,0.6
2026-01-04T1800,2475A,113.0381,25.8074,郴州市,市审计局,细颗粒物(PM2.5),84,64,59,62,51,25,,26,26,16,19,2,4,/,/
2026-01-04T1800,2476A,113.0348,25.7757,郴州市,市环保局,细颗粒物(PM2.5),82,78,67,60,49,30,,31,31,19,26,3,5,0.7,0.7
2026-01-04T1800,4252A,113.0138,25.8011,郴州市,好美居路49号,细颗粒物(PM2.5),93,70,58,69,55,30,,29,29,18,22,3,5,/,/
2026-01-04T1800,1431A,103.9727,30.7242,成都市,金泉两河,细颗粒物(PM2.5),60,,31,43,15,72,,57,57,23,29,2,2,0.6,0.7
2026-01-04T1800,1432A,104.1423,30.6765,成都市,十里店,细颗粒物(PM2.5),62,47,26,44,15,69,,62,62,28,29,3,3,0.6,0.6
2026-01-04T1800,1433A,104.0594,30.5765,成都市,三瓦窑,细颗粒物(PM2.5),59,58,31,42,21,67,,61,61,29,31,3,3,0.7,0.7
2026-01-04T1800,1434A,104.1122,30.6306,成都市,沙河铺,细颗粒物(PM2.5),60,,34,43,26,61,,54,54,24,30,4,4,0.6,0.6
2026-01-04T1800,2880A,104.0219,30.6561,成都市,大石西路,细颗粒物(PM2.5),54,54,35,38,24,64,,53,53,24,29,4,4,0.6,0.6
2026-01-04T1800,3136A,104.2724,30.559,成都市,龙泉驿区区政府,,34,34,16,22,15,46,,39,39,14,19,6,6,0.6,0.7
2026-01-04T1800,3357A,104.0028,30.6891,成都市,金博路,,43,36,19,30,14,70,,57,57,26,30,5,5,0.7,0.8
2026-01-04T1800,3359A,104.056,30.5228,成都市,华阳,,42,36,24,29,22,71,,61,61,22,29,3,3,0.5,0.6
2026-01-04T1800,3488A,104.387954,30.746684,成都市,青石路225号,细颗粒物(PM2.5),70,51,27,51,21,59,,55,55,21,23,6,6,0.5,0.6
2026-01-04T1800,3489A,104.0788,30.4054,成都市,科学城,细颗粒物(PM2.5),74,55,28,54,25,76,,62,62,12,19,6,6,0.6,0.8
2026-01-04T1800,4011A,103.8505,30.6946,成都市,光华大道三段,细颗粒物(PM2.5),55,50,31,39,18,76,,65,65,23,24,3,3,0.7,0.7
2026-01-04T1800,4144A,104.3257,30.6406,成都市,八角井街185号,颗粒物(PM10),61,72,34,38,22,58,,56,56,24,24,6,5,0.8,1
2026-01-04T1800,4224A,104.2433276,30.53529463,成都市,鲸龙路1057号,,45,37,28,31,22,68,,60,60,19,24,6,5,0.3,0.4
2026-01-04T1800,1062A,117.9531,40.908,承德市,铁路,细颗粒物(PM2.5),82,102,69,60,37,9,,30,30,56,39,12,9,1.1,1.2
2026-01-04T1800,1063A,117.9397,40.9763,承德市,中国银行,颗粒物(PM10),60,70,75,29,35,12,,35,34,39,31,3,4,0.7,1
2026-01-04T1800,4073A,117.9462,40.95,承德市,杏林街1号,细颗粒物(PM2.5),62,63,66,44,42,16,,37,37,47,37,9,7,0.8,1.2
2026-01-04T1800,4274A,117.7994,40.9605,承德市,滨河大街98号,,32,28,66,22,29,52,,53,53,12,37,4,9,0.3,1
2026-01-04T1800,2314A,117.4698,30.6617,池州市,池州学院,细颗粒物(PM2.5),88,72,83,65,71,37,,38,36,32,34,4,6,0.7,0.8
2026-01-04T1800,3237A,117.4918,30.6617,池州市,展览馆,细颗粒物(PM2.5),82,75,76,60,61,38,,36,36,37,37,3,3,0.9,1.1
2026-01-04T1800,3333A,117.5626,30.695,池州市,第八中学,细颗粒物(PM2.5),84,72,83,62,67,26,,35,32,48,39,4,5,0.9,1
2026-01-04T1800,3334A,117.5037,30.6242,池州市,第十二中学,细颗粒物(PM2.5),88,75,75,65,60,33,,36,36,40,43,4,3,1.0,1.2
2026-01-04T1800,1744A,118.9229,42.2816,赤峰市,松山一中,,34,34,85,7,49,52,,55,55,26,44,6,20,0.7,1.6
2026-01-04T1800,1745A,118.9588,42.2733,赤峰市,哈达街,,20,20,77,8,46,50,,58,58,27,38,7,18,0.6,1.4
2026-01-04T1800,1746A,118.8792,42.2551,赤峰市,天义路,,18,11,65,3,53,55,,62,62,23,39,7,15,0.5,1.3
2026-01-04T1800,3058A,119.2656,42.0356,赤峰市,银河街,,38,38,134,13,87,54,,57,57,18,37,12,24,0.7,2.5
2026-01-04T1800,3286A,118.9359,42.3146,赤峰市,桥北物流园区,,25,,60,17,46,38,,59,59,38,37,7,15,0.7,1.2
2026-01-04T1800,2521A,107.3473,22.4137,崇左市,市环保局江州分局,细颗粒物(PM2.5),85,82,64,63,44,46,,38,38,22,20,8,8,0.7,0.7
2026-01-04T1800,4256A,107.375,22.3736,崇左市,石景林东路7号,细颗粒物(PM2.5),94,,55,70,48,45,,39,39,27,23,8,8,0.8,0.7
2026-01-04T1800,3207A,118.31131,32.3033,滁州市,市政府原办公楼,细颗粒物(PM2.5),83,75,78,61,61,54,,59,59,31,52,5,6,0.7,0.9
2026-01-04T1800,3331A,118.3268,32.2633,滁州市,图书馆,细颗粒物(PM2.5),88,76,74,65,61,56,,54,54,23,50,9,10,0.8,0.9
2026-01-04T1800,4101A,118.3196,32.3335,滁州市,银山路666号,细颗粒物(PM2.5),105,,74,79,77,51,,51,51,24,45,8,9,0.9,1.1
2026-01-04T1800,4102A,118.3426,32.2979,滁州市,黄山路555号,细颗粒物(PM2.5),99,78,88,74,75,57,,58,58,29,54,10,11,0.8,1
2026-01-04T1800,2606A,101.5379,25.0492,楚雄彝族自治州,市经济开发区,,25,9,21,6,17,77,,65,65,4,16,4,4,0.4,0.6
2026-01-04T1800,4153A,101.5536,25.0343,楚雄彝族自治州,团结路562号,,24,12,16,7,13,76,,64,64,3,10,2,2,0.3,0.4
2026-01-04T1800,2549A,107.5087,31.2186,达州市,市环境监测站,细颗粒物(PM2.5),55,56,59,39,44,27,,34,34,40,31,5,5,0.5,0.5
2026-01-04T1800,2550A,107.4988,31.2132,达州市,凤凰小区,细颗粒物(PM2.5),62,58,65,44,49,38,,38,38,26,26,4,4,0.4,0.5
2026-01-04T1800,2551A,107.5081,31.1987,达州市,达县机关宾馆,细颗粒物(PM2.5),69,56,67,50,51,33,,29,29,30,32,2,2,0.6,0.6
2026-01-04T1800,2552A,107.4644,31.2124,达州市,市政中心,颗粒物(PM10),61,71,68,34,44,42,,41,41,28,28,6,5,0.4,0.4
2026-01-04T1800,2614A,100.2168,25.5818,大理白族自治州,大理市环境监测站,,23,,13,15,14,72,,68,68,9,8,6,6,0.4,0.5
2026-01-04T1800,2615A,100.1542,25.7055,大理白族自治州,大理古城,,25,23,17,16,11,80,,80,80,5,8,8,8,0.6,0.6
2026-01-04T1800,1109A,121.6119,38.974,大连市,甘井子,细颗粒物(PM2.5),55,50,43,39,27,44,,61,51,37,29,14,11,0.5,0.4
2026-01-04T1800,1110A,121.565,38.9509,大连市,周水子,细颗粒物(PM2.5),58,54,51,41,36,42,,47,47,39,50,14,13,0.7,0.7
2026-01-04T1800,1111A,121.5637,38.8849,大连市,星海三站,细颗粒物(PM2.5),52,43,37,36,28,45,,50,50,30,28,13,11,0.9,0.8
2026-01-04T1800,1112A,121.6301,38.9117,大连市,青泥洼桥,细颗粒物(PM2.5),63,59,46,45,34,28,,41,40,52,47,15,10,0.9,0.7
2026-01-04T1800,1113A,121.6248,38.8643,大连市,傅家庄,细颗粒物(PM2.5),55,50,38,39,25,26,,49,40,46,32,15,11,0.7,0.3
2026-01-04T1800,1114A,121.5117,38.8636,大连市,七贤岭,,43,40,35,30,21,55,,59,54,22,18,12,9,1.0,0.7
2026-01-04T1800,1116A,121.7507,39.1339,大连市,金州,细颗粒物(PM2.5),60,58,38,43,26,56,,78,58,31,21,13,11,0.7,0.4
2026-01-04T1800,1117A,121.7811,39.0495,大连市,开发区,细颗粒物(PM2.5),58,57,66,41,42,37,,46,46,35,47,8,7,1.0,1
2026-01-04T1800,1118A,121.9762,39.0631,大连市,双D港,细颗粒物(PM2.5),55,57,32,39,21,52,,76,64,28,16,18,15,0.9,0.6
2026-01-04T1800,4082A,121.2548,38.8188,大连市,旅顺,颗粒物(PM10),63,76,64,42,48,38,,52,52,26,23,11,11,1.0,0.9
2026-01-04T1800,1789A,124.8085,46.0381,大庆市,大同区,,42,42,39,21,24,58,,60,60,15,20,6,6,0.4,0.4
2026-01-04T1800,1790A,125.1166,46.5255,大庆市,龙凤区,,28,28,34,7,18,43,,56,56,36,27,8,11,0.5,0.7
2026-01-04T1800,1791A,124.8894,46.4007,大庆市,红岗区,,27,27,28,14,19,50,,56,56,22,20,7,6,0.5,0.5
2026-01-04T1800,1792A,125.1391,46.578,大庆市,萨尔图区,,27,27,34,9,20,39,,53,53,29,22,8,9,0.5,0.4
2026-01-04T1800,1793A,124.9026,46.6217,大庆市,让胡路区,,32,25,29,22,26,60,,66,66,15,12,8,8,0.4,0.4
2026-01-04T1800,3481A,125.127,46.6277,大庆市,萨区政府监测点,,27,27,32,7,16,38,,60,60,33,24,9,9,0.7,0.7
2026-01-04T1800,1723A,113.2926,40.0759,大同市,云冈宾馆,,21,21,80,3,36,48,,55,55,15,41,4,14,0.4,1.7
2026-01-04T1800,1724A,113.3437,40.0921,大同市,大同大学,,37,37,55,9,27,49,,58,58,17,38,2,13,0.5,1.1
2026-01-04T1800,1725A,113.2637,40.129,大同市,安家小村,,30,30,73,6,33,56,,64,64,12,40,8,17,0.2,1.4
2026-01-04T1800,3282A,113.3399,40.0586,大同市,大同市卫生学校,,42,42,70,6,35,49,,56,56,18,42,3,13,0.5,1.2
2026-01-04T1800,3565A,113.1371,40.1122,大同市,云冈站,,26,26,65,6,29,42,,56,56,19,37,4,14,0.4,1.1
2026-01-04T1800,3566A,113.1186,40.2556,大同市,图书馆,,36,36,85,10,50,47,,56,56,16,35,7,13,0.7,1.6
2026-01-04T1800,3567A,113.5931,40.0459,大同市,区一中,,33,,94,23,51,52,,58,58,26,43,16,24,0.4,1.4
2026-01-04T1800,4199A,113.2798248,40.09972476,大同市,魏都大道141号,,34,34,98,10,39,46,,56,56,19,40,4,12,0.3,1.7
2026-01-04T1800,2269A,124.1068,50.4091,大兴安岭地区,科技局,,20,16,16,14,12,61,,63,63,2,2,5,4,0.3,0.3
2026-01-04T1800,3663A,124.117,50.4279,大兴安岭地区,红旗社区,,21,12,6,3,4,67,,68,68,2,3,5,5,0.2,0.2
2026-01-04T1800,1600A,124.33,40.0625,丹东市,江湾东路,细颗粒物(PM2.5),195,206,96,146,76,7,,47,42,73,41,34,24,2.8,2.3
2026-01-04T1800,1601A,124.4242,40.1513,丹东市,临江后街,颗粒物(PM10),68,86,84,45,56,12,,48,46,68,41,9,15,1.7,1.6
2026-01-04T1800,1602A,124.3935,40.1461,丹东市,元宝山,细颗粒物(PM2.5),64,64,69,46,57,16,,46,46,63,39,15,15,1.6,1.4
2026-01-04T1800,1603A,124.3634,40.1093,丹东市,民主桥,细颗粒物(PM2.5),149,171,86,114,57,5,,44,42,78,42,14,13,2.1,1.3
2026-01-04T1800,3541A,109.5726195,19.51688767,儋州市,第一中学子站,,43,43,37,20,20,77,,77,77,4,4,3,3,0.5,0.5
2026-01-04T1800,3542A,109.5567,19.5187,儋州市,东坡学校子站,,32,32,36,20,18,85,,84,84,4,4,5,4,0.4,0.5
2026-01-04T1800,2616A,98.5611,24.4273,德宏傣族景颇族自治州,德宏州监测站,,39,28,42,27,34,82,,49,49,13,18,6,7,0.6,0.7
2026-01-04T1800,3677A,98.5887,24.4366,德宏傣族景颇族自治州,芒市人民政府综合楼,,43,43,44,24,29,73,,44,44,10,15,8,9,0.5,0.7
2026-01-04T1800,1901A,104.424,31.1209,德阳市,东山公园,,43,31,23,30,20,50,,43,43,11,19,2,2,0.8,0.8
2026-01-04T1800,1902A,104.3827,31.1318,德阳市,西小区,,48,48,41,32,23,47,,48,48,20,26,3,2,0.9,0.9
2026-01-04T1800,1904A,104.3553,31.1091,德阳市,耐火材料厂,细颗粒物(PM2.5),58,44,33,41,27,44,,48,48,25,30,1,1,0.8,0.8
2026-01-04T1800,4145A,104.4144,31.1495,德阳市,市林业局,,42,36,29,29,24,43,,44,44,18,21,2,2,0.7,0.8
2026-01-04T1800,1622A,116.3034,37.4675,德州市,儿童乐园,细颗粒物(PM2.5),168,161,158,127,123,33,,36,36,49,49,18,17,1.5,1.5
2026-01-04T1800,1624A,116.2992,37.4449,德州市,监理站,细颗粒物(PM2.5),168,158,158,127,126,46,,44,44,49,54,20,19,1.1,1.2
2026-01-04T1800,3066A,116.2722,37.438,德州市,九衢泉纯净水厂,细颗粒物(PM2.5),178,161,162,134,131,33,,32,32,49,56,20,24,1.0,1.1
2026-01-04T1800,3371A,116.3693,37.44,德州市,开发区人民医院,细颗粒物(PM2.5),147,163,162,112,117,35,,41,41,63,70,18,18,1.0,0.9
2026-01-04T1800,3511A,116.5687,37.3331,德州市,陵城艺术中心,细颗粒物(PM2.5),170,166,164,129,132,23,,36,36,64,65,15,20,1.3,1.3
2026-01-04T1800,4292A,116.352738,37.420875,德州市,新河东路,细颗粒物(PM2.5),160,161,164,122,136,39,,35,35,55,74,18,17,1.3,1.4
2026-01-04T1800,2621A,99.7054,27.8319,迪庆藏族自治州,迪庆州站,,25,20,22,14,15,80,,82,82,7,8,5,5,0.4,0.4
2026-01-04T1800,3180A,99.7122,27.8129,迪庆藏族自治州,质量技术监督局,,27,22,19,15,15,85,,87,87,7,10,5,6,0.5,0.5
2026-01-04T1800,4257A,104.6092,35.5962,定西市,将台街,,41,41,71,27,54,91,,80,80,8,27,9,9,0.6,0.6
2026-01-04T1800,4309A,104.6159,35.5701,定西市,正龙路62号,颗粒物(PM10),54,57,72,31,57,84,,76,76,7,13,8,6,0.4,0.8
2026-01-04T1800,1390A,113.7943,23.0132,东莞市,东城石井,,33,27,51,15,31,105,,108,108,20,38,8,9,0.7,0.8
2026-01-04T1800,1391A,113.7384,22.9659,东莞市,南城西平,,36,33,62,18,36,114,,112,112,28,59,8,10,0.6,0.7
2026-01-04T1800,3319A,113.7283,23.041,东莞市,万江金泰,,38,38,60,21,33,112,,104,104,23,37,5,6,0.7,0.8
2026-01-04T1800,4129A,113.8666,23.1062,东莞市,裕兴路,,40,32,61,14,33,125,,119,119,14,36,4,10,0.6,0.7
2026-01-04T1800,4130A,114.0076,22.9739,东莞市,教育路1号,颗粒物(PM10),55,60,77,27,41,106,,118,118,52,53,6,6,0.8,0.9
2026-01-04T1800,4131A,113.7981,22.8124,东莞市,长怡路1号,,45,45,69,19,35,114,,117,117,31,50,8,9,0.7,0.8
2026-01-04T1800,1666A,118.6612,37.4313,东营市,市环保局,细颗粒物(PM2.5),211,193,165,161,131,53,,58,58,43,64,12,20,1.3,1.3
2026-01-04T1800,3036A,118.6903,37.4337,东营市,开发区管委会,细颗粒物(PM2.5),203,187,162,153,130,63,,65,65,39,66,15,22,1.3,1.3
2026-01-04T1800,3365A,118.5721,37.5654,东营市,垦利区民丰路,细颗粒物(PM2.5),218,202,166,168,133,42,,49,49,47,61,9,11,1.4,1.5
2026-01-04T1800,3498A,118.5063,37.8606,东营市,河口城区,细颗粒物(PM2.5),209,219,186,159,142,43,,59,57,46,50,7,7,1.2,1.3
2026-01-04T1800,3646A,118.4979,37.4623,东营市,胜利站,细颗粒物(PM2.5),203,205,181,153,142,49,,55,55,42,70,16,19,1.6,1.7
2026-01-04T1800,3734A,118.5753,37.4405,东营市,理想之城,细颗粒物(PM2.5),208,190,165,158,132,39,,49,49,54,73,10,13,1.4,1.4
2026-01-04T1800,1591A,110.0024,39.8127,鄂尔多斯市,综合楼,,31,31,40,9,17,65,,60,60,17,26,6,11,0.4,0.6
2026-01-04T1800,1592A,109.9485,39.8259,鄂尔多斯市,巴音孟克林场办事处,颗粒物(PM10),51,51,54,14,17,54,,57,57,27,29,7,12,0.4,0.7
2026-01-04T1800,1593A,109.7734,39.5987,鄂尔多斯市,康泽苑,,29,29,35,9,17,79,,80,80,8,14,5,6,0.3,0.4
2026-01-04T1800,1594A,109.8121,39.5987,鄂尔多斯市,华泰汽车城,,25,24,38,9,16,77,,76,76,9,20,3,4,0.3,0.5
2026-01-04T1800,1595A,109.9734,39.7884,鄂尔多斯市,奥林花园,颗粒物(PM10),52,53,54,7,14,56,,56,56,26,26,4,6,0.4,0.7
2026-01-04T1800,2436A,114.894,30.3989,鄂州市,市政府,细颗粒物(PM2.5),80,61,49,59,44,27,,61,32,22,22,4,5,0.8,0.7
2026-01-04T1800,2437A,114.8986,30.3714,鄂州市,赵家坝,细颗粒物(PM2.5),82,,47,60,46,34,,55,41,15,15,6,7,0.6,0.4
2026-01-04T1800,3654A,114.8093,30.4091,鄂州市,精准医疗中心,细颗粒物(PM2.5),78,65,58,57,51,35,,58,47,18,16,4,4,1.0,0.9
2026-01-04T1800,2454A,109.4978,30.2979,恩施土家族苗族自治州,湖北民院,细颗粒物(PM2.5),70,,40,51,42,35,,48,48,22,13,6,6,0.8,0.7
2026-01-04T1800,3549A,109.5061,30.3771,恩施土家族苗族自治州,龙凤新区,细颗粒物(PM2.5),58,44,50,41,45,28,,28,28,14,11,7,7,0.5,0.5
2026-01-04T1800,2499A,108.3411,21.6159,防城港市,沙万,颗粒物(PM10),104,157,92,25,41,122,,107,107,18,27,7,8,0.5,0.8
2026-01-04T1800,2500A,108.3515,21.7733,防城港市,防城档案局,颗粒物(PM10),52,54,77,35,49,94,,88,88,17,26,7,6,0.9,0.8
2026-01-04T1800,2501A,108.3506,21.6414,防城港市,大海花园,颗粒物(PM10),52,54,60,24,39,133,,114,114,7,21,7,10,0.5,0.9
2026-01-04T1800,1371A,113.1293,23.0065,佛山市,湾梁,颗粒物(PM10),59,68,77,27,46,126,,88,88,39,68,/,/,/,/
2026-01-04T1800,1372A,113.1082,23.0477,佛山市,华材职中,颗粒物(PM10),63,75,91,35,44,135,,98,98,31,68,6,7,0.5,0.8
2026-01-04T1800,1373A,113.1439,23.045,佛山市,南海气象局,细颗粒物(PM2.5),55,56,80,39,45,122,,88,88,33,68,/,/,/,/
2026-01-04T1800,1374A,113.2879,22.8094,佛山市,顺德苏岗,,44,44,63,27,39,111,,101,101,41,57,/,/,0.7,0.8
2026-01-04T1800,1376A,112.8384,22.8678,佛山市,高明孔堂,细颗粒物(PM2.5),70,67,67,51,48,142,,105,105,32,41,/,/,/,/
2026-01-04T1800,1377A,112.8835,23.1584,佛山市,三水监测站,颗粒物(PM10),68,85,90,47,57,125,,105,105,32,57,8,12,0.6,0.7
2026-01-04T1800,1378A,112.8668,23.185,佛山市,三水云东海,颗粒物(PM10),62,74,81,37,51,108,,110,110,29,42,/,/,/,/
2026-01-04T1800,3625A,113.2568,22.7629,佛山市,容桂街道办,颗粒物(PM10),54,58,72,34,44,117,,82,82,31,53,/,/,/,/
2026-01-04T1800,1282A,119.2681,26.0506,福州市,师大,,49,49,34,15,15,66,,76,76,42,25,7,8,0.4,0.5
2026-01-04T1800,1283A,119.2983,26.1028,福州市,五四北路,颗粒物(PM10),54,57,34,23,12,52,,74,74,43,21,4,5,0.6,0.5
2026-01-04T1800,1284A,119.2648,26.0769,福州市,杨桥西路,,40,40,30,16,11,77,,80,80,25,16,4,5,/,/
2026-01-04T1800,3048A,119.5799,26.0937,福州市,九龙,,32,32,27,16,11,88,,87,87,17,16,5,6,0.5,0.5
2026-01-04T1800,3526A,119.5188,25.9666,福州市,吴航,,38,38,27,16,14,70,,74,74,34,24,9,6,0.9,0.6
2026-01-04T1800,4104A,119.3106,26.0648,福州市,路通桥巷6号,颗粒物(PM10),54,57,31,22,17,60,,76,76,35,16,/,/,/,/
2026-01-04T1800,1755A,123.7974,41.8494,抚顺市,望花区,细颗粒物(PM2.5),212,179,161,162,122,11,,26,26,89,65,15,14,1.7,2.2
2026-01-04T1800,1756A,123.9161,41.8827,抚顺市,顺城区,细颗粒物(PM2.5),180,153,138,136,101,9,,31,30,94,63,12,13,1.8,2.1
2026-01-04T1800,1757A,124.0437,41.8615,抚顺市,东洲区,细颗粒物(PM2.5),166,128,123,126,101,14,,28,28,79,59,15,18,1.5,2.2
2026-01-04T1800,1758A,123.9246,41.8638,抚顺市,新抚区,细颗粒物(PM2.5),192,159,141,144,107,7,,28,26,88,59,,10,1.8,2.1
2026-01-04T1800,1759A,124.0972,41.8961,抚顺市,大伙房水库,细颗粒物(PM2.5),182,141,113,137,87,13,,38,36,79,54,15,17,1.7,2
2026-01-04T1800,1760A,123.708,41.8386,抚顺市,沈抚新城,细颗粒物(PM2.5),185,176,152,139,122,15,,31,30,96,65,13,14,1.5,2.3
2026-01-04T1800,2377A,116.3544,27.9833,抚州市,市站,细颗粒物(PM2.5),62,50,53,44,40,41,,42,39,19,17,7,11,0.6,0.5
2026-01-04T1800,2378A,116.3562,27.9631,抚州市,血防站,细颗粒物(PM2.5),55,56,57,39,40,39,,47,36,21,21,5,9,0.8,0.7
2026-01-04T1800,2379A,116.3561,28.0007,抚州市,采茶剧团,细颗粒物(PM2.5),59,53,55,42,40,38,,41,37,19,14,4,9,0.8,0.7
2026-01-04T1800,2380A,116.3854,27.9648,抚州市,医学分院,细颗粒物(PM2.5),57,54,58,40,37,43,,48,42,20,18,8,9,0.6,0.6
2026-01-04T1800,2207A,121.6095,41.9978,阜新市,工业园区,颗粒物(PM10),51,51,106,26,58,47,,66,66,29,33,13,19,0.6,1
2026-01-04T1800,2208A,121.6567,42.0188,阜新市,长青街,,27,27,70,8,54,61,,68,68,13,33,8,11,0.3,0.9
2026-01-04T1800,2209A,121.6672,42.07,阜新市,农业园区,颗粒物(PM10),80,110,58,17,35,58,,66,66,16,21,8,17,0.4,0.6
2026-01-04T1800,2211A,121.6343,42.0455,阜新市,玉龙新城,,44,44,95,13,55,34,,62,62,43,38,8,10,0.3,0.9
2026-01-04T1800,2301A,115.8276,32.8929,阜阳市,市监测站,细颗粒物(PM2.5),102,95,88,76,67,37,,36,36,34,42,4,5,0.7,0.7
2026-01-04T1800,2303A,115.8551,32.8606,阜阳市,开发区,细颗粒物(PM2.5),100,87,81,75,62,40,,31,31,30,41,5,5,0.6,0.6
2026-01-04T1800,2875A,115.783962,32.889217,阜阳市,阜阳职业技术学院,细颗粒物(PM2.5),79,74,71,58,55,45,,52,52,19,24,5,6,0.7,0.7
2026-01-04T1800,3468A,115.79,32.8614,阜阳市,市规划展馆,细颗粒物(PM2.5),87,73,73,64,59,50,,50,50,19,25,5,7,0.5,0.5
2026-01-04T1800,3469A,115.835101,32.918568,阜阳市,枣园社区,细颗粒物(PM2.5),105,102,85,79,66,36,,38,38,40,45,6,6,0.4,0.4
2026-01-04T1800,2669A,102.9097,34.9841,甘南藏族自治州,州政府,,,28,78,13,52,86,,65,65,,26,3,3,0.4,0.8
2026-01-04T1800,3380A,102.8915,34.9618,甘南藏族自治州,甘肃民族师范学院,,27,23,73,18,52,85,,70,70,11,29,5,5,0.3,0.6
2026-01-04T1800,2570A,101.96,30.048,甘孜藏族自治州,水桥子,,24,8,7,7,5,74,,56,56,10,12,6,6,0.6,0.7
2026-01-04T1800,3065A,101.9534,29.9976,甘孜藏族自治州,州环保局,,24,15,11,8,5,74,,54,54,11,11,6,6,0.5,0.6
2026-01-04T1800,2363A,114.9368,25.8663,赣州市,地委,颗粒物(PM10),53,55,49,31,27,57,,44,44,16,28,8,8,0.8,0.8
2026-01-04T1800,2364A,114.946,25.8483,赣州市,气象台,颗粒物(PM10),56,61,56,29,22,56,,50,50,30,44,2,2,0.8,0.8
2026-01-04T1800,2365A,114.932,25.8332,赣州市,市图书馆,,50,50,47,31,28,50,,44,44,25,37,4,4,0.7,0.7
2026-01-04T1800,2366A,114.8905,25.8472,赣州市,华坚鞋城,颗粒物(PM10),53,56,46,29,25,49,,50,50,26,31,6,6,0.5,0.5
2026-01-04T1800,3109A,115.0094,25.8614,赣州市,赣县区卫计委,颗粒物(PM10),54,57,44,34,34,53,,45,45,30,30,8,8,0.5,0.5
2026-01-04T1800,2684A,106.2753,36.0057,固原市,监测站,,29,,42,17,39,90,,88,88,13,22,4,4,0.5,0.8
2026-01-04T1800,2685A,106.2384,36.0189,固原市,新区,,28,19,37,17,33,88,,94,94,14,15,4,3,0.6,0.7
2026-01-04T1800,2544A,106.6307,30.4577,广安市,市委,细颗粒物(PM2.5),54,48,50,38,38,49,,45,45,22,19,5,5,0.8,0.8
2026-01-04T1800,2545A,106.6266,30.4662,广安市,友谊中学,细颗粒物(PM2.5),60,48,43,43,40,60,,55,55,11,7,6,6,0.6,0.6
2026-01-04T1800,2547A,106.6386,30.4551,广安市,广电花园,细颗粒物(PM2.5),58,41,45,41,38,45,,45,45,23,16,8,8,0.6,0.6
2026-01-04T1800,2902A,106.6347,30.4868,广安市,北辰小学,细颗粒物(PM2.5),62,44,45,44,42,61,,53,53,15,12,18,16,0.9,0.9
2026-01-04T1800,2524A,105.8211,32.4444,广元市,老城,,33,30,38,23,33,72,,82,82,27,31,8,5,0.7,0.8
2026-01-04T1800,2526A,105.8629,32.429,广元市,监测站,,37,37,45,18,29,85,,81,81,12,23,2,3,0.5,1
2026-01-04T1800,3617A,105.8047,32.4167,广元市,经开区,,30,29,42,21,33,71,,74,74,19,26,2,3,0.6,0.9
2026-01-04T1800,1345A,113.2346,23.1423,广州市,广雅中学,颗粒物(PM10),56,62,74,32,42,117,,96,96,31,58,3,3,0.7,0.8
2026-01-04T1800,1346A,113.2611,23.105,广州市,市五中,颗粒物(PM10),52,53,63,26,37,128,,113,113,42,68,9,9,/,/
2026-01-04T1800,1348A,113.3477,23.0916,广州市,广东商学院,,40,40,60,23,39,108,,101,101,31,55,6,7,0.5,0.6
2026-01-04T1800,1349A,113.4332,23.105,广州市,市八十六中,,37,30,51,18,36,117,,107,107,26,58,7,9,/,/
2026-01-04T1800,1350A,113.3506,22.9488,广州市,番禺中学,,49,49,77,26,44,124,,106,106,38,62,4,6,0.5,0.6
2026-01-04T1800,1351A,113.2147,23.3918,广州市,花都师范,颗粒物(PM10),56,62,67,36,39,157,,119,119,28,57,7,7,0.5,0.6
2026-01-04T1800,1352A,113.2599,23.1329,广州市,市监测站,颗粒物(PM10),52,54,68,27,41,108,,98,98,44,65,2,2,/,/
2026-01-04T1800,1353A,113.5618,23.3119,广州市,九龙镇镇龙,颗粒物(PM10),52,53,57,32,32,134,,108,108,20,35,6,6,0.4,0.5
2026-01-04T1800,1354A,113.2764,23.1544,广州市,麓湖,,44,44,53,23,34,99,,101,101,32,55,7,8,0.3,0.4
2026-01-04T1800,2846A,113.3209,23.1323,广州市,体育西,颗粒物(PM10),54,58,62,30,38,113,,107,107,37,57,6,6,0.6,0.7
2026-01-04T1800,3298A,113.5718,23.5493,广州市,从化街口,颗粒物(PM10),53,55,54,34,36,101,,109,109,45,34,18,9,0.8,0.7
2026-01-04T1800,3299A,113.3463,23.369,广州市,白云竹料,颗粒物(PM10),57,63,65,34,40,135,,119,119,24,41,6,4,0.5,0.6
2026-01-04T1800,3300A,113.2981,23.2365,广州市,白云嘉禾,颗粒物(PM10),57,63,62,26,32,119,,111,111,50,54,5,5,/,/
2026-01-04T1800,3301A,113.4256,23.1716,广州市,黄埔科学城,,39,32,47,18,29,122,,119,119,23,34,6,6,0.5,0.6
2026-01-04T1800,3302A,113.3942,23.0485,广州市,番禺大学城,,,,64,,36,,,111,111,,53,,10,,0.6
2026-01-04T1800,3303A,113.4923,22.8169,广州市,南沙黄阁,颗粒物(PM10),58,65,63,31,33,97,,109,109,53,49,11,9,/,/
2026-01-04T1800,3304A,113.534,22.7893,广州市,南沙街,颗粒物(PM10),53,55,57,27,31,102,,108,108,43,36,10,7,0.6,0.6
2026-01-04T1800,3443A,113.2905,23.5541,广州市,花都梯面,,47,47,41,26,24,118,,116,116,26,31,8,6,/,/
2026-01-04T1800,3445A,113.786,23.7479,广州市,从化良口,,38,33,22,26,17,91,,89,89,12,12,9,7,/,/
2026-01-04T1800,3446A,113.805,23.2614,广州市,增城荔城,,29,29,33,19,23,92,,97,97,16,20,6,8,0.5,0.5
2026-01-04T1800,2506A,109.604387,23.066791,贵港市,江南子站,,,,81,,54,47,,60,60,29,34,7,10,0.9,0.9
2026-01-04T1800,2508A,109.5669,23.1065,贵港市,荷城子站,细颗粒物(PM2.5),110,102,68,83,45,32,,52,52,30,26,6,9,0.8,0.7
2026-01-04T1800,3405A,109.5886,23.1172,贵港市,新世纪学校,细颗粒物(PM2.5),103,122,76,77,47,35,,57,57,34,29,/,/,0.7,0.6
2026-01-04T1800,4260A,109.5933,23.095,贵港市,中山路155-3号,细颗粒物(PM2.5),93,99,63,69,48,45,,64,64,31,30,/,/,0.9,0.8
2026-01-04T1800,1439A,106.6863,26.6035,贵阳市,马鞍山,,20,17,15,14,13,37,,36,36,11,15,6,5,/,/
2026-01-04T1800,1441A,106.6241,26.6266,贵阳市,鉴湖路,,34,34,19,12,8,42,,46,46,19,18,5,3,0.6,0.6
2026-01-04T1800,1442A,106.7468,26.6344,贵阳市,燕子冲,,45,36,20,31,20,37,,35,35,14,16,6,8,0.8,0.8
2026-01-04T1800,1443A,106.6556,26.4362,贵阳市,碧云窝,,36,36,26,22,12,34,,27,27,20,19,9,7,/,/
2026-01-04T1800,1445A,106.6963,26.6063,贵阳市,红边门,,29,29,19,19,13,26,,28,28,23,18,10,9,/,/
2026-01-04T1800,1446A,106.7162383,26.56964667,贵阳市,新华路,,42,34,24,29,12,36,,36,36,15,16,7,7,0.6,0.6
2026-01-04T1800,1447A,106.6742,26.542,贵阳市,太慈桥,,25,19,16,17,11,41,,36,36,20,20,5,4,/,/
2026-01-04T1800,4230A,106.688212,26.56952,贵阳市,花果园大街66号,,23,,10,16,14,36,,33,33,17,18,4,3,/,/
2026-01-04T1800,4231A,106.687268,26.516892,贵阳市,漓江路57号,,31,31,21,19,14,33,,31,31,21,21,9,8,0.8,0.8
2026-01-04T1800,1864A,110.3091,25.2705,桂林市,龙隐路小学,细颗粒物(PM2.5),65,62,55,47,62,9,,29,19,30,18,7,6,0.6,0.5
2026-01-04T1800,1865A,110.2849361,25.22909545,桂林市,八中,细颗粒物(PM2.5),73,72,54,53,59,7,,26,18,38,24,7,7,0.8,0.6
2026-01-04T1800,3531A,110.296,25.1254,桂林市,旅游学院,细颗粒物(PM2.5),73,63,52,53,44,23,,30,29,23,19,3,3,0.6,0.6
2026-01-04T1800,4222A,110.1835,25.2444,桂林市,环湖路276号,细颗粒物(PM2.5),67,53,61,48,51,6,,29,19,37,23,5,6,0.7,0.6
2026-01-04T1800,4301A,110.2803,25.2773,桂林市,信义路13号,"颗粒物(PM10),细颗粒物(PM2.5)",53,55,55,37,53,5,,31,17,40,24,5,4,0.8,0.7
2026-01-04T1800,2674A,100.2262,34.4854,果洛藏族自治州,玛沁县大武镇,,29,27,36,19,9,92,,80,80,1,3,8,14,0.3,0.4
2026-01-04T1800,1130A,126.5557,45.8109,哈尔滨市,松北商大,,25,25,56,13,41,46,,55,55,20,30,6,9,0.5,0.7
2026-01-04T1800,1132A,126.6162,45.719,哈尔滨市,南岗学府路,颗粒物(PM10),51,52,60,35,42,38,,49,49,27,29,12,12,0.8,0.8
2026-01-04T1800,1133A,126.6894,45.7733,哈尔滨市,太平宏伟公园,,35,26,45,24,36,46,,56,56,23,27,12,23,0.5,0.6
2026-01-04T1800,1134A,126.6361,45.7672,哈尔滨市,道外承德广场,,44,44,64,22,38,37,,53,53,37,31,10,11,0.7,0.2
2026-01-04T1800,1136A,126.644,45.7261,哈尔滨市,动力和平路,,45,44,55,31,38,44,,50,50,23,30,12,16,0.6,0.7
2026-01-04T1800,1137A,126.5933,45.7479,哈尔滨市,道里建国路,,42,34,50,29,44,32,,50,50,31,27,12,18,0.9,0.2
2026-01-04T1800,1138A,126.6127,45.6119,哈尔滨市,平房东轻厂,,46,38,57,32,67,17,,46,45,48,39,10,8,0.4,0.5
2026-01-04T1800,1139A,126.5875,45.9827,哈尔滨市,呼兰师专,细颗粒物(PM2.5),57,43,52,40,52,40,,51,51,24,27,9,9,0.6,0.7
2026-01-04T1800,1140A,126.6299,45.6799,哈尔滨市,省农科院,细颗粒物(PM2.5),73,64,82,53,60,21,,43,43,49,42,16,15,1.7,1.2
2026-01-04T1800,4282A,126.6769,45.7379,哈尔滨市,华山路1号,,46,46,50,25,36,45,,48,48,29,32,19,29,0.7,0.7
2026-01-04T1800,4283A,126.9717,45.5356,哈尔滨市,解放大街52号,细颗粒物(PM2.5),118,,112,89,71,48,,51,51,23,37,18,17,0.6,1.1
2026-01-04T1800,2688A,93.5124,42.8176,哈密市,地区监测站,颗粒物(PM10),52,53,48,28,32,61,,61,60,13,14,5,4,0.3,0.1
2026-01-04T1800,2689A,93.5014,42.8312,哈密市,哈密师范学校,,42,42,55,24,26,63,,60,60,15,29,9,7,0.2,0.4
2026-01-04T1800,2671A,100.9016,36.9464,海北藏族自治州,海晏县西海镇,,29,17,75,15,62,91,,81,81,3,21,7,14,0.3,1
2026-01-04T1800,3867A,102.074,36.5056,海东市,平安区公安局北苑,细颗粒物(PM2.5),75,98,83,55,73,73,,54,54,25,18,26,20,1.1,1.1
2026-01-04T1800,4163A,102.0984,36.5119,海东市,滨河路,细颗粒物(PM2.5),114,96,80,86,74,74,,58,58,37,38,26,19,1.1,1.1
2026-01-04T1800,1410A,110.3189,20.0596,海口市,海南大学,,43,43,39,20,17,117,,111,111,8,7,6,6,0.3,0.3
2026-01-04T1800,1411A,110.2827,20.0051,海口市,秀英海南医院,,44,44,42,18,16,100,,97,97,9,9,7,7,0.3,0.3
2026-01-04T1800,1412A,110.3391,19.9979,海口市,海南师范大学,,48,48,40,19,17,111,,108,108,9,9,5,5,0.4,0.4
2026-01-04T1800,1413A,110.3303,20.0359,海口市,龙华路环保局宿舍,,42,42,39,20,17,115,,110,110,10,9,/,/,0.6,0.5
2026-01-04T1800,3539A,110.5111,19.9737,海口市,桂林洋子站,,43,43,36,20,17,104,,102,102,10,8,/,/,/,/
2026-01-04T1800,4134A,110.1952,20.0451,海口市,长滨二路9号,,39,39,33,20,17,109,,106,106,6,6,/,/,/,/
2026-01-04T1800,2673A,100.6158,36.2985,海南藏族自治州,共和县恰卜恰镇,,28,22,49,17,37,87,,84,84,9,19,9,11,0.4,0.7
2026-01-04T1800,2676A,97.373,37.376,海西蒙古族藏族自治州,德令哈市,,36,36,18,15,9,95,,88,88,10,6,11,12,0.6,0.5
2026-01-04T1800,1049A,114.492,36.5712,邯郸市,矿院,细颗粒物(PM2.5),257,,166,207,182,25,,23,23,59,56,5,4,1.3,1.2
2026-01-04T1800,1050A,114.4839,36.6136,邯郸市,丛台公园,细颗粒物(PM2.5),247,212,184,197,170,26,,24,24,57,46,7,6,1.2,1.2
2026-01-04T1800,3458A,114.7893,36.5592,邯郸市,香泉濮院小区,细颗粒物(PM2.5),240,203,168,190,163,41,,41,41,46,45,6,6,1.3,1.2
2026-01-04T1800,3580A,114.1998,36.4439,邯郸市,峰峰矿区临水派出所,细颗粒物(PM2.5),291,,135,241,191,32,,38,38,47,42,10,11,1.7,1.5
2026-01-04T1800,4068A,114.5209,36.7697,邯郸市,建安街268号,细颗粒物(PM2.5),266,216,193,216,184,14,,18,18,71,63,9,9,1.4,1.4
2026-01-04T1800,4069A,114.5488,36.6177,邯郸市,丛台东路558号,细颗粒物(PM2.5),274,250,222,224,189,24,,26,26,61,58,8,8,1.3,1.2
2026-01-04T1800,2635A,107.0155,33.0707,汉中市,市监测站,,49,41,54,34,55,74,,66,66,20,22,6,4,0.6,0.8
2026-01-04T1800,2636A,107.0083,33.114,汉中市,鑫源开发区,,50,40,56,35,58,82,,70,70,15,22,5,6,0.3,0.7
2026-01-04T1800,2637A,107.0072,33.0323,汉中市,南郑大河坎水厂,细颗粒物(PM2.5),55,45,72,39,62,70,,68,68,25,20,6,5,0.8,1.1
2026-01-04T1800,1223A,120.2073,30.2111,杭州市,滨江,细颗粒物(PM2.5),113,109,111,85,84,0,,12,9,69,64,6,7,0.8,0.8
2026-01-04T1800,1224A,120.0625,30.2737,杭州市,西溪,细颗粒物(PM2.5),97,102,97,72,74,0,,10,7,62,59,9,9,1.0,1
2026-01-04T1800,1226A,120.3417,30.315,杭州市,下沙,细颗粒物(PM2.5),133,126,114,101,91,1,,14,10,76,71,8,10,1.0,1.2
2026-01-04T1800,1227A,120.1252,30.2465,杭州市,卧龙桥,细颗粒物(PM2.5),112,118,100,84,79,1,,12,9,49,41,10,10,1.0,0.9
2026-01-04T1800,1228A,120.1902,30.2691,杭州市,浙江农大,细颗粒物(PM2.5),115,122,125,87,99,0,,10,9,71,72,4,5,0.8,0.7
2026-01-04T1800,1230A,120.1195,30.3121,杭州市,和睦小学,细颗粒物(PM2.5),114,119,119,86,86,3,,8,7,61,62,6,6,0.9,1
2026-01-04T1800,1231A,120.3076,30.4146,杭州市,临平镇,细颗粒物(PM2.5),113,122,129,85,90,1,,6,6,67,69,8,8,0.7,0.8
2026-01-04T1800,1232A,120.2753,30.1839,杭州市,城厢镇,细颗粒物(PM2.5),105,110,105,79,76,0,,17,15,76,66,8,9,0.8,0.6
2026-01-04T1800,1233A,120.0883,30.1808,杭州市,云栖,细颗粒物(PM2.5),95,89,94,71,76,6,,12,11,45,44,3,3,0.9,0.9
2026-01-04T1800,3557A,119.9463,30.0496,杭州市,镇二中,细颗粒物(PM2.5),124,104,86,94,82,3,,12,10,66,53,6,6,1.4,1
2026-01-04T1800,3558A,119.7184,30.2367,杭州市,市府大楼,细颗粒物(PM2.5),110,135,110,83,79,2,,18,16,56,36,10,10,1.4,1
2026-01-04T1800,3656A,120.1554,30.2863,杭州市,消防大队,细颗粒物(PM2.5),105,100,106,79,88,1,,11,9,64,62,6,7,0.4,0.4
2026-01-04T1800,1270A,117.1957,31.7845,合肥市,明珠广场,细颗粒物(PM2.5),104,95,88,78,69,5,,22,,69,53,5,6,1.0,1
2026-01-04T1800,1271A,117.307,31.8765,合肥市,三里街,细颗粒物(PM2.5),83,70,78,61,62,41,,24,24,41,60,5,6,0.8,0.8
2026-01-04T1800,1272A,117.2587,31.8703,合肥市,琥珀山庄,细颗粒物(PM2.5),88,85,83,65,65,34,,26,24,45,51,7,9,1.1,1.1
2026-01-04T1800,1275A,117.2593,31.9376,合肥市,庐阳区,细颗粒物(PM2.5),77,88,93,56,65,50,,28,28,41,72,3,4,0.9,1
2026-01-04T1800,1276A,117.345251,31.861615,合肥市,瑶海区,细颗粒物(PM2.5),70,61,80,51,62,53,,33,33,36,66,4,6,0.9,0.9
2026-01-04T1800,1277A,117.3033,31.7967,合肥市,包河区,细颗粒物(PM2.5),94,85,86,70,70,12,,15,14,73,75,6,7,1.0,1
2026-01-04T1800,1278A,117.278,31.7392,合肥市,滨湖新区,细颗粒物(PM2.5),110,90,80,83,72,21,,35,35,56,42,4,5,1.0,1
2026-01-04T1800,1279A,117.1324,31.8395,合肥市,高新区,细颗粒物(PM2.5),80,78,79,59,62,34,,29,24,47,53,4,5,0.8,0.8
2026-01-04T1800,3464A,117.3802,31.9148,合肥市,高教基地,细颗粒物(PM2.5),74,61,76,54,66,60,,46,46,23,47,7,7,0.8,0.9
2026-01-04T1800,4098A,117.2518,31.8404,合肥市,中国科学技术大学,细颗粒物(PM2.5),80,90,78,59,59,28,,30,23,52,51,5,6,0.8,0.8
2026-01-04T1800,3614A,79.9241,37.0878,和田地区,地区环保局,,44,44,46,26,27,51,,49,46,12,13,1,2,0.8,0.8
2026-01-04T1800,3615A,79.9132,37.1137,和田地区,市环保局,,38,38,43,17,20,56,,51,51,15,20,1,2,0.1,0.4
2026-01-04T1800,2517A,108.0496,24.6957,河池市,市环保站,,19,,24,13,22,18,,29,24,15,12,2,3,0.8,0.8
2026-01-04T1800,4302A,108.0901,24.6945,河池市,上任中路54号,,9,7,25,6,23,23,,27,20,10,14,4,5,0.7,0.7
2026-01-04T1800,1697A,114.6962,23.7538,河源市,东埔,,39,33,32,27,22,82,,84,84,18,30,6,7,0.8,0.8
2026-01-04T1800,1698A,114.6895,23.7232,河源市,老城,,43,43,34,26,24,87,,83,83,13,22,7,7,0.7,0.8
2026-01-04T1800,3374A,115.5562,35.089,菏泽市,定陶老年大学,细颗粒物(PM2.5),92,70,98,68,82,45,,43,43,22,22,2,2,0.8,0.8
2026-01-04T1800,4114A,115.4239,35.2593,菏泽市,黄河路600号,细颗粒物(PM2.5),135,108,104,103,86,22,,48,47,34,25,3,2,1.3,1
2026-01-04T1800,4115A,115.5025,35.2727,菏泽市,菏泽市人社局,细颗粒物(PM2.5),124,110,94,94,79,28,,48,47,27,21,2,2,0.9,0.6
2026-01-04T1800,4184A,115.479691,35.244011,菏泽市,永昌路1号,细颗粒物(PM2.5),138,110,98,105,84,29,,52,52,33,22,6,5,0.9,0.6
2026-01-04T1800,4193A,115.471542,35.280012,菏泽市,长城路999号,细颗粒物(PM2.5),128,108,97,97,78,28,,50,50,30,20,5,4,1.3,1.1
2026-01-04T1800,2514A,111.5264,24.4178,贺州市,环保小区,细颗粒物(PM2.5),72,73,64,52,49,48,,58,58,21,26,6,7,0.7,0.7
2026-01-04T1800,2515A,111.561,24.4074,贺州市,政协大楼,细颗粒物(PM2.5),77,83,67,56,52,48,,57,57,22,32,9,12,0.7,0.8
2026-01-04T1800,3534A,111.4744,24.455,贺州市,西湾,细颗粒物(PM2.5),72,77,63,52,47,45,,52,52,21,28,8,8,0.8,0.8
2026-01-04T1800,2385A,114.17,35.9019,鹤壁市,市监测站,细颗粒物(PM2.5),279,235,181,229,163,25,,22,22,45,44,5,5,3.1,1.6
2026-01-04T1800,2386A,114.2953,35.7512,鹤壁市,市交警支队,细颗粒物(PM2.5),259,241,170,209,145,17,,17,17,53,51,2,4,2.4,1.3
2026-01-04T1800,2387A,114.2877,35.7302,鹤壁市,迎宾馆,细颗粒物(PM2.5),259,220,165,209,148,14,,20,20,44,42,5,7,2.6,1.5
2026-01-04T1800,3474A,114.2616,35.6824,鹤壁市,大新区,细颗粒物(PM2.5),302,,157,252,164,21,,26,26,47,48,7,7,2.6,1.5
2026-01-04T1800,3596A,114.1573,35.9607,鹤壁市,南山宾馆,细颗粒物(PM2.5),253,228,184,203,161,31,,24,24,44,44,8,7,2.9,1.5
2026-01-04T1800,2244A,130.2537,47.3416,鹤岗市,哈啤分公司,,32,22,23,22,21,69,,70,70,5,6,7,6,0.3,0.3
2026-01-04T1800,2245A,130.2683,47.3087,鹤岗市,斯达机电,,28,24,26,19,23,73,,74,74,6,6,5,5,0.3,0.4
2026-01-04T1800,2246A,130.3114,47.3388,鹤岗市,东山纸板厂,,39,39,26,8,17,73,,75,75,8,6,8,7,0.5,0.6
2026-01-04T1800,2263A,127.4832,50.2524,黑河市,交通局,,28,19,13,19,14,62,,68,68,6,6,4,4,0.3,0.3
2026-01-04T1800,2264A,127.5146,50.2339,黑河市,环保局,,22,17,14,15,13,55,,64,60,12,10,5,6,0.4,0.3
2026-01-04T1800,1074A,115.6839,37.754,衡水市,电机北厂,细颗粒物(PM2.5),230,202,185,180,157,40,,32,32,38,50,4,6,1.0,1.1
2026-01-04T1800,1075A,115.6303,37.7318,衡水市,市监测站,细颗粒物(PM2.5),228,188,167,178,147,43,,32,32,36,47,6,7,1.0,1.1
2026-01-04T1800,3188A,115.6684,37.7216,衡水市,市城管局,细颗粒物(PM2.5),210,187,170,160,144,48,,34,34,39,54,8,9,1.0,1.2
2026-01-04T1800,3459A,115.599,37.5491,衡水市,地表水厂,细颗粒物(PM2.5),221,,153,171,156,31,,31,31,51,56,6,7,1.0,1
2026-01-04T1800,2457A,112.6209,26.9268,衡阳市,衡阳化工总厂,细颗粒物(PM2.5),70,62,51,51,53,17,,29,18,19,18,5,6,1.2,1.1
2026-01-04T1800,2458A,112.621,26.8957,衡阳市,珠晖区环保局,细颗粒物(PM2.5),73,59,48,53,54,14,,24,14,25,23,3,4,1.2,1
2026-01-04T1800,2459A,112.628,26.8654,衡阳市,市委党校,细颗粒物(PM2.5),74,,49,54,54,18,,30,18,23,20,8,9,1.1,0.9
2026-01-04T1800,2460A,112.6007,26.8977,衡阳市,市监测站,细颗粒物(PM2.5),77,74,77,56,60,14,,28,18,23,18,5,6,1.1,0.9
2026-01-04T1800,2461A,112.5658,26.9013,衡阳市,真空机电公司,细颗粒物(PM2.5),77,65,70,56,59,20,,25,18,20,21,5,7,1.0,1
2026-01-04T1800,3399A,112.6703,26.8817,衡阳市,师范学院,细颗粒物(PM2.5),70,57,60,51,49,17,,26,18,25,23,2,4,1.0,0.8
2026-01-04T1800,3038A,103.3757,23.3679,红河哈尼族彝族自治州,州图书馆,,19,16,8,6,4,60,,55,55,6,6,6,6,0.5,0.6
2026-01-04T1800,4154A,103.401,23.3561,红河哈尼族彝族自治州,蒙自市朝阳路,,22,,11,15,7,61,,58,58,3,4,9,8,0.3,0.5
2026-01-04T1800,1090A,111.6506,40.7517,呼和浩特市,呼市一监,细颗粒物(PM2.5),78,102,109,57,82,16,,24,24,59,50,8,7,0.9,1.3
2026-01-04T1800,1094A,111.7516,40.8369,呼和浩特市,如意水处理厂,,17,16,97,7,61,52,,38,38,26,53,9,14,0.3,1.2
2026-01-04T1800,1095A,111.727798,40.806187,呼和浩特市,二十九中,细颗粒物(PM2.5),87,113,106,64,66,10,,24,24,64,56,16,16,1.0,1.2
2026-01-04T1800,1097A,111.717,40.7617,呼和浩特市,化肥厂生活区,细颗粒物(PM2.5),84,102,112,62,72,14,,21,21,60,57,11,11,1.0,1.3
2026-01-04T1800,3699A,111.6519,40.8389,呼和浩特市,海东办,,24,24,106,6,63,71,,38,38,10,53,4,9,0.2,1.1
2026-01-04T1800,4275A,111.591512,40.827312,呼和浩特市,成吉思汗西街8号,,29,29,88,6,42,55,,47,37,18,36,4,8,0.5,0.8
2026-01-04T1800,4276A,111.6597,40.8077,呼和浩特市,公园东路75号,,27,27,111,7,66,58,,30,30,23,58,6,11,0.2,1.1
2026-01-04T1800,4277A,111.5427,40.7846,呼和浩特市,金海路35号,细颗粒物(PM2.5),87,112,128,64,83,13,,24,24,56,53,15,14,0.7,1.1
2026-01-04T1800,3061A,119.7511,49.1576,呼伦贝尔市,国华电力东,,23,23,25,16,21,62,,66,66,22,24,8,7,0.3,0.4
2026-01-04T1800,4279A,119.7569,49.2222,呼伦贝尔市,伊敏大街东7号,,29,24,25,20,19,58,,63,63,17,19,9,8,0.4,0.5
2026-01-04T1800,1250A,120.075,30.867,湖州市,城西水厂,细颗粒物(PM2.5),135,134,120,103,92,18,,20,20,71,66,12,11,0.7,0.7
2026-01-04T1800,2873A,120.083,30.8929,湖州市,仁皇山新区,细颗粒物(PM2.5),139,137,117,106,94,29,,23,23,77,80,13,12,0.7,0.7
2026-01-04T1800,2907A,120.1846,30.8592,湖州市,吴兴区站,细颗粒物(PM2.5),142,130,118,108,98,17,,17,17,77,70,9,8,0.8,0.8
2026-01-04T1800,3562A,120.4146,30.8538,湖州市,南浔区站,细颗粒物(PM2.5),143,139,117,109,92,13,,14,14,82,75,9,8,0.9,0.8
2026-01-04T1800,1607A,120.904878,40.721091,葫芦岛市,龙港区,颗粒物(PM10),72,94,86,27,62,14,,53,53,68,41,88,34,1.0,1.6
2026-01-04T1800,1608A,120.8382,40.7521,葫芦岛市,化工街,细颗粒物(PM2.5),67,78,91,48,57,23,,56,56,62,43,25,50,0.8,1.1
2026-01-04T1800,1609A,120.8339,40.7078,葫芦岛市,新区,颗粒物(PM10),55,59,63,27,46,32,,57,57,53,51,35,16,0.9,1.2
2026-01-04T1800,1610A,120.8697,40.7679,葫芦岛市,东城区,,,73,84,,63,15,,55,55,81,47,33,45,1.4,1.4
2026-01-04T1800,2483A,109.9297,27.5383,怀化市,河西地税局,,32,26,21,22,21,25,,31,28,22,13,3,3,/,/
2026-01-04T1800,2484A,109.9783,27.5342,怀化市,市四医院,,40,39,27,28,22,9,,23,14,30,14,8,8,0.8,0.7
2026-01-04T1800,2485A,109.9971,27.5579,怀化市,监测楼,,33,33,23,16,20,23,,33,25,25,16,2,2,0.3,0.3
2026-01-04T1800,1210A,119.0566,33.5991,淮安市,钵池山,细颗粒物(PM2.5),93,100,69,69,50,26,,34,34,56,52,12,9,0.7,0.6
2026-01-04T1800,1211A,119.0083,33.578,淮安市,北京南路,细颗粒物(PM2.5),103,112,77,77,53,8,,24,24,67,60,13,10,1.1,1
2026-01-04T1800,1212A,118.9938,33.6083,淮安市,市监测站,细颗粒物(PM2.5),110,110,71,83,55,8,,26,25,71,53,13,11,1.1,1
2026-01-04T1800,1213A,119.135,33.5038,淮安市,楚州区监测站,细颗粒物(PM2.5),132,115,78,100,59,17,,32,32,65,65,12,11,1.0,0.8
2026-01-04T1800,3426A,118.8757,33.2897,淮安市,新华书店,细颗粒物(PM2.5),107,,77,80,64,44,,32,32,39,49,9,11,0.9,1
2026-01-04T1800,4092A,119.119691,33.550006,淮安市,枚皋中路89号,细颗粒物(PM2.5),129,114,79,98,62,30,,44,44,58,60,13,10,0.9,0.8
2026-01-04T1800,4206A,119.028838,33.631911,淮安市,承德北路606号,细颗粒物(PM2.5),97,124,88,72,49,18,,29,29,65,59,14,11,1.2,1
2026-01-04T1800,2282A,116.8005,33.9749,淮北市,监测站,细颗粒物(PM2.5),114,117,99,86,70,37,,46,45,46,44,10,10,0.7,0.7
2026-01-04T1800,2283A,116.8094,33.9008,淮北市,烈山区政府,细颗粒物(PM2.5),122,128,103,92,81,30,,39,39,40,40,13,12,0.8,0.6
2026-01-04T1800,4017A,116.7926,33.9534,淮北市,市博物馆,细颗粒物(PM2.5),114,112,104,86,72,35,,43,43,42,41,12,12,0.7,0.3
2026-01-04T1800,4100A,116.8322,33.9884,淮北市,杜集区第一实验学校,细颗粒物(PM2.5),114,118,101,86,76,22,,41,40,43,30,9,9,0.8,0.6
2026-01-04T1800,2277A,116.8304,32.7726,淮南市,潘集区政府,细颗粒物(PM2.5),93,77,84,69,69,36,,52,52,36,37,7,7,0.8,0.7
2026-01-04T1800,2279A,116.8569,32.5949,淮南市,谢家集区政府,细颗粒物(PM2.5),67,72,76,48,49,41,,53,53,38,38,7,9,0.5,0.5
2026-01-04T1800,2280A,116.8279,32.6333,淮南市,八公山区政府,细颗粒物(PM2.5),203,160,77,153,63,46,,60,59,26,26,7,5,0.6,0.6
2026-01-04T1800,2894A,117.0561,32.6536,淮南市,经济技术开发区消防队,细颗粒物(PM2.5),64,71,81,46,57,38,,51,51,42,40,6,5,0.6,0.6
2026-01-04T1800,3329A,117.011,32.5891,淮南市,山南新区,细颗粒物(PM2.5),63,64,74,45,50,42,,54,54,37,26,2,3,0.7,0.6
2026-01-04T1800,4209A,117.003137,32.644456,淮南市,国庆中路369号,细颗粒物(PM2.5),65,67,71,47,56,38,,46,46,35,32,6,6,0.7,0.7
2026-01-04T1800,2446A,114.9021,30.474,黄冈市,职工中心,颗粒物(PM10),51,52,54,35,39,30,,56,44,24,19,6,7,0.9,0.8
2026-01-04T1800,2929A,114.8858,30.4519,黄冈市,红卫路,细颗粒物(PM2.5),64,60,52,46,41,31,,57,42,27,23,5,7,0.7,0.6
2026-01-04T1800,3398A,114.9134,30.4446,黄冈市,市林业局,细颗粒物(PM2.5),60,56,51,43,42,36,,59,44,22,22,3,5,0.9,0.8
2026-01-04T1800,2672A,102.02,35.5101,黄南藏族自治州,同仁县隆务镇,颗粒物(PM10),61,72,51,33,43,70,,66,66,17,6,12,10,0.7,0.6
2026-01-04T1800,2295A,118.2905,29.6965,黄山市,延安路89号,细颗粒物(PM2.5),70,,41,51,36,44,,39,39,19,19,4,4,0.6,0.6
2026-01-04T1800,2297A,118.1369,30.2755,黄山市,黄山区政府5号楼,,42,40,35,29,30,18,,30,29,20,16,6,6,0.6,0.6
2026-01-04T1800,4210A,118.335445,29.720283,黄山市,滨江东路7-2号,细颗粒物(PM2.5),87,,61,64,52,41,,33,33,24,24,/,/,/,/
2026-01-04T1800,2423A,115.0547,30.2332,黄石市,沈家营,细颗粒物(PM2.5),55,58,54,39,35,36,,48,39,13,16,5,6,1.3,1.2
2026-01-04T1800,2426A,114.899,30.211,黄石市,铁山,细颗粒物(PM2.5),72,52,52,52,53,34,,45,36,12,16,7,6,0.8,0.7
2026-01-04T1800,2427A,115.0259,30.2108,黄石市,团城山,细颗粒物(PM2.5),72,62,58,52,44,41,,50,40,15,19,6,6,0.8,0.8
2026-01-04T1800,3149A,115.0174,30.1591,黄石市,笔架山北路,细颗粒物(PM2.5),62,64,67,44,42,26,,44,31,24,18,7,6,1.2,1.1
2026-01-04T1800,4185A,115.078022,30.21118,黄石市,磁湖东路29号,细颗粒物(PM2.5),70,53,52,51,45,34,,44,31,18,19,5,7,0.9,0.9
2026-01-04T1800,1392A,114.4181,23.0528,惠州市,河南岸金山湖子站,颗粒物(PM10),52,54,54,31,33,96,,88,88,34,30,5,5,0.6,0.7
2026-01-04T1800,1393A,114.4055,23.0824,惠州市,下埔横江三路子站,,48,48,55,26,32,104,,97,97,26,27,8,9,0.7,0.7
2026-01-04T1800,1395A,114.4645,22.7832,惠州市,惠阳区承修路船湖子站,颗粒物(PM10),55,60,56,32,30,117,,109,109,25,27,8,7,0.7,0.6
2026-01-04T1800,1396A,114.5316,22.7423,惠州市,大亚湾管委会子站,颗粒物(PM10),51,52,52,28,28,110,,108,108,32,25,7,7,0.4,0.3
2026-01-04T1800,3314A,114.4334,22.8134,惠州市,惠阳秋长,颗粒物(PM10),56,61,57,29,33,133,,120,120,28,34,/,/,/,/
2026-01-04T1800,3452A,114.6521,22.7755,惠州市,大亚湾霞涌,颗粒物(PM10),55,59,48,24,28,110,,108,108,22,19,/,/,/,/
2026-01-04T1800,4300A,114.4089,23.1147,惠州市,文华一路1号,,39,39,56,22,34,119,,103,103,18,34,/,/,/,/
2026-01-04T1800,2240A,130.9618,45.2926,鸡西市,环保局,,26,26,34,8,19,60,,65,65,9,7,5,6,0.3,0.3
2026-01-04T1800,2243A,130.9294,45.2959,鸡西市,第一中学,,21,13,30,8,21,66,,68,68,6,8,3,3,0.3,0.4
2026-01-04T1800,3707A,131.0069,45.2988,鸡西市,欧美日汽修厂,,32,32,43,12,23,63,,66,66,11,10,6,5,0.4,0.5
2026-01-04T1800,2367A,114.9753,27.0803,吉安市,红声器材厂,细颗粒物(PM2.5),57,51,54,40,35,40,,40,38,26,24,10,12,0.7,0.6
2026-01-04T1800,2369A,114.9903,27.1313,吉安市,市环境监测站,细颗粒物(PM2.5),59,58,51,42,37,39,,40,40,22,18,16,15,/,/
2026-01-04T1800,2370A,115.009527,27.096792,吉安市,青原区法院,细颗粒物(PM2.5),60,55,49,43,38,38,,42,36,26,20,14,13,0.6,0.6
2026-01-04T1800,1772A,126.54,43.8622,吉林市,哈达湾,细颗粒物(PM2.5),57,52,83,40,62,64,,64,64,22,34,8,10,1.0,1.5
2026-01-04T1800,1773A,126.5843,43.8358,吉林市,东局子,颗粒物(PM10),54,57,83,37,67,44,,50,50,31,36,8,7,1.1,1.7
2026-01-04T1800,1774A,126.5051,43.8243,吉林市,电力学院,细颗粒物(PM2.5),169,151,109,128,92,31,,54,54,58,43,22,14,1.7,1.7
2026-01-04T1800,1775A,126.6133,43.8971,吉林市,江北,细颗粒物(PM2.5),80,76,101,59,80,36,,51,51,40,37,11,8,1.3,1.7
2026-01-04T1800,1776A,126.5549,43.8304,吉林市,江南公园,细颗粒物(PM2.5),63,50,86,45,73,48,,53,53,26,38,8,10,1.0,1.6
2026-01-04T1800,2868A,126.4737,43.953,吉林市,九站,细颗粒物(PM2.5),67,60,93,48,75,45,,52,52,35,44,11,10,1.0,1.4
2026-01-04T1800,1299A,116.9866,36.6118,济南市,科干所,细颗粒物(PM2.5),150,168,98,115,67,44,,62,51,61,38,16,9,1.4,1
2026-01-04T1800,1300A,116.9379,36.6652,济南市,农科所,细颗粒物(PM2.5),150,156,114,115,85,57,,51,51,47,47,15,9,1.3,1
2026-01-04T1800,1301A,117.1265,36.6736,济南市,开发区,细颗粒物(PM2.5),168,166,120,127,92,44,,41,38,52,46,11,5,1.3,1
2026-01-04T1800,1303A,117.0616,36.6865,济南市,省种子仓库,细颗粒物(PM2.5),168,171,141,127,94,56,,42,42,45,64,16,9,1.2,1.1
2026-01-04T1800,1304A,116.9495185,36.644937,济南市,机床二厂,细颗粒物(PM2.5),178,171,124,134,95,47,,50,50,56,53,19,21,1.3,1.2
2026-01-04T1800,1305A,117.0496,36.6629,济南市,市监测站,细颗粒物(PM2.5),168,166,112,127,83,50,,37,37,43,46,12,6,1.2,1
2026-01-04T1800,1306A,116.7674,36.5458,济南市,长清党校,细颗粒物(PM2.5),135,147,98,103,78,27,,53,52,54,29,10,8,1.0,0.8
2026-01-04T1800,1961A,117.5323,36.6865,济南市,东山小学,细颗粒物(PM2.5),178,183,129,134,97,61,,55,55,48,46,13,7,1.5,1.2
2026-01-04T1800,3059A,117.7181,36.205,济南市,泰兴公司,细颗粒物(PM2.5),175,163,158,132,131,22,,53,53,72,58,12,10,1.3,1.4
2026-01-04T1800,3064A,117.6861,36.2172,济南市,莱芜战役纪念馆,细颗粒物(PM2.5),173,151,158,131,132,42,,51,51,48,60,13,12,0.9,1.3
2026-01-04T1800,3494A,117.1673,36.9782,济南市,济阳区政府,细颗粒物(PM2.5),160,164,160,122,121,42,,45,45,52,54,11,13,1.0,1
2026-01-04T1800,3495A,117.1168,36.6299,济南市,锦屏中学,细颗粒物(PM2.5),175,171,92,132,68,50,,55,50,52,33,12,5,1.1,0.8
2026-01-04T1800,4108A,117.7107,36.2385,济南市,山财大街5号,细颗粒物(PM2.5),140,195,166,107,111,41,,60,60,51,53,12,9,1.1,1.2
2026-01-04T1800,4109A,116.9744,36.6889,济南市,无影山路12号,细颗粒物(PM2.5),162,167,136,123,99,55,,42,42,45,54,17,14,1.2,1.1
2026-01-04T1800,1653A,116.6229,35.4288,济宁市,火炬城,细颗粒物(PM2.5),153,,104,117,104,42,,50,50,30,32,6,8,0.7,0.7
2026-01-04T1800,3500A,116.5808,35.3703,济宁市,北湖一中,细颗粒物(PM2.5),143,,98,109,99,41,,47,47,31,35,5,7,0.8,0.8
2026-01-04T1800,3501A,116.8251,35.5592,济宁市,服务中心,细颗粒物(PM2.5),133,133,135,101,95,29,,42,42,39,50,12,13,0.8,0.8
2026-01-04T1800,3678A,116.5907,35.4054,济宁市,市第七中学,细颗粒物(PM2.5),140,107,108,107,92,46,,53,53,32,40,8,9,0.8,0.8
2026-01-04T1800,4111A,116.6075,35.4566,济宁市,任和路,细颗粒物(PM2.5),139,150,124,106,92,39,,48,48,33,36,6,7,0.8,0.8
2026-01-04T1800,4112A,116.5648,35.3921,济宁市,文体南路1号,细颗粒物(PM2.5),134,139,121,102,96,34,,46,46,36,33,4,5,0.7,0.7
2026-01-04T1800,2255A,130.2749,46.8028,佳木斯市,佳纺,,26,25,32,18,27,54,,55,55,17,17,6,9,0.3,0.3
2026-01-04T1800,2257A,130.3258,46.7975,佳木斯市,环保局,,25,19,32,17,24,57,,62,62,18,16,8,9,0.8,0.7
2026-01-04T1800,4285A,130.363,46.806,佳木斯市,顺和街,,33,33,31,16,21,52,,53,53,17,18,8,10,0.6,0.6
2026-01-04T1800,4286A,130.3952,46.8268,佳木斯市,长安路196号,,20,13,26,12,24,61,,63,63,8,8,5,5,0.3,0.4
2026-01-04T1800,1252A,120.7439,30.778,嘉兴市,清河小学,细颗粒物(PM2.5),150,154,110,115,82,2,,24,18,93,71,7,8,0.8,0.7
2026-01-04T1800,1253A,120.7261,30.7477,嘉兴市,嘉兴学院,细颗粒物(PM2.5),137,148,109,104,77,1,,24,18,84,59,8,8,1.1,1
2026-01-04T1800,2872A,120.7845,30.7524,嘉兴市,南湖区残联,细颗粒物(PM2.5),147,152,105,112,79,3,,29,23,88,64,5,6,1.0,0.9
2026-01-04T1800,3407A,120.6915,30.7741,嘉兴市,秀洲住建,细颗粒物(PM2.5),153,150,111,117,86,6,,19,17,80,73,8,8,0.8,0.7
2026-01-04T1800,1945A,98.291,39.7705,嘉峪关市,气象局,,39,39,47,27,26,84,,77,77,9,22,15,23,0.5,0.6
2026-01-04T1800,2884A,98.2672,39.7978,嘉峪关市,酒钢宾馆,颗粒物(PM10),64,78,59,31,32,56,,69,69,36,17,89,36,2.8,0.9
2026-01-04T1800,3248A,98.2644,39.7723,嘉峪关市,雄关区,细颗粒物(PM2.5),53,47,46,37,30,77,,70,70,18,29,16,28,0.7,0.6
2026-01-04T1800,1383A,113.1063,22.6058,江门市,北街,颗粒物(PM10),53,56,74,31,47,124,,116,116,34,59,/,/,/,/
2026-01-04T1800,1384A,113.073,22.5835,江门市,西区,颗粒物(PM10),57,63,91,34,49,125,,112,112,40,64,/,/,/,/
2026-01-04T1800,1385A,113.0218,22.531,江门市,圭峰西,颗粒物(PM10),60,70,63,36,43,143,,120,120,33,41,/,/,/,/
2026-01-04T1800,1386A,113.0826,22.5947,江门市,东湖,,49,49,77,25,46,122,,115,115,37,62,7,8,0.5,0.6
2026-01-04T1800,3311A,113.1077,22.5647,江门市,江海富民,颗粒物(PM10),58,65,96,27,43,134,,121,121,42,62,/,/,0.4,0.6
2026-01-04T1800,3449A,113.0496,22.4669,江门市,新会银湖,颗粒物(PM10),67,83,73,36,56,116,,118,118,44,45,8,8,0.6,0.7
2026-01-04T1800,3335A,113.3137,35.2643,焦作市,马村街道办,细颗粒物(PM2.5),120,,120,91,116,46,,42,42,20,31,5,7,0.8,1.2
2026-01-04T1800,3336A,113.2464,35.2374,焦作市,焦作技师学院,细颗粒物(PM2.5),110,107,135,83,111,44,,42,42,24,36,8,10,0.9,1.2
2026-01-04T1800,3477A,113.1656,35.2536,焦作市,中站许衡医院,细颗粒物(PM2.5),132,110,120,100,107,39,,40,40,28,38,5,9,1.0,1.2
2026-01-04T1800,3981A,113.2456,35.18,焦作市,原李万街道办,细颗粒物(PM2.5),107,92,111,80,103,48,,44,44,18,26,4,5,0.8,1.1
2026-01-04T1800,4264A,113.234,35.219,焦作市,新安路1731号,细颗粒物(PM2.5),110,90,126,83,112,44,,42,42,15,24,5,6,0.8,1.1
2026-01-04T1800,4295A,113.2722,35.2121,焦作市,人民路3066号,细颗粒物(PM2.5),89,113,130,66,91,43,,39,39,16,26,4,6,0.6,1
2026-01-04T1800,1708A,116.3701,23.5345,揭阳市,新兴,颗粒物(PM10),53,55,58,24,42,78,,95,95,38,30,9,11,0.8,0.6
2026-01-04T1800,1709A,116.3261,23.5442,揭阳市,西马,颗粒物(PM10),57,63,62,24,38,84,,93,93,26,24,5,7,0.8,0.7
2026-01-04T1800,1710A,116.361,23.5627,揭阳市,东兴,,41,41,60,23,34,84,,88,88,22,28,7,10,/,/
2026-01-04T1800,1711A,116.4151,23.5295,揭阳市,渔湖,颗粒物(PM10),55,60,59,12,35,92,,96,96,29,32,4,6,/,/
2026-01-04T1800,3320A,116.4028,23.5699,揭阳市,曲溪,,46,46,63,19,36,102,,102,102,22,28,1,6,0.5,0.5
2026-01-04T1800,1944A,102.1691,38.5166,金昌市,天庆家园,,41,41,48,26,31,78,,74,74,8,19,2,3,0.6,0.8
2026-01-04T1800,4022A,102.1648,38.5369,金昌市,金川区人防中心,颗粒物(PM10),52,53,46,31,31,78,,74,74,8,15,5,6,0.5,0.7
2026-01-04T1800,4239A,102.193042,38.531887,金昌市,长春路96号,,48,48,47,29,29,79,,72,72,8,22,5,6,0.6,1
2026-01-04T1800,1262A,119.6478,29.0773,金华市,十五中,细颗粒物(PM2.5),102,112,110,76,76,28,,29,29,63,66,6,4,1.0,0.9
2026-01-04T1800,1263A,119.6859,29.1032,金华市,监测站,细颗粒物(PM2.5),114,121,115,86,82,17,,20,20,94,88,4,3,0.9,0.8
2026-01-04T1800,3659A,119.656,29.1132,金华市,气象局,细颗粒物(PM2.5),109,125,113,82,76,10,,13,13,77,71,4,4,0.9,0.8
2026-01-04T1800,1767A,121.1114,41.0879,锦州市,南山,,48,38,73,33,69,45,,62,62,36,40,17,13,0.7,1.4
2026-01-04T1800,1768A,121.060361,40.842794,锦州市,开发区,细颗粒物(PM2.5),65,55,90,47,61,44,,60,60,34,48,22,41,0.6,1.2
2026-01-04T1800,1769A,121.1836,41.1118,锦州市,百股街道,细颗粒物(PM2.5),58,57,80,41,68,46,,60,60,35,43,21,16,1.0,1.4
2026-01-04T1800,1770A,121.1176,41.1224,锦州市,天安街道,,49,49,74,30,60,45,,66,66,37,41,19,17,0.9,1.6
2026-01-04T1800,1771A,121.1303,41.1385,锦州市,北湖公园,细颗粒物(PM2.5),57,53,75,40,61,52,,64,64,24,36,20,17,0.8,1.3
2026-01-04T1800,2160A,112.8496,35.5051,晋城市,自来水公司,细颗粒物(PM2.5),129,125,93,98,80,44,,47,47,30,25,6,6,1.4,1.3
2026-01-04T1800,2162A,112.8509,35.4886,晋城市,市环保局,细颗粒物(PM2.5),110,114,105,83,75,52,,53,53,26,24,6,6,1.4,1.3
2026-01-04T1800,3620A,112.8258,35.4804,晋城市,泽州一中,细颗粒物(PM2.5),104,88,83,78,76,51,,57,57,28,21,5,5,0.9,0.8
2026-01-04T1800,4078A,112.8246,35.5152,晋城市,前书院路,细颗粒物(PM2.5),93,115,98,69,58,45,,47,47,26,25,6,5,1.2,1
2026-01-04T1800,4079A,112.8864,35.4773,晋城市,祥云街666号,细颗粒物(PM2.5),130,109,94,99,83,54,,55,55,24,23,7,6,1.2,1
2026-01-04T1800,2174A,112.6992,37.6984,晋中市,榆次区政府,细颗粒物(PM2.5),169,168,203,128,153,12,,26,26,67,64,16,25,1.9,1.8
2026-01-04T1800,2865A,112.7195,37.683,晋中市,榆次三中,细颗粒物(PM2.5),140,153,195,107,129,16,,26,26,57,62,17,27,1.6,1.9
2026-01-04T1800,4080A,112.7375,37.7215,晋中市,广安街188号,细颗粒物(PM2.5),189,203,224,142,149,10,,26,25,72,69,11,18,1.5,1.7
2026-01-04T1800,4200A,112.7478,37.6954,晋中市,迎宾街26号,细颗粒物(PM2.5),153,156,183,117,131,16,,28,28,66,64,19,27,1.7,1.8
2026-01-04T1800,2439A,112.2012,31.048,荆门市,竹园小学,细颗粒物(PM2.5),109,92,109,82,91,27,,30,30,25,30,1,2,0.5,0.6
2026-01-04T1800,2440A,112.1968,30.9892,荆门市,掇刀,细颗粒物(PM2.5),104,94,96,78,82,36,,32,32,17,23,2,2,0.7,0.6
2026-01-04T1800,3012A,112.1849,31.0361,荆门市,西山林语,细颗粒物(PM2.5),97,90,92,72,78,32,,31,31,22,25,5,4,0.8,0.8
2026-01-04T1800,3547A,112.1631,31.0134,荆门市,龙泉中学南校,细颗粒物(PM2.5),114,90,99,86,84,39,,38,36,8,12,6,7,0.4,0.4
2026-01-04T1800,4124A,112.2213,31.0654,荆门市,新台西路6号,细颗粒物(PM2.5),123,95,101,93,91,30,,33,33,23,26,7,7,0.8,0.8
2026-01-04T1800,1844A,112.2493,30.3198,荆州市,市图书馆,细颗粒物(PM2.5),97,,60,72,77,36,,38,38,19,21,6,8,0.9,0.8
2026-01-04T1800,1845A,112.2009,30.3543,荆州市,市委党校,细颗粒物(PM2.5),103,,71,77,75,32,,34,34,22,22,3,5,1.0,0.9
2026-01-04T1800,3194A,112.2749,30.3124,荆州市,管委会,细颗粒物(PM2.5),93,,63,69,78,32,,34,34,24,31,5,7,0.9,0.8
2026-01-04T1800,4268A,112.1722,30.3366,荆州市,学苑路85号,细颗粒物(PM2.5),98,,64,73,66,40,,41,41,17,19,5,6,0.8,0.8
2026-01-04T1800,2343A,117.2114,29.2931,景德镇市,老干部活动中心,,42,37,39,29,32,42,,27,27,10,23,8,9,0.4,0.5
2026-01-04T1800,2344A,117.1893,29.2789,景德镇市,兽医站,,40,30,40,28,28,40,,30,30,14,25,8,10,0.8,0.8
2026-01-04T1800,2346A,117.246,29.2958,景德镇市,陶研所,,49,,37,34,31,32,,29,29,17,21,3,4,0.4,0.6
2026-01-04T1800,4289A,117.154766,29.256967,景德镇市,青少年活动中心,,40,30,42,28,32,45,,36,36,22,30,12,12,/,/
2026-01-04T1800,1803A,115.9873,29.6816,九江市,十里,细颗粒物(PM2.5),87,66,58,64,52,20,,44,42,49,39,4,5,1.0,0.8
2026-01-04T1800,1804A,115.9583,29.7047,九江市,茅山头,细颗粒物(PM2.5),94,85,59,70,50,14,,44,40,41,27,6,5,1.1,0.9
2026-01-04T1800,1805A,115.9877,29.7295,九江市,西园,细颗粒物(PM2.5),74,70,56,54,40,21,,51,48,46,37,2,3,1.0,0.8
2026-01-04T1800,1808A,115.9112,29.6038,九江市,综合工业园,细颗粒物(PM2.5),93,69,58,69,55,14,,30,29,55,46,2,3,0.9,0.8
2026-01-04T1800,3190A,116.0254,29.6995,九江市,外国语学校,细颗粒物(PM2.5),82,,58,60,47,15,,36,34,48,34,6,8,1.0,0.8
2026-01-04T1800,4253A,116.010205,29.659402,九江市,莲花大道8号,细颗粒物(PM2.5),99,74,60,74,56,21,,40,33,39,23,3,4,0.6,0.5
2026-01-04T1800,4240A,98.495752,39.733935,酒泉市,玉门东路5号,,36,36,47,25,25,85,,70,70,4,15,10,16,0.4,0.5
2026-01-04T1800,4241A,98.5099,39.7506,酒泉市,北大街108号,,29,29,47,20,24,84,,69,69,11,22,9,16,0.3,0.6
2026-01-04T1800,2698A,76.0071,39.466,喀什地区,巡警大队,细颗粒物(PM2.5),64,61,54,46,39,46,,47,46,20,14,3,3,0.7,0.7
2026-01-04T1800,2699A,75.9756,39.4693,喀什地区,吾办,细颗粒物(PM2.5),67,59,55,48,45,46,,45,45,12,12,3,5,0.7,0.7
2026-01-04T1800,4027A,75.9485,39.4688,喀什地区,老干局,细颗粒物(PM2.5),60,64,60,43,41,50,,46,44,12,13,2,2,0.8,0.9
2026-01-04T1800,1824A,114.3389,34.778,开封市,肿瘤医院,细颗粒物(PM2.5),108,,94,81,86,26,,45,45,29,25,4,4,1.4,1.3
2026-01-04T1800,1826A,114.2884,34.7966,开封市,世纪星幼儿园,细颗粒物(PM2.5),128,,90,97,101,27,,37,37,30,27,3,2,0.9,0.7
2026-01-04T1800,3147A,114.3434,34.8101,开封市,龙亭公园,细颗粒物(PM2.5),133,,90,101,99,25,,42,42,30,24,3,3,1.6,1.4
2026-01-04T1800,3210A,114.3645,34.7955,开封市,汴京公园,细颗粒物(PM2.5),112,98,104,84,90,28,,48,48,30,28,4,4,1.0,0.8
2026-01-04T1800,3473A,114.2485,34.8306,开封市,技师学院,细颗粒物(PM2.5),124,,90,94,97,25,,30,30,27,26,6,6,1.2,1
2026-01-04T1800,3592A,114.4518,34.7503,开封市,祥符区生态环境局,细颗粒物(PM2.5),99,90,104,74,81,39,,61,61,26,26,4,4,0.8,0.7
2026-01-04T1800,1951A,84.886,45.6029,克拉玛依市,长征新村,细颗粒物(PM2.5),97,100,86,72,62,34,,38,38,38,30,5,4,1.0,1
2026-01-04T1800,1952A,84.8894,45.5827,克拉玛依市,南林小区,颗粒物(PM10),73,95,85,51,49,41,,36,36,21,24,3,3,1.0,1
2026-01-04T1800,1954A,84.896,44.3328,克拉玛依市,独山子区,细颗粒物(PM2.5),140,163,102,107,56,37,,57,43,45,45,5,5,1.3,0.9
2026-01-04T1800,1955A,85.6888,46.0909,克拉玛依市,乌尔禾区商贸楼,细颗粒物(PM2.5),67,74,80,48,62,51,,32,32,25,28,5,4,0.9,1.1
2026-01-04T1800,3612A,85.1045,45.6895,克拉玛依市,白碱滩区新站,细颗粒物(PM2.5),79,105,117,58,64,31,,21,21,20,20,7,7,0.7,0.7
2026-01-04T1800,2697A,76.1457,39.7143,克孜勒苏柯尔克孜自治州,市人民政府,细颗粒物(PM2.5),54,56,59,38,40,52,,48,44,12,12,5,5,0.4,0.4
2026-01-04T1800,3665A,76.1654,39.7157,克孜勒苏柯尔克孜自治州,克州文化中心,细颗粒物(PM2.5),58,,49,41,39,54,,48,48,7,9,3,3,0.6,0.6
2026-01-04T1800,1450A,102.8203,24.889,昆明市,呈贡新区,,25,24,21,6,12,78,,80,80,9,15,2,4,0.2,0.3
2026-01-04T1800,1452A,102.7253,25.0904,昆明市,龙泉镇,,23,21,22,3,14,71,,76,76,10,19,3,4,0.5,0.5
2026-01-04T1800,1453A,102.7267,25.0378,昆明市,东风东路,,23,12,21,9,16,73,,77,77,15,18,4,5,0.4,0.5
2026-01-04T1800,1454A,102.6744,25.0671,昆明市,金鼎山,,43,43,33,10,18,69,,74,74,10,21,3,4,0.4,0.5
2026-01-04T1800,1455A,102.6643,25.0401,昆明市,碧鸡广场,,23,12,26,10,18,73,,75,75,10,23,3,5,0.5,0.6
2026-01-04T1800,3179A,102.7491,25.012,昆明市,官渡区博物馆,,24,22,19,7,15,75,,79,79,10,18,2,4,0.2,0.3
2026-01-04T1800,3375A,102.8016,24.8336,昆明市,青年创业园,,26,13,15,9,11,82,,82,82,2,6,3,4,0.3,0.3
2026-01-04T1800,3550A,102.8,24.9787,昆明市,昆明学院,,25,12,17,7,11,79,,82,82,6,10,2,3,0.5,0.5
2026-01-04T1800,3551A,102.5969,24.6738,昆明市,晋宁区生态环境分局,,23,9,22,7,14,72,,71,71,3,12,2,2,0.4,0.5
2026-01-04T1800,3552A,102.6673,24.9861,昆明市,云天化总部,,25,11,20,6,13,77,,80,80,8,16,4,6,0.4,0.5
2026-01-04T1800,1456A,91.132,29.6515,拉萨市,八廓街,,31,13,18,3,9,99,,91,91,3,5,7,7,0.4,0.5
2026-01-04T1800,1457A,91.1221,29.6748,拉萨市,市环保局,,30,15,15,12,10,95,,87,87,10,12,8,7,0.4,0.5
2026-01-04T1800,1458A,91.0874,29.6476,拉萨市,区监测站,,29,8,12,3,6,92,,87,87,11,13,4,4,0.7,0.8
2026-01-04T1800,1459A,91.1774,29.6541,拉萨市,西藏大学,,31,16,14,3,7,97,,90,90,10,9,5,5,0.3,0.3
2026-01-04T1800,1460A,90.9798,29.6586,拉萨市,区辐射站,,,10,19,3,10,96,,84,84,7,17,,4,0.4,0.6
2026-01-04T1800,1461A,91.0831,29.6292,拉萨市,拉萨火车站,,31,11,15,6,7,98,,90,90,7,12,5,4,0.4,0.5
2026-01-04T1800,2520A,109.2203,23.7252,来宾市,来宾技工学校,细颗粒物(PM2.5),97,97,86,72,84,24,,30,30,20,21,6,10,0.7,0.6
2026-01-04T1800,3535A,109.1781,23.7293,来宾市,兴宾区政府,细颗粒物(PM2.5),77,66,84,56,70,34,,38,38,18,21,4,9,0.7,0.8
2026-01-04T1800,4002A,109.2312,23.7428,来宾市,中南小学,细颗粒物(PM2.5),87,91,82,64,80,22,,31,31,21,22,5,8,0.9,0.8
2026-01-04T1800,1479A,103.8309,36.0467,兰州市,铁路设计院,,,,,,,,,,,,,,,,
2026-01-04T1800,3241A,103.7439,36.0841,兰州市,百合公园,细颗粒物(PM2.5),64,56,67,46,50,76,,52,52,16,32,9,9,0.7,1.1
2026-01-04T1800,3242A,103.9613,35.9985,兰州市,和平,细颗粒物(PM2.5),80,67,72,59,71,76,,69,69,20,23,5,4,0.7,1.1
2026-01-04T1800,4236A,103.629272,36.093822,兰州市,庄浪东路808号,细颗粒物(PM2.5),89,80,76,66,57,64,,54,54,39,35,16,13,0.8,0.9
2026-01-04T1800,4237A,103.7251,36.104344,兰州市,安宁西路88号,细颗粒物(PM2.5),60,62,76,43,49,92,,58,58,16,31,10,6,0.5,0.7
2026-01-04T1800,4238A,103.846982,36.067567,兰州市,北滨河东路1号,细颗粒物(PM2.5),58,50,70,41,51,87,,66,66,23,38,12,9,0.6,1
2026-01-04T1800,1067A,116.6712,39.5109,廊坊市,药材公司,细颗粒物(PM2.5),102,126,138,76,103,12,,22,22,70,73,17,9,1.7,1.4
2026-01-04T1800,1068A,116.7215,39.5592,廊坊市,开发区,细颗粒物(PM2.5),112,124,120,84,82,12,,22,22,72,75,14,8,1.6,1.4
2026-01-04T1800,1070A,116.7246,39.5273,廊坊市,北华航天学院,细颗粒物(PM2.5),105,114,144,79,101,10,,21,21,72,73,16,9,1.7,1.6
2026-01-04T1800,2919A,116.7022,39.5454,廊坊市,河北工业大学,细颗粒物(PM2.5),107,122,145,80,94,11,,21,21,70,76,17,10,1.7,1.4
2026-01-04T1800,2536A,103.7629,29.5844,乐山市,牛耳桥,,40,34,25,28,23,26,,19,19,34,25,7,7,0.6,0.6
2026-01-04T1800,2537A,103.7501,29.6002,乐山市,市第三水厂,,46,40,27,32,22,36,,18,18,29,27,6,6,0.6,0.6
2026-01-04T1800,2538A,103.7571,29.5664,乐山市,市监测站,,42,32,25,29,23,30,,18,18,22,23,6,6,0.7,0.7
2026-01-04T1800,3361A,103.7313,29.563,乐山市,理工大学,颗粒物(PM10),56,61,30,28,21,36,,19,19,17,23,4,4,0.6,0.6
2026-01-04T1800,2599A,100.2497,26.8802,丽江市,丽江古城,,27,22,20,6,7,86,,88,88,10,11,8,7,0.5,0.5
2026-01-04T1800,2600A,100.2203,26.8906,丽江市,市中心,,28,12,12,9,10,87,,90,90,11,11,6,6,0.4,0.3
2026-01-04T1800,1267A,119.9141,28.4513,丽水市,监测站大楼,细颗粒物(PM2.5),68,70,52,49,36,18,,45,44,52,39,6,6,1.2,0.7
2026-01-04T1800,1268A,119.93,28.4589,丽水市,莲都小学,颗粒物(PM10),58,66,65,34,44,21,,49,48,69,47,/,/,/,/
2026-01-04T1800,1269A,119.8794,28.4232,丽水市,余庄前,,41,41,56,23,42,21,,41,41,37,34,5,5,0.4,0.4
2026-01-04T1800,1173A,119.1759,34.5885,连云港市,市环境监测站,细颗粒物(PM2.5),168,139,97,127,81,42,,45,45,44,47,13,13,0.9,1
2026-01-04T1800,3000A,119.3577,34.6971,连云港市,德源药业,细颗粒物(PM2.5),117,117,114,88,76,20,,34,34,58,60,6,5,0.6,0.6
2026-01-04T1800,3007A,119.178,34.8442,连云港市,新城一中,细颗粒物(PM2.5),152,136,121,116,106,28,,42,42,48,50,28,15,0.9,0.9
2026-01-04T1800,3008A,119.3607,34.7519,连云港市,胡沟管理处,细颗粒物(PM2.5),113,107,78,85,64,34,,48,46,47,40,17,11,1.1,1
2026-01-04T1800,3009A,119.1478,34.5913,连云港市,矿山设计院,细颗粒物(PM2.5),163,161,101,124,73,36,,45,45,47,42,12,9,1.2,1.1
2026-01-04T1800,3434A,119.2414,34.6539,连云港市,工贸学校,细颗粒物(PM2.5),143,130,83,109,69,30,,54,49,51,24,20,14,0.9,0.7
2026-01-04T1800,3664A,119.4171,34.734,连云港市,连云街道,细颗粒物(PM2.5),112,114,79,84,61,43,,63,41,44,30,15,10,0.9,0.8
2026-01-04T1800,2573A,102.2629,27.8981,凉山彝族自治州,西昌市政府,细颗粒物(PM2.5),90,,27,67,17,84,,71,71,13,14,10,10,0.7,0.7
2026-01-04T1800,2574A,102.2686,27.885,凉山彝族自治州,凉山州政府,颗粒物(PM10),64,77,29,26,15,82,,69,69,12,13,10,11,0.6,0.7
2026-01-04T1800,4229A,102.2342,27.8859,凉山彝族自治州,凯乐南路30号,细颗粒物(PM2.5),90,83,34,67,18,84,,71,71,15,16,10,9,0.7,0.7
2026-01-04T1800,2212A,123.1978,41.2036,辽阳市,宏伟区,细颗粒物(PM2.5),84,79,113,62,96,37,,40,40,29,36,7,19,0.7,1.7
2026-01-04T1800,2213A,123.1684,41.2497,辽阳市,新华园,细颗粒物(PM2.5),64,62,110,46,86,39,,42,42,37,50,9,37,0.8,1.6
2026-01-04T1800,2214A,123.2355,41.2663,辽阳市,滨河路,细颗粒物(PM2.5),103,101,105,77,74,27,,38,38,52,45,6,13,0.8,1.2
2026-01-04T1800,4083A,123.153,41.2874,辽阳市,铁西路150号,细颗粒物(PM2.5),97,103,126,72,88,23,,39,39,52,53,12,32,1.3,1.9
2026-01-04T1800,2227A,125.1359,42.8845,辽源市,环保局,颗粒物(PM10),76,102,142,42,77,53,,49,49,31,44,8,6,1.1,1.9
2026-01-04T1800,4085A,125.0998,42.9134,辽源市,安宁大街333号,细颗粒物(PM2.5),83,83,98,61,82,42,,54,54,44,40,8,7,0.7,1.2
2026-01-04T1800,1625A,115.9789,36.4372,聊城市,区政府,细颗粒物(PM2.5),160,152,120,122,94,37,,39,39,45,44,12,13,1.1,1
2026-01-04T1800,3200A,115.9772,36.4986,聊城市,监控中心,细颗粒物(PM2.5),178,156,119,134,103,38,,48,48,42,38,11,11,0.9,0.8
2026-01-04T1800,3513A,116.0443,36.436,聊城市,九州社区,细颗粒物(PM2.5),155,157,129,118,97,53,,52,52,32,35,6,4,0.9,0.7
2026-01-04T1800,4018A,116.0564,36.4609,聊城市,星美广场,细颗粒物(PM2.5),162,166,138,123,101,42,,45,45,32,32,7,5,1.0,0.8
2026-01-04T1800,4113A,116.0091,36.4495,聊城市,利民路,细颗粒物(PM2.5),159,164,128,121,101,41,,41,41,40,40,11,11,0.9,0.7
2026-01-04T1800,2632A,94.3683,29.6373,林芝市,林芝监测站,,27,7,8,6,6,85,,80,80,4,3,4,4,0.3,0.3
2026-01-04T1800,2633A,94.3616,29.6634,林芝市,林芝人民医院,,25,17,12,6,6,78,,72,72,6,4,6,6,0.3,0.3
2026-01-04T1800,2603A,100.0779,23.8981,临沧市,市环保局,细颗粒物(PM2.5),59,,22,42,34,82,,71,71,3,5,8,6,0.3,0.4
2026-01-04T1800,2604A,100.0894,23.882,临沧市,市气象局,,38,38,28,19,20,74,,68,68,10,8,8,5,0.3,0.5
2026-01-04T1800,1733A,111.5552,36.0791,临汾市,临钢医院,细颗粒物(PM2.5),241,254,283,191,216,21,,32,32,43,42,5,6,2.4,3.5
2026-01-04T1800,1734A,111.4984,36.0734,临汾市,技工学校,细颗粒物(PM2.5),245,232,265,195,205,24,,27,27,40,45,4,6,2.7,3.6
2026-01-04T1800,1736A,111.5017,36.0857,临汾市,市委,细颗粒物(PM2.5),243,264,293,193,215,28,,30,30,45,51,7,8,2.6,3.5
2026-01-04T1800,3018A,111.5048,36.1015,临汾市,唐尧大酒店,细颗粒物(PM2.5),240,234,256,190,206,23,,29,29,46,48,2,4,2.8,3.6
2026-01-04T1800,4244A,111.4879,36.053,临汾市,启星学校,细颗粒物(PM2.5),220,220,240,170,184,22,,28,28,54,54,6,6,2.7,3.6
2026-01-04T1800,4271A,103.2464,35.6123,临夏回族自治州,滨河东路1号,细颗粒物(PM2.5),95,92,110,71,79,71,,64,64,19,25,6,5,0.9,1.1
2026-01-04T1800,4310A,103.207136,35.599807,临夏回族自治州,新华街21号,细颗粒物(PM2.5),98,94,89,73,70,68,,55,55,18,22,11,7,0.8,1
2026-01-04T1800,1618A,118.3429,35.0532,临沂市,沂河小区,细颗粒物(PM2.5),220,205,162,170,143,23,,34,34,97,78,22,23,1.3,1.3
2026-01-04T1800,1619A,118.2962,35.0568,临沂市,鲁南制药厂,细颗粒物(PM2.5),215,219,183,165,145,12,,25,25,91,84,31,32,1.2,1.4
2026-01-04T1800,1620A,118.2793,34.9976,临沂市,新光毛纺厂,细颗粒物(PM2.5),211,190,167,161,138,22,,32,32,67,70,22,32,1.3,1.3
2026-01-04T1800,1621A,118.3955,35.0889,临沂市,河东保险公司,细颗粒物(PM2.5),168,180,169,127,127,17,,30,30,106,71,19,15,1.1,1.3
2026-01-04T1800,3370A,118.3563,35.0215,临沂市,十里堡居委,细颗粒物(PM2.5),175,193,172,132,129,19,,34,34,88,83,27,31,1.4,1.5
2026-01-04T1800,3496A,118.359,35.1067,临沂市,南坊新区,细颗粒物(PM2.5),188,188,147,141,120,29,,38,38,,66,18,16,1.2,1.2
2026-01-04T1800,3860A,118.3915,35.0297,临沂市,皇山花园小区,细颗粒物(PM2.5),183,200,164,138,119,21,,42,42,100,82,24,28,1.4,1.3
2026-01-04T1800,1870A,109.4854,24.3898,柳州市,柳东小学,,28,,63,19,60,21,,20,20,8,16,7,9,0.7,0.8
2026-01-04T1800,1871A,109.4109,24.3304,柳州市,环保监测站,,22,22,64,10,51,13,,16,16,19,23,5,7,0.7,0.7
2026-01-04T1800,1872A,109.3886,24.3408,柳州市,河西水厂,,24,24,74,13,59,9,,17,10,21,25,12,12,0.9,0.7
2026-01-04T1800,1873A,109.4263,24.2951,柳州市,市四中,,10,10,53,6,40,15,,19,17,17,22,8,10,0.7,0.8
2026-01-04T1800,1874A,109.396,24.3658,柳州市,市九中,,23,,61,16,57,11,,15,12,19,25,8,11,0.8,0.9
2026-01-04T1800,1875A,109.4912,24.3164,柳州市,古亭山,,8,6,52,3,46,18,,23,23,9,16,9,10,0.8,0.8
2026-01-04T1800,3402A,109.5422,24.3994,柳州市,市二中,,12,12,57,3,49,18,,18,18,13,19,7,8,0.6,0.7
2026-01-04T1800,2307A,116.5078,31.7369,六安市,监测大楼,,49,48,61,34,54,50,,49,49,19,24,2,3,0.6,0.6
2026-01-04T1800,2308A,116.4738,31.7642,六安市,皖西学院,颗粒物(PM10),59,68,72,41,55,51,,51,51,21,25,4,4,0.6,0.6
2026-01-04T1800,2309A,116.4997,31.7904,六安市,朝阳厂,细颗粒物(PM2.5),65,67,64,47,54,37,,46,46,37,29,5,5,0.6,0.7
2026-01-04T1800,2310A,116.5566,31.7885,六安市,开发区,细颗粒物(PM2.5),84,78,77,62,59,31,,42,36,34,32,1,1,0.6,0.6
2026-01-04T1800,2577A,104.8293,26.592,六盘水市,黄土坡,,32,26,14,22,11,26,,30,29,15,13,13,10,0.9,0.8
2026-01-04T1800,2579A,104.8481,26.5898,六盘水市,民中,,28,24,15,19,9,19,,25,25,18,14,4,4,0.7,0.7
2026-01-04T1800,2580A,104.9541,26.5506,六盘水市,双水,,32,29,15,22,10,32,,33,33,11,11,4,3,0.5,0.5
2026-01-04T1800,4151A,104.8899,26.5685,六盘水市,钟山大道中段564号,,30,30,20,18,10,27,,29,29,13,12,5,5,0.9,0.9
2026-01-04T1800,2336A,117.022,25.1031,龙岩市,龙岩市监测站,,25,20,34,15,22,80,,86,86,20,26,7,21,0.5,0.5
2026-01-04T1800,2337A,117.0257,25.0662,龙岩市,闽西职业技术学院,,27,16,38,10,21,86,,89,89,14,21,6,12,0.4,0.4
2026-01-04T1800,2338A,117.0195,25.0306,龙岩市,龙岩学院,,40,40,31,28,22,81,,85,85,8,15,8,9,/,/
2026-01-04T1800,2885A,104.9344,33.3827,陇南市,滨江中学,颗粒物(PM10),59,68,69,41,40,62,,67,67,25,21,7,7,0.9,1
2026-01-04T1800,3247A,104.9551,33.3709,陇南市,市总工会,,,84,74,37,39,58,,62,62,29,25,,3,0.7,0.8
2026-01-04T1800,2488A,111.9984,27.7346,娄底市,市监测站,,35,32,53,24,43,13,,30,22,22,17,4,5,0.8,0.7
2026-01-04T1800,2491A,111.9888,27.7035,娄底市,市政府,,38,32,44,26,45,16,,30,22,15,14,5,5,0.6,0.6
2026-01-04T1800,4127A,111.9812,27.7591,娄底市,涟钢职大,,36,27,52,25,41,10,,27,20,22,18,4,4,0.7,0.6
2026-01-04T1800,4128A,112.0303,27.7457,娄底市,娄底体校,,33,28,49,23,42,16,,28,21,15,14,2,2,0.7,0.6
2026-01-04T1800,1894A,105.4427,28.9063,泸州市,小市上码头,,28,22,47,19,30,50,,43,43,13,17,6,7,0.8,0.8
2026-01-04T1800,1895A,105.4241,28.8573,泸州市,兰田宪桥,,38,35,42,26,30,35,,34,34,18,19,7,7,0.9,0.9
2026-01-04T1800,1896A,105.4378,28.8833,泸州市,市环监站,,35,34,42,24,30,34,,36,36,28,22,7,7,1.0,0.6
2026-01-04T1800,4272A,105.3689,28.7783,泸州市,纳溪中医医院,,40,37,46,28,36,31,,32,32,18,16,8,7,0.9,0.8
2026-01-04T1800,2183A,111.1447,37.5212,吕梁市,环保局,颗粒物(PM10),66,81,105,42,46,10,,20,20,59,51,13,13,0.9,0.9
2026-01-04T1800,2185A,111.1285,37.5338,吕梁市,自来水公司,颗粒物(PM10),69,88,121,46,48,8,,19,19,60,49,12,15,1.1,1
2026-01-04T1800,2867A,111.1225,37.5093,吕梁市,马茂庄小学,颗粒物(PM10),74,98,122,44,45,10,,17,17,56,53,14,15,0.9,0.9
2026-01-04T1800,1812A,112.3934,34.6517,洛阳市,市委党校,细颗粒物(PM2.5),85,70,84,63,76,63,,57,57,25,25,8,10,0.7,0.9
2026-01-04T1800,1815A,112.494,34.6883,洛阳市,河南林校,细颗粒物(PM2.5),100,78,90,75,87,53,,50,50,28,26,12,11,0.8,1
2026-01-04T1800,1816A,112.3843,34.623,洛阳市,开发区管委会,细颗粒物(PM2.5),93,79,90,69,82,63,,57,57,19,21,7,9,0.7,0.9
2026-01-04T1800,1817A,112.4263,34.6249,洛阳市,市委新办公区,细颗粒物(PM2.5),92,78,95,68,84,66,,60,60,21,22,9,10,0.7,0.9
2026-01-04T1800,3340A,112.6005,34.6323,洛阳市,伊滨,细颗粒物(PM2.5),92,81,94,68,82,61,,54,54,30,27,8,8,0.8,1
2026-01-04T1800,3341A,112.495,34.6338,洛阳市,中移产业园,细颗粒物(PM2.5),92,72,84,68,85,59,,52,52,32,33,8,10,0.7,0.9
2026-01-04T1800,3593A,112.5736,34.8993,洛阳市,吉利监测站,细颗粒物(PM2.5),105,,87,79,93,61,,57,57,34,30,8,8,0.9,1.1
2026-01-04T1800,3635A,112.3678,34.6623,洛阳市,河科大西苑校区,细颗粒物(PM2.5),84,75,87,62,77,60,,56,56,26,26,8,9,0.7,0.8
2026-01-04T1800,3636A,112.4387,34.678,洛阳市,英才小学,细颗粒物(PM2.5),104,79,93,78,89,59,,58,58,42,34,11,11,0.9,1
2026-01-04T1800,4214A,112.460027,34.694929,洛阳市,春都路1号院,,,,105,60,74,48,,45,45,25,22,11,11,0.9,1.1
2026-01-04T1800,2399A,114.051,33.5721,漯河市,三五一五工厂,细颗粒物(PM2.5),118,100,111,89,87,46,,57,57,22,22,7,7,1.1,1
2026-01-04T1800,2400A,114.0055,33.5698,漯河市,漯河大学,细颗粒物(PM2.5),110,84,88,83,80,44,,60,60,29,24,6,6,0.9,0.8
2026-01-04T1800,2401A,114.0134,33.5826,漯河市,市水利局,细颗粒物(PM2.5),117,92,88,88,82,37,,52,52,27,22,7,7,1.0,0.9
2026-01-04T1800,2402A,114.0261,33.5697,漯河市,市广电局,细颗粒物(PM2.5),110,93,88,83,84,44,,59,59,21,18,6,7,0.9,0.8
2026-01-04T1800,3478A,113.9691,33.568,漯河市,市图书馆,细颗粒物(PM2.5),100,93,101,75,85,41,,54,54,25,20,5,5,1.1,1
2026-01-04T1800,4250A,114.089259,33.588274,漯河市,韶山路11号,细颗粒物(PM2.5),113,97,104,85,86,34,,50,50,31,23,6,7,0.7,0.7
2026-01-04T1800,1798A,118.5084,31.6838,马鞍山市,湖东路四小,细颗粒物(PM2.5),133,112,106,101,79,1,,22,8,70,55,7,7,1.9,1.1
2026-01-04T1800,1799A,118.5019,31.6449,马鞍山市,开发区,细颗粒物(PM2.5),150,133,116,115,99,2,,19,8,70,55,6,8,1.7,1
2026-01-04T1800,3633A,118.4914,31.681,马鞍山市,雨山,细颗粒物(PM2.5),137,128,107,104,83,1,,28,8,75,54,14,10,2.1,1
2026-01-04T1800,4191A,118.527362,31.722269,马鞍山市,慈湖高新区,细颗粒物(PM2.5),152,141,118,116,95,9,,15,5,68,56,11,8,2.2,0.9
2026-01-04T1800,1686A,111.0285,21.469,茂名市,电白南海,,,58,57,,31,125,,116,116,20,18,10,19,0.7,0.6
2026-01-04T1800,1687A,110.9294,21.6533,茂名市,茂石化七小,颗粒物(PM10),54,58,52,22,25,113,,112,112,21,19,6,7,0.3,0.4
2026-01-04T1800,1688A,110.9108,21.6688,茂名市,健康路,,44,44,44,22,27,124,,125,125,24,21,9,10,0.7,0.7
2026-01-04T1800,1689A,110.8592,21.6826,茂名市,高岭,颗粒物(PM10),74,97,68,22,26,117,,125,125,27,21,9,15,/,/
2026-01-04T1800,3450A,111.0101,21.5165,茂名市,电白水东,颗粒物(PM10),51,51,50,27,26,116,,108,108,14,14,7,15,/,/
2026-01-04T1800,2540A,103.8414,30.0871,眉山市,气象局,,49,45,32,34,22,58,,48,48,18,25,8,8,0.7,0.8
2026-01-04T1800,3148A,103.829,30.0563,眉山市,区人社局,,45,45,31,29,17,52,,45,45,19,23,6,6,0.7,0.8
2026-01-04T1800,4148A,103.8836,30.0695,眉山市,眉职院,,,36,26,24,15,55,,46,46,10,19,,1,,0.7
2026-01-04T1800,1690A,116.1248,24.3307,梅州市,梅江月梅,,48,39,41,33,24,103,,86,86,15,28,/,/,/,/
2026-01-04T1800,1691A,116.0798,24.2719,梅州市,梅县新城,,50,50,41,34,30,87,,85,85,34,32,8,8,0.7,0.5
2026-01-04T1800,3315A,116.1234,24.2994,梅州市,梅龙,,44,44,42,23,27,89,,82,82,22,27,9,10,0.7,0.6
2026-01-04T1800,1878A,104.7775,31.4741,绵阳市,富乐山,,28,28,29,14,24,34,,42,42,17,17,11,11,0.8,0.8
2026-01-04T1800,1880A,104.6698,31.4668,绵阳市,高新区自来水公司,,49,42,38,34,30,36,,33,33,36,29,8,8,0.8,0.8
2026-01-04T1800,3491A,104.6899,31.5324,绵阳市,西科大附属小学,细颗粒物(PM2.5),77,,38,56,31,53,,39,39,22,21,8,8,0.8,1.2
2026-01-04T1800,3492A,104.5647,31.5343,绵阳市,安州区旅游局,细颗粒物(PM2.5),64,,30,46,29,39,,37,37,31,20,18,12,0.9,0.7
2026-01-04T1800,4146A,104.7092,31.4972,绵阳市,科技城新区公安局,,42,33,33,29,27,57,,40,40,22,22,4,4,0.7,0.8
2026-01-04T1800,4226A,104.765114,31.453094,绵阳市,绵阳市气象局,,32,32,32,17,26,44,,37,37,32,25,8,9,0.8,0.9
2026-01-04T1800,1784A,129.61,44.561,牡丹江市,环保大楼,颗粒物(PM10),65,80,52,35,35,55,,62,62,20,22,9,11,1.0,1
2026-01-04T1800,1787A,129.6364,44.6075,牡丹江市,机车工厂,细颗粒物(PM2.5),63,58,64,45,38,62,,64,64,13,23,2,8,0.3,0.5
2026-01-04T1800,1788A,129.6386,44.5462,牡丹江市,第一中学,细颗粒物(PM2.5),52,39,46,36,35,34,,58,57,33,24,4,7,0.5,0.6
2026-01-04T1800,4287A,129.5992,44.5964,牡丹江市,东晓云街98号,,43,33,50,30,38,56,,62,62,17,23,3,5,0.4,0.7
2026-01-04T1800,2531A,105.0703,29.61,内江市,市监测站,,46,36,38,32,31,55,,46,46,24,16,4,4,0.6,0.6
2026-01-04T1800,2533A,105.0657,29.5807,内江市,内江二中,,49,49,43,28,30,50,,36,36,23,19,4,4,0.8,0.8
2026-01-04T1800,2534A,105.0407,29.5828,内江市,内江日报社,,,27,34,24,29,50,,47,47,26,20,2,2,,0.5
2026-01-04T1800,4147A,105.0433,29.6105,内江市,玉峰路西段888号,,32,29,37,22,27,64,,50,50,20,14,3,3,0.7,0.6
2026-01-04T1800,2628A,92.0653,31.4846,那曲市,那曲监测站,,27,9,42,3,28,85,,74,74,9,24,6,10,0.5,1.3
2026-01-04T1800,4243A,92.0515,31.4787,那曲市,那曲市委宣传部,,27,6,24,3,14,86,,73,73,2,13,3,5,0.5,0.9
2026-01-04T1800,1291A,115.8887,28.7006,南昌市,省林业公司,细颗粒物(PM2.5),52,,46,36,45,31,,42,41,26,29,3,5,1.2,1.1
2026-01-04T1800,1292A,115.813,28.7443,南昌市,林科所,细颗粒物(PM2.5),52,39,41,36,35,17,,33,33,34,34,4,6,0.8,0.6
2026-01-04T1800,1294A,115.8518,28.687,南昌市,建工学校,细颗粒物(PM2.5),57,45,56,40,46,14,,36,34,48,36,12,14,0.8,0.6
2026-01-04T1800,1295A,115.8926,28.6425,南昌市,象湖,细颗粒物(PM2.5),55,53,48,39,46,30,,41,41,30,34,8,10,0.9,0.8
2026-01-04T1800,3046A,115.9084,28.6062,南昌市,机电学校,细颗粒物(PM2.5),64,50,62,46,49,40,,48,48,29,33,4,5,0.8,0.7
2026-01-04T1800,3690A,115.9718,28.7032,南昌市,外国语学校,细颗粒物(PM2.5),62,56,58,44,50,29,,33,32,30,33,11,12,0.7,0.6
2026-01-04T1800,4106A,115.7923,28.6873,南昌市,工业二路,,46,34,54,32,44,26,,40,40,25,29,4,5,0.5,0.4
2026-01-04T1800,4192A,115.931587,28.686774,南昌市,南京东路235号,细颗粒物(PM2.5),62,49,51,44,52,22,,47,45,47,36,5,6,0.5,0.4
2026-01-04T1800,1906A,106.0791,30.8022,南充市,南充市委,细颗粒物(PM2.5),53,39,36,37,33,38,,32,32,23,20,4,4,0.7,0.7
2026-01-04T1800,1907A,106.1038,30.8215,南充市,南充炼油厂,细颗粒物(PM2.5),60,57,49,43,39,42,,34,34,22,18,5,6,0.5,0.5
2026-01-04T1800,4227A,106.108336,30.788436,南充市,梨树横街98号,,45,39,37,31,32,48,,38,38,17,20,5,5,0.6,0.6
2026-01-04T1800,4304A,106.1172,30.843,南充市,清泉寺北路188号,细颗粒物(PM2.5),59,,30,42,32,52,,36,36,16,16,6,6,0.9,0.8
2026-01-04T1800,4305A,106.067,30.7616,南充市,同庆路1号,一氧化碳(CO),64,43,40,29,34,42,,35,35,20,20,6,5,6.4,1.3
2026-01-04T1800,1151A,118.8033,32.1085,南京市,迈皋桥,细颗粒物(PM2.5),79,87,88,58,65,42,,31,28,24,44,4,4,1.1,0.9
2026-01-04T1800,1152A,118.7487,32.057,南京市,草场门,细颗粒物(PM2.5),89,85,92,66,70,25,,25,17,50,54,6,7,0.8,0.6
2026-01-04T1800,1154A,118.770105,32.004342,南京市,中华门,细颗粒物(PM2.5),98,97,87,73,71,8,,23,12,65,49,3,5,1.3,0.8
2026-01-04T1800,1155A,118.8059,32.0329,南京市,瑞金路,细颗粒物(PM2.5),107,95,90,80,73,9,,28,14,93,79,4,4,1.1,0.9
2026-01-04T1800,1156A,118.7946,32.0774,南京市,玄武湖,细颗粒物(PM2.5),83,96,90,61,66,31,,27,18,30,28,4,4,0.9,0.7
2026-01-04T1800,1157A,118.6415,32.0964,南京市,浦口,细颗粒物(PM2.5),89,95,91,66,64,41,,30,28,39,50,8,9,1.0,0.9
2026-01-04T1800,1158A,118.730129,32.000956,南京市,奥体中心,细颗粒物(PM2.5),104,96,92,78,74,19,,36,18,68,62,6,7,1.2,0.8
2026-01-04T1800,1159A,118.9072,32.1047,南京市,仙林大学城,细颗粒物(PM2.5),92,88,90,68,68,16,,33,16,62,45,6,7,1.1,0.9
2026-01-04T1800,3422A,118.8443,31.919,南京市,江宁彩虹桥,细颗粒物(PM2.5),100,101,96,75,74,9,,20,8,56,52,3,4,0.9,0.7
2026-01-04T1800,3427A,118.8497,32.3599,南京市,六合雄州,颗粒物(PM10),56,62,82,36,56,53,,38,38,28,49,6,10,0.5,0.6
2026-01-04T1800,4086A,118.7641,32.0841,南京市,新模范马路66号,细颗粒物(PM2.5),99,100,100,74,75,32,,29,16,43,48,6,7,1.2,1.1
2026-01-04T1800,4249A,118.8707617,31.34017673,南京市,汶溪路181号,细颗粒物(PM2.5),109,84,99,82,95,46,,46,46,40,46,8,7,0.6,0.7
2026-01-04T1800,4312A,119.019,31.6512,南京市,中山西路1号,细颗粒物(PM2.5),95,,81,71,84,25,,26,26,40,41,4,4,0.7,0.8
2026-01-04T1800,1401A,108.3098,22.788,南宁市,二十一中,细颗粒物(PM2.5),73,57,55,53,52,54,,51,51,27,26,5,6,0.9,0.9
2026-01-04T1800,1402A,108.3135,22.8529,南宁市,北湖,细颗粒物(PM2.5),78,67,58,57,50,40,,57,57,38,27,5,6,0.9,0.8
2026-01-04T1800,1403A,108.3205,22.8222,南宁市,市监测站,细颗粒物(PM2.5),65,66,56,47,39,51,,51,51,28,25,9,8,0.8,0.8
2026-01-04T1800,1404A,108.3828,22.8038,南宁市,大自然花园,细颗粒物(PM2.5),68,70,62,49,46,68,,61,61,23,31,7,7,0.8,0.8
2026-01-04T1800,1406A,108.2397,22.8462,南宁市,区农职院,细颗粒物(PM2.5),77,78,59,56,47,16,,46,45,39,30,12,9,0.9,0.9
2026-01-04T1800,1407A,108.3285,22.7356,南宁市,英华嘉园,细颗粒物(PM2.5),75,,63,55,59,70,,58,58,21,22,5,5,0.7,0.7
2026-01-04T1800,3401A,108.4829,22.762,南宁市,红星社区,细颗粒物(PM2.5),70,74,61,51,48,68,,68,68,21,20,8,7,0.8,0.8
2026-01-04T1800,4132A,108.2927,23.1477,南宁市,起凤路9号,细颗粒物(PM2.5),98,83,58,73,52,27,,23,23,15,16,2,3,0.9,0.9
2026-01-04T1800,4221A,108.2177,22.7774,南宁市,乐贤路16号,细颗粒物(PM2.5),68,69,72,49,43,55,,49,49,21,26,4,6,0.7,0.7
2026-01-04T1800,2332A,118.1682,26.6371,南平市,南平市监测站,,42,39,25,29,18,52,,70,70,26,18,4,6,0.7,0.5
2026-01-04T1800,2334A,118.1757,26.6276,南平市,南平七中,,26,26,24,18,16,53,,70,70,31,16,5,6,0.9,0.5
2026-01-04T1800,1168A,120.9056,31.9669,南通市,狼山街道,细颗粒物(PM2.5),64,50,80,46,63,30,,29,29,39,57,2,4,0.8,1.2
2026-01-04T1800,1170A,120.8635,32.0231,南通市,城中,细颗粒物(PM2.5),72,62,87,52,59,33,,30,30,50,67,4,7,0.6,1.1
2026-01-04T1800,1171A,120.9376,31.9301,南通市,星湖花园,细颗粒物(PM2.5),72,62,77,52,59,28,,32,32,56,59,4,6,0.9,1.3
2026-01-04T1800,1172A,120.8053,32.046,南通市,紫琅学院,细颗粒物(PM2.5),69,60,89,50,60,32,,26,26,50,68,4,7,0.8,1.1
2026-01-04T1800,3291A,121.0631,32.0644,南通市,通州监测站,细颗粒物(PM2.5),67,51,71,48,57,32,,40,40,51,51,3,5,0.8,0.9
2026-01-04T1800,3432A,120.9348,31.9874,南通市,环境教育馆,细颗粒物(PM2.5),63,53,81,45,64,29,,28,28,50,70,4,6,0.6,1.1
2026-01-04T1800,4091A,120.8692,31.9885,南通市,洪江路,细颗粒物(PM2.5),72,65,87,52,64,28,,24,24,51,72,3,6,0.4,0.8
2026-01-04T1800,2404A,112.5338,33.0086,南阳市,瓦房庄,,,91,96,,94,47,,48,48,23,15,6,6,1.0,0.8
2026-01-04T1800,2405A,112.5002,32.9734,南阳市,汉画馆,细颗粒物(PM2.5),105,92,101,79,93,38,,51,51,26,18,6,6,1.1,0.9
2026-01-04T1800,2406A,112.5778,33.0144,南阳市,气象站,细颗粒物(PM2.5),98,97,104,73,87,48,,50,50,29,16,5,5,0.9,0.8
2026-01-04T1800,2407A,112.548,32.9687,南阳市,理工学院,细颗粒物(PM2.5),90,89,91,67,76,41,,48,48,32,17,6,5,1.1,1
2026-01-04T1800,4008A,112.5233,32.9921,南阳市,卧龙区政府,细颗粒物(PM2.5),104,90,109,78,93,45,,44,44,25,16,6,5,1.0,0.8
2026-01-04T1800,1234A,121.8352,29.9111,宁波市,区环保大楼,颗粒物(PM10),58,65,54,31,33,32,,58,58,63,55,7,6,0.9,0.9
2026-01-04T1800,1235A,121.5595,29.8208,宁波市,万里学院,"颗粒物(PM10),细颗粒物(PM2.5)",64,78,69,46,47,13,,56,53,84,54,6,5,0.7,0.6
2026-01-04T1800,1236A,121.713,29.9564,宁波市,龙赛医院,颗粒物(PM10),64,77,78,45,46,42,,43,43,51,60,4,5,0.6,0.7
2026-01-04T1800,1240A,121.5855,29.8635,宁波市,太古小学,颗粒物(PM10),67,83,70,37,38,20,,54,52,70,52,5,3,0.7,0.7
2026-01-04T1800,1241A,121.5239,29.8673,宁波市,市环境监测中心,颗粒物(PM10),61,72,68,37,47,21,,39,37,66,52,7,7,0.9,0.8
2026-01-04T1800,2871A,121.6156,29.9015,宁波市,万里国际学校,细颗粒物(PM2.5),80,79,66,59,46,24,,47,46,71,59,6,5,0.7,0.6
2026-01-04T1800,3710A,121.5593,29.8976,宁波市,白沙活动中心,细颗粒物(PM2.5),72,68,65,52,48,26,,43,43,66,61,6,5,0.7,0.8
2026-01-04T1800,4095A,121.8962,29.7529,宁波市,中科路88号,,44,44,36,29,25,20,,77,72,49,29,4,4,0.7,0.7
2026-01-04T1800,2341A,119.5387,26.6611,宁德市,宁德市监测站,,49,49,32,18,21,48,,60,60,36,23,6,7,0.8,0.6
2026-01-04T1800,3209A,119.5231,26.6562,宁德市,宁德一中,,30,30,29,19,20,61,,62,62,18,17,5,5,0.5,0.7
2026-01-04T1800,2618A,98.859,25.8541,怒江傈僳族自治州,州监测站,,27,27,28,18,21,70,,62,62,10,9,5,6,0.4,0.4
2026-01-04T1800,2619A,98.8607,25.8168,怒江傈僳族自治州,泸水一中,,30,30,22,3,18,46,,52,52,24,12,5,6,0.6,0.5
2026-01-04T1800,1888A,101.6891,26.571,攀枝花市,弄弄坪,,28,21,35,18,19,89,,76,76,15,24,4,16,0.6,1.2
2026-01-04T1800,1889A,101.577,26.5914,攀枝花市,河门口,,26,26,41,12,18,83,,69,69,9,23,10,16,0.5,0.9
2026-01-04T1800,1891A,101.7365,26.4986,攀枝花市,仁和,,25,24,28,15,16,79,,79,79,15,16,8,9,0.6,0.6
2026-01-04T1800,2835A,101.7222,26.567,攀枝花市,四十中小,,26,26,29,17,16,75,,75,75,18,24,10,11,0.7,0.9
2026-01-04T1800,1604A,122.0303,41.1489,盘锦市,开发区,,48,48,80,18,69,37,,56,56,28,33,4,9,0.6,1.3
2026-01-04T1800,1605A,122.0486,41.0883,盘锦市,兴隆台,,,32,68,19,53,38,,56,56,,55,6,10,0.5,1.4
2026-01-04T1800,1606A,121.8297,41.1026,盘锦市,新生街道,,34,34,64,10,49,43,,57,57,34,46,6,9,0.4,0.9
2026-01-04T1800,1832A,113.3257,33.7423,平顶山市,新华旅馆,细颗粒物(PM2.5),82,85,97,60,81,66,,58,58,17,19,6,6,0.6,0.7
2026-01-04T1800,1833A,113.2917,33.737,平顶山市,规划设计院,,,86,106,62,83,66,,61,61,,26,7,6,0.6,0.9
2026-01-04T1800,1834A,113.182,33.7738,平顶山市,平顶山工学院,细颗粒物(PM2.5),79,67,82,58,74,70,,64,64,18,17,7,7,0.4,0.5
2026-01-04T1800,3594A,112.8736,33.9068,平顶山市,石龙区,细颗粒物(PM2.5),78,60,85,57,73,77,,70,70,22,27,5,6,0.8,1
2026-01-04T1800,4116A,113.284,33.7139,平顶山市,姚电大道23号,细颗粒物(PM2.5),93,80,109,69,89,64,,60,60,22,19,9,8,0.6,1
2026-01-04T1800,2656A,106.6633,35.5338,平凉市,聚贤嘉苑,,30,28,43,21,34,96,,93,93,5,10,7,8,0.6,0.7
2026-01-04T1800,2657A,106.7021,35.5307,平凉市,博物馆,,37,37,50,22,39,93,,90,90,10,14,8,9,0.6,0.8
2026-01-04T1800,2348A,113.8384,27.6436,萍乡市,中医院,细颗粒物(PM2.5),64,72,76,46,52,16,,43,20,33,25,4,6,1.3,0.9
2026-01-04T1800,2350A,113.8677,27.6438,萍乡市,市环保局,,,56,62,52,54,14,,49,26,35,23,14,15,,0.4
2026-01-04T1800,2351A,113.8663,27.6202,萍乡市,安源区政府,细颗粒物(PM2.5),103,102,77,77,59,6,,29,14,37,26,13,12,1.4,1
2026-01-04T1800,4107A,113.8686,27.6668,萍乡市,联洪村委会,细颗粒物(PM2.5),67,68,67,48,49,26,,42,25,33,26,6,7,0.9,0.8
2026-01-04T1800,2319A,119.0142,25.4324,莆田市,荔城区仓后路,颗粒物(PM10),56,62,33,20,13,88,,91,91,26,15,/,/,/,/
2026-01-04T1800,2320A,119.0016,25.4553,莆田市,莆田市监测站,,49,49,25,31,10,85,,96,96,20,8,5,4,0.9,0.5
2026-01-04T1800,2321A,119.112,25.4561,莆田市,涵江区六中,颗粒物(PM10),64,78,32,20,13,81,,90,90,29,16,/,/,0.8,0.5
2026-01-04T1800,2322A,119.1014,25.3215,莆田市,秀屿区政府,,43,43,32,21,14,96,,94,94,15,13,3,3,0.6,0.6
2026-01-04T1800,2392A,115.0312,35.7636,濮阳市,环保局,细颗粒物(PM2.5),176,,93,133,95,32,,33,29,34,24,7,7,1.5,1.5
2026-01-04T1800,3021A,115,35.7667,濮阳市,濮水河管理处,细颗粒物(PM2.5),178,177,125,134,97,34,,36,33,42,35,6,6,1.1,1
2026-01-04T1800,4118A,115.0552,35.7816,濮阳市,中原东路68号,细颗粒物(PM2.5),198,191,141,148,107,35,,36,33,35,27,6,5,1.0,0.9
2026-01-04T1800,4216A,115.0923632,35.76857718,濮阳市,任丘路479号,细颗粒物(PM2.5),198,158,123,148,113,31,,28,28,38,36,5,5,1.1,1
2026-01-04T1800,2601A,100.9801,22.7634,普洱市,市环保局,,35,35,43,23,27,71,,57,57,6,13,4,4,0.3,0.5
2026-01-04T1800,2602A,100.9763,22.8237,普洱市,普洱第二中学,,36,36,33,19,19,73,,60,60,6,14,5,5,0.4,0.5
2026-01-04T1800,3345A,131.0413,45.7795,七台河市,中波台,,49,49,55,12,32,64,,64,64,10,17,6,9,0.4,0.6
2026-01-04T1800,3637A,131.0136,45.7688,七台河市,人民广场,,32,32,63,21,39,59,,64,64,18,22,8,10,0.5,0.6
2026-01-04T1800,3684A,130.8639,45.8144,七台河市,新建矿广场,,39,39,56,22,33,63,,63,63,6,13,5,11,0.3,0.4
2026-01-04T1800,1779A,123.9307,47.3641,齐齐哈尔市,安居小区,,42,35,31,29,23,31,,63,59,45,21,8,7,1.0,0.6
2026-01-04T1800,1780A,123.9497,47.3389,齐齐哈尔市,中心广场,,25,17,16,17,11,37,,60,58,39,15,7,6,0.9,0.5
2026-01-04T1800,1781A,123.9483,47.3229,齐齐哈尔市,农牧车辆厂,,26,19,26,18,15,34,,59,57,40,14,4,4,0.5,0.3
2026-01-04T1800,1783A,123.9442,47.2994,齐齐哈尔市,市环境监测站,颗粒物(PM10),51,51,29,19,16,21,,65,61,58,18,8,7,1.1,0.6
2026-01-04T1800,3662A,123.6341,47.2079,齐齐哈尔市,富区青少年活动中心,颗粒物(PM10),57,63,44,36,24,41,,60,59,32,19,12,8,0.8,0.7
2026-01-04T1800,2591A,107.9765,26.5724,黔东南苗族侗族自治州,市环境监测站,,32,24,19,22,18,20,,23,16,14,14,7,5,0.8,0.8
2026-01-04T1800,2881A,107.8909,26.531,黔东南苗族侗族自治州,凯里学院,,39,39,14,26,9,9,,28,16,28,13,5,4,0.8,0.7
2026-01-04T1800,2593A,107.5223,26.2371,黔南布依族苗族自治州,小围寨,,45,36,8,31,8,9,,22,18,13,7,5,5,0.8,0.8
2026-01-04T1800,3538A,107.5175,26.2977,黔南布依族苗族自治州,沙坝,细颗粒物(PM2.5),52,,13,36,12,13,,23,16,17,10,5,5,0.9,0.8
2026-01-04T1800,2589A,104.9022,25.0943,黔西南布依族苗族自治州,场坝街,,34,34,22,17,12,15,,20,15,15,8,5,4,0.8,0.7
2026-01-04T1800,2590A,104.8812,25.0994,黔西南布依族苗族自治州,坪东大道,,30,28,18,21,12,14,,20,15,17,8,6,4,0.8,0.7
2026-01-04T1800,2502A,108.6238,21.9667,钦州市,市环保站,,,58,81,,55,108,,94,94,20,28,4,4,0.7,1.1
2026-01-04T1800,2503A,108.655,21.9481,钦州市,沙埠小学,颗粒物(PM10),57,64,70,37,53,118,,106,106,19,27,5,6,0.5,0.7
2026-01-04T1800,2504A,108.5989,21.7435,钦州市,港区一小,颗粒物(PM10),57,63,73,26,44,126,,101,101,17,34,8,8,0.6,0.7
2026-01-04T1800,3404A,108.5959,21.9634,钦州市,北职校,颗粒物(PM10),53,56,73,26,50,107,,93,93,18,24,9,8,0.6,1
2026-01-04T1800,1046A,119.5247,39.9346,秦皇岛市,建设大厦,"颗粒物(PM10),细颗粒物(PM2.5)",57,63,85,40,52,34,,41,41,44,50,10,9,0.6,1
2026-01-04T1800,3132A,119.5979,39.938,秦皇岛市,文明里,颗粒物(PM10),52,53,91,27,38,43,,42,42,34,52,14,12,0.2,0.8
2026-01-04T1800,4066A,119.7458,39.9952,秦皇岛市,南园路157号,颗粒物(PM10),67,83,94,43,58,37,,47,47,41,52,10,12,0.7,1.4
2026-01-04T1800,4067A,119.5131,39.8858,秦皇岛市,翠岛大街1号,颗粒物(PM10),52,54,57,23,36,48,,49,49,29,44,15,12,0.6,0.9
2026-01-04T1800,4198A,119.509013,39.825305,秦皇岛市,北戴河轮滑馆,颗粒物(PM10),53,56,68,33,47,48,,54,54,30,47,7,6,0.4,1.5
2026-01-04T1800,1310A,120.404,36.0625,青岛市,市南区东部子站,细颗粒物(PM2.5),163,173,131,124,90,39,,36,36,75,69,18,16,1.3,1.1
2026-01-04T1800,1311A,120.362344,36.10282,青岛市,四方区子站,细颗粒物(PM2.5),175,134,116,132,106,48,,37,37,56,70,10,10,1.3,1.3
2026-01-04T1800,1312A,120.294373,36.054183,青岛市,市南区西部子站,细颗粒物(PM2.5),168,166,140,127,100,58,,44,44,44,63,10,9,1.4,1.1
2026-01-04T1800,1313A,120.4581,36.0858,青岛市,崂山区子站,细颗粒物(PM2.5),153,178,113,117,79,30,,55,55,90,54,18,15,1.5,1.1
2026-01-04T1800,1315A,120.3945,36.3083,青岛市,城阳区子站,细颗粒物(PM2.5),129,153,148,98,87,50,,55,55,50,68,13,14,1.5,1.6
2026-01-04T1800,3642A,120.3454,36.0735,青岛市,市北区南部,细颗粒物(PM2.5),175,210,134,132,99,38,,33,33,58,64,10,10,1.3,1.1
2026-01-04T1800,3643A,120.3897,36.18,青岛市,李沧区北部,细颗粒物(PM2.5),175,171,139,132,108,31,,32,32,70,72,16,15,1.5,1.4
2026-01-04T1800,4110A,120.5222,36.4089,青岛市,盟旺路653号,细颗粒物(PM2.5),158,158,144,120,102,41,,58,58,60,72,9,11,1.7,1.1
2026-01-04T1800,4290A,120.196923,35.954556,青岛市,珠江路669号,细颗粒物(PM2.5),209,205,141,159,106,19,,25,25,114,90,17,17,1.5,1.2
2026-01-04T1800,4291A,120.0424,35.8656,青岛市,黄岛区人民政府广场,细颗粒物(PM2.5),223,227,157,173,118,34,,52,52,102,67,15,12,1.6,1.7
2026-01-04T1800,1703A,113.0218,23.7086,清远市,凤城街办,,38,38,41,24,28,118,,109,109,24,27,/,/,/,/
2026-01-04T1800,3025A,113.0479,23.6343,清远市,技师学院,,42,42,52,22,30,125,,112,112,25,41,6,10,0.6,0.7
2026-01-04T1800,3318A,112.9898,23.7403,清远市,清新太和,,47,47,38,28,26,129,,120,120,24,22,7,7,0.5,0.5
2026-01-04T1800,3455A,113.076,23.72,清远市,清城东城,,44,44,39,25,24,124,,110,110,22,29,/,/,/,/
2026-01-04T1800,2661A,107.6325,35.7357,庆阳市,庆阳五中,,33,27,49,23,44,86,,87,87,22,14,6,4,0.5,0.5
2026-01-04T1800,2662A,107.6361,35.7067,庆阳市,市环保局,,33,33,53,18,41,94,,89,89,12,10,2,1,0.4,0.4
2026-01-04T1800,1916A,103.7897,25.5036,曲靖市,环境监测站,,28,24,20,7,11,87,,85,85,8,11,2,3,0.5,0.6
2026-01-04T1800,1917A,103.8013,25.5357,曲靖市,烟厂办公区,,28,23,21,8,10,88,,85,85,7,10,3,3,0.3,0.3
2026-01-04T1800,3376A,103.7926,25.4651,曲靖市,南苑二区,,28,26,20,15,13,89,,88,88,7,6,4,4,0.4,0.4
2026-01-04T1800,3377A,103.7442,25.5259,曲靖市,曲靖师范学院,,28,24,22,8,14,87,,85,85,6,10,2,3,0.3,0.4
2026-01-04T1800,1264A,118.8694,28.94,衢州市,环保大楼,细颗粒物(PM2.5),87,86,92,64,71,15,,42,40,72,54,/,/,/,/
2026-01-04T1800,1266A,118.8622,28.9809,衢州市,衢州学院,细颗粒物(PM2.5),84,82,81,62,63,28,,40,40,55,48,5,5,0.4,0.4
2026-01-04T1800,4097A,118.9646,28.9832,衢州市,衢州三中,细颗粒物(PM2.5),85,90,94,63,71,28,,39,39,54,47,5,5,0.6,0.5
2026-01-04T1800,1611A,118.5818,24.9116,泉州市,涂山街,颗粒物(PM10),59,67,38,26,21,79,,94,94,37,16,4,3,0.6,0.4
2026-01-04T1800,1612A,118.597,24.8976,泉州市,津头埔,颗粒物(PM10),55,60,38,24,21,83,,95,95,37,19,5,5,0.6,0.5
2026-01-04T1800,1613A,118.6669,24.9422,泉州市,万安,,,,37,,16,96,,97,97,,17,,3,0.5,0.4
2026-01-04T1800,4105A,118.6355,24.9148,泉州市,霞新路6号,,42,42,28,22,19,84,,97,97,31,15,/,/,0.4,0.4
2026-01-04T1800,2626A,88.8873,29.2723,日喀则市,日喀则监测站,,33,9,24,3,12,103,,82,82,2,10,8,8,0.3,0.5
2026-01-04T1800,3726A,88.8775,29.2425,日喀则市,林业技术推广中心,,31,10,23,3,8,99,,79,79,2,4,10,11,0.3,0.4
2026-01-04T1800,1659A,119.4711,35.421,日照市,监测站,细颗粒物(PM2.5),137,156,143,104,105,10,,32,32,92,73,17,16,1.2,1.4
2026-01-04T1800,1660A,119.523,35.4216,日照市,市政府广场,细颗粒物(PM2.5),122,122,117,92,93,26,,55,55,85,57,18,14,0.7,0.8
2026-01-04T1800,1661A,119.5511,35.4113,日照市,港务局,细颗粒物(PM2.5),122,136,130,92,101,46,,61,61,66,63,12,13,0.8,0.9
2026-01-04T1800,3507A,119.5326,35.4627,日照市,职业技术学院,细颗粒物(PM2.5),110,124,119,83,81,63,,68,68,51,56,14,12,1.2,1.1
2026-01-04T1800,3604A,119.3267,35.1043,日照市,岚山环保分局,细颗粒物(PM2.5),163,156,157,124,123,24,,43,43,66,57,24,36,1.1,1.6
2026-01-04T1800,1835A,111.1922,34.7752,三门峡市,市政府,细颗粒物(PM2.5),80,66,100,59,116,65,,59,59,28,26,7,7,0.6,0.9
2026-01-04T1800,1836A,111.1588,34.794,三门峡市,开发区,细颗粒物(PM2.5),75,76,134,55,116,61,,57,57,28,22,4,4,0.6,0.9
2026-01-04T1800,3039A,111.1911,34.7829,三门峡市,三门峡市第一小学,细颗粒物(PM2.5),70,68,105,51,112,69,,58,58,21,24,8,8,0.7,0.9
2026-01-04T1800,3598A,111.1031,34.719,三门峡市,富达温泉假日酒店,细颗粒物(PM2.5),87,75,103,64,103,70,,64,64,28,34,16,13,0.7,0.9
2026-01-04T1800,2324A,117.621,26.2626,三明市,三钢,,48,48,34,31,28,33,,67,67,59,27,14,11,2.0,1.2
2026-01-04T1800,2325A,117.6352,26.2714,三明市,三明二中,颗粒物(PM10),52,53,30,21,22,44,,65,65,38,24,12,12,1.5,1
2026-01-04T1800,2326A,117.6028,26.2377,三明市,三元区政府,颗粒物(PM10),54,57,35,33,25,30,,66,66,55,28,7,7,1.1,0.9
2026-01-04T1800,1877A,109.4962,18.2682,三亚市,河西子站,,46,46,36,18,17,94,,97,97,8,8,4,4,0.5,0.5
2026-01-04T1800,3540A,109.7348,18.3443,三亚市,君悦子站,,47,47,40,17,16,94,,93,93,5,9,5,5,0.5,0.5
2026-01-04T1800,4135A,109.1714,18.3739,三亚市,城东小学站,,41,41,32,17,17,96,,95,95,10,7,/,/,/,/
2026-01-04T1800,2624A,91.7592,29.234,山南市,山南监测站,,47,47,21,18,8,92,,81,81,9,5,4,4,0.3,0.3
2026-01-04T1800,2625A,91.7701,29.2436,山南市,山南人民医院,,30,12,21,3,7,96,,80,80,3,5,3,2,0.2,0.3
2026-01-04T1800,1674A,116.6795,23.3666,汕头市,金平子站,,40,40,48,18,30,109,,115,115,22,23,5,9,0.7,0.8
2026-01-04T1800,1675A,116.7248,23.3632,汕头市,龙湖子站,,46,46,41,24,22,105,,103,103,20,18,10,12,/,/
2026-01-04T1800,1676A,116.7257,23.2774,汕头市,濠江子站,,46,46,38,27,25,110,,98,98,19,17,8,9,/,/
2026-01-04T1800,1677A,116.7518,23.4712,汕头市,澄海子站,,50,50,49,24,31,114,,110,110,18,20,7,9,0.7,0.7
2026-01-04T1800,1678A,116.6088,23.2539,汕头市,潮阳子站,,37,37,43,14,23,116,,112,112,15,19,6,9,0.5,0.6
2026-01-04T1800,3444A,116.4539,23.2684,汕头市,潮南峡山,,35,35,48,20,29,108,,108,108,19,17,10,11,0.6,0.6
2026-01-04T1800,3624A,116.4069,23.2533,汕头市,潮南子站,颗粒物(PM10),58,66,61,31,33,102,,105,105,22,19,8,10,/,/
2026-01-04T1800,1693A,115.3653,22.7751,汕尾市,市环保局,,29,26,39,15,27,92,,98,98,18,14,7,7,0.5,0.5
2026-01-04T1800,1695A,115.362,22.7926,汕尾市,新城中学,,31,31,41,17,26,99,,88,88,13,13,4,5,0.4,0.4
2026-01-04T1800,2645A,109.9155,33.8714,商洛市,监测站,细颗粒物(PM2.5),57,50,46,40,41,85,,84,84,20,18,6,4,0.5,0.6
2026-01-04T1800,3045A,109.9647,33.8486,商洛市,商州区中学,细颗粒物(PM2.5),59,54,44,42,45,88,,86,86,12,13,7,5,0.7,0.6
2026-01-04T1800,2408A,115.6701,34.4283,商丘市,环境监测站,细颗粒物(PM2.5),83,69,71,61,68,47,,54,54,25,18,2,2,0.3,0.4
2026-01-04T1800,2409A,115.6458,34.4047,商丘市,粮食局,细颗粒物(PM2.5),82,,66,60,69,45,,48,48,24,19,3,4,0.5,0.6
2026-01-04T1800,3171A,115.6069,34.4465,商丘市,梁园区档案局,细颗粒物(PM2.5),88,,66,65,66,39,,44,44,24,19,4,3,0.5,0.6
2026-01-04T1800,4119A,115.6701,34.3767,商丘市,北海东路185号,细颗粒物(PM2.5),84,76,91,62,72,47,,48,48,21,30,2,2,0.5,0.5
2026-01-04T1800,4120A,115.6172,34.3704,商丘市,中山大街3号,细颗粒物(PM2.5),92,82,99,68,78,43,,49,49,28,28,3,3,0.3,0.4
2026-01-04T1800,1141A,121.401,31.2382,上海市,普陀,细颗粒物(PM2.5),67,66,66,48,47,37,,45,45,63,70,7,8,0.6,0.8
2026-01-04T1800,1142A,121.4774,31.2043,上海市,十五厂,颗粒物(PM10),56,62,65,35,43,33,,46,46,63,71,7,8,0.8,0.8
2026-01-04T1800,1143A,121.4673,31.3011,上海市,虹口,颗粒物(PM10),60,69,77,42,44,22,,34,34,62,67,11,12,0.4,0.6
2026-01-04T1800,1147A,121.4253,31.226,上海市,静安监测站,"颗粒物(PM10),细颗粒物(PM2.5)",57,64,63,40,44,36,,52,51,58,63,7,8,0.6,0.6
2026-01-04T1800,1148A,121.7029,31.1905,上海市,浦东川沙,,42,42,65,28,36,62,,60,60,32,58,7,8,0.6,0.7
2026-01-04T1800,1149A,121.5339,31.229,上海市,浦东新区监测站,颗粒物(PM10),52,54,59,30,39,35,,55,55,63,60,6,8,0.7,0.7
2026-01-04T1800,1150A,121.5776,31.2038,上海市,浦东张江,,44,44,62,27,39,52,,60,60,43,56,7,8,0.6,0.8
2026-01-04T1800,3265A,121.4242,31.3303,上海市,宝山庙行,颗粒物(PM10),61,71,74,40,49,33,,34,34,59,79,6,8,0.5,0.8
2026-01-04T1800,3266A,121.8789,31.4662,上海市,崇明上实东滩,,29,28,39,20,29,28,,53,50,39,29,4,5,0.6,0.2
2026-01-04T1800,3268A,121.316,31.2839,上海市,嘉定南翔,细颗粒物(PM2.5),62,64,71,44,51,20,,29,29,63,73,4,6,0.6,0.8
2026-01-04T1800,3269A,121.3357,30.7455,上海市,金山新城,细颗粒物(PM2.5),94,86,42,70,43,20,,69,62,88,38,8,10,1.0,0.9
2026-01-04T1800,3270A,121.4996,31.0741,上海市,闵行浦江,,43,37,62,30,44,65,,57,57,33,59,7,8,0.3,0.5
2026-01-04T1800,3271A,121.2886,31.1663,上海市,青浦徐泾,细颗粒物(PM2.5),75,85,72,55,50,5,,40,39,78,77,6,7,0.8,1
2026-01-04T1800,3272A,121.2193,31.0382,上海市,松江图书馆,颗粒物(PM10),75,100,82,47,37,8,,48,47,86,71,7,8,0.6,0.6
2026-01-04T1800,3273A,121.3904,31.206,上海市,长宁仙霞,细颗粒物(PM2.5),58,64,61,41,43,18,,45,43,69,68,7,8,0.6,0.7
2026-01-04T1800,3274A,121.7964,31.0507,上海市,浦东惠南,,48,48,52,30,36,42,,63,62,49,47,6,6,0.7,0.6
2026-01-04T1800,3544A,121.4891,30.925,上海市,奉贤南桥新城,颗粒物(PM10),51,52,69,34,53,47,,62,62,54,61,9,9,0.6,0.8
