timepoint,stationcode,longitude,latitude,area,positionname,primarypollutant,aqi,pm10,pm10_24h,pm2_5,pm2_5_24h,o3,o3_24h,o3_8h,o3_8h_24h,no2,no2_24h,so2,so2_24h,co,co_24h
2026-01-04T1100,2568A,102.2503,31.8896,阿坝藏族羌族自治州,马师校,,29,26,26,20,16,51,,62,50,15,17,5,4,0.6,0.6
2026-01-04T1100,3994A,102.2174,31.9016,阿坝藏族羌族自治州,马尔康中学西区,,23,23,17,10,10,62,,63,60,10,13,6,6,0.6,0.6
2026-01-04T1100,2695A,80.2899,41.1684,阿克苏地区,电视台,"颗粒物(PM10),细颗粒物(PM2.5)",57,64,70,40,43,14,,19,17,30,30,4,5,0.8,0.7
2026-01-04T1100,2696A,80.2592,41.1541,阿克苏地区,艺术中心,细颗粒物(PM2.5),57,58,61,40,47,10,,28,21,30,21,4,4,0.8,0.7
2026-01-04T1100,2205A,105.699,38.8409,阿拉善盟,蒙二幼,,43,43,50,23,40,61,,63,59,28,21,11,11,0.8,0.7
2026-01-04T1100,2206A,105.7198,38.8508,阿拉善盟,环保局新楼,,20,18,42,12,34,61,,72,65,18,14,9,10,0.7,0.8
2026-01-04T1100,2708A,88.1266,47.8515,阿勒泰地区,市站,,34,6,14,3,5,22,,70,64,68,34,3,9,0.6,0.5
2026-01-04T1100,4166A,88.1198,47.7931,阿勒泰地区,阿勒泰路33号,,25,8,15,3,4,39,,78,72,49,28,7,7,0.6,0.4
2026-01-04T1100,2630A,80.1171,32.4999,阿里地区,阿里监测站,,17,6,2,3,2,54,,57,57,15,9,8,10,0.6,0.5
2026-01-04T1100,3192A,80.0906,32.5029,阿里地区,阿里藏医院,,19,19,13,11,6,47,,62,54,22,7,24,12,0.7,0.5
2026-01-04T1100,2644A,109.0088,32.6974,安康市,汉滨区检察院,细颗粒物(PM2.5),80,65,54,59,53,17,,14,13,22,26,9,8,0.8,0.8
2026-01-04T1100,4054A,109.0324,32.6913,安康市,市邮政管理局,细颗粒物(PM2.5),84,69,60,62,53,14,,11,11,22,26,7,5,0.9,0.8
2026-01-04T1100,2291A,117.0806,30.5181,安庆市,环科院,细颗粒物(PM2.5),105,98,70,79,58,26,,34,26,37,26,9,7,0.8,0.6
2026-01-04T1100,2292A,117.0331,30.5118,安庆市,马山宾馆,细颗粒物(PM2.5),99,100,72,74,55,23,,34,26,42,28,7,7,0.8,0.6
2026-01-04T1100,2294A,116.9897,30.6146,安庆市,安庆大学,细颗粒物(PM2.5),103,93,68,77,57,28,,24,22,26,38,4,5,0.9,0.8
2026-01-04T1100,3173A,117.0598,30.5351,安庆市,市人大,细颗粒物(PM2.5),104,94,72,78,58,28,,31,25,40,33,10,8,0.8,0.6
2026-01-04T1100,3123A,105.9408,26.2431,安顺市,凤凰山,,19,,11,13,8,40,,34,34,13,13,14,12,1.0,0.9
2026-01-04T1100,3124A,105.9443,26.2567,安顺市,金钟山,,15,,10,10,8,44,,36,36,9,10,13,12,0.8,0.8
2026-01-04T1100,3125A,105.8983,26.248,安顺市,娄家坡,,20,16,17,14,14,35,,30,30,16,13,31,20,0.9,0.8
2026-01-04T1100,1819A,114.3552,36.1017,安阳市,红庙街,细颗粒物(PM2.5),203,,127,153,124,18,,8,8,32,39,4,5,1.2,1.1
2026-01-04T1100,1820A,114.361,36.0681,安阳市,银杏小区,细颗粒物(PM2.5),205,,126,155,135,19,,8,8,29,38,4,4,1.0,0.9
2026-01-04T1100,3141A,114.3921,36.0879,安阳市,信访局,细颗粒物(PM2.5),202,,130,152,129,19,,13,13,31,35,3,3,1.1,1
2026-01-04T1100,3669A,114.4706,36.0634,安阳市,左辅环卫站,细颗粒物(PM2.5),188,158,146,141,133,27,,20,18,22,26,3,4,0.9,0.9
2026-01-04T1100,4117A,114.2918,36.0769,安阳市,钢三路198号,细颗粒物(PM2.5),214,197,170,164,141,19,,8,8,35,42,6,5,1.2,1.1
2026-01-04T1100,1748A,123.0441,41.1201,鞍山市,深沟寺,细颗粒物(PM2.5),82,78,67,60,48,34,,28,28,46,42,27,14,2.1,1.8
2026-01-04T1100,1749A,123.011,41.0931,鞍山市,太阳城,细颗粒物(PM2.5),73,73,69,53,47,37,,32,32,46,47,32,26,2.5,2.7
2026-01-04T1100,1750A,123.0483,41.1445,鞍山市,太平,细颗粒物(PM2.5),115,140,84,87,51,23,,20,20,58,48,32,17,2.6,1.7
2026-01-04T1100,1751A,122.964,41.0968,鞍山市,铁西三道街,细颗粒物(PM2.5),120,157,119,91,63,29,,16,16,61,56,31,23,3.6,2.7
2026-01-04T1100,1753A,123.0219,41.0822,鞍山市,明达新区,细颗粒物(PM2.5),75,81,74,55,51,35,,22,22,29,32,32,25,2.2,2.6
2026-01-04T1100,4201A,122.944647,41.082639,鞍山市,兴盛南路290号,颗粒物(PM10),127,203,150,86,77,22,,5,5,66,65,25,22,3.1,2.4
2026-01-04T1100,2195A,107.4206,40.7609,巴彦淖尔市,附二中,"颗粒物(PM10),细颗粒物(PM2.5)",52,54,93,36,50,38,,17,17,19,41,5,13,0.5,0.8
2026-01-04T1100,2196A,107.37,40.7372,巴彦淖尔市,市环保大楼,,49,49,83,23,41,45,,10,10,13,45,5,10,0.5,0.8
2026-01-04T1100,1956A,86.1476,41.7529,巴音郭楞蒙古自治州,孔雀公园,颗粒物(PM10),71,91,134,27,29,10,,14,6,49,31,7,6,0.5,0.5
2026-01-04T1100,1957A,86.1971,41.7166,巴音郭楞蒙古自治州,棉纺厂,颗粒物(PM10),96,141,140,27,22,4,,22,12,60,30,/,/,/,/
2026-01-04T1100,1958A,86.236,41.7172,巴音郭楞蒙古自治州,经济开发区,颗粒物(PM10),69,87,101,17,19,0,,21,13,46,23,5,4,0.6,0.6
2026-01-04T1100,3181A,106.776805,31.852614,巴中市,市五中,细颗粒物(PM2.5),59,52,54,42,44,15,,9,9,17,17,5,5,1.0,0.9
2026-01-04T1100,3183A,106.7419,31.8654,巴中市,圣泉水务公司,,50,41,43,35,39,30,,10,10,13,22,5,5,0.6,0.6
2026-01-04T1100,3616A,106.7617,31.8343,巴中市,市中心医院,细颗粒物(PM2.5),59,48,46,42,40,19,,12,12,16,18,7,6,1.0,0.9
2026-01-04T1100,2235A,122.7909,45.608,白城市,洮北区环保局,细颗粒物(PM2.5),57,41,40,40,39,54,,42,42,18,29,4,5,0.4,0.5
2026-01-04T1100,2236A,122.8741,45.5725,白城市,市环保局,细颗粒物(PM2.5),60,,34,43,31,52,,43,42,15,30,8,7,0.6,0.5
2026-01-04T1100,2231A,126.4219,41.9172,白山市,喜丰,,,118,80,69,46,28,,13,13,39,41,17,15,,1.2
2026-01-04T1100,2232A,126.4082,41.9416,白山市,环保局,细颗粒物(PM2.5),87,85,71,64,51,31,,12,12,29,37,19,13,1.5,1.7
2026-01-04T1100,2647A,104.1727,36.5448,白银市,第三小学,细颗粒物(PM2.5),75,69,50,55,45,39,,46,34,28,20,9,4,1.4,0.8
2026-01-04T1100,2648A,104.1467,36.5482,白银市,动力公司,细颗粒物(PM2.5),75,58,47,55,45,42,,44,35,28,14,8,3,1.4,0.6
2026-01-04T1100,2512A,106.6102,23.901,百色市,市监测站,细颗粒物(PM2.5),68,67,48,49,31,30,,25,21,24,17,19,13,1.0,0.8
2026-01-04T1100,2513A,106.6524,23.8842,百色市,市中心血站,细颗粒物(PM2.5),92,68,49,68,41,31,,26,21,29,21,19,12,1.0,0.7
2026-01-04T1100,4133A,106.6273,23.8798,百色市,龙景西路,细颗粒物(PM2.5),114,91,61,86,55,11,,19,11,30,15,21,15,0.8,0.7
2026-01-04T1100,2270A,117.396,32.9389,蚌埠市,工人疗养院,细颗粒物(PM2.5),115,136,87,87,58,6,,10,7,60,37,8,7,1.2,0.6
2026-01-04T1100,2271A,117.3606,32.9428,蚌埠市,百货大楼,细颗粒物(PM2.5),89,109,63,66,50,10,,8,8,58,43,9,6,1.1,0.6
2026-01-04T1100,2273A,117.4183,32.8909,蚌埠市,蚌埠学院,细颗粒物(PM2.5),85,88,61,63,50,13,,21,17,48,32,6,4,0.8,0.5
2026-01-04T1100,2274A,117.3534,32.9672,蚌埠市,淮上区政府,细颗粒物(PM2.5),112,132,76,84,58,5,,6,5,67,44,7,3,1.0,0.6
2026-01-04T1100,2275A,117.3143,32.8977,蚌埠市,高新区,细颗粒物(PM2.5),107,100,66,80,55,19,,25,20,56,33,14,8,1.0,0.5
2026-01-04T1100,3715A,117.3091,32.9314,蚌埠市,蚌埠田家炳中学,细颗粒物(PM2.5),99,116,76,74,58,10,,20,16,68,40,14,9,1.0,0.6
2026-01-04T1100,1585A,109.8761,40.6533,包头市,市环境监测站,,44,44,161,10,94,64,,51,51,12,56,7,33,0.2,2.6
2026-01-04T1100,1587A,109.9992,40.5843,包头市,包头八中,,31,31,122,12,75,59,,48,48,15,53,2,20,0.3,1.7
2026-01-04T1100,1589A,109.8641,40.6288,包头市,惠龙物流,,44,44,124,14,70,65,,54,54,12,48,11,33,0.4,1.9
2026-01-04T1100,1590A,110.0376,40.5546,包头市,东河鸿龙湾,,38,38,92,7,56,61,,43,43,22,65,9,19,0.4,1.5
2026-01-04T1100,3283A,109.9154,40.5684,包头市,滨河大厦,,38,38,84,19,54,62,,51,51,5,38,4,16,0.5,1.5
2026-01-04T1100,3419A,109.9449,40.6259,包头市,包头市委党校,,44,44,122,12,77,58,,48,48,13,52,10,29,0.4,2.1
2026-01-04T1100,3683A,109.8332,40.6577,包头市,昆区政府,颗粒物(PM10),51,52,155,17,74,61,,50,50,17,55,15,41,0.6,2.7
2026-01-04T1100,1931A,107.0802,34.3129,宝鸡市,竹园沟,细颗粒物(PM2.5),67,49,45,48,50,41,,52,45,15,10,6,6,0.6,0.6
2026-01-04T1100,1933A,107.1429,34.3549,宝鸡市,监测站,细颗粒物(PM2.5),87,,58,64,62,29,,43,30,27,22,4,4,0.9,0.8
2026-01-04T1100,1934A,107.1172,34.3759,宝鸡市,技工学校,细颗粒物(PM2.5),89,71,57,66,66,39,,40,32,13,15,4,4,0.8,0.8
2026-01-04T1100,1936A,107.2025,34.3518,宝鸡市,文理学院,细颗粒物(PM2.5),85,,60,63,64,33,,46,34,26,22,5,4,0.7,0.6
2026-01-04T1100,1937A,107.2396,34.3626,宝鸡市,三迪小学,细颗粒物(PM2.5),90,,56,67,68,36,,42,33,24,24,4,3,0.8,0.8
2026-01-04T1100,4155A,107.1721,34.3558,宝鸡市,滨河北路,细颗粒物(PM2.5),79,68,63,58,57,35,,51,39,29,22,6,6,0.9,0.8
2026-01-04T1100,4308A,107.3898,34.3601,宝鸡市,陈仓区北开路21号,细颗粒物(PM2.5),107,80,69,80,75,71,,66,65,22,24,102,22,1.0,0.7
2026-01-04T1100,1051A,115.4803,38.8568,保定市,游泳馆,细颗粒物(PM2.5),122,117,159,92,136,18,,8,8,58,76,11,12,1.3,1.6
2026-01-04T1100,1052A,115.509,38.8895,保定市,华电二区,细颗粒物(PM2.5),107,102,142,80,132,10,,4,4,44,60,6,7,1.5,1.8
2026-01-04T1100,1053A,115.4588,38.9037,保定市,接待中心,细颗粒物(PM2.5),104,96,150,78,123,11,,4,4,53,62,5,5,1.0,1.3
2026-01-04T1100,1054A,115.4484,38.8344,保定市,地表水厂,细颗粒物(PM2.5),133,137,182,101,137,24,,12,12,56,73,8,8,1.2,1.6
2026-01-04T1100,3581A,115.3136,38.9511,保定市,满城区生态环境分局,细颗粒物(PM2.5),149,183,178,114,131,,,1,1,70,76,10,9,1.4,1.7
2026-01-04T1100,3582A,115.4709,38.7628,保定市,清苑区第二中学,细颗粒物(PM2.5),182,218,220,137,148,19,,5,5,64,78,12,12,1.5,1.6
2026-01-04T1100,3583A,115.6231,39.0223,保定市,徐水物探局,细颗粒物(PM2.5),102,132,202,76,136,9,,4,4,56,73,10,12,1.1,1.5
2026-01-04T1100,4004A,115.4199,38.8665,保定市,双鹰农机,颗粒物(PM10),99,147,197,60,119,21,,14,14,52,62,11,12,1.0,1.4
2026-01-04T1100,4034A,115.515,38.8589,保定市,植保所站,细颗粒物(PM2.5),144,,162,110,147,7,,1,1,67,89,8,7,1.2,1.5
2026-01-04T1100,2594A,99.1589,25.1137,保山市,市环境监测站,,45,42,17,31,17,26,,20,16,20,8,5,8,0.9,0.5
2026-01-04T1100,2595A,99.1616,25.1381,保山市,市环保局,,33,33,17,23,14,26,,31,24,22,5,5,4,0.6,0.4
2026-01-04T1100,1867A,109.1435,21.4085,北海市,海滩公园,,38,38,38,15,21,91,,83,79,15,15,11,10,0.3,0.5
2026-01-04T1100,1868A,109.0983,21.466,北海市,新市环保局,,42,40,40,29,27,87,,83,77,19,18,7,6,0.6,0.7
2026-01-04T1100,1869A,109.1775,21.5232,北海市,北海工业园,颗粒物(PM10),55,60,50,34,32,64,,61,57,29,18,18,12,0.8,0.7
2026-01-04T1100,3400A,109.1844,21.4396,北海市,龙潭自来水厂,,37,37,40,24,28,88,,65,65,14,15,10,8,0.6,0.6
2026-01-04T1100,1001A,116.3611,39.8786,北京市,万寿西宫,,48,48,76,23,46,21,,10,10,39,64,2,4,0.6,0.7
2026-01-04T1100,1003A,116.4174,39.9289,北京市,东四,,45,45,70,24,39,19,,8,8,37,50,3,4,0.8,1
2026-01-04T1100,1004A,116.4073,39.8858,北京市,天坛,,40,40,65,21,41,20,,6,6,42,54,3,3,0.6,0.8
2026-01-04T1100,1005A,116.4622,39.9364,北京市,农展馆,颗粒物(PM10),51,52,67,26,39,13,,5,5,42,48,5,5,0.8,0.8
2026-01-04T1100,1006A,116.3399,39.9293,北京市,官园,,50,50,78,27,48,26,,6,6,31,57,5,6,0.6,0.8
2026-01-04T1100,1007A,116.2879,39.9613,北京市,海淀万柳,颗粒物(PM10),61,72,72,38,40,9,,2,2,51,60,5,4,1.0,0.9
2026-01-04T1100,1008A,116.6635,40.1349,北京市,顺义新城,颗粒物(PM10),53,55,62,25,33,20,,8,8,33,44,5,5,0.7,0.7
2026-01-04T1100,1009A,116.6275,40.327,北京市,怀柔镇,,37,37,40,20,23,28,,16,16,25,29,7,6,0.6,0.6
2026-01-04T1100,1010A,116.2295,40.217,北京市,昌平镇,颗粒物(PM10),66,82,56,47,29,5,,5,3,54,45,7,5,1.2,0.8
2026-01-04T1100,1011A,116.3968,39.982,北京市,奥体中心,,35,35,65,19,39,24,,7,7,38,65,4,6,0.7,0.9
2026-01-04T1100,3418A,116.8336,40.4095,北京市,密云新城,,17,15,42,8,23,52,,34,34,12,29,3,3,0.4,0.6
2026-01-04T1100,3671A,116.0879,39.9725,北京市,门头沟三家店,颗粒物(PM10),52,53,68,26,33,22,,8,8,24,41,3,4,0.6,0.7
2026-01-04T1100,3672A,116.1507,39.8246,北京市,丰台云岗,,,,84,43,46,10,,6,6,60,57,4,4,0.9,0.7
2026-01-04T1100,3674A,115.9578,39.7602,北京市,房山燕山,颗粒物(PM10),56,61,72,33,42,18,,9,8,30,36,4,5,0.5,0.6
2026-01-04T1100,3675A,116.4669,39.7734,北京市,大兴旧宫,细颗粒物(PM2.5),108,140,80,81,39,13,,3,3,65,54,11,4,1.6,0.9
2026-01-04T1100,3694A,115.9859,40.4562,北京市,延庆石河营,,,92,58,59,36,15,,5,5,44,35,,4,1.2,1.1
2026-01-04T1100,3695A,116.6151,40.3052,北京市,怀柔新城,,30,30,39,19,24,31,,20,20,18,23,4,4,0.3,0.4
2026-01-04T1100,3696A,116.2542,39.8764,北京市,丰台小屯,颗粒物(PM10),69,87,97,43,50,9,,3,3,57,68,5,5,1.1,1
2026-01-04T1100,3697A,116.8399,40.3843,北京市,密云镇,,17,15,49,7,29,53,,12,12,9,38,1,2,0.4,0.6
2026-01-04T1100,4057A,115.9423,40.4431,北京市,延庆百泉,细颗粒物(PM2.5),82,73,56,60,38,6,,1,1,45,37,4,3,1.3,0.9
2026-01-04T1100,4058A,116.6598,39.9164,北京市,通州新华,细颗粒物(PM2.5),108,134,89,81,46,9,,2,2,71,64,9,4,1.4,0.8
2026-01-04T1100,4182A,116.1942,39.9158,北京市,石景山八角,颗粒物(PM10),64,77,84,41,45,10,,5,5,61,60,3,4,0.8,0.7
2026-01-04T1100,4194A,117.078628,40.151726,北京市,平谷新城,细颗粒物(PM2.5),67,77,84,48,58,8,,5,5,50,48,2,3,1.0,0.9
2026-01-04T1100,1761A,123.8274146,41.31234549,本溪市,大峪,细颗粒物(PM2.5),119,137,92,90,55,22,,8,8,39,43,20,16,2.5,2.3
2026-01-04T1100,1763A,123.7169,41.3094,本溪市,彩屯,细颗粒物(PM2.5),234,221,124,184,91,15,,4,4,56,50,37,14,5.3,3
2026-01-04T1100,1764A,123.7672166,41.28649327,本溪市,东明,细颗粒物(PM2.5),133,136,102,101,67,14,,6,6,51,50,19,16,4.0,3.1
2026-01-04T1100,1765A,123.799345,41.266614,本溪市,新立屯,"颗粒物(PM10),细颗粒物(PM2.5)",99,147,64,74,44,23,,8,8,45,47,28,17,4.6,3
2026-01-04T1100,1766A,123.829144,41.336777,本溪市,威宁,细颗粒物(PM2.5),109,166,114,82,69,24,,10,10,37,48,13,11,2.1,2
2026-01-04T1100,2587A,105.287,27.3133,毕节市,八中,,11,11,13,7,9,28,,33,30,11,12,9,9,0.9,0.8
2026-01-04T1100,2588A,105.3079,27.2987,毕节市,师专,,11,11,10,6,7,29,,33,30,11,11,7,7,0.9,0.8
2026-01-04T1100,4263A,105.3688,27.3598,毕节市,工业大道,,12,9,11,8,10,27,,27,26,8,8,10,9,/,/
2026-01-04T1100,1629A,117.9961,37.3604,滨州市,第二水厂,细颗粒物(PM2.5),188,215,167,141,108,16,,4,4,86,59,20,15,1.7,1.2
2026-01-04T1100,1630A,117.9789,37.3931,滨州市,北中新校,细颗粒物(PM2.5),188,180,162,141,128,24,,8,8,68,54,21,11,1.7,1.2
2026-01-04T1100,3514A,117.9379,37.3959,滨州市,中海酒店,细颗粒物(PM2.5),201,178,156,151,133,37,,19,19,57,54,25,11,1.3,1.4
2026-01-04T1100,3515A,117.9381509,37.35547456,滨州市,开发区一中,细颗粒物(PM2.5),228,207,159,178,135,24,,6,6,70,47,34,17,1.7,1.1
2026-01-04T1100,3516A,118.0914,37.6938,滨州市,金海六路,细颗粒物(PM2.5),221,217,183,171,144,31,,8,8,72,66,31,17,1.8,1.5
2026-01-04T1100,4028A,117.9955,37.3752,滨州市,滨州市西街道办事处,细颗粒物(PM2.5),218,202,173,168,144,26,,6,6,66,52,22,14,2.0,1.5
2026-01-04T1100,2311A,115.8071,33.8399,亳州市,污水处理厂,细颗粒物(PM2.5),83,77,71,61,59,40,,24,16,32,34,5,5,0.6,0.5
2026-01-04T1100,2312A,115.7789,33.8519,亳州市,三国揽胜宫,细颗粒物(PM2.5),75,95,75,55,52,40,,32,25,18,23,3,3,0.6,0.5
2026-01-04T1100,3332A,115.7631,33.803,亳州市,亳州学院,细颗粒物(PM2.5),83,70,67,61,56,44,,41,32,20,23,3,3,0.5,0.4
2026-01-04T1100,2693A,82.0482,44.8553,博尔塔拉蒙古自治州,市党校,颗粒物(PM10),83,116,94,59,49,22,,35,26,30,25,2,3,1.2,1.1
2026-01-04T1100,2694A,82.0805,44.8966,博尔塔拉蒙古自治州,市环保局,颗粒物(PM10),87,124,106,57,49,24,,24,18,37,33,8,9,1.0,1
2026-01-04T1100,1071A,116.8733,38.2922,沧州市,沧县城建局,细颗粒物(PM2.5),228,196,177,178,163,20,,9,9,56,59,10,5,1.4,1.4
2026-01-04T1100,1072A,116.8462,38.3189,沧州市,电视转播站,细颗粒物(PM2.5),221,199,172,171,151,14,,4,2,47,51,10,9,1.2,1.1
2026-01-04T1100,1073A,116.8588,38.3161,沧州市,市环保局,细颗粒物(PM2.5),227,219,171,177,154,14,,8,7,48,48,9,7,1.2,1.1
2026-01-04T1100,3324A,116.8011,38.294,沧州市,河北水利电力学院,细颗粒物(PM2.5),209,222,185,159,134,12,,6,6,57,57,14,11,1.6,1.2
2026-01-04T1100,2622A,97.1813,31.1289,昌都市,昌都监测站,,32,32,29,18,10,53,,60,58,11,9,1,2,0.4,0.3
2026-01-04T1100,3719A,97.1707,31.1428,昌都市,昌都会议中心,,19,19,12,9,7,53,,62,56,2,2,3,2,0.5,0.4
2026-01-04T1100,2692A,87.2722,44.0298,昌吉回族自治州,新区政务中心,细颗粒物(PM2.5),72,92,117,52,75,3,,5,5,64,55,8,7,2.0,1.3
2026-01-04T1100,3613A,87.3069,44.0093,昌吉回族自治州,亚心广场,细颗粒物(PM2.5),94,112,138,70,88,6,,8,8,61,52,9,7,2.3,1.5
2026-01-04T1100,4164A,87.2057,43.9289,昌吉回族自治州,财政所,细颗粒物(PM2.5),74,75,79,54,49,36,,60,54,30,20,4,5,0.9,0.6
2026-01-04T1100,1120A,125.2874,43.9024,长春市,客车厂,细颗粒物(PM2.5),178,,101,134,107,41,,18,18,40,54,12,16,1.2,1.1
2026-01-04T1100,1121A,125.2943,43.8508,长春市,邮电学院,细颗粒物(PM2.5),134,124,117,102,91,33,,14,14,41,50,17,16,1.1,1.2
2026-01-04T1100,1122A,125.3648,43.8745,长春市,劳动公园,细颗粒物(PM2.5),120,119,117,91,86,33,,12,12,40,54,10,9,1.2,1.4
2026-01-04T1100,1123A,125.3233,43.8781,长春市,园林处,细颗粒物(PM2.5),135,110,103,103,86,32,,,,38,46,15,12,1.1,1
2026-01-04T1100,1124A,125.4604,43.7904,长春市,净月潭,细颗粒物(PM2.5),128,124,114,97,81,25,,23,23,47,38,11,9,1.3,1.2
2026-01-04T1100,1126A,125.38,43.8422,长春市,经开区环卫处,细颗粒物(PM2.5),119,126,132,90,91,24,,8,8,53,56,18,9,1.2,1.3
2026-01-04T1100,1127A,125.234,43.7761,长春市,高新区管委会,细颗粒物(PM2.5),145,131,132,111,121,36,,12,12,38,52,14,10,1.3,1.6
2026-01-04T1100,1128A,125.1695,43.83,长春市,岱山公园,细颗粒物(PM2.5),183,140,112,138,102,38,,15,15,36,52,13,12,1.2,1.3
2026-01-04T1100,4281A,125.334645,43.916281,长春市,北亚泰大街1068号,细颗粒物(PM2.5),158,126,100,120,90,28,,13,13,49,53,30,16,1.6,1.1
2026-01-04T1100,1335A,113.082,28.2421,长沙市,经开区环保局,,,,57,,48,,,30,,,24,,3,,0.5
2026-01-04T1100,1336A,112.8873,28.2202,长沙市,高开区环保局,细颗粒物(PM2.5),57,49,57,40,52,19,,12,12,18,22,4,4,0.7,0.7
2026-01-04T1100,1337A,113.0785,28.2012,长沙市,马坡岭,细颗粒物(PM2.5),57,45,52,40,45,15,,16,12,26,28,4,4,0.8,0.8
2026-01-04T1100,1338A,112.9448,28.1894,长沙市,湖南师范大学,,49,40,53,34,41,21,,18,18,24,27,4,4,0.6,0.6
2026-01-04T1100,1339A,113.0177,28.1322,长沙市,雨花区环保局,,,,50,,41,,,44,,,24,,7,,0.5
2026-01-04T1100,1340A,112.9795,28.2593,长沙市,伍家岭,细颗粒物(PM2.5),54,55,59,38,44,16,,15,14,20,20,4,4,0.5,0.5
2026-01-04T1100,1341A,113.002,28.1944,长沙市,火车新站,颗粒物(PM10),59,67,59,36,46,20,,21,18,22,23,8,7,0.5,0.5
2026-01-04T1100,1342A,112.9846,28.1177,长沙市,天心区环保局,细颗粒物(PM2.5),54,50,50,38,42,15,,18,16,31,29,4,5,0.6,0.6
2026-01-04T1100,1343A,112.8906,28.1307,长沙市,湖南中医药大学,细颗粒物(PM2.5),54,41,54,38,46,21,,14,14,23,27,5,5,0.6,0.6
2026-01-04T1100,1727A,113.1146,36.1547,长治市,清华站,细颗粒物(PM2.5),110,,84,83,77,34,,33,33,26,49,18,19,1.2,1.1
2026-01-04T1100,1730A,113.0887,36.2126,长治市,审计局,细颗粒物(PM2.5),100,,78,75,75,38,,32,32,21,48,17,19,1.1,1
2026-01-04T1100,1731A,113.0845,36.1856,长治市,长治八中,细颗粒物(PM2.5),107,,101,80,87,36,,33,33,18,41,16,19,1.3,1.2
2026-01-04T1100,2845A,113.1561,36.1912,长治市,德盛苑,细颗粒物(PM2.5),107,,64,80,62,48,,33,33,18,33,20,15,1.1,1
2026-01-04T1100,3568A,113.0603,36.0464,长治市,向阳小学,细颗粒物(PM2.5),133,107,100,101,76,34,,41,40,32,46,15,22,1.4,1.2
2026-01-04T1100,3569A,112.8788,36.315,长治市,屯留一中,细颗粒物(PM2.5),112,111,77,84,75,48,,53,47,23,37,8,16,1.5,0.9
2026-01-04T1100,4189A,113.113092,36.199482,长治市,英华南巷50号,细颗粒物(PM2.5),110,,89,83,81,40,,39,39,23,44,14,15,1.5,1.1
2026-01-04T1100,4190A,113.23666,36.33435,长治市,学府街1号,细颗粒物(PM2.5),105,,78,79,75,46,,24,24,22,50,17,18,1.4,1.5
2026-01-04T1100,1854A,111.696,28.9725,常德市,市二中,细颗粒物(PM2.5),59,45,63,42,60,25,,29,29,18,20,4,4,0.7,0.6
2026-01-04T1100,3138A,111.7152,29.0288,常德市,武陵区永安,细颗粒物(PM2.5),55,48,69,39,56,31,,34,32,17,16,3,3,0.8,0.7
2026-01-04T1100,3139A,111.6891,28.9881,常德市,鼎城区玉霞,细颗粒物(PM2.5),55,43,62,39,59,29,,30,30,20,20,7,7,0.7,0.7
2026-01-04T1100,3140A,111.6651,29.0526,常德市,武陵区长庚,细颗粒物(PM2.5),65,50,67,47,61,26,,32,30,20,20,2,3,0.7,0.7
2026-01-04T1100,1196A,119.9524,31.7586,常州市,市监测站,细颗粒物(PM2.5),107,111,101,80,69,15,,5,5,82,66,9,5,1.6,1
2026-01-04T1100,1200A,119.9351,31.703,常州市,武进监测站,细颗粒物(PM2.5),100,93,87,75,67,22,,6,6,69,56,10,9,0.8,0.9
2026-01-04T1100,3002A,119.9701,31.813,常州市,行政中心,细颗粒物(PM2.5),87,98,83,64,60,29,,9,9,63,58,10,8,0.9,0.8
2026-01-04T1100,3003A,120.0434,31.7726,常州市,经开区,细颗粒物(PM2.5),104,112,111,78,68,20,,9,9,69,57,12,9,1.1,1.1
2026-01-04T1100,3010A,119.8919,31.7892,常州市,钟楼,细颗粒物(PM2.5),98,95,79,73,60,26,,10,10,64,55,11,9,1.1,0.8
2026-01-04T1100,3429A,119.8595,31.706,常州市,武进经发区,细颗粒物(PM2.5),100,104,86,75,68,24,,,,67,59,11,11,0.9,0.9
2026-01-04T1100,3430A,119.5812,31.7256,常州市,金坛城区,细颗粒物(PM2.5),114,103,87,86,72,18,,16,11,58,40,14,10,1.1,0.9
2026-01-04T1100,4089A,119.9551,31.863,常州市,崇义南街5-H号,细颗粒物(PM2.5),107,95,82,80,65,25,,5,5,67,64,9,7,1.1,0.8
2026-01-04T1100,2220A,120.4318,41.588,朝阳市,西梁,细颗粒物(PM2.5),145,225,139,111,84,10,,3,3,59,47,23,19,2.4,1.9
2026-01-04T1100,2221A,120.452,41.565,朝阳市,河畔小区,细颗粒物(PM2.5),137,140,90,104,69,19,,6,6,41,41,22,15,2.4,1.5
2026-01-04T1100,2222A,120.4176,41.5648,朝阳市,八里堡,细颗粒物(PM2.5),134,143,108,102,74,12,,6,6,54,47,30,19,2.7,1.9
2026-01-04T1100,3026A,116.6179,23.6608,潮州市,市政府,颗粒物(PM10),63,76,50,30,30,70,,48,45,21,15,10,8,0.5,0.4
2026-01-04T1100,4036A,116.646,23.676,潮州市,金山,颗粒物(PM10),54,58,45,24,32,75,,46,46,8,11,4,4,0.3,0.3
2026-01-04T1100,2473A,113.0116,25.8228,郴州市,市职中,细颗粒物(PM2.5),78,76,50,57,44,24,,8,8,14,16,9,4,0.6,0.5
2026-01-04T1100,2475A,113.0381,25.8074,郴州市,市审计局,细颗粒物(PM2.5),80,67,51,59,44,22,,12,10,18,18,8,4,/,/
2026-01-04T1100,2476A,113.0348,25.7757,郴州市,市环保局,细颗粒物(PM2.5),79,72,58,58,41,27,,9,9,26,24,11,4,0.7,0.6
2026-01-04T1100,4252A,113.0138,25.8011,郴州市,好美居路49号,细颗粒物(PM2.5),83,63,52,61,47,27,,12,12,17,19,12,5,/,/
2026-01-04T1100,1431A,103.9727,30.7242,成都市,金泉两河,,49,49,23,3,8,20,,6,6,34,30,2,2,0.8,0.7
2026-01-04T1100,1432A,104.1423,30.6765,成都市,十里店,,31,31,18,6,10,20,,10,10,34,29,4,3,0.8,0.6
2026-01-04T1100,1433A,104.0594,30.5765,成都市,三瓦窑,,36,36,23,20,14,24,,7,7,33,31,4,3,0.9,0.7
2026-01-04T1100,1434A,104.1122,30.6306,成都市,沙河铺,,42,42,26,23,17,8,,8,6,42,31,5,4,0.8,0.6
2026-01-04T1100,2880A,104.0219,30.6561,成都市,大石西路,,44,44,28,16,19,19,,9,9,34,29,5,4,0.8,0.6
2026-01-04T1100,3136A,104.2724,30.559,成都市,龙泉驿区区政府,,20,,11,14,10,18,,6,6,18,21,6,6,0.8,0.7
2026-01-04T1100,3357A,104.0028,30.6891,成都市,金博路,,19,19,14,12,9,20,,9,9,37,31,5,4,1.0,0.8
2026-01-04T1100,3359A,104.056,30.5228,成都市,华阳,,39,34,18,27,14,22,,9,9,31,31,4,3,0.7,0.6
2026-01-04T1100,3488A,104.387954,30.746684,成都市,青石路225号,,29,20,22,20,16,21,,4,4,24,24,6,6,0.7,0.7
2026-01-04T1100,3489A,104.0788,30.4054,成都市,科学城,,33,27,16,23,14,24,,7,7,15,22,6,5,0.9,0.8
2026-01-04T1100,4011A,103.8505,30.6946,成都市,光华大道三段,,,,17,,7,,,27,,,24,,2,,0.7
2026-01-04T1100,4144A,104.3257,30.6406,成都市,八角井街185号,,30,,27,21,15,29,,8,8,22,24,3,4,1.1,1
2026-01-04T1100,4224A,104.2433276,30.53529463,成都市,鲸龙路1057号,,33,28,21,23,15,24,,8,8,24,26,6,5,0.6,0.4
2026-01-04T1100,1062A,117.9531,40.908,承德市,铁路,颗粒物(PM10),64,78,70,36,39,14,,5,5,36,39,8,11,1.1,1.3
2026-01-04T1100,1063A,117.9397,40.9763,承德市,中国银行,颗粒物(PM10),57,64,75,39,38,21,,8,8,23,32,5,6,0.9,1.1
2026-01-04T1100,4073A,117.9462,40.95,承德市,杏林街1号,颗粒物(PM10),61,72,67,38,42,19,,6,6,30,38,6,10,1.1,1.3
2026-01-04T1100,4274A,117.7994,40.9605,承德市,滨河大街98号,颗粒物(PM10),72,93,77,26,32,13,,6,6,44,41,12,24,2.0,1.4
2026-01-04T1100,2314A,117.4698,30.6617,池州市,池州学院,细颗粒物(PM2.5),119,101,81,90,68,14,,38,26,53,31,7,6,1.0,0.7
2026-01-04T1100,3237A,117.4918,30.6617,池州市,展览馆,细颗粒物(PM2.5),100,98,72,75,56,17,,34,24,49,35,5,4,1.2,1
2026-01-04T1100,3333A,117.5626,30.695,池州市,第八中学,细颗粒物(PM2.5),105,97,76,79,62,8,,35,27,56,36,5,4,1.1,0.9
2026-01-04T1100,3334A,117.5037,30.6242,池州市,第十二中学,细颗粒物(PM2.5),92,81,74,68,58,14,,17,17,50,41,3,4,1.2,1.1
2026-01-04T1100,1744A,118.9229,42.2816,赤峰市,松山一中,细颗粒物(PM2.5),73,94,96,53,55,22,,8,8,43,55,22,31,1.4,1.9
2026-01-04T1100,1745A,118.9588,42.2733,赤峰市,哈达街,颗粒物(PM10),58,66,90,34,53,30,,20,20,34,46,14,31,1.1,1.6
2026-01-04T1100,1746A,118.8792,42.2551,赤峰市,天义路,细颗粒物(PM2.5),63,51,74,45,65,42,,19,19,26,48,15,22,0.7,1.5
2026-01-04T1100,3058A,119.2656,42.0356,赤峰市,银河街,细颗粒物(PM2.5),216,248,152,166,100,27,,9,9,38,43,39,30,2.3,3.1
2026-01-04T1100,3286A,118.9359,42.3146,赤峰市,桥北物流园区,细颗粒物(PM2.5),63,64,71,45,58,25,,12,12,40,44,18,23,1.0,1.4
2026-01-04T1100,2521A,107.3473,22.4137,崇左市,市环保局江州分局,细颗粒物(PM2.5),69,64,53,50,35,26,,25,23,20,18,8,8,0.7,0.7
2026-01-04T1100,4256A,107.375,22.3736,崇左市,石景林东路7号,细颗粒物(PM2.5),84,64,43,62,37,29,,26,23,22,21,8,8,0.7,0.6
2026-01-04T1100,3207A,118.31131,32.3033,滁州市,市政府原办公楼,细颗粒物(PM2.5),105,96,74,79,56,37,,14,14,49,51,9,6,0.8,0.9
2026-01-04T1100,3331A,118.3268,32.2633,滁州市,图书馆,细颗粒物(PM2.5),100,90,67,75,61,28,,13,13,49,51,12,10,0.8,0.9
2026-01-04T1100,4101A,118.3196,32.3335,滁州市,银山路666号,细颗粒物(PM2.5),128,98,70,97,69,29,,8,8,46,44,11,9,1.0,1.1
2026-01-04T1100,4102A,118.3426,32.2979,滁州市,黄山路555号,细颗粒物(PM2.5),130,116,84,99,69,28,,12,12,53,52,14,12,0.9,1
2026-01-04T1100,2606A,101.5379,25.0492,楚雄彝族自治州,市经济开发区,,38,27,21,26,16,21,,11,11,10,17,4,4,0.6,0.6
2026-01-04T1100,4153A,101.5536,25.0343,楚雄彝族自治州,团结路562号,,23,16,16,16,14,22,,13,13,12,11,1,2,0.6,0.5
2026-01-04T1100,2549A,107.5087,31.2186,达州市,市环境监测站,细颗粒物(PM2.5),73,75,56,53,42,16,,5,5,31,30,5,5,0.5,0.5
2026-01-04T1100,2550A,107.4988,31.2132,达州市,凤凰小区,细颗粒物(PM2.5),83,83,62,61,47,16,,9,9,25,26,4,4,0.5,0.5
2026-01-04T1100,2551A,107.5081,31.1987,达州市,达县机关宾馆,细颗粒物(PM2.5),88,80,65,65,47,9,,5,5,34,32,2,2,0.7,0.6
2026-01-04T1100,2552A,107.4644,31.2124,达州市,市政中心,颗粒物(PM10),65,79,66,46,44,14,,12,10,30,28,6,5,0.4,0.4
2026-01-04T1100,2614A,100.2168,25.5818,大理白族自治州,大理市环境监测站,,20,19,14,14,14,51,,57,53,11,9,6,6,0.6,0.5
2026-01-04T1100,2615A,100.1542,25.7055,大理白族自治州,大理古城,,22,22,16,9,11,67,,71,60,8,9,8,8,0.6,0.6
2026-01-04T1100,1109A,121.6119,38.974,大连市,甘井子,,40,40,48,28,28,41,,61,46,42,28,14,11,0.3,0.3
2026-01-04T1100,1110A,121.565,38.9509,大连市,周水子,,43,43,53,28,36,33,,26,22,52,50,13,12,0.7,0.7
2026-01-04T1100,1111A,121.5637,38.8849,大连市,星海三站,,38,32,41,26,28,33,,43,37,39,26,14,11,0.8,0.8
2026-01-04T1100,1112A,121.6301,38.9117,大连市,青泥洼桥,,39,39,42,23,35,33,,25,24,49,46,11,10,0.5,0.7
2026-01-04T1100,1113A,121.6248,38.8643,大连市,傅家庄,,29,27,40,20,25,46,,49,48,27,30,9,11,0.1,0.3
2026-01-04T1100,1114A,121.5117,38.8636,大连市,七贤岭,,26,26,39,17,21,53,,59,55,27,18,12,9,0.6,0.7
2026-01-04T1100,1116A,121.7507,39.1339,大连市,金州,,29,28,41,20,28,63,,78,72,22,21,14,10,0.4,0.4
2026-01-04T1100,1117A,121.7811,39.0495,大连市,开发区,,47,47,71,26,44,40,,14,14,35,51,9,8,0.7,1
2026-01-04T1100,1118A,121.9762,39.0631,大连市,双D港,,26,24,36,18,25,73,,76,75,14,17,14,14,0.5,0.7
2026-01-04T1100,4082A,121.2548,38.8188,大连市,旅顺,细颗粒物(PM2.5),68,63,65,49,52,44,,32,28,27,22,11,11,0.8,0.9
2026-01-04T1100,1789A,124.8085,46.0381,大庆市,大同区,,33,33,42,20,27,54,,51,51,11,22,6,6,0.3,0.4
2026-01-04T1100,1790A,125.1166,46.5255,大庆市,龙凤区,,31,31,35,18,22,51,,46,45,24,30,10,12,2.3,0.9
2026-01-04T1100,1791A,124.8894,46.4007,大庆市,红岗区,,18,18,29,10,19,52,,43,43,15,21,8,7,0.5,0.5
2026-01-04T1100,1792A,125.1391,46.578,大庆市,萨尔图区,,27,27,36,16,21,48,,44,41,20,25,8,9,0.4,0.4
2026-01-04T1100,1793A,124.9026,46.6217,大庆市,让胡路区,,30,25,31,21,28,59,,56,53,9,14,9,8,0.4,0.5
2026-01-04T1100,3481A,125.127,46.6277,大庆市,萨区政府监测点,,30,30,32,14,16,54,,43,43,17,26,10,9,0.6,0.7
2026-01-04T1100,1723A,113.2926,40.0759,大同市,云冈宾馆,,,,99,15,49,42,,23,23,23,55,7,18,0.9,2.1
2026-01-04T1100,1724A,113.3437,40.0921,大同市,大同大学,,38,38,66,6,35,50,,37,37,16,50,8,16,0.5,1.4
2026-01-04T1100,1725A,113.2637,40.129,大同市,安家小村,,45,45,96,8,44,61,,25,25,10,52,9,21,0.3,1.8
2026-01-04T1100,3282A,113.3399,40.0586,大同市,大同市卫生学校,,37,37,85,12,44,47,,34,34,21,55,8,17,1.1,1.5
2026-01-04T1100,3565A,113.1371,40.1122,大同市,云冈站,颗粒物(PM10),51,51,78,12,37,53,,21,21,9,47,6,19,0.6,1.2
2026-01-04T1100,3566A,113.1186,40.2556,大同市,图书馆,颗粒物(PM10),55,59,103,18,67,55,,22,22,12,45,8,19,0.7,2
2026-01-04T1100,3567A,113.5931,40.0459,大同市,区一中,细颗粒物(PM2.5),144,195,100,110,53,31,,17,17,53,51,33,33,2.4,1.5
2026-01-04T1100,4199A,113.2798248,40.09972476,大同市,魏都大道141号,颗粒物(PM10),60,70,121,7,49,43,,23,23,24,52,5,17,0.6,2.2
2026-01-04T1100,2269A,124.1068,50.4091,大兴安岭地区,科技局,,19,17,16,12,13,59,,59,57,2,2,5,5,0.3,0.3
2026-01-04T1100,3663A,124.117,50.4279,大兴安岭地区,红旗社区,,21,7,6,3,5,66,,65,63,2,3,5,5,0.2,0.2
2026-01-04T1100,1600A,124.33,40.0625,丹东市,江湾东路,,,75,89,57,72,37,,17,17,,39,27,22,,2.2
2026-01-04T1100,1601A,124.4242,40.1513,丹东市,临江后街,细颗粒物(PM2.5),67,74,79,48,55,37,,14,14,27,39,14,16,1.4,1.6
2026-01-04T1100,1602A,124.3935,40.1461,丹东市,元宝山,细颗粒物(PM2.5),62,56,65,44,54,37,,13,13,30,36,17,14,1.2,1.3
2026-01-04T1100,1603A,124.3634,40.1093,丹东市,民主桥,颗粒物(PM10),55,59,78,32,55,41,,15,15,28,39,14,13,1.0,1.2
2026-01-04T1100,3541A,109.5726195,19.51688767,儋州市,第一中学子站,,35,35,37,20,20,74,,67,67,3,5,4,4,0.4,0.5
2026-01-04T1100,3542A,109.5567,19.5187,儋州市,东坡学校子站,,38,38,37,17,18,81,,69,69,2,5,4,4,0.4,0.5
2026-01-04T1100,2616A,98.5611,24.4273,德宏傣族景颇族自治州,德宏州监测站,细颗粒物(PM2.5),67,58,37,48,30,8,,5,3,19,17,6,6,0.8,0.7
2026-01-04T1100,3677A,98.5887,24.4366,德宏傣族景颇族自治州,芒市人民政府综合楼,,47,47,37,32,25,9,,8,4,19,14,9,8,0.8,0.7
2026-01-04T1100,1901A,104.424,31.1209,德阳市,东山公园,,29,25,17,20,15,17,,9,9,22,17,3,2,0.9,0.8
2026-01-04T1100,1902A,104.3827,31.1318,德阳市,西小区,,50,50,35,22,19,20,,12,10,31,25,2,2,1.0,0.9
2026-01-04T1100,1904A,104.3553,31.1091,德阳市,耐火材料厂,,42,40,26,29,20,17,,5,5,30,29,2,1,0.9,0.8
2026-01-04T1100,4145A,104.4144,31.1495,德阳市,市林业局,,49,,26,34,17,18,,8,5,24,19,3,2,0.9,0.7
2026-01-04T1100,1622A,116.3034,37.4675,德州市,儿童乐园,细颗粒物(PM2.5),140,136,154,107,120,30,,22,22,46,45,18,16,1.5,1.4
2026-01-04T1100,1624A,116.2992,37.4449,德州市,监理站,细颗粒物(PM2.5),149,153,151,114,122,35,,30,30,51,49,20,17,1.1,1.1
2026-01-04T1100,3066A,116.2722,37.438,德州市,九衢泉纯净水厂,细颗粒物(PM2.5),156,153,157,119,129,21,,12,12,52,51,21,24,1.0,1
2026-01-04T1100,3371A,116.3693,37.44,德州市,开发区人民医院,细颗粒物(PM2.5),132,149,157,100,115,30,,20,20,59,64,20,16,0.9,0.9
2026-01-04T1100,3511A,116.5687,37.3331,德州市,陵城艺术中心,细颗粒物(PM2.5),163,173,164,124,133,13,,16,11,80,63,36,20,1.3,1.3
2026-01-04T1100,4292A,116.352738,37.420875,德州市,新河东路,细颗粒物(PM2.5),147,139,157,112,132,20,,8,8,62,68,18,15,1.2,1.4
2026-01-04T1100,2621A,99.7054,27.8319,迪庆藏族自治州,迪庆州站,颗粒物(PM10),57,63,22,36,14,67,,63,58,20,8,6,5,0.8,0.4
2026-01-04T1100,3180A,99.7122,27.8129,迪庆藏族自治州,质量技术监督局,,49,42,20,34,16,72,,71,63,16,9,6,6,0.6,0.5
2026-01-04T1100,4257A,104.6092,35.5962,定西市,将台街,,,,74,,57,35,,21,21,,28,14,9,1.1,0.6
2026-01-04T1100,4309A,104.6159,35.5701,定西市,正龙路62号,细颗粒物(PM2.5),78,78,74,57,61,42,,37,35,13,14,9,5,1.0,0.8
2026-01-04T1100,1390A,113.7943,23.0132,东莞市,东城石井,细颗粒物(PM2.5),58,62,53,41,32,73,,22,22,41,37,12,9,0.8,0.8
2026-01-04T1100,1391A,113.7384,22.9659,东莞市,南城西平,"颗粒物(PM10),细颗粒物(PM2.5)",62,73,61,44,36,72,,15,15,47,58,11,10,0.7,0.7
2026-01-04T1100,3319A,113.7283,23.041,东莞市,万江金泰,颗粒物(PM10),59,68,59,37,34,57,,29,29,43,36,9,6,0.8,0.8
2026-01-04T1100,4129A,113.8666,23.1062,东莞市,裕兴路,颗粒物(PM10),61,71,62,36,35,76,,34,34,30,36,10,10,0.7,0.7
2026-01-04T1100,4130A,114.0076,22.9739,东莞市,教育路1号,细颗粒物(PM2.5),70,82,72,51,39,73,,20,20,40,52,8,6,0.9,0.9
2026-01-04T1100,4131A,113.7981,22.8124,东莞市,长怡路1号,颗粒物(PM10),65,79,68,44,34,71,,28,28,45,48,10,9,0.7,0.7
2026-01-04T1100,1666A,118.6612,37.4313,东营市,市环保局,细颗粒物(PM2.5),175,171,152,132,119,38,,9,9,51,65,27,20,1.4,1.3
2026-01-04T1100,3036A,118.6903,37.4337,东营市,开发区管委会,细颗粒物(PM2.5),175,161,150,132,118,49,,12,12,42,69,29,22,1.3,1.3
2026-01-04T1100,3365A,118.5721,37.5654,东营市,垦利区民丰路,细颗粒物(PM2.5),195,168,152,146,119,24,,5,5,61,60,18,11,1.4,1.4
2026-01-04T1100,3498A,118.5063,37.8606,东营市,河口城区,细颗粒物(PM2.5),221,210,168,171,126,40,,13,13,49,49,9,6,1.3,1.2
2026-01-04T1100,3646A,118.4979,37.4623,东营市,胜利站,细颗粒物(PM2.5),178,190,168,134,129,37,,8,8,50,72,29,18,1.5,1.7
2026-01-04T1100,3734A,118.5753,37.4405,东营市,理想之城,细颗粒物(PM2.5),195,175,151,146,121,27,,5,5,59,71,24,12,1.4,1.4
2026-01-04T1100,1591A,110.0024,39.8127,鄂尔多斯市,综合楼,颗粒物(PM10),53,56,38,17,18,45,,45,43,26,30,18,11,1.2,0.6
2026-01-04T1100,1592A,109.9485,39.8259,鄂尔多斯市,巴音孟克林场办事处,颗粒物(PM10),62,73,43,24,16,39,,39,38,31,30,32,12,1.4,0.6
2026-01-04T1100,1593A,109.7734,39.5987,鄂尔多斯市,康泽苑,,44,44,31,17,16,58,,54,54,15,16,11,6,0.7,0.5
2026-01-04T1100,1594A,109.8121,39.5987,鄂尔多斯市,华泰汽车城,,46,46,36,17,16,57,,37,36,15,23,10,4,0.8,0.5
2026-01-04T1100,1595A,109.9734,39.7884,鄂尔多斯市,奥林花园,颗粒物(PM10),63,75,44,17,12,43,,47,45,30,28,16,6,1.3,0.7
2026-01-04T1100,2436A,114.894,30.3989,鄂州市,市政府,,,49,47,36,42,33,,61,58,,22,5,6,,0.7
2026-01-04T1100,2437A,114.8986,30.3714,鄂州市,赵家坝,细颗粒物(PM2.5),63,,51,45,44,43,,55,48,13,17,6,8,0.5,0.4
2026-01-04T1100,3654A,114.8093,30.4091,鄂州市,精准医疗中心,细颗粒物(PM2.5),68,51,57,49,49,40,,58,49,23,17,4,4,1.0,0.8
2026-01-04T1100,2454A,109.4978,30.2979,恩施土家族苗族自治州,湖北民院,细颗粒物(PM2.5),62,,42,44,44,30,,24,24,14,12,6,6,0.7,0.7
2026-01-04T1100,3549A,109.5061,30.3771,恩施土家族苗族自治州,龙凤新区,细颗粒物(PM2.5),60,47,50,43,45,25,,14,14,15,10,6,7,0.5,0.5
2026-01-04T1100,2499A,108.3411,21.6159,防城港市,沙万,颗粒物(PM10),104,157,78,33,42,62,,40,40,26,28,9,8,0.6,0.8
2026-01-04T1100,2500A,108.3515,21.7733,防城港市,防城档案局,细颗粒物(PM2.5),65,73,75,47,48,50,,31,31,22,26,7,5,0.8,0.8
2026-01-04T1100,2501A,108.3506,21.6414,防城港市,大海花园,细颗粒物(PM2.5),68,57,59,49,39,67,,44,44,21,23,12,11,0.7,1.1
2026-01-04T1100,1371A,113.1293,23.0065,佛山市,湾梁,细颗粒物(PM2.5),92,114,68,68,41,22,,5,5,93,61,/,/,/,/
2026-01-04T1100,1372A,113.1082,23.0477,佛山市,华材职中,颗粒物(PM10),79,107,81,54,39,24,,9,9,88,62,8,6,0.8,0.7
2026-01-04T1100,1373A,113.1439,23.045,佛山市,南海气象局,颗粒物(PM10),87,124,72,62,38,14,,4,4,94,63,/,/,/,/
2026-01-04T1100,1374A,113.2879,22.8094,佛山市,顺德苏岗,颗粒物(PM10),63,76,60,41,38,61,,18,18,54,55,/,/,0.8,0.8
2026-01-04T1100,1376A,112.8384,22.8678,佛山市,高明孔堂,细颗粒物(PM2.5),94,118,60,70,41,32,,15,15,74,38,/,/,/,/
2026-01-04T1100,1377A,112.8835,23.1584,佛山市,三水监测站,细颗粒物(PM2.5),78,83,81,57,51,42,,12,12,42,54,16,11,0.8,0.7
2026-01-04T1100,1378A,112.8668,23.185,佛山市,三水云东海,细颗粒物(PM2.5),69,62,72,50,45,45,,10,10,40,39,/,/,/,/
2026-01-04T1100,3625A,113.2568,22.7629,佛山市,容桂街道办,细颗粒物(PM2.5),67,75,65,48,40,26,,26,16,62,49,/,/,/,/
2026-01-04T1100,1282A,119.2681,26.0506,福州市,师大,,42,42,33,16,20,55,,58,56,27,25,10,8,0.5,0.5
2026-01-04T1100,1283A,119.2983,26.1028,福州市,五四北路,颗粒物(PM10),54,58,29,17,15,58,,55,53,22,20,5,5,0.6,0.5
2026-01-04T1100,1284A,119.2648,26.0769,福州市,杨桥西路,,30,30,31,13,16,60,,60,58,17,16,7,5,/,/
2026-01-04T1100,3048A,119.5799,26.0937,福州市,九龙,,33,33,26,9,15,71,,68,66,15,16,5,6,0.5,0.5
2026-01-04T1100,3526A,119.5188,25.9666,福州市,吴航,,40,40,27,18,17,51,,54,45,30,21,7,6,0.7,0.6
2026-01-04T1100,4104A,119.3106,26.0648,福州市,路通桥巷6号,,,43,34,21,19,,,,,22,15,/,/,/,/
2026-01-04T1100,1755A,123.7974,41.8494,抚顺市,望花区,细颗粒物(PM2.5),155,153,148,118,108,23,,9,9,54,61,13,14,2.2,2.3
2026-01-04T1100,1756A,123.9161,41.8827,抚顺市,顺城区,细颗粒物(PM2.5),122,124,124,92,89,30,,11,11,46,59,10,14,1.9,2
2026-01-04T1100,1757A,124.0437,41.8615,抚顺市,东洲区,细颗粒物(PM2.5),108,,111,81,89,26,,10,10,35,56,11,19,1.6,2.1
2026-01-04T1100,1758A,123.9246,41.8638,抚顺市,新抚区,细颗粒物(PM2.5),144,138,128,110,93,26,,8,8,43,55,12,11,1.9,2
2026-01-04T1100,1759A,124.0972,41.8961,抚顺市,大伙房水库,细颗粒物(PM2.5),89,91,102,66,76,37,,13,13,26,50,19,17,1.5,1.9
2026-01-04T1100,1760A,123.708,41.8386,抚顺市,沈抚新城,细颗粒物(PM2.5),155,160,140,118,111,29,,14,14,52,61,23,14,3.2,2.2
2026-01-04T1100,2377A,116.3544,27.9833,抚州市,市站,细颗粒物(PM2.5),55,54,50,39,37,28,,42,35,23,15,13,10,0.5,0.5
2026-01-04T1100,2378A,116.3562,27.9631,抚州市,血防站,细颗粒物(PM2.5),59,57,55,42,37,26,,47,37,32,18,10,9,0.8,0.7
2026-01-04T1100,2379A,116.3561,28.0007,抚州市,采茶剧团,细颗粒物(PM2.5),59,54,53,42,36,28,,41,36,23,11,11,9,0.7,0.7
2026-01-04T1100,2380A,116.3854,27.9648,抚州市,医学分院,细颗粒物(PM2.5),55,55,53,39,34,37,,48,40,23,15,11,8,0.6,0.6
2026-01-04T1100,2207A,121.6095,41.9978,阜新市,工业园区,,36,36,110,13,61,60,,15,15,9,35,10,21,0.4,1.1
2026-01-04T1100,2208A,121.6567,42.0188,阜新市,长青街,,30,30,72,9,55,56,,16,16,13,35,9,12,0.3,1
2026-01-04T1100,2209A,121.6672,42.07,阜新市,农业园区,,28,28,54,9,35,64,,47,47,7,22,6,18,0.3,0.6
2026-01-04T1100,2211A,121.6343,42.0455,阜新市,玉龙新城,,23,23,98,3,57,61,,14,14,8,40,8,10,0.3,1
2026-01-04T1100,2301A,115.8276,32.8929,阜阳市,市监测站,细颗粒物(PM2.5),98,98,80,73,61,17,,22,15,48,38,5,4,0.8,0.7
2026-01-04T1100,2303A,115.8551,32.8606,阜阳市,开发区,细颗粒物(PM2.5),90,83,67,67,54,15,,15,14,46,35,5,5,0.6,0.5
2026-01-04T1100,2875A,115.783962,32.889217,阜阳市,阜阳职业技术学院,细颗粒物(PM2.5),84,80,63,62,49,30,,46,40,32,21,6,6,0.7,0.6
2026-01-04T1100,3468A,115.79,32.8614,阜阳市,市规划展馆,细颗粒物(PM2.5),90,92,65,67,52,32,,48,38,32,22,7,6,0.5,0.4
2026-01-04T1100,3469A,115.835101,32.918568,阜阳市,枣园社区,细颗粒物(PM2.5),90,95,75,67,61,19,,25,20,46,41,6,6,0.4,0.4
2026-01-04T1100,2669A,102.9097,34.9841,甘南藏族自治州,州政府,细颗粒物(PM2.5),87,75,64,64,53,33,,28,28,24,24,4,3,1.0,0.8
2026-01-04T1100,3380A,102.8915,34.9618,甘南藏族自治州,甘肃民族师范学院,细颗粒物(PM2.5),85,73,72,63,51,41,,34,34,28,27,17,4,0.7,0.6
2026-01-04T1100,2570A,101.96,30.048,甘孜藏族自治州,水桥子,,12,8,7,8,5,36,,45,41,19,12,6,6,0.8,0.6
2026-01-04T1100,3065A,101.9534,29.9976,甘孜藏族自治州,州环保局,,15,15,12,3,4,40,,45,43,16,11,5,6,0.6,0.6
2026-01-04T1100,2363A,114.9368,25.8663,赣州市,地委,,48,48,41,28,22,23,,15,11,34,22,8,8,0.9,0.7
2026-01-04T1100,2364A,114.946,25.8483,赣州市,气象台,颗粒物(PM10),54,57,49,23,18,36,,14,14,46,36,2,2,0.9,0.8
2026-01-04T1100,2365A,114.932,25.8332,赣州市,市图书馆,颗粒物(PM10),52,53,40,33,23,27,,15,12,44,31,4,4,0.8,0.6
2026-01-04T1100,2366A,114.8905,25.8472,赣州市,华坚鞋城,颗粒物(PM10),52,53,39,28,22,32,,20,12,39,26,8,5,0.5,0.4
2026-01-04T1100,3109A,115.0094,25.8614,赣州市,赣县区卫计委,"颗粒物(PM10),细颗粒物(PM2.5)",57,64,35,40,28,28,,11,11,35,24,8,8,0.5,0.4
2026-01-04T1100,2684A,106.2753,36.0057,固原市,监测站,,39,35,56,27,52,66,,56,46,24,24,6,4,0.7,0.8
2026-01-04T1100,2685A,106.2384,36.0189,固原市,新区,,27,,53,15,48,84,,68,64,9,16,3,2,0.6,0.8
2026-01-04T1100,2544A,106.6307,30.4577,广安市,市委,"颗粒物(PM10),细颗粒物(PM2.5)",53,55,49,37,36,26,,33,25,24,19,5,5,0.9,0.8
2026-01-04T1100,2545A,106.6266,30.4662,广安市,友谊中学,细颗粒物(PM2.5),59,45,42,42,37,35,,41,34,12,6,6,6,0.7,0.5
2026-01-04T1100,2547A,106.6386,30.4551,广安市,广电花园,细颗粒物(PM2.5),68,53,44,49,36,24,,30,23,19,17,8,8,0.7,0.6
2026-01-04T1100,2902A,106.6347,30.4868,广安市,北辰小学,细颗粒物(PM2.5),59,55,44,42,39,29,,35,28,20,11,16,14,1.0,0.9
2026-01-04T1100,2524A,105.8211,32.4444,广元市,老城,细颗粒物(PM2.5),58,61,42,41,33,73,,20,20,17,32,4,4,0.7,0.9
2026-01-04T1100,2526A,105.8629,32.429,广元市,监测站,颗粒物(PM10),56,62,45,39,30,55,,13,13,26,26,3,3,0.8,1.1
2026-01-04T1100,3617A,105.8047,32.4167,广元市,经开区,细颗粒物(PM2.5),58,54,40,41,35,63,,13,13,18,30,2,4,0.7,1
2026-01-04T1100,1345A,113.2346,23.1423,广州市,广雅中学,细颗粒物(PM2.5),80,103,67,59,39,26,,8,8,68,56,4,3,1.0,0.7
2026-01-04T1100,1346A,113.2611,23.105,广州市,市五中,颗粒物(PM10),60,70,59,42,36,69,,18,18,54,65,10,9,/,/
2026-01-04T1100,1348A,113.3477,23.0916,广州市,广东商学院,细颗粒物(PM2.5),67,72,57,48,38,49,,10,10,54,55,10,6,0.8,0.5
2026-01-04T1100,1349A,113.4332,23.105,广州市,市八十六中,细颗粒物(PM2.5),58,57,52,41,35,48,,11,11,54,59,10,9,/,/
2026-01-04T1100,1350A,113.3506,22.9488,广州市,番禺中学,颗粒物(PM10),70,89,74,49,44,62,,18,18,53,61,8,6,0.6,0.6
2026-01-04T1100,1351A,113.2147,23.3918,广州市,花都师范,细颗粒物(PM2.5),68,82,58,49,34,54,,12,12,53,54,8,7,0.6,0.6
2026-01-04T1100,1352A,113.2599,23.1329,广州市,市监测站,细颗粒物(PM2.5),67,76,62,48,40,59,,12,12,47,61,4,2,/,/
2026-01-04T1100,1353A,113.5618,23.3119,广州市,九龙镇镇龙,,49,49,53,27,31,67,,18,18,19,34,7,5,0.4,0.5
2026-01-04T1100,1354A,113.2764,23.1544,广州市,麓湖,颗粒物(PM10),52,54,47,35,32,76,,17,17,30,52,10,8,0.4,0.4
2026-01-04T1100,2846A,113.3209,23.1323,广州市,体育西,颗粒物(PM10),60,70,58,42,37,64,,17,17,48,55,11,6,1.1,0.7
2026-01-04T1100,3298A,113.5718,23.5493,广州市,从化街口,细颗粒物(PM2.5),52,51,48,36,33,45,,12,12,23,32,9,8,0.7,0.7
2026-01-04T1100,3299A,113.3463,23.369,广州市,白云竹料,颗粒物(PM10),55,60,63,37,39,59,,15,15,31,39,5,4,0.5,0.6
2026-01-04T1100,3300A,113.2981,23.2365,广州市,白云嘉禾,颗粒物(PM10),67,84,58,42,32,48,,13,13,53,52,7,4,/,/
2026-01-04T1100,3301A,113.4256,23.1716,广州市,黄埔科学城,颗粒物(PM10),51,52,45,32,29,86,,28,28,26,33,7,6,0.6,0.6
2026-01-04T1100,3302A,113.3942,23.0485,广州市,番禺大学城,"颗粒物(PM10),细颗粒物(PM2.5)",60,70,58,43,35,72,,20,20,43,51,13,9,0.6,0.6
2026-01-04T1100,3303A,113.4923,22.8169,广州市,南沙黄阁,细颗粒物(PM2.5),60,62,62,43,35,64,,47,43,64,46,10,8,/,/
2026-01-04T1100,3304A,113.534,22.7893,广州市,南沙街,颗粒物(PM10),57,64,56,37,32,66,,60,58,56,35,8,7,0.7,0.6
2026-01-04T1100,3443A,113.2905,23.5541,广州市,花都梯面,颗粒物(PM10),55,60,31,34,20,72,,14,14,17,27,12,6,/,/
2026-01-04T1100,3445A,113.786,23.7479,广州市,从化良口,,22,19,19,15,15,46,,26,22,9,12,7,7,/,/
2026-01-04T1100,3446A,113.805,23.2614,广州市,增城荔城,,36,33,32,25,22,68,,36,36,14,19,8,8,0.5,0.5
2026-01-04T1100,2506A,109.604387,23.066791,贵港市,江南子站,,,73,72,49,47,39,,34,34,,31,14,10,0.9,0.9
2026-01-04T1100,2508A,109.5669,23.1065,贵港市,荷城子站,颗粒物(PM10),60,70,57,41,37,45,,42,39,27,23,10,8,0.7,0.7
2026-01-04T1100,3405A,109.5886,23.1172,贵港市,新世纪学校,颗粒物(PM10),59,68,63,40,39,49,,36,36,27,26,/,/,0.5,0.5
2026-01-04T1100,4260A,109.5933,23.095,贵港市,中山路155-3号,细颗粒物(PM2.5),64,58,55,46,42,51,,39,37,26,28,/,/,0.8,0.8
2026-01-04T1100,1439A,106.6863,26.6035,贵阳市,马鞍山,,20,14,14,14,12,16,,12,12,16,17,6,4,/,/
2026-01-04T1100,1441A,106.6241,26.6266,贵阳市,鉴湖路,,22,22,17,12,7,30,,23,23,20,20,3,3,0.6,0.6
2026-01-04T1100,1442A,106.7468,26.6344,贵阳市,燕子冲,,45,,18,31,20,11,,12,10,20,17,12,7,1.0,0.8
2026-01-04T1100,1443A,106.6556,26.4362,贵阳市,碧云窝,,39,39,20,27,8,9,,14,11,22,16,7,4,/,/
2026-01-04T1100,1445A,106.6963,26.6063,贵阳市,红边门,,34,34,17,22,12,14,,14,13,19,19,11,8,/,/
2026-01-04T1100,1446A,106.7162383,26.56964667,贵阳市,新华路,,32,29,22,22,10,20,,17,16,17,18,9,6,0.7,0.6
2026-01-04T1100,1447A,106.6742,26.542,贵阳市,太慈桥,,31,31,15,17,8,22,,21,20,23,20,4,4,/,/
2026-01-04T1100,4230A,106.688212,26.56952,贵阳市,花果园大街66号,,28,,9,19,13,21,,16,16,19,19,4,2,/,/
2026-01-04T1100,4231A,106.687268,26.516892,贵阳市,漓江路57号,,29,29,17,19,10,13,,9,9,24,20,9,8,0.8,0.8
2026-01-04T1100,1864A,110.3091,25.2705,桂林市,龙隐路小学,细颗粒物(PM2.5),84,,48,62,58,22,,29,26,21,15,6,6,0.5,0.4
2026-01-04T1100,1865A,110.2849361,25.22909545,桂林市,八中,细颗粒物(PM2.5),79,,49,58,53,20,,26,23,26,20,7,7,0.6,0.6
2026-01-04T1100,3531A,110.296,25.1254,桂林市,旅游学院,细颗粒物(PM2.5),58,48,42,41,38,30,,30,28,15,16,4,4,0.6,0.6
2026-01-04T1100,4222A,110.1835,25.2444,桂林市,环湖路276号,细颗粒物(PM2.5),79,80,53,58,45,20,,29,25,25,19,7,6,0.6,0.5
2026-01-04T1100,4301A,110.2803,25.2773,桂林市,信义路13号,细颗粒物(PM2.5),75,60,49,55,46,20,,31,26,28,21,5,4,0.7,0.6
2026-01-04T1100,2674A,100.2262,34.4854,果洛藏族自治州,玛沁县大武镇,,32,32,40,3,10,38,,44,34,5,3,17,15,0.5,0.4
2026-01-04T1100,1130A,126.5557,45.8109,哈尔滨市,松北商大,细颗粒物(PM2.5),55,46,70,39,55,41,,23,23,26,34,36,9,0.7,0.8
2026-01-04T1100,1132A,126.6162,45.719,哈尔滨市,南岗学府路,细颗粒物(PM2.5),67,56,85,48,61,35,,18,18,28,35,19,12,0.8,1
2026-01-04T1100,1133A,126.6894,45.7733,哈尔滨市,太平宏伟公园,,39,34,69,27,53,45,,33,33,24,36,29,26,0.5,0.7
2026-01-04T1100,1134A,126.6361,45.7672,哈尔滨市,道外承德广场,颗粒物(PM10),51,52,90,34,55,44,,31,31,25,38,24,12,0.1,0.3
2026-01-04T1100,1136A,126.644,45.7261,哈尔滨市,动力和平路,细颗粒物(PM2.5),57,48,79,40,55,33,,24,24,35,37,33,17,0.8,0.9
2026-01-04T1100,1137A,126.5933,45.7479,哈尔滨市,道里建国路,细颗粒物(PM2.5),57,53,72,40,62,40,,29,29,25,34,33,20,0,0.2
2026-01-04T1100,1138A,126.6127,45.6119,哈尔滨市,平房东轻厂,细颗粒物(PM2.5),63,48,74,45,99,43,,16,16,22,43,9,8,0.5,0.6
2026-01-04T1100,1139A,126.5875,45.9827,哈尔滨市,呼兰师专,,42,42,73,28,72,46,,26,26,12,31,9,10,0.5,0.9
2026-01-04T1100,1140A,126.6299,45.6799,哈尔滨市,省农科院,细颗粒物(PM2.5),83,96,103,61,76,35,,15,15,34,46,19,15,1.6,1.2
2026-01-04T1100,4282A,126.6769,45.7379,哈尔滨市,华山路1号,,48,46,74,33,55,44,,31,31,32,40,57,32,0.7,0.9
2026-01-04T1100,4283A,126.9717,45.5356,哈尔滨市,解放大街52号,细颗粒物(PM2.5),165,142,132,125,89,31,,17,17,37,41,21,16,1.5,1.2
2026-01-04T1100,2688A,93.5124,42.8176,哈密市,地区监测站,细颗粒物(PM2.5),58,53,49,41,32,60,,61,61,12,14,4,4,0.0,0.1
2026-01-04T1100,2689A,93.5014,42.8312,哈密市,哈密师范学校,颗粒物(PM10),55,59,57,26,24,54,,47,47,18,29,7,7,0.2,0.4
2026-01-04T1100,2671A,100.9016,36.9464,海北藏族自治州,海晏县西海镇,细颗粒物(PM2.5),103,85,77,77,65,62,,47,47,18,22,15,15,1.2,1.1
2026-01-04T1100,3867A,102.074,36.5056,海东市,平安区公安局北苑,细颗粒物(PM2.5),125,105,77,95,68,28,,40,34,27,15,10,19,1.2,1
2026-01-04T1100,4163A,102.0984,36.5119,海东市,滨河路,细颗粒物(PM2.5),115,,73,87,70,19,,26,22,45,36,11,17,1.2,1
2026-01-04T1100,1410A,110.3189,20.0596,海口市,海南大学,,41,41,36,18,15,93,,94,93,8,7,6,6,0.3,0.3
2026-01-04T1100,1411A,110.2827,20.0051,海口市,秀英海南医院,,43,43,40,18,15,86,,83,83,9,9,8,7,0.3,0.3
2026-01-04T1100,1412A,110.3391,19.9979,海口市,海南师范大学,,47,47,39,18,16,95,,90,90,9,9,6,5,0.4,0.4
2026-01-04T1100,1413A,110.3303,20.0359,海口市,龙华路环保局宿舍,,42,42,36,19,16,96,,94,93,10,10,/,/,0.6,0.5
2026-01-04T1100,3539A,110.5111,19.9737,海口市,桂林洋子站,,38,38,35,19,17,87,,87,87,11,9,/,/,/,/
2026-01-04T1100,4134A,110.1952,20.0451,海口市,长滨二路9号,,36,36,30,17,16,92,,90,90,7,6,/,/,/,/
2026-01-04T1100,2673A,100.6158,36.2985,海南藏族自治州,共和县恰卜恰镇,细颗粒物(PM2.5),53,48,58,37,47,57,,45,42,18,20,10,12,0.7,0.7
2026-01-04T1100,2676A,97.373,37.376,海西蒙古族藏族自治州,德令哈市,,25,6,18,3,9,78,,77,76,2,6,12,12,0.4,0.5
2026-01-04T1100,1049A,114.492,36.5712,邯郸市,矿院,细颗粒物(PM2.5),245,,153,195,167,9,,7,7,56,52,3,6,1.3,1.3
2026-01-04T1100,1050A,114.4839,36.6136,邯郸市,丛台公园,细颗粒物(PM2.5),233,196,168,183,155,13,,17,11,51,43,5,8,1.2,1.3
2026-01-04T1100,3458A,114.7893,36.5592,邯郸市,香泉濮院小区,细颗粒物(PM2.5),204,,148,154,148,26,,20,19,32,41,5,7,1.1,1.2
2026-01-04T1100,3580A,114.1998,36.4439,邯郸市,峰峰矿区临水派出所,细颗粒物(PM2.5),274,,121,224,169,18,,16,12,52,40,13,11,1.8,1.3
2026-01-04T1100,4068A,114.5209,36.7697,邯郸市,建安街268号,细颗粒物(PM2.5),251,203,175,201,163,10,,7,7,54,60,9,11,1.4,1.5
2026-01-04T1100,4069A,114.5488,36.6177,邯郸市,丛台东路558号,细颗粒物(PM2.5),242,252,209,192,170,13,,12,12,53,57,6,10,1.3,1.3
2026-01-04T1100,2635A,107.0155,33.0707,汉中市,市监测站,细颗粒物(PM2.5),82,,52,60,57,25,,16,12,21,24,4,4,0.9,0.8
2026-01-04T1100,2636A,107.0083,33.114,汉中市,鑫源开发区,细颗粒物(PM2.5),104,90,53,78,59,34,,27,26,30,23,17,5,1.3,0.7
2026-01-04T1100,2637A,107.0072,33.0323,汉中市,南郑大河坎水厂,细颗粒物(PM2.5),89,84,74,66,65,22,,8,8,21,22,6,5,1.2,1.1
2026-01-04T1100,1223A,120.2073,30.2111,杭州市,滨江,细颗粒物(PM2.5),105,104,104,79,80,11,,5,5,51,56,7,7,0.9,0.7
2026-01-04T1100,1224A,120.0625,30.2737,杭州市,西溪,细颗粒物(PM2.5),109,103,90,82,70,19,,5,5,56,49,9,8,1.0,0.9
2026-01-04T1100,1226A,120.3417,30.315,杭州市,下沙,细颗粒物(PM2.5),114,101,106,86,86,,,5,5,58,62,9,10,0.9,1.1
2026-01-04T1100,1227A,120.1252,30.2465,杭州市,卧龙桥,细颗粒物(PM2.5),109,101,90,82,73,21,,9,9,37,31,11,10,0.9,0.9
2026-01-04T1100,1228A,120.1902,30.2691,杭州市,浙江农大,细颗粒物(PM2.5),122,112,113,92,92,12,,4,4,57,62,4,5,0.8,0.7
2026-01-04T1100,1230A,120.1195,30.3121,杭州市,和睦小学,细颗粒物(PM2.5),117,119,109,88,81,14,,5,5,53,51,6,6,1.1,0.9
2026-01-04T1100,1231A,120.3076,30.4146,杭州市,临平镇,细颗粒物(PM2.5),124,134,118,94,84,6,,2,2,61,58,8,8,0.9,0.7
2026-01-04T1100,1232A,120.2753,30.1839,杭州市,城厢镇,细颗粒物(PM2.5),100,100,100,75,73,13,,7,7,54,59,8,9,0.8,0.6
2026-01-04T1100,1233A,120.0883,30.1808,杭州市,云栖,细颗粒物(PM2.5),110,101,92,83,74,8,,9,7,56,35,4,3,1.0,0.8
2026-01-04T1100,3557A,119.9463,30.0496,杭州市,镇二中,细颗粒物(PM2.5),112,92,78,84,77,13,,5,5,48,43,6,6,1.2,0.8
2026-01-04T1100,3558A,119.7184,30.2367,杭州市,市府大楼,细颗粒物(PM2.5),100,103,104,75,76,25,,18,18,30,28,10,10,1.0,0.9
2026-01-04T1100,3656A,120.1554,30.2863,杭州市,消防大队,细颗粒物(PM2.5),117,104,98,88,83,13,,5,5,52,53,7,7,0.5,0.4
2026-01-04T1100,1270A,117.1957,31.7845,合肥市,明珠广场,细颗粒物(PM2.5),98,88,79,73,61,17,,22,20,53,43,6,7,1.1,0.9
2026-01-04T1100,1271A,117.307,31.8765,合肥市,三里街,细颗粒物(PM2.5),89,75,77,66,59,14,,18,14,57,53,5,7,0.9,0.8
2026-01-04T1100,1272A,117.2587,31.8703,合肥市,琥珀山庄,细颗粒物(PM2.5),99,,76,74,61,31,,26,25,40,41,8,10,1.1,1
2026-01-04T1100,1275A,117.2593,31.9376,合肥市,庐阳区,细颗粒物(PM2.5),89,88,88,66,60,14,,11,11,68,64,2,4,1.1,0.9
2026-01-04T1100,1276A,117.345251,31.861615,合肥市,瑶海区,细颗粒物(PM2.5),80,75,81,59,61,21,,15,15,61,58,5,6,1.0,0.9
2026-01-04T1100,1277A,117.3033,31.7967,合肥市,包河区,细颗粒物(PM2.5),92,80,80,68,66,16,,8,8,64,59,6,8,1.0,0.9
2026-01-04T1100,1278A,117.278,31.7392,合肥市,滨湖新区,细颗粒物(PM2.5),98,80,74,73,66,30,,31,23,48,35,4,5,1.0,0.9
2026-01-04T1100,1279A,117.1324,31.8395,合肥市,高新区,细颗粒物(PM2.5),93,78,72,69,55,24,,28,27,54,45,4,5,0.9,0.7
2026-01-04T1100,3464A,117.3802,31.9148,合肥市,高教基地,细颗粒物(PM2.5),99,,78,74,65,20,,16,16,53,44,7,8,0.9,0.9
2026-01-04T1100,4098A,117.2518,31.8404,合肥市,中国科学技术大学,细颗粒物(PM2.5),94,78,70,70,54,32,,30,27,42,40,5,7,0.8,0.7
2026-01-04T1100,3614A,79.9241,37.0878,和田地区,地区环保局,细颗粒物(PM2.5),65,70,50,47,31,18,,49,42,27,14,2,2,0.2,0.7
2026-01-04T1100,3615A,79.9132,37.1137,和田地区,市环保局,,46,46,50,25,25,26,,47,37,35,23,2,2,0.6,0.6
2026-01-04T1100,2517A,108.0496,24.6957,河池市,市环保站,,30,22,28,21,24,29,,29,28,13,11,2,5,0.8,0.7
2026-01-04T1100,4302A,108.0901,24.6945,河池市,上任中路54号,,29,29,30,15,29,17,,27,25,17,12,4,7,0.8,0.7
2026-01-04T1100,1697A,114.6962,23.7538,河源市,东埔,,36,36,30,22,22,44,,13,13,18,30,8,7,0.8,0.8
2026-01-04T1100,1698A,114.6895,23.7232,河源市,老城,,46,46,32,27,24,35,,16,16,21,21,10,7,1.0,0.8
2026-01-04T1100,3374A,115.5562,35.089,菏泽市,定陶老年大学,细颗粒物(PM2.5),128,114,95,97,79,30,,36,32,22,21,2,2,0.9,0.7
2026-01-04T1100,4114A,115.4239,35.2593,菏泽市,黄河路600号,细颗粒物(PM2.5),140,127,110,107,90,31,,37,32,26,24,3,3,1.1,1
2026-01-04T1100,4115A,115.5025,35.2727,菏泽市,菏泽市人社局,细颗粒物(PM2.5),132,129,97,100,82,34,,42,34,25,21,4,2,0.8,0.6
2026-01-04T1100,4184A,115.479691,35.244011,菏泽市,永昌路1号,细颗粒物(PM2.5),138,139,102,105,86,34,,42,36,28,22,6,5,0.8,0.6
2026-01-04T1100,4193A,115.471542,35.280012,菏泽市,长城路999号,细颗粒物(PM2.5),127,123,101,96,80,35,,46,38,23,19,5,4,1.2,1
2026-01-04T1100,2514A,111.5264,24.4178,贺州市,环保小区,细颗粒物(PM2.5),65,69,58,47,46,29,,20,16,23,23,10,7,0.7,0.7
2026-01-04T1100,2515A,111.561,24.4074,贺州市,政协大楼,,42,42,58,29,47,26,,6,6,21,29,13,11,0.7,0.7
2026-01-04T1100,3534A,111.4744,24.455,贺州市,西湾,细颗粒物(PM2.5),73,66,55,53,42,28,,20,20,28,24,10,8,1.0,0.8
2026-01-04T1100,2385A,114.17,35.9019,鹤壁市,市监测站,细颗粒物(PM2.5),225,188,153,175,134,21,,6,6,35,41,9,5,2.1,1.3
2026-01-04T1100,2386A,114.2953,35.7512,鹤壁市,市交警支队,细颗粒物(PM2.5),207,192,147,157,124,8,,3,2,47,50,5,5,1.5,1
2026-01-04T1100,2387A,114.2877,35.7302,鹤壁市,迎宾馆,细颗粒物(PM2.5),202,190,148,152,126,9,,2,2,39,41,11,7,1.7,1.2
2026-01-04T1100,3474A,114.2616,35.6824,鹤壁市,大新区,细颗粒物(PM2.5),206,,143,156,131,17,,6,6,37,48,11,8,1.6,1.2
2026-01-04T1100,3596A,114.1573,35.9607,鹤壁市,南山宾馆,细颗粒物(PM2.5),234,201,150,184,130,20,,9,9,43,40,14,7,2.2,1.1
2026-01-04T1100,2244A,130.2537,47.3416,鹤岗市,哈啤分公司,,21,10,24,9,24,66,,61,61,2,6,5,7,0.2,0.3
2026-01-04T1100,2245A,130.2683,47.3087,鹤岗市,斯达机电,,28,19,28,19,25,70,,66,65,4,7,4,5,0.3,0.4
2026-01-04T1100,2246A,130.3114,47.3388,鹤岗市,东山纸板厂,,23,22,21,13,18,72,,67,66,1,6,6,8,0.3,0.6
2026-01-04T1100,2263A,127.4832,50.2524,黑河市,交通局,,23,,14,11,14,72,,65,65,5,7,4,4,0.3,0.3
2026-01-04T1100,2264A,127.5146,50.2339,黑河市,环保局,,21,,14,8,13,67,,63,63,8,10,4,5,0.3,0.3
2026-01-04T1100,1074A,115.6839,37.754,衡水市,电机北厂,细颗粒物(PM2.5),230,230,172,180,143,6,,1,1,58,46,10,6,1.3,1.1
2026-01-04T1100,1075A,115.6303,37.7318,衡水市,市监测站,细颗粒物(PM2.5),212,212,155,162,136,7,,16,8,56,42,8,7,1.3,1.1
2026-01-04T1100,3188A,115.6684,37.7216,衡水市,市城管局,细颗粒物(PM2.5),195,205,157,146,132,7,,8,5,60,49,10,8,1.5,1.1
2026-01-04T1100,3459A,115.599,37.5491,衡水市,地表水厂,细颗粒物(PM2.5),195,,141,146,147,13,,4,4,47,52,7,6,1.0,1
2026-01-04T1100,2457A,112.6209,26.9268,衡阳市,衡阳化工总厂,细颗粒物(PM2.5),78,,50,57,50,22,,29,24,16,16,5,6,1.1,1
2026-01-04T1100,2458A,112.621,26.8957,衡阳市,珠晖区环保局,细颗粒物(PM2.5),79,,47,58,51,18,,24,20,20,20,4,5,1.0,0.9
2026-01-04T1100,2459A,112.628,26.8654,衡阳市,市委党校,细颗粒物(PM2.5),77,,47,56,50,18,,30,25,20,18,8,9,1.0,0.9
2026-01-04T1100,2460A,112.6007,26.8977,衡阳市,市监测站,细颗粒物(PM2.5),84,77,74,62,57,21,,28,24,18,16,6,7,0.9,0.8
2026-01-04T1100,2461A,112.5658,26.9013,衡阳市,真空机电公司,细颗粒物(PM2.5),85,72,68,63,55,21,,25,19,21,19,6,7,1.0,0.9
2026-01-04T1100,3399A,112.6703,26.8817,衡阳市,师范学院,细颗粒物(PM2.5),72,59,62,52,47,17,,26,23,22,20,3,4,0.9,0.8
2026-01-04T1100,3038A,103.3757,23.3679,红河哈尼族彝族自治州,州图书馆,,12,10,7,6,4,38,,44,40,8,7,6,6,0.6,0.6
2026-01-04T1100,4154A,103.401,23.3561,红河哈尼族彝族自治州,蒙自市朝阳路,,15,11,12,3,8,46,,42,42,5,5,8,8,0.5,0.5
2026-01-04T1100,1090A,111.6506,40.7517,呼和浩特市,呼市一监,细颗粒物(PM2.5),124,122,98,94,72,16,,5,5,38,49,8,7,1.3,1.3
2026-01-04T1100,1094A,111.7516,40.8369,呼和浩特市,如意水处理厂,细颗粒物(PM2.5),63,74,98,45,61,23,,7,7,34,55,13,16,1.1,1.2
2026-01-04T1100,1095A,111.727798,40.806187,呼和浩特市,二十九中,颗粒物(PM10),72,93,97,49,60,16,,5,5,40,54,14,17,1.2,1.2
2026-01-04T1100,1097A,111.717,40.7617,呼和浩特市,化肥厂生活区,细颗粒物(PM2.5),98,113,98,73,62,8,,2,2,51,54,11,13,1.5,1.3
2026-01-04T1100,3699A,111.6519,40.8389,呼和浩特市,海东办,细颗粒物(PM2.5),69,85,109,50,63,19,,6,6,46,58,7,11,1.2,1.2
2026-01-04T1100,4275A,111.591512,40.827312,呼和浩特市,成吉思汗西街8号,细颗粒物(PM2.5),89,107,92,66,41,30,,47,43,36,40,6,10,0.8,0.9
2026-01-04T1100,4276A,111.6597,40.8077,呼和浩特市,公园东路75号,颗粒物(PM10),75,100,108,52,64,20,,9,9,51,60,9,12,1.4,1.1
2026-01-04T1100,4277A,111.5427,40.7846,呼和浩特市,金海路35号,细颗粒物(PM2.5),159,164,117,121,74,16,,4,4,48,54,13,15,1.2,1.1
2026-01-04T1100,3061A,119.7511,49.1576,呼伦贝尔市,国华电力东,,20,10,25,9,21,63,,52,52,18,25,6,6,0.3,0.4
2026-01-04T1100,4279A,119.7569,49.2222,呼伦贝尔市,伊敏大街东7号,,19,18,31,13,23,57,,46,46,15,25,9,8,0.4,0.5
2026-01-04T1100,1250A,120.075,30.867,湖州市,城西水厂,细颗粒物(PM2.5),144,140,105,110,78,13,,13,13,73,52,11,10,0.8,0.6
2026-01-04T1100,2873A,120.083,30.8929,湖州市,仁皇山新区,细颗粒物(PM2.5),143,144,103,109,84,17,,17,17,93,64,12,11,0.8,0.6
2026-01-04T1100,2907A,120.1846,30.8592,湖州市,吴兴区站,细颗粒物(PM2.5),150,137,106,115,88,15,,14,14,71,57,8,8,0.9,0.7
2026-01-04T1100,3562A,120.4146,30.8538,湖州市,南浔区站,细颗粒物(PM2.5),138,139,102,105,80,10,,7,7,77,61,9,7,0.9,0.8
2026-01-04T1100,1607A,120.904878,40.721091,葫芦岛市,龙港区,颗粒物(PM10),86,121,94,44,69,39,,13,13,29,43,34,32,1.5,1.7
2026-01-04T1100,1608A,120.8382,40.7521,葫芦岛市,化工街,,41,41,100,22,63,51,,14,14,16,46,26,53,0.5,1.2
2026-01-04T1100,1609A,120.8339,40.7078,葫芦岛市,新区,颗粒物(PM10),76,101,71,42,52,41,,9,9,36,53,27,19,1.0,1.2
2026-01-04T1100,1610A,120.8697,40.7679,葫芦岛市,东城区,颗粒物(PM10),69,88,92,26,68,50,,12,12,18,48,30,48,0.9,1.4
2026-01-04T1100,2483A,109.9297,27.5383,怀化市,河西地税局,,28,20,30,19,30,23,,31,26,15,12,3,3,/,/
2026-01-04T1100,2484A,109.9783,27.5342,怀化市,市四医院,,36,30,33,25,29,15,,23,18,21,12,9,8,0.7,0.6
2026-01-04T1100,2485A,109.9971,27.5579,怀化市,监测楼,,35,27,20,24,20,19,,33,27,22,13,2,2,0.4,0.3
2026-01-04T1100,1210A,119.0566,33.5991,淮安市,钵池山,细颗粒物(PM2.5),75,90,57,55,43,19,,27,18,69,42,14,10,0.6,0.6
2026-01-04T1100,1211A,119.0083,33.578,淮安市,北京南路,细颗粒物(PM2.5),78,95,63,57,44,13,,6,4,65,50,17,9,1.3,1
2026-01-04T1100,1212A,118.9938,33.6083,淮安市,市监测站,细颗粒物(PM2.5),83,85,56,61,45,21,,20,12,62,40,13,10,1.2,0.9
2026-01-04T1100,1213A,119.135,33.5038,淮安市,楚州区监测站,细颗粒物(PM2.5),89,93,59,66,44,24,,4,4,51,55,13,11,0.7,0.7
2026-01-04T1100,3426A,118.8757,33.2897,淮安市,新华书店,细颗粒物(PM2.5),100,89,65,75,52,17,,19,12,58,40,11,11,1.0,0.8
2026-01-04T1100,4092A,119.119691,33.550006,淮安市,枚皋中路89号,细颗粒物(PM2.5),97,116,64,72,47,23,,8,8,64,51,12,9,0.9,0.7
2026-01-04T1100,4206A,119.028838,33.631911,淮安市,承德北路606号,颗粒物(PM10),80,110,73,56,42,15,,23,12,78,47,19,10,1.1,0.9
2026-01-04T1100,2282A,116.8005,33.9749,淮北市,监测站,细颗粒物(PM2.5),98,100,91,73,66,43,,38,37,48,37,12,9,0.7,0.6
2026-01-04T1100,2283A,116.8094,33.9008,淮北市,烈山区政府,细颗粒物(PM2.5),113,103,93,85,76,39,,22,22,35,37,15,11,0.5,0.5
2026-01-04T1100,4017A,116.7926,33.9534,淮北市,市博物馆,颗粒物(PM10),84,117,94,57,66,32,,33,31,51,35,14,11,0.3,0.3
2026-01-04T1100,4100A,116.8322,33.9884,淮北市,杜集区第一实验学校,细颗粒物(PM2.5),98,97,92,73,70,37,,26,25,34,24,12,9,0.6,0.6
2026-01-04T1100,2277A,116.8304,32.7726,淮南市,潘集区政府,细颗粒物(PM2.5),79,65,84,58,69,59,,24,24,25,35,9,7,0.7,0.7
2026-01-04T1100,2279A,116.8569,32.5949,淮南市,谢家集区政府,颗粒物(PM10),57,63,75,38,45,57,,35,34,31,35,9,8,0.5,0.5
2026-01-04T1100,2280A,116.8279,32.6333,淮南市,八公山区政府,细颗粒物(PM2.5),112,98,67,84,52,69,,42,42,20,24,5,5,0.5,0.5
2026-01-04T1100,2894A,117.0561,32.6536,淮南市,经济技术开发区消防队,细颗粒物(PM2.5),77,83,80,56,57,51,,26,26,35,36,8,5,0.7,0.6
2026-01-04T1100,3329A,117.011,32.5891,淮南市,山南新区,细颗粒物(PM2.5),77,84,71,56,49,36,,45,37,40,23,4,3,0.7,0.5
2026-01-04T1100,4209A,117.003137,32.644456,淮南市,国庆中路369号,细颗粒物(PM2.5),77,73,68,56,57,41,,36,33,39,29,8,6,0.8,0.7
2026-01-04T1100,2446A,114.9021,30.474,黄冈市,职工中心,,49,45,52,34,38,53,,56,53,15,19,6,8,0.7,0.7
2026-01-04T1100,2929A,114.8858,30.4519,黄冈市,红卫路,细颗粒物(PM2.5),57,45,52,40,40,43,,57,50,22,23,6,8,0.6,0.6
2026-01-04T1100,3398A,114.9134,30.4446,黄冈市,市林业局,细颗粒物(PM2.5),55,43,52,39,41,44,,59,51,22,22,4,6,0.8,0.8
2026-01-04T1100,2672A,102.02,35.5101,黄南藏族自治州,同仁县隆务镇,细颗粒物(PM2.5),72,,55,52,47,48,,50,48,3,6,10,10,0.5,0.7
2026-01-04T1100,2295A,118.2905,29.6965,黄山市,延安路89号,细颗粒物(PM2.5),58,46,35,41,29,18,,14,14,22,17,4,4,0.6,0.5
2026-01-04T1100,2297A,118.1369,30.2755,黄山市,黄山区政府5号楼,,36,36,38,23,31,27,,16,16,14,15,6,6,0.6,0.6
2026-01-04T1100,4210A,118.335445,29.720283,黄山市,滨江东路7-2号,细颗粒物(PM2.5),104,78,53,78,42,20,,18,16,34,19,/,/,/,/
2026-01-04T1100,2423A,115.0547,30.2332,黄石市,沈家营,,45,44,58,31,36,49,,48,48,19,16,5,7,1.1,1.1
2026-01-04T1100,2426A,114.899,30.211,黄石市,铁山,细颗粒物(PM2.5),72,,51,52,53,30,,45,44,35,17,6,6,0.6,0.6
2026-01-04T1100,2427A,115.0259,30.2108,黄石市,团城山,,45,44,60,31,44,45,,50,50,21,18,6,6,0.7,0.7
2026-01-04T1100,3149A,115.0174,30.1591,黄石市,笔架山北路,,45,45,70,31,42,36,,44,44,18,16,8,7,1.1,1
2026-01-04T1100,4185A,115.078022,30.21118,黄石市,磁湖东路29号,细颗粒物(PM2.5),60,,54,43,44,34,,44,41,20,18,6,9,0.9,0.8
2026-01-04T1100,1392A,114.4181,23.0528,惠州市,河南岸金山湖子站,"颗粒物(PM10),细颗粒物(PM2.5)",54,58,47,38,30,53,,24,22,26,26,9,5,0.7,0.7
2026-01-04T1100,1393A,114.4055,23.0824,惠州市,下埔横江三路子站,颗粒物(PM10),54,58,48,36,29,47,,26,20,25,24,13,9,0.8,0.7
2026-01-04T1100,1395A,114.4645,22.7832,惠州市,惠阳区承修路船湖子站,颗粒物(PM10),58,65,52,35,29,64,,34,34,30,26,8,7,0.6,0.6
2026-01-04T1100,1396A,114.5316,22.7423,惠州市,大亚湾管委会子站,颗粒物(PM10),55,59,49,34,26,67,,56,38,28,25,8,6,0.4,0.3
2026-01-04T1100,3314A,114.4334,22.8134,惠州市,惠阳秋长,颗粒物(PM10),53,56,51,33,31,88,,48,48,22,32,/,/,/,/
2026-01-04T1100,3452A,114.6521,22.7755,惠州市,大亚湾霞涌,细颗粒物(PM2.5),53,47,42,37,25,78,,74,72,20,18,/,/,/,/
2026-01-04T1100,4300A,114.4089,23.1147,惠州市,文华一路1号,颗粒物(PM10),54,57,50,36,31,49,,16,16,33,31,/,/,/,/
2026-01-04T1100,2240A,130.9618,45.2926,鸡西市,环保局,,49,41,34,34,23,64,,52,52,5,8,5,6,0.3,0.4
2026-01-04T1100,2243A,130.9294,45.2959,鸡西市,第一中学,,27,27,31,16,24,66,,56,56,5,8,3,3,0.3,0.4
2026-01-04T1100,3707A,131.0069,45.2988,鸡西市,欧美日汽修厂,颗粒物(PM10),51,51,37,22,25,65,,57,55,8,10,4,6,0.4,0.5
2026-01-04T1100,2367A,114.9753,27.0803,吉安市,红声器材厂,细颗粒物(PM2.5),62,64,48,44,29,29,,40,32,28,21,13,12,0.7,0.5
2026-01-04T1100,2369A,114.9903,27.1313,吉安市,市环境监测站,细颗粒物(PM2.5),59,63,45,42,31,33,,38,32,22,15,17,14,/,/
2026-01-04T1100,2370A,115.009527,27.096792,吉安市,青原区法院,细颗粒物(PM2.5),59,,46,42,32,27,,42,34,27,16,14,13,0.6,0.5
2026-01-04T1100,1772A,126.54,43.8622,吉林市,哈达湾,细颗粒物(PM2.5),92,86,82,68,62,51,,33,33,30,36,19,13,1.6,1.7
2026-01-04T1100,1773A,126.5843,43.8358,吉林市,东局子,细颗粒物(PM2.5),93,86,81,69,68,33,,20,20,32,38,10,8,1.7,1.8
2026-01-04T1100,1774A,126.5051,43.8243,吉林市,电力学院,细颗粒物(PM2.5),84,74,108,62,90,42,,19,19,29,44,14,16,1.2,1.7
2026-01-04T1100,1775A,126.6133,43.8971,吉林市,江北,细颗粒物(PM2.5),87,83,104,64,81,34,,22,22,34,40,13,10,1.5,1.8
2026-01-04T1100,1776A,126.5549,43.8304,吉林市,江南公园,细颗粒物(PM2.5),97,75,88,72,73,40,,14,14,27,39,11,12,1.4,1.6
2026-01-04T1100,2868A,126.4737,43.953,吉林市,九站,细颗粒物(PM2.5),89,79,98,66,78,46,,14,14,25,46,10,11,1.3,1.5
2026-01-04T1100,1299A,116.9866,36.6118,济南市,科干所,细颗粒物(PM2.5),83,88,93,61,65,56,,62,48,36,30,10,8,0.9,0.9
2026-01-04T1100,1300A,116.9379,36.6652,济南市,农科所,细颗粒物(PM2.5),92,100,108,68,83,45,,36,28,44,43,10,8,1.0,1
2026-01-04T1100,1301A,117.1265,36.6736,济南市,开发区,细颗粒物(PM2.5),108,115,108,81,84,18,,41,35,63,39,5,4,1.2,1
2026-01-04T1100,1303A,117.0616,36.6865,济南市,省种子仓库,细颗粒物(PM2.5),113,136,129,85,88,20,,10,10,69,55,13,8,1.2,1
2026-01-04T1100,1304A,116.9495185,36.644937,济南市,机床二厂,细颗粒物(PM2.5),104,105,119,78,94,42,,27,22,47,48,26,20,1.1,1.1
2026-01-04T1100,1305A,117.0496,36.6629,济南市,市监测站,细颗粒物(PM2.5),108,115,100,81,77,22,,27,26,58,37,8,5,1.1,0.9
2026-01-04T1100,1306A,116.7674,36.5458,济南市,长清党校,细颗粒物(PM2.5),104,98,96,78,77,42,,50,40,32,27,7,7,0.8,0.8
2026-01-04T1100,1961A,117.5323,36.6865,济南市,东山小学,细颗粒物(PM2.5),108,107,108,81,83,54,,32,32,33,38,6,5,1.0,1
2026-01-04T1100,3059A,117.7181,36.205,济南市,泰兴公司,细颗粒物(PM2.5),170,163,152,129,128,25,,9,9,59,55,12,8,1.2,1.2
2026-01-04T1100,3064A,117.6861,36.2172,济南市,莱芜战役纪念馆,细颗粒物(PM2.5),173,168,152,131,128,20,,7,7,64,56,17,10,1.2,1.1
2026-01-04T1100,3494A,117.1673,36.9782,济南市,济阳区政府,细颗粒物(PM2.5),170,183,141,129,106,28,,19,19,54,48,17,10,1.3,0.9
2026-01-04T1100,3495A,117.1168,36.6299,济南市,锦屏中学,细颗粒物(PM2.5),59,59,80,42,61,72,,54,54,20,24,4,3,0.6,0.7
2026-01-04T1100,4108A,117.7107,36.2385,济南市,山财大街5号,细颗粒物(PM2.5),122,118,163,92,113,50,,23,23,34,50,10,8,0.9,1.1
2026-01-04T1100,4109A,116.9744,36.6889,济南市,无影山路12号,细颗粒物(PM2.5),125,156,129,95,95,19,,21,7,69,48,17,13,1.1,1.1
2026-01-04T1100,1653A,116.6229,35.4288,济宁市,火炬城,细颗粒物(PM2.5),140,111,97,107,97,36,,31,30,33,29,8,7,0.7,0.6
2026-01-04T1100,3500A,116.5808,35.3703,济宁市,北湖一中,细颗粒物(PM2.5),128,,92,97,91,38,,25,18,33,32,7,6,0.8,0.7
2026-01-04T1100,3501A,116.8251,35.5592,济宁市,服务中心,细颗粒物(PM2.5),108,143,129,81,89,39,,15,15,50,47,14,12,0.8,0.7
2026-01-04T1100,3678A,116.5907,35.4054,济宁市,市第七中学,细颗粒物(PM2.5),113,100,104,85,86,43,,20,20,32,37,10,8,0.8,0.8
2026-01-04T1100,4111A,116.6075,35.4566,济宁市,任和路,细颗粒物(PM2.5),128,136,115,97,86,40,,22,22,32,34,9,7,0.8,0.7
2026-01-04T1100,4112A,116.5648,35.3921,济宁市,文体南路1号,细颗粒物(PM2.5),130,129,112,99,86,40,,28,22,29,30,7,5,0.7,0.6
2026-01-04T1100,2255A,130.2749,46.8028,佳木斯市,佳纺,细颗粒物(PM2.5),57,,38,40,33,56,,45,42,11,18,7,9,0.2,0.3
2026-01-04T1100,2257A,130.3258,46.7975,佳木斯市,环保局,细颗粒物(PM2.5),54,47,39,38,30,62,,46,45,10,18,7,10,0.7,0.6
2026-01-04T1100,4285A,130.363,46.806,佳木斯市,顺和街,,40,36,35,28,27,53,,42,41,13,21,8,10,0.7,0.6
2026-01-04T1100,4286A,130.3952,46.8268,佳木斯市,长安路196号,,38,,32,26,29,62,,55,55,5,12,4,6,0.3,0.4
2026-01-04T1100,1252A,120.7439,30.778,嘉兴市,清河小学,细颗粒物(PM2.5),75,79,99,55,73,28,,12,12,48,116,7,8,0.6,0.7
2026-01-04T1100,1253A,120.7261,30.7477,嘉兴市,嘉兴学院,细颗粒物(PM2.5),83,82,100,61,70,17,,12,12,55,47,9,8,0.9,0.9
2026-01-04T1100,2872A,120.7845,30.7524,嘉兴市,南湖区残联,细颗粒物(PM2.5),77,74,96,56,72,20,,12,12,57,54,6,6,0.8,0.8
2026-01-04T1100,3407A,120.6915,30.7741,嘉兴市,秀洲住建,细颗粒物(PM2.5),97,100,100,72,77,16,,8,8,63,62,10,8,0.7,0.7
2026-01-04T1100,1945A,98.291,39.7705,嘉峪关市,气象局,颗粒物(PM10),52,53,53,29,29,69,,64,64,13,25,33,21,0.4,0.6
2026-01-04T1100,2884A,98.2672,39.7978,嘉峪关市,酒钢宾馆,颗粒物(PM10),51,51,63,27,35,62,,60,58,12,17,28,29,0.5,0.7
2026-01-04T1100,3248A,98.2644,39.7723,嘉峪关市,雄关区,,46,46,45,29,28,57,,56,56,26,29,25,26,0.4,0.6
2026-01-04T1100,1383A,113.1063,22.6058,江门市,北街,细颗粒物(PM2.5),78,102,71,57,46,46,,13,13,79,58,/,/,/,/
2026-01-04T1100,1384A,113.073,22.5835,江门市,西区,颗粒物(PM10),82,114,84,58,46,46,,12,12,78,61,/,/,/,/
2026-01-04T1100,1385A,113.0218,22.531,江门市,圭峰西,颗粒物(PM10),77,104,59,54,40,60,,43,41,70,37,/,/,/,/
2026-01-04T1100,1386A,113.0826,22.5947,江门市,东湖,细颗粒物(PM2.5),80,100,74,59,42,45,,11,11,82,59,11,8,0.7,0.7
2026-01-04T1100,3311A,113.1077,22.5647,江门市,江海富民,颗粒物(PM10),84,117,86,55,38,56,,17,17,82,61,/,/,0.6,0.6
2026-01-04T1100,3449A,113.0496,22.4669,江门市,新会银湖,细颗粒物(PM2.5),94,95,67,70,54,56,,12,12,72,44,10,8,0.8,0.7
2026-01-04T1100,3335A,113.3137,35.2643,焦作市,马村街道办,细颗粒物(PM2.5),165,126,125,125,122,25,,28,28,29,34,7,8,1.2,1.2
2026-01-04T1100,3336A,113.2464,35.2374,焦作市,焦作技师学院,细颗粒物(PM2.5),160,149,138,122,114,25,,28,28,31,39,10,11,1.3,1.2
2026-01-04T1100,3477A,113.1656,35.2536,焦作市,中站许衡医院,,,,122,,111,29,,28,27,30,41,8,11,1.3,1.4
2026-01-04T1100,3981A,113.2456,35.18,焦作市,原李万街道办,细颗粒物(PM2.5),104,,110,78,103,34,,35,35,19,27,4,5,0.9,1.1
2026-01-04T1100,4264A,113.234,35.219,焦作市,新安路1731号,细颗粒物(PM2.5),149,118,128,114,115,29,,30,30,18,26,6,7,1.1,1.1
2026-01-04T1100,4295A,113.2722,35.2121,焦作市,人民路3066号,细颗粒物(PM2.5),112,119,127,84,92,28,,31,31,19,28,6,7,1.0,1
2026-01-04T1100,1708A,116.3701,23.5345,揭阳市,新兴,颗粒物(PM10),67,84,55,42,44,74,,39,35,30,29,12,12,0.7,0.6
2026-01-04T1100,1709A,116.3261,23.5442,揭阳市,西马,颗粒物(PM10),64,78,59,37,38,69,,34,34,26,23,9,8,0.7,0.7
2026-01-04T1100,1710A,116.361,23.5627,揭阳市,东兴,颗粒物(PM10),70,89,57,37,33,68,,24,24,20,27,10,11,/,/
2026-01-04T1100,1711A,116.4151,23.5295,揭阳市,渔湖,颗粒物(PM10),69,87,57,38,35,66,,32,32,34,31,9,6,/,/
2026-01-04T1100,3320A,116.4028,23.5699,揭阳市,曲溪,颗粒物(PM10),65,79,62,46,34,74,,39,38,24,27,5,7,0.6,0.5
2026-01-04T1100,1944A,102.1691,38.5166,金昌市,天庆家园,颗粒物(PM10),56,61,54,33,37,56,,41,39,24,20,8,3,0.9,0.8
2026-01-04T1100,4022A,102.1648,38.5369,金昌市,金川区人防中心,颗粒物(PM10),58,65,52,40,37,50,,54,49,26,16,12,6,0.8,0.7
2026-01-04T1100,4239A,102.193042,38.531887,金昌市,长春路96号,细颗粒物(PM2.5),60,65,52,43,35,45,,42,35,33,22,10,6,1.3,1
2026-01-04T1100,1262A,119.6478,29.0773,金华市,十五中,细颗粒物(PM2.5),94,104,105,70,74,32,,10,10,51,55,6,4,0.8,0.8
2026-01-04T1100,1263A,119.6859,29.1032,金华市,监测站,细颗粒物(PM2.5),97,104,110,72,79,18,,6,6,82,73,3,3,0.8,0.8
2026-01-04T1100,3659A,119.656,29.1132,金华市,气象局,细颗粒物(PM2.5),82,92,108,60,73,16,,7,7,60,58,4,3,0.8,0.8
2026-01-04T1100,1767A,121.1114,41.0879,锦州市,南山,细颗粒物(PM2.5),99,92,80,74,78,32,,11,11,40,43,25,16,1.5,1.5
2026-01-04T1100,1768A,121.060361,40.842794,锦州市,开发区,细颗粒物(PM2.5),110,153,96,83,65,49,,18,18,39,49,39,44,1.7,1.2
2026-01-04T1100,1769A,121.1836,41.1118,锦州市,百股街道,细颗粒物(PM2.5),122,140,85,92,73,34,,10,10,43,45,43,20,1.4,1.4
2026-01-04T1100,1770A,121.1176,41.1224,锦州市,天安街道,颗粒物(PM10),82,113,82,33,68,55,,12,12,21,44,16,20,1.0,1.6
2026-01-04T1100,1771A,121.1303,41.1385,锦州市,北湖公园,颗粒物(PM10),65,79,84,28,68,53,,18,18,16,40,20,20,0.7,1.4
2026-01-04T1100,2160A,112.8496,35.5051,晋城市,自来水公司,细颗粒物(PM2.5),123,101,89,93,76,36,,40,39,22,27,5,8,1.6,1.4
2026-01-04T1100,2162A,112.8509,35.4886,晋城市,市环保局,细颗粒物(PM2.5),117,98,102,88,69,43,,44,44,19,27,4,7,1.6,1.4
2026-01-04T1100,3620A,112.8258,35.4804,晋城市,泽州一中,细颗粒物(PM2.5),128,,84,97,67,48,,50,50,18,23,4,5,1.2,0.8
2026-01-04T1100,4078A,112.8246,35.5152,晋城市,前书院路,细颗粒物(PM2.5),110,119,91,83,51,39,,39,39,19,29,4,5,1.4,1
2026-01-04T1100,4079A,112.8864,35.4773,晋城市,祥云街666号,细颗粒物(PM2.5),112,98,97,84,86,44,,46,46,19,27,5,8,1.3,1.1
2026-01-04T1100,2174A,112.6992,37.6984,晋中市,榆次区政府,细颗粒物(PM2.5),215,202,193,165,139,17,,5,5,50,67,28,26,2.1,1.7
2026-01-04T1100,2865A,112.7195,37.683,晋中市,榆次三中,细颗粒物(PM2.5),203,217,186,153,124,12,,2,2,54,63,27,27,2.4,1.7
2026-01-04T1100,4080A,112.7375,37.7215,晋中市,广安街188号,细颗粒物(PM2.5),226,250,213,176,138,18,,7,7,61,72,16,20,1.8,1.6
2026-01-04T1100,4200A,112.7478,37.6954,晋中市,迎宾街26号,细颗粒物(PM2.5),213,207,177,163,122,17,,4,4,54,65,31,27,2.3,1.8
2026-01-04T1100,2439A,112.2012,31.048,荆门市,竹园小学,细颗粒物(PM2.5),128,121,112,97,94,14,,13,11,29,30,1,3,1.1,0.5
2026-01-04T1100,2440A,112.1968,30.9892,荆门市,掇刀,细颗粒物(PM2.5),109,112,101,82,86,19,,24,19,27,23,2,4,0.6,0.6
2026-01-04T1100,3012A,112.1849,31.0361,荆门市,西山林语,细颗粒物(PM2.5),109,97,96,82,83,22,,21,17,26,26,2,5,1.0,0.8
2026-01-04T1100,3547A,112.1631,31.0134,荆门市,龙泉中学南校,细颗粒物(PM2.5),110,101,106,83,88,29,,38,29,17,13,7,7,0.4,0.4
2026-01-04T1100,4124A,112.2213,31.0654,荆门市,新台西路6号,细颗粒物(PM2.5),148,128,102,113,92,15,,20,16,31,25,6,8,1.0,0.7
2026-01-04T1100,1844A,112.2493,30.3198,荆州市,市图书馆,细颗粒物(PM2.5),99,,63,74,76,32,,38,36,25,22,7,8,0.9,0.8
2026-01-04T1100,1845A,112.2009,30.3543,荆州市,市委党校,细颗粒物(PM2.5),97,72,69,72,73,31,,31,31,21,23,6,5,1.0,0.9
2026-01-04T1100,3194A,112.2749,30.3124,荆州市,管委会,细颗粒物(PM2.5),97,,65,72,77,34,,31,31,22,32,7,7,0.7,0.8
2026-01-04T1100,4268A,112.1722,30.3366,荆州市,学苑路85号,细颗粒物(PM2.5),93,,64,69,64,36,,36,36,21,19,7,14,0.8,0.7
2026-01-04T1100,2343A,117.2114,29.2931,景德镇市,老干部活动中心,,42,34,38,29,29,23,,17,16,18,20,7,8,0.5,0.4
2026-01-04T1100,2344A,117.1893,29.2789,景德镇市,兽医站,,40,40,36,24,28,18,,20,20,22,21,8,10,0.9,0.7
2026-01-04T1100,2346A,117.246,29.2958,景德镇市,陶研所,,,67,34,28,28,,,10,9,,17,3,4,0.2,0.7
2026-01-04T1100,4289A,117.154766,29.256967,景德镇市,青少年活动中心,细颗粒物(PM2.5),52,48,41,36,30,15,,18,16,31,28,18,11,/,/
2026-01-04T1100,1803A,115.9873,29.6816,九江市,十里,细颗粒物(PM2.5),70,62,54,51,49,45,,37,37,34,35,5,6,0.8,0.8
2026-01-04T1100,1804A,115.9583,29.7047,九江市,茅山头,细颗粒物(PM2.5),69,57,54,50,46,48,,42,39,27,27,4,5,0.8,0.9
2026-01-04T1100,1805A,115.9877,29.7295,九江市,西园,细颗粒物(PM2.5),58,59,54,41,38,49,,50,44,35,36,4,4,0.7,0.8
2026-01-04T1100,1808A,115.9112,29.6038,九江市,综合工业园,细颗粒物(PM2.5),84,72,53,62,53,30,,21,21,40,44,3,4,0.8,0.8
2026-01-04T1100,3190A,116.0254,29.6995,九江市,外国语学校,"颗粒物(PM10),细颗粒物(PM2.5)",63,75,51,45,43,26,,34,30,40,30,8,8,0.8,0.8
2026-01-04T1100,4253A,116.010205,29.659402,九江市,莲花大道8号,细颗粒物(PM2.5),78,64,54,57,49,36,,40,34,28,18,4,4,0.5,0.5
2026-01-04T1100,4240A,98.495752,39.733935,酒泉市,玉门东路5号,颗粒物(PM10),54,58,50,31,24,43,,51,45,23,15,19,13,0.6,0.5
2026-01-04T1100,4241A,98.5099,39.7506,酒泉市,北大街108号,颗粒物(PM10),69,88,52,34,24,38,,44,39,31,23,20,13,0.8,0.6
2026-01-04T1100,2698A,76.0071,39.466,喀什地区,巡警大队,细颗粒物(PM2.5),57,54,56,40,38,36,,47,43,20,14,2,3,0.7,0.7
2026-01-04T1100,2699A,75.9756,39.4693,喀什地区,吾办,细颗粒物(PM2.5),60,56,56,43,45,33,,44,41,18,12,3,6,0.8,0.8
2026-01-04T1100,4027A,75.9485,39.4688,喀什地区,老干局,细颗粒物(PM2.5),63,71,60,45,40,31,,46,43,22,12,2,2,1.0,0.9
2026-01-04T1100,1824A,114.3389,34.778,开封市,肿瘤医院,细颗粒物(PM2.5),124,,103,94,93,24,,19,17,25,25,5,4,1.3,1.3
2026-01-04T1100,1826A,114.2884,34.7966,开封市,世纪星幼儿园,细颗粒物(PM2.5),144,,97,110,108,20,,18,16,29,26,3,2,0.8,0.7
2026-01-04T1100,3147A,114.3434,34.8101,开封市,龙亭公园,细颗粒物(PM2.5),127,108,102,96,110,32,,23,22,22,23,4,3,1.5,1.4
2026-01-04T1100,3210A,114.3645,34.7955,开封市,汴京公园,细颗粒物(PM2.5),123,104,119,93,100,29,,23,20,30,28,4,4,0.9,0.8
2026-01-04T1100,3473A,114.2485,34.8306,开封市,技师学院,细颗粒物(PM2.5),133,,98,101,102,26,,20,20,24,23,7,6,1.1,1
2026-01-04T1100,3592A,114.4518,34.7503,开封市,祥符区生态环境局,细颗粒物(PM2.5),127,127,119,96,95,40,,24,23,25,27,5,3,0.8,0.8
2026-01-04T1100,1951A,84.886,45.6029,克拉玛依市,长征新村,细颗粒物(PM2.5),79,87,88,58,62,22,,25,23,37,31,4,5,1.0,1
2026-01-04T1100,1952A,84.8894,45.5827,克拉玛依市,南林小区,细颗粒物(PM2.5),78,87,87,57,50,14,,22,20,35,25,4,3,1.1,1
2026-01-04T1100,1954A,84.896,44.3328,克拉玛依市,独山子区,颗粒物(PM10),59,67,74,30,40,18,,57,50,67,37,5,5,1.3,0.8
2026-01-04T1100,1955A,85.6888,46.0909,克拉玛依市,乌尔禾区商贸楼,颗粒物(PM10),75,100,76,51,60,5,,28,20,41,26,5,4,1.3,1.1
2026-01-04T1100,3612A,85.1045,45.6895,克拉玛依市,白碱滩区新站,细颗粒物(PM2.5),87,106,118,64,62,28,,10,10,10,16,7,7,0.6,0.7
2026-01-04T1100,2697A,76.1457,39.7143,克孜勒苏柯尔克孜自治州,市人民政府,细颗粒物(PM2.5),57,58,62,40,42,30,,48,44,22,11,5,5,0.4,0.4
2026-01-04T1100,3665A,76.1654,39.7157,克孜勒苏柯尔克孜自治州,克州文化中心,细颗粒物(PM2.5),55,53,50,39,41,42,,47,44,11,9,3,3,0.7,0.6
2026-01-04T1100,1450A,102.8203,24.889,昆明市,呈贡新区,,25,,22,17,11,72,,53,53,9,15,4,4,0.3,0.3
2026-01-04T1100,1452A,102.7253,25.0904,昆明市,龙泉镇,,20,20,22,14,13,59,,34,34,14,19,6,3,0.5,0.5
2026-01-04T1100,1453A,102.7267,25.0378,昆明市,东风东路,,24,24,20,14,15,66,,53,53,18,18,8,5,0.6,0.5
2026-01-04T1100,1454A,102.6744,25.0671,昆明市,金鼎山,,23,21,29,16,17,56,,28,28,16,21,5,3,0.5,0.5
2026-01-04T1100,1455A,102.6643,25.0401,昆明市,碧鸡广场,,26,26,24,18,17,58,,27,27,16,23,5,4,0.6,0.6
2026-01-04T1100,3179A,102.7491,25.012,昆明市,官渡区博物馆,,23,22,20,16,14,71,,52,52,14,19,7,4,0.4,0.3
2026-01-04T1100,3375A,102.8016,24.8336,昆明市,青年创业园,,23,18,17,15,12,73,,58,58,4,7,6,4,0.4,0.3
2026-01-04T1100,3550A,102.8,24.9787,昆明市,昆明学院,,24,20,17,13,11,76,,64,64,7,10,3,3,0.5,0.5
2026-01-04T1100,3551A,102.5969,24.6738,昆明市,晋宁区生态环境分局,,20,17,23,14,13,53,,33,33,9,12,2,2,0.6,0.5
2026-01-04T1100,3552A,102.6673,24.9861,昆明市,云天化总部,,26,26,20,18,12,71,,51,51,13,16,8,6,0.6,0.5
2026-01-04T1100,1456A,91.132,29.6515,拉萨市,八廓街,,23,18,20,10,10,72,,76,75,5,6,7,7,0.5,0.5
2026-01-04T1100,1457A,91.1221,29.6748,拉萨市,市环保局,,22,12,16,7,11,69,,70,68,12,12,7,7,0.5,0.5
2026-01-04T1100,1458A,91.0874,29.6476,拉萨市,区监测站,,22,13,12,3,6,70,,72,70,12,13,4,4,0.8,0.8
2026-01-04T1100,1459A,91.1774,29.6541,拉萨市,西藏大学,,24,16,14,3,8,74,,76,73,8,10,5,5,0.2,0.3
2026-01-04T1100,1460A,90.9798,29.6586,拉萨市,区辐射站,,29,29,19,17,11,56,,54,54,23,17,5,4,0.7,0.6
2026-01-04T1100,1461A,91.0831,29.6292,拉萨市,拉萨火车站,,24,20,16,13,8,74,,79,66,10,12,4,4,0.5,0.5
2026-01-04T1100,2520A,109.2203,23.7252,来宾市,来宾技工学校,细颗粒物(PM2.5),98,93,73,73,71,15,,16,11,21,19,17,9,1.0,0.5
2026-01-04T1100,3535A,109.1781,23.7293,来宾市,兴宾区政府,细颗粒物(PM2.5),123,114,70,93,58,20,,19,18,21,19,15,9,1.1,0.6
2026-01-04T1100,4002A,109.2312,23.7428,来宾市,中南小学,细颗粒物(PM2.5),97,104,70,72,68,15,,13,10,21,20,15,7,1.2,0.7
2026-01-04T1100,1479A,103.8309,36.0467,兰州市,铁路设计院,,,,,,,,,,,,,,,,
2026-01-04T1100,3241A,103.7439,36.0841,兰州市,百合公园,细颗粒物(PM2.5),73,75,70,53,54,19,,29,21,49,30,24,7,2.0,1
2026-01-04T1100,3242A,103.9613,35.9985,兰州市,和平,细颗粒物(PM2.5),107,90,72,80,72,32,,49,36,38,20,9,3,1.9,1
2026-01-04T1100,4236A,103.629272,36.093822,兰州市,庄浪东路808号,细颗粒物(PM2.5),83,98,73,61,57,27,,46,36,49,30,18,11,1.2,0.7
2026-01-04T1100,4237A,103.7251,36.104344,兰州市,安宁西路88号,细颗粒物(PM2.5),70,86,80,51,54,25,,54,38,51,28,7,5,1.1,0.6
2026-01-04T1100,4238A,103.846982,36.067567,兰州市,北滨河东路1号,细颗粒物(PM2.5),74,74,75,54,57,27,,26,21,38,36,15,8,2.1,0.9
2026-01-04T1100,1067A,116.6712,39.5109,廊坊市,药材公司,细颗粒物(PM2.5),179,176,117,135,86,8,,3,3,81,68,9,5,1.8,1.2
2026-01-04T1100,1068A,116.7215,39.5592,廊坊市,开发区,细颗粒物(PM2.5),172,178,96,130,63,5,,1,1,83,75,9,4,1.7,1.1
2026-01-04T1100,1070A,116.7246,39.5273,廊坊市,北华航天学院,细颗粒物(PM2.5),179,187,118,135,83,5,,2,2,78,69,11,6,1.8,1.3
2026-01-04T1100,2919A,116.7022,39.5454,廊坊市,河北工业大学,细颗粒物(PM2.5),163,173,119,124,76,5,,2,2,81,72,11,7,1.7,1.2
2026-01-04T1100,2536A,103.7629,29.5844,乐山市,牛耳桥,,36,26,27,25,23,11,,16,13,20,24,8,7,0.6,0.6
2026-01-04T1100,2537A,103.7501,29.6002,乐山市,市第三水厂,,33,28,26,23,22,8,,13,10,26,26,6,6,0.7,0.6
2026-01-04T1100,2538A,103.7571,29.5664,乐山市,市监测站,,35,25,24,24,22,9,,13,10,21,22,5,6,0.7,0.7
2026-01-04T1100,3361A,103.7313,29.563,乐山市,理工大学,,30,25,23,21,19,9,,10,9,20,22,5,4,0.6,0.6
2026-01-04T1100,2599A,100.2497,26.8802,丽江市,丽江古城,,27,27,19,15,8,82,,69,69,9,11,7,7,0.6,0.5
2026-01-04T1100,2600A,100.2203,26.8906,丽江市,市中心,,27,16,10,12,9,86,,78,76,8,11,6,6,0.3,0.3
2026-01-04T1100,1267A,119.9141,28.4513,丽水市,监测站大楼,颗粒物(PM10),55,60,51,35,37,43,,16,16,35,33,7,6,0.6,0.7
2026-01-04T1100,1268A,119.93,28.4589,丽水市,莲都小学,颗粒物(PM10),51,52,67,32,48,52,,17,17,29,41,/,/,/,/
2026-01-04T1100,1269A,119.8794,28.4232,丽水市,余庄前,细颗粒物(PM2.5),62,59,57,44,44,46,,11,11,32,28,5,4,0.4,0.4
2026-01-04T1100,1173A,119.1759,34.5885,连云港市,市环境监测站,细颗粒物(PM2.5),94,80,90,70,74,22,,17,14,56,42,15,12,1.1,1
2026-01-04T1100,3000A,119.3577,34.6971,连云港市,德源药业,细颗粒物(PM2.5),94,112,108,70,72,9,,4,4,68,52,5,4,0.6,0.6
2026-01-04T1100,3007A,119.178,34.8442,连云港市,新城一中,细颗粒物(PM2.5),148,129,112,113,97,18,,10,10,56,44,26,16,1.1,0.9
2026-01-04T1100,3008A,119.3607,34.7519,连云港市,胡沟管理处,细颗粒物(PM2.5),83,83,72,61,59,24,,48,43,64,34,14,10,1.0,1
2026-01-04T1100,3009A,119.1478,34.5913,连云港市,矿山设计院,细颗粒物(PM2.5),83,92,93,61,66,20,,39,26,58,37,12,9,1.2,1
2026-01-04T1100,3434A,119.2414,34.6539,连云港市,工贸学校,细颗粒物(PM2.5),92,86,79,68,67,44,,54,47,30,20,20,13,0.8,0.6
2026-01-04T1100,3664A,119.4171,34.734,连云港市,连云街道,细颗粒物(PM2.5),82,75,68,60,53,46,,63,53,40,21,10,8,0.8,0.7
2026-01-04T1100,2573A,102.2629,27.8981,凉山彝族自治州,西昌市政府,,33,33,27,21,12,42,,49,38,20,13,8,10,0.7,0.6
2026-01-04T1100,2574A,102.2686,27.885,凉山彝族自治州,凉山州政府,,35,35,24,15,15,42,,50,40,18,13,9,12,0.7,0.7
2026-01-04T1100,4229A,102.2342,27.8859,凉山彝族自治州,凯乐南路30号,,35,35,27,14,12,42,,50,41,22,15,6,10,0.6,0.7
2026-01-04T1100,2212A,123.1978,41.2036,辽阳市,宏伟区,细颗粒物(PM2.5),139,146,111,106,93,21,,10,10,45,36,33,20,3.4,1.8
2026-01-04T1100,2213A,123.1684,41.2497,辽阳市,新华园,细颗粒物(PM2.5),132,139,107,100,85,25,,9,9,53,51,32,38,2.7,1.7
2026-01-04T1100,2214A,123.2355,41.2663,辽阳市,滨河路,细颗粒物(PM2.5),98,130,110,73,74,28,,16,16,46,46,24,15,2.1,1.3
2026-01-04T1100,4083A,123.153,41.2874,辽阳市,铁西路150号,细颗粒物(PM2.5),120,137,125,91,87,26,,9,9,47,53,29,34,2.7,2
2026-01-04T1100,2227A,125.1359,42.8845,辽源市,环保局,细颗粒物(PM2.5),153,173,142,117,75,23,,12,12,52,42,8,7,2.2,2
2026-01-04T1100,4085A,125.0998,42.9134,辽源市,安宁大街333号,细颗粒物(PM2.5),124,132,100,94,80,36,,17,17,42,40,13,8,1.2,1.3
2026-01-04T1100,1625A,115.9789,36.4372,聊城市,区政府,细颗粒物(PM2.5),117,121,115,88,90,33,,35,30,42,42,14,12,1.0,1
2026-01-04T1100,3200A,115.9772,36.4986,聊城市,监控中心,细颗粒物(PM2.5),132,112,114,100,100,41,,42,34,34,36,12,11,0.8,0.8
2026-01-04T1100,3513A,116.0443,36.436,聊城市,九州社区,细颗粒物(PM2.5),127,129,123,96,93,42,,34,34,30,32,5,3,0.7,0.7
2026-01-04T1100,4018A,116.0564,36.4609,聊城市,星美广场,细颗粒物(PM2.5),138,140,131,105,97,38,,32,26,31,29,6,4,0.8,0.8
2026-01-04T1100,4113A,116.0091,36.4495,聊城市,利民路,细颗粒物(PM2.5),130,126,122,99,100,37,,32,31,36,38,9,11,0.8,0.7
2026-01-04T1100,2632A,94.3683,29.6373,林芝市,林芝监测站,,19,12,8,8,6,58,,73,64,11,3,4,4,0.3,0.3
2026-01-04T1100,2633A,94.3616,29.6634,林芝市,林芝人民医院,,18,18,11,9,6,50,,67,58,14,3,6,6,0.5,0.3
2026-01-04T1100,2603A,100.0779,23.8981,临沧市,市环保局,,39,,21,27,35,29,,28,26,6,5,5,5,0.5,0.4
2026-01-04T1100,2604A,100.0894,23.882,临沧市,市气象局,,46,46,25,26,18,30,,27,24,11,8,4,5,0.6,0.5
2026-01-04T1100,1733A,111.5552,36.0791,临汾市,临钢医院,细颗粒物(PM2.5),278,293,259,228,196,22,,12,12,33,40,5,6,3.4,3.2
2026-01-04T1100,1734A,111.4984,36.0734,临汾市,技工学校,细颗粒物(PM2.5),273,276,240,223,184,18,,7,7,35,44,6,7,3.7,3.3
2026-01-04T1100,1736A,111.5017,36.0857,临汾市,市委,细颗粒物(PM2.5),275,301,266,225,193,18,,8,8,40,49,8,8,3.4,3.1
2026-01-04T1100,3018A,111.5048,36.1015,临汾市,唐尧大酒店,细颗粒物(PM2.5),267,254,231,217,183,21,,6,6,34,46,3,4,3.2,3.3
2026-01-04T1100,4244A,111.4879,36.053,临汾市,启星学校,细颗粒物(PM2.5),252,234,220,202,166,18,,8,8,44,52,6,5,3.6,3.3
2026-01-04T1100,4271A,103.2464,35.6123,临夏回族自治州,滨河东路1号,细颗粒物(PM2.5),115,117,104,87,76,26,,25,25,27,25,5,5,1.3,1.1
2026-01-04T1100,4310A,103.207136,35.599807,临夏回族自治州,新华街21号,细颗粒物(PM2.5),129,117,82,98,66,28,,26,21,28,22,7,8,1.4,1
2026-01-04T1100,1618A,118.3429,35.0532,临沂市,沂河小区,细颗粒物(PM2.5),221,200,144,171,128,19,,13,7,94,65,20,22,1.6,1.2
2026-01-04T1100,1619A,118.2962,35.0568,临沂市,鲁南制药厂,细颗粒物(PM2.5),242,241,157,192,128,9,,4,4,94,67,39,30,2.4,1.2
2026-01-04T1100,1620A,118.2793,34.9976,临沂市,新光毛纺厂,细颗粒物(PM2.5),225,212,146,175,122,18,,8,8,77,56,36,31,1.7,1.2
2026-01-04T1100,1621A,118.3955,35.0889,临沂市,河东保险公司,细颗粒物(PM2.5),240,263,151,190,113,14,,10,6,103,55,21,14,1.9,1.3
2026-01-04T1100,3370A,118.3563,35.0215,临沂市,十里堡居委,细颗粒物(PM2.5),208,197,151,158,113,23,,8,8,95,68,24,30,1.7,1.3
2026-01-04T1100,3496A,118.359,35.1067,临沂市,南坊新区,细颗粒物(PM2.5),195,183,126,146,103,,,16,5,88,52,18,15,1.7,1.1
2026-01-04T1100,3860A,118.3915,35.0297,临沂市,皇山花园小区,细颗粒物(PM2.5),202,202,143,152,104,32,,16,16,106,66,27,27,1.6,1.2
2026-01-04T1100,1870A,109.4854,24.3898,柳州市,柳东小学,细颗粒物(PM2.5),60,47,54,43,50,21,,17,17,15,14,8,9,0.8,0.7
2026-01-04T1100,1871A,109.4109,24.3304,柳州市,环保监测站,细颗粒物(PM2.5),69,60,60,50,48,17,,16,16,27,20,9,7,0.9,0.6
2026-01-04T1100,1872A,109.3886,24.3408,柳州市,河西水厂,颗粒物(PM10),77,103,67,50,55,13,,17,16,30,22,8,11,0.6,0.6
2026-01-04T1100,1873A,109.4263,24.2951,柳州市,市四中,细颗粒物(PM2.5),59,54,50,42,38,16,,19,17,26,21,13,11,1.0,0.7
2026-01-04T1100,1874A,109.396,24.3658,柳州市,市九中,细颗粒物(PM2.5),63,72,62,45,54,14,,14,14,31,22,12,11,1.1,0.8
2026-01-04T1100,1875A,109.4912,24.3164,柳州市,古亭山,细颗粒物(PM2.5),57,41,49,40,41,23,,18,17,12,15,10,10,0.7,0.7
2026-01-04T1100,3402A,109.5422,24.3994,柳州市,市二中,细颗粒物(PM2.5),78,,44,57,40,20,,18,15,18,16,8,8,0.7,0.6
2026-01-04T1100,2307A,116.5078,31.7369,六安市,监测大楼,细颗粒物(PM2.5),69,63,57,50,50,39,,45,37,30,23,3,3,0.6,0.6
2026-01-04T1100,2308A,116.4738,31.7642,六安市,皖西学院,细颗粒物(PM2.5),88,71,65,65,51,33,,49,36,34,24,4,5,0.6,0.6
2026-01-04T1100,2309A,116.4997,31.7904,六安市,朝阳厂,细颗粒物(PM2.5),75,67,60,55,49,36,,45,35,28,28,5,5,0.6,0.6
2026-01-04T1100,2310A,116.5566,31.7885,六安市,开发区,细颗粒物(PM2.5),85,77,68,63,52,32,,42,29,41,28,1,1,0.5,0.5
2026-01-04T1100,2577A,104.8293,26.592,六盘水市,黄土坡,,21,21,16,8,12,29,,28,28,12,14,10,9,0.9,0.8
2026-01-04T1100,2579A,104.8481,26.5898,六盘水市,民中,,12,12,16,3,11,23,,25,25,14,14,4,4,0.6,0.7
2026-01-04T1100,2580A,104.9541,26.5506,六盘水市,双水,,13,12,10,9,7,30,,29,29,8,11,3,3,0.5,0.4
2026-01-04T1100,4151A,104.8899,26.5685,六盘水市,钟山大道中段564号,,18,18,19,9,10,25,,26,26,13,11,5,5,0.8,0.9
2026-01-04T1100,2336A,117.022,25.1031,龙岩市,龙岩市监测站,颗粒物(PM10),54,58,31,34,21,53,,29,29,25,25,18,22,0.7,0.5
2026-01-04T1100,2337A,117.0257,25.0662,龙岩市,闽西职业技术学院,,47,47,35,28,20,60,,28,28,18,20,13,12,0.7,0.5
2026-01-04T1100,2338A,117.0195,25.0306,龙岩市,龙岩学院,,42,42,29,25,21,51,,30,30,20,15,13,9,/,/
2026-01-04T1100,2885A,104.9344,33.3827,陇南市,滨江中学,细颗粒物(PM2.5),68,72,61,49,34,45,,53,50,30,24,11,8,1.1,1.1
2026-01-04T1100,3247A,104.9551,33.3709,陇南市,市总工会,,,87,67,46,33,,,48,41,24,25,5,4,0.9,0.9
2026-01-04T1100,2488A,111.9984,27.7346,娄底市,市监测站,细颗粒物(PM2.5),52,52,57,36,47,25,,30,27,16,16,4,5,0.7,0.6
2026-01-04T1100,2491A,111.9888,27.7035,娄底市,市政府,细颗粒物(PM2.5),59,,51,42,51,22,,30,26,13,12,5,5,0.6,0.5
2026-01-04T1100,4127A,111.9812,27.7591,娄底市,涟钢职大,颗粒物(PM10),51,51,57,35,45,28,,27,24,19,16,6,4,0.6,0.5
2026-01-04T1100,4128A,112.0303,27.7457,娄底市,娄底体校,细颗粒物(PM2.5),60,54,54,43,47,23,,28,26,14,14,2,2,0.7,0.6
2026-01-04T1100,1894A,105.4427,28.9063,泸州市,小市上码头,,50,50,45,29,29,26,,14,14,16,17,7,7,0.8,0.8
2026-01-04T1100,1895A,105.4241,28.8573,泸州市,兰田宪桥,,43,43,39,28,29,24,,14,14,18,18,7,7,0.9,0.9
2026-01-04T1100,1896A,105.4378,28.8833,泸州市,市环监站,,42,42,40,29,28,25,,16,16,20,21,7,8,0.6,0.6
2026-01-04T1100,4272A,105.3689,28.7783,泸州市,纳溪中医医院,细颗粒物(PM2.5),60,54,45,43,33,27,,17,17,12,17,7,7,0.8,0.8
2026-01-04T1100,2183A,111.1447,37.5212,吕梁市,环保局,颗粒物(PM10),80,110,102,53,44,16,,5,5,41,50,17,13,0.8,0.8
2026-01-04T1100,2185A,111.1285,37.5338,吕梁市,自来水公司,颗粒物(PM10),86,122,120,43,45,15,,4,4,41,48,19,15,1.0,1
2026-01-04T1100,2867A,111.1225,37.5093,吕梁市,马茂庄小学,颗粒物(PM10),94,138,119,47,44,8,,2,2,48,53,17,15,1.0,0.9
2026-01-04T1100,1812A,112.3934,34.6517,洛阳市,市委党校,细颗粒物(PM2.5),104,82,89,78,79,36,,49,42,28,26,10,10,0.9,0.9
2026-01-04T1100,1815A,112.494,34.6883,洛阳市,河南林校,细颗粒物(PM2.5),114,91,96,86,94,31,,45,36,28,27,12,11,1.0,1
2026-01-04T1100,1816A,112.3843,34.623,洛阳市,开发区管委会,细颗粒物(PM2.5),108,81,98,81,87,39,,48,42,21,23,9,9,0.9,0.9
2026-01-04T1100,1817A,112.4263,34.6249,洛阳市,市委新办公区,细颗粒物(PM2.5),107,88,101,80,90,39,,50,44,23,23,10,10,0.9,0.9
2026-01-04T1100,3340A,112.6005,34.6323,洛阳市,伊滨,细颗粒物(PM2.5),109,93,101,82,86,39,,50,44,27,29,8,8,1.0,1
2026-01-04T1100,3341A,112.495,34.6338,洛阳市,中移产业园,细颗粒物(PM2.5),113,,90,85,90,33,,47,39,34,34,10,10,0.9,0.9
2026-01-04T1100,3593A,112.5736,34.8993,洛阳市,吉利监测站,细颗粒物(PM2.5),124,,88,94,95,47,,55,51,24,30,10,8,1.2,1.1
2026-01-04T1100,3635A,112.3678,34.6623,洛阳市,河科大西苑校区,细颗粒物(PM2.5),98,90,94,73,81,36,,47,40,28,27,10,9,0.9,0.9
2026-01-04T1100,3636A,112.4387,34.678,洛阳市,英才小学,细颗粒物(PM2.5),122,93,100,92,94,36,,52,43,38,35,12,11,1.1,1
2026-01-04T1100,4214A,112.460027,34.694929,洛阳市,春都路1号院,细颗粒物(PM2.5),95,106,112,71,79,27,,41,32,24,23,10,11,1.1,1.1
2026-01-04T1100,2399A,114.051,33.5721,漯河市,三五一五工厂,细颗粒物(PM2.5),110,106,116,83,89,44,,31,31,12,22,8,7,1.0,1
2026-01-04T1100,2400A,114.0055,33.5698,漯河市,漯河大学,细颗粒物(PM2.5),94,88,91,70,84,50,,32,32,16,24,7,6,0.8,0.8
2026-01-04T1100,2401A,114.0134,33.5826,漯河市,市水利局,细颗粒物(PM2.5),100,75,91,75,84,42,,32,32,18,22,8,7,0.9,0.9
2026-01-04T1100,2402A,114.0261,33.5697,漯河市,市广电局,细颗粒物(PM2.5),104,78,91,78,87,48,,36,36,11,18,7,7,0.8,0.8
2026-01-04T1100,3478A,113.9691,33.568,漯河市,市图书馆,细颗粒物(PM2.5),105,94,105,79,90,47,,36,36,14,20,6,5,1.0,1
2026-01-04T1100,4250A,114.089259,33.588274,漯河市,韶山路11号,细颗粒物(PM2.5),110,95,107,83,86,38,,29,29,18,22,7,7,0.7,0.7
2026-01-04T1100,1798A,118.5084,31.6838,马鞍山市,湖东路四小,细颗粒物(PM2.5),124,134,91,94,67,16,,22,20,58,42,12,5,1.0,0.8
2026-01-04T1100,1799A,118.5019,31.6449,马鞍山市,开发区,细颗粒物(PM2.5),149,137,99,114,84,17,,19,11,56,41,11,7,1.0,0.7
2026-01-04T1100,3633A,118.4914,31.681,马鞍山市,雨山,细颗粒物(PM2.5),129,134,92,98,72,18,,28,22,59,39,15,8,1.0,0.7
2026-01-04T1100,4191A,118.527362,31.722269,马鞍山市,慈湖高新区,细颗粒物(PM2.5),138,137,98,105,81,7,,15,14,70,42,12,6,0.7,0.6
2026-01-04T1100,1686A,111.0285,21.469,茂名市,电白南海,颗粒物(PM10),56,61,55,27,28,97,,72,67,14,17,10,19,0.4,0.5
2026-01-04T1100,1687A,110.9294,21.6533,茂名市,茂石化七小,,48,48,49,22,24,91,,80,78,17,18,5,7,0.3,0.4
2026-01-04T1100,1688A,110.9108,21.6688,茂名市,健康路,,46,46,43,22,26,102,,89,88,20,20,7,10,0.7,0.7
2026-01-04T1100,1689A,110.8592,21.6826,茂名市,高岭,颗粒物(PM10),59,68,65,24,25,91,,75,64,23,22,16,16,/,/
2026-01-04T1100,3450A,111.0101,21.5165,茂名市,电白水东,颗粒物(PM10),54,58,47,22,25,85,,76,73,14,16,11,24,/,/
2026-01-04T1100,2540A,103.8414,30.0871,眉山市,气象局,,42,42,30,27,17,13,,6,6,22,26,9,8,0.8,0.8
2026-01-04T1100,3148A,103.829,30.0563,眉山市,区人社局,,35,34,27,24,12,7,,5,5,27,25,7,6,1.0,0.8
2026-01-04T1100,4148A,103.8836,30.0695,眉山市,眉职院,,33,32,19,23,9,16,,6,6,15,20,2,1,0.8,0.8
2026-01-04T1100,1690A,116.1248,24.3307,梅州市,梅江月梅,颗粒物(PM10),52,54,37,31,22,48,,13,13,24,28,/,/,/,/
2026-01-04T1100,1691A,116.0798,24.2719,梅州市,梅县新城,细颗粒物(PM2.5),57,60,36,40,28,36,,12,12,34,31,9,8,0.6,0.5
2026-01-04T1100,3315A,116.1234,24.2994,梅州市,梅龙,颗粒物(PM10),51,51,39,34,25,40,,16,16,21,28,10,10,0.6,0.5
2026-01-04T1100,1878A,104.7775,31.4741,绵阳市,富乐山,,46,37,24,32,21,8,,2,2,15,16,11,11,0.9,0.8
2026-01-04T1100,1880A,104.6698,31.4668,绵阳市,高新区自来水公司,颗粒物(PM10),53,55,30,36,25,5,,1,1,28,27,10,8,1.2,0.8
2026-01-04T1100,3491A,104.6899,31.5324,绵阳市,西科大附属小学,,43,42,30,30,23,5,,3,3,19,19,8,8,1.6,1.3
2026-01-04T1100,3492A,104.5647,31.5343,绵阳市,安州区旅游局,,45,42,26,31,24,8,,9,4,17,19,10,10,0.9,0.7
2026-01-04T1100,4146A,104.7092,31.4972,绵阳市,科技城新区公安局,,48,41,27,33,22,4,,10,4,18,20,3,4,0.9,0.8
2026-01-04T1100,4226A,104.765114,31.453094,绵阳市,绵阳市气象局,细颗粒物(PM2.5),54,48,29,38,24,4,,5,4,22,23,9,9,1.1,0.9
2026-01-04T1100,1784A,129.61,44.561,牡丹江市,环保大楼,,45,36,50,31,34,49,,35,35,19,25,11,12,1.0,1
2026-01-04T1100,1787A,129.6364,44.6075,牡丹江市,机车工厂,颗粒物(PM10),54,58,68,24,41,42,,19,19,26,27,5,9,0.6,0.6
2026-01-04T1100,1788A,129.6386,44.5462,牡丹江市,第一中学,,47,47,51,30,36,47,,30,30,14,28,7,7,0.6,0.7
2026-01-04T1100,4287A,129.5992,44.5964,牡丹江市,东晓云街98号,细颗粒物(PM2.5),53,53,55,37,41,48,,23,19,20,27,5,5,0.7,0.8
2026-01-04T1100,2531A,105.0703,29.61,内江市,市监测站,,49,48,42,34,33,23,,32,27,22,16,4,4,0.6,0.5
2026-01-04T1100,2533A,105.0657,29.5807,内江市,内江二中,,46,39,49,32,33,12,,26,20,29,19,4,4,0.9,0.8
2026-01-04T1100,2534A,105.0407,29.5828,内江市,内江日报社,,,,37,29,32,,,26,24,25,21,3,2,0.6,0.5
2026-01-04T1100,4147A,105.0433,29.6105,内江市,玉峰路西段888号,,38,32,42,26,30,25,,33,29,21,14,3,3,0.6,0.6
2026-01-04T1100,2628A,92.0653,31.4846,那曲市,那曲监测站,细颗粒物(PM2.5),69,76,39,50,23,39,,39,38,33,22,21,9,1.5,1.3
2026-01-04T1100,4243A,92.0515,31.4787,那曲市,那曲市委宣传部,细颗粒物(PM2.5),78,76,25,57,12,31,,35,28,32,11,14,5,1.9,0.9
2026-01-04T1100,1291A,115.8887,28.7006,南昌市,省林业公司,细颗粒物(PM2.5),64,,48,46,45,39,,32,32,25,26,4,6,1.1,1
2026-01-04T1100,1292A,115.813,28.7443,南昌市,林科所,,49,39,43,34,35,31,,23,17,34,32,5,6,0.6,0.5
2026-01-04T1100,1294A,115.8518,28.687,南昌市,建工学校,细颗粒物(PM2.5),62,62,56,44,46,39,,35,34,33,33,13,15,0.7,0.6
2026-01-04T1100,1295A,115.8926,28.6425,南昌市,象湖,细颗粒物(PM2.5),64,,50,46,46,41,,23,23,28,32,9,12,0.8,0.9
2026-01-04T1100,3046A,115.9084,28.6062,南昌市,机电学校,细颗粒物(PM2.5),62,54,63,44,48,46,,22,20,25,32,4,7,0.7,0.7
2026-01-04T1100,3690A,115.9718,28.7032,南昌市,外国语学校,细颗粒物(PM2.5),74,59,56,54,48,34,,30,30,33,28,15,13,0.6,0.6
2026-01-04T1100,4106A,115.7923,28.6873,南昌市,工业二路,细颗粒物(PM2.5),59,54,54,42,42,36,,25,21,25,27,6,6,0.5,0.4
2026-01-04T1100,4192A,115.931587,28.686774,南昌市,南京东路235号,细颗粒物(PM2.5),80,,52,59,51,38,,33,33,34,35,6,8,0.3,0.3
2026-01-04T1100,1906A,106.0791,30.8022,南充市,南充市委,,46,,34,32,30,20,,12,12,16,22,4,4,0.7,0.6
2026-01-04T1100,1907A,106.1038,30.8215,南充市,南充炼油厂,细颗粒物(PM2.5),55,46,48,39,38,20,,17,14,17,19,6,6,0.5,0.4
2026-01-04T1100,4227A,106.108336,30.788436,南充市,梨树横街98号,,40,38,35,28,30,19,,28,22,21,21,5,5,0.7,0.6
2026-01-04T1100,4304A,106.1172,30.843,南充市,清泉寺北路188号,,43,,29,30,30,15,,18,12,17,16,6,6,0.8,0.8
2026-01-04T1100,4305A,106.067,30.7616,南充市,同庆路1号,细颗粒物(PM2.5),52,48,38,36,33,11,,12,9,21,22,5,5,0.5,0.6
2026-01-04T1100,1151A,118.8033,32.1085,南京市,迈皋桥,细颗粒物(PM2.5),104,105,72,78,53,34,,31,27,42,35,4,4,1.0,0.9
2026-01-04T1100,1152A,118.7487,32.057,南京市,草场门,细颗粒物(PM2.5),117,114,77,88,58,20,,25,23,56,44,8,7,0.6,0.5
2026-01-04T1100,1154A,118.770105,32.004342,南京市,中华门,细颗粒物(PM2.5),110,110,71,83,57,12,,23,14,59,38,4,4,0.9,0.7
2026-01-04T1100,1155A,118.8059,32.0329,南京市,瑞金路,细颗粒物(PM2.5),122,117,73,92,59,16,,28,26,85,63,4,4,1.0,0.9
2026-01-04T1100,1156A,118.7946,32.0774,南京市,玄武湖,细颗粒物(PM2.5),105,109,72,79,53,22,,27,24,29,23,4,4,0.8,0.6
2026-01-04T1100,1157A,118.6415,32.0964,南京市,浦口,细颗粒物(PM2.5),104,122,80,78,56,14,,30,18,64,46,9,11,0.9,0.9
2026-01-04T1100,1158A,118.730129,32.000956,南京市,奥体中心,细颗粒物(PM2.5),104,118,77,78,59,19,,36,25,79,49,9,7,0.8,0.7
2026-01-04T1100,1159A,118.9072,32.1047,南京市,仙林大学城,细颗粒物(PM2.5),119,110,74,90,55,23,,33,24,48,32,8,7,1.0,0.9
2026-01-04T1100,3422A,118.8443,31.919,南京市,江宁彩虹桥,细颗粒物(PM2.5),117,122,78,88,61,13,,20,15,57,40,6,4,0.7,0.6
2026-01-04T1100,3427A,118.8497,32.3599,南京市,六合雄州,细颗粒物(PM2.5),103,117,73,77,51,15,,10,10,62,47,14,12,0.9,0.7
2026-01-04T1100,4086A,118.7641,32.0841,南京市,新模范马路66号,细颗粒物(PM2.5),124,128,84,94,59,23,,29,22,51,37,7,7,1.2,1
2026-01-04T1100,4249A,118.8707617,31.34017673,南京市,汶溪路181号,细颗粒物(PM2.5),148,119,89,113,86,36,,28,26,44,40,7,6,0.8,0.7
2026-01-04T1100,4312A,119.019,31.6512,南京市,中山西路1号,细颗粒物(PM2.5),129,,76,98,76,14,,20,8,41,34,3,4,0.8,0.7
2026-01-04T1100,1401A,108.3098,22.788,南宁市,二十一中,细颗粒物(PM2.5),79,61,50,58,44,34,,22,22,26,24,7,6,1.0,0.9
2026-01-04T1100,1402A,108.3135,22.8529,南宁市,北湖,细颗粒物(PM2.5),70,63,52,51,44,46,,39,37,26,25,7,6,0.9,0.8
2026-01-04T1100,1403A,108.3205,22.8222,南宁市,市监测站,细颗粒物(PM2.5),63,67,50,45,33,26,,27,24,36,22,10,8,0.8,0.8
2026-01-04T1100,1404A,108.3828,22.8038,南宁市,大自然花园,细颗粒物(PM2.5),74,71,54,54,39,41,,26,26,30,28,9,7,0.9,0.8
2026-01-04T1100,1406A,108.2397,22.8462,南宁市,区农职院,细颗粒物(PM2.5),68,65,52,49,42,36,,30,28,31,28,10,9,0.9,0.8
2026-01-04T1100,1407A,108.3285,22.7356,南宁市,英华嘉园,细颗粒物(PM2.5),88,72,53,65,48,30,,31,27,29,19,6,5,0.8,0.7
2026-01-04T1100,3401A,108.4829,22.762,南宁市,红星社区,细颗粒物(PM2.5),82,76,50,60,41,39,,27,27,20,18,9,6,0.8,0.7
2026-01-04T1100,4132A,108.2927,23.1477,南宁市,起凤路9号,细颗粒物(PM2.5),74,57,46,54,41,9,,14,10,17,14,3,3,0.9,0.8
2026-01-04T1100,4221A,108.2177,22.7774,南宁市,乐贤路16号,颗粒物(PM10),68,85,63,45,37,23,,22,17,30,23,6,5,0.8,0.7
2026-01-04T1100,2332A,118.1682,26.6371,南平市,南平市监测站,,25,23,26,17,19,48,,27,27,13,17,7,5,0.5,0.5
2026-01-04T1100,2334A,118.1757,26.6276,南平市,南平七中,,25,18,25,17,18,46,,30,29,14,15,6,6,0.5,0.5
2026-01-04T1100,1168A,120.9056,31.9669,南通市,狼山街道,细颗粒物(PM2.5),94,91,78,70,62,17,,4,4,51,58,6,6,0.9,1.4
2026-01-04T1100,1170A,120.8635,32.0231,南通市,城中,细颗粒物(PM2.5),77,84,89,56,59,16,,6,6,60,71,8,11,0.7,1.3
2026-01-04T1100,1171A,120.9376,31.9301,南通市,星湖花园,细颗粒物(PM2.5),89,85,75,66,56,23,,13,11,50,58,12,9,1.1,1.6
2026-01-04T1100,1172A,120.8053,32.046,南通市,紫琅学院,细颗粒物(PM2.5),92,112,92,68,60,10,,3,3,65,71,8,10,0.9,1.3
2026-01-04T1100,3291A,121.0631,32.0644,南通市,通州监测站,细颗粒物(PM2.5),79,75,71,58,55,29,,22,17,49,54,5,7,0.8,1
2026-01-04T1100,3432A,120.9348,31.9874,南通市,环境教育馆,细颗粒物(PM2.5),92,88,80,68,61,13,,3,3,64,72,8,8,0.8,1.2
2026-01-04T1100,4091A,120.8692,31.9885,南通市,洪江路,细颗粒物(PM2.5),85,99,85,63,62,16,,5,5,60,74,8,7,0.5,1
2026-01-04T1100,2404A,112.5338,33.0086,南阳市,瓦房庄,细颗粒物(PM2.5),120,92,106,91,102,36,,39,31,17,15,6,6,0.9,0.8
2026-01-04T1100,2405A,112.5002,32.9734,南阳市,汉画馆,细颗粒物(PM2.5),127,99,110,96,101,,,32,26,20,19,6,6,1.0,0.9
2026-01-04T1100,2406A,112.5778,33.0144,南阳市,气象站,细颗粒物(PM2.5),125,107,115,95,95,25,,41,31,26,16,4,5,0.9,0.8
2026-01-04T1100,2407A,112.548,32.9687,南阳市,理工学院,细颗粒物(PM2.5),109,92,100,82,84,28,,40,31,19,16,5,5,1.0,1
2026-01-04T1100,4008A,112.5233,32.9921,南阳市,卧龙区政府,细颗粒物(PM2.5),127,100,122,96,100,26,,37,31,21,16,5,5,0.8,0.8
2026-01-04T1100,1234A,121.8352,29.9111,宁波市,区环保大楼,,42,42,59,22,36,50,,15,15,33,58,6,7,0.7,0.9
2026-01-04T1100,1235A,121.5595,29.8208,宁波市,万里学院,,46,45,71,32,50,47,,16,16,30,52,6,5,0.5,0.6
2026-01-04T1100,1236A,121.713,29.9564,宁波市,龙赛医院,颗粒物(PM10),56,62,78,36,48,40,,14,14,39,55,4,5,0.6,0.7
2026-01-04T1100,1240A,121.5855,29.8635,宁波市,太古小学,,47,47,72,27,41,49,,14,14,29,50,4,4,0.6,0.7
2026-01-04T1100,1241A,121.5239,29.8673,宁波市,市环境监测中心,颗粒物(PM10),55,60,67,34,49,35,,11,11,32,46,7,6,0.7,0.7
2026-01-04T1100,2871A,121.6156,29.9015,宁波市,万里国际学校,颗粒物(PM10),54,57,66,36,50,38,,15,15,45,56,5,5,0.6,0.6
2026-01-04T1100,3710A,121.5593,29.8976,宁波市,白沙活动中心,颗粒物(PM10),52,54,63,34,48,37,,14,14,44,57,6,5,0.8,0.8
2026-01-04T1100,4095A,121.8962,29.7529,宁波市,中科路88号,,32,29,43,22,33,72,,39,39,12,32,5,5,0.6,0.8
2026-01-04T1100,2341A,119.5387,26.6611,宁德市,宁德市监测站,颗粒物(PM10),54,57,28,24,22,48,,44,39,30,19,8,8,0.7,0.6
2026-01-04T1100,3209A,119.5231,26.6562,宁德市,宁德一中,,43,43,29,30,23,48,,51,46,29,14,6,6,0.9,0.7
2026-01-04T1100,2618A,98.859,25.8541,怒江傈僳族自治州,州监测站,,42,37,28,29,21,26,,25,23,15,10,5,6,0.5,0.4
2026-01-04T1100,2619A,98.8607,25.8168,怒江傈僳族自治州,泸水一中,,42,,22,29,17,22,,17,14,14,13,6,6,0.5,0.5
2026-01-04T1100,1888A,101.6891,26.571,攀枝花市,弄弄坪,颗粒物(PM10),68,86,36,47,17,26,,32,23,46,23,70,20,2.3,1.4
2026-01-04T1100,1889A,101.577,26.5914,攀枝花市,河门口,颗粒物(PM10),69,88,38,39,16,22,,15,14,31,22,17,14,1.5,0.7
2026-01-04T1100,1891A,101.7365,26.4986,攀枝花市,仁和,,35,35,26,20,14,41,,36,32,25,17,9,10,0.7,0.7
2026-01-04T1100,2835A,101.7222,26.567,攀枝花市,四十中小,,35,35,31,18,17,26,,25,18,43,24,15,13,1.3,1
2026-01-04T1100,1604A,122.0303,41.1489,盘锦市,开发区,颗粒物(PM10),69,87,81,44,71,29,,7,7,32,34,11,9,0.9,1.3
2026-01-04T1100,1605A,122.0486,41.0883,盘锦市,兴隆台,,,92,69,58,55,21,,5,5,55,53,,10,1.4,1.5
2026-01-04T1100,1606A,121.8297,41.1026,盘锦市,新生街道,细颗粒物(PM2.5),78,92,66,57,51,20,,9,9,54,46,15,9,1.1,0.9
2026-01-04T1100,1832A,113.3257,33.7423,平顶山市,新华旅馆,细颗粒物(PM2.5),87,102,104,64,88,44,,41,41,20,19,7,6,0.7,0.7
2026-01-04T1100,1833A,113.2917,33.737,平顶山市,规划设计院,,,80,115,69,90,,,36,36,26,24,7,6,0.9,0.9
2026-01-04T1100,1834A,113.182,33.7738,平顶山市,平顶山工学院,细颗粒物(PM2.5),85,68,91,63,83,48,,44,44,17,18,7,6,0.5,0.5
2026-01-04T1100,3594A,112.8736,33.9068,平顶山市,石龙区,细颗粒物(PM2.5),90,71,95,67,83,51,,44,44,23,28,7,6,1.0,1
2026-01-04T1100,4116A,113.284,33.7139,平顶山市,姚电大道23号,细颗粒物(PM2.5),98,95,119,73,95,46,,40,40,16,18,10,8,1.0,1
2026-01-04T1100,2656A,106.6633,35.5338,平凉市,聚贤嘉苑,,30,28,57,21,43,69,,66,64,11,13,10,7,0.7,0.8
2026-01-04T1100,2657A,106.7021,35.5307,平凉市,博物馆,,38,35,61,26,48,68,,63,60,15,15,10,9,0.8,0.8
2026-01-04T1100,2348A,113.8384,27.6436,萍乡市,中医院,细颗粒物(PM2.5),85,87,65,63,47,19,,43,34,38,20,4,6,0.9,0.8
2026-01-04T1100,2350A,113.8677,27.6438,萍乡市,市环保局,细颗粒物(PM2.5),77,62,59,56,50,32,,49,41,26,19,13,15,0.4,0.3
2026-01-04T1100,2351A,113.8663,27.6202,萍乡市,安源区政府,细颗粒物(PM2.5),78,73,67,57,50,24,,29,24,23,24,9,12,0.9,0.9
2026-01-04T1100,4107A,113.8686,27.6668,萍乡市,联洪村委会,细颗粒物(PM2.5),85,70,61,63,45,28,,42,36,34,20,6,8,0.7,0.8
2026-01-04T1100,2319A,119.0142,25.4324,莆田市,荔城区仓后路,,46,46,34,9,17,71,,63,56,12,15,/,/,/,/
2026-01-04T1100,2320A,119.0016,25.4553,莆田市,莆田市监测站,,26,24,24,3,12,82,,77,74,4,8,3,3,0.5,0.5
2026-01-04T1100,2321A,119.112,25.4561,莆田市,涵江区六中,,37,37,30,12,17,74,,61,58,14,14,/,/,0.5,0.5
2026-01-04T1100,2322A,119.1014,25.3215,莆田市,秀屿区政府,颗粒物(PM10),51,52,35,11,21,74,,63,61,11,13,2,3,0.5,0.6
2026-01-04T1100,2392A,115.0312,35.7636,濮阳市,环保局,细颗粒物(PM2.5),127,96,81,96,85,18,,33,23,26,22,7,6,1.4,1.5
2026-01-04T1100,3021A,115,35.7667,濮阳市,濮水河管理处,细颗粒物(PM2.5),123,128,111,93,88,21,,36,26,36,34,7,6,1.1,1
2026-01-04T1100,4118A,115.0552,35.7816,濮阳市,中原东路68号,细颗粒物(PM2.5),133,140,126,101,94,22,,36,26,29,24,6,6,1.0,0.9
2026-01-04T1100,4216A,115.0923632,35.76857718,濮阳市,任丘路479号,细颗粒物(PM2.5),138,124,110,105,102,16,,22,16,35,33,6,5,1.0,0.9
2026-01-04T1100,2601A,100.9801,22.7634,普洱市,市环保局,,35,35,43,21,26,33,,19,19,13,13,4,4,0.5,0.5
2026-01-04T1100,2602A,100.9763,22.8237,普洱市,普洱第二中学,,27,27,32,17,19,27,,17,17,16,14,4,5,0.6,0.5
2026-01-04T1100,3345A,131.0413,45.7795,七台河市,中波台,颗粒物(PM10),61,71,53,34,36,62,,40,40,9,19,7,10,0.4,0.6
2026-01-04T1100,3637A,131.0136,45.7688,七台河市,人民广场,颗粒物(PM10),75,99,60,23,42,62,,37,37,12,24,9,10,0.4,0.6
2026-01-04T1100,3684A,130.8639,45.8144,七台河市,新建矿广场,颗粒物(PM10),53,56,51,27,34,59,,35,35,7,14,11,12,0.3,0.5
2026-01-04T1100,1779A,123.9307,47.3641,齐齐哈尔市,安居小区,,27,27,34,3,27,63,,54,54,10,21,7,7,0.5,0.6
2026-01-04T1100,1780A,123.9497,47.3389,齐齐哈尔市,中心广场,,25,20,21,17,15,58,,55,53,12,16,6,7,0.5,0.6
2026-01-04T1100,1781A,123.9483,47.3229,齐齐哈尔市,农牧车辆厂,,38,29,29,26,17,58,,54,53,8,14,4,3,0.3,0.4
2026-01-04T1100,1783A,123.9442,47.2994,齐齐哈尔市,市环境监测站,,21,21,32,12,20,61,,61,56,10,19,7,7,0.5,0.6
2026-01-04T1100,3662A,123.6341,47.2079,齐齐哈尔市,富区青少年活动中心,,29,29,43,9,30,60,,54,53,12,22,6,9,0.5,0.7
2026-01-04T1100,2591A,107.9765,26.5724,黔东南苗族侗族自治州,市环境监测站,细颗粒物(PM2.5),57,45,13,40,12,5,,23,16,28,13,6,5,1.2,0.8
2026-01-04T1100,2881A,107.8909,26.531,黔东南苗族侗族自治州,凯里学院,,16,12,10,11,7,15,,28,22,16,12,4,3,0.8,0.7
2026-01-04T1100,2593A,107.5223,26.2371,黔南布依族苗族自治州,小围寨,,13,9,4,9,4,11,,22,17,8,7,6,5,0.8,0.8
2026-01-04T1100,3538A,107.5175,26.2977,黔南布依族苗族自治州,沙坝,,25,,6,17,6,9,,23,18,14,11,6,4,0.9,0.8
2026-01-04T1100,2589A,104.9022,25.0943,黔西南布依族苗族自治州,场坝街,,32,32,20,10,11,11,,20,20,10,7,6,3,0.7,0.7
2026-01-04T1100,2590A,104.8812,25.0994,黔西南布依族苗族自治州,坪东大道,,15,13,19,10,11,14,,20,20,9,7,5,4,0.6,0.7
2026-01-04T1100,2502A,108.6238,21.9667,钦州市,市环保站,颗粒物(PM10),76,102,80,46,53,42,,30,25,33,28,4,4,0.8,1.1
2026-01-04T1100,2503A,108.655,21.9481,钦州市,沙埠小学,颗粒物(PM10),64,78,68,34,53,74,,28,28,20,28,6,6,0.5,0.7
2026-01-04T1100,2504A,108.5989,21.7435,钦州市,港区一小,颗粒物(PM10),55,60,70,34,43,59,,33,33,34,35,11,9,0.5,0.7
2026-01-04T1100,3404A,108.5959,21.9634,钦州市,北职校,细颗粒物(PM2.5),73,83,69,53,51,43,,16,16,26,24,10,8,0.7,1.1
2026-01-04T1100,1046A,119.5247,39.9346,秦皇岛市,建设大厦,颗粒物(PM10),82,114,81,59,49,10,,6,6,63,47,10,9,1.3,1
2026-01-04T1100,3132A,119.5979,39.938,秦皇岛市,文明里,颗粒物(PM10),88,125,87,41,38,9,,2,2,70,50,14,11,0.8,0.8
2026-01-04T1100,4066A,119.7458,39.9952,秦皇岛市,南园路157号,颗粒物(PM10),67,84,90,46,57,30,,8,8,36,50,12,11,0.9,1.3
2026-01-04T1100,4067A,119.5131,39.8858,秦皇岛市,翠岛大街1号,颗粒物(PM10),62,74,54,40,36,18,,10,10,49,43,13,12,0.9,0.9
2026-01-04T1100,4198A,119.509013,39.825305,秦皇岛市,北戴河轮滑馆,细颗粒物(PM2.5),75,92,69,55,45,15,,6,6,52,49,6,6,1.0,1.6
2026-01-04T1100,1310A,120.404,36.0625,青岛市,市南区东部子站,细颗粒物(PM2.5),138,163,92,105,62,26,,21,18,72,53,22,14,1.4,0.9
2026-01-04T1100,1311A,120.362344,36.10282,青岛市,四方区子站,细颗粒物(PM2.5),185,141,85,139,73,26,,18,16,62,55,18,8,1.4,1
2026-01-04T1100,1312A,120.294373,36.054183,青岛市,市南区西部子站,细颗粒物(PM2.5),165,158,98,125,67,27,,16,16,49,53,8,8,1.3,0.9
2026-01-04T1100,1313A,120.4581,36.0858,青岛市,崂山区子站,细颗粒物(PM2.5),98,110,84,73,58,56,,36,33,41,44,15,14,1.1,1
2026-01-04T1100,1315A,120.3945,36.3083,青岛市,城阳区子站,细颗粒物(PM2.5),199,259,116,149,65,25,,18,14,99,64,19,11,2.4,1.4
2026-01-04T1100,3642A,120.3454,36.0735,青岛市,市北区南部,细颗粒物(PM2.5),163,158,96,124,66,20,,11,11,65,48,14,7,1.3,0.9
2026-01-04T1100,3643A,120.3897,36.18,青岛市,李沧区北部,细颗粒物(PM2.5),206,195,96,156,76,23,,20,14,81,57,17,14,1.7,1.2
2026-01-04T1100,4110A,120.5222,36.4089,青岛市,盟旺路653号,细颗粒物(PM2.5),200,184,114,150,80,35,,15,15,81,69,15,10,1.8,0.9
2026-01-04T1100,4290A,120.196923,35.954556,青岛市,珠江路669号,细颗粒物(PM2.5),158,190,99,120,76,11,,8,8,111,66,26,15,1.2,1
2026-01-04T1100,4291A,120.0424,35.8656,青岛市,黄岛区人民政府广场,细颗粒物(PM2.5),147,144,134,112,97,38,,14,14,60,57,16,11,1.4,1.6
2026-01-04T1100,1703A,113.0218,23.7086,清远市,凤城街办,细颗粒物(PM2.5),58,54,32,41,22,36,,36,33,34,24,/,/,/,/
2026-01-04T1100,3025A,113.0479,23.6343,清远市,技师学院,颗粒物(PM10),52,54,45,32,27,35,,10,10,36,38,21,9,0.7,0.7
2026-01-04T1100,3318A,112.9898,23.7403,清远市,清新太和,细颗粒物(PM2.5),58,56,31,41,20,62,,47,39,26,20,14,6,0.6,0.5
2026-01-04T1100,3455A,113.076,23.72,清远市,清城东城,颗粒物(PM10),52,53,34,35,21,34,,19,18,34,27,/,/,/,/
2026-01-04T1100,2661A,107.6325,35.7357,庆阳市,庆阳五中,,49,39,53,34,50,78,,84,81,12,15,4,4,0.5,0.6
2026-01-04T1100,2662A,107.6361,35.7067,庆阳市,市环保局,,48,47,56,33,46,79,,84,81,9,11,1,1,0.4,0.5
2026-01-04T1100,1916A,103.7897,25.5036,曲靖市,环境监测站,,29,29,22,14,9,67,,43,42,8,11,3,3,0.6,0.6
2026-01-04T1100,1917A,103.8013,25.5357,曲靖市,烟厂办公区,,24,24,21,13,10,68,,45,45,8,10,3,3,0.3,0.3
2026-01-04T1100,3376A,103.7926,25.4651,曲靖市,南苑二区,,23,18,18,12,11,73,,44,44,3,6,4,4,0.4,0.4
2026-01-04T1100,3377A,103.7442,25.5259,曲靖市,曲靖师范学院,,26,26,22,14,13,68,,45,45,7,10,2,4,0.4,0.4
2026-01-04T1100,1264A,118.8694,28.94,衢州市,环保大楼,细颗粒物(PM2.5),98,99,91,73,70,35,,17,17,53,47,/,/,/,/
2026-01-04T1100,1266A,118.8622,28.9809,衢州市,衢州学院,细颗粒物(PM2.5),97,96,78,72,62,40,,13,13,43,41,6,5,0.4,0.4
2026-01-04T1100,4097A,118.9646,28.9832,衢州市,衢州三中,细颗粒物(PM2.5),100,102,96,75,74,31,,12,12,44,42,6,5,0.6,0.5
2026-01-04T1100,1611A,118.5818,24.9116,泉州市,涂山街,,43,43,37,19,23,68,,59,54,15,14,4,3,0.4,0.4
2026-01-04T1100,1612A,118.597,24.8976,泉州市,津头埔,,44,44,37,21,24,67,,59,55,17,17,6,5,0.5,0.5
2026-01-04T1100,1613A,118.6669,24.9422,泉州市,万安,,36,36,37,12,19,72,,60,55,12,16,3,3,0.4,0.4
2026-01-04T1100,4105A,118.6355,24.9148,泉州市,霞新路6号,,24,24,31,15,22,74,,59,57,9,14,/,/,0.3,0.4
2026-01-04T1100,2626A,88.8873,29.2723,日喀则市,日喀则监测站,,42,42,22,18,10,41,,58,44,15,10,8,8,0.6,0.5
2026-01-04T1100,3726A,88.8775,29.2425,日喀则市,林业技术推广中心,颗粒物(PM10),58,66,22,23,7,40,,61,48,11,4,10,11,0.7,0.3
2026-01-04T1100,1659A,119.4711,35.421,日照市,监测站,细颗粒物(PM2.5),143,144,128,109,97,19,,4,4,76,63,19,15,1.4,1.3
2026-01-04T1100,1660A,119.523,35.4216,日照市,市政府广场,细颗粒物(PM2.5),115,110,109,87,86,38,,24,24,57,51,14,13,0.9,0.7
2026-01-04T1100,1661A,119.5511,35.4113,日照市,港务局,细颗粒物(PM2.5),129,114,122,98,94,55,,18,18,38,60,13,12,0.8,0.8
2026-01-04T1100,3507A,119.5326,35.4627,日照市,职业技术学院,细颗粒物(PM2.5),117,124,113,88,75,34,,28,26,62,54,13,11,1.1,1
2026-01-04T1100,3604A,119.3267,35.1043,日照市,岚山环保分局,细颗粒物(PM2.5),233,234,135,183,106,15,,28,21,83,47,46,31,2.1,1.5
2026-01-04T1100,1835A,111.1922,34.7752,三门峡市,市政府,细颗粒物(PM2.5),133,,118,101,135,29,,31,30,27,27,7,8,0.9,1
2026-01-04T1100,1836A,111.1588,34.794,三门峡市,开发区,细颗粒物(PM2.5),139,122,151,106,135,34,,30,30,18,23,4,4,0.9,1
2026-01-04T1100,3039A,111.1911,34.7829,三门峡市,三门峡市第一小学,细颗粒物(PM2.5),123,,124,93,132,30,,29,29,27,26,9,8,0.9,1
2026-01-04T1100,3598A,111.1031,34.719,三门峡市,富达温泉假日酒店,细颗粒物(PM2.5),128,,125,97,122,32,,32,32,36,39,15,13,0.9,1.1
2026-01-04T1100,2324A,117.621,26.2626,三明市,三钢,,36,35,32,25,29,52,,19,19,17,23,7,9,0.7,0.9
2026-01-04T1100,2325A,117.6352,26.2714,三明市,三明二中,,36,28,28,25,22,56,,20,20,14,20,9,10,0.7,0.7
2026-01-04T1100,2326A,117.6028,26.2377,三明市,三元区政府,,46,46,33,19,24,46,,12,12,21,24,11,6,1.1,0.7
2026-01-04T1100,1877A,109.4962,18.2682,三亚市,河西子站,,34,34,36,15,17,90,,86,86,8,8,4,4,0.4,0.5
2026-01-04T1100,3540A,109.7348,18.3443,三亚市,君悦子站,,42,42,37,14,15,82,,68,67,7,9,5,5,0.5,0.5
2026-01-04T1100,4135A,109.1714,18.3739,三亚市,城东小学站,,33,33,30,12,17,83,,66,65,5,8,/,/,/,/
2026-01-04T1100,2624A,91.7592,29.234,山南市,山南监测站,,24,24,19,10,7,56,,71,63,14,4,4,4,0.3,0.2
2026-01-04T1100,2625A,91.7701,29.2436,山南市,山南人民医院,,28,28,20,12,7,57,,74,67,13,5,2,2,0.3,0.3
2026-01-04T1100,1674A,116.6795,23.3666,汕头市,金平子站,,,,42,,31,,,110,56,,19,,8,,0.7
2026-01-04T1100,1675A,116.7248,23.3632,汕头市,龙湖子站,颗粒物(PM10),53,56,38,23,21,74,,64,59,22,15,14,11,/,/
2026-01-04T1100,1676A,116.7257,23.2774,汕头市,濠江子站,,50,50,37,22,25,77,,67,63,17,15,10,8,/,/
2026-01-04T1100,1677A,116.7518,23.4712,汕头市,澄海子站,颗粒物(PM10),52,53,46,26,32,79,,60,55,21,18,8,9,0.7,0.7
2026-01-04T1100,1678A,116.6088,23.2539,汕头市,潮阳子站,颗粒物(PM10),56,61,40,37,24,73,,66,57,30,17,13,8,0.8,0.5
2026-01-04T1100,3444A,116.4539,23.2684,汕头市,潮南峡山,颗粒物(PM10),59,67,50,41,31,84,,63,59,22,17,15,11,0.6,0.6
2026-01-04T1100,3624A,116.4069,23.2533,汕头市,潮南子站,颗粒物(PM10),60,70,61,40,34,80,,59,54,21,18,11,9,/,/
2026-01-04T1100,1693A,115.3653,22.7751,汕尾市,市环保局,,32,32,40,19,28,81,,83,78,13,16,7,7,0.5,0.5
2026-01-04T1100,1695A,115.362,22.7926,汕尾市,新城中学,,48,48,40,17,28,60,,64,60,12,13,5,6,0.4,0.4
2026-01-04T1100,2645A,109.9155,33.8714,商洛市,监测站,细颗粒物(PM2.5),57,45,51,40,47,84,,73,73,14,22,4,5,0.5,0.6
2026-01-04T1100,3045A,109.9647,33.8486,商洛市,商州区中学,细颗粒物(PM2.5),67,50,50,48,51,85,,74,74,8,18,4,5,0.6,0.7
2026-01-04T1100,2408A,115.6701,34.4283,商丘市,环境监测站,细颗粒物(PM2.5),98,90,71,73,68,49,,54,47,17,16,1,2,0.4,0.4
2026-01-04T1100,2409A,115.6458,34.4047,商丘市,粮食局,细颗粒物(PM2.5),102,79,66,76,67,44,,47,41,18,18,4,4,0.6,0.6
2026-01-04T1100,3171A,115.6069,34.4465,商丘市,梁园区档案局,细颗粒物(PM2.5),100,89,63,75,64,37,,40,36,19,17,2,3,0.6,0.6
2026-01-04T1100,4119A,115.6701,34.3767,商丘市,北海东路185号,细颗粒物(PM2.5),102,98,88,76,69,44,,28,28,15,28,2,2,0.6,0.5
2026-01-04T1100,4120A,115.6172,34.3704,商丘市,中山大街3号,细颗粒物(PM2.5),108,109,96,81,75,43,,32,31,19,27,3,3,0.4,0.5
2026-01-04T1100,1141A,121.401,31.2382,上海市,普陀,细颗粒物(PM2.5),59,58,64,42,47,46,,23,23,51,65,8,8,0.6,0.7
2026-01-04T1100,1142A,121.4774,31.2043,上海市,十五厂,颗粒物(PM10),54,58,65,35,43,41,,21,21,53,67,9,8,0.7,0.9
2026-01-04T1100,1143A,121.4673,31.3011,上海市,虹口,颗粒物(PM10),64,78,75,43,43,28,,12,12,53,65,13,12,0.5,0.6
2026-01-04T1100,1147A,121.4253,31.226,上海市,静安监测站,细颗粒物(PM2.5),58,55,63,41,44,48,,34,34,48,59,8,9,0.5,0.6
2026-01-04T1100,1148A,121.7029,31.1905,上海市,浦东川沙,,50,50,69,24,41,60,,18,18,29,65,9,9,0.6,0.9
2026-01-04T1100,1149A,121.5339,31.229,上海市,浦东新区监测站,,47,47,62,32,42,56,,26,25,41,61,8,8,0.6,0.8
2026-01-04T1100,1150A,121.5776,31.2038,上海市,浦东张江,颗粒物(PM10),51,52,65,31,40,55,,22,22,37,58,8,8,0.6,0.8
2026-01-04T1100,3265A,121.4242,31.3303,上海市,宝山庙行,细颗粒物(PM2.5),64,72,72,46,48,23,,10,10,69,75,8,8,0.7,0.8
2026-01-04T1100,3266A,121.8789,31.4662,上海市,崇明上实东滩,,23,22,44,16,32,58,,31,31,22,28,6,7,0.0,0.3
2026-01-04T1100,3268A,121.316,31.2839,上海市,嘉定南翔,颗粒物(PM10),60,70,70,41,51,10,,4,4,75,67,6,6,0.8,0.8
2026-01-04T1100,3269A,121.3357,30.7455,上海市,金山新城,,43,,46,30,47,76,,64,64,21,34,10,11,0.9,0.9
2026-01-04T1100,3270A,121.4996,31.0741,上海市,闵行浦江,细颗粒物(PM2.5),55,55,66,39,46,44,,15,15,43,60,8,8,0.4,0.5
