timepoint,stationcode,longitude,latitude,area,positionname,primarypollutant,aqi,pm10,pm10_24h,pm2_5,pm2_5_24h,o3,o3_24h,o3_8h,o3_8h_24h,no2,no2_24h,so2,so2_24h,co,co_24h
2026-01-04T0800,2568A,102.2503,31.8896,阿坝藏族羌族自治州,马师校,,20,18,25,14,16,44,,62,62,11,17,4,4,0.6,0.6
2026-01-04T0800,3994A,102.2174,31.9016,阿坝藏族羌族自治州,马尔康中学西区,,25,,15,17,10,52,,62,62,9,13,6,5,0.5,0.6
2026-01-04T0800,2695A,80.2899,41.1684,阿克苏地区,电视台,颗粒物(PM10),64,77,72,34,44,13,,19,19,36,32,4,5,0.7,0.8
2026-01-04T0800,2696A,80.2592,41.1541,阿克苏地区,艺术中心,细颗粒物(PM2.5),58,54,64,41,50,26,,28,28,15,23,3,4,0.6,0.7
2026-01-04T0800,2205A,105.699,38.8409,阿拉善盟,蒙二幼,,20,20,55,10,46,56,,63,63,29,19,10,11,0.7,0.8
2026-01-04T0800,2206A,105.7198,38.8508,阿拉善盟,环保局新楼,,23,7,49,3,40,71,,72,72,8,14,10,11,0.6,0.8
2026-01-04T0800,2708A,88.1266,47.8515,阿勒泰地区,市站,,25,6,14,3,5,80,,68,68,4,32,2,9,0.4,0.4
2026-01-04T0800,4166A,88.1198,47.7931,阿勒泰地区,阿勒泰路33号,,26,6,15,3,4,82,,76,76,7,27,6,6,0.2,0.4
2026-01-04T0800,2630A,80.1171,32.4999,阿里地区,阿里监测站,,19,,2,3,2,60,,49,49,6,10,20,11,0.4,0.5
2026-01-04T0800,3192A,80.0906,32.5029,阿里地区,阿里藏医院,,19,14,13,6,7,58,,62,62,8,7,13,12,0.6,0.5
2026-01-04T0800,2644A,109.0088,32.6974,安康市,汉滨区检察院,细颗粒物(PM2.5),69,52,53,50,52,4,,14,14,26,25,9,8,0.9,0.8
2026-01-04T0800,4054A,109.0324,32.6913,安康市,市邮政管理局,细颗粒物(PM2.5),73,59,58,53,51,5,,11,11,27,26,6,5,0.9,0.8
2026-01-04T0800,2291A,117.0806,30.5181,安庆市,环科院,细颗粒物(PM2.5),98,85,71,73,57,13,,34,34,43,24,6,7,0.8,0.6
2026-01-04T0800,2292A,117.0331,30.5118,安庆市,马山宾馆,细颗粒物(PM2.5),95,89,71,71,55,13,,34,34,46,27,6,7,0.8,0.6
2026-01-04T0800,2294A,116.9897,30.6146,安庆市,安庆大学,细颗粒物(PM2.5),92,81,66,68,56,20,,23,23,33,38,4,5,0.8,0.7
2026-01-04T0800,3173A,117.0598,30.5351,安庆市,市人大,细颗粒物(PM2.5),100,86,72,75,58,13,,31,31,46,32,8,8,0.7,0.6
2026-01-04T0800,3123A,105.9408,26.2431,安顺市,凤凰山,,11,8,11,6,7,34,,28,28,12,13,9,11,0.9,0.9
2026-01-04T0800,3124A,105.9443,26.2567,安顺市,金钟山,,12,7,11,7,8,36,,31,31,8,10,9,12,0.8,0.8
2026-01-04T0800,3125A,105.8983,26.248,安顺市,娄家坡,,13,13,16,9,13,28,,28,28,14,13,27,18,0.9,0.8
2026-01-04T0800,1819A,114.3552,36.1017,安阳市,红庙街,细颗粒物(PM2.5),149,,127,114,124,11,,6,6,31,39,3,5,0.9,1.1
2026-01-04T0800,1820A,114.361,36.0681,安阳市,银杏小区,细颗粒物(PM2.5),172,,128,130,135,9,,6,6,32,38,3,4,0.9,0.9
2026-01-04T0800,3141A,114.3921,36.0879,安阳市,信访局,细颗粒物(PM2.5),162,124,131,123,128,15,,11,11,29,35,3,3,0.9,1
2026-01-04T0800,3669A,114.4706,36.0634,安阳市,左辅环卫站,细颗粒物(PM2.5),159,133,145,121,133,16,,20,20,22,25,2,4,0.8,0.9
2026-01-04T0800,4117A,114.2918,36.0769,安阳市,钢三路198号,细颗粒物(PM2.5),182,158,169,137,140,6,,7,7,32,41,3,5,0.9,1.1
2026-01-04T0800,1748A,123.0441,41.1201,鞍山市,深沟寺,,39,39,66,24,47,28,,22,22,26,42,8,14,1.8,1.7
2026-01-04T0800,1749A,123.011,41.0931,鞍山市,太阳城,颗粒物(PM10),51,52,69,34,48,39,,23,23,25,48,18,28,2.3,2.7
2026-01-04T0800,1750A,123.0483,41.1445,鞍山市,太平,,46,46,82,27,50,13,,19,19,46,48,12,18,1.9,1.6
2026-01-04T0800,1751A,122.964,41.0968,鞍山市,铁西三道街,细颗粒物(PM2.5),80,108,112,59,64,14,,12,12,64,55,17,24,3.5,2.6
2026-01-04T0800,1753A,123.0219,41.0822,鞍山市,明达新区,,44,44,76,28,53,23,,14,14,24,33,15,26,2.3,2.7
2026-01-04T0800,4201A,122.944647,41.082639,鞍山市,兴盛南路290号,颗粒物(PM10),105,159,136,57,77,2,,2,2,98,64,17,24,3.3,2.4
2026-01-04T0800,2195A,107.4206,40.7609,巴彦淖尔市,附二中,细颗粒物(PM2.5),74,77,94,54,51,6,,13,13,46,43,7,14,0.9,0.8
2026-01-04T0800,2196A,107.37,40.7372,巴彦淖尔市,市环保大楼,颗粒物(PM10),62,74,87,36,43,12,,3,3,37,47,4,11,0.7,0.9
2026-01-04T0800,1956A,86.1476,41.7529,巴音郭楞蒙古自治州,孔雀公园,颗粒物(PM10),73,95,138,30,29,2,,14,14,61,28,6,6,0.4,0.5
2026-01-04T0800,1957A,86.1971,41.7166,巴音郭楞蒙古自治州,棉纺厂,颗粒物(PM10),85,120,140,26,22,12,,22,22,38,22,/,/,/,/
2026-01-04T0800,1958A,86.236,41.7172,巴音郭楞蒙古自治州,经济开发区,颗粒物(PM10),67,84,104,19,18,22,,21,21,20,19,5,4,0.5,0.5
2026-01-04T0800,3181A,106.776805,31.852614,巴中市,市五中,细颗粒物(PM2.5),62,53,53,44,43,3,,7,7,20,18,5,5,1.0,0.9
2026-01-04T0800,3183A,106.7419,31.8654,巴中市,圣泉水务公司,细颗粒物(PM2.5),59,45,41,42,38,6,,6,6,23,22,5,5,0.7,0.6
2026-01-04T0800,3616A,106.7617,31.8343,巴中市,市中心医院,细颗粒物(PM2.5),62,49,44,44,39,10,,10,10,16,19,7,6,1.0,0.9
2026-01-04T0800,2235A,122.7909,45.608,白城市,洮北区环保局,,35,27,41,24,41,28,,41,41,40,28,5,6,0.5,0.5
2026-01-04T0800,2236A,122.8741,45.5725,白城市,市环保局,细颗粒物(PM2.5),73,53,34,53,30,17,,43,43,47,30,10,7,0.5,0.4
2026-01-04T0800,2231A,126.4219,41.9172,白山市,喜丰,细颗粒物(PM2.5),77,93,75,56,42,13,,11,11,42,39,15,15,1.4,1.2
2026-01-04T0800,2232A,126.4082,41.9416,白山市,环保局,细颗粒物(PM2.5),65,76,69,47,49,7,,6,6,38,37,12,12,1.9,1.6
2026-01-04T0800,2647A,104.1727,36.5448,白银市,第三小学,"颗粒物(PM10),细颗粒物(PM2.5)",55,60,49,39,45,24,,46,46,36,17,2,3,1.0,0.7
2026-01-04T0800,2648A,104.1467,36.5482,白银市,动力公司,细颗粒物(PM2.5),57,,47,40,46,34,,44,44,17,12,1,3,0.7,0.6
2026-01-04T0800,2512A,106.6102,23.901,百色市,市监测站,,49,48,43,34,28,14,,25,25,25,15,17,12,0.9,0.7
2026-01-04T0800,2513A,106.6524,23.8842,百色市,市中心血站,细颗粒物(PM2.5),57,48,45,40,37,8,,26,26,32,19,10,11,0.8,0.7
2026-01-04T0800,4133A,106.6273,23.8798,百色市,龙景西路,细颗粒物(PM2.5),90,,55,67,50,5,,19,19,26,13,21,14,0.8,0.6
2026-01-04T0800,2270A,117.396,32.9389,蚌埠市,工人疗养院,细颗粒物(PM2.5),80,89,87,59,60,18,,10,10,45,33,9,6,0.8,0.5
2026-01-04T0800,2271A,117.3606,32.9428,蚌埠市,百货大楼,细颗粒物(PM2.5),79,69,64,58,52,15,,8,8,54,39,8,6,0.8,0.6
2026-01-04T0800,2273A,117.4183,32.8909,蚌埠市,蚌埠学院,细颗粒物(PM2.5),75,75,61,55,50,17,,21,21,38,30,4,4,0.6,0.4
2026-01-04T0800,2274A,117.3534,32.9672,蚌埠市,淮上区政府,细颗粒物(PM2.5),94,92,74,70,60,2,,6,6,65,39,5,3,0.9,0.6
2026-01-04T0800,2275A,117.3143,32.8977,蚌埠市,高新区,细颗粒物(PM2.5),77,70,68,56,56,21,,25,25,35,29,7,7,0.7,0.4
2026-01-04T0800,3715A,117.3091,32.9314,蚌埠市,蚌埠田家炳中学,细颗粒物(PM2.5),84,81,75,62,59,12,,20,20,51,35,15,9,0.8,0.5
2026-01-04T0800,1585A,109.8761,40.6533,包头市,市环境监测站,,41,41,164,3,99,48,,51,51,18,61,8,34,0.2,2.8
2026-01-04T0800,1587A,109.9992,40.5843,包头市,包头八中,,40,40,135,10,87,34,,40,40,32,59,3,23,0.4,2.1
2026-01-04T0800,1589A,109.8641,40.6288,包头市,惠龙物流,,29,29,128,9,74,53,,53,53,15,53,12,34,0.3,2.2
2026-01-04T0800,1590A,110.0376,40.5546,包头市,东河鸿龙湾,,27,27,102,9,64,32,,33,33,48,69,6,20,0.5,1.6
2026-01-04T0800,3283A,109.9154,40.5684,包头市,滨河大厦,,18,18,93,3,62,45,,41,41,15,44,4,17,0.5,1.7
2026-01-04T0800,3419A,109.9449,40.6259,包头市,包头市委党校,,37,37,132,8,86,38,,46,46,22,58,8,31,0.5,2.4
2026-01-04T0800,3683A,109.8332,40.6577,包头市,昆区政府,,44,44,158,11,81,48,,48,48,17,60,15,42,0.5,2.9
2026-01-04T0800,1931A,107.0802,34.3129,宝鸡市,竹园沟,细颗粒物(PM2.5),58,41,50,41,57,37,,52,52,12,11,5,6,0.5,0.6
2026-01-04T0800,1933A,107.1429,34.3549,宝鸡市,监测站,细颗粒物(PM2.5),77,59,63,56,68,25,,43,43,28,22,4,4,0.8,0.8
2026-01-04T0800,1934A,107.1172,34.3759,宝鸡市,技工学校,细颗粒物(PM2.5),83,,61,61,71,16,,40,40,38,15,6,3,0.9,0.8
2026-01-04T0800,1936A,107.2025,34.3518,宝鸡市,文理学院,细颗粒物(PM2.5),77,63,64,56,70,28,,46,46,28,22,4,4,0.6,0.6
2026-01-04T0800,1937A,107.2396,34.3626,宝鸡市,三迪小学,细颗粒物(PM2.5),85,,63,63,74,19,,42,42,35,24,3,3,0.8,0.8
2026-01-04T0800,4155A,107.1721,34.3558,宝鸡市,滨河北路,细颗粒物(PM2.5),69,55,69,50,62,44,,51,51,20,22,5,5,0.8,0.8
2026-01-04T0800,4308A,107.3898,34.3601,宝鸡市,陈仓区北开路21号,细颗粒物(PM2.5),89,73,75,66,81,61,,66,66,25,25,85,10,0.9,0.7
2026-01-04T0800,1051A,115.4803,38.8568,保定市,游泳馆,细颗粒物(PM2.5),202,167,157,152,134,4,,4,4,73,76,10,12,1.5,1.6
2026-01-04T0800,1052A,115.509,38.8895,保定市,华电二区,细颗粒物(PM2.5),159,129,140,121,130,3,,2,2,52,59,5,8,1.8,1.8
2026-01-04T0800,1053A,115.4588,38.9037,保定市,接待中心,细颗粒物(PM2.5),156,140,149,119,122,2,,2,2,62,61,6,5,1.3,1.3
2026-01-04T0800,1054A,115.4484,38.8344,保定市,地表水厂,细颗粒物(PM2.5),192,193,184,144,137,8,,7,7,75,73,7,8,1.6,1.6
2026-01-04T0800,3581A,115.3136,38.9511,保定市,满城区生态环境分局,细颗粒物(PM2.5),170,190,176,129,130,1,,1,1,75,75,8,9,1.9,1.8
2026-01-04T0800,3582A,115.4709,38.7628,保定市,清苑区第二中学,细颗粒物(PM2.5),223,238,209,173,142,2,,2,2,81,76,10,11,1.7,1.5
2026-01-04T0800,3583A,115.6231,39.0223,保定市,徐水物探局,细颗粒物(PM2.5),145,174,200,111,135,3,,4,4,62,72,13,12,1.5,1.5
2026-01-04T0800,4004A,115.4199,38.8665,保定市,双鹰农机,细颗粒物(PM2.5),149,197,196,114,120,10,,10,10,69,61,11,11,1.4,1.4
2026-01-04T0800,4034A,115.515,38.8589,保定市,植保所站,细颗粒物(PM2.5),202,166,160,152,141,0,,0,0,85,87,2,6,1.5,1.5
2026-01-04T0800,2594A,99.1589,25.1137,保山市,市环境监测站,,15,15,14,3,16,10,,20,20,10,7,7,8,0.6,0.4
2026-01-04T0800,2595A,99.1616,25.1381,保山市,市环保局,,23,20,16,16,15,22,,31,31,5,4,4,4,0.3,0.4
2026-01-04T0800,1867A,109.1435,21.4085,北海市,海滩公园,,39,39,38,27,21,79,,83,83,18,15,12,9,0.3,0.5
2026-01-04T0800,1868A,109.0983,21.466,北海市,新市环保局,细颗粒物(PM2.5),52,45,38,36,27,70,,83,83,24,17,10,6,0.7,0.7
2026-01-04T0800,1869A,109.1775,21.5232,北海市,北海工业园,细颗粒物(PM2.5),59,63,47,42,30,55,,61,61,23,16,23,11,0.6,0.7
2026-01-04T0800,3400A,109.1844,21.4396,北海市,龙潭自来水厂,细颗粒物(PM2.5),58,51,39,41,28,67,,65,65,20,14,11,8,0.7,0.6
2026-01-04T0800,1001A,116.3611,39.8786,北京市,万寿西宫,,48,48,75,26,45,6,,4,4,52,65,2,4,0.6,0.7
2026-01-04T0800,1003A,116.4174,39.9289,北京市,东四,,44,44,68,24,38,6,,4,4,48,49,3,4,0.8,1
2026-01-04T0800,1004A,116.4073,39.8858,北京市,天坛,,47,47,64,29,40,3,,3,3,50,54,1,3,0.7,0.8
2026-01-04T0800,1005A,116.4622,39.9364,北京市,农展馆,,47,47,64,29,38,2,,2,2,46,47,4,5,0.7,0.8
2026-01-04T0800,1006A,116.3399,39.9293,北京市,官园,颗粒物(PM10),59,67,77,38,46,1,,1,1,62,58,6,6,0.8,0.8
2026-01-04T0800,1007A,116.2879,39.9613,北京市,海淀万柳,颗粒物(PM10),57,64,69,34,38,1,,1,1,58,60,4,4,0.9,0.8
2026-01-04T0800,1008A,116.6635,40.1349,北京市,顺义新城,,48,48,59,24,31,4,,2,2,44,41,5,5,0.7,0.7
2026-01-04T0800,1009A,116.6275,40.327,北京市,怀柔镇,,40,40,38,24,22,15,,16,16,28,28,6,6,0.7,0.6
2026-01-04T0800,1010A,116.2295,40.217,北京市,昌平镇,颗粒物(PM10),54,58,54,35,28,1,,5,5,47,45,4,5,1.0,0.8
2026-01-04T0800,1011A,116.3968,39.982,北京市,奥体中心,,50,50,65,29,39,2,,0,0,64,67,5,6,0.8,1
2026-01-04T0800,3418A,116.8336,40.4095,北京市,密云新城,,25,25,42,14,23,34,,25,25,18,28,3,3,0.5,0.6
2026-01-04T0800,3671A,116.0879,39.9725,北京市,门头沟三家店,颗粒物(PM10),51,52,68,25,34,5,,3,3,36,41,3,4,0.7,0.7
2026-01-04T0800,3672A,116.1507,39.8246,北京市,丰台云岗,颗粒物(PM10),59,67,82,37,45,5,,4,4,52,55,4,4,0.6,0.7
2026-01-04T0800,3674A,115.9578,39.7602,北京市,房山燕山,颗粒物(PM10),59,68,69,41,41,5,,9,9,44,36,5,4,0.9,0.6
2026-01-04T0800,3675A,116.4669,39.7734,北京市,大兴旧宫,颗粒物(PM10),82,113,70,58,33,2,,1,1,67,52,4,3,1.2,0.8
2026-01-04T0800,3694A,115.9859,40.4562,北京市,延庆石河营,细颗粒物(PM2.5),62,63,55,44,34,3,,3,3,28,33,3,4,1.4,1.1
2026-01-04T0800,3695A,116.6151,40.3052,北京市,怀柔新城,,37,37,37,25,22,17,,18,18,19,22,4,4,0.4,0.4
2026-01-04T0800,3696A,116.2542,39.8764,北京市,丰台小屯,颗粒物(PM10),70,90,96,44,49,2,,2,2,68,67,4,5,1.1,1
2026-01-04T0800,3697A,116.8399,40.3843,北京市,密云镇,,43,43,49,23,29,3,,2,2,44,37,2,2,0.8,0.6
2026-01-04T0800,4057A,115.9423,40.4431,北京市,延庆百泉,细颗粒物(PM2.5),68,73,53,49,36,0,,0,0,32,36,1,3,1.1,0.9
2026-01-04T0800,4058A,116.6598,39.9164,北京市,通州新华,细颗粒物(PM2.5),73,90,79,53,40,1,,1,1,63,60,4,4,0.9,0.7
2026-01-04T0800,4182A,116.1942,39.9158,北京市,石景山八角,颗粒物(PM10),58,65,81,37,43,4,,4,4,54,59,2,4,0.7,0.6
2026-01-04T0800,4194A,117.078628,40.151726,北京市,平谷新城,细颗粒物(PM2.5),55,55,84,39,57,4,,4,4,44,47,2,3,0.8,0.9
2026-01-04T0800,1761A,123.8274146,41.31234549,本溪市,大峪,颗粒物(PM10),64,77,90,38,54,5,,3,3,45,42,8,16,2.0,2.3
2026-01-04T0800,1763A,123.7169,41.3094,本溪市,彩屯,细颗粒物(PM2.5),196,188,122,147,87,2,,2,2,59,49,11,17,6.6,2.9
2026-01-04T0800,1764A,123.7672166,41.28649327,本溪市,东明,"颗粒物(PM10),细颗粒物(PM2.5)",69,87,102,50,68,4,,3,3,47,49,8,16,2.5,3.2
2026-01-04T0800,1765A,123.799345,41.266614,本溪市,新立屯,,35,25,63,24,43,4,,4,4,45,47,8,17,1.5,3
2026-01-04T0800,1766A,123.829144,41.336777,本溪市,威宁,细颗粒物(PM2.5),82,108,111,60,68,7,,6,6,42,47,6,11,2.2,2
2026-01-04T0800,2587A,105.287,27.3133,毕节市,八中,,9,8,14,3,10,25,,33,33,10,12,9,9,0.9,0.8
2026-01-04T0800,2588A,105.3079,27.2987,毕节市,师专,,9,6,11,3,8,27,,33,33,8,11,7,7,0.9,0.8
2026-01-04T0800,4263A,105.3688,27.3598,毕节市,工业大道,,8,6,11,3,10,24,,27,27,7,9,10,9,/,/
2026-01-04T0800,1629A,117.9961,37.3604,滨州市,第二水厂,细颗粒物(PM2.5),159,188,153,121,98,2,,1,1,73,54,22,15,1.5,1.1
2026-01-04T0800,1630A,117.9789,37.3931,滨州市,北中新校,细颗粒物(PM2.5),199,190,149,149,118,0,,4,4,69,50,14,10,1.4,1.1
2026-01-04T0800,3514A,117.9379,37.3959,滨州市,中海酒店,细颗粒物(PM2.5),203,175,144,153,123,15,,13,13,57,51,12,10,1.0,1.3
2026-01-04T0800,3515A,117.9381509,37.35547456,滨州市,开发区一中,细颗粒物(PM2.5),211,183,145,161,124,3,,5,5,65,43,26,15,1.4,1
2026-01-04T0800,3516A,118.0914,37.6938,滨州市,金海六路,细颗粒物(PM2.5),201,205,167,151,131,4,,4,4,75,62,11,16,1.7,1.4
2026-01-04T0800,4028A,117.9955,37.3752,滨州市,滨州市西街道办事处,细颗粒物(PM2.5),211,207,159,161,133,2,,1,1,63,48,18,13,1.8,1.4
2026-01-04T0800,2311A,115.8071,33.8399,亳州市,污水处理厂,细颗粒物(PM2.5),97,93,69,72,59,16,,24,24,51,31,6,5,0.6,0.4
2026-01-04T0800,2312A,115.7789,33.8519,亳州市,三国揽胜宫,细颗粒物(PM2.5),85,92,73,63,51,23,,32,32,30,21,5,3,0.6,0.5
2026-01-04T0800,3332A,115.7631,33.803,亳州市,亳州学院,细颗粒物(PM2.5),93,86,71,69,57,20,,41,41,38,21,4,4,0.5,0.4
2026-01-04T0800,2693A,82.0482,44.8553,博尔塔拉蒙古自治州,市党校,细颗粒物(PM2.5),72,92,90,52,46,29,,35,35,23,23,2,4,1.1,1.1
2026-01-04T0800,2694A,82.0805,44.8966,博尔塔拉蒙古自治州,市环保局,颗粒物(PM10),94,137,102,65,48,15,,24,24,43,31,8,8,1.0,1
2026-01-04T0800,1071A,116.8733,38.2922,沧州市,沧县城建局,细颗粒物(PM2.5),237,222,166,187,152,8,,8,8,75,55,11,4,2.1,1.3
2026-01-04T0800,1072A,116.8462,38.3189,沧州市,电视转播站,细颗粒物(PM2.5),243,219,160,193,141,0,,4,4,57,48,6,9,1.5,1
2026-01-04T0800,1073A,116.8588,38.3161,沧州市,市环保局,细颗粒物(PM2.5),229,199,160,179,143,6,,8,8,65,44,8,7,1.6,1
2026-01-04T0800,3324A,116.8011,38.294,沧州市,河北水利电力学院,细颗粒物(PM2.5),203,202,177,153,129,3,,6,6,66,53,12,10,1.5,1.1
2026-01-04T0800,2622A,97.1813,31.1289,昌都市,昌都监测站,,24,24,30,3,10,62,,60,60,2,10,1,2,0.2,0.3
2026-01-04T0800,3719A,97.1707,31.1428,昌都市,昌都会议中心,,18,9,12,8,7,55,,62,62,2,2,2,2,0.4,0.4
2026-01-04T0800,2692A,87.2722,44.0298,昌吉回族自治州,新区政务中心,细颗粒物(PM2.5),68,83,114,49,74,5,,4,4,54,53,6,7,1.0,1.2
2026-01-04T0800,3613A,87.3069,44.0093,昌吉回族自治州,亚心广场,细颗粒物(PM2.5),98,117,134,73,86,4,,6,6,54,49,7,7,1.3,1.4
2026-01-04T0800,4164A,87.2057,43.9289,昌吉回族自治州,财政所,颗粒物(PM10),59,68,79,38,49,61,,60,60,9,19,4,5,0.6,0.6
2026-01-04T0800,1120A,125.2874,43.9024,长春市,客车厂,细颗粒物(PM2.5),133,,96,101,99,10,,12,12,60,53,21,16,1.4,1.1
2026-01-04T0800,1121A,125.2943,43.8508,长春市,邮电学院,细颗粒物(PM2.5),107,103,113,80,86,8,,7,7,56,49,26,17,1.7,1.2
2026-01-04T0800,1122A,125.3648,43.8745,长春市,劳动公园,细颗粒物(PM2.5),109,122,111,82,82,6,,5,5,58,52,7,9,2.0,1.4
2026-01-04T0800,1123A,125.3233,43.8781,长春市,园林处,细颗粒物(PM2.5),99,97,99,74,80,8,,,,52,45,12,13,1.8,1
2026-01-04T0800,1124A,125.4604,43.7904,长春市,净月潭,细颗粒物(PM2.5),97,96,107,72,76,24,,22,22,31,36,5,9,1.3,1.2
2026-01-04T0800,1126A,125.38,43.8422,长春市,经开区环卫处,细颗粒物(PM2.5),125,130,127,95,86,4,,3,3,57,55,6,9,1.8,1.3
2026-01-04T0800,1127A,125.234,43.7761,长春市,高新区管委会,细颗粒物(PM2.5),210,,124,160,114,8,,5,5,47,51,7,10,2.3,1.5
2026-01-04T0800,1128A,125.1695,43.83,长春市,岱山公园,细颗粒物(PM2.5),120,103,107,91,96,10,,7,7,56,51,15,13,1.7,1.3
2026-01-04T0800,4281A,125.334645,43.916281,长春市,北亚泰大街1068号,细颗粒物(PM2.5),113,96,95,85,84,8,,8,8,58,52,11,17,1.5,1.1
2026-01-04T0800,1335A,113.082,28.2421,长沙市,经开区环保局,,,,57,,47,,,32,,,23,,3,,0.5
2026-01-04T0800,1336A,112.8873,28.2202,长沙市,高开区环保局,,,,61,,55,,,37,,,22,,4,,0.7
2026-01-04T0800,1337A,113.0785,28.2012,长沙市,马坡岭,,,,55,,46,,,36,,,28,,4,,0.8
2026-01-04T0800,1338A,112.9448,28.1894,长沙市,湖南师范大学,,,,60,,43,,,40,,,29,,4,,0.6
2026-01-04T0800,1339A,113.0177,28.1322,长沙市,雨花区环保局,,,,55,,42,,,44,,,24,,7,,0.5
2026-01-04T0800,1340A,112.9795,28.2593,长沙市,伍家岭,,,,64,,47,,,29,,,22,,4,,0.5
2026-01-04T0800,1341A,113.002,28.1944,长沙市,火车新站,细颗粒物(PM2.5),62,58,59,44,47,18,,21,21,22,23,8,7,0.5,0.5
2026-01-04T0800,1342A,112.9846,28.1177,长沙市,天心区环保局,,,,54,,43,,,47,,,30,,5,,0.6
2026-01-04T0800,1343A,112.8906,28.1307,长沙市,湖南中医药大学,,,,56,,47,,,45,,,29,,5,,0.6
2026-01-04T0800,1727A,113.1146,36.1547,长治市,清华站,细颗粒物(PM2.5),85,,88,63,79,36,,22,22,24,52,13,19,1.0,1.2
2026-01-04T0800,1730A,113.0887,36.2126,长治市,审计局,细颗粒物(PM2.5),77,,83,56,78,35,,19,19,22,50,13,19,1.0,1.1
2026-01-04T0800,1731A,113.0845,36.1856,长治市,长治八中,细颗粒物(PM2.5),75,55,108,55,91,35,,20,20,17,44,11,19,1.1,1.2
2026-01-04T0800,2845A,113.1561,36.1912,长治市,德盛苑,细颗粒物(PM2.5),79,,66,58,65,33,,25,25,26,34,10,14,0.9,1
2026-01-04T0800,3568A,113.0603,36.0464,长治市,向阳小学,细颗粒物(PM2.5),88,80,100,65,73,39,,39,39,28,46,10,22,1.3,1.2
2026-01-04T0800,3569A,112.8788,36.315,长治市,屯留一中,细颗粒物(PM2.5),122,,74,92,71,35,,52,52,31,38,3,17,1.4,0.8
2026-01-04T0800,4189A,113.113092,36.199482,长治市,英华南巷50号,细颗粒物(PM2.5),85,,92,63,82,39,,24,24,21,46,12,15,0.9,1.1
2026-01-04T0800,4190A,113.23666,36.33435,长治市,学府街1号,细颗粒物(PM2.5),104,,82,78,77,20,,15,15,48,50,20,18,2.1,1.6
2026-01-04T0800,1854A,111.696,28.9725,常德市,市二中,细颗粒物(PM2.5),67,54,67,48,63,32,,24,24,15,19,4,4,0.6,0.6
2026-01-04T0800,3138A,111.7152,29.0288,常德市,武陵区永安,细颗粒物(PM2.5),58,55,73,41,59,34,,34,34,16,16,3,3,0.6,0.7
2026-01-04T0800,3139A,111.6891,28.9881,常德市,鼎城区玉霞,细颗粒物(PM2.5),62,44,65,44,62,33,,28,28,18,20,6,7,0.7,0.7
2026-01-04T0800,3140A,111.6651,29.0526,常德市,武陵区长庚,细颗粒物(PM2.5),54,42,71,38,64,26,,32,32,20,19,3,3,0.7,0.7
2026-01-04T0800,1196A,119.9524,31.7586,常州市,市监测站,细颗粒物(PM2.5),97,100,96,72,64,3,,1,1,83,62,4,5,0.8,0.9
2026-01-04T0800,1200A,119.9351,31.703,常州市,武进监测站,细颗粒物(PM2.5),109,107,81,82,62,2,,6,6,84,50,9,9,1.5,0.7
2026-01-04T0800,3002A,119.9701,31.813,常州市,行政中心,细颗粒物(PM2.5),97,95,77,72,56,3,,5,5,78,53,8,7,0.8,0.8
2026-01-04T0800,3003A,120.0434,31.7726,常州市,经开区,细颗粒物(PM2.5),110,128,104,83,63,4,,4,4,76,52,11,8,1.1,1.1
2026-01-04T0800,3010A,119.8919,31.7892,常州市,钟楼,细颗粒物(PM2.5),94,90,74,70,56,6,,9,9,79,50,8,9,0.9,0.8
2026-01-04T0800,3429A,119.8595,31.706,常州市,武进经发区,细颗粒物(PM2.5),117,111,80,88,64,,,,,86,53,10,11,1.3,0.9
2026-01-04T0800,3430A,119.5812,31.7256,常州市,金坛城区,细颗粒物(PM2.5),102,93,84,76,69,4,,16,16,74,35,10,10,1.1,0.9
2026-01-04T0800,4089A,119.9551,31.863,常州市,崇义南街5-H号,细颗粒物(PM2.5),113,115,75,85,59,0,,1,1,83,59,7,6,1.0,0.8
2026-01-04T0800,2220A,120.4318,41.588,朝阳市,西梁,细颗粒物(PM2.5),209,,134,159,82,2,,1,1,47,46,16,20,3.1,1.8
2026-01-04T0800,2221A,120.452,41.565,朝阳市,河畔小区,细颗粒物(PM2.5),102,87,86,76,64,3,,3,3,41,40,8,16,2.0,1.5
2026-01-04T0800,2222A,120.4176,41.5648,朝阳市,八里堡,细颗粒物(PM2.5),93,89,106,69,73,4,,4,4,44,47,16,20,2.1,1.9
2026-01-04T0800,3026A,116.6179,23.6608,潮州市,市政府,颗粒物(PM10),51,52,46,33,28,27,,48,48,27,13,9,7,0.5,0.4
2026-01-04T0800,4036A,116.646,23.676,潮州市,金山,,43,40,42,30,30,33,,43,43,13,10,3,4,0.5,0.3
2026-01-04T0800,2473A,113.0116,25.8228,郴州市,市职中,细颗粒物(PM2.5),68,56,47,49,42,0,,3,3,20,15,3,4,0.6,0.5
2026-01-04T0800,2475A,113.0381,25.8074,郴州市,市审计局,细颗粒物(PM2.5),62,65,49,44,42,2,,12,12,24,17,2,3,/,/
2026-01-04T0800,2476A,113.0348,25.7757,郴州市,市环保局,细颗粒物(PM2.5),63,60,56,45,39,6,,8,8,23,22,3,4,0.7,0.6
2026-01-04T0800,4252A,113.0138,25.8011,郴州市,好美居路49号,细颗粒物(PM2.5),70,54,51,51,46,7,,11,11,18,18,3,5,/,/
2026-01-04T0800,1431A,103.9727,30.7242,成都市,金泉两河,,43,32,20,30,7,2,,6,6,32,29,2,2,0.7,0.6
2026-01-04T0800,1432A,104.1423,30.6765,成都市,十里店,,29,22,16,20,10,5,,10,10,36,28,3,3,0.7,0.6
2026-01-04T0800,1433A,104.0594,30.5765,成都市,三瓦窑,,50,47,22,35,11,1,,3,3,37,30,4,3,0.8,0.6
2026-01-04T0800,1434A,104.1122,30.6306,成都市,沙河铺,,45,41,24,31,14,4,,8,8,32,29,4,3,0.7,0.6
2026-01-04T0800,2880A,104.0219,30.6561,成都市,大石西路,,41,41,26,22,18,5,,7,7,28,27,4,4,0.6,0.5
2026-01-04T0800,3136A,104.2724,30.559,成都市,龙泉驿区区政府,,20,17,10,14,9,1,,5,5,29,20,6,6,0.8,0.7
2026-01-04T0800,3357A,104.0028,30.6891,成都市,金博路,,27,27,12,18,8,2,,7,7,35,29,5,4,0.8,0.8
2026-01-04T0800,3359A,104.056,30.5228,成都市,华阳,,35,29,15,24,12,7,,7,7,31,30,2,3,0.7,0.6
2026-01-04T0800,3488A,104.387954,30.746684,成都市,青石路225号,,36,33,21,25,15,1,,1,1,29,24,7,6,0.8,0.7
2026-01-04T0800,3489A,104.0788,30.4054,成都市,科学城,,36,29,14,25,12,4,,5,5,24,22,6,5,0.9,0.8
2026-01-04T0800,4011A,103.8505,30.6946,成都市,光华大道三段,,,,18,,6,,,32,,,23,,2,,0.7
2026-01-04T0800,4144A,104.3257,30.6406,成都市,八角井街185号,,37,37,27,22,13,3,,3,3,29,23,3,4,1.1,1
2026-01-04T0800,4224A,104.2433276,30.53529463,成都市,鲸龙路1057号,,28,22,19,19,13,2,,8,8,30,25,5,5,0.6,0.4
2026-01-04T0800,1062A,117.9531,40.908,承德市,铁路,颗粒物(PM10),72,94,69,49,37,3,,2,2,37,39,6,11,1.5,1.3
2026-01-04T0800,1063A,117.9397,40.9763,承德市,中国银行,颗粒物(PM10),61,71,73,34,36,5,,5,5,28,31,3,6,0.9,1.1
2026-01-04T0800,4073A,117.9462,40.95,承德市,杏林街1号,颗粒物(PM10),57,64,66,39,41,2,,3,3,36,37,4,10,1.0,1.3
2026-01-04T0800,4274A,117.7994,40.9605,承德市,滨河大街98号,细颗粒物(PM2.5),80,106,78,59,32,4,,3,3,43,41,7,25,1.6,1.4
2026-01-04T0800,2314A,117.4698,30.6617,池州市,池州学院,细颗粒物(PM2.5),97,79,81,72,68,35,,38,38,26,29,5,7,0.8,0.7
2026-01-04T0800,3237A,117.4918,30.6617,池州市,展览馆,细颗粒物(PM2.5),84,75,71,62,56,28,,34,34,30,32,2,4,1.1,1
2026-01-04T0800,3333A,117.5626,30.695,池州市,第八中学,细颗粒物(PM2.5),92,83,75,68,61,32,,35,35,27,33,3,4,1.0,0.9
2026-01-04T0800,3334A,117.5037,30.6242,池州市,第十二中学,细颗粒物(PM2.5),78,70,76,57,60,18,,16,16,40,40,3,4,1.1,1.2
2026-01-04T0800,1744A,118.9229,42.2816,赤峰市,松山一中,细颗粒物(PM2.5),69,62,96,50,54,4,,4,4,48,55,28,30,1.7,1.9
2026-01-04T0800,1745A,118.9588,42.2733,赤峰市,哈达街,,35,35,91,24,53,16,,14,14,32,47,13,32,1.1,1.6
2026-01-04T0800,1746A,118.8792,42.2551,赤峰市,天义路,,38,37,75,26,63,8,,11,11,43,49,18,21,1.1,1.5
2026-01-04T0800,3058A,119.2656,42.0356,赤峰市,银河街,细颗粒物(PM2.5),152,165,145,116,96,7,,5,5,38,42,20,31,5.0,2.9
2026-01-04T0800,3286A,118.9359,42.3146,赤峰市,桥北物流园区,,49,43,69,34,58,5,,8,8,43,44,12,21,1.3,1.4
2026-01-04T0800,2521A,107.3473,22.4137,崇左市,市环保局江州分局,细颗粒物(PM2.5),65,70,49,47,32,22,,25,25,17,18,7,8,0.7,0.7
2026-01-04T0800,4256A,107.375,22.3736,崇左市,石景林东路7号,细颗粒物(PM2.5),72,57,38,52,32,16,,26,26,26,20,8,8,0.6,0.6
2026-01-04T0800,3207A,118.31131,32.3033,滁州市,市政府原办公楼,细颗粒物(PM2.5),89,88,71,66,52,7,,7,7,61,48,9,6,0.8,0.9
2026-01-04T0800,3331A,118.3268,32.2633,滁州市,图书馆,细颗粒物(PM2.5),85,74,64,63,59,9,,6,6,61,51,11,10,0.8,1
2026-01-04T0800,4101A,118.3196,32.3335,滁州市,银山路666号,细颗粒物(PM2.5),107,84,65,80,65,2,,0,0,50,41,10,9,1.0,1.1
2026-01-04T0800,4102A,118.3426,32.2979,滁州市,黄山路555号,细颗粒物(PM2.5),109,96,79,82,65,11,,5,5,58,49,12,12,0.9,1
2026-01-04T0800,2606A,101.5379,25.0492,楚雄彝族自治州,市经济开发区,,20,15,22,14,17,7,,8,8,16,17,4,4,0.4,0.6
2026-01-04T0800,4153A,101.5536,25.0343,楚雄彝族自治州,团结路562号,,18,14,17,12,15,9,,12,12,13,11,3,2,0.4,0.5
2026-01-04T0800,2549A,107.5087,31.2186,达州市,市环境监测站,细颗粒物(PM2.5),62,67,52,44,38,1,,4,4,31,29,6,5,0.6,0.4
2026-01-04T0800,2550A,107.4988,31.2132,达州市,凤凰小区,细颗粒物(PM2.5),73,63,56,53,43,4,,8,8,28,25,4,4,0.6,0.4
2026-01-04T0800,2551A,107.5081,31.1987,达州市,达县机关宾馆,细颗粒物(PM2.5),88,90,59,65,43,3,,4,4,33,31,4,2,0.9,0.6
2026-01-04T0800,2552A,107.4644,31.2124,达州市,市政中心,颗粒物(PM10),65,79,62,46,41,10,,12,12,31,26,5,5,0.4,0.4
2026-01-04T0800,2614A,100.2168,25.5818,大理白族自治州,大理市环境监测站,,28,,14,19,15,49,,57,57,7,10,6,6,0.5,0.5
2026-01-04T0800,2615A,100.1542,25.7055,大理白族自治州,大理古城,,25,19,14,17,10,40,,71,71,34,7,9,8,0.8,0.6
2026-01-04T0800,1109A,121.6119,38.974,大连市,甘井子,,31,31,55,21,34,33,,61,61,45,27,12,11,0.4,0.4
2026-01-04T0800,1110A,121.565,38.9509,大连市,周水子,,43,41,60,26,42,5,,26,26,86,47,14,11,0.6,0.8
2026-01-04T0800,1111A,121.5637,38.8849,大连市,星海三站,,24,24,48,12,35,58,,43,43,23,25,13,11,0.6,0.8
2026-01-04T0800,1112A,121.6301,38.9117,大连市,青泥洼桥,,36,34,43,21,43,3,,25,25,71,45,10,11,0.9,0.8
2026-01-04T0800,1113A,121.6248,38.8643,大连市,傅家庄,,24,24,49,12,32,39,,49,49,35,30,13,12,0.3,0.3
2026-01-04T0800,1114A,121.5117,38.8636,大连市,七贤岭,,30,30,47,16,29,55,,59,59,17,19,8,9,1.1,0.7
2026-01-04T0800,1116A,121.7507,39.1339,大连市,金州,,25,21,51,12,36,77,,78,78,10,22,10,10,0.3,0.5
2026-01-04T0800,1117A,121.7811,39.0495,大连市,开发区,颗粒物(PM10),52,54,77,29,49,4,,12,12,70,49,8,8,1.5,1
2026-01-04T0800,1118A,121.9762,39.0631,大连市,双D港,,24,17,43,10,31,75,,76,76,8,19,12,14,0.4,0.8
2026-01-04T0800,4082A,121.2548,38.8188,大连市,旅顺,细颗粒物(PM2.5),67,66,70,48,54,19,,32,32,31,21,18,10,0.9,0.9
2026-01-04T0800,1789A,124.8085,46.0381,大庆市,大同区,,31,31,44,14,29,49,,44,44,14,22,5,6,0.3,0.4
2026-01-04T0800,1790A,125.1166,46.5255,大庆市,龙凤区,,19,16,36,10,24,36,,46,46,38,31,10,12,0.5,0.8
2026-01-04T0800,1791A,124.8894,46.4007,大庆市,红岗区,,29,24,31,20,20,39,,43,43,22,21,6,7,0.5,0.5
2026-01-04T0800,1792A,125.1391,46.578,大庆市,萨尔图区,,29,29,38,9,23,37,,44,44,27,26,8,9,0.4,0.4
2026-01-04T0800,1793A,124.9026,46.6217,大庆市,让胡路区,,30,23,31,21,28,39,,56,56,27,14,9,8,0.5,0.5
2026-01-04T0800,3481A,125.127,46.6277,大庆市,萨区政府监测点,,19,17,33,7,16,28,,40,40,37,26,8,9,0.6,0.8
2026-01-04T0800,1723A,113.2926,40.0759,大同市,云冈宾馆,,33,33,103,14,53,22,,14,14,38,57,13,20,1.6,2.2
2026-01-04T0800,1724A,113.3437,40.0921,大同市,大同大学,,29,29,70,16,38,38,,23,23,25,52,9,18,1.0,1.4
2026-01-04T0800,1725A,113.2637,40.129,大同市,安家小村,颗粒物(PM10),52,54,106,29,51,14,,13,13,50,54,16,23,1.6,2.2
2026-01-04T0800,3282A,113.3399,40.0586,大同市,大同市卫生学校,,29,29,90,17,47,31,,20,20,34,58,8,18,1.6,1.6
2026-01-04T0800,3565A,113.1371,40.1122,大同市,云冈站,"颗粒物(PM10),细颗粒物(PM2.5)",52,54,82,36,38,12,,9,9,47,49,14,21,1.0,1.3
2026-01-04T0800,3566A,113.1186,40.2556,大同市,图书馆,细颗粒物(PM2.5),67,82,104,48,72,21,,7,7,30,45,14,19,1.2,2
2026-01-04T0800,3567A,113.5931,40.0459,大同市,区一中,颗粒物(PM10),65,80,100,44,48,12,,11,11,47,50,17,33,1.6,1.4
2026-01-04T0800,4199A,113.2798248,40.09972476,大同市,魏都大道141号,,50,50,127,27,54,12,,15,15,52,53,11,19,1.8,2.4
2026-01-04T0800,2269A,124.1068,50.4091,大兴安岭地区,科技局,,20,16,15,14,13,55,,59,59,4,2,5,5,0.3,0.3
2026-01-04T0800,3663A,124.117,50.4279,大兴安岭地区,红旗社区,,20,7,6,6,5,63,,65,65,4,4,6,5,0.2,0.2
2026-01-04T0800,1600A,124.33,40.0625,丹东市,江湾东路,细颗粒物(PM2.5),108,98,83,81,67,5,,10,10,49,37,29,20,2.7,2
2026-01-04T0800,1601A,124.4242,40.1513,丹东市,临江后街,细颗粒物(PM2.5),72,76,76,52,53,7,,8,8,46,38,41,15,1.9,1.5
2026-01-04T0800,1602A,124.3935,40.1461,丹东市,元宝山,细颗粒物(PM2.5),108,96,60,81,50,4,,9,9,48,35,18,14,2.0,1.3
2026-01-04T0800,1603A,124.3634,40.1093,丹东市,民主桥,细颗粒物(PM2.5),89,97,76,66,54,3,,10,10,57,38,15,16,1.9,1.2
2026-01-04T0800,3541A,109.5726195,19.51688767,儋州市,第一中学子站,,38,38,37,19,20,67,,62,62,6,5,4,4,0.5,0.5
2026-01-04T0800,3542A,109.5567,19.5187,儋州市,东坡学校子站,,36,36,36,17,18,67,,63,63,5,6,3,4,0.5,0.5
2026-01-04T0800,2616A,98.5611,24.4273,德宏傣族景颇族自治州,德宏州监测站,,45,42,33,31,31,2,,5,5,18,18,6,6,0.7,0.7
2026-01-04T0800,3677A,98.5887,24.4366,德宏傣族景颇族自治州,芒市人民政府综合楼,,33,29,39,23,26,3,,8,8,19,14,8,9,0.8,0.8
2026-01-04T0800,1901A,104.424,31.1209,德阳市,东山公园,,25,22,15,17,14,10,,5,5,19,16,2,2,0.8,0.7
2026-01-04T0800,1902A,104.3827,31.1318,德阳市,西小区,,42,42,31,24,17,5,,12,12,33,23,2,2,1.0,0.9
2026-01-04T0800,1904A,104.3553,31.1091,德阳市,耐火材料厂,,42,39,23,29,18,2,,4,4,36,28,2,1,0.9,0.8
2026-01-04T0800,4145A,104.4144,31.1495,德阳市,市林业局,,36,,23,25,14,2,,8,8,25,18,3,2,0.9,0.7
2026-01-04T0800,1622A,116.3034,37.4675,德州市,儿童乐园,细颗粒物(PM2.5),138,149,152,105,119,17,,22,22,50,43,17,15,1.6,1.4
2026-01-04T0800,1624A,116.2992,37.4449,德州市,监理站,细颗粒物(PM2.5),138,134,148,105,121,28,,26,26,51,47,18,17,1.2,1.1
2026-01-04T0800,3066A,116.2722,37.438,德州市,九衢泉纯净水厂,细颗粒物(PM2.5),149,141,154,114,128,8,,8,8,56,49,13,23,1.1,1
2026-01-04T0800,3371A,116.3693,37.44,德州市,开发区人民医院,细颗粒物(PM2.5),132,146,155,100,115,12,,18,18,73,61,19,16,1.1,0.9
2026-01-04T0800,3511A,116.5687,37.3331,德州市,陵城艺术中心,细颗粒物(PM2.5),163,166,156,124,127,0,,16,16,80,58,19,19,1.3,1.2
2026-01-04T0800,4292A,116.352738,37.420875,德州市,新河东路,细颗粒物(PM2.5),153,141,155,117,130,5,,6,6,73,66,16,15,1.5,1.4
2026-01-04T0800,2621A,99.7054,27.8319,迪庆藏族自治州,迪庆州站,,22,,18,15,12,55,,63,63,9,6,5,5,0.4,0.3
2026-01-04T0800,3180A,99.7122,27.8129,迪庆藏族自治州,质量技术监督局,,26,,17,18,13,65,,71,71,11,7,6,6,0.5,0.4
2026-01-04T0800,4257A,104.6092,35.5962,定西市,将台街,细颗粒物(PM2.5),95,86,72,71,55,10,,20,20,41,27,9,8,1.0,0.6
2026-01-04T0800,4309A,104.6159,35.5701,定西市,正龙路62号,细颗粒物(PM2.5),89,81,72,66,57,30,,37,37,12,14,6,5,0.9,0.8
2026-01-04T0800,1390A,113.7943,23.0132,东莞市,东城石井,细颗粒物(PM2.5),63,71,48,45,29,5,,22,22,60,32,9,9,0.9,0.7
2026-01-04T0800,1391A,113.7384,22.9659,东莞市,南城西平,细颗粒物(PM2.5),67,72,56,48,33,1,,9,9,71,53,10,10,0.8,0.7
2026-01-04T0800,3319A,113.7283,23.041,东莞市,万江金泰,颗粒物(PM10),61,72,54,40,31,28,,25,25,48,34,7,6,0.8,0.7
2026-01-04T0800,4129A,113.8666,23.1062,东莞市,裕兴路,颗粒物(PM10),53,56,58,31,33,25,,20,20,41,33,18,9,0.7,0.7
2026-01-04T0800,4130A,114.0076,22.9739,东莞市,教育路1号,"颗粒物(PM10),细颗粒物(PM2.5)",73,95,66,53,36,4,,5,5,64,49,7,6,1.0,0.9
2026-01-04T0800,4131A,113.7981,22.8124,东莞市,长怡路1号,颗粒物(PM10),68,85,63,45,31,9,,23,23,75,44,11,9,0.9,0.7
2026-01-04T0800,1666A,118.6612,37.4313,东营市,市环保局,细颗粒物(PM2.5),192,185,140,144,109,4,,2,2,74,64,24,20,1.4,1.3
2026-01-04T0800,3036A,118.6903,37.4337,东营市,开发区管委会,细颗粒物(PM2.5),195,187,141,146,107,3,,4,4,84,68,26,22,1.5,1.3
2026-01-04T0800,3365A,118.5721,37.5654,东营市,垦利区民丰路,细颗粒物(PM2.5),185,163,142,139,109,1,,1,1,71,58,10,11,1.5,1.3
2026-01-04T0800,3498A,118.5063,37.8606,东营市,河口城区,细颗粒物(PM2.5),209,190,154,159,113,8,,12,12,68,47,7,6,1.6,1.2
2026-01-04T0800,3646A,118.4979,37.4623,东营市,胜利站,细颗粒物(PM2.5),208,192,155,158,118,1,,0,0,80,71,19,16,1.8,1.6
2026-01-04T0800,3734A,118.5753,37.4405,东营市,理想之城,细颗粒物(PM2.5),195,173,140,146,111,1,,0,0,89,70,18,12,1.7,1.4
2026-01-04T0800,1591A,110.0024,39.8127,鄂尔多斯市,综合楼,,44,44,40,14,21,44,,45,45,22,35,10,11,0.6,0.7
2026-01-04T0800,1592A,109.9485,39.8259,鄂尔多斯市,巴音孟克林场办事处,颗粒物(PM10),65,80,41,12,16,28,,39,39,39,33,11,10,0.7,0.6
2026-01-04T0800,1593A,109.7734,39.5987,鄂尔多斯市,康泽苑,,36,36,29,12,16,47,,52,52,20,16,6,5,0.5,0.4
2026-01-04T0800,1594A,109.8121,39.5987,鄂尔多斯市,华泰汽车城,颗粒物(PM10),52,53,33,17,15,13,,37,37,48,23,3,3,0.8,0.5
2026-01-04T0800,1595A,109.9734,39.7884,鄂尔多斯市,奥林花园,颗粒物(PM10),53,56,44,9,14,41,,47,47,29,33,6,6,0.6,0.7
2026-01-04T0800,2436A,114.894,30.3989,鄂州市,市政府,,49,45,48,34,42,51,,57,57,18,22,4,6,0.6,0.7
2026-01-04T0800,2437A,114.8986,30.3714,鄂州市,赵家坝,细颗粒物(PM2.5),57,,54,40,44,46,,55,55,14,17,6,8,0.4,0.4
2026-01-04T0800,3654A,114.8093,30.4091,鄂州市,精准医疗中心,细颗粒物(PM2.5),70,58,58,51,50,53,,58,58,12,17,7,4,0.8,0.9
2026-01-04T0800,2454A,109.4978,30.2979,恩施土家族苗族自治州,湖北民院,细颗粒物(PM2.5),52,,42,36,44,16,,24,24,11,12,6,6,0.7,0.7
2026-01-04T0800,3549A,109.5061,30.3771,恩施土家族苗族自治州,龙凤新区,细颗粒物(PM2.5),53,40,50,37,45,9,,11,11,6,10,7,7,0.5,0.5
2026-01-04T0800,2499A,108.3411,21.6159,防城港市,沙万,颗粒物(PM10),83,115,68,59,40,26,,32,32,42,26,12,8,1.3,0.8
2026-01-04T0800,2500A,108.3515,21.7733,防城港市,防城档案局,细颗粒物(PM2.5),77,89,70,56,44,22,,30,30,25,25,6,5,0.8,0.7
2026-01-04T0800,2501A,108.3506,21.6414,防城港市,大海花园,细颗粒物(PM2.5),70,68,55,51,36,27,,37,37,37,20,21,10,1.6,1
2026-01-04T0800,1371A,113.1293,23.0065,佛山市,湾梁,细颗粒物(PM2.5),75,85,59,55,36,2,,1,1,72,53,/,/,/,/
2026-01-04T0800,1372A,113.1082,23.0477,佛山市,华材职中,颗粒物(PM10),79,107,71,54,34,5,,5,5,69,55,7,6,0.9,0.7
2026-01-04T0800,1373A,113.1439,23.045,佛山市,南海气象局,细颗粒物(PM2.5),72,83,62,52,33,1,,1,1,70,55,/,/,/,/
2026-01-04T0800,1374A,113.2879,22.8094,佛山市,顺德苏岗,颗粒物(PM10),66,82,52,46,35,3,,11,11,72,50,/,/,0.9,0.7
2026-01-04T0800,1376A,112.8384,22.8678,佛山市,高明孔堂,细颗粒物(PM2.5),63,70,53,45,36,7,,15,15,43,34,/,/,/,/
2026-01-04T0800,1377A,112.8835,23.1584,佛山市,三水监测站,细颗粒物(PM2.5),109,127,73,82,46,5,,3,3,66,50,19,8,0.9,0.7
2026-01-04T0800,1378A,112.8668,23.185,佛山市,三水云东海,细颗粒物(PM2.5),89,107,65,66,40,0,,0,0,46,35,/,/,/,/
2026-01-04T0800,3625A,113.2568,22.7629,佛山市,容桂街道办,细颗粒物(PM2.5),67,70,58,48,36,2,,26,26,78,43,/,/,/,/
2026-01-04T0800,1282A,119.2681,26.0506,福州市,师大,,35,35,31,14,21,49,,58,58,29,24,9,8,0.6,0.5
2026-01-04T0800,1283A,119.2983,26.1028,福州市,五四北路,,35,35,26,11,16,43,,55,55,28,18,5,5,0.6,0.5
2026-01-04T0800,1284A,119.2648,26.0769,福州市,杨桥西路,,34,34,29,11,17,50,,60,60,21,15,5,5,/,/
2026-01-04T0800,3048A,119.5799,26.0937,福州市,九龙,,24,24,26,6,17,63,,68,68,14,16,5,6,0.5,0.5
2026-01-04T0800,3526A,119.5188,25.9666,福州市,吴航,,32,32,28,15,19,37,,54,54,38,19,5,6,0.6,0.5
2026-01-04T0800,4104A,119.3106,26.0648,福州市,路通桥巷6号,,,26,33,17,20,,,,,24,14,/,/,/,/
2026-01-04T0800,1755A,123.7974,41.8494,抚顺市,望花区,细颗粒物(PM2.5),132,136,141,100,104,6,,4,4,54,59,8,14,2.1,2.2
2026-01-04T0800,1756A,123.9161,41.8827,抚顺市,顺城区,细颗粒物(PM2.5),99,110,119,74,85,7,,5,5,55,57,10,14,1.8,1.9
2026-01-04T0800,1757A,124.0437,41.8615,抚顺市,东洲区,细颗粒物(PM2.5),123,102,106,93,86,6,,4,4,49,54,7,19,2.0,2
2026-01-04T0800,1758A,123.9246,41.8638,抚顺市,新抚区,细颗粒物(PM2.5),130,129,124,99,89,3,,2,2,50,54,7,11,2.1,1.9
2026-01-04T0800,1759A,124.0972,41.8961,抚顺市,大伙房水库,细颗粒物(PM2.5),98,89,96,73,72,9,,5,5,47,48,13,17,1.7,1.8
2026-01-04T0800,1760A,123.708,41.8386,抚顺市,沈抚新城,细颗粒物(PM2.5),123,134,134,93,106,11,,10,10,52,59,11,15,2.6,2.1
2026-01-04T0800,2377A,116.3544,27.9833,抚州市,市站,细颗粒物(PM2.5),54,54,50,38,37,26,,42,42,20,14,10,10,0.5,0.5
2026-01-04T0800,2378A,116.3562,27.9631,抚州市,血防站,细颗粒物(PM2.5),55,56,55,39,37,27,,47,47,23,18,5,8,0.8,0.7
2026-01-04T0800,2379A,116.3561,28.0007,抚州市,采茶剧团,细颗粒物(PM2.5),55,49,53,39,36,29,,41,41,16,11,7,9,0.7,0.6
2026-01-04T0800,2380A,116.3854,27.9648,抚州市,医学分院,颗粒物(PM10),53,56,53,35,34,31,,48,48,20,14,4,8,0.6,0.6
2026-01-04T0800,2207A,121.6095,41.9978,阜新市,工业园区,颗粒物(PM10),76,101,115,54,66,4,,4,4,38,37,16,22,1.2,1.1
2026-01-04T0800,2208A,121.6567,42.0188,阜新市,长青街,颗粒物(PM10),64,78,76,44,59,4,,2,2,41,37,10,12,0.9,1
2026-01-04T0800,2209A,121.6672,42.07,阜新市,农业园区,,28,28,54,9,35,49,,37,37,11,22,9,18,0.4,0.6
2026-01-04T0800,2211A,121.6343,42.0455,阜新市,玉龙新城,细颗粒物(PM2.5),84,90,102,62,62,4,,3,3,48,42,9,10,1.2,1
2026-01-04T0800,2301A,115.8276,32.8929,阜阳市,市监测站,细颗粒物(PM2.5),99,98,79,74,61,12,,22,22,50,34,4,4,0.8,0.7
2026-01-04T0800,2303A,115.8551,32.8606,阜阳市,开发区,细颗粒物(PM2.5),89,88,64,66,53,9,,15,15,44,31,5,4,0.7,0.5
2026-01-04T0800,2875A,115.783962,32.889217,阜阳市,阜阳职业技术学院,细颗粒物(PM2.5),69,74,59,50,48,38,,46,46,29,19,6,6,0.7,0.6
2026-01-04T0800,3468A,115.79,32.8614,阜阳市,市规划展馆,细颗粒物(PM2.5),84,85,65,62,52,34,,48,48,28,20,6,6,0.5,0.4
2026-01-04T0800,3469A,115.835101,32.918568,阜阳市,枣园社区,细颗粒物(PM2.5),93,90,75,69,62,14,,25,25,49,37,7,6,0.5,0.4
2026-01-04T0800,2669A,102.9097,34.9841,甘南藏族自治州,州政府,细颗粒物(PM2.5),77,73,60,56,52,23,,25,25,30,21,2,3,0.8,0.8
2026-01-04T0800,3380A,102.8915,34.9618,甘南藏族自治州,甘肃民族师范学院,细颗粒物(PM2.5),85,84,70,63,50,29,,29,29,32,25,4,3,0.5,0.6
2026-01-04T0800,2570A,101.96,30.048,甘孜藏族自治州,水桥子,,13,8,9,3,5,41,,45,45,13,13,6,6,0.7,0.6
2026-01-04T0800,3065A,101.9534,29.9976,甘孜藏族自治州,州环保局,,15,11,14,8,5,45,,45,45,9,12,5,6,0.6,0.6
2026-01-04T0800,2363A,114.9368,25.8663,赣州市,地委,,46,46,39,24,21,7,,15,15,27,20,10,8,0.7,0.7
2026-01-04T0800,2364A,114.946,25.8483,赣州市,气象台,,50,50,46,19,17,9,,10,10,42,34,3,2,0.8,0.7
2026-01-04T0800,2365A,114.932,25.8332,赣州市,市图书馆,,47,47,37,27,21,6,,15,15,40,28,4,4,0.7,0.6
2026-01-04T0800,2366A,114.8905,25.8472,赣州市,华坚鞋城,颗粒物(PM10),52,53,36,29,20,6,,20,20,40,24,5,5,0.4,0.4
2026-01-04T0800,3109A,115.0094,25.8614,赣州市,赣县区卫计委,,50,39,33,35,27,2,,7,7,28,22,8,8,0.4,0.4
2026-01-04T0800,2684A,106.2753,36.0057,固原市,监测站,,46,38,59,32,55,48,,56,56,33,20,4,4,1.0,0.8
2026-01-04T0800,2685A,106.2384,36.0189,固原市,新区,,22,21,58,12,54,70,,68,68,17,14,2,2,0.7,0.8
2026-01-04T0800,2544A,106.6307,30.4577,广安市,市委,细颗粒物(PM2.5),53,54,47,37,35,20,,33,33,27,18,5,5,0.9,0.8
2026-01-04T0800,2545A,106.6266,30.4662,广安市,友谊中学,细颗粒物(PM2.5),55,41,40,39,35,35,,41,41,10,5,7,6,0.6,0.5
2026-01-04T0800,2547A,106.6386,30.4551,广安市,广电花园,细颗粒物(PM2.5),53,45,42,37,35,23,,30,30,18,16,8,8,0.6,0.6
2026-01-04T0800,2902A,106.6347,30.4868,广安市,北辰小学,细颗粒物(PM2.5),64,,42,46,37,28,,35,35,14,10,16,14,0.9,0.8
2026-01-04T0800,2524A,105.8211,32.4444,广元市,老城,,45,41,39,31,31,6,,6,6,31,32,5,4,1.0,0.9
2026-01-04T0800,2526A,105.8629,32.429,广元市,监测站,"颗粒物(PM10),细颗粒物(PM2.5)",52,53,42,36,29,4,,8,8,26,26,4,3,1.7,1
2026-01-04T0800,3617A,105.8047,32.4167,广元市,经开区,,45,40,37,31,34,1,,2,2,26,30,7,4,1.1,1
2026-01-04T0800,1345A,113.2346,23.1423,广州市,广雅中学,"颗粒物(PM10),细颗粒物(PM2.5)",67,83,61,48,35,2,,1,1,65,50,3,3,0.8,0.7
2026-01-04T0800,1346A,113.2611,23.105,广州市,市五中,细颗粒物(PM2.5),65,73,54,47,34,6,,4,4,87,60,10,9,/,/
2026-01-04T0800,1348A,113.3477,23.0916,广州市,广东商学院,细颗粒物(PM2.5),64,63,52,46,34,1,,1,1,70,49,7,6,0.7,0.5
2026-01-04T0800,1349A,113.4332,23.105,广州市,市八十六中,,49,48,49,34,34,3,,2,2,71,54,8,8,/,/
2026-01-04T0800,1350A,113.3506,22.9488,广州市,番禺中学,细颗粒物(PM2.5),70,85,68,51,41,5,,4,4,72,59,11,5,0.8,0.6
2026-01-04T0800,1351A,113.2147,23.3918,广州市,花都师范,颗粒物(PM10),60,70,53,40,31,3,,3,3,62,49,5,7,0.7,0.6
2026-01-04T0800,1352A,113.2599,23.1329,广州市,市监测站,细颗粒物(PM2.5),63,72,57,45,37,2,,2,2,75,56,2,2,/,/
2026-01-04T0800,1353A,113.5618,23.3119,广州市,九龙镇镇龙,,36,36,51,24,31,15,,2,2,26,33,5,5,0.4,0.5
2026-01-04T0800,1354A,113.2764,23.1544,广州市,麓湖,细颗粒物(PM2.5),58,55,44,41,31,2,,1,1,60,48,7,8,0.5,0.4
2026-01-04T0800,2846A,113.3209,23.1323,广州市,体育西,细颗粒物(PM2.5),62,65,53,44,35,2,,5,5,81,50,7,6,0.8,0.6
2026-01-04T0800,3298A,113.5718,23.5493,广州市,从化街口,,46,46,46,32,32,0,,1,1,30,31,8,8,0.8,0.7
2026-01-04T0800,3299A,113.3463,23.369,广州市,白云竹料,"颗粒物(PM10),细颗粒物(PM2.5)",55,60,59,39,37,4,,4,4,40,37,3,4,0.6,0.5
2026-01-04T0800,3300A,113.2981,23.2365,广州市,白云嘉禾,颗粒物(PM10),56,61,53,36,30,4,,12,12,56,48,4,4,/,/
2026-01-04T0800,3301A,113.4256,23.1716,广州市,黄埔科学城,颗粒物(PM10),51,51,43,34,27,10,,15,15,43,31,6,6,0.7,0.6
2026-01-04T0800,3302A,113.3942,23.0485,广州市,番禺大学城,颗粒物(PM10),59,68,53,37,32,16,,4,4,53,47,12,8,0.6,0.6
2026-01-04T0800,3303A,113.4923,22.8169,广州市,南沙黄阁,颗粒物(PM10),56,61,59,33,33,46,,47,47,44,43,7,8,/,/
2026-01-04T0800,3304A,113.534,22.7893,广州市,南沙街,颗粒物(PM10),51,52,52,32,31,56,,60,60,32,33,5,7,0.6,0.6
2026-01-04T0800,3443A,113.2905,23.5541,广州市,花都梯面,,41,41,27,25,19,2,,1,1,29,25,5,7,/,/
2026-01-04T0800,3445A,113.786,23.7479,广州市,从化良口,,18,17,20,12,16,15,,26,26,16,11,6,7,/,/
2026-01-04T0800,3446A,113.805,23.2614,广州市,增城荔城,,30,29,32,21,22,22,,29,29,25,19,12,8,0.5,0.5
2026-01-04T0800,2506A,109.604387,23.066791,贵港市,江南子站,细颗粒物(PM2.5),59,61,67,42,43,28,,28,28,33,28,9,10,0.8,0.9
2026-01-04T0800,2508A,109.5669,23.1065,贵港市,荷城子站,细颗粒物(PM2.5),62,68,54,44,34,30,,42,42,28,22,11,8,0.7,0.7
2026-01-04T0800,3405A,109.5886,23.1172,贵港市,新世纪学校,细颗粒物(PM2.5),68,73,59,49,37,25,,36,36,33,25,/,/,0.6,0.5
2026-01-04T0800,4260A,109.5933,23.095,贵港市,中山路155-3号,细颗粒物(PM2.5),64,65,51,46,40,23,,39,39,37,25,/,/,0.8,0.8
2026-01-04T0800,1439A,106.6863,26.6035,贵阳市,马鞍山,,20,17,13,14,12,12,,12,12,14,17,4,4,/,/
2026-01-04T0800,1441A,106.6241,26.6266,贵阳市,鉴湖路,,14,14,17,3,8,24,,21,21,17,20,2,2,0.5,0.6
2026-01-04T0800,1442A,106.7468,26.6344,贵阳市,燕子冲,,35,24,17,24,19,11,,12,12,17,16,7,7,0.9,0.8
2026-01-04T0800,1443A,106.6556,26.4362,贵阳市,碧云窝,,24,24,18,12,7,15,,14,14,14,15,3,3,/,/
2026-01-04T0800,1445A,106.6963,26.6063,贵阳市,红边门,,22,22,16,12,11,12,,14,14,18,19,9,8,/,/
2026-01-04T0800,1446A,106.7162383,26.56964667,贵阳市,新华路,,34,34,20,19,9,12,,17,17,21,18,8,6,0.7,0.5
2026-01-04T0800,1447A,106.6742,26.542,贵阳市,太慈桥,,13,12,14,9,8,22,,21,21,17,20,4,4,/,/
2026-01-04T0800,4230A,106.688212,26.56952,贵阳市,花果园大街66号,,20,,7,14,12,16,,14,14,18,20,3,2,/,/
2026-01-04T0800,4231A,106.687268,26.516892,贵阳市,漓江路57号,,22,22,16,14,9,10,,9,9,20,20,8,8,0.8,0.7
2026-01-04T0800,1864A,110.3091,25.2705,桂林市,龙隐路小学,细颗粒物(PM2.5),88,,45,65,56,25,,29,29,17,13,6,6,0.4,0.4
2026-01-04T0800,1865A,110.2849361,25.22909545,桂林市,八中,细颗粒物(PM2.5),78,,47,57,51,23,,26,26,22,19,7,7,0.6,0.6
2026-01-04T0800,3531A,110.296,25.1254,桂林市,旅游学院,细颗粒物(PM2.5),55,46,39,39,35,28,,30,30,14,15,3,4,0.6,0.6
2026-01-04T0800,4222A,110.1835,25.2444,桂林市,环湖路276号,细颗粒物(PM2.5),70,53,49,51,43,23,,29,29,19,18,6,5,0.6,0.5
2026-01-04T0800,4301A,110.2803,25.2773,桂林市,信义路13号,细颗粒物(PM2.5),74,,45,54,44,27,,31,31,22,19,4,4,0.6,0.6
2026-01-04T0800,2674A,100.2262,34.4854,果洛藏族自治州,玛沁县大武镇,,40,40,45,3,11,33,,44,44,2,4,15,15,0.4,0.5
2026-01-04T0800,1130A,126.5557,45.8109,哈尔滨市,松北商大,,43,43,79,28,61,11,,16,16,46,35,6,8,0.7,0.8
2026-01-04T0800,1132A,126.6162,45.719,哈尔滨市,南岗学府路,,48,48,94,33,69,9,,17,17,44,35,16,11,0.9,1
2026-01-04T0800,1133A,126.6894,45.7733,哈尔滨市,太平宏伟公园,,40,38,77,28,59,27,,29,29,32,37,29,24,0.6,0.8
2026-01-04T0800,1134A,126.6361,45.7672,哈尔滨市,道外承德广场,,50,50,100,28,63,27,,29,29,35,40,12,12,0.3,0.4
2026-01-04T0800,1136A,126.644,45.7261,哈尔滨市,动力和平路,,42,42,90,26,63,20,,19,19,38,38,18,16,0.8,0.9
2026-01-04T0800,1137A,126.5933,45.7479,哈尔滨市,道里建国路,,45,,82,31,70,25,,26,26,29,35,22,19,0,0.3
2026-01-04T0800,1138A,126.6127,45.6119,哈尔滨市,平房东轻厂,细颗粒物(PM2.5),84,64,80,62,101,5,,14,14,48,43,10,7,0.7,0.6
2026-01-04T0800,1139A,126.5875,45.9827,哈尔滨市,呼兰师专,细颗粒物(PM2.5),64,,82,46,80,26,,15,15,23,32,6,10,0.6,0.9
2026-01-04T0800,1140A,126.6299,45.6799,哈尔滨市,省农科院,细颗粒物(PM2.5),94,81,106,70,82,8,,12,12,55,47,15,15,1.2,1.2
2026-01-04T0800,4282A,126.6769,45.7379,哈尔滨市,华山路1号,,42,36,86,29,63,26,,27,27,33,42,31,30,0.8,0.9
2026-01-04T0800,4283A,126.9717,45.5356,哈尔滨市,解放大街52号,颗粒物(PM10),91,132,124,47,84,11,,13,13,42,39,16,16,1.3,1.1
2026-01-04T0800,2688A,93.5124,42.8176,哈密市,地区监测站,,48,48,47,31,31,61,,58,58,10,14,3,4,0.0,0.1
2026-01-04T0800,2689A,93.5014,42.8312,哈密市,哈密师范学校,颗粒物(PM10),52,53,55,25,24,58,,35,35,14,28,6,7,0.2,0.4
2026-01-04T0800,2671A,100.9016,36.9464,海北藏族自治州,海晏县西海镇,细颗粒物(PM2.5),77,71,75,56,63,40,,44,44,17,22,11,15,1.0,1.1
2026-01-04T0800,3867A,102.074,36.5056,海东市,平安区公安局北苑,细颗粒物(PM2.5),99,,77,74,67,29,,40,40,13,16,11,19,1.0,1
2026-01-04T0800,4163A,102.0984,36.5119,海东市,滨河路,细颗粒物(PM2.5),94,73,72,70,70,19,,26,26,38,37,8,18,1.1,1
2026-01-04T0800,1410A,110.3189,20.0596,海口市,海南大学,,41,41,35,16,15,93,,94,94,7,8,6,6,0.3,0.3
2026-01-04T0800,1411A,110.2827,20.0051,海口市,秀英海南医院,,37,37,39,17,15,81,,83,83,9,9,7,8,0.3,0.3
2026-01-04T0800,1412A,110.3391,19.9979,海口市,海南师范大学,,38,38,38,18,16,85,,89,89,11,10,5,6,0.4,0.4
2026-01-04T0800,1413A,110.3303,20.0359,海口市,龙华路环保局宿舍,,38,38,36,18,16,90,,94,94,12,10,/,/,0.5,0.5
2026-01-04T0800,3539A,110.5111,19.9737,海口市,桂林洋子站,,37,37,34,18,17,85,,86,86,9,9,/,/,/,/
2026-01-04T0800,4134A,110.1952,20.0451,海口市,长滨二路9号,,36,36,30,17,16,89,,90,90,6,6,/,/,/,/
2026-01-04T0800,2673A,100.6158,36.2985,海南藏族自治州,共和县恰卜恰镇,,39,34,59,27,49,24,,45,45,31,21,10,12,0.7,0.7
2026-01-04T0800,2676A,97.373,37.376,海西蒙古族藏族自治州,德令哈市,,24,10,19,3,9,75,,77,77,3,7,12,12,0.4,0.5
2026-01-04T0800,1049A,114.492,36.5712,邯郸市,矿院,细颗粒物(PM2.5),208,,148,158,164,4,,6,6,51,50,2,6,1.1,1.2
2026-01-04T0800,1050A,114.4839,36.6136,邯郸市,丛台公园,细颗粒物(PM2.5),228,198,160,178,150,7,,17,17,62,40,5,8,1.3,1.3
2026-01-04T0800,3458A,114.7893,36.5592,邯郸市,香泉濮院小区,细颗粒物(PM2.5),219,171,147,169,147,14,,20,20,45,39,5,7,1.2,1.1
2026-01-04T0800,3580A,114.1998,36.4439,邯郸市,峰峰矿区临水派出所,细颗粒物(PM2.5),243,,115,193,161,8,,16,16,56,38,11,11,1.5,1.3
2026-01-04T0800,4068A,114.5209,36.7697,邯郸市,建安街268号,细颗粒物(PM2.5),223,201,176,173,161,6,,6,6,56,60,8,11,1.3,1.6
2026-01-04T0800,4069A,114.5488,36.6177,邯郸市,丛台东路558号,细颗粒物(PM2.5),236,221,203,186,163,7,,10,10,59,55,6,10,1.3,1.2
2026-01-04T0800,2635A,107.0155,33.0707,汉中市,市监测站,细颗粒物(PM2.5),84,,49,62,55,11,,16,16,20,24,4,4,1.0,0.8
2026-01-04T0800,2636A,107.0083,33.114,汉中市,鑫源开发区,细颗粒物(PM2.5),87,,47,64,55,15,,27,27,22,22,4,4,0.8,0.6
2026-01-04T0800,2637A,107.0072,33.0323,汉中市,南郑大河坎水厂,细颗粒物(PM2.5),74,60,73,54,63,8,,5,5,15,23,3,5,1.0,1.1
2026-01-04T0800,1223A,120.2073,30.2111,杭州市,滨江,细颗粒物(PM2.5),97,93,104,72,81,4,,2,2,50,54,7,7,0.8,0.6
2026-01-04T0800,1224A,120.0625,30.2737,杭州市,西溪,细颗粒物(PM2.5),97,90,89,72,69,2,,0,0,56,47,8,8,1.0,0.9
2026-01-04T0800,1226A,120.3417,30.315,杭州市,下沙,细颗粒物(PM2.5),105,107,106,79,86,6,,2,2,53,58,9,10,1.4,1.2
2026-01-04T0800,1227A,120.1252,30.2465,杭州市,卧龙桥,细颗粒物(PM2.5),108,99,88,81,72,3,,4,4,42,28,10,10,1.0,0.9
2026-01-04T0800,1228A,120.1902,30.2691,杭州市,浙江农大,细颗粒物(PM2.5),122,114,112,92,91,4,,1,1,56,59,4,5,0.8,0.6
2026-01-04T0800,1230A,120.1195,30.3121,杭州市,和睦小学,细颗粒物(PM2.5),109,107,107,82,81,3,,2,2,50,48,5,6,1.0,0.9
2026-01-04T0800,1231A,120.3076,30.4146,杭州市,临平镇,细颗粒物(PM2.5),125,131,114,95,82,2,,1,1,66,54,8,8,0.9,0.7
2026-01-04T0800,1232A,120.2753,30.1839,杭州市,城厢镇,细颗粒物(PM2.5),97,93,99,72,73,5,,2,2,51,56,8,9,0.7,0.5
2026-01-04T0800,1233A,120.0883,30.1808,杭州市,云栖,细颗粒物(PM2.5),107,94,92,80,74,5,,9,9,37,32,3,3,0.9,0.8
2026-01-04T0800,3557A,119.9463,30.0496,杭州市,镇二中,细颗粒物(PM2.5),100,77,78,75,77,4,,2,2,47,41,6,6,1.0,0.8
2026-01-04T0800,3558A,119.7184,30.2367,杭州市,市府大楼,细颗粒物(PM2.5),93,92,103,69,76,14,,18,18,31,27,10,10,0.9,0.9
2026-01-04T0800,3656A,120.1554,30.2863,杭州市,消防大队,细颗粒物(PM2.5),112,103,97,84,82,4,,2,2,56,49,7,7,0.4,0.3
2026-01-04T0800,1270A,117.1957,31.7845,合肥市,明珠广场,细颗粒物(PM2.5),94,90,79,70,61,8,,22,22,62,40,6,7,1.1,0.9
2026-01-04T0800,1271A,117.307,31.8765,合肥市,三里街,细颗粒物(PM2.5),89,83,79,66,60,2,,18,18,67,50,6,7,0.9,0.8
2026-01-04T0800,1272A,117.2587,31.8703,合肥市,琥珀山庄,细颗粒物(PM2.5),93,95,78,69,62,6,,26,26,73,38,9,10,1.1,1
2026-01-04T0800,1275A,117.2593,31.9376,合肥市,庐阳区,细颗粒物(PM2.5),85,95,88,63,60,15,,8,8,61,60,4,4,1.0,0.9
2026-01-04T0800,1276A,117.345251,31.861615,合肥市,瑶海区,细颗粒物(PM2.5),80,70,84,59,62,19,,14,14,53,54,5,6,0.9,0.9
2026-01-04T0800,1277A,117.3033,31.7967,合肥市,包河区,细颗粒物(PM2.5),94,90,82,70,67,6,,6,6,75,56,7,8,1.0,0.9
2026-01-04T0800,1278A,117.278,31.7392,合肥市,滨湖新区,细颗粒物(PM2.5),98,80,74,73,67,17,,31,31,57,32,4,5,1.0,0.9
2026-01-04T0800,1279A,117.1324,31.8395,合肥市,高新区,细颗粒物(PM2.5),94,88,72,70,56,13,,28,28,65,42,5,5,0.9,0.7
2026-01-04T0800,3464A,117.3802,31.9148,合肥市,高教基地,细颗粒物(PM2.5),93,80,80,69,66,26,,14,14,39,42,8,8,0.9,0.9
2026-01-04T0800,4098A,117.2518,31.8404,合肥市,中国科学技术大学,细颗粒物(PM2.5),84,79,72,62,55,17,,30,30,57,38,7,7,0.9,0.7
2026-01-04T0800,3614A,79.9241,37.0878,和田地区,地区环保局,,39,39,50,22,31,49,,49,49,10,14,2,2,0.8,0.8
2026-01-04T0800,3615A,79.9132,37.1137,和田地区,市环保局,,34,34,54,10,29,41,,47,47,25,24,3,2,0.3,0.9
2026-01-04T0800,2517A,108.0496,24.6957,河池市,市环保站,,30,,29,21,24,27,,29,29,11,11,2,5,0.8,0.7
2026-01-04T0800,4302A,108.0901,24.6945,河池市,上任中路54号,,23,,31,16,30,25,,27,27,12,12,4,7,0.7,0.7
2026-01-04T0800,1697A,114.6962,23.7538,河源市,东埔,,30,30,29,20,22,4,,4,4,33,28,6,6,0.9,0.7
2026-01-04T0800,1698A,114.6895,23.7232,河源市,老城,,26,26,30,15,24,12,,13,13,20,20,10,7,1.0,0.8
2026-01-04T0800,3374A,115.5562,35.089,菏泽市,定陶老年大学,细颗粒物(PM2.5),100,90,94,75,78,32,,36,36,19,21,2,2,0.7,0.7
2026-01-04T0800,4114A,115.4239,35.2593,菏泽市,黄河路600号,细颗粒物(PM2.5),115,104,108,87,90,27,,37,37,26,24,2,3,1.0,1
2026-01-04T0800,4115A,115.5025,35.2727,菏泽市,菏泽市人社局,细颗粒物(PM2.5),108,94,95,81,82,25,,42,42,25,20,2,2,0.7,0.6
2026-01-04T0800,4184A,115.479691,35.244011,菏泽市,永昌路1号,细颗粒物(PM2.5),103,102,99,77,85,28,,42,42,25,21,4,4,0.6,0.6
2026-01-04T0800,4193A,115.471542,35.280012,菏泽市,长城路999号,细颗粒物(PM2.5),107,99,99,80,79,34,,46,46,21,18,4,4,1.1,1
2026-01-04T0800,2514A,111.5264,24.4178,贺州市,环保小区,细颗粒物(PM2.5),64,60,56,46,44,6,,20,20,27,22,7,6,0.7,0.7
2026-01-04T0800,2515A,111.561,24.4074,贺州市,政协大楼,细颗粒物(PM2.5),59,52,56,42,45,1,,1,1,29,28,21,11,0.8,0.7
2026-01-04T0800,3534A,111.4744,24.455,贺州市,西湾,细颗粒物(PM2.5),67,62,51,48,40,15,,18,18,25,22,8,7,0.8,0.7
2026-01-04T0800,2385A,114.17,35.9019,鹤壁市,市监测站,细颗粒物(PM2.5),192,163,148,144,128,2,,4,4,43,40,4,5,1.1,1.2
2026-01-04T0800,2386A,114.2953,35.7512,鹤壁市,市交警支队,细颗粒物(PM2.5),168,165,143,127,121,0,,3,3,52,48,7,5,1.2,1
2026-01-04T0800,2387A,114.2877,35.7302,鹤壁市,迎宾馆,细颗粒物(PM2.5),176,166,145,133,124,0,,2,2,44,39,6,6,1.4,1.1
2026-01-04T0800,3474A,114.2616,35.6824,鹤壁市,大新区,细颗粒物(PM2.5),195,,143,146,126,2,,4,4,47,48,7,7,1.4,1.2
2026-01-04T0800,3596A,114.1573,35.9607,鹤壁市,南山宾馆,细颗粒物(PM2.5),182,154,140,137,120,3,,7,7,44,36,5,7,1.0,1
2026-01-04T0800,2244A,130.2537,47.3416,鹤岗市,哈啤分公司,,32,,25,22,25,60,,60,60,7,7,6,7,0.3,0.4
2026-01-04T0800,2245A,130.2683,47.3087,鹤岗市,斯达机电,,38,26,30,26,26,61,,66,66,10,8,5,6,0.4,0.4
2026-01-04T0800,2246A,130.3114,47.3388,鹤岗市,东山纸板厂,,35,,22,24,19,62,,67,67,12,7,9,8,0.8,0.6
2026-01-04T0800,2263A,127.4832,50.2524,黑河市,交通局,,18,10,14,10,14,57,,65,65,22,7,5,4,0.4,0.3
2026-01-04T0800,2264A,127.5146,50.2339,黑河市,环保局,,20,,14,12,13,62,,62,62,10,10,4,5,0.3,0.3
2026-01-04T0800,1074A,115.6839,37.754,衡水市,电机北厂,细颗粒物(PM2.5),216,202,161,166,135,0,,0,0,54,42,4,6,1.4,1
2026-01-04T0800,1075A,115.6303,37.7318,衡水市,市监测站,细颗粒物(PM2.5),183,155,144,138,129,5,,16,16,53,39,7,7,1.2,1
2026-01-04T0800,3188A,115.6684,37.7216,衡水市,市城管局,细颗粒物(PM2.5),189,172,148,142,126,2,,8,8,57,45,8,8,1.4,1
2026-01-04T0800,3459A,115.599,37.5491,衡水市,地表水厂,细颗粒物(PM2.5),195,,136,146,142,3,,3,3,53,49,7,7,1.0,0.9
2026-01-04T0800,2457A,112.6209,26.9268,衡阳市,衡阳化工总厂,细颗粒物(PM2.5),74,,51,54,50,26,,29,29,14,15,5,6,1.0,1
2026-01-04T0800,2458A,112.621,26.8957,衡阳市,珠晖区环保局,细颗粒物(PM2.5),77,,48,56,51,19,,24,24,20,19,3,5,1.0,0.9
2026-01-04T0800,2459A,112.628,26.8654,衡阳市,市委党校,细颗粒物(PM2.5),72,,48,52,50,26,,30,30,18,17,8,10,0.9,0.9
2026-01-04T0800,2460A,112.6007,26.8977,衡阳市,市监测站,细颗粒物(PM2.5),87,75,75,64,57,25,,28,28,15,16,5,7,0.8,0.8
2026-01-04T0800,2461A,112.5658,26.9013,衡阳市,真空机电公司,细颗粒物(PM2.5),88,69,69,65,55,13,,25,25,26,18,6,8,1.2,0.9
2026-01-04T0800,3399A,112.6703,26.8817,衡阳市,师范学院,细颗粒物(PM2.5),69,55,64,50,47,20,,26,26,20,20,2,4,0.8,0.8
2026-01-04T0800,3038A,103.3757,23.3679,红河哈尼族彝族自治州,州图书馆,,13,6,7,3,4,40,,44,44,7,7,6,6,0.6,0.6
2026-01-04T0800,4154A,103.401,23.3561,红河哈尼族彝族自治州,蒙自市朝阳路,,14,10,12,3,8,44,,42,42,4,5,8,8,0.5,0.5
2026-01-04T0800,1090A,111.6506,40.7517,呼和浩特市,呼市一监,细颗粒物(PM2.5),112,110,94,84,68,3,,2,2,42,50,4,7,1.7,1.3
2026-01-04T0800,1094A,111.7516,40.8369,呼和浩特市,如意水处理厂,细颗粒物(PM2.5),63,71,97,45,60,3,,3,3,54,58,11,16,1.3,1.2
2026-01-04T0800,1095A,111.727798,40.806187,呼和浩特市,二十九中,颗粒物(PM10),67,83,93,45,58,3,,3,3,57,55,13,17,1.4,1.1
2026-01-04T0800,1097A,111.717,40.7617,呼和浩特市,化肥厂生活区,细颗粒物(PM2.5),77,82,92,56,57,1,,2,2,46,53,8,12,1.7,1.2
2026-01-04T0800,3699A,111.6519,40.8389,呼和浩特市,海东办,细颗粒物(PM2.5),73,85,103,53,59,3,,4,4,56,58,8,11,1.4,1.1
2026-01-04T0800,4275A,111.591512,40.827312,呼和浩特市,成吉思汗西街8号,,31,31,88,17,40,48,,47,47,17,42,3,10,0.4,0.9
2026-01-04T0800,4276A,111.6597,40.8077,呼和浩特市,公园东路75号,细颗粒物(PM2.5),79,85,100,58,59,7,,6,6,59,60,9,12,1.4,1
2026-01-04T0800,4277A,111.5427,40.7846,呼和浩特市,金海路35号,细颗粒物(PM2.5),108,112,107,81,67,0,,1,1,57,55,11,15,1.2,1
2026-01-04T0800,3061A,119.7511,49.1576,呼伦贝尔市,国华电力东,,28,23,26,19,21,46,,44,44,20,26,5,6,0.3,0.4
2026-01-04T0800,4279A,119.7569,49.2222,呼伦贝尔市,伊敏大街东7号,,32,,33,22,23,36,,41,41,25,26,7,8,0.5,0.5
2026-01-04T0800,1250A,120.075,30.867,湖州市,城西水厂,细颗粒物(PM2.5),117,113,101,88,76,8,,12,12,63,48,11,10,0.7,0.6
2026-01-04T0800,2873A,120.083,30.8929,湖州市,仁皇山新区,细颗粒物(PM2.5),120,110,101,91,83,12,,16,16,77,60,11,10,0.6,0.6
2026-01-04T0800,2907A,120.1846,30.8592,湖州市,吴兴区站,细颗粒物(PM2.5),132,119,101,100,84,7,,12,12,72,52,8,8,0.8,0.7
2026-01-04T0800,3562A,120.4146,30.8538,湖州市,南浔区站,细颗粒物(PM2.5),93,82,99,69,77,3,,7,7,74,56,7,7,0.8,0.7
2026-01-04T0800,1607A,120.904878,40.721091,葫芦岛市,龙港区,细颗粒物(PM2.5),172,,98,130,74,9,,7,7,49,44,34,42,2.9,1.8
2026-01-04T0800,1608A,120.8382,40.7521,葫芦岛市,化工街,细颗粒物(PM2.5),94,127,100,70,64,7,,7,7,55,47,53,53,1.2,1.2
2026-01-04T0800,1609A,120.8339,40.7078,葫芦岛市,新区,细颗粒物(PM2.5),79,71,69,58,53,5,,4,4,59,52,18,20,1.7,1.2
2026-01-04T0800,1610A,120.8697,40.7679,葫芦岛市,东城区,细颗粒物(PM2.5),97,105,96,72,75,6,,5,5,58,50,18,48,1.8,1.5
2026-01-04T0800,2483A,109.9297,27.5383,怀化市,河西地税局,,20,17,36,14,36,23,,31,31,12,12,2,4,/,/
2026-01-04T0800,2484A,109.9783,27.5342,怀化市,市四医院,,20,18,38,14,34,18,,23,23,11,11,8,8,0.6,0.6
2026-01-04T0800,2485A,109.9971,27.5579,怀化市,监测楼,,22,,20,15,21,27,,33,33,14,12,2,3,0.2,0.3
2026-01-04T0800,1210A,119.0566,33.5991,淮安市,钵池山,细颗粒物(PM2.5),67,68,54,48,41,4,,27,27,71,37,8,9,0.7,0.6
2026-01-04T0800,1211A,119.0083,33.578,淮安市,北京南路,细颗粒物(PM2.5),74,88,61,54,42,0,,6,6,70,46,8,9,1.3,1
2026-01-04T0800,1212A,118.9938,33.6083,淮安市,市监测站,细颗粒物(PM2.5),79,85,52,58,42,2,,20,20,59,37,10,10,1.3,0.8
2026-01-04T0800,1213A,119.135,33.5038,淮安市,楚州区监测站,细颗粒物(PM2.5),75,85,55,55,41,0,,0,0,79,50,12,10,0.9,0.6
2026-01-04T0800,3426A,118.8757,33.2897,淮安市,新华书店,细颗粒物(PM2.5),84,80,61,62,48,4,,19,19,60,36,9,11,1.0,0.8
2026-01-04T0800,4092A,119.119691,33.550006,淮安市,枚皋中路89号,细颗粒物(PM2.5),79,70,61,58,45,5,,6,6,72,45,9,8,1.0,0.7
2026-01-04T0800,4206A,119.028838,33.631911,淮安市,承德北路606号,颗粒物(PM10),93,136,67,52,40,2,,23,23,74,42,9,9,1.3,0.8
2026-01-04T0800,2282A,116.8005,33.9749,淮北市,监测站,细颗粒物(PM2.5),84,98,94,62,68,32,,36,36,47,36,10,9,0.8,0.6
2026-01-04T0800,2283A,116.8094,33.9008,淮北市,烈山区政府,细颗粒物(PM2.5),99,98,95,74,77,26,,18,18,35,36,13,10,0.5,0.5
2026-01-04T0800,4017A,116.7926,33.9534,淮北市,市博物馆,细颗粒物(PM2.5),89,100,98,66,71,29,,33,33,42,33,11,10,0.3,0.4
2026-01-04T0800,4100A,116.8322,33.9884,淮北市,杜集区第一实验学校,细颗粒物(PM2.5),93,96,94,69,74,28,,26,26,27,22,10,8,0.6,0.6
2026-01-04T0800,2277A,116.8304,32.7726,淮南市,潘集区政府,细颗粒物(PM2.5),109,102,85,82,71,14,,19,19,44,33,7,6,0.9,0.6
2026-01-04T0800,2279A,116.8569,32.5949,淮南市,谢家集区政府,细颗粒物(PM2.5),77,96,76,56,47,30,,35,35,41,33,10,8,0.7,0.4
2026-01-04T0800,2280A,116.8279,32.6333,淮南市,八公山区政府,细颗粒物(PM2.5),95,92,66,71,52,26,,39,39,35,22,5,5,0.8,0.5
2026-01-04T0800,2894A,117.0561,32.6536,淮南市,经济技术开发区消防队,细颗粒物(PM2.5),88,92,81,65,59,21,,23,23,44,35,6,5,0.9,0.5
2026-01-04T0800,3329A,117.011,32.5891,淮南市,山南新区,细颗粒物(PM2.5),85,87,72,63,52,39,,45,45,27,21,4,2,0.8,0.5
2026-01-04T0800,4209A,117.003137,32.644456,淮南市,国庆中路369号,细颗粒物(PM2.5),89,78,66,66,59,35,,36,36,32,27,8,6,0.9,0.6
2026-01-04T0800,2446A,114.9021,30.474,黄冈市,职工中心,细颗粒物(PM2.5),59,53,54,42,38,48,,56,56,14,19,6,8,0.7,0.7
2026-01-04T0800,2929A,114.8858,30.4519,黄冈市,红卫路,细颗粒物(PM2.5),58,44,52,41,39,49,,57,57,16,23,6,8,0.6,0.6
2026-01-04T0800,3398A,114.9134,30.4446,黄冈市,市林业局,细颗粒物(PM2.5),59,48,53,42,41,51,,59,59,16,22,4,6,0.7,0.7
2026-01-04T0800,2672A,102.02,35.5101,黄南藏族自治州,同仁县隆务镇,细颗粒物(PM2.5),52,46,56,36,48,48,,50,50,2,6,9,10,0.6,0.6
2026-01-04T0800,2295A,118.2905,29.6965,黄山市,延安路89号,,35,34,35,24,29,12,,14,14,19,16,4,4,0.5,0.5
2026-01-04T0800,2297A,118.1369,30.2755,黄山市,黄山区政府5号楼,细颗粒物(PM2.5),52,37,40,36,33,10,,13,13,15,15,5,6,0.6,0.6
2026-01-04T0800,4210A,118.335445,29.720283,黄山市,滨江东路7-2号,颗粒物(PM10),55,59,52,37,40,12,,18,18,20,18,/,/,/,/
2026-01-04T0800,2423A,115.0547,30.2332,黄石市,沈家营,,49,49,60,31,37,42,,44,44,14,16,5,9,1.1,1.2
2026-01-04T0800,2426A,114.899,30.211,黄石市,铁山,细颗粒物(PM2.5),60,,53,43,54,49,,42,42,4,17,4,6,0.7,0.7
2026-01-04T0800,2427A,115.0259,30.2108,黄石市,团城山,细颗粒物(PM2.5),69,,61,50,46,48,,44,44,12,17,6,7,0.7,0.7
2026-01-04T0800,3149A,115.0174,30.1591,黄石市,笔架山北路,颗粒物(PM10),52,54,74,27,44,43,,40,40,9,16,6,7,0.9,1
2026-01-04T0800,4185A,115.078022,30.21118,黄石市,磁湖东路29号,细颗粒物(PM2.5),63,52,56,45,45,37,,44,44,16,18,6,10,0.8,0.8
2026-01-04T0800,1392A,114.4181,23.0528,惠州市,河南岸金山湖子站,颗粒物(PM10),53,56,43,36,27,7,,24,24,34,25,7,5,1.0,0.6
2026-01-04T0800,1393A,114.4055,23.0824,惠州市,下埔横江三路子站,颗粒物(PM10),55,60,44,38,27,12,,26,26,36,22,11,8,0.7,0.6
2026-01-04T0800,1395A,114.4645,22.7832,惠州市,惠阳区承修路船湖子站,颗粒物(PM10),55,60,48,34,27,22,,31,31,39,24,9,7,0.7,0.6
2026-01-04T0800,1396A,114.5316,22.7423,惠州市,大亚湾管委会子站,颗粒物(PM10),56,62,44,33,23,5,,56,56,63,21,6,6,0.5,0.3
2026-01-04T0800,3314A,114.4334,22.8134,惠州市,惠阳秋长,颗粒物(PM10),54,58,48,36,29,34,,37,37,39,30,/,/,/,/
2026-01-04T0800,3452A,114.6521,22.7755,惠州市,大亚湾霞涌,,44,44,39,28,24,62,,74,74,21,17,/,/,/,/
2026-01-04T0800,4300A,114.4089,23.1147,惠州市,文华一路1号,"颗粒物(PM10),细颗粒物(PM2.5)",55,59,46,39,29,7,,6,6,38,28,/,/,/,/
2026-01-04T0800,2240A,130.9618,45.2926,鸡西市,环保局,,43,41,33,30,22,41,,52,52,17,8,6,6,0.5,0.4
2026-01-04T0800,2243A,130.9294,45.2959,鸡西市,第一中学,细颗粒物(PM2.5),57,41,30,40,23,51,,56,56,11,8,3,3,0.5,0.4
2026-01-04T0800,3707A,131.0069,45.2988,鸡西市,欧美日汽修厂,细颗粒物(PM2.5),60,60,36,43,25,46,,57,57,18,10,5,6,0.7,0.5
2026-01-04T0800,2367A,114.9753,27.0803,吉安市,红声器材厂,颗粒物(PM10),55,59,46,36,28,26,,40,40,27,20,12,12,0.6,0.5
2026-01-04T0800,2369A,114.9903,27.1313,吉安市,市环境监测站,颗粒物(PM10),53,56,44,35,30,23,,38,38,22,14,15,14,/,/
2026-01-04T0800,2370A,115.009527,27.096792,吉安市,青原区法院,细颗粒物(PM2.5),59,54,47,42,31,31,,42,42,18,15,12,14,0.6,0.5
2026-01-04T0800,1772A,126.54,43.8622,吉林市,哈达湾,细颗粒物(PM2.5),95,91,78,71,58,21,,30,30,52,35,8,13,1.8,1.7
2026-01-04T0800,1773A,126.5843,43.8358,吉林市,东局子,细颗粒物(PM2.5),90,85,75,67,64,9,,14,14,42,36,4,8,1.9,1.7
2026-01-04T0800,1774A,126.5051,43.8243,吉林市,电力学院,细颗粒物(PM2.5),193,169,106,145,89,14,,12,12,50,44,15,16,2.0,1.7
2026-01-04T0800,1775A,126.6133,43.8971,吉林市,江北,细颗粒物(PM2.5),210,197,100,160,78,13,,16,16,47,39,6,10,2.8,1.7
2026-01-04T0800,1776A,126.5549,43.8304,吉林市,江南公园,细颗粒物(PM2.5),110,97,83,83,68,4,,6,6,48,38,7,13,2.1,1.6
2026-01-04T0800,2868A,126.4737,43.953,吉林市,九站,细颗粒物(PM2.5),124,115,94,94,74,6,,8,8,56,46,13,11,1.8,1.5
2026-01-04T0800,1299A,116.9866,36.6118,济南市,科干所,细颗粒物(PM2.5),77,83,92,56,66,34,,62,62,48,26,7,8,0.9,0.9
2026-01-04T0800,1300A,116.9379,36.6652,济南市,农科所,细颗粒物(PM2.5),108,110,107,81,91,19,,36,36,55,38,6,8,1.1,1
2026-01-04T0800,1301A,117.1265,36.6736,济南市,开发区,细颗粒物(PM2.5),117,103,108,88,85,27,,41,41,45,36,3,4,0.9,1
2026-01-04T0800,1303A,117.0616,36.6865,济南市,省种子仓库,细颗粒物(PM2.5),113,122,124,85,87,11,,7,7,68,49,5,7,1.0,1
2026-01-04T0800,1304A,116.9495185,36.644937,济南市,机床二厂,细颗粒物(PM2.5),119,142,116,90,94,9,,27,27,74,44,18,18,1.5,1.1
2026-01-04T0800,1305A,117.0496,36.6629,济南市,市监测站,细颗粒物(PM2.5),89,88,97,66,78,14,,27,27,55,31,4,5,0.8,0.9
2026-01-04T0800,1306A,116.7674,36.5458,济南市,长清党校,细颗粒物(PM2.5),89,95,97,66,78,30,,50,50,42,24,5,7,0.8,0.8
2026-01-04T0800,1961A,117.5323,36.6865,济南市,东山小学,细颗粒物(PM2.5),102,117,105,76,81,14,,32,32,62,36,3,5,1.1,1
2026-01-04T0800,3059A,117.7181,36.205,济南市,泰兴公司,细颗粒物(PM2.5),168,171,148,127,124,6,,6,6,57,54,6,9,1.3,1.2
2026-01-04T0800,3064A,117.6861,36.2172,济南市,莱芜战役纪念馆,细颗粒物(PM2.5),179,175,146,135,122,4,,4,4,62,54,10,10,1.3,1.1
2026-01-04T0800,3494A,117.1673,36.9782,济南市,济阳区政府,细颗粒物(PM2.5),129,132,135,98,103,22,,12,12,51,46,8,9,0.9,0.8
2026-01-04T0800,3495A,117.1168,36.6299,济南市,锦屏中学,细颗粒物(PM2.5),80,76,82,59,64,45,,51,51,30,23,3,3,0.7,0.7
2026-01-04T0800,4108A,117.7107,36.2385,济南市,山财大街5号,细颗粒物(PM2.5),143,156,159,109,110,11,,13,13,57,50,6,9,1.2,1.1
2026-01-04T0800,4109A,116.9744,36.6889,济南市,无影山路12号,细颗粒物(PM2.5),149,159,121,114,93,6,,21,21,70,41,19,12,1.5,1
2026-01-04T0800,1653A,116.6229,35.4288,济宁市,火炬城,细颗粒物(PM2.5),147,124,94,112,95,23,,31,31,44,27,8,7,0.8,0.6
2026-01-04T0800,3500A,116.5808,35.3703,济宁市,北湖一中,细颗粒物(PM2.5),169,144,86,128,88,4,,25,25,59,30,6,6,1.1,0.7
2026-01-04T0800,3501A,116.8251,35.5592,济宁市,服务中心,细颗粒物(PM2.5),127,150,126,96,89,7,,8,8,54,44,12,12,0.8,0.7
2026-01-04T0800,3678A,116.5907,35.4054,济宁市,市第七中学,细颗粒物(PM2.5),149,146,99,114,83,9,,20,20,58,34,10,8,1.0,0.7
2026-01-04T0800,4111A,116.6075,35.4566,济宁市,任和路,细颗粒物(PM2.5),149,148,112,114,84,6,,22,22,56,32,8,6,1.0,0.7
2026-01-04T0800,4112A,116.5648,35.3921,济宁市,文体南路1号,细颗粒物(PM2.5),150,145,107,115,84,10,,28,28,51,27,5,4,0.9,0.6
2026-01-04T0800,2255A,130.2749,46.8028,佳木斯市,佳纺,细颗粒物(PM2.5),59,51,39,42,33,30,,45,45,36,19,11,10,0.6,0.3
2026-01-04T0800,2257A,130.3258,46.7975,佳木斯市,环保局,细颗粒物(PM2.5),55,42,40,39,31,32,,46,46,32,18,14,10,1.0,0.5
2026-01-04T0800,4285A,130.363,46.806,佳木斯市,顺和街,细颗粒物(PM2.5),54,44,37,38,28,33,,42,42,32,21,11,10,0.9,0.5
2026-01-04T0800,4286A,130.3952,46.8268,佳木斯市,长安路196号,细颗粒物(PM2.5),54,38,34,38,29,53,,54,54,10,13,5,6,0.4,0.4
2026-01-04T0800,1252A,120.7439,30.778,嘉兴市,清河小学,细颗粒物(PM2.5),88,86,99,65,72,6,,6,6,68,141,8,8,0.9,0.7
2026-01-04T0800,1253A,120.7261,30.7477,嘉兴市,嘉兴学院,细颗粒物(PM2.5),78,79,100,57,68,16,,5,5,47,44,8,8,0.9,0.9
2026-01-04T0800,2872A,120.7845,30.7524,嘉兴市,南湖区残联,细颗粒物(PM2.5),90,86,94,67,71,4,,6,6,62,52,5,6,1.2,0.8
2026-01-04T0800,3407A,120.6915,30.7741,嘉兴市,秀洲住建,细颗粒物(PM2.5),88,84,100,65,76,8,,4,4,60,59,7,8,0.8,0.6
2026-01-04T0800,1945A,98.291,39.7705,嘉峪关市,气象局,,34,34,54,19,29,62,,60,60,13,27,30,18,0.5,0.6
2026-01-04T0800,2884A,98.2672,39.7978,嘉峪关市,酒钢宾馆,,39,39,64,22,36,53,,60,60,14,18,28,28,0.4,0.7
2026-01-04T0800,3248A,98.2644,39.7723,嘉峪关市,雄关区,,39,35,46,27,27,60,,55,55,19,31,36,24,0.3,0.6
2026-01-04T0800,1383A,113.1063,22.6058,江门市,北街,细颗粒物(PM2.5),73,77,63,53,43,3,,5,5,82,51,/,/,/,/
2026-01-04T0800,1384A,113.073,22.5835,江门市,西区,颗粒物(PM10),77,103,75,54,41,1,,2,2,76,54,/,/,/,/
2026-01-04T0800,1385A,113.0218,22.531,江门市,圭峰西,细颗粒物(PM2.5),68,61,51,49,37,12,,43,43,50,32,/,/,/,/
2026-01-04T0800,1386A,113.0826,22.5947,江门市,东湖,细颗粒物(PM2.5),73,82,67,53,38,2,,2,2,74,53,8,8,0.8,0.6
2026-01-04T0800,3311A,113.1077,22.5647,江门市,江海富民,颗粒物(PM10),82,113,76,53,33,3,,15,15,89,54,/,/,0.7,0.5
2026-01-04T0800,3449A,113.0496,22.4669,江门市,新会银湖,细颗粒物(PM2.5),78,64,59,57,48,1,,5,5,47,38,7,8,0.9,0.7
2026-01-04T0800,3335A,113.3137,35.2643,焦作市,马村街道办,细颗粒物(PM2.5),134,,125,102,123,35,,20,20,19,34,6,8,0.9,1.2
2026-01-04T0800,3336A,113.2464,35.2374,焦作市,焦作技师学院,细颗粒物(PM2.5),119,102,138,90,114,31,,19,19,22,39,8,11,1.0,1.2
2026-01-04T0800,3477A,113.1656,35.2536,焦作市,中站许衡医院,细颗粒物(PM2.5),125,104,121,95,109,29,,28,28,29,41,10,11,2.3,1.4
2026-01-04T0800,3981A,113.2456,35.18,焦作市,原李万街道办,细颗粒物(PM2.5),100,,112,75,106,39,,24,24,15,28,3,6,0.9,1.1
2026-01-04T0800,4264A,113.234,35.219,焦作市,新安路1731号,细颗粒物(PM2.5),115,90,129,87,116,32,,20,20,12,27,4,7,0.9,1.1
2026-01-04T0800,4295A,113.2722,35.2121,焦作市,人民路3066号,细颗粒物(PM2.5),94,104,127,70,94,34,,21,21,13,29,4,7,0.8,1
2026-01-04T0800,1708A,116.3701,23.5345,揭阳市,新兴,细颗粒物(PM2.5),70,59,51,51,42,17,,39,39,45,27,10,12,0.8,0.6
2026-01-04T0800,1709A,116.3261,23.5442,揭阳市,西马,细颗粒物(PM2.5),64,56,56,46,36,17,,33,33,36,22,8,7,0.8,0.7
2026-01-04T0800,1710A,116.361,23.5627,揭阳市,东兴,细颗粒物(PM2.5),64,66,53,46,30,9,,24,24,41,26,9,11,/,/
2026-01-04T0800,1711A,116.4151,23.5295,揭阳市,渔湖,细颗粒物(PM2.5),78,67,51,57,32,10,,32,32,50,28,4,6,/,/
2026-01-04T0800,3320A,116.4028,23.5699,揭阳市,曲溪,颗粒物(PM10),65,79,56,39,32,13,,39,39,40,24,4,7,0.6,0.5
2026-01-04T0800,1944A,102.1691,38.5166,金昌市,天庆家园,,39,31,57,27,42,29,,41,41,38,18,1,5,1.1,0.8
2026-01-04T0800,4022A,102.1648,38.5369,金昌市,金川区人防中心,,35,35,56,20,43,45,,54,54,25,15,5,7,1.0,0.8
2026-01-04T0800,4239A,102.193042,38.531887,金昌市,长春路96号,,34,34,54,20,38,21,,42,42,45,18,5,6,1.6,0.9
2026-01-04T0800,1262A,119.6478,29.0773,金华市,十五中,细颗粒物(PM2.5),103,109,106,77,75,4,,2,2,63,52,4,3,1.0,0.8
2026-01-04T0800,1263A,119.6859,29.1032,金华市,监测站,细颗粒物(PM2.5),107,116,111,80,82,2,,0,0,77,69,3,3,0.9,0.8
2026-01-04T0800,3659A,119.656,29.1132,金华市,气象局,细颗粒物(PM2.5),100,110,109,75,75,4,,4,4,64,55,4,3,0.9,0.8
2026-01-04T0800,1767A,121.1114,41.0879,锦州市,南山,细颗粒物(PM2.5),98,81,78,73,76,5,,5,5,43,43,12,16,1.3,1.5
2026-01-04T0800,1768A,121.060361,40.842794,锦州市,开发区,细颗粒物(PM2.5),107,96,96,80,66,7,,8,8,48,50,46,46,1.3,1.3
2026-01-04T0800,1769A,121.1836,41.1118,锦州市,百股街道,细颗粒物(PM2.5),125,,80,95,72,5,,4,4,47,44,13,20,1.9,1.4
2026-01-04T0800,1770A,121.1176,41.1224,锦州市,天安街道,细颗粒物(PM2.5),98,91,77,73,66,4,,5,5,49,43,20,20,2.0,1.6
2026-01-04T0800,1771A,121.1303,41.1385,锦州市,北湖公园,细颗粒物(PM2.5),122,106,83,92,72,6,,8,8,46,40,14,19,2.1,1.4
2026-01-04T0800,2160A,112.8496,35.5051,晋城市,自来水公司,细颗粒物(PM2.5),112,,95,84,80,36,,40,40,22,28,4,8,1.4,1.6
2026-01-04T0800,2162A,112.8509,35.4886,晋城市,市环保局,细颗粒物(PM2.5),100,96,107,75,73,41,,41,41,20,29,4,7,1.4,1.5
2026-01-04T0800,3620A,112.8258,35.4804,晋城市,泽州一中,细颗粒物(PM2.5),104,79,87,78,67,44,,47,47,19,24,3,5,1.0,0.8
2026-01-04T0800,4078A,112.8246,35.5152,晋城市,前书院路,细颗粒物(PM2.5),95,122,90,71,49,35,,37,37,21,31,4,6,1.2,1
2026-01-04T0800,4079A,112.8864,35.4773,晋城市,祥云街666号,细颗粒物(PM2.5),110,96,102,83,89,44,,44,44,21,29,4,9,1.1,1.2
2026-01-04T0800,2174A,112.6992,37.6984,晋中市,榆次区政府,细颗粒物(PM2.5),210,205,185,160,132,2,,2,2,60,65,28,24,2.6,1.6
2026-01-04T0800,2865A,112.7195,37.683,晋中市,榆次三中,细颗粒物(PM2.5),199,224,174,149,114,0,,0,0,62,60,26,25,2.3,1.5
2026-01-04T0800,4080A,112.7375,37.7215,晋中市,广安街188号,细颗粒物(PM2.5),214,254,208,164,133,6,,3,3,72,70,21,20,1.9,1.6
2026-01-04T0800,4200A,112.7478,37.6954,晋中市,迎宾街26号,细颗粒物(PM2.5),203,215,166,153,114,1,,1,1,62,62,29,25,2.1,1.6
2026-01-04T0800,2439A,112.2012,31.048,荆门市,竹园小学,细颗粒物(PM2.5),137,116,110,104,93,4,,13,13,37,29,2,4,0.6,0.4
2026-01-04T0800,2440A,112.1968,30.9892,荆门市,掇刀,细颗粒物(PM2.5),105,94,100,79,86,21,,24,24,24,21,1,3,0.5,0.6
2026-01-04T0800,3012A,112.1849,31.0361,荆门市,西山林语,细颗粒物(PM2.5),104,91,95,78,83,15,,21,21,25,24,6,5,1.0,0.8
2026-01-04T0800,3547A,112.1631,31.0134,荆门市,龙泉中学南校,细颗粒物(PM2.5),105,100,107,79,89,26,,38,38,15,12,6,7,0.3,0.4
2026-01-04T0800,4124A,112.2213,31.0654,荆门市,新台西路6号,细颗粒物(PM2.5),127,111,102,96,92,11,,20,20,24,26,7,8,0.7,0.7
2026-01-04T0800,1844A,112.2493,30.3198,荆州市,市图书馆,细颗粒物(PM2.5),97,,64,72,77,38,,36,36,18,21,13,8,0.8,0.8
2026-01-04T0800,1845A,112.2009,30.3543,荆州市,市委党校,细颗粒物(PM2.5),94,,70,70,75,31,,30,30,17,23,11,5,0.9,0.9
2026-01-04T0800,3194A,112.2749,30.3124,荆州市,管委会,细颗粒物(PM2.5),98,,67,73,78,37,,28,28,17,31,10,7,0.7,0.8
2026-01-04T0800,4268A,112.1722,30.3366,荆州市,学苑路85号,细颗粒物(PM2.5),88,70,65,65,65,33,,34,34,19,19,12,12,0.8,0.7
2026-01-04T0800,2343A,117.2114,29.2931,景德镇市,老干部活动中心,,39,32,41,27,30,10,,15,15,20,19,7,8,0.3,0.4
2026-01-04T0800,2344A,117.1893,29.2789,景德镇市,兽医站,,38,30,37,26,28,20,,17,17,18,20,7,10,0.8,0.6
2026-01-04T0800,2346A,117.246,29.2958,景德镇市,陶研所,,,35,32,,28,4,,10,10,24,16,4,4,0.7,0.7
2026-01-04T0800,4289A,117.154766,29.256967,景德镇市,青少年活动中心,,38,28,41,26,29,12,,18,18,30,25,7,9,/,/
2026-01-04T0800,1803A,115.9873,29.6816,九江市,十里,细颗粒物(PM2.5),75,,54,55,48,10,,35,35,49,35,4,7,0.9,0.9
2026-01-04T0800,1804A,115.9583,29.7047,九江市,茅山头,细颗粒物(PM2.5),70,66,55,51,46,32,,42,42,25,27,4,5,0.8,0.9
2026-01-04T0800,1805A,115.9877,29.7295,九江市,西园,细颗粒物(PM2.5),60,55,54,43,39,41,,50,50,35,36,2,4,0.7,0.8
2026-01-04T0800,1808A,115.9112,29.6038,九江市,综合工业园,细颗粒物(PM2.5),83,74,52,61,52,21,,16,16,38,43,3,4,0.8,0.8
2026-01-04T0800,3190A,116.0254,29.6995,九江市,外国语学校,细颗粒物(PM2.5),67,57,51,48,44,24,,34,34,36,29,8,8,0.8,0.8
2026-01-04T0800,4253A,116.010205,29.659402,九江市,莲花大道8号,细颗粒物(PM2.5),80,62,55,59,48,24,,40,40,26,17,5,4,0.6,0.5
2026-01-04T0800,4240A,98.495752,39.733935,酒泉市,玉门东路5号,,41,41,51,17,23,34,,51,51,18,14,17,12,0.4,0.4
2026-01-04T0800,4241A,98.5099,39.7506,酒泉市,北大街108号,,31,31,49,18,23,32,,44,44,29,20,14,11,0.6,0.5
2026-01-04T0800,2698A,76.0071,39.466,喀什地区,巡警大队,,48,40,55,33,38,44,,47,47,13,13,2,3,0.6,0.7
2026-01-04T0800,2699A,75.9756,39.4693,喀什地区,吾办,,46,41,56,32,45,42,,44,44,10,12,3,6,0.7,0.8
2026-01-04T0800,4027A,75.9485,39.4688,喀什地区,老干局,,45,43,61,31,40,44,,46,46,9,12,1,2,0.8,0.9
2026-01-04T0800,1824A,114.3389,34.778,开封市,肿瘤医院,细颗粒物(PM2.5),134,123,103,102,93,7,,19,19,36,25,7,4,1.4,1.3
2026-01-04T0800,1826A,114.2884,34.7966,开封市,世纪星幼儿园,细颗粒物(PM2.5),145,,96,111,109,12,,18,18,35,25,2,2,0.8,0.7
2026-01-04T0800,3147A,114.3434,34.8101,开封市,龙亭公园,细颗粒物(PM2.5),150,,100,115,110,14,,23,23,33,23,3,3,1.6,1.5
2026-01-04T0800,3210A,114.3645,34.7955,开封市,汴京公园,细颗粒物(PM2.5),142,111,118,108,101,8,,23,23,40,27,4,4,0.9,0.8
2026-01-04T0800,3473A,114.2485,34.8306,开封市,技师学院,细颗粒物(PM2.5),137,,99,104,103,19,,20,20,28,23,7,6,1.1,1
2026-01-04T0800,3592A,114.4518,34.7503,开封市,祥符区生态环境局,细颗粒物(PM2.5),137,132,114,104,96,13,,24,24,34,27,3,3,0.8,0.8
2026-01-04T0800,1951A,84.886,45.6029,克拉玛依市,长征新村,细颗粒物(PM2.5),89,90,89,66,63,27,,25,25,26,32,4,5,1.0,1
2026-01-04T0800,1952A,84.8894,45.5827,克拉玛依市,南林小区,颗粒物(PM10),69,87,88,45,50,28,,22,22,19,25,3,3,1.0,1
2026-01-04T0800,1954A,84.896,44.3328,克拉玛依市,独山子区,,39,39,75,25,41,60,,54,54,14,34,4,5,0.5,0.8
2026-01-04T0800,1955A,85.6888,46.0909,克拉玛依市,乌尔禾区商贸楼,细颗粒物(PM2.5),85,68,75,63,60,23,,28,28,25,25,4,4,1.0,1.1
2026-01-04T0800,3612A,85.1045,45.6895,克拉玛依市,白碱滩区新站,细颗粒物(PM2.5),105,130,119,79,62,2,,10,10,26,17,7,7,0.7,0.7
2026-01-04T0800,2697A,76.1457,39.7143,克孜勒苏柯尔克孜自治州,市人民政府,颗粒物(PM10),51,52,63,34,43,50,,48,48,6,10,5,5,0.3,0.4
2026-01-04T0800,3665A,76.1654,39.7157,克孜勒苏柯尔克孜自治州,克州文化中心,,49,41,51,34,42,43,,47,47,9,9,3,3,0.8,0.6
2026-01-04T0800,1450A,102.8203,24.889,昆明市,呈贡新区,,22,22,21,13,11,41,,52,52,22,14,2,5,0.4,0.3
2026-01-04T0800,1452A,102.7253,25.0904,昆明市,龙泉镇,,29,28,22,20,13,6,,28,28,37,18,2,3,0.7,0.5
2026-01-04T0800,1453A,102.7267,25.0378,昆明市,东风东路,,22,19,20,15,15,42,,50,50,24,18,4,5,0.5,0.5
2026-01-04T0800,1454A,102.6744,25.0671,昆明市,金鼎山,,32,32,30,18,17,6,,23,23,42,20,3,3,0.7,0.5
2026-01-04T0800,1455A,102.6643,25.0401,昆明市,碧鸡广场,,30,30,24,21,16,11,,22,22,38,22,3,5,0.7,0.6
2026-01-04T0800,3179A,102.7491,25.012,昆明市,官渡区博物馆,,22,16,21,15,14,32,,46,46,27,20,3,3,0.4,0.3
2026-01-04T0800,3375A,102.8016,24.8336,昆明市,青年创业园,,18,15,18,12,12,48,,56,56,11,7,5,4,0.4,0.3
2026-01-04T0800,3550A,102.8,24.9787,昆明市,昆明学院,,19,14,18,11,11,60,,61,61,12,10,2,3,0.5,0.5
2026-01-04T0800,3551A,102.5969,24.6738,昆明市,晋宁区生态环境分局,,29,29,22,14,13,31,,30,30,20,12,1,2,0.7,0.5
2026-01-04T0800,3552A,102.6673,24.9861,昆明市,云天化总部,,19,19,20,12,12,37,,47,47,16,16,5,6,0.5,0.5
2026-01-04T0800,1456A,91.132,29.6515,拉萨市,八廓街,,24,12,22,6,12,74,,76,76,4,8,7,7,0.5,0.5
2026-01-04T0800,1457A,91.1221,29.6748,拉萨市,市环保局,,21,10,19,9,13,67,,70,70,11,14,7,7,0.4,0.6
2026-01-04T0800,1458A,91.0874,29.6476,拉萨市,区监测站,,20,11,12,3,7,64,,72,72,16,14,4,4,0.8,0.8
2026-01-04T0800,1459A,91.1774,29.6541,拉萨市,西藏大学,,23,9,18,8,11,72,,76,76,9,13,5,5,0.3,0.3
2026-01-04T0800,1460A,90.9798,29.6586,拉萨市,区辐射站,,20,10,22,6,14,62,,51,51,12,19,3,4,0.5,0.6
2026-01-04T0800,1461A,91.0831,29.6292,拉萨市,拉萨火车站,,26,18,16,3,7,31,,79,79,51,12,4,4,0.5,0.5
2026-01-04T0800,2520A,109.2203,23.7252,来宾市,来宾技工学校,,,92,65,,64,6,,16,16,28,18,17,8,0.7,0.4
2026-01-04T0800,3535A,109.1781,23.7293,来宾市,兴宾区政府,细颗粒物(PM2.5),119,104,60,90,49,13,,19,19,24,17,14,7,0.9,0.6
2026-01-04T0800,4002A,109.2312,23.7428,来宾市,中南小学,细颗粒物(PM2.5),124,99,61,94,60,5,,13,13,27,19,14,6,0.9,0.6
2026-01-04T0800,1479A,103.8309,36.0467,兰州市,铁路设计院,,,,,,,,,,,,,,,,
2026-01-04T0800,3241A,103.7439,36.0841,兰州市,百合公园,细颗粒物(PM2.5),72,82,70,52,57,10,,29,29,50,26,8,6,1.4,0.9
2026-01-04T0800,3242A,103.9613,35.9985,兰州市,和平,细颗粒物(PM2.5),80,69,73,59,75,32,,49,49,27,16,3,3,1.2,0.8
2026-01-04T0800,4236A,103.629272,36.093822,兰州市,庄浪东路808号,细颗粒物(PM2.5),64,56,74,46,58,27,,46,46,42,28,8,10,0.8,0.7
2026-01-04T0800,4237A,103.7251,36.104344,兰州市,安宁西路88号,"颗粒物(PM10),细颗粒物(PM2.5)",67,83,81,48,56,22,,54,54,51,25,4,5,0.8,0.6
2026-01-04T0800,4238A,103.846982,36.067567,兰州市,北滨河东路1号,颗粒物(PM10),78,106,75,54,60,8,,26,26,60,33,6,7,1.0,0.8
2026-01-04T0800,1067A,116.6712,39.5109,廊坊市,药材公司,细颗粒物(PM2.5),144,154,112,110,81,2,,2,2,80,66,7,5,1.8,1.1
2026-01-04T0800,1068A,116.7215,39.5592,廊坊市,开发区,细颗粒物(PM2.5),128,142,92,97,59,0,,0,0,79,73,4,4,1.6,1.1
2026-01-04T0800,1070A,116.7246,39.5273,廊坊市,北华航天学院,细颗粒物(PM2.5),158,159,111,120,76,1,,2,2,85,67,6,5,1.9,1.2
2026-01-04T0800,2919A,116.7022,39.5454,廊坊市,河北工业大学,细颗粒物(PM2.5),142,170,114,108,71,1,,1,1,84,69,8,7,1.6,1.1
2026-01-04T0800,2536A,103.7629,29.5844,乐山市,牛耳桥,,32,25,28,22,24,6,,16,16,27,24,8,7,0.6,0.6
2026-01-04T0800,2537A,103.7501,29.6002,乐山市,市第三水厂,,29,25,27,20,22,4,,13,13,28,26,6,5,0.6,0.6
2026-01-04T0800,2538A,103.7571,29.5664,乐山市,市监测站,,29,21,25,20,23,5,,13,13,24,22,6,6,0.7,0.7
2026-01-04T0800,3361A,103.7313,29.563,乐山市,理工大学,,28,22,25,19,20,3,,10,10,25,21,4,4,0.7,0.6
2026-01-04T0800,2599A,100.2497,26.8802,丽江市,丽江古城,,21,21,21,7,9,66,,67,67,16,13,7,7,0.6,0.6
2026-01-04T0800,2600A,100.2203,26.8906,丽江市,市中心,,22,11,10,11,8,69,,78,78,15,12,6,6,0.4,0.3
2026-01-04T0800,1267A,119.9141,28.4513,丽水市,监测站大楼,细颗粒物(PM2.5),53,42,51,37,38,7,,9,9,32,32,6,6,0.8,0.7
2026-01-04T0800,1268A,119.93,28.4589,丽水市,莲都小学,细颗粒物(PM2.5),54,56,70,38,51,10,,6,6,44,40,/,/,/,/
2026-01-04T0800,1269A,119.8794,28.4232,丽水市,余庄前,细颗粒物(PM2.5),62,53,58,44,45,3,,3,3,22,26,4,4,0.4,0.4
2026-01-04T0800,1173A,119.1759,34.5885,连云港市,市环境监测站,细颗粒物(PM2.5),107,102,89,80,74,4,,17,17,64,37,11,11,1.3,0.9
2026-01-04T0800,3000A,119.3577,34.6971,连云港市,德源药业,细颗粒物(PM2.5),98,117,100,73,72,2,,2,2,59,48,3,4,0.7,0.6
2026-01-04T0800,3007A,119.178,34.8442,连云港市,新城一中,细颗粒物(PM2.5),139,124,109,106,96,5,,9,9,58,42,10,17,1.0,0.9
2026-01-04T0800,3008A,119.3607,34.7519,连云港市,胡沟管理处,细颗粒物(PM2.5),70,61,76,51,62,46,,48,48,31,33,10,10,1.0,1
2026-01-04T0800,3009A,119.1478,34.5913,连云港市,矿山设计院,细颗粒物(PM2.5),83,92,94,61,68,8,,39,39,58,33,8,9,1.3,1
2026-01-04T0800,3434A,119.2414,34.6539,连云港市,工贸学校,细颗粒物(PM2.5),74,64,84,54,70,50,,54,54,17,19,12,13,0.7,0.6
2026-01-04T0800,3664A,119.4171,34.734,连云港市,连云街道,细颗粒物(PM2.5),103,93,65,77,51,52,,63,63,22,19,13,7,0.8,0.6
2026-01-04T0800,2573A,102.2629,27.8981,凉山彝族自治州,西昌市政府,,23,23,29,15,13,22,,49,49,29,14,6,10,0.7,0.7
2026-01-04T0800,2574A,102.2686,27.885,凉山彝族自治州,凉山州政府,,28,28,25,14,16,28,,50,50,23,14,7,12,0.7,0.7
2026-01-04T0800,4229A,102.2342,27.8859,凉山彝族自治州,凯乐南路30号,,31,31,29,16,13,28,,50,50,25,16,5,10,0.5,0.7
2026-01-04T0800,2212A,123.1978,41.2036,辽阳市,宏伟区,细颗粒物(PM2.5),119,91,108,90,88,7,,6,6,35,35,21,20,2.2,1.7
2026-01-04T0800,2213A,123.1684,41.2497,辽阳市,新华园,细颗粒物(PM2.5),87,89,106,64,84,4,,4,4,48,50,62,37,1.8,1.7
2026-01-04T0800,2214A,123.2355,41.2663,辽阳市,滨河路,细颗粒物(PM2.5),73,89,107,53,72,11,,14,14,46,45,17,15,1.2,1.3
2026-01-04T0800,4083A,123.153,41.2874,辽阳市,铁西路150号,细颗粒物(PM2.5),83,86,121,61,84,3,,6,6,53,52,62,34,1.9,1.9
2026-01-04T0800,2227A,125.1359,42.8845,辽源市,环保局,细颗粒物(PM2.5),99,120,141,74,74,11,,9,9,42,40,6,8,1.9,2
2026-01-04T0800,4085A,125.0998,42.9134,辽源市,安宁大街333号,细颗粒物(PM2.5),123,102,97,93,77,13,,12,12,39,39,3,9,1.8,1.3
2026-01-04T0800,1625A,115.9789,36.4372,聊城市,区政府,细颗粒物(PM2.5),110,110,113,83,89,25,,35,35,48,40,12,12,1.0,1
2026-01-04T0800,3200A,115.9772,36.4986,聊城市,监控中心,细颗粒物(PM2.5),125,122,111,95,99,19,,42,42,51,34,10,11,0.8,0.8
2026-01-04T0800,3513A,116.0443,36.436,聊城市,九州社区,细颗粒物(PM2.5),119,124,121,90,92,27,,31,31,36,30,6,3,0.7,0.7
2026-01-04T0800,4018A,116.0564,36.4609,聊城市,星美广场,细颗粒物(PM2.5),133,142,126,101,95,14,,32,32,43,26,6,4,0.9,0.8
2026-01-04T0800,4113A,116.0091,36.4495,聊城市,利民路,细颗粒物(PM2.5),120,114,120,91,100,29,,32,32,40,37,11,11,0.7,0.7
2026-01-04T0800,2632A,94.3683,29.6373,林芝市,林芝监测站,,21,,9,3,6,66,,73,73,2,2,4,4,0.3,0.3
2026-01-04T0800,2633A,94.3616,29.6634,林芝市,林芝人民医院,,19,14,12,10,6,58,,67,67,3,3,6,6,0.4,0.3
2026-01-04T0800,2603A,100.0779,23.8981,临沧市,市环保局,,43,,21,30,35,23,,28,28,5,6,5,5,0.4,0.4
2026-01-04T0800,2604A,100.0894,23.882,临沧市,市气象局,,28,,24,19,18,22,,27,27,7,8,4,5,0.5,0.5
2026-01-04T0800,1733A,111.5552,36.0791,临汾市,临钢医院,细颗粒物(PM2.5),272,298,237,222,179,5,,9,9,47,39,6,5,3.9,2.9
2026-01-04T0800,1734A,111.4984,36.0734,临汾市,技工学校,细颗粒物(PM2.5),257,264,226,207,170,3,,3,3,51,42,7,6,4.1,3.1
2026-01-04T0800,1736A,111.5017,36.0857,临汾市,市委,细颗粒物(PM2.5),262,291,249,212,181,3,,5,5,59,48,8,8,3.9,2.9
2026-01-04T0800,3018A,111.5048,36.1015,临汾市,唐尧大酒店,细颗粒物(PM2.5),245,263,217,195,170,1,,3,3,57,45,4,4,4.1,3
2026-01-04T0800,4244A,111.4879,36.053,临汾市,启星学校,细颗粒物(PM2.5),234,244,206,184,154,4,,3,3,54,52,5,5,4.2,3.1
2026-01-04T0800,4271A,103.2464,35.6123,临夏回族自治州,滨河东路1号,细颗粒物(PM2.5),103,111,102,77,75,21,,24,24,22,25,4,6,1.1,1.1
2026-01-04T0800,4310A,103.207136,35.599807,临夏回族自治州,新华街21号,细颗粒物(PM2.5),102,97,80,76,64,22,,26,26,26,21,5,9,1.3,0.9
2026-01-04T0800,1618A,118.3429,35.0532,临沂市,沂河小区,细颗粒物(PM2.5),219,212,132,169,119,3,,13,13,83,58,16,22,1.8,1.1
2026-01-04T0800,1619A,118.2962,35.0568,临沂市,鲁南制药厂,细颗粒物(PM2.5),206,188,142,156,118,3,,3,3,77,62,27,27,1.7,1
2026-01-04T0800,1620A,118.2793,34.9976,临沂市,新光毛纺厂,细颗粒物(PM2.5),215,188,136,165,113,5,,7,7,72,53,27,29,2.1,1
2026-01-04T0800,1621A,118.3955,35.0889,临沂市,河东保险公司,细颗粒物(PM2.5),226,234,130,176,99,6,,10,10,70,46,14,14,2.2,1.1
2026-01-04T0800,3370A,118.3563,35.0215,临沂市,十里堡居委,细颗粒物(PM2.5),195,195,144,146,106,4,,6,6,80,63,21,31,1.9,1.3
2026-01-04T0800,3496A,118.359,35.1067,临沂市,南坊新区,细颗粒物(PM2.5),221,205,115,171,94,4,,16,16,80,47,16,14,1.9,0.9
2026-01-04T0800,3860A,118.3915,35.0297,临沂市,皇山花园小区,细颗粒物(PM2.5),212,227,134,162,96,10,,15,15,101,57,32,27,1.8,1.1
2026-01-04T0800,1870A,109.4854,24.3898,柳州市,柳东小学,细颗粒物(PM2.5),70,57,52,51,48,16,,14,14,12,14,10,9,0.7,0.7
2026-01-04T0800,1871A,109.4109,24.3304,柳州市,环保监测站,,48,47,56,33,45,14,,16,16,21,18,9,7,0.6,0.6
2026-01-04T0800,1872A,109.3886,24.3408,柳州市,河西水厂,细颗粒物(PM2.5),60,55,61,43,52,18,,16,16,19,20,14,11,0.5,0.6
2026-01-04T0800,1873A,109.4263,24.2951,柳州市,市四中,,45,42,47,31,35,15,,19,19,18,19,10,10,0.7,0.7
2026-01-04T0800,1874A,109.396,24.3658,柳州市,市九中,细颗粒物(PM2.5),63,45,58,45,52,16,,14,14,19,20,13,9,0.9,0.7
2026-01-04T0800,1875A,109.4912,24.3164,柳州市,古亭山,细颗粒物(PM2.5),53,46,46,37,39,15,,18,18,14,14,10,10,0.8,0.7
2026-01-04T0800,3402A,109.5422,24.3994,柳州市,市二中,细颗粒物(PM2.5),58,52,41,41,37,13,,18,18,17,16,9,8,0.6,0.6
2026-01-04T0800,2307A,116.5078,31.7369,六安市,监测大楼,细颗粒物(PM2.5),90,77,56,67,48,30,,45,45,32,22,3,3,0.7,0.6
2026-01-04T0800,2308A,116.4738,31.7642,六安市,皖西学院,细颗粒物(PM2.5),99,97,62,74,47,27,,49,49,31,22,4,5,0.6,0.5
2026-01-04T0800,2309A,116.4997,31.7904,六安市,朝阳厂,细颗粒物(PM2.5),85,81,58,63,46,18,,45,45,43,27,6,6,0.8,0.6
2026-01-04T0800,2310A,116.5566,31.7885,六安市,开发区,细颗粒物(PM2.5),87,83,66,64,49,18,,42,42,38,25,1,1,0.7,0.5
2026-01-04T0800,2577A,104.8293,26.592,六盘水市,黄土坡,,9,8,16,3,12,26,,24,24,10,15,8,8,0.7,0.8
2026-01-04T0800,2579A,104.8481,26.5898,六盘水市,民中,,9,7,16,3,11,26,,22,22,6,14,3,3,0.6,0.7
2026-01-04T0800,2580A,104.9541,26.5506,六盘水市,双水,,15,,10,10,7,27,,25,25,8,11,3,3,0.4,0.4
2026-01-04T0800,4151A,104.8899,26.5685,六盘水市,钟山大道中段564号,,8,7,19,3,10,24,,22,22,10,11,4,6,0.8,0.9
2026-01-04T0800,2336A,117.022,25.1031,龙岩市,龙岩市监测站,,35,26,28,24,19,17,,24,24,32,24,27,20,0.8,0.5
2026-01-04T0800,2337A,117.0257,25.0662,龙岩市,闽西职业技术学院,,50,50,32,28,19,12,,26,26,28,19,15,12,0.5,0.4
2026-01-04T0800,2338A,117.0195,25.0306,龙岩市,龙岩学院,,39,31,27,27,20,24,,30,30,17,14,8,9,/,/
2026-01-04T0800,2885A,104.9344,33.3827,陇南市,滨江中学,颗粒物(PM10),61,71,57,41,31,51,,53,53,18,24,7,7,0.9,1.1
2026-01-04T0800,3247A,104.9551,33.3709,陇南市,市总工会,颗粒物(PM10),62,74,62,39,30,38,,48,48,26,24,3,3,0.9,0.9
2026-01-04T0800,2488A,111.9984,27.7346,娄底市,市监测站,细颗粒物(PM2.5),57,54,60,40,49,31,,30,30,14,16,4,5,0.7,0.6
2026-01-04T0800,2491A,111.9888,27.7035,娄底市,市政府,细颗粒物(PM2.5),65,,52,47,52,27,,30,30,11,12,5,5,0.5,0.5
2026-01-04T0800,4127A,111.9812,27.7591,娄底市,涟钢职大,细颗粒物(PM2.5),69,54,58,50,46,18,,27,27,26,16,5,4,0.6,0.5
2026-01-04T0800,4128A,112.0303,27.7457,娄底市,娄底体校,细颗粒物(PM2.5),64,59,55,46,47,26,,28,28,14,14,2,2,0.6,0.6
2026-01-04T0800,1894A,105.4427,28.9063,泸州市,小市上码头,颗粒物(PM10),54,58,41,37,27,8,,14,14,23,16,7,8,0.9,0.8
2026-01-04T0800,1895A,105.4241,28.8573,泸州市,兰田宪桥,细颗粒物(PM2.5),55,50,36,39,28,14,,14,14,18,18,7,7,0.9,0.9
2026-01-04T0800,1896A,105.4378,28.8833,泸州市,市环监站,细颗粒物(PM2.5),53,52,37,37,26,11,,14,14,26,21,8,8,0.6,0.6
2026-01-04T0800,4272A,105.3689,28.7783,泸州市,纳溪中医医院,细颗粒物(PM2.5),64,49,43,46,31,6,,17,17,19,18,8,7,0.9,0.8
2026-01-04T0800,2183A,111.1447,37.5212,吕梁市,环保局,颗粒物(PM10),90,130,95,49,41,4,,3,3,49,48,11,13,1.0,0.8
2026-01-04T0800,2185A,111.1285,37.5338,吕梁市,自来水公司,颗粒物(PM10),92,134,111,57,42,2,,2,2,46,46,20,15,1.1,1
2026-01-04T0800,2867A,111.1225,37.5093,吕梁市,马茂庄小学,颗粒物(PM10),98,146,111,45,41,0,,1,1,56,51,16,16,1.0,0.8
2026-01-04T0800,1812A,112.3934,34.6517,洛阳市,市委党校,细颗粒物(PM2.5),103,79,91,77,80,39,,49,49,26,27,8,10,0.9,0.9
2026-01-04T0800,1815A,112.494,34.6883,洛阳市,河南林校,细颗粒物(PM2.5),110,,98,83,96,34,,45,45,25,27,9,11,0.9,1
2026-01-04T0800,1816A,112.3843,34.623,洛阳市,开发区管委会,细颗粒物(PM2.5),108,85,100,81,90,39,,48,48,21,23,7,9,0.9,0.9
2026-01-04T0800,1817A,112.4263,34.6249,洛阳市,市委新办公区,细颗粒物(PM2.5),113,89,104,85,92,40,,50,50,22,24,9,10,0.9,0.9
2026-01-04T0800,3340A,112.6005,34.6323,洛阳市,伊滨,细颗粒物(PM2.5),105,84,104,79,88,44,,50,50,24,29,6,8,1.0,1
2026-01-04T0800,3341A,112.495,34.6338,洛阳市,中移产业园,细颗粒物(PM2.5),112,85,92,84,91,35,,47,47,35,34,8,10,0.9,0.9
2026-01-04T0800,3593A,112.5736,34.8993,洛阳市,吉利监测站,细颗粒物(PM2.5),109,,90,82,96,49,,55,55,22,30,6,8,1.0,1.1
2026-01-04T0800,3635A,112.3678,34.6623,洛阳市,河科大西苑校区,细颗粒物(PM2.5),99,82,97,74,82,33,,47,47,31,28,7,9,0.9,0.9
2026-01-04T0800,3636A,112.4387,34.678,洛阳市,英才小学,细颗粒物(PM2.5),118,,104,89,96,37,,52,52,38,35,10,11,1.0,1
2026-01-04T0800,4214A,112.460027,34.694929,洛阳市,春都路1号院,细颗粒物(PM2.5),90,92,117,67,81,30,,41,41,22,24,9,11,1.0,1.1
2026-01-04T0800,2399A,114.051,33.5721,漯河市,三五一五工厂,细颗粒物(PM2.5),132,118,118,100,90,12,,26,26,37,23,6,7,1.2,1
2026-01-04T0800,2400A,114.0055,33.5698,漯河市,漯河大学,细颗粒物(PM2.5),119,92,92,90,85,19,,27,27,31,26,5,6,0.9,0.8
2026-01-04T0800,2401A,114.0134,33.5826,漯河市,市水利局,细颗粒物(PM2.5),117,90,92,88,84,26,,28,28,24,23,7,7,1.0,0.9
2026-01-04T0800,2402A,114.0261,33.5697,漯河市,市广电局,细颗粒物(PM2.5),124,,94,94,89,24,,32,32,22,20,6,7,0.9,0.8
2026-01-04T0800,3478A,113.9691,33.568,漯河市,市图书馆,细颗粒物(PM2.5),124,108,107,94,91,31,,32,32,16,21,4,5,1.0,1
2026-01-04T0800,4250A,114.089259,33.588274,漯河市,韶山路11号,细颗粒物(PM2.5),123,106,109,93,88,24,,28,28,26,23,6,6,0.8,0.7
2026-01-04T0800,1798A,118.5084,31.6838,马鞍山市,湖东路四小,细颗粒物(PM2.5),102,105,88,76,64,13,,22,22,54,40,7,4,0.8,0.8
2026-01-04T0800,1799A,118.5019,31.6449,马鞍山市,开发区,细颗粒物(PM2.5),134,121,95,102,79,3,,19,19,63,38,9,6,0.9,0.7
2026-01-04T0800,3633A,118.4914,31.681,马鞍山市,雨山,细颗粒物(PM2.5),110,91,90,83,69,18,,28,28,54,36,10,7,0.8,0.7
2026-01-04T0800,4191A,118.527362,31.722269,马鞍山市,慈湖高新区,细颗粒物(PM2.5),132,118,95,100,77,21,,15,15,48,39,6,6,0.6,0.6
2026-01-04T0800,1686A,111.0285,21.469,茂名市,电白南海,细颗粒物(PM2.5),128,122,52,97,27,57,,72,72,23,17,18,18,0.8,0.5
2026-01-04T0800,1687A,110.9294,21.6533,茂名市,茂石化七小,颗粒物(PM10),56,61,49,24,23,67,,80,80,27,19,8,7,0.5,0.5
2026-01-04T0800,1688A,110.9108,21.6688,茂名市,健康路,,46,46,43,29,25,75,,89,89,28,21,10,12,0.9,0.7
2026-01-04T0800,1689A,110.8592,21.6826,茂名市,高岭,颗粒物(PM10),69,88,62,36,24,34,,75,75,34,21,19,15,/,/
2026-01-04T0800,3450A,111.0101,21.5165,茂名市,电白水东,细颗粒物(PM2.5),58,63,44,41,24,65,,76,76,18,16,10,24,/,/
2026-01-04T0800,2540A,103.8414,30.0871,眉山市,气象局,,28,24,28,19,16,2,,5,5,25,25,8,8,0.8,0.7
2026-01-04T0800,3148A,103.829,30.0563,眉山市,区人社局,,31,31,26,19,10,1,,5,5,26,24,6,6,0.8,0.7
2026-01-04T0800,4148A,103.8836,30.0695,眉山市,眉职院,,23,23,16,13,7,2,,5,5,19,19,1,2,0.7,0.8
2026-01-04T0800,1690A,116.1248,24.3307,梅州市,梅江月梅,,41,41,35,23,20,4,,3,3,26,27,/,/,/,/
2026-01-04T0800,1691A,116.0798,24.2719,梅州市,梅县新城,,30,27,34,21,26,8,,10,10,25,30,7,8,0.5,0.5
2026-01-04T0800,3315A,116.1234,24.2994,梅州市,梅龙,,41,41,36,26,23,7,,7,7,26,27,8,10,0.6,0.5
2026-01-04T0800,1878A,104.7775,31.4741,绵阳市,富乐山,,35,29,21,24,19,0,,2,2,16,15,11,11,0.9,0.8
2026-01-04T0800,1880A,104.6698,31.4668,绵阳市,高新区自来水公司,,49,46,24,34,21,0,,1,1,27,26,9,8,0.9,0.7
2026-01-04T0800,3491A,104.6899,31.5324,绵阳市,西科大附属小学,,41,41,26,25,21,2,,2,2,18,18,8,8,1.5,1.2
2026-01-04T0800,3492A,104.5647,31.5343,绵阳市,安州区旅游局,颗粒物(PM10),55,60,20,34,20,2,,9,9,18,19,10,10,0.8,0.6
2026-01-04T0800,4146A,104.7092,31.4972,绵阳市,科技城新区公安局,,42,40,23,29,20,0,,10,10,20,19,3,4,0.9,0.7
2026-01-04T0800,4226A,104.765114,31.453094,绵阳市,绵阳市气象局,,42,42,25,29,21,0,,5,5,20,21,8,9,1.1,0.8
2026-01-04T0800,1784A,129.61,44.561,牡丹江市,环保大楼,颗粒物(PM10),53,56,49,24,34,31,,30,30,27,25,15,12,1.1,1
2026-01-04T0800,1787A,129.6364,44.6075,牡丹江市,机车工厂,细颗粒物(PM2.5),117,149,69,88,42,9,,18,18,44,27,14,9,1.0,0.6
2026-01-04T0800,1788A,129.6386,44.5462,牡丹江市,第一中学,,42,37,50,29,37,16,,21,21,31,28,9,8,0.7,0.7
2026-01-04T0800,4287A,129.5992,44.5964,牡丹江市,东晓云街98号,细颗粒物(PM2.5),77,64,57,56,42,10,,23,23,57,25,5,6,1.4,0.8
2026-01-04T0800,2531A,105.0703,29.61,内江市,市监测站,,39,29,41,27,33,21,,32,32,21,17,4,4,0.6,0.5
2026-01-04T0800,2533A,105.0657,29.5807,内江市,内江二中,,42,36,50,29,33,18,,26,26,23,19,4,4,0.8,0.8
2026-01-04T0800,2534A,105.0407,29.5828,内江市,内江日报社,,43,32,37,30,32,24,,25,25,20,21,2,2,0.5,0.6
2026-01-04T0800,4147A,105.0433,29.6105,内江市,玉峰路西段888号,,39,35,40,27,30,26,,33,33,14,14,3,3,0.6,0.6
2026-01-04T0800,2628A,92.0653,31.4846,那曲市,那曲监测站,,28,27,35,19,20,40,,38,38,17,20,8,8,1.2,1.2
2026-01-04T0800,4243A,92.0515,31.4787,那曲市,那曲市委宣传部,,23,23,19,14,8,24,,35,35,21,8,6,4,1.1,0.7
2026-01-04T0800,1291A,115.8887,28.7006,南昌市,省林业公司,细颗粒物(PM2.5),64,46,50,46,46,30,,32,32,33,24,6,6,1.0,1
2026-01-04T0800,1292A,115.813,28.7443,南昌市,林科所,,42,34,46,29,37,30,,23,23,23,30,4,7,0.6,0.5
2026-01-04T0800,1294A,115.8518,28.687,南昌市,建工学校,细颗粒物(PM2.5),70,63,57,51,48,26,,35,35,43,31,14,15,0.6,0.6
2026-01-04T0800,1295A,115.8926,28.6425,南昌市,象湖,,,53,52,,47,11,,22,22,42,31,9,12,0.8,0.9
2026-01-04T0800,3046A,115.9084,28.6062,南昌市,机电学校,细颗粒物(PM2.5),70,61,65,51,50,7,,22,22,45,30,4,7,0.7,0.7
2026-01-04T0800,3690A,115.9718,28.7032,南昌市,外国语学校,细颗粒物(PM2.5),74,59,57,54,48,25,,30,30,39,27,12,13,0.6,0.6
2026-01-04T0800,4106A,115.7923,28.6873,南昌市,工业二路,细颗粒物(PM2.5),60,57,56,43,44,6,,25,25,43,25,5,6,0.4,0.4
2026-01-04T0800,4192A,115.931587,28.686774,南昌市,南京东路235号,细颗粒物(PM2.5),80,,53,59,52,37,,33,33,35,34,6,8,0.4,0.3
2026-01-04T0800,1906A,106.0791,30.8022,南充市,南充市委,,43,34,33,30,30,6,,12,12,30,21,4,4,0.7,0.6
2026-01-04T0800,1907A,106.1038,30.8215,南充市,南充炼油厂,细颗粒物(PM2.5),54,45,47,38,37,12,,17,17,26,18,6,6,0.5,0.4
2026-01-04T0800,4227A,106.108336,30.788436,南充市,梨树横街98号,,45,34,34,31,29,21,,28,28,26,20,5,5,0.7,0.6
2026-01-04T0800,4304A,106.1172,30.843,南充市,清泉寺北路188号,,38,34,29,26,30,3,,18,18,21,15,6,6,0.8,0.8
2026-01-04T0800,4305A,106.067,30.7616,南充市,同庆路1号,,48,48,37,31,32,3,,12,12,30,21,5,5,0.6,0.5
2026-01-04T0800,1151A,118.8033,32.1085,南京市,迈皋桥,细颗粒物(PM2.5),98,100,67,73,48,15,,31,31,58,32,4,4,0.9,0.8
2026-01-04T0800,1152A,118.7487,32.057,南京市,草场门,细颗粒物(PM2.5),104,107,71,78,54,25,,25,25,48,43,8,7,0.6,0.5
2026-01-04T0800,1154A,118.770105,32.004342,南京市,中华门,细颗粒物(PM2.5),104,90,65,78,52,10,,23,23,54,36,6,4,0.8,0.7
2026-01-04T0800,1155A,118.8059,32.0329,南京市,瑞金路,细颗粒物(PM2.5),110,100,66,83,53,21,,27,27,63,61,4,4,1.0,0.9
2026-01-04T0800,1156A,118.7946,32.0774,南京市,玄武湖,细颗粒物(PM2.5),98,100,65,73,48,12,,27,27,29,22,4,4,0.7,0.6
2026-01-04T0800,1157A,118.6415,32.0964,南京市,浦口,细颗粒物(PM2.5),84,95,72,62,51,7,,30,30,67,43,8,11,0.9,0.9
2026-01-04T0800,1158A,118.730129,32.000956,南京市,奥体中心,细颗粒物(PM2.5),104,105,71,78,55,26,,36,36,62,44,7,7,0.8,0.7
2026-01-04T0800,1159A,118.9072,32.1047,南京市,仙林大学城,细颗粒物(PM2.5),94,92,69,70,49,3,,33,33,67,29,7,7,1.0,0.9
2026-01-04T0800,3422A,118.8443,31.919,南京市,江宁彩虹桥,细颗粒物(PM2.5),104,97,72,78,55,6,,20,20,54,38,4,4,0.7,0.6
2026-01-04T0800,3427A,118.8497,32.3599,南京市,六合雄州,细颗粒物(PM2.5),84,92,68,62,46,9,,8,8,50,44,8,12,0.8,0.6
2026-01-04T0800,4086A,118.7641,32.0841,南京市,新模范马路66号,细颗粒物(PM2.5),114,109,77,86,55,15,,29,29,58,34,8,7,1.1,1
2026-01-04T0800,4249A,118.8707617,31.34017673,南京市,汶溪路181号,细颗粒物(PM2.5),139,,84,106,82,25,,28,28,51,38,6,6,0.8,0.7
2026-01-04T0800,4312A,119.019,31.6512,南京市,中山西路1号,细颗粒物(PM2.5),119,92,70,90,69,4,,20,20,49,32,4,4,0.9,0.7
2026-01-04T0800,1401A,108.3098,22.788,南宁市,二十一中,细颗粒物(PM2.5),77,67,46,56,39,16,,22,22,30,22,6,6,0.9,0.8
2026-01-04T0800,1402A,108.3135,22.8529,南宁市,北湖,细颗粒物(PM2.5),79,66,47,58,39,34,,39,39,30,24,6,6,0.9,0.8
2026-01-04T0800,1403A,108.3205,22.8222,南宁市,市监测站,细颗粒物(PM2.5),59,64,45,42,31,22,,27,27,31,19,8,8,0.9,0.8
2026-01-04T0800,1404A,108.3828,22.8038,南宁市,大自然花园,细颗粒物(PM2.5),70,61,48,51,34,22,,25,25,38,26,7,7,0.9,0.8
2026-01-04T0800,1406A,108.2397,22.8462,南宁市,区农职院,细颗粒物(PM2.5),73,71,48,53,39,25,,30,30,33,26,9,9,0.9,0.8
2026-01-04T0800,1407A,108.3285,22.7356,南宁市,英华嘉园,细颗粒物(PM2.5),88,71,47,65,41,26,,31,31,23,17,5,5,0.8,0.7
2026-01-04T0800,3401A,108.4829,22.762,南宁市,红星社区,细颗粒物(PM2.5),74,63,45,54,36,21,,26,26,26,16,8,6,0.9,0.7
2026-01-04T0800,4132A,108.2927,23.1477,南宁市,起凤路9号,细颗粒物(PM2.5),59,47,43,42,38,12,,14,14,13,13,4,3,0.8,0.8
2026-01-04T0800,4221A,108.2177,22.7774,南宁市,乐贤路16号,细颗粒物(PM2.5),63,73,57,45,34,22,,22,22,25,20,6,5,0.7,0.6
2026-01-04T0800,2332A,118.1682,26.6371,南平市,南平市监测站,,29,28,24,20,18,18,,24,24,19,16,7,5,0.5,0.5
2026-01-04T0800,2334A,118.1757,26.6276,南平市,南平七中,,26,19,24,18,17,23,,30,30,16,15,5,6,0.5,0.5
2026-01-04T0800,1168A,120.9056,31.9669,南通市,狼山街道,细颗粒物(PM2.5),94,94,71,70,56,2,,1,1,60,53,4,6,1.1,1.3
2026-01-04T0800,1170A,120.8635,32.0231,南通市,城中,细颗粒物(PM2.5),103,124,81,77,54,1,,6,6,70,65,5,11,1.1,1.2
2026-01-04T0800,1171A,120.9376,31.9301,南通市,星湖花园,细颗粒物(PM2.5),89,98,68,66,52,7,,13,13,66,54,6,9,1.6,1.5
2026-01-04T0800,1172A,120.8053,32.046,南通市,紫琅学院,细颗粒物(PM2.5),93,109,82,69,55,1,,1,1,62,66,5,11,1.0,1.3
2026-01-04T0800,3291A,121.0631,32.0644,南通市,通州监测站,细颗粒物(PM2.5),94,97,65,70,50,6,,22,22,54,50,4,7,1.0,1
2026-01-04T0800,3432A,120.9348,31.9874,南通市,环境教育馆,细颗粒物(PM2.5),95,88,71,71,54,2,,1,1,64,67,6,8,1.0,1.2
2026-01-04T0800,4091A,120.8692,31.9885,南通市,洪江路,细颗粒物(PM2.5),100,83,78,75,57,1,,2,2,74,69,4,8,0.9,1
2026-01-04T0800,2404A,112.5338,33.0086,南阳市,瓦房庄,细颗粒物(PM2.5),125,97,109,95,105,22,,39,39,21,15,6,6,0.9,0.8
2026-01-04T0800,2405A,112.5002,32.9734,南阳市,汉画馆,细颗粒物(PM2.5),117,96,114,88,104,26,,31,31,15,19,5,6,0.9,0.9
2026-01-04T0800,2406A,112.5778,33.0144,南阳市,气象站,细颗粒物(PM2.5),119,109,117,90,96,22,,41,41,21,16,4,5,0.8,0.8
2026-01-04T0800,2407A,112.548,32.9687,南阳市,理工学院,细颗粒物(PM2.5),97,85,103,72,86,36,,40,40,14,16,5,5,0.9,1
2026-01-04T0800,4008A,112.5233,32.9921,南阳市,卧龙区政府,细颗粒物(PM2.5),123,104,126,93,101,30,,37,37,18,16,5,5,0.8,0.8
2026-01-04T0800,1234A,121.8352,29.9111,宁波市,区环保大楼,颗粒物(PM10),53,55,60,35,36,4,,7,7,57,57,5,7,1.2,0.8
2026-01-04T0800,1235A,121.5595,29.8208,宁波市,万里学院,细颗粒物(PM2.5),78,76,71,57,50,6,,5,5,50,51,5,5,0.6,0.6
2026-01-04T0800,1236A,121.713,29.9564,宁波市,龙赛医院,细颗粒物(PM2.5),69,82,76,50,47,8,,6,6,59,53,8,5,0.7,0.7
2026-01-04T0800,1240A,121.5855,29.8635,宁波市,太古小学,颗粒物(PM10),66,82,72,47,40,4,,2,2,52,47,3,4,0.9,0.7
2026-01-04T0800,1241A,121.5239,29.8673,宁波市,市环境监测中心,细颗粒物(PM2.5),70,69,66,51,48,2,,2,2,34,45,6,6,0.9,0.7
2026-01-04T0800,2871A,121.6156,29.9015,宁波市,万里国际学校,细颗粒物(PM2.5),74,74,64,54,49,7,,6,6,53,53,4,5,0.7,0.6
2026-01-04T0800,3710A,121.5593,29.8976,宁波市,白沙活动中心,细颗粒物(PM2.5),67,65,60,48,46,7,,6,6,56,54,5,5,1.0,0.8
2026-01-04T0800,4095A,121.8962,29.7529,宁波市,中科路88号,,49,47,44,34,34,10,,30,30,41,31,4,5,0.8,0.8
2026-01-04T0800,2341A,119.5387,26.6611,宁德市,宁德市监测站,,39,30,26,27,20,30,,44,44,30,17,7,8,0.7,0.5
2026-01-04T0800,3209A,119.5231,26.6562,宁德市,宁德一中,,32,29,26,22,21,41,,51,51,18,12,5,6,0.7,0.7
2026-01-04T0800,2618A,98.859,25.8541,怒江傈僳族自治州,州监测站,,30,24,26,21,19,24,,25,25,8,9,6,7,0.4,0.4
2026-01-04T0800,2619A,98.8607,25.8168,怒江傈僳族自治州,泸水一中,,20,16,23,14,17,11,,17,17,12,13,6,6,0.5,0.5
2026-01-04T0800,1888A,101.6891,26.571,攀枝花市,弄弄坪,颗粒物(PM10),54,57,39,24,19,14,,32,32,37,24,22,22,1.6,1.6
2026-01-04T0800,1889A,101.577,26.5914,攀枝花市,河门口,,35,35,34,17,16,6,,14,14,35,22,12,14,1.2,0.7
2026-01-04T0800,1891A,101.7365,26.4986,攀枝花市,仁和,,25,25,27,14,15,28,,36,36,19,18,8,11,0.6,0.9
2026-01-04T0800,2835A,101.7222,26.567,攀枝花市,四十中小,,27,27,33,14,19,2,,25,25,42,25,10,15,1.1,1.2
2026-01-04T0800,1604A,122.0303,41.1489,盘锦市,开发区,细颗粒物(PM2.5),201,,76,151,70,6,,4,4,48,34,11,10,2.9,1.3
2026-01-04T0800,1605A,122.0486,41.0883,盘锦市,兴隆台,细颗粒物(PM2.5),140,,67,107,53,4,,4,4,77,53,10,10,3.2,1.5
2026-01-04T0800,1606A,121.8297,41.1026,盘锦市,新生街道,细颗粒物(PM2.5),95,79,61,71,48,7,,7,7,41,45,10,9,1.4,0.9
2026-01-04T0800,1832A,113.3257,33.7423,平顶山市,新华旅馆,细颗粒物(PM2.5),87,85,107,64,92,49,,36,36,18,19,6,7,0.7,0.8
2026-01-04T0800,1833A,113.2917,33.737,平顶山市,规划设计院,细颗粒物(PM2.5),85,80,120,63,93,45,,32,32,22,24,5,6,0.9,1
2026-01-04T0800,1834A,113.182,33.7738,平顶山市,平顶山工学院,细颗粒物(PM2.5),70,61,95,51,86,55,,40,40,14,18,6,6,0.5,0.6
2026-01-04T0800,3594A,112.8736,33.9068,平顶山市,石龙区,细颗粒物(PM2.5),80,62,100,59,85,44,,44,44,23,30,5,6,1.0,1
2026-01-04T0800,4116A,113.284,33.7139,平顶山市,姚电大道23号,细颗粒物(PM2.5),83,73,126,61,99,51,,33,33,14,18,9,7,1.0,1
2026-01-04T0800,2656A,106.6633,35.5338,平凉市,聚贤嘉苑,,32,28,62,22,47,59,,66,66,18,14,6,7,0.8,0.9
2026-01-04T0800,2657A,106.7021,35.5307,平凉市,博物馆,,43,41,66,30,53,59,,63,63,18,16,8,9,0.7,0.9
2026-01-04T0800,2348A,113.8384,27.6436,萍乡市,中医院,细颗粒物(PM2.5),67,62,64,48,46,37,,43,43,20,18,5,7,0.8,0.7
2026-01-04T0800,2350A,113.8677,27.6438,萍乡市,市环保局,细颗粒物(PM2.5),63,52,61,45,51,44,,49,49,19,18,14,15,0.3,0.3
2026-01-04T0800,2351A,113.8663,27.6202,萍乡市,安源区政府,细颗粒物(PM2.5),70,71,67,51,48,23,,29,29,22,24,10,13,0.7,0.9
2026-01-04T0800,4107A,113.8686,27.6668,萍乡市,联洪村委会,"颗粒物(PM10),细颗粒物(PM2.5)",54,57,60,38,44,37,,42,42,21,19,6,8,0.6,0.8
2026-01-04T0800,2319A,119.0142,25.4324,莆田市,荔城区仓后路,,30,30,34,10,18,56,,63,63,18,14,/,/,/,/
2026-01-04T0800,2320A,119.0016,25.4553,莆田市,莆田市监测站,,24,19,26,3,14,74,,77,77,5,9,3,3,0.5,0.5
2026-01-04T0800,2321A,119.112,25.4561,莆田市,涵江区六中,,31,31,31,16,18,43,,61,61,28,13,/,/,0.6,0.4
2026-01-04T0800,2322A,119.1014,25.3215,莆田市,秀屿区政府,,24,24,34,13,23,55,,63,63,17,12,2,3,0.6,0.6
2026-01-04T0800,2392A,115.0312,35.7636,濮阳市,环保局,细颗粒物(PM2.5),112,,80,84,84,18,,33,33,23,22,6,6,1.5,1.5
2026-01-04T0800,3021A,115,35.7667,濮阳市,濮水河管理处,细颗粒物(PM2.5),105,105,110,79,88,21,,36,36,33,34,6,6,1.0,0.9
2026-01-04T0800,4118A,115.0552,35.7816,濮阳市,中原东路68号,细颗粒物(PM2.5),123,128,124,93,93,21,,36,36,25,23,4,5,0.9,0.8
2026-01-04T0800,4216A,115.0923632,35.76857718,濮阳市,任丘路479号,细颗粒物(PM2.5),125,107,108,95,102,9,,22,22,37,32,4,5,0.9,0.9
2026-01-04T0800,2601A,100.9801,22.7634,普洱市,市环保局,,45,36,43,31,28,11,,14,14,15,13,5,5,0.6,0.5
2026-01-04T0800,2602A,100.9763,22.8237,普洱市,普洱第二中学,,25,25,34,15,18,16,,13,13,14,13,4,5,0.5,0.4
2026-01-04T0800,3345A,131.0413,45.7795,七台河市,中波台,细颗粒物(PM2.5),67,58,51,48,34,30,,36,36,25,19,7,11,0.7,0.6
2026-01-04T0800,3637A,131.0136,45.7688,七台河市,人民广场,细颗粒物(PM2.5),90,81,57,67,42,20,,37,37,39,25,10,11,0.9,0.7
2026-01-04T0800,3684A,130.8639,45.8144,七台河市,新建矿广场,细颗粒物(PM2.5),72,70,52,52,34,22,,33,33,24,14,13,11,0.6,0.5
2026-01-04T0800,1779A,123.9307,47.3641,齐齐哈尔市,安居小区,,28,21,36,19,28,48,,52,52,20,22,6,7,0.5,0.6
2026-01-04T0800,1780A,123.9497,47.3389,齐齐哈尔市,中心广场,,15,,21,9,15,46,,55,55,18,16,5,7,0.6,0.6
2026-01-04T0800,1781A,123.9483,47.3229,齐齐哈尔市,农牧车辆厂,,17,17,30,3,17,49,,54,54,12,14,3,3,0.4,0.3
2026-01-04T0800,1783A,123.9442,47.2994,齐齐哈尔市,市环境监测站,,18,18,32,10,21,48,,61,61,18,19,6,8,0.6,0.6
2026-01-04T0800,3662A,123.6341,47.2079,齐齐哈尔市,富区青少年活动中心,,40,40,43,24,30,41,,54,54,24,23,11,9,0.7,0.8
2026-01-04T0800,2591A,107.9765,26.5724,黔东南苗族侗族自治州,市环境监测站,,19,16,11,13,10,13,,23,23,16,11,5,4,0.9,0.8
2026-01-04T0800,2881A,107.8909,26.531,黔东南苗族侗族自治州,凯里学院,,8,7,10,3,7,18,,28,28,14,12,3,4,0.8,0.7
2026-01-04T0800,2593A,107.5223,26.2371,黔南布依族苗族自治州,小围寨,,8,,3,3,3,18,,22,22,6,7,5,5,0.7,0.8
2026-01-04T0800,3538A,107.5175,26.2977,黔南布依族苗族自治州,沙坝,,8,6,5,3,5,18,,23,23,9,10,4,4,0.8,0.8
2026-01-04T0800,2589A,104.9022,25.0943,黔西南布依族苗族自治州,场坝街,,22,20,18,15,11,22,,20,20,8,7,3,3,0.7,0.7
2026-01-04T0800,2590A,104.8812,25.0994,黔西南布依族苗族自治州,坪东大道,,15,13,20,10,11,23,,18,18,7,6,4,4,0.6,0.7
2026-01-04T0800,2502A,108.6238,21.9667,钦州市,市环保站,细颗粒物(PM2.5),94,100,76,70,49,21,,30,30,33,25,4,4,0.9,1.1
2026-01-04T0800,2503A,108.655,21.9481,钦州市,沙埠小学,细颗粒物(PM2.5),94,85,61,70,49,16,,25,25,37,27,7,6,0.8,0.7
2026-01-04T0800,2504A,108.5989,21.7435,钦州市,港区一小,"颗粒物(PM10),细颗粒物(PM2.5)",70,90,68,51,41,33,,23,23,44,34,11,8,0.6,0.7
2026-01-04T0800,3404A,108.5959,21.9634,钦州市,北职校,细颗粒物(PM2.5),98,83,62,73,46,11,,16,16,33,22,7,8,0.8,1.1
2026-01-04T0800,1046A,119.5247,39.9346,秦皇岛市,建设大厦,颗粒物(PM10),66,81,78,44,48,5,,5,5,48,47,7,9,1.2,1
2026-01-04T0800,3132A,119.5979,39.938,秦皇岛市,文明里,颗粒物(PM10),69,88,83,33,37,1,,1,1,51,56,10,12,0.9,0.9
2026-01-04T0800,4066A,119.7458,39.9952,秦皇岛市,南园路157号,颗粒物(PM10),75,100,87,54,54,5,,4,4,56,50,10,11,1.5,1.3
2026-01-04T0800,4067A,119.5131,39.8858,秦皇岛市,翠岛大街1号,细颗粒物(PM2.5),59,60,51,42,34,6,,6,6,49,42,12,12,1.1,0.9
2026-01-04T0800,4198A,119.509013,39.825305,秦皇岛市,北戴河轮滑馆,细颗粒物(PM2.5),65,68,66,47,43,4,,4,4,55,48,4,6,1.1,1.5
2026-01-04T0800,1310A,120.404,36.0625,青岛市,市南区东部子站,细颗粒物(PM2.5),132,144,80,100,54,6,,21,21,74,49,14,14,1.3,0.9
2026-01-04T0800,1311A,120.362344,36.10282,青岛市,四方区子站,细颗粒物(PM2.5),132,102,76,100,63,4,,15,15,71,53,7,10,1.5,1
2026-01-04T0800,1312A,120.294373,36.054183,青岛市,市南区西部子站,细颗粒物(PM2.5),135,146,86,103,58,9,,12,12,55,50,11,8,1.1,0.8
2026-01-04T0800,1313A,120.4581,36.0858,青岛市,崂山区子站,细颗粒物(PM2.5),125,139,75,95,51,16,,36,36,64,41,15,14,1.3,0.9
2026-01-04T0800,1315A,120.3945,36.3083,青岛市,城阳区子站,细颗粒物(PM2.5),117,149,97,88,53,12,,18,18,71,58,14,10,2.0,1.2
2026-01-04T0800,3642A,120.3454,36.0735,青岛市,市北区南部,细颗粒物(PM2.5),140,130,85,107,56,4,,8,8,63,43,8,7,1.2,0.8
2026-01-04T0800,3643A,120.3897,36.18,青岛市,李沧区北部,细颗粒物(PM2.5),149,141,83,114,65,7,,20,20,75,52,14,13,1.7,1.1
2026-01-04T0800,4110A,120.5222,36.4089,青岛市,盟旺路653号,细颗粒物(PM2.5),152,146,103,116,69,7,,13,13,78,64,9,10,1.3,0.8
2026-01-04T0800,4290A,120.196923,35.954556,青岛市,珠江路669号,细颗粒物(PM2.5),129,119,86,98,67,8,,7,7,85,58,15,14,1.0,0.9
2026-01-04T0800,4291A,120.0424,35.8656,青岛市,黄岛区人民政府广场,细颗粒物(PM2.5),138,146,124,105,89,10,,10,10,50,55,10,11,1.9,1.5
2026-01-04T0800,1703A,113.0218,23.7086,清远市,凤城街办,,35,35,30,24,20,23,,36,36,35,22,/,/,/,/
2026-01-04T0800,3025A,113.0479,23.6343,清远市,技师学院,,49,49,41,26,26,3,,4,4,39,36,9,8,0.8,0.7
2026-01-04T0800,3318A,112.9898,23.7403,清远市,清新太和,,31,31,29,20,19,28,,47,47,27,18,6,6,0.6,0.5
2026-01-04T0800,3455A,113.076,23.72,清远市,清城东城,,34,34,31,21,20,11,,19,19,36,24,/,/,/,/
2026-01-04T0800,2661A,107.6325,35.7357,庆阳市,庆阳五中,细颗粒物(PM2.5),59,50,55,42,52,78,,84,84,13,16,4,4,0.5,0.6
2026-01-04T0800,2662A,107.6361,35.7067,庆阳市,市环保局,"颗粒物(PM10),细颗粒物(PM2.5)",54,57,59,38,49,77,,84,84,11,12,1,1,0.5,0.5
2026-01-04T0800,1916A,103.7897,25.5036,曲靖市,环境监测站,,27,27,22,13,9,30,,43,43,21,10,3,3,0.8,0.5
2026-01-04T0800,1917A,103.8013,25.5357,曲靖市,烟厂办公区,,23,23,20,16,11,35,,43,43,18,10,3,3,0.5,0.3
2026-01-04T0800,3376A,103.7926,25.4651,曲靖市,南苑二区,,18,16,17,12,11,38,,44,44,10,5,3,4,0.5,0.4
2026-01-04T0800,3377A,103.7442,25.5259,曲靖市,曲靖师范学院,,25,25,21,17,12,32,,45,45,17,9,2,4,0.5,0.4
2026-01-04T0800,1264A,118.8694,28.94,衢州市,环保大楼,细颗粒物(PM2.5),99,96,91,74,70,8,,10,10,56,44,/,/,/,/
2026-01-04T0800,1266A,118.8622,28.9809,衢州市,衢州学院,细颗粒物(PM2.5),84,79,77,62,62,5,,9,9,46,38,5,5,0.5,0.4
2026-01-04T0800,4097A,118.9646,28.9832,衢州市,衢州三中,细颗粒物(PM2.5),107,107,95,80,74,4,,4,4,47,39,5,5,0.6,0.5
2026-01-04T0800,1611A,118.5818,24.9116,泉州市,涂山街,,38,38,34,20,23,43,,59,59,23,13,3,3,0.5,0.4
2026-01-04T0800,1612A,118.597,24.8976,泉州市,津头埔,,38,38,35,22,24,46,,59,59,23,16,4,4,0.6,0.5
2026-01-04T0800,1613A,118.6669,24.9422,泉州市,万安,,37,37,37,19,21,40,,60,60,26,15,3,3,0.5,0.4
2026-01-04T0800,4105A,118.6355,24.9148,泉州市,霞新路6号,,28,25,33,19,24,46,,59,59,20,13,/,/,0.4,0.3
2026-01-04T0800,2626A,88.8873,29.2723,日喀则市,日喀则监测站,,18,18,20,10,10,50,,58,58,5,9,5,8,0.4,0.5
2026-01-04T0800,3726A,88.8775,29.2425,日喀则市,林业技术推广中心,,17,17,21,3,7,47,,61,61,4,4,11,11,0.4,0.3
2026-01-04T0800,1659A,119.4711,35.421,日照市,监测站,细颗粒物(PM2.5),145,161,122,111,93,2,,1,1,57,60,17,15,1.6,1.2
2026-01-04T0800,1660A,119.523,35.4216,日照市,市政府广场,细颗粒物(PM2.5),117,110,105,88,82,17,,24,24,60,48,13,13,0.7,0.7
2026-01-04T0800,1661A,119.5511,35.4113,日照市,港务局,细颗粒物(PM2.5),128,146,122,97,91,2,,8,8,74,60,13,12,0.9,0.8
2026-01-04T0800,3507A,119.5326,35.4627,日照市,职业技术学院,细颗粒物(PM2.5),107,114,108,80,71,16,,28,28,64,51,11,12,1.0,1
2026-01-04T0800,3604A,119.3267,35.1043,日照市,岚山环保分局,细颗粒物(PM2.5),178,171,126,134,97,14,,28,28,59,45,44,28,1.4,1.4
2026-01-04T0800,1835A,111.1922,34.7752,三门峡市,市政府,细颗粒物(PM2.5),160,,120,122,137,30,,31,31,28,26,6,8,0.9,1
2026-01-04T0800,1836A,111.1588,34.794,三门峡市,开发区,细颗粒物(PM2.5),162,143,151,123,136,32,,30,30,23,23,4,4,0.9,1
2026-01-04T0800,3039A,111.1911,34.7829,三门峡市,三门峡市第一小学,细颗粒物(PM2.5),155,,125,118,134,30,,29,29,24,25,8,8,1.0,1
2026-01-04T0800,3598A,111.1031,34.719,三门峡市,富达温泉假日酒店,细颗粒物(PM2.5),125,,132,95,126,37,,28,28,33,39,13,13,0.9,1.1
2026-01-04T0800,2324A,117.621,26.2626,三明市,三钢,,49,,30,34,27,3,,12,12,26,22,7,9,3.1,0.9
2026-01-04T0800,2325A,117.6352,26.2714,三明市,三明二中,,33,32,27,23,21,8,,14,14,26,19,10,10,0.8,0.7
2026-01-04T0800,2326A,117.6028,26.2377,三明市,三元区政府,,33,30,31,23,23,4,,5,5,22,23,4,6,0.8,0.6
2026-01-04T0800,1877A,109.4962,18.2682,三亚市,河西子站,,28,28,35,12,17,85,,84,84,7,8,4,4,0.5,0.5
2026-01-04T0800,3540A,109.7348,18.3443,三亚市,君悦子站,,28,28,37,13,16,64,,68,68,9,9,5,5,0.5,0.5
2026-01-04T0800,4135A,109.1714,18.3739,三亚市,城东小学站,,22,22,30,15,17,59,,66,66,6,8,/,/,/,/
2026-01-04T0800,2624A,91.7592,29.234,山南市,山南监测站,,21,10,19,3,8,65,,71,71,2,4,3,4,0.2,0.2
2026-01-04T0800,2625A,91.7701,29.2436,山南市,山南人民医院,,19,17,20,8,8,60,,74,74,9,5,1,2,0.3,0.3
2026-01-04T0800,1674A,116.6795,23.3666,汕头市,金平子站,细颗粒物(PM2.5),60,62,39,43,28,39,,64,64,46,17,18,7,1.0,0.7
2026-01-04T0800,1675A,116.7248,23.3632,汕头市,龙湖子站,,48,48,35,29,20,39,,64,64,34,13,14,11,/,/
2026-01-04T0800,1676A,116.7257,23.2774,汕头市,濠江子站,细颗粒物(PM2.5),54,48,35,38,24,49,,67,67,31,14,12,8,/,/
2026-01-04T0800,1677A,116.7518,23.4712,汕头市,澄海子站,细颗粒物(PM2.5),62,46,43,44,30,37,,60,60,26,17,13,8,0.8,0.7
2026-01-04T0800,1678A,116.6088,23.2539,汕头市,潮阳子站,细颗粒物(PM2.5),64,63,36,46,21,24,,66,66,46,14,14,7,0.9,0.5
2026-01-04T0800,3444A,116.4539,23.2684,汕头市,潮南峡山,细颗粒物(PM2.5),69,76,44,50,27,44,,63,63,27,15,17,10,0.7,0.6
2026-01-04T0800,3624A,116.4069,23.2533,汕头市,潮南子站,细颗粒物(PM2.5),78,85,53,57,29,29,,59,59,36,17,13,9,/,/
2026-01-04T0800,1693A,115.3653,22.7751,汕尾市,市环保局,,43,34,38,30,27,70,,83,83,20,15,8,7,0.5,0.5
2026-01-04T0800,1695A,115.362,22.7926,汕尾市,新城中学,,38,35,38,26,27,58,,64,64,14,12,5,6,0.4,0.4
2026-01-04T0800,2645A,109.9155,33.8714,商洛市,监测站,细颗粒物(PM2.5),64,47,54,46,49,71,,71,71,18,24,4,5,0.5,0.7
2026-01-04T0800,3045A,109.9647,33.8486,商洛市,商州区中学,细颗粒物(PM2.5),67,,54,48,53,75,,72,72,10,21,4,6,0.6,0.8
2026-01-04T0800,2408A,115.6701,34.4283,商丘市,环境监测站,细颗粒物(PM2.5),108,83,68,81,65,35,,54,54,22,15,2,2,0.5,0.4
2026-01-04T0800,2409A,115.6458,34.4047,商丘市,粮食局,细颗粒物(PM2.5),105,84,63,79,65,33,,47,47,21,17,4,4,0.6,0.6
2026-01-04T0800,3171A,115.6069,34.4465,商丘市,梁园区档案局,细颗粒物(PM2.5),104,,60,78,62,29,,40,40,20,16,2,3,0.6,0.5
2026-01-04T0800,4119A,115.6701,34.3767,商丘市,北海东路185号,细颗粒物(PM2.5),114,105,87,86,68,34,,22,22,19,28,2,2,0.6,0.6
2026-01-04T0800,4120A,115.6172,34.3704,商丘市,中山大街3号,细颗粒物(PM2.5),114,108,95,86,74,26,,32,32,28,25,3,2,0.5,0.5
2026-01-04T0800,1141A,121.401,31.2382,上海市,普陀,颗粒物(PM10),53,56,62,35,46,5,,23,23,79,61,7,8,1.1,0.7
2026-01-04T0800,1142A,121.4774,31.2043,上海市,十五厂,,50,50,64,28,43,15,,13,13,74,64,8,9,0.8,0.9
2026-01-04T0800,1143A,121.4673,31.3011,上海市,虹口,颗粒物(PM10),57,63,73,30,42,4,,8,8,70,61,12,13,0.7,0.7
2026-01-04T0800,1147A,121.4253,31.226,上海市,静安监测站,颗粒物(PM10),51,52,63,30,43,28,,30,30,58,57,8,9,0.6,0.6
2026-01-04T0800,1148A,121.7029,31.1905,上海市,浦东川沙,颗粒物(PM10),57,63,69,31,41,13,,12,12,76,63,9,10,0.7,0.9
2026-01-04T0800,1149A,121.5339,31.229,上海市,浦东新区监测站,,48,44,62,33,42,10,,26,26,83,58,9,9,0.7,0.9
2026-01-04T0800,1150A,121.5776,31.2038,上海市,浦东张江,,49,49,65,29,40,7,,17,17,77,55,9,9,0.8,0.9
2026-01-04T0800,3265A,121.4242,31.3303,上海市,宝山庙行,细颗粒物(PM2.5),53,44,71,37,47,7,,6,6,78,71,7,8,0.7,0.8
2026-01-04T0800,3266A,121.8789,31.4662,上海市,崇明上实东滩,,43,38,45,30,33,15,,26,26,24,28,4,7,0.1,0.3
2026-01-04T0800,3268A,121.316,31.2839,上海市,嘉定南翔,细颗粒物(PM2.5),57,56,69,40,50,2,,2,2,73,62,6,6,0.9,0.7
2026-01-04T0800,3269A,121.3357,30.7455,上海市,金山新城,,50,,49,35,48,58,,60,60,34,34,9,11,0.8,0.9
2026-01-04T0800,3270A,121.4996,31.0741,上海市,闵行浦江,颗粒物(PM10),51,51,65,32,45,3,,11,11,71,57,7,9,0.7,0.5
2026-01-04T0800,3271A,121.2886,31.1663,上海市,青浦徐泾,"颗粒物(PM10),细颗粒物(PM2.5)",53,56,68,37,48,0,,0,0,80,66,6,7,1.0,1
2026-01-04T0800,3272A,121.2193,31.0382,上海市,松江图书馆,颗粒物(PM10),58,66,78,28,34,4,,2,2,80,61,8,8,0.7,0.6
2026-01-04T0800,3273A,121.3904,31.206,上海市,长宁仙霞,,50,50,62,34,43,8,,18,18,77,63,8,8,0.8,0.7
2026-01-04T0800,3274A,121.7964,31.0507,上海市,浦东惠南,颗粒物(PM10),55,60,57,38,39,12,,17,17,62,49,9,8,0.7,0.7
2026-01-04T0800,3544A,121.4891,30.925,上海市,奉贤南桥新城,细颗粒物(PM2.5),59,55,73,42,56,12,,7,7,62,58,9,9,0.8,0.8
2026-01-04T0800,4183A,121.417401,31.16637,上海市,冠生园路458号,,47,47,66,32,47,10,,10,10,75,68,5,6,0.5,0.6
2026-01-04T0800,4205A,121.541914,31.268301,上海市,宁武路151号,颗粒物(PM10),59,68,74,32,44,3,,10,10,76,65,5,7,1.0,1
2026-01-04T0800,2382A,117.9758,28.4439,上饶市,市监测站,细颗粒物(PM2.5),68,78,66,49,40,34,,46,46,37,24,10,7,/,/
2026-01-04T0800,2383A,117.9521,28.4637,上饶市,凤凰光学,颗粒物(PM10),64,77,64,42,37,18,,36,36,40,25,11,10,0.7,0.7
2026-01-04T0800,3685A,117.897,28.4316,上饶市,双创科技城,细颗粒物(PM2.5),73,73,60,53,44,41,,55,55,44,29,9,6,0.8,0.7
2026-01-04T0800,4211A,118.190438,28.444845,上饶市,裕丰大道,细颗粒物(PM2.5),102,99,76,76,56,27,,36,36,47,30,14,12,0.9,0.8
