timepoint,stationcode,longitude,latitude,area,positionname,primarypollutant,aqi,pm10,pm10_24h,pm2_5,pm2_5_24h,o3,o3_24h,o3_8h,o3_8h_24h,no2,no2_24h,so2,so2_24h,co,co_24h
2025-07-02T2200,2566A,102.1879,31.914,阿坝藏族羌族自治州,州农科所,,15,11,25,3,9,47,,52,46,11,14,11,12,0.5,0.6
2025-07-02T2200,2568A,102.2502,31.8896,阿坝藏族羌族自治州,马师校,,46,,19,32,19,35,,53,36,16,10,6,6,0.6,0.6
2025-07-02T2200,3994A,102.2165,31.9024,阿坝藏族羌族自治州,马尔康中学西区,,27,27,13,17,14,43,,63,47,10,5,6,6,0.6,0.6
2025-07-02T2200,2695A,80.292,41.1694,阿克苏地区,电视台,颗粒物(PM10),57,64,54,21,22,125,,143,141,17,13,8,6,0.5,0.5
2025-07-02T2200,2696A,80.2613,41.1551,阿克苏地区,艺术中心,,,61,61,34,32,,,152,152,10,9,26,5,0.4,0.4
2025-07-02T2200,2204A,105.6467,38.8363,阿拉善盟,西城区西花园,,50,24,17,15,13,157,,176,174,14,12,8,8,0.7,0.7
2025-07-02T2200,2205A,105.6985,38.8411,阿拉善盟,蒙二幼,,47,25,27,10,8,149,,166,165,10,10,8,9,0.6,0.6
2025-07-02T2200,2206A,105.724,38.8516,阿拉善盟,环保局新楼,,48,16,15,10,8,151,,165,164,7,7,9,10,0.5,0.5
2025-07-02T2200,2708A,88.1264,47.8517,阿勒泰地区,市站,,27,15,14,3,6,85,,102,98,9,11,1,1,0.3,0.4
2025-07-02T2200,2630A,80.1161,32.5,阿里地区,阿里监测站,,36,9,6,6,3,114,,111,111,5,5,3,3,0.2,0.3
2025-07-02T2200,3192A,80.0903,32.5028,阿里地区,阿里藏医院,,36,9,12,3,3,114,,110,110,1,2,4,4,0.4,0.4
2025-07-02T2200,2642A,109.0318,32.6537,安康市,香溪洞,,15,14,18,10,8,45,,62,58,6,6,7,7,0.1,0.2
2025-07-02T2200,2644A,109.0072,32.6975,安康市,汉滨区检察院,,17,17,22,10,11,36,,72,61,8,7,9,6,0.5,0.4
2025-07-02T2200,4054A,109.0325,32.6913,安康市,市邮政管理局,,22,22,22,10,10,22,,61,47,8,7,4,11,0.5,0.5
2025-07-02T2200,2291A,117.0809,30.5177,安庆市,环科院,,,41,22,14,12,,,110,96,,23,,3,,0.5
2025-07-02T2200,2292A,117.0331,30.5119,安庆市,马山宾馆,,30,30,23,19,17,50,,116,88,24,24,4,4,0.5,0.4
2025-07-02T2200,2294A,116.9896,30.6145,安庆市,安庆大学,,38,36,27,26,17,46,,124,97,26,17,2,3,0.5,0.4
2025-07-02T2200,3173A,117.0598,30.5351,安庆市,市人大,,36,36,22,20,14,34,,123,100,40,18,2,3,0.5,0.5
2025-07-02T2200,3122A,105.9606,26.2611,安顺市,伍家关,,,,,7,7,39,,45,43,1,2,3,4,0.3,0.3
2025-07-02T2200,3123A,105.9408,26.2431,安顺市,凤凰山,,15,14,10,10,8,40,,47,44,4,4,3,3,0.4,0.5
2025-07-02T2200,3124A,105.9439,26.2564,安顺市,金钟山,,13,10,8,6,4,41,,48,45,2,3,4,4,0.3,0.4
2025-07-02T2200,3125A,105.8983,26.2481,安顺市,娄家坡,,12,6,6,3,3,36,,47,44,2,2,4,4,0.5,0.5
2025-07-02T2200,1818A,114.4839,36.0621,安阳市,棉研所,,,,,,,,,,,,,,,,
2025-07-02T2200,1819A,114.3551,36.1017,安阳市,红庙街,,30,,25,11,9,94,,126,121,2,2,3,3,0.4,0.3
2025-07-02T2200,1820A,114.361,36.0681,安阳市,银杏小区,,32,30,25,12,14,102,,136,128,2,2,2,2,0.5,0.4
2025-07-02T2200,3141A,114.3922,36.0878,安阳市,信访局,,35,27,26,17,13,112,,143,138,4,2,1,2,0.9,0.7
2025-07-02T2200,3669A,114.4705,36.0637,安阳市,左辅环卫站,,28,28,23,3,7,78,,123,117,8,4,5,5,0.5,0.5
2025-07-02T2200,3703A,114.2917,36.0949,安阳市,安钢职工学校,,34,34,27,11,13,98,,125,122,3,3,3,4,0.4,0.5
2025-07-02T2200,1748A,123.044,41.1196,鞍山市,深沟寺,,21,21,19,12,9,65,,102,88,5,9,6,5,0.7,1.2
2025-07-02T2200,1749A,123.011,41.0931,鞍山市,太阳城,,22,19,23,12,12,69,,106,94,6,10,4,6,0.6,1.3
2025-07-02T2200,1750A,123.0485,41.1442,鞍山市,太平,,34,34,28,17,14,64,,110,94,8,11,4,6,0.7,1.3
2025-07-02T2200,1751A,122.9642,41.0971,鞍山市,铁西三道街,,24,24,21,15,15,61,,102,91,10,13,6,6,0.6,1.1
2025-07-02T2200,1753A,123.022,41.0821,鞍山市,明达新区,,22,20,18,10,13,70,,104,91,6,9,5,6,0.6,1.2
2025-07-02T2200,1754A,123.1289,41.0228,鞍山市,千山,,,,,,,,,,,,,,,,
2025-07-02T2200,4201A,122.9446,41.0826,鞍山市,兴盛南路290号,,21,21,28,11,14,61,,100,86,15,14,4,2,0.6,0.8
2025-07-02T2200,2195A,107.4212,40.761,巴彦淖尔市,附二中,,39,39,45,20,14,118,,142,134,12,12,12,7,0.6,0.5
2025-07-02T2200,2196A,107.37,40.7372,巴彦淖尔市,市环保大楼,,48,48,48,20,13,123,,141,135,12,11,8,8,0.5,0.4
2025-07-02T2200,1956A,86.1472,41.7538,巴音郭楞蒙古自治州,孔雀公园,,34,34,34,17,14,106,,117,116,8,6,2,2,0.2,0.2
2025-07-02T2200,1957A,86.1972,41.7166,巴音郭楞蒙古自治州,棉纺厂,颗粒物(PM10),58,65,43,14,8,106,,119,119,10,10,3,4,0.2,0.2
2025-07-02T2200,1958A,86.2357,41.7173,巴音郭楞蒙古自治州,经济开发区,,37,37,27,8,8,108,,118,118,6,4,1,3,0.2,0.2
2025-07-02T2200,2914A,106.7677,31.8794,巴中市,苏山坪,,20,13,12,9,7,64,,65,65,5,4,4,4,0.3,0.4
2025-07-02T2200,3181A,106.7768,31.8526,巴中市,市五中,,20,20,16,8,8,26,,53,50,12,8,8,8,0.6,0.6
2025-07-02T2200,3183A,106.7418,31.8654,巴中市,圣泉水务公司,,28,28,16,10,8,13,,64,58,20,10,6,6,0.6,0.6
2025-07-02T2200,3616A,106.7616,31.8344,巴中市,市中心医院,,20,20,16,12,9,19,,58,52,25,9,7,7,0.6,0.5
2025-07-02T2200,2235A,122.7911,45.6077,白城市,洮北区环保局,,34,24,10,8,6,106,,134,128,13,6,7,6,0.4,0.3
2025-07-02T2200,2236A,122.8738,45.5725,白城市,市环保局,,37,36,20,12,8,118,,127,126,7,4,3,3,0.5,0.5
2025-07-02T2200,2231A,126.4219,41.9171,白山市,喜丰,,16,16,20,8,7,51,,69,66,6,8,3,6,0.7,0.7
2025-07-02T2200,2232A,126.4077,41.9419,白山市,环保局,,26,26,17,14,6,34,,70,62,11,10,1,2,0.6,0.6
2025-07-02T2200,2647A,104.1724,36.5446,白银市,第三小学,颗粒物(PM10),52,54,39,20,24,73,,154,142,51,16,12,22,0.9,0.9
2025-07-02T2200,2648A,104.1465,36.5482,白银市,动力公司,,43,43,36,17,20,101,,143,137,22,14,11,15,0.5,0.7
2025-07-02T2200,2512A,106.6103,23.9011,百色市,市监测站,,,11,19,7,8,,,55,55,8,9,7,7,0.5,0.4
2025-07-02T2200,2513A,106.6538,23.8859,百色市,市中心血站,,13,8,17,7,9,41,,51,50,7,9,6,5,0.6,0.6
2025-07-02T2200,3406A,106.6085,23.8798,百色市,祈福高中,,19,,22,13,12,38,,53,52,12,10,14,8,0.7,0.7
2025-07-02T2200,2270A,117.396,32.939,蚌埠市,工人疗养院,,31,25,20,11,3,97,,119,119,4,6,3,4,0.3,0.3
2025-07-02T2200,2271A,117.3605,32.9427,蚌埠市,百货大楼,,28,27,24,9,6,89,,105,105,8,11,5,6,0.4,0.4
2025-07-02T2200,2273A,117.4185,32.8911,蚌埠市,蚌埠学院,,26,22,17,8,8,82,,109,107,5,6,5,6,0.3,0.3
2025-07-02T2200,2274A,117.3533,32.9673,蚌埠市,淮上区政府,,32,24,19,8,8,101,,112,111,8,8,5,6,0.4,0.4
2025-07-02T2200,2275A,117.3145,32.8977,蚌埠市,高新区,,28,27,21,14,8,87,,103,101,16,12,9,7,0.6,0.5
2025-07-02T2200,3715A,117.3092,32.9314,蚌埠市,蚌埠田家炳中学,,36,36,22,14,10,88,,101,96,8,10,9,10,0.4,0.3
2025-07-02T2200,1585A,109.8756,40.6532,包头市,市环境监测站,,34,23,25,3,12,106,,117,116,15,22,7,10,0.5,0.7
2025-07-02T2200,1587A,109.9991,40.5842,包头市,包头八中,,32,26,32,13,17,101,,117,115,16,22,6,15,0.7,0.8
2025-07-02T2200,1588A,109.8538,40.6821,包头市,青山宾馆,,34,20,28,14,18,106,,117,116,14,27,7,8,0.4,0.5
2025-07-02T2200,1589A,109.8642,40.6288,包头市,惠龙物流,,34,18,23,10,15,107,,120,119,12,18,5,8,0.5,0.6
2025-07-02T2200,1590A,110.0377,40.5546,包头市,东河鸿龙湾,,34,15,25,10,14,106,,124,121,10,20,5,8,0.6,0.5
2025-07-02T2200,3283A,109.9154,40.5685,包头市,滨河大厦,,34,16,21,9,15,107,,130,127,11,14,6,8,0.5,0.6
2025-07-02T2200,3419A,109.9447,40.6261,包头市,包头市委党校,,34,18,23,18,18,106,,118,115,15,21,9,16,0.5,0.7
2025-07-02T2200,3683A,109.8331,40.6576,包头市,昆区政府,,35,23,26,14,17,111,,119,118,13,19,5,8,0.6,0.7
2025-07-02T2200,1930A,107.185,34.3063,宝鸡市,庙沟村,,18,17,24,10,13,55,,79,57,7,10,4,4,0.3,0.3
2025-07-02T2200,1931A,107.0708,34.3017,宝鸡市,竹园沟,,,25,25,10,14,,,65,45,12,12,6,6,,0.5
2025-07-02T2200,1932A,107.1906,34.3672,宝鸡市,三陆医院,,45,45,32,18,19,27,,78,60,29,20,6,7,0.6,0.5
2025-07-02T2200,1933A,107.1431,34.3547,宝鸡市,监测站,,41,41,33,17,20,25,,83,65,17,14,7,7,0.4,0.4
2025-07-02T2200,1934A,107.1186,34.3739,宝鸡市,技工学校,,34,34,31,23,19,35,,91,78,12,8,8,8,0.6,0.5
2025-07-02T2200,1935A,107.3906,34.3528,宝鸡市,陈仓区环保局家属楼,,,,,,,,,,,,,,,,
2025-07-02T2200,1936A,107.2058,34.3497,宝鸡市,文理学院,,,,33,,26,,,73,,,14,,6,,0.5
2025-07-02T2200,1937A,107.2386,34.3622,宝鸡市,三迪小学,,,41,31,22,25,43,,83,70,,18,7,7,,0.5
2025-07-02T2200,1051A,115.493,38.8632,保定市,游泳馆,,,11,35,3,17,,,70,48,5,18,4,4,0.0,0.1
2025-07-02T2200,1052A,115.5213,38.8959,保定市,华电二区,,20,15,31,6,20,62,,102,72,8,20,3,2,0.5,0.6
2025-07-02T2200,1053A,115.4713,38.9108,保定市,接待中心,,19,14,39,3,19,60,,98,75,3,15,3,3,0.2,0.3
2025-07-02T2200,1054A,115.4612,38.8416,保定市,地表水厂,,,32,51,,14,70,,108,81,5,18,3,3,0.5,0.5
2025-07-02T2200,3581A,115.31981,38.95208,保定市,满城区生态环境分局,,19,17,41,9,23,59,,90,67,3,12,1,3,0.0,0.2
2025-07-02T2200,3582A,115.47694,38.76408,保定市,清苑区第二中学,,19,16,40,11,22,58,,95,72,10,15,3,3,0.3,0.3
2025-07-02T2200,3583A,115.62909,39.02311,保定市,徐水物探局,,16,14,35,3,15,50,,78,58,4,18,1,2,0.4,0.4
2025-07-02T2200,4004A,115.4202,38.8656,保定市,双鹰农机,,15,12,26,3,21,47,,73,58,8,19,2,2,0.2,0.3
2025-07-02T2200,4034A,115.5150,38.8590,保定市,植保所站,,21,17,34,6,17,65,,97,72,12,21,3,4,0.1,0.2
2025-07-02T2200,2594A,99.1678,25.1081,保山市,市环境监测站,,20,16,15,14,14,17,,38,33,6,8,4,4,0.6,0.5
2025-07-02T2200,2595A,99.1711,25.1328,保山市,市环保局,,15,15,17,8,7,22,,43,37,4,6,6,6,0.4,0.4
2025-07-02T2200,1866A,109.2262,21.588,北海市,牛尾岭水库,,15,11,12,10,7,31,,66,56,6,6,2,4,0.4,0.5
2025-07-02T2200,1867A,109.1436,21.4086,北海市,海滩公园,,15,7,13,3,3,46,,56,51,6,5,2,2,0.7,0.7
2025-07-02T2200,1868A,109.0981,21.4661,北海市,新市环保局,,15,13,15,7,8,48,,60,55,6,6,3,3,0.4,0.4
2025-07-02T2200,1869A,109.1778,21.5233,北海市,北海工业园,,20,20,19,7,9,29,,58,43,12,10,3,5,0.4,0.5
2025-07-02T2200,3400A,109.1911,21.4415,北海市,龙潭自来水厂,,15,12,14,6,8,48,,61,55,5,5,4,5,0.4,0.4
2025-07-02T2200,1001A,116.3621,39.8784,北京市,万寿西宫,,25,,29,3,24,80,,148,126,7,18,3,3,0.4,0.5
2025-07-02T2200,1002A,116.2202,40.2915,北京市,定陵,,,,21,,22,,,97,,,2,,3,,0.4
2025-07-02T2200,1003A,116.4174,39.9289,北京市,东四,,27,6,27,3,18,86,,156,138,8,20,2,3,0.4,0.5
2025-07-02T2200,1004A,116.4072,39.8863,北京市,天坛,,24,6,32,3,21,75,,143,122,8,18,3,3,0.5,0.6
2025-07-02T2200,1005A,116.462,39.9365,北京市,农展馆,,24,6,32,3,21,75,,133,115,7,18,3,3,0.8,0.9
2025-07-02T2200,1006A,116.3392,39.9295,北京市,官园,,23,6,31,3,20,73,,145,124,10,18,2,3,0.4,0.5
2025-07-02T2200,1007A,116.2878,39.9611,北京市,海淀万柳,,27,6,35,3,22,85,,142,125,10,22,4,5,0.4,0.5
2025-07-02T2200,1008A,116.6636,40.135,北京市,顺义新城,,25,6,33,3,19,79,,134,120,5,12,4,4,0.2,0.3
2025-07-02T2200,1009A,116.6275,40.3275,北京市,怀柔镇,,27,6,31,3,23,85,,148,137,8,11,3,3,0.3,0.4
2025-07-02T2200,1010A,116.2296,40.217,北京市,昌平镇,,49,49,34,31,20,101,,130,124,11,10,4,4,0.3,0.2
2025-07-02T2200,1011A,116.3966,39.9821,北京市,奥体中心,,26,,32,3,19,81,,141,126,7,16,3,3,0.4,0.5
2025-07-02T2200,3281A,115.9718,40.4529,北京市,延庆夏都,,48,48,28,32,22,127,,158,154,8,6,4,4,0.7,0.5
2025-07-02T2200,3418A,116.8336,40.4095,北京市,密云新城,,26,11,30,6,19,82,,140,131,6,5,2,1,0.3,0.4
2025-07-02T2200,3671A,116.088,39.9726,北京市,门头沟三家店,,34,34,35,21,23,66,,141,118,17,16,2,3,0.7,0.6
2025-07-02T2200,3672A,116.1541,39.8204,北京市,丰台云岗,,23,20,34,14,20,71,,147,121,7,14,3,2,0.3,0.3
2025-07-02T2200,3673A,116.6804,39.9081,北京市,通州东关,,24,,41,3,27,76,,136,114,9,16,1,1,0.5,0.6
2025-07-02T2200,3674A,115.9577,39.7603,北京市,房山燕山,,35,28,30,24,23,82,,137,120,6,8,1,1,0.4,0.4
2025-07-02T2200,3675A,116.4672,39.7733,北京市,大兴旧宫,,,,32,0,22,72,,123,101,8,16,1,2,0.5,0.7
2025-07-02T2200,3694A,115.986,40.4563,北京市,延庆石河营,颗粒物(PM10),51,51,29,35,21,129,,150,148,9,7,3,2,0.4,0.3
2025-07-02T2200,3695A,116.6151,40.3053,北京市,怀柔新城,,27,16,21,3,25,84,,132,125,4,6,1,1,0.7,0.7
2025-07-02T2200,3696A,116.2545,39.8768,北京市,丰台小屯,,23,6,31,3,22,73,,140,121,3,12,1,1,0.4,0.4
2025-07-02T2200,3697A,116.84,40.3844,北京市,密云镇,,28,6,27,3,21,87,,133,127,5,9,2,2,0.4,0.4
2025-07-02T2200,4182A,116.1942,39.9158,北京市,八角北路9号,,26,20,42,12,21,83,,154,131,15,23,1,1,0.2,0.3
2025-07-02T2200,4194A,117.0790,40.1518,北京市,洳河巡河路,,25,10,34,7,24,78,,137,125,1,3,1,2,0.4,0.5
2025-07-02T2200,1761A,123.8275,41.3064,本溪市,大峪,,21,13,10,3,6,67,,80,76,2,6,5,5,0.4,0.5
2025-07-02T2200,1762A,123.7567,41.3325,本溪市,溪湖,,20,16,15,10,8,62,,75,72,9,9,4,6,0.8,1.2
2025-07-02T2200,1763A,123.7169,41.3094,本溪市,彩屯,,29,23,18,17,11,36,,62,54,29,18,8,7,2.9,1.6
2025-07-02T2200,1764A,123.7669,41.2864,本溪市,东明,,21,13,13,6,6,66,,76,72,6,7,4,4,0.5,0.6
2025-07-02T2200,1765A,123.7992,41.2664,本溪市,新立屯,,25,8,10,3,3,77,,86,81,4,8,3,4,0.5,0.5
2025-07-02T2200,1766A,123.8142,41.3472,本溪市,威宁,,22,,43,15,8,45,,81,71,8,7,6,6,0.3,0.4
2025-07-02T2200,2587A,105.2864,27.3125,毕节市,八中,,13,9,7,7,7,41,,48,47,6,4,4,4,0.4,0.4
2025-07-02T2200,2588A,105.31,27.2944,毕节市,师专,,14,11,8,8,5,42,,48,47,6,7,4,3,0.5,0.4
2025-07-02T2200,4263A,105.3688,27.3598,毕节市,工业大道,,14,11,6,3,2,42,,53,51,10,7,6,6,0.5,0.5
2025-07-02T2200,1629A,118.0018,37.3617,滨州市,第二水厂,,32,31,21,22,15,69,,124,105,18,9,1,1,0.5,0.5
2025-07-02T2200,1630A,117.9776,37.393,滨州市,北中新校,,46,46,26,29,15,72,,149,103,20,10,1,5,0.5,0.6
2025-07-02T2200,3514A,117.9378,37.3956,滨州市,中海酒店,,36,36,18,17,17,66,,136,115,17,16,7,7,0.8,0.7
2025-07-02T2200,3515A,117.9378,37.3553,滨州市,开发区一中,,39,39,22,17,15,12,,68,68,28,14,10,9,0.9,0.5
2025-07-02T2200,3516A,118.0917,37.694,滨州市,金海六路,,32,32,18,22,11,57,,109,92,14,10,7,8,0.3,0.2
2025-07-02T2200,4028A,117.9956,37.3753,滨州市,滨州市西街道办事处,细颗粒物(PM2.5),58,56,19,41,17,75,,143,112,17,9,4,2,0.4,0.5
2025-07-02T2200,2311A,115.8072,33.8399,亳州市,污水处理厂,,20,,16,14,7,63,,106,96,9,9,4,4,0.4,0.4
2025-07-02T2200,2312A,115.7789,33.8518,亳州市,三国揽胜宫,,22,16,20,3,4,68,,104,95,9,9,2,2,0.3,0.4
2025-07-02T2200,3332A,115.7633,33.8034,亳州市,亳州学院,,20,,7,6,8,64,,108,96,8,10,2,2,0.4,0.4
2025-07-02T2200,2693A,82.0485,44.8556,博尔塔拉蒙古自治州,市党校,,,29,24,16,14,,,111,111,11,9,3,3,0.2,0
2025-07-02T2200,2694A,82.0806,44.8969,博尔塔拉蒙古自治州,市环保局,,35,35,33,16,11,88,,110,108,12,7,1,2,0.2,0.2
2025-07-02T2200,1071A,116.8842,38.2991,沧州市,沧县城建局,,17,17,27,7,21,53,,81,70,12,13,3,2,0.4,0.4
2025-07-02T2200,1072A,116.8584,38.3254,沧州市,电视转播站,,27,27,31,3,15,50,,70,62,13,13,3,4,0.2,0.3
2025-07-02T2200,1073A,116.8709,38.3228,沧州市,市环保局,,15,15,31,9,20,44,,64,56,12,11,3,3,0.3,0.3
2025-07-02T2200,3324A,116.8136,38.3004,沧州市,河北水利电力学院,,,6,17,3,14,,,108,101,8,11,2,2,0.1,0.2
2025-07-02T2200,2622A,97.1806,31.1273,昌都市,昌都监测站,,18,12,11,7,8,56,,50,50,6,4,6,6,0.2,0.2
2025-07-02T2200,3719A,97.1714,31.1406,昌都市,昌都会议中心,,20,6,14,3,7,64,,54,54,4,4,6,6,0.1,0.1
2025-07-02T2200,2690A,88.1236,43.8886,昌吉回族自治州,天山天池,,25,17,17,3,7,80,,108,103,5,5,4,5,0.6,0.6
2025-07-02T2200,2692A,87.2717,44.0297,昌吉回族自治州,新区政务中心,,,16,18,3,5,,,120,120,8,6,3,3,0.3,0.3
2025-07-02T2200,3613A,87.3095,44.0142,昌吉回族自治州,亚心广场,,33,22,21,9,6,104,,112,111,11,8,6,6,0.2,0.2
2025-07-02T2200,1120A,125.2863,43.9027,长春市,客车厂,,29,22,23,18,13,91,,118,111,16,12,3,3,0.4,0.4
2025-07-02T2200,1121A,125.2841,43.8463,长春市,邮电学院,,33,22,24,13,12,105,,123,118,13,11,2,2,0.6,0.5
2025-07-02T2200,1122A,125.3716,43.8772,长春市,劳动公园,,,,,,,,,,,,,,,,
2025-07-02T2200,1123A,125.3297,43.8805,长春市,园林处,,32,22,23,9,13,102,,121,115,10,9,4,4,0.7,0.5
2025-07-02T2200,1124A,125.4605,43.79,长春市,净月潭,,22,22,20,8,8,68,,103,95,11,6,5,5,0.5,0.4
2025-07-02T2200,1125A,125.7194,43.515,长春市,甩湾子,,18,9,16,7,7,57,,91,82,14,11,1,1,0.8,0.9
2025-07-02T2200,1126A,125.3863,43.8447,长春市,经开区环卫处,,30,30,32,15,14,78,,106,98,16,9,5,5,0.6,0.4
2025-07-02T2200,1127A,125.245,43.7783,长春市,高新区管委会,,30,19,22,12,13,94,,119,110,14,9,3,2,0.6,0.4
2025-07-02T2200,1128A,125.1761,43.8325,长春市,岱山公园,,24,24,23,11,13,75,,112,102,26,13,2,2,0.4,0.3
2025-07-02T2200,4281A,125.3346,43.9164,长春市,北亚泰大街1068号,,32,25,27,16,14,101,,125,118,15,13,1,2,0.7,0.6
2025-07-02T2200,1335A,113.0833,28.2325,长沙市,经开区环保局,,16,16,15,9,4,43,,67,61,18,8,4,4,0.3,0.3
2025-07-02T2200,1336A,112.8872,28.2189,长沙市,高开区环保局,,,21,18,12,5,,,80,71,9,6,5,3,0.4,0.5
2025-07-02T2200,1337A,113.0792,28.2053,长沙市,马坡岭,,32,32,18,19,7,27,,68,60,32,10,4,4,0.5,0.4
2025-07-02T2200,1338A,112.9394,28.19,长沙市,湖南师范大学,,15,14,17,10,8,35,,74,63,12,7,2,3,0.4,0.4
2025-07-02T2200,1339A,113.0178,28.1322,长沙市,雨花区环保局,,17,11,13,6,5,52,,67,64,10,5,5,6,0.4,0.4
2025-07-02T2200,1340A,112.9792,28.2597,长沙市,伍家岭,,20,20,17,10,7,48,,75,68,15,7,3,4,0.4,0.4
2025-07-02T2200,1341A,113.0014,28.1944,长沙市,火车新站,,22,22,16,7,3,45,,67,62,14,6,6,7,0.4,0.4
2025-07-02T2200,1342A,112.9844,28.1178,长沙市,天心区环保局,,18,14,14,8,6,56,,75,70,12,9,1,2,0,0
2025-07-02T2200,1343A,112.8908,28.1308,长沙市,湖南中医药大学,,20,16,18,14,8,37,,76,61,19,8,3,5,0.5,0.6
2025-07-02T2200,1344A,112.9581,28.3611,长沙市,沙坪,,16,16,15,9,5,41,,84,71,12,11,4,4,0.5,0.4
2025-07-02T2200,1727A,113.1147,36.1547,长治市,清华站,,30,24,16,12,8,93,,95,95,7,6,5,6,0.6,0.5
2025-07-02T2200,1730A,113.0886,36.2125,长治市,审计局,,30,24,19,12,8,94,,95,95,9,8,8,8,0.6,0.6
2025-07-02T2200,1731A,113.0844,36.1856,长治市,长治八中,,,30,16,22,14,,,100,100,12,6,6,10,0.5,0.4
2025-07-02T2200,2845A,113.1569,36.1911,长治市,德盛苑,,31,31,17,12,7,92,,92,92,8,6,8,7,0.7,0.7
2025-07-02T2200,3568A,113.06,36.0464,长治市,向阳小学,臭氧1小时,98,42,42,14,12,198,,158,153,2,6,3,7,0.8,0.8
2025-07-02T2200,3569A,112.8792,36.3144,长治市,屯留一中,,45,38,29,31,24,84,,98,93,18,13,6,6,0.2,0.2
2025-07-02T2200,4189A,113.1131,36.19948,长治市,英华南巷50号,,29,29,18,14,8,92,,93,93,8,8,7,7,0.6,0.6
2025-07-02T2200,4190A,113.2367,36.3344,长治市,学府街1号,,31,25,22,12,11,98,,94,92,8,17,3,3,0.5,0.5
2025-07-02T2200,1854A,111.6975,28.9703,常德市,市二中,,20,20,13,9,8,57,,76,70,8,11,8,6,0.7,0.7
2025-07-02T2200,1857A,111.7158,29.1456,常德市,白鹤山,,,,,,,,,,,,,,,,
2025-07-02T2200,3138A,111.7153,29.0289,常德市,武陵区永安,,25,21,14,17,8,48,,79,71,5,8,7,4,0.3,0.3
2025-07-02T2200,3139A,111.6892,28.9881,常德市,鼎城区玉霞,,19,19,13,8,8,54,,74,67,7,10,10,6,0.3,0.4
2025-07-02T2200,3140A,111.6625,29.0531,常德市,武陵区长庚,,,19,14,14,8,,,78,76,13,7,8,4,0.4,0.4
2025-07-02T2200,1196A,119.9633,31.762,常州市,市监测站,颗粒物(PM10),58,65,49,24,17,135,,146,141,22,22,10,10,0.6,0.4
2025-07-02T2200,1200A,119.9468,31.7069,常州市,武进监测站,,46,35,27,15,13,145,,133,133,29,24,13,14,0.5,0.6
2025-07-02T2200,1201A,119.9255,31.9087,常州市,安家,,,46,39,22,17,,,160,146,23,23,8,9,0.5,0.6
2025-07-02T2200,3002A,119.9805,31.8174,常州市,行政中心,,45,45,31,23,17,135,,142,135,14,14,11,10,0.3,0.4
2025-07-02T2200,3003A,120.0522,31.7748,常州市,经开区,,50,50,41,28,13,140,,154,148,18,15,7,6,0.2,0.3
2025-07-02T2200,3010A,119.9025,31.7964,常州市,钟楼,,,33,30,15,14,144,,126,126,13,13,6,6,,0.4
2025-07-02T2200,3429A,119.8598,31.7066,常州市,武进经发区,,,30,35,14,15,,,128,111,14,10,8,7,0.7,0.7
2025-07-02T2200,3430A,119.5826,31.7245,常州市,金坛城区,,34,30,32,20,17,107,,126,112,14,13,10,6,0.7,0.4
2025-07-02T2200,2220A,120.4318,41.5881,朝阳市,西梁,,50,50,32,29,19,98,,117,116,11,11,4,7,0.7,0.8
2025-07-02T2200,2221A,120.4521,41.5646,朝阳市,河畔小区,,34,25,27,23,17,108,,126,125,8,8,6,6,0.6,0.6
2025-07-02T2200,2222A,120.4176,41.5648,朝阳市,八里堡,,33,33,31,22,18,86,,122,116,12,13,1,2,0.6,0.7
2025-07-02T2200,2223A,120.3806,41.5969,朝阳市,农业园区,细颗粒物(PM2.5),53,,27,37,20,91,,126,118,12,10,4,4,0.6,0.6
2025-07-02T2200,1705A,116.6367,23.6719,潮州市,西园路,颗粒物(PM10),59,68,29,14,9,43,,78,75,10,8,8,4,0.4,0.4
2025-07-02T2200,3026A,116.6183,23.6608,潮州市,市政府,,,29,25,8,6,,,83,83,8,4,3,3,0.4,0.7
2025-07-02T2200,4036A,116.6461,23.6761,潮州市,金山,,26,26,22,15,12,40,,89,85,11,7,9,6,0.5,0.5
2025-07-02T2200,2472A,113.0073,25.9061,郴州市,马头岭,,16,16,14,3,6,23,,51,45,13,9,7,8,0.4,0.4
2025-07-02T2200,2473A,113.0116,25.8226,郴州市,市职中,,16,16,10,8,6,18,,49,44,16,7,4,5,0.6,0.5
2025-07-02T2200,2475A,113.0383,25.8071,郴州市,市审计局,,23,23,9,12,5,26,,52,48,12,6,4,8,0.4,0.3
2025-07-02T2200,2476A,113.0348,25.7759,郴州市,市环保局,,25,19,11,17,5,27,,50,46,20,12,6,10,0.2,0.2
2025-07-02T2200,4252A,113.0138,25.8011,郴州市,好美居路49号,,16,15,12,11,4,32,,55,52,17,6,6,6,0.7,0.4
2025-07-02T2200,1431A,103.9728,30.7236,成都市,金泉两河,,20,20,24,12,11,62,,80,73,18,15,4,4,0.4,0.5
2025-07-02T2200,1432A,104.176,30.6872,成都市,十里店,,37,37,37,14,17,73,,90,89,19,18,5,5,0.7,0.6
2025-07-02T2200,1433A,104.079,30.5706,成都市,三瓦窑,,42,42,31,20,18,78,,97,93,16,17,4,4,0.6,0.6
2025-07-02T2200,1434A,104.1114,30.63,成都市,沙河铺,,30,30,34,18,18,74,,81,80,16,17,5,5,0.6,0.6
2025-07-02T2200,1437A,104.0786,30.6531,成都市,君平街,,30,30,33,16,17,72,,91,88,16,15,6,6,0.8,0.8
2025-07-02T2200,1438A,103.613,31.0283,成都市,灵岩寺,,,,,,,,,,,,,,,,
2025-07-02T2200,2880A,104.0239,30.65639,成都市,大石西路,,36,31,34,25,19,67,,82,78,16,15,5,5,0.8,0.8
2025-07-02T2200,3136A,104.2725,30.5589,成都市,龙泉驿区区政府,,29,29,32,19,20,73,,91,87,21,21,4,5,0.7,0.8
2025-07-02T2200,3357A,104.0106,30.6931,成都市,金博路,,28,28,19,14,9,58,,76,73,21,16,5,5,0.6,0.6
2025-07-02T2200,3359A,104.0578,30.5225,成都市,华阳,,35,31,30,24,21,75,,90,88,18,18,7,7,0.7,0.6
2025-07-02T2200,3488A,104.3853,30.7453,成都市,青白江技师分院,,32,31,34,22,22,60,,77,75,20,20,6,5,0.7,0.8
2025-07-02T2200,3489A,104.0789,30.4072,成都市,科学城,,42,42,33,24,19,88,,107,106,20,18,4,4,0.6,0.6
2025-07-02T2200,4011A,103.8506,30.6947,成都市,光华大道三段,,18,18,20,3,13,48,,92,72,22,12,6,5,0.8,0.7
2025-07-02T2200,4224A,104.2433,30.5353,成都市,鲸龙路1057号,,38,38,52,23,33,66,,81,77,24,22,8,8,0.6,0.7
2025-07-02T2200,1062A,117.9531,40.9081,承德市,铁路,,35,33,31,22,17,110,,112,104,13,13,1,1,0.5,0.4
2025-07-02T2200,1063A,117.9392,40.9763,承德市,中国银行,,39,39,34,21,20,101,,130,118,13,9,3,3,0.5,0.4
2025-07-02T2200,1064A,117.9503,40.928,承德市,开发区,细颗粒物(PM2.5),60,,16,43,36,104,,128,118,12,12,4,5,0.4,0.4
2025-07-02T2200,1065A,117.8051,40.9655,承德市,文化中心,,44,33,40,12,22,140,,144,128,4,13,1,7,0.4,0.6
2025-07-02T2200,1066A,117.9268,41.0026,承德市,离宫,,40,40,28,19,14,50,,114,91,10,8,1,2,0.4,0.4
2025-07-02T2200,2314A,117.47,30.6618,池州市,池州学院,,28,28,22,17,13,68,,110,94,10,8,6,6,0.3,0.5
2025-07-02T2200,3237A,117.4918,30.6617,池州市,展览馆,,26,26,20,14,10,64,,105,91,9,9,4,5,0.5,0.6
2025-07-02T2200,3333A,117.5627,30.695,池州市,第八中学,,24,24,21,12,11,63,,116,100,10,9,4,6,0.4,0.3
2025-07-02T2200,3334A,117.5038,30.6243,池州市,第十二中学,,,24,23,18,12,,,120,99,11,12,3,4,0.7,0.8
2025-07-02T2200,1744A,118.9233,42.2816,赤峰市,松山一中,,28,19,17,10,8,89,,135,118,15,11,8,8,0.6,0.5
2025-07-02T2200,1745A,118.9576,42.2728,赤峰市,哈达街,,28,24,19,8,7,88,,127,112,19,14,13,14,0.7,0.6
2025-07-02T2200,1746A,118.8788,42.2554,赤峰市,天义路,,27,,14,16,13,86,,129,112,16,11,14,9,0.4,0.4
2025-07-02T2200,3058A,119.2658,42.0353,赤峰市,银河街,,,28,26,14,17,,,116,111,15,11,22,16,0.5,0.6
2025-07-02T2200,3286A,118.9359,42.3147,赤峰市,桥北物流园区,,40,40,20,3,23,74,,126,107,22,11,11,8,0.5,0.6
2025-07-02T2200,2521A,107.3476,22.4136,崇左市,市环保局江州分局,,12,12,12,3,5,29,,51,45,7,6,6,6,0.7,0.7
2025-07-02T2200,4256A,107.3750,22.3736,崇左市,石景林东路7号,,10,6,9,3,4,32,,57,50,12,8,6,4,0.5,0.5
2025-07-02T2200,2298A,118.3093,32.3153,滁州市,老年大学,,39,39,31,24,19,97,,136,130,12,8,2,4,0.4,0.3
2025-07-02T2200,2299A,118.3244,32.2786,滁州市,人大宾馆,,,,18,32,19,,,156,154,21,11,5,5,0.4,0.2
2025-07-02T2200,3207A,118.3118,32.3038,滁州市,市政府原办公楼,,40,32,25,28,26,83,,130,113,18,12,5,6,0.6,0.4
2025-07-02T2200,3331A,118.3267,32.2634,滁州市,图书馆,,,27,23,22,18,,,131,128,11,5,8,12,0.5,0.3
2025-07-02T2200,2605A,101.5482,25.0441,楚雄彝族自治州,州环境监测站,,15,6,12,3,7,45,,59,51,4,6,8,8,0.4,0.4
2025-07-02T2200,2606A,101.538,25.0492,楚雄彝族自治州,市经济开发区,,,23,17,8,8,,,56,50,6,7,6,7,0.6,0.6
2025-07-02T2200,2548A,107.5277,31.2827,达州市,达州职业技术学院,,21,21,20,3,4,7,,66,48,32,11,7,7,0.5,0.4
2025-07-02T2200,2549A,107.5086,31.2186,达州市,市环境监测站,,21,21,22,3,1,22,,61,44,34,23,6,5,0.5,0.3
2025-07-02T2200,2550A,107.4988,31.2132,达州市,凤凰小区,,24,24,18,3,2,13,,65,53,42,16,5,5,0.4,0.2
2025-07-02T2200,2551A,107.5082,31.1986,达州市,达县机关宾馆,,21,19,16,8,4,18,,64,51,41,18,7,6,0.5,0.3
2025-07-02T2200,2552A,107.4644,31.2124,达州市,市政中心,,25,25,20,3,1,18,,58,50,37,14,3,3,0.5,0.5
2025-07-02T2200,2614A,100.1542,25.7054,大理白族自治州,大理市环境监测站,,25,,13,17,15,41,,59,54,9,10,5,5,0.6,0.6
2025-07-02T2200,2615A,100.2171,25.5811,大理白族自治州,大理古城,,22,22,18,15,13,49,,80,70,9,7,4,5,0.8,0.7
2025-07-02T2200,1109A,121.612,38.9741,大连市,甘井子,,21,21,15,13,8,49,,91,84,30,21,8,13,0.6,0.6
2025-07-02T2200,1110A,121.565,38.9511,大连市,周水子,,29,,13,20,10,44,,95,87,33,15,4,5,0.3,0.3
2025-07-02T2200,1111A,121.5637,38.8845,大连市,星海三站,,18,18,16,11,9,50,,104,95,13,7,5,4,0.3,0.3
2025-07-02T2200,1112A,121.6302,38.9117,大连市,青泥洼桥,,19,14,11,11,8,60,,101,90,17,10,6,5,0.7,0.7
2025-07-02T2200,1113A,121.6251,38.8638,大连市,傅家庄,,19,10,13,7,8,58,,99,90,19,13,10,11,0.1,0.1
2025-07-02T2200,1114A,121.5213,38.8661,大连市,七贤岭,,22,17,13,15,10,56,,112,101,20,10,7,9,0.3,0.5
2025-07-02T2200,1115A,121.2529,38.8061,大连市,旅顺,,19,15,11,11,8,58,,90,86,16,11,4,4,0.2,0.2
2025-07-02T2200,1116A,121.7485,39.1311,大连市,金州,,25,10,12,6,9,80,,98,98,14,17,8,8,0.2,0.2
2025-07-02T2200,1117A,121.7811,39.0496,大连市,开发区,,35,27,16,24,11,27,,95,76,51,30,18,16,0.3,0.2
2025-07-02T2200,1118A,121.9762,39.0631,大连市,双D港,,23,21,12,16,8,27,,88,73,8,14,10,10,0.4,0.3
2025-07-02T2200,1789A,124.81117,46.03138,大庆市,大同区,,34,34,34,14,11,87,,118,110,7,6,7,6,0.6,0.6
2025-07-02T2200,1790A,125.129,46.533,大庆市,龙凤区,,33,33,26,21,16,97,,132,125,8,7,5,5,0.5,0.4
2025-07-02T2200,1791A,124.902,46.408,大庆市,红岗区,,36,33,24,21,17,114,,144,139,7,6,9,10,0.6,0.6
2025-07-02T2200,1792A,125.153,46.586,大庆市,萨尔图区,,,,31,,10,,,120,,13,9,9,9,0.4,0.5
2025-07-02T2200,1793A,124.9042,46.6215,大庆市,让胡路区,,38,37,21,26,15,114,,136,135,9,7,6,6,0.3,0.2
2025-07-02T2200,3481A,125.141,46.634,大庆市,萨区政府监测点,颗粒物(PM10),52,53,31,14,8,109,,142,137,8,6,6,6,0.4,0.3
2025-07-02T2200,1721A,113.3819,40.1097,大同市,果树场,,,,,,,,,,,,,,,,
2025-07-02T2200,1723A,113.2994,40.0758,大同市,云冈宾馆,,36,36,38,21,16,76,,125,104,17,21,6,6,2.1,0.7
2025-07-02T2200,1724A,113.3444,40.0917,大同市,大同大学,,25,22,27,17,16,63,,130,96,36,22,10,9,0.4,0.4
2025-07-02T2200,1725A,113.2661,40.1269,大同市,安家小村,,34,34,33,8,10,55,,131,103,32,19,4,6,1.2,0.7
2025-07-02T2200,1726A,113.2711,40.0844,大同市,教育学院,,30,30,37,19,19,60,,127,105,25,27,7,8,0.9,0.6
2025-07-02T2200,3282A,113.3397,40.0597,大同市,大同市卫生学校,,34,34,34,16,16,74,,120,100,31,24,7,8,0.8,0.7
2025-07-02T2200,3565A,113.1367,40.1122,大同市,云冈站,,28,28,42,18,19,63,,121,95,19,20,5,6,0.8,0.6
2025-07-02T2200,3566A,113.1186,40.2556,大同市,图书馆,,26,26,33,16,19,78,,122,102,14,13,13,8,0.9,0.7
2025-07-02T2200,3567A,113.5931,40.0461,大同市,区一中,,35,,21,24,15,112,,133,112,7,9,11,12,0.5,0.4
2025-07-02T2200,4199A,113.2798,40.0997,大同市,魏都大道141号,,29,29,41,15,18,73,,129,106,21,24,7,7,1.0,0.7
2025-07-02T2200,2269A,124.1069,50.4097,大兴安岭地区,科技局,,17,17,19,6,8,52,,85,66,2,5,6,6,0.4,0.4
2025-07-02T2200,3663A,124.1164,50.4278,大兴安岭地区,红旗社区,,17,,4,3,4,54,,93,70,3,5,6,6,0.3,0.3
2025-07-02T2200,1600A,124.3303,40.0625,丹东市,江湾东路,,21,13,10,3,6,66,,72,72,8,9,6,8,0.5,0.5
2025-07-02T2200,1601A,124.4256,40.1503,丹东市,临江后街,,19,13,9,8,5,59,,72,72,12,7,6,6,0.8,0.6
2025-07-02T2200,1602A,124.3933,40.1461,丹东市,元宝山,,21,15,10,7,5,65,,73,73,8,8,5,5,0.6,0.5
2025-07-02T2200,1603A,124.3633,40.1092,丹东市,民主桥,,21,8,7,3,4,65,,69,69,5,6,6,6,0.6,0.5
2025-07-02T2200,3541A,109.5726,19.5167,儋州市,第一中学子站,,13,13,13,7,6,20,,33,27,3,3,5,5,0.7,0.7
2025-07-02T2200,3542A,109.5567,19.5187,儋州市,东坡学校子站,,8,8,10,3,4,20,,37,28,3,4,7,6,0.6,0.6
2025-07-02T2200,2616A,98.5842,24.428,德宏傣族景颇族自治州,德宏州监测站,,24,24,20,14,10,20,,36,34,12,10,7,10,0.9,0.8
2025-07-02T2200,3677A,98.5881,24.4368,德宏傣族景颇族自治州,芒市人民政府综合楼,,27,27,25,6,9,17,,36,33,8,9,6,12,0.6,0.5
2025-07-02T2200,1901A,104.4239,31.1208,德阳市,东山公园,,,,14,14,14,,,82,78,12,12,11,7,0.7,0.8
2025-07-02T2200,1902A,104.3826,31.1317,德阳市,西小区,,29,29,28,13,16,55,,82,72,14,14,9,7,0.6,0.7
2025-07-02T2200,1904A,104.3553,31.1091,德阳市,耐火材料厂,,35,30,21,24,16,41,,82,69,21,11,12,4,0.5,0.5
2025-07-02T2200,3639A,104.4019,31.1244,德阳市,市教育局,,22,22,24,13,15,49,,81,76,14,9,5,3,0.7,0.7
2025-07-02T2200,1622A,116.3032,37.4674,德州市,儿童乐园,,24,24,20,9,10,47,,122,82,21,10,7,7,0.6,0.6
2025-07-02T2200,1624A,116.2991,37.4451,德州市,监理站,,18,14,17,12,11,52,,111,83,20,8,8,8,0.4,0.3
2025-07-02T2200,3066A,116.2721,37.4379,德州市,九衢泉纯净水厂,,28,22,20,19,14,36,,113,79,27,14,5,6,0.8,0.8
2025-07-02T2200,3371A,116.3728,37.4403,德州市,开发区人民医院,,19,19,19,7,10,42,,118,77,24,15,5,6,0.5,0.6
2025-07-02T2200,3511A,116.5652,37.3319,德州市,陵城艺术中心,,31,31,21,14,9,39,,95,71,15,11,5,5,0.4,0.4
2025-07-02T2200,4292A,116.3525,37.4209,德州市,新河东路,,25,22,17,17,12,50,,104,75,17,12,7,6,0.7,0.7
2025-07-02T2200,2621A,99.7056,27.8317,迪庆藏族自治州,迪庆州站,,20,20,19,6,12,54,,67,64,7,7,7,7,0.5,0.4
2025-07-02T2200,3180A,99.7136,27.8094,迪庆藏族自治州,质量技术监督局,,18,,16,12,10,54,,69,65,9,8,7,7,0.4,0.4
2025-07-02T2200,4257A,104.6092,35.5962,定西市,将台街,,39,39,28,13,12,103,,118,115,7,12,4,5,0.0,0
2025-07-02T2200,4309A,104.6159,35.5701,定西市,正龙路62号,,34,,20,23,13,106,,118,116,2,6,3,4,0.2,0.2
2025-07-02T2200,1389A,113.7547,23.0494,东莞市,莞城梨川,,39,39,18,16,10,10,,84,60,46,12,7,6,0.5,0.4
2025-07-02T2200,1390A,113.7944,23.0128,东莞市,东城石井,,30,30,18,12,8,5,,72,50,37,16,3,3,0.6,0.5
2025-07-02T2200,1391A,113.7383,22.9658,东莞市,南城西平,,36,36,19,11,8,10,,69,48,43,20,2,3,0.6,0.5
2025-07-02T2200,3319A,113.7338,23.0381,东莞市,万江金泰,,29,29,18,10,7,3,,70,47,42,13,4,3,0.8,0.7
2025-07-02T2200,3626A,113.7533,23.0202,东莞市,南城元岭,,35,35,20,15,9,4,,76,54,55,17,5,4,0.4,0.4
2025-07-02T2200,3627A,113.7875,23.0457,东莞市,东城主山,,40,40,19,17,9,17,,81,62,44,12,4,5,0.5,0.6
2025-07-02T2200,1666A,118.6614,37.4309,东营市,市环保局,,,44,15,19,10,,,94,91,20,15,5,6,,0.4
2025-07-02T2200,3036A,118.6904,37.4338,东营市,开发区管委会,,44,44,21,29,11,92,,125,117,20,15,5,5,0.5,0.4
2025-07-02T2200,3365A,118.5719,37.565,东营市,垦利区民丰路,,,41,18,,10,97,,125,116,17,13,4,4,0.9,0.7
2025-07-02T2200,3498A,118.5055,37.8612,东营市,河口城区,,32,22,14,22,9,101,,130,127,15,21,4,11,1.0,0.7
2025-07-02T2200,3646A,118.4978,37.4623,东营市,胜利站,,35,33,22,24,9,87,,116,106,22,18,4,5,1.4,1.1
2025-07-02T2200,3734A,118.35,37.26,东营市,理想之城,,36,36,13,24,12,67,,114,96,26,20,8,6,1.0,0.7
2025-07-02T2200,1591A,110.0023,39.8129,鄂尔多斯市,综合楼,,30,27,20,19,11,95,,126,113,14,17,4,5,0.7,0.6
2025-07-02T2200,1592A,109.9486,39.8261,鄂尔多斯市,巴音孟克林场办事处,,39,39,27,22,13,98,,132,118,13,16,2,2,0.6,0.5
2025-07-02T2200,1593A,109.7736,39.5986,鄂尔多斯市,康泽苑,,32,19,31,12,9,100,,131,111,11,17,6,9,0.5,0.4
2025-07-02T2200,1594A,109.8119,39.5989,鄂尔多斯市,华泰汽车城,,29,29,35,17,14,74,,107,93,11,21,6,6,0.6,0.6
2025-07-02T2200,1595A,109.9734,39.7884,鄂尔多斯市,奥林花园,,30,29,25,9,12,93,,131,116,14,19,4,5,0.7,0.6
2025-07-02T2200,2436A,114.8938,30.3994,鄂州市,市政府,颗粒物(PM10),52,54,32,22,13,66,,123,106,21,13,4,6,1.0,0.8
2025-07-02T2200,2437A,114.8989,30.3714,鄂州市,赵家坝,,29,29,24,14,8,68,,133,113,18,10,13,12,0.7,0.6
2025-07-02T2200,3654A,114.8094,30.4089,鄂州市,精准医疗中心,,38,38,25,19,8,62,,126,109,26,14,8,10,1.1,1.1
2025-07-02T2200,2454A,109.4978,30.2981,恩施土家族苗族自治州,湖北民院,,23,23,23,8,6,33,,56,52,6,6,4,4,0.3,0.4
2025-07-02T2200,2455A,109.4707,30.2798,恩施土家族苗族自治州,州电力总公司,,16,,23,11,8,22,,30,28,11,9,8,8,0.2,0.7
2025-07-02T2200,3549A,109.5061,30.3772,恩施土家族苗族自治州,龙凤新区,,17,17,16,7,6,15,,75,62,12,7,2,2,0.4,0.4
2025-07-02T2200,2499A,108.3411,21.6158,防城港市,沙万,,,,21,,10,38,,47,46,15,12,3,2,0.5,0.5
2025-07-02T2200,2500A,108.3514,21.7731,防城港市,防城档案局,,36,36,17,16,12,11,,45,35,27,14,2,2,0.7,0.7
2025-07-02T2200,2501A,108.3506,21.6414,防城港市,大海花园,,15,12,15,10,9,44,,58,56,10,8,3,3,0.9,0.9
2025-07-02T2200,1371A,113.1294,23.0067,佛山市,湾梁,,44,44,21,12,8,16,,76,49,52,25,10,8,0.6,0.5
2025-07-02T2200,1372A,113.1083,23.0478,佛山市,华材职中,,36,36,19,13,7,39,,88,60,42,18,8,8,0.6,0.5
2025-07-02T2200,1373A,113.144,23.0453,佛山市,南海气象局,,,38,20,7,9,,,75,52,49,19,5,3,,0.8
2025-07-02T2200,1374A,113.2881,22.8094,佛山市,顺德苏岗,,19,19,19,3,5,22,,66,46,19,18,7,6,0.6,0.7
2025-07-02T2200,1376A,112.8383,22.8678,佛山市,高明孔堂,,30,30,26,9,10,11,,76,44,32,24,6,6,0.6,0.6
2025-07-02T2200,1377A,112.8836,23.1588,佛山市,三水监测站,,41,41,26,10,11,28,,72,47,42,24,8,4,0.8,0.7
2025-07-02T2200,1378A,112.867,23.185,佛山市,三水云东海,,49,49,36,32,14,6,,81,45,64,31,5,3,0.7,0.5
2025-07-02T2200,3625A,113.2544,22.7642,佛山市,容桂街道办,,10,9,13,3,4,26,,62,42,20,19,5,5,0.4,0.4
2025-07-02T2200,1280A,119.3903,26.0543,福州市,鼓山,,,,,,,,,,,,,,,,
2025-07-02T2200,1282A,119.2681,26.0504,福州市,师大,,16,16,16,8,3,37,,62,50,2,5,4,4,0.2,0.2
2025-07-02T2200,1283A,119.2984,26.1028,福州市,五四北路,,20,20,17,13,4,34,,52,48,8,8,4,4,0.3,0.3
2025-07-02T2200,1284A,119.2648,26.0768,福州市,杨桥西路,,23,17,19,16,5,41,,63,53,4,7,4,4,0.2,0.2
2025-07-02T2200,1285A,119.317,26.0746,福州市,紫阳,,23,18,18,16,6,35,,54,48,6,6,4,5,0.2,0.2
2025-07-02T2200,3048A,119.5799,26.0936,福州市,九龙,,20,20,14,12,4,46,,49,49,2,4,3,5,0.1,0.2
2025-07-02T2200,3526A,119.5189,25.9664,福州市,吴航,,24,24,16,13,7,41,,49,48,1,2,4,5,0.3,0.3
2025-07-02T2200,1755A,123.7977,41.8491,抚顺市,望花区,,32,32,20,13,11,53,,104,89,24,15,8,6,0.6,0.4
2025-07-02T2200,1756A,123.9161,41.8822,抚顺市,顺城区,,22,21,22,10,11,68,,100,90,11,14,5,6,0.6,1
2025-07-02T2200,1757A,124.0436,41.8611,抚顺市,东洲区,,20,14,11,13,9,62,,92,80,12,11,4,4,0.8,0.6
2025-07-02T2200,1758A,123.9247,41.8642,抚顺市,新抚区,,21,18,22,13,10,65,,92,83,2,5,5,5,0.5,0.7
2025-07-02T2200,1759A,124.0972,41.8961,抚顺市,大伙房水库,,24,16,12,11,10,74,,94,85,7,9,8,7,0.4,0.6
2025-07-02T2200,1760A,123.7086,41.8391,抚顺市,沈抚新城,,21,21,19,11,10,60,,94,85,11,12,4,4,0.6,0.6
2025-07-02T2200,2376A,116.2127,28.0814,抚州市,桐源党溪,,29,28,23,20,15,28,,75,65,3,3,3,3,0.5,0.6
2025-07-02T2200,2377A,116.3544,27.9831,抚州市,市站,,27,27,24,14,10,60,,81,73,7,8,2,3,0.5,0.5
2025-07-02T2200,2378A,116.3565,27.963,抚州市,血防站,,28,28,23,16,11,55,,77,71,10,8,3,3,0.6,0.6
2025-07-02T2200,2379A,116.3564,28.0007,抚州市,采茶剧团,,33,30,22,23,10,41,,83,76,8,4,5,5,0.4,0.3
2025-07-02T2200,2380A,116.385,27.9647,抚州市,医学分院,,27,27,21,14,9,65,,84,78,2,2,4,5,0.3,0.4
2025-07-02T2200,2207A,121.6094,41.998,阜新市,工业园区,,36,31,36,14,20,113,,125,122,7,9,4,6,0.5,0.6
2025-07-02T2200,2208A,121.6697,42.0279,阜新市,长青街,,33,27,35,18,20,104,,110,108,5,7,4,5,0.5,0.6
2025-07-02T2200,2209A,121.6673,42.0705,阜新市,农业园区,颗粒物(PM10),59,67,40,9,23,112,,121,119,6,8,3,4,0.7,0.8
2025-07-02T2200,2210A,121.6717,42.0224,阜新市,东苑,,33,23,37,17,20,105,,116,113,9,11,3,7,0.5,0.6
2025-07-02T2200,2211A,121.6506,42.0498,阜新市,玉龙新城,,33,,39,23,29,102,,108,106,7,8,4,5,0.6,0.8
2025-07-02T2200,2301A,115.8277,32.8929,阜阳市,市监测站,,31,31,21,12,9,65,,77,75,14,12,4,4,0.3,0.4
2025-07-02T2200,2303A,115.8554,32.8605,阜阳市,开发区,,30,30,15,14,7,73,,77,77,10,11,5,5,0.1,0.1
2025-07-02T2200,2875A,115.784,32.8892,阜阳市,阜阳职业技术学院,,,14,10,3,8,,,80,80,6,6,3,4,0.3,0.2
2025-07-02T2200,3468A,115.7901,32.8613,阜阳市,市规划展馆,,28,28,22,15,11,51,,72,67,12,8,2,2,0.4,0.4
2025-07-02T2200,3469A,115.836,32.9183,阜阳市,枣园社区,,,,15,,10,64,,72,71,,6,3,2,,0.5
2025-07-02T2200,2669A,102.9099,34.9841,甘南藏族自治州,州政府,,33,,26,23,18,43,,88,78,18,14,6,6,0.3,0.4
2025-07-02T2200,3380A,102.8914,34.9617,甘南藏族自治州,甘肃民族师范学院,,32,32,39,11,15,36,,90,74,21,19,9,9,0.4,0.4
2025-07-02T2200,2570A,101.9603,30.0475,甘孜藏族自治州,水桥子,,19,10,9,3,7,60,,92,80,17,13,5,5,0.6,0.5
2025-07-02T2200,3065A,101.9533,29.9972,甘孜藏族自治州,州环保局,,22,15,12,8,5,70,,95,81,12,11,2,2,0.6,0.5
2025-07-02T2200,3414A,115.8347,28.932,赣江新区,桑海产业园,,,,22,18,11,65,,111,101,27,18,,8,,0.4
2025-07-02T2200,2362A,114.9017,25.9149,赣州市,通天岩,,15,15,20,3,4,24,,54,45,5,4,1,2,0.2,0.2
2025-07-02T2200,2363A,114.9367,25.8664,赣州市,地委,,26,26,15,12,8,35,,65,62,19,9,1,1,0.8,0.7
2025-07-02T2200,2364A,114.9461,25.8481,赣州市,气象台,,25,25,14,6,5,30,,63,60,24,7,7,7,0.4,0.3
2025-07-02T2200,2365A,114.9322,25.8333,赣州市,市图书馆,,,21,11,7,7,,,67,66,11,7,4,4,0.4,0.4
2025-07-02T2200,2366A,114.8905,25.8471,赣州市,华坚鞋城,,26,26,18,9,9,42,,69,64,23,9,4,4,0.3,0.2
2025-07-02T2200,3109A,115.0093,25.8613,赣州市,赣县区卫计委,,22,22,22,14,10,16,,54,45,32,14,3,2,0.1,0.1
2025-07-02T2200,2683A,106.2319,36.1417,固原市,马园,,24,10,29,9,7,74,,88,81,8,17,8,14,0.6,0.6
2025-07-02T2200,2684A,106.2792,36.0022,固原市,监测站,,26,26,13,6,7,79,,92,90,6,5,3,4,0.2,0.2
2025-07-02T2200,2685A,106.2375,36.0211,固原市,新区,,26,11,12,6,5,82,,90,90,4,5,5,6,0.3,0.4
2025-07-02T2200,3522A,106.2177,35.9959,固原市,原州区十五小,,26,9,12,8,8,81,,90,89,4,6,12,12,0.3,0.3
2025-07-02T2200,2543A,106.6308,30.5278,广安市,小平旧居,,,,,,,,,,,,,,,,
2025-07-02T2200,2544A,106.6303,30.4576,广安市,市委,,21,21,16,11,9,38,,86,76,32,13,4,2,0.7,0.5
2025-07-02T2200,2545A,106.6271,30.4663,广安市,友谊中学,,26,26,17,10,9,45,,83,75,20,12,2,2,0.8,0.8
2025-07-02T2200,2547A,106.6388,30.4551,广安市,广电花园,,29,29,23,18,9,32,,87,73,31,11,3,3,0.5,0.5
2025-07-02T2200,2902A,106.6351,30.4865,广安市,北辰小学,,,,18,,9,54,,98,88,16,10,,4,,0.5
2025-07-02T2200,2523A,105.8945,32.4535,广元市,黑石坡,,25,25,22,13,11,18,,32,30,9,9,11,12,0.4,0.3
2025-07-02T2200,2524A,105.821,32.4444,广元市,老城,,,31,20,13,7,,,47,42,37,24,18,6,1.2,1
2025-07-02T2200,2526A,105.8628,32.4287,广元市,监测站,,20,20,16,6,9,15,,43,39,22,15,11,11,0.8,0.8
2025-07-02T2200,3617A,105.8047,32.4166,广元市,经开区,,26,26,26,12,14,5,,43,35,36,19,3,3,0.8,0.7
2025-07-02T2200,1345A,113.2347,23.1423,广州市,广雅中学,,33,33,21,17,9,12,,98,59,57,21,3,3,0.4,0.4
2025-07-02T2200,1346A,113.2612,23.105,广州市,市五中,,,25,25,13,12,,,91,60,42,20,4,5,0.6,0.6
2025-07-02T2200,1348A,113.3478,23.0916,广州市,广东商学院,,25,25,23,8,6,8,,67,44,34,20,4,4,0.3,0.5
2025-07-02T2200,1349A,113.4332,23.1047,广州市,市八十六中,,24,21,17,10,8,3,,74,38,48,27,4,4,0.5,0.5
2025-07-02T2200,1350A,113.3505,22.9483,广州市,番禺中学,,18,18,21,8,9,30,,88,56,18,19,8,8,0.4,0.4
2025-07-02T2200,1351A,113.2146,23.3916,广州市,花都师范,,37,37,22,18,11,25,,89,55,37,23,3,4,0.6,0.6
2025-07-02T2200,1352A,113.2597,23.1331,广州市,市监测站,,41,41,21,18,9,8,,97,60,60,19,5,6,0.5,0.4
2025-07-02T2200,1353A,113.5618,23.312,广州市,九龙镇镇龙,,38,38,21,15,9,3,,78,45,38,15,6,6,0.5,0.3
2025-07-02T2200,1354A,113.2765,23.1544,广州市,麓湖,,46,46,20,22,8,1,,88,55,60,18,2,2,0.7,0.5
2025-07-02T2200,1355A,113.443,23.3035,广州市,帽峰山森林公园,,25,25,13,8,5,30,,87,58,17,10,6,6,0.4,0.4
2025-07-02T2200,2846A,113.3221,23.1322,广州市,体育西,,22,22,25,6,13,21,,100,69,31,22,5,5,0.4,0.5
2025-07-02T2200,3298A,113.5717,23.5491,广州市,从化街口,,28,28,24,13,10,30,,64,52,32,19,9,5,0.7,0.7
2025-07-02T2200,3299A,113.3472,23.3692,广州市,白云竹料,,29,28,26,11,12,8,,76,44,57,22,4,3,0.5,0.4
2025-07-02T2200,3300A,113.2981,23.237,广州市,白云嘉禾,颗粒物(PM10),54,58,30,25,11,0,,88,33,59,27,4,3,0.9,0.6
2025-07-02T2200,3301A,113.4256,23.1716,广州市,黄埔科学城,,43,43,25,17,9,0,,74,28,32,16,4,4,0.7,0.6
2025-07-02T2200,3302A,113.3942,23.0483,广州市,番禺大学城,,16,16,19,10,8,22,,96,60,26,22,5,7,0.6,0.6
2025-07-02T2200,3303A,113.4922,22.8168,广州市,南沙黄阁,,34,34,23,14,9,10,,72,49,32,14,6,6,0.4,0.5
2025-07-02T2200,3304A,113.5342,22.7896,广州市,南沙街,,,22,19,11,9,,,68,54,18,17,4,4,0.4,0.4
2025-07-02T2200,3443A,113.2902,23.5544,广州市,花都梯面,,18,18,15,7,5,14,,66,47,24,14,4,5,0.6,0.5
2025-07-02T2200,3445A,113.7858,23.7478,广州市,从化良口,,15,15,14,3,6,19,,53,45,12,5,6,6,0.5,0.5
2025-07-02T2200,3446A,113.8051,23.2614,广州市,增城荔城,,19,19,16,8,7,44,,80,70,10,7,6,6,0.4,0.3
2025-07-02T2200,2505A,109.568,23.1478,贵港市,德智高中,,,,,,,,,,,,,,,,
2025-07-02T2200,2506A,109.6047,23.0666,贵港市,江南子站,,19,19,25,12,16,26,,64,38,16,13,8,7,0.5,0.7
2025-07-02T2200,2508A,109.5669,23.1065,贵港市,荷城子站,,22,22,22,3,6,28,,55,37,14,14,7,7,0.2,0.3
2025-07-02T2200,3405A,109.5886,23.1172,贵港市,新世纪学校,,19,19,18,8,11,29,,57,38,11,12,3,4,0.4,0.5
2025-07-02T2200,4260A,109.5933,23.0951,贵港市,中山路155-3号,,20,20,26,11,12,27,,57,39,14,14,5,5,0.4,0.5
2025-07-02T2200,1439A,106.6899,26.5998,贵阳市,马鞍山,,,5,6,,,61,,54,54,7,7,3,3,0.2,0.3
2025-07-02T2200,1441A,106.6243,26.6266,贵阳市,鉴湖路,,12,12,14,3,0,34,,47,44,6,6,8,8,0.3,0.3
2025-07-02T2200,1442A,106.7487,26.6343,贵阳市,燕子冲,,18,,11,12,12,30,,48,44,15,9,4,4,0.3,0.2
2025-07-02T2200,1443A,106.6555,26.4365,贵阳市,碧云窝,,19,19,22,3,1,35,,51,46,8,5,4,4,0.4,0.3
2025-07-02T2200,1445A,106.7109,26.6027,贵阳市,红边门,,9,9,10,3,3,27,,46,39,10,5,7,9,0.1,0.1
2025-07-02T2200,1446A,106.7164,26.5699,贵阳市,新华路,,9,6,6,3,5,27,,39,35,14,12,6,8,0.2,0.4
2025-07-02T2200,1447A,106.674,26.5424,贵阳市,太慈桥,,10,7,10,3,0,31,,45,41,11,11,4,4,0.3,0.3
2025-07-02T2200,1552A,106.805,26.3003,贵阳市,桐木岭,,20,17,20,14,9,39,,51,39,3,5,4,17,0.9,0.9
2025-07-02T2200,4230A,106.6882,26.5695,贵阳市,花果园大街66号,,9,,1,3,4,27,,38,35,6,6,3,3,0.1,0.1
2025-07-02T2200,4231A,106.6873,26.5169,贵阳市,漓江路57号,,11,6,7,3,0,33,,51,46,8,7,5,5,0.2,0.2
2025-07-02T2200,1862A,110.4144,25.3167,桂林市,电子科大尧山校区,,,,,,,,,,,,,,,,
2025-07-02T2200,1864A,110.3089,25.2708,桂林市,龙隐路小学,,14,14,22,3,7,42,,68,62,8,7,8,9,0.4,0.4
2025-07-02T2200,1865A,110.2869,25.2178,桂林市,八中,,16,16,24,3,8,38,,69,62,15,10,6,8,0.5,0.5
2025-07-02T2200,3531A,110.296,25.1253,桂林市,旅游学院,,13,6,9,3,3,40,,72,64,6,4,1,3,0.3,0.3
2025-07-02T2200,4222A,110.1835,25.2444,桂林市,环湖路276号,,19,19,22,9,12,41,,65,60,15,12,10,12,0.3,0.3
2025-07-02T2200,4301A,110.2803,25.2773,桂林市,信义路13号,,15,12,20,10,10,31,,70,60,23,10,4,5,0.6,0.5
2025-07-02T2200,2674A,100.2561,34.4714,果洛藏族自治州,玛沁县大武镇,,35,35,16,22,10,76,,116,108,8,2,17,17,0.3,0.3
2025-07-02T2200,1129A,126.5422,45.755,哈尔滨市,岭北,,39,39,17,25,13,124,,136,136,17,11,4,4,1.1,1.2
2025-07-02T2200,1130A,126.561,45.8167,哈尔滨市,松北商大,,35,30,28,17,11,109,,119,119,10,6,6,6,0.8,0.7
2025-07-02T2200,1131A,126.979,45.5419,哈尔滨市,阿城会宁,,33,33,17,23,13,96,,126,121,14,8,5,5,0.5,0.4
2025-07-02T2200,1132A,126.599,45.7222,哈尔滨市,南岗学府路,,35,35,27,14,9,100,,124,123,16,8,7,6,0.8,0.7
2025-07-02T2200,1133A,126.689,45.7733,哈尔滨市,太平宏伟公园,,37,37,29,12,12,96,,124,121,15,9,6,6,0.5,0.4
2025-07-02T2200,1134A,126.635,45.7667,哈尔滨市,道外承德广场,,,56,41,19,12,,,117,117,20,11,6,6,0.8,0.5
2025-07-02T2200,1135A,126.685,45.7319,哈尔滨市,香坊红旗大街,,36,36,29,25,13,90,,124,121,22,14,5,10,0.8,0.6
2025-07-02T2200,1136A,126.6411,45.7258,哈尔滨市,动力和平路,,,43,34,,,100,,130,127,15,9,6,6,0.6,0.5
2025-07-02T2200,1137A,126.593,45.7478,哈尔滨市,道里建国路,,33,33,31,16,16,101,,126,123,20,11,4,9,0.9,0.9
2025-07-02T2200,1138A,126.615,45.61,哈尔滨市,平房东轻厂,,30,27,37,12,12,96,,130,126,14,7,9,9,0.4,0.3
2025-07-02T2200,1139A,126.595,45.9855,哈尔滨市,呼兰师专,,38,28,22,23,10,119,,123,123,11,7,8,8,0.5,0.4
2025-07-02T2200,1140A,126.6206,45.6842,哈尔滨市,省农科院,,34,34,39,23,11,99,,128,126,18,12,4,4,0.6,0.5
2025-07-02T2200,2688A,93.5128,42.8172,哈密市,地区监测站,,41,41,54,10,25,116,,125,124,10,7,5,6,0.1,0.1
2025-07-02T2200,2689A,93.4961,42.8328,哈密市,哈密师范学校,,,24,41,9,15,100,,111,109,12,9,4,9,,0.2
2025-07-02T2200,2671A,100.9048,36.9639,海北藏族自治州,海晏县西海镇,,38,20,15,14,12,119,,142,136,5,5,6,9,0.4,0.4
2025-07-02T2200,3867A,102.0738,36.5056,海东市,平安区公安北苑,,34,29,28,13,15,108,,150,146,18,8,10,10,2.0,0.7
2025-07-02T2200,1409A,110.576,19.9507,海口市,东寨港,,11,9,11,6,7,34,,41,37,2,3,8,8,0.3,0.3
2025-07-02T2200,1410A,110.3232,20.0574,海口市,海南大学,,11,10,11,3,5,34,,45,35,5,6,2,2,0.4,0.3
2025-07-02T2200,1411A,110.283,20.0053,海口市,秀英海南医院,,18,18,16,9,6,22,,44,24,14,13,5,5,0.3,0.3
2025-07-02T2200,1412A,110.338,19.9969,海口市,海南师范大学,,17,17,11,7,6,23,,45,30,12,9,4,4,0.7,0.7
2025-07-02T2200,1413A,110.33,20.0356,海口市,龙华路环保局宿舍,,17,17,13,7,7,30,,45,32,8,9,5,5,0.3,0.3
2025-07-02T2200,3539A,110.5111,19.9736,海口市,桂林洋子站,,13,13,13,3,5,32,,42,36,2,3,4,4,0.2,0.2
2025-07-02T2200,2673A,100.6188,36.2866,海南藏族自治州,共和县恰卜恰镇,颗粒物(PM10),59,67,22,3,9,78,,143,136,29,13,14,12,0.5,0.6
2025-07-02T2200,2676A,97.3731,37.3753,海西蒙古族藏族自治州,德令哈市,颗粒物(PM10),68,86,32,30,15,103,,147,138,11,3,16,12,0.6,0.5
2025-07-02T2200,1048A,114.5302,36.6116,邯郸市,东污水处理厂,颗粒物(PM10),68,86,39,3,1,82,,111,109,15,9,3,3,0.4,0.4
2025-07-02T2200,1049A,114.4918,36.5713,邯郸市,矿院,,35,19,16,12,5,112,,136,135,6,6,3,4,0.3,0.3
2025-07-02T2200,1050A,114.484,36.6133,邯郸市,丛台公园,,26,15,19,10,6,83,,120,117,14,7,9,10,0.5,0.3
2025-07-02T2200,3458A,114.7895,36.5593,邯郸市,香泉濮院小区,颗粒物(PM10),57,64,31,3,0,96,,115,113,10,9,3,3,0.3,0.2
2025-07-02T2200,3579A,114.50634,36.77178,邯郸市,永年区实验高中,,30,30,29,21,15,52,,114,99,18,11,2,2,0.7,0.3
2025-07-02T2200,3580A,114.20016,36.44293,邯郸市,峰峰矿区临水派出所,,48,48,41,3,2,103,,128,122,7,9,5,5,0.9,0.3
2025-07-02T2200,2634A,106.9893,33.1842,汉中市,汉川机床厂子校,,25,25,14,10,6,4,,56,39,24,10,3,3,0.4,0.4
2025-07-02T2200,2635A,107.0154,33.0706,汉中市,市监测站,,27,27,14,10,4,40,,61,54,15,7,5,6,0.7,0.6
2025-07-02T2200,2636A,107.0089,33.1138,汉中市,鑫源开发区,,31,31,13,6,5,7,,52,38,24,11,5,5,0.5,0.4
2025-07-02T2200,2637A,107.007,33.0323,汉中市,南郑大河坎水厂,,25,25,13,11,6,32,,55,50,24,10,2,5,0.5,0.5
2025-07-02T2200,1223A,120.2072,30.2111,杭州市,滨江,,44,44,24,15,9,42,,132,109,45,20,9,6,0.5,0.3
2025-07-02T2200,1224A,120.0633,30.2747,杭州市,西溪,,20,19,19,14,13,56,,132,112,11,9,4,4,0.4,0.3
2025-07-02T2200,1226A,120.3417,30.3150,杭州市,下沙,,25,25,22,11,9,61,,134,100,28,17,5,5,0.3,0.3
2025-07-02T2200,1227A,120.1269,30.2456,杭州市,卧龙桥,,23,23,23,13,13,45,,132,106,14,11,8,8,0.4,0.4
2025-07-02T2200,1228A,120.1903,30.2692,杭州市,浙江农大,颗粒物(PM10),56,62,26,29,12,43,,128,107,51,17,7,4,0.3,0.2
2025-07-02T2200,1230A,120.1197,30.3119,杭州市,和睦小学,,33,33,22,12,10,63,,145,123,26,8,9,8,0.4,0.4
2025-07-02T2200,1231A,120.3019,30.4183,杭州市,临平镇,,48,48,32,10,8,87,,145,128,22,16,6,6,0.5,0.4
2025-07-02T2200,1232A,120.2753,30.1839,杭州市,城厢镇,,39,39,25,22,11,52,,127,94,28,11,12,7,0.5,0.4
2025-07-02T2200,1233A,120.0883,30.1808,杭州市,云栖,,26,26,24,8,7,29,,122,90,21,14,7,7,0.6,0.6
2025-07-02T2200,3557A,119.9464,30.0494,杭州市,镇二中,,35,35,22,17,15,73,,98,97,25,26,4,3,0.4,0.4
2025-07-02T2200,3558A,119.7183,30.2367,杭州市,市府大楼,,33,33,21,20,10,56,,108,100,18,12,7,7,0.4,0.3
2025-07-02T2200,3656A,120.1556,30.2864,杭州市,消防大队,,38,38,27,16,12,51,,130,119,35,12,8,6,0.6,0.6
2025-07-02T2200,1270A,117.1959,31.7848,合肥市,明珠广场,,29,29,18,14,11,74,,109,103,16,12,5,5,0.5,0.5
2025-07-02T2200,1271A,117.3072,31.8764,合肥市,三里街,,29,29,20,14,10,77,,99,90,15,12,6,6,0.5,0.4
2025-07-02T2200,1272A,117.2588,31.8707,合肥市,琥珀山庄,,35,24,19,24,15,84,,111,102,14,10,6,6,0.5,0.5
2025-07-02T2200,1273A,117.1604,31.9052,合肥市,董铺水库,,39,27,18,27,10,75,,95,92,8,7,3,4,0.2,0.2
2025-07-02T2200,1274A,117.25,31.8571,合肥市,长江中路,,29,29,22,19,12,82,,107,101,11,9,5,6,0.4,0.4
2025-07-02T2200,1275A,117.266,31.9436,合肥市,庐阳区,,28,24,18,14,8,88,,108,105,6,6,6,7,0.5,0.4
2025-07-02T2200,1276A,117.3453,31.8616,合肥市,瑶海区,,34,34,22,15,9,64,,97,84,24,14,6,6,0.6,0.5
2025-07-02T2200,1277A,117.3027,31.7964,合肥市,包河区,,27,22,18,17,8,86,,101,96,8,7,4,4,0.7,0.6
2025-07-02T2200,1278A,117.2776,31.7385,合肥市,滨湖新区,,35,31,20,24,15,82,,103,97,8,6,9,9,0.4,0.4
2025-07-02T2200,1279A,117.1318,31.8403,合肥市,高新区,,,,19,,10,,,101,101,13,10,,7,0.4,0.4
2025-07-02T2200,3464A,117.3803,31.9147,合肥市,高教基地,,30,27,16,21,11,75,,106,98,11,8,4,3,0.6,0.4
2025-07-02T2200,3614A,79.924,37.0877,和田地区,地区环保局,颗粒物(PM10),422,522,798,122,221,110,,126,125,10,12,3,2,0.6,0.7
2025-07-02T2200,3615A,79.9131,37.113,和田地区,市环保局,颗粒物(PM10),327,441,694,93,183,110,,126,125,2,9,1,1,0.3,0.4
2025-07-02T2200,2516A,108.2011,24.715,河池市,东仁乐园,,,,,,,,,,,,,,,,
2025-07-02T2200,2517A,108.0497,24.6947,河池市,市环保站,,14,14,18,6,8,21,,53,44,7,6,4,3,0.6,0.6
2025-07-02T2200,2518A,108.0983,24.6989,河池市,市疾控中心,,,16,21,9,8,,,49,44,20,13,3,3,0.6,0.6
2025-07-02T2200,1696A,114.6778,23.7569,河源市,源西,,35,,17,24,12,19,,51,36,24,10,3,4,0.7,0.6
2025-07-02T2200,1697A,114.6944,23.7586,河源市,东埔,,18,18,17,7,7,14,,51,41,23,14,4,4,0.5,0.4
2025-07-02T2200,1698A,114.6892,23.7233,河源市,老城,,21,21,19,3,7,2,,48,34,28,11,4,4,0.5,0.5
2025-07-02T2200,1718A,115.4208,35.2464,菏泽市,气象局,,32,30,25,8,11,101,,133,129,8,8,2,2,0.2,0.3
2025-07-02T2200,3374A,115.5564,35.0891,菏泽市,定陶老年大学,颗粒物(PM10),71,92,31,3,7,96,,128,124,14,13,3,3,0.1,0.1
2025-07-02T2200,4184A,115.4797,35.24401,菏泽市,永昌路1号,,32,23,24,6,10,101,,130,127,10,11,5,5,0.1,0.1
2025-07-02T2200,4193A,115.4715,35.2800,菏泽市,长城路999号,,35,20,27,3,10,109,,135,134,10,10,5,3,0.2,0.2
2025-07-02T2200,2514A,111.5264,24.4172,贺州市,环保小区,,17,13,12,3,8,54,,63,62,8,6,9,11,0.9,0.7
2025-07-02T2200,2515A,111.5608,24.4078,贺州市,政协大楼,,24,24,14,3,6,43,,66,64,14,8,12,14,0.8,0.7
2025-07-02T2200,3534A,111.4744,24.4553,贺州市,西湾,,,,12,,6,,,50,50,8,8,6,12,0.4,0.5
2025-07-02T2200,2385A,114.17,35.9019,鹤壁市,市监测站,,43,34,20,30,19,105,,132,126,13,8,4,5,0.6,0.6
2025-07-02T2200,2386A,114.2956,35.7511,鹤壁市,市交警支队,,34,34,25,9,14,83,,120,114,14,9,1,3,0.7,0.4
2025-07-02T2200,2387A,114.2878,35.7306,鹤壁市,迎宾馆,,34,34,28,14,15,92,,128,122,14,9,5,4,0.5,0.5
2025-07-02T2200,3474A,114.2617,35.6822,鹤壁市,大新区,,,,38,10,12,72,,124,115,17,9,5,5,0.6,0.6
2025-07-02T2200,3596A,114.1572,35.9603,鹤壁市,南山宾馆,,46,44,30,32,18,97,,118,117,8,6,3,3,0.5,0.4
2025-07-02T2200,2244A,130.2537,47.3416,鹤岗市,哈啤分公司,,34,17,16,7,11,107,,118,116,6,8,12,11,0.5,0.8
2025-07-02T2200,2245A,130.2684,47.3086,鹤岗市,斯达机电,,36,22,22,22,15,113,,114,114,6,7,11,11,0.4,0.4
2025-07-02T2200,2246A,130.3114,47.3388,鹤岗市,东山纸板厂,,36,,21,25,14,85,,110,108,8,11,8,6,0.5,0.7
2025-07-02T2200,2247A,130.1097,47.3382,鹤岗市,五号水库,,30,9,10,3,5,93,,105,102,9,12,8,8,0.1,0.1
2025-07-02T2200,2263A,127.4833,50.2524,黑河市,交通局,,20,17,16,8,7,63,,92,82,7,8,6,6,0.4,0.5
2025-07-02T2200,2264A,127.5144,50.2341,黑河市,环保局,,23,11,19,6,9,72,,99,92,5,5,3,4,0.4,0.4
2025-07-02T2200,2265A,127.5291,50.2472,黑河市,大黑河岛,,,6,4,3,6,54,,66,51,,,30,30,,
2025-07-02T2200,1074A,115.6838,37.7541,衡水市,电机北厂,,17,16,22,9,14,52,,89,74,10,7,3,3,0.1,0.3
2025-07-02T2200,1075A,115.6303,37.7316,衡水市,市监测站,,17,17,29,3,11,48,,89,68,11,7,5,6,0.3,0.3
2025-07-02T2200,3188A,115.6683,37.7217,衡水市,市城管局,,17,,19,11,16,54,,91,76,8,7,1,2,0.3,0.3
2025-07-02T2200,3459A,115.5989,37.5491,衡水市,地表水厂,,15,12,31,3,6,48,,106,86,14,8,5,5,0.1,0.2
2025-07-02T2200,2456A,112.5003,26.9167,衡阳市,原169医院,,17,15,13,3,2,32,,68,58,33,9,9,7,0.5,0.4
2025-07-02T2200,2457A,112.6194,26.9258,衡阳市,衡阳化工总厂,,,25,13,14,6,25,,58,50,,9,4,5,0.5,0.4
2025-07-02T2200,2458A,112.6211,26.8956,衡阳市,珠晖区环保局,,,11,10,,7,42,,60,55,10,8,6,8,0.4,0.4
2025-07-02T2200,2459A,112.6197,26.8733,衡阳市,市委党校,,21,21,13,6,4,25,,58,52,23,7,9,9,0.6,0.4
2025-07-02T2200,2460A,112.6006,26.8919,衡阳市,市监测站,,27,27,11,7,5,38,,59,55,13,7,5,7,0.4,0.3
2025-07-02T2200,2461A,112.5664,26.9056,衡阳市,真空机电公司,,16,16,21,8,10,34,,60,53,16,8,8,8,0.6,0.5
2025-07-02T2200,3399A,112.6703,26.882,衡阳市,师范学院,,13,12,21,9,8,37,,57,51,10,7,6,7,0.5,0.4
2025-07-02T2200,2608A,103.3772,23.3993,红河哈尼族彝族自治州,污水处理厂,,16,16,12,11,10,48,,56,56,2,4,6,7,0.1,0.1
2025-07-02T2200,2609A,103.3861,23.35,红河哈尼族彝族自治州,监测站,,26,26,22,12,10,44,,52,51,5,4,7,6,0.1,0.2
2025-07-02T2200,3038A,103.3758,23.368,红河哈尼族彝族自治州,州图书馆,,16,8,6,7,7,50,,56,56,3,4,1,1,0.2,0.2
2025-07-02T2200,1090A,111.6507,40.7517,呼和浩特市,呼市一监,,34,,28,11,15,108,,104,104,10,20,9,9,0.7,0.6
2025-07-02T2200,1091A,111.6572,40.8033,呼和浩特市,小召,,36,9,24,9,14,113,,109,109,12,28,6,6,0.7,0.6
2025-07-02T2200,1094A,111.7516,40.8369,呼和浩特市,如意水处理厂,,37,15,24,9,13,118,,103,103,10,30,3,4,0.5,0.5
2025-07-02T2200,1095A,111.7276,40.8062,呼和浩特市,二十九中,,37,15,32,11,16,116,,108,108,8,26,5,5,0.7,0.7
2025-07-02T2200,1096A,111.5512,40.7866,呼和浩特市,工大金川校区,,33,16,33,9,12,104,,102,102,12,36,5,6,0.6,0.4
2025-07-02T2200,1097A,111.717,40.7612,呼和浩特市,化肥厂生活区,,39,15,26,12,18,122,,112,112,11,24,6,7,0.5,0.5
2025-07-02T2200,3698A,111.5968,40.8178,呼和浩特市,红旗小学,,37,,31,8,15,118,,116,116,10,33,3,4,0.4,0.4
2025-07-02T2200,3699A,111.6518,40.8389,呼和浩特市,海东办,,37,12,28,9,14,118,,111,111,11,31,5,6,0.5,0.5
2025-07-02T2200,2192A,119.7594,49.2261,呼伦贝尔市,区环保局,,,20,22,15,12,,,107,101,17,9,7,6,0.5,0.5
2025-07-02T2200,3061A,119.7512,49.1577,呼伦贝尔市,国华电力东,,26,24,20,12,9,81,,127,116,16,6,4,3,0.5,0.5
2025-07-02T2200,1250A,120.0751,30.8669,湖州市,城西水厂,,40,40,36,22,16,82,,149,142,20,18,7,6,0.4,0.4
2025-07-02T2200,2873A,120.0830,30.8929,湖州市,仁皇山新区,,38,38,34,22,17,82,,151,144,20,19,6,5,0.6,0.6
2025-07-02T2200,2907A,120.1844,30.8596,湖州市,吴兴区站,,36,36,30,22,17,68,,156,138,20,15,6,6,0.4,0.4
2025-07-02T2200,3562A,120.4148,30.8538,湖州市,南浔区站,,40,37,29,28,17,55,,153,124,21,13,7,5,0.5,0.4
2025-07-02T2200,1607A,120.9049,40.7211,葫芦岛市,龙港区,,38,,37,26,25,106,,104,102,4,5,2,2,0.6,0.6
2025-07-02T2200,1608A,120.8392,40.7514,葫芦岛市,化工街,,30,,25,14,21,94,,110,102,8,11,4,4,0.5,0.7
2025-07-02T2200,1609A,120.8341,40.7073,葫芦岛市,新区,,39,28,38,27,35,104,,107,101,3,5,3,2,0.6,0.8
2025-07-02T2200,1610A,120.8695,40.7677,葫芦岛市,东城区,,35,,28,24,42,86,,106,97,10,10,1,1,0.7,0.8
2025-07-02T2200,2482A,109.5981,27.5721,怀化市,林科所,,20,20,15,3,4,8,,54,40,19,11,4,4,0.5,0.5
2025-07-02T2200,2483A,109.9453,27.5444,怀化市,河西地税局,,25,25,12,9,5,4,,52,37,17,7,6,6,0.2,0.2
2025-07-02T2200,2484A,109.9781,27.5342,怀化市,市四医院,颗粒物(PM10),71,91,23,15,10,8,,52,39,25,10,4,2,0.3,0.6
2025-07-02T2200,2485A,109.9972,27.5578,怀化市,监测楼,,16,16,17,8,8,20,,50,41,15,5,2,2,0.2,0.1
2025-07-02T2200,2486A,110.0394,27.583,怀化市,市委党校,,33,,13,23,9,26,,60,46,11,8,3,5,0.3,0.3
2025-07-02T2200,1210A,119.036,33.5981,淮安市,钵池山,,43,29,26,23,22,137,,138,138,13,11,9,10,0.4,0.4
2025-07-02T2200,1211A,119.007,33.575,淮安市,北京南路,,39,39,31,26,19,110,,121,121,16,12,9,8,0.6,0.6
2025-07-02T2200,1212A,118.989,33.6067,淮安市,市监测站,,38,34,33,19,20,119,,119,118,11,13,9,9,0.8,0.9
2025-07-02T2200,1213A,119.135,33.5039,淮安市,楚州区监测站,,,44,41,17,19,,,128,128,13,11,7,7,0.7,0.5
2025-07-02T2200,3426A,118.8755,33.2894,淮安市,新华书店,,32,30,30,22,20,99,,121,115,22,14,8,8,0.4,0.4
2025-07-02T2200,4206A,119.0288,33.6319,淮安市,承德北路606号,,36,34,32,18,19,114,,119,119,14,12,8,8,0.4,0.4
2025-07-02T2200,2282A,116.8004,33.975,淮北市,监测站,,22,20,26,10,9,69,,116,,5,8,6,7,0.3,0.4
2025-07-02T2200,2283A,116.8091,33.9007,淮北市,烈山区政府,,19,17,29,8,6,58,,105,94,9,10,6,6,0.5,0.5
2025-07-02T2200,3330A,116.8873,33.9836,淮北市,杜集区检察院,,28,28,24,14,13,65,,117,101,14,14,2,3,0.7,0.7
2025-07-02T2200,4017A,116.7923,33.9535,淮北市,市博物馆,,23,23,24,9,11,68,,119,105,4,8,7,8,0.6,0.7
2025-07-02T2200,2277A,116.8305,32.7727,淮南市,潘集区政府,,45,45,20,16,10,69,,76,74,18,10,4,3,0.6,0.3
2025-07-02T2200,2279A,116.8569,32.5951,淮南市,谢家集区政府,,29,29,19,10,4,70,,81,73,20,8,8,6,0.2,0.1
2025-07-02T2200,2280A,116.8281,32.633,淮南市,八公山区政府,,32,32,17,13,7,77,,82,78,15,8,5,5,0.3,0.2
2025-07-02T2200,2281A,116.6325,32.6201,淮南市,焦岗湖风景区管理处,,,,,,,,,,,,,,,,
2025-07-02T2200,2894A,117.0566,32.6531,淮南市,经济技术开发区消防队,,30,27,16,3,4,96,,91,91,12,9,8,8,0.4,0.3
2025-07-02T2200,3329A,117.0108,32.5893,淮南市,山南新区,,34,34,10,6,7,89,,89,89,14,5,8,8,0.5,0.4
2025-07-02T2200,4209A,117.0031,32.6445,淮南市,国庆中路369号,,,29,12,25,10,,,88,87,10,6,,7,0.1,0.1
2025-07-02T2200,2446A,114.9028,30.4742,黄冈市,职工中心,,42,34,30,29,20,100,,154,136,7,7,6,11,0.4,0.4
2025-07-02T2200,2929A,114.8858,30.4519,黄冈市,红卫路,,33,33,27,21,16,89,,149,129,6,7,9,10,0.4,0.4
2025-07-02T2200,3398A,114.9136,30.4445,黄冈市,市林业局,,,34,29,17,14,,,133,126,6,10,,7,0.3,0.3
2025-07-02T2200,2672A,102.0199,35.5102,黄南藏族自治州,同仁县隆务镇,,30,30,22,8,8,49,,59,57,7,9,9,9,0.1,0.2
2025-07-02T2200,2295A,118.2903,29.6963,黄山市,延安路89号,,14,14,16,3,7,31,,77,53,9,6,3,5,0.5,0.5
2025-07-02T2200,2297A,118.1371,30.2756,黄山市,黄山区政府5号楼,,25,19,20,17,9,18,,65,48,8,3,4,4,0.4,0.4
2025-07-02T2200,4210A,118.3354,29.7203,黄山市,滨江东路7-2号,,36,36,25,10,9,21,,68,48,8,6,3,4,0.4,0.4
2025-07-02T2200,2423A,115.0601,30.2313,黄石市,沈家营,颗粒物(PM10),51,52,40,19,12,37,,120,96,35,19,11,9,0.6,0.4
2025-07-02T2200,2426A,114.8988,30.2019,黄石市,铁山,,26,26,21,18,6,67,,105,94,15,10,3,6,0.4,0.4
2025-07-02T2200,2427A,115.0307,30.2092,黄石市,团城山,,36,36,24,12,4,82,,120,112,9,6,9,8,0.5,0.5
2025-07-02T2200,3149A,115.0235,30.1578,黄石市,笔架山北路,,50,50,23,14,5,67,,105,98,3,9,8,6,0.4,0.4
2025-07-02T2200,4185A,115.0780,30.21118,黄石市,磁湖东路29号,颗粒物(PM10),51,52,41,18,16,82,,123,111,7,13,12,12,0.6,0.6
2025-07-02T2200,1392A,114.4183,23.0528,惠州市,河南岸金山湖子站,,19,19,16,6,10,45,,64,60,10,9,6,7,0.3,0.3
2025-07-02T2200,1393A,114.4053,23.0822,惠州市,下埔横江三路子站,,20,20,17,10,8,50,,68,63,10,8,4,5,0.3,0.4
2025-07-02T2200,1394A,114.4103,23.1142,惠州市,江北云山西路子站,,20,20,17,8,6,56,,74,70,6,6,6,6,0.4,0.4
2025-07-02T2200,1395A,114.4645,22.7833,惠州市,惠阳区承修路船湖子站,,20,20,16,10,8,55,,62,62,9,8,6,7,0.5,0.5
2025-07-02T2200,1396A,114.5317,22.7422,惠州市,大亚湾管委会子站,,18,18,15,11,8,50,,59,59,11,11,10,10,0.5,0.5
2025-07-02T2200,3314A,114.4338,22.8134,惠州市,惠阳秋长,,27,27,15,14,9,56,,73,71,14,8,7,8,0.4,0.4
2025-07-02T2200,3452A,114.6517,22.775,惠州市,大亚湾霞涌,,15,,15,10,8,34,,61,58,21,12,5,5,0.6,0.5
2025-07-02T2200,2240A,130.9762,45.3001,鸡西市,环保局,,18,16,19,9,12,57,,106,97,12,12,4,4,0.4,0.4
2025-07-02T2200,2243A,130.9429,45.3039,鸡西市,第一中学,,,26,18,18,11,50,,104,96,,22,8,7,0.4,0.5
2025-07-02T2200,3707A,131.0207,45.3073,鸡西市,欧美日汽修厂,,41,41,18,11,11,50,,103,90,19,16,8,7,0.6,0.6
2025-07-02T2200,3709A,130.9967,45.3106,鸡西市,市政设施管理处,,,33,19,14,11,,,101,96,17,18,4,4,0.4,0.7
2025-07-02T2200,2367A,114.9754,27.0803,吉安市,红声器材厂,,25,25,20,13,8,32,,60,57,15,7,8,9,0.4,0.3
2025-07-02T2200,2368A,114.9658,27.0999,吉安市,市森林工业局,,21,21,19,9,8,55,,68,67,7,5,7,8,0.4,0.4
2025-07-02T2200,2369A,114.99,27.1312,吉安市,市环境监测站,,,21,23,,9,39,,69,66,15,5,11,13,0.6,0.4
2025-07-02T2200,2370A,115.0093,27.0968,吉安市,青原区法院,,25,25,20,11,8,29,,56,50,15,10,7,8,0.4,0.4
2025-07-02T2200,1772A,126.54,43.8622,吉林市,哈达湾,,24,15,14,8,11,76,,109,103,10,5,6,6,0.4,0.4
2025-07-02T2200,1773A,126.5844,43.8358,吉林市,东局子,,23,21,17,6,9,71,,106,100,13,7,5,5,0.6,0.6
2025-07-02T2200,1774A,126.5052,43.8245,吉林市,电力学院,,29,29,17,15,11,69,,109,101,13,8,5,5,0.5,0.7
2025-07-02T2200,1775A,126.6133,43.8972,吉林市,江北,,21,20,20,12,11,67,,102,97,14,7,7,7,0.5,0.5
2025-07-02T2200,1776A,126.555,43.8306,吉林市,江南公园,,24,13,15,13,12,75,,110,103,11,5,3,2,0.5,0.5
2025-07-02T2200,1778A,126.7061,43.7133,吉林市,丰满,,,,,,,,,,,,,,,,
2025-07-02T2200,2868A,126.4739,43.953,吉林市,九站,,23,14,14,9,12,72,,114,108,16,6,4,3,0.4,0.4
2025-07-02T2200,1299A,116.9862,36.6114,济南市,科干所,,33,17,16,10,10,105,,118,118,13,6,5,4,0.5,0.5
2025-07-02T2200,1300A,116.9376,36.665,济南市,农科所,,30,17,16,10,7,95,,108,105,12,8,7,7,0.2,0.1
2025-07-02T2200,1301A,117.1265,36.6734,济南市,开发区,,31,17,14,7,8,97,,100,100,10,10,6,6,0.5,0.5
2025-07-02T2200,1303A,117.0624,36.6868,济南市,省种子仓库,,37,27,19,3,7,117,,120,120,9,12,5,5,0.5,0.5
2025-07-02T2200,1304A,116.9489,36.6447,济南市,机床二厂,,33,20,17,3,6,104,,114,113,10,12,5,5,0.3,0.4
2025-07-02T2200,1305A,117.0495,36.663,济南市,市监测站,,32,20,15,7,9,100,,103,103,11,15,8,8,0.5,0.5
2025-07-02T2200,1306A,116.7675,36.5484,济南市,长清党校,,34,20,15,17,18,106,,114,110,16,11,6,4,0.4,0.4
2025-07-02T2200,1616A,117.6795,36.229,济南市,技术学院,,29,27,16,14,12,91,,115,109,16,17,9,7,0.7,0.8
2025-07-02T2200,1961A,117.532,36.6868,济南市,东山小学,,34,22,18,10,11,106,,109,108,9,10,6,6,0.2,0.3
2025-07-02T2200,3059A,117.7161,36.2049,济南市,泰兴公司,,44,44,24,19,13,32,,98,82,54,19,10,8,0.6,0.5
2025-07-02T2200,3064A,117.6867,36.2171,济南市,莱芜战役纪念馆,,34,34,22,21,12,91,,101,97,13,10,8,7,0.8,1
2025-07-02T2200,3494A,117.1673,36.9782,济南市,济阳区政府,,42,42,26,7,10,73,,104,91,12,10,5,5,0.1,0.1
2025-07-02T2200,3495A,117.1171,36.63,济南市,锦屏中学,,35,15,14,12,5,109,,114,114,8,7,5,5,0.5,0.5
2025-07-02T2200,3682A,116.9814,36.6819,济南市,济南四建,,33,17,15,12,11,103,,115,114,12,11,5,4,0.4,0.4
2025-07-02T2200,1653A,116.6251,35.4302,济宁市,火炬城,,25,21,25,3,10,77,,105,97,9,8,5,5,0.5,0.5
2025-07-02T2200,1655A,116.5491,35.4042,济宁市,电化厂,,24,24,24,9,12,69,,99,87,13,11,3,4,0.7,0.8
2025-07-02T2200,3500A,116.5814,35.3707,济宁市,北湖一中,,,,35,,9,,,79,,,8,,8,,0.3
2025-07-02T2200,3501A,116.8249,35.5593,济宁市,服务中心,,26,26,23,3,6,79,,109,104,13,12,3,3,0.2,0.2
2025-07-02T2200,3678A,116.5907,35.4054,济宁市,市第七中学,,,23,29,3,4,,,98,97,5,6,5,10,0.3,0.4
2025-07-02T2200,2255A,130.2751,46.8028,佳木斯市,佳纺,,31,15,22,12,14,98,,110,109,7,13,5,5,0.3,0.4
2025-07-02T2200,2256A,130.3995,46.8307,佳木斯市,发电厂,,32,18,22,13,14,102,,115,114,8,15,5,5,0.4,0.4
2025-07-02T2200,2257A,130.3258,46.7975,佳木斯市,环保局,,31,21,30,15,14,99,,113,111,7,13,6,6,0.4,0.5
2025-07-02T2200,2258A,130.3648,46.8032,佳木斯市,十一中,,31,23,20,12,12,98,,115,112,9,17,7,7,0.6,0.6
2025-07-02T2200,2259A,130.3794,46.7588,佳木斯市,四丰,,,12,18,,,,,,,5,12,1,1,0.6,0.6
2025-07-02T2200,1252A,120.7436,30.778,嘉兴市,清河小学,,45,45,31,17,10,39,,135,106,19,10,8,8,0.7,0.6
2025-07-02T2200,1253A,120.726,30.7478,嘉兴市,嘉兴学院,,34,34,26,21,14,42,,151,112,18,12,6,6,0.5,0.3
2025-07-02T2200,2872A,120.7846,30.7525,嘉兴市,南湖区残联,,,42,27,22,13,,,141,115,23,12,10,9,0.6,0.5
2025-07-02T2200,3407A,120.6916,30.7739,嘉兴市,秀洲住建,,36,36,26,21,13,47,,159,124,21,14,7,6,0.7,0.6
2025-07-02T2200,1945A,98.2908,39.7711,嘉峪关市,气象局,,35,24,59,7,16,109,,127,124,10,15,6,24,0.6,0.7
2025-07-02T2200,2884A,98.2672,39.7978,嘉峪关市,酒钢宾馆,,35,27,71,14,16,111,,133,129,10,10,10,28,1.0,0.5
2025-07-02T2200,3248A,98.2643,39.7724,嘉峪关市,雄关区,,33,29,51,10,18,104,,124,119,13,16,7,13,0.5,0.5
2025-07-02T2200,1383A,113.1064,22.6058,江门市,北街,,13,13,21,3,8,27,,55,36,10,19,2,3,0.3,0.3
2025-07-02T2200,1384A,113.0731,22.5835,江门市,西区,,,29,18,13,9,,,58,48,16,17,4,7,0.4,0.4
2025-07-02T2200,1385A,113.0219,22.5311,江门市,圭峰西,,20,20,18,8,8,23,,54,42,16,15,3,3,0.4,0.4
2025-07-02T2200,1386A,113.0828,22.5947,江门市,东湖,,17,17,17,7,8,26,,52,38,14,18,6,7,0.4,0.3
2025-07-02T2200,3311A,113.1075,22.5647,江门市,江海富民,,31,31,25,11,10,28,,57,42,13,18,9,9,0.6,0.6
2025-07-02T2200,3449A,113.05,22.4667,江门市,新会银湖,,18,18,20,8,11,11,,43,33,12,13,2,2,0.4,0.4
2025-07-02T2200,1830A,113.1992,35.2590,焦作市,影视城,,,,20,,11,,,,,,9,,12,,0.4
2025-07-02T2200,3169A,113.2725,35.2067,焦作市,太极体育中心,,34,34,37,18,23,87,,118,108,11,12,3,3,0.3,0.4
2025-07-02T2200,3335A,113.3137,35.2641,焦作市,马村街道办,,35,35,31,11,18,70,,104,97,15,13,10,10,0.5,0.6
2025-07-02T2200,3336A,113.2465,35.2373,焦作市,焦作技师学院,,38,38,39,3,10,92,,118,111,12,12,2,2,0.7,0.8
2025-07-02T2200,3477A,113.1656,35.2539,焦作市,中站许衡医院,,33,28,29,23,21,81,,117,107,16,12,6,6,0.5,0.5
2025-07-02T2200,3981A,113.2449,35.1803,焦作市,原李万街道办,,28,25,34,7,9,87,,114,105,12,13,10,10,0.2,0.3
2025-07-02T2200,4264A,113.2340,35.2190,焦作市,新安路1731号,,36,36,32,9,15,99,,126,117,11,12,3,3,0.3,0.4
2025-07-02T2200,1708A,116.3701,23.5345,揭阳市,新兴,,20,20,33,13,15,42,,99,89,11,14,5,6,0.5,0.6
2025-07-02T2200,1709A,116.3264,23.5443,揭阳市,西马,,20,20,39,10,15,44,,107,93,5,14,3,4,0.6,0.7
2025-07-02T2200,1710A,116.3611,23.5626,揭阳市,东兴,,20,,38,14,13,44,,117,103,8,14,2,4,0.4,0.6
2025-07-02T2200,1711A,116.4151,23.5294,揭阳市,渔湖,,20,20,34,11,13,34,,96,84,9,13,8,8,0.4,0.5
2025-07-02T2200,3320A,116.403,23.5699,揭阳市,曲溪,,22,20,30,15,14,40,,110,95,6,12,4,6,0.5,0.5
2025-07-02T2200,1944A,102.1692,38.5167,金昌市,天庆家园,,48,48,34,10,10,121,,155,150,23,14,10,11,0.7,0.7
2025-07-02T2200,4022A,102.1647,38.5371,金昌市,金川区人防中心,,44,44,37,16,12,106,,144,140,20,12,12,13,0.4,0.6
2025-07-02T2200,4239A,102.1930,38.5319,金昌市,长春路96号,,45,45,33,12,13,115,,150,146,25,11,50,24,0.4,0.5
2025-07-02T2200,1262A,119.647,29.077,金华市,十五中,,40,40,21,8,7,48,,100,95,30,11,4,4,0.5,0.4
2025-07-02T2200,1263A,119.686,29.1029,金华市,监测站,,,84,28,18,8,,,107,107,57,12,2,3,0.6,0.5
2025-07-02T2200,3659A,119.656,29.1131,金华市,气象局,,40,40,21,19,7,42,,109,101,70,15,3,4,0.5,0.3
2025-07-02T2200,1767A,121.1115,41.0879,锦州市,南山,,28,,30,19,25,79,,105,97,10,10,6,5,0.7,0.8
2025-07-02T2200,1768A,121.0604,40.8428,锦州市,开发区,,30,30,33,6,21,95,,104,99,16,15,4,8,0.6,0.7
2025-07-02T2200,1769A,121.1836,41.1119,锦州市,百股街道,,28,20,30,19,21,88,,109,102,7,8,3,3,0.5,0.6
2025-07-02T2200,1770A,121.1178,41.1222,锦州市,天安街道,,29,22,32,20,23,83,,110,101,12,13,5,4,0.7,0.8
2025-07-02T2200,1771A,121.1303,41.1386,锦州市,北湖公园,,26,24,35,17,20,81,,104,97,8,10,3,3,0.6,0.7
2025-07-02T2200,2160A,112.85,35.5051,晋城市,自来水公司,颗粒物(PM10),53,56,41,12,15,95,,116,115,8,6,3,3,0.4,0.4
2025-07-02T2200,2161A,112.8318,35.4936,晋城市,白云商贸,,36,36,27,3,5,85,,112,110,14,9,4,4,0.5,0.5
2025-07-02T2200,2162A,112.8508,35.4887,晋城市,市环保局,颗粒物(PM10),51,51,48,14,14,87,,110,109,10,7,7,6,0.1,0
2025-07-02T2200,2163A,112.8676,35.4897,晋城市,技术学院,,37,37,24,7,12,86,,106,105,9,7,6,6,0.5,0.5
2025-07-02T2200,2165A,112.8453,35.546,晋城市,白马寺,,30,,16,18,16,93,,115,114,6,3,5,5,0.5,0.5
2025-07-02T2200,3620A,112.8271,35.4828,晋城市,泽州一中,,29,24,30,9,11,90,,114,113,10,6,3,4,0.6,0.6
2025-07-02T2200,2173A,112.7249,37.7067,晋中市,南都小区,,31,31,32,17,19,64,,97,76,7,7,2,2,0.7,0.3
2025-07-02T2200,2174A,112.6991,37.6982,晋中市,榆次区政府,,24,24,22,12,14,56,,92,70,9,3,5,5,0.8,0.7
2025-07-02T2200,2865A,112.7195,37.6828,晋中市,榆次三中,,22,22,21,9,10,62,,95,76,12,5,6,6,0.6,0.6
2025-07-02T2200,4200A,112.7478,37.6954,晋中市,迎宾街26号,,21,19,19,3,11,65,,92,77,10,5,6,6,0.6,0.6
2025-07-02T2200,2439A,112.2014,31.0481,荆门市,竹园小学,,24,17,20,9,9,74,,92,88,8,8,4,5,0.2,0.3
2025-07-02T2200,2440A,112.1969,30.9891,荆门市,掇刀,,25,24,16,12,10,79,,95,93,5,6,5,8,0.5,0.5
2025-07-02T2200,2441A,112.2213,31.0386,荆门市,石化一小,,25,12,21,9,10,80,,98,94,7,10,13,11,0.3,0.3
2025-07-02T2200,3012A,112.1849,31.0362,荆门市,西山林语,,32,32,18,7,9,75,,90,88,5,3,10,11,0.4,0.4
2025-07-02T2200,3547A,112.1632,31.0138,荆门市,龙泉中学南校,,23,,15,11,9,73,,90,88,6,5,5,6,0.4,0.4
2025-07-02T2200,1844A,112.2494,30.3197,荆州市,市图书馆,,22,20,12,10,9,70,,92,86,13,7,3,3,0.5,0.5
2025-07-02T2200,1845A,112.2008,30.3544,荆州市,市委党校,,20,16,11,10,8,61,,81,78,17,12,4,6,0.4,0.3
2025-07-02T2200,3194A,112.2747,30.3122,荆州市,管委会,,22,18,15,10,8,69,,86,82,7,8,3,4,0.6,0.5
2025-07-02T2200,4268A,112.1722,30.3366,荆州市,学苑路85号,,19,16,13,11,9,58,,83,78,13,12,5,4,0.1,0.1
2025-07-02T2200,2342A,117.3102,29.3867,景德镇市,王港中学,,,,,,,,,,,,,,,,
2025-07-02T2200,2343A,117.2117,29.2933,景德镇市,老干部活动中心,,31,31,29,19,16,53,,101,90,15,13,5,8,0.6,0.5
2025-07-02T2200,2344A,117.1894,29.2789,景德镇市,兽医站,,31,31,37,18,19,66,,95,90,10,9,4,4,0.5,0.5
2025-07-02T2200,2345A,117.1547,29.2617,景德镇市,台达陶瓷,,39,39,33,27,24,57,,99,86,23,16,52,35,0.5,0.7
2025-07-02T2200,2346A,117.2461,29.2956,景德镇市,陶研所,,37,37,31,20,18,38,,98,79,8,10,4,6,0.4,0.3
2025-07-02T2200,1803A,115.9872,29.6815,九江市,十里,,46,36,18,32,19,58,,113,99,26,14,4,4,0.6,0.6
2025-07-02T2200,1804A,115.9584,29.7046,九江市,茅山头,细颗粒物(PM2.5),52,52,24,36,15,40,,114,100,48,24,4,4,0.5,0.3
2025-07-02T2200,1805A,115.9877,29.7295,九江市,西园,,35,33,21,24,11,102,,126,119,20,27,5,8,0.7,0.7
2025-07-02T2200,1808A,115.9114,29.6038,九江市,综合工业园,,26,26,26,12,11,57,,107,97,39,18,2,3,0.9,0.8
2025-07-02T2200,1809A,116.0721,29.7535,九江市,石化总厂,,49,45,30,34,22,106,,118,118,17,14,10,9,0.6,0.5
2025-07-02T2200,1810A,115.9773,29.5698,九江市,庐山气象台,,28,19,12,3,5,88,,98,98,3,4,6,7,1.0,0.8
2025-07-02T2200,3190A,116.0254,29.6994,九江市,外国语学校,,38,38,19,17,14,92,,116,113,6,12,4,7,0.6,0.7
2025-07-02T2200,4253A,116.0102,29.6594,九江市,莲花大道8号,,20,20,9,14,10,62,,96,88,4,4,4,4,0.6,0.6
2025-07-02T2200,4240A,98.4958,39.7339,酒泉市,玉门东路5号,,43,39,70,30,29,113,,122,120,5,11,10,14,0.2,0.3
2025-07-02T2200,4241A,98.5099,39.7506,酒泉市,北大街108号,,37,27,73,25,25,117,,131,129,4,13,12,16,0.3,0.3
2025-07-02T2200,2698A,76.0072,39.4467,喀什地区,巡警大队,颗粒物(PM10),109,168,358,,77,128,,150,149,18,18,4,4,0.3,0.3
2025-07-02T2200,2699A,75.9755,39.4694,喀什地区,吾办,颗粒物(PM10),114,178,369,58,116,121,,146,144,13,12,7,7,0.6,0.5
2025-07-02T2200,4027A,75.9483,39.4689,喀什地区,老干局,颗粒物(PM10),100,149,365,39,92,116,,146,145,20,16,6,6,0.5,0.4
2025-07-02T2200,1824A,114.3389,34.7781,开封市,肿瘤医院,,21,11,20,6,9,66,,140,118,15,14,3,2,0.5,0.5
2025-07-02T2200,1826A,114.2885,34.7965,开封市,世纪星幼儿园,,24,24,23,3,7,72,,134,115,13,12,4,3,0.3,0.4
2025-07-02T2200,3147A,114.3438,34.8106,开封市,龙亭公园,,24,17,23,11,11,74,,128,116,9,8,1,1,0.3,0.4
2025-07-02T2200,3210A,114.3644,34.7964,开封市,汴京公园,,,,36,6,11,79,,137,124,12,13,3,3,0.2,0.3
2025-07-02T2200,3473A,114.2485,34.8306,开封市,技师学院,,28,24,25,8,9,89,,139,127,8,7,4,3,0.4,0.5
2025-07-02T2200,3592A,114.4644,34.7556,开封市,祥符区生态环境局,,23,22,23,9,13,72,,135,118,16,18,3,3,0.5,0.5
2025-07-02T2200,1951A,84.895,45.6094,克拉玛依市,长征新村,颗粒物(PM10),60,69,25,10,6,84,,105,99,11,9,4,4,0.4,0.3
2025-07-02T2200,1952A,84.8988,45.5893,克拉玛依市,南林小区,颗粒物(PM10),62,73,28,3,6,66,,106,97,17,14,4,4,0.1,0.2
2025-07-02T2200,1954A,84.905,44.3396,克拉玛依市,独山子区,,37,24,21,9,7,116,,120,119,12,9,10,7,0.3,0.3
2025-07-02T2200,1955A,85.6979,46.098,克拉玛依市,乌尔禾区商贸楼,,33,17,22,7,6,103,,106,105,5,6,4,4,0.4,0.4
2025-07-02T2200,3612A,85.1045,45.6899,克拉玛依市,白碱滩区新站,,34,34,30,14,17,92,,109,107,12,13,7,7,0.4,0.3
2025-07-02T2200,2697A,76.1454,39.7142,克孜勒苏柯尔克孜自治州,市人民政府,颗粒物(PM10),73,96,304,40,117,147,,134,,8,11,4,6,0.1,0.1
2025-07-02T2200,3665A,76.1658,39.7157,克孜勒苏柯尔克孜自治州,克州文化中心,颗粒物(PM10),93,135,282,38,88,145,,150,150,10,8,4,5,0.3,0.3
2025-07-02T2200,1450A,102.8204,24.8886,昆明市,呈贡新区,,16,,4,11,6,45,,54,50,12,11,4,5,0.3,0.3
2025-07-02T2200,1451A,102.6251,24.9608,昆明市,西山森林公园,,,,,,,,,,,,,,,,
2025-07-02T2200,1452A,102.7252,25.0902,昆明市,龙泉镇,,28,28,12,7,5,39,,49,48,13,10,1,1,0.4,0.3
2025-07-02T2200,1453A,102.7266,25.0375,昆明市,东风东路,,22,22,15,11,7,38,,51,48,16,13,5,4,0.4,0.3
2025-07-02T2200,1454A,102.6742,25.0669,昆明市,金鼎山,,17,17,12,7,4,37,,50,47,13,8,2,2,0.4,0.4
2025-07-02T2200,1455A,102.6644,25.0401,昆明市,碧鸡广场,,26,26,11,14,5,23,,50,43,26,15,6,5,0.4,0.4
2025-07-02T2200,3179A,102.7494,25.0119,昆明市,官渡区博物馆,,14,14,10,6,4,34,,48,47,12,15,7,6,0.3,0.3
2025-07-02T2200,3375A,102.8017,24.8336,昆明市,青年创业园,,,10,6,3,4,,,57,56,6,8,1,2,0.2,0.4
2025-07-02T2200,3550A,102.7997,24.9786,昆明市,昆明学院,,16,16,9,10,5,36,,53,51,17,9,5,5,0.3,0.3
2025-07-02T2200,3551A,102.5967,24.6736,昆明市,晋宁区生态环境分局,,18,18,14,9,5,34,,55,49,13,10,2,2,0.2,0.1
2025-07-02T2200,3552A,102.6678,24.9856,昆明市,云天化总部,,18,18,10,8,4,46,,56,54,7,10,4,3,0.5,0.5
2025-07-02T2200,1456A,91.1319,29.6514,拉萨市,八廓街,,23,20,13,10,9,72,,111,100,22,10,7,7,0.4,0.3
2025-07-02T2200,1457A,91.1221,29.6747,拉萨市,市环保局,,26,26,13,12,7,75,,116,105,20,11,6,5,0.5,0.3
2025-07-02T2200,1458A,91.0874,29.6475,拉萨市,区监测站,,23,22,11,8,5,71,,110,103,34,13,7,7,0.4,0.3
2025-07-02T2200,1459A,91.1774,29.6541,拉萨市,西藏大学,,24,17,12,6,9,75,,111,103,26,10,6,6,0.4,0.3
2025-07-02T2200,1460A,90.9798,29.6588,拉萨市,区辐射站,,21,17,12,9,7,64,,98,89,41,12,8,6,0.4,0.2
2025-07-02T2200,1461A,91.0834,29.6292,拉萨市,拉萨火车站,,25,10,12,3,8,80,,110,103,19,8,4,4,0.3,0.2
2025-07-02T2200,2520A,109.2203,23.7256,来宾市,来宾技工学校,,23,23,17,6,8,39,,70,56,11,8,9,10,0.6,0.6
2025-07-02T2200,3535A,109.1781,23.7297,来宾市,兴宾区政府,,13,13,16,3,9,29,,72,54,9,10,4,6,0.6,0.6
2025-07-02T2200,4002A,109.2416,23.7461,来宾市,中南小学,,18,16,22,12,9,41,,73,59,14,10,8,13,0.6,0.4
2025-07-02T2200,1477A,104.1373,35.9454,兰州市,榆中兰大校区,,,,,,,,,,,,,,,,
2025-07-02T2200,1479A,103.831,36.0464,兰州市,铁路设计院,二氧化氮,66,77,62,33,37,4,,144,121,132,51,10,10,1.0,0.7
2025-07-02T2200,3241A,103.7439,36.0842,兰州市,百合公园,,50,47,44,35,36,38,,164,139,81,37,4,5,0.4,0.5
2025-07-02T2200,3242A,103.9611,35.998,兰州市,和平,,39,39,38,19,23,103,,144,131,11,19,9,11,0.4,0.6
2025-07-02T2200,4236A,103.6293,36.0938,兰州市,庄浪东路808号,,38,38,46,26,31,57,,145,124,74,34,12,14,0.5,0.4
2025-07-02T2200,4237A,103.7251,36.1043,兰州市,安宁西路88号,颗粒物(PM10),54,57,51,30,29,87,,189,166,34,26,8,10,0.4,0.5
2025-07-02T2200,4238A,103.8470,36.0676,兰州市,北滨河东路1号,二氧化氮,63,69,54,39,33,0,,154,130,126,53,8,9,1.1,0.8
2025-07-02T2200,3245A,103.6633,36.533,兰州新区,新区管委会,,39,32,39,27,27,108,,157,151,17,13,5,13,0.3,0.5
2025-07-02T2200,3246A,103.6975,36.4789,兰州新区,舟曲中学,,32,24,39,8,25,75,,147,136,63,19,6,19,0.4,0.6
2025-07-02T2200,1067A,116.6708,39.5111,廊坊市,药材公司,,22,22,40,3,18,52,,112,76,11,19,2,2,0.3,0.4
2025-07-02T2200,1068A,116.7214,39.5589,廊坊市,开发区,,18,13,39,8,22,57,,111,78,11,18,1,1,0.2,0.3
2025-07-02T2200,1070A,116.7244,39.5269,廊坊市,北华航天学院,,24,24,55,7,26,59,,116,84,9,17,3,2,0.3,0.4
2025-07-02T2200,2919A,116.7022,39.5453,廊坊市,河北工业大学,,20,17,44,3,19,64,,130,95,14,22,2,3,0.1,0.3
2025-07-02T2200,2535A,103.7723,29.5462,乐山市,花湖湾,,25,21,20,17,14,67,,102,94,13,13,2,2,0.5,0.6
2025-07-02T2200,2536A,103.7627,29.5844,乐山市,牛耳桥,,28,28,25,19,16,72,,118,106,16,16,8,8,0.8,0.8
2025-07-02T2200,2537A,103.7508,29.6006,乐山市,市第三水厂,,39,27,24,27,19,72,,113,102,14,16,4,5,0.7,0.6
2025-07-02T2200,2538A,103.7571,29.5664,乐山市,市监测站,,29,26,25,20,17,67,,100,93,9,11,5,5,0.8,0.8
2025-07-02T2200,3361A,103.7311,29.5628,乐山市,理工大学,,25,23,18,17,14,73,,110,100,11,11,6,7,0.6,0.6
2025-07-02T2200,2598A,100.2143,26.8576,丽江市,西南郊,,25,12,17,8,10,80,,96,94,5,7,5,6,1.0,1
2025-07-02T2200,2599A,100.2497,26.8802,丽江市,丽江古城,,24,24,20,16,13,74,,92,88,10,9,10,9,0.5,0.5
2025-07-02T2200,2600A,100.2203,26.8906,丽江市,市中心,,23,,14,11,9,72,,94,89,11,11,9,8,0.5,0.5
2025-07-02T2200,1267A,119.914,28.4514,丽水市,监测站大楼,,26,23,16,12,6,81,,70,70,14,10,3,3,0.4,0.3
2025-07-02T2200,1268A,119.93,28.4586,丽水市,莲都小学,,26,24,17,9,5,82,,74,74,8,8,3,3,0.4,0.4
2025-07-02T2200,1269A,119.879,28.4231,丽水市,余庄前,,,21,14,16,7,,,68,62,7,6,3,3,0.4,0.4
2025-07-02T2200,1173A,119.176,34.5885,连云港市,市环境监测站,,28,27,25,19,19,81,,120,104,19,14,3,3,0.3,0.3
2025-07-02T2200,3000A,119.3581,34.6972,连云港市,德源药业,,24,24,26,7,14,63,,112,90,17,12,7,7,0.4,0.5
2025-07-02T2200,3007A,119.178,34.844,连云港市,新城一中,,,23,30,12,21,81,,134,122,15,16,5,5,,0.9
2025-07-02T2200,3008A,119.3608,34.7519,连云港市,胡沟管理处,,,17,19,9,12,100,,144,122,,9,7,6,0.6,0.7
2025-07-02T2200,3009A,119.1478,34.5911,连云港市,矿山设计院,,30,19,22,12,13,95,,103,99,5,6,4,4,0.5,0.5
2025-07-02T2200,3434A,119.2413,34.6539,连云港市,工贸学校,,33,25,23,22,20,105,,117,112,4,4,7,7,0.5,0.6
2025-07-02T2200,3664A,119.4172,34.7341,连云港市,连云街道,,38,20,23,14,16,120,,136,116,3,5,6,7,0.5,0.4
2025-07-02T2200,2571A,102.3431,27.8099,凉山彝族自治州,青龙寺,,18,15,15,3,5,56,,76,68,3,4,5,5,0.5,0.4
2025-07-02T2200,2572A,102.2721,27.8415,凉山彝族自治州,邛海宾馆,,21,14,16,8,12,65,,74,71,5,6,9,9,0.3,0.3
2025-07-02T2200,2573A,102.2625,27.898,凉山彝族自治州,西昌市政府,,20,15,20,3,10,64,,77,72,6,6,10,12,0.4,0.5
2025-07-02T2200,2574A,102.2685,27.8851,凉山彝族自治州,凉山州政府,,21,15,18,13,12,67,,79,74,6,9,9,10,0.7,0.7
2025-07-02T2200,4229A,102.2342,27.8859,凉山彝族自治州,凯乐南路30号,,21,17,17,11,7,67,,76,75,6,8,13,15,0.7,0.8
2025-07-02T2200,2212A,123.2,41.1953,辽阳市,宏伟区,,25,15,17,8,6,79,,93,78,4,5,2,2,0.6,0.7
2025-07-02T2200,2213A,123.1683,41.2495,辽阳市,新华园,,25,14,21,7,8,78,,104,86,6,10,6,7,0.4,0.7
2025-07-02T2200,2214A,123.2354,41.2639,辽阳市,滨河路,,20,17,17,12,8,61,,85,68,6,6,7,7,0.3,0.4
2025-07-02T2200,2215A,123.149,41.2991,辽阳市,铁西工业园,,20,17,38,7,15,62,,97,86,5,11,1,2,0.6,1.2
2025-07-02T2200,2227A,125.1358,42.8845,辽源市,环保局,,25,25,21,3,7,65,,105,86,10,5,5,3,0.3,0.4
2025-07-02T2200,3239A,125.0764,42.9078,辽源市,银鹰制药,,20,12,16,9,11,63,,107,88,8,7,4,3,0.3,0.4
2025-07-02T2200,1625A,115.9848,36.4372,聊城市,区政府,,28,22,18,9,11,89,,109,104,14,7,4,3,0.6,0.6
2025-07-02T2200,2878A,116.0072,36.4343,聊城市,聊大东校,,29,29,21,9,15,88,,106,99,12,8,3,4,0.5,0.5
2025-07-02T2200,3200A,115.9819,36.4978,聊城市,监控中心,,32,17,13,3,7,100,,117,110,10,8,5,6,0.5,0.5
2025-07-02T2200,3513A,116.0445,36.4361,聊城市,九州社区,,27,27,17,11,12,80,,99,96,15,9,6,3,0.3,0.3
2025-07-02T2200,4018A,116.0567,36.4608,聊城市,星美广场,,32,32,25,7,9,96,,126,116,14,9,10,10,0.7,0.7
2025-07-02T2200,2632A,94.3681,29.6376,林芝市,林芝监测站,,10,,5,6,6,30,,43,40,7,5,4,4,0.5,0.4
2025-07-02T2200,2633A,94.3616,29.6616,林芝市,林芝人民医院,,14,14,8,9,5,28,,44,39,5,4,5,5,0.2,0.2
2025-07-02T2200,2603A,100.0781,23.8982,临沧市,市环保局,,22,,13,15,17,45,,48,45,7,6,6,7,0.4,0.3
2025-07-02T2200,2604A,100.0894,23.8822,临沧市,市气象局,,16,,14,11,11,46,,49,47,8,7,8,8,0.4,0.4
2025-07-02T2200,1733A,111.5531,36.0783,临汾市,临钢医院,,50,50,29,9,7,37,,94,75,30,16,5,5,0.6,0.6
2025-07-02T2200,1734A,111.5028,36.0714,临汾市,技工学校,,16,16,31,10,18,42,,90,74,19,14,4,4,0.6,0.6
2025-07-02T2200,1736A,111.5018,36.0855,临汾市,市委,颗粒物(PM10),51,52,49,3,10,43,,100,80,25,18,4,4,0.9,0.9
2025-07-02T2200,3018A,111.505,36.1014,临汾市,唐尧大酒店,,50,50,50,8,11,50,,96,79,14,15,2,2,0.7,0.7
2025-07-02T2200,4244A,111.4879,36.0530,临汾市,启星学校,,30,28,33,21,26,37,,84,64,16,13,4,4,0.9,0.8
2025-07-02T2200,4271A,103.2464,35.6123,临夏回族自治州,滨河东路1号,,45,45,49,25,23,12,,94,78,52,16,3,4,0.5,0.4
2025-07-02T2200,4310A,103.2093,35.5995,临夏回族自治州,新华街21号,,46,46,49,24,26,45,,109,98,34,15,6,6,0.4,0.4
2025-07-02T2200,1618A,118.3429,35.0532,临沂市,沂河小区,,30,22,30,12,20,96,,127,112,12,14,8,11,0.3,0.4
2025-07-02T2200,1619A,118.295,35.0583,临沂市,鲁南制药厂,,30,24,25,14,17,94,,121,114,13,15,10,12,0.4,0.5
2025-07-02T2200,1620A,118.2794,34.9976,临沂市,新光毛纺厂,,30,,25,15,18,96,,126,119,17,15,7,11,0.3,0.4
2025-07-02T2200,1621A,118.3956,35.0888,临沂市,河东保险公司,,31,19,24,7,10,99,,130,117,17,15,6,6,0.4,0.5
2025-07-02T2200,3370A,118.3564,35.0215,临沂市,十里堡居委,,32,9,22,3,14,101,,137,120,17,19,8,8,0.4,0.5
2025-07-02T2200,3496A,118.3604,35.1084,临沂市,南坊新区,,30,19,30,3,9,95,,134,112,12,14,7,10,0.3,0.4
2025-07-02T2200,3860A,118.3920,35.0300,临沂市,皇山花园小区,,30,17,23,14,19,94,,125,108,13,13,9,10,0.6,0.8
2025-07-02T2200,1870A,109.4856,24.3895,柳州市,柳东小学,,12,10,15,7,8,37,,68,55,13,8,4,5,0.4,0.4
2025-07-02T2200,1871A,109.4157,24.3277,柳州市,环保监测站,,,5,18,,16,29,,67,58,18,11,7,9,0.3,0.5
2025-07-02T2200,1872A,109.389,24.341,柳州市,河西水厂,,23,23,23,16,12,35,,68,59,15,13,4,4,0.6,0.5
2025-07-02T2200,1873A,109.4311,24.2921,柳州市,市四中,,,7,17,,8,50,,70,67,10,12,6,7,0.5,0.5
2025-07-02T2200,1874A,109.4006,24.3631,柳州市,市九中,,25,25,33,17,11,36,,71,58,9,12,2,3,0.6,0.7
2025-07-02T2200,1875A,109.4958,24.3134,柳州市,古亭山,,13,6,18,3,7,40,,65,59,8,9,4,4,0.4,0.5
2025-07-02T2200,3402A,109.5422,24.3996,柳州市,市二中,,12,,18,8,9,25,,70,56,21,13,12,11,0.6,0.5
2025-07-02T2200,2307A,116.5079,31.737,六安市,监测大楼,,30,30,14,18,10,58,,76,74,7,5,4,5,0.5,0.3
2025-07-02T2200,2308A,116.4738,31.7643,六安市,皖西学院,,25,,9,17,9,52,,78,72,4,3,2,3,0.2,0.1
2025-07-02T2200,2309A,116.4996,31.7905,六安市,朝阳厂,,23,17,10,16,9,54,,64,64,10,7,5,6,0.3,0.2
2025-07-02T2200,2310A,116.5567,31.7886,六安市,开发区,,34,34,15,17,12,50,,75,69,15,6,3,4,0.5,0.3
2025-07-02T2200,2576A,104.8,26.5892,六盘水市,窑上,,36,32,19,25,3,11,,36,30,3,3,3,3,0.3,0.3
2025-07-02T2200,2577A,104.83,26.5917,六盘水市,黄土坡,,14,14,7,7,6,39,,40,40,8,9,9,8,0.4,0.4
2025-07-02T2200,2578A,104.89,26.5939,六盘水市,水钢,,25,25,14,6,5,47,,51,50,3,2,9,9,0.3,0.3
2025-07-02T2200,2579A,104.8475,26.5894,六盘水市,民中,,14,11,6,7,1,42,,46,46,6,5,8,8,0.3,0.3
2025-07-02T2200,2580A,104.9544,26.5506,六盘水市,双水,,13,,1,3,4,39,,45,44,4,4,9,9,0.3,0.3
2025-07-02T2200,2335A,117.0189,25.1181,龙岩市,龙岩师专,,,,,,,,,,,,,,,,
2025-07-02T2200,2336A,117.0217,25.1033,龙岩市,龙岩市监测站,,24,19,20,10,15,74,,92,84,9,10,6,6,0.4,0.4
2025-07-02T2200,2337A,117.0258,25.0661,龙岩市,闽西职业技术学院,,41,41,27,17,13,50,,82,74,15,9,23,16,0.5,0.5
2025-07-02T2200,2338A,117.0196,25.0306,龙岩市,龙岩学院,,,,24,7,14,59,,89,82,12,8,9,7,0.6,0.6
2025-07-02T2200,2665A,105.0822,33.3261,陇南市,汉王镇固水子,,,,,,,,,,,,,,,,
2025-07-02T2200,2885A,104.9339,33.3826,陇南市,滨江中学,,37,37,29,8,11,56,,84,75,8,6,4,4,0.5,0.4
2025-07-02T2200,3247A,104.955,33.371,陇南市,市总工会,,30,30,32,7,7,69,,94,86,7,5,7,7,0.4,0.4
2025-07-02T2200,2487A,111.9589,27.8901,娄底市,电视发射台,,16,16,18,3,5,14,,52,36,6,10,6,7,0.5,0.9
2025-07-02T2200,2488A,111.9975,27.725,娄底市,市监测站,,14,,15,7,11,43,,56,53,9,6,8,10,0.2,0.2
2025-07-02T2200,2489A,112.0194,27.7314,娄底市,市委党校,,20,20,13,13,7,48,,60,57,10,6,8,9,0.3,0.3
2025-07-02T2200,2490A,111.9561,27.7569,娄底市,涟钢,,16,16,20,7,9,29,,52,47,25,15,5,10,1.0,1.1
2025-07-02T2200,2491A,111.9892,27.7044,娄底市,市政府,,38,,15,26,8,44,,60,58,5,2,5,6,0.5,0.5
2025-07-02T2200,1893A,105.4324,28.9634,泸州市,九狮山,,19,19,19,9,14,41,,80,69,13,9,7,6,0.7,0.3
2025-07-02T2200,1894A,105.4427,28.9063,泸州市,小市上码头,,16,14,14,3,2,51,,78,68,7,7,2,2,0.3,0.3
2025-07-02T2200,1895A,105.4241,28.8573,泸州市,兰田宪桥,,,,15,,5,54,,73,67,,11,7,7,,0.8
2025-07-02T2200,1896A,105.4379,28.8833,泸州市,市环监站,,17,9,10,6,7,53,,74,68,8,9,4,4,0.6,0.6
2025-07-02T2200,4272A,105.3689,28.7783,泸州市,纳溪中医医院,,27,27,19,15,11,36,,72,61,28,17,4,4,0.3,0.3
2025-07-02T2200,2183A,111.1406,37.5211,吕梁市,环保局,,24,24,42,10,17,26,,80,58,30,27,4,5,0.6,0.6
2025-07-02T2200,2185A,111.1297,37.5136,吕梁市,自来水公司,,33,33,43,14,14,28,,69,51,22,23,2,2,0.8,0.6
2025-07-02T2200,2867A,111.1283,37.51,吕梁市,马茂庄小学,,23,23,43,14,16,21,,76,55,34,29,3,3,0.6,0.5
2025-07-02T2200,1812A,112.3931,34.6516,洛阳市,市委党校,,25,22,18,10,10,77,,95,88,7,10,7,6,0.5,0.5
2025-07-02T2200,1815A,112.494,34.6886,洛阳市,河南林校,,32,23,22,17,11,100,,115,106,6,10,5,8,0.3,0.3
2025-07-02T2200,1816A,112.3844,34.623,洛阳市,开发区管委会,,28,17,19,14,11,87,,108,101,7,6,15,13,0.5,0.5
2025-07-02T2200,1817A,112.4267,34.6258,洛阳市,市委新办公区,,27,22,18,15,12,86,,102,96,9,10,18,12,0.4,0.4
2025-07-02T2200,3340A,112.6005,34.6326,洛阳市,伊滨,,39,39,28,10,9,96,,102,98,6,10,3,3,0.4,0.4
2025-07-02T2200,3341A,112.4951,34.6332,洛阳市,中移产业园,,25,15,16,12,13,80,,96,88,5,9,5,8,0.6,0.8
2025-07-02T2200,3593A,112.5736,34.8993,洛阳市,吉利监测站,,28,28,27,12,12,73,,117,101,13,10,5,5,0.4,0.5
2025-07-02T2200,3635A,112.3677,34.662,洛阳市,河科大西苑校区,,27,20,18,14,10,84,,108,99,6,12,10,9,0.6,0.6
2025-07-02T2200,3636A,112.4388,34.6781,洛阳市,英才小学,,23,14,18,13,12,73,,92,83,8,9,11,8,0.5,0.7
2025-07-02T2200,4214A,112.4600,34.6949,洛阳市,春都路1号院,,26,20,19,8,7,82,,102,93,6,7,3,3,0.5,0.6
2025-07-02T2200,2399A,114.051,33.5699,漯河市,三五一五工厂,,25,25,22,11,10,66,,105,89,15,20,5,4,0.4,0.5
2025-07-02T2200,2400A,114.0055,33.5698,漯河市,漯河大学,,23,23,23,3,6,63,,106,88,19,21,5,4,0.3,0.4
2025-07-02T2200,2401A,114.0138,33.5828,漯河市,市水利局,,,,18,5,8,65,,102,90,13,16,4,4,,0.6
2025-07-02T2200,2402A,114.0261,33.5698,漯河市,市广电局,,23,15,17,6,11,73,,111,94,10,20,2,2,0.4,0.5
2025-07-02T2200,3478A,113.9749,33.5664,漯河市,市图书馆,,20,,31,6,11,64,,104,89,12,19,4,3,0.3,0.3
2025-07-02T2200,4250A,114.0892,33.5882,漯河市,韶山路11号,,21,18,20,3,10,66,,105,90,15,19,2,3,0.4,0.5
2025-07-02T2200,1798A,118.5092,31.6837,马鞍山市,湖东路四小,,23,20,32,16,16,66,,137,123,15,9,8,8,0.5,0.6
2025-07-02T2200,1799A,118.5024,31.6449,马鞍山市,开发区,,,,49,30,21,31,,131,103,44,21,5,5,0.7,0.7
2025-07-02T2200,1802A,118.6245,31.7241,马鞍山市,濮塘,,27,21,29,13,18,86,,123,108,4,6,8,7,0.6,0.7
2025-07-02T2200,3633A,118.4918,31.6809,马鞍山市,雨山,,27,27,35,14,18,73,,119,107,10,17,5,5,0.5,0.6
2025-07-02T2200,4191A,118.5274,31.72227,马鞍山市,慈湖高新区,,29,29,35,16,21,77,,132,116,17,16,6,7,0.4,0.5
2025-07-02T2200,1686A,111.0286,21.4688,茂名市,电白南海,,,14,16,3,9,32,,42,39,,9,2,2,0.2,0.1
2025-07-02T2200,1687A,110.9294,21.6533,茂名市,茂石化七小,,14,14,15,3,5,25,,38,37,12,8,4,4,0.4,0.5
2025-07-02T2200,1688A,110.9107,21.6687,茂名市,健康路,,12,12,10,7,6,32,,43,42,10,9,6,4,0.4,0.5
2025-07-02T2200,1689A,110.8592,21.6828,茂名市,高岭,,27,27,23,3,6,31,,39,39,16,14,8,8,0.5,0.5
2025-07-02T2200,3450A,111.01,21.5165,茂名市,电白水东,,14,14,11,3,6,34,,48,46,10,8,6,5,0.3,0.3
2025-07-02T2200,2539A,104.0308,30.0478,眉山市,黑龙滩水库,颗粒物(PM10),52,53,33,19,7,50,,92,87,16,8,2,2,0.5,0.4
2025-07-02T2200,2540A,103.8416,30.0874,眉山市,气象局,,,,26,,11,,,105,98,16,17,3,3,,0.5
2025-07-02T2200,3137A,103.8578,30.0744,眉山市,市委党校,,17,14,21,9,9,53,,95,86,16,14,5,6,0.6,0.5
2025-07-02T2200,3148A,103.8291,30.0564,眉山市,区人社局,,40,40,34,9,7,63,,100,89,21,16,9,11,0.7,0.6
2025-07-02T2200,1690A,116.1231,24.3284,梅州市,梅江月梅,,34,34,23,11,10,58,,72,70,17,7,8,8,0.6,0.5
2025-07-02T2200,1691A,116.0797,24.2719,梅州市,梅县新城,,18,13,19,3,8,57,,76,70,7,9,6,7,0.6,0.6
2025-07-02T2200,1692A,116.1248,24.2654,梅州市,环境监控中心,,24,24,21,10,8,60,,67,62,14,11,4,6,0.5,0.5
2025-07-02T2200,3315A,116.1233,24.2991,梅州市,梅龙,,29,29,16,16,11,70,,71,70,7,6,7,8,0.5,0.5
2025-07-02T2200,1878A,104.7778,31.4741,绵阳市,富乐山,,26,26,20,14,13,39,,52,49,17,14,9,8,0.5,0.6
2025-07-02T2200,1880A,104.6697,31.4668,绵阳市,高新区自来水公司,,21,21,25,12,9,31,,62,57,25,14,6,6,0.5,0.4
2025-07-02T2200,1881A,104.7287,31.5075,绵阳市,三水厂,,27,27,21,11,16,35,,52,48,19,17,8,8,0.6,0.6
2025-07-02T2200,3491A,104.69,31.5322,绵阳市,西科大附属小学,,25,25,28,8,13,23,,56,50,31,16,7,7,0.5,0.4
2025-07-02T2200,3492A,104.5648,31.5343,绵阳市,安州区旅游局,,22,22,22,7,8,29,,62,50,21,14,4,5,0.5,0.5
2025-07-02T2200,4226A,104.7651,31.4531,绵阳市,绵阳市气象局,,23,23,22,12,12,42,,53,50,14,13,14,13,0.5,0.5
2025-07-02T2200,1784A,129.61,44.561,牡丹江市,环保大楼,,29,,21,20,11,41,,98,84,14,12,3,1,0.3,0.3
2025-07-02T2200,1785A,129.6115,44.5782,牡丹江市,文化广场,,26,,15,18,14,43,,96,82,15,14,4,5,0.4,0.4
2025-07-02T2200,1786A,129.5904,44.5963,牡丹江市,第一医院,,,32,16,21,10,42,,99,86,15,13,6,6,,0.2
2025-07-02T2200,1787A,129.6364,44.6075,牡丹江市,机车工厂,,23,23,17,3,5,42,,94,83,10,11,4,4,0.4,0.5
2025-07-02T2200,1788A,129.6386,44.5462,牡丹江市,第一中学,,22,21,16,15,7,50,,95,82,10,12,5,5,0.5,0.5
2025-07-02T2200,2531A,105.0703,29.61,内江市,市监测站,,39,30,19,27,13,104,,108,108,11,10,5,6,0.8,0.7
2025-07-02T2200,2532A,105.0717,29.5947,内江市,东兴区政府,,33,33,14,13,4,95,,102,102,12,8,4,4,0.6,0.5
2025-07-02T2200,2533A,105.0653,29.5817,内江市,内江二中,,38,26,20,26,13,97,,98,98,14,9,7,7,0.6,0.5
2025-07-02T2200,2534A,105.0406,29.5822,内江市,内江日报社,,32,26,16,16,13,101,,103,103,11,12,3,7,0.5,0.4
2025-07-02T2200,2628A,92.0657,31.4846,那曲市,那曲监测站,,44,44,19,16,10,78,,116,111,24,14,30,18,0.5,0.5
2025-07-02T2200,4243A,92.0515,31.4787,那曲市,那曲市委宣传部,,34,13,9,7,5,107,,129,124,10,8,8,8,0.3,0.4
2025-07-02T2200,1290A,115.8931,28.6843,南昌市,省外办,,26,19,26,17,18,81,,100,95,8,23,2,3,0.4,0.5
2025-07-02T2200,1291A,115.8886,28.7003,南昌市,省林业公司,,34,34,32,17,15,68,,107,97,17,23,10,11,0.5,0.6
2025-07-02T2200,1292A,115.8126,28.7442,南昌市,林科所,,19,9,14,9,8,58,,108,87,11,12,5,6,0.3,0.3
2025-07-02T2200,1294A,115.8518,28.687,南昌市,建工学校,,46,,28,32,15,62,,109,95,21,23,8,9,0.6,0.5
2025-07-02T2200,1295A,115.8921,28.6424,南昌市,象湖,,28,25,24,19,11,74,,100,95,18,18,9,9,0.6,0.5
2025-07-02T2200,1296A,115.7423,28.7996,南昌市,武术学校,,32,32,23,11,10,14,,81,47,3,3,8,9,0.6,0.6
2025-07-02T2200,3046A,115.9084,28.6062,南昌市,机电学校,,33,33,33,19,14,66,,99,90,16,20,5,6,0.5,0.5
2025-07-02T2200,3690A,115.9721,28.7031,南昌市,外国语学校,,32,32,29,16,12,75,,102,92,14,16,9,11,0.8,0.7
2025-07-02T2200,4192A,115.9316,28.68677,南昌市,南京东路235号,颗粒物(PM10),51,52,40,19,13,89,,101,96,14,21,6,6,0.6,0.6
2025-07-02T2200,1905A,106.056,30.8064,南充市,西山风景区,,,,,,,,,,,,,,,,
2025-07-02T2200,1906A,106.0789,30.8023,南充市,南充市委,,29,25,24,20,16,67,,114,107,13,10,5,5,0.4,0.4
2025-07-02T2200,1907A,106.1031,30.8217,南充市,南充炼油厂,,20,18,22,10,13,63,,108,101,12,8,6,6,0.3,0.3
2025-07-02T2200,4227A,106.1083,30.7884,南充市,梨树横街98号,,31,31,21,13,12,68,,114,106,12,9,4,4,0.3,0.3
2025-07-02T2200,4304A,106.1172,30.843,南充市,清泉寺北路188号,,23,23,22,10,10,64,,100,95,7,6,2,2,0.4,0.4
2025-07-02T2200,4305A,106.067,30.7616,南充市,同庆路1号,,29,29,20,12,11,63,,111,103,17,12,3,4,0.5,0.4
2025-07-02T2200,1151A,118.8086,32.1065,南京市,迈皋桥,,22,22,24,14,15,68,,125,107,23,22,4,4,0.6,0.8
2025-07-02T2200,1152A,118.7538,32.0551,南京市,草场门,,26,24,28,7,16,81,,133,125,17,20,6,6,0.7,0.8
2025-07-02T2200,1153A,118.7794,32.0745,南京市,山西路,,27,27,32,9,10,73,,140,126,12,5,4,4,0.3,0.3
2025-07-02T2200,1154A,118.7752,32.0023,南京市,中华门,,27,27,26,14,13,58,,110,98,27,13,10,9,0.7,0.7
2025-07-02T2200,1155A,118.8109,32.0309,南京市,瑞金路,,24,24,23,14,14,70,,129,109,22,11,7,6,0.2,0.3
2025-07-02T2200,1156A,118.7997,32.0754,南京市,玄武湖,,24,24,30,7,8,46,,115,95,18,13,3,4,0.4,0.4
2025-07-02T2200,1157A,118.6414,32.0931,南京市,浦口,,30,30,29,18,14,74,,138,116,11,13,4,3,0.2,0.3
2025-07-02T2200,1158A,118.7356,31.9996,南京市,奥体中心,,27,27,30,7,16,75,,129,122,22,23,4,4,0.3,0.3
2025-07-02T2200,1159A,118.9125,32.1028,南京市,仙林大学城,,34,34,34,12,11,57,,133,111,21,10,6,6,0.6,0.6
2025-07-02T2200,3422A,118.8436,31.9198,南京市,江宁彩虹桥,,19,,28,12,15,59,,126,96,34,17,4,3,0.5,0.6
2025-07-02T2200,3427A,118.8554,32.3578,南京市,六合雄州,,42,42,36,7,17,53,,156,127,36,24,4,4,0.9,0.9
2025-07-02T2200,4249A,118.8708,31.3402,南京市,汶溪路181号,,33,16,22,15,15,104,,108,96,15,14,6,4,0.5,0.5
2025-07-02T2200,4312A,119.019,31.6512,南京市,中山西路1号,,32,29,20,19,14,102,,109,86,19,13,4,4,0.6,0.6
2025-07-02T2200,1401A,108.3103,22.7881,南宁市,二十一中,,16,16,19,11,8,16,,39,29,15,6,4,4,0.4,0.3
2025-07-02T2200,1402A,108.3141,22.8528,南宁市,北湖,,16,16,20,9,8,26,,46,34,16,12,4,4,0.4,0.4
2025-07-02T2200,1403A,108.3206,22.8225,南宁市,市监测站,,26,26,20,8,10,13,,41,28,23,12,6,6,0.5,0.5
2025-07-02T2200,1404A,108.3829,22.8037,南宁市,大自然花园,,17,17,20,10,10,24,,49,38,19,10,4,4,0.5,0.4
2025-07-02T2200,1405A,108.4394,22.7904,南宁市,仙葫,,24,24,18,13,10,33,,55,44,17,11,9,9,0.6,0.5
2025-07-02T2200,1406A,108.2397,22.8467,南宁市,区农职院,,22,22,19,11,8,8,,47,30,26,13,2,2,0.5,0.5
2025-07-02T2200,1407A,108.3275,22.735,南宁市,英华嘉园,,24,24,17,12,7,25,,51,40,14,8,7,7,0.4,0.3
2025-07-02T2200,3401A,108.4834,22.7618,南宁市,红星社区,,36,36,22,15,8,14,,52,36,21,8,2,2,0.5,0.4
2025-07-02T2200,4221A,108.2177,22.7774,南宁市,乐贤路16号,,18,18,20,11,9,22,,50,35,19,16,5,6,0.5,0.4
2025-07-02T2200,2331A,118.0966,26.6761,南平市,茫荡山,,,,,,,,,,,,,,,,
2025-07-02T2200,2332A,118.1681,26.6369,南平市,南平市监测站,,12,12,12,3,8,18,,50,41,15,6,4,6,0.5,0.4
2025-07-02T2200,2333A,118.1825,26.6489,南平市,南平铝业有限公司,,,,14,,5,22,,49,43,16,8,4,5,0.5,0.4
2025-07-02T2200,2334A,118.1756,26.6272,南平市,南平七中,,18,18,14,6,6,20,,53,43,10,5,4,5,0.5,0.4
2025-07-02T2200,1168A,120.9098,31.9663,南通市,狼山街道,,31,31,28,14,12,65,,185,153,22,18,5,5,0.7,0.7
2025-07-02T2200,1169A,120.86,32.0005,南通市,虹桥,,30,30,25,16,16,73,,189,170,30,25,3,4,0.5,0.7
2025-07-02T2200,1170A,120.87,32.02,南通市,城中,,41,41,34,13,11,70,,161,138,20,20,4,6,0.5,0.4
2025-07-02T2200,1171A,120.94,31.93,南通市,星湖花园,,27,27,26,18,14,56,,182,143,36,27,4,5,0.4,0.4
2025-07-02T2200,1172A,120.81,32.0417,南通市,紫琅学院,,34,34,31,10,9,78,,166,141,27,26,6,7,0.5,0.5
2025-07-02T2200,3291A,121.067,32.062,南通市,通州监测站,,27,27,23,9,8,74,,169,151,10,14,7,7,0.7,0.7
2025-07-02T2200,3432A,120.9348,31.9883,南通市,环境教育馆,,36,36,35,12,10,71,,203,169,23,22,3,4,0.2,0.3
2025-07-02T2200,2404A,112.5224,33.0122,南阳市,瓦房庄,,26,26,24,3,5,73,,94,84,9,11,6,6,0.3,0.3
2025-07-02T2200,2405A,112.5003,32.9735,南阳市,汉画馆,,,20,19,7,10,,,94,89,10,12,6,5,0.3,0.4
2025-07-02T2200,2406A,112.5573,33.027,南阳市,气象站,,24,11,11,3,6,76,,92,86,7,11,6,6,0.3,0.3
2025-07-02T2200,2407A,112.5481,32.9689,南阳市,理工学院,,22,22,17,9,10,59,,90,78,21,14,6,5,0.2,0.2
2025-07-02T2200,4008A,112.5234,32.9922,南阳市,卧龙区政府,,24,18,20,6,9,74,,93,85,10,13,4,4,0.4,0.4
2025-07-02T2200,1234A,121.8358,29.911,宁波市,区环保大楼,,26,26,22,12,7,63,,58,58,3,6,2,3,0.4,0.4
2025-07-02T2200,1235A,121.56,29.82,宁波市,万里学院,,25,18,15,17,12,48,,69,61,10,7,2,2,0.4,0.3
2025-07-02T2200,1236A,121.713,29.9572,宁波市,龙赛医院,,25,25,20,8,6,53,,65,60,8,8,2,3,0.4,0.4
2025-07-02T2200,1239A,121.633,29.7733,宁波市,钱湖水厂,,24,24,15,16,11,60,,64,64,2,2,4,4,0.3,0.3
2025-07-02T2200,1240A,121.5856,29.8635,宁波市,太古小学,,25,25,19,17,9,53,,69,60,5,6,4,4,0.3,0.2
2025-07-02T2200,1241A,121.524,29.8674,宁波市,市环境监测中心,,33,33,16,19,7,45,,64,56,10,10,4,5,0.5,0.4
2025-07-02T2200,2871A,121.6147,29.9017,宁波市,万里国际学校,,20,17,12,14,7,58,,73,66,6,5,3,3,0.3,0.3
2025-07-02T2200,3710A,121.5594,29.8975,宁波市,白沙活动中心,,23,23,15,15,7,54,,76,63,5,6,3,4,0.3,0.3
2025-07-02T2200,2339A,119.5001,26.6946,宁德市,金涵水库,,,,,,,,,,,,,,,,
2025-07-02T2200,2341A,119.5388,26.6612,宁德市,宁德市监测站,,30,30,17,9,7,42,,64,49,6,6,4,4,0.3,0.3
2025-07-02T2200,3209A,119.5231,26.6562,宁德市,宁德一中,,20,20,15,3,4,44,,62,50,1,2,3,4,0.3,0.3
2025-07-02T2200,2618A,98.8601,25.8567,怒江傈僳族自治州,州监测站,,29,29,21,18,12,22,,54,45,11,7,9,9,0.5,0.4
2025-07-02T2200,2619A,98.8546,25.8417,怒江傈僳族自治州,泸水一中,,13,,17,9,11,14,,40,31,11,10,6,6,0.4,0.4
2025-07-02T2200,1888A,101.6891,26.571,攀枝花市,弄弄坪,,25,25,44,7,13,50,,77,71,16,22,9,14,0.5,0.7
2025-07-02T2200,1889A,101.5769,26.5928,攀枝花市,河门口,,20,20,32,8,14,51,,84,75,15,15,16,11,1.4,0.9
2025-07-02T2200,1890A,101.7169,26.585,攀枝花市,炳草岗,,27,27,38,6,17,54,,78,71,14,20,10,17,0.6,0.8
2025-07-02T2200,1891A,101.7369,26.5008,攀枝花市,仁和,,16,14,20,8,12,51,,70,68,10,11,14,12,0.5,0.6
2025-07-02T2200,2835A,101.7227,26.567,攀枝花市,四十中小,,28,28,34,13,14,60,,83,77,10,17,21,26,0.6,0.8
2025-07-02T2200,1604A,122.0303,41.1489,盘锦市,开发区,,30,,24,11,12,96,,106,102,17,15,6,6,0.7,1.2
2025-07-02T2200,1605A,122.0485,41.0883,盘锦市,兴隆台,,27,17,16,11,10,84,,95,90,15,13,1,2,0.4,0.4
2025-07-02T2200,1606A,121.8297,41.1028,盘锦市,新生街道,,31,13,15,6,11,98,,114,110,12,10,5,6,0.5,0.5
2025-07-02T2200,1832A,113.3257,33.742,平顶山市,新华旅馆,,33,,15,23,14,59,,85,80,16,17,3,3,0.3,0.3
2025-07-02T2200,1833A,113.2919,33.737,平顶山市,规划设计院,,23,23,20,12,11,57,,92,81,15,15,4,5,0.6,0.7
2025-07-02T2200,1834A,113.182,33.774,平顶山市,平顶山工学院,,18,13,18,3,6,56,,104,90,13,11,5,6,0.4,0.5
2025-07-02T2200,3204A,113.3025,33.73,平顶山市,规划局,,19,19,16,7,7,57,,98,85,18,16,2,2,0.3,0.4
2025-07-02T2200,3594A,112.8867,33.9116,平顶山市,石龙区,,24,8,16,7,10,74,,106,100,8,12,7,7,0.4,0.5
2025-07-02T2200,2656A,106.6692,35.5461,平凉市,聚贤嘉苑,,37,37,41,13,15,56,,82,74,8,12,3,9,0.8,0.9
2025-07-02T2200,2657A,106.7021,35.5307,平凉市,博物馆,,35,35,36,3,5,53,,83,73,13,13,10,10,0.8,0.8
2025-07-02T2200,2347A,114.0997,27.5002,萍乡市,武功山,,13,,5,3,3,40,,82,76,4,4,12,13,0.7,0.6
2025-07-02T2200,2348A,113.8385,27.6434,萍乡市,中医院,,24,24,26,3,8,41,,79,61,5,11,11,15,0.6,0.8
2025-07-02T2200,2349A,113.8493,27.6253,萍乡市,市政府车库,,,17,17,3,13,28,,68,,,6,7,9,0.3,0.4
2025-07-02T2200,2350A,113.8676,27.6435,萍乡市,市环保局,,25,19,32,17,13,35,,81,63,10,14,6,7,0.6,0.7
2025-07-02T2200,2351A,113.866,27.6198,萍乡市,安源区政府,,47,47,20,14,8,44,,77,60,3,5,8,8,0.3,0.5
2025-07-02T2200,2319A,119.0141,25.4325,莆田市,荔城区仓后路,,18,12,16,12,3,35,,54,47,8,6,4,4,0.4,0.5
2025-07-02T2200,2320A,119.0015,25.4553,莆田市,莆田市监测站,,13,11,13,9,3,38,,55,46,7,6,4,4,0.3,0.3
2025-07-02T2200,2321A,119.1119,25.4561,莆田市,涵江区六中,,26,,15,18,4,36,,54,45,7,5,3,3,0.2,0.2
2025-07-02T2200,2322A,119.1013,25.3215,莆田市,秀屿区政府,,20,18,17,14,6,35,,54,45,7,7,3,4,0.4,0.4
2025-07-02T2200,2323A,118.981,25.4792,莆田市,东圳水库,,,,,,,,,,,,,,,,
2025-07-02T2200,2392A,115.0312,35.7636,濮阳市,环保局,,36,13,24,13,13,115,,131,130,9,9,3,3,0.4,0.5
2025-07-02T2200,2394A,115.0574,35.7609,濮阳市,油田运输公司,,,27,28,3,13,,,122,122,12,11,4,4,0.4,0.4
2025-07-02T2200,3021A,115,35.7668,濮阳市,濮水河管理处,,34,21,24,12,15,108,,121,121,12,11,3,3,0.4,0.4
2025-07-02T2200,4216A,115.0924,35.7686,濮阳市,任丘路479号,,37,37,33,15,14,89,,117,114,13,8,6,5,0.3,0.4
2025-07-02T2200,2601A,100.98,22.7633,普洱市,市环保局,,,26,24,3,11,,,58,48,7,6,4,4,0.4,0.6
2025-07-02T2200,2602A,100.9817,22.8322,普洱市,普洱第二中学,,26,26,18,8,13,22,,58,40,10,10,6,6,0.5,0.5
2025-07-02T2200,2262A,131.0518,45.8751,七台河市,新一中,,33,19,17,13,15,105,,111,111,10,9,10,10,0.8,0.9
2025-07-02T2200,3345A,131.0577,45.7879,七台河市,中波台,,24,,10,8,8,76,,75,75,10,15,7,7,0.3,0.3
2025-07-02T2200,3637A,131.0176,45.7761,七台河市,人民广场,,25,20,19,11,10,80,,80,80,8,11,12,13,0.5,0.6
2025-07-02T2200,3684A,130.8781,45.8222,七台河市,新建矿广场,,25,,9,10,8,78,,78,78,9,16,9,8,0.3,0.5
2025-07-02T2200,1779A,123.9305,47.3636,齐齐哈尔市,安居小区,,42,31,23,29,11,73,,110,105,25,13,4,4,0.7,0.7
2025-07-02T2200,1780A,123.9488,47.3386,齐齐哈尔市,中心广场,,33,33,20,3,3,80,,122,118,20,7,7,6,0.6,0.5
2025-07-02T2200,1781A,123.9483,47.3227,齐齐哈尔市,农牧车辆厂,,27,27,22,11,7,78,,113,109,18,8,6,6,0.1,0.1
2025-07-02T2200,1783A,123.945,47.2988,齐齐哈尔市,市环境监测站,,29,22,16,10,6,90,,127,124,10,6,4,4,0.3,0.3
2025-07-02T2200,3662A,123.6333,47.2075,齐齐哈尔市,富区青少年活动中心,颗粒物(PM10),72,94,26,41,10,68,,118,107,30,13,30,11,2.0,0.9
2025-07-02T2200,2591A,107.9783,26.5747,黔东南苗族侗族自治州,市环境监测站,,10,7,8,3,4,30,,37,34,8,5,3,3,0.4,0.4
2025-07-02T2200,2881A,107.8908,26.5311,黔东南苗族侗族自治州,凯里学院,,14,,3,3,5,44,,47,47,8,7,4,4,0.2,0.2
2025-07-02T2200,2593A,107.5228,26.2403,黔南布依族苗族自治州,小围寨,,10,6,5,3,0,31,,34,32,4,3,2,2,0.3,0.3
2025-07-02T2200,3538A,107.5175,26.2978,黔南布依族苗族自治州,沙坝,,9,9,10,3,0,17,,29,25,4,4,5,4,0.6,0.6
2025-07-02T2200,2589A,104.9022,25.0925,黔西南布依族苗族自治州,场坝街,,,9,14,3,6,,,50,50,5,4,4,4,0.2,0.2
2025-07-02T2200,2590A,104.8811,25.0992,黔西南布依族苗族自治州,坪东大道,,27,27,13,8,8,20,,44,39,12,8,1,1,0.1,0.1
2025-07-02T2200,2502A,108.6236,21.9667,钦州市,市环保站,,17,17,14,9,4,34,,62,52,10,8,1,1,0.4,0.4
2025-07-02T2200,2503A,108.6549,21.9481,钦州市,沙埠小学,,20,20,19,12,9,34,,62,50,9,7,1,1,0.4,0.4
2025-07-02T2200,2504A,108.5989,21.7431,钦州市,港区一小,颗粒物(PM10),52,54,27,16,12,26,,56,48,23,14,2,3,0.5,0.5
2025-07-02T2200,3404A,108.5959,21.9633,钦州市,北职校,,20,20,16,14,8,30,,64,52,12,6,3,2,0.4,0.4
2025-07-02T2200,1043A,119.7493,40.0116,秦皇岛市,第一关,,31,31,44,9,27,80,,130,102,8,11,4,4,0.2,0.6
2025-07-02T2200,1044A,119.5897,39.9499,秦皇岛市,监测站,,,,55,,23,,,97,,,11,,4,,0.8
2025-07-02T2200,1046A,119.5251,39.9041,秦皇岛市,建设大厦,,25,25,44,15,22,80,,126,102,11,10,3,4,0.6,1
2025-07-02T2200,3132A,119.610547,39.943889,秦皇岛市,文明里,,30,28,50,3,25,96,,122,103,8,9,3,4,0.1,0.6
2025-07-02T2200,4198A,119.5090,39.8253,秦皇岛市,北戴河轮滑馆,,32,22,46,10,20,102,,119,105,5,8,1,2,0.3,0.7
2025-07-02T2200,1307A,120.6659,36.2403,青岛市,仰口,,37,32,37,18,20,116,,115,114,7,8,7,7,0.6,0.6
2025-07-02T2200,1310A,120.4134,36.0658,青岛市,市南区东部子站,,29,22,26,12,15,90,,126,115,1,5,8,8,0.1,0.2
2025-07-02T2200,1311A,120.3664,36.1032,青岛市,四方区子站,,34,22,29,14,20,107,,147,136,8,10,10,10,0.2,0.2
2025-07-02T2200,1312A,120.2994,36.054,青岛市,市南区西部子站,,27,27,30,10,14,79,,113,106,8,15,8,8,0.5,0.6
2025-07-02T2200,1313A,120.4581,36.0858,青岛市,崂山区子站,,28,24,26,7,12,88,,105,101,5,11,7,7,0.3,0.3
2025-07-02T2200,1315A,120.3999,36.3083,青岛市,城阳区子站,,41,29,35,12,15,131,,144,144,11,13,5,6,0.4,0.4
2025-07-02T2200,1966A,120.0405,35.8735,青岛市,黄岛区4号,,29,29,33,7,16,85,,173,150,11,14,8,10,0.5,0.7
2025-07-02T2200,3362A,120.5014,36.4034,青岛市,即墨2号,,33,33,39,11,19,103,,109,109,9,12,2,2,0.2,0.3
2025-07-02T2200,3642A,120.3503,36.0736,青岛市,市北区南部,,28,20,25,12,16,87,,115,106,7,11,4,5,0.5,0.5
2025-07-02T2200,3643A,120.3948,36.1805,青岛市,李沧区北部,,31,29,32,12,21,97,,132,126,4,9,4,4,0.5,0.6
2025-07-02T2200,4290A,120.1969,35.9546,青岛市,珠江路669号,,27,24,28,7,17,84,,118,109,4,6,6,6,0.3,0.4
2025-07-02T2200,1702A,113.0426,23.691,清远市,环保大楼,颗粒物(PM10),54,58,27,8,8,29,,88,72,34,14,5,6,0.8,0.6
2025-07-02T2200,1703A,113.0208,23.7106,清远市,凤城街办,,24,24,16,9,6,20,,77,61,46,17,6,6,0.5,0.4
2025-07-02T2200,3025A,113.0477,23.6344,清远市,技师学院,,18,18,22,10,9,44,,82,73,22,19,6,7,0.4,0.5
2025-07-02T2200,3318A,112.9903,23.7403,清远市,清新太和,,,22,17,10,7,,,76,74,13,10,7,7,0.5,0.5
2025-07-02T2200,3455A,113.076,23.7198,清远市,清城东城,,15,15,15,8,8,35,,74,62,15,9,7,7,0.5,0.4
2025-07-02T2200,2661A,107.6325,35.7357,庆阳市,庆阳五中,,20,19,18,10,9,64,,87,74,8,7,6,6,0.5,0.4
2025-07-02T2200,2662A,107.6364,35.7067,庆阳市,市环保局,,22,21,19,9,8,68,,90,76,6,5,8,8,0.4,0.4
2025-07-02T2200,1916A,103.7897,25.5035,曲靖市,环境监测站,,23,23,12,3,4,32,,50,47,13,8,6,5,0.5,0.5
2025-07-02T2200,1917A,103.8,25.5364,曲靖市,烟厂办公区,,16,16,8,3,6,43,,51,50,5,4,3,4,0.3,0.6
2025-07-02T2200,3376A,103.7947,25.462,曲靖市,南苑二区,,15,7,8,6,5,47,,55,54,7,6,3,4,0.4,0.4
2025-07-02T2200,3377A,103.7444,25.5261,曲靖市,曲靖师范学院,,13,12,8,3,4,40,,46,44,5,5,6,6,0.2,0.3
2025-07-02T2200,1264A,118.8692,28.9398,衢州市,环保大楼,,22,22,22,11,10,50,,111,84,22,13,4,4,0.4,0.3
2025-07-02T2200,1265A,118.8709,28.9666,衢州市,实验学校,,21,21,21,11,11,47,,112,82,24,12,5,4,0.1,0.2
2025-07-02T2200,1266A,118.8621,28.9808,衢州市,衢州学院,,21,21,19,10,10,49,,109,73,21,15,4,4,0.3,0.3
2025-07-02T2200,1611A,118.5819,24.9117,泉州市,涂山街,,25,25,21,15,8,29,,73,56,12,7,4,2,0.7,0.6
2025-07-02T2200,1612A,118.5972,24.8978,泉州市,津头埔,,20,18,23,14,9,26,,73,53,13,8,3,2,0.6,0.5
2025-07-02T2200,1613A,118.6663,24.9424,泉州市,万安,,25,25,24,14,8,27,,70,52,8,7,3,2,0.5,0.4
2025-07-02T2200,1614A,118.6117,24.9604,泉州市,清源山,,,,,,,,,,,,,,,,
2025-07-02T2200,3529A,118.6333,24.9264,泉州市,城华南路,颗粒物(PM10),55,60,18,14,8,27,,72,56,9,4,5,4,0.5,0.4
2025-07-02T2200,2626A,88.8876,29.2718,日喀则市,日喀则监测站,,30,9,4,3,1,96,,120,116,6,4,15,14,0.3,0.3
2025-07-02T2200,3726A,88.8781,29.2426,日喀则市,林业技术推广中心,,32,6,6,3,1,102,,118,117,2,3,9,8,0.4,0.4
2025-07-02T2200,1659A,119.471,35.4209,日照市,监测站,,36,36,45,24,31,72,,164,144,29,22,5,5,0.5,0.6
2025-07-02T2200,1660A,119.523,35.4216,日照市,市政府广场,,41,41,45,13,26,90,,171,156,19,18,6,7,0.6,0.8
2025-07-02T2200,1661A,119.5587,35.4044,日照市,港务局,,32,29,41,21,34,100,,166,149,14,14,4,4,0.6,0.7
2025-07-02T2200,3507A,119.5328,35.4625,日照市,职业技术学院,,35,34,44,12,27,110,,193,175,11,17,3,6,0.6,0.8
2025-07-02T2200,3604A,119.3266,35.1044,日照市,岚山环保分局,,27,27,37,13,20,86,,174,153,18,22,7,8,0.6,0.7
2025-07-02T2200,1835A,111.1922,34.7752,三门峡市,市政府,,37,37,27,10,15,12,,75,53,41,10,3,3,0.5,0.5
2025-07-02T2200,1836A,111.1587,34.7942,三门峡市,开发区,,21,21,24,14,16,58,,85,74,19,12,4,5,0.3,0.3
2025-07-02T2200,1838A,111.143,34.7955,三门峡市,风景区,,25,21,23,17,13,54,,82,72,7,7,4,4,0.3,0.3
2025-07-02T2200,3039A,111.1911,34.7829,三门峡市,三门峡市第一小学,,,,27,,12,48,,78,69,23,12,5,3,0.5,0.4
2025-07-02T2200,3598A,111.1,34.7167,三门峡市,富达温泉假日酒店,,14,,8,8,13,18,,65,52,27,11,6,6,0.4,0.3
2025-07-02T2200,2324A,117.6211,26.2625,三明市,三钢,,12,12,15,7,9,12,,54,39,21,11,4,7,0.9,1.2
2025-07-02T2200,2325A,117.635,26.2714,三明市,三明二中,,45,,15,31,11,18,,49,38,16,11,1,3,0.6,0.8
2025-07-02T2200,2326A,117.6028,26.2378,三明市,三元区政府,,35,35,16,9,6,16,,59,39,20,9,1,2,0.4,0.4
2025-07-02T2200,2327A,117.7275,26.3108,三明市,洋溪,,,,,,,,,,,,,,,,
2025-07-02T2200,1876A,109.5078,18.2489,三亚市,河东子站,,11,,11,6,6,33,,46,41,4,5,2,2,0.5,0.5
2025-07-02T2200,1877A,109.4964,18.2681,三亚市,河西子站,,12,6,10,3,4,38,,45,42,4,6,2,2,0.4,0.4
2025-07-02T2200,3540A,109.7348,18.3443,三亚市,君悦子站,,,6,11,3,4,,,53,44,,6,,2,,0.3
2025-07-02T2200,2624A,91.7608,29.2313,山南市,山南监测站,,25,15,5,3,3,78,,104,89,6,5,4,3,0.2,0.2
2025-07-02T2200,2625A,91.7706,29.2436,山南市,山南人民医院,,25,14,8,8,5,78,,110,92,5,5,4,4,0.3,0.3
2025-07-02T2200,1674A,116.6794,23.3667,汕头市,金平子站,,14,14,15,9,7,37,,90,78,7,7,3,4,0.5,0.6
2025-07-02T2200,1675A,116.7244,23.3633,汕头市,龙湖子站,,12,7,16,3,6,36,,84,76,5,5,5,6,0.5,0.5
2025-07-02T2200,1676A,116.7258,23.2775,汕头市,濠江子站,,13,11,22,6,7,39,,82,73,4,4,4,4,0.5,0.5
2025-07-02T2200,1677A,116.7519,23.4714,汕头市,澄海子站,,25,25,21,12,9,35,,91,82,6,5,2,4,0.5,0.5
2025-07-02T2200,1678A,116.6092,23.2539,汕头市,潮阳子站,,15,14,19,3,9,48,,90,83,2,4,4,4,0.4,0.5
2025-07-02T2200,3444A,116.454,23.2684,汕头市,潮南峡山,,17,17,24,8,10,41,,86,75,5,9,5,6,0.5,0.6
2025-07-02T2200,3624A,116.4069,23.2533,汕头市,潮南子站,,18,18,24,6,10,40,,88,77,10,12,4,5,0.4,0.5
2025-07-02T2200,1693A,115.3653,22.775,汕尾市,市环保局,,,43,19,3,4,78,,75,75,9,9,3,3,,0.6
2025-07-02T2200,1694A,115.3706,22.7898,汕尾市,市政府,,28,17,16,6,4,88,,83,83,6,7,4,3,0.5,0.5
2025-07-02T2200,1695A,115.3622,22.7925,汕尾市,新城中学,,26,11,16,11,6,81,,78,78,5,6,4,3,0.4,0.4
2025-07-02T2200,2645A,109.9154,33.8715,商洛市,监测站,,28,28,21,13,10,65,,65,63,12,11,6,7,0.5,0.5
2025-07-02T2200,3045A,109.9643,33.8471,商洛市,商州区中学,,24,24,35,8,13,50,,57,52,19,13,3,4,0.4,0.3
2025-07-02T2200,2408A,115.6702,34.4285,商丘市,环境监测站,,25,18,31,11,11,80,,107,103,8,12,2,2,0.3,0.3
2025-07-02T2200,2409A,115.6458,34.4045,商丘市,粮食局,,26,22,20,12,14,82,,114,108,7,9,2,2,0.4,0.3
2025-07-02T2200,2410A,115.6293,34.3948,商丘市,睢阳区环保局,颗粒物(PM10),51,51,31,11,11,73,,108,99,13,12,2,3,0.2,0.2
2025-07-02T2200,3171A,115.6071,34.4465,商丘市,梁园区档案局,,26,13,29,12,10,81,,107,102,8,11,1,1,0.4,0.4
2025-07-02T2200,1141A,121.4,31.238,上海市,普陀,,35,35,28,18,12,54,,133,114,16,15,6,7,0.2,0.2
2025-07-02T2200,1142A,121.478,31.2036,上海市,十五厂,,36,36,25,16,11,41,,114,96,17,9,8,8,0.5,0.5
2025-07-02T2200,1143A,121.467,31.3008,上海市,虹口,,36,36,26,15,10,43,,115,99,19,11,9,9,0.6,0.6
2025-07-02T2200,1147A,121.425,31.2261,上海市,静安监测站,,32,32,25,16,11,41,,111,94,20,15,5,5,0.4,0.4
2025-07-02T2200,1148A,121.703,31.1907,上海市,浦东川沙,,33,33,24,15,10,49,,101,86,12,13,8,8,0.8,0.7
2025-07-02T2200,1149A,121.533,31.2284,上海市,浦东新区监测站,,34,34,22,16,6,42,,108,97,21,9,8,8,0.4,0.4
2025-07-02T2200,1150A,121.577,31.2071,上海市,浦东张江,,,50,30,20,9,,,113,113,20,12,6,6,0.7,0.6
2025-07-02T2200,3265A,121.4316,31.3322,上海市,宝山庙行,,43,43,23,13,9,49,,122,107,21,13,5,6,0.2,0.2
2025-07-02T2200,3266A,121.8791,31.4662,上海市,崇明上实东滩,,22,22,19,14,9,53,,79,68,12,13,2,2,0.7,0.6
2025-07-02T2200,3268A,121.3162,31.2838,上海市,嘉定南翔,,46,46,32,15,9,48,,118,101,13,14,8,7,0.3,0.3
2025-07-02T2200,3269A,121.3359,30.7456,上海市,金山新城,,33,33,24,14,11,54,,116,91,17,18,4,4,0.7,0.7
2025-07-02T2200,3270A,121.4996,31.0739,上海市,闵行浦江,,32,32,24,16,8,52,,108,93,9,8,4,4,0.6,0.6
2025-07-02T2200,3271A,121.2886,31.1663,上海市,青浦徐泾,,32,32,25,15,10,50,,123,105,11,11,6,6,0.4,0.4
2025-07-02T2200,3272A,121.2186,31.0378,上海市,松江图书馆,,27,27,21,17,10,47,,134,113,12,9,7,7,0.4,0.4
2025-07-02T2200,3273A,121.3902,31.2059,上海市,长宁仙霞,,30,30,26,12,9,49,,120,102,12,14,6,8,0.4,0.4
2025-07-02T2200,3274A,121.7965,31.0507,上海市,浦东惠南,,31,31,28,14,10,54,,97,83,18,20,10,10,0.5,0.5
2025-07-02T2200,3544A,121.4891,30.925,上海市,奉贤南桥新城,,33,33,27,19,11,53,,111,89,8,9,7,7,0.9,0.9
2025-07-02T2200,4183A,121.4174,31.16637,上海市,冠生园路458号,,34,34,24,20,12,49,,110,96,12,14,4,4,0.4,0.4
2025-07-02T2200,4205A,121.5419,31.2683,上海市,宁武路151号,,45,45,31,22,12,39,,103,90,26,18,6,7,0.4,0.4
2025-07-02T2200,2381A,118.005,28.4572,上饶市,百草园,,,,,,,,,,,,,,,,
2025-07-02T2200,2382A,117.9756,28.4436,上饶市,市监测站,,28,28,17,14,22,61,,96,92,5,13,2,1,0.6,0.6
2025-07-02T2200,2383A,117.9519,28.4628,上饶市,凤凰光学,,27,27,17,17,13,53,,96,90,22,15,12,10,0.9,0.8
2025-07-02T2200,3685A,117.897,28.4315,上饶市,双创科技城,,31,31,28,16,12,28,,95,84,55,18,5,13,0.9,0.8
2025-07-02T2200,4211A,118.1904,28.4448,上饶市,裕丰大道,,37,37,19,13,8,61,,70,69,9,7,10,6,0.6,0.5
2025-07-02T2200,1669A,113.5824,24.7733,韶关市,市八中,,16,13,36,6,20,49,,86,77,17,13,10,7,0.6,0.8
2025-07-02T2200,1671A,113.5917,24.7972,韶关市,园林处,,,28,28,7,13,,,92,82,13,11,11,7,0.4,0.7
2025-07-02T2200,1673A,113.5971,24.6863,韶关市,曲江监测站,,19,13,30,3,15,58,,94,82,11,16,8,11,0.6,0.9
2025-07-02T2200,2809A,113.6668,24.7756,韶关市,大学路288号,,23,23,24,15,8,49,,69,59,19,10,13,5,1.0,0.5
2025-07-02T2200,3622A,113.5556,24.8082,韶关市,碧湖山庄,,18,18,33,8,21,38,,86,80,16,10,10,9,0.5,0.5
2025-07-02T2200,2462A,111.5239,27.3033,邵阳市,市水土所,,,,,,,,,,,,,,,,
2025-07-02T2200,2464A,111.5283,27.2442,邵阳市,市化工厂,,16,16,14,3,8,50,,66,62,12,8,7,8,0.3,0.3
2025-07-02T2200,2466A,111.4328,27.2272,邵阳市,市环保局,,17,16,16,9,6,53,,70,65,9,8,5,5,0.4,0.4
2025-07-02T2200,4218A,111.4460,27.2472,邵阳市,北塔二期4-26地块,,15,12,14,3,6,45,,62,57,13,11,4,5,0.2,0.2
2025-07-02T2200,4219A,111.4739,27.2282,邵阳市,邵水西路287号,,,,13,28,11,,,67,67,12,9,6,6,0.4,0.3
2025-07-02T2200,1247A,120.6053,29.9928,绍兴市,城东开发委,,24,24,15,10,7,52,,69,60,10,5,4,3,0.4,0.3
2025-07-02T2200,2921A,120.5483,30.0003,绍兴市,树下王站,,22,22,13,12,5,70,,75,73,8,5,4,4,0.3,0.3
