timepoint,stationcode,longitude,latitude,area,positionname,primarypollutant,aqi,pm10,pm10_24h,pm2_5,pm2_5_24h,o3,o3_24h,o3_8h,o3_8h_24h,no2,no2_24h,so2,so2_24h,co,co_24h
2025-07-02T1700,2566A,102.1879,31.914,阿坝藏族羌族自治州,州农科所,,26,26,25,8,9,53,,51,51,20,13,12,12,0.5,0.6
2025-07-02T1700,2568A,102.2502,31.8896,阿坝藏族羌族自治州,马师校,,,,19,8,18,42,,53,53,7,9,6,6,,0.5
2025-07-02T1700,3994A,102.2165,31.9024,阿坝藏族羌族自治州,马尔康中学西区,,20,,13,8,15,62,,62,62,3,5,6,6,0.6,0.6
2025-07-02T1700,2695A,80.292,41.1694,阿克苏地区,电视台,,45,43,61,16,24,143,,117,117,5,14,6,6,0.4,0.5
2025-07-02T1700,2696A,80.2613,41.1551,阿克苏地区,艺术中心,,,36,70,15,32,150,,128,128,,8,3,4,0.3,0.4
2025-07-02T1700,2204A,105.6467,38.8363,阿拉善盟,西城区西花园,,,,18,,12,178,,164,164,9,12,8,7,0.6,0.7
2025-07-02T1700,2205A,105.6985,38.8411,阿拉善盟,蒙二幼,臭氧1小时,65,25,33,3,8,172,,156,156,8,10,8,9,0.5,0.6
2025-07-02T1700,2206A,105.724,38.8516,阿拉善盟,环保局新楼,臭氧1小时,62,12,16,7,8,169,,155,155,6,8,9,10,0.5,0.5
2025-07-02T1700,2708A,88.1264,47.8517,阿勒泰地区,市站,,,,14,,6,102,,92,92,10,10,2,1,,0.4
2025-07-02T1700,2630A,80.1161,32.5,阿里地区,阿里监测站,,36,7,5,3,3,113,,94,94,3,5,1,3,0.2,0.3
2025-07-02T1700,3192A,80.0903,32.5028,阿里地区,阿里藏医院,,35,15,10,6,3,112,,96,96,3,2,4,4,0.4,0.4
2025-07-02T1700,2642A,109.0318,32.6537,安康市,香溪洞,,18,18,17,11,6,57,,57,57,2,6,6,6,0.2,0.2
2025-07-02T1700,2644A,109.0072,32.6975,安康市,汉滨区检察院,,23,20,20,13,10,72,,66,66,3,7,5,5,0.4,0.4
2025-07-02T1700,4054A,109.0325,32.6913,安康市,市邮政管理局,,19,18,20,10,9,58,,56,56,3,7,4,11,0.5,0.5
2025-07-02T1700,2291A,117.0809,30.5177,安庆市,环科院,,,25,20,14,11,95,,106,106,15,21,,3,0.5,0.5
2025-07-02T1700,2292A,117.0331,30.5119,安庆市,马山宾馆,,35,20,20,17,15,112,,116,116,19,25,4,4,0.4,0.4
2025-07-02T1700,2294A,116.9896,30.6145,安庆市,安庆大学,,40,28,24,19,14,125,,121,121,8,16,4,4,0.4,0.4
2025-07-02T1700,3173A,117.0598,30.5351,安庆市,市人大,,41,29,19,16,11,131,,120,120,6,17,3,3,0.4,0.4
2025-07-02T1700,3122A,105.9606,26.2611,安顺市,伍家关,,,,,7,7,47,,45,45,1,2,4,4,0.3,0.4
2025-07-02T1700,3123A,105.9408,26.2431,安顺市,凤凰山,,15,10,9,3,7,48,,47,47,3,4,3,3,0.4,0.5
2025-07-02T1700,3124A,105.9439,26.2564,安顺市,金钟山,,16,9,8,3,4,50,,47,47,2,3,4,4,0.3,0.4
2025-07-02T1700,3125A,105.8983,26.2481,安顺市,娄家坡,,16,6,7,3,4,49,,46,46,1,2,4,4,0.5,0.6
2025-07-02T1700,1818A,114.4839,36.0621,安阳市,棉研所,,,,,,,,,,,,,,,,
2025-07-02T1700,1819A,114.3551,36.1017,安阳市,红庙街,,,37,25,14,9,136,,116,116,,2,3,3,0.1,0.3
2025-07-02T1700,1820A,114.361,36.0681,安阳市,银杏小区,,48,31,24,12,15,151,,127,127,2,2,1,2,0.4,0.4
2025-07-02T1700,3141A,114.3922,36.0878,安阳市,信访局,,49,36,25,17,12,155,,131,131,2,2,3,2,0.7,0.6
2025-07-02T1700,3669A,114.4705,36.0637,安阳市,左辅环卫站,,42,28,21,6,7,134,,110,110,1,3,5,5,0.6,0.5
2025-07-02T1700,3703A,114.2917,36.0949,安阳市,安钢职工学校,,42,39,26,11,14,132,,114,114,2,3,3,4,0.4,0.5
2025-07-02T1700,1748A,123.044,41.1196,鞍山市,深沟寺,,34,28,16,19,6,108,,97,97,11,9,5,5,0.9,1.3
2025-07-02T1700,1749A,123.011,41.0931,鞍山市,太阳城,颗粒物(PM10),52,54,21,29,10,128,,100,100,13,10,6,6,0.9,1.4
2025-07-02T1700,1750A,123.0485,41.1442,鞍山市,太平,,48,48,25,27,13,123,,104,104,17,11,6,5,1.1,1.3
2025-07-02T1700,1751A,122.9642,41.0971,鞍山市,铁西三道街,,43,36,19,30,14,118,,95,95,17,14,6,6,1.0,1.2
2025-07-02T1700,1753A,123.022,41.0821,鞍山市,明达新区,,39,34,17,26,13,122,,99,99,12,9,6,6,0.8,1.3
2025-07-02T1700,1754A,123.1289,41.0228,鞍山市,千山,,,,,,,,,,,,,,,,
2025-07-02T1700,4201A,122.9446,41.0826,鞍山市,兴盛南路290号,颗粒物(PM10),58,66,25,34,12,111,,95,95,21,14,2,2,0.8,0.7
2025-07-02T1700,2195A,107.4212,40.761,巴彦淖尔市,附二中,,47,32,41,12,14,149,,139,139,9,13,7,7,0.6,0.6
2025-07-02T1700,2196A,107.37,40.7372,巴彦淖尔市,市环保大楼,,47,44,45,13,13,149,,139,139,11,11,8,8,0.5,0.4
2025-07-02T1700,1956A,86.1472,41.7538,巴音郭楞蒙古自治州,孔雀公园,,39,34,32,8,13,124,,106,103,2,8,2,2,0.2,0.2
2025-07-02T1700,1957A,86.1972,41.7166,巴音郭楞蒙古自治州,棉纺厂,,46,46,37,3,11,124,,104,104,5,11,3,4,0.2,0.2
2025-07-02T1700,1958A,86.2357,41.7173,巴音郭楞蒙古自治州,经济开发区,,37,20,23,12,7,118,,106,106,2,4,2,3,0.3,0.2
2025-07-02T1700,2914A,106.7677,31.8794,巴中市,苏山坪,,21,14,13,8,7,67,,50,50,4,5,4,4,0.4,0.4
2025-07-02T1700,3181A,106.7768,31.8526,巴中市,市五中,,18,16,16,10,9,56,,41,41,5,7,8,12,0.6,0.6
2025-07-02T1700,3183A,106.7418,31.8654,巴中市,圣泉水务公司,,22,15,16,10,8,69,,49,49,7,9,5,6,0.6,0.7
2025-07-02T1700,3616A,106.7616,31.8344,巴中市,市中心医院,,20,20,16,10,8,57,,45,45,2,9,6,7,0.4,0.5
2025-07-02T1700,2235A,122.7911,45.6077,白城市,洮北区环保局,,44,9,11,7,12,140,,126,126,6,6,5,6,0.3,0.4
2025-07-02T1700,2236A,122.8738,45.5725,白城市,市环保局,,41,31,18,14,9,129,,119,119,3,3,2,5,0.5,0.5
2025-07-02T1700,2231A,126.4219,41.9171,白山市,喜丰,,23,8,22,3,8,72,,67,67,4,10,8,6,0.7,0.7
2025-07-02T1700,2232A,126.4077,41.9419,白山市,环保局,,23,9,17,3,7,73,,69,69,6,10,3,2,0.5,0.6
2025-07-02T1700,2647A,104.1724,36.5446,白银市,第三小学,臭氧1小时,58,45,36,13,24,166,,134,134,11,15,41,20,0.7,0.9
2025-07-02T1700,2648A,104.1465,36.5482,白银市,动力公司,,50,42,34,13,21,159,,126,126,9,15,24,15,0.6,0.7
2025-07-02T1700,2512A,106.6103,23.9011,百色市,市监测站,,,,20,,9,59,,49,49,6,9,4,7,,0.4
2025-07-02T1700,2513A,106.6538,23.8859,百色市,市中心血站,,17,17,18,6,10,53,,46,46,7,9,4,5,0.6,0.6
2025-07-02T1700,3406A,106.6085,23.8798,百色市,祈福高中,,,,22,7,12,63,,47,47,6,10,7,8,0.6,0.6
2025-07-02T1700,2270A,117.396,32.939,蚌埠市,工人疗养院,,40,24,20,6,3,125,,106,106,6,6,4,4,0.3,0.3
2025-07-02T1700,2271A,117.3605,32.9427,蚌埠市,百货大楼,,37,22,23,3,5,118,,96,96,11,11,5,6,0.4,0.4
2025-07-02T1700,2273A,117.4185,32.8911,蚌埠市,蚌埠学院,,36,17,17,6,7,115,,105,105,2,6,6,6,0.3,0.3
2025-07-02T1700,2274A,117.3533,32.9673,蚌埠市,淮上区政府,,38,17,19,6,8,119,,110,110,4,8,5,6,0.4,0.4
2025-07-02T1700,2275A,117.3145,32.8977,蚌埠市,高新区,,32,9,20,3,8,100,,101,101,7,12,6,7,0.4,0.5
2025-07-02T1700,3715A,117.3092,32.9314,蚌埠市,蚌埠田家炳中学,,31,8,22,7,9,97,,100,100,6,10,8,10,0.2,0.3
2025-07-02T1700,1585A,109.8756,40.6532,包头市,市环境监测站,,39,18,25,10,14,124,,105,105,15,24,13,10,0.6,0.6
2025-07-02T1700,1587A,109.9991,40.5842,包头市,包头八中,,38,16,33,9,18,120,,105,105,19,23,17,16,0.8,0.8
2025-07-02T1700,1588A,109.8538,40.6821,包头市,青山宾馆,,39,17,27,8,19,123,,108,108,14,28,9,8,0.4,0.6
2025-07-02T1700,1589A,109.8642,40.6288,包头市,惠龙物流,,38,10,24,9,15,121,,109,109,13,19,10,8,0.6,0.6
2025-07-02T1700,1590A,110.0377,40.5546,包头市,东河鸿龙湾,,41,,28,13,17,129,,115,115,11,23,6,8,0.5,0.6
2025-07-02T1700,3283A,109.9154,40.5685,包头市,滨河大厦,,43,12,24,6,16,136,,122,122,6,16,6,8,0.5,0.6
2025-07-02T1700,3419A,109.9447,40.6261,包头市,包头市委党校,,40,16,23,14,17,125,,110,110,15,21,17,15,0.6,0.6
2025-07-02T1700,3683A,109.8331,40.6576,包头市,昆区政府,,40,14,27,9,17,125,,109,109,14,20,12,8,0.7,0.7
2025-07-02T1700,1930A,107.185,34.3063,宝鸡市,庙沟村,,31,31,23,18,12,71,,79,73,7,10,4,5,0.4,0.3
2025-07-02T1700,1931A,107.0708,34.3017,宝鸡市,竹园沟,,25,25,24,17,12,57,,65,65,9,12,6,6,0.5,0.5
2025-07-02T1700,1932A,107.1906,34.3672,宝鸡市,三陆医院,,42,42,28,29,17,72,,76,76,24,18,6,7,0.6,0.5
2025-07-02T1700,1933A,107.1431,34.3547,宝鸡市,监测站,,39,39,30,24,18,79,,82,82,15,14,7,7,0.4,0.4
2025-07-02T1700,1934A,107.1186,34.3739,宝鸡市,技工学校,,33,32,29,23,18,97,,87,87,9,8,8,8,0.6,0.5
2025-07-02T1700,1935A,107.3906,34.3528,宝鸡市,陈仓区环保局家属楼,,,,,,,,,,,,,,,,
2025-07-02T1700,1936A,107.2058,34.3497,宝鸡市,文理学院,,,,31,,23,,,91,,,14,,6,,0.5
2025-07-02T1700,1937A,107.2386,34.3622,宝鸡市,三迪小学,细颗粒物(PM2.5),58,,27,41,21,86,,82,82,20,17,7,6,0.6,0.5
2025-07-02T1700,1051A,115.493,38.8632,保定市,游泳馆,,24,24,37,12,20,49,,70,70,4,18,4,4,0.0,0.1
2025-07-02T1700,1052A,115.5213,38.8959,保定市,华电二区,,28,25,34,19,23,77,,102,102,9,19,3,2,0.6,0.6
2025-07-02T1700,1053A,115.4713,38.9108,保定市,接待中心,,26,23,41,8,22,81,,98,98,2,15,3,3,0.2,0.3
2025-07-02T1700,1054A,115.4612,38.8416,保定市,地表水厂,,40,40,52,12,15,90,,108,108,6,20,3,3,0.5,0.5
2025-07-02T1700,3581A,115.31981,38.95208,保定市,满城区生态环境分局,,25,24,45,17,25,66,,90,87,7,12,1,3,0.0,0.2
2025-07-02T1700,3582A,115.47694,38.76408,保定市,清苑区第二中学,,28,20,43,19,26,79,,95,95,6,15,3,3,0.3,0.4
2025-07-02T1700,3583A,115.62909,39.02311,保定市,徐水物探局,,17,17,39,3,17,53,,78,78,7,18,3,2,0.4,0.5
2025-07-02T1700,4004A,115.4202,38.8656,保定市,双鹰农机,,30,,29,21,24,62,,73,73,6,19,2,2,0.2,0.3
2025-07-02T1700,4034A,115.5150,38.8590,保定市,植保所站,,26,26,38,17,20,80,,97,97,8,21,5,4,0.1,0.2
2025-07-02T1700,2594A,99.1678,25.1081,保山市,市环境监测站,,13,8,16,3,14,40,,37,37,6,8,4,4,0.6,0.5
2025-07-02T1700,2595A,99.1711,25.1328,保山市,市环保局,,15,14,17,10,7,41,,41,41,7,5,6,6,0.4,0.4
2025-07-02T1700,1866A,109.2262,21.588,北海市,牛尾岭水库,,28,20,13,12,7,89,,65,65,3,7,2,5,0.5,0.5
2025-07-02T1700,1867A,109.1436,21.4086,北海市,海滩公园,,38,38,13,3,3,50,,56,56,10,5,2,2,0.8,0.6
2025-07-02T1700,1868A,109.0981,21.4661,北海市,新市环保局,,19,19,14,12,8,58,,58,58,10,6,3,3,0.5,0.4
2025-07-02T1700,1869A,109.1778,21.5233,北海市,北海工业园,,31,31,20,10,10,54,,58,58,10,9,5,5,0.5,0.5
2025-07-02T1700,3400A,109.1911,21.4415,北海市,龙潭自来水厂,,22,20,13,15,8,59,,60,60,9,4,6,4,0.5,0.4
2025-07-02T1700,1001A,116.3621,39.8784,北京市,万寿西宫,,42,18,29,16,25,133,,140,140,9,18,3,3,0.5,0.5
2025-07-02T1700,1002A,116.2202,40.2915,北京市,定陵,,50,32,15,17,21,159,,140,140,1,2,2,3,0.4,0.4
2025-07-02T1700,1003A,116.4174,39.9289,北京市,东四,,44,14,29,12,20,140,,149,149,11,20,2,3,0.6,0.4
2025-07-02T1700,1004A,116.4072,39.8863,北京市,天坛,,42,26,33,21,22,132,,135,135,16,18,3,3,0.6,0.6
2025-07-02T1700,1005A,116.462,39.9365,北京市,农展馆,,41,21,33,14,22,129,,125,125,8,18,3,3,0.9,0.9
2025-07-02T1700,1006A,116.3392,39.9295,北京市,官园,,41,20,32,12,20,129,,135,135,11,18,3,3,0.5,0.5
2025-07-02T1700,1007A,116.2878,39.9611,北京市,海淀万柳,,40,19,36,11,23,126,,128,128,11,22,5,4,0.5,0.5
2025-07-02T1700,1008A,116.6636,40.135,北京市,顺义新城,,45,28,31,17,19,141,,120,120,8,12,4,4,0.4,0.3
2025-07-02T1700,1009A,116.6275,40.3275,北京市,怀柔镇,,49,23,30,16,22,155,,132,132,7,12,3,3,0.4,0.3
2025-07-02T1700,1010A,116.2296,40.217,北京市,昌平镇,,50,29,30,21,17,158,,121,121,7,9,5,4,0.2,0.2
2025-07-02T1700,1011A,116.3966,39.9821,北京市,奥体中心,,45,22,32,14,19,141,,128,128,6,15,3,3,0.5,0.5
2025-07-02T1700,3281A,115.9718,40.4529,北京市,延庆夏都,臭氧1小时,63,23,25,17,19,170,,144,144,5,6,4,4,0.5,0.5
2025-07-02T1700,3418A,116.8336,40.4095,北京市,密云新城,,44,23,27,19,18,139,,124,124,2,5,1,1,0.4,0.4
2025-07-02T1700,3671A,116.088,39.9726,北京市,门头沟三家店,,41,22,35,13,23,130,,132,132,9,15,3,3,0.6,0.6
2025-07-02T1700,3672A,116.1541,39.8204,北京市,丰台云岗,,42,13,34,11,20,133,,139,139,3,15,3,2,0.3,0.3
2025-07-02T1700,3673A,116.6804,39.9081,北京市,通州东关,,43,42,41,29,27,135,,128,128,11,18,1,2,0.7,0.6
2025-07-02T1700,3674A,115.9577,39.7603,北京市,房山燕山,,42,34,31,21,24,133,,128,128,8,8,1,1,0.4,0.5
2025-07-02T1700,3675A,116.4672,39.7733,北京市,大兴旧宫,,37,,29,23,21,116,,118,117,6,16,1,2,0.6,0.7
2025-07-02T1700,3694A,115.986,40.4563,北京市,延庆石河营,臭氧1小时,57,24,25,14,19,165,,134,134,6,7,2,2,0.3,0.3
2025-07-02T1700,3695A,116.6151,40.3053,北京市,怀柔新城,,,,18,21,21,131,,111,111,6,7,2,1,0.8,0.7
2025-07-02T1700,3696A,116.2545,39.8768,北京市,丰台小屯,,39,13,31,8,22,122,,129,129,5,12,1,1,0.4,0.4
2025-07-02T1700,3697A,116.84,40.3844,北京市,密云镇,,41,16,24,15,20,130,,116,116,3,9,3,2,0.4,0.4
2025-07-02T1700,4182A,116.1942,39.9158,北京市,八角北路9号,,43,15,42,8,21,136,,144,144,10,23,1,1,0.2,0.3
2025-07-02T1700,4194A,117.0790,40.1518,北京市,洳河巡河路,,48,31,32,22,23,153,,120,120,3,2,2,2,0.5,0.4
2025-07-02T1700,1761A,123.8275,41.3064,本溪市,大峪,,25,12,11,11,7,77,,79,79,3,7,5,5,0.5,0.6
2025-07-02T1700,1762A,123.7567,41.3325,本溪市,溪湖,,25,16,16,9,9,80,,70,70,4,10,4,6,0.7,1.3
2025-07-02T1700,1763A,123.7169,41.3094,本溪市,彩屯,,20,17,19,12,11,63,,60,60,20,20,7,7,1.9,1.5
2025-07-02T1700,1764A,123.7669,41.2864,本溪市,东明,,28,28,12,10,6,77,,74,74,8,8,4,4,0.6,0.6
2025-07-02T1700,1765A,123.7992,41.2664,本溪市,新立屯,,27,6,10,3,3,86,,82,82,7,8,4,4,0.5,0.5
2025-07-02T1700,1766A,123.8142,41.3472,本溪市,威宁,,40,40,54,10,7,76,,77,77,3,7,6,6,0.3,0.4
2025-07-02T1700,2587A,105.2864,27.3125,毕节市,八中,,16,6,7,6,7,49,,46,46,4,5,4,4,0.3,0.4
2025-07-02T1700,2588A,105.31,27.2944,毕节市,师专,,16,8,7,6,5,49,,45,45,7,8,3,4,0.4,0.4
2025-07-02T1700,4263A,105.3688,27.3598,毕节市,工业大道,,17,7,5,3,2,54,,51,51,6,8,6,6,0.5,0.6
2025-07-02T1700,1629A,118.0018,37.3617,滨州市,第二水厂,,35,14,18,12,13,109,,115,115,2,8,3,1,0.4,0.6
2025-07-02T1700,1630A,117.9776,37.393,滨州市,北中新校,,,24,23,12,13,119,,,,8,9,1,6,,0.6
2025-07-02T1700,3514A,117.9378,37.3956,滨州市,中海酒店,,39,17,15,14,16,124,,127,127,15,17,7,6,0.8,0.7
2025-07-02T1700,3515A,117.9378,37.3553,滨州市,开发区一中,,27,27,18,14,14,76,,56,,12,14,9,9,0.5,0.5
2025-07-02T1700,3516A,118.0917,37.694,滨州市,金海六路,,35,24,15,12,10,110,,105,105,6,10,8,8,0.2,0.2
2025-07-02T1700,4028A,117.9956,37.3753,滨州市,滨州市西街道办事处,,40,19,14,12,14,125,,143,140,5,8,2,2,0.4,0.5
2025-07-02T1700,2311A,115.8072,33.8399,亳州市,污水处理厂,,34,17,15,3,7,106,,103,103,4,10,4,4,0.4,0.4
2025-07-02T1700,2312A,115.7789,33.8518,亳州市,三国揽胜宫,,33,13,19,3,5,105,,100,100,5,9,3,2,0.3,0.4
2025-07-02T1700,3332A,115.7633,33.8034,亳州市,亳州学院,,35,,8,3,8,109,,106,106,3,10,2,2,0.3,0.4
2025-07-02T1700,2693A,82.0485,44.8556,博尔塔拉蒙古自治州,市党校,,36,16,26,15,14,115,,99,99,5,10,2,3,0.0,0
2025-07-02T1700,2694A,82.0806,44.8969,博尔塔拉蒙古自治州,市环保局,,35,20,37,11,11,112,,97,97,2,7,2,2,0.2,0.2
2025-07-02T1700,1071A,116.8842,38.2991,沧州市,沧县城建局,,25,25,28,17,22,76,,79,79,7,14,3,2,0.5,0.4
2025-07-02T1700,1072A,116.8584,38.3254,沧州市,电视转播站,,26,26,30,3,16,74,,67,67,7,13,3,5,0.2,0.3
2025-07-02T1700,1073A,116.8709,38.3228,沧州市,市环保局,,32,32,33,15,21,64,,62,62,10,11,3,3,0.2,0.3
2025-07-02T1700,3324A,116.8136,38.3004,沧州市,河北水利电力学院,,33,,20,8,15,105,,106,106,7,11,2,2,0.1,0.2
2025-07-02T1700,2622A,97.1806,31.1273,昌都市,昌都监测站,,16,8,11,3,8,49,,43,43,4,5,6,6,0.2,0.2
2025-07-02T1700,3719A,97.1714,31.1406,昌都市,昌都会议中心,,18,15,15,6,8,55,,48,48,6,4,6,6,0.1,0.1
2025-07-02T1700,2690A,88.1236,43.8886,昌吉回族自治州,天山天池,,34,15,18,3,8,108,,102,102,4,6,4,5,0.6,0.6
2025-07-02T1700,2692A,87.2717,44.0297,昌吉回族自治州,新区政务中心,,39,15,20,3,6,122,,108,108,6,7,3,2,0.2,0.3
2025-07-02T1700,3613A,87.3095,44.0142,昌吉回族自治州,亚心广场,,36,17,26,12,6,115,,104,104,4,9,5,6,0.2,0.2
2025-07-02T1700,1120A,125.2863,43.9027,长春市,客车厂,,39,27,22,13,12,124,,112,112,9,12,3,3,0.4,0.4
2025-07-02T1700,1121A,125.2841,43.8463,长春市,邮电学院,,40,34,22,13,12,128,,116,116,8,11,2,2,0.5,0.4
2025-07-02T1700,1122A,125.3716,43.8772,长春市,劳动公园,,,,,,,,,,,,,,,,
2025-07-02T1700,1123A,125.3297,43.8805,长春市,园林处,,40,26,22,10,13,126,,116,116,7,9,4,4,0.7,0.5
2025-07-02T1700,1124A,125.4605,43.79,长春市,净月潭,,35,23,19,12,8,112,,98,98,4,6,5,5,0.5,0.4
2025-07-02T1700,1125A,125.7194,43.515,长春市,甩湾子,,31,22,17,9,7,98,,88,88,10,11,1,1,1.0,0.9
2025-07-02T1700,1126A,125.3863,43.8447,长春市,经开区环卫处,,44,44,30,22,11,111,,102,102,7,8,5,5,0.5,0.4
2025-07-02T1700,1127A,125.245,43.7783,长春市,高新区管委会,,39,29,20,15,11,124,,114,114,6,9,2,2,0.5,0.4
2025-07-02T1700,1128A,125.1761,43.8325,长春市,岱山公园,,38,30,22,14,12,119,,107,107,9,14,2,2,0.4,0.3
2025-07-02T1700,4281A,125.3346,43.9164,长春市,北亚泰大街1068号,,41,33,26,14,13,130,,118,118,10,14,2,2,0.6,0.6
2025-07-02T1700,1335A,113.0833,28.2325,长沙市,经开区环保局,,21,8,15,3,5,65,,66,66,4,8,4,4,0.2,0.3
2025-07-02T1700,1336A,112.8872,28.2189,长沙市,高开区环保局,,23,17,20,3,5,73,,78,78,4,6,1,3,0.4,0.5
2025-07-02T1700,1337A,113.0792,28.2053,长沙市,马坡岭,,21,12,18,3,7,67,,67,67,1,9,4,4,0.4,0.4
2025-07-02T1700,1338A,112.9394,28.19,长沙市,湖南师范大学,,22,16,17,6,8,69,,72,72,1,7,2,3,0.4,0.4
2025-07-02T1700,1339A,113.0178,28.1322,长沙市,雨花区环保局,,21,10,14,3,5,65,,65,65,1,5,5,6,0.3,0.4
2025-07-02T1700,1340A,112.9792,28.2597,长沙市,伍家岭,,24,16,17,3,6,74,,74,74,3,6,3,4,0.4,0.4
2025-07-02T1700,1341A,113.0014,28.1944,长沙市,火车新站,,21,10,16,3,4,65,,65,65,2,6,6,8,0.4,0.4
2025-07-02T1700,1342A,112.9844,28.1178,长沙市,天心区环保局,,,13,15,3,7,72,,72,72,,9,1,2,0,0
2025-07-02T1700,1343A,112.8908,28.1308,长沙市,湖南中医药大学,,23,20,19,16,10,70,,75,75,2,7,4,5,0.5,0.6
2025-07-02T1700,1344A,112.9581,28.3611,长沙市,沙坪,,27,14,15,6,6,86,,81,81,6,12,4,4,0.4,0.4
2025-07-02T1700,1727A,113.1147,36.1547,长治市,清华站,,30,18,15,7,8,94,,88,88,6,6,6,6,0.5,0.5
2025-07-02T1700,1730A,113.0886,36.2125,长治市,审计局,,30,25,17,9,7,93,,89,89,8,8,8,8,0.6,0.6
2025-07-02T1700,1731A,113.0844,36.1856,长治市,长治八中,,31,22,14,13,13,98,,94,94,5,6,10,10,0.4,0.4
2025-07-02T1700,2845A,113.1569,36.1911,长治市,德盛苑,,29,18,16,7,6,90,,86,86,6,6,7,7,0.6,0.7
2025-07-02T1700,3568A,113.06,36.0464,长治市,向阳小学,,,33,42,14,11,107,,158,138,7,7,,7,0.8,0.8
2025-07-02T1700,3569A,112.8792,36.3144,长治市,屯留一中,,32,,27,22,23,90,,94,94,12,13,5,6,0.2,0.2
2025-07-02T1700,4189A,113.1131,36.19948,长治市,英华南巷50号,,29,20,17,7,8,91,,88,88,7,8,7,7,0.5,0.6
2025-07-02T1700,4190A,113.2367,36.3344,长治市,学府街1号,,27,25,22,7,10,86,,92,92,10,17,2,3,0.4,0.5
2025-07-02T1700,1854A,111.6975,28.9703,常德市,市二中,,24,13,14,7,8,74,,74,74,11,9,5,5,0.7,0.7
2025-07-02T1700,1857A,111.7158,29.1456,常德市,白鹤山,,,,,,,,,,,,,,,,
2025-07-02T1700,3138A,111.7153,29.0289,常德市,武陵区永安,,25,,14,6,8,78,,76,76,2,8,3,4,0.3,0.3
2025-07-02T1700,3139A,111.6892,28.9881,常德市,鼎城区玉霞,,24,12,13,7,8,74,,72,72,8,11,4,6,0.3,0.4
2025-07-02T1700,3140A,111.6625,29.0531,常德市,武陵区长庚,,,13,12,,8,78,,74,74,,7,3,4,0.3,0.4
2025-07-02T1700,1196A,119.9633,31.762,常州市,市监测站,颗粒物(PM10),65,80,40,16,15,157,,140,140,19,22,10,10,0.5,0.4
2025-07-02T1700,1200A,119.9468,31.7069,常州市,武进监测站,,43,29,26,11,12,136,,127,127,27,23,13,14,0.6,0.6
2025-07-02T1700,1201A,119.9255,31.9087,常州市,安家,,46,38,36,23,15,147,,159,159,20,21,8,8,0.5,0.6
2025-07-02T1700,3002A,119.9805,31.8174,常州市,行政中心,,46,41,30,19,17,147,,136,136,8,13,10,10,0.3,0.4
2025-07-02T1700,3003A,120.0522,31.7748,常州市,经开区,臭氧1小时,52,42,39,11,10,161,,151,151,10,15,6,7,0.3,0.4
2025-07-02T1700,3010A,119.9025,31.7964,常州市,钟楼,,,26,28,11,13,119,,123,123,11,12,,5,0.3,0.4
2025-07-02T1700,3429A,119.8598,31.7066,常州市,武进经发区,,39,28,35,14,15,124,,128,128,3,11,6,8,0.7,0.7
2025-07-02T1700,3430A,119.5826,31.7245,常州市,金坛城区,,41,24,31,17,16,131,,124,124,7,13,6,6,0.3,0.4
2025-07-02T1700,2220A,120.4318,41.5881,朝阳市,西梁,,40,22,26,15,17,126,,107,107,10,11,5,8,0.7,0.8
2025-07-02T1700,2221A,120.4521,41.5646,朝阳市,河畔小区,,43,30,23,17,15,135,,114,114,7,8,6,6,0.7,0.6
2025-07-02T1700,2222A,120.4176,41.5648,朝阳市,八里堡,,43,39,26,16,17,135,,114,114,9,12,1,2,0.7,0.6
2025-07-02T1700,2223A,120.3806,41.5969,朝阳市,农业园区,,43,22,23,16,14,136,,120,120,9,11,4,4,0.5,0.6
2025-07-02T1700,1705A,116.6367,23.6719,潮州市,西园路,,36,,23,25,7,110,,72,72,9,7,4,4,0.5,0.4
2025-07-02T1700,3026A,116.6183,23.6608,潮州市,市政府,,37,37,21,7,5,102,,69,69,6,4,2,3,0.7,0.7
2025-07-02T1700,4036A,116.6461,23.6761,潮州市,金山,,42,42,21,11,11,116,,74,74,7,6,6,5,0.5,0.4
2025-07-02T1700,2472A,113.0073,25.9061,郴州市,马头岭,,17,11,13,3,7,54,,48,48,3,9,8,8,0.4,0.4
2025-07-02T1700,2473A,113.0116,25.8226,郴州市,市职中,,18,,10,7,6,55,,46,46,3,6,6,6,0.5,0.5
2025-07-02T1700,2475A,113.0383,25.8071,郴州市,市审计局,,19,6,8,3,5,58,,48,48,2,5,7,9,0.2,0.3
2025-07-02T1700,2476A,113.0348,25.7759,郴州市,市环保局,,17,7,11,7,2,54,,46,46,8,11,11,12,0.2,0.2
2025-07-02T1700,4252A,113.0138,25.8011,郴州市,好美居路49号,,19,10,11,3,5,60,,50,50,3,6,4,6,0.5,0.4
2025-07-02T1700,1431A,103.9728,30.7236,成都市,金泉两河,,27,23,23,3,11,86,,80,75,13,14,4,4,0.4,0.5
2025-07-02T1700,1432A,104.176,30.6872,成都市,十里店,,36,36,34,3,16,83,,76,76,16,16,5,4,0.6,0.6
2025-07-02T1700,1433A,104.079,30.5706,成都市,三瓦窑,,45,45,26,23,16,88,,87,87,18,17,4,4,0.7,0.5
2025-07-02T1700,1434A,104.1114,30.63,成都市,沙河铺,,44,44,33,12,18,69,,71,71,18,16,5,5,0.6,0.5
2025-07-02T1700,1437A,104.0786,30.6531,成都市,君平街,,32,32,30,12,16,88,,87,85,16,13,6,6,0.8,0.7
2025-07-02T1700,1438A,103.613,31.0283,成都市,灵岩寺,,,,,,,,,,,,,,,,
2025-07-02T1700,2880A,104.0239,30.65639,成都市,大石西路,,25,20,32,11,17,80,,82,74,16,14,5,4,0.8,0.8
2025-07-02T1700,3136A,104.2725,30.5589,成都市,龙泉驿区区政府,,41,41,27,22,16,84,,84,84,21,19,4,5,0.8,0.7
2025-07-02T1700,3357A,104.0106,30.6931,成都市,金博路,,26,8,17,3,8,83,,76,71,13,15,5,5,0.6,0.6
2025-07-02T1700,3359A,104.0578,30.5225,成都市,华阳,,41,41,25,27,19,79,,83,83,22,15,7,7,0.7,0.6
2025-07-02T1700,3488A,104.3853,30.7453,成都市,青白江技师分院,,40,39,31,28,20,67,,71,71,19,19,6,4,0.8,0.8
2025-07-02T1700,3489A,104.0789,30.4072,成都市,科学城,,43,43,26,22,16,105,,93,93,18,14,4,4,0.6,0.5
2025-07-02T1700,4011A,103.8506,30.6947,成都市,光华大道三段,,24,6,23,3,15,76,,92,77,14,11,5,4,0.7,0.7
2025-07-02T1700,4224A,104.2433,30.5353,成都市,鲸龙路1057号,颗粒物(PM10),59,68,44,41,29,74,,76,76,25,19,7,8,0.7,0.6
2025-07-02T1700,1062A,117.9531,40.9081,承德市,铁路,,35,35,29,3,15,106,,109,109,11,13,2,2,0.4,0.4
2025-07-02T1700,1063A,117.9392,40.9763,承德市,中国银行,,40,,32,28,18,126,,126,126,5,9,3,3,0.4,0.4
2025-07-02T1700,1064A,117.9503,40.928,承德市,开发区,,42,,14,29,33,119,,124,124,10,13,5,5,0.4,0.4
2025-07-02T1700,1065A,117.8051,40.9655,承德市,文化中心,,43,36,39,30,21,131,,143,143,5,14,3,7,0.4,0.6
2025-07-02T1700,1066A,117.9268,41.0026,承德市,离宫,,31,31,27,14,13,91,,113,113,7,8,1,2,0.4,0.4
2025-07-02T1700,2314A,117.47,30.6618,池州市,池州学院,,37,25,20,16,12,116,,106,106,4,7,7,7,0.4,0.4
2025-07-02T1700,3237A,117.4918,30.6617,池州市,展览馆,,34,21,19,10,9,107,,100,100,5,9,6,5,0.7,0.6
2025-07-02T1700,3333A,117.5627,30.695,池州市,第八中学,,41,22,19,9,10,130,,112,112,5,9,6,6,0.3,0.3
2025-07-02T1700,3334A,117.5038,30.6243,池州市,第十二中学,,,23,21,13,11,104,,120,118,5,12,4,4,,0.8
2025-07-02T1700,1744A,118.9233,42.2816,赤峰市,松山一中,,44,19,17,3,9,140,,135,135,9,11,10,8,0.5,0.6
2025-07-02T1700,1745A,118.9576,42.2728,赤峰市,哈达街,,41,11,21,3,8,131,,127,127,14,13,14,14,0.6,0.6
2025-07-02T1700,1746A,118.8788,42.2554,赤峰市,天义路,,43,12,14,8,11,135,,128,128,12,10,8,8,0.4,0.4
2025-07-02T1700,3058A,119.2658,42.0353,赤峰市,银河街,,,17,24,10,17,110,,112,112,,10,11,14,0.5,0.6
2025-07-02T1700,3286A,118.9359,42.3147,赤峰市,桥北物流园区,,40,,19,26,23,127,,126,126,13,9,8,8,0.3,0.6
2025-07-02T1700,2521A,107.3476,22.4136,崇左市,市环保局江州分局,,18,13,13,3,6,55,,48,48,4,6,6,6,0.6,0.7
2025-07-02T1700,4256A,107.3750,22.3736,崇左市,石景林东路7号,,19,17,8,6,4,60,,54,54,6,7,3,4,0.5,0.5
2025-07-02T1700,2298A,118.3093,32.3153,滁州市,老年大学,,42,30,28,19,17,133,,126,126,4,7,9,4,0.3,0.2
2025-07-02T1700,2299A,118.3244,32.2786,滁州市,人大宾馆,,46,,17,21,17,145,,147,147,6,10,5,5,0.2,0.2
2025-07-02T1700,3207A,118.3118,32.3038,滁州市,市政府原办公楼,细颗粒物(PM2.5),103,,23,77,24,130,,126,126,3,10,6,6,0.4,0.4
2025-07-02T1700,3331A,118.3267,32.2634,滁州市,图书馆,,39,29,22,23,17,122,,124,124,2,4,8,8,0.4,0.3
2025-07-02T1700,2605A,101.5482,25.0441,楚雄彝族自治州,州环境监测站,,18,12,13,3,8,56,,59,59,4,6,8,8,0.4,0.5
2025-07-02T1700,2606A,101.538,25.0492,楚雄彝族自治州,市经济开发区,,,12,19,3,9,54,,56,56,,7,6,7,,0.6
2025-07-02T1700,2548A,107.5277,31.2827,达州市,达州职业技术学院,,23,18,21,3,4,71,,60,60,2,10,7,7,0.4,0.4
2025-07-02T1700,2549A,107.5086,31.2186,达州市,市环境监测站,,22,14,20,3,0,70,,55,55,11,19,5,5,0.2,0.3
2025-07-02T1700,2550A,107.4988,31.2132,达州市,凤凰小区,,22,9,18,3,2,68,,59,59,9,15,5,5,0.1,0.2
2025-07-02T1700,2551A,107.5082,31.1986,达州市,达县机关宾馆,,22,9,14,3,4,68,,60,60,10,15,6,6,0.2,0.3
2025-07-02T1700,2552A,107.4644,31.2124,达州市,市政中心,,,12,19,,1,59,,58,58,6,12,2,3,0.3,0.5
2025-07-02T1700,2614A,100.1542,25.7054,大理白族自治州,大理市环境监测站,,29,,15,20,15,57,,56,56,9,10,5,5,0.6,0.6
2025-07-02T1700,2615A,100.2171,25.5811,大理白族自治州,大理古城,,26,,20,15,13,81,,78,78,5,8,5,5,0.7,0.7
2025-07-02T1700,1109A,121.612,38.9741,大连市,甘井子,,33,16,14,9,6,105,,83,83,14,23,6,12,0.7,0.6
2025-07-02T1700,1110A,121.565,38.9511,大连市,周水子,,39,16,14,11,9,124,,86,86,11,16,4,5,0.4,0.3
2025-07-02T1700,1111A,121.5637,38.8845,大连市,星海三站,,41,,16,23,7,129,,98,98,7,6,5,4,0.4,0.3
2025-07-02T1700,1112A,121.6302,38.9117,大连市,青泥洼桥,,38,22,8,17,6,120,,97,97,8,10,5,5,0.8,0.7
2025-07-02T1700,1113A,121.6251,38.8638,大连市,傅家庄,,37,,13,20,6,117,,98,98,13,10,10,11,0.2,0.1
2025-07-02T1700,1114A,121.5213,38.8661,大连市,七贤岭,,42,,12,26,6,134,,109,109,14,7,7,10,0.3,0.5
2025-07-02T1700,1115A,121.2529,38.8061,大连市,旅顺,,30,25,10,21,6,96,,81,81,13,11,4,4,0.3,0.2
2025-07-02T1700,1116A,121.7485,39.1311,大连市,金州,,36,15,10,14,7,114,,83,83,17,15,8,7,0.3,0.2
2025-07-02T1700,1117A,121.7811,39.0496,大连市,开发区,,35,,15,18,8,110,,87,87,34,25,17,15,0.2,0.2
2025-07-02T1700,1118A,121.9762,39.0631,大连市,双D港,,38,16,11,14,5,120,,80,80,6,15,10,10,0.1,0.3
2025-07-02T1700,1789A,124.81117,46.03138,大庆市,大同区,颗粒物(PM10),55,59,36,16,14,136,,114,114,7,7,7,6,0.6,0.6
2025-07-02T1700,1790A,125.129,46.533,大庆市,龙凤区,,43,33,25,7,16,137,,130,130,8,7,5,5,0.5,0.4
2025-07-02T1700,1791A,124.902,46.408,大庆市,红岗区,,50,29,22,8,17,157,,138,138,7,6,10,9,0.5,0.6
2025-07-02T1700,1792A,125.153,46.586,大庆市,萨尔图区,,,54,31,13,10,124,,114,114,,9,,8,0.5,0.5
2025-07-02T1700,1793A,124.9042,46.6215,大庆市,让胡路区,,46,21,22,7,18,146,,125,125,9,7,7,6,0.2,0.2
2025-07-02T1700,3481A,125.141,46.634,大庆市,萨区政府监测点,,48,42,29,7,7,153,,134,134,8,6,7,6,0.4,0.3
2025-07-02T1700,1721A,113.3819,40.1097,大同市,果树场,,,,,,,,,,,,,,,,
2025-07-02T1700,1723A,113.2994,40.0758,大同市,云冈宾馆,,35,33,35,14,16,110,,125,125,20,21,6,6,0.5,0.5
2025-07-02T1700,1724A,113.3444,40.0917,大同市,大同大学,,30,27,28,16,16,96,,130,127,29,21,9,10,0.4,0.4
2025-07-02T1700,1725A,113.2661,40.1269,大同市,安家小村,,35,29,36,13,12,112,,131,131,25,19,6,7,1.1,0.6
2025-07-02T1700,1726A,113.2711,40.0844,大同市,教育学院,,35,27,37,10,20,112,,127,127,25,26,7,8,0.4,0.5
2025-07-02T1700,3282A,113.3397,40.0597,大同市,大同市卫生学校,,,30,35,15,16,111,,120,119,16,22,7,8,,0.7
2025-07-02T1700,3565A,113.1367,40.1122,大同市,云冈站,,32,31,42,22,18,98,,121,120,19,20,4,6,0.5,0.6
2025-07-02T1700,3566A,113.1186,40.2556,大同市,图书馆,,35,,31,22,18,109,,122,122,15,14,8,8,0.8,0.7
2025-07-02T1700,3567A,113.5931,40.0461,大同市,区一中,,35,24,20,15,13,111,,133,131,8,10,10,12,0.4,0.4
2025-07-02T1700,4199A,113.2798,40.0997,大同市,魏都大道141号,,36,25,42,11,17,115,,129,129,24,23,7,8,0.7,0.7
2025-07-02T1700,2269A,124.1069,50.4097,大兴安岭地区,科技局,,23,21,22,9,8,71,,85,83,8,5,6,6,0.4,0.3
2025-07-02T1700,3663A,124.1164,50.4278,大兴安岭地区,红旗社区,,25,,6,3,4,80,,93,91,4,5,6,6,0.3,0.3
2025-07-02T1700,1600A,124.3303,40.0625,丹东市,江湾东路,,25,13,9,10,6,77,,55,55,11,8,9,7,0.6,0.5
2025-07-02T1700,1601A,124.4256,40.1503,丹东市,临江后街,,25,14,8,6,5,79,,56,56,8,6,7,6,0.6,0.6
2025-07-02T1700,1602A,124.3933,40.1461,丹东市,元宝山,,26,13,9,6,4,83,,54,54,9,8,5,5,0.5,0.5
2025-07-02T1700,1603A,124.3633,40.1092,丹东市,民主桥,,24,11,6,3,4,76,,50,50,6,5,6,6,0.6,0.5
2025-07-02T1700,3541A,109.5726,19.5167,儋州市,第一中学子站,,10,9,13,3,6,30,,33,33,3,4,6,5,0.6,0.7
2025-07-02T1700,3542A,109.5567,19.5187,儋州市,东坡学校子站,,10,,11,3,3,32,,37,37,5,4,7,7,0.5,0.6
2025-07-02T1700,2616A,98.5842,24.428,德宏傣族景颇族自治州,德宏州监测站,,13,11,19,3,10,40,,31,31,8,10,9,11,0.7,0.7
2025-07-02T1700,3677A,98.5881,24.4368,德宏傣族景颇族自治州,芒市人民政府综合楼,,20,20,26,8,9,37,,30,30,6,9,7,13,0.5,0.5
2025-07-02T1700,1901A,104.4239,31.1208,德阳市,东山公园,,29,12,14,10,14,92,,82,64,6,10,8,6,0.7,0.8
2025-07-02T1700,1902A,104.3826,31.1317,德阳市,西小区,,27,24,27,9,16,84,,82,62,8,13,8,7,0.6,0.6
2025-07-02T1700,1904A,104.3553,31.1091,德阳市,耐火材料厂,,27,18,19,9,15,85,,82,62,5,10,2,2,0.4,0.5
2025-07-02T1700,3639A,104.4019,31.1244,德阳市,市教育局,,27,21,23,9,14,85,,81,65,5,8,3,3,0.6,0.7
2025-07-02T1700,1622A,116.3032,37.4674,德州市,儿童乐园,,34,19,22,3,11,108,,122,122,6,8,6,7,0.5,0.6
2025-07-02T1700,1624A,116.2991,37.4451,德州市,监理站,,31,9,17,9,10,99,,66,,7,5,9,8,0.2,0.3
2025-07-02T1700,3066A,116.2721,37.4379,德州市,九衢泉纯净水厂,,31,22,19,9,14,97,,113,113,7,11,5,6,0.7,0.8
2025-07-02T1700,3371A,116.3728,37.4403,德州市,开发区人民医院,,30,12,19,9,10,93,,118,118,10,12,4,6,0.4,0.6
2025-07-02T1700,3511A,116.5652,37.3319,德州市,陵城艺术中心,,22,22,20,7,9,69,,95,95,6,10,2,5,0.4,0.4
2025-07-02T1700,4292A,116.3525,37.4209,德州市,新河东路,,28,12,20,9,17,88,,,,5,15,6,6,0.6,0.6
2025-07-02T1700,2621A,99.7056,27.8317,迪庆藏族自治州,迪庆州站,,21,12,19,9,12,65,,65,65,7,6,7,7,0.4,0.3
2025-07-02T1700,3180A,99.7136,27.8094,迪庆藏族自治州,质量技术监督局,,22,14,16,3,10,68,,65,65,9,8,7,7,0.4,0.4
2025-07-02T1700,4257A,104.6092,35.5962,定西市,将台街,,38,16,26,12,12,120,,106,106,5,14,5,5,0,0
2025-07-02T1700,4309A,104.6159,35.5701,定西市,正龙路62号,,38,21,20,9,11,121,,108,108,2,7,3,4,0.2,0.2
2025-07-02T1700,1389A,113.7547,23.0494,东莞市,莞城梨川,,25,12,16,8,10,79,,82,82,3,12,4,6,0.4,0.5
2025-07-02T1700,1390A,113.7944,23.0128,东莞市,东城石井,,24,13,17,8,8,74,,71,71,5,18,3,3,0.4,0.5
2025-07-02T1700,1391A,113.7383,22.9658,东莞市,南城西平,,23,13,17,7,8,72,,66,66,12,21,2,3,0.5,0.5
2025-07-02T1700,3319A,113.7338,23.0381,东莞市,万江金泰,,22,17,18,9,7,69,,67,67,5,13,2,3,0.6,0.7
2025-07-02T1700,3626A,113.7533,23.0202,东莞市,南城元岭,,24,18,19,8,9,76,,74,74,7,16,3,4,0.4,0.4
2025-07-02T1700,3627A,113.7875,23.0457,东莞市,东城主山,,25,16,18,7,8,78,,78,78,4,13,2,5,0.4,0.7
2025-07-02T1700,1666A,118.6614,37.4309,东营市,市环保局,,29,19,10,9,7,92,,90,90,14,14,6,6,0.4,0.4
2025-07-02T1700,3036A,118.6904,37.4338,东营市,开发区管委会,,39,32,18,14,8,122,,113,113,13,15,5,5,0.3,0.3
2025-07-02T1700,3365A,118.5719,37.565,东营市,垦利区民丰路,,42,27,13,9,8,133,,120,120,12,12,3,4,0.6,0.6
2025-07-02T1700,3498A,118.5055,37.8612,东营市,河口城区,,47,24,12,7,8,150,,114,114,28,21,21,10,0.1,0.7
2025-07-02T1700,3646A,118.4978,37.4623,东营市,胜利站,,39,39,20,9,7,116,,109,109,18,16,5,5,1.0,1.1
2025-07-02T1700,3734A,118.35,37.26,东营市,理想之城,,,,10,,9,105,,110,110,,17,8,6,0.8,0.7
2025-07-02T1700,1591A,110.0023,39.8129,鄂尔多斯市,综合楼,,39,12,21,12,9,122,,126,126,10,19,4,5,0.6,0.6
2025-07-02T1700,1592A,109.9486,39.8261,鄂尔多斯市,巴音孟克林场办事处,,40,17,30,12,12,125,,132,131,11,17,2,3,0.5,0.5
2025-07-02T1700,1593A,109.7736,39.5986,鄂尔多斯市,康泽苑,,38,27,34,3,11,121,,131,121,9,19,6,10,0.5,0.4
2025-07-02T1700,1594A,109.8119,39.5989,鄂尔多斯市,华泰汽车城,,32,22,39,12,15,100,,107,106,8,25,6,6,0.5,0.6
2025-07-02T1700,1595A,109.9734,39.7884,鄂尔多斯市,奥林花园,,40,14,29,12,12,126,,131,130,9,21,4,5,0.6,0.6
2025-07-02T1700,2436A,114.8938,30.3994,鄂州市,市政府,,39,25,29,8,11,122,,116,116,5,13,4,7,0.8,0.8
2025-07-02T1700,2437A,114.8989,30.3714,鄂州市,赵家坝,,43,18,22,3,6,137,,131,131,3,9,11,12,0.5,0.5
2025-07-02T1700,3654A,114.8094,30.4089,鄂州市,精准医疗中心,,36,19,23,6,6,115,,120,120,5,14,4,10,0.7,1.1
2025-07-02T1700,2454A,109.4978,30.2981,恩施土家族苗族自治州,湖北民院,,19,11,26,3,6,60,,45,45,2,8,4,4,0.3,0.4
2025-07-02T1700,2455A,109.4707,30.2798,恩施土家族苗族自治州,州电力总公司,,,23,18,,6,31,,24,24,2,9,7,8,1.3,0.7
2025-07-02T1700,3549A,109.5061,30.3772,恩施土家族苗族自治州,龙凤新区,,,5,18,,5,81,,62,62,4,7,2,2,0.3,0.4
2025-07-02T1700,2499A,108.3411,21.6158,防城港市,沙万,,28,28,19,9,9,47,,42,42,10,13,1,2,0.5,0.6
2025-07-02T1700,2500A,108.3514,21.7731,防城港市,防城档案局,,32,,17,22,10,49,,44,44,9,11,2,2,0.7,0.7
2025-07-02T1700,2501A,108.3506,21.6414,防城港市,大海花园,,18,14,16,7,9,57,,53,53,7,10,4,3,0.8,0.9
2025-07-02T1700,1371A,113.1294,23.0067,佛山市,湾梁,,23,17,21,10,8,71,,74,74,12,28,8,8,0.4,0.5
2025-07-02T1700,1372A,113.1083,23.0478,佛山市,华材职中,,27,19,19,8,6,86,,85,85,6,20,7,8,0.4,0.6
2025-07-02T1700,1373A,113.144,23.0453,佛山市,南海气象局,,28,28,22,8,9,73,,73,73,12,21,2,3,0.7,0.8
2025-07-02T1700,1374A,113.2881,22.8094,佛山市,顺德苏岗,,16,12,22,3,6,50,,66,66,14,24,6,6,0.6,0.7
2025-07-02T1700,1376A,112.8383,22.8678,佛山市,高明孔堂,,18,,26,3,10,57,,76,76,6,28,6,6,0.5,0.6
2025-07-02T1700,1377A,112.8836,23.1588,佛山市,三水监测站,,22,22,20,14,10,62,,67,67,26,21,3,3,0.6,0.6
2025-07-02T1700,1378A,112.867,23.185,佛山市,三水云东海,,37,37,33,12,11,60,,80,80,35,27,3,2,0.5,0.5
2025-07-02T1700,3625A,113.2544,22.7642,佛山市,容桂街道办,,17,14,15,3,5,54,,62,62,12,24,5,5,0.3,0.4
2025-07-02T1700,1280A,119.3903,26.0543,福州市,鼓山,,,,,,,,,,,,,,,,
2025-07-02T1700,1282A,119.2681,26.0504,福州市,师大,,19,17,15,3,3,60,,58,58,4,4,4,4,0.2,0.2
2025-07-02T1700,1283A,119.2984,26.1028,福州市,五四北路,,17,8,15,3,3,53,,47,47,7,7,4,4,0.3,0.3
2025-07-02T1700,1284A,119.2648,26.0768,福州市,杨桥西路,,20,20,19,3,3,59,,60,60,5,6,4,4,0.2,0.2
2025-07-02T1700,1285A,119.317,26.0746,福州市,紫阳,,19,19,17,3,4,56,,49,49,4,6,5,5,0.2,0.2
2025-07-02T1700,3048A,119.5799,26.0936,福州市,九龙,,15,9,14,3,2,48,,45,45,1,4,4,5,0.1,0.2
2025-07-02T1700,3526A,119.5189,25.9664,福州市,吴航,,15,11,15,3,6,48,,45,45,2,2,4,5,0.3,0.3
2025-07-02T1700,1755A,123.7977,41.8491,抚顺市,望花区,,38,38,19,8,12,116,,99,99,11,14,8,5,0.4,0.4
2025-07-02T1700,1756A,123.9161,41.8822,抚顺市,顺城区,,33,25,21,7,12,105,,97,97,13,14,6,6,0.8,1
2025-07-02T1700,1757A,124.0436,41.8611,抚顺市,东洲区,,28,8,12,6,9,88,,90,90,8,11,4,4,0.5,0.6
2025-07-02T1700,1758A,123.9247,41.8642,抚顺市,新抚区,,30,27,21,7,10,94,,90,90,4,5,5,5,0.5,0.7
2025-07-02T1700,1759A,124.0972,41.8961,抚顺市,大伙房水库,,28,9,14,3,11,87,,92,92,5,9,7,7,0.4,0.6
2025-07-02T1700,1760A,123.7086,41.8391,抚顺市,沈抚新城,,32,19,19,10,11,102,,88,88,12,12,4,4,0.5,0.6
2025-07-02T1700,2376A,116.2127,28.0814,抚州市,桐源党溪,,27,27,22,12,14,81,,72,72,2,3,3,3,0.5,0.6
2025-07-02T1700,2377A,116.3544,27.9831,抚州市,市站,,26,24,23,12,10,83,,80,80,3,5,2,3,0.1,0.5
2025-07-02T1700,2378A,116.3565,27.963,抚州市,血防站,,26,21,22,10,11,83,,75,75,3,8,2,3,0.5,0.6
2025-07-02T1700,2379A,116.3564,28.0007,抚州市,采茶剧团,,25,16,20,3,9,79,,81,81,2,3,5,5,0.1,0.3
2025-07-02T1700,2380A,116.385,27.9647,抚州市,医学分院,,27,13,22,9,9,85,,82,82,2,2,4,5,0.2,0.4
2025-07-02T1700,2207A,121.6094,41.998,阜新市,工业园区,,48,48,33,16,20,126,,118,118,8,9,6,6,0.7,0.6
2025-07-02T1700,2208A,121.6697,42.0279,阜新市,长青街,,38,38,35,16,20,111,,103,103,6,8,4,5,0.7,0.6
2025-07-02T1700,2209A,121.6673,42.0705,阜新市,农业园区,,,43,37,12,24,126,,113,113,8,9,,4,0.9,0.8
2025-07-02T1700,2210A,121.6717,42.0224,阜新市,东苑,,44,44,36,19,20,116,,109,109,12,12,5,8,0.7,0.6
2025-07-02T1700,2211A,121.6506,42.0498,阜新市,玉龙新城,,48,34,37,33,26,107,,99,99,7,8,4,4,0.8,0.8
2025-07-02T1700,2301A,115.8277,32.8929,阜阳市,市监测站,,25,22,21,3,9,77,,75,75,6,11,4,4,0.3,0.4
2025-07-02T1700,2303A,115.8554,32.8605,阜阳市,开发区,,25,7,13,7,7,78,,73,73,4,10,5,5,0.1,0.1
2025-07-02T1700,2875A,115.784,32.8892,阜阳市,阜阳职业技术学院,,,9,10,3,8,80,,80,80,3,6,,4,0.1,0.2
2025-07-02T1700,3468A,115.7901,32.8613,阜阳市,市规划展馆,,23,,21,7,11,72,,71,71,2,8,2,2,0.3,0.4
2025-07-02T1700,3469A,115.836,32.9183,阜阳市,枣园社区,,23,,15,10,11,72,,71,71,2,7,2,2,0.4,0.5
2025-07-02T1700,2669A,102.9099,34.9841,甘南藏族自治州,州政府,,26,21,27,15,19,83,,85,85,10,14,6,6,0.3,0.4
2025-07-02T1700,3380A,102.8914,34.9617,甘南藏族自治州,甘肃民族师范学院,,30,30,39,17,14,80,,88,88,23,17,9,8,0.4,0.4
2025-07-02T1700,2570A,101.9603,30.0475,甘孜藏族自治州,水桥子,,28,6,10,3,7,88,,90,90,7,12,6,5,0.5,0.5
2025-07-02T1700,3065A,101.9533,29.9972,甘孜藏族自治州,州环保局,,28,8,13,3,4,87,,93,93,8,11,2,2,0.5,0.5
2025-07-02T1700,3414A,115.8347,28.932,赣江新区,桑海产业园,,37,19,22,14,10,118,,110,110,4,19,8,8,0.4,0.4
2025-07-02T1700,2362A,114.9017,25.9149,赣州市,通天岩,,19,17,20,3,4,60,,51,51,3,3,2,2,0.2,0.2
2025-07-02T1700,2363A,114.9367,25.8664,赣州市,地委,,21,6,17,6,9,67,,56,56,5,9,1,1,0.7,0.7
2025-07-02T1700,2364A,114.9461,25.8481,赣州市,气象台,,21,8,16,3,5,67,,55,55,4,7,6,7,0.3,0.3
2025-07-02T1700,2365A,114.9322,25.8333,赣州市,市图书馆,,,20,11,9,8,72,,60,60,,7,,4,,0.4
2025-07-02T1700,2366A,114.8905,25.8471,赣州市,华坚鞋城,,22,13,18,3,10,69,,60,60,6,9,3,4,0.2,0.2
2025-07-02T1700,3109A,115.0093,25.8613,赣州市,赣县区卫计委,,24,24,20,6,10,58,,50,50,6,12,2,2,0.0,0.1
2025-07-02T1700,2683A,106.2319,36.1417,固原市,马园,,29,12,29,6,6,90,,87,87,12,18,6,13,0.5,0.6
2025-07-02T1700,2684A,106.2792,36.0022,固原市,监测站,,,,11,16,4,98,,88,88,4,5,3,4,0.2,0.2
2025-07-02T1700,2685A,106.2375,36.0211,固原市,新区,,31,9,12,3,6,99,,87,87,3,6,6,6,0.3,0.4
2025-07-02T1700,3522A,106.2177,35.9959,固原市,原州区十五小,,30,7,13,7,8,95,,86,86,4,7,11,12,0.3,0.3
2025-07-02T1700,2543A,106.6308,30.5278,广安市,小平旧居,,,,,,,,,,,,,,,,
2025-07-02T1700,2544A,106.6303,30.4576,广安市,市委,,28,10,16,8,10,89,,80,80,7,12,1,2,0.4,0.5
2025-07-02T1700,2545A,106.6271,30.4663,广安市,友谊中学,,28,13,18,6,10,87,,77,77,6,11,2,2,0.7,0.8
2025-07-02T1700,2547A,106.6388,30.4551,广安市,广电花园,,29,16,21,3,10,91,,81,81,5,9,3,3,0.3,0.6
2025-07-02T1700,2902A,106.6351,30.4865,广安市,北辰小学,,32,16,18,7,11,102,,90,90,4,10,3,4,0.4,0.5
2025-07-02T1700,2523A,105.8945,32.4535,广元市,黑石坡,,20,19,20,14,11,39,,26,25,6,8,12,12,0.3,0.4
2025-07-02T1700,2524A,105.821,32.4444,广元市,老城,,19,11,18,3,8,58,,45,45,14,19,7,4,0.9,1
2025-07-02T1700,2526A,105.8628,32.4287,广元市,监测站,,16,10,15,8,10,51,,37,37,9,13,9,11,0.7,0.8
2025-07-02T1700,3617A,105.8047,32.4166,广元市,经开区,,26,26,24,12,13,54,,41,41,11,15,3,4,0.6,0.6
2025-07-02T1700,1345A,113.2347,23.1423,广州市,广雅中学,,24,18,21,7,9,74,,93,93,13,22,3,3,0.4,0.3
2025-07-02T1700,1346A,113.2612,23.105,广州市,市五中,,24,24,26,12,12,73,,87,87,13,22,4,5,0.4,0.6
2025-07-02T1700,1348A,113.3478,23.0916,广州市,广东商学院,,,,20,,6,60,,63,63,9,21,4,4,,0.5
2025-07-02T1700,1349A,113.4332,23.1047,广州市,市八十六中,,21,17,17,8,9,65,,73,73,24,25,3,4,0.4,0.5
2025-07-02T1700,1350A,113.3505,22.9483,广州市,番禺中学,,24,16,24,8,10,76,,87,87,10,25,7,8,0.3,0.5
2025-07-02T1700,1351A,113.2146,23.3916,广州市,花都师范,,17,15,20,9,9,54,,89,89,24,23,3,4,0.6,0.5
2025-07-02T1700,1352A,113.2597,23.1331,广州市,市监测站,,25,20,20,9,9,77,,92,92,10,20,5,6,0.3,0.4
2025-07-02T1700,1353A,113.5618,23.312,广州市,九龙镇镇龙,,20,20,17,10,7,53,,78,75,19,10,6,6,0.3,0.3
2025-07-02T1700,1354A,113.2765,23.1544,广州市,麓湖,,23,19,18,8,7,73,,83,83,10,18,2,2,0.4,0.5
2025-07-02T1700,1355A,113.443,23.3035,广州市,帽峰山森林公园,,23,9,11,3,6,72,,86,86,6,9,6,6,0.4,0.4
2025-07-02T1700,2846A,113.3221,23.1322,广州市,体育西,,32,32,25,15,14,87,,95,95,16,24,4,5,0.3,0.5
2025-07-02T1700,3298A,113.5717,23.5491,广州市,从化街口,,23,15,22,8,8,72,,58,58,12,18,5,5,0.7,0.7
2025-07-02T1700,3299A,113.3472,23.3692,广州市,白云竹料,,29,29,22,16,10,59,,75,75,10,18,3,3,0.3,0.3
2025-07-02T1700,3300A,113.2981,23.237,广州市,白云嘉禾,,30,30,22,10,8,52,,88,88,27,20,4,3,0.6,0.5
2025-07-02T1700,3301A,113.4256,23.1716,广州市,黄埔科学城,,24,24,19,10,7,44,,74,74,16,13,4,4,0.6,0.6
2025-07-02T1700,3302A,113.3942,23.0483,广州市,番禺大学城,,25,15,21,3,10,79,,92,92,8,26,5,7,0.5,0.7
2025-07-02T1700,3303A,113.4922,22.8168,广州市,南沙黄阁,,20,20,23,8,10,62,,72,72,9,17,6,6,0.4,0.5
2025-07-02T1700,3304A,113.5342,22.7896,广州市,南沙街,,,24,18,7,10,60,,68,68,,19,5,4,,0.4
2025-07-02T1700,3443A,113.2902,23.5544,广州市,花都梯面,,22,22,14,13,4,67,,66,66,23,12,4,5,0.6,0.5
2025-07-02T1700,3445A,113.7858,23.7478,广州市,从化良口,,18,17,13,12,5,51,,46,46,6,5,6,6,0.5,0.5
2025-07-02T1700,3446A,113.8051,23.2614,广州市,增城荔城,,27,20,14,10,6,85,,74,74,9,7,6,6,0.3,0.3
2025-07-02T1700,2505A,109.568,23.1478,贵港市,德智高中,,,,,,,,,,,,,,,,
2025-07-02T1700,2506A,109.6047,23.0666,贵港市,江南子站,,17,17,25,11,16,54,,64,62,6,13,4,6,0.4,0.7
2025-07-02T1700,2508A,109.5669,23.1065,贵港市,荷城子站,,15,13,22,3,6,48,,55,55,11,14,5,6,0.2,0.3
2025-07-02T1700,3405A,109.5886,23.1172,贵港市,新世纪学校,,14,12,17,6,11,43,,57,57,12,12,3,4,0.4,0.5
2025-07-02T1700,4260A,109.5933,23.0951,贵港市,中山路155-3号,,16,,25,10,12,49,,57,57,12,14,3,4,0.4,0.5
2025-07-02T1700,1439A,106.6899,26.5998,贵阳市,马鞍山,,,2,9,,0,50,,36,36,,7,3,3,0.4,0.4
2025-07-02T1700,1441A,106.6243,26.6266,贵阳市,鉴湖路,,19,19,14,3,0,51,,44,44,4,6,8,8,0.3,0.3
2025-07-02T1700,1442A,106.7487,26.6343,贵阳市,燕子冲,,15,12,12,9,11,47,,46,46,8,10,4,4,0.1,0.2
2025-07-02T1700,1443A,106.6555,26.4365,贵阳市,碧云窝,,17,17,22,3,2,51,,49,49,4,5,4,4,0.3,0.3
2025-07-02T1700,1445A,106.7109,26.6027,贵阳市,红边门,,14,9,11,3,3,44,,45,45,6,7,22,9,0.1,0.1
2025-07-02T1700,1446A,106.7164,26.5699,贵阳市,新华路,,12,7,6,3,6,37,,38,38,10,13,16,8,0.2,0.4
2025-07-02T1700,1447A,106.674,26.5424,贵阳市,太慈桥,,15,14,11,3,1,46,,44,44,12,12,5,4,0.3,0.3
2025-07-02T1700,1552A,106.805,26.3003,贵阳市,桐木岭,,,17,19,9,9,45,,51,45,5,5,,19,0.9,0.9
2025-07-02T1700,4230A,106.6882,26.5695,贵阳市,花果园大街66号,,13,,2,3,4,39,,36,36,7,7,3,3,0.1,0.1
2025-07-02T1700,4231A,106.6873,26.5169,贵阳市,漓江路57号,,17,6,8,3,0,52,,50,50,5,8,5,5,0.2,0.2
2025-07-02T1700,1862A,110.4144,25.3167,桂林市,电子科大尧山校区,,,,,,,,,,,,,,,,
2025-07-02T1700,1864A,110.3089,25.2708,桂林市,龙隐路小学,,24,10,22,6,8,75,,61,61,7,8,8,9,0.4,0.4
2025-07-02T1700,1865A,110.2869,25.2178,桂林市,八中,,23,20,24,6,8,72,,63,63,7,10,6,8,0.4,0.5
2025-07-02T1700,3531A,110.296,25.1253,桂林市,旅游学院,,25,6,8,3,4,80,,64,64,3,4,2,4,0.3,0.3
2025-07-02T1700,4222A,110.1835,25.2444,桂林市,环湖路276号,,22,12,21,3,13,68,,60,60,3,12,5,12,0.2,0.3
2025-07-02T1700,4301A,110.2803,25.2773,桂林市,信义路13号,,24,24,19,8,10,70,,67,67,10,10,3,5,0.4,0.5
2025-07-02T1700,2674A,100.2561,34.4714,果洛藏族自治州,玛沁县大武镇,,40,22,13,3,9,125,,107,107,2,2,17,16,0.2,0.3
2025-07-02T1700,1129A,126.5422,45.755,哈尔滨市,岭北,,46,14,16,8,14,146,,127,127,10,11,4,4,1.1,1.2
2025-07-02T1700,1130A,126.561,45.8167,哈尔滨市,松北商大,,38,32,29,16,11,121,,104,104,9,7,6,6,0.6,0.7
2025-07-02T1700,1131A,126.979,45.5419,哈尔滨市,阿城会宁,,43,12,19,9,14,135,,122,122,8,8,5,5,0.4,0.5
2025-07-02T1700,1132A,126.599,45.7222,哈尔滨市,南岗学府路,,44,31,28,6,10,139,,114,114,9,10,6,6,0.7,0.7
2025-07-02T1700,1133A,126.689,45.7733,哈尔滨市,太平宏伟公园,,44,40,31,16,13,138,,115,115,10,11,6,6,0.4,0.5
2025-07-02T1700,1134A,126.635,45.7667,哈尔滨市,道外承德广场,,41,41,42,18,12,129,,99,99,11,12,7,6,0.4,0.6
2025-07-02T1700,1135A,126.685,45.7319,哈尔滨市,香坊红旗大街,,45,41,29,10,18,141,,112,112,15,17,9,12,0.5,0.6
2025-07-02T1700,1136A,126.6411,45.7258,哈尔滨市,动力和平路,,,42,35,,,148,,120,120,10,10,5,6,0.6,0.5
2025-07-02T1700,1137A,126.593,45.7478,哈尔滨市,道里建国路,,44,43,35,28,16,140,,118,118,10,11,14,10,0.6,1
2025-07-02T1700,1138A,126.615,45.61,哈尔滨市,平房东轻厂,,,,37,21,12,151,,118,118,7,8,10,9,0.2,0.3
2025-07-02T1700,1139A,126.595,45.9855,哈尔滨市,呼兰师专,,38,26,23,11,10,120,,110,110,7,9,9,8,0.3,0.5
2025-07-02T1700,1140A,126.6206,45.6842,哈尔滨市,省农科院,颗粒物(PM10),58,65,37,17,12,141,,116,116,16,16,4,4,0.5,0.5
2025-07-02T1700,2688A,93.5128,42.8172,哈密市,地区监测站,,41,26,54,22,26,130,,114,114,5,8,6,6,0.1,0.1
2025-07-02T1700,2689A,93.4961,42.8328,哈密市,哈密师范学校,,35,26,45,15,16,110,,102,102,7,9,11,10,0.3,0.2
2025-07-02T1700,2671A,100.9048,36.9639,海北藏族自治州,海晏县西海镇,,45,10,16,7,12,141,,132,132,2,5,10,9,0.3,0.4
2025-07-02T1700,3867A,102.0738,36.5056,海东市,平安区公安北苑,臭氧1小时,54,22,30,8,16,163,,135,135,2,10,11,10,0.5,0.7
2025-07-02T1700,1409A,110.576,19.9507,海口市,东寨港,,13,7,11,3,7,41,,41,41,2,3,7,8,0.3,0.3
2025-07-02T1700,1410A,110.3232,20.0574,海口市,海南大学,,15,15,11,6,5,38,,45,45,7,6,2,2,0.3,0.3
2025-07-02T1700,1411A,110.283,20.0053,海口市,秀英海南医院,,18,18,14,7,6,26,,44,42,18,12,5,5,0.3,0.3
2025-07-02T1700,1412A,110.338,19.9969,海口市,海南师范大学,,11,10,11,3,6,34,,45,44,8,9,4,4,0.7,0.7
2025-07-02T1700,1413A,110.33,20.0356,海口市,龙华路环保局宿舍,,12,12,12,7,8,33,,45,43,12,9,4,5,0.3,0.3
2025-07-02T1700,3539A,110.5111,19.9736,海口市,桂林洋子站,,13,9,13,3,5,39,,42,42,4,3,4,4,0.1,0.2
2025-07-02T1700,2673A,100.6188,36.2866,海南藏族自治州,共和县恰卜恰镇,,47,14,23,3,8,148,,131,131,5,11,11,13,0.5,0.7
2025-07-02T1700,2676A,97.3731,37.3753,海西蒙古族藏族自治州,德令哈市,,47,,24,17,13,149,,142,142,1,3,15,13,0.5,0.5
2025-07-02T1700,1048A,114.5302,36.6116,邯郸市,东污水处理厂,,40,40,29,3,1,119,,101,101,6,9,3,3,0.3,0.4
2025-07-02T1700,1049A,114.4918,36.5713,邯郸市,矿院,,45,25,17,7,4,144,,127,127,4,5,4,4,0.4,0.3
2025-07-02T1700,1050A,114.484,36.6133,邯郸市,丛台公园,,40,18,18,9,5,128,,108,108,5,7,14,9,0.3,0.3
2025-07-02T1700,3458A,114.7895,36.5593,邯郸市,香泉濮院小区,,39,22,28,3,0,122,,106,106,7,9,3,3,0.2,0.2
2025-07-02T1700,3579A,114.50634,36.77178,邯郸市,永年区实验高中,,42,42,29,15,14,125,,108,108,6,10,2,2,0.3,0.2
2025-07-02T1700,3580A,114.20016,36.44293,邯郸市,峰峰矿区临水派出所,,45,45,41,3,2,136,,121,121,3,9,5,5,0.2,0.3
2025-07-02T1700,2634A,106.9893,33.1842,汉中市,汉川机床厂子校,,21,21,13,9,5,66,,53,53,6,10,3,3,0.5,0.4
2025-07-02T1700,2635A,107.0154,33.0706,汉中市,市监测站,,20,14,13,3,4,61,,55,55,3,6,5,6,0.5,0.6
2025-07-02T1700,2636A,107.0089,33.1138,汉中市,鑫源开发区,,16,7,11,3,5,50,,46,46,5,9,5,5,0.4,0.4
2025-07-02T1700,2637A,107.007,33.0323,汉中市,南郑大河坎水厂,,19,11,12,3,5,60,,48,48,4,8,3,5,0.4,0.5
2025-07-02T1700,1223A,120.2072,30.2111,杭州市,滨江,,47,30,24,10,9,148,,125,125,16,18,5,6,0.3,0.4
2025-07-02T1700,1224A,120.0633,30.2747,杭州市,西溪,,41,19,19,11,11,131,,128,128,2,9,3,4,0.3,0.3
2025-07-02T1700,1226A,120.3417,30.3150,杭州市,下沙,,40,25,20,12,8,128,,130,130,12,16,5,5,0.3,0.3
2025-07-02T1700,1227A,120.1269,30.2456,杭州市,卧龙桥,,49,25,23,22,12,155,,127,127,5,11,8,8,0.3,0.4
2025-07-02T1700,1228A,120.1903,30.2692,杭州市,浙江农大,,47,23,29,12,11,148,,121,121,14,17,5,4,0.2,0.2
2025-07-02T1700,1230A,120.1197,30.3119,杭州市,和睦小学,,50,22,22,12,10,159,,138,138,1,6,8,8,0.4,0.4
2025-07-02T1700,1231A,120.3019,30.4183,杭州市,临平镇,,49,40,30,7,8,154,,138,138,10,16,6,6,0.4,0.4
2025-07-02T1700,1232A,120.2753,30.1839,杭州市,城厢镇,,38,28,25,10,11,120,,122,122,5,10,7,7,0.3,0.4
2025-07-02T1700,1233A,120.0883,30.1808,杭州市,云栖,,40,21,23,7,7,126,,116,116,8,13,6,7,0.6,0.6
2025-07-02T1700,3557A,119.9464,30.0494,杭州市,镇二中,,33,19,22,9,15,103,,95,95,21,27,3,3,0.3,0.4
2025-07-02T1700,3558A,119.7183,30.2367,杭州市,市府大楼,,37,34,18,10,9,116,,104,104,6,12,8,7,0.3,0.3
2025-07-02T1700,3656A,120.1556,30.2864,杭州市,消防大队,,,34,22,14,11,149,,125,125,,10,7,6,,0.6
2025-07-02T1700,1270A,117.1959,31.7848,合肥市,明珠广场,,35,19,17,12,9,111,,104,104,8,12,5,5,0.5,0.5
2025-07-02T1700,1271A,117.3072,31.8764,合肥市,三里街,,29,19,17,9,8,91,,95,95,8,11,5,6,0.5,0.4
2025-07-02T1700,1272A,117.2588,31.8707,合肥市,琥珀山庄,,33,17,17,17,12,104,,108,108,6,10,6,6,0.5,0.5
2025-07-02T1700,1273A,117.1604,31.9052,合肥市,董铺水库,,32,17,16,9,8,102,,92,92,4,7,4,4,0.2,0.2
2025-07-02T1700,1274A,117.25,31.8571,合肥市,长江中路,,34,27,20,15,10,106,,106,106,6,9,6,6,0.4,0.4
2025-07-02T1700,1275A,117.266,31.9436,合肥市,庐阳区,,33,19,16,9,7,103,,105,105,4,6,12,7,0.3,0.4
2025-07-02T1700,1276A,117.3453,31.8616,合肥市,瑶海区,,29,24,19,12,8,92,,95,95,9,13,6,6,0.5,0.5
2025-07-02T1700,1277A,117.3027,31.7964,合肥市,包河区,,33,22,16,12,7,105,,100,100,4,7,4,4,0.7,0.6
2025-07-02T1700,1278A,117.2776,31.7385,合肥市,滨湖新区,,34,17,17,17,13,106,,101,101,6,6,10,9,0.4,0.4
2025-07-02T1700,1279A,117.1318,31.8403,合肥市,高新区,,,27,17,11,9,113,,96,96,7,9,8,7,,0.3
2025-07-02T1700,3464A,117.3803,31.9147,合肥市,高教基地,,31,17,15,12,10,97,,102,102,5,8,3,3,0.4,0.4
2025-07-02T1700,3614A,79.924,37.0877,和田地区,地区环保局,颗粒物(PM10),444,544,804,105,230,134,,114,114,4,12,3,2,0.6,0.7
2025-07-02T1700,3615A,79.9131,37.113,和田地区,市环保局,颗粒物(PM10),194,337,702,74,193,134,,108,108,2,9,1,1,0.3,0.3
2025-07-02T1700,2516A,108.2011,24.715,河池市,东仁乐园,,,,,,,,,,,,,,,,
2025-07-02T1700,2517A,108.0497,24.6947,河池市,市环保站,,34,34,21,7,9,63,,50,50,2,6,4,3,0.5,0.6
2025-07-02T1700,2518A,108.0983,24.6989,河池市,市疾控中心,,,20,20,8,8,60,,46,46,5,12,3,3,,0.6
2025-07-02T1700,1696A,114.6778,23.7569,河源市,源西,,,,17,,8,,,25,,,9,,4,,0.6
2025-07-02T1700,1697A,114.6944,23.7586,河源市,东埔,,20,20,16,9,6,50,,49,49,11,14,3,4,0.4,0.4
2025-07-02T1700,1698A,114.6892,23.7233,河源市,老城,,32,32,18,17,8,44,,46,46,10,10,4,5,0.5,0.5
2025-07-02T1700,1718A,115.4208,35.2464,菏泽市,气象局,,45,29,25,12,12,144,,124,124,4,11,1,2,0.3,0.3
2025-07-02T1700,3374A,115.5564,35.0891,菏泽市,定陶老年大学,,43,36,25,7,8,136,,119,119,9,14,3,3,0.0,0.1
2025-07-02T1700,4184A,115.4797,35.24401,菏泽市,永昌路1号,,45,42,24,13,11,141,,121,121,6,13,4,5,0.0,0.1
2025-07-02T1700,4193A,115.4715,35.2800,菏泽市,长城路999号,,46,27,26,8,11,146,,118,118,6,12,4,3,0.2,0.3
2025-07-02T1700,2514A,111.5264,24.4172,贺州市,环保小区,,20,9,12,3,8,62,,52,52,5,5,9,11,0.8,0.7
2025-07-02T1700,2515A,111.5608,24.4078,贺州市,政协大楼,,22,6,12,3,7,70,,53,53,6,7,12,14,0.7,0.7
2025-07-02T1700,3534A,111.4744,24.4553,贺州市,西湾,,,16,9,3,6,41,,44,44,6,8,,14,0.4,0.5
2025-07-02T1700,2385A,114.17,35.9019,鹤壁市,市监测站,,44,15,21,14,18,138,,121,121,6,8,4,5,0.6,0.6
2025-07-02T1700,2386A,114.2956,35.7511,鹤壁市,市交警支队,,41,32,24,18,13,130,,108,108,6,9,3,4,0.4,0.4
2025-07-02T1700,2387A,114.2878,35.7306,鹤壁市,迎宾馆,,46,24,27,23,16,146,,117,117,5,8,2,4,0.5,0.5
2025-07-02T1700,3474A,114.2617,35.6822,鹤壁市,大新区,,,,33,15,10,138,,112,112,10,8,6,5,0.6,0.6
2025-07-02T1700,3596A,114.1572,35.9603,鹤壁市,南山宾馆,,40,39,30,22,19,126,,103,103,4,7,3,3,0.4,0.4
2025-07-02T1700,2244A,130.2537,47.3416,鹤岗市,哈啤分公司,,,0,15,,12,117,,101,101,5,9,12,11,0.3,0.9
2025-07-02T1700,2245A,130.2684,47.3086,鹤岗市,斯达机电,,36,19,22,14,15,114,,90,90,6,8,11,10,0.4,0.4
2025-07-02T1700,2246A,130.3114,47.3388,鹤岗市,东山纸板厂,,,14,19,14,12,112,,85,85,7,11,,5,0.6,0.8
2025-07-02T1700,2247A,130.1097,47.3382,鹤岗市,五号水库,,34,6,12,3,5,107,,94,94,6,12,8,7,0.1,0.1
2025-07-02T1700,2263A,127.4833,50.2524,黑河市,交通局,,,17,15,8,7,93,,84,84,7,8,6,6,,0.5
2025-07-02T1700,2264A,127.5144,50.2341,黑河市,环保局,颗粒物(PM10),63,75,20,6,9,98,,87,87,5,5,4,4,0.5,0.4
2025-07-02T1700,2265A,127.5291,50.2472,黑河市,大黑河岛,,,,4,3,6,43,,66,66,,,32,30,,
2025-07-02T1700,1074A,115.6838,37.7541,衡水市,电机北厂,,25,21,22,10,13,79,,88,88,8,6,3,3,0.3,0.3
2025-07-02T1700,1075A,115.6303,37.7316,衡水市,市监测站,,25,19,31,3,11,79,,89,87,4,7,6,6,0.3,0.3
2025-07-02T1700,3188A,115.6683,37.7217,衡水市,市城管局,,28,,21,19,15,86,,90,90,5,6,1,2,0.3,0.3
2025-07-02T1700,3459A,115.5989,37.5491,衡水市,地表水厂,,30,19,33,3,6,93,,105,105,6,8,6,5,0.2,0.2
2025-07-02T1700,2456A,112.5003,26.9167,衡阳市,原169医院,,22,12,13,3,3,69,,66,66,3,7,5,6,0.4,0.4
2025-07-02T1700,2457A,112.6194,26.9258,衡阳市,衡阳化工总厂,,,,12,6,5,58,,57,57,6,9,,5,0.4,0.4
2025-07-02T1700,2458A,112.6211,26.8956,衡阳市,珠晖区环保局,,,10,12,,7,62,,39,,2,9,9,8,0.3,0.4
2025-07-02T1700,2459A,112.6197,26.8733,衡阳市,市委党校,,19,14,14,3,4,60,,58,58,3,6,10,9,0.4,0.4
2025-07-02T1700,2460A,112.6006,26.8919,衡阳市,市监测站,,20,,11,8,6,61,,58,58,5,7,7,7,0.3,0.3
2025-07-02T1700,2461A,112.5664,26.9056,衡阳市,真空机电公司,,19,,20,8,10,60,,59,59,6,7,7,8,0.4,0.5
2025-07-02T1700,3399A,112.6703,26.882,衡阳市,师范学院,,26,26,20,3,8,59,,57,57,4,6,6,7,0.4,0.4
2025-07-02T1700,2608A,103.3772,23.3993,红河哈尼族彝族自治州,污水处理厂,,20,,14,9,10,61,,52,52,2,4,6,7,0.1,0.1
2025-07-02T1700,2609A,103.3861,23.35,红河哈尼族彝族自治州,监测站,,18,18,20,6,11,55,,48,48,2,5,5,6,0.1,0.3
2025-07-02T1700,3038A,103.3758,23.368,红河哈尼族彝族自治州,州图书馆,,18,6,6,3,7,57,,52,52,3,4,1,1,0.2,0.2
2025-07-02T1700,1090A,111.6507,40.7517,呼和浩特市,呼市一监,,33,,31,13,15,105,,76,76,15,20,9,9,0.6,0.6
2025-07-02T1700,1091A,111.6572,40.8033,呼和浩特市,小召,,36,9,28,9,14,114,,80,80,13,30,6,6,0.6,0.6
2025-07-02T1700,1094A,111.7516,40.8369,呼和浩特市,如意水处理厂,,36,16,24,8,12,115,,82,82,12,30,4,5,0.5,0.4
2025-07-02T1700,1095A,111.7276,40.8062,呼和浩特市,二十九中,,35,19,34,11,16,112,,85,85,11,28,5,5,0.7,0.6
2025-07-02T1700,1096A,111.5512,40.7866,呼和浩特市,工大金川校区,,31,16,36,10,13,99,,67,67,18,37,5,6,0.5,0.3
2025-07-02T1700,1097A,111.717,40.7612,呼和浩特市,化肥厂生活区,,37,18,25,14,17,117,,89,89,18,26,6,7,0.5,0.4
2025-07-02T1700,3698A,111.5968,40.8178,呼和浩特市,红旗小学,,38,14,37,8,15,120,,80,80,12,37,3,4,0.3,0.4
2025-07-02T1700,3699A,111.6518,40.8389,呼和浩特市,海东办,,36,9,32,8,14,115,,82,82,12,33,5,6,0.4,0.5
2025-07-02T1700,2192A,119.7594,49.2261,呼伦贝尔市,区环保局,,34,25,22,16,12,108,,107,107,9,8,6,5,0.6,0.5
2025-07-02T1700,3061A,119.7512,49.1577,呼伦贝尔市,国华电力东,,41,23,21,9,10,129,,127,127,6,6,3,3,0.4,0.5
2025-07-02T1700,1250A,120.0751,30.8669,湖州市,城西水厂,臭氧1小时,55,25,35,16,14,164,,137,137,6,18,6,6,0.3,0.4
2025-07-02T1700,2873A,120.0830,30.8929,湖州市,仁皇山新区,,,26,32,,15,161,,141,141,9,18,5,5,0.5,0.6
2025-07-02T1700,2907A,120.1844,30.8596,湖州市,吴兴区站,臭氧1小时,63,30,27,17,15,170,,142,142,5,14,6,6,0.4,0.4
2025-07-02T1700,3562A,120.4148,30.8538,湖州市,南浔区站,,50,33,28,19,15,159,,147,147,6,13,4,5,0.4,0.4
2025-07-02T1700,1607A,120.9049,40.7211,葫芦岛市,龙港区,颗粒物(PM10),54,58,38,33,23,101,,97,97,3,5,2,2,0.6,0.6
2025-07-02T1700,1608A,120.8392,40.7514,葫芦岛市,化工街,,36,24,26,24,22,113,,106,106,8,12,3,4,0.6,0.7
2025-07-02T1700,1609A,120.8341,40.7073,葫芦岛市,新区,细颗粒物(PM2.5),63,,38,45,33,106,,104,104,5,5,2,2,0.7,0.8
2025-07-02T1700,1610A,120.8695,40.7677,葫芦岛市,东城区,细颗粒物(PM2.5),69,,28,50,39,99,,102,102,7,10,3,1,0.8,0.8
2025-07-02T1700,2482A,109.5981,27.5721,怀化市,林科所,,15,12,15,3,3,48,,53,53,8,10,4,4,0.2,0.4
2025-07-02T1700,2483A,109.9453,27.5444,怀化市,河西地税局,,16,6,14,3,5,50,,52,52,2,9,7,6,0.1,0.2
2025-07-02T1700,2484A,109.9781,27.5342,怀化市,市四医院,,,8,22,,10,54,,52,52,4,10,2,3,0.5,0.6
2025-07-02T1700,2485A,109.9972,27.5578,怀化市,监测楼,,17,17,18,3,8,49,,49,49,1,6,2,2,0.1,0.2
2025-07-02T1700,2486A,110.0394,27.583,怀化市,市委党校,,,7,14,,9,56,,60,60,3,9,4,8,0.2,0.4
2025-07-02T1700,1210A,119.036,33.5981,淮安市,钵池山,,45,,27,21,21,142,,120,120,10,11,10,10,0.3,0.4
2025-07-02T1700,1211A,119.007,33.575,淮安市,北京南路,,42,24,30,17,18,133,,113,113,6,12,8,7,0.5,0.7
2025-07-02T1700,1212A,118.989,33.6067,淮安市,市监测站,,43,31,34,14,20,135,,116,116,4,13,8,9,0.8,0.9
2025-07-02T1700,1213A,119.135,33.5039,淮安市,楚州区监测站,,,,41,16,20,125,,121,121,,11,,7,0.4,0.4
2025-07-02T1700,3426A,118.8755,33.2894,淮安市,新华书店,,41,24,32,15,20,129,,120,120,6,14,8,8,0.3,0.4
2025-07-02T1700,4206A,119.0288,33.6319,淮安市,承德北路606号,,40,24,32,21,19,128,,107,107,9,12,8,7,0.3,0.4
2025-07-02T1700,2282A,116.8004,33.975,淮北市,监测站,,,16,30,8,9,,,113,113,1,9,6,7,0.3,0.4
2025-07-02T1700,2283A,116.8091,33.9007,淮北市,烈山区政府,,35,15,32,3,7,109,,105,105,2,10,8,6,0.5,0.5
2025-07-02T1700,3330A,116.8873,33.9836,淮北市,杜集区检察院,,37,,26,10,14,117,,114,114,4,14,2,3,0.6,0.7
2025-07-02T1700,4017A,116.7923,33.9535,淮北市,市博物馆,,40,15,27,6,13,125,,116,116,2,8,7,8,0.6,0.7
2025-07-02T1700,2277A,116.8305,32.7727,淮南市,潘集区政府,,29,29,21,11,9,74,,73,73,11,9,5,3,0.3,0.3
2025-07-02T1700,2279A,116.8569,32.5951,淮南市,谢家集区政府,,24,11,18,3,4,76,,80,80,4,6,5,5,0.1,0.1
2025-07-02T1700,2280A,116.8281,32.633,淮南市,八公山区政府,,26,14,15,3,6,83,,81,81,5,7,4,5,0.2,0.2
2025-07-02T1700,2281A,116.6325,32.6201,淮南市,焦岗湖风景区管理处,,,,,,,,,,,,,,,,
2025-07-02T1700,2894A,117.0566,32.6531,淮南市,经济技术开发区消防队,,26,8,16,3,4,82,,87,87,5,9,8,8,0.3,0.3
2025-07-02T1700,3329A,117.0108,32.5893,淮南市,山南新区,,26,7,10,7,7,81,,85,85,1,4,8,8,0.3,0.4
2025-07-02T1700,4209A,117.0031,32.6445,淮南市,国庆中路369号,,25,,11,9,9,79,,85,85,4,6,6,7,0.0,0
2025-07-02T1700,2446A,114.9028,30.4742,黄冈市,职工中心,,49,28,28,28,16,156,,153,153,2,8,6,12,0.3,0.4
2025-07-02T1700,2929A,114.8858,30.4519,黄冈市,红卫路,,47,25,24,15,14,150,,143,143,2,6,9,10,0.3,0.4
2025-07-02T1700,3398A,114.9136,30.4445,黄冈市,市林业局,,43,29,27,13,13,135,,128,128,2,9,6,7,0.3,0.3
2025-07-02T1700,2672A,102.0199,35.5102,黄南藏族自治州,同仁县隆务镇,,39,39,23,9,8,66,,54,54,17,9,9,9,0.2,0.2
2025-07-02T1700,2295A,118.2903,29.6963,黄山市,延安路89号,,,,15,,7,64,,77,75,1,6,2,6,,0.5
2025-07-02T1700,2297A,118.1371,30.2756,黄山市,黄山区政府5号楼,,21,,20,10,10,66,,64,64,1,3,4,4,0.4,0.4
2025-07-02T1700,4210A,118.3354,29.7203,黄山市,滨江东路7-2号,,20,15,24,3,8,64,,68,68,4,6,3,4,0.3,0.4
2025-07-02T1700,2423A,115.0601,30.2313,黄石市,沈家营,,39,34,36,9,10,123,,117,117,5,19,6,9,0.3,0.4
2025-07-02T1700,2426A,114.8988,30.2019,黄石市,铁山,,29,14,20,3,4,92,,101,101,5,10,6,6,0.4,0.4
2025-07-02T1700,2427A,115.0307,30.2092,黄石市,团城山,,41,16,21,7,3,129,,114,114,4,5,7,8,0.5,0.4
2025-07-02T1700,3149A,115.0235,30.1578,黄石市,笔架山北路,,33,7,21,3,4,103,,96,96,4,9,3,6,0.3,0.3
2025-07-02T1700,4185A,115.0780,30.21118,黄石市,磁湖东路29号,,41,17,37,15,14,129,,118,118,13,13,8,11,0.6,0.6
2025-07-02T1700,1392A,114.4183,23.0528,惠州市,河南岸金山湖子站,,23,18,15,16,10,66,,58,58,4,10,6,7,0.2,0.3
2025-07-02T1700,1393A,114.4053,23.0822,惠州市,下埔横江三路子站,,22,15,16,6,8,68,,62,62,3,9,4,5,0.3,0.4
2025-07-02T1700,1394A,114.4103,23.1142,惠州市,江北云山西路子站,,25,19,16,6,6,78,,68,68,2,7,6,6,0.4,0.4
2025-07-02T1700,1395A,114.4645,22.7833,惠州市,惠阳区承修路船湖子站,,21,15,14,9,7,67,,58,58,5,9,7,7,0.4,0.4
2025-07-02T1700,1396A,114.5317,22.7422,惠州市,大亚湾管委会子站,,20,14,14,13,7,61,,51,51,5,14,10,10,0.4,0.5
2025-07-02T1700,3314A,114.4338,22.8134,惠州市,惠阳秋长,,25,,13,13,8,78,,69,69,4,9,6,9,0.4,0.4
2025-07-02T1700,3452A,114.6517,22.775,惠州市,大亚湾霞涌,,20,16,14,12,6,64,,55,55,9,11,5,5,0.5,0.5
2025-07-02T1700,2240A,130.9762,45.3001,鸡西市,环保局,,36,18,18,8,11,114,,95,95,6,14,4,4,0.4,0.5
2025-07-02T1700,2243A,130.9429,45.3039,鸡西市,第一中学,,,,18,11,11,111,,92,92,,21,7,7,0.4,0.5
2025-07-02T1700,3707A,131.0207,45.3073,鸡西市,欧美日汽修厂,,35,,15,9,10,110,,95,95,8,16,7,7,0.5,0.6
2025-07-02T1700,3709A,130.9967,45.3106,鸡西市,市政设施管理处,,,16,16,3,10,112,,90,90,,17,,4,0.5,0.7
2025-07-02T1700,2367A,114.9754,27.0803,吉安市,红声器材厂,,20,11,20,3,8,63,,54,54,1,7,8,9,0.3,0.3
2025-07-02T1700,2368A,114.9658,27.0999,吉安市,市森林工业局,,22,10,20,6,8,69,,60,60,1,6,7,9,0.2,0.4
2025-07-02T1700,2369A,114.99,27.1312,吉安市,市环境监测站,,22,10,25,3,9,68,,60,60,1,4,11,13,0.2,0.4
2025-07-02T1700,2370A,115.0093,27.0968,吉安市,青原区法院,,23,23,20,10,8,58,,52,52,4,10,7,8,0.3,0.4
2025-07-02T1700,1772A,126.54,43.8622,吉林市,哈达湾,,38,15,14,10,11,120,,99,99,3,5,6,6,0.4,0.4
2025-07-02T1700,1773A,126.5844,43.8358,吉林市,东局子,,37,16,16,8,12,118,,98,98,6,7,4,5,0.6,0.6
2025-07-02T1700,1774A,126.5052,43.8245,吉林市,电力学院,,39,23,17,21,11,122,,102,102,6,8,5,5,0.5,0.7
2025-07-02T1700,1775A,126.6133,43.8972,吉林市,江北,,35,25,19,17,10,110,,89,89,6,6,7,7,0.4,0.5
2025-07-02T1700,1776A,126.555,43.8306,吉林市,江南公园,,39,14,16,9,13,122,,103,103,3,5,2,2,0.5,0.5
2025-07-02T1700,1778A,126.7061,43.7133,吉林市,丰满,,,,,,,,,,,,,,,,
2025-07-02T1700,2868A,126.4739,43.953,吉林市,九站,,40,,14,14,12,126,,104,104,5,6,3,3,0.4,0.4
2025-07-02T1700,1299A,116.9862,36.6114,济南市,科干所,,40,22,16,20,10,127,,111,111,8,5,5,4,0.5,0.5
2025-07-02T1700,1300A,116.9376,36.665,济南市,农科所,,35,24,16,12,8,112,,99,99,9,9,7,7,0.2,0.1
2025-07-02T1700,1301A,117.1265,36.6734,济南市,开发区,,35,22,14,17,9,111,,87,87,10,11,6,6,0.6,0.5
2025-07-02T1700,1303A,117.0624,36.6868,济南市,省种子仓库,,40,24,22,12,8,128,,106,106,9,15,5,5,0.5,0.6
2025-07-02T1700,1304A,116.9489,36.6447,济南市,机床二厂,,38,27,19,7,8,120,,105,105,10,14,5,5,0.4,0.4
2025-07-02T1700,1305A,117.0495,36.663,济南市,市监测站,,35,20,16,12,11,112,,92,92,12,17,8,8,0.5,0.5
2025-07-02T1700,1306A,116.7675,36.5484,济南市,长清党校,,36,24,14,24,18,114,,108,108,10,11,3,4,0.4,0.4
2025-07-02T1700,1616A,117.6795,36.229,济南市,技术学院,,35,14,13,9,11,111,,99,99,6,18,7,7,0.6,0.8
2025-07-02T1700,1961A,117.532,36.6868,济南市,东山小学,,38,27,16,10,10,120,,109,109,8,11,7,6,0.3,0.3
2025-07-02T1700,3059A,117.7161,36.2049,济南市,泰兴公司,,30,12,21,9,12,95,,83,83,4,17,8,7,0.4,0.5
2025-07-02T1700,3064A,117.6867,36.2171,济南市,莱芜战役纪念馆,,31,14,19,8,11,99,,93,93,2,11,8,7,0.5,1.1
2025-07-02T1700,3494A,117.1673,36.9782,济南市,济阳区政府,,32,29,24,10,12,101,,101,101,8,10,5,5,0.0,0.1
2025-07-02T1700,3495A,117.1171,36.63,济南市,锦屏中学,,40,20,15,3,7,127,,104,104,7,7,5,5,0.6,0.5
2025-07-02T1700,3682A,116.9814,36.6819,济南市,济南四建,,39,22,18,15,13,122,,110,110,7,13,5,4,0.4,0.5
2025-07-02T1700,1653A,116.6251,35.4302,济宁市,火炬城,,35,23,27,3,12,109,,102,102,3,9,5,5,0.4,0.6
2025-07-02T1700,1655A,116.5491,35.4042,济宁市,电化厂,,33,16,26,12,14,104,,97,97,4,12,4,4,0.7,0.8
2025-07-02T1700,3500A,116.5814,35.3707,济宁市,北湖一中,,,,37,6,11,117,,108,108,3,10,7,8,0.2,0.4
2025-07-02T1700,3501A,116.8249,35.5593,济宁市,服务中心,,36,20,25,3,7,115,,103,103,7,13,3,3,0.2,0.3
2025-07-02T1700,3678A,116.5907,35.4054,济宁市,市第七中学,,33,23,31,3,6,105,,92,92,2,7,12,11,0.3,0.4
2025-07-02T1700,2255A,130.2751,46.8028,佳木斯市,佳纺,,36,10,27,9,14,114,,96,96,4,16,4,5,0.3,0.4
2025-07-02T1700,2256A,130.3995,46.8307,佳木斯市,发电厂,,38,19,23,13,14,119,,101,101,7,17,5,5,0.4,0.4
2025-07-02T1700,2257A,130.3258,46.7975,佳木斯市,环保局,,37,20,34,9,14,117,,98,98,6,18,6,6,0.5,0.5
2025-07-02T1700,2258A,130.3648,46.8032,佳木斯市,十一中,,38,20,21,9,16,121,,102,102,6,19,7,6,0.6,0.6
2025-07-02T1700,2259A,130.3794,46.7588,佳木斯市,四丰,,,12,19,,,,,,,4,16,1,1,0.6,0.6
2025-07-02T1700,1252A,120.7436,30.778,嘉兴市,清河小学,,45,28,30,11,9,143,,130,130,7,25,8,8,0.6,0.5
2025-07-02T1700,1253A,120.726,30.7478,嘉兴市,嘉兴学院,,48,30,25,13,12,153,,145,145,9,11,6,5,0.3,0.3
2025-07-02T1700,2872A,120.7846,30.7525,嘉兴市,南湖区残联,,46,16,26,13,12,147,,134,134,10,13,9,9,0.4,0.5
2025-07-02T1700,3407A,120.6916,30.7739,嘉兴市,秀洲住建,臭氧1小时,53,25,25,12,12,162,,151,151,10,14,7,6,0.6,0.6
2025-07-02T1700,1945A,98.2908,39.7711,嘉峪关市,气象局,颗粒物(PM10),70,90,54,22,13,123,,122,122,10,16,30,24,0.7,0.7
2025-07-02T1700,2884A,98.2672,39.7978,嘉峪关市,酒钢宾馆,颗粒物(PM10),73,95,68,24,16,128,,128,128,7,11,28,30,1.1,0.4
2025-07-02T1700,3248A,98.2643,39.7724,嘉峪关市,雄关区,颗粒物(PM10),59,68,47,27,17,118,,119,119,12,17,13,14,0.4,0.5
2025-07-02T1700,1383A,113.1064,22.6058,江门市,北街,,,,21,7,8,36,,55,55,9,22,3,3,0.2,0.3
2025-07-02T1700,1384A,113.0731,22.5835,江门市,西区,,,24,17,9,8,50,,58,58,,19,4,8,,0.5
2025-07-02T1700,1385A,113.0219,22.5311,江门市,圭峰西,,16,14,18,8,8,50,,53,53,8,16,2,3,0.3,0.4
2025-07-02T1700,1386A,113.0828,22.5947,江门市,东湖,,14,11,16,3,8,42,,52,52,8,20,7,7,0.3,0.4
2025-07-02T1700,3311A,113.1075,22.5647,江门市,江海富民,,20,19,23,14,10,48,,57,57,10,20,9,10,0.5,0.6
2025-07-02T1700,3449A,113.05,22.4667,江门市,新会银湖,,13,10,20,9,11,38,,43,42,8,15,2,2,0.4,0.4
2025-07-02T1700,1830A,113.1992,35.2590,焦作市,影视城,,,,20,,11,,,,,,9,,12,,0.4
2025-07-02T1700,3169A,113.2725,35.2067,焦作市,太极体育中心,,40,40,34,22,22,118,,115,115,4,11,4,2,0.3,0.4
2025-07-02T1700,3335A,113.3137,35.2641,焦作市,马村街道办,,35,27,31,18,17,110,,95,95,8,14,11,10,0.6,0.6
2025-07-02T1700,3336A,113.2465,35.2373,焦作市,焦作技师学院,,38,31,39,7,10,120,,113,113,8,12,2,2,0.7,0.8
2025-07-02T1700,3477A,113.1656,35.2539,焦作市,中站许衡医院,,38,28,30,19,22,119,,112,112,8,13,5,6,0.5,0.5
2025-07-02T1700,3981A,113.2449,35.1803,焦作市,原李万街道办,,37,34,35,7,9,116,,110,110,7,13,10,10,0.2,0.3
2025-07-02T1700,4264A,113.2340,35.2190,焦作市,新安路1731号,,40,28,31,11,14,125,,122,122,5,11,3,3,0.3,0.4
2025-07-02T1700,1708A,116.3701,23.5345,揭阳市,新兴,,33,29,33,19,15,104,,87,87,9,15,5,6,0.6,0.6
2025-07-02T1700,1709A,116.3264,23.5443,揭阳市,西马,,,84,39,17,14,109,,88,88,,15,3,4,0.5,0.7
2025-07-02T1700,1710A,116.3611,23.5626,揭阳市,东兴,颗粒物(PM10),52,54,38,16,12,122,,104,104,6,15,3,4,0.4,0.6
2025-07-02T1700,1711A,116.4151,23.5294,揭阳市,渔湖,颗粒物(PM10),54,57,33,10,12,101,,85,85,5,13,8,8,0.4,0.5
2025-07-02T1700,3320A,116.403,23.5699,揭阳市,曲溪,,39,39,28,9,12,110,,96,96,4,13,4,5,0.5,0.6
2025-07-02T1700,1944A,102.1692,38.5167,金昌市,天庆家园,,50,14,39,3,11,158,,143,143,5,16,14,12,0.8,0.7
2025-07-02T1700,4022A,102.1647,38.5371,金昌市,金川区人防中心,,47,18,43,7,12,148,,132,132,7,14,11,16,0.5,0.7
2025-07-02T1700,4239A,102.1930,38.5319,金昌市,长春路96号,,48,16,37,9,13,152,,137,137,3,12,33,25,0.0,0.5
2025-07-02T1700,1262A,119.647,29.077,金华市,十五中,,38,21,20,6,7,119,,92,92,7,10,4,4,0.4,0.4
2025-07-02T1700,1263A,119.686,29.1029,金华市,监测站,,35,29,21,7,7,110,,92,92,4,7,3,3,0.4,0.4
2025-07-02T1700,3659A,119.656,29.1131,金华市,气象局,,38,27,20,7,6,121,,99,99,6,12,3,4,0.3,0.3
2025-07-02T1700,1767A,121.1115,41.0879,锦州市,南山,,45,33,29,31,23,109,,99,99,6,10,4,5,0.7,0.8
2025-07-02T1700,1768A,121.0604,40.8428,锦州市,开发区,,32,32,31,16,24,96,,97,97,17,15,4,8,0.7,0.7
2025-07-02T1700,1769A,121.1836,41.1119,锦州市,百股街道,,37,25,31,22,22,118,,103,103,4,8,3,3,0.6,0.6
2025-07-02T1700,1770A,121.1178,41.1222,锦州市,天安街道,,38,38,29,24,22,112,,105,105,10,13,3,4,0.7,0.8
2025-07-02T1700,1771A,121.1303,41.1386,锦州市,北湖公园,,44,44,34,22,18,105,,98,98,7,10,3,3,0.8,0.8
2025-07-02T1700,2160A,112.85,35.5051,晋城市,自来水公司,,47,47,38,19,15,117,,100,100,5,6,3,3,0.4,0.4
2025-07-02T1700,2161A,112.8318,35.4936,晋城市,白云商贸,,35,22,27,3,5,111,,95,95,7,9,4,4,0.5,0.5
2025-07-02T1700,2162A,112.8508,35.4887,晋城市,市环保局,,48,48,49,14,14,112,,97,97,6,8,6,7,0.0,0
2025-07-02T1700,2163A,112.8676,35.4897,晋城市,技术学院,,35,29,21,14,11,110,,92,92,6,7,6,6,0.5,0.5
2025-07-02T1700,2165A,112.8453,35.546,晋城市,白马寺,,35,12,16,12,15,112,,95,95,2,3,5,5,0.5,0.5
2025-07-02T1700,3620A,112.8271,35.4828,晋城市,泽州一中,,36,36,28,7,11,114,,97,97,5,6,4,4,0.6,0.6
2025-07-02T1700,2173A,112.7249,37.7067,晋中市,南都小区,,,34,31,14,18,72,,97,82,1,8,3,2,,0.2
2025-07-02T1700,2174A,112.6991,37.6982,晋中市,榆次区政府,,21,,25,12,16,66,,92,76,4,4,5,5,0.6,0.7
2025-07-02T1700,2865A,112.7195,37.6828,晋中市,榆次三中,,23,7,24,3,12,72,,95,81,4,5,6,6,0.5,0.6
2025-07-02T1700,4200A,112.7478,37.6954,晋中市,迎宾街26号,,23,12,23,3,13,73,,92,82,3,6,6,6,0.5,0.6
2025-07-02T1700,2439A,112.2014,31.0481,荆门市,竹园小学,,30,29,20,8,9,94,,87,87,5,8,4,5,0.3,0.3
2025-07-02T1700,2440A,112.1969,30.9891,荆门市,掇刀,,31,18,18,7,11,99,,89,89,2,6,9,8,0.5,0.5
2025-07-02T1700,2441A,112.2213,31.0386,荆门市,石化一小,,32,15,22,12,10,100,,92,92,6,10,12,11,0.3,0.3
2025-07-02T1700,3012A,112.1849,31.0362,荆门市,西山林语,,30,15,17,8,9,95,,84,84,1,3,10,11,0.4,0.4
2025-07-02T1700,3547A,112.1632,31.0138,荆门市,龙泉中学南校,,30,6,15,3,9,95,,85,85,7,6,5,6,0.4,0.4
2025-07-02T1700,1844A,112.2494,30.3197,荆州市,市图书馆,,30,11,12,7,9,95,,86,86,4,7,2,3,0.5,0.5
2025-07-02T1700,1845A,112.2008,30.3544,荆州市,市委党校,,29,8,12,8,9,90,,76,76,8,12,6,7,0.3,0.3
2025-07-02T1700,3194A,112.2747,30.3122,荆州市,管委会,,28,,15,8,8,87,,81,81,6,8,4,5,0.5,0.5
2025-07-02T1700,4268A,112.1722,30.3366,荆州市,学苑路85号,,30,11,13,7,10,93,,78,78,10,13,4,4,0.1,0.2
2025-07-02T1700,2342A,117.3102,29.3867,景德镇市,王港中学,,,,,,,,,,,,,,,,
2025-07-02T1700,2343A,117.2117,29.2933,景德镇市,老干部活动中心,,34,28,29,20,15,107,,99,99,7,13,8,8,0.5,0.5
2025-07-02T1700,2344A,117.1894,29.2789,景德镇市,兽医站,,38,38,36,20,18,102,,94,94,5,10,5,5,0.5,0.4
2025-07-02T1700,2345A,117.1547,29.2617,景德镇市,台达陶瓷,,43,41,34,30,23,100,,98,98,11,17,23,25,0.4,0.7
2025-07-02T1700,2346A,117.2461,29.2956,景德镇市,陶研所,,35,35,28,21,17,106,,96,96,8,9,7,6,0.3,0.3
2025-07-02T1700,1803A,115.9872,29.6815,九江市,十里,,38,,16,20,17,119,,108,108,5,12,4,4,0.6,0.6
2025-07-02T1700,1804A,115.9584,29.7046,九江市,茅山头,,38,,21,15,13,120,,111,111,7,21,5,4,0.4,0.2
2025-07-02T1700,1805A,115.9877,29.7295,九江市,西园,,40,10,18,6,10,128,,116,116,8,25,5,8,0.7,0.7
2025-07-02T1700,1808A,115.9114,29.6038,九江市,综合工业园,颗粒物(PM10),52,53,22,13,9,114,,104,104,6,17,3,3,0.9,0.7
2025-07-02T1700,1809A,116.0721,29.7535,九江市,石化总厂,,39,18,26,6,18,124,,104,104,5,13,9,9,0.5,0.5
2025-07-02T1700,1810A,115.9773,29.5698,九江市,庐山气象台,,35,11,11,7,5,109,,93,93,4,4,7,8,0.9,0.8
2025-07-02T1700,3190A,116.0254,29.6994,九江市,外国语学校,,40,,16,12,13,128,,102,102,4,12,2,7,0.6,0.6
2025-07-02T1700,4253A,116.0102,29.6594,九江市,莲花大道8号,,39,,8,13,8,123,,91,91,2,4,4,4,0.6,0.5
2025-07-02T1700,4240A,98.4958,39.7339,酒泉市,玉门东路5号,颗粒物(PM10),71,92,64,29,28,120,,119,119,5,12,10,16,0.2,0.3
2025-07-02T1700,4241A,98.5099,39.7506,酒泉市,北大街108号,颗粒物(PM10),70,90,65,23,24,126,,126,126,3,13,11,16,0.3,0.3
2025-07-02T1700,2698A,76.0072,39.4467,喀什地区,巡警大队,颗粒物(PM10),116,181,340,53,74,157,,126,126,11,17,4,4,0.2,0.3
2025-07-02T1700,2699A,75.9755,39.4694,喀什地区,吾办,颗粒物(PM10),138,225,366,74,118,148,,124,124,13,12,7,7,0.4,0.5
2025-07-02T1700,4027A,75.9483,39.4689,喀什地区,老干局,颗粒物(PM10),141,232,355,52,91,150,,118,118,7,15,6,6,0.4,0.4
2025-07-02T1700,1824A,114.3389,34.7781,开封市,肿瘤医院,,41,25,17,9,10,131,,35,,8,14,3,2,0.5,0.5
2025-07-02T1700,1826A,114.2885,34.7965,开封市,世纪星幼儿园,,41,16,20,6,7,130,,134,134,8,13,3,3,0.3,0.4
2025-07-02T1700,3147A,114.3438,34.8106,开封市,龙亭公园,,42,22,21,13,11,133,,118,118,4,8,2,1,0.4,0.4
2025-07-02T1700,3210A,114.3644,34.7964,开封市,汴京公园,,47,47,29,6,12,138,,127,127,6,13,3,3,0.2,0.4
2025-07-02T1700,3473A,114.2485,34.8306,开封市,技师学院,,44,22,24,3,10,140,,130,130,3,7,4,3,0.4,0.6
2025-07-02T1700,3592A,114.4644,34.7556,开封市,祥符区生态环境局,,46,27,22,20,13,145,,125,125,12,19,4,3,0.4,0.6
2025-07-02T1700,1951A,84.895,45.6094,克拉玛依市,长征新村,,32,18,19,3,5,102,,95,95,3,9,3,4,0.3,0.3
2025-07-02T1700,1952A,84.8988,45.5893,克拉玛依市,南林小区,,33,10,21,3,6,104,,93,93,3,14,4,4,0.2,0.2
2025-07-02T1700,1954A,84.905,44.3396,克拉玛依市,独山子区,,39,34,26,3,7,122,,112,112,7,8,7,7,0.3,0.3
2025-07-02T1700,1955A,85.6979,46.098,克拉玛依市,乌尔禾区商贸楼,,32,15,26,8,5,102,,100,100,7,5,4,4,0.5,0.4
2025-07-02T1700,3612A,85.1045,45.6899,克拉玛依市,白碱滩区新站,,36,29,30,14,17,115,,97,97,8,11,7,7,0.2,0.3
2025-07-02T1700,2697A,76.1454,39.7142,克孜勒苏柯尔克孜自治州,市人民政府,细颗粒物(PM2.5),110,168,327,83,125,160,,134,134,2,11,4,6,0.1,0.1
2025-07-02T1700,3665A,76.1658,39.7157,克孜勒苏柯尔克孜自治州,克州文化中心,颗粒物(PM10),97,143,278,60,88,156,,138,138,3,8,4,5,0.3,0.3
2025-07-02T1700,1450A,102.8204,24.8886,昆明市,呈贡新区,,16,,3,3,5,49,,53,53,7,10,4,6,0.2,0.3
2025-07-02T1700,1451A,102.6251,24.9608,昆明市,西山森林公园,,,,,,,,,,,,,,,,
2025-07-02T1700,1452A,102.7252,25.0902,昆明市,龙泉镇,,,,11,6,4,46,,45,45,12,10,3,2,0.4,0.3
2025-07-02T1700,1453A,102.7266,25.0375,昆明市,东风东路,,25,25,14,3,7,54,,46,46,11,13,4,4,0.3,0.4
2025-07-02T1700,1454A,102.6742,25.0669,昆明市,金鼎山,,15,12,14,3,5,45,,47,47,15,10,1,2,0.4,0.4
2025-07-02T1700,1455A,102.6644,25.0401,昆明市,碧鸡广场,,14,12,12,3,5,44,,46,46,20,16,4,5,0.5,0.5
2025-07-02T1700,3179A,102.7494,25.0119,昆明市,官渡区博物馆,,16,8,10,3,4,49,,42,42,12,16,6,6,0.2,0.3
2025-07-02T1700,3375A,102.8017,24.8336,昆明市,青年创业园,,,7,6,3,4,52,,54,54,5,9,2,2,,0.4
2025-07-02T1700,3550A,102.7997,24.9786,昆明市,昆明学院,,17,7,8,3,5,54,,49,49,6,9,5,6,0.3,0.3
2025-07-02T1700,3551A,102.5967,24.6736,昆明市,晋宁区生态环境分局,,17,12,13,3,6,54,,55,55,8,10,3,2,0.1,0.1
2025-07-02T1700,3552A,102.6678,24.9856,昆明市,云天化总部,,18,9,11,3,5,57,,53,53,8,11,3,3,0.4,0.5
2025-07-02T1700,1456A,91.1319,29.6514,拉萨市,八廓街,,36,9,13,7,8,114,,109,109,7,7,8,7,0.2,0.2
2025-07-02T1700,1457A,91.1221,29.6747,拉萨市,市环保局,,39,8,13,3,7,122,,114,114,7,10,5,5,0.3,0.3
2025-07-02T1700,1458A,91.0874,29.6475,拉萨市,区监测站,,36,6,6,3,5,114,,105,105,6,10,7,7,0.2,0.3
2025-07-02T1700,1459A,91.1774,29.6541,拉萨市,西藏大学,,35,8,11,3,8,112,,108,108,9,9,7,6,0.3,0.3
2025-07-02T1700,1460A,90.9798,29.6588,拉萨市,区辐射站,,29,10,12,3,6,92,,97,97,16,10,6,6,0.3,0.2
2025-07-02T1700,1461A,91.0834,29.6292,拉萨市,拉萨火车站,,36,7,12,3,8,113,,105,105,5,7,4,4,0.2,0.2
2025-07-02T1700,2520A,109.2203,23.7256,来宾市,来宾技工学校,,36,36,17,8,8,61,,70,70,7,8,15,9,0.6,0.6
2025-07-02T1700,3535A,109.1781,23.7297,来宾市,兴宾区政府,,19,15,16,3,10,58,,71,71,4,10,5,7,0.5,0.6
2025-07-02T1700,4002A,109.2416,23.7461,来宾市,中南小学,,20,16,21,3,8,63,,72,72,5,9,13,12,0.4,0.4
2025-07-02T1700,1477A,104.1373,35.9454,兰州市,榆中兰大校区,,,,,,,,,,,,,,,,
2025-07-02T1700,1479A,103.831,36.0464,兰州市,铁路设计院,臭氧1小时,58,47,64,29,39,166,,115,115,27,50,8,12,0.4,0.7
2025-07-02T1700,3241A,103.7439,36.0842,兰州市,百合公园,臭氧1小时,75,,47,32,37,180,,155,155,5,39,6,6,0.4,0.7
2025-07-02T1700,3242A,103.9611,35.998,兰州市,和平,,50,20,42,3,27,158,,127,127,5,23,10,11,0.4,0.6
2025-07-02T1700,4236A,103.6293,36.0938,兰州市,庄浪东路808号,,50,34,49,19,33,158,,122,122,19,35,14,16,0.5,0.4
2025-07-02T1700,4237A,103.7251,36.1043,兰州市,安宁西路88号,臭氧1小时,103,40,54,22,32,205,,167,167,7,29,9,12,0.4,0.5
2025-07-02T1700,4238A,103.8470,36.0676,兰州市,北滨河东路1号,臭氧1小时,83,22,58,21,34,186,,124,124,16,58,8,11,0.5,0.9
2025-07-02T1700,3245A,103.6633,36.533,兰州新区,新区管委会,臭氧1小时,64,33,41,19,26,171,,137,137,6,14,12,16,0.3,0.5
2025-07-02T1700,3246A,103.6975,36.4789,兰州新区,舟曲中学,,50,13,45,7,29,160,,130,130,10,17,12,21,0.4,0.6
2025-07-02T1700,1067A,116.6708,39.5111,廊坊市,药材公司,,44,44,42,27,19,81,,112,112,13,19,2,2,0.6,0.4
2025-07-02T1700,1068A,116.7214,39.5589,廊坊市,开发区,,40,35,41,28,23,76,,111,111,12,18,1,1,0.4,0.4
2025-07-02T1700,1070A,116.7244,39.5269,廊坊市,北华航天学院,,48,45,59,33,25,100,,115,115,10,16,3,2,0.5,0.4
2025-07-02T1700,2919A,116.7022,39.5453,廊坊市,河北工业大学,,42,42,48,24,20,110,,129,129,14,21,2,3,0.3,0.3
2025-07-02T1700,2535A,103.7723,29.5462,乐山市,花湖湾,,35,22,20,16,14,110,,95,95,10,12,2,2,0.5,0.6
2025-07-02T1700,2536A,103.7627,29.5844,乐山市,牛耳桥,,40,25,23,14,16,128,,115,115,16,15,8,7,0.8,0.8
2025-07-02T1700,2537A,103.7508,29.6006,乐山市,市第三水厂,,,,23,23,17,125,,107,107,,16,5,5,0.5,0.6
2025-07-02T1700,2538A,103.7571,29.5664,乐山市,市监测站,,35,28,24,17,16,112,,94,94,7,10,5,5,0.7,0.7
2025-07-02T1700,3361A,103.7311,29.5628,乐山市,理工大学,,39,21,18,17,14,124,,103,103,9,10,7,7,0.6,0.6
2025-07-02T1700,2598A,100.2143,26.8576,丽江市,西南郊,,31,21,17,8,10,99,,85,85,4,8,6,6,0.9,1
2025-07-02T1700,2599A,100.2497,26.8802,丽江市,丽江古城,,30,,21,20,13,93,,82,82,8,10,10,10,0.5,0.5
2025-07-02T1700,2600A,100.2203,26.8906,丽江市,市中心,,31,30,17,11,9,98,,84,84,7,12,8,8,0.4,0.5
2025-07-02T1700,1267A,119.914,28.4514,丽水市,监测站大楼,,18,17,16,6,5,56,,59,59,6,10,3,3,0.3,0.3
2025-07-02T1700,1268A,119.93,28.4586,丽水市,莲都小学,,18,14,16,3,4,57,,58,58,3,8,3,4,0.3,0.4
2025-07-02T1700,1269A,119.879,28.4231,丽水市,余庄前,,20,10,13,3,6,63,,67,67,2,5,3,3,0.4,0.4
2025-07-02T1700,1173A,119.176,34.5885,连云港市,市环境监测站,,,17,27,12,20,110,,119,119,8,14,,3,0.2,0.3
2025-07-02T1700,3000A,119.3581,34.6972,连云港市,德源药业,,34,19,28,9,15,107,,112,112,7,12,8,7,0.2,0.5
2025-07-02T1700,3007A,119.178,34.844,连云港市,新城一中,,,36,33,28,26,152,,128,128,11,18,,5,0.8,0.9
2025-07-02T1700,3008A,119.3608,34.7519,连云港市,胡沟管理处,,46,19,22,9,13,145,,144,144,7,9,6,6,0.6,0.7
2025-07-02T1700,3009A,119.1478,34.5911,连云港市,矿山设计院,,30,14,25,9,14,95,,101,101,3,6,4,4,0.5,0.6
2025-07-02T1700,3434A,119.2413,34.6539,连云港市,工贸学校,,37,16,25,16,20,117,,116,116,1,4,6,7,0.4,0.6
2025-07-02T1700,3664A,119.4172,34.7341,连云港市,连云街道,,39,20,24,16,17,122,,136,136,4,5,7,7,0.3,0.5
2025-07-02T1700,2571A,102.3431,27.8099,凉山彝族自治州,青龙寺,,22,7,15,6,5,69,,75,75,2,4,5,5,0.4,0.4
2025-07-02T1700,2572A,102.2721,27.8415,凉山彝族自治州,邛海宾馆,,22,18,17,10,13,69,,74,74,3,8,9,9,0.3,0.3
2025-07-02T1700,2573A,102.2625,27.898,凉山彝族自治州,西昌市政府,,24,24,23,13,11,74,,75,75,5,6,11,13,0.6,0.5
2025-07-02T1700,2574A,102.2685,27.8851,凉山彝族自治州,凉山州政府,,24,20,19,14,12,76,,79,79,7,10,9,10,0.4,0.7
2025-07-02T1700,4229A,102.2342,27.8859,凉山彝族自治州,凯乐南路30号,,25,16,19,3,7,77,,72,72,5,8,15,14,0.6,0.8
2025-07-02T1700,2212A,123.2,41.1953,辽阳市,宏伟区,,23,14,16,3,5,72,,93,93,6,5,2,2,0.6,0.7
2025-07-02T1700,2213A,123.1683,41.2495,辽阳市,新华园,,26,21,20,3,9,81,,104,104,8,11,7,7,0.4,0.7
2025-07-02T1700,2214A,123.2354,41.2639,辽阳市,滨河路,,20,14,16,8,8,61,,85,85,9,7,6,7,0.4,0.4
2025-07-02T1700,2215A,123.149,41.2991,辽阳市,铁西工业园,颗粒物(PM10),88,126,34,45,15,106,,88,88,14,10,2,3,1.1,1.2
2025-07-02T1700,2227A,125.1358,42.8845,辽源市,环保局,,32,11,21,3,8,102,,105,105,2,4,5,2,0.4,0.4
2025-07-02T1700,3239A,125.0764,42.9078,辽源市,银鹰制药,,33,18,16,10,11,104,,107,107,8,7,4,3,0.5,0.4
2025-07-02T1700,1625A,115.9848,36.4372,聊城市,区政府,,33,18,19,14,12,105,,104,104,3,8,4,3,0.6,0.7
2025-07-02T1700,2878A,116.0072,36.4343,聊城市,聊大东校,,25,24,20,14,16,80,,103,103,6,8,6,4,0.7,0.5
2025-07-02T1700,3200A,115.9819,36.4978,聊城市,监控中心,,35,14,13,3,8,109,,116,115,6,11,4,6,0.5,0.6
2025-07-02T1700,3513A,116.0445,36.4361,聊城市,九州社区,,30,20,17,9,13,96,,98,98,6,9,1,3,0.3,0.3
2025-07-02T1700,4018A,116.0567,36.4608,聊城市,星美广场,,38,26,25,7,10,121,,120,120,5,10,10,10,0.7,0.7
2025-07-02T1700,2632A,94.3681,29.6376,林芝市,林芝监测站,,13,,5,3,6,41,,41,41,5,4,4,4,0.5,0.4
2025-07-02T1700,2633A,94.3616,29.6616,林芝市,林芝人民医院,,13,,7,6,5,40,,42,42,6,3,6,5,0.2,0.2
2025-07-02T1700,2603A,100.0781,23.8982,临沧市,市环保局,,16,12,15,7,18,49,,48,43,4,6,7,8,0.3,0.3
2025-07-02T1700,2604A,100.0894,23.8822,临沧市,市气象局,,15,14,15,9,12,48,,49,45,6,8,9,9,0.4,0.4
2025-07-02T1700,1733A,111.5531,36.0783,临汾市,临钢医院,,29,21,26,9,6,91,,91,91,8,14,5,5,0.5,0.6
2025-07-02T1700,1734A,111.5028,36.0714,临汾市,技工学校,,29,25,32,8,18,90,,90,90,7,13,4,4,0.6,0.6
2025-07-02T1700,1736A,111.5018,36.0855,临汾市,市委,,44,44,46,7,9,98,,96,96,11,17,5,4,0.9,0.9
2025-07-02T1700,3018A,111.505,36.1014,临汾市,唐尧大酒店,,42,42,48,7,12,95,,93,93,7,15,2,2,0.7,0.7
2025-07-02T1700,4244A,111.4879,36.0530,临汾市,启星学校,,33,33,32,16,25,81,,81,81,6,13,4,4,0.8,0.8
2025-07-02T1700,4271A,103.2464,35.6123,临夏回族自治州,滨河东路1号,,28,24,56,8,27,88,,83,83,7,18,4,3,0.3,0.4
2025-07-02T1700,4310A,103.2093,35.5995,临夏回族自治州,新华街21号,,35,28,54,3,30,112,,98,98,3,16,5,5,0.2,0.4
2025-07-02T1700,1618A,118.3429,35.0532,临沂市,沂河小区,,37,24,32,18,21,116,,127,127,7,16,8,11,0.3,0.4
2025-07-02T1700,1619A,118.295,35.0583,临沂市,鲁南制药厂,,38,22,27,15,18,121,,120,120,10,16,9,12,0.4,0.5
2025-07-02T1700,1620A,118.2794,34.9976,临沂市,新光毛纺厂,,38,,28,15,19,120,,126,126,6,15,8,11,0.3,0.4
2025-07-02T1700,1621A,118.3956,35.0888,临沂市,河东保险公司,,39,17,27,9,11,122,,130,130,9,16,5,7,0.5,0.5
2025-07-02T1700,3370A,118.3564,35.0215,临沂市,十里堡居委,,38,7,23,7,15,121,,137,137,10,20,8,8,0.4,0.5
2025-07-02T1700,3496A,118.3604,35.1084,临沂市,南坊新区,,38,22,33,3,11,120,,134,134,8,15,9,10,0.4,0.4
2025-07-02T1700,3860A,118.3920,35.0300,临沂市,皇山花园小区,,34,,27,13,22,108,,125,125,6,15,9,10,0.6,0.8
2025-07-02T1700,1870A,109.4856,24.3895,柳州市,柳东小学,,23,6,16,6,9,72,,66,66,2,8,3,5,0.4,0.4
2025-07-02T1700,1871A,109.4157,24.3277,柳州市,环保监测站,,48,,19,33,14,81,,67,67,7,11,7,8,0.1,0.5
2025-07-02T1700,1872A,109.389,24.341,柳州市,河西水厂,,26,12,23,3,12,82,,62,62,5,13,4,4,0.4,0.5
2025-07-02T1700,1873A,109.4311,24.2921,柳州市,市四中,,31,31,17,9,8,86,,66,66,6,12,6,6,0.4,0.4
2025-07-02T1700,1874A,109.4006,24.3631,柳州市,市九中,,25,12,31,3,10,80,,67,67,5,13,2,3,0.5,0.7
2025-07-02T1700,1875A,109.4958,24.3134,柳州市,古亭山,,23,10,20,9,7,73,,64,64,2,10,4,4,0.4,0.5
2025-07-02T1700,3402A,109.5422,24.3996,柳州市,市二中,,24,11,18,8,11,75,,70,70,4,14,5,12,0.4,0.5
2025-07-02T1700,2307A,116.5079,31.737,六安市,监测大楼,,23,17,12,8,9,73,,69,69,3,5,5,5,0.4,0.2
2025-07-02T1700,2308A,116.4738,31.7643,六安市,皖西学院,,24,,8,7,8,74,,76,76,2,3,2,3,0.1,0.1
2025-07-02T1700,2309A,116.4996,31.7905,六安市,朝阳厂,,19,,9,7,8,59,,60,60,4,7,6,6,0.2,0.2
2025-07-02T1700,2310A,116.5567,31.7886,六安市,开发区,,23,,14,7,13,73,,72,72,2,6,3,4,0.3,0.3
2025-07-02T1700,2576A,104.8,26.5892,六盘水市,窑上,,,14,18,3,2,39,,36,36,3,3,,3,0.3,0.3
2025-07-02T1700,2577A,104.83,26.5917,六盘水市,黄土坡,,14,12,6,3,5,42,,37,37,9,9,9,8,0.4,0.4
2025-07-02T1700,2578A,104.89,26.5939,六盘水市,水钢,,16,16,15,6,7,51,,46,46,2,3,10,9,0.3,0.3
2025-07-02T1700,2579A,104.8475,26.5894,六盘水市,民中,,15,6,5,3,1,48,,42,42,4,5,8,8,0.3,0.3
2025-07-02T1700,2580A,104.9544,26.5506,六盘水市,双水,,15,,1,3,4,46,,45,42,4,4,9,9,0.3,0.3
2025-07-02T1700,2335A,117.0189,25.1181,龙岩市,龙岩师专,,,,,,,,,,,,,,,,
2025-07-02T1700,2336A,117.0217,25.1033,龙岩市,龙岩市监测站,,29,20,19,9,15,90,,91,91,4,10,4,7,0.4,0.4
2025-07-02T1700,2337A,117.0258,25.0661,龙岩市,闽西职业技术学院,,26,18,25,15,12,83,,82,82,2,10,4,15,0.5,0.5
2025-07-02T1700,2338A,117.0196,25.0306,龙岩市,龙岩学院,,31,31,27,18,15,88,,87,87,5,8,5,6,0.4,0.5
2025-07-02T1700,2665A,105.0822,33.3261,陇南市,汉王镇固水子,,,,,,,,,,,,,,,,
2025-07-02T1700,2885A,104.9339,33.3826,陇南市,滨江中学,,27,25,29,10,11,85,,82,82,3,5,4,4,0.4,0.4
2025-07-02T1700,3247A,104.955,33.371,陇南市,市总工会,,30,28,32,8,8,96,,93,93,2,5,7,7,0.4,0.4
2025-07-02T1700,2487A,111.9589,27.8901,娄底市,电视发射台,,17,11,17,3,5,52,,50,50,8,10,8,7,0.7,0.9
2025-07-02T1700,2488A,111.9975,27.725,娄底市,市监测站,,27,27,15,17,11,58,,54,54,5,7,9,10,0.2,0.2
2025-07-02T1700,2489A,112.0194,27.7314,娄底市,市委党校,,20,12,14,3,6,62,,58,58,6,6,9,10,0.2,0.4
2025-07-02T1700,2490A,111.9561,27.7569,娄底市,涟钢,,28,28,20,8,9,54,,50,50,13,14,7,10,1.1,1.2
2025-07-02T1700,2491A,111.9892,27.7044,娄底市,市政府,,20,16,15,3,7,62,,58,58,1,3,6,6,0.5,0.5
2025-07-02T1700,1893A,105.4324,28.9634,泸州市,九狮山,,25,16,19,8,16,78,,76,76,4,8,4,5,0.2,0.2
2025-07-02T1700,1894A,105.4427,28.9063,泸州市,小市上码头,,24,11,14,3,3,76,,75,75,5,7,2,2,0.3,0.3
2025-07-02T1700,1895A,105.4241,28.8573,泸州市,兰田宪桥,,23,10,15,3,5,72,,69,69,9,11,7,7,0.8,0.8
2025-07-02T1700,1896A,105.4379,28.8833,泸州市,市环监站,,24,7,11,6,7,74,,69,69,5,10,3,4,0.5,0.6
2025-07-02T1700,4272A,105.3689,28.7783,泸州市,纳溪中医医院,,24,24,19,8,10,70,,65,65,8,16,4,4,0.2,0.4
2025-07-02T1700,2183A,111.1406,37.5211,吕梁市,环保局,,30,30,45,11,17,75,,80,80,10,28,4,5,0.5,0.6
2025-07-02T1700,2185A,111.1297,37.5136,吕梁市,自来水公司,,18,,46,9,16,56,,66,66,7,23,1,2,0.5,0.6
2025-07-02T1700,2867A,111.1283,37.51,吕梁市,马茂庄小学,,21,20,45,3,16,66,,75,75,14,28,3,4,0.4,0.5
2025-07-02T1700,1812A,112.3931,34.6516,洛阳市,市委党校,,31,23,16,11,10,97,,93,93,4,10,6,5,0.4,0.5
2025-07-02T1700,1815A,112.494,34.6886,洛阳市,河南林校,,35,25,20,13,11,111,,114,114,6,11,6,8,0.3,0.4
2025-07-02T1700,1816A,112.3844,34.623,洛阳市,开发区管委会,,34,27,18,14,11,108,,106,106,2,6,15,12,0.5,0.5
2025-07-02T1700,1817A,112.4267,34.6258,洛阳市,市委新办公区,,33,23,18,14,12,104,,99,99,8,10,12,11,0.4,0.5
2025-07-02T1700,3340A,112.6005,34.6326,洛阳市,伊滨,,32,31,28,8,9,100,,100,100,5,11,3,3,0.4,0.4
2025-07-02T1700,3341A,112.4951,34.6332,洛阳市,中移产业园,,,18,14,16,13,92,,94,94,,9,5,8,0.6,0.8
2025-07-02T1700,3593A,112.5736,34.8993,洛阳市,吉利监测站,,35,22,26,12,12,111,,115,115,2,10,5,5,0.4,0.5
2025-07-02T1700,3635A,112.3677,34.662,洛阳市,河科大西苑校区,,35,22,16,12,9,110,,105,105,8,12,13,9,0.6,0.6
2025-07-02T1700,3636A,112.4388,34.6781,洛阳市,英才小学,,29,11,17,11,11,92,,92,92,2,9,8,8,0.5,0.7
2025-07-02T1700,4214A,112.4600,34.6949,洛阳市,春都路1号院,,31,15,18,8,6,99,,100,100,3,8,1,3,0.5,0.6
2025-07-02T1700,2399A,114.051,33.5699,漯河市,三五一五工厂,,32,8,24,7,11,100,,105,105,6,21,4,4,0.4,0.5
2025-07-02T1700,2400A,114.0055,33.5698,漯河市,漯河大学,,32,24,23,3,6,102,,106,106,8,21,4,4,0.3,0.4
2025-07-02T1700,2401A,114.0138,33.5828,漯河市,市水利局,,31,12,16,3,8,99,,102,102,4,17,3,3,0.5,0.7
2025-07-02T1700,2402A,114.0261,33.5698,漯河市,市广电局,,34,10,19,6,13,107,,111,111,4,21,2,2,0.3,0.5
2025-07-02T1700,3478A,113.9749,33.5664,漯河市,市图书馆,,42,42,32,9,13,102,,103,103,6,19,3,4,0.2,0.4
2025-07-02T1700,4250A,114.0892,33.5882,漯河市,韶山路11号,,31,14,24,3,12,99,,105,105,6,20,2,3,0.3,0.5
2025-07-02T1700,1798A,118.5092,31.6837,马鞍山市,湖东路四小,,48,28,32,8,17,153,,131,131,3,8,8,8,0.5,0.6
2025-07-02T1700,1799A,118.5024,31.6449,马鞍山市,开发区,,45,43,46,14,19,141,,127,127,5,18,6,5,0.6,0.7
2025-07-02T1700,1802A,118.6245,31.7241,马鞍山市,濮塘,,42,33,29,14,19,132,,122,122,4,7,8,7,0.7,0.7
2025-07-02T1700,3633A,118.4918,31.6809,马鞍山市,雨山,,33,33,36,15,19,100,,117,117,52,16,5,5,0.6,0.7
2025-07-02T1700,4191A,118.5274,31.72227,马鞍山市,慈湖高新区,,50,28,36,20,21,159,,128,128,11,18,7,8,0.5,0.5
2025-07-02T1700,1686A,111.0286,21.4688,茂名市,电白南海,,14,12,16,3,9,44,,38,38,6,9,1,2,0.0,0
2025-07-02T1700,1687A,110.9294,21.6533,茂名市,茂石化七小,,,,16,7,6,38,,32,32,6,8,3,4,0.4,0.5
2025-07-02T1700,1688A,110.9107,21.6687,茂名市,健康路,,13,12,11,3,6,41,,36,36,8,10,5,4,0.5,0.5
2025-07-02T1700,1689A,110.8592,21.6828,茂名市,高岭,,27,27,24,3,7,39,,31,31,10,14,5,8,0.5,0.6
2025-07-02T1700,3450A,111.01,21.5165,茂名市,电白水东,,16,7,11,3,6,50,,43,43,6,8,5,5,0.3,0.3
2025-07-02T1700,2539A,104.0308,30.0478,眉山市,黑龙滩水库,,34,33,26,3,6,108,,83,83,7,5,2,2,0.5,0.4
2025-07-02T1700,2540A,103.8416,30.0874,眉山市,气象局,,33,26,24,9,11,103,,104,104,12,16,3,3,0.5,0.5
2025-07-02T1700,3137A,103.8578,30.0744,眉山市,市委党校,,30,22,20,9,9,96,,94,94,12,14,7,5,0.5,0.5
2025-07-02T1700,3148A,103.8291,30.0564,眉山市,区人社局,,31,30,34,9,6,97,,100,100,16,16,19,10,0.7,0.6
2025-07-02T1700,1690A,116.1231,24.3284,梅州市,梅江月梅,,29,29,20,6,9,81,,64,64,3,6,7,8,0.5,0.5
2025-07-02T1700,1691A,116.0797,24.2719,梅州市,梅县新城,,25,23,18,3,8,77,,70,70,5,10,6,7,0.5,0.6
2025-07-02T1700,1692A,116.1248,24.2654,梅州市,环境监控中心,,29,29,20,10,8,65,,62,62,6,12,3,6,0.5,0.5
2025-07-02T1700,3315A,116.1233,24.2991,梅州市,梅龙,,22,,14,10,9,70,,65,65,3,6,6,7,0.4,0.5
2025-07-02T1700,1878A,104.7778,31.4741,绵阳市,富乐山,,20,15,20,14,13,60,,52,52,16,11,8,8,0.6,0.5
2025-07-02T1700,1880A,104.6697,31.4668,绵阳市,高新区自来水公司,,22,16,24,7,9,68,,54,54,8,14,6,6,0.4,0.4
2025-07-02T1700,1881A,104.7287,31.5075,绵阳市,三水厂,,18,14,19,10,15,57,,46,46,14,16,8,8,0.6,0.6
2025-07-02T1700,3491A,104.69,31.5322,绵阳市,西科大附属小学,,20,18,28,3,15,63,,54,54,9,16,7,7,0.5,0.4
2025-07-02T1700,3492A,104.5648,31.5343,绵阳市,安州区旅游局,,19,18,22,12,8,60,,62,54,13,13,5,5,0.5,0.4
2025-07-02T1700,4226A,104.7651,31.4531,绵阳市,绵阳市气象局,,21,21,21,11,12,64,,52,52,12,11,12,11,0.5,0.5
2025-07-02T1700,1784A,129.61,44.561,牡丹江市,环保大楼,颗粒物(PM10),97,144,24,15,10,106,,91,91,8,12,1,1,0.3,0.3
2025-07-02T1700,1785A,129.6115,44.5782,牡丹江市,文化广场,,33,,16,14,15,104,,90,90,10,14,4,5,0.4,0.4
2025-07-02T1700,1786A,129.5904,44.5963,牡丹江市,第一医院,,34,19,14,9,10,108,,92,92,7,13,6,5,0.1,0.2
2025-07-02T1700,1787A,129.6364,44.6075,牡丹江市,机车工厂,,33,22,18,3,5,103,,85,85,6,10,4,4,0.4,0.5
2025-07-02T1700,1788A,129.6386,44.5462,牡丹江市,第一中学,,32,18,15,3,6,101,,89,89,8,11,5,5,0.4,0.5
2025-07-02T1700,2531A,105.0703,29.61,内江市,市监测站,,37,10,20,3,13,118,,100,100,10,10,5,6,0.6,0.7
2025-07-02T1700,2532A,105.0717,29.5947,内江市,东兴区政府,,35,6,13,3,4,110,,93,93,7,8,4,4,0.4,0.5
2025-07-02T1700,2533A,105.0653,29.5817,内江市,内江二中,,35,15,20,8,13,111,,88,88,7,9,8,7,0.4,0.5
2025-07-02T1700,2534A,105.0406,29.5822,内江市,内江日报社,,35,23,15,18,13,112,,93,93,7,12,10,9,0.4,0.4
2025-07-02T1700,2628A,92.0657,31.4846,那曲市,那曲监测站,,,,18,,10,120,,112,112,8,15,15,17,0.2,0.5
2025-07-02T1700,4243A,92.0515,31.4787,那曲市,那曲市委宣传部,,41,11,7,3,5,131,,,,5,8,8,8,0.3,0.4
2025-07-02T1700,1290A,115.8931,28.6843,南昌市,省外办,,30,,24,19,17,96,,97,97,6,23,2,3,0.4,0.5
2025-07-02T1700,1291A,115.8886,28.7003,南昌市,省林业公司,,33,22,29,14,13,105,,107,107,4,23,10,11,0.4,0.7
2025-07-02T1700,1292A,115.8126,28.7442,南昌市,林科所,,35,22,13,12,6,111,,107,107,3,12,6,6,0.3,0.3
2025-07-02T1700,1294A,115.8518,28.687,南昌市,建工学校,,34,23,27,6,13,106,,106,106,6,24,8,9,0.5,0.5
2025-07-02T1700,1295A,115.8921,28.6424,南昌市,象湖,,31,25,22,9,9,99,,98,98,5,17,7,9,0.5,0.5
2025-07-02T1700,1296A,115.7423,28.7996,南昌市,武术学校,,24,17,20,13,10,76,,81,81,2,3,9,9,0.6,0.6
2025-07-02T1700,3046A,115.9084,28.6062,南昌市,机电学校,,32,23,29,12,12,102,,96,96,5,20,4,6,0.4,0.5
2025-07-02T1700,3690A,115.9721,28.7031,南昌市,外国语学校,,33,27,26,6,11,105,,101,101,4,16,12,12,0.7,0.7
2025-07-02T1700,4192A,115.9316,28.68677,南昌市,南京东路235号,颗粒物(PM10),59,67,34,12,11,102,,99,99,8,20,4,6,0.4,0.5
2025-07-02T1700,1905A,106.056,30.8064,南充市,西山风景区,,,,,,,,,,,,,,,,
2025-07-02T1700,1906A,106.0789,30.8023,南充市,南充市委,,40,26,23,22,16,126,,100,100,7,10,5,5,0.3,0.4
2025-07-02T1700,1907A,106.1031,30.8217,南充市,南充炼油厂,,38,24,21,13,14,119,,94,94,8,7,6,6,0.3,0.3
2025-07-02T1700,4227A,106.1083,30.7884,南充市,梨树横街98号,,40,22,21,3,12,126,,100,100,7,8,4,3,0.2,0.3
2025-07-02T1700,4304A,106.1172,30.843,南充市,清泉寺北路188号,,35,14,22,6,11,111,,83,83,6,6,2,2,0.3,0.4
2025-07-02T1700,4305A,106.067,30.7616,南充市,同庆路1号,,37,24,19,12,11,118,,97,97,6,11,4,3,0.4,0.5
2025-07-02T1700,1151A,118.8086,32.1065,南京市,迈皋桥,,39,26,23,9,14,124,,125,123,1,20,4,4,0.7,0.8
2025-07-02T1700,1152A,118.7538,32.0551,南京市,草场门,,46,34,27,19,16,146,,128,128,9,19,6,6,0.8,0.8
2025-07-02T1700,1153A,118.7794,32.0745,南京市,山西路,,46,34,31,12,9,146,,133,133,2,5,4,4,0.3,0.3
2025-07-02T1700,1154A,118.7752,32.0023,南京市,中华门,,36,19,25,14,13,114,,109,109,5,13,9,9,0.6,0.8
2025-07-02T1700,1155A,118.8109,32.0309,南京市,瑞金路,,40,24,23,14,14,126,,129,129,7,9,6,6,0.2,0.4
2025-07-02T1700,1156A,118.7997,32.0754,南京市,玄武湖,,37,33,29,11,8,116,,113,113,8,13,4,4,0.3,0.5
2025-07-02T1700,1157A,118.6414,32.0931,南京市,浦口,,45,25,28,15,14,144,,128,128,8,12,3,3,0.3,0.3
2025-07-02T1700,1158A,118.7356,31.9996,南京市,奥体中心,,,29,29,17,15,141,,118,118,7,24,,5,0.3,0.3
2025-07-02T1700,1159A,118.9125,32.1028,南京市,仙林大学城,,41,29,35,7,10,130,,133,133,3,10,6,6,0.6,0.6
2025-07-02T1700,3422A,118.8436,31.9198,南京市,江宁彩虹桥,,38,22,32,19,17,119,,126,126,2,17,3,3,0.5,0.6
2025-07-02T1700,3427A,118.8554,32.3578,南京市,六合雄州,,47,33,33,14,17,149,,153,153,3,23,5,4,0.8,0.8
2025-07-02T1700,4249A,118.8708,31.3402,南京市,汶溪路181号,,30,16,22,12,17,94,,108,108,7,14,5,5,0.4,0.5
2025-07-02T1700,4312A,119.019,31.6512,南京市,中山西路1号,,30,14,21,10,14,95,,109,107,5,12,4,4,0.5,0.6
2025-07-02T1700,1401A,108.3103,22.7881,南宁市,二十一中,,,8,18,8,7,30,,38,37,,4,3,4,0.4,0.3
2025-07-02T1700,1402A,108.3141,22.8528,南宁市,北湖,,21,21,19,7,8,34,,46,46,23,10,3,4,0.4,0.4
2025-07-02T1700,1403A,108.3206,22.8225,南宁市,市监测站,,18,18,19,6,9,35,,40,40,16,9,6,6,0.5,0.4
2025-07-02T1700,1404A,108.3829,22.8037,南宁市,大自然花园,,18,17,19,12,9,44,,49,48,10,8,4,4,0.4,0.3
2025-07-02T1700,1405A,108.4394,22.7904,南宁市,仙葫,,20,20,16,8,10,53,,54,54,9,10,9,9,0.5,0.5
2025-07-02T1700,1406A,108.2397,22.8467,南宁市,区农职院,,18,18,17,8,9,32,,46,46,20,11,2,2,0.5,0.5
2025-07-02T1700,1407A,108.3275,22.735,南宁市,英华嘉园,,12,7,16,3,7,36,,51,51,11,6,6,7,0.4,0.3
2025-07-02T1700,3401A,108.4834,22.7618,南宁市,红星社区,,27,27,20,7,7,45,,52,52,6,6,2,2,0.4,0.4
2025-07-02T1700,4221A,108.2177,22.7774,南宁市,乐贤路16号,,15,,18,10,9,38,,50,50,15,15,5,7,0.4,0.4
2025-07-02T1700,2331A,118.0966,26.6761,南平市,茫荡山,,,,,,,,,,,,,,,,
2025-07-02T1700,2332A,118.1681,26.6369,南平市,南平市监测站,,16,12,11,8,8,49,,50,50,2,6,4,6,0.3,0.4
2025-07-02T1700,2333A,118.1825,26.6489,南平市,南平铝业有限公司,,16,11,15,3,4,49,,49,49,2,7,4,6,0.4,0.4
2025-07-02T1700,2334A,118.1756,26.6272,南平市,南平七中,,20,20,14,3,6,51,,53,53,1,5,4,5,0.4,0.4
2025-07-02T1700,1168A,120.9098,31.9663,南通市,狼山街道,臭氧1小时,95,32,28,18,12,196,,168,168,6,20,5,5,0.7,0.6
2025-07-02T1700,1169A,120.86,32.0005,南通市,虹桥,臭氧1小时,104,34,24,19,16,208,,170,170,17,28,4,4,0.5,0.8
2025-07-02T1700,1170A,120.87,32.02,南通市,城中,,,43,33,18,11,187,,145,145,,21,6,6,0.2,0.4
2025-07-02T1700,1171A,120.94,31.93,南通市,星湖花园,臭氧1小时,85,32,27,17,14,188,,179,179,14,28,4,5,0.4,0.4
2025-07-02T1700,1172A,120.81,32.0417,南通市,紫琅学院,,50,30,30,13,9,158,,149,149,23,29,6,8,0.5,0.5
2025-07-02T1700,3291A,121.067,32.062,南通市,通州监测站,臭氧1小时,92,31,23,14,8,193,,150,150,7,16,7,7,0.7,0.6
2025-07-02T1700,3432A,120.9348,31.9883,南通市,环境教育馆,臭氧1小时,107,39,36,14,10,214,,183,183,9,23,4,4,0.3,0.3
2025-07-02T1700,2404A,112.5224,33.0122,南阳市,瓦房庄,,30,24,24,3,5,95,,92,92,5,12,6,6,0.3,0.3
2025-07-02T1700,2405A,112.5003,32.9735,南阳市,汉画馆,细颗粒物(PM2.5),55,,22,39,12,94,,91,91,6,13,5,5,0.3,0.4
2025-07-02T1700,2406A,112.5573,33.027,南阳市,气象站,,30,6,11,3,6,93,,91,91,4,12,6,6,0.3,0.3
2025-07-02T1700,2407A,112.5481,32.9689,南阳市,理工学院,,29,19,16,6,10,90,,88,88,6,14,5,5,0.2,0.2
2025-07-02T1700,4008A,112.5234,32.9922,南阳市,卧龙区政府,,30,21,20,7,10,95,,91,91,7,14,5,4,0.3,0.4
2025-07-02T1700,1234A,121.8358,29.911,宁波市,区环保大楼,,36,36,19,8,7,52,,53,53,6,6,3,3,0.4,0.4
2025-07-02T1700,1235A,121.56,29.82,宁波市,万里学院,,29,,15,20,10,71,,68,68,3,7,2,2,0.3,0.3
2025-07-02T1700,1236A,121.713,29.9572,宁波市,龙赛医院,,28,28,19,6,5,68,,63,63,6,7,2,2,0.4,0.4
2025-07-02T1700,1239A,121.633,29.7733,宁波市,钱湖水厂,,38,28,14,26,8,70,,62,62,2,2,3,4,0.3,0.3
2025-07-02T1700,1240A,121.5856,29.8635,宁波市,太古小学,,25,24,17,17,7,68,,68,68,3,6,4,4,0.2,0.2
2025-07-02T1700,1241A,121.524,29.8674,宁波市,市环境监测中心,,,26,12,8,5,66,,62,62,11,10,,5,0.4,0.4
2025-07-02T1700,2871A,121.6147,29.9017,宁波市,万里国际学校,,24,15,12,11,5,74,,72,72,3,5,3,3,0.3,0.3
2025-07-02T1700,3710A,121.5594,29.8975,宁波市,白沙活动中心,,23,20,14,11,4,73,,75,75,3,5,3,4,0.3,0.3
2025-07-02T1700,2339A,119.5001,26.6946,宁德市,金涵水库,,,,,,,,,,,,,,,,
2025-07-02T1700,2341A,119.5388,26.6612,宁德市,宁德市监测站,,16,16,17,10,6,49,,62,62,3,6,4,4,0.3,0.3
2025-07-02T1700,3209A,119.5231,26.6562,宁德市,宁德一中,,15,13,14,3,4,48,,61,61,2,2,3,4,0.3,0.2
2025-07-02T1700,2618A,98.8601,25.8567,怒江傈僳族自治州,州监测站,,27,27,21,9,12,50,,49,49,5,7,8,9,0.4,0.4
2025-07-02T1700,2619A,98.8546,25.8417,怒江傈僳族自治州,泸水一中,颗粒物(PM10),66,82,20,16,12,34,,40,39,7,11,6,6,0.9,0.4
2025-07-02T1700,1888A,101.6891,26.571,攀枝花市,弄弄坪,,25,20,48,8,16,79,,71,71,8,24,9,14,0.6,0.7
2025-07-02T1700,1889A,101.5769,26.5928,攀枝花市,河门口,,27,23,35,10,16,84,,73,73,10,16,15,11,1.1,0.9
2025-07-02T1700,1890A,101.7169,26.585,攀枝花市,炳草岗,,24,24,40,8,20,76,,76,76,10,22,10,18,0.7,0.8
2025-07-02T1700,1891A,101.7369,26.5008,攀枝花市,仁和,,24,18,22,11,13,74,,62,62,7,12,15,11,0.5,0.6
2025-07-02T1700,2835A,101.7227,26.567,攀枝花市,四十中小,,32,32,35,15,14,81,,79,79,11,18,12,25,0.6,0.8
2025-07-02T1700,1604A,122.0303,41.1489,盘锦市,开发区,,38,38,23,7,11,113,,102,102,17,14,6,6,0.6,1.4
2025-07-02T1700,1605A,122.0485,41.0883,盘锦市,兴隆台,,31,31,15,12,10,99,,93,93,13,13,2,2,0.4,0.4
2025-07-02T1700,1606A,121.8297,41.1028,盘锦市,新生街道,,37,23,14,17,9,118,,111,111,10,10,6,6,0.5,0.5
2025-07-02T1700,1832A,113.3257,33.742,平顶山市,新华旅馆,,29,,14,9,13,92,,76,76,10,17,3,4,0.2,0.3
2025-07-02T1700,1833A,113.2919,33.737,平顶山市,规划设计院,,31,14,19,3,11,97,,90,90,5,15,4,5,0.5,0.7
2025-07-02T1700,1834A,113.182,33.774,平顶山市,平顶山工学院,,37,37,15,3,6,106,,97,97,4,10,5,6,0.4,0.5
2025-07-02T1700,3204A,113.3025,33.73,平顶山市,规划局,,32,17,13,6,6,102,,92,92,6,16,2,3,0.3,0.4
2025-07-02T1700,3594A,112.8867,33.9116,平顶山市,石龙区,,36,9,17,8,10,113,,96,96,6,12,7,6,0.4,0.5
2025-07-02T1700,2656A,106.6692,35.5461,平凉市,聚贤嘉苑,,43,43,41,10,15,81,,80,80,6,13,20,9,0.8,0.9
2025-07-02T1700,2657A,106.7021,35.5307,平凉市,博物馆,,32,32,35,3,5,79,,82,82,8,14,11,10,0.8,0.8
2025-07-02T1700,2347A,114.0997,27.5002,萍乡市,武功山,,35,7,4,3,4,110,,77,77,5,4,15,13,1.0,0.5
2025-07-02T1700,2348A,113.8385,27.6434,萍乡市,中医院,,30,30,25,9,9,76,,77,77,2,12,11,15,0.8,0.8
2025-07-02T1700,2349A,113.8493,27.6253,萍乡市,市政府车库,,20,,16,11,12,64,,68,68,1,7,8,9,0.4,0.4
2025-07-02T1700,2350A,113.8676,27.6435,萍乡市,市环保局,,31,31,37,18,15,77,,78,78,6,14,8,7,0.7,0.7
2025-07-02T1700,2351A,113.866,27.6198,萍乡市,安源区政府,,21,10,21,8,9,66,,76,76,1,6,8,8,0.4,0.5
2025-07-02T1700,2319A,119.0141,25.4325,莆田市,荔城区仓后路,,17,16,16,3,3,52,,52,52,5,6,4,4,0.5,0.5
2025-07-02T1700,2320A,119.0015,25.4553,莆田市,莆田市监测站,,19,19,14,3,5,48,,54,54,6,6,4,4,0.3,0.3
2025-07-02T1700,2321A,119.1119,25.4561,莆田市,涵江区六中,,20,20,16,3,3,52,,53,53,4,5,3,3,0.3,0.2
2025-07-02T1700,2322A,119.1013,25.3215,莆田市,秀屿区政府,,21,21,19,7,4,54,,52,52,6,6,6,4,0.5,0.4
2025-07-02T1700,2323A,118.981,25.4792,莆田市,东圳水库,,,,,,,,,,,,,,,,
2025-07-02T1700,2392A,115.0312,35.7636,濮阳市,环保局,,43,34,24,16,12,136,,122,122,6,9,3,3,0.4,0.5
2025-07-02T1700,2394A,115.0574,35.7609,濮阳市,油田运输公司,,41,30,26,14,13,130,,114,114,8,10,3,4,0.3,0.4
2025-07-02T1700,3021A,115,35.7668,濮阳市,濮水河管理处,,40,28,21,15,14,127,,108,108,8,11,3,3,0.4,0.4
2025-07-02T1700,4216A,115.0924,35.7686,濮阳市,任丘路479号,,40,40,27,13,13,128,,110,110,4,7,5,5,0.3,0.4
2025-07-02T1700,2601A,100.98,22.7633,普洱市,市环保局,,,,30,,14,45,,58,54,5,5,4,4,0.5,0.6
2025-07-02T1700,2602A,100.9817,22.8322,普洱市,普洱第二中学,,22,16,19,15,13,39,,58,54,12,9,6,6,0.5,0.5
2025-07-02T1700,2262A,131.0518,45.8751,七台河市,新一中,,36,24,16,3,18,113,,97,97,8,9,9,10,0.8,0.9
2025-07-02T1700,3345A,131.0577,45.7879,七台河市,中波台,,25,13,9,8,7,77,,68,68,15,15,7,7,0.3,0.3
2025-07-02T1700,3637A,131.0176,45.7761,七台河市,人民广场,,26,18,18,12,10,83,,74,74,9,12,12,13,0.5,0.6
2025-07-02T1700,3684A,130.8781,45.8222,七台河市,新建矿广场,,25,14,9,6,8,80,,67,67,8,16,8,9,0.6,0.4
2025-07-02T1700,1779A,123.9305,47.3636,齐齐哈尔市,安居小区,,39,28,22,10,10,122,,102,102,14,12,5,4,0.7,0.7
2025-07-02T1700,1780A,123.9488,47.3386,齐齐哈尔市,中心广场,,42,30,17,7,3,133,,112,112,7,7,6,6,0.4,0.5
2025-07-02T1700,1781A,123.9483,47.3227,齐齐哈尔市,农牧车辆厂,,39,27,21,3,8,123,,104,104,8,8,6,6,0,0.1
2025-07-02T1700,1783A,123.945,47.2988,齐齐哈尔市,市环境监测站,,44,19,15,3,6,139,,117,117,6,6,4,4,0.3,0.3
2025-07-02T1700,3662A,123.6333,47.2075,齐齐哈尔市,富区青少年活动中心,,43,24,20,7,9,135,,111,111,10,9,5,7,0.5,0.6
2025-07-02T1700,2591A,107.9783,26.5747,黔东南苗族侗族自治州,市环境监测站,,11,6,9,3,4,35,,37,36,2,6,3,3,0.4,0.4
2025-07-02T1700,2881A,107.8908,26.5311,黔东南苗族侗族自治州,凯里学院,,14,,4,3,5,44,,46,46,5,8,4,4,0.2,0.2
2025-07-02T1700,2593A,107.5228,26.2403,黔南布依族苗族自治州,小围寨,,11,6,6,3,0,33,,33,33,2,4,3,2,0.4,0.3
2025-07-02T1700,3538A,107.5175,26.2978,黔南布依族苗族自治州,沙坝,,9,6,10,3,0,28,,27,27,3,4,4,4,0.5,0.6
2025-07-02T1700,2589A,104.9022,25.0925,黔西南布依族苗族自治州,场坝街,,16,14,13,8,6,50,,47,47,3,5,4,4,0.2,0.2
2025-07-02T1700,2590A,104.8811,25.0992,黔西南布依族苗族自治州,坪东大道,,15,9,13,7,8,47,,42,42,6,8,1,1,0.0,0.1
2025-07-02T1700,2502A,108.6236,21.9667,钦州市,市环保站,,20,14,14,3,4,61,,61,61,5,11,1,2,0.3,0.4
2025-07-02T1700,2503A,108.6549,21.9481,钦州市,沙埠小学,,29,29,18,13,8,60,,62,62,5,9,1,1,0.4,0.4
2025-07-02T1700,2504A,108.5989,21.7431,钦州市,港区一小,颗粒物(PM10),52,54,22,12,11,64,,54,54,12,16,3,3,0.5,0.5
2025-07-02T1700,3404A,108.5959,21.9633,钦州市,北职校,,20,10,16,9,8,64,,64,64,4,8,3,2,0.4,0.4
2025-07-02T1700,1043A,119.7493,40.0116,秦皇岛市,第一关,,38,,43,26,28,106,,130,126,3,11,4,4,0.2,0.7
2025-07-02T1700,1044A,119.5897,39.9499,秦皇岛市,监测站,,41,41,52,7,22,110,,129,129,8,11,3,4,0.3,0.8
2025-07-02T1700,1046A,119.5251,39.9041,秦皇岛市,建设大厦,,32,23,45,12,22,102,,125,125,4,10,4,4,0.5,1
2025-07-02T1700,3132A,119.610547,39.943889,秦皇岛市,文明里,,33,31,50,21,24,103,,118,118,7,9,4,4,0.1,0.7
2025-07-02T1700,4198A,119.5090,39.8253,秦皇岛市,北戴河轮滑馆,,35,35,48,7,20,110,,116,116,6,7,2,2,0.2,0.7
2025-07-02T1700,1307A,120.6659,36.2403,青岛市,仰口,,44,44,36,25,20,130,,111,111,8,8,8,8,0.5,0.6
2025-07-02T1700,1310A,120.4134,36.0658,青岛市,市南区东部子站,,42,31,24,17,14,132,,120,120,4,4,9,8,0.2,0.2
2025-07-02T1700,1311A,120.3664,36.1032,青岛市,四方区子站,,50,46,29,31,20,157,,141,141,10,9,10,10,0.3,0.2
2025-07-02T1700,1312A,120.2994,36.054,青岛市,市南区西部子站,,41,41,29,20,14,123,,105,105,15,15,7,8,0.7,0.6
2025-07-02T1700,1313A,120.4581,36.0858,青岛市,崂山区子站,,35,34,25,17,12,112,,95,95,4,12,7,7,0.3,0.3
2025-07-02T1700,1315A,120.3999,36.3083,青岛市,城阳区子站,颗粒物(PM10),53,56,35,27,15,158,,123,123,13,14,6,6,0.6,0.4
2025-07-02T1700,1966A,120.0405,35.8735,青岛市,黄岛区4号,,,56,31,,15,184,,158,158,,14,,10,0.8,0.7
2025-07-02T1700,3362A,120.5014,36.4034,青岛市,即墨2号,,39,39,39,17,19,108,,94,94,6,13,2,2,0.2,0.3
2025-07-02T1700,3642A,120.3503,36.0736,青岛市,市北区南部,,40,36,25,24,16,127,,110,110,12,11,5,5,0.6,0.5
2025-07-02T1700,3643A,120.3948,36.1805,青岛市,李沧区北部,细颗粒物(PM2.5),55,53,31,39,20,146,,121,121,10,9,4,4,0.7,0.6
2025-07-02T1700,4290A,120.1969,35.9546,青岛市,珠江路669号,,41,41,28,27,16,114,,114,114,12,6,6,6,0.5,0.4
2025-07-02T1700,1702A,113.0426,23.691,清远市,环保大楼,,29,22,23,20,7,92,,80,80,11,11,6,6,0.5,0.6
2025-07-02T1700,1703A,113.0208,23.7106,清远市,凤城街办,,25,16,14,10,5,80,,70,70,11,15,6,6,0.4,0.4
2025-07-02T1700,3025A,113.0477,23.6344,清远市,技师学院,,29,21,20,12,8,92,,80,80,11,18,6,8,0.4,0.5
2025-07-02T1700,3318A,112.9903,23.7403,清远市,清新太和,,28,17,15,8,6,87,,70,70,9,10,7,7,0.5,0.5
2025-07-02T1700,3455A,113.076,23.7198,清远市,清城东城,,39,,14,27,7,81,,69,69,5,8,7,7,0.3,0.4
2025-07-02T1700,2661A,107.6325,35.7357,庆阳市,庆阳五中,,24,12,19,6,9,74,,87,74,5,7,6,6,0.4,0.4
2025-07-02T1700,2662A,107.6364,35.7067,庆阳市,市环保局,,24,11,20,3,8,76,,90,75,3,5,8,8,0.4,0.4
2025-07-02T1700,1916A,103.7897,25.5035,曲靖市,环境监测站,,18,6,12,3,4,56,,49,49,4,8,4,5,0.5,0.5
2025-07-02T1700,1917A,103.8,25.5364,曲靖市,烟厂办公区,,18,11,8,3,6,55,,50,50,3,4,4,4,0.6,0.6
2025-07-02T1700,3376A,103.7947,25.462,曲靖市,南苑二区,,19,,9,3,5,58,,54,54,4,6,4,5,0.3,0.4
2025-07-02T1700,3377A,103.7444,25.5261,曲靖市,曲靖师范学院,,,,9,2,4,51,,45,45,4,6,5,6,0.3,0.3
2025-07-02T1700,1264A,118.8692,28.9398,衢州市,环保大楼,,31,16,20,8,9,99,,108,108,3,13,4,4,0.3,0.3
2025-07-02T1700,1265A,118.8709,28.9666,衢州市,实验学校,,30,11,20,8,10,93,,111,111,2,11,4,4,0.1,0.2
2025-07-02T1700,1266A,118.8621,28.9808,衢州市,衢州学院,,27,11,18,7,10,86,,108,108,4,15,4,4,0.2,0.3
2025-07-02T1700,1611A,118.5819,24.9117,泉州市,涂山街,,28,28,21,6,8,79,,69,69,7,7,3,2,0.6,0.6
2025-07-02T1700,1612A,118.5972,24.8978,泉州市,津头埔,,43,43,23,7,10,68,,70,70,13,8,3,2,0.5,0.5
2025-07-02T1700,1613A,118.6663,24.9424,泉州市,万安,,33,33,23,8,8,71,,68,68,6,7,4,2,0.3,0.4
2025-07-02T1700,1614A,118.6117,24.9604,泉州市,清源山,,,,,,,,,,,,,,,,
2025-07-02T1700,3529A,118.6333,24.9264,泉州市,城华南路,,24,18,16,6,9,74,,70,70,7,4,4,3,0.5,0.4
2025-07-02T1700,2626A,88.8876,29.2718,日喀则市,日喀则监测站,,40,6,4,3,2,125,,113,113,3,4,15,14,0.3,0.3
2025-07-02T1700,3726A,88.8781,29.2426,日喀则市,林业技术推广中心,,38,6,8,3,2,120,,110,110,3,3,9,8,0.4,0.4
2025-07-02T1700,1659A,119.471,35.4209,日照市,监测站,臭氧1小时,75,53,45,43,32,180,,154,154,17,25,5,6,0.7,0.7
2025-07-02T1700,1660A,119.523,35.4216,日照市,市政府广场,臭氧1小时,77,58,45,29,27,181,,147,147,8,19,7,6,0.8,0.8
2025-07-02T1700,1661A,119.5587,35.4044,日照市,港务局,臭氧1小时,64,46,42,36,36,171,,145,145,9,14,5,5,0.8,0.7
2025-07-02T1700,3507A,119.5328,35.4625,日照市,职业技术学院,臭氧1小时,104,56,44,31,28,207,,181,181,13,17,6,6,0.8,0.8
2025-07-02T1700,3604A,119.3266,35.1044,日照市,岚山环保分局,臭氧1小时,80,41,38,26,20,184,,157,157,17,22,9,8,0.7,0.7
2025-07-02T1700,1835A,111.1922,34.7752,三门峡市,市政府,,25,19,25,3,14,78,,74,74,5,7,3,4,0.4,0.5
2025-07-02T1700,1836A,111.1587,34.7942,三门峡市,开发区,,31,14,24,12,16,98,,82,82,9,10,4,5,0.2,0.3
2025-07-02T1700,1838A,111.143,34.7955,三门峡市,风景区,,30,15,22,8,13,96,,80,80,5,6,4,4,0.3,0.3
2025-07-02T1700,3039A,111.1911,34.7829,三门峡市,三门峡市第一小学,,27,19,26,10,12,84,,76,76,8,10,4,3,0.3,0.4
2025-07-02T1700,3598A,111.1,34.7167,三门峡市,富达温泉假日酒店,,21,6,8,3,12,66,,62,62,5,11,6,6,0.3,0.3
2025-07-02T1700,2324A,117.6211,26.2625,三明市,三钢,,19,19,17,7,11,52,,54,54,4,11,3,9,0.4,1.3
2025-07-02T1700,2325A,117.635,26.2714,三明市,三明二中,,,7,15,,8,47,,49,49,5,12,1,4,0.5,0.9
2025-07-02T1700,2326A,117.6028,26.2378,三明市,三元区政府,,16,15,15,3,7,51,,59,59,7,9,3,3,0.4,0.4
2025-07-02T1700,2327A,117.7275,26.3108,三明市,洋溪,,,,,,,,,,,,,,,,
2025-07-02T1700,1876A,109.5078,18.2489,三亚市,河东子站,,25,25,14,6,7,48,,46,46,8,6,2,2,0.5,0.5
2025-07-02T1700,1877A,109.4964,18.2681,三亚市,河西子站,,15,7,12,3,5,48,,45,45,6,6,2,2,0.4,0.4
2025-07-02T1700,3540A,109.7348,18.3443,三亚市,君悦子站,,16,8,12,3,5,50,,53,53,3,7,3,3,0.4,0.4
2025-07-02T1700,2624A,91.7608,29.2313,山南市,山南监测站,,31,,6,3,3,98,,104,94,4,6,3,3,0.2,0.2
2025-07-02T1700,2625A,91.7706,29.2436,山南市,山南人民医院,,33,6,10,3,5,105,,110,99,1,6,4,5,0.2,0.3
2025-07-02T1700,1674A,116.6794,23.3667,汕头市,金平子站,,35,14,14,8,6,109,,83,83,6,7,4,4,0.6,0.5
2025-07-02T1700,1675A,116.7244,23.3633,汕头市,龙湖子站,,33,24,16,12,6,104,,78,78,4,5,6,6,0.5,0.5
2025-07-02T1700,1676A,116.7258,23.2775,汕头市,濠江子站,,34,34,21,8,7,97,,74,74,2,5,5,4,0.5,0.5
2025-07-02T1700,1677A,116.7519,23.4714,汕头市,澄海子站,,38,34,20,11,8,119,,84,84,5,5,3,4,0.5,0.5
2025-07-02T1700,1678A,116.6092,23.2539,汕头市,潮阳子站,,29,25,18,8,8,92,,79,79,2,4,5,4,0.4,0.5
2025-07-02T1700,3444A,116.454,23.2684,汕头市,潮南峡山,,25,16,23,9,8,80,,78,78,1,11,5,5,0.5,0.7
2025-07-02T1700,3624A,116.4069,23.2533,汕头市,潮南子站,,26,21,26,7,12,81,,81,81,8,13,5,5,0.4,0.5
2025-07-02T1700,1693A,115.3653,22.775,汕尾市,市环保局,,23,18,17,7,3,72,,64,64,8,9,3,2,0.6,0.6
2025-07-02T1700,1694A,115.3706,22.7898,汕尾市,市政府,,25,11,15,3,5,78,,67,67,6,7,4,3,0.5,0.5
2025-07-02T1700,1695A,115.3622,22.7925,汕尾市,新城中学,,25,25,13,6,5,73,,63,63,5,6,4,3,0.4,0.4
2025-07-02T1700,2645A,109.9154,33.8715,商洛市,监测站,,21,14,19,10,9,66,,65,65,7,10,11,7,0.5,0.5
2025-07-02T1700,3045A,109.9643,33.8471,商洛市,商州区中学,,,,33,7,13,55,,57,57,9,12,7,5,0.4,0.4
2025-07-02T1700,2408A,115.6702,34.4285,商丘市,环境监测站,,35,34,32,8,12,109,,98,98,5,15,3,2,0.0,0.3
2025-07-02T1700,2409A,115.6458,34.4045,商丘市,粮食局,,36,19,20,9,15,115,,108,108,2,11,2,2,0.3,0.4
2025-07-02T1700,2410A,115.6293,34.3948,商丘市,睢阳区环保局,,35,20,32,7,11,110,,102,102,3,14,2,3,0.0,0.2
2025-07-02T1700,3171A,115.6071,34.4465,商丘市,梁园区档案局,,34,23,28,6,10,107,,98,98,4,15,1,1,0.3,0.4
2025-07-02T1700,1141A,121.4,31.238,上海市,普陀,,46,32,26,16,11,146,,116,116,12,14,6,7,0.2,0.2
2025-07-02T1700,1142A,121.478,31.2036,上海市,十五厂,,40,34,22,18,10,125,,102,102,11,8,8,8,0.5,0.5
2025-07-02T1700,1143A,121.467,31.3008,上海市,虹口,,40,28,24,14,9,126,,100,100,8,11,9,9,0.6,0.7
2025-07-02T1700,1147A,121.425,31.2261,上海市,静安监测站,,39,26,23,14,10,122,,97,97,12,14,5,6,0.4,0.5
2025-07-02T1700,1148A,121.703,31.1907,上海市,浦东川沙,,35,18,24,13,8,110,,92,92,8,13,8,8,0.7,0.7
2025-07-02T1700,1149A,121.533,31.2284,上海市,浦东新区监测站,,39,20,20,10,5,124,,94,94,5,9,7,8,0.4,0.4
2025-07-02T1700,1150A,121.577,31.2071,上海市,浦东张江,,41,20,28,9,8,130,,102,102,8,11,6,6,0.6,0.6
2025-07-02T1700,3265A,121.4316,31.3322,上海市,宝山庙行,,41,36,18,14,8,129,,106,106,8,12,6,5,0.2,0.2
2025-07-02T1700,3266A,121.8791,31.4662,上海市,崇明上实东滩,,23,,19,14,7,73,,77,76,10,13,2,2,0.7,0.5
2025-07-02T1700,3268A,121.3162,31.2838,上海市,嘉定南翔,,40,26,28,16,8,125,,102,102,10,14,6,7,0.3,0.3
2025-07-02T1700,3269A,121.3359,30.7456,上海市,金山新城,,35,33,23,14,10,112,,110,110,15,18,3,4,0.5,0.7
2025-07-02T1700,3270A,121.4996,31.0739,上海市,闵行浦江,,37,23,22,10,7,116,,99,99,5,8,4,4,0.6,0.6
2025-07-02T1700,3271A,121.2886,31.1663,上海市,青浦徐泾,,45,29,23,18,9,141,,109,109,10,11,6,6,0.3,0.4
2025-07-02T1700,3272A,121.2186,31.0378,上海市,松江图书馆,,47,22,20,14,8,150,,123,123,6,9,7,7,0.4,0.4
2025-07-02T1700,3273A,121.3902,31.2059,上海市,长宁仙霞,,42,33,24,13,8,132,,106,106,13,14,8,8,0.3,0.4
2025-07-02T1700,3274A,121.7965,31.0507,上海市,浦东惠南,,37,37,28,12,9,99,,89,89,20,20,10,10,0.5,0.5
2025-07-02T1700,3544A,121.4891,30.925,上海市,奉贤南桥新城,,33,28,25,3,10,103,,104,104,4,9,7,7,0.9,0.9
2025-07-02T1700,4183A,121.4174,31.16637,上海市,冠生园路458号,,39,25,21,19,12,124,,97,97,11,14,5,4,0.4,0.4
2025-07-02T1700,4205A,121.5419,31.2683,上海市,宁武路151号,,50,50,28,16,11,110,,90,90,23,17,7,7,0.4,0.4
2025-07-02T1700,2381A,118.005,28.4572,上饶市,百草园,,,,,,,,,,,,,,,,
2025-07-02T1700,2382A,117.9756,28.4436,上饶市,市监测站,,34,15,11,10,28,106,,81,81,5,17,1,1,0.6,0.6
2025-07-02T1700,2383A,117.9519,28.4628,上饶市,凤凰光学,,32,9,14,9,12,101,,88,88,9,14,5,10,0.8,0.8
2025-07-02T1700,3685A,117.897,28.4315,上饶市,双创科技城,,31,17,28,3,13,97,,90,90,6,17,4,13,0.7,0.8
2025-07-02T1700,4211A,118.1904,28.4448,上饶市,裕丰大道,,25,,17,3,8,80,,64,64,4,7,4,6,0.5,0.5
2025-07-02T1700,1669A,113.5824,24.7733,韶关市,市八中,,42,42,34,27,17,114,,81,81,9,14,8,7,0.7,0.8
2025-07-02T1700,1671A,113.5917,24.7972,韶关市,园林处,,,31,24,10,12,110,,80,80,,12,8,7,0.8,0.7
2025-07-02T1700,1673A,113.5971,24.6863,韶关市,曲江监测站,,34,19,31,13,14,107,,79,79,11,18,12,12,1.0,1
2025-07-02T1700,2809A,113.6668,24.7756,韶关市,大学路288号,,24,20,22,3,6,76,,59,59,6,10,7,5,0.4,0.5
2025-07-02T1700,3622A,113.5556,24.8082,韶关市,碧湖山庄,,32,13,32,12,20,100,,64,64,6,10,10,8,0.7,0.5
2025-07-02T1700,2462A,111.5239,27.3033,邵阳市,市水土所,,,,,,,,,,,,,,,,
2025-07-02T1700,2464A,111.5283,27.2442,邵阳市,市化工厂,,22,10,14,10,7,70,,65,65,5,8,8,7,0.3,0.3
2025-07-02T1700,2466A,111.4328,27.2272,邵阳市,市环保局,,24,24,19,6,6,73,,69,69,7,8,6,5,0.4,0.4
2025-07-02T1700,4218A,111.4460,27.2472,邵阳市,北塔二期4-26地块,,21,16,16,8,6,65,,60,60,8,11,4,5,0.1,0.2
2025-07-02T1700,4219A,111.4739,27.2282,邵阳市,邵水西路287号,,,18,12,17,7,70,,66,66,10,8,,5,,0.3
2025-07-02T1700,1247A,120.6053,29.9928,绍兴市,城东开发委,,24,15,15,12,7,74,,69,69,4,5,3,3,0.3,0.3
2025-07-02T1700,2921A,120.5483,30.0003,绍兴市,树下王站,,25,14,13,7,4,79,,73,73,3,5,4,4,0.3,0.3
2025-07-02T1700,3408A,120.5683,29.9361,绍兴市,绍兴中专,,25,17,15,3,7,80,,66,66,5,7,4,4,0.1,0.1
2025-07-02T1700,3409A,120.4906,30.0861,绍兴市,柯桥区政府,,24,18,16,8,7,76,,85,84,3,5,4,3,0.3,0.4
