timepoint,stationcode,longitude,latitude,area,positionname,primarypollutant,aqi,pm10,pm10_24h,pm2_5,pm2_5_24h,o3,o3_24h,o3_8h,o3_8h_24h,no2,no2_24h,so2,so2_24h,co,co_24h
2025-08-03T2100,2566A,102.1879,31.914,阿坝藏族羌族自治州,州农科所,,40,40,23,20,10,41,,69,62,10,6,14,14,1.4,0.9
2025-08-03T2100,2568A,102.2502,31.8896,阿坝藏族羌族自治州,马师校,,32,32,15,20,18,29,,72,61,19,8,7,7,0.7,0.7
2025-08-03T2100,3994A,102.2165,31.9024,阿坝藏族羌族自治州,马尔康中学西区,,32,32,15,11,11,42,,81,69,7,5,7,8,0.7,0.7
2025-08-03T2100,2695A,80.292,41.1694,阿克苏地区,电视台,颗粒物(PM10),65,79,81,25,19,113,,121,121,3,2,1,2,0.6,0.6
2025-08-03T2100,2696A,80.2613,41.1551,阿克苏地区,艺术中心,颗粒物(PM10),66,82,67,32,24,128,,132,132,2,3,4,4,0.5,0.5
2025-08-03T2100,2204A,105.6467,38.8363,阿拉善盟,西城区西花园,,43,26,38,15,18,136,,160,147,10,12,8,8,0.7,0.7
2025-08-03T2100,2205A,105.6985,38.8411,阿拉善盟,蒙二幼,,43,,45,30,28,116,,138,126,4,4,9,10,0.7,0.6
2025-08-03T2100,2206A,105.724,38.8516,阿拉善盟,环保局新楼,,38,31,40,24,27,121,,135,122,6,5,9,9,0.7,0.6
2025-08-03T2100,2708A,88.1264,47.8517,阿勒泰地区,市站,,28,20,50,10,11,89,,96,94,18,13,2,2,0.5,0.4
2025-08-03T2100,2630A,80.1161,32.5,阿里地区,阿里监测站,,27,8,4,3,2,86,,84,84,3,5,6,7,0.1,0.1
2025-08-03T2100,3192A,80.0903,32.5028,阿里地区,阿里藏医院,,28,9,7,3,2,87,,85,85,2,3,4,4,0.2,0.2
2025-08-03T2100,2642A,109.0318,32.6537,安康市,香溪洞,,34,30,27,11,19,106,,136,131,4,6,8,8,0.4,0.5
2025-08-03T2100,2644A,109.0072,32.6975,安康市,汉滨区检察院,颗粒物(PM10),51,52,33,25,18,92,,132,126,8,9,5,5,0.7,0.7
2025-08-03T2100,4054A,109.0325,32.6913,安康市,市邮政管理局,,31,31,27,19,19,79,,127,120,11,8,5,6,0.6,0.6
2025-08-03T2100,2291A,117.0809,30.5177,安庆市,环科院,,39,32,20,27,18,33,,124,104,56,14,4,4,0.8,0.7
2025-08-03T2100,2292A,117.0331,30.5119,安庆市,马山宾馆,,32,29,19,22,15,66,,118,106,15,13,3,2,0.9,0.7
2025-08-03T2100,2294A,116.9896,30.6145,安庆市,安庆大学,,24,24,24,10,13,51,,120,93,21,16,3,4,0.4,0.4
2025-08-03T2100,3173A,117.0598,30.5351,安庆市,市人大,,32,32,20,19,16,52,,135,108,26,13,3,4,0.7,0.5
2025-08-03T2100,3122A,105.9606,26.2611,安顺市,伍家关,,24,22,18,15,13,75,,102,99,5,5,1,2,0.6,0.6
2025-08-03T2100,3123A,105.9408,26.2431,安顺市,凤凰山,,25,22,22,17,15,79,,108,104,6,8,4,3,0.5,0.4
2025-08-03T2100,3124A,105.9439,26.2564,安顺市,金钟山,,29,20,20,20,17,81,,110,106,4,5,5,5,0.5,0.4
2025-08-03T2100,3125A,105.8983,26.2481,安顺市,娄家坡,,26,23,22,18,15,77,,104,101,4,3,6,6,0.6,0.5
2025-08-03T2100,1818A,114.4839,36.0621,安阳市,棉研所,,,,,,,,,,,,,,,,
2025-08-03T2100,1819A,114.3551,36.1017,安阳市,红庙街,,39,39,45,21,21,122,,158,142,10,10,3,4,0.5,0.5
2025-08-03T2100,1820A,114.361,36.0681,安阳市,银杏小区,颗粒物(PM10),51,51,50,22,25,115,,157,141,11,10,3,4,0.5,0.6
2025-08-03T2100,3141A,114.3922,36.0878,安阳市,信访局,,39,39,44,21,22,124,,167,152,12,9,5,5,0.6,0.6
2025-08-03T2100,3669A,114.4705,36.0637,安阳市,左辅环卫站,,46,46,46,25,30,90,,146,131,15,14,5,6,0.5,0.5
2025-08-03T2100,3703A,114.2917,36.0949,安阳市,安钢职工学校,,42,42,58,24,26,116,,150,139,9,7,3,5,0.4,0.5
2025-08-03T2100,1748A,123.044,41.1196,鞍山市,深沟寺,,33,31,23,23,16,26,,60,50,21,8,6,6,0.9,0.7
2025-08-03T2100,1749A,123.011,41.0931,鞍山市,太阳城,,39,36,24,27,18,53,,59,54,25,12,8,6,0.8,0.8
2025-08-03T2100,1750A,123.0485,41.1442,鞍山市,太平,颗粒物(PM10),52,53,34,31,20,65,,74,74,23,13,12,8,1.1,0.9
2025-08-03T2100,1751A,122.9642,41.0971,鞍山市,铁西三道街,,33,33,35,22,21,78,,71,71,20,21,13,10,0.9,1.3
2025-08-03T2100,1753A,123.022,41.0821,鞍山市,明达新区,,29,29,24,20,16,43,,61,60,27,11,11,8,0.8,0.7
2025-08-03T2100,1754A,123.1289,41.0228,鞍山市,千山,,,,,,,,,,,,,,,,
2025-08-03T2100,4201A,122.9446,41.0826,鞍山市,兴盛南路290号,,45,45,37,21,19,78,,72,72,26,20,17,10,0.9,1
2025-08-03T2100,2195A,107.4212,40.761,巴彦淖尔市,附二中,,39,39,38,19,20,74,,128,108,13,8,7,7,0.6,0.8
2025-08-03T2100,2196A,107.37,40.7372,巴彦淖尔市,市环保大楼,,34,34,47,16,14,82,,123,107,13,9,6,6,0.4,0.6
2025-08-03T2100,1956A,86.1472,41.7538,巴音郭楞蒙古自治州,孔雀公园,颗粒物(PM10),55,59,12,18,14,106,,110,109,5,7,3,3,0.2,0.2
2025-08-03T2100,1957A,86.1972,41.7166,巴音郭楞蒙古自治州,棉纺厂,颗粒物(PM10),55,59,38,10,8,113,,114,114,1,5,4,4,0.3,0.2
2025-08-03T2100,1958A,86.2357,41.7173,巴音郭楞蒙古自治州,经济开发区,,42,42,20,10,6,108,,111,110,5,8,3,3,0.1,0.1
2025-08-03T2100,2914A,106.7677,31.8794,巴中市,苏山坪,,38,25,26,20,19,121,,141,134,9,6,5,4,0.6,0.6
2025-08-03T2100,3181A,106.7768,31.8526,巴中市,市五中,,35,35,31,21,22,101,,146,135,10,11,10,10,0.6,0.7
2025-08-03T2100,3183A,106.7418,31.8654,巴中市,圣泉水务公司,,31,28,28,19,29,98,,152,140,14,7,8,8,0.7,0.7
2025-08-03T2100,3616A,106.7616,31.8344,巴中市,市中心医院,,35,28,32,24,24,93,,138,130,24,15,10,9,0.5,0.5
2025-08-03T2100,2235A,122.7911,45.6077,白城市,洮北区环保局,,18,13,9,12,8,40,,72,66,15,3,4,4,0.5,0.4
2025-08-03T2100,2236A,122.8738,45.5725,白城市,市环保局,,14,14,5,3,2,27,,70,60,17,3,4,4,0.5,0.3
2025-08-03T2100,2231A,126.4219,41.9171,白山市,喜丰,,21,14,33,3,11,66,,54,54,9,13,5,6,0.5,0.5
2025-08-03T2100,2232A,126.4077,41.9419,白山市,环保局,,29,16,24,3,9,92,,61,61,5,12,8,7,0.6,0.7
2025-08-03T2100,2647A,104.1724,36.5446,白银市,第三小学,,33,24,58,3,23,103,,112,111,4,14,4,27,0.6,1
2025-08-03T2100,2648A,104.1465,36.5482,白银市,动力公司,,32,31,39,3,19,100,,104,103,5,13,5,18,0.4,0.6
2025-08-03T2100,2512A,106.6103,23.9011,百色市,市监测站,,27,14,37,13,22,85,,113,103,4,10,5,6,0.5,0.7
2025-08-03T2100,2513A,106.6538,23.8859,百色市,市中心血站,,29,,49,20,31,88,,107,103,8,19,2,6,0.7,0.8
2025-08-03T2100,3406A,106.6085,23.8798,百色市,祈福高中,,25,17,53,14,26,79,,103,94,7,19,4,7,0.5,0.7
2025-08-03T2100,2270A,117.396,32.939,蚌埠市,工人疗养院,,33,24,22,7,8,105,,120,116,4,4,3,4,0.3,0.3
2025-08-03T2100,2271A,117.3605,32.9427,蚌埠市,百货大楼,,30,21,16,14,11,96,,121,114,3,4,6,6,0.4,0.4
2025-08-03T2100,2273A,117.4185,32.8911,蚌埠市,蚌埠学院,,30,19,11,15,9,95,,116,110,7,4,5,5,0.3,0.4
2025-08-03T2100,2274A,117.3533,32.9673,蚌埠市,淮上区政府,,31,27,19,19,12,99,,133,125,11,7,5,5,0.5,0.5
2025-08-03T2100,2275A,117.3145,32.8977,蚌埠市,高新区,,27,27,17,10,8,77,,107,101,10,7,6,6,0.5,0.6
2025-08-03T2100,3715A,117.3092,32.9314,蚌埠市,蚌埠田家炳中学,,32,27,21,16,11,100,,128,123,7,9,6,6,0.3,0.3
2025-08-03T2100,1585A,109.8756,40.6532,包头市,市环境监测站,,37,37,32,25,19,101,,152,141,26,25,10,9,0.9,0.8
2025-08-03T2100,1587A,109.9991,40.5842,包头市,包头八中,,44,44,37,15,19,92,,136,127,24,24,25,12,0.8,0.9
2025-08-03T2100,1588A,109.8538,40.6821,包头市,青山宾馆,,39,39,31,18,19,46,,160,141,60,34,6,8,0.8,0.8
2025-08-03T2100,1589A,109.8642,40.6288,包头市,惠龙物流,,37,37,30,14,19,103,,145,137,16,16,8,7,0.6,0.7
2025-08-03T2100,1590A,110.0377,40.5546,包头市,东河鸿龙湾,,38,38,25,12,17,85,,144,132,28,17,4,4,0.6,0.7
2025-08-03T2100,3283A,109.9154,40.5685,包头市,滨河大厦,,34,34,24,18,16,89,,144,132,25,21,6,4,0.6,0.6
2025-08-03T2100,3419A,109.9447,40.6261,包头市,包头市委党校,,35,27,31,24,18,84,,152,139,38,27,19,12,0.7,0.8
2025-08-03T2100,3683A,109.8331,40.6576,包头市,昆区政府,,37,36,36,11,20,117,,164,156,15,25,11,9,0.6,0.9
2025-08-03T2100,1930A,107.185,34.3063,宝鸡市,庙沟村,,32,25,33,15,18,102,,166,151,5,9,4,4,0.4,0.4
2025-08-03T2100,1931A,107.0708,34.3017,宝鸡市,竹园沟,,39,39,34,21,23,97,,174,156,16,11,8,9,0.3,0.7
2025-08-03T2100,1932A,107.1906,34.3672,宝鸡市,三陆医院,臭氧1小时,60,45,45,28,31,168,,172,169,13,18,8,9,0.7,0.7
2025-08-03T2100,1933A,107.1431,34.3547,宝鸡市,监测站,颗粒物(PM10),54,57,45,28,26,116,,170,161,15,14,8,9,0.6,0.5
2025-08-03T2100,1934A,107.1186,34.3739,宝鸡市,技工学校,,44,33,42,23,26,140,,175,166,15,12,6,7,0.6,0.6
2025-08-03T2100,1936A,107.2058,34.3497,宝鸡市,文理学院,,49,48,42,26,25,156,,177,173,12,13,8,8,0.5,0.5
2025-08-03T2100,1937A,107.2386,34.3622,宝鸡市,三迪小学,臭氧1小时,55,,43,28,29,164,,173,170,16,17,8,8,0.7,0.6
2025-08-03T2100,4308A,107.3898,34.3601,宝鸡市,陈仓区北开路21号,,46,39,38,23,24,147,,185,181,10,13,8,8,0.6,0.6
2025-08-03T2100,1051A,115.493,38.8632,保定市,游泳馆,颗粒物(PM10),56,61,54,32,30,125,,148,148,11,8,3,2,0.3,0.3
2025-08-03T2100,1052A,115.5213,38.8959,保定市,华电二区,颗粒物(PM10),69,88,62,41,32,100,,158,153,22,14,2,3,0.5,0.5
2025-08-03T2100,1053A,115.4713,38.9108,保定市,接待中心,颗粒物(PM10),51,52,54,32,31,126,,151,150,7,9,3,3,0.4,0.4
2025-08-03T2100,1054A,115.4612,38.8416,保定市,地表水厂,颗粒物(PM10),61,72,64,24,28,139,,157,157,7,8,2,2,0.5,0.5
2025-08-03T2100,3581A,115.31981,38.95208,保定市,满城区生态环境分局,颗粒物(PM10),63,75,63,34,36,102,,139,136,16,12,2,2,0.3,0.3
2025-08-03T2100,3582A,115.47694,38.76408,保定市,清苑区第二中学,颗粒物(PM10),65,79,66,32,35,134,,154,154,11,10,5,5,0.4,0.4
2025-08-03T2100,3583A,115.62909,39.02311,保定市,徐水物探局,颗粒物(PM10),56,61,50,27,24,116,,152,149,13,12,2,2,0.5,0.4
2025-08-03T2100,4004A,115.4202,38.8656,保定市,双鹰农机,颗粒物(PM10),51,51,54,32,29,120,,140,140,6,9,2,2,0.3,0.3
2025-08-03T2100,4034A,115.5150,38.8590,保定市,植保所站,颗粒物(PM10),52,54,46,33,28,138,,166,166,10,13,3,3,0.2,0.2
2025-08-03T2100,2594A,99.1678,25.1081,保山市,市环境监测站,,26,,11,18,10,41,,50,48,5,8,5,5,0.3,0.3
2025-08-03T2100,2595A,99.1711,25.1328,保山市,市环保局,,15,8,12,7,8,45,,51,50,2,5,4,4,0.4,0.4
2025-08-03T2100,1866A,109.2262,21.588,北海市,牛尾岭水库,,24,24,19,7,8,71,,76,74,3,3,2,2,0.5,0.5
2025-08-03T2100,1867A,109.1436,21.4086,北海市,海滩公园,颗粒物(PM10),53,55,59,12,11,79,,78,78,4,4,2,2,0.5,0.5
2025-08-03T2100,1868A,109.0981,21.4661,北海市,新市环保局,,,,31,14,15,,,74,74,,7,,2,,0.3
2025-08-03T2100,1869A,109.1778,21.5233,北海市,北海工业园,,35,35,36,17,14,70,,74,74,5,5,2,3,0.6,0.5
2025-08-03T2100,3400A,109.1911,21.4415,北海市,龙潭自来水厂,,34,34,31,13,14,74,,75,75,4,3,7,6,0.4,0.4
2025-08-03T2100,1001A,116.3621,39.8784,北京市,万寿西宫,臭氧1小时,53,20,30,15,24,162,,157,157,16,15,3,2,0.6,0.5
2025-08-03T2100,1002A,116.2202,40.2915,北京市,定陵,,28,28,22,16,17,36,,109,90,1,2,3,3,0.5,0.5
2025-08-03T2100,1003A,116.4174,39.9289,北京市,东四,臭氧1小时,53,17,30,13,25,162,,168,167,16,17,4,4,0.6,0.6
2025-08-03T2100,1004A,116.4072,39.8863,北京市,天坛,,44,19,33,13,24,139,,157,155,13,13,1,1,0.6,0.6
2025-08-03T2100,1005A,116.462,39.9365,北京市,农展馆,,45,17,28,12,23,142,,152,150,11,15,2,2,0.5,0.6
2025-08-03T2100,1006A,116.3392,39.9295,北京市,官园,,50,21,29,18,23,159,,149,149,12,11,4,3,0.6,0.7
2025-08-03T2100,1007A,116.2878,39.9611,北京市,海淀万柳,,44,24,27,14,20,138,,132,131,15,16,3,3,0.5,0.5
2025-08-03T2100,1008A,116.6636,40.135,北京市,顺义新城,,,,,,,,,,,,,,,,
2025-08-03T2100,1009A,116.6275,40.3275,北京市,怀柔镇,,33,25,18,17,12,105,,128,122,12,7,1,3,0.4,0.3
2025-08-03T2100,1010A,116.2296,40.217,北京市,昌平镇,,26,26,23,18,17,76,,112,109,13,13,3,3,0.6,0.5
2025-08-03T2100,1011A,116.3966,39.9821,北京市,奥体中心,,40,20,27,16,22,126,,127,127,11,11,3,3,0.5,0.5
2025-08-03T2100,3281A,115.9718,40.4529,北京市,延庆夏都,,31,20,15,13,10,99,,117,112,6,7,2,2,0.7,0.6
2025-08-03T2100,3418A,116.8336,40.4095,北京市,密云新城,,33,33,18,21,12,42,,99,89,4,4,1,1,0.6,0.5
2025-08-03T2100,3671A,116.088,39.9726,北京市,门头沟三家店,,45,34,22,31,14,47,,124,108,14,6,2,2,0.7,0.6
2025-08-03T2100,3672A,116.1541,39.8204,北京市,丰台云岗,,44,31,29,24,19,139,,145,144,11,9,2,2,0.7,0.6
2025-08-03T2100,3673A,116.6804,39.9081,北京市,通州东关,,38,38,30,21,20,106,,142,134,24,15,4,4,0.6,0.5
2025-08-03T2100,3674A,115.9577,39.7603,北京市,房山燕山,,35,32,29,20,21,109,,145,141,8,8,11,4,0.5,0.5
2025-08-03T2100,3675A,116.4672,39.7733,北京市,大兴旧宫,,44,18,32,13,22,138,,170,167,13,13,2,2,0.6,0.7
2025-08-03T2100,3694A,115.986,40.4563,北京市,延庆石河营,,25,19,15,15,10,79,,104,95,7,6,2,2,0.5,0.4
2025-08-03T2100,3695A,116.6151,40.3053,北京市,怀柔新城,,29,29,18,17,12,79,,110,98,8,3,2,2,0.8,0.7
2025-08-03T2100,3696A,116.2545,39.8768,北京市,丰台小屯,,45,28,29,19,21,143,,135,135,18,8,1,1,0.7,0.6
2025-08-03T2100,3697A,116.84,40.3844,北京市,密云镇,,31,30,17,19,13,97,,106,105,4,6,3,3,0.6,0.6
2025-08-03T2100,4182A,116.1942,39.9158,北京市,八角北路9号,臭氧1小时,60,29,30,19,19,168,,152,152,8,11,2,2,0.5,0.4
2025-08-03T2100,4194A,117.0790,40.1518,北京市,洳河巡河路,细颗粒物(PM2.5),62,47,27,44,19,99,,122,120,8,5,2,2,0.6,0.5
2025-08-03T2100,1761A,123.8275,41.3064,本溪市,大峪,,35,35,28,16,14,22,,63,56,19,12,4,4,0.5,0.3
2025-08-03T2100,1762A,123.7567,41.3325,本溪市,溪湖,,27,27,25,15,13,35,,57,53,8,10,6,7,0.8,1.1
2025-08-03T2100,1763A,123.7169,41.3094,本溪市,彩屯,,37,37,32,21,18,8,,54,46,28,16,7,9,0.7,1
2025-08-03T2100,1764A,123.7669,41.2864,本溪市,东明,,32,32,24,13,12,34,,65,61,23,10,5,4,0.7,0.4
2025-08-03T2100,1765A,123.7992,41.2664,本溪市,新立屯,,23,23,21,11,12,22,,55,48,14,13,3,4,0.8,0.7
2025-08-03T2100,1766A,123.8142,41.3472,本溪市,威宁,,36,36,32,19,16,9,,47,41,19,15,8,8,0.7,0.5
2025-08-03T2100,2587A,105.2864,27.3125,毕节市,八中,,48,48,35,33,28,111,,134,131,9,16,5,6,0.4,0.4
2025-08-03T2100,2588A,105.31,27.2944,毕节市,师专,,48,48,44,27,24,117,,142,139,10,16,5,7,0.5,0.5
2025-08-03T2100,4263A,105.3688,27.3598,毕节市,工业大道,,40,40,39,26,27,119,,142,139,14,19,7,7,0.7,0.7
2025-08-03T2100,1629A,118.0018,37.3617,滨州市,第二水厂,,36,36,38,22,23,81,,170,150,12,14,2,2,0.5,0.6
2025-08-03T2100,1630A,117.9776,37.393,滨州市,北中新校,,34,34,38,17,22,85,,172,156,22,21,2,3,0.4,0.5
2025-08-03T2100,3514A,117.9378,37.3956,滨州市,中海酒店,,34,34,34,19,27,97,,172,162,8,11,9,11,0.5,0.5
2025-08-03T2100,3515A,117.9378,37.3553,滨州市,开发区一中,,39,39,39,14,23,97,,177,166,14,18,5,7,0.5,0.5
2025-08-03T2100,3516A,118.0917,37.694,滨州市,金海六路,,39,39,28,12,16,54,,139,113,13,11,9,12,0.2,0.2
2025-08-03T2100,4028A,117.9956,37.3753,滨州市,滨州市西街道办事处,,29,29,35,17,23,89,,186,165,11,13,2,3,0.2,0.3
2025-08-03T2100,2311A,115.8072,33.8399,亳州市,污水处理厂,,34,19,13,14,11,106,,130,124,12,8,4,3,0.5,0.5
2025-08-03T2100,2312A,115.7789,33.8518,亳州市,三国揽胜宫,,40,22,17,16,13,127,,137,134,6,4,2,3,0.4,0.4
2025-08-03T2100,3332A,115.7633,33.8034,亳州市,亳州学院,,35,20,8,11,11,111,,121,118,8,8,3,3,0.5,0.5
2025-08-03T2100,2693A,82.0485,44.8556,博尔塔拉蒙古自治州,市党校,,28,20,27,3,12,89,,114,111,12,9,3,3,0.3,0.2
2025-08-03T2100,2694A,82.0806,44.8969,博尔塔拉蒙古自治州,市环保局,,35,35,36,17,12,87,,108,106,9,8,1,2,0.6,0.5
2025-08-03T2100,1071A,116.8842,38.2991,沧州市,沧县城建局,,48,48,42,28,22,100,,143,132,20,15,2,2,0.4,0.3
2025-08-03T2100,1072A,116.8584,38.3254,沧州市,电视转播站,,,49,45,27,22,,,134,130,14,15,3,4,0.2,0.2
2025-08-03T2100,1073A,116.8709,38.3228,沧州市,市环保局,颗粒物(PM10),51,51,48,34,23,105,,155,142,13,11,2,3,0.4,0.3
2025-08-03T2100,3324A,116.8136,38.3004,沧州市,河北水利电力学院,,38,34,34,26,26,112,,162,151,16,13,2,3,0.3,0.2
2025-08-03T2100,2622A,97.1806,31.1273,昌都市,昌都监测站,,17,10,10,7,5,52,,54,53,7,5,4,4,0.3,0.3
2025-08-03T2100,3719A,97.1714,31.1406,昌都市,昌都会议中心,,16,15,10,6,5,51,,57,55,10,7,5,6,0.2,0.2
2025-08-03T2100,2690A,88.1236,43.8886,昌吉回族自治州,天山天池,,29,20,24,3,8,90,,109,109,6,6,3,4,0.6,0.6
2025-08-03T2100,2692A,87.2717,44.0297,昌吉回族自治州,新区政务中心,,38,24,22,3,6,119,,121,121,5,6,7,6,0.2,0.2
2025-08-03T2100,3613A,87.3095,44.0142,昌吉回族自治州,亚心广场,,32,29,27,3,7,101,,113,112,14,8,6,6,0.2,0.2
2025-08-03T2100,1120A,125.2863,43.9027,长春市,客车厂,,19,19,18,12,11,34,,70,59,29,13,3,3,0.4,0.4
2025-08-03T2100,1121A,125.2841,43.8463,长春市,邮电学院,,12,12,19,6,13,37,,70,63,14,9,4,4,0.4,0.4
2025-08-03T2100,1122A,125.3716,43.8772,长春市,劳动公园,,25,25,25,12,11,52,,69,64,18,14,6,6,0.7,0.6
2025-08-03T2100,1123A,125.3297,43.8805,长春市,园林处,,16,16,18,6,10,46,,67,59,12,8,3,4,0.4,0.5
2025-08-03T2100,1124A,125.4605,43.79,长春市,净月潭,,42,42,18,3,9,28,,63,56,10,7,4,4,0.2,0.3
2025-08-03T2100,1125A,125.7194,43.515,长春市,甩湾子,,16,16,14,3,9,43,,67,59,9,8,4,4,0.5,0.5
2025-08-03T2100,1126A,125.3863,43.8447,长春市,经开区环卫处,,18,18,20,8,9,47,,69,64,15,11,2,2,0.3,0.4
2025-08-03T2100,1127A,125.245,43.7783,长春市,高新区管委会,,24,24,18,7,11,38,,72,64,19,9,3,3,0.4,0.4
2025-08-03T2100,1128A,125.1761,43.8325,长春市,岱山公园,,15,9,18,3,11,46,,69,65,15,8,3,3,0.3,0.4
2025-08-03T2100,4281A,125.3346,43.9164,长春市,北亚泰大街1068号,,24,24,10,11,12,43,,68,59,19,13,6,6,0.5,0.5
2025-08-03T2100,1335A,113.0833,28.2325,长沙市,经开区环保局,,26,26,41,15,23,74,,123,118,10,13,4,4,0.4,0.5
2025-08-03T2100,1336A,112.8872,28.2189,长沙市,高开区环保局,,39,37,44,18,21,122,,142,137,5,8,5,5,0.6,0.5
2025-08-03T2100,1337A,113.0792,28.2053,长沙市,马坡岭,,35,35,41,21,25,77,,127,120,8,12,4,4,0.3,0.4
2025-08-03T2100,1338A,112.9394,28.19,长沙市,湖南师范大学,,34,34,38,20,22,81,,125,115,17,10,2,3,0.7,0.7
2025-08-03T2100,1339A,113.0178,28.1322,长沙市,雨花区环保局,,25,25,37,14,20,77,,120,116,5,10,5,5,0.7,0.7
2025-08-03T2100,1340A,112.9792,28.2597,长沙市,伍家岭,,31,31,44,17,23,95,,125,121,8,12,1,1,0.5,0.6
2025-08-03T2100,1341A,113.0014,28.1944,长沙市,火车新站,,35,35,40,17,18,75,,122,115,8,11,6,6,0.6,0.7
2025-08-03T2100,1342A,112.9844,28.1178,长沙市,天心区环保局,,27,18,36,17,22,86,,125,121,12,15,3,3,0.3,0.3
2025-08-03T2100,1343A,112.8908,28.1308,长沙市,湖南中医药大学,,38,36,45,26,28,65,,138,123,33,19,4,4,0.4,0.4
2025-08-03T2100,1344A,112.9581,28.3611,长沙市,沙坪,,38,38,40,22,29,81,,140,123,10,10,6,6,0.6,0.6
2025-08-03T2100,1727A,113.1147,36.1547,长治市,清华站,,,28,36,14,18,,,165,,12,8,7,6,0.6,0.6
2025-08-03T2100,1730A,113.0886,36.2125,长治市,审计局,,38,28,33,19,22,120,,169,156,8,8,4,5,0.8,0.8
2025-08-03T2100,1731A,113.0844,36.1856,长治市,长治八中,,40,26,38,25,31,127,,170,159,4,5,7,8,0.7,0.7
2025-08-03T2100,2845A,113.1569,36.1911,长治市,德盛苑,,38,30,35,17,21,121,,161,150,5,8,6,7,0.8,0.8
2025-08-03T2100,3568A,113.06,36.0464,长治市,向阳小学,颗粒物(PM10),67,84,78,27,26,145,,160,155,5,6,10,8,0.7,0.8
2025-08-03T2100,3569A,112.8792,36.3144,长治市,屯留一中,,,48,48,34,34,,,162,157,8,11,8,10,0.1,0.2
2025-08-03T2100,4189A,113.1131,36.19948,长治市,英华南巷50号,,37,33,39,19,24,116,,162,150,9,7,6,6,0.8,0.8
2025-08-03T2100,4190A,113.2367,36.3344,长治市,学府街1号,,33,28,44,17,27,105,,172,152,21,31,3,5,0.5,0.8
2025-08-03T2100,1854A,111.6975,28.9703,常德市,市二中,,43,42,36,30,29,111,,118,113,8,14,3,5,0.7,0.6
2025-08-03T2100,1857A,111.7158,29.1456,常德市,白鹤山,,,,,,,,,,,,,,,,
2025-08-03T2100,3138A,111.7153,29.0289,常德市,武陵区永安,细颗粒物(PM2.5),62,61,44,44,32,100,,121,112,13,13,3,5,0.6,0.5
2025-08-03T2100,3139A,111.6892,28.9881,常德市,鼎城区玉霞,细颗粒物(PM2.5),59,52,40,42,29,85,,115,106,15,14,6,2,0.5,0.5
2025-08-03T2100,3140A,111.6625,29.0531,常德市,武陵区长庚,细颗粒物(PM2.5),52,48,40,36,30,119,,116,114,6,10,3,4,0.6,0.5
2025-08-03T2100,1196A,119.9633,31.762,常州市,市监测站,,37,,21,18,13,117,,132,130,10,9,9,9,0.5,0.6
2025-08-03T2100,1200A,119.9468,31.7069,常州市,武进监测站,,38,18,17,13,12,121,,125,125,8,5,12,12,1.0,1
2025-08-03T2100,1201A,119.9255,31.9087,常州市,安家,,23,16,19,16,11,70,,134,126,19,10,6,7,0.9,0.9
2025-08-03T2100,3002A,119.9805,31.8174,常州市,行政中心,,33,16,16,10,12,105,,130,128,15,10,6,8,0.5,0.6
2025-08-03T2100,3003A,120.0522,31.7748,常州市,经开区,,32,24,23,12,10,100,,133,129,20,9,3,3,0.5,0.5
2025-08-03T2100,3010A,119.9025,31.7964,常州市,钟楼,,36,16,17,7,9,113,,122,122,11,10,6,5,0.8,0.8
2025-08-03T2100,3429A,119.8598,31.7066,常州市,武进经发区,,26,15,19,11,13,82,,118,113,28,6,6,6,0.9,0.9
2025-08-03T2100,3430A,119.5826,31.7245,常州市,金坛城区,,35,10,14,7,11,109,,127,126,9,8,9,7,0.4,0.5
2025-08-03T2100,2220A,120.4318,41.5881,朝阳市,西梁,,25,20,28,17,54,57,,82,79,20,11,8,8,0.1,0.3
2025-08-03T2100,2221A,120.4521,41.5646,朝阳市,河畔小区,,24,7,21,3,15,75,,86,85,11,9,7,5,0.4,0.6
2025-08-03T2100,2222A,120.4176,41.5648,朝阳市,八里堡,,22,22,25,11,18,70,,93,90,11,8,4,3,0.6,0.6
2025-08-03T2100,2223A,120.3806,41.5969,朝阳市,农业园区,,15,13,26,8,20,47,,84,79,22,12,6,6,0.4,0.6
2025-08-03T2100,1705A,116.6367,23.6719,潮州市,西园路,,25,25,16,13,4,35,,46,46,12,13,4,3,0.2,0.2
2025-08-03T2100,3026A,116.6183,23.6608,潮州市,市政府,,28,28,19,11,8,36,,48,48,13,15,7,10,0.5,0.5
2025-08-03T2100,4036A,116.6461,23.6761,潮州市,金山,,20,20,13,11,11,36,,51,51,10,11,4,4,0.6,0.6
2025-08-03T2100,2472A,113.0073,25.9061,郴州市,马头岭,,17,17,13,6,5,18,,77,60,14,6,5,6,0.5,0.5
2025-08-03T2100,2473A,113.0116,25.8226,郴州市,市职中,,18,14,10,12,7,35,,77,63,9,5,7,7,0.3,0.2
2025-08-03T2100,2475A,113.0383,25.8071,郴州市,市审计局,,14,13,12,7,8,44,,78,67,6,5,9,15,0.2,0.2
2025-08-03T2100,2476A,113.0348,25.7759,郴州市,市环保局,,15,15,14,3,9,35,,69,59,5,5,6,14,0.3,0.2
2025-08-03T2100,4252A,113.0138,25.8011,郴州市,好美居路49号,,14,11,12,6,7,42,,73,62,7,5,16,10,0.3,0.2
2025-08-03T2100,1431A,103.9728,30.7236,成都市,金泉两河,臭氧1小时,64,53,46,34,27,171,,236,225,14,23,4,4,0.7,0.7
2025-08-03T2100,1432A,104.176,30.6872,成都市,十里店,臭氧1小时,93,44,35,17,15,194,,194,193,13,16,6,5,0.6,0.5
2025-08-03T2100,1433A,104.079,30.5706,成都市,三瓦窑,臭氧1小时,102,49,33,32,20,203,,193,193,17,22,4,4,0.6,0.5
2025-08-03T2100,1434A,104.1114,30.63,成都市,沙河铺,臭氧1小时,79,44,37,29,18,183,,167,165,15,15,8,7,0.7,0.6
2025-08-03T2100,1437A,104.0786,30.6531,成都市,君平街,臭氧1小时,95,55,43,47,26,196,,210,210,18,17,10,7,0.5,0.4
2025-08-03T2100,1438A,103.613,31.0283,成都市,灵岩寺,,,,,,,,,,,,,,,,
2025-08-03T2100,2880A,104.0239,30.65639,成都市,大石西路,臭氧1小时,65,46,34,43,25,172,,181,180,15,16,6,5,0.7,0.6
2025-08-03T2100,3136A,104.2725,30.5589,成都市,龙泉驿区区政府,,34,24,20,14,11,106,,154,143,16,13,6,6,0.7,0.6
2025-08-03T2100,3357A,104.0106,30.6931,成都市,金博路,臭氧1小时,59,62,33,38,22,167,,212,208,20,19,6,6,0.9,0.8
2025-08-03T2100,3359A,104.0578,30.5225,成都市,华阳,臭氧1小时,100,51,26,39,21,200,,174,174,17,13,5,4,0.7,0.6
2025-08-03T2100,3488A,104.3853,30.7453,成都市,青白江技师分院,,46,46,29,32,16,97,,146,134,30,24,4,5,0.7,0.6
2025-08-03T2100,3489A,104.0789,30.4072,成都市,科学城,,46,42,28,28,21,146,,151,151,13,10,4,3,0.5,0.5
2025-08-03T2100,4011A,103.8506,30.6947,成都市,光华大道三段,细颗粒物(PM2.5),54,56,45,38,28,151,,211,202,22,21,6,8,0.4,0.5
2025-08-03T2100,4224A,104.2433,30.5353,成都市,鲸龙路1057号,,36,34,28,23,20,115,,156,150,12,17,4,4,0.6,0.7
2025-08-03T2100,1062A,117.9531,40.9081,承德市,铁路,,30,30,41,13,24,49,,104,87,6,11,3,3,0.4,0.6
2025-08-03T2100,1063A,117.9392,40.9763,承德市,中国银行,,30,30,36,15,27,33,,108,87,15,9,1,2,0.4,0.6
2025-08-03T2100,1064A,117.9503,40.928,承德市,开发区,,34,34,42,14,21,56,,113,95,9,11,4,6,0.4,0.6
2025-08-03T2100,1066A,117.9268,41.0026,承德市,离宫,,26,,34,18,24,16,,92,62,18,6,1,2,0.3,0.5
2025-08-03T2100,4274A,117.7994,40.9605,承德市,滨河大街98号,,24,24,30,10,21,36,,109,80,14,8,1,1,0.3,0.4
2025-08-03T2100,2314A,117.47,30.6618,池州市,池州学院,,29,27,25,19,16,90,,130,121,7,9,5,4,0.5,0.6
2025-08-03T2100,3237A,117.4918,30.6617,池州市,展览馆,,19,19,22,11,12,60,,136,122,10,8,4,4,0.6,0.8
2025-08-03T2100,3333A,117.5627,30.695,池州市,第八中学,,27,20,22,13,12,86,,124,114,6,6,4,4,0.5,0.7
2025-08-03T2100,3334A,117.5038,30.6243,池州市,第十二中学,,26,20,23,18,15,73,,130,118,14,11,3,2,0.8,1
2025-08-03T2100,1744A,118.9233,42.2816,赤峰市,松山一中,,24,23,15,7,8,74,,90,81,16,18,5,7,0.7,0.8
2025-08-03T2100,1745A,118.9576,42.2728,赤峰市,哈达街,,23,23,23,14,10,69,,88,80,20,18,14,16,0.6,0.7
2025-08-03T2100,1746A,118.8788,42.2554,赤峰市,天义路,,28,28,25,8,12,81,,102,94,11,14,10,12,0.2,0.4
2025-08-03T2100,3058A,119.2658,42.0353,赤峰市,银河街,,21,12,19,7,13,65,,84,79,10,14,5,9,0.4,0.6
2025-08-03T2100,3286A,118.9359,42.3147,赤峰市,桥北物流园区,,23,13,13,12,8,72,,84,80,9,12,9,9,0.6,0.6
2025-08-03T2100,2521A,107.3476,22.4136,崇左市,市环保局江州分局,,49,49,33,34,15,74,,97,94,15,12,6,7,0.6,0.6
2025-08-03T2100,4256A,107.3750,22.3736,崇左市,石景林东路7号,,,,24,,12,,,101,101,12,11,3,4,0.8,0.7
2025-08-03T2100,2298A,118.3093,32.3153,滁州市,老年大学,,29,29,19,11,8,66,,105,99,16,4,6,8,0.3,0.3
2025-08-03T2100,2299A,118.3244,32.2786,滁州市,人大宾馆,,19,,6,13,12,59,,103,95,15,3,3,4,0.3,0.3
2025-08-03T2100,3207A,118.3118,32.3038,滁州市,市政府原办公楼,,28,24,15,19,15,57,,101,94,15,3,5,5,0.5,0.4
2025-08-03T2100,3331A,118.3267,32.2634,滁州市,图书馆,,32,,9,22,12,87,,110,106,10,4,9,10,0.3,0.3
2025-08-03T2100,2605A,101.5482,25.0441,楚雄彝族自治州,州环境监测站,,11,11,17,7,11,32,,46,39,9,14,9,8,0.6,0.6
2025-08-03T2100,2606A,101.538,25.0492,楚雄彝族自治州,市经济开发区,,20,15,20,14,12,35,,46,40,12,15,6,6,0.6,0.6
2025-08-03T2100,2548A,107.5277,31.2827,达州市,达州职业技术学院,颗粒物(PM10),58,65,39,28,16,72,,150,138,35,18,8,9,0.6,0.6
2025-08-03T2100,2549A,107.5086,31.2186,达州市,市环境监测站,,42,42,39,24,14,81,,151,137,33,24,6,7,0.5,0.5
2025-08-03T2100,2550A,107.4988,31.2132,达州市,凤凰小区,,31,31,37,19,17,97,,148,135,17,21,4,5,0.5,0.4
2025-08-03T2100,2551A,107.5082,31.1986,达州市,达县机关宾馆,,48,48,40,17,13,58,,144,127,50,28,6,6,0.6,0.5
2025-08-03T2100,2552A,107.4644,31.2124,达州市,市政中心,颗粒物(PM10),54,57,45,24,17,72,,148,131,40,22,5,4,0.5,0.4
2025-08-03T2100,2614A,100.1542,25.7054,大理白族自治州,大理市环境监测站,,,,9,22,14,,,54,54,9,6,4,4,0.5,0.4
2025-08-03T2100,2615A,100.2171,25.5811,大理白族自治州,大理古城,,26,,13,18,8,38,,63,57,16,7,4,4,0.6,0.5
2025-08-03T2100,1109A,121.612,38.9741,大连市,甘井子,,19,19,17,8,13,45,,62,59,21,13,10,10,0.1,0.1
2025-08-03T2100,1110A,121.565,38.9511,大连市,周水子,,20,15,19,14,15,29,,56,49,27,10,7,7,0.3,0.2
2025-08-03T2100,1111A,121.5637,38.8845,大连市,星海三站,,20,14,19,14,13,35,,62,54,16,11,4,4,0.3,0.2
2025-08-03T2100,1112A,121.6302,38.9117,大连市,青泥洼桥,,21,21,17,9,13,30,,68,50,15,10,5,5,0.5,0.4
2025-08-03T2100,1113A,121.6251,38.8638,大连市,傅家庄,,15,11,17,3,13,47,,47,45,7,10,8,8,0.2,0.1
2025-08-03T2100,1114A,121.5213,38.8661,大连市,七贤岭,,12,12,18,8,14,30,,67,58,8,7,8,9,0.3,0.2
2025-08-03T2100,1115A,121.2529,38.8061,大连市,旅顺,,13,12,16,9,13,40,,49,44,8,8,4,4,0.2,0.2
2025-08-03T2100,1116A,121.7485,39.1311,大连市,金州,,19,18,16,13,11,46,,66,61,11,10,4,4,0.3,0.3
2025-08-03T2100,1117A,121.7811,39.0496,大连市,开发区,,22,17,20,15,14,23,,42,38,28,14,4,4,0.3,0.2
2025-08-03T2100,1118A,121.9762,39.0631,大连市,双D港,,15,15,17,7,17,40,,65,55,5,5,8,8,0.7,0.6
2025-08-03T2100,1789A,124.81117,46.03138,大庆市,大同区,,18,8,6,8,5,55,,67,66,10,5,7,8,0.6,0.6
2025-08-03T2100,1790A,125.129,46.533,大庆市,龙凤区,,20,17,16,6,8,29,,68,61,39,10,7,6,0.6,0.7
2025-08-03T2100,1791A,124.902,46.408,大庆市,红岗区,,26,26,17,14,14,53,,77,73,17,8,7,7,0.6,0.6
2025-08-03T2100,1792A,125.153,46.586,大庆市,萨尔图区,,28,28,18,10,5,38,,64,60,26,7,7,7,0.7,0.5
2025-08-03T2100,1793A,124.9042,46.6215,大庆市,让胡路区,,33,33,24,21,14,31,,71,64,24,5,5,6,0.4,0.3
2025-08-03T2100,3481A,125.141,46.634,大庆市,萨区政府监测点,,27,27,18,3,1,42,,70,66,20,5,7,7,0.4,0.3
2025-08-03T2100,1721A,113.3819,40.1097,大同市,果树场,,36,36,26,19,15,56,,136,121,24,25,7,8,0.7,1.1
2025-08-03T2100,1723A,113.2994,40.0758,大同市,云冈宾馆,,30,24,32,13,18,94,,149,139,18,20,6,7,0.9,1.3
2025-08-03T2100,1724A,113.3444,40.0917,大同市,大同大学,,29,22,26,20,18,84,,164,150,22,23,5,8,0.6,0.8
2025-08-03T2100,1725A,113.2661,40.1269,大同市,安家小村,,40,40,32,10,13,80,,153,146,31,22,6,6,0.7,1.2
2025-08-03T2100,1726A,113.2711,40.0844,大同市,教育学院,,43,43,35,13,18,94,,157,146,21,21,7,9,0.5,0.9
2025-08-03T2100,3282A,113.3397,40.0597,大同市,大同市卫生学校,,42,42,32,21,19,75,,144,132,32,19,7,7,0.6,0.9
2025-08-03T2100,3565A,113.1367,40.1122,大同市,云冈站,,46,46,33,17,15,70,,147,134,14,12,4,4,0.6,0.8
2025-08-03T2100,3566A,113.1186,40.2556,大同市,图书馆,,43,42,25,30,16,84,,123,117,19,14,7,7,0.9,1
2025-08-03T2100,3567A,113.5931,40.0461,大同市,区一中,,24,,19,11,9,76,,154,132,5,8,8,9,0.5,0.6
2025-08-03T2100,4199A,113.2798,40.0997,大同市,魏都大道141号,,28,25,36,13,20,89,,156,145,16,20,4,5,0.7,1.1
2025-08-03T2100,2269A,124.1069,50.4097,大兴安岭地区,科技局,,23,23,20,13,11,36,,48,43,2,2,4,4,0.4,0.4
2025-08-03T2100,3663A,124.1164,50.4278,大兴安岭地区,红旗社区,,12,6,4,3,3,37,,46,42,1,2,4,4,0.3,0.3
2025-08-03T2100,1600A,124.3303,40.0625,丹东市,江湾东路,,16,13,22,9,16,50,,47,47,9,9,5,6,0.5,0.5
2025-08-03T2100,1601A,124.4256,40.1503,丹东市,临江后街,,15,11,39,3,16,45,,45,45,4,9,6,6,0.6,0.7
2025-08-03T2100,1602A,124.3933,40.1461,丹东市,元宝山,,11,11,23,3,15,34,,41,40,8,10,3,4,0.4,0.6
2025-08-03T2100,1603A,124.3633,40.1092,丹东市,民主桥,,12,10,24,6,15,37,,37,37,12,10,3,3,0.6,0.7
2025-08-03T2100,3541A,109.5726,19.5167,儋州市,第一中学子站,,26,26,29,10,14,39,,47,45,4,3,7,6,0.4,0.4
2025-08-03T2100,3542A,109.5567,19.5187,儋州市,东坡学校子站,,30,27,29,21,13,38,,48,46,5,3,8,6,0.6,0.5
2025-08-03T2100,2616A,98.5842,24.428,德宏傣族景颇族自治州,德宏州监测站,,,29,23,10,10,,,31,31,7,9,8,10,0.5,0.6
2025-08-03T2100,3677A,98.5881,24.4368,德宏傣族景颇族自治州,芒市人民政府综合楼,,34,34,25,9,8,28,,32,32,7,8,6,8,0.5,0.5
2025-08-03T2100,1901A,104.4239,31.1208,德阳市,东山公园,,43,43,47,28,31,133,,174,172,15,12,6,5,1.1,1
2025-08-03T2100,1902A,104.3826,31.1317,德阳市,西小区,,42,38,54,29,35,125,,193,178,17,19,9,13,1.1,1.1
2025-08-03T2100,1904A,104.3553,31.1091,德阳市,耐火材料厂,,41,40,49,27,30,131,,186,180,10,17,2,6,0.6,0.7
2025-08-03T2100,3639A,104.4019,31.1244,德阳市,市教育局,,43,43,54,30,36,124,,176,170,16,13,4,6,1.0,0.9
2025-08-03T2100,1622A,116.3032,37.4674,德州市,儿童乐园,,47,34,40,27,22,148,,181,172,9,11,8,11,0.7,0.6
2025-08-03T2100,1624A,116.2991,37.4451,德州市,监理站,,49,34,36,29,20,155,,172,168,6,10,12,14,0.4,0.3
2025-08-03T2100,3066A,116.2721,37.4379,德州市,九衢泉纯净水厂,,46,36,41,27,25,146,,152,150,10,19,14,17,0.7,0.7
2025-08-03T2100,3371A,116.3728,37.4403,德州市,开发区人民医院,,45,39,39,31,22,117,,167,159,15,16,8,11,0.8,0.7
2025-08-03T2100,3511A,116.5652,37.3319,德州市,陵城艺术中心,臭氧1小时,54,34,42,19,18,163,,166,158,6,14,7,7,0.6,0.6
2025-08-03T2100,4292A,116.3525,37.4209,德州市,新河东路,细颗粒物(PM2.5),52,41,43,36,25,149,,173,170,11,17,8,10,0.8,0.9
2025-08-03T2100,2621A,99.7056,27.8317,迪庆藏族自治州,迪庆州站,,20,,21,14,12,46,,59,58,7,6,6,7,0.4,0.4
2025-08-03T2100,3180A,99.7136,27.8094,迪庆藏族自治州,质量技术监督局,,16,16,18,6,7,48,,62,61,11,11,7,7,0.5,0.5
2025-08-03T2100,4257A,104.6092,35.5962,定西市,将台街,,43,43,32,25,18,118,,119,119,6,9,8,12,0.5,0.5
2025-08-03T2100,4309A,104.6159,35.5701,定西市,正龙路62号,,45,40,27,31,18,119,,115,115,5,7,4,4,0.4,0.4
2025-08-03T2100,1389A,113.7547,23.0494,东莞市,莞城梨川,,19,17,22,13,15,56,,72,66,15,16,6,7,0.5,0.5
2025-08-03T2100,1390A,113.7944,23.0128,东莞市,东城石井,,22,22,25,11,11,36,,61,54,24,18,2,2,0.7,0.6
2025-08-03T2100,1391A,113.7383,22.9658,东莞市,南城西平,,21,21,20,7,11,52,,69,65,17,14,5,5,0.5,0.5
2025-08-03T2100,3319A,113.7338,23.0381,东莞市,万江金泰,,18,18,22,10,12,43,,60,54,16,15,3,4,0.8,0.7
2025-08-03T2100,3626A,113.7533,23.0202,东莞市,南城元岭,,24,24,20,15,11,44,,66,60,20,16,5,5,0.7,0.6
2025-08-03T2100,3627A,113.7875,23.0457,东莞市,东城主山,,,29,26,15,13,,,62,59,19,21,4,3,0.4,0.4
2025-08-03T2100,1666A,118.6614,37.4309,东营市,市环保局,,25,9,19,3,8,80,,110,87,10,14,6,9,0.1,0.3
2025-08-03T2100,3036A,118.6904,37.4338,东营市,开发区管委会,,28,16,23,3,7,87,,115,92,8,12,5,8,0.2,0.3
2025-08-03T2100,3365A,118.5719,37.565,东营市,垦利区民丰路,,29,29,24,9,10,67,,118,88,13,13,3,6,0.6,0.7
2025-08-03T2100,3498A,118.5055,37.8612,东营市,河口城区,,24,17,22,7,10,74,,125,108,11,13,6,6,0.7,0.8
2025-08-03T2100,3646A,118.4978,37.4623,东营市,胜利站,,23,16,29,3,9,72,,130,102,11,16,3,3,0.3,0.5
2025-08-03T2100,3734A,118.35,37.26,东营市,理想之城,,26,12,18,9,11,81,,126,100,7,11,3,7,0.4,0.4
2025-08-03T2100,1591A,110.0023,39.8129,鄂尔多斯市,综合楼,,31,27,37,17,19,98,,146,136,28,20,2,4,0.7,0.7
2025-08-03T2100,1592A,109.9486,39.8261,鄂尔多斯市,巴音孟克林场办事处,,32,29,47,22,24,95,,152,134,30,20,4,4,0.4,0.6
2025-08-03T2100,1593A,109.7736,39.5986,鄂尔多斯市,康泽苑,,30,24,34,3,12,94,,150,130,12,14,8,7,0.4,0.5
2025-08-03T2100,1594A,109.8119,39.5989,鄂尔多斯市,华泰汽车城,,28,22,30,12,16,89,,142,123,20,17,4,4,0.8,0.8
2025-08-03T2100,1595A,109.9734,39.7884,鄂尔多斯市,奥林花园,,32,,39,22,30,69,,153,129,27,17,4,5,0.9,0.9
2025-08-03T2100,2436A,114.8938,30.3994,鄂州市,市政府,,33,33,42,11,16,97,,158,138,10,24,5,6,0.6,0.7
2025-08-03T2100,2437A,114.8989,30.3714,鄂州市,赵家坝,,40,40,38,9,14,87,,151,136,11,15,5,6,0.9,0.9
2025-08-03T2100,3654A,114.8094,30.4089,鄂州市,精准医疗中心,,,,40,14,14,98,,131,119,15,19,11,4,,0.8
2025-08-03T2100,2454A,109.4978,30.2981,恩施土家族苗族自治州,湖北民院,,26,26,22,18,15,35,,125,102,11,5,5,5,0.7,0.6
2025-08-03T2100,2455A,109.4707,30.2798,恩施土家族苗族自治州,州电力总公司,,38,,19,26,16,48,,110,96,23,5,9,9,0.4,0.3
2025-08-03T2100,3549A,109.5061,30.3772,恩施土家族苗族自治州,龙凤新区,,27,27,18,3,14,66,,141,125,7,3,4,4,0.7,0.6
2025-08-03T2100,2499A,108.3411,21.6158,防城港市,沙万,,43,43,37,24,21,74,,78,78,11,10,2,2,0.5,0.5
2025-08-03T2100,2500A,108.3514,21.7731,防城港市,防城档案局,,28,28,30,11,14,78,,76,76,7,6,3,3,0.6,0.7
2025-08-03T2100,2501A,108.3506,21.6414,防城港市,大海花园,,28,26,32,14,13,88,,91,91,8,8,3,4,0.4,0.4
2025-08-03T2100,1371A,113.1294,23.0067,佛山市,湾梁,,20,19,22,14,11,28,,62,50,34,21,6,6,0.9,0.8
2025-08-03T2100,1372A,113.1083,23.0478,佛山市,华材职中,,20,17,19,14,12,32,,77,64,28,13,7,7,0.7,0.6
2025-08-03T2100,1373A,113.144,23.0453,佛山市,南海气象局,,25,25,24,13,12,21,,57,46,34,17,3,3,0.7,0.6
2025-08-03T2100,1374A,113.2881,22.8094,佛山市,顺德苏岗,,15,9,23,3,11,45,,54,49,21,22,4,7,0.9,0.9
2025-08-03T2100,1376A,112.8383,22.8678,佛山市,高明孔堂,,37,37,21,17,11,21,,62,53,35,11,6,6,0.9,0.7
2025-08-03T2100,1377A,112.8836,23.1588,佛山市,三水监测站,,22,19,25,15,15,35,,50,50,37,27,3,4,0.6,0.5
2025-08-03T2100,1378A,112.867,23.185,佛山市,三水云东海,,31,31,34,18,20,37,,41,41,25,30,1,2,0.7,0.7
2025-08-03T2100,3625A,113.2544,22.7642,佛山市,容桂街道办,,28,19,20,19,16,35,,52,47,27,27,4,8,0.7,0.7
2025-08-03T2100,1280A,119.3903,26.0543,福州市,鼓山,,,,,,,,,,,,,,,,
2025-08-03T2100,1282A,119.2681,26.0504,福州市,师大,,17,11,25,3,11,52,,88,80,7,11,4,4,0.2,0.2
2025-08-03T2100,1283A,119.2984,26.1028,福州市,五四北路,,16,7,24,3,10,49,,96,86,11,12,3,4,0.2,0.3
2025-08-03T2100,1284A,119.2648,26.0768,福州市,杨桥西路,,16,16,24,3,11,50,,90,79,8,10,3,3,0.3,0.3
2025-08-03T2100,1285A,119.317,26.0746,福州市,紫阳,,22,22,28,9,10,49,,91,82,11,13,6,6,0.2,0.2
2025-08-03T2100,3048A,119.5799,26.0936,福州市,九龙,,21,19,26,7,11,67,,104,96,7,9,5,5,0.2,0.3
2025-08-03T2100,3526A,119.5189,25.9664,福州市,吴航,,20,20,26,9,13,62,,106,98,9,8,5,5,0.4,0.4
2025-08-03T2100,1755A,123.7977,41.8491,抚顺市,望花区,,21,12,24,3,17,66,,81,80,11,16,5,7,0.5,0.7
2025-08-03T2100,1756A,123.9161,41.8822,抚顺市,顺城区,,20,14,32,14,17,52,,82,80,14,14,5,5,0.6,0.9
2025-08-03T2100,1757A,124.0436,41.8611,抚顺市,东洲区,,22,,22,12,16,68,,90,90,10,13,5,7,0.6,0.7
2025-08-03T2100,1758A,123.9247,41.8642,抚顺市,新抚区,,,20,26,6,15,64,,76,76,,14,4,6,0.5,0.7
2025-08-03T2100,1759A,124.0972,41.8961,抚顺市,大伙房水库,,23,17,18,13,15,72,,94,94,8,7,6,6,0.5,0.5
2025-08-03T2100,1760A,123.7086,41.8391,抚顺市,沈抚新城,,16,12,23,3,15,50,,76,72,12,15,4,5,0.5,0.7
2025-08-03T2100,2376A,116.2127,28.0814,抚州市,桐源党溪,,20,20,25,14,14,39,,64,56,11,4,4,5,0.3,0.5
2025-08-03T2100,2377A,116.3544,27.9831,抚州市,市站,,22,22,21,13,12,51,,75,70,3,2,2,3,0.4,0.5
2025-08-03T2100,2378A,116.3565,27.963,抚州市,血防站,,24,24,24,12,13,42,,67,60,6,3,5,5,0.4,0.3
2025-08-03T2100,2379A,116.3564,28.0007,抚州市,采茶剧团,,43,40,24,30,14,48,,76,69,14,10,3,4,0.1,0.2
2025-08-03T2100,2380A,116.385,27.9647,抚州市,医学分院,,24,24,23,13,11,42,,70,65,2,2,5,4,0.6,0.5
2025-08-03T2100,2207A,121.6094,41.998,阜新市,工业园区,,24,14,25,3,15,74,,94,91,15,11,4,4,1.1,0.6
2025-08-03T2100,2208A,121.6697,42.0279,阜新市,长青街,,19,15,21,7,15,58,,86,81,13,8,5,6,0.4,0.6
2025-08-03T2100,2209A,121.6673,42.0705,阜新市,农业园区,,42,16,34,3,14,45,,82,71,12,6,2,2,4.2,1
2025-08-03T2100,2210A,121.6717,42.0224,阜新市,东苑,,20,20,26,8,17,60,,93,87,20,12,1,3,0.3,0.5
2025-08-03T2100,2211A,121.6506,42.0498,阜新市,玉龙新城,,14,12,27,7,12,42,,89,78,26,12,6,7,0.6,0.7
2025-08-03T2100,2301A,115.8277,32.8929,阜阳市,市监测站,,30,28,23,15,13,93,,131,122,14,13,4,4,0.2,0.2
2025-08-03T2100,2303A,115.8554,32.8605,阜阳市,开发区,,34,34,24,12,12,104,,130,124,13,13,6,6,0.3,0.3
2025-08-03T2100,2875A,115.784,32.8892,阜阳市,阜阳职业技术学院,,36,16,17,14,13,113,,138,130,5,8,4,3,0.3,0.4
2025-08-03T2100,3468A,115.7901,32.8613,阜阳市,市规划展馆,,31,31,27,12,15,84,,114,104,9,7,2,2,0.6,0.5
2025-08-03T2100,3469A,115.836,32.9183,阜阳市,枣园社区,,34,34,27,13,17,106,,131,127,11,13,2,2,0.5,0.4
2025-08-03T2100,2669A,102.9099,34.9841,甘南藏族自治州,州政府,,39,37,26,27,16,62,,74,70,10,8,4,4,0.4,0.3
2025-08-03T2100,3380A,102.8914,34.9617,甘南藏族自治州,甘肃民族师范学院,,42,32,34,29,20,66,,82,76,1,8,9,9,0.3,0.4
2025-08-03T2100,2570A,101.9603,30.0475,甘孜藏族自治州,水桥子,,33,23,24,20,16,105,,111,108,6,17,5,6,0.5,0.5
2025-08-03T2100,3065A,101.9533,29.9972,甘孜藏族自治州,州环保局,,33,24,28,3,11,103,,114,110,10,19,4,4,0.4,0.3
2025-08-03T2100,3414A,115.8347,28.932,赣江新区,桑海产业园,,37,34,27,20,20,118,,152,147,18,11,5,6,0.4,0.5
2025-08-03T2100,2362A,114.9017,25.9149,赣州市,通天岩,,22,,21,15,16,66,,70,70,4,4,17,16,0.7,0.6
2025-08-03T2100,2363A,114.9367,25.8664,赣州市,地委,,20,18,19,6,10,64,,72,71,7,7,2,4,0.8,0.8
2025-08-03T2100,2364A,114.9461,25.8481,赣州市,气象台,,20,11,18,3,8,64,,73,72,4,4,6,8,0.7,0.7
2025-08-03T2100,2365A,114.9322,25.8333,赣州市,市图书馆,,19,9,15,6,10,58,,67,66,5,5,4,4,0.4,0.4
2025-08-03T2100,2366A,114.8905,25.8471,赣州市,华坚鞋城,,18,13,20,6,9,56,,67,64,7,7,4,5,0.5,0.5
2025-08-03T2100,3109A,115.0093,25.8613,赣州市,赣县区卫计委,,21,,13,9,8,65,,69,68,4,5,4,4,0.3,0.3
2025-08-03T2100,2683A,106.2319,36.1417,固原市,马园,,47,47,37,15,15,123,,126,112,9,27,10,7,0.6,0.7
2025-08-03T2100,2684A,106.2792,36.0022,固原市,监测站,,47,47,27,19,16,110,,134,132,15,14,5,5,0.5,0.4
2025-08-03T2100,2685A,106.2375,36.0211,固原市,新区,,36,36,27,14,14,94,,125,120,19,12,6,6,0.5,0.5
2025-08-03T2100,3522A,106.2177,35.9959,固原市,原州区十五小,,32,32,25,19,18,88,,128,119,15,10,9,8,0.7,0.5
2025-08-03T2100,2543A,106.6308,30.5278,广安市,小平旧居,,,,,,,,,,,,,,,,
2025-08-03T2100,2544A,106.6303,30.4576,广安市,市委,,41,41,34,21,21,85,,147,136,30,14,8,8,0.5,0.5
2025-08-03T2100,2545A,106.6271,30.4663,广安市,友谊中学,,42,42,31,21,18,97,,149,140,24,14,6,6,0.7,0.7
2025-08-03T2100,2547A,106.6388,30.4551,广安市,广电花园,颗粒物(PM10),52,53,43,16,17,84,,148,136,26,13,3,3,0.7,0.6
2025-08-03T2100,2902A,106.6351,30.4865,广安市,北辰小学,,32,31,31,21,19,100,,146,140,14,11,3,4,0.7,0.6
2025-08-03T2100,2523A,105.8945,32.4535,广元市,黑石坡,,37,31,34,25,20,117,,142,134,11,11,8,9,0.3,0.5
2025-08-03T2100,2524A,105.821,32.4444,广元市,老城,,31,19,15,6,6,98,,174,156,31,25,3,8,0.8,0.8
2025-08-03T2100,2526A,105.8628,32.4287,广元市,监测站,,32,32,23,3,13,94,,150,135,15,14,10,11,0.8,0.8
2025-08-03T2100,3617A,105.8047,32.4166,广元市,经开区,,38,38,41,22,24,99,,154,138,21,23,5,9,0.7,0.8
2025-08-03T2100,1345A,113.2347,23.1423,广州市,广雅中学,,26,26,26,18,15,32,,78,67,37,22,2,2,0.4,0.3
2025-08-03T2100,1346A,113.2612,23.105,广州市,市五中,,25,23,23,17,14,25,,74,63,43,20,4,4,0.9,0.7
2025-08-03T2100,1348A,113.3478,23.0916,广州市,广东商学院,,26,26,23,18,17,30,,83,71,42,24,2,2,0.9,0.8
2025-08-03T2100,1349A,113.4332,23.1047,广州市,市八十六中,,19,18,21,12,12,29,,63,50,38,33,2,3,0.5,0.4
2025-08-03T2100,1350A,113.3505,22.9483,广州市,番禺中学,,23,23,23,14,15,39,,72,64,21,15,5,7,0.6,0.5
2025-08-03T2100,1351A,113.2146,23.3916,广州市,花都师范,,43,43,40,16,19,37,,62,61,39,32,4,4,0.6,0.6
2025-08-03T2100,1352A,113.2597,23.1331,广州市,市监测站,,26,26,25,17,14,27,,70,60,38,21,5,5,0.6,0.4
2025-08-03T2100,1353A,113.5618,23.312,广州市,九龙镇镇龙,,21,12,28,8,16,66,,83,80,11,21,6,6,0.4,0.5
2025-08-03T2100,1354A,113.2765,23.1544,广州市,麓湖,,20,20,24,11,13,34,,67,58,30,22,2,2,0.7,0.6
2025-08-03T2100,1355A,113.443,23.3035,广州市,帽峰山森林公园,,19,7,19,6,4,60,,83,80,11,16,4,5,0.6,0.6
2025-08-03T2100,2846A,113.3221,23.1322,广州市,体育西,,26,25,28,18,16,38,,78,67,36,28,2,3,0.7,0.5
2025-08-03T2100,3298A,113.5717,23.5491,广州市,从化街口,,20,20,27,12,15,58,,65,64,12,14,6,6,0.7,0.7
2025-08-03T2100,3299A,113.3472,23.3692,广州市,白云竹料,,20,20,30,13,18,56,,70,70,13,26,3,3,0.5,0.6
2025-08-03T2100,3300A,113.2981,23.237,广州市,白云嘉禾,,27,27,28,18,15,26,,78,69,38,28,3,4,0.7,0.6
2025-08-03T2100,3301A,113.4256,23.1716,广州市,黄埔科学城,,17,17,25,9,14,48,,76,69,16,23,2,2,0.4,0.5
2025-08-03T2100,3302A,113.3942,23.0483,广州市,番禺大学城,,26,26,23,14,13,36,,80,66,32,22,5,5,0.7,0.5
2025-08-03T2100,3303A,113.4922,22.8168,广州市,南沙黄阁,,24,21,27,14,15,24,,66,58,47,15,5,4,0.6,0.5
2025-08-03T2100,3304A,113.5342,22.7896,广州市,南沙街,,25,23,26,17,12,24,,67,57,33,11,4,4,0.6,0.5
2025-08-03T2100,3443A,113.2902,23.5544,广州市,花都梯面,,23,18,27,10,14,71,,74,74,10,18,5,5,0.6,0.7
2025-08-03T2100,3445A,113.7858,23.7478,广州市,从化良口,,19,16,20,9,11,60,,62,60,12,10,4,4,0.6,0.6
2025-08-03T2100,3446A,113.8051,23.2614,广州市,增城荔城,,18,14,26,6,14,55,,69,66,8,14,7,6,0.4,0.4
2025-08-03T2100,2505A,109.568,23.1478,贵港市,德智高中,,,,,,,,,,,,,,,,
2025-08-03T2100,2506A,109.6047,23.0666,贵港市,江南子站,,43,31,44,30,23,47,,67,63,16,15,8,9,0.9,0.8
2025-08-03T2100,2508A,109.5669,23.1065,贵港市,荷城子站,,27,27,25,12,14,60,,76,72,8,10,8,8,0.3,0.5
2025-08-03T2100,3405A,109.5886,23.1172,贵港市,新世纪学校,,34,34,29,18,17,57,,82,76,14,13,3,3,0.4,0.5
2025-08-03T2100,4260A,109.5933,23.0951,贵港市,中山路155-3号,,29,29,34,18,17,61,,81,76,12,12,5,5,0.6,0.8
2025-08-03T2100,1439A,106.6899,26.5998,贵阳市,马鞍山,,19,19,21,7,9,56,,113,101,15,12,3,4,0.7,0.7
2025-08-03T2100,1441A,106.6243,26.6266,贵阳市,鉴湖路,,31,31,35,14,10,74,,111,107,12,11,7,8,0.2,0.3
2025-08-03T2100,1442A,106.7487,26.6343,贵阳市,燕子冲,,35,24,20,24,22,80,,121,111,12,13,8,10,1.3,1.3
2025-08-03T2100,1443A,106.6555,26.4365,贵阳市,碧云窝,,34,34,37,14,14,77,,108,104,11,11,6,8,0.2,0.2
2025-08-03T2100,1445A,106.7109,26.6027,贵阳市,红边门,,28,27,28,19,17,70,,111,99,13,15,6,7,0.4,0.3
2025-08-03T2100,1446A,106.7164,26.5699,贵阳市,新华路,,29,29,33,17,18,75,,108,98,13,12,15,25,0.3,0.4
2025-08-03T2100,1447A,106.674,26.5424,贵阳市,太慈桥,,20,17,24,14,12,35,,128,110,16,16,4,5,0.1,0.1
2025-08-03T2100,1552A,106.805,26.3003,贵阳市,桐木岭,,32,24,33,22,20,76,,92,90,5,5,7,8,0.9,0.8
2025-08-03T2100,4230A,106.6882,26.5695,贵阳市,花果园大街66号,,25,17,15,17,18,59,,112,102,15,10,4,5,0.5,0.4
2025-08-03T2100,4231A,106.6873,26.5169,贵阳市,漓江路57号,,22,22,27,12,15,66,,114,103,14,12,3,6,0.4,0.4
2025-08-03T2100,1862A,110.4144,25.3167,桂林市,电子科大尧山校区,,,,,,,,,,,,,,,,
2025-08-03T2100,1864A,110.3089,25.2708,桂林市,龙隐路小学,,22,22,19,12,10,63,,85,78,8,7,4,6,0.2,0.2
2025-08-03T2100,1865A,110.2869,25.2178,桂林市,八中,,27,27,19,12,8,58,,88,80,11,7,6,8,0.5,0.5
2025-08-03T2100,3531A,110.296,25.1253,桂林市,旅游学院,,15,14,14,7,10,47,,80,67,8,5,5,14,0.4,0.4
2025-08-03T2100,4222A,110.1835,25.2444,桂林市,环湖路276号,,19,17,15,12,8,58,,84,75,7,6,8,5,0.4,0.4
2025-08-03T2100,4301A,110.2803,25.2773,桂林市,信义路13号,,22,21,18,15,12,64,,94,87,8,6,6,6,0.6,0.5
2025-08-03T2100,2674A,100.2561,34.4714,果洛藏族自治州,玛沁县大武镇,,24,24,21,3,10,63,,78,70,1,5,16,14,0.2,0.2
2025-08-03T2100,1129A,126.5422,45.755,哈尔滨市,岭北,,17,6,10,3,8,53,,84,66,10,7,7,7,0.5,0.6
2025-08-03T2100,1130A,126.561,45.8167,哈尔滨市,松北商大,,16,16,14,3,5,27,,51,44,20,8,6,6,0.5,0.4
2025-08-03T2100,1131A,126.979,45.5419,哈尔滨市,阿城会宁,,14,12,20,7,11,44,,71,60,11,8,6,4,1.0,0.5
2025-08-03T2100,1132A,126.599,45.7222,哈尔滨市,南岗学府路,,24,24,21,3,5,47,,68,58,10,7,7,8,0.6,0.6
2025-08-03T2100,1133A,126.689,45.7733,哈尔滨市,太平宏伟公园,,21,21,15,7,7,36,,66,55,17,7,6,6,0.5,0.5
2025-08-03T2100,1134A,126.635,45.7667,哈尔滨市,道外承德广场,,30,30,28,3,7,42,,54,49,8,8,7,7,0.6,0.6
2025-08-03T2100,1135A,126.685,45.7319,哈尔滨市,香坊红旗大街,,16,14,12,10,8,49,,68,62,11,10,4,5,0.6,0.6
2025-08-03T2100,1136A,126.6411,45.7258,哈尔滨市,动力和平路,,17,6,16,3,3,52,,71,62,9,8,5,5,0.5,0.5
2025-08-03T2100,1137A,126.593,45.7478,哈尔滨市,道里建国路,,15,10,16,3,6,47,,68,58,12,7,8,8,0.6,0.8
2025-08-03T2100,1138A,126.615,45.61,哈尔滨市,平房东轻厂,,22,18,12,12,36,11,,59,48,43,11,5,6,0.3,0.2
2025-08-03T2100,1139A,126.595,45.9855,哈尔滨市,呼兰师专,,12,12,9,3,2,38,,67,55,11,5,9,10,0.3,0.4
2025-08-03T2100,1140A,126.6206,45.6842,哈尔滨市,省农科院,,,14,22,11,9,48,,62,56,12,11,,13,0.4,0.4
2025-08-03T2100,2688A,93.5128,42.8172,哈密市,地区监测站,,30,30,55,17,24,89,,104,103,19,24,2,3,0.3,0.3
2025-08-03T2100,2689A,93.4961,42.8328,哈密市,哈密师范学校,颗粒物(PM10),53,56,54,18,23,76,,98,96,22,29,7,8,0.2,0.3
2025-08-03T2100,2671A,100.9048,36.9639,海北藏族自治州,海晏县西海镇,,43,34,30,30,24,94,,100,99,3,4,8,9,0.6,0.6
2025-08-03T2100,3867A,102.0738,36.5056,海东市,平安区公安北苑,,40,40,43,27,29,74,,108,104,12,9,11,16,0.9,0.7
2025-08-03T2100,1409A,110.576,19.9507,海口市,东寨港,,31,31,28,14,12,40,,60,57,4,4,13,11,0.5,0.4
2025-08-03T2100,1410A,110.3232,20.0574,海口市,海南大学,,38,38,34,20,18,48,,86,78,16,8,3,3,0.4,0.4
2025-08-03T2100,1411A,110.283,20.0053,海口市,秀英海南医院,,29,29,37,18,18,35,,69,62,16,14,5,6,0.3,0.3
2025-08-03T2100,1412A,110.338,19.9969,海口市,海南师范大学,,38,30,32,26,16,50,,70,66,16,8,3,3,0.5,0.4
2025-08-03T2100,1413A,110.33,20.0356,海口市,龙华路环保局宿舍,,30,30,33,21,18,54,,79,74,12,9,5,5,0.4,0.3
2025-08-03T2100,3539A,110.5111,19.9736,海口市,桂林洋子站,,,32,34,19,18,49,,74,71,,8,6,5,0.3,0.3
2025-08-03T2100,2673A,100.6188,36.2866,海南藏族自治州,共和县恰卜恰镇,,26,25,30,12,21,81,,99,95,10,9,11,12,0.5,0.6
2025-08-03T2100,2676A,97.3731,37.3753,海西蒙古族藏族自治州,德令哈市,,30,25,38,13,22,93,,103,102,1,4,15,15,0.6,0.6
2025-08-03T2100,1048A,114.5302,36.6116,邯郸市,东污水处理厂,颗粒物(PM10),59,67,46,17,11,118,,152,143,10,8,3,4,0.5,0.5
2025-08-03T2100,1049A,114.4918,36.5713,邯郸市,矿院,,42,42,35,22,19,121,,156,148,8,10,4,6,0.5,0.5
2025-08-03T2100,1050A,114.484,36.6133,邯郸市,丛台公园,,43,41,37,21,19,135,,163,155,11,10,5,6,0.5,0.5
2025-08-03T2100,3458A,114.7895,36.5593,邯郸市,香泉濮院小区,,,,46,,7,,,145,145,8,7,2,2,0.5,0.4
2025-08-03T2100,3579A,114.50634,36.77178,邯郸市,永年区实验高中,颗粒物(PM10),59,68,59,31,28,116,,167,150,16,16,2,4,0.4,0.5
2025-08-03T2100,3580A,114.20016,36.44293,邯郸市,峰峰矿区临水派出所,,47,47,48,9,9,138,,178,166,8,6,3,4,0.1,0.3
2025-08-03T2100,2634A,106.9893,33.1842,汉中市,汉川机床厂子校,,49,49,39,23,20,80,,142,132,13,14,3,3,0.5,0.4
2025-08-03T2100,2635A,107.0154,33.0706,汉中市,市监测站,,37,29,35,22,23,116,,141,136,9,13,6,7,0.4,0.5
2025-08-03T2100,2636A,107.0089,33.1138,汉中市,鑫源开发区,,33,30,31,20,19,104,,134,131,12,12,6,6,0.5,0.5
2025-08-03T2100,2637A,107.007,33.0323,汉中市,南郑大河坎水厂,,35,30,31,21,22,109,,138,129,11,14,8,8,0.4,0.4
2025-08-03T2100,1223A,120.2072,30.2111,杭州市,滨江,,23,23,33,15,23,62,,111,88,21,21,6,6,0.7,0.7
2025-08-03T2100,1224A,120.0633,30.2747,杭州市,西溪,,20,20,23,13,16,59,,83,55,8,11,4,4,0.5,0.5
2025-08-03T2100,1226A,120.3417,30.3150,杭州市,下沙,,31,24,23,14,15,98,,125,118,28,24,5,5,0.5,0.5
2025-08-03T2100,1227A,120.1269,30.2456,杭州市,卧龙桥,,22,22,29,13,20,55,,83,51,4,8,7,9,0.5,0.5
2025-08-03T2100,1228A,120.1903,30.2692,杭州市,浙江农大,,44,44,35,20,19,46,,84,65,18,13,5,5,0.5,0.5
2025-08-03T2100,1230A,120.1197,30.3119,杭州市,和睦小学,,22,22,21,14,15,68,,101,78,11,14,4,4,0.6,0.6
2025-08-03T2100,1231A,120.3019,30.4183,杭州市,临平镇,颗粒物(PM10),51,52,20,16,12,114,,127,121,11,13,5,5,0.6,0.5
2025-08-03T2100,1232A,120.2753,30.1839,杭州市,城厢镇,,34,34,36,21,24,69,,121,106,14,15,5,5,0.6,0.7
2025-08-03T2100,1233A,120.0883,30.1808,杭州市,云栖,,25,22,31,10,16,77,,102,81,7,12,9,9,0.6,0.7
2025-08-03T2100,3557A,119.9464,30.0494,杭州市,镇二中,,26,20,33,17,27,83,,95,86,7,21,3,4,0.5,0.6
2025-08-03T2100,3558A,119.7183,30.2367,杭州市,市府大楼,,27,27,19,16,13,66,,86,75,9,8,7,6,0.4,0.4
2025-08-03T2100,3656A,120.1556,30.2864,杭州市,消防大队,,23,23,24,16,16,50,,81,63,12,12,6,6,0.6,0.6
2025-08-03T2100,1270A,117.1959,31.7848,合肥市,明珠广场,,25,19,27,12,15,79,,140,131,15,15,6,5,0.5,0.5
2025-08-03T2100,1271A,117.3072,31.8764,合肥市,三里街,,22,22,21,12,14,69,,112,99,13,10,5,5,0.5,0.5
2025-08-03T2100,1272A,117.2588,31.8707,合肥市,琥珀山庄,,25,24,26,11,19,78,,126,117,15,10,7,8,0.7,0.7
2025-08-03T2100,1273A,117.1604,31.9052,合肥市,董铺水库,,25,22,23,17,18,68,,94,88,7,6,4,4,0.4,0.3
2025-08-03T2100,1274A,117.25,31.8571,合肥市,长江中路,,27,27,26,17,14,77,,130,119,13,9,6,6,0.6,0.6
2025-08-03T2100,1275A,117.266,31.9436,合肥市,庐阳区,,22,19,21,12,12,70,,116,106,12,6,8,9,0.5,0.6
2025-08-03T2100,1276A,117.3453,31.8616,合肥市,瑶海区,,22,22,21,12,13,63,,123,105,21,9,6,6,0.6,0.6
2025-08-03T2100,1277A,117.3027,31.7964,合肥市,包河区,,27,27,24,12,16,70,,126,114,18,21,5,6,0.6,0.6
2025-08-03T2100,1278A,117.2776,31.7385,合肥市,滨湖新区,,28,22,25,19,21,80,,139,130,9,14,7,8,0.5,0.5
2025-08-03T2100,1279A,117.1318,31.8403,合肥市,高新区,,24,22,22,11,14,76,,115,110,18,11,5,5,0.5,0.5
2025-08-03T2100,3464A,117.3803,31.9147,合肥市,高教基地,,22,22,23,9,12,65,,108,90,12,10,5,6,0.4,0.4
2025-08-03T2100,3614A,79.924,37.0877,和田地区,地区环保局,,,,68,,21,103,,122,122,12,10,1,2,0.1,0.1
2025-08-03T2100,3615A,79.9131,37.113,和田地区,市环保局,"颗粒物(PM10),细颗粒物(PM2.5)",67,83,101,48,25,97,,113,113,20,16,2,2,0.2,0.2
2025-08-03T2100,2516A,108.2011,24.715,河池市,东仁乐园,,,,,,,,,,,,,,,,
2025-08-03T2100,2517A,108.0497,24.6947,河池市,市环保站,,24,15,21,14,14,75,,86,84,12,8,6,6,0.6,0.6
2025-08-03T2100,2518A,108.0983,24.6989,河池市,市疾控中心,,34,34,29,23,20,79,,94,92,14,14,5,7,0.7,0.6
2025-08-03T2100,1696A,114.6778,23.7569,河源市,源西,,,16,15,6,7,50,,55,55,7,6,,4,0.7,0.6
2025-08-03T2100,1697A,114.6944,23.7586,河源市,东埔,,16,13,15,11,8,51,,56,56,13,10,4,4,0.5,0.5
2025-08-03T2100,1698A,114.6892,23.7233,河源市,老城,,18,18,15,10,10,44,,51,51,11,9,12,4,0.5,0.5
2025-08-03T2100,1718A,115.4208,35.2464,菏泽市,气象局,,40,38,32,18,19,126,,138,135,9,10,3,3,0.4,0.3
2025-08-03T2100,3374A,115.5564,35.0891,菏泽市,定陶老年大学,,31,31,24,12,10,83,,128,120,31,12,3,2,0.4,0.3
2025-08-03T2100,4184A,115.4797,35.24401,菏泽市,永昌路1号,,44,44,30,23,19,108,,125,123,18,13,5,6,0.1,0.1
2025-08-03T2100,4193A,115.4715,35.2800,菏泽市,长城路999号,,43,33,33,12,13,136,,144,141,7,14,6,6,0.4,0.4
2025-08-03T2100,2514A,111.5264,24.4172,贺州市,环保小区,,25,25,13,10,7,37,,48,46,10,7,10,10,1.1,1
2025-08-03T2100,2515A,111.5608,24.4078,贺州市,政协大楼,,20,20,11,11,6,42,,58,54,11,6,11,11,0.7,0.7
2025-08-03T2100,3534A,111.4744,24.4553,贺州市,西湾,,20,20,11,11,8,31,,46,45,20,9,10,10,0.6,0.6
2025-08-03T2100,2385A,114.17,35.9019,鹤壁市,市监测站,,48,40,33,33,27,134,,166,157,10,7,6,5,0.6,0.6
2025-08-03T2100,2386A,114.2956,35.7511,鹤壁市,市交警支队,,45,44,37,31,28,99,,142,129,17,15,4,8,0.8,0.6
2025-08-03T2100,2387A,114.2878,35.7306,鹤壁市,迎宾馆,,43,40,45,30,29,95,,138,125,17,17,6,5,0.7,0.7
2025-08-03T2100,3474A,114.2617,35.6822,鹤壁市,大新区,,44,44,48,21,25,91,,145,127,15,18,6,6,0.5,0.6
2025-08-03T2100,3596A,114.1572,35.9603,鹤壁市,南山宾馆,颗粒物(PM10),52,53,45,18,21,134,,174,163,9,7,4,5,0.5,0.5
2025-08-03T2100,2244A,130.2537,47.3416,鹤岗市,哈啤分公司,,18,18,18,3,8,44,,90,76,6,9,12,13,0.6,0.7
2025-08-03T2100,2245A,130.2684,47.3086,鹤岗市,斯达机电,,24,24,22,10,7,48,,82,72,6,8,12,12,0.3,0.3
2025-08-03T2100,2246A,130.3114,47.3388,鹤岗市,东山纸板厂,,18,,18,12,8,54,,90,83,7,11,13,12,0.8,0.7
2025-08-03T2100,2247A,130.1097,47.3382,鹤岗市,五号水库,,15,6,7,3,5,47,,85,73,6,14,11,10,0.2,0.2
2025-08-03T2100,2263A,127.4833,50.2524,黑河市,交通局,,,,19,,6,,,26,,,8,,7,,0.5
2025-08-03T2100,2264A,127.5144,50.2341,黑河市,环保局,,28,28,23,18,11,23,,23,23,7,10,3,4,0.4,0.4
2025-08-03T2100,2265A,127.5291,50.2472,黑河市,大黑河岛,,,,2,8,8,25,,21,21,4,7,27,27,,
2025-08-03T2100,1074A,115.6838,37.7541,衡水市,电机北厂,颗粒物(PM10),51,51,39,31,22,146,,160,158,7,9,2,3,0.4,0.4
2025-08-03T2100,1075A,115.6303,37.7316,衡水市,市监测站,,47,47,45,23,19,146,,161,159,5,10,5,6,0.4,0.3
2025-08-03T2100,3188A,115.6683,37.7217,衡水市,市城管局,颗粒物(PM10),59,68,40,30,24,123,,159,155,14,12,5,5,0.4,0.3
2025-08-03T2100,3459A,115.5989,37.5491,衡水市,地表水厂,颗粒物(PM10),57,64,52,25,17,89,,158,147,28,16,8,8,0.3,0.3
2025-08-03T2100,2456A,112.5003,26.9167,衡阳市,原169医院,,,,32,17,13,72,,105,101,,9,4,9,0.4,0.5
2025-08-03T2100,2457A,112.6194,26.9258,衡阳市,衡阳化工总厂,,25,20,23,12,14,77,,96,85,5,7,2,4,0.7,0.7
2025-08-03T2100,2458A,112.6211,26.8956,衡阳市,珠晖区环保局,,47,47,23,11,16,79,,97,88,4,7,5,6,0.5,0.5
2025-08-03T2100,2459A,112.6197,26.8733,衡阳市,市委党校,,25,21,15,9,12,77,,86,82,5,6,8,8,0.4,0.4
2025-08-03T2100,2460A,112.6006,26.8919,衡阳市,市监测站,,23,12,20,12,12,71,,92,84,5,6,3,5,0.5,0.5
2025-08-03T2100,2461A,112.5664,26.9056,衡阳市,真空机电公司,,19,18,23,13,16,59,,94,87,11,7,9,7,1.7,1.1
2025-08-03T2100,3399A,112.6703,26.882,衡阳市,师范学院,,29,29,26,12,11,67,,85,78,6,7,7,6,0.6,0.6
2025-08-03T2100,2608A,103.3772,23.3993,红河哈尼族彝族自治州,污水处理厂,,33,23,20,23,17,41,,69,58,7,9,8,9,0.2,0
2025-08-03T2100,2609A,103.3861,23.35,红河哈尼族彝族自治州,监测站,,34,34,26,20,12,38,,61,54,4,3,11,9,0.0,0.1
2025-08-03T2100,3038A,103.3758,23.368,红河哈尼族彝族自治州,州图书馆,,32,,15,22,13,41,,67,57,5,5,1,2,0.2,0.2
2025-08-03T2100,1090A,111.6507,40.7517,呼和浩特市,呼市一监,,34,34,26,12,19,75,,125,113,21,16,8,8,0.6,0.7
2025-08-03T2100,1091A,111.6572,40.8033,呼和浩特市,小召,,41,41,33,13,19,73,,133,117,24,26,8,8,0.7,0.7
2025-08-03T2100,1094A,111.7516,40.8369,呼和浩特市,如意水处理厂,,28,28,26,12,15,46,,148,124,38,23,4,4,0.5,0.5
2025-08-03T2100,1095A,111.7276,40.8062,呼和浩特市,二十九中,,32,32,31,11,18,69,,155,135,24,18,5,5,0.7,0.7
2025-08-03T2100,1096A,111.5512,40.7866,呼和浩特市,工大金川校区,,33,33,33,9,16,55,,140,122,31,24,5,5,0.6,0.7
2025-08-03T2100,1097A,111.717,40.7612,呼和浩特市,化肥厂生活区,,33,33,28,18,19,81,,148,132,28,22,7,7,0.7,0.7
2025-08-03T2100,3698A,111.5968,40.8178,呼和浩特市,红旗小学,,24,24,26,9,14,62,,148,130,36,28,1,3,0.5,0.6
2025-08-03T2100,3699A,111.6518,40.8389,呼和浩特市,海东办,,41,41,29,11,15,34,,157,131,52,31,3,5,0.5,0.5
2025-08-03T2100,2192A,119.7594,49.2261,呼伦贝尔市,区环保局,,47,47,25,24,19,5,,61,48,50,20,7,6,0.8,0.2
2025-08-03T2100,3061A,119.7512,49.1577,呼伦贝尔市,国华电力东,,34,34,20,15,10,20,,71,58,22,9,8,9,0.4,0.3
2025-08-03T2100,1250A,120.0751,30.8669,湖州市,城西水厂,,39,23,18,15,12,122,,115,115,7,18,6,6,0.7,0.6
2025-08-03T2100,2873A,120.0830,30.8929,湖州市,仁皇山新区,,31,28,25,15,14,97,,119,119,11,14,3,3,0.7,0.6
2025-08-03T2100,2907A,120.1844,30.8596,湖州市,吴兴区站,,36,26,86,17,13,115,,123,123,6,8,6,6,0.7,0.6
2025-08-03T2100,3562A,120.4148,30.8538,湖州市,南浔区站,,40,20,20,15,12,127,,128,128,5,8,3,3,0.8,0.7
2025-08-03T2100,1607A,120.9049,40.7211,葫芦岛市,龙港区,细颗粒物(PM2.5),57,,46,40,28,74,,101,96,23,11,32,11,0.8,0.6
2025-08-03T2100,1608A,120.8392,40.7514,葫芦岛市,化工街,,36,36,18,22,12,70,,100,94,29,14,8,7,0.6,0.5
2025-08-03T2100,1609A,120.8341,40.7073,葫芦岛市,新区,细颗粒物(PM2.5),54,55,28,38,25,67,,103,96,22,9,4,2,1.1,0.8
2025-08-03T2100,1610A,120.8695,40.7677,葫芦岛市,东城区,,50,36,26,35,23,60,,107,94,44,14,5,3,0.7,0.7
2025-08-03T2100,2482A,109.5981,27.5721,怀化市,林科所,,35,35,32,19,10,53,,94,88,10,10,5,4,0.1,0.2
2025-08-03T2100,2483A,109.9453,27.5444,怀化市,河西地税局,细颗粒物(PM2.5),52,48,26,36,20,38,,84,77,19,11,3,3,0.3,0.2
2025-08-03T2100,2484A,109.9781,27.5342,怀化市,市四医院,,27,27,40,9,26,43,,84,75,12,13,4,6,0.3,0.3
2025-08-03T2100,2485A,109.9972,27.5578,怀化市,监测楼,,33,25,37,23,23,49,,90,80,8,10,3,5,0.1,0.1
2025-08-03T2100,2486A,110.0394,27.583,怀化市,市委党校,,38,32,33,26,25,58,,99,88,5,12,6,7,0.2,0.2
2025-08-03T2100,1210A,119.036,33.5981,淮安市,钵池山,,27,27,14,16,13,70,,101,95,13,7,7,7,0.8,0.8
2025-08-03T2100,1211A,119.007,33.575,淮安市,北京南路,,31,31,18,13,11,26,,106,94,55,10,6,6,0.7,0.6
2025-08-03T2100,1212A,118.989,33.6067,淮安市,市监测站,,41,41,20,27,16,56,,113,105,24,7,8,8,1.0,0.7
2025-08-03T2100,1213A,119.135,33.5039,淮安市,楚州区监测站,,39,39,25,13,10,25,,88,76,34,6,6,6,0.5,0.5
2025-08-03T2100,3426A,118.8755,33.2894,淮安市,新华书店,,27,27,14,18,15,86,,113,111,14,6,8,8,0.6,0.6
2025-08-03T2100,4206A,119.0288,33.6319,淮安市,承德北路606号,,36,36,20,15,12,57,,97,91,18,7,6,5,0.6,0.6
2025-08-03T2100,2282A,116.8004,33.975,淮北市,监测站,,38,37,23,22,15,120,,144,142,12,7,6,7,0.7,0.6
2025-08-03T2100,2283A,116.8091,33.9007,淮北市,烈山区政府,,50,50,29,24,12,124,,143,141,10,6,6,6,0.6,0.6
2025-08-03T2100,3330A,116.8873,33.9836,淮北市,杜集区检察院,,49,48,24,34,19,111,,141,139,17,9,7,6,0.8,0.7
2025-08-03T2100,4017A,116.7923,33.9535,淮北市,市博物馆,颗粒物(PM10),53,55,26,30,17,140,,149,149,12,7,8,8,0.6,0.5
2025-08-03T2100,2277A,116.8305,32.7727,淮南市,潘集区政府,,47,47,24,18,11,101,,120,119,14,9,3,3,0.5,0.5
2025-08-03T2100,2279A,116.8569,32.5951,淮南市,谢家集区政府,,38,12,18,11,11,121,,125,121,5,7,6,7,0.3,0.3
2025-08-03T2100,2280A,116.8281,32.633,淮南市,八公山区政府,,34,21,20,10,11,108,,124,122,9,8,4,6,0.3,0.3
2025-08-03T2100,2281A,116.6325,32.6201,淮南市,焦岗湖风景区管理处,,,,,,,,,,,,,,,,
2025-08-03T2100,2894A,117.0566,32.6531,淮南市,经济技术开发区消防队,,30,28,16,6,5,94,,136,133,26,11,9,8,0.3,0.3
2025-08-03T2100,3329A,117.0108,32.5893,淮南市,山南新区,,35,13,8,7,6,110,,134,134,12,8,10,10,0.5,0.5
2025-08-03T2100,4209A,117.0031,32.6445,淮南市,国庆中路369号,,40,40,23,17,14,127,,146,146,12,8,14,14,0.4,0.4
2025-08-03T2100,2446A,114.9028,30.4742,黄冈市,职工中心,,38,27,30,16,20,119,,185,163,2,3,7,8,0.5,0.6
2025-08-03T2100,2929A,114.8858,30.4519,黄冈市,红卫路,,35,22,28,18,21,112,,172,146,2,5,9,10,0.5,0.6
2025-08-03T2100,3398A,114.9136,30.4445,黄冈市,市林业局,,36,26,34,13,20,113,,195,165,2,10,7,9,0.6,0.7
2025-08-03T2100,2672A,102.0199,35.5102,黄南藏族自治州,同仁县隆务镇,,27,26,37,13,21,85,,106,87,4,8,9,10,0.3,0.4
2025-08-03T2100,2295A,118.2903,29.6963,黄山市,延安路89号,,24,22,26,14,10,74,,93,88,5,3,3,3,0.6,0.5
2025-08-03T2100,2297A,118.1371,30.2756,黄山市,黄山区政府5号楼,,30,,20,21,8,43,,85,74,4,3,4,4,0.4,0.4
2025-08-03T2100,4210A,118.3354,29.7203,黄山市,滨江东路7-2号,,28,28,27,13,11,62,,97,89,7,4,2,2,0.5,0.5
2025-08-03T2100,2423A,115.0601,30.2313,黄石市,沈家营,颗粒物(PM10),69,87,57,19,16,117,,177,166,6,15,7,7,0.3,0.3
2025-08-03T2100,2426A,114.8988,30.2019,黄石市,铁山,,36,36,34,17,18,100,,136,130,25,13,8,9,0.5,0.5
2025-08-03T2100,2427A,115.0307,30.2092,黄石市,团城山,,44,44,39,19,14,138,,182,175,7,9,8,9,0.8,0.7
2025-08-03T2100,3149A,115.0235,30.1578,黄石市,笔架山北路,颗粒物(PM10),53,56,31,16,12,124,,152,145,8,6,8,7,0.4,0.5
2025-08-03T2100,4185A,115.0780,30.21118,黄石市,磁湖东路29号,颗粒物(PM10),55,59,49,23,20,108,,172,162,10,15,8,8,0.6,0.6
2025-08-03T2100,1392A,114.4183,23.0528,惠州市,河南岸金山湖子站,,20,9,18,3,12,63,,57,57,10,16,6,7,0.6,0.6
2025-08-03T2100,1393A,114.4053,23.0822,惠州市,下埔横江三路子站,,22,8,20,6,12,69,,60,60,7,14,4,5,0.3,0.3
2025-08-03T2100,1394A,114.4103,23.1142,惠州市,江北云山西路子站,,23,8,18,3,11,73,,63,63,10,18,7,8,0.5,0.6
2025-08-03T2100,1395A,114.4645,22.7833,惠州市,惠阳区承修路船湖子站,,25,25,25,14,14,41,,51,46,13,18,6,6,0.6,0.6
2025-08-03T2100,1396A,114.5317,22.7422,惠州市,大亚湾管委会子站,,27,27,18,16,10,20,,53,42,18,12,6,6,0.7,0.6
2025-08-03T2100,3314A,114.4338,22.8134,惠州市,惠阳秋长,,16,9,20,9,15,49,,44,42,10,23,2,3,0.5,0.6
2025-08-03T2100,3452A,114.6517,22.775,惠州市,大亚湾霞涌,,30,30,20,9,9,41,,66,58,9,10,5,5,0.7,0.6
2025-08-03T2100,2240A,130.9762,45.3001,鸡西市,环保局,,28,24,25,10,11,89,,92,88,8,19,6,6,0.2,0.3
2025-08-03T2100,2243A,130.9429,45.3039,鸡西市,第一中学,,28,17,25,7,12,87,,89,87,9,21,10,11,0.3,0.3
2025-08-03T2100,3707A,131.0207,45.3073,鸡西市,欧美日汽修厂,,27,17,25,12,15,84,,91,89,10,20,8,9,0.4,0.4
2025-08-03T2100,3709A,130.9967,45.3106,鸡西市,市政设施管理处,,28,25,26,3,12,88,,92,88,11,24,6,6,0.3,0.4
2025-08-03T2100,2367A,114.9754,27.0803,吉安市,红声器材厂,,,28,23,13,9,,,74,71,5,4,7,8,0.5,0.5
2025-08-03T2100,2368A,114.9658,27.0999,吉安市,市森林工业局,,25,24,20,15,10,80,,85,80,3,3,8,9,0.3,0.5
2025-08-03T2100,2369A,114.99,27.1312,吉安市,市环境监测站,,25,19,19,13,10,79,,85,81,2,2,12,13,0.5,0.5
2025-08-03T2100,2370A,115.0093,27.0968,吉安市,青原区法院,,26,26,21,14,11,77,,75,74,4,5,6,8,0.5,0.5
2025-08-03T2100,1772A,126.54,43.8622,吉林市,哈达湾,,17,15,16,10,14,54,,77,70,9,8,6,6,0.4,0.5
2025-08-03T2100,1773A,126.5844,43.8358,吉林市,东局子,,20,20,25,11,12,40,,70,63,15,10,11,6,0.8,0.8
2025-08-03T2100,1774A,126.5052,43.8245,吉林市,电力学院,,19,19,19,9,11,42,,77,66,8,8,5,5,0.6,0.6
2025-08-03T2100,1775A,126.6133,43.8972,吉林市,江北,,,19,20,14,12,23,,61,52,9,7,4,4,,0.2
2025-08-03T2100,1776A,126.555,43.8306,吉林市,江南公园,,15,14,19,6,15,45,,78,67,13,9,1,2,0.3,0.4
2025-08-03T2100,1778A,126.7061,43.7133,吉林市,丰满,,17,11,16,7,13,54,,98,80,6,4,4,4,0.5,0.6
2025-08-03T2100,2868A,126.4739,43.953,吉林市,九站,,15,,19,10,13,29,,75,65,22,8,4,5,0.4,0.4
2025-08-03T2100,1299A,116.9862,36.6114,济南市,科干所,,41,41,36,27,26,120,,168,159,16,13,6,8,0.5,0.6
2025-08-03T2100,1300A,116.9376,36.665,济南市,农科所,,42,42,31,20,15,107,,154,145,21,21,7,8,0.4,0.4
2025-08-03T2100,1301A,117.1265,36.6734,济南市,开发区,,39,37,30,22,21,123,,170,162,18,15,8,8,0.7,0.7
2025-08-03T2100,1303A,117.0624,36.6868,济南市,省种子仓库,,43,41,36,17,15,137,,180,171,17,19,6,6,0.6,0.6
2025-08-03T2100,1304A,116.9489,36.6447,济南市,机床二厂,,44,44,36,20,15,136,,164,161,15,19,9,10,0.5,0.4
2025-08-03T2100,1305A,117.0495,36.663,济南市,市监测站,,46,46,34,22,19,119,,164,157,26,19,9,9,0.6,0.6
2025-08-03T2100,1306A,116.7675,36.5484,济南市,长清党校,,39,34,27,27,21,120,,142,139,12,13,6,6,0.6,0.6
2025-08-03T2100,1616A,117.6795,36.229,济南市,技术学院,颗粒物(PM10),51,51,29,27,18,138,,151,149,17,13,10,8,0.7,0.7
2025-08-03T2100,1961A,117.532,36.6868,济南市,东山小学,,49,49,38,29,20,110,,,,20,11,8,7,0.4,0.3
2025-08-03T2100,3059A,117.7161,36.2049,济南市,泰兴公司,,46,46,36,24,19,113,,129,126,15,16,9,9,0.8,0.7
2025-08-03T2100,3064A,117.6867,36.2171,济南市,莱芜战役纪念馆,颗粒物(PM10),52,53,35,31,19,137,,138,138,14,16,6,6,0.6,0.7
2025-08-03T2100,3494A,117.1673,36.9782,济南市,济阳区政府,,49,49,43,24,20,134,,156,154,6,12,8,8,0.3,0.4
2025-08-03T2100,3495A,117.1171,36.63,济南市,锦屏中学,颗粒物(PM10),51,51,30,24,16,95,,180,166,22,12,6,6,0.9,0.8
2025-08-03T2100,3682A,116.9814,36.6819,济南市,济南四建,,48,48,31,22,16,141,,174,171,17,17,7,6,0.7,0.7
2025-08-03T2100,1653A,116.6251,35.4302,济宁市,火炬城,,32,32,27,17,11,92,,126,122,8,6,4,6,0.5,0.6
2025-08-03T2100,1655A,116.5491,35.4042,济宁市,电化厂,,41,41,28,12,13,83,,132,124,13,7,1,2,0.7,0.7
2025-08-03T2100,3500A,116.5814,35.3707,济宁市,北湖一中,,36,36,26,17,12,91,,134,126,6,5,2,4,0.3,0.3
2025-08-03T2100,3501A,116.8249,35.5593,济宁市,服务中心,,36,30,28,10,10,114,,142,138,8,9,3,2,0.4,0.4
2025-08-03T2100,3678A,116.5907,35.4054,济宁市,市第七中学,,29,27,29,14,8,92,,125,121,4,5,4,3,0.4,0.4
2025-08-03T2100,2255A,130.2751,46.8028,佳木斯市,佳纺,,15,11,19,3,10,47,,84,74,11,12,8,8,0.5,0.5
2025-08-03T2100,2256A,130.3995,46.8307,佳木斯市,发电厂,,18,13,19,8,12,55,,88,80,10,13,6,6,0.4,0.5
2025-08-03T2100,2257A,130.3258,46.7975,佳木斯市,环保局,,15,11,18,3,11,47,,84,76,15,9,8,9,0.5,0.5
2025-08-03T2100,2258A,130.3648,46.8032,佳木斯市,十一中,,17,14,17,3,10,54,,85,78,11,10,7,7,0.4,0.5
2025-08-03T2100,2259A,130.3794,46.7588,佳木斯市,四丰,,,,,,,,,,,,24,,1,,0.5
2025-08-03T2100,1252A,120.7436,30.778,嘉兴市,清河小学,,38,25,20,18,16,120,,117,117,14,14,5,4,0.6,0.9
2025-08-03T2100,1253A,120.726,30.7478,嘉兴市,嘉兴学院,,41,25,27,18,17,130,,128,128,9,12,3,5,0.7,0.6
2025-08-03T2100,2872A,120.7846,30.7525,嘉兴市,南湖区残联,,,29,21,18,17,,,124,124,9,12,5,5,0.8,0.7
2025-08-03T2100,3407A,120.6916,30.7739,嘉兴市,秀洲住建,,38,32,17,20,13,120,,124,124,14,15,5,4,0.7,0.7
2025-08-03T2100,1945A,98.2908,39.7711,嘉峪关市,气象局,,37,36,30,9,9,117,,132,130,14,11,13,23,0.8,1
2025-08-03T2100,2884A,98.2672,39.7978,嘉峪关市,酒钢宾馆,,44,44,35,14,13,130,,144,142,11,9,18,25,0.9,0.9
2025-08-03T2100,3248A,98.2643,39.7724,嘉峪关市,雄关区,臭氧1小时,183,32,31,21,15,365,,168,168,15,13,7,12,0.7,0.4
2025-08-03T2100,1383A,113.1064,22.6058,江门市,北街,,33,33,27,18,16,34,,45,41,8,10,2,2,0.6,0.6
2025-08-03T2100,1384A,113.0731,22.5835,江门市,西区,颗粒物(PM10),59,68,27,13,12,42,,61,55,10,12,5,5,0.7,1.2
2025-08-03T2100,1385A,113.0219,22.5311,江门市,圭峰西,,44,44,31,20,14,30,,59,50,14,5,4,5,0.5,0.4
2025-08-03T2100,1386A,113.0828,22.5947,江门市,东湖,,48,48,30,20,14,42,,55,50,9,11,6,6,0.4,0.4
2025-08-03T2100,3311A,113.1075,22.5647,江门市,江海富民,颗粒物(PM10),57,63,35,25,15,45,,60,56,7,11,8,8,0.4,0.3
2025-08-03T2100,3449A,113.05,22.4667,江门市,新会银湖,,45,45,28,21,14,36,,50,47,8,13,3,3,0.4,0.5
2025-08-03T2100,1830A,113.1992,35.2590,焦作市,影视城,,,,21,,21,,,,,,8,,10,,0.5
2025-08-03T2100,3335A,113.3137,35.2641,焦作市,马村街道办,颗粒物(PM10),51,51,51,28,31,120,,175,166,11,11,3,5,0.6,0.7
2025-08-03T2100,3336A,113.2465,35.2373,焦作市,焦作技师学院,颗粒物(PM10),51,52,48,9,20,129,,162,156,11,10,3,2,0.8,0.9
2025-08-03T2100,3477A,113.1656,35.2539,焦作市,中站许衡医院,颗粒物(PM10),51,52,38,26,26,135,,176,170,12,12,6,6,0.5,0.6
2025-08-03T2100,3981A,113.2449,35.1803,焦作市,原李万街道办,颗粒物(PM10),56,62,51,14,19,121,,176,167,11,13,8,9,0.6,0.7
2025-08-03T2100,4264A,113.2340,35.2190,焦作市,新安路1731号,颗粒物(PM10),52,54,45,21,24,138,,178,172,8,7,4,4,0.5,0.6
2025-08-03T2100,4295A,113.2722,35.2121,焦作市,人民路3066号,颗粒物(PM10),66,82,58,16,28,118,,172,163,10,10,5,5,0.5,0.6
2025-08-03T2100,1708A,116.3701,23.5345,揭阳市,新兴,,21,21,15,8,9,31,,44,44,14,15,5,4,0.6,0.6
2025-08-03T2100,1709A,116.3264,23.5443,揭阳市,西马,,28,28,17,13,8,36,,48,48,9,13,2,2,0.4,0.4
2025-08-03T2100,1710A,116.3611,23.5626,揭阳市,东兴,,24,24,12,10,7,33,,45,45,10,13,3,3,0.7,0.7
2025-08-03T2100,1711A,116.4151,23.5294,揭阳市,渔湖,,30,30,18,8,7,32,,46,45,10,15,8,8,0.5,0.5
2025-08-03T2100,3320A,116.403,23.5699,揭阳市,曲溪,,26,26,13,7,6,35,,47,47,8,14,3,4,0.5,0.4
2025-08-03T2100,1944A,102.1692,38.5167,金昌市,天庆家园,,46,46,38,18,24,92,,91,86,7,12,8,14,0.7,0.9
2025-08-03T2100,4022A,102.1647,38.5371,金昌市,金川区人防中心,,45,45,37,14,20,87,,94,88,8,10,7,10,0.6,0.6
2025-08-03T2100,4239A,102.1930,38.5319,金昌市,长春路96号,,34,34,40,12,19,90,,92,88,3,8,6,13,0.6,0.9
2025-08-03T2100,1262A,119.647,29.077,金华市,十五中,,41,41,41,25,27,86,,124,113,22,18,4,4,0.3,0.4
2025-08-03T2100,1263A,119.686,29.1029,金华市,监测站,,46,46,43,26,26,81,,126,112,19,17,4,4,0.5,0.6
2025-08-03T2100,3659A,119.656,29.1131,金华市,气象局,,44,44,40,28,24,77,,121,112,16,15,4,5,0.6,0.6
2025-08-03T2100,1767A,121.1115,41.0879,锦州市,南山,,26,19,21,18,17,70,,79,79,10,8,6,2,0.6,0.6
2025-08-03T2100,1768A,121.0604,40.8428,锦州市,开发区,,27,20,29,17,19,84,,99,96,11,12,2,3,0.8,0.8
2025-08-03T2100,1769A,121.1836,41.1119,锦州市,百股街道,,23,16,23,7,11,72,,91,91,13,10,5,7,0.6,0.7
2025-08-03T2100,1770A,121.1178,41.1222,锦州市,天安街道,,25,25,25,14,18,68,,89,89,17,13,5,5,0.7,0.7
2025-08-03T2100,1771A,121.1303,41.1386,锦州市,北湖公园,,24,24,27,12,18,51,,80,80,15,9,3,3,0.6,0.6
2025-08-03T2100,2160A,112.85,35.5051,晋城市,自来水公司,臭氧1小时,74,75,58,24,26,179,,164,164,12,12,1,1,0.5,0.5
2025-08-03T2100,2161A,112.8318,35.4936,晋城市,白云商贸,臭氧1小时,68,50,46,14,19,174,,154,154,10,10,3,3,0.5,0.5
2025-08-03T2100,2162A,112.8508,35.4887,晋城市,市环保局,颗粒物(PM10),56,61,62,24,25,157,,147,147,6,7,1,2,0.5,0.5
2025-08-03T2100,2163A,112.8676,35.4897,晋城市,技术学院,,50,49,45,17,19,158,,144,144,10,9,4,3,0.6,0.6
2025-08-03T2100,2165A,112.8453,35.546,晋城市,白马寺,臭氧1小时,73,34,31,24,27,178,,165,165,6,4,6,6,0.6,0.6
2025-08-03T2100,3620A,112.8271,35.4828,晋城市,泽州一中,臭氧1小时,74,23,46,14,22,179,,163,163,8,8,4,4,0.4,0.4
2025-08-03T2100,2173A,112.7249,37.7067,晋中市,南都小区,颗粒物(PM10),67,83,58,38,29,137,,166,162,12,10,3,6,0.9,0.8
2025-08-03T2100,2174A,112.6991,37.6982,晋中市,榆次区政府,颗粒物(PM10),60,70,51,27,23,146,,167,163,8,8,9,12,1.0,0.9
2025-08-03T2100,2865A,112.7195,37.6828,晋中市,榆次三中,颗粒物(PM10),57,63,49,34,30,150,,170,167,7,9,8,11,0.8,0.8
2025-08-03T2100,4200A,112.7478,37.6954,晋中市,迎宾街26号,颗粒物(PM10),54,58,48,34,27,148,,177,173,9,10,6,9,0.8,0.7
2025-08-03T2100,2439A,112.2014,31.0481,荆门市,竹园小学,,44,44,47,25,27,127,,148,147,7,10,1,2,0.4,0.5
2025-08-03T2100,2440A,112.1969,30.9891,荆门市,掇刀,颗粒物(PM10),51,51,43,31,30,122,,158,156,8,7,7,7,0.6,0.6
2025-08-03T2100,2441A,112.2213,31.0386,荆门市,石化一小,颗粒物(PM10),53,55,47,24,30,122,,152,150,8,9,3,5,1.1,1.1
2025-08-03T2100,3012A,112.1849,31.0362,荆门市,西山林语,,46,46,40,30,26,129,,149,149,6,6,7,8,0.5,0.5
2025-08-03T2100,3547A,112.1632,31.0138,荆门市,龙泉中学南校,,45,44,40,31,30,130,,160,158,10,12,3,3,0.7,0.7
2025-08-03T2100,1844A,112.2494,30.3197,荆州市,市图书馆,,39,28,34,27,24,114,,141,136,7,10,2,2,0.7,0.6
2025-08-03T2100,1845A,112.2008,30.3544,荆州市,市委党校,,40,40,37,24,25,112,,134,128,14,15,6,7,0.6,0.6
2025-08-03T2100,3194A,112.2747,30.3122,荆州市,管委会,,43,43,34,28,30,107,,139,130,10,10,8,8,0.8,0.7
2025-08-03T2100,4268A,112.1722,30.3366,荆州市,学苑路85号,,45,35,32,31,30,76,,134,121,19,16,6,5,0.6,0.6
2025-08-03T2100,2342A,117.3102,29.3867,景德镇市,王港中学,,,,,,,,,,,,,,,,
2025-08-03T2100,2343A,117.2117,29.2933,景德镇市,老干部活动中心,,38,37,31,26,19,64,,114,106,8,10,5,6,0.5,0.6
2025-08-03T2100,2344A,117.1894,29.2789,景德镇市,兽医站,,35,35,37,23,20,59,,109,102,9,10,4,5,0.6,0.6
2025-08-03T2100,2346A,117.2461,29.2956,景德镇市,陶研所,,38,38,43,22,24,53,,102,91,6,10,4,5,0.7,0.8
2025-08-03T2100,4289A,117.1542,29.2566,景德镇市,青少年活动中心,,31,31,31,16,21,66,,102,97,17,12,18,4,0.8,0.8
2025-08-03T2100,1803A,115.9872,29.6815,九江市,十里,,46,32,22,32,26,98,,128,118,15,14,4,4,0.6,0.6
2025-08-03T2100,1804A,115.9584,29.7046,九江市,茅山头,,49,47,30,34,21,98,,126,121,11,10,4,4,0.5,0.4
2025-08-03T2100,1805A,115.9877,29.7295,九江市,西园,,43,30,24,30,15,114,,146,131,17,17,6,6,0.8,0.8
2025-08-03T2100,1808A,115.9114,29.6038,九江市,综合工业园,颗粒物(PM10),54,58,25,30,16,69,,129,116,24,14,7,5,0.7,0.7
2025-08-03T2100,1809A,116.0721,29.7535,九江市,石化总厂,细颗粒物(PM2.5),52,46,32,36,28,107,,127,122,11,13,7,8,0.6,0.6
2025-08-03T2100,1810A,115.9773,29.5698,九江市,庐山气象台,,39,28,29,17,14,123,,116,116,4,6,6,6,1.1,0.9
2025-08-03T2100,3190A,116.0254,29.6994,九江市,外国语学校,细颗粒物(PM2.5),54,,25,38,27,119,,138,126,9,12,2,3,0.6,0.6
2025-08-03T2100,4253A,116.0102,29.6594,九江市,莲花大道8号,,29,24,22,18,19,90,,124,108,2,3,4,4,0.6,0.7
2025-08-03T2100,4240A,98.4958,39.7339,酒泉市,玉门东路5号,,44,44,36,30,23,120,,132,131,13,6,32,11,0.6,0.3
2025-08-03T2100,4241A,98.5099,39.7506,酒泉市,北大街108号,,48,48,36,24,20,112,,127,126,12,5,105,16,0.4,0.2
2025-08-03T2100,2698A,76.0072,39.4467,喀什地区,巡警大队,颗粒物(PM10),118,185,241,25,40,122,,110,110,11,17,3,3,0.3,0.4
2025-08-03T2100,2699A,75.9755,39.4694,喀什地区,吾办,颗粒物(PM10),121,192,250,52,56,118,,110,110,16,15,8,7,0.3,0.3
2025-08-03T2100,4027A,75.9483,39.4689,喀什地区,老干局,颗粒物(PM10),135,219,242,48,42,120,,111,111,10,10,5,5,0.3,0.3
2025-08-03T2100,1824A,114.3389,34.7781,开封市,肿瘤医院,,41,41,44,20,22,94,,140,132,15,20,2,2,0.9,0.9
2025-08-03T2100,1826A,114.2885,34.7965,开封市,世纪星幼儿园,,40,39,42,28,26,104,,140,136,15,15,2,3,0.6,0.6
2025-08-03T2100,3147A,114.3438,34.8106,开封市,龙亭公园,细颗粒物(PM2.5),55,,40,39,29,103,,146,137,8,9,3,4,0.7,0.6
2025-08-03T2100,3210A,114.3644,34.7964,开封市,汴京公园,颗粒物(PM10),57,64,47,25,25,88,,145,135,18,14,4,3,0.6,0.6
2025-08-03T2100,3473A,114.2485,34.8306,开封市,技师学院,,36,21,37,20,24,114,,139,134,6,11,4,5,0.7,0.7
2025-08-03T2100,3592A,114.4644,34.7556,开封市,祥符区生态环境局,,43,43,44,23,22,53,,132,111,42,34,4,4,0.4,0.4
2025-08-03T2100,1951A,84.895,45.6094,克拉玛依市,长征新村,,39,,15,27,9,104,,103,90,4,3,3,3,0.2,0.2
2025-08-03T2100,1952A,84.8988,45.5893,克拉玛依市,南林小区,,36,20,14,3,5,115,,114,98,2,2,4,4,0.2,0.1
2025-08-03T2100,1954A,84.905,44.3396,克拉玛依市,独山子区,,33,29,38,10,13,104,,118,115,8,8,7,8,0.5,0.5
2025-08-03T2100,1955A,85.6979,46.098,克拉玛依市,乌尔禾区商贸楼,,,,19,,6,,,110,110,,2,,6,,0.2
2025-08-03T2100,3612A,85.1045,45.6899,克拉玛依市,白碱滩区新站,,35,22,16,13,13,112,,110,101,7,6,7,9,0.4,0.2
2025-08-03T2100,2697A,76.1454,39.7142,克孜勒苏柯尔克孜自治州,市人民政府,颗粒物(PM10),103,156,167,46,48,131,,120,120,5,9,4,5,0.1,0.1
2025-08-03T2100,3665A,76.1658,39.7157,克孜勒苏柯尔克孜自治州,克州文化中心,颗粒物(PM10),108,165,194,48,46,128,,118,118,2,4,5,5,0.4,0.4
2025-08-03T2100,1450A,102.8204,24.8886,昆明市,呈贡新区,,19,17,14,13,12,56,,102,96,14,11,3,5,0.4,0.4
2025-08-03T2100,1451A,102.6251,24.9608,昆明市,西山森林公园,,,,,,,,,,,,,,,,
2025-08-03T2100,1452A,102.7252,25.0902,昆明市,龙泉镇,,25,25,20,12,13,64,,93,91,10,20,1,2,0.4,0.5
2025-08-03T2100,1453A,102.7266,25.0375,昆明市,东风东路,,19,10,22,8,15,59,,94,91,11,18,3,5,0.3,0.5
2025-08-03T2100,1454A,102.6742,25.0669,昆明市,金鼎山,,22,22,26,3,13,63,,83,81,5,14,2,2,0.3,0.4
2025-08-03T2100,1455A,102.6644,25.0401,昆明市,碧鸡广场,,20,13,24,3,17,61,,81,78,9,18,6,8,0.4,0.6
2025-08-03T2100,3179A,102.7494,25.0119,昆明市,官渡区博物馆,,19,19,22,3,12,60,,100,96,10,26,2,3,0.3,0.5
2025-08-03T2100,3375A,102.8017,24.8336,昆明市,青年创业园,,16,14,14,9,11,51,,96,90,14,14,1,4,0.4,0.4
2025-08-03T2100,3550A,102.7997,24.9786,昆明市,昆明学院,,19,19,23,12,13,60,,102,98,9,19,6,6,0.3,0.3
2025-08-03T2100,3551A,102.5967,24.6736,昆明市,晋宁区生态环境分局,,25,25,20,7,9,57,,73,70,5,6,5,3,0.4,0.4
2025-08-03T2100,3552A,102.6678,24.9856,昆明市,云天化总部,,,8,21,3,15,68,,94,90,,23,3,6,0.1,0.4
2025-08-03T2100,1456A,91.1319,29.6514,拉萨市,八廓街,,23,18,10,7,7,73,,92,90,18,8,6,5,0.4,0.3
2025-08-03T2100,1457A,91.1221,29.6747,拉萨市,市环保局,,22,11,9,7,6,69,,94,92,15,11,7,6,0.3,0.3
2025-08-03T2100,1458A,91.0874,29.6475,拉萨市,区监测站,,21,14,7,7,6,65,,90,88,18,12,4,3,0.3,0.3
2025-08-03T2100,1459A,91.1774,29.6541,拉萨市,西藏大学,,25,11,7,8,6,80,,88,88,14,9,6,4,0.2,0.2
2025-08-03T2100,1460A,90.9798,29.6588,拉萨市,区辐射站,,16,15,11,8,7,50,,89,86,18,13,4,4,0.4,0.4
2025-08-03T2100,1461A,91.0834,29.6292,拉萨市,拉萨火车站,,19,9,7,6,6,58,,88,85,15,9,6,5,0.3,0.3
2025-08-03T2100,2520A,109.2203,23.7256,来宾市,来宾技工学校,,29,29,34,16,19,79,,102,98,5,9,6,7,0.7,0.8
2025-08-03T2100,3535A,109.1781,23.7297,来宾市,兴宾区政府,,38,36,30,26,22,83,,101,99,4,9,5,6,0.7,0.8
2025-08-03T2100,4002A,109.2416,23.7461,来宾市,中南小学,,28,24,33,10,18,87,,107,105,6,9,6,6,0.7,0.7
2025-08-03T2100,1477A,104.1373,35.9454,兰州市,榆中兰大校区,,,,,,,,,,,,,,,,
2025-08-03T2100,1479A,103.831,36.0464,兰州市,铁路设计院,,49,49,43,29,24,96,,124,110,17,28,9,12,0.4,0.5
2025-08-03T2100,3241A,103.7439,36.0842,兰州市,百合公园,,42,42,40,16,18,101,,127,114,5,28,3,4,0.3,0.4
2025-08-03T2100,3242A,103.9611,35.998,兰州市,和平,颗粒物(PM10),61,72,36,35,19,101,,119,111,5,9,12,11,0.7,0.6
2025-08-03T2100,4236A,103.6293,36.0938,兰州市,庄浪东路808号,,39,39,51,19,22,101,,126,113,8,22,12,13,0.4,0.5
2025-08-03T2100,4237A,103.7251,36.1043,兰州市,安宁西路88号,,45,45,47,30,24,112,,141,129,2,16,5,6,0.3,0.5
2025-08-03T2100,4238A,103.8470,36.0676,兰州市,北滨河东路1号,,46,46,38,28,22,110,,131,120,8,29,8,9,0.4,0.5
2025-08-03T2100,3245A,103.6633,36.533,兰州新区,新区管委会,,37,26,39,20,23,118,,138,128,5,10,11,18,0.4,0.5
2025-08-03T2100,3246A,103.6975,36.4789,兰州新区,舟曲中学,,,,,,,,,,,,,,,,
2025-08-03T2100,1067A,116.6708,39.5111,廊坊市,药材公司,,44,43,31,26,17,138,,155,155,14,13,3,3,0.2,0.2
2025-08-03T2100,1068A,116.7214,39.5589,廊坊市,开发区,,38,38,30,24,17,111,,150,146,15,13,3,3,0.4,0.3
2025-08-03T2100,1070A,116.7244,39.5269,廊坊市,北华航天学院,颗粒物(PM10),51,52,43,29,20,120,,150,148,9,10,3,3,0.5,0.4
2025-08-03T2100,2919A,116.7022,39.5453,廊坊市,河北工业大学,颗粒物(PM10),52,54,44,20,14,122,,153,151,11,12,4,3,0.4,0.3
2025-08-03T2100,2535A,103.7723,29.5462,乐山市,花湖湾,,46,34,37,25,27,146,,168,161,12,16,3,3,0.8,1
2025-08-03T2100,2536A,103.7627,29.5844,乐山市,牛耳桥,,45,32,34,19,24,143,,156,155,14,18,5,6,0.9,1
2025-08-03T2100,2537A,103.7508,29.6006,乐山市,市第三水厂,,46,35,36,17,23,145,,154,151,14,20,3,3,0.7,0.7
2025-08-03T2100,2538A,103.7571,29.5664,乐山市,市监测站,,40,31,39,23,25,127,,146,144,16,16,6,8,0.7,1
2025-08-03T2100,3361A,103.7311,29.5628,乐山市,理工大学,,38,34,41,26,30,118,,164,152,25,20,6,8,0.8,1
2025-08-03T2100,2598A,100.2143,26.8576,丽江市,西南郊,,,,,,,,,,,,,,,,
2025-08-03T2100,2599A,100.2497,26.8802,丽江市,丽江古城,,28,28,17,17,7,65,,65,65,14,10,10,9,0.4,0.5
2025-08-03T2100,2600A,100.2203,26.8906,丽江市,市中心,,20,,10,13,8,63,,60,60,16,11,8,7,0.7,0.6
2025-08-03T2100,1267A,119.914,28.4514,丽水市,监测站大楼,,17,13,23,11,12,54,,90,75,9,10,2,3,0.5,0.5
2025-08-03T2100,1268A,119.93,28.4586,丽水市,莲都小学,,18,18,23,8,10,54,,88,73,9,11,3,3,0.4,0.4
2025-08-03T2100,1269A,119.879,28.4231,丽水市,余庄前,,19,18,23,13,17,24,,82,67,8,8,4,4,0.4,0.5
2025-08-03T2100,1173A,119.176,34.5885,连云港市,市环境监测站,,21,14,14,3,5,66,,100,93,10,8,3,3,0.5,0.5
2025-08-03T2100,3000A,119.3581,34.6972,连云港市,德源药业,,15,14,12,3,2,47,,77,66,18,11,3,3,0.6,0.6
2025-08-03T2100,3007A,119.178,34.844,连云港市,新城一中,,20,13,16,3,8,61,,83,71,14,10,3,4,0.6,0.7
2025-08-03T2100,3008A,119.3608,34.7519,连云港市,胡沟管理处,,28,22,9,3,3,9,,82,62,56,12,13,6,0.6,0.7
2025-08-03T2100,3009A,119.1478,34.5911,连云港市,矿山设计院,,21,12,14,7,8,66,,99,92,9,9,1,2,0.7,0.6
2025-08-03T2100,3434A,119.2413,34.6539,连云港市,工贸学校,,20,15,17,7,10,63,,91,82,14,12,5,6,0.6,0.7
2025-08-03T2100,3664A,119.4172,34.7341,连云港市,连云街道,,15,12,13,3,7,45,,81,60,5,9,2,2,0.5,0.6
2025-08-03T2100,2571A,102.3431,27.8099,凉山彝族自治州,青龙寺,,28,28,23,13,10,73,,106,101,7,5,6,6,0.4,0.3
2025-08-03T2100,2572A,102.2721,27.8415,凉山彝族自治州,邛海宾馆,,34,27,28,18,19,107,,114,113,7,13,11,10,0.3,0.4
2025-08-03T2100,2573A,102.2625,27.898,凉山彝族自治州,西昌市政府,,40,34,26,28,20,92,,118,112,12,10,17,12,0.9,0.7
2025-08-03T2100,2574A,102.2685,27.8851,凉山彝族自治州,凉山州政府,,36,30,29,25,23,99,,119,115,18,19,15,13,0.7,0.9
2025-08-03T2100,4229A,102.2342,27.8859,凉山彝族自治州,凯乐南路30号,,32,32,33,13,18,95,,117,111,20,17,32,16,1.9,1
2025-08-03T2100,2212A,123.2,41.1953,辽阳市,宏伟区,,28,28,24,19,14,36,,64,60,19,9,2,2,0.8,0.6
2025-08-03T2100,2213A,123.1683,41.2495,辽阳市,新华园,,31,31,26,21,14,84,,88,88,17,10,6,5,0.8,0.5
2025-08-03T2100,2214A,123.2354,41.2639,辽阳市,滨河路,,41,41,25,24,16,25,,70,61,36,12,3,3,0.6,0.5
2025-08-03T2100,2215A,123.149,41.2991,辽阳市,铁西工业园,,40,40,33,27,17,23,,66,61,46,14,9,9,0.7,0.6
2025-08-03T2100,2227A,125.1358,42.8845,辽源市,环保局,,28,28,26,15,6,64,,89,83,4,7,6,6,0.3,0.4
2025-08-03T2100,3239A,125.0764,42.9078,辽源市,银鹰制药,,12,7,15,3,9,37,,88,79,19,12,8,8,0.6,0.6
2025-08-03T2100,1625A,115.9848,36.4372,聊城市,区政府,,35,22,30,16,19,109,,130,126,9,12,6,7,0.7,0.7
2025-08-03T2100,2878A,116.0072,36.4343,聊城市,聊大东校,,31,24,40,11,21,98,,136,131,12,29,4,6,0.6,0.8
2025-08-03T2100,3200A,115.9819,36.4978,聊城市,监控中心,,34,34,23,22,16,80,,142,128,34,24,6,7,1.0,0.9
2025-08-03T2100,3513A,116.0445,36.4361,聊城市,九州社区,,38,38,40,18,20,96,,134,129,16,18,4,4,0.3,0.4
2025-08-03T2100,4018A,116.0567,36.4608,聊城市,星美广场,,48,48,40,19,21,76,,147,134,25,17,2,3,0.6,0.6
2025-08-03T2100,2632A,94.3681,29.6376,林芝市,林芝监测站,,15,,7,3,4,46,,50,49,2,4,5,5,0.3,0.4
2025-08-03T2100,2633A,94.3616,29.6616,林芝市,林芝人民医院,,15,10,10,3,4,45,,48,48,1,3,4,6,0.2,0.3
2025-08-03T2100,2603A,100.0781,23.8982,临沧市,市环保局,,30,,15,21,16,27,,36,36,8,6,11,8,0.4,0.4
2025-08-03T2100,2604A,100.0894,23.8822,临沧市,市气象局,,14,14,14,7,9,26,,41,38,10,8,10,10,0.3,0.3
2025-08-03T2100,1733A,111.5531,36.0783,临汾市,临钢医院,,47,47,44,9,14,100,,145,134,12,10,6,6,0.5,0.7
2025-08-03T2100,1734A,111.5028,36.0714,临汾市,技工学校,颗粒物(PM10),51,52,46,30,24,98,,154,141,14,11,5,6,0.5,0.6
2025-08-03T2100,1736A,111.5018,36.0855,临汾市,市委,颗粒物(PM10),56,61,55,10,16,111,,169,154,12,11,6,7,0.5,0.7
2025-08-03T2100,3018A,111.505,36.1014,临汾市,唐尧大酒店,颗粒物(PM10),55,60,57,8,17,100,,163,150,18,14,4,4,0.5,0.7
2025-08-03T2100,4244A,111.4879,36.0530,临汾市,启星学校,,47,47,43,25,30,105,,159,145,14,11,6,6,0.4,0.6
2025-08-03T2100,4271A,103.2464,35.6123,临夏回族自治州,滨河东路1号,细颗粒物(PM2.5),68,65,32,49,25,38,,70,64,20,14,7,7,0.6,0.4
2025-08-03T2100,4310A,103.2093,35.5995,临夏回族自治州,新华街21号,颗粒物(PM10),57,64,39,34,24,44,,87,78,18,15,6,6,0.6,0.5
2025-08-03T2100,1618A,118.3429,35.0532,临沂市,沂河小区,颗粒物(PM10),53,56,27,25,19,119,,134,134,17,11,11,8,0.4,0.3
2025-08-03T2100,1619A,118.295,35.0583,临沂市,鲁南制药厂,,44,44,22,29,16,126,,142,142,13,10,9,9,0.5,0.4
2025-08-03T2100,1620A,118.2794,34.9976,临沂市,新光毛纺厂,,39,39,17,23,14,121,,146,145,19,10,9,7,0.6,0.5
2025-08-03T2100,1621A,118.3956,35.0888,临沂市,河东保险公司,,35,34,22,14,10,112,,140,140,18,11,8,6,0.3,0.3
2025-08-03T2100,3370A,118.3564,35.0215,临沂市,十里堡居委,,37,29,18,22,11,118,,141,140,16,9,13,10,0.5,0.4
2025-08-03T2100,3496A,118.3604,35.1084,临沂市,南坊新区,,46,46,26,22,10,130,,44,,14,11,10,9,0.5,0.4
2025-08-03T2100,3860A,118.3920,35.0300,临沂市,皇山花园小区,,39,39,22,22,15,111,,140,140,20,11,10,8,0.6,0.4
2025-08-03T2100,1870A,109.4856,24.3895,柳州市,柳东小学,,40,40,19,27,14,82,,100,99,6,5,1,2,0.6,0.6
2025-08-03T2100,1871A,109.4157,24.3277,柳州市,环保监测站,,40,39,23,28,17,86,,105,105,9,6,7,7,0.7,0.7
2025-08-03T2100,1872A,109.389,24.341,柳州市,河西水厂,,44,44,22,25,12,81,,108,108,16,9,4,4,0.7,0.7
2025-08-03T2100,1873A,109.4311,24.2921,柳州市,市四中,,39,36,26,27,14,80,,102,102,14,12,6,6,1.1,1
2025-08-03T2100,1874A,109.4006,24.3631,柳州市,市九中,,50,48,28,35,17,80,,105,105,16,9,5,4,0.5,0.3
2025-08-03T2100,1875A,109.4958,24.3134,柳州市,古亭山,,47,47,25,26,13,53,,96,94,10,9,5,5,0.7,0.7
2025-08-03T2100,3402A,109.5422,24.3996,柳州市,市二中,,32,32,22,19,14,79,,98,98,9,9,5,6,0.8,0.8
2025-08-03T2100,2307A,116.5079,31.737,六安市,监测大楼,,24,21,16,15,11,75,,101,95,11,5,3,3,0.4,0.4
2025-08-03T2100,2308A,116.4738,31.7643,六安市,皖西学院,,27,19,20,15,11,84,,100,94,6,5,2,2,0.3,0.3
2025-08-03T2100,2309A,116.4996,31.7905,六安市,朝阳厂,,23,17,15,12,12,73,,94,88,12,7,5,5,0.4,0.4
2025-08-03T2100,2310A,116.5567,31.7886,六安市,开发区,,25,,10,17,16,52,,91,82,16,7,3,3,0.4,0.4
2025-08-03T2100,2576A,104.8,26.5892,六盘水市,窑上,,42,42,33,15,11,99,,114,113,6,5,1,2,0.5,0.5
2025-08-03T2100,2577A,104.83,26.5917,六盘水市,黄土坡,,36,25,25,20,19,114,,120,120,10,10,10,9,0.4,0.4
2025-08-03T2100,2578A,104.89,26.5939,六盘水市,水钢,,35,23,28,17,18,112,,124,122,7,7,9,9,0.4,0.5
2025-08-03T2100,2579A,104.8475,26.5894,六盘水市,民中,,37,24,25,12,13,117,,122,121,6,11,9,9,0.4,0.4
2025-08-03T2100,2580A,104.9544,26.5506,六盘水市,双水,,33,24,22,21,14,104,,115,114,9,8,6,6,0.5,0.5
2025-08-03T2100,2335A,117.0189,25.1181,龙岩市,龙岩师专,,,,,,,,,,,,,,,,
2025-08-03T2100,2336A,117.0217,25.1033,龙岩市,龙岩市监测站,,15,,10,9,6,46,,60,54,6,6,3,3,0.5,0.4
2025-08-03T2100,2337A,117.0258,25.0661,龙岩市,闽西职业技术学院,,15,10,12,6,5,46,,56,51,4,3,3,3,0.5,0.4
2025-08-03T2100,2338A,117.0196,25.0306,龙岩市,龙岩学院,,15,6,12,3,5,48,,56,52,4,4,5,5,0.5,0.5
2025-08-03T2100,2665A,105.0822,33.3261,陇南市,汉王镇固水子,,,,,,,,,,,,,,,,
2025-08-03T2100,2885A,104.9339,33.3826,陇南市,滨江中学,,50,50,40,23,20,118,,134,124,1,3,6,7,0.5,0.6
2025-08-03T2100,3247A,104.955,33.371,陇南市,市总工会,,44,44,45,21,19,133,,146,138,5,5,6,6,0.4,0.4
2025-08-03T2100,2487A,111.9589,27.8901,娄底市,电视发射台,,48,48,59,16,26,33,,104,82,5,5,6,6,0.6,0.7
2025-08-03T2100,2488A,111.9975,27.725,娄底市,市监测站,,26,22,50,18,31,61,,91,82,10,15,9,10,0.7,1
2025-08-03T2100,2489A,112.0194,27.7314,娄底市,市委党校,细颗粒物(PM2.5),95,94,46,71,34,91,,100,92,34,11,34,5,2.6,0.7
2025-08-03T2100,2490A,111.9561,27.7569,娄底市,涟钢,,46,46,53,29,35,34,,80,69,25,11,14,14,2.1,1.5
2025-08-03T2100,2491A,111.9892,27.7044,娄底市,市政府,,42,,45,29,38,55,,94,84,11,4,5,6,0.5,0.5
2025-08-03T2100,1893A,105.4324,28.9634,泸州市,九狮山,,46,35,41,32,27,81,,194,170,15,13,4,5,0.4,0.4
2025-08-03T2100,1894A,105.4427,28.9063,泸州市,小市上码头,,36,36,34,13,17,93,,136,130,6,9,2,4,0.3,0.2
2025-08-03T2100,1895A,105.4241,28.8573,泸州市,兰田宪桥,,40,40,35,20,17,114,,172,158,14,15,7,8,0.5,0.5
2025-08-03T2100,1896A,105.4379,28.8833,泸州市,市环监站,,39,30,22,22,21,122,,159,154,11,15,5,5,0.4,0.3
2025-08-03T2100,4272A,105.3689,28.7783,泸州市,纳溪中医医院,,49,49,33,26,22,94,,176,164,35,22,7,7,0.6,0.5
2025-08-03T2100,2183A,111.1406,37.5211,吕梁市,环保局,颗粒物(PM10),61,71,65,34,31,77,,171,154,41,28,4,4,0.7,0.8
2025-08-03T2100,2185A,111.1297,37.5136,吕梁市,自来水公司,颗粒物(PM10),61,71,82,34,29,103,,165,155,18,22,5,6,1.1,1
2025-08-03T2100,2867A,111.1283,37.51,吕梁市,马茂庄小学,颗粒物(PM10),59,67,61,29,29,83,,179,163,34,25,5,6,0.7,0.9
2025-08-03T2100,1812A,112.3931,34.6516,洛阳市,市委党校,,46,34,32,18,19,147,,162,159,6,8,6,7,0.5,0.5
2025-08-03T2100,1815A,112.494,34.6886,洛阳市,河南林校,,46,37,54,21,22,145,,166,159,11,16,6,7,0.3,0.4
2025-08-03T2100,1816A,112.3844,34.623,洛阳市,开发区管委会,,49,35,28,21,18,155,,173,169,6,6,8,10,0.6,0.6
2025-08-03T2100,1817A,112.4267,34.6258,洛阳市,市委新办公区,,47,33,29,20,19,148,,153,153,8,9,6,7,0.5,0.5
2025-08-03T2100,3340A,112.6005,34.6326,洛阳市,伊滨,,42,26,32,17,22,132,,156,147,9,15,7,9,0.6,0.6
2025-08-03T2100,3341A,112.4951,34.6332,洛阳市,中移产业园,,44,37,42,19,22,140,,156,151,8,14,6,6,0.8,0.8
2025-08-03T2100,3593A,112.5736,34.8993,洛阳市,吉利监测站,颗粒物(PM10),57,64,52,28,28,131,,176,172,16,13,6,8,0.5,0.5
2025-08-03T2100,3635A,112.3677,34.662,洛阳市,河科大西苑校区,,46,32,39,14,16,147,,168,164,5,14,7,9,0.3,0.4
2025-08-03T2100,3636A,112.4388,34.6781,洛阳市,英才小学,颗粒物(PM10),52,53,43,19,21,140,,154,149,11,13,6,7,0.6,0.5
2025-08-03T2100,4214A,112.4600,34.6949,洛阳市,春都路1号院,,41,40,40,11,16,131,,152,143,10,14,4,5,0.6,0.6
2025-08-03T2100,2399A,114.051,33.5699,漯河市,三五一五工厂,,40,29,27,17,17,125,,138,138,11,11,5,5,0.5,0.5
2025-08-03T2100,2400A,114.0055,33.5698,漯河市,漯河大学,,45,25,26,14,13,143,,147,147,9,12,4,5,0.4,0.4
2025-08-03T2100,2401A,114.0138,33.5828,漯河市,市水利局,,42,34,27,17,16,132,,137,137,8,9,5,5,0.4,0.4
2025-08-03T2100,2402A,114.0261,33.5698,漯河市,市广电局,,44,27,24,16,19,140,,149,149,10,11,3,3,0.3,0.3
2025-08-03T2100,3478A,113.9749,33.5664,漯河市,市图书馆,,43,23,38,20,19,137,,146,145,15,11,5,6,0.1,0.3
2025-08-03T2100,4250A,114.0892,33.5882,漯河市,韶山路11号,,37,32,27,13,16,116,,134,133,14,16,2,2,0.6,0.6
2025-08-03T2100,1798A,118.5092,31.6837,马鞍山市,湖东路四小,,25,21,26,15,15,77,,103,99,16,15,5,8,0.6,0.8
2025-08-03T2100,1799A,118.5024,31.6449,马鞍山市,开发区,,30,30,24,15,15,61,,110,102,35,15,6,6,0.7,0.7
2025-08-03T2100,1802A,118.6245,31.7241,马鞍山市,濮塘,,22,21,21,12,12,70,,110,100,4,8,6,6,0.7,0.9
2025-08-03T2100,3633A,118.4918,31.6809,马鞍山市,雨山,,29,29,21,13,14,75,,91,87,12,15,7,7,0.6,1
2025-08-03T2100,4191A,118.5274,31.72227,马鞍山市,慈湖高新区,,23,15,24,11,14,73,,105,98,12,16,6,7,0.5,0.7
2025-08-03T2100,1686A,111.0286,21.4688,茂名市,电白南海,,48,48,44,27,20,55,,75,73,11,9,2,2,0.5,0.4
2025-08-03T2100,1687A,110.9294,21.6533,茂名市,茂石化七小,颗粒物(PM10),54,58,40,24,19,58,,80,76,14,11,4,6,0.6,0.5
2025-08-03T2100,1688A,110.9107,21.6687,茂名市,健康路,,48,48,38,24,16,70,,89,85,11,13,4,6,0.7,0.7
2025-08-03T2100,1689A,110.8592,21.6828,茂名市,高岭,颗粒物(PM10),53,56,45,17,13,67,,83,80,14,19,4,6,0.5,0.5
2025-08-03T2100,3450A,111.01,21.5165,茂名市,电白水东,,39,39,32,12,15,64,,82,81,8,9,3,3,0.7,0.6
2025-08-03T2100,2539A,104.0308,30.0478,眉山市,黑龙滩水库,,33,,15,20,12,105,,149,144,9,7,3,3,0.2,0.2
2025-08-03T2100,2540A,103.8416,30.0874,眉山市,气象局,颗粒物(PM10),59,68,39,31,21,98,,173,151,30,27,3,3,0.7,0.6
2025-08-03T2100,3137A,103.8578,30.0744,眉山市,市委党校,,39,31,34,14,15,122,,162,146,15,23,8,8,0.7,0.7
2025-08-03T2100,3148A,103.8291,30.0564,眉山市,区人社局,颗粒物(PM10),53,56,45,12,15,124,,176,154,24,29,8,11,1.0,0.9
2025-08-03T2100,1690A,116.1231,24.3284,梅州市,梅江月梅,,22,17,18,15,10,22,,58,43,16,12,8,8,0.5,0.5
2025-08-03T2100,1691A,116.0797,24.2719,梅州市,梅县新城,,19,19,15,6,9,23,,58,42,12,10,6,6,0.6,0.5
2025-08-03T2100,1692A,116.1248,24.2654,梅州市,环境监控中心,,19,19,18,11,8,12,,56,32,16,12,3,5,0.7,0.6
2025-08-03T2100,3315A,116.1233,24.2991,梅州市,梅龙,,18,14,14,12,9,25,,59,44,12,9,6,7,0.7,0.6
2025-08-03T2100,1878A,104.7778,31.4741,绵阳市,富乐山,,44,35,34,22,26,139,,151,140,13,12,9,9,0.6,0.6
2025-08-03T2100,1880A,104.6697,31.4668,绵阳市,高新区自来水公司,,46,43,46,27,23,146,,140,136,17,21,10,9,0.6,0.7
2025-08-03T2100,1881A,104.7287,31.5075,绵阳市,三水厂,,40,30,45,22,30,127,,151,137,25,18,8,7,0.4,0.4
2025-08-03T2100,3491A,104.69,31.5322,绵阳市,西科大附属小学,,50,50,50,32,28,136,,156,144,15,20,9,8,0.6,0.6
2025-08-03T2100,3492A,104.5648,31.5343,绵阳市,安州区旅游局,颗粒物(PM10),52,53,44,31,26,120,,153,145,14,10,2,3,0.7,0.6
2025-08-03T2100,4226A,104.7651,31.4531,绵阳市,绵阳市气象局,,49,34,42,15,28,155,,145,139,14,14,5,5,0.5,0.5
2025-08-03T2100,1784A,129.61,44.561,牡丹江市,环保大楼,,26,19,18,10,9,83,,78,75,8,15,3,3,0.2,0.3
2025-08-03T2100,1785A,129.6115,44.5782,牡丹江市,文化广场,,27,27,17,18,19,78,,79,76,10,16,6,7,0.5,0.5
2025-08-03T2100,1786A,129.5904,44.5963,牡丹江市,第一医院,细颗粒物(PM2.5),52,,28,36,19,68,,82,79,14,19,7,7,0.5,0.5
2025-08-03T2100,1787A,129.6364,44.6075,牡丹江市,机车工厂,,28,28,26,17,16,68,,78,76,9,17,4,4,0.5,0.5
2025-08-03T2100,1788A,129.6386,44.5462,牡丹江市,第一中学,,35,35,22,21,11,84,,80,76,7,16,5,6,0.2,0.2
2025-08-03T2100,2531A,105.0703,29.61,内江市,市监测站,,46,25,22,22,22,146,,182,174,22,16,3,3,0.8,0.7
2025-08-03T2100,2532A,105.0717,29.5947,内江市,东兴区政府,,47,29,24,14,14,148,,174,166,13,13,9,8,0.6,0.6
2025-08-03T2100,2533A,105.0653,29.5817,内江市,内江二中,,39,36,30,23,23,122,,168,159,27,17,5,5,0.6,0.6
2025-08-03T2100,2534A,105.0406,29.5822,内江市,内江日报社,,37,32,28,23,22,117,,184,174,48,20,9,10,0.5,0.4
2025-08-03T2100,2628A,92.0657,31.4846,那曲市,那曲监测站,,32,32,20,19,10,52,,75,72,28,14,12,9,0.8,0.4
2025-08-03T2100,4243A,92.0515,31.4787,那曲市,那曲市委宣传部,,22,15,12,11,6,70,,84,82,12,9,6,6,0.3,0.2
2025-08-03T2100,1290A,115.8931,28.6843,南昌市,省外办,,35,25,31,24,25,94,,130,127,7,9,5,7,0.3,0.4
2025-08-03T2100,1291A,115.8886,28.7003,南昌市,省林业公司,,30,27,29,14,20,94,,135,131,2,10,2,4,0.5,0.6
2025-08-03T2100,1292A,115.8126,28.7442,南昌市,林科所,,39,34,25,27,20,84,,129,117,16,12,9,9,0.3,0.3
2025-08-03T2100,1294A,115.8518,28.687,南昌市,建工学校,,42,42,40,16,18,92,,136,131,11,14,9,14,0.6,0.6
2025-08-03T2100,1295A,115.8921,28.6424,南昌市,象湖,,38,38,27,19,18,88,,134,130,10,8,6,8,0.5,0.5
2025-08-03T2100,1296A,115.7423,28.7996,南昌市,武术学校,,26,26,24,12,11,45,,92,79,5,4,6,8,0.6,0.6
2025-08-03T2100,3046A,115.9084,28.6062,南昌市,机电学校,,35,35,33,14,20,83,,130,123,6,5,4,5,0.6,0.6
2025-08-03T2100,3690A,115.9721,28.7031,南昌市,外国语学校,,30,30,35,20,20,83,,142,132,9,9,6,6,0.4,0.4
2025-08-03T2100,4192A,115.9316,28.68677,南昌市,南京东路235号,,43,43,37,17,19,87,,126,122,8,11,3,5,0.7,0.7
2025-08-03T2100,1905A,106.056,30.8064,南充市,西山风景区,,,,,,,,,,,,,,,,
2025-08-03T2100,1906A,106.0789,30.8023,南充市,南充市委,,36,27,34,18,23,114,,134,129,14,13,6,6,0.4,0.4
2025-08-03T2100,1907A,106.1031,30.8217,南充市,南充炼油厂,,35,32,43,18,25,111,,130,126,12,11,4,5,0.4,0.4
2025-08-03T2100,4227A,106.1083,30.7884,南充市,梨树横街98号,,38,36,33,13,23,121,,141,138,14,12,5,6,0.3,0.3
2025-08-03T2100,4304A,106.1172,30.843,南充市,清泉寺北路188号,,42,42,37,25,25,125,,140,139,12,10,4,4,0.2,0.3
2025-08-03T2100,4305A,106.067,30.7616,南充市,同庆路1号,,43,43,36,19,21,110,,136,129,14,12,5,6,0.4,0.4
2025-08-03T2100,1151A,118.8086,32.1065,南京市,迈皋桥,,22,16,11,9,8,34,,104,85,44,18,4,4,0.3,0.4
2025-08-03T2100,1152A,118.7538,32.0551,南京市,草场门,,27,27,13,9,10,43,,92,83,32,11,8,8,0.6,0.6
2025-08-03T2100,1153A,118.7794,32.0745,南京市,山西路,,21,19,18,3,3,66,,103,94,20,20,4,4,0.5,0.5
2025-08-03T2100,1154A,118.7752,32.0023,南京市,中华门,,20,9,10,3,4,63,,92,84,14,9,10,9,0.9,0.8
2025-08-03T2100,1155A,118.8109,32.0309,南京市,瑞金路,,18,,8,12,8,56,,103,92,14,15,6,7,0.4,0.3
2025-08-03T2100,1156A,118.7997,32.0754,南京市,玄武湖,,16,16,18,3,2,46,,85,76,10,9,15,15,0.5,0.5
2025-08-03T2100,1157A,118.6414,32.0931,南京市,浦口,,25,25,14,3,5,56,,98,89,8,6,4,4,0.4,0.4
2025-08-03T2100,1158A,118.7356,31.9996,南京市,奥体中心,,24,24,13,12,8,66,,100,94,24,11,4,3,0.5,0.5
2025-08-03T2100,1159A,118.9125,32.1028,南京市,仙林大学城,,20,17,20,7,5,61,,107,96,16,10,7,8,0.6,0.7
2025-08-03T2100,3422A,118.8436,31.9198,南京市,江宁彩虹桥,,26,26,11,9,8,57,,111,99,22,11,4,4,0.8,0.7
2025-08-03T2100,3427A,118.8554,32.3578,南京市,六合雄州,,21,21,15,10,8,52,,81,75,21,11,4,3,0.6,0.6
2025-08-03T2100,4249A,118.8708,31.3402,南京市,汶溪路181号,,34,25,17,15,13,106,,135,129,12,9,5,6,0.7,0.7
2025-08-03T2100,4312A,119.019,31.6512,南京市,中山西路1号,,28,19,16,15,12,88,,117,114,22,12,3,4,0.8,0.7
2025-08-03T2100,1401A,108.3103,22.7881,南宁市,二十一中,,29,27,36,20,22,71,,90,80,6,7,3,5,0.7,0.7
2025-08-03T2100,1402A,108.3141,22.8528,南宁市,北湖,,40,40,35,17,23,72,,106,85,9,13,3,3,0.6,0.6
2025-08-03T2100,1403A,108.3206,22.8225,南宁市,市监测站,,26,19,34,18,20,74,,98,83,8,11,2,3,0.5,0.6
2025-08-03T2100,1404A,108.3829,22.8037,南宁市,大自然花园,,33,33,35,19,21,74,,95,87,5,5,5,5,0.6,0.7
2025-08-03T2100,1405A,108.4394,22.7904,南宁市,仙葫,,27,27,33,16,19,69,,90,81,5,6,6,6,0.6,0.6
2025-08-03T2100,1406A,108.2397,22.8467,南宁市,区农职院,,,30,35,22,22,,,110,91,23,16,4,3,0.6,0.7
2025-08-03T2100,1407A,108.3275,22.735,南宁市,英华嘉园,,34,34,34,16,20,67,,90,79,12,10,2,3,0.5,0.5
2025-08-03T2100,3401A,108.4834,22.7618,南宁市,红星社区,,29,28,32,20,28,65,,101,88,9,8,2,3,0.5,0.7
2025-08-03T2100,4221A,108.2177,22.7774,南宁市,乐贤路16号,,38,38,37,19,23,58,,96,75,19,17,5,5,0.7,0.7
2025-08-03T2100,2331A,118.0966,26.6761,南平市,茫荡山,,,,,,,,,,,,,,,,
2025-08-03T2100,2332A,118.1681,26.6369,南平市,南平市监测站,,14,13,15,3,10,44,,73,63,7,7,4,5,0.5,0.6
2025-08-03T2100,2333A,118.1825,26.6489,南平市,南平铝业有限公司,,20,20,17,3,8,56,,77,69,5,5,5,6,0.5,0.6
2025-08-03T2100,2334A,118.1756,26.6272,南平市,南平七中,,14,,16,3,11,44,,74,62,2,4,3,4,0.5,0.6
2025-08-03T2100,1168A,120.9098,31.9663,南通市,狼山街道,,17,17,20,10,13,48,,119,107,12,21,2,4,0.6,0.8
2025-08-03T2100,1169A,120.86,32.0005,南通市,虹桥,,27,15,18,12,15,86,,120,116,10,23,1,2,0.8,1
2025-08-03T2100,1170A,120.87,32.02,南通市,城中,,23,19,21,10,13,73,,109,102,14,18,2,3,0.4,0.6
2025-08-03T2100,1171A,120.94,31.93,南通市,星湖花园,,33,29,18,11,13,24,,114,91,66,32,2,2,0.5,0.7
2025-08-03T2100,1172A,120.81,32.0417,南通市,紫琅学院,,22,21,14,10,10,70,,118,104,12,15,2,3,0.8,0.8
2025-08-03T2100,3291A,121.067,32.062,南通市,通州监测站,,25,17,14,12,11,80,,114,105,9,15,1,2,0.8,0.9
2025-08-03T2100,3432A,120.9348,31.9883,南通市,环境教育馆,,24,19,20,8,11,76,,126,119,8,13,3,3,0.4,0.6
2025-08-03T2100,2404A,112.5224,33.0122,南阳市,瓦房庄,,36,36,33,15,11,108,,145,135,10,10,6,6,0.5,0.5
2025-08-03T2100,2405A,112.5003,32.9735,南阳市,汉画馆,,31,31,28,12,8,93,,143,136,20,13,7,7,0.5,0.5
2025-08-03T2100,2406A,112.5573,33.027,南阳市,气象站,,32,25,26,9,12,101,,152,139,15,9,7,7,0.4,0.4
2025-08-03T2100,2407A,112.5481,32.9689,南阳市,理工学院,,36,36,26,9,6,95,,144,133,20,11,7,7,0.5,0.5
2025-08-03T2100,4008A,112.5234,32.9922,南阳市,卧龙区政府,,32,26,27,19,13,100,,145,136,16,10,6,6,0.6,0.6
2025-08-03T2100,1234A,121.8358,29.911,宁波市,区环保大楼,,31,31,39,18,20,90,,128,110,8,11,3,4,0.6,0.6
2025-08-03T2100,1235A,121.56,29.82,宁波市,万里学院,,30,28,30,21,23,71,,113,102,15,9,4,5,0.7,0.6
2025-08-03T2100,1236A,121.713,29.9572,宁波市,龙赛医院,,31,31,34,16,16,68,,140,119,15,12,6,7,0.5,0.5
2025-08-03T2100,1239A,121.633,29.7733,宁波市,钱湖水厂,,22,20,24,14,16,70,,106,89,6,6,4,4,0.4,0.4
2025-08-03T2100,1240A,121.5856,29.8635,宁波市,太古小学,,25,25,32,15,17,78,,122,108,9,6,2,2,0.4,0.4
2025-08-03T2100,1241A,121.524,29.8674,宁波市,市环境监测中心,,26,26,31,15,15,75,,128,111,13,10,6,6,0.5,0.5
2025-08-03T2100,2871A,121.6147,29.9017,宁波市,万里国际学校,,26,25,27,15,18,81,,137,119,8,7,4,4,0.5,0.5
2025-08-03T2100,3710A,121.5594,29.8975,宁波市,白沙活动中心,,25,22,25,17,16,78,,133,118,13,11,4,5,0.6,0.6
2025-08-03T2100,2339A,119.5001,26.6946,宁德市,金涵水库,,,,,,,,,,,,,,,,
2025-08-03T2100,2341A,119.5388,26.6612,宁德市,宁德市监测站,,19,14,22,9,11,59,,76,60,7,12,6,6,0.5,0.6
2025-08-03T2100,3209A,119.5231,26.6562,宁德市,宁德一中,,19,13,19,13,11,46,,79,58,9,7,5,5,0.5,0.4
2025-08-03T2100,2618A,98.8601,25.8567,怒江傈僳族自治州,州监测站,,15,15,18,9,11,46,,62,60,7,8,7,6,0.4,0.3
2025-08-03T2100,2619A,98.8546,25.8417,怒江傈僳族自治州,泸水一中,,,,16,,8,32,,49,47,10,11,6,6,0.3,0.3
2025-08-03T2100,1888A,101.6891,26.571,攀枝花市,弄弄坪,,39,39,34,23,16,61,,107,96,23,17,6,13,0.7,1.1
2025-08-03T2100,1889A,101.5769,26.5928,攀枝花市,河门口,,,,19,17,16,76,,112,105,14,12,8,9,0.7,0.6
2025-08-03T2100,1890A,101.7169,26.585,攀枝花市,炳草岗,,33,33,37,15,17,81,,124,115,14,20,10,11,0.6,0.9
2025-08-03T2100,1891A,101.7369,26.5008,攀枝花市,仁和,,29,29,24,18,14,53,,90,81,14,10,7,9,0.6,0.6
2025-08-03T2100,2835A,101.7227,26.567,攀枝花市,四十中小,,27,27,30,18,18,80,,119,110,8,15,9,11,0.8,0.9
2025-08-03T2100,1604A,122.0303,41.1489,盘锦市,开发区,,30,,22,21,17,77,,100,98,8,8,18,5,0.6,0.3
2025-08-03T2100,1605A,122.0485,41.0883,盘锦市,兴隆台,,31,31,29,11,12,90,,106,104,9,13,8,5,0.5,0.4
2025-08-03T2100,1606A,121.8297,41.1028,盘锦市,新生街道,,35,,17,24,12,46,,95,85,14,10,3,3,0.7,0.5
2025-08-03T2100,1832A,113.3257,33.742,平顶山市,新华旅馆,,43,28,41,28,19,135,,164,158,11,14,7,6,0.4,0.4
2025-08-03T2100,1833A,113.2919,33.737,平顶山市,规划设计院,,39,31,29,18,18,124,,160,152,15,12,19,8,0.6,0.6
2025-08-03T2100,1834A,113.182,33.774,平顶山市,平顶山工学院,,46,28,25,12,14,146,,159,159,10,13,5,5,0.6,0.5
2025-08-03T2100,3204A,113.3025,33.73,平顶山市,规划局,,40,36,32,8,7,126,,161,154,14,11,16,4,0.4,0.4
2025-08-03T2100,3594A,112.8867,33.9116,平顶山市,石龙区,,47,47,44,20,18,126,,157,154,19,15,8,6,0.6,0.5
2025-08-03T2100,2656A,106.6692,35.5461,平凉市,聚贤嘉苑,颗粒物(PM10),52,53,49,19,16,100,,136,130,33,17,9,8,0.6,0.6
2025-08-03T2100,2657A,106.7021,35.5307,平凉市,博物馆,颗粒物(PM10),55,60,45,24,20,116,,142,139,27,14,11,11,0.6,0.6
2025-08-03T2100,2347A,114.0997,27.5002,萍乡市,武功山,,8,,3,3,5,22,,56,38,3,4,9,9,0.4,0.5
2025-08-03T2100,2348A,113.8385,27.6434,萍乡市,中医院,,18,15,24,10,15,55,,86,79,9,13,9,10,0.7,0.9
2025-08-03T2100,2349A,113.8493,27.6253,萍乡市,市政府车库,,40,,17,28,20,34,,72,63,12,7,9,9,0.6,0.5
2025-08-03T2100,2350A,113.8676,27.6435,萍乡市,市环保局,,25,18,26,17,18,48,,89,82,11,9,10,9,0.5,0.5
2025-08-03T2100,2351A,113.866,27.6198,萍乡市,安源区政府,,22,,27,15,16,48,,75,70,5,5,9,10,0.5,0.5
2025-08-03T2100,2319A,119.0141,25.4325,莆田市,荔城区仓后路,,34,34,30,7,12,45,,78,72,11,10,5,5,0.6,0.7
2025-08-03T2100,2320A,119.0015,25.4553,莆田市,莆田市监测站,,23,23,28,14,11,53,,88,80,13,9,4,4,0.4,0.4
2025-08-03T2100,2321A,119.1119,25.4561,莆田市,涵江区六中,,22,22,26,9,13,51,,94,87,15,15,6,5,0.1,0.2
2025-08-03T2100,2322A,119.1013,25.3215,莆田市,秀屿区政府,,19,19,27,3,14,56,,88,83,12,13,6,6,0.3,0.4
2025-08-03T2100,2323A,118.981,25.4792,莆田市,东圳水库,,,,,,,,,,,,,,,,
2025-08-03T2100,2392A,115.0312,35.7636,濮阳市,环保局,,40,22,31,18,18,125,,148,145,8,9,2,3,0.5,0.5
2025-08-03T2100,2394A,115.0574,35.7609,濮阳市,油田运输公司,,40,35,36,16,18,125,,148,146,10,11,2,2,0.4,0.5
2025-08-03T2100,3021A,115,35.7668,濮阳市,濮水河管理处,,36,36,35,25,23,81,,129,121,18,13,2,2,0.8,0.7
2025-08-03T2100,4216A,115.0924,35.7686,濮阳市,任丘路479号,,41,41,43,21,22,126,,141,140,6,10,2,3,0.4,0.5
2025-08-03T2100,2601A,100.98,22.7633,普洱市,市环保局,,33,29,25,23,15,24,,38,35,5,4,5,5,0.5,0.5
2025-08-03T2100,2602A,100.9817,22.8322,普洱市,普洱第二中学,,,18,25,13,10,,,40,39,6,8,6,6,0.5,0.5
2025-08-03T2100,2262A,131.0518,45.8751,七台河市,新一中,,21,16,21,11,15,65,,101,88,11,13,10,10,0.8,0.9
2025-08-03T2100,3345A,131.0577,45.7879,七台河市,中波台,,17,8,9,7,8,52,,75,66,13,15,7,8,0.9,0.8
2025-08-03T2100,3637A,131.0176,45.7761,七台河市,人民广场,,24,24,29,9,14,53,,74,66,14,14,12,12,0.6,0.6
2025-08-03T2100,3684A,130.8781,45.8222,七台河市,新建矿广场,,18,,11,12,10,42,,74,63,14,18,13,11,0.0,0.5
2025-08-03T2100,1779A,123.9305,47.3636,齐齐哈尔市,安居小区,,24,24,16,15,7,28,,60,51,20,6,3,4,0.7,0.4
2025-08-03T2100,1780A,123.9488,47.3386,齐齐哈尔市,中心广场,,37,37,14,24,2,26,,65,55,26,5,5,4,0.7,0.4
2025-08-03T2100,1781A,123.9483,47.3227,齐齐哈尔市,农牧车辆厂,,19,19,17,8,5,37,,64,56,13,5,6,6,0.3,0.3
2025-08-03T2100,1783A,123.945,47.2988,齐齐哈尔市,市环境监测站,,30,30,12,10,4,31,,62,54,14,5,5,5,0.5,0.3
2025-08-03T2100,3662A,123.6333,47.2075,齐齐哈尔市,富区青少年活动中心,颗粒物(PM10),53,56,12,24,6,22,,63,53,29,5,4,4,0.6,0.3
2025-08-03T2100,2591A,107.9783,26.5747,黔东南苗族侗族自治州,市环境监测站,,22,21,23,15,16,66,,81,76,8,6,2,2,0.4,0.4
2025-08-03T2100,2881A,107.8908,26.5311,黔东南苗族侗族自治州,凯里学院,,25,22,20,15,15,80,,88,87,7,10,2,2,0.4,0.8
2025-08-03T2100,2593A,107.5228,26.2403,黔南布依族苗族自治州,小围寨,,28,,14,19,12,57,,73,71,5,5,3,2,0.3,0.3
2025-08-03T2100,3538A,107.5175,26.2978,黔南布依族苗族自治州,沙坝,,20,19,21,3,6,62,,90,86,7,8,5,4,0.4,0.5
2025-08-03T2100,2589A,104.9022,25.0925,黔西南布依族苗族自治州,场坝街,,32,32,23,3,11,80,,91,90,14,12,6,12,0.5,0.5
2025-08-03T2100,2590A,104.8811,25.0992,黔西南布依族苗族自治州,坪东大道,,27,27,27,16,15,77,,89,88,10,11,2,3,0.4,0.4
2025-08-03T2100,2502A,108.6236,21.9667,钦州市,市环保站,,27,27,29,7,12,77,,90,86,9,10,2,3,0.3,0.4
2025-08-03T2100,2503A,108.6549,21.9481,钦州市,沙埠小学,,33,33,39,13,16,64,,87,81,12,13,1,2,0.5,0.6
2025-08-03T2100,2504A,108.5989,21.7431,钦州市,港区一小,,39,39,38,12,12,68,,75,75,8,9,2,2,0.5,0.5
2025-08-03T2100,3404A,108.5959,21.9633,钦州市,北职校,,30,30,34,11,14,75,,86,85,10,9,2,3,0.5,0.6
2025-08-03T2100,1043A,119.7493,40.0116,秦皇岛市,第一关,,29,26,21,20,15,81,,104,100,35,15,5,5,0.6,0.4
2025-08-03T2100,1044A,119.5897,39.9499,秦皇岛市,监测站,,39,39,36,6,7,94,,120,116,18,11,5,5,0.6,0.4
2025-08-03T2100,1046A,119.5251,39.9041,秦皇岛市,建设大厦,,35,21,27,6,8,109,,126,125,7,12,7,6,0.7,0.5
2025-08-03T2100,3132A,119.610547,39.943889,秦皇岛市,文明里,,39,39,29,6,12,100,,126,123,15,6,8,6,0.5,0.4
2025-08-03T2100,4198A,119.5090,39.8253,秦皇岛市,北戴河轮滑馆,,36,25,30,14,15,115,,126,125,3,5,2,3,0.5,0.4
2025-08-03T2100,1307A,120.6659,36.2403,青岛市,仰口,,15,9,14,3,4,45,,66,60,4,4,8,8,0.6,0.5
2025-08-03T2100,1310A,120.4134,36.0658,青岛市,市南区东部子站,,22,22,11,9,7,60,,71,63,2,2,6,6,0.3,0.3
2025-08-03T2100,1311A,120.3664,36.1032,青岛市,四方区子站,,22,22,14,9,9,46,,78,64,9,4,5,5,0.2,0.2
2025-08-03T2100,1312A,120.2994,36.054,青岛市,市南区西部子站,,19,19,13,10,8,58,,62,56,6,10,8,8,0.6,0.6
2025-08-03T2100,1313A,120.4581,36.0858,青岛市,崂山区子站,,15,14,15,3,2,45,,63,56,12,7,7,8,0.2,0.2
2025-08-03T2100,1315A,120.3999,36.3083,青岛市,城阳区子站,,19,9,11,7,8,59,,80,72,7,4,6,6,0.4,0.4
2025-08-03T2100,1966A,120.0405,35.8735,青岛市,黄岛区4号,,22,17,12,3,4,68,,85,74,2,4,9,10,0.3,0.4
2025-08-03T2100,3362A,120.5014,36.4034,青岛市,即墨2号,,21,18,12,10,13,65,,77,73,5,2,3,3,0.2,0.2
2025-08-03T2100,3642A,120.3503,36.0736,青岛市,市北区南部,,18,18,16,12,5,48,,70,59,10,8,6,6,0.6,0.6
2025-08-03T2100,3643A,120.3948,36.1805,青岛市,李沧区北部,,17,7,9,7,10,54,,90,73,3,5,4,5,0.3,0.3
2025-08-03T2100,4290A,120.1969,35.9546,青岛市,珠江路669号,,17,17,11,10,8,52,,64,54,7,7,6,6,0.4,0.4
2025-08-03T2100,1702A,113.0426,23.691,清远市,环保大楼,,46,46,50,19,18,47,,54,54,16,21,10,8,0.8,0.8
2025-08-03T2100,1703A,113.0208,23.7106,清远市,凤城街办,,27,27,28,13,14,29,,42,41,25,26,2,5,0.6,0.6
2025-08-03T2100,3025A,113.0477,23.6344,清远市,技师学院,,21,21,28,13,16,42,,46,46,19,22,6,7,0.6,0.5
2025-08-03T2100,3318A,112.9903,23.7403,清远市,清新太和,,23,18,30,16,18,44,,46,46,9,22,6,6,0.6,0.6
2025-08-03T2100,3455A,113.076,23.7198,清远市,清城东城,,28,28,28,15,16,27,,41,40,15,19,6,6,0.8,0.8
2025-08-03T2100,2661A,107.6325,35.7357,庆阳市,庆阳五中,,39,39,35,23,18,119,,131,129,11,8,6,7,0.6,0.6
2025-08-03T2100,2662A,107.6364,35.7067,庆阳市,市环保局,,40,36,33,19,18,125,,138,136,8,5,4,4,0.6,0.6
2025-08-03T2100,1916A,103.7897,25.5035,曲靖市,环境监测站,,30,23,31,10,17,93,,117,116,17,13,7,8,0.5,0.6
2025-08-03T2100,1917A,103.8,25.5364,曲靖市,烟厂办公区,颗粒物(PM10),52,53,36,3,20,101,,118,118,8,15,4,6,0.4,0.7
2025-08-03T2100,3376A,103.7947,25.462,曲靖市,南苑二区,,30,19,25,13,16,96,,119,118,9,7,4,4,0.6,0.7
2025-08-03T2100,3377A,103.7444,25.5261,曲靖市,曲靖师范学院,,42,42,32,16,24,108,,119,119,8,13,6,14,0.4,0.5
2025-08-03T2100,1264A,118.8692,28.9398,衢州市,环保大楼,,34,34,37,19,24,40,,85,77,32,18,2,3,0.6,0.6
2025-08-03T2100,1265A,118.8709,28.9666,衢州市,实验学校,,37,37,36,21,24,53,,88,83,26,16,4,4,0.5,0.5
2025-08-03T2100,1266A,118.8621,28.9808,衢州市,衢州学院,,28,28,33,18,23,54,,93,88,24,15,2,3,0.5,0.5
2025-08-03T2100,1611A,118.5819,24.9117,泉州市,涂山街,,20,20,20,3,14,44,,54,54,19,21,2,3,0.5,0.5
2025-08-03T2100,1612A,118.5972,24.8978,泉州市,津头埔,,17,17,23,10,13,47,,61,60,16,15,3,3,0.5,0.5
2025-08-03T2100,1613A,118.6663,24.9424,泉州市,万安,,16,16,25,8,12,49,,58,57,16,20,1,2,0.5,0.4
2025-08-03T2100,1614A,118.6117,24.9604,泉州市,清源山,,,,,,,,,,,,,,,,
2025-08-03T2100,3529A,118.6333,24.9264,泉州市,城华南路,,15,15,23,8,13,46,,59,57,20,19,4,4,0.5,0.5
2025-08-03T2100,2626A,88.8876,29.2718,日喀则市,日喀则监测站,,22,10,4,3,1,68,,77,76,5,3,12,11,0.4,0.4
2025-08-03T2100,3726A,88.8781,29.2426,日喀则市,林业技术推广中心,,26,26,9,7,2,63,,73,72,3,3,6,5,0.5,0.5
2025-08-03T2100,1659A,119.471,35.4209,日照市,监测站,,17,12,11,7,8,52,,83,64,19,8,6,6,0.5,0.5
2025-08-03T2100,1660A,119.523,35.4216,日照市,市政府广场,,23,9,10,3,4,71,,81,71,5,4,2,3,0.6,0.6
2025-08-03T2100,1661A,119.5587,35.4044,日照市,港务局,,24,,10,15,15,74,,83,73,6,4,8,7,0.6,0.6
2025-08-03T2100,3507A,119.5328,35.4625,日照市,职业技术学院,,22,6,11,3,7,70,,83,72,8,8,4,5,0.5,0.5
2025-08-03T2100,3604A,119.3266,35.1044,日照市,岚山环保分局,,14,14,17,3,6,39,,83,64,28,12,9,11,0.5,0.7
2025-08-03T2100,1835A,111.1922,34.7752,三门峡市,市政府,,39,27,40,16,21,124,,143,139,9,8,5,6,0.4,0.5
2025-08-03T2100,1836A,111.1587,34.7942,三门峡市,开发区,,42,42,39,25,24,126,,145,142,19,14,4,8,0.2,0.3
2025-08-03T2100,1838A,111.143,34.7955,三门峡市,风景区,,43,32,38,13,20,136,,151,148,4,4,4,5,0.4,0.5
2025-08-03T2100,3039A,111.1911,34.7829,三门峡市,三门峡市第一小学,,40,32,41,13,22,128,,145,141,11,11,5,8,0.4,0.5
2025-08-03T2100,3598A,111.1,34.7167,三门峡市,富达温泉假日酒店,,41,36,36,17,23,131,,148,145,6,8,2,4,0.4,0.5
2025-08-03T2100,2324A,117.6211,26.2625,三明市,三钢,,27,17,24,14,17,25,,64,52,26,14,27,12,2.7,1.9
2025-08-03T2100,2325A,117.635,26.2714,三明市,三明二中,,,66,25,18,14,,,64,56,,10,,6,,0.5
2025-08-03T2100,2326A,117.6028,26.2378,三明市,三元区政府,,14,14,23,8,13,32,,70,58,11,11,5,5,0.2,0.3
2025-08-03T2100,2327A,117.7275,26.3108,三明市,洋溪,,,,,,,,,,,,,,,,
2025-08-03T2100,1876A,109.5078,18.2489,三亚市,河东子站,,29,29,33,14,15,71,,72,72,7,3,4,4,0.2,0.2
2025-08-03T2100,1877A,109.4964,18.2681,三亚市,河西子站,,27,27,34,17,16,72,,71,71,4,3,3,3,0.1,0.2
2025-08-03T2100,3540A,109.7348,18.3443,三亚市,君悦子站,,38,38,48,16,15,69,,70,70,8,6,2,2,0.5,0.5
2025-08-03T2100,2624A,91.7608,29.2313,山南市,山南监测站,,34,34,14,9,3,66,,64,64,4,8,3,4,0.3,0.3
2025-08-03T2100,2625A,91.7706,29.2436,山南市,山南人民医院,,20,,9,8,4,64,,62,62,3,8,3,4,0.2,0.2
2025-08-03T2100,1674A,116.6794,23.3667,汕头市,金平子站,,15,14,14,8,9,45,,56,54,16,9,1,1,0.6,0.6
2025-08-03T2100,1675A,116.7244,23.3633,汕头市,龙湖子站,,18,18,15,7,5,45,,57,54,15,8,6,6,0.5,0.5
2025-08-03T2100,1676A,116.7258,23.2775,汕头市,濠江子站,,28,20,23,19,13,46,,57,50,12,9,4,5,0.5,0.6
2025-08-03T2100,1677A,116.7519,23.4714,汕头市,澄海子站,,29,29,19,10,10,40,,49,49,17,12,2,2,0.7,0.7
2025-08-03T2100,1678A,116.6092,23.2539,汕头市,潮阳子站,,17,10,18,6,6,52,,57,55,5,5,4,4,0.5,0.5
2025-08-03T2100,3444A,116.454,23.2684,汕头市,潮南峡山,,18,17,15,12,10,39,,50,47,10,7,5,5,0.7,0.7
2025-08-03T2100,3624A,116.4069,23.2533,汕头市,潮南子站,,13,13,16,8,9,40,,51,48,7,6,3,4,0.6,0.6
2025-08-03T2100,1693A,115.3653,22.775,汕尾市,市环保局,,27,27,26,11,10,51,,70,59,6,6,2,2,0.6,0.5
2025-08-03T2100,1694A,115.3706,22.7898,汕尾市,市政府,,18,17,23,12,11,53,,67,55,7,9,3,3,0.5,0.5
2025-08-03T2100,1695A,115.3622,22.7925,汕尾市,新城中学,,26,26,31,12,11,51,,70,58,5,7,4,4,0.4,0.4
2025-08-03T2100,2645A,109.9154,33.8715,商洛市,监测站,,37,37,39,24,25,97,,128,113,10,14,13,6,0.7,0.6
2025-08-03T2100,3045A,109.9643,33.8471,商洛市,商州区中学,,,,43,25,22,95,,120,107,12,15,32,10,0.8,0.5
2025-08-03T2100,2408A,115.6702,34.4285,商丘市,环境监测站,,36,29,24,19,15,114,,144,133,9,7,1,2,0.5,0.5
2025-08-03T2100,2409A,115.6458,34.4045,商丘市,粮食局,,38,28,22,17,12,119,,136,130,7,6,2,2,0.4,0.4
2025-08-03T2100,2410A,115.6293,34.3948,商丘市,睢阳区环保局,,38,38,28,18,14,109,,127,119,11,8,4,5,0.3,0.3
2025-08-03T2100,3171A,115.6071,34.4465,商丘市,梁园区档案局,,34,29,22,18,14,108,,123,117,7,6,2,2,0.5,0.5
2025-08-03T2100,1141A,121.4,31.238,上海市,普陀,,40,35,26,28,19,127,,134,134,15,16,5,5,0.6,0.5
2025-08-03T2100,1142A,121.478,31.2036,上海市,十五厂,,40,37,25,23,19,125,,127,127,16,19,7,7,0.9,0.8
2025-08-03T2100,1143A,121.467,31.3008,上海市,虹口,,45,45,28,27,21,107,,117,117,18,14,4,7,1.0,0.7
2025-08-03T2100,1147A,121.425,31.2261,上海市,静安监测站,,40,36,26,28,20,125,,124,124,13,15,3,3,0.8,0.8
2025-08-03T2100,1148A,121.703,31.1907,上海市,浦东川沙,细颗粒物(PM2.5),55,53,34,39,22,84,,123,118,48,19,11,10,0.9,0.8
2025-08-03T2100,1149A,121.533,31.2284,上海市,浦东新区监测站,,34,30,24,21,20,107,,124,122,15,13,7,7,0.7,0.6
2025-08-03T2100,1150A,121.577,31.2071,上海市,浦东张江,颗粒物(PM10),51,51,27,25,18,114,,124,118,24,17,5,5,0.9,0.8
2025-08-03T2100,3265A,121.4316,31.3322,上海市,宝山庙行,颗粒物(PM10),52,53,30,32,20,85,,118,117,46,16,8,8,0.9,0.5
2025-08-03T2100,3266A,121.8791,31.4662,上海市,崇明上实东滩,,40,29,33,18,24,128,,142,139,12,15,3,3,0.8,0.8
2025-08-03T2100,3268A,121.3162,31.2838,上海市,嘉定南翔,,36,33,26,25,22,85,,119,116,21,17,8,7,0.6,0.5
2025-08-03T2100,3269A,121.3359,30.7456,上海市,金山新城,,,,30,,26,,,99,,,13,,4,,0.7
2025-08-03T2100,3270A,121.4996,31.0739,上海市,闵行浦江,,45,45,26,24,18,123,,116,111,13,17,4,4,1.1,1
2025-08-03T2100,3271A,121.2886,31.1663,上海市,青浦徐泾,,39,36,38,27,20,100,,122,120,19,14,6,6,0.6,0.5
2025-08-03T2100,3272A,121.2186,31.0378,上海市,松江图书馆,,38,28,24,26,21,117,,123,123,11,14,7,6,0.8,0.7
