timepoint,stationcode,longitude,latitude,area,positionname,primarypollutant,aqi,pm10,pm10_24h,pm2_5,pm2_5_24h,o3,o3_24h,o3_8h,o3_8h_24h,no2,no2_24h,so2,so2_24h,co,co_24h
2024-09-18T2100,2566A,102.1879,31.914,阿坝藏族羌族自治州,州农科所,,21,21,17,8,6,42,,69,64,12,12,6,7,0,0
2024-09-18T2100,2568A,102.2502,31.8896,阿坝藏族羌族自治州,马师校,,30,30,15,9,8,33,,66,60,13,9,4,4,0.4,0.4
2024-09-18T2100,3994A,102.2165,31.9024,阿坝藏族羌族自治州,马尔康中学西区,,28,26,16,19,13,35,,70,63,13,8,5,5,0.4,0.4
2024-09-18T2100,2695A,80.292,41.1694,阿克苏地区,电视台,颗粒物(PM10),81,111,113,32,34,113,,131,130,18,20,4,4,0.5,0.5
2024-09-18T2100,2696A,80.2613,41.1551,阿克苏地区,艺术中心,颗粒物(PM10),81,111,98,34,32,96,,124,121,17,21,3,4,0.7,0.7
2024-09-18T2100,2204A,105.6467,38.8363,阿拉善盟,西城区西花园,颗粒物(PM10),74,97,65,40,30,142,,152,152,19,14,9,9,1.1,1.3
2024-09-18T2100,2205A,105.6985,38.8411,阿拉善盟,蒙二幼,颗粒物(PM10),58,65,43,32,22,124,,126,126,16,15,12,11,1.0,0.9
2024-09-18T2100,2206A,105.724,38.8516,阿拉善盟,环保局新楼,,44,43,27,27,20,138,,133,133,11,11,9,8,0.7,0.6
2024-09-18T2100,2708A,88.1264,47.8517,阿勒泰地区,市站,,38,38,34,13,7,48,,61,60,22,10,8,7,0.5,0.4
2024-09-18T2100,2630A,80.1161,32.5,阿里地区,阿里监测站,,27,6,5,3,3,84,,106,103,16,11,7,7,0.4,0.3
2024-09-18T2100,3192A,80.0903,32.5028,阿里地区,阿里藏医院,,30,6,8,3,1,96,,114,104,4,5,7,6,0.3,0.3
2024-09-18T2100,2642A,109.0318,32.6537,安康市,香溪洞,,22,16,33,13,12,69,,83,80,6,7,7,8,0.2,0.3
2024-09-18T2100,2643A,109.0281,32.6939,安康市,安康市监测站,,35,35,21,16,10,45,,78,70,17,8,7,12,0.7,0.6
2024-09-18T2100,2644A,109.0072,32.6975,安康市,汉滨区检察院,,33,33,15,3,8,39,,81,74,26,8,8,8,0.6,0.4
2024-09-18T2100,2291A,117.0809,30.5177,安庆市,环科院,,25,23,30,12,21,79,,118,107,10,10,8,8,0.7,0.9
2024-09-18T2100,2292A,117.0331,30.5119,安庆市,马山宾馆,,26,26,29,15,22,81,,124,111,11,11,9,9,0.4,0.5
2024-09-18T2100,2294A,116.9896,30.6145,安庆市,安庆大学,,28,23,23,14,17,88,,109,104,8,8,8,8,0.5,0.5
2024-09-18T2100,3173A,117.0598,30.5351,安庆市,市人大,,30,30,29,15,21,75,,119,104,11,8,8,8,0.7,0.8
2024-09-18T2100,3123A,105.9408,26.2431,安顺市,凤凰山,细颗粒物(PM2.5),95,75,28,71,22,56,,79,76,14,7,12,11,0.7,0.5
2024-09-18T2100,3124A,105.9439,26.2564,安顺市,金钟山,细颗粒物(PM2.5),88,,28,65,22,54,,79,76,13,6,9,9,0.7,0.6
2024-09-18T2100,3125A,105.8983,26.2481,安顺市,娄家坡,细颗粒物(PM2.5),59,58,24,42,20,59,,79,77,11,6,8,8,0.6,0.6
2024-09-18T2100,1819A,114.3551,36.1017,安阳市,红庙街,颗粒物(PM10),61,71,51,40,34,133,,168,167,24,18,5,6,1.0,1
2024-09-18T2100,1820A,114.361,36.0681,安阳市,银杏小区,,,67,49,,,138,,165,165,19,15,5,5,1.2,1.1
2024-09-18T2100,3141A,114.3922,36.0878,安阳市,信访局,颗粒物(PM10),56,61,49,32,33,141,,176,174,24,18,5,4,1.1,1
2024-09-18T2100,3669A,114.4705,36.0637,安阳市,左辅环卫站,颗粒物(PM10),52,53,58,27,35,105,,153,148,21,15,4,3,1.1,1.1
2024-09-18T2100,3703A,114.2917,36.0949,安阳市,安钢职工学校,细颗粒物(PM2.5),70,73,56,51,49,132,,160,160,32,26,15,13,1.9,1.6
2024-09-18T2100,1748A,123.044,41.1196,鞍山市,深沟寺,,48,48,65,26,42,27,,78,68,40,33,6,8,0.8,1.1
2024-09-18T2100,1749A,123.011,41.0931,鞍山市,太阳城,,43,43,62,23,37,27,,84,76,38,34,9,11,0.7,1.1
2024-09-18T2100,1750A,123.0485,41.1442,鞍山市,太平,颗粒物(PM10),67,84,84,43,45,19,,83,70,61,42,14,15,1.0,1.2
2024-09-18T2100,1751A,122.9642,41.0971,鞍山市,铁西三道街,颗粒物(PM10),54,58,75,32,45,31,,84,74,51,38,14,21,0.9,1.3
2024-09-18T2100,1752A,122.9341,41.0833,鞍山市,铁西工业园区,颗粒物(PM10),72,93,87,51,53,9,,78,62,68,48,28,27,2.3,2
2024-09-18T2100,1753A,123.022,41.0821,鞍山市,明达新区,,40,40,64,17,30,38,,78,71,36,36,10,12,0.6,1
2024-09-18T2100,2195A,107.4212,40.761,巴彦淖尔市,附二中,细颗粒物(PM2.5),92,102,49,68,32,66,,80,80,19,10,5,5,0.9,0.7
2024-09-18T2100,2196A,107.37,40.7372,巴彦淖尔市,市环保大楼,颗粒物(PM10),87,124,74,40,24,69,,94,94,18,10,4,4,1.0,0.8
2024-09-18T2100,1956A,86.1472,41.7538,巴音郭楞蒙古自治州,孔雀公园,颗粒物(PM10),99,147,133,36,34,78,,105,103,22,24,7,8,0.4,0.4
2024-09-18T2100,1957A,86.1972,41.7166,巴音郭楞蒙古自治州,棉纺厂,颗粒物(PM10),111,171,149,51,41,84,,106,105,16,31,7,9,0.3,0.3
2024-09-18T2100,1958A,86.2357,41.7173,巴音郭楞蒙古自治州,经济开发区,颗粒物(PM10),87,123,136,39,38,86,,105,103,14,13,8,11,0.2,0.2
2024-09-18T2100,2914A,106.7677,31.8794,巴中市,苏山坪,,40,36,27,28,20,92,,112,112,10,10,4,4,0.6,0.5
2024-09-18T2100,3182A,106.7656,31.8545,巴中市,丽阳花园,细颗粒物(PM2.5),63,56,34,45,26,57,,107,104,29,18,6,5,0.8,0.6
2024-09-18T2100,3183A,106.7418,31.8654,巴中市,圣泉水务公司,细颗粒物(PM2.5),54,50,31,38,24,54,,104,102,27,14,4,4,0.7,0.6
2024-09-18T2100,3616A,106.7616,31.8344,巴中市,市中心医院,,,47,37,,27,57,,103,100,30,20,6,5,0.7,0.6
2024-09-18T2100,2235A,122.7911,45.6077,白城市,洮北区环保局,,24,24,19,7,6,58,,89,85,21,8,5,4,0.3,0.2
2024-09-18T2100,2236A,122.8738,45.5725,白城市,市环保局,,35,35,33,3,8,52,,87,79,27,17,6,5,0.2,0.2
2024-09-18T2100,2231A,126.4219,41.9171,白山市,喜丰,颗粒物(PM10),61,72,35,12,13,7,,50,42,36,17,8,9,0.7,0.6
2024-09-18T2100,2232A,126.4077,41.9419,白山市,环保局,颗粒物(PM10),52,53,31,23,14,5,,39,32,30,24,10,10,0.5,0.5
2024-09-18T2100,2647A,104.1724,36.5446,白银市,第三小学,二氧化硫,62,36,40,17,25,57,,74,72,24,19,232,69,0.7,0.9
2024-09-18T2100,2648A,104.1465,36.5482,白银市,动力公司,,32,18,32,3,11,48,,76,72,21,14,95,40,0.7,0.9
2024-09-18T2100,2512A,106.6103,23.9011,百色市,市监测站,,26,26,27,14,13,23,,66,52,9,7,4,4,0.6,0.6
2024-09-18T2100,2513A,106.6538,23.8859,百色市,市中心血站,,39,39,33,17,13,14,,66,49,24,14,3,3,0.8,0.8
2024-09-18T2100,3406A,106.6085,23.8798,百色市,祈福高中,,47,47,35,13,14,12,,63,51,22,10,3,3,0.6,0.5
2024-09-18T2100,2270A,117.396,32.939,蚌埠市,工人疗养院,,32,32,31,7,8,61,,77,76,10,11,6,6,0.2,0.3
2024-09-18T2100,2271A,117.3605,32.9427,蚌埠市,百货大楼,,33,33,30,10,11,50,,62,60,15,10,7,6,0.3,0.4
2024-09-18T2100,2273A,117.4185,32.8911,蚌埠市,蚌埠学院,,23,22,23,13,10,71,,80,80,13,9,7,6,0.3,0.4
2024-09-18T2100,2274A,117.3533,32.9673,蚌埠市,淮上区政府,,24,24,26,12,13,65,,64,63,5,10,7,7,0.3,0.4
2024-09-18T2100,2275A,117.3145,32.8977,蚌埠市,高新区,,34,34,26,12,11,77,,56,56,11,10,7,6,0.5,0.5
2024-09-18T2100,3715A,117.3092,32.9314,蚌埠市,蚌埠田家炳中学,,33,33,29,10,11,58,,55,54,10,9,5,5,0.4,0.5
2024-09-18T2100,1585A,109.8756,40.6532,包头市,市环境监测站,颗粒物(PM10),68,86,44,44,30,11,,84,71,91,39,13,14,1.4,1.2
2024-09-18T2100,1587A,109.9991,40.5842,包头市,包头八中,细颗粒物(PM2.5),65,77,50,47,35,50,,97,91,51,30,23,14,1.5,1.2
2024-09-18T2100,1588A,109.8538,40.6821,包头市,青山宾馆,"颗粒物(PM10),细颗粒物(PM2.5)",58,65,36,41,26,14,,94,84,80,29,9,10,1.2,1.3
2024-09-18T2100,1589A,109.8642,40.6288,包头市,惠龙物流,颗粒物(PM10),72,93,46,41,30,35,,98,91,60,26,21,13,1.3,1.1
2024-09-18T2100,1590A,110.0377,40.5546,包头市,东河鸿龙湾,细颗粒物(PM2.5),54,51,40,38,28,64,,101,98,30,17,13,12,1.0,1
2024-09-18T2100,3283A,109.9154,40.5685,包头市,滨河大厦,颗粒物(PM10),54,58,40,36,29,58,,98,94,37,24,10,10,1.0,1.1
2024-09-18T2100,3419A,109.9447,40.6261,包头市,包头市委党校,颗粒物(PM10),54,57,40,35,31,42,,99,92,68,32,7,7,1.0,1.2
2024-09-18T2100,3683A,109.8331,40.6576,包头市,昆区政府,细颗粒物(PM2.5),64,74,44,46,28,40,,101,95,61,27,11,10,1.3,1.3
2024-09-18T2100,1930A,107.185,34.3063,宝鸡市,庙沟村,,45,45,51,30,31,100,,109,108,5,7,8,9,0.5,0.5
2024-09-18T2100,1931A,107.0708,34.3017,宝鸡市,竹园沟,,48,48,46,29,30,46,,101,80,12,12,7,8,0.6,0.6
2024-09-18T2100,1932A,107.1906,34.3672,宝鸡市,三陆医院,颗粒物(PM10),55,59,63,36,36,48,,127,109,33,24,6,8,0.7,0.7
2024-09-18T2100,1933A,107.1431,34.3547,宝鸡市,监测站,颗粒物(PM10),57,63,60,39,33,42,,108,91,25,17,7,7,0.8,0.8
2024-09-18T2100,1934A,107.1186,34.3739,宝鸡市,技工学校,细颗粒物(PM2.5),69,58,58,50,42,73,,124,112,21,17,8,9,0.7,0.7
2024-09-18T2100,1935A,107.3906,34.3528,宝鸡市,陈仓区环保局家属楼,颗粒物(PM10),64,78,58,34,29,96,,155,149,29,21,10,10,0.8,0.7
2024-09-18T2100,1936A,107.2058,34.3497,宝鸡市,文理学院,颗粒物(PM10),59,67,54,34,32,59,,128,111,26,18,10,11,0.7,0.6
2024-09-18T2100,1937A,107.2386,34.3622,宝鸡市,三迪小学,细颗粒物(PM2.5),120,,59,91,38,44,,136,117,45,24,8,9,0.8,0.7
2024-09-18T2100,1051A,115.493,38.8632,保定市,游泳馆,,,51,54,30,32,,,157,140,25,12,,7,0.4,0.7
2024-09-18T2100,1052A,115.5213,38.8959,保定市,华电二区,,46,46,60,24,34,82,,136,125,13,11,2,4,0.5,0.6
2024-09-18T2100,1053A,115.4713,38.9108,保定市,接待中心,,49,49,56,24,38,90,,140,130,16,12,2,4,0.3,0.7
2024-09-18T2100,1054A,115.4612,38.8416,保定市,地表水厂,颗粒物(PM10),67,83,63,20,29,63,,151,126,25,10,2,4,0.4,0.6
2024-09-18T2100,3581A,115.31981,38.95208,保定市,满城区生态环境分局,,46,46,69,19,34,128,,164,151,13,17,4,5,0.6,0.7
2024-09-18T2100,3582A,115.47694,38.76408,保定市,清苑区第二中学,,43,43,73,29,41,74,,146,118,11,10,1,3,0.5,0.8
2024-09-18T2100,3583A,115.62909,39.02311,保定市,徐水物探局,,31,31,58,19,32,94,,138,130,15,13,4,6,0.6,0.9
2024-09-18T2100,4004A,115.4202,38.8656,保定市,双鹰农机,,44,44,52,20,25,83,,155,139,24,13,1,3,0.6,0.8
2024-09-18T2100,4034A,115.5150,38.8590,保定市,植保所站,,42,42,60,21,33,73,,148,134,24,12,4,6,0.8,0.9
2024-09-18T2100,2594A,99.1678,25.1081,保山市,市环境监测站,,31,31,27,14,13,49,,80,73,9,6,6,6,0.5,0.5
2024-09-18T2100,2595A,99.1711,25.1328,保山市,市环保局,,31,31,29,14,12,62,,86,81,4,5,5,5,0.4,0.4
2024-09-18T2100,1867A,109.1436,21.4086,北海市,海滩公园,,35,34,22,24,10,51,,85,82,24,8,4,5,0.8,0.6
2024-09-18T2100,1868A,109.0981,21.4661,北海市,新市环保局,,32,23,21,22,14,79,,85,83,12,8,3,4,0.7,0.7
2024-09-18T2100,1869A,109.1778,21.5233,北海市,北海工业园,,24,21,22,15,14,76,,83,82,12,8,5,5,0.6,0.5
2024-09-18T2100,3400A,109.1911,21.4415,北海市,龙潭自来水厂,,42,42,22,24,15,37,,79,72,14,5,6,6,0.8,0.6
2024-09-18T2100,1001A,116.3621,39.8784,北京市,万寿西宫,,43,43,41,22,24,90,,127,118,17,17,3,4,0.8,0.8
2024-09-18T2100,1002A,116.2202,40.2915,北京市,定陵,,30,29,28,21,19,43,,77,72,5,4,6,9,1.0,0.7
2024-09-18T2100,1003A,116.4174,39.9289,北京市,东四,,40,40,41,19,21,76,,127,115,20,18,8,8,0.7,0.7
2024-09-18T2100,1004A,116.4072,39.8863,北京市,天坛,,36,36,37,20,22,63,,124,109,19,19,1,3,0.7,0.7
2024-09-18T2100,1005A,116.462,39.9365,北京市,农展馆,,40,40,39,18,20,60,,110,96,23,22,5,7,0.6,0.6
2024-09-18T2100,1006A,116.3392,39.9295,北京市,官园,,44,44,41,20,21,75,,114,111,23,18,8,8,0.8,0.7
2024-09-18T2100,1007A,116.2878,39.9611,北京市,海淀万柳,颗粒物(PM10),54,57,42,23,19,61,,93,91,27,21,4,4,1.0,0.7
2024-09-18T2100,1008A,116.6636,40.135,北京市,顺义新城,,26,26,36,14,21,60,,96,87,12,10,2,3,0.5,0.6
2024-09-18T2100,1009A,116.6275,40.3275,北京市,怀柔镇,,22,,7,15,14,43,,80,71,19,15,3,3,0.6,0.4
2024-09-18T2100,1010A,116.2296,40.217,北京市,昌平镇,颗粒物(PM10),65,80,36,21,17,49,,75,69,11,12,4,5,0.7,0.6
2024-09-18T2100,1011A,116.3966,39.9821,北京市,奥体中心,,27,27,37,15,18,73,,105,101,18,21,4,4,0.7,0.8
2024-09-18T2100,1012A,116.184,39.9136,北京市,古城,颗粒物(PM10),55,60,46,26,22,83,,109,108,23,19,4,4,1.1,0.9
2024-09-18T2100,3281A,115.9718,40.4529,北京市,延庆夏都,,45,45,31,22,16,94,,93,90,11,6,1,3,0.8,0.7
2024-09-18T2100,3417A,117.0709,40.1465,北京市,平谷新城,,49,49,41,23,24,90,,138,125,15,8,1,3,0.9,0.8
2024-09-18T2100,3418A,116.8336,40.4095,北京市,密云新城,,31,31,26,19,14,50,,80,74,5,5,3,2,0.6,0.5
2024-09-18T2100,3671A,116.088,39.9726,北京市,门头沟三家店,颗粒物(PM10),54,58,44,31,23,22,,76,68,33,17,6,6,1.0,0.7
2024-09-18T2100,3672A,116.1541,39.8204,北京市,丰台云岗,颗粒物(PM10),59,68,46,31,22,46,,109,95,50,21,4,4,1.0,0.7
2024-09-18T2100,3673A,116.6804,39.9081,北京市,通州东关,,37,37,49,17,24,108,,151,144,14,14,3,4,0.7,0.8
2024-09-18T2100,3674A,115.9577,39.7603,北京市,房山燕山,颗粒物(PM10),52,54,51,25,30,82,,131,124,17,14,3,3,0.7,0.8
2024-09-18T2100,3675A,116.4672,39.7733,北京市,大兴旧宫,,27,27,40,14,24,70,,133,119,11,10,3,3,0.5,0.7
2024-09-18T2100,3694A,115.986,40.4563,北京市,延庆石河营,,49,49,29,22,15,82,,88,85,10,6,3,2,0.8,0.6
2024-09-18T2100,3695A,116.6151,40.3053,北京市,怀柔新城,,30,30,25,17,14,48,,80,75,11,8,3,2,0.6,0.5
2024-09-18T2100,3696A,116.2545,39.8768,北京市,丰台小屯,颗粒物(PM10),55,59,44,26,21,66,,98,94,23,17,1,3,1.1,0.8
2024-09-18T2100,3697A,116.84,40.3844,北京市,密云镇,,34,34,27,20,14,55,,80,75,10,12,3,4,0.6,0.5
2024-09-18T2100,1761A,123.8275,41.3064,本溪市,大峪,,36,36,35,12,10,31,,74,66,21,21,8,9,0.8,0.9
2024-09-18T2100,1762A,123.7567,41.3325,本溪市,溪湖,颗粒物(PM10),64,77,45,31,15,18,,75,65,40,25,7,7,0.7,0.9
2024-09-18T2100,1763A,123.7169,41.3094,本溪市,彩屯,,39,39,34,18,16,13,,66,54,42,32,9,9,0.8,1.1
2024-09-18T2100,1764A,123.7669,41.2864,本溪市,东明,,39,39,40,15,13,26,,74,64,42,29,6,6,0.8,0.8
2024-09-18T2100,1765A,123.7992,41.2664,本溪市,新立屯,,39,39,25,13,11,26,,81,64,42,27,5,7,0.7,0.6
2024-09-18T2100,1766A,123.8142,41.3472,本溪市,威宁,,47,47,42,17,16,9,,65,52,39,24,8,8,0.8,0.9
2024-09-18T2100,2587A,105.2864,27.3125,毕节市,八中,细颗粒物(PM2.5),62,50,23,44,19,38,,77,68,14,11,6,6,0.7,0.5
2024-09-18T2100,2588A,105.31,27.2944,毕节市,师专,,38,33,25,26,20,72,,82,81,17,12,7,8,0.5,0.5
2024-09-18T2100,3537A,105.3631,27.3533,毕节市,长征村,细颗粒物(PM2.5),87,74,37,64,30,69,,82,81,13,9,7,7,0.6,0.6
2024-09-18T2100,1629A,118.0018,37.3617,滨州市,第二水厂,,34,34,38,22,24,95,,112,93,10,9,4,6,0.8,0.9
2024-09-18T2100,1630A,117.9776,37.393,滨州市,北中新校,,41,41,44,22,24,104,,118,96,3,4,6,7,0.8,0.9
2024-09-18T2100,3514A,117.9378,37.3956,滨州市,中海酒店,,35,29,42,24,24,107,,125,105,11,13,6,7,0.7,0.8
2024-09-18T2100,3515A,117.9378,37.3553,滨州市,开发区一中,,46,46,44,22,24,97,,118,96,14,12,7,9,0.7,0.7
2024-09-18T2100,3516A,118.0917,37.694,滨州市,金海六路,,,46,36,27,17,,,122,112,8,9,3,3,0.8,0.7
2024-09-18T2100,4028A,117.9956,37.3753,滨州市,滨州市西街道办事处,,39,39,41,27,25,104,,124,103,8,7,5,6,0.8,0.9
2024-09-18T2100,2311A,115.8072,33.8399,亳州市,污水处理厂,,10,6,8,3,7,30,,61,48,11,8,2,2,0.4,0.6
2024-09-18T2100,2312A,115.7789,33.8518,亳州市,三国揽胜宫,,10,10,9,3,6,30,,55,45,5,4,2,2,0.4,0.5
2024-09-18T2100,3332A,115.7633,33.8034,亳州市,亳州学院,,,,8,7,10,,,57,54,7,6,3,1,0.6,0.6
2024-09-18T2100,2693A,82.0485,44.8556,博尔塔拉蒙古自治州,市党校,,,41,58,10,18,78,,86,86,,10,6,4,0.3,0.3
2024-09-18T2100,2694A,82.0806,44.8969,博尔塔拉蒙古自治州,市环保局,颗粒物(PM10),54,58,69,15,14,75,,82,82,12,7,2,5,0.3,0.4
2024-09-18T2100,1071A,116.8842,38.2991,沧州市,沧县城建局,,37,37,34,25,17,85,,97,97,10,11,2,2,0.6,0.6
2024-09-18T2100,1072A,116.8584,38.3254,沧州市,电视转播站,,39,37,32,27,20,89,,96,96,13,12,6,6,0.5,0.5
2024-09-18T2100,1073A,116.8709,38.3228,沧州市,市环保局,,50,40,34,35,26,78,,88,88,8,9,3,3,0.4,0.4
2024-09-18T2100,3324A,116.8136,38.3004,沧州市,河北水利电力学院,,41,41,32,28,23,91,,101,100,10,10,4,6,0.2,0.4
2024-09-18T2100,2622A,97.1806,31.1273,昌都市,昌都监测站,,23,23,12,12,6,16,,53,44,39,12,7,7,0.8,0.6
2024-09-18T2100,3719A,97.1714,31.1406,昌都市,昌都会议中心,,,26,11,12,6,29,,60,55,,17,8,8,0.7,0.5
2024-09-18T2100,2690A,88.1236,43.8886,昌吉回族自治州,天山天池,,23,23,19,13,9,65,,74,74,6,6,10,9,0.4,0.5
2024-09-18T2100,2692A,87.2717,44.0297,昌吉回族自治州,新区政务中心,,,44,39,19,18,,,77,77,13,17,5,7,0.5,0.6
2024-09-18T2100,3613A,87.3095,44.0142,昌吉回族自治州,亚心广场,,39,39,40,3,7,62,,76,76,16,22,2,4,0.4,0.5
2024-09-18T2100,1119A,125.3325,43.9166,长春市,食品厂,颗粒物(PM10),82,113,57,54,24,7,,80,56,79,40,7,6,1.4,0.7
2024-09-18T2100,1120A,125.2863,43.9027,长春市,客车厂,颗粒物(PM10),70,89,42,46,21,9,,76,48,76,37,7,6,1.7,0.7
2024-09-18T2100,1121A,125.2841,43.8463,长春市,邮电学院,颗粒物(PM10),52,54,32,17,18,4,,84,58,72,28,7,7,0.9,0.5
2024-09-18T2100,1122A,125.3716,43.8772,长春市,劳动公园,颗粒物(PM10),82,114,44,54,21,11,,94,69,75,34,9,9,1.7,0.7
2024-09-18T2100,1123A,125.3297,43.8805,长春市,园林处,颗粒物(PM10),54,58,33,23,19,8,,82,64,65,29,5,5,1.1,0.5
2024-09-18T2100,1124A,125.4605,43.79,长春市,净月潭,,17,9,27,3,13,52,,87,80,7,14,6,6,0.3,0.4
2024-09-18T2100,1126A,125.3863,43.8447,长春市,经开区环卫处,颗粒物(PM10),70,90,40,19,17,4,,85,59,67,32,8,8,0.9,0.7
2024-09-18T2100,1127A,125.245,43.7783,长春市,高新区管委会,,39,35,28,27,15,6,,84,55,53,26,4,4,0.5,0.4
2024-09-18T2100,1128A,125.1761,43.8325,长春市,岱山公园,,45,36,30,10,16,4,,80,56,90,32,5,4,1.0,0.4
2024-09-18T2100,1335A,113.0833,28.2325,长沙市,经开区环保局,,46,46,51,22,30,112,,131,130,13,14,2,2,0.5,0.5
2024-09-18T2100,1336A,112.8872,28.2189,长沙市,高开区环保局,,44,44,60,25,36,106,,138,128,7,9,3,5,0.5,0.5
2024-09-18T2100,1337A,113.0792,28.2053,长沙市,马坡岭,颗粒物(PM10),51,52,51,27,37,113,,139,137,13,11,4,4,0.5,0.6
2024-09-18T2100,1338A,112.9394,28.19,长沙市,湖南师范大学,颗粒物(PM10),51,51,62,19,36,113,,141,131,5,6,6,8,0.5,0.5
2024-09-18T2100,1339A,113.0178,28.1322,长沙市,雨花区环保局,,47,47,53,27,31,108,,141,133,9,12,5,6,0.5,0.6
2024-09-18T2100,1340A,112.9792,28.2597,长沙市,伍家岭,,46,46,60,26,36,107,,134,121,6,8,3,3,0.7,0.7
2024-09-18T2100,1341A,113.0014,28.1944,长沙市,火车新站,,47,47,57,27,37,105,,136,126,8,8,4,5,0.5,0.6
2024-09-18T2100,1342A,112.9844,28.1178,长沙市,天心区环保局,,47,47,59,14,24,107,,135,126,8,10,4,4,0.5,0.6
2024-09-18T2100,1343A,112.8908,28.1308,长沙市,湖南中医药大学,,37,37,58,16,38,105,,157,137,7,8,5,7,0.8,0.8
2024-09-18T2100,1344A,112.9581,28.3611,长沙市,沙坪,,39,36,49,27,30,114,,133,130,8,10,2,10,0.6,1.3
2024-09-18T2100,1727A,113.1147,36.1547,长治市,清华站,,15,12,27,7,18,48,,130,84,11,8,6,7,0.6,0.8
2024-09-18T2100,1728A,113.1031,36.1989,长治市,监测站,,19,18,31,7,21,59,,133,81,10,11,8,9,0.8,1
2024-09-18T2100,1730A,113.0886,36.2125,长治市,审计局,,20,14,30,7,22,62,,134,83,7,9,5,6,0.3,0.6
2024-09-18T2100,1731A,113.0844,36.1856,长治市,长治八中,,,29,33,20,22,,,134,86,6,8,6,7,0.9,0.9
2024-09-18T2100,2845A,113.1569,36.1911,长治市,德盛苑,,18,14,27,3,19,55,,127,81,5,5,3,4,0.5,0.8
2024-09-18T2100,3568A,113.06,36.0464,长治市,向阳小学,颗粒物(PM10),52,53,53,24,37,51,,113,90,9,9,6,7,0.9,0.7
2024-09-18T2100,3569A,112.8792,36.3144,长治市,屯留一中,,35,35,62,19,45,49,,108,81,11,16,12,17,1.3,1.5
2024-09-18T2100,3570A,113.235,36.3489,长治市,潞城四中,,32,27,41,22,36,60,,148,88,6,10,7,7,0.6,1.1
2024-09-18T2100,1854A,111.6975,28.9703,常德市,市二中,细颗粒物(PM2.5),105,82,51,79,39,80,,131,119,19,11,10,11,0.9,0.7
2024-09-18T2100,3138A,111.7153,29.0289,常德市,武陵区永安,细颗粒物(PM2.5),90,97,52,67,34,97,,128,121,16,10,10,10,0.9,0.7
2024-09-18T2100,3139A,111.6892,28.9881,常德市,鼎城区玉霞,细颗粒物(PM2.5),77,97,54,56,32,82,,132,120,16,10,9,12,0.8,0.7
2024-09-18T2100,3140A,111.6625,29.0531,常德市,武陵区长庚,细颗粒物(PM2.5),65,66,52,47,36,111,,134,130,11,12,11,11,0.7,0.5
2024-09-18T2100,1196A,119.9633,31.762,常州市,市监测站,,20,16,22,14,12,26,,105,88,18,11,10,7,0.5,0.5
2024-09-18T2100,1200A,119.9468,31.7069,常州市,武进监测站,,26,26,23,14,11,29,,104,89,13,9,10,10,0.7,0.6
2024-09-18T2100,1201A,119.9255,31.9087,常州市,安家,,28,28,23,16,12,22,,92,76,21,13,10,8,0.5,0.5
2024-09-18T2100,3002A,119.9805,31.8174,常州市,行政中心,,29,29,28,10,8,25,,100,84,23,14,12,7,0.6,0.4
2024-09-18T2100,3003A,120.0522,31.7748,常州市,经开区,,25,25,24,16,10,30,,96,80,16,11,13,9,0.5,0.3
2024-09-18T2100,3010A,119.9025,31.7964,常州市,钟楼,,25,25,24,11,8,26,,97,83,20,14,11,8,0.0,0.2
2024-09-18T2100,3429A,119.8598,31.7066,常州市,武进经发区,,23,23,22,14,13,29,,94,85,18,13,14,10,0.6,0.5
2024-09-18T2100,3430A,119.5826,31.7245,常州市,金坛城区,,,,24,,11,,,102,102,24,14,8,8,0.5,0.4
2024-09-18T2100,2220A,120.4318,41.5881,朝阳市,西梁,,,87,38,60,29,,,34,32,36,22,8,9,,0.8
2024-09-18T2100,2221A,120.4521,41.5646,朝阳市,河畔小区,,33,33,29,22,16,5,,42,34,31,18,8,9,1.7,0.9
2024-09-18T2100,2222A,120.4176,41.5648,朝阳市,八里堡,,49,45,37,34,22,12,,40,34,39,25,7,9,1.1,0.9
2024-09-18T2100,2223A,120.3806,41.5969,朝阳市,农业园区,细颗粒物(PM2.5),67,,34,48,26,5,,28,19,19,20,7,8,0.9,0.7
2024-09-18T2100,1705A,116.6367,23.6719,潮州市,西园路,,44,44,28,6,11,56,,69,69,14,8,7,6,0.5,0.3
2024-09-18T2100,3026A,116.6183,23.6608,潮州市,市政府,,31,31,31,13,14,63,,81,81,11,9,5,5,0.6,0.7
2024-09-18T2100,4036A,116.6461,23.6761,潮州市,金山,,36,36,27,13,16,66,,87,87,11,6,8,7,0.6,0.6
2024-09-18T2100,2472A,113.0073,25.9061,郴州市,马头岭,颗粒物(PM10),58,65,56,32,21,50,,96,83,35,13,14,9,2.2,0.5
2024-09-18T2100,2473A,113.0116,25.8226,郴州市,市职中,细颗粒物(PM2.5),74,62,53,54,45,32,,112,89,23,13,4,2,0.8,0.7
2024-09-18T2100,2474A,113.0161,25.8001,郴州市,兴隆步行街,颗粒物(PM10),65,79,62,45,39,45,,111,97,25,13,4,6,0.8,0.8
2024-09-18T2100,2475A,113.0383,25.8071,郴州市,市审计局,细颗粒物(PM2.5),75,58,53,55,44,48,,108,95,15,8,2,4,0.9,0.8
2024-09-18T2100,2476A,113.0348,25.7759,郴州市,市环保局,,,,59,,41,,,109,103,30,12,4,6,0.9,0.8
2024-09-18T2100,1431A,103.9728,30.7236,成都市,金泉两河,,15,14,37,3,16,48,,132,110,19,16,3,3,0.7,0.7
2024-09-18T2100,1432A,104.176,30.6872,成都市,十里店,颗粒物(PM10),53,55,47,28,28,85,,128,114,27,36,2,4,0.4,0.5
2024-09-18T2100,1433A,104.079,30.5706,成都市,三瓦窑,,44,44,46,16,30,75,,120,109,27,42,2,3,0.6,0.7
2024-09-18T2100,1434A,104.1114,30.63,成都市,沙河铺,颗粒物(PM10),51,52,48,32,28,75,,129,109,22,25,3,4,0.7,0.8
2024-09-18T2100,1437A,104.0786,30.6531,成都市,君平街,,42,34,40,29,31,74,,142,124,24,25,4,4,0.6,0.7
2024-09-18T2100,2880A,104.0239,30.65639,成都市,大石西路,,,40,45,29,27,69,,131,114,17,24,,5,,0.9
2024-09-18T2100,3136A,104.2725,30.5589,成都市,龙泉驿区区政府,,36,36,30,19,19,72,,122,102,16,12,4,4,0.6,0.6
2024-09-18T2100,3357A,104.0106,30.6931,成都市,金博路,,46,46,39,24,23,52,,127,109,29,23,2,3,0.7,0.7
2024-09-18T2100,3359A,104.0578,30.5225,成都市,华阳,,36,36,47,17,27,77,,128,116,19,23,3,3,0.6,0.7
2024-09-18T2100,3487A,104.2394,30.5319,成都市,车城东七路,,,86,44,40,30,,,130,121,27,16,3,3,,0.5
2024-09-18T2100,3488A,104.3853,30.7453,成都市,青白江技师分院,,28,28,40,15,26,40,,139,114,50,29,2,3,0.6,0.7
2024-09-18T2100,3489A,104.0789,30.4072,成都市,科学城,,35,32,43,24,32,66,,135,121,23,14,4,3,0.7,0.7
2024-09-18T2100,4011A,103.8506,30.6947,成都市,光华大道三段,,43,40,35,30,20,78,,136,122,20,13,2,2,0.7,0.7
2024-09-18T2100,1062A,117.9531,40.9081,承德市,铁路,,49,49,26,25,11,37,,60,57,28,20,8,8,0.5,0.4
2024-09-18T2100,1063A,117.9392,40.9763,承德市,中国银行,,45,45,25,13,8,39,,59,52,18,15,5,4,0.5,0.3
2024-09-18T2100,1064A,117.9503,40.928,承德市,开发区,,48,48,29,21,13,60,,62,62,14,15,8,8,0.6,0.4
2024-09-18T2100,1065A,117.8051,40.9655,承德市,文化中心,颗粒物(PM10),53,56,32,12,9,25,,46,43,17,17,8,8,0.3,0.2
2024-09-18T2100,1066A,117.9268,41.0026,承德市,离宫,,43,39,19,30,22,10,,45,32,8,8,3,2,0.4,0.3
2024-09-18T2100,2314A,117.47,30.6618,池州市,池州学院,,27,27,35,14,21,62,,110,98,18,13,7,11,0.5,0.8
2024-09-18T2100,3237A,117.4918,30.6617,池州市,展览馆,,22,22,34,13,20,59,,98,94,15,12,5,7,0.5,0.8
2024-09-18T2100,3333A,117.5627,30.695,池州市,第八中学,,26,26,30,16,18,62,,108,97,18,12,4,6,0.5,0.7
2024-09-18T2100,3334A,117.5038,30.6243,池州市,第十二中学,,29,29,34,14,19,82,,118,104,11,14,3,5,0.6,1
2024-09-18T2100,1744A,118.9233,42.2816,赤峰市,松山一中,,25,25,36,3,11,31,,41,,26,25,10,10,0.4,0.6
2024-09-18T2100,1745A,118.9576,42.2728,赤峰市,哈达街,,26,26,18,16,11,16,,72,61,26,17,9,10,0.7,0.5
2024-09-18T2100,1746A,118.8788,42.2554,赤峰市,天义路,,16,16,15,6,13,22,,77,64,25,18,7,8,0.4,0.3
2024-09-18T2100,3058A,119.2658,42.0353,赤峰市,银河街,,,36,29,,22,22,,34,,16,12,38,15,1.0,0.7
2024-09-18T2100,3286A,118.9359,42.3147,赤峰市,桥北物流园区,,35,35,31,16,16,16,,72,57,40,25,19,10,0.8,0.8
2024-09-18T2100,2521A,107.3476,22.4136,崇左市,市环保局江州分局,,28,28,27,19,16,51,,68,66,7,6,6,7,0.7,0.7
2024-09-18T2100,2522A,107.3702,22.3707,崇左市,城南新区,,25,24,24,17,15,61,,72,71,5,5,3,3,0.7,0.7
2024-09-18T2100,2298A,118.3093,32.3153,滁州市,老年大学,,36,36,25,21,13,96,,109,108,17,12,6,6,0.4,0.3
2024-09-18T2100,2299A,118.3244,32.2786,滁州市,人大宾馆,,42,42,28,22,16,97,,107,106,19,10,7,6,0.6,0.5
2024-09-18T2100,3207A,118.3118,32.3038,滁州市,市政府原办公楼,,36,36,23,25,18,97,,106,105,16,11,7,7,0.5,0.4
2024-09-18T2100,3331A,118.3267,32.2634,滁州市,图书馆,,,27,26,19,14,,,103,103,20,11,6,5,0.3,0.3
2024-09-18T2100,2605A,101.5482,25.0441,楚雄彝族自治州,州环境监测站,,28,27,20,19,15,68,,80,77,10,14,8,16,0.7,0.7
2024-09-18T2100,2606A,101.538,25.0492,楚雄彝族自治州,市经济开发区,,45,45,22,21,16,71,,81,78,12,15,6,11,0.7,0.7
2024-09-18T2100,2548A,107.5277,31.2827,达州市,达州职业技术学院,,,54,38,,19,43,,132,121,51,23,7,7,0.8,0.7
2024-09-18T2100,2549A,107.5086,31.2186,达州市,市环境监测站,,49,49,39,29,18,56,,155,144,52,25,7,9,0.8,0.6
2024-09-18T2100,2550A,107.4988,31.2132,达州市,凤凰小区,,44,44,34,29,20,84,,162,152,31,22,8,10,0.7,0.7
2024-09-18T2100,2551A,107.5082,31.1986,达州市,达县机关宾馆,颗粒物(PM10),59,68,42,26,19,24,,156,135,88,36,6,8,0.8,0.6
2024-09-18T2100,2552A,107.4644,31.2124,达州市,市政中心,,,51,42,27,23,,,157,155,36,26,5,8,0.6,0.7
2024-09-18T2100,2614A,100.1542,25.7054,大理白族自治州,大理市环境监测站,,45,45,26,17,17,51,,90,82,19,12,13,8,0.7,0.6
2024-09-18T2100,2615A,100.2171,25.5811,大理白族自治州,大理古城,,29,28,20,20,11,58,,86,78,13,8,8,8,0.6,0.6
2024-09-18T2100,1109A,121.612,38.9741,大连市,甘井子,细颗粒物(PM2.5),60,53,49,43,33,89,,113,108,26,23,10,10,1.9,1
2024-09-18T2100,1110A,121.565,38.9511,大连市,周水子,细颗粒物(PM2.5),68,60,50,49,34,90,,122,119,49,30,8,8,1.2,1
2024-09-18T2100,1111A,121.5637,38.8845,大连市,星海三站,,28,28,50,13,26,82,,112,107,15,16,6,6,0.4,0.6
2024-09-18T2100,1112A,121.6302,38.9117,大连市,青泥洼桥,,36,36,56,19,29,48,,106,93,35,25,10,11,0.9,0.9
2024-09-18T2100,1113A,121.6251,38.8638,大连市,傅家庄,,,20,43,10,26,,,88,87,9,18,8,10,0.3,0.7
2024-09-18T2100,1114A,121.5213,38.8661,大连市,七贤岭,,44,44,42,25,29,53,,119,106,33,17,8,8,0.5,0.7
2024-09-18T2100,1115A,121.2529,38.8061,大连市,旅顺,细颗粒物(PM2.5),57,59,39,40,28,117,,135,134,22,19,6,6,0.9,0.8
2024-09-18T2100,1116A,121.7485,39.1311,大连市,金州,细颗粒物(PM2.5),63,57,43,45,34,67,,118,111,31,23,10,11,1.5,1.3
2024-09-18T2100,1117A,121.7811,39.0496,大连市,开发区,,43,43,51,25,27,77,,101,95,24,20,6,7,0.7,0.8
2024-09-18T2100,1118A,121.9762,39.0631,大连市,双D港,,24,21,27,11,19,76,,104,99,10,13,6,7,0.8,0.9
2024-09-18T2100,1789A,124.81117,46.03138,大庆市,大同区,,45,45,31,19,15,46,,79,70,17,10,4,4,0.5,0.4
2024-09-18T2100,1790A,125.129,46.533,大庆市,龙凤区,,30,30,42,21,16,53,,77,70,9,16,2,6,0.3,0.4
2024-09-18T2100,1791A,124.902,46.408,大庆市,红岗区,,42,42,28,18,11,51,,84,75,12,12,15,7,0.4,0.3
2024-09-18T2100,1792A,125.153,46.586,大庆市,萨尔图区,,33,33,26,10,11,55,,72,68,8,16,5,7,0.3,0.3
2024-09-18T2100,1793A,124.9042,46.6215,大庆市,让胡路区,,26,25,25,18,17,53,,73,66,10,17,4,4,0.1,0.2
2024-09-18T2100,3481A,125.141,46.634,大庆市,萨区政府监测点,,19,19,20,7,7,52,,72,68,6,12,5,6,0.4,0.4
2024-09-18T2100,1723A,113.2994,40.0758,大同市,云冈宾馆,,37,37,44,23,33,66,,101,95,18,20,8,10,0.5,0.7
2024-09-18T2100,1724A,113.3444,40.0917,大同市,大同大学,,50,38,38,35,27,72,,102,96,12,14,10,12,0.6,0.7
2024-09-18T2100,1725A,113.2661,40.1269,大同市,安家小村,,,,48,21,25,78,,112,102,14,15,11,11,0.7,0.7
2024-09-18T2100,1726A,113.2711,40.0844,大同市,教育学院,,50,50,53,20,30,63,,96,90,21,24,7,8,0.8,0.9
2024-09-18T2100,3282A,113.3397,40.0597,大同市,大同市卫生学校,,42,42,38,22,22,62,,100,94,20,13,8,7,0.8,1
2024-09-18T2100,3565A,113.1367,40.1122,大同市,云冈站,颗粒物(PM10),52,54,55,30,27,65,,108,98,21,14,10,10,0.6,0.8
2024-09-18T2100,3566A,113.1186,40.2556,大同市,图书馆,颗粒物(PM10),61,72,52,18,29,65,,108,97,21,15,10,10,0.9,1.3
2024-09-18T2100,3567A,113.5931,40.0461,大同市,区一中,,39,39,31,18,16,62,,101,92,9,9,9,10,0.9,0.8
2024-09-18T2100,3676A,113.2802,40.0995,大同市,第二人民医院,,39,39,48,24,28,75,,105,100,13,18,10,11,0.7,0.9
2024-09-18T2100,2269A,124.1069,50.4097,大兴安岭地区,科技局,,20,18,12,14,12,30,,55,44,8,5,5,5,0.2,0.2
2024-09-18T2100,3663A,124.1164,50.4278,大兴安岭地区,红旗社区,,23,22,6,16,4,6,,52,38,23,5,4,3,0.4,0.2
2024-09-18T2100,1600A,124.3303,40.0625,丹东市,江湾东路,颗粒物(PM10),57,64,21,13,8,29,,88,68,28,13,8,6,0.8,0.6
2024-09-18T2100,1601A,124.4256,40.1503,丹东市,临江后街,,39,39,16,15,6,46,,92,81,15,7,7,6,0.6,0.5
2024-09-18T2100,1602A,124.3933,40.1461,丹东市,元宝山,,20,20,15,6,8,54,,84,78,9,8,4,3,0.2,0.3
2024-09-18T2100,1603A,124.3633,40.1092,丹东市,民主桥,,29,29,17,7,4,12,,91,60,47,18,5,5,0.6,0.5
2024-09-18T2100,3541A,109.5726,19.5167,儋州市,第一中学子站,,29,29,19,10,9,90,,80,80,5,4,5,5,0.5,0.5
2024-09-18T2100,3542A,109.5567,19.5187,儋州市,东坡学校子站,,31,31,18,10,9,93,,83,83,6,5,4,5,0.5,0.4
2024-09-18T2100,2616A,98.5842,24.428,德宏傣族景颇族自治州,德宏州监测站,,50,50,37,28,23,49,,99,92,10,11,7,13,0.9,0.8
2024-09-18T2100,3677A,98.5881,24.4368,德宏傣族景颇族自治州,芒市人民政府综合楼,,40,40,36,25,24,54,,108,102,14,11,8,10,1.0,0.9
2024-09-18T2100,1901A,104.4239,31.1208,德阳市,东山公园,,37,36,41,17,25,117,,157,152,25,14,6,15,0.7,0.7
2024-09-18T2100,1902A,104.3826,31.1317,德阳市,西小区,细颗粒物(PM2.5),60,,51,43,37,100,,162,154,29,21,6,27,0.8,0.8
2024-09-18T2100,1904A,104.3553,31.1091,德阳市,耐火材料厂,颗粒物(PM10),57,63,61,36,35,98,,164,147,26,22,7,24,0.8,0.8
2024-09-18T2100,3639A,104.4019,31.1244,德阳市,市教育局,,,44,48,28,28,,,162,158,23,19,6,14,0.7,0.7
2024-09-18T2100,1622A,116.3032,37.4674,德州市,儿童乐园,细颗粒物(PM2.5),77,73,49,56,30,82,,124,97,16,12,8,10,0.9,0.8
2024-09-18T2100,1624A,116.2991,37.4451,德州市,监理站,细颗粒物(PM2.5),62,68,44,44,30,92,,129,105,12,10,7,10,0.9,0.9
2024-09-18T2100,3066A,116.2721,37.4379,德州市,九衢泉纯净水厂,颗粒物(PM10),64,78,48,44,30,89,,128,100,14,12,7,9,0.8,0.8
2024-09-18T2100,3371A,116.3728,37.4403,德州市,开发区人民医院,颗粒物(PM10),59,68,46,39,26,85,,122,103,13,10,6,9,0.9,0.8
2024-09-18T2100,3372A,116.3572,37.4094,德州市,太阳城中学,颗粒物(PM10),57,63,46,39,26,86,,133,101,15,13,9,12,0.8,0.8
2024-09-18T2100,3511A,116.5652,37.3319,德州市,陵城艺术中心,颗粒物(PM10),57,63,52,29,26,92,,115,103,16,13,10,13,0.8,0.7
2024-09-18T2100,2621A,99.7056,27.8317,迪庆藏族自治州,迪庆州站,,,27,23,15,12,,,76,73,12,11,8,21,0.4,0.4
2024-09-18T2100,3180A,99.7136,27.8094,迪庆藏族自治州,质量技术监督局,,20,17,17,11,10,63,,74,70,7,9,6,9,0.2,0.4
2024-09-18T2100,2663A,104.6241,35.5734,定西市,东关小学,,40,32,31,28,18,42,,73,66,18,13,5,5,0.3,0.3
2024-09-18T2100,2664A,104.6194,35.5934,定西市,供电公司,,42,33,35,29,25,46,,77,69,17,14,6,7,0.3,0.3
2024-09-18T2100,1389A,113.7547,23.0494,东莞市,莞城梨川,,,31,14,15,9,,,72,70,17,9,6,5,0.6,0.7
2024-09-18T2100,1390A,113.7944,23.0128,东莞市,东城石井,,29,29,14,12,7,31,,80,70,18,9,5,4,0.6,0.5
2024-09-18T2100,1391A,113.7383,22.9658,东莞市,南城西平,,31,31,16,16,9,40,,84,75,34,13,11,8,0.7,0.7
2024-09-18T2100,3319A,113.7338,23.0381,东莞市,万江金泰,,23,23,13,13,7,46,,78,71,16,8,7,7,0.4,0.4
2024-09-18T2100,3626A,113.7533,23.0202,东莞市,南城元岭,,33,33,15,13,8,48,,78,72,16,7,8,6,0.6,0.6
2024-09-18T2100,3627A,113.7875,23.0457,东莞市,东城主山,,27,27,14,14,7,41,,80,72,24,10,8,8,0.6,0.5
2024-09-18T2100,1666A,118.6614,37.4309,东营市,市环保局,,42,29,32,17,18,134,,144,136,8,9,3,5,0.3,0.4
2024-09-18T2100,3036A,118.6904,37.4338,东营市,开发区管委会,,42,37,39,17,21,134,,143,143,8,8,4,5,0.4,0.5
2024-09-18T2100,3365A,118.5719,37.565,东营市,垦利区民丰路,,42,39,37,29,23,133,,126,121,6,5,4,3,0.4,0.5
2024-09-18T2100,3498A,118.5055,37.8612,东营市,河口城区,,42,41,36,29,20,111,,117,117,16,12,5,6,0.7,0.7
2024-09-18T2100,3646A,118.4978,37.4623,东营市,胜利站,,43,32,34,24,20,137,,131,124,6,7,4,5,0.9,0.9
2024-09-18T2100,3734A,118.35,37.26,东营市,理想之城,,39,29,32,27,24,122,,126,119,10,10,4,4,0.4,0.5
2024-09-18T2100,1591A,110.0023,39.8129,鄂尔多斯市,综合楼,颗粒物(PM10),56,61,53,17,24,74,,121,114,23,17,13,13,0.9,0.9
2024-09-18T2100,1592A,109.9486,39.8261,鄂尔多斯市,巴音孟克林场办事处,颗粒物(PM10),58,66,56,22,26,72,,115,109,24,19,9,9,0.8,0.9
2024-09-18T2100,1593A,109.7736,39.5986,鄂尔多斯市,康泽苑,,48,48,51,14,20,73,,108,99,17,16,10,9,0.6,0.7
2024-09-18T2100,1594A,109.8119,39.5989,鄂尔多斯市,华泰汽车城,,,41,49,22,27,,,99,94,13,16,8,9,0.6,0.7
2024-09-18T2100,1595A,109.9734,39.7884,鄂尔多斯市,奥林花园,颗粒物(PM10),59,68,55,27,29,60,,105,98,28,20,6,6,0.8,0.9
2024-09-18T2100,2436A,114.8938,30.3994,鄂州市,市政府,,34,34,34,22,18,83,,136,118,14,16,11,12,0.9,0.8
2024-09-18T2100,2437A,114.8989,30.3714,鄂州市,赵家坝,,40,40,39,17,16,89,,144,128,11,13,8,10,0.7,0.6
2024-09-18T2100,3654A,114.8094,30.4089,鄂州市,精准医疗中心,,38,38,36,19,18,91,,152,130,10,13,6,8,0.8,0.7
2024-09-18T2100,2454A,109.4978,30.2981,恩施土家族苗族自治州,湖北民院,,,36,24,24,17,,,98,94,28,15,10,9,0.9,0.8
2024-09-18T2100,2455A,109.4707,30.2798,恩施土家族苗族自治州,州电力总公司,,40,29,22,28,16,57,,92,84,24,21,9,9,0.7,0.7
2024-09-18T2100,3549A,109.5061,30.3772,恩施土家族苗族自治州,龙凤新区,,,16,19,,14,50,,93,84,19,12,7,6,0.9,0.7
2024-09-18T2100,2499A,108.3411,21.6158,防城港市,沙万,,36,33,30,25,21,68,,83,82,13,9,7,7,0.7,0.7
2024-09-18T2100,2500A,108.3514,21.7731,防城港市,防城档案局,颗粒物(PM10),56,61,40,28,22,52,,74,70,19,12,7,8,0.7,0.7
2024-09-18T2100,2501A,108.3506,21.6414,防城港市,大海花园,,32,30,28,22,20,73,,79,79,9,8,6,6,0.8,0.8
2024-09-18T2100,1371A,113.1294,23.0067,佛山市,湾梁,颗粒物(PM10),52,53,16,19,10,15,,93,76,62,19,9,7,0.7,0.6
2024-09-18T2100,1372A,113.1083,23.0478,佛山市,华材职中,,29,29,13,7,9,42,,88,80,28,18,7,6,0.4,0.4
2024-09-18T2100,1373A,113.144,23.0453,佛山市,南海气象局,,31,31,17,14,11,30,,84,76,34,11,6,6,0.5,0.5
2024-09-18T2100,1374A,113.2881,22.8094,佛山市,顺德苏岗,,38,38,11,12,8,71,,110,101,28,13,8,8,0.6,0.6
2024-09-18T2100,1376A,112.8383,22.8678,佛山市,高明孔堂,,24,24,20,11,12,63,,116,106,16,12,5,5,0.4,0.2
2024-09-18T2100,1377A,112.8836,23.1588,佛山市,三水监测站,,41,41,16,3,12,26,,94,74,47,19,7,6,0.6,0.4
2024-09-18T2100,1378A,112.867,23.185,佛山市,三水云东海,,33,33,17,22,14,20,,91,68,39,16,10,10,0.6,0.5
2024-09-18T2100,3625A,113.2544,22.7642,佛山市,容桂街道办,,34,34,12,19,11,76,,119,111,34,17,8,7,0.7,0.6
2024-09-18T2100,1282A,119.2681,26.0504,福州市,师大,,34,34,19,16,4,55,,48,,17,4,5,4,0.4,0.4
2024-09-18T2100,1284A,119.2648,26.0768,福州市,杨桥西路,,31,31,23,17,7,66,,86,86,9,4,4,4,0.4,0.4
2024-09-18T2100,1285A,119.317,26.0746,福州市,紫阳,,29,29,26,10,5,57,,70,69,13,13,2,2,0.2,0.3
2024-09-18T2100,3048A,119.5799,26.0936,福州市,九龙,,30,30,23,14,5,63,,75,75,7,3,6,6,0.4,0.4
2024-09-18T2100,3526A,119.5189,25.9664,福州市,吴航,,,,22,,8,,,76,76,3,2,7,6,0.3,0.3
2024-09-18T2100,1755A,123.7977,41.8491,抚顺市,望花区,,37,37,37,17,16,17,,62,58,45,28,6,8,0.6,0.7
2024-09-18T2100,1756A,123.9161,41.8822,抚顺市,顺城区,,48,48,30,23,16,6,,59,51,46,23,5,6,0.7,0.6
2024-09-18T2100,1757A,124.0436,41.8611,抚顺市,东洲区,,26,26,17,18,8,9,,58,50,26,10,6,6,0.5,0.5
2024-09-18T2100,1758A,123.9247,41.8642,抚顺市,新抚区,颗粒物(PM10),55,60,29,20,12,5,,55,45,38,23,8,8,0.6,0.5
2024-09-18T2100,1759A,124.0972,41.8961,抚顺市,大伙房水库,,17,17,17,9,10,18,,58,52,32,10,6,5,0.4,0.5
2024-09-18T2100,1760A,123.7086,41.8391,抚顺市,沈抚新城,,32,32,35,17,18,4,,72,62,45,29,7,9,0.3,0.7
2024-09-18T2100,2376A,116.2127,28.0814,抚州市,桐源党溪,,25,25,41,17,24,57,,93,76,3,2,6,7,0.4,0.6
2024-09-18T2100,2377A,116.3544,27.9831,抚州市,市站,,31,31,37,14,22,76,,86,76,5,5,6,8,0.6,0.8
2024-09-18T2100,2378A,116.3565,27.963,抚州市,血防站,,33,33,36,11,21,77,,89,79,9,7,1,4,0.7,0.9
2024-09-18T2100,2379A,116.3564,28.0007,抚州市,采茶剧团,,36,36,35,18,23,70,,84,73,5,4,6,8,0.7,0.8
2024-09-18T2100,2380A,116.385,27.9647,抚州市,医学分院,,31,31,36,16,20,67,,85,74,6,6,5,4,0.8,1
2024-09-18T2100,2207A,121.6094,41.998,阜新市,工业园区,颗粒物(PM10),53,56,31,16,14,26,,76,70,34,23,28,18,0.8,0.7
2024-09-18T2100,2208A,121.6697,42.0279,阜新市,长青街,,36,36,31,20,18,23,,69,64,19,19,10,14,0.8,0.7
2024-09-18T2100,2209A,121.6673,42.0705,阜新市,农业园区,,39,33,24,27,12,43,,70,66,15,14,12,16,0.4,0.4
2024-09-18T2100,2210A,121.6717,42.0224,阜新市,东苑,,26,26,35,18,16,43,,70,68,30,28,20,24,0.8,0.9
2024-09-18T2100,2211A,121.6506,42.0498,阜新市,玉龙新城,颗粒物(PM10),53,56,28,22,14,9,,74,62,34,21,8,12,0.7,0.5
2024-09-18T2100,2301A,115.8277,32.8929,阜阳市,市监测站,,30,25,26,21,21,56,,69,66,9,7,6,6,0.8,0.7
2024-09-18T2100,2303A,115.8554,32.8605,阜阳市,开发区,,46,46,30,22,23,61,,73,69,12,9,5,5,0.8,0.6
2024-09-18T2100,2875A,115.784,32.8892,阜阳市,阜阳职业技术学院,,39,39,30,17,17,55,,68,66,11,8,6,6,0.6,0.5
2024-09-18T2100,3468A,115.7901,32.8613,阜阳市,市规划展馆,,46,36,33,32,29,59,,72,69,12,9,5,5,0.8,0.6
2024-09-18T2100,3469A,115.836,32.9183,阜阳市,枣园社区,,40,35,30,28,27,53,,67,63,9,9,6,6,0.8,0.7
2024-09-18T2100,2669A,102.9099,34.9841,甘南藏族自治州,州政府,,25,25,18,15,15,53,,81,74,8,7,10,10,0.3,0.3
2024-09-18T2100,3380A,102.8914,34.9617,甘南藏族自治州,甘肃民族师范学院,,33,27,15,23,9,44,,81,75,13,7,4,4,0.4,0.3
2024-09-18T2100,2570A,101.9603,30.0475,甘孜藏族自治州,水桥子,,20,11,14,3,6,62,,77,74,6,12,5,5,0.4,0.3
2024-09-18T2100,3065A,101.9533,29.9972,甘孜藏族自治州,州环保局,,17,16,18,6,4,52,,78,74,13,15,3,3,0.3,0.2
2024-09-18T2100,3414A,115.8347,28.932,赣江新区,桑海产业园,,29,29,29,16,18,87,,130,126,17,8,12,13,0.3,0.6
2024-09-18T2100,2363A,114.9367,25.8664,赣州市,地委,,36,34,32,25,23,60,,66,66,8,10,21,12,0.8,1
2024-09-18T2100,2364A,114.9461,25.8481,赣州市,气象台,,32,32,32,20,22,58,,69,65,11,11,7,6,0.9,0.8
2024-09-18T2100,2365A,114.9322,25.8333,赣州市,市图书馆,,36,30,30,25,17,78,,78,78,3,9,7,4,1.0,1
2024-09-18T2100,2366A,114.8905,25.8471,赣州市,华坚鞋城,,34,34,34,19,21,64,,68,68,10,8,1,2,0.5,0.5
2024-09-18T2100,3109A,115.0093,25.8613,赣州市,赣县区卫计委,,38,38,32,23,20,24,,68,62,20,8,6,7,0.8,0.7
2024-09-18T2100,2683A,106.2319,36.1417,固原市,马园,颗粒物(PM10),69,87,61,11,15,34,,80,68,40,15,6,6,0.9,0.9
2024-09-18T2100,2684A,106.2792,36.0022,固原市,监测站,,36,35,28,25,22,44,,71,67,18,9,3,3,0.4,0.4
2024-09-18T2100,2685A,106.2375,36.0211,固原市,新区,,37,37,30,19,15,46,,76,70,20,9,5,5,0.5,0.5
2024-09-18T2100,3522A,106.2177,35.9959,固原市,原州区十五小,,33,29,26,23,21,61,,86,78,14,7,6,6,0.6,0.6
2024-09-18T2100,2544A,106.6303,30.4576,广安市,市委,,43,33,44,30,36,110,,170,155,19,17,3,6,0.5,0.5
2024-09-18T2100,2545A,106.6271,30.4663,广安市,友谊中学,,43,43,42,29,32,116,,167,152,16,19,4,6,0.6,0.6
2024-09-18T2100,2547A,106.6388,30.4551,广安市,广电花园,,,47,46,25,33,,,170,163,,16,,6,0.5,0.5
2024-09-18T2100,2902A,106.6351,30.4865,广安市,北辰小学,,47,47,47,31,30,115,,168,156,13,13,6,7,0.5,0.5
2024-09-18T2100,2523A,105.8945,32.4535,广元市,黑石坡,,42,40,30,29,26,50,,79,71,14,9,9,9,0.6,0.5
2024-09-18T2100,2524A,105.821,32.4444,广元市,老城,,39,34,28,27,14,13,,83,62,35,22,2,2,0.8,0.9
2024-09-18T2100,2526A,105.8628,32.4287,广元市,监测站,,24,24,22,16,16,36,,91,75,9,11,4,4,0.7,0.8
2024-09-18T2100,3617A,105.8047,32.4166,广元市,经开区,,36,36,41,24,27,13,,88,66,30,17,5,5,0.8,0.8
2024-09-18T2100,1345A,113.2347,23.1423,广州市,广雅中学,,24,24,15,14,8,41,,78,71,29,16,6,5,0.7,0.7
2024-09-18T2100,1346A,113.2612,23.105,广州市,市五中,,39,33,16,27,14,47,,92,84,22,9,4,4,0.6,0.6
2024-09-18T2100,1348A,113.3478,23.0916,广州市,广东商学院,,35,35,18,19,11,34,,80,69,31,16,5,4,0.5,0.5
2024-09-18T2100,1349A,113.4332,23.1047,广州市,市八十六中,,,32,16,18,9,,,79,73,41,18,4,4,0.6,0.5
2024-09-18T2100,1350A,113.3505,22.9483,广州市,番禺中学,,34,34,18,14,9,62,,104,90,32,16,6,6,0.6,0.6
2024-09-18T2100,1351A,113.2146,23.3916,广州市,花都师范,,,58,20,30,11,,,79,72,42,12,5,4,,0.6
2024-09-18T2100,1352A,113.2597,23.1331,广州市,市监测站,,29,29,15,16,10,35,,78,70,33,14,5,5,0.6,0.6
2024-09-18T2100,1353A,113.5618,23.312,广州市,九龙镇镇龙,,36,36,17,22,11,34,,62,56,18,12,6,6,0.6,0.6
2024-09-18T2100,1354A,113.2765,23.1544,广州市,麓湖,细颗粒物(PM2.5),58,60,19,41,11,9,,75,56,49,18,5,5,1.0,0.6
2024-09-18T2100,1355A,113.443,23.3035,广州市,帽峰山森林公园,,17,11,12,7,7,53,,72,66,5,5,5,5,0.4,0.5
2024-09-18T2100,2846A,113.3221,23.1322,广州市,体育西,,28,28,15,16,9,33,,79,70,26,10,4,4,0.6,0.5
2024-09-18T2100,3298A,113.5717,23.5491,广州市,从化街口,,29,29,22,19,16,34,,62,55,16,9,8,8,0.7,0.6
2024-09-18T2100,3299A,113.3472,23.3692,广州市,白云竹料,,47,47,23,29,13,31,,72,59,26,12,6,5,0.7,0.7
2024-09-18T2100,3300A,113.2981,23.237,广州市,白云嘉禾,,26,26,19,11,10,40,,74,66,33,21,6,5,0.7,0.8
2024-09-18T2100,3301A,113.4256,23.1716,广州市,黄埔科学城,,29,29,14,10,8,9,,76,59,56,19,7,7,0.6,0.6
2024-09-18T2100,3302A,113.3942,23.0483,广州市,番禺大学城,,28,,13,19,10,12,,82,66,50,15,11,8,0.5,0.5
2024-09-18T2100,3303A,113.4922,22.8168,广州市,南沙黄阁,,30,30,19,11,10,64,,111,100,31,18,5,5,0.7,0.6
2024-09-18T2100,3304A,113.5342,22.7896,广州市,南沙街,,40,40,16,13,8,45,,107,97,33,15,6,6,0.5,0.5
2024-09-18T2100,3443A,113.2902,23.5544,广州市,花都梯面,,23,22,22,16,16,16,,71,58,21,10,5,6,0.6,0.6
2024-09-18T2100,3445A,113.7858,23.7478,广州市,从化良口,,25,25,19,13,12,37,,60,56,5,4,6,6,0.7,0.7
2024-09-18T2100,3446A,113.8051,23.2614,广州市,增城荔城,,27,27,16,13,10,25,,68,57,18,12,4,6,0.6,0.5
2024-09-18T2100,2506A,109.6047,23.0666,贵港市,江南子站,,33,29,36,23,23,87,,97,96,9,9,7,8,0.6,0.6
2024-09-18T2100,2507A,109.6014,23.0948,贵港市,贵城子站,,38,29,36,26,23,78,,93,91,12,7,7,7,0.6,0.6
2024-09-18T2100,2508A,109.5669,23.1065,贵港市,荷城子站,,36,36,34,17,18,78,,85,85,9,6,10,10,0.6,0.6
2024-09-18T2100,3405A,109.5886,23.1172,贵港市,新世纪学校,,34,34,36,22,22,80,,88,87,4,3,7,7,0.7,0.6
2024-09-18T2100,1439A,106.6899,26.5998,贵阳市,马鞍山,,19,19,14,3,4,41,,60,56,11,8,3,3,0.4,0.5
2024-09-18T2100,1440A,106.6971,26.5694,贵阳市,市环保站,,23,19,18,16,14,56,,68,66,12,8,3,3,0.3,0.3
2024-09-18T2100,1441A,106.6243,26.6266,贵阳市,鉴湖路,,,24,17,12,9,,,54,54,9,5,5,5,0.4,0.3
2024-09-18T2100,1442A,106.7487,26.6343,贵阳市,燕子冲,,18,,10,12,12,48,,58,56,8,8,6,6,0.4,0.4
2024-09-18T2100,1443A,106.6555,26.4365,贵阳市,碧云窝,,29,29,28,17,9,40,,58,50,15,11,4,4,0.3,0.3
2024-09-18T2100,1444A,106.694,26.5161,贵阳市,中院村,,39,39,23,22,12,30,,58,51,27,13,5,5,0.7,0.6
2024-09-18T2100,1445A,106.7109,26.6027,贵阳市,红边门,,39,27,23,27,20,45,,58,56,16,11,8,5,0.5,0.6
2024-09-18T2100,1446A,106.7164,26.5699,贵阳市,新华路,,16,9,10,7,11,49,,63,60,14,8,4,4,0.1,0.3
2024-09-18T2100,1447A,106.674,26.5424,贵阳市,太慈桥,,17,17,12,9,7,42,,59,54,16,9,5,5,0.4,0.4
2024-09-18T2100,1862A,110.4144,25.3167,桂林市,电子科大尧山校区,,48,48,34,29,22,94,,95,87,5,5,4,4,0.9,0.7
2024-09-18T2100,1863A,110.2819,25.2697,桂林市,监测站,,25,25,35,16,24,71,,87,76,13,8,10,7,0.6,0.6
2024-09-18T2100,1864A,110.3089,25.2708,桂林市,龙隐路小学,,30,26,32,21,23,79,,92,81,7,5,10,10,0.6,0.6
2024-09-18T2100,1865A,110.2869,25.2178,桂林市,八中,,,43,35,23,22,77,,92,80,,4,9,8,0.4,0.5
2024-09-18T2100,3403A,110.1764,25.2381,桂林市,创业大厦,,42,31,33,29,27,77,,80,74,7,6,8,12,0.4,0.4
2024-09-18T2100,3531A,110.296,25.1253,桂林市,旅游学院,,28,22,27,19,21,75,,97,83,7,5,6,8,0.4,0.4
2024-09-18T2100,2674A,100.2561,34.4714,果洛藏族自治州,玛沁县大武镇,,24,24,13,15,12,40,,74,65,11,3,5,5,0.6,0.4
2024-09-18T2100,1129A,126.5422,45.755,哈尔滨市,岭北,,24,24,22,12,13,46,,102,90,42,25,5,7,0.9,0.8
2024-09-18T2100,1130A,126.561,45.8167,哈尔滨市,松北商大,颗粒物(PM10),75,100,34,18,10,9,,79,51,84,33,8,8,0.9,0.5
2024-09-18T2100,1131A,126.979,45.5419,哈尔滨市,阿城会宁,,34,34,25,19,11,44,,84,71,14,15,10,10,0.5,0.6
2024-09-18T2100,1132A,126.599,45.7222,哈尔滨市,南岗学府路,颗粒物(PM10),93,136,60,68,20,7,,88,63,59,32,8,8,1.5,0.6
2024-09-18T2100,1133A,126.689,45.7733,哈尔滨市,太平宏伟公园,颗粒物(PM10),69,87,77,43,24,5,,84,68,82,35,7,7,0.9,0.6
2024-09-18T2100,1134A,126.635,45.7667,哈尔滨市,道外承德广场,颗粒物(PM10),80,110,54,34,16,8,,78,58,84,45,8,7,1.3,0.7
2024-09-18T2100,1135A,126.685,45.7319,哈尔滨市,香坊红旗大街,颗粒物(PM10),95,139,59,43,20,6,,80,60,84,42,9,10,1.7,0.7
2024-09-18T2100,1136A,126.6411,45.7258,哈尔滨市,动力和平路,细颗粒物(PM2.5),65,72,39,47,16,7,,86,62,76,36,8,9,1.3,0.6
2024-09-18T2100,1137A,126.593,45.7478,哈尔滨市,道里建国路,,,,43,40,15,6,,81,58,70,36,14,13,1.7,0.8
2024-09-18T2100,1138A,126.615,45.61,哈尔滨市,平房东轻厂,颗粒物(PM10),53,56,33,12,10,18,,82,55,64,37,7,6,0.6,0.4
2024-09-18T2100,1139A,126.595,45.9855,哈尔滨市,呼兰师专,,37,37,31,12,9,42,,80,75,31,21,10,9,0.5,0.5
2024-09-18T2100,1140A,126.6206,45.6842,哈尔滨市,省农科院,,,,71,39,16,5,,69,43,85,45,6,6,0.7,0.5
2024-09-18T2100,2688A,93.5128,42.8172,哈密市,地区监测站,,,79,66,27,21,,,118,114,36,29,7,6,0.5,0.3
2024-09-18T2100,2689A,93.4961,42.8328,哈密市,哈密师范学校,颗粒物(PM10),71,92,72,26,27,61,,108,98,41,33,5,6,0.6,0.5
2024-09-18T2100,2671A,100.9048,36.9639,海北藏族自治州,海晏县西海镇,,29,22,22,20,23,89,,91,90,13,13,16,16,0.6,0.6
2024-09-18T2100,3867A,102.0738,36.5056,海东市,平安区公安北苑,,39,39,35,22,24,81,,106,105,19,14,12,22,0.6,0.6
2024-09-18T2100,1410A,110.3232,20.0574,海口市,海南大学,,31,31,22,9,11,55,,91,88,4,6,6,6,0.3,0.4
2024-09-18T2100,1411A,110.283,20.0053,海口市,秀英海南医院,,31,31,24,8,9,61,,95,92,5,8,4,4,0.2,0.3
2024-09-18T2100,1412A,110.338,19.9969,海口市,海南师范大学,,30,30,22,8,10,62,,96,93,5,6,6,6,0.3,0.4
2024-09-18T2100,1413A,110.33,20.0356,海口市,龙华路环保局宿舍,,,52,28,8,10,,,95,95,3,6,4,4,0.3,0.3
2024-09-18T2100,3539A,110.5111,19.9736,海口市,桂林洋子站,,23,23,21,7,10,58,,95,90,4,6,5,6,0.2,0.2
2024-09-18T2100,2673A,100.6188,36.2866,海南藏族自治州,共和县恰卜恰镇,,,54,22,3,9,19,,84,75,,7,15,16,0.6,0.6
2024-09-18T2100,2676A,97.3731,37.3753,海西蒙古族藏族自治州,德令哈市,颗粒物(PM10),56,61,21,21,11,68,,89,86,9,6,8,9,0.4,0.5
2024-09-18T2100,1048A,114.5302,36.6116,邯郸市,东污水处理厂,颗粒物(PM10),52,54,56,31,34,92,,143,132,21,12,2,3,0.6,0.7
2024-09-18T2100,1049A,114.4918,36.5713,邯郸市,矿院,,49,49,57,27,33,103,,151,142,10,9,3,4,0.5,0.7
2024-09-18T2100,1050A,114.484,36.6133,邯郸市,丛台公园,颗粒物(PM10),51,52,48,26,30,103,,151,140,7,5,3,3,0.6,0.7
2024-09-18T2100,3458A,114.7895,36.5593,邯郸市,香泉濮院小区,,49,49,47,21,21,85,,125,116,14,9,2,2,0.5,0.5
2024-09-18T2100,3579A,114.50634,36.77178,邯郸市,永年区实验高中,细颗粒物(PM2.5),62,60,55,44,37,103,,170,153,24,14,3,4,0.8,0.8
2024-09-18T2100,3580A,114.20016,36.44293,邯郸市,峰峰矿区临水派出所,"颗粒物(PM10),细颗粒物(PM2.5)",54,57,47,38,31,150,,150,150,7,6,4,3,1.1,0.8
2024-09-18T2100,2634A,106.9893,33.1842,汉中市,汉川机床厂子校,,23,23,20,13,11,58,,94,90,6,6,4,4,0.6,0.6
2024-09-18T2100,2635A,107.0154,33.0706,汉中市,市监测站,,,41,36,19,21,,,91,89,17,9,8,8,,0.6
2024-09-18T2100,2636A,107.0089,33.1138,汉中市,鑫源开发区,,28,28,41,17,27,64,,95,92,12,13,8,9,0.6,0.6
2024-09-18T2100,2637A,107.007,33.0323,汉中市,南郑大河坎水厂,,33,33,32,22,21,50,,87,79,14,9,8,8,0.6,0.5
2024-09-18T2100,1223A,120.2072,30.2111,杭州市,滨江,,25,25,25,11,10,36,,76,59,7,10,5,5,0.5,0.5
2024-09-18T2100,1224A,120.0633,30.2747,杭州市,西溪,,26,,17,18,12,36,,82,65,13,13,6,6,0.5,0.6
2024-09-18T2100,1226A,120.3461,30.3153,杭州市,下沙,,29,29,26,13,8,37,,72,58,17,16,7,8,0.4,0.5
2024-09-18T2100,1227A,120.1269,30.2456,杭州市,卧龙桥,,23,23,21,14,12,43,,87,70,10,12,6,6,0.5,0.5
2024-09-18T2100,1228A,120.1903,30.2692,杭州市,浙江农大,,,24,19,14,10,,,74,60,11,16,8,8,0.6,0.5
2024-09-18T2100,1230A,120.1197,30.3119,杭州市,和睦小学,,24,24,18,12,8,34,,82,64,13,12,7,7,0.5,0.5
2024-09-18T2100,1231A,120.3019,30.4183,杭州市,临平镇,,38,38,27,13,8,26,,54,50,16,9,6,5,0.6,0.6
2024-09-18T2100,1232A,120.2697,30.1819,杭州市,城厢镇,,26,26,24,13,13,39,,84,64,11,12,7,7,0.7,0.7
2024-09-18T2100,1233A,120.0883,30.1808,杭州市,云栖,,19,19,19,9,7,44,,89,73,6,9,7,7,0.5,0.5
2024-09-18T2100,3557A,119.9464,30.0494,杭州市,镇二中,,33,27,23,23,15,29,,98,79,13,13,8,8,0.5,0.5
2024-09-18T2100,3558A,119.7183,30.2367,杭州市,市府大楼,,22,21,22,15,13,42,,104,92,13,13,8,6,0.4,0.5
2024-09-18T2100,3656A,120.1556,30.2864,杭州市,消防大队,,23,23,22,12,9,36,,78,62,7,8,8,8,0.7,0.7
2024-09-18T2100,1270A,117.1959,31.7848,合肥市,明珠广场,,,29,26,9,19,,,84,84,30,21,6,5,0.5,0.6
2024-09-18T2100,1271A,117.3072,31.8764,合肥市,三里街,,29,29,26,9,12,42,,81,77,32,16,6,6,0.4,0.4
2024-09-18T2100,1272A,117.2588,31.8707,合肥市,琥珀山庄,,45,36,28,31,19,16,,77,70,34,16,6,6,0.6,0.5
2024-09-18T2100,1273A,117.1604,31.9052,合肥市,董铺水库,,35,34,28,24,15,32,,79,75,14,10,2,2,0.3,0.3
2024-09-18T2100,1274A,117.25,31.8571,合肥市,长江中路,,44,44,34,30,21,23,,78,73,27,17,8,8,0.5,0.7
2024-09-18T2100,1275A,117.266,31.9436,合肥市,庐阳区,,29,29,30,9,14,51,,88,82,26,16,5,4,0.5,0.6
2024-09-18T2100,1276A,117.336,31.8586,合肥市,瑶海区,,41,41,32,17,12,55,,87,83,27,17,7,7,0.6,0.6
2024-09-18T2100,1277A,117.3027,31.7964,合肥市,包河区,,35,27,24,24,15,41,,82,68,40,29,5,5,0.5,0.6
2024-09-18T2100,1278A,117.2776,31.7385,合肥市,滨湖新区,,31,31,22,14,11,62,,89,86,21,13,7,6,0.5,0.5
2024-09-18T2100,1279A,117.1318,31.8403,合肥市,高新区,,41,41,34,22,17,33,,79,76,22,16,7,8,0.9,0.8
2024-09-18T2100,3464A,117.3803,31.9147,合肥市,高教基地,,21,21,23,13,11,58,,82,79,10,9,3,3,0.3,0.4
2024-09-18T2100,3614A,79.924,37.0877,和田地区,地区环保局,颗粒物(PM10),161,272,288,84,78,83,,100,99,20,10,6,7,0.6,0.5
2024-09-18T2100,3615A,79.9131,37.113,和田地区,市环保局,颗粒物(PM10),189,328,275,73,72,43,,97,91,53,20,6,7,0.7,0.6
2024-09-18T2100,2516A,108.2011,24.715,河池市,东仁乐园,,35,24,30,24,15,18,,62,51,13,7,4,4,0.7,0.7
2024-09-18T2100,2517A,108.0497,24.6947,河池市,市环保站,,36,,26,25,14,19,,61,50,19,11,8,8,0.7,0.6
2024-09-18T2100,2518A,108.0983,24.6989,河池市,市疾控中心,,30,30,25,14,14,14,,62,51,23,12,8,9,0.5,0.6
2024-09-18T2100,1696A,114.6778,23.7569,河源市,源西,,30,30,17,14,11,6,,62,48,13,10,4,4,0.7,0.5
2024-09-18T2100,1697A,114.6944,23.7586,河源市,东埔,,29,,12,20,10,25,,60,52,23,11,3,3,0.7,0.6
2024-09-18T2100,1698A,114.6892,23.7233,河源市,老城,颗粒物(PM10),60,70,19,3,6,9,,62,48,29,8,2,2,0.7,0.6
2024-09-18T2100,1718A,115.4208,35.2464,菏泽市,气象局,,40,,25,28,19,78,,63,63,7,7,2,3,0.2,0.2
2024-09-18T2100,1719A,115.4747,35.2375,菏泽市,市政协,,25,19,18,17,15,68,,57,57,8,6,3,4,0.2,0.2
2024-09-18T2100,3374A,115.5564,35.0891,菏泽市,定陶老年大学,,20,17,15,12,7,64,,58,58,11,6,4,4,0.5,0.4
2024-09-18T2100,3647A,115.4702,35.2706,菏泽市,菏泽医专,,20,20,22,9,12,62,,55,53,12,9,5,6,0.4,0.4
2024-09-18T2100,2514A,111.5264,24.4172,贺州市,环保小区,颗粒物(PM10),60,70,36,31,21,26,,95,72,32,11,6,6,0.7,0.6
2024-09-18T2100,2515A,111.5608,24.4078,贺州市,政协大楼,,47,47,34,27,24,46,,104,82,22,10,8,7,0.6,0.6
2024-09-18T2100,3534A,111.4744,24.4553,贺州市,西湾,,,,34,,20,48,,90,74,14,9,8,7,,0.7
2024-09-18T2100,2385A,114.17,35.9019,鹤壁市,市监测站,细颗粒物(PM2.5),59,59,55,42,36,146,,155,155,13,11,2,3,1.0,1.1
2024-09-18T2100,2386A,114.2956,35.7511,鹤壁市,市交警支队,颗粒物(PM10),58,66,50,36,32,156,,168,168,15,13,5,5,1.3,1.1
2024-09-18T2100,2387A,114.2878,35.7306,鹤壁市,迎宾馆,,,70,57,40,38,,,170,170,17,12,6,7,1.2,1.1
2024-09-18T2100,3474A,114.2617,35.6822,鹤壁市,大新区,颗粒物(PM10),57,63,46,32,29,154,,158,158,14,12,7,6,1.2,1.1
2024-09-18T2100,3596A,114.1572,35.9603,鹤壁市,南山宾馆,细颗粒物(PM2.5),58,64,50,41,38,144,,151,151,7,7,2,3,1.5,1.5
2024-09-18T2100,2244A,130.2537,47.3416,鹤岗市,哈啤分公司,,26,26,22,17,15,51,,75,60,1,6,13,14,0.4,0.5
2024-09-18T2100,2245A,130.2684,47.3086,鹤岗市,斯达机电,,,,29,,17,,,72,62,6,11,12,13,0.1,0.2
2024-09-18T2100,2246A,130.3114,47.3388,鹤岗市,东山纸板厂,颗粒物(PM10),51,51,41,18,20,44,,70,55,7,12,15,17,0.7,1
2024-09-18T2100,2247A,130.1097,47.3382,鹤岗市,五号水库,,17,17,14,3,7,41,,76,60,6,4,16,16,0.3,0.3
2024-09-18T2100,2263A,127.4833,50.2524,黑河市,交通局,,40,40,24,21,15,29,,49,39,13,11,7,7,0.3,0.3
2024-09-18T2100,2264A,127.5144,50.2341,黑河市,环保局,,,26,24,16,13,,,52,42,12,12,3,5,0.4,0.3
2024-09-18T2100,1074A,115.6838,37.7541,衡水市,电机北厂,颗粒物(PM10),52,54,48,30,28,77,,126,85,10,9,4,6,0.4,0.6
2024-09-18T2100,1075A,115.6303,37.7316,衡水市,市监测站,,48,48,54,32,25,83,,133,92,13,12,5,8,0.4,0.6
2024-09-18T2100,3188A,115.6683,37.7217,衡水市,市城管局,颗粒物(PM10),52,54,52,33,32,85,,138,92,10,9,4,7,0.5,0.8
2024-09-18T2100,3459A,115.5989,37.5491,衡水市,地表水厂,,43,43,45,28,26,79,,133,89,10,8,4,6,0.4,0.7
2024-09-18T2100,2456A,112.5003,26.9167,衡阳市,原169医院,,46,46,44,31,28,98,,117,113,12,7,5,8,0.6,0.6
2024-09-18T2100,2457A,112.6194,26.9258,衡阳市,衡阳化工总厂,,,43,48,,,100,,115,110,10,9,8,9,0.6,0.7
2024-09-18T2100,2458A,112.6211,26.8956,衡阳市,珠晖区环保局,,,50,48,,,103,,115,112,9,12,6,7,0.8,0.8
2024-09-18T2100,2459A,112.6197,26.8733,衡阳市,市委党校,,49,37,47,34,29,111,,126,123,9,10,7,9,0.7,0.9
2024-09-18T2100,2460A,112.6006,26.8919,衡阳市,市监测站,细颗粒物(PM2.5),55,58,42,39,30,108,,121,116,8,8,7,8,0.7,0.8
2024-09-18T2100,2461A,112.5664,26.9056,衡阳市,真空机电公司,颗粒物(PM10),51,52,45,30,28,107,,119,115,6,6,6,7,0.8,0.8
2024-09-18T2100,3399A,112.6703,26.882,衡阳市,师范学院,颗粒物(PM10),52,54,46,30,26,87,,127,119,16,10,10,9,0.8,0.8
2024-09-18T2100,2608A,103.3772,23.3993,红河哈尼族彝族自治州,污水处理厂,,,,17,20,18,,,60,59,3,8,5,12,0.3,0.4
2024-09-18T2100,2609A,103.3861,23.35,红河哈尼族彝族自治州,监测站,,26,26,26,12,14,52,,72,65,5,10,7,20,0.4,0.5
2024-09-18T2100,3038A,103.3758,23.368,红河哈尼族彝族自治州,州图书馆,,25,21,22,17,11,48,,66,60,6,9,6,17,0.3,0.4
2024-09-18T2100,1090A,111.6507,40.7517,呼和浩特市,呼市一监,细颗粒物(PM2.5),80,90,54,59,51,37,,78,76,54,22,7,8,1.3,1.2
2024-09-18T2100,1091A,111.6572,40.8033,呼和浩特市,小召,,,66,55,43,55,,,81,81,48,32,7,8,1.1,1.3
2024-09-18T2100,1094A,111.7516,40.8369,呼和浩特市,如意水处理厂,颗粒物(PM10),61,72,59,38,39,17,,73,70,71,34,6,7,1.1,1.2
2024-09-18T2100,1095A,111.7276,40.8062,呼和浩特市,二十九中,细颗粒物(PM2.5),69,75,52,50,49,48,,78,78,56,30,5,5,1.2,1.3
2024-09-18T2100,1096A,111.5512,40.7866,呼和浩特市,工大金川校区,,,55,50,47,50,,,67,67,40,35,3,2,0.8,1
2024-09-18T2100,1097A,111.717,40.7612,呼和浩特市,化肥厂生活区,颗粒物(PM10),58,65,59,40,41,72,,97,97,38,20,10,9,0.9,1
2024-09-18T2100,3698A,111.5968,40.8178,呼和浩特市,红旗小学,细颗粒物(PM2.5),63,48,77,45,81,48,,70,70,32,37,4,5,0.8,1
2024-09-18T2100,3699A,111.6518,40.8389,呼和浩特市,海东办,细颗粒物(PM2.5),65,56,85,47,86,25,,59,58,64,36,6,6,0.9,1.1
2024-09-18T2100,2192A,119.7594,49.2261,呼伦贝尔市,区环保局,颗粒物(PM10),65,79,42,21,15,44,,60,56,20,16,3,4,0.4,0.2
2024-09-18T2100,3061A,119.7512,49.1577,呼伦贝尔市,国华电力东,,29,29,23,15,17,59,,68,66,10,9,4,4,0.3,0.3
2024-09-18T2100,1250A,120.0751,30.8669,湖州市,城西水厂,,32,32,25,17,11,36,,89,78,15,11,6,4,0.3,0.3
2024-09-18T2100,2873A,120.0875,30.8955,湖州市,仁皇山新区,,30,26,24,21,13,12,,89,71,33,15,8,6,0.3,0.4
2024-09-18T2100,2907A,120.1844,30.8596,湖州市,吴兴区站,,26,26,22,15,11,25,,73,60,14,8,6,5,0.3,0.3
2024-09-18T2100,3562A,120.4148,30.8538,湖州市,南浔区站,,22,22,20,14,11,23,,72,57,15,9,7,6,0.4,0.4
2024-09-18T2100,1607A,120.9092,40.7136,葫芦岛市,龙港区,,50,50,46,21,15,42,,71,60,29,31,21,41,0.6,0.9
2024-09-18T2100,1608A,120.8392,40.7514,葫芦岛市,化工街,颗粒物(PM10),59,68,36,19,12,33,,78,64,50,29,23,39,0.6,0.5
2024-09-18T2100,1609A,120.8341,40.7073,葫芦岛市,新区,颗粒物(PM10),66,82,34,29,14,22,,80,66,70,30,29,35,1.0,0.6
2024-09-18T2100,1610A,120.8695,40.7677,葫芦岛市,东城区,颗粒物(PM10),54,58,32,25,15,23,,73,57,50,25,13,21,0.6,0.6
2024-09-18T2100,2482A,109.5981,27.5721,怀化市,林科所,,34,34,24,18,13,75,,96,93,8,7,6,12,0.3,0.6
2024-09-18T2100,2483A,109.9453,27.5444,怀化市,河西地税局,颗粒物(PM10),53,56,36,35,23,43,,101,91,16,12,5,7,0.7,0.7
2024-09-18T2100,2484A,109.9781,27.5342,怀化市,市四医院,颗粒物(PM10),58,65,37,37,25,52,,103,96,22,11,7,10,0.7,0.6
2024-09-18T2100,2485A,109.9972,27.5578,怀化市,监测楼,,,70,42,42,23,,,103,102,14,10,3,6,0.6,0.8
2024-09-18T2100,2486A,110.0394,27.583,怀化市,市委党校,颗粒物(PM10),51,51,40,32,24,63,,104,97,10,11,9,14,0.8,0.7
2024-09-18T2100,1210A,119.036,33.5981,淮安市,钵池山,,15,14,14,10,9,32,,58,51,12,9,8,7,0.5,0.5
2024-09-18T2100,1211A,119.007,33.575,淮安市,北京南路,,19,19,17,6,8,27,,54,45,9,5,7,6,0.4,0.5
2024-09-18T2100,1212A,118.989,33.6067,淮安市,市监测站,,18,17,17,12,9,34,,60,52,12,9,7,6,0.3,0.4
2024-09-18T2100,1213A,119.135,33.5039,淮安市,楚州区监测站,,22,22,23,9,8,16,,50,40,20,8,6,6,0.5,0.5
2024-09-18T2100,1214A,119.0186,33.6297,淮安市,淮阴区监测站,,17,17,21,9,10,26,,58,48,17,11,4,4,0.3,0.3
2024-09-18T2100,3426A,118.8755,33.2894,淮安市,新华书店,,14,14,21,7,9,30,,68,58,15,10,7,6,0.3,0.4
2024-09-18T2100,2282A,116.8004,33.975,淮北市,监测站,,17,8,13,7,7,52,,71,48,6,9,5,5,0.5,0.6
2024-09-18T2100,2283A,116.8091,33.9007,淮北市,烈山区政府,,17,,12,11,9,54,,72,48,4,5,5,5,0.4,0.5
2024-09-18T2100,3330A,116.8873,33.9836,淮北市,杜集区检察院,,21,21,19,6,8,63,,78,70,6,5,7,7,0.3,0.5
2024-09-18T2100,4017A,116.7923,33.9535,淮北市,市博物馆,,18,17,15,6,10,55,,73,49,4,8,4,4,0.6,0.7
2024-09-18T2100,2277A,116.8305,32.7727,淮南市,潘集区政府,,40,35,29,28,22,48,,72,66,13,11,5,6,0.6,0.5
2024-09-18T2100,2278A,117.0067,32.6524,淮南市,师范学院,细颗粒物(PM2.5),52,49,38,36,23,52,,69,66,8,8,7,7,0.3,0.4
2024-09-18T2100,2279A,116.8569,32.5951,淮南市,谢家集区政府,,49,49,26,34,26,46,,72,65,17,12,7,6,0.4,0.3
2024-09-18T2100,2280A,116.8281,32.633,淮南市,八公山区政府,颗粒物(PM10),53,56,39,33,24,30,,71,62,19,8,7,6,0.4,0.3
2024-09-18T2100,2281A,116.6325,32.6201,淮南市,焦岗湖风景区管理处,,36,29,31,25,23,29,,55,48,6,4,4,3,0.2,0.1
2024-09-18T2100,2894A,117.0566,32.6531,淮南市,经济技术开发区消防队,,32,32,29,12,10,47,,69,65,13,11,4,4,0.4,0.4
2024-09-18T2100,3329A,117.0108,32.5893,淮南市,山南新区,颗粒物(PM10),53,55,36,26,21,52,,70,68,17,11,5,4,0.4,0.4
2024-09-18T2100,2446A,114.9028,30.4742,黄冈市,职工中心,,31,31,38,17,20,83,,126,112,8,10,8,9,0.7,0.6
2024-09-18T2100,2929A,114.8858,30.4519,黄冈市,红卫路,,35,29,32,24,22,83,,133,115,12,14,8,9,0.6,0.5
2024-09-18T2100,3398A,114.9136,30.4445,黄冈市,市林业局,,44,44,44,24,20,93,,139,125,7,9,8,8,0.6,0.5
2024-09-18T2100,2672A,102.0199,35.5102,黄南藏族自治州,同仁县隆务镇,,24,24,21,16,9,49,,85,78,8,5,10,10,0.5,0.5
2024-09-18T2100,2295A,118.2903,29.6963,黄山市,延安路89号,,41,41,29,14,7,47,,66,57,8,5,6,6,0.3,0.3
2024-09-18T2100,2296A,118.327,29.7178,黄山市,黄山东路89号,,39,38,18,27,7,44,,61,55,7,5,5,4,0.3,0.2
2024-09-18T2100,2297A,118.1371,30.2756,黄山市,黄山区政府5号楼,颗粒物(PM10),51,51,18,14,7,28,,67,59,9,6,7,6,0.4,0.2
2024-09-18T2100,2423A,115.0601,30.2313,黄石市,沈家营,,40,40,47,17,16,101,,154,135,10,10,6,8,0.5,0.5
2024-09-18T2100,2424A,115.0817,30.2006,黄石市,陈家湾,,44,44,44,20,18,95,,156,135,14,11,14,14,0.5,0.5
2024-09-18T2100,2426A,114.8988,30.2019,黄石市,铁山,,46,46,45,16,23,98,,172,153,12,12,15,11,1.2,0.9
2024-09-18T2100,2427A,115.0307,30.2092,黄石市,团城山,,38,38,40,8,15,99,,166,139,9,11,5,7,0.6,0.6
2024-09-18T2100,3149A,115.0235,30.1578,黄石市,笔架山北路,,42,42,42,14,15,105,,172,152,7,8,7,9,0.5,0.6
2024-09-18T2100,1392A,114.4183,23.0528,惠州市,河南岸金山湖子站,,25,25,13,13,8,58,,63,60,11,3,5,4,0.4,0.4
2024-09-18T2100,1393A,114.4053,23.0822,惠州市,下埔横江三路子站,,,30,13,13,7,,,67,65,15,5,3,3,0.5,0.6
2024-09-18T2100,1394A,114.4103,23.1142,惠州市,江北云山西路子站,,25,23,11,3,5,78,,64,64,4,3,5,4,0.4,0.4
2024-09-18T2100,1395A,114.4645,22.7833,惠州市,惠阳区承修路船湖子站,,30,30,17,12,9,72,,68,68,11,12,4,4,0.5,0.5
2024-09-18T2100,1396A,114.5317,22.7422,惠州市,大亚湾管委会子站,,34,34,17,11,8,76,,85,85,14,11,7,6,0.6,0.6
2024-09-18T2100,3314A,114.4338,22.8134,惠州市,惠阳秋长,,,22,13,3,6,,,79,79,11,10,5,5,0.4,0.5
2024-09-18T2100,3452A,114.6517,22.775,惠州市,大亚湾霞涌,,25,24,18,11,10,80,,80,80,6,5,5,4,0.5,0.5
2024-09-18T2100,2240A,130.9762,45.3001,鸡西市,环保局,,35,35,25,10,10,55,,75,61,9,8,5,5,0.2,0.2
2024-09-18T2100,2243A,130.9429,45.3039,鸡西市,第一中学,,,24,23,7,9,,,76,70,7,8,4,5,0.2,0.1
2024-09-18T2100,3707A,131.0207,45.3073,鸡西市,欧美日汽修厂,,46,46,28,18,14,26,,76,56,36,19,6,6,0.2,0.1
2024-09-18T2100,3709A,130.9967,45.3106,鸡西市,市政设施管理处,,42,42,31,19,15,41,,80,58,25,20,6,6,0.1,0.2
2024-09-18T2100,2367A,114.9754,27.0803,吉安市,红声器材厂,,50,50,53,30,33,88,,112,107,15,14,13,14,0.7,0.7
2024-09-18T2100,2368A,114.9658,27.0999,吉安市,市森林工业局,,40,40,49,27,33,87,,109,105,20,18,11,13,0.6,0.6
2024-09-18T2100,2369A,114.99,27.1312,吉安市,市环境监测站,,44,44,52,20,35,97,,118,113,11,12,12,17,0.7,0.7
2024-09-18T2100,2370A,115.0093,27.0968,吉安市,青原区法院,,46,46,51,27,31,87,,118,111,16,14,13,15,0.6,0.7
2024-09-18T2100,1772A,126.54,43.8622,吉林市,哈达湾,颗粒物(PM10),53,56,30,36,15,15,,101,84,54,21,6,5,0.8,0.6
2024-09-18T2100,1773A,126.5844,43.8358,吉林市,东局子,,40,40,27,15,13,17,,94,73,53,19,4,4,0.9,0.7
2024-09-18T2100,1774A,126.5052,43.8245,吉林市,电力学院,颗粒物(PM10),77,103,37,45,22,12,,92,66,41,17,3,3,0.9,0.7
2024-09-18T2100,1775A,126.6133,43.8972,吉林市,江北,颗粒物(PM10),82,113,40,44,18,15,,90,63,54,21,6,7,0.7,0.7
2024-09-18T2100,1776A,126.555,43.8306,吉林市,江南公园,颗粒物(PM10),66,82,28,29,15,44,,93,79,25,17,5,5,0.6,0.6
2024-09-18T2100,2868A,126.4739,43.953,吉林市,九站,,,175,44,,23,5,,98,68,62,27,10,8,0.7,0.7
2024-09-18T2100,1299A,116.9862,36.6114,济南市,科干所,,39,39,52,20,27,43,,76,69,25,25,7,8,0.6,0.9
2024-09-18T2100,1300A,116.9376,36.665,济南市,农科所,颗粒物(PM10),66,81,56,29,29,24,,88,75,53,28,7,10,0.6,0.8
2024-09-18T2100,1301A,117.1265,36.6734,济南市,开发区,,49,49,48,24,25,35,,86,74,36,26,6,8,0.6,0.7
2024-09-18T2100,1303A,117.0624,36.6868,济南市,省种子仓库,颗粒物(PM10),56,61,58,22,24,30,,90,78,39,25,6,10,1.0,1.2
2024-09-18T2100,1304A,116.9489,36.6447,济南市,机床二厂,,46,46,50,17,20,35,,93,80,41,26,8,11,0.6,0.8
2024-09-18T2100,1305A,117.0495,36.663,济南市,市监测站,颗粒物(PM10),51,51,54,24,27,41,,94,82,31,26,8,10,0.7,0.9
2024-09-18T2100,1306A,116.7675,36.5484,济南市,长清党校,颗粒物(PM10),61,71,58,29,33,41,,118,97,44,23,8,11,0.9,1
2024-09-18T2100,1616A,117.6795,36.229,济南市,技术学院,,22,22,16,12,10,14,,42,35,28,10,5,7,0.8,0.6
2024-09-18T2100,1961A,117.532,36.6868,济南市,东山小学,,46,46,54,24,26,13,,84,60,50,26,4,6,0.6,0.7
2024-09-18T2100,3059A,117.7161,36.2049,济南市,泰兴公司,,19,19,18,9,10,29,,41,36,13,9,7,7,0.3,0.4
2024-09-18T2100,3064A,117.6867,36.2171,济南市,莱芜战役纪念馆,,17,17,18,3,9,24,,39,33,17,10,5,5,0.5,0.5
2024-09-18T2100,3494A,117.1673,36.9782,济南市,济阳区政府,颗粒物(PM10),51,51,45,24,22,71,,111,89,13,12,9,12,0.5,0.7
2024-09-18T2100,3495A,117.1171,36.63,济南市,锦屏中学,,37,37,46,15,24,39,,79,71,24,20,8,7,0.5,0.7
2024-09-18T2100,3682A,116.9814,36.6819,济南市,济南四建,颗粒物(PM10),58,66,47,24,25,22,,83,70,49,26,8,12,0.8,1
2024-09-18T2100,1653A,116.6251,35.4302,济宁市,火炬城,,14,14,21,7,7,27,,32,32,19,12,9,9,0.7,0.6
2024-09-18T2100,3500A,116.5814,35.3707,济宁市,北湖一中,,23,23,19,9,7,32,,33,33,16,10,4,4,0.6,0.4
2024-09-18T2100,3501A,116.8249,35.5593,济宁市,服务中心,,30,30,23,11,7,17,,29,28,19,10,5,5,0.5,0.4
2024-09-18T2100,3678A,116.5907,35.4054,济宁市,市第七中学,,24,24,17,12,7,18,,30,30,22,13,6,6,0.6,0.5
2024-09-18T2100,2255A,130.2751,46.8028,佳木斯市,佳纺,,42,42,22,11,8,44,,84,65,12,9,3,4,0.4,0.4
2024-09-18T2100,2256A,130.3995,46.8307,佳木斯市,发电厂,,35,35,24,11,9,36,,80,61,13,9,7,6,0.4,0.4
2024-09-18T2100,2257A,130.3258,46.7975,佳木斯市,环保局,,29,29,20,8,8,35,,80,60,15,9,8,7,0.4,0.4
2024-09-18T2100,2258A,130.3648,46.8032,佳木斯市,十一中,,36,36,23,11,9,38,,83,63,17,14,7,7,0.4,0.5
2024-09-18T2100,2259A,130.3794,46.7588,佳木斯市,四丰,,20,20,15,6,8,33,,76,57,24,12,1,1,0.2,0.2
2024-09-18T2100,1252A,120.7436,30.778,嘉兴市,清河小学,,26,26,23,14,10,27,,65,52,13,10,4,4,0.3,0.3
2024-09-18T2100,1253A,120.726,30.7478,嘉兴市,嘉兴学院,,25,25,19,17,9,27,,61,50,11,8,3,3,0.3,0.3
2024-09-18T2100,2872A,120.7846,30.7525,嘉兴市,南湖区残联,,26,26,21,15,10,31,,72,57,14,10,4,5,0.3,0.3
2024-09-18T2100,3407A,120.6916,30.7739,嘉兴市,秀洲住建,,31,31,20,13,9,25,,67,53,15,9,5,4,0.5,0.5
2024-09-18T2100,1945A,98.2908,39.7711,嘉峪关市,气象局,,46,46,35,24,17,85,,111,109,15,12,3,9,0.5,0.6
2024-09-18T2100,2884A,98.2672,39.7978,嘉峪关市,酒钢宾馆,,36,36,44,19,21,97,,110,110,16,18,11,24,0.4,0.7
2024-09-18T2100,3248A,98.2643,39.7724,嘉峪关市,雄关区,,41,41,38,23,20,88,,109,107,17,15,9,13,0.1,0.5
2024-09-18T2100,1383A,113.1064,22.6058,江门市,北街,,37,37,19,17,11,74,,128,120,23,14,5,5,0.7,0.6
2024-09-18T2100,1384A,113.0731,22.5835,江门市,西区,颗粒物(PM10),53,55,18,19,10,73,,133,124,23,16,6,6,0.4,0.4
2024-09-18T2100,1385A,113.0219,22.5311,江门市,圭峰西,,34,34,19,15,10,77,,129,121,19,10,3,3,0.6,0.5
2024-09-18T2100,1386A,113.0828,22.5947,江门市,东湖,,34,34,19,17,8,75,,127,120,21,13,4,3,0.5,0.4
2024-09-18T2100,3311A,113.1075,22.5647,江门市,江海富民,,50,50,27,8,12,73,,130,122,22,15,6,7,0.5,0.6
2024-09-18T2100,3449A,113.05,22.4667,江门市,新会银湖,,24,23,22,14,11,76,,126,118,15,13,6,6,0.5,0.6
2024-09-18T2100,1828A,113.227,35.2125,焦作市,市环保局,,28,28,44,15,27,68,,113,95,11,11,4,5,0.4,0.6
2024-09-18T2100,3169A,113.2725,35.2067,焦作市,太极体育中心,,37,37,49,15,25,73,,127,99,10,9,2,6,0.5,0.9
2024-09-18T2100,3335A,113.3137,35.2641,焦作市,马村街道办,,23,22,38,16,27,70,,112,94,10,10,1,3,0.4,0.6
2024-09-18T2100,3336A,113.2465,35.2373,焦作市,焦作技师学院,,25,24,44,17,28,62,,106,90,14,12,4,6,0.4,0.6
2024-09-18T2100,3477A,113.1656,35.2539,焦作市,中站许衡医院,,22,,35,15,26,65,,101,93,11,17,3,5,0.3,0.6
2024-09-18T2100,3981A,113.2449,35.1803,焦作市,原李万街道办,,40,40,44,17,23,74,,128,101,9,6,8,4,0.7,0.7
2024-09-18T2100,1708A,116.3701,23.5345,揭阳市,新兴,,48,48,48,17,23,60,,98,90,15,11,7,7,0.6,0.6
2024-09-18T2100,1709A,116.3264,23.5443,揭阳市,西马,颗粒物(PM10),53,55,52,21,26,62,,102,97,10,6,6,5,0.6,0.7
2024-09-18T2100,1710A,116.3611,23.5626,揭阳市,东兴,颗粒物(PM10),53,55,52,12,19,67,,101,97,12,9,8,6,0.7,0.7
2024-09-18T2100,1711A,116.4151,23.5294,揭阳市,渔湖,,44,44,60,19,24,63,,91,87,12,13,6,6,0.6,0.6
2024-09-18T2100,3320A,116.403,23.5699,揭阳市,曲溪,,44,44,40,19,23,66,,99,94,11,11,2,2,0.5,0.6
2024-09-18T2100,1944A,102.1692,38.5167,金昌市,天庆家园,细颗粒物(PM2.5),67,66,33,48,29,34,,61,50,36,18,10,11,0.9,0.6
2024-09-18T2100,3170A,102.1864,38.5253,金昌市,市委党校,,50,50,46,30,28,31,,56,51,34,14,5,7,0.7,1
2024-09-18T2100,4022A,102.1647,38.5371,金昌市,金川区人防中心,,,47,49,45,30,,,52,52,24,12,7,14,0.9,1.1
2024-09-18T2100,1262A,119.647,29.077,金华市,十五中,,36,36,25,3,6,62,,104,100,9,13,2,2,0.3,0.4
2024-09-18T2100,1263A,119.686,29.1029,金华市,监测站,,35,35,26,17,11,54,,102,96,12,18,3,3,0.3,0.4
2024-09-18T2100,3659A,119.656,29.1131,金华市,气象局,,35,35,25,8,10,49,,100,94,14,18,5,5,0.1,0.1
2024-09-18T2100,1767A,121.1115,41.0879,锦州市,南山,,35,35,28,20,17,38,,65,62,33,22,12,16,0.6,0.6
2024-09-18T2100,1768A,121.0533,40.8434,锦州市,开发区,,29,29,33,19,18,53,,68,66,28,22,7,26,0.7,0.9
2024-09-18T2100,1769A,121.1836,41.1119,锦州市,百股街道,,41,41,29,12,12,21,,64,59,36,22,9,22,0.7,0.7
2024-09-18T2100,1770A,121.1178,41.1222,锦州市,天安街道,颗粒物(PM10),54,58,32,26,17,37,,70,66,34,25,10,17,0.7,0.6
2024-09-18T2100,1771A,121.1303,41.1386,锦州市,北湖公园,,42,37,27,29,17,38,,74,70,29,18,9,16,0.4,0.5
2024-09-18T2100,2160A,112.85,35.5051,晋城市,自来水公司,,32,29,54,7,28,101,,123,120,11,16,7,10,0.9,1.5
2024-09-18T2100,2161A,112.8318,35.4936,晋城市,白云商贸,,30,21,49,3,24,95,,122,117,13,19,6,11,0.9,1.8
2024-09-18T2100,2162A,112.8508,35.4887,晋城市,市环保局,,30,12,50,12,28,94,,120,116,12,15,5,9,0.8,1.3
2024-09-18T2100,2163A,112.8676,35.4897,晋城市,技术学院,,30,18,38,7,27,95,,119,115,12,17,5,8,0.9,1.2
2024-09-18T2100,3620A,112.8271,35.4828,晋城市,泽州一中,,27,14,42,12,29,86,,111,105,17,22,8,15,0.7,1.6
2024-09-18T2100,2171A,112.7532,37.6945,晋中市,锦纶小区,,44,44,50,27,31,110,,114,111,10,9,7,7,0.6,0.6
2024-09-18T2100,2173A,112.7249,37.7067,晋中市,南都小区,,,51,47,34,37,,,113,109,12,11,5,5,0.6,0.9
2024-09-18T2100,2174A,112.6991,37.6982,晋中市,榆次区政府,,48,48,46,32,25,105,,108,107,11,10,6,6,0.7,0.6
2024-09-18T2100,2865A,112.7195,37.6828,晋中市,榆次三中,,48,48,48,31,28,111,,115,111,10,9,7,7,0.7,0.7
2024-09-18T2100,2439A,112.2014,31.0481,荆门市,竹园小学,,42,37,53,29,28,90,,135,122,14,19,11,12,0.6,0.7
2024-09-18T2100,2440A,112.1969,30.9891,荆门市,掇刀,,,42,45,32,27,,,142,132,15,15,12,12,0.7,0.6
2024-09-18T2100,2441A,112.2213,31.0386,荆门市,石化一小,,40,40,57,26,30,96,,141,128,12,14,16,14,0.6,0.5
2024-09-18T2100,3012A,112.1849,31.0362,荆门市,西山林语,,48,45,44,33,25,96,,139,127,13,14,9,10,0.8,0.8
2024-09-18T2100,3547A,112.1632,31.0138,荆门市,龙泉中学南校,,36,36,45,18,27,96,,140,127,17,14,8,10,0.7,0.6
2024-09-18T2100,1844A,112.2494,30.3197,荆州市,市图书馆,,43,42,40,30,29,78,,124,108,19,16,10,10,0.7,0.7
2024-09-18T2100,1845A,112.2008,30.3544,荆州市,市委党校,细颗粒物(PM2.5),52,44,45,36,36,88,,127,114,13,13,6,7,0.8,0.8
2024-09-18T2100,3194A,112.2747,30.3122,荆州市,管委会,,44,44,38,21,33,74,,125,107,20,15,10,9,0.7,0.7
2024-09-18T2100,3548A,112.1655,30.3364,荆州市,学苑路,颗粒物(PM10),55,59,53,37,37,90,,133,120,16,15,7,8,0.8,0.7
2024-09-18T2100,2343A,117.2117,29.2933,景德镇市,老干部活动中心,,17,17,11,9,7,43,,53,46,8,6,7,8,0.3,0.3
2024-09-18T2100,2344A,117.1894,29.2789,景德镇市,兽医站,,35,35,16,13,6,48,,54,48,5,5,7,8,0.3,0.4
2024-09-18T2100,2345A,117.1547,29.2617,景德镇市,台达陶瓷,,33,33,13,13,9,44,,54,43,9,7,8,9,0.3,0.3
2024-09-18T2100,2346A,117.2461,29.2956,景德镇市,陶研所,,20,20,14,6,6,43,,55,46,9,7,7,7,0.3,0.3
2024-09-18T2100,1803A,115.9872,29.6815,九江市,十里,,36,36,45,17,25,60,,134,107,19,14,10,13,0.7,0.8
2024-09-18T2100,1804A,115.9584,29.7046,九江市,茅山头,,38,36,38,26,25,46,,127,101,36,21,9,11,0.6,0.8
2024-09-18T2100,1805A,115.9877,29.7295,九江市,西园,,34,34,44,23,30,63,,124,103,23,23,9,23,0.5,0.7
2024-09-18T2100,1806A,116.0172,29.6547,九江市,五七二七厂,,36,26,34,25,25,71,,130,104,12,13,8,10,0.6,0.7
2024-09-18T2100,1808A,115.9114,29.6038,九江市,综合工业园,,26,26,41,18,23,61,,143,119,35,27,17,24,0.9,0.8
2024-09-18T2100,1809A,116.0721,29.7535,九江市,石化总厂,,48,38,46,33,31,28,,108,77,60,27,9,13,1.2,0.7
2024-09-18T2100,1810A,115.9773,29.5698,九江市,庐山气象台,,34,29,25,15,17,106,,118,116,3,4,7,10,1.0,0.8
2024-09-18T2100,3190A,116.0254,29.6994,九江市,外国语学校,,36,36,41,18,24,85,,125,104,12,19,6,12,0.3,0.4
2024-09-18T2100,2658A,98.5061,39.7443,酒泉市,仓门街子站,,44,44,28,18,13,84,,104,102,17,9,10,24,0.6,0.5
2024-09-18T2100,2659A,98.4989,39.7256,酒泉市,油田生活基地,,36,36,33,15,11,96,,105,104,12,12,9,21,0.5,0.4
2024-09-18T2100,2698A,76.0072,39.4467,喀什地区,巡警大队,颗粒物(PM10),60,70,57,19,8,97,,116,116,16,14,4,4,0.4,0.4
2024-09-18T2100,2699A,75.9755,39.4694,喀什地区,吾办,颗粒物(PM10),59,68,54,19,19,87,,117,116,29,13,4,4,0.4,0.4
2024-09-18T2100,4027A,75.9483,39.4689,喀什地区,老干局,颗粒物(PM10),54,57,57,8,9,96,,114,114,14,11,4,4,0.4,0.4
2024-09-18T2100,1824A,114.3389,34.7781,开封市,肿瘤医院,,17,16,39,3,23,54,,150,66,9,9,4,5,0.3,0.6
2024-09-18T2100,1826A,114.2885,34.7965,开封市,世纪星幼儿园,,18,16,36,8,26,57,,156,72,5,5,4,5,0.4,0.7
2024-09-18T2100,3147A,114.3438,34.8106,开封市,龙亭公园,,16,16,35,3,24,48,,138,62,9,9,3,5,0.4,0.7
2024-09-18T2100,3210A,114.3644,34.7964,开封市,汴京公园,,16,10,36,7,29,51,,142,64,10,9,4,6,0.3,0.7
2024-09-18T2100,3473A,114.2485,34.8306,开封市,技师学院,,23,23,38,11,23,55,,153,76,9,8,9,7,0.6,1
2024-09-18T2100,3592A,114.4644,34.7556,开封市,祥符区生态环境局,,15,8,33,6,22,45,,128,34,11,15,5,9,0.3,0.7
2024-09-18T2100,1951A,84.895,45.6094,克拉玛依市,长征新村,,42,42,41,6,6,53,,84,80,28,6,6,6,0.4,0.2
2024-09-18T2100,1952A,84.8988,45.5893,克拉玛依市,南林小区,,39,39,35,6,11,27,,85,77,47,8,10,9,0.6,0.3
2024-09-18T2100,1954A,84.905,44.3396,克拉玛依市,独山子区,颗粒物(PM10),60,70,53,13,12,57,,85,82,25,8,12,8,0.4,0.3
2024-09-18T2100,1955A,85.6979,46.098,克拉玛依市,乌尔禾区商贸楼,颗粒物(PM10),58,65,34,11,7,58,,92,90,35,6,7,8,0.4,0.3
2024-09-18T2100,3612A,85.1045,45.6899,克拉玛依市,白碱滩区新站,,37,37,35,14,7,60,,99,95,34,4,7,6,0.2,0.2
2024-09-18T2100,2697A,76.1454,39.7142,克孜勒苏柯尔克孜自治州,市人民政府,颗粒物(PM10),53,56,62,22,16,96,,120,120,14,4,3,6,0.3,0.3
2024-09-18T2100,3665A,76.1658,39.7157,克孜勒苏柯尔克孜自治州,克州文化中心,颗粒物(PM10),68,85,62,24,21,103,,121,120,10,2,6,11,0.4,0.3
2024-09-18T2100,1450A,102.8204,24.8886,昆明市,呈贡新区,,27,27,24,17,14,66,,80,79,11,8,4,8,0.7,0.7
2024-09-18T2100,1452A,102.7252,25.0902,昆明市,龙泉镇,,32,32,16,20,11,58,,83,80,23,11,8,7,0.8,0.6
2024-09-18T2100,1453A,102.7266,25.0375,昆明市,东风东路,,36,36,18,20,12,66,,78,78,18,11,6,6,0.4,0.3
2024-09-18T2100,1454A,102.6742,25.0669,昆明市,金鼎山,,,,28,17,10,,,80,80,20,13,8,10,0.5,0.4
2024-09-18T2100,1455A,102.6644,25.0401,昆明市,碧鸡广场,,36,36,18,7,8,65,,83,82,23,12,8,7,0.6,0.5
2024-09-18T2100,3179A,102.7494,25.0119,昆明市,官渡区博物馆,,,34,20,24,10,,,83,83,41,16,7,7,0.5,0.3
2024-09-18T2100,3375A,102.8017,24.8336,昆明市,青年创业园,,22,22,18,15,15,56,,82,79,17,8,4,6,0.6,0.6
2024-09-18T2100,3550A,102.7997,24.9786,昆明市,昆明学院,,36,36,21,24,16,55,,83,80,29,13,7,7,0.5,0.4
2024-09-18T2100,3551A,102.5967,24.6736,昆明市,晋宁区生态环境分局,,46,46,19,12,12,59,,94,90,17,7,3,4,0.5,0.4
2024-09-18T2100,3552A,102.6678,24.9856,昆明市,云天化总部,,,40,18,26,13,,,84,84,25,11,7,6,0.6,0.4
2024-09-18T2100,1456A,91.1319,29.6514,拉萨市,八廓街,,18,18,18,10,13,53,,82,80,27,15,8,9,0.2,0.1
2024-09-18T2100,1457A,91.1221,29.6747,拉萨市,市环保局,,20,15,16,14,10,34,,82,78,30,17,8,8,0.3,0.3
2024-09-18T2100,1458A,91.0874,29.6475,拉萨市,区监测站,,,23,13,6,8,,,77,77,42,19,6,8,0.5,0.1
2024-09-18T2100,1459A,91.1774,29.6541,拉萨市,西藏大学,,18,16,12,7,8,57,,82,81,22,11,8,9,0.5,0.4
2024-09-18T2100,1460A,90.9798,29.6588,拉萨市,区辐射站,,21,21,12,7,8,53,,71,70,22,16,9,9,0.2,0.1
2024-09-18T2100,1461A,91.0834,29.6292,拉萨市,拉萨火车站,,20,7,12,6,8,63,,73,73,11,18,5,6,0.2,0.3
2024-09-18T2100,2520A,109.2203,23.7256,来宾市,来宾技工学校,,38,38,33,24,24,61,,88,83,11,10,6,7,0.7,0.7
2024-09-18T2100,3535A,109.1781,23.7297,来宾市,兴宾区政府,,33,33,27,19,17,55,,93,86,8,5,6,6,0.6,0.6
2024-09-18T2100,4002A,109.2416,23.7461,来宾市,中南小学,,35,35,35,22,23,63,,100,94,14,10,6,7,0.7,0.7
2024-09-18T2100,1476A,103.631,36.1031,兰州市,兰炼宾馆,颗粒物(PM10),62,74,58,42,43,19,,142,113,77,34,6,8,0.8,0.8
2024-09-18T2100,1478A,103.8412,36.0726,兰州市,生物制品所,,43,35,51,30,38,35,,87,78,38,37,10,10,0.6,0.7
2024-09-18T2100,1479A,103.831,36.0464,兰州市,铁路设计院,颗粒物(PM10),61,72,54,34,41,1,,75,62,87,47,7,7,1.3,0.8
2024-09-18T2100,3186A,103.7158,36.1058,兰州市,教育港,颗粒物(PM10),69,87,63,36,44,17,,124,101,68,38,7,8,0.8,0.8
2024-09-18T2100,3241A,103.7439,36.0842,兰州市,百合公园,颗粒物(PM10),54,58,52,29,33,8,,108,86,71,37,10,9,1.1,1
2024-09-18T2100,3242A,103.9611,35.998,兰州市,和平,,42,42,43,20,25,28,,84,74,43,22,9,9,0.6,0.7
2024-09-18T2100,3245A,103.6633,36.533,兰州新区,新区管委会,颗粒物(PM10),59,67,40,24,24,65,,104,101,18,13,4,9,0.6,0.6
2024-09-18T2100,3246A,103.6975,36.4789,兰州新区,舟曲中学,,38,38,38,22,27,57,,106,103,29,17,7,15,0.5,0.6
2024-09-18T2100,1067A,116.6708,39.5111,廊坊市,药材公司,颗粒物(PM10),56,62,58,29,30,76,,116,110,21,14,8,7,0.8,0.8
2024-09-18T2100,1068A,116.7214,39.5589,廊坊市,开发区,,,60,49,26,27,,,113,109,33,17,5,4,1.0,0.8
2024-09-18T2100,1070A,116.7244,39.5269,廊坊市,北华航天学院,颗粒物(PM10),59,68,66,24,26,81,,117,110,24,16,13,6,0.9,0.8
2024-09-18T2100,2919A,116.7022,39.5453,廊坊市,河北工业大学,颗粒物(PM10),58,65,55,28,27,90,,120,115,21,16,12,6,0.9,0.8
2024-09-18T2100,2535A,103.7723,29.5462,乐山市,花湖湾,,45,,27,31,29,72,,112,102,22,12,5,6,0.5,0.9
2024-09-18T2100,2536A,103.7627,29.5844,乐山市,牛耳桥,颗粒物(PM10),52,53,46,32,32,17,,119,89,57,25,3,4,0.8,0.7
2024-09-18T2100,2537A,103.7508,29.6006,乐山市,市第三水厂,,43,43,41,29,32,59,,126,106,34,23,3,3,0.5,0.6
2024-09-18T2100,2538A,103.7571,29.5664,乐山市,市监测站,,42,39,42,29,31,51,,117,102,34,13,3,6,0.5,0.7
2024-09-18T2100,3361A,103.7311,29.5628,乐山市,理工大学,,31,31,45,17,34,79,,127,112,18,14,2,4,0.6,0.9
2024-09-18T2100,2599A,100.2497,26.8802,丽江市,丽江古城,,27,27,18,16,12,61,,72,71,10,10,9,9,0.7,0.7
2024-09-18T2100,2600A,100.2203,26.8906,丽江市,市中心,,18,,13,9,7,56,,73,70,14,9,6,7,0.7,0.6
2024-09-18T2100,1267A,119.914,28.4514,丽水市,监测站大楼,,18,17,18,8,7,56,,70,64,7,9,3,5,0.3,0.3
2024-09-18T2100,1268A,119.93,28.4586,丽水市,莲都小学,,18,16,19,6,4,55,,70,66,6,7,4,4,0.3,0.3
2024-09-18T2100,1269A,119.879,28.4231,丽水市,余庄前,,35,35,23,18,9,10,,68,52,21,10,4,4,0.4,0.3
2024-09-18T2100,1173A,119.176,34.5885,连云港市,市环境监测站,,,,17,7,5,43,,62,57,9,6,6,5,0.3,0.3
2024-09-18T2100,3000A,119.3581,34.6972,连云港市,德源药业,,17,17,15,3,4,43,,53,48,5,3,5,5,0.2,0.2
2024-09-18T2100,3007A,119.178,34.844,连云港市,新城一中,,16,16,19,6,7,42,,54,50,12,6,4,4,0.6,0.6
2024-09-18T2100,3008A,119.3608,34.7519,连云港市,胡沟管理处,,13,12,14,3,3,25,,52,36,25,13,8,7,0.3,0.5
2024-09-18T2100,3009A,119.1478,34.5911,连云港市,矿山设计院,,19,19,18,7,6,39,,58,54,8,7,6,5,0.6,0.5
2024-09-18T2100,3434A,119.2413,34.6539,连云港市,工贸学校,,26,25,20,18,9,43,,64,55,10,8,10,8,0.5,0.5
2024-09-18T2100,3664A,119.4172,34.7341,连云港市,连云街道,,16,16,17,7,7,44,,48,46,5,4,4,4,0.5,0.5
2024-09-18T2100,2571A,102.3431,27.8099,凉山彝族自治州,青龙寺,,21,8,8,6,4,65,,90,87,4,4,6,6,0.8,0.8
2024-09-18T2100,2572A,102.2721,27.8415,凉山彝族自治州,邛海宾馆,,27,27,16,15,9,50,,102,95,26,11,10,9,0.5,0.5
2024-09-18T2100,2573A,102.2625,27.898,凉山彝族自治州,西昌市政府,,22,10,10,3,5,68,,108,104,7,6,8,9,0.3,0.3
2024-09-18T2100,2574A,102.2685,27.8851,凉山彝族自治州,凉山州政府,,42,40,17,29,10,65,,112,108,13,8,6,6,0.7,0.7
2024-09-18T2100,2575A,102.237,27.8914,凉山彝族自治州,长安,颗粒物(PM10),52,54,17,19,10,64,,111,107,13,8,9,10,0.7,0.7
2024-09-18T2100,2212A,123.2,41.1953,辽阳市,宏伟区,,46,46,53,21,30,20,,77,65,43,31,18,18,0.8,1.1
2024-09-18T2100,2213A,123.1683,41.2495,辽阳市,新华园,颗粒物(PM10),52,53,56,30,30,33,,73,64,45,34,24,25,0.8,1.1
2024-09-18T2100,2214A,123.2354,41.2639,辽阳市,滨河路,颗粒物(PM10),54,58,54,21,25,5,,79,58,53,29,13,20,0.7,1
2024-09-18T2100,2215A,123.149,41.2991,辽阳市,铁西工业园,颗粒物(PM10),63,76,65,31,26,2,,70,51,56,27,13,16,0.9,1.2
2024-09-18T2100,2227A,125.1358,42.8845,辽源市,环保局,,47,47,29,26,17,7,,88,62,36,16,7,7,0.8,0.7
2024-09-18T2100,3239A,125.0764,42.9078,辽源市,银鹰制药,颗粒物(PM10),63,75,35,26,17,5,,80,53,40,21,5,5,0.8,0.9
2024-09-18T2100,1625A,115.9848,36.4372,聊城市,区政府,颗粒物(PM10),53,55,47,28,27,79,,122,114,18,16,9,13,0.7,0.8
2024-09-18T2100,2878A,116.0072,36.4343,聊城市,聊大东校,颗粒物(PM10),53,56,50,33,35,89,,128,122,18,17,7,13,0.5,0.7
2024-09-18T2100,3200A,115.9819,36.4978,聊城市,监控中心,颗粒物(PM10),51,52,45,27,28,71,,126,114,21,12,7,10,0.4,0.6
2024-09-18T2100,3513A,116.0445,36.4361,聊城市,九州社区,颗粒物(PM10),61,71,59,31,31,79,,119,112,13,12,3,7,0.4,0.5
2024-09-18T2100,4018A,116.0567,36.4608,聊城市,星美广场,颗粒物(PM10),54,58,50,25,27,82,,128,118,11,12,7,10,0.5,0.7
2024-09-18T2100,2632A,94.3681,29.6376,林芝市,林芝监测站,,17,9,10,9,6,52,,59,59,2,3,9,10,0.2,0.2
2024-09-18T2100,2633A,94.3616,29.6616,林芝市,林芝人民医院,,16,16,9,10,6,51,,59,58,4,5,8,8,0.3,0.3
2024-09-18T2100,2603A,100.0781,23.8982,临沧市,市环保局,,33,31,24,23,16,40,,59,52,10,9,5,4,0.5,0.5
2024-09-18T2100,2604A,100.0894,23.8822,临沧市,市气象局,,30,,18,21,15,40,,63,57,12,8,4,4,0.5,0.4
2024-09-18T2100,1733A,111.5531,36.0783,临汾市,临钢医院,,44,44,67,17,30,64,,113,91,12,16,5,7,0.6,0.8
2024-09-18T2100,1734A,111.5028,36.0714,临汾市,技工学校,,48,48,60,19,32,65,,112,94,13,15,6,9,0.8,0.9
2024-09-18T2100,1736A,111.5018,36.0855,临汾市,市委,,36,36,55,9,25,67,,127,104,11,14,6,8,0.8,0.9
2024-09-18T2100,3018A,111.505,36.1014,临汾市,唐尧大酒店,,29,29,53,17,29,60,,119,97,13,16,4,7,0.7,0.9
2024-09-18T2100,3668A,111.5036,36.0414,临汾市,城南,,44,44,59,21,29,69,,110,94,10,18,5,7,0.8,1
2024-09-18T2100,2667A,103.2069,35.5993,临夏回族自治州,环保局,,40,35,30,28,24,53,,88,83,17,11,8,8,0.5,0.5
2024-09-18T2100,2668A,103.2417,35.6057,临夏回族自治州,建设大厦,颗粒物(PM10),59,68,40,28,19,40,,90,84,31,12,9,9,0.6,0.6
2024-09-18T2100,1618A,118.3429,35.0532,临沂市,沂河小区,,19,19,21,11,10,29,,66,55,9,7,8,7,0.2,0.2
2024-09-18T2100,1619A,118.295,35.0583,临沂市,鲁南制药厂,,17,17,14,11,9,30,,70,59,9,7,6,5,0.3,0.3
2024-09-18T2100,1620A,118.2794,34.9976,临沂市,新光毛纺厂,,12,,9,8,8,35,,77,61,10,10,7,5,0.4,0.4
2024-09-18T2100,1621A,118.3956,35.0888,临沂市,河东保险公司,,17,17,18,3,4,33,,62,54,10,9,6,7,0.2,0.4
2024-09-18T2100,3370A,118.3564,35.0215,临沂市,十里堡居委,,11,6,7,3,3,33,,71,58,6,6,9,7,0.4,0.4
2024-09-18T2100,3496A,118.3604,35.1084,临沂市,南坊新区,,12,12,20,3,5,28,,58,50,12,9,10,9,0.5,0.5
2024-09-18T2100,3860A,118.3920,35.0300,临沂市,皇山花园小区,,19,19,16,10,6,27,,67,54,12,8,8,7,0.4,0.4
2024-09-18T2100,1870A,109.4856,24.3895,柳州市,柳东小学,,33,33,28,22,18,63,,74,73,10,5,8,7,0.6,0.6
2024-09-18T2100,1871A,109.4157,24.3277,柳州市,环保监测站,,,,32,,20,55,,78,73,15,8,,9,,0.8
2024-09-18T2100,1872A,109.389,24.341,柳州市,河西水厂,颗粒物(PM10),56,62,42,30,26,43,,76,69,15,13,9,18,1.0,1.3
2024-09-18T2100,1873A,109.4311,24.2921,柳州市,市四中,,33,33,32,22,19,70,,83,80,9,5,7,6,0.8,0.8
2024-09-18T2100,1874A,109.4006,24.3631,柳州市,市九中,颗粒物(PM10),55,59,39,15,23,43,,79,71,18,8,6,7,0.6,0.7
2024-09-18T2100,1875A,109.4958,24.3134,柳州市,古亭山,,36,36,31,20,19,60,,83,77,12,7,7,7,0.8,0.7
2024-09-18T2100,3402A,109.5422,24.3996,柳州市,市二中,,,,29,,18,63,,80,78,,9,,8,0.6,0.6
2024-09-18T2100,2307A,116.5079,31.737,六安市,监测大楼,,,,21,35,19,69,,83,81,,7,5,5,1.0,0.6
2024-09-18T2100,2309A,116.4996,31.7905,六安市,朝阳厂,,35,32,20,24,16,64,,83,79,3,6,1,1,0.4,0.3
2024-09-18T2100,2310A,116.5567,31.7886,六安市,开发区,,32,32,31,19,18,72,,80,80,9,9,4,4,0.7,0.6
2024-09-18T2100,2577A,104.83,26.5917,六盘水市,黄土坡,,34,34,22,22,15,24,,72,64,31,14,10,8,0.7,0.5
2024-09-18T2100,2578A,104.89,26.5939,六盘水市,水钢,,45,45,32,22,17,42,,75,72,29,12,17,10,0.3,0.9
2024-09-18T2100,2579A,104.8475,26.5894,六盘水市,民中,,31,31,21,17,13,42,,70,68,34,17,12,9,0.5,0.4
2024-09-18T2100,2580A,104.9544,26.5506,六盘水市,双水,,29,29,28,14,15,52,,73,72,15,13,10,11,0.2,0.3
2024-09-18T2100,2336A,117.0217,25.1033,龙岩市,龙岩市监测站,,26,21,14,18,5,36,,75,67,22,8,7,8,0.5,0.4
2024-09-18T2100,2337A,117.0258,25.0661,龙岩市,闽西职业技术学院,,50,50,19,16,7,15,,77,63,39,6,22,6,0.5,0.5
2024-09-18T2100,2338A,117.0196,25.0306,龙岩市,龙岩学院,,15,15,17,10,4,37,,75,67,11,9,6,4,0.4,0.4
2024-09-18T2100,2885A,104.9339,33.3826,陇南市,滨江中学,,40,40,36,23,14,71,,80,75,8,7,6,7,0.5,0.5
2024-09-18T2100,3247A,104.955,33.371,陇南市,市总工会,,37,37,29,3,6,75,,82,78,7,4,8,9,0.4,0.4
2024-09-18T2100,2487A,111.9589,27.8901,娄底市,电视发射台,,48,48,44,24,21,68,,104,92,7,6,8,8,0.3,0.3
2024-09-18T2100,2488A,111.9975,27.725,娄底市,市监测站,,43,36,49,30,28,81,,119,109,21,13,12,9,0.6,1
2024-09-18T2100,2489A,112.0194,27.7314,娄底市,市委党校,细颗粒物(PM2.5),72,54,49,52,32,89,,112,103,12,12,3,11,0.5,0.9
2024-09-18T2100,2490A,111.9561,27.7569,娄底市,涟钢,颗粒物(PM10),54,58,48,36,25,73,,86,80,10,13,12,10,0.3,0.6
2024-09-18T2100,2491A,111.9892,27.7044,娄底市,市政府,,42,36,35,29,29,91,,115,107,10,8,6,6,0.4,0.5
2024-09-18T2100,1893A,105.4324,28.9634,泸州市,九狮山,,,,45,,26,,,111,106,14,13,3,3,0.4,0.5
2024-09-18T2100,1894A,105.4427,28.9063,泸州市,小市上码头,,29,28,31,17,17,91,,114,108,18,17,4,5,0.4,0.5
2024-09-18T2100,1895A,105.4241,28.8573,泸州市,兰田宪桥,,32,30,30,22,22,71,,111,98,29,16,5,5,0.4,0.4
2024-09-18T2100,1896A,105.4379,28.8833,泸州市,市环监站,,26,25,29,18,22,81,,108,102,23,12,6,7,0.5,0.5
2024-09-18T2100,3490A,105.3617,28.7703,泸州市,纳溪区环保局,,45,36,35,31,28,38,,106,94,49,19,5,6,0.5,0.4
2024-09-18T2100,2183A,111.1406,37.5211,吕梁市,环保局,细颗粒物(PM2.5),68,70,65,49,35,54,,101,93,42,17,6,3,0.8,0.7
2024-09-18T2100,2185A,111.1297,37.5136,吕梁市,自来水公司,"颗粒物(PM10),细颗粒物(PM2.5)",55,60,69,39,35,92,,105,103,18,17,6,5,0.7,0.7
2024-09-18T2100,2867A,111.1283,37.51,吕梁市,马茂庄小学,颗粒物(PM10),58,66,72,40,36,72,,108,101,27,21,8,6,0.7,0.7
2024-09-18T2100,1812A,112.3931,34.6516,洛阳市,市委党校,,33,31,47,23,30,94,,118,107,10,11,6,7,0.6,0.9
2024-09-18T2100,1814A,112.4657,34.6871,洛阳市,豫西宾馆,,34,34,53,22,28,85,,112,106,11,10,7,8,0.6,0.8
2024-09-18T2100,1815A,112.494,34.6886,洛阳市,河南林校,,33,30,45,23,28,83,,112,104,15,14,8,9,0.5,0.7
2024-09-18T2100,1816A,112.3844,34.623,洛阳市,开发区管委会,,36,32,41,25,28,92,,115,106,9,11,5,5,0.5,0.7
2024-09-18T2100,1817A,112.4267,34.6258,洛阳市,市委新办公区,,45,32,43,31,37,81,,109,104,8,8,2,4,0.7,0.9
2024-09-18T2100,3340A,112.6005,34.6326,洛阳市,伊滨,细颗粒物(PM2.5),54,,47,38,35,76,,114,95,5,3,7,7,0.7,0.8
2024-09-18T2100,3341A,112.4951,34.6332,洛阳市,中移产业园,,45,36,51,31,38,73,,110,103,17,14,3,4,0.8,1
2024-09-18T2100,3593A,112.5736,34.8993,洛阳市,吉利监测站,,36,33,55,25,34,79,,105,101,11,14,3,4,0.6,0.7
2024-09-18T2100,3635A,112.3677,34.662,洛阳市,河科大西苑校区,,32,31,50,17,26,100,,116,109,7,14,5,5,0.7,0.9
2024-09-18T2100,3636A,112.4388,34.6781,洛阳市,英才小学,,49,,50,34,33,87,,113,103,11,13,3,4,0.6,0.8
2024-09-18T2100,2399A,114.051,33.5699,漯河市,三五一五工厂,,14,,29,9,22,42,,115,46,7,7,4,5,0.4,0.7
2024-09-18T2100,2400A,114.0055,33.5698,漯河市,漯河大学,,14,9,32,9,25,44,,118,49,7,7,4,4,0.4,0.7
2024-09-18T2100,2401A,114.0138,33.5828,漯河市,市水利局,,13,7,35,3,22,40,,115,45,4,4,4,4,0.3,0.6
2024-09-18T2100,2402A,114.0261,33.5698,漯河市,市广电局,,19,,27,13,19,42,,117,47,5,4,6,6,0.6,0.8
2024-09-18T2100,3478A,113.9749,33.5664,漯河市,市图书馆,,15,13,35,7,24,46,,123,50,7,7,10,9,0.3,0.6
2024-09-18T2100,3479A,114.0967,33.5906,漯河市,召陵区卫健委,,16,,38,11,30,44,,108,42,2,3,5,5,0.6,0.8
2024-09-18T2100,1798A,118.5092,31.6837,马鞍山市,湖东路四小,,32,,28,22,11,92,,94,94,17,13,7,8,0.5,0.5
2024-09-18T2100,1799A,118.5024,31.6449,马鞍山市,开发区,,33,33,25,18,10,80,,93,92,21,11,6,7,0.6,0.7
2024-09-18T2100,1800A,118.5228,31.7231,马鞍山市,慈湖,,29,27,24,13,10,90,,95,95,12,6,7,8,0.6,0.6
2024-09-18T2100,1802A,118.6245,31.7241,马鞍山市,濮塘,,30,23,16,21,11,80,,86,86,14,16,7,7,0.5,0.5
2024-09-18T2100,3633A,118.4918,31.6809,马鞍山市,雨山,,,23,21,15,11,93,,93,93,,8,7,8,0.5,0.7
2024-09-18T2100,1686A,111.0286,21.4688,茂名市,电白南海,,31,29,22,17,10,98,,87,87,11,7,9,10,0.8,0.7
2024-09-18T2100,1687A,110.9294,21.6533,茂名市,茂石化七小,,24,14,18,14,9,74,,77,77,10,7,6,7,0.6,0.6
2024-09-18T2100,1688A,110.9107,21.6687,茂名市,健康路,,27,14,11,7,7,86,,83,83,8,4,10,14,0.7,0.7
2024-09-18T2100,1689A,110.8592,21.6828,茂名市,高岭,,,19,20,17,11,,,74,74,18,9,6,13,0.6,0.7
2024-09-18T2100,3450A,111.01,21.5165,茂名市,电白水东,,,19,13,19,9,,,79,79,14,8,6,7,0.5,0.3
2024-09-18T2100,2539A,104.0308,30.0478,眉山市,黑龙滩水库,,50,39,38,35,22,69,,109,99,6,6,8,7,0.5,0.5
2024-09-18T2100,2540A,103.8416,30.0874,眉山市,气象局,,45,37,39,31,30,64,,132,114,35,24,7,6,0.6,0.6
2024-09-18T2100,3137A,103.8578,30.0744,眉山市,市委党校,颗粒物(PM10),51,51,41,19,24,65,,126,111,39,30,8,8,0.5,0.7
2024-09-18T2100,3148A,103.8291,30.0564,眉山市,区人社局,,36,36,39,24,22,62,,134,116,45,28,9,10,0.6,0.6
2024-09-18T2100,1690A,116.1231,24.3284,梅州市,梅江月梅,,28,28,18,16,15,29,,62,56,14,6,7,7,0.6,0.4
2024-09-18T2100,1691A,116.0797,24.2719,梅州市,梅县新城,颗粒物(PM10),64,78,21,9,6,5,,65,53,39,10,4,5,0.6,0.4
2024-09-18T2100,1692A,116.1248,24.2654,梅州市,环境监控中心,,29,29,22,3,6,17,,65,52,33,12,4,7,0.6,0.5
2024-09-18T2100,3315A,116.1233,24.2991,梅州市,梅龙,,39,39,15,18,10,22,,66,56,26,6,11,10,0.7,0.5
2024-09-18T2100,1878A,104.7778,31.4741,绵阳市,富乐山,,43,43,40,24,28,106,,134,123,14,16,3,3,0.7,0.7
2024-09-18T2100,1879A,104.7563,31.4535,绵阳市,市人大,,42,42,44,28,28,107,,136,124,29,20,7,7,0.6,0.6
2024-09-18T2100,1880A,104.6697,31.4668,绵阳市,高新区自来水公司,颗粒物(PM10),54,58,43,31,24,85,,130,120,36,18,4,4,0.7,0.8
2024-09-18T2100,1881A,104.7287,31.5075,绵阳市,三水厂,,46,46,45,29,30,42,,126,101,64,27,6,5,0.8,0.7
2024-09-18T2100,3491A,104.69,31.5322,绵阳市,西科大附属小学,,,46,42,31,24,,,128,,31,17,5,5,0.6,0.6
2024-09-18T2100,3492A,104.5648,31.5343,绵阳市,安州区旅游局,,,56,47,48,33,,,156,144,25,15,4,7,0.9,0.7
2024-09-18T2100,1784A,129.61,44.561,牡丹江市,环保大楼,,37,37,21,20,13,24,,69,54,22,12,6,7,0.4,0.3
2024-09-18T2100,1785A,129.6115,44.5782,牡丹江市,文化广场,颗粒物(PM10),55,59,29,30,19,3,,64,43,45,20,13,8,0.7,0.4
2024-09-18T2100,1786A,129.5904,44.5963,牡丹江市,第一医院,颗粒物(PM10),51,51,30,22,20,21,,70,52,27,16,6,6,0.6,0.4
2024-09-18T2100,1787A,129.6364,44.6075,牡丹江市,机车工厂,颗粒物(PM10),51,51,30,25,15,25,,66,52,15,12,112,33,0.3,0.2
2024-09-18T2100,1788A,129.6386,44.5462,牡丹江市,第一中学,,41,41,26,22,12,36,,75,58,9,10,6,6,0.3,0.3
2024-09-18T2100,2531A,105.0703,29.61,内江市,市监测站,细颗粒物(PM2.5),64,46,33,46,36,64,,135,117,52,25,4,6,1.1,1
2024-09-18T2100,2532A,105.0717,29.5947,内江市,东兴区政府,,48,48,34,26,28,102,,126,123,24,23,4,6,0.7,0.8
2024-09-18T2100,2533A,105.0653,29.5817,内江市,内江二中,细颗粒物(PM2.5),58,44,39,41,38,81,,130,124,39,22,8,9,0.7,0.7
2024-09-18T2100,2534A,105.0406,29.5822,内江市,内江日报社,,39,37,34,27,34,85,,126,117,39,26,7,9,0.6,0.7
2024-09-18T2100,2628A,92.0657,31.4846,那曲市,那曲监测站,,,45,31,16,12,,,64,63,26,8,9,7,1.0,0.8
2024-09-18T2100,3128A,92.0506,31.4797,那曲市,那曲会议中心,颗粒物(PM10),63,75,49,42,16,46,,74,71,49,13,8,4,1.1,0.5
2024-09-18T2100,1290A,115.8931,28.6843,南昌市,省外办,,39,37,38,27,24,101,,115,112,12,12,8,9,0.4,0.5
2024-09-18T2100,1291A,115.8886,28.7003,南昌市,省林业公司,,34,34,34,19,19,96,,119,113,12,9,10,7,0.6,0.8
2024-09-18T2100,1292A,115.8126,28.7442,南昌市,林科所,,34,24,24,12,12,106,,122,118,22,12,8,7,0.6,0.7
2024-09-18T2100,1294A,115.8518,28.687,南昌市,建工学校,,34,34,34,17,17,100,,119,115,16,8,10,9,0.5,0.6
2024-09-18T2100,1295A,115.8921,28.6424,南昌市,象湖,,35,34,27,16,19,110,,118,117,9,6,4,4,0.4,0.4
2024-09-18T2100,1296A,115.7423,28.7996,南昌市,武术学校,,49,49,29,7,16,72,,110,97,7,4,2,2,0.6,0.5
2024-09-18T2100,1298A,115.9314,28.6842,南昌市,省站,,32,26,28,22,23,91,,107,105,12,10,9,9,0.7,0.7
2024-09-18T2100,3046A,115.9084,28.6062,南昌市,机电学校,,38,38,37,19,19,101,,106,104,12,9,8,8,0.5,0.6
2024-09-18T2100,3690A,115.9721,28.7031,南昌市,外国语学校,,30,30,35,18,18,90,,107,105,12,10,7,8,0.5,0.6
2024-09-18T2100,1905A,106.056,30.8064,南充市,西山风景区,,35,34,29,22,29,112,,138,136,7,6,1,2,0.7,0.7
2024-09-18T2100,1906A,106.0789,30.8023,南充市,南充市委,,42,42,40,28,29,104,,139,135,19,16,2,2,0.5,0.5
2024-09-18T2100,1907A,106.1031,30.8217,南充市,南充炼油厂,,49,46,41,34,31,101,,140,135,19,16,3,3,0.4,0.4
2024-09-18T2100,1908A,106.1064,30.7856,南充市,高坪区监测站,,42,42,40,27,28,90,,132,126,26,22,3,3,0.5,0.5
2024-09-18T2100,1909A,106.0642,30.7636,南充市,嘉陵区环保局,,45,45,43,27,27,66,,143,129,48,23,2,2,0.6,0.5
2024-09-18T2100,1910A,106.1087,30.8388,南充市,市环境监测站,,46,44,44,32,32,106,,138,134,18,16,3,4,0.4,0.4
2024-09-18T2100,1151A,118.8086,32.1065,南京市,迈皋桥,,27,27,18,14,9,72,,103,102,20,10,4,4,0.4,0.2
2024-09-18T2100,1152A,118.7538,32.0551,南京市,草场门,,29,29,18,14,8,73,,91,91,18,9,7,5,0.4,0.2
2024-09-18T2100,1153A,118.7794,32.0745,南京市,山西路,,36,36,22,19,9,76,,98,98,9,7,4,4,0.5,0.3
2024-09-18T2100,1154A,118.7752,32.0023,南京市,中华门,,31,31,17,17,5,68,,80,80,18,5,6,6,0.6,0.3
2024-09-18T2100,1155A,118.8109,32.0309,南京市,瑞金路,,31,31,18,14,9,65,,87,86,21,12,4,4,0.6,0.4
2024-09-18T2100,1156A,118.7997,32.0754,南京市,玄武湖,,33,33,23,13,6,69,,89,89,8,4,6,6,0.3,0.6
2024-09-18T2100,1157A,118.6414,32.0931,南京市,浦口,,32,32,23,15,6,75,,87,87,20,9,5,4,0.6,0.4
2024-09-18T2100,1158A,118.7356,31.9996,南京市,奥体中心,,36,36,21,24,12,77,,86,86,17,8,5,4,0.5,0.3
2024-09-18T2100,1159A,118.9125,32.1028,南京市,仙林大学城,,29,29,24,17,13,67,,113,112,14,9,7,6,0.6,0.4
2024-09-18T2100,3422A,118.8436,31.9198,南京市,江宁彩虹桥,,31,31,21,14,7,71,,80,78,18,5,3,4,0.8,0.6
2024-09-18T2100,3423A,119.0138,31.6494,南京市,溧水永阳,,31,31,17,18,8,86,,92,92,13,9,3,4,0.4,0.3
2024-09-18T2100,3424A,118.879,31.3302,南京市,高淳老职中,,,28,21,17,10,,,104,104,9,8,6,4,0.3,0.3
2024-09-18T2100,3427A,118.8554,32.3578,南京市,六合雄州,,35,35,30,16,9,40,,112,106,10,14,7,8,0.4,0.4
2024-09-18T2100,1401A,108.3103,22.7881,南宁市,二十一中,,30,27,31,21,18,54,,79,73,17,13,6,7,0.8,0.8
2024-09-18T2100,1402A,108.3141,22.8528,南宁市,北湖,,40,40,31,28,24,39,,75,67,29,14,4,11,0.9,0.8
2024-09-18T2100,1403A,108.3206,22.8225,南宁市,市监测站,,,31,30,22,20,,,74,66,,15,5,12,0.7,0.7
2024-09-18T2100,1404A,108.3829,22.8037,南宁市,大自然花园,,33,27,28,23,20,58,,77,73,13,11,4,6,0.4,0.4
2024-09-18T2100,1405A,108.4394,22.7904,南宁市,仙葫,,42,38,37,29,22,52,,74,71,18,14,4,6,0.8,0.8
2024-09-18T2100,1406A,108.2397,22.8467,南宁市,区农职院,,,38,34,21,16,,,82,75,14,9,5,6,0.8,0.8
2024-09-18T2100,1407A,108.3275,22.735,南宁市,英华嘉园,,30,28,32,21,24,50,,81,74,20,15,4,7,0.6,0.6
2024-09-18T2100,1408A,108.2257,22.7757,南宁市,沙井镇街道办,颗粒物(PM10),56,61,41,34,24,17,,82,68,45,17,3,10,1.1,1
2024-09-18T2100,3401A,108.4834,22.7618,南宁市,红星社区,细颗粒物(PM2.5),59,50,29,42,20,24,,82,73,42,11,9,8,0.5,0.4
2024-09-18T2100,2332A,118.1681,26.6369,南平市,南平市监测站,,,11,12,3,4,,,64,58,15,7,4,4,0.5,0.4
2024-09-18T2100,2333A,118.1825,26.6489,南平市,南平铝业有限公司,,24,24,17,11,5,20,,64,50,23,11,6,4,0.6,0.4
2024-09-18T2100,2334A,118.1756,26.6272,南平市,南平七中,,19,19,16,9,5,27,,65,54,17,7,2,3,0.6,0.5
2024-09-18T2100,1168A,120.9098,31.9663,南通市,狼山街道,,14,11,13,9,6,42,,64,54,7,3,8,8,0.3,0.4
2024-09-18T2100,1169A,120.86,32.0005,南通市,虹桥,,18,18,15,12,5,38,,57,50,6,3,8,7,0.6,0.4
2024-09-18T2100,1170A,120.87,32.02,南通市,城中,,,,19,,4,,,58,52,10,6,9,7,0.5,0.4
2024-09-18T2100,1171A,120.94,31.93,南通市,星湖花园,,15,,9,10,6,38,,51,44,9,8,7,6,0.4,0.5
2024-09-18T2100,1172A,120.81,32.0417,南通市,紫琅学院,,16,16,11,9,2,37,,59,51,13,8,10,8,0.4,0.3
2024-09-18T2100,3291A,121.067,32.062,南通市,通州监测站,,18,14,16,12,5,51,,57,54,5,5,5,4,0.5,0.4
2024-09-18T2100,3432A,120.9348,31.9883,南通市,环境教育馆,,22,22,19,9,4,40,,58,51,11,7,6,5,0.5,0.4
2024-09-18T2100,2404A,112.5224,33.0122,南阳市,瓦房庄,,41,41,46,26,31,74,,91,88,12,12,2,4,0.7,0.7
2024-09-18T2100,2405A,112.5003,32.9735,南阳市,汉画馆,,48,38,43,33,34,71,,88,84,12,11,5,7,0.6,0.7
2024-09-18T2100,2406A,112.5573,33.027,南阳市,气象站,,32,30,43,22,28,72,,91,87,11,11,5,7,0.8,0.8
2024-09-18T2100,2407A,112.5481,32.9689,南阳市,理工学院,,33,33,37,20,22,66,,90,84,14,11,5,6,0.6,0.6
2024-09-18T2100,4008A,112.5234,32.9922,南阳市,卧龙区政府,,40,37,43,28,32,70,,88,83,14,14,4,5,0.7,0.7
2024-09-18T2100,1234A,121.8358,29.911,宁波市,区环保大楼,,30,30,28,9,11,8,,41,24,20,18,3,4,0.5,0.6
2024-09-18T2100,1235A,121.56,29.82,宁波市,万里学院,,24,24,20,12,11,16,,63,37,18,14,7,6,0.6,0.5
2024-09-18T2100,1236A,121.713,29.9572,宁波市,龙赛医院,,24,24,22,9,8,15,,52,33,17,14,8,9,0.6,0.6
2024-09-18T2100,1239A,121.633,29.7733,宁波市,钱湖水厂,,23,23,20,10,10,3,,54,26,24,11,8,8,0.9,0.8
2024-09-18T2100,1240A,121.5856,29.8635,宁波市,太古小学,,28,28,27,9,7,15,,58,34,20,16,8,8,0.7,0.7
2024-09-18T2100,1241A,121.524,29.8674,宁波市,市环境监测中心,,20,20,20,9,8,21,,65,41,17,14,7,8,0.7,0.7
2024-09-18T2100,2871A,121.6147,29.9017,宁波市,万里国际学校,,26,26,20,13,9,16,,61,36,18,14,7,8,0.4,0.4
2024-09-18T2100,3710A,121.5594,29.8975,宁波市,白沙活动中心,,24,24,22,12,8,16,,62,38,19,14,10,9,0.3,0.3
2024-09-18T2100,2341A,119.5388,26.6612,宁德市,宁德市监测站,,25,25,23,11,10,62,,80,79,13,9,7,7,0.5,0.4
2024-09-18T2100,3209A,119.5231,26.6562,宁德市,宁德一中,,,30,24,13,4,,,82,82,7,5,5,5,0.3,0.2
2024-09-18T2100,2618A,98.8601,25.8567,怒江傈僳族自治州,州监测站,,32,32,25,19,16,51,,76,76,14,8,4,4,0.3,0.4
2024-09-18T2100,2619A,98.8546,25.8417,怒江傈僳族自治州,泸水一中,,20,20,24,9,15,42,,66,64,17,13,6,6,0.5,0.4
2024-09-18T2100,1888A,101.6891,26.571,攀枝花市,弄弄坪,颗粒物(PM10),65,80,56,38,27,50,,120,111,46,24,31,20,1.6,0.9
2024-09-18T2100,1889A,101.5769,26.5928,攀枝花市,河门口,颗粒物(PM10),52,53,42,35,26,80,,122,118,28,22,15,18,1.3,1.4
2024-09-18T2100,1890A,101.7169,26.585,攀枝花市,炳草岗,细颗粒物(PM2.5),53,49,46,37,23,51,,128,121,41,28,6,21,0.8,0.9
2024-09-18T2100,1891A,101.7369,26.5008,攀枝花市,仁和,细颗粒物(PM2.5),59,60,36,42,25,53,,112,102,18,14,10,12,0.6,0.7
2024-09-18T2100,2835A,101.7227,26.567,攀枝花市,四十中小,颗粒物(PM10),51,52,42,30,21,50,,121,110,56,27,15,27,1.0,0.7
2024-09-18T2100,1604A,122.0303,41.1489,盘锦市,开发区,,46,46,24,23,10,38,,80,66,37,19,12,6,0.3,0.3
2024-09-18T2100,1605A,122.0485,41.0883,盘锦市,兴隆台,,39,39,22,15,10,55,,91,78,35,25,9,9,0.5,0.3
2024-09-18T2100,1606A,121.8297,41.1028,盘锦市,新生街道,,22,16,17,7,7,20,,76,59,43,26,8,10,0.4,0.3
2024-09-18T2100,1832A,113.3257,33.742,平顶山市,新华旅馆,,,,49,,29,,,125,68,8,8,4,5,0.6,1
2024-09-18T2100,1833A,113.2919,33.737,平顶山市,规划设计院,,35,35,36,20,21,76,,127,76,11,10,6,7,0.8,0.9
2024-09-18T2100,1834A,113.182,33.774,平顶山市,平顶山工学院,,35,35,39,19,20,58,,117,71,11,10,6,7,0.5,0.6
2024-09-18T2100,3204A,113.3025,33.73,平顶山市,规划局,,35,29,38,24,26,76,,123,74,10,10,3,4,0.8,0.8
2024-09-18T2100,3594A,112.8867,33.9116,平顶山市,石龙区,,44,44,60,20,31,55,,82,71,15,14,8,13,0.6,0.7
2024-09-18T2100,2656A,106.6692,35.5461,平凉市,聚贤嘉苑,颗粒物(PM10),57,63,56,21,26,104,,100,100,18,20,7,8,0.6,0.6
2024-09-18T2100,2657A,106.7021,35.5307,平凉市,博物馆,颗粒物(PM10),58,66,59,26,23,98,,100,100,32,25,12,12,0.9,0.6
2024-09-18T2100,2347A,114.0997,27.5002,萍乡市,武功山,,47,47,31,9,7,50,,84,76,5,5,8,9,0.4,0.5
2024-09-18T2100,2348A,113.8385,27.6434,萍乡市,中医院,颗粒物(PM10),52,54,42,25,29,39,,97,85,24,10,7,12,0.9,0.9
2024-09-18T2100,2349A,113.8493,27.6253,萍乡市,市政府车库,,50,46,44,35,31,55,,97,87,19,7,10,10,0.9,0.8
2024-09-18T2100,2350A,113.8676,27.6435,萍乡市,市环保局,,50,50,39,33,30,60,,93,85,14,5,9,10,0.6,0.7
2024-09-18T2100,2351A,113.866,27.6198,萍乡市,安源区政府,颗粒物(PM10),60,70,41,35,24,54,,107,94,62,15,18,15,0.7,0.7
2024-09-18T2100,2319A,119.0141,25.4325,莆田市,荔城区仓后路,,32,32,21,12,5,63,,72,71,9,5,7,7,0.7,0.6
2024-09-18T2100,2320A,119.0015,25.4553,莆田市,莆田市监测站,,,38,23,17,6,,,78,77,6,3,8,7,0.5,0.5
2024-09-18T2100,2321A,119.1119,25.4561,莆田市,涵江区六中,,34,34,22,12,6,76,,76,76,8,5,9,8,0.5,0.5
2024-09-18T2100,2322A,119.1013,25.3215,莆田市,秀屿区政府,,36,36,27,11,9,71,,70,70,8,4,7,7,0.4,0.5
2024-09-18T2100,2392A,115.0312,35.7636,濮阳市,环保局,,50,40,37,35,31,93,,116,89,16,15,7,8,0.4,0.5
2024-09-18T2100,2394A,115.0574,35.7609,濮阳市,油田运输公司,,46,46,35,31,28,92,,115,76,13,11,4,5,0.5,0.6
2024-09-18T2100,2395A,115.0866,35.7754,濮阳市,油田物探公司,细颗粒物(PM2.5),59,53,42,42,32,91,,115,76,15,12,4,5,0.4,0.5
2024-09-18T2100,3021A,115,35.7668,濮阳市,濮水河管理处,,45,36,40,31,31,84,,110,84,13,12,5,6,0.5,0.6
2024-09-18T2100,2601A,100.98,22.7633,普洱市,市环保局,,,28,21,16,14,,,60,59,8,6,10,10,0.5,0.5
2024-09-18T2100,2602A,100.9817,22.8322,普洱市,普洱第二中学,,30,30,25,18,10,50,,64,62,5,6,10,9,0.5,0.5
2024-09-18T2100,2262A,131.0518,45.8751,七台河市,新一中,,26,26,18,7,9,64,,101,92,7,8,9,9,1.1,1.1
2024-09-18T2100,3345A,131.0577,45.7879,七台河市,中波台,,29,29,26,3,5,50,,74,63,14,20,6,7,0.6,0.5
2024-09-18T2100,3637A,131.0176,45.7761,七台河市,人民广场,,45,45,28,19,14,44,,76,60,25,20,8,9,0.4,0.3
2024-09-18T2100,3684A,130.8781,45.8222,七台河市,新建矿广场,颗粒物(PM10),57,63,70,28,16,35,,71,62,26,21,8,5,0.6,0.5
2024-09-18T2100,1779A,123.9305,47.3636,齐齐哈尔市,安居小区,,36,36,27,8,8,53,,66,60,13,10,9,11,0.3,0.3
2024-09-18T2100,1780A,123.9488,47.3386,齐齐哈尔市,中心广场,,18,15,19,3,5,56,,63,59,11,11,1,3,0.2,0.3
2024-09-18T2100,1781A,123.9483,47.3227,齐齐哈尔市,农牧车辆厂,,24,24,29,9,5,57,,67,63,9,8,8,9,0.2,0.3
2024-09-18T2100,1783A,123.945,47.2988,齐齐哈尔市,市环境监测站,,26,26,27,6,10,60,,67,64,10,9,8,9,0.2,0.3
2024-09-18T2100,3662A,123.6333,47.2075,齐齐哈尔市,富区青少年活动中心,,23,23,30,3,7,53,,71,64,13,11,5,13,0.4,0.8
2024-09-18T2100,2591A,107.9783,26.5747,黔东南苗族侗族自治州,市环境监测站,,26,25,31,18,23,8,,62,50,46,16,3,3,0.7,0.5
2024-09-18T2100,2881A,107.8908,26.5311,黔东南苗族侗族自治州,凯里学院,,27,27,25,16,20,37,,70,64,19,12,2,2,0.7,0.6
2024-09-18T2100,2593A,107.5228,26.2403,黔南布依族苗族自治州,小围寨,,20,17,17,14,11,60,,65,65,9,8,3,4,0.5,0.5
2024-09-18T2100,3538A,107.5175,26.2978,黔南布依族苗族自治州,沙坝,,36,36,22,22,13,41,,67,64,15,8,4,4,0.6,0.6
2024-09-18T2100,2589A,104.9022,25.0925,黔西南布依族苗族自治州,场坝街,,38,38,20,23,14,62,,71,70,10,12,5,26,0.3,0.3
2024-09-18T2100,2590A,104.8811,25.0992,黔西南布依族苗族自治州,坪东大道,,,38,22,17,12,53,,70,68,,10,9,11,0.3,0.2
2024-09-18T2100,2502A,108.6236,21.9667,钦州市,市环保站,,48,48,36,24,19,77,,87,86,12,9,8,9,0.7,0.7
2024-09-18T2100,2503A,108.6549,21.9481,钦州市,沙埠小学,,40,36,39,28,20,86,,93,93,13,11,5,6,0.9,0.9
2024-09-18T2100,2504A,108.5989,21.7431,钦州市,港区一小,颗粒物(PM10),52,53,53,34,25,64,,82,79,28,16,7,7,0.7,0.7
2024-09-18T2100,3404A,108.5959,21.9633,钦州市,北职校,颗粒物(PM10),52,53,38,33,28,73,,90,88,12,9,6,7,1.0,0.8
2024-09-18T2100,1042A,119.5134,39.8207,秦皇岛市,北戴河环保局,,30,20,22,6,5,93,,99,98,10,12,2,3,0.3,0.3
2024-09-18T2100,1043A,119.7493,40.0116,秦皇岛市,第一关,,44,28,20,26,18,11,,97,76,87,24,2,3,0.3,0.3
2024-09-18T2100,1044A,119.5897,39.9499,秦皇岛市,监测站,,23,20,26,16,17,64,,91,85,22,17,3,3,0.3,0.4
2024-09-18T2100,1046A,119.5251,39.9041,秦皇岛市,建设大厦,,25,25,29,9,8,71,,101,96,17,13,5,4,0.4,0.3
2024-09-18T2100,3132A,119.610547,39.943889,秦皇岛市,文明里,颗粒物(PM10),52,53,32,16,8,64,,102,96,32,15,3,4,0.4,0.4
2024-09-18T2100,1307A,120.6659,36.2403,青岛市,仰口,,24,,12,13,14,74,,70,70,3,2,6,6,0.1,0
2024-09-18T2100,1310A,120.4134,36.0658,青岛市,市南区东部子站,,20,7,10,3,5,62,,71,70,5,3,6,6,0.3,0.3
2024-09-18T2100,1311A,120.3664,36.1032,青岛市,四方区子站,,17,9,8,7,5,52,,52,52,6,6,9,9,0.5,0.5
2024-09-18T2100,1312A,120.2994,36.054,青岛市,市南区西部子站,,18,9,10,3,2,55,,75,72,3,3,7,7,0.6,0.6
2024-09-18T2100,1313A,120.4581,36.0858,青岛市,崂山区子站,,21,19,14,3,3,66,,74,73,9,9,8,8,0.4,0.4
2024-09-18T2100,1314A,120.1983,35.9608,青岛市,黄岛区子站,,19,6,10,3,3,60,,65,65,7,6,8,8,0.4,0.4
2024-09-18T2100,1315A,120.3999,36.3083,青岛市,城阳区子站,,18,,11,10,8,55,,55,53,11,8,6,7,0.5,0.5
2024-09-18T2100,1966A,120.0405,35.8735,青岛市,黄岛区4号,,17,9,9,3,4,54,,62,61,5,4,5,5,0.4,0.4
2024-09-18T2100,3362A,120.5014,36.4034,青岛市,即墨2号,,24,12,13,9,9,75,,68,68,5,5,6,6,0.4,0.4
2024-09-18T2100,3642A,120.3503,36.0736,青岛市,市北区南部,,17,12,12,3,4,54,,53,53,10,8,6,6,0.6,0.7
2024-09-18T2100,3643A,120.3948,36.1805,青岛市,李沧区北部,,14,14,12,9,8,43,,49,44,15,13,8,8,0.5,0.5
2024-09-18T2100,1702A,113.0426,23.691,清远市,环保大楼,,26,26,20,8,13,79,,89,89,9,5,8,8,0.8,0.8
2024-09-18T2100,1703A,113.0208,23.7106,清远市,凤城街办,,27,27,22,17,15,64,,87,85,17,8,8,8,0.7,0.7
2024-09-18T2100,3025A,113.0477,23.6344,清远市,技师学院,,,38,25,18,15,,,77,77,19,5,6,6,0.8,0.6
2024-09-18T2100,3318A,112.9903,23.7403,清远市,清新太和,,20,18,22,10,14,63,,89,85,10,4,6,3,0.7,0.7
2024-09-18T2100,3455A,113.076,23.7198,清远市,清城东城,,21,20,23,14,14,67,,90,88,11,3,3,3,0.5,0.6
2024-09-18T2100,2661A,107.6325,35.7357,庆阳市,庆阳五中,,37,37,40,17,21,94,,108,108,10,8,7,8,0.4,0.5
2024-09-18T2100,2662A,107.6364,35.7067,庆阳市,市环保局,,34,34,36,11,17,94,,107,106,10,9,8,8,0.5,0.5
2024-09-18T2100,1916A,103.7897,25.5035,曲靖市,环境监测站,,34,34,23,12,12,71,,76,76,9,12,3,8,0.4,0.7
2024-09-18T2100,1917A,103.8,25.5364,曲靖市,烟厂办公区,,40,34,24,28,14,74,,76,76,9,13,4,6,0.4,0.8
2024-09-18T2100,3376A,103.7947,25.462,曲靖市,南苑二区,,23,22,21,12,12,73,,78,78,8,10,5,12,0.6,0.7
2024-09-18T2100,3377A,103.7444,25.5261,曲靖市,曲靖师范学院,,,51,20,11,14,,,83,83,8,11,6,14,0.4,0.9
2024-09-18T2100,1264A,118.8692,28.9398,衢州市,环保大楼,,39,39,24,21,11,72,,110,108,21,16,2,2,0.5,0.5
2024-09-18T2100,1265A,118.8709,28.9666,衢州市,实验学校,,39,39,23,18,11,68,,102,102,17,14,6,6,0.5,0.4
2024-09-18T2100,1266A,118.8621,28.9808,衢州市,衢州学院,,34,34,22,14,9,77,,104,104,17,13,6,6,0.4,0.4
2024-09-18T2100,1611A,118.5819,24.9117,泉州市,涂山街,,46,46,24,19,10,60,,84,78,14,6,3,2,0.6,0.5
2024-09-18T2100,1612A,118.5972,24.8978,泉州市,津头埔,,38,38,27,19,10,57,,78,72,17,9,6,4,0.6,0.5
2024-09-18T2100,1613A,118.6663,24.9424,泉州市,万安,,33,33,25,17,11,62,,82,76,9,4,3,2,0.5,0.5
2024-09-18T2100,3529A,118.6333,24.9264,泉州市,城华南路,,41,41,22,28,9,56,,81,73,13,4,5,4,0.4,0.4
2024-09-18T2100,2626A,88.8876,29.2718,日喀则市,日喀则监测站,,19,14,10,3,5,59,,80,78,21,7,4,5,0.5,0.5
2024-09-18T2100,3726A,88.8781,29.2426,日喀则市,林业技术推广中心,,19,16,6,8,4,58,,75,74,8,6,6,5,0.4,0.3
2024-09-18T2100,1659A,119.471,35.4209,日照市,监测站,,,6,6,3,8,,,55,55,9,7,11,10,,0.2
2024-09-18T2100,1660A,119.523,35.4216,日照市,市政府广场,,19,14,11,13,6,55,,61,60,5,5,10,10,0.5,0.4
2024-09-18T2100,1661A,119.5587,35.4044,日照市,港务局,,23,12,12,11,10,72,,71,71,3,5,9,8,0.4,0.4
2024-09-18T2100,3507A,119.5328,35.4625,日照市,职业技术学院,,18,,9,9,8,57,,64,63,6,7,8,8,0.5,0.5
2024-09-18T2100,3604A,119.3266,35.1044,日照市,岚山环保分局,,,12,14,,2,45,,44,44,8,9,9,10,0.5,0.4
2024-09-18T2100,1835A,111.1922,34.7752,三门峡市,市政府,细颗粒物(PM2.5),73,,48,53,42,106,,118,101,10,17,8,11,0.7,0.7
2024-09-18T2100,1836A,111.1587,34.7942,三门峡市,开发区,颗粒物(PM10),51,52,51,31,28,95,,111,94,9,11,9,13,0.8,0.7
2024-09-18T2100,3039A,111.1911,34.7829,三门峡市,三门峡市第一小学,,35,,44,24,23,101,,113,97,9,10,10,12,0.8,0.7
2024-09-18T2100,3598A,111.1,34.7167,三门峡市,富达温泉假日酒店,,36,27,42,25,25,102,,110,96,9,11,7,8,0.5,0.5
2024-09-18T2100,2324A,117.6211,26.2625,三明市,三钢,,28,28,16,8,10,18,,72,56,24,10,5,6,0.2,0.2
2024-09-18T2100,2325A,117.635,26.2714,三明市,三明二中,,14,13,15,3,4,16,,70,54,28,10,1,3,0.5,0.4
2024-09-18T2100,2326A,117.6028,26.2378,三明市,三元区政府,,35,35,21,7,5,15,,71,54,29,16,3,5,0.3,0.3
2024-09-18T2100,1876A,109.5078,18.2489,三亚市,河东子站,,24,24,16,10,8,48,,56,52,4,3,3,4,0.4,0.4
2024-09-18T2100,1877A,109.4964,18.2681,三亚市,河西子站,,17,17,15,8,6,48,,50,49,4,3,3,3,0.2,0.3
2024-09-18T2100,3540A,109.7348,18.3443,三亚市,君悦子站,,14,14,18,8,7,40,,52,45,8,5,3,3,0.4,0.3
2024-09-18T2100,2624A,91.7608,29.2313,山南市,山南监测站,,,13,11,6,6,,,69,69,,5,8,8,0.2,0.3
2024-09-18T2100,2625A,91.7706,29.2436,山南市,山南人民医院,,20,14,28,6,16,64,,71,70,9,8,8,8,0.2,0.3
2024-09-18T2100,1674A,116.6794,23.3667,汕头市,金平子站,,21,20,23,9,7,65,,89,86,6,7,5,6,0.3,0.3
2024-09-18T2100,1675A,116.7244,23.3633,汕头市,龙湖子站,,19,,26,13,10,58,,81,77,2,3,6,7,0.5,0.5
2024-09-18T2100,1676A,116.7258,23.2775,汕头市,濠江子站,,18,16,22,12,9,55,,74,69,4,5,6,6,0.5,0.5
2024-09-18T2100,1677A,116.7519,23.4714,汕头市,澄海子站,,,,25,,7,,,89,89,8,7,,6,0.6,0
2024-09-18T2100,1678A,116.6092,23.2539,汕头市,潮阳子站,,26,26,26,3,3,63,,83,80,1,2,6,6,0.6,0.6
2024-09-18T2100,3444A,116.454,23.2684,汕头市,潮南峡山,,,36,23,11,7,,,87,84,6,3,5,6,0.4,0.6
2024-09-18T2100,3624A,116.4069,23.2533,汕头市,潮南子站,,30,30,33,10,15,62,,86,81,6,8,4,6,0.5,0.5
2024-09-18T2100,1693A,115.3653,22.775,汕尾市,市环保局,,21,21,27,10,17,58,,82,80,4,5,7,7,0.5,0.5
2024-09-18T2100,1694A,115.3706,22.7898,汕尾市,市政府,,24,24,22,6,8,56,,78,76,10,7,8,8,0.4,0.4
2024-09-18T2100,1695A,115.3622,22.7925,汕尾市,新城中学,,18,12,41,10,13,56,,79,77,5,5,7,6,0.6,0.6
2024-09-18T2100,2645A,109.9154,33.8715,商洛市,监测站,,42,42,21,14,11,33,,78,67,20,12,5,5,0.6,0.6
2024-09-18T2100,3045A,109.9643,33.8471,商洛市,商州区中学,,20,20,22,9,9,21,,78,62,27,14,7,6,0.6,0.5
2024-09-18T2100,2408A,115.6702,34.4285,商丘市,环境监测站,,16,10,4,9,5,50,,63,50,6,4,4,4,0.5,0.5
2024-09-18T2100,2409A,115.6458,34.4045,商丘市,粮食局,,18,13,5,3,4,55,,71,55,4,3,7,7,0.4,0.4
2024-09-18T2100,2410A,115.6293,34.3948,商丘市,睢阳区环保局,,15,11,5,9,5,48,,65,48,4,3,6,6,0.4,0.5
2024-09-18T2100,3171A,115.6071,34.4465,商丘市,梁园区档案局,,17,12,5,9,6,52,,67,53,6,3,7,7,0.4,0.4
2024-09-18T2100,1141A,121.4,31.238,上海市,普陀,,27,27,24,9,9,24,,49,38,12,11,6,6,0.5,0.5
2024-09-18T2100,1142A,121.478,31.2036,上海市,十五厂,,28,28,25,16,8,30,,51,42,12,13,8,9,0.4,0.4
2024-09-18T2100,1143A,121.467,31.3008,上海市,虹口,,25,25,24,12,11,22,,46,36,18,14,9,10,0.6,0.5
2024-09-18T2100,1144A,121.412,31.1654,上海市,徐汇上师大,,26,26,27,12,11,30,,49,41,14,15,6,6,0.7,0.6
2024-09-18T2100,1145A,121.536,31.2659,上海市,杨浦四漂,,26,26,26,10,10,26,,48,38,16,19,6,6,0.3,0.3
2024-09-18T2100,1147A,121.425,31.2261,上海市,静安监测站,,25,25,23,11,10,29,,50,41,10,12,6,7,0.4,0.4
2024-09-18T2100,1148A,121.703,31.1907,上海市,浦东川沙,,28,28,23,7,8,30,,51,45,14,15,6,7,0.5,0.5
2024-09-18T2100,1149A,121.533,31.2284,上海市,浦东新区监测站,,24,24,22,10,12,31,,46,41,10,15,6,7,0.4,0.4
2024-09-18T2100,1150A,121.577,31.2071,上海市,浦东张江,,27,27,24,8,10,27,,39,36,11,15,6,6,0.8,0.8
2024-09-18T2100,3265A,121.4316,31.3322,上海市,宝山庙行,,28,28,25,9,10,19,,48,33,23,16,9,9,0.5,0.5
2024-09-18T2100,3266A,121.8791,31.4662,上海市,崇明上实东滩,,19,19,11,3,5,37,,52,49,4,5,9,10,0.4,0.4
2024-09-18T2100,3268A,121.3162,31.2838,上海市,嘉定南翔,,24,24,22,9,9,24,,50,38,16,15,7,7,0.7,0.7
2024-09-18T2100,3269A,121.3359,30.7456,上海市,金山新城,,28,28,24,10,11,20,,51,41,19,10,5,6,0.4,0.3
2024-09-18T2100,3270A,121.4996,31.0739,上海市,闵行浦江,,24,24,64,12,12,28,,47,40,14,11,7,7,0.5,0.6
2024-09-18T2100,3271A,121.2886,31.1663,上海市,青浦徐泾,,25,25,24,12,10,30,,57,44,11,12,7,7,0.4,0.5
2024-09-18T2100,3272A,121.2186,31.0378,上海市,松江图书馆,,22,22,21,6,8,24,,48,,15,12,5,4,0.4,0.4
2024-09-18T2100,3273A,121.3902,31.2059,上海市,长宁仙霞,,27,27,24,10,10,31,,52,44,12,12,8,9,0.7,0.7
2024-09-18T2100,3274A,121.7965,31.0507,上海市,浦东惠南,,21,21,14,9,10,25,,52,46,21,12,8,8,0.7,0.6
2024-09-18T2100,3544A,121.4891,30.925,上海市,奉贤南桥新城,,,26,22,8,9,,,51,45,14,13,9,9,0.4,0.4
2024-09-18T2100,2381A,118.005,28.4572,上饶市,百草园,,29,27,17,19,10,92,,97,97,12,9,14,3,0.8,0.7
2024-09-18T2100,2382A,117.9756,28.4436,上饶市,市监测站,,29,29,20,9,6,90,,100,98,12,9,14,6,0.5,0.6
2024-09-18T2100,2383A,117.9519,28.4628,上饶市,凤凰光学,,28,28,19,11,7,88,,94,91,11,10,6,14,0.8,0.8
2024-09-18T2100,3413A,118.1953,28.4401,上饶市,广丰区教体局,,34,27,17,15,9,108,,102,102,10,10,12,13,0.9,0.8
2024-09-18T2100,3685A,117.897,28.4315,上饶市,双创科技城,,,18,24,,8,,,92,91,9,12,6,12,0.4,0.5
2024-09-18T2100,1669A,113.5824,24.7733,韶关市,市八中,,33,33,33,13,18,52,,71,68,10,4,14,11,0.5,0.6
2024-09-18T2100,1671A,113.5917,24.7972,韶关市,园林处,,20,20,23,13,20,56,,76,74,14,3,10,10,0.5,0.5
2024-09-18T2100,1672A,113.6735,24.7791,韶关市,韶关学院,,30,23,25,21,19,38,,71,63,12,7,22,11,0.4,0.4
2024-09-18T2100,1673A,113.5971,24.6863,韶关市,曲江监测站,,31,31,28,17,18,40,,74,67,11,5,9,11,0.8,0.9
2024-09-18T2100,3622A,113.5556,24.8082,韶关市,碧湖山庄,细颗粒物(PM2.5),54,51,29,38,20,52,,74,72,10,3,9,9,0.5,0.5
2024-09-18T2100,2462A,111.5239,27.3033,邵阳市,市水土所,,46,37,35,32,23,72,,118,103,6,4,8,9,0.9,0.8
2024-09-18T2100,2463A,111.4733,27.2317,邵阳市,市一中,,,63,46,38,30,,,124,116,11,8,8,8,0.7,0.6
2024-09-18T2100,2464A,111.5283,27.2442,邵阳市,市化工厂,细颗粒物(PM2.5),59,60,40,42,26,91,,125,113,14,10,9,7,0.8,0.6
2024-09-18T2100,2465A,111.4503,27.2537,邵阳市,市罐头厂,,50,50,44,34,30,100,,119,110,9,7,6,7,0.7,0.6
2024-09-18T2100,2466A,111.4328,27.2272,邵阳市,市环保局,细颗粒物(PM2.5),52,,39,36,27,104,,120,113,6,5,5,5,0.6,0.6
2024-09-18T2100,1247A,120.6053,29.9928,绍兴市,城东开发委,,32,29,21,22,11,18,,75,51,21,11,7,7,0.5,0.4
2024-09-18T2100,2921A,120.5483,30.0003,绍兴市,树下王站,,29,29,22,13,10,25,,81,56,13,6,4,4,0.5,0.4
2024-09-18T2100,3408A,120.5683,29.9361,绍兴市,绍兴中专,,24,24,20,14,11,14,,83,57,21,10,3,3,0.5,0.5
