timepoint,stationcode,longitude,latitude,area,positionname,primarypollutant,aqi,pm10,pm10_24h,pm2_5,pm2_5_24h,o3,o3_24h,o3_8h,o3_8h_24h,no2,no2_24h,so2,so2_24h,co,co_24h
2024-09-18T1300,2566A,102.1879,31.914,阿坝藏族羌族自治州,州农科所,,50,50,18,8,7,72,,41,41,11,15,6,7,0,0
2024-09-18T1300,2568A,102.2502,31.8896,阿坝藏族羌族自治州,马师校,,,10,15,7,8,65,,35,35,,9,4,4,0.4,0.4
2024-09-18T1300,3994A,102.2165,31.9024,阿坝藏族羌族自治州,马尔康中学西区,,23,12,16,6,13,71,,38,38,6,8,5,5,0.4,0.4
2024-09-18T1300,2695A,80.292,41.1694,阿克苏地区,电视台,,42,42,153,14,47,120,,114,114,9,20,3,3,0.4,0.6
2024-09-18T1300,2696A,80.2613,41.1551,阿克苏地区,艺术中心,,38,29,138,17,44,119,,111,111,8,23,3,4,0.4,0.7
2024-09-18T1300,2204A,105.6467,38.8363,阿拉善盟,西城区西花园,,45,45,70,21,35,116,,72,72,10,14,10,9,1.3,1.4
2024-09-18T1300,2205A,105.6985,38.8411,阿拉善盟,蒙二幼,,34,34,41,16,23,92,,57,57,10,16,11,11,0.8,1
2024-09-18T1300,2206A,105.724,38.8516,阿拉善盟,环保局新楼,,30,26,27,19,21,96,,73,73,9,11,8,8,0.6,0.6
2024-09-18T1300,2708A,88.1264,47.8517,阿勒泰地区,市站,,32,32,33,3,8,53,,46,42,6,10,7,7,0.3,0.4
2024-09-18T1300,2630A,80.1161,32.5,阿里地区,阿里监测站,,34,6,4,3,2,107,,102,88,9,10,8,8,0.3,0.3
2024-09-18T1300,3192A,80.0903,32.5028,阿里地区,阿里藏医院,,35,13,7,3,1,109,,114,100,7,5,6,6,0.3,0.2
2024-09-18T1300,2642A,109.0318,32.6537,安康市,香溪洞,颗粒物(PM10),67,84,30,13,11,85,,52,52,4,6,8,8,0.3,0.3
2024-09-18T1300,2643A,109.0281,32.6939,安康市,安康市监测站,,25,14,20,8,10,77,,46,46,4,7,8,11,0.4,0.6
2024-09-18T1300,2644A,109.0072,32.6975,安康市,汉滨区检察院,,25,11,15,9,8,78,,47,47,4,7,10,8,0.4,0.4
2024-09-18T1300,2291A,117.0809,30.5177,安庆市,环科院,,43,42,35,25,25,135,,81,81,7,13,7,8,1.0,0.9
2024-09-18T1300,2292A,117.0331,30.5119,安庆市,马山宾馆,颗粒物(PM10),60,69,32,33,25,144,,88,88,8,11,8,9,0.6,0.6
2024-09-18T1300,2294A,116.9896,30.6145,安庆市,安庆大学,,42,31,27,29,19,120,,79,79,7,8,9,9,0.7,0.5
2024-09-18T1300,3173A,117.0598,30.5351,安庆市,市人大,,45,33,33,29,24,142,,86,86,7,9,8,10,0.9,0.9
2024-09-18T1300,3123A,105.9408,26.2431,安顺市,凤凰山,,25,17,26,12,23,79,,60,60,3,6,9,11,0.4,0.5
2024-09-18T1300,3124A,105.9439,26.2564,安顺市,金钟山,,25,21,27,13,22,77,,56,56,2,5,7,9,0.6,0.6
2024-09-18T1300,3125A,105.8983,26.2481,安顺市,娄家坡,,24,16,25,14,21,76,,57,57,3,6,7,8,0.5,0.6
2024-09-18T1300,1819A,114.3551,36.1017,安阳市,红庙街,,50,40,53,35,30,139,,128,128,19,16,5,6,1.1,0.8
2024-09-18T1300,1820A,114.361,36.0681,安阳市,银杏小区,,,41,51,,,140,,131,131,19,14,4,5,1.3,1
2024-09-18T1300,3141A,114.3922,36.0878,安阳市,信访局,,49,40,50,29,30,154,,141,140,22,18,5,5,1.1,0.8
2024-09-18T1300,3669A,114.4705,36.0637,安阳市,左辅环卫站,,,60,62,36,33,141,,139,131,18,14,4,3,,1.1
2024-09-18T1300,3703A,114.2917,36.0949,安阳市,安钢职工学校,细颗粒物(PM2.5),73,,56,53,43,136,,125,123,29,23,15,12,2.3,1.4
2024-09-18T1300,1748A,123.044,41.1196,鞍山市,深沟寺,,41,41,78,17,52,88,,30,30,29,37,14,10,0.9,1.2
2024-09-18T1300,1749A,123.011,41.0931,鞍山市,太阳城,,30,30,75,17,45,83,,27,27,28,37,18,12,0.9,1.1
2024-09-18T1300,1750A,123.0485,41.1442,鞍山市,太平,,37,37,106,17,58,89,,32,32,31,45,14,17,1.0,1.3
2024-09-18T1300,1751A,122.9642,41.0971,鞍山市,铁西三道街,,40,40,92,17,58,87,,37,37,28,43,12,24,1.0,1.4
2024-09-18T1300,1752A,122.9341,41.0833,鞍山市,铁西工业园区,,39,39,98,17,60,81,,34,34,40,48,22,27,1.6,1.9
2024-09-18T1300,1753A,123.022,41.0821,鞍山市,明达新区,,30,30,77,13,38,83,,28,28,21,39,17,14,0.8,1.1
2024-09-18T1300,2195A,107.4212,40.761,巴彦淖尔市,附二中,细颗粒物(PM2.5),64,63,32,46,23,61,,40,40,7,10,5,5,0.8,0.7
2024-09-18T1300,2196A,107.37,40.7372,巴彦淖尔市,市环保大楼,颗粒物(PM10),80,109,58,41,20,76,,44,44,8,10,4,4,0.9,0.7
2024-09-18T1300,1956A,86.1472,41.7538,巴音郭楞蒙古自治州,孔雀公园,颗粒物(PM10),73,96,138,23,35,92,,76,76,14,27,7,8,0.3,0.4
2024-09-18T1300,1957A,86.1972,41.7166,巴音郭楞蒙古自治州,棉纺厂,颗粒物(PM10),73,95,156,36,42,98,,63,63,8,31,8,9,0.3,0.3
2024-09-18T1300,1958A,86.2357,41.7173,巴音郭楞蒙古自治州,经济开发区,颗粒物(PM10),77,103,144,25,40,100,,83,83,6,13,8,10,0.2,0.2
2024-09-18T1300,2914A,106.7677,31.8794,巴中市,苏山坪,,30,30,25,21,18,78,,82,61,9,9,3,4,0.5,0.5
2024-09-18T1300,3182A,106.7656,31.8545,巴中市,丽阳花园,,43,38,31,30,23,82,,47,47,12,16,5,5,0.6,0.6
2024-09-18T1300,3183A,106.7418,31.8654,巴中市,圣泉水务公司,,36,29,27,25,22,70,,52,45,12,12,4,4,0.6,0.6
2024-09-18T1300,3616A,106.7616,31.8344,巴中市,市中心医院,,39,39,32,14,24,79,,39,39,16,17,5,5,0.7,0.6
2024-09-18T1300,2235A,122.7911,45.6077,白城市,洮北区环保局,,27,10,16,6,6,85,,50,50,4,7,5,4,0.3,0.1
2024-09-18T1300,2236A,122.8738,45.5725,白城市,市环保局,,29,22,34,3,8,91,,50,50,10,18,6,5,0.2,0.3
2024-09-18T1300,2231A,126.4219,41.9171,白山市,喜丰,,29,29,34,13,14,40,,19,19,26,14,16,9,0.7,0.7
2024-09-18T1300,2232A,126.4077,41.9419,白山市,环保局,,30,30,32,16,15,25,,16,16,38,21,14,10,0.5,0.6
2024-09-18T1300,2647A,104.1724,36.5446,白银市,第三小学,细颗粒物(PM2.5),58,63,46,41,30,73,,34,34,19,20,71,56,0.9,1
2024-09-18T1300,2648A,104.1465,36.5482,白银市,动力公司,,49,49,36,13,19,79,,30,30,11,14,21,30,0.9,1
2024-09-18T1300,2512A,106.6103,23.9011,百色市,市监测站,,22,21,26,10,13,70,,31,31,4,7,4,4,0.6,0.6
2024-09-18T1300,2513A,106.6538,23.8859,百色市,市中心血站,,24,24,32,12,12,68,,32,32,7,12,4,3,0.7,0.8
2024-09-18T1300,3406A,106.6085,23.8798,百色市,祈福高中,,41,41,33,11,13,67,,30,30,5,8,4,3,0.5,0.5
2024-09-18T1300,2270A,117.396,32.939,蚌埠市,工人疗养院,,41,41,24,12,6,71,,42,34,10,8,8,6,0.2,0.3
2024-09-18T1300,2271A,117.3605,32.9427,蚌埠市,百货大楼,,38,38,21,10,8,66,,39,29,5,6,7,6,0.3,0.4
2024-09-18T1300,2273A,117.4185,32.8911,蚌埠市,蚌埠学院,,29,29,16,11,8,73,,47,42,4,8,6,6,0.3,0.4
2024-09-18T1300,2274A,117.3533,32.9673,蚌埠市,淮上区政府,,39,39,19,17,10,70,,42,34,7,8,7,7,0.3,0.4
2024-09-18T1300,2275A,117.3145,32.8977,蚌埠市,高新区,,24,24,16,11,7,69,,47,35,3,6,6,6,0.4,0.5
2024-09-18T1300,3715A,117.3092,32.9314,蚌埠市,蚌埠田家炳中学,,33,33,21,9,7,69,,42,30,2,5,5,5,0.4,0.5
2024-09-18T1300,1585A,109.8756,40.6532,包头市,市环境监测站,,45,37,34,31,27,84,,34,34,23,34,22,11,1.2,1.2
2024-09-18T1300,1587A,109.9991,40.5842,包头市,包头八中,,48,48,43,24,33,92,,42,42,16,33,16,13,1.0,1.3
2024-09-18T1300,1588A,109.8538,40.6821,包头市,青山宾馆,,44,44,29,30,22,83,,34,34,22,26,24,8,1.4,1.3
2024-09-18T1300,1589A,109.8642,40.6288,包头市,惠龙物流,,50,39,37,35,27,88,,41,41,15,27,14,12,1.0,1.2
2024-09-18T1300,1590A,110.0377,40.5546,包头市,东河鸿龙湾,,35,35,33,24,24,88,,53,53,13,20,14,14,1.0,1
2024-09-18T1300,3283A,109.9154,40.5685,包头市,滨河大厦,,,39,34,30,25,85,,25,,,26,10,11,1.2,1.1
2024-09-18T1300,3419A,109.9447,40.6261,包头市,包头市委党校,细颗粒物(PM2.5),52,51,33,36,29,86,,36,36,19,34,14,6,1.2,1.3
2024-09-18T1300,3683A,109.8331,40.6576,包头市,昆区政府,,45,45,35,31,23,83,,37,37,19,26,17,9,1.2,1.3
2024-09-18T1300,1930A,107.185,34.3063,宝鸡市,庙沟村,颗粒物(PM10),52,54,56,34,30,110,,76,76,8,8,8,9,0.6,0.4
2024-09-18T1300,1931A,107.0708,34.3017,宝鸡市,竹园沟,颗粒物(PM10),57,64,47,37,31,106,,54,54,8,13,8,9,0.6,0.6
2024-09-18T1300,1932A,107.1906,34.3672,宝鸡市,三陆医院,颗粒物(PM10),58,66,67,38,38,137,,53,53,16,23,9,8,0.7,0.7
2024-09-18T1300,1933A,107.1431,34.3547,宝鸡市,监测站,颗粒物(PM10),59,67,58,34,34,121,,50,50,12,17,9,7,0.8,0.8
2024-09-18T1300,1934A,107.1186,34.3739,宝鸡市,技工学校,颗粒物(PM10),63,76,60,33,45,131,,56,56,17,17,10,9,0.7,0.7
2024-09-18T1300,1935A,107.3906,34.3528,宝鸡市,陈仓区环保局家属楼,颗粒物(PM10),56,61,64,21,32,141,,60,60,12,21,12,10,0.7,0.8
2024-09-18T1300,1936A,107.2058,34.3497,宝鸡市,文理学院,颗粒物(PM10),55,59,59,34,34,135,,59,59,13,18,13,11,0.6,0.7
2024-09-18T1300,1937A,107.2386,34.3622,宝鸡市,三迪小学,,42,42,65,23,35,134,,59,59,15,24,10,9,0.7,0.7
2024-09-18T1300,1051A,115.493,38.8632,保定市,游泳馆,,49,41,49,20,30,155,,157,137,8,10,7,6,0.4,0.6
2024-09-18T1300,1052A,115.5213,38.8959,保定市,华电二区,,46,43,57,15,32,145,,115,115,5,11,4,4,0.3,0.5
2024-09-18T1300,1053A,115.4713,38.9108,保定市,接待中心,,46,32,51,18,36,146,,126,121,8,10,4,4,0.2,0.7
2024-09-18T1300,1054A,115.4612,38.8416,保定市,地表水厂,,48,44,56,19,27,153,,151,135,8,8,4,3,0.3,0.5
2024-09-18T1300,3581A,115.31981,38.95208,保定市,满城区生态环境分局,臭氧1小时,78,61,66,29,33,182,,137,137,11,16,6,5,0.8,0.6
2024-09-18T1300,3582A,115.47694,38.76408,保定市,清苑区第二中学,细颗粒物(PM2.5),123,,73,93,39,131,,146,121,5,9,3,3,0.6,0.7
2024-09-18T1300,3583A,115.62909,39.02311,保定市,徐水物探局,,46,39,58,17,32,146,,129,120,7,13,6,5,0.7,0.8
2024-09-18T1300,4004A,115.4202,38.8656,保定市,双鹰农机,臭氧1小时,57,40,51,15,23,165,,142,140,11,12,3,3,0.6,0.7
2024-09-18T1300,4034A,115.5150,38.8590,保定市,植保所站,,48,36,57,30,32,151,,146,134,6,11,3,5,0.7,0.8
2024-09-18T1300,2594A,99.1678,25.1081,保山市,市环境监测站,,28,28,29,3,15,78,,46,46,5,6,5,6,0.4,0.5
2024-09-18T1300,2595A,99.1711,25.1328,保山市,市环保局,,28,28,30,10,11,83,,54,54,4,5,6,5,0.4,0.4
2024-09-18T1300,1867A,109.1436,21.4086,北海市,海滩公园,,34,34,19,17,10,80,,57,57,5,5,6,5,0.6,0.6
2024-09-18T1300,1868A,109.0981,21.4661,北海市,新市环保局,,36,36,19,22,13,87,,56,56,6,5,4,4,0.8,0.7
2024-09-18T1300,1869A,109.1778,21.5233,北海市,北海工业园,,29,29,21,20,14,81,,51,51,6,7,5,5,0.6,0.5
2024-09-18T1300,3400A,109.1911,21.4415,北海市,龙潭自来水厂,,33,23,21,23,14,75,,48,48,3,4,7,6,0.6,0.6
2024-09-18T1300,1001A,116.3621,39.8784,北京市,万寿西宫,,41,35,37,18,22,131,,95,95,14,16,5,4,1.0,0.7
2024-09-18T1300,1002A,116.2202,40.2915,北京市,定陵,,29,29,24,20,16,70,,43,43,5,3,11,7,0.9,0.5
2024-09-18T1300,1003A,116.4174,39.9289,北京市,东四,,43,32,38,15,20,135,,95,95,11,17,9,7,0.8,0.7
2024-09-18T1300,1004A,116.4072,39.8863,北京市,天坛,,42,23,34,13,20,134,,88,88,8,17,3,3,0.7,0.7
2024-09-18T1300,1005A,116.462,39.9365,北京市,农展馆,,39,26,36,13,20,124,,76,76,10,21,8,7,0.6,0.6
2024-09-18T1300,1006A,116.3392,39.9295,北京市,官园,颗粒物(PM10),56,61,36,29,20,95,,79,79,22,16,9,8,0.9,0.6
2024-09-18T1300,1007A,116.2878,39.9611,北京市,海淀万柳,颗粒物(PM10),58,65,34,30,16,72,,39,39,22,18,4,4,0.8,0.5
2024-09-18T1300,1008A,116.6636,40.135,北京市,顺义新城,,36,36,36,20,20,97,,65,65,7,10,5,3,0.7,0.5
2024-09-18T1300,1009A,116.6275,40.3275,北京市,怀柔镇,,27,,5,17,12,86,,45,45,9,12,3,3,0.7,0.3
2024-09-18T1300,1010A,116.2296,40.217,北京市,昌平镇,,40,40,30,19,15,70,,58,58,11,11,8,5,0.8,0.5
2024-09-18T1300,1011A,116.3966,39.9821,北京市,奥体中心,颗粒物(PM10),54,57,33,27,16,91,,69,69,23,20,6,4,1.1,0.7
2024-09-18T1300,1012A,116.184,39.9136,北京市,古城,颗粒物(PM10),56,61,37,31,17,90,,52,52,21,16,5,4,1.1,0.7
2024-09-18T1300,3281A,115.9718,40.4529,北京市,延庆夏都,,35,35,20,18,10,90,,80,80,4,4,3,3,0.9,0.5
2024-09-18T1300,3417A,117.0709,40.1465,北京市,平谷新城,,45,35,37,18,21,141,,71,71,4,7,6,2,0.9,0.7
2024-09-18T1300,3418A,116.8336,40.4095,北京市,密云新城,,33,33,22,19,11,77,,46,46,4,5,2,2,0.6,0.5
2024-09-18T1300,3671A,116.088,39.9726,北京市,门头沟三家店,颗粒物(PM10),55,59,34,33,18,59,,37,37,18,14,6,5,0.8,0.5
2024-09-18T1300,3672A,116.1541,39.8204,北京市,丰台云岗,颗粒物(PM10),54,57,39,30,18,96,,57,57,18,18,6,4,1.0,0.6
2024-09-18T1300,3673A,116.6804,39.9081,北京市,通州东关,,45,30,50,14,24,144,,93,93,6,14,5,4,0.8,0.8
2024-09-18T1300,3674A,115.9577,39.7603,北京市,房山燕山,颗粒物(PM10),55,60,44,35,27,126,,79,79,14,11,1,3,0.9,0.6
2024-09-18T1300,3675A,116.4672,39.7733,北京市,大兴旧宫,,42,27,46,13,27,133,,91,91,6,15,2,3,0.7,0.9
2024-09-18T1300,3694A,115.986,40.4563,北京市,延庆石河营,,31,31,18,16,9,83,,74,74,4,4,1,3,0.9,0.4
2024-09-18T1300,3695A,116.6151,40.3053,北京市,怀柔新城,,33,33,21,16,11,80,,48,48,6,7,2,2,0.6,0.5
2024-09-18T1300,3696A,116.2545,39.8768,北京市,丰台小屯,颗粒物(PM10),52,54,35,27,18,81,,69,69,19,13,2,2,0.9,0.7
2024-09-18T1300,3697A,116.84,40.3844,北京市,密云镇,,26,26,24,16,13,74,,37,37,4,11,4,4,0.6,0.4
2024-09-18T1300,1761A,123.8275,41.3064,本溪市,大峪,,31,31,41,9,15,74,,27,27,13,25,9,9,0.9,1
2024-09-18T1300,1762A,123.7567,41.3325,本溪市,溪湖,,32,32,48,9,17,72,,27,27,14,24,7,7,0.6,1
2024-09-18T1300,1763A,123.7169,41.3094,本溪市,彩屯,,22,21,38,9,20,68,,27,27,23,32,10,9,0.7,1.2
2024-09-18T1300,1764A,123.7669,41.2864,本溪市,东明,,33,33,44,11,16,71,,34,34,21,30,7,7,0.7,0.9
2024-09-18T1300,1765A,123.7992,41.2664,本溪市,新立屯,,,32,26,3,10,74,,42,42,,28,52,7,0.7,0.7
2024-09-18T1300,1766A,123.8142,41.3472,本溪市,威宁,,30,30,45,9,20,66,,24,24,14,23,9,8,0.7,1
2024-09-18T1300,2587A,105.2864,27.3125,毕节市,八中,,25,17,23,12,17,77,,38,38,9,10,8,6,0.4,0.4
2024-09-18T1300,2588A,105.31,27.2944,毕节市,师专,,25,18,23,14,19,78,,41,41,10,11,16,8,0.4,0.5
2024-09-18T1300,3537A,105.3631,27.3533,毕节市,长征村,,26,19,36,15,30,82,,37,37,5,9,7,7,0.5,0.5
2024-09-18T1300,1629A,118.0018,37.3617,滨州市,第二水厂,,32,24,33,22,21,71,,112,78,4,8,6,7,0.7,0.9
2024-09-18T1300,1630A,117.9776,37.393,滨州市,北中新校,,42,39,40,29,21,81,,118,84,1,3,7,8,0.7,0.9
2024-09-18T1300,3514A,117.9378,37.3956,滨州市,中海酒店,,36,36,38,19,21,92,,125,95,9,12,5,8,0.6,0.8
2024-09-18T1300,3515A,117.9378,37.3553,滨州市,开发区一中,,39,34,39,27,21,80,,118,84,9,11,10,9,0.5,0.7
2024-09-18T1300,3516A,118.0917,37.694,滨州市,金海六路,,39,39,36,17,15,112,,122,110,6,10,2,4,0.5,0.7
2024-09-18T1300,4028A,117.9956,37.3753,滨州市,滨州市西街道办事处,,35,27,34,24,22,76,,124,86,3,6,6,7,0.6,0.9
2024-09-18T1300,2311A,115.8072,33.8399,亳州市,污水处理厂,,18,11,5,11,7,57,,61,57,10,7,2,2,0.6,0.6
2024-09-18T1300,2312A,115.7789,33.8518,亳州市,三国揽胜宫,,18,15,7,12,3,54,,55,52,4,4,1,2,0.6,0.5
2024-09-18T1300,3332A,115.7633,33.8034,亳州市,亳州学院,,18,,6,11,6,56,,56,52,6,5,1,1,0.6,0.6
2024-09-18T1300,2693A,82.0485,44.8556,博尔塔拉蒙古自治州,市党校,颗粒物(PM10),53,55,52,17,18,75,,75,72,10,10,5,5,0.3,0.3
2024-09-18T1300,2694A,82.0806,44.8969,博尔塔拉蒙古自治州,市环保局,颗粒物(PM10),52,54,60,15,14,72,,67,67,7,7,4,5,0.3,0.4
2024-09-18T1300,1071A,116.8842,38.2991,沧州市,沧县城建局,,26,22,43,6,21,82,,91,76,11,12,2,4,0.5,0.7
2024-09-18T1300,1072A,116.8584,38.3254,沧州市,电视转播站,,28,20,41,19,24,77,,93,75,13,12,6,7,0.5,0.7
2024-09-18T1300,1073A,116.8709,38.3228,沧州市,市环保局,,27,27,43,18,29,77,,82,71,8,10,4,5,0.4,0.6
2024-09-18T1300,3324A,116.8136,38.3004,沧州市,河北水利电力学院,,28,22,42,19,28,77,,101,80,13,10,6,8,0.3,0.6
2024-09-18T1300,2622A,97.1806,31.1273,昌都市,昌都监测站,,18,8,10,3,5,57,,30,30,2,7,7,6,0.5,0.5
2024-09-18T1300,3719A,97.1714,31.1406,昌都市,昌都会议中心,,20,6,11,3,5,64,,35,35,7,16,8,8,0.4,0.5
2024-09-18T1300,2690A,88.1236,43.8886,昌吉回族自治州,天山天池,,21,16,18,3,8,65,,57,57,8,6,12,11,0.5,0.5
2024-09-18T1300,2692A,87.2717,44.0297,昌吉回族自治州,新区政务中心,,33,33,32,15,15,62,,43,43,7,17,9,6,0.6,0.5
2024-09-18T1300,3613A,87.3095,44.0142,昌吉回族自治州,亚心广场,,46,46,31,3,6,63,,52,52,12,23,6,4,0.4,0.5
2024-09-18T1300,1119A,125.3325,43.9166,长春市,食品厂,,26,21,62,3,26,82,,44,44,14,41,5,6,0.3,0.7
2024-09-18T1300,1120A,125.2863,43.9027,长春市,客车厂,,26,10,43,3,22,82,,45,45,10,36,6,6,0.3,0.6
2024-09-18T1300,1121A,125.2841,43.8463,长春市,邮电学院,,28,20,36,9,18,89,,42,42,8,25,7,7,0.3,0.5
2024-09-18T1300,1122A,125.3716,43.8772,长春市,劳动公园,,31,11,44,6,22,98,,46,46,8,33,9,9,0.4,0.7
2024-09-18T1300,1123A,125.3297,43.8805,长春市,园林处,,26,,37,11,20,83,,38,38,6,28,4,5,0.2,0.5
2024-09-18T1300,1124A,125.4605,43.79,长春市,净月潭,,30,23,35,9,20,95,,40,40,10,16,6,6,0.3,0.5
2024-09-18T1300,1126A,125.3863,43.8447,长春市,经开区环卫处,,29,17,42,7,19,92,,35,35,9,29,8,8,0.4,0.8
2024-09-18T1300,1127A,125.245,43.7783,长春市,高新区管委会,,28,11,32,3,15,88,,45,45,5,23,5,5,0.2,0.4
2024-09-18T1300,1128A,125.1761,43.8325,长春市,岱山公园,,25,12,32,12,18,80,,42,42,5,27,3,4,0.2,0.4
2024-09-18T1300,1335A,113.0833,28.2325,长沙市,经开区环保局,,38,38,55,12,32,117,,95,95,6,14,2,3,0.4,0.6
2024-09-18T1300,1336A,112.8872,28.2189,长沙市,高开区环保局,颗粒物(PM10),55,60,62,34,37,148,,112,112,4,9,4,5,0.5,0.5
2024-09-18T1300,1337A,113.0792,28.2053,长沙市,马坡岭,,38,35,55,21,38,121,,100,100,3,11,4,5,0.4,0.6
2024-09-18T1300,1338A,112.9394,28.19,长沙市,湖南师范大学,颗粒物(PM10),56,62,65,25,40,150,,114,114,4,6,8,8,0.5,0.6
2024-09-18T1300,1339A,113.0178,28.1322,长沙市,雨花区环保局,颗粒物(PM10),51,52,56,30,31,148,,104,104,7,11,5,6,0.5,0.6
2024-09-18T1300,1340A,112.9792,28.2597,长沙市,伍家岭,颗粒物(PM10),58,65,65,23,40,134,,100,100,2,6,3,3,0.7,0.8
2024-09-18T1300,1341A,113.0014,28.1944,长沙市,火车新站,颗粒物(PM10),54,57,60,31,40,143,,106,106,5,8,5,5,0.6,0.6
2024-09-18T1300,1342A,112.9844,28.1178,长沙市,天心区环保局,颗粒物(PM10),54,58,61,16,26,147,,102,102,7,10,5,4,0.6,0.6
2024-09-18T1300,1343A,112.8908,28.1308,长沙市,湖南中医药大学,臭氧1小时,59,59,63,32,43,167,,121,121,4,8,7,8,0.8,0.8
2024-09-18T1300,1344A,112.9581,28.3611,长沙市,沙坪,,41,26,53,15,31,131,,108,99,7,10,2,13,0.6,1.3
2024-09-18T1300,1727A,113.1147,36.1547,长治市,清华站,,35,13,33,7,23,110,,130,113,5,8,6,8,0.7,0.9
2024-09-18T1300,1728A,113.1031,36.1989,长治市,监测站,,32,22,36,14,25,101,,133,112,10,11,8,10,0.9,1.1
2024-09-18T1300,1730A,113.0886,36.2125,长治市,审计局,,33,21,36,19,27,105,,134,118,7,9,5,8,0.5,0.7
2024-09-18T1300,1731A,113.0844,36.1856,长治市,长治八中,,33,27,39,22,24,104,,134,115,6,8,6,8,0.7,0.9
2024-09-18T1300,2845A,113.1569,36.1911,长治市,德盛苑,,34,14,34,7,24,106,,127,114,4,6,4,6,0.7,0.9
2024-09-18T1300,3568A,113.06,36.0464,长治市,向阳小学,,36,28,58,24,43,114,,104,104,7,10,5,7,0.5,0.8
2024-09-18T1300,3569A,112.8792,36.3144,长治市,屯留一中,细颗粒物(PM2.5),55,52,64,39,49,96,,108,94,16,16,17,18,1.3,1.5
2024-09-18T1300,3570A,113.235,36.3489,长治市,潞城四中,细颗粒物(PM2.5),54,38,46,38,38,119,,148,136,14,10,7,7,0.9,1.2
2024-09-18T1300,1854A,111.6975,28.9703,常德市,市二中,,43,41,51,30,36,132,,83,83,4,10,11,11,0.6,0.7
2024-09-18T1300,3138A,111.7153,29.0289,常德市,武陵区永安,,41,37,51,21,33,130,,88,88,5,10,10,10,0.6,0.7
2024-09-18T1300,3139A,111.6892,28.9881,常德市,鼎城区玉霞,,42,37,53,18,31,134,,81,81,4,9,10,12,0.6,0.7
2024-09-18T1300,3140A,111.6625,29.0531,常德市,武陵区长庚,,42,40,50,20,34,133,,84,84,7,11,12,11,0.5,0.5
2024-09-18T1300,1196A,119.9633,31.762,常州市,市监测站,,34,33,22,11,10,108,,48,48,7,11,7,7,0.6,0.5
2024-09-18T1300,1200A,119.9468,31.7069,常州市,武进监测站,,32,23,19,10,9,101,,54,54,1,9,5,11,0.5,0.7
2024-09-18T1300,1201A,119.9255,31.9087,常州市,安家,,29,26,23,9,10,90,,45,45,5,11,7,8,0.4,0.5
2024-09-18T1300,3002A,119.9805,31.8174,常州市,行政中心,,31,28,27,8,7,97,,47,47,8,13,6,6,0.3,0.3
2024-09-18T1300,3003A,120.0522,31.7748,常州市,经开区,,30,26,22,6,8,96,,47,47,4,10,8,9,0.2,0.3
2024-09-18T1300,3010A,119.9025,31.7964,常州市,钟楼,,31,12,24,8,7,98,,45,45,8,14,8,8,0.1,0.5
2024-09-18T1300,3430A,119.5826,31.7245,常州市,金坛城区,,29,17,21,10,11,90,,48,48,10,12,8,8,0.3,0.4
2024-09-18T1300,2220A,120.4318,41.5881,朝阳市,西梁,,37,37,32,18,22,33,,16,16,18,19,10,8,0.9,0.7
2024-09-18T1300,2221A,120.4521,41.5646,朝阳市,河畔小区,,36,36,24,15,14,45,,20,20,14,15,12,8,1.0,0.7
2024-09-18T1300,2222A,120.4176,41.5648,朝阳市,八里堡,,36,36,34,16,18,43,,18,18,18,23,11,8,1.0,0.9
2024-09-18T1300,2223A,120.3806,41.5969,朝阳市,农业园区,,,43,25,23,17,26,,19,19,,15,,8,0.9,0.6
2024-09-18T1300,1705A,116.6367,23.6719,潮州市,西园路,,,,25,,10,32,,21,21,,8,6,5,0.1,0.3
2024-09-18T1300,3026A,116.6183,23.6608,潮州市,市政府,,18,17,28,7,13,57,,35,35,3,9,4,4,0.5,0.7
2024-09-18T1300,4036A,116.6461,23.6761,潮州市,金山,,18,16,25,11,16,55,,32,32,2,5,6,6,0.5,0.6
2024-09-18T1300,2472A,113.0073,25.9061,郴州市,马头岭,颗粒物(PM10),56,61,52,18,20,100,,70,70,5,10,10,8,0.3,0.4
2024-09-18T1300,2473A,113.0116,25.8226,郴州市,市职中,细颗粒物(PM2.5),60,53,50,43,42,113,,80,80,9,12,3,3,0.6,0.7
2024-09-18T1300,2474A,113.0161,25.8001,郴州市,兴隆步行街,细颗粒物(PM2.5),60,63,60,43,38,109,,90,90,9,12,5,8,0.6,0.8
2024-09-18T1300,2475A,113.0383,25.8071,郴州市,市审计局,细颗粒物(PM2.5),64,58,51,46,42,104,,78,78,4,8,3,5,0.7,0.8
2024-09-18T1300,2476A,113.0348,25.7759,郴州市,市环保局,细颗粒物(PM2.5),60,63,58,43,41,104,,84,84,7,11,6,6,0.7,0.8
2024-09-18T1300,1431A,103.9728,30.7236,成都市,金泉两河,颗粒物(PM10),52,54,37,30,16,143,,60,60,6,16,3,3,0.5,0.7
2024-09-18T1300,1432A,104.176,30.6872,成都市,十里店,,48,23,47,9,28,151,,64,64,18,35,4,4,0.4,0.5
2024-09-18T1300,1433A,104.079,30.5706,成都市,三瓦窑,,45,39,46,31,30,125,,47,47,34,39,3,3,0.5,0.7
2024-09-18T1300,1434A,104.1114,30.63,成都市,沙河铺,颗粒物(PM10),52,54,51,22,29,156,,61,61,13,26,4,4,0.6,0.8
2024-09-18T1300,1437A,104.0786,30.6531,成都市,君平街,臭氧1小时,64,56,42,24,29,171,,76,76,13,24,3,3,0.6,0.7
2024-09-18T1300,2880A,104.0239,30.65639,成都市,大石西路,,48,38,43,14,27,151,,62,62,19,23,5,5,0.8,0.9
2024-09-18T1300,3136A,104.2725,30.5589,成都市,龙泉驿区区政府,,42,22,31,17,20,133,,93,93,8,12,4,4,0.5,0.6
2024-09-18T1300,3357A,104.0106,30.6931,成都市,金博路,,41,26,38,12,22,130,,58,58,11,22,2,3,0.6,0.7
2024-09-18T1300,3359A,104.0578,30.5225,成都市,华阳,,41,31,47,17,27,130,,56,56,4,24,3,3,0.5,0.7
2024-09-18T1300,3487A,104.2394,30.5319,成都市,车城东七路,,45,32,43,22,29,142,,91,91,5,15,3,3,0.4,0.6
2024-09-18T1300,3488A,104.3853,30.7453,成都市,青白江技师分院,臭氧1小时,53,,39,36,29,162,,58,58,8,30,4,3,0.5,0.7
2024-09-18T1300,3489A,104.0789,30.4072,成都市,科学城,,44,26,45,21,33,138,,65,65,4,14,4,4,0.6,0.7
2024-09-18T1300,4011A,103.8506,30.6947,成都市,光华大道三段,,45,38,35,16,18,142,,72,72,3,14,2,2,0.6,0.7
2024-09-18T1300,1062A,117.9531,40.9081,承德市,铁路,,19,13,17,3,8,60,,44,44,12,20,8,7,0.3,0.3
2024-09-18T1300,1063A,117.9392,40.9763,承德市,中国银行,,20,15,17,3,5,63,,49,49,10,14,5,4,0.3,0.3
2024-09-18T1300,1064A,117.9503,40.928,承德市,开发区,,,29,21,9,10,56,,49,49,,13,8,7,0.4,0.4
2024-09-18T1300,1065A,117.8051,40.9655,承德市,文化中心,,35,35,23,14,6,51,,31,31,16,14,8,8,0.2,0.2
2024-09-18T1300,1066A,117.9268,41.0026,承德市,离宫,,23,23,13,13,19,53,,35,35,6,7,2,2,0.3,0.3
2024-09-18T1300,2314A,117.47,30.6618,池州市,池州学院,,39,33,38,19,25,124,,57,57,8,12,9,11,0.9,0.8
2024-09-18T1300,3237A,117.4918,30.6617,池州市,展览馆,,,,36,,21,92,,45,45,,12,4,7,0.9,0.8
2024-09-18T1300,3333A,117.5627,30.695,池州市,第八中学,,37,21,31,15,19,118,,52,52,6,12,4,6,0.6,0.7
2024-09-18T1300,3334A,117.5038,30.6243,池州市,第十二中学,,41,33,35,17,23,129,,57,57,8,15,4,6,0.9,1.1
2024-09-18T1300,1745A,118.9576,42.2728,赤峰市,哈达街,,24,,23,9,15,75,,34,34,12,20,9,13,0.4,0.5
2024-09-18T1300,1746A,118.8788,42.2554,赤峰市,天义路,,24,6,22,3,15,76,,37,37,11,22,7,10,0.2,0.4
2024-09-18T1300,3058A,119.2658,42.0353,赤峰市,银河街,细颗粒物(PM2.5),54,43,26,38,23,53,,34,34,9,14,16,13,0.6,0.6
2024-09-18T1300,3286A,118.9359,42.3147,赤峰市,桥北物流园区,,36,,34,25,18,73,,28,28,11,26,8,15,0.8,0.8
2024-09-18T1300,2521A,107.3476,22.4136,崇左市,市环保局江州分局,,23,20,28,16,15,64,,37,37,3,6,7,7,0.6,0.7
2024-09-18T1300,2522A,107.3702,22.3707,崇左市,城南新区,,23,,23,16,14,69,,39,39,2,5,3,3,0.7,0.7
2024-09-18T1300,2298A,118.3093,32.3153,滁州市,老年大学,,33,22,22,10,13,103,,52,52,4,11,5,6,0.1,0.4
2024-09-18T1300,2299A,118.3244,32.2786,滁州市,人大宾馆,,32,24,27,10,19,102,,54,54,4,11,5,6,0.3,0.6
2024-09-18T1300,3207A,118.3118,32.3038,滁州市,市政府原办公楼,,32,17,21,13,18,101,,53,53,3,12,6,7,0.2,0.6
2024-09-18T1300,3331A,118.3267,32.2634,滁州市,图书馆,,31,25,26,8,15,99,,52,52,4,12,5,5,0.2,0.5
2024-09-18T1300,2605A,101.5482,25.0441,楚雄彝族自治州,州环境监测站,,26,21,21,11,14,82,,37,37,6,14,8,16,0.6,0.6
2024-09-18T1300,2606A,101.538,25.0492,楚雄彝族自治州,市经济开发区,,26,13,20,12,16,83,,37,37,6,15,6,13,0.6,0.6
2024-09-18T1300,2548A,107.5277,31.2827,达州市,达州职业技术学院,,37,27,37,14,18,116,,56,56,8,22,7,8,0.6,0.7
2024-09-18T1300,2549A,107.5086,31.2186,达州市,市环境监测站,,45,40,36,14,16,143,,59,59,17,25,8,10,0.5,0.6
2024-09-18T1300,2550A,107.4988,31.2132,达州市,凤凰小区,,48,36,31,17,18,153,,68,68,13,22,9,10,0.5,0.6
2024-09-18T1300,2551A,107.5082,31.1986,达州市,达县机关宾馆,,48,44,37,3,18,151,,64,64,16,34,6,8,0.4,0.5
2024-09-18T1300,2552A,107.4644,31.2124,达州市,市政中心,,49,42,39,19,20,154,,69,69,23,25,20,9,1.4,0.6
2024-09-18T1300,2614A,100.1542,25.7054,大理白族自治州,大理市环境监测站,,30,25,27,16,18,93,,58,58,4,12,9,8,0.5,0.6
2024-09-18T1300,2615A,100.2171,25.5811,大理白族自治州,大理古城,,28,17,21,8,12,87,,49,49,4,8,8,7,0.5,0.6
2024-09-18T1300,1109A,121.612,38.9741,大连市,甘井子,,39,33,48,11,32,123,,72,72,18,22,10,10,1.5,0.6
2024-09-18T1300,1110A,121.565,38.9511,大连市,周水子,,36,34,47,9,31,113,,59,59,9,28,8,8,0.7,1
2024-09-18T1300,1111A,121.5637,38.8845,大连市,星海三站,,35,31,54,12,30,111,,69,68,9,18,7,7,0.5,0.7
2024-09-18T1300,1112A,121.6302,38.9117,大连市,青泥洼桥,,35,17,58,9,30,112,,70,70,8,25,10,11,0.7,0.8
2024-09-18T1300,1113A,121.6251,38.8638,大连市,傅家庄,,29,21,49,8,30,91,,74,74,10,19,9,10,0.3,0.8
2024-09-18T1300,1114A,121.5213,38.8661,大连市,七贤岭,,38,18,43,12,31,120,,75,75,10,16,8,8,0.5,0.7
2024-09-18T1300,1115A,121.2529,38.8061,大连市,旅顺,,39,,38,13,26,124,,86,86,12,20,6,7,0.6,0.8
2024-09-18T1300,1116A,121.7485,39.1311,大连市,金州,,36,26,42,16,34,115,,73,73,12,20,9,12,1.1,1.3
2024-09-18T1300,1117A,121.7811,39.0496,大连市,开发区,,44,44,51,14,29,114,,75,75,13,17,5,8,0.6,0.9
2024-09-18T1300,1118A,121.9762,39.0631,大连市,双D港,,34,19,30,14,22,107,,78,78,11,13,7,7,0.9,0.9
2024-09-18T1300,1789A,124.81117,46.03138,大庆市,大同区,,39,39,34,13,16,81,,54,54,5,10,4,4,0.4,0.4
2024-09-18T1300,1790A,125.129,46.533,大庆市,龙凤区,,25,24,46,15,17,80,,51,51,7,20,2,6,0.3,0.4
2024-09-18T1300,1791A,124.902,46.408,大庆市,红岗区,,25,20,25,8,9,80,,58,58,5,13,6,6,0.3,0.3
2024-09-18T1300,1792A,125.153,46.586,大庆市,萨尔图区,,23,21,32,3,15,71,,55,55,10,24,5,7,0.3,0.4
2024-09-18T1300,1793A,124.9042,46.6215,大庆市,让胡路区,,25,15,27,9,18,77,,52,52,5,21,4,4,0.1,0.2
2024-09-18T1300,3481A,125.141,46.634,大庆市,萨区政府监测点,,24,15,22,11,9,74,,53,53,4,15,6,6,0.3,0.4
2024-09-18T1300,1723A,113.2994,40.0758,大同市,云冈宾馆,,39,30,47,27,34,105,,46,46,10,19,9,10,0.5,0.8
2024-09-18T1300,1724A,113.3444,40.0917,大同市,大同大学,,38,35,37,26,26,105,,44,44,7,14,11,12,0.6,0.7
2024-09-18T1300,1725A,113.2661,40.1269,大同市,安家小村,,,35,43,19,25,108,,20,,,14,,11,0.6,0.7
2024-09-18T1300,1726A,113.2711,40.0844,大同市,教育学院,,39,39,53,25,30,100,,41,41,16,24,9,8,0.8,0.9
2024-09-18T1300,3282A,113.3397,40.0597,大同市,大同市卫生学校,,33,26,36,19,23,103,,48,48,7,12,8,7,0.8,0.8
2024-09-18T1300,3565A,113.1367,40.1122,大同市,云冈站,,44,44,49,22,26,118,,58,58,12,12,11,10,0.6,0.8
2024-09-18T1300,3566A,113.1186,40.2556,大同市,图书馆,颗粒物(PM10),53,56,51,26,32,105,,48,48,14,13,12,10,0.8,1.4
2024-09-18T1300,3567A,113.5931,40.0461,大同市,区一中,,33,24,30,15,15,104,,68,68,9,7,10,9,0.8,0.8
2024-09-18T1300,3676A,113.2802,40.0995,大同市,第二人民医院,,35,35,47,24,28,106,,45,45,12,18,12,11,0.7,0.8
2024-09-18T1300,2269A,124.1069,50.4097,大兴安岭地区,科技局,,18,7,12,3,12,56,,50,47,2,4,5,5,0.2,0.2
2024-09-18T1300,3663A,124.1164,50.4278,大兴安岭地区,红旗社区,,17,6,7,3,3,52,,46,44,1,4,3,3,0.2,0.2
2024-09-18T1300,1600A,124.3303,40.0625,丹东市,江湾东路,,31,21,20,7,9,99,,60,60,7,9,6,6,0.5,0.6
2024-09-18T1300,1601A,124.4256,40.1503,丹东市,临江后街,,30,10,15,3,6,94,,62,62,2,6,7,6,0.4,0.6
2024-09-18T1300,1602A,124.3933,40.1461,丹东市,元宝山,,25,11,16,3,9,80,,54,54,5,8,3,3,0.3,0.4
2024-09-18T1300,1603A,124.3633,40.1092,丹东市,民主桥,,31,14,19,3,7,98,,63,63,7,10,4,5,0.4,0.5
2024-09-18T1300,3541A,109.5726,19.5167,儋州市,第一中学子站,,22,18,17,10,9,69,,52,50,4,4,5,5,0.5,0.5
2024-09-18T1300,3542A,109.5567,19.5187,儋州市,东坡学校子站,,23,16,15,8,10,73,,51,51,4,5,4,5,0.4,0.5
2024-09-18T1300,2616A,98.5842,24.428,德宏傣族景颇族自治州,德宏州监测站,,42,40,36,29,23,89,,36,36,14,11,34,12,0.8,0.8
2024-09-18T1300,3677A,98.5881,24.4368,德宏傣族景颇族自治州,芒市人民政府综合楼,,41,41,34,26,22,98,,42,42,14,10,25,8,0.9,0.9
2024-09-18T1300,1901A,104.4239,31.1208,德阳市,东山公园,,45,34,42,17,26,143,,86,86,7,14,4,14,0.6,0.7
2024-09-18T1300,1902A,104.3826,31.1317,德阳市,西小区,,49,49,52,30,36,139,,70,70,12,21,5,26,0.7,0.8
2024-09-18T1300,1904A,104.3553,31.1091,德阳市,耐火材料厂,臭氧1小时,53,48,59,24,35,162,,66,66,7,22,6,24,0.7,0.8
2024-09-18T1300,3639A,104.4019,31.1244,德阳市,市教育局,,46,39,48,25,28,147,,73,73,7,19,3,14,0.6,0.7
2024-09-18T1300,1622A,116.3032,37.4674,德州市,儿童乐园,,46,46,46,24,25,104,,124,93,10,11,9,12,0.7,0.8
2024-09-18T1300,1624A,116.2991,37.4451,德州市,监理站,,45,41,38,31,24,110,,129,100,9,10,8,12,0.7,0.9
2024-09-18T1300,3066A,116.2721,37.4379,德州市,九衢泉纯净水厂,,44,44,43,27,25,104,,128,96,11,11,8,10,0.7,0.8
2024-09-18T1300,3371A,116.3728,37.4403,德州市,开发区人民医院,颗粒物(PM10),51,51,42,27,22,102,,122,96,7,10,7,11,0.7,0.8
2024-09-18T1300,3372A,116.3572,37.4094,德州市,太阳城中学,,46,46,43,24,22,98,,133,97,11,13,9,14,0.8,0.8
2024-09-18T1300,3511A,116.5652,37.3319,德州市,陵城艺术中心,颗粒物(PM10),54,58,48,34,23,114,,115,101,10,14,13,14,0.6,0.8
2024-09-18T1300,2621A,99.7056,27.8317,迪庆藏族自治州,迪庆州站,,,,23,,12,85,,39,39,9,10,,21,0.4,0.5
2024-09-18T1300,3180A,99.7136,27.8094,迪庆藏族自治州,质量技术监督局,,26,19,16,6,11,82,,43,43,9,9,7,10,0.2,0.4
2024-09-18T1300,2663A,104.6241,35.5734,定西市,东关小学,,24,24,30,16,18,74,,64,64,3,14,5,5,0.2,0.3
2024-09-18T1300,2664A,104.6194,35.5934,定西市,供电公司,,30,27,32,21,24,79,,68,68,2,14,7,7,0.3,0.3
2024-09-18T1300,1389A,113.7547,23.0494,东莞市,莞城梨川,,21,14,14,9,11,67,,44,44,4,8,5,5,0.6,0.7
2024-09-18T1300,1390A,113.7944,23.0128,东莞市,东城石井,,25,16,14,10,9,79,,46,46,6,8,5,4,0.4,0.5
2024-09-18T1300,1391A,113.7383,22.9658,东莞市,南城西平,,25,18,15,13,9,78,,45,45,6,10,8,8,0.6,0.7
2024-09-18T1300,3319A,113.7338,23.0381,东莞市,万江金泰,,24,13,15,7,9,74,,48,48,4,7,7,7,0.4,0.4
2024-09-18T1300,3626A,113.7533,23.0202,东莞市,南城元岭,,23,16,13,8,8,73,,48,48,2,5,6,6,0.5,0.6
2024-09-18T1300,3627A,113.7875,23.0457,东莞市,东城主山,,25,13,13,6,7,78,,50,50,5,8,8,8,0.5,0.5
2024-09-18T1300,1666A,118.6614,37.4309,东营市,市环保局,,39,31,30,27,17,117,,144,100,7,9,4,5,0.3,0.4
2024-09-18T1300,3036A,118.6904,37.4338,东营市,开发区管委会,,45,45,37,24,18,120,,142,98,7,8,4,6,0.4,0.5
2024-09-18T1300,3365A,118.5719,37.565,东营市,垦利区民丰路,,46,46,33,27,20,100,,126,98,4,5,4,3,0.4,0.5
2024-09-18T1300,3498A,118.5055,37.8612,东营市,河口城区,,35,34,35,24,17,101,,114,99,12,11,6,7,0.6,0.7
2024-09-18T1300,3646A,118.4978,37.4623,东营市,胜利站,,42,37,31,29,18,105,,131,96,6,7,4,6,0.8,0.9
2024-09-18T1300,3734A,118.35,37.26,东营市,理想之城,,42,36,31,29,21,100,,126,85,10,10,5,5,0.5,0.5
2024-09-18T1300,1591A,110.0023,39.8129,鄂尔多斯市,综合楼,颗粒物(PM10),54,58,54,27,26,112,,67,67,12,16,12,12,1.0,1
2024-09-18T1300,1592A,109.9486,39.8261,鄂尔多斯市,巴音孟克林场办事处,颗粒物(PM10),53,56,53,27,28,107,,65,65,13,17,9,8,1.0,0.9
2024-09-18T1300,1593A,109.7736,39.5986,鄂尔多斯市,康泽苑,,39,39,51,19,21,120,,55,55,8,16,9,9,0.7,0.7
2024-09-18T1300,1594A,109.8119,39.5989,鄂尔多斯市,华泰汽车城,,46,46,49,27,27,113,,52,52,10,16,9,8,0.7,0.7
2024-09-18T1300,1595A,109.9734,39.7884,鄂尔多斯市,奥林花园,,49,46,53,34,31,100,,54,54,11,19,7,5,0.9,0.9
2024-09-18T1300,2436A,114.8938,30.3994,鄂州市,市政府,,49,27,38,17,20,156,,100,100,10,17,13,12,0.9,0.8
2024-09-18T1300,2437A,114.8989,30.3714,鄂州市,赵家坝,臭氧1小时,53,32,43,16,19,162,,100,100,8,14,12,11,0.7,0.6
2024-09-18T1300,3654A,114.8094,30.4089,鄂州市,精准医疗中心,臭氧1小时,74,34,37,23,19,179,,105,105,15,13,12,8,0.9,0.7
2024-09-18T1300,2454A,109.4978,30.2981,恩施土家族苗族自治州,湖北民院,,30,21,21,3,16,94,,53,53,8,14,9,9,0.7,0.8
2024-09-18T1300,2455A,109.4707,30.2798,恩施土家族苗族自治州,州电力总公司,,28,21,19,10,14,87,,50,50,13,19,9,9,0.6,0.7
2024-09-18T1300,3549A,109.5061,30.3772,恩施土家族苗族自治州,龙凤新区,,29,18,19,10,13,91,,50,50,9,11,7,6,0.7,0.7
2024-09-18T1300,2499A,108.3411,21.6158,防城港市,沙万,,42,42,27,22,19,78,,55,55,7,8,8,7,0.7,0.7
2024-09-18T1300,2500A,108.3514,21.7731,防城港市,防城档案局,,38,34,32,26,19,72,,47,47,8,10,8,8,0.6,0.7
2024-09-18T1300,2501A,108.3506,21.6414,防城港市,大海花园,,33,27,25,23,20,73,,51,51,7,8,7,6,0.8,0.8
2024-09-18T1300,1371A,113.1294,23.0067,佛山市,湾梁,,34,34,14,13,11,101,,55,55,13,13,7,6,0.6,0.7
2024-09-18T1300,1372A,113.1083,23.0478,佛山市,华材职中,,27,14,15,7,12,86,,40,40,8,17,6,6,0.3,0.4
2024-09-18T1300,1373A,113.144,23.0453,佛山市,南海气象局,,27,27,17,10,13,80,,38,38,4,8,6,6,0.4,0.5
2024-09-18T1300,1374A,113.2881,22.8094,佛山市,顺德苏岗,,35,,9,9,7,110,,47,47,8,9,8,7,0.5,0.6
2024-09-18T1300,1376A,112.8383,22.8678,佛山市,高明孔堂,,,,20,17,13,124,,55,55,12,10,6,5,0.5,0.1
2024-09-18T1300,1377A,112.8836,23.1588,佛山市,三水监测站,,35,,15,19,15,110,,56,56,10,18,7,6,0.4,0.5
2024-09-18T1300,1378A,112.867,23.185,佛山市,三水云东海,,34,13,15,13,15,106,,55,55,8,13,10,10,0.5,0.6
2024-09-18T1300,3625A,113.2544,22.7642,佛山市,容桂街道办,,37,14,9,14,10,117,,51,51,10,14,7,7,0.6,0.6
2024-09-18T1300,1282A,119.2681,26.0504,福州市,师大,,16,16,16,3,3,34,,44,44,3,3,4,4,0.4,0.3
2024-09-18T1300,1284A,119.2648,26.0768,福州市,杨桥西路,,,21,19,8,5,,,48,48,3,3,4,3,0.5,0.3
2024-09-18T1300,1285A,119.317,26.0746,福州市,紫阳,,22,22,22,3,3,67,,38,38,13,12,2,2,0.3,0.2
2024-09-18T1300,3048A,119.5799,26.0936,福州市,九龙,,28,28,21,3,3,65,,46,46,2,2,6,6,0.3,0.4
2024-09-18T1300,3526A,119.5189,25.9664,福州市,吴航,,20,18,21,6,7,64,,48,48,2,2,6,5,0.2,0.3
2024-09-18T1300,1755A,123.7977,41.8491,抚顺市,望花区,,50,50,44,16,23,53,,17,17,35,34,8,8,1.1,1.1
2024-09-18T1300,1756A,123.9161,41.8822,抚顺市,顺城区,,17,17,36,8,21,48,,19,19,15,29,7,7,0.4,0.8
2024-09-18T1300,1757A,124.0436,41.8611,抚顺市,东洲区,,17,12,22,3,14,52,,22,22,3,13,6,7,0.4,0.6
2024-09-18T1300,1758A,123.9247,41.8642,抚顺市,新抚区,,18,18,33,7,17,52,,17,17,12,25,9,8,0.4,0.7
2024-09-18T1300,1759A,124.0972,41.8961,抚顺市,大伙房水库,,19,12,21,3,14,58,,26,26,2,10,5,6,0.4,0.5
2024-09-18T1300,1760A,123.7086,41.8391,抚顺市,沈抚新城,,48,48,38,24,24,64,,18,18,44,32,15,8,1.2,0.9
2024-09-18T1300,2376A,116.2127,28.0814,抚州市,桐源党溪,,43,43,48,20,26,98,,87,87,4,3,10,10,0.6,0.6
2024-09-18T1300,2377A,116.3544,27.9831,抚州市,市站,,35,35,37,18,22,90,,86,80,3,5,8,7,0.8,0.8
2024-09-18T1300,2378A,116.3565,27.963,抚州市,血防站,,34,34,35,17,22,91,,89,81,5,6,1,4,0.9,0.9
2024-09-18T1300,2379A,116.3564,28.0007,抚州市,采茶剧团,,34,34,35,15,23,90,,80,78,2,3,10,8,0.8,0.8
2024-09-18T1300,2380A,116.385,27.9647,抚州市,医学分院,,,,34,,20,78,,85,79,6,5,3,4,0.8,1.1
2024-09-18T1300,2207A,121.6094,41.998,阜新市,工业园区,,38,38,28,16,15,74,,21,21,16,25,28,14,0.7,0.6
2024-09-18T1300,2208A,121.6697,42.0279,阜新市,长青街,,46,46,34,16,20,59,,20,20,24,21,28,13,0.8,0.7
2024-09-18T1300,2209A,121.6673,42.0705,阜新市,农业园区,,26,26,24,12,12,70,,40,40,15,15,15,14,0.5,0.4
2024-09-18T1300,2210A,121.6717,42.0224,阜新市,东苑,颗粒物(PM10),55,59,39,21,18,63,,26,26,30,29,33,23,1.0,0.9
2024-09-18T1300,2211A,121.6506,42.0498,阜新市,玉龙新城,,26,26,26,16,15,73,,26,26,20,21,31,11,0.7,0.5
2024-09-18T1300,2301A,115.8277,32.8929,阜阳市,市监测站,,,31,19,,12,65,,67,66,8,6,7,6,0.7,0.7
2024-09-18T1300,2303A,115.8554,32.8605,阜阳市,开发区,,35,34,19,24,16,72,,72,72,9,8,6,5,0.7,0.6
2024-09-18T1300,2875A,115.784,32.8892,阜阳市,阜阳职业技术学院,,48,48,21,22,13,62,,68,66,10,8,6,6,0.5,0.5
2024-09-18T1300,3468A,115.7901,32.8613,阜阳市,市规划展馆,,48,37,25,33,23,67,,71,70,9,9,5,5,0.7,0.6
2024-09-18T1300,3469A,115.836,32.9183,阜阳市,枣园社区,,39,39,20,26,18,64,,67,66,11,8,7,7,0.7,0.6
2024-09-18T1300,2669A,102.9099,34.9841,甘南藏族自治州,州政府,,26,19,17,16,17,82,,52,52,3,6,10,10,0.2,0.3
2024-09-18T1300,3380A,102.8914,34.9617,甘南藏族自治州,甘肃民族师范学院,,25,17,13,3,8,79,,47,47,2,7,4,4,0.3,0.3
2024-09-18T1300,2570A,101.9603,30.0475,甘孜藏族自治州,水桥子,,25,8,14,3,7,78,,26,26,2,12,5,5,0.2,0.3
2024-09-18T1300,3065A,101.9533,29.9972,甘孜藏族自治州,州环保局,,25,13,16,3,5,79,,30,30,8,15,2,3,0.2,0.2
2024-09-18T1300,3414A,115.8347,28.932,赣江新区,桑海产业园,,37,19,29,14,18,118,,96,96,6,7,12,13,0.6,0.5
2024-09-18T1300,2363A,114.9367,25.8664,赣州市,地委,,20,11,33,11,24,64,,45,45,3,10,1,16,0.6,1.1
2024-09-18T1300,2364A,114.9461,25.8481,赣州市,气象台,,,17,35,,24,69,,46,46,5,10,4,6,0.6,0.9
2024-09-18T1300,2365A,114.9322,25.8333,赣州市,市图书馆,,25,10,34,3,20,79,,56,56,1,9,5,4,0.9,1.1
2024-09-18T1300,2366A,114.8905,25.8471,赣州市,华坚鞋城,,21,17,37,6,24,67,,47,47,5,8,2,2,0.4,0.5
2024-09-18T1300,3109A,115.0093,25.8613,赣州市,赣县区卫计委,,,,34,,22,68,,48,48,5,8,6,7,0.5,0.7
2024-09-18T1300,2683A,106.2319,36.1417,固原市,马园,颗粒物(PM10),73,96,56,6,15,75,,75,73,14,14,6,6,0.8,0.9
2024-09-18T1300,2684A,106.2792,36.0022,固原市,监测站,,28,28,28,16,22,68,,64,64,8,9,3,3,0.4,0.4
2024-09-18T1300,2685A,106.2375,36.0211,固原市,新区,,30,30,30,14,14,68,,69,68,11,10,6,5,0.5,0.5
2024-09-18T1300,3522A,106.2177,35.9959,固原市,原州区十五小,,,20,27,18,20,78,,86,82,,7,6,6,0.5,0.6
2024-09-18T1300,2544A,106.6303,30.4576,广安市,市委,臭氧1小时,74,36,41,30,33,179,,102,102,12,16,6,6,0.5,0.5
2024-09-18T1300,2545A,106.6271,30.4663,广安市,友谊中学,臭氧1小时,80,37,38,31,28,184,,101,101,13,18,8,6,0.6,0.6
2024-09-18T1300,2547A,106.6388,30.4551,广安市,广电花园,臭氧1小时,72,38,41,29,31,177,,99,99,11,16,6,6,0.5,0.5
2024-09-18T1300,2902A,106.6351,30.4865,广安市,北辰小学,臭氧1小时,68,41,43,24,27,174,,99,99,9,13,7,7,0.4,0.5
2024-09-18T1300,2523A,105.8945,32.4535,广元市,黑石坡,,27,21,28,18,25,84,,42,42,6,9,8,9,0.5,0.5
2024-09-18T1300,2524A,105.821,32.4444,广元市,老城,,35,18,30,9,16,109,,39,39,11,21,3,4,0.8,0.9
2024-09-18T1300,2526A,105.8628,32.4287,广元市,监测站,,32,15,22,9,18,101,,46,46,11,10,4,6,0.7,0.8
2024-09-18T1300,3617A,105.8047,32.4166,广元市,经开区,,34,34,44,20,29,108,,44,44,10,16,4,7,0.8,0.9
2024-09-18T1300,1345A,113.2347,23.1423,广州市,广雅中学,,24,17,17,8,10,74,,44,44,11,15,5,5,0.6,0.7
2024-09-18T1300,1346A,113.2612,23.105,广州市,市五中,,32,,16,22,14,91,,56,56,4,8,4,3,0.6,0.7
2024-09-18T1300,1348A,113.3478,23.0916,广州市,广东商学院,,26,20,17,14,11,83,,39,39,7,13,5,4,0.5,0.5
2024-09-18T1300,1349A,113.4332,23.1047,广州市,市八十六中,,25,17,16,11,10,80,,38,38,5,15,4,3,0.4,0.5
2024-09-18T1300,1350A,113.3505,22.9483,广州市,番禺中学,,38,28,16,14,9,119,,51,51,11,13,6,5,0.6,0.6
2024-09-18T1300,1351A,113.2146,23.3916,广州市,花都师范,,,27,21,16,14,80,,52,52,4,8,,5,0.3,0.6
2024-09-18T1300,1352A,113.2597,23.1331,广州市,市监测站,,25,18,16,11,11,80,,44,44,6,12,5,5,0.5,0.6
2024-09-18T1300,1353A,113.5618,23.312,广州市,九龙镇镇龙,,20,18,19,10,13,62,,38,38,4,12,7,6,0.5,0.6
2024-09-18T1300,1354A,113.2765,23.1544,广州市,麓湖,,26,17,18,10,11,81,,38,38,6,13,5,5,0.4,0.6
2024-09-18T1300,1355A,113.443,23.3035,广州市,帽峰山森林公园,,23,11,13,6,8,72,,42,42,2,5,6,5,0.4,0.5
2024-09-18T1300,2846A,113.3221,23.1322,广州市,体育西,,25,17,17,10,12,80,,42,42,4,9,5,4,0.4,0.5
2024-09-18T1300,3298A,113.5717,23.5491,广州市,从化街口,,23,17,24,16,16,61,,37,37,4,9,8,8,0.5,0.6
2024-09-18T1300,3299A,113.3472,23.3692,广州市,白云竹料,,26,26,22,11,14,76,,48,48,4,11,5,5,0.6,0.7
2024-09-18T1300,3300A,113.2981,23.237,广州市,白云嘉禾,,23,19,22,10,12,73,,41,41,11,20,6,5,0.7,0.8
2024-09-18T1300,3301A,113.4256,23.1716,广州市,黄埔科学城,,25,14,15,8,9,79,,45,45,12,11,7,6,0.4,0.6
2024-09-18T1300,3302A,113.3942,23.0483,广州市,番禺大学城,,29,22,17,13,10,91,,39,39,8,12,8,8,0.5,0.5
2024-09-18T1300,3303A,113.4922,22.8168,广州市,南沙黄阁,,36,27,18,14,11,115,,60,60,11,17,5,5,0.7,0.7
2024-09-18T1300,3304A,113.5342,22.7896,广州市,南沙街,,34,18,16,12,9,108,,51,51,12,12,7,6,0.5,0.6
2024-09-18T1300,3443A,113.2902,23.5544,广州市,花都梯面,,22,17,23,13,16,69,,50,50,3,7,6,6,0.5,0.6
2024-09-18T1300,3445A,113.7858,23.7478,广州市,从化良口,,18,11,20,8,13,56,,37,37,3,4,6,6,0.6,0.7
2024-09-18T1300,3446A,113.8051,23.2614,广州市,增城荔城,,23,17,17,13,12,71,,39,39,5,10,5,6,0.5,0.5
2024-09-18T1300,2506A,109.6047,23.0666,贵港市,江南子站,,32,29,33,22,22,96,,66,66,6,7,8,7,0.7,0.6
2024-09-18T1300,2507A,109.6014,23.0948,贵港市,贵城子站,,34,34,35,18,23,89,,61,61,5,6,7,7,0.6,0.6
2024-09-18T1300,2508A,109.5669,23.1065,贵港市,荷城子站,,27,27,32,17,17,80,,61,61,5,4,10,10,0.6,0.6
2024-09-18T1300,3405A,109.5886,23.1172,贵港市,新世纪学校,,29,24,34,20,22,84,,61,61,1,2,7,7,0.6,0.6
2024-09-18T1300,1439A,106.6899,26.5998,贵阳市,马鞍山,,20,9,14,3,5,61,,38,38,4,8,4,3,0.4,0.5
2024-09-18T1300,1440A,106.6971,26.5694,贵阳市,市环保站,,22,17,17,7,14,68,,63,63,3,6,4,3,0.2,0.4
2024-09-18T1300,1441A,106.6243,26.6266,贵阳市,鉴湖路,,16,12,17,3,9,51,,44,44,3,4,5,5,0.2,0.3
2024-09-18T1300,1442A,106.7487,26.6343,贵阳市,燕子冲,,18,,8,7,13,57,,35,35,4,6,6,6,0.2,0.4
2024-09-18T1300,1443A,106.6555,26.4365,贵阳市,碧云窝,,,19,26,3,9,55,,38,38,6,9,4,3,,0.4
2024-09-18T1300,1444A,106.694,26.5161,贵阳市,中院村,,19,17,22,3,12,60,,52,52,4,11,5,5,0.6,0.6
2024-09-18T1300,1445A,106.7109,26.6027,贵阳市,红边门,,25,17,20,17,21,57,,43,43,6,10,6,5,0.8,0.4
2024-09-18T1300,1446A,106.7164,26.5699,贵阳市,新华路,,20,6,10,3,13,61,,55,55,3,6,4,3,0.1,0.4
2024-09-18T1300,1447A,106.674,26.5424,贵阳市,太慈桥,,19,7,10,3,7,60,,44,44,3,7,5,4,0.3,0.4
2024-09-18T1300,1862A,110.4144,25.3167,桂林市,电子科大尧山校区,,32,25,34,22,21,94,,92,92,4,5,4,4,0.7,0.7
2024-09-18T1300,1863A,110.2819,25.2697,桂林市,监测站,,49,49,36,28,24,94,,78,78,6,7,7,7,0.5,0.6
2024-09-18T1300,1864A,110.3089,25.2708,桂林市,龙隐路小学,,33,26,33,23,22,101,,83,83,3,4,8,10,0.6,0.6
2024-09-18T1300,1865A,110.2869,25.2178,桂林市,八中,,40,40,35,22,22,99,,81,81,4,4,7,8,0.4,0.5
2024-09-18T1300,3403A,110.1764,25.2381,桂林市,创业大厦,,39,34,34,27,27,85,,64,64,5,6,7,12,0.4,0.4
2024-09-18T1300,3531A,110.296,25.1253,桂林市,旅游学院,,33,27,26,22,22,104,,84,84,4,5,7,8,0.4,0.4
2024-09-18T1300,2674A,100.2561,34.4714,果洛藏族自治州,玛沁县大武镇,,26,7,10,3,11,81,,61,61,1,2,4,6,0.4,0.4
2024-09-18T1300,1129A,126.5422,45.755,哈尔滨市,岭北,,31,8,23,3,14,97,,74,74,5,24,7,7,0.5,0.8
2024-09-18T1300,1130A,126.561,45.8167,哈尔滨市,松北商大,,25,,27,8,9,77,,45,45,7,27,8,7,0.2,0.5
2024-09-18T1300,1131A,126.979,45.5419,哈尔滨市,阿城会宁,,30,12,30,6,13,94,,51,51,9,18,10,10,0.5,0.6
2024-09-18T1300,1132A,126.599,45.7222,哈尔滨市,南岗学府路,,30,30,55,6,19,88,,51,51,7,30,8,8,0.3,0.6
2024-09-18T1300,1133A,126.689,45.7733,哈尔滨市,太平宏伟公园,,,,67,15,23,82,,42,42,15,32,6,7,0.3,0.6
2024-09-18T1300,1134A,126.635,45.7667,哈尔滨市,道外承德广场,,28,28,48,8,17,78,,42,42,15,42,6,6,0.4,0.7
2024-09-18T1300,1135A,126.685,45.7319,哈尔滨市,香坊红旗大街,,34,34,54,3,23,80,,42,42,10,40,9,9,0.4,0.7
2024-09-18T1300,1136A,126.6411,45.7258,哈尔滨市,动力和平路,,27,17,38,3,16,86,,46,46,10,32,8,9,0.4,0.6
2024-09-18T1300,1137A,126.593,45.7478,哈尔滨市,道里建国路,,32,32,43,7,18,83,,45,45,7,34,10,12,0.4,0.8
2024-09-18T1300,1138A,126.615,45.61,哈尔滨市,平房东轻厂,,27,22,33,10,10,84,,56,56,8,36,6,6,0.3,0.5
2024-09-18T1300,1139A,126.595,45.9855,哈尔滨市,呼兰师专,,,47,27,18,9,74,,50,50,,22,9,9,,0.5
2024-09-18T1300,1140A,126.6206,45.6842,哈尔滨市,省农科院,颗粒物(PM10),67,84,50,6,16,71,,44,44,13,38,6,6,0.3,0.5
2024-09-18T1300,2688A,93.5128,42.8172,哈密市,地区监测站,颗粒物(PM10),53,56,65,16,21,116,,72,72,9,26,8,6,0.2,0.3
2024-09-18T1300,2689A,93.4961,42.8328,哈密市,哈密师范学校,,49,49,69,17,26,114,,55,55,13,30,9,6,0.3,0.5
2024-09-18T1300,2671A,100.9048,36.9639,海北藏族自治州,海晏县西海镇,,30,20,22,16,22,95,,68,68,13,13,15,17,0.5,0.6
2024-09-18T1300,3867A,102.0738,36.5056,海东市,平安区公安北苑,,29,25,32,14,23,90,,38,38,8,15,8,25,0.5,0.6
2024-09-18T1300,1410A,110.3232,20.0574,海口市,海南大学,,25,22,18,10,10,80,,59,58,5,6,6,6,0.4,0.4
2024-09-18T1300,1411A,110.283,20.0053,海口市,秀英海南医院,,26,26,19,9,8,81,,60,60,6,8,4,4,0.3,0.3
2024-09-18T1300,1412A,110.338,19.9969,海口市,海南师范大学,,27,24,19,10,10,84,,64,60,5,6,7,6,0.4,0.4
2024-09-18T1300,1413A,110.33,20.0356,海口市,龙华路环保局宿舍,,29,29,21,10,10,83,,62,60,5,6,4,4,0.3,0.3
2024-09-18T1300,3539A,110.5111,19.9736,海口市,桂林洋子站,,,21,18,10,10,,,62,52,6,6,6,6,0.2,0.3
2024-09-18T1300,2673A,100.6188,36.2866,海南藏族自治州,共和县恰卜恰镇,,25,9,20,3,9,79,,61,61,3,7,14,16,0.5,0.6
2024-09-18T1300,2676A,97.3731,37.3753,海西蒙古族藏族自治州,德令哈市,,28,12,24,7,11,88,,80,80,5,7,10,9,0.4,0.5
2024-09-18T1300,1048A,114.5302,36.6116,邯郸市,东污水处理厂,,49,49,55,34,32,141,,118,116,11,11,2,3,0.9,0.7
2024-09-18T1300,1049A,114.4918,36.5713,邯郸市,矿院,,46,37,56,31,31,147,,130,126,8,8,3,4,0.8,0.6
2024-09-18T1300,1050A,114.484,36.6133,邯郸市,丛台公园,,46,36,50,30,29,147,,126,126,5,4,2,4,0.9,0.7
2024-09-18T1300,3458A,114.7895,36.5593,邯郸市,香泉濮院小区,,42,21,51,13,22,133,,121,114,5,9,2,3,0.4,0.5
2024-09-18T1300,3579A,114.50634,36.77178,邯郸市,永年区实验高中,臭氧1小时,64,59,52,37,36,171,,147,147,13,14,3,4,0.9,0.8
2024-09-18T1300,3580A,114.20016,36.44293,邯郸市,峰峰矿区临水派出所,细颗粒物(PM2.5),54,39,42,38,25,102,,149,125,10,6,2,4,1.1,0.8
2024-09-18T1300,2634A,106.9893,33.1842,汉中市,汉川机床厂子校,,26,21,20,10,12,83,,43,43,3,6,4,4,0.5,0.6
2024-09-18T1300,2635A,107.0154,33.0706,汉中市,市监测站,,28,,34,17,18,88,,46,46,3,8,7,8,0.4,0.6
2024-09-18T1300,2636A,107.0089,33.1138,汉中市,鑫源开发区,,28,25,40,12,26,88,,43,43,3,13,9,9,0.4,0.6
2024-09-18T1300,2637A,107.007,33.0323,汉中市,南郑大河坎水厂,,28,16,32,12,22,89,,44,44,4,8,8,8,0.4,0.5
2024-09-18T1300,1223A,120.2072,30.2111,杭州市,滨江,,37,37,23,13,9,99,,42,42,6,12,5,5,0.5,0.6
2024-09-18T1300,1224A,120.0633,30.2747,杭州市,西溪,,32,19,17,19,10,102,,38,38,8,12,6,6,0.6,0.6
2024-09-18T1300,1226A,120.3461,30.3153,杭州市,下沙,,27,27,24,10,8,80,,46,46,9,16,7,8,0.4,0.5
2024-09-18T1300,1227A,120.1269,30.2456,杭州市,卧龙桥,,36,27,18,19,10,113,,43,43,9,12,6,6,0.5,0.5
2024-09-18T1300,1228A,120.1903,30.2692,杭州市,浙江农大,,28,21,17,11,9,89,,43,43,14,17,9,8,0.5,0.5
2024-09-18T1300,1230A,120.1197,30.3119,杭州市,和睦小学,,32,23,16,10,8,102,,50,50,7,12,7,6,0.5,0.5
2024-09-18T1300,1231A,120.3019,30.4183,杭州市,临平镇,,,22,24,6,6,,,,,3,9,5,5,0.6,0.6
2024-09-18T1300,1232A,120.2697,30.1819,杭州市,城厢镇,,35,34,22,18,12,111,,48,48,7,12,8,7,0.7,0.7
2024-09-18T1300,1233A,120.0883,30.1808,杭州市,云栖,,37,27,15,10,5,117,,40,40,7,10,8,7,0.5,0.6
2024-09-18T1300,3557A,119.9464,30.0494,杭州市,镇二中,,35,26,16,24,10,107,,42,42,8,13,8,8,0.5,0.6
2024-09-18T1300,3558A,119.7183,30.2367,杭州市,市府大楼,,35,25,18,14,11,112,,45,45,8,12,6,6,0.5,0.5
2024-09-18T1300,3656A,120.1556,30.2864,杭州市,消防大队,,30,28,20,14,8,96,,47,47,3,10,9,8,0.7,0.7
2024-09-18T1300,1270A,117.1959,31.7848,合肥市,明珠广场,,34,34,19,19,17,74,,35,35,15,20,5,5,0.5,0.6
2024-09-18T1300,1271A,117.3072,31.8764,合肥市,三里街,,29,29,20,12,10,78,,36,36,10,15,7,6,0.3,0.4
2024-09-18T1300,1272A,117.2588,31.8707,合肥市,琥珀山庄,,46,46,20,20,15,66,,34,34,13,14,7,6,0.5,0.6
2024-09-18T1300,1273A,117.1604,31.9052,合肥市,董铺水库,,,44,17,,10,66,,39,36,9,9,3,2,0.3,0.3
2024-09-18T1300,1274A,117.25,31.8571,合肥市,长江中路,,48,48,24,24,17,61,,44,37,17,16,8,8,0.5,0.9
2024-09-18T1300,1275A,117.266,31.9436,合肥市,庐阳区,,39,39,20,17,9,84,,43,41,13,12,5,4,0.6,0.6
2024-09-18T1300,1276A,117.336,31.8586,合肥市,瑶海区,,34,34,26,10,12,86,,42,40,8,16,7,6,0.5,0.6
2024-09-18T1300,1277A,117.3027,31.7964,合肥市,包河区,,34,34,18,14,15,86,,40,40,7,28,3,4,0.4,0.6
2024-09-18T1300,1278A,117.2776,31.7385,合肥市,滨湖新区,,27,19,17,9,10,85,,45,45,5,16,6,6,0.5,0.6
2024-09-18T1300,1279A,117.1318,31.8403,合肥市,高新区,,44,44,26,17,13,61,,37,32,14,14,8,8,0.8,0.8
2024-09-18T1300,3464A,117.3803,31.9147,合肥市,高教基地,,48,48,20,18,11,85,,34,34,12,9,5,3,0.4,0.4
2024-09-18T1300,3614A,79.924,37.0877,和田地区,地区环保局,颗粒物(PM10),140,230,294,58,84,90,,77,77,5,10,6,7,0.5,0.6
2024-09-18T1300,3615A,79.9131,37.113,和田地区,市环保局,颗粒物(PM10),135,220,276,57,74,86,,68,68,6,20,7,7,0.5,0.6
2024-09-18T1300,2516A,108.2011,24.715,河池市,东仁乐园,,38,38,27,17,13,68,,36,36,6,7,5,4,0.7,0.7
2024-09-18T1300,2517A,108.0497,24.6947,河池市,市环保站,,,,23,,13,64,,35,35,7,11,9,7,0.5,0.6
2024-09-18T1300,2518A,108.0983,24.6989,河池市,市疾控中心,,20,17,24,13,14,62,,34,34,5,13,9,9,0.5,0.6
2024-09-18T1300,1696A,114.6778,23.7569,河源市,源西,,22,22,17,9,13,65,,40,40,8,9,5,5,0.5,0.5
2024-09-18T1300,1697A,114.6944,23.7586,河源市,东埔,,20,13,15,9,11,64,,40,40,7,10,2,3,0.5,0.6
2024-09-18T1300,1698A,114.6892,23.7233,河源市,老城,,20,16,18,3,8,64,,43,43,4,7,2,3,0.5,0.6
2024-09-18T1300,1718A,115.4208,35.2464,菏泽市,气象局,,16,12,44,9,22,49,,,,6,9,2,5,0.0,0.3
2024-09-18T1300,1719A,115.4747,35.2375,菏泽市,市政协,,14,7,34,3,21,43,,49,31,7,7,3,6,0.0,0.3
2024-09-18T1300,3374A,115.5564,35.0891,菏泽市,定陶老年大学,,19,6,29,3,13,58,,48,38,3,8,4,6,0.2,0.5
2024-09-18T1300,3647A,115.4702,35.2706,菏泽市,菏泽医专,,14,12,37,3,17,42,,55,34,10,10,5,8,0.2,0.5
2024-09-18T1300,2514A,111.5264,24.4172,贺州市,环保小区,,40,34,31,28,20,105,,71,71,7,8,6,6,0.6,0.6
2024-09-18T1300,2515A,111.5608,24.4078,贺州市,政协大楼,,37,35,31,22,22,116,,77,77,9,9,7,7,0.6,0.6
2024-09-18T1300,3534A,111.4744,24.4553,贺州市,西湾,,44,44,27,21,19,94,,75,75,7,8,7,6,0.7,0.7
2024-09-18T1300,2385A,114.17,35.9019,鹤壁市,市监测站,颗粒物(PM10),52,54,53,33,30,137,,139,138,12,12,1,3,1.3,1
2024-09-18T1300,2386A,114.2956,35.7511,鹤壁市,市交警支队,,46,40,49,27,28,147,,144,142,14,13,4,4,1.2,0.8
2024-09-18T1300,2387A,114.2878,35.7306,鹤壁市,迎宾馆,颗粒物(PM10),55,60,53,32,33,150,,143,143,11,12,10,6,1.2,0.9
2024-09-18T1300,3474A,114.2617,35.6822,鹤壁市,大新区,,48,48,49,32,26,150,,141,141,12,12,6,6,1.1,0.9
2024-09-18T1300,3596A,114.1572,35.9603,鹤壁市,南山宾馆,细颗粒物(PM2.5),57,,47,40,34,129,,134,133,7,7,3,3,1.6,1.3
2024-09-18T1300,2244A,130.2537,47.3416,鹤岗市,哈啤分公司,,26,26,20,10,14,82,,56,56,2,6,14,14,0.4,0.5
2024-09-18T1300,2245A,130.2684,47.3086,鹤岗市,斯达机电,,25,18,27,6,17,79,,56,56,4,11,13,13,0.2,0.2
2024-09-18T1300,2246A,130.3114,47.3388,鹤岗市,东山纸板厂,,27,27,34,14,19,77,,45,45,4,13,17,16,0.8,1.1
2024-09-18T1300,2247A,130.1097,47.3382,鹤岗市,五号水库,,26,14,12,7,6,81,,54,54,4,4,17,16,0.3,0.3
2024-09-18T1300,2263A,127.4833,50.2524,黑河市,交通局,,17,11,28,10,14,53,,45,45,4,14,6,7,0.2,0.3
2024-09-18T1300,2264A,127.5144,50.2341,黑河市,环保局,,,22,24,7,13,52,,45,45,6,13,7,5,,0.3
2024-09-18T1300,2265A,127.5291,50.2472,黑河市,大黑河岛,,17,,26,10,16,53,,46,46,5,12,2,2,0.1,0.1
2024-09-18T1300,1074A,115.6838,37.7541,衡水市,电机北厂,,33,33,56,16,31,93,,126,93,6,9,4,7,0.3,0.7
2024-09-18T1300,1075A,115.6303,37.7316,衡水市,市监测站,,44,44,61,16,28,110,,133,101,9,13,5,9,0.3,0.7
2024-09-18T1300,3188A,115.6683,37.7217,衡水市,市城管局,,34,34,58,11,35,104,,138,102,7,9,4,9,0.5,0.9
2024-09-18T1300,3459A,115.5989,37.5491,衡水市,地表水厂,,34,34,52,19,28,98,,133,98,6,9,4,6,0.4,0.7
2024-09-18T1300,2456A,112.5003,26.9167,衡阳市,原169医院,,50,50,42,28,27,120,,100,100,3,6,8,10,0.6,0.6
2024-09-18T1300,2457A,112.6194,26.9258,衡阳市,衡阳化工总厂,,,53,50,,,120,,84,84,3,8,11,10,0.7,0.8
2024-09-18T1300,2458A,112.6211,26.8956,衡阳市,珠晖区环保局,,,63,49,,,117,,79,79,6,12,7,7,0.8,0.8
2024-09-18T1300,2459A,112.6197,26.8733,衡阳市,市委党校,颗粒物(PM10),53,56,49,29,27,125,,87,87,5,10,9,9,0.7,0.9
2024-09-18T1300,2460A,112.6006,26.8919,衡阳市,市监测站,,49,48,43,34,32,124,,98,98,5,7,11,9,0.8,0.8
2024-09-18T1300,2461A,112.5664,26.9056,衡阳市,真空机电公司,,39,39,45,25,27,118,,97,97,3,5,7,7,0.8,0.8
2024-09-18T1300,3399A,112.6703,26.882,衡阳市,师范学院,,46,46,48,18,26,128,,96,96,6,10,9,8,0.7,0.8
2024-09-18T1300,2608A,103.3772,23.3993,红河哈尼族彝族自治州,污水处理厂,,32,,15,22,17,70,,28,28,10,8,23,13,0.5,0.4
2024-09-18T1300,2609A,103.3861,23.35,红河哈尼族彝族自治州,监测站,,30,30,22,15,13,94,,41,41,9,9,42,20,0.5,0.5
2024-09-18T1300,3038A,103.3758,23.368,红河哈尼族彝族自治州,州图书馆,,34,34,19,18,10,88,,38,38,9,9,44,17,0.4,0.4
2024-09-18T1300,1090A,111.6507,40.7517,呼和浩特市,呼市一监,细颗粒物(PM2.5),55,,50,39,47,50,,25,25,16,21,7,7,0.9,1.2
2024-09-18T1300,1091A,111.6572,40.8033,呼和浩特市,小召,细颗粒物(PM2.5),65,,45,47,46,46,,21,21,22,31,7,7,1.0,1.3
2024-09-18T1300,1094A,111.7516,40.8369,呼和浩特市,如意水处理厂,,50,50,52,34,33,42,,18,18,22,32,6,7,0.9,1.3
2024-09-18T1300,1095A,111.7276,40.8062,呼和浩特市,二十九中,细颗粒物(PM2.5),59,,47,42,47,44,,26,26,24,28,4,5,1.0,1.3
2024-09-18T1300,1096A,111.5512,40.7866,呼和浩特市,工大金川校区,细颗粒物(PM2.5),74,,44,54,40,48,,20,20,24,34,2,2,0.9,0.9
2024-09-18T1300,1097A,111.717,40.7612,呼和浩特市,化肥厂生活区,细颗粒物(PM2.5),53,48,56,37,39,55,,42,36,19,18,9,10,0.8,1
2024-09-18T1300,3698A,111.5968,40.8178,呼和浩特市,红旗小学,细颗粒物(PM2.5),84,,74,62,73,39,,12,12,30,37,4,6,1.0,1
2024-09-18T1300,3699A,111.6518,40.8389,呼和浩特市,海东办,细颗粒物(PM2.5),83,,81,61,79,30,,11,11,24,35,6,6,0.9,1.1
2024-09-18T1300,2192A,119.7594,49.2261,呼伦贝尔市,区环保局,,,29,32,15,15,57,,43,43,15,15,,5,0.4,0.1
2024-09-18T1300,3061A,119.7512,49.1577,呼伦贝尔市,国华电力东,,20,18,22,6,13,63,,54,54,11,7,4,4,0.4,0.3
2024-09-18T1300,1250A,120.0751,30.8669,湖州市,城西水厂,,29,21,23,10,10,91,,46,46,6,11,4,4,0.3,0.3
2024-09-18T1300,2873A,120.0875,30.8955,湖州市,仁皇山新区,,28,24,22,17,11,88,,46,46,8,13,6,6,0.3,0.4
2024-09-18T1300,2907A,120.1844,30.8596,湖州市,吴兴区站,,25,23,21,14,10,78,,41,41,5,6,5,5,0.3,0.2
2024-09-18T1300,3562A,120.4148,30.8538,湖州市,南浔区站,,24,20,21,14,10,76,,41,41,4,7,6,6,0.4,0.4
2024-09-18T1300,1607A,120.9092,40.7136,葫芦岛市,龙港区,颗粒物(PM10),52,53,37,10,11,73,,43,43,20,26,28,43,0.6,0.9
2024-09-18T1300,1608A,120.8392,40.7514,葫芦岛市,化工街,,31,31,24,9,11,72,,47,47,18,24,21,40,0.5,0.6
2024-09-18T1300,1609A,120.8341,40.7073,葫芦岛市,新区,,25,19,22,9,9,78,,53,53,22,23,22,31,0.5,0.4
2024-09-18T1300,1610A,120.8695,40.7677,葫芦岛市,东城区,,32,32,25,14,11,72,,46,46,17,19,18,25,0.5,0.5
2024-09-18T1300,2482A,109.5981,27.5721,怀化市,林科所,,30,22,24,17,15,95,,55,55,4,5,6,10,0.6,0.7
2024-09-18T1300,2483A,109.9453,27.5444,怀化市,河西地税局,,32,32,32,16,22,98,,53,53,7,11,8,7,0.6,0.6
2024-09-18T1300,2484A,109.9781,27.5342,怀化市,市四医院,,40,32,33,28,23,94,,56,56,5,10,6,9,0.6,0.6
2024-09-18T1300,2485A,109.9972,27.5578,怀化市,监测楼,,37,37,39,14,20,96,,50,50,5,10,5,5,0.8,0.8
2024-09-18T1300,2486A,110.0394,27.583,怀化市,市委党校,,35,31,38,24,21,98,,48,48,4,11,9,13,0.7,0.7
2024-09-18T1300,1210A,119.036,33.5981,淮安市,钵池山,,18,12,15,9,9,57,,43,43,7,7,7,7,0.5,0.5
2024-09-18T1300,1211A,119.007,33.575,淮安市,北京南路,,17,14,17,3,9,54,,37,37,3,4,6,6,0.4,0.5
2024-09-18T1300,1212A,118.989,33.6067,淮安市,市监测站,,19,17,18,7,10,60,,43,43,8,8,6,6,0.3,0.4
2024-09-18T1300,1213A,119.135,33.5039,淮安市,楚州区监测站,,17,17,24,8,9,51,,36,36,4,6,6,5,0.4,0.5
2024-09-18T1300,1214A,119.0186,33.6297,淮安市,淮阴区监测站,,17,14,22,9,10,54,,40,40,12,9,4,4,0.3,0.3
2024-09-18T1300,3426A,118.8755,33.2894,淮安市,新华书店,,22,21,21,9,10,70,,45,45,8,9,7,6,0.3,0.4
2024-09-18T1300,2282A,116.8004,33.975,淮北市,监测站,,31,31,8,13,6,37,,71,48,8,8,5,5,0.5,0.6
2024-09-18T1300,2283A,116.8091,33.9007,淮北市,烈山区政府,,25,25,10,14,7,35,,72,52,7,3,6,5,0.4,0.5
2024-09-18T1300,3330A,116.8873,33.9836,淮北市,杜集区检察院,,26,26,15,18,7,46,,78,54,6,4,7,7,0.5,0.6
2024-09-18T1300,4017A,116.7923,33.9535,淮北市,市博物馆,,27,27,10,17,7,38,,73,50,5,5,6,3,0.7,0.7
2024-09-18T1300,2277A,116.8305,32.7727,淮南市,潘集区政府,,37,37,19,20,16,75,,60,60,10,9,6,5,0.5,0.5
2024-09-18T1300,2278A,117.0067,32.6524,淮南市,师范学院,颗粒物(PM10),57,63,23,36,18,59,,61,56,14,7,6,7,0.4,0.4
2024-09-18T1300,2279A,116.8569,32.5951,淮南市,谢家集区政府,,45,40,18,31,22,75,,70,70,12,10,5,5,0.3,0.3
2024-09-18T1300,2280A,116.8281,32.633,淮南市,八公山区政府,,48,48,30,24,19,72,,64,64,8,6,3,6,0.3,0.3
2024-09-18T1300,2281A,116.6325,32.6201,淮南市,焦岗湖风景区管理处,,42,42,27,20,19,56,,45,45,4,4,4,3,0.1,0.1
2024-09-18T1300,2894A,117.0566,32.6531,淮南市,经济技术开发区消防队,,34,34,17,8,6,58,,54,54,13,9,4,4,0.5,0.4
2024-09-18T1300,3329A,117.0108,32.5893,淮南市,山南新区,颗粒物(PM10),53,55,18,31,13,59,,64,64,13,9,4,4,0.4,0.4
2024-09-18T1300,2446A,114.9028,30.4742,黄冈市,职工中心,,45,35,42,19,23,141,,98,98,6,11,10,9,0.6,0.6
2024-09-18T1300,2929A,114.8858,30.4519,黄冈市,红卫路,,48,30,36,22,25,151,,101,101,10,14,10,9,0.5,0.5
2024-09-18T1300,3398A,114.9136,30.4445,黄冈市,市林业局,,47,26,43,14,23,148,,109,109,5,10,9,8,0.5,0.5
2024-09-18T1300,2672A,102.0199,35.5102,黄南藏族自治州,同仁县隆务镇,,27,14,21,3,10,85,,46,46,3,4,11,10,0.4,0.5
2024-09-18T1300,2295A,118.2903,29.6963,黄山市,延安路89号,,28,28,30,3,6,67,,41,41,1,5,6,6,0.2,0.4
2024-09-18T1300,2296A,118.327,29.7178,黄山市,黄山东路89号,,20,9,15,6,6,62,,38,38,1,5,4,4,0.2,0.2
2024-09-18T1300,2297A,118.1371,30.2756,黄山市,黄山区政府5号楼,,20,,15,8,6,64,,37,37,4,5,6,6,0.1,0.3
2024-09-18T1300,2423A,115.0601,30.2313,黄石市,沈家营,臭氧1小时,72,43,50,16,19,177,,123,123,8,9,6,8,0.4,0.6
2024-09-18T1300,2424A,115.0817,30.2006,黄石市,陈家湾,臭氧1小时,78,41,47,19,20,182,,115,115,9,8,12,13,0.5,0.6
2024-09-18T1300,2426A,114.8988,30.2019,黄石市,铁山,,50,26,47,14,25,160,,93,93,3,12,8,12,0.7,1
2024-09-18T1300,2427A,115.0307,30.2092,黄石市,团城山,臭氧1小时,77,36,43,15,18,181,,118,118,10,10,9,8,0.6,0.6
2024-09-18T1300,3149A,115.0235,30.1578,黄石市,笔架山北路,臭氧1小时,75,21,45,14,17,180,,110,110,6,8,12,9,0.7,0.6
2024-09-18T1300,1392A,114.4183,23.0528,惠州市,河南岸金山湖子站,,20,17,13,14,8,64,,46,46,2,2,5,4,0.4,0.4
2024-09-18T1300,1393A,114.4053,23.0822,惠州市,下埔横江三路子站,,21,19,13,8,8,66,,52,52,3,4,4,3,0.5,0.6
2024-09-18T1300,1394A,114.4103,23.1142,惠州市,江北云山西路子站,,20,14,12,6,8,62,,46,46,2,2,4,4,0.4,0.4
2024-09-18T1300,1395A,114.4645,22.7833,惠州市,惠阳区承修路船湖子站,,20,15,14,9,8,63,,42,42,10,11,4,4,0.5,0.5
2024-09-18T1300,1396A,114.5317,22.7422,惠州市,大亚湾管委会子站,,21,14,15,10,7,65,,47,47,6,10,7,6,0.6,0.6
2024-09-18T1300,3314A,114.4338,22.8134,惠州市,惠阳秋长,,,,8,5,8,77,,55,55,,9,5,4,0.5,0.5
2024-09-18T1300,3452A,114.6517,22.775,惠州市,大亚湾霞涌,,28,28,18,14,11,57,,42,42,4,5,4,4,0.4,0.5
2024-09-18T1300,2240A,130.9762,45.3001,鸡西市,环保局,,26,26,25,8,11,80,,50,50,2,7,5,6,0.2,0.2
2024-09-18T1300,2243A,130.9429,45.3039,鸡西市,第一中学,,26,15,23,6,9,82,,52,52,4,9,5,5,0.0,0.1
2024-09-18T1300,3707A,131.0207,45.3073,鸡西市,欧美日汽修厂,,28,,27,19,13,87,,50,50,6,15,5,5,0,0.1
2024-09-18T1300,3709A,130.9967,45.3106,鸡西市,市政设施管理处,,29,29,31,9,12,88,,51,51,4,18,6,7,0.1,0.2
2024-09-18T1300,2367A,114.9754,27.0803,吉安市,红声器材厂,,41,41,51,20,31,116,,83,83,10,14,11,14,0.7,0.7
2024-09-18T1300,2368A,114.9658,27.0999,吉安市,市森林工业局,,36,36,47,20,32,113,,82,82,12,17,11,13,0.6,0.6
2024-09-18T1300,2369A,114.99,27.1312,吉安市,市环境监测站,,,35,51,,33,121,,87,87,7,11,10,18,0.5,0.7
2024-09-18T1300,2370A,115.0093,27.0968,吉安市,青原区法院,颗粒物(PM10),51,52,48,24,32,120,,92,92,9,13,10,15,0.6,0.7
2024-09-18T1300,1772A,126.54,43.8622,吉林市,哈达湾,,29,17,29,8,16,91,,52,52,6,23,5,6,0.5,0.7
2024-09-18T1300,1773A,126.5844,43.8358,吉林市,东局子,,30,18,28,12,14,96,,52,52,7,19,4,5,0.6,0.7
2024-09-18T1300,1774A,126.5052,43.8245,吉林市,电力学院,,29,,34,12,22,92,,48,48,4,14,3,3,0.5,0.7
2024-09-18T1300,1775A,126.6133,43.8972,吉林市,江北,,29,17,38,9,17,92,,45,45,8,22,7,9,0.5,0.7
2024-09-18T1300,1776A,126.555,43.8306,吉林市,江南公园,,29,17,26,14,14,92,,51,51,7,20,6,6,0.5,0.8
2024-09-18T1300,2868A,126.4739,43.953,吉林市,九站,,30,19,40,6,25,93,,50,50,4,25,8,8,0.5,0.7
2024-09-18T1300,1299A,116.9862,36.6114,济南市,科干所,,48,48,59,20,33,85,,62,54,24,24,9,10,0.8,1
2024-09-18T1300,1300A,116.9376,36.665,济南市,农科所,,44,44,57,17,32,94,,84,70,18,24,7,12,0.5,0.8
2024-09-18T1300,1301A,117.1265,36.6734,济南市,开发区,,39,39,52,20,29,99,,75,62,18,24,8,11,0.6,0.8
2024-09-18T1300,1303A,117.0624,36.6868,济南市,省种子仓库,,46,46,59,17,28,98,,84,65,16,21,8,13,1.0,1.2
2024-09-18T1300,1304A,116.9489,36.6447,济南市,机床二厂,,34,34,52,15,24,98,,83,69,16,22,10,14,0.7,0.9
2024-09-18T1300,1305A,117.0495,36.663,济南市,市监测站,,44,44,58,20,32,97,,76,64,18,24,8,12,0.7,0.9
2024-09-18T1300,1306A,116.7675,36.5484,济南市,长清党校,颗粒物(PM10),55,59,58,29,35,134,,85,85,18,20,10,13,1.0,1.1
2024-09-18T1300,1616A,117.6795,36.229,济南市,技术学院,,14,9,15,7,9,44,,28,28,1,7,7,6,0.5,0.6
2024-09-18T1300,1961A,117.532,36.6868,济南市,东山小学,,46,46,58,17,30,78,,84,67,19,23,6,6,0.5,0.8
2024-09-18T1300,3059A,117.7161,36.2049,济南市,泰兴公司,,15,9,19,3,9,45,,30,30,2,6,8,7,0.2,0.4
2024-09-18T1300,3064A,117.6867,36.2171,济南市,莱芜战役纪念馆,,14,12,19,3,8,44,,30,30,2,7,6,5,0.4,0.5
2024-09-18T1300,3494A,117.1673,36.9782,济南市,济阳区政府,,32,32,45,15,20,102,,111,102,7,12,10,11,0.4,0.8
2024-09-18T1300,3495A,117.1171,36.63,济南市,锦屏中学,颗粒物(PM10),51,51,52,22,30,88,,58,48,25,20,6,9,0.7,0.8
2024-09-18T1300,3682A,116.9814,36.6819,济南市,济南四建,,29,29,49,17,28,85,,80,64,13,23,10,15,0.7,1
2024-09-18T1300,1653A,116.6251,35.4302,济宁市,火炬城,,19,19,21,9,7,21,,25,24,19,9,10,9,0.7,0.6
2024-09-18T1300,1655A,116.5491,35.4042,济宁市,电化厂,,28,,20,19,13,26,,26,26,17,10,7,6,0.7,0.6
2024-09-18T1300,3500A,116.5814,35.3707,济宁市,北湖一中,,23,23,18,3,6,18,,26,25,21,7,4,4,0.5,0.4
2024-09-18T1300,3501A,116.8249,35.5593,济宁市,服务中心,,45,45,21,7,5,23,,25,22,11,7,6,5,0.4,0.3
2024-09-18T1300,3678A,116.5907,35.4054,济宁市,市第七中学,,20,20,18,9,6,19,,22,21,21,11,7,6,0.6,0.5
2024-09-18T1300,2255A,130.2751,46.8028,佳木斯市,佳纺,,27,18,20,8,8,86,,60,60,2,8,6,4,0.4,0.4
2024-09-18T1300,2256A,130.3995,46.8307,佳木斯市,发电厂,,27,13,19,3,8,84,,57,57,3,8,12,5,0.4,0.4
2024-09-18T1300,2257A,130.3258,46.7975,佳木斯市,环保局,,26,19,18,9,7,83,,61,61,4,8,7,7,0.4,0.4
2024-09-18T1300,2258A,130.3648,46.8032,佳木斯市,十一中,,27,21,20,9,9,86,,57,57,6,14,7,7,0.5,0.5
2024-09-18T1300,2259A,130.3794,46.7588,佳木斯市,四丰,,25,14,14,9,7,80,,59,59,7,10,1,1,0.2,0.2
2024-09-18T1300,1252A,120.7436,30.778,嘉兴市,清河小学,,23,21,22,10,8,72,,42,42,7,9,4,4,0.3,0.3
2024-09-18T1300,1253A,120.726,30.7478,嘉兴市,嘉兴学院,,22,20,19,7,8,68,,40,40,4,7,4,3,0.3,0.3
2024-09-18T1300,2872A,120.7846,30.7525,嘉兴市,南湖区残联,,25,19,20,8,8,79,,48,48,6,8,4,5,0.3,0.3
2024-09-18T1300,3407A,120.6916,30.7739,嘉兴市,秀洲住建,,24,19,21,10,9,74,,42,42,4,8,4,4,0.5,0.5
2024-09-18T1300,1945A,98.2908,39.7711,嘉峪关市,气象局,,33,31,33,19,14,105,,63,61,4,12,5,9,0.4,0.6
2024-09-18T1300,2884A,98.2672,39.7978,嘉峪关市,酒钢宾馆,,44,44,39,24,17,101,,68,56,15,16,13,22,0.6,0.7
2024-09-18T1300,3248A,98.2643,39.7724,嘉峪关市,雄关区,,,,32,,16,101,,54,50,8,14,9,12,0,0.6
2024-09-18T1300,1383A,113.1064,22.6058,江门市,北街,,41,26,17,16,11,130,,58,58,10,10,6,4,0.6,0.6
2024-09-18T1300,1384A,113.0731,22.5835,江门市,西区,,43,,18,11,10,136,,59,59,13,14,7,5,0.4,0.4
2024-09-18T1300,1385A,113.0219,22.5311,江门市,圭峰西,,42,31,17,14,10,133,,62,62,11,8,4,2,0.6,0.5
2024-09-18T1300,1386A,113.0828,22.5947,江门市,东湖,,41,25,17,13,8,129,,56,56,10,10,5,3,0.4,0.4
2024-09-18T1300,3311A,113.1075,22.5647,江门市,江海富民,,42,24,27,12,14,132,,61,61,14,11,7,7,0.6,0.6
2024-09-18T1300,3449A,113.05,22.4667,江门市,新会银湖,,39,19,20,13,11,122,,57,57,11,10,6,5,0.6,0.7
2024-09-18T1300,1828A,113.227,35.2125,焦作市,市环保局,,43,43,54,28,31,125,,113,99,12,12,7,6,0.8,0.7
2024-09-18T1300,3169A,113.2725,35.2067,焦作市,太极体育中心,,40,33,53,18,29,126,,127,112,9,10,4,8,0.9,1
2024-09-18T1300,3335A,113.3137,35.2641,焦作市,马村街道办,,40,30,46,10,31,127,,112,106,7,11,1,4,0.7,0.7
2024-09-18T1300,3336A,113.2465,35.2373,焦作市,焦作技师学院,,39,36,51,27,32,118,,106,94,10,12,7,7,0.7,0.7
2024-09-18T1300,3477A,113.1656,35.2539,焦作市,中站许衡医院,细颗粒物(PM2.5),59,44,39,42,27,125,,77,69,16,19,9,6,0.8,0.7
2024-09-18T1300,3981A,113.2449,35.1803,焦作市,原李万街道办,,38,35,54,19,26,119,,128,105,6,8,2,4,0.8,0.7
2024-09-18T1300,1708A,116.3701,23.5345,揭阳市,新兴,,35,35,54,16,25,100,,52,52,6,11,7,7,0.5,0.7
2024-09-18T1300,1709A,116.3264,23.5443,揭阳市,西马,,31,27,53,14,28,99,,46,46,3,6,8,5,0.5,0.8
2024-09-18T1300,1710A,116.3611,23.5626,揭阳市,东兴,,31,29,56,10,21,97,,46,46,3,9,9,6,0.5,0.7
2024-09-18T1300,1711A,116.4151,23.5294,揭阳市,渔湖,,26,20,61,3,24,81,,47,47,4,14,5,5,0.4,0.6
2024-09-18T1300,3320A,116.403,23.5699,揭阳市,曲溪,,30,27,38,8,23,96,,49,49,6,11,2,2,0.4,0.7
2024-09-18T1300,1944A,102.1692,38.5167,金昌市,天庆家园,,17,17,35,10,29,51,,61,48,10,12,8,11,0.7,0.6
2024-09-18T1300,3170A,102.1864,38.5253,金昌市,市委党校,,15,15,46,9,29,47,,56,46,9,11,5,8,0.8,0.9
2024-09-18T1300,4022A,102.1647,38.5371,金昌市,金川区人防中心,,19,19,49,7,30,42,,51,37,9,11,14,15,0.7,1.1
2024-09-18T1300,1262A,119.647,29.077,金华市,十五中,,31,22,21,3,8,98,,42,42,4,14,2,2,0.3,0.5
2024-09-18T1300,1263A,119.686,29.1029,金华市,监测站,,,22,20,9,9,97,,41,41,,19,3,2,0.3,0.4
2024-09-18T1300,3659A,119.656,29.1131,金华市,气象局,,31,23,19,11,8,98,,40,40,5,18,5,5,0.0,0.2
2024-09-18T1300,1767A,121.1115,41.0879,锦州市,南山,,32,32,25,17,17,55,,30,30,20,20,15,18,0.6,0.6
2024-09-18T1300,1768A,121.0533,40.8434,锦州市,开发区,,,27,30,12,17,61,,43,43,17,20,10,28,,0.9
2024-09-18T1300,1769A,121.1836,41.1119,锦州市,百股街道,,26,26,24,9,11,55,,33,33,16,20,14,20,0.6,0.7
2024-09-18T1300,1770A,121.1178,41.1222,锦州市,天安街道,,30,30,28,16,16,57,,34,34,19,24,14,19,0.6,0.6
2024-09-18T1300,1771A,121.1303,41.1386,锦州市,北湖公园,,28,28,24,18,16,63,,36,36,16,17,15,18,0.3,0.5
2024-09-18T1300,2160A,112.85,35.5051,晋城市,自来水公司,,43,43,52,27,28,122,,99,99,13,15,12,11,1.4,1.5
2024-09-18T1300,2161A,112.8318,35.4936,晋城市,白云商贸,,40,39,50,19,26,126,,96,96,15,19,11,11,1.5,1.7
2024-09-18T1300,2162A,112.8508,35.4887,晋城市,市环保局,,48,48,53,24,29,120,,98,98,12,15,8,11,1.2,1.3
2024-09-18T1300,2163A,112.8676,35.4897,晋城市,技术学院,,42,42,40,24,28,120,,98,98,14,17,8,9,1.1,1.2
2024-09-18T1300,3620A,112.8271,35.4828,晋城市,泽州一中,,44,44,44,24,30,119,,94,94,17,22,15,16,1.4,1.6
2024-09-18T1300,2171A,112.7532,37.6945,晋中市,锦纶小区,,36,36,52,19,32,109,,114,106,6,9,7,7,0.5,0.6
2024-09-18T1300,2173A,112.7249,37.7067,晋中市,南都小区,,35,35,50,20,40,110,,113,105,10,11,5,5,0.9,1
2024-09-18T1300,2174A,112.6991,37.6982,晋中市,榆次区政府,,39,39,47,20,28,110,,103,92,10,10,6,6,0.6,0.6
2024-09-18T1300,2865A,112.7195,37.6828,晋中市,榆次三中,,36,36,50,19,30,115,,115,108,8,9,7,7,0.6,0.7
2024-09-18T1300,2439A,112.2014,31.0481,荆门市,竹园小学,,49,49,53,27,28,128,,82,82,8,19,13,12,0.7,0.7
2024-09-18T1300,2440A,112.1969,30.9891,荆门市,掇刀,,45,45,44,26,26,136,,106,106,9,15,12,12,0.5,0.6
2024-09-18T1300,2441A,112.2213,31.0386,荆门市,石化一小,颗粒物(PM10),54,58,57,28,30,133,,91,91,8,14,14,14,0.5,0.6
2024-09-18T1300,3012A,112.1849,31.0362,荆门市,西山林语,,41,40,42,22,24,131,,89,89,9,14,10,10,0.7,0.7
2024-09-18T1300,3547A,112.1632,31.0138,荆门市,龙泉中学南校,细颗粒物(PM2.5),58,49,42,41,26,132,,104,104,7,14,7,10,0.6,0.6
2024-09-18T1300,1844A,112.2494,30.3197,荆州市,市图书馆,,42,40,41,20,31,132,,96,96,9,15,10,10,0.6,0.7
2024-09-18T1300,1845A,112.2008,30.3544,荆州市,市委党校,,43,30,46,26,36,136,,97,97,6,13,6,7,0.8,0.8
2024-09-18T1300,3194A,112.2747,30.3122,荆州市,管委会,,42,36,41,26,35,133,,89,89,6,14,9,10,0.6,0.7
2024-09-18T1300,3548A,112.1655,30.3364,荆州市,学苑路,,44,44,51,24,37,140,,97,97,8,16,11,9,0.7,0.7
2024-09-18T1300,2343A,117.2117,29.2933,景德镇市,老干部活动中心,,17,,13,8,10,54,,39,39,4,6,6,9,0.3,0.4
2024-09-18T1300,2344A,117.1894,29.2789,景德镇市,兽医站,,18,10,15,6,9,57,,39,39,2,4,6,10,0.3,0.5
2024-09-18T1300,2345A,117.1547,29.2617,景德镇市,台达陶瓷,,20,14,14,3,12,62,,42,42,4,4,6,7,0.2,0.3
2024-09-18T1300,2346A,117.2461,29.2956,景德镇市,陶研所,,19,9,14,3,7,59,,39,39,4,6,7,7,0.3,0.3
2024-09-18T1300,1803A,115.9872,29.6815,九江市,十里,,50,50,49,16,28,152,,102,102,8,18,12,14,0.8,0.9
2024-09-18T1300,1804A,115.9584,29.7046,九江市,茅山头,,45,20,46,18,31,144,,90,90,12,22,10,11,0.7,0.8
2024-09-18T1300,1805A,115.9877,29.7295,九江市,西园,,45,34,50,18,34,144,,94,94,12,24,11,24,0.6,0.7
2024-09-18T1300,1806A,116.0172,29.6547,九江市,五七二七厂,,50,38,40,27,28,158,,104,104,13,20,11,11,0.7,0.8
2024-09-18T1300,1808A,115.9114,29.6038,九江市,综合工业园,,46,,48,18,27,147,,105,105,12,27,19,25,0.7,0.9
2024-09-18T1300,1809A,116.0721,29.7535,九江市,石化总厂,,36,33,54,23,35,114,,90,90,10,23,10,13,0.6,0.7
2024-09-18T1300,1810A,115.9773,29.5698,九江市,庐山气象台,,39,28,24,22,17,124,,90,90,5,4,7,10,1.1,0.9
2024-09-18T1300,3190A,116.0254,29.6994,九江市,外国语学校,颗粒物(PM10),51,52,47,20,25,137,,96,96,10,19,10,13,0.4,0.5
2024-09-18T1300,2658A,98.5061,39.7443,酒泉市,仓门街子站,,34,34,24,15,12,102,,65,65,4,9,11,24,0.5,0.4
2024-09-18T1300,2659A,98.4989,39.7256,酒泉市,油田生活基地,,34,34,28,10,9,102,,59,57,7,11,10,21,0.5,0.4
2024-09-18T1300,2698A,76.0072,39.4467,喀什地区,巡警大队,颗粒物(PM10),58,66,137,3,28,92,,78,71,12,14,4,4,0.4,0.4
2024-09-18T1300,2699A,75.9755,39.4694,喀什地区,吾办,颗粒物(PM10),52,53,137,16,46,97,,76,71,10,13,5,5,0.3,0.4
2024-09-18T1300,4027A,75.9483,39.4689,喀什地区,老干局,,39,39,135,6,26,94,,76,72,6,11,4,4,0.3,0.3
2024-09-18T1300,1824A,114.3389,34.7781,开封市,肿瘤医院,,39,39,48,25,25,91,,150,116,9,10,3,6,0.6,0.6
2024-09-18T1300,1826A,114.2885,34.7965,开封市,世纪星幼儿园,,,32,47,,29,98,,156,121,4,6,3,6,0.7,0.7
2024-09-18T1300,3147A,114.3438,34.8106,开封市,龙亭公园,,30,29,47,21,26,86,,138,106,8,10,4,6,0.8,0.8
2024-09-18T1300,3210A,114.3644,34.7964,开封市,汴京公园,,43,31,50,30,33,86,,142,107,9,10,5,7,0.7,0.7
2024-09-18T1300,3473A,114.2485,34.8306,开封市,技师学院,,32,32,45,21,23,101,,153,122,7,8,7,7,0.9,1
2024-09-18T1300,3592A,114.4644,34.7556,开封市,祥符区生态环境局,,36,26,51,25,27,48,,128,88,24,12,12,7,0.9,0.7
2024-09-18T1300,1951A,84.895,45.6094,克拉玛依市,长征新村,,26,18,36,3,6,83,,78,74,2,6,5,6,0.2,0.2
2024-09-18T1300,1952A,84.8988,45.5893,克拉玛依市,南林小区,,26,12,30,3,12,83,,83,77,2,9,10,9,0.2,0.2
2024-09-18T1300,1954A,84.905,44.3396,克拉玛依市,独山子区,,32,32,55,9,14,79,,84,75,8,10,7,11,0.1,0.5
2024-09-18T1300,1955A,85.6979,46.098,克拉玛依市,乌尔禾区商贸楼,,25,20,31,12,7,79,,70,68,4,4,8,8,0.3,0.2
2024-09-18T1300,3612A,85.1045,45.6899,克拉玛依市,白碱滩区新站,,28,26,34,3,6,87,,84,83,5,4,6,7,0.2,0.2
2024-09-18T1300,2697A,76.1454,39.7142,克孜勒苏柯尔克孜自治州,市人民政府,,35,35,134,11,41,99,,107,99,9,4,14,5,0.3,0.3
2024-09-18T1300,3665A,76.1658,39.7157,克孜勒苏柯尔克孜自治州,克州文化中心,,35,27,135,10,44,109,,104,102,2,2,13,11,0.3,0.3
2024-09-18T1300,1450A,102.8204,24.8886,昆明市,呈贡新区,,32,32,21,10,11,71,,56,56,6,8,9,7,0.7,0.6
2024-09-18T1300,1452A,102.7252,25.0902,昆明市,龙泉镇,,25,,16,10,7,77,,62,62,5,9,6,7,0.6,0.6
2024-09-18T1300,1453A,102.7266,25.0375,昆明市,东风东路,,22,14,14,11,10,69,,56,56,10,10,5,6,0.3,0.3
2024-09-18T1300,1454A,102.6742,25.0669,昆明市,金鼎山,,25,15,25,12,8,77,,57,57,8,12,8,9,0.3,0.4
2024-09-18T1300,1455A,102.6644,25.0401,昆明市,碧鸡广场,,23,16,14,3,7,72,,57,57,10,10,7,6,0.5,0.5
2024-09-18T1300,3179A,102.7494,25.0119,昆明市,官渡区博物馆,,29,29,16,9,7,72,,56,56,10,13,6,7,0.3,0.3
2024-09-18T1300,3375A,102.8017,24.8336,昆明市,青年创业园,,24,17,15,16,11,75,,61,61,5,7,7,6,0.6,0.5
2024-09-18T1300,3550A,102.7997,24.9786,昆明市,昆明学院,,23,13,17,8,13,73,,57,57,8,11,5,7,0.4,0.4
2024-09-18T1300,3551A,102.5967,24.6736,昆明市,晋宁区生态环境分局,,,10,19,,11,87,,68,68,6,7,4,4,0.3,0.4
2024-09-18T1300,3552A,102.6678,24.9856,昆明市,云天化总部,,22,17,14,13,11,68,,55,55,8,9,5,6,0.4,0.4
2024-09-18T1300,1456A,91.1319,29.6514,拉萨市,八廓街,,25,25,17,16,13,69,,50,48,9,14,7,9,0.1,0.1
2024-09-18T1300,1457A,91.1221,29.6747,拉萨市,市环保局,,22,16,15,11,10,70,,40,40,9,16,7,9,0.3,0.3
2024-09-18T1300,1458A,91.0874,29.6475,拉萨市,区监测站,,21,17,12,10,8,66,,43,37,6,17,8,8,0,0
2024-09-18T1300,1459A,91.1774,29.6541,拉萨市,西藏大学,,22,17,12,14,8,69,,46,46,9,10,6,9,0.4,0.4
2024-09-18T1300,1460A,90.9798,29.6588,拉萨市,区辐射站,,20,20,13,13,8,64,,45,38,10,15,9,9,0.2,0.1
2024-09-18T1300,1461A,91.0834,29.6292,拉萨市,拉萨火车站,,21,12,11,9,8,65,,43,33,6,18,5,6,0.2,0.3
2024-09-18T1300,2520A,109.2203,23.7256,来宾市,来宾技工学校,,42,42,32,24,23,89,,55,55,8,10,6,7,0.7,0.8
2024-09-18T1300,3535A,109.1781,23.7297,来宾市,兴宾区政府,,30,30,26,19,17,95,,59,59,5,5,8,6,0.7,0.6
2024-09-18T1300,4002A,109.2416,23.7461,来宾市,中南小学,,48,48,38,22,22,102,,63,63,7,10,6,7,0.7,0.8
2024-09-18T1300,1476A,103.631,36.1031,兰州市,兰炼宾馆,细颗粒物(PM2.5),67,81,59,48,48,168,,59,59,25,34,9,11,0.9,0.8
2024-09-18T1300,1478A,103.8412,36.0726,兰州市,生物制品所,细颗粒物(PM2.5),55,54,54,39,43,79,,30,30,33,38,10,11,0.7,0.8
2024-09-18T1300,1479A,103.831,36.0464,兰州市,铁路设计院,细颗粒物(PM2.5),59,59,58,42,45,64,,22,22,48,48,8,9,0.8,0.9
2024-09-18T1300,3186A,103.7158,36.1058,兰州市,教育港,细颗粒物(PM2.5),64,67,65,46,46,148,,46,46,20,39,9,10,0.8,0.8
2024-09-18T1300,3241A,103.7439,36.0842,兰州市,百合公园,颗粒物(PM10),53,55,53,33,33,108,,35,35,20,35,10,10,0.9,1
2024-09-18T1300,3242A,103.9611,35.998,兰州市,和平,,38,38,48,23,32,80,,40,40,15,24,9,10,0.6,0.8
2024-09-18T1300,3245A,103.6633,36.533,兰州新区,新区管委会,颗粒物(PM10),54,58,44,24,26,85,,37,37,8,13,11,16,0.6,0.7
2024-09-18T1300,3246A,103.6975,36.4789,兰州新区,舟曲中学,,43,41,42,30,31,86,,47,47,6,17,12,18,0.5,0.7
2024-09-18T1300,1067A,116.6708,39.5111,廊坊市,药材公司,,36,21,65,19,35,114,,88,81,10,15,5,6,0.5,0.9
2024-09-18T1300,1068A,116.7214,39.5589,廊坊市,开发区,,36,23,57,14,33,114,,75,75,8,16,4,4,0.5,0.9
2024-09-18T1300,1070A,116.7244,39.5269,廊坊市,北华航天学院,,37,35,75,12,33,116,,79,79,6,16,5,5,0.4,0.9
2024-09-18T1300,2919A,116.7022,39.5453,廊坊市,河北工业大学,,42,42,63,17,33,118,,78,78,6,15,4,6,0.5,0.9
2024-09-18T1300,2535A,103.7723,29.5462,乐山市,花湖湾,,40,,30,22,32,126,,54,54,5,12,5,6,0.6,0.9
2024-09-18T1300,2536A,103.7627,29.5844,乐山市,牛耳桥,,45,40,46,28,33,141,,55,55,12,23,4,4,0.6,0.7
2024-09-18T1300,2537A,103.7508,29.6006,乐山市,市第三水厂,,45,37,43,26,31,142,,60,60,9,22,3,3,0.5,0.7
2024-09-18T1300,2538A,103.7571,29.5664,乐山市,市监测站,,46,39,46,32,33,138,,62,62,8,13,3,6,0.6,0.7
2024-09-18T1300,3361A,103.7311,29.5628,乐山市,理工大学,,,43,45,27,35,130,,64,64,,14,3,4,0.6,0.9
2024-09-18T1300,2599A,100.2497,26.8802,丽江市,丽江古城,,22,10,18,6,13,68,,43,43,6,10,9,9,0.6,0.7
2024-09-18T1300,2600A,100.2203,26.8906,丽江市,市中心,,22,10,15,6,8,69,,47,47,4,9,6,6,0.6,0.6
2024-09-18T1300,1267A,119.914,28.4514,丽水市,监测站大楼,,21,14,16,8,5,67,,32,32,2,8,4,5,0.3,0.4
2024-09-18T1300,1268A,119.93,28.4586,丽水市,莲都小学,,33,33,14,7,4,60,,35,35,2,6,4,4,0.3,0.3
2024-09-18T1300,1269A,119.879,28.4231,丽水市,余庄前,,20,17,18,9,6,64,,29,29,2,7,4,4,0.3,0.3
2024-09-18T1300,1173A,119.176,34.5885,连云港市,市环境监测站,,20,14,17,3,4,64,,44,44,4,5,5,4,0.3,0.2
2024-09-18T1300,3000A,119.3581,34.6972,连云港市,德源药业,,18,14,14,3,3,57,,45,45,3,2,5,4,0.1,0.2
2024-09-18T1300,3007A,119.178,34.844,连云港市,新城一中,,18,18,22,8,6,56,,42,42,5,5,4,3,0.5,0.5
2024-09-18T1300,3008A,119.3608,34.7519,连云港市,胡沟管理处,,18,14,16,3,4,56,,40,40,4,12,6,7,0.3,0.7
2024-09-18T1300,3009A,119.1478,34.5911,连云港市,矿山设计院,,18,14,17,3,6,56,,42,42,4,7,4,4,0.4,0.5
2024-09-18T1300,3434A,119.2413,34.6539,连云港市,工贸学校,,24,20,19,8,9,76,,51,51,10,6,8,7,0.5,0.4
2024-09-18T1300,3664A,119.4172,34.7341,连云港市,连云街道,,18,18,18,9,7,52,,42,42,4,3,4,4,0.5,0.5
2024-09-18T1300,2571A,102.3431,27.8099,凉山彝族自治州,青龙寺,,25,6,10,3,4,78,,44,44,2,4,7,6,0.8,0.8
2024-09-18T1300,2572A,102.2721,27.8415,凉山彝族自治州,邛海宾馆,,28,18,13,10,9,87,,46,46,5,9,9,8,0.5,0.5
2024-09-18T1300,2573A,102.2625,27.898,凉山彝族自治州,西昌市政府,,31,21,11,14,7,98,,50,50,8,6,11,8,0.4,0.4
2024-09-18T1300,2574A,102.2685,27.8851,凉山彝族自治州,凉山州政府,,,28,15,20,10,98,,53,53,,7,8,6,0.3,0.8
2024-09-18T1300,2575A,102.237,27.8914,凉山彝族自治州,长安,,32,16,15,12,9,100,,46,46,11,7,11,9,0.6,0.7
2024-09-18T1300,2212A,123.2,41.1953,辽阳市,宏伟区,,48,48,62,24,36,83,,25,25,21,36,15,20,0.8,1.2
2024-09-18T1300,2213A,123.1683,41.2495,辽阳市,新华园,,34,34,65,16,34,86,,29,29,11,39,15,27,0.7,1.1
2024-09-18T1300,2214A,123.2354,41.2639,辽阳市,滨河路,,36,36,61,15,32,89,,34,34,11,33,19,22,0.6,1.1
2024-09-18T1300,2215A,123.149,41.2991,辽阳市,铁西工业园,,,,74,14,30,80,,33,33,8,28,17,18,0.8,1.2
2024-09-18T1300,2227A,125.1358,42.8845,辽源市,环保局,,28,8,30,7,19,89,,50,50,5,14,7,7,0.5,0.8
2024-09-18T1300,3239A,125.0764,42.9078,辽源市,银鹰制药,,30,30,39,7,18,80,,44,44,5,18,6,5,0.5,1
2024-09-18T1300,1625A,115.9848,36.4372,聊城市,区政府,,47,47,42,22,23,116,,100,96,13,15,13,14,0.9,0.8
2024-09-18T1300,2878A,116.0072,36.4343,聊城市,聊大东校,,45,39,46,31,31,124,,102,102,14,17,13,14,0.7,0.8
2024-09-18T1300,3200A,115.9819,36.4978,聊城市,监控中心,,39,39,40,24,23,124,,101,101,8,12,10,11,0.6,0.5
2024-09-18T1300,3513A,116.0445,36.4361,聊城市,九州社区,,49,49,53,25,26,116,,92,92,8,12,6,8,0.4,0.5
2024-09-18T1300,4018A,116.0567,36.4608,聊城市,星美广场,,42,39,43,29,24,124,,100,100,10,12,6,11,0.8,0.7
2024-09-18T1300,2632A,94.3681,29.6376,林芝市,林芝监测站,,18,,8,6,6,55,,36,34,2,2,10,10,0.2,0.2
2024-09-18T1300,2633A,94.3616,29.6616,林芝市,林芝人民医院,,18,6,8,3,6,56,,35,35,4,4,8,8,0.3,0.3
2024-09-18T1300,2603A,100.0781,23.8982,临沧市,市环保局,,21,19,26,11,16,66,,33,33,6,9,3,4,0.4,0.5
2024-09-18T1300,2604A,100.0894,23.8822,临沧市,市气象局,,22,13,19,7,17,70,,36,36,5,8,4,4,0.3,0.5
2024-09-18T1300,1733A,111.5531,36.0783,临汾市,临钢医院,颗粒物(PM10),59,67,65,39,28,136,,81,81,9,17,8,7,0.9,0.8
2024-09-18T1300,1734A,111.5028,36.0714,临汾市,技工学校,颗粒物(PM10),61,72,59,33,33,131,,77,77,10,16,8,9,1.0,0.9
2024-09-18T1300,1736A,111.5018,36.0855,临汾市,市委,,,,55,,25,141,,80,80,11,15,8,8,0.9,0.9
2024-09-18T1300,3018A,111.505,36.1014,临汾市,唐尧大酒店,细颗粒物(PM2.5),55,58,50,39,27,128,,72,72,9,16,6,6,0.9,1
2024-09-18T1300,3668A,111.5036,36.0414,临汾市,城南,颗粒物(PM10),53,56,58,31,29,138,,80,80,7,19,8,7,1.0,0.9
2024-09-18T1300,2667A,103.2069,35.5993,临夏回族自治州,环保局,,38,26,29,26,25,87,,30,30,6,11,9,8,0.4,0.6
2024-09-18T1300,2668A,103.2417,35.6057,临夏回族自治州,建设大厦,,29,29,40,10,19,87,,34,34,4,12,9,9,0.5,0.7
2024-09-18T1300,1618A,118.3429,35.0532,临沂市,沂河小区,,23,19,20,11,10,71,,38,38,4,5,7,7,0.2,0.2
2024-09-18T1300,1619A,118.295,35.0583,临沂市,鲁南制药厂,,25,9,12,8,8,78,,41,41,5,6,5,5,0.3,0.3
2024-09-18T1300,1620A,118.2794,34.9976,临沂市,新光毛纺厂,,26,,7,14,8,82,,49,49,11,9,4,5,0.4,0.4
2024-09-18T1300,1621A,118.3956,35.0888,临沂市,河东保险公司,,21,14,18,3,4,65,,33,33,5,8,7,7,0.3,0.4
2024-09-18T1300,3370A,118.3564,35.0215,临沂市,十里堡居委,,25,9,5,3,2,80,,44,44,8,5,7,7,0.4,0.4
2024-09-18T1300,3496A,118.3604,35.1084,临沂市,南坊新区,,20,19,21,3,6,61,,32,32,5,8,8,9,0.4,0.7
2024-09-18T1300,3860A,118.3920,35.0300,临沂市,皇山花园小区,,24,19,14,6,5,76,,42,42,7,8,6,6,0.4,0.5
2024-09-18T1300,1870A,109.4856,24.3895,柳州市,柳东小学,,29,29,29,20,19,75,,56,56,4,5,8,7,0.6,0.7
2024-09-18T1300,1871A,109.4157,24.3277,柳州市,环保监测站,颗粒物(PM10),58,65,33,31,20,82,,61,61,5,7,8,9,0.8,0.9
2024-09-18T1300,1872A,109.389,24.341,柳州市,河西水厂,,39,37,37,27,25,80,,51,51,7,12,12,18,1.1,1.3
2024-09-18T1300,1873A,109.4311,24.2921,柳州市,市四中,,32,32,31,19,18,88,,66,66,4,5,6,6,0.8,0.8
2024-09-18T1300,1874A,109.4006,24.3631,柳州市,市九中,,49,37,36,34,20,82,,59,59,6,7,7,7,0.6,0.7
2024-09-18T1300,1875A,109.4958,24.3134,柳州市,古亭山,,30,30,29,20,19,82,,62,62,6,7,6,7,0.8,0.8
2024-09-18T1300,3402A,109.5422,24.3996,柳州市,市二中,,29,29,29,18,19,78,,52,52,6,8,7,8,0.6,0.6
2024-09-18T1300,2307A,116.5079,31.737,六安市,监测大楼,,30,30,17,17,18,78,,49,49,4,8,5,5,0.5,0.5
2024-09-18T1300,2308A,116.4738,31.7643,六安市,皖西学院,颗粒物(PM10),51,52,30,21,17,92,,49,49,4,9,5,5,0.3,0.3
2024-09-18T1300,2309A,116.4996,31.7905,六安市,朝阳厂,,33,33,17,9,15,83,,45,45,2,7,1,1,0.3,0.3
2024-09-18T1300,2310A,116.5567,31.7886,六安市,开发区,,50,50,26,15,17,72,,44,44,6,9,4,3,0.5,0.5
2024-09-18T1300,2577A,104.83,26.5917,六盘水市,黄土坡,,,,23,10,16,65,,38,38,8,14,8,10,0.4,0.5
2024-09-18T1300,2578A,104.89,26.5939,六盘水市,水钢,,25,19,32,17,17,67,,42,42,4,12,9,10,0.2,1
2024-09-18T1300,2579A,104.8475,26.5894,六盘水市,民中,,20,19,20,7,13,62,,33,33,11,16,11,9,0.4,0.4
2024-09-18T1300,2580A,104.9544,26.5506,六盘水市,双水,,20,17,28,14,15,64,,31,31,4,13,6,11,0.2,0.3
2024-09-18T1300,2336A,117.0217,25.1033,龙岩市,龙岩市监测站,,23,16,12,3,3,73,,54,54,5,6,7,8,0.3,0.3
2024-09-18T1300,2337A,117.0258,25.0661,龙岩市,闽西职业技术学院,,25,19,14,7,4,78,,54,54,2,3,5,5,0.5,0.5
2024-09-18T1300,2338A,117.0196,25.0306,龙岩市,龙岩学院,,25,16,14,6,3,79,,47,47,4,9,2,2,0.5,0.4
2024-09-18T1300,2885A,104.9339,33.3826,陇南市,滨江中学,,26,23,37,6,15,81,,73,73,5,7,7,7,0.5,0.5
2024-09-18T1300,3247A,104.955,33.371,陇南市,市总工会,,26,22,27,6,8,83,,80,78,2,4,8,9,0.4,0.4
2024-09-18T1300,2487A,111.9589,27.8901,娄底市,电视发射台,,45,45,44,17,20,106,,98,98,5,6,9,8,0.4,0.3
2024-09-18T1300,2488A,111.9975,27.725,娄底市,市监测站,,49,49,48,22,29,119,,87,87,4,13,6,10,0.6,1
2024-09-18T1300,2489A,112.0194,27.7314,娄底市,市委党校,,,42,44,20,30,111,,76,76,,11,9,9,0.5,0.9
2024-09-18T1300,2490A,111.9561,27.7569,娄底市,涟钢,,30,30,45,16,25,86,,66,66,17,11,11,9,0.8,0.6
2024-09-18T1300,2491A,111.9892,27.7044,娄底市,市政府,,45,,34,31,28,117,,78,78,5,8,6,5,0.4,0.5
2024-09-18T1300,1893A,105.4324,28.9634,泸州市,九狮山,,39,17,37,12,24,124,,61,61,13,13,3,4,0.4,0.5
2024-09-18T1300,1894A,105.4427,28.9063,泸州市,小市上码头,,38,28,30,11,18,120,,61,61,9,18,4,5,0.4,0.5
2024-09-18T1300,1895A,105.4241,28.8573,泸州市,兰田宪桥,,38,23,31,15,22,120,,57,57,6,14,6,5,0.2,0.4
2024-09-18T1300,1896A,105.4379,28.8833,泸州市,市环监站,,35,19,29,15,22,111,,66,66,5,13,6,7,0.5,0.6
2024-09-18T1300,3490A,105.3617,28.7703,泸州市,纳溪区环保局,,34,20,38,16,28,107,,50,50,5,19,6,6,0.3,0.5
2024-09-18T1300,2183A,111.1406,37.5211,吕梁市,环保局,颗粒物(PM10),51,51,63,26,34,101,,52,52,3,16,2,3,0.7,0.7
2024-09-18T1300,2185A,111.1297,37.5136,吕梁市,自来水公司,,47,47,74,27,34,105,,50,50,5,17,3,5,0.7,0.7
2024-09-18T1300,2867A,111.1283,37.51,吕梁市,马茂庄小学,,48,47,67,33,34,111,,51,51,5,22,3,5,0.6,0.7
2024-09-18T1300,1812A,112.3931,34.6516,洛阳市,市委党校,,50,43,49,35,29,105,,118,105,10,11,5,8,1.0,0.8
2024-09-18T1300,1814A,112.4657,34.6871,洛阳市,豫西宾馆,,,,59,,27,104,,112,102,,10,6,9,1.0,0.8
2024-09-18T1300,1815A,112.494,34.6886,洛阳市,河南林校,,38,30,50,26,28,103,,112,103,10,13,7,9,0.8,0.7
2024-09-18T1300,1816A,112.3844,34.623,洛阳市,开发区管委会,,42,34,45,29,29,102,,115,101,12,11,4,6,0.8,0.6
2024-09-18T1300,1817A,112.4267,34.6258,洛阳市,市委新办公区,细颗粒物(PM2.5),58,,45,41,36,102,,109,100,8,8,2,4,1.0,0.9
2024-09-18T1300,3340A,112.6005,34.6326,洛阳市,伊滨,细颗粒物(PM2.5),54,49,52,38,35,91,,114,95,1,3,6,8,1.0,0.8
2024-09-18T1300,3341A,112.4951,34.6332,洛阳市,中移产业园,细颗粒物(PM2.5),53,,56,37,37,97,,106,99,13,12,2,5,1.2,0.9
2024-09-18T1300,3593A,112.5736,34.8993,洛阳市,吉利监测站,细颗粒物(PM2.5),59,52,64,42,33,92,,89,89,5,15,2,5,0.9,0.6
2024-09-18T1300,3635A,112.3677,34.662,洛阳市,河科大西苑校区,,40,40,54,28,26,103,,116,105,11,13,3,6,1.0,0.8
2024-09-18T1300,3636A,112.4388,34.6781,洛阳市,英才小学,,,38,54,30,28,102,,113,100,,13,2,5,1.0,0.8
2024-09-18T1300,2399A,114.051,33.5699,漯河市,三五一五工厂,,35,24,44,24,26,57,,115,97,9,8,5,6,0.8,0.7
2024-09-18T1300,2400A,114.0055,33.5698,漯河市,漯河大学,,42,32,45,29,28,63,,118,100,9,9,4,4,0.8,0.7
2024-09-18T1300,2401A,114.0138,33.5828,漯河市,市水利局,,32,29,49,22,26,58,,115,96,6,5,4,4,0.7,0.6
2024-09-18T1300,2402A,114.0261,33.5698,漯河市,市广电局,,28,22,40,19,21,60,,117,99,5,5,6,6,0.9,0.8
2024-09-18T1300,3478A,113.9749,33.5664,漯河市,市图书馆,,40,,51,28,28,66,,123,103,8,8,9,9,0.7,0.7
2024-09-18T1300,3479A,114.0967,33.5906,漯河市,召陵区卫健委,,36,33,53,25,34,52,,108,88,4,5,5,5,0.9,0.8
2024-09-18T1300,1798A,118.5092,31.6837,马鞍山市,湖东路四小,,,25,29,6,11,87,,49,49,9,16,7,8,,0.6
2024-09-18T1300,1799A,118.5024,31.6449,马鞍山市,开发区,,27,24,26,7,11,85,,47,47,6,14,6,7,0.6,0.8
2024-09-18T1300,1800A,118.5228,31.7231,马鞍山市,慈湖,,28,15,27,8,11,89,,50,50,4,10,8,8,0.6,0.7
2024-09-18T1300,1802A,118.6245,31.7241,马鞍山市,濮塘,,26,14,16,10,12,83,,49,49,13,18,8,6,0.5,0.6
2024-09-18T1300,3633A,118.4918,31.6809,马鞍山市,雨山,,,,25,,13,,,33,,,13,,8,,1
2024-09-18T1300,1686A,111.0286,21.4688,茂名市,电白南海,,,,21,12,9,77,,55,55,6,6,10,10,,0.7
2024-09-18T1300,1687A,110.9294,21.6533,茂名市,茂石化七小,,21,14,16,3,7,65,,46,46,4,7,6,8,0.5,0.6
2024-09-18T1300,1688A,110.9107,21.6687,茂名市,健康路,,22,9,10,3,6,70,,48,48,1,4,11,14,0.6,0.7
2024-09-18T1300,1689A,110.8592,21.6828,茂名市,高岭,,20,19,18,14,9,61,,41,41,7,7,7,13,0.5,0.7
2024-09-18T1300,3450A,111.01,21.5165,茂名市,电白水东,,21,14,12,7,9,67,,51,51,5,7,5,7,0.2,0.3
2024-09-18T1300,2539A,104.0308,30.0478,眉山市,黑龙滩水库,,41,41,40,16,22,126,,49,49,3,6,8,7,0.5,0.5
2024-09-18T1300,2540A,103.8416,30.0874,眉山市,气象局,臭氧1小时,53,24,39,22,30,162,,58,58,13,24,9,6,0.7,0.6
2024-09-18T1300,3137A,103.8578,30.0744,眉山市,市委党校,,43,27,41,17,24,136,,59,59,10,31,9,8,0.4,0.8
2024-09-18T1300,3148A,103.8291,30.0564,眉山市,区人社局,,50,23,37,17,23,160,,59,59,14,28,11,10,0.6,0.6
2024-09-18T1300,1690A,116.1231,24.3284,梅州市,梅江月梅,,22,,18,15,7,61,,38,38,2,6,7,7,0.4,0.3
2024-09-18T1300,1691A,116.0797,24.2719,梅州市,梅县新城,,21,12,17,3,7,65,,42,42,3,7,5,5,0.4,0.4
2024-09-18T1300,1692A,116.1248,24.2654,梅州市,环境监控中心,,21,10,20,3,8,67,,40,40,4,10,6,7,0.4,0.5
2024-09-18T1300,3315A,116.1233,24.2991,梅州市,梅龙,,21,9,12,6,9,65,,42,42,1,5,9,9,0.4,0.6
2024-09-18T1300,1878A,104.7778,31.4741,绵阳市,富乐山,臭氧1小时,59,41,40,31,28,167,,74,74,10,16,3,3,0.7,0.7
2024-09-18T1300,1879A,104.7563,31.4535,绵阳市,市人大,臭氧1小时,63,47,44,31,29,170,,76,76,14,23,9,7,0.6,0.7
2024-09-18T1300,1880A,104.6697,31.4668,绵阳市,高新区自来水公司,,44,34,43,14,24,139,,76,76,5,18,4,3,0.7,0.8
2024-09-18T1300,1881A,104.7287,31.5075,绵阳市,三水厂,,50,46,45,27,31,160,,63,63,12,28,4,5,0.7,0.8
2024-09-18T1300,3491A,104.69,31.5322,绵阳市,西科大附属小学,,50,38,45,18,24,160,,79,79,10,18,4,5,0.6,0.6
2024-09-18T1300,3492A,104.5648,31.5343,绵阳市,安州区旅游局,,50,40,44,27,31,158,,78,78,10,14,7,7,0.6,0.7
2024-09-18T1300,1784A,129.61,44.561,牡丹江市,环保大楼,,25,16,20,13,14,77,,34,34,3,11,7,7,0.3,0.3
2024-09-18T1300,1785A,129.6115,44.5782,牡丹江市,文化广场,,24,11,28,8,17,74,,33,33,4,17,9,8,0.2,0.4
2024-09-18T1300,1786A,129.5904,44.5963,牡丹江市,第一医院,,26,24,28,18,21,83,,36,36,4,15,6,6,0.3,0.4
2024-09-18T1300,1787A,129.6364,44.6075,牡丹江市,机车工厂,,24,21,28,14,16,76,,33,33,4,10,6,27,0.2,0.2
2024-09-18T1300,1788A,129.6386,44.5462,牡丹江市,第一中学,,26,25,25,10,13,82,,38,38,4,8,6,6,0.3,0.3
2024-09-18T1300,2531A,105.0703,29.61,内江市,市监测站,,45,,31,17,35,141,,85,85,10,22,6,5,0.8,1
2024-09-18T1300,2532A,105.0717,29.5947,内江市,东兴区政府,,40,16,34,16,29,128,,79,79,12,24,5,5,0.6,0.8
2024-09-18T1300,2533A,105.0653,29.5817,内江市,内江二中,,40,23,40,18,38,125,,77,77,11,22,8,9,0.5,0.7
2024-09-18T1300,2534A,105.0406,29.5822,内江市,内江日报社,,40,20,34,20,35,126,,71,71,16,26,7,8,0.5,0.7
2024-09-18T1300,2628A,92.0657,31.4846,那曲市,那曲监测站,,26,26,29,3,13,68,,36,36,5,7,7,7,0.5,0.7
2024-09-18T1300,3128A,92.0506,31.4797,那曲市,那曲会议中心,颗粒物(PM10),57,64,45,14,17,72,,38,38,6,13,4,4,0.4,0.5
2024-09-18T1300,1290A,115.8931,28.6843,南昌市,省外办,,40,38,36,27,23,126,,98,98,9,11,10,9,0.5,0.4
2024-09-18T1300,1291A,115.8886,28.7003,南昌市,省林业公司,,,34,32,22,20,132,,100,100,,8,,7,0.9,0.8
2024-09-18T1300,1292A,115.8126,28.7442,南昌市,林科所,,39,22,23,12,13,123,,107,107,10,11,7,7,0.7,0.7
2024-09-18T1300,1294A,115.8518,28.687,南昌市,建工学校,,42,33,32,11,15,133,,110,110,7,6,10,9,0.6,0.7
2024-09-18T1300,1295A,115.8921,28.6424,南昌市,象湖,,37,28,25,23,18,117,,104,104,4,6,5,5,0.4,0.4
2024-09-18T1300,1296A,115.7423,28.7996,南昌市,武术学校,,33,17,22,11,17,105,,85,85,3,4,3,2,0.5,0.5
2024-09-18T1300,1298A,115.9314,28.6842,南昌市,省站,,38,38,28,24,23,108,,95,95,9,11,9,9,0.8,0.7
2024-09-18T1300,3046A,115.9084,28.6062,南昌市,机电学校,,45,45,36,24,18,117,,98,98,6,8,9,8,0.6,0.5
2024-09-18T1300,3690A,115.9721,28.7031,南昌市,外国语学校,,34,29,34,16,16,106,,96,96,6,10,8,8,0.6,0.6
2024-09-18T1300,1905A,106.056,30.8064,南充市,西山风景区,,42,28,28,27,29,133,,87,74,9,6,1,2,0.7,0.7
2024-09-18T1300,1906A,106.0789,30.8023,南充市,南充市委,,43,43,38,26,28,135,,74,74,8,15,2,3,0.4,0.5
2024-09-18T1300,1907A,106.1031,30.8217,南充市,南充炼油厂,,43,28,39,20,29,137,,64,64,6,16,2,3,0.4,0.4
2024-09-18T1300,1908A,106.1064,30.7856,南充市,高坪区监测站,,46,36,39,32,27,131,,67,67,12,21,3,4,0.4,0.5
2024-09-18T1300,1909A,106.0642,30.7636,南充市,嘉陵区环保局,,45,35,41,22,26,144,,69,69,9,21,2,3,0.4,0.5
2024-09-18T1300,1910A,106.1087,30.8388,南充市,市环境监测站,,43,33,41,29,31,136,,67,67,10,16,3,4,0.4,0.4
2024-09-18T1300,1151A,118.8086,32.1065,南京市,迈皋桥,,24,14,16,3,8,75,,46,46,5,8,4,4,0.2,0.2
2024-09-18T1300,1152A,118.7538,32.0551,南京市,草场门,,23,17,18,7,7,71,,44,44,7,10,5,5,0.2,0.3
2024-09-18T1300,1153A,118.7794,32.0745,南京市,山西路,,24,17,21,7,8,74,,47,47,3,9,3,4,0.3,0.3
2024-09-18T1300,1154A,118.7752,32.0023,南京市,中华门,,22,19,17,3,5,69,,41,41,2,4,6,6,0.3,0.3
2024-09-18T1300,1155A,118.8109,32.0309,南京市,瑞金路,,23,14,16,9,7,73,,43,43,9,10,4,4,0.4,0.4
2024-09-18T1300,1156A,118.7997,32.0754,南京市,玄武湖,,23,23,22,3,4,73,,45,45,2,2,5,6,0.1,0.9
2024-09-18T1300,1157A,118.6414,32.0931,南京市,浦口,,24,22,22,3,8,74,,43,43,6,8,4,4,0.4,0.4
2024-09-18T1300,1158A,118.7356,31.9996,南京市,奥体中心,,,21,20,19,12,70,,44,44,3,8,4,4,,0.3
2024-09-18T1300,1159A,118.9125,32.1028,南京市,仙林大学城,,25,17,21,12,12,80,,46,46,4,8,6,6,0.4,0.4
2024-09-18T1300,3422A,118.8436,31.9198,南京市,江宁彩虹桥,,25,19,20,9,6,78,,45,45,2,3,4,4,0.6,0.6
2024-09-18T1300,3423A,119.0138,31.6494,南京市,溧水永阳,,27,17,16,6,8,86,,51,51,6,8,4,4,0.3,0.3
2024-09-18T1300,3424A,118.879,31.3302,南京市,高淳老职中,,26,24,18,11,10,81,,50,50,4,8,3,4,0.3,0.3
2024-09-18T1300,3427A,118.8554,32.3578,南京市,六合雄州,,,30,21,11,7,75,,37,37,,12,6,8,,0.4
2024-09-18T1300,1401A,108.3103,22.7881,南宁市,二十一中,,44,44,28,21,18,86,,54,54,9,12,4,7,0.8,0.8
2024-09-18T1300,1402A,108.3141,22.8528,南宁市,北湖,,32,25,29,22,25,77,,52,52,8,13,3,11,0.8,0.8
2024-09-18T1300,1403A,108.3206,22.8225,南宁市,市监测站,,32,32,27,21,19,81,,53,53,12,13,6,11,0.7,0.7
2024-09-18T1300,1404A,108.3829,22.8037,南宁市,大自然花园,,37,37,26,21,19,73,,55,55,8,11,5,6,0.4,0.5
2024-09-18T1300,1405A,108.4394,22.7904,南宁市,仙葫,,26,26,32,14,25,72,,51,51,7,12,6,5,0.8,0.9
2024-09-18T1300,1406A,108.2397,22.8467,南宁市,区农职院,,33,33,30,20,16,82,,51,51,4,8,4,7,0.7,0.8
2024-09-18T1300,1407A,108.3275,22.735,南宁市,英华嘉园,,49,49,29,30,22,83,,47,47,10,14,5,7,0.5,0.6
2024-09-18T1300,1408A,108.2257,22.7757,南宁市,沙井镇街道办,,35,35,37,19,22,87,,46,46,10,13,4,10,1.0,1.2
2024-09-18T1300,3401A,108.4834,22.7618,南宁市,红星社区,,44,44,28,19,18,78,,55,55,6,9,7,8,0.4,0.5
2024-09-18T1300,2332A,118.1681,26.6369,南平市,南平市监测站,,20,7,13,3,5,64,,40,40,2,8,4,5,0.3,0.4
2024-09-18T1300,2333A,118.1825,26.6489,南平市,南平铝业有限公司,,20,13,15,3,3,64,,39,39,3,9,4,5,0.3,0.4
2024-09-18T1300,2334A,118.1756,26.6272,南平市,南平七中,,21,17,16,3,7,66,,39,39,2,6,2,3,0.4,0.5
2024-09-18T1300,1168A,120.9098,31.9663,南通市,狼山街道,,20,15,12,7,3,63,,43,43,1,2,7,7,0.3,0.5
2024-09-18T1300,1169A,120.86,32.0005,南通市,虹桥,,20,13,14,3,4,61,,41,41,1,2,6,6,0.3,0.4
2024-09-18T1300,1170A,120.87,32.02,南通市,城中,,,17,17,3,2,60,,41,41,,5,6,6,0.4,0.4
2024-09-18T1300,1171A,120.94,31.93,南通市,星湖花园,,,,8,3,3,53,,39,39,6,7,5,5,,0.5
2024-09-18T1300,1172A,120.81,32.0417,南通市,紫琅学院,,20,7,10,3,1,63,,42,42,5,7,7,7,0.3,0.3
2024-09-18T1300,3291A,121.067,32.062,南通市,通州监测站,,19,19,15,7,4,60,,42,42,4,4,4,3,0.5,0.4
2024-09-18T1300,3432A,120.9348,31.9883,南通市,环境教育馆,,20,17,18,3,2,62,,41,41,3,7,4,4,0.3,0.4
2024-09-18T1300,2404A,112.5224,33.0122,南阳市,瓦房庄,,30,30,50,20,34,92,,88,83,8,13,2,5,0.7,0.7
2024-09-18T1300,2405A,112.5003,32.9735,南阳市,汉画馆,,38,32,47,26,37,88,,83,80,8,11,6,8,0.6,0.7
2024-09-18T1300,2406A,112.5573,33.027,南阳市,气象站,,31,31,47,17,30,91,,88,82,8,11,6,7,0.8,0.8
2024-09-18T1300,2407A,112.5481,32.9689,南阳市,理工学院,,28,26,43,17,25,89,,90,83,10,12,5,7,0.6,0.6
2024-09-18T1300,4008A,112.5234,32.9922,南阳市,卧龙区政府,,36,30,48,25,34,88,,88,79,10,14,4,6,0.7,0.7
2024-09-18T1300,1234A,121.8358,29.911,宁波市,区环保大楼,,31,31,26,16,10,44,,35,35,11,17,4,4,0.6,0.6
2024-09-18T1300,1235A,121.56,29.82,宁波市,万里学院,,30,23,16,13,9,96,,46,46,11,10,6,6,0.6,0.5
2024-09-18T1300,1236A,121.713,29.9572,宁波市,龙赛医院,,,26,19,10,7,54,,44,44,,12,8,9,0.5,0.6
2024-09-18T1300,1239A,121.633,29.7733,宁波市,钱湖水厂,,27,27,17,16,8,85,,44,44,10,6,9,8,0.8,0.8
2024-09-18T1300,1240A,121.5856,29.8635,宁波市,太古小学,,28,28,24,8,6,84,,48,48,11,12,8,8,0.6,0.6
2024-09-18T1300,1241A,121.524,29.8674,宁波市,市环境监测中心,,29,22,17,8,6,92,,46,46,7,12,9,7,0.6,0.7
2024-09-18T1300,2871A,121.6147,29.9017,宁波市,万里国际学校,,25,17,16,10,8,80,,49,49,9,10,8,8,0.4,0.4
2024-09-18T1300,3710A,121.5594,29.8975,宁波市,白沙活动中心,,28,28,23,8,5,78,,46,46,9,10,9,8,0.2,0.3
2024-09-18T1300,2341A,119.5388,26.6612,宁德市,宁德市监测站,,23,21,22,12,9,73,,42,42,6,8,8,6,0.3,0.3
2024-09-18T1300,3209A,119.5231,26.6562,宁德市,宁德一中,,23,16,21,3,4,71,,44,44,3,4,7,5,0.1,0.2
2024-09-18T1300,2618A,98.8601,25.8567,怒江傈僳族自治州,州监测站,,,16,28,12,17,49,,28,28,8,8,4,5,,0.4
2024-09-18T1300,2619A,98.8546,25.8417,怒江傈僳族自治州,泸水一中,,24,24,24,10,16,55,,22,22,8,11,6,6,0.4,0.4
2024-09-18T1300,1888A,101.6891,26.571,攀枝花市,弄弄坪,,,41,53,23,24,96,,35,35,,25,25,18,0.6,0.9
2024-09-18T1300,1889A,101.5769,26.5928,攀枝花市,河门口,,43,43,37,27,23,116,,42,42,14,22,30,20,1.3,1.4
2024-09-18T1300,1890A,101.7169,26.585,攀枝花市,炳草岗,,,34,39,18,20,102,,41,41,,27,23,25,0.6,0.9
2024-09-18T1300,1891A,101.7369,26.5008,攀枝花市,仁和,,30,21,40,16,25,96,,52,52,7,17,11,16,0.5,0.8
2024-09-18T1300,2835A,101.7227,26.567,攀枝花市,四十中小,,47,47,38,26,20,108,,37,37,13,28,29,28,0.5,0.7
2024-09-18T1300,1604A,122.0303,41.1489,盘锦市,开发区,,34,34,21,3,9,86,,61,61,12,17,4,4,0.2,0.3
2024-09-18T1300,1605A,122.0485,41.0883,盘锦市,兴隆台,,34,34,20,8,9,90,,68,68,20,22,15,10,0.3,0.3
2024-09-18T1300,1606A,121.8297,41.1028,盘锦市,新生街道,,26,26,17,3,8,75,,51,51,19,26,12,9,0.3,0.3
2024-09-18T1300,1832A,113.3257,33.742,平顶山市,新华旅馆,,38,38,52,24,27,80,,125,101,8,8,4,6,1.1,1
2024-09-18T1300,1833A,113.2919,33.737,平顶山市,规划设计院,,27,26,40,16,21,86,,127,104,11,10,6,7,1.0,0.9
2024-09-18T1300,1834A,113.182,33.774,平顶山市,平顶山工学院,,29,29,42,14,20,84,,117,97,9,10,6,8,0.7,0.6
2024-09-18T1300,3204A,113.3025,33.73,平顶山市,规划局,,36,29,45,25,26,83,,123,102,12,11,3,5,1.0,0.8
2024-09-18T1300,3594A,112.8867,33.9116,平顶山市,石龙区,颗粒物(PM10),52,54,68,22,32,89,,78,78,15,14,10,15,0.8,0.7
2024-09-18T1300,2656A,106.6692,35.5461,平凉市,聚贤嘉苑,,41,41,53,15,27,91,,79,79,12,22,7,8,0.6,0.7
2024-09-18T1300,2657A,106.7021,35.5307,平凉市,博物馆,,46,46,60,16,26,98,,77,77,12,24,25,10,0.5,0.6
2024-09-18T1300,2347A,114.0997,27.5002,萍乡市,武功山,,31,31,32,6,7,80,,48,48,4,5,9,9,0.5,0.6
2024-09-18T1300,2348A,113.8385,27.6434,萍乡市,中医院,,35,27,44,24,30,96,,77,77,3,8,10,13,0.7,0.9
2024-09-18T1300,2349A,113.8493,27.6253,萍乡市,市政府车库,,49,,46,34,32,94,,69,69,1,6,15,10,0.7,0.7
2024-09-18T1300,2350A,113.8676,27.6435,萍乡市,市环保局,,36,36,38,22,28,88,,71,71,2,5,9,10,0.5,0.7
2024-09-18T1300,2351A,113.866,27.6198,萍乡市,安源区政府,,44,44,40,22,25,107,,74,74,6,10,21,14,0.7,0.7
2024-09-18T1300,2319A,119.0141,25.4325,莆田市,荔城区仓后路,,25,25,21,3,3,70,,52,52,4,4,7,7,0.6,0.6
2024-09-18T1300,2320A,119.0015,25.4553,莆田市,莆田市监测站,,39,39,17,3,4,75,,56,56,4,2,7,6,0.5,0.5
2024-09-18T1300,2321A,119.1119,25.4561,莆田市,涵江区六中,,25,25,20,3,4,74,,57,57,4,3,8,7,0.5,0.4
2024-09-18T1300,2322A,119.1013,25.3215,莆田市,秀屿区政府,,22,,21,11,7,69,,51,51,1,2,6,6,0.4,0.5
2024-09-18T1300,2392A,115.0312,35.7636,濮阳市,环保局,细颗粒物(PM2.5),54,,39,38,28,114,,116,98,13,14,7,9,0.6,0.5
2024-09-18T1300,2394A,115.0574,35.7609,濮阳市,油田运输公司,细颗粒物(PM2.5),53,37,39,37,27,116,,115,97,8,10,4,6,0.7,0.6
2024-09-18T1300,2395A,115.0866,35.7754,濮阳市,油田物探公司,细颗粒物(PM2.5),54,46,48,38,31,119,,115,97,9,11,4,5,0.6,0.5
2024-09-18T1300,3021A,115,35.7668,濮阳市,濮水河管理处,细颗粒物(PM2.5),59,58,44,42,29,105,,110,92,9,11,5,8,0.7,0.6
2024-09-18T1300,2601A,100.98,22.7633,普洱市,市环保局,,20,18,23,6,14,61,,42,42,4,6,10,10,0.4,0.5
2024-09-18T1300,2602A,100.9817,22.8322,普洱市,普洱第二中学,,20,18,26,6,11,64,,47,47,3,6,9,9,0.4,0.5
2024-09-18T1300,2262A,131.0518,45.8751,七台河市,新一中,,34,14,17,8,8,107,,66,66,6,7,10,9,1.0,1.1
2024-09-18T1300,3345A,131.0577,45.7879,七台河市,中波台,,26,25,23,6,5,83,,52,52,7,17,7,7,0.5,0.5
2024-09-18T1300,3637A,131.0176,45.7761,七台河市,人民广场,,26,22,25,12,14,81,,46,46,9,18,9,9,0.3,0.3
2024-09-18T1300,3684A,130.8781,45.8222,七台河市,新建矿广场,颗粒物(PM10),51,51,74,11,17,77,,48,48,10,21,4,6,0.2,0.5
2024-09-18T1300,1779A,123.9305,47.3636,齐齐哈尔市,安居小区,,24,24,27,3,12,70,,50,50,6,10,10,11,0.3,0.3
2024-09-18T1300,1780A,123.9488,47.3386,齐齐哈尔市,中心广场,,22,8,22,3,5,68,,48,48,6,11,2,4,0.2,0.3
2024-09-18T1300,1781A,123.9483,47.3227,齐齐哈尔市,农牧车辆厂,,27,27,30,3,5,70,,50,50,4,8,8,9,0.2,0.3
2024-09-18T1300,1783A,123.945,47.2988,齐齐哈尔市,市环境监测站,,29,29,27,3,11,70,,49,49,5,10,8,9,0.2,0.3
2024-09-18T1300,3662A,123.6333,47.2075,齐齐哈尔市,富区青少年活动中心,,23,12,29,3,8,72,,48,48,4,11,5,14,0.3,0.8
2024-09-18T1300,2591A,107.9783,26.5747,黔东南苗族侗族自治州,市环境监测站,,26,26,39,18,29,67,,36,36,9,15,3,3,0.4,0.5
2024-09-18T1300,2881A,107.8908,26.5311,黔东南苗族侗族自治州,凯里学院,,23,19,29,16,22,70,,42,42,7,13,2,2,0.6,0.6
2024-09-18T1300,2593A,107.5228,26.2403,黔南布依族苗族自治州,小围寨,,19,12,20,3,13,59,,41,41,6,8,3,4,0.4,0.5
2024-09-18T1300,3538A,107.5175,26.2978,黔南布依族苗族自治州,沙坝,,20,11,23,7,15,63,,40,40,4,7,3,4,0.5,0.6
2024-09-18T1300,2589A,104.9022,25.0925,黔西南布依族苗族自治州,场坝街,,22,12,20,3,14,70,,37,37,5,11,4,26,0.2,0.2
2024-09-18T1300,2590A,104.8811,25.0992,黔西南布依族苗族自治州,坪东大道,,21,13,20,8,11,66,,42,42,4,11,10,12,0.1,0.2
2024-09-18T1300,2502A,108.6236,21.9667,钦州市,市环保站,,41,41,31,22,17,83,,54,54,7,8,8,8,0.6,0.7
2024-09-18T1300,2503A,108.6549,21.9481,钦州市,沙埠小学,颗粒物(PM10),52,54,29,26,17,86,,54,54,8,10,6,6,0.8,0.8
2024-09-18T1300,2504A,108.5989,21.7431,钦州市,港区一小,,49,49,45,30,21,83,,42,42,11,12,6,7,0.7,0.7
2024-09-18T1300,3404A,108.5959,21.9633,钦州市,北职校,,49,49,34,29,24,90,,57,57,7,8,7,6,0.8,0.8
2024-09-18T1300,1042A,119.5134,39.8207,秦皇岛市,北戴河环保局,,32,28,27,3,8,101,,73,73,10,12,4,4,0.4,0.4
2024-09-18T1300,1043A,119.7493,40.0116,秦皇岛市,第一关,,31,20,26,3,21,98,,69,69,13,20,5,4,0.3,0.3
2024-09-18T1300,1044A,119.5897,39.9499,秦皇岛市,监测站,,29,22,30,11,22,91,,61,61,11,16,4,4,0.4,0.5
2024-09-18T1300,1046A,119.5251,39.9041,秦皇岛市,建设大厦,,31,26,31,7,12,98,,63,63,9,12,7,6,0.3,0.3
2024-09-18T1300,3132A,119.610547,39.943889,秦皇岛市,文明里,,50,50,38,6,11,102,,73,73,12,14,7,6,0.5,0.4
2024-09-18T1300,1307A,120.6659,36.2403,青岛市,仰口,,35,,15,24,15,58,,57,55,3,2,7,6,0.2,0
2024-09-18T1300,1310A,120.4134,36.0658,青岛市,市南区东部子站,,23,12,13,9,6,72,,59,57,2,3,5,6,0.3,0.3
2024-09-18T1300,1311A,120.3664,36.1032,青岛市,四方区子站,,16,6,9,3,6,51,,50,45,5,5,10,9,0.5,0.5
2024-09-18T1300,1312A,120.2994,36.054,青岛市,市南区西部子站,,,9,14,3,4,77,,61,61,,2,8,7,,0.6
2024-09-18T1300,1313A,120.4581,36.0858,青岛市,崂山区子站,,24,14,19,3,5,76,,63,62,8,9,8,8,0.4,0.4
2024-09-18T1300,1314A,120.1983,35.9608,青岛市,黄岛区子站,,19,12,14,3,4,59,,56,53,5,6,8,8,0.4,0.4
2024-09-18T1300,1315A,120.3999,36.3083,青岛市,城阳区子站,,18,7,11,7,9,57,,50,46,5,8,7,6,0.5,0.5
2024-09-18T1300,1966A,120.0405,35.8735,青岛市,黄岛区4号,,20,7,13,7,6,62,,50,49,3,4,5,5,0.4,0.5
2024-09-18T1300,3362A,120.5014,36.4034,青岛市,即墨2号,,20,,17,14,11,59,,65,56,5,4,6,6,0.4,0.4
2024-09-18T1300,3642A,120.3503,36.0736,青岛市,市北区南部,,,8,17,3,5,53,,50,46,8,8,,5,0.7,0.7
2024-09-18T1300,3643A,120.3948,36.1805,青岛市,李沧区北部,,27,27,12,9,9,75,,41,41,21,11,8,8,0.5,0.5
2024-09-18T1300,1702A,113.0426,23.691,清远市,环保大楼,,25,,19,17,14,78,,60,60,2,4,8,8,0.7,0.8
2024-09-18T1300,1703A,113.0208,23.7106,清远市,凤城街办,,26,21,20,18,15,81,,59,59,10,5,10,8,0.6,0.6
2024-09-18T1300,3025A,113.0477,23.6344,清远市,技师学院,,22,20,23,12,15,70,,54,54,2,3,6,6,0.5,0.6
2024-09-18T1300,3318A,112.9903,23.7403,清远市,清新太和,,27,23,21,12,14,85,,65,65,4,3,4,3,0.7,0.7
2024-09-18T1300,3455A,113.076,23.7198,清远市,清城东城,,29,29,21,16,15,82,,62,62,1,2,3,3,0.5,0.6
2024-09-18T1300,2661A,107.6325,35.7357,庆阳市,庆阳五中,,31,31,41,16,23,96,,95,89,4,9,7,7,0.4,0.5
2024-09-18T1300,2662A,107.6364,35.7067,庆阳市,市环保局,,30,29,37,11,19,96,,94,88,5,10,6,8,0.5,0.6
2024-09-18T1300,1916A,103.7897,25.5035,曲靖市,环境监测站,,26,22,21,18,12,61,,39,39,7,12,5,8,0.5,0.7
2024-09-18T1300,1917A,103.8,25.5364,曲靖市,烟厂办公区,,20,19,22,10,12,62,,43,43,7,12,4,6,0.5,0.8
2024-09-18T1300,3376A,103.7947,25.462,曲靖市,南苑二区,,20,18,19,14,11,64,,46,46,6,10,12,11,0.6,0.7
2024-09-18T1300,3377A,103.7444,25.5261,曲靖市,曲靖师范学院,,22,,18,12,14,70,,51,51,7,10,12,14,0.7,0.9
2024-09-18T1300,1264A,118.8692,28.9398,衢州市,环保大楼,,27,13,19,6,9,84,,50,50,6,15,2,2,0.4,0.5
2024-09-18T1300,1265A,118.8709,28.9666,衢州市,实验学校,,23,13,18,6,9,71,,44,44,3,12,4,5,0.3,0.4
2024-09-18T1300,1266A,118.8621,28.9808,衢州市,衢州学院,,22,16,17,3,7,70,,45,45,4,12,6,5,0.4,0.4
2024-09-18T1300,1611A,118.5819,24.9117,泉州市,涂山街,,29,24,19,11,9,90,,62,62,6,5,2,1,0.5,0.5
2024-09-18T1300,1612A,118.5972,24.8978,泉州市,津头埔,,27,24,22,10,8,85,,58,58,8,7,4,3,0.5,0.5
2024-09-18T1300,1613A,118.6663,24.9424,泉州市,万安,,28,22,22,10,8,88,,60,60,3,2,2,2,0.4,0.4
2024-09-18T1300,3529A,118.6333,24.9264,泉州市,城华南路,,28,22,19,8,7,89,,60,60,2,2,4,3,0.4,0.3
2024-09-18T1300,2626A,88.8876,29.2718,日喀则市,日喀则监测站,,23,6,9,3,5,71,,54,50,4,7,5,6,0.4,0.5
2024-09-18T1300,3726A,88.8781,29.2426,日喀则市,林业技术推广中心,,21,6,5,3,5,67,,54,52,5,6,5,5,0.3,0.3
2024-09-18T1300,1659A,119.471,35.4209,日照市,监测站,,17,,9,9,10,53,,38,38,5,7,10,10,0.2,0.2
2024-09-18T1300,1660A,119.523,35.4216,日照市,市政府广场,,20,9,15,9,8,61,,43,43,2,4,10,10,0.5,0.4
2024-09-18T1300,1661A,119.5587,35.4044,日照市,港务局,,24,14,16,11,11,74,,50,50,2,4,7,8,0.4,0.4
2024-09-18T1300,3507A,119.5328,35.4625,日照市,职业技术学院,,20,9,13,7,9,61,,43,43,6,6,9,8,0.5,0.5
2024-09-18T1300,3604A,119.3266,35.1044,日照市,岚山环保分局,,22,22,16,3,2,40,,30,30,4,9,10,9,0.4,0.4
2024-09-18T1300,1835A,111.1922,34.7752,三门峡市,市政府,细颗粒物(PM2.5),109,,43,82,27,128,,102,102,9,17,11,12,0.7,0.7
2024-09-18T1300,1836A,111.1587,34.7942,三门峡市,开发区,,39,37,49,21,27,122,,93,93,8,11,12,14,0.7,0.7
2024-09-18T1300,3039A,111.1911,34.7829,三门峡市,三门峡市第一小学,颗粒物(PM10),52,54,45,24,22,124,,94,94,8,10,10,13,0.7,0.7
2024-09-18T1300,3598A,111.1,34.7167,三门峡市,富达温泉假日酒店,,36,31,44,19,24,113,,99,99,8,12,9,8,0.5,0.4
2024-09-18T1300,2324A,117.6211,26.2625,三明市,三钢,,24,14,17,11,11,76,,45,45,4,10,7,7,0.2,0.2
2024-09-18T1300,2325A,117.635,26.2714,三明市,三明二中,,24,20,16,3,5,76,,46,46,4,9,4,4,0.4,0.4
2024-09-18T1300,2326A,117.6028,26.2378,三明市,三元区政府,,24,20,21,3,5,76,,43,43,7,14,6,5,0.1,0.3
2024-09-18T1300,1876A,109.5078,18.2489,三亚市,河东子站,,18,17,17,8,9,56,,52,52,1,3,4,4,0.3,0.4
2024-09-18T1300,1877A,109.4964,18.2681,三亚市,河西子站,,,23,15,3,9,51,,47,47,,3,3,3,0.3,0.3
2024-09-18T1300,3540A,109.7348,18.3443,三亚市,君悦子站,,22,22,16,7,7,53,,50,49,3,4,3,3,0.4,0.3
2024-09-18T1300,2624A,91.7608,29.2313,山南市,山南监测站,,21,7,10,3,5,66,,50,47,3,4,8,8,0.3,0.3
2024-09-18T1300,2625A,91.7706,29.2436,山南市,山南人民医院,,48,,20,33,9,65,,52,44,7,8,8,8,0.3,0.3
2024-09-18T1300,1674A,116.6794,23.3667,汕头市,金平子站,,27,15,24,3,8,84,,55,55,4,7,5,6,0.3,0.3
2024-09-18T1300,1675A,116.7244,23.3633,汕头市,龙湖子站,,39,39,26,10,12,81,,52,52,1,3,7,7,0.4,0.5
2024-09-18T1300,1676A,116.7258,23.2775,汕头市,濠江子站,,36,36,23,9,9,84,,52,52,6,5,6,6,0.5,0.5
2024-09-18T1300,1677A,116.7519,23.4714,汕头市,澄海子站,,28,23,24,3,9,88,,54,54,5,6,6,6,0,0
2024-09-18T1300,1678A,116.6092,23.2539,汕头市,潮阳子站,,26,6,24,3,6,82,,56,56,1,3,6,6,0.5,0.6
2024-09-18T1300,3444A,116.454,23.2684,汕头市,潮南峡山,,26,14,23,6,10,83,,55,55,2,3,6,6,0.6,0.6
2024-09-18T1300,3624A,116.4069,23.2533,汕头市,潮南子站,,25,20,31,3,14,80,,54,54,5,7,5,6,0.4,0.5
2024-09-18T1300,1693A,115.3653,22.775,汕尾市,市环保局,,26,26,27,15,17,69,,46,46,4,5,8,7,0.5,0.6
2024-09-18T1300,1694A,115.3706,22.7898,汕尾市,市政府,,21,17,21,3,10,67,,43,43,5,7,8,7,0.4,0.4
2024-09-18T1300,1695A,115.3622,22.7925,汕尾市,新城中学,颗粒物(PM10),51,51,42,15,12,68,,46,46,3,5,7,6,0.6,0.6
2024-09-18T1300,2645A,109.9154,33.8715,商洛市,监测站,,24,14,19,10,11,74,,38,38,4,12,5,5,0.5,0.6
2024-09-18T1300,3045A,109.9643,33.8471,商洛市,商州区中学,,24,17,20,9,9,76,,37,37,6,13,5,6,0.5,0.6
2024-09-18T1300,2408A,115.6702,34.4285,商丘市,环境监测站,,12,,12,6,7,36,,63,46,5,4,4,4,0.5,0.5
2024-09-18T1300,2409A,115.6458,34.4045,商丘市,粮食局,,13,9,9,3,6,40,,71,52,4,3,8,7,0.4,0.4
2024-09-18T1300,2410A,115.6293,34.3948,商丘市,睢阳区环保局,,11,,10,6,7,35,,65,46,3,3,6,5,0.4,0.4
2024-09-18T1300,3171A,115.6071,34.4465,商丘市,梁园区档案局,,12,9,11,6,8,38,,67,49,5,3,7,7,0.4,0.4
2024-09-18T1300,1141A,121.4,31.238,上海市,普陀,,21,21,24,11,8,62,,36,36,8,10,5,5,0.5,0.5
2024-09-18T1300,1142A,121.478,31.2036,上海市,十五厂,,21,21,25,9,9,64,,36,36,9,13,9,8,0.3,0.4
2024-09-18T1300,1143A,121.467,31.3008,上海市,虹口,,18,18,24,11,9,55,,35,35,9,12,10,9,0.5,0.5
2024-09-18T1300,1144A,121.412,31.1654,上海市,徐汇上师大,,23,23,25,8,9,58,,35,35,14,14,7,6,0.6,0.6
2024-09-18T1300,1145A,121.536,31.2659,上海市,杨浦四漂,,24,24,26,10,9,59,,35,35,6,19,6,6,0.3,0.4
2024-09-18T1300,1147A,121.425,31.2261,上海市,静安监测站,,20,19,23,13,9,64,,37,37,9,11,6,6,0.4,0.4
2024-09-18T1300,1149A,121.533,31.2284,上海市,浦东新区监测站,,23,17,22,16,11,59,,33,33,8,15,7,6,0.4,0.4
2024-09-18T1300,1150A,121.577,31.2071,上海市,浦东张江,,18,17,23,12,9,47,,27,27,9,14,6,5,0.8,0.8
2024-09-18T1300,3265A,121.4316,31.3322,上海市,宝山庙行,,27,27,24,14,9,56,,37,37,14,12,12,7,0.6,0.5
2024-09-18T1300,3266A,121.8791,31.4662,上海市,崇明上实东滩,,16,11,7,3,6,51,,42,42,4,6,12,9,0.4,0.4
2024-09-18T1300,3268A,121.3162,31.2838,上海市,嘉定南翔,,22,22,21,13,8,63,,36,36,13,14,7,6,0.7,0.7
2024-09-18T1300,3269A,121.3359,30.7456,上海市,金山新城,,20,18,24,14,10,61,,44,44,8,7,6,5,0.5,0.3
2024-09-18T1300,3270A,121.4996,31.0739,上海市,闵行浦江,,19,19,94,11,11,58,,34,34,7,10,7,6,0.5,0.6
2024-09-18T1300,3271A,121.2886,31.1663,上海市,青浦徐泾,,22,18,23,11,9,68,,41,41,11,10,7,6,0.4,0.5
2024-09-18T1300,3272A,121.2186,31.0378,上海市,松江图书馆,,21,15,18,11,8,67,,42,42,8,10,5,4,0.3,0.4
2024-09-18T1300,3273A,121.3902,31.2059,上海市,长宁仙霞,,22,22,25,11,9,66,,39,39,10,11,8,8,0.6,0.7
2024-09-18T1300,3274A,121.7965,31.0507,上海市,浦东惠南,,22,15,12,15,8,55,,34,34,9,10,8,8,0.7,0.5
2024-09-18T1300,3544A,121.4891,30.925,上海市,奉贤南桥新城,,19,16,22,12,8,60,,38,38,10,13,9,8,0.4,0.5
2024-09-18T1300,2381A,118.005,28.4572,上饶市,百草园,,30,16,17,3,8,94,,54,54,5,9,1,3,0.5,0.8
2024-09-18T1300,2382A,117.9756,28.4436,上饶市,市监测站,,33,14,19,10,7,103,,60,60,4,9,3,7,0.6,0.6
2024-09-18T1300,2383A,117.9519,28.4628,上饶市,凤凰光学,,31,20,16,7,8,99,,55,55,4,9,5,14,0.8,0.8
2024-09-18T1300,3413A,118.1953,28.4401,上饶市,广丰区教体局,,31,17,15,6,8,97,,55,55,3,10,9,13,0.5,0.9
2024-09-18T1300,3685A,117.897,28.4315,上饶市,双创科技城,,,43,23,6,8,95,,54,54,3,11,,12,0.5,0.6
2024-09-18T1300,1669A,113.5824,24.7733,韶关市,市八中,,47,47,29,16,21,69,,49,49,2,3,10,11,0.4,0.6
2024-09-18T1300,1671A,113.5917,24.7972,韶关市,园林处,,23,15,26,15,23,72,,49,49,2,2,9,10,0.4,0.6
2024-09-18T1300,1672A,113.6735,24.7791,韶关市,韶关学院,,22,19,26,11,20,69,,42,42,4,6,8,9,0.3,0.4
2024-09-18T1300,1673A,113.5971,24.6863,韶关市,曲江监测站,,23,22,30,14,21,72,,45,45,3,4,12,11,0.8,0.9
2024-09-18T1300,3622A,113.5556,24.8082,韶关市,碧湖山庄,,23,23,32,14,23,68,,51,51,2,2,8,9,0.4,0.5
2024-09-18T1300,2462A,111.5239,27.3033,邵阳市,市水土所,颗粒物(PM10),53,56,32,25,21,118,,70,70,2,4,10,8,0.8,0.8
2024-09-18T1300,2463A,111.4733,27.2317,邵阳市,市一中,,,60,39,33,26,130,,90,90,,7,8,7,0.6,0.6
2024-09-18T1300,2464A,111.5283,27.2442,邵阳市,市化工厂,,40,38,36,23,22,128,,82,82,5,8,6,7,0.6,0.6
2024-09-18T1300,2465A,111.4503,27.2537,邵阳市,市罐头厂,颗粒物(PM10),56,62,39,25,26,123,,80,80,4,6,8,7,0.6,0.6
2024-09-18T1300,2466A,111.4328,27.2272,邵阳市,市环保局,颗粒物(PM10),51,51,37,25,23,124,,82,82,4,5,6,5,0.6,0.5
2024-09-18T1300,1247A,120.6053,29.9928,绍兴市,城东开发委,,30,25,18,16,8,96,,49,49,7,9,8,7,0.4,0.4
2024-09-18T1300,2921A,120.5483,30.0003,绍兴市,树下王站,,32,28,18,15,9,100,,53,53,4,5,5,4,0.4,0.4
2024-09-18T1300,3408A,120.5683,29.9361,绍兴市,绍兴中专,,38,38,16,15,9,108,,50,50,6,8,3,3,0.5,0.5
2024-09-18T1300,3409A,120.4906,30.0861,绍兴市,柯桥区政府,,31,28,17,10,7,97,,52,52,9,10,6,6,0.5,0.5
2024-09-18T1300,3410A,120.8752,30.0249,绍兴市,重华小学,,31,24,18,15,9,99,,54,54,8,8,10,9,0.4,0.5
2024-09-18T1300,3411A,120.8369,30.0137,绍兴市,上虞中学,,30,22,20,14,9,94,,53,53,4,5,6,5,0.5,0.5
2024-09-18T1300,3560A,120.4722,30.0415,绍兴市,柯桥妇保,,34,31,20,17,6,106,,51,51,6,7,8,7,0.4,0.4
2024-09-18T1300,3658A,120.6153,30.0764,绍兴市,袍江中学,,29,28,19,15,9,91,,51,51,5,10,6,4,0.5,0.5
2024-09-18T1300,1356A,114.1063,22.5545,深圳市,通心岭子站,,34,23,18,12,10,108,,51,51,6,12,3,3,0.6,0.7
2024-09-18T1300,1357A,114.117,22.5625,深圳市,洪湖,,29,18,21,9,10,91,,46,46,8,16,7,7,0.4,0.4
2024-09-18T1300,1358A,113.987,22.5417,深圳市,华侨城,,36,,17,25,10,103,,49,49,4,8,8,7,0.6,0.6
2024-09-18T1300,1359A,113.9181,22.5171,深圳市,南海子站,,37,37,22,6,10,114,,56,56,9,13,7,7,0.4,0.4
2024-09-18T1300,1360A,114.2458,22.5689,深圳市,盐田,,22,9,18,8,8,70,,40,40,17,18,9,9,0.6,0.6
2024-09-18T1300,1361A,114.2283,22.7244,深圳市,龙岗,,25,22,17,9,8,80,,47,47,8,12,6,5,0.4,0.6
2024-09-18T1300,1363A,114.494,22.5422,深圳市,南澳,,,17,15,3,5,85,,53,53,4,4,10,7,,0.5
2024-09-18T1300,1364A,114.41,22.6342,深圳市,葵涌,,27,27,18,7,7,75,,55,55,7,8,7,7,0.5,0.5
2024-09-18T1300,1365A,114.297,22.5978,深圳市,梅沙,,30,22,18,16,8,94,,63,63,3,3,6,6,0.4,0.3
2024-09-18T1300,1366A,114.0678,22.738,深圳市,观澜,,25,17,18,11,8,77,,46,46,4,10,6,6,0.5,0.6
2024-09-18T1300,3305A,114.0731,22.559,深圳市,莲花,,27,20,19,12,10,86,,42,42,6,9,7,7,0.3,0.3
2024-09-18T1300,3306A,114.0261,22.6198,深圳市,民治,,25,22,16,14,10,79,,43,43,7,14,6,6,0.5,0.5
2024-09-18T1300,3307A,114.1871,22.6451,深圳市,横岗,,29,21,19,12,12,92,,50,50,8,17,6,5,0.6,0.6
2024-09-18T1300,3447A,114.3551,22.7151,深圳市,坪山,,27,27,17,16,21,78,,46,46,7,11,6,6,0.5,0.5
