timepoint,stationcode,longitude,latitude,area,positionname,primarypollutant,aqi,pm10,pm10_24h,pm2_5,pm2_5_24h,o3,o3_24h,o3_8h,o3_8h_24h,no2,no2_24h,so2,so2_24h,co,co_24h
2024-09-03T2000,2566A,102.1879,31.914,阿坝藏族羌族自治州,州农科所,,21,21,21,7,7,48,,77,72,28,15,7,7,0,0
2024-09-03T2000,2568A,102.2502,31.8896,阿坝藏族羌族自治州,马师校,,19,17,13,9,8,60,,81,78,18,10,4,4,0.4,0.4
2024-09-03T2000,3994A,102.2165,31.9024,阿坝藏族羌族自治州,马尔康中学西区,,25,20,14,17,11,74,,83,82,9,10,4,5,0.4,0.4
2024-09-03T2000,2695A,80.292,41.1694,阿克苏地区,电视台,,39,26,34,13,18,124,,125,125,9,11,1,3,0.3,0.3
2024-09-03T2000,2696A,80.2613,41.1551,阿克苏地区,艺术中心,,39,23,31,10,16,124,,124,124,3,10,4,4,0.3,0.4
2024-09-03T2000,2204A,105.6467,38.8363,阿拉善盟,西城区西花园,,,,55,34,19,141,,141,141,15,15,,8,1.5,1.4
2024-09-03T2000,2205A,105.6985,38.8411,阿拉善盟,蒙二幼,细颗粒物(PM2.5),62,60,36,44,22,125,,127,127,12,11,10,10,1.0,0.8
2024-09-03T2000,2206A,105.724,38.8516,阿拉善盟,环保局新楼,"颗粒物(PM10),细颗粒物(PM2.5)",57,64,35,40,20,131,,128,128,11,10,10,10,0.5,0.6
2024-09-03T2000,2708A,88.1264,47.8517,阿勒泰地区,市站,,22,12,11,3,6,68,,66,66,10,7,8,7,0.5,0.4
2024-09-03T2000,2630A,80.1161,32.5,阿里地区,阿里监测站,,38,6,7,3,3,121,,115,115,4,6,10,10,0.3,0.3
2024-09-03T2000,3192A,80.0903,32.5028,阿里地区,阿里藏医院,,35,7,7,3,0,111,,106,106,3,4,6,6,0.3,0.3
2024-09-03T2000,2642A,109.0318,32.6537,安康市,香溪洞,,23,21,32,13,17,73,,106,79,6,5,6,6,0.5,0.5
2024-09-03T2000,2643A,109.0281,32.6939,安康市,安康市监测站,,30,30,32,14,17,74,,102,77,5,6,6,7,0.6,0.6
2024-09-03T2000,2644A,109.0072,32.6975,安康市,汉滨区检察院,,28,28,30,17,17,80,,108,84,6,6,7,7,0.6,0.7
2024-09-03T2000,2291A,117.0809,30.5177,安庆市,环科院,,39,34,31,26,21,123,,135,135,10,8,6,6,0.9,0.8
2024-09-03T2000,2292A,117.0331,30.5119,安庆市,马山宾馆,,42,42,34,27,24,123,,132,132,9,8,8,8,0.7,0.6
2024-09-03T2000,2294A,116.9896,30.6145,安庆市,安庆大学,,42,41,38,29,25,122,,122,122,8,7,8,8,0.7,0.7
2024-09-03T2000,3173A,117.0598,30.5351,安庆市,市人大,,44,44,36,30,25,116,,128,128,8,6,7,8,1.3,1.2
2024-09-03T2000,3122A,105.9606,26.2611,安顺市,伍家关,,,,,,,,,,,,,,,,
2024-09-03T2000,3123A,105.9408,26.2431,安顺市,凤凰山,细颗粒物(PM2.5),54,,15,38,7,83,,78,78,6,5,9,10,0.3,0.3
2024-09-03T2000,3124A,105.9439,26.2564,安顺市,金钟山,,,17,17,6,5,84,,80,80,6,5,6,7,,5.6
2024-09-03T2000,3125A,105.8983,26.2481,安顺市,娄家坡,,26,13,6,10,5,83,,80,80,6,4,5,6,0.6,0.6
2024-09-03T2000,1818A,114.4839,36.0621,安阳市,棉研所,,,,,,,,,,,,,,,,
2024-09-03T2000,1819A,114.3551,36.1017,安阳市,红庙街,,44,40,33,14,13,139,,148,148,14,10,5,5,0.6,0.4
2024-09-03T2000,1820A,114.361,36.0681,安阳市,银杏小区,,,36,32,,,132,,144,144,15,16,4,4,0.7,0.5
2024-09-03T2000,3141A,114.3922,36.0878,安阳市,信访局,,44,34,33,16,10,140,,151,151,16,18,4,4,0.4,0.4
2024-09-03T2000,3669A,114.4705,36.0637,安阳市,左辅环卫站,,46,46,42,16,15,122,,142,142,12,9,8,7,0.7,0.6
2024-09-03T2000,3703A,114.2917,36.0949,安阳市,安钢职工学校,,39,38,39,12,16,122,,134,134,15,20,6,6,0.4,0.5
2024-09-03T2000,1748A,123.044,41.1196,鞍山市,深沟寺,,43,43,33,18,13,97,,128,128,20,19,6,7,0.9,0.8
2024-09-03T2000,1749A,123.011,41.0931,鞍山市,太阳城,,41,41,30,20,13,89,,133,133,27,22,7,10,0.7,0.8
2024-09-03T2000,1750A,123.0485,41.1442,鞍山市,太平,,,64,42,34,19,82,,124,123,49,30,,11,1.2,0.8
2024-09-03T2000,1751A,122.9642,41.0971,鞍山市,铁西三道街,,,60,54,30,22,80,,132,130,34,28,7,10,,1
2024-09-03T2000,1752A,122.9341,41.0833,鞍山市,铁西工业园区,颗粒物(PM10),55,60,58,27,21,75,,131,128,36,30,11,14,1.0,1.1
2024-09-03T2000,1753A,123.022,41.0821,鞍山市,明达新区,,42,42,33,18,13,83,,121,121,32,22,7,8,0.7,0.8
2024-09-03T2000,1754A,123.1289,41.0228,鞍山市,千山,,,,,,,,,,,,,,,,
2024-09-03T2000,2195A,107.4212,40.761,巴彦淖尔市,附二中,颗粒物(PM10),62,73,66,40,36,37,,56,55,27,13,4,3,0.8,0.7
2024-09-03T2000,2196A,107.37,40.7372,巴彦淖尔市,市环保大楼,颗粒物(PM10),79,107,86,31,25,39,,63,62,19,11,4,4,0.8,0.7
2024-09-03T2000,1956A,86.1472,41.7538,巴音郭楞蒙古自治州,孔雀公园,,26,24,28,12,7,82,,84,79,14,9,4,5,0.3,0.2
2024-09-03T2000,1957A,86.1972,41.7166,巴音郭楞蒙古自治州,棉纺厂,,32,,18,9,7,100,,80,79,7,10,4,4,0.2,0.2
2024-09-03T2000,1958A,86.2357,41.7173,巴音郭楞蒙古自治州,经济开发区,,32,9,16,8,10,100,,90,90,8,5,6,6,0.2,0.2
2024-09-03T2000,2914A,106.7677,31.8794,巴中市,苏山坪,,34,21,45,16,33,108,,104,104,12,10,4,3,0.6,0.8
2024-09-03T2000,3182A,106.7656,31.8545,巴中市,丽阳花园,颗粒物(PM10),55,59,47,38,37,63,,102,97,27,13,5,5,0.7,0.7
2024-09-03T2000,3183A,106.7418,31.8654,巴中市,圣泉水务公司,,25,25,44,17,35,52,,103,96,38,13,5,5,0.7,0.7
2024-09-03T2000,3616A,106.7616,31.8344,巴中市,市中心医院,,24,24,49,15,38,58,,101,95,38,13,5,4,0.5,0.7
2024-09-03T2000,2235A,122.7911,45.6077,白城市,洮北区环保局,,23,20,13,3,5,71,,92,88,19,10,7,7,0.1,0.3
2024-09-03T2000,2236A,122.8738,45.5725,白城市,市环保局,,26,26,20,6,4,61,,84,80,18,12,4,4,0.2,0.2
2024-09-03T2000,2231A,126.4219,41.9171,白山市,喜丰,,37,37,41,11,7,39,,88,82,27,15,6,8,0.8,0.8
2024-09-03T2000,2232A,126.4077,41.9419,白山市,环保局,,44,44,31,9,6,36,,78,70,24,15,9,9,0.8,0.6
2024-09-03T2000,2647A,104.1724,36.5446,白银市,第三小学,颗粒物(PM10),53,56,40,23,23,102,,119,118,8,13,5,29,0.7,0.8
2024-09-03T2000,2648A,104.1465,36.5482,白银市,动力公司,颗粒物(PM10),51,52,32,17,16,105,,116,116,7,12,5,11,0.4,0.5
2024-09-03T2000,2512A,106.6103,23.9011,百色市,市监测站,,36,36,16,12,7,69,,68,68,24,7,36,7,0.7,0.4
2024-09-03T2000,2513A,106.6538,23.8859,百色市,市中心血站,,45,45,21,12,10,68,,70,70,24,9,24,4,0.7,0.5
2024-09-03T2000,3406A,106.6085,23.8798,百色市,祈福高中,,39,39,20,6,9,57,,67,67,24,6,11,4,0.8,0.6
2024-09-03T2000,2270A,117.396,32.939,蚌埠市,工人疗养院,,37,32,37,13,9,118,,141,141,7,9,9,10,0.3,0.3
2024-09-03T2000,2271A,117.3605,32.9427,蚌埠市,百货大楼,,38,33,38,10,12,121,,140,140,5,6,6,7,0.4,0.4
2024-09-03T2000,2273A,117.4185,32.8911,蚌埠市,蚌埠学院,,39,39,31,16,11,102,,130,128,32,23,9,11,0.5,0.4
2024-09-03T2000,2274A,117.3533,32.9673,蚌埠市,淮上区政府,,36,36,32,15,12,115,,143,141,9,5,8,8,0.6,0.6
2024-09-03T2000,2275A,117.3145,32.8977,蚌埠市,高新区,,31,31,31,21,12,94,,142,139,37,11,13,8,0.5,0.5
2024-09-03T2000,3715A,117.3092,32.9314,蚌埠市,蚌埠田家炳中学,,40,31,36,15,13,126,,142,142,3,5,5,6,0.4,0.4
2024-09-03T2000,1585A,109.8756,40.6532,包头市,市环境监测站,,39,39,35,21,22,73,,66,66,22,23,11,17,0.8,1
2024-09-03T2000,1587A,109.9991,40.5842,包头市,包头八中,,41,41,40,26,28,68,,66,66,22,18,9,16,0.9,0.9
2024-09-03T2000,1588A,109.8538,40.6821,包头市,青山宾馆,,40,40,36,25,28,74,,68,68,22,21,9,16,0.9,1
2024-09-03T2000,1589A,109.8642,40.6288,包头市,惠龙物流,,40,38,33,28,19,71,,65,65,18,18,8,11,0.8,0.8
2024-09-03T2000,1590A,110.0377,40.5546,包头市,东河鸿龙湾,,38,38,30,24,18,62,,62,62,23,18,5,11,0.8,0.6
2024-09-03T2000,3283A,109.9154,40.5685,包头市,滨河大厦,,36,30,29,25,20,71,,64,64,15,18,8,10,0.6,0.6
2024-09-03T2000,3419A,109.9447,40.6261,包头市,包头市委党校,,40,28,37,28,24,76,,68,68,18,21,7,14,0.6,0.8
2024-09-03T2000,3683A,109.8331,40.6576,包头市,昆区政府,,39,39,36,27,29,71,,62,62,19,20,6,12,0.8,1.1
2024-09-03T2000,1930A,107.185,34.3063,宝鸡市,庙沟村,颗粒物(PM10),53,56,46,28,23,134,,132,132,14,9,10,9,0.5,0.5
2024-09-03T2000,1931A,107.0708,34.3017,宝鸡市,竹园沟,颗粒物(PM10),54,58,50,28,25,104,,135,135,15,13,9,9,0.7,0.7
2024-09-03T2000,1932A,107.1906,34.3672,宝鸡市,三陆医院,颗粒物(PM10),57,63,50,32,26,128,,150,150,41,16,10,10,0.8,0.7
2024-09-03T2000,1933A,107.1431,34.3547,宝鸡市,监测站,颗粒物(PM10),65,79,79,33,24,115,,144,144,34,18,7,7,0.7,0.6
2024-09-03T2000,1934A,107.1186,34.3739,宝鸡市,技工学校,细颗粒物(PM2.5),62,62,55,44,29,133,,149,149,24,17,9,9,0.8,0.8
2024-09-03T2000,1935A,107.3906,34.3528,宝鸡市,陈仓区环保局家属楼,颗粒物(PM10),57,64,47,32,24,156,,157,157,27,16,10,9,0.8,0.6
2024-09-03T2000,1936A,107.2058,34.3497,宝鸡市,文理学院,颗粒物(PM10),53,55,47,27,23,147,,156,156,24,14,11,10,0.7,0.6
2024-09-03T2000,1937A,107.2386,34.3622,宝鸡市,三迪小学,颗粒物(PM10),53,56,53,35,24,154,,156,156,30,13,9,9,0.8,0.7
2024-09-03T2000,1051A,115.493,38.8632,保定市,游泳馆,,45,45,33,12,8,119,,136,136,19,20,1,3,0.2,0.1
2024-09-03T2000,1052A,115.5213,38.8959,保定市,华电二区,,40,40,28,21,9,126,,136,136,12,10,5,3,0.1,0.1
2024-09-03T2000,1053A,115.4713,38.9108,保定市,接待中心,,41,35,29,19,12,129,,132,132,10,11,4,3,0.5,0.4
2024-09-03T2000,1054A,115.4612,38.8416,保定市,地表水厂,颗粒物(PM10),51,52,39,10,9,112,,129,129,20,17,1,1,0.2,0.2
2024-09-03T2000,3581A,115.31981,38.95208,保定市,满城区生态环境分局,,48,48,42,14,10,109,,138,137,20,19,4,3,0.5,0.5
2024-09-03T2000,3582A,115.47694,38.76408,保定市,清苑区第二中学,,48,48,33,21,9,113,,133,133,16,14,5,4,0.4,0.4
2024-09-03T2000,3583A,115.62909,39.02311,保定市,徐水物探局,,46,46,34,9,6,110,,134,134,24,22,5,4,0.6,0.5
2024-09-03T2000,4004A,115.4202,38.8656,保定市,双鹰农机,,46,46,36,25,9,115,,136,136,17,17,4,4,0.0,0
2024-09-03T2000,4034A,115.5150,38.8590,保定市,植保所站,,43,43,32,15,13,121,,149,149,26,13,3,4,0.3,0.2
2024-09-03T2000,2594A,99.1678,25.1081,保山市,市环境监测站,,29,27,29,20,17,37,,49,47,15,10,6,7,0.4,0.4
2024-09-03T2000,2595A,99.1711,25.1328,保山市,市环保局,,37,37,30,9,9,40,,54,52,12,8,4,5,0.4,0.4
2024-09-03T2000,1866A,109.2262,21.588,北海市,牛尾岭水库,,,,,,,,,,,,,,,,
2024-09-03T2000,1867A,109.1436,21.4086,北海市,海滩公园,,34,13,17,3,5,107,,111,111,5,8,4,4,0.7,0.6
2024-09-03T2000,1868A,109.0981,21.4661,北海市,新市环保局,,30,14,17,9,11,96,,118,114,8,9,3,3,0.5,0.6
2024-09-03T2000,1869A,109.1778,21.5233,北海市,北海工业园,,31,,29,12,17,98,,122,121,11,14,4,6,0.4,0.7
2024-09-03T2000,3400A,109.1911,21.4415,北海市,龙潭自来水厂,,,9,19,8,12,86,,108,107,,9,5,6,0.6,0.6
2024-09-03T2000,1001A,116.3621,39.8784,北京市,万寿西宫,,36,35,32,13,12,113,,110,110,14,23,1,2,0.6,0.5
2024-09-03T2000,1002A,116.2202,40.2915,北京市,定陵,,34,34,21,18,10,60,,76,76,10,8,4,3,0.5,0.3
2024-09-03T2000,1003A,116.4174,39.9289,北京市,东四,,39,33,33,13,13,122,,110,110,12,23,4,3,0.5,0.4
2024-09-03T2000,1004A,116.4072,39.8863,北京市,天坛,,35,27,26,12,11,109,,103,103,13,21,1,2,0.5,0.4
2024-09-03T2000,1005A,116.462,39.9365,北京市,农展馆,,,,38,13,12,107,,99,99,14,30,3,3,,0.4
2024-09-03T2000,1006A,116.3392,39.9295,北京市,官园,,39,34,32,12,14,122,,111,111,11,24,5,4,0.5,0.4
2024-09-03T2000,1007A,116.2878,39.9611,北京市,海淀万柳,,33,33,27,15,13,105,,101,101,15,25,2,3,0.5,0.4
2024-09-03T2000,1008A,116.6636,40.135,北京市,顺义新城,,46,46,35,19,12,107,,108,108,21,23,3,3,0.5,0.4
2024-09-03T2000,1009A,116.6275,40.3275,北京市,怀柔镇,,41,41,25,23,14,110,,120,120,23,14,7,6,0.7,0.5
2024-09-03T2000,1010A,116.2296,40.217,北京市,昌平镇,,38,38,29,21,12,60,,79,79,20,20,4,4,0.5,0.4
2024-09-03T2000,1011A,116.3966,39.9821,北京市,奥体中心,,37,29,28,13,12,116,,102,102,13,31,2,2,0.6,0.5
2024-09-03T2000,1012A,116.184,39.9136,北京市,古城,颗粒物(PM10),57,63,38,25,14,77,,95,95,34,29,2,2,0.6,0.4
2024-09-03T2000,3281A,115.9718,40.4529,北京市,延庆夏都,,46,46,23,26,12,91,,91,91,11,9,3,3,0.4,0.3
2024-09-03T2000,3417A,117.0709,40.1465,北京市,平谷新城,,35,32,25,15,12,109,,127,127,11,9,1,2,0.5,0.2
2024-09-03T2000,3418A,116.8336,40.4095,北京市,密云新城,,39,39,24,17,11,68,,109,107,10,8,3,3,0.4,0.3
2024-09-03T2000,3671A,116.088,39.9726,北京市,门头沟三家店,,43,43,26,23,12,54,,88,88,12,13,3,3,0.5,0.4
2024-09-03T2000,3672A,116.1541,39.8204,北京市,丰台云岗,颗粒物(PM10),53,56,37,29,13,41,,89,88,27,22,2,3,0.6,0.4
2024-09-03T2000,3673A,116.6804,39.9081,北京市,通州东关,颗粒物(PM10),57,63,36,30,14,122,,123,123,25,27,2,1,0.6,0.4
2024-09-03T2000,3674A,115.9577,39.7603,北京市,房山燕山,,36,36,23,17,10,59,,88,88,11,8,3,2,0.4,0.3
2024-09-03T2000,3675A,116.4672,39.7733,北京市,大兴旧宫,,34,34,28,18,11,92,,116,115,14,18,1,2,0.6,0.4
2024-09-03T2000,3694A,115.986,40.4563,北京市,延庆石河营,,48,48,22,27,13,80,,84,84,10,9,3,3,0.4,0.3
2024-09-03T2000,3695A,116.6151,40.3053,北京市,怀柔新城,,41,41,26,7,9,108,,116,116,19,11,3,3,0.6,0.4
2024-09-03T2000,3696A,116.2545,39.8768,北京市,丰台小屯,,36,36,33,14,12,76,,94,94,17,27,3,3,0.6,0.5
2024-09-03T2000,3697A,116.84,40.3844,北京市,密云镇,,43,43,26,17,11,97,,113,113,13,13,3,2,0.6,0.4
2024-09-03T2000,1761A,123.8275,41.3064,本溪市,大峪,,29,16,24,7,6,91,,97,97,6,19,8,8,0.6,0.7
2024-09-03T2000,1762A,123.7567,41.3325,本溪市,溪湖,,36,36,46,18,10,64,,88,86,19,26,4,6,0.7,0.9
2024-09-03T2000,1763A,123.7169,41.3094,本溪市,彩屯,颗粒物(PM10),58,66,45,30,19,35,,83,77,35,30,12,14,1.2,1.2
2024-09-03T2000,1764A,123.7669,41.2864,本溪市,东明,,29,22,37,10,8,92,,96,96,16,33,7,7,0.6,0.7
2024-09-03T2000,1765A,123.7992,41.2664,本溪市,新立屯,,29,20,17,6,3,20,,92,75,57,30,4,4,0.6,0.5
2024-09-03T2000,1766A,123.8142,41.3472,本溪市,威宁,,20,20,33,13,10,27,,71,63,24,21,8,8,0.6,0.7
2024-09-03T2000,2587A,105.2864,27.3125,毕节市,八中,,26,20,14,18,9,52,,82,80,16,10,8,7,0.6,0.4
2024-09-03T2000,2588A,105.31,27.2944,毕节市,师专,,21,21,16,13,10,58,,86,85,16,11,8,8,0.5,0.4
2024-09-03T2000,3537A,105.3631,27.3533,毕节市,长征村,,21,14,13,10,9,65,,88,87,7,8,7,8,0.4,0.4
2024-09-03T2000,1629A,118.0018,37.3617,滨州市,第二水厂,,,31,19,14,6,105,,151,147,15,14,4,8,,0.5
2024-09-03T2000,1630A,117.9776,37.393,滨州市,北中新校,,41,27,23,12,7,131,,166,162,14,21,7,10,0.6,0.6
2024-09-03T2000,3514A,117.9378,37.3956,滨州市,中海酒店,,43,24,22,14,12,135,,166,164,12,23,6,8,0.5,0.5
2024-09-03T2000,3515A,117.9378,37.3553,滨州市,开发区一中,,35,34,19,14,8,112,,158,154,22,15,9,10,0.4,0.5
2024-09-03T2000,3516A,118.0917,37.694,滨州市,金海六路,,49,49,24,3,5,109,,162,155,12,35,3,5,0.5,0.5
2024-09-03T2000,4028A,117.9956,37.3753,滨州市,滨州市西街道办事处,,39,24,15,12,10,123,,163,159,9,14,5,9,0.5,0.5
2024-09-03T2000,2311A,115.8072,33.8399,亳州市,污水处理厂,颗粒物(PM10),53,55,36,24,13,119,,142,142,18,14,18,16,0.6,0.4
2024-09-03T2000,2312A,115.7789,33.8518,亳州市,三国揽胜宫,,39,36,37,21,16,124,,141,141,9,7,17,15,0.7,0.6
2024-09-03T2000,3332A,115.7633,33.8034,亳州市,亳州学院,臭氧1小时,52,42,35,12,6,161,,152,152,13,10,7,14,0.5,0.4
2024-09-03T2000,2693A,82.0485,44.8556,博尔塔拉蒙古自治州,市党校,,30,22,26,14,10,95,,87,87,8,7,6,5,0.3,0.4
2024-09-03T2000,2694A,82.0806,44.8969,博尔塔拉蒙古自治州,市环保局,,43,43,28,8,10,85,,81,81,8,8,6,4,0.3,0.4
2024-09-03T2000,1071A,116.8842,38.2991,沧州市,沧县城建局,,,,30,,10,122,,127,127,,20,,7,0.4,0.4
2024-09-03T2000,1072A,116.8584,38.3254,沧州市,电视转播站,,45,33,26,14,9,141,,145,145,12,21,1,3,0.5,0.4
2024-09-03T2000,1073A,116.8709,38.3228,沧州市,市环保局,,40,34,29,16,12,127,,134,134,14,18,5,5,0.4,0.3
2024-09-03T2000,3324A,116.8136,38.3004,沧州市,河北水利电力学院,,45,31,26,20,15,141,,143,143,21,23,7,6,0.6,0.4
2024-09-03T2000,2622A,97.1806,31.1273,昌都市,昌都监测站,,26,10,9,3,4,82,,88,88,6,9,6,6,0.5,0.6
2024-09-03T2000,3719A,97.1714,31.1406,昌都市,昌都会议中心,,26,11,8,3,4,81,,91,90,4,6,8,8,0.7,0.6
2024-09-03T2000,2690A,88.1236,43.8886,昌吉回族自治州,天山天池,,10,6,5,3,2,30,,70,57,3,3,1,3,0.4,0.4
2024-09-03T2000,2692A,87.2717,44.0297,昌吉回族自治州,新区政务中心,,24,17,14,3,12,76,,65,65,8,9,11,11,0.7,0.7
2024-09-03T2000,3613A,87.3095,44.0142,昌吉回族自治州,亚心广场,,23,17,12,3,2,72,,69,67,16,12,3,3,0.4,0.4
2024-09-03T2000,1119A,125.3325,43.9166,长春市,食品厂,细颗粒物(PM2.5),65,50,30,47,12,19,,92,82,74,32,4,4,0.8,0.4
2024-09-03T2000,1120A,125.2863,43.9027,长春市,客车厂,,40,34,27,21,13,16,,94,84,80,31,7,7,0.8,0.6
2024-09-03T2000,1121A,125.2841,43.8463,长春市,邮电学院,,25,25,22,10,7,36,,90,82,41,24,6,6,0.4,0.3
2024-09-03T2000,1122A,125.3716,43.8772,长春市,劳动公园,,40,40,27,13,8,43,,96,90,40,28,8,7,0.8,0.7
2024-09-03T2000,1123A,125.3297,43.8805,长春市,园林处,,30,30,24,6,6,52,,93,88,29,25,3,4,0.5,0.4
2024-09-03T2000,1124A,125.4605,43.79,长春市,净月潭,,16,8,11,3,3,50,,88,83,5,5,5,6,0.4,0.3
2024-09-03T2000,1125A,125.7194,43.515,长春市,甩湾子,,,,,,,,,,,,,,,,
2024-09-03T2000,1126A,125.3863,43.8447,长春市,经开区环卫处,,36,36,24,7,6,29,,88,80,56,29,7,7,0.6,0.5
2024-09-03T2000,1127A,125.245,43.7783,长春市,高新区管委会,,,,17,,5,,,54,,,22,,4,,0.4
2024-09-03T2000,1128A,125.1761,43.8325,长春市,岱山公园,,36,32,28,3,9,39,,92,84,71,39,6,3,0.4,0.4
2024-09-03T2000,1335A,113.0833,28.2325,长沙市,经开区环保局,细颗粒物(PM2.5),72,79,60,52,36,95,,125,120,11,14,3,3,0.8,0.7
2024-09-03T2000,1336A,112.8872,28.2189,长沙市,高开区环保局,细颗粒物(PM2.5),67,80,61,48,34,101,,112,112,7,10,2,2,1.0,0.9
2024-09-03T2000,1337A,113.0792,28.2053,长沙市,马坡岭,颗粒物(PM10),74,98,61,50,43,111,,139,136,7,10,2,3,0.9,0.8
2024-09-03T2000,1338A,112.9394,28.19,长沙市,湖南师范大学,细颗粒物(PM2.5),77,78,62,56,43,97,,126,124,9,9,3,4,0.9,0.8
2024-09-03T2000,1339A,113.0178,28.1322,长沙市,雨花区环保局,颗粒物(PM10),65,79,64,44,30,95,,129,123,13,15,4,4,0.7,0.6
2024-09-03T2000,1340A,112.9792,28.2597,长沙市,伍家岭,细颗粒物(PM2.5),75,77,63,55,39,88,,119,117,10,10,1,2,0.8,0.7
2024-09-03T2000,1341A,113.0014,28.1944,长沙市,火车新站,细颗粒物(PM2.5),70,74,60,51,36,96,,130,126,9,10,3,3,0.7,0.6
2024-09-03T2000,1342A,112.9844,28.1178,长沙市,天心区环保局,细颗粒物(PM2.5),85,65,62,63,43,95,,121,118,10,14,5,5,1.2,1.1
2024-09-03T2000,1343A,112.8908,28.1308,长沙市,湖南中医药大学,"颗粒物(PM10),细颗粒物(PM2.5)",63,76,65,45,43,113,,136,134,6,17,4,5,1.0,1
2024-09-03T2000,1344A,112.9581,28.3611,长沙市,沙坪,细颗粒物(PM2.5),65,67,50,47,29,92,,104,104,7,8,7,7,0.7,0.6
2024-09-03T2000,1727A,113.1147,36.1547,长治市,清华站,,36,36,29,17,16,77,,104,97,22,12,6,7,0.6,0.8
2024-09-03T2000,1728A,113.1031,36.1989,长治市,监测站,,35,35,33,17,16,76,,105,98,30,20,8,8,0.6,0.8
2024-09-03T2000,1730A,113.0886,36.2125,长治市,审计局,,33,33,29,14,15,70,,95,92,26,16,6,5,0.5,0.7
2024-09-03T2000,1731A,113.0844,36.1856,长治市,长治八中,,46,46,37,14,15,78,,98,95,23,16,6,6,0.6,0.8
2024-09-03T2000,2845A,113.1569,36.1911,长治市,德盛苑,,29,29,29,14,15,61,,101,93,10,10,8,8,0.8,1
2024-09-03T2000,3568A,113.06,36.0464,长治市,向阳小学,,35,35,48,22,25,95,,102,99,9,14,7,7,0.4,0.5
2024-09-03T2000,3569A,112.8792,36.3144,长治市,屯留一中,,48,48,46,31,27,106,,116,116,12,13,8,9,0.6,1
2024-09-03T2000,3570A,113.235,36.3489,长治市,潞城四中,,40,40,34,20,22,88,,94,94,12,12,6,6,0.8,1
2024-09-03T2000,1854A,111.6975,28.9703,常德市,市二中,细颗粒物(PM2.5),72,66,56,52,38,114,,122,122,8,7,8,8,0.9,0.8
2024-09-03T2000,1857A,111.7158,29.1456,常德市,白鹤山,,,,,,,,,,,,,,,,
2024-09-03T2000,3138A,111.7153,29.0289,常德市,武陵区永安,细颗粒物(PM2.5),59,59,56,42,35,113,,118,118,8,8,7,8,0.9,0.8
2024-09-03T2000,3139A,111.6892,28.9881,常德市,鼎城区玉霞,细颗粒物(PM2.5),60,67,57,43,36,113,,121,121,7,7,6,7,0.9,0.9
2024-09-03T2000,3140A,111.6625,29.0531,常德市,武陵区长庚,颗粒物(PM10),55,60,54,31,22,124,,126,126,6,8,8,8,0.7,0.7
2024-09-03T2000,1196A,119.9633,31.762,常州市,市监测站,,28,28,19,17,13,82,,110,109,22,11,7,6,0.6,0.5
2024-09-03T2000,1200A,119.9468,31.7069,常州市,武进监测站,,35,35,31,20,13,81,,109,109,20,7,9,5,1.0,0.8
2024-09-03T2000,1201A,119.9255,31.9087,常州市,安家,,28,28,24,15,15,65,,103,101,28,13,7,7,0.7,0.6
2024-09-03T2000,3002A,119.9805,31.8174,常州市,行政中心,,36,36,27,21,15,78,,104,103,24,12,8,9,0.4,0.4
2024-09-03T2000,3003A,120.0522,31.7748,常州市,经开区,,27,27,32,14,12,70,,105,104,17,10,9,9,0.6,0.6
2024-09-03T2000,3010A,119.9025,31.7964,常州市,钟楼,,34,34,20,15,11,82,,97,97,21,12,8,8,0.7,0.6
2024-09-03T2000,3429A,119.8598,31.7066,常州市,武进经发区,颗粒物(PM10),52,53,30,22,12,87,,102,102,28,14,11,10,0.7,0.4
2024-09-03T2000,3430A,119.5826,31.7245,常州市,金坛城区,,35,35,30,23,12,95,,120,120,21,12,7,7,0.7,0.7
2024-09-03T2000,2220A,120.4318,41.5881,朝阳市,西梁,,36,22,33,13,16,115,,101,101,10,20,11,11,0.5,0.6
2024-09-03T2000,2221A,120.4521,41.5646,朝阳市,河畔小区,,39,21,25,12,9,122,,102,102,8,10,8,7,0.5,0.5
2024-09-03T2000,2222A,120.4176,41.5648,朝阳市,八里堡,,35,30,32,13,12,109,,100,100,14,20,8,9,0.6,0.7
2024-09-03T2000,2223A,120.3806,41.5969,朝阳市,农业园区,,,,31,16,15,105,,100,100,12,14,10,9,0.5,0.7
2024-09-03T2000,1705A,116.6367,23.6719,潮州市,西园路,,48,35,42,33,29,79,,114,114,18,12,8,7,0.5,0.5
2024-09-03T2000,3026A,116.6183,23.6608,潮州市,市政府,,40,39,44,28,26,90,,130,126,15,9,7,7,0.7,0.8
2024-09-03T2000,4036A,116.6461,23.6761,潮州市,金山,,38,38,49,26,27,92,,132,130,15,10,8,7,0.8,0.7
2024-09-03T2000,2472A,113.0073,25.9061,郴州市,马头岭,,49,49,36,22,12,67,,97,92,11,8,8,11,0.5,0.2
2024-09-03T2000,2473A,113.0116,25.8226,郴州市,市职中,,23,23,31,16,23,64,,111,103,16,13,3,7,0.6,0.5
2024-09-03T2000,2474A,113.0161,25.8001,郴州市,兴隆步行街,,32,32,30,19,19,74,,110,104,12,10,6,15,0.7,0.6
2024-09-03T2000,2475A,113.0383,25.8071,郴州市,市审计局,,39,,28,27,23,65,,108,101,12,10,14,30,0.5,0.5
2024-09-03T2000,2476A,113.0348,25.7759,郴州市,市环保局,,,27,32,27,22,66,,110,102,11,12,,24,0.6,0.6
2024-09-03T2000,1431A,103.9728,30.7236,成都市,金泉两河,细颗粒物(PM2.5),57,42,26,40,17,144,,184,184,7,8,1,1,0.5,0.4
2024-09-03T2000,1432A,104.176,30.6872,成都市,十里店,细颗粒物(PM2.5),65,52,35,47,21,164,,183,183,8,7,5,4,0.5,0.5
2024-09-03T2000,1433A,104.079,30.5706,成都市,三瓦窑,臭氧1小时,52,39,31,7,17,161,,192,192,19,20,1,2,0.5,0.4
2024-09-03T2000,1434A,104.1114,30.63,成都市,沙河铺,臭氧1小时,63,46,33,27,16,170,,190,190,20,15,6,5,0.7,0.5
2024-09-03T2000,1437A,104.0786,30.6531,成都市,君平街,,,48,29,31,15,149,,202,200,15,14,3,4,,0.9
2024-09-03T2000,1438A,103.613,31.0283,成都市,灵岩寺,,,,,,,,,,,,,,,,
2024-09-03T2000,2880A,104.0239,30.65639,成都市,大石西路,细颗粒物(PM2.5),54,46,29,38,17,138,,194,192,16,15,4,5,0.7,0.6
2024-09-03T2000,3136A,104.2725,30.5589,成都市,龙泉驿区区政府,,35,29,23,22,16,111,,138,137,14,10,5,4,0.5,0.4
2024-09-03T2000,3357A,104.0106,30.6931,成都市,金博路,,44,31,25,26,16,139,,181,181,15,9,1,2,0.5,0.5
2024-09-03T2000,3359A,104.0578,30.5225,成都市,华阳,臭氧1小时,67,46,32,22,11,173,,187,187,19,13,3,3,0.5,0.4
2024-09-03T2000,3487A,104.2394,30.5319,成都市,车城东七路,,47,47,34,25,22,129,,150,150,14,12,3,3,0.5,0.6
2024-09-03T2000,3488A,104.3853,30.7453,成都市,青白江技师分院,臭氧1小时,87,60,32,39,21,189,,191,191,16,21,4,3,0.6,0.6
2024-09-03T2000,3489A,104.0789,30.4072,成都市,科学城,臭氧1小时,70,48,32,39,21,176,,170,170,23,9,4,3,0.6,0.5
2024-09-03T2000,4011A,103.8506,30.6947,成都市,光华大道三段,,45,25,22,8,10,143,,202,202,10,8,1,2,0.4,0.5
2024-09-03T2000,1062A,117.9531,40.9081,承德市,铁路,,28,17,19,11,5,87,,93,93,17,22,32,9,0.3,0.3
2024-09-03T2000,1063A,117.9392,40.9763,承德市,中国银行,,32,32,25,21,7,79,,100,100,15,18,6,6,0.6,0.4
2024-09-03T2000,1064A,117.9503,40.928,承德市,开发区,,32,32,28,14,9,90,,107,107,9,19,15,6,0.4,0.4
2024-09-03T2000,1065A,117.8051,40.9655,承德市,文化中心,,37,37,36,18,8,112,,105,105,12,25,9,15,0.3,0.4
2024-09-03T2000,1066A,117.9268,41.0026,承德市,离宫,,28,23,22,19,16,82,,80,80,5,11,3,3,0.3,0.4
2024-09-03T2000,2314A,117.47,30.6618,池州市,池州学院,,38,38,39,25,25,91,,111,111,13,15,7,8,0.7,0.8
2024-09-03T2000,3237A,117.4918,30.6617,池州市,展览馆,,36,36,42,19,21,89,,110,110,10,13,4,7,0.7,0.8
2024-09-03T2000,3333A,117.5627,30.695,池州市,第八中学,,41,41,40,25,22,86,,107,107,10,13,4,5,0.6,0.7
2024-09-03T2000,3334A,117.5038,30.6243,池州市,第十二中学,,39,39,35,25,21,97,,106,106,8,11,4,4,0.8,0.8
2024-09-03T2000,1744A,118.9233,42.2816,赤峰市,松山一中,,30,30,20,12,5,89,,98,97,23,24,10,9,0.7,0.5
2024-09-03T2000,1745A,118.9576,42.2728,赤峰市,哈达街,,29,21,15,20,8,90,,96,95,15,16,9,9,0.4,0.3
2024-09-03T2000,1746A,118.8788,42.2554,赤峰市,天义路,,30,18,17,9,6,95,,102,102,14,18,7,11,0.4,0.3
2024-09-03T2000,3058A,119.2658,42.0353,赤峰市,银河街,,32,32,35,22,17,92,,100,99,11,18,13,18,0.4,0.4
2024-09-03T2000,3286A,118.9359,42.3147,赤峰市,桥北物流园区,,31,31,26,15,12,89,,102,98,20,29,9,10,0.7,0.5
2024-09-03T2000,2521A,107.3476,22.4136,崇左市,市环保局江州分局,,28,28,32,9,14,59,,94,89,5,9,6,7,0.5,0.6
2024-09-03T2000,2522A,107.3702,22.3707,崇左市,城南新区,,20,18,24,10,16,63,,98,92,5,9,4,4,0.5,0.6
2024-09-03T2000,2298A,118.3093,32.3153,滁州市,老年大学,,38,32,26,12,10,120,,130,128,12,6,7,8,0.3,0.3
2024-09-03T2000,2299A,118.3244,32.2786,滁州市,人大宾馆,,33,28,26,11,8,104,,124,121,27,11,6,6,0.4,0.4
2024-09-03T2000,3207A,118.3118,32.3038,滁州市,市政府原办公楼,,35,26,26,17,14,111,,122,121,18,7,7,7,0.4,0.3
2024-09-03T2000,3331A,118.3267,32.2634,滁州市,图书馆,,37,25,25,11,9,117,,124,124,12,6,5,5,0.2,0.1
2024-09-03T2000,2605A,101.5482,25.0441,楚雄彝族自治州,州环境监测站,,24,24,20,10,17,24,,40,40,22,14,7,4,0.5,0.5
2024-09-03T2000,2606A,101.538,25.0492,楚雄彝族自治州,市经济开发区,,33,33,21,13,14,20,,39,39,25,13,10,6,0.8,0.7
2024-09-03T2000,2548A,107.5277,31.2827,达州市,达州职业技术学院,,32,32,32,3,10,41,,91,85,24,11,7,6,0.7,0.6
2024-09-03T2000,2549A,107.5086,31.2186,达州市,市环境监测站,,40,40,32,14,9,50,,95,91,45,21,7,7,0.7,0.5
2024-09-03T2000,2550A,107.4988,31.2132,达州市,凤凰小区,,29,29,24,7,12,81,,100,100,21,16,7,7,0.5,0.5
2024-09-03T2000,2551A,107.5082,31.1986,达州市,达县机关宾馆,,31,31,32,8,7,46,,96,91,52,23,5,5,0.4,0.3
2024-09-03T2000,2552A,107.4644,31.2124,达州市,市政中心,,26,26,35,3,12,66,,105,101,47,19,6,6,0.4,0.4
2024-09-03T2000,2614A,100.1542,25.7054,大理白族自治州,大理市环境监测站,,15,12,20,6,10,47,,51,51,6,11,4,4,0.5,0.6
2024-09-03T2000,2615A,100.2171,25.5811,大理白族自治州,大理古城,,25,,20,17,10,44,,61,61,8,10,7,7,0.5,0.6
2024-09-03T2000,1109A,121.612,38.9741,大连市,甘井子,,28,28,29,10,12,82,,101,97,15,23,9,11,0.4,0.4
2024-09-03T2000,1110A,121.565,38.9511,大连市,周水子,,36,36,34,21,15,59,,86,79,30,33,8,8,0.6,0.8
2024-09-03T2000,1111A,121.5637,38.8845,大连市,星海三站,,27,27,31,10,11,76,,96,90,9,16,6,8,0.4,0.5
2024-09-03T2000,1112A,121.6302,38.9117,大连市,青泥洼桥,,25,25,34,13,13,65,,91,87,15,26,9,10,0.4,0.4
2024-09-03T2000,1113A,121.6251,38.8638,大连市,傅家庄,,29,23,28,12,12,92,,106,99,10,19,9,10,0.6,0.6
2024-09-03T2000,1114A,121.5213,38.8661,大连市,七贤岭,,,30,29,14,11,82,,108,101,13,17,7,8,,0.5
2024-09-03T2000,1115A,121.2529,38.8061,大连市,旅顺,,29,8,20,8,11,91,,138,130,13,18,7,8,0.5,0.6
2024-09-03T2000,1116A,121.7485,39.1311,大连市,金州,,23,23,24,13,11,70,,90,87,12,12,6,7,0.6,0.6
2024-09-03T2000,1117A,121.7811,39.0496,大连市,开发区,,23,20,22,13,10,73,,89,87,11,12,7,9,0.5,0.5
2024-09-03T2000,1118A,121.9762,39.0631,大连市,双D港,,16,16,22,9,10,41,,96,86,8,14,6,8,0.6,0.7
2024-09-03T2000,1789A,124.81117,46.03138,大庆市,大同区,,26,23,21,18,13,68,,86,83,12,7,8,8,0.4,0.3
2024-09-03T2000,1790A,125.129,46.533,大庆市,龙凤区,,50,50,42,12,12,74,,84,83,11,11,4,3,0.4,0.4
2024-09-03T2000,1791A,124.902,46.408,大庆市,红岗区,,28,27,22,19,12,70,,86,83,13,11,6,7,0.4,0.3
2024-09-03T2000,1792A,125.153,46.586,大庆市,萨尔图区,,31,31,23,9,8,72,,80,78,13,14,7,7,0.3,0.3
2024-09-03T2000,1793A,124.9042,46.6215,大庆市,让胡路区,,30,30,18,17,11,70,,80,80,13,10,4,4,0.3,0.3
2024-09-03T2000,3481A,125.141,46.634,大庆市,萨区政府监测点,,24,17,18,8,5,76,,90,88,14,9,6,7,0.3,0.2
2024-09-03T2000,1721A,113.3819,40.1097,大同市,果树场,,,,,,,,,,,,,,,,
2024-09-03T2000,1723A,113.2994,40.0758,大同市,云冈宾馆,,29,29,26,20,12,61,,80,78,21,18,8,9,0.6,0.5
2024-09-03T2000,1724A,113.3444,40.0917,大同市,大同大学,,22,22,21,14,11,67,,76,75,14,13,8,9,0.5,0.4
2024-09-03T2000,1725A,113.2661,40.1269,大同市,安家小村,,32,32,27,6,8,72,,81,81,13,16,10,11,0.7,0.7
2024-09-03T2000,1726A,113.2711,40.0844,大同市,教育学院,,33,33,24,20,14,57,,78,76,27,23,7,10,0.8,0.6
2024-09-03T2000,3282A,113.3397,40.0597,大同市,大同市卫生学校,,35,35,26,16,13,60,,76,75,20,19,9,9,0.7,0.6
2024-09-03T2000,3565A,113.1367,40.1122,大同市,云冈站,,39,39,44,19,16,78,,83,83,16,16,10,13,1.1,0.6
2024-09-03T2000,3566A,113.1186,40.2556,大同市,图书馆,,36,36,26,16,15,73,,79,79,22,19,11,13,0.8,0.8
2024-09-03T2000,3567A,113.5931,40.0461,大同市,区一中,,23,23,20,14,9,60,,75,74,12,11,11,12,0.6,0.6
2024-09-03T2000,3676A,113.2802,40.0995,大同市,第二人民医院,,24,24,25,8,13,69,,81,81,15,16,10,11,0.6,0.5
2024-09-03T2000,2269A,124.1069,50.4097,大兴安岭地区,科技局,,23,20,14,13,12,73,,81,81,3,5,5,6,0.2,0.2
2024-09-03T2000,3663A,124.1164,50.4278,大兴安岭地区,红旗社区,,20,14,16,3,8,63,,75,75,7,11,5,5,0.3,0.3
2024-09-03T2000,1600A,124.3303,40.0625,丹东市,江湾东路,,32,32,21,13,8,52,,82,78,20,13,5,5,0.6,0.6
2024-09-03T2000,1601A,124.4256,40.1503,丹东市,临江后街,颗粒物(PM10),75,100,27,44,10,58,,96,89,27,13,8,7,1.0,0.6
2024-09-03T2000,1602A,124.3933,40.1461,丹东市,元宝山,,25,25,14,9,6,62,,78,77,18,14,4,3,0.6,0.5
2024-09-03T2000,1603A,124.3633,40.1092,丹东市,民主桥,,26,26,15,14,4,61,,88,85,23,14,7,4,0.7,0.5
2024-09-03T2000,3541A,109.5726,19.5167,儋州市,第一中学子站,,22,22,14,11,5,66,,69,69,4,4,4,4,0.7,0.6
2024-09-03T2000,3542A,109.5567,19.5187,儋州市,东坡学校子站,,22,18,14,11,5,70,,74,74,4,3,4,4,0.5,0.4
2024-09-03T2000,2616A,98.5842,24.428,德宏傣族景颇族自治州,德宏州监测站,,20,20,27,14,11,42,,51,51,12,10,6,6,0.6,0.6
2024-09-03T2000,3677A,98.5881,24.4368,德宏傣族景颇族自治州,芒市人民政府综合楼,,16,16,18,8,9,41,,53,53,14,12,4,5,0.7,0.7
2024-09-03T2000,1901A,104.4239,31.1208,德阳市,东山公园,臭氧1小时,55,40,34,29,23,164,,163,163,13,12,3,6,0.7,0.7
2024-09-03T2000,1902A,104.3826,31.1317,德阳市,西小区,,44,38,37,29,25,140,,156,156,15,15,3,7,0.6,0.7
2024-09-03T2000,1904A,104.3553,31.1091,德阳市,耐火材料厂,,46,38,39,32,24,119,,147,145,36,17,3,7,0.9,0.6
2024-09-03T2000,3639A,104.4019,31.1244,德阳市,市教育局,,47,42,38,26,24,150,,159,159,14,13,2,8,0.7,0.7
2024-09-03T2000,1622A,116.3032,37.4674,德州市,儿童乐园,,44,44,31,12,8,108,,137,135,22,14,12,10,0.5,0.5
2024-09-03T2000,1624A,116.2991,37.4451,德州市,监理站,,40,34,20,14,6,127,,140,140,12,12,12,10,0.6,0.5
2024-09-03T2000,3066A,116.2721,37.4379,德州市,九衢泉纯净水厂,,42,31,25,12,9,132,,142,142,15,19,7,7,0.6,0.6
2024-09-03T2000,3371A,116.3728,37.4403,德州市,开发区人民医院,,39,39,26,7,5,106,,138,136,31,22,10,10,0.7,0.5
2024-09-03T2000,3372A,116.3572,37.4094,德州市,太阳城中学,,36,36,28,12,8,102,,137,134,29,22,11,11,0.4,0.4
2024-09-03T2000,3511A,116.5652,37.3319,德州市,陵城艺术中心,,41,41,21,7,4,122,,147,146,21,20,9,13,0.5,0.4
2024-09-03T2000,2621A,99.7056,27.8317,迪庆藏族自治州,迪庆州站,,23,18,18,9,10,73,,85,81,9,9,7,9,0.5,0.5
2024-09-03T2000,3180A,99.7136,27.8094,迪庆藏族自治州,质量技术监督局,,21,16,16,13,8,66,,78,74,13,10,9,9,0.5,0.6
2024-09-03T2000,2663A,104.6241,35.5734,定西市,东关小学,,,61,34,24,23,89,,107,101,,5,3,4,,0.3
2024-09-03T2000,2664A,104.6194,35.5934,定西市,供电公司,,46,40,37,32,27,93,,114,109,4,3,6,7,0.2,0.2
2024-09-03T2000,1389A,113.7547,23.0494,东莞市,莞城梨川,细颗粒物(PM2.5),53,41,28,37,16,102,,145,136,15,18,5,5,0.8,0.8
2024-09-03T2000,1390A,113.7944,23.0128,东莞市,东城石井,,,34,26,,15,100,,154,141,15,17,4,5,0.7,0.6
2024-09-03T2000,1391A,113.7383,22.9658,东莞市,南城西平,,43,43,32,28,17,129,,164,161,17,24,5,5,0.7,0.7
2024-09-03T2000,3319A,113.7338,23.0381,东莞市,万江金泰,,33,33,28,23,17,102,,149,139,15,18,8,9,0.7,0.6
2024-09-03T2000,3626A,113.7533,23.0202,东莞市,南城元岭,颗粒物(PM10),51,52,30,28,19,125,,171,160,18,14,7,8,0.7,0.6
2024-09-03T2000,3627A,113.7875,23.0457,东莞市,东城主山,,35,31,26,19,16,110,,154,146,14,14,8,8,0.7,0.7
2024-09-03T2000,1666A,118.6614,37.4309,东营市,市环保局,臭氧1小时,63,17,17,7,4,170,,152,152,11,18,4,5,0.2,0.2
2024-09-03T2000,3036A,118.6904,37.4338,东营市,开发区管委会,臭氧1小时,58,29,23,3,6,166,,151,151,9,14,5,4,0.3,0.2
2024-09-03T2000,3365A,118.5719,37.565,东营市,垦利区民丰路,,44,22,17,7,5,139,,144,142,14,12,3,2,0.3,0.3
2024-09-03T2000,3498A,118.5055,37.8612,东营市,河口城区,,36,22,21,3,5,113,,137,132,11,14,5,7,0.7,0.6
2024-09-03T2000,3646A,118.4978,37.4623,东营市,胜利站,,45,13,24,7,7,141,,141,140,10,19,10,12,0.6,0.6
2024-09-03T2000,3734A,118.35,37.26,东营市,理想之城,,45,27,19,12,10,142,,137,137,15,19,4,7,0.2,0.2
2024-09-03T2000,1591A,110.0023,39.8129,鄂尔多斯市,综合楼,颗粒物(PM10),53,56,38,29,22,81,,83,83,18,14,8,7,0.8,0.8
2024-09-03T2000,1592A,109.9486,39.8261,鄂尔多斯市,巴音孟克林场办事处,颗粒物(PM10),54,58,37,34,22,72,,75,75,24,16,7,6,1.0,0.9
2024-09-03T2000,1593A,109.7736,39.5986,鄂尔多斯市,康泽苑,颗粒物(PM10),51,51,37,29,20,74,,83,83,19,12,7,6,0.9,0.8
2024-09-03T2000,1594A,109.8119,39.5989,鄂尔多斯市,华泰汽车城,颗粒物(PM10),52,53,38,34,26,58,,73,73,22,10,8,8,0.7,0.7
2024-09-03T2000,1595A,109.9734,39.7884,鄂尔多斯市,奥林花园,颗粒物(PM10),54,58,38,31,24,64,,70,70,24,16,4,4,0.8,0.8
2024-09-03T2000,2436A,114.8938,30.3994,鄂州市,市政府,颗粒物(PM10),53,56,41,26,18,152,,148,148,18,12,9,9,0.9,0.7
2024-09-03T2000,2437A,114.8989,30.3714,鄂州市,赵家坝,,39,39,39,20,18,121,,143,143,17,11,12,10,1.0,0.9
2024-09-03T2000,3654A,114.8094,30.4089,鄂州市,精准医疗中心,,42,42,38,27,17,119,,142,140,14,11,6,6,0.8,0.7
2024-09-03T2000,2454A,109.4978,30.2981,恩施土家族苗族自治州,湖北民院,,33,30,28,23,21,89,,113,106,16,13,9,8,0.7,0.8
2024-09-03T2000,2455A,109.4707,30.2798,恩施土家族苗族自治州,州电力总公司,,26,,26,16,22,83,,104,98,13,15,8,8,0.6,0.7
2024-09-03T2000,3549A,109.5061,30.3772,恩施土家族苗族自治州,龙凤新区,,29,29,29,9,22,69,,107,99,15,11,7,6,0.7,0.8
2024-09-03T2000,2499A,108.3411,21.6158,防城港市,沙万,,31,25,22,16,16,98,,134,133,14,14,6,7,0.5,0.6
2024-09-03T2000,2500A,108.3514,21.7731,防城港市,防城档案局,,24,24,27,16,15,76,,96,96,7,9,7,7,0.6,0.5
2024-09-03T2000,2501A,108.3506,21.6414,防城港市,大海花园,,,26,22,12,10,107,,136,136,,13,6,8,,0.4
2024-09-03T2000,1371A,113.1294,23.0067,佛山市,湾梁,臭氧1小时,105,58,36,28,21,209,,245,245,29,27,9,8,1.0,0.9
2024-09-03T2000,1372A,113.1083,23.0478,佛山市,华材职中,颗粒物(PM10),74,97,37,29,20,165,,228,225,54,34,7,7,0.6,0.4
2024-09-03T2000,1373A,113.144,23.0453,佛山市,南海气象局,臭氧1小时,109,61,34,30,21,217,,228,228,22,22,9,7,0.6,0.5
2024-09-03T2000,1374A,113.2881,22.8094,佛山市,顺德苏岗,臭氧1小时,102,73,29,48,20,203,,249,249,38,21,7,7,0.9,0.7
2024-09-03T2000,1376A,112.8383,22.8678,佛山市,高明孔堂,,43,43,29,21,16,125,,172,170,14,18,5,7,0.7,0.7
2024-09-03T2000,1377A,112.8836,23.1588,佛山市,三水监测站,颗粒物(PM10),56,61,37,29,18,147,,211,209,42,29,5,6,0.5,0.4
2024-09-03T2000,1378A,112.867,23.185,佛山市,三水云东海,颗粒物(PM10),57,63,31,35,20,126,,189,186,30,24,9,10,0.7,0.6
2024-09-03T2000,3625A,113.2544,22.7642,佛山市,容桂街道办,臭氧1小时,112,56,30,41,25,224,,268,268,42,25,7,7,0.9,0.7
2024-09-03T2000,1280A,119.3903,26.0543,福州市,鼓山,,,,,,,,,,,,,,,,
2024-09-03T2000,1282A,119.2681,26.0504,福州市,师大,,27,16,23,6,10,84,,100,99,4,8,4,4,0.3,0.3
2024-09-03T2000,1283A,119.2984,26.1028,福州市,五四北路,,,,,8,11,87,,99,98,3,6,3,3,0.4,0.5
2024-09-03T2000,1284A,119.2648,26.0768,福州市,杨桥西路,,27,21,23,10,11,86,,102,101,3,7,3,4,0.5,0.6
2024-09-03T2000,1285A,119.317,26.0746,福州市,紫阳,,,,,,,,,,,,,,,,
2024-09-03T2000,3048A,119.5799,26.0936,福州市,九龙,,,,22,,6,87,,92,92,1,3,5,5,,0.3
2024-09-03T2000,3526A,119.5189,25.9664,福州市,吴航,,27,20,15,10,9,84,,90,90,2,2,6,6,0.6,0.6
2024-09-03T2000,1755A,123.7977,41.8491,抚顺市,望花区,颗粒物(PM10),54,58,43,16,12,121,,124,124,26,23,15,14,1.0,0.8
2024-09-03T2000,1756A,123.9161,41.8822,抚顺市,顺城区,颗粒物(PM10),62,73,28,27,10,45,,122,112,77,23,6,6,1.0,0.6
2024-09-03T2000,1757A,124.0436,41.8611,抚顺市,东洲区,细颗粒物(PM2.5),75,,23,55,15,96,,111,111,30,15,10,7,1.2,0.6
2024-09-03T2000,1758A,123.9247,41.8642,抚顺市,新抚区,颗粒物(PM10),67,83,38,31,12,97,,120,120,41,22,11,10,1.9,0.5
2024-09-03T2000,1759A,124.0972,41.8961,抚顺市,大伙房水库,,40,40,18,12,10,87,,122,118,14,12,6,5,0.8,0.6
2024-09-03T2000,1760A,123.7086,41.8391,抚顺市,沈抚新城,颗粒物(PM10),55,60,32,22,15,92,,128,127,49,29,10,12,0.6,0.5
2024-09-03T2000,2376A,116.2127,28.0814,抚州市,桐源党溪,颗粒物(PM10),52,54,52,34,36,90,,131,125,2,5,13,7,0.6,0.7
2024-09-03T2000,2377A,116.3544,27.9831,抚州市,市站,细颗粒物(PM2.5),57,61,58,40,40,75,,114,109,7,8,4,6,1.1,1
2024-09-03T2000,2378A,116.3565,27.963,抚州市,血防站,细颗粒物(PM2.5),59,58,56,42,38,92,,125,121,10,11,1,3,1.0,0.9
2024-09-03T2000,2379A,116.3564,28.0007,抚州市,采茶剧团,细颗粒物(PM2.5),63,59,55,45,42,87,,119,116,8,8,6,9,1.3,1.3
2024-09-03T2000,2380A,116.385,27.9647,抚州市,医学分院,细颗粒物(PM2.5),59,62,57,42,37,90,,124,120,8,9,4,4,0.7,0.7
2024-09-03T2000,2207A,121.6094,41.998,阜新市,工业园区,颗粒物(PM10),51,52,44,11,11,95,,111,109,23,24,17,9,0.5,0.7
2024-09-03T2000,2208A,121.6697,42.0279,阜新市,长青街,,32,25,44,11,12,102,,103,103,19,27,12,15,0.5,1
2024-09-03T2000,2209A,121.6673,42.0705,阜新市,农业园区,,30,22,42,9,13,93,,99,99,15,16,6,19,0.4,0.6
2024-09-03T2000,2210A,121.6717,42.0224,阜新市,东苑,,34,25,51,10,21,106,,101,101,16,27,10,22,0.6,1.2
2024-09-03T2000,2211A,121.6506,42.0498,阜新市,玉龙新城,,41,41,35,14,10,100,,110,110,17,22,12,12,0.6,0.9
2024-09-03T2000,2301A,115.8277,32.8929,阜阳市,市监测站,,37,37,29,10,13,115,,134,132,17,10,8,8,0.5,0.5
2024-09-03T2000,2303A,115.8554,32.8605,阜阳市,开发区,,47,47,34,10,10,115,,136,133,22,15,9,9,0.6,0.5
2024-09-03T2000,2875A,115.784,32.8892,阜阳市,阜阳职业技术学院,,46,46,26,11,12,127,,133,133,12,9,7,7,0.4,0.4
2024-09-03T2000,3468A,115.7901,32.8613,阜阳市,市规划展馆,,41,31,30,12,13,129,,138,137,16,12,11,9,0.4,0.4
2024-09-03T2000,3469A,115.836,32.9183,阜阳市,枣园社区,,41,,34,13,12,131,,136,136,12,12,6,6,0.5,0.5
2024-09-03T2000,2669A,102.9099,34.9841,甘南藏族自治州,州政府,颗粒物(PM10),54,57,27,24,15,80,,100,98,6,7,9,9,0.3,0.3
2024-09-03T2000,3380A,102.8914,34.9617,甘南藏族自治州,甘肃民族师范学院,,32,28,25,18,11,101,,107,107,4,12,4,4,0.6,0.5
2024-09-03T2000,2570A,101.9603,30.0475,甘孜藏族自治州,水桥子,,26,,6,3,6,81,,84,84,4,13,5,5,0.3,0.3
2024-09-03T2000,3065A,101.9533,29.9972,甘孜藏族自治州,州环保局,,25,16,10,9,4,80,,83,83,9,14,3,3,0.2,0.2
2024-09-03T2000,3414A,115.8347,28.932,赣江新区,桑海产业园,,44,39,43,28,34,138,,152,152,11,10,11,11,0.6,0.6
2024-09-03T2000,2362A,114.9017,25.9149,赣州市,通天岩,,,,,,,,,,,,,,,,
2024-09-03T2000,2363A,114.9367,25.8664,赣州市,地委,,32,31,38,22,24,56,,107,94,14,11,1,13,1.0,1
2024-09-03T2000,2364A,114.9461,25.8481,赣州市,气象台,,40,40,41,28,25,68,,117,104,13,14,10,10,0.8,0.6
2024-09-03T2000,2365A,114.9322,25.8333,赣州市,市图书馆,,36,36,39,22,24,84,,128,118,9,11,4,4,1.1,0.9
2024-09-03T2000,2366A,114.8905,25.8471,赣州市,华坚鞋城,,36,36,43,21,26,51,,105,90,16,11,1,1,0.7,0.6
2024-09-03T2000,3109A,115.0093,25.8613,赣州市,赣县区卫计委,,39,39,31,20,20,72,,115,105,12,11,6,6,0.7,0.7
2024-09-03T2000,2683A,106.2319,36.1417,固原市,马园,,43,43,34,21,13,49,,94,81,34,10,6,5,0.7,0.8
2024-09-03T2000,2684A,106.2792,36.0022,固原市,监测站,,38,38,23,17,19,80,,100,89,9,6,4,4,0.4,0.4
2024-09-03T2000,2685A,106.2375,36.0211,固原市,新区,,27,27,25,12,14,71,,94,83,13,6,7,7,0.5,0.5
2024-09-03T2000,3522A,106.2177,35.9959,固原市,原州区十五小,,28,28,23,16,14,80,,96,96,12,7,8,8,0.6,0.6
2024-09-03T2000,2543A,106.6308,30.5278,广安市,小平旧居,,,,,,,,,,,,,,,,
2024-09-03T2000,2544A,106.6303,30.4576,广安市,市委,,38,29,28,20,19,120,,137,136,26,12,8,4,0.4,0.4
2024-09-03T2000,2545A,106.6271,30.4663,广安市,友谊中学,,41,28,23,17,18,129,,135,135,20,14,5,4,0.4,0.5
2024-09-03T2000,2547A,106.6388,30.4551,广安市,广电花园,,37,24,30,16,17,118,,134,132,19,12,3,3,0.5,0.4
2024-09-03T2000,2902A,106.6351,30.4865,广安市,北辰小学,,,26,31,16,17,131,,140,140,10,10,5,5,,0.3
2024-09-03T2000,2523A,105.8945,32.4535,广元市,黑石坡,,35,23,33,11,25,109,,100,100,8,9,5,6,0.3,0.5
2024-09-03T2000,2524A,105.821,32.4444,广元市,老城,,31,15,37,14,20,98,,109,107,13,20,1,4,0.4,0.6
2024-09-03T2000,2526A,105.8628,32.4287,广元市,监测站,,31,23,37,3,23,97,,112,112,13,13,4,8,0.6,0.8
2024-09-03T2000,3617A,105.8047,32.4166,广元市,经开区,,30,25,46,19,32,93,,107,107,16,17,4,6,0.6,0.8
2024-09-03T2000,1345A,113.2347,23.1423,广州市,广雅中学,,,37,34,24,19,102,,195,190,,31,5,6,0.7,0.7
2024-09-03T2000,1346A,113.2612,23.105,广州市,市五中,,47,38,30,25,21,148,,204,203,19,18,3,4,0.8,0.7
2024-09-03T2000,1348A,113.3478,23.0916,广州市,广东商学院,,49,49,32,26,19,150,,194,194,29,25,4,5,0.7,0.6
2024-09-03T2000,1349A,113.4332,23.1047,广州市,市八十六中,,45,45,35,25,20,106,,177,176,34,36,3,4,0.7,0.6
2024-09-03T2000,1350A,113.3505,22.9483,广州市,番禺中学,臭氧1小时,126,57,27,37,18,252,,218,218,30,24,5,5,1.0,0.8
2024-09-03T2000,1351A,113.2146,23.3916,广州市,花都师范,,42,38,31,21,18,133,,170,170,22,19,4,5,0.8,0.7
2024-09-03T2000,1352A,113.2597,23.1331,广州市,市监测站,,37,37,30,22,16,102,,178,175,25,24,4,5,0.8,0.7
2024-09-03T2000,1353A,113.5618,23.312,广州市,九龙镇镇龙,,21,19,27,14,16,67,,101,97,28,15,6,6,0.7,0.6
2024-09-03T2000,1354A,113.2765,23.1544,广州市,麓湖,,,,32,,17,99,,155,150,20,27,4,5,0.6,0.6
2024-09-03T2000,1355A,113.443,23.3035,广州市,帽峰山森林公园,,40,,19,22,14,127,,128,126,7,10,5,5,0.5,0.5
2024-09-03T2000,2846A,113.3221,23.1322,广州市,体育西,,43,42,29,30,19,121,,167,164,17,18,6,6,0.8,0.7
2024-09-03T2000,3298A,113.5717,23.5491,广州市,从化街口,细颗粒物(PM2.5),52,46,25,36,17,46,,112,103,17,11,2,2,0.7,0.5
2024-09-03T2000,3299A,113.3472,23.3692,广州市,白云竹料,,44,44,33,26,20,93,,142,138,28,18,5,5,0.8,0.6
2024-09-03T2000,3300A,113.2981,23.237,广州市,白云嘉禾,颗粒物(PM10),54,58,37,26,21,85,,156,150,53,29,5,6,0.9,0.8
2024-09-03T2000,3301A,113.4256,23.1716,广州市,黄埔科学城,,33,33,29,18,16,81,,151,144,36,26,4,4,0.5,0.5
2024-09-03T2000,3302A,113.3942,23.0483,广州市,番禺大学城,臭氧1小时,74,28,24,22,18,179,,202,202,21,24,8,8,0.6,0.6
2024-09-03T2000,3303A,113.4922,22.8168,广州市,南沙黄阁,臭氧1小时,84,42,36,30,22,187,,231,231,45,35,5,5,1.1,0.9
2024-09-03T2000,3304A,113.5342,22.7896,广州市,南沙街,臭氧1小时,84,63,33,30,21,187,,221,221,31,26,5,6,0.9,0.8
2024-09-03T2000,3443A,113.2902,23.5544,广州市,花都梯面,细颗粒物(PM2.5),53,48,29,37,19,39,,110,100,26,19,4,6,0.7,0.6
2024-09-03T2000,3445A,113.7858,23.7478,广州市,从化良口,,28,28,21,19,13,40,,74,71,7,7,6,6,0.8,0.7
2024-09-03T2000,3446A,113.8051,23.2614,广州市,增城荔城,,29,28,19,20,13,73,,105,101,15,10,4,5,0.7,0.6
2024-09-03T2000,2505A,109.568,23.1478,贵港市,德智高中,,,,,,,,,,,,,,,,
2024-09-03T2000,2506A,109.6047,23.0666,贵港市,江南子站,,42,31,41,17,16,132,,164,163,15,19,8,9,0.6,0.7
2024-09-03T2000,2507A,109.6014,23.0948,贵港市,贵城子站,颗粒物(PM10),53,56,36,19,17,134,,152,152,15,16,8,8,0.6,0.7
2024-09-03T2000,2508A,109.5669,23.1065,贵港市,荷城子站,,46,46,22,9,7,128,,150,149,15,10,10,9,0.5,0.4
2024-09-03T2000,3405A,109.5886,23.1172,贵港市,新世纪学校,颗粒物(PM10),52,53,24,17,9,119,,139,138,15,9,8,8,0.6,0.5
2024-09-03T2000,1439A,106.6899,26.5998,贵阳市,马鞍山,,15,12,7,3,1,47,,72,69,12,11,4,4,0.4,0.4
2024-09-03T2000,1440A,106.6971,26.5694,贵阳市,市环保站,,19,19,20,13,9,45,,58,57,23,15,5,5,0.3,0.2
2024-09-03T2000,1441A,106.6243,26.6266,贵阳市,鉴湖路,,17,12,15,3,6,53,,68,65,9,6,5,8,0.2,0.3
2024-09-03T2000,1442A,106.7487,26.6343,贵阳市,燕子冲,,18,,6,12,7,54,,70,67,13,10,6,6,0.3,0.4
2024-09-03T2000,1443A,106.6555,26.4365,贵阳市,碧云窝,,,,12,,2,56,,63,61,9,6,,5,,0.5
2024-09-03T2000,1444A,106.694,26.5161,贵阳市,中院村,,27,27,15,12,5,42,,61,59,20,11,8,8,0.3,0.3
2024-09-03T2000,1445A,106.7109,26.6027,贵阳市,红边门,,22,22,17,9,12,46,,64,62,22,14,4,5,0.4,0.4
2024-09-03T2000,1446A,106.7164,26.5699,贵阳市,新华路,,24,24,10,3,6,58,,71,69,15,12,5,5,0.6,0.5
2024-09-03T2000,1447A,106.674,26.5424,贵阳市,太慈桥,,16,14,8,7,2,50,,67,65,14,9,5,5,0.3,0.2
2024-09-03T2000,1552A,106.805,26.3003,贵阳市,桐木岭,,,,,,,,,,,,,,,,
2024-09-03T2000,1862A,110.4144,25.3167,桂林市,电子科大尧山校区,,,62,37,21,19,49,,88,81,,6,30,23,0.5,0.4
2024-09-03T2000,1863A,110.2819,25.2697,桂林市,监测站,,24,24,24,13,17,62,,95,88,8,8,7,10,0.3,0.3
2024-09-03T2000,1864A,110.3089,25.2708,桂林市,龙隐路小学,,21,20,21,13,15,66,,114,104,12,7,6,9,0.3,0.3
2024-09-03T2000,1865A,110.2869,25.2178,桂林市,八中,,24,24,23,3,9,65,,103,95,8,7,6,8,0.3,0.3
2024-09-03T2000,3403A,110.1764,25.2381,桂林市,创业大厦,,36,36,27,14,19,63,,91,87,12,10,8,21,0.3,0.3
2024-09-03T2000,3531A,110.296,25.1253,桂林市,旅游学院,,17,7,11,7,8,52,,102,91,5,8,5,7,0.3,0.3
2024-09-03T2000,2674A,100.2561,34.4714,果洛藏族自治州,玛沁县大武镇,,30,27,13,21,10,53,,97,86,21,6,14,12,0.6,0.4
2024-09-03T2000,1129A,126.5422,45.755,哈尔滨市,岭北,,34,20,16,12,9,107,,109,109,19,15,8,8,0.3,0.4
2024-09-03T2000,1130A,126.561,45.8167,哈尔滨市,松北商大,,22,19,19,3,5,68,,86,81,21,18,8,8,0.6,0.6
2024-09-03T2000,1131A,126.979,45.5419,哈尔滨市,阿城会宁,,37,37,18,12,8,31,,84,75,30,12,7,8,0.7,0.7
2024-09-03T2000,1132A,126.599,45.7222,哈尔滨市,南岗学府路,颗粒物(PM10),55,59,44,20,9,24,,92,81,63,23,8,7,0.7,0.5
2024-09-03T2000,1133A,126.689,45.7733,哈尔滨市,太平宏伟公园,,24,24,26,6,8,61,,87,83,29,26,4,4,0.6,0.5
2024-09-03T2000,1134A,126.635,45.7667,哈尔滨市,道外承德广场,,37,37,29,22,10,54,,85,80,41,30,8,9,0.5,0.6
2024-09-03T2000,1135A,126.685,45.7319,哈尔滨市,香坊红旗大街,,44,44,35,20,12,59,,89,84,35,31,10,10,0.8,0.7
2024-09-03T2000,1136A,126.6411,45.7258,哈尔滨市,动力和平路,,41,41,32,3,12,52,,90,82,40,30,12,8,0.6,0.5
2024-09-03T2000,1137A,126.593,45.7478,哈尔滨市,道里建国路,,26,26,28,8,10,65,,90,86,28,23,8,7,0.8,0.4
2024-09-03T2000,1138A,126.615,45.61,哈尔滨市,平房东轻厂,,24,18,21,3,7,76,,88,86,18,17,6,6,0.4,0.3
2024-09-03T2000,1139A,126.595,45.9855,哈尔滨市,呼兰师专,,34,34,20,7,6,55,,86,80,36,21,10,10,0.5,0.5
2024-09-03T2000,1140A,126.6206,45.6842,哈尔滨市,省农科院,,45,45,38,15,13,26,,81,67,68,32,10,7,0.5,0.3
2024-09-03T2000,2688A,93.5128,42.8172,哈密市,地区监测站,,28,20,61,10,15,87,,105,92,7,9,8,4,0.4,0.3
2024-09-03T2000,2689A,93.4961,42.8328,哈密市,哈密师范学校,,28,15,40,7,14,87,,105,93,11,9,10,5,0.5,0.5
2024-09-03T2000,2671A,100.9048,36.9639,海北藏族自治州,海晏县西海镇,,,,30,,26,134,,123,123,8,10,24,18,0.7,0.6
2024-09-03T2000,3867A,102.0738,36.5056,海东市,平安区公安北苑,,37,36,39,18,27,116,,128,128,6,15,9,12,0.6,1.2
2024-09-03T2000,1409A,110.576,19.9507,海口市,东寨港,,,,,,,,,,,,,,,,
2024-09-03T2000,1410A,110.3232,20.0574,海口市,海南大学,,22,16,16,7,7,69,,77,77,25,15,5,6,0.5,0.4
2024-09-03T2000,1411A,110.283,20.0053,海口市,秀英海南医院,,22,14,20,10,6,70,,74,74,24,17,4,4,0.4,0.3
2024-09-03T2000,1412A,110.338,19.9969,海口市,海南师范大学,,24,13,18,9,8,75,,83,83,17,13,6,5,0.4,0.4
2024-09-03T2000,1413A,110.33,20.0356,海口市,龙华路环保局宿舍,,,13,16,8,8,82,,77,77,10,12,4,4,,0.3
2024-09-03T2000,3539A,110.5111,19.9736,海口市,桂林洋子站,,24,24,17,16,9,68,,81,80,17,12,5,5,0.3,0.3
2024-09-03T2000,2673A,100.6188,36.2866,海南藏族自治州,共和县恰卜恰镇,,29,27,25,3,12,90,,106,106,12,14,15,12,0.4,0.5
2024-09-03T2000,2676A,97.3731,37.3753,海西蒙古族藏族自治州,德令哈市,,30,15,16,8,11,96,,100,100,13,7,11,9,0.4,0.5
2024-09-03T2000,1048A,114.5302,36.6116,邯郸市,东污水处理厂,,45,45,28,17,9,115,,119,119,12,20,3,4,0.4,0.4
2024-09-03T2000,1049A,114.4918,36.5713,邯郸市,矿院,,43,43,32,12,10,123,,128,127,9,18,3,4,0.4,0.5
2024-09-03T2000,1050A,114.484,36.6133,邯郸市,丛台公园,,41,41,25,10,11,120,,121,121,8,16,4,4,0.4,0.4
2024-09-03T2000,3458A,114.7895,36.5593,邯郸市,香泉濮院小区,,42,42,36,14,12,129,,126,126,13,15,3,5,0.2,0.2
2024-09-03T2000,3579A,114.50634,36.77178,邯郸市,永年区实验高中,,44,44,42,14,14,127,,135,135,12,19,2,3,0.5,0.4
2024-09-03T2000,3580A,114.20016,36.44293,邯郸市,峰峰矿区临水派出所,,40,34,25,10,10,127,,149,148,8,13,5,7,0.5,0.8
2024-09-03T2000,2634A,106.9893,33.1842,汉中市,汉川机床厂子校,,32,32,29,20,19,76,,106,104,10,8,4,4,0.7,0.8
2024-09-03T2000,2635A,107.0154,33.0706,汉中市,市监测站,,39,39,36,16,20,81,,115,111,6,8,7,8,0.7,0.8
2024-09-03T2000,2636A,107.0089,33.1138,汉中市,鑫源开发区,,42,,36,29,31,80,,117,114,8,7,9,10,0.6,0.7
2024-09-03T2000,2637A,107.007,33.0323,汉中市,南郑大河坎水厂,,26,26,33,16,20,78,,107,105,4,9,8,9,0.6,0.7
2024-09-03T2000,1223A,120.2072,30.2111,杭州市,滨江,,41,41,44,20,28,94,,123,121,15,14,4,5,0.8,0.8
2024-09-03T2000,1224A,120.0633,30.2747,杭州市,西溪,,35,35,39,22,26,103,,120,119,16,17,5,5,0.7,0.8
2024-09-03T2000,1226A,120.3461,30.3153,杭州市,下沙,,32,,31,22,25,85,,126,122,26,25,6,7,0.8,0.8
2024-09-03T2000,1227A,120.1269,30.2456,杭州市,卧龙桥,,39,39,39,25,30,106,,130,129,17,15,5,6,0.7,0.8
2024-09-03T2000,1228A,120.1903,30.2692,杭州市,浙江农大,,37,37,40,18,28,91,,111,110,18,20,8,9,0.7,0.8
2024-09-03T2000,1230A,120.1197,30.3119,杭州市,和睦小学,,33,33,36,21,23,104,,126,125,17,19,6,7,0.7,0.8
2024-09-03T2000,1231A,120.3019,30.4183,杭州市,临平镇,,32,32,47,18,25,84,,118,115,15,12,4,4,0.8,0.9
2024-09-03T2000,1232A,120.2697,30.1819,杭州市,城厢镇,细颗粒物(PM2.5),52,45,39,36,31,93,,141,136,23,18,6,7,0.7,0.6
2024-09-03T2000,1233A,120.0883,30.1808,杭州市,云栖,,36,36,33,22,21,98,,134,130,15,16,6,6,0.8,0.8
2024-09-03T2000,3557A,119.9464,30.0494,杭州市,镇二中,,45,44,38,31,28,125,,137,137,16,16,8,8,0.9,0.9
2024-09-03T2000,3558A,119.7183,30.2367,杭州市,市府大楼,,45,38,31,31,30,128,,133,131,17,12,6,6,0.8,0.8
2024-09-03T2000,3656A,120.1556,30.2864,杭州市,消防大队,,36,36,41,21,29,97,,125,123,14,13,7,8,0.8,1.1
2024-09-03T2000,1270A,117.1959,31.7848,合肥市,明珠广场,,34,27,27,14,15,106,,133,132,20,12,7,7,0.5,0.5
2024-09-03T2000,1271A,117.3072,31.8764,合肥市,三里街,,35,29,27,12,10,112,,116,116,11,6,6,6,0.4,0.4
2024-09-03T2000,1272A,117.2588,31.8707,合肥市,琥珀山庄,,37,27,26,16,13,116,,124,124,9,6,6,6,0.5,0.5
2024-09-03T2000,1273A,117.1604,31.9052,合肥市,董铺水库,,32,27,28,12,11,101,,118,115,9,5,2,3,0.4,0.4
2024-09-03T2000,1274A,117.25,31.8571,合肥市,长江中路,,41,41,31,19,15,103,,121,120,20,7,8,8,0.7,0.7
2024-09-03T2000,1275A,117.266,31.9436,合肥市,庐阳区,,41,41,28,9,7,116,,126,126,14,7,3,4,0.5,0.4
2024-09-03T2000,1276A,117.336,31.8586,合肥市,瑶海区,,34,31,27,13,11,106,,114,114,17,9,4,8,0.5,0.5
2024-09-03T2000,1277A,117.3027,31.7964,合肥市,包河区,,36,36,32,24,14,106,,116,116,18,13,6,5,0.5,0.4
2024-09-03T2000,1278A,117.2776,31.7385,合肥市,滨湖新区,,42,29,29,12,12,132,,131,131,10,9,5,5,0.6,0.4
2024-09-03T2000,1279A,117.1318,31.8403,合肥市,高新区,,44,44,34,14,12,104,,127,126,20,11,7,6,0.8,0.8
2024-09-03T2000,3464A,117.3803,31.9147,合肥市,高教基地,,34,22,23,16,8,106,,115,115,8,5,11,11,0.4,0.4
2024-09-03T2000,3614A,79.924,37.0877,和田地区,地区环保局,颗粒物(PM10),154,258,555,93,134,80,,98,97,10,12,8,7,0.7,0.7
2024-09-03T2000,3615A,79.9131,37.113,和田地区,市环保局,颗粒物(PM10),139,227,492,80,113,80,,94,92,8,12,7,7,0.5,0.5
2024-09-03T2000,2516A,108.2011,24.715,河池市,东仁乐园,,32,32,29,13,13,55,,100,98,12,11,5,6,0.6,0.6
2024-09-03T2000,2517A,108.0497,24.6947,河池市,市环保站,,,14,26,,16,70,,94,93,8,12,8,13,0.5,0.6
2024-09-03T2000,2518A,108.0983,24.6989,河池市,市疾控中心,,37,37,30,15,13,45,,97,93,26,16,9,10,0.6,0.6
2024-09-03T2000,1696A,114.6778,23.7569,河源市,源西,,46,39,24,32,15,55,,104,96,30,14,5,4,0.8,0.6
2024-09-03T2000,1697A,114.6944,23.7586,河源市,东埔,,43,37,19,30,17,77,,109,105,16,11,2,3,0.8,0.6
2024-09-03T2000,1698A,114.6892,23.7233,河源市,老城,,33,33,23,14,10,67,,111,106,8,8,2,2,0.7,0.6
2024-09-03T2000,1718A,115.4208,35.2464,菏泽市,气象局,,,57,42,17,14,,,175,175,12,12,4,6,0.4,0.3
2024-09-03T2000,1719A,115.4747,35.2375,菏泽市,市政协,,48,47,39,24,14,153,,171,171,10,12,5,6,0.3,0.3
2024-09-03T2000,3374A,115.5564,35.0891,菏泽市,定陶老年大学,,45,44,38,14,9,144,,160,160,13,15,6,7,0.4,0.3
2024-09-03T2000,3647A,115.4702,35.2706,菏泽市,菏泽医专,颗粒物(PM10),59,67,43,19,11,127,,184,182,29,16,2,10,0.6,0.5
2024-09-03T2000,2514A,111.5264,24.4172,贺州市,环保小区,,34,34,26,17,11,76,,99,96,14,12,7,9,0.7,0.6
2024-09-03T2000,2515A,111.5608,24.4078,贺州市,政协大楼,,35,35,27,21,15,81,,105,102,14,13,8,9,0.5,0.4
2024-09-03T2000,3534A,111.4744,24.4553,贺州市,西湾,,22,19,28,10,12,70,,97,94,16,15,7,8,0.6,0.6
2024-09-03T2000,2385A,114.17,35.9019,鹤壁市,市监测站,颗粒物(PM10),51,52,35,18,17,141,,144,144,13,13,5,6,0.4,0.6
2024-09-03T2000,2386A,114.2956,35.7511,鹤壁市,市交警支队,,46,46,37,17,14,144,,141,141,14,14,8,7,0.5,0.5
2024-09-03T2000,2387A,114.2878,35.7306,鹤壁市,迎宾馆,,46,36,35,21,15,146,,145,145,15,13,5,5,0.6,0.6
2024-09-03T2000,3474A,114.2617,35.6822,鹤壁市,大新区,,34,18,35,8,9,106,,137,134,24,17,5,6,0.4,0.4
2024-09-03T2000,3596A,114.1572,35.9603,鹤壁市,南山宾馆,,43,40,30,22,12,136,,140,140,10,12,6,4,0.5,0.8
2024-09-03T2000,2244A,130.2537,47.3416,鹤岗市,哈啤分公司,,,,17,,13,45,,70,62,14,6,,12,0.6,0.4
2024-09-03T2000,2245A,130.2684,47.3086,鹤岗市,斯达机电,,39,39,21,21,12,49,,69,64,16,10,14,13,0.3,0.2
2024-09-03T2000,2246A,130.3114,47.3388,鹤岗市,东山纸板厂,,33,33,25,12,12,38,,65,58,20,9,14,14,0.5,0.7
2024-09-03T2000,2247A,130.1097,47.3382,鹤岗市,五号水库,,19,19,13,9,8,28,,75,65,5,4,7,10,0.3,0.2
2024-09-03T2000,2263A,127.4833,50.2524,黑河市,交通局,,30,30,24,18,14,64,,78,75,9,5,11,6,0.3,0.3
2024-09-03T2000,2264A,127.5144,50.2341,黑河市,环保局,,25,21,20,6,14,77,,84,84,6,5,3,3,0.3,0.3
2024-09-03T2000,2265A,127.5291,50.2472,黑河市,大黑河岛,,32,32,19,15,13,66,,93,92,2,2,2,12,0.1,0.2
2024-09-03T2000,1074A,115.6838,37.7541,衡水市,电机北厂,,,39,32,13,10,117,,128,127,,11,8,6,0.3,0.3
2024-09-03T2000,1075A,115.6303,37.7316,衡水市,市监测站,,40,39,33,12,7,126,,130,130,15,14,8,6,0.3,0.3
2024-09-03T2000,3188A,115.6683,37.7217,衡水市,市城管局,,38,26,28,16,11,121,,129,129,12,12,8,6,0.4,0.4
2024-09-03T2000,3459A,115.5989,37.5491,衡水市,地表水厂,颗粒物(PM10),51,52,38,8,8,86,,128,124,36,13,4,4,0.4,0.3
2024-09-03T2000,2456A,112.5003,26.9167,衡阳市,原169医院,"颗粒物(PM10),细颗粒物(PM2.5)",60,70,55,43,32,92,,141,134,14,16,5,6,0.9,0.7
2024-09-03T2000,2457A,112.6194,26.9258,衡阳市,衡阳化工总厂,,,73,62,,,86,,141,134,9,9,7,8,0.9,0.7
2024-09-03T2000,2458A,112.6211,26.8956,衡阳市,珠晖区环保局,,,77,54,,,90,,141,134,8,13,5,7,1.0,0.9
2024-09-03T2000,2459A,112.6197,26.8733,衡阳市,市委党校,细颗粒物(PM2.5),70,64,54,51,33,93,,149,140,9,11,8,9,0.9,0.8
2024-09-03T2000,2460A,112.6006,26.8919,衡阳市,市监测站,细颗粒物(PM2.5),87,74,52,64,37,93,,149,142,8,12,7,9,0.9,0.8
2024-09-03T2000,2461A,112.5664,26.9056,衡阳市,真空机电公司,细颗粒物(PM2.5),72,74,58,52,34,86,,145,137,10,11,6,9,1.1,1.1
2024-09-03T2000,3399A,112.6703,26.882,衡阳市,师范学院,细颗粒物(PM2.5),70,77,53,51,32,81,,148,136,10,11,8,10,0.8,0.8
2024-09-03T2000,2608A,103.3772,23.3993,红河哈尼族彝族自治州,污水处理厂,,25,25,19,9,11,20,,55,47,15,10,9,12,0.5,0.4
2024-09-03T2000,2609A,103.3861,23.35,红河哈尼族彝族自治州,监测站,,23,23,16,14,14,26,,53,45,15,8,22,9,0.6,0.4
2024-09-03T2000,3038A,103.3758,23.368,红河哈尼族彝族自治州,州图书馆,,,,14,4,8,30,,51,44,10,9,12,9,0.4,0.4
2024-09-03T2000,1090A,111.6507,40.7517,呼和浩特市,呼市一监,,44,44,25,24,23,36,,48,45,28,16,5,8,0.8,0.7
2024-09-03T2000,1091A,111.6572,40.8033,呼和浩特市,小召,,,,19,,23,37,,48,48,,18,,6,,0.8
2024-09-03T2000,1094A,111.7516,40.8369,呼和浩特市,如意水处理厂,,29,29,34,14,17,42,,51,50,33,18,5,6,0.8,0.6
2024-09-03T2000,1095A,111.7276,40.8062,呼和浩特市,二十九中,,35,35,28,23,23,52,,54,54,28,20,4,4,0.9,0.7
2024-09-03T2000,1096A,111.5512,40.7866,呼和浩特市,工大金川校区,,31,31,29,21,25,27,,52,32,44,25,2,3,0.8,0.7
2024-09-03T2000,1097A,111.717,40.7612,呼和浩特市,化肥厂生活区,,38,38,39,16,21,45,,56,55,36,20,8,8,0.8,0.6
2024-09-03T2000,3698A,111.5968,40.8178,呼和浩特市,红旗小学,,32,27,23,22,23,21,,50,35,53,26,4,4,0.7,0.6
2024-09-03T2000,3699A,111.6518,40.8389,呼和浩特市,海东办,,36,31,22,25,25,22,,53,47,48,21,6,6,0.8,0.6
2024-09-03T2000,2192A,119.7594,49.2261,呼伦贝尔市,区环保局,,28,28,26,15,14,78,,86,86,18,9,3,2,0.2,0.2
2024-09-03T2000,3061A,119.7512,49.1577,呼伦贝尔市,国华电力东,,,,19,,12,,,68,,,5,,3,,0.2
2024-09-03T2000,1250A,120.0751,30.8669,湖州市,城西水厂,,28,26,32,16,21,89,,112,112,12,10,4,4,0.4,0.5
2024-09-03T2000,2873A,120.0875,30.8955,湖州市,仁皇山新区,,26,26,30,17,21,78,,104,103,13,9,5,6,0.7,0.8
2024-09-03T2000,2907A,120.1844,30.8596,湖州市,吴兴区站,,31,31,27,17,19,62,,97,96,14,7,7,7,0.6,0.7
2024-09-03T2000,3562A,120.4148,30.8538,湖州市,南浔区站,,24,24,26,14,22,55,,93,88,16,11,4,4,0.5,0.7
2024-09-03T2000,1607A,120.9092,40.7136,葫芦岛市,龙港区,,47,21,33,11,17,149,,136,136,10,29,9,19,0.4,0.5
2024-09-03T2000,1608A,120.8392,40.7514,葫芦岛市,化工街,,41,24,41,12,15,129,,128,128,18,30,9,60,0.2,0.2
2024-09-03T2000,1609A,120.8341,40.7073,葫芦岛市,新区,,46,29,39,3,20,146,,140,140,15,40,11,16,0.3,0.4
2024-09-03T2000,1610A,120.8695,40.7677,葫芦岛市,东城区,,41,23,42,14,17,131,,130,130,20,29,10,56,0.6,0.6
2024-09-03T2000,2482A,109.5981,27.5721,怀化市,林科所,,40,40,24,20,13,50,,88,77,15,12,6,8,0.3,0.3
2024-09-03T2000,2483A,109.9453,27.5444,怀化市,河西地税局,,39,39,34,27,21,39,,100,88,23,11,2,4,0.7,0.6
2024-09-03T2000,2484A,109.9781,27.5342,怀化市,市四医院,,31,31,44,18,25,73,,98,90,13,12,6,20,0.5,0.7
2024-09-03T2000,2485A,109.9972,27.5578,怀化市,监测楼,,,19,36,17,23,84,,98,95,,11,2,17,,0.7
2024-09-03T2000,2486A,110.0394,27.583,怀化市,市委党校,,30,,60,14,30,94,,94,93,3,10,5,47,0.6,0.7
2024-09-03T2000,1210A,119.036,33.5981,淮安市,钵池山,,35,19,27,19,16,110,,127,125,16,22,7,8,0.6,0.7
2024-09-03T2000,1211A,119.007,33.575,淮安市,北京南路,,48,48,32,12,9,103,,128,126,12,13,5,7,0.4,0.5
2024-09-03T2000,1212A,118.989,33.6067,淮安市,市监测站,,37,22,26,9,12,118,,136,134,14,18,7,8,0.6,0.6
2024-09-03T2000,1213A,119.135,33.5039,淮安市,楚州区监测站,,34,34,35,11,11,97,,119,116,19,18,6,6,0.6,0.6
2024-09-03T2000,1214A,119.0186,33.6297,淮安市,淮阴区监测站,,,39,32,15,15,94,,130,126,,22,4,5,,0.6
2024-09-03T2000,3426A,118.8755,33.2894,淮安市,新华书店,,34,34,34,16,12,102,,135,130,17,19,6,8,0.7,0.8
2024-09-03T2000,2282A,116.8004,33.975,淮北市,监测站,,42,42,28,10,9,128,,150,150,12,12,7,7,0.6,0.5
2024-09-03T2000,2283A,116.8091,33.9007,淮北市,烈山区政府,,40,34,28,12,10,128,,156,155,12,7,7,7,0.4,0.4
2024-09-03T2000,3330A,116.8873,33.9836,淮北市,杜集区检察院,,,,35,,9,138,,159,159,10,13,4,4,0.4,0.4
2024-09-03T2000,4017A,116.7923,33.9535,淮北市,市博物馆,,44,31,27,12,9,138,,158,158,12,11,6,6,0.6,0.6
2024-09-03T2000,2277A,116.8305,32.7727,淮南市,潘集区政府,,,33,36,18,18,111,,145,144,,12,7,7,0.3,0.6
2024-09-03T2000,2278A,117.0067,32.6524,淮南市,师范学院,,46,46,39,9,14,123,,144,143,12,10,8,7,0.5,0.6
2024-09-03T2000,2279A,116.8569,32.5951,淮南市,谢家集区政府,,41,41,31,16,14,128,,156,155,18,12,8,10,0.5,0.5
2024-09-03T2000,2280A,116.8281,32.633,淮南市,八公山区政府,颗粒物(PM10),51,52,40,16,16,123,,153,152,20,12,9,8,0.4,0.4
2024-09-03T2000,2281A,116.6325,32.6201,淮南市,焦岗湖风景区管理处,,34,31,30,12,10,108,,131,131,15,13,13,12,0,0.1
2024-09-03T2000,2894A,117.0566,32.6531,淮南市,经济技术开发区消防队,,37,33,30,3,7,116,,139,138,17,12,6,6,0.4,0.4
2024-09-03T2000,3329A,117.0108,32.5893,淮南市,山南新区,颗粒物(PM10),55,60,45,13,11,117,,139,138,19,13,6,6,0.6,0.5
2024-09-03T2000,2446A,114.9028,30.4742,黄冈市,职工中心,,40,35,32,20,19,128,,130,130,6,5,8,7,0.8,0.8
2024-09-03T2000,2929A,114.8858,30.4519,黄冈市,红卫路,,43,38,30,30,23,128,,132,132,10,8,8,7,0.6,0.6
2024-09-03T2000,3398A,114.9136,30.4445,黄冈市,市林业局,,42,39,40,20,21,132,,140,140,8,6,6,7,0.4,0.4
2024-09-03T2000,2672A,102.0199,35.5102,黄南藏族自治州,同仁县隆务镇,,29,21,25,20,13,70,,92,90,2,4,10,10,0.6,0.6
2024-09-03T2000,2295A,118.2903,29.6963,黄山市,延安路89号,颗粒物(PM10),52,53,62,22,22,112,,136,130,4,5,6,6,0.6,0.7
2024-09-03T2000,2296A,118.327,29.7178,黄山市,黄山东路89号,,,31,39,27,22,106,,127,124,4,5,4,4,,0.7
2024-09-03T2000,2297A,118.1371,30.2756,黄山市,黄山区政府5号楼,,50,50,36,31,23,92,,87,87,8,7,6,6,0.5,0.5
2024-09-03T2000,2423A,115.0601,30.2313,黄石市,沈家营,颗粒物(PM10),57,64,69,18,23,110,,157,151,21,16,9,9,0.7,0.7
2024-09-03T2000,2424A,115.0817,30.2006,黄石市,陈家湾,颗粒物(PM10),58,65,66,24,26,127,,160,157,1,12,10,12,0.6,0.7
2024-09-03T2000,2426A,114.8988,30.2019,黄石市,铁山,,43,43,48,18,26,126,,168,164,9,15,6,6,0.4,0.5
2024-09-03T2000,2427A,115.0307,30.2092,黄石市,团城山,,48,48,53,21,26,121,,167,164,8,15,3,11,0.6,0.7
2024-09-03T2000,3149A,115.0235,30.1578,黄石市,笔架山北路,颗粒物(PM10),55,59,60,12,20,117,,149,145,5,8,6,9,0.5,0.6
2024-09-03T2000,1392A,114.4183,23.0528,惠州市,河南岸金山湖子站,,,52,28,37,18,96,,134,131,,8,4,4,,0.7
2024-09-03T2000,1393A,114.4053,23.0822,惠州市,下埔横江三路子站,,42,42,28,27,16,116,,140,140,13,9,4,5,0.7,0.6
2024-09-03T2000,1394A,114.4103,23.1142,惠州市,江北云山西路子站,,38,37,26,17,15,120,,147,147,11,7,4,4,0.8,0.7
2024-09-03T2000,1395A,114.4645,22.7833,惠州市,惠阳区承修路船湖子站,,33,31,26,23,15,104,,122,121,19,16,5,5,0.6,0.5
2024-09-03T2000,1396A,114.5317,22.7422,惠州市,大亚湾管委会子站,,36,33,24,23,15,114,,150,148,25,15,7,7,0.6,0.5
2024-09-03T2000,3314A,114.4338,22.8134,惠州市,惠阳秋长,,43,27,24,23,16,136,,154,154,19,18,6,6,0.5,0.6
2024-09-03T2000,3452A,114.6517,22.775,惠州市,大亚湾霞涌,,43,,22,28,11,136,,169,169,10,11,4,4,0.8,0.7
2024-09-03T2000,2240A,130.9762,45.3001,鸡西市,环保局,,39,39,19,11,6,10,,56,45,45,9,5,5,0.6,0.2
2024-09-03T2000,2243A,130.9429,45.3039,鸡西市,第一中学,,26,26,17,8,6,56,,74,70,15,8,5,4,0.1,0.1
2024-09-03T2000,3707A,131.0207,45.3073,鸡西市,欧美日汽修厂,颗粒物(PM10),72,94,23,22,11,4,,75,58,43,17,6,6,0.4,0.1
2024-09-03T2000,3709A,130.9967,45.3106,鸡西市,市政设施管理处,颗粒物(PM10),56,61,24,25,8,7,,79,58,54,19,6,5,0.2,0.2
2024-09-03T2000,2367A,114.9754,27.0803,吉安市,红声器材厂,,31,31,58,17,38,61,,114,98,21,14,8,9,0.6,0.6
2024-09-03T2000,2368A,114.9658,27.0999,吉安市,市森林工业局,,34,34,55,20,39,68,,113,97,27,22,7,9,0.7,0.6
2024-09-03T2000,2369A,114.99,27.1312,吉安市,市环境监测站,,29,29,48,16,32,83,,124,108,18,13,10,13,0.7,0.7
2024-09-03T2000,2370A,115.0093,27.0968,吉安市,青原区法院,,33,33,51,17,36,67,,109,96,21,17,10,13,0.7,0.6
2024-09-03T2000,1772A,126.54,43.8622,吉林市,哈达湾,,20,20,20,7,8,56,,91,86,19,19,5,6,0.6,0.5
2024-09-03T2000,1773A,126.5844,43.8358,吉林市,东局子,,20,16,15,7,7,61,,77,72,9,13,4,5,0.5,0.5
2024-09-03T2000,1774A,126.5052,43.8245,吉林市,电力学院,颗粒物(PM10),67,84,24,32,11,12,,88,74,54,19,7,4,0.9,0.6
2024-09-03T2000,1775A,126.6133,43.8972,吉林市,江北,颗粒物(PM10),54,58,22,18,10,31,,84,70,28,14,8,7,0.8,0.7
2024-09-03T2000,1776A,126.555,43.8306,吉林市,江南公园,,21,21,16,13,8,47,,84,76,17,18,4,5,0.6,0.6
2024-09-03T2000,1778A,126.7061,43.7133,吉林市,丰满,,,,,,,,,,,,,,,,
2024-09-03T2000,2868A,126.4739,43.953,吉林市,九站,颗粒物(PM10),60,69,31,27,12,12,,90,74,76,27,8,7,0.7,0.6
2024-09-03T2000,1299A,116.9862,36.6114,济南市,科干所,颗粒物(PM10),52,53,27,20,8,151,,178,178,29,23,8,8,0.6,0.5
2024-09-03T2000,1300A,116.9376,36.665,济南市,农科所,颗粒物(PM10),52,54,37,24,10,148,,175,175,30,32,10,9,0.6,0.6
2024-09-03T2000,1301A,117.1265,36.6734,济南市,开发区,臭氧1小时,64,54,31,24,12,171,,170,170,35,27,9,9,0.6,0.4
2024-09-03T2000,1303A,117.0624,36.6868,济南市,省种子仓库,颗粒物(PM10),54,58,41,17,9,154,,172,172,35,33,8,8,0.6,0.4
2024-09-03T2000,1304A,116.9489,36.6447,济南市,机床二厂,臭氧1小时,69,61,35,17,5,175,,191,191,30,33,12,11,0.7,0.6
2024-09-03T2000,1305A,117.0495,36.663,济南市,市监测站,颗粒物(PM10),52,54,32,17,7,152,,172,172,42,27,12,11,0.6,0.5
2024-09-03T2000,1306A,116.7675,36.5484,济南市,长清党校,臭氧1小时,73,44,28,15,8,178,,176,176,21,24,7,7,0.7,0.6
2024-09-03T2000,1616A,117.6795,36.229,济南市,技术学院,颗粒物(PM10),65,80,22,41,8,135,,150,150,28,18,17,12,1.4,0.8
2024-09-03T2000,1961A,117.532,36.6868,济南市,东山小学,臭氧1小时,72,56,38,22,11,177,,207,207,41,34,9,9,0.7,0.7
2024-09-03T2000,3059A,117.7161,36.2049,济南市,泰兴公司,颗粒物(PM10),59,68,22,36,8,130,,140,140,36,22,18,11,1.1,0.6
2024-09-03T2000,3064A,117.6867,36.2171,济南市,莱芜战役纪念馆,颗粒物(PM10),57,63,26,27,6,145,,147,147,25,21,14,9,1.3,0.5
2024-09-03T2000,3494A,117.1673,36.9782,济南市,济阳区政府,颗粒物(PM10),51,51,35,20,11,119,,181,180,43,18,16,15,0.7,0.7
2024-09-03T2000,3495A,117.1171,36.63,济南市,锦屏中学,,39,39,21,17,5,122,,164,164,32,22,5,7,0.7,0.4
2024-09-03T2000,3682A,116.9814,36.6819,济南市,济南四建,颗粒物(PM10),57,63,34,29,10,153,,175,175,39,32,12,10,0.7,0.5
2024-09-03T2000,1653A,116.6251,35.4302,济宁市,火炬城,,48,38,30,12,10,153,,170,170,16,16,11,11,0.7,0.6
2024-09-03T2000,1655A,116.5491,35.4042,济宁市,电化厂,颗粒物(PM10),51,51,34,14,14,141,,170,170,25,17,8,10,0.7,0.5
2024-09-03T2000,3500A,116.5814,35.3707,济宁市,北湖一中,,48,43,30,31,10,152,,171,171,22,20,6,6,0.5,0.4
2024-09-03T2000,3501A,116.8249,35.5593,济宁市,服务中心,,,32,27,9,7,114,,144,144,,14,6,7,0.3,0.3
2024-09-03T2000,3678A,116.5907,35.4054,济宁市,市第七中学,臭氧1小时,62,31,30,14,10,169,,172,172,17,16,9,9,0.6,0.5
2024-09-03T2000,2255A,130.2751,46.8028,佳木斯市,佳纺,,30,30,16,12,7,63,,80,77,10,9,6,6,0.4,0.5
2024-09-03T2000,2256A,130.3995,46.8307,佳木斯市,发电厂,,22,20,15,8,8,70,,78,75,11,8,8,6,0.6,0.6
2024-09-03T2000,2257A,130.3258,46.7975,佳木斯市,环保局,,22,17,19,7,8,68,,76,75,9,8,8,8,0.5,0.5
2024-09-03T2000,2258A,130.3648,46.8032,佳木斯市,十一中,颗粒物(PM10),55,59,25,9,9,71,,77,74,16,11,7,7,0.4,0.4
2024-09-03T2000,2259A,130.3794,46.7588,佳木斯市,四丰,,,11,10,3,5,55,,73,70,,,1,1,0.4,0.4
2024-09-03T2000,1252A,120.7436,30.778,嘉兴市,清河小学,,,28,34,13,19,67,,106,99,,19,3,4,0.9,0.9
2024-09-03T2000,1253A,120.726,30.7478,嘉兴市,嘉兴学院,,31,31,34,16,23,59,,99,94,23,18,2,2,0.6,0.6
2024-09-03T2000,2872A,120.7846,30.7525,嘉兴市,南湖区残联,,32,32,35,18,24,63,,107,99,20,15,4,4,0.6,0.7
2024-09-03T2000,3407A,120.6916,30.7739,嘉兴市,秀洲住建,,27,27,32,16,22,56,,92,89,22,15,4,4,0.7,0.7
2024-09-03T2000,1945A,98.2908,39.7711,嘉峪关市,气象局,,39,39,145,22,29,80,,74,72,23,25,41,14,0.6,0.7
2024-09-03T2000,2884A,98.2672,39.7978,嘉峪关市,酒钢宾馆,,,48,151,29,30,70,,88,84,,21,50,25,0.6,0.4
2024-09-03T2000,3248A,98.2643,39.7724,嘉峪关市,雄关区,,45,45,117,17,25,66,,80,75,33,22,21,12,0.7,0.4
2024-09-03T2000,1383A,113.1064,22.6058,江门市,北街,,46,37,29,27,16,146,,213,211,23,20,4,4,0.8,0.5
2024-09-03T2000,1384A,113.0731,22.5835,江门市,西区,颗粒物(PM10),51,52,32,31,18,156,,219,218,34,24,7,6,1.0,0.6
2024-09-03T2000,1385A,113.0219,22.5311,江门市,圭峰西,臭氧1小时,54,32,30,30,21,163,,176,176,14,13,2,3,0.5,0.6
2024-09-03T2000,1386A,113.0828,22.5947,江门市,东湖,细颗粒物(PM2.5),52,50,28,36,19,155,,202,202,25,17,6,5,0.8,0.5
2024-09-03T2000,3311A,113.1075,22.5647,江门市,江海富民,臭氧1小时,67,45,34,28,19,173,,222,222,30,22,6,7,0.9,0.7
2024-09-03T2000,3449A,113.05,22.4667,江门市,新会银湖,,44,33,31,29,23,139,,200,196,21,18,4,5,0.7,0.6
2024-09-03T2000,1828A,113.227,35.2125,焦作市,市环保局,,45,45,37,16,18,91,,121,119,18,14,4,7,0.4,0.4
2024-09-03T2000,1830A,113.1992,35.2590,焦作市,影视城,,,,,,,,,,,,,,,,
2024-09-03T2000,3169A,113.2725,35.2067,焦作市,太极体育中心,颗粒物(PM10),52,54,47,18,17,97,,124,122,22,14,2,6,0.6,0.6
2024-09-03T2000,3335A,113.3137,35.2641,焦作市,马村街道办,颗粒物(PM10),51,52,35,28,16,75,,120,116,26,14,1,4,0.8,0.4
2024-09-03T2000,3336A,113.2465,35.2373,焦作市,焦作技师学院,,49,49,36,22,20,81,,114,111,21,13,4,7,0.5,0.5
2024-09-03T2000,3477A,113.1656,35.2539,焦作市,中站许衡医院,,34,28,30,13,16,108,,113,112,26,13,4,5,0.4,0.4
2024-09-03T2000,3981A,113.2449,35.1803,焦作市,原李万街道办,颗粒物(PM10),51,51,44,17,17,95,,126,125,17,13,3,8,0.4,0.6
2024-09-03T2000,1708A,116.3701,23.5345,揭阳市,新兴,,38,28,55,26,36,100,,161,151,16,18,5,11,0.7,0.8
2024-09-03T2000,1709A,116.3264,23.5443,揭阳市,西马,,49,49,58,24,35,112,,164,156,8,14,5,8,0.8,0.9
2024-09-03T2000,1710A,116.3611,23.5626,揭阳市,东兴,,35,,57,24,30,107,,151,145,13,15,6,9,0.9,0.9
2024-09-03T2000,1711A,116.4151,23.5294,揭阳市,渔湖,,31,24,60,20,29,97,,150,140,19,22,5,10,0.6,0.8
2024-09-03T2000,3320A,116.403,23.5699,揭阳市,曲溪,细颗粒物(PM2.5),52,50,52,36,33,101,,155,147,12,19,17,9,0.5,0.7
2024-09-03T2000,1944A,102.1692,38.5167,金昌市,天庆家园,颗粒物(PM10),123,196,73,47,29,102,,108,108,2,12,8,8,0.3,0.6
2024-09-03T2000,3170A,102.1864,38.5253,金昌市,市委党校,颗粒物(PM10),119,187,72,44,27,108,,112,112,4,13,10,11,0.5,0.8
2024-09-03T2000,4022A,102.1647,38.5371,金昌市,金川区人防中心,颗粒物(PM10),131,212,84,46,30,95,,100,100,2,12,10,10,0.6,0.8
2024-09-03T2000,1262A,119.647,29.077,金华市,十五中,颗粒物(PM10),53,55,56,28,33,152,,188,182,12,16,2,2,0.7,0.7
2024-09-03T2000,1263A,119.686,29.1029,金华市,监测站,颗粒物(PM10),56,62,62,39,39,154,,185,181,14,18,3,3,0.8,0.8
2024-09-03T2000,3659A,119.656,29.1131,金华市,气象局,颗粒物(PM10),52,54,55,31,31,145,,178,175,16,19,4,4,0.7,0.8
2024-09-03T2000,1767A,121.1115,41.0879,锦州市,南山,,33,29,27,23,15,104,,120,120,34,27,70,13,0.5,0.6
2024-09-03T2000,1768A,121.0533,40.8434,锦州市,开发区,颗粒物(PM10),54,58,49,16,21,96,,124,122,44,31,93,25,0.7,0.7
2024-09-03T2000,1769A,121.1836,41.1119,锦州市,百股街道,,29,28,27,17,8,91,,108,108,24,18,27,15,0.8,0.7
2024-09-03T2000,1770A,121.1178,41.1222,锦州市,天安街道,,36,36,33,22,15,114,,122,122,20,31,51,13,0.7,1.3
2024-09-03T2000,1771A,121.1303,41.1386,锦州市,北湖公园,,36,33,26,22,13,115,,126,126,23,18,53,11,0.6,0.5
2024-09-03T2000,2160A,112.85,35.5051,晋城市,自来水公司,,45,45,39,14,16,133,,134,134,21,16,8,8,0.6,0.7
2024-09-03T2000,2161A,112.8318,35.4936,晋城市,白云商贸,,41,35,38,17,17,131,,132,132,19,16,9,9,0.9,0.8
2024-09-03T2000,2162A,112.8508,35.4887,晋城市,市环保局,颗粒物(PM10),51,52,50,17,19,122,,128,128,18,15,9,9,0.7,0.7
2024-09-03T2000,2163A,112.8676,35.4897,晋城市,技术学院,,46,46,43,19,20,131,,128,128,20,17,10,9,0.8,0.9
2024-09-03T2000,2165A,112.8453,35.546,晋城市,白马寺,,,,,,,,,,,,,,,,
2024-09-03T2000,3620A,112.8271,35.4828,晋城市,泽州一中,,39,36,35,19,18,123,,117,117,19,15,10,10,0.9,0.9
2024-09-03T2000,2171A,112.7532,37.6945,晋中市,锦纶小区,颗粒物(PM10),56,61,32,34,17,91,,114,112,14,17,8,9,0.8,0.5
2024-09-03T2000,2173A,112.7249,37.7067,晋中市,南都小区,颗粒物(PM10),52,54,33,34,23,88,,114,112,19,20,5,5,0.9,0.6
2024-09-03T2000,2174A,112.6991,37.6982,晋中市,榆次区政府,细颗粒物(PM2.5),59,58,34,42,23,86,,109,108,19,21,8,8,0.7,0.5
2024-09-03T2000,2865A,112.7195,37.6828,晋中市,榆次三中,颗粒物(PM10),57,63,35,34,16,85,,112,109,18,16,7,7,0.8,0.6
2024-09-03T2000,2439A,112.2014,31.0481,荆门市,竹园小学,颗粒物(PM10),54,58,56,37,28,130,,146,146,18,12,10,10,0.8,0.8
2024-09-03T2000,2440A,112.1969,30.9891,荆门市,掇刀,细颗粒物(PM2.5),62,68,53,44,31,126,,153,153,19,12,18,13,0.8,0.7
2024-09-03T2000,2441A,112.2213,31.0386,荆门市,石化一小,颗粒物(PM10),54,58,54,30,23,134,,153,153,14,10,16,13,0.8,0.7
2024-09-03T2000,3012A,112.1849,31.0362,荆门市,西山林语,颗粒物(PM10),53,55,52,36,32,138,,151,151,13,11,8,8,0.7,0.6
2024-09-03T2000,3547A,112.1632,31.0138,荆门市,龙泉中学南校,颗粒物(PM10),52,54,47,31,25,136,,155,155,6,8,11,10,0.6,0.6
2024-09-03T2000,1844A,112.2494,30.3197,荆州市,市图书馆,颗粒物(PM10),51,52,44,33,27,131,,135,135,16,12,6,8,1.0,0.9
2024-09-03T2000,1845A,112.2008,30.3544,荆州市,市委党校,颗粒物(PM10),51,51,46,33,29,133,,137,137,14,10,8,10,1.0,0.9
2024-09-03T2000,3194A,112.2747,30.3122,荆州市,管委会,,48,48,40,26,29,134,,139,139,13,10,6,7,0.8,0.7
2024-09-03T2000,3548A,112.1655,30.3364,荆州市,学苑路,,49,49,44,33,33,136,,144,144,15,12,6,9,1.0,0.9
2024-09-03T2000,2342A,117.3102,29.3867,景德镇市,王港中学,,,,,,,,,,,,,,,,
2024-09-03T2000,2343A,117.2117,29.2933,景德镇市,老干部活动中心,,46,46,39,28,26,62,,110,102,18,11,6,7,0.5,0.5
2024-09-03T2000,2344A,117.1894,29.2789,景德镇市,兽医站,颗粒物(PM10),51,52,42,31,24,72,,109,101,10,8,7,8,0.6,0.6
2024-09-03T2000,2345A,117.1547,29.2617,景德镇市,台达陶瓷,,39,34,36,27,26,81,,100,96,6,7,6,6,0.4,0.5
2024-09-03T2000,2346A,117.2461,29.2956,景德镇市,陶研所,,48,46,38,33,21,51,,108,96,17,13,4,4,0.4,0.4
2024-09-03T2000,1803A,115.9872,29.6815,九江市,十里,,47,47,37,26,23,125,,131,131,13,11,8,8,0.9,0.8
2024-09-03T2000,1804A,115.9584,29.7046,九江市,茅山头,,50,40,38,35,22,117,,128,128,12,10,10,9,0.8,0.8
2024-09-03T2000,1805A,115.9877,29.7295,九江市,西园,,42,42,32,23,19,126,,140,140,12,10,7,6,0.6,0.7
2024-09-03T2000,1806A,116.0172,29.6547,九江市,五七二七厂,细颗粒物(PM2.5),54,40,28,38,24,125,,127,127,12,11,10,8,0.8,0.7
2024-09-03T2000,1808A,115.9114,29.6038,九江市,综合工业园,,48,,36,33,27,148,,150,150,5,6,6,5,1.1,1.1
2024-09-03T2000,1809A,116.0721,29.7535,九江市,石化总厂,颗粒物(PM10),52,53,44,34,23,116,,129,129,15,12,10,9,0.9,0.9
2024-09-03T2000,1810A,115.9773,29.5698,九江市,庐山气象台,,40,22,36,19,24,127,,126,125,2,3,18,9,0.9,0.9
2024-09-03T2000,3190A,116.0254,29.6994,九江市,外国语学校,,46,44,39,32,20,126,,137,137,13,11,10,7,0.7,0.7
2024-09-03T2000,2658A,98.5061,39.7443,酒泉市,仓门街子站,,29,17,197,7,22,92,,92,91,6,13,8,12,0.2,0.4
2024-09-03T2000,2659A,98.4989,39.7256,酒泉市,油田生活基地,,30,14,193,7,19,95,,95,94,8,15,8,13,0.2,0.4
2024-09-03T2000,2698A,76.0072,39.4467,喀什地区,巡警大队,颗粒物(PM10),156,262,149,48,19,106,,109,109,7,15,3,4,0.3,0.4
2024-09-03T2000,2699A,75.9755,39.4694,喀什地区,吾办,颗粒物(PM10),158,265,108,64,24,115,,119,119,11,11,3,3,0.4,0.4
2024-09-03T2000,4027A,75.9483,39.4689,喀什地区,老干局,颗粒物(PM10),159,267,101,43,11,107,,114,113,,10,3,3,,0.3
2024-09-03T2000,1824A,114.3389,34.7781,开封市,肿瘤医院,,,78,40,20,12,133,,165,165,17,12,6,6,,0.4
2024-09-03T2000,1826A,114.2885,34.7965,开封市,世纪星幼儿园,,,59,37,,20,137,,162,162,,12,2,3,0.7,0.6
2024-09-03T2000,3147A,114.3438,34.8106,开封市,龙亭公园,颗粒物(PM10),51,52,43,23,12,137,,164,164,13,12,5,6,0.7,0.6
2024-09-03T2000,3210A,114.3644,34.7964,开封市,汴京公园,细颗粒物(PM2.5),59,65,35,42,16,140,,166,166,15,12,6,7,0.6,0.5
2024-09-03T2000,3473A,114.2485,34.8306,开封市,技师学院,,,,,,,,,,,,,,,,
2024-09-03T2000,3592A,114.4644,34.7556,开封市,祥符区生态环境局,颗粒物(PM10),51,52,39,19,15,107,,154,151,36,17,5,8,0.5,0.5
2024-09-03T2000,1951A,84.895,45.6094,克拉玛依市,长征新村,,24,14,9,3,4,74,,71,71,6,5,6,5,0.2,0.2
2024-09-03T2000,1952A,84.8988,45.5893,克拉玛依市,南林小区,,23,12,9,3,9,71,,71,71,8,6,10,9,0.3,0.3
2024-09-03T2000,1954A,84.905,44.3396,克拉玛依市,独山子区,,35,11,9,3,5,111,,93,93,8,5,8,7,0.3,0.3
2024-09-03T2000,1955A,85.6979,46.098,克拉玛依市,乌尔禾区商贸楼,,24,18,15,3,6,76,,78,78,7,6,10,8,0.3,0.3
2024-09-03T2000,3612A,85.1045,45.6899,克拉玛依市,白碱滩区新站,,26,21,16,3,6,81,,79,79,5,7,8,8,0.1,0.2
2024-09-03T2000,2697A,76.1454,39.7142,克孜勒苏柯尔克孜自治州,市人民政府,颗粒物(PM10),131,211,99,64,27,122,,124,124,2,6,2,5,0.4,0.4
2024-09-03T2000,3665A,76.1658,39.7157,克孜勒苏柯尔克孜自治州,克州文化中心,颗粒物(PM10),138,226,110,60,27,121,,130,123,2,2,4,5,0.4,0.4
2024-09-03T2000,1450A,102.8204,24.8886,昆明市,呈贡新区,,36,36,22,19,12,48,,60,60,18,17,4,5,0.6,0.7
2024-09-03T2000,1451A,102.6251,24.9608,昆明市,西山森林公园,,,,,,,,,,,,,,,,
2024-09-03T2000,1452A,102.7252,25.0902,昆明市,龙泉镇,,24,24,19,16,9,41,,53,53,18,15,6,6,0.9,0.8
2024-09-03T2000,1453A,102.7266,25.0375,昆明市,东风东路,,27,27,20,15,12,32,,51,50,26,29,6,5,0.6,0.6
2024-09-03T2000,1454A,102.6742,25.0669,昆明市,金鼎山,,36,36,32,11,9,30,,52,50,32,21,3,2,0.6,0.5
2024-09-03T2000,1455A,102.6644,25.0401,昆明市,碧鸡广场,,32,32,21,8,10,18,,47,45,41,26,6,4,0.6,0.6
2024-09-03T2000,3179A,102.7494,25.0119,昆明市,官渡区博物馆,,23,23,25,9,11,34,,56,56,17,26,7,7,0.3,0.4
2024-09-03T2000,3375A,102.8017,24.8336,昆明市,青年创业园,,,,28,22,13,38,,61,61,24,18,14,4,0.7,0.6
2024-09-03T2000,3550A,102.7997,24.9786,昆明市,昆明学院,,19,19,26,10,16,47,,59,59,16,25,5,6,0.4,0.5
2024-09-03T2000,3551A,102.5967,24.6736,昆明市,晋宁区生态环境分局,,27,27,24,12,11,32,,51,47,15,15,3,3,0.5,0.5
2024-09-03T2000,3552A,102.6678,24.9856,昆明市,云天化总部,,22,22,19,13,12,41,,52,52,14,21,8,6,0.6,0.6
2024-09-03T2000,1456A,91.1319,29.6514,拉萨市,八廓街,,30,9,10,3,7,95,,99,99,12,14,7,7,0.2,0.2
2024-09-03T2000,1457A,91.1221,29.6747,拉萨市,市环保局,,28,10,10,7,6,88,,100,100,17,12,8,7,0.3,0.3
2024-09-03T2000,1458A,91.0874,29.6475,拉萨市,区监测站,,29,6,8,3,5,90,,94,94,13,11,8,8,0.2,0.2
2024-09-03T2000,1459A,91.1774,29.6541,拉萨市,西藏大学,,30,11,10,3,6,96,,98,98,9,10,6,7,0.3,0.3
2024-09-03T2000,1460A,90.9798,29.6588,拉萨市,区辐射站,,25,18,12,3,6,79,,89,89,24,14,8,8,0.2,0.2
2024-09-03T2000,1461A,91.0834,29.6292,拉萨市,拉萨火车站,,29,6,8,3,5,90,,90,90,10,9,6,5,0.2,0.1
2024-09-03T2000,2520A,109.2203,23.7256,来宾市,来宾技工学校,,35,23,30,22,14,109,,142,141,12,12,7,9,0.7,0.7
2024-09-03T2000,3535A,109.1781,23.7297,来宾市,兴宾区政府,,38,26,24,10,11,120,,155,155,12,7,8,7,0.8,0.7
2024-09-03T2000,4002A,109.2416,23.7461,来宾市,中南小学,,33,24,30,17,14,104,,139,136,15,14,7,8,0.7,0.7
2024-09-03T2000,1476A,103.631,36.1031,兰州市,兰炼宾馆,颗粒物(PM10),55,60,35,29,23,117,,138,138,10,12,6,8,0.5,0.5
2024-09-03T2000,1477A,104.1373,35.9454,兰州市,榆中兰大校区,,,,,,,,,,,,,,,,
2024-09-03T2000,1478A,103.8412,36.0726,兰州市,生物制品所,,48,40,31,33,26,110,,141,141,8,21,8,9,0.5,0.6
2024-09-03T2000,1479A,103.831,36.0464,兰州市,铁路设计院,,49,47,36,34,27,96,,136,136,27,31,6,8,0.5,0.6
2024-09-03T2000,3186A,103.7158,36.1058,兰州市,教育港,颗粒物(PM10),60,70,49,38,34,110,,146,143,8,16,6,9,0.5,0.5
2024-09-03T2000,3241A,103.7439,36.0842,兰州市,百合公园,,47,47,40,20,22,114,,154,151,11,21,8,10,0.5,0.6
2024-09-03T2000,3242A,103.9611,35.998,兰州市,和平,,46,46,35,24,21,108,,135,135,11,12,9,9,0.6,0.6
2024-09-03T2000,3245A,103.6633,36.533,兰州新区,新区管委会,,35,35,35,22,18,96,,125,123,6,8,6,9,0.5,0.6
2024-09-03T2000,3246A,103.6975,36.4789,兰州新区,舟曲中学,,34,34,34,16,20,100,,124,123,8,10,8,10,0.4,0.6
2024-09-03T2000,1067A,116.6708,39.5111,廊坊市,药材公司,,,46,46,19,19,114,,,,,,,,0.0,0
2024-09-03T2000,1068A,116.7214,39.5589,廊坊市,开发区,,47,47,34,27,15,111,,140,139,21,23,5,3,0.5,0.4
2024-09-03T2000,1070A,116.7244,39.5269,廊坊市,北华航天学院,颗粒物(PM10),60,70,47,26,17,110,,139,139,23,21,7,3,0.5,0.4
2024-09-03T2000,2919A,116.7022,39.5453,廊坊市,河北工业大学,颗粒物(PM10),51,51,41,23,18,128,,145,145,16,20,4,4,0.4,0.4
2024-09-03T2000,2535A,103.7723,29.5462,乐山市,花湖湾,臭氧1小时,60,28,25,19,18,168,,152,152,6,9,4,5,0.4,0.4
2024-09-03T2000,2536A,103.7627,29.5844,乐山市,牛耳桥,,48,32,28,28,24,151,,152,152,13,14,3,3,0.7,0.7
2024-09-03T2000,2537A,103.7508,29.6006,乐山市,市第三水厂,臭氧1小时,52,27,27,20,19,161,,158,158,9,10,2,3,0.4,0.4
2024-09-03T2000,2538A,103.7571,29.5664,乐山市,市监测站,臭氧1小时,52,26,24,23,20,161,,153,153,7,7,3,4,0.7,0.6
2024-09-03T2000,3361A,103.7311,29.5628,乐山市,理工大学,,47,32,27,25,20,148,,166,166,9,10,5,6,0.6,0.5
2024-09-03T2000,2598A,100.2143,26.8576,丽江市,西南郊,,,,,,,,,,,,,,,,
2024-09-03T2000,2599A,100.2497,26.8802,丽江市,丽江古城,,26,24,19,18,14,64,,72,72,11,9,10,10,0.9,0.8
2024-09-03T2000,2600A,100.2203,26.8906,丽江市,市中心,,26,,15,18,12,61,,70,70,13,11,11,15,0.7,0.6
2024-09-03T2000,1267A,119.914,28.4514,丽水市,监测站大楼,,32,14,31,13,16,101,,129,124,8,15,1,1,0.6,0.6
2024-09-03T2000,1268A,119.93,28.4586,丽水市,莲都小学,,,25,35,14,17,94,,129,122,10,17,4,4,,0.6
2024-09-03T2000,1269A,119.879,28.4231,丽水市,余庄前,,19,,38,13,20,46,,118,102,17,14,4,4,0.6,0.6
2024-09-03T2000,1173A,119.176,34.5885,连云港市,市环境监测站,,,,29,,9,125,,166,164,17,19,7,9,0.4,0.6
2024-09-03T2000,3000A,119.3581,34.6972,连云港市,德源药业,,49,,28,34,9,101,,151,146,29,16,6,7,0.3,0.4
2024-09-03T2000,3007A,119.178,34.844,连云港市,新城一中,,45,23,23,8,12,141,,166,165,28,20,4,8,0.6,0.9
2024-09-03T2000,3008A,119.3608,34.7519,连云港市,胡沟管理处,,46,46,22,7,5,96,,147,142,57,12,8,8,0.5,0.5
2024-09-03T2000,3009A,119.1478,34.5911,连云港市,矿山设计院,,40,27,28,12,10,128,,168,167,16,18,9,12,0.6,0.8
2024-09-03T2000,3434A,119.2413,34.6539,连云港市,工贸学校,,44,28,26,12,9,138,,174,173,16,17,8,9,0.8,0.9
2024-09-03T2000,3664A,119.4172,34.7341,连云港市,连云街道,,44,25,25,11,8,138,,155,152,11,15,5,7,0.5,0.5
2024-09-03T2000,2571A,102.3431,27.8099,凉山彝族自治州,青龙寺,,28,28,14,11,7,46,,84,81,10,8,5,5,0.5,0.5
2024-09-03T2000,2572A,102.2721,27.8415,凉山彝族自治州,邛海宾馆,,22,18,16,15,16,58,,76,74,11,10,13,12,0.5,0.6
2024-09-03T2000,2573A,102.2625,27.898,凉山彝族自治州,西昌市政府,,19,15,17,12,13,59,,68,68,9,10,14,9,0.8,0.9
2024-09-03T2000,2574A,102.2685,27.8851,凉山彝族自治州,凉山州政府,,29,24,16,20,11,65,,74,74,8,10,12,12,0.7,0.9
2024-09-03T2000,2575A,102.237,27.8914,凉山彝族自治州,长安,,21,21,16,12,11,61,,68,68,9,12,15,11,1.2,1.2
2024-09-03T2000,2212A,123.2,41.1953,辽阳市,宏伟区,颗粒物(PM10),51,51,32,22,11,110,,119,119,34,19,14,12,1.0,0.7
2024-09-03T2000,2213A,123.1683,41.2495,辽阳市,新华园,,49,49,42,20,12,82,,108,108,29,29,20,17,1.1,1
2024-09-03T2000,2214A,123.2354,41.2639,辽阳市,滨河路,颗粒物(PM10),51,52,36,20,9,64,,116,111,40,23,10,13,1.0,0.8
2024-09-03T2000,2215A,123.149,41.2991,辽阳市,铁西工业园,,50,50,46,14,15,60,,107,105,33,28,10,18,0.9,1.1
2024-09-03T2000,2227A,125.1358,42.8845,辽源市,环保局,,39,39,25,17,9,10,,97,82,54,16,5,6,0.8,0.6
2024-09-03T2000,3239A,125.0764,42.9078,辽源市,银鹰制药,,50,50,21,16,9,9,,94,76,54,20,2,3,0.8,0.7
2024-09-03T2000,1625A,115.9848,36.4372,聊城市,区政府,,42,40,31,16,10,132,,149,149,23,22,12,14,0.5,0.5
2024-09-03T2000,2878A,116.0072,36.4343,聊城市,聊大东校,,,39,31,,20,130,,154,154,25,19,8,12,0.5,0.4
2024-09-03T2000,3200A,115.9819,36.4978,聊城市,监控中心,,47,47,34,19,12,123,,157,157,38,27,11,10,0.3,0.3
2024-09-03T2000,3513A,116.0445,36.4361,聊城市,九州社区,,49,49,40,20,14,123,,151,151,24,20,10,11,0.5,0.5
2024-09-03T2000,4018A,116.0567,36.4608,聊城市,星美广场,颗粒物(PM10),58,66,36,28,13,98,,155,152,40,19,10,10,0.4,0.3
2024-09-03T2000,2632A,94.3681,29.6376,林芝市,林芝监测站,,25,12,6,8,4,80,,84,84,2,2,9,9,0.4,0.4
2024-09-03T2000,2633A,94.3616,29.6616,林芝市,林芝人民医院,,25,14,9,7,4,80,,85,85,5,4,7,7,0.2,0.2
2024-09-03T2000,2603A,100.0781,23.8982,临沧市,市环保局,,35,,22,24,14,28,,39,38,14,11,5,6,0.4,0.4
2024-09-03T2000,2604A,100.0894,23.8822,临沧市,市气象局,,16,12,19,11,15,36,,42,42,11,10,4,5,0.3,0.4
2024-09-03T2000,1733A,111.5531,36.0783,临汾市,临钢医院,颗粒物(PM10),54,58,60,20,25,89,,99,99,10,23,3,5,0.6,0.7
2024-09-03T2000,1734A,111.5028,36.0714,临汾市,技工学校,,48,48,51,22,25,85,,101,101,15,20,4,6,0.7,0.8
2024-09-03T2000,1736A,111.5018,36.0855,临汾市,市委,,,,48,,21,94,,110,110,12,17,,6,0.7,0.8
2024-09-03T2000,3018A,111.505,36.1014,临汾市,唐尧大酒店,颗粒物(PM10),65,79,67,23,23,84,,99,99,15,18,3,5,0.9,1
2024-09-03T2000,3668A,111.5036,36.0414,临汾市,城南,,44,44,51,26,24,94,,107,107,8,17,4,5,0.6,0.8
2024-09-03T2000,2667A,103.2069,35.5993,临夏回族自治州,环保局,,42,42,30,14,13,83,,84,84,8,8,8,8,0.5,0.4
2024-09-03T2000,2668A,103.2417,35.6057,临夏回族自治州,建设大厦,,41,41,23,27,15,87,,95,95,9,9,7,7,0.5,0.4
2024-09-03T2000,1618A,118.3429,35.0532,临沂市,沂河小区,,47,36,24,15,7,148,,163,163,10,6,4,7,0.4,0.3
2024-09-03T2000,1619A,118.295,35.0583,临沂市,鲁南制药厂,,50,29,19,7,7,157,,174,174,19,12,7,6,0.4,0.2
2024-09-03T2000,1620A,118.2794,34.9976,临沂市,新光毛纺厂,,43,41,16,11,6,136,,164,164,20,16,6,6,0.6,0.5
2024-09-03T2000,1621A,118.3956,35.0888,临沂市,河东保险公司,,43,34,19,19,11,137,,170,169,35,19,10,8,0.9,0.7
2024-09-03T2000,3370A,118.3564,35.0215,临沂市,十里堡居委,,,22,12,,6,146,,170,170,12,10,9,8,0.6,0.5
2024-09-03T2000,3496A,118.3604,35.1084,临沂市,南坊新区,,48,48,23,14,5,143,,166,166,26,14,10,9,0.6,0.4
2024-09-03T2000,3860A,118.3920,35.0300,临沂市,皇山花园小区,,42,41,22,29,11,123,,157,156,48,15,14,7,0.8,0.3
2024-09-03T2000,1870A,109.4856,24.3895,柳州市,柳东小学,,,,27,,16,93,,155,152,21,19,,10,,0.8
2024-09-03T2000,1871A,109.4157,24.3277,柳州市,环保监测站,,31,16,42,11,17,98,,140,137,11,17,7,11,0.7,1
2024-09-03T2000,1872A,109.389,24.341,柳州市,河西水厂,,32,26,37,14,17,100,,139,136,11,17,6,11,0.9,1.1
2024-09-03T2000,1873A,109.4311,24.2921,柳州市,市四中,,,31,28,16,17,100,,138,136,12,16,6,6,,0.8
2024-09-03T2000,1874A,109.4006,24.3631,柳州市,市九中,,33,27,42,3,22,103,,148,147,13,20,6,10,0.4,0.7
2024-09-03T2000,1875A,109.4958,24.3134,柳州市,古亭山,,29,19,25,13,15,92,,140,138,13,21,6,7,1.1,1.1
2024-09-03T2000,3402A,109.5422,24.3996,柳州市,市二中,,29,18,31,10,14,91,,168,162,10,18,7,11,0.7,0.9
2024-09-03T2000,2307A,116.5079,31.737,六安市,监测大楼,,40,32,26,20,13,125,,127,127,6,6,4,5,0.6,0.5
2024-09-03T2000,2308A,116.4738,31.7643,六安市,皖西学院,,,37,36,16,13,120,,132,132,9,6,5,5,,0.2
2024-09-03T2000,2309A,116.4996,31.7905,六安市,朝阳厂,,35,10,22,8,12,109,,129,128,6,4,2,1,0.3,0.3
2024-09-03T2000,2310A,116.5567,31.7886,六安市,开发区,,33,30,28,13,13,104,,122,122,6,4,3,3,0.3,0.5
2024-09-03T2000,2576A,104.8,26.5892,六盘水市,窑上,,,,,,,,,,,,,,,,
2024-09-03T2000,2577A,104.83,26.5917,六盘水市,黄土坡,,23,18,10,16,8,62,,78,78,15,7,6,7,0.4,0.3
2024-09-03T2000,2578A,104.89,26.5939,六盘水市,水钢,,31,31,15,3,4,61,,79,79,14,8,8,8,0.5,0.4
2024-09-03T2000,2579A,104.8475,26.5894,六盘水市,民中,,28,28,10,12,4,53,,78,77,21,8,7,7,0.6,0.4
2024-09-03T2000,2580A,104.9544,26.5506,六盘水市,双水,,21,19,12,6,5,65,,77,77,8,6,6,6,0.3,0.3
2024-09-03T2000,2335A,117.0189,25.1181,龙岩市,龙岩师专,,,,,,,,,,,,,,,,
2024-09-03T2000,2336A,117.0217,25.1033,龙岩市,龙岩市监测站,,40,40,27,22,18,64,,112,107,35,17,7,5,0.9,0.5
2024-09-03T2000,2337A,117.0258,25.0661,龙岩市,闽西职业技术学院,,45,45,34,20,17,101,,114,113,18,16,7,7,0.7,0.6
2024-09-03T2000,2338A,117.0196,25.0306,龙岩市,龙岩学院,,39,27,29,20,14,123,,119,119,7,11,2,3,0.7,0.6
2024-09-03T2000,2665A,105.0822,33.3261,陇南市,汉王镇固水子,,,,,,,,,,,,,,,,
2024-09-03T2000,2885A,104.9339,33.3826,陇南市,滨江中学,颗粒物(PM10),59,68,46,20,19,100,,128,106,5,5,5,5,0.4,0.5
2024-09-03T2000,3247A,104.955,33.371,陇南市,市总工会,,39,39,37,12,14,102,,129,107,4,4,7,7,0.6,0.7
2024-09-03T2000,2487A,111.9589,27.8901,娄底市,电视发射台,颗粒物(PM10),72,94,54,41,27,86,,109,109,6,6,6,7,0.7,0.6
2024-09-03T2000,2488A,111.9975,27.725,娄底市,市监测站,细颗粒物(PM2.5),64,64,52,46,39,107,,127,127,8,15,4,8,0.8,0.7
2024-09-03T2000,2489A,112.0194,27.7314,娄底市,市委党校,细颗粒物(PM2.5),64,65,51,46,34,96,,113,113,5,9,8,8,0.6,0.5
2024-09-03T2000,2490A,111.9561,27.7569,娄底市,涟钢,,,,53,,31,,,49,,,16,,12,,1.2
2024-09-03T2000,2491A,111.9892,27.7044,娄底市,市政府,细颗粒物(PM2.5),64,52,44,46,38,102,,125,124,10,12,7,6,0.8,0.7
2024-09-03T2000,1893A,105.4324,28.9634,泸州市,九狮山,颗粒物(PM10),72,94,30,20,13,73,,116,114,4,3,5,5,0.4,0.4
2024-09-03T2000,1894A,105.4427,28.9063,泸州市,小市上码头,,37,21,23,3,11,116,,121,121,20,18,5,6,0.3,0.4
2024-09-03T2000,1895A,105.4241,28.8573,泸州市,兰田宪桥,,34,14,22,11,15,106,,118,118,18,19,7,7,0.3,0.3
2024-09-03T2000,1896A,105.4379,28.8833,泸州市,市环监站,,33,14,21,6,14,105,,115,115,28,17,7,8,0.4,0.3
2024-09-03T2000,3490A,105.3617,28.7703,泸州市,纳溪区环保局,,27,20,22,14,20,85,,116,115,28,19,6,7,0.3,0.3
2024-09-03T2000,2183A,111.1406,37.5211,吕梁市,环保局,,49,49,39,27,24,80,,94,93,14,13,3,3,0.8,0.7
2024-09-03T2000,2185A,111.1297,37.5136,吕梁市,自来水公司,,40,40,35,27,20,86,,99,97,13,13,3,1,0.8,0.7
2024-09-03T2000,2867A,111.1283,37.51,吕梁市,马茂庄小学,,,,31,,21,,,50,,,22,,2,,0.7
2024-09-03T2000,1812A,112.3931,34.6516,洛阳市,市委党校,,49,49,37,25,19,135,,144,144,14,12,8,8,0.7,0.6
2024-09-03T2000,1814A,112.4657,34.6871,洛阳市,豫西宾馆,颗粒物(PM10),52,53,39,23,15,128,,139,139,13,10,9,8,0.5,0.4
2024-09-03T2000,1815A,112.494,34.6886,洛阳市,河南林校,,49,49,34,22,16,127,,142,142,16,14,9,9,0.7,0.5
2024-09-03T2000,1816A,112.3844,34.623,洛阳市,开发区管委会,,45,45,33,28,18,132,,144,144,14,11,6,4,0.5,0.3
2024-09-03T2000,1817A,112.4267,34.6258,洛阳市,市委新办公区,,49,49,32,34,23,127,,142,142,13,7,5,5,0.6,0.5
2024-09-03T2000,3340A,112.6005,34.6326,洛阳市,伊滨,,46,46,36,24,20,137,,147,147,15,14,9,8,0.3,0.3
2024-09-03T2000,3341A,112.4951,34.6332,洛阳市,中移产业园,,47,47,34,26,18,127,,146,146,17,8,6,5,0.5,0.4
2024-09-03T2000,3593A,112.5736,34.8993,洛阳市,吉利监测站,,49,49,37,21,16,104,,125,125,17,11,4,4,0.6,0.5
2024-09-03T2000,3635A,112.3677,34.662,洛阳市,河科大西苑校区,,46,46,35,20,14,136,,146,146,14,10,8,7,0.7,0.6
2024-09-03T2000,3636A,112.4388,34.6781,洛阳市,英才小学,,46,46,35,25,20,133,,144,144,8,7,7,5,0.6,0.5
2024-09-03T2000,2399A,114.051,33.5699,漯河市,三五一五工厂,,40,39,36,19,15,126,,144,143,12,9,6,9,0.6,0.6
2024-09-03T2000,2400A,114.0055,33.5698,漯河市,漯河大学,,43,33,36,14,13,137,,150,149,11,9,5,6,0.7,0.6
2024-09-03T2000,2401A,114.0138,33.5828,漯河市,市水利局,,41,34,34,12,12,131,,145,144,8,8,4,9,0.5,0.8
2024-09-03T2000,2402A,114.0261,33.5698,漯河市,市广电局,,42,37,32,9,9,132,,147,146,11,8,7,8,0.6,0.5
2024-09-03T2000,3478A,113.9749,33.5664,漯河市,市图书馆,,40,39,37,18,15,127,,152,149,12,6,8,10,0.6,0.6
2024-09-03T2000,3479A,114.0967,33.5906,漯河市,召陵区卫健委,,40,40,37,13,16,125,,151,149,12,9,6,7,0.5,0.4
2024-09-03T2000,1798A,118.5092,31.6837,马鞍山市,湖东路四小,,35,33,32,23,15,111,,121,121,19,12,6,5,0.8,0.7
2024-09-03T2000,1799A,118.5024,31.6449,马鞍山市,开发区,,43,43,32,18,12,104,,113,113,17,11,5,5,0.8,0.7
2024-09-03T2000,1800A,118.5228,31.7231,马鞍山市,慈湖,,36,36,29,17,15,112,,123,123,17,10,6,7,0.8,0.8
2024-09-03T2000,1802A,118.6245,31.7241,马鞍山市,濮塘,,32,26,27,14,15,101,,113,113,14,14,6,6,0.8,0.7
2024-09-03T2000,3633A,118.4918,31.6809,马鞍山市,雨山,,36,36,31,16,11,113,,119,119,15,8,7,7,1.0,0.9
2024-09-03T2000,1686A,111.0286,21.4688,茂名市,电白南海,,45,31,27,24,18,141,,168,167,8,10,9,12,0.8,0.7
2024-09-03T2000,1687A,110.9294,21.6533,茂名市,茂石化七小,颗粒物(PM10),51,51,32,34,20,121,,191,183,10,12,9,15,0.6,0.6
2024-09-03T2000,1688A,110.9107,21.6687,茂名市,健康路,,44,44,31,19,15,126,,199,183,13,13,12,23,0.7,0.7
2024-09-03T2000,1689A,110.8592,21.6828,茂名市,高岭,,42,36,32,29,17,125,,163,154,13,13,16,24,0.7,0.7
2024-09-03T2000,3450A,111.01,21.5165,茂名市,电白水东,,,,24,,14,133,,155,154,,11,,10,0.5,0.5
2024-09-03T2000,2539A,104.0308,30.0478,眉山市,黑龙滩水库,,,,,,,,,,,,,,,,
2024-09-03T2000,2540A,103.8416,30.0874,眉山市,气象局,,49,,30,34,16,148,,167,167,17,14,6,7,0.6,0.5
2024-09-03T2000,3137A,103.8578,30.0744,眉山市,市委党校,,49,39,25,22,12,156,,170,170,18,12,9,8,0.5,0.5
2024-09-03T2000,3148A,103.8291,30.0564,眉山市,区人社局,,47,32,22,24,9,150,,168,168,15,14,8,8,0.7,0.6
2024-09-03T2000,1690A,116.1231,24.3284,梅州市,梅江月梅,,36,28,31,6,17,114,,124,124,4,10,6,7,0.5,0.5
2024-09-03T2000,1691A,116.0797,24.2719,梅州市,梅县新城,,35,35,26,11,17,108,,127,127,8,8,4,4,0.6,0.6
2024-09-03T2000,1692A,116.1248,24.2654,梅州市,环境监控中心,颗粒物(PM10),51,51,29,8,17,105,,116,116,12,17,4,4,0.5,0.5
2024-09-03T2000,3315A,116.1233,24.2991,梅州市,梅龙,,37,34,25,9,17,118,,129,129,7,11,8,9,0.5,0.6
2024-09-03T2000,1878A,104.7778,31.4741,绵阳市,富乐山,,39,33,44,26,36,122,,130,130,13,10,4,3,0.6,0.6
2024-09-03T2000,1879A,104.7563,31.4535,绵阳市,市人大,,39,39,45,27,32,118,,132,132,35,15,8,8,0.5,0.6
2024-09-03T2000,1880A,104.6697,31.4668,绵阳市,高新区自来水公司,,,,40,,25,145,,144,144,19,16,3,2,0.5,0.8
2024-09-03T2000,1881A,104.7287,31.5075,绵阳市,三水厂,,36,36,48,25,34,79,,133,128,58,21,6,6,0.7,0.7
2024-09-03T2000,3491A,104.69,31.5322,绵阳市,西科大附属小学,,42,33,44,24,29,132,,144,144,20,19,4,5,0.6,0.7
2024-09-03T2000,3492A,104.5648,31.5343,绵阳市,安州区旅游局,,49,46,40,34,33,154,,172,172,15,11,7,7,0.7,0.7
2024-09-03T2000,1784A,129.61,44.561,牡丹江市,环保大楼,,33,,18,23,13,50,,74,70,8,11,6,7,0.3,0.3
2024-09-03T2000,1785A,129.6115,44.5782,牡丹江市,文化广场,,36,36,25,18,13,20,,71,62,41,15,8,8,0.5,0.3
2024-09-03T2000,1786A,129.5904,44.5963,牡丹江市,第一医院,,42,42,28,25,18,31,,74,68,26,14,6,6,0.3,0.2
2024-09-03T2000,1787A,129.6364,44.6075,牡丹江市,机车工厂,,45,45,30,21,17,34,,73,70,16,11,7,6,0.4,0.3
2024-09-03T2000,1788A,129.6386,44.5462,牡丹江市,第一中学,,31,31,21,15,11,34,,83,71,12,9,6,6,0.3,0.2
2024-09-03T2000,2531A,105.0703,29.61,内江市,市监测站,,36,35,26,17,27,115,,143,141,28,17,5,5,0.4,0.3
2024-09-03T2000,2532A,105.0717,29.5947,内江市,东兴区政府,,40,25,28,12,24,126,,139,139,20,16,4,4,0.6,0.6
2024-09-03T2000,2533A,105.0653,29.5817,内江市,内江二中,,39,28,30,17,29,122,,138,138,21,17,7,7,0.5,0.6
2024-09-03T2000,2534A,105.0406,29.5822,内江市,内江日报社,,40,,30,16,28,125,,140,139,15,19,7,7,0.5,0.5
2024-09-03T2000,2628A,92.0657,31.4846,那曲市,那曲监测站,,38,38,25,14,11,70,,84,83,6,7,7,7,0.7,0.7
2024-09-03T2000,3128A,92.0506,31.4797,那曲市,那曲会议中心,,30,30,28,13,11,80,,95,94,12,13,5,4,0.5,0.5
2024-09-03T2000,1290A,115.8931,28.6843,南昌市,省外办,,49,48,50,34,36,141,,149,149,12,12,11,10,0.8,0.8
2024-09-03T2000,1291A,115.8886,28.7003,南昌市,省林业公司,,48,46,50,29,31,151,,157,157,11,12,8,6,1.1,1
2024-09-03T2000,1292A,115.8126,28.7442,南昌市,林科所,,45,31,43,17,27,142,,157,157,18,14,8,7,0.9,0.9
2024-09-03T2000,1294A,115.8518,28.687,南昌市,建工学校,,46,40,50,14,23,147,,154,154,5,6,9,9,0.9,0.9
2024-09-03T2000,1295A,115.8921,28.6424,南昌市,象湖,,48,44,41,22,27,151,,159,159,8,8,3,3,1.2,1.2
2024-09-03T2000,1296A,115.7423,28.7996,南昌市,武术学校,,50,50,43,21,33,89,,131,125,7,6,1,2,0.7,0.6
2024-09-03T2000,1298A,115.9314,28.6842,南昌市,省站,,46,,46,32,33,142,,154,154,7,4,7,7,1.1,1.1
2024-09-03T2000,3046A,115.9084,28.6062,南昌市,机电学校,,,49,55,24,28,142,,147,147,11,10,8,7,,1.5
2024-09-03T2000,3690A,115.9721,28.7031,南昌市,外国语学校,,50,49,49,32,30,160,,155,155,12,10,7,8,1.0,1.1
2024-09-03T2000,1905A,106.056,30.8064,南充市,西山风景区,,49,16,30,15,29,154,,141,141,4,11,2,2,0.8,0.9
2024-09-03T2000,1906A,106.0789,30.8023,南充市,南充市委,,40,21,39,12,28,128,,145,144,16,16,7,7,0.0,0.2
2024-09-03T2000,1907A,106.1031,30.8217,南充市,南充炼油厂,,45,30,46,20,28,142,,155,155,14,14,7,7,0.4,0.5
2024-09-03T2000,1908A,106.1064,30.7856,南充市,高坪区监测站,,40,17,44,16,30,126,,144,143,23,18,7,6,0.4,0.5
2024-09-03T2000,1909A,106.0642,30.7636,南充市,嘉陵区环保局,,36,24,46,12,34,114,,139,137,33,20,6,5,0.4,0.5
2024-09-03T2000,1910A,106.1087,30.8388,南充市,市环境监测站,,38,20,41,14,27,121,,149,147,29,17,7,6,0.3,0.4
2024-09-03T2000,1151A,118.8086,32.1065,南京市,迈皋桥,,30,20,20,9,8,94,,128,125,23,13,4,4,0.3,0.2
2024-09-03T2000,1152A,118.7538,32.0551,南京市,草场门,,31,29,25,9,8,97,,133,132,25,14,6,6,0.5,0.2
2024-09-03T2000,1153A,118.7794,32.0745,南京市,山西路,,30,24,28,14,11,95,,137,134,12,5,5,4,0.3,0.4
2024-09-03T2000,1154A,118.7752,32.0023,南京市,中华门,,30,24,23,9,8,96,,122,122,11,14,5,4,0.5,0.5
2024-09-03T2000,1155A,118.8109,32.0309,南京市,瑞金路,,31,24,25,9,9,99,,140,138,19,10,4,4,0.4,0.5
2024-09-03T2000,1156A,118.7997,32.0754,南京市,玄武湖,,27,25,28,6,6,84,,130,127,33,8,6,6,0.6,0.7
2024-09-03T2000,1157A,118.6414,32.0931,南京市,浦口,,31,20,25,12,10,98,,122,121,11,8,4,6,0.3,0.6
2024-09-03T2000,1158A,118.7356,31.9996,南京市,奥体中心,,37,31,27,12,12,117,,147,147,20,12,5,4,0.4,0.4
2024-09-03T2000,1159A,118.9125,32.1028,南京市,仙林大学城,,30,22,26,14,15,94,,137,134,20,11,7,7,0.4,0.5
2024-09-03T2000,3422A,118.8436,31.9198,南京市,江宁彩虹桥,,39,39,32,12,10,120,,135,135,14,7,5,4,0.6,0.5
2024-09-03T2000,3423A,119.0138,31.6494,南京市,溧水永阳,,40,36,25,20,14,126,,119,119,13,9,4,4,0.3,0.2
2024-09-03T2000,3424A,118.879,31.3302,南京市,高淳老职中,,39,26,33,18,16,122,,118,118,12,8,5,5,0.4,0.3
2024-09-03T2000,3427A,118.8554,32.3578,南京市,六合雄州,,29,29,18,14,6,89,,112,110,17,8,3,3,0.4,0.4
2024-09-03T2000,1401A,108.3103,22.7881,南宁市,二十一中,,,,37,11,17,84,,169,161,21,24,4,5,,0.8
2024-09-03T2000,1402A,108.3141,22.8528,南宁市,北湖,,25,25,33,17,17,78,,167,156,20,24,4,9,0.8,0.8
2024-09-03T2000,1403A,108.3206,22.8225,南宁市,市监测站,,25,24,32,17,16,78,,165,155,27,28,5,9,0.7,0.7
2024-09-03T2000,1404A,108.3829,22.8037,南宁市,大自然花园,,29,27,24,15,14,91,,147,141,18,20,5,6,0.6,0.6
2024-09-03T2000,1405A,108.4394,22.7904,南宁市,仙葫,,26,26,27,15,15,67,,126,119,34,19,8,9,0.7,0.7
2024-09-03T2000,1406A,108.2397,22.8467,南宁市,区农职院,,34,34,38,23,24,85,,176,168,14,18,51,20,0.6,0.6
2024-09-03T2000,1407A,108.3275,22.735,南宁市,英华嘉园,,27,,33,12,18,84,,160,155,17,26,9,7,0.6,0.6
2024-09-03T2000,1408A,108.2257,22.7757,南宁市,沙井镇街道办,,28,22,40,13,21,87,,179,172,13,24,3,5,0.5,0.6
2024-09-03T2000,3401A,108.4834,22.7618,南宁市,红星社区,,35,33,26,21,15,109,,146,144,15,19,6,6,0.7,0.7
2024-09-03T2000,2331A,118.0966,26.6761,南平市,茫荡山,,,,,,,,,,,,,,,,
2024-09-03T2000,2332A,118.1681,26.6369,南平市,南平市监测站,,26,26,25,12,14,62,,103,95,10,10,4,5,0.7,0.7
2024-09-03T2000,2333A,118.1825,26.6489,南平市,南平铝业有限公司,,22,22,24,15,11,56,,101,92,10,9,7,7,0.7,0.7
2024-09-03T2000,2334A,118.1756,26.6272,南平市,南平七中,,21,21,26,12,12,44,,94,83,9,9,4,5,0.8,0.7
2024-09-03T2000,1168A,120.9098,31.9663,南通市,狼山街道,,,11,13,3,5,78,,87,87,8,4,6,6,,0.5
2024-09-03T2000,1169A,120.86,32.0005,南通市,虹桥,,23,14,16,3,5,72,,85,84,8,4,6,5,0.3,0.3
2024-09-03T2000,1170A,120.87,32.02,南通市,城中,,23,16,19,3,4,73,,86,85,15,9,6,6,0.8,0.8
2024-09-03T2000,1171A,120.94,31.93,南通市,星湖花园,,25,8,11,3,1,80,,84,84,12,9,4,4,0.8,0.8
2024-09-03T2000,1172A,120.81,32.0417,南通市,紫琅学院,,22,11,12,3,3,68,,83,82,14,7,7,8,0.6,0.7
2024-09-03T2000,3291A,121.067,32.062,南通市,通州监测站,,27,17,16,3,4,84,,89,89,6,5,2,3,0.6,0.7
2024-09-03T2000,3432A,120.9348,31.9883,南通市,环境教育馆,,23,19,20,3,4,71,,87,86,10,3,4,3,0.4,0.5
2024-09-03T2000,2404A,112.5224,33.0122,南阳市,瓦房庄,颗粒物(PM10),52,53,44,22,20,135,,145,145,12,11,6,7,0.7,0.6
2024-09-03T2000,2405A,112.5003,32.9735,南阳市,汉画馆,颗粒物(PM10),53,56,46,33,24,131,,136,136,14,12,6,7,0.7,0.6
2024-09-03T2000,2406A,112.5573,33.027,南阳市,气象站,,,59,42,,18,129,,144,144,17,11,6,7,0.7,0.6
2024-09-03T2000,2407A,112.5481,32.9689,南阳市,理工学院,,47,47,39,19,14,132,,141,141,13,11,5,6,0.6,0.5
2024-09-03T2000,4008A,112.5234,32.9922,南阳市,卧龙区政府,颗粒物(PM10),52,54,41,24,21,129,,140,140,18,13,5,7,0.7,0.7
2024-09-03T2000,1234A,121.8358,29.911,宁波市,区环保大楼,,27,27,24,17,13,79,,101,99,11,18,8,9,0.7,0.8
2024-09-03T2000,1235A,121.56,29.82,宁波市,万里学院,,29,29,28,16,18,75,,129,121,13,13,10,10,0.6,0.8
2024-09-03T2000,1236A,121.713,29.9572,宁波市,龙赛医院,,24,24,26,14,14,76,,134,119,12,15,6,8,0.7,0.7
2024-09-03T2000,1239A,121.633,29.7733,宁波市,钱湖水厂,,18,17,23,12,15,38,,112,92,12,9,7,8,0.4,0.4
2024-09-03T2000,1240A,121.5856,29.8635,宁波市,太古小学,,23,22,27,10,15,73,,134,123,12,14,6,6,0.8,0.9
2024-09-03T2000,1241A,121.524,29.8674,宁波市,市环境监测中心,,28,28,29,13,13,88,,135,130,13,14,5,5,0.7,0.7
2024-09-03T2000,2871A,121.6147,29.9017,宁波市,万里国际学校,,,22,25,16,16,76,,143,129,,14,6,6,,0.4
2024-09-03T2000,3710A,121.5594,29.8975,宁波市,白沙活动中心,,29,29,30,15,14,85,,144,129,15,13,7,8,0.4,0.5
2024-09-03T2000,2339A,119.5001,26.6946,宁德市,金涵水库,,,,,,,,,,,,,,,,
2024-09-03T2000,2341A,119.5388,26.6612,宁德市,宁德市监测站,,,,20,14,13,77,,92,88,,10,,5,0.5,0.5
2024-09-03T2000,3209A,119.5231,26.6562,宁德市,宁德一中,,24,23,30,10,14,76,,93,89,4,7,6,7,0.6,0.6
2024-09-03T2000,2618A,98.8601,25.8567,怒江傈僳族自治州,州监测站,,26,25,21,18,14,43,,58,58,10,8,7,6,0.5,0.4
2024-09-03T2000,2619A,98.8546,25.8417,怒江傈僳族自治州,泸水一中,,20,17,19,14,11,39,,49,49,14,12,5,5,0.5,0.4
2024-09-03T2000,1888A,101.6891,26.571,攀枝花市,弄弄坪,,26,26,44,9,16,26,,58,57,23,20,10,15,0.5,0.6
2024-09-03T2000,1889A,101.5769,26.5928,攀枝花市,河门口,,14,14,28,7,15,39,,70,69,18,20,16,19,1.2,1.4
2024-09-03T2000,1890A,101.7169,26.585,攀枝花市,炳草岗,,,,42,,21,26,,66,64,,25,12,18,0.6,0.8
2024-09-03T2000,1891A,101.7369,26.5008,攀枝花市,仁和,,31,31,24,16,13,26,,66,62,15,11,3,9,0.6,0.6
2024-09-03T2000,2835A,101.7227,26.567,攀枝花市,四十中小,,36,36,35,19,18,41,,71,69,17,22,12,30,0.5,0.7
2024-09-03T2000,1604A,122.0303,41.1489,盘锦市,开发区,,40,40,29,13,16,89,,129,126,32,24,8,10,0.5,0.4
2024-09-03T2000,1605A,122.0485,41.0883,盘锦市,兴隆台,,27,26,29,15,12,75,,132,125,54,32,9,13,0.5,0.5
2024-09-03T2000,1606A,121.8297,41.1028,盘锦市,新生街道,,17,,16,9,9,54,,116,109,25,28,6,7,0.5,0.4
2024-09-03T2000,1832A,113.3257,33.742,平顶山市,新华旅馆,,47,47,47,25,25,126,,162,161,12,11,7,6,0.7,0.6
2024-09-03T2000,1833A,113.2919,33.737,平顶山市,规划设计院,,40,39,32,23,14,126,,162,160,20,14,8,8,0.5,0.4
2024-09-03T2000,1834A,113.182,33.774,平顶山市,平顶山工学院,,44,42,34,14,12,140,,176,176,16,12,8,9,0.9,0.8
2024-09-03T2000,3204A,113.3025,33.73,平顶山市,规划局,,46,46,41,22,21,125,,159,158,15,12,4,5,0.7,0.6
2024-09-03T2000,3594A,112.8867,33.9116,平顶山市,石龙区,颗粒物(PM10),63,75,53,26,17,122,,152,152,20,16,10,12,0.6,0.6
2024-09-03T2000,2656A,106.6692,35.5461,平凉市,聚贤嘉苑,颗粒物(PM10),62,74,40,18,17,86,,101,82,20,14,8,8,0.7,0.7
2024-09-03T2000,2657A,106.7021,35.5307,平凉市,博物馆,,47,47,39,17,17,95,,105,93,26,17,8,7,0.7,0.6
2024-09-03T2000,2347A,114.0997,27.5002,萍乡市,武功山,,32,6,18,3,5,102,,111,109,4,4,9,9,0.3,0.4
2024-09-03T2000,2348A,113.8385,27.6434,萍乡市,中医院,,,47,49,,33,92,,123,117,9,11,5,18,1.0,0.8
2024-09-03T2000,2349A,113.8493,27.6253,萍乡市,市政府车库,颗粒物(PM10),69,87,63,36,38,95,,122,117,6,10,6,13,1.0,0.9
2024-09-03T2000,2350A,113.8676,27.6435,萍乡市,市环保局,颗粒物(PM10),58,66,50,26,34,89,,118,112,8,11,12,15,1.8,0.7
2024-09-03T2000,2351A,113.866,27.6198,萍乡市,安源区政府,,32,32,50,9,24,99,,122,117,7,12,11,15,0.8,0.7
2024-09-03T2000,2319A,119.0141,25.4325,莆田市,荔城区仓后路,,24,23,26,11,11,76,,91,88,8,8,7,7,0.6,0.7
2024-09-03T2000,2320A,119.0015,25.4553,莆田市,莆田市监测站,,26,,24,11,10,81,,100,97,12,8,7,6,0.6,0.6
2024-09-03T2000,2321A,119.1119,25.4561,莆田市,涵江区六中,,31,31,30,10,12,81,,101,95,7,9,7,7,0.4,0.5
2024-09-03T2000,2322A,119.1013,25.3215,莆田市,秀屿区政府,,,51,35,9,10,83,,99,93,,10,,7,0.6,0.7
2024-09-03T2000,2323A,118.981,25.4792,莆田市,东圳水库,,,,,,,,,,,,,,,,
2024-09-03T2000,2392A,115.0312,35.7636,濮阳市,环保局,,41,35,41,16,15,129,,148,147,20,15,9,8,0.5,0.4
2024-09-03T2000,2394A,115.0574,35.7609,濮阳市,油田运输公司,,40,40,32,19,16,128,,151,150,17,14,5,5,0.5,0.4
2024-09-03T2000,2395A,115.0866,35.7754,濮阳市,油田物探公司,,42,38,35,22,18,133,,159,158,15,13,9,10,0.5,0.4
2024-09-03T2000,3021A,115,35.7668,濮阳市,濮水河管理处,,35,35,30,16,18,110,,140,138,18,16,6,6,0.4,0.3
2024-09-03T2000,2601A,100.98,22.7633,普洱市,市环保局,,26,26,30,17,14,16,,36,31,14,7,3,3,0.8,0.6
2024-09-03T2000,2602A,100.9817,22.8322,普洱市,普洱第二中学,,33,33,30,14,12,7,,33,24,14,9,9,8,0.8,0.8
2024-09-03T2000,2262A,131.0518,45.8751,七台河市,新一中,,36,36,16,15,7,28,,92,75,23,11,10,11,0.9,0.9
2024-09-03T2000,3345A,131.0577,45.7879,七台河市,中波台,,27,27,11,3,5,45,,73,64,23,15,9,9,0.5,0.5
2024-09-03T2000,3637A,131.0176,45.7761,七台河市,人民广场,,35,35,19,15,10,40,,73,64,22,13,7,8,0.3,0.3
2024-09-03T2000,3684A,130.8781,45.8222,七台河市,新建矿广场,,48,48,52,25,17,29,,69,58,26,21,5,6,0.4,0.4
2024-09-03T2000,1779A,123.9305,47.3636,齐齐哈尔市,安居小区,,31,31,25,7,6,74,,79,79,17,12,11,12,0.4,0.4
2024-09-03T2000,1780A,123.9488,47.3386,齐齐哈尔市,中心广场,,28,28,19,6,6,74,,80,80,14,10,2,3,0.3,0.3
2024-09-03T2000,1781A,123.9483,47.3227,齐齐哈尔市,农牧车辆厂,,29,29,29,3,4,80,,82,82,5,9,8,9,0.1,0.2
2024-09-03T2000,1783A,123.945,47.2988,齐齐哈尔市,市环境监测站,,25,10,18,3,7,77,,84,84,7,8,8,9,0.3,0.3
2024-09-03T2000,3662A,123.6333,47.2075,齐齐哈尔市,富区青少年活动中心,,22,19,25,8,7,69,,81,80,8,11,5,11,0.3,1.2
2024-09-03T2000,2591A,107.9783,26.5747,黔东南苗族侗族自治州,市环境监测站,,20,15,12,14,9,53,,75,72,17,11,3,3,0.5,0.4
2024-09-03T2000,2881A,107.8908,26.5311,黔东南苗族侗族自治州,凯里学院,,22,22,14,10,10,47,,68,64,18,10,2,2,0.5,0.4
2024-09-03T2000,2593A,107.5228,26.2403,黔南布依族苗族自治州,小围寨,,19,6,4,3,1,60,,71,71,3,4,4,3,0.3,0.3
2024-09-03T2000,3538A,107.5175,26.2978,黔南布依族苗族自治州,沙坝,,19,6,5,3,2,59,,69,69,5,6,3,3,0.4,0.5
2024-09-03T2000,2589A,104.9022,25.0925,黔西南布依族苗族自治州,场坝街,,28,28,14,7,6,44,,50,50,8,10,2,12,0.2,0.1
2024-09-03T2000,2590A,104.8811,25.0992,黔西南布依族苗族自治州,坪东大道,,23,23,17,9,6,27,,49,48,14,7,6,7,0.4,0.2
2024-09-03T2000,2502A,108.6236,21.9667,钦州市,市环保站,,31,31,36,17,15,92,,114,114,16,16,8,9,0.7,0.8
2024-09-03T2000,2503A,108.6549,21.9481,钦州市,沙埠小学,,39,30,40,27,19,100,,127,127,16,19,5,5,0.7,0.7
2024-09-03T2000,2504A,108.5989,21.7431,钦州市,港区一小,颗粒物(PM10),52,53,43,20,17,96,,134,134,26,19,13,8,1.1,0.8
2024-09-03T2000,3404A,108.5959,21.9633,钦州市,北职校,,43,42,37,30,19,80,,106,106,20,14,10,5,0.9,0.8
2024-09-03T2000,1042A,119.5134,39.8207,秦皇岛市,北戴河环保局,,41,26,27,3,6,131,,134,134,7,19,3,3,0.6,0.4
2024-09-03T2000,1043A,119.7493,40.0116,秦皇岛市,第一关,,43,43,30,16,19,124,,136,136,10,35,2,2,0.5,0.4
2024-09-03T2000,1044A,119.5897,39.9499,秦皇岛市,监测站,,41,32,26,18,16,131,,138,138,9,20,3,3,0.6,0.4
2024-09-03T2000,1046A,119.5251,39.9041,秦皇岛市,建设大厦,,42,37,36,11,10,133,,138,138,5,19,2,7,0.5,0.3
2024-09-03T2000,3132A,119.610547,39.943889,秦皇岛市,文明里,,42,35,30,11,7,132,,138,138,9,20,3,2,0.7,0.5
2024-09-03T2000,1307A,120.6659,36.2403,青岛市,仰口,,,29,23,18,13,111,,124,122,6,7,5,6,,0.8
2024-09-03T2000,1310A,120.4134,36.0658,青岛市,市南区东部子站,,47,24,30,9,9,149,,168,168,16,18,7,7,0.6,0.6
2024-09-03T2000,1311A,120.3664,36.1032,青岛市,四方区子站,,43,36,36,14,12,135,,166,164,31,25,11,11,0.8,0.7
2024-09-03T2000,1312A,120.2994,36.054,青岛市,市南区西部子站,"颗粒物(PM10),臭氧1小时",53,56,33,15,7,162,,169,169,20,14,9,9,0.7,0.6
2024-09-03T2000,1313A,120.4581,36.0858,青岛市,崂山区子站,,,73,29,22,7,120,,166,164,,16,,9,,0.5
2024-09-03T2000,1314A,120.1983,35.9608,青岛市,黄岛区子站,臭氧1小时,90,31,29,15,11,192,,183,183,19,33,9,10,0.5,0.5
2024-09-03T2000,1315A,120.3999,36.3083,青岛市,城阳区子站,,45,44,28,12,10,142,,155,155,39,19,9,9,0.7,0.5
2024-09-03T2000,1966A,120.0405,35.8735,青岛市,黄岛区4号,,48,39,28,12,9,153,,178,178,21,18,10,10,0.5,0.5
2024-09-03T2000,3362A,120.5014,36.4034,青岛市,即墨2号,,49,47,28,16,11,155,,149,149,31,19,9,8,0.6,0.5
2024-09-03T2000,3642A,120.3503,36.0736,青岛市,市北区南部,,42,28,37,9,11,134,,155,154,26,29,8,11,0.6,0.6
2024-09-03T2000,3643A,120.3948,36.1805,青岛市,李沧区北部,颗粒物(PM10),51,51,35,17,15,94,,171,164,68,26,20,10,0.7,0.6
2024-09-03T2000,1702A,113.0426,23.691,清远市,环保大楼,,33,26,13,17,16,105,,132,130,13,10,6,7,0.6,0.5
2024-09-03T2000,1703A,113.0208,23.7106,清远市,凤城街办,,41,41,27,28,15,91,,147,142,16,12,6,6,0.6,0.4
2024-09-03T2000,3025A,113.0477,23.6344,清远市,技师学院,,48,48,28,23,15,130,,147,147,17,13,5,5,0.3,0.4
2024-09-03T2000,3318A,112.9903,23.7403,清远市,清新太和,,37,37,30,20,16,111,,125,125,5,7,4,5,0.7,0.7
2024-09-03T2000,3455A,113.076,23.7198,清远市,清城东城,,50,50,27,34,15,85,,131,126,10,8,7,7,0.6,0.6
2024-09-03T2000,2661A,107.6325,35.7357,庆阳市,庆阳五中,,37,34,35,17,18,118,,116,116,8,6,6,5,0.6,0.6
2024-09-03T2000,2662A,107.6364,35.7067,庆阳市,市环保局,,38,30,32,15,17,121,,117,117,7,6,5,4,0.5,0.6
2024-09-03T2000,1916A,103.7897,25.5035,曲靖市,环境监测站,,21,21,21,3,9,62,,69,69,12,12,10,7,0.6,0.7
2024-09-03T2000,1917A,103.8,25.5364,曲靖市,烟厂办公区,,21,14,19,7,11,66,,66,66,9,14,4,5,0.5,0.7
2024-09-03T2000,3376A,103.7947,25.462,曲靖市,南苑二区,,20,14,15,10,8,61,,67,67,14,10,21,9,0.4,0.6
2024-09-03T2000,3377A,103.7444,25.5261,曲靖市,曲靖师范学院,,22,22,18,7,11,70,,67,67,10,17,7,14,0.5,0.6
2024-09-03T2000,1264A,118.8692,28.9398,衢州市,环保大楼,,,46,49,33,35,148,,167,162,,15,4,3,0.7,0.7
2024-09-03T2000,1265A,118.8709,28.9666,衢州市,实验学校,细颗粒物(PM2.5),53,48,48,37,37,146,,166,164,13,14,3,4,0.7,0.7
2024-09-03T2000,1266A,118.8621,28.9808,衢州市,衢州学院,"颗粒物(PM10),细颗粒物(PM2.5)",53,55,48,37,34,145,,161,159,14,17,2,2,0.6,0.6
2024-09-03T2000,1611A,118.5819,24.9117,泉州市,涂山街,,31,31,30,16,16,81,,120,112,12,12,3,2,0.6,0.7
2024-09-03T2000,1612A,118.5972,24.8978,泉州市,津头埔,,42,42,33,15,15,73,,119,110,17,14,4,4,0.6,0.6
2024-09-03T2000,1613A,118.6663,24.9424,泉州市,万安,,35,35,34,16,15,76,,121,111,10,13,4,3,0.6,0.6
2024-09-03T2000,1614A,118.6117,24.9604,泉州市,清源山,,,,,,,,,,,,,,,,
2024-09-03T2000,3529A,118.6333,24.9264,泉州市,城华南路,,30,30,27,16,15,76,,118,108,8,9,4,3,0.6,0.6
2024-09-03T2000,2626A,88.8876,29.2718,日喀则市,日喀则监测站,,30,10,8,3,3,94,,103,103,6,6,6,5,0.4,0.4
2024-09-03T2000,3726A,88.8781,29.2426,日喀则市,林业技术推广中心,,38,6,4,3,4,121,,120,120,4,5,8,8,0.4,0.5
2024-09-03T2000,1659A,119.471,35.4209,日照市,监测站,,39,34,18,15,9,122,,158,156,39,18,13,11,0.6,0.5
2024-09-03T2000,1660A,119.523,35.4216,日照市,市政府广场,,44,39,21,16,6,140,,171,171,30,14,11,10,0.7,0.6
2024-09-03T2000,1661A,119.5587,35.4044,日照市,港务局,,,51,22,19,13,172,,181,181,20,9,13,11,,0.6
2024-09-03T2000,3507A,119.5328,35.4625,日照市,职业技术学院,,41,31,19,14,7,130,,168,167,25,15,8,9,0.6,0.6
2024-09-03T2000,3604A,119.3266,35.1044,日照市,岚山环保分局,,37,29,32,7,7,118,,164,160,36,27,12,30,0.5,2.7
2024-09-03T2000,1835A,111.1922,34.7752,三门峡市,市政府,,50,50,40,23,17,128,,121,121,14,11,13,11,0.7,0.6
2024-09-03T2000,1836A,111.1587,34.7942,三门峡市,开发区,颗粒物(PM10),52,53,44,26,20,117,,121,121,12,9,13,12,0.7,0.6
2024-09-03T2000,1838A,111.143,34.7955,三门峡市,风景区,,,,,,,,,,,,,,,,
2024-09-03T2000,3039A,111.1911,34.7829,三门峡市,三门峡市第一小学,,43,43,40,20,15,115,,116,116,13,11,10,11,0.6,0.5
2024-09-03T2000,3598A,111.1,34.7167,三门峡市,富达温泉假日酒店,颗粒物(PM10),54,57,53,23,30,132,,124,124,15,10,13,11,0.5,0.5
2024-09-03T2000,2324A,117.6211,26.2625,三明市,三钢,,35,35,34,23,26,64,,119,110,18,15,5,13,0.5,0.7
2024-09-03T2000,2325A,117.635,26.2714,三明市,三明二中,,29,25,29,20,20,81,,118,112,11,14,3,8,0.5,0.6
2024-09-03T2000,2326A,117.6028,26.2378,三明市,三元区政府,,37,37,37,19,21,78,,116,110,16,18,3,10,0.7,0.8
2024-09-03T2000,2327A,117.7275,26.3108,三明市,洋溪,,,,,,,,,,,,,,,,
2024-09-03T2000,1876A,109.5078,18.2489,三亚市,河东子站,,14,14,16,8,6,42,,62,58,9,10,4,3,0.4,0.3
2024-09-03T2000,1877A,109.4964,18.2681,三亚市,河西子站,,15,13,13,10,5,37,,58,54,8,7,3,3,0.3,0.2
2024-09-03T2000,3540A,109.7348,18.3443,三亚市,君悦子站,,17,17,15,6,5,32,,68,58,12,9,2,1,0.3,0.2
2024-09-03T2000,2624A,91.7608,29.2313,山南市,山南监测站,,32,11,8,3,2,101,,112,111,6,3,8,7,0.3,0.3
2024-09-03T2000,2625A,91.7706,29.2436,山南市,山南人民医院,,36,36,22,6,4,104,,112,112,9,6,7,7,0.2,0.2
2024-09-03T2000,1674A,116.6794,23.3667,汕头市,金平子站,,,,38,6,22,71,,127,116,6,9,5,5,0.4,0.5
2024-09-03T2000,1675A,116.7244,23.3633,汕头市,龙湖子站,,28,,35,19,20,84,,147,136,9,10,6,7,0.5,0.6
2024-09-03T2000,1676A,116.7258,23.2775,汕头市,濠江子站,,25,,31,12,25,79,,146,136,10,9,6,7,0.7,0.8
2024-09-03T2000,1677A,116.7519,23.4714,汕头市,澄海子站,,29,18,39,18,27,92,,164,153,12,11,5,7,0.7,0.8
2024-09-03T2000,1678A,116.6092,23.2539,汕头市,潮阳子站,,,36,38,11,26,87,,167,152,2,6,,6,0.4,0.5
2024-09-03T2000,3444A,116.454,23.2684,汕头市,潮南峡山,,28,14,40,6,26,89,,166,152,6,7,6,7,0.4,1.1
2024-09-03T2000,3624A,116.4069,23.2533,汕头市,潮南子站,,26,21,47,9,31,82,,160,149,12,11,5,6,0.5,0.8
2024-09-03T2000,1693A,115.3653,22.775,汕尾市,市环保局,,49,31,27,28,22,154,,151,151,10,8,6,6,0.9,0.9
2024-09-03T2000,1694A,115.3706,22.7898,汕尾市,市政府,,44,35,27,22,17,140,,136,136,9,9,7,7,0.8,0.7
2024-09-03T2000,1695A,115.3622,22.7925,汕尾市,新城中学,,44,35,36,27,22,140,,140,140,8,10,6,6,0.9,0.9
2024-09-03T2000,2645A,109.9154,33.8715,商洛市,监测站,,24,23,24,13,15,74,,102,77,14,10,2,2,0.8,0.7
2024-09-03T2000,3045A,109.9643,33.8471,商洛市,商州区中学,,28,28,30,14,16,70,,102,74,15,11,5,5,0.8,0.8
2024-09-03T2000,2408A,115.6702,34.4285,商丘市,环境监测站,,45,45,35,14,12,110,,134,133,22,15,5,5,0.5,0.5
2024-09-03T2000,2409A,115.6458,34.4045,商丘市,粮食局,,42,36,31,14,14,134,,147,147,14,12,8,9,0.4,0.3
2024-09-03T2000,2410A,115.6293,34.3948,商丘市,睢阳区环保局,,40,34,36,15,13,126,,139,139,9,10,9,9,0.4,0.3
2024-09-03T2000,3171A,115.6071,34.4465,商丘市,梁园区档案局,,42,39,37,19,16,133,,149,149,15,12,8,9,0.4,0.4
2024-09-03T2000,1141A,121.4,31.238,上海市,普陀,,24,24,27,12,13,67,,74,74,17,18,4,5,0.4,0.5
2024-09-03T2000,1142A,121.478,31.2036,上海市,十五厂,,27,27,26,17,17,67,,75,68,21,20,9,9,0.6,0.5
