timepoint,stationcode,longitude,latitude,area,positionname,primarypollutant,aqi,pm10,pm10_24h,pm2_5,pm2_5_24h,o3,o3_24h,o3_8h,o3_8h_24h,no2,no2_24h,so2,so2_24h,co,co_24h
2023-05-05T21:00:00,1001A,116.3621,39.8784,北京市,万寿西宫,,27,27,24,6,11,70,63,67,67,18,12,3,3,0.4,0.5
2023-05-05T21:00:00,1002A,116.2202,40.2915,北京市,定陵,,23,11,18,4,7,73,73,70,69,3,6,3,3,0.2,0.3
2023-05-05T21:00:00,1003A,116.4174,39.9289,北京市,东四,,26,23,23,6,11,82,81,81,80,14,16,3,3,0.3,0.4
2023-05-05T21:00:00,1004A,116.4072,39.8863,北京市,天坛,,25,21,22,7,10,80,77,79,78,15,12,3,3,0.3,0.4
2023-05-05T21:00:00,1005A,116.462,39.9365,北京市,农展馆,,24,20,22,5,11,77,75,74,74,10,15,3,3,0.3,0.4
2023-05-05T21:00:00,1006A,116.3392,39.9295,北京市,官园,,25,25,22,9,11,69,45,66,62,22,14,1,1,0.4,0.4
2023-05-05T21:00:00,1007A,116.2878,39.9611,北京市,海淀万柳,,21,21,20,6,9,69,47,64,59,15,15,3,3,0.2,0.3
2023-05-05T21:00:00,1008A,116.6636,40.135,北京市,顺义新城,,33,33,31,6,13,82,80,79,79,11,14,3,3,0.2,0.3
2023-05-05T21:00:00,1009A,116.6275,40.3275,北京市,怀柔镇,,28,28,29,6,11,87,87,82,82,8,11,3,3,0.2,0.3
2023-05-05T21:00:00,1010A,116.2296,40.217,北京市,昌平镇,,20,14,20,6,10,72,61,65,62,4,9,3,3,0.1,0.2
2023-05-05T21:00:00,1011A,116.3966,39.9821,北京市,奥体中心,,25,25,21,7,10,69,59,68,66,21,23,3,3,0.2,0.3
2023-05-05T21:00:00,1012A,116.184,39.9136,北京市,古城,,21,21,21,7,8,77,53,66,62,9,11,3,3,0.3,0.4
2023-05-05T21:00:00,1015A,117.1444,39.1661,天津市,勤俭道,,30,30,17,9,10,103,51,94,86,30,13,7,7,0.4,0.4
2023-05-05T21:00:00,1017A,117.237,39.1082,天津市,大直沽八号路,,34,34,18,12,10,99,57,88,83,27,13,8,8,0.4,0.4
2023-05-05T21:00:00,1018A,117.202,39.0927,天津市,前进道,,30,30,19,12,9,103,70,93,89,25,14,4,4,0.2,0.2
2023-05-05T21:00:00,1019A,117.1837,39.2133,天津市,淮河道,,26,26,17,9,9,99,37,89,79,47,17,6,6,0.4,0.5
2023-05-05T21:00:00,1021A,117.307,39.0877,天津市,跃进路,,49,49,22,10,8,107,56,96,89,29,14,5,6,0.4,0.5
2023-05-05T21:00:00,1023A,117.707,39.0343,天津市,第四大街,,34,34,18,12,9,99,76,89,88,19,17,6,5,0.7,0.7
2023-05-05T21:00:00,1024A,117.457,38.8394,天津市,永明路,,35,35,20,14,13,104,66,92,90,29,16,7,6,0.7,0.9
2023-05-05T21:00:00,1026A,117.764,39.1587,天津市,汉北路,,41,41,22,9,8,107,83,97,95,15,13,8,7,0.4,0.7
2023-05-05T21:00:00,1027A,117.157,38.9194,天津市,团泊洼,,,25,14,10,7,110,76,98,96,22,17,3,2,,0.4
2023-05-05T21:00:00,1029A,114.4422,38.0444,石家庄市,职工医院,颗粒物(PM10),62,74,36,28,23,84,65,78,69,14,12,5,5,0.5,0.5
2023-05-05T21:00:00,1030A,114.6063,38.0266,石家庄市,高新区,细颗粒物(PM2.5),54,51,24,38,28,88,61,81,79,16,8,5,4,0.4,0.6
2023-05-05T21:00:00,1031A,114.4898,38.1328,石家庄市,西北水源,,48,48,27,25,17,87,39,81,72,34,16,4,4,0.5,0.6
2023-05-05T21:00:00,1032A,114.4586,38.0058,石家庄市,西南高教,,46,46,28,30,21,85,71,79,74,17,15,5,5,0.6,0.7
2023-05-05T21:00:00,1033A,114.5331,38.0178,石家庄市,世纪公园,颗粒物(PM10),54,57,27,21,14,76,53,69,62,14,9,4,4,0.7,0.7
2023-05-05T21:00:00,1034A,114.509,38.0457,石家庄市,人民会堂,,44,44,26,27,17,90,64,81,76,22,14,6,6,0.6,0.6
2023-05-05T21:00:00,1035A,114.3524,37.8911,石家庄市,封龙山,,30,27,16,16,15,103,93,98,94,9,6,10,15,0.4,0.5
2023-05-05T21:00:00,1037A,118.131,39.6363,唐山市,雷达站,,39,39,29,12,10,102,87,96,95,8,10,2,2,0.2,0.3
2023-05-05T21:00:00,1038A,118.1725,39.6334,唐山市,物资局,,39,39,29,27,19,99,80,90,88,6,6,2,3,0.2,0.3
2023-05-05T21:00:00,1040A,118.1705,39.6506,唐山市,十二中,,34,34,23,23,15,96,78,88,86,8,8,1,2,0.2,0.3
2023-05-05T21:00:00,1041A,118.1869,39.622,唐山市,小山,,42,42,31,11,6,105,87,97,95,12,15,2,2,0.2,0.3
2023-05-05T21:00:00,1042A,119.5134,39.8207,秦皇岛市,北戴河环保局,,40,40,27,7,7,85,76,82,82,5,4,2,2,0.1,0.2
2023-05-05T21:00:00,1043A,119.7493,40.0116,秦皇岛市,第一关,,,,21,,13,96,,92,92,12,9,3,3,0.1,0.2
2023-05-05T21:00:00,1044A,119.5897,39.9499,秦皇岛市,监测站,,36,36,27,21,12,99,83,94,93,4,2,3,2,0.2,0.2
2023-05-05T21:00:00,1046A,119.5251,39.9041,秦皇岛市,建设大厦,,27,27,22,6,7,103,84,97,96,3,4,3,4,0.1,0.2
2023-05-05T21:00:00,1048A,114.5302,36.6116,邯郸市,东污水处理厂,,34,34,27,10,12,92,68,86,81,14,13,3,1,0.4,0.4
2023-05-05T21:00:00,1049A,114.4918,36.5713,邯郸市,矿院,,33,33,22,22,16,96,73,90,86,9,9,2,2,0.4,0.4
2023-05-05T21:00:00,1050A,114.484,36.6133,邯郸市,丛台公园,,33,33,25,23,15,96,75,88,83,9,10,6,5,0.4,0.4
2023-05-05T21:00:00,1051A,115.493,38.8632,保定市,游泳馆,,43,43,33,14,11,98,62,89,83,24,12,5,7,0.1,0.1
2023-05-05T21:00:00,1052A,115.5213,38.8959,保定市,华电二区,,39,39,23,12,13,90,52,83,75,24,8,6,5,0.2,0.3
2023-05-05T21:00:00,1053A,115.4713,38.9108,保定市,接待中心,,44,44,30,17,12,90,50,84,74,21,5,6,6,0.3,0.4
2023-05-05T21:00:00,1054A,115.4612,38.8416,保定市,地表水厂,颗粒物(PM10),51,52,35,21,15,90,62,83,78,19,9,9,8,0.4,0.3
2023-05-05T21:00:00,1056A,115.5086,38.8639,保定市,监测站,颗粒物(PM10),52,54,33,25,16,98,59,89,82,26,11,6,6,0.3,0.4
2023-05-05T21:00:00,1057A,114.8883,40.8336,张家口市,人民公园,,,14,31,,8,90,75,67,67,4,7,2,3,0.3,0.3
2023-05-05T21:00:00,1059A,114.8687,40.8042,张家口市,五金库,,32,30,34,22,16,87,70,71,62,10,12,1,2,0.2,0.3
2023-05-05T21:00:00,1060A,114.8902,40.762,张家口市,世纪豪园,,28,28,34,17,19,83,70,68,62,8,10,2,2,0.2,0.2
2023-05-05T21:00:00,1061A,114.8916,40.8661,张家口市,北泵房,,32,32,37,21,18,81,78,70,70,5,8,7,8,0.4,0.5
2023-05-05T21:00:00,1062A,117.9531,40.9081,承德市,铁路,,29,11,29,15,18,98,90,92,92,4,6,7,8,0.1,0.2
2023-05-05T21:00:00,1063A,117.9392,40.9763,承德市,中国银行,,29,21,32,5,11,100,92,95,95,4,6,7,7,0.0,0.1
2023-05-05T21:00:00,1064A,117.9503,40.928,承德市,开发区,,30,24,34,17,16,102,95,98,98,7,9,5,6,0.2,0.2
2023-05-05T21:00:00,1065A,117.8051,40.9655,承德市,文化中心,,40,40,28,8,15,97,88,92,92,8,7,5,6,0.2,0.2
2023-05-05T21:00:00,1066A,117.9268,41.0026,承德市,离宫,,33,9,21,23,15,102,93,97,97,3,5,4,4,0.2,0.2
2023-05-05T21:00:00,1067A,116.6708,39.5111,廊坊市,药材公司,,26,26,32,16,15,89,68,83,82,24,21,1,2,0.3,0.4
2023-05-05T21:00:00,1068A,116.7214,39.5589,廊坊市,开发区,,40,40,32,24,20,88,67,82,81,26,26,4,5,0.3,0.4
2023-05-05T21:00:00,1070A,116.7244,39.5269,廊坊市,北华航天学院,,42,42,40,18,20,84,65,78,77,26,24,4,5,0.2,0.4
2023-05-05T21:00:00,1071A,116.8842,38.2991,沧州市,沧县城建局,颗粒物(PM10),52,53,20,15,11,103,68,92,91,32,19,3,2,0.5,0.4
2023-05-05T21:00:00,1072A,116.8584,38.3254,沧州市,电视转播站,颗粒物(PM10),51,52,30,27,10,101,63,89,87,28,16,5,7,0.2,0.3
2023-05-05T21:00:00,1073A,116.8709,38.3228,沧州市,市环保局,,47,47,29,27,17,113,68,98,96,37,23,5,5,0.2,0.2
2023-05-05T21:00:00,1074A,115.6838,37.7541,衡水市,电机北厂,,46,46,20,19,16,91,45,85,81,42,12,2,2,0.4,0.4
2023-05-05T21:00:00,1075A,115.6303,37.7316,衡水市,市监测站,颗粒物(PM10),54,57,31,27,23,97,55,92,88,38,12,6,4,0.5,0.5
2023-05-05T21:00:00,1077A,114.4704,37.0886,邢台市,达活泉,,25,18,13,17,12,92,60,84,78,7,5,5,7,0.5,0.5
2023-05-05T21:00:00,1078A,114.5062,37.0349,邢台市,邢师高专,,29,29,20,13,10,91,62,85,80,13,7,2,2,0.5,0.5
2023-05-05T21:00:00,1079A,114.5237,37.0851,邢台市,路桥公司,,31,31,23,15,13,88,66,81,77,9,8,2,3,0.5,0.5
2023-05-05T21:00:00,1080A,114.4725,37.0719,邢台市,市环保局,,35,24,17,24,18,97,72,90,84,5,3,5,5,0.4,0.4
2023-05-05T21:00:00,1081A,112.522,37.8873,太原市,尖草坪,,29,29,57,19,36,63,27,60,38,36,32,5,4,1.4,0.8
2023-05-05T21:00:00,1083A,112.434,38.0108,太原市,上兰,,32,27,47,22,27,52,29,41,40,17,19,6,6,0.8,0.9
2023-05-05T21:00:00,1084A,112.469,37.7124,太原市,晋源,,35,35,49,22,32,70,18,37,30,41,36,5,8,0.9,0.8
2023-05-05T21:00:00,1085A,112.5583,37.7394,太原市,小店,颗粒物(PM10),52,54,56,30,32,72,38,56,55,39,40,3,4,0.6,0.6
2023-05-05T21:00:00,1086A,112.5369,37.8692,太原市,桃园,,30,30,54,20,33,53,42,43,40,25,38,3,4,0.6,0.6
2023-05-05T21:00:00,1087A,112.57,37.8195,太原市,坞城,细颗粒物(PM2.5),55,55,52,39,34,61,29,44,38,38,41,3,4,0.6,0.6
2023-05-05T21:00:00,1088A,112.549,37.9854,太原市,南寨,,15,14,47,10,36,47,38,43,42,20,38,3,4,0.5,0.7
2023-05-05T21:00:00,1090A,111.6507,40.7517,呼和浩特市,呼市一监,,24,17,13,10,7,95,74,86,82,12,8,6,5,0.4,0.5
2023-05-05T21:00:00,1091A,111.6572,40.8033,呼和浩特市,小召,,22,19,18,13,8,93,68,84,79,16,13,7,7,0.4,0.3
2023-05-05T21:00:00,1094A,111.7516,40.8369,呼和浩特市,如意水处理厂,,20,19,10,9,5,94,62,88,81,18,7,6,6,0.2,0.3
2023-05-05T21:00:00,1095A,111.7276,40.8062,呼和浩特市,二十九中,,23,21,13,12,6,96,71,91,86,15,9,6,6,0.6,0.5
2023-05-05T21:00:00,1096A,111.5512,40.7866,呼和浩特市,工大金川校区,,23,16,18,7,6,100,73,90,78,14,10,4,4,0.4,0.4
2023-05-05T21:00:00,1097A,111.717,40.7612,呼和浩特市,化肥厂生活区,,24,20,12,7,4,96,76,91,87,9,7,6,6,0.4,0.3
2023-05-05T21:00:00,1098A,123.6836,41.9339,沈阳市,森林路,,,,,,,,,,,,,,,,
2023-05-05T21:00:00,1099A,123.505,41.7406,沈阳市,浑南东路,,34,34,43,18,23,119,88,106,106,18,22,9,12,0.4,0.6
2023-05-05T21:00:00,1100A,123.4231,41.6989,沈阳市,新秀街,,38,38,44,9,22,114,88,98,98,12,19,5,7,0.4,0.6
2023-05-05T21:00:00,1102A,123.5903,41.8411,沈阳市,东陵路,,31,31,44,10,23,102,74,91,91,16,20,7,8,0.4,0.5
2023-05-05T21:00:00,1103A,123.4264,41.8467,沈阳市,陵东街,,42,42,49,12,22,105,88,92,92,16,25,7,7,0.4,0.6
2023-05-05T21:00:00,1104A,123.4114,41.7653,沈阳市,文化路,,47,47,50,7,26,110,88,95,95,14,21,6,7,0.3,0.5
2023-05-05T21:00:00,1105A,123.4678,41.7867,沈阳市,小河沿,,28,28,44,6,25,101,84,90,90,17,26,8,9,0.4,0.6
2023-05-05T21:00:00,1106A,123.4017,41.7972,沈阳市,太原街,,41,41,48,10,24,104,83,88,88,19,26,8,10,0.4,0.5
2023-05-05T21:00:00,1108A,123.3783,41.9228,沈阳市,京沈街,颗粒物(PM10),52,53,53,11,26,109,85,92,92,15,19,7,8,0.4,0.6
2023-05-05T21:00:00,1109A,121.612,38.9741,大连市,甘井子,,40,40,26,12,17,110,92,102,98,22,17,5,4,0.4,0.5
2023-05-05T21:00:00,1110A,121.565,38.9511,大连市,周水子,,38,38,21,12,15,120,90,113,98,27,19,7,6,0.4,0.6
2023-05-05T21:00:00,1111A,121.5637,38.8845,大连市,星海三站,,44,44,32,12,14,118,88,108,92,22,14,6,5,0.6,0.6
2023-05-05T21:00:00,1112A,121.6302,38.9117,大连市,青泥洼桥,,38,38,22,14,14,123,90,116,93,19,14,7,5,0.6,0.7
2023-05-05T21:00:00,1113A,121.6251,38.8638,大连市,傅家庄,,34,34,16,15,13,124,96,113,98,20,12,9,7,0.6,0.7
2023-05-05T21:00:00,1114A,121.5213,38.8661,大连市,七贤岭,,,37,18,12,14,129,106,117,110,12,10,,5,0.4,0.3
2023-05-05T21:00:00,1115A,121.2529,38.8061,大连市,旅顺,,,,14,,13,122,,109,107,,8,,6,,0.4
2023-05-05T21:00:00,1116A,121.7485,39.1311,大连市,金州,,30,25,21,13,16,114,93,105,100,21,11,8,6,0.5,0.5
2023-05-05T21:00:00,1117A,121.7811,39.0496,大连市,开发区,,35,35,24,16,13,113,92,104,92,19,13,5,4,0.5,0.5
2023-05-05T21:00:00,1118A,121.9762,39.0631,大连市,双D港,颗粒物(PM10),53,56,25,18,16,114,100,105,96,16,10,8,6,0.7,0.7
2023-05-05T21:00:00,1119A,125.3325,43.9166,长春市,食品厂,,34,34,54,18,15,104,65,93,88,31,18,8,8,0.3,0.3
2023-05-05T21:00:00,1120A,125.2863,43.9027,长春市,客车厂,,26,26,52,18,14,106,71,93,92,28,22,5,5,0.3,0.3
2023-05-05T21:00:00,1121A,125.2841,43.8463,长春市,邮电学院,,30,30,43,13,24,102,74,90,89,19,16,6,6,0.3,0.3
2023-05-05T21:00:00,1122A,125.3716,43.8772,长春市,劳动公园,,39,39,49,12,12,106,78,96,95,22,21,7,6,0.3,0.3
2023-05-05T21:00:00,1123A,125.3297,43.8805,长春市,园林处,,27,27,40,17,11,102,76,90,90,20,19,4,3,0.3,0.4
2023-05-05T21:00:00,1124A,125.4605,43.79,长春市,净月潭,,29,29,34,8,8,105,81,98,96,9,10,4,4,0.3,0.3
2023-05-05T21:00:00,1125A,125.7194,43.515,长春市,甩湾子,,32,21,26,8,13,114,102,107,107,5,9,4,5,0.3,0.6
2023-05-05T21:00:00,1126A,125.3863,43.8447,长春市,经开区环卫处,,30,30,44,11,14,105,73,93,91,20,17,7,7,0.3,0.4
2023-05-05T21:00:00,1127A,125.245,43.7783,长春市,高新区管委会,,30,30,46,10,14,103,74,91,89,32,23,4,4,0.4,0.3
2023-05-05T21:00:00,1128A,125.1761,43.8325,长春市,岱山公园,,36,36,52,18,16,96,51,83,79,39,25,6,5,1.0,0.5
2023-05-05T21:00:00,1129A,126.5422,45.755,哈尔滨市,岭北,,26,26,15,8,7,107,83,103,101,11,9,7,10,0.5,0.1
2023-05-05T21:00:00,1130A,126.561,45.8167,哈尔滨市,松北商大,,35,35,22,13,8,103,69,98,93,24,15,5,5,0.4,0.4
2023-05-05T21:00:00,1131A,126.979,45.5419,哈尔滨市,阿城会宁,,29,29,31,12,12,96,68,93,87,18,22,20,11,0.3,0.3
2023-05-05T21:00:00,1132A,126.599,45.7222,哈尔滨市,南岗学府路,,37,37,27,11,5,100,76,96,92,17,11,6,6,0.4,0.4
2023-05-05T21:00:00,1133A,126.689,45.7733,哈尔滨市,太平宏伟公园,,41,41,34,13,10,96,69,92,86,22,17,5,5,0.4,0.3
2023-05-05T21:00:00,1134A,126.635,45.7667,哈尔滨市,道外承德广场,,33,33,27,18,9,98,81,92,90,16,17,6,6,0.4,0.4
2023-05-05T21:00:00,1135A,126.685,45.7319,哈尔滨市,香坊红旗大街,,26,22,25,10,9,101,82,96,94,19,16,9,11,0.3,0.2
2023-05-05T21:00:00,1136A,126.6411,45.7258,哈尔滨市,动力和平路,,28,28,24,10,5,102,81,97,94,21,16,11,13,0.3,0.3
2023-05-05T21:00:00,1137A,126.593,45.7478,哈尔滨市,道里建国路,,24,22,23,9,9,101,74,96,93,22,13,12,12,0.2,0.2
2023-05-05T21:00:00,1138A,126.615,45.61,哈尔滨市,平房东轻厂,,28,28,31,11,12,97,68,95,88,33,21,5,5,0.6,0.4
2023-05-05T21:00:00,1139A,126.595,45.9855,哈尔滨市,呼兰师专,,41,41,27,24,11,104,70,99,94,20,14,10,11,0.4,0.4
2023-05-05T21:00:00,1140A,126.6206,45.6842,哈尔滨市,省农科院,,29,29,27,12,12,103,81,99,96,23,17,10,11,0.4,0.4
2023-05-05T21:00:00,1141A,121.4,31.238,上海市,普陀,,39,34,24,27,20,112,43,93,87,37,28,4,6,1.2,0.7
2023-05-05T21:00:00,1142A,121.478,31.2036,上海市,十五厂,,45,33,22,31,24,96,46,82,80,34,31,6,7,1.3,0.8
2023-05-05T21:00:00,1143A,121.467,31.3008,上海市,虹口,,46,31,28,32,22,97,28,80,75,46,29,9,8,1.2,0.7
2023-05-05T21:00:00,1144A,121.412,31.1654,上海市,徐汇上师大,,,,24,,19,117,53,98,94,,34,7,8,1.1,0.7
2023-05-05T21:00:00,1145A,121.536,31.2659,上海市,杨浦四漂,颗粒物(PM10),51,51,25,30,19,108,33,91,86,49,32,7,6,1.7,0.8
2023-05-05T21:00:00,1147A,121.425,31.2261,上海市,静安监测站,,48,48,30,23,17,106,45,90,86,40,32,5,6,1.3,0.8
2023-05-05T21:00:00,1148A,121.703,31.1907,上海市,浦东川沙,,49,49,33,31,20,104,29,83,72,46,22,7,6,1.1,0.6
2023-05-05T21:00:00,1149A,121.533,31.2284,上海市,浦东新区监测站,,,53,30,,7,113,54,94,91,30,20,7,6,1.1,0.6
2023-05-05T21:00:00,1150A,121.577,31.2071,上海市,浦东张江,,,48,34,29,22,107,36,88,84,41,21,4,4,,0.8
2023-05-05T21:00:00,1151A,118.8086,32.1065,南京市,迈皋桥,,44,44,20,27,13,68,49,54,54,14,21,5,15,0.4,0.5
2023-05-05T21:00:00,1152A,118.7538,32.0551,南京市,草场门,细颗粒物(PM2.5),52,36,19,36,14,65,48,54,54,11,18,4,4,0.7,0.8
2023-05-05T21:00:00,1153A,118.7794,32.0745,南京市,山西路,,,,21,,15,65,,53,53,8,16,5,4,,0.5
2023-05-05T21:00:00,1154A,118.7752,32.0023,南京市,中华门,,39,39,16,27,9,55,46,49,49,17,24,4,4,0.7,0.9
2023-05-05T21:00:00,1155A,118.8109,32.0309,南京市,瑞金路,,45,43,18,31,16,68,49,52,52,8,10,6,8,0.4,0.4
2023-05-05T21:00:00,1156A,118.7997,32.0754,南京市,玄武湖,,49,48,25,34,13,62,44,49,48,14,21,4,4,0.6,1
2023-05-05T21:00:00,1157A,118.6414,32.0931,南京市,浦口,,39,29,16,27,13,63,51,57,56,11,9,4,4,0.6,0.6
2023-05-05T21:00:00,1158A,118.7356,31.9996,南京市,奥体中心,,39,32,20,27,15,58,49,52,52,11,17,5,6,0.5,0.6
2023-05-05T21:00:00,1159A,118.9125,32.1028,南京市,仙林大学城,,42,39,18,29,13,67,50,57,57,16,19,8,9,0.7,0.8
2023-05-05T21:00:00,1160A,120.561,31.2472,苏州市,上方山,,32,19,26,22,24,65,41,52,51,15,19,7,6,0.7,0.6
2023-05-05T21:00:00,1162A,120.591,31.3019,苏州市,彩香,,41,41,35,28,23,94,58,83,72,10,18,5,5,0.9,0.8
2023-05-05T21:00:00,1163A,120.596,31.3264,苏州市,轧钢厂,,40,38,36,28,23,94,50,84,70,22,23,5,5,0.9,0.9
2023-05-05T21:00:00,1164A,120.613,31.2703,苏州市,吴中区,,40,40,37,28,22,91,62,82,74,14,24,6,7,1.0,0.9
2023-05-05T21:00:00,1165A,120.543,31.2994,苏州市,苏州新区,,45,45,37,31,25,88,59,77,68,8,18,4,4,0.8,0.7
2023-05-05T21:00:00,1166A,120.669,31.3097,苏州市,苏州工业园区,,42,32,38,29,25,81,43,74,64,18,19,8,8,0.8,0.7
2023-05-05T21:00:00,1167A,120.641,31.3708,苏州市,相城区,细颗粒物(PM2.5),55,41,28,39,25,88,38,81,67,20,23,6,6,1.0,0.9
2023-05-05T21:00:00,1168A,120.9098,31.9663,南通市,狼山街道,,15,15,17,10,10,64,43,59,57,12,21,6,7,0.8,0.7
2023-05-05T21:00:00,1169A,120.86,32.0005,南通市,虹桥,,26,18,18,18,15,79,40,64,52,18,29,6,7,0.8,0.7
2023-05-05T21:00:00,1170A,120.87,32.02,南通市,城中,,23,21,18,16,11,79,42,69,59,17,20,6,6,0.4,0.6
2023-05-05T21:00:00,1171A,120.94,31.93,南通市,星湖花园,,20,15,20,14,14,80,40,54,52,17,29,2,3,0.8,0.8
2023-05-05T21:00:00,1172A,120.81,32.0417,南通市,紫琅学院,,18,14,16,12,11,74,34,61,53,20,27,7,6,0.7,0.7
2023-05-05T21:00:00,1173A,119.176,34.5885,连云港市,市环境监测站,,36,36,53,12,25,70,70,52,52,10,25,5,6,0.4,0.8
2023-05-05T21:00:00,1177A,117.179,34.2761,徐州市,黄河新村,,44,44,43,20,24,64,56,61,60,17,13,6,6,0.8,0.6
2023-05-05T21:00:00,1178A,117.1918,34.2384,徐州市,淮塔,,47,47,37,29,24,75,53,70,68,19,11,8,7,0.7,0.5
2023-05-05T21:00:00,1180A,117.256,34.2153,徐州市,新城区,,45,37,28,31,30,75,56,68,67,16,10,4,4,0.7,0.7
2023-05-05T21:00:00,1181A,117.244,34.2911,徐州市,桃园路,,44,44,43,27,25,72,38,62,58,24,15,6,6,0.8,0.7
2023-05-05T21:00:00,1182A,117.2933,34.2778,徐州市,农科院,,32,29,36,22,23,74,45,66,62,28,16,6,5,0.7,0.6
2023-05-05T21:00:00,1186A,119.389,32.3761,扬州市,邗江监测站,,30,29,19,21,34,68,41,47,46,13,19,6,6,0.8,1
2023-05-05T21:00:00,1188A,120.269,31.4867,无锡市,雪浪,,45,31,23,31,19,156,54,88,70,18,24,7,8,1.0,0.9
2023-05-05T21:00:00,1189A,120.275,31.6219,无锡市,黄巷,,47,47,39,27,26,66,39,52,42,31,38,4,4,1.1,1.2
2023-05-05T21:00:00,1190A,120.294,31.56,无锡市,曹张,,39,30,21,27,23,68,48,60,54,19,28,2,3,0.9,1
2023-05-05T21:00:00,1191A,120.242,31.5031,无锡市,漆塘,,42,39,26,29,22,78,48,70,62,15,21,4,4,0.8,0.7
2023-05-05T21:00:00,1192A,120.3489,31.5863,无锡市,东亭,,44,44,30,29,23,75,50,67,57,20,28,8,8,1.2,1
2023-05-05T21:00:00,1193A,120.354,31.5475,无锡市,旺庄,,34,34,24,22,17,80,47,71,62,27,31,4,4,0.9,0.8
2023-05-05T21:00:00,1194A,120.245,31.5631,无锡市,荣巷,,,36,22,27,19,73,48,66,60,23,26,,10,0.8,0.9
2023-05-05T21:00:00,1195A,120.299,31.6817,无锡市,堰桥,,45,31,26,31,23,78,41,61,55,25,28,8,10,0.8,1
2023-05-05T21:00:00,1196A,119.9633,31.762,常州市,市监测站,颗粒物(PM10),52,53,40,23,18,67,49,58,54,15,23,4,4,0.5,0.8
2023-05-05T21:00:00,1200A,119.9468,31.7069,常州市,武进监测站,颗粒物(PM10),57,64,40,32,21,87,46,69,56,20,21,2,4,0.6,0.9
2023-05-05T21:00:00,1201A,119.9255,31.9087,常州市,安家,颗粒物(PM10),56,62,40,28,22,80,36,61,54,27,27,5,6,0.7,1
2023-05-05T21:00:00,1203A,119.6707,32.1875,镇江市,新区办事处,,46,32,19,32,19,87,16,59,31,34,21,3,3,0.6,0.9
2023-05-05T21:00:00,1204A,119.4974,32.1968,镇江市,职教中心,,36,29,18,25,21,65,44,50,48,14,16,2,3,0.5,0.5
2023-05-05T21:00:00,1205A,119.4303,32.1328,镇江市,丹徒区监测站,,46,27,21,32,24,68,37,49,46,22,18,1,2,0.5,0.6
2023-05-05T21:00:00,1206A,119.905,32.4878,泰州市,公园路,,39,27,11,27,16,84,49,72,43,10,11,10,8,0.7,0.9
2023-05-05T21:00:00,1207A,119.9189,32.4625,泰州市,莲花,,45,32,13,31,18,84,46,74,43,14,14,6,6,0.6,0.7
2023-05-05T21:00:00,1209A,119.888,32.4639,泰州市,留学生创业园,,26,26,16,15,17,74,41,73,41,16,10,4,4,0.6,0.9
2023-05-05T21:00:00,1210A,119.036,33.5981,淮安市,钵池山,,35,24,29,24,29,45,45,44,29,19,19,7,8,0.8,1
2023-05-05T21:00:00,1211A,119.007,33.575,淮安市,北京南路,,28,27,29,19,32,49,48,46,28,19,21,7,6,0.6,0.8
2023-05-05T21:00:00,1212A,118.989,33.6067,淮安市,市监测站,,39,24,38,27,30,49,44,45,28,21,21,5,5,0.8,1
2023-05-05T21:00:00,1213A,119.135,33.5039,淮安市,楚州区监测站,,26,22,30,18,23,50,50,33,22,16,20,7,7,0.7,0.9
2023-05-05T21:00:00,1214A,119.0186,33.6297,淮安市,淮阴区监测站,,39,30,42,27,32,48,45,43,27,18,20,6,6,0.4,0.6
2023-05-05T21:00:00,1215A,120.118,33.4022,盐城市,盐城电厂,,27,27,20,14,14,77,72,67,67,9,10,6,6,0.4,0.6
2023-05-05T21:00:00,1216A,120.156,33.3942,盐城市,市监测站,,30,30,16,12,15,75,63,61,61,13,11,7,10,0.3,0.4
2023-05-05T21:00:00,1218A,120.2144,33.38,盐城市,开发区管委会,,28,25,12,19,14,74,60,67,57,12,11,6,7,0.5,0.6
2023-05-05T21:00:00,1220A,118.293,33.9528,宿迁市,宿迁学院,,23,8,25,8,28,72,71,50,50,13,15,7,7,0.6,0.8
2023-05-05T21:00:00,1221A,118.2442,33.9592,宿迁市,宿迁中学,,25,8,26,6,24,80,80,53,53,9,13,7,6,0.4,0.6
2023-05-05T21:00:00,1223A,120.2072,30.2111,杭州市,滨江,颗粒物(PM10),51,51,24,23,13,102,50,90,78,23,18,6,6,0.9,0.6
2023-05-05T21:00:00,1224A,120.0633,30.2747,杭州市,西溪,,38,36,22,26,9,89,27,68,50,20,17,8,8,0.9,0.5
2023-05-05T21:00:00,1226A,120.3461,30.3153,杭州市,下沙,,44,44,30,30,14,105,51,84,74,31,21,5,5,0.9,0.6
2023-05-05T21:00:00,1227A,120.1269,30.2456,杭州市,卧龙桥,,38,26,18,26,12,84,19,82,60,20,12,5,5,1.0,0.6
2023-05-05T21:00:00,1228A,120.1903,30.2692,杭州市,浙江农大,,43,36,21,30,14,88,48,83,68,26,15,6,6,0.7,0.4
2023-05-05T21:00:00,1230A,120.1197,30.3119,杭州市,和睦小学,,40,40,25,23,15,100,55,79,68,23,15,5,6,0.7,0.4
2023-05-05T21:00:00,1231A,120.3019,30.4183,杭州市,临平镇,细颗粒物(PM2.5),73,57,33,53,18,104,66,89,82,13,15,4,4,0.9,0.6
2023-05-05T21:00:00,1232A,120.2697,30.1819,杭州市,城厢镇,,43,33,30,30,17,120,47,95,84,26,20,3,3,1.0,0.7
2023-05-05T21:00:00,1233A,120.0883,30.1808,杭州市,云栖,,28,28,18,13,7,74,23,64,55,19,16,6,6,1.0,0.7
2023-05-05T21:00:00,1234A,121.8358,29.911,宁波市,区环保大楼,颗粒物(PM10),51,52,23,24,15,108,1,80,47,81,22,7,4,0.5,0.4
2023-05-05T21:00:00,1235A,121.56,29.82,宁波市,万里学院,,41,41,25,23,12,120,110,102,96,18,10,4,3,0.7,0.6
2023-05-05T21:00:00,1236A,121.713,29.9572,宁波市,龙赛医院,颗粒物(PM10),54,58,29,26,13,121,55,90,71,53,22,5,5,0.4,0.4
2023-05-05T21:00:00,1239A,121.633,29.7733,宁波市,钱湖水厂,,32,32,18,22,13,102,100,87,86,25,5,4,3,0.3,0.2
2023-05-05T21:00:00,1240A,121.5856,29.8635,宁波市,太古小学,,46,34,19,32,14,122,109,103,100,21,13,4,4,0.7,0.6
2023-05-05T21:00:00,1241A,121.524,29.8674,宁波市,市环境监测中心,,32,32,25,18,10,112,94,94,91,18,12,4,4,0.5,0.4
2023-05-05T21:00:00,1242A,120.634,28.0089,温州市,瓯海,,37,37,35,18,17,101,16,72,64,51,27,6,6,0.8,0.5
2023-05-05T21:00:00,1243A,120.6748,27.9939,温州市,南浦,,36,36,37,19,20,105,36,77,72,56,28,4,4,0.6,0.5
2023-05-05T21:00:00,1244A,120.76,27.9747,温州市,龙湾,,42,32,47,13,19,92,19,59,52,84,44,6,7,0.5,0.5
2023-05-05T21:00:00,1245A,120.6709,28.0167,温州市,市站,,44,35,41,15,20,110,13,78,69,88,37,4,5,0.8,0.5
2023-05-05T21:00:00,1247A,120.6053,29.9928,绍兴市,城东开发委,细颗粒物(PM2.5),52,46,21,36,13,109,58,103,92,21,14,5,5,1.0,0.7
2023-05-05T21:00:00,1250A,120.0751,30.8669,湖州市,城西水厂,,32,32,27,20,19,81,49,72,67,36,33,6,5,0.7,0.6
2023-05-05T21:00:00,1252A,120.7436,30.778,嘉兴市,清河小学,,46,37,32,32,19,99,62,83,81,19,22,5,5,0.9,0.7
2023-05-05T21:00:00,1253A,120.726,30.7478,嘉兴市,嘉兴学院,,40,30,28,28,22,102,68,84,82,15,22,4,4,0.8,0.5
2023-05-05T21:00:00,1255A,121.273,28.6459,台州市,黄岩环保大楼,,34,34,31,14,15,67,51,55,50,22,13,5,5,0.4,0.4
2023-05-05T21:00:00,1256A,121.419,28.6542,台州市,台州环保大楼,颗粒物(PM10),65,79,48,39,26,78,62,63,63,25,12,4,4,0.6,0.4
2023-05-05T21:00:00,1257A,121.377,28.5773,台州市,路桥田洋王,,42,42,34,29,20,86,68,66,66,30,17,14,8,0.7,0.4
2023-05-05T21:00:00,1258A,122.122,30.0203,舟山市,定海檀枫,,36,32,48,25,18,63,16,48,35,41,23,6,5,0.7,0.5
2023-05-05T21:00:00,1259A,122.3094,29.9558,舟山市,普陀东港,,45,40,34,31,23,63,23,50,36,28,11,5,5,0.5,0.4
2023-05-05T21:00:00,1260A,122.19,29.9944,舟山市,临城新区,,40,40,26,25,13,70,27,50,40,30,22,5,6,0.5,0.3
2023-05-05T21:00:00,1262A,119.647,29.077,金华市,十五中,,39,37,35,27,21,120,67,105,99,28,20,9,6,0.6,0.5
2023-05-05T21:00:00,1263A,119.686,29.1029,金华市,监测站,,24,24,33,14,15,114,64,99,93,26,24,9,6,0.7,0.5
2023-05-05T21:00:00,1264A,118.8692,28.9398,衢州市,环保大楼,,38,38,29,22,14,100,54,88,83,22,18,5,6,0.5,0.5
2023-05-05T21:00:00,1265A,118.8709,28.9666,衢州市,实验学校,,34,34,31,12,9,96,61,80,78,23,19,5,5,0.5,0.5
2023-05-05T21:00:00,1266A,118.8621,28.9808,衢州市,衢州学院,,35,35,25,22,15,91,55,78,76,26,21,5,6,0.4,0.4
2023-05-05T21:00:00,1267A,119.914,28.4514,丽水市,监测站大楼,,39,39,27,14,11,116,31,87,82,30,14,5,5,0.6,0.3
2023-05-05T21:00:00,1268A,119.93,28.4586,丽水市,莲都小学,,20,20,27,10,11,119,21,88,82,35,15,5,5,0.4,0.4
2023-05-05T21:00:00,1269A,119.879,28.4231,丽水市,余庄前,,21,21,23,10,13,103,14,68,60,17,17,6,6,0.4,0.4
2023-05-05T21:00:00,1270A,117.1959,31.7848,合肥市,明珠广场,,46,46,26,24,18,65,51,65,52,12,14,4,4,0.5,0.6
2023-05-05T21:00:00,1271A,117.3072,31.8764,合肥市,三里街,,45,41,30,31,23,55,46,55,46,16,17,4,4,0.5,0.6
2023-05-05T21:00:00,1272A,117.2588,31.8707,合肥市,琥珀山庄,,46,46,28,27,19,71,53,64,52,11,12,3,3,0.5,0.6
2023-05-05T21:00:00,1273A,117.1604,31.9052,合肥市,董铺水库,,36,36,19,19,13,78,53,74,53,6,5,3,2,0.3,0.4
2023-05-05T21:00:00,1274A,117.25,31.8571,合肥市,长江中路,颗粒物(PM10),51,51,33,29,20,73,50,62,50,7,8,8,8,0.6,0.6
2023-05-05T21:00:00,1275A,117.266,31.9436,合肥市,庐阳区,,36,36,26,24,20,75,48,70,50,12,10,6,7,0.5,0.5
2023-05-05T21:00:00,1276A,117.336,31.8586,合肥市,瑶海区,,48,48,38,29,18,51,41,50,45,17,16,6,6,0.5,0.6
2023-05-05T21:00:00,1277A,117.3027,31.7964,合肥市,包河区,,45,39,25,31,19,58,42,56,47,15,14,4,4,0.5,0.5
2023-05-05T21:00:00,1278A,117.2776,31.7385,合肥市,滨湖新区,,36,36,24,24,15,56,44,56,49,14,17,5,5,0.6,0.7
2023-05-05T21:00:00,1279A,117.1318,31.8403,合肥市,高新区,,44,44,26,27,18,79,49,64,53,12,10,7,7,0.4,0.4
2023-05-05T21:00:00,1280A,119.3903,26.0543,福州市,鼓山,,,,,,,,,,,,,,,,
2023-05-05T21:00:00,1282A,119.2681,26.0504,福州市,师大,,45,45,30,22,10,88,35,76,67,27,11,4,4,0.5,0.3
2023-05-05T21:00:00,1283A,119.2984,26.1028,福州市,五四北路,颗粒物(PM10),51,51,28,18,11,88,32,76,64,27,11,2,2,0.5,0.3
2023-05-05T21:00:00,1284A,119.2648,26.0768,福州市,杨桥西路,,28,28,29,17,9,78,40,70,61,21,11,3,3,0.5,0.4
2023-05-05T21:00:00,1285A,119.317,26.0746,福州市,紫阳,,46,46,34,26,11,82,20,70,59,42,12,2,2,0.6,0.3
2023-05-05T21:00:00,1286A,118.1608,24.8169,厦门市,溪东,,,,,,,,,,,,,,,,
2023-05-05T21:00:00,1287A,118.1514,24.4767,厦门市,洪文,,,27,22,14,1,58,,54,54,,3,3,3,0.3,0.3
2023-05-05T21:00:00,1288A,118.0661,24.4444,厦门市,鼓浪屿,,26,26,20,13,9,66,57,58,57,4,4,2,3,0.4,0.4
2023-05-05T21:00:00,1290A,115.8931,28.6843,南昌市,省外办,,23,18,19,14,11,130,73,113,109,8,10,4,4,0.4,0.4
2023-05-05T21:00:00,1291A,115.8886,28.7003,南昌市,省林业公司,,25,14,10,17,10,124,62,108,104,30,16,4,4,0.3,0.3
2023-05-05T21:00:00,1292A,115.8126,28.7442,南昌市,林科所,,18,7,6,12,4,121,57,107,100,26,18,6,6,0.7,0.6
2023-05-05T21:00:00,1294A,115.8518,28.687,南昌市,建工学校,,28,28,23,11,7,125,75,107,104,10,11,7,8,0.5,0.5
2023-05-05T21:00:00,1295A,115.8921,28.6424,南昌市,象湖,,21,18,17,10,8,119,66,104,101,12,13,4,5,0.6,0.7
2023-05-05T21:00:00,1296A,115.7423,28.7996,南昌市,武术学校,,34,34,18,12,12,93,15,73,56,7,5,8,10,0.7,0.6
2023-05-05T21:00:00,1298A,115.9314,28.6842,南昌市,省站,,32,32,24,17,9,124,71,111,107,11,9,6,6,0.9,0.7
2023-05-05T21:00:00,1299A,116.9862,36.6114,济南市,科干所,,36,36,13,17,10,89,74,79,79,26,15,8,7,0.4,0.4
2023-05-05T21:00:00,1300A,116.9376,36.665,济南市,农科所,,46,46,19,27,11,77,45,68,66,40,20,3,2,0.4,0.2
2023-05-05T21:00:00,1301A,117.1265,36.6734,济南市,开发区,,39,39,18,17,11,82,74,78,78,22,13,8,7,0.5,0.4
2023-05-05T21:00:00,1303A,117.0624,36.6868,济南市,省种子仓库,颗粒物(PM10),53,56,21,29,18,83,55,72,71,36,18,9,7,0.6,0.5
2023-05-05T21:00:00,1304A,116.9489,36.6447,济南市,机床二厂,,49,49,17,20,8,80,54,72,70,34,12,3,2,0.4,0.2
2023-05-05T21:00:00,1305A,117.0495,36.663,济南市,市监测站,颗粒物(PM10),51,51,22,20,13,86,65,80,78,40,19,8,7,0.7,0.6
2023-05-05T21:00:00,1306A,116.7675,36.5484,济南市,长清党校,,42,42,18,22,12,93,74,82,82,28,14,9,9,0.7,0.7
2023-05-05T21:00:00,1307A,120.6659,36.2403,青岛市,仰口,,49,41,8,34,9,75,75,66,64,12,9,4,5,0.3,0.2
2023-05-05T21:00:00,1310A,120.4134,36.0658,青岛市,市南区东部子站,,48,48,23,22,15,71,62,60,56,27,24,6,7,0.5,0.5
2023-05-05T21:00:00,1311A,120.3664,36.1032,青岛市,四方区子站,,34,34,22,19,14,68,68,58,58,27,31,7,7,0.6,0.6
2023-05-05T21:00:00,1312A,120.2994,36.054,青岛市,市南区西部子站,,34,34,20,17,12,78,73,68,64,23,24,6,5,0.6,0.6
2023-05-05T21:00:00,1313A,120.4581,36.0858,青岛市,崂山区子站,,,46,26,31,15,74,68,63,57,,21,7,7,0.4,0.4
2023-05-05T21:00:00,1314A,120.1983,35.9608,青岛市,黄岛区子站,,44,44,23,24,17,68,58,58,53,31,25,5,5,0.5,0.6
2023-05-05T21:00:00,1315A,120.3999,36.3083,青岛市,城阳区子站,,44,44,25,17,14,76,76,67,64,24,23,5,5,0.5,0.4
2023-05-05T21:00:00,1316A,113.69031,34.76122,郑州市,烟厂,,,22,28,17,16,113,79,98,98,,17,4,5,,0.9
2023-05-05T21:00:00,1317A,113.65724,34.77134,郑州市,郑纺机,,26,18,29,2,10,108,82,96,96,14,15,5,4,0.7,0.8
2023-05-05T21:00:00,1318A,113.67526,34.80246,郑州市,银行学校,,26,19,25,6,15,107,83,96,96,8,7,5,5,0.6,0.9
2023-05-05T21:00:00,1319A,113.56746,34.81334,郑州市,供水公司,,28,28,28,7,15,84,73,77,77,14,7,6,6,0.5,0.8
2023-05-05T21:00:00,1320A,113.7329,34.7178,郑州市,经开区管委,,,,24,,19,112,,102,102,14,14,2,2,0.6,0.8
2023-05-05T21:00:00,1321A,113.73961,34.77172,郑州市,四十七中,,26,19,25,8,21,113,82,100,100,12,12,4,4,0.6,0.8
2023-05-05T21:00:00,1322A,113.60532,34.74838,郑州市,市监测站,,28,19,33,8,16,108,88,99,97,12,13,12,10,0.7,0.9
2023-05-05T21:00:00,1323A,113.64164,34.7525,郑州市,河医大,,26,26,33,8,17,96,72,86,86,22,18,5,5,0.7,0.9
2023-05-05T21:00:00,1324A,113.51488,34.91089,郑州市,岗李水库,,27,16,33,6,15,100,85,85,85,12,16,7,6,0.7,0.9
2023-05-05T21:00:00,1325A,114.3677,30.5584,武汉市,东湖梨园,,27,22,18,12,8,105,85,97,95,11,13,6,5,0.5,0.7
2023-05-05T21:00:00,1326A,114.2529,30.558,武汉市,汉阳月湖,,25,25,18,7,7,96,73,90,86,14,16,6,6,0.6,0.7
2023-05-05T21:00:00,1327A,114.282,30.6189,武汉市,汉口花桥,,26,26,18,12,13,103,78,96,92,9,11,6,6,0.5,0.6
2023-05-05T21:00:00,1328A,114.3025,30.5332,武汉市,武昌紫阳,,24,21,18,13,12,105,74,98,92,15,16,6,4,0.6,0.7
2023-05-05T21:00:00,1329A,114.3646,30.6217,武汉市,青山钢花,,28,21,17,19,17,109,78,99,91,20,20,5,5,0.6,0.8
2023-05-05T21:00:00,1330A,114.1566,30.4825,武汉市,沌口新区,,28,28,24,15,14,98,62,84,79,12,16,6,6,0.5,0.6
2023-05-05T21:00:00,1331A,114.3014,30.5944,武汉市,汉口江滩,,27,26,14,9,10,102,84,98,94,11,15,6,6,0.6,0.7
2023-05-05T21:00:00,1333A,114.135,30.6319,武汉市,吴家山,,32,32,31,5,6,90,75,85,82,11,13,5,5,0.7,0.7
2023-05-05T21:00:00,1334A,113.8454,30.2917,武汉市,沉湖七壕,,26,24,25,10,10,114,82,107,102,11,8,12,12,0.5,0.6
2023-05-05T21:00:00,1335A,113.0833,28.2325,长沙市,经开区环保局,,25,11,9,17,13,97,71,87,81,12,6,3,3,0.8,0.5
2023-05-05T21:00:00,1336A,112.8872,28.2189,长沙市,高开区环保局,,27,11,11,13,19,96,85,88,86,4,4,6,6,0.7,0.3
2023-05-05T21:00:00,1337A,113.0792,28.2053,长沙市,马坡岭,,26,19,16,18,14,87,59,75,68,17,11,3,3,0.5,0.4
2023-05-05T21:00:00,1338A,112.9394,28.19,长沙市,湖南师范大学,,26,20,22,13,19,95,82,88,88,8,6,3,3,0.9,0.6
2023-05-05T21:00:00,1339A,113.0178,28.1322,长沙市,雨花区环保局,,21,12,13,13,12,97,65,90,81,17,13,5,5,0.7,0.5
2023-05-05T21:00:00,1340A,112.9792,28.2597,长沙市,伍家岭,,30,20,22,21,14,84,81,76,75,6,8,3,3,0.6,0.4
2023-05-05T21:00:00,1341A,113.0014,28.1944,长沙市,火车新站,,26,6,12,18,15,91,70,81,74,15,11,5,5,0.8,0.5
2023-05-05T21:00:00,1342A,112.9844,28.1178,长沙市,天心区环保局,,28,28,24,8,16,88,63,80,74,10,7,1,1,0.7,0.5
2023-05-05T21:00:00,1343A,112.8908,28.1308,长沙市,湖南中医药大学,,27,13,16,12,13,101,84,92,90,14,10,2,2,1.0,0.8
2023-05-05T21:00:00,1344A,112.9581,28.3611,长沙市,沙坪,,49,25,19,34,22,99,82,85,84,6,5,3,3,0.5,0.4
2023-05-05T21:00:00,1345A,113.2347,23.1423,广州市,广雅中学,,30,30,30,15,14,96,40,74,68,20,21,3,3,0.6,0.6
2023-05-05T21:00:00,1346A,113.2612,23.105,广州市,市五中,,32,32,30,18,18,100,43,81,73,17,17,8,7,0.5,0.5
2023-05-05T21:00:00,1348A,113.3478,23.0916,广州市,广东商学院,,33,33,30,18,13,79,29,61,56,23,20,3,3,0.5,0.5
2023-05-05T21:00:00,1349A,113.4332,23.1047,广州市,市八十六中,,29,29,30,14,9,104,20,71,46,26,23,3,3,0.6,0.7
2023-05-05T21:00:00,1350A,113.3505,22.9483,广州市,番禺中学,,29,29,26,12,13,92,30,77,67,25,17,6,6,0.5,0.5
2023-05-05T21:00:00,1351A,113.2146,23.3916,广州市,花都师范,,45,45,35,20,16,111,24,82,74,37,24,6,6,0.4,0.3
2023-05-05T21:00:00,1352A,113.2597,23.1331,广州市,市监测站,,25,25,34,12,17,87,39,70,63,17,19,5,6,0.8,1.3
2023-05-05T21:00:00,1353A,113.5618,23.312,广州市,九龙镇镇龙,,29,29,38,10,15,94,34,76,69,22,27,5,6,0.4,0.4
2023-05-05T21:00:00,1354A,113.2765,23.1544,广州市,麓湖,,29,29,28,11,13,104,42,77,72,16,16,6,5,0.6,0.6
2023-05-05T21:00:00,1355A,113.443,23.3035,广州市,帽峰山森林公园,,28,28,27,12,12,91,35,74,69,24,21,4,4,0.3,0.3
2023-05-05T21:00:00,1356A,114.1063,22.5545,深圳市,通心岭子站,,13,13,18,8,7,55,34,51,47,13,8,3,3,0.4,0.4
2023-05-05T21:00:00,1357A,114.117,22.5625,深圳市,洪湖,,23,23,20,10,8,67,39,62,56,16,11,8,8,0.5,0.5
2023-05-05T21:00:00,1358A,113.987,22.5417,深圳市,华侨城,,,20,21,6,9,57,,54,53,15,18,6,6,0.5,0.4
2023-05-05T21:00:00,1359A,113.9181,22.5171,深圳市,南海子站,,26,26,24,11,8,54,41,49,48,13,13,4,4,0.5,0.5
2023-05-05T21:00:00,1360A,114.2458,22.5689,深圳市,盐田,,21,21,25,9,10,85,43,57,50,8,19,4,5,0.5,0.5
2023-05-05T21:00:00,1361A,114.2283,22.7244,深圳市,龙岗,,20,20,21,8,8,80,38,66,58,21,15,3,2,0.5,0.5
2023-05-05T21:00:00,1363A,114.494,22.5422,深圳市,南澳,,18,18,17,8,5,59,52,52,52,8,8,8,6,0.4,0.4
2023-05-05T21:00:00,1364A,114.41,22.6342,深圳市,葵涌,,,,32,10,8,62,55,50,50,5,7,5,5,0.4,0.5
2023-05-05T21:00:00,1365A,114.297,22.5978,深圳市,梅沙,,26,21,27,18,30,79,46,65,58,15,17,5,5,0.3,0.4
2023-05-05T21:00:00,1366A,114.0678,22.738,深圳市,观澜,,34,34,47,10,9,60,39,53,50,20,23,5,4,0.8,0.6
2023-05-05T21:00:00,1367A,113.5814,22.2618,珠海市,吉大,,19,19,21,8,10,61,47,56,53,7,5,6,6,0.4,0.4
2023-05-05T21:00:00,1368A,113.4881,22.2335,珠海市,前山,,15,15,17,9,4,56,46,52,51,7,7,3,3,0.3,0.3
2023-05-05T21:00:00,1369A,113.628,22.4251,珠海市,唐家,,20,20,23,11,11,68,44,58,55,10,10,5,5,0.2,0.2
2023-05-05T21:00:00,1370A,113.299,22.2281,珠海市,斗门,,15,15,18,7,8,57,44,52,50,4,7,5,5,0.4,0.4
2023-05-05T21:00:00,1371A,113.1294,23.0067,佛山市,湾梁,,29,29,30,12,12,98,44,84,76,12,12,10,10,0.5,0.5
2023-05-05T21:00:00,1372A,113.1083,23.0478,佛山市,华材职中,,27,27,24,13,12,95,46,83,76,14,14,7,8,0.4,0.4
2023-05-05T21:00:00,1373A,113.144,23.0453,佛山市,南海气象局,,18,3,33,12,13,79,29,64,57,21,19,5,5,0.5,0.5
2023-05-05T21:00:00,1374A,113.2881,22.8094,佛山市,顺德苏岗,,19,19,14,12,11,67,33,57,50,10,11,4,4,0.6,0.5
2023-05-05T21:00:00,1376A,112.8383,22.8678,佛山市,高明孔堂,,16,14,23,9,11,67,49,63,60,6,8,3,4,0.5,0.5
2023-05-05T21:00:00,1377A,112.8836,23.1588,佛山市,三水监测站,,29,29,26,11,14,79,38,65,58,18,22,6,6,0.5,0.5
2023-05-05T21:00:00,1378A,112.867,23.185,佛山市,三水云东海,,34,34,31,10,11,85,41,70,64,15,19,4,4,0.4,0.4
2023-05-05T21:00:00,1379A,113.3769,22.5211,中山市,华柏园,,17,8,20,8,10,68,53,62,60,6,8,4,5,0.5,0.5
2023-05-05T21:00:00,1380A,113.3881,22.5497,中山市,张溪,,16,9,22,6,10,68,49,65,60,3,6,2,2,0.4,0.4
2023-05-05T21:00:00,1381A,113.4075,22.5111,中山市,紫马岭,,15,7,20,9,9,70,48,65,60,4,5,4,4,0.2,0.2
2023-05-05T21:00:00,1382A,113.4411,22.4853,中山市,长江旅游区,,19,19,17,8,9,69,48,64,60,5,5,7,7,0.3,0.3
2023-05-05T21:00:00,1383A,113.1064,22.6058,江门市,北街,,14,12,24,8,8,63,44,60,56,8,10,5,5,0.4,0.4
2023-05-05T21:00:00,1384A,113.0731,22.5835,江门市,西区,,27,27,23,13,12,65,46,62,57,7,8,6,6,0.4,0.4
2023-05-05T21:00:00,1385A,113.0219,22.5311,江门市,圭峰西,,23,23,27,8,11,65,43,60,54,7,6,1,2,0.6,0.5
2023-05-05T21:00:00,1386A,113.0828,22.5947,江门市,东湖,,21,21,23,10,10,67,49,64,59,7,8,6,6,0.4,0.4
2023-05-05T21:00:00,1389A,113.7547,23.0494,东莞市,莞城梨川,,20,20,25,8,10,88,48,78,71,10,17,7,8,0.5,0.5
2023-05-05T21:00:00,1390A,113.7944,23.0128,东莞市,东城石井,,20,20,24,7,10,90,48,80,73,10,19,9,9,0.4,0.5
2023-05-05T21:00:00,1391A,113.7383,22.9658,东莞市,南城西平,,22,20,22,15,9,89,62,81,72,8,17,6,6,0.5,0.5
2023-05-05T21:00:00,1392A,114.4183,23.0528,惠州市,河南岸金山湖子站,,37,37,33,9,11,98,40,83,75,13,11,4,3,0.4,0.4
2023-05-05T21:00:00,1393A,114.4053,23.0822,惠州市,下埔横江三路子站,,25,25,27,9,11,108,46,93,85,12,10,4,4,0.5,0.5
2023-05-05T21:00:00,1394A,114.4103,23.1142,惠州市,江北云山西路子站,,,62,28,12,12,121,,100,98,10,7,6,6,0.4,0.4
2023-05-05T21:00:00,1395A,114.4645,22.7833,惠州市,惠阳区承修路船湖子站,,21,21,29,11,10,78,44,68,63,8,11,4,4,0.4,0.4
2023-05-05T21:00:00,1396A,114.5317,22.7422,惠州市,大亚湾管委会子站,,,,43,21,14,70,45,66,59,16,15,8,8,0.4,0.4
2023-05-05T21:00:00,1397A,112.4267,23.0706,肇庆市,睦岗子站,,25,25,23,10,10,68,43,64,61,11,10,11,10,0.4,0.3
2023-05-05T21:00:00,1398A,112.4645,23.0475,肇庆市,城中子站,,25,25,22,11,11,68,40,62,58,15,13,15,13,0.4,0.4
2023-05-05T21:00:00,1399A,112.5544,23.1522,肇庆市,坑口子站,,21,21,20,11,10,81,52,74,70,12,12,9,7,0.2,0.2
2023-05-05T21:00:00,1400A,112.4753,23.1,肇庆市,七星岩子站,,,,,,,,,,,,,,,,
2023-05-05T21:00:00,1401A,108.3103,22.7881,南宁市,二十一中,,39,36,37,27,20,100,77,94,91,9,8,5,5,0.8,0.7
2023-05-05T21:00:00,1402A,108.3141,22.8528,南宁市,北湖,颗粒物(PM10),55,60,39,27,16,97,71,90,84,9,8,7,7,0.6,0.5
2023-05-05T21:00:00,1403A,108.3206,22.8225,南宁市,市监测站,,45,35,36,31,22,98,73,91,86,17,14,9,8,0.8,0.7
2023-05-05T21:00:00,1404A,108.3829,22.8037,南宁市,大自然花园,颗粒物(PM10),60,70,38,23,19,81,69,75,74,10,9,5,5,0.8,0.7
2023-05-05T21:00:00,1405A,108.4394,22.7904,南宁市,仙葫,,40,40,34,24,15,83,77,82,81,13,10,5,5,0.6,0.5
2023-05-05T21:00:00,1406A,108.2397,22.8467,南宁市,区农职院,颗粒物(PM10),59,68,45,31,24,104,69,95,89,16,15,7,7,0.7,0.6
2023-05-05T21:00:00,1407A,108.3275,22.735,南宁市,英华嘉园,细颗粒物(PM2.5),54,43,44,38,21,82,70,76,76,13,14,6,6,0.6,0.6
2023-05-05T21:00:00,1408A,108.2257,22.7757,南宁市,沙井镇街道办,颗粒物(PM10),52,53,47,27,20,91,61,86,81,21,21,4,5,0.6,0.7
2023-05-05T21:00:00,1409A,110.576,19.9507,海口市,东寨港,,,12,19,17,10,35,17,30,24,,,7,7,0.5,0.5
2023-05-05T21:00:00,1410A,110.3232,20.0574,海口市,海南大学,,40,40,30,16,12,88,46,81,72,6,6,6,6,0.3,0.3
2023-05-05T21:00:00,1411A,110.283,20.0053,海口市,秀英海南医院,,38,38,29,19,14,84,29,75,58,23,15,4,4,0.4,0.3
2023-05-05T21:00:00,1412A,110.338,19.9969,海口市,海南师范大学,,36,36,28,17,13,79,37,71,62,8,7,4,4,0.3,0.3
2023-05-05T21:00:00,1413A,110.33,20.0356,海口市,龙华路环保局宿舍,,39,39,29,16,13,57,29,52,45,7,7,5,5,0.3,0.3
2023-05-05T21:00:00,1414A,106.3787,29.8279,重庆市,缙云山,,34,34,23,13,10,136,106,121,121,11,8,9,9,0.4,0.5
2023-05-05T21:00:00,1416A,106.4213,29.8253,重庆市,天生,,28,24,39,13,25,133,89,118,116,11,24,6,7,0.8,0.8
2023-05-05T21:00:00,1417A,106.6263,29.7228,重庆市,两路,,45,45,34,24,20,142,64,114,113,38,30,6,7,0.8,0.9
2023-05-05T21:00:00,1418A,106.2953,29.5983,重庆市,虎溪,,49,47,38,34,23,160,121,142,142,22,23,5,6,0.7,0.7
2023-05-05T21:00:00,1419A,106.5777,29.5102,重庆市,南坪,,49,45,36,34,24,157,79,123,123,29,29,7,7,0.7,0.6
2023-05-05T21:00:00,1420A,106.6556,29.6277,重庆市,唐家沱,,50,48,32,35,24,162,83,125,125,18,22,8,7,0.8,0.8
2023-05-05T21:00:00,1421A,106.6349,29.4906,重庆市,茶园,,47,47,37,26,20,162,86,125,125,26,28,5,5,0.8,0.8
2023-05-05T21:00:00,1422A,106.3754,29.4572,重庆市,白市驿,,44,44,38,27,23,138,98,120,120,25,20,9,9,0.9,0.7
2023-05-05T21:00:00,1425A,106.6205,29.7166,重庆市,空港,,,46,37,24,20,159,79,127,127,26,20,7,8,,0.7
2023-05-05T21:00:00,1426A,106.4782,29.4875,重庆市,新山村,颗粒物(PM10),60,69,44,30,21,141,86,108,108,31,35,8,7,0.7,0.6
2023-05-05T21:00:00,1427A,106.5616,29.6453,重庆市,礼嘉,,45,45,39,25,20,149,65,121,121,39,29,8,8,0.8,0.8
2023-05-05T21:00:00,1428A,106.4522,29.7091,重庆市,蔡家,,41,41,44,26,16,152,95,134,133,14,20,7,8,0.6,0.7
2023-05-05T21:00:00,1429A,106.5093,29.3917,重庆市,鱼新街,,46,46,33,28,17,168,106,137,137,23,21,6,5,1.0,0.9
2023-05-05T21:00:00,1431A,103.9728,30.7236,成都市,金泉两河,,,,74,,35,128,,120,120,,22,,2,,0.4
2023-05-05T21:00:00,1432A,104.176,30.6872,成都市,十里店,颗粒物(PM10),87,123,89,52,41,131,79,108,108,28,25,6,2,0.5,0.5
2023-05-05T21:00:00,1433A,104.079,30.5706,成都市,三瓦窑,颗粒物(PM10),86,121,84,41,40,119,78,95,95,34,32,2,2,0.4,0.4
2023-05-05T21:00:00,1434A,104.1114,30.63,成都市,沙河铺,颗粒物(PM10),80,110,79,37,35,129,77,100,100,27,22,4,2,0.5,0.5
2023-05-05T21:00:00,1437A,104.0786,30.6531,成都市,君平街,颗粒物(PM10),86,122,82,42,39,128,90,117,114,33,30,2,3,0.5,0.5
2023-05-05T21:00:00,1438A,103.613,31.0283,成都市,灵岩寺,,,76,52,,19,132,96,120,119,10,6,3,4,0.7,0.6
2023-05-05T21:00:00,1439A,106.6899,26.5998,贵阳市,马鞍山,,41,41,32,19,21,140,92,127,122,14,10,4,4,0.4,0.5
2023-05-05T21:00:00,1440A,106.6971,26.5694,贵阳市,市环保站,"颗粒物(PM10),细颗粒物(PM2.5)",52,53,41,36,31,144,103,125,122,18,17,4,4,0.3,0.3
2023-05-05T21:00:00,1441A,106.6243,26.6266,贵阳市,鉴湖路,颗粒物(PM10),53,56,42,29,23,145,96,130,126,14,9,4,4,0.2,0.2
2023-05-05T21:00:00,1442A,106.7487,26.6343,贵阳市,燕子冲,,48,48,42,31,31,151,102,137,132,14,13,7,6,0.6,0.7
2023-05-05T21:00:00,1443A,106.6555,26.4365,贵阳市,碧云窝,颗粒物(PM10),53,56,43,27,20,130,108,122,121,7,8,5,5,0.4,0.4
2023-05-05T21:00:00,1444A,106.694,26.5161,贵阳市,中院村,,48,48,44,22,22,132,93,116,112,18,16,7,7,0.5,0.5
2023-05-05T21:00:00,1445A,106.7109,26.6027,贵阳市,红边门,,,,43,,29,146,,128,123,39,20,4,5,0.6,0.5
2023-05-05T21:00:00,1446A,106.7164,26.5699,贵阳市,新华路,颗粒物(PM10),51,51,45,27,26,144,101,128,123,16,13,5,4,0.4,0.5
2023-05-05T21:00:00,1447A,106.674,26.5424,贵阳市,太慈桥,颗粒物(PM10),51,51,41,27,20,140,103,126,123,13,9,6,5,0.5,0.4
2023-05-05T21:00:00,1450A,102.8204,24.8886,昆明市,呈贡新区,,32,32,22,13,13,120,92,114,107,12,8,7,7,0.5,0.5
2023-05-05T21:00:00,1451A,102.6251,24.9608,昆明市,西山森林公园,,36,17,19,2,12,126,113,120,117,11,13,6,10,0.6,0.8
2023-05-05T21:00:00,1452A,102.7252,25.0902,昆明市,龙泉镇,,,,20,,9,110,,107,104,14,9,6,8,0.3,0.3
2023-05-05T21:00:00,1453A,102.7266,25.0375,昆明市,东风东路,,27,21,25,3,16,104,85,97,88,11,10,7,7,0.6,0.6
2023-05-05T21:00:00,1454A,102.6742,25.0669,昆明市,金鼎山,,29,16,23,16,12,114,92,106,102,14,14,4,3,0.6,0.5
2023-05-05T21:00:00,1455A,102.6644,25.0401,昆明市,碧鸡广场,,29,22,21,16,11,113,92,106,102,14,11,6,6,0.4,0.4
2023-05-05T21:00:00,1456A,91.1319,29.6514,拉萨市,八廓街,,44,18,18,7,7,160,139,156,154,22,12,6,6,0.3,0.2
2023-05-05T21:00:00,1457A,91.1221,29.6747,拉萨市,市环保局,,45,11,15,0,6,168,142,164,162,24,9,5,5,0.5,0.4
2023-05-05T21:00:00,1458A,91.0874,29.6475,拉萨市,区监测站,,43,8,16,4,6,159,136,155,153,27,12,7,7,0.2,0.2
2023-05-05T21:00:00,1459A,91.1774,29.6541,拉萨市,西藏大学,,48,16,16,11,7,164,152,161,161,14,9,8,8,0.3,0.5
2023-05-05T21:00:00,1460A,90.9798,29.6588,拉萨市,区辐射站,,40,18,23,7,8,152,125,146,144,32,15,7,8,0.6,0.5
2023-05-05T21:00:00,1461A,91.0834,29.6292,拉萨市,拉萨火车站,,,,17,26,5,158,138,155,153,22,8,8,8,0.3,0.3
2023-05-05T21:00:00,1462A,108.882,34.2749,西安市,高压开关厂,颗粒物(PM10),58,66,101,28,36,96,55,78,66,26,25,8,8,0.3,0.3
2023-05-05T21:00:00,1463A,108.993,34.2629,西安市,兴庆小区,,44,44,95,25,38,83,40,69,56,22,17,5,5,0.5,0.8
2023-05-05T21:00:00,1464A,109.06,34.2572,西安市,纺织城,颗粒物(PM10),54,57,106,31,43,96,31,82,62,34,23,4,5,0.4,0.4
2023-05-05T21:00:00,1465A,108.9356,34.2173,西安市,小寨,颗粒物(PM10),58,66,90,28,33,89,45,75,62,22,18,7,7,0.6,0.5
2023-05-05T21:00:00,1466A,108.954,34.2713,西安市,市人民体育场,,50,50,99,25,33,88,38,73,56,20,19,6,6,0.6,0.4
2023-05-05T21:00:00,1467A,108.8922,34.2322,西安市,高新西区,,49,49,95,26,37,98,56,81,68,22,18,6,7,0.5,0.4
2023-05-05T21:00:00,1468A,108.935,34.3474,西安市,经开区,,50,50,96,29,37,81,43,70,60,27,23,2,3,0.3,0.3
2023-05-05T21:00:00,1469A,108.906,34.1546,西安市,长安区,颗粒物(PM10),52,54,97,34,38,96,58,84,74,20,18,5,6,0.4,0.4
2023-05-05T21:00:00,1471A,109.2186,34.3731,西安市,临潼区,颗粒物(PM10),54,57,102,30,45,91,71,80,76,17,18,6,7,0.6,0.5
2023-05-05T21:00:00,1472A,108.869,34.378,西安市,草滩,颗粒物(PM10),53,55,90,27,35,83,17,70,52,50,29,3,9,2.6,2.4
2023-05-05T21:00:00,1473A,108.985,34.1978,西安市,曲江文化产业集团,颗粒物(PM10),52,53,104,30,37,100,54,86,72,28,21,4,5,0.5,0.3
2023-05-05T21:00:00,1474A,109.051,34.3213,西安市,广运潭,颗粒物(PM10),52,54,100,27,37,78,38,71,56,31,26,5,6,0.5,0.4
2023-05-05T21:00:00,1476A,103.631,36.1031,兰州市,兰炼宾馆,细颗粒物(PM2.5),60,64,76,43,43,109,88,104,100,28,18,5,7,0.4,0.4
2023-05-05T21:00:00,1477A,104.1373,35.9454,兰州市,榆中兰大校区,,,,,,,,,,,,,,,,
2023-05-05T21:00:00,1478A,103.8412,36.0726,兰州市,生物制品所,颗粒物(PM10),56,61,72,32,38,107,82,101,96,30,19,6,9,0.5,0.5
2023-05-05T21:00:00,1479A,103.831,36.0464,兰州市,铁路设计院,细颗粒物(PM2.5),55,51,67,39,37,115,86,104,100,30,24,3,6,0.5,0.5
2023-05-05T21:00:00,1483A,101.524,36.6867,西宁市,第五水厂,,,,,,,,,,,,,,,,
2023-05-05T21:00:00,1484A,105.9512,38.6016,银川市,贺兰山马莲口,,43,36,73,30,34,124,95,110,110,10,14,11,16,0.5,0.7
2023-05-05T21:00:00,1488A,106.2328,38.4975,银川市,贺兰山东路,颗粒物(PM10),52,53,126,28,62,113,94,94,94,16,26,4,10,0.2,0.6
2023-05-05T21:00:00,1489A,106.1358,38.5036,银川市,学院路,颗粒物(PM10),57,63,131,21,59,110,76,96,96,25,29,8,12,0.3,0.7
2023-05-05T21:00:00,1490A,87.5801,43.8303,乌鲁木齐市,监测站,,31,31,32,7,9,93,84,89,89,18,24,5,4,0.4,0.5
2023-05-05T21:00:00,1491A,87.6046,43.768,乌鲁木齐市,收费所,,32,32,45,12,14,87,73,82,82,19,22,4,4,0.3,0.4
2023-05-05T21:00:00,1492A,87.4754,43.9469,乌鲁木齐市,新疆农科院农场,细颗粒物(PM2.5),54,29,58,38,52,90,85,86,86,13,33,5,5,0.4,0.5
2023-05-05T21:00:00,1493A,87.5525,43.8711,乌鲁木齐市,铁路局,,31,31,32,11,14,95,84,90,90,15,25,4,4,0.4,0.4
2023-05-05T21:00:00,1494A,87.6432,43.831,乌鲁木齐市,三十一中学,,35,35,28,12,12,100,87,94,94,17,20,8,8,0.3,0.3
2023-05-05T21:00:00,1496A,87.7216,44.1747,乌鲁木齐市,米东区环保局,,32,29,44,10,15,106,101,102,102,2,16,8,9,0.2,0.2
2023-05-05T21:00:00,1508A,112.9433,27.8614,湘潭市,板塘,,18,12,24,8,14,81,55,73,62,17,19,4,4,0.3,0.1
2023-05-05T21:00:00,1511A,112.9118,27.8403,湘潭市,市监测站,,21,10,21,10,16,87,65,82,72,17,16,6,6,0.5,0.1
2023-05-05T21:00:00,1512A,112.8937,27.8728,湘潭市,江麓,,22,11,26,7,17,93,69,87,74,6,6,5,5,0.4,0.2
2023-05-05T21:00:00,1513A,112.9227,27.8159,湘潭市,岳塘,,18,0,28,12,20,92,56,84,68,16,11,8,7,0.8,0.4
2023-05-05T21:00:00,1514A,112.9074,27.9119,湘潭市,科大,,21,11,22,6,16,89,65,83,69,14,12,3,4,0.4,0.2
2023-05-05T21:00:00,1515A,113.135,27.8244,株洲市,天台山庄,,24,24,22,10,19,114,66,90,85,14,9,5,6,0.7,0.5
2023-05-05T21:00:00,1518A,113.095,27.8867,株洲市,株冶医院,,20,19,29,10,17,110,62,86,82,19,16,4,4,0.6,0.4
2023-05-05T21:00:00,1519A,113.167,27.8667,株洲市,市四中,,18,12,16,12,16,110,56,84,77,12,9,8,8,0.8,0.6
2023-05-05T21:00:00,1520A,113.143,27.8381,株洲市,火车站,,22,12,24,15,18,115,60,92,84,18,12,4,6,0.7,0.5
2023-05-05T21:00:00,1524A,113.13,27.8528,株洲市,市监测站,,22,22,22,12,21,118,60,95,87,16,12,2,2,0.8,0.6
2023-05-05T21:00:00,1552A,106.805,26.3003,贵阳市,桐木岭,,49,49,50,33,30,119,94,110,108,3,2,1,2,0.3,0.2
2023-05-05T21:00:00,1559A,113.251,27.8336,株洲市,大京风景区,,19,19,20,8,13,102,55,86,79,14,6,5,4,0.6,0.4
2023-05-05T21:00:00,1562A,113.0048,27.9153,湘潭市,昭山,,24,24,26,12,15,95,65,82,68,14,12,2,2,0.8,0.7
2023-05-05T21:00:00,1564A,112.4876,27.9164,湘潭市,韶山,,18,8,18,5,8,66,55,55,47,12,14,4,4,1.0,0.8
2023-05-05T21:00:00,1585A,109.8756,40.6532,包头市,市环境监测站,,29,29,19,8,10,103,79,100,88,14,8,9,9,0.4,0.4
2023-05-05T21:00:00,1587A,109.9991,40.5842,包头市,包头八中,,36,36,21,14,7,127,70,121,97,22,13,10,10,0.5,0.5
2023-05-05T21:00:00,1588A,109.8538,40.6821,包头市,青山宾馆,,31,31,16,11,6,97,80,93,84,12,9,7,7,0.5,0.5
2023-05-05T21:00:00,1589A,109.8642,40.6288,包头市,惠龙物流,,30,30,18,12,10,102,80,99,88,16,10,7,7,0.5,0.5
2023-05-05T21:00:00,1590A,110.0377,40.5546,包头市,东河鸿龙湾,颗粒物(PM10),63,75,21,15,9,104,60,100,91,21,10,5,5,0.6,0.5
2023-05-05T21:00:00,1591A,110.0023,39.8129,鄂尔多斯市,综合楼,,41,41,29,9,12,114,68,107,102,23,16,8,10,0.6,0.7
2023-05-05T21:00:00,1592A,109.9486,39.8261,鄂尔多斯市,巴音孟克林场办事处,,41,41,31,12,15,118,72,109,104,21,14,22,9,0.6,0.7
2023-05-05T21:00:00,1593A,109.7736,39.5986,鄂尔多斯市,康泽苑,,36,36,34,13,17,110,82,106,103,16,11,8,9,0.5,0.6
2023-05-05T21:00:00,1594A,109.8119,39.5989,鄂尔多斯市,华泰汽车城,,31,31,33,12,18,110,79,106,103,17,10,7,8,0.4,0.5
2023-05-05T21:00:00,1595A,109.9734,39.7884,鄂尔多斯市,奥林花园,,39,39,33,17,15,120,79,110,106,17,13,6,7,0.6,0.7
2023-05-05T21:00:00,1597A,122.2703,40.7094,营口市,大庆路,颗粒物(PM10),53,55,38,2,24,114,86,101,101,18,17,4,5,0.4,0.6
2023-05-05T21:00:00,1598A,122.2150,40.6511,营口市,镜湖西路,,48,48,41,5,20,101,78,90,90,15,16,6,7,0.2,0.5
2023-05-05T21:00:00,1599A,122.1658,40.6789,营口市,西炮台,颗粒物(PM10),56,62,38,13,19,112,87,101,101,18,17,9,8,0.3,0.5
2023-05-05T21:00:00,1600A,124.3303,40.0625,丹东市,江湾东路,,39,27,22,27,15,94,85,91,91,4,8,6,7,0.5,0.6
2023-05-05T21:00:00,1601A,124.4256,40.1503,丹东市,临江后街,,29,22,17,20,11,90,78,84,83,6,7,11,11,0.6,0.6
2023-05-05T21:00:00,1602A,124.3933,40.1461,丹东市,元宝山,颗粒物(PM10),54,58,34,35,15,84,72,79,78,6,7,7,8,0.7,0.6
2023-05-05T21:00:00,1603A,124.3633,40.1092,丹东市,民主桥,,26,24,19,18,14,85,79,80,80,8,17,5,5,0.6,0.7
2023-05-05T21:00:00,1604A,122.0303,41.1489,盘锦市,开发区,颗粒物(PM10),96,141,80,17,22,102,86,97,96,10,13,5,5,0.7,0.8
2023-05-05T21:00:00,1605A,122.0485,41.0883,盘锦市,兴隆台,颗粒物(PM10),85,120,62,15,19,102,83,93,91,16,17,5,6,0.5,0.7
2023-05-05T21:00:00,1606A,121.8297,41.1028,盘锦市,新生街道,颗粒物(PM10),109,168,94,16,18,98,80,94,91,18,16,5,6,0.5,0.6
2023-05-05T21:00:00,1607A,120.9092,40.7136,葫芦岛市,龙港区,,48,48,48,8,18,106,82,99,96,22,18,15,19,0.2,0.5
2023-05-05T21:00:00,1608A,120.8392,40.7514,葫芦岛市,化工街,颗粒物(PM10),60,70,39,14,11,106,82,98,96,12,6,12,8,0.3,0.4
2023-05-05T21:00:00,1609A,120.8341,40.7073,葫芦岛市,新区,颗粒物(PM10),51,51,38,10,14,109,87,101,99,18,12,16,12,0.4,0.5
2023-05-05T21:00:00,1610A,120.8695,40.7677,葫芦岛市,东城区,,,,26,6,10,111,93,101,100,11,8,10,10,0.3,0.5
2023-05-05T21:00:00,1611A,118.5819,24.9117,泉州市,涂山街,,22,20,22,15,9,77,46,66,59,19,10,7,6,0.5,0.5
2023-05-05T21:00:00,1612A,118.5972,24.8978,泉州市,津头埔,,,25,23,14,13,73,,63,57,22,14,6,8,0.5,0.4
2023-05-05T21:00:00,1613A,118.6663,24.9424,泉州市,万安,,32,32,23,7,13,81,46,70,62,11,4,7,7,0.6,0.5
2023-05-05T21:00:00,1614A,118.6117,24.9604,泉州市,清源山,,,,,,,,,,,,,,,,
2023-05-05T21:00:00,1616A,117.6795,36.229,济南市,技术学院,颗粒物(PM10),53,56,18,11,8,95,90,85,85,23,19,8,7,0.4,0.6
2023-05-05T21:00:00,1618A,118.3429,35.0532,临沂市,沂河小区,,39,39,32,27,20,86,86,68,68,8,15,6,7,0.2,0.4
2023-05-05T21:00:00,1619A,118.295,35.0583,临沂市,鲁南制药厂,,34,34,29,17,18,91,91,74,74,12,27,8,9,0.3,0.5
2023-05-05T21:00:00,1620A,118.2794,34.9976,临沂市,新光毛纺厂,,27,27,28,13,16,76,76,65,65,14,24,4,5,0.4,0.6
2023-05-05T21:00:00,1621A,118.3956,35.0888,临沂市,河东保险公司,,41,41,32,17,19,92,92,73,73,14,24,7,8,0.4,0.6
2023-05-05T21:00:00,1622A,116.3032,37.4674,德州市,儿童乐园,颗粒物(PM10),51,51,17,31,15,95,60,82,80,28,11,3,4,0.6,0.5
2023-05-05T21:00:00,1624A,116.2991,37.4451,德州市,监理站,颗粒物(PM10),51,52,23,29,12,106,69,92,90,30,15,8,10,0.6,0.6
2023-05-05T21:00:00,1625A,115.9848,36.4372,聊城市,区政府,,44,44,18,24,14,88,85,80,80,18,13,6,5,0.6,0.7
2023-05-05T21:00:00,1628A,118.0062,37.3803,滨州市,市环保局,,40,40,23,19,14,98,82,87,87,14,8,5,4,0.4,0.4
2023-05-05T21:00:00,1629A,118.0018,37.3617,滨州市,第二水厂,,46,46,22,22,13,97,83,88,88,24,14,4,2,0.4,0.4
2023-05-05T21:00:00,1630A,117.9776,37.393,滨州市,北中新校,,44,44,27,19,15,89,75,82,81,18,10,4,4,0.3,0.3
2023-05-05T21:00:00,1631A,118.0414,36.8103,淄博市,人民公园,颗粒物(PM10),51,51,25,18,30,88,53,75,74,24,9,7,8,0.5,0.3
2023-05-05T21:00:00,1633A,117.8525,36.4847,淄博市,双山,,40,40,15,17,9,86,67,77,77,32,18,9,7,0.3,0.3
2023-05-05T21:00:00,1634A,117.9592,36.6331,淄博市,气象站,,45,45,23,24,16,83,45,74,72,38,16,8,7,0.6,0.4
2023-05-05T21:00:00,1635A,118.3092,36.8194,淄博市,莆田园,,48,48,24,14,17,92,44,80,76,37,12,9,8,0.3,0.2
2023-05-05T21:00:00,1637A,117.558,34.8438,枣庄市,市中区政府,,27,27,32,14,21,82,66,72,72,21,19,5,7,0.7,0.5
2023-05-05T21:00:00,1638A,117.2852,34.7837,枣庄市,薛城环保局,,29,29,33,12,24,76,64,71,71,23,19,8,8,0.5,0.5
2023-05-05T21:00:00,1639A,117.5852,34.7745,枣庄市,峄城区政府,,31,31,40,7,21,73,66,62,62,18,18,10,10,0.5,0.5
2023-05-05T21:00:00,1640A,117.7276,34.5578,枣庄市,台儿庄区环保局,,22,22,32,9,24,65,65,52,52,22,19,9,9,0.7,0.8
2023-05-05T21:00:00,1641A,117.4518,35.0992,枣庄市,山亭区环保局,,24,22,23,7,17,90,75,79,79,18,17,6,6,0.3,0.3
2023-05-05T21:00:00,1642A,121.2514,37.5639,烟台市,开发区,颗粒物(PM10),53,56,20,19,13,102,101,85,85,13,17,4,8,0.4,0.5
2023-05-05T21:00:00,1643A,121.3719,37.5433,烟台市,轴承厂,细颗粒物(PM2.5),67,58,19,48,20,87,83,75,75,21,15,7,7,0.7,0.5
2023-05-05T21:00:00,1644A,121.3181,37.5436,烟台市,西郊化工站,颗粒物(PM10),52,53,18,17,12,105,102,88,88,14,14,5,4,0.3,0.4
2023-05-05T21:00:00,1645A,121.4478,37.4822,烟台市,莱山环保局,,,,12,,11,103,101,87,87,11,8,10,9,0.4,0.4
2023-05-05T21:00:00,1646A,121.2611,37.4967,烟台市,福山环保局,颗粒物(PM10),51,51,21,17,11,100,98,85,85,19,18,9,9,0.1,0.1
2023-05-05T21:00:00,1650A,119.1437,36.7023,潍坊市,环保局,颗粒物(PM10),95,139,35,23,17,110,108,98,98,12,15,7,7,0.5,0.6
2023-05-05T21:00:00,1653A,116.6251,35.4302,济宁市,火炬城,,34,34,28,9,13,88,84,78,78,12,10,10,10,0.6,0.7
2023-05-05T21:00:00,1655A,116.5491,35.4042,济宁市,电化厂,,45,45,35,14,13,87,80,75,74,8,9,6,7,0.5,0.6
2023-05-05T21:00:00,1656A,117.1437,36.1937,泰安市,监测站,颗粒物(PM10),75,100,21,9,12,112,112,95,95,6,12,5,4,0.4,0.4
2023-05-05T21:00:00,1657A,117.0885,36.2017,泰安市,人口学校,颗粒物(PM10),79,107,26,16,8,108,108,90,90,1,8,5,4,0.3,0.3
2023-05-05T21:00:00,1658A,117.1089,36.1758,泰安市,电力学校,颗粒物(PM10),64,78,18,9,8,117,117,98,98,7,10,8,7,0.3,0.3
2023-05-05T21:00:00,1659A,119.471,35.4209,日照市,监测站,,27,27,22,17,15,77,77,66,66,18,24,3,3,0.3,0.4
2023-05-05T21:00:00,1660A,119.523,35.4216,日照市,市政府广场,,36,36,25,16,15,89,89,76,76,9,16,4,4,0.3,0.4
2023-05-05T21:00:00,1661A,119.5587,35.4044,日照市,港务局,,36,36,24,22,13,93,93,80,80,14,20,5,6,0.4,0.4
2023-05-05T21:00:00,1662A,122.1214,37.4236,威海市,华夏技校,,,9,3,27,8,88,,82,82,11,11,1,3,0.5,0.3
2023-05-05T21:00:00,1663A,122.0508,37.5236,威海市,山大分校,细颗粒物(PM2.5),55,51,10,39,9,84,67,71,67,22,14,2,2,0.6,0.4
2023-05-05T21:00:00,1664A,122.1067,37.5072,威海市,市监测站,细颗粒物(PM2.5),59,42,9,42,8,80,80,73,73,14,17,4,4,0.7,0.5
2023-05-05T21:00:00,1666A,118.6614,37.4309,东营市,市环保局,,41,41,21,12,10,106,102,99,99,12,10,8,7,0.6,0.7
2023-05-05T21:00:00,1669A,113.5824,24.7733,韶关市,市八中,,47,47,34,21,15,90,34,72,58,30,18,6,11,0.6,0.5
2023-05-05T21:00:00,1671A,113.5917,24.7972,韶关市,园林处,,37,37,33,22,16,74,49,72,65,18,13,8,8,0.8,0.6
2023-05-05T21:00:00,1672A,113.6735,24.7791,韶关市,韶关学院,,33,33,36,23,22,78,39,66,59,21,16,11,11,0.5,0.5
2023-05-05T21:00:00,1673A,113.5971,24.6863,韶关市,曲江监测站,颗粒物(PM10),55,59,37,32,17,103,32,75,64,33,14,13,10,0.8,0.5
2023-05-05T21:00:00,1674A,116.6794,23.3667,汕头市,金平子站,,18,15,23,11,12,66,56,57,54,17,14,8,7,0.6,0.7
2023-05-05T21:00:00,1675A,116.7244,23.3633,汕头市,龙湖子站,,22,21,22,8,12,72,69,68,68,10,9,3,3,0.4,0.5
2023-05-05T21:00:00,1676A,116.7258,23.2775,汕头市,濠江子站,,23,19,22,16,10,78,58,66,66,13,10,7,7,0.5,0.5
2023-05-05T21:00:00,1677A,116.7519,23.4714,汕头市,澄海子站,,25,25,29,8,13,86,55,74,65,20,14,10,5,0.6,0.5
2023-05-05T21:00:00,1678A,116.6092,23.2539,汕头市,潮阳子站,,25,25,24,6,14,75,71,68,68,9,7,9,9,0.4,0.4
2023-05-05T21:00:00,1680A,110.3539,21.2706,湛江市,湛江影剧院,,32,32,32,15,13,100,39,82,69,11,7,6,6,0.4,0.4
2023-05-05T21:00:00,1681A,110.3928,21.2228,湛江市,市环境监测站,,35,35,29,20,13,89,36,72,61,13,7,7,7,0.4,0.4
2023-05-05T21:00:00,1682A,110.4019,21.1997,湛江市,环保局宿舍,,38,38,28,14,13,94,40,75,67,12,8,5,5,0.5,0.4
2023-05-05T21:00:00,1683A,110.4111,21.2028,湛江市,霞山游泳场,颗粒物(PM10),51,52,30,23,18,89,43,72,63,9,8,5,6,0.4,0.4
2023-05-05T21:00:00,1684A,110.3316,21.2679,湛江市,麻章区环保局,,36,36,34,16,14,121,36,94,80,17,11,7,6,0.6,0.5
2023-05-05T21:00:00,1685A,110.4558,21.2567,湛江市,坡头区环保局,,28,28,25,11,12,81,43,72,63,7,6,6,7,0.4,0.5
2023-05-05T21:00:00,1686A,111.0286,21.4688,茂名市,电白南海,,22,22,25,12,13,55,47,52,49,4,4,4,5,0.4,0.4
2023-05-05T21:00:00,1687A,110.9294,21.6533,茂名市,茂石化七小,,30,30,26,13,11,57,48,54,53,5,6,4,4,0.4,0.5
2023-05-05T21:00:00,1688A,110.9107,21.6687,茂名市,健康路,,22,22,20,11,7,61,49,58,56,5,5,5,5,0.5,0.5
2023-05-05T21:00:00,1689A,110.8592,21.6828,茂名市,高岭,,34,34,30,14,15,66,50,59,57,6,7,3,4,0.5,0.5
2023-05-05T21:00:00,1690A,116.1231,24.3284,梅州市,梅江月梅,,28,28,24,18,14,83,83,74,74,13,11,9,6,0.4,0.4
2023-05-05T21:00:00,1691A,116.0797,24.2719,梅州市,梅县新城,,30,28,26,21,14,74,52,68,65,22,12,6,6,0.5,0.4
2023-05-05T21:00:00,1692A,116.1248,24.2654,梅州市,环境监控中心,,43,43,27,23,15,76,41,67,59,40,19,4,3,0.6,0.4
2023-05-05T21:00:00,1693A,115.3653,22.775,汕尾市,市环保局,,16,9,20,7,8,68,50,54,52,9,3,8,8,0.5,0.5
2023-05-05T21:00:00,1694A,115.3706,22.7898,汕尾市,市政府,,17,8,18,5,10,72,52,55,54,12,6,5,4,0.7,0.7
2023-05-05T21:00:00,1695A,115.3622,22.7925,汕尾市,新城中学,,,1,21,7,10,72,52,55,54,,4,8,6,,0.7
2023-05-05T21:00:00,1696A,114.6778,23.7569,河源市,源西,,26,26,23,17,13,116,68,98,97,16,8,4,4,0.7,0.6
2023-05-05T21:00:00,1697A,114.6944,23.7586,河源市,东埔,,31,31,27,14,12,123,74,103,102,10,9,4,5,0.5,0.4
2023-05-05T21:00:00,1698A,114.6892,23.7233,河源市,老城,,35,35,38,12,12,121,78,105,104,8,9,4,4,0.6,0.6
2023-05-05T21:00:00,1699A,111.9797,21.8593,阳江市,鸳鸯湖,,17,16,20,9,9,57,53,55,54,1,2,6,6,0.6,0.6
2023-05-05T21:00:00,1701A,111.9491,21.8658,阳江市,马南垌,,19,19,21,11,11,56,50,54,53,4,4,5,5,0.5,0.4
2023-05-05T21:00:00,1702A,113.0426,23.691,清远市,环保大楼,,38,38,35,19,19,116,41,84,83,24,18,6,6,0.6,0.6
2023-05-05T21:00:00,1703A,113.0208,23.7106,清远市,凤城街办,,46,46,39,18,16,116,44,83,83,22,15,5,5,0.5,0.5
2023-05-05T21:00:00,1705A,116.6367,23.6719,潮州市,西园路,,39,39,33,19,14,78,37,62,58,17,11,4,4,0.4,0.4
2023-05-05T21:00:00,1706A,116.6447,23.6706,潮州市,档案局,,34,34,33,14,10,114,48,94,80,13,6,9,6,0.5,0.4
2023-05-05T21:00:00,1708A,116.3701,23.5345,揭阳市,新兴,,24,24,38,15,13,95,46,86,73,9,9,6,7,0.5,0.5
2023-05-05T21:00:00,1709A,116.3264,23.5443,揭阳市,西马,,37,37,38,8,13,92,46,76,68,10,10,5,5,0.5,0.5
2023-05-05T21:00:00,1710A,116.3611,23.5626,揭阳市,东兴,,32,32,38,15,11,95,49,86,75,6,5,4,4,0.6,0.6
2023-05-05T21:00:00,1711A,116.4151,23.5294,揭阳市,渔湖,,,0,47,,23,104,46,92,77,9,7,6,6,0.4,0.5
2023-05-05T21:00:00,1712A,112.0392,22.9169,云浮市,新市府,,25,25,18,12,11,76,62,68,68,3,3,2,2,0.6,0.5
2023-05-05T21:00:00,1714A,112.0539,22.9539,云浮市,牧羊,,26,26,28,15,13,72,46,62,62,22,13,10,8,0.4,0.4
2023-05-05T21:00:00,1715A,102.575,24.3711,玉溪市,东风水库,,40,40,29,9,13,100,98,97,97,6,11,6,7,0.3,0.5
2023-05-05T21:00:00,1718A,115.4208,35.2464,菏泽市,气象局,,,,20,8,11,99,67,83,81,13,11,3,4,0.4,0.4
2023-05-05T21:00:00,1719A,115.4747,35.2375,菏泽市,市政协,,,,,,,,,,,,,,,,
2023-05-05T21:00:00,1721A,113.3819,40.1097,大同市,果树场,,32,4,19,22,25,123,61,68,64,10,9,10,11,0.4,0.4
2023-05-05T21:00:00,1723A,113.2994,40.0758,大同市,云冈宾馆,,,,,,,,,,,,,,,,
2023-05-05T21:00:00,1724A,113.3444,40.0917,大同市,大同大学,,20,18,28,7,13,103,64,68,64,15,14,11,10,0.5,0.7
2023-05-05T21:00:00,1725A,113.2661,40.1269,大同市,安家小村,,24,13,20,8,11,107,76,80,74,9,9,6,6,0.3,0.4
2023-05-05T21:00:00,1726A,113.2711,40.0844,大同市,教育学院,,22,16,24,14,15,103,70,74,68,12,11,7,7,0.4,0.5
2023-05-05T21:00:00,1727A,113.1147,36.1547,长治市,清华站,,28,16,26,12,20,118,88,96,92,12,20,8,8,0.7,0.8
2023-05-05T21:00:00,1728A,113.1031,36.1989,长治市,监测站,,27,23,28,12,20,111,84,94,90,8,16,5,7,0.6,0.8
2023-05-05T21:00:00,1730A,113.0886,36.2125,长治市,审计局,,28,17,25,17,25,117,87,95,91,7,18,8,10,0.5,0.8
2023-05-05T21:00:00,1731A,113.0844,36.1856,长治市,长治八中,,29,18,26,20,18,121,90,102,96,5,13,6,6,0.6,0.7
2023-05-05T21:00:00,1733A,111.5531,36.0783,临汾市,临钢医院,细颗粒物(PM2.5),79,103,135,58,82,102,68,91,88,24,26,2,5,1.4,1.4
2023-05-05T21:00:00,1734A,111.5028,36.0714,临汾市,技工学校,颗粒物(PM10),67,84,104,37,56,102,77,92,90,18,23,7,7,1.2,1
2023-05-05T21:00:00,1736A,111.5018,36.0855,临汾市,市委,颗粒物(PM10),70,90,120,44,66,103,84,94,89,15,20,3,6,1.2,1
2023-05-05T21:00:00,1738A,113.5758,37.8572,阳泉市,市中心,,26,19,36,16,26,84,82,78,78,19,22,7,9,0.7,0.9
2023-05-05T21:00:00,1739A,113.4894,37.8731,阳泉市,赛鱼,,27,25,48,11,24,85,85,75,75,23,23,7,7,0.5,0.7
2023-05-05T21:00:00,1740A,113.5819,37.8486,阳泉市,南庄,,32,10,42,22,31,87,86,82,82,14,19,8,11,0.7,0.9
2023-05-05T21:00:00,1742A,113.5614,37.8703,阳泉市,平坦,,27,16,39,9,29,85,85,81,75,17,25,7,10,0.5,0.8
2023-05-05T21:00:00,1743A,113.5158,37.8392,阳泉市,大阳泉,,30,21,29,21,23,104,85,83,82,16,16,7,8,0.6,0.7
2023-05-05T21:00:00,1744A,118.9233,42.2816,赤峰市,松山一中,,22,18,53,5,10,91,69,88,84,24,18,10,10,0.4,0.4
2023-05-05T21:00:00,1745A,118.9576,42.2728,赤峰市,哈达街,,23,18,56,9,11,92,72,87,82,21,16,12,13,0.4,0.4
2023-05-05T21:00:00,1746A,118.8788,42.2554,赤峰市,天义路,,24,24,51,10,11,98,57,93,85,37,18,12,12,0.5,0.4
2023-05-05T21:00:00,1748A,123.044,41.1196,鞍山市,深沟寺,,31,31,40,8,27,101,73,87,86,15,15,8,9,0.4,0.6
2023-05-05T21:00:00,1749A,123.011,41.0931,鞍山市,太阳城,,26,22,42,7,30,104,81,92,92,20,18,7,9,0.4,0.7
2023-05-05T21:00:00,1750A,123.0485,41.1442,鞍山市,太平,,32,32,53,8,34,101,77,88,88,18,20,11,13,0.4,0.6
2023-05-05T21:00:00,1751A,122.9642,41.0971,鞍山市,铁西三道街,颗粒物(PM10),57,63,61,20,43,105,21,71,66,73,40,75,26,4.7,2.2
2023-05-05T21:00:00,1752A,122.9341,41.0833,鞍山市,铁西工业园区,,49,49,64,10,39,100,59,83,82,46,40,16,17,1.1,1.8
2023-05-05T21:00:00,1753A,123.022,41.0821,鞍山市,明达新区,,34,34,36,8,29,106,79,91,91,20,18,6,9,0.3,0.5
2023-05-05T21:00:00,1754A,123.1289,41.0228,鞍山市,千山,,,,,,,,,,,,,,,,
2023-05-05T21:00:00,1755A,123.7977,41.8491,抚顺市,望花区,,34,32,47,12,23,126,106,116,116,12,20,5,8,0.3,0.4
2023-05-05T21:00:00,1756A,123.9161,41.8822,抚顺市,顺城区,,34,28,47,6,27,118,108,109,109,8,21,4,8,0.3,0.5
2023-05-05T21:00:00,1757A,124.0436,41.8611,抚顺市,东洲区,,33,27,44,8,25,124,103,114,114,10,13,5,8,0.2,0.4
2023-05-05T21:00:00,1758A,123.9247,41.8642,抚顺市,新抚区,,35,32,46,10,29,122,110,112,112,11,18,7,10,0.2,0.4
2023-05-05T21:00:00,1759A,124.0972,41.8961,抚顺市,大伙房水库,,36,29,37,7,24,142,115,129,129,10,11,7,8,0.3,0.5
2023-05-05T21:00:00,1760A,123.7086,41.8391,抚顺市,沈抚新城,,30,29,45,9,26,129,95,121,116,16,20,7,9,0.3,0.5
2023-05-05T21:00:00,1761A,123.8275,41.3064,本溪市,大峪,,26,26,38,13,25,78,58,71,70,18,19,3,5,0.6,0.8
2023-05-05T21:00:00,1762A,123.7567,41.3325,本溪市,溪湖,,28,28,46,8,24,93,89,90,90,9,15,8,13,0.3,0.7
2023-05-05T21:00:00,1763A,123.7169,41.3094,本溪市,彩屯,,26,17,58,7,24,92,83,85,85,14,22,12,14,0.5,0.7
2023-05-05T21:00:00,1764A,123.7669,41.2864,本溪市,东明,,49,49,37,16,23,88,68,81,78,27,29,6,8,0.5,0.8
2023-05-05T21:00:00,1765A,123.7992,41.2664,本溪市,新立屯,,39,39,38,15,28,90,62,81,79,24,19,6,7,0.5,0.6
2023-05-05T21:00:00,1766A,123.8142,41.3472,本溪市,威宁,颗粒物(PM10),53,55,44,19,27,92,44,84,76,36,24,5,8,0.8,0.9
2023-05-05T21:00:00,1767A,121.1115,41.0879,锦州市,南山,,,,46,13,18,107,92,99,97,13,11,6,6,0.6,0.7
2023-05-05T21:00:00,1768A,121.0533,40.8434,锦州市,开发区,,44,44,50,18,15,109,73,104,96,19,11,14,9,0.8,0.5
2023-05-05T21:00:00,1769A,121.1836,41.1119,锦州市,百股街道,颗粒物(PM10),61,71,49,17,15,109,87,102,99,16,12,5,5,0.7,0.7
2023-05-05T21:00:00,1770A,121.1178,41.1222,锦州市,天安街道,颗粒物(PM10),62,73,47,10,14,114,102,106,106,9,9,10,10,0.6,0.7
2023-05-05T21:00:00,1771A,121.1303,41.1386,锦州市,北湖公园,颗粒物(PM10),56,62,42,13,18,110,98,102,102,9,10,5,5,0.3,0.4
2023-05-05T21:00:00,1772A,126.54,43.8622,吉林市,哈达湾,,28,26,31,9,12,103,87,98,96,12,15,5,9,0.5,0.6
2023-05-05T21:00:00,1773A,126.5844,43.8358,吉林市,东局子,,27,23,26,10,13,104,85,99,97,13,12,6,6,0.5,0.5
2023-05-05T21:00:00,1774A,126.5052,43.8245,吉林市,电力学院,,32,32,38,11,14,113,96,106,104,12,16,10,14,0.5,0.5
2023-05-05T21:00:00,1775A,126.6133,43.8972,吉林市,江北,,33,33,33,11,13,105,80,98,94,11,17,6,6,0.5,0.5
2023-05-05T21:00:00,1776A,126.555,43.8306,吉林市,江南公园,,27,27,32,10,13,98,79,94,91,24,20,6,6,0.5,0.5
2023-05-05T21:00:00,1778A,126.7061,43.7133,吉林市,丰满,,27,20,35,10,22,93,85,89,89,5,8,4,5,0.4,0.5
2023-05-05T21:00:00,1779A,123.9305,47.3636,齐齐哈尔市,安居小区,,49,49,31,12,11,91,46,87,76,37,12,3,2,0.4,0.3
2023-05-05T21:00:00,1780A,123.9488,47.3386,齐齐哈尔市,中心广场,,32,32,24,6,5,91,60,87,79,26,12,5,5,0.4,0.2
2023-05-05T21:00:00,1781A,123.9483,47.3227,齐齐哈尔市,农牧车辆厂,,34,34,35,10,8,97,56,93,86,25,11,5,4,0.4,0.4
2023-05-05T21:00:00,1783A,123.945,47.2988,齐齐哈尔市,市环境监测站,,45,45,36,28,16,96,57,93,85,22,9,6,3,0.6,0.4
2023-05-05T21:00:00,1784A,129.61,44.561,牡丹江市,环保大楼,,41,41,34,19,21,99,47,90,79,30,12,5,5,0.4,0.3
2023-05-05T21:00:00,1785A,129.6115,44.5782,牡丹江市,文化广场,,41,41,37,22,22,87,27,79,64,52,19,8,4,0.7,0.4
2023-05-05T21:00:00,1786A,129.5904,44.5963,牡丹江市,第一医院,,46,44,36,32,24,95,60,86,74,16,14,3,3,0.6,0.5
2023-05-05T21:00:00,1787A,129.6364,44.6075,牡丹江市,机车工厂,,43,43,53,20,16,96,55,86,75,14,10,3,3,0.3,0.3
2023-05-05T21:00:00,1788A,129.6386,44.5462,牡丹江市,第一中学,,44,44,36,27,20,96,23,89,72,41,14,2,2,0.5,0.4
2023-05-05T21:00:00,1789A,124.81117,46.03138,大庆市,大同区,,25,22,22,7,6,101,79,97,94,10,6,3,3,0.3,0.2
2023-05-05T21:00:00,1790A,125.129,46.533,大庆市,龙凤区,,29,21,16,10,11,101,91,99,97,8,9,3,5,0.3,0.3
2023-05-05T21:00:00,1791A,124.902,46.408,大庆市,红岗区,,25,25,20,5,11,101,79,100,96,14,8,5,5,0.3,0.3
2023-05-05T21:00:00,1792A,125.153,46.586,大庆市,萨尔图区,,28,18,22,9,10,92,88,90,89,5,7,5,5,0.3,0.3
2023-05-05T21:00:00,1793A,124.9042,46.6215,大庆市,让胡路区,,27,27,23,12,11,98,73,96,92,14,8,6,6,0.2,0.2
2023-05-05T21:00:00,1794A,118.3606,31.3519,芜湖市,监测站,,33,27,23,23,16,89,42,89,60,24,29,5,6,0.6,0.8
2023-05-05T21:00:00,1795A,118.3714,31.4134,芜湖市,科创中心,,32,30,22,22,16,81,45,79,57,18,26,4,5,0.8,1.2
2023-05-05T21:00:00,1796A,118.3673,31.3131,芜湖市,四水厂,,29,27,22,20,16,101,48,90,64,21,23,7,7,0.7,0.8
2023-05-05T21:00:00,1798A,118.5092,31.6837,马鞍山市,湖东路四小,,42,28,20,29,21,76,39,69,49,23,18,9,8,0.8,0.9
2023-05-05T21:00:00,1799A,118.5024,31.6449,马鞍山市,开发区,,38,38,23,26,16,71,37,64,50,22,16,7,5,0.9,0.7
2023-05-05T21:00:00,1800A,118.5228,31.7231,马鞍山市,慈湖,,44,44,26,28,18,89,37,75,49,24,22,15,10,0.6,0.9
2023-05-05T21:00:00,1802A,118.6245,31.7241,马鞍山市,濮塘,,46,28,13,32,16,82,47,69,54,11,11,5,5,1.2,1.3
2023-05-05T21:00:00,1803A,115.9872,29.6815,九江市,十里,,43,43,28,30,14,144,100,122,122,19,18,11,11,0.9,0.9
2023-05-05T21:00:00,1804A,115.9584,29.7046,九江市,茅山头,,43,43,24,29,16,143,95,118,118,23,19,11,9,0.7,0.7
2023-05-05T21:00:00,1805A,115.9877,29.7295,九江市,西园,,38,31,20,26,17,125,66,101,98,53,31,7,9,0.8,0.7
2023-05-05T21:00:00,1806A,116.0172,29.6547,九江市,五七二七厂,,27,26,18,17,14,142,84,121,120,16,12,8,8,0.6,0.5
2023-05-05T21:00:00,1808A,115.9114,29.6038,九江市,综合工业园,,42,42,22,19,12,148,75,121,116,39,23,11,10,1.1,0.9
2023-05-05T21:00:00,1809A,116.0721,29.7535,九江市,石化总厂,颗粒物(PM10),52,53,31,21,14,124,13,103,92,102,22,15,9,1.6,0.7
2023-05-05T21:00:00,1810A,115.9773,29.5698,九江市,庐山气象台,,31,14,9,10,10,125,97,116,96,4,5,7,7,1.0,0.9
2023-05-05T21:00:00,1812A,112.3931,34.6516,洛阳市,市委党校,细颗粒物(PM2.5),60,55,69,43,48,95,54,78,69,21,20,1,1,1.0,1
2023-05-05T21:00:00,1814A,112.4657,34.6871,洛阳市,豫西宾馆,细颗粒物(PM2.5),53,44,62,37,42,92,50,76,69,22,20,2,2,1.2,1.1
2023-05-05T21:00:00,1815A,112.494,34.6886,洛阳市,河南林校,,48,48,53,33,37,94,46,70,65,24,19,8,8,0.8,0.9
2023-05-05T21:00:00,1816A,112.3844,34.623,洛阳市,开发区管委会,细颗粒物(PM2.5),55,50,65,39,40,102,63,88,80,14,12,5,4,0.7,0.6
2023-05-05T21:00:00,1817A,112.4267,34.6258,洛阳市,市委新办公区,细颗粒物(PM2.5),64,50,62,46,46,105,52,85,74,22,16,5,5,0.7,0.7
2023-05-05T21:00:00,1818A,114.4839,36.0621,安阳市,棉研所,,25,13,17,10,10,97,80,93,89,4,5,8,6,0.6,0.6
2023-05-05T21:00:00,1819A,114.3551,36.1017,安阳市,红庙街,,43,43,30,21,19,99,82,92,90,9,12,2,3,0.5,0.8
2023-05-05T21:00:00,1820A,114.361,36.0681,安阳市,银杏小区,,25,10,18,7,9,97,80,89,87,10,12,6,6,0.7,0.8
2023-05-05T21:00:00,1824A,114.3389,34.7781,开封市,肿瘤医院,,24,18,23,12,15,97,76,92,90,6,5,4,5,0.6,0.7
2023-05-05T21:00:00,1826A,114.2885,34.7965,开封市,世纪星幼儿园,,25,25,23,9,11,93,73,88,86,9,7,3,4,0.6,0.7
2023-05-05T21:00:00,1828A,113.227,35.2125,焦作市,市环保局,,39,39,36,19,18,78,71,64,64,17,12,5,5,0.7,0.8
2023-05-05T21:00:00,1830A,113.1992,35.2590,焦作市,影视城,,28,16,33,19,25,66,44,49,49,9,10,8,9,0.8,1
2023-05-05T21:00:00,1832A,113.3257,33.742,平顶山市,新华旅馆,,33,33,34,9,18,92,92,87,87,9,16,3,4,0.5,0.7
2023-05-05T21:00:00,1833A,113.2919,33.737,平顶山市,规划设计院,,29,27,35,14,22,96,92,91,91,11,14,5,5,0.6,0.7
2023-05-05T21:00:00,1834A,113.182,33.774,平顶山市,平顶山工学院,,34,34,29,12,17,91,82,83,83,11,11,3,4,0.4,0.6
2023-05-05T21:00:00,1835A,111.1922,34.7752,三门峡市,市政府,颗粒物(PM10),72,93,100,40,41,106,53,92,87,43,18,11,9,0.6,0.5
2023-05-05T21:00:00,1836A,111.1587,34.7942,三门峡市,开发区,,,,15,44,39,104,68,95,93,17,14,6,6,0.5,0.6
2023-05-05T21:00:00,1838A,111.143,34.7955,三门峡市,风景区,细颗粒物(PM2.5),73,71,87,53,47,112,78,100,99,17,16,8,8,0.4,0.4
2023-05-05T21:00:00,1840A,111.2992,30.6981,宜昌市,白龙岗,颗粒物(PM10),51,51,30,29,15,95,13,63,54,48,25,8,7,0.9,0.7
2023-05-05T21:00:00,1841A,111.3549,30.6465,宜昌市,伍家岗,,,45,29,27,17,97,,70,70,32,28,5,5,0.8,0.8
2023-05-05T21:00:00,1842A,111.2628,30.6961,宜昌市,点军区,,46,46,29,17,10,79,32,48,48,18,25,6,6,0.8,0.7
2023-05-05T21:00:00,1843A,111.3275,30.7819,宜昌市,夷陵区,,34,34,20,22,10,64,10,46,40,38,24,5,5,0.7,0.7
2023-05-05T21:00:00,1844A,112.2494,30.3197,荆州市,市图书馆,,,,29,,17,122,87,114,108,,12,5,6,,0.8
2023-05-05T21:00:00,1845A,112.2008,30.3544,荆州市,市委党校,,35,29,33,24,20,128,89,119,114,13,13,6,6,0.8,0.8
2023-05-05T21:00:00,1847A,113.1094,29.3578,岳阳市,南湖风景区,,34,34,21,23,17,128,106,113,113,21,12,11,9,0.7,0.7
2023-05-05T21:00:00,1848A,113.1493,29.4251,岳阳市,城陵矶,,32,28,20,22,13,123,89,108,106,34,17,5,5,0.8,0.7
2023-05-05T21:00:00,1849A,113.1497,29.3575,岳阳市,开发区,,40,31,19,17,10,126,126,118,118,15,12,7,6,0.7,0.7
2023-05-05T21:00:00,1850A,113.2621,29.4758,岳阳市,云溪区,,41,27,16,23,11,133,130,123,123,12,8,7,6,0.8,0.7
2023-05-05T21:00:00,1851A,112.9943,29.4402,岳阳市,君山区,,34,20,19,21,17,123,108,118,117,13,11,6,6,0.6,0.6
2023-05-05T21:00:00,1852A,113.2117,29.355,岳阳市,金凤水库,,39,23,17,13,10,126,123,113,113,11,7,2,2,0.8,0.6
2023-05-05T21:00:00,1854A,111.6975,28.9703,常德市,市二中,,33,33,23,22,18,92,76,82,82,9,6,6,6,0.6,0.5
2023-05-05T21:00:00,1857A,111.7158,29.1456,常德市,白鹤山,,31,9,21,17,16,104,97,86,86,3,3,7,7,0.7,0.7
2023-05-05T21:00:00,1858A,110.5319,29.1217,张家界市,永定新区,,39,24,21,27,23,89,37,67,64,25,13,3,4,0.5,0.3
2023-05-05T21:00:00,1859A,110.4697,29.1242,张家界市,电业局,,28,24,24,19,18,78,46,66,63,21,13,3,3,0.6,0.5
2023-05-05T21:00:00,1860A,110.5594,29.3547,张家界市,未央路,,,31,25,14,16,88,59,65,63,7,8,3,3,,0.5
2023-05-05T21:00:00,1861A,110.4417,29.315,张家界市,袁家界,,33,12,13,10,10,104,104,96,96,5,5,7,7,0.8,0.7
2023-05-05T21:00:00,1862A,110.4144,25.3167,桂林市,电子科大尧山校区,,47,47,37,30,22,91,48,82,76,10,9,6,4,0.7,0.7
2023-05-05T21:00:00,1863A,110.2819,25.2697,桂林市,监测站,颗粒物(PM10),52,53,38,29,11,93,52,85,82,25,11,10,6,0.9,0.7
2023-05-05T21:00:00,1864A,110.3089,25.2708,桂林市,龙隐路小学,细颗粒物(PM2.5),52,50,38,36,23,86,55,78,75,16,12,11,6,0.6,0.4
2023-05-05T21:00:00,1865A,110.2869,25.2178,桂林市,八中,细颗粒物(PM2.5),54,56,35,38,23,80,40,72,69,25,12,3,4,0.6,0.4
2023-05-05T21:00:00,1866A,109.2262,21.588,北海市,牛尾岭水库,,,29,25,17,13,35,29,32,32,,12,17,9,0.6,0.6
2023-05-05T21:00:00,1867A,109.1436,21.4086,北海市,海滩公园,颗粒物(PM10),52,54,36,12,10,98,98,91,91,4,6,2,3,0.6,0.6
2023-05-05T21:00:00,1868A,109.0981,21.4661,北海市,新市环保局,,34,30,35,12,12,106,106,102,102,6,9,2,3,0.5,0.5
2023-05-05T21:00:00,1869A,109.1778,21.5233,北海市,北海工业园,,29,27,36,20,18,103,83,98,97,11,12,5,6,0.6,0.5
2023-05-05T21:00:00,1870A,109.4856,24.3895,柳州市,柳东小学,细颗粒物(PM2.5),55,55,38,39,27,129,104,106,106,12,10,8,6,0.6,0.5
2023-05-05T21:00:00,1871A,109.4157,24.3277,柳州市,环保监测站,颗粒物(PM10),53,56,45,30,24,110,78,95,95,22,14,4,4,0.8,0.7
2023-05-05T21:00:00,1872A,109.389,24.341,柳州市,河西水厂,颗粒物(PM10),54,58,42,33,24,101,65,85,85,27,17,4,4,1.1,0.8
2023-05-05T21:00:00,1873A,109.4311,24.2921,柳州市,市四中,颗粒物(PM10),56,61,43,27,21,109,74,94,94,20,14,6,7,0.9,0.7
2023-05-05T21:00:00,1874A,109.4006,24.3631,柳州市,市九中,颗粒物(PM10),65,80,51,38,21,103,61,88,88,31,16,6,7,0.9,0.6
2023-05-05T21:00:00,1875A,109.4958,24.3134,柳州市,古亭山,细颗粒物(PM2.5),55,57,42,39,27,115,84,95,95,13,9,2,2,0.7,0.6
2023-05-05T21:00:00,1876A,109.5078,18.2489,三亚市,河东子站,,25,25,22,12,11,49,47,46,45,4,3,2,3,0.4,0.4
2023-05-05T21:00:00,1877A,109.4964,18.2681,三亚市,河西子站,,24,24,23,11,12,49,45,45,45,6,7,2,2,0.4,0.4
2023-05-05T21:00:00,1878A,104.7778,31.4741,绵阳市,富乐山,颗粒物(PM10),57,63,87,30,40,125,96,118,114,8,12,4,4,0.4,0.4
2023-05-05T21:00:00,1879A,104.7563,31.4535,绵阳市,市人大,颗粒物(PM10),56,61,90,32,38,112,78,101,95,16,26,11,7,0.3,0.2
2023-05-05T21:00:00,1880A,104.6697,31.4668,绵阳市,高新区自来水公司,颗粒物(PM10),55,60,92,27,32,126,85,116,110,11,18,5,6,0.5,0.5
2023-05-05T21:00:00,1881A,104.7287,31.5075,绵阳市,三水厂,颗粒物(PM10),57,64,94,27,40,124,93,113,109,8,29,4,5,0.3,0.4
2023-05-05T21:00:00,1882A,104.563,28.793,宜宾市,石马中学,,37,37,58,22,38,113,82,101,101,9,19,4,4,0.5,0.6
2023-05-05T21:00:00,1883A,104.6201,28.7728,宜宾市,市委,,48,48,73,26,43,111,77,96,95,12,26,7,7,0.5,0.6
2023-05-05T21:00:00,1884A,104.6055,28.793,宜宾市,宜宾四中,颗粒物(PM10),51,51,70,29,50,110,75,98,97,16,26,5,6,0.5,0.6
2023-05-05T21:00:00,1885A,104.639,28.7562,宜宾市,市政府,,44,44,63,28,46,126,84,107,106,13,31,7,7,0.5,0.7
2023-05-05T21:00:00,1886A,104.5742,28.7199,宜宾市,黄金嘴,,46,46,62,26,42,121,86,104,104,11,25,7,7,0.3,0.4
2023-05-05T21:00:00,1888A,101.6891,26.571,攀枝花市,弄弄坪,颗粒物(PM10),54,58,38,28,19,115,96,103,97,18,21,20,34,1.0,1.7
2023-05-05T21:00:00,1889A,101.5769,26.5928,攀枝花市,河门口,,34,25,29,10,12,119,107,115,112,9,12,8,10,0.5,0.6
2023-05-05T21:00:00,1890A,101.7169,26.585,攀枝花市,炳草岗,细颗粒物(PM2.5),79,94,32,58,15,120,106,114,109,28,20,13,18,1.0,0.9
2023-05-05T21:00:00,1891A,101.7369,26.5008,攀枝花市,仁和,,37,12,15,10,13,121,118,118,118,7,9,6,7,0.6,0.6
2023-05-05T21:00:00,1893A,105.4324,28.9634,泸州市,九狮山,,43,35,27,30,21,120,76,109,107,15,14,5,8,0.3,0.3
2023-05-05T21:00:00,1894A,105.4427,28.9063,泸州市,小市上码头,,46,46,42,25,26,117,103,108,108,12,12,7,10,0.5,0.6
2023-05-05T21:00:00,1895A,105.4241,28.8573,泸州市,兰田宪桥,颗粒物(PM10),52,54,47,27,29,124,81,115,112,19,16,6,8,0.7,0.7
2023-05-05T21:00:00,1896A,105.4379,28.8833,泸州市,市环监站,,39,39,42,19,23,114,99,104,104,19,19,5,7,0.5,0.6
2023-05-05T21:00:00,1901A,104.4239,31.1208,德阳市,东山公园,颗粒物(PM10),87,123,99,53,44,120,74,113,106,34,25,5,5,0.5,0.5
2023-05-05T21:00:00,1902A,104.3826,31.1317,德阳市,西小区,颗粒物(PM10),80,109,98,53,49,126,68,112,106,30,26,4,5,0.5,0.5
2023-05-05T21:00:00,1904A,104.3553,31.1091,德阳市,耐火材料厂,颗粒物(PM10),84,117,105,48,46,131,80,119,114,21,22,4,6,0.5,0.4
2023-05-05T21:00:00,1905A,106.056,30.8064,南充市,西山风景区,细颗粒物(PM2.5),74,95,41,54,28,123,86,113,110,10,7,7,6,0.6,0.4
2023-05-05T21:00:00,1906A,106.0789,30.8023,南充市,南充市委,,,85,59,48,29,128,,116,115,17,18,10,9,0.5,0.5
2023-05-05T21:00:00,1907A,106.1031,30.8217,南充市,南充炼油厂,"颗粒物(PM10),细颗粒物(PM2.5)",70,89,60,51,28,122,77,108,104,16,14,10,10,0.5,0.5
2023-05-05T21:00:00,1908A,106.1064,30.7856,南充市,高坪区监测站,细颗粒物(PM2.5),73,92,53,53,30,119,80,110,106,17,17,10,10,0.6,0.5
2023-05-05T21:00:00,1909A,106.0642,30.7636,南充市,嘉陵区环保局,颗粒物(PM10),67,83,51,46,28,139,87,126,120,20,19,9,8,0.7,0.6
2023-05-05T21:00:00,1910A,106.1087,30.8388,南充市,市环境监测站,颗粒物(PM10),70,89,60,46,36,123,77,108,104,17,16,9,10,0.7,0.6
2023-05-05T21:00:00,1911A,106.9222,27.6869,遵义市,丁字口,细颗粒物(PM2.5),54,33,44,38,46,157,87,136,129,10,22,6,8,0.6,0.7
2023-05-05T21:00:00,1912A,106.9242,27.7019,遵义市,凤凰山,,38,30,51,26,35,172,103,154,146,10,17,5,9,0.3,0.5
2023-05-05T21:00:00,1913A,106.8906,27.6486,遵义市,忠庄,,33,33,66,21,33,152,78,132,124,10,15,3,4,0.2,0.3
2023-05-05T21:00:00,1914A,106.9231,27.6506,遵义市,舟水桥,,42,30,57,29,32,162,88,140,134,5,18,1,3,0.3,0.4
2023-05-05T21:00:00,1915A,106.9178,27.72,遵义市,干田坝,,35,30,53,24,28,166,96,150,138,9,16,5,8,0.6,0.7
2023-05-05T21:00:00,1916A,103.7897,25.5035,曲靖市,环境监测站,,,,43,,18,145,101,128,124,,9,6,10,,0.7
2023-05-05T21:00:00,1917A,103.8,25.5364,曲靖市,烟厂办公区,,34,34,45,9,21,139,103,129,125,12,10,8,8,0.7,0.9
2023-05-05T21:00:00,1918A,108.7197,34.3956,咸阳市,气象站,,47,47,104,27,37,86,32,71,54,29,23,4,4,0.5,0.4
2023-05-05T21:00:00,1919A,108.673,34.3155,咸阳市,实验中学,,50,50,96,30,37,88,42,70,58,23,20,3,4,0.7,0.7
2023-05-05T21:00:00,1920A,108.7233,34.3617,咸阳市,师范学院,颗粒物(PM10),54,57,101,30,33,91,33,77,61,34,21,6,6,0.6,0.5
2023-05-05T21:00:00,1922A,109.0656,35.0994,铜川市,党校,颗粒物(PM10),54,57,90,25,32,91,20,69,48,38,24,10,9,0.8,0.6
2023-05-05T21:00:00,1923A,109.0697,35.0697,铜川市,王益区政府,颗粒物(PM10),56,62,84,30,34,94,16,76,61,54,20,10,9,0.7,0.4
2023-05-05T21:00:00,1924A,108.9344,34.9058,铜川市,新区管委会,细颗粒物(PM2.5),59,66,88,42,40,92,16,80,66,53,17,6,6,0.8,0.4
2023-05-05T21:00:00,1926A,109.4131,36.6275,延安市,枣园,,29,25,64,20,29,107,35,97,79,32,17,9,9,0.5,0.4
2023-05-05T21:00:00,1927A,109.4761,36.6028,延安市,延大医附院,,40,38,68,28,30,111,28,100,80,46,20,4,4,0.6,0.4
2023-05-05T21:00:00,1929A,109.5056,36.6106,延安市,百米大道,,40,40,70,23,32,99,44,90,73,35,24,6,6,0.6,0.4
2023-05-05T21:00:00,1930A,107.185,34.3063,宝鸡市,庙沟村,颗粒物(PM10),52,54,68,27,29,91,70,86,57,11,9,6,6,0.5,0.4
2023-05-05T21:00:00,1931A,107.0708,34.3017,宝鸡市,竹园沟,,40,40,61,25,27,80,60,63,60,20,19,6,6,0.3,0.3
2023-05-05T21:00:00,1932A,107.1906,34.3672,宝鸡市,三陆医院,颗粒物(PM10),56,62,86,30,30,85,29,50,43,30,32,6,8,0.5,0.5
2023-05-05T21:00:00,1933A,107.1431,34.3547,宝鸡市,监测站,颗粒物(PM10),63,76,77,33,30,52,22,46,40,22,19,5,6,0.4,0.3
2023-05-05T21:00:00,1934A,107.1186,34.3739,宝鸡市,技工学校,颗粒物(PM10),59,67,76,34,34,67,31,61,53,24,16,6,5,0.4,0.3
2023-05-05T21:00:00,1935A,107.3906,34.3528,宝鸡市,陈仓区环保局家属楼,颗粒物(PM10),61,72,94,35,38,72,33,55,43,37,32,4,5,0.5,0.5
2023-05-05T21:00:00,1936A,107.2058,34.3497,宝鸡市,文理学院,颗粒物(PM10),57,64,87,39,27,61,23,51,43,37,25,8,8,0.6,0.5
2023-05-05T21:00:00,1937A,107.2386,34.3622,宝鸡市,三迪小学,颗粒物(PM10),57,64,88,31,32,60,30,54,48,36,28,8,9,0.6,0.5
2023-05-05T21:00:00,1938A,109.5293,34.5101,渭南市,农科所,"颗粒物(PM10),细颗粒物(PM2.5)",58,66,104,41,54,84,45,75,62,31,21,8,7,0.5,0.4
2023-05-05T21:00:00,1939A,109.4974,34.4877,渭南市,日报社,"颗粒物(PM10),细颗粒物(PM2.5)",57,63,102,40,44,79,34,70,55,45,30,6,5,0.5,0.4
2023-05-05T21:00:00,1940A,109.4636,34.493,渭南市,体育馆,"颗粒物(PM10),细颗粒物(PM2.5)",54,58,96,38,49,84,37,73,53,44,26,6,7,0.4,0.4
2023-05-05T21:00:00,1941A,109.4259,34.5023,渭南市,高新一小,颗粒物(PM10),57,64,112,34,40,77,40,67,56,36,23,2,4,0.5,0.4
2023-05-05T21:00:00,1943A,102.1725,38.5339,金昌市,新川苑,颗粒物(PM10),112,173,153,35,38,118,104,113,111,12,21,51,43,0.5,0.6
2023-05-05T21:00:00,1944A,102.1692,38.5167,金昌市,天庆家园,颗粒物(PM10),95,139,115,39,40,125,95,120,117,26,22,211,30,0.7,0.6
2023-05-05T21:00:00,1945A,98.2908,39.7711,嘉峪关市,气象局,颗粒物(PM10),100,149,92,56,31,114,89,110,107,24,9,24,4,0.5,0.1
2023-05-05T21:00:00,1947A,106.3394,38.817,石嘴山市,沙湖旅游区,细颗粒物(PM2.5),57,51,145,40,70,123,94,108,108,16,26,19,22,0.5,0.8
2023-05-05T21:00:00,1948A,106.3668,39.0145,石嘴山市,大武口朝阳西街,颗粒物(PM10),64,78,141,13,75,111,60,95,93,42,34,37,17,0.5,0.6
2023-05-05T21:00:00,1949A,106.7704,39.2282,石嘴山市,惠农南大街,颗粒物(PM10),63,76,111,18,48,96,39,87,80,62,37,62,25,0.7,1.1
2023-05-05T21:00:00,1950A,106.7099,39.1325,石嘴山市,红果子镇惠新街,颗粒物(PM10),61,72,96,18,45,114,49,99,94,42,25,39,15,0.5,0.6
2023-05-05T21:00:00,1951A,84.895,45.6094,克拉玛依市,长征新村,,30,13,16,9,6,100,95,97,97,3,4,6,6,0.2,0.2
2023-05-05T21:00:00,1952A,84.8988,45.5893,克拉玛依市,南林小区,,29,13,16,10,11,97,91,94,94,6,6,4,4,0.2,0.2
2023-05-05T21:00:00,1954A,84.905,44.3396,克拉玛依市,独山子区,,32,13,15,10,10,107,101,104,104,6,5,6,6,0.3,0.3
2023-05-05T21:00:00,1955A,85.6979,46.098,克拉玛依市,乌尔禾区商贸楼,,30,24,19,1,7,99,95,96,96,3,7,6,6,0.2,0.3
2023-05-05T21:00:00,1956A,86.1472,41.7538,巴音郭楞州,孔雀公园,颗粒物(PM10),52,54,49,19,12,107,70,105,93,34,7,3,3,0.4,0.3
2023-05-05T21:00:00,1957A,86.1972,41.7166,巴音郭楞州,棉纺厂,,,43,54,0,14,103,,102,92,11,7,2,3,0.3,0.2
2023-05-05T21:00:00,1958A,86.2357,41.7173,巴音郭楞州,经济开发区,,32,23,35,9,11,108,102,106,102,4,3,5,5,0.2,0.2
2023-05-05T21:00:00,1961A,117.532,36.6868,济南市,东山小学,颗粒物(PM10),52,54,17,15,9,97,90,85,85,16,12,5,4,0.4,0.4
2023-05-05T21:00:00,1966A,120.0405,35.8735,青岛市,黄岛区4号,,46,46,26,17,13,76,72,66,66,20,19,6,6,0.6,0.7
2023-05-05T21:00:00,1982A,122.0693,37.2174,威海市,文登开发区,,28,9,8,9,5,89,87,78,78,8,10,4,4,0.6,0.5
2023-05-05T21:00:00,2031A,113.1817,27.9958,株洲市,云田中学,,21,5,18,5,16,113,67,89,82,16,12,4,4,0.7,0.5
2023-05-05T21:00:00,2054A,114.1099,32.1059,信阳市,平桥分局,,34,34,28,18,28,90,79,87,86,13,14,6,6,0.6,0.8
2023-05-05T21:00:00,2064A,113.9956,32.1271,信阳市,南湾水厂,,41,41,44,9,17,87,76,80,80,7,6,5,5,0.5,0.7
2023-05-05T21:00:00,2065A,114.0775,32.1195,信阳市,市酿酒公司,,42,42,32,14,26,91,79,88,87,12,13,6,6,0.5,0.7
2023-05-05T21:00:00,2066A,114.0609,32.1399,信阳市,审计局,,44,44,46,17,25,90,80,88,87,10,13,6,6,0.5,0.7
2023-05-05T21:00:00,2067A,114.6613,33.6128,周口市,市环境监测站,,27,27,28,12,18,96,86,92,90,6,6,3,3,0.7,0.7
2023-05-05T21:00:00,2068A,114.6758,33.6347,周口市,周口师范,,25,21,17,9,14,90,80,85,84,7,7,6,6,0.6,0.7
2023-05-05T21:00:00,2069A,114.6546,33.5979,周口市,市运管处,,27,20,20,14,14,95,85,92,90,7,6,5,5,0.7,0.7
2023-05-05T21:00:00,2070A,114.6369,33.6406,周口市,川汇区环保局,,25,18,23,9,13,93,79,89,88,8,7,6,6,0.7,0.7
2023-05-05T21:00:00,2075A,117.6336,24.4674,漳州市,九湖,,,,,,,,,,,,,,,,
2023-05-05T21:00:00,2160A,112.85,35.5051,晋城市,自来水公司,,42,41,45,29,26,91,76,81,81,11,16,5,6,1.0,0.9
2023-05-05T21:00:00,2161A,112.8318,35.4936,晋城市,白云商贸,,39,39,38,22,27,89,76,77,77,11,17,5,6,1.0,0.9
2023-05-05T21:00:00,2162A,112.8508,35.4887,晋城市,市环保局,,43,43,38,29,31,87,73,76,76,14,20,6,7,0.9,0.9
2023-05-05T21:00:00,2163A,112.8676,35.4897,晋城市,技术学院,,45,28,30,31,30,90,65,77,74,12,15,6,7,0.7,0.6
2023-05-05T21:00:00,2165A,112.8453,35.546,晋城市,白马寺,,,,,,,,,,,,,,,,
2023-05-05T21:00:00,2166A,112.4397,39.3522,朔州市,平朔,,49,34,22,34,23,78,38,56,40,21,28,5,5,0.6,0.5
2023-05-05T21:00:00,2167A,112.4575,39.3617,朔州市,朔唯,,49,36,24,34,26,81,31,54,42,30,30,7,9,0.6,0.6
2023-05-05T21:00:00,2168A,112.4258,39.3197,朔州市,区政府,,42,39,30,29,22,86,42,59,43,15,20,4,5,0.7,0.7
2023-05-05T21:00:00,2169A,112.4072,39.3278,朔州市,市环保局,,42,41,28,29,21,71,43,64,46,26,32,3,5,0.7,0.6
2023-05-05T21:00:00,2170A,112.4272,39.3681,朔州市,市二中,,49,39,34,34,22,63,33,57,37,20,28,5,5,0.6,0.5
2023-05-05T21:00:00,2171A,112.7532,37.6945,晋中市,锦纶小区,,26,2,29,2,23,110,81,95,93,18,19,7,9,0.4,0.5
2023-05-05T21:00:00,2173A,112.7249,37.7067,晋中市,南都小区,,23,8,35,13,25,105,73,92,89,19,18,6,8,0.6,0.7
2023-05-05T21:00:00,2174A,112.6991,37.6982,晋中市,榆次区政府,,23,8,46,14,24,99,71,86,82,19,24,8,10,0.6,0.7
2023-05-05T21:00:00,2175A,110.9956,35.0147,运城市,运城中学,颗粒物(PM10),66,81,79,38,39,105,71,98,94,12,8,6,6,0.4,0.4
2023-05-05T21:00:00,2178A,110.9686,35.0303,运城市,地区技校,颗粒物(PM10),69,88,79,33,34,108,75,98,96,12,8,4,4,0.5,0.6
2023-05-05T21:00:00,2179A,111.0414,35.1147,运城市,空港新区,颗粒物(PM10),75,99,94,37,42,111,77,97,96,20,15,6,7,0.3,0.5
2023-05-05T21:00:00,2181A,112.7383,38.4519,忻州市,开发区,,19,14,42,2,29,74,59,74,59,16,28,5,9,0.5,0.7
2023-05-05T21:00:00,2182A,112.7003,38.4928,忻州市,会展中心,,23,18,42,16,28,60,52,54,54,18,32,4,7,0.2,0.4
2023-05-05T21:00:00,2183A,111.1406,37.5211,吕梁市,环保局,,34,34,76,20,24,68,19,60,51,42,26,10,8,0.6,0.5
2023-05-05T21:00:00,2185A,111.1297,37.5136,吕梁市,自来水公司,,35,35,79,10,23,69,31,62,53,28,24,4,4,0.6,0.5
2023-05-05T21:00:00,2187A,106.8174,39.6973,乌海市,市林业局,,48,48,93,17,29,111,103,106,106,7,26,9,16,0.6,1.1
2023-05-05T21:00:00,2188A,106.7907,39.6667,乌海市,中海勃湾学校,,46,46,92,23,28,110,92,105,103,16,32,8,16,0.3,0.8
2023-05-05T21:00:00,2191A,122.2532,43.6801,通辽市,艺术职业学校,颗粒物(PM10),52,53,62,8,11,101,93,96,96,12,12,5,5,0.1,0.1
2023-05-05T21:00:00,2192A,119.7594,49.2261,呼伦贝尔市,区环保局,,44,44,36,17,18,99,58,95,87,31,19,5,5,0.3,0.3
2023-05-05T21:00:00,2195A,107.4212,40.761,巴彦淖尔市,附二中,颗粒物(PM10),53,56,72,30,19,104,85,98,95,12,10,5,4,0.5,0.5
2023-05-05T21:00:00,2196A,107.37,40.7372,巴彦淖尔市,市环保大楼,颗粒物(PM10),54,58,86,22,28,108,88,102,98,12,9,7,6,0.4,0.4
2023-05-05T21:00:00,2197A,113.1306,40.9923,乌兰察布市,集宁新区,,29,29,23,17,16,86,81,84,73,8,7,10,10,0.3,0.4
2023-05-05T21:00:00,2200A,122.0392,46.0656,兴安盟,胜华新制药厂,,36,36,23,23,13,97,70,93,87,20,12,11,4,0.8,0.5
2023-05-05T21:00:00,2201A,121.9504,46.0741,兴安盟,科右前旗环保局,,38,38,21,21,16,101,81,97,93,24,14,8,3,0.5,0.5
2023-05-05T21:00:00,2202A,116.1042,43.9317,锡林郭勒盟,市环保监测站,,21,16,13,13,6,105,67,103,95,11,4,16,10,0.2,0.2
2023-05-05T21:00:00,2203A,116.0781,43.9311,锡林郭勒盟,市政府,,25,18,16,2,6,104,80,101,95,12,6,8,8,0.2,0.2
2023-05-05T21:00:00,2204A,105.6467,38.8363,阿拉善盟,西城区西花园,颗粒物(PM10),73,95,115,44,40,128,74,110,108,34,17,8,7,0.7,0.6
2023-05-05T21:00:00,2205A,105.6985,38.8411,阿拉善盟,蒙二幼,细颗粒物(PM2.5),98,136,137,73,47,129,90,109,109,28,15,10,9,0.8,0.5
2023-05-05T21:00:00,2206A,105.724,38.8516,阿拉善盟,环保局新楼,细颗粒物(PM2.5),97,106,92,72,41,124,96,111,111,25,10,8,7,0.8,0.5
2023-05-05T21:00:00,2207A,121.6094,41.998,阜新市,工业园区,颗粒物(PM10),71,92,92,14,20,105,103,101,101,5,7,12,10,0.6,0.4
2023-05-05T21:00:00,2208A,121.6697,42.0279,阜新市,长青街,颗粒物(PM10),53,56,76,16,21,98,96,96,96,9,12,6,10,0.4,0.5
2023-05-05T21:00:00,2209A,121.6673,42.0705,阜新市,农业园区,颗粒物(PM10),52,54,57,11,18,99,96,96,96,12,12,12,10,0.8,0.3
2023-05-05T21:00:00,2210A,121.6717,42.0224,阜新市,东苑,颗粒物(PM10),64,77,81,6,19,99,96,97,97,7,10,7,18,0.5,0.7
2023-05-05T21:00:00,2211A,121.6506,42.0498,阜新市,玉龙新城,颗粒物(PM10),59,68,66,15,17,97,92,94,94,8,7,13,9,0.9,0.6
2023-05-05T21:00:00,2212A,123.2,41.1953,辽阳市,宏伟区,,40,40,41,12,25,99,77,84,84,20,20,11,14,0.4,0.6
2023-05-05T21:00:00,2213A,123.1683,41.2495,辽阳市,新华园,颗粒物(PM10),57,63,48,16,26,93,69,80,80,15,24,13,13,0.5,0.6
2023-05-05T21:00:00,2214A,123.2354,41.2639,辽阳市,滨河路,,50,50,40,8,29,93,72,79,79,19,22,7,8,0.4,0.6
2023-05-05T21:00:00,2215A,123.149,41.2991,辽阳市,铁西工业园,,43,43,45,10,26,102,72,86,86,18,19,6,8,0.3,0.6
2023-05-05T21:00:00,2216A,123.8139,42.3022,铁岭市,汇工街西,,,,46,14,25,107,87,96,96,8,14,12,17,0.3,0.6
2023-05-05T21:00:00,2217A,123.8649,42.2923,铁岭市,水上乐园,,42,42,43,17,23,102,74,90,90,20,20,4,5,0.3,0.4
2023-05-05T21:00:00,2218A,123.8486,42.2867,铁岭市,银州路东段,,38,38,45,16,28,101,84,92,92,12,18,7,8,0.5,0.5
2023-05-05T21:00:00,2219A,123.7153,42.2217,铁岭市,金沙江路北,,44,44,45,9,24,106,87,96,96,10,16,6,7,0.3,0.4
2023-05-05T21:00:00,2220A,120.4318,41.5881,朝阳市,西梁,,27,27,28,5,8,101,82,92,90,13,10,8,7,0.5,0.5
2023-05-05T21:00:00,2221A,120.4521,41.5646,朝阳市,河畔小区,,39,39,35,6,8,107,86,97,95,13,11,9,8,0.5,0.5
2023-05-05T21:00:00,2222A,120.4176,41.5648,朝阳市,八里堡,,43,43,37,8,9,108,80,99,96,20,12,9,7,0.5,0.6
2023-05-05T21:00:00,2223A,120.3806,41.5969,朝阳市,农业园区,颗粒物(PM10),54,58,35,8,10,109,80,99,97,16,9,12,9,0.5,0.5
2023-05-05T21:00:00,2225A,124.4002,43.1713,四平市,一商场,,35,35,67,9,18,108,89,100,99,8,17,5,7,0.1,0.2
2023-05-05T21:00:00,2226A,124.388,43.193,四平市,境园,,42,42,61,6,29,104,85,97,96,7,14,8,7,0.0,0.2
2023-05-05T21:00:00,2227A,125.1358,42.8845,辽源市,环保局,,29,19,31,14,17,102,90,97,96,12,12,6,7,0.4,0.5
2023-05-05T21:00:00,2229A,125.9358,41.7173,通化市,光明,,23,18,32,16,21,77,71,74,74,5,23,10,19,0.2,0.4
2023-05-05T21:00:00,2230A,125.9446,41.7325,通化市,铁路,,22,17,28,15,18,78,69,73,73,8,20,8,12,0.2,0.5
2023-05-05T21:00:00,2231A,126.4219,41.9171,白山市,喜丰,,25,25,56,11,21,73,59,68,58,15,26,10,13,1.4,1.7
2023-05-05T21:00:00,2232A,126.4077,41.9419,白山市,环保局,,24,24,58,12,23,83,68,76,75,9,25,10,10,0.8,0.8
2023-05-05T21:00:00,2233A,124.8006,45.1214,松原市,江南,,42,42,37,13,11,108,85,104,99,11,5,6,6,0.3,0.3
2023-05-05T21:00:00,2234A,124.7965,45.1722,松原市,江北,,27,27,39,13,13,105,81,99,98,10,11,3,4,0.3,0.3
2023-05-05T21:00:00,2235A,122.7911,45.6077,白城市,洮北区环保局,,,24,16,10,8,113,92,108,105,,9,6,6,0.2,0.1
2023-05-05T21:00:00,2236A,122.8738,45.5725,白城市,市环保局,,43,43,32,10,10,115,86,109,106,17,10,3,4,0.2,0.2
2023-05-05T21:00:00,2237A,129.47,42.8883,延边朝鲜族自治州,妇幼医院,,24,24,34,16,20,116,43,116,70,10,12,7,7,0.5,0.6
2023-05-05T21:00:00,2238A,129.5055,42.9108,延边朝鲜族自治州,延边医院,细颗粒物(PM2.5),53,36,36,37,21,115,42,115,72,26,13,8,8,0.8,0.6
2023-05-05T21:00:00,2239A,129.3964,42.8881,延边朝鲜族自治州,朝阳川镇医院,,27,27,37,15,21,116,40,107,74,18,15,9,9,0.6,0.6
2023-05-05T21:00:00,2240A,130.9762,45.3001,鸡西市,环保局,,47,47,35,18,15,93,47,86,79,34,20,6,6,0.3,0.2
2023-05-05T21:00:00,2243A,130.9429,45.3039,鸡西市,第一中学,,43,43,26,20,13,97,55,89,84,21,9,5,4,0.4,0.4
2023-05-05T21:00:00,2244A,130.2537,47.3416,鹤岗市,哈啤分公司,,28,21,18,12,10,93,88,91,90,5,6,10,10,0.2,0.2
2023-05-05T21:00:00,2245A,130.2684,47.3086,鹤岗市,斯达机电,,28,23,18,16,14,89,88,88,86,7,6,6,6,0.2,0.2
2023-05-05T21:00:00,2246A,130.3114,47.3388,鹤岗市,东山纸板厂,颗粒物(PM10),73,96,29,20,10,91,75,90,87,14,6,11,9,0.3,0.2
2023-05-05T21:00:00,2247A,130.1097,47.3382,鹤岗市,五号水库,,24,17,12,10,9,100,74,97,92,12,5,8,8,0.0,0.1
2023-05-05T21:00:00,2248A,131.1511,46.6937,双鸭山市,双合村,,44,44,24,14,12,100,63,96,90,15,8,6,6,0.6,0.6
2023-05-05T21:00:00,2249A,131.1652,46.6191,双鸭山市,南小市,颗粒物(PM10),54,58,26,36,14,103,58,98,90,21,8,5,5,0.7,0.5
2023-05-05T21:00:00,2250A,131.1524,46.6554,双鸭山市,环保局,,50,46,22,35,19,95,69,91,86,19,7,6,6,0.5,0.4
2023-05-05T21:00:00,2251A,131.12,46.5656,双鸭山市,苗圃,,43,43,25,26,14,113,71,108,100,17,8,4,4,0.2,0.3
2023-05-05T21:00:00,2252A,128.5159,47.4311,伊春市,环保局,,22,19,15,9,10,86,69,83,80,14,8,5,5,0.4,0.3
2023-05-05T21:00:00,2253A,128.9102,47.7412,伊春市,电力嘉园,,28,28,21,13,12,101,60,99,92,17,5,5,5,0.6,0.5
2023-05-05T21:00:00,2254A,129.5029,48.471,伊春市,汤旺河国家公园,,29,20,18,20,18,112,80,98,91,3,3,5,5,0.8,0.8
2023-05-05T21:00:00,2255A,130.2751,46.8028,佳木斯市,佳纺,,27,27,23,14,11,98,61,94,82,22,10,3,3,0.4,0.3
2023-05-05T21:00:00,2256A,130.3995,46.8307,佳木斯市,发电厂,,23,23,20,10,9,94,66,91,82,8,6,7,5,0.4,0.4
2023-05-05T21:00:00,2257A,130.3258,46.7975,佳木斯市,环保局,,22,22,23,12,11,90,50,84,70,32,14,4,3,0.5,0.3
2023-05-05T21:00:00,2258A,130.3648,46.8032,佳木斯市,十一中,,30,30,22,15,12,89,59,87,78,25,9,4,6,0.5,0.3
2023-05-05T21:00:00,2259A,130.3794,46.7588,佳木斯市,四丰,臭氧1小时,110,20,15,9,10,225,220,211,211,23,10,1,1,0.5,0.2
2023-05-05T21:00:00,2262A,131.0518,45.8751,七台河市,新一中,,27,25,21,12,15,108,86,101,99,6,8,6,7,0.7,0.7
2023-05-05T21:00:00,2263A,127.4833,50.2524,黑河市,交通局,,32,32,19,14,10,104,65,96,89,16,9,5,5,0.4,0.4
2023-05-05T21:00:00,2264A,127.5144,50.2341,黑河市,环保局,,44,44,31,26,23,106,56,97,87,34,14,3,5,0.5,0.4
2023-05-05T21:00:00,2265A,127.5291,50.2472,黑河市,大黑河岛,,38,38,20,12,18,120,87,116,106,6,5,1,4,0.4,0.3
2023-05-05T21:00:00,2266A,126.9785,46.6365,绥化市,人和东街,,29,29,21,13,9,102,82,98,94,10,8,6,6,0.4,0.3
2023-05-05T21:00:00,2267A,126.964,46.6528,绥化市,党政办公中心,,30,24,17,14,12,113,93,108,106,4,4,5,5,0.3,0.3
2023-05-05T21:00:00,2269A,124.1069,50.4097,大兴安岭地区,科技局,,25,19,12,14,10,112,80,109,103,13,4,6,5,0.2,0.1
2023-05-05T21:00:00,2270A,117.396,32.939,蚌埠市,工人疗养院,颗粒物(PM10),51,51,39,19,21,64,49,54,54,20,18,6,6,0.5,0.6
2023-05-05T21:00:00,2271A,117.3605,32.9427,蚌埠市,百货大楼,,45,28,29,31,27,66,49,56,54,10,10,2,3,0.5,0.5
2023-05-05T21:00:00,2273A,117.4185,32.8911,蚌埠市,蚌埠学院,,35,34,31,24,21,69,51,58,57,10,8,4,5,0.6,0.7
2023-05-05T21:00:00,2274A,117.3533,32.9673,蚌埠市,淮上区政府,,44,44,35,22,21,65,44,55,53,6,4,5,5,0.5,0.5
2023-05-05T21:00:00,2275A,117.3145,32.8977,蚌埠市,高新区,,34,34,34,22,27,58,46,51,50,15,14,5,5,0.7,0.7
2023-05-05T21:00:00,2277A,116.8305,32.7727,淮南市,潘集区政府,,32,32,29,21,23,58,49,53,52,12,6,4,4,0.2,0.3
2023-05-05T21:00:00,2278A,117.0067,32.6524,淮南市,师范学院,,34,34,38,19,24,50,44,45,44,7,8,4,5,0.3,0.3
2023-05-05T21:00:00,2279A,116.8569,32.5951,淮南市,谢家集区政府,,39,25,28,27,15,65,52,54,54,18,11,9,4,0.4,0.3
2023-05-05T21:00:00,2280A,116.8281,32.633,淮南市,八公山区政府,,38,38,43,23,28,55,48,46,46,7,5,5,4,0.3,0.3
2023-05-05T21:00:00,2281A,116.6325,32.6201,淮南市,焦岗湖风景区管理处,,,,,,,,,,,,,,,,
2023-05-05T21:00:00,2282A,116.8004,33.975,淮北市,监测站,,30,30,18,10,16,74,62,68,68,14,7,3,2,0.6,0.5
2023-05-05T21:00:00,2283A,116.8091,33.9007,淮北市,烈山区政府,,26,26,20,15,18,76,67,70,70,11,8,4,4,0.6,0.6
2023-05-05T21:00:00,2284A,116.7856,33.9477,淮北市,职业技术学院,,34,34,20,10,16,74,63,69,69,13,7,5,5,0.7,0.6
2023-05-05T21:00:00,2285A,117.8177,30.9412,铜陵市,市第四中学,,30,29,25,21,19,101,51,101,64,23,16,3,5,0.4,0.5
2023-05-05T21:00:00,2286A,117.8059,30.9273,铜陵市,市公路局,,37,37,26,25,7,101,57,101,70,17,12,6,6,0.7,0.7
2023-05-05T21:00:00,2287A,117.7807,30.9413,铜陵市,市新民污水厂,,35,35,25,19,12,100,62,100,72,12,20,7,11,0.5,0.5
2023-05-05T21:00:00,2288A,117.7439,30.8792,铜陵市,市第九中学,,35,33,24,24,10,82,58,80,63,15,29,11,11,0.6,0.6
2023-05-05T21:00:00,2289A,117.846,30.9413,铜陵市,车站新区,,37,37,24,21,10,87,55,87,65,14,14,5,6,0.5,0.6
2023-05-05T21:00:00,2290A,117.8483,30.97,铜陵市,市职教基地,,34,34,17,14,8,93,52,93,65,14,12,2,2,0.4,0.4
2023-05-05T21:00:00,2291A,117.0809,30.5177,安庆市,环科院,,29,23,13,20,11,100,67,98,66,11,19,6,6,0.5,0.5
2023-05-05T21:00:00,2292A,117.0331,30.5119,安庆市,马山宾馆,,33,21,15,23,12,92,65,92,65,12,20,6,7,0.6,0.6
2023-05-05T21:00:00,2294A,116.9896,30.6145,安庆市,安庆大学,,28,20,13,19,11,96,67,94,61,5,10,7,8,0.5,0.4
2023-05-05T21:00:00,2295A,118.2903,29.6963,黄山市,延安路89号,,29,29,18,8,7,96,57,91,85,11,6,5,4,0.5,0.3
2023-05-05T21:00:00,2296A,118.327,29.7178,黄山市,黄山东路89号,,15,13,14,1,5,91,48,88,79,10,7,4,4,0.7,0.6
2023-05-05T21:00:00,2297A,118.1371,30.2756,黄山市,黄山区政府5号楼,,25,25,16,4,7,77,34,65,54,9,8,6,6,0.9,0.7
2023-05-05T21:00:00,2298A,118.3093,32.3153,滁州市,老年大学,,50,45,29,35,15,54,48,50,50,10,11,6,7,0.4,0.5
2023-05-05T21:00:00,2299A,118.3244,32.2786,滁州市,人大宾馆,细颗粒物(PM2.5),54,41,18,38,20,62,52,57,56,15,18,5,5,0.6,0.6
2023-05-05T21:00:00,2301A,115.8277,32.8929,阜阳市,市监测站,,19,19,20,13,12,64,58,62,62,16,11,5,5,0.6,0.6
2023-05-05T21:00:00,2303A,115.8554,32.8605,阜阳市,开发区,,34,34,21,8,7,69,61,67,67,16,10,6,6,0.5,0.5
2023-05-05T21:00:00,2307A,116.5079,31.737,六安市,监测大楼,,24,24,21,13,9,63,56,60,60,4,4,3,3,0.3,0.4
2023-05-05T21:00:00,2308A,116.4738,31.7643,六安市,皖西学院,,44,44,24,20,9,66,59,62,62,6,5,3,4,0.3,0.4
2023-05-05T21:00:00,2309A,116.4996,31.7905,六安市,朝阳厂,,35,35,16,3,10,68,56,62,62,4,4,4,4,0.3,0.5
2023-05-05T21:00:00,2310A,116.5567,31.7886,六安市,开发区,,37,37,27,25,17,66,52,58,58,11,7,6,4,0.4,0.5
2023-05-05T21:00:00,2311A,115.8072,33.8399,亳州市,污水处理厂,,24,24,20,13,15,78,76,75,75,5,5,3,3,0.6,0.5
2023-05-05T21:00:00,2312A,115.7789,33.8518,亳州市,三国揽胜宫,,23,23,17,14,14,73,72,70,70,8,7,4,3,0.6,0.5
2023-05-05T21:00:00,2314A,117.47,30.6618,池州市,池州学院,,39,33,17,27,12,104,55,104,65,10,7,5,4,0.6,0.5
2023-05-05T21:00:00,2316A,118.7581,30.9454,宣城市,鳌峰子站,,43,26,19,30,14,77,73,72,72,16,12,3,4,0.6,0.6
2023-05-05T21:00:00,2317A,118.7385,30.9743,宣城市,敬亭山子站,,48,27,18,33,16,79,65,69,69,15,12,7,6,0.6,0.5
2023-05-05T21:00:00,2318A,118.7173,30.9427,宣城市,开发区子站,,39,24,19,27,15,79,63,71,71,13,13,6,6,0.6,0.6
2023-05-05T21:00:00,2319A,119.0141,25.4325,莆田市,荔城区仓后路,,36,36,30,14,12,78,33,68,59,18,10,6,6,0.6,0.5
2023-05-05T21:00:00,2320A,119.0015,25.4553,莆田市,莆田市监测站,,29,29,29,13,11,83,34,74,65,12,8,6,6,0.4,0.4
2023-05-05T21:00:00,2321A,119.1119,25.4561,莆田市,涵江区六中,,29,29,32,13,16,78,22,64,54,26,11,8,8,0.5,0.5
2023-05-05T21:00:00,2322A,119.1013,25.3215,莆田市,秀屿区政府,,23,23,27,4,9,69,42,57,53,11,6,4,6,0.7,0.6
2023-05-05T21:00:00,2323A,118.981,25.4792,莆田市,东圳水库,,,,,,,,,,,,,,,,
2023-05-05T21:00:00,2324A,117.6211,26.2625,三明市,三钢,,41,41,35,22,19,77,29,69,63,39,23,10,12,0.6,0.8
2023-05-05T21:00:00,2325A,117.635,26.2714,三明市,三明二中,,,35,31,20,17,79,,72,69,33,20,7,7,0.7,0.7
2023-05-05T21:00:00,2326A,117.6028,26.2378,三明市,三元区政府,颗粒物(PM10),55,60,36,26,22,83,26,75,66,23,16,7,9,0.7,0.5
2023-05-05T21:00:00,2327A,117.7275,26.3108,三明市,洋溪,,,,,,,,,,,,,,,,
2023-05-05T21:00:00,2331A,118.0966,26.6761,南平市,茫荡山,,,,,,,,,,,,,,,,
2023-05-05T21:00:00,2332A,118.1681,26.6369,南平市,南平市监测站,,28,28,20,15,13,81,27,68,60,17,17,4,3,0.7,0.7
2023-05-05T21:00:00,2333A,118.1825,26.6489,南平市,南平铝业有限公司,颗粒物(PM10),59,68,24,15,16,81,22,71,62,19,14,6,6,0.8,0.6
2023-05-05T21:00:00,2334A,118.1756,26.6272,南平市,南平七中,,19,17,20,13,11,78,34,62,58,14,16,4,4,0.4,0.3
2023-05-05T21:00:00,2335A,117.0189,25.1181,龙岩市,龙岩师专,,,,,,,,,,,,,,,,
2023-05-05T21:00:00,2336A,117.0217,25.1033,龙岩市,龙岩市监测站,,35,35,20,20,11,69,16,59,54,26,10,7,8,0.7,0.3
2023-05-05T21:00:00,2337A,117.0258,25.0661,龙岩市,闽西职业技术学院,,50,50,25,13,8,68,3,54,45,36,11,24,9,0.4,0.3
2023-05-05T21:00:00,2338A,117.0196,25.0306,龙岩市,龙岩学院,,22,12,18,15,10,71,36,57,55,10,9,3,4,0.3,0.2
2023-05-05T21:00:00,2339A,119.5001,26.6946,宁德市,金涵水库,,,,,,,,,,,,,,,,
2023-05-05T21:00:00,2341A,119.5388,26.6612,宁德市,宁德市监测站,,23,21,31,16,11,85,40,77,72,22,15,3,4,0.6,0.5
2023-05-05T21:00:00,2342A,117.3102,29.3867,景德镇市,王港中学,,27,27,13,17,13,80,70,76,76,5,5,14,6,0.4,0.3
2023-05-05T21:00:00,2343A,117.2117,29.2933,景德镇市,老干部活动中心,颗粒物(PM10),55,59,45,15,17,98,54,93,84,9,11,5,6,0.4,0.3
2023-05-05T21:00:00,2344A,117.1894,29.2789,景德镇市,兽医站,,28,13,17,19,11,109,45,101,91,19,14,11,9,0.4,0.3
2023-05-05T21:00:00,2345A,117.1547,29.2617,景德镇市,台达陶瓷,,43,37,23,30,14,95,53,88,82,26,19,56,44,0.6,0.5
2023-05-05T21:00:00,2346A,117.2461,29.2956,景德镇市,陶研所,,40,40,25,7,7,104,62,95,89,3,4,5,6,0.3,0.3
2023-05-05T21:00:00,2347A,114.0997,27.5002,萍乡市,武功山,,8,8,8,3,7,62,9,40,24,4,5,24,22,0.5,0.8
2023-05-05T21:00:00,2348A,113.8385,27.6434,萍乡市,中医院,,41,41,33,27,22,112,50,86,81,17,13,16,14,1.3,0.9
2023-05-05T21:00:00,2349A,113.8493,27.6253,萍乡市,市政府车库,,49,49,36,24,20,102,36,81,74,27,11,29,19,0.9,0.7
2023-05-05T21:00:00,2350A,113.8676,27.6435,萍乡市,市环保局,,43,43,36,24,22,108,36,83,76,27,13,27,19,0.9,0.7
2023-05-05T21:00:00,2351A,113.866,27.6198,萍乡市,安源区政府,,,48,32,21,20,84,,68,66,,12,29,19,0.6,0.6
2023-05-05T21:00:00,2352A,115.0861,27.9317,新余市,北岗,,25,5,17,8,14,94,79,85,83,6,10,3,7,0.5,0.7
2023-05-05T21:00:00,2353A,114.9886,27.8431,新余市,飞宇,,30,17,44,8,18,117,94,100,97,14,17,4,4,0.6,0.8
2023-05-05T21:00:00,2354A,114.9231,27.8246,新余市,第二水厂,,28,23,42,8,18,102,89,84,82,11,14,5,7,0.3,0.6
2023-05-05T21:00:00,2355A,114.9308,27.8036,新余市,市气象局,,,,63,6,32,106,92,90,88,7,13,6,12,0.3,0.9
2023-05-05T21:00:00,2357A,116.9822,28.1136,鹰潭市,龙虎山,,24,20,37,16,8,118,75,104,92,5,2,1,2,0.7,0.6
2023-05-05T21:00:00,2358A,117.0564,28.2642,鹰潭市,新监测站,,26,25,36,14,9,114,82,104,94,3,6,2,2,0.4,0.4
2023-05-05T21:00:00,2359A,117.0311,28.2475,鹰潭市,财苑宾馆,,32,24,37,22,7,117,86,106,100,6,8,6,6,0.6,0.4
2023-05-05T21:00:00,2360A,117.0222,28.2264,鹰潭市,体育馆,,25,24,20,16,8,116,80,111,100,9,9,4,3,0.4,0.3
2023-05-05T21:00:00,2361A,117.0017,28.2131,鹰潭市,三川水表,,27,27,21,9,4,113,63,109,95,13,7,1,2,0.5,0.5
2023-05-05T21:00:00,2362A,114.9017,25.9149,赣州市,通天岩,,39,39,32,19,17,80,62,72,67,16,15,6,8,1.6,1.4
2023-05-05T21:00:00,2363A,114.9367,25.8664,赣州市,地委,,41,41,31,25,17,92,47,92,58,17,10,10,12,1.3,1.2
2023-05-05T21:00:00,2364A,114.9461,25.8481,赣州市,气象台,,32,32,27,17,14,91,70,90,69,10,8,6,6,0.8,0.6
2023-05-05T21:00:00,2365A,114.9322,25.8333,赣州市,市图书馆,,37,37,29,21,14,88,45,88,53,20,12,4,5,1.1,1
2023-05-05T21:00:00,2366A,114.8905,25.8471,赣州市,华坚鞋城,颗粒物(PM10),52,53,41,28,16,73,53,68,61,13,6,5,12,0.6,0.6
2023-05-05T21:00:00,2367A,114.9754,27.0803,吉安市,红声器材厂,,46,46,38,29,21,97,51,82,60,10,11,11,9,0.5,0.5
2023-05-05T21:00:00,2368A,114.9658,27.0999,吉安市,市森林工业局,,48,48,37,31,21,95,38,80,54,17,9,12,8,0.6,0.6
2023-05-05T21:00:00,2369A,114.99,27.1312,吉安市,市环境监测站,,41,41,35,22,18,104,38,83,56,14,11,13,10,0.5,0.4
2023-05-05T21:00:00,2370A,115.0093,27.0968,吉安市,青原区法院,细颗粒物(PM2.5),64,64,37,46,22,103,46,86,62,18,12,11,11,0.6,0.7
2023-05-05T21:00:00,2371A,114.3408,27.8064,宜春市,槟榔水业,,18,17,31,12,20,41,9,29,19,6,8,9,8,0.8,0.7
2023-05-05T21:00:00,2373A,114.3956,27.7844,宜春市,市石油公司,,24,24,33,11,21,110,60,90,85,13,13,3,3,0.6,0.6
2023-05-05T21:00:00,2374A,114.3703,27.7914,宜春市,市气象局,,25,21,34,17,24,114,69,96,92,18,16,4,6,0.8,0.7
2023-05-05T21:00:00,2375A,114.4013,27.8074,宜春市,市广电局,,26,26,36,16,24,108,67,92,88,12,10,6,7,0.6,0.5
2023-05-05T21:00:00,2376A,116.2127,28.0814,抚州市,桐源党溪,,31,24,28,11,10,128,98,113,111,3,3,3,4,0.5,0.5
2023-05-05T21:00:00,2377A,116.3544,27.9831,抚州市,市站,,28,26,24,17,11,102,87,97,92,7,7,2,2,0.9,0.5
2023-05-05T21:00:00,2378A,116.3565,27.963,抚州市,血防站,,37,37,26,16,10,106,86,95,90,7,6,4,4,0.7,0.7
2023-05-05T21:00:00,2379A,116.3564,28.0007,抚州市,采茶剧团,,27,23,21,17,11,102,85,98,93,12,8,6,6,0.7,0.6
2023-05-05T21:00:00,2380A,116.385,27.9647,抚州市,医学分院,,27,24,20,13,8,100,86,89,86,7,8,4,5,0.5,0.5
2023-05-05T21:00:00,2381A,118.005,28.4572,上饶市,百草园,,25,25,25,2,11,110,50,92,72,6,9,4,16,0.8,0.9
2023-05-05T21:00:00,2382A,117.9756,28.4436,上饶市,市监测站,,26,26,26,12,13,110,46,97,80,18,18,6,15,0.5,0.5
2023-05-05T21:00:00,2383A,117.9519,28.4628,上饶市,凤凰光学,,30,30,41,14,15,111,46,96,82,17,17,37,17,0.7,0.6
2023-05-05T21:00:00,2385A,114.17,35.9019,鹤壁市,市监测站,,42,29,38,29,19,98,74,93,91,18,17,7,6,0.6,0.9
2023-05-05T21:00:00,2386A,114.2956,35.7511,鹤壁市,市交警支队,,32,29,25,22,21,94,73,88,83,17,17,3,3,0.7,0.8
2023-05-05T21:00:00,2387A,114.2878,35.7306,鹤壁市,迎宾馆,,43,9,21,30,22,99,76,92,87,14,16,6,8,0.8,0.9
2023-05-05T21:00:00,2389A,113.836,35.311,新乡市,环保西院,,28,28,37,7,13,105,82,94,92,11,12,3,5,0.6,0.7
2023-05-05T21:00:00,2390A,113.884,35.272,新乡市,开发区,,29,29,38,7,13,108,82,98,96,8,10,7,8,0.5,0.6
2023-05-05T21:00:00,2391A,113.883,35.303,新乡市,环保东院,,32,32,40,17,20,113,83,102,99,15,14,2,3,0.2,0.4
2023-05-05T21:00:00,2392A,115.0312,35.7636,濮阳市,环保局,,24,16,16,11,13,90,76,86,83,10,8,6,6,0.4,0.4
2023-05-05T21:00:00,2394A,115.0574,35.7609,濮阳市,油田运输公司,,43,43,20,13,16,100,81,90,87,8,7,9,9,0.4,0.5
2023-05-05T21:00:00,2395A,115.0866,35.7754,濮阳市,油田物探公司,,,42,17,13,17,95,79,85,82,,8,5,5,,0.4
2023-05-05T21:00:00,2396A,113.8276,34.0159,许昌市,监测站,,,,26,,13,105,79,95,95,12,12,5,5,,0.9
2023-05-05T21:00:00,2398A,113.7906,33.9953,许昌市,开发区,,28,22,28,6,8,111,87,101,101,8,8,2,3,0.6,0.7
2023-05-05T21:00:00,2399A,114.051,33.5699,漯河市,三五一五工厂,,27,24,24,14,17,104,86,95,94,6,5,16,9,0.6,0.7
2023-05-05T21:00:00,2400A,114.0055,33.5698,漯河市,漯河大学,,28,22,25,15,16,107,87,98,97,4,4,9,9,0.5,0.6
2023-05-05T21:00:00,2401A,114.0138,33.5828,漯河市,市水利局,,27,24,26,17,17,104,84,95,95,7,7,7,8,0.5,0.6
2023-05-05T21:00:00,2402A,114.0261,33.5698,漯河市,市广电局,,28,22,24,10,15,108,89,95,95,7,7,7,7,0.5,0.6
2023-05-05T21:00:00,2404A,112.5224,33.0122,南阳市,瓦房庄,,48,48,40,15,15,92,83,81,81,14,15,6,6,0.7,0.7
2023-05-05T21:00:00,2405A,112.5003,32.9735,南阳市,汉画馆,,48,48,41,27,22,96,87,85,83,8,6,6,6,0.9,0.9
2023-05-05T21:00:00,2406A,112.5573,33.027,南阳市,气象站,,38,36,22,26,20,98,79,86,85,15,11,4,3,0.7,0.7
2023-05-05T21:00:00,2407A,112.5481,32.9689,南阳市,理工学院,,45,45,31,30,23,101,70,89,84,18,10,4,4,0.8,0.8
2023-05-05T21:00:00,2408A,115.6702,34.4285,商丘市,环境监测站,,27,27,14,9,10,80,71,74,74,11,7,7,8,0.6,0.5
2023-05-05T21:00:00,2409A,115.6458,34.4045,商丘市,粮食局,,24,23,15,7,9,79,74,76,76,12,8,6,6,0.7,0.7
2023-05-05T21:00:00,2410A,115.6293,34.3948,商丘市,睢阳区环保局,,41,41,16,10,7,85,77,78,78,12,5,3,2,0.6,0.6
2023-05-05T21:00:00,2420A,114.0189,32.9656,驻马店市,市一纸厂,,31,31,23,21,18,105,78,92,91,8,6,2,2,0.4,0.5
2023-05-05T21:00:00,2421A,114.0114,33.015,驻马店市,市彩印厂,,26,26,27,11,18,101,74,89,88,5,4,2,3,0.3,0.4
2023-05-05T21:00:00,2422A,113.9976,32.9771,驻马店市,天方二分厂,,35,14,24,24,22,100,77,89,88,5,4,6,6,0.4,0.6
2023-05-05T21:00:00,2423A,115.0601,30.2313,黄石市,沈家营,,22,22,23,11,7,101,64,91,87,10,8,4,5,0.3,0.4
2023-05-05T21:00:00,2424A,115.0817,30.2006,黄石市,陈家湾,,21,20,22,11,9,107,65,98,92,12,6,5,4,0.4,0.5
2023-05-05T21:00:00,2426A,114.8988,30.2019,黄石市,铁山,,25,25,25,7,10,104,75,94,90,4,7,3,5,0.6,0.8
2023-05-05T21:00:00,2427A,115.0307,30.2092,黄石市,团城山,,22,20,22,2,5,107,70,97,93,7,6,6,6,0.6,0.7
2023-05-05T21:00:00,2428A,111.0419,32.395,十堰市,武当山,,28,27,30,16,14,91,88,83,83,8,7,7,7,1.1,1
2023-05-05T21:00:00,2429A,110.78,32.6494,十堰市,滨河新村,,40,40,39,21,18,95,79,89,88,3,6,4,4,0.7,0.5
2023-05-05T21:00:00,2430A,110.7258,32.6389,十堰市,刘家沟,细颗粒物(PM2.5),57,40,40,40,18,117,87,104,100,8,7,5,6,1.1,0.9
2023-05-05T21:00:00,2431A,110.8839,32.5714,十堰市,铁二处,,36,36,33,18,12,108,89,102,100,6,7,8,7,1.1,1
2023-05-05T21:00:00,2432A,112.155,32.0197,襄阳市,襄城运动路,颗粒物(PM10),65,79,48,27,43,129,83,111,100,12,12,7,7,0.8,1
2023-05-05T21:00:00,2433A,112.1392,32.0564,襄阳市,樊城新华路,颗粒物(PM10),59,67,52,24,28,128,83,108,99,8,10,6,6,0.8,1
2023-05-05T21:00:00,2434A,112.1825,32.1142,襄阳市,高新管委会,颗粒物(PM10),68,86,56,33,57,115,70,100,92,13,13,7,7,0.8,0.9
2023-05-05T21:00:00,2435A,112.2106,32.0903,襄阳市,襄州航空路,颗粒物(PM10),61,71,57,18,25,110,68,94,86,16,13,6,7,0.9,1
2023-05-05T21:00:00,2436A,114.8938,30.3994,鄂州市,市政府,,22,12,18,6,6,104,70,85,82,9,10,8,9,0.4,0.6
2023-05-05T21:00:00,2437A,114.8989,30.3714,鄂州市,赵家坝,,24,18,17,10,7,109,75,96,92,7,7,6,8,0.5,0.7
2023-05-05T21:00:00,2439A,112.2014,31.0481,荆门市,竹园小学,,47,47,40,28,35,124,86,114,107,11,12,10,9,0.8,0.8
2023-05-05T21:00:00,2440A,112.1969,30.9891,荆门市,掇刀,,35,35,38,21,31,117,84,106,99,11,11,10,8,0.8,0.8
2023-05-05T21:00:00,2441A,112.2213,31.0386,荆门市,石化一小,,40,40,35,17,18,122,82,112,105,10,9,7,7,0.7,0.7
2023-05-05T21:00:00,2443A,113.9153,30.9285,孝感市,文化路,,32,25,22,22,15,102,70,95,90,9,5,7,8,0.7,0.8
2023-05-05T21:00:00,2444A,113.942,30.9075,孝感市,东城区,,25,25,18,17,16,101,69,95,89,11,8,8,8,0.7,0.8
2023-05-05T21:00:00,2446A,114.9028,30.4742,黄冈市,职工中心,,25,24,20,16,13,106,77,96,92,2,3,3,4,0.6,0.7
2023-05-05T21:00:00,2447A,114.3175,29.8142,咸宁市,森林公园,,31,26,28,9,7,119,98,113,110,2,2,4,4,0.6,0.6
2023-05-05T21:00:00,2448A,114.3107,29.8454,咸宁市,市发改委,,35,33,23,24,18,130,101,120,118,8,5,3,3,0.4,0.4
2023-05-05T21:00:00,2449A,114.2936,29.8566,咸宁市,咸安区政府,,28,26,20,14,14,129,87,115,111,15,11,5,3,0.6,0.6
2023-05-05T21:00:00,2451A,113.3583,31.7275,随州市,市委党校,,39,39,34,25,23,83,68,77,76,9,5,5,5,0.6,0.6
2023-05-05T21:00:00,2452A,113.3833,31.6908,随州市,市林业局,,29,28,29,20,23,87,74,82,82,10,9,5,5,0.6,0.6
2023-05-05T21:00:00,2453A,113.3983,31.7308,随州市,市立交桥水厂,,29,24,26,20,21,88,70,82,80,13,11,4,4,0.6,0.7
2023-05-05T21:00:00,2454A,109.4978,30.2981,恩施土家族苗族自治州,湖北民院,,30,30,36,14,10,70,32,49,49,12,10,8,8,0.9,0.8
2023-05-05T21:00:00,2455A,109.4707,30.2798,恩施土家族苗族自治州,州电力总公司,,25,18,31,17,22,54,33,41,41,12,15,7,8,0.8,0.9
2023-05-05T21:00:00,2456A,112.5003,26.9167,衡阳市,原169医院,,50,50,41,28,25,81,56,69,69,12,13,4,14,0.6,0.6
2023-05-05T21:00:00,2457A,112.6194,26.9258,衡阳市,衡阳化工总厂,颗粒物(PM10),54,58,44,33,27,94,55,83,81,22,12,15,16,0.8,0.6
2023-05-05T21:00:00,2458A,112.6211,26.8956,衡阳市,珠晖区环保局,,,48,37,,20,94,64,83,83,25,12,15,14,0.9,0.6
2023-05-05T21:00:00,2459A,112.6197,26.8733,衡阳市,市委党校,,,48,38,,,102,84,93,93,10,8,13,10,0.9,0.7
2023-05-05T21:00:00,2460A,112.6006,26.8919,衡阳市,市监测站,,46,46,37,24,27,101,70,90,89,16,11,11,21,0.8,0.6
2023-05-05T21:00:00,2461A,112.5664,26.9056,衡阳市,真空机电公司,细颗粒物(PM2.5),52,49,43,36,28,96,55,83,81,18,14,10,20,0.9,1
2023-05-05T21:00:00,2462A,111.5239,27.3033,邵阳市,市水土所,,33,3,30,23,14,69,60,57,57,6,7,3,4,0.6,0.6
2023-05-05T21:00:00,2463A,111.4733,27.2317,邵阳市,市一中,,,,42,10,21,68,59,61,61,11,14,,12,0.5,0.5
2023-05-05T21:00:00,2464A,111.5283,27.2442,邵阳市,市化工厂,,26,19,40,18,24,66,52,58,58,12,14,20,14,0.8,0.7
2023-05-05T21:00:00,2465A,111.4503,27.2537,邵阳市,市罐头厂,,,15,34,10,26,71,58,62,62,,11,2,5,0.5,0.4
2023-05-05T21:00:00,2466A,111.4328,27.2272,邵阳市,市环保局,,18,12,36,7,30,70,57,62,61,14,12,2,7,0.5,0.5
2023-05-05T21:00:00,2467A,112.4067,28.6428,益阳市,甘溪港,,24,22,17,6,6,99,75,85,85,8,7,3,4,0.8,0.6
2023-05-05T21:00:00,2468A,112.3458,28.5808,益阳市,市环保局,,40,38,29,28,16,97,78,82,82,5,4,6,6,0.9,0.8
2023-05-05T21:00:00,2469A,112.3437,28.5531,益阳市,市特殊教育学校,,45,35,30,31,19,94,81,81,81,9,7,5,5,0.9,0.8
2023-05-05T21:00:00,2470A,112.3347,28.6047,益阳市,资阳区政务中心,,40,34,28,28,18,89,69,76,76,12,7,5,5,1.0,0.8
2023-05-05T21:00:00,2471A,112.3744,28.5819,益阳市,赫山环保分局,,36,33,21,25,12,96,83,80,80,5,5,4,5,1.0,0.9
2023-05-05T21:00:00,2472A,113.0073,25.9061,郴州市,马头岭,,24,24,32,4,14,98,61,96,67,17,16,4,7,0.5,0.5
