timepoint,stationcode,longitude,latitude,area,positionname,primarypollutant,aqi,pm10,pm10_24h,pm2_5,pm2_5_24h,o3,o3_24h,o3_8h,o3_8h_24h,no2,no2_24h,so2,so2_24h,co,co_24h
2022-07-25T22:00:00,1001A,116.3621,39.8784,北京市,万寿西宫,颗粒物(PM10),51,51,34,27,23,167,115,161,147,12,16,3,2,0.5,0.5
2022-07-25T22:00:00,1002A,116.2202,40.2915,北京市,定陵(对照点),颗粒物(PM10),52,54,35,24,15,195,82,165,143,8,7,3,3,0.5,0.4
2022-07-25T22:00:00,1003A,116.4174,39.9289,北京市,东四,颗粒物(PM10),51,51,47,27,23,214,137,197,181,12,21,1,2,0.4,0.4
2022-07-25T22:00:00,1004A,116.4072,39.8863,北京市,天坛,,50,50,44,25,22,155,104,147,133,12,19,3,3,0.5,0.4
2022-07-25T22:00:00,1005A,116.462,39.9365,北京市,农展馆,颗粒物(PM10),54,58,48,32,22,194,133,185,170,2,19,3,3,0.5,0.4
2022-07-25T22:00:00,1006A,116.3392,39.9295,北京市,官园,颗粒物(PM10),53,56,46,31,22,202,137,192,172,16,21,2,3,0.2,0.4
2022-07-25T22:00:00,1007A,116.2878,39.9611,北京市,海淀万柳,,45,45,42,20,19,183,126,168,158,14,25,1,2,0.4,0.4
2022-07-25T22:00:00,1008A,116.6636,40.135,北京市,顺义新城,颗粒物(PM10),54,57,43,24,19,173,112,157,140,17,13,3,3,0.5,0.4
2022-07-25T22:00:00,1009A,116.6275,40.3275,北京市,怀柔镇,颗粒物(PM10),53,56,36,33,21,186,97,168,152,27,13,2,2,0.5,0.4
2022-07-25T22:00:00,1010A,116.2296,40.217,北京市,昌平镇,颗粒物(PM10),53,55,36,30,19,199,121,167,162,16,14,3,2,0.5,0.4
2022-07-25T22:00:00,1011A,116.3966,39.9821,北京市,奥体中心,颗粒物(PM10),52,53,44,29,20,195,129,179,170,10,22,3,2,0.5,0.5
2022-07-25T22:00:00,1012A,116.184,39.9136,北京市,古城,,48,48,46,19,20,182,120,165,151,10,17,3,3,0.4,0.4
2022-07-25T22:00:00,1015A,117.1444,39.1661,天津市,勤俭道,,48,48,50,27,30,180,141,176,167,14,11,8,9,0.6,0.6
2022-07-25T22:00:00,1017A,117.237,39.1082,天津市,大直沽八号路,颗粒物(PM10),73,95,55,46,30,181,168,170,170,13,10,8,8,0.7,0.6
2022-07-25T22:00:00,1018A,117.202,39.0927,天津市,前进道,颗粒物(PM10),57,64,57,36,37,158,147,158,151,19,15,6,6,0.9,0.8
2022-07-25T22:00:00,1019A,117.1837,39.2133,天津市,淮河道,颗粒物(PM10),69,88,56,42,31,186,161,180,174,14,12,7,8,0.7,0.6
2022-07-25T22:00:00,1021A,117.307,39.0877,天津市,跃进路,臭氧1小时,77,86,57,39,27,221,181,177,177,25,18,6,7,0.6,0.6
2022-07-25T22:00:00,1023A,117.707,39.0343,天津市,第四大街,细颗粒物(PM2.5),95,117,66,71,41,180,94,167,154,57,18,5,6,0.8,0.8
2022-07-25T22:00:00,1024A,117.457,38.8394,天津市,永明路,细颗粒物(PM2.5),74,76,52,54,35,223,170,192,192,13,8,6,7,0.7,0.6
2022-07-25T22:00:00,1026A,117.764,39.1587,天津市,汉北路,细颗粒物(PM2.5),90,91,65,67,40,209,164,190,187,11,11,6,6,0.8,0.8
2022-07-25T22:00:00,1027A,117.157,38.9194,天津市,团泊洼(对照点),颗粒物(PM10),54,57,51,32,29,177,102,169,155,31,14,6,6,0.8,0.8
2022-07-25T22:00:00,1029A,114.4422,38.0444,石家庄市,职工医院,,36,19,56,25,39,236,73,179,133,24,23,5,8,0.3,0.6
2022-07-25T22:00:00,1030A,114.6063,38.0266,石家庄市,高新区,,36,26,67,25,38,232,73,169,122,25,23,3,5,0.5,0.7
2022-07-25T22:00:00,1031A,114.4898,38.1328,石家庄市,西北水源,,29,29,67,10,39,235,81,180,136,13,17,3,6,0.4,0.7
2022-07-25T22:00:00,1032A,114.4586,38.0058,石家庄市,西南高教,,32,26,64,22,38,225,62,162,121,25,28,3,4,0.6,0.9
2022-07-25T22:00:00,1033A,114.5331,38.0178,石家庄市,世纪公园,,35,34,73,24,44,215,69,174,115,20,14,3,6,0.5,0.7
2022-07-25T22:00:00,1034A,114.509,38.0457,石家庄市,人民会堂,,29,21,60,20,33,240,87,194,138,10,12,4,8,0.5,0.7
2022-07-25T22:00:00,1035A,114.3524,37.8911,石家庄市,封龙山(对照点),,36,16,50,16,28,179,114,162,142,7,12,6,7,0.5,0.8
2022-07-25T22:00:00,1037A,118.131,39.6363,唐山市,雷达站,颗粒物(PM10),65,80,66,44,33,231,167,209,194,15,12,4,3,1.2,0.7
2022-07-25T22:00:00,1038A,118.1725,39.6334,唐山市,物资局,颗粒物(PM10),63,75,67,40,36,221,161,197,185,13,14,8,5,1.1,0.7
2022-07-25T22:00:00,1040A,118.1705,39.6506,唐山市,十二中,颗粒物(PM10),57,64,53,28,30,220,155,198,184,19,17,7,4,1.2,0.7
2022-07-25T22:00:00,1041A,118.1869,39.622,唐山市,小山,细颗粒物(PM2.5),74,68,55,54,42,222,144,200,180,16,12,6,5,0.8,0.7
2022-07-25T22:00:00,1042A,119.5134,39.8207,秦皇岛市,北戴河环保局,,,70,80,32,34,194,,174,174,5,11,1,2,0.5,0.7
2022-07-25T22:00:00,1043A,119.7493,40.0116,秦皇岛市,第一关,颗粒物(PM10),57,63,68,34,38,224,143,200,188,8,25,3,3,1.0,1.1
2022-07-25T22:00:00,1044A,119.5897,39.9499,秦皇岛市,监测站,臭氧1小时,62,53,56,42,50,230,169,209,201,5,7,5,6,0.4,0.6
2022-07-25T22:00:00,1046A,119.5251,39.9041,秦皇岛市,建设大厦,臭氧1小时,54,48,54,28,25,217,163,200,189,6,11,1,3,0.6,0.8
2022-07-25T22:00:00,1047A,114.5129,36.61763,邯郸市,环保局,,,,,,,,,,,,,,,,
2022-07-25T22:00:00,1048A,114.5302,36.6116,邯郸市,东污水处理厂,,29,20,39,5,18,140,92,125,98,7,10,5,10,0.6,0.4
2022-07-25T22:00:00,1049A,114.4918,36.5713,邯郸市,矿院,,21,18,38,10,18,137,66,124,92,15,13,2,6,0.8,0.8
2022-07-25T22:00:00,1050A,114.484,36.6133,邯郸市,丛台公园,,27,27,44,13,17,135,75,121,94,15,12,4,6,0.6,0.5
2022-07-25T22:00:00,1051A,115.493,38.8632,保定市,游泳馆,,31,14,38,8,24,150,97,143,121,15,16,5,8,0.3,0.3
2022-07-25T22:00:00,1052A,115.5213,38.8959,保定市,华电二区,,30,23,49,13,22,160,95,152,132,9,11,4,5,0.3,0.5
2022-07-25T22:00:00,1053A,115.4713,38.9108,保定市,接待中心,,34,20,43,8,20,167,107,161,137,10,13,5,6,0.5,0.7
2022-07-25T22:00:00,1054A,115.4612,38.8416,保定市,地表水厂,,30,20,56,11,28,164,93,152,125,14,14,5,6,0.3,0.5
2022-07-25T22:00:00,1055A,115.4323,38.8697,保定市,胶片厂,,32,23,39,22,30,162,95,150,124,11,16,4,5,0.4,0.5
2022-07-25T22:00:00,1056A,115.5086,38.8639,保定市,监测站,,35,26,44,24,26,163,104,155,134,12,14,7,9,0.2,0.4
2022-07-25T22:00:00,1057A,114.8883,40.8336,张家口市,人民公园,,46,36,21,15,4,145,145,137,137,11,12,7,6,0.5,0.3
2022-07-25T22:00:00,1059A,114.8687,40.8042,张家口市,五金库,,43,39,29,24,12,135,135,130,130,12,18,8,8,0.4,0.3
2022-07-25T22:00:00,1060A,114.8902,40.762,张家口市,世纪豪园,,42,38,29,22,9,146,133,136,136,20,22,6,7,0.4,0.3
2022-07-25T22:00:00,1061A,114.8916,40.8661,张家口市,北泵房(对照点),,46,29,22,24,12,147,147,134,134,7,11,6,6,0.7,0.6
2022-07-25T22:00:00,1062A,117.9531,40.9081,承德市,铁路,颗粒物(PM10),51,51,38,32,20,164,102,138,135,44,26,4,4,0.5,0.4
2022-07-25T22:00:00,1063A,117.9392,40.9763,承德市,中国银行,,,,22,0,13,143,98,140,131,30,14,7,6,0.7,0.4
2022-07-25T22:00:00,1064A,117.9503,40.928,承德市,开发区,颗粒物(PM10),52,53,36,31,18,177,115,154,151,30,19,4,4,0.5,0.5
2022-07-25T22:00:00,1065A,117.8051,40.9655,承德市,文化中心,臭氧1小时,93,44,31,36,20,194,194,175,175,5,12,5,7,0.5,0.6
2022-07-25T22:00:00,1066A,117.9268,41.0026,承德市,离宫(对照点),,50,46,33,35,17,148,78,139,128,10,9,1,2,0.4,0.3
2022-07-25T22:00:00,1067A,116.6708,39.5111,廊坊市,药材公司,细颗粒物(PM2.5),52,46,48,36,25,171,112,162,145,21,18,7,7,0.5,0.5
2022-07-25T22:00:00,1068A,116.7214,39.5589,廊坊市,开发区,,49,48,50,34,28,172,130,167,157,21,20,9,9,0.6,0.6
2022-07-25T22:00:00,1070A,116.7244,39.5269,廊坊市,北华航天学院,细颗粒物(PM2.5),58,58,64,41,40,175,124,171,154,18,18,6,7,0.4,0.4
2022-07-25T22:00:00,1071A,116.8842,38.2991,沧州市,沧县城建局,颗粒物(PM10),51,52,48,16,22,159,98,149,136,18,12,5,7,0.3,0.4
2022-07-25T22:00:00,1072A,116.8584,38.3254,沧州市,电视转播站,,48,48,43,7,25,177,106,163,152,19,12,8,9,0.2,0.4
2022-07-25T22:00:00,1073A,116.8709,38.3228,沧州市,市环保局,颗粒物(PM10),52,53,47,16,23,166,102,155,144,17,10,4,6,0.2,0.3
2022-07-25T22:00:00,1074A,115.6838,37.7541,衡水市,电机北厂,,32,7,38,0,19,166,100,155,133,13,10,8,9,0.1,0.3
2022-07-25T22:00:00,1075A,115.6303,37.7316,衡水市,市监测站,,30,23,56,3,19,160,94,144,124,9,10,4,6,0.5,0.6
2022-07-25T22:00:00,1077A,114.4704,37.0886,邢台市,达活泉,,31,31,51,8,24,172,78,150,101,12,12,6,10,0.5,0.7
2022-07-25T22:00:00,1078A,114.5062,37.0349,邢台市,邢师高专,,25,17,48,9,23,157,77,132,102,14,16,6,9,0.4,0.6
2022-07-25T22:00:00,1079A,114.5237,37.0851,邢台市,路桥公司,,20,20,52,13,21,162,63,131,96,8,12,3,6,0.4,0.6
2022-07-25T22:00:00,1080A,114.4725,37.0719,邢台市,市环保局,,35,23,59,24,32,168,74,137,101,16,16,5,8,0.5,0.7
2022-07-25T22:00:00,1081A,112.5139,37.8873,太原市,尖草坪,颗粒物(PM10),52,53,74,24,30,187,111,171,157,22,35,5,13,0.6,0.8
2022-07-25T22:00:00,1083A,112.434,38.0108,太原市,上兰(对照点),,,,,,,,,,,,,,,,
2022-07-25T22:00:00,1084A,112.469,37.7124,太原市,晋源,,40,40,60,22,31,168,92,149,134,23,30,15,17,0.5,0.7
2022-07-25T22:00:00,1085A,112.5583,37.7394,太原市,小店,,35,35,71,13,30,179,96,160,146,24,39,12,14,0.4,0.6
2022-07-25T22:00:00,1086A,112.5369,37.8692,太原市,桃园,,47,47,71,22,30,182,118,170,157,16,34,6,15,0.6,0.9
2022-07-25T22:00:00,1087A,112.57,37.8195,太原市,坞城,,37,37,67,16,29,183,118,166,154,15,31,6,15,0.6,0.8
2022-07-25T22:00:00,1088A,112.549,37.9854,太原市,南寨,,43,43,81,21,36,174,92,159,148,24,43,5,10,0.5,0.8
2022-07-25T22:00:00,1089A,112.4701,37.782,太原市,金胜,,,,,,,,,,,,,,,,
2022-07-25T22:00:00,1090A,111.6507,40.7517,呼和浩特市,呼市一监,,48,48,37,16,12,181,110,168,157,21,22,7,7,0.4,0.4
2022-07-25T22:00:00,1091A,111.6572,40.8033,呼和浩特市,小召,颗粒物(PM10),57,63,41,21,13,168,104,162,154,38,27,9,7,0.5,0.4
2022-07-25T22:00:00,1094A,111.7516,40.8369,呼和浩特市,如意水处理厂,颗粒物(PM10),54,57,44,19,13,181,110,170,157,16,26,8,8,0.4,0.4
2022-07-25T22:00:00,1095A,111.7276,40.8062,呼和浩特市,二十九中,颗粒物(PM10),57,64,37,22,14,165,98,156,148,27,26,8,8,0.5,0.5
2022-07-25T22:00:00,1096A,111.5512,40.7866,呼和浩特市,工大金川校区,颗粒物(PM10),70,89,41,21,13,178,97,166,155,34,26,7,8,0.6,0.5
2022-07-25T22:00:00,1097A,111.717,40.7612,呼和浩特市,化肥厂生活区,颗粒物(PM10),52,54,45,22,17,172,95,162,149,29,22,7,7,0.5,0.5
2022-07-25T22:00:00,1098A,123.6836,41.9339,沈阳市,森林路(对照点),,,,,,,,,,,,,,,,
2022-07-25T22:00:00,1099A,123.505,41.7406,沈阳市,浑南东路,颗粒物(PM10),54,58,45,33,27,167,79,159,144,31,24,12,11,1.1,1
2022-07-25T22:00:00,1100A,123.4231,41.6989,沈阳市,新秀街,颗粒物(PM10),55,60,44,36,25,164,90,149,136,28,27,12,15,1.3,1
2022-07-25T22:00:00,1102A,123.5903,41.8411,沈阳市,东陵路,颗粒物(PM10),55,59,49,29,23,155,86,138,128,22,19,12,11,0.9,0.8
2022-07-25T22:00:00,1103A,123.4264,41.8467,沈阳市,陵东街,,43,43,36,30,24,159,124,148,143,15,21,4,5,0.8,0.9
2022-07-25T22:00:00,1104A,123.4114,41.7653,沈阳市,文化路,颗粒物(PM10),53,56,47,36,28,194,123,174,162,24,20,7,11,1.0,0.9
2022-07-25T22:00:00,1105A,123.4678,41.7867,沈阳市,小河沿,,49,49,41,31,25,161,125,152,146,19,21,10,8,1.3,1
2022-07-25T22:00:00,1106A,123.4017,41.7972,沈阳市,太原街,细颗粒物(PM2.5),52,49,40,36,28,184,125,163,151,22,24,5,8,0.7,0.7
2022-07-25T22:00:00,1108A,123.3783,41.9228,沈阳市,京沈街,颗粒物(PM10),55,60,46,35,25,188,148,172,165,16,23,7,10,0.7,0.7
2022-07-25T22:00:00,1109A,121.612,38.9741,大连市,甘井子,,,,41,,25,109,,109,,,18,,4,,0.7
2022-07-25T22:00:00,1110A,121.565,38.9511,大连市,周水子,,,,36,,21,124,,119,,,10,,5,,0.7
2022-07-25T22:00:00,1111A,121.5637,38.8845,大连市,星海三站,,,,43,,40,130,,129,,,19,,5,,0.4
2022-07-25T22:00:00,1112A,121.6302,38.9117,大连市,青泥洼桥,,39,37,32,24,31,197,122,188,171,22,12,6,6,0.7,0.7
2022-07-25T22:00:00,1113A,121.6251,38.8638,大连市,傅家庄,,,,27,,21,114,,109,,,6,,9,,0.5
2022-07-25T22:00:00,1114A,121.5213,38.8661,大连市,七贤岭,臭氧1小时,78,42,38,32,27,230,182,220,213,11,11,7,8,0.9,1
2022-07-25T22:00:00,1115A,121.2529,38.8061,大连市,旅顺,,40,33,32,24,27,198,128,181,172,14,13,6,6,0.7,0.7
2022-07-25T22:00:00,1116A,121.7485,39.1311,大连市,金州,,,,43,,26,112,,114,,,15,,7,,0.6
2022-07-25T22:00:00,1117A,121.7811,39.0496,大连市,开发区,,,,40,,28,135,,119,,,18,,10,,1.0
2022-07-25T22:00:00,1118A,121.9762,39.0631,大连市,双D港,,,,33,,29,105,,91,,,19,,9,,0.6
2022-07-25T22:00:00,1119A,125.3325,43.9166,长春市,食品厂,细颗粒物(PM2.5),67,66,33,48,19,119,70,109,100,32,27,3,3,0.9,0.6
2022-07-25T22:00:00,1120A,125.2863,43.9027,长春市,客车厂,颗粒物(PM10),57,63,30,38,14,131,69,117,102,36,29,3,3,1.0,0.6
2022-07-25T22:00:00,1121A,125.2841,43.8463,长春市,邮电学院,"颗粒物(PM10),细颗粒物(PM2.5)",54,58,29,38,15,118,29,111,91,28,16,4,4,0.9,0.5
2022-07-25T22:00:00,1122A,125.3716,43.8772,长春市,劳动公园,颗粒物(PM10),57,64,28,32,12,125,75,119,111,24,19,2,2,0.8,0.5
2022-07-25T22:00:00,1123A,125.3297,43.8805,长春市,园林处,,,,28,,11,126,,117,117,,23,,3,,0.5
2022-07-25T22:00:00,1124A,125.4605,43.79,长春市,净月潭,,40,40,22,24,10,113,29,100,77,4,4,7,6,0.6,0.4
2022-07-25T22:00:00,1125A,125.7194,43.515,长春市,甩湾子(对照点),,,,,,,,,,,,,,,,
2022-07-25T22:00:00,1126A,125.3863,43.8447,长春市,经开区环卫处,细颗粒物(PM2.5),57,55,29,40,16,111,50,105,94,37,21,4,4,0.8,0.5
2022-07-25T22:00:00,1127A,125.245,43.7783,长春市,高新区管委会,细颗粒物(PM2.5),57,58,27,40,18,122,41,110,92,38,20,4,4,0.7,0.5
2022-07-25T22:00:00,1128A,125.1761,43.8325,长春市,岱山公园,颗粒物(PM10),77,103,35,28,12,120,34,111,84,66,31,4,5,0.8,0.5
2022-07-25T22:00:00,1129A,126.5422,45.755,哈尔滨市,岭北(对照点),,22,16,13,8,11,103,69,100,93,27,13,9,10,0.7,0.5
2022-07-25T22:00:00,1130A,126.561,45.8167,哈尔滨市,松北商大,,30,30,18,5,7,104,32,95,76,40,17,5,5,1.0,0.8
2022-07-25T22:00:00,1131A,126.979,45.5419,哈尔滨市,阿城会宁,,37,37,16,11,9,100,14,97,73,31,11,10,10,0.4,0.4
2022-07-25T22:00:00,1132A,126.599,45.7222,哈尔滨市,南岗学府路,,23,23,15,12,9,105,44,104,92,39,12,5,7,0.6,0.4
2022-07-25T22:00:00,1133A,126.689,45.7733,哈尔滨市,太平宏伟公园,颗粒物(PM10),71,92,27,10,7,110,25,99,84,62,18,10,9,0.9,0.4
2022-07-25T22:00:00,1134A,126.635,45.7667,哈尔滨市,道外承德广场,,28,28,24,2,3,106,66,99,86,36,20,10,9,0.5,0.5
2022-07-25T22:00:00,1135A,126.685,45.7319,哈尔滨市,香坊红旗大街,,47,47,23,13,9,107,27,98,81,65,23,12,9,0.8,0.5
2022-07-25T22:00:00,1136A,126.6411,45.7258,哈尔滨市,动力和平路,,,37,22,,,97,19,94,79,67,18,5,5,0.8,0.6
2022-07-25T22:00:00,1137A,126.593,45.7478,哈尔滨市,道里建国路,,28,28,24,9,9,104,72,95,89,32,22,10,12,1.1,1
2022-07-25T22:00:00,1138A,126.615,45.61,哈尔滨市,平房东轻厂,,40,40,17,15,7,110,50,103,91,28,10,2,2,0.7,0.5
2022-07-25T22:00:00,1139A,126.595,45.9855,哈尔滨市,呼兰师专,,32,32,20,5,7,102,65,98,85,21,15,12,10,0.6,0.5
2022-07-25T22:00:00,1140A,126.6206,45.6842,哈尔滨市,省农科院,,46,46,15,18,7,109,10,104,83,58,15,8,9,0.7,0.5
2022-07-25T22:00:00,1141A,121.4,31.238,上海市,普陀,,37,36,36,21,25,191,116,179,151,10,11,2,3,0.5,0.6
2022-07-25T22:00:00,1142A,121.478,31.2036,上海市,十五厂,,41,41,38,27,29,162,78,144,114,16,17,3,2,0.5,0.5
2022-07-25T22:00:00,1143A,121.467,31.3008,上海市,虹口,,39,39,34,22,21,168,95,155,125,10,13,2,3,0.3,0.3
2022-07-25T22:00:00,1144A,121.412,31.1654,上海市,徐汇上师大,,46,40,39,32,28,171,88,158,132,21,21,2,3,0.5,0.5
2022-07-25T22:00:00,1145A,121.536,31.2659,上海市,杨浦四漂,,36,27,29,25,25,160,94,149,123,7,10,3,3,0.7,0.7
2022-07-25T22:00:00,1146A,120.978,31.0935,上海市,青浦淀山湖(对照点),,,,,,,,,,,,,,,,
2022-07-25T22:00:00,1147A,121.425,31.2261,上海市,静安监测站,,38,36,38,26,26,164,94,154,127,16,17,3,3,0.5,0.6
2022-07-25T22:00:00,1148A,121.703,31.1907,上海市,浦东川沙,,50,42,34,35,27,124,77,117,102,14,14,4,3,0.1,0.2
2022-07-25T22:00:00,1149A,121.533,31.2284,上海市,浦东新区监测站,,42,42,39,24,27,177,91,153,123,9,13,4,5,0.6,0.6
2022-07-25T22:00:00,1150A,121.577,31.2071,上海市,浦东张江,,35,30,27,24,25,146,79,131,106,12,15,3,4,0.8,0.8
2022-07-25T22:00:00,1151A,118.8086,32.1065,南京市,迈皋桥,,40,40,44,7,19,220,61,186,143,26,21,1,2,0.3,0.4
2022-07-25T22:00:00,1152A,118.7538,32.0551,南京市,草场门,,25,24,34,2,18,212,78,189,145,16,18,2,3,0.4,0.5
2022-07-25T22:00:00,1153A,118.7794,32.0745,南京市,山西路,,28,19,41,17,26,237,88,207,165,12,10,4,4,0.3,0.3
2022-07-25T22:00:00,1154A,118.7752,32.0023,南京市,中华门,,24,14,43,5,15,213,75,190,145,17,19,3,4,1.0,1.1
2022-07-25T22:00:00,1155A,118.8109,32.0309,南京市,瑞金路,,27,21,41,7,21,219,84,196,153,15,15,4,4,0.5,0.6
2022-07-25T22:00:00,1156A,118.7997,32.0754,南京市,玄武湖,,23,21,35,7,20,227,71,194,153,15,15,3,4,0.7,0.7
2022-07-25T22:00:00,1157A,118.6414,32.0931,南京市,浦口,,27,27,40,7,16,183,50,170,131,34,20,5,4,0.6,0.5
2022-07-25T22:00:00,1158A,118.7356,31.9996,南京市,奥体中心,,34,34,43,12,21,206,73,189,141,24,18,3,4,0.3,0.5
2022-07-25T22:00:00,1159A,118.9125,32.1028,南京市,仙林大学城,,,,38,,23,188,67,180,142,20,11,3,5,0.6,0.7
2022-07-25T22:00:00,1160A,120.561,31.2472,苏州市,上方山(对照点),,50,50,51,30,29,194,108,183,165,13,13,6,6,0.5,0.6
2022-07-25T22:00:00,1161A,120.628,31.2864,苏州市,南门,,,,,,,,,,,,,,,,
2022-07-25T22:00:00,1162A,120.591,31.3019,苏州市,彩香,,,34,33,,41,194,106,182,158,13,8,5,5,0.4,0.5
2022-07-25T22:00:00,1163A,120.596,31.3264,苏州市,轧钢厂,,32,32,37,16,20,190,100,172,156,16,11,5,5,0.4,0.5
2022-07-25T22:00:00,1164A,120.613,31.2703,苏州市,吴中区,,40,40,37,15,21,185,101,175,156,25,15,6,6,0.4,0.5
2022-07-25T22:00:00,1165A,120.543,31.2994,苏州市,苏州新区,,36,24,34,14,29,196,114,187,169,7,6,7,6,0.6,0.8
2022-07-25T22:00:00,1166A,120.669,31.3097,苏州市,苏州工业园区,,39,39,34,15,20,167,100,157,144,16,11,7,7,0.7,0.8
2022-07-25T22:00:00,1167A,120.641,31.3708,苏州市,相城区,,32,28,36,20,26,220,102,178,158,16,15,7,7,0.5,0.6
2022-07-25T22:00:00,1168A,120.9098,31.9663,南通市,狼山街道,,35,28,30,7,13,194,110,178,147,9,12,6,7,0.6,0.6
2022-07-25T22:00:00,1169A,120.86,32.0005,南通市,虹桥,,36,21,29,12,25,204,113,189,154,10,14,9,10,0.6,0.7
2022-07-25T22:00:00,1170A,120.87,32.02,南通市,城中,,32,26,30,16,26,177,100,159,131,10,14,8,8,0.6,0.7
2022-07-25T22:00:00,1171A,120.94,31.93,南通市,星湖花园,,34,24,28,14,16,197,106,178,142,8,10,6,6,0.7,0.8
2022-07-25T22:00:00,1172A,120.81,32.0417,南通市,紫琅学院,,35,26,33,7,15,218,112,177,137,2,9,2,3,0.6,0.7
2022-07-25T22:00:00,1173A,119.176,34.5885,连云港市,市环境监测站,,25,24,34,12,20,153,77,134,106,8,9,2,2,0.5,0.6
2022-07-25T22:00:00,1177A,117.179,34.2761,徐州市,黄河新村,,44,44,46,24,27,175,136,170,161,16,15,8,7,0.7,0.7
2022-07-25T22:00:00,1178A,117.1918,34.2384,徐州市,淮塔,,,,49,34,31,169,108,162,149,21,20,5,6,0.4,0.4
2022-07-25T22:00:00,1180A,117.256,34.2153,徐州市,新城区,颗粒物(PM10),55,59,56,29,30,169,114,161,147,20,21,6,6,0.7,0.7
2022-07-25T22:00:00,1181A,117.244,34.2911,徐州市,桃园路,颗粒物(PM10),56,61,52,27,22,183,113,177,163,27,14,11,10,0.9,1
2022-07-25T22:00:00,1182A,117.2933,34.2778,徐州市,农科院,,,58,42,29,22,185,,180,180,,20,,6,,0.4
2022-07-25T22:00:00,1186A,119.389,32.3761,扬州市,邗江监测站,颗粒物(PM10),52,53,56,27,29,232,108,222,198,10,14,5,7,0.8,0.8
2022-07-25T22:00:00,1188A,120.269,31.4867,无锡市,雪浪,,28,14,38,5,26,203,89,174,130,3,6,11,12,0.4,0.7
2022-07-25T22:00:00,1189A,120.275,31.6219,无锡市,黄巷,,50,50,48,27,28,227,95,208,170,24,20,9,9,0.7,0.8
2022-07-25T22:00:00,1190A,120.294,31.56,无锡市,曹张,,37,37,39,9,25,213,94,194,157,14,14,6,6,0.8,0.8
2022-07-25T22:00:00,1191A,120.242,31.5031,无锡市,漆塘,,35,29,38,24,24,200,91,183,134,7,13,5,6,0.6,0.8
2022-07-25T22:00:00,1192A,120.3489,31.5863,无锡市,东亭,,,29,42,22,29,215,,202,192,17,17,9,9,0.7,0.7
2022-07-25T22:00:00,1193A,120.354,31.5475,无锡市,旺庄,,50,50,37,23,25,228,96,209,169,19,18,12,11,0.8,0.9
2022-07-25T22:00:00,1194A,120.245,31.5631,无锡市,荣巷,,45,45,37,28,28,196,93,173,137,6,9,13,13,0.7,0.8
2022-07-25T22:00:00,1195A,120.299,31.6817,无锡市,堰桥,颗粒物(PM10),51,51,48,27,28,231,89,218,189,16,10,8,6,0.7,0.5
2022-07-25T22:00:00,1196A,119.9633,31.762,常州市,市监测站,,,44,45,19,24,216,,193,184,28,20,8,8,0.9,0.9
2022-07-25T22:00:00,1200A,119.9468,31.7069,常州市,武进监测站,,38,31,41,19,34,194,120,181,162,16,15,8,7,0.8,1
2022-07-25T22:00:00,1201A,119.9255,31.9087,常州市,安家,,45,33,46,31,45,248,140,230,193,18,18,6,6,0.8,0.9
2022-07-25T22:00:00,1203A,119.6707,32.1875,镇江市,新区办事处,,45,39,52,31,43,246,107,227,196,18,24,3,5,0.8,0.9
2022-07-25T22:00:00,1204A,119.4974,32.1968,镇江市,职教中心,颗粒物(PM10),51,51,46,25,29,253,89,228,203,29,23,4,4,0.8,0.9
2022-07-25T22:00:00,1205A,119.4303,32.1328,镇江市,丹徒区监测站,,50,50,53,32,35,272,122,232,221,18,18,2,6,0.8,0.8
2022-07-25T22:00:00,1206A,119.905,32.4878,泰州市,公园路,,34,34,42,22,30,181,95,168,142,7,9,6,6,0.8,0.9
2022-07-25T22:00:00,1207A,119.9189,32.4625,泰州市,莲花,,45,37,37,31,34,185,100,172,147,8,11,8,9,0.7,0.9
2022-07-25T22:00:00,1209A,119.888,32.4639,泰州市,留学生创业园,,38,37,44,26,33,204,107,191,162,8,11,7,8,0.8,0.9
2022-07-25T22:00:00,1210A,119.036,33.5981,淮安市,钵池山,,37,34,38,24,23,175,118,171,154,10,12,8,8,0.7,0.8
2022-07-25T22:00:00,1211A,119.007,33.575,淮安市,北京南路,,40,36,42,28,27,187,117,180,160,10,15,6,7,0.7,0.8
2022-07-25T22:00:00,1212A,118.989,33.6067,淮安市,市监测站,,41,41,49,23,22,178,120,171,156,12,15,6,7,0.8,0.8
2022-07-25T22:00:00,1213A,119.135,33.5039,淮安市,楚州区监测站,,42,42,46,19,26,172,112,164,146,8,12,7,8,0.7,0.7
2022-07-25T22:00:00,1214A,119.0186,33.6297,淮安市,淮阴区监测站,,,,48,26,26,174,,170,164,,11,,8,,0.7
2022-07-25T22:00:00,1215A,120.118,33.4022,盐城市,盐城电厂,,42,34,35,17,18,190,134,169,144,8,11,4,5,0.4,0.5
2022-07-25T22:00:00,1216A,120.156,33.3942,盐城市,市监测站,,,0,0,9,15,134,130,134,131,8,10,,31,0.3,0.4
2022-07-25T22:00:00,1218A,120.2144,33.38,盐城市,开发区管委会,,42,22,23,17,18,163,133,149,137,10,13,8,8,0.4,0.4
2022-07-25T22:00:00,1220A,118.293,33.9528,宿迁市,宿迁学院,颗粒物(PM10),54,57,40,35,27,188,135,172,154,12,16,4,5,0.8,0.7
2022-07-25T22:00:00,1221A,118.2442,33.9592,宿迁市,宿迁中学,颗粒物(PM10),55,60,42,36,24,177,126,164,149,15,13,2,2,0.8,0.7
2022-07-25T22:00:00,1223A,120.2072,30.2111,杭州市,滨江,,30,20,43,8,25,264,93,212,152,12,20,4,5,0.4,0.6
2022-07-25T22:00:00,1224A,120.0633,30.2747,杭州市,西溪,,16,16,30,9,16,157,42,132,91,10,13,7,7,0.5,0.6
2022-07-25T22:00:00,1225A,119.026,29.635,杭州市,千岛湖(对照点),,,,,,,,,,,,,,,,
2022-07-25T22:00:00,1226A,120.3461,30.3153,杭州市,下沙,,25,25,55,14,31,238,61,200,136,32,29,4,5,0.6,0.7
2022-07-25T22:00:00,1227A,120.1269,30.2456,杭州市,卧龙桥,,19,19,32,11,20,213,44,162,110,18,13,4,4,0.6,0.7
2022-07-25T22:00:00,1228A,120.1903,30.2692,杭州市,浙江农大,,32,14,40,9,24,269,100,212,148,9,18,4,4,0.6,0.7
2022-07-25T22:00:00,1229A,120.157,30.2897,杭州市,朝晖五区,,,,,,,,,,,,,,,,
2022-07-25T22:00:00,1230A,120.1197,30.3119,杭州市,和睦小学,,22,22,43,10,27,248,69,201,134,21,24,5,6,0.6,0.8
2022-07-25T22:00:00,1231A,120.3019,30.4183,杭州市,临平镇,,27,27,59,11,25,266,76,217,142,27,23,3,3,0.6,0.7
2022-07-25T22:00:00,1232A,120.2697,30.1819,杭州市,城厢镇,,30,24,42,9,27,232,93,178,140,11,20,6,7,0.5,0.7
2022-07-25T22:00:00,1233A,120.0883,30.1808,杭州市,云栖,,18,17,32,8,18,191,55,158,105,14,14,6,6,0.4,0.5
2022-07-25T22:00:00,1234A,121.8358,29.911,宁波市,区环保大楼,,,21,29,15,22,138,,129,120,17,15,7,14,0.7,0.8
2022-07-25T22:00:00,1235A,121.56,29.82,宁波市,万里学院,,32,22,29,10,19,147,102,140,126,14,10,8,8,0.6,0.8
2022-07-25T22:00:00,1236A,121.713,29.9572,宁波市,龙赛医院,,31,22,29,15,18,158,98,144,120,10,13,4,5,0.5,0.6
2022-07-25T22:00:00,1239A,121.633,29.7733,宁波市,钱湖水厂,,31,13,22,8,20,127,98,121,114,8,9,5,6,0.6,0.6
2022-07-25T22:00:00,1240A,121.5856,29.8635,宁波市,太古小学,,31,23,24,11,20,147,98,138,119,12,9,6,7,0.7,0.8
2022-07-25T22:00:00,1241A,121.524,29.8674,宁波市,市环境监测中心,,28,17,28,10,13,152,89,135,111,15,13,2,3,0.6,0.7
2022-07-25T22:00:00,1242A,120.634,28.0089,温州市,瓯海,,24,24,46,12,23,194,64,160,107,19,14,6,5,0.4,0.6
2022-07-25T22:00:00,1243A,120.6748,27.9939,温州市,南浦,,27,27,48,10,27,177,67,153,107,17,13,5,4,0.4,0.5
2022-07-25T22:00:00,1244A,120.76,27.9747,温州市,龙湾,,48,48,45,18,19,147,86,136,101,11,11,5,6,0.6,0.6
2022-07-25T22:00:00,1245A,120.6709,28.0167,温州市,市站,,28,28,41,12,26,189,62,158,105,22,15,5,5,0.4,0.6
2022-07-25T22:00:00,1246A,120.598,30.0911,绍兴市,袍江站,,,,,,,,,,,,,,,,
2022-07-25T22:00:00,1247A,120.6053,29.9928,绍兴市,城东开发委,,27,16,30,5,15,182,85,164,136,5,11,5,5,0.5,0.5
2022-07-25T22:00:00,1250A,120.0751,30.8669,湖州市,城西水厂,,22,12,42,2,21,184,69,165,108,21,26,4,5,0.4,0.6
2022-07-25T22:00:00,1252A,120.7436,30.778,嘉兴市,清河小学,,32,29,29,22,20,182,90,172,145,20,14,4,6,0.7,0.7
2022-07-25T22:00:00,1253A,120.726,30.7478,嘉兴市,嘉兴学院,,34,34,32,19,21,172,78,160,133,22,14,3,3,0.4,0.5
2022-07-25T22:00:00,1255A,121.273,28.6459,台州市,黄岩环保大楼,,43,43,34,16,17,195,79,159,111,12,11,6,6,0.3,0.4
2022-07-25T22:00:00,1256A,121.419,28.6542,台州市,台州环保大楼,,38,38,37,15,21,161,65,139,86,11,14,3,4,0.4,0.5
2022-07-25T22:00:00,1257A,121.377,28.5773,台州市,路桥田洋王,,36,36,37,16,21,181,64,166,88,16,15,3,4,0.5,0.5
2022-07-25T22:00:00,1258A,122.122,30.0203,舟山市,定海檀枫,,39,33,31,27,21,128,98,118,108,13,10,2,2,0.8,0.6
2022-07-25T22:00:00,1259A,122.3094,29.9558,舟山市,普陀东港,,36,36,31,22,20,118,92,109,104,15,16,3,3,0.5,0.5
2022-07-25T22:00:00,1260A,122.19,29.9944,舟山市,临城新区,,38,38,33,23,19,130,96,120,110,21,16,3,3,0.4,0.5
2022-07-25T22:00:00,1261A,119.649,29.1131,金华市,四中(停运161031),,,,,,,,,,,,,,,,
2022-07-25T22:00:00,1262A,119.647,29.077,金华市,十五中,,44,44,48,24,29,188,75,141,102,19,23,4,7,0.4,0.4
2022-07-25T22:00:00,1263A,119.686,29.1029,金华市,监测站,颗粒物(PM10),52,53,47,24,33,197,77,143,104,19,21,22,21,0.5,0.5
2022-07-25T22:00:00,1264A,118.8692,28.9398,衢州市,环保大楼,,38,38,48,18,26,181,42,140,88,20,15,5,7,0.4,0.5
2022-07-25T22:00:00,1265A,118.8709,28.9666,衢州市,实验学校,,,28,36,14,20,153,,122,89,18,18,6,6,0.3,0.4
2022-07-25T22:00:00,1266A,118.8621,28.9808,衢州市,衢州学院,,29,29,41,19,25,174,44,137,84,21,19,2,3,0.4,0.4
2022-07-25T22:00:00,1267A,119.914,28.4514,丽水市,监测站大楼,,29,26,32,20,18,138,81,105,75,6,10,5,5,0.2,0.3
2022-07-25T22:00:00,1268A,119.93,28.4586,丽水市,莲都小学,,32,32,39,14,17,132,85,107,84,6,12,5,6,0.4,0.4
2022-07-25T22:00:00,1269A,119.879,28.4231,丽水市,余庄前,,35,35,32,20,19,176,29,128,65,18,13,5,5,0.4,0.4
2022-07-25T22:00:00,1270A,117.1959,31.7848,合肥市,明珠广场,,44,44,54,9,25,158,62,134,82,28,37,5,6,0.6,0.7
2022-07-25T22:00:00,1271A,117.3072,31.8764,合肥市,三里街,,40,40,52,12,17,156,59,133,98,26,35,9,10,0.5,0.7
2022-07-25T22:00:00,1272A,117.2588,31.8707,合肥市,琥珀山庄,,36,36,49,17,20,156,74,140,112,18,24,7,8,0.6,0.7
2022-07-25T22:00:00,1273A,117.1604,31.9052,合肥市,董铺水库(对照点),,46,46,52,19,19,154,63,131,91,19,24,6,6,0.5,0.6
2022-07-25T22:00:00,1274A,117.25,31.8571,合肥市,长江中路,,44,44,55,27,27,167,54,144,101,27,23,5,8,0.6,0.6
2022-07-25T22:00:00,1275A,117.266,31.9436,合肥市,庐阳区,,,46,56,19,26,181,61,150,112,,29,5,6,0.7,0.8
2022-07-25T22:00:00,1276A,117.336,31.8586,合肥市,瑶海区,,46,46,69,17,25,149,54,126,92,30,47,9,10,0.3,0.6
2022-07-25T22:00:00,1277A,117.3027,31.7964,合肥市,包河区,,31,31,60,14,24,153,69,133,94,14,39,13,13,0.5,0.6
2022-07-25T22:00:00,1278A,117.2776,31.7385,合肥市,滨湖新区,颗粒物(PM10),52,53,48,12,22,161,66,143,90,16,17,8,8,0.5,0.5
2022-07-25T22:00:00,1279A,117.1318,31.8403,合肥市,高新区,,46,46,49,12,23,166,70,140,90,17,27,3,3,0.6,0.7
2022-07-25T22:00:00,1280A,119.3903,26.0543,福州市,鼓山(对照点),,,,,,,,,,,,,,,,
2022-07-25T22:00:00,1282A,119.2681,26.0504,福州市,师大,颗粒物(PM10),52,54,59,23,32,190,81,174,140,19,15,3,4,0.4,0.4
2022-07-25T22:00:00,1283A,119.2984,26.1028,福州市,五四北路,,49,49,54,22,29,187,84,172,136,21,19,4,4,0.5,0.5
2022-07-25T22:00:00,1284A,119.2648,26.0768,福州市,杨桥西路,臭氧1小时,83,60,61,30,30,186,186,170,157,18,14,4,4,0.3,0.5
2022-07-25T22:00:00,1285A,119.317,26.0746,福州市,紫阳,颗粒物(PM10),52,54,63,23,33,168,76,158,128,18,15,4,4,0.5,0.5
2022-07-25T22:00:00,1286A,118.1608,24.8169,厦门市,溪东(对照点),,,,,,,,,,,,,,,,
2022-07-25T22:00:00,1287A,118.1514,24.4767,厦门市,洪文,,32,32,37,18,21,137,68,111,95,26,17,2,2,0.2,0.3
2022-07-25T22:00:00,1288A,118.0661,24.4444,厦门市,鼓浪屿,,31,31,33,18,19,125,80,98,95,11,20,3,3,0.5,0.5
2022-07-25T22:00:00,1290A,115.8931,28.6843,南昌市,省外办,颗粒物(PM10),55,59,46,17,15,199,48,155,101,36,21,6,6,0.6,0.6
2022-07-25T22:00:00,1291A,115.8886,28.7003,南昌市,省林业公司,颗粒物(PM10),58,66,40,17,14,185,43,153,104,50,30,8,6,0.7,0.7
2022-07-25T22:00:00,1292A,115.8126,28.7442,南昌市,林科所,,29,29,36,19,19,197,84,155,105,14,12,5,6,0.6,0.6
2022-07-25T22:00:00,1294A,115.8518,28.687,南昌市,建工学校,颗粒物(PM10),60,70,46,32,23,179,45,152,100,39,24,5,4,0.7,0.6
2022-07-25T22:00:00,1295A,115.8921,28.6424,南昌市,象湖,颗粒物(PM10),59,68,46,24,29,176,31,149,100,55,20,7,5,0.9,0.7
2022-07-25T22:00:00,1296A,115.7423,28.7996,南昌市,武术学校(对照点),,39,33,28,27,19,64,13,43,19,3,4,3,3,0.8,0.8
2022-07-25T22:00:00,1298A,115.9314,28.6842,南昌市,省站,,44,44,46,27,27,180,40,150,95,27,15,7,8,0.7,0.7
2022-07-25T22:00:00,1299A,116.9862,36.6114,济南市,科干所,,46,46,41,24,23,163,127,159,142,20,11,3,3,0.6,0.6
2022-07-25T22:00:00,1300A,116.9376,36.665,济南市,农科所,,37,37,38,20,20,147,114,138,124,17,17,5,5,0.4,0.4
2022-07-25T22:00:00,1301A,117.1265,36.6734,济南市,开发区,,42,42,32,26,22,154,133,149,143,16,14,2,2,0.6,0.5
2022-07-25T22:00:00,1303A,117.0624,36.6868,济南市,省种子仓库,,41,41,34,25,21,147,125,143,136,12,8,1,2,0.5,0.5
2022-07-25T22:00:00,1304A,116.9489,36.6447,济南市,机床二厂,,46,46,49,20,20,160,123,155,138,15,11,3,4,0.5,0.4
2022-07-25T22:00:00,1305A,117.0495,36.663,济南市,市监测站,,42,42,34,29,21,157,128,150,143,14,8,5,6,0.6,0.6
2022-07-25T22:00:00,1306A,116.7675,36.5484,济南市,长清党校,,40,39,35,27,25,156,125,151,138,17,12,6,8,0.6,0.6
2022-07-25T22:00:00,1307A,120.6659,36.2403,青岛市,仰口(对照点),,,,29,,26,92,,98,,,6,,4,,0.5
2022-07-25T22:00:00,1308A,120.3905,36.1851,青岛市,李沧区子站,,,,,,,,,,,,,,,,
2022-07-25T22:00:00,1309A,120.3471,36.0699,青岛市,市北区子站,,,,,,,,,,,,,,,,
2022-07-25T22:00:00,1310A,120.4134,36.0658,青岛市,市南区东部子站,,22,9,25,7,21,123,68,109,85,16,6,6,6,0.3,0.4
2022-07-25T22:00:00,1311A,120.3664,36.1032,青岛市,四方区子站,,24,7,21,7,16,117,76,113,86,9,12,8,5,0.5,0.5
2022-07-25T22:00:00,1312A,120.2994,36.054,青岛市,市南区西部子站,,22,12,25,2,15,115,70,114,84,22,18,6,7,0.5,0.5
2022-07-25T22:00:00,1313A,120.4581,36.0858,青岛市,崂山区子站,,26,7,23,5,18,133,83,124,99,16,15,5,5,0.2,0.3
2022-07-25T22:00:00,1314A,120.1983,35.9608,青岛市,黄岛区子站,,31,12,22,7,18,136,99,124,104,9,14,4,5,0.5,0.5
2022-07-25T22:00:00,1315A,120.3999,36.3083,青岛市,城阳区子站,,26,11,25,6,12,151,81,132,102,11,14,5,5,0.5,0.6
2022-07-25T22:00:00,1316A,113.69031,34.76122,郑州市,烟厂,,31,2,36,6,18,154,97,140,122,18,14,3,5,0.5,0.7
2022-07-25T22:00:00,1317A,113.65724,34.77134,郑州市,郑纺机,,,0,44,,,151,97,139,122,14,13,5,7,0.2,0.3
2022-07-25T22:00:00,1318A,113.67526,34.80246,郑州市,银行学校,,32,7,34,6,15,157,100,146,127,14,13,2,3,0.4,0.5
2022-07-25T22:00:00,1319A,113.56746,34.81334,郑州市,供水公司,,32,4,42,5,15,156,101,148,131,12,10,4,6,0.1,0.2
2022-07-25T22:00:00,1320A,113.7329,34.7178,郑州市,经开区管委,,25,9,39,9,20,159,78,145,117,14,15,1,2,0.5,0.8
2022-07-25T22:00:00,1321A,113.73961,34.77172,郑州市,四十七中,,35,35,40,12,16,152,99,143,124,17,15,4,7,0.4,0.7
2022-07-25T22:00:00,1322A,113.60532,34.74838,郑州市,市监测站,,31,3,39,6,16,149,99,140,124,17,13,3,4,0.4,0.5
2022-07-25T22:00:00,1323A,113.64164,34.7525,郑州市,河医大,,29,6,38,10,15,153,90,142,123,18,12,2,3,0.5,0.6
2022-07-25T22:00:00,1324A,113.51488,34.91089,郑州市,岗李水库(对照点),,,,,,,,,,,,,,,,
2022-07-25T22:00:00,1325A,114.3677,30.5584,武汉市,东湖梨园,,30,30,40,20,18,132,66,118,98,15,19,7,8,0.8,0.8
2022-07-25T22:00:00,1326A,114.2529,30.558,武汉市,汉阳月湖,,37,37,38,17,15,134,72,121,105,31,34,6,6,0.6,0.7
2022-07-25T22:00:00,1327A,114.282,30.6189,武汉市,汉口花桥,,35,35,42,17,21,154,94,136,114,17,25,7,9,0.6,0.7
2022-07-25T22:00:00,1328A,114.3025,30.5332,武汉市,武昌紫阳,,40,40,42,19,19,137,62,126,101,30,30,3,4,0.7,0.8
2022-07-25T22:00:00,1329A,114.3646,30.6217,武汉市,青山钢花,,45,45,52,27,27,156,66,135,104,27,32,5,7,0.7,0.9
2022-07-25T22:00:00,1330A,114.1566,30.4825,武汉市,沌口新区,,44,44,48,29,26,138,71,124,103,46,33,6,10,0.8,0.8
2022-07-25T22:00:00,1331A,114.3014,30.5944,武汉市,汉口江滩,,45,45,45,30,18,142,37,126,94,86,48,6,7,0.7,0.7
2022-07-25T22:00:00,1333A,114.135,30.6319,武汉市,吴家山,,47,47,46,29,22,150,100,130,111,27,30,3,5,0.9,0.9
2022-07-25T22:00:00,1334A,113.8454,30.2917,武汉市,沉湖七壕(对照点),细颗粒物(PM2.5),94,34,30,70,17,111,22,93,82,40,20,7,7,1.0,0.8
2022-07-25T22:00:00,1335A,113.0833,28.2325,长沙市,经开区环保局,,45,45,28,20,24,148,84,126,104,16,12,5,6,0.6,0.6
2022-07-25T22:00:00,1336A,112.8872,28.2189,长沙市,高开区环保局,,33,22,26,6,18,143,103,114,101,14,20,8,9,0.2,0.2
2022-07-25T22:00:00,1337A,113.0792,28.2053,长沙市,马坡岭,,,50,39,18,22,149,,128,119,21,13,9,10,0.6,0.6
2022-07-25T22:00:00,1338A,112.9394,28.19,长沙市,湖南师范大学,,36,36,34,17,14,137,85,107,94,11,12,3,4,0.4,0.4
2022-07-25T22:00:00,1339A,113.0178,28.1322,长沙市,雨花区环保局,,36,22,29,17,18,159,115,129,117,8,16,6,8,0.4,0.3
2022-07-25T22:00:00,1340A,112.9792,28.2597,长沙市,伍家岭,,33,32,39,16,23,146,103,120,103,14,20,4,4,0.7,0.7
2022-07-25T22:00:00,1341A,113.0014,28.1944,长沙市,火车新站,,37,37,32,23,22,132,98,112,100,12,17,7,8,0.3,0.3
2022-07-25T22:00:00,1342A,112.9844,28.1178,长沙市,天心区环保局,,41,41,34,15,13,139,101,113,102,16,22,4,5,0.5,0.5
2022-07-25T22:00:00,1343A,112.8908,28.1308,长沙市,湖南中医药大学,,39,39,40,11,21,126,72,112,92,31,20,4,4,0.2,0.3
2022-07-25T22:00:00,1344A,112.9581,28.3611,长沙市,沙坪(对照点),,33,33,36,23,24,157,50,119,87,17,13,5,4,0.6,0.6
2022-07-25T22:00:00,1345A,113.2347,23.1423,广州市,广雅中学,颗粒物(PM10),51,51,55,25,34,269,134,244,227,27,23,5,5,0.8,0.8
2022-07-25T22:00:00,1346A,113.2612,23.105,广州市,市五中,颗粒物(PM10),52,54,51,31,33,276,138,247,229,22,19,5,5,0.8,0.7
2022-07-25T22:00:00,1348A,113.3478,23.0916,广州市,广东商学院,颗粒物(PM10),52,53,50,32,31,247,106,217,200,33,23,5,5,0.8,0.7
2022-07-25T22:00:00,1349A,113.4332,23.1047,广州市,市八十六中,颗粒物(PM10),52,54,61,24,32,286,90,253,216,46,36,5,6,0.6,0.7
2022-07-25T22:00:00,1350A,113.3505,22.9483,广州市,番禺中学,颗粒物(PM10),54,57,50,29,28,268,96,225,201,31,17,9,9,0.9,0.8
2022-07-25T22:00:00,1351A,113.2146,23.3916,广州市,花都师范,臭氧1小时,62,72,66,43,42,259,169,240,233,34,28,6,8,0.8,0.7
2022-07-25T22:00:00,1352A,113.2597,23.1331,广州市,市监测站,颗粒物(PM10),52,53,53,30,32,271,142,242,227,18,18,6,6,0.8,0.7
2022-07-25T22:00:00,1353A,113.5618,23.312,广州市,九龙镇镇龙,颗粒物(PM10),95,139,85,48,41,287,54,227,183,87,44,7,7,0.9,0.8
2022-07-25T22:00:00,1354A,113.2765,23.1544,广州市,麓湖,颗粒物(PM10),52,54,53,31,34,250,141,236,219,22,20,5,4,0.8,0.8
2022-07-25T22:00:00,1355A,113.443,23.3035,广州市,帽峰山森林公园(对照点),颗粒物(PM10),53,55,52,33,29,265,152,232,227,28,24,5,5,0.8,0.8
2022-07-25T22:00:00,1356A,114.1063,22.5545,深圳市,通心岭子站,,42,42,35,29,23,229,71,200,160,30,15,3,3,0.7,0.6
2022-07-25T22:00:00,1357A,114.117,22.5625,深圳市,洪湖,,48,48,41,26,25,238,86,218,168,26,18,10,9,0.6,0.6
2022-07-25T22:00:00,1358A,113.987,22.5417,深圳市,华侨城,,40,40,39,18,24,217,91,184,151,13,20,4,5,0.5,0.6
2022-07-25T22:00:00,1359A,113.9181,22.5171,深圳市,南海子站,细颗粒物(PM2.5),54,48,39,38,24,176,60,146,117,41,24,5,5,0.6,0.6
2022-07-25T22:00:00,1360A,114.2458,22.5689,深圳市,盐田,,41,41,35,23,26,201,54,166,126,54,37,5,4,0.7,0.7
2022-07-25T22:00:00,1361A,114.2283,22.7244,深圳市,龙岗,,43,43,50,30,28,237,135,206,175,16,22,5,5,0.4,0.5
2022-07-25T22:00:00,1362A,113.8953,22.5861,深圳市,西乡,,,,,,,,,,,,,,,,
2022-07-25T22:00:00,1363A,114.494,22.5422,深圳市,南澳,,27,27,28,11,15,177,77,142,118,10,12,9,9,0.7,0.8
2022-07-25T22:00:00,1364A,114.41,22.6342,深圳市,葵涌,,28,28,33,15,20,168,78,139,114,10,15,8,8,0.5,0.6
2022-07-25T22:00:00,1365A,114.297,22.5978,深圳市,梅沙,,36,36,34,23,22,181,81,165,141,12,19,6,6,0.2,0.3
2022-07-25T22:00:00,1366A,114.0678,22.738,深圳市,观澜,颗粒物(PM10),59,68,60,25,26,271,75,245,199,22,18,7,7,0.7,0.6
2022-07-25T22:00:00,1367A,113.5814,22.2618,珠海市,吉大,,39,28,27,27,18,137,90,125,112,5,6,7,8,0.4,0.5
2022-07-25T22:00:00,1368A,113.4881,22.2335,珠海市,前山,,26,26,30,16,18,162,81,143,113,9,12,9,10,0.3,0.3
2022-07-25T22:00:00,1369A,113.628,22.4251,珠海市,唐家,,,29,30,17,22,161,101,147,129,,7,,10,0.5,0.6
2022-07-25T22:00:00,1370A,113.299,22.2281,珠海市,斗门,,35,28,29,24,19,140,76,129,111,10,6,5,5,0.3,0.4
2022-07-25T22:00:00,1371A,113.1294,23.0067,佛山市,湾梁,颗粒物(PM10),57,63,47,26,27,233,108,213,193,16,13,5,5,0.5,0.4
2022-07-25T22:00:00,1372A,113.1083,23.0478,佛山市,华材职中,颗粒物(PM10),57,63,48,29,31,220,105,201,183,17,15,5,7,0.5,0.4
2022-07-25T22:00:00,1373A,113.144,23.0453,佛山市,南海气象局,颗粒物(PM10),60,70,50,30,32,233,124,209,196,18,15,5,6,0.8,0.7
2022-07-25T22:00:00,1374A,113.2881,22.8094,佛山市,顺德苏岗,,50,50,35,24,25,244,113,209,187,17,17,5,5,0.7,0.6
2022-07-25T22:00:00,1375A,113.2544,22.7642,佛山市,容桂街道办,,,,,,,,,,,,,,,,
2022-07-25T22:00:00,1376A,112.8383,22.8678,佛山市,高明孔堂,颗粒物(PM10),55,59,39,29,22,155,112,140,132,12,10,5,6,0.7,0.7
2022-07-25T22:00:00,1377A,112.8836,23.1588,佛山市,三水监测站,细颗粒物(PM2.5),65,51,57,47,34,184,79,166,140,55,29,6,8,0.6,0.5
2022-07-25T22:00:00,1378A,112.867,23.185,佛山市,三水云东海,颗粒物(PM10),59,67,54,39,37,181,72,164,134,32,22,5,9,0.6,0.5
2022-07-25T22:00:00,1379A,113.3769,22.5211,中山市,华柏园,,34,29,38,22,23,177,107,165,144,6,10,2,3,0.6,0.6
2022-07-25T22:00:00,1380A,113.3881,22.5497,中山市,张溪,,35,29,48,17,25,193,112,169,147,6,10,2,3,0.6,0.7
2022-07-25T22:00:00,1381A,113.4075,22.5111,中山市,紫马岭,,35,30,41,22,23,184,110,172,152,8,12,6,7,0.7,0.7
2022-07-25T22:00:00,1382A,113.4411,22.4853,中山市,长江旅游区(对照点),,40,36,34,28,28,172,94,157,140,7,6,3,4,0.4,0.5
2022-07-25T22:00:00,1383A,113.1064,22.6058,江门市,北街,,29,29,41,20,21,181,84,167,141,12,11,4,5,0.8,0.6
2022-07-25T22:00:00,1384A,113.0731,22.5835,江门市,西区,颗粒物(PM10),54,57,41,29,23,190,86,165,145,19,13,10,7,0.7,0.5
2022-07-25T22:00:00,1385A,113.0219,22.5311,江门市,圭峰西,,32,32,38,17,23,188,96,163,149,15,9,4,5,0.6,0.5
2022-07-25T22:00:00,1386A,113.0828,22.5947,江门市,东湖,,44,44,41,20,22,189,92,168,150,17,12,5,6,0.8,0.5
2022-07-25T22:00:00,1387A,113.7875,23.0457,东莞市,东城主山,,,,,,,,,,,,,,,,
2022-07-25T22:00:00,1388A,113.7533,23.0202,东莞市,南城元岭,,,,,,,,,,,,,,,,
2022-07-25T22:00:00,1389A,113.7547,23.0494,东莞市,莞城梨川,,50,50,51,26,31,283,124,244,213,19,20,7,8,0.8,0.9
2022-07-25T22:00:00,1390A,113.7944,23.0128,东莞市,东城石井,,46,46,47,22,28,316,119,280,235,22,19,7,8,0.4,0.4
2022-07-25T22:00:00,1391A,113.7383,22.9658,东莞市,南城西平,,43,32,45,30,35,280,118,239,203,19,20,1,4,0.5,0.6
2022-07-25T22:00:00,1392A,114.4183,23.0528,惠州市,河南岸金山湖子站,,50,50,57,26,30,225,111,218,181,16,16,3,4,0.5,0.7
2022-07-25T22:00:00,1393A,114.4053,23.0822,惠州市,下埔横江三路子站,,,38,54,,29,239,123,225,195,18,17,3,3,0.6,0.6
2022-07-25T22:00:00,1394A,114.4103,23.1142,惠州市,江北云山西路子站,,40,33,51,28,30,264,126,244,205,17,13,6,7,0.4,0.4
2022-07-25T22:00:00,1395A,114.4645,22.7833,惠州市,惠阳区承修路船湖子站,,,42,44,,26,220,96,162,150,17,18,4,5,0.5,0.6
2022-07-25T22:00:00,1396A,114.5317,22.7422,惠州市,大亚湾管委会子站,,32,28,38,22,23,197,100,164,133,9,17,5,5,0.4,0.4
2022-07-25T22:00:00,1397A,112.4267,23.0706,肇庆市,睦岗子站,"颗粒物(PM10),细颗粒物(PM2.5)",59,67,48,42,29,160,94,154,140,28,24,11,10,0.7,0.6
2022-07-25T22:00:00,1398A,112.4645,23.0475,肇庆市,城中子站,颗粒物(PM10),63,75,51,40,31,171,96,163,150,48,30,13,16,0.7,0.7
2022-07-25T22:00:00,1399A,112.5544,23.1522,肇庆市,坑口子站,细颗粒物(PM2.5),53,46,44,37,30,176,113,163,147,7,9,9,10,0.5,0.5
2022-07-25T22:00:00,1400A,112.4753,23.1,肇庆市,七星岩子站(对照点),,,,,,,,,,,,,,,,
2022-07-25T22:00:00,1401A,108.3103,22.7881,南宁市,二十一中,,,,38,,18,22,,33,,,24,,8,,0.8
2022-07-25T22:00:00,1402A,108.3141,22.8528,南宁市,北湖,,41,41,35,18,17,130,82,118,102,13,13,6,6,0.6,0.6
2022-07-25T22:00:00,1403A,108.3206,22.8225,南宁市,市监测站,,43,43,34,19,16,124,68,106,90,25,22,11,10,0.9,0.8
2022-07-25T22:00:00,1404A,108.3829,22.8037,南宁市,大自然花园,,27,27,27,14,14,117,71,109,99,15,13,8,8,0.8,0.6
2022-07-25T22:00:00,1405A,108.4394,22.7904,南宁市,仙葫(对照点),,36,36,28,15,13,110,64,94,86,12,11,6,6,0.8,0.6
2022-07-25T22:00:00,1406A,108.2397,22.8467,南宁市,区农职院,,32,32,30,19,18,113,80,106,97,19,19,8,9,0.6,0.6
2022-07-25T22:00:00,1407A,108.3275,22.735,南宁市,英华嘉园,,,46,44,30,19,91,42,80,68,,30,14,9,0.7,0.5
2022-07-25T22:00:00,1408A,108.2257,22.7757,南宁市,沙井镇街道办,,42,42,33,18,15,101,64,95,85,17,16,9,9,0.6,0.6
2022-07-25T22:00:00,1409A,110.576,19.9507,海口市,东寨港(对照点),,,13,31,18,18,82,48,76,72,,,4,4,0.2,0.3
2022-07-25T22:00:00,1410A,110.3232,20.0574,海口市,海南大学,,23,18,16,16,9,86,33,66,48,6,7,5,6,0.4,0.5
2022-07-25T22:00:00,1411A,110.283,20.0053,海口市,秀英海南医院,,,,20,,11,34,,32,,,9,,3,,0.4
2022-07-25T22:00:00,1412A,110.338,19.9969,海口市,海南师范大学,,21,21,22,11,9,86,39,74,58,9,11,2,2,0.5,0.5
2022-07-25T22:00:00,1413A,110.33,20.0356,海口市,龙华路环保局宿舍,,13,8,18,8,8,84,41,71,56,7,8,2,2,0.4,0.6
2022-07-25T22:00:00,1414A,106.3787,29.8279,重庆市,缙云山(对照点),臭氧1小时,75,38,26,19,14,199,180,196,194,11,12,8,7,0.4,0.4
2022-07-25T22:00:00,1416A,106.4213,29.8253,重庆市,天生,颗粒物(PM10),65,80,52,40,29,234,139,200,178,21,30,6,8,0.8,0.8
2022-07-25T22:00:00,1417A,106.6263,29.7228,重庆市,两路,颗粒物(PM10),62,73,39,26,21,183,62,170,145,100,39,8,10,1.1,0.9
2022-07-25T22:00:00,1418A,106.2953,29.5983,重庆市,虎溪,颗粒物(PM10),70,89,47,35,22,224,112,190,150,28,27,10,8,0.6,0.6
2022-07-25T22:00:00,1419A,106.5777,29.5102,重庆市,南坪,颗粒物(PM10),85,120,53,52,29,212,155,200,196,10,33,8,11,0.5,0.7
2022-07-25T22:00:00,1420A,106.6556,29.6277,重庆市,唐家沱,颗粒物(PM10),51,52,34,20,12,226,95,208,180,53,42,7,6,0.8,0.8
2022-07-25T22:00:00,1421A,106.6349,29.4906,重庆市,茶园,颗粒物(PM10),110,170,67,33,24,209,57,182,151,87,59,6,8,0.7,0.7
2022-07-25T22:00:00,1422A,106.3754,29.4572,重庆市,白市驿,颗粒物(PM10),104,157,61,20,22,176,113,160,150,11,19,6,8,0.8,0.9
2022-07-25T22:00:00,1425A,106.6205,29.7166,重庆市,空港,颗粒物(PM10),60,70,34,37,20,202,91,181,156,54,26,6,8,0.9,0.7
2022-07-25T22:00:00,1426A,106.4782,29.4875,重庆市,新山村,颗粒物(PM10),84,118,55,27,26,182,65,169,145,61,45,5,9,0.6,0.6
2022-07-25T22:00:00,1427A,106.5616,29.6453,重庆市,礼嘉,颗粒物(PM10),65,80,34,28,13,183,75,168,150,71,46,7,8,0.5,0.5
2022-07-25T22:00:00,1428A,106.4522,29.7091,重庆市,蔡家,,50,50,37,30,21,207,82,174,142,53,24,5,5,0.8,0.7
2022-07-25T22:00:00,1429A,106.5093,29.3917,重庆市,鱼新街,颗粒物(PM10),68,85,58,37,32,155,79,142,130,21,35,5,9,0.8,0.9
2022-07-25T22:00:00,1431A,103.9728,30.7236,成都市,金泉两河,颗粒物(PM10),52,53,54,33,37,256,91,222,201,35,19,2,5,0.7,0.6
2022-07-25T22:00:00,1432A,104.1419,30.6764,成都市,十里店,颗粒物(PM10),54,58,57,33,35,226,98,191,170,55,32,2,4,0.7,0.6
2022-07-25T22:00:00,1433A,104.0594,30.5767,成都市,三瓦窑,颗粒物(PM10),52,53,54,27,29,224,58,189,157,82,51,1,4,0.7,0.6
2022-07-25T22:00:00,1434A,104.1122,30.6306,成都市,沙河铺,,37,37,53,25,29,229,61,181,146,41,30,2,3,0.8,0.7
2022-07-25T22:00:00,1437A,104.0431,30.6556,成都市,君平街,颗粒物(PM10),57,63,66,39,40,256,150,219,200,28,26,5,6,0.6,0.7
2022-07-25T22:00:00,1438A,103.6202,31.0201,成都市,灵岩寺(对照点),臭氧1小时,67,44,40,28,27,178,173,153,153,2,2,3,12,0.6,0.6
2022-07-25T22:00:00,1439A,106.6899,26.5998,贵阳市,马鞍山,,18,14,19,12,10,89,47,78,64,10,8,5,5,0.5,0.6
2022-07-25T22:00:00,1440A,106.6971,26.5694,贵阳市,市环保站,,24,24,24,11,13,78,28,67,50,21,16,4,4,0.4,0.4
2022-07-25T22:00:00,1441A,106.6243,26.6266,贵阳市,鉴湖路,,24,24,26,9,11,74,37,69,58,15,8,3,3,0.0,0.5
2022-07-25T22:00:00,1442A,106.7487,26.6343,贵阳市,燕子冲,,29,29,25,19,16,78,29,68,53,12,8,7,7,0.7,0.6
2022-07-25T22:00:00,1443A,106.6555,26.4365,贵阳市,碧云窝,,29,29,27,7,10,71,44,68,59,11,6,5,5,0.5,0.4
2022-07-25T22:00:00,1444A,106.694,26.5161,贵阳市,中院村,,27,27,28,9,9,69,28,63,48,17,10,2,1,0.5,0.5
2022-07-25T22:00:00,1445A,106.7109,26.6027,贵阳市,红边门,,27,27,30,14,20,80,22,70,50,32,20,7,4,0.4,0.4
2022-07-25T22:00:00,1446A,106.7164,26.5699,贵阳市,新华路,,22,22,19,9,13,80,29,70,55,18,8,7,4,0.3,0.4
2022-07-25T22:00:00,1447A,106.674,26.5424,贵阳市,太慈桥,,29,29,26,5,10,79,46,70,59,8,8,4,4,0.3,0.4
2022-07-25T22:00:00,1450A,102.8204,24.8886,昆明市,呈贡新区,,16,16,14,10,6,72,43,66,58,10,11,9,10,0.5,0.5
2022-07-25T22:00:00,1451A,102.6251,24.9608,昆明市,西山森林公园(对照点),,14,10,9,1,6,78,43,63,55,8,8,9,7,0.4,0.4
2022-07-25T22:00:00,1452A,102.7252,25.0902,昆明市,龙泉镇,,22,22,17,3,8,81,20,67,55,31,17,6,7,0.3,0.3
2022-07-25T22:00:00,1453A,102.7266,25.0375,昆明市,东风东路,,30,30,16,7,6,87,34,69,56,15,14,5,5,0.4,0.4
2022-07-25T22:00:00,1454A,102.6742,25.0669,昆明市,金鼎山,,31,31,23,13,11,76,25,63,53,19,13,8,9,0.4,0.4
2022-07-25T22:00:00,1455A,102.6644,25.0401,昆明市,碧鸡广场,颗粒物(PM10),53,55,23,18,12,80,13,64,49,37,19,7,8,0.4,0.5
2022-07-25T22:00:00,1456A,91.1319,29.6514,拉萨市,八廓街,,43,24,11,15,6,155,137,147,143,15,15,7,8,0.2,0.2
2022-07-25T22:00:00,1457A,91.1221,29.6747,拉萨市,市环保局,,42,16,11,6,7,154,133,150,139,9,10,6,7,0.2,0.1
2022-07-25T22:00:00,1458A,91.0874,29.6475,拉萨市,区监测站,,47,15,8,2,1,161,148,157,153,9,9,8,8,0.1,0.1
2022-07-25T22:00:00,1459A,91.1774,29.6541,拉萨市,西藏大学,,45,18,10,4,3,159,144,154,148,9,9,8,9,0.2,0.2
2022-07-25T22:00:00,1460A,90.9798,29.6588,拉萨市,区辐射站,,42,20,12,6,6,137,133,131,130,4,11,8,8,0.1,0.2
2022-07-25T22:00:00,1461A,91.0834,29.6292,拉萨市,拉萨火车站,,43,16,13,1,3,151,136,148,143,11,8,9,9,0.2,0.1
2022-07-25T22:00:00,1462A,108.882,34.2749,西安市,高压开关厂,颗粒物(PM10),53,56,95,28,40,328,110,258,232,28,49,6,7,0.6,0.8
2022-07-25T22:00:00,1463A,108.993,34.2629,西安市,兴庆小区,颗粒物(PM10),54,58,79,35,40,301,98,239,215,36,45,5,6,0.8,1
2022-07-25T22:00:00,1464A,109.06,34.2572,西安市,纺织城,颗粒物(PM10),64,78,84,29,36,255,44,209,170,71,45,5,5,0.8,0.7
2022-07-25T22:00:00,1465A,108.9356,34.2173,西安市,小寨,,,65,80,35,37,337,113,274,242,,45,4,3,0.8,0.7
2022-07-25T22:00:00,1466A,108.954,34.2713,西安市,市人民体育场,颗粒物(PM10),55,59,84,28,39,341,89,256,226,36,44,3,4,0.4,0.6
2022-07-25T22:00:00,1467A,108.8922,34.2322,西安市,高新西区,,,52,94,37,40,339,,289,289,26,45,5,7,1.0,0.9
2022-07-25T22:00:00,1468A,108.935,34.3474,西安市,经开区,颗粒物(PM10),52,53,70,27,36,235,97,188,168,25,35,1,3,0.5,0.6
2022-07-25T22:00:00,1469A,108.906,34.1546,西安市,长安区,颗粒物(PM10),70,90,87,43,39,318,101,278,251,76,32,5,6,0.9,0.7
2022-07-25T22:00:00,1470A,109.2,34.6575,西安市,阎良区,,,,,,,,,,,,,,,,
2022-07-25T22:00:00,1471A,109.2186,34.3731,西安市,临潼区,,43,43,68,28,31,204,117,181,164,15,24,3,4,0.5,0.6
2022-07-25T22:00:00,1472A,108.869,34.378,西安市,草滩(对照点),,45,45,65,31,38,225,72,180,160,24,28,8,8,1.0,1.1
2022-07-25T22:00:00,1473A,108.985,34.1978,西安市,曲江文化产业集团,颗粒物(PM10),54,57,94,29,41,363,129,280,252,28,39,4,5,1.1,0.9
2022-07-25T22:00:00,1474A,109.051,34.3213,西安市,广运潭,颗粒物(PM10),58,66,79,29,36,230,72,185,161,36,36,7,8,0.8,0.8
2022-07-25T22:00:00,1476A,103.631,36.1031,兰州市,兰炼宾馆,,40,40,36,19,21,194,71,181,153,33,22,5,14,0.2,0.3
2022-07-25T22:00:00,1477A,104.1373,35.9454,兰州市,榆中兰大校区(对照点),,,,,,,,,,,,,,,,
2022-07-25T22:00:00,1478A,103.8412,36.0726,兰州市,生物制品所,,37,37,34,24,21,173,81,158,139,22,25,7,9,0.7,0.9
2022-07-25T22:00:00,1479A,103.831,36.0464,兰州市,铁路设计院,,39,39,33,11,10,162,71,150,132,32,22,5,9,0.4,0.7
2022-07-25T22:00:00,1480A,101.748,36.6428,西宁市,市环境监测站,,,,,,,,,,,,,,,,
2022-07-25T22:00:00,1482A,101.834,36.5819,西宁市,四陆医院,,,,,,,,,,,,,,,,
2022-07-25T22:00:00,1483A,101.524,36.6867,西宁市,第五水厂(对照点),,,,,,,,,,,,,,,,
2022-07-25T22:00:00,1484A,105.9512,38.6016,银川市,贺兰山马莲口(对照点),,44,28,25,7,10,171,140,156,151,8,12,9,11,0.2,0.3
2022-07-25T22:00:00,1488A,106.2328,38.4975,银川市,贺兰山东路,,40,40,30,5,11,185,100,159,143,49,20,8,13,0.7,0.5
2022-07-25T22:00:00,1489A,106.1358,38.5036,银川市,学院路,颗粒物(PM10),59,68,42,21,17,159,95,149,136,46,22,7,13,0.6,0.5
2022-07-25T22:00:00,1490A,87.5801,43.8303,乌鲁木齐市,监测站,,29,24,29,8,12,117,91,108,105,29,22,4,4,0.2,0.2
2022-07-25T22:00:00,1491A,87.6046,43.768,乌鲁木齐市,收费所,,40,40,39,15,13,109,84,102,99,24,18,8,7,0.4,0.3
2022-07-25T22:00:00,1492A,87.4754,43.9469,乌鲁木齐市,新疆农科院农场(对照点),,47,47,48,7,11,111,84,103,101,8,19,5,6,0.5,0.6
2022-07-25T22:00:00,1493A,87.5525,43.8711,乌鲁木齐市,铁路局,,41,41,31,11,13,127,95,114,111,19,18,3,4,0.5,0.6
2022-07-25T22:00:00,1494A,87.6432,43.831,乌鲁木齐市,三十一中学,,31,25,35,8,13,123,98,115,112,14,14,5,4,0.3,0.3
2022-07-25T22:00:00,1496A,87.7216,44.1747,乌鲁木齐市,米东区环保局,,33,33,64,12,16,117,88,109,106,11,12,3,3,0.2,0.3
2022-07-25T22:00:00,1508A,112.9433,27.8614,湘潭市,板塘,,42,42,41,23,21,119,92,107,106,17,17,6,8,0.6,0.7
2022-07-25T22:00:00,1511A,112.9118,27.8403,湘潭市,市监测站,,39,39,31,26,23,120,85,102,101,25,18,9,16,0.8,0.9
2022-07-25T22:00:00,1512A,112.8937,27.8728,湘潭市,江麓,,39,39,36,11,17,125,105,110,110,10,11,28,10,0.5,0.5
2022-07-25T22:00:00,1513A,112.9227,27.8159,湘潭市,岳塘,,42,42,38,20,17,129,86,109,107,17,11,25,23,1.0,0.8
2022-07-25T22:00:00,1514A,112.9074,27.9119,湘潭市,科大,,42,42,39,13,14,126,98,109,107,13,17,7,9,0.7,0.6
2022-07-25T22:00:00,1515A,113.135,27.8244,株洲市,天台山庄,,,,,,,,,,,,,,,,
2022-07-25T22:00:00,1518A,113.095,27.8867,株洲市,株冶医院,,33,27,31,13,15,138,105,124,123,12,21,7,8,0.5,0.6
2022-07-25T22:00:00,1519A,113.167,27.8667,株洲市,市四中,,44,44,29,28,21,132,97,120,117,12,13,2,6,0.5,0.6
2022-07-25T22:00:00,1520A,113.143,27.8381,株洲市,火车站,,31,31,33,18,20,141,86,129,123,16,17,20,8,0.3,0.4
2022-07-25T22:00:00,1524A,113.13,27.8528,株洲市,市监测站,,34,34,50,23,26,145,100,123,120,14,16,5,6,0.5,0.6
2022-07-25T22:00:00,1552A,106.805,26.3003,贵阳市,桐木岭(对照点),,,,,,,,,,,,,,,,
2022-07-25T22:00:00,1559A,113.251,27.8336,株洲市,大京风景区(对照点),,40,40,18,19,17,107,37,102,78,6,5,4,5,0.5,0.5
2022-07-25T22:00:00,1562A,113.0048,27.9153,湘潭市,昭山,,33,27,27,23,21,118,68,107,102,30,21,8,8,0.4,0.4
2022-07-25T22:00:00,1564A,112.4876,27.9164,湘潭市,韶山(对照点),,32,21,29,22,15,107,44,97,78,14,12,6,6,0.7,0.7
2022-07-25T22:00:00,1585A,109.8756,40.6532,包头市,市环境监测站,,46,46,30,18,12,184,94,164,156,36,29,6,12,0.6,0.6
2022-07-25T22:00:00,1587A,109.9991,40.5842,包头市,包头八中,颗粒物(PM10),53,56,33,28,17,181,116,166,158,27,21,9,14,0.6,0.5
2022-07-25T22:00:00,1588A,109.8538,40.6821,包头市,青山宾馆,,40,40,30,19,16,180,119,159,152,30,33,7,10,0.6,0.7
2022-07-25T22:00:00,1589A,109.8642,40.6288,包头市,惠龙物流,,46,46,33,12,11,191,101,175,168,33,20,8,11,0.6,0.5
2022-07-25T22:00:00,1590A,110.0377,40.5546,包头市,东河鸿龙湾,,48,48,27,23,11,179,92,161,147,26,16,5,8,0.6,0.5
2022-07-25T22:00:00,1591A,110.0023,39.8129,鄂尔多斯市,综合楼,,37,28,21,11,6,162,118,150,140,19,14,7,8,0.8,0.6
2022-07-25T22:00:00,1592A,109.9486,39.8261,鄂尔多斯市,巴音孟克林场办事处,,37,29,24,14,10,152,117,143,136,15,13,7,8,0.9,0.8
2022-07-25T22:00:00,1593A,109.7736,39.5986,鄂尔多斯市,康泽苑,,36,17,21,9,7,162,113,159,152,17,9,4,5,0.6,0.5
2022-07-25T22:00:00,1594A,109.8119,39.5989,鄂尔多斯市,华泰汽车城,,38,29,25,12,12,161,121,155,148,9,9,7,7,0.7,0.6
2022-07-25T22:00:00,1595A,109.9734,39.7884,鄂尔多斯市,奥林花园,,,,27,,10,160,110,152,143,13,13,6,7,0.8,0.8
2022-07-25T22:00:00,1596A,122.2414,40.6592,营口市,学府南路,,,,,,,,,,,,,,,,
2022-07-25T22:00:00,1597A,122.2703,40.7094,营口市,大庆路,臭氧1小时,67,46,40,24,24,197,173,186,183,9,14,6,7,0.6,0.8
2022-07-25T22:00:00,1598A,122.215,40.6511,营口市,镜湖西路,臭氧1小时,75,43,35,26,26,209,180,198,192,11,15,3,3,0.6,0.6
2022-07-25T22:00:00,1599A,122.167,40.6655,营口市,西炮台,,,46,45,15,14,200,175,194,191,6,8,5,3,,0.6
2022-07-25T22:00:00,1600A,124.3303,40.0625,丹东市,江湾东路,,32,32,20,20,14,108,94,97,90,5,9,8,10,0.5,0.5
2022-07-25T22:00:00,1601A,124.4256,40.1503,丹东市,临江后街,,36,34,20,25,13,111,97,104,100,5,4,12,12,0.7,0.7
2022-07-25T22:00:00,1602A,124.3933,40.1461,丹东市,元宝山,,35,32,23,24,17,108,70,101,90,6,8,4,5,0.6,0.8
2022-07-25T22:00:00,1603A,124.3633,40.1092,丹东市,民主桥,,36,36,23,22,14,100,86,96,90,7,7,10,11,0.6,0.6
2022-07-25T22:00:00,1604A,122.0303,41.1489,盘锦市,开发区,,48,37,40,30,25,169,151,159,158,5,8,5,5,0.8,0.9
2022-07-25T22:00:00,1605A,122.0485,41.0883,盘锦市,兴隆台,,46,29,42,32,26,156,142,149,149,14,17,4,4,0.7,0.8
2022-07-25T22:00:00,1606A,121.8297,41.1028,盘锦市,新生街道,臭氧1小时,52,45,39,33,23,192,161,176,173,11,11,6,5,0.7,0.7
2022-07-25T22:00:00,1607A,120.9092,40.7136,葫芦岛市,龙港区,细颗粒物(PM2.5),75,25,47,55,57,192,159,177,176,6,7,4,4,0.7,0.8
2022-07-25T22:00:00,1608A,120.8392,40.7514,葫芦岛市,化工街,细颗粒物(PM2.5),83,61,64,61,43,201,160,187,177,10,11,5,5,0.5,0.7
2022-07-25T22:00:00,1609A,120.8341,40.7073,葫芦岛市,新区,细颗粒物(PM2.5),65,30,48,47,53,193,165,178,176,6,8,4,4,0.7,0.9
2022-07-25T22:00:00,1610A,120.8695,40.7677,葫芦岛市,东城区,细颗粒物(PM2.5),57,50,54,40,65,169,146,162,157,14,14,8,6,0.7,0.5
2022-07-25T22:00:00,1611A,118.5819,24.9117,泉州市,涂山街,颗粒物(PM10),52,54,49,18,24,183,70,156,114,18,18,7,9,0.5,0.5
2022-07-25T22:00:00,1612A,118.5972,24.8978,泉州市,津头埔,,43,43,45,18,23,170,65,143,103,23,24,5,8,0.4,0.3
2022-07-25T22:00:00,1613A,118.6663,24.9424,泉州市,万安,,44,44,46,20,26,158,71,136,107,15,18,7,7,0.5,0.5
2022-07-25T22:00:00,1614A,118.6117,24.9604,泉州市,清源山(对照点),,,,,,,,,,,,,,,,
2022-07-25T22:00:00,1616A,117.6795,36.229,济南市,技术学院,颗粒物(PM10),53,56,48,26,29,180,114,170,157,25,26,4,6,1.1,0.9
2022-07-25T22:00:00,1618A,118.3429,35.0532,临沂市,沂河小区,,27,27,48,4,33,148,75,140,119,9,16,6,17,0.3,0.4
2022-07-25T22:00:00,1619A,118.295,35.0583,临沂市,鲁南制药厂,,25,19,36,10,27,159,80,149,130,10,17,5,11,0.4,0.5
2022-07-25T22:00:00,1620A,118.2794,34.9976,临沂市,新光毛纺厂,,25,17,42,14,27,150,79,146,126,13,20,3,9,0.4,0.5
2022-07-25T22:00:00,1621A,118.3956,35.0888,临沂市,河东保险公司,,24,22,40,6,30,151,74,142,119,12,17,4,7,0.4,0.5
2022-07-25T22:00:00,1622A,116.3032,37.4674,德州市,儿童乐园,,29,29,44,5,27,177,82,160,140,30,62,7,6,0.3,0.5
2022-07-25T22:00:00,1624A,116.2991,37.4451,德州市,监理站,,30,23,43,10,27,187,96,183,149,27,14,10,10,0.3,0.5
2022-07-25T22:00:00,1625A,115.9848,36.4372,聊城市,区政府,,44,44,44,11,23,163,76,157,129,34,16,7,9,0.7,0.8
2022-07-25T22:00:00,1628A,118.0062,37.3803,滨州市,市环保局,颗粒物(PM10),57,63,54,30,36,210,90,192,153,21,14,5,9,0.7,0.6
2022-07-25T22:00:00,1629A,118.0018,37.3617,滨州市,第二水厂,,44,44,52,30,33,192,85,182,137,23,18,6,11,0.9,0.9
2022-07-25T22:00:00,1630A,117.9776,37.393,滨州市,北中新校,,42,41,46,29,30,205,101,187,153,19,14,10,11,0.5,0.4
2022-07-25T22:00:00,1631A,118.0414,36.8103,淄博市,人民公园,颗粒物(PM10),52,53,45,26,31,156,104,151,132,29,20,8,9,0.4,0.5
2022-07-25T22:00:00,1632A,118.0253,36.8406,淄博市,东风化工厂,,,,,,,,,,,,,,,,
2022-07-25T22:00:00,1633A,117.8525,36.4847,淄博市,双山,,39,39,37,25,23,150,105,140,131,15,14,8,10,0.3,0.5
2022-07-25T22:00:00,1634A,117.9592,36.6331,淄博市,气象站,颗粒物(PM10),52,53,40,22,24,155,99,146,136,23,15,11,10,0.4,0.6
2022-07-25T22:00:00,1635A,118.3092,36.8194,淄博市,莆田园,,39,29,49,22,32,164,124,153,143,14,23,7,11,0.5,1.4
2022-07-25T22:00:00,1636A,117.8661,36.805,淄博市,三金集团,,,,,,,,,,,,,,,,
2022-07-25T22:00:00,1637A,117.558,34.8438,枣庄市,市中区政府,颗粒物(PM10),70,90,59,41,26,193,109,183,168,34,26,32,15,0.7,0.5
2022-07-25T22:00:00,1638A,117.2852,34.7837,枣庄市,薛城环保局,细颗粒物(PM2.5),58,61,50,41,28,174,148,169,164,15,14,30,12,0.5,0.4
2022-07-25T22:00:00,1639A,117.5852,34.7745,枣庄市,峄城区政府,细颗粒物(PM2.5),54,56,54,38,32,203,162,188,183,12,18,9,8,0.6,0.5
2022-07-25T22:00:00,1640A,117.7276,34.5578,枣庄市,台儿庄区环保局,颗粒物(PM10),52,53,43,34,26,191,117,179,165,17,14,14,13,0.7,0.7
2022-07-25T22:00:00,1641A,117.4518,35.0992,枣庄市,山亭区环保局,臭氧1小时,54,44,37,32,28,193,163,182,181,13,12,9,12,0.7,0.6
2022-07-25T22:00:00,1642A,121.2514,37.5639,烟台市,开发区,,34,19,38,9,22,160,107,143,127,5,8,3,5,0.5,0.6
2022-07-25T22:00:00,1643A,121.3719,37.5433,烟台市,轴承厂,,35,17,36,14,23,157,110,144,125,5,7,5,6,0.1,0.3
2022-07-25T22:00:00,1644A,121.3181,37.5436,烟台市,西郊化工站,,34,12,34,7,20,152,107,138,120,5,11,6,8,0.3,0.4
2022-07-25T22:00:00,1645A,121.4478,37.4822,烟台市,莱山环保局,,33,12,30,6,18,152,104,139,122,3,6,4,7,0.4,0.5
2022-07-25T22:00:00,1646A,121.2611,37.4967,烟台市,福山环保局,,30,17,41,7,23,140,95,129,112,10,15,4,5,0.5,0.6
2022-07-25T22:00:00,1648A,119.12,36.7019,潍坊市,仲裁委,,,,,,,,,,,,,,,,
2022-07-25T22:00:00,1650A,119.1437,36.7023,潍坊市,环保局,,28,24,42,11,28,168,87,154,129,6,10,5,7,0.4,0.7
2022-07-25T22:00:00,1652A,119.1936,36.7729,潍坊市,寒亭监测站,,,,,,,,,,,,,,,,
2022-07-25T22:00:00,1653A,116.6251,35.4302,济宁市,火炬城,,50,50,46,31,27,194,144,180,176,16,11,7,8,0.6,0.6
2022-07-25T22:00:00,1655A,116.5491,35.4042,济宁市,电化厂,,50,45,44,34,26,197,159,185,182,5,6,7,8,0.8,0.8
2022-07-25T22:00:00,1656A,117.1437,36.1937,泰安市,监测站,,44,44,42,29,31,148,116,141,131,17,13,6,6,0.4,0.4
2022-07-25T22:00:00,1657A,117.0885,36.2017,泰安市,人口学校,,44,36,40,20,24,158,138,152,143,12,10,6,9,0.3,0.4
2022-07-25T22:00:00,1658A,117.1089,36.1758,泰安市,电力学校,颗粒物(PM10),51,51,45,27,29,146,109,140,127,19,11,7,8,0.3,0.3
2022-07-25T22:00:00,1659A,119.471,35.4209,日照市,监测站,,23,17,28,12,22,140,73,122,90,6,14,3,4,0.3,0.5
2022-07-25T22:00:00,1660A,119.523,35.4216,日照市,市政府广场,,28,9,30,10,20,139,88,124,96,8,24,5,8,0.4,0.6
2022-07-25T22:00:00,1661A,119.5587,35.4044,日照市,港务局,,27,14,30,3,17,153,85,128,101,7,25,4,8,0.6,0.8
2022-07-25T22:00:00,1662A,122.1214,37.4236,威海市,华夏技校,,26,14,27,14,26,162,82,159,116,9,8,5,5,0.3,0.4
2022-07-25T22:00:00,1663A,122.0508,37.5236,威海市,山大分校,,39,12,32,10,26,196,122,187,133,5,11,3,4,0.3,0.4
2022-07-25T22:00:00,1664A,122.1067,37.5072,威海市,市监测站,,33,20,35,17,30,190,103,162,129,13,13,4,4,0.4,0.5
2022-07-25T22:00:00,1665A,118.5019,37.4658,东营市,西城阳光环保公司,,,,,,,,,,,,,,,,
2022-07-25T22:00:00,1666A,118.6614,37.4309,东营市,市环保局,,34,31,42,14,24,166,107,160,143,8,14,15,12,0.5,0.5
2022-07-25T22:00:00,1669A,113.5824,24.7733,韶关市,市八中,颗粒物(PM10),57,64,53,29,29,181,136,171,160,26,21,14,13,0.7,0.7
2022-07-25T22:00:00,1670A,113.5556,24.8082,韶关市,碧湖山庄,,,,,,,,,,,,,,,,
2022-07-25T22:00:00,1671A,113.5917,24.7972,韶关市,园林处,细颗粒物(PM2.5),68,31,45,49,33,153,116,150,144,19,18,13,12,0.7,0.7
2022-07-25T22:00:00,1672A,113.6735,24.7791,韶关市,韶关学院,细颗粒物(PM2.5),60,60,63,43,40,190,114,170,161,17,17,9,15,0.7,0.7
2022-07-25T22:00:00,1673A,113.5971,24.6863,韶关市,曲江监测站,细颗粒物(PM2.5),68,59,52,49,34,173,125,160,152,14,20,10,12,0.6,0.6
2022-07-25T22:00:00,1674A,116.6794,23.3667,汕头市,金平子站,,38,22,33,20,22,159,120,141,130,8,9,7,8,0.6,0.7
2022-07-25T22:00:00,1675A,116.7244,23.3633,汕头市,龙湖子站,,37,37,44,14,19,154,117,138,129,10,12,8,8,0.6,0.6
2022-07-25T22:00:00,1676A,116.7258,23.2775,汕头市,濠江子站,,35,17,28,17,19,133,109,125,124,10,8,9,10,0.5,0.5
2022-07-25T22:00:00,1677A,116.7519,23.4714,汕头市,澄海子站,,35,31,44,24,25,184,102,158,130,13,13,5,7,0.7,0.7
2022-07-25T22:00:00,1678A,116.6092,23.2539,汕头市,潮阳子站,,48,48,44,31,22,141,116,130,126,6,6,7,8,0.7,0.6
2022-07-25T22:00:00,1679A,116.4069,23.2533,汕头市,潮南子站,,,,,,,,,,,,,,,,
2022-07-25T22:00:00,1680A,110.3539,21.2706,湛江市,湛江影剧院,,20,20,26,6,12,104,39,86,68,10,10,6,13,0.5,0.5
2022-07-25T22:00:00,1681A,110.3928,21.2228,湛江市,市环境监测站,颗粒物(PM10),54,57,29,17,18,113,32,90,68,17,13,10,8,0.5,0.5
2022-07-25T22:00:00,1682A,110.4019,21.1997,湛江市,环保局宿舍,,35,35,26,19,15,94,34,83,64,12,9,9,19,0.5,0.5
2022-07-25T22:00:00,1683A,110.4111,21.2028,湛江市,霞山游泳场,,36,36,22,17,15,102,37,90,70,15,11,36,19,0.5,0.5
2022-07-25T22:00:00,1684A,110.3316,21.2679,湛江市,麻章区环保局,,28,28,24,10,15,95,30,77,59,12,11,15,11,0.5,0.5
2022-07-25T22:00:00,1685A,110.4558,21.2567,湛江市,坡头区环保局,,25,25,22,15,13,117,36,99,74,13,12,6,7,0.5,0.5
2022-07-25T22:00:00,1686A,111.0286,21.4688,茂名市,电白南海,,36,36,35,22,19,123,92,111,109,7,9,4,12,0.6,0.5
2022-07-25T22:00:00,1687A,110.9294,21.6533,茂名市,茂石化七小,,41,41,32,24,22,109,86,102,97,9,12,5,12,0.6,0.5
2022-07-25T22:00:00,1688A,110.9107,21.6687,茂名市,健康路,,34,34,27,23,13,116,88,107,106,5,8,5,16,0.7,0.6
2022-07-25T22:00:00,1689A,110.8592,21.6828,茂名市,高岭,细颗粒物(PM2.5),55,58,34,39,24,107,86,98,97,10,12,6,22,0.6,0.6
2022-07-25T22:00:00,1690A,116.1231,24.3284,梅州市,梅江月梅,,45,45,48,16,29,163,108,140,107,12,18,5,5,0.6,0.6
2022-07-25T22:00:00,1691A,116.0797,24.2719,梅州市,梅县新城,,35,35,48,9,31,160,78,125,99,16,19,6,5,0.6,0.7
2022-07-25T22:00:00,1692A,116.1248,24.2654,梅州市,环境监控中心,,36,36,48,19,28,158,77,127,91,17,18,6,6,0.6,0.6
2022-07-25T22:00:00,1693A,115.3653,22.775,汕尾市,市环保局,,29,14,26,15,15,122,91,117,108,5,5,5,5,0.6,0.6
2022-07-25T22:00:00,1694A,115.3706,22.7898,汕尾市,市政府,,33,13,22,10,14,137,103,131,120,5,4,6,6,0.6,0.6
2022-07-25T22:00:00,1695A,115.3622,22.7925,汕尾市,新城中学,,34,26,27,16,15,136,108,129,122,3,3,5,6,0.5,0.5
2022-07-25T22:00:00,1696A,114.6778,23.7569,河源市,源西(对照点),颗粒物(PM10),66,81,62,40,34,185,89,167,144,31,18,3,4,0.8,0.6
2022-07-25T22:00:00,1697A,114.6944,23.7586,河源市,东埔,细颗粒物(PM2.5),64,69,57,46,33,199,100,183,163,26,16,4,4,0.9,0.7
2022-07-25T22:00:00,1698A,114.6892,23.7233,河源市,老城,颗粒物(PM10),67,83,64,29,33,205,93,184,158,31,19,2,4,0.8,0.7
2022-07-25T22:00:00,1699A,111.9797,21.8593,阳江市,鸳鸯湖(对照点),,,,,,,,,,,,,,,,
2022-07-25T22:00:00,1700A,111.9508,21.8536,阳江市,南恩路,,,,,,,,,,,,,,,,
2022-07-25T22:00:00,1701A,111.9491,21.8658,阳江市,马南垌,,37,25,38,17,27,187,118,159,154,6,10,6,6,0.6,0.6
2022-07-25T22:00:00,1702A,113.0426,23.691,清远市,环保大楼(对照点),细颗粒物(PM2.5),54,55,51,38,36,188,81,171,146,34,16,4,5,0.7,0.6
2022-07-25T22:00:00,1703A,113.0208,23.7106,清远市,凤城街办,颗粒物(PM10),51,51,48,34,32,145,72,131,108,24,16,4,5,1.0,0.8
2022-07-25T22:00:00,1705A,116.6367,23.6719,潮州市,西园路(对照点),,47,47,54,27,31,190,95,160,132,12,12,6,5,0.8,0.8
2022-07-25T22:00:00,1706A,116.6447,23.6706,潮州市,档案局,颗粒物(PM10),51,51,55,25,32,202,101,176,150,12,12,9,8,0.7,0.8
2022-07-25T22:00:00,1708A,116.3701,23.5345,揭阳市,新兴,,48,44,47,33,28,160,101,149,133,10,5,6,5,1.0,0.7
2022-07-25T22:00:00,1709A,116.3264,23.5443,揭阳市,西马,颗粒物(PM10),57,64,48,29,26,153,100,142,130,10,5,8,6,0.9,0.6
2022-07-25T22:00:00,1710A,116.3611,23.5626,揭阳市,东兴,颗粒物(PM10),56,61,56,28,26,151,100,138,127,9,8,3,3,0.8,0.8
2022-07-25T22:00:00,1711A,116.4151,23.5294,揭阳市,渔湖,颗粒物(PM10),58,66,52,22,28,149,91,140,125,12,8,4,4,0.9,0.7
2022-07-25T22:00:00,1712A,112.0392,22.9169,云浮市,新市府(对照点),,,,,,,,,,,,,,,,
2022-07-25T22:00:00,1713A,112.0369,22.9394,云浮市,市监测站,,,,,,,,,,,,,,,,
2022-07-25T22:00:00,1714A,112.0539,22.9539,云浮市,牧羊,颗粒物(PM10),53,55,58,22,32,175,62,144,112,21,21,12,21,0.7,0.6
2022-07-25T22:00:00,1715A,102.575,24.3711,玉溪市,东风水库,,33,33,13,4,5,68,37,57,53,19,13,4,4,0.7,0.7
2022-07-25T22:00:00,1718A,115.4208,35.2464,菏泽市,气象局,,48,48,42,22,24,163,145,159,154,12,10,5,4,0.5,0.5
2022-07-25T22:00:00,1719A,115.4747,35.2375,菏泽市,市政协,,50,50,43,28,19,173,155,168,163,12,11,6,6,0.2,0.2
2022-07-25T22:00:00,1720A,115.455,35.27,菏泽市,菏泽学院,,,,,,,,,,,,,,,,
2022-07-25T22:00:00,1721A,113.3819,40.1097,大同市,果树场(对照点),,,,,,,,,,,,,,,,
2022-07-25T22:00:00,1723A,113.2994,40.0758,大同市,云冈宾馆,颗粒物(PM10),72,94,47,32,16,155,114,138,125,30,24,14,13,0.7,0.6
2022-07-25T22:00:00,1724A,113.3444,40.0917,大同市,大同大学,颗粒物(PM10),55,59,37,29,15,166,153,153,145,9,15,6,8,0.5,0.5
2022-07-25T22:00:00,1725A,113.2661,40.1269,大同市,安家小村,颗粒物(PM10),52,54,36,27,14,179,143,160,146,12,18,20,17,0.7,0.7
2022-07-25T22:00:00,1726A,113.2711,40.0844,大同市,教育学院,颗粒物(PM10),58,65,47,31,16,160,130,143,132,16,22,16,13,0.8,0.7
2022-07-25T22:00:00,1727A,113.1147,36.1547,长治市,清华站,,26,26,35,9,13,139,38,120,92,36,18,9,9,1.0,0.4
2022-07-25T22:00:00,1728A,113.1031,36.1989,长治市,监测站,,41,41,43,14,14,136,47,118,92,38,20,8,9,0.9,0.8
2022-07-25T22:00:00,1730A,113.0886,36.2125,长治市,审计局,,23,21,32,7,15,157,73,136,111,36,23,10,9,0.5,0.7
2022-07-25T22:00:00,1731A,113.0844,36.1856,长治市,长治八中,,33,33,36,14,14,144,48,125,101,48,22,11,11,0.8,0.9
2022-07-25T22:00:00,1733A,111.5531,36.0783,临汾市,临钢医院,,20,15,30,12,15,140,61,123,108,33,25,2,2,0.4,0.5
2022-07-25T22:00:00,1734A,111.5028,36.0714,临汾市,技工学校,,26,6,28,8,15,136,82,120,111,14,20,1,3,0.4,0.5
2022-07-25T22:00:00,1735A,111.5169,36.0822,临汾市,工商学校,,,,,,,,,,,,,,,,
2022-07-25T22:00:00,1736A,111.5018,36.0855,临汾市,市委,,,,26,,11,134,80,124,112,16,20,2,2,0.3,0.4
2022-07-25T22:00:00,1738A,113.5758,37.8572,阳泉市,市中心,,48,48,67,18,24,179,50,144,105,45,49,9,16,0.8,0.8
2022-07-25T22:00:00,1739A,113.4894,37.8731,阳泉市,赛鱼,,27,27,53,14,16,174,23,143,94,54,43,9,12,0.6,0.7
2022-07-25T22:00:00,1740A,113.5819,37.8486,阳泉市,南庄,,32,32,70,20,21,170,65,136,104,24,39,11,19,1.0,1.1
2022-07-25T22:00:00,1741A,113.6292,37.8531,阳泉市,白羊墅,,,,,,,,,,,,,,,,
2022-07-25T22:00:00,1742A,113.5614,37.8703,阳泉市,平坦,,49,49,61,7,17,185,52,154,115,56,52,12,17,1.0,1.1
2022-07-25T22:00:00,1743A,113.5158,37.8392,阳泉市,大阳泉,,29,29,43,12,18,171,80,140,108,26,22,9,13,0.7,0.7
2022-07-25T22:00:00,1744A,118.9233,42.2816,赤峰市,松山一中,,42,42,29,16,13,129,63,122,99,37,20,11,9,0.7,0.6
2022-07-25T22:00:00,1745A,118.9576,42.2728,赤峰市,哈达街,,36,36,31,20,16,131,94,123,110,22,21,12,12,0.4,0.5
2022-07-25T22:00:00,1746A,118.8788,42.2554,赤峰市,天义路,,27,27,22,11,7,125,84,114,92,24,22,12,10,0.4,0.4
2022-07-25T22:00:00,1748A,123.044,41.1196,鞍山市,深沟寺,颗粒物(PM10),52,53,41,32,23,193,65,161,141,10,12,7,7,0.7,0.9
2022-07-25T22:00:00,1749A,123.011,41.0931,鞍山市,太阳城,,48,47,36,33,25,192,75,166,146,13,15,7,7,0.9,1.1
2022-07-25T22:00:00,1750A,123.0485,41.1442,鞍山市,太平,,50,50,44,28,24,198,71,170,146,14,19,5,8,0.9,1
2022-07-25T22:00:00,1751A,122.9642,41.0971,鞍山市,铁西三道街,细颗粒物(PM2.5),74,92,59,54,30,202,89,172,156,19,28,7,10,1.2,1.3
2022-07-25T22:00:00,1752A,122.9341,41.0833,鞍山市,铁西工业园区,细颗粒物(PM2.5),62,69,48,44,27,199,101,170,160,13,18,6,9,1.2,1.4
2022-07-25T22:00:00,1753A,123.022,41.0821,鞍山市,明达新区,细颗粒物(PM2.5),52,51,40,36,26,182,91,160,145,10,13,4,5,0.6,0.8
2022-07-25T22:00:00,1754A,123.1289,41.0228,鞍山市,千山(对照点),,,,,,,,,,,,,,,,
2022-07-25T22:00:00,1755A,123.7977,41.8491,抚顺市,望花区,,39,38,52,27,31,170,72,150,124,14,24,3,6,0.5,0.8
2022-07-25T22:00:00,1756A,123.9161,41.8822,抚顺市,顺城区,,40,40,47,24,24,178,76,156,129,18,27,7,10,0.6,0.8
2022-07-25T22:00:00,1757A,124.0436,41.8611,抚顺市,东洲区,,45,45,40,22,22,158,76,138,114,10,11,68,16,0.5,0.5
2022-07-25T22:00:00,1758A,123.9247,41.8642,抚顺市,新抚区,,45,38,46,31,27,174,63,149,121,22,22,4,4,0.6,0.8
2022-07-25T22:00:00,1759A,124.0972,41.8961,抚顺市,大伙房水库,,35,35,33,18,21,163,83,131,118,3,6,6,7,0.4,0.5
2022-07-25T22:00:00,1760A,123.7086,41.8391,抚顺市,沈抚新城,,50,50,48,30,28,160,61,146,120,20,19,3,5,0.9,0.9
2022-07-25T22:00:00,1761A,123.8275,41.3064,本溪市,大峪,,32,32,34,22,24,122,69,114,94,7,16,5,5,0.7,0.9
2022-07-25T22:00:00,1762A,123.7567,41.3325,本溪市,溪湖,,40,40,48,26,26,126,94,117,100,11,21,7,7,0.7,1
2022-07-25T22:00:00,1763A,123.7169,41.3094,本溪市,彩屯,颗粒物(PM10),59,68,50,41,33,102,56,91,70,24,27,4,5,1.5,1.7
2022-07-25T22:00:00,1764A,123.7669,41.2864,本溪市,东明,,33,29,43,23,24,114,95,107,95,7,17,5,6,0.5,0.8
2022-07-25T22:00:00,1765A,123.7992,41.2664,本溪市,新立屯,,37,37,42,24,23,123,95,114,98,4,14,4,5,1.0,1.1
2022-07-25T22:00:00,1766A,123.8142,41.3472,本溪市,威宁,,49,49,54,17,21,122,36,109,72,11,14,8,8,0.5,0.7
2022-07-25T22:00:00,1767A,121.1115,41.0879,锦州市,南山,细颗粒物(PM2.5),63,38,48,45,38,170,128,166,158,14,12,4,5,0.8,0.9
2022-07-25T22:00:00,1768A,121.0533,40.8434,锦州市,开发区,"细颗粒物(PM2.5),臭氧1小时",55,47,64,39,43,208,164,194,190,18,15,63,13,1.8,1
2022-07-25T22:00:00,1769A,121.1836,41.1119,锦州市,百股街道,细颗粒物(PM2.5),67,38,46,48,53,193,148,179,174,9,8,5,5,0.8,0.9
2022-07-25T22:00:00,1770A,121.1178,41.1222,锦州市,天安街道,细颗粒物(PM2.5),67,46,56,48,38,172,122,165,154,14,13,8,8,0.8,1
2022-07-25T22:00:00,1771A,121.1303,41.1386,锦州市,北湖公园,细颗粒物(PM2.5),55,42,53,39,38,184,137,175,167,13,14,5,7,0.7,0.8
2022-07-25T22:00:00,1772A,126.54,43.8622,吉林市,哈达湾,,30,30,16,18,10,111,60,106,95,18,9,5,5,0.8,0.6
2022-07-25T22:00:00,1773A,126.5844,43.8358,吉林市,东局子,,,27,17,15,11,112,,101,91,17,16,7,6,0.7,0.6
2022-07-25T22:00:00,1774A,126.5052,43.8245,吉林市,电力学院,,37,37,24,22,14,114,11,106,75,26,10,7,7,0.7,0.5
2022-07-25T22:00:00,1775A,126.6133,43.8972,吉林市,江北,,34,34,18,18,10,117,24,109,82,23,9,6,6,0.9,0.7
2022-07-25T22:00:00,1776A,126.555,43.8306,吉林市,江南公园,,26,19,14,18,9,110,54,104,92,14,11,4,4,0.8,0.7
2022-07-25T22:00:00,1778A,126.7061,43.7133,吉林市,丰满(对照点),,,,,,,,,,,,,,,,
2022-07-25T22:00:00,1779A,123.9305,47.3636,齐齐哈尔市,安居小区,,42,42,44,5,11,96,62,80,79,19,20,5,5,0.4,0.6
2022-07-25T22:00:00,1780A,123.9488,47.3386,齐齐哈尔市,中心广场,,30,30,19,9,6,99,54,86,83,19,10,3,3,0.4,0.3
2022-07-25T22:00:00,1781A,123.9483,47.3227,齐齐哈尔市,农牧车辆厂,,29,29,28,11,7,101,63,89,87,5,5,3,3,0.4,0.3
2022-07-25T22:00:00,1783A,123.945,47.2988,齐齐哈尔市,市环境监测站,,23,17,19,3,6,105,71,92,91,11,12,6,6,0.3,0.3
2022-07-25T22:00:00,1784A,129.61,44.561,牡丹江市,环保大楼,,19,19,8,11,8,84,24,78,65,21,8,4,4,0.6,0.5
2022-07-25T22:00:00,1785A,129.6115,44.5782,牡丹江市,文化广场,,27,27,11,6,5,82,27,75,66,21,9,3,2,0.5,0.3
2022-07-25T22:00:00,1786A,129.5904,44.5963,牡丹江市,第一医院,,15,14,7,10,6,74,14,65,52,20,9,3,3,0.8,0.6
2022-07-25T22:00:00,1787A,129.6364,44.6075,牡丹江市,机车工厂,,14,14,12,5,5,83,22,70,57,19,10,7,4,0.4,0.3
2022-07-25T22:00:00,1788A,129.6386,44.5462,牡丹江市,第一中学,,36,36,14,4,7,80,14,75,55,21,11,3,3,0.4,0.4
2022-07-25T22:00:00,1789A,124.81117,46.03138,大庆市,大同区,,32,32,14,5,5,99,44,96,82,38,12,4,4,0.4,0.3
2022-07-25T22:00:00,1790A,125.129,46.533,大庆市,龙凤区,,21,16,11,5,6,108,65,101,90,17,9,4,3,0.3,0.2
2022-07-25T22:00:00,1791A,124.902,46.408,大庆市,红岗区,,15,15,11,3,6,103,48,100,82,22,8,3,3,0.4,0.3
2022-07-25T22:00:00,1792A,125.153,46.586,大庆市,萨尔图区,,26,26,14,10,9,105,69,100,91,17,9,6,6,0.4,0.3
2022-07-25T22:00:00,1793A,124.9042,46.6215,大庆市,让胡路区,,20,12,10,12,8,110,64,103,86,16,12,3,4,0.4,0.2
2022-07-25T22:00:00,1794A,118.3606,31.3519,芜湖市,监测站,,21,21,41,8,27,147,61,131,92,16,23,9,10,0.4,0.7
2022-07-25T22:00:00,1795A,118.3714,31.4134,芜湖市,科创中心,,24,24,45,10,25,169,54,153,98,19,23,6,7,0.5,0.8
2022-07-25T22:00:00,1796A,118.3673,31.3131,芜湖市,四水厂,,20,20,45,10,25,155,60,140,95,12,14,7,7,0.4,0.7
2022-07-25T22:00:00,1797A,118.4022,31.3839,芜湖市,济民医院(对照点),,,,,,,,,,,,,,,,
2022-07-25T22:00:00,1798A,118.5092,31.6837,马鞍山市,湖东路四小,,25,18,40,11,19,188,79,172,118,16,17,2,4,0.7,0.9
2022-07-25T22:00:00,1799A,118.5024,31.6449,马鞍山市,开发区,,23,23,39,9,26,164,67,151,105,18,19,8,9,0.6,0.8
2022-07-25T22:00:00,1800A,118.5228,31.7231,马鞍山市,慈湖,,23,22,47,12,32,190,72,167,118,15,16,4,13,0.5,0.8
2022-07-25T22:00:00,1801A,118.48,31.6928,马鞍山市,马钢动力厂,,,,,,,,,,,,,,,,
2022-07-25T22:00:00,1802A,118.6245,31.7241,马鞍山市,濮塘(对照点),,25,17,32,3,20,172,78,157,118,6,7,2,3,0.5,0.6
2022-07-25T22:00:00,1803A,115.9872,29.6815,九江市,十里,颗粒物(PM10),54,58,36,33,25,162,41,124,96,37,21,9,10,0.8,0.9
2022-07-25T22:00:00,1804A,115.9584,29.7046,九江市,茅山头,,47,47,42,32,23,140,36,118,79,46,24,6,8,0.6,0.7
2022-07-25T22:00:00,1805A,115.9877,29.7295,九江市,西园,,50,50,51,27,22,183,6,137,86,60,37,11,11,0.4,0.8
2022-07-25T22:00:00,1806A,116.0172,29.6547,九江市,五七二七厂,,39,37,36,27,22,151,77,124,108,8,9,4,4,0.6,0.7
2022-07-25T22:00:00,1808A,115.9114,29.6038,九江市,综合工业园,,36,36,38,17,21,117,51,112,90,25,23,5,6,0.5,0.7
2022-07-25T22:00:00,1809A,116.0721,29.7535,九江市,石化总厂,,49,49,50,32,30,141,100,126,112,16,35,6,6,0.5,0.8
2022-07-25T22:00:00,1810A,115.9773,29.5698,九江市,庐山气象台(对照点),,48,34,20,33,23,140,140,112,112,4,3,6,11,0.6,0.5
2022-07-25T22:00:00,1811A,112.3628,34.6692,洛阳市,中信二小,,,,,,,,,,,,,,,,
2022-07-25T22:00:00,1812A,112.3931,34.6516,洛阳市,市委党校,,39,15,42,5,22,182,122,164,146,7,13,3,5,0.4,0.5
2022-07-25T22:00:00,1814A,112.4657,34.6871,洛阳市,豫西宾馆,,34,0,46,10,25,165,106,150,131,8,14,1,3,0.3,0.5
2022-07-25T22:00:00,1815A,112.494,34.6886,洛阳市,河南林校,,31,10,40,6,18,159,97,142,123,5,11,1,2,0.1,0.3
2022-07-25T22:00:00,1816A,112.3844,34.623,洛阳市,开发区管委会,,36,14,41,8,24,180,114,155,138,4,12,4,5,0.3,0.4
2022-07-25T22:00:00,1817A,112.4267,34.6258,洛阳市,市委新办公区,,32,12,43,8,21,178,101,151,133,6,9,3,6,0.3,0.5
2022-07-25T22:00:00,1818A,114.4839,36.0621,安阳市,棉研所(对照点),,,,,,,,,,,,,,,,
2022-07-25T22:00:00,1819A,114.3551,36.1017,安阳市,红庙街,,24,24,40,8,14,146,73,135,101,27,22,7,6,0.8,0.6
2022-07-25T22:00:00,1820A,114.361,36.0681,安阳市,银杏小区,,25,24,41,13,20,143,79,132,98,21,16,6,5,1.1,0.7
2022-07-25T22:00:00,1824A,114.3389,34.7781,开封市,肿瘤医院,,,,40,,18,139,,132,129,,13,,3,,0.5
2022-07-25T22:00:00,1826A,114.2885,34.7965,开封市,世纪星幼儿园,,35,15,39,9,18,129,112,125,118,12,11,4,4,0.6,0.7
2022-07-25T22:00:00,1828A,113.227,35.2125,焦作市,市环保局,,26,16,44,2,15,181,83,150,115,8,9,2,5,0.4,0.5
2022-07-25T22:00:00,1829A,113.2464,35.1764,焦作市,高新区政府（停运20220628）,,,,,,,,,,,,,,,,
2022-07-25T22:00:00,1830A,113.1992,35.2590,焦作市,影视城(对照点),,,,,,,,,,,,,,,,
2022-07-25T22:00:00,1832A,113.3257,33.742,平顶山市,新华旅馆,,41,41,41,13,17,126,96,117,112,14,18,3,4,0.2,0.4
2022-07-25T22:00:00,1833A,113.2919,33.737,平顶山市,规划设计院,,45,45,42,2,15,111,84,102,100,12,12,3,3,0.4,0.6
2022-07-25T22:00:00,1834A,113.182,33.774,平顶山市,平顶山工学院,,31,31,38,11,19,121,98,112,110,12,15,3,4,0.3,0.5
2022-07-25T22:00:00,1835A,111.1922,34.7752,三门峡市,市政府,,37,15,43,10,21,162,118,146,132,8,12,5,8,0.4,0.5
2022-07-25T22:00:00,1836A,111.1587,34.7942,三门峡市,开发区,颗粒物(PM10),59,67,74,19,32,160,116,144,131,9,14,2,6,0.5,0.6
2022-07-25T22:00:00,1838A,111.143,34.7955,三门峡市,风景区(对照点),,,,,,,,,,,,,,,,
2022-07-25T22:00:00,1839A,111.3009,30.7157,宜昌市,四零三,,,,,,,,,,,,,,,,
2022-07-25T22:00:00,1840A,111.2992,30.6981,宜昌市,白龙岗,,34,34,42,14,24,181,45,134,104,21,19,9,9,0.5,0.6
2022-07-25T22:00:00,1841A,111.3549,30.6465,宜昌市,伍家岗,,37,37,44,22,26,199,39,142,103,29,28,1,2,0.5,0.6
2022-07-25T22:00:00,1842A,111.2628,30.6961,宜昌市,点军区,,45,45,45,24,32,170,38,123,99,21,19,4,4,0.7,0.6
2022-07-25T22:00:00,1843A,111.3275,30.7819,宜昌市,夷陵区,,40,40,40,14,22,169,54,136,102,13,15,3,4,0.5,0.6
2022-07-25T22:00:00,1844A,112.2494,30.3197,荆州市,市图书馆,,40,24,22,28,15,114,85,104,98,17,12,6,7,0.6,0.5
2022-07-25T22:00:00,1845A,112.2008,30.3544,荆州市,市委党校,,45,45,26,23,14,114,91,102,100,12,10,8,7,0.6,0.5
2022-07-25T22:00:00,1847A,113.1094,29.3578,岳阳市,南湖风景区,,38,38,35,22,26,170,106,157,146,14,14,7,8,0.6,0.6
2022-07-25T22:00:00,1848A,113.1493,29.4251,岳阳市,城陵矶,,35,31,33,24,21,173,102,152,145,13,14,14,13,0.9,0.8
2022-07-25T22:00:00,1849A,113.1497,29.3575,岳阳市,开发区,,44,44,32,27,27,184,82,156,139,24,16,16,7,0.7,0.7
2022-07-25T22:00:00,1850A,113.2621,29.4758,岳阳市,云溪区,,38,38,33,25,21,163,107,148,143,6,11,11,16,0.6,0.7
2022-07-25T22:00:00,1851A,112.9943,29.4402,岳阳市,君山区,,43,40,26,30,21,150,96,135,122,12,9,8,7,0.6,0.5
2022-07-25T22:00:00,1852A,113.2117,29.355,岳阳市,金凤水库(对照点),,38,38,34,26,22,169,72,142,129,20,12,4,3,0.8,0.7
2022-07-25T22:00:00,1854A,111.6975,28.9703,常德市,市二中,,40,37,24,28,16,112,92,94,92,11,11,4,7,0.6,0.5
2022-07-25T22:00:00,1857A,111.7158,29.1456,常德市,白鹤山(对照点),,46,46,24,32,16,116,63,99,83,9,7,3,5,0.6,0.5
2022-07-25T22:00:00,1858A,110.5319,29.1217,张家界市,永定新区,,44,44,21,26,14,103,38,89,68,14,9,2,3,0.3,0.2
2022-07-25T22:00:00,1859A,110.4697,29.1242,张家界市,电业局,,30,30,16,14,5,104,46,88,73,12,9,3,3,0.2,0.1
2022-07-25T22:00:00,1860A,110.5594,29.3547,张家界市,未央路,,20,19,23,14,7,70,8,64,39,14,7,2,2,0.2,0.2
2022-07-25T22:00:00,1861A,110.4417,29.315,张家界市,袁家界(对照点),,18,17,18,12,8,86,42,82,64,3,5,8,8,0.4,0.4
2022-07-25T22:00:00,1862A,110.4144,25.3167,桂林市,电子科大尧山校区(对照点),细颗粒物(PM2.5),89,53,32,66,29,121,52,105,82,7,6,8,12,0.7,0.6
2022-07-25T22:00:00,1863A,110.2819,25.2697,桂林市,监测站,,30,28,37,21,16,134,89,105,87,14,12,6,6,0.6,0.6
2022-07-25T22:00:00,1864A,110.3089,25.2708,桂林市,龙隐路小学,,,14,32,21,20,120,84,98,83,,11,6,11,0.4,0.3
2022-07-25T22:00:00,1865A,110.2869,25.2178,桂林市,八中,,28,17,31,19,16,114,81,90,81,10,12,6,8,0.4,0.4
2022-07-25T22:00:00,1866A,109.2262,21.588,北海市,牛尾岭水库(对照点),,10,5,15,7,10,48,30,46,39,5,7,3,5,0.4,0.4
2022-07-25T22:00:00,1867A,109.1436,21.4086,北海市,海滩公园,,14,14,11,2,2,48,42,45,43,2,2,4,4,0.5,0.4
2022-07-25T22:00:00,1868A,109.0981,21.4661,北海市,新市环保局,,12,2,8,5,5,48,38,46,43,3,2,3,3,0.3,0.4
2022-07-25T22:00:00,1869A,109.1778,21.5233,北海市,北海工业园,,,10,12,7,6,51,38,47,43,,3,4,4,0.3,0.4
2022-07-25T22:00:00,1870A,109.4856,24.3895,柳州市,柳东小学,,45,42,42,31,30,141,111,132,127,8,10,6,6,0.8,0.7
2022-07-25T22:00:00,1871A,109.4157,24.3277,柳州市,环保监测站,,45,45,40,25,22,126,89,116,110,16,12,5,6,0.7,0.7
2022-07-25T22:00:00,1872A,109.389,24.341,柳州市,河西水厂,,48,48,41,25,25,127,87,114,110,18,14,8,8,0.5,0.5
2022-07-25T22:00:00,1873A,109.4311,24.2921,柳州市,市四中,颗粒物(PM10),55,60,49,28,26,134,78,118,109,20,13,7,7,1.0,0.9
2022-07-25T22:00:00,1874A,109.4006,24.3631,柳州市,市九中,颗粒物(PM10),60,69,47,38,25,127,89,116,109,15,11,7,8,0.7,0.6
2022-07-25T22:00:00,1875A,109.4958,24.3134,柳州市,古亭山,,37,37,41,24,23,127,68,116,102,21,14,5,6,0.7,0.6
2022-07-25T22:00:00,1876A,109.5078,18.2489,三亚市,河东子站,,10,10,11,3,6,42,28,38,34,4,7,1,3,0.3,0.4
2022-07-25T22:00:00,1877A,109.4964,18.2681,三亚市,河西子站,,10,5,12,6,7,42,29,39,36,2,6,1,2,0.3,0.3
2022-07-25T22:00:00,1878A,104.7778,31.4741,绵阳市,富乐山,,39,36,41,27,26,215,108,182,162,21,16,11,8,0.5,0.5
2022-07-25T22:00:00,1879A,104.7563,31.4535,绵阳市,市人大,颗粒物(PM10),52,54,54,32,27,194,84,167,145,61,26,3,2,0.7,0.6
2022-07-25T22:00:00,1880A,104.6697,31.4668,绵阳市,高新区自来水公司,颗粒物(PM10),58,66,51,36,32,190,130,171,156,27,21,8,6,0.6,0.6
2022-07-25T22:00:00,1881A,104.7287,31.5075,绵阳市,三水厂,颗粒物(PM10),52,53,58,32,32,233,50,191,158,70,32,7,4,0.7,0.7
2022-07-25T22:00:00,1882A,104.563,28.793,宜宾市,石马中学(对照点),颗粒物(PM10),51,51,45,33,28,198,94,173,151,16,17,4,5,0.6,0.7
2022-07-25T22:00:00,1883A,104.6201,28.7728,宜宾市,市委,细颗粒物(PM2.5),52,51,46,36,29,223,96,192,163,30,25,6,7,0.7,0.6
2022-07-25T22:00:00,1884A,104.6055,28.793,宜宾市,宜宾四中,颗粒物(PM10),54,57,54,33,33,239,106,196,165,25,24,8,9,0.6,0.6
2022-07-25T22:00:00,1885A,104.639,28.7562,宜宾市,市政府,,48,48,60,28,30,211,125,190,174,21,31,7,9,0.7,0.6
2022-07-25T22:00:00,1886A,104.5742,28.7199,宜宾市,黄金嘴,颗粒物(PM10),55,59,49,38,29,216,96,192,168,23,20,7,8,0.6,0.4
2022-07-25T22:00:00,1888A,101.6891,26.571,攀枝花市,弄弄坪,,11,10,32,6,17,102,33,69,54,21,22,6,13,0.6,0.9
2022-07-25T22:00:00,1889A,101.5769,26.5928,攀枝花市,河门口,,26,26,31,10,16,105,33,70,57,23,22,10,11,0.8,1.6
2022-07-25T22:00:00,1890A,101.7169,26.585,攀枝花市,炳草岗,,42,42,44,8,19,104,21,70,47,35,26,23,31,1.1,1.1
2022-07-25T22:00:00,1891A,101.7369,26.5008,攀枝花市,仁和,,18,18,21,8,9,76,30,56,42,14,11,9,10,1.2,1.3
2022-07-25T22:00:00,1893A,105.4324,28.9634,泸州市,九狮山(对照点),,45,45,30,19,23,132,55,121,107,35,23,5,8,0.8,0.7
2022-07-25T22:00:00,1894A,105.4427,28.9063,泸州市,小市上码头,颗粒物(PM10),53,56,60,35,41,191,117,181,166,13,19,10,14,0.6,0.8
2022-07-25T22:00:00,1895A,105.4241,28.8573,泸州市,兰田宪桥,颗粒物(PM10),57,63,59,39,41,174,106,166,156,22,20,6,12,0.7,0.7
2022-07-25T22:00:00,1896A,105.4379,28.8833,泸州市,市环监站,,40,35,57,18,40,185,126,174,160,19,24,4,12,0.6,0.6
2022-07-25T22:00:00,1897A,104.7547,29.3628,自贡市,大塘山(对照点),,,,,,,,,,,,,,,,
2022-07-25T22:00:00,1900A,104.7692,29.3411,自贡市,春华路,,,,,,,,,,,,,,,,
2022-07-25T22:00:00,1901A,104.4239,31.1208,德阳市,东山公园,颗粒物(PM10),51,52,40,23,19,168,144,160,158,17,16,8,8,0.7,0.6
2022-07-25T22:00:00,1902A,104.3826,31.1317,德阳市,西小区,颗粒物(PM10),57,63,56,29,22,195,122,174,159,25,23,4,6,0.9,0.9
2022-07-25T22:00:00,1903A,104.4053,31.1167,德阳市,市检察院,,,,,,,,,,,,,,,,
2022-07-25T22:00:00,1904A,104.3553,31.1091,德阳市,耐火材料厂,颗粒物(PM10),59,68,60,31,23,190,113,181,167,24,27,5,8,0.7,0.6
2022-07-25T22:00:00,1905A,106.056,30.8064,南充市,西山风景区(对照点),,39,34,27,27,18,139,119,131,131,12,14,4,10,0.8,0.8
2022-07-25T22:00:00,1906A,106.0789,30.8023,南充市,南充市委,,44,44,33,28,15,154,90,139,128,25,13,3,6,0.9,0.7
2022-07-25T22:00:00,1907A,106.1031,30.8217,南充市,南充炼油厂,,44,44,38,20,20,163,99,153,144,17,15,14,13,0.6,0.5
2022-07-25T22:00:00,1908A,106.1064,30.7856,南充市,高坪区监测站,,48,27,31,33,24,141,82,134,127,22,16,3,6,0.7,0.5
2022-07-25T22:00:00,1909A,106.0642,30.7636,南充市,嘉陵区环保局,,40,35,31,28,20,135,99,130,124,25,14,3,6,0.5,0.4
2022-07-25T22:00:00,1910A,106.1087,30.8388,南充市,市环境监测站,,45,44,41,31,22,143,115,133,129,15,23,12,21,0.4,0.4
2022-07-25T22:00:00,1911A,106.9222,27.6869,遵义市,丁字口,,36,30,17,25,17,124,50,113,92,11,9,7,7,0.6,0.6
2022-07-25T22:00:00,1912A,106.9242,27.7019,遵义市,凤凰山,,26,25,20,18,15,124,62,112,99,6,8,8,7,0.6,0.6
2022-07-25T22:00:00,1913A,106.8906,27.6486,遵义市,忠庄,,23,23,17,9,8,120,52,109,95,12,13,3,4,0.4,0.4
2022-07-25T22:00:00,1914A,106.9231,27.6506,遵义市,舟水桥,,30,30,21,16,9,118,44,106,89,15,10,2,3,0.5,0.4
2022-07-25T22:00:00,1915A,106.9178,27.72,遵义市,干田坝,,25,25,20,15,13,122,57,111,94,7,8,5,7,0.6,0.6
2022-07-25T22:00:00,1916A,103.7897,25.5035,曲靖市,环境监测站,,26,19,17,18,12,100,62,87,82,15,13,3,4,0.4,0.4
2022-07-25T22:00:00,1917A,103.8,25.5364,曲靖市,烟厂办公区,,20,17,20,9,9,102,64,90,87,10,7,4,5,0.5,0.5
2022-07-25T22:00:00,1918A,108.7197,34.3956,咸阳市,气象站(对照点),颗粒物(PM10),71,91,76,36,37,226,100,208,188,32,30,5,5,1.3,1.4
2022-07-25T22:00:00,1919A,108.673,34.3155,咸阳市,实验中学,,49,49,79,30,37,270,116,229,210,26,35,3,4,0.7,0.7
2022-07-25T22:00:00,1920A,108.7233,34.3617,咸阳市,师范学院,颗粒物(PM10),57,64,70,33,34,229,112,213,196,22,26,4,6,0.8,0.8
2022-07-25T22:00:00,1922A,109.0656,35.0994,铜川市,党校(对照点),颗粒物(PM10),52,54,41,26,20,121,74,108,98,14,22,8,9,0.8,0.7
2022-07-25T22:00:00,1923A,109.0697,35.0697,铜川市,王益区政府,颗粒物(PM10),54,57,45,31,24,145,75,137,124,17,19,4,5,0.7,0.7
2022-07-25T22:00:00,1924A,108.9344,34.9058,铜川市,新区管委会,颗粒物(PM10),54,57,47,31,24,164,118,150,145,19,17,7,8,0.7,0.6
2022-07-25T22:00:00,1925A,108.9589,34.8731,铜川市,新区兰芝公司,,,,,,,,,,,,,,,,
2022-07-25T22:00:00,1926A,109.4131,36.6275,延安市,枣园(对照点),,46,46,38,19,13,134,18,115,86,39,21,3,4,0.8,0.6
2022-07-25T22:00:00,1927A,109.4761,36.6028,延安市,延大医附院,,49,49,41,27,18,135,37,118,93,38,24,3,4,0.7,0.5
2022-07-25T22:00:00,1928A,109.4824,36.5767,延安市,市监测站,,,,,,,,,,,,,,,,
2022-07-25T22:00:00,1929A,109.5056,36.6106,延安市,百米大道,颗粒物(PM10),58,65,48,23,16,124,47,114,90,32,32,4,5,0.8,0.6
2022-07-25T22:00:00,1930A,107.185,34.3063,宝鸡市,庙沟村(对照点),,31,31,39,19,19,146,78,131,107,29,14,4,4,0.5,0.4
2022-07-25T22:00:00,1931A,107.0708,34.3017,宝鸡市,竹园沟,,40,36,37,28,27,177,74,168,135,16,13,4,4,0.6,0.5
2022-07-25T22:00:00,1932A,107.1906,34.3672,宝鸡市,三陆医院,颗粒物(PM10),51,52,60,23,26,190,113,172,147,23,21,5,10,0.6,0.5
2022-07-25T22:00:00,1933A,107.1431,34.3547,宝鸡市,监测站,,48,48,47,33,28,197,64,181,138,28,20,5,6,0.6,0.6
2022-07-25T22:00:00,1934A,107.1186,34.3739,宝鸡市,技工学校,颗粒物(PM10),57,63,49,34,28,199,72,181,144,28,18,6,5,0.6,0.5
2022-07-25T22:00:00,1935A,107.3906,34.3528,宝鸡市,陈仓区环保局家属楼,颗粒物(PM10),60,69,56,34,27,174,94,162,144,27,24,6,6,0.6,0.6
2022-07-25T22:00:00,1936A,107.2058,34.3497,宝鸡市,文理学院,颗粒物(PM10),56,61,49,29,22,197,77,178,149,32,20,8,9,0.6,0.5
2022-07-25T22:00:00,1937A,107.2386,34.3622,宝鸡市,三迪小学,颗粒物(PM10),54,58,53,35,32,177,89,159,132,36,26,6,7,0.6,0.5
2022-07-25T22:00:00,1938A,109.5293,34.5101,渭南市,农科所(对照点),,,,,,,,,,,,,,,,
2022-07-25T22:00:00,1939A,109.4974,34.4877,渭南市,日报社,颗粒物(PM10),52,53,58,32,37,172,110,165,148,20,26,6,8,0.6,0.6
2022-07-25T22:00:00,1940A,109.4636,34.493,渭南市,体育馆,颗粒物(PM10),52,53,56,35,36,185,117,171,159,10,30,4,7,0.7,0.8
2022-07-25T22:00:00,1941A,109.4259,34.5023,渭南市,高新一小,颗粒物(PM10),57,63,70,30,37,164,103,152,142,11,24,4,5,1.3,1.1
2022-07-25T22:00:00,1943A,102.1725,38.5339,金昌市,新川苑,颗粒物(PM10),117,184,57,34,15,153,76,136,121,39,19,7,12,0.7,0.6
2022-07-25T22:00:00,1944A,102.1692,38.5167,金昌市,天庆家园,颗粒物(PM10),102,153,52,21,10,166,84,144,124,27,18,9,19,0.6,0.6
2022-07-25T22:00:00,1945A,98.2908,39.7711,嘉峪关市,气象局,,48,48,139,12,32,132,109,125,118,12,22,1,8,0.4,0.6
2022-07-25T22:00:00,1947A,106.3394,38.817,石嘴山市,沙湖旅游区(对照点),颗粒物(PM10),64,77,42,21,11,260,142,206,199,16,16,32,31,0.4,0.4
2022-07-25T22:00:00,1948A,106.3668,39.0145,石嘴山市,大武口朝阳西街,,42,32,45,15,16,200,132,168,163,32,23,6,18,0.6,0.7
2022-07-25T22:00:00,1949A,106.7704,39.2282,石嘴山市,惠农南大街,,50,50,39,15,13,182,117,153,150,29,19,14,19,0.5,0.5
2022-07-25T22:00:00,1950A,106.7099,39.1325,石嘴山市,红果子镇惠新街,颗粒物(PM10),82,114,63,32,17,184,98,159,154,40,23,15,19,0.6,0.5
2022-07-25T22:00:00,1951A,84.895,45.6094,克拉玛依市,长征新村,,34,17,18,5,4,107,106,105,105,2,7,8,8,0.1,0.1
2022-07-25T22:00:00,1952A,84.8988,45.5893,克拉玛依市,南林小区,,35,20,26,23,13,110,110,106,106,6,13,9,9,0.3,0.4
2022-07-25T22:00:00,1953A,85.1186,45.6886,克拉玛依市,白碱滩区,,,,,,,,,,,,,,,,
2022-07-25T22:00:00,1954A,84.905,44.3396,克拉玛依市,独山子区,,30,28,27,13,15,127,96,122,119,10,11,9,11,0.4,0.5
2022-07-25T22:00:00,1955A,85.6979,46.098,克拉玛依市,乌尔禾区商贸楼,,34,20,27,1,8,110,107,103,103,3,5,12,12,0.1,0.1
2022-07-25T22:00:00,1956A,86.1472,41.7538,巴音郭楞州,孔雀公园,颗粒物(PM10),57,63,76,25,17,131,91,122,109,19,8,3,3,0.3,0.2
2022-07-25T22:00:00,1957A,86.1972,41.7166,巴音郭楞州,棉纺厂,颗粒物(PM10),63,76,88,20,21,126,93,117,115,19,9,4,4,0.4,0.3
2022-07-25T22:00:00,1958A,86.2357,41.7173,巴音郭楞州,经济开发区,颗粒物(PM10),66,82,74,11,24,125,67,118,110,36,5,4,4,0.3,0.2
2022-07-25T22:00:00,1959A,118.746,36.881,寿光市,监测站,,,,,,,,,,,,,,,,
2022-07-25T22:00:00,1960A,118.780,36.864,寿光市,世纪学校,,,,,,,,,,,,,,,,
2022-07-25T22:00:00,1961A,117.532,36.6868,济南市,东山小学,颗粒物(PM10),52,54,53,24,23,174,104,160,143,25,19,4,4,0.4,0.6
2022-07-25T22:00:00,1962A,117.541,36.710,章丘市,明水开发区,,,,,,,,,,,,,,,,
2022-07-25T22:00:00,1963A,120.610,36.440,即墨市,环保局子站,,,,,,,,,,,,,,,,
2022-07-25T22:00:00,1964A,120.470,36.390,即墨市,开发区子站,,,,,,,,,,,,,,,,
2022-07-25T22:00:00,1965A,120.005,35.878,胶南市,JN子站,,,,,,,,,,,,,,,,
2022-07-25T22:00:00,1966A,120.0405,35.8735,青岛市,黄岛区4号,,30,14,23,0,17,136,94,125,100,5,12,4,5,0.5,0.6
2022-07-25T22:00:00,1967A,120.008,36.283,胶州市,胶州环保局,,,,,,,,,,,,,,,,
2022-07-25T22:00:00,1968A,120.014,36.253,胶州市,胶州一中,,,,,,,,,,,,,,,,
2022-07-25T22:00:00,1969A,120.537,36.865,莱西市,环保局子站,,,,,,,,,,,,,,,,
2022-07-25T22:00:00,1970A,120.515,36.885,莱西市,人民广场子站,,,,,,,,,,,,,,,,
2022-07-25T22:00:00,1971A,119.952,36.792,平度市,1号,,,,,,,,,,,,,,,,
2022-07-25T22:00:00,1972A,119.976,36.799,平度市,2号,,,,,,,,,,,,,,,,
2022-07-25T22:00:00,1973A,120.747,37.825,蓬莱市,蓬莱环保局,,,,,,,,,,,,,,,,
2022-07-25T22:00:00,1974A,120.773,37.809,蓬莱市,蓬莱博物馆,,,,,,,,,,,,,,,,
2022-07-25T22:00:00,1975A,120.399,37.374,招远市,招远环保局,,,,,,,,,,,,,,,,
2022-07-25T22:00:00,1976A,120.394,37.364,招远市,招远教育局,,,,,,,,,,,,,,,,
2022-07-25T22:00:00,1977A,119.941,37.177,莱州市,莱州环保局,,,,,,,,,,,,,,,,
2022-07-25T22:00:00,1978A,119.959,37.180,莱州市,莱州外经委,,,,,,,,,,,,,,,,
2022-07-25T22:00:00,1979A,122.471,37.154,荣成市,荣成市环保局办公楼,,,,,,,,,,,,,,,,
2022-07-25T22:00:00,1980A,122.410,37.161,荣成市,山东成山轮胎公司,,,,,,,,,,,,,,,,
2022-07-25T22:00:00,1981A,122.038,37.197,文登市,文登市环保局,,,,,,,,,,,,,,,,
2022-07-25T22:00:00,1982A,122.0693,37.2174,威海市,文登开发区,,28,17,30,9,19,148,89,142,107,8,9,4,4,0.5,0.5
2022-07-25T22:00:00,1983A,121.531,36.913,乳山市,乳山市环保局,,,,,,,,,,,,,,,,
2022-07-25T22:00:00,1984A,121.544,36.907,乳山市,乳山市气象局,,,,,,,,,,,,,,,,
2022-07-25T22:00:00,1985A,120.636,31.155,吴江市,吴江市环保局,,,,,,,,,,,,,,,,
2022-07-25T22:00:00,1986A,120.635,31.170,吴江市,教师进修学校,,,,,,,,,,,,,,,,
2022-07-25T22:00:00,1987A,120.658,31.172,吴江市,吴江开发区,,,,,,,,,,,,,,,,
2022-07-25T22:00:00,1988A,120.953,31.388,昆山市,昆山实验小学,,,,,,,,,,,,,,,,
2022-07-25T22:00:00,1989A,120.999,31.381,昆山市,震川中学,,,,,,,,,,,,,,,,
2022-07-25T22:00:00,1990A,120.758,31.670,常熟市,海虞子站,,,,,,,,,,,,,,,,
2022-07-25T22:00:00,1991A,120.721,31.671,常熟市,兴福子站,,,,,,,,,,,,,,,,
2022-07-25T22:00:00,1992A,120.734,31.656,常熟市,菱塘子站,,,,,,,,,,,,,,,,
2022-07-25T22:00:00,1993A,120.526,31.874,张家港市,张家港市监测站,,,,,,,,,,,,,,,,
2022-07-25T22:00:00,1994A,120.550,31.882,张家港市,城北小学,,,,,,,,,,,,,,,,
2022-07-25T22:00:00,1995A,121.115,31.453,太仓市,太仓市监测站,,,,,,,,,,,,,,,,
2022-07-25T22:00:00,1996A,121.140,31.422,太仓市,科教新城实小,,,,,,,,,,,,,,,,
2022-07-25T22:00:00,1997A,119.146,31.955,句容市,消防指挥中心,,,,,,,,,,,,,,,,
2022-07-25T22:00:00,1998A,119.180,31.955,句容市,房家坝,,,,,,,,,,,,,,,,
2022-07-25T22:00:00,1999A,120.268,31.920,江阴市,虹桥邮政,,,,,,,,,,,,,,,,
2022-07-25T22:00:00,2000A,120.237,31.909,江阴市,五星公园,,,,,,,,,,,,,,,,
2022-07-25T22:00:00,2001A,120.302,31.920,江阴市,第二实验小学,,,,,,,,,,,,,,,,
2022-07-25T22:00:00,2002A,119.818,31.354,宜兴市,宜兴市环保局,,,,,,,,,,,,,,,,
2022-07-25T22:00:00,2003A,119.794,31.371,宜兴市,宜园,,,,,,,,,,,,,,,,
2022-07-25T22:00:00,2004A,119.579,31.751,金坛市,金坛市环境监测站,,,,,,,,,,,,,,,,
2022-07-25T22:00:00,2005A,119.579,31.737,金坛市,金坛市自来水公司,,,,,,,,,,,,,,,,
2022-07-25T22:00:00,2006A,119.460,31.400,溧阳市,溧阳市东门子站,,,,,,,,,,,,,,,,
2022-07-25T22:00:00,2007A,119.438,31.317,溧阳市,燕山子站,,,,,,,,,,,,,,,,
2022-07-25T22:00:00,2008A,121.173,31.896,海门市,海门市监测站,,,,,,,,,,,,,,,,
2022-07-25T22:00:00,2009A,121.1518,31.89708,海门市,社会福利院,,,,,,,,,,,,,,,,
2022-07-25T22:00:00,2010A,119.7183,30.2366,临安市,市政府,,,,,,,,,,,,,,,,
2022-07-25T22:00:00,2011A,119.6942,30.2311,临安市,四中,,,,,,,,,,,,,,,,
2022-07-25T22:00:00,2012A,119.954,30.054,富阳市,监测站,,,,,,,,,,,,,,,,
2022-07-25T22:00:00,2013A,119.946,30.049,富阳市,富春二小,,,,,,,,,,,,,,,,
2022-07-25T22:00:00,2014A,120.091,29.305,义乌市,江东,,,,,,,,,,,,,,,,
2022-07-25T22:00:00,2015A,120.040,29.334,义乌市,北苑,,,,,,,,,,,,,,,,
2022-07-25T22:00:00,2016A,120.251,29.719,诸暨市,图书馆,,,,,,,,,,,,,,,,
2022-07-25T22:00:00,2017A,120.209,29.732,诸暨市,富林印务,,,,,,,,,,,,,,,,
2022-07-25T22:00:00,2018A,121.989,39.625,瓦房店市,抱龙山庄,,,,,,,,,,,,,,,,
2022-07-25T22:00:00,2019A,122.011,39.617,瓦房店市,东山公园,,,,,,,,,,,,,,,,
2022-07-25T22:00:00,2031A,113.1817,27.9958,株洲市,云田中学,细颗粒物(PM2.5),82,83,34,60,23,140,81,129,114,20,9,3,7,0.6,0.5
2022-07-25T22:00:00,2054A,114.1099,32.1059,信阳市,平桥分局,,39,39,46,26,22,150,107,133,115,8,13,10,10,0.5,0.6
2022-07-25T22:00:00,2064A,113.9956,32.1271,信阳市,南湾水厂,,39,39,30,15,15,152,101,137,121,4,6,5,6,0.5,0.6
2022-07-25T22:00:00,2065A,114.0775,32.1195,信阳市,市酿酒公司,,38,38,28,23,18,149,69,134,109,49,13,8,9,0.6,0.6
2022-07-25T22:00:00,2066A,114.0609,32.1399,信阳市,审计局,,42,42,39,22,20,157,104,139,122,5,15,7,7,0.6,0.8
2022-07-25T22:00:00,2067A,114.6613,33.6128,周口市,市环境监测站,颗粒物(PM10),64,77,41,9,17,156,142,150,140,9,15,4,5,0.3,0.5
2022-07-25T22:00:00,2068A,114.6758,33.6347,周口市,周口师范,颗粒物(PM10),65,79,40,5,16,158,145,154,145,3,8,3,4,0.3,0.5
2022-07-25T22:00:00,2069A,114.6546,33.5979,周口市,市运管处,,,,40,9,18,147,138,143,133,9,17,2,3,0.4,0.7
2022-07-25T22:00:00,2070A,114.6369,33.6406,周口市,川汇区环保局,颗粒物(PM10),55,59,36,13,16,152,145,148,140,3,6,3,5,0.2,0.5
2022-07-25T22:00:00,2075A,117.6336,24.4674,漳州市,九湖(对照点),,,,,,,,,,,,,,,,
2022-07-25T22:00:00,2160A,112.85,35.5051,晋城市,自来水公司,,23,22,45,2,16,163,72,130,103,23,24,2,4,0.4,0.5
2022-07-25T22:00:00,2161A,112.8318,35.4936,晋城市,白云商贸,,25,25,41,5,15,172,77,138,111,22,23,2,3,0.6,0.7
2022-07-25T22:00:00,2162A,112.8508,35.4887,晋城市,市环保局,,24,16,37,7,17,174,76,139,111,24,27,1,3,0.5,0.5
2022-07-25T22:00:00,2163A,112.8676,35.4897,晋城市,技术学院,,22,14,31,0,12,163,68,133,102,23,23,3,2,0.3,0.4
2022-07-25T22:00:00,2164A,112.8271,35.4828,晋城市,泽州一中,,,,,,,,,,,,,,,,
2022-07-25T22:00:00,2165A,112.8453,35.546,晋城市,白马寺 (对照点),,,,,,,,,,,,,,,,
2022-07-25T22:00:00,2166A,112.4397,39.3522,朔州市,平朔,颗粒物(PM10),57,63,39,36,15,152,112,135,102,23,15,7,5,0.9,0.6
2022-07-25T22:00:00,2167A,112.4575,39.3617,朔州市,朔唯,颗粒物(PM10),58,66,43,35,17,152,123,135,108,24,19,9,6,1.0,0.7
2022-07-25T22:00:00,2168A,112.4258,39.3197,朔州市,区政府,颗粒物(PM10),62,74,47,37,15,136,127,126,108,22,16,12,9,1.0,0.8
2022-07-25T22:00:00,2169A,112.4072,39.3278,朔州市,市环保局,颗粒物(PM10),59,68,48,27,12,145,136,129,106,20,17,9,6,0.7,0.4
2022-07-25T22:00:00,2170A,112.4272,39.3681,朔州市,市二中,颗粒物(PM10),52,53,41,35,16,152,108,136,101,19,16,10,8,0.8,0.6
2022-07-25T22:00:00,2171A,112.7532,37.6945,晋中市,锦纶小区,,33,19,64,10,29,194,103,166,153,18,27,10,12,0.2,0.4
2022-07-25T22:00:00,2173A,112.7249,37.7067,晋中市,南都小区,,31,24,57,12,29,188,98,164,151,23,25,8,13,0.3,0.5
2022-07-25T22:00:00,2174A,112.6991,37.6982,晋中市,榆次区政府,,30,24,62,21,31,169,96,152,142,18,23,10,15,0.4,0.6
2022-07-25T22:00:00,2175A,110.9956,35.0147,运城市,运城中学,,37,37,40,19,23,139,99,114,107,5,7,4,5,0.6,0.7
2022-07-25T22:00:00,2176A,111.0233,35.0611,运城市,禹都开发区,,,,,,,,,,,,,,,,
2022-07-25T22:00:00,2178A,110.9686,35.0303,运城市,地区技校,,42,42,39,13,16,155,110,131,122,6,9,6,7,0.5,0.6
2022-07-25T22:00:00,2179A,111.0414,35.1147,运城市,空港新区,颗粒物(PM10),52,53,62,20,25,152,99,131,116,12,16,8,14,0.5,0.6
2022-07-25T22:00:00,2181A,112.7383,38.4519,忻州市,开发区,细颗粒物(PM2.5),73,51,60,53,39,199,135,173,158,12,26,7,17,0.8,0.8
2022-07-25T22:00:00,2182A,112.7003,38.4928,忻州市,会展中心,颗粒物(PM10),59,68,60,35,31,198,125,161,144,16,24,6,15,0.6,0.5
2022-07-25T22:00:00,2183A,111.1406,37.5211,吕梁市,环保局,颗粒物(PM10),73,96,55,40,13,155,114,135,133,37,36,13,14,0.6,0.4
2022-07-25T22:00:00,2185A,111.1297,37.5136,吕梁市,自来水公司,颗粒物(PM10),72,94,64,34,13,156,132,141,140,22,27,19,11,0.7,0.6
2022-07-25T22:00:00,2186A,106.8288,39.6778,乌海市,聚英学校,,,,,,,,,,,,,,,,
2022-07-25T22:00:00,2187A,106.8174,39.6973,乌海市,市林业局,颗粒物(PM10),62,74,73,30,21,190,92,164,147,48,28,13,30,0.7,0.8
2022-07-25T22:00:00,2188A,106.7907,39.6667,乌海市,中海勃湾学校,颗粒物(PM10),109,167,69,29,18,184,116,158,142,35,28,25,27,0.6,0.6
2022-07-25T22:00:00,2191A,122.2532,43.6801,通辽市,艺术职业学校,颗粒物(PM10),65,79,42,25,19,119,96,111,108,14,13,5,5,0.5,0.4
2022-07-25T22:00:00,2192A,119.7594,49.2261,呼伦贝尔市,区环保局,,39,26,22,27,18,71,43,66,60,9,5,5,5,0.3,0.2
2022-07-25T22:00:00,2194A,107.5936,40.916,巴彦淖尔市,秋林养殖基地(对照点),,,,,,,,,,,,,,,,
2022-07-25T22:00:00,2195A,107.4212,40.761,巴彦淖尔市,附二中,颗粒物(PM10),63,75,54,31,18,166,108,144,132,19,12,4,9,0.6,0.6
2022-07-25T22:00:00,2196A,107.37,40.7372,巴彦淖尔市,市环保大楼,颗粒物(PM10),63,76,60,24,19,164,108,140,130,13,11,4,5,0.7,0.7
2022-07-25T22:00:00,2197A,113.1306,40.9923,乌兰察布市,集宁新区,,45,35,30,25,18,183,142,165,154,7,9,10,11,0.5,0.4
2022-07-25T22:00:00,2200A,122.0392,46.0656,兴安盟,胜华新制药厂,,25,20,19,11,11,92,78,86,80,5,8,2,2,0.2,0.3
2022-07-25T22:00:00,2201A,121.9504,46.0741,兴安盟,科右前旗环保局,,23,16,14,15,13,93,71,89,80,6,11,3,3,0.2,0.2
2022-07-25T22:00:00,2202A,116.1042,43.9317,锡林郭勒盟,市环保监测站,,35,23,28,8,7,134,110,127,120,4,5,10,10,0.2,0.2
2022-07-25T22:00:00,2203A,116.0781,43.9311,锡林郭勒盟,市政府,,35,29,21,17,7,144,112,132,122,5,7,8,8,0.3,0.3
2022-07-25T22:00:00,2204A,105.6467,38.8363,阿拉善盟,西城区西花园(对照点),,43,39,39,15,14,144,136,140,139,7,7,4,4,0.4,0.4
2022-07-25T22:00:00,2205A,105.6985,38.8411,阿拉善盟,蒙二幼,,46,46,43,29,23,143,135,140,139,7,7,7,8,0.3,0.2
2022-07-25T22:00:00,2206A,105.724,38.8516,阿拉善盟,环保局新楼,,46,31,30,17,16,152,145,139,139,5,8,7,8,0.3,0.3
2022-07-25T22:00:00,2207A,121.6094,41.998,阜新市,工业园区,颗粒物(PM10),82,114,60,59,30,184,144,178,174,14,13,4,8,1.0,0.7
2022-07-25T22:00:00,2208A,121.6697,42.0279,阜新市,长青街,细颗粒物(PM2.5),64,70,42,46,30,170,152,153,153,10,11,6,9,0.9,0.7
2022-07-25T22:00:00,2209A,121.6673,42.0705,阜新市,农业园区,细颗粒物(PM2.5),72,79,52,52,29,176,168,170,170,10,9,7,10,1.1,0.8
2022-07-25T22:00:00,2210A,121.6717,42.0224,阜新市,东苑,颗粒物(PM10),76,101,58,52,29,172,150,153,153,11,13,10,14,1.0,0.7
2022-07-25T22:00:00,2211A,121.6506,42.0498,阜新市,玉龙新城,,,79,47,47,24,168,145,158,158,12,12,6,7,,0.6
2022-07-25T22:00:00,2212A,123.2,41.1953,辽阳市,宏伟区,,46,43,43,32,22,171,108,132,128,4,10,5,6,0.5,0.7
2022-07-25T22:00:00,2213A,123.1683,41.2495,辽阳市,新华园,细颗粒物(PM2.5),58,43,52,41,26,180,103,145,137,8,19,6,7,0.5,0.7
2022-07-25T22:00:00,2214A,123.2354,41.2639,辽阳市,滨河路,细颗粒物(PM2.5),59,64,50,42,29,197,96,150,134,6,12,6,8,0.5,0.7
2022-07-25T22:00:00,2215A,123.149,41.2991,辽阳市,铁西工业园,细颗粒物(PM2.5),57,37,62,40,30,178,92,142,133,9,22,3,4,0.7,1
2022-07-25T22:00:00,2216A,123.8139,42.3022,铁岭市,汇工街西,颗粒物(PM10),64,78,64,39,33,182,91,163,139,29,17,6,8,0.7,0.7
2022-07-25T22:00:00,2217A,123.8649,42.2923,铁岭市,水上乐园,颗粒物(PM10),62,73,49,35,23,178,68,160,139,37,22,5,6,0.6,0.6
2022-07-25T22:00:00,2218A,123.8486,42.2867,铁岭市,银州路东段,颗粒物(PM10),57,63,49,39,30,188,66,164,144,48,21,6,7,0.8,0.7
2022-07-25T22:00:00,2219A,123.7153,42.2217,铁岭市,金沙江路北,颗粒物(PM10),57,63,46,36,23,183,62,159,136,58,26,6,8,0.9,0.8
2022-07-25T22:00:00,2220A,120.4318,41.5881,朝阳市,西梁,颗粒物(PM10),125,200,84,30,29,137,112,125,113,12,12,7,11,1.1,1.1
2022-07-25T22:00:00,2221A,120.4521,41.5646,朝阳市,河畔小区,颗粒物(PM10),128,206,81,26,31,146,132,132,126,8,8,8,6,0.9,0.8
2022-07-25T22:00:00,2222A,120.4176,41.5648,朝阳市,八里堡,颗粒物(PM10),85,119,68,39,32,139,99,126,111,16,13,5,7,1.0,1
2022-07-25T22:00:00,2223A,120.3806,41.5969,朝阳市,农业园区,,48,48,74,23,32,138,66,130,110,22,9,6,7,0.7,0.8
2022-07-25T22:00:00,2225A,124.4002,43.1713,四平市,一商场,细颗粒物(PM2.5),59,62,37,42,23,151,112,137,132,14,16,4,4,0.7,0.6
2022-07-25T22:00:00,2226A,124.388,43.193,四平市,境园,颗粒物(PM10),60,69,35,34,20,142,95,128,116,17,12,8,8,0.7,0.6
2022-07-25T22:00:00,2227A,125.1358,42.8845,辽源市,环保局,细颗粒物(PM2.5),60,54,28,43,21,141,24,127,87,27,11,5,6,0.9,0.6
2022-07-25T22:00:00,2229A,125.9358,41.7173,通化市,光明,,33,33,24,19,12,102,26,96,76,27,13,8,9,0.8,0.6
2022-07-25T22:00:00,2230A,125.9446,41.7325,通化市,铁路,,26,20,24,18,13,111,22,107,82,31,14,8,10,0.9,0.8
2022-07-25T22:00:00,2231A,126.4219,41.9171,白山市,喜丰,,31,31,32,16,12,119,12,104,74,19,12,6,9,0.9,0.9
2022-07-25T22:00:00,2232A,126.4077,41.9419,白山市,环保局,,44,44,32,26,15,122,23,107,77,13,12,6,8,0.7,0.7
2022-07-25T22:00:00,2233A,124.8006,45.1214,松原市,江南,,21,9,8,7,4,89,65,87,81,18,7,4,3,0.3,0.3
2022-07-25T22:00:00,2234A,124.7965,45.1722,松原市,江北,,25,9,7,8,6,109,78,102,93,10,9,3,2,0.3,0.3
2022-07-25T22:00:00,2235A,122.7911,45.6077,白城市,洮北区环保局,,28,10,17,7,12,101,89,95,92,5,15,5,5,0.2,0.2
2022-07-25T22:00:00,2236A,122.8738,45.5725,白城市,市环保局,,23,19,20,9,8,100,72,96,81,13,10,4,3,0.2,0.1
2022-07-25T22:00:00,2237A,129.47,42.8883,延边朝鲜族自治州,妇幼医院,,18,18,14,9,7,75,27,65,46,11,7,7,7,0.5,0.4
2022-07-25T22:00:00,2238A,129.5055,42.9108,延边朝鲜族自治州,延边医院,,,,,,,,,,,,,,,,
2022-07-25T22:00:00,2239A,129.3964,42.8881,延边朝鲜族自治州,朝阳川镇医院,,15,15,14,2,2,86,18,67,43,13,8,7,7,0.3,0.3
2022-07-25T22:00:00,2240A,130.9762,45.3001,鸡西市,环保局,,25,25,13,9,4,48,14,39,32,27,14,2,4,0.4,0.3
2022-07-25T22:00:00,2243A,130.9429,45.3039,鸡西市,第一中学,颗粒物(PM10),51,52,16,24,4,62,8,47,34,29,7,3,3,0.4,0.3
2022-07-25T22:00:00,2244A,130.2537,47.3416,鹤岗市,哈啤分公司,,9,9,8,6,6,69,17,59,49,13,10,7,6,0.3,0.3
2022-07-25T22:00:00,2245A,130.2684,47.3086,鹤岗市,斯达机电,,35,35,10,10,6,65,20,60,54,25,8,7,6,0.4,0.2
2022-07-25T22:00:00,2246A,130.3114,47.3388,鹤岗市,东山纸板厂,,,,21,19,10,68,9,54,41,26,13,8,8,0.4,0.2
2022-07-25T22:00:00,2247A,130.1097,47.3382,鹤岗市,五号水库(对照点),,9,9,6,4,5,64,11,52,40,10,10,9,10,0.2,0.2
2022-07-25T22:00:00,2248A,131.1511,46.6937,双鸭山市,双合村,,28,28,15,6,4,49,1,38,25,22,12,5,4,0.5,0.3
2022-07-25T22:00:00,2249A,131.1652,46.6191,双鸭山市,南小市,,36,31,16,25,7,58,12,49,36,16,10,6,5,0.1,0.1
2022-07-25T22:00:00,2250A,131.1524,46.6554,双鸭山市,环保局,,,36,11,4,5,44,5,38,26,19,11,,3,0.9,0.3
2022-07-25T22:00:00,2251A,131.12,46.5656,双鸭山市,苗圃(对照点),,38,23,18,26,12,47,11,42,28,4,4,4,3,0.6,0.4
2022-07-25T22:00:00,2252A,128.5159,47.4311,伊春市,环保局,,20,20,12,10,7,67,6,59,41,18,11,5,5,0.3,0.2
2022-07-25T22:00:00,2253A,128.9102,47.7412,伊春市,电力嘉园,,11,7,10,7,6,69,3,61,44,21,7,6,5,0.4,0.4
2022-07-25T22:00:00,2254A,129.5029,48.471,伊春市,汤旺河国家公园(对照点),,10,6,7,7,6,55,0,48,29,1,1,6,6,0.3,0.3
2022-07-25T22:00:00,2255A,130.2751,46.8028,佳木斯市,佳纺,,29,29,13,14,8,80,7,59,51,29,12,2,3,0.4,0.4
2022-07-25T22:00:00,2256A,130.3995,46.8307,佳木斯市,发电厂,,32,13,12,22,10,69,26,59,55,6,11,4,4,0.4,0.3
2022-07-25T22:00:00,2257A,130.3258,46.7975,佳木斯市,环保局,,42,42,20,20,9,62,3,47,41,35,17,2,2,0.5,0.4
2022-07-25T22:00:00,2258A,130.3648,46.8032,佳木斯市,十一中,,36,36,17,21,11,57,7,49,44,47,17,6,5,0.9,0.3
2022-07-25T22:00:00,2259A,130.3794,46.7588,佳木斯市,四丰(对照点),,18,18,9,10,6,68,8,53,44,24,14,1,1,0.3,0.3
2022-07-25T22:00:00,2262A,131.0518,45.8751,七台河市,新一中(对照点),,13,8,7,8,5,71,7,61,48,25,11,6,7,0.6,0.6
2022-07-25T22:00:00,2263A,127.4833,50.2524,黑河市,交通局,,45,45,24,13,9,53,11,50,37,19,9,6,4,0.4,0.3
2022-07-25T22:00:00,2264A,127.5144,50.2341,黑河市,环保局,,31,31,24,14,10,55,14,52,43,28,8,6,5,0.5,0.4
2022-07-25T22:00:00,2265A,127.5291,50.2472,黑河市,大黑河岛(对照点),,36,36,19,23,11,53,14,50,40,7,4,9,8,0.7,0.6
2022-07-25T22:00:00,2266A,126.9785,46.6365,绥化市,人和东街,,35,23,13,24,9,119,60,102,98,22,11,9,6,0.3,0.3
2022-07-25T22:00:00,2267A,126.964,46.6528,绥化市,党政办公中心,,31,31,13,16,8,120,72,101,98,19,11,10,5,0.4,0.3
2022-07-25T22:00:00,2269A,124.1069,50.4097,大兴安岭地区,科技局,,29,8,7,20,8,62,16,52,46,10,4,3,3,0.3,0.2
2022-07-25T22:00:00,2270A,117.396,32.939,蚌埠市,工人疗养院,颗粒物(PM10),57,63,39,34,21,168,122,159,135,12,15,8,10,0.5,0.4
2022-07-25T22:00:00,2271A,117.3605,32.9427,蚌埠市,百货大楼,,40,40,38,23,22,169,104,157,126,30,18,9,10,0.6,0.5
2022-07-25T22:00:00,2273A,117.4185,32.8911,蚌埠市,蚌埠学院,颗粒物(PM10),54,58,40,17,20,169,88,157,124,41,11,7,11,0.6,0.5
2022-07-25T22:00:00,2274A,117.3533,32.9673,蚌埠市,淮上区政府,颗粒物(PM10),51,51,44,27,21,166,125,157,138,11,15,9,11,0.5,0.5
2022-07-25T22:00:00,2275A,117.3145,32.8977,蚌埠市,高新区,,36,36,38,24,24,174,101,160,132,14,10,9,10,0.6,0.6
2022-07-25T22:00:00,2277A,116.8305,32.7727,淮南市,潘集区政府,,37,37,46,14,24,178,61,154,117,18,16,8,10,0.4,0.4
2022-07-25T22:00:00,2278A,117.0067,32.6524,淮南市,师范学院,颗粒物(PM10),54,57,39,32,18,156,93,146,124,10,5,8,7,0.3,0.2
2022-07-25T22:00:00,2279A,116.8569,32.5951,淮南市,谢家集区政府,,27,21,32,9,15,158,84,152,114,16,13,9,10,0.3,0.3
2022-07-25T22:00:00,2280A,116.8281,32.633,淮南市,八公山区政府,,28,28,30,14,20,148,82,143,109,16,13,4,5,0.3,0.3
2022-07-25T22:00:00,2281A,116.6325,32.6201,淮南市,焦岗湖风景区管理处(对照点),,23,23,32,3,12,158,63,147,114,18,21,8,8,0.1,0.3
2022-07-25T22:00:00,2282A,116.8004,33.975,淮北市,监测站,颗粒物(PM10),52,53,39,29,23,187,140,179,167,9,10,5,6,0.7,0.6
2022-07-25T22:00:00,2283A,116.8091,33.9007,淮北市,烈山区政府,,46,32,41,21,29,190,147,184,171,7,15,5,7,0.8,0.7
2022-07-25T22:00:00,2284A,116.7856,33.9477,淮北市,职业技术学院,,46,46,40,28,25,182,142,176,164,5,10,6,7,0.7,0.6
2022-07-25T22:00:00,2285A,117.8177,30.9412,铜陵市,市第四中学,,24,21,36,4,22,160,15,159,61,47,16,9,7,0.5,0.5
2022-07-25T22:00:00,2286A,117.8059,30.9273,铜陵市,市公路局,,34,34,46,15,22,142,10,142,56,54,16,9,10,0.7,0.7
2022-07-25T22:00:00,2287A,117.7807,30.9413,铜陵市,市新民污水厂,,30,30,44,10,22,161,11,138,43,42,32,6,13,0.4,0.5
2022-07-25T22:00:00,2288A,117.7439,30.8792,铜陵市,市第九中学,,44,44,57,11,24,142,40,100,62,23,38,8,12,0.6,0.8
2022-07-25T22:00:00,2289A,117.846,30.9413,铜陵市,车站新区,,22,22,39,10,23,153,28,135,62,22,15,10,10,0.4,0.6
2022-07-25T22:00:00,2290A,117.8483,30.97,铜陵市,市职教基地,,28,28,46,11,18,144,39,123,64,14,11,5,5,0.6,0.8
2022-07-25T22:00:00,2291A,117.0809,30.5177,安庆市,环科院,,24,24,42,12,24,167,30,132,66,19,15,5,7,0.5,0.8
2022-07-25T22:00:00,2292A,117.0331,30.5119,安庆市,马山宾馆,,30,30,37,8,20,167,33,132,72,18,14,4,7,0.6,0.8
2022-07-25T22:00:00,2294A,116.9896,30.6145,安庆市,安庆大学,,25,25,31,11,22,166,16,134,60,27,14,5,6,0.4,0.6
2022-07-25T22:00:00,2295A,118.2903,29.6963,黄山市,延安路89号,,20,20,25,5,12,110,26,78,48,5,5,5,5,0.2,0.3
2022-07-25T22:00:00,2296A,118.327,29.7178,黄山市,黄山东路89号,,18,18,22,1,6,109,33,78,52,4,4,4,4,0.3,0.4
2022-07-25T22:00:00,2297A,118.1371,30.2756,黄山市,黄山区政府5号楼,,15,15,22,7,8,99,14,71,35,5,4,5,5,0.1,0.3
2022-07-25T22:00:00,2298A,118.3093,32.3153,滁州市,老年大学,,43,43,39,20,23,202,106,193,147,16,22,5,5,0.3,0.3
2022-07-25T22:00:00,2299A,118.3244,32.2786,滁州市,人大宾馆,,39,39,38,18,24,186,84,167,132,20,23,11,8,0.4,0.4
2022-07-25T22:00:00,2301A,115.8277,32.8929,阜阳市,市监测站,,27,27,34,9,13,154,68,133,101,18,22,6,7,0.4,0.5
2022-07-25T22:00:00,2303A,115.8554,32.8605,阜阳市,开发区,,22,3,33,7,10,153,70,139,113,18,17,7,8,0.3,0.5
2022-07-25T22:00:00,2306A,116.989,33.6306,宿州市,火车站,,,,,,,,,,,,,,,,
2022-07-25T22:00:00,2307A,116.5079,31.737,六安市,监测大楼,,19,17,28,11,14,124,59,109,76,6,10,5,6,0.3,0.4
2022-07-25T22:00:00,2308A,116.4738,31.7643,六安市,皖西学院,,19,12,24,5,13,136,60,117,82,6,10,10,12,0.2,0.2
2022-07-25T22:00:00,2309A,116.4996,31.7905,六安市,朝阳厂,,17,16,26,2,18,121,53,106,72,8,11,8,9,0.3,0.4
2022-07-25T22:00:00,2310A,116.5567,31.7886,六安市,开发区,,22,22,40,9,19,129,46,111,72,25,17,16,17,0.4,0.4
2022-07-25T22:00:00,2311A,115.8072,33.8399,亳州市,污水处理厂,,37,35,29,17,20,147,117,142,139,10,11,7,8,0.6,0.4
2022-07-25T22:00:00,2312A,115.7789,33.8518,亳州市,三国揽胜宫,,40,40,35,17,17,148,119,142,140,8,7,7,7,0.7,0.6
2022-07-25T22:00:00,2314A,117.47,30.6618,池州市,池州学院,,20,20,33,12,19,165,34,141,52,12,10,6,6,0.6,0.7
2022-07-25T22:00:00,2315A,117.4974,30.6539,池州市,平天湖(对照点),,,,,,,,,,,,,,,,
2022-07-25T22:00:00,2316A,118.7581,30.9454,宣城市,鳌峰子站,,24,24,39,10,23,123,44,107,71,17,14,6,7,0.4,0.5
2022-07-25T22:00:00,2317A,118.7385,30.9743,宣城市,敬亭山子站,,19,19,35,11,22,140,36,122,78,17,15,9,7,0.3,0.4
2022-07-25T22:00:00,2318A,118.7173,30.9427,宣城市,开发区子站,,16,16,33,10,22,134,49,115,76,15,14,9,8,0.3,0.4
2022-07-25T22:00:00,2319A,119.0141,25.4325,莆田市,荔城区仓后路,,50,50,68,22,35,162,65,141,104,19,20,5,5,0.7,0.9
2022-07-25T22:00:00,2320A,119.0015,25.4553,莆田市,莆田市监测站,颗粒物(PM10),65,79,64,40,39,177,51,155,111,21,16,5,6,0.9,0.9
2022-07-25T22:00:00,2321A,119.1119,25.4561,莆田市,涵江区六中,颗粒物(PM10),52,53,57,18,28,146,71,137,110,15,18,7,7,0.5,0.6
2022-07-25T22:00:00,2322A,119.1013,25.3215,莆田市,秀屿区政府,,24,24,38,7,20,156,75,125,100,5,10,4,6,0.6,0.7
2022-07-25T22:00:00,2323A,118.981,25.4792,莆田市,东圳水库(对照点),,,,,,,,,,,,,,,,
2022-07-25T22:00:00,2324A,117.6211,26.2625,三明市,三钢,颗粒物(PM10),79,107,48,26,25,184,78,144,105,22,18,23,10,2.3,0.7
2022-07-25T22:00:00,2325A,117.635,26.2714,三明市,三明二中,,42,28,41,29,28,199,69,153,106,25,22,13,11,1.0,0.9
2022-07-25T22:00:00,2326A,117.6028,26.2378,三明市,三元区政府,细颗粒物(PM2.5),53,29,46,37,27,158,88,133,109,15,20,12,10,0.5,0.6
2022-07-25T22:00:00,2327A,117.7275,26.3108,三明市,洋溪(对照点),,,,,,,,,,,,,,,,
2022-07-25T22:00:00,2331A,118.0966,26.6761,南平市,茫荡山(对照点),,,,,,,,,,,,,,,,
2022-07-25T22:00:00,2332A,118.1681,26.6369,南平市,南平市监测站,,32,31,36,22,26,146,72,140,115,10,11,5,7,0.3,0.3
2022-07-25T22:00:00,2333A,118.1825,26.6489,南平市,南平铝业有限公司,,25,25,37,17,23,142,74,134,109,8,10,3,5,0.5,0.5
2022-07-25T22:00:00,2334A,118.1756,26.6272,南平市,南平七中,,39,21,34,27,26,141,65,134,112,9,10,5,6,0.3,0.4
2022-07-25T22:00:00,2335A,117.0189,25.1181,龙岩市,龙岩师专(对照点),,,,,,,,,,,,,,,,
2022-07-25T22:00:00,2336A,117.0217,25.1033,龙岩市,龙岩市监测站,,38,27,47,26,28,156,76,134,106,16,20,15,8,0.5,0.6
2022-07-25T22:00:00,2337A,117.0258,25.0661,龙岩市,闽西职业技术学院,颗粒物(PM10),58,66,58,33,30,142,117,130,121,17,25,5,15,0.7,0.6
2022-07-25T22:00:00,2338A,117.0196,25.0306,龙岩市,龙岩学院,,49,39,38,34,28,138,108,128,116,12,10,4,4,0.5,0.4
2022-07-25T22:00:00,2339A,119.5001,26.6946,宁德市,金涵水库(对照点),,16,16,47,11,26,167,34,123,52,15,11,4,4,0.4,0.7
2022-07-25T22:00:00,2341A,119.5388,26.6612,宁德市,宁德市监测站,,,51,51,26,28,165,62,126,71,,12,7,6,0.6,0.7
2022-07-25T22:00:00,2342A,117.3102,29.3867,景德镇市,王港中学(对照点),,23,17,37,16,21,160,52,125,91,5,7,5,5,0.4,0.4
2022-07-25T22:00:00,2343A,117.2117,29.2933,景德镇市,老干部活动中心,,48,48,49,8,26,156,45,126,91,24,10,6,7,0.4,0.4
2022-07-25T22:00:00,2344A,117.1894,29.2789,景德镇市,兽医站,,37,37,41,22,22,158,47,130,91,22,10,5,6,0.4,0.4
2022-07-25T22:00:00,2345A,117.1547,29.2617,景德镇市,台达陶瓷,,,,51,,24,73,,66,,,16,,15,,0.4
2022-07-25T22:00:00,2346A,117.2461,29.2956,景德镇市,陶研所,,38,38,43,11,22,170,48,126,93,14,7,8,7,0.3,0.4
2022-07-25T22:00:00,2347A,114.0997,27.5002,萍乡市,武功山(对照点),,15,9,10,10,7,45,25,38,34,6,6,15,18,0.4,0.3
2022-07-25T22:00:00,2348A,113.8385,27.6434,萍乡市,中医院,,26,26,36,16,22,109,34,96,80,35,17,11,17,0.4,0.6
2022-07-25T22:00:00,2349A,113.8493,27.6253,萍乡市,市政府车库,,43,36,37,30,23,107,26,98,78,39,20,11,18,0.5,0.9
2022-07-25T22:00:00,2350A,113.8676,27.6435,萍乡市,市环保局,,26,20,30,18,25,112,38,101,83,24,18,10,22,0.5,0.6
2022-07-25T22:00:00,2351A,113.866,27.6198,萍乡市,安源区政府,,32,32,31,18,23,108,42,98,83,20,16,10,15,0.3,0.7
2022-07-25T22:00:00,2352A,115.0861,27.9317,新余市,北岗(对照点),颗粒物(PM10),51,51,38,25,30,168,27,120,82,7,10,10,13,0.7,0.7
