timepoint,stationcode,longitude,latitude,area,positionname,primarypollutant,aqi,pm10,pm10_24h,pm2_5,pm2_5_24h,o3,o3_24h,o3_8h,o3_8h_24h,no2,no2_24h,so2,so2_24h,co,co_24h
2024-05-06T1400,2566A,102.1879,31.914,阿坝藏族羌族自治州,州农科所,,23,23,37,8,13,34,,24,24,16,11,3,4,0,0
2024-05-06T1400,2568A,102.2502,31.8896,阿坝藏族羌族自治州,马师校,,37,16,21,12,16,116,,76,76,5,11,3,3,0.3,0.2
2024-05-06T1400,3994A,102.2165,31.9024,阿坝藏族羌族自治州,马尔康中学西区,,37,31,27,12,15,118,,80,80,6,8,6,5,0.2,0.2
2024-05-06T1400,2695A,80.292,41.1694,阿克苏地区,电视台,颗粒物(PM10),83,116,171,37,51,53,,24,24,14,41,6,4,0.3,0.5
2024-05-06T1400,2696A,80.2613,41.1551,阿克苏地区,艺术中心,,,142,157,39,58,83,,36,36,22,45,,5,0.2,0.5
2024-05-06T1400,2204A,105.6467,38.8363,阿拉善盟,西城区西花园,颗粒物(PM10),55,59,71,15,19,131,,123,123,6,7,8,8,0.7,0.6
2024-05-06T1400,2205A,105.6985,38.8411,阿拉善盟,蒙二幼,颗粒物(PM10),62,73,71,18,18,125,,119,119,7,7,9,9,0.2,0.2
2024-05-06T1400,2206A,105.724,38.8516,阿拉善盟,环保局新楼,颗粒物(PM10),54,57,64,18,19,125,,125,125,5,5,8,9,0.3,0.3
2024-05-06T1400,2708A,88.1264,47.8517,阿勒泰地区,市站,颗粒物(PM10),57,63,39,20,10,101,,102,86,5,10,5,5,0.3,0.2
2024-05-06T1400,2630A,80.1161,32.5,阿里地区,阿里监测站,,43,16,23,5,7,136,,107,104,5,14,4,5,0.4,0.4
2024-05-06T1400,3192A,80.0903,32.5028,阿里地区,阿里藏医院,,45,8,9,5,5,144,,125,120,3,6,9,11,0.4,0.5
2024-05-06T1400,2642A,109.0318,32.6537,安康市,香溪洞,颗粒物(PM10),51,52,31,19,15,105,,51,51,4,6,8,8,0.5,0.5
2024-05-06T1400,2643A,109.0281,32.6939,安康市,安康市监测站,,37,37,38,23,20,112,,48,48,5,11,11,10,0.5,0.5
2024-05-06T1400,2644A,109.0072,32.6975,安康市,汉滨区检察院,,38,38,38,23,21,106,,45,45,5,9,12,10,0.6,0.6
2024-05-06T1400,2291A,117.0809,30.5177,安庆市,环科院,,33,23,26,8,20,103,,68,68,11,27,7,8,0.7,0.8
2024-05-06T1400,2292A,117.0331,30.5119,安庆市,马山宾馆,,35,24,26,8,20,109,,70,70,13,31,7,6,0.7,0.8
2024-05-06T1400,2294A,116.9896,30.6145,安庆市,安庆大学,,35,20,31,8,20,111,,73,73,10,21,8,7,0.5,0.6
2024-05-06T1400,3173A,117.0598,30.5351,安庆市,市人大,,34,21,27,8,20,107,,69,69,6,22,5,5,0.6,0.8
2024-05-06T1400,3123A,105.9408,26.2431,安顺市,凤凰山,,29,26,29,20,22,90,,88,88,6,10,8,11,0.5,0.4
2024-05-06T1400,3124A,105.9439,26.2564,安顺市,金钟山,,43,32,30,30,22,90,,86,86,6,8,8,9,0.2,0.2
2024-05-06T1400,3125A,105.8983,26.2481,安顺市,娄家坡,,32,26,36,17,21,100,,92,92,4,7,7,10,0.4,0.4
2024-05-06T1400,1819A,114.3551,36.1017,安阳市,红庙街,细颗粒物(PM2.5),64,74,71,46,49,150,,62,62,8,21,13,11,0.7,0.6
2024-05-06T1400,1820A,114.361,36.0681,安阳市,银杏小区,细颗粒物(PM2.5),67,69,63,48,50,146,,66,66,1,16,13,11,0.7,0.7
2024-05-06T1400,3141A,114.3922,36.0878,安阳市,信访局,细颗粒物(PM2.5),67,61,68,48,50,145,,58,58,8,22,7,6,0.6,0.6
2024-05-06T1400,3669A,114.4705,36.0637,安阳市,左辅环卫站,"颗粒物(PM10),细颗粒物(PM2.5)",60,70,79,43,51,124,,66,66,13,20,10,10,0.7,0.7
2024-05-06T1400,3703A,114.2917,36.0949,安阳市,安钢职工学校,细颗粒物(PM2.5),83,87,89,61,58,142,,60,60,13,28,12,11,0.9,0.8
2024-05-06T1400,1748A,123.044,41.1196,鞍山市,深沟寺,细颗粒物(PM2.5),54,52,40,38,28,95,,74,74,15,18,7,8,0.5,0.7
2024-05-06T1400,1749A,123.011,41.0931,鞍山市,太阳城,,47,47,42,31,29,106,,90,84,15,18,7,8,0.7,0.8
2024-05-06T1400,1750A,123.0485,41.1442,鞍山市,太平,颗粒物(PM10),57,64,47,39,30,104,,86,81,17,23,5,6,0.6,0.7
2024-05-06T1400,1751A,122.9642,41.0971,鞍山市,铁西三道街,颗粒物(PM10),67,84,61,44,38,87,,58,58,34,46,15,24,1.4,2.1
2024-05-06T1400,1752A,122.9341,41.0833,鞍山市,铁西工业园区,细颗粒物(PM2.5),55,52,41,39,34,93,,85,81,22,28,16,25,1.1,0.9
2024-05-06T1400,1753A,123.022,41.0821,鞍山市,明达新区,,50,41,36,35,27,96,,84,77,14,18,10,10,0.6,0.7
2024-05-06T1400,2195A,107.4212,40.761,巴彦淖尔市,附二中,,39,23,67,15,32,122,,99,99,4,15,3,8,0.3,0.4
2024-05-06T1400,2196A,107.37,40.7372,巴彦淖尔市,市环保大楼,,44,44,79,10,23,123,,101,101,3,14,5,5,0.3,0.3
2024-05-06T1400,1956A,86.1472,41.7538,巴音郭楞蒙古自治州,孔雀公园,颗粒物(PM10),78,105,117,16,33,115,,88,88,6,31,7,9,0.3,0.4
2024-05-06T1400,1957A,86.1972,41.7166,巴音郭楞蒙古自治州,棉纺厂,细颗粒物(PM2.5),104,136,123,78,39,110,,72,72,5,27,4,5,0.4,0.4
2024-05-06T1400,1958A,86.2357,41.7173,巴音郭楞蒙古自治州,经济开发区,颗粒物(PM10),69,87,127,28,37,116,,91,91,5,17,7,8,0.3,0.3
2024-05-06T1400,2914A,106.7677,31.8794,巴中市,苏山坪,,43,36,39,21,27,136,,97,97,8,9,5,5,0.5,0.5
2024-05-06T1400,3182A,106.7656,31.8545,巴中市,丽阳花园,,45,28,46,20,32,143,,71,71,8,23,5,5,0.5,0.7
2024-05-06T1400,3183A,106.7418,31.8654,巴中市,圣泉水务公司,,44,35,41,24,30,139,,73,73,8,20,6,5,0.6,0.6
2024-05-06T1400,3616A,106.7616,31.8344,巴中市,市中心医院,,44,29,50,17,37,140,,74,74,4,19,5,5,0.5,0.7
2024-05-06T1400,2235A,122.7911,45.6077,白城市,洮北区环保局,颗粒物(PM10),77,103,47,52,21,125,,91,91,9,7,4,4,0.2,0.1
2024-05-06T1400,2236A,122.8738,45.5725,白城市,市环保局,颗粒物(PM10),78,106,58,46,20,121,,90,90,11,11,6,4,0.4,0.3
2024-05-06T1400,2231A,126.4219,41.9171,白山市,喜丰,,28,11,12,2,6,88,,90,90,16,15,10,10,1.0,1
2024-05-06T1400,2232A,126.4077,41.9419,白山市,环保局,,30,20,21,4,7,96,,92,92,6,10,8,9,0.7,0.8
2024-05-06T1400,2647A,104.1724,36.5446,白银市,第三小学,颗粒物(PM10),66,82,92,28,30,131,,105,105,8,22,29,36,0.5,0.6
2024-05-06T1400,2648A,104.1465,36.5482,白银市,动力公司,颗粒物(PM10),68,85,80,32,29,140,,113,113,9,20,40,30,0.5,0.6
2024-05-06T1400,2512A,106.6103,23.9011,百色市,市监测站,,29,26,27,19,17,91,,77,77,13,14,13,8,0.9,0.7
2024-05-06T1400,2513A,106.6538,23.8859,百色市,市中心血站,,30,22,33,21,19,83,,73,73,15,17,19,10,0.9,0.8
2024-05-06T1400,3406A,106.6085,23.8798,百色市,祈福高中,,43,43,40,21,20,84,,70,70,12,19,12,10,1.0,0.9
2024-05-06T1400,2270A,117.396,32.939,蚌埠市,工人疗养院,,48,48,62,22,33,124,,87,87,7,13,6,7,0.4,0.5
2024-05-06T1400,2271A,117.3605,32.9427,蚌埠市,百货大楼,颗粒物(PM10),51,52,61,22,35,130,,90,90,7,16,4,4,0.5,0.6
2024-05-06T1400,2273A,117.4185,32.8911,蚌埠市,蚌埠学院,,44,44,47,28,36,117,,83,83,6,13,6,6,0.5,0.6
2024-05-06T1400,2274A,117.3533,32.9673,蚌埠市,淮上区政府,,48,48,50,29,40,129,,91,91,3,9,5,6,0.4,0.4
2024-05-06T1400,2275A,117.3145,32.8977,蚌埠市,高新区,,46,46,47,23,38,125,,87,87,2,18,5,5,0.4,0.4
2024-05-06T1400,3715A,117.3092,32.9314,蚌埠市,蚌埠田家炳中学,颗粒物(PM10),52,53,64,31,40,127,,86,86,2,11,5,6,0.4,0.4
2024-05-06T1400,1585A,109.8756,40.6532,包头市,市环境监测站,,36,30,39,11,14,113,,87,87,5,18,8,10,0.4,0.4
2024-05-06T1400,1587A,109.9991,40.5842,包头市,包头八中,,46,46,65,5,26,121,,70,70,5,40,6,16,0.2,0.7
2024-05-06T1400,1588A,109.8538,40.6821,包头市,青山宾馆,,,,35,,12,110,,84,84,,13,,12,0.3,0.1
2024-05-06T1400,1589A,109.8642,40.6288,包头市,惠龙物流,,36,23,41,2,15,114,,88,88,6,20,9,12,0.2,0.6
2024-05-06T1400,1590A,110.0377,40.5546,包头市,东河鸿龙湾,,36,36,45,12,18,111,,73,73,7,28,8,15,0.3,0.6
2024-05-06T1400,3283A,109.9154,40.5685,包头市,滨河大厦,,35,31,51,10,23,111,,71,71,3,31,9,19,0.4,0.7
2024-05-06T1400,3419A,109.9447,40.6261,包头市,包头市委党校,,50,50,51,4,22,109,,74,74,6,25,9,14,0.2,0.5
2024-05-06T1400,3683A,109.8331,40.6576,包头市,昆区政府,,,48,39,5,16,112,,88,86,,16,,11,0.3,0.7
2024-05-06T1400,1930A,107.185,34.3063,宝鸡市,庙沟村,,45,45,39,22,18,127,,83,83,9,11,9,9,0.7,0.6
2024-05-06T1400,1931A,107.0708,34.3017,宝鸡市,竹园沟,,47,41,35,22,19,148,,84,84,12,17,6,5,0.6,0.5
2024-05-06T1400,1932A,107.1906,34.3672,宝鸡市,三陆医院,,,65,55,21,26,152,,73,73,,30,7,7,0.5,0.5
2024-05-06T1400,1933A,107.1431,34.3547,宝鸡市,监测站,颗粒物(PM10),51,52,41,23,23,152,,86,86,17,23,8,8,0.5,0.6
2024-05-06T1400,1934A,107.1186,34.3739,宝鸡市,技工学校,颗粒物(PM10),59,67,45,26,24,156,,82,82,18,20,6,6,0.6,0.6
2024-05-06T1400,1935A,107.3906,34.3528,宝鸡市,陈仓区环保局家属楼,颗粒物(PM10),55,59,52,15,27,157,,81,81,8,27,6,4,0.6,0.7
2024-05-06T1400,1936A,107.2058,34.3497,宝鸡市,文理学院,,50,50,44,25,22,156,,83,83,14,20,7,6,0.5,0.5
2024-05-06T1400,1937A,107.2386,34.3622,宝鸡市,三迪小学,颗粒物(PM10),57,63,56,29,27,151,,75,75,18,27,9,7,0.6,0.6
2024-05-06T1400,1051A,115.493,38.8632,保定市,游泳馆,颗粒物(PM10),68,85,86,36,58,149,,91,91,2,13,2,2,0.2,0.2
2024-05-06T1400,1052A,115.5213,38.8959,保定市,华电二区,,,43,55,28,36,155,,101,101,,17,3,3,0.5,0.6
2024-05-06T1400,1053A,115.4713,38.9108,保定市,接待中心,颗粒物(PM10),52,53,70,31,36,157,,92,92,3,13,4,4,0.4,0.5
2024-05-06T1400,1054A,115.4612,38.8416,保定市,地表水厂,颗粒物(PM10),60,69,83,35,60,145,,83,83,5,20,2,2,0.3,0.4
2024-05-06T1400,3581A,115.31981,38.95208,保定市,满城区生态环境分局,,48,48,65,24,41,152,,93,93,2,11,2,2,0.3,0.4
2024-05-06T1400,3582A,115.47694,38.76408,保定市,清苑区第二中学,颗粒物(PM10),54,57,79,22,47,138,,78,78,10,23,4,5,0.3,0.4
2024-05-06T1400,3583A,115.62909,39.02311,保定市,徐水物探局,臭氧1小时,63,68,71,39,49,170,,102,102,2,14,4,4,0.2,0.2
2024-05-06T1400,4004A,115.4202,38.8656,保定市,双鹰农机,,,50,74,13,42,147,,71,71,,21,4,4,0.3,0.3
2024-05-06T1400,4034A,115.5150,38.8590,保定市,植保所站,细颗粒物(PM2.5),53,53,67,37,56,156,,101,101,8,16,1,2,0.4,0.4
2024-05-06T1400,2594A,99.1678,25.1081,保山市,市环境监测站,,40,22,46,16,25,128,,102,102,8,9,8,9,0.7,0.7
2024-05-06T1400,2595A,99.1711,25.1328,保山市,市环保局,,40,33,55,6,29,125,,94,94,8,7,6,6,0.5,0.7
2024-05-06T1400,1867A,109.1436,21.4086,北海市,海滩公园,,37,37,39,17,16,80,,52,52,5,11,6,10,0.6,0.7
2024-05-06T1400,1868A,109.0981,21.4661,北海市,新市环保局,,50,50,38,29,20,73,,56,56,11,12,7,9,0.6,0.8
2024-05-06T1400,1869A,109.1778,21.5233,北海市,北海工业园,颗粒物(PM10),51,52,43,34,23,80,,52,52,7,13,8,12,0.6,0.7
2024-05-06T1400,3400A,109.1911,21.4415,北海市,龙潭自来水厂,,35,35,36,24,26,73,,46,46,4,11,4,8,0.6,0.7
2024-05-06T1400,1001A,116.3621,39.8784,北京市,万寿西宫,,45,39,74,19,52,141,,94,94,10,24,3,3,0.3,0.5
2024-05-06T1400,1003A,116.4174,39.9289,北京市,东四,,46,46,83,16,52,128,,87,87,10,25,2,2,0.4,0.6
2024-05-06T1400,1004A,116.4072,39.8863,北京市,天坛,,42,30,56,16,43,134,,79,79,12,20,2,2,0.3,0.5
2024-05-06T1400,1005A,116.462,39.9365,北京市,农展馆,,38,30,72,14,51,120,,77,77,10,27,2,2,0.3,0.5
2024-05-06T1400,1006A,116.3392,39.9295,北京市,官园,,43,38,82,16,48,136,,94,94,8,21,1,2,0.2,0.4
2024-05-06T1400,1007A,116.2878,39.9611,北京市,海淀万柳,,44,31,81,15,49,139,,91,91,9,28,5,4,0.4,0.6
2024-05-06T1400,1008A,116.6636,40.135,北京市,顺义新城,,39,20,63,11,44,123,,95,95,7,20,3,3,0.2,0.4
2024-05-06T1400,1009A,116.6275,40.3275,北京市,怀柔镇,,38,22,74,10,53,119,,97,97,5,17,3,3,0.3,0.2
2024-05-06T1400,1010A,116.2296,40.217,北京市,昌平镇,,40,36,95,15,56,127,,79,79,15,22,1,2,0.3,0.5
2024-05-06T1400,1011A,116.3966,39.9821,北京市,奥体中心,,33,28,76,14,49,105,,75,75,8,26,2,2,0.3,0.5
2024-05-06T1400,1012A,116.184,39.9136,北京市,古城,,45,30,87,17,54,142,,86,86,11,31,1,1,0.2,0.4
2024-05-06T1400,3281A,115.9718,40.4529,北京市,延庆夏都,,39,28,55,15,32,122,,76,76,6,15,3,2,0.3,0.4
2024-05-06T1400,3417A,117.0709,40.1465,北京市,平谷新城,,42,42,70,15,50,120,,82,82,5,15,3,2,0.2,0.4
2024-05-06T1400,3418A,116.8336,40.4095,北京市,密云新城,,35,16,71,7,43,112,,103,103,9,13,3,2,0.3,0.4
2024-05-06T1400,3672A,116.1541,39.8204,北京市,丰台云岗,,46,42,77,26,46,147,,83,83,14,24,3,3,0.4,0.5
2024-05-06T1400,3673A,116.6804,39.9081,北京市,通州东关,,41,41,66,14,42,122,,90,90,6,24,1,2,0.2,0.4
2024-05-06T1400,3674A,115.9577,39.7603,北京市,房山燕山,细颗粒物(PM2.5),54,53,68,38,45,150,,81,81,15,19,1,1,0.5,0.5
2024-05-06T1400,3675A,116.4672,39.7733,北京市,大兴旧宫,,38,32,55,14,36,121,,76,76,8,21,3,3,0.2,0.4
2024-05-06T1400,3694A,115.986,40.4563,北京市,延庆石河营,,,20,43,13,31,121,,68,68,3,12,1,2,,0.4
2024-05-06T1400,3695A,116.6151,40.3053,北京市,怀柔新城,,36,19,68,10,50,114,,96,96,8,17,3,3,0.2,0.5
2024-05-06T1400,3696A,116.2545,39.8768,北京市,丰台小屯,,43,35,76,15,50,135,,82,82,6,24,1,2,0.3,0.5
2024-05-06T1400,3697A,116.84,40.3844,北京市,密云镇,,35,15,69,12,45,112,,100,100,8,18,2,3,0.2,0.4
2024-05-06T1400,1761A,123.8275,41.3064,本溪市,大峪,细颗粒物(PM2.5),55,43,30,39,21,77,,86,80,18,12,9,9,0.8,0.6
2024-05-06T1400,1762A,123.7567,41.3325,本溪市,溪湖,,50,,25,35,15,91,,91,89,12,8,10,9,0.6,0.5
2024-05-06T1400,1763A,123.7169,41.3094,本溪市,彩屯,,48,48,26,33,17,85,,83,79,19,16,8,8,0.6,0.6
2024-05-06T1400,1764A,123.7669,41.2864,本溪市,东明,细颗粒物(PM2.5),52,46,22,36,19,77,,78,77,22,17,8,9,0.8,0.7
2024-05-06T1400,1765A,123.7992,41.2664,本溪市,新立屯,细颗粒物(PM2.5),64,,18,46,20,76,,84,80,19,13,11,11,0.7,0.6
2024-05-06T1400,1766A,123.8142,41.3472,本溪市,威宁,,45,,18,31,15,65,,70,69,24,19,7,7,0.9,0.8
2024-05-06T1400,2587A,105.2864,27.3125,毕节市,八中,,40,40,42,26,28,127,,78,78,10,15,8,7,0.5,0.6
2024-05-06T1400,2588A,105.31,27.2944,毕节市,师专,,38,36,46,25,29,121,,75,75,9,19,11,10,0.5,0.6
2024-05-06T1400,3537A,105.3631,27.3533,毕节市,长征村,细颗粒物(PM2.5),54,49,49,38,37,142,,89,89,7,12,8,9,0.5,0.6
2024-05-06T1400,1629A,118.0018,37.3617,滨州市,第二水厂,"颗粒物(PM10),细颗粒物(PM2.5)",52,53,42,36,33,126,,84,84,12,20,11,7,0.8,0.9
2024-05-06T1400,1630A,117.9776,37.393,滨州市,北中新校,颗粒物(PM10),52,53,47,31,32,115,,70,70,11,20,9,8,0.8,0.8
2024-05-06T1400,3514A,117.9378,37.3956,滨州市,中海酒店,细颗粒物(PM2.5),55,48,43,39,37,131,,79,79,9,17,10,10,0.9,0.7
2024-05-06T1400,3515A,117.9378,37.3553,滨州市,开发区一中,,49,39,40,34,35,122,,72,72,8,21,11,15,0.7,0.8
2024-05-06T1400,3516A,118.0917,37.694,滨州市,金海六路,颗粒物(PM10),54,58,42,31,32,132,,87,87,7,20,9,8,0.5,0.5
2024-05-06T1400,4028A,117.9956,37.3753,滨州市,滨州市西街道办事处,细颗粒物(PM2.5),58,44,38,41,40,116,,76,76,12,18,9,9,0.8,0.7
2024-05-06T1400,2311A,115.8072,33.8399,亳州市,污水处理厂,颗粒物(PM10),53,56,56,27,30,141,,102,102,7,14,10,10,0.5,0.5
2024-05-06T1400,2312A,115.7789,33.8518,亳州市,三国揽胜宫,颗粒物(PM10),55,59,53,35,35,136,,101,101,4,7,10,11,0.5,0.5
2024-05-06T1400,3332A,115.7633,33.8034,亳州市,亳州学院,颗粒物(PM10),55,60,62,36,42,145,,102,102,5,9,10,11,0.6,0.6
2024-05-06T1400,2693A,82.0485,44.8556,博尔塔拉蒙古自治州,市党校,,40,34,45,11,14,128,,101,98,5,7,9,9,0.3,0.3
2024-05-06T1400,2694A,82.0806,44.8969,博尔塔拉蒙古自治州,市环保局,,40,22,59,16,23,125,,98,98,4,17,9,10,0.2,0.3
2024-05-06T1400,1071A,116.8842,38.2991,沧州市,沧县城建局,,49,49,61,20,38,149,,92,92,8,17,3,3,0.5,0.5
2024-05-06T1400,1072A,116.8584,38.3254,沧州市,电视转播站,细颗粒物(PM2.5),55,55,62,39,44,141,,86,86,4,13,6,3,0.3,0.3
2024-05-06T1400,1073A,116.8709,38.3228,沧州市,市环保局,颗粒物(PM10),51,52,65,24,30,147,,96,96,12,20,2,3,0.4,0.3
2024-05-06T1400,3324A,116.8136,38.3004,沧州市,河北水利电力学院,颗粒物(PM10),51,51,52,28,44,146,,85,85,7,18,6,6,0.4,0.4
2024-05-06T1400,2622A,97.1806,31.1273,昌都市,昌都监测站,,46,18,24,10,16,147,,98,98,4,12,9,8,0.4,0.4
2024-05-06T1400,3719A,97.1714,31.1406,昌都市,昌都会议中心,,49,18,19,13,18,154,,111,111,8,11,9,9,0.5,0.5
2024-05-06T1400,2690A,88.1236,43.8886,昌吉回族自治州,天山天池,颗粒物(PM10),110,170,50,38,17,108,,101,101,6,7,5,6,0.6,0.5
2024-05-06T1400,2692A,87.2717,44.0297,昌吉回族自治州,新区政务中心,颗粒物(PM10),132,213,132,59,50,119,,95,95,7,28,8,11,0.4,0.6
2024-05-06T1400,3613A,87.3095,44.0142,昌吉回族自治州,亚心广场,颗粒物(PM10),151,251,149,44,32,104,,91,91,,44,10,12,0.4,0.6
2024-05-06T1400,1119A,125.3325,43.9166,长春市,食品厂,颗粒物(PM10),85,120,65,55,39,123,,86,86,11,21,7,8,0.5,0.5
2024-05-06T1400,1120A,125.2863,43.9027,长春市,客车厂,颗粒物(PM10),89,128,64,53,38,115,,80,80,14,20,5,6,0.4,0.4
2024-05-06T1400,1121A,125.2841,43.8463,长春市,邮电学院,颗粒物(PM10),87,124,63,44,34,117,,81,81,13,19,8,8,0.4,0.4
2024-05-06T1400,1122A,125.3716,43.8772,长春市,劳动公园,颗粒物(PM10),80,109,62,38,30,115,,84,84,17,22,6,6,0.5,0.5
2024-05-06T1400,1123A,125.3297,43.8805,长春市,园林处,颗粒物(PM10),77,103,57,44,38,114,,80,80,15,20,9,8,0.5,0.5
2024-05-06T1400,1124A,125.4605,43.79,长春市,净月潭,颗粒物(PM10),76,102,55,40,32,112,,80,80,9,11,9,8,0.3,0.3
2024-05-06T1400,1126A,125.3863,43.8447,长春市,经开区环卫处,颗粒物(PM10),78,105,61,45,37,115,,80,80,16,21,6,7,0.6,0.5
2024-05-06T1400,1127A,125.245,43.7783,长春市,高新区管委会,颗粒物(PM10),79,107,60,48,37,119,,76,76,15,21,7,7,0.5,0.5
2024-05-06T1400,1128A,125.1761,43.8325,长春市,岱山公园,颗粒物(PM10),96,141,68,50,42,117,,77,77,21,28,6,7,0.5,0.6
2024-05-06T1400,1335A,113.0833,28.2325,长沙市,经开区环保局,,43,29,34,9,27,137,,79,79,5,12,7,7,0.5,0.5
2024-05-06T1400,1336A,112.8872,28.2189,长沙市,高开区环保局,,49,40,35,23,22,156,,89,89,9,14,12,8,1.1,0.9
2024-05-06T1400,1337A,113.0792,28.2053,长沙市,马坡岭,,42,27,33,15,25,132,,72,72,6,11,8,8,0.6,0.6
2024-05-06T1400,1338A,112.9394,28.19,长沙市,湖南师范大学,,,40,39,18,21,,,72,72,7,15,12,6,1.0,0.7
2024-05-06T1400,1339A,113.0178,28.1322,长沙市,雨花区环保局,,42,28,34,17,21,134,,67,67,7,22,7,6,0.7,0.7
2024-05-06T1400,1340A,112.9792,28.2597,长沙市,伍家岭,,45,41,40,16,24,143,,73,73,7,22,9,6,0.7,0.7
2024-05-06T1400,1341A,113.0014,28.1944,长沙市,火车新站,,42,31,39,14,25,132,,69,69,10,26,5,4,0.8,0.8
2024-05-06T1400,1342A,112.9844,28.1178,长沙市,天心区环保局,,43,35,35,12,18,135,,73,73,9,17,5,4,0.7,0.7
2024-05-06T1400,1343A,112.8908,28.1308,长沙市,湖南中医药大学,,48,42,34,24,26,153,,78,78,11,18,20,10,1.6,1.1
2024-05-06T1400,1344A,112.9581,28.3611,长沙市,沙坪,,40,16,24,11,20,127,,74,74,2,10,10,8,0.5,0.5
2024-05-06T1400,1727A,113.1147,36.1547,长治市,清华站,,48,31,46,12,36,153,,96,96,9,20,10,12,0.5,0.7
2024-05-06T1400,1728A,113.1031,36.1989,长治市,监测站,,48,42,49,14,37,153,,94,94,15,26,15,17,0.5,0.8
2024-05-06T1400,1730A,113.0886,36.2125,长治市,审计局,,49,24,42,14,37,155,,95,95,9,22,14,16,0.4,0.6
2024-05-06T1400,1731A,113.0844,36.1856,长治市,长治八中,,49,30,50,7,30,155,,92,92,10,29,8,10,0.4,0.7
2024-05-06T1400,2845A,113.1569,36.1911,长治市,德盛苑,,47,27,42,22,33,150,,102,102,11,15,7,9,0.5,0.7
2024-05-06T1400,3568A,113.06,36.0464,长治市,向阳小学,,,,73,,50,155,,103,103,,23,,15,0.5,0.8
2024-05-06T1400,3569A,112.8792,36.3144,长治市,屯留一中,,47,26,41,7,28,148,,102,102,8,18,9,13,0.6,0.8
2024-05-06T1400,3570A,113.235,36.3489,长治市,潞城四中,,49,24,55,16,42,154,,101,101,8,24,7,8,0.5,0.8
2024-05-06T1400,1854A,111.6975,28.9703,常德市,市二中,,30,19,25,18,15,95,,61,61,11,14,8,8,0.6,0.5
2024-05-06T1400,3138A,111.7153,29.0289,常德市,武陵区永安,,30,26,28,16,15,93,,57,57,9,13,8,9,0.5,0.5
2024-05-06T1400,3139A,111.6892,28.9881,常德市,鼎城区玉霞,,30,24,29,16,15,93,,54,54,8,19,11,10,0.5,0.5
2024-05-06T1400,3140A,111.6625,29.0531,常德市,武陵区长庚,,26,23,27,14,16,82,,55,55,6,16,10,10,0.6,0.6
2024-05-06T1400,1196A,119.9633,31.762,常州市,市监测站,,45,,65,28,33,143,,86,86,6,18,8,7,0.7,0.8
2024-05-06T1400,1200A,119.9468,31.7069,常州市,武进监测站,,44,28,57,20,26,140,,89,89,6,16,8,8,0.7,0.9
2024-05-06T1400,1201A,119.9255,31.9087,常州市,安家,,49,37,62,34,28,145,,80,80,3,18,8,9,0.9,1
2024-05-06T1400,3002A,119.9805,31.8174,常州市,行政中心,,44,35,56,26,31,138,,80,80,3,14,8,7,0.7,0.9
2024-05-06T1400,3003A,120.0522,31.7748,常州市,经开区,,45,30,58,26,28,143,,89,89,10,18,7,6,0.5,0.7
2024-05-06T1400,3010A,119.9025,31.7964,常州市,钟楼,,43,29,48,24,28,135,,79,79,7,19,7,7,0.9,1
2024-05-06T1400,3429A,119.8598,31.7066,常州市,武进经发区,,44,15,37,11,26,138,,91,91,2,14,7,6,0.6,1
2024-05-06T1400,3430A,119.5826,31.7245,常州市,金坛城区,,46,14,28,10,21,145,,88,88,7,12,7,7,0.8,1
2024-05-06T1400,2220A,120.4318,41.5881,朝阳市,西梁,,39,39,39,17,23,120,,101,101,8,14,10,14,0.4,0.5
2024-05-06T1400,2221A,120.4521,41.5646,朝阳市,河畔小区,颗粒物(PM10),58,66,61,22,25,123,,105,105,12,14,7,11,0.4,0.5
2024-05-06T1400,2222A,120.4176,41.5648,朝阳市,八里堡,颗粒物(PM10),66,82,72,20,24,121,,103,103,9,15,9,14,0.6,0.7
2024-05-06T1400,2223A,120.3806,41.5969,朝阳市,农业园区,,41,40,41,20,26,129,,109,109,8,15,7,11,0.4,0.5
2024-05-06T1400,1705A,116.6367,23.6719,潮州市,西园路,,27,,28,17,20,84,,63,63,4,12,5,6,0.1,0.4
2024-05-06T1400,3026A,116.6183,23.6608,潮州市,市政府,,32,26,43,13,23,100,,74,74,4,17,6,11,0.7,0.9
2024-05-06T1400,4036A,116.6461,23.6761,潮州市,金山,,25,24,34,5,22,80,,61,61,3,12,6,8,0.5,0.7
2024-05-06T1400,2472A,113.0073,25.9061,郴州市,马头岭,,29,24,22,9,6,92,,47,47,11,14,5,4,0.9,0.9
2024-05-06T1400,2473A,113.0116,25.8226,郴州市,市职中,,31,20,19,15,12,99,,48,48,8,10,6,5,0.8,0.8
2024-05-06T1400,2474A,113.0161,25.8001,郴州市,兴隆步行街,,34,34,27,21,14,101,,51,51,11,14,6,5,0.7,0.8
2024-05-06T1400,2475A,113.0383,25.8071,郴州市,市审计局,,27,26,21,15,10,86,,45,45,14,15,11,5,0.8,0.8
2024-05-06T1400,2476A,113.0348,25.7759,郴州市,市环保局,,33,33,25,20,15,80,,43,43,14,17,11,5,0.9,0.9
2024-05-06T1400,1431A,103.9728,30.7236,成都市,金泉两河,臭氧1小时,80,64,64,35,37,184,,88,88,10,25,4,4,0.5,0.5
2024-05-06T1400,1432A,104.176,30.6872,成都市,十里店,,,35,58,,37,166,,79,79,15,37,6,6,0.7,0.8
2024-05-06T1400,1433A,104.079,30.5706,成都市,三瓦窑,细颗粒物(PM2.5),54,50,59,38,38,155,,66,66,16,37,4,4,0.4,0.6
2024-05-06T1400,1434A,104.1114,30.63,成都市,沙河铺,,49,46,55,17,33,156,,67,67,18,29,5,4,0.6,0.8
2024-05-06T1400,1437A,104.0786,30.6531,成都市,君平街,臭氧1小时,79,81,67,38,37,183,,90,90,26,32,6,5,0.7,0.7
2024-05-06T1400,2880A,104.0239,30.65639,成都市,大石西路,臭氧1小时,92,70,58,40,35,193,,97,97,28,39,6,5,0.6,0.6
2024-05-06T1400,3136A,104.2725,30.5589,成都市,龙泉驿区区政府,,45,34,32,14,19,142,,99,99,2,11,4,4,0.4,0.5
2024-05-06T1400,3357A,104.0106,30.6931,成都市,金博路,臭氧1小时,95,70,66,30,38,196,,86,86,9,25,3,3,0.7,0.6
2024-05-06T1400,3359A,104.0578,30.5225,成都市,华阳,,48,48,54,27,39,150,,69,69,12,27,4,4,0.4,0.5
2024-05-06T1400,3487A,104.2394,30.5319,成都市,车城东七路,,48,38,51,26,33,152,,79,79,8,23,6,6,0.5,0.6
2024-05-06T1400,3488A,104.3853,30.7453,成都市,青白江技师分院,细颗粒物(PM2.5),52,37,42,36,26,157,,83,83,10,27,4,4,0.5,0.6
2024-05-06T1400,3489A,104.0789,30.4072,成都市,科学城,,50,42,55,29,42,157,,66,66,9,25,4,3,0.6,0.7
2024-05-06T1400,4011A,103.8506,30.6947,成都市,光华大道三段,臭氧1小时,77,77,72,45,45,181,,94,94,29,34,4,4,0.7,0.7
2024-05-06T1400,1062A,117.9531,40.9081,承德市,铁路,,35,14,86,2,27,110,,106,106,5,14,7,8,0.2,0.3
2024-05-06T1400,1063A,117.9392,40.9763,承德市,中国银行,,35,30,86,3,24,110,,105,105,4,14,8,9,0.2,0.3
2024-05-06T1400,1064A,117.9503,40.928,承德市,开发区,,35,32,86,10,29,109,,106,106,8,15,5,7,0.2,0.4
2024-05-06T1400,1065A,117.8051,40.9655,承德市,文化中心,,35,30,97,2,27,109,,103,103,8,21,7,8,0.2,0.3
2024-05-06T1400,1066A,117.9268,41.0026,承德市,离宫,,,,63,,27,100,,105,104,3,11,,4,0.2,0.3
2024-05-06T1400,2314A,117.47,30.6618,池州市,池州学院,,37,12,20,7,16,118,,85,85,8,12,7,4,0.6,0.7
2024-05-06T1400,3237A,117.4918,30.6617,池州市,展览馆,,35,,20,8,16,111,,79,79,7,13,5,3,0.5,0.7
2024-05-06T1400,3333A,117.5627,30.695,池州市,第八中学,,37,15,20,10,15,118,,87,87,9,11,5,3,0.6,0.8
2024-05-06T1400,3334A,117.5038,30.6243,池州市,第十二中学,,37,12,20,7,14,116,,82,82,4,12,4,4,0.5,0.9
2024-05-06T1400,1744A,118.9233,42.2816,赤峰市,松山一中,颗粒物(PM10),105,160,95,17,25,96,,92,92,13,20,8,8,0.4,0.5
2024-05-06T1400,1745A,118.9576,42.2728,赤峰市,哈达街,颗粒物(PM10),54,58,85,23,26,97,,90,90,6,12,8,9,0.4,0.5
2024-05-06T1400,1746A,118.8788,42.2554,赤峰市,天义路,,43,43,94,18,27,93,,87,87,16,19,5,6,0.2,0.4
2024-05-06T1400,3058A,119.2658,42.0353,赤峰市,银河街,颗粒物(PM10),87,124,122,13,26,99,,91,91,14,16,10,13,0.3,0.4
2024-05-06T1400,3286A,118.9359,42.3147,赤峰市,桥北物流园区,,47,47,79,11,30,102,,97,97,19,21,7,7,0.3,0.4
2024-05-06T1400,2521A,107.3476,22.4136,崇左市,市环保局江州分局,,,29,35,16,18,60,,54,42,,12,9,8,0.8,0.7
2024-05-06T1400,2522A,107.3702,22.3707,崇左市,城南新区,,23,23,30,15,17,61,,54,45,15,12,6,6,0.8,0.7
2024-05-06T1400,2298A,118.3093,32.3153,滁州市,老年大学,,38,21,41,16,31,121,,87,87,6,9,6,6,0.5,0.6
2024-05-06T1400,2299A,118.3244,32.2786,滁州市,人大宾馆,,40,22,33,11,32,125,,83,83,7,13,5,5,0.6,0.7
2024-05-06T1400,3207A,118.3118,32.3038,滁州市,市政府原办公楼,,39,25,37,24,40,124,,86,86,6,11,5,5,0.6,0.6
2024-05-06T1400,3331A,118.3267,32.2634,滁州市,图书馆,,39,31,52,9,28,122,,82,82,3,10,7,7,0.7,0.7
2024-05-06T1400,2605A,101.5482,25.0441,楚雄彝族自治州,州环境监测站,,44,26,34,7,31,138,,93,93,4,15,6,7,0.4,0.6
2024-05-06T1400,2606A,101.538,25.0492,楚雄彝族自治州,市经济开发区,,43,26,36,7,27,135,,91,91,6,16,4,6,0.5,0.6
2024-05-06T1400,2548A,107.5277,31.2827,达州市,达州职业技术学院,,42,41,43,15,24,132,,69,69,9,26,5,7,0.5,0.6
2024-05-06T1400,2549A,107.5086,31.2186,达州市,市环境监测站,,45,42,54,22,29,141,,64,64,15,32,6,7,0.6,0.8
2024-05-06T1400,2550A,107.4988,31.2132,达州市,凤凰小区,,44,44,53,19,31,140,,70,70,11,32,6,8,0.6,0.9
2024-05-06T1400,2551A,107.5082,31.1986,达州市,达县机关宾馆,,42,39,55,29,34,127,,66,66,17,37,3,5,0.3,0.5
2024-05-06T1400,2552A,107.4644,31.2124,达州市,市政中心,,44,37,54,22,30,140,,65,65,13,36,9,8,0.9,1
2024-05-06T1400,2614A,100.1542,25.7054,大理白族自治州,大理市环境监测站,,41,17,40,9,23,129,,129,128,8,12,6,6,0.5,0.5
2024-05-06T1400,2615A,100.2171,25.5811,大理白族自治州,大理古城,,41,19,36,11,25,129,,121,121,10,12,6,7,0.5,0.5
2024-05-06T1400,1109A,121.612,38.9741,大连市,甘井子,,39,39,37,21,25,101,,79,74,15,14,10,9,0.5,0.5
2024-05-06T1400,1110A,121.565,38.9511,大连市,周水子,,39,39,35,20,25,96,,85,71,27,20,8,8,0.7,0.7
2024-05-06T1400,1111A,121.5637,38.8845,大连市,星海三站,,38,38,30,19,21,112,,100,88,14,12,6,5,0.7,0.7
2024-05-06T1400,1112A,121.6302,38.9117,大连市,青泥洼桥,,40,40,40,20,24,101,,84,70,13,14,10,9,0.6,0.6
2024-05-06T1400,1113A,121.6251,38.8638,大连市,傅家庄,,38,38,36,19,22,110,,97,84,16,13,9,7,0.6,0.6
2024-05-06T1400,1114A,121.5213,38.8661,大连市,七贤岭,,35,35,33,18,20,111,,92,84,13,13,10,9,0.7,0.6
2024-05-06T1400,1115A,121.2529,38.8061,大连市,旅顺,,37,32,28,16,22,116,,94,86,14,12,8,7,0.6,0.7
2024-05-06T1400,1116A,121.7485,39.1311,大连市,金州,,36,36,30,23,22,108,,84,84,13,12,8,7,0.6,0.7
2024-05-06T1400,1117A,121.7811,39.0496,大连市,开发区,,41,41,33,20,23,105,,80,78,16,17,4,5,0.5,0.6
2024-05-06T1400,1118A,121.9762,39.0631,大连市,双D港,颗粒物(PM10),52,54,31,21,20,102,,92,89,17,16,9,8,0.8,0.8
2024-05-06T1400,1789A,124.81117,46.03138,大庆市,大同区,细颗粒物(PM2.5),95,115,74,71,49,127,,93,93,10,9,7,7,0.5,0.4
2024-05-06T1400,1790A,125.129,46.533,大庆市,龙凤区,细颗粒物(PM2.5),60,64,46,43,31,120,,88,88,12,11,6,6,0.4,0.3
2024-05-06T1400,1791A,124.902,46.408,大庆市,红岗区,颗粒物(PM10),52,53,48,33,30,123,,87,87,9,10,7,7,0.4,0.5
2024-05-06T1400,1792A,125.153,46.586,大庆市,萨尔图区,,,56,46,43,33,119,,87,87,,6,7,7,0.2,0.2
2024-05-06T1400,1793A,124.9042,46.6215,大庆市,让胡路区,颗粒物(PM10),55,60,53,14,32,116,,86,86,7,8,4,4,0.3,0.3
2024-05-06T1400,3481A,125.141,46.634,大庆市,萨区政府监测点,颗粒物(PM10),55,60,48,36,32,120,,83,83,8,10,7,7,0.3,0.3
2024-05-06T1400,1723A,113.2994,40.0758,大同市,云冈宾馆,,40,,31,14,22,128,,82,82,9,24,6,7,0.2,0.7
2024-05-06T1400,1724A,113.3444,40.0917,大同市,大同大学,,38,27,29,16,20,120,,78,78,8,22,11,13,0.3,0.7
2024-05-06T1400,1725A,113.2661,40.1269,大同市,安家小村,,38,21,37,9,19,120,,78,78,9,21,8,9,0.2,0.7
2024-05-06T1400,1726A,113.2711,40.0844,大同市,教育学院,,41,28,40,11,24,130,,80,80,12,30,7,9,0.4,0.8
2024-05-06T1400,3282A,113.3397,40.0597,大同市,大同市卫生学校,,40,25,39,10,23,126,,78,78,10,24,8,8,0.5,0.7
2024-05-06T1400,3565A,113.1367,40.1122,大同市,云冈站,,40,26,30,9,21,125,,79,79,9,23,10,8,0.4,0.5
2024-05-06T1400,3566A,113.1186,40.2556,大同市,图书馆,,42,31,27,9,18,133,,86,86,12,15,13,12,0.3,0.5
2024-05-06T1400,3567A,113.5931,40.0461,大同市,区一中,颗粒物(PM10),75,100,43,23,26,135,,96,96,16,20,14,10,0.5,0.5
2024-05-06T1400,3676A,113.2802,40.0995,大同市,第二人民医院,,39,24,39,10,21,124,,77,77,7,25,9,10,0.3,0.8
2024-05-06T1400,2269A,124.1069,50.4097,大兴安岭地区,科技局,,29,,15,8,15,90,,73,73,3,5,5,6,0.4,0.4
2024-05-06T1400,3663A,124.1164,50.4278,大兴安岭地区,红旗社区,,32,,7,6,9,100,,76,76,3,10,7,7,0.2,0.3
2024-05-06T1400,1600A,124.3303,40.0625,丹东市,江湾东路,,23,10,13,3,6,72,,76,71,14,12,7,7,0.3,0.4
2024-05-06T1400,1601A,124.4256,40.1503,丹东市,临江后街,,,10,10,0,2,71,,66,64,8,11,11,7,,0.6
2024-05-06T1400,1602A,124.3933,40.1461,丹东市,元宝山,,21,8,6,2,2,65,,68,66,11,10,8,8,0.6,0.6
2024-05-06T1400,1603A,124.3633,40.1092,丹东市,民主桥,,22,11,14,4,5,70,,70,65,10,13,10,10,0.4,0.5
2024-05-06T1400,3541A,109.5726,19.5167,儋州市,第一中学子站,,34,34,37,22,21,93,,74,74,1,6,4,5,0.4,0.5
2024-05-06T1400,3542A,109.5567,19.5187,儋州市,东坡学校子站,,33,32,26,23,19,93,,72,72,1,5,5,5,0.6,0.6
2024-05-06T1400,2616A,98.5842,24.428,德宏傣族景颇族自治州,德宏州监测站,,44,18,45,18,32,139,,106,88,11,15,2,3,0.4,0.5
2024-05-06T1400,3677A,98.5881,24.4368,德宏傣族景颇族自治州,芒市人民政府综合楼,,43,21,53,17,28,135,,95,83,12,13,3,3,0.5,0.6
2024-05-06T1400,1901A,104.4239,31.1208,德阳市,东山公园,细颗粒物(PM2.5),64,70,75,46,43,148,,96,96,8,14,4,6,0.6,0.6
2024-05-06T1400,1902A,104.3826,31.1317,德阳市,西小区,"颗粒物(PM10),细颗粒物(PM2.5)",54,58,74,38,47,152,,88,88,10,29,4,7,0.6,0.6
2024-05-06T1400,1904A,104.3553,31.1091,德阳市,耐火材料厂,臭氧1小时,80,56,76,32,45,184,,98,98,8,29,5,8,0.5,0.6
2024-05-06T1400,3639A,104.4019,31.1244,德阳市,市教育局,细颗粒物(PM2.5),58,56,66,41,47,147,,85,85,6,26,3,7,0.6,0.7
2024-05-06T1400,1622A,116.3032,37.4674,德州市,儿童乐园,颗粒物(PM10),52,53,69,34,44,150,,109,109,10,18,10,8,0.7,0.7
2024-05-06T1400,1624A,116.2991,37.4451,德州市,监理站,颗粒物(PM10),51,51,61,34,46,153,,105,105,8,18,10,10,0.6,0.6
2024-05-06T1400,3066A,116.2721,37.4379,德州市,九衢泉纯净水厂,颗粒物(PM10),51,51,66,29,38,148,,103,103,8,16,8,6,0.4,0.7
2024-05-06T1400,3371A,116.3728,37.4403,德州市,开发区人民医院,颗粒物(PM10),56,61,65,31,37,145,,110,110,5,13,12,10,0.6,0.5
2024-05-06T1400,3372A,116.3572,37.4094,德州市,太阳城中学,颗粒物(PM10),57,63,66,29,45,141,,91,91,4,16,8,7,0.6,0.6
2024-05-06T1400,3511A,116.5652,37.3319,德州市,陵城艺术中心,颗粒物(PM10),54,58,59,29,37,139,,87,87,10,19,7,6,0.6,0.6
2024-05-06T1400,2621A,99.7056,27.8317,迪庆藏族自治州,迪庆州站,,40,33,26,17,15,126,,86,86,12,12,8,8,0.5,0.5
2024-05-06T1400,3180A,99.7136,27.8094,迪庆藏族自治州,质量技术监督局,,43,28,21,11,11,135,,94,94,9,12,7,7,0.5,0.5
2024-05-06T1400,2663A,104.6241,35.5734,定西市,东关小学,颗粒物(PM10),59,68,87,19,29,132,,73,73,2,22,5,5,0.2,0.3
2024-05-06T1400,2664A,104.6194,35.5934,定西市,供电公司,颗粒物(PM10),55,60,79,24,30,127,,66,66,1,26,6,6,0.3,0.4
2024-05-06T1400,1389A,113.7547,23.0494,东莞市,莞城梨川,臭氧1小时,90,32,54,17,40,192,,90,90,17,41,8,8,0.9,1.2
2024-05-06T1400,1390A,113.7944,23.0128,东莞市,东城石井,,,,48,,29,,,68,68,14,24,6,6,0.6,0.8
2024-05-06T1400,1391A,113.7383,22.9658,东莞市,南城西平,臭氧1小时,89,36,45,22,30,191,,86,86,18,35,11,10,0.8,0.9
2024-05-06T1400,3319A,113.7338,23.0381,东莞市,万江金泰,臭氧1小时,90,40,58,28,39,192,,82,82,16,40,10,11,0.9,1.1
2024-05-06T1400,3626A,113.7533,23.0202,东莞市,南城元岭,,,47,52,30,37,,,66,66,15,41,7,8,0.8,1
2024-05-06T1400,3627A,113.7875,23.0457,东莞市,东城主山,臭氧1小时,87,37,58,19,41,189,,94,94,12,40,9,10,0.7,0.9
2024-05-06T1400,1666A,118.6614,37.4309,东营市,市环保局,细颗粒物(PM2.5),52,46,37,36,29,131,,100,100,14,14,8,7,0.3,0.2
2024-05-06T1400,3036A,118.6904,37.4338,东营市,开发区管委会,细颗粒物(PM2.5),55,55,39,39,35,131,,99,99,17,19,5,4,0.4,0.3
2024-05-06T1400,3365A,118.5719,37.565,东营市,垦利区民丰路,细颗粒物(PM2.5),55,48,36,39,29,125,,90,90,14,15,8,9,0.6,0.5
2024-05-06T1400,3498A,118.5055,37.8612,东营市,河口城区,细颗粒物(PM2.5),59,56,35,42,35,131,,98,98,10,10,5,4,0.7,0.5
2024-05-06T1400,3646A,118.4978,37.4623,东营市,胜利站,细颗粒物(PM2.5),52,,34,36,30,130,,99,99,11,16,9,9,0.8,0.7
2024-05-06T1400,3734A,118.35,37.26,东营市,理想之城,颗粒物(PM10),52,53,48,34,31,121,,94,94,15,17,10,9,0.8,0.7
2024-05-06T1400,1591A,110.0023,39.8129,鄂尔多斯市,综合楼,,46,46,48,9,17,128,,96,96,8,24,5,5,0.4,0.6
2024-05-06T1400,1592A,109.9486,39.8261,鄂尔多斯市,巴音孟克林场办事处,,39,39,42,12,17,121,,91,91,7,22,8,13,0.4,0.6
2024-05-06T1400,1593A,109.7736,39.5986,鄂尔多斯市,康泽苑,,,44,35,12,18,128,,96,96,,13,7,6,0.4,0.4
2024-05-06T1400,1594A,109.8119,39.5989,鄂尔多斯市,华泰汽车城,,44,44,37,17,19,121,,82,82,7,17,7,6,0.4,0.5
2024-05-06T1400,1595A,109.9734,39.7884,鄂尔多斯市,奥林花园,,46,46,42,19,19,123,,94,94,8,33,8,6,0.4,0.7
2024-05-06T1400,2436A,114.8938,30.3994,鄂州市,市政府,,38,27,48,12,25,120,,74,74,9,26,12,14,0.4,0.3
2024-05-06T1400,2437A,114.8989,30.3714,鄂州市,赵家坝,,40,25,39,11,28,127,,76,76,1,16,12,10,0.6,0.6
2024-05-06T1400,3654A,114.8094,30.4089,鄂州市,精准医疗中心,,36,23,57,10,28,114,,72,72,1,22,7,11,0.5,0.9
2024-05-06T1400,2454A,109.4978,30.2981,恩施土家族苗族自治州,湖北民院,,36,34,35,17,23,115,,64,64,6,16,7,6,0.9,0.9
2024-05-06T1400,2455A,109.4707,30.2798,恩施土家族苗族自治州,州电力总公司,,32,25,31,22,22,99,,54,54,27,30,9,8,0.6,0.7
2024-05-06T1400,3549A,109.5061,30.3772,恩施土家族苗族自治州,龙凤新区,,,31,27,16,15,,,62,62,12,12,7,6,,0.5
2024-05-06T1400,2499A,108.3411,21.6158,防城港市,沙万,,39,39,30,17,14,67,,64,64,10,11,4,7,0.7,0.7
2024-05-06T1400,2500A,108.3514,21.7731,防城港市,防城档案局,,33,33,51,21,20,46,,41,41,11,21,3,4,0.8,0.8
2024-05-06T1400,2501A,108.3506,21.6414,防城港市,大海花园,,34,34,30,16,16,67,,62,62,10,13,13,6,0.6,0.6
2024-05-06T1400,1371A,113.1294,23.0067,佛山市,湾梁,臭氧1小时,63,36,46,20,23,170,,63,63,11,40,8,8,0.3,0.4
2024-05-06T1400,1372A,113.1083,23.0478,佛山市,华材职中,臭氧1小时,72,41,44,20,26,177,,66,66,17,36,6,6,0.5,0.6
2024-05-06T1400,1373A,113.144,23.0453,佛山市,南海气象局,臭氧1小时,54,32,43,22,27,163,,59,59,11,38,8,8,0.6,0.8
2024-05-06T1400,1374A,113.2881,22.8094,佛山市,顺德苏岗,臭氧1小时,101,67,34,34,26,202,,84,84,18,33,5,5,0.7,0.8
2024-05-06T1400,1376A,112.8383,22.8678,佛山市,高明孔堂,,,33,53,28,32,187,,91,91,,24,8,8,0.8,0.9
2024-05-06T1400,1377A,112.8836,23.1588,佛山市,三水监测站,臭氧1小时,105,83,80,49,48,210,,82,82,25,51,7,7,0.8,0.9
2024-05-06T1400,1378A,112.867,23.185,佛山市,三水云东海,臭氧1小时,106,73,60,52,57,212,,86,86,22,33,5,6,0.6,0.7
2024-05-06T1400,3625A,113.2544,22.7642,佛山市,容桂街道办,,,48,46,34,30,198,,74,74,,42,4,4,0.5,0.7
2024-05-06T1400,1282A,119.2681,26.0504,福州市,师大,,35,12,24,8,15,109,,82,82,2,8,4,4,0.3,0.4
2024-05-06T1400,1283A,119.2984,26.1028,福州市,五四北路,,,,27,3,20,113,,84,84,2,17,3,3,0.5,0.6
2024-05-06T1400,1284A,119.2648,26.0768,福州市,杨桥西路,,35,12,23,6,14,111,,84,84,3,14,3,3,0.5,0.5
2024-05-06T1400,1285A,119.317,26.0746,福州市,紫阳,,35,19,25,5,18,109,,80,80,3,14,3,3,0.3,0.4
2024-05-06T1400,3048A,119.5799,26.0936,福州市,九龙,,45,,28,27,20,142,,84,84,6,15,5,4,0.6,0.5
2024-05-06T1400,3526A,119.5189,25.9664,福州市,吴航,,46,46,31,32,20,131,,84,84,4,11,5,4,0.8,0.7
2024-05-06T1400,1755A,123.7977,41.8491,抚顺市,望花区,,47,47,26,22,17,121,,99,99,6,11,5,6,0.3,0.3
2024-05-06T1400,1756A,123.9161,41.8822,抚顺市,顺城区,,38,31,21,19,13,120,,101,101,12,15,7,6,0.4,0.4
2024-05-06T1400,1757A,124.0436,41.8611,抚顺市,东洲区,,36,26,16,15,13,114,,96,96,7,8,4,4,0.3,0.3
2024-05-06T1400,1758A,123.9247,41.8642,抚顺市,新抚区,,38,31,18,17,10,119,,100,100,6,8,6,6,0.4,0.4
2024-05-06T1400,1759A,124.0972,41.8961,抚顺市,大伙房水库,,,21,13,11,11,,,105,105,7,9,,6,0.2,0.2
2024-05-06T1400,1760A,123.7086,41.8391,抚顺市,沈抚新城,颗粒物(PM10),51,52,27,33,17,110,,90,90,10,16,5,5,0.3,0.3
2024-05-06T1400,2377A,116.3544,27.9831,抚州市,市站,,35,23,26,12,16,112,,73,73,6,18,2,5,0.9,1.1
2024-05-06T1400,2378A,116.3565,27.963,抚州市,血防站,,35,21,28,13,15,110,,61,61,4,18,1,7,0.9,1.2
2024-05-06T1400,2379A,116.3564,28.0007,抚州市,采茶剧团,,33,22,25,9,15,103,,64,64,4,18,6,4,0.8,1
2024-05-06T1400,2380A,116.385,27.9647,抚州市,医学分院,,36,26,25,10,11,114,,66,66,4,18,4,5,0.8,1
2024-05-06T1400,2207A,121.6094,41.998,阜新市,工业园区,颗粒物(PM10),74,97,73,40,45,129,,106,106,12,17,6,10,0.6,0.7
2024-05-06T1400,2208A,121.6697,42.0279,阜新市,长青街,细颗粒物(PM2.5),62,69,63,44,30,120,,98,98,12,15,5,10,0.5,0.6
2024-05-06T1400,2209A,121.6673,42.0705,阜新市,农业园区,颗粒物(PM10),62,73,60,41,30,125,,100,100,14,17,6,12,0.4,0.6
2024-05-06T1400,2210A,121.6717,42.0224,阜新市,东苑,颗粒物(PM10),67,84,67,35,27,125,,101,101,12,18,5,10,0.4,0.7
2024-05-06T1400,2211A,121.6506,42.0498,阜新市,玉龙新城,颗粒物(PM10),65,80,65,28,23,123,,100,100,13,19,7,15,0.5,0.5
2024-05-06T1400,2301A,115.8277,32.8929,阜阳市,市监测站,,46,46,43,29,32,127,,104,104,8,13,6,6,0.4,0.5
2024-05-06T1400,2303A,115.8554,32.8605,阜阳市,开发区,,40,38,50,20,31,125,,100,100,5,13,4,5,0.4,0.4
2024-05-06T1400,2875A,115.784,32.8892,阜阳市,阜阳职业技术学院,,42,38,49,15,26,132,,106,106,7,13,6,6,0.3,0.4
2024-05-06T1400,3468A,115.7901,32.8613,阜阳市,市规划展馆,,40,34,39,15,27,125,,103,103,4,9,4,4,0.5,0.5
2024-05-06T1400,3469A,115.836,32.9183,阜阳市,枣园社区,,42,42,43,18,29,129,,105,105,8,16,5,5,0.4,0.4
2024-05-06T1400,2669A,102.9099,34.9841,甘南藏族自治州,州政府,,40,39,57,16,26,127,,74,74,1,23,7,9,0.6,0.7
2024-05-06T1400,3380A,102.8914,34.9617,甘南藏族自治州,甘肃民族师范学院,,43,40,71,10,25,135,,80,80,1,29,9,10,0.6,0.6
2024-05-06T1400,2570A,101.9603,30.0475,甘孜藏族自治州,水桥子,,32,11,9,11,8,100,,53,53,5,17,2,2,0.2,0.3
2024-05-06T1400,3065A,101.9533,29.9972,甘孜藏族自治州,州环保局,,31,10,17,9,7,99,,58,58,9,16,1,2,0.2,0.3
2024-05-06T1400,3414A,115.8347,28.932,赣江新区,桑海产业园,,27,27,19,13,6,79,,51,51,17,26,7,7,0.7,0.7
2024-05-06T1400,2363A,114.9367,25.8664,赣州市,地委,,33,22,20,15,12,104,,74,74,2,7,8,10,0.7,0.7
2024-05-06T1400,2364A,114.9461,25.8481,赣州市,气象台,,35,17,20,16,13,112,,75,75,3,5,10,10,0.5,0.5
2024-05-06T1400,2365A,114.9322,25.8333,赣州市,市图书馆,,35,,18,15,12,110,,76,76,4,7,3,7,0.9,0.9
2024-05-06T1400,2366A,114.8905,25.8471,赣州市,华坚鞋城,,36,30,21,16,13,113,,80,80,5,7,12,10,0.6,0.6
2024-05-06T1400,3109A,115.0093,25.8613,赣州市,赣县区卫计委,,35,20,21,15,11,112,,70,70,6,11,10,10,0.6,0.6
2024-05-06T1400,2683A,106.2319,36.1417,固原市,马园,颗粒物(PM10),51,52,79,15,23,137,,87,87,7,34,5,6,0.3,0.4
2024-05-06T1400,2684A,106.2792,36.0022,固原市,监测站,,48,48,82,16,24,132,,96,96,7,24,4,3,0.2,0.4
2024-05-06T1400,2685A,106.2375,36.0211,固原市,新区,颗粒物(PM10),54,57,86,13,21,135,,98,98,6,28,3,3,0.1,0.2
2024-05-06T1400,3522A,106.2177,35.9959,固原市,原州区十五小,颗粒物(PM10),57,63,72,30,25,139,,105,105,6,13,5,4,0.1,0.1
2024-05-06T1400,2544A,106.6303,30.4576,广安市,市委,,,36,67,27,36,132,,87,87,11,26,9,7,,0.9
2024-05-06T1400,2545A,106.6271,30.4663,广安市,友谊中学,,48,48,45,31,33,133,,86,86,16,23,6,6,0.8,0.8
2024-05-06T1400,2547A,106.6388,30.4551,广安市,广电花园,,40,36,52,25,32,126,,84,84,11,21,8,8,0.8,0.8
2024-05-06T1400,2902A,106.6351,30.4865,广安市,北辰小学,,48,48,57,32,33,128,,84,84,20,16,8,8,0.7,0.8
2024-05-06T1400,2523A,105.8945,32.4535,广元市,黑石坡,,43,20,34,9,24,137,,74,74,11,12,10,7,0.6,0.6
2024-05-06T1400,2524A,105.821,32.4444,广元市,老城,,49,46,55,25,27,156,,67,67,12,30,16,8,1.2,1.1
2024-05-06T1400,2526A,105.8628,32.4287,广元市,监测站,,50,22,37,11,26,159,,78,78,7,11,4,4,0.6,0.6
2024-05-06T1400,3617A,105.8047,32.4166,广元市,经开区,细颗粒物(PM2.5),58,62,60,41,41,162,,67,67,13,21,29,11,1.1,0.8
2024-05-06T1400,1345A,113.2347,23.1423,广州市,广雅中学,臭氧1小时,88,44,43,29,30,190,,64,64,29,51,6,5,0.9,0.9
2024-05-06T1400,1346A,113.2612,23.105,广州市,市五中,臭氧1小时,108,48,45,35,35,216,,80,80,25,44,7,7,0.9,0.9
2024-05-06T1400,1348A,113.3478,23.0916,广州市,广东商学院,臭氧1小时,109,52,54,41,36,218,,85,85,24,56,5,5,0.7,0.8
2024-05-06T1400,1349A,113.4332,23.1047,广州市,市八十六中,臭氧1小时,112,47,53,36,32,224,,76,76,22,60,5,5,0.4,0.5
2024-05-06T1400,1350A,113.3505,22.9483,广州市,番禺中学,臭氧1小时,72,36,33,20,20,177,,74,74,20,41,4,4,0.7,0.7
2024-05-06T1400,1351A,113.2146,23.3916,广州市,花都师范,臭氧1小时,52,29,55,21,34,161,,83,83,13,43,5,6,0.7,0.8
2024-05-06T1400,1352A,113.2597,23.1331,广州市,市监测站,臭氧1小时,83,45,44,28,27,186,,66,66,24,42,6,6,0.6,0.6
2024-05-06T1400,1353A,113.5618,23.312,广州市,九龙镇镇龙,,43,40,48,24,32,136,,72,72,14,35,6,6,0.6,0.7
2024-05-06T1400,1354A,113.2765,23.1544,广州市,麓湖,臭氧1小时,102,47,47,31,31,203,,67,67,21,43,5,5,0.7,0.8
2024-05-06T1400,1355A,113.443,23.3035,广州市,帽峰山森林公园,,43,29,37,18,23,135,,66,66,9,19,5,5,0.5,0.6
2024-05-06T1400,2846A,113.3221,23.1322,广州市,体育西,臭氧1小时,104,45,48,33,34,208,,77,77,14,45,5,6,0.8,0.9
2024-05-06T1400,3298A,113.5717,23.5491,广州市,从化街口,,46,36,39,32,29,145,,86,86,11,23,5,5,0.6,0.7
2024-05-06T1400,3299A,113.3472,23.3692,广州市,白云竹料,臭氧1小时,85,34,59,24,41,188,,88,88,17,35,6,6,0.7,0.8
2024-05-06T1400,3300A,113.2981,23.237,广州市,白云嘉禾,臭氧1小时,78,40,58,25,36,182,,61,61,24,50,5,5,0.8,1
2024-05-06T1400,3301A,113.4256,23.1716,广州市,黄埔科学城,臭氧1小时,92,34,61,32,44,193,,70,70,22,40,4,4,0.7,0.9
2024-05-06T1400,3302A,113.3942,23.0483,广州市,番禺大学城,臭氧1小时,97,56,56,30,27,197,,76,76,27,49,8,9,0.7,0.7
2024-05-06T1400,3303A,113.4922,22.8168,广州市,南沙黄阁,,48,48,36,26,25,144,,56,56,24,42,6,6,0.7,0.8
2024-05-06T1400,3304A,113.5342,22.7896,广州市,南沙街,,44,44,29,15,21,129,,59,59,22,28,7,6,0.7,0.6
2024-05-06T1400,3443A,113.2902,23.5544,广州市,花都梯面,,43,36,45,25,33,135,,76,76,10,22,4,4,0.7,0.7
2024-05-06T1400,3445A,113.7858,23.7478,广州市,从化良口,,45,32,22,27,16,142,,81,81,6,8,5,4,0.6,0.6
2024-05-06T1400,3446A,113.8051,23.2614,广州市,增城荔城,,45,27,40,22,25,142,,83,83,8,19,4,6,0.6,1
2024-05-06T1400,2506A,109.6047,23.0666,贵港市,江南子站,,25,24,49,17,27,46,,38,38,16,26,8,8,0.8,0.8
2024-05-06T1400,2507A,109.6014,23.0948,贵港市,贵城子站,,43,43,41,16,24,44,,39,39,15,19,8,8,0.7,0.7
2024-05-06T1400,2508A,109.5669,23.1065,贵港市,荷城子站,,18,17,30,12,13,39,,45,42,17,16,9,10,0.7,0.6
2024-05-06T1400,1439A,106.6899,26.5998,贵阳市,马鞍山,,27,27,32,7,17,75,,49,49,15,15,8,8,0.3,0.5
2024-05-06T1400,1440A,106.6971,26.5694,贵阳市,市环保站,,26,22,43,18,32,75,,53,53,19,28,4,5,0.4,0.5
2024-05-06T1400,1441A,106.6243,26.6266,贵阳市,鉴湖路,,25,22,32,9,19,80,,72,72,8,13,2,3,0.5,0.5
2024-05-06T1400,1442A,106.7487,26.6343,贵阳市,燕子冲,,25,17,34,12,24,79,,54,54,11,13,5,8,0.6,0.5
2024-05-06T1400,1443A,106.6555,26.4365,贵阳市,碧云窝,,25,17,35,9,18,78,,59,59,9,14,5,7,0.7,0.6
2024-05-06T1400,1444A,106.694,26.5161,贵阳市,中院村,,24,24,41,9,25,64,,47,47,12,27,7,9,0.5,0.6
2024-05-06T1400,1445A,106.7109,26.6027,贵阳市,红边门,,28,24,39,19,34,74,,55,55,21,25,5,6,0.5,0.5
2024-05-06T1400,1446A,106.7164,26.5699,贵阳市,新华路,,26,24,39,12,27,81,,61,61,14,23,4,6,0.6,0.5
2024-05-06T1400,1447A,106.674,26.5424,贵阳市,太慈桥,,25,17,37,7,21,80,,53,53,9,28,5,7,0.5,0.6
2024-05-06T1400,1862A,110.4144,25.3167,桂林市,电子科大尧山校区,,22,22,24,15,14,68,,47,47,5,5,5,7,0.8,0.8
2024-05-06T1400,1863A,110.2819,25.2697,桂林市,监测站,细颗粒物(PM2.5),52,49,33,36,22,67,,36,36,14,13,6,14,0.9,0.9
2024-05-06T1400,1864A,110.3089,25.2708,桂林市,龙隐路小学,,41,41,31,28,19,60,,35,33,15,12,8,16,0.9,0.9
2024-05-06T1400,1865A,110.2869,25.2178,桂林市,八中,,33,33,27,21,15,58,,34,34,13,13,6,10,0.9,0.9
2024-05-06T1400,3403A,110.1764,25.2381,桂林市,创业大厦,,42,34,29,29,20,76,,31,31,10,15,8,10,0.8,0.8
2024-05-06T1400,3531A,110.296,25.1253,桂林市,旅游学院,,19,19,15,12,11,51,,33,33,6,11,7,7,0.8,0.8
2024-05-06T1400,2674A,100.2561,34.4714,果洛藏族自治州,玛沁县大武镇,,38,37,36,10,19,120,,89,89,4,7,16,16,0.4,0.4
2024-05-06T1400,1129A,126.5422,45.755,哈尔滨市,岭北,颗粒物(PM10),57,64,74,31,50,103,,86,86,10,16,10,9,0.2,0.4
2024-05-06T1400,1130A,126.561,45.8167,哈尔滨市,松北商大,颗粒物(PM10),55,60,72,28,44,102,,84,84,8,16,5,6,0.4,0.5
2024-05-06T1400,1131A,126.979,45.5419,哈尔滨市,阿城会宁,颗粒物(PM10),54,58,101,22,54,85,,78,75,6,15,2,3,0.4,0.5
2024-05-06T1400,1132A,126.599,45.7222,哈尔滨市,南岗学府路,颗粒物(PM10),51,52,91,21,46,100,,84,83,10,14,4,9,0.2,0.6
2024-05-06T1400,1133A,126.689,45.7733,哈尔滨市,太平宏伟公园,,,,115,32,56,90,,76,76,7,21,2,6,0.4,0.5
2024-05-06T1400,1134A,126.635,45.7667,哈尔滨市,道外承德广场,颗粒物(PM10),52,54,84,23,50,93,,75,74,13,17,7,7,0.3,0.2
2024-05-06T1400,1135A,126.685,45.7319,哈尔滨市,香坊红旗大街,细颗粒物(PM2.5),57,55,91,40,53,95,,81,80,10,16,4,4,0.5,0.5
2024-05-06T1400,1136A,126.6411,45.7258,哈尔滨市,动力和平路,细颗粒物(PM2.5),68,,84,49,45,96,,82,80,11,16,5,6,0.5,0.5
2024-05-06T1400,1137A,126.593,45.7478,哈尔滨市,道里建国路,颗粒物(PM10),55,60,91,32,49,99,,82,81,11,16,5,6,0.5,0.4
2024-05-06T1400,1138A,126.615,45.61,哈尔滨市,平房东轻厂,,,61,101,31,45,78,,70,70,,27,8,8,0.3,0.4
2024-05-06T1400,1139A,126.595,45.9855,哈尔滨市,呼兰师专,细颗粒物(PM2.5),72,68,78,52,58,101,,82,82,16,18,6,6,0.5,0.6
2024-05-06T1400,1140A,126.6206,45.6842,哈尔滨市,省农科院,细颗粒物(PM2.5),57,44,97,40,52,99,,83,81,13,19,8,9,0.4,0.5
2024-05-06T1400,2688A,93.5128,42.8172,哈密市,地区监测站,,36,24,44,24,21,114,,102,102,6,15,3,3,0.2,0.2
2024-05-06T1400,2689A,93.4961,42.8328,哈密市,哈密师范学校,,39,39,49,23,26,113,,92,91,2,16,5,5,0.2,0.4
2024-05-06T1400,2671A,100.9048,36.9639,海北藏族自治州,海晏县西海镇,颗粒物(PM10),58,66,63,16,20,141,,96,96,5,8,16,13,0.4,0.4
2024-05-06T1400,3867A,102.0738,36.5056,海东市,平安区公安北苑,颗粒物(PM10),52,54,71,29,37,132,,76,76,5,12,9,10,0.4,0.4
2024-05-06T1400,1410A,110.3232,20.0574,海口市,海南大学,,23,23,29,15,17,66,,60,60,3,6,4,4,0.3,0.4
2024-05-06T1400,1411A,110.283,20.0053,海口市,秀英海南医院,,49,49,35,18,21,86,,60,60,5,10,5,5,0.3,0.4
2024-05-06T1400,1412A,110.338,19.9969,海口市,海南师范大学,,33,33,29,17,18,81,,60,60,1,5,6,6,0.3,0.4
2024-05-06T1400,1413A,110.33,20.0356,海口市,龙华路环保局宿舍,,30,30,31,15,19,65,,56,56,3,6,6,6,0.3,0.4
2024-05-06T1400,3539A,110.5111,19.9736,海口市,桂林洋子站,,20,15,28,12,19,64,,46,46,4,7,5,5,0.2,0.3
2024-05-06T1400,2673A,100.6188,36.2866,海南藏族自治州,共和县恰卜恰镇,,,,55,47,27,138,,97,97,6,18,11,13,,0.5
2024-05-06T1400,2676A,97.3731,37.3753,海西蒙古族藏族自治州,德令哈市,,44,34,47,8,19,138,,116,116,5,4,6,7,0.5,0.5
2024-05-06T1400,1048A,114.5302,36.6116,邯郸市,东污水处理厂,细颗粒物(PM2.5),107,107,60,80,54,123,,65,65,9,13,14,8,1.0,0.5
2024-05-06T1400,1049A,114.4918,36.5713,邯郸市,矿院,细颗粒物(PM2.5),92,114,72,68,50,137,,63,63,16,21,15,9,1.1,0.6
2024-05-06T1400,1050A,114.484,36.6133,邯郸市,丛台公园,细颗粒物(PM2.5),89,68,64,66,47,133,,75,75,5,8,17,8,1.0,0.5
2024-05-06T1400,3458A,114.7895,36.5593,邯郸市,香泉濮院小区,细颗粒物(PM2.5),82,81,71,60,51,144,,75,75,6,14,11,14,0.5,0.3
2024-05-06T1400,3579A,114.50634,36.77178,邯郸市,永年区实验高中,细颗粒物(PM2.5),77,74,88,56,56,157,,79,79,12,24,22,18,1.2,0.5
2024-05-06T1400,3580A,114.20016,36.44293,邯郸市,峰峰矿区临水派出所,细颗粒物(PM2.5),88,70,70,65,48,155,,72,72,10,15,17,7,1.1,0.6
2024-05-06T1400,2634A,106.9893,33.1842,汉中市,汉川机床厂子校,颗粒物(PM10),52,54,41,28,25,154,,97,97,7,10,8,8,0.6,0.5
2024-05-06T1400,2635A,107.0154,33.0706,汉中市,市监测站,颗粒物(PM10),53,55,52,31,29,154,,87,87,7,13,13,11,0.8,0.8
2024-05-06T1400,2636A,107.0089,33.1138,汉中市,鑫源开发区,臭氧1小时,57,62,47,31,28,165,,90,90,8,14,17,16,0.8,0.8
2024-05-06T1400,2637A,107.007,33.0323,汉中市,南郑大河坎水厂,,,43,47,26,28,150,,77,77,4,11,9,8,,0.7
2024-05-06T1400,1223A,120.2072,30.2111,杭州市,滨江,,40,9,27,6,15,126,,80,80,4,16,4,4,0.7,0.8
2024-05-06T1400,1224A,120.0633,30.2747,杭州市,西溪,,35,8,22,6,15,112,,72,72,9,16,6,6,0.6,0.7
2024-05-06T1400,1226A,120.3461,30.3153,杭州市,下沙,,43,16,26,9,15,136,,75,75,5,22,5,5,0.6,0.8
2024-05-06T1400,1227A,120.1269,30.2456,杭州市,卧龙桥,,36,13,20,6,16,114,,75,75,8,14,4,4,0.7,0.8
2024-05-06T1400,1228A,120.1903,30.2692,杭州市,浙江农大,,36,9,20,5,17,113,,69,69,12,20,6,6,0.7,0.8
2024-05-06T1400,1230A,120.1197,30.3119,杭州市,和睦小学,,37,8,28,7,14,118,,77,77,6,14,6,6,0.7,0.9
2024-05-06T1400,1231A,120.3019,30.4183,杭州市,临平镇,,45,11,22,5,17,142,,82,82,8,13,4,4,0.6,0.8
2024-05-06T1400,1232A,120.2697,30.1819,杭州市,城厢镇,,39,16,24,10,19,124,,79,79,9,20,5,5,0.8,1
2024-05-06T1400,1233A,120.0883,30.1808,杭州市,云栖,,40,15,31,8,16,125,,74,74,13,20,7,7,0.7,0.8
2024-05-06T1400,3557A,119.9464,30.0494,杭州市,镇二中,,35,11,25,4,18,112,,74,74,13,25,7,7,0.7,1
2024-05-06T1400,3558A,119.7183,30.2367,杭州市,市府大楼,,33,,19,4,15,105,,75,75,11,19,5,5,0.7,0.8
2024-05-06T1400,3656A,120.1556,30.2864,杭州市,消防大队,,37,,20,7,16,116,,75,75,9,19,8,8,0.9,1
2024-05-06T1400,1270A,117.1959,31.7848,合肥市,明珠广场,,38,24,43,12,30,119,,67,67,14,26,6,6,0.6,0.8
2024-05-06T1400,1271A,117.3072,31.8764,合肥市,三里街,,39,34,46,9,25,124,,57,57,14,32,6,6,0.4,0.6
2024-05-06T1400,1272A,117.2588,31.8707,合肥市,琥珀山庄,,41,29,42,9,20,130,,70,70,12,22,4,3,0.7,0.8
2024-05-06T1400,1273A,117.1604,31.9052,合肥市,董铺水库,,40,24,35,12,21,125,,75,75,7,18,2,2,0.4,0.5
2024-05-06T1400,1274A,117.25,31.8571,合肥市,长江中路,,40,29,46,15,27,126,,68,68,10,19,4,4,0.5,0.6
2024-05-06T1400,1275A,117.266,31.9436,合肥市,庐阳区,,42,24,44,12,25,132,,81,81,7,20,3,3,0.3,0.5
2024-05-06T1400,1276A,117.336,31.8586,合肥市,瑶海区,,44,44,42,20,25,123,,65,65,15,27,7,7,0.8,0.8
2024-05-06T1400,1277A,117.3027,31.7964,合肥市,包河区,,39,29,39,22,24,123,,70,70,10,26,6,5,0.4,0.5
2024-05-06T1400,1278A,117.2776,31.7385,合肥市,滨湖新区,,39,39,35,22,24,115,,67,67,6,21,5,5,0.5,0.6
2024-05-06T1400,1279A,117.1318,31.8403,合肥市,高新区,,37,24,37,13,27,116,,65,65,9,18,6,6,0.6,0.7
2024-05-06T1400,3464A,117.3803,31.9147,合肥市,高教基地,,,25,36,,15,127,,71,71,14,21,4,4,0.4,0.5
2024-05-06T1400,3614A,79.924,37.0877,和田地区,地区环保局,颗粒物(PM10),378,482,914,170,235,107,,99,99,2,9,7,6,,0.3
2024-05-06T1400,3615A,79.9131,37.113,和田地区,市环保局,颗粒物(PM10),352,461,867,117,169,96,,87,87,7,20,6,6,0.5,0.5
2024-05-06T1400,2516A,108.2011,24.715,河池市,东仁乐园,,38,38,33,17,13,16,,8,8,7,12,3,3,0.9,0.8
2024-05-06T1400,2517A,108.0497,24.6947,河池市,市环保站,,28,27,25,19,14,77,,39,39,11,16,7,9,0.7,0.6
2024-05-06T1400,2518A,108.0983,24.6989,河池市,市疾控中心,,,26,29,17,16,72,,32,32,,21,10,9,0.8,0.7
2024-05-06T1400,1696A,114.6778,23.7569,河源市,源西,,39,29,26,15,26,124,,80,80,7,20,4,4,0.6,0.7
2024-05-06T1400,1697A,114.6944,23.7586,河源市,东埔,,40,40,45,21,20,126,,81,81,10,22,6,6,0.6,0.7
2024-05-06T1400,1698A,114.6892,23.7233,河源市,老城,,39,29,24,20,14,123,,73,73,3,12,5,5,0.6,0.6
2024-05-06T1400,1718A,115.4208,35.2464,菏泽市,气象局,臭氧1小时,59,60,78,28,47,167,,121,121,12,25,4,6,0.5,0.6
2024-05-06T1400,1719A,115.4747,35.2375,菏泽市,市政协,臭氧1小时,57,58,78,35,53,165,,116,116,10,20,6,7,0.2,0.4
2024-05-06T1400,3374A,115.5564,35.0891,菏泽市,定陶老年大学,臭氧1小时,58,63,78,31,57,166,,105,105,11,18,7,8,0.5,0.6
2024-05-06T1400,3647A,115.4702,35.2706,菏泽市,菏泽医专,臭氧1小时,58,56,72,20,48,166,,117,117,8,26,4,6,0.4,0.5
2024-05-06T1400,2514A,111.5264,24.4172,贺州市,环保小区,,36,,28,25,15,63,,38,38,12,14,9,7,0.8,0.7
2024-05-06T1400,2515A,111.5608,24.4078,贺州市,政协大楼,,28,28,25,11,13,62,,33,33,13,19,9,8,0.8,0.7
2024-05-06T1400,3534A,111.4744,24.4553,贺州市,西湾,,36,36,29,19,14,63,,35,35,11,15,10,10,0.6,0.6
2024-05-06T1400,2385A,114.17,35.9019,鹤壁市,市监测站,细颗粒物(PM2.5),93,84,108,69,84,162,,95,95,14,32,16,12,0.6,0.7
2024-05-06T1400,2386A,114.2956,35.7511,鹤壁市,市交警支队,,49,43,85,34,64,156,,96,96,6,24,11,13,0.4,0.7
2024-05-06T1400,2387A,114.2878,35.7306,鹤壁市,迎宾馆,颗粒物(PM10),54,57,89,30,62,158,,99,99,10,29,17,14,0.4,0.7
2024-05-06T1400,3474A,114.2617,35.6822,鹤壁市,大新区,细颗粒物(PM2.5),62,55,75,44,72,150,,91,91,7,23,14,11,0.5,0.7
2024-05-06T1400,3596A,114.1572,35.9603,鹤壁市,南山宾馆,细颗粒物(PM2.5),98,95,106,73,83,158,,87,87,11,23,14,13,1.0,1
2024-05-06T1400,2244A,130.2537,47.3416,鹤岗市,哈啤分公司,,29,29,50,18,33,75,,66,66,6,9,10,11,0.4,0.5
2024-05-06T1400,2245A,130.2684,47.3086,鹤岗市,斯达机电,,25,18,50,5,36,79,,69,69,6,11,10,11,0.4,0.6
2024-05-06T1400,2246A,130.3114,47.3388,鹤岗市,东山纸板厂,,25,24,70,14,37,77,,67,67,6,12,11,12,0.3,0.4
2024-05-06T1400,2247A,130.1097,47.3382,鹤岗市,五号水库,,29,19,49,8,30,92,,81,81,5,10,9,10,0.6,0.6
2024-05-06T1400,2263A,127.4833,50.2524,黑河市,交通局,,29,18,29,11,18,92,,74,74,6,15,6,6,0.4,0.5
2024-05-06T1400,2264A,127.5144,50.2341,黑河市,环保局,,28,11,17,11,19,88,,73,73,5,13,4,6,0.3,0.3
2024-05-06T1400,2265A,127.5291,50.2472,黑河市,大黑河岛,,22,22,22,15,17,69,,65,65,7,14,5,8,0.4,0.4
2024-05-06T1400,1074A,115.6838,37.7541,衡水市,电机北厂,,47,36,50,21,39,148,,98,98,6,12,4,4,0.5,0.5
2024-05-06T1400,1075A,115.6303,37.7316,衡水市,市监测站,,48,48,56,20,41,149,,88,88,10,18,8,8,0.7,0.7
2024-05-06T1400,3188A,115.6683,37.7217,衡水市,市城管局,,46,35,55,23,44,147,,91,91,7,14,2,2,0.4,0.4
2024-05-06T1400,3459A,115.5989,37.5491,衡水市,地表水厂,,49,42,57,21,38,156,,92,92,8,18,8,7,0.5,0.5
2024-05-06T1400,2456A,112.5003,26.9167,衡阳市,原169医院,颗粒物(PM10),52,54,51,26,29,102,,55,55,11,19,12,8,1.1,0.9
2024-05-06T1400,2457A,112.6194,26.9258,衡阳市,衡阳化工总厂,,46,46,62,22,41,121,,66,66,5,20,12,11,0.6,0.7
2024-05-06T1400,2458A,112.6211,26.8956,衡阳市,珠晖区环保局,,42,42,63,22,42,118,,68,68,6,24,10,10,0.9,1
2024-05-06T1400,2459A,112.6197,26.8733,衡阳市,市委党校,,37,37,68,14,45,106,,66,66,4,16,13,13,0.8,0.9
2024-05-06T1400,2460A,112.6006,26.8919,衡阳市,市监测站,,39,39,59,26,47,120,,68,68,7,22,10,9,0.8,1
2024-05-06T1400,2461A,112.5664,26.9056,衡阳市,真空机电公司,,42,42,64,27,44,108,,53,53,11,24,13,12,1.0,1
2024-05-06T1400,3399A,112.6703,26.882,衡阳市,师范学院,细颗粒物(PM2.5),52,38,69,36,59,104,,62,62,3,10,17,10,0.8,0.9
2024-05-06T1400,2608A,103.3772,23.3993,红河哈尼族彝族自治州,污水处理厂,,37,25,46,15,33,116,,98,98,8,10,6,10,0.5,0.6
2024-05-06T1400,2609A,103.3861,23.35,红河哈尼族彝族自治州,监测站,,38,23,49,12,33,119,,104,101,8,11,8,17,0.6,0.7
2024-05-06T1400,3038A,103.3758,23.368,红河哈尼族彝族自治州,州图书馆,,37,26,47,10,32,117,,103,98,6,8,5,10,0.5,0.6
2024-05-06T1400,1090A,111.6507,40.7517,呼和浩特市,呼市一监,,36,36,48,9,18,113,,79,79,8,22,5,6,0.3,0.5
2024-05-06T1400,1091A,111.6572,40.8033,呼和浩特市,小召,,46,46,48,11,19,112,,80,80,6,24,4,6,0.3,0.5
2024-05-06T1400,1094A,111.7516,40.8369,呼和浩特市,如意水处理厂,,33,13,43,3,12,105,,74,74,3,26,5,6,0.3,0.4
2024-05-06T1400,1095A,111.7276,40.8062,呼和浩特市,二十九中,,36,29,53,3,14,113,,78,78,6,26,2,3,0.3,0.5
2024-05-06T1400,1096A,111.5512,40.7866,呼和浩特市,工大金川校区,,33,27,31,8,20,105,,64,64,5,29,5,7,0.2,0.4
2024-05-06T1400,1097A,111.717,40.7612,呼和浩特市,化肥厂生活区,,35,23,43,12,20,112,,75,75,6,23,6,7,0.2,0.4
2024-05-06T1400,3698A,111.5968,40.8178,呼和浩特市,红旗小学,,36,17,55,7,24,114,,72,72,6,30,3,5,0.2,0.4
2024-05-06T1400,3699A,111.6518,40.8389,呼和浩特市,海东办,,35,12,46,4,19,112,,79,79,5,29,6,8,0.3,0.3
2024-05-06T1400,2192A,119.7594,49.2261,呼伦贝尔市,区环保局,,31,18,32,10,17,98,,77,77,8,17,4,5,0.3,0.3
2024-05-06T1400,3061A,119.7512,49.1577,呼伦贝尔市,国华电力东,,32,11,29,5,10,102,,82,82,4,10,4,4,0.2,0.2
2024-05-06T1400,1250A,120.0751,30.8669,湖州市,城西水厂,,40,20,30,12,17,127,,84,84,26,28,4,4,0.7,0.8
2024-05-06T1400,2873A,120.0875,30.8955,湖州市,仁皇山新区,,45,17,23,13,19,142,,86,86,13,34,5,6,0.8,0.9
2024-05-06T1400,2907A,120.1844,30.8596,湖州市,吴兴区站,,45,22,21,12,16,143,,98,98,7,12,4,5,0.5,0.7
2024-05-06T1400,3562A,120.4148,30.8538,湖州市,南浔区站,,46,27,23,14,20,147,,95,95,10,14,5,5,0.4,0.6
2024-05-06T1400,1607A,120.9092,40.7136,葫芦岛市,龙港区,,,83,67,25,31,110,,97,97,,25,10,11,,0.6
2024-05-06T1400,1608A,120.8392,40.7514,葫芦岛市,化工街,颗粒物(PM10),64,78,76,24,29,116,,103,103,13,34,9,14,0.4,0.5
2024-05-06T1400,1609A,120.8341,40.7073,葫芦岛市,新区,颗粒物(PM10),60,69,62,23,28,116,,104,104,14,27,10,10,0.6,0.7
2024-05-06T1400,1610A,120.8695,40.7677,葫芦岛市,东城区,颗粒物(PM10),56,62,63,21,30,117,,105,105,11,28,6,17,0.6,0.7
2024-05-06T1400,2482A,109.5981,27.5721,怀化市,林科所,,33,30,23,21,13,104,,55,55,1,3,10,8,1.0,1
2024-05-06T1400,2483A,109.9453,27.5444,怀化市,河西地税局,,33,32,28,23,20,82,,38,38,13,12,6,5,0.8,0.7
2024-05-06T1400,2484A,109.9781,27.5342,怀化市,市四医院,,35,35,33,18,22,87,,46,46,9,19,5,5,0.9,0.9
2024-05-06T1400,2485A,109.9972,27.5578,怀化市,监测楼,,32,32,35,19,21,86,,45,45,10,20,11,10,0.9,0.8
2024-05-06T1400,2486A,110.0394,27.583,怀化市,市委党校,,30,24,30,13,18,95,,45,45,9,16,6,9,0.9,0.9
2024-05-06T1400,1210A,119.036,33.5981,淮安市,钵池山,细颗粒物(PM2.5),69,53,44,50,45,115,,86,86,11,16,9,8,0.7,0.9
2024-05-06T1400,1211A,119.007,33.575,淮安市,北京南路,细颗粒物(PM2.5),69,53,41,50,49,129,,85,85,11,21,9,8,0.4,0.7
2024-05-06T1400,1212A,118.989,33.6067,淮安市,市监测站,细颗粒物(PM2.5),64,61,41,46,35,123,,81,81,14,19,7,6,0.7,0.7
2024-05-06T1400,1213A,119.135,33.5039,淮安市,楚州区监测站,颗粒物(PM10),62,73,46,41,46,131,,87,87,16,21,9,7,0.6,0.7
2024-05-06T1400,1214A,119.0186,33.6297,淮安市,淮阴区监测站,细颗粒物(PM2.5),77,66,45,56,47,115,,86,86,15,23,8,6,0.5,0.6
2024-05-06T1400,3426A,118.8755,33.2894,淮安市,新华书店,颗粒物(PM10),56,62,38,38,26,131,,91,91,12,15,6,5,0.6,0.6
2024-05-06T1400,2282A,116.8004,33.975,淮北市,监测站,,49,49,57,21,35,148,,100,100,8,16,5,6,0.5,0.7
2024-05-06T1400,2283A,116.8091,33.9007,淮北市,烈山区政府,,,,82,,54,137,,92,92,6,20,5,6,0.5,0.6
2024-05-06T1400,3330A,116.8873,33.9836,淮北市,杜集区检察院,细颗粒物(PM2.5),60,51,73,43,64,156,,102,102,9,16,7,5,0.5,0.7
2024-05-06T1400,4017A,116.7923,33.9535,淮北市,市博物馆,,50,50,53,24,33,152,,104,104,3,9,5,6,0.6,0.7
2024-05-06T1400,2277A,116.8305,32.7727,淮南市,潘集区政府,,43,39,45,26,31,136,,99,99,5,12,5,5,0.3,0.3
2024-05-06T1400,2278A,117.0067,32.6524,淮南市,师范学院,,41,40,46,26,33,129,,92,92,6,11,8,8,0.2,0.3
2024-05-06T1400,2279A,116.8569,32.5951,淮南市,谢家集区政府,,40,34,38,6,22,128,,88,88,8,15,4,4,0.2,0.2
2024-05-06T1400,2280A,116.8281,32.633,淮南市,八公山区政府,,48,48,54,22,38,121,,92,92,6,9,3,2,0.3,0.4
2024-05-06T1400,2281A,116.6325,32.6201,淮南市,焦岗湖风景区管理处,,37,37,47,11,19,89,,64,64,6,10,4,4,0.2,0.2
2024-05-06T1400,2894A,117.0566,32.6531,淮南市,经济技术开发区消防队,,50,50,42,18,28,133,,97,97,13,17,7,4,0.3,0.4
2024-05-06T1400,3329A,117.0108,32.5893,淮南市,山南新区,,46,46,45,13,24,137,,95,95,11,15,5,4,0.4,0.4
2024-05-06T1400,2446A,114.9028,30.4742,黄冈市,职工中心,,38,30,58,18,40,119,,87,87,2,13,7,8,0.6,0.6
2024-05-06T1400,2929A,114.8858,30.4519,黄冈市,红卫路,,36,23,47,16,35,114,,80,80,2,14,8,8,0.5,0.7
2024-05-06T1400,3398A,114.9136,30.4445,黄冈市,市林业局,,43,29,49,20,38,136,,91,91,2,13,7,5,0.6,0.5
2024-05-06T1400,2672A,102.0199,35.5102,黄南藏族自治州,同仁县隆务镇,,42,33,43,20,20,132,,92,92,2,6,9,12,0.2,0.3
2024-05-06T1400,2295A,118.2903,29.6963,黄山市,延安路89号,,29,17,22,7,5,91,,72,72,2,4,7,7,0.6,0.7
2024-05-06T1400,2296A,118.327,29.7178,黄山市,黄山东路89号,,29,16,17,6,6,90,,75,75,4,6,5,5,0.5,0.6
2024-05-06T1400,2297A,118.1371,30.2756,黄山市,黄山区政府5号楼,,32,22,10,8,7,102,,75,75,5,6,4,4,0.5,0.7
2024-05-06T1400,2423A,115.0601,30.2313,黄石市,沈家营,,43,34,42,13,23,136,,72,72,12,21,10,10,1.1,0.8
2024-05-06T1400,2424A,115.0817,30.2006,黄石市,陈家湾,,,41,46,21,25,123,,61,61,21,19,12,8,,0.7
2024-05-06T1400,2426A,114.8988,30.2019,黄石市,铁山,,43,29,34,10,17,137,,87,87,4,10,4,19,0.8,0.8
2024-05-06T1400,2427A,115.0307,30.2092,黄石市,团城山,,,42,43,12,18,132,,66,66,,23,10,9,0.8,0.7
2024-05-06T1400,3149A,115.0235,30.1578,黄石市,笔架山北路,,44,27,44,8,21,139,,82,82,4,16,9,11,0.5,0.5
2024-05-06T1400,1392A,114.4183,23.0528,惠州市,河南岸金山湖子站,,42,31,36,22,21,134,,74,74,6,19,4,5,0.6,0.7
2024-05-06T1400,1393A,114.4053,23.0822,惠州市,下埔横江三路子站,,47,29,42,16,26,150,,85,85,7,23,6,6,0.6,0.9
2024-05-06T1400,1394A,114.4103,23.1142,惠州市,江北云山西路子站,,49,26,41,12,19,156,,91,91,3,27,6,6,0.8,1
2024-05-06T1400,1395A,114.4645,22.7833,惠州市,惠阳区承修路船湖子站,,50,31,20,18,12,159,,85,85,12,18,3,4,0.4,0.4
2024-05-06T1400,1396A,114.5317,22.7422,惠州市,大亚湾管委会子站,,49,31,22,20,11,154,,92,92,14,24,5,4,0.7,0.8
2024-05-06T1400,3314A,114.4338,22.8134,惠州市,惠阳秋长,臭氧1小时,65,44,33,20,13,172,,100,100,10,18,5,5,0.5,0.7
2024-05-06T1400,3452A,114.6517,22.775,惠州市,大亚湾霞涌,,45,45,16,12,6,127,,86,86,12,13,8,6,0.5,0.5
2024-05-06T1400,2240A,130.9762,45.3001,鸡西市,环保局,颗粒物(PM10),56,61,76,16,42,74,,76,64,3,10,5,6,0.4,0.6
2024-05-06T1400,2243A,130.9429,45.3039,鸡西市,第一中学,,,70,78,10,40,86,,85,70,4,10,7,8,,0.4
2024-05-06T1400,3707A,131.0207,45.3073,鸡西市,欧美日汽修厂,,,28,79,,54,78,,74,66,,14,2,4,0.2,0.5
2024-05-06T1400,3709A,130.9967,45.3106,鸡西市,市政设施管理处,颗粒物(PM10),80,109,77,22,44,79,,68,60,13,16,6,7,0.2,0.5
2024-05-06T1400,2367A,114.9754,27.0803,吉安市,红声器材厂,,38,30,27,10,11,120,,77,77,12,16,11,11,0.6,0.6
2024-05-06T1400,2368A,114.9658,27.0999,吉安市,市森林工业局,,38,22,25,13,16,120,,77,77,11,13,12,12,0.5,0.6
2024-05-06T1400,2369A,114.99,27.1312,吉安市,市环境监测站,,37,26,24,14,13,116,,73,73,9,13,13,15,0.6,0.6
2024-05-06T1400,2370A,115.0093,27.0968,吉安市,青原区法院,,38,25,26,15,14,121,,74,74,14,20,14,15,0.6,0.6
2024-05-06T1400,1772A,126.54,43.8622,吉林市,哈达湾,颗粒物(PM10),60,70,38,40,25,107,,93,76,11,16,6,6,0.6,0.6
2024-05-06T1400,1773A,126.5844,43.8358,吉林市,东局子,细颗粒物(PM2.5),54,55,36,38,22,110,,80,80,12,18,4,4,0.6,0.6
2024-05-06T1400,1774A,126.5052,43.8245,吉林市,电力学院,颗粒物(PM10),59,68,40,38,21,110,,92,80,16,16,13,10,0.6,0.5
2024-05-06T1400,1775A,126.6133,43.8972,吉林市,江北,颗粒物(PM10),57,64,38,36,23,107,,73,73,13,21,7,7,0.7,0.6
2024-05-06T1400,1776A,126.555,43.8306,吉林市,江南公园,细颗粒物(PM2.5),65,61,34,47,22,101,,83,73,14,19,5,5,0.6,0.5
2024-05-06T1400,2868A,126.4739,43.953,吉林市,九站,颗粒物(PM10),64,78,50,42,32,96,,71,66,16,19,30,15,0.7,0.6
2024-05-06T1400,1299A,116.9862,36.6114,济南市,科干所,颗粒物(PM10),59,68,77,32,38,145,,109,109,21,25,7,7,0.8,0.8
2024-05-06T1400,1300A,116.9376,36.665,济南市,农科所,颗粒物(PM10),51,51,71,29,41,143,,91,91,14,31,5,5,0.6,0.7
2024-05-06T1400,1301A,117.1265,36.6734,济南市,开发区,,48,42,62,24,38,151,,115,115,17,24,8,8,0.6,0.7
2024-05-06T1400,1303A,117.0624,36.6868,济南市,省种子仓库,,48,34,71,14,43,152,,102,102,9,29,3,5,0.4,0.5
2024-05-06T1400,1304A,116.9489,36.6447,济南市,机床二厂,颗粒物(PM10),56,61,78,29,46,150,,112,112,13,24,6,5,0.7,0.7
2024-05-06T1400,1305A,117.0495,36.663,济南市,市监测站,,50,39,64,17,34,158,,117,117,17,29,8,10,0.3,0.4
2024-05-06T1400,1306A,116.7675,36.5484,济南市,长清党校,,46,29,68,17,51,146,,104,104,10,23,6,6,0.5,0.6
2024-05-06T1400,1616A,117.6795,36.229,济南市,技术学院,,45,22,70,12,53,142,,98,98,13,24,8,9,0.4,0.7
2024-05-06T1400,1961A,117.532,36.6868,济南市,东山小学,,48,42,70,24,46,152,,99,99,10,26,6,6,0.3,0.5
2024-05-06T1400,3059A,117.7161,36.2049,济南市,泰兴公司,,43,17,70,12,55,136,,89,89,12,22,9,9,0.7,0.9
2024-05-06T1400,3064A,117.6867,36.2171,济南市,莱芜战役纪念馆,,42,31,74,12,53,132,,89,89,15,22,8,7,0.6,1
2024-05-06T1400,3494A,117.1673,36.9782,济南市,济阳区政府,,45,39,66,20,37,142,,86,86,11,32,9,10,0.6,0.7
2024-05-06T1400,3495A,117.1171,36.63,济南市,锦屏中学,颗粒物(PM10),57,63,60,15,37,156,,120,120,10,15,6,6,0.4,0.5
2024-05-06T1400,3682A,116.9814,36.6819,济南市,济南四建,,48,48,58,22,35,140,,104,104,16,26,8,8,0.4,0.5
2024-05-06T1400,1653A,116.6251,35.4302,济宁市,火炬城,颗粒物(PM10),52,54,67,19,41,148,,99,99,5,14,8,8,0.6,0.8
2024-05-06T1400,1655A,116.5491,35.4042,济宁市,电化厂,颗粒物(PM10),52,54,83,29,47,147,,102,102,4,11,6,6,0.7,0.9
2024-05-06T1400,3500A,116.5814,35.3707,济宁市,北湖一中,,46,46,64,27,57,139,,95,95,7,15,4,5,0.5,0.6
2024-05-06T1400,3501A,116.8249,35.5593,济宁市,服务中心,,44,31,72,10,55,138,,90,90,7,25,2,2,0.5,0.8
2024-05-06T1400,3678A,116.5907,35.4054,济宁市,市第七中学,颗粒物(PM10),54,58,61,19,46,150,,107,107,5,13,6,5,0.5,0.7
2024-05-06T1400,2255A,130.2751,46.8028,佳木斯市,佳纺,,48,48,67,11,44,91,,75,75,6,10,2,3,0.3,0.4
2024-05-06T1400,2256A,130.3995,46.8307,佳木斯市,发电厂,颗粒物(PM10),67,84,88,18,52,89,,76,76,5,11,7,7,0.4,0.6
2024-05-06T1400,2257A,130.3258,46.7975,佳木斯市,环保局,,44,44,69,11,43,82,,68,68,10,17,4,5,0.4,0.5
2024-05-06T1400,2258A,130.3648,46.8032,佳木斯市,十一中,,36,36,62,8,46,88,,74,74,7,12,4,5,0.3,0.4
2024-05-06T1400,2259A,130.3794,46.7588,佳木斯市,四丰,细颗粒物(PM2.5),94,,60,70,71,94,,79,79,7,13,1,1,0.4,0.5
2024-05-06T1400,1252A,120.7436,30.778,嘉兴市,清河小学,,47,22,26,15,16,148,,98,98,12,17,4,5,0.6,0.9
2024-05-06T1400,1253A,120.726,30.7478,嘉兴市,嘉兴学院,,46,20,24,14,20,145,,98,98,3,12,5,6,0.6,0.8
2024-05-06T1400,2872A,120.7846,30.7525,嘉兴市,南湖区残联,,50,29,29,14,23,158,,106,106,7,14,6,6,0.6,0.8
2024-05-06T1400,3407A,120.6916,30.7739,嘉兴市,秀洲住建,,49,24,24,22,19,156,,103,103,2,11,4,5,0.6,0.7
2024-05-06T1400,1945A,98.2908,39.7711,嘉峪关市,气象局,颗粒物(PM10),213,359,90,61,31,122,,94,91,3,10,2,3,0.2,0.2
2024-05-06T1400,2884A,98.2672,39.7978,嘉峪关市,酒钢宾馆,颗粒物(PM10),178,305,87,44,27,119,,99,97,2,9,4,4,0.3,0.4
2024-05-06T1400,3248A,98.2643,39.7724,嘉峪关市,雄关区,颗粒物(PM10),141,231,74,34,23,119,,92,90,4,10,4,6,0.4,0.4
2024-05-06T1400,1383A,113.1064,22.6058,江门市,北街,,36,26,42,13,31,115,,73,73,10,26,4,4,0.5,0.7
2024-05-06T1400,1384A,113.0731,22.5835,江门市,西区,,36,29,43,18,25,114,,72,72,9,26,7,7,0.4,0.6
2024-05-06T1400,1385A,113.0219,22.5311,江门市,圭峰西,,37,37,43,13,25,99,,69,69,5,20,3,3,0.5,0.8
2024-05-06T1400,1386A,113.0828,22.5947,江门市,东湖,,35,,44,18,24,110,,71,71,10,23,5,6,0.5,0.7
2024-05-06T1400,3311A,113.1075,22.5647,江门市,江海富民,,45,45,71,27,48,116,,74,74,8,27,3,4,0.4,0.6
2024-05-06T1400,3449A,113.05,22.4667,江门市,新会银湖,,37,36,44,21,23,117,,65,65,8,27,7,6,0.5,0.6
2024-05-06T1400,1828A,113.227,35.2125,焦作市,市环保局,细颗粒物(PM2.5),99,75,83,74,63,175,,118,118,7,12,5,6,1.0,0.8
2024-05-06T1400,3169A,113.2725,35.2067,焦作市,太极体育中心,细颗粒物(PM2.5),97,98,94,72,69,182,,113,113,15,21,5,6,0.8,0.7
2024-05-06T1400,3335A,113.3137,35.2641,焦作市,马村街道办,细颗粒物(PM2.5),92,,87,68,73,147,,103,103,8,18,7,6,0.7,0.8
2024-05-06T1400,3336A,113.2465,35.2373,焦作市,焦作技师学院,细颗粒物(PM2.5),94,88,84,70,62,141,,113,113,40,20,10,8,0.7,0.5
2024-05-06T1400,3477A,113.1656,35.2539,焦作市,中站许衡医院,细颗粒物(PM2.5),87,74,74,64,55,168,,130,130,8,14,12,10,0.7,0.6
2024-05-06T1400,3981A,113.2449,35.1803,焦作市,原李万街道办,细颗粒物(PM2.5),79,89,96,58,58,166,,110,110,9,18,8,8,0.7,0.7
2024-05-06T1400,1708A,116.3701,23.5345,揭阳市,新兴,,36,20,39,18,26,115,,81,81,2,13,5,6,0.5,0.8
2024-05-06T1400,1709A,116.3264,23.5443,揭阳市,西马,,35,27,39,14,17,109,,75,75,2,11,6,7,0.5,0.7
2024-05-06T1400,1710A,116.3611,23.5626,揭阳市,东兴,,35,22,42,11,22,111,,80,80,2,9,5,6,0.6,0.8
2024-05-06T1400,1711A,116.4151,23.5294,揭阳市,渔湖,,36,27,41,8,17,113,,80,80,2,9,6,6,0.5,0.7
2024-05-06T1400,3320A,116.403,23.5699,揭阳市,曲溪,,38,22,32,15,20,121,,78,78,1,13,3,5,0.4,0.7
2024-05-06T1400,1944A,102.1692,38.5167,金昌市,天庆家园,颗粒物(PM10),74,98,139,21,37,134,,105,105,7,12,21,47,0.3,0.3
2024-05-06T1400,3170A,102.1864,38.5253,金昌市,市委党校,颗粒物(PM10),93,135,173,45,57,140,,117,117,4,9,7,49,0.5,0.4
2024-05-06T1400,4022A,102.1647,38.5371,金昌市,金川区人防中心,颗粒物(PM10),86,122,182,22,40,137,,107,107,5,8,9,16,0.4,0.7
2024-05-06T1400,1262A,119.647,29.077,金华市,十五中,,40,18,20,9,12,128,,96,96,11,14,6,6,0.7,0.8
2024-05-06T1400,1263A,119.686,29.1029,金华市,监测站,,40,17,22,10,14,126,,91,91,8,14,4,4,0.5,0.7
2024-05-06T1400,3659A,119.656,29.1131,金华市,气象局,,41,19,22,8,13,130,,90,90,11,19,6,6,0.5,0.7
2024-05-06T1400,1767A,121.1115,41.0879,锦州市,南山,颗粒物(PM10),58,66,52,32,34,122,,106,106,12,15,11,14,0.4,0.5
2024-05-06T1400,1768A,121.0533,40.8434,锦州市,开发区,颗粒物(PM10),60,70,69,22,35,121,,101,101,9,43,8,14,0.5,0.7
2024-05-06T1400,1769A,121.1836,41.1119,锦州市,百股街道,颗粒物(PM10),64,78,61,34,30,125,,108,108,11,20,8,12,0.5,0.6
2024-05-06T1400,1770A,121.1178,41.1222,锦州市,天安街道,,,,58,29,32,,,96,96,12,16,13,15,,0.6
2024-05-06T1400,1771A,121.1303,41.1386,锦州市,北湖公园,,49,49,41,29,29,117,,97,97,10,14,10,12,0.5,0.6
2024-05-06T1400,2160A,112.85,35.5051,晋城市,自来水公司,,49,42,64,19,36,156,,108,108,13,25,10,8,0.9,1.1
2024-05-06T1400,2161A,112.8318,35.4936,晋城市,白云商贸,颗粒物(PM10),60,70,67,22,32,158,,102,102,10,21,12,9,0.9,0.9
2024-05-06T1400,2162A,112.8508,35.4887,晋城市,市环保局,,50,36,73,27,35,158,,108,108,9,19,11,8,0.9,0.9
2024-05-06T1400,2163A,112.8676,35.4897,晋城市,技术学院,,49,,57,31,37,154,,104,104,10,23,11,8,0.9,1
2024-05-06T1400,3620A,112.8271,35.4828,晋城市,泽州一中,,50,50,52,12,28,156,,105,105,16,24,12,9,1.0,1.1
2024-05-06T1400,2171A,112.7532,37.6945,晋中市,锦纶小区,,43,41,56,19,37,136,,81,81,14,29,9,9,0.5,0.7
2024-05-06T1400,2173A,112.7249,37.7067,晋中市,南都小区,,45,42,60,15,41,143,,80,80,13,31,7,7,0.5,0.5
2024-05-06T1400,2174A,112.6991,37.6982,晋中市,榆次区政府,,46,44,55,24,36,145,,79,79,12,31,8,8,0.5,0.6
2024-05-06T1400,2865A,112.7195,37.6828,晋中市,榆次三中,,47,41,56,14,35,149,,82,82,12,28,8,8,0.6,0.7
2024-05-06T1400,2439A,112.2014,31.0481,荆门市,竹园小学,,43,36,65,30,47,126,,82,82,9,16,10,9,0.6,0.6
2024-05-06T1400,2440A,112.1969,30.9891,荆门市,掇刀,细颗粒物(PM2.5),62,53,59,44,47,126,,83,83,11,19,10,9,0.6,0.6
2024-05-06T1400,2441A,112.2213,31.0386,荆门市,石化一小,颗粒物(PM10),55,59,76,36,60,130,,86,86,12,25,14,16,0.6,0.6
2024-05-06T1400,3012A,112.1849,31.0362,荆门市,西山林语,,48,48,54,23,45,127,,80,80,8,13,9,8,0.7,0.5
2024-05-06T1400,3547A,112.1632,31.0138,荆门市,龙泉中学南校,,45,45,42,29,31,124,,83,83,15,17,8,9,0.5,0.5
2024-05-06T1400,1844A,112.2494,30.3197,荆州市,市图书馆,,38,38,32,14,24,108,,78,78,8,16,8,9,0.6,0.7
2024-05-06T1400,1845A,112.2008,30.3544,荆州市,市委党校,,35,27,35,24,29,105,,75,75,8,16,8,9,0.7,0.7
2024-05-06T1400,3194A,112.2747,30.3122,荆州市,管委会,,35,24,34,18,27,110,,80,80,6,15,6,8,0.6,0.6
2024-05-06T1400,3548A,112.1655,30.3364,荆州市,学苑路,,37,28,40,23,32,117,,85,85,6,16,6,7,0.5,0.5
2024-05-06T1400,2343A,117.2117,29.2933,景德镇市,老干部活动中心,,36,24,27,14,23,115,,69,69,7,13,6,5,0.3,0.5
2024-05-06T1400,2344A,117.1894,29.2789,景德镇市,兽医站,,35,33,42,22,27,110,,66,66,4,18,8,8,0.4,0.7
2024-05-06T1400,2345A,117.1547,29.2617,景德镇市,台达陶瓷,,30,30,29,18,23,95,,58,58,28,28,22,24,0.6,0.8
2024-05-06T1400,2346A,117.2461,29.2956,景德镇市,陶研所,,35,30,25,14,14,110,,64,64,12,12,6,5,0.5,0.6
2024-05-06T1400,1803A,115.9872,29.6815,九江市,十里,,33,8,21,4,14,105,,64,64,11,22,9,9,0.6,0.8
2024-05-06T1400,1804A,115.9584,29.7046,九江市,茅山头,,32,,18,16,15,100,,62,62,12,24,8,8,0.7,0.8
2024-05-06T1400,1805A,115.9877,29.7295,九江市,西园,,28,20,25,19,18,89,,53,53,12,24,21,12,0.7,0.8
2024-05-06T1400,1806A,116.0172,29.6547,九江市,五七二七厂,,25,,18,14,13,77,,58,58,10,10,9,9,0.7,0.6
2024-05-06T1400,1808A,115.9114,29.6038,九江市,综合工业园,,30,,12,8,11,95,,64,64,14,28,10,10,0.8,0.9
2024-05-06T1400,1809A,116.0721,29.7535,九江市,石化总厂,,30,21,25,6,16,95,,65,65,11,22,12,15,0.8,0.8
2024-05-06T1400,1810A,115.9773,29.5698,九江市,庐山气象台,,29,9,13,5,10,91,,86,82,2,2,7,7,0.7,0.7
2024-05-06T1400,3190A,116.0254,29.6994,九江市,外国语学校,,28,22,19,10,17,87,,59,59,15,28,11,11,0.9,1
2024-05-06T1400,2658A,98.5061,39.7443,酒泉市,仓门街子站,颗粒物(PM10),141,232,106,33,30,112,,79,79,3,13,8,9,0.2,0.3
2024-05-06T1400,2659A,98.4989,39.7256,酒泉市,油田生活基地,颗粒物(PM10),140,229,109,28,26,116,,78,78,2,10,10,12,0.2,0.2
2024-05-06T1400,2698A,76.0072,39.4467,喀什地区,巡警大队,颗粒物(PM10),62,73,175,10,34,116,,102,102,12,14,2,2,0.2,0.2
2024-05-06T1400,2699A,75.9755,39.4694,喀什地区,吾办,颗粒物(PM10),55,59,174,18,66,114,,99,99,8,13,4,3,0.2,0.2
2024-05-06T1400,4027A,75.9483,39.4689,喀什地区,老干局,颗粒物(PM10),61,71,289,41,50,120,,101,101,22,27,4,4,0.2,0.2
2024-05-06T1400,1824A,114.3389,34.7781,开封市,肿瘤医院,臭氧1小时,62,59,87,34,65,169,,104,104,5,32,6,8,0.5,0.7
2024-05-06T1400,1826A,114.2885,34.7965,开封市,世纪星幼儿园,颗粒物(PM10),52,53,76,22,40,157,,98,98,7,30,5,6,0.6,0.7
2024-05-06T1400,3147A,114.3438,34.8106,开封市,龙亭公园,臭氧1小时,53,48,83,22,43,162,,102,102,4,31,5,6,0.4,0.7
2024-05-06T1400,3210A,114.3644,34.7964,开封市,汴京公园,颗粒物(PM10),64,77,94,41,69,170,,102,102,5,31,4,5,0.2,0.4
2024-05-06T1400,3473A,114.2485,34.8306,开封市,技师学院,颗粒物(PM10),62,74,78,30,51,157,,101,101,8,30,5,6,0.4,0.6
2024-05-06T1400,3592A,114.4644,34.7556,开封市,祥符区生态环境局,颗粒物(PM10),55,60,80,31,48,159,,95,95,10,39,9,7,0.4,0.6
2024-05-06T1400,1951A,84.895,45.6094,克拉玛依市,长征新村,,34,34,53,3,8,97,,109,109,3,7,8,9,0.2,0.2
2024-05-06T1400,1952A,84.8988,45.5893,克拉玛依市,南林小区,,33,27,51,13,21,104,,118,118,5,21,6,6,0.1,0.3
2024-05-06T1400,1954A,84.905,44.3396,克拉玛依市,独山子区,,36,20,69,19,35,113,,110,106,2,10,8,9,0.4,0.5
2024-05-06T1400,1955A,85.6979,46.098,克拉玛依市,乌尔禾区商贸楼,,,,46,,12,105,,109,109,1,8,12,12,0.2,0.2
2024-05-06T1400,3612A,85.1045,45.6899,克拉玛依市,白碱滩区新站,,34,22,38,19,22,108,,120,120,2,4,7,8,0.3,0.3
2024-05-06T1400,2697A,76.1454,39.7142,克孜勒苏柯尔克孜自治州,市人民政府,颗粒物(PM10),77,103,173,46,64,112,,109,108,3,6,6,7,0.3,0.3
2024-05-06T1400,3665A,76.1658,39.7157,克孜勒苏柯尔克孜自治州,克州文化中心,颗粒物(PM10),86,122,168,55,63,114,,113,113,2,4,7,9,0.3,0.3
2024-05-06T1400,1450A,102.8204,24.8886,昆明市,呈贡新区,,41,39,40,18,26,129,,88,88,8,23,6,8,0.6,0.7
2024-05-06T1400,1452A,102.7252,25.0902,昆明市,龙泉镇,,46,24,38,23,33,147,,84,84,12,23,9,7,0.7,0.7
2024-05-06T1400,1453A,102.7266,25.0375,昆明市,东风东路,,45,33,42,24,28,142,,86,86,11,23,8,8,0.5,0.6
2024-05-06T1400,1454A,102.6742,25.0669,昆明市,金鼎山,,45,41,42,20,24,141,,86,86,15,23,5,4,0.6,0.6
2024-05-06T1400,1455A,102.6644,25.0401,昆明市,碧鸡广场,,44,29,41,20,26,139,,98,98,12,19,10,9,0.6,0.6
2024-05-06T1400,3179A,102.7494,25.0119,昆明市,官渡区博物馆,,48,38,43,18,23,151,,89,89,7,35,10,9,0.4,0.6
2024-05-06T1400,3375A,102.8017,24.8336,昆明市,青年创业园,,44,30,38,24,24,140,,92,92,7,22,8,9,0.6,0.6
2024-05-06T1400,3550A,102.7997,24.9786,昆明市,昆明学院,,45,33,54,15,29,141,,88,88,9,34,8,9,0.6,0.6
2024-05-06T1400,3551A,102.5967,24.6736,昆明市,晋宁区生态环境分局,,42,,46,29,31,132,,90,90,7,14,2,4,0.6,0.6
2024-05-06T1400,3552A,102.6678,24.9856,昆明市,云天化总部,,40,30,39,18,24,126,,91,91,8,21,5,6,0.6,0.6
2024-05-06T1400,1456A,91.1319,29.6514,拉萨市,八廓街,,41,,11,7,8,130,,116,110,2,7,7,7,0.3,0.3
2024-05-06T1400,1457A,91.1221,29.6747,拉萨市,市环保局,,39,9,12,7,8,124,,105,104,13,14,6,6,0.3,0.3
2024-05-06T1400,1458A,91.0874,29.6475,拉萨市,区监测站,,39,5,10,5,7,124,,109,103,8,12,5,5,0.2,0.2
2024-05-06T1400,1459A,91.1774,29.6541,拉萨市,西藏大学,,40,8,9,5,7,127,,118,116,3,6,4,4,0.1,0.2
2024-05-06T1400,1460A,90.9798,29.6588,拉萨市,区辐射站,,39,9,12,6,8,124,,104,99,13,13,6,7,0.4,0.4
2024-05-06T1400,1461A,91.0834,29.6292,拉萨市,拉萨火车站,,39,8,10,5,7,123,,107,99,6,12,6,6,0.4,0.4
2024-05-06T1400,2520A,109.2203,23.7256,来宾市,来宾技工学校,,26,19,32,18,16,47,,45,41,12,17,5,7,1.1,0.9
2024-05-06T1400,3535A,109.1781,23.7297,来宾市,兴宾区政府,,20,20,27,14,16,53,,43,41,10,15,5,6,1.0,0.8
2024-05-06T1400,4002A,109.2416,23.7461,来宾市,中南小学,,26,26,33,15,19,43,,40,40,14,26,5,7,1.2,1
2024-05-06T1400,1476A,103.631,36.1031,兰州市,兰炼宾馆,颗粒物(PM10),51,51,90,23,46,137,,78,78,14,58,9,16,0.3,0.5
2024-05-06T1400,1478A,103.8412,36.0726,兰州市,生物制品所,颗粒物(PM10),62,73,103,30,43,125,,59,59,17,56,12,13,0.3,0.5
2024-05-06T1400,1479A,103.831,36.0464,兰州市,铁路设计院,颗粒物(PM10),60,69,91,22,35,132,,56,56,18,68,11,12,0.3,0.7
2024-05-06T1400,3186A,103.7158,36.1058,兰州市,教育港,颗粒物(PM10),61,71,90,30,38,138,,77,77,10,46,10,12,0.3,0.5
2024-05-06T1400,3241A,103.7439,36.0842,兰州市,百合公园,颗粒物(PM10),52,53,73,19,31,130,,71,71,12,46,5,10,0.2,0.4
2024-05-06T1400,3242A,103.9611,35.998,兰州市,和平,细颗粒物(PM2.5),64,62,85,46,34,133,,88,88,7,19,9,9,0.2,0.3
2024-05-06T1400,3245A,103.6633,36.533,兰州新区,新区管委会,颗粒物(PM10),53,55,75,25,29,143,,105,105,4,11,8,12,0.3,0.3
2024-05-06T1400,3246A,103.6975,36.4789,兰州新区,舟曲中学,颗粒物(PM10),71,92,103,27,30,134,,96,96,5,15,21,14,0.4,0.4
2024-05-06T1400,1067A,116.6708,39.5111,廊坊市,药材公司,,,74,56,34,38,140,,76,76,,17,1,2,0.4,0.4
2024-05-06T1400,1068A,116.7214,39.5589,廊坊市,开发区,颗粒物(PM10),66,82,64,29,36,145,,83,83,8,19,2,2,0.3,0.4
2024-05-06T1400,1070A,116.7244,39.5269,廊坊市,北华航天学院,颗粒物(PM10),67,84,68,30,40,144,,84,84,8,17,1,2,0.3,0.4
2024-05-06T1400,2919A,116.7022,39.5453,廊坊市,河北工业大学,颗粒物(PM10),64,78,65,31,39,144,,85,85,8,19,4,3,0.3,0.4
2024-05-06T1400,2535A,103.7723,29.5462,乐山市,花湖湾,,49,42,50,34,40,146,,61,61,10,23,7,5,0.6,0.8
2024-05-06T1400,2536A,103.7627,29.5844,乐山市,牛耳桥,细颗粒物(PM2.5),60,62,54,43,43,142,,64,64,18,37,11,7,0.6,0.7
2024-05-06T1400,2537A,103.7508,29.6006,乐山市,市第三水厂,颗粒物(PM10),52,54,54,34,39,138,,70,70,13,34,8,6,0.5,0.7
2024-05-06T1400,2538A,103.7571,29.5664,乐山市,市监测站,细颗粒物(PM2.5),68,55,54,49,36,139,,63,63,13,25,11,10,0.7,0.9
2024-05-06T1400,3361A,103.7311,29.5628,乐山市,理工大学,细颗粒物(PM2.5),60,54,54,43,42,150,,67,67,10,25,14,14,0.6,0.8
2024-05-06T1400,2599A,100.2497,26.8802,丽江市,丽江古城,,40,40,44,20,24,116,,82,82,12,15,6,6,0.6,0.5
2024-05-06T1400,2600A,100.2203,26.8906,丽江市,市中心,,36,31,35,16,20,114,,82,82,10,12,8,8,0.5,0.4
2024-05-06T1400,1267A,119.914,28.4514,丽水市,监测站大楼,,35,15,22,7,14,111,,75,75,3,15,2,3,0.4,0.6
2024-05-06T1400,1268A,119.93,28.4586,丽水市,莲都小学,,35,10,21,4,10,112,,78,78,4,16,3,4,0.3,0.5
2024-05-06T1400,1269A,119.879,28.4231,丽水市,余庄前,,35,7,20,3,10,109,,71,71,4,11,3,3,0.4,0.6
2024-05-06T1400,1173A,119.176,34.5885,连云港市,市环境监测站,颗粒物(PM10),52,53,59,29,54,138,,92,92,10,17,6,7,0.4,0.4
2024-05-06T1400,3000A,119.3581,34.6972,连云港市,德源药业,颗粒物(PM10),53,56,55,36,42,152,,98,98,9,25,7,6,0.7,0.5
2024-05-06T1400,3007A,119.178,34.844,连云港市,新城一中,颗粒物(PM10),60,69,76,32,37,149,,106,106,14,19,6,7,0.8,0.8
2024-05-06T1400,3008A,119.3608,34.7519,连云港市,胡沟管理处,细颗粒物(PM2.5),55,46,54,39,44,148,,101,101,10,21,7,7,0.6,0.5
2024-05-06T1400,3009A,119.1478,34.5911,连云港市,矿山设计院,颗粒物(PM10),51,51,60,22,49,139,,92,92,9,17,8,8,0.7,0.8
2024-05-06T1400,3434A,119.2413,34.6539,连云港市,工贸学校,,50,41,47,31,34,158,,103,103,9,15,9,8,0.7,0.7
2024-05-06T1400,3664A,119.4172,34.7341,连云港市,连云街道,,48,47,50,32,35,152,,105,105,13,16,5,5,0.8,0.7
2024-05-06T1400,2571A,102.3431,27.8099,凉山彝族自治州,青龙寺,,40,38,34,5,5,128,,86,86,5,8,10,8,0.6,0.7
2024-05-06T1400,2572A,102.2721,27.8415,凉山彝族自治州,邛海宾馆,,37,36,37,19,21,118,,75,75,7,14,9,9,0.7,0.7
2024-05-06T1400,2573A,102.2625,27.898,凉山彝族自治州,西昌市政府,,49,49,36,32,23,94,,73,71,20,11,9,8,0.7,0.6
2024-05-06T1400,2574A,102.2685,27.8851,凉山彝族自治州,凉山州政府,,48,48,38,29,22,103,,72,72,16,12,11,9,0.7,0.6
2024-05-06T1400,2575A,102.237,27.8914,凉山彝族自治州,长安,颗粒物(PM10),52,53,42,27,24,86,,67,67,26,16,11,11,0.8,0.7
2024-05-06T1400,2212A,123.2,41.1953,辽阳市,宏伟区,颗粒物(PM10),56,61,34,33,20,87,,78,70,20,19,12,12,0.7,0.8
2024-05-06T1400,2213A,123.1683,41.2495,辽阳市,新华园,颗粒物(PM10),63,75,32,43,22,100,,88,82,19,19,12,12,0.6,0.7
2024-05-06T1400,2214A,123.2354,41.2639,辽阳市,滨河路,细颗粒物(PM2.5),68,64,30,49,22,93,,80,76,17,19,9,10,0.5,0.6
2024-05-06T1400,2215A,123.149,41.2991,辽阳市,铁西工业园,颗粒物(PM10),54,57,33,29,22,99,,82,75,15,19,12,12,0.7,0.7
2024-05-06T1400,2227A,125.1358,42.8845,辽源市,环保局,细颗粒物(PM2.5),52,52,19,36,13,110,,102,102,16,13,8,7,0.6,0.6
2024-05-06T1400,3239A,125.0764,42.9078,辽源市,银鹰制药,,40,34,19,28,14,115,,104,104,13,14,5,7,0.7,0.6
2024-05-06T1400,1625A,115.9848,36.4372,聊城市,区政府,颗粒物(PM10),56,62,86,27,50,137,,95,95,11,27,10,5,0.7,0.8
2024-05-06T1400,2878A,116.0072,36.4343,聊城市,聊大东校,细颗粒物(PM2.5),63,72,75,45,46,144,,98,98,10,26,13,6,0.8,0.9
2024-05-06T1400,3200A,115.9819,36.4978,聊城市,监控中心,颗粒物(PM10),58,66,86,31,51,144,,88,88,9,34,10,8,0.7,0.7
2024-05-06T1400,3513A,116.0445,36.4361,聊城市,九州社区,颗粒物(PM10),63,76,92,34,41,144,,87,87,9,26,4,2,0.4,0.5
2024-05-06T1400,4018A,116.0567,36.4608,聊城市,星美广场,颗粒物(PM10),66,82,91,36,48,139,,87,87,12,26,6,4,0.6,0.6
2024-05-06T1400,2632A,94.3681,29.6376,林芝市,林芝监测站,,48,23,26,17,21,151,,113,105,3,4,6,6,0.6,0.6
2024-05-06T1400,2633A,94.3616,29.6616,林芝市,林芝人民医院,,50,14,24,9,22,158,,113,109,6,8,6,7,0.6,0.6
2024-05-06T1400,2603A,100.0781,23.8982,临沧市,市环保局,,42,,52,19,52,132,,100,100,8,15,7,5,0.3,0.4
2024-05-06T1400,2604A,100.0894,23.8822,临沧市,市气象局,,43,23,57,17,45,137,,100,100,10,16,7,8,0.5,0.7
2024-05-06T1400,1733A,111.5531,36.0783,临汾市,临钢医院,,45,29,51,17,21,143,,84,84,9,15,6,8,0.5,0.6
2024-05-06T1400,1734A,111.5028,36.0714,临汾市,技工学校,,48,40,55,18,29,151,,85,85,12,19,9,10,0.6,0.7
2024-05-06T1400,1736A,111.5018,36.0855,临汾市,市委,,48,39,48,13,18,152,,84,84,25,30,8,9,0.4,0.5
2024-05-06T1400,3018A,111.505,36.1014,临汾市,唐尧大酒店,颗粒物(PM10),53,56,62,20,22,142,,80,80,9,14,8,9,0.6,0.7
2024-05-06T1400,3668A,111.5036,36.0414,临汾市,城南,,48,32,47,11,26,151,,74,74,9,13,6,7,0.4,0.6
2024-05-06T1400,2667A,103.2069,35.5993,临夏回族自治州,环保局,颗粒物(PM10),62,74,88,27,35,130,,74,74,4,19,5,5,0.3,0.5
2024-05-06T1400,2668A,103.2417,35.6057,临夏回族自治州,建设大厦,颗粒物(PM10),57,64,82,18,34,138,,84,84,2,15,11,10,0.3,0.4
2024-05-06T1400,1618A,118.3429,35.0532,临沂市,沂河小区,细颗粒物(PM2.5),54,53,95,38,58,142,,97,97,12,26,7,8,0.4,0.5
2024-05-06T1400,1619A,118.295,35.0583,临沂市,鲁南制药厂,,,46,102,,44,154,,111,111,9,28,6,7,0.4,0.5
2024-05-06T1400,1620A,118.2794,34.9976,临沂市,新光毛纺厂,颗粒物(PM10),58,66,85,32,57,155,,113,113,17,30,5,5,0.6,0.7
2024-05-06T1400,1621A,118.3956,35.0888,临沂市,河东保险公司,,46,46,72,32,57,142,,103,103,11,21,5,6,0.3,0.3
2024-05-06T1400,3370A,118.3564,35.0215,临沂市,十里堡居委,,49,46,78,34,55,155,,112,112,12,25,5,6,0.7,0.8
2024-05-06T1400,3496A,118.3604,35.1084,临沂市,南坊新区,,46,46,84,31,58,140,,102,102,13,25,7,9,0.4,0.5
2024-05-06T1400,3860A,118.3920,35.0300,临沂市,皇山花园小区,细颗粒物(PM2.5),60,48,77,43,64,152,,111,111,14,25,8,9,0.6,0.7
2024-05-06T1400,1870A,109.4856,24.3895,柳州市,柳东小学,,38,35,21,26,16,40,,30,27,19,16,9,7,0.8,0.6
2024-05-06T1400,1871A,109.4157,24.3277,柳州市,环保监测站,细颗粒物(PM2.5),52,50,46,36,24,40,,23,23,19,28,10,10,0.7,0.8
2024-05-06T1400,1872A,109.389,24.341,柳州市,河西水厂,,45,41,48,31,25,39,,16,16,16,26,14,15,0.9,1
2024-05-06T1400,1873A,109.4311,24.2921,柳州市,市四中,颗粒物(PM10),53,55,38,30,21,36,,30,30,27,26,14,9,1.0,1
2024-05-06T1400,1874A,109.4006,24.3631,柳州市,市九中,,50,40,54,35,23,30,,19,19,26,32,8,11,0.8,0.8
2024-05-06T1400,1875A,109.4958,24.3134,柳州市,古亭山,,43,43,30,28,15,28,,27,27,28,25,8,9,0.9,0.6
2024-05-06T1400,3402A,109.5422,24.3996,柳州市,市二中,,46,46,25,30,14,43,,22,22,16,21,10,8,0.7,0.6
2024-05-06T1400,2307A,116.5079,31.737,六安市,监测大楼,,38,18,27,13,25,121,,92,92,7,14,4,4,0.5,0.6
2024-05-06T1400,2308A,116.4738,31.7643,六安市,皖西学院,,39,22,30,7,22,124,,98,98,5,11,3,2,0.5,0.6
2024-05-06T1400,2309A,116.4996,31.7905,六安市,朝阳厂,,40,17,20,10,26,128,,96,96,4,11,6,5,0.3,0.4
2024-05-06T1400,2310A,116.5567,31.7886,六安市,开发区,,40,30,34,19,25,126,,94,94,9,15,7,7,0.6,0.6
2024-05-06T1400,2577A,104.83,26.5917,六盘水市,黄土坡,,42,18,27,14,17,132,,102,102,6,11,6,6,0.4,0.5
2024-05-06T1400,2578A,104.89,26.5939,六盘水市,水钢,,43,34,30,25,22,136,,110,110,5,7,9,8,0.2,0.3
2024-05-06T1400,2579A,104.8475,26.5894,六盘水市,民中,,41,24,25,19,17,130,,100,,5,10,6,7,0.3,0.2
2024-05-06T1400,2580A,104.9544,26.5506,六盘水市,双水,,42,29,25,19,16,132,,113,112,6,7,6,6,0.4,0.4
2024-05-06T1400,2336A,117.0217,25.1033,龙岩市,龙岩市监测站,,35,19,23,9,16,110,,77,77,5,14,3,5,0.3,0.5
2024-05-06T1400,2337A,117.0258,25.0661,龙岩市,闽西职业技术学院,,35,12,29,6,13,109,,78,78,3,15,3,7,0.4,0.4
2024-05-06T1400,2338A,117.0196,25.0306,龙岩市,龙岩学院,,36,25,19,10,12,114,,82,82,3,7,6,2,0.4,0.4
2024-05-06T1400,2885A,104.9339,33.3826,陇南市,滨江中学,颗粒物(PM10),62,74,62,22,24,118,,77,77,1,6,5,10,0.5,0.5
2024-05-06T1400,3247A,104.955,33.371,陇南市,市总工会,,39,39,49,10,14,110,,73,73,4,7,6,7,0.6,0.7
2024-05-06T1400,2487A,111.9589,27.8901,娄底市,电视发射台,,,38,38,23,24,,,48,48,9,8,10,7,1.2,1.2
2024-05-06T1400,2488A,111.9975,27.725,娄底市,市监测站,,41,41,49,23,35,99,,52,52,8,16,6,6,0.5,0.7
2024-05-06T1400,2489A,112.0194,27.7314,娄底市,市委党校,,38,,44,26,34,88,,50,50,6,11,6,8,0.6,0.6
2024-05-06T1400,2490A,111.9561,27.7569,娄底市,涟钢,细颗粒物(PM2.5),82,64,66,60,41,79,,33,33,29,31,28,21,1.4,1.4
2024-05-06T1400,2491A,111.9892,27.7044,娄底市,市政府,,43,35,36,30,30,99,,54,54,5,8,9,7,0.8,0.8
2024-05-06T1400,1893A,105.4324,28.9634,泸州市,九狮山,,46,42,50,32,34,139,,65,65,16,23,8,6,0.3,0.5
2024-05-06T1400,1894A,105.4427,28.9063,泸州市,小市上码头,细颗粒物(PM2.5),59,65,58,42,38,146,,69,69,12,27,8,7,0.5,0.5
2024-05-06T1400,1895A,105.4241,28.8573,泸州市,兰田宪桥,细颗粒物(PM2.5),63,57,55,45,36,152,,65,65,10,21,10,7,0.4,0.5
2024-05-06T1400,1896A,105.4379,28.8833,泸州市,市环监站,细颗粒物(PM2.5),57,51,52,40,39,138,,61,61,15,26,10,9,0.7,0.6
2024-05-06T1400,3490A,105.3617,28.7703,泸州市,纳溪区环保局,颗粒物(PM10),58,65,49,36,33,153,,74,74,13,27,6,7,0.4,0.6
2024-05-06T1400,2183A,111.1406,37.5211,吕梁市,环保局,,45,45,45,14,20,136,,74,74,10,31,3,4,0.4,0.5
2024-05-06T1400,2185A,111.1297,37.5136,吕梁市,自来水公司,,41,39,43,10,23,131,,74,74,10,28,5,5,0.3,0.6
2024-05-06T1400,2867A,111.1283,37.51,吕梁市,马茂庄小学,颗粒物(PM10),52,53,49,10,20,140,,73,73,11,36,4,3,0.3,0.6
2024-05-06T1400,1812A,112.3931,34.6516,洛阳市,市委党校,细颗粒物(PM2.5),59,47,46,42,33,158,,89,89,11,21,9,5,0.7,0.6
2024-05-06T1400,1814A,112.4657,34.6871,洛阳市,豫西宾馆,臭氧1小时,59,63,57,32,34,167,,87,87,10,26,10,6,0.7,0.6
2024-05-06T1400,1815A,112.494,34.6886,洛阳市,河南林校,细颗粒物(PM2.5),65,48,46,47,38,163,,80,80,12,30,10,6,0.6,0.6
2024-05-06T1400,1816A,112.3844,34.623,洛阳市,开发区管委会,细颗粒物(PM2.5),57,58,42,40,29,159,,90,90,9,15,9,4,0.6,0.5
2024-05-06T1400,1817A,112.4267,34.6258,洛阳市,市委新办公区,细颗粒物(PM2.5),53,46,37,37,28,154,,88,88,10,17,9,6,0.8,0.6
2024-05-06T1400,3340A,112.6005,34.6326,洛阳市,伊滨,颗粒物(PM10),54,57,51,34,36,158,,76,76,11,23,9,6,0.7,0.7
2024-05-06T1400,3341A,112.4951,34.6332,洛阳市,中移产业园,,50,48,40,35,28,158,,80,80,7,20,9,5,0.6,0.6
2024-05-06T1400,3593A,112.5736,34.8993,洛阳市,吉利监测站,颗粒物(PM10),73,96,64,47,44,174,,86,86,17,30,15,4,0.6,0.5
2024-05-06T1400,3635A,112.3677,34.662,洛阳市,河科大西苑校区,细颗粒物(PM2.5),54,46,46,38,30,156,,83,83,10,23,10,7,0.5,0.4
2024-05-06T1400,3636A,112.4388,34.6781,洛阳市,英才小学,颗粒物(PM10),57,64,54,31,27,160,,87,87,12,24,10,7,0.8,0.7
2024-05-06T1400,2399A,114.051,33.5699,漯河市,三五一五工厂,臭氧1小时,64,59,49,31,25,171,,116,116,8,13,8,5,0.8,0.8
2024-05-06T1400,2400A,114.0055,33.5698,漯河市,漯河大学,臭氧1小时,72,64,53,34,33,177,,118,118,15,19,12,8,0.5,0.4
2024-05-06T1400,2401A,114.0138,33.5828,漯河市,市水利局,臭氧1小时,62,53,47,34,29,169,,113,113,6,11,10,7,0.9,0.8
2024-05-06T1400,2402A,114.0261,33.5698,漯河市,市广电局,臭氧1小时,64,63,50,33,28,171,,116,116,10,11,8,5,0.7,0.6
2024-05-06T1400,3478A,113.9749,33.5664,漯河市,市图书馆,臭氧1小时,67,47,44,18,25,173,,116,116,6,11,13,9,0.6,0.6
2024-05-06T1400,3479A,114.0967,33.5906,漯河市,召陵区卫健委,臭氧1小时,64,54,49,40,31,171,,116,116,8,12,8,5,0.5,0.5
2024-05-06T1400,1798A,118.5092,31.6837,马鞍山市,湖东路四小,,43,43,37,8,28,131,,83,83,11,23,8,6,0.7,0.8
2024-05-06T1400,1799A,118.5024,31.6449,马鞍山市,开发区,,40,26,40,12,25,128,,75,75,16,33,8,7,0.7,0.8
2024-05-06T1400,1800A,118.5228,31.7231,马鞍山市,慈湖,,42,42,51,16,25,124,,78,78,16,28,14,6,1.1,1
2024-05-06T1400,1802A,118.6245,31.7241,马鞍山市,濮塘,,,32,44,13,27,131,,81,81,,24,5,3,0.8,0.9
2024-05-06T1400,3633A,118.4918,31.6809,马鞍山市,雨山,,41,30,46,10,22,131,,83,83,7,24,8,7,0.7,0.7
2024-05-06T1400,1686A,111.0286,21.4688,茂名市,电白南海,,29,29,30,14,16,60,,57,56,4,7,8,8,0.5,0.5
2024-05-06T1400,1687A,110.9294,21.6533,茂名市,茂石化七小,,29,29,32,14,20,55,,41,41,7,11,8,10,0.5,0.6
2024-05-06T1400,1688A,110.9107,21.6687,茂名市,健康路,,22,22,28,12,13,58,,42,42,5,9,7,9,0.5,0.6
2024-05-06T1400,1689A,110.8592,21.6828,茂名市,高岭,,24,24,29,14,17,51,,42,42,5,10,6,7,0.6,0.6
2024-05-06T1400,3450A,111.01,21.5165,茂名市,电白水东,,25,22,24,17,16,51,,55,48,7,13,4,5,0.7,0.8
2024-05-06T1400,2539A,104.0308,30.0478,眉山市,黑龙滩水库,,49,38,33,21,24,156,,83,83,6,10,6,5,0.2,0.2
2024-05-06T1400,2540A,103.8416,30.0874,眉山市,气象局,,50,50,52,17,29,151,,65,65,12,32,11,13,0.3,0.5
2024-05-06T1400,3137A,103.8578,30.0744,眉山市,市委党校,,46,44,56,22,33,147,,63,63,13,35,11,14,0.4,0.5
2024-05-06T1400,3148A,103.8291,30.0564,眉山市,区人社局,颗粒物(PM10),58,65,49,24,35,146,,61,61,18,40,15,12,0.5,0.6
2024-05-06T1400,1690A,116.1231,24.3284,梅州市,梅江月梅,,34,20,21,16,13,106,,69,69,2,12,4,4,0.6,0.7
2024-05-06T1400,1691A,116.0797,24.2719,梅州市,梅县新城,,33,21,18,13,11,103,,69,69,2,12,3,3,0.5,0.5
2024-05-06T1400,1692A,116.1248,24.2654,梅州市,环境监控中心,,32,23,22,10,13,100,,65,65,5,16,3,3,0.5,0.6
2024-05-06T1400,3315A,116.1233,24.2991,梅州市,梅龙,,35,17,19,11,11,111,,69,69,2,13,7,7,0.6,0.6
2024-05-06T1400,1878A,104.7778,31.4741,绵阳市,富乐山,细颗粒物(PM2.5),73,62,98,53,83,160,,95,95,9,16,10,10,0.5,0.7
2024-05-06T1400,1879A,104.7563,31.4535,绵阳市,市人大,颗粒物(PM10),64,78,104,43,73,149,,85,85,14,27,13,15,0.6,0.8
2024-05-06T1400,1880A,104.6697,31.4668,绵阳市,高新区自来水公司,细颗粒物(PM2.5),67,75,96,48,62,171,,104,104,13,30,11,12,0.5,0.6
2024-05-06T1400,1881A,104.7287,31.5075,绵阳市,三水厂,细颗粒物(PM2.5),70,66,86,51,63,173,,90,90,11,33,8,9,0.7,0.8
2024-05-06T1400,3491A,104.69,31.5322,绵阳市,西科大附属小学,臭氧1小时,68,65,77,43,49,174,,97,97,13,31,8,8,0.6,0.6
2024-05-06T1400,3492A,104.5648,31.5343,绵阳市,安州区旅游局,细颗粒物(PM2.5),90,79,85,67,61,168,,106,106,12,24,6,6,0.7,0.7
2024-05-06T1400,1784A,129.61,44.561,牡丹江市,环保大楼,,,65,54,23,33,90,,86,80,,16,6,6,0.3,0.4
2024-05-06T1400,1785A,129.6115,44.5782,牡丹江市,文化广场,颗粒物(PM10),62,74,60,30,42,84,,74,74,10,19,7,8,0.3,0.4
2024-05-06T1400,1786A,129.5904,44.5963,牡丹江市,第一医院,颗粒物(PM10),54,58,51,22,35,85,,76,76,9,17,5,6,0.3,0.4
2024-05-06T1400,1787A,129.6364,44.6075,牡丹江市,机车工厂,颗粒物(PM10),64,77,63,19,29,88,,77,77,5,15,4,6,0.2,0.4
2024-05-06T1400,1788A,129.6386,44.5462,牡丹江市,第一中学,颗粒物(PM10),52,53,50,21,30,90,,79,77,8,18,6,7,0.2,0.3
2024-05-06T1400,2531A,105.0703,29.61,内江市,市监测站,,,,71,71,60,117,,50,50,15,35,7,9,0.7,0.8
2024-05-06T1400,2532A,105.0717,29.5947,内江市,东兴区政府,细颗粒物(PM2.5),77,64,63,56,46,121,,46,46,15,30,11,10,0.7,0.7
2024-05-06T1400,2533A,105.0653,29.5817,内江市,内江二中,细颗粒物(PM2.5),74,,60,54,45,116,,40,40,16,35,10,9,0.7,0.7
2024-05-06T1400,2534A,105.0406,29.5822,内江市,内江日报社,细颗粒物(PM2.5),82,68,60,60,49,124,,47,47,26,45,12,9,0.7,0.8
2024-05-06T1400,2628A,92.0657,31.4846,那曲市,那曲监测站,,36,27,44,15,25,113,,71,71,5,13,4,5,0.5,0.9
2024-05-06T1400,3128A,92.0506,31.4797,那曲市,那曲会议中心,,39,26,35,10,21,123,,81,81,7,16,3,3,0.5,0.6
2024-05-06T1400,1290A,115.8931,28.6843,南昌市,省外办,,40,40,28,27,18,118,,60,60,10,25,7,5,0.4,0.5
2024-05-06T1400,1291A,115.8886,28.7003,南昌市,省林业公司,,39,29,17,27,18,109,,61,61,10,22,4,4,0.5,0.6
2024-05-06T1400,1292A,115.8126,28.7442,南昌市,林科所,,37,27,14,17,9,118,,64,64,9,26,6,4,0.5,0.6
2024-05-06T1400,1294A,115.8518,28.687,南昌市,建工学校,,37,31,28,22,18,116,,63,63,5,21,6,5,0.6,0.7
2024-05-06T1400,1295A,115.8921,28.6424,南昌市,象湖,,43,39,27,30,18,135,,73,73,7,23,9,5,0.7,0.8
2024-05-06T1400,1296A,115.7423,28.7996,南昌市,武术学校,,40,,12,28,15,70,,48,48,2,5,6,5,0.4,0.5
2024-05-06T1400,1298A,115.9314,28.6842,南昌市,省站,,39,37,33,26,22,124,,66,66,2,20,10,9,0.6,0.8
2024-05-06T1400,3046A,115.9084,28.6062,南昌市,机电学校,,46,46,33,31,19,135,,74,74,6,22,14,8,0.7,0.7
2024-05-06T1400,3690A,115.9721,28.7031,南昌市,外国语学校,,50,50,27,31,20,128,,58,58,10,23,8,4,0.6,0.7
2024-05-06T1400,1906A,106.0789,30.8023,南充市,南充市委,细颗粒物(PM2.5),64,68,77,46,54,134,,80,80,12,34,6,6,0.3,0.5
2024-05-06T1400,1907A,106.1031,30.8217,南充市,南充炼油厂,颗粒物(PM10),62,73,99,41,62,152,,84,84,14,36,6,7,0.5,0.8
2024-05-06T1400,1908A,106.1064,30.7856,南充市,高坪区监测站,颗粒物(PM10),51,51,91,35,64,138,,87,87,18,33,6,8,0.0,0.4
2024-05-06T1400,1909A,106.0642,30.7636,南充市,嘉陵区环保局,细颗粒物(PM2.5),58,61,84,41,56,133,,74,74,18,40,5,6,0.5,0.7
2024-05-06T1400,1910A,106.1087,30.8388,南充市,市环境监测站,颗粒物(PM10),54,58,90,37,57,146,,80,80,14,38,6,7,0.3,0.6
2024-05-06T1400,1151A,118.8086,32.1065,南京市,迈皋桥,,39,25,40,14,34,123,,74,74,2,25,4,4,0.7,0.8
2024-05-06T1400,1152A,118.7538,32.0551,南京市,草场门,,38,31,38,17,36,120,,69,69,11,31,2,3,0.4,0.6
2024-05-06T1400,1153A,118.7794,32.0745,南京市,山西路,,38,36,45,12,30,120,,72,72,8,24,4,4,0.3,0.5
2024-05-06T1400,1154A,118.7752,32.0023,南京市,中华门,,37,29,46,22,33,117,,71,71,7,22,7,9,0.6,1
2024-05-06T1400,1155A,118.8109,32.0309,南京市,瑞金路,,37,32,53,19,37,117,,72,72,2,20,10,9,0.5,0.9
2024-05-06T1400,1156A,118.7997,32.0754,南京市,玄武湖,,36,32,43,16,37,114,,67,67,2,20,8,7,0.4,0.5
2024-05-06T1400,1157A,118.6414,32.0931,南京市,浦口,,34,25,30,18,23,108,,67,67,6,13,4,4,0.4,0.5
2024-05-06T1400,1158A,118.7356,31.9996,南京市,奥体中心,,,,53,22,37,69,,58,58,13,25,,9,0.5,0.9
2024-05-06T1400,1159A,118.9125,32.1028,南京市,仙林大学城,,40,36,42,19,32,126,,77,77,13,27,10,10,0.5,0.9
2024-05-06T1400,3422A,118.8436,31.9198,南京市,江宁彩虹桥,,49,37,33,34,33,139,,82,82,8,19,4,6,0.9,1
2024-05-06T1400,3423A,119.0138,31.6494,南京市,溧水永阳,,46,41,35,22,22,146,,81,81,9,17,3,4,0.8,0.8
2024-05-06T1400,3424A,118.879,31.3302,南京市,高淳老职中,,42,30,28,19,18,132,,85,85,11,17,4,4,0.6,0.7
2024-05-06T1400,3427A,118.8554,32.3578,南京市,六合雄州,,37,25,39,14,31,117,,78,78,6,14,3,3,0.6,0.7
2024-05-06T1400,1401A,108.3103,22.7881,南宁市,二十一中,,32,31,36,22,17,47,,38,38,25,29,6,6,1.0,1
2024-05-06T1400,1402A,108.3141,22.8528,南宁市,北湖,,38,38,39,23,20,42,,30,30,23,30,9,8,1.0,1
2024-05-06T1400,1403A,108.3206,22.8225,南宁市,市监测站,,35,31,39,24,22,39,,37,37,26,33,8,8,0.9,0.9
2024-05-06T1400,1404A,108.3829,22.8037,南宁市,大自然花园,,30,28,30,21,16,51,,46,46,19,24,6,7,0.8,0.8
2024-05-06T1400,1405A,108.4394,22.7904,南宁市,仙葫,,33,30,35,23,19,48,,37,37,25,32,6,7,1.2,1.2
2024-05-06T1400,1406A,108.2397,22.8467,南宁市,区农职院,,30,30,44,17,19,52,,30,30,18,26,7,8,0.9,0.8
2024-05-06T1400,1407A,108.3275,22.735,南宁市,英华嘉园,,35,35,38,23,22,36,,31,31,33,36,6,7,0.8,0.8
2024-05-06T1400,1408A,108.2257,22.7757,南宁市,沙井镇街道办,,32,27,63,22,26,42,,26,26,20,33,8,11,0.7,0.8
2024-05-06T1400,3401A,108.4834,22.7618,南宁市,红星社区,,46,35,35,32,19,43,,39,39,23,28,9,9,0.8,0.8
2024-05-06T1400,2332A,118.1681,26.6369,南平市,南平市监测站,,33,15,22,6,15,104,,71,71,6,15,4,4,0.4,0.7
2024-05-06T1400,2333A,118.1825,26.6489,南平市,南平铝业有限公司,,29,15,25,3,16,92,,65,65,6,15,4,7,0.6,0.7
2024-05-06T1400,2334A,118.1756,26.6272,南平市,南平七中,,33,14,24,10,16,104,,72,72,4,11,4,4,0.6,0.8
2024-05-06T1400,1168A,120.9098,31.9663,南通市,狼山街道,,49,46,38,23,24,156,,93,93,20,37,11,11,0.7,0.9
2024-05-06T1400,1169A,120.86,32.0005,南通市,虹桥,,47,45,50,26,30,148,,80,80,19,36,6,9,0.6,1.1
2024-05-06T1400,1170A,120.87,32.02,南通市,城中,颗粒物(PM10),54,58,58,27,39,153,,85,85,7,32,6,8,0.7,1
2024-05-06T1400,1171A,120.94,31.93,南通市,星湖花园,,50,46,45,29,32,158,,97,97,28,45,12,9,1.0,1.1
2024-05-06T1400,1172A,120.81,32.0417,南通市,紫琅学院,臭氧1小时,55,41,40,22,28,164,,103,103,12,31,9,10,0.6,0.9
2024-05-06T1400,3291A,121.067,32.062,南通市,通州监测站,颗粒物(PM10),51,51,53,24,31,158,,95,95,8,25,10,10,0.7,1
2024-05-06T1400,3432A,120.9348,31.9883,南通市,环境教育馆,颗粒物(PM10),51,51,44,29,28,149,,82,82,23,33,9,9,0.7,1
2024-05-06T1400,2404A,112.5224,33.0122,南阳市,瓦房庄,,49,49,39,29,26,149,,101,101,11,17,5,5,0.7,0.6
2024-05-06T1400,2405A,112.5003,32.9735,南阳市,汉画馆,细颗粒物(PM2.5),53,52,43,37,29,142,,95,95,14,17,5,4,0.6,0.6
2024-05-06T1400,2406A,112.5573,33.027,南阳市,气象站,,47,47,37,31,26,139,,104,104,10,15,3,3,0.8,0.8
2024-05-06T1400,2407A,112.5481,32.9689,南阳市,理工学院,,47,47,41,26,24,135,,104,104,8,14,4,4,0.6,0.6
2024-05-06T1400,4008A,112.5234,32.9922,南阳市,卧龙区政府,,50,50,37,33,29,151,,102,102,8,14,6,5,0.8,0.8
2024-05-06T1400,1234A,121.8358,29.911,宁波市,区环保大楼,,50,40,47,29,28,158,,83,83,28,42,16,10,1.0,0.9
2024-05-06T1400,1235A,121.56,29.82,宁波市,万里学院,,43,17,41,9,28,136,,95,95,10,29,4,5,0.7,0.8
2024-05-06T1400,1236A,121.713,29.9572,宁波市,龙赛医院,,,72,35,55,23,132,,58,,,44,9,7,1.0,0.7
2024-05-06T1400,1239A,121.633,29.7733,宁波市,钱湖水厂,,43,14,42,12,27,137,,88,88,7,19,4,5,0.8,0.9
2024-05-06T1400,1240A,121.5856,29.8635,宁波市,太古小学,,41,18,36,10,26,129,,89,89,7,28,5,6,0.8,1
2024-05-06T1400,1241A,121.524,29.8674,宁波市,市环境监测中心,,45,12,42,10,27,143,,96,96,10,27,8,9,0.7,0.9
2024-05-06T1400,2871A,121.6147,29.9017,宁波市,万里国际学校,,44,32,53,13,25,138,,90,90,11,35,3,5,0.7,0.8
2024-05-06T1400,3710A,121.5594,29.8975,宁波市,白沙活动中心,,42,16,46,10,23,134,,91,91,8,29,8,10,0.7,0.8
2024-05-06T1400,2341A,119.5388,26.6612,宁德市,宁德市监测站,,39,25,32,17,21,122,,66,66,6,22,8,8,0.5,0.8
2024-05-06T1400,3209A,119.5231,26.6562,宁德市,宁德一中,,41,26,34,20,25,130,,72,72,9,14,8,7,0.7,0.9
2024-05-06T1400,2618A,98.8601,25.8567,怒江傈僳族自治州,州监测站,,25,22,35,17,28,79,,57,55,4,4,8,8,0.4,0.4
2024-05-06T1400,2619A,98.8546,25.8417,怒江傈僳族自治州,泸水一中,,33,33,37,22,27,70,,48,42,9,11,7,7,0.3,0.4
2024-05-06T1400,1888A,101.6891,26.571,攀枝花市,弄弄坪,颗粒物(PM10),56,62,57,35,29,152,,89,89,16,23,23,22,0.9,0.8
2024-05-06T1400,1889A,101.5769,26.5928,攀枝花市,河门口,颗粒物(PM10),56,61,61,32,34,147,,77,77,12,23,11,20,0.6,1
2024-05-06T1400,1890A,101.7169,26.585,攀枝花市,炳草岗,,48,34,57,26,32,153,,79,79,11,30,29,29,0.8,0.9
2024-05-06T1400,1891A,101.7369,26.5008,攀枝花市,仁和,,47,47,55,28,31,143,,94,94,9,19,16,17,0.5,0.7
2024-05-06T1400,2835A,101.7227,26.567,攀枝花市,四十中小,,50,49,51,28,25,159,,97,97,9,15,20,20,0.9,1
2024-05-06T1400,1604A,122.0303,41.1489,盘锦市,开发区,颗粒物(PM10),65,79,47,36,39,107,,89,89,17,23,5,6,0.4,0.4
2024-05-06T1400,1605A,122.0485,41.0883,盘锦市,兴隆台,颗粒物(PM10),63,76,49,30,35,102,,85,85,22,26,9,9,0.5,0.6
2024-05-06T1400,1606A,121.8297,41.1028,盘锦市,新生街道,颗粒物(PM10),60,69,46,34,31,117,,94,94,16,26,7,7,0.5,0.5
2024-05-06T1400,1832A,113.3257,33.742,平顶山市,新华旅馆,臭氧1小时,73,86,58,39,33,178,,119,119,14,10,12,8,0.6,0.5
2024-05-06T1400,1833A,113.2919,33.737,平顶山市,规划设计院,臭氧1小时,52,51,45,29,28,161,,103,103,13,20,10,6,0.7,0.7
2024-05-06T1400,1834A,113.182,33.774,平顶山市,平顶山工学院,颗粒物(PM10),51,52,41,27,19,152,,96,96,8,12,8,5,0.6,0.6
2024-05-06T1400,3204A,113.3025,33.73,平顶山市,规划局,臭氧1小时,68,83,52,45,31,174,,107,107,16,21,11,6,0.8,0.7
2024-05-06T1400,3594A,112.8867,33.9116,平顶山市,石龙区,,50,39,45,20,20,157,,101,101,9,26,14,12,0.7,0.5
2024-05-06T1400,2656A,106.6692,35.5461,平凉市,聚贤嘉苑,颗粒物(PM10),62,73,68,14,21,152,,98,98,6,22,6,7,0.2,0.3
2024-05-06T1400,2657A,106.7021,35.5307,平凉市,博物馆,颗粒物(PM10),60,70,74,16,25,154,,94,94,5,27,9,12,0.3,0.5
2024-05-06T1400,2347A,114.0997,27.5002,萍乡市,武功山,,23,16,13,2,3,72,,49,49,3,4,7,8,0.3,0.5
2024-05-06T1400,2348A,113.8385,27.6434,萍乡市,中医院,,38,26,27,8,18,120,,61,61,13,18,6,4,1.1,1.1
2024-05-06T1400,2349A,113.8493,27.6253,萍乡市,市政府车库,,39,27,23,4,18,122,,60,60,11,15,10,10,1.0,1
2024-05-06T1400,2350A,113.8676,27.6435,萍乡市,市环保局,,39,25,29,19,19,123,,60,60,13,19,5,6,1.0,1
2024-05-06T1400,2351A,113.866,27.6198,萍乡市,安源区政府,,39,22,26,6,12,124,,58,58,7,11,6,9,0.8,0.9
2024-05-06T1400,2319A,119.0141,25.4325,莆田市,荔城区仓后路,,39,25,42,11,25,123,,89,89,8,17,6,6,0.7,0.8
2024-05-06T1400,2320A,119.0015,25.4553,莆田市,莆田市监测站,,41,34,36,11,18,129,,90,90,9,8,8,7,0.7,0.7
2024-05-06T1400,2321A,119.1119,25.4561,莆田市,涵江区六中,,45,29,35,11,22,142,,97,97,7,21,9,9,0.8,0.7
2024-05-06T1400,2322A,119.1013,25.3215,莆田市,秀屿区政府,,44,28,31,23,20,139,,86,86,6,16,8,9,0.8,0.8
2024-05-06T1400,2392A,115.0312,35.7636,濮阳市,环保局,,45,43,55,24,50,143,,107,107,9,16,16,33,0.4,0.6
2024-05-06T1400,2394A,115.0574,35.7609,濮阳市,油田运输公司,细颗粒物(PM2.5),53,44,75,37,54,149,,107,107,9,12,19,35,0.3,0.5
2024-05-06T1400,2395A,115.0866,35.7754,濮阳市,油田物探公司,细颗粒物(PM2.5),69,,75,50,58,145,,105,105,9,16,21,53,0.4,0.5
2024-05-06T1400,3021A,115,35.7668,濮阳市,濮水河管理处,,45,40,51,31,51,141,,96,96,5,10,18,28,0.4,0.6
2024-05-06T1400,2601A,100.98,22.7633,普洱市,市环保局,细颗粒物(PM2.5),62,57,68,44,48,149,,103,103,8,14,10,10,0.4,0.5
2024-05-06T1400,2602A,100.9817,22.8322,普洱市,普洱第二中学,,45,39,56,21,33,144,,96,96,7,16,9,9,0.4,0.5
2024-05-06T1400,2262A,131.0518,45.8751,七台河市,新一中,颗粒物(PM10),51,52,68,13,41,99,,81,81,5,11,9,10,0.7,0.9
2024-05-06T1400,3345A,131.0577,45.7879,七台河市,中波台,颗粒物(PM10),57,64,61,11,35,89,,73,73,3,6,6,7,0.5,0.5
2024-05-06T1400,3637A,131.0176,45.7761,七台河市,人民广场,,45,45,80,24,45,99,,78,78,8,12,9,9,0.2,0.4
2024-05-06T1400,3684A,130.8781,45.8222,七台河市,新建矿广场,颗粒物(PM10),79,107,97,24,47,92,,75,75,16,20,17,20,0.5,0.7
2024-05-06T1400,1779A,123.9305,47.3636,齐齐哈尔市,安居小区,,45,45,39,13,18,105,,82,82,7,10,3,3,0.3,0.3
2024-05-06T1400,1780A,123.9488,47.3386,齐齐哈尔市,中心广场,,38,38,37,5,16,104,,82,82,9,11,6,7,0.4,0.4
2024-05-06T1400,1781A,123.9483,47.3227,齐齐哈尔市,农牧车辆厂,,41,41,38,27,14,106,,86,86,8,10,7,7,0.3,0.4
2024-05-06T1400,1783A,123.945,47.2988,齐齐哈尔市,市环境监测站,颗粒物(PM10),51,52,41,20,19,107,,85,85,7,10,4,5,0.2,0.3
2024-05-06T1400,3662A,123.6333,47.2075,齐齐哈尔市,富区青少年活动中心,,43,43,35,13,9,108,,89,89,8,11,5,5,0.3,0.3
2024-05-06T1400,2591A,107.9783,26.5747,黔东南苗族侗族自治州,市环境监测站,,25,21,28,16,20,80,,40,40,4,25,3,4,0.5,0.6
2024-05-06T1400,2881A,107.8908,26.5311,黔东南苗族侗族自治州,凯里学院,,29,,24,14,18,90,,53,53,2,10,2,4,0.4,0.4
2024-05-06T1400,2593A,107.5228,26.2403,黔南布依族苗族自治州,小围寨,,25,7,24,2,18,80,,46,46,5,13,5,5,0.4,0.5
2024-05-06T1400,3538A,107.5175,26.2978,黔南布依族苗族自治州,沙坝,,26,12,31,7,22,81,,46,46,5,12,4,4,0.6,0.6
2024-05-06T1400,2589A,104.9022,25.0925,黔西南布依族苗族自治州,场坝街,,29,17,24,7,15,91,,75,75,4,8,2,6,0.5,0.5
2024-05-06T1400,2590A,104.8811,25.0992,黔西南布依族苗族自治州,坪东大道,,31,12,18,8,9,98,,87,87,4,9,2,3,0.3,0.3
2024-05-06T1400,2502A,108.6236,21.9667,钦州市,市环保站,颗粒物(PM10),51,51,46,17,18,52,,45,45,14,19,8,10,1.1,1.3
2024-05-06T1400,2503A,108.6549,21.9481,钦州市,沙埠小学,颗粒物(PM10),62,73,42,34,21,50,,48,45,23,19,8,8,1.4,1
2024-05-06T1400,2504A,108.5989,21.7431,钦州市,港区一小,颗粒物(PM10),54,57,78,28,23,62,,37,36,11,25,10,9,1.0,1.1
2024-05-06T1400,3404A,108.5959,21.9633,钦州市,北职校,颗粒物(PM10),58,65,46,31,25,49,,41,41,15,19,9,11,0.9,1.4
2024-05-06T1400,1042A,119.5134,39.8207,秦皇岛市,北戴河环保局,颗粒物(PM10),61,72,67,15,38,130,,92,92,16,33,7,8,0.3,0.6
2024-05-06T1400,1043A,119.7493,40.0116,秦皇岛市,第一关,颗粒物(PM10),51,51,68,20,45,124,,103,103,8,33,7,7,0.3,0.4
2024-05-06T1400,1044A,119.5897,39.9499,秦皇岛市,监测站,颗粒物(PM10),52,53,73,19,45,129,,99,99,6,30,3,3,0.3,0.4
2024-05-06T1400,1046A,119.5251,39.9041,秦皇岛市,建设大厦,颗粒物(PM10),53,56,63,12,36,120,,88,88,7,25,4,4,0.1,0.3
2024-05-06T1400,3132A,119.610547,39.943889,秦皇岛市,文明里,,,84,72,10,37,123,,91,91,12,38,,3,0.4,0.5
2024-05-06T1400,1307A,120.6659,36.2403,青岛市,仰口,细颗粒物(PM2.5),58,48,22,41,23,108,,115,105,13,9,4,4,0.5,0.4
2024-05-06T1400,1310A,120.4134,36.0658,青岛市,市南区东部子站,"颗粒物(PM10),细颗粒物(PM2.5)",64,78,36,46,21,98,,100,82,19,16,7,7,0.9,0.6
2024-05-06T1400,1311A,120.3664,36.1032,青岛市,四方区子站,细颗粒物(PM2.5),83,68,32,61,27,103,,103,86,21,18,6,5,0.7,0.5
2024-05-06T1400,1312A,120.2994,36.054,青岛市,市南区西部子站,细颗粒物(PM2.5),74,,28,54,20,103,,91,86,21,23,7,6,0.8,0.5
2024-05-06T1400,1313A,120.4581,36.0858,青岛市,崂山区子站,颗粒物(PM10),60,70,28,41,18,103,,105,89,21,17,7,7,0.8,0.5
2024-05-06T1400,1314A,120.1983,35.9608,青岛市,黄岛区子站,细颗粒物(PM2.5),80,73,34,59,26,106,,98,87,23,20,6,6,1.0,0.7
2024-05-06T1400,1315A,120.3999,36.3083,青岛市,城阳区子站,细颗粒物(PM2.5),68,66,29,49,22,96,,88,75,22,21,7,7,0.8,0.5
2024-05-06T1400,1966A,120.0405,35.8735,青岛市,黄岛区4号,细颗粒物(PM2.5),62,58,31,44,19,115,,99,86,20,21,9,7,0.9,0.7
2024-05-06T1400,3362A,120.5014,36.4034,青岛市,即墨2号,颗粒物(PM10),51,51,25,31,18,106,,101,83,15,16,5,5,0.8,0.6
2024-05-06T1400,3642A,120.3503,36.0736,青岛市,市北区南部,细颗粒物(PM2.5),64,,25,46,19,103,,102,83,25,21,6,6,1.0,0.7
2024-05-06T1400,3643A,120.3948,36.1805,青岛市,李沧区北部,细颗粒物(PM2.5),79,73,26,58,23,92,,100,79,22,16,9,8,0.7,0.5
2024-05-06T1400,1702A,113.0426,23.691,清远市,环保大楼,,44,24,36,24,31,138,,76,76,2,13,5,6,0.9,0.9
2024-05-06T1400,1703A,113.0208,23.7106,清远市,凤城街办,,49,41,46,32,32,156,,75,75,12,26,4,5,0.4,0.6
2024-05-06T1400,3025A,113.0477,23.6344,清远市,技师学院,,50,41,53,21,30,159,,79,79,8,26,5,5,0.4,0.5
2024-05-06T1400,3318A,112.9903,23.7403,清远市,清新太和,臭氧1小时,64,49,52,33,35,171,,70,70,17,23,8,7,0.6,0.7
2024-05-06T1400,3455A,113.076,23.7198,清远市,清城东城,,48,40,40,29,32,152,,83,83,11,16,6,6,0.5,0.5
2024-05-06T1400,2661A,107.6325,35.7357,庆阳市,庆阳五中,颗粒物(PM10),53,56,52,14,22,143,,120,120,8,13,5,6,0.3,0.4
2024-05-06T1400,2662A,107.6364,35.7067,庆阳市,市环保局,颗粒物(PM10),56,61,46,9,20,150,,121,121,8,14,4,5,0.3,0.4
2024-05-06T1400,1916A,103.7897,25.5035,曲靖市,环境监测站,,42,32,42,21,22,133,,96,96,7,13,1,4,0.5,0.6
2024-05-06T1400,1917A,103.8,25.5364,曲靖市,烟厂办公区,,44,34,43,19,24,138,,103,103,6,14,4,4,0.4,0.5
2024-05-06T1400,3376A,103.7947,25.462,曲靖市,南苑二区,,43,28,43,26,24,135,,95,95,10,15,4,4,0.5,0.6
2024-05-06T1400,3377A,103.7444,25.5261,曲靖市,曲靖师范学院,,43,30,41,21,29,135,,89,89,8,19,5,9,0.4,0.6
2024-05-06T1400,1264A,118.8692,28.9398,衢州市,环保大楼,,35,12,16,8,11,112,,83,83,7,9,4,4,0.6,0.7
2024-05-06T1400,1265A,118.8709,28.9666,衢州市,实验学校,,36,16,16,10,11,115,,86,86,6,8,6,6,0.6,0.6
2024-05-06T1400,1266A,118.8621,28.9808,衢州市,衢州学院,,36,12,13,7,10,113,,87,87,7,10,6,6,0.5,0.6
2024-05-06T1400,1611A,118.5819,24.9117,泉州市,涂山街,臭氧1小时,55,36,43,12,22,164,,98,98,10,28,4,6,0.7,0.8
2024-05-06T1400,1612A,118.5972,24.8978,泉州市,津头埔,臭氧1小时,57,40,43,22,22,165,,94,94,16,36,3,6,0.5,0.6
2024-05-06T1400,1613A,118.6663,24.9424,泉州市,万安,臭氧1小时,89,60,37,32,20,191,,97,97,12,23,2,2,0.8,0.8
2024-05-06T1400,3529A,118.6333,24.9264,泉州市,城华南路,臭氧1小时,63,44,30,23,19,170,,98,98,16,27,6,6,0.5,0.4
2024-05-06T1400,2626A,88.8876,29.2718,日喀则市,日喀则监测站,,43,15,18,8,8,136,,114,114,6,7,5,5,0.3,0.5
2024-05-06T1400,3726A,88.8781,29.2426,日喀则市,林业技术推广中心,,41,12,20,1,7,129,,109,109,7,9,6,6,0.5,0.5
2024-05-06T1400,1659A,119.471,35.4209,日照市,监测站,,42,34,37,26,28,132,,102,102,19,30,8,8,0.7,0.6
2024-05-06T1400,1660A,119.523,35.4216,日照市,市政府广场,,40,34,39,21,24,128,,104,104,16,22,7,7,0.5,0.5
2024-05-06T1400,1661A,119.5587,35.4044,日照市,港务局,,42,36,37,23,22,132,,106,106,10,15,10,7,0.6,0.6
2024-05-06T1400,3507A,119.5328,35.4625,日照市,职业技术学院,,39,34,36,27,23,119,,94,94,16,21,7,7,0.6,0.5
2024-05-06T1400,3604A,119.3266,35.1044,日照市,岚山环保分局,细颗粒物(PM2.5),53,53,49,37,39,148,,110,110,10,19,5,7,0.6,0.6
2024-05-06T1400,1835A,111.1922,34.7752,三门峡市,市政府,,46,32,31,18,23,145,,82,82,11,28,12,9,0.6,0.7
2024-05-06T1400,1836A,111.1587,34.7942,三门峡市,开发区,,47,31,36,16,18,149,,88,88,12,21,14,10,0.4,0.5
2024-05-06T1400,3039A,111.1911,34.7829,三门峡市,三门峡市第一小学,,48,36,40,20,24,153,,91,91,14,23,13,11,0.5,0.6
2024-05-06T1400,3598A,111.1,34.7167,三门峡市,富达温泉假日酒店,,50,50,47,20,21,138,,68,68,23,31,26,12,0.8,0.7
2024-05-06T1400,2324A,117.6211,26.2625,三明市,三钢,,33,21,28,4,18,103,,75,75,10,19,14,12,1.3,1.2
2024-05-06T1400,2325A,117.635,26.2714,三明市,三明二中,,34,27,24,10,14,108,,79,79,4,11,7,7,0.6,0.7
2024-05-06T1400,2326A,117.6028,26.2378,三明市,三元区政府,,34,14,31,8,12,107,,72,72,5,12,7,7,0.4,0.4
2024-05-06T1400,1876A,109.5078,18.2489,三亚市,河东子站,,17,14,27,11,19,54,,45,45,2,5,3,4,0.3,0.3
2024-05-06T1400,1877A,109.4964,18.2681,三亚市,河西子站,,19,19,25,10,16,54,,44,44,1,6,2,1,0.3,0.3
2024-05-06T1400,3540A,109.7348,18.3443,三亚市,君悦子站,,,28,29,12,16,48,,38,38,4,10,,2,0.2,0.3
2024-05-06T1400,2624A,91.7608,29.2313,山南市,山南监测站,,40,,10,14,9,128,,127,113,5,6,8,8,0.3,0.4
2024-05-06T1400,2625A,91.7706,29.2436,山南市,山南人民医院,,41,11,13,7,14,130,,126,111,7,11,7,7,0.3,0.4
2024-05-06T1400,1674A,116.6794,23.3667,汕头市,金平子站,,46,22,25,12,17,147,,98,98,4,11,5,4,0.7,0.7
2024-05-06T1400,1675A,116.7244,23.3633,汕头市,龙湖子站,,44,25,21,15,16,140,,98,98,6,11,6,6,1.0,0.9
2024-05-06T1400,1676A,116.7258,23.2775,汕头市,濠江子站,颗粒物(PM10),53,55,24,28,20,138,,84,84,12,10,7,5,0.7,0.8
2024-05-06T1400,1677A,116.7519,23.4714,汕头市,澄海子站,,44,40,29,21,22,139,,101,101,6,13,6,7,0.7,0.8
2024-05-06T1400,1678A,116.6092,23.2539,汕头市,潮阳子站,,,38,24,21,18,138,,89,89,4,7,,4,0.6,0.7
2024-05-06T1400,3444A,116.454,23.2684,汕头市,潮南峡山,,48,,31,33,25,134,,89,89,1,6,4,4,0.4,0.5
2024-05-06T1400,3624A,116.4069,23.2533,汕头市,潮南子站,,35,32,40,12,22,112,,79,79,9,12,7,7,0.7,0.8
2024-05-06T1400,1693A,115.3653,22.775,汕尾市,市环保局,,29,11,18,6,11,90,,75,75,2,7,9,8,0.5,0.6
2024-05-06T1400,1694A,115.3706,22.7898,汕尾市,市政府,,32,,21,19,16,101,,82,82,3,5,6,5,0.5,0.5
2024-05-06T1400,1695A,115.3622,22.7925,汕尾市,新城中学,,32,27,22,11,12,101,,84,84,3,8,7,6,0.4,0.5
2024-05-06T1400,2645A,109.9154,33.8715,商洛市,监测站,,39,33,31,11,16,124,,74,74,5,15,7,7,0.5,0.5
2024-05-06T1400,3045A,109.9643,33.8471,商洛市,商州区中学,,43,43,31,17,19,128,,76,76,6,19,6,7,0.6,0.5
2024-05-06T1400,2408A,115.6702,34.4285,商丘市,环境监测站,,48,45,86,25,50,153,,100,100,4,25,8,8,0.3,0.4
2024-05-06T1400,2409A,115.6458,34.4045,商丘市,粮食局,臭氧1小时,54,42,80,30,54,163,,104,104,7,23,10,9,0.3,0.5
2024-05-06T1400,2410A,115.6293,34.3948,商丘市,睢阳区环保局,臭氧1小时,67,70,86,24,38,173,,110,110,5,25,6,6,0.1,0.3
2024-05-06T1400,3171A,115.6071,34.4465,商丘市,梁园区档案局,,,,77,19,42,162,,104,104,8,26,9,8,0.3,0.4
2024-05-06T1400,1141A,121.4,31.238,上海市,普陀,细颗粒物(PM2.5),62,,41,44,36,164,,102,102,17,28,5,5,0.7,0.8
2024-05-06T1400,1142A,121.478,31.2036,上海市,十五厂,臭氧1小时,64,,37,42,38,171,,107,107,18,31,6,6,0.5,0.7
2024-05-06T1400,1143A,121.467,31.3008,上海市,虹口,细颗粒物(PM2.5),62,,41,44,37,168,,110,110,19,28,9,9,0.7,0.8
2024-05-06T1400,1144A,121.412,31.1654,上海市,徐汇上师大,"细颗粒物(PM2.5),臭氧1小时",59,,37,42,37,167,,107,107,18,28,9,8,0.7,1
2024-05-06T1400,1145A,121.536,31.2659,上海市,杨浦四漂,臭氧1小时,67,,38,47,43,173,,116,116,18,26,8,7,0.8,1
2024-05-06T1400,1147A,121.425,31.2261,上海市,静安监测站,,,,71,51,41,165,,102,102,18,28,8,8,0.7,0.9
2024-05-06T1400,1148A,121.703,31.1907,上海市,浦东川沙,臭氧1小时,72,,46,50,42,177,,117,117,26,41,6,6,0.6,0.8
2024-05-06T1400,1149A,121.533,31.2284,上海市,浦东新区监测站,细颗粒物(PM2.5),69,,40,50,38,169,,109,109,15,23,7,7,0.7,0.8
2024-05-06T1400,1150A,121.577,31.2071,上海市,浦东张江,细颗粒物(PM2.5),72,,39,52,38,161,,104,104,20,34,5,5,0.7,0.9
2024-05-06T1400,3265A,121.4316,31.3322,上海市,宝山庙行,臭氧1小时,68,,42,47,38,174,,113,113,14,27,8,7,0.8,1
2024-05-06T1400,3266A,121.8791,31.4662,上海市,崇明上实东滩,臭氧1小时,93,45,38,34,31,194,,119,119,15,18,13,11,1.0,1
2024-05-06T1400,3268A,121.3162,31.2838,上海市,嘉定南翔,,50,32,36,31,34,157,,100,100,16,28,8,8,0.8,0.9
2024-05-06T1400,3269A,121.3359,30.7456,上海市,金山新城,细颗粒物(PM2.5),62,,32,44,32,167,,105,105,12,18,7,6,0.8,0.9
2024-05-06T1400,3270A,121.4996,31.0739,上海市,闵行浦江,臭氧1小时,58,,36,31,36,166,,108,108,17,29,7,7,0.8,1
