timepoint,stationcode,longitude,latitude,area,positionname,primarypollutant,aqi,pm10,pm10_24h,pm2_5,pm2_5_24h,o3,o3_24h,o3_8h,o3_8h_24h,no2,no2_24h,so2,so2_24h,co,co_24h
2023-11-21T1900,2566A,102.1879,31.914,阿坝藏族羌族自治州,州农科所,,,,50,,,20,,23,22,,,7,7,0.3,0.1
2023-11-21T1900,2568A,102.2502,31.8896,阿坝藏族羌族自治州,马师校,,35,35,18,15,15,58,,52,52,25,25,4,4,0.6,0.6
2023-11-21T1900,3994A,102.2165,31.9024,阿坝藏族羌族自治州,马尔康中学西区,,36,35,25,25,16,51,,52,51,32,20,4,4,0.9,0.5
2023-11-21T1900,2695A,80.292,41.1694,阿克苏地区,电视台,颗粒物(PM10),74,98,156,39,54,91,,88,88,21,42,10,10,0.4,1
2023-11-21T1900,2696A,80.2613,41.1551,阿克苏地区,艺术中心,颗粒物(PM10),74,97,143,36,55,84,,85,85,22,46,4,4,0.6,1.2
2023-11-21T1900,2204A,105.6467,38.8363,阿拉善盟,西城区西花园,颗粒物(PM10),63,76,51,23,24,74,,86,86,18,20,7,9,0.8,0.7
2023-11-21T1900,2205A,105.6985,38.8411,阿拉善盟,蒙二幼,颗粒物(PM10),59,67,48,21,18,76,,86,86,24,23,5,5,0.4,0.5
2023-11-21T1900,2206A,105.724,38.8516,阿拉善盟,环保局新楼,颗粒物(PM10),51,51,36,21,13,70,,89,84,21,9,7,8,0.5,0.4
2023-11-21T1900,2708A,88.1264,47.8517,阿勒泰地区,市站,,,,14,,4,44,,61,51,,7,4,4,,0.3
2023-11-21T1900,2630A,80.1161,32.5,阿里地区,阿里监测站,,27,3,9,1,4,85,,78,78,4,18,2,6,0.4,0.5
2023-11-21T1900,3192A,80.0903,32.5028,阿里地区,阿里藏医院,,27,5,13,1,5,86,,78,78,4,33,4,8,0.4,0.5
2023-11-21T1900,2642A,109.0318,32.6537,安康市,香溪洞,颗粒物(PM10),51,51,40,33,24,36,,46,25,26,18,7,7,0.6,0.5
2023-11-21T1900,2643A,109.0281,32.6939,安康市,安康市监测站,颗粒物(PM10),70,89,57,48,35,4,,15,14,52,34,11,13,1.5,0.8
2023-11-21T1900,2644A,109.0072,32.6975,安康市,汉滨区检察院,颗粒物(PM10),64,78,48,42,33,6,,16,12,48,26,12,15,0.9,0.6
2023-11-21T1900,2291A,117.0809,30.5177,安庆市,环科院,颗粒物(PM10),53,56,62,36,35,53,,80,80,72,62,9,8,0.7,0.8
2023-11-21T1900,2292A,117.0331,30.5119,安庆市,马山宾馆,颗粒物(PM10),56,61,63,33,36,80,,95,95,43,60,7,8,0.7,0.8
2023-11-21T1900,2294A,116.9896,30.6145,安庆市,安庆大学,颗粒物(PM10),56,61,57,35,31,63,,48,,46,43,9,9,0.5,0.7
2023-11-21T1900,3173A,117.0598,30.5351,安庆市,市人大,颗粒物(PM10),55,60,70,29,36,76,,93,93,45,60,10,6,0.6,0.8
2023-11-21T1900,3123A,105.9408,26.2431,安顺市,凤凰山,,42,35,30,29,22,80,,84,84,12,16,9,15,0.5,0.5
2023-11-21T1900,3124A,105.9439,26.2564,安顺市,金钟山,,42,42,30,28,20,78,,84,83,14,10,18,15,0.5,0.5
2023-11-21T1900,3125A,105.8983,26.2481,安顺市,娄家坡,,40,34,29,28,22,76,,81,80,12,8,10,10,0.5,0.5
2023-11-21T1900,1819A,114.3551,36.1017,安阳市,红庙街,细颗粒物(PM2.5),221,214,173,171,143,40,,88,87,83,50,10,11,1.5,1.2
2023-11-21T1900,1820A,114.361,36.0681,安阳市,银杏小区,细颗粒物(PM2.5),241,216,173,191,166,17,,62,59,114,42,6,8,2.3,1.1
2023-11-21T1900,3141A,114.3922,36.0878,安阳市,信访局,细颗粒物(PM2.5),222,196,189,172,149,68,,96,96,76,51,9,10,1.4,0.9
2023-11-21T1900,3669A,114.4705,36.0637,安阳市,左辅环卫站,细颗粒物(PM2.5),214,210,190,164,141,93,,111,109,60,44,11,10,0.6,0.8
2023-11-21T1900,3703A,114.2917,36.0949,安阳市,安钢职工学校,细颗粒物(PM2.5),241,228,211,191,162,66,,90,90,,54,8,12,1.9,1.6
2023-11-21T1900,1748A,123.044,41.1196,鞍山市,深沟寺,颗粒物(PM10),58,66,56,37,46,59,,97,88,20,17,6,10,0.6,0.6
2023-11-21T1900,1749A,123.011,41.0931,鞍山市,太阳城,颗粒物(PM10),60,69,67,39,38,48,,100,90,32,19,10,12,0.9,0.7
2023-11-21T1900,1750A,123.0485,41.1442,鞍山市,太平,颗粒物(PM10),56,62,74,37,43,56,,99,89,32,20,10,12,0.6,0.5
2023-11-21T1900,1751A,122.9642,41.0971,鞍山市,铁西三道街,细颗粒物(PM2.5),77,98,88,56,53,18,,89,74,67,33,10,14,1.0,1
2023-11-21T1900,1752A,122.9341,41.0833,鞍山市,铁西工业园区,细颗粒物(PM2.5),57,61,69,40,46,58,,101,93,29,22,9,12,0.7,0.7
2023-11-21T1900,1753A,123.022,41.0821,鞍山市,明达新区,颗粒物(PM10),62,73,56,41,38,59,,95,87,24,19,8,10,0.7,0.7
2023-11-21T1900,2195A,107.4212,40.761,巴彦淖尔市,附二中,颗粒物(PM10),132,213,162,51,55,71,,64,64,11,42,3,13,0.5,0.9
2023-11-21T1900,2196A,107.37,40.7372,巴彦淖尔市,市环保大楼,颗粒物(PM10),118,185,127,35,34,76,,68,68,7,29,3,4,0.3,0.7
2023-11-21T1900,1956A,86.1472,41.7538,巴音郭楞州,孔雀公园,颗粒物(PM10),83,115,160,39,54,83,,69,69,14,42,5,6,0.4,0.8
2023-11-21T1900,1957A,86.1972,41.7166,巴音郭楞州,棉纺厂,颗粒物(PM10),107,164,199,27,60,74,,68,68,23,55,4,4,0.4,0.8
2023-11-21T1900,1958A,86.2357,41.7173,巴音郭楞州,经济开发区,颗粒物(PM10),101,152,181,32,52,69,,71,71,30,48,4,4,0.5,0.6
2023-11-21T1900,2914A,106.7677,31.8794,巴中市,苏山坪,细颗粒物(PM2.5),52,43,57,36,41,40,,56,23,23,23,5,4,0.4,0.5
2023-11-21T1900,3182A,106.7656,31.8545,巴中市,丽阳花园,细颗粒物(PM2.5),90,114,86,67,57,15,,12,12,80,44,4,4,1.5,1
2023-11-21T1900,3183A,106.7418,31.8654,巴中市,圣泉水务公司,细颗粒物(PM2.5),62,65,56,44,42,2,,11,9,48,39,5,4,0.9,0.7
2023-11-21T1900,3616A,106.7616,31.8344,巴中市,市中心医院,细颗粒物(PM2.5),100,114,75,75,51,4,,8,8,46,36,5,5,0.6,0.5
2023-11-21T1900,2235A,122.7911,45.6077,白城市,洮北区环保局,,,100,40,55,29,13,,56,51,64,19,,7,1.3,0.5
2023-11-21T1900,2236A,122.8738,45.5725,白城市,市环保局,颗粒物(PM10),51,51,49,30,26,16,,58,44,62,26,11,8,0.5,0.4
2023-11-21T1900,2231A,126.4219,41.9171,白山市,喜丰,,45,45,55,24,29,50,,64,64,32,33,12,14,0.9,1
2023-11-21T1900,2232A,126.4077,41.9419,白山市,环保局,颗粒物(PM10),61,71,58,42,30,22,,53,53,45,32,18,18,1.3,1.2
2023-11-21T1900,2647A,104.1724,36.5446,白银市,第三小学,颗粒物(PM10),154,258,92,37,28,82,,76,76,17,61,4,87,0.5,1.1
2023-11-21T1900,2648A,104.1465,36.5482,白银市,动力公司,颗粒物(PM10),127,204,71,48,27,84,,82,82,16,36,3,43,0.4,0.9
2023-11-21T1900,2512A,106.6103,23.9011,百色市,市监测站,颗粒物(PM10),72,94,69,49,39,132,,124,124,19,28,26,19,1.0,0.9
2023-11-21T1900,2513A,106.6538,23.8859,百色市,市中心血站,颗粒物(PM10),74,97,92,49,58,128,,126,126,24,36,31,27,1.1,1.1
2023-11-21T1900,3406A,106.6085,23.8798,百色市,祈福高中,颗粒物(PM10),73,96,78,52,43,128,,128,128,18,31,15,14,0.8,0.8
2023-11-21T1900,2270A,117.396,32.939,蚌埠市,工人疗养院,颗粒物(PM10),62,74,90,31,50,94,,113,113,32,46,7,11,0.5,0.7
2023-11-21T1900,2271A,117.3605,32.9427,蚌埠市,百货大楼,颗粒物(PM10),62,73,96,32,48,85,,106,106,38,54,5,9,0.7,0.9
2023-11-21T1900,2273A,117.4185,32.8911,蚌埠市,蚌埠学院,颗粒物(PM10),60,70,81,31,43,85,,112,112,36,37,6,9,0.6,0.7
2023-11-21T1900,2274A,117.3533,32.9673,蚌埠市,淮上区政府,颗粒物(PM10),64,78,102,42,61,76,,106,105,53,56,8,11,0.6,0.8
2023-11-21T1900,2275A,117.3145,32.8977,蚌埠市,高新区,"颗粒物(PM10),细颗粒物(PM2.5)",79,107,88,58,52,65,,103,102,55,48,7,10,0.6,0.8
2023-11-21T1900,3715A,117.3092,32.9314,蚌埠市,蚌埠田家炳中学,颗粒物(PM10),75,99,98,48,52,71,,98,98,48,52,6,12,0.5,0.7
2023-11-21T1900,1585A,109.8756,40.6532,包头市,市环境监测站,颗粒物(PM10),105,160,144,64,65,10,,37,35,95,70,31,43,1.7,1.9
2023-11-21T1900,1587A,109.9991,40.5842,包头市,包头八中,颗粒物(PM10),103,156,156,56,72,8,,40,38,95,75,26,62,1.3,2.2
2023-11-21T1900,1588A,109.8538,40.6821,包头市,青山宾馆,颗粒物(PM10),93,136,150,52,72,16,,35,31,81,73,14,37,1.1,2
2023-11-21T1900,1589A,109.8642,40.6288,包头市,惠龙物流,颗粒物(PM10),93,136,140,44,66,17,,43,42,72,72,23,37,1.3,1.8
2023-11-21T1900,1590A,110.0377,40.5546,包头市,东河鸿龙湾,颗粒物(PM10),75,100,161,34,73,29,,48,48,51,64,15,32,0.6,2
2023-11-21T1900,3283A,109.9154,40.5685,包头市,滨河大厦,颗粒物(PM10),76,102,120,31,58,32,,50,50,45,65,15,31,0.4,1.3
2023-11-21T1900,3419A,109.9447,40.6261,包头市,包头市委党校,"颗粒物(PM10),细颗粒物(PM2.5)",97,143,122,72,62,15,,46,45,121,86,33,36,2.0,1.7
2023-11-21T1900,3683A,109.8331,40.6576,包头市,昆区政府,颗粒物(PM10),100,150,138,62,71,15,,37,34,86,73,27,41,1.6,1.9
2023-11-21T1900,1930A,107.185,34.3063,宝鸡市,庙沟村,,42,,74,29,64,56,,63,63,17,23,8,11,0.7,0.8
2023-11-21T1900,1931A,107.0708,34.3017,宝鸡市,竹园沟,,40,,68,28,62,67,,62,62,18,33,7,6,0.7,0.8
2023-11-21T1900,1932A,107.1906,34.3672,宝鸡市,三陆医院,颗粒物(PM10),52,54,129,24,97,38,,38,38,48,71,5,19,0.8,1.2
2023-11-21T1900,1933A,107.1431,34.3547,宝鸡市,监测站,,42,42,100,26,80,33,,43,43,53,53,5,8,0.9,1
2023-11-21T1900,1934A,107.1186,34.3739,宝鸡市,技工学校,,34,34,104,13,86,66,,67,67,24,50,6,14,0.5,1
2023-11-21T1900,1935A,107.3906,34.3528,宝鸡市,陈仓区环保局家属楼,细颗粒物(PM2.5),57,46,147,40,123,30,,72,52,55,65,12,36,1.2,1.4
2023-11-21T1900,1936A,107.2058,34.3497,宝鸡市,文理学院,,34,34,119,20,89,50,,52,52,38,59,6,11,0.7,1
2023-11-21T1900,1937A,107.2386,34.3622,宝鸡市,三迪小学,,47,47,126,26,96,26,,47,47,64,67,8,14,0.8,1.2
2023-11-21T1900,1051A,115.493,38.8632,保定市,游泳馆,细颗粒物(PM2.5),216,234,171,166,130,9,,32,30,118,89,12,13,1.1,1.3
2023-11-21T1900,1052A,115.5213,38.8959,保定市,华电二区,细颗粒物(PM2.5),225,209,155,175,118,1,,22,20,120,89,9,9,1.2,1
2023-11-21T1900,1053A,115.4713,38.9108,保定市,接待中心,细颗粒物(PM2.5),205,200,177,155,117,0,,26,22,115,82,8,9,1.5,1.4
2023-11-21T1900,1054A,115.4612,38.8416,保定市,地表水厂,细颗粒物(PM2.5),228,245,193,178,138,4,,31,28,116,88,8,10,1.2,0.9
2023-11-21T1900,1056A,115.5086,38.8639,保定市,监测站,细颗粒物(PM2.5),222,222,168,172,122,5,,26,25,120,90,11,10,1.5,1.6
2023-11-21T1900,3581A,115.31981,38.95208,保定市,满城区生态环境分局,细颗粒物(PM2.5),208,249,178,158,117,4,,45,42,124,81,6,6,1.4,1.3
2023-11-21T1900,3582A,115.47694,38.76408,保定市,清苑区第二中学,,,,212,,127,6,,23,,112,91,9,11,,1
2023-11-21T1900,3583A,115.62909,39.02311,保定市,徐水物探局,细颗粒物(PM2.5),221,285,220,171,124,3,,25,23,125,90,9,10,1.5,1.2
2023-11-21T1900,4004A,115.4202,38.8656,保定市,双鹰农机,细颗粒物(PM2.5),188,197,169,141,112,4,,38,35,115,80,12,12,1.2,1.1
2023-11-21T1900,2594A,99.1678,25.1081,保山市,市环境监测站,,26,26,24,17,13,59,,65,64,8,10,7,6,0.5,0.6
2023-11-21T1900,2595A,99.1711,25.1328,保山市,市环保局,,24,24,26,15,13,56,,60,60,5,9,6,6,0.3,0.3
2023-11-21T1900,1867A,109.1436,21.4086,北海市,海滩公园,臭氧1小时,107,94,75,42,38,213,,216,216,17,19,10,15,1.2,0.7
2023-11-21T1900,1868A,109.0981,21.4661,北海市,新市环保局,颗粒物(PM10),54,57,66,36,40,113,,168,164,44,24,7,13,0.7,0.6
2023-11-21T1900,1869A,109.1778,21.5233,北海市,北海工业园,细颗粒物(PM2.5),74,84,80,54,47,128,,172,169,66,26,8,16,0.7,0.6
2023-11-21T1900,3400A,109.1911,21.4415,北海市,龙潭自来水厂,颗粒物(PM10),54,58,71,32,43,86,,182,176,37,20,8,12,0.6,0.6
2023-11-21T1900,1001A,116.3621,39.8784,北京市,万寿西宫,细颗粒物(PM2.5),221,242,172,171,106,25,,48,48,89,92,4,4,1.2,1
2023-11-21T1900,1002A,116.2202,40.2915,北京市,定陵,细颗粒物(PM2.5),189,211,157,142,101,38,,46,46,38,53,2,3,1.0,0.8
2023-11-21T1900,1003A,116.4174,39.9289,北京市,东四,细颗粒物(PM2.5),248,264,195,198,127,43,,51,51,72,39,7,7,1.0,1
2023-11-21T1900,1004A,116.4072,39.8863,北京市,天坛,细颗粒物(PM2.5),207,211,154,157,106,14,,48,48,54,62,3,3,1.1,1
2023-11-21T1900,1005A,116.462,39.9365,北京市,农展馆,细颗粒物(PM2.5),200,231,174,150,105,30,,46,46,75,77,3,2,1.1,1.2
2023-11-21T1900,1006A,116.3392,39.9295,北京市,官园,细颗粒物(PM2.5),212,232,182,162,114,38,,57,57,64,72,6,6,1.1,1.1
2023-11-21T1900,1007A,116.2878,39.9611,北京市,海淀万柳,细颗粒物(PM2.5),175,217,174,132,97,7,,44,42,108,78,1,3,1.6,1.2
2023-11-21T1900,1008A,116.6636,40.135,北京市,顺义新城,细颗粒物(PM2.5),207,217,162,157,103,43,,60,60,54,61,1,2,0.9,0.8
2023-11-21T1900,1009A,116.6275,40.3275,北京市,怀柔镇,细颗粒物(PM2.5),170,192,144,129,96,14,,56,56,91,58,2,3,1.2,0.8
2023-11-21T1900,1010A,116.2296,40.217,北京市,昌平镇,细颗粒物(PM2.5),172,205,160,130,97,24,,38,38,78,74,1,3,1.0,0.9
2023-11-21T1900,1011A,116.3966,39.9821,北京市,奥体中心,细颗粒物(PM2.5),200,223,165,150,109,14,,44,43,91,76,3,4,1.2,1
2023-11-21T1900,1012A,116.184,39.9136,北京市,古城,细颗粒物(PM2.5),202,247,201,152,109,9,,42,42,75,53,3,4,1.8,1.3
2023-11-21T1900,3281A,115.9718,40.4529,北京市,延庆夏都,细颗粒物(PM2.5),150,186,139,115,87,7,,25,24,85,62,3,4,0.9,0.8
2023-11-21T1900,3417A,117.0709,40.1465,北京市,平谷新城,细颗粒物(PM2.5),217,244,155,167,101,2,,46,42,89,46,2,3,1.5,0.9
2023-11-21T1900,3418A,116.8336,40.4095,北京市,密云新城,细颗粒物(PM2.5),188,241,158,141,94,21,,65,63,87,54,3,2,1.0,0.7
2023-11-21T1900,3672A,116.1541,39.8204,北京市,丰台云岗,细颗粒物(PM2.5),196,247,186,147,108,28,,51,51,83,69,5,5,1.3,1
2023-11-21T1900,3673A,116.6804,39.9081,北京市,通州东关,细颗粒物(PM2.5),228,266,198,178,119,3,,37,36,118,91,3,5,1.5,1.1
2023-11-21T1900,3674A,115.9577,39.7603,北京市,房山燕山,细颗粒物(PM2.5),182,195,163,137,108,45,,48,48,54,46,5,4,0.8,0.9
2023-11-21T1900,3675A,116.4672,39.7733,北京市,大兴旧宫,细颗粒物(PM2.5),227,236,172,177,111,34,,44,44,55,78,3,2,0.7,0.8
2023-11-21T1900,3694A,115.986,40.4563,北京市,延庆石河营,细颗粒物(PM2.5),153,192,139,117,87,12,,24,23,81,60,1,3,0.9,0.8
2023-11-21T1900,3695A,116.6151,40.3053,北京市,怀柔新城,细颗粒物(PM2.5),172,186,141,130,96,42,,53,53,45,50,2,2,0.9,0.7
2023-11-21T1900,3696A,116.2545,39.8768,北京市,丰台小屯,细颗粒物(PM2.5),200,226,170,150,103,1,,45,43,119,82,1,3,1.2,1.2
2023-11-21T1900,3697A,116.84,40.3844,北京市,密云镇,细颗粒物(PM2.5),182,217,153,137,92,27,,63,63,72,56,3,3,1.0,0.8
2023-11-21T1900,1761A,123.8275,41.3064,本溪市,大峪,颗粒物(PM10),54,57,46,33,28,70,,84,80,19,17,7,8,0.5,0.4
2023-11-21T1900,1762A,123.7567,41.3325,本溪市,溪湖,颗粒物(PM10),56,62,43,38,25,63,,72,71,28,26,13,18,0.8,0.9
2023-11-21T1900,1763A,123.7169,41.3094,本溪市,彩屯,细颗粒物(PM2.5),72,75,77,52,50,21,,39,32,59,56,42,48,2.7,3.4
2023-11-21T1900,1764A,123.7669,41.2864,本溪市,东明,细颗粒物(PM2.5),53,42,30,37,24,73,,74,74,30,24,9,10,0.8,0.6
2023-11-21T1900,1765A,123.7992,41.2664,本溪市,新立屯,,40,40,29,26,16,78,,76,76,18,19,10,10,0.7,0.7
2023-11-21T1900,1766A,123.8142,41.3472,本溪市,威宁,颗粒物(PM10),58,65,42,38,22,54,,72,66,30,22,6,7,0.6,0.7
2023-11-21T1900,2587A,105.2864,27.3125,毕节市,八中,细颗粒物(PM2.5),84,79,77,62,61,58,,85,85,34,20,11,8,0.9,0.8
2023-11-21T1900,2588A,105.31,27.2944,毕节市,师专,细颗粒物(PM2.5),92,85,78,68,61,73,,90,88,22,24,8,7,0.7,0.9
2023-11-21T1900,3537A,105.3631,27.3533,毕节市,长征村,细颗粒物(PM2.5),94,91,93,70,66,87,,97,97,10,13,8,9,0.6,0.7
2023-11-21T1900,1629A,118.0018,37.3617,滨州市,第二水厂,细颗粒物(PM2.5),103,144,143,77,82,58,,110,108,73,57,17,18,1.2,1.3
2023-11-21T1900,1630A,117.9776,37.393,滨州市,北中新校,细颗粒物(PM2.5),94,127,140,70,74,12,,112,103,122,66,14,18,1.7,1.2
2023-11-21T1900,3514A,117.9378,37.3956,滨州市,中海酒店,颗粒物(PM10),92,134,125,67,72,21,,121,113,107,56,16,18,1.5,1
2023-11-21T1900,3515A,117.9378,37.3553,滨州市,开发区一中,细颗粒物(PM2.5),97,136,139,72,82,43,,125,116,98,82,17,22,0.8,0.9
2023-11-21T1900,3516A,118.0917,37.694,滨州市,金海六路,细颗粒物(PM2.5),142,185,128,108,77,65,,121,118,83,61,18,20,1.2,1
2023-11-21T1900,4028A,117.9956,37.3753,滨州市,滨州市西街道办事处,细颗粒物(PM2.5),138,178,144,105,92,9,,103,95,108,60,17,21,2.8,1.3
2023-11-21T1900,2311A,115.8072,33.8399,亳州市,污水处理厂,颗粒物(PM10),53,56,121,35,73,97,,109,109,33,39,9,15,0.6,0.8
2023-11-21T1900,2312A,115.7789,33.8518,亳州市,三国揽胜宫,颗粒物(PM10),56,62,124,25,68,87,,110,110,35,33,9,14,0.6,0.7
2023-11-21T1900,3332A,115.7633,33.8034,亳州市,亳州学院,颗粒物(PM10),56,61,103,33,68,98,,115,115,25,29,4,10,0.8,1
2023-11-21T1900,2693A,82.0485,44.8556,博尔塔拉蒙古自治州,市党校,,32,32,31,16,16,20,,22,17,17,14,9,8,0.4,0.4
2023-11-21T1900,2694A,82.0806,44.8969,博尔塔拉蒙古自治州,市环保局,,27,27,30,14,15,27,,26,26,16,23,7,9,0.7,0.9
2023-11-21T1900,1071A,116.8842,38.2991,沧州市,沧县城建局,细颗粒物(PM2.5),235,210,171,185,125,47,,89,86,67,44,4,7,1.0,0.9
2023-11-21T1900,1072A,116.8584,38.3254,沧州市,电视转播站,细颗粒物(PM2.5),216,208,162,166,123,27,,95,90,83,38,13,13,1.1,0.9
2023-11-21T1900,1073A,116.8709,38.3228,沧州市,市环保局,细颗粒物(PM2.5),237,219,158,187,124,29,,92,88,81,36,4,8,,1
2023-11-21T1900,3324A,116.8136,38.3004,沧州市,河北水利电力学院,细颗粒物(PM2.5),209,227,177,159,117,28,,84,81,77,36,11,13,0.9,0.8
2023-11-21T1900,2622A,97.1806,31.1273,昌都市,昌都监测站,,46,36,40,32,20,22,,57,55,78,35,11,10,1.3,0.7
2023-11-21T1900,3719A,97.1714,31.1406,昌都市,昌都会议中心,,26,26,25,15,11,40,,70,69,48,18,6,6,0.3,0.2
2023-11-21T1900,2690A,88.1236,43.8886,昌吉州,天山天池,,21,7,2,2,3,67,,71,69,4,5,6,6,0.4,0.4
2023-11-21T1900,2692A,87.2717,44.0297,昌吉州,新区政务中心,,43,38,22,30,18,28,,25,25,37,44,4,4,0.8,0.7
2023-11-21T1900,3613A,87.3095,44.0142,昌吉州,亚心广场,,31,31,22,19,12,28,,23,23,28,36,3,3,0.9,0.8
2023-11-21T1900,1119A,125.3325,43.9166,长春市,食品厂,细颗粒物(PM2.5),104,99,47,78,41,7,,50,39,78,33,11,11,1.6,0.7
2023-11-21T1900,1120A,125.2863,43.9027,长春市,客车厂,细颗粒物(PM2.5),123,,46,93,41,9,,50,36,87,35,12,12,1.5,0.8
2023-11-21T1900,1121A,125.2841,43.8463,长春市,邮电学院,细颗粒物(PM2.5),77,73,47,56,41,6,,56,42,84,31,12,12,0.9,0.5
2023-11-21T1900,1122A,125.3716,43.8772,长春市,劳动公园,细颗粒物(PM2.5),79,76,45,58,33,7,,58,45,84,31,11,11,1.1,0.6
2023-11-21T1900,1123A,125.3297,43.8805,长春市,园林处,细颗粒物(PM2.5),74,69,45,54,36,7,,55,43,80,30,11,11,1.0,0.7
2023-11-21T1900,1124A,125.4605,43.79,长春市,净月潭,细颗粒物(PM2.5),65,55,41,47,33,28,,64,51,30,17,6,11,0.6,0.6
2023-11-21T1900,1126A,125.3863,43.8447,长春市,经开区环卫处,细颗粒物(PM2.5),65,68,46,47,37,6,,56,42,82,38,22,15,1.1,0.6
2023-11-21T1900,1127A,125.245,43.7783,长春市,高新区管委会,细颗粒物(PM2.5),78,76,45,57,43,4,,58,42,66,26,9,9,1.1,0.7
2023-11-21T1900,1128A,125.1761,43.8325,长春市,岱山公园,细颗粒物(PM2.5),89,89,46,66,39,11,,55,44,75,30,7,7,1.1,0.7
2023-11-21T1900,1335A,113.0833,28.2325,长沙市,经开区环保局,颗粒物(PM10),64,78,79,36,40,49,,97,96,75,44,12,14,0.9,0.6
2023-11-21T1900,1336A,112.8872,28.2189,长沙市,高开区环保局,颗粒物(PM10),57,64,84,39,41,81,,102,102,38,47,10,13,0.8,0.9
2023-11-21T1900,1337A,113.0792,28.2053,长沙市,马坡岭,颗粒物(PM10),65,79,89,45,44,67,,97,97,48,45,13,13,0.6,0.6
2023-11-21T1900,1338A,112.9394,28.19,长沙市,湖南师范大学,颗粒物(PM10),64,77,70,40,38,58,,93,92,42,37,11,13,0.8,0.7
2023-11-21T1900,1339A,113.0178,28.1322,长沙市,雨花区环保局,颗粒物(PM10),55,59,68,33,34,85,,104,104,37,32,8,11,0.6,0.7
2023-11-21T1900,1340A,112.9792,28.2597,长沙市,伍家岭,颗粒物(PM10),68,86,101,37,41,9,,84,76,106,48,8,9,1.5,1
2023-11-21T1900,1341A,113.0014,28.1944,长沙市,火车新站,细颗粒物(PM2.5),67,75,93,48,49,46,,74,73,64,55,5,9,1.0,1
2023-11-21T1900,1342A,112.9844,28.1178,长沙市,天心区环保局,细颗粒物(PM2.5),75,61,78,55,38,80,,102,102,54,51,11,13,0.9,0.6
2023-11-21T1900,1343A,112.8908,28.1308,长沙市,湖南中医药大学,颗粒物(PM10),69,88,90,42,43,7,,90,83,99,41,7,9,1.2,1
2023-11-21T1900,1344A,112.9581,28.3611,长沙市,沙坪,颗粒物(PM10),53,55,49,33,33,82,,108,108,31,19,9,8,0.7,0.6
2023-11-21T1900,1727A,113.1147,36.1547,长治市,清华站,细颗粒物(PM2.5),104,110,97,78,72,26,,82,82,94,56,17,21,1.1,1
2023-11-21T1900,1728A,113.1031,36.1989,长治市,监测站,细颗粒物(PM2.5),122,101,88,92,74,11,,96,94,106,52,14,21,1.8,1
2023-11-21T1900,1730A,113.0886,36.2125,长治市,审计局,细颗粒物(PM2.5),79,74,84,58,74,86,,106,106,48,53,16,25,0.8,1
2023-11-21T1900,1731A,113.0844,36.1856,长治市,长治八中,颗粒物(PM10),96,142,111,54,61,23,,105,102,94,46,21,28,1.2,0.9
2023-11-21T1900,2845A,113.1569,36.1911,长治市,德盛苑,细颗粒物(PM2.5),79,66,78,58,65,101,,100,100,32,33,19,19,1.1,1
2023-11-21T1900,3568A,113.06,36.0464,长治市,向阳小学,细颗粒物(PM2.5),90,110,115,67,78,43,,108,98,88,54,29,37,1.0,0.9
2023-11-21T1900,3569A,112.8792,36.3144,长治市,屯留一中,细颗粒物(PM2.5),82,94,82,60,59,79,,106,106,50,45,16,18,0.9,1
2023-11-21T1900,3570A,113.235,36.3489,长治市,潞城四中,细颗粒物(PM2.5),127,112,125,96,91,16,,131,108,102,63,20,35,1.1,1.3
2023-11-21T1900,1854A,111.6975,28.9703,常德市,市二中,颗粒物(PM10),63,75,90,35,53,117,,101,101,23,32,14,11,1.0,0.9
2023-11-21T1900,1857A,111.7158,29.1456,常德市,白鹤山,颗粒物(PM10),63,75,80,32,41,100,,95,95,11,14,9,9,0.4,0.4
2023-11-21T1900,3138A,111.7153,29.0289,常德市,武陵区永安,颗粒物(PM10),63,76,80,37,52,96,,97,97,31,28,12,11,0.9,0.9
2023-11-21T1900,3139A,111.6892,28.9881,常德市,鼎城区玉霞,,,76,91,48,64,103,,98,98,,32,10,8,1.1,0.9
2023-11-21T1900,3140A,111.6625,29.0531,常德市,武陵区长庚,颗粒物(PM10),62,73,86,31,57,105,,106,106,26,32,12,10,0.7,0.7
2023-11-21T1900,1196A,119.9633,31.762,常州市,市监测站,细颗粒物(PM2.5),135,150,148,103,87,46,,138,131,132,87,9,11,1.2,1.2
2023-11-21T1900,1200A,119.9468,31.7069,常州市,武进监测站,细颗粒物(PM2.5),134,149,129,102,78,102,,152,151,81,65,4,9,0.9,0.8
2023-11-21T1900,1201A,119.9255,31.9087,常州市,安家,细颗粒物(PM2.5),117,134,140,88,86,77,,138,135,92,89,8,9,1.3,1.1
2023-11-21T1900,3002A,119.9805,31.8174,常州市,行政中心,细颗粒物(PM2.5),108,121,126,81,80,128,,153,153,58,79,14,18,1.0,1.3
2023-11-21T1900,3003A,120.0522,31.7748,常州市,经开区,细颗粒物(PM2.5),115,151,149,87,86,85,,154,152,89,93,17,19,2.1,1.5
2023-11-21T1900,3010A,119.9025,31.7964,常州市,钟楼,细颗粒物(PM2.5),137,146,127,104,82,66,,140,137,117,79,9,11,0.9,0.8
2023-11-21T1900,3429A,119.8598,31.7066,常州市,武进经发区,细颗粒物(PM2.5),115,138,133,87,77,109,,148,146,80,73,22,13,0.9,0.8
2023-11-21T1900,3430A,119.5826,31.7245,常州市,金坛城区,细颗粒物(PM2.5),97,111,117,72,75,107,,150,150,55,48,11,12,0.8,1
2023-11-21T1900,2220A,120.4318,41.5881,朝阳市,西梁,颗粒物(PM10),64,77,112,34,76,47,,81,77,32,34,18,18,0.8,1.2
2023-11-21T1900,2221A,120.4521,41.5646,朝阳市,河畔小区,颗粒物(PM10),68,85,119,27,75,61,,83,82,18,28,12,14,0.7,1.1
2023-11-21T1900,2222A,120.4176,41.5648,朝阳市,八里堡,颗粒物(PM10),69,88,114,31,66,54,,76,73,24,36,19,18,0.9,1.3
2023-11-21T1900,2223A,120.3806,41.5969,朝阳市,农业园区,颗粒物(PM10),76,101,111,42,85,38,,80,71,47,38,18,18,0.9,1.1
2023-11-21T1900,1705A,116.6367,23.6719,潮州市,西园路,细颗粒物(PM2.5),94,78,44,70,32,111,,122,122,21,15,7,6,0.6,0.4
2023-11-21T1900,1706A,116.6447,23.6706,潮州市,档案局,细颗粒物(PM2.5),73,59,47,53,31,104,,122,122,23,17,6,5,0.9,0.6
2023-11-21T1900,3026A,116.6183,23.6608,潮州市,市政府,细颗粒物(PM2.5),69,70,48,50,27,100,,118,118,30,21,5,6,0.8,0.6
2023-11-21T1900,2472A,113.0073,25.9061,郴州市,马头岭,,43,43,50,16,19,76,,87,87,25,29,13,9,0.9,1
2023-11-21T1900,2473A,113.0116,25.8226,郴州市,市职中,"颗粒物(PM10),细颗粒物(PM2.5)",59,67,58,42,36,30,,92,89,47,27,10,9,0.9,0.6
2023-11-21T1900,2474A,113.0161,25.8001,郴州市,兴隆步行街,颗粒物(PM10),67,84,70,28,38,8,,82,75,92,39,11,9,1.3,0.9
2023-11-21T1900,2475A,113.0383,25.8071,郴州市,市审计局,细颗粒物(PM2.5),65,54,56,47,37,44,,97,90,38,29,14,11,0.8,0.6
2023-11-21T1900,2476A,113.0348,25.7759,郴州市,市环保局,颗粒物(PM10),52,54,63,13,36,38,,75,75,50,39,9,11,0.6,0.6
2023-11-21T1900,1432A,104.176,30.6872,成都市,十里店,细颗粒物(PM2.5),190,188,143,143,103,6,,27,27,78,56,2,2,0.9,0.9
2023-11-21T1900,1433A,104.079,30.5706,成都市,三瓦窑,细颗粒物(PM2.5),148,182,158,113,106,16,,11,11,53,51,4,4,0.9,1
2023-11-21T1900,1434A,104.1114,30.63,成都市,沙河铺,细颗粒物(PM2.5),169,186,134,128,98,7,,10,10,72,49,4,3,1.0,1
2023-11-21T1900,1437A,104.0786,30.6531,成都市,君平街,细颗粒物(PM2.5),152,154,144,116,98,29,,23,23,52,56,4,4,0.7,1.2
2023-11-21T1900,1438A,103.613,31.0283,成都市,灵岩寺,细颗粒物(PM2.5),100,83,70,75,60,45,,49,48,30,19,8,10,0.8,0.7
2023-11-21T1900,2880A,104.0239,30.65639,成都市,大石西路,细颗粒物(PM2.5),148,148,133,113,102,40,,31,31,46,57,4,4,0.8,1
2023-11-21T1900,3136A,104.2725,30.5589,成都市,龙泉驿区区政府,细颗粒物(PM2.5),132,134,118,100,89,26,,32,32,54,44,2,3,0.8,0.8
2023-11-21T1900,3357A,104.0106,30.6931,成都市,金博路,细颗粒物(PM2.5),124,144,131,94,98,25,,33,33,49,45,1,1,0.8,0.9
2023-11-21T1900,3359A,104.0578,30.5225,成都市,华阳,细颗粒物(PM2.5),144,163,150,110,104,3,,6,6,51,37,2,2,1.1,1
2023-11-21T1900,3487A,104.2394,30.5319,成都市,车城东七路,细颗粒物(PM2.5),137,154,146,104,100,32,,31,31,,47,3,5,0.9,0.8
2023-11-21T1900,3488A,104.3853,30.7453,成都市,青白江技师分院,细颗粒物(PM2.5),117,114,102,88,80,9,,37,37,65,52,1,3,1.0,0.9
2023-11-21T1900,3489A,104.0789,30.4072,成都市,科学城,细颗粒物(PM2.5),166,169,143,126,107,3,,19,17,67,50,2,4,0.8,0.8
2023-11-21T1900,4011A,103.8506,30.6947,成都市,光华大道三段,细颗粒物(PM2.5),114,118,115,86,91,26,,35,35,36,37,3,3,0.8,0.9
2023-11-21T1900,1062A,117.9531,40.9081,承德市,铁路,细颗粒物(PM2.5),170,188,111,129,69,12,,24,24,78,57,12,11,1.5,1.2
2023-11-21T1900,1063A,117.9392,40.9763,承德市,中国银行,细颗粒物(PM2.5),145,166,118,111,67,7,,45,36,71,49,8,9,1.3,1.1
2023-11-21T1900,1064A,117.9503,40.928,承德市,开发区,细颗粒物(PM2.5),124,146,97,94,56,5,,30,29,87,58,7,7,1.3,1.2
2023-11-21T1900,1065A,117.8051,40.9655,承德市,文化中心,细颗粒物(PM2.5),168,225,152,127,84,0,,30,29,78,54,10,10,1.5,1.2
2023-11-21T1900,1066A,117.9268,41.0026,承德市,离宫,细颗粒物(PM2.5),134,142,98,102,61,18,,41,41,60,41,4,4,0.9,0.8
2023-11-21T1900,2314A,117.47,30.6618,池州市,池州学院,颗粒物(PM10),66,82,59,47,30,58,,92,92,57,36,8,8,1.0,1.1
2023-11-21T1900,3333A,117.5627,30.695,池州市,第八中学,颗粒物(PM10),51,52,50,28,25,74,,99,92,36,32,9,5,0.6,0.9
2023-11-21T1900,3334A,117.5038,30.6243,池州市,第十二中学,颗粒物(PM10),60,70,56,40,27,36,,92,90,59,34,8,6,0.6,1.1
2023-11-21T1900,1744A,118.9233,42.2816,赤峰市,松山一中,颗粒物(PM10),60,70,102,15,45,13,,55,42,68,41,13,15,1.3,0.9
2023-11-21T1900,1745A,118.9576,42.2728,赤峰市,哈达街,颗粒物(PM10),56,61,98,21,55,14,,53,41,71,45,28,22,0.8,0.9
2023-11-21T1900,1746A,118.8788,42.2554,赤峰市,天义路,颗粒物(PM10),57,64,89,13,42,12,,58,44,69,37,16,8,1.3,0.9
2023-11-21T1900,3058A,119.2658,42.0353,赤峰市,银河街,颗粒物(PM10),64,77,88,22,44,40,,52,50,37,38,15,27,0.7,1
2023-11-21T1900,3286A,118.9359,42.3147,赤峰市,桥北物流园区,颗粒物(PM10),53,55,88,26,50,17,,52,48,72,44,17,13,0.9,0.6
2023-11-21T1900,2521A,107.3476,22.4136,崇左市,市环保局江州分局,颗粒物(PM10),61,71,65,43,34,92,,137,137,30,23,8,8,0.7,0.6
2023-11-21T1900,2522A,107.3702,22.3707,崇左市,城南新区,颗粒物(PM10),80,110,55,34,31,91,,49,,26,23,8,8,0.6,0.6
2023-11-21T1900,2298A,118.3093,32.3153,滁州市,老年大学,细颗粒物(PM2.5),83,105,80,61,49,33,,97,94,91,56,12,11,1.2,0.9
2023-11-21T1900,2299A,118.3244,32.2786,滁州市,人大宾馆,细颗粒物(PM2.5),88,104,90,65,55,52,,94,92,97,64,12,10,1.2,0.9
2023-11-21T1900,3207A,118.3118,32.3038,滁州市,市政府原办公楼,细颗粒物(PM2.5),80,102,84,59,51,30,,96,92,99,64,10,10,1.6,1.1
2023-11-21T1900,3331A,118.3267,32.2634,滁州市,图书馆,颗粒物(PM10),67,84,87,45,52,72,,107,100,57,56,15,12,1.1,0.9
2023-11-21T1900,2605A,101.5482,25.0441,楚雄州,州环境监测站,,21,21,28,11,20,49,,54,54,7,16,6,14,0.6,0.6
2023-11-21T1900,2606A,101.538,25.0492,楚雄州,市经济开发区,,27,27,27,11,20,47,,52,52,9,16,5,25,0.5,0.6
2023-11-21T1900,2548A,107.5277,31.2827,达州市,达州职业技术学院,细颗粒物(PM2.5),69,81,70,50,47,9,,20,20,36,26,6,5,0.7,0.6
2023-11-21T1900,2549A,107.5086,31.2186,达州市,市环境监测站,颗粒物(PM10),84,117,72,58,43,4,,8,8,60,41,11,8,1.2,0.7
2023-11-21T1900,2550A,107.4988,31.2132,达州市,凤凰小区,细颗粒物(PM2.5),85,114,73,63,46,8,,11,11,58,42,12,9,1.1,0.6
2023-11-21T1900,2551A,107.5082,31.1986,达州市,达县机关宾馆,颗粒物(PM10),85,119,80,58,48,5,,11,11,56,40,12,9,1.5,0.9
2023-11-21T1900,2552A,107.4644,31.2124,达州市,市政中心,颗粒物(PM10),78,105,90,53,51,3,,5,5,64,52,11,13,1.1,1.5
2023-11-21T1900,2614A,100.1542,25.7054,大理州,大理市环境监测站,,33,,22,23,14,56,,61,61,14,10,4,4,0.5,0.4
2023-11-21T1900,2615A,100.2171,25.5811,大理州,大理古城,,,51,20,27,13,36,,66,66,34,13,7,6,,0.5
2023-11-21T1900,1109A,121.612,38.9741,大连市,甘井子,颗粒物(PM10),63,76,50,32,23,59,,85,82,51,32,7,8,0.6,0.6
2023-11-21T1900,1110A,121.565,38.9511,大连市,周水子,颗粒物(PM10),85,120,54,46,24,18,,86,75,86,30,14,14,1.2,0.7
2023-11-21T1900,1111A,121.5637,38.8845,大连市,星海三站,颗粒物(PM10),93,135,53,34,19,71,,92,89,36,21,6,6,0.6,0.5
2023-11-21T1900,1112A,121.6302,38.9117,大连市,青泥洼桥,颗粒物(PM10),65,80,44,33,21,16,,86,74,85,23,28,12,1.5,0.6
2023-11-21T1900,1113A,121.6251,38.8638,大连市,傅家庄,颗粒物(PM10),61,72,50,25,17,77,,94,90,40,21,10,8,0.6,0.5
2023-11-21T1900,1114A,121.5213,38.8661,大连市,七贤岭,颗粒物(PM10),79,108,50,41,20,30,,102,91,72,27,10,10,0.9,0.5
2023-11-21T1900,1115A,121.2529,38.8061,大连市,旅顺,颗粒物(PM10),59,67,44,34,23,78,,106,102,40,22,8,7,0.6,0.5
2023-11-21T1900,1116A,121.7485,39.1311,大连市,金州,细颗粒物(PM2.5),79,102,43,58,23,74,,89,88,38,24,10,12,1.0,0.6
2023-11-21T1900,1117A,121.7811,39.0496,大连市,开发区,颗粒物(PM10),60,69,48,34,19,15,,89,80,101,31,11,9,0.7,0.5
2023-11-21T1900,1118A,121.9762,39.0631,大连市,双D港,,34,34,26,17,12,63,,88,86,22,21,6,8,0.6,0.5
2023-11-21T1900,1789A,124.81117,46.03138,大庆市,大同区,细颗粒物(PM2.5),84,93,64,62,43,27,,49,46,48,24,13,9,1.3,0.8
2023-11-21T1900,1790A,125.129,46.533,大庆市,龙凤区,,36,29,50,25,34,6,,21,,62,34,9,8,0.8,0.8
2023-11-21T1900,1791A,124.902,46.408,大庆市,红岗区,,42,39,45,29,32,10,,38,33,56,28,6,7,0.5,0.5
2023-11-21T1900,1792A,125.153,46.586,大庆市,萨尔图区,,32,29,57,22,39,20,,32,29,55,41,6,7,0.5,0.7
2023-11-21T1900,1793A,124.9042,46.6215,大庆市,让胡路区,,26,26,53,14,34,36,,39,39,33,28,4,5,0.5,0.7
2023-11-21T1900,3481A,125.141,46.634,大庆市,萨区政府监测点,,18,18,53,12,41,39,,41,41,29,32,7,8,0.3,0.7
2023-11-21T1900,1721A,113.3819,40.1097,大同市,果树场,颗粒物(PM10),116,181,159,76,78,12,,50,49,82,54,18,18,0.9,1.5
2023-11-21T1900,1723A,113.2994,40.0758,大同市,云冈宾馆,颗粒物(PM10),65,79,155,35,67,31,,54,54,62,65,16,28,0.6,1.4
2023-11-21T1900,1724A,113.3444,40.0917,大同市,大同大学,颗粒物(PM10),98,145,117,40,50,26,,59,58,76,60,16,24,0.7,1
2023-11-21T1900,1725A,113.2661,40.1269,大同市,安家小村,颗粒物(PM10),90,129,152,23,63,46,,61,61,49,65,14,36,0.3,2.3
2023-11-21T1900,1726A,113.2711,40.0844,大同市,教育学院,颗粒物(PM10),110,169,183,31,74,26,,47,46,70,78,14,29,0.6,1.9
2023-11-21T1900,3282A,113.3397,40.0597,大同市,大同市卫生学校,颗粒物(PM10),78,105,105,46,57,19,,52,52,84,68,16,24,0.8,1.1
2023-11-21T1900,3565A,113.1367,40.1122,大同市,云冈站,颗粒物(PM10),74,98,102,38,48,16,,63,60,77,54,21,40,0.6,0.7
2023-11-21T1900,3566A,113.1186,40.2556,大同市,图书馆,颗粒物(PM10),62,74,92,29,48,34,,72,70,54,29,19,17,0.4,0.8
2023-11-21T1900,3567A,113.5931,40.0461,大同市,区一中,颗粒物(PM10),107,164,152,58,78,26,,74,67,78,63,30,39,1.0,1.3
2023-11-21T1900,3676A,113.2802,40.0995,大同市,第二人民医院,颗粒物(PM10),117,184,168,38,68,29,,59,55,68,69,18,32,0.5,1.8
2023-11-21T1900,2269A,124.1069,50.4097,大兴安岭地区,科技局,,26,21,15,18,14,63,,66,59,5,5,3,3,0.4,0.4
2023-11-21T1900,3663A,124.1164,50.4278,大兴安岭地区,红旗社区,,22,,6,6,5,68,,67,64,5,6,7,5,0.4,0.4
2023-11-21T1900,1600A,124.3303,40.0625,丹东市,江湾东路,,43,43,29,29,21,63,,60,60,13,15,10,12,0.8,0.8
2023-11-21T1900,1601A,124.4256,40.1503,丹东市,临江后街,,46,46,58,24,34,40,,37,37,31,45,8,14,0.6,1.1
2023-11-21T1900,1602A,124.3933,40.1461,丹东市,元宝山,,41,41,31,21,24,37,,45,44,33,24,11,12,0.5,0.9
2023-11-21T1900,1603A,124.3633,40.1092,丹东市,民主桥,颗粒物(PM10),53,55,44,29,26,41,,49,48,29,31,21,12,1.3,1
2023-11-21T1900,3541A,109.5726,19.5167,儋州市,第一中学子站,,48,48,50,20,24,93,,107,96,6,9,3,3,0.6,0.5
2023-11-21T1900,3542A,109.5567,19.5187,儋州市,东坡学校子站,,45,45,52,19,23,94,,104,97,9,11,3,3,0.5,0.5
2023-11-21T1900,2616A,98.5842,24.428,德宏州,德宏州监测站,,28,28,33,11,17,39,,57,57,20,17,16,14,0.5,0.6
2023-11-21T1900,3677A,98.5881,24.4368,德宏州,芒市人民政府综合楼,,30,30,28,10,17,43,,59,59,19,15,13,15,0.4,0.4
2023-11-21T1900,1901A,104.4239,31.1208,德阳市,东山公园,细颗粒物(PM2.5),123,140,138,93,85,49,,64,64,40,43,2,3,0.7,0.8
2023-11-21T1900,1902A,104.3826,31.1317,德阳市,西小区,细颗粒物(PM2.5),134,124,130,102,103,25,,55,55,56,48,4,4,0.7,0.9
2023-11-21T1900,1904A,104.3553,31.1091,德阳市,耐火材料厂,细颗粒物(PM2.5),132,146,156,100,100,29,,60,60,47,41,2,4,0.7,0.8
2023-11-21T1900,3639A,104.4019,31.1244,德阳市,市教育局,细颗粒物(PM2.5),122,119,117,92,89,29,,54,54,55,52,4,3,0.9,0.8
2023-11-21T1900,1622A,116.3032,37.4674,德州市,儿童乐园,细颗粒物(PM2.5),160,193,157,122,100,29,,110,103,123,43,12,15,1.5,1
2023-11-21T1900,1624A,116.2991,37.4451,德州市,监理站,细颗粒物(PM2.5),168,185,163,127,101,64,,112,109,90,45,12,15,1.2,1
2023-11-21T1900,3066A,116.2721,37.4379,德州市,九衢泉纯净水厂,细颗粒物(PM2.5),133,173,170,101,100,87,,108,108,49,41,9,12,1.0,1
2023-11-21T1900,3371A,116.3728,37.4403,德州市,开发区人民医院,细颗粒物(PM2.5),132,190,164,100,88,44,,114,109,106,38,15,13,1.5,1
2023-11-21T1900,3372A,116.3572,37.4094,德州市,太阳城中学,细颗粒物(PM2.5),138,172,152,105,97,70,,112,109,75,38,8,9,1.0,0.9
2023-11-21T1900,3511A,116.5652,37.3319,德州市,陵城艺术中心,细颗粒物(PM2.5),140,168,158,107,94,108,,120,120,35,28,10,12,0.8,0.8
2023-11-21T1900,2621A,99.7056,27.8317,迪庆州,迪庆州站,,22,22,28,12,20,63,,62,62,14,14,10,10,0.5,0.7
2023-11-21T1900,3180A,99.7136,27.8094,迪庆州,质量技术监督局,,,21,31,20,20,,,37,,11,17,8,8,0.3,0.9
2023-11-21T1900,2663A,104.6241,35.5734,定西市,东关小学,,,77,82,29,47,,,71,71,,28,,18,,0.7
2023-11-21T1900,2664A,104.6194,35.5934,定西市,供电公司,颗粒物(PM10),68,86,85,38,56,38,,63,63,47,32,8,13,0.8,1.1
2023-11-21T1900,1389A,113.7547,23.0494,东莞市,莞城梨川,颗粒物(PM10),87,124,88,62,42,103,,158,157,52,56,9,11,0.9,0.9
2023-11-21T1900,1390A,113.7944,23.0128,东莞市,东城石井,,,49,80,22,40,,,150,150,13,25,7,9,0.6,0.7
2023-11-21T1900,1391A,113.7383,22.9658,东莞市,南城西平,颗粒物(PM10),56,62,100,28,47,120,,156,156,61,77,6,9,0.6,0.7
2023-11-21T1900,3319A,113.7338,23.0381,东莞市,万江金泰,颗粒物(PM10),58,65,83,35,41,107,,149,149,39,54,9,9,0.8,0.9
2023-11-21T1900,3626A,113.7533,23.0202,东莞市,南城元岭,颗粒物(PM10),68,86,98,40,44,70,,153,148,81,60,4,5,1.2,1
2023-11-21T1900,3627A,113.7875,23.0457,东莞市,东城主山,颗粒物(PM10),59,67,82,31,37,111,,158,158,48,56,9,11,0.7,0.8
2023-11-21T1900,1666A,118.6614,37.4309,东营市,市环保局,细颗粒物(PM2.5),89,110,92,66,51,104,,110,108,41,38,11,14,0.9,1
2023-11-21T1900,3036A,118.6904,37.4338,东营市,开发区管委会,细颗粒物(PM2.5),79,100,90,58,54,124,,121,121,30,34,9,12,0.9,1
2023-11-21T1900,3365A,118.5719,37.565,东营市,垦利区民丰路,细颗粒物(PM2.5),107,136,95,80,52,45,,106,102,91,45,16,18,1.0,0.9
2023-11-21T1900,3498A,118.5055,37.8612,东营市,河口城区,细颗粒物(PM2.5),119,163,104,90,52,90,,123,123,42,38,12,14,1.2,1.1
2023-11-21T1900,3646A,118.4978,37.4623,东营市,胜利站,细颗粒物(PM2.5),92,128,103,68,53,83,,106,106,69,51,13,12,1.0,1
2023-11-21T1900,3734A,118.35,37.26,东营市,理想之城,颗粒物(PM10),87,124,96,61,45,95,,115,108,44,41,18,8,0.7,0.8
2023-11-21T1900,1591A,110.0023,39.8129,鄂尔多斯市,综合楼,颗粒物(PM10),73,95,64,19,20,69,,73,73,22,35,4,23,0.4,0.6
2023-11-21T1900,1592A,109.9486,39.8261,鄂尔多斯市,巴音孟克林场办事处,颗粒物(PM10),69,88,61,19,25,65,,71,71,16,31,6,21,0.4,0.6
2023-11-21T1900,1593A,109.7736,39.5986,鄂尔多斯市,康泽苑,颗粒物(PM10),73,95,57,19,23,73,,74,74,14,30,5,7,0.3,0.6
2023-11-21T1900,1594A,109.8119,39.5989,鄂尔多斯市,华泰汽车城,颗粒物(PM10),71,92,66,17,26,75,,75,75,12,39,5,7,0.4,0.7
2023-11-21T1900,1595A,109.9734,39.7884,鄂尔多斯市,奥林花园,颗粒物(PM10),75,100,72,19,23,56,,64,64,31,41,11,23,0.3,0.7
2023-11-21T1900,2436A,114.8938,30.3994,鄂州市,市政府,颗粒物(PM10),59,68,82,41,43,97,,92,92,34,35,11,16,0.8,0.8
2023-11-21T1900,2437A,114.8989,30.3714,鄂州市,赵家坝,细颗粒物(PM2.5),67,73,78,48,45,84,,85,85,46,41,10,14,0.7,0.8
2023-11-21T1900,3654A,114.8094,30.4089,鄂州市,精准医疗中心,颗粒物(PM10),73,95,113,46,50,70,,85,85,51,50,31,42,2.7,1.9
2023-11-21T1900,2499A,108.3411,21.6158,防城港市,沙万,颗粒物(PM10),57,64,75,30,45,123,,140,140,36,40,6,19,0.5,0.7
2023-11-21T1900,2500A,108.3514,21.7731,防城港市,防城档案局,颗粒物(PM10),76,101,125,43,54,102,,156,153,38,38,9,7,0.9,0.6
2023-11-21T1900,2501A,108.3506,21.6414,防城港市,大海花园,颗粒物(PM10),57,64,73,18,55,142,,149,149,27,30,4,16,0.4,0.7
2023-11-21T1900,1371A,113.1294,23.0067,佛山市,湾梁,颗粒物(PM10),62,73,97,33,50,123,,141,141,46,86,10,10,0.6,0.8
2023-11-21T1900,1372A,113.1083,23.0478,佛山市,华材职中,,,107,115,46,61,116,,146,146,,89,9,9,0.7,0.9
2023-11-21T1900,1373A,113.144,23.0453,佛山市,南海气象局,颗粒物(PM10),55,60,113,35,59,112,,145,145,52,91,9,13,0.5,0.8
2023-11-21T1900,1374A,113.2881,22.8094,佛山市,顺德苏岗,颗粒物(PM10),64,77,81,36,49,108,,152,152,60,56,9,10,0.9,0.9
2023-11-21T1900,1376A,112.8383,22.8678,佛山市,高明孔堂,颗粒物(PM10),68,85,85,36,47,159,,158,158,41,46,7,10,0.7,0.7
2023-11-21T1900,1377A,112.8836,23.1588,佛山市,三水监测站,颗粒物(PM10),90,129,123,60,67,71,,190,174,118,81,3,8,0.8,0.8
2023-11-21T1900,1378A,112.867,23.185,佛山市,三水云东海,颗粒物(PM10),70,89,93,36,54,98,,162,162,65,65,6,9,0.7,0.8
2023-11-21T1900,3625A,113.2544,22.7642,佛山市,容桂街道办,颗粒物(PM10),68,85,107,36,51,162,,163,163,41,83,5,6,0.8,1
2023-11-21T1900,1282A,119.2681,26.0504,福州市,师大,,43,43,43,18,19,84,,105,105,27,25,6,8,0.7,0.7
2023-11-21T1900,1283A,119.2984,26.1028,福州市,五四北路,,44,44,39,20,18,87,,106,106,27,23,4,4,0.5,0.5
2023-11-21T1900,1284A,119.2648,26.0768,福州市,杨桥西路,,44,44,41,17,17,86,,104,104,25,22,4,5,0.5,0.6
2023-11-21T1900,1285A,119.317,26.0746,福州市,紫阳,颗粒物(PM10),52,53,37,24,17,67,,100,96,37,20,6,7,0.6,0.6
2023-11-21T1900,3048A,119.5799,26.0936,福州市,九龙,,39,23,25,6,10,122,,118,118,11,10,4,5,0.4,0.5
2023-11-21T1900,3526A,119.5189,25.9664,福州市,吴航,,31,28,43,16,20,97,,101,101,16,27,3,5,0.6,0.6
2023-11-21T1900,1755A,123.7977,41.8491,抚顺市,望花区,细颗粒物(PM2.5),75,75,55,55,46,57,,66,63,27,21,17,17,1.2,0.6
2023-11-21T1900,1756A,123.9161,41.8822,抚顺市,顺城区,细颗粒物(PM2.5),64,72,58,46,41,45,,44,,38,36,10,10,0.7,0.9
2023-11-21T1900,1757A,124.0436,41.8611,抚顺市,东洲区,细颗粒物(PM2.5),72,65,48,52,32,81,,79,79,12,16,8,11,0.6,0.7
2023-11-21T1900,1758A,123.9247,41.8642,抚顺市,新抚区,细颗粒物(PM2.5),70,68,57,51,40,48,,53,49,33,33,17,11,0.5,0.5
2023-11-21T1900,1759A,124.0972,41.8961,抚顺市,大伙房水库,细颗粒物(PM2.5),65,62,47,47,32,82,,84,84,10,10,9,10,0.6,0.6
2023-11-21T1900,1760A,123.7086,41.8391,抚顺市,沈抚新城,细颗粒物(PM2.5),82,103,66,60,40,26,,66,60,52,30,14,14,1.3,0.9
2023-11-21T1900,2376A,116.2127,28.0814,抚州市,桐源党溪,,40,40,45,20,22,35,,77,75,18,14,1,4,0.7,0.8
2023-11-21T1900,2377A,116.3544,27.9831,抚州市,市站,颗粒物(PM10),53,55,56,25,26,41,,75,73,52,35,7,9,1.2,1
2023-11-21T1900,2378A,116.3565,27.963,抚州市,血防站,,46,46,60,19,26,66,,78,78,28,31,2,4,0.8,0.8
2023-11-21T1900,2379A,116.3564,28.0007,抚州市,采茶剧团,,40,40,57,17,30,68,,84,84,30,35,3,6,1.0,1
2023-11-21T1900,2380A,116.385,27.9647,抚州市,医学分院,,,37,58,15,26,26,,78,77,75,34,7,11,,0.8
2023-11-21T1900,2207A,121.6094,41.998,阜新市,工业园区,,,71,95,17,36,31,,66,61,,35,,24,0.6,1.4
2023-11-21T1900,2208A,121.6697,42.0279,阜新市,长青街,颗粒物(PM10),57,64,116,26,85,34,,66,63,38,37,10,24,0.9,1.2
2023-11-21T1900,2209A,121.6673,42.0705,阜新市,农业园区,,39,39,109,14,68,52,,64,64,18,31,9,20,0.6,1.1
2023-11-21T1900,2210A,121.6717,42.0224,阜新市,东苑,颗粒物(PM10),64,78,85,21,47,36,,61,58,45,41,14,26,0.8,1.3
2023-11-21T1900,2211A,121.6506,42.0498,阜新市,玉龙新城,颗粒物(PM10),71,91,93,34,40,10,,66,56,73,39,16,21,0.8,0.8
2023-11-21T1900,2301A,115.8277,32.8929,阜阳市,市监测站,颗粒物(PM10),69,87,97,38,60,39,,96,86,67,49,7,9,0.7,0.7
2023-11-21T1900,2303A,115.8554,32.8605,阜阳市,开发区,颗粒物(PM10),55,60,101,25,46,77,,103,103,49,41,8,11,0.4,0.5
2023-11-21T1900,2875A,115.784,32.8892,阜阳市,阜阳职业技术学院,颗粒物(PM10),56,61,82,34,50,73,,96,96,43,37,5,8,0.4,0.6
2023-11-21T1900,3468A,115.7901,32.8613,阜阳市,市规划展馆,颗粒物(PM10),54,58,93,27,47,72,,104,104,46,41,4,6,0.5,0.6
2023-11-21T1900,3469A,115.836,32.9183,阜阳市,枣园社区,颗粒物(PM10),56,62,88,37,51,61,,104,103,49,43,6,8,0.6,0.6
2023-11-21T1900,2669A,102.9099,34.9841,甘南州,州政府,颗粒物(PM10),63,75,73,28,37,38,,69,69,45,38,20,23,0.8,0.8
2023-11-21T1900,3380A,102.8914,34.9617,甘南州,甘肃民族师范学院,,19,19,63,3,23,55,,81,81,28,44,5,12,0.3,0.5
2023-11-21T1900,2570A,101.9603,30.0475,甘孜藏族自治州,水桥子,,16,16,29,11,11,45,,51,51,27,32,9,9,0.4,0.4
2023-11-21T1900,3065A,101.9533,29.9972,甘孜藏族自治州,州环保局,,,36,19,13,6,,,64,64,42,15,7,8,0.4,0.2
2023-11-21T1900,3414A,115.8347,28.932,赣江新区,桑海产业园,颗粒物(PM10),70,90,71,31,26,29,,74,72,87,58,10,7,0.8,0.7
2023-11-21T1900,2363A,114.9367,25.8664,赣州市,地委,颗粒物(PM10),52,54,68,30,28,36,,121,116,82,36,2,11,1.2,0.9
2023-11-21T1900,2364A,114.9461,25.8481,赣州市,气象台,颗粒物(PM10),71,92,58,35,30,14,,116,108,116,48,8,11,1.7,1
2023-11-21T1900,2365A,114.9322,25.8333,赣州市,市图书馆,颗粒物(PM10),77,104,75,35,31,10,,111,104,112,50,6,12,2.0,1.1
2023-11-21T1900,3109A,115.0093,25.8613,赣州市,赣县区卫计委,颗粒物(PM10),65,80,51,39,28,44,,109,102,62,37,8,8,0.9,0.8
2023-11-21T1900,2683A,106.2319,36.1417,固原市,马园,颗粒物(PM10),185,319,83,50,36,43,,78,72,38,33,7,6,0.4,0.6
2023-11-21T1900,2684A,106.2792,36.0022,固原市,监测站,颗粒物(PM10),136,222,76,44,51,55,,79,79,31,37,5,7,0.5,1.2
2023-11-21T1900,2685A,106.2375,36.0211,固原市,新区,颗粒物(PM10),104,157,76,35,36,50,,71,71,26,37,5,5,0.3,0.7
2023-11-21T1900,3522A,106.2177,35.9959,固原市,原州区十五小,颗粒物(PM10),91,132,63,31,34,52,,80,77,32,33,5,4,0.5,0.8
2023-11-21T1900,2544A,106.6303,30.4576,广安市,市委,细颗粒物(PM2.5),108,103,93,81,70,37,,28,28,32,37,12,13,0.8,1
2023-11-21T1900,2545A,106.6271,30.4663,广安市,友谊中学,细颗粒物(PM2.5),107,108,89,80,63,41,,24,24,,35,10,11,0.9,0.9
2023-11-21T1900,2547A,106.6388,30.4551,广安市,广电花园,细颗粒物(PM2.5),105,91,86,79,68,32,,25,25,42,36,12,11,0.8,1
2023-11-21T1900,2902A,106.6351,30.4865,广安市,北辰小学,细颗粒物(PM2.5),97,102,84,72,61,49,,29,29,23,26,13,12,0.7,0.7
2023-11-21T1900,2523A,105.8945,32.4535,广元市,黑石坡,,45,,47,31,36,55,,29,29,29,37,6,7,0.4,0.7
2023-11-21T1900,2524A,105.821,32.4444,广元市,老城,颗粒物(PM10),56,62,81,38,46,14,,32,32,59,46,1,3,0.9,0.9
2023-11-21T1900,2526A,105.8628,32.4287,广元市,监测站,,49,49,67,30,44,18,,28,28,58,42,4,5,0.9,1.3
2023-11-21T1900,3617A,105.8047,32.4166,广元市,经开区,细颗粒物(PM2.5),60,65,89,43,63,14,,26,26,64,51,2,5,0.7,0.9
2023-11-21T1900,1345A,113.2347,23.1423,广州市,广雅中学,颗粒物(PM10),61,71,101,29,48,105,,134,134,49,78,9,6,0.8,1.1
2023-11-21T1900,1346A,113.2612,23.105,广州市,市五中,颗粒物(PM10),65,80,93,38,55,108,,133,133,50,70,10,8,0.7,1
2023-11-21T1900,1348A,113.3478,23.0916,广州市,广东商学院,细颗粒物(PM2.5),104,126,102,78,54,99,,120,118,72,85,10,7,0.8,0.9
2023-11-21T1900,1349A,113.4332,23.1047,广州市,市八十六中,,,,103,,47,,,126,126,,81,,8,,0.9
2023-11-21T1900,1350A,113.3505,22.9483,广州市,番禺中学,颗粒物(PM10),61,72,111,30,60,129,,141,141,42,77,6,9,0.7,1
2023-11-21T1900,1351A,113.2146,23.3916,广州市,花都师范,颗粒物(PM10),71,91,98,38,42,133,,150,150,54,74,5,7,0.6,0.8
2023-11-21T1900,1352A,113.2597,23.1331,广州市,市监测站,"颗粒物(PM10),细颗粒物(PM2.5)",59,68,83,42,44,115,,134,134,52,85,9,5,0.7,1
2023-11-21T1900,1353A,113.5618,23.312,广州市,九龙镇镇龙,颗粒物(PM10),92,133,81,52,37,15,,124,114,114,45,6,7,0.8,0.7
2023-11-21T1900,1354A,113.2765,23.1544,广州市,麓湖,颗粒物(PM10),51,51,72,27,37,50,,132,126,71,66,5,5,0.7,0.7
2023-11-21T1900,1355A,113.443,23.3035,广州市,帽峰山森林公园,颗粒物(PM10),52,54,54,26,29,155,,160,160,18,18,9,9,0.5,0.5
2023-11-21T1900,2846A,113.3221,23.1322,广州市,体育西,颗粒物(PM10),72,93,90,38,48,110,,136,136,62,65,13,8,0.9,0.9
2023-11-21T1900,3298A,113.5717,23.5491,广州市,从化街口,细颗粒物(PM2.5),95,110,62,71,36,50,,127,126,56,39,5,4,1.0,0.8
2023-11-21T1900,3299A,113.3472,23.3692,广州市,白云竹料,颗粒物(PM10),71,92,82,46,39,77,,144,143,73,53,7,6,1.2,1
2023-11-21T1900,3300A,113.2981,23.237,广州市,白云嘉禾,颗粒物(PM10),72,94,88,44,42,67,,137,137,94,70,7,7,0.9,0.8
2023-11-21T1900,3301A,113.4256,23.1716,广州市,黄埔科学城,颗粒物(PM10),61,72,69,31,36,76,,131,128,48,45,5,5,0.8,0.7
2023-11-21T1900,3302A,113.3942,23.0483,广州市,番禺大学城,颗粒物(PM10),68,85,109,44,45,140,,151,151,54,74,11,13,0.5,0.7
2023-11-21T1900,3303A,113.4922,22.8168,广州市,南沙黄阁,颗粒物(PM10),86,122,105,42,47,66,,161,157,114,76,5,6,0.9,0.8
2023-11-21T1900,3304A,113.5342,22.7896,广州市,南沙街,臭氧1小时,68,81,85,42,43,174,,190,190,42,54,3,5,0.7,0.7
2023-11-21T1900,3443A,113.2902,23.5544,广州市,花都梯面,颗粒物(PM10),59,67,52,38,28,36,,143,136,72,42,5,5,0.6,0.5
2023-11-21T1900,3445A,113.7858,23.7478,广州市,从化良口,,,42,30,25,18,92,,106,106,14,17,3,4,,0.4
2023-11-21T1900,3446A,113.8051,23.2614,广州市,增城荔城,"颗粒物(PM10),细颗粒物(PM2.5)",67,84,61,48,32,55,,132,130,55,26,5,8,1.0,0.7
2023-11-21T1900,2505A,109.568,23.1478,贵港市,德智高中,,,67,66,35,46,,,67,,13,28,8,11,0.7,0.8
2023-11-21T1900,2506A,109.6047,23.0666,贵港市,江南子站,颗粒物(PM10),70,90,138,39,63,122,,148,148,30,44,10,13,0.8,1.2
2023-11-21T1900,2507A,109.6014,23.0948,贵港市,贵城子站,细颗粒物(PM2.5),60,66,81,43,56,118,,143,143,31,43,12,14,0.7,0.9
2023-11-21T1900,2508A,109.5669,23.1065,贵港市,荷城子站,颗粒物(PM10),82,114,99,46,52,91,,140,140,41,37,12,13,1.1,1.1
2023-11-21T1900,3405A,109.5886,23.1172,贵港市,新世纪学校,颗粒物(PM10),84,117,90,52,50,81,,134,134,50,37,11,12,1.1,0.8
2023-11-21T1900,1439A,106.6899,26.5998,贵阳市,马鞍山,,25,19,30,9,24,79,,101,96,16,20,5,4,0.5,0.6
2023-11-21T1900,1440A,106.6971,26.5694,贵阳市,市环保站,,40,31,55,28,36,61,,88,85,30,42,7,12,0.2,0.5
2023-11-21T1900,1441A,106.6243,26.6266,贵阳市,鉴湖路,,36,36,35,17,16,76,,92,90,15,13,5,6,0.5,0.4
2023-11-21T1900,1442A,106.7487,26.6343,贵阳市,燕子冲,,29,29,34,17,26,68,,93,91,20,25,8,8,0.7,0.8
2023-11-21T1900,1443A,106.6555,26.4365,贵阳市,碧云窝,,31,31,38,14,17,75,,94,92,12,14,9,10,0.5,0.5
2023-11-21T1900,1444A,106.694,26.5161,贵阳市,中院村,,44,44,54,27,32,50,,77,74,28,39,9,16,0.4,0.6
2023-11-21T1900,1445A,106.7109,26.6027,贵阳市,红边门,,48,48,59,24,34,41,,82,78,46,45,5,18,0.5,0.8
2023-11-21T1900,1446A,106.7164,26.5699,贵阳市,新华路,,35,34,47,24,29,56,,91,87,34,41,10,13,0.8,0.6
2023-11-21T1900,1447A,106.674,26.5424,贵阳市,太慈桥,,39,39,35,24,20,71,,90,89,18,23,8,6,0.3,0.4
2023-11-21T1900,1552A,106.805,26.3003,贵阳市,桐木岭,,30,30,44,15,25,85,,92,90,4,3,5,10,0.2,0.2
2023-11-21T1900,1862A,110.4144,25.3167,桂林市,电子科大尧山校区,,48,48,40,31,33,78,,106,106,11,10,7,13,0.4,0.3
2023-11-21T1900,1863A,110.2819,25.2697,桂林市,监测站,颗粒物(PM10),64,77,65,17,24,32,,104,101,72,29,8,17,1.1,0.8
2023-11-21T1900,1864A,110.3089,25.2708,桂林市,龙隐路小学,细颗粒物(PM2.5),54,52,54,38,39,72,,103,103,42,32,10,19,0.8,0.7
2023-11-21T1900,1865A,110.2869,25.2178,桂林市,八中,颗粒物(PM10),61,72,63,39,42,67,,103,103,24,31,6,12,0.7,0.6
2023-11-21T1900,3403A,110.1764,25.2381,桂林市,创业大厦,颗粒物(PM10),63,75,69,41,42,79,,98,98,34,39,9,16,0.6,0.5
2023-11-21T1900,3531A,110.296,25.1253,桂林市,旅游学院,,,58,54,36,37,90,,111,111,32,26,,11,0.5,0.6
2023-11-21T1900,2674A,100.2561,34.4714,果洛藏族自治州,玛沁县大武镇,,27,26,32,15,16,84,,82,82,10,19,10,15,0.4,0.6
2023-11-21T1900,1129A,126.5422,45.755,哈尔滨市,岭北,细颗粒物(PM2.5),90,91,50,67,36,91,,89,89,31,19,1,5,0.6,0.8
2023-11-21T1900,1130A,126.561,45.8167,哈尔滨市,松北商大,细颗粒物(PM2.5),134,,44,102,36,8,,55,40,,28,5,8,,0.7
2023-11-21T1900,1131A,126.979,45.5419,哈尔滨市,阿城会宁,细颗粒物(PM2.5),140,179,52,107,35,19,,64,55,61,22,7,9,1.2,0.4
2023-11-21T1900,1132A,126.599,45.7222,哈尔滨市,南岗学府路,细颗粒物(PM2.5),85,92,61,63,31,36,,54,51,57,30,8,9,0.9,0.7
2023-11-21T1900,1133A,126.689,45.7733,哈尔滨市,太平宏伟公园,细颗粒物(PM2.5),94,79,52,70,37,38,,55,53,52,25,7,9,0.7,0.5
2023-11-21T1900,1134A,126.635,45.7667,哈尔滨市,道外承德广场,细颗粒物(PM2.5),104,88,53,78,38,,,65,65,67,31,6,10,0.9,0.8
2023-11-21T1900,1135A,126.685,45.7319,哈尔滨市,香坊红旗大街,细颗粒物(PM2.5),89,72,49,66,39,44,,53,52,56,35,6,7,1.0,0.8
2023-11-21T1900,1136A,126.6411,45.7258,哈尔滨市,动力和平路,细颗粒物(PM2.5),85,86,53,63,40,37,,47,44,59,33,8,9,1.0,0.8
2023-11-21T1900,1137A,126.593,45.7478,哈尔滨市,道里建国路,细颗粒物(PM2.5),107,,52,80,41,30,,54,50,65,32,6,8,0.8,0.6
2023-11-21T1900,1138A,126.615,45.61,哈尔滨市,平房东轻厂,细颗粒物(PM2.5),143,151,53,109,40,8,,56,45,90,29,14,9,1.4,0.6
2023-11-21T1900,1139A,126.595,45.9855,哈尔滨市,呼兰师专,细颗粒物(PM2.5),139,108,61,106,49,52,,70,67,44,21,7,10,1.1,0.8
2023-11-21T1900,1140A,126.6206,45.6842,哈尔滨市,省农科院,细颗粒物(PM2.5),88,97,82,65,61,49,,55,55,52,47,11,11,0.9,0.8
2023-11-21T1900,2688A,93.5128,42.8172,哈密地区,地区监测站,颗粒物(PM10),51,52,120,22,34,60,,65,65,27,33,3,8,0.4,0.6
2023-11-21T1900,2689A,93.4961,42.8328,哈密地区,哈密师范学校,颗粒物(PM10),65,79,124,12,32,62,,63,63,22,34,6,12,0.7,0.8
2023-11-21T1900,2671A,100.9048,36.9639,海北藏族自治州,海晏县西海镇,颗粒物(PM10),113,176,54,50,14,94,,89,89,2,10,9,9,0.4,0.7
2023-11-21T1900,3867A,102.0738,36.5056,海东地区,平安区公安北苑,颗粒物(PM10),58,66,74,7,32,84,,68,68,12,28,7,23,0.3,0.9
2023-11-21T1900,1410A,110.3232,20.0574,海口市,海南大学,,46,46,51,23,24,142,,154,152,8,17,8,8,0.5,0.4
2023-11-21T1900,1411A,110.283,20.0053,海口市,秀英海南医院,,48,48,54,23,24,145,,152,152,10,13,6,7,0.4,0.4
2023-11-21T1900,1412A,110.338,19.9969,海口市,海南师范大学,,50,50,50,23,24,136,,145,144,11,13,6,6,0.4,0.4
2023-11-21T1900,1413A,110.33,20.0356,海口市,龙华路环保局宿舍,,46,46,52,27,24,140,,150,148,11,13,8,8,0.4,0.4
2023-11-21T1900,3539A,110.5111,19.9736,海口市,桂林洋子站,颗粒物(PM10),52,53,55,26,24,124,,133,132,13,12,4,4,0.4,0.4
2023-11-21T1900,2673A,100.6188,36.2866,海南藏族自治州,共和县恰卜恰镇,,50,46,77,35,29,83,,76,76,12,37,9,11,0.8,0.9
2023-11-21T1900,1048A,114.5302,36.6116,邯郸市,东污水处理厂,细颗粒物(PM2.5),243,254,195,193,161,40,,62,62,80,49,8,9,1.1,1.1
2023-11-21T1900,1049A,114.4918,36.5713,邯郸市,矿院,细颗粒物(PM2.5),232,185,169,182,154,56,,62,62,64,54,9,9,1.1,0.9
2023-11-21T1900,1050A,114.484,36.6133,邯郸市,丛台公园,细颗粒物(PM2.5),238,238,193,188,148,64,,72,72,64,53,5,6,1.5,1.3
2023-11-21T1900,3458A,114.7895,36.5593,邯郸市,香泉濮院小区,细颗粒物(PM2.5),241,275,190,191,146,64,,87,87,54,32,16,12,1.5,0.8
2023-11-21T1900,3579A,114.50634,36.77178,邯郸市,永年区实验高中,细颗粒物(PM2.5),271,323,218,221,145,12,,53,52,116,58,10,13,,1.3
2023-11-21T1900,3580A,114.20016,36.44293,邯郸市,峰峰矿区临水派出所,细颗粒物(PM2.5),218,218,159,168,121,63,,88,88,60,32,16,19,1.5,1.1
2023-11-21T1900,2634A,106.9893,33.1842,汉中市,汉川机床厂子校,细颗粒物(PM2.5),92,125,92,68,56,10,,28,27,52,38,23,18,1.5,1.2
2023-11-21T1900,2635A,107.0154,33.0706,汉中市,市监测站,细颗粒物(PM2.5),109,122,108,82,76,17,,21,21,65,41,36,16,2.1,1.5
2023-11-21T1900,2636A,107.0089,33.1138,汉中市,鑫源开发区,细颗粒物(PM2.5),105,128,104,79,82,15,,26,26,60,45,21,22,1.4,1.2
2023-11-21T1900,2637A,107.007,33.0323,汉中市,南郑大河坎水厂,颗粒物(PM10),108,166,110,77,72,,,23,23,,35,11,21,1.1,1.2
2023-11-21T1900,1223A,120.2072,30.2111,杭州市,滨江,颗粒物(PM10),72,94,95,45,49,12,,98,93,132,65,9,9,1.0,0.9
2023-11-21T1900,1224A,120.0633,30.2747,杭州市,西溪,,48,48,65,30,46,40,,88,87,40,43,5,6,0.8,0.8
2023-11-21T1900,1226A,120.3461,30.3153,杭州市,下沙,细颗粒物(PM2.5),112,138,104,84,69,21,,88,76,137,86,11,11,0.8,0.8
2023-11-21T1900,1227A,120.1269,30.2456,杭州市,卧龙桥,,48,48,75,26,48,12,,79,75,53,36,8,8,0.7,0.7
2023-11-21T1900,1228A,120.1903,30.2692,杭州市,浙江农大,颗粒物(PM10),65,80,78,45,42,5,,85,75,104,63,8,8,0.9,0.7
2023-11-21T1900,1230A,120.1197,30.3119,杭州市,和睦小学,颗粒物(PM10),67,83,79,45,52,27,,72,70,113,68,11,11,1.0,1.1
2023-11-21T1900,1231A,120.3019,30.4183,杭州市,临平镇,"颗粒物(PM10),细颗粒物(PM2.5)",83,116,109,61,68,59,,88,88,74,63,6,7,0.7,0.7
2023-11-21T1900,1232A,120.2697,30.1819,杭州市,城厢镇,颗粒物(PM10),67,83,84,45,48,15,,92,83,129,77,7,8,1.0,0.9
2023-11-21T1900,1233A,120.0883,30.1808,杭州市,云栖,颗粒物(PM10),59,68,96,24,55,53,,87,87,42,38,6,6,0.6,0.6
2023-11-21T1900,3557A,119.9464,30.0494,杭州市,镇二中,颗粒物(PM10),65,80,63,46,41,8,,84,77,115,59,6,6,0.7,0.7
2023-11-21T1900,3558A,119.7183,30.2367,杭州市,市府大楼,颗粒物(PM10),87,124,71,60,39,27,,120,103,88,49,7,6,1.1,0.7
2023-11-21T1900,3656A,120.1556,30.2864,杭州市,消防大队,细颗粒物(PM2.5),75,93,91,55,57,7,,88,78,127,71,9,9,1.2,0.9
2023-11-21T1900,1270A,117.1959,31.7848,合肥市,明珠广场,颗粒物(PM10),54,58,87,27,43,77,,83,83,50,66,8,9,0.4,0.5
2023-11-21T1900,1271A,117.3072,31.8764,合肥市,三里街,颗粒物(PM10),64,78,103,27,46,32,,75,74,83,76,8,11,0.6,0.6
2023-11-21T1900,1272A,117.2588,31.8707,合肥市,琥珀山庄,颗粒物(PM10),56,61,80,24,42,67,,101,101,41,48,6,7,0.7,0.7
2023-11-21T1900,1273A,117.1604,31.9052,合肥市,董铺水库,颗粒物(PM10),59,68,90,24,37,111,,107,107,22,42,5,5,0.4,0.5
2023-11-21T1900,1274A,117.25,31.8571,合肥市,长江中路,颗粒物(PM10),53,56,88,23,51,72,,91,91,50,47,10,12,0.5,0.6
2023-11-21T1900,1275A,117.266,31.9436,合肥市,庐阳区,颗粒物(PM10),58,66,101,29,48,54,,85,85,67,74,7,10,0.7,0.8
2023-11-21T1900,1276A,117.336,31.8586,合肥市,瑶海区,颗粒物(PM10),65,80,110,29,47,20,,85,80,96,73,5,8,0.4,0.5
2023-11-21T1900,1277A,117.3027,31.7964,合肥市,包河区,,,56,84,19,45,,,106,106,50,68,8,10,0.6,0.8
2023-11-21T1900,1278A,117.2776,31.7385,合肥市,滨湖新区,,48,48,84,19,40,99,,105,105,24,34,7,8,0.3,0.5
2023-11-21T1900,1279A,117.1318,31.8403,合肥市,高新区,颗粒物(PM10),58,66,85,24,40,90,,90,90,41,50,11,11,0.6,0.7
2023-11-21T1900,3464A,117.3803,31.9147,合肥市,高教基地,颗粒物(PM10),65,80,88,26,39,67,,98,98,47,56,7,6,0.5,0.6
2023-11-21T1900,3614A,79.924,37.0877,和田地区,地区环保局,颗粒物(PM10),70,89,153,32,54,80,,98,98,25,33,6,14,0.6,0.9
2023-11-21T1900,3615A,79.9131,37.113,和田地区,市环保局,颗粒物(PM10),66,82,149,31,66,94,,104,104,11,51,6,12,0.2,1.3
2023-11-21T1900,2516A,108.2011,24.715,河池市,东仁乐园,颗粒物(PM10),60,70,47,35,27,81,,95,95,11,13,9,6,0.7,0.6
2023-11-21T1900,2517A,108.0497,24.6947,河池市,市环保站,,,,61,,32,99,,111,111,15,27,12,11,0.7,0.6
2023-11-21T1900,2518A,108.0983,24.6989,河池市,市疾控中心,颗粒物(PM10),78,106,74,46,34,62,,108,108,55,33,13,11,0.7,0.6
2023-11-21T1900,1696A,114.6778,23.7569,河源市,源西,细颗粒物(PM2.5),150,,53,115,35,8,,90,85,91,42,4,5,1.2,0.6
2023-11-21T1900,1697A,114.6944,23.7586,河源市,东埔,,,,58,,26,,,109,109,90,36,6,7,1.4,0.8
2023-11-21T1900,1698A,114.6892,23.7233,河源市,老城,颗粒物(PM10),53,55,50,32,24,82,,107,107,14,22,6,6,0.9,0.9
2023-11-21T1900,1718A,115.4208,35.2464,菏泽市,气象局,细颗粒物(PM2.5),83,107,129,61,74,106,,133,133,37,33,4,5,0.5,0.5
2023-11-21T1900,1719A,115.4747,35.2375,菏泽市,市政协,颗粒物(PM10),73,95,130,52,80,105,,130,130,34,36,3,4,1.0,0.6
2023-11-21T1900,3374A,115.5564,35.0891,菏泽市,定陶老年大学,颗粒物(PM10),78,105,129,53,86,92,,117,117,39,35,5,5,0.7,0.7
2023-11-21T1900,3647A,115.4702,35.2706,菏泽市,菏泽医专,颗粒物(PM10),71,91,121,41,69,114,,132,132,31,31,7,8,0.7,0.7
2023-11-21T1900,2514A,111.5264,24.4172,贺州市,环保小区,颗粒物(PM10),68,85,69,41,42,88,,110,110,64,35,10,8,0.9,0.7
2023-11-21T1900,2515A,111.5608,24.4078,贺州市,政协大楼,颗粒物(PM10),73,96,59,49,31,112,,123,123,36,34,11,8,0.7,0.7
2023-11-21T1900,3534A,111.4744,24.4553,贺州市,西湾,颗粒物(PM10),76,101,65,49,41,100,,122,122,58,27,10,7,0.7,0.7
2023-11-21T1900,2385A,114.17,35.9019,鹤壁市,市监测站,细颗粒物(PM2.5),228,249,180,178,132,24,,89,86,99,52,9,11,1.3,1
2023-11-21T1900,2386A,114.2956,35.7511,鹤壁市,市交警支队,细颗粒物(PM2.5),198,203,194,148,142,102,,114,114,57,53,9,15,0.9,0.7
2023-11-21T1900,2387A,114.2878,35.7306,鹤壁市,迎宾馆,细颗粒物(PM2.5),190,176,172,143,135,114,,119,119,62,59,12,13,1.1,1
2023-11-21T1900,3474A,114.2617,35.6822,鹤壁市,大新区,细颗粒物(PM2.5),206,156,170,156,153,43,,100,99,114,76,12,11,1.2,1.1
2023-11-21T1900,3596A,114.1572,35.9603,鹤壁市,南山宾馆,细颗粒物(PM2.5),230,237,168,180,126,72,,104,103,66,50,14,14,0.9,0.5
2023-11-21T1900,2244A,130.2537,47.3416,鹤岗市,哈啤分公司,,44,44,41,28,27,58,,59,59,10,23,13,15,0.5,0.6
2023-11-21T1900,2245A,130.2684,47.3086,鹤岗市,斯达机电,,46,46,43,30,30,51,,52,52,20,28,8,12,0.5,0.5
2023-11-21T1900,2246A,130.3114,47.3388,鹤岗市,东山纸板厂,,46,40,42,32,37,58,,53,53,13,39,10,15,0.5,1.2
2023-11-21T1900,2247A,130.1097,47.3382,鹤岗市,五号水库,,50,42,37,35,24,49,,61,58,17,17,9,11,0.6,0.6
2023-11-21T1900,2263A,127.4833,50.2524,黑河市,交通局,,35,,27,24,24,42,,44,40,8,18,7,9,0.3,0.5
2023-11-21T1900,2264A,127.5144,50.2341,黑河市,环保局,,32,,33,22,24,34,,49,46,20,22,6,11,0.4,0.5
2023-11-21T1900,2265A,127.5291,50.2472,黑河市,大黑河岛,,,19,28,14,22,,,,,2,2,1,4,,
2023-11-21T1900,1074A,115.6838,37.7541,衡水市,电机北厂,细颗粒物(PM2.5),238,263,197,188,143,52,,92,90,61,30,9,9,1.1,0.9
2023-11-21T1900,1075A,115.6303,37.7316,衡水市,市监测站,细颗粒物(PM2.5),232,205,169,182,140,70,,89,89,48,37,11,10,1.0,0.8
2023-11-21T1900,3188A,115.6683,37.7217,衡水市,市城管局,细颗粒物(PM2.5),176,178,176,133,149,59,,93,89,54,36,10,10,1.2,0.9
2023-11-21T1900,3459A,115.5989,37.5491,衡水市,地表水厂,细颗粒物(PM2.5),217,210,187,167,142,94,,94,94,28,49,,8,0.9,0.9
2023-11-21T1900,2456A,112.5003,26.9167,衡阳市,原169医院,颗粒物(PM10),57,63,70,34,38,83,,113,113,53,35,14,16,0.7,1
2023-11-21T1900,2457A,112.6194,26.9258,衡阳市,衡阳化工总厂,细颗粒物(PM2.5),97,73,77,72,47,97,,112,112,24,32,10,16,0.8,0.8
2023-11-21T1900,2458A,112.6211,26.8956,衡阳市,珠晖区环保局,细颗粒物(PM2.5),78,79,77,57,56,42,,102,100,85,36,14,18,0.8,0.8
2023-11-21T1900,2459A,112.6197,26.8733,衡阳市,市委党校,颗粒物(PM10),56,61,85,32,55,101,,114,114,22,31,13,20,0.7,1
2023-11-21T1900,2460A,112.6006,26.8919,衡阳市,市监测站,细颗粒物(PM2.5),74,90,97,54,64,22,,96,92,67,41,9,18,1.5,1.3
2023-11-21T1900,2461A,112.5664,26.9056,衡阳市,真空机电公司,,,,84,,53,67,,99,99,49,47,12,21,1.1,1.4
2023-11-21T1900,3399A,112.6703,26.882,衡阳市,师范学院,细颗粒物(PM2.5),58,62,75,41,49,43,,101,99,56,31,11,15,1.1,0.9
2023-11-21T1900,2608A,103.3772,23.3993,红河州,污水处理厂,,46,36,31,32,29,66,,77,76,10,9,6,7,0.5,0.5
2023-11-21T1900,2609A,103.3861,23.35,红河州,监测站,,43,43,34,28,25,71,,77,77,11,9,11,9,0.7,0.7
2023-11-21T1900,3038A,103.3758,23.368,红河州,州图书馆,,32,27,29,22,24,57,,71,69,10,8,6,7,0.6,0.6
2023-11-21T1900,1090A,111.6507,40.7517,呼和浩特市,呼市一监,"颗粒物(PM10),细颗粒物(PM2.5)",135,219,154,103,72,8,,40,38,76,58,21,15,1.1,1.2
2023-11-21T1900,1091A,111.6572,40.8033,呼和浩特市,小召,细颗粒物(PM2.5),119,168,130,90,61,14,,35,33,80,68,25,23,0.9,1.5
2023-11-21T1900,1094A,111.7516,40.8369,呼和浩特市,如意水处理厂,颗粒物(PM10),103,156,126,75,58,4,,36,34,88,73,29,20,1.2,1.1
2023-11-21T1900,1095A,111.7276,40.8062,呼和浩特市,二十九中,细颗粒物(PM2.5),113,160,126,85,60,10,,38,36,82,69,27,21,1.1,1.1
2023-11-21T1900,1096A,111.5512,40.7866,呼和浩特市,工大金川校区,颗粒物(PM10),128,205,123,96,59,4,,26,25,86,75,24,21,1.2,1.1
2023-11-21T1900,1097A,111.717,40.7612,呼和浩特市,化肥厂生活区,细颗粒物(PM2.5),130,199,134,99,65,9,,35,32,96,72,28,21,1.1,1.2
2023-11-21T1900,3698A,111.5968,40.8178,呼和浩特市,红旗小学,颗粒物(PM10),128,205,133,86,62,6,,31,30,91,76,26,24,1.3,1.2
2023-11-21T1900,3699A,111.6518,40.8389,呼和浩特市,海东办,细颗粒物(PM2.5),115,171,130,87,70,7,,35,33,82,75,25,21,0.9,1.1
2023-11-21T1900,2192A,119.7594,49.2261,呼伦贝尔市,区环保局,,39,39,19,24,15,14,,59,50,51,17,5,4,0.8,0.4
2023-11-21T1900,3061A,119.7512,49.1577,呼伦贝尔市,国华电力东,,38,32,28,26,20,44,,56,50,19,14,4,4,0.3,0.4
2023-11-21T1900,1250A,120.0751,30.8669,湖州市,城西水厂,细颗粒物(PM2.5),79,99,121,58,75,4,,86,78,140,80,6,8,1.0,0.7
2023-11-21T1900,2873A,120.0875,30.8955,湖州市,仁皇山新区,颗粒物(PM10),72,94,123,51,77,12,,90,81,104,66,6,9,1.1,0.8
2023-11-21T1900,2907A,120.1844,30.8596,湖州市,吴兴区站,细颗粒物(PM2.5),107,111,138,80,88,50,,95,92,103,77,7,9,0.8,0.8
2023-11-21T1900,3562A,120.4148,30.8538,湖州市,南浔区站,颗粒物(PM10),70,89,136,50,78,95,,96,96,52,63,8,9,0.5,0.7
2023-11-21T1900,1607A,120.9092,40.7136,葫芦岛市,龙港区,细颗粒物(PM2.5),109,92,106,82,87,74,,82,82,22,32,8,15,1.2,1.2
2023-11-21T1900,1608A,120.8392,40.7514,葫芦岛市,化工街,细颗粒物(PM2.5),94,119,142,70,93,42,,71,71,41,38,14,14,1.2,1.1
2023-11-21T1900,1609A,120.8341,40.7073,葫芦岛市,新区,细颗粒物(PM2.5),108,88,111,81,98,62,,77,77,41,46,8,11,1.1,1.3
2023-11-21T1900,1610A,120.8695,40.7677,葫芦岛市,东城区,细颗粒物(PM2.5),156,122,133,119,112,16,,69,67,73,45,19,22,1.8,1.4
2023-11-21T1900,2482A,109.5981,27.5721,怀化市,林科所,,30,28,38,16,24,94,,95,95,4,4,4,6,0.5,0.5
2023-11-21T1900,2483A,109.9453,27.5444,怀化市,河西地税局,细颗粒物(PM2.5),54,56,43,38,35,39,,84,84,43,19,6,6,0.5,0.4
2023-11-21T1900,2484A,109.9781,27.5342,怀化市,市四医院,"颗粒物(PM10),细颗粒物(PM2.5)",59,67,66,42,42,40,,83,83,46,31,29,13,0.7,0.5
2023-11-21T1900,2485A,109.9972,27.5578,怀化市,监测楼,颗粒物(PM10),84,117,68,54,44,14,,79,73,72,27,13,8,1.6,0.7
2023-11-21T1900,2486A,110.0394,27.583,怀化市,市委党校,细颗粒物(PM2.5),62,66,66,44,41,50,,86,86,37,24,9,12,0.6,0.5
2023-11-21T1900,1210A,119.036,33.5981,淮安市,钵池山,细颗粒物(PM2.5),99,105,103,74,76,102,,123,123,48,39,13,10,0.9,0.8
2023-11-21T1900,1211A,119.007,33.575,淮安市,北京南路,细颗粒物(PM2.5),103,102,107,77,81,119,,141,141,55,48,10,10,0.8,0.9
2023-11-21T1900,1212A,118.989,33.6067,淮安市,市监测站,细颗粒物(PM2.5),94,100,117,70,81,131,,134,134,42,42,9,10,0.8,0.9
2023-11-21T1900,1213A,119.135,33.5039,淮安市,楚州区监测站,颗粒物(PM10),116,181,108,82,75,49,,122,118,98,46,14,9,1.0,0.9
2023-11-21T1900,1214A,119.0186,33.6297,淮安市,淮阴区监测站,细颗粒物(PM2.5),105,139,135,79,79,86,,118,118,87,50,17,15,0.8,0.8
2023-11-21T1900,3426A,118.8755,33.2894,淮安市,新华书店,细颗粒物(PM2.5),112,160,135,84,71,107,,128,128,64,46,12,11,0.9,0.9
2023-11-21T1900,2282A,116.8004,33.975,淮北市,监测站,颗粒物(PM10),68,85,129,44,74,50,,106,101,71,35,7,10,1.8,0.8
2023-11-21T1900,2283A,116.8091,33.9007,淮北市,烈山区政府,颗粒物(PM10),73,96,140,45,74,94,,118,118,50,43,8,13,0.3,0.6
2023-11-21T1900,3330A,116.8873,33.9836,淮北市,杜集区检察院,颗粒物(PM10),60,70,114,41,70,106,,116,116,29,31,9,13,0.4,0.7
2023-11-21T1900,4017A,116.7923,33.9535,淮北市,市博物馆,颗粒物(PM10),71,91,125,42,73,68,,117,108,58,38,7,12,0.7,0.9
2023-11-21T1900,2277A,116.8305,32.7727,淮南市,潘集区政府,细颗粒物(PM2.5),134,157,119,102,75,63,,104,100,60,50,13,14,0.6,0.6
2023-11-21T1900,2278A,117.0067,32.6524,淮南市,师范学院,颗粒物(PM10),67,84,105,42,57,87,,98,98,48,42,11,15,0.5,0.6
2023-11-21T1900,2279A,116.8569,32.5951,淮南市,谢家集区政府,颗粒物(PM10),78,105,100,47,58,65,,106,104,63,52,10,20,0.4,0.5
2023-11-21T1900,2280A,116.8281,32.633,淮南市,八公山区政府,颗粒物(PM10),72,94,102,43,54,65,,99,97,49,38,13,15,0.5,0.6
2023-11-21T1900,2281A,116.6325,32.6201,淮南市,焦岗湖风景区管理处,颗粒物(PM10),66,82,114,31,54,54,,81,81,63,50,3,3,0.4,0.4
2023-11-21T1900,2894A,117.0566,32.6531,淮南市,经济技术开发区消防队,细颗粒物(PM2.5),84,112,115,62,68,53,,96,94,69,48,14,16,0.5,0.5
2023-11-21T1900,3329A,117.0108,32.5893,淮南市,山南新区,颗粒物(PM10),67,83,103,40,54,88,,98,98,33,35,8,10,0.5,0.6
2023-11-21T1900,2446A,114.9028,30.4742,黄冈市,职工中心,颗粒物(PM10),65,79,74,38,41,73,,96,95,40,24,16,18,0.7,0.7
2023-11-21T1900,2929A,114.8858,30.4519,黄冈市,红卫路,颗粒物(PM10),65,79,74,44,44,82,,95,95,39,28,10,11,0.5,0.5
2023-11-21T1900,3398A,114.9136,30.4445,黄冈市,市林业局,颗粒物(PM10),63,76,67,41,44,87,,98,98,37,29,7,10,0.8,0.8
2023-11-21T1900,2672A,102.0199,35.5102,黄南藏族自治州,同仁县隆务镇,颗粒物(PM10),85,120,47,23,14,63,,78,78,26,12,21,9,0.6,0.3
2023-11-21T1900,2295A,118.2903,29.6963,黄山市,延安路89号,颗粒物(PM10),52,53,33,32,20,54,,78,78,21,17,6,5,0.4,0.3
2023-11-21T1900,2296A,118.327,29.7178,黄山市,黄山东路89号,颗粒物(PM10),72,93,49,47,28,9,,72,67,53,20,5,5,1.1,0.6
2023-11-21T1900,2297A,118.1371,30.2756,黄山市,黄山区政府5号楼,"颗粒物(PM10),细颗粒物(PM2.5)",55,60,38,39,24,24,,77,73,30,14,4,4,0.7,0.4
2023-11-21T1900,2423A,115.0601,30.2313,黄石市,沈家营,颗粒物(PM10),63,75,84,44,47,52,,91,89,76,52,18,12,1.3,1.3
2023-11-21T1900,2424A,115.0817,30.2006,黄石市,陈家湾,细颗粒物(PM2.5),64,72,70,46,41,108,,85,85,31,39,15,14,0.6,0.9
2023-11-21T1900,2426A,114.8988,30.2019,黄石市,铁山,细颗粒物(PM2.5),63,70,73,45,42,95,,101,99,44,40,13,14,1.0,0.9
2023-11-21T1900,2427A,115.0307,30.2092,黄石市,团城山,颗粒物(PM10),63,76,70,31,36,105,,94,94,41,41,15,13,0.7,1
2023-11-21T1900,3149A,115.0235,30.1578,黄石市,笔架山北路,颗粒物(PM10),62,73,84,41,43,86,,95,95,47,37,13,15,0.8,0.9
2023-11-21T1900,1392A,114.4183,23.0528,惠州市,河南岸金山湖子站,颗粒物(PM10),65,80,75,36,37,72,,116,115,50,31,5,6,0.8,0.7
2023-11-21T1900,1393A,114.4053,23.0822,惠州市,下埔横江三路子站,,,,84,,41,,,136,136,70,47,8,10,,0.8
2023-11-21T1900,1394A,114.4103,23.1142,惠州市,江北云山西路子站,颗粒物(PM10),61,72,86,31,39,65,,127,125,61,47,9,11,0.7,0.7
2023-11-21T1900,1395A,114.4645,22.7833,惠州市,惠阳区承修路船湖子站,颗粒物(PM10),56,62,48,20,33,109,,138,138,29,41,6,8,0.8,0.9
2023-11-21T1900,1396A,114.5317,22.7422,惠州市,大亚湾管委会子站,颗粒物(PM10),55,59,58,20,24,85,,133,131,62,54,6,7,0.7,0.8
2023-11-21T1900,3314A,114.4338,22.8134,惠州市,惠阳秋长,颗粒物(PM10),59,68,83,25,38,108,,146,144,35,36,10,10,0.7,0.8
2023-11-21T1900,3452A,114.6517,22.775,惠州市,大亚湾霞涌,,38,32,44,15,18,120,,137,137,20,22,9,7,0.4,0.4
2023-11-21T1900,2240A,130.9762,45.3001,鸡西市,环保局,细颗粒物(PM2.5),60,66,30,43,20,56,,64,61,27,18,5,6,0.6,0.3
2023-11-21T1900,2243A,130.9429,45.3039,鸡西市,第一中学,细颗粒物(PM2.5),69,73,31,50,20,68,,72,72,20,13,8,9,0.3,0.2
2023-11-21T1900,3707A,131.0207,45.3073,鸡西市,欧美日汽修厂,细颗粒物(PM2.5),99,98,68,74,55,46,,56,55,47,34,62,38,1.7,0.9
2023-11-21T1900,3709A,130.9967,45.3106,鸡西市,市政设施管理处,细颗粒物(PM2.5),77,75,43,56,31,55,,68,67,32,29,4,4,0.5,0.4
2023-11-21T1900,2367A,114.9754,27.0803,吉安市,红声器材厂,颗粒物(PM10),51,51,63,22,31,43,,92,91,62,39,12,15,0.9,0.9
2023-11-21T1900,2368A,114.9658,27.0999,吉安市,市森林工业局,颗粒物(PM10),52,54,58,27,33,52,,87,87,49,37,12,16,0.6,0.5
2023-11-21T1900,2369A,114.99,27.1312,吉安市,市环境监测站,,,,59,,30,41,,52,,,37,10,12,0.6,0.6
2023-11-21T1900,2370A,115.0093,27.0968,吉安市,青原区法院,颗粒物(PM10),58,65,53,28,27,27,,89,85,55,29,12,16,1.0,0.7
2023-11-21T1900,1772A,126.54,43.8622,吉林市,哈达湾,细颗粒物(PM2.5),109,123,56,82,36,39,,76,68,51,22,25,10,1.4,0.7
2023-11-21T1900,1773A,126.5844,43.8358,吉林市,东局子,细颗粒物(PM2.5),118,137,54,89,33,14,,69,55,65,25,13,8,1.3,0.7
2023-11-21T1900,1775A,126.6133,43.8972,吉林市,江北,细颗粒物(PM2.5),138,148,61,105,42,23,,72,48,72,27,13,13,1.7,0.8
2023-11-21T1900,1776A,126.555,43.8306,吉林市,江南公园,细颗粒物(PM2.5),127,125,51,96,41,18,,75,59,66,22,19,12,1.9,0.7
2023-11-21T1900,1778A,126.7061,43.7133,吉林市,丰满,细颗粒物(PM2.5),90,90,46,67,38,57,,83,79,20,9,11,10,0.8,0.6
2023-11-21T1900,2868A,126.4739,43.953,吉林市,九站,细颗粒物(PM2.5),178,172,60,134,40,20,,75,53,63,21,10,8,1.3,0.8
2023-11-21T1900,1299A,116.9862,36.6114,济南市,科干所,颗粒物(PM10),63,75,95,44,47,116,,137,136,29,24,10,10,0.7,0.7
2023-11-21T1900,1300A,116.9376,36.665,济南市,农科所,颗粒物(PM10),69,88,106,39,46,105,,123,122,35,28,8,9,0.6,0.5
2023-11-21T1900,1301A,117.1265,36.6734,济南市,开发区,颗粒物(PM10),69,88,87,44,46,37,,127,116,103,32,8,9,1.1,0.7
2023-11-21T1900,1303A,117.0624,36.6868,济南市,省种子仓库,颗粒物(PM10),65,80,97,46,47,99,,134,131,48,37,9,10,0.7,0.6
2023-11-21T1900,1304A,116.9489,36.6447,济南市,机床二厂,颗粒物(PM10),70,90,108,49,58,105,,129,128,52,32,12,11,0.9,0.8
2023-11-21T1900,1305A,117.0495,36.663,济南市,市监测站,颗粒物(PM10),62,73,89,37,45,119,,137,136,40,28,9,9,0.6,0.6
2023-11-21T1900,1306A,116.7675,36.5484,济南市,长清党校,"颗粒物(PM10),细颗粒物(PM2.5)",77,103,116,56,61,119,,135,135,34,21,11,11,1.0,0.9
2023-11-21T1900,1616A,117.6795,36.229,济南市,技术学院,细颗粒物(PM2.5),90,119,129,67,78,90,,124,124,61,48,16,13,1.0,1
2023-11-21T1900,1961A,117.532,36.6868,济南市,东山小学,颗粒物(PM10),84,117,117,61,62,80,,132,125,67,31,9,11,0.8,0.8
2023-11-21T1900,3059A,117.7161,36.2049,济南市,泰兴公司,细颗粒物(PM2.5),107,156,135,80,77,20,,113,104,136,66,13,11,1.2,0.9
2023-11-21T1900,3064A,117.6867,36.2171,济南市,莱芜战役纪念馆,细颗粒物(PM2.5),94,129,124,70,77,72,,116,114,83,54,18,12,1.0,1
2023-11-21T1900,3494A,117.1673,36.9782,济南市,济阳区政府,细颗粒物(PM2.5),108,139,136,81,75,80,,116,115,62,59,8,10,0.7,0.9
2023-11-21T1900,3495A,117.1171,36.63,济南市,锦屏中学,颗粒物(PM10),57,63,82,37,47,94,,141,137,31,16,5,8,0.9,0.6
2023-11-21T1900,3682A,116.9814,36.6819,济南市,济南四建,细颗粒物(PM2.5),68,78,88,49,50,104,,128,128,43,29,12,12,1.0,0.8
2023-11-21T1900,1653A,116.6251,35.4302,济宁市,火炬城,细颗粒物(PM2.5),100,110,123,75,87,76,,108,108,52,36,13,13,0.9,0.9
2023-11-21T1900,1655A,116.5491,35.4042,济宁市,电化厂,细颗粒物(PM2.5),89,115,148,66,84,116,,115,115,29,33,9,10,0.8,0.9
2023-11-21T1900,3500A,116.5814,35.3707,济宁市,北湖一中,细颗粒物(PM2.5),79,89,118,58,85,111,,112,112,28,34,12,12,0.7,0.8
2023-11-21T1900,3501A,116.8249,35.5593,济宁市,服务中心,颗粒物(PM10),103,155,157,72,81,76,,103,103,56,45,11,13,0.7,1
2023-11-21T1900,3678A,116.5907,35.4054,济宁市,市第七中学,细颗粒物(PM2.5),89,98,116,66,87,102,,111,111,40,41,9,10,0.8,1
2023-11-21T1900,2255A,130.2751,46.8028,佳木斯市,佳纺,细颗粒物(PM2.5),89,85,40,66,29,25,,62,40,53,25,11,7,0.8,0.6
2023-11-21T1900,2256A,130.3995,46.8307,佳木斯市,发电厂,细颗粒物(PM2.5),64,55,32,46,29,34,,62,47,40,21,8,11,0.7,0.9
2023-11-21T1900,2257A,130.3258,46.7975,佳木斯市,环保局,细颗粒物(PM2.5),73,58,34,53,26,31,,64,41,40,22,6,6,0.8,0.6
2023-11-21T1900,2258A,130.3648,46.8032,佳木斯市,十一中,细颗粒物(PM2.5),65,57,35,47,27,29,,59,44,44,24,7,6,0.8,0.6
2023-11-21T1900,2259A,130.3794,46.7588,佳木斯市,四丰,,49,49,23,30,17,55,,69,61,14,11,1,2,0.6,0.5
2023-11-21T1900,1252A,120.7436,30.778,嘉兴市,清河小学,颗粒物(PM10),72,93,108,50,50,56,,120,115,100,64,9,9,0.5,0.7
2023-11-21T1900,1253A,120.726,30.7478,嘉兴市,嘉兴学院,,,84,103,45,57,91,,120,120,,49,9,9,0.6,0.7
2023-11-21T1900,2872A,120.7846,30.7525,嘉兴市,南湖区残联,细颗粒物(PM2.5),73,91,98,53,58,81,,119,119,78,52,9,9,0.9,0.8
2023-11-21T1900,3407A,120.6916,30.7739,嘉兴市,秀洲住建,"颗粒物(PM10),细颗粒物(PM2.5)",64,77,89,46,64,90,,118,118,66,62,12,10,0.9,1
2023-11-21T1900,1945A,98.2908,39.7711,嘉峪关市,气象局,,41,41,105,17,22,77,,88,86,14,22,2,18,0.4,0.4
2023-11-21T1900,2884A,98.2672,39.7978,嘉峪关市,酒钢宾馆,,41,41,146,14,27,81,,87,87,18,27,9,30,0.5,0.5
2023-11-21T1900,3248A,98.2643,39.7724,嘉峪关市,雄关区,,45,45,79,22,24,74,,88,87,21,23,6,15,0.4,0.4
2023-11-21T1900,1383A,113.1064,22.6058,江门市,北街,,,65,94,34,56,,,19,,39,74,8,10,0.6,1
2023-11-21T1900,1384A,113.0731,22.5835,江门市,西区,颗粒物(PM10),64,78,113,36,58,151,,200,200,40,86,8,11,0.8,0.8
2023-11-21T1900,1385A,113.0219,22.5311,江门市,圭峰西,颗粒物(PM10),56,62,77,38,52,141,,195,188,34,42,5,6,0.6,0.7
2023-11-21T1900,1386A,113.0828,22.5947,江门市,东湖,颗粒物(PM10),55,59,113,31,62,155,,202,202,30,77,6,8,0.7,1
2023-11-21T1900,3311A,113.1075,22.5647,江门市,江海富民,颗粒物(PM10),63,76,120,41,56,122,,182,182,60,81,8,11,0.9,0.9
2023-11-21T1900,3449A,113.05,22.4667,江门市,新会银湖,颗粒物(PM10),53,55,89,31,58,106,,175,175,38,59,8,9,0.6,0.8
2023-11-21T1900,1828A,113.227,35.2125,焦作市,市环保局,细颗粒物(PM2.5),179,178,163,135,119,75,,108,108,69,51,13,14,1.3,1.1
2023-11-21T1900,1830A,113.1992,35.2590,焦作市,影视城,细颗粒物(PM2.5),140,130,128,107,82,81,,67,64,40,29,11,11,1.3,1.2
2023-11-21T1900,3169A,113.2725,35.2067,焦作市,太极体育中心,细颗粒物(PM2.5),168,190,157,127,112,86,,108,108,58,54,14,14,1.0,1
2023-11-21T1900,3335A,113.3137,35.2641,焦作市,马村街道办,细颗粒物(PM2.5),202,215,163,152,124,54,,107,107,98,48,12,12,1.3,1
2023-11-21T1900,3336A,113.2465,35.2373,焦作市,焦作技师学院,细颗粒物(PM2.5),188,197,155,141,112,64,,103,103,74,48,16,16,1.3,1.1
2023-11-21T1900,3477A,113.1656,35.2539,焦作市,中站许衡医院,细颗粒物(PM2.5),170,177,140,129,93,72,,94,90,78,50,15,17,1.1,0.9
2023-11-21T1900,3981A,113.2449,35.1803,焦作市,原李万街道办,细颗粒物(PM2.5),160,163,168,122,123,117,,124,124,40,50,13,13,0.7,0.8
2023-11-21T1900,1708A,116.3701,23.5345,揭阳市,新兴,颗粒物(PM10),61,72,65,43,42,82,,132,130,47,36,11,13,0.8,0.7
2023-11-21T1900,1709A,116.3264,23.5443,揭阳市,西马,细颗粒物(PM2.5),62,69,68,44,43,102,,136,136,28,33,9,12,0.8,0.7
2023-11-21T1900,1710A,116.3611,23.5626,揭阳市,东兴,颗粒物(PM10),56,62,62,30,31,102,,135,135,31,30,14,13,1.0,0.8
2023-11-21T1900,1711A,116.4151,23.5294,揭阳市,渔湖,颗粒物(PM10),58,66,66,29,35,94,,132,132,31,32,8,14,0.6,0.6
2023-11-21T1900,3320A,116.403,23.5699,揭阳市,曲溪,颗粒物(PM10),63,76,65,37,36,100,,139,138,28,32,4,11,0.8,0.6
2023-11-21T1900,1944A,102.1692,38.5167,金昌市,天庆家园,颗粒物(PM10),145,239,129,36,42,82,,86,86,15,37,5,28,0.8,0.9
2023-11-21T1900,3170A,102.1864,38.5253,金昌市,市委党校,颗粒物(PM10),76,101,162,26,52,92,,92,92,9,28,13,38,0.3,0.8
2023-11-21T1900,4022A,102.1647,38.5371,金昌市,金川区人防中心,颗粒物(PM10),143,235,186,30,42,93,,91,91,9,26,8,24,0.4,0.9
2023-11-21T1900,1262A,119.647,29.077,金华市,十五中,颗粒物(PM10),85,119,78,60,40,18,,108,94,110,62,7,6,1.5,0.7
2023-11-21T1900,1263A,119.686,29.1029,金华市,监测站,颗粒物(PM10),61,71,69,33,43,10,,98,89,107,64,6,7,1.2,0.9
2023-11-21T1900,3659A,119.656,29.1131,金华市,气象局,颗粒物(PM10),70,90,81,45,40,4,,100,92,119,65,4,4,1.2,0.7
2023-11-21T1900,1767A,121.1115,41.0879,锦州市,南山,细颗粒物(PM2.5),224,179,135,174,130,5,,56,49,116,61,16,18,1.8,1
2023-11-21T1900,1768A,121.0533,40.8434,锦州市,开发区,细颗粒物(PM2.5),159,129,124,121,95,12,,50,45,85,59,14,86,1.4,1.1
2023-11-21T1900,1769A,121.1836,41.1119,锦州市,百股街道,细颗粒物(PM2.5),195,168,119,146,109,9,,64,54,92,51,9,19,2.1,1.3
2023-11-21T1900,1770A,121.1178,41.1222,锦州市,天安街道,细颗粒物(PM2.5),236,235,148,186,117,7,,58,49,116,62,14,17,2.0,1.7
2023-11-21T1900,1771A,121.1303,41.1386,锦州市,北湖公园,细颗粒物(PM2.5),308,,121,258,132,14,,63,57,98,55,16,16,2.4,1.5
2023-11-21T1900,2160A,112.85,35.5051,晋城市,自来水公司,,,133,132,75,88,42,,96,96,91,69,13,13,,1.4
2023-11-21T1900,2161A,112.8318,35.4936,晋城市,白云商贸,细颗粒物(PM2.5),100,143,152,75,89,17,,93,88,98,59,10,9,1.9,1.7
2023-11-21T1900,2162A,112.8508,35.4887,晋城市,市环保局,细颗粒物(PM2.5),98,115,148,73,90,57,,97,97,86,73,15,13,1.7,1.9
2023-11-21T1900,2163A,112.8676,35.4897,晋城市,技术学院,细颗粒物(PM2.5),100,108,148,75,86,61,,101,101,84,73,13,13,1.5,1.7
2023-11-21T1900,3620A,112.8271,35.4828,晋城市,泽州一中,细颗粒物(PM2.5),94,117,143,70,83,48,,86,86,94,56,14,14,1.7,1.7
2023-11-21T1900,2171A,112.7532,37.6945,晋中市,锦纶小区,细颗粒物(PM2.5),147,188,133,112,83,38,,100,100,105,57,18,15,1.4,1.1
2023-11-21T1900,2173A,112.7249,37.7067,晋中市,南都小区,细颗粒物(PM2.5),155,208,147,118,76,29,,98,97,107,70,17,16,2.1,1.3
2023-11-21T1900,2174A,112.6991,37.6982,晋中市,榆次区政府,细颗粒物(PM2.5),156,179,136,119,75,55,,101,101,87,69,21,17,1.6,1.4
2023-11-21T1900,2865A,112.7195,37.6828,晋中市,榆次三中,细颗粒物(PM2.5),160,207,151,122,82,38,,97,97,107,64,24,20,1.7,1.2
2023-11-21T1900,2439A,112.2014,31.0481,荆门市,竹园小学,细颗粒物(PM2.5),104,109,123,78,85,70,,129,127,63,48,12,14,1.2,0.9
2023-11-21T1900,2440A,112.1969,30.9891,荆门市,掇刀,细颗粒物(PM2.5),94,103,125,70,90,77,,132,130,65,56,8,10,1.1,1
2023-11-21T1900,2441A,112.2213,31.0386,荆门市,石化一小,细颗粒物(PM2.5),105,137,142,79,87,78,,130,130,68,63,23,18,0.7,0.9
2023-11-21T1900,3012A,112.1849,31.0362,荆门市,西山林语,"颗粒物(PM10),细颗粒物(PM2.5)",64,78,102,46,72,88,,128,127,30,23,10,11,0.8,0.7
2023-11-21T1900,3547A,112.1632,31.0138,荆门市,龙泉中学南校,细颗粒物(PM2.5),82,93,115,60,79,108,,132,132,29,27,11,13,0.7,0.7
2023-11-21T1900,1844A,112.2494,30.3197,荆州市,市图书馆,细颗粒物(PM2.5),78,97,105,57,58,87,,116,116,45,50,13,12,1.2,1.1
2023-11-21T1900,1845A,112.2008,30.3544,荆州市,市委党校,细颗粒物(PM2.5),72,75,102,52,72,85,,118,118,55,50,14,11,1.2,1.2
2023-11-21T1900,3194A,112.2747,30.3122,荆州市,管委会,细颗粒物(PM2.5),74,86,104,54,73,107,,124,124,39,59,16,14,1.0,1.1
2023-11-21T1900,3548A,112.1655,30.3364,荆州市,学苑路,细颗粒物(PM2.5),75,89,112,55,87,91,,122,122,30,27,10,11,1.0,0.9
2023-11-21T1900,2342A,117.3102,29.3867,景德镇市,王港中学,,46,46,27,27,16,33,,95,91,20,7,3,3,0.2,0.2
2023-11-21T1900,2343A,117.2117,29.2933,景德镇市,老干部活动中心,颗粒物(PM10),60,69,50,30,27,38,,75,75,48,25,13,12,0.5,0.5
2023-11-21T1900,2344A,117.1894,29.2789,景德镇市,兽医站,颗粒物(PM10),54,58,41,29,23,59,,79,79,27,27,3,4,0.8,0.6
2023-11-21T1900,2345A,117.1547,29.2617,景德镇市,台达陶瓷,颗粒物(PM10),89,127,49,53,24,4,,60,54,74,36,38,10,1.1,0.7
2023-11-21T1900,2346A,117.2461,29.2956,景德镇市,陶研所,,50,50,39,22,16,44,,70,70,35,31,4,5,0.6,0.5
2023-11-21T1900,1803A,115.9872,29.6815,九江市,十里,颗粒物(PM10),68,86,59,34,27,41,,93,90,63,47,9,9,1.2,0.8
2023-11-21T1900,1804A,115.9584,29.7046,九江市,茅山头,颗粒物(PM10),65,79,66,38,33,33,,83,82,81,59,12,12,1.4,1
2023-11-21T1900,1805A,115.9877,29.7295,九江市,西园,颗粒物(PM10),94,137,79,41,39,76,,84,84,44,57,11,15,1.1,1
2023-11-21T1900,1806A,116.0172,29.6547,九江市,五七二七厂,颗粒物(PM10),61,71,45,28,22,108,,109,109,15,18,14,13,0.7,0.6
2023-11-21T1900,1808A,115.9114,29.6038,九江市,综合工业园,细颗粒物(PM2.5),67,69,58,48,30,42,,96,94,63,38,12,13,0.9,0.6
2023-11-21T1900,1809A,116.0721,29.7535,九江市,石化总厂,颗粒物(PM10),59,67,73,32,35,88,,106,106,34,32,12,14,0.6,0.6
2023-11-21T1900,1810A,115.9773,29.5698,九江市,庐山气象台,,30,12,12,8,9,94,,95,95,1,3,7,6,0.8,0.7
2023-11-21T1900,3190A,116.0254,29.6994,九江市,外国语学校,颗粒物(PM10),54,58,58,31,36,102,,111,111,25,33,11,16,0.7,0.7
2023-11-21T1900,2658A,98.5061,39.7443,酒泉市,仓门街子站,颗粒物(PM10),80,110,154,27,31,70,,85,85,18,28,4,8,0.6,0.6
2023-11-21T1900,2659A,98.4989,39.7256,酒泉市,油田生活基地,颗粒物(PM10),78,105,151,24,33,72,,87,87,25,30,5,11,0.6,0.7
2023-11-21T1900,2698A,76.0072,39.4467,喀什地区,巡警大队,颗粒物(PM10),102,153,213,33,62,110,,83,83,17,54,4,7,0.5,1.4
2023-11-21T1900,2699A,75.9755,39.4694,喀什地区,吾办,颗粒物(PM10),103,155,234,46,93,93,,76,76,27,74,4,8,0.7,2
2023-11-21T1900,4027A,75.9483,39.4689,喀什地区,老干局,颗粒物(PM10),102,154,263,52,107,99,,71,71,21,63,5,8,0.5,2.3
2023-11-21T1900,1824A,114.3389,34.7781,开封市,肿瘤医院,细颗粒物(PM2.5),93,120,142,69,106,69,,107,107,64,40,5,6,0.8,0.8
2023-11-21T1900,1826A,114.2885,34.7965,开封市,世纪星幼儿园,细颗粒物(PM2.5),97,114,123,72,101,87,,107,107,38,33,6,7,0.7,0.6
2023-11-21T1900,3147A,114.3438,34.8106,开封市,龙亭公园,细颗粒物(PM2.5),103,113,134,77,103,86,,115,115,51,38,6,7,0.7,0.7
2023-11-21T1900,3210A,114.3644,34.7964,开封市,汴京公园,,,145,152,71,118,,,109,109,52,44,6,7,,0.7
2023-11-21T1900,3473A,114.2485,34.8306,开封市,技师学院,细颗粒物(PM2.5),85,100,125,63,94,116,,116,116,16,24,6,7,0.4,0.4
2023-11-21T1900,3592A,114.4644,34.7556,开封市,祥符区生态环境局,,,136,158,68,99,57,,108,106,,55,,6,,0.8
2023-11-21T1900,1951A,84.895,45.6094,克拉玛依市,长征新村,,26,20,19,18,12,33,,40,40,18,20,9,10,0.3,0.4
2023-11-21T1900,1952A,84.8988,45.5893,克拉玛依市,南林小区,,32,,24,22,19,35,,36,36,16,22,4,4,0.3,0.4
2023-11-21T1900,1954A,84.905,44.3396,克拉玛依市,独山子区,,40,40,11,25,10,12,,44,18,37,21,4,5,0.5,0.4
2023-11-21T1900,1955A,85.6979,46.098,克拉玛依市,乌尔禾区商贸楼,,18,18,37,3,25,36,,43,43,15,20,6,6,0.4,0.5
2023-11-21T1900,3612A,85.1045,45.6899,克拉玛依市,白碱滩区新站,,26,,16,18,13,35,,40,40,18,20,8,8,0.1,0.1
2023-11-21T1900,2697A,76.1454,39.7142,克孜勒苏柯尔克孜自治州,市人民政府,颗粒物(PM10),86,122,156,44,64,111,,99,99,13,28,4,5,0.6,0.9
2023-11-21T1900,3665A,76.1658,39.7157,克孜勒苏柯尔克孜自治州,克州文化中心,颗粒物(PM10),87,124,160,42,58,108,,99,99,14,28,7,8,0.6,0.7
2023-11-21T1900,1450A,102.8204,24.8886,昆明市,呈贡新区,,23,23,28,12,20,55,,63,63,22,25,7,11,0.7,1
2023-11-21T1900,1451A,102.6251,24.9608,昆明市,西山森林公园,,23,18,16,13,12,72,,72,72,8,9,5,6,0.3,0.5
2023-11-21T1900,1452A,102.7252,25.0902,昆明市,龙泉镇,,40,40,40,17,24,28,,62,62,50,33,10,9,0.7,0.7
2023-11-21T1900,1453A,102.7266,25.0375,昆明市,东风东路,,,,33,,23,43,,61,61,,29,10,12,,1
2023-11-21T1900,1454A,102.6742,25.0669,昆明市,金鼎山,,38,38,40,19,24,45,,24,,50,32,7,6,0.8,0.7
2023-11-21T1900,1455A,102.6644,25.0401,昆明市,碧鸡广场,,38,37,34,26,25,35,,58,58,53,31,11,10,1.1,0.9
2023-11-21T1900,3179A,102.7494,25.0119,昆明市,官渡区博物馆,,30,30,45,18,29,45,,64,64,38,32,9,9,0.7,1
2023-11-21T1900,3375A,102.8017,24.8336,昆明市,青年创业园,,22,18,37,11,24,70,,74,74,9,30,10,16,0.6,0.9
2023-11-21T1900,3550A,102.7997,24.9786,昆明市,昆明学院,,20,20,49,12,30,60,,66,66,20,31,9,10,0.5,0.8
2023-11-21T1900,3551A,102.5967,24.6736,昆明市,晋宁区生态环境分局,,21,20,25,5,11,67,,70,70,13,17,2,2,0.6,0.6
2023-11-21T1900,3552A,102.6678,24.9856,昆明市,云天化总部,,22,22,41,11,21,59,,64,64,20,24,8,7,0.8,0.9
2023-11-21T1900,1456A,91.1319,29.6514,拉萨市,八廓街,,31,23,33,11,18,97,,110,110,8,29,10,10,0.3,1
2023-11-21T1900,1457A,91.1221,29.6747,拉萨市,市环保局,,,40,56,7,33,,,100,100,15,41,6,9,0.5,1.6
2023-11-21T1900,1458A,91.0874,29.6475,拉萨市,区监测站,,32,16,28,5,15,100,,102,102,10,46,8,10,0.5,1
2023-11-21T1900,1459A,91.1774,29.6541,拉萨市,西藏大学,,31,29,30,7,17,98,,102,102,9,26,9,10,0.5,1
2023-11-21T1900,1460A,90.9798,29.6588,拉萨市,区辐射站,,30,27,58,7,30,94,,88,88,14,55,6,8,0.4,1
2023-11-21T1900,1461A,91.0834,29.6292,拉萨市,拉萨火车站,,32,18,24,8,13,100,,97,97,8,32,5,6,0.4,0.8
2023-11-21T1900,2520A,109.2203,23.7256,来宾市,来宾技工学校,细颗粒物(PM2.5),77,87,94,56,56,107,,140,140,42,29,13,21,0.7,0.8
2023-11-21T1900,3535A,109.1781,23.7297,来宾市,兴宾区政府,颗粒物(PM10),62,74,74,41,46,139,,149,149,30,18,14,13,0.7,0.7
2023-11-21T1900,4002A,109.2416,23.7461,来宾市,中南小学,细颗粒物(PM2.5),125,144,94,95,54,105,,139,139,40,41,81,15,0.9,0.8
2023-11-21T1900,1476A,103.631,36.1031,兰州市,兰炼宾馆,颗粒物(PM10),67,83,113,34,55,46,,46,46,47,68,18,27,0.7,1.4
2023-11-21T1900,1478A,103.8412,36.0726,兰州市,生物制品所,细颗粒物(PM2.5),63,73,100,45,58,57,,55,55,44,61,11,21,0.6,1.3
2023-11-21T1900,1479A,103.831,36.0464,兰州市,铁路设计院,颗粒物(PM10),67,83,104,40,60,41,,46,46,67,77,13,27,0.7,1.9
2023-11-21T1900,3186A,103.7158,36.1058,兰州市,教育港,颗粒物(PM10),66,82,93,28,49,62,,46,46,33,64,18,28,0.5,1.4
2023-11-21T1900,3241A,103.7439,36.0842,兰州市,百合公园,颗粒物(PM10),61,71,104,23,47,51,,45,45,52,69,12,23,0.4,1.4
2023-11-21T1900,3242A,103.9611,35.998,兰州市,和平,颗粒物(PM10),81,111,88,35,52,16,,58,57,101,58,31,20,1.3,1.1
2023-11-21T1900,3245A,103.6633,36.533,兰州新区,新区管委会,颗粒物(PM10),118,185,83,43,41,79,,70,70,15,32,6,17,0.3,0.7
2023-11-21T1900,3246A,103.6975,36.4789,兰州新区,舟曲中学,,,,97,46,45,74,,70,70,15,42,4,14,0.3,0.5
2023-11-21T1900,1067A,116.6708,39.5111,廊坊市,药材公司,细颗粒物(PM2.5),231,,244,181,137,5,,25,25,116,101,4,9,1.7,1.3
2023-11-21T1900,1068A,116.7214,39.5589,廊坊市,开发区,细颗粒物(PM2.5),225,233,191,175,132,8,,23,23,96,91,2,6,1.1,1.1
2023-11-21T1900,1070A,116.7244,39.5269,廊坊市,北华航天学院,细颗粒物(PM2.5),241,270,213,191,137,0,,19,18,,93,7,10,1.7,1.2
2023-11-21T1900,2919A,116.7022,39.5453,廊坊市,河北工业大学,细颗粒物(PM2.5),238,270,207,188,134,2,,24,24,98,85,8,12,1.2,1.1
2023-11-21T1900,2535A,103.7723,29.5462,乐山市,花湖湾,颗粒物(PM10),105,159,120,76,79,42,,59,59,28,37,1,2,0.9,1
2023-11-21T1900,2536A,103.7627,29.5844,乐山市,牛耳桥,细颗粒物(PM2.5),98,108,100,73,80,32,,56,52,46,46,5,5,0.9,0.9
2023-11-21T1900,2537A,103.7508,29.6006,乐山市,市第三水厂,颗粒物(PM10),86,121,104,62,64,42,,66,61,41,42,9,6,1.2,1.2
2023-11-21T1900,2538A,103.7571,29.5664,乐山市,市监测站,颗粒物(PM10),74,98,95,53,62,46,,61,60,26,33,4,5,1.0,1.1
2023-11-21T1900,3361A,103.7311,29.5628,乐山市,理工大学,细颗粒物(PM2.5),84,109,102,62,64,34,,52,52,36,40,6,6,0.8,0.9
2023-11-21T1900,2598A,100.2143,26.8576,丽江市,西南郊,,20,10,17,4,7,62,,60,60,5,12,4,4,0.6,0.8
2023-11-21T1900,2599A,100.2497,26.8802,丽江市,丽江古城,,43,43,34,18,19,46,,51,51,28,20,9,9,0.9,0.8
2023-11-21T1900,2600A,100.2203,26.8906,丽江市,市中心,,26,26,18,10,8,44,,46,,19,14,6,6,0.5,0.5
2023-11-21T1900,1267A,119.914,28.4514,丽水市,监测站大楼,颗粒物(PM10),108,166,53,56,27,10,,87,83,97,44,7,8,1.4,0.6
2023-11-21T1900,1268A,119.93,28.4586,丽水市,莲都小学,颗粒物(PM10),62,74,53,38,24,28,,94,92,69,41,6,6,0.6,0.5
2023-11-21T1900,1269A,119.879,28.4231,丽水市,余庄前,细颗粒物(PM2.5),222,,55,172,41,40,,91,91,30,26,5,5,0.8,0.4
2023-11-21T1900,1173A,119.176,34.5885,连云港市,市环境监测站,细颗粒物(PM2.5),100,132,90,75,55,101,,127,127,48,27,10,10,0.7,0.6
2023-11-21T1900,3000A,119.3581,34.6972,连云港市,德源药业,细颗粒物(PM2.5),98,119,96,73,54,106,,132,132,49,34,7,7,0.8,0.8
2023-11-21T1900,3007A,119.178,34.844,连云港市,新城一中,细颗粒物(PM2.5),102,114,97,76,56,12,,108,90,154,52,10,9,0.9,0.8
2023-11-21T1900,3008A,119.3608,34.7519,连云港市,胡沟管理处,细颗粒物(PM2.5),79,83,78,58,48,143,,136,136,28,25,10,11,1.2,1.2
2023-11-21T1900,3009A,119.1478,34.5911,连云港市,矿山设计院,细颗粒物(PM2.5),110,144,94,83,50,102,,126,126,49,31,7,6,0.7,0.5
2023-11-21T1900,3434A,119.2413,34.6539,连云港市,工贸学校,细颗粒物(PM2.5),99,115,100,74,57,149,,150,150,22,21,10,11,0.8,0.8
2023-11-21T1900,3664A,119.4172,34.7341,连云港市,连云街道,细颗粒物(PM2.5),89,106,97,66,59,158,,132,132,21,26,7,8,0.5,0.6
2023-11-21T1900,2571A,102.3431,27.8099,凉山彝族自治州,青龙寺,细颗粒物(PM2.5),68,55,31,49,30,41,,48,48,14,12,8,10,1.0,1
2023-11-21T1900,2572A,102.2721,27.8415,凉山彝族自治州,邛海宾馆,,39,39,35,24,27,69,,60,60,11,19,13,13,0.6,0.9
2023-11-21T1900,2573A,102.2625,27.898,凉山彝族自治州,西昌市政府,,36,31,40,25,34,68,,59,59,10,16,15,12,0.9,1.1
2023-11-21T1900,2574A,102.2685,27.8851,凉山彝族自治州,凉山州政府,,38,32,42,26,33,65,,57,57,10,20,14,12,0.7,0.9
2023-11-21T1900,2575A,102.237,27.8914,凉山彝族自治州,长安,,32,27,44,22,31,61,,55,55,18,23,23,16,0.8,0.8
2023-11-21T1900,2212A,123.2,41.1953,辽阳市,宏伟区,细颗粒物(PM2.5),59,,42,42,33,72,,86,84,15,14,10,11,0.4,0.3
2023-11-21T1900,2213A,123.1683,41.2495,辽阳市,新华园,细颗粒物(PM2.5),60,,50,43,41,63,,79,77,19,18,10,12,0.4,0.4
2023-11-21T1900,2214A,123.2354,41.2639,辽阳市,滨河路,细颗粒物(PM2.5),53,,40,37,34,61,,74,74,17,17,8,10,0.8,0.7
2023-11-21T1900,2215A,123.149,41.2991,辽阳市,铁西工业园,细颗粒物(PM2.5),62,66,72,44,47,69,,90,88,19,22,11,14,0.6,0.7
2023-11-21T1900,2227A,125.1358,42.8845,辽源市,环保局,细颗粒物(PM2.5),88,89,37,65,25,10,,87,64,79,27,12,12,2.1,0.9
2023-11-21T1900,3239A,125.0764,42.9078,辽源市,银鹰制药,细颗粒物(PM2.5),85,83,41,63,27,12,,80,62,68,22,9,9,1.3,0.8
2023-11-21T1900,1625A,115.9848,36.4372,聊城市,区政府,细颗粒物(PM2.5),125,162,159,95,92,78,,114,114,61,31,6,8,1.1,0.9
2023-11-21T1900,2878A,116.0072,36.4343,聊城市,聊大东校,细颗粒物(PM2.5),117,143,154,88,96,105,,123,121,38,25,5,8,0.7,0.8
2023-11-21T1900,3200A,115.9819,36.4978,聊城市,监控中心,细颗粒物(PM2.5),134,174,158,102,97,46,,114,109,89,33,5,7,1.0,0.8
2023-11-21T1900,3513A,116.0445,36.4361,聊城市,九州社区,细颗粒物(PM2.5),110,143,145,83,85,99,,122,122,32,22,6,7,0.8,0.8
2023-11-21T1900,4018A,116.0567,36.4608,聊城市,星美广场,细颗粒物(PM2.5),104,132,137,78,85,98,,112,112,45,29,8,8,1.0,1
2023-11-21T1900,2632A,94.3681,29.6376,林芝市,林芝监测站,,26,13,12,2,3,81,,73,73,5,5,6,6,0.3,0.3
2023-11-21T1900,2633A,94.3616,29.6616,林芝市,林芝人民医院,,27,24,14,9,6,84,,72,72,4,8,6,7,0.2,0.2
2023-11-21T1900,2603A,100.0781,23.8982,临沧市,市环保局,,33,24,23,23,17,55,,66,66,11,10,14,6,0.3,0.4
2023-11-21T1900,2604A,100.0894,23.8822,临沧市,市气象局,,32,32,22,20,20,50,,66,66,16,13,6,5,0.6,0.5
2023-11-21T1900,1733A,111.5531,36.0783,临汾市,临钢医院,细颗粒物(PM2.5),199,273,157,149,83,5,,47,46,104,57,12,9,2.5,1.4
2023-11-21T1900,1734A,111.5028,36.0714,临汾市,技工学校,细颗粒物(PM2.5),214,258,160,164,98,20,,70,70,129,70,21,14,2.9,1.6
2023-11-21T1900,1736A,111.5018,36.0855,临汾市,市委,细颗粒物(PM2.5),208,241,167,158,93,52,,74,74,,68,23,14,,1.3
2023-11-21T1900,3018A,111.505,36.1014,临汾市,唐尧大酒店,细颗粒物(PM2.5),205,225,152,155,90,29,,65,65,99,63,20,14,2.5,1.4
2023-11-21T1900,3668A,111.5036,36.0414,临汾市,城南,细颗粒物(PM2.5),214,274,182,164,110,35,,52,52,85,67,14,9,2.2,1.6
2023-11-21T1900,2667A,103.2069,35.5993,临夏回族自治州,环保局,,47,47,53,29,30,55,,46,46,42,46,18,15,1.0,1.6
2023-11-21T1900,2668A,103.2417,35.6057,临夏回族自治州,建设大厦,,48,48,50,26,23,62,,69,69,63,39,18,11,1.2,1.1
2023-11-21T1900,1618A,118.3429,35.0532,临沂市,沂河小区,细颗粒物(PM2.5),113,119,110,85,77,112,,115,115,41,43,10,9,0.7,0.7
2023-11-21T1900,1619A,118.295,35.0583,临沂市,鲁南制药厂,细颗粒物(PM2.5),137,156,121,104,83,97,,117,117,56,47,22,16,0.6,0.6
2023-11-21T1900,1620A,118.2794,34.9976,临沂市,新光毛纺厂,细颗粒物(PM2.5),114,136,114,86,76,101,,115,113,55,56,22,15,1.0,0.9
2023-11-21T1900,1621A,118.3956,35.0888,临沂市,河东保险公司,细颗粒物(PM2.5),120,146,100,91,59,70,,106,106,77,44,14,6,0.9,0.6
2023-11-21T1900,3370A,118.3564,35.0215,临沂市,十里堡居委,细颗粒物(PM2.5),107,127,107,80,68,106,,118,118,43,45,8,12,1.1,1.1
2023-11-21T1900,3496A,118.3604,35.1084,临沂市,南坊新区,细颗粒物(PM2.5),113,139,102,85,67,82,,114,114,73,42,13,11,1.3,1
2023-11-21T1900,3860A,118.3920,35.0300,临沂市,皇山花园小区,细颗粒物(PM2.5),98,114,107,73,67,109,,115,115,37,37,20,11,0.7,0.7
2023-11-21T1900,1870A,109.4856,24.3895,柳州市,柳东小学,,,51,58,31,44,149,,140,140,,24,11,18,0.6,0.6
2023-11-21T1900,1871A,109.4157,24.3277,柳州市,环保监测站,颗粒物(PM10),59,67,94,39,58,120,,128,128,24,49,9,14,0.6,0.8
2023-11-21T1900,1872A,109.389,24.341,柳州市,河西水厂,颗粒物(PM10),59,67,118,34,57,132,,133,133,20,45,12,20,1.0,1.3
2023-11-21T1900,1873A,109.4311,24.2921,柳州市,市四中,颗粒物(PM10),55,59,86,34,49,105,,132,132,37,49,8,12,0.8,1
2023-11-21T1900,1874A,109.4006,24.3631,柳州市,市九中,颗粒物(PM10),65,79,97,41,55,101,,124,124,36,42,7,11,1.0,1.1
2023-11-21T1900,1875A,109.4958,24.3134,柳州市,古亭山,细颗粒物(PM2.5),68,73,56,49,38,85,,124,124,37,40,10,14,0.8,0.7
2023-11-21T1900,3402A,109.5422,24.3996,柳州市,市二中,颗粒物(PM10),55,59,67,26,28,121,,145,145,24,35,19,15,0.5,0.5
2023-11-21T1900,2307A,116.5079,31.737,六安市,监测大楼,颗粒物(PM10),55,59,71,21,40,80,,84,84,35,35,6,6,0.5,0.6
2023-11-21T1900,2308A,116.4738,31.7643,六安市,皖西学院,颗粒物(PM10),54,57,71,19,34,78,,88,88,35,29,6,6,0.4,0.5
2023-11-21T1900,2309A,116.4996,31.7905,六安市,朝阳厂,颗粒物(PM10),57,63,63,34,38,66,,83,83,50,35,10,8,0.5,0.6
2023-11-21T1900,2310A,116.5567,31.7886,六安市,开发区,颗粒物(PM10),61,72,112,34,50,77,,86,86,35,44,8,13,0.6,0.8
2023-11-21T1900,2576A,104.8,26.5892,六盘水市,窑上,,,,45,44,32,77,,78,78,,7,3,4,0.6,0.7
2023-11-21T1900,2577A,104.83,26.5917,六盘水市,黄土坡,颗粒物(PM10),55,59,44,36,28,72,,73,73,21,15,7,8,0.6,0.5
2023-11-21T1900,2578A,104.89,26.5939,六盘水市,水钢,颗粒物(PM10),59,68,53,36,34,72,,77,76,20,14,8,6,0.6,0.5
2023-11-21T1900,2579A,104.8475,26.5894,六盘水市,民中,细颗粒物(PM2.5),52,44,43,36,31,83,,80,80,17,16,7,8,0.6,0.6
2023-11-21T1900,2580A,104.9544,26.5506,六盘水市,双水,细颗粒物(PM2.5),59,,36,42,33,83,,88,82,12,10,7,7,0.6,0.6
2023-11-21T1900,2336A,117.0217,25.1033,龙岩市,龙岩市监测站,,49,49,42,26,23,28,,108,94,72,42,9,10,1.2,0.6
2023-11-21T1900,2337A,117.0258,25.0661,龙岩市,闽西职业技术学院,颗粒物(PM10),70,90,51,27,22,30,,96,90,65,37,20,15,0.8,0.6
2023-11-21T1900,2338A,117.0196,25.0306,龙岩市,龙岩学院,颗粒物(PM10),77,103,46,48,24,58,,89,89,22,26,4,6,0.5,0.5
2023-11-21T1900,2885A,104.9339,33.3826,陇南市,滨江中学,颗粒物(PM10),101,152,72,64,34,10,,62,59,77,30,10,9,1.9,1.1
2023-11-21T1900,3247A,104.955,33.371,陇南市,市总工会,颗粒物(PM10),81,111,60,56,34,20,,67,66,83,30,8,6,0.9,0.5
2023-11-21T1900,2487A,111.9589,27.8901,娄底市,电视发射台,颗粒物(PM10),55,59,53,36,28,61,,72,72,30,27,9,12,1.0,1.3
2023-11-21T1900,2488A,111.9975,27.725,娄底市,市监测站,颗粒物(PM10),63,76,91,38,57,88,,113,113,42,45,14,14,0.7,1.3
2023-11-21T1900,2489A,112.0194,27.7314,娄底市,市委党校,颗粒物(PM10),58,66,73,34,46,34,,92,92,77,37,6,6,1.2,1
2023-11-21T1900,2490A,111.9561,27.7569,娄底市,涟钢,颗粒物(PM10),78,105,107,45,62,28,,72,72,80,49,14,27,1.3,2.1
2023-11-21T1900,2491A,111.9892,27.7044,娄底市,市政府,细颗粒物(PM2.5),64,71,77,46,51,39,,108,106,68,28,10,11,1.2,0.8
2023-11-21T1900,1893A,105.4324,28.9634,泸州市,九狮山,细颗粒物(PM2.5),94,99,98,70,65,29,,54,54,29,23,6,9,0.6,0.5
2023-11-21T1900,1894A,105.4427,28.9063,泸州市,小市上码头,细颗粒物(PM2.5),122,128,129,92,84,39,,53,53,42,28,8,10,0.8,0.7
2023-11-21T1900,1895A,105.4241,28.8573,泸州市,兰田宪桥,细颗粒物(PM2.5),129,150,130,98,87,38,,50,50,30,23,8,8,0.8,0.7
2023-11-21T1900,1896A,105.4379,28.8833,泸州市,市环监站,细颗粒物(PM2.5),110,119,120,83,80,37,,42,42,36,28,6,7,0.7,0.6
2023-11-21T1900,3490A,105.3617,28.7703,泸州市,纳溪区环保局,细颗粒物(PM2.5),122,130,122,92,86,49,,58,58,35,31,8,10,0.9,0.8
2023-11-21T1900,2183A,111.1406,37.5211,吕梁市,环保局,颗粒物(PM10),105,159,107,77,52,5,,57,49,103,64,11,7,1.1,0.8
2023-11-21T1900,2185A,111.1297,37.5136,吕梁市,自来水公司,颗粒物(PM10),90,130,137,52,53,14,,52,50,84,54,8,13,1.3,1
2023-11-21T1900,2867A,111.1283,37.51,吕梁市,马茂庄小学,颗粒物(PM10),116,182,136,86,59,4,,51,48,102,60,20,17,1.0,0.8
2023-11-21T1900,1812A,112.3931,34.6516,洛阳市,市委党校,细颗粒物(PM2.5),173,221,176,131,128,15,,62,60,119,72,10,9,2.2,1.2
2023-11-21T1900,1814A,112.4657,34.6871,洛阳市,豫西宾馆,细颗粒物(PM2.5),148,197,199,113,119,4,,81,78,116,69,10,13,2.0,1.3
2023-11-21T1900,1815A,112.494,34.6886,洛阳市,河南林校,细颗粒物(PM2.5),144,175,156,110,106,17,,84,82,105,60,7,7,1.4,1
2023-11-21T1900,1816A,112.3844,34.623,洛阳市,开发区管委会,细颗粒物(PM2.5),115,130,146,87,101,70,,100,100,47,50,7,6,0.9,0.9
2023-11-21T1900,1817A,112.4267,34.6258,洛阳市,市委新办公区,细颗粒物(PM2.5),135,151,157,103,114,60,,89,89,70,59,8,5,1.2,1
2023-11-21T1900,3340A,112.6005,34.6326,洛阳市,伊滨,细颗粒物(PM2.5),159,174,186,121,115,20,,77,74,98,57,6,7,1.1,1
2023-11-21T1900,3341A,112.4951,34.6332,洛阳市,中移产业园,细颗粒物(PM2.5),143,160,154,109,114,35,,89,87,99,59,12,10,1.1,1.1
2023-11-21T1900,3593A,112.5736,34.8993,洛阳市,吉利监测站,细颗粒物(PM2.5),168,169,149,127,118,12,,77,70,134,64,6,7,1.0,0.9
2023-11-21T1900,3635A,112.3677,34.662,洛阳市,河科大西苑校区,细颗粒物(PM2.5),133,170,190,101,126,39,,80,75,92,77,7,10,1.2,1
2023-11-21T1900,3636A,112.4388,34.6781,洛阳市,英才小学,细颗粒物(PM2.5),173,217,200,131,130,5,,79,76,125,72,8,14,2.0,1.2
2023-11-21T1900,2399A,114.051,33.5699,漯河市,三五一五工厂,,,,106,65,71,65,,119,118,60,50,10,10,1.0,0.8
2023-11-21T1900,2400A,114.0055,33.5698,漯河市,漯河大学,颗粒物(PM10),74,97,105,46,59,74,,124,124,62,45,4,3,0.9,0.6
2023-11-21T1900,2401A,114.0138,33.5828,漯河市,市水利局,颗粒物(PM10),102,153,100,55,58,61,,120,120,66,35,10,10,1.0,0.7
2023-11-21T1900,2402A,114.0261,33.5698,漯河市,市广电局,颗粒物(PM10),74,98,100,50,64,76,,124,123,48,37,6,6,0.8,0.6
2023-11-21T1900,3478A,113.9749,33.5664,漯河市,市图书馆,细颗粒物(PM2.5),73,80,112,53,62,115,,127,127,21,32,9,7,0.7,0.7
2023-11-21T1900,3479A,114.0967,33.5906,漯河市,召陵区卫健委,颗粒物(PM10),68,85,106,40,62,88,,121,121,36,38,9,8,0.8,0.7
2023-11-21T1900,1798A,118.5092,31.6837,马鞍山市,湖东路四小,颗粒物(PM10),74,97,81,52,55,66,,83,82,55,54,9,14,0.9,1.1
2023-11-21T1900,1799A,118.5024,31.6449,马鞍山市,开发区,细颗粒物(PM2.5),83,110,92,61,68,13,,84,73,102,61,10,15,1.1,1.2
2023-11-21T1900,1800A,118.5228,31.7231,马鞍山市,慈湖,颗粒物(PM10),70,90,88,43,66,77,,84,83,52,60,7,14,0.6,0.9
2023-11-21T1900,1802A,118.6245,31.7241,马鞍山市,濮塘,颗粒物(PM10),51,52,79,26,42,101,,98,98,14,26,10,11,0.4,0.6
2023-11-21T1900,3633A,118.4918,31.6809,马鞍山市,雨山,颗粒物(PM10),71,92,102,47,64,88,,87,87,38,48,10,15,0.8,1
2023-11-21T1900,1686A,111.0286,21.4688,茂名市,电白南海,颗粒物(PM10),53,56,78,27,38,128,,144,142,24,24,6,11,0.7,0.7
2023-11-21T1900,1687A,110.9294,21.6533,茂名市,茂石化七小,,,,83,27,43,108,,129,125,20,25,8,20,0.7,0.7
2023-11-21T1900,1688A,110.9107,21.6687,茂名市,健康路,颗粒物(PM10),53,56,72,27,40,117,,140,136,17,23,8,16,0.5,0.6
2023-11-21T1900,1689A,110.8592,21.6828,茂名市,高岭,细颗粒物(PM2.5),58,63,85,41,51,113,,143,140,19,29,12,18,0.7,0.9
2023-11-21T1900,3450A,111.01,21.5165,茂名市,电白水东,,48,48,70,22,32,138,,135,135,14,21,4,13,0.3,0.5
2023-11-21T1900,2539A,104.0308,30.0478,眉山市,黑龙滩水库,细颗粒物(PM2.5),147,,,112,73,23,,31,31,21,28,23,12,0.9,0.8
2023-11-21T1900,2540A,103.8416,30.0874,眉山市,气象局,细颗粒物(PM2.5),178,173,130,134,108,7,,10,10,68,51,49,18,1.2,1.1
2023-11-21T1900,3137A,103.8578,30.0744,眉山市,市委党校,细颗粒物(PM2.5),153,158,140,117,102,8,,14,14,69,53,32,14,1.1,1
2023-11-21T1900,3148A,103.8291,30.0564,眉山市,区人社局,细颗粒物(PM2.5),149,143,121,114,107,6,,17,17,70,54,17,16,1.2,1.1
2023-11-21T1900,1690A,116.1231,24.3284,梅州市,梅江月梅,细颗粒物(PM2.5),60,,44,43,22,87,,114,114,16,32,8,13,0.6,0.6
2023-11-21T1900,1691A,116.0797,24.2719,梅州市,梅县新城,细颗粒物(PM2.5),84,86,49,62,30,11,,104,99,95,30,9,11,1.2,0.8
2023-11-21T1900,1692A,116.1248,24.2654,梅州市,环境监控中心,,48,40,46,33,27,58,,100,100,46,35,11,17,0.8,0.7
2023-11-21T1900,3315A,116.1233,24.2991,梅州市,梅龙,颗粒物(PM10),58,66,42,32,23,43,,100,99,50,25,6,8,1.1,0.6
2023-11-21T1900,1878A,104.7778,31.4741,绵阳市,富乐山,细颗粒物(PM2.5),103,111,118,77,84,41,,43,43,34,42,7,8,0.8,0.9
2023-11-21T1900,1879A,104.7563,31.4535,绵阳市,市人大,细颗粒物(PM2.5),113,125,134,85,92,17,,29,29,66,52,8,8,1.0,1
2023-11-21T1900,1880A,104.6697,31.4668,绵阳市,高新区自来水公司,细颗粒物(PM2.5),110,144,152,83,81,27,,42,42,58,46,9,10,0.6,0.7
2023-11-21T1900,1881A,104.7287,31.5075,绵阳市,三水厂,细颗粒物(PM2.5),166,138,144,126,95,8,,30,30,73,54,5,6,0.9,1
2023-11-21T1900,3491A,104.69,31.5322,绵阳市,西科大附属小学,细颗粒物(PM2.5),112,117,120,84,86,18,,55,54,63,42,9,9,0.8,0.8
2023-11-21T1900,3492A,104.5648,31.5343,绵阳市,安州区旅游局,细颗粒物(PM2.5),122,129,131,92,89,49,,60,60,35,35,11,12,1.1,1.1
2023-11-21T1900,1784A,129.61,44.561,牡丹江市,环保大楼,细颗粒物(PM2.5),65,62,36,47,21,31,,67,48,65,37,14,11,0.7,0.5
2023-11-21T1900,1785A,129.6115,44.5782,牡丹江市,文化广场,细颗粒物(PM2.5),133,148,43,101,37,8,,54,28,91,46,16,14,2.4,0.7
2023-11-21T1900,1786A,129.5904,44.5963,牡丹江市,第一医院,细颗粒物(PM2.5),143,145,50,109,37,4,,44,28,84,51,12,10,1.7,0.7
2023-11-21T1900,1787A,129.6364,44.6075,牡丹江市,机车工厂,细颗粒物(PM2.5),109,,48,82,56,6,,36,23,72,59,10,13,0.9,0.6
2023-11-21T1900,1788A,129.6386,44.5462,牡丹江市,第一中学,细颗粒物(PM2.5),75,79,34,55,23,37,,74,56,50,30,10,11,0.7,0.4
2023-11-21T1900,2531A,105.0703,29.61,内江市,市监测站,细颗粒物(PM2.5),153,144,95,117,84,21,,35,35,55,37,6,6,0.8,0.6
2023-11-21T1900,2532A,105.0717,29.5947,内江市,东兴区政府,细颗粒物(PM2.5),134,150,97,102,74,26,,39,39,47,35,10,10,0.7,0.5
2023-11-21T1900,2533A,105.0653,29.5817,内江市,内江二中,细颗粒物(PM2.5),158,,96,120,92,26,,36,36,50,45,7,9,0.7,0.7
2023-11-21T1900,2534A,105.0406,29.5822,内江市,内江日报社,细颗粒物(PM2.5),122,131,98,92,76,37,,41,41,39,39,5,7,0.7,0.7
2023-11-21T1900,1290A,115.8931,28.6843,南昌市,省外办,颗粒物(PM10),97,143,94,61,42,5,,58,55,83,67,7,10,0.8,0.5
2023-11-21T1900,1291A,115.8886,28.7003,南昌市,省林业公司,颗粒物(PM10),70,90,82,39,36,44,,66,66,67,71,8,10,0.7,0.6
2023-11-21T1900,1292A,115.8126,28.7442,南昌市,林科所,颗粒物(PM10),56,61,57,27,27,52,,82,81,60,41,14,11,0.5,0.6
2023-11-21T1900,1294A,115.8518,28.687,南昌市,建工学校,颗粒物(PM10),67,84,86,42,36,49,,64,64,59,59,17,14,0.8,0.8
2023-11-21T1900,1295A,115.8921,28.6424,南昌市,象湖,颗粒物(PM10),61,72,86,37,43,13,,65,63,82,64,7,10,1.0,1.2
2023-11-21T1900,1296A,115.7423,28.7996,南昌市,武术学校,,43,43,24,26,13,69,,92,92,12,7,8,6,0.2,0.2
2023-11-21T1900,1298A,115.9314,28.6842,南昌市,省站,颗粒物(PM10),83,116,113,54,42,36,,74,74,63,55,8,9,0.8,0.7
2023-11-21T1900,3046A,115.9084,28.6062,南昌市,机电学校,颗粒物(PM10),90,130,110,44,44,9,,83,77,103,61,8,10,1.1,1.1
2023-11-21T1900,3690A,115.9721,28.7031,南昌市,外国语学校,颗粒物(PM10),67,84,84,31,39,29,,80,73,67,51,9,10,1.1,1
2023-11-21T1900,1905A,106.056,30.8064,南充市,西山风景区,细颗粒物(PM2.5),99,94,65,74,51,3,,71,19,39,27,6,6,0.7,0.5
2023-11-21T1900,1906A,106.0789,30.8023,南充市,南充市委,细颗粒物(PM2.5),115,135,99,87,63,4,,13,12,59,47,16,7,1.0,0.8
2023-11-21T1900,1907A,106.1031,30.8217,南充市,南充炼油厂,细颗粒物(PM2.5),94,104,102,70,63,10,,14,14,49,44,19,7,0.7,0.7
2023-11-21T1900,1908A,106.1064,30.7856,南充市,高坪区监测站,细颗粒物(PM2.5),100,109,100,75,64,10,,21,21,48,46,7,10,0.7,0.8
2023-11-21T1900,1909A,106.0642,30.7636,南充市,嘉陵区环保局,细颗粒物(PM2.5),104,113,98,78,59,2,,10,9,54,57,6,9,0.9,1
2023-11-21T1900,1910A,106.1087,30.8388,南充市,市环境监测站,细颗粒物(PM2.5),105,115,89,79,59,12,,22,16,50,34,27,9,0.6,0.6
2023-11-21T1900,1151A,118.8086,32.1065,南京市,迈皋桥,颗粒物(PM10),69,87,90,44,50,47,,104,97,62,58,4,5,0.8,0.7
2023-11-21T1900,1152A,118.7538,32.0551,南京市,草场门,颗粒物(PM10),63,75,94,29,51,58,,87,83,75,73,5,7,0.6,0.7
2023-11-21T1900,1153A,118.7794,32.0745,南京市,山西路,颗粒物(PM10),62,73,96,39,59,76,,109,107,50,37,6,9,0.7,0.7
2023-11-21T1900,1154A,118.7752,32.0023,南京市,中华门,颗粒物(PM10),56,61,94,29,56,65,,95,95,52,52,2,5,0.6,1
2023-11-21T1900,1155A,118.8109,32.0309,南京市,瑞金路,颗粒物(PM10),91,132,98,63,52,12,,89,77,132,74,12,12,1.3,0.9
2023-11-21T1900,1156A,118.7997,32.0754,南京市,玄武湖,颗粒物(PM10),53,55,80,27,51,70,,98,95,44,43,7,9,0.5,0.7
2023-11-21T1900,1157A,118.6414,32.0931,南京市,浦口,颗粒物(PM10),67,84,100,34,52,48,,83,81,67,54,14,12,1.5,1
2023-11-21T1900,1158A,118.7356,31.9996,南京市,奥体中心,颗粒物(PM10),58,66,97,34,56,69,,99,99,62,62,5,7,0.4,0.5
2023-11-21T1900,1159A,118.9125,32.1028,南京市,仙林大学城,颗粒物(PM10),59,68,91,41,59,86,,112,111,48,46,5,7,0.8,0.9
2023-11-21T1900,3422A,118.8436,31.9198,南京市,江宁彩虹桥,颗粒物(PM10),64,77,119,17,56,67,,117,111,62,54,5,8,0.6,0.8
2023-11-21T1900,3423A,119.0138,31.6494,南京市,溧水永阳,颗粒物(PM10),74,97,84,37,56,32,,112,99,79,43,4,6,0.5,0.4
2023-11-21T1900,3424A,118.879,31.3302,南京市,高淳老职中,颗粒物(PM10),52,54,89,35,55,97,,121,118,33,36,5,10,0.3,0.5
2023-11-21T1900,3427A,118.8554,32.3578,南京市,六合雄州,细颗粒物(PM2.5),65,66,94,47,54,66,,114,110,54,64,3,10,0.7,0.9
2023-11-21T1900,1401A,108.3103,22.7881,南宁市,二十一中,颗粒物(PM10),53,56,74,33,44,156,,162,162,24,44,12,12,0.9,0.9
2023-11-21T1900,1402A,108.3141,22.8528,南宁市,北湖,,48,43,90,33,53,127,,157,157,26,39,9,13,0.8,0.9
2023-11-21T1900,1403A,108.3206,22.8225,南宁市,市监测站,颗粒物(PM10),54,57,74,30,43,142,,158,158,34,47,14,18,1.1,1.1
2023-11-21T1900,1404A,108.3829,22.8037,南宁市,大自然花园,颗粒物(PM10),53,56,67,36,46,149,,150,150,16,31,10,11,0.8,0.7
2023-11-21T1900,1405A,108.4394,22.7904,南宁市,仙葫,颗粒物(PM10),56,61,80,30,47,138,,144,144,24,48,8,10,0.7,0.8
2023-11-21T1900,1406A,108.2397,22.8467,南宁市,区农职院,颗粒物(PM10),97,144,83,31,40,116,,142,142,54,46,12,18,1.0,0.9
2023-11-21T1900,1407A,108.3275,22.735,南宁市,英华嘉园,细颗粒物(PM2.5),82,85,102,60,53,99,,126,126,65,69,13,11,1.1,1
2023-11-21T1900,1408A,108.2257,22.7757,南宁市,沙井镇街道办,颗粒物(PM10),79,108,111,45,56,84,,142,142,75,55,9,15,0.8,0.8
2023-11-21T1900,3401A,108.4834,22.7618,南宁市,红星社区,细颗粒物(PM2.5),80,75,81,59,49,125,,150,150,33,46,10,10,0.8,0.7
2023-11-21T1900,2332A,118.1681,26.6369,南平市,南平市监测站,细颗粒物(PM2.5),54,45,38,38,25,43,,87,84,35,22,4,4,1.1,0.7
2023-11-21T1900,2333A,118.1825,26.6489,南平市,南平铝业有限公司,,46,37,37,32,24,28,,89,84,47,25,6,6,1.0,0.6
2023-11-21T1900,2334A,118.1756,26.6272,南平市,南平七中,,45,33,35,31,24,57,,90,90,26,23,5,5,0.6,0.6
2023-11-21T1900,1168A,120.9098,31.9663,南通市,狼山街道,,,,81,,57,46,,111,106,61,50,7,8,,0.7
2023-11-21T1900,1169A,120.86,32.0005,南通市,虹桥,细颗粒物(PM2.5),74,94,96,54,61,62,,121,115,88,59,7,7,0.8,0.7
2023-11-21T1900,1170A,120.87,32.02,南通市,城中,细颗粒物(PM2.5),69,86,90,50,61,55,,110,106,87,50,9,8,0.6,0.5
2023-11-21T1900,1171A,120.94,31.93,南通市,星湖花园,颗粒物(PM10),69,87,99,48,60,42,,94,89,89,56,7,8,0.8,0.8
2023-11-21T1900,1172A,120.81,32.0417,南通市,紫琅学院,颗粒物(PM10),77,103,101,45,53,32,,103,98,111,60,8,9,1.0,0.8
2023-11-21T1900,3291A,121.067,32.062,南通市,通州监测站,细颗粒物(PM2.5),94,124,115,70,77,72,,110,108,70,44,8,9,0.9,0.7
2023-11-21T1900,3432A,120.9348,31.9883,南通市,环境教育馆,细颗粒物(PM2.5),74,92,88,54,60,5,,98,85,128,61,9,9,0.6,0.5
2023-11-21T1900,2404A,112.5224,33.0122,南阳市,瓦房庄,细颗粒物(PM2.5),129,119,118,98,89,68,,90,90,59,62,9,9,1.0,1.2
2023-11-21T1900,2405A,112.5003,32.9735,南阳市,汉画馆,细颗粒物(PM2.5),114,130,107,86,72,49,,93,93,64,50,7,7,0.9,0.9
2023-11-21T1900,2406A,112.5573,33.027,南阳市,气象站,细颗粒物(PM2.5),128,118,112,97,81,91,,102,102,46,60,8,8,0.9,0.9
2023-11-21T1900,2407A,112.5481,32.9689,南阳市,理工学院,细颗粒物(PM2.5),128,133,107,97,74,97,,104,104,37,56,11,10,0.8,0.8
2023-11-21T1900,4008A,112.5234,32.9922,南阳市,卧龙区政府,细颗粒物(PM2.5),138,122,111,105,79,63,,90,90,53,56,8,11,1.0,1.2
2023-11-21T1900,1234A,121.8358,29.911,宁波市,区环保大楼,颗粒物(PM10),52,54,69,20,27,100,,122,120,45,64,6,6,0.6,0.7
2023-11-21T1900,1235A,121.56,29.82,宁波市,万里学院,颗粒物(PM10),54,58,93,24,39,94,,121,118,34,58,6,10,0.6,0.7
2023-11-21T1900,1236A,121.713,29.9572,宁波市,龙赛医院,,45,45,84,23,39,97,,108,108,44,73,7,11,0.5,0.6
2023-11-21T1900,1239A,121.633,29.7733,宁波市,钱湖水厂,,45,39,54,31,34,104,,119,119,24,20,7,7,0.4,0.6
2023-11-21T1900,1240A,121.5856,29.8635,宁波市,太古小学,颗粒物(PM10),55,60,88,26,34,93,,115,115,42,66,8,10,0.6,0.8
2023-11-21T1900,1241A,121.524,29.8674,宁波市,市环境监测中心,细颗粒物(PM2.5),52,49,62,36,39,91,,111,111,49,58,8,9,0.1,0.4
2023-11-21T1900,2871A,121.6147,29.9017,宁波市,万里国际学校,,,48,83,19,41,116,,114,114,,63,,8,0.6,0.8
2023-11-21T1900,3710A,121.5594,29.8975,宁波市,白沙活动中心,颗粒物(PM10),52,54,68,29,38,98,,110,110,40,72,7,8,0.6,0.8
2023-11-21T1900,2341A,119.5388,26.6612,宁德市,宁德市监测站,,45,40,27,31,19,77,,93,93,23,20,5,5,0.8,0.6
2023-11-21T1900,3209A,119.5231,26.6562,宁德市,宁德一中,,46,41,30,32,17,68,,90,90,21,17,5,5,0.9,0.6
2023-11-21T1900,2618A,98.8601,25.8567,怒江州,州监测站,,33,33,26,19,18,27,,37,37,33,26,7,7,0.4,0.4
2023-11-21T1900,2619A,98.8546,25.8417,怒江州,泸水一中,,,48,23,20,15,,,33,33,38,18,6,6,0.6,0.5
2023-11-21T1900,1888A,101.6891,26.571,攀枝花市,弄弄坪,颗粒物(PM10),58,66,47,35,29,21,,38,38,61,32,28,24,1.5,1.5
2023-11-21T1900,1889A,101.5769,26.5928,攀枝花市,河门口,颗粒物(PM10),59,68,59,40,38,29,,47,47,55,31,31,23,2.2,1.9
2023-11-21T1900,1890A,101.7169,26.585,攀枝花市,炳草岗,颗粒物(PM10),62,74,65,30,38,14,,37,37,67,45,39,36,1.5,1.6
2023-11-21T1900,1891A,101.7369,26.5008,攀枝花市,仁和,细颗粒物(PM2.5),74,82,42,54,30,21,,52,52,52,27,16,18,1.4,1.2
2023-11-21T1900,2835A,101.7227,26.567,攀枝花市,四十中小,颗粒物(PM10),52,54,68,31,40,54,,46,46,35,47,26,27,0.9,1.8
2023-11-21T1900,1604A,122.0303,41.1489,盘锦市,开发区,细颗粒物(PM2.5),114,,36,86,35,51,,78,77,65,31,12,10,0.9,0.5
2023-11-21T1900,1605A,122.0485,41.0883,盘锦市,兴隆台,细颗粒物(PM2.5),100,,41,75,31,52,,83,77,54,27,9,10,1.0,0.6
2023-11-21T1900,1606A,121.8297,41.1028,盘锦市,新生街道,细颗粒物(PM2.5),75,,36,55,27,68,,83,83,35,22,8,10,0.7,0.6
2023-11-21T1900,1832A,113.3257,33.742,平顶山市,新华旅馆,细颗粒物(PM2.5),109,145,148,82,84,102,,108,108,21,44,10,9,0.9,0.8
2023-11-21T1900,1833A,113.2919,33.737,平顶山市,规划设计院,细颗粒物(PM2.5),134,139,145,102,94,98,,110,110,29,38,10,10,1.1,1
2023-11-21T1900,1834A,113.182,33.774,平顶山市,平顶山工学院,细颗粒物(PM2.5),113,132,146,85,88,92,,115,115,30,31,8,12,0.9,1
2023-11-21T1900,3204A,113.3025,33.73,平顶山市,规划局,细颗粒物(PM2.5),134,144,141,102,96,92,,103,103,31,42,11,10,1.2,1.2
2023-11-21T1900,3594A,112.8867,33.9116,平顶山市,石龙区,细颗粒物(PM2.5),139,167,143,106,79,37,,116,110,83,56,8,9,0.9,0.8
2023-11-21T1900,2656A,106.6692,35.5461,平凉市,聚贤嘉苑,颗粒物(PM10),70,90,61,29,32,78,,96,96,19,32,5,5,0.4,0.5
2023-11-21T1900,2657A,106.7021,35.5307,平凉市,博物馆,颗粒物(PM10),72,94,67,29,38,71,,160,,14,38,8,13,0.4,0.7
2023-11-21T1900,2347A,114.0997,27.5002,萍乡市,武功山,,28,26,19,19,14,69,,90,90,10,6,5,6,0.4,0.4
2023-11-21T1900,2348A,113.8385,27.6434,萍乡市,中医院,颗粒物(PM10),76,101,73,44,45,55,,79,79,49,40,19,21,1.2,1.1
2023-11-21T1900,2349A,113.8493,27.6253,萍乡市,市政府车库,颗粒物(PM10),71,91,80,42,43,50,,81,81,42,33,18,22,1.2,1.5
2023-11-21T1900,2350A,113.8676,27.6435,萍乡市,市环保局,颗粒物(PM10),60,70,68,38,39,56,,96,90,45,37,14,23,0.8,1
2023-11-21T1900,2351A,113.866,27.6198,萍乡市,安源区政府,细颗粒物(PM2.5),64,71,72,46,45,62,,85,85,33,34,22,21,0.7,1.3
2023-11-21T1900,2319A,119.0141,25.4325,莆田市,荔城区仓后路,,37,37,29,20,11,90,,109,107,18,12,6,6,0.7,0.5
2023-11-21T1900,2320A,119.0015,25.4553,莆田市,莆田市监测站,,32,31,22,22,8,92,,113,111,11,7,7,7,0.6,0.5
2023-11-21T1900,2321A,119.1119,25.4561,莆田市,涵江区六中,,45,45,30,15,11,92,,110,108,17,13,8,8,0.6,0.5
2023-11-21T1900,2322A,119.1013,25.3215,莆田市,秀屿区政府,,36,27,30,25,13,96,,113,112,22,14,13,9,0.9,0.6
2023-11-21T1900,2392A,115.0312,35.7636,濮阳市,环保局,细颗粒物(PM2.5),113,100,118,85,100,60,,94,94,65,34,6,9,1.2,0.7
2023-11-21T1900,2394A,115.0574,35.7609,濮阳市,油田运输公司,细颗粒物(PM2.5),113,143,151,85,107,50,,95,94,78,37,7,9,1.3,0.7
2023-11-21T1900,2395A,115.0866,35.7754,濮阳市,油田物探公司,细颗粒物(PM2.5),128,148,155,97,112,54,,99,98,76,37,4,6,1.1,0.8
2023-11-21T1900,3021A,115,35.7668,濮阳市,濮水河管理处,细颗粒物(PM2.5),133,106,121,101,103,47,,92,89,57,31,6,8,1.1,0.8
2023-11-21T1900,2601A,100.98,22.7633,普洱市,市环保局,,38,,22,26,18,44,,60,60,14,9,2,3,0.5,0.5
2023-11-21T1900,2602A,100.9817,22.8322,普洱市,普洱第二中学,,28,28,25,14,16,45,,60,60,21,14,5,4,0.5,0.5
2023-11-21T1900,2262A,131.0518,45.8751,七台河市,新一中,细颗粒物(PM2.5),74,70,30,54,24,77,,85,85,25,17,10,12,1.0,0.7
2023-11-21T1900,3345A,131.0577,45.7879,七台河市,中波台,细颗粒物(PM2.5),84,78,28,62,20,32,,65,49,64,29,12,10,1.3,0.9
2023-11-21T1900,3637A,131.0176,45.7761,七台河市,人民广场,细颗粒物(PM2.5),94,93,37,70,31,18,,67,,77,33,10,8,1.2,0.8
2023-11-21T1900,3684A,130.8781,45.8222,七台河市,新建矿广场,细颗粒物(PM2.5),68,73,28,49,23,41,,62,54,50,26,13,10,1.0,0.7
2023-11-21T1900,1779A,123.9305,47.3636,齐齐哈尔市,安居小区,,39,30,42,27,33,55,,53,53,16,25,5,7,0.4,0.6
2023-11-21T1900,1780A,123.9488,47.3386,齐齐哈尔市,中心广场,,31,31,42,14,21,62,,51,51,11,22,3,6,0.5,0.7
2023-11-21T1900,1781A,123.9483,47.3227,齐齐哈尔市,农牧车辆厂,,26,,38,18,24,58,,50,50,11,22,6,9,0.4,0.5
2023-11-21T1900,1783A,123.945,47.2988,齐齐哈尔市,市环境监测站,,20,16,46,8,30,62,,49,49,11,24,4,6,0.4,0.7
2023-11-21T1900,3662A,123.6333,47.2075,齐齐哈尔市,富区青少年活动中心,,,,46,32,31,43,,43,43,19,27,,10,0.4,0.6
2023-11-21T1900,2591A,107.9783,26.5747,黔东南苗族侗族自治州,市环境监测站,,45,43,43,31,31,57,,83,83,45,35,6,6,0.7,0.8
2023-11-21T1900,2881A,107.8908,26.5311,黔东南苗族侗族自治州,凯里学院,,37,30,29,21,21,116,,112,112,6,17,6,5,0.4,0.5
2023-11-21T1900,2593A,107.5228,26.2403,黔南布依族苗族自治州,小围寨,,33,29,33,14,18,103,,99,99,4,17,6,4,0.4,0.4
2023-11-21T1900,3538A,107.5175,26.2978,黔南布依族苗族自治州,沙坝,,31,29,31,14,20,99,,98,98,7,15,6,5,0.5,0.5
2023-11-21T1900,2589A,104.9022,25.0925,黔西南布依族苗族自治州,场坝街,,39,34,42,27,27,64,,71,71,12,18,2,3,0.2,0.3
2023-11-21T1900,2590A,104.8811,25.0992,黔西南布依族苗族自治州,坪东大道,,49,,38,34,30,62,,70,70,11,23,6,6,0.3,0.4
2023-11-21T1900,2502A,108.6236,21.9667,钦州市,市环保站,颗粒物(PM10),78,105,104,44,51,170,,174,174,34,45,9,10,0.7,0.8
2023-11-21T1900,2503A,108.6549,21.9481,钦州市,沙埠小学,细颗粒物(PM2.5),80,103,110,59,62,164,,175,175,44,50,15,16,0.8,0.8
2023-11-21T1900,2504A,108.5989,21.7431,钦州市,港区一小,臭氧1小时,77,85,110,37,47,181,,176,176,26,37,10,14,0.8,0.9
2023-11-21T1900,3404A,108.5959,21.9633,钦州市,北职校,颗粒物(PM10),73,95,109,46,59,161,,176,176,36,47,11,13,0.9,1
2023-11-21T1900,1042A,119.5134,39.8207,秦皇岛市,北戴河环保局,细颗粒物(PM2.5),119,108,130,90,94,64,,76,76,48,63,9,15,0.4,0.8
2023-11-21T1900,1044A,119.5897,39.9499,秦皇岛市,监测站,细颗粒物(PM2.5),142,143,155,108,112,19,,83,77,92,63,11,22,1.3,1.5
2023-11-21T1900,1046A,119.5251,39.9041,秦皇岛市,建设大厦,细颗粒物(PM2.5),135,136,158,103,114,48,,91,85,54,54,5,17,1.0,1.1
2023-11-21T1900,3132A,119.610547,39.943889,秦皇岛市,文明里,细颗粒物(PM2.5),139,159,174,106,98,20,,76,72,87,71,7,15,1.0,1.4
2023-11-21T1900,1307A,120.6659,36.2403,青岛市,仰口,细颗粒物(PM2.5),79,95,51,58,29,160,,154,154,22,12,2,3,0.7,0.5
2023-11-21T1900,1310A,120.4134,36.0658,青岛市,市南区东部子站,颗粒物(PM10),73,95,75,36,28,141,,152,152,23,18,10,9,0.7,0.5
2023-11-21T1900,1311A,120.3664,36.1032,青岛市,四方区子站,细颗粒物(PM2.5),85,90,66,63,42,149,,151,151,35,18,6,6,0.9,0.7
2023-11-21T1900,1312A,120.2994,36.054,青岛市,市南区西部子站,颗粒物(PM10),68,85,71,42,31,161,,155,155,17,20,8,8,0.6,0.6
2023-11-21T1900,1313A,120.4581,36.0858,青岛市,崂山区子站,颗粒物(PM10),73,95,73,39,27,151,,158,158,22,19,7,8,0.9,0.7
2023-11-21T1900,1314A,120.1983,35.9608,青岛市,黄岛区子站,细颗粒物(PM2.5),80,97,76,59,40,152,,149,149,29,23,8,8,0.9,0.8
