timepoint,stationcode,longitude,latitude,area,positionname,primarypollutant,aqi,pm10,pm10_24h,pm2_5,pm2_5_24h,o3,o3_24h,o3_8h,o3_8h_24h,no2,no2_24h,so2,so2_24h,co,co_24h
2023-11-21T2200,2566A,102.1879,31.914,阿坝藏族羌族自治州,州农科所,,,,50,,,12,,23,19,,,5,7,0.3,0.1
2023-11-21T2200,2568A,102.2502,31.8896,阿坝藏族羌族自治州,马师校,,36,36,18,24,14,12,,52,38,50,25,5,4,0.8,0.6
2023-11-21T2200,3994A,102.2165,31.9024,阿坝藏族羌族自治州,马尔康中学西区,,33,33,25,20,16,44,,52,46,19,19,4,4,0.7,0.5
2023-11-21T2200,2695A,80.292,41.1694,阿克苏地区,电视台,颗粒物(PM10),94,138,151,42,52,11,,89,72,76,42,9,10,0.8,0.9
2023-11-21T2200,2696A,80.2613,41.1551,阿克苏地区,艺术中心,颗粒物(PM10),88,126,142,47,55,14,,85,68,74,46,5,4,1.1,1.2
2023-11-21T2200,2204A,105.6467,38.8363,阿拉善盟,西城区西花园,颗粒物(PM10),61,71,49,20,21,74,,86,82,10,13,7,8,0.5,0.7
2023-11-21T2200,2205A,105.6985,38.8411,阿拉善盟,蒙二幼,颗粒物(PM10),60,69,49,20,16,80,,86,83,12,19,5,5,0.4,0.4
2023-11-21T2200,2206A,105.724,38.8516,阿拉善盟,环保局新楼,颗粒物(PM10),53,56,38,18,13,84,,89,83,6,8,7,7,0.4,0.4
2023-11-21T2200,2708A,88.1264,47.8517,阿勒泰地区,市站,,,13,12,5,4,72,,61,55,,6,3,4,0.3,0.3
2023-11-21T2200,2630A,80.1161,32.5,阿里地区,阿里监测站,,47,47,10,16,4,15,,80,70,64,19,18,6,1.0,0.5
2023-11-21T2200,3192A,80.0903,32.5028,阿里地区,阿里藏医院,,18,16,14,4,5,57,,81,78,21,33,5,8,0.4,0.5
2023-11-21T2200,2642A,109.0318,32.6537,安康市,香溪洞,,50,44,40,35,26,26,,46,31,32,19,6,7,0.7,0.5
2023-11-21T2200,2643A,109.0281,32.6939,安康市,安康市监测站,细颗粒物(PM2.5),82,108,60,60,35,4,,15,10,45,34,10,13,1.4,0.9
2023-11-21T2200,2644A,109.0072,32.6975,安康市,汉滨区检察院,颗粒物(PM10),60,69,51,39,33,6,,16,8,38,27,10,15,0.7,0.6
2023-11-21T2200,2291A,117.0809,30.5177,安庆市,环科院,细颗粒物(PM2.5),67,75,60,48,34,2,,80,52,117,64,10,9,0.6,0.7
2023-11-21T2200,2292A,117.0331,30.5119,安庆市,马山宾馆,细颗粒物(PM2.5),62,67,61,44,36,27,,95,73,88,61,8,8,0.7,0.8
2023-11-21T2200,2294A,116.9896,30.6145,安庆市,安庆大学,颗粒物(PM10),52,53,58,32,32,53,,48,,47,42,9,9,0.5,0.7
2023-11-21T2200,3173A,117.0598,30.5351,安庆市,市人大,颗粒物(PM10),61,71,65,43,34,13,,93,75,100,55,6,6,0.6,0.7
2023-11-21T2200,3123A,105.9408,26.2431,安顺市,凤凰山,,30,27,28,21,21,72,,84,81,14,14,11,13,0.5,0.5
2023-11-21T2200,3124A,105.9439,26.2564,安顺市,金钟山,,30,30,30,21,20,77,,84,82,9,9,16,14,0.5,0.5
2023-11-21T2200,3125A,105.8983,26.2481,安顺市,娄家坡,,32,28,28,22,22,78,,81,80,8,7,10,10,0.5,0.5
2023-11-21T2200,1819A,114.3551,36.1017,安阳市,红庙街,细颗粒物(PM2.5),239,245,180,189,150,16,,88,68,97,55,12,11,1.7,1.3
2023-11-21T2200,1820A,114.361,36.0681,安阳市,银杏小区,细颗粒物(PM2.5),276,252,184,226,170,23,,62,44,71,47,9,8,1.9,1.2
2023-11-21T2200,3141A,114.3922,36.0878,安阳市,信访局,细颗粒物(PM2.5),269,259,195,219,156,30,,96,82,86,55,11,10,1.6,1
2023-11-21T2200,3669A,114.4705,36.0637,安阳市,左辅环卫站,细颗粒物(PM2.5),256,264,196,206,148,49,,111,96,77,49,10,10,1.2,0.8
2023-11-21T2200,3703A,114.2917,36.0949,安阳市,安钢职工学校,细颗粒物(PM2.5),259,285,220,209,169,38,,91,81,70,57,11,12,1.7,1.6
2023-11-21T2200,1748A,123.044,41.1196,鞍山市,深沟寺,颗粒物(PM10),56,61,60,37,48,73,,97,71,12,17,6,9,0.5,0.6
2023-11-21T2200,1749A,123.011,41.0931,鞍山市,太阳城,细颗粒物(PM2.5),67,81,72,48,42,80,,100,75,16,20,9,11,0.8,0.8
2023-11-21T2200,1750A,123.0485,41.1442,鞍山市,太平,颗粒物(PM10),55,59,77,36,45,83,,99,77,18,21,9,12,0.5,0.6
2023-11-21T2200,1751A,122.9642,41.0971,鞍山市,铁西三道街,细颗粒物(PM2.5),68,82,93,49,57,62,,89,55,35,34,11,13,0.7,1
2023-11-21T2200,1752A,122.9341,41.0833,鞍山市,铁西工业园区,细颗粒物(PM2.5),82,89,76,60,51,29,,101,72,67,24,9,11,0.9,0.7
2023-11-21T2200,1753A,123.022,41.0821,鞍山市,明达新区,颗粒物(PM10),61,71,61,41,41,84,,95,74,16,20,8,10,0.7,0.7
2023-11-21T2200,2195A,107.4212,40.761,巴彦淖尔市,附二中,颗粒物(PM10),64,78,154,28,53,65,,72,72,12,36,3,11,0.5,0.9
2023-11-21T2200,2196A,107.37,40.7372,巴彦淖尔市,市环保大楼,颗粒物(PM10),63,75,126,14,33,62,,71,71,12,26,4,4,0.3,0.7
2023-11-21T2200,1956A,86.1472,41.7538,巴音郭楞州,孔雀公园,颗粒物(PM10),102,154,156,60,53,45,,76,74,52,40,6,6,0.8,0.8
2023-11-21T2200,1957A,86.1972,41.7166,巴音郭楞州,棉纺厂,颗粒物(PM10),109,167,189,62,57,8,,71,60,95,52,4,4,1.1,0.7
2023-11-21T2200,1958A,86.2357,41.7173,巴音郭楞州,经济开发区,颗粒物(PM10),118,185,161,41,49,2,,71,56,84,46,4,4,1.0,0.6
2023-11-21T2200,2914A,106.7677,31.8794,巴中市,苏山坪,细颗粒物(PM2.5),60,58,59,43,43,34,,56,26,32,25,4,4,0.5,0.5
2023-11-21T2200,3182A,106.7656,31.8545,巴中市,丽阳花园,细颗粒物(PM2.5),99,117,92,74,60,4,,12,10,34,43,4,4,1.1,1
2023-11-21T2200,3183A,106.7418,31.8654,巴中市,圣泉水务公司,细颗粒物(PM2.5),87,80,58,64,44,3,,11,6,38,38,4,4,0.8,0.7
2023-11-21T2200,3616A,106.7616,31.8344,巴中市,市中心医院,细颗粒物(PM2.5),92,99,80,68,55,3,,8,6,30,34,5,5,0.6,0.5
2023-11-21T2200,2235A,122.7911,45.6077,白城市,洮北区环保局,细颗粒物(PM2.5),84,,49,62,34,11,,56,33,57,24,10,7,0.9,0.6
2023-11-21T2200,2236A,122.8738,45.5725,白城市,市环保局,细颗粒物(PM2.5),53,53,49,37,24,17,,58,24,54,31,10,8,0.5,0.4
2023-11-21T2200,2231A,126.4219,41.9171,白山市,喜丰,颗粒物(PM10),51,52,54,29,28,15,,64,50,48,31,13,14,1.1,1
2023-11-21T2200,2232A,126.4077,41.9419,白山市,环保局,颗粒物(PM10),58,65,57,34,29,4,,53,31,50,33,23,18,1.4,1.2
2023-11-21T2200,2647A,104.1724,36.5446,白银市,第三小学,颗粒物(PM10),363,470,132,61,30,82,,82,82,12,56,4,84,0.5,1
2023-11-21T2200,2648A,104.1465,36.5482,白银市,动力公司,颗粒物(PM10),320,436,106,78,30,86,,84,84,11,28,3,43,0.5,0.8
2023-11-21T2200,2512A,106.6103,23.9011,百色市,市监测站,细颗粒物(PM2.5),77,100,72,56,41,78,,132,127,28,26,24,20,1.1,0.9
2023-11-21T2200,2513A,106.6538,23.8859,百色市,市中心血站,细颗粒物(PM2.5),83,85,90,61,57,105,,137,134,25,30,34,29,1.1,1.1
2023-11-21T2200,3406A,106.6085,23.8798,百色市,祈福高中,细颗粒物(PM2.5),93,88,79,69,46,69,,133,122,38,29,17,16,1.0,0.8
2023-11-21T2200,2270A,117.396,32.939,蚌埠市,工人疗养院,颗粒物(PM10),54,57,81,24,44,93,,113,105,21,37,9,10,0.5,0.7
2023-11-21T2200,2271A,117.3605,32.9427,蚌埠市,百货大楼,颗粒物(PM10),56,62,85,28,42,92,,106,100,23,44,7,9,0.6,0.9
2023-11-21T2200,2273A,117.4185,32.8911,蚌埠市,蚌埠学院,颗粒物(PM10),56,61,76,28,41,81,,112,99,29,32,8,8,0.5,0.7
2023-11-21T2200,2274A,117.3533,32.9673,蚌埠市,淮上区政府,颗粒物(PM10),57,63,89,34,52,92,,106,98,29,47,9,10,0.5,0.7
2023-11-21T2200,2275A,117.3145,32.8977,蚌埠市,高新区,颗粒物(PM10),54,58,82,32,49,88,,103,92,26,39,7,10,0.6,0.7
2023-11-21T2200,3715A,117.3092,32.9314,蚌埠市,蚌埠田家炳中学,颗粒物(PM10),59,68,86,36,47,85,,98,91,26,40,6,11,0.4,0.6
2023-11-21T2200,1585A,109.8756,40.6532,包头市,市环境监测站,颗粒物(PM10),106,161,144,41,64,34,,37,33,39,65,40,43,1.6,1.9
2023-11-21T2200,1587A,109.9991,40.5842,包头市,包头八中,颗粒物(PM10),119,188,151,45,66,47,,40,38,29,69,23,60,0.7,2.1
2023-11-21T2200,1588A,109.8538,40.6821,包头市,青山宾馆,颗粒物(PM10),91,131,141,54,67,27,,35,33,48,67,28,36,1.6,1.9
2023-11-21T2200,1589A,109.8642,40.6288,包头市,惠龙物流,颗粒物(PM10),116,182,143,53,64,33,,43,39,41,65,43,38,1.1,1.7
2023-11-21T2200,1590A,110.0377,40.5546,包头市,东河鸿龙湾,颗粒物(PM10),90,129,148,27,64,58,,51,50,17,55,12,29,0.4,1.8
2023-11-21T2200,3283A,109.9154,40.5685,包头市,滨河大厦,颗粒物(PM10),89,128,119,31,55,51,,52,50,21,57,12,29,0.3,1.2
2023-11-21T2200,3419A,109.9447,40.6261,包头市,包头市委党校,颗粒物(PM10),102,153,121,36,59,43,,46,43,40,79,20,36,0.9,1.6
2023-11-21T2200,3683A,109.8331,40.6576,包头市,昆区政府,颗粒物(PM10),100,150,138,54,66,11,,37,28,65,68,51,43,3.5,2
2023-11-21T2200,1930A,107.185,34.3063,宝鸡市,庙沟村,,32,,63,22,56,45,,63,57,21,20,8,10,0.6,0.8
2023-11-21T2200,1931A,107.0708,34.3017,宝鸡市,竹园沟,,28,22,58,19,53,38,,63,60,27,31,7,6,0.6,0.8
2023-11-21T2200,1932A,107.1906,34.3672,宝鸡市,三陆医院,细颗粒物(PM2.5),73,55,112,53,83,19,,39,34,54,63,11,18,0.8,1.1
2023-11-21T2200,1933A,107.1431,34.3547,宝鸡市,监测站,颗粒物(PM10),51,51,89,35,69,26,,45,37,41,49,5,7,0.7,0.9
2023-11-21T2200,1934A,107.1186,34.3739,宝鸡市,技工学校,,50,50,93,30,75,40,,67,60,38,45,7,14,0.5,0.9
2023-11-21T2200,1935A,107.3906,34.3528,宝鸡市,陈仓区环保局家属楼,颗粒物(PM10),56,62,132,38,108,16,,72,31,61,61,10,36,0.9,1.3
2023-11-21T2200,1936A,107.2058,34.3497,宝鸡市,文理学院,颗粒物(PM10),60,69,108,33,79,21,,52,42,54,54,5,10,0.7,1
2023-11-21T2200,1937A,107.2386,34.3622,宝鸡市,三迪小学,细颗粒物(PM2.5),53,50,114,37,84,25,,47,37,52,60,8,13,0.7,1.1
2023-11-21T2200,1051A,115.493,38.8632,保定市,游泳馆,细颗粒物(PM2.5),213,229,178,163,135,5,,32,18,107,91,12,13,1.3,1.2
2023-11-21T2200,1052A,115.5213,38.8959,保定市,华电二区,细颗粒物(PM2.5),232,195,162,182,128,0,,22,10,107,92,7,9,1.6,1.1
2023-11-21T2200,1053A,115.4713,38.9108,保定市,接待中心,细颗粒物(PM2.5),212,207,179,162,123,0,,26,11,106,85,8,9,1.5,1.4
2023-11-21T2200,1054A,115.4612,38.8416,保定市,地表水厂,细颗粒物(PM2.5),217,263,202,167,144,4,,31,16,105,89,9,10,1.1,0.9
2023-11-21T2200,1056A,115.5086,38.8639,保定市,监测站,细颗粒物(PM2.5),228,201,174,178,131,2,,26,15,107,93,9,10,2.1,1.5
2023-11-21T2200,3581A,115.31981,38.95208,保定市,满城区生态环境分局,细颗粒物(PM2.5),219,227,187,169,124,2,,45,24,103,82,5,6,1.4,1.3
2023-11-21T2200,3582A,115.47694,38.76408,保定市,清苑区第二中学,细颗粒物(PM2.5),173,243,221,131,132,3,,23,10,106,93,9,11,1.1,1
2023-11-21T2200,3583A,115.62909,39.02311,保定市,徐水物探局,细颗粒物(PM2.5),213,263,228,163,131,3,,25,14,98,89,9,10,1.3,1.2
2023-11-21T2200,4004A,115.4202,38.8656,保定市,双鹰农机,细颗粒物(PM2.5),209,216,176,159,120,4,,38,19,103,83,10,12,1.2,1.1
2023-11-21T2200,2594A,99.1678,25.1081,保山市,市环境监测站,,23,16,23,16,13,48,,66,60,11,10,8,6,0.5,0.6
2023-11-21T2200,2595A,99.1711,25.1328,保山市,市环保局,,21,21,25,11,13,49,,62,58,5,8,7,6,0.3,0.3
2023-11-21T2200,1867A,109.1436,21.4086,北海市,海滩公园,颗粒物(PM10),54,58,75,32,38,162,,216,197,18,19,8,15,0.6,0.7
2023-11-21T2200,1868A,109.0981,21.4661,北海市,新市环保局,细颗粒物(PM2.5),64,68,65,46,40,83,,168,126,51,26,7,13,0.8,0.6
2023-11-21T2200,1869A,109.1778,21.5233,北海市,北海工业园,细颗粒物(PM2.5),83,107,80,61,47,43,,172,122,76,29,8,16,0.7,0.6
2023-11-21T2200,3400A,109.1911,21.4415,北海市,龙潭自来水厂,细颗粒物(PM2.5),64,73,70,46,43,80,,182,120,26,20,7,12,0.6,0.6
2023-11-21T2200,1001A,116.3621,39.8784,北京市,万寿西宫,细颗粒物(PM2.5),228,256,184,178,117,1,,48,35,128,92,2,4,1.8,1.1
2023-11-21T2200,1002A,116.2202,40.2915,北京市,定陵,细颗粒物(PM2.5),165,181,163,125,106,34,,49,48,32,47,2,3,0.9,0.8
2023-11-21T2200,1003A,116.4174,39.9289,北京市,东四,细颗粒物(PM2.5),231,277,205,181,135,4,,52,41,109,39,6,7,1.8,1
2023-11-21T2200,1004A,116.4072,39.8863,北京市,天坛,细颗粒物(PM2.5),218,209,164,168,116,2,,48,30,52,61,3,3,1.4,1.1
2023-11-21T2200,1005A,116.462,39.9365,北京市,农展馆,细颗粒物(PM2.5),213,242,184,163,113,1,,46,36,97,75,1,2,1.5,1.2
2023-11-21T2200,1006A,116.3392,39.9295,北京市,官园,细颗粒物(PM2.5),209,232,189,159,122,0,,57,41,99,70,5,6,1.7,1
2023-11-21T2200,1007A,116.2878,39.9611,北京市,海淀万柳,细颗粒物(PM2.5),173,215,181,131,104,7,,44,28,100,79,2,2,1.3,1.2
2023-11-21T2200,1008A,116.6636,40.135,北京市,顺义新城,细颗粒物(PM2.5),209,231,172,159,111,7,,60,48,71,58,1,2,1.2,0.8
2023-11-21T2200,1009A,116.6275,40.3275,北京市,怀柔镇,细颗粒物(PM2.5),175,187,151,132,101,58,,56,54,29,52,2,3,0.8,0.8
2023-11-21T2200,1010A,116.2296,40.217,北京市,昌平镇,细颗粒物(PM2.5),156,182,165,119,101,35,,42,40,41,68,2,3,0.8,0.9
2023-11-21T2200,1011A,116.3966,39.9821,北京市,奥体中心,细颗粒物(PM2.5),207,232,172,157,115,2,,44,29,107,76,4,4,1.5,1
2023-11-21T2200,1012A,116.184,39.9136,北京市,古城,细颗粒物(PM2.5),192,244,203,144,114,3,,42,28,66,53,3,4,1.5,1.3
2023-11-21T2200,3281A,115.9718,40.4529,北京市,延庆夏都,细颗粒物(PM2.5),130,156,142,99,89,8,,25,16,65,61,2,4,0.9,0.8
2023-11-21T2200,3417A,117.0709,40.1465,北京市,平谷新城,细颗粒物(PM2.5),246,282,178,196,118,4,,46,24,61,49,1,3,1.7,1
2023-11-21T2200,3418A,116.8336,40.4095,北京市,密云新城,细颗粒物(PM2.5),198,247,168,148,101,7,,65,44,81,53,1,2,1.0,0.7
2023-11-21T2200,3672A,116.1541,39.8204,北京市,丰台云岗,细颗粒物(PM2.5),200,241,193,150,114,14,,51,41,84,66,5,5,1.2,1.1
2023-11-21T2200,3673A,116.6804,39.9081,北京市,通州东关,细颗粒物(PM2.5),243,291,212,193,131,3,,37,22,115,92,2,4,2.0,1.2
2023-11-21T2200,3674A,115.9577,39.7603,北京市,房山燕山,细颗粒物(PM2.5),203,214,169,153,113,23,,48,45,54,47,3,4,0.9,0.9
2023-11-21T2200,3675A,116.4672,39.7733,北京市,大兴旧宫,细颗粒物(PM2.5),205,228,184,155,122,2,,45,36,83,77,3,2,1.2,0.9
2023-11-21T2200,3694A,115.986,40.4563,北京市,延庆石河营,细颗粒物(PM2.5),127,152,141,96,89,6,,24,16,64,58,1,3,0.9,0.8
2023-11-21T2200,3695A,116.6151,40.3053,北京市,怀柔新城,细颗粒物(PM2.5),182,186,148,137,102,62,,58,58,25,44,3,2,0.8,0.8
2023-11-21T2200,3696A,116.2545,39.8768,北京市,丰台小屯,细颗粒物(PM2.5),200,239,178,150,110,1,,45,26,107,83,2,3,1.8,1.2
2023-11-21T2200,3697A,116.84,40.3844,北京市,密云镇,细颗粒物(PM2.5),192,232,161,144,99,1,,63,41,77,55,3,3,1.2,0.8
2023-11-21T2200,1761A,123.8275,41.3064,本溪市,大峪,颗粒物(PM10),58,65,51,36,30,80,,84,77,22,18,8,8,0.5,0.4
2023-11-21T2200,1762A,123.7567,41.3325,本溪市,溪湖,细颗粒物(PM2.5),63,64,47,45,28,81,,72,72,24,26,13,18,0.8,0.9
2023-11-21T2200,1763A,123.7169,41.3094,本溪市,彩屯,细颗粒物(PM2.5),88,94,82,65,55,47,,39,28,45,55,30,46,2.1,3.3
2023-11-21T2200,1764A,123.7669,41.2864,本溪市,东明,,48,39,33,33,26,95,,80,80,21,23,9,10,0.8,0.6
2023-11-21T2200,1765A,123.7992,41.2664,本溪市,新立屯,,44,44,32,28,18,96,,82,82,17,19,10,10,0.7,0.7
2023-11-21T2200,1766A,123.8142,41.3472,本溪市,威宁,颗粒物(PM10),54,58,46,36,25,79,,72,62,19,22,6,7,0.5,0.7
2023-11-21T2200,2587A,105.2864,27.3125,毕节市,八中,细颗粒物(PM2.5),158,142,79,120,63,65,,85,71,11,18,7,8,0.8,0.8
2023-11-21T2200,2588A,105.31,27.2944,毕节市,师专,细颗粒物(PM2.5),168,130,79,127,64,63,,90,77,12,21,6,6,0.7,0.8
2023-11-21T2200,3537A,105.3631,27.3533,毕节市,长征村,细颗粒物(PM2.5),241,245,106,191,76,68,,97,90,9,12,6,8,0.8,0.7
2023-11-21T2200,1629A,118.0018,37.3617,滨州市,第二水厂,细颗粒物(PM2.5),125,153,142,95,81,34,,110,80,81,60,19,18,1.1,1.3
2023-11-21T2200,1630A,117.9776,37.393,滨州市,北中新校,细颗粒物(PM2.5),112,144,137,84,73,24,,112,65,100,69,13,17,1.2,1.2
2023-11-21T2200,3514A,117.9378,37.3956,滨州市,中海酒店,细颗粒物(PM2.5),119,140,125,90,72,8,,121,69,126,62,14,17,1.4,1
2023-11-21T2200,3515A,117.9378,37.3553,滨州市,开发区一中,细颗粒物(PM2.5),128,150,139,97,82,19,,125,77,114,82,18,21,0.9,0.9
2023-11-21T2200,3516A,118.0917,37.694,滨州市,金海六路,细颗粒物(PM2.5),155,181,132,118,81,1,,121,76,124,64,13,19,1.3,1
2023-11-21T2200,4028A,117.9956,37.3753,滨州市,滨州市西街道办事处,细颗粒物(PM2.5),132,153,144,100,92,14,,103,55,91,64,16,21,1.8,1.4
2023-11-21T2200,2311A,115.8072,33.8399,亳州市,污水处理厂,颗粒物(PM10),68,86,109,48,67,74,,109,97,28,38,9,14,0.7,0.8
2023-11-21T2200,2312A,115.7789,33.8518,亳州市,三国揽胜宫,细颗粒物(PM2.5),73,80,113,53,60,69,,110,97,28,32,10,13,0.6,0.7
2023-11-21T2200,3332A,115.7633,33.8034,亳州市,亳州学院,细颗粒物(PM2.5),74,81,94,54,61,69,,115,101,29,29,6,8,0.9,0.9
2023-11-21T2200,2693A,82.0485,44.8556,博尔塔拉蒙古自治州,市党校,,33,33,31,14,17,13,,22,18,21,14,9,8,0.4,0.4
2023-11-21T2200,2694A,82.0806,44.8969,博尔塔拉蒙古自治州,市环保局,,26,26,30,16,15,25,,27,27,15,21,7,9,0.7,0.9
2023-11-21T2200,1071A,116.8842,38.2991,沧州市,沧县城建局,细颗粒物(PM2.5),252,241,178,202,134,36,,89,62,67,48,5,6,1.1,1
2023-11-21T2200,1072A,116.8584,38.3254,沧州市,电视转播站,细颗粒物(PM2.5),243,222,171,193,132,6,,95,56,100,46,13,13,1.1,1
2023-11-21T2200,1073A,116.8709,38.3228,沧州市,市环保局,细颗粒物(PM2.5),265,220,168,215,135,10,,92,60,,40,5,7,1.2,1
2023-11-21T2200,3324A,116.8136,38.3004,沧州市,河北水利电力学院,细颗粒物(PM2.5),248,266,186,198,127,10,,84,58,89,40,12,13,1.1,0.8
2023-11-21T2200,2622A,97.1806,31.1273,昌都市,昌都监测站,,45,45,32,17,15,53,,57,51,28,30,9,9,0.5,0.5
2023-11-21T2200,3719A,97.1714,31.1406,昌都市,昌都会议中心,,24,13,22,7,9,75,,72,72,8,14,6,6,0.1,0.2
2023-11-21T2200,2690A,88.1236,43.8886,昌吉州,天山天池,,22,,2,6,3,70,,71,67,4,5,6,6,0.4,0.4
2023-11-21T2200,2692A,87.2717,44.0297,昌吉州,新区政务中心,,38,34,24,26,20,28,,29,29,36,44,4,4,0.7,0.7
2023-11-21T2200,3613A,87.3095,44.0142,昌吉州,亚心广场,,46,46,24,27,14,27,,28,28,27,35,2,3,0.8,0.8
2023-11-21T2200,1119A,125.3325,43.9166,长春市,食品厂,细颗粒物(PM2.5),125,,55,95,50,6,,50,20,76,39,10,11,1.4,0.8
2023-11-21T2200,1120A,125.2863,43.9027,长春市,客车厂,细颗粒物(PM2.5),104,90,53,78,49,10,,50,18,77,41,10,12,1.2,0.9
2023-11-21T2200,1121A,125.2841,43.8463,长春市,邮电学院,细颗粒物(PM2.5),114,93,54,86,49,9,,56,22,76,37,10,12,0.9,0.6
2023-11-21T2200,1122A,125.3716,43.8772,长春市,劳动公园,细颗粒物(PM2.5),95,76,51,71,40,18,,58,27,64,36,10,11,0.8,0.6
2023-11-21T2200,1123A,125.3297,43.8805,长春市,园林处,细颗粒物(PM2.5),125,,51,95,46,10,,55,27,80,36,10,11,1.2,0.7
2023-11-21T2200,1124A,125.4605,43.79,长春市,净月潭,细颗粒物(PM2.5),79,74,46,58,38,24,,64,34,41,20,6,11,0.8,0.6
2023-11-21T2200,1126A,125.3863,43.8447,长春市,经开区环卫处,细颗粒物(PM2.5),110,88,53,83,43,6,,56,21,83,44,12,14,1.0,0.7
2023-11-21T2200,1127A,125.245,43.7783,长春市,高新区管委会,细颗粒物(PM2.5),110,95,54,83,49,5,,58,19,68,32,13,10,1.3,0.8
2023-11-21T2200,1128A,125.1761,43.8325,长春市,岱山公园,细颗粒物(PM2.5),103,85,53,77,46,6,,55,24,82,36,15,7,1.2,0.8
2023-11-21T2200,1335A,113.0833,28.2325,长沙市,经开区环保局,颗粒物(PM10),73,96,78,50,39,22,,97,70,89,45,14,16,0.8,0.6
2023-11-21T2200,1336A,112.8872,28.2189,长沙市,高开区环保局,颗粒物(PM10),70,90,78,41,40,71,,103,95,38,39,12,14,1.0,0.8
2023-11-21T2200,1337A,113.0792,28.2053,长沙市,马坡岭,,,,83,,41,18,,97,78,85,43,12,13,0.5,0.5
2023-11-21T2200,1338A,112.9394,28.19,长沙市,湖南师范大学,细颗粒物(PM2.5),65,70,70,47,39,65,,93,80,31,35,11,13,0.9,0.7
2023-11-21T2200,1339A,113.0178,28.1322,长沙市,雨花区环保局,颗粒物(PM10),66,81,66,38,34,69,,104,92,40,28,9,11,0.6,0.6
2023-11-21T2200,1340A,112.9792,28.2597,长沙市,伍家岭,颗粒物(PM10),97,144,97,63,44,0,,84,43,88,49,7,9,1.1,1
2023-11-21T2200,1341A,113.0014,28.1944,长沙市,火车新站,颗粒物(PM10),95,140,86,63,44,8,,74,46,109,54,8,9,1.4,0.9
2023-11-21T2200,1342A,112.9844,28.1178,长沙市,天心区环保局,颗粒物(PM10),71,91,77,47,37,68,,102,90,48,44,13,14,0.8,0.6
2023-11-21T2200,1343A,112.8908,28.1308,长沙市,湖南中医药大学,细颗粒物(PM2.5),89,113,90,66,44,4,,90,46,64,41,4,9,1.1,1
2023-11-21T2200,1344A,112.9581,28.3611,长沙市,沙坪,细颗粒物(PM2.5),59,53,50,42,35,94,,108,104,20,19,10,9,0.7,0.6
2023-11-21T2200,1727A,113.1147,36.1547,长治市,清华站,细颗粒物(PM2.5),83,109,103,61,75,20,,82,59,70,60,13,19,0.9,1
2023-11-21T2200,1728A,113.1031,36.1989,长治市,监测站,细颗粒物(PM2.5),138,144,97,105,82,1,,96,57,101,61,14,21,1.9,1.1
2023-11-21T2200,1730A,113.0886,36.2125,长治市,审计局,细颗粒物(PM2.5),100,95,88,75,78,59,,106,80,62,59,18,25,1.2,1.1
2023-11-21T2200,1731A,113.0844,36.1856,长治市,长治八中,细颗粒物(PM2.5),123,146,122,93,66,12,,105,66,94,54,21,28,1.3,1
2023-11-21T2200,2845A,113.1569,36.1911,长治市,德盛苑,细颗粒物(PM2.5),83,74,81,61,68,73,,100,97,43,36,18,19,1.0,1
2023-11-21T2200,3568A,113.06,36.0464,长治市,向阳小学,细颗粒物(PM2.5),68,76,115,49,77,74,,108,86,51,55,22,37,0.7,0.9
2023-11-21T2200,3569A,112.8792,36.3144,长治市,屯留一中,细颗粒物(PM2.5),99,82,80,74,58,61,,106,92,56,47,19,18,1.0,0.9
2023-11-21T2200,3570A,113.235,36.3489,长治市,潞城四中,细颗粒物(PM2.5),118,133,134,89,98,17,,131,68,87,71,23,36,1.1,1.5
2023-11-21T2200,1854A,111.6975,28.9703,常德市,市二中,颗粒物(PM10),62,73,82,38,49,88,,101,92,30,37,20,12,1.0,0.9
2023-11-21T2200,1857A,111.7158,29.1456,常德市,白鹤山,颗粒物(PM10),65,79,81,35,41,95,,104,102,13,14,10,9,0.5,0.4
2023-11-21T2200,3138A,111.7153,29.0289,常德市,武陵区永安,颗粒物(PM10),65,80,77,45,49,87,,99,97,23,29,14,11,1.0,0.9
2023-11-21T2200,3139A,111.6892,28.9881,常德市,鼎城区玉霞,,,,84,51,56,82,,102,99,18,27,10,8,1.4,0.9
2023-11-21T2200,3140A,111.6625,29.0531,常德市,武陵区长庚,颗粒物(PM10),62,74,83,38,53,89,,108,105,26,31,14,10,0.7,0.7
2023-11-21T2200,1196A,119.9633,31.762,常州市,市监测站,细颗粒物(PM2.5),139,152,150,106,90,46,,138,97,111,85,10,11,1.2,1.2
2023-11-21T2200,1200A,119.9468,31.7069,常州市,武进监测站,细颗粒物(PM2.5),100,113,129,75,78,87,,152,131,64,60,6,9,0.7,0.8
2023-11-21T2200,1201A,119.9255,31.9087,常州市,安家,细颗粒物(PM2.5),156,177,143,119,89,14,,138,95,146,88,9,9,1.2,1.1
2023-11-21T2200,3002A,119.9805,31.8174,常州市,行政中心,细颗粒物(PM2.5),122,126,128,92,82,46,,153,128,108,78,17,18,1.4,1.3
2023-11-21T2200,3003A,120.0522,31.7748,常州市,经开区,细颗粒物(PM2.5),158,176,152,120,91,7,,154,100,170,96,13,18,1.4,1.5
2023-11-21T2200,3010A,119.9025,31.7964,常州市,钟楼,细颗粒物(PM2.5),119,120,128,90,85,81,,140,108,71,73,9,11,0.7,0.8
2023-11-21T2200,3429A,119.8598,31.7066,常州市,武进经发区,细颗粒物(PM2.5),109,133,136,82,79,73,,148,117,79,68,9,12,0.8,0.8
2023-11-21T2200,3430A,119.5826,31.7245,常州市,金坛城区,细颗粒物(PM2.5),113,128,121,85,78,77,,150,124,63,48,19,13,1.6,1
2023-11-21T2200,2220A,120.4318,41.5881,朝阳市,西梁,颗粒物(PM10),79,108,119,52,79,9,,81,54,60,37,22,19,1.1,1.2
2023-11-21T2200,2221A,120.4521,41.5646,朝阳市,河畔小区,颗粒物(PM10),62,74,123,25,76,36,,83,67,36,29,12,14,0.8,1.1
2023-11-21T2200,2222A,120.4176,41.5648,朝阳市,八里堡,颗粒物(PM10),86,122,121,62,70,6,,76,49,61,39,22,19,1.6,1.3
2023-11-21T2200,2223A,120.3806,41.5969,朝阳市,农业园区,颗粒物(PM10),65,80,117,41,87,16,,80,44,57,42,17,18,0.9,1.1
2023-11-21T2200,1705A,116.6367,23.6719,潮州市,西园路,细颗粒物(PM2.5),65,60,44,47,32,65,,122,106,23,16,5,6,0.6,0.4
2023-11-21T2200,1706A,116.6447,23.6706,潮州市,档案局,细颗粒物(PM2.5),58,51,48,41,32,57,,122,103,26,17,4,5,0.8,0.6
2023-11-21T2200,3026A,116.6183,23.6608,潮州市,市政府,细颗粒物(PM2.5),58,61,49,41,28,67,,118,101,30,21,5,6,0.8,0.6
2023-11-21T2200,2472A,113.0073,25.9061,郴州市,马头岭,颗粒物(PM10),51,52,48,16,18,38,,88,75,39,27,17,8,1.0,1
2023-11-21T2200,2473A,113.0116,25.8226,郴州市,市职中,细颗粒物(PM2.5),64,74,59,46,36,3,,92,59,50,28,6,9,0.7,0.6
2023-11-21T2200,2474A,113.0161,25.8001,郴州市,兴隆步行街,颗粒物(PM10),77,103,73,51,39,7,,82,47,70,40,9,10,1.2,0.9
2023-11-21T2200,2475A,113.0383,25.8071,郴州市,市审计局,,43,43,55,26,35,63,,97,77,22,28,28,13,0.4,0.6
2023-11-21T2200,2476A,113.0348,25.7759,郴州市,市环保局,,44,44,61,24,35,51,,75,64,35,37,17,12,0.5,0.5
2023-11-21T2200,1431A,103.9728,30.7236,成都市,金泉两河,细颗粒物(PM2.5),103,124,100,77,69,0,,,,32,27,2,2,0.9,0.9
2023-11-21T2200,1432A,104.176,30.6872,成都市,十里店,细颗粒物(PM2.5),159,166,152,121,110,19,,27,24,55,59,2,2,0.9,0.9
2023-11-21T2200,1433A,104.079,30.5706,成都市,三瓦窑,细颗粒物(PM2.5),152,182,165,116,111,2,,15,15,57,51,3,4,1.0,1
2023-11-21T2200,1434A,104.1114,30.63,成都市,沙河铺,细颗粒物(PM2.5),152,153,144,116,107,7,,11,11,46,52,3,3,1.1,1
2023-11-21T2200,1437A,104.0786,30.6531,成都市,君平街,细颗粒物(PM2.5),144,170,149,110,102,14,,28,28,59,55,4,4,0.8,1.2
2023-11-21T2200,1438A,103.613,31.0283,成都市,灵岩寺,细颗粒物(PM2.5),78,60,63,57,58,50,,52,52,20,18,8,10,0.7,0.7
2023-11-21T2200,2880A,104.0239,30.65639,成都市,大石西路,细颗粒物(PM2.5),156,162,138,119,107,8,,34,30,69,57,4,5,1.0,1
2023-11-21T2200,3136A,104.2725,30.5589,成都市,龙泉驿区区政府,细颗粒物(PM2.5),147,139,125,112,95,11,,34,29,57,46,2,3,0.9,0.8
2023-11-21T2200,3357A,104.0106,30.6931,成都市,金博路,细颗粒物(PM2.5),142,166,135,108,101,5,,34,29,60,46,1,1,0.9,0.9
2023-11-21T2200,3359A,104.0578,30.5225,成都市,华阳,细颗粒物(PM2.5),140,168,154,107,107,0,,6,4,50,39,1,2,1.1,1
2023-11-21T2200,3487A,104.2394,30.5319,成都市,车城东七路,细颗粒物(PM2.5),168,186,154,127,107,3,,32,28,64,49,3,5,1.1,0.9
2023-11-21T2200,3488A,104.3853,30.7453,成都市,青白江技师分院,细颗粒物(PM2.5),134,126,107,102,84,3,,37,29,61,52,3,4,1.0,1
2023-11-21T2200,3489A,104.0789,30.4072,成都市,科学城,细颗粒物(PM2.5),129,135,150,98,112,5,,20,19,56,51,2,3,0.7,0.8
2023-11-21T2200,4011A,103.8506,30.6947,成都市,光华大道三段,细颗粒物(PM2.5),139,134,116,106,93,9,,35,28,50,37,3,3,1.0,0.9
2023-11-21T2200,1062A,117.9531,40.9081,承德市,铁路,细颗粒物(PM2.5),149,164,120,114,76,4,,24,18,71,59,10,10,1.6,1.2
2023-11-21T2200,1063A,117.9392,40.9763,承德市,中国银行,细颗粒物(PM2.5),155,190,129,118,76,2,,45,18,68,51,8,9,1.6,1.2
2023-11-21T2200,1064A,117.9503,40.928,承德市,开发区,细颗粒物(PM2.5),125,137,103,95,62,2,,30,18,80,60,7,7,1.4,1.2
2023-11-21T2200,1065A,117.8051,40.9655,承德市,文化中心,细颗粒物(PM2.5),143,211,162,109,89,0,,30,17,66,55,7,9,1.3,1.2
2023-11-21T2200,1066A,117.9268,41.0026,承德市,离宫,细颗粒物(PM2.5),134,140,108,102,68,4,,41,27,64,43,3,4,0.9,0.8
2023-11-21T2200,2314A,117.47,30.6618,池州市,池州学院,颗粒物(PM10),53,55,54,31,28,52,,92,72,33,33,6,7,0.9,1.1
2023-11-21T2200,3237A,117.4918,30.6617,池州市,展览馆,颗粒物(PM10),65,79,44,28,24,7,,100,,46,26,4,6,0.8,1.2
2023-11-21T2200,3333A,117.5627,30.695,池州市,第八中学,,50,50,48,29,24,35,,99,72,38,31,4,5,0.6,0.8
2023-11-21T2200,3334A,117.5038,30.6243,池州市,第十二中学,颗粒物(PM10),56,62,53,35,26,5,,92,55,56,34,4,6,1.0,1.1
2023-11-21T2200,1744A,118.9233,42.2816,赤峰市,松山一中,颗粒物(PM10),67,84,101,25,42,8,,55,25,66,45,14,14,1.4,0.9
2023-11-21T2200,1745A,118.9576,42.2728,赤峰市,哈达街,颗粒物(PM10),58,66,95,30,53,8,,53,26,80,48,44,23,1.1,0.9
2023-11-21T2200,1746A,118.8788,42.2554,赤峰市,天义路,颗粒物(PM10),58,65,89,32,42,9,,58,27,54,40,8,10,1.3,0.9
2023-11-21T2200,3058A,119.2658,42.0353,赤峰市,银河街,,48,48,87,12,41,34,,52,46,35,37,21,26,0.7,1
2023-11-21T2200,3286A,118.9359,42.3147,赤峰市,桥北物流园区,颗粒物(PM10),54,57,88,28,48,12,,52,31,68,48,17,14,1.0,0.7
2023-11-21T2200,2521A,107.3476,22.4136,崇左市,市环保局江州分局,颗粒物(PM10),80,110,65,52,35,37,,137,106,41,22,6,8,0.8,0.6
2023-11-21T2200,2522A,107.3702,22.3707,崇左市,城南新区,,,57,58,42,33,62,,102,102,23,22,6,8,,0.6
2023-11-21T2200,2298A,118.3093,32.3153,滁州市,老年大学,细颗粒物(PM2.5),89,100,80,66,50,8,,97,60,94,56,11,12,1.6,0.9
2023-11-21T2200,2299A,118.3244,32.2786,滁州市,人大宾馆,细颗粒物(PM2.5),90,103,91,67,56,8,,94,53,87,65,8,10,1.4,0.9
2023-11-21T2200,3207A,118.3118,32.3038,滁州市,市政府原办公楼,细颗粒物(PM2.5),74,92,84,54,52,10,,96,60,100,65,9,10,1.8,1.2
2023-11-21T2200,3331A,118.3267,32.2634,滁州市,图书馆,颗粒物(PM10),67,84,84,43,50,24,,107,75,93,56,13,12,1.2,0.9
2023-11-21T2200,2605A,101.5482,25.0441,楚雄州,州环境监测站,,35,,25,24,18,20,,55,49,28,14,6,14,0.7,0.6
2023-11-21T2200,2606A,101.538,25.0492,楚雄州,市经济开发区,,32,29,25,22,19,27,,53,48,25,15,5,16,0.7,0.6
2023-11-21T2200,2548A,107.5277,31.2827,达州市,达州职业技术学院,细颗粒物(PM2.5),93,108,72,69,50,7,,20,14,22,24,5,5,0.7,0.6
2023-11-21T2200,2549A,107.5086,31.2186,达州市,市环境监测站,细颗粒物(PM2.5),79,100,76,58,45,2,,8,6,40,39,9,8,0.9,0.7
2023-11-21T2200,2550A,107.4988,31.2132,达州市,凤凰小区,细颗粒物(PM2.5),85,100,76,63,48,5,,11,9,39,40,11,9,0.9,0.7
2023-11-21T2200,2551A,107.5082,31.1986,达州市,达县机关宾馆,细颗粒物(PM2.5),92,90,80,68,49,4,,11,7,40,38,11,9,1.0,0.9
2023-11-21T2200,2552A,107.4644,31.2124,达州市,市政中心,颗粒物(PM10),86,121,92,63,52,3,,5,4,56,50,11,13,1.4,1.4
2023-11-21T2200,2614A,100.1542,25.7054,大理州,大理市环境监测站,,29,29,23,15,15,60,,61,60,9,10,4,4,0.4,0.4
2023-11-21T2200,2615A,100.2171,25.5811,大理州,大理古城,,36,36,21,19,14,34,,66,55,25,14,6,6,0.4,0.4
2023-11-21T2200,1109A,121.612,38.9741,大连市,甘井子,颗粒物(PM10),90,130,60,59,27,110,,85,76,31,33,8,8,0.8,0.6
2023-11-21T2200,1110A,121.565,38.9511,大连市,周水子,颗粒物(PM10),104,157,67,66,29,91,,86,55,34,34,12,13,1.0,0.7
2023-11-21T2200,1111A,121.5637,38.8845,大连市,星海三站,颗粒物(PM10),114,178,72,53,23,113,,92,85,24,23,5,6,0.8,0.5
2023-11-21T2200,1112A,121.6302,38.9117,大连市,青泥洼桥,颗粒物(PM10),84,117,53,57,25,109,,86,62,26,27,10,12,1.0,0.7
2023-11-21T2200,1113A,121.6251,38.8638,大连市,傅家庄,颗粒物(PM10),100,150,62,54,21,123,,94,88,30,23,8,8,0.7,0.5
2023-11-21T2200,1114A,121.5213,38.8661,大连市,七贤岭,颗粒物(PM10),89,128,60,49,24,42,,102,57,51,32,9,10,0.9,0.6
2023-11-21T2200,1115A,121.2529,38.8061,大连市,旅顺,颗粒物(PM10),74,97,51,42,26,124,,106,97,27,23,8,7,0.9,0.5
2023-11-21T2200,1116A,121.7485,39.1311,大连市,金州,细颗粒物(PM2.5),78,91,51,57,28,139,,98,98,19,24,11,12,0.9,0.6
2023-11-21T2200,1117A,121.7811,39.0496,大连市,开发区,颗粒物(PM10),71,91,51,47,22,104,,89,72,36,34,10,9,0.9,0.5
2023-11-21T2200,1118A,121.9762,39.0631,大连市,双D港,细颗粒物(PM2.5),52,48,28,36,14,74,,88,78,19,21,6,7,0.8,0.6
2023-11-21T2200,1789A,124.81117,46.03138,大庆市,大同区,细颗粒物(PM2.5),143,129,69,109,48,23,,49,31,48,26,14,9,1.7,0.8
2023-11-21T2200,1790A,125.129,46.533,大庆市,龙凤区,细颗粒物(PM2.5),52,48,50,36,33,5,,22,18,56,36,8,8,0.9,0.8
2023-11-21T2200,1791A,124.902,46.408,大庆市,红岗区,,33,33,42,21,30,22,,38,19,35,30,6,7,0.3,0.5
2023-11-21T2200,1792A,125.153,46.586,大庆市,萨尔图区,,26,22,51,14,34,18,,32,25,52,40,5,7,0.7,0.6
2023-11-21T2200,1793A,124.9042,46.6215,大庆市,让胡路区,,33,33,50,16,31,30,,40,36,36,28,4,5,0.6,0.7
2023-11-21T2200,3481A,125.141,46.634,大庆市,萨区政府监测点,,22,22,49,14,36,19,,42,36,44,32,7,8,0.5,0.6
2023-11-21T2200,1723A,113.2994,40.0758,大同市,云冈宾馆,颗粒物(PM10),63,76,129,29,56,42,,54,47,44,61,18,27,0.7,1.2
2023-11-21T2200,1724A,113.3444,40.0917,大同市,大同大学,颗粒物(PM10),69,88,105,30,44,46,,59,50,44,56,16,23,0.6,0.9
2023-11-21T2200,1725A,113.2661,40.1269,大同市,安家小村,颗粒物(PM10),61,72,137,25,58,52,,61,57,31,58,17,34,0.4,2.2
2023-11-21T2200,1726A,113.2711,40.0844,大同市,教育学院,颗粒物(PM10),76,102,151,28,60,48,,47,37,40,73,13,27,0.6,1.7
2023-11-21T2200,3282A,113.3397,40.0597,大同市,大同市卫生学校,颗粒物(PM10),60,69,91,33,49,42,,52,43,42,64,14,24,0.6,1
2023-11-21T2200,3565A,113.1367,40.1122,大同市,云冈站,颗粒物(PM10),63,75,87,26,40,47,,63,47,34,52,17,36,0.6,0.7
2023-11-21T2200,3566A,113.1186,40.2556,大同市,图书馆,颗粒物(PM10),54,57,81,24,43,63,,72,61,19,27,13,16,0.4,0.7
2023-11-21T2200,3567A,113.5931,40.0461,大同市,区一中,颗粒物(PM10),82,114,144,34,69,30,,74,47,58,64,27,37,0.7,1.2
2023-11-21T2200,3676A,113.2802,40.0995,大同市,第二人民医院,颗粒物(PM10),71,92,144,24,57,56,,59,50,28,64,16,30,0.5,1.6
2023-11-21T2200,2269A,124.1069,50.4097,大兴安岭地区,科技局,,23,,15,16,14,70,,66,63,3,4,3,3,0.4,0.4
2023-11-21T2200,3663A,124.1164,50.4278,大兴安岭地区,红旗社区,,24,5,6,3,5,75,,68,68,3,4,3,5,0.4,0.3
2023-11-21T2200,1600A,124.3303,40.0625,丹东市,江湾东路,,32,32,30,20,21,70,,62,62,10,15,10,12,0.6,0.8
2023-11-21T2200,1601A,124.4256,40.1503,丹东市,临江后街,颗粒物(PM10),58,65,59,34,33,25,,41,37,45,44,7,14,1.1,1.1
2023-11-21T2200,1602A,124.3933,40.1461,丹东市,元宝山,,34,34,32,20,23,52,,46,46,18,25,10,12,0.4,0.8
2023-11-21T2200,1603A,124.3633,40.1092,丹东市,民主桥,,39,39,43,19,25,60,,50,50,10,27,12,13,0.6,1
2023-11-21T2200,3541A,109.5726,19.5167,儋州市,第一中学子站,,48,48,48,22,23,94,,107,94,6,8,3,3,0.6,0.5
2023-11-21T2200,3542A,109.5567,19.5187,儋州市,东坡学校子站,,46,46,49,20,21,94,,104,95,7,10,2,3,0.5,0.5
2023-11-21T2200,2616A,98.5842,24.428,德宏州,德宏州监测站,,39,39,31,21,17,19,,57,45,22,17,12,15,0.6,0.5
2023-11-21T2200,3677A,98.5881,24.4368,德宏州,芒市人民政府综合楼,,34,34,27,17,17,25,,59,50,19,16,16,16,0.5,0.4
2023-11-21T2200,1901A,104.4239,31.1208,德阳市,东山公园,细颗粒物(PM2.5),134,158,141,102,89,8,,64,46,64,46,9,4,0.9,0.8
2023-11-21T2200,1902A,104.3826,31.1317,德阳市,西小区,,,,132,,106,2,,55,29,62,48,11,6,0.9,0.9
2023-11-21T2200,1904A,104.3553,31.1091,德阳市,耐火材料厂,细颗粒物(PM2.5),152,174,158,116,103,3,,60,39,53,39,7,4,0.8,0.8
2023-11-21T2200,3639A,104.4019,31.1244,德阳市,市教育局,细颗粒物(PM2.5),155,142,121,118,94,4,,54,34,64,51,11,5,1.1,0.8
2023-11-21T2200,1622A,116.3032,37.4674,德州市,儿童乐园,细颗粒物(PM2.5),201,212,161,151,104,23,,110,70,107,52,18,15,1.3,1.1
2023-11-21T2200,1624A,116.2991,37.4451,德州市,监理站,细颗粒物(PM2.5),213,221,167,163,106,67,,112,86,69,50,27,16,1.0,1
2023-11-21T2200,3066A,116.2721,37.4379,德州市,九衢泉纯净水厂,细颗粒物(PM2.5),188,216,174,141,102,76,,108,85,47,44,12,12,1.0,1
2023-11-21T2200,3371A,116.3728,37.4403,德州市,开发区人民医院,细颗粒物(PM2.5),163,219,169,124,90,10,,114,69,117,50,14,13,1.3,1.1
2023-11-21T2200,3372A,116.3572,37.4094,德州市,太阳城中学,细颗粒物(PM2.5),179,207,154,135,97,28,,112,75,95,47,9,9,1.2,1
2023-11-21T2200,3511A,116.5652,37.3319,德州市,陵城艺术中心,细颗粒物(PM2.5),195,217,163,146,100,58,,120,94,51,31,9,11,1.0,0.9
2023-11-21T2200,2621A,99.7056,27.8317,迪庆州,迪庆州站,,35,35,26,23,19,35,,66,61,31,14,12,10,1.1,0.7
2023-11-21T2200,3180A,99.7136,27.8094,迪庆州,质量技术监督局,,20,13,27,6,16,64,,37,,10,14,7,8,0.4,0.8
2023-11-21T2200,2663A,104.6241,35.5734,定西市,东关小学,细颗粒物(PM2.5),103,129,84,77,47,10,,71,55,50,29,37,20,1.3,0.8
2023-11-21T2200,2664A,104.6194,35.5934,定西市,供电公司,细颗粒物(PM2.5),110,125,84,83,54,8,,64,55,66,34,32,12,1.7,1.1
2023-11-21T2200,1389A,113.7547,23.0494,东莞市,莞城梨川,颗粒物(PM10),67,84,84,43,40,66,,158,116,72,54,8,10,0.9,0.9
2023-11-21T2200,1390A,113.7944,23.0128,东莞市,东城石井,颗粒物(PM10),63,75,79,36,40,69,,150,115,41,27,7,9,0.7,0.7
2023-11-21T2200,1391A,113.7383,22.9658,东莞市,南城西平,颗粒物(PM10),58,66,93,31,45,71,,157,141,62,66,7,8,0.6,0.7
2023-11-21T2200,3319A,113.7338,23.0381,东莞市,万江金泰,颗粒物(PM10),60,69,79,35,40,97,,149,119,41,51,8,9,0.8,0.8
2023-11-21T2200,3626A,113.7533,23.0202,东莞市,南城元岭,颗粒物(PM10),81,112,96,51,44,27,,153,99,119,63,4,5,1.0,1
2023-11-21T2200,3627A,113.7875,23.0457,东莞市,东城主山,颗粒物(PM10),69,87,82,40,37,97,,158,124,46,51,8,11,0.7,0.8
2023-11-21T2200,1666A,118.6614,37.4309,东营市,市环保局,细颗粒物(PM2.5),92,117,98,68,55,67,,110,97,51,38,11,14,0.8,1
2023-11-21T2200,3036A,118.6904,37.4338,东营市,开发区管委会,细颗粒物(PM2.5),98,118,96,73,60,66,,121,107,49,34,12,13,0.8,0.9
2023-11-21T2200,3365A,118.5719,37.565,东营市,垦利区民丰路,细颗粒物(PM2.5),94,112,100,70,56,67,,106,86,51,46,16,18,0.8,0.9
2023-11-21T2200,3498A,118.5055,37.8612,东营市,河口城区,细颗粒物(PM2.5),125,151,114,95,59,67,,123,103,45,38,12,13,1.1,1.1
2023-11-21T2200,3646A,118.4978,37.4623,东营市,胜利站,细颗粒物(PM2.5),110,131,107,83,56,49,,106,88,72,52,13,12,1.1,1
2023-11-21T2200,3734A,118.35,37.26,东营市,理想之城,细颗粒物(PM2.5),89,122,101,66,50,61,,115,92,50,40,8,8,0.7,0.8
2023-11-21T2200,1591A,110.0023,39.8129,鄂尔多斯市,综合楼,颗粒物(PM10),81,112,70,24,18,71,,74,73,14,26,4,12,0.4,0.5
2023-11-21T2200,1592A,109.9486,39.8261,鄂尔多斯市,巴音孟克林场办事处,颗粒物(PM10),75,100,69,27,24,67,,71,70,11,23,6,16,0.4,0.5
2023-11-21T2200,1593A,109.7736,39.5986,鄂尔多斯市,康泽苑,颗粒物(PM10),80,110,63,26,22,71,,76,74,15,25,5,7,0.4,0.5
2023-11-21T2200,1594A,109.8119,39.5989,鄂尔多斯市,华泰汽车城,颗粒物(PM10),82,114,71,31,25,74,,79,78,10,31,5,7,0.4,0.6
2023-11-21T2200,1595A,109.9734,39.7884,鄂尔多斯市,奥林花园,颗粒物(PM10),85,119,76,19,21,46,,64,54,39,34,15,12,0.3,0.5
2023-11-21T2200,2436A,114.8938,30.3994,鄂州市,市政府,颗粒物(PM10),64,78,78,38,42,92,,95,95,30,35,12,16,0.7,0.8
2023-11-21T2200,2437A,114.8989,30.3714,鄂州市,赵家坝,颗粒物(PM10),64,78,76,41,44,82,,85,84,36,40,11,14,0.6,0.8
2023-11-21T2200,3654A,114.8094,30.4089,鄂州市,精准医疗中心,颗粒物(PM10),84,118,108,58,49,74,,85,77,46,50,46,40,2.3,1.8
2023-11-21T2200,2499A,108.3411,21.6158,防城港市,沙万,颗粒物(PM10),54,58,74,37,44,84,,140,121,38,39,10,19,0.6,0.7
2023-11-21T2200,2500A,108.3514,21.7731,防城港市,防城档案局,颗粒物(PM10),58,66,123,33,48,87,,156,123,20,37,3,7,0.5,0.6
2023-11-21T2200,2501A,108.3506,21.6414,防城港市,大海花园,细颗粒物(PM2.5),54,54,69,38,51,54,,149,126,67,30,18,16,0.7,0.7
2023-11-21T2200,1371A,113.1294,23.0067,佛山市,湾梁,颗粒物(PM10),62,73,95,35,49,63,,145,132,63,81,9,11,0.7,0.8
2023-11-21T2200,1372A,113.1083,23.0478,佛山市,华材职中,"颗粒物(PM10),细颗粒物(PM2.5)",63,75,112,45,61,75,,155,137,46,84,4,8,0.7,0.8
2023-11-21T2200,1373A,113.144,23.0453,佛山市,南海气象局,颗粒物(PM10),67,83,110,44,58,65,,145,127,77,88,9,13,0.7,0.8
2023-11-21T2200,1374A,113.2881,22.8094,佛山市,顺德苏岗,颗粒物(PM10),71,92,80,48,48,45,,152,125,79,59,9,10,1.0,0.9
2023-11-21T2200,1376A,112.8383,22.8678,佛山市,高明孔堂,颗粒物(PM10),54,58,85,28,48,129,,163,161,25,47,6,10,0.6,0.7
2023-11-21T2200,1377A,112.8836,23.1588,佛山市,三水监测站,颗粒物(PM10),93,136,124,66,68,1,,190,114,156,85,6,8,0.9,0.8
2023-11-21T2200,1378A,112.867,23.185,佛山市,三水云东海,细颗粒物(PM2.5),72,83,94,52,55,82,,162,136,56,59,6,9,0.8,0.8
2023-11-21T2200,3625A,113.2544,22.7642,佛山市,容桂街道办,颗粒物(PM10),81,112,107,46,51,51,,163,138,82,83,5,6,0.9,1
2023-11-21T2200,1282A,119.2681,26.0504,福州市,师大,,50,50,41,26,18,39,,105,90,52,22,5,8,0.7,0.6
2023-11-21T2200,1283A,119.2984,26.1028,福州市,五四北路,,35,35,41,20,19,57,,106,80,33,24,4,4,0.5,0.5
2023-11-21T2200,1284A,119.2648,26.0768,福州市,杨桥西路,颗粒物(PM10),52,54,42,24,18,19,,104,76,63,24,3,5,0.6,0.6
2023-11-21T2200,1285A,119.317,26.0746,福州市,紫阳,颗粒物(PM10),57,63,38,30,19,32,,100,76,53,23,6,7,0.7,0.6
2023-11-21T2200,3048A,119.5799,26.0936,福州市,九龙,,23,23,23,14,9,46,,118,103,27,11,4,5,0.4,0.5
2023-11-21T2200,3526A,119.5189,25.9664,福州市,吴航,,28,28,41,16,19,58,,104,95,25,27,3,5,0.6,0.6
2023-11-21T2200,1755A,123.7977,41.8491,抚顺市,望花区,细颗粒物(PM2.5),70,,59,51,51,64,,66,58,22,22,16,17,0.8,0.6
2023-11-21T2200,1756A,123.9161,41.8822,抚顺市,顺城区,细颗粒物(PM2.5),85,83,63,63,45,37,,44,40,42,36,10,10,1.0,0.9
2023-11-21T2200,1757A,124.0436,41.8611,抚顺市,东洲区,细颗粒物(PM2.5),62,62,52,44,37,74,,79,74,10,17,10,11,0.5,0.7
2023-11-21T2200,1758A,123.9247,41.8642,抚顺市,新抚区,细颗粒物(PM2.5),103,83,62,77,46,26,,53,36,46,34,11,11,1.0,0.5
2023-11-21T2200,1759A,124.0972,41.8961,抚顺市,大伙房水库,细颗粒物(PM2.5),53,49,52,37,36,81,,84,81,8,10,7,10,0.6,0.6
2023-11-21T2200,1760A,123.7086,41.8391,抚顺市,沈抚新城,细颗粒物(PM2.5),64,67,70,46,44,47,,66,45,26,30,9,14,0.7,0.9
2023-11-21T2200,2376A,116.2127,28.0814,抚州市,桐源党溪,,40,40,42,16,21,22,,77,55,17,14,1,4,0.7,0.8
2023-11-21T2200,2377A,116.3544,27.9831,抚州市,市站,颗粒物(PM10),68,86,57,48,27,12,,75,52,67,38,10,9,1.3,1
2023-11-21T2200,2378A,116.3565,27.963,抚州市,血防站,颗粒物(PM10),51,52,57,28,25,21,,78,72,55,30,2,4,1.1,0.8
2023-11-21T2200,2379A,116.3564,28.0007,抚州市,采茶剧团,细颗粒物(PM2.5),69,81,57,50,30,52,,84,72,35,34,3,4,0.9,1
2023-11-21T2200,2380A,116.385,27.9647,抚州市,医学分院,,,,56,,25,,,78,70,47,34,6,10,1.0,0.8
2023-11-21T2200,2207A,121.6094,41.998,阜新市,工业园区,颗粒物(PM10),91,132,105,35,37,3,,66,31,56,40,14,24,1.2,1.4
2023-11-21T2200,2208A,121.6697,42.0279,阜新市,长青街,细颗粒物(PM2.5),72,78,118,52,87,2,,66,38,65,41,11,23,1.3,1.3
2023-11-21T2200,2209A,121.6673,42.0705,阜新市,农业园区,,25,22,107,17,67,50,,64,53,19,31,10,19,2.4,1.1
2023-11-21T2200,2210A,121.6717,42.0224,阜新市,东苑,颗粒物(PM10),63,76,90,25,48,3,,61,36,66,46,20,27,1.1,1.3
2023-11-21T2200,2211A,121.6506,42.0498,阜新市,玉龙新城,颗粒物(PM10),54,58,97,20,40,3,,66,29,58,43,12,21,0.7,0.8
2023-11-21T2200,2301A,115.8277,32.8929,阜阳市,市监测站,细颗粒物(PM2.5),85,100,94,63,57,25,,96,56,76,51,11,9,0.6,0.7
2023-11-21T2200,2303A,115.8554,32.8605,阜阳市,开发区,颗粒物(PM10),79,108,96,37,43,25,,103,82,86,44,13,10,0.8,0.5
2023-11-21T2200,2875A,115.784,32.8892,阜阳市,阜阳职业技术学院,颗粒物(PM10),55,59,77,38,46,34,,96,76,70,37,8,8,0.5,0.6
2023-11-21T2200,3468A,115.7901,32.8613,阜阳市,市规划展馆,颗粒物(PM10),63,75,89,39,46,68,,104,89,43,37,7,6,0.5,0.6
2023-11-21T2200,3469A,115.836,32.9183,阜阳市,枣园社区,细颗粒物(PM2.5),72,82,84,52,49,45,,104,74,59,45,11,8,0.5,0.6
2023-11-21T2200,2669A,102.9099,34.9841,甘南州,州政府,细颗粒物(PM2.5),88,108,72,65,37,3,,69,48,60,38,24,22,1.1,0.8
2023-11-21T2200,3380A,102.8914,34.9617,甘南州,甘肃民族师范学院,颗粒物(PM10),72,94,60,18,21,4,,81,56,66,43,13,12,0.5,0.5
2023-11-21T2200,2570A,101.9603,30.0475,甘孜藏族自治州,水桥子,,39,39,27,21,10,6,,51,38,50,31,8,9,0.5,0.4
2023-11-21T2200,3065A,101.9533,29.9972,甘孜藏族自治州,州环保局,,31,31,20,1,5,15,,64,42,43,18,7,8,0.3,0.2
2023-11-21T2200,3414A,115.8347,28.932,赣江新区,桑海产业园,颗粒物(PM10),67,83,73,39,28,6,,74,52,96,58,8,8,0.8,0.7
2023-11-21T2200,2363A,114.9367,25.8664,赣州市,地委,颗粒物(PM10),89,128,70,34,29,5,,121,68,73,39,17,11,1.0,0.9
2023-11-21T2200,2364A,114.9461,25.8481,赣州市,气象台,颗粒物(PM10),67,84,60,42,31,5,,116,62,82,51,22,11,1.1,1
2023-11-21T2200,2365A,114.9322,25.8333,赣州市,市图书馆,颗粒物(PM10),75,100,76,49,32,4,,111,63,88,52,11,12,1.2,1.1
2023-11-21T2200,3109A,115.0093,25.8613,赣州市,赣县区卫计委,颗粒物(PM10),65,79,53,38,28,16,,109,68,55,38,9,8,0.8,0.8
2023-11-21T2200,2683A,106.2319,36.1417,固原市,马园,颗粒物(PM10),238,376,116,77,37,18,,78,52,56,31,9,6,0.6,0.5
2023-11-21T2200,2684A,106.2792,36.0022,固原市,监测站,颗粒物(PM10),195,339,104,66,50,52,,79,64,34,35,5,6,0.6,1
2023-11-21T2200,2685A,106.2375,36.0211,固原市,新区,颗粒物(PM10),180,310,106,54,38,51,,71,56,25,34,5,5,0.4,0.7
2023-11-21T2200,3522A,106.2177,35.9959,固原市,原州区十五小,颗粒物(PM10),150,250,87,52,36,62,,80,65,25,31,4,4,0.5,0.7
2023-11-21T2200,2544A,106.6303,30.4576,广安市,市委,细颗粒物(PM2.5),123,115,94,93,72,26,,34,34,41,33,12,13,0.9,1
2023-11-21T2200,2545A,106.6271,30.4663,广安市,友谊中学,细颗粒物(PM2.5),109,112,91,82,67,32,,33,33,,30,10,11,0.9,0.9
2023-11-21T2200,2547A,106.6388,30.4551,广安市,广电花园,细颗粒物(PM2.5),114,107,85,86,68,28,,32,32,39,32,11,12,0.8,0.9
2023-11-21T2200,2902A,106.6351,30.4865,广安市,北辰小学,细颗粒物(PM2.5),117,117,87,88,64,33,,40,40,24,24,14,13,0.7,0.7
2023-11-21T2200,2523A,105.8945,32.4535,广元市,黑石坡,颗粒物(PM10),55,59,45,29,34,41,,38,38,32,37,6,6,0.5,0.6
2023-11-21T2200,2524A,105.821,32.4444,广元市,老城,颗粒物(PM10),53,56,77,27,44,30,,38,38,34,42,1,3,0.8,0.9
2023-11-21T2200,2526A,105.8628,32.4287,广元市,监测站,,49,42,64,34,42,25,,32,32,34,42,2,5,0.7,1.3
2023-11-21T2200,3617A,105.8047,32.4166,广元市,经开区,细颗粒物(PM2.5),55,52,84,39,60,41,,31,31,30,48,2,4,0.5,0.8
2023-11-21T2200,1345A,113.2347,23.1423,广州市,广雅中学,"颗粒物(PM10),细颗粒物(PM2.5)",78,106,97,57,47,4,,134,102,136,77,6,6,1.4,1
2023-11-21T2200,1346A,113.2612,23.105,广州市,市五中,细颗粒物(PM2.5),87,108,90,64,53,31,,133,104,85,69,7,8,1.1,1
2023-11-21T2200,1348A,113.3478,23.0916,广州市,广东商学院,细颗粒物(PM2.5),99,140,101,74,55,8,,120,93,136,81,7,7,1.0,0.8
2023-11-21T2200,1349A,113.4332,23.1047,广州市,市八十六中,颗粒物(PM10),108,165,104,69,48,6,,126,78,159,80,7,8,1.1,0.9
2023-11-21T2200,1350A,113.3505,22.9483,广州市,番禺中学,颗粒物(PM10),66,81,104,40,56,54,,141,112,82,77,5,9,0.8,1
2023-11-21T2200,1351A,113.2146,23.3916,广州市,花都师范,颗粒物(PM10),98,145,99,62,43,6,,156,132,130,73,6,7,1.0,0.8
2023-11-21T2200,1352A,113.2597,23.1331,广州市,市监测站,细颗粒物(PM2.5),89,111,81,66,43,4,,134,98,143,83,5,5,1.4,0.9
2023-11-21T2200,1353A,113.5618,23.312,广州市,九龙镇镇龙,颗粒物(PM10),84,117,81,48,37,2,,124,68,79,46,6,7,0.9,0.7
2023-11-21T2200,1354A,113.2765,23.1544,广州市,麓湖,颗粒物(PM10),63,76,72,39,38,3,,132,83,112,65,5,5,0.8,0.7
2023-11-21T2200,1355A,113.443,23.3035,广州市,帽峰山森林公园,颗粒物(PM10),52,53,54,26,29,154,,161,157,13,19,10,9,0.6,0.5
2023-11-21T2200,2846A,113.3221,23.1322,广州市,体育西,细颗粒物(PM2.5),89,121,89,66,47,18,,136,100,125,66,6,8,1.4,0.9
2023-11-21T2200,3298A,113.5717,23.5491,广州市,从化街口,颗粒物(PM10),58,66,60,40,35,5,,127,82,67,38,4,4,1.0,0.8
2023-11-21T2200,3299A,113.3472,23.3692,广州市,白云竹料,细颗粒物(PM2.5),102,152,81,76,39,6,,144,99,98,52,6,6,1.3,1
2023-11-21T2200,3300A,113.2981,23.237,广州市,白云嘉禾,颗粒物(PM10),89,128,87,57,41,5,,137,95,125,75,8,7,1.2,0.8
2023-11-21T2200,3301A,113.4256,23.1716,广州市,黄埔科学城,颗粒物(PM10),63,76,68,38,36,12,,131,87,80,45,5,5,0.8,0.7
2023-11-21T2200,3302A,113.3942,23.0483,广州市,番禺大学城,颗粒物(PM10),84,117,108,60,45,34,,151,129,132,76,11,12,0.7,0.6
2023-11-21T2200,3303A,113.4922,22.8168,广州市,南沙黄阁,,47,47,98,14,43,88,,161,132,37,70,4,6,0.5,0.7
2023-11-21T2200,3304A,113.5342,22.7896,广州市,南沙街,,44,44,79,15,39,80,,190,162,31,53,4,5,0.5,0.7
2023-11-21T2200,3443A,113.2902,23.5544,广州市,花都梯面,细颗粒物(PM2.5),58,64,52,41,29,4,,143,88,70,42,4,5,0.6,0.5
2023-11-21T2200,3445A,113.7858,23.7478,广州市,从化良口,,,28,31,18,18,,,107,,14,17,4,4,0.5,0.4
2023-11-21T2200,3446A,113.8051,23.2614,广州市,增城荔城,细颗粒物(PM2.5),72,90,61,52,33,28,,132,95,50,27,4,7,0.9,0.7
2023-11-21T2200,2505A,109.568,23.1478,贵港市,德智高中,,,69,69,42,47,,,67,,25,28,17,11,0.8,0.8
2023-11-21T2200,2506A,109.6047,23.0666,贵港市,江南子站,颗粒物(PM10),93,136,137,64,63,53,,148,123,61,43,9,13,1.0,1.2
2023-11-21T2200,2507A,109.6014,23.0948,贵港市,贵城子站,细颗粒物(PM2.5),87,84,81,64,56,87,,143,122,33,39,12,14,0.7,0.8
2023-11-21T2200,2508A,109.5669,23.1065,贵港市,荷城子站,细颗粒物(PM2.5),92,117,102,68,54,45,,140,111,55,38,10,13,1.3,1.1
2023-11-21T2200,3405A,109.5886,23.1172,贵港市,新世纪学校,细颗粒物(PM2.5),94,110,90,70,50,42,,134,106,52,37,9,12,1.2,0.9
2023-11-21T2200,1439A,106.6899,26.5998,贵阳市,马鞍山,,25,22,30,17,22,70,,101,86,18,19,5,4,0.5,0.6
2023-11-21T2200,1440A,106.6971,26.5694,贵阳市,市环保站,,49,46,50,34,34,37,,88,69,52,37,10,11,0.3,0.4
2023-11-21T2200,1441A,106.6243,26.6266,贵阳市,鉴湖路,,32,31,34,22,15,80,,92,84,13,12,5,6,0.4,0.4
2023-11-21T2200,1442A,106.7487,26.6343,贵阳市,燕子冲,,32,27,33,22,25,46,,93,77,20,22,7,8,0.8,0.8
2023-11-21T2200,1443A,106.6555,26.4365,贵阳市,碧云窝,,34,34,36,17,16,74,,94,83,14,13,13,10,0.5,0.5
2023-11-21T2200,1444A,106.694,26.5161,贵阳市,中院村,颗粒物(PM10),53,56,52,31,30,24,,77,59,54,36,15,15,0.7,0.6
2023-11-21T2200,1445A,106.7109,26.6027,贵阳市,红边门,颗粒物(PM10),53,56,54,27,31,28,,82,56,54,40,7,14,0.5,0.7
2023-11-21T2200,1446A,106.7164,26.5699,贵阳市,新华路,细颗粒物(PM2.5),55,56,44,39,28,28,,91,67,60,38,14,13,0.9,0.6
2023-11-21T2200,1447A,106.674,26.5424,贵阳市,太慈桥,,29,29,33,17,19,45,,90,77,35,20,7,6,0.4,0.4
2023-11-21T2200,1552A,106.805,26.3003,贵阳市,桐木岭,,39,39,41,25,23,104,,92,91,4,3,6,7,0.3,0.2
2023-11-21T2200,1862A,110.4144,25.3167,桂林市,电子科大尧山校区,细颗粒物(PM2.5),88,84,47,65,37,46,,106,87,12,10,5,13,0.5,0.4
2023-11-21T2200,1863A,110.2819,25.2697,桂林市,监测站,颗粒物(PM10),90,130,68,39,22,17,,104,70,65,36,9,16,1.4,0.8
2023-11-21T2200,1864A,110.3089,25.2708,桂林市,龙隐路小学,细颗粒物(PM2.5),68,76,54,49,40,15,,103,78,68,34,10,18,1.2,0.8
2023-11-21T2200,1865A,110.2869,25.2178,桂林市,八中,细颗粒物(PM2.5),74,93,62,54,42,21,,103,80,62,30,12,12,0.9,0.6
2023-11-21T2200,3403A,110.1764,25.2381,桂林市,创业大厦,颗粒物(PM10),75,100,68,53,42,4,,98,76,76,39,13,16,0.7,0.5
2023-11-21T2200,3531A,110.296,25.1253,桂林市,旅游学院,,,90,55,68,38,24,,111,87,,23,6,11,0.7,0.6
2023-11-21T2200,2674A,100.2561,34.4714,果洛藏族自治州,玛沁县大武镇,,27,27,27,17,15,77,,84,83,11,17,12,15,0.4,0.6
2023-11-21T2200,1129A,126.5422,45.755,哈尔滨市,岭北,细颗粒物(PM2.5),115,103,58,87,43,78,,91,89,44,21,3,5,0.5,0.8
2023-11-21T2200,1130A,126.561,45.8167,哈尔滨市,松北商大,细颗粒物(PM2.5),123,,50,93,46,6,,55,15,69,35,4,8,0.9,0.7
2023-11-21T2200,1131A,126.979,45.5419,哈尔滨市,阿城会宁,细颗粒物(PM2.5),150,135,67,115,50,9,,64,33,56,28,8,9,1.6,0.6
2023-11-21T2200,1132A,126.599,45.7222,哈尔滨市,南岗学府路,细颗粒物(PM2.5),102,106,69,76,38,13,,54,35,74,36,8,9,1.1,0.7
2023-11-21T2200,1133A,126.689,45.7733,哈尔滨市,太平宏伟公园,细颗粒物(PM2.5),128,138,62,97,49,9,,55,38,78,31,7,9,1.3,0.6
2023-11-21T2200,1134A,126.635,45.7667,哈尔滨市,道外承德广场,细颗粒物(PM2.5),107,116,63,80,46,14,,65,40,76,38,11,10,1.1,0.8
2023-11-21T2200,1135A,126.685,45.7319,哈尔滨市,香坊红旗大街,细颗粒物(PM2.5),108,89,55,81,46,19,,53,38,74,40,9,7,1.1,0.8
2023-11-21T2200,1136A,126.6411,45.7258,哈尔滨市,动力和平路,细颗粒物(PM2.5),97,86,59,72,46,13,,47,30,73,38,11,9,1.1,0.8
2023-11-21T2200,1137A,126.593,45.7478,哈尔滨市,道里建国路,细颗粒物(PM2.5),115,89,59,87,50,15,,54,33,73,38,7,8,0.8,0.6
2023-11-21T2200,1138A,126.615,45.61,哈尔滨市,平房东轻厂,细颗粒物(PM2.5),139,115,65,106,49,8,,56,23,86,39,10,9,1.3,0.7
2023-11-21T2200,1139A,126.595,45.9855,哈尔滨市,呼兰师专,细颗粒物(PM2.5),148,122,70,113,59,24,,70,52,58,25,6,9,1.1,0.8
2023-11-21T2200,1140A,126.6206,45.6842,哈尔滨市,省农科院,细颗粒物(PM2.5),109,109,93,82,71,17,,55,35,76,59,19,13,1.2,1
2023-11-21T2200,2688A,93.5128,42.8172,哈密地区,地区监测站,颗粒物(PM10),58,65,113,26,33,51,,65,62,32,33,3,8,0.6,0.6
2023-11-21T2200,2689A,93.4961,42.8328,哈密地区,哈密师范学校,颗粒物(PM10),66,82,118,30,31,40,,63,60,38,35,6,12,1.0,0.8
2023-11-21T2200,2671A,100.9048,36.9639,海北藏族自治州,海晏县西海镇,颗粒物(PM10),87,124,67,27,16,92,,94,94,3,8,12,10,0.5,0.7
2023-11-21T2200,3867A,102.0738,36.5056,海东地区,平安区公安北苑,颗粒物(PM10),76,101,81,46,34,47,,73,72,39,27,36,22,0.9,0.9
2023-11-21T2200,1410A,110.3232,20.0574,海口市,海南大学,,42,42,48,16,22,82,,154,132,26,15,8,8,0.4,0.4
2023-11-21T2200,1411A,110.283,20.0053,海口市,秀英海南医院,,40,40,51,16,23,103,,152,138,11,12,6,7,0.4,0.4
2023-11-21T2200,1412A,110.338,19.9969,海口市,海南师范大学,,43,43,46,18,22,96,,145,130,12,12,6,6,0.4,0.4
2023-11-21T2200,1413A,110.33,20.0356,海口市,龙华路环保局宿舍,,47,47,49,22,23,95,,150,128,13,12,7,8,0.4,0.4
2023-11-21T2200,3539A,110.5111,19.9736,海口市,桂林洋子站,,38,38,49,22,22,74,,133,116,17,11,4,4,0.5,0.4
2023-11-21T2200,2673A,100.6188,36.2866,海南藏族自治州,共和县恰卜恰镇,,29,29,73,5,26,87,,85,85,10,33,10,10,0.8,0.9
2023-11-21T2200,2676A,97.3731,37.3753,海西蒙古族藏族自治州,德令哈市,,40,40,59,7,12,51,,,,29,19,9,11,0.6,0.6
2023-11-21T2200,1048A,114.5302,36.6116,邯郸市,东污水处理厂,细颗粒物(PM2.5),252,265,206,202,169,24,,62,52,76,57,8,9,1.1,1.2
2023-11-21T2200,1049A,114.4918,36.5713,邯郸市,矿院,细颗粒物(PM2.5),242,208,177,192,162,28,,62,56,68,58,8,10,1.2,1
2023-11-21T2200,1050A,114.484,36.6133,邯郸市,丛台公园,细颗粒物(PM2.5),237,253,204,187,157,26,,72,57,80,60,5,6,1.6,1.4
2023-11-21T2200,3458A,114.7895,36.5593,邯郸市,香泉濮院小区,细颗粒物(PM2.5),250,281,198,200,151,42,,87,75,58,35,14,12,1.3,0.8
2023-11-21T2200,3579A,114.50634,36.77178,邯郸市,永年区实验高中,细颗粒物(PM2.5),243,290,233,193,156,1,,53,38,100,67,10,13,1.4,1.4
2023-11-21T2200,3580A,114.20016,36.44293,邯郸市,峰峰矿区临水派出所,细颗粒物(PM2.5),239,230,164,189,128,50,,89,80,48,34,21,20,1.7,1.2
2023-11-21T2200,2634A,106.9893,33.1842,汉中市,汉川机床厂子校,细颗粒物(PM2.5),58,55,93,41,57,15,,28,22,22,36,7,17,0.9,1.2
2023-11-21T2200,2635A,107.0154,33.0706,汉中市,市监测站,细颗粒物(PM2.5),118,149,109,89,77,12,,22,21,50,40,15,18,1.9,1.6
2023-11-21T2200,2636A,107.0089,33.1138,汉中市,鑫源开发区,细颗粒物(PM2.5),150,159,102,115,83,14,,26,21,51,44,17,22,2.0,1.2
2023-11-21T2200,2637A,107.007,33.0323,汉中市,南郑大河坎水厂,细颗粒物(PM2.5),149,147,108,114,72,11,,23,19,42,35,10,21,1.7,1.2
2023-11-21T2200,1223A,120.2072,30.2111,杭州市,滨江,颗粒物(PM10),100,150,93,66,46,4,,98,56,137,71,10,9,1.1,0.9
2023-11-21T2200,1224A,120.0633,30.2747,杭州市,西溪,颗粒物(PM10),51,52,60,26,41,3,,88,54,54,44,5,6,0.9,0.8
2023-11-21T2200,1226A,120.3461,30.3153,杭州市,下沙,细颗粒物(PM2.5),89,107,101,66,67,6,,88,40,129,93,11,11,0.9,0.8
2023-11-21T2200,1227A,120.1269,30.2456,杭州市,卧龙桥,,49,49,71,28,45,12,,79,46,36,35,7,8,0.6,0.7
2023-11-21T2200,1228A,120.1903,30.2692,杭州市,浙江农大,细颗粒物(PM2.5),107,137,78,80,42,6,,85,43,104,67,8,8,0.8,0.7
2023-11-21T2200,1230A,120.1197,30.3119,杭州市,和睦小学,细颗粒物(PM2.5),98,120,80,73,52,10,,72,49,127,74,11,10,1.2,1.1
2023-11-21T2200,1231A,120.3019,30.4183,杭州市,临平镇,颗粒物(PM10),89,128,108,60,66,32,,88,71,75,60,5,6,0.7,0.7
2023-11-21T2200,1232A,120.2697,30.1819,杭州市,城厢镇,细颗粒物(PM2.5),88,104,79,65,45,19,,92,53,110,79,7,8,1.1,0.9
2023-11-21T2200,1233A,120.0883,30.1808,杭州市,云栖,颗粒物(PM10),61,72,93,27,51,21,,87,63,45,38,6,6,0.6,0.6
2023-11-21T2200,3557A,119.9464,30.0494,杭州市,镇二中,细颗粒物(PM2.5),85,94,63,63,41,4,,84,42,76,59,6,6,0.8,0.7
2023-11-21T2200,3558A,119.7183,30.2367,杭州市,市府大楼,颗粒物(PM10),69,88,74,49,40,15,,120,65,56,49,5,6,0.8,0.7
2023-11-21T2200,3656A,120.1556,30.2864,杭州市,消防大队,细颗粒物(PM2.5),97,117,92,72,56,5,,88,50,120,77,10,9,1.1,0.9
2023-11-21T2200,1270A,117.1959,31.7848,合肥市,明珠广场,颗粒物(PM10),53,56,80,31,41,76,,90,88,34,58,8,9,0.3,0.5
2023-11-21T2200,1271A,117.3072,31.8764,合肥市,三里街,颗粒物(PM10),64,78,97,27,43,28,,75,57,80,72,7,10,0.4,0.5
2023-11-21T2200,1272A,117.2588,31.8707,合肥市,琥珀山庄,,48,48,75,27,39,70,,101,92,30,44,6,7,0.6,0.7
2023-11-21T2200,1273A,117.1604,31.9052,合肥市,董铺水库,颗粒物(PM10),51,51,84,17,34,103,,116,116,13,36,5,5,0.3,0.5
2023-11-21T2200,1274A,117.25,31.8571,合肥市,长江中路,颗粒物(PM10),51,51,82,24,48,70,,94,92,38,43,10,12,0.3,0.6
2023-11-21T2200,1275A,117.266,31.9436,合肥市,庐阳区,颗粒物(PM10),53,56,93,24,44,78,,87,86,33,65,6,9,0.6,0.8
2023-11-21T2200,1276A,117.336,31.8586,合肥市,瑶海区,颗粒物(PM10),67,83,104,34,44,38,,85,64,69,68,5,7,0.3,0.4
2023-11-21T2200,1277A,117.3027,31.7964,合肥市,包河区,,46,46,77,22,41,92,,112,108,26,60,7,10,0.5,0.7
2023-11-21T2200,1278A,117.2776,31.7385,合肥市,滨湖新区,,46,46,79,19,37,90,,110,109,20,31,7,7,0.4,0.4
2023-11-21T2200,1279A,117.1318,31.8403,合肥市,高新区,颗粒物(PM10),53,56,80,16,37,72,,93,92,38,45,9,10,0.5,0.7
2023-11-21T2200,3464A,117.3803,31.9147,合肥市,高教基地,,48,48,81,24,36,87,,99,96,22,49,6,6,0.3,0.5
2023-11-21T2200,3614A,79.924,37.0877,和田地区,地区环保局,颗粒物(PM10),139,228,146,65,49,20,,98,76,86,36,44,14,2.2,1
2023-11-21T2200,3615A,79.9131,37.113,和田地区,市环保局,颗粒物(PM10),88,126,142,56,63,19,,104,83,101,50,18,12,1.8,1.4
2023-11-21T2200,2516A,108.2011,24.715,河池市,东仁乐园,"颗粒物(PM10),细颗粒物(PM2.5)",63,76,51,45,29,54,,95,85,13,13,5,6,0.9,0.7
2023-11-21T2200,2517A,108.0497,24.6947,河池市,市环保站,细颗粒物(PM2.5),77,93,64,56,35,27,,111,88,51,28,10,11,0.9,0.6
2023-11-21T2200,2518A,108.0983,24.6989,河池市,市疾控中心,颗粒物(PM10),116,182,84,77,39,7,,108,75,70,36,10,11,0.9,0.6
2023-11-21T2200,1696A,114.6778,23.7569,河源市,源西,,45,45,52,24,36,33,,90,63,46,38,4,5,0.8,0.6
2023-11-21T2200,1697A,114.6944,23.7586,河源市,东埔,细颗粒物(PM2.5),65,62,57,47,28,14,,109,,63,38,6,7,1.0,0.8
2023-11-21T2200,1698A,114.6892,23.7233,河源市,老城,,,54,48,31,24,16,,107,81,,21,,6,1.0,0.9
2023-11-21T2200,1718A,115.4208,35.2464,菏泽市,气象局,颗粒物(PM10),78,105,124,55,70,102,,133,121,32,33,5,5,0.4,0.5
2023-11-21T2200,1719A,115.4747,35.2375,菏泽市,市政协,颗粒物(PM10),70,89,122,46,73,106,,130,120,25,34,2,3,0.8,0.7
2023-11-21T2200,3374A,115.5564,35.0891,菏泽市,定陶老年大学,颗粒物(PM10),67,83,122,46,79,84,,117,104,32,35,5,5,0.6,0.7
2023-11-21T2200,3647A,115.4702,35.2706,菏泽市,菏泽医专,颗粒物(PM10),67,83,114,40,63,111,,132,125,27,30,8,8,0.6,0.7
2023-11-21T2200,2514A,111.5264,24.4172,贺州市,环保小区,细颗粒物(PM2.5),92,97,65,68,40,74,,115,107,37,35,11,8,0.8,0.7
2023-11-21T2200,2515A,111.5608,24.4078,贺州市,政协大楼,,,103,61,,31,68,,126,115,39,32,16,9,0.7,0.7
2023-11-21T2200,3534A,111.4744,24.4553,贺州市,西湾,颗粒物(PM10),79,107,69,56,41,81,,123,114,35,29,8,7,0.7,0.8
2023-11-21T2200,2385A,114.17,35.9019,鹤壁市,市监测站,细颗粒物(PM2.5),231,244,189,181,138,28,,89,67,60,55,10,11,1.5,1
2023-11-21T2200,2386A,114.2956,35.7511,鹤壁市,市交警支队,细颗粒物(PM2.5),227,256,199,177,146,20,,117,96,85,56,6,14,1.1,0.8
2023-11-21T2200,2387A,114.2878,35.7306,鹤壁市,迎宾馆,细颗粒物(PM2.5),220,224,177,170,139,26,,122,101,94,63,10,13,1.4,1
2023-11-21T2200,3474A,114.2617,35.6822,鹤壁市,大新区,细颗粒物(PM2.5),206,168,169,156,154,4,,100,69,107,77,7,11,1.3,1.1
2023-11-21T2200,3596A,114.1572,35.9603,鹤壁市,南山宾馆,细颗粒物(PM2.5),235,235,174,185,133,64,,104,94,48,50,15,14,1.9,0.7
2023-11-21T2200,2244A,130.2537,47.3416,鹤岗市,哈啤分公司,,40,31,40,28,28,58,,59,57,8,21,11,15,0.5,0.6
2023-11-21T2200,2245A,130.2684,47.3086,鹤岗市,斯达机电,,46,46,45,32,31,56,,52,50,14,27,7,11,0.4,0.5
2023-11-21T2200,2246A,130.3114,47.3388,鹤岗市,东山纸板厂,细颗粒物(PM2.5),55,51,42,39,37,56,,53,52,13,37,9,14,0.4,1.2
2023-11-21T2200,2247A,130.1097,47.3382,鹤岗市,五号水库,,46,40,37,32,24,60,,61,55,10,16,9,11,0.6,0.6
2023-11-21T2200,2263A,127.4833,50.2524,黑河市,交通局,,28,,25,19,23,46,,44,41,8,17,7,9,0.3,0.5
2023-11-21T2200,2264A,127.5144,50.2341,黑河市,环保局,,25,,32,17,24,46,,49,42,7,20,6,10,0.3,0.5
2023-11-21T2200,2265A,127.5291,50.2472,黑河市,大黑河岛,,,,27,11,21,,,,,2,2,1,4,,
2023-11-21T2200,1074A,115.6838,37.7541,衡水市,电机北厂,细颗粒物(PM2.5),285,317,211,235,154,3,,92,60,91,36,5,8,1.1,0.9
2023-11-21T2200,1075A,115.6303,37.7316,衡水市,市监测站,细颗粒物(PM2.5),282,279,180,232,151,28,,89,68,68,41,8,10,0.9,0.8
2023-11-21T2200,3188A,115.6683,37.7217,衡水市,市城管局,细颗粒物(PM2.5),299,295,185,249,158,38,,93,73,62,37,8,9,1.0,0.9
2023-11-21T2200,3459A,115.5989,37.5491,衡水市,地表水厂,细颗粒物(PM2.5),287,290,194,237,152,41,,94,85,42,42,7,7,1.2,0.9
2023-11-21T2200,2456A,112.5003,26.9167,衡阳市,原169医院,颗粒物(PM10),77,103,72,54,39,21,,113,93,80,37,16,16,1.2,1
2023-11-21T2200,2457A,112.6194,26.9258,衡阳市,衡阳化工总厂,细颗粒物(PM2.5),77,80,78,56,49,61,,112,99,24,30,9,14,0.8,0.8
2023-11-21T2200,2458A,112.6211,26.8956,衡阳市,珠晖区环保局,细颗粒物(PM2.5),82,90,77,60,54,47,,102,77,48,35,15,17,0.8,0.8
2023-11-21T2200,2459A,112.6197,26.8733,衡阳市,市委党校,细颗粒物(PM2.5),107,108,85,80,55,38,,114,96,50,30,17,20,1.0,1
2023-11-21T2200,2460A,112.6006,26.8919,衡阳市,市监测站,细颗粒物(PM2.5),112,114,98,84,66,12,,96,62,70,41,9,18,1.3,1.2
2023-11-21T2200,2461A,112.5664,26.9056,衡阳市,真空机电公司,细颗粒物(PM2.5),103,98,86,77,57,34,,99,77,59,44,11,21,1.3,1.3
2023-11-21T2200,3399A,112.6703,26.882,衡阳市,师范学院,细颗粒物(PM2.5),92,92,77,68,51,28,,101,78,46,32,24,16,1.0,0.9
2023-11-21T2200,2608A,103.3772,23.3993,红河州,污水处理厂,,48,,30,33,27,70,,77,72,6,8,6,6,0.5,0.5
2023-11-21T2200,2609A,103.3861,23.35,红河州,监测站,,45,34,33,31,24,77,,78,77,8,8,9,8,0.7,0.7
2023-11-21T2200,3038A,103.3758,23.368,红河州,州图书馆,,45,34,29,31,24,68,,71,67,8,7,6,6,0.6,0.6
2023-11-21T2200,1090A,111.6507,40.7517,呼和浩特市,呼市一监,细颗粒物(PM2.5),163,246,157,124,75,9,,40,23,71,58,17,14,1.2,1.1
2023-11-21T2200,1091A,111.6572,40.8033,呼和浩特市,小召,细颗粒物(PM2.5),155,215,135,118,66,11,,35,20,81,68,32,22,1.3,1.4
2023-11-21T2200,1094A,111.7516,40.8369,呼和浩特市,如意水处理厂,细颗粒物(PM2.5),135,204,133,103,64,3,,36,19,88,73,29,22,1.4,1.2
2023-11-21T2200,1095A,111.7276,40.8062,呼和浩特市,二十九中,细颗粒物(PM2.5),144,194,130,110,64,8,,38,23,84,68,30,21,1.2,1
2023-11-21T2200,1096A,111.5512,40.7866,呼和浩特市,工大金川校区,细颗粒物(PM2.5),147,239,136,112,67,4,,26,13,84,75,30,22,1.4,1.1
2023-11-21T2200,1097A,111.717,40.7612,呼和浩特市,化肥厂生活区,"颗粒物(PM10),细颗粒物(PM2.5)",140,229,136,107,66,6,,35,19,90,72,22,21,1.2,1.1
2023-11-21T2200,3698A,111.5968,40.8178,呼和浩特市,红旗小学,颗粒物(PM10),159,268,149,118,69,8,,31,17,91,77,35,26,1.7,1.3
2023-11-21T2200,3699A,111.6518,40.8389,呼和浩特市,海东办,细颗粒物(PM2.5),162,237,143,123,76,3,,35,16,85,74,34,22,1.4,1.1
2023-11-21T2200,2192A,119.7594,49.2261,呼伦贝尔市,区环保局,,35,28,20,24,16,37,,59,39,25,18,4,4,0.4,0.4
2023-11-21T2200,3061A,119.7512,49.1577,呼伦贝尔市,国华电力东,,27,27,27,18,19,44,,56,44,16,14,4,4,0.3,0.4
2023-11-21T2200,1250A,120.0751,30.8669,湖州市,城西水厂,细颗粒物(PM2.5),82,108,120,60,74,65,,86,54,65,79,7,7,0.6,0.7
2023-11-21T2200,2873A,120.0875,30.8955,湖州市,仁皇山新区,细颗粒物(PM2.5),94,113,121,70,76,43,,90,62,85,69,7,9,0.7,0.7
2023-11-21T2200,2907A,120.1844,30.8596,湖州市,吴兴区站,细颗粒物(PM2.5),113,113,134,85,89,17,,95,75,120,77,5,8,0.7,0.8
2023-11-21T2200,3562A,120.4148,30.8538,湖州市,南浔区站,细颗粒物(PM2.5),74,94,131,54,76,53,,96,83,64,62,10,9,0.6,0.7
2023-11-21T2200,1607A,120.9092,40.7136,葫芦岛市,龙港区,细颗粒物(PM2.5),227,,112,177,96,9,,82,68,68,35,16,15,2.3,1.3
2023-11-21T2200,1608A,120.8392,40.7514,葫芦岛市,化工街,细颗粒物(PM2.5),213,232,164,163,109,5,,71,46,80,46,21,15,2.0,1.3
2023-11-21T2200,1609A,120.8341,40.7073,葫芦岛市,新区,细颗粒物(PM2.5),240,,116,190,107,7,,77,53,96,53,8,11,2.3,1.4
2023-11-21T2200,1610A,120.8695,40.7677,葫芦岛市,东城区,细颗粒物(PM2.5),258,275,154,208,132,7,,69,43,76,51,23,22,2.5,1.6
2023-11-21T2200,2482A,109.5981,27.5721,怀化市,林科所,,38,38,39,20,25,66,,101,96,4,4,12,6,0.7,0.6
2023-11-21T2200,2483A,109.9453,27.5444,怀化市,河西地税局,细颗粒物(PM2.5),64,54,42,46,34,16,,84,63,27,21,4,6,0.5,0.4
2023-11-21T2200,2484A,109.9781,27.5342,怀化市,市四医院,细颗粒物(PM2.5),77,101,65,56,41,1,,83,59,58,32,16,13,1.0,0.5
2023-11-21T2200,2485A,109.9972,27.5578,怀化市,监测楼,细颗粒物(PM2.5),115,130,70,87,46,8,,79,53,44,27,4,8,1.0,0.7
2023-11-21T2200,2486A,110.0394,27.583,怀化市,市委党校,细颗粒物(PM2.5),94,107,65,70,42,4,,86,62,46,24,18,12,0.6,0.5
2023-11-21T2200,1210A,119.036,33.5981,淮安市,钵池山,细颗粒物(PM2.5),153,149,107,117,81,83,,123,110,55,40,13,10,1.0,0.8
2023-11-21T2200,1211A,119.007,33.575,淮安市,北京南路,细颗粒物(PM2.5),137,132,109,104,85,83,,141,120,67,49,12,11,0.9,0.9
2023-11-21T2200,1212A,118.989,33.6067,淮安市,市监测站,细颗粒物(PM2.5),134,144,120,102,85,93,,134,121,55,44,11,10,0.9,0.9
2023-11-21T2200,1213A,119.135,33.5039,淮安市,楚州区监测站,细颗粒物(PM2.5),144,151,113,110,80,44,,122,84,84,50,10,10,0.9,0.9
2023-11-21T2200,1214A,119.0186,33.6297,淮安市,淮阴区监测站,细颗粒物(PM2.5),132,168,140,100,82,88,,118,102,65,53,16,16,0.9,0.8
2023-11-21T2200,3426A,118.8755,33.2894,淮安市,新华书店,细颗粒物(PM2.5),120,131,136,91,73,94,,128,114,43,46,11,11,0.7,0.9
2023-11-21T2200,2282A,116.8004,33.975,淮北市,监测站,细颗粒物(PM2.5),90,105,121,67,68,51,,106,79,54,39,10,10,1.0,0.9
2023-11-21T2200,2283A,116.8091,33.9007,淮北市,烈山区政府,细颗粒物(PM2.5),128,165,136,97,72,57,,118,100,61,44,13,13,0.7,0.6
2023-11-21T2200,3330A,116.8873,33.9836,淮北市,杜集区检察院,细颗粒物(PM2.5),99,127,110,74,68,64,,116,104,50,33,12,14,0.8,0.7
2023-11-21T2200,4017A,116.7923,33.9535,淮北市,市博物馆,细颗粒物(PM2.5),99,121,119,74,70,52,,117,86,55,41,11,12,0.8,0.9
2023-11-21T2200,2277A,116.8305,32.7727,淮南市,潘集区政府,细颗粒物(PM2.5),83,94,117,61,73,54,,104,78,50,47,12,14,0.5,0.6
2023-11-21T2200,2278A,117.0067,32.6524,淮南市,师范学院,细颗粒物(PM2.5),77,84,99,56,55,84,,99,96,36,38,13,15,0.5,0.6
2023-11-21T2200,2279A,116.8569,32.5951,淮南市,谢家集区政府,颗粒物(PM10),67,83,96,43,55,55,,106,87,62,51,14,18,0.4,0.5
2023-11-21T2200,2280A,116.8281,32.633,淮南市,八公山区政府,颗粒物(PM10),67,83,98,38,51,67,,99,90,39,38,11,14,0.5,0.6
2023-11-21T2200,2281A,116.6325,32.6201,淮南市,焦岗湖风景区管理处,颗粒物(PM10),87,123,114,58,55,34,,81,61,68,49,3,3,0.3,0.4
2023-11-21T2200,2894A,117.0566,32.6531,淮南市,经济技术开发区消防队,颗粒物(PM10),71,92,110,46,66,74,,96,82,38,44,11,16,0.4,0.5
2023-11-21T2200,3329A,117.0108,32.5893,淮南市,山南新区,细颗粒物(PM2.5),74,93,99,54,52,77,,100,96,31,33,9,10,0.6,0.6
2023-11-21T2200,2446A,114.9028,30.4742,黄冈市,职工中心,细颗粒物(PM2.5),70,83,73,51,41,80,,96,90,29,24,22,18,0.7,0.7
2023-11-21T2200,2929A,114.8858,30.4519,黄冈市,红卫路,细颗粒物(PM2.5),67,78,73,48,43,88,,96,95,27,27,18,11,0.5,0.5
2023-11-21T2200,3398A,114.9136,30.4445,黄冈市,市林业局,细颗粒物(PM2.5),67,78,66,48,43,85,,99,98,30,27,13,10,0.8,0.8
2023-11-21T2200,2672A,102.0199,35.5102,黄南藏族自治州,同仁县隆务镇,颗粒物(PM10),94,138,62,40,18,64,,81,78,9,11,9,9,0.3,0.3
2023-11-21T2200,2295A,118.2903,29.6963,黄山市,延安路89号,,48,48,34,32,19,13,,78,60,25,17,5,5,0.4,0.3
2023-11-21T2200,2296A,118.327,29.7178,黄山市,黄山东路89号,颗粒物(PM10),54,57,49,34,27,9,,72,40,32,21,5,5,0.7,0.6
2023-11-21T2200,2297A,118.1371,30.2756,黄山市,黄山区政府5号楼,,49,45,36,34,24,8,,77,44,22,14,4,4,0.7,0.4
2023-11-21T2200,2423A,115.0601,30.2313,黄石市,沈家营,颗粒物(PM10),68,85,82,46,45,74,,91,82,50,49,27,13,1.6,1.2
2023-11-21T2200,2424A,115.0817,30.2006,黄石市,陈家湾,细颗粒物(PM2.5),63,70,71,45,42,56,,92,89,58,40,19,14,1.1,0.9
2023-11-21T2200,2426A,114.8988,30.2019,黄石市,铁山,细颗粒物(PM2.5),68,80,72,49,42,83,,101,96,38,38,15,14,1.0,0.9
2023-11-21T2200,2427A,115.0307,30.2092,黄石市,团城山,细颗粒物(PM2.5),64,73,70,46,36,74,,98,95,50,42,15,13,1.1,1
2023-11-21T2200,3149A,115.0235,30.1578,黄石市,笔架山北路,细颗粒物(PM2.5),69,85,83,50,43,78,,96,93,41,36,19,15,0.8,0.9
2023-11-21T2200,1392A,114.4183,23.0528,惠州市,河南岸金山湖子站,颗粒物(PM10),68,86,74,42,37,39,,116,88,52,31,5,6,0.8,0.7
2023-11-21T2200,1393A,114.4053,23.0822,惠州市,下埔横江三路子站,颗粒物(PM10),63,75,79,36,40,73,,138,117,42,42,10,10,0.7,0.7
2023-11-21T2200,1394A,114.4103,23.1142,惠州市,江北云山西路子站,颗粒物(PM10),63,75,81,30,37,78,,127,105,39,42,9,11,0.6,0.7
2023-11-21T2200,1395A,114.4645,22.7833,惠州市,惠阳区承修路船湖子站,颗粒物(PM10),52,54,42,17,29,93,,138,120,30,40,6,8,0.8,0.9
2023-11-21T2200,1396A,114.5317,22.7422,惠州市,大亚湾管委会子站,颗粒物(PM10),65,80,59,28,25,0,,133,82,107,55,6,7,0.9,0.8
2023-11-21T2200,3314A,114.4338,22.8134,惠州市,惠阳秋长,颗粒物(PM10),52,53,70,22,32,95,,146,128,29,31,9,9,0.7,0.7
2023-11-21T2200,3452A,114.6517,22.775,惠州市,大亚湾霞涌,,36,36,40,14,18,62,,137,108,35,22,6,7,0.5,0.4
2023-11-21T2200,2240A,130.9762,45.3001,鸡西市,环保局,细颗粒物(PM2.5),70,75,36,51,24,52,,64,55,25,18,5,6,0.5,0.4
2023-11-21T2200,2243A,130.9429,45.3039,鸡西市,第一中学,细颗粒物(PM2.5),74,80,39,54,25,66,,72,67,18,14,8,9,0.4,0.2
2023-11-21T2200,3707A,131.0207,45.3073,鸡西市,欧美日汽修厂,细颗粒物(PM2.5),114,113,75,86,60,29,,56,46,62,35,45,42,1.2,1
2023-11-21T2200,3709A,130.9967,45.3106,鸡西市,市政设施管理处,细颗粒物(PM2.5),77,80,47,56,31,15,,68,50,58,28,4,4,0.6,0.4
2023-11-21T2200,2367A,114.9754,27.0803,吉安市,红声器材厂,颗粒物(PM10),62,73,62,34,30,33,,92,65,49,38,10,15,0.8,0.8
2023-11-21T2200,2368A,114.9658,27.0999,吉安市,市森林工业局,颗粒物(PM10),65,80,59,46,33,4,,87,59,71,38,12,16,0.9,0.5
2023-11-21T2200,2369A,114.99,27.1312,吉安市,市环境监测站,,,88,61,36,30,1,,52,44,77,36,,12,1.0,0.6
2023-11-21T2200,2370A,115.0093,27.0968,吉安市,青原区法院,颗粒物(PM10),58,66,54,32,28,11,,89,55,47,29,12,16,0.8,0.7
2023-11-21T2200,1772A,126.54,43.8622,吉林市,哈达湾,细颗粒物(PM2.5),124,137,70,94,46,9,,76,43,78,29,16,11,1.7,0.9
2023-11-21T2200,1773A,126.5844,43.8358,吉林市,东局子,细颗粒物(PM2.5),124,131,69,94,44,2,,69,30,67,30,10,8,1.5,0.8
2023-11-21T2200,1774A,126.5052,43.8245,吉林市,电力学院,细颗粒物(PM2.5),155,147,64,118,46,8,,74,42,60,25,12,11,1.8,0.8
2023-11-21T2200,1775A,126.6133,43.8972,吉林市,江北,细颗粒物(PM2.5),133,137,77,101,54,11,,72,30,74,34,11,14,1.8,0.9
2023-11-21T2200,1776A,126.555,43.8306,吉林市,江南公园,细颗粒物(PM2.5),139,139,65,106,52,4,,75,32,75,29,17,12,1.6,0.8
2023-11-21T2200,2868A,126.4739,43.953,吉林市,九站,细颗粒物(PM2.5),120,120,75,91,52,17,,75,32,46,28,19,9,1.3,0.9
2023-11-21T2200,1299A,116.9862,36.6114,济南市,科干所,颗粒物(PM10),76,102,90,54,45,122,,137,130,26,24,10,10,0.7,0.7
2023-11-21T2200,1300A,116.9376,36.665,济南市,农科所,颗粒物(PM10),73,95,100,51,43,98,,123,112,37,28,9,9,0.6,0.5
2023-11-21T2200,1301A,117.1265,36.6734,济南市,开发区,颗粒物(PM10),67,83,80,46,43,109,,127,99,31,32,10,9,0.7,0.7
2023-11-21T2200,1303A,117.0624,36.6868,济南市,省种子仓库,颗粒物(PM10),76,102,91,53,43,86,,134,118,47,32,10,10,0.8,0.6
2023-11-21T2200,1304A,116.9489,36.6447,济南市,机床二厂,细颗粒物(PM2.5),89,103,103,66,55,110,,129,116,37,34,12,10,0.8,0.8
2023-11-21T2200,1305A,117.0495,36.663,济南市,市监测站,颗粒物(PM10),72,93,84,51,43,115,,137,128,36,27,9,9,0.6,0.6
2023-11-21T2200,1306A,116.7675,36.5484,济南市,长清党校,细颗粒物(PM2.5),95,115,112,71,60,109,,135,129,30,22,11,11,1.0,0.9
2023-11-21T2200,1616A,117.6795,36.229,济南市,技术学院,细颗粒物(PM2.5),123,139,125,93,75,80,,124,108,61,48,11,13,1.1,1
2023-11-21T2200,1961A,117.532,36.6868,济南市,东山小学,细颗粒物(PM2.5),113,127,115,85,62,103,,132,113,38,32,12,11,0.9,0.8
2023-11-21T2200,3059A,117.7161,36.2049,济南市,泰兴公司,细颗粒物(PM2.5),138,153,132,105,76,41,,113,74,106,69,13,11,0.9,1
2023-11-21T2200,3064A,117.6867,36.2171,济南市,莱芜战役纪念馆,细颗粒物(PM2.5),119,139,120,90,76,70,,116,95,74,55,12,12,1.0,1
2023-11-21T2200,3494A,117.1673,36.9782,济南市,济阳区政府,细颗粒物(PM2.5),98,134,131,73,72,56,,116,98,68,55,8,9,0.7,0.9
2023-11-21T2200,3495A,117.1171,36.63,济南市,锦屏中学,"颗粒物(PM10),细颗粒物(PM2.5)",68,85,77,49,44,133,,141,127,18,16,8,8,0.6,0.6
2023-11-21T2200,3682A,116.9814,36.6819,济南市,济南四建,细颗粒物(PM2.5),83,102,84,61,47,91,,128,113,46,28,14,12,1.0,0.8
2023-11-21T2200,1653A,116.6251,35.4302,济宁市,火炬城,细颗粒物(PM2.5),94,96,118,70,83,60,,108,94,49,37,13,13,0.8,0.9
2023-11-21T2200,1655A,116.5491,35.4042,济宁市,电化厂,细颗粒物(PM2.5),89,117,142,66,80,84,,118,112,37,33,13,11,0.8,0.9
2023-11-21T2200,3500A,116.5814,35.3707,济宁市,北湖一中,细颗粒物(PM2.5),98,103,113,73,82,73,,114,107,41,34,16,12,0.8,0.8
2023-11-21T2200,3501A,116.8249,35.5593,济宁市,服务中心,细颗粒物(PM2.5),130,192,156,99,81,49,,103,82,61,46,11,13,0.8,1
2023-11-21T2200,3678A,116.5907,35.4054,济宁市,市第七中学,细颗粒物(PM2.5),89,89,111,66,82,80,,113,107,40,40,12,10,0.9,0.9
2023-11-21T2200,2255A,130.2751,46.8028,佳木斯市,佳纺,细颗粒物(PM2.5),69,66,46,50,33,21,,62,26,49,29,6,7,0.7,0.6
2023-11-21T2200,2256A,130.3995,46.8307,佳木斯市,发电厂,细颗粒物(PM2.5),62,48,34,44,32,34,,62,34,36,24,10,11,0.7,0.8
2023-11-21T2200,2257A,130.3258,46.7975,佳木斯市,环保局,细颗粒物(PM2.5),69,63,39,50,30,18,,64,23,48,28,6,7,0.7,0.7
2023-11-21T2200,2258A,130.3648,46.8032,佳木斯市,十一中,细颗粒物(PM2.5),64,58,39,46,30,21,,59,30,51,28,13,6,0.8,0.7
2023-11-21T2200,2259A,130.3794,46.7588,佳木斯市,四丰,,45,45,26,30,19,50,,69,55,16,13,1,2,0.6,0.6
2023-11-21T2200,1252A,120.7436,30.778,嘉兴市,清河小学,颗粒物(PM10),78,105,104,39,47,34,,120,85,90,60,8,9,0.5,0.6
2023-11-21T2200,1253A,120.726,30.7478,嘉兴市,嘉兴学院,颗粒物(PM10),63,76,97,40,55,67,,122,103,49,44,8,9,0.5,0.7
2023-11-21T2200,2872A,120.7846,30.7525,嘉兴市,南湖区残联,"颗粒物(PM10),细颗粒物(PM2.5)",59,67,91,42,55,59,,119,95,68,50,10,9,0.8,0.8
2023-11-21T2200,3407A,120.6916,30.7739,嘉兴市,秀洲住建,细颗粒物(PM2.5),54,50,83,38,61,53,,118,89,71,61,10,10,0.9,0.9
2023-11-21T2200,1945A,98.2908,39.7711,嘉峪关市,气象局,颗粒物(PM10),87,124,102,29,20,54,,88,78,31,17,4,17,0.4,0.4
2023-11-21T2200,2884A,98.2672,39.7978,嘉峪关市,酒钢宾馆,颗粒物(PM10),82,114,141,29,25,60,,87,81,28,23,8,29,0.4,0.5
2023-11-21T2200,3248A,98.2643,39.7724,嘉峪关市,雄关区,颗粒物(PM10),65,80,78,33,21,57,,88,78,27,19,7,14,1.0,0.4
2023-11-21T2200,1383A,113.1064,22.6058,江门市,北街,,35,35,87,21,53,92,,19,,28,67,7,10,0.6,0.8
2023-11-21T2200,1384A,113.0731,22.5835,江门市,西区,颗粒物(PM10),57,63,106,31,56,75,,200,163,48,78,8,11,0.5,0.8
2023-11-21T2200,1385A,113.0219,22.5311,江门市,圭峰西,,47,47,74,28,51,74,,195,160,37,41,4,6,0.5,0.7
2023-11-21T2200,1386A,113.0828,22.5947,江门市,东湖,颗粒物(PM10),53,56,105,30,59,78,,202,166,35,68,5,8,0.6,0.8
2023-11-21T2200,3311A,113.1075,22.5647,江门市,江海富民,颗粒物(PM10),65,80,115,37,54,86,,182,154,36,74,8,11,0.8,0.9
2023-11-21T2200,3449A,113.05,22.4667,江门市,新会银湖,,49,49,84,32,56,65,,175,134,43,57,8,9,0.6,0.7
2023-11-21T2200,1828A,113.227,35.2125,焦作市,市环保局,细颗粒物(PM2.5),188,196,166,141,122,29,,108,86,80,55,11,14,1.5,1.2
2023-11-21T2200,1830A,113.1992,35.2590,焦作市,影视城,细颗粒物(PM2.5),114,121,126,86,81,82,,80,80,24,30,11,11,1.2,1.2
2023-11-21T2200,3169A,113.2725,35.2067,焦作市,太极体育中心,细颗粒物(PM2.5),200,210,163,150,115,28,,108,90,87,57,23,15,1.4,1.1
2023-11-21T2200,3335A,113.3137,35.2641,焦作市,马村街道办,细颗粒物(PM2.5),214,223,168,164,129,21,,107,85,86,52,8,11,1.3,1
2023-11-21T2200,3336A,113.2465,35.2373,焦作市,焦作技师学院,细颗粒物(PM2.5),180,179,158,136,115,31,,103,88,72,50,12,16,1.5,1.1
2023-11-21T2200,3477A,113.1656,35.2539,焦作市,中站许衡医院,细颗粒物(PM2.5),122,134,142,92,95,56,,94,83,71,52,17,17,1.1,1
2023-11-21T2200,3981A,113.2449,35.1803,焦作市,原李万街道办,细颗粒物(PM2.5),211,250,175,161,126,34,,124,106,74,52,16,13,1.3,0.8
2023-11-21T2200,1708A,116.3701,23.5345,揭阳市,新兴,细颗粒物(PM2.5),62,72,64,44,40,62,,132,107,42,36,10,13,0.8,0.7
2023-11-21T2200,1709A,116.3264,23.5443,揭阳市,西马,细颗粒物(PM2.5),107,96,70,80,45,65,,136,116,30,34,8,12,0.8,0.7
2023-11-21T2200,1710A,116.3611,23.5626,揭阳市,东兴,颗粒物(PM10),68,85,64,42,33,64,,135,115,41,32,12,13,1.0,0.9
2023-11-21T2200,1711A,116.4151,23.5294,揭阳市,渔湖,颗粒物(PM10),72,93,65,49,34,65,,132,110,39,33,9,13,0.7,0.6
2023-11-21T2200,3320A,116.403,23.5699,揭阳市,曲溪,颗粒物(PM10),58,66,65,26,36,72,,139,116,36,32,5,11,0.7,0.6
2023-11-21T2200,1944A,102.1692,38.5167,金昌市,天庆家园,颗粒物(PM10),67,83,124,22,37,68,,86,83,24,30,7,26,1.1,0.8
2023-11-21T2200,3170A,102.1864,38.5253,金昌市,市委党校,颗粒物(PM10),89,127,156,29,47,76,,92,90,19,24,14,37,0.3,0.6
2023-11-21T2200,4022A,102.1647,38.5371,金昌市,金川区人防中心,颗粒物(PM10),64,77,176,13,35,79,,92,90,14,20,9,23,0.5,0.8
2023-11-21T2200,1262A,119.647,29.077,金华市,十五中,颗粒物(PM10),72,94,79,43,41,18,,108,56,72,61,5,6,0.7,0.8
2023-11-21T2200,1263A,119.686,29.1029,金华市,监测站,颗粒物(PM10),77,104,70,54,43,2,,98,50,98,63,7,7,1.3,0.9
2023-11-21T2200,3659A,119.656,29.1131,金华市,气象局,颗粒物(PM10),83,115,81,51,40,4,,100,51,96,64,4,4,1.1,0.7
2023-11-21T2200,1767A,121.1115,41.0879,锦州市,南山,细颗粒物(PM2.5),155,165,150,118,142,21,,56,25,56,67,14,18,1.0,1.1
2023-11-21T2200,1768A,121.0533,40.8434,锦州市,开发区,细颗粒物(PM2.5),94,,123,70,98,9,,50,32,78,62,6,86,1.0,1.2
2023-11-21T2200,1769A,121.1836,41.1119,锦州市,百股街道,细颗粒物(PM2.5),140,114,125,107,119,22,,64,27,53,57,14,18,1.4,1.4
2023-11-21T2200,1770A,121.1178,41.1222,锦州市,天安街道,细颗粒物(PM2.5),145,155,163,111,131,23,,58,27,54,67,14,17,1.2,1.8
2023-11-21T2200,1771A,121.1303,41.1386,锦州市,北湖公园,细颗粒物(PM2.5),165,142,133,125,146,24,,63,32,49,59,13,16,1.6,1.6
2023-11-21T2200,2160A,112.85,35.5051,晋城市,自来水公司,细颗粒物(PM2.5),117,132,134,88,89,9,,96,60,84,72,10,13,1.8,1.6
2023-11-21T2200,2161A,112.8318,35.4936,晋城市,白云商贸,细颗粒物(PM2.5),107,132,153,80,89,4,,93,48,84,59,8,9,1.5,1.8
2023-11-21T2200,2162A,112.8508,35.4887,晋城市,市环保局,细颗粒物(PM2.5),107,145,147,80,89,7,,97,64,101,73,12,13,2.1,1.9
2023-11-21T2200,2163A,112.8676,35.4897,晋城市,技术学院,细颗粒物(PM2.5),125,182,148,95,86,12,,101,70,112,76,12,13,2.2,1.8
2023-11-21T2200,3620A,112.8271,35.4828,晋城市,泽州一中,细颗粒物(PM2.5),94,110,143,70,83,34,,86,70,70,58,15,14,1.6,1.8
2023-11-21T2200,2171A,112.7532,37.6945,晋中市,锦纶小区,细颗粒物(PM2.5),147,173,134,112,86,18,,100,66,89,58,18,15,1.2,1.1
2023-11-21T2200,2173A,112.7249,37.7067,晋中市,南都小区,细颗粒物(PM2.5),140,192,153,107,78,3,,98,60,107,71,17,17,1.4,1.3
2023-11-21T2200,2174A,112.6991,37.6982,晋中市,榆次区政府,细颗粒物(PM2.5),139,218,146,106,79,6,,101,64,114,70,19,17,1.8,1.4
2023-11-21T2200,2865A,112.7195,37.6828,晋中市,榆次三中,细颗粒物(PM2.5),160,207,154,122,86,4,,97,60,100,66,22,20,1.5,1.3
2023-11-21T2200,2439A,112.2014,31.0481,荆门市,竹园小学,细颗粒物(PM2.5),108,126,126,81,88,42,,129,91,44,44,6,13,0.8,0.9
2023-11-21T2200,2440A,112.1969,30.9891,荆门市,掇刀,细颗粒物(PM2.5),100,113,123,75,89,7,,132,90,104,54,5,9,1.3,1
2023-11-21T2200,2441A,112.2213,31.0386,荆门市,石化一小,细颗粒物(PM2.5),118,143,141,89,90,6,,130,77,93,67,8,17,1.2,0.9
2023-11-21T2200,3012A,112.1849,31.0362,荆门市,西山林语,细颗粒物(PM2.5),70,81,102,51,73,70,,128,106,24,24,8,11,0.8,0.7
2023-11-21T2200,3547A,112.1632,31.0138,荆门市,龙泉中学南校,细颗粒物(PM2.5),84,95,115,62,80,106,,132,124,22,27,11,13,0.7,0.7
2023-11-21T2200,1844A,112.2494,30.3197,荆州市,市图书馆,颗粒物(PM10),76,101,103,55,59,58,,116,101,50,49,11,12,1.2,1.1
2023-11-21T2200,1845A,112.2008,30.3544,荆州市,市委党校,细颗粒物(PM2.5),89,94,100,66,72,75,,118,107,50,47,19,12,1.1,1.2
2023-11-21T2200,3194A,112.2747,30.3122,荆州市,管委会,细颗粒物(PM2.5),89,95,104,66,73,33,,124,104,84,60,12,14,1.2,1.1
2023-11-21T2200,3548A,112.1655,30.3364,荆州市,学苑路,细颗粒物(PM2.5),97,104,109,72,86,68,,122,105,37,27,18,11,1.0,0.9
2023-11-21T2200,2342A,117.3102,29.3867,景德镇市,王港中学,,37,37,28,25,17,22,,95,63,10,7,3,3,0.1,0.2
2023-11-21T2200,2343A,117.2117,29.2933,景德镇市,老干部活动中心,颗粒物(PM10),67,84,51,40,26,5,,75,56,46,25,10,12,0.6,0.5
2023-11-21T2200,2344A,117.1894,29.2789,景德镇市,兽医站,"颗粒物(PM10),细颗粒物(PM2.5)",58,66,41,41,24,16,,79,59,44,27,5,4,0.8,0.6
2023-11-21T2200,2345A,117.1547,29.2617,景德镇市,台达陶瓷,颗粒物(PM10),63,75,50,35,25,3,,60,22,61,37,12,11,0.8,0.6
2023-11-21T2200,2346A,117.2461,29.2956,景德镇市,陶研所,,50,50,39,17,17,17,,70,52,41,30,5,5,0.5,0.5
2023-11-21T2200,1803A,115.9872,29.6815,九江市,十里,颗粒物(PM10),78,105,61,51,28,7,,93,62,69,47,8,9,1.2,0.8
2023-11-21T2200,1804A,115.9584,29.7046,九江市,茅山头,颗粒物(PM10),61,71,65,40,34,5,,83,52,84,58,11,12,1.1,1
2023-11-21T2200,1805A,115.9877,29.7295,九江市,西园,颗粒物(PM10),73,96,80,47,39,8,,84,73,82,55,9,15,1.6,1
2023-11-21T2200,1806A,116.0172,29.6547,九江市,五七二七厂,,41,41,45,20,22,90,,115,110,11,17,12,13,0.6,0.6
2023-11-21T2200,1808A,115.9114,29.6038,九江市,综合工业园,颗粒物(PM10),55,60,57,38,30,43,,96,73,81,42,11,13,0.7,0.6
2023-11-21T2200,1809A,116.0721,29.7535,九江市,石化总厂,颗粒物(PM10),55,60,65,35,33,67,,106,94,29,29,12,15,0.6,0.6
2023-11-21T2200,1810A,115.9773,29.5698,九江市,庐山气象台,,30,6,9,4,8,94,,95,95,2,3,6,6,0.7,0.7
2023-11-21T2200,3190A,116.0254,29.6994,九江市,外国语学校,细颗粒物(PM2.5),60,60,55,43,35,9,,111,91,85,33,11,16,0.9,0.7
2023-11-21T2200,2658A,98.5061,39.7443,酒泉市,仓门街子站,颗粒物(PM10),112,173,154,42,31,32,,85,73,33,25,6,8,0.7,0.5
2023-11-21T2200,2659A,98.4989,39.7256,酒泉市,油田生活基地,颗粒物(PM10),123,195,151,36,31,37,,87,75,45,26,6,10,0.6,0.6
2023-11-21T2200,2698A,76.0072,39.4467,喀什地区,巡警大队,细颗粒物(PM2.5),149,232,211,114,64,10,,95,85,110,54,16,7,3.4,1.5
2023-11-21T2200,2699A,75.9755,39.4694,喀什地区,吾办,颗粒物(PM10),152,253,228,100,90,11,,83,73,107,70,8,7,3.4,1.9
2023-11-21T2200,4027A,75.9483,39.4689,喀什地区,老干局,颗粒物(PM10),420,520,274,165,111,14,,81,68,116,63,15,8,4.0,2.3
2023-11-21T2200,1824A,114.3389,34.7781,开封市,肿瘤医院,细颗粒物(PM2.5),120,131,135,91,100,50,,107,86,68,41,7,6,0.8,0.8
2023-11-21T2200,1826A,114.2885,34.7965,开封市,世纪星幼儿园,细颗粒物(PM2.5),99,97,120,74,95,86,,107,98,28,32,8,7,0.6,0.6
2023-11-21T2200,3147A,114.3438,34.8106,开封市,龙亭公园,细颗粒物(PM2.5),109,107,128,82,95,82,,115,97,40,38,7,7,0.8,0.7
2023-11-21T2200,3210A,114.3644,34.7964,开封市,汴京公园,细颗粒物(PM2.5),113,143,144,85,107,62,,111,,45,41,6,6,0.7,0.7
2023-11-21T2200,3473A,114.2485,34.8306,开封市,技师学院,细颗粒物(PM2.5),118,117,121,89,90,92,,118,113,23,24,10,7,0.5,0.5
2023-11-21T2200,3592A,114.4644,34.7556,开封市,祥符区生态环境局,细颗粒物(PM2.5),122,169,153,92,94,29,,108,83,93,54,7,6,0.7,0.8
2023-11-21T2200,1951A,84.895,45.6094,克拉玛依市,长征新村,,21,21,22,7,12,30,,40,35,16,21,10,10,0.3,0.4
2023-11-21T2200,1952A,84.8988,45.5893,克拉玛依市,南林小区,,22,22,24,15,19,31,,36,33,13,21,3,4,0.3,0.4
2023-11-21T2200,1954A,84.905,44.3396,克拉玛依市,独山子区,颗粒物(PM10),56,61,17,34,13,5,,44,12,35,24,5,5,0.6,0.4
2023-11-21T2200,1955A,85.6979,46.098,克拉玛依市,乌尔禾区商贸楼,,19,19,30,5,20,15,,43,32,31,20,6,6,0.4,0.5
2023-11-21T2200,3612A,85.1045,45.6899,克拉玛依市,白碱滩区新站,,26,,16,18,14,26,,40,37,22,21,8,8,0.1,0.1
2023-11-21T2200,2697A,76.1454,39.7142,克孜勒苏柯尔克孜自治州,市人民政府,颗粒物(PM10),98,146,150,51,60,60,,101,92,37,24,6,4,1.3,0.9
2023-11-21T2200,3665A,76.1658,39.7157,克孜勒苏柯尔克孜自治州,克州文化中心,颗粒物(PM10),103,155,153,50,55,52,,102,94,55,26,7,8,0.7,0.7
2023-11-21T2200,1450A,102.8204,24.8886,昆明市,呈贡新区,,48,48,27,18,18,44,,65,63,29,23,6,11,1.1,1
2023-11-21T2200,1451A,102.6251,24.9608,昆明市,西山森林公园,,21,19,16,10,12,67,,79,79,5,8,5,5,0.4,0.5
2023-11-21T2200,1452A,102.7252,25.0902,昆明市,龙泉镇,颗粒物(PM10),73,96,44,30,24,3,,62,42,55,33,11,9,1.1,0.7
2023-11-21T2200,1453A,102.7266,25.0375,昆明市,东风东路,,31,31,32,20,22,24,,64,57,44,30,9,12,0.8,0.9
2023-11-21T2200,1454A,102.6742,25.0669,昆明市,金鼎山,细颗粒物(PM2.5),74,71,44,54,25,13,,24,,60,34,4,6,1.3,0.8
2023-11-21T2200,1455A,102.6644,25.0401,昆明市,碧鸡广场,,39,39,36,25,26,20,,58,45,46,32,10,10,0.9,1
2023-11-21T2200,3179A,102.7494,25.0119,昆明市,官渡区博物馆,,29,29,44,18,28,10,,64,54,54,31,8,8,0.8,1
2023-11-21T2200,3375A,102.8017,24.8336,昆明市,青年创业园,,38,38,35,22,22,28,,75,68,44,28,13,16,1.1,0.9
2023-11-21T2200,3550A,102.7997,24.9786,昆明市,昆明学院,,32,32,46,20,28,50,,68,66,23,26,9,10,0.9,0.8
2023-11-21T2200,3551A,102.5967,24.6736,昆明市,晋宁区生态环境分局,,20,20,24,7,11,52,,70,67,14,17,2,2,0.6,0.6
2023-11-21T2200,3552A,102.6678,24.9856,昆明市,云天化总部,,20,20,39,11,21,52,,67,66,11,20,10,7,0.9,0.9
2023-11-21T2200,1456A,91.1319,29.6514,拉萨市,八廓街,,29,17,28,7,16,90,,110,101,7,23,9,10,0.2,0.9
2023-11-21T2200,1457A,91.1221,29.6747,拉萨市,市环保局,,29,13,47,12,26,90,,102,99,9,34,6,8,0.4,1.4
2023-11-21T2200,1458A,91.0874,29.6475,拉萨市,区监测站,,28,11,24,7,13,87,,102,99,10,36,8,9,0.5,0.9
2023-11-21T2200,1459A,91.1774,29.6541,拉萨市,西藏大学,,30,9,26,9,14,93,,105,102,7,21,8,9,0.5,0.9
2023-11-21T2200,1460A,90.9798,29.6588,拉萨市,区辐射站,,31,13,42,7,21,98,,97,97,2,42,5,7,0.3,0.8
2023-11-21T2200,1461A,91.0834,29.6292,拉萨市,拉萨火车站,,28,14,23,6,12,89,,101,99,9,28,5,6,0.4,0.7
2023-11-21T2200,2520A,109.2203,23.7256,来宾市,来宾技工学校,细颗粒物(PM2.5),95,108,95,71,57,72,,140,123,43,29,20,21,0.9,0.7
2023-11-21T2200,3535A,109.1781,23.7297,来宾市,兴宾区政府,细颗粒物(PM2.5),93,109,77,69,47,123,,152,147,22,18,40,15,0.8,0.7
2023-11-21T2200,4002A,109.2416,23.7461,来宾市,中南小学,细颗粒物(PM2.5),89,104,84,66,50,35,,139,116,92,39,19,13,1.0,0.7
2023-11-21T2200,1476A,103.631,36.1031,兰州市,兰炼宾馆,颗粒物(PM10),101,151,115,46,51,12,,53,50,79,61,9,26,1.1,1.2
2023-11-21T2200,1478A,103.8412,36.0726,兰州市,生物制品所,颗粒物(PM10),115,180,101,65,56,13,,61,58,73,57,8,20,0.6,1.1
2023-11-21T2200,1479A,103.831,36.0464,兰州市,铁路设计院,颗粒物(PM10),123,195,107,60,58,21,,53,50,85,70,29,27,0.7,1.6
2023-11-21T2200,3186A,103.7158,36.1058,兰州市,教育港,颗粒物(PM10),131,211,101,48,46,19,,54,54,68,58,11,26,0.7,1.2
2023-11-21T2200,3241A,103.7439,36.0842,兰州市,百合公园,颗粒物(PM10),95,139,103,47,44,6,,55,53,93,63,11,21,1.0,1.2
2023-11-21T2200,3242A,103.9611,35.998,兰州市,和平,颗粒物(PM10),93,136,97,47,53,42,,58,51,50,62,8,20,0.6,1.1
2023-11-21T2200,3245A,103.6633,36.533,兰州新区,新区管委会,颗粒物(PM10),140,229,95,50,40,54,,75,72,24,29,10,17,0.4,0.7
2023-11-21T2200,3246A,103.6975,36.4789,兰州新区,舟曲中学,颗粒物(PM10),100,149,103,60,47,52,,76,74,33,38,24,13,0.3,0.5
2023-11-21T2200,1067A,116.6708,39.5111,廊坊市,药材公司,细颗粒物(PM2.5),254,310,266,204,148,0,,25,16,97,103,4,8,1.8,1.5
2023-11-21T2200,1068A,116.7214,39.5589,廊坊市,开发区,细颗粒物(PM2.5),230,247,202,180,142,0,,23,16,97,93,3,6,1.4,1.1
2023-11-21T2200,1070A,116.7244,39.5269,廊坊市,北华航天学院,细颗粒物(PM2.5),251,272,225,201,150,1,,19,10,93,94,8,10,1.8,1.3
2023-11-21T2200,2919A,116.7022,39.5453,廊坊市,河北工业大学,细颗粒物(PM2.5),261,272,221,211,147,0,,24,17,92,86,8,12,1.3,1.1
2023-11-21T2200,2535A,103.7723,29.5462,乐山市,花湖湾,细颗粒物(PM2.5),114,152,118,86,76,30,,59,53,33,33,4,2,0.9,0.9
2023-11-21T2200,2536A,103.7627,29.5844,乐山市,牛耳桥,细颗粒物(PM2.5),118,120,99,89,77,20,,56,44,47,43,6,5,0.9,0.9
2023-11-21T2200,2537A,103.7508,29.6006,乐山市,市第三水厂,细颗粒物(PM2.5),99,128,103,74,62,16,,66,51,53,40,7,6,1.3,1.2
2023-11-21T2200,2538A,103.7571,29.5664,乐山市,市监测站,细颗粒物(PM2.5),83,111,93,61,60,26,,61,53,33,30,6,5,1.1,1.1
2023-11-21T2200,3361A,103.7311,29.5628,乐山市,理工大学,细颗粒物(PM2.5),92,117,99,68,62,11,,53,43,52,38,8,6,0.9,0.9
2023-11-21T2200,2598A,100.2143,26.8576,丽江市,西南郊,,20,12,14,4,6,64,,63,63,3,9,4,4,0.6,0.7
2023-11-21T2200,2599A,100.2497,26.8802,丽江市,丽江古城,,32,32,33,18,18,48,,51,49,20,20,8,9,0.8,0.8
2023-11-21T2200,2600A,100.2203,26.8906,丽江市,市中心,,19,19,17,4,7,41,,50,48,17,13,7,6,0.5,0.5
2023-11-21T2200,1267A,119.914,28.4514,丽水市,监测站大楼,细颗粒物(PM2.5),55,51,52,39,27,6,,87,48,63,45,8,8,0.6,0.6
2023-11-21T2200,1268A,119.93,28.4586,丽水市,莲都小学,颗粒物(PM10),57,63,55,28,26,6,,94,60,65,44,6,6,0.6,0.5
2023-11-21T2200,1269A,119.879,28.4231,丽水市,余庄前,,42,34,56,29,45,8,,91,57,30,26,5,5,0.4,0.4
2023-11-21T2200,1173A,119.176,34.5885,连云港市,市环境监测站,细颗粒物(PM2.5),160,163,103,122,66,96,,130,121,35,29,14,11,0.8,0.7
2023-11-21T2200,3000A,119.3581,34.6972,连云港市,德源药业,细颗粒物(PM2.5),107,127,105,80,62,92,,134,124,50,34,10,8,0.9,0.8
2023-11-21T2200,3007A,119.178,34.844,连云港市,新城一中,细颗粒物(PM2.5),119,120,105,90,65,113,,108,67,45,56,10,10,0.8,0.8
2023-11-21T2200,3008A,119.3608,34.7519,连云港市,胡沟管理处,细颗粒物(PM2.5),94,95,84,70,54,132,,144,143,27,26,13,11,1.3,1.3
2023-11-21T2200,3009A,119.1478,34.5911,连云港市,矿山设计院,细颗粒物(PM2.5),163,173,108,124,61,92,,127,119,38,32,11,7,0.7,0.6
2023-11-21T2200,3434A,119.2413,34.6539,连云港市,工贸学校,细颗粒物(PM2.5),118,133,110,89,66,143,,155,154,21,22,15,12,0.8,0.8
2023-11-21T2200,3664A,119.4172,34.7341,连云港市,连云街道,细颗粒物(PM2.5),104,123,107,78,65,148,,154,154,20,27,10,9,0.6,0.6
2023-11-21T2200,2571A,102.3431,27.8099,凉山彝族自治州,青龙寺,细颗粒物(PM2.5),63,,35,45,34,37,,51,49,12,13,7,10,1.0,1
2023-11-21T2200,2572A,102.2721,27.8415,凉山彝族自治州,邛海宾馆,,48,39,36,33,29,30,,62,57,25,19,11,13,0.8,0.9
2023-11-21T2200,2573A,102.2625,27.898,凉山彝族自治州,西昌市政府,细颗粒物(PM2.5),52,43,41,36,34,49,,64,64,12,16,12,12,1.0,1.1
2023-11-21T2200,2574A,102.2685,27.8851,凉山彝族自治州,凉山州政府,细颗粒物(PM2.5),72,67,42,52,33,36,,61,59,21,19,12,12,0.9,0.9
2023-11-21T2200,2575A,102.237,27.8914,凉山彝族自治州,长安,,46,41,43,32,31,39,,61,60,22,23,16,17,1.0,0.9
2023-11-21T2200,2212A,123.2,41.1953,辽阳市,宏伟区,细颗粒物(PM2.5),55,45,45,39,36,89,,86,77,11,14,10,11,0.4,0.3
2023-11-21T2200,2213A,123.1683,41.2495,辽阳市,新华园,细颗粒物(PM2.5),57,,52,40,43,82,,79,69,13,18,9,12,0.4,0.4
2023-11-21T2200,2214A,123.2354,41.2639,辽阳市,滨河路,细颗粒物(PM2.5),62,,42,44,36,77,,74,64,11,17,18,11,0.7,0.7
2023-11-21T2200,2215A,123.149,41.2991,辽阳市,铁西工业园,细颗粒物(PM2.5),60,57,75,43,49,89,,90,82,14,22,10,14,0.6,0.7
2023-11-21T2200,2227A,125.1358,42.8845,辽源市,环保局,细颗粒物(PM2.5),133,125,48,101,34,14,,87,36,51,29,12,12,1.6,1
2023-11-21T2200,3239A,125.0764,42.9078,辽源市,银鹰制药,细颗粒物(PM2.5),140,136,51,107,36,9,,80,34,61,28,12,9,1.9,0.9
2023-11-21T2200,1625A,115.9848,36.4372,聊城市,区政府,细颗粒物(PM2.5),117,150,157,88,90,74,,114,104,42,32,6,7,0.9,0.8
2023-11-21T2200,2878A,116.0072,36.4343,聊城市,聊大东校,细颗粒物(PM2.5),119,133,148,90,93,71,,123,112,46,27,7,8,0.7,0.8
2023-11-21T2200,3200A,115.9819,36.4978,聊城市,监控中心,细颗粒物(PM2.5),119,145,153,90,94,68,,114,89,52,38,5,7,0.8,0.8
2023-11-21T2200,3513A,116.0445,36.4361,聊城市,九州社区,细颗粒物(PM2.5),107,133,142,80,82,79,,122,110,35,23,6,7,0.8,0.8
2023-11-21T2200,4018A,116.0567,36.4608,聊城市,星美广场,细颗粒物(PM2.5),100,124,132,75,82,81,,112,102,34,30,7,8,1.0,1
2023-11-21T2200,2632A,94.3681,29.6376,林芝市,林芝监测站,,23,5,10,2,3,71,,77,77,2,5,6,6,0.3,0.3
2023-11-21T2200,2633A,94.3616,29.6616,林芝市,林芝人民医院,,23,8,14,4,6,73,,78,78,3,8,7,7,0.2,0.2
2023-11-21T2200,2603A,100.0781,23.8982,临沧市,市环保局,,40,36,21,28,16,26,,66,55,16,10,6,6,0.5,0.4
2023-11-21T2200,2604A,100.0894,23.8822,临沧市,市气象局,,43,31,23,30,20,26,,66,54,15,13,7,5,0.5,0.5
2023-11-21T2200,1733A,111.5531,36.0783,临汾市,临钢医院,细颗粒物(PM2.5),192,240,171,144,93,3,,47,31,84,60,8,9,2.1,1.5
2023-11-21T2200,1734A,111.5028,36.0714,临汾市,技工学校,细颗粒物(PM2.5),211,259,170,161,107,6,,70,53,113,73,13,15,2.8,1.7
2023-11-21T2200,1736A,111.5018,36.0855,临汾市,市委,,,,171,,97,,,75,75,110,70,16,15,2.4,1.3
2023-11-21T2200,3018A,111.505,36.1014,临汾市,唐尧大酒店,细颗粒物(PM2.5),212,234,161,162,99,3,,65,49,101,65,15,14,2.3,1.5
2023-11-21T2200,3668A,111.5036,36.0414,临汾市,城南,细颗粒物(PM2.5),221,274,194,171,120,2,,52,43,113,70,10,10,2.3,1.7
2023-11-21T2200,2667A,103.2069,35.5993,临夏回族自治州,环保局,颗粒物(PM10),57,64,53,28,30,26,,49,48,51,46,17,14,1.3,1.6
2023-11-21T2200,2668A,103.2417,35.6057,临夏回族自治州,建设大厦,颗粒物(PM10),71,92,53,29,24,44,,69,62,64,41,14,11,1.8,1.2
2023-11-21T2200,1618A,118.3429,35.0532,临沂市,沂河小区,细颗粒物(PM2.5),130,132,116,99,83,102,,121,117,40,42,12,9,,0.7
2023-11-21T2200,1619A,118.295,35.0583,临沂市,鲁南制药厂,细颗粒物(PM2.5),135,141,126,103,89,107,,120,117,42,47,21,17,0.5,0.6
2023-11-21T2200,1620A,118.2794,34.9976,临沂市,新光毛纺厂,细颗粒物(PM2.5),127,144,118,96,80,91,,116,110,55,53,19,16,1.0,0.9
2023-11-21T2200,1621A,118.3956,35.0888,临沂市,河东保险公司,细颗粒物(PM2.5),149,168,112,114,67,24,,106,85,101,51,11,8,1.0,0.7
2023-11-21T2200,3370A,118.3564,35.0215,临沂市,十里堡居委,细颗粒物(PM2.5),122,136,113,92,75,95,,121,114,44,44,8,12,1.1,1.1
2023-11-21T2200,3496A,118.3604,35.1084,临沂市,南坊新区,细颗粒物(PM2.5),147,173,112,112,75,48,,114,103,94,46,27,13,1.4,1.1
2023-11-21T2200,3860A,118.3920,35.0300,临沂市,皇山花园小区,细颗粒物(PM2.5),123,139,113,93,73,88,,120,113,46,35,33,13,0.7,0.7
2023-11-21T2200,1870A,109.4856,24.3895,柳州市,柳东小学,细颗粒物(PM2.5),74,68,59,54,44,127,,150,147,10,22,15,18,0.6,0.6
2023-11-21T2200,1871A,109.4157,24.3277,柳州市,环保监测站,细颗粒物(PM2.5),82,96,92,60,57,74,,129,113,49,43,9,14,0.7,0.8
2023-11-21T2200,1872A,109.389,24.341,柳州市,河西水厂,颗粒物(PM10),81,111,108,50,52,91,,136,124,40,40,12,19,1.1,1.2
2023-11-21T2200,1873A,109.4311,24.2921,柳州市,市四中,细颗粒物(PM2.5),68,81,81,49,47,73,,132,111,53,45,8,12,0.9,0.9
2023-11-21T2200,1874A,109.4006,24.3631,柳州市,市九中,细颗粒物(PM2.5),83,110,95,61,53,22,,124,95,83,43,6,10,1.4,1.1
2023-11-21T2200,1875A,109.4958,24.3134,柳州市,古亭山,"颗粒物(PM10),细颗粒物(PM2.5)",58,66,59,41,39,28,,124,97,60,39,8,14,0.9,0.7
2023-11-21T2200,3402A,109.5422,24.3996,柳州市,市二中,颗粒物(PM10),67,83,66,44,28,9,,145,106,86,35,8,15,0.7,0.5
2023-11-21T2200,2307A,116.5079,31.737,六安市,监测大楼,,50,50,67,33,39,52,,85,80,43,35,5,5,0.5,0.6
2023-11-21T2200,2308A,116.4738,31.7643,六安市,皖西学院,颗粒物(PM10),56,61,67,28,32,50,,88,80,42,31,6,6,0.5,0.5
2023-11-21T2200,2309A,116.4996,31.7905,六安市,朝阳厂,,48,48,59,18,36,64,,85,80,38,35,8,8,0.5,0.6
2023-11-21T2200,2310A,116.5567,31.7886,六安市,开发区,颗粒物(PM10),91,131,113,57,52,54,,86,75,38,39,14,10,0.8,0.8
2023-11-21T2200,2576A,104.8,26.5892,六盘水市,窑上,,,56,48,53,35,,,79,78,8,8,3,4,0.6,0.7
2023-11-21T2200,2577A,104.83,26.5917,六盘水市,黄土坡,颗粒物(PM10),52,53,44,33,28,45,,74,71,27,15,8,8,0.6,0.5
2023-11-21T2200,2578A,104.89,26.5939,六盘水市,水钢,颗粒物(PM10),57,64,52,32,33,59,,78,77,28,15,9,7,0.6,0.5
2023-11-21T2200,2579A,104.8475,26.5894,六盘水市,民中,细颗粒物(PM2.5),64,57,42,46,31,51,,84,80,36,16,14,8,1.0,0.6
2023-11-21T2200,2580A,104.9544,26.5506,六盘水市,双水,,50,39,35,35,32,75,,88,83,13,10,7,7,0.5,0.5
2023-11-21T2200,2336A,117.0217,25.1033,龙岩市,龙岩市监测站,颗粒物(PM10),51,52,42,22,22,21,,108,63,68,41,8,10,0.7,0.6
2023-11-21T2200,2337A,117.0258,25.0661,龙岩市,闽西职业技术学院,颗粒物(PM10),54,58,54,26,23,6,,96,55,66,40,12,14,0.6,0.7
2023-11-21T2200,2338A,117.0196,25.0306,龙岩市,龙岩学院,,45,45,47,21,24,39,,89,69,23,26,4,6,0.5,0.5
2023-11-21T2200,2885A,104.9339,33.3826,陇南市,滨江中学,颗粒物(PM10),96,141,77,55,36,6,,62,37,66,31,18,9,2.5,1.1
2023-11-21T2200,3247A,104.955,33.371,陇南市,市总工会,细颗粒物(PM2.5),63,72,64,45,36,31,,67,47,47,34,8,7,0.7,0.5
2023-11-21T2200,2487A,111.9589,27.8901,娄底市,电视发射台,,47,47,55,28,29,52,,72,66,25,28,6,13,1.0,1.3
2023-11-21T2200,2488A,111.9975,27.725,娄底市,市监测站,细颗粒物(PM2.5),112,132,94,84,59,10,,113,84,88,46,12,14,1.4,1.3
2023-11-21T2200,2489A,112.0194,27.7314,娄底市,市委党校,细颗粒物(PM2.5),84,114,76,62,48,9,,92,65,68,39,5,6,1.2,1
2023-11-21T2200,2490A,111.9561,27.7569,娄底市,涟钢,细颗粒物(PM2.5),95,135,109,71,61,8,,72,55,59,49,10,27,1.8,2.1
2023-11-21T2200,2491A,111.9892,27.7044,娄底市,市政府,细颗粒物(PM2.5),125,140,77,95,52,2,,108,71,65,28,10,11,1.2,0.8
2023-11-21T2200,1893A,105.4324,28.9634,泸州市,九狮山,细颗粒物(PM2.5),108,110,97,81,65,33,,54,45,25,22,5,8,0.5,0.5
2023-11-21T2200,1894A,105.4427,28.9063,泸州市,小市上码头,细颗粒物(PM2.5),140,154,128,107,85,29,,53,47,32,27,8,10,0.8,0.7
2023-11-21T2200,1895A,105.4241,28.8573,泸州市,兰田宪桥,细颗粒物(PM2.5),149,165,133,114,89,30,,50,44,27,23,7,8,0.9,0.7
2023-11-21T2200,1896A,105.4379,28.8833,泸州市,市环监站,细颗粒物(PM2.5),122,142,120,92,79,29,,42,38,28,27,5,7,0.7,0.6
2023-11-21T2200,3490A,105.3617,28.7703,泸州市,纳溪区环保局,细颗粒物(PM2.5),122,140,120,92,87,41,,58,55,31,30,7,10,0.8,0.8
2023-11-21T2200,2183A,111.1406,37.5211,吕梁市,环保局,颗粒物(PM10),116,181,114,66,55,2,,57,31,90,66,8,8,0.8,0.8
2023-11-21T2200,2185A,111.1297,37.5136,吕梁市,自来水公司,颗粒物(PM10),117,184,138,70,56,6,,52,35,75,55,18,14,1.1,1
2023-11-21T2200,2867A,111.1283,37.51,吕梁市,马茂庄小学,颗粒物(PM10),117,184,141,84,64,3,,51,30,92,62,11,17,0.8,0.8
2023-11-21T2200,1812A,112.3931,34.6516,洛阳市,市委党校,细颗粒物(PM2.5),159,157,169,121,126,52,,62,55,53,63,10,9,1.1,1.1
2023-11-21T2200,1814A,112.4657,34.6871,洛阳市,豫西宾馆,细颗粒物(PM2.5),159,210,199,121,119,2,,81,49,109,70,10,13,1.4,1.4
2023-11-21T2200,1815A,112.494,34.6886,洛阳市,河南林校,细颗粒物(PM2.5),140,166,155,107,106,8,,84,53,104,62,8,7,1.4,1
2023-11-21T2200,1816A,112.3844,34.623,洛阳市,开发区管委会,细颗粒物(PM2.5),130,146,144,99,101,41,,100,83,52,46,6,6,0.9,0.9
2023-11-21T2200,1817A,112.4267,34.6258,洛阳市,市委新办公区,细颗粒物(PM2.5),152,156,153,116,113,56,,89,77,48,52,6,5,1.0,1
2023-11-21T2200,3340A,112.6005,34.6326,洛阳市,伊滨,细颗粒物(PM2.5),160,225,184,122,115,6,,77,45,88,58,4,7,1.3,1
2023-11-21T2200,3341A,112.4951,34.6332,洛阳市,中移产业园,细颗粒物(PM2.5),148,150,149,113,112,75,,89,75,36,53,12,10,1.1,1.1
2023-11-21T2200,3593A,112.5736,34.8993,洛阳市,吉利监测站,细颗粒物(PM2.5),182,203,150,137,121,2,,77,45,96,66,5,7,1.0,0.9
2023-11-21T2200,3635A,112.3677,34.662,洛阳市,河科大西苑校区,细颗粒物(PM2.5),180,201,184,136,124,10,,80,60,98,72,10,10,1.3,1
2023-11-21T2200,3636A,112.4388,34.6781,洛阳市,英才小学,细颗粒物(PM2.5),158,195,199,120,130,3,,79,47,111,73,9,14,1.3,1.3
2023-11-21T2200,2399A,114.051,33.5699,漯河市,三五一五工厂,细颗粒物(PM2.5),110,154,106,83,69,11,,119,69,110,55,10,9,1.4,0.9
2023-11-21T2200,2400A,114.0055,33.5698,漯河市,漯河大学,细颗粒物(PM2.5),98,133,103,73,57,10,,124,90,117,49,5,4,0.9,0.7
2023-11-21T2200,2401A,114.0138,33.5828,漯河市,市水利局,细颗粒物(PM2.5),99,119,99,74,57,11,,120,84,94,41,10,10,1.2,0.8
2023-11-21T2200,2402A,114.0261,33.5698,漯河市,市广电局,细颗粒物(PM2.5),97,120,98,72,62,30,,124,85,75,43,7,6,1.1,0.7
2023-11-21T2200,3478A,113.9749,33.5664,漯河市,市图书馆,细颗粒物(PM2.5),99,107,107,74,60,72,,127,113,43,32,9,8,0.8,0.7
2023-11-21T2200,3479A,114.0967,33.5906,漯河市,召陵区卫健委,颗粒物(PM10),80,110,99,52,58,64,,121,100,47,38,10,8,0.9,0.7
2023-11-21T2200,1798A,118.5092,31.6837,马鞍山市,湖东路四小,细颗粒物(PM2.5),79,73,78,58,54,56,,83,69,63,51,17,14,0.8,1
2023-11-21T2200,1799A,118.5024,31.6449,马鞍山市,开发区,细颗粒物(PM2.5),109,96,92,82,68,13,,84,52,99,60,17,15,0.9,1.1
2023-11-21T2200,1800A,118.5228,31.7231,马鞍山市,慈湖,细颗粒物(PM2.5),62,52,83,44,63,67,,84,75,58,57,9,12,0.6,0.9
2023-11-21T2200,1802A,118.6245,31.7241,马鞍山市,濮塘,,39,39,76,23,40,102,,101,101,10,26,5,10,0.4,0.6
2023-11-21T2200,3633A,118.4918,31.6809,马鞍山市,雨山,细颗粒物(PM2.5),84,80,98,62,62,68,,87,80,53,44,18,15,0.8,1
2023-11-21T2200,1686A,111.0286,21.4688,茂名市,电白南海,,,66,75,,37,,,144,134,,23,,11,,0.7
2023-11-21T2200,1687A,110.9294,21.6533,茂名市,茂石化七小,颗粒物(PM10),57,63,82,29,41,91,,129,111,21,24,9,20,0.6,0.7
2023-11-21T2200,1688A,110.9107,21.6687,茂名市,健康路,颗粒物(PM10),54,58,69,27,38,98,,140,119,20,22,9,16,0.5,0.6
2023-11-21T2200,1689A,110.8592,21.6828,茂名市,高岭,,49,46,80,34,49,106,,143,118,21,26,19,18,0.7,0.8
2023-11-21T2200,3450A,111.01,21.5165,茂名市,电白水东,,48,48,66,24,30,105,,135,128,16,20,15,13,0.3,0.4
2023-11-21T2200,2539A,104.0308,30.0478,眉山市,黑龙滩水库,细颗粒物(PM2.5),144,,,110,81,0,,32,26,30,28,10,13,0.9,0.8
2023-11-21T2200,2540A,103.8416,30.0874,眉山市,气象局,细颗粒物(PM2.5),160,123,133,122,111,4,,10,9,58,50,16,20,1.2,1.1
2023-11-21T2200,3137A,103.8578,30.0744,眉山市,市委党校,细颗粒物(PM2.5),160,168,145,122,106,2,,14,12,69,53,14,15,1.1,1
2023-11-21T2200,3148A,103.8291,30.0564,眉山市,区人社局,细颗粒物(PM2.5),149,149,125,114,109,5,,17,12,58,54,17,17,1.0,1.1
2023-11-21T2200,1690A,116.1231,24.3284,梅州市,梅江月梅,,50,50,43,34,23,10,,114,76,64,31,8,13,0.6,0.6
2023-11-21T2200,1691A,116.0797,24.2719,梅州市,梅县新城,颗粒物(PM10),58,66,49,37,30,25,,104,67,52,32,8,11,0.9,0.8
2023-11-21T2200,1692A,116.1248,24.2654,梅州市,环境监控中心,颗粒物(PM10),54,58,46,34,27,5,,100,66,70,38,12,17,0.8,0.7
2023-11-21T2200,3315A,116.1233,24.2991,梅州市,梅龙,颗粒物(PM10),53,56,43,30,24,33,,100,74,34,26,6,8,0.7,0.6
2023-11-21T2200,1878A,104.7778,31.4741,绵阳市,富乐山,细颗粒物(PM2.5),112,117,120,84,86,3,,43,35,63,46,7,8,0.9,0.9
2023-11-21T2200,1879A,104.7563,31.4535,绵阳市,市人大,细颗粒物(PM2.5),140,143,136,107,94,3,,29,21,70,54,8,8,1.4,1.1
2023-11-21T2200,1880A,104.6697,31.4668,绵阳市,高新区自来水公司,细颗粒物(PM2.5),128,154,154,97,83,2,,42,28,60,48,9,10,0.8,0.7
2023-11-21T2200,1881A,104.7287,31.5075,绵阳市,三水厂,细颗粒物(PM2.5),155,161,148,118,100,1,,30,22,56,53,6,6,1.2,1
2023-11-21T2200,3491A,104.69,31.5322,绵阳市,西科大附属小学,细颗粒物(PM2.5),109,112,120,82,86,15,,55,41,52,41,8,9,0.8,0.8
2023-11-21T2200,3492A,104.5648,31.5343,绵阳市,安州区旅游局,细颗粒物(PM2.5),135,165,134,103,90,2,,60,43,55,38,10,12,1.4,1.2
2023-11-21T2200,1784A,129.61,44.561,牡丹江市,环保大楼,细颗粒物(PM2.5),137,124,47,104,29,9,,67,28,88,43,16,11,2.0,0.6
2023-11-21T2200,1785A,129.6115,44.5782,牡丹江市,文化广场,细颗粒物(PM2.5),125,120,55,95,44,7,,54,10,77,50,15,14,2.1,0.9
2023-11-21T2200,1786A,129.5904,44.5963,牡丹江市,第一医院,颗粒物(PM10),77,103,58,52,44,4,,44,8,60,52,11,10,1.3,0.8
2023-11-21T2200,1787A,129.6364,44.6075,牡丹江市,机车工厂,细颗粒物(PM2.5),128,,49,97,58,5,,36,7,58,59,28,13,1.2,0.6
2023-11-21T2200,1788A,129.6386,44.5462,牡丹江市,第一中学,细颗粒物(PM2.5),67,74,40,48,27,21,,74,32,50,33,8,10,0.7,0.5
2023-11-21T2200,2531A,105.0703,29.61,内江市,市监测站,细颗粒物(PM2.5),140,110,97,107,88,25,,35,33,39,38,5,6,0.7,0.7
2023-11-21T2200,2532A,105.0717,29.5947,内江市,东兴区政府,细颗粒物(PM2.5),129,118,100,98,77,28,,39,37,36,35,9,10,0.6,0.6
2023-11-21T2200,2533A,105.0653,29.5817,内江市,内江二中,细颗粒物(PM2.5),156,127,100,119,97,21,,36,33,47,44,9,9,0.8,0.7
2023-11-21T2200,2534A,105.0406,29.5822,内江市,内江日报社,细颗粒物(PM2.5),130,137,103,99,80,26,,41,38,40,39,4,7,0.8,0.7
2023-11-21T2200,1290A,115.8931,28.6843,南昌市,省外办,细颗粒物(PM2.5),110,145,99,83,45,6,,58,39,94,67,9,10,1.3,0.6
2023-11-21T2200,1291A,115.8886,28.7003,南昌市,省林业公司,颗粒物(PM10),87,124,83,58,37,3,,66,47,102,71,9,10,1.2,0.7
2023-11-21T2200,1292A,115.8126,28.7442,南昌市,林科所,颗粒物(PM10),54,58,59,31,28,13,,82,58,92,49,14,12,0.5,0.6
2023-11-21T2200,1294A,115.8518,28.687,南昌市,建工学校,颗粒物(PM10),100,150,88,74,40,4,,64,47,92,61,14,14,1.6,0.9
2023-11-21T2200,1295A,115.8921,28.6424,南昌市,象湖,颗粒物(PM10),104,158,91,64,44,2,,65,40,103,64,8,10,2.8,1.3
2023-11-21T2200,1296A,115.7423,28.7996,南昌市,武术学校,,33,33,24,10,14,23,,92,69,7,7,6,6,0.2,0.2
2023-11-21T2200,1298A,115.9314,28.6842,南昌市,省站,颗粒物(PM10),122,193,116,74,44,5,,74,51,81,55,8,9,1.4,0.8
2023-11-21T2200,3046A,115.9084,28.6062,南昌市,机电学校,颗粒物(PM10),88,125,107,46,44,4,,83,51,94,60,8,9,1.3,1.1
2023-11-21T2200,3690A,115.9721,28.7031,南昌市,外国语学校,颗粒物(PM10),80,109,86,41,39,2,,80,50,73,51,9,10,1.3,1
2023-11-21T2200,1905A,106.056,30.8064,南充市,西山风景区,细颗粒物(PM2.5),82,74,68,60,54,32,,71,17,29,28,5,6,0.6,0.6
2023-11-21T2200,1906A,106.0789,30.8023,南充市,南充市委,细颗粒物(PM2.5),108,121,103,81,66,4,,13,10,55,46,6,7,1.1,0.8
2023-11-21T2200,1907A,106.1031,30.8217,南充市,南充炼油厂,细颗粒物(PM2.5),108,138,105,81,65,1,,14,10,53,43,7,8,1.1,0.8
2023-11-21T2200,1908A,106.1064,30.7856,南充市,高坪区监测站,细颗粒物(PM2.5),113,117,100,85,65,4,,21,16,52,44,7,10,1.0,0.7
2023-11-21T2200,1909A,106.0642,30.7636,南充市,嘉陵区环保局,细颗粒物(PM2.5),98,99,98,73,61,2,,10,7,50,53,5,9,0.9,0.9
2023-11-21T2200,1910A,106.1087,30.8388,南充市,市环境监测站,细颗粒物(PM2.5),92,112,91,68,61,4,,22,13,50,36,6,9,0.8,0.6
2023-11-21T2200,1151A,118.8086,32.1065,南京市,迈皋桥,颗粒物(PM10),71,91,90,48,50,3,,104,63,100,61,5,5,0.8,0.7
2023-11-21T2200,1152A,118.7538,32.0551,南京市,草场门,细颗粒物(PM2.5),110,129,95,83,53,60,,87,67,80,73,8,7,0.7,0.7
2023-11-21T2200,1153A,118.7794,32.0745,南京市,山西路,细颗粒物(PM2.5),134,136,99,102,63,83,,109,97,49,39,10,9,0.8,0.7
2023-11-21T2200,1154A,118.7752,32.0023,南京市,中华门,细颗粒物(PM2.5),122,139,98,92,60,59,,95,79,74,56,5,5,0.8,1
2023-11-21T2200,1155A,118.8109,32.0309,南京市,瑞金路,细颗粒物(PM2.5),79,90,97,58,52,9,,89,44,114,74,11,12,1.3,0.9
2023-11-21T2200,1156A,118.7997,32.0754,南京市,玄武湖,细颗粒物(PM2.5),110,100,81,83,53,70,,98,83,50,45,10,9,0.7,0.7
2023-11-21T2200,1157A,118.6414,32.0931,南京市,浦口,细颗粒物(PM2.5),65,76,99,47,52,21,,83,57,96,56,8,12,1.1,1
2023-11-21T2200,1158A,118.7356,31.9996,南京市,奥体中心,颗粒物(PM10),70,90,95,48,54,11,,99,73,110,65,6,7,0.7,0.5
2023-11-21T2200,1159A,118.9125,32.1028,南京市,仙林大学城,细颗粒物(PM2.5),138,134,97,105,65,85,,112,104,54,47,6,7,1.1,0.9
2023-11-21T2200,3422A,118.8436,31.9198,南京市,江宁彩虹桥,细颗粒物(PM2.5),119,153,120,90,59,53,,117,85,92,60,7,8,0.9,0.8
2023-11-21T2200,3423A,119.0138,31.6494,南京市,溧水永阳,细颗粒物(PM2.5),159,158,94,121,63,60,,112,78,64,46,6,6,0.4,0.4
2023-11-21T2200,3424A,118.879,31.3302,南京市,高淳老职中,细颗粒物(PM2.5),134,,86,102,58,47,,121,99,67,38,11,10,0.6,0.5
2023-11-21T2200,3427A,118.8554,32.3578,南京市,六合雄州,细颗粒物(PM2.5),108,90,90,81,55,67,,114,85,53,57,20,10,0.8,0.9
2023-11-21T2200,1401A,108.3103,22.7881,南宁市,二十一中,颗粒物(PM10),60,69,76,40,44,135,,163,154,31,43,10,12,0.8,0.9
2023-11-21T2200,1402A,108.3141,22.8528,南宁市,北湖,"颗粒物(PM10),细颗粒物(PM2.5)",62,73,84,44,50,133,,157,150,28,33,12,13,0.7,0.8
2023-11-21T2200,1403A,108.3206,22.8225,南宁市,市监测站,细颗粒物(PM2.5),62,59,75,44,43,142,,158,152,32,42,17,18,1.0,1.1
2023-11-21T2200,1404A,108.3829,22.8037,南宁市,大自然花园,颗粒物(PM10),58,65,67,34,46,160,,153,152,13,27,10,11,0.6,0.7
2023-11-21T2200,1405A,108.4394,22.7904,南宁市,仙葫,颗粒物(PM10),61,72,78,43,45,123,,149,144,38,43,8,10,0.7,0.8
2023-11-21T2200,1406A,108.2397,22.8467,南宁市,区农职院,颗粒物(PM10),65,80,85,30,38,108,,143,135,50,44,10,18,0.9,0.9
2023-11-21T2200,1407A,108.3275,22.735,南宁市,英华嘉园,细颗粒物(PM2.5),98,84,96,73,53,101,,126,113,42,61,11,11,0.9,0.9
2023-11-21T2200,1408A,108.2257,22.7757,南宁市,沙井镇街道办,颗粒物(PM10),68,85,105,40,52,73,,142,124,84,51,10,15,0.8,0.8
2023-11-21T2200,3401A,108.4834,22.7618,南宁市,红星社区,颗粒物(PM10),66,81,81,44,49,129,,150,140,31,43,10,10,0.7,0.7
2023-11-21T2200,2332A,118.1681,26.6369,南平市,南平市监测站,,36,35,36,25,24,17,,87,57,39,21,4,4,0.8,0.7
2023-11-21T2200,2333A,118.1825,26.6489,南平市,南平铝业有限公司,,33,32,36,23,23,9,,89,50,45,25,9,6,0.7,0.6
2023-11-21T2200,2334A,118.1756,26.6272,南平市,南平七中,,32,28,33,22,23,29,,90,67,30,21,5,5,0.6,0.6
2023-11-21T2200,1168A,120.9098,31.9663,南通市,狼山街道,细颗粒物(PM2.5),59,52,77,42,55,22,,111,79,74,54,6,8,0.5,0.7
2023-11-21T2200,1169A,120.86,32.0005,南通市,虹桥,颗粒物(PM10),70,90,93,45,58,13,,121,85,119,66,8,7,0.7,0.7
2023-11-21T2200,1170A,120.87,32.02,南通市,城中,颗粒物(PM10),64,78,88,43,59,23,,110,79,93,56,8,9,0.5,0.5
2023-11-21T2200,1171A,120.94,31.93,南通市,星湖花园,细颗粒物(PM2.5),62,72,95,44,58,15,,94,64,108,63,7,9,0.7,0.8
2023-11-21T2200,1172A,120.81,32.0417,南通市,紫琅学院,颗粒物(PM10),65,80,97,35,51,16,,103,70,108,68,8,9,0.8,0.8
2023-11-21T2200,3291A,121.067,32.062,南通市,通州监测站,细颗粒物(PM2.5),94,92,110,70,75,66,,110,90,40,47,7,9,0.6,0.7
2023-11-21T2200,3432A,120.9348,31.9883,南通市,环境教育馆,细颗粒物(PM2.5),60,61,86,43,58,25,,98,58,64,64,7,9,0.4,0.5
2023-11-21T2200,2404A,112.5224,33.0122,南阳市,瓦房庄,细颗粒物(PM2.5),145,135,115,111,92,76,,91,85,42,54,9,9,0.9,1.1
2023-11-21T2200,2405A,112.5003,32.9735,南阳市,汉画馆,细颗粒物(PM2.5),138,142,113,105,77,24,,93,66,85,50,6,7,1.0,0.9
2023-11-21T2200,2406A,112.5573,33.027,南阳市,气象站,细颗粒物(PM2.5),153,133,114,117,86,81,,102,94,43,54,7,8,0.9,0.9
2023-11-21T2200,2407A,112.5481,32.9689,南阳市,理工学院,细颗粒物(PM2.5),150,140,112,115,80,84,,104,96,37,55,11,11,0.7,0.8
2023-11-21T2200,4008A,112.5234,32.9922,南阳市,卧龙区政府,细颗粒物(PM2.5),152,138,114,116,84,60,,90,76,44,48,8,10,0.9,1.1
2023-11-21T2200,1234A,121.8358,29.911,宁波市,区环保大楼,,48,48,60,19,24,85,,122,108,47,52,5,6,0.5,0.7
2023-11-21T2200,1235A,121.56,29.82,宁波市,万里学院,颗粒物(PM10),56,61,87,34,37,46,,121,100,60,54,5,9,0.6,0.7
2023-11-21T2200,1236A,121.713,29.9572,宁波市,龙赛医院,,50,50,76,27,36,47,,108,92,75,68,6,11,0.5,0.6
2023-11-21T2200,1239A,121.633,29.7733,宁波市,钱湖水厂,,32,26,50,22,32,96,,119,111,15,19,7,7,0.4,0.5
2023-11-21T2200,1240A,121.5856,29.8635,宁波市,太古小学,颗粒物(PM10),53,55,80,20,31,84,,115,101,36,59,9,10,0.6,0.7
2023-11-21T2200,1241A,121.524,29.8674,宁波市,市环境监测中心,细颗粒物(PM2.5),52,52,57,36,36,46,,111,92,68,55,8,9,0.2,0.4
2023-11-21T2200,2871A,121.6147,29.9017,宁波市,万里国际学校,,47,47,77,19,37,91,,114,110,29,58,7,8,0.6,0.7
2023-11-21T2200,3710A,121.5594,29.8975,宁波市,白沙活动中心,,41,41,60,19,33,69,,110,98,51,65,6,8,0.6,0.7
2023-11-21T2200,2341A,119.5388,26.6612,宁德市,宁德市监测站,,30,26,27,21,19,63,,94,85,14,20,5,5,0.9,0.6
2023-11-21T2200,3209A,119.5231,26.6562,宁德市,宁德一中,,38,38,31,21,17,50,,90,79,17,17,6,6,1.0,0.6
2023-11-21T2200,2618A,98.8601,25.8567,怒江州,州监测站,,42,38,28,29,18,21,,37,33,26,25,10,7,0.4,0.4
2023-11-21T2200,2619A,98.8546,25.8417,怒江州,泸水一中,,50,50,25,28,15,6,,33,23,28,20,8,6,0.6,0.5
2023-11-21T2200,1888A,101.6891,26.571,攀枝花市,弄弄坪,"颗粒物(PM10),细颗粒物(PM2.5)",59,67,50,42,30,15,,39,33,47,35,26,26,1.5,1.5
2023-11-21T2200,1889A,101.5769,26.5928,攀枝花市,河门口,细颗粒物(PM2.5),63,72,61,45,39,26,,48,44,29,31,18,23,1.5,1.9
2023-11-21T2200,1890A,101.7169,26.585,攀枝花市,炳草岗,颗粒物(PM10),68,85,63,38,37,5,,37,28,64,44,32,35,1.5,1.6
2023-11-21T2200,1891A,101.7369,26.5008,攀枝花市,仁和,细颗粒物(PM2.5),65,68,47,47,33,15,,52,42,38,29,15,19,1.2,1.3
2023-11-21T2200,2835A,101.7227,26.567,攀枝花市,四十中小,颗粒物(PM10),59,67,64,36,38,8,,50,44,69,44,23,25,1.7,1.7
2023-11-21T2200,1604A,122.0303,41.1489,盘锦市,开发区,细颗粒物(PM2.5),119,,42,90,44,54,,78,66,53,34,14,10,1.0,0.6
2023-11-21T2200,1605A,122.0485,41.0883,盘锦市,兴隆台,细颗粒物(PM2.5),102,80,48,76,39,55,,83,62,51,31,18,11,0.9,0.7
2023-11-21T2200,1606A,121.8297,41.1028,盘锦市,新生街道,细颗粒物(PM2.5),83,,37,61,33,43,,83,70,45,25,7,9,0.9,0.6
2023-11-21T2200,1832A,113.3257,33.742,平顶山市,新华旅馆,细颗粒物(PM2.5),142,199,145,108,84,8,,108,85,79,44,9,9,1.1,0.9
2023-11-21T2200,1833A,113.2919,33.737,平顶山市,规划设计院,细颗粒物(PM2.5),144,144,141,110,94,22,,110,88,65,39,8,9,1.4,1
2023-11-21T2200,1834A,113.182,33.774,平顶山市,平顶山工学院,细颗粒物(PM2.5),117,140,144,88,88,92,,115,106,21,29,8,11,0.9,1
2023-11-21T2200,3204A,113.3025,33.73,平顶山市,规划局,细颗粒物(PM2.5),155,156,138,118,96,38,,103,86,59,43,9,10,1.4,1.2
2023-11-21T2200,3594A,112.8867,33.9116,平顶山市,石龙区,颗粒物(PM10),137,224,145,98,79,31,,116,79,82,60,8,9,0.9,0.8
2023-11-21T2200,2656A,106.6692,35.5461,平凉市,聚贤嘉苑,颗粒物(PM10),141,232,72,42,30,78,,96,89,15,26,4,5,0.4,0.5
2023-11-21T2200,2657A,106.7021,35.5307,平凉市,博物馆,颗粒物(PM10),132,213,75,39,34,,,160,,11,30,7,11,0.4,0.7
2023-11-21T2200,2347A,114.0997,27.5002,萍乡市,武功山,,29,26,20,20,16,55,,90,78,7,6,4,6,0.3,0.3
2023-11-21T2200,2348A,113.8385,27.6434,萍乡市,中医院,细颗粒物(PM2.5),79,72,72,58,46,37,,79,56,49,40,28,22,1.0,1.1
2023-11-21T2200,2349A,113.8493,27.6253,萍乡市,市政府车库,"颗粒物(PM10),细颗粒物(PM2.5)",70,89,79,51,44,14,,81,59,62,34,15,23,1.5,1.5
2023-11-21T2200,2350A,113.8676,27.6435,萍乡市,市环保局,颗粒物(PM10),61,72,68,43,40,48,,96,74,38,37,19,21,0.6,0.9
2023-11-21T2200,2351A,113.866,27.6198,萍乡市,安源区政府,颗粒物(PM10),64,78,71,40,45,23,,85,71,56,33,20,22,1.5,1.3
2023-11-21T2200,2319A,119.0141,25.4325,莆田市,荔城区仓后路,,36,36,30,20,12,56,,109,93,19,12,6,6,0.8,0.5
2023-11-21T2200,2320A,119.0015,25.4553,莆田市,莆田市监测站,,24,24,23,9,9,73,,113,98,8,7,6,7,0.6,0.5
2023-11-21T2200,2321A,119.1119,25.4561,莆田市,涵江区六中,,25,23,29,9,10,79,,110,99,14,13,7,8,0.5,0.5
2023-11-21T2200,2322A,119.1013,25.3215,莆田市,秀屿区政府,,28,28,30,17,14,72,,113,98,24,15,7,9,0.6,0.6
2023-11-21T2200,2392A,115.0312,35.7636,濮阳市,环保局,细颗粒物(PM2.5),124,126,115,94,97,43,,94,77,62,37,5,8,1.1,0.8
2023-11-21T2200,2394A,115.0574,35.7609,濮阳市,油田运输公司,细颗粒物(PM2.5),125,137,146,95,103,50,,95,76,60,40,7,9,1.0,0.8
2023-11-21T2200,2395A,115.0866,35.7754,濮阳市,油田物探公司,细颗粒物(PM2.5),143,169,150,109,107,55,,99,83,57,39,5,6,1.0,0.8
2023-11-21T2200,3021A,115,35.7668,濮阳市,濮水河管理处,细颗粒物(PM2.5),128,120,119,97,102,32,,92,67,40,33,4,8,1.1,0.8
2023-11-21T2200,2601A,100.98,22.7633,普洱市,市环保局,,39,30,22,27,17,15,,60,46,15,10,2,3,0.5,0.5
2023-11-21T2200,2602A,100.9817,22.8322,普洱市,普洱第二中学,,41,41,26,17,15,14,,60,47,28,15,4,4,0.9,0.5
2023-11-21T2200,2262A,131.0518,45.8751,七台河市,新一中,细颗粒物(PM2.5),74,65,36,54,28,78,,86,84,22,18,10,12,0.9,0.7
2023-11-21T2200,3345A,131.0577,45.7879,七台河市,中波台,细颗粒物(PM2.5),97,91,37,72,27,14,,65,31,76,37,10,10,1.5,1
2023-11-21T2200,3637A,131.0176,45.7761,七台河市,人民广场,细颗粒物(PM2.5),110,105,50,83,39,18,,67,24,68,40,9,9,1.4,0.9
2023-11-21T2200,3684A,130.8781,45.8222,七台河市,新建矿广场,细颗粒物(PM2.5),79,83,40,58,29,48,,62,50,33,29,13,10,1.1,0.8
2023-11-21T2200,1779A,123.9305,47.3636,齐齐哈尔市,安居小区,,18,18,38,12,33,50,,55,53,17,24,6,7,0.3,0.5
2023-11-21T2200,1780A,123.9488,47.3386,齐齐哈尔市,中心广场,,19,16,38,2,18,59,,56,56,11,21,3,5,0.5,0.7
2023-11-21T2200,1781A,123.9483,47.3227,齐齐哈尔市,农牧车辆厂,,19,17,35,7,22,58,,53,52,10,22,7,9,0.3,0.5
2023-11-21T2200,1783A,123.945,47.2988,齐齐哈尔市,市环境监测站,,,10,43,7,27,61,,55,55,9,24,,6,0.4,0.6
2023-11-21T2200,3662A,123.6333,47.2075,齐齐哈尔市,富区青少年活动中心,,48,48,43,32,27,51,,43,41,13,27,8,10,0.3,0.6
2023-11-21T2200,2591A,107.9783,26.5747,黔东南苗族侗族自治州,市环境监测站,,,37,40,27,29,58,,88,82,40,31,6,6,,0.8
2023-11-21T2200,2881A,107.8908,26.5311,黔东南苗族侗族自治州,凯里学院,,34,28,29,20,20,108,,117,116,6,15,6,5,0.5,0.5
2023-11-21T2200,2593A,107.5228,26.2403,黔南布依族苗族自治州,小围寨,,32,31,32,22,17,95,,99,98,5,14,6,4,0.4,0.4
2023-11-21T2200,3538A,107.5175,26.2978,黔南布依族苗族自治州,沙坝,,32,31,29,19,20,100,,98,97,5,11,6,5,0.5,0.5
2023-11-21T2200,2589A,104.9022,25.0925,黔西南布依族苗族自治州,场坝街,细颗粒物(PM2.5),57,54,40,40,28,69,,71,70,14,15,7,3,0.3,0.2
2023-11-21T2200,2590A,104.8811,25.0992,黔西南布依族苗族自治州,坪东大道,颗粒物(PM10),58,65,38,38,30,13,,70,51,46,21,6,6,0.7,0.4
2023-11-21T2200,2502A,108.6236,21.9667,钦州市,市环保站,颗粒物(PM10),73,95,101,44,50,109,,176,165,40,45,12,10,0.8,0.7
2023-11-21T2200,2503A,108.6549,21.9481,钦州市,沙埠小学,细颗粒物(PM2.5),112,134,112,84,63,40,,175,140,86,53,10,15,1.0,0.8
2023-11-21T2200,2504A,108.5989,21.7431,钦州市,港区一小,颗粒物(PM10),87,124,109,42,47,48,,180,159,79,40,16,14,1.1,0.9
2023-11-21T2200,3404A,108.5959,21.9633,钦州市,北职校,细颗粒物(PM2.5),87,98,106,64,57,103,,176,162,40,45,10,13,1.0,1
2023-11-21T2200,1042A,119.5134,39.8207,秦皇岛市,北戴河环保局,细颗粒物(PM2.5),102,136,129,76,95,17,,76,62,93,64,9,14,0.6,0.7
2023-11-21T2200,1044A,119.5897,39.9499,秦皇岛市,监测站,细颗粒物(PM2.5),149,155,159,114,117,2,,83,36,94,66,11,21,1.3,1.5
2023-11-21T2200,1046A,119.5251,39.9041,秦皇岛市,建设大厦,细颗粒物(PM2.5),188,178,164,141,120,0,,91,46,100,58,8,17,1.5,1.2
2023-11-21T2200,3132A,119.610547,39.943889,秦皇岛市,文明里,细颗粒物(PM2.5),130,159,176,99,101,0,,76,28,107,75,8,15,0.9,1.4
2023-11-21T2200,1307A,120.6659,36.2403,青岛市,仰口,细颗粒物(PM2.5),64,63,61,46,34,149,,157,156,17,14,4,3,0.7,0.6
