timepoint,stationcode,longitude,latitude,area,positionname,primarypollutant,aqi,pm10,pm10_24h,pm2_5,pm2_5_24h,o3,o3_24h,o3_8h,o3_8h_24h,no2,no2_24h,so2,so2_24h,co,co_24h
2025-10-03T0800,2566A,102.1879,31.914,阿坝藏族羌族自治州,州农科所,颗粒物(PM10),52,53,22,8,8,17,,22,22,4,6,2,2,0.5,0.4
2025-10-03T0800,2568A,102.2502,31.8896,阿坝藏族羌族自治州,马师校,,14,14,16,8,12,2,,7,7,5,7,6,5,0.6,0.6
2025-10-03T0800,3994A,102.2165,31.9024,阿坝藏族羌族自治州,马尔康中学西区,,18,12,14,12,13,5,,13,13,4,4,5,4,0.5,0.5
2025-10-03T0800,2695A,80.292,41.1694,阿克苏地区,电视台,颗粒物(PM10),63,75,127,25,38,28,,63,63,21,12,4,5,0.7,0.6
2025-10-03T0800,2696A,80.2613,41.1551,阿克苏地区,艺术中心,颗粒物(PM10),65,79,106,27,38,34,,54,54,20,23,4,4,0.4,0.5
2025-10-03T0800,2204A,105.6467,38.8363,阿拉善盟,西城区西花园,,39,39,36,23,18,44,,70,70,46,18,8,8,0.5,0.4
2025-10-03T0800,2205A,105.6985,38.8411,阿拉善盟,蒙二幼,,35,35,28,13,11,70,,83,83,29,8,8,8,0.7,0.6
2025-10-03T0800,2206A,105.724,38.8516,阿拉善盟,环保局新楼,,34,16,25,8,11,107,,110,110,6,6,9,8,0.5,0.5
2025-10-03T0800,2708A,88.1264,47.8517,阿勒泰地区,市站,,,18,22,6,8,,,28,28,,15,,3,0.2,0.4
2025-10-03T0800,2630A,80.1161,32.5,阿里地区,阿里监测站,,,6,3,3,3,84,,,,,9,,3,0.3,0.3
2025-10-03T0800,3192A,80.0903,32.5028,阿里地区,阿里藏医院,,35,9,11,3,3,111,,122,122,1,3,7,7,0.3,0.3
2025-10-03T0800,2642A,109.0318,32.6537,安康市,香溪洞,,21,,5,3,4,67,,61,61,3,5,7,6,0.2,0.2
2025-10-03T0800,2644A,109.0072,32.6975,安康市,汉滨区检察院,,13,13,11,3,4,6,,7,7,13,10,5,5,0.5,0.5
2025-10-03T0800,4054A,109.0325,32.6913,安康市,市邮政管理局,,12,12,9,3,5,9,,16,16,17,12,6,5,0.8,0.6
2025-10-03T0800,2291A,117.0809,30.5177,安庆市,环科院,,25,20,33,17,22,50,,50,50,5,12,6,7,0.5,0.7
2025-10-03T0800,2292A,117.0331,30.5119,安庆市,马山宾馆,,29,22,31,20,22,51,,51,51,9,16,5,5,0.4,0.6
2025-10-03T0800,2294A,116.9896,30.6145,安庆市,安庆大学,,17,15,33,7,9,54,,50,50,6,11,4,6,0.4,0.5
2025-10-03T0800,3173A,117.0598,30.5351,安庆市,市人大,,25,23,32,17,20,49,,50,50,7,8,6,8,0.5,0.6
2025-10-03T0800,3122A,105.9606,26.2611,安顺市,伍家关,,12,12,11,8,7,37,,40,40,2,2,6,6,0.4,0.4
2025-10-03T0800,3123A,105.9408,26.2431,安顺市,凤凰山,,16,16,12,11,8,35,,40,40,3,2,4,5,0.5,0.5
2025-10-03T0800,3124A,105.9439,26.2564,安顺市,金钟山,,15,10,11,10,8,38,,43,43,2,2,8,8,0.5,0.5
2025-10-03T0800,3125A,105.8983,26.2481,安顺市,娄家坡,,16,12,9,11,9,34,,39,39,2,2,7,7,0.4,0.4
2025-10-03T0800,1818A,114.4839,36.0621,安阳市,棉研所,,,,,,,,,,,,,,,,
2025-10-03T0800,1819A,114.3551,36.1017,安阳市,红庙街,,47,47,34,26,16,39,,56,56,18,12,3,3,0.7,0.5
2025-10-03T0800,1820A,114.361,36.0681,安阳市,银杏小区,,,38,33,31,22,,,71,71,20,16,6,4,,0.3
2025-10-03T0800,3141A,114.3922,36.0878,安阳市,信访局,,42,37,32,29,21,49,,64,64,17,12,2,2,0.5,0.4
2025-10-03T0800,3669A,114.4705,36.0637,安阳市,左辅环卫站,颗粒物(PM10),56,62,41,31,23,61,,64,64,17,17,4,2,0.3,0.4
2025-10-03T0800,3703A,114.2917,36.0949,安阳市,安钢职工学校,细颗粒物(PM2.5),54,49,35,38,23,39,,61,61,29,15,11,3,1.1,0.6
2025-10-03T0800,1748A,123.044,41.1196,鞍山市,深沟寺,,49,46,44,34,28,55,,54,54,13,14,6,6,0.7,0.7
2025-10-03T0800,1749A,123.011,41.0931,鞍山市,太阳城,细颗粒物(PM2.5),55,53,51,39,33,67,,53,53,10,12,7,7,0.7,0.8
2025-10-03T0800,1750A,123.0485,41.1442,鞍山市,太平,颗粒物(PM10),61,71,64,39,35,40,,58,58,37,16,8,8,0.8,0.9
2025-10-03T0800,1751A,122.9642,41.0971,鞍山市,铁西三道街,颗粒物(PM10),68,86,79,48,42,34,,30,30,45,31,6,7,1.2,1.1
2025-10-03T0800,1753A,123.022,41.0821,鞍山市,明达新区,,43,43,47,30,28,75,,68,68,7,10,8,8,0.8,0.8
2025-10-03T0800,1754A,123.1289,41.0228,鞍山市,千山,,,,38,,28,,,69,,,5,,5,,0.4
2025-10-03T0800,4201A,122.9446,41.0826,鞍山市,兴盛南路290号,,,77,77,38,35,,,34,34,50,29,,9,0.9,0.8
2025-10-03T0800,2195A,107.4212,40.761,巴彦淖尔市,附二中,,36,36,54,20,18,42,,63,63,10,6,13,9,0.4,0.3
2025-10-03T0800,2196A,107.37,40.7372,巴彦淖尔市,市环保大楼,,31,31,37,21,18,44,,65,65,10,6,9,9,0.4,0.3
2025-10-03T0800,1956A,86.1472,41.7538,巴音郭楞蒙古自治州,孔雀公园,,30,9,51,3,12,95,,96,96,1,5,5,6,0.3,0.2
2025-10-03T0800,1957A,86.1972,41.7166,巴音郭楞蒙古自治州,棉纺厂,,28,28,64,3,10,83,,92,92,7,6,7,5,0.2,0.3
2025-10-03T0800,1958A,86.2357,41.7173,巴音郭楞蒙古自治州,经济开发区,,25,25,58,3,6,78,,86,86,3,2,6,6,0.1,0.2
2025-10-03T0800,2914A,106.7677,31.8794,巴中市,苏山坪,,9,9,4,6,3,16,,24,24,4,4,4,4,0.5,0.4
2025-10-03T0800,3181A,106.7768,31.8526,巴中市,市五中,,11,11,8,3,4,4,,5,5,7,8,7,7,0.7,0.6
2025-10-03T0800,3183A,106.7418,31.8654,巴中市,圣泉水务公司,,9,9,5,3,5,5,,8,8,10,7,7,6,0.6,0.5
2025-10-03T0800,3616A,106.7616,31.8344,巴中市,市中心医院,,23,,8,16,12,1,,1,1,7,10,9,9,0.6,0.6
2025-10-03T0800,2235A,122.7911,45.6077,白城市,洮北区环保局,细颗粒物(PM2.5),52,41,38,36,21,83,,79,79,7,7,6,5,0.6,0.4
2025-10-03T0800,2236A,122.8738,45.5725,白城市,市环保局,细颗粒物(PM2.5),57,53,42,40,22,52,,61,61,7,9,3,4,0.5,0.4
2025-10-03T0800,2231A,126.4219,41.9171,白山市,喜丰,颗粒物(PM10),90,130,85,32,22,7,,3,3,22,22,9,7,0.7,0.6
2025-10-03T0800,2232A,126.4077,41.9419,白山市,环保局,颗粒物(PM10),53,56,36,20,20,11,,16,16,20,14,9,8,0.6,0.7
2025-10-03T0800,2647A,104.1724,36.5446,白银市,第三小学,颗粒物(PM10),56,61,46,39,26,11,,8,8,34,34,40,18,2.0,1
2025-10-03T0800,2648A,104.1465,36.5482,白银市,动力公司,,45,40,36,31,22,36,,25,25,20,28,8,10,1.5,0.8
2025-10-03T0800,2512A,106.6103,23.9011,百色市,市监测站,,41,41,37,26,18,6,,11,11,17,12,10,11,0.7,0.6
2025-10-03T0800,2513A,106.6538,23.8859,百色市,市中心血站,细颗粒物(PM2.5),52,50,36,36,20,10,,14,14,21,16,9,11,0.8,0.7
2025-10-03T0800,3406A,106.6085,23.8798,百色市,祈福高中,,46,46,39,24,19,7,,10,10,19,17,6,9,0.7,0.7
2025-10-03T0800,2270A,117.396,32.939,蚌埠市,工人疗养院,,18,16,26,3,12,55,,61,61,6,8,4,4,0.4,0.6
2025-10-03T0800,2271A,117.3605,32.9427,蚌埠市,百货大楼,,17,9,16,8,13,52,,58,58,9,10,6,6,0.5,0.7
2025-10-03T0800,2273A,117.4185,32.8911,蚌埠市,蚌埠学院,,20,12,16,7,14,64,,66,66,4,6,5,5,0.4,0.5
2025-10-03T0800,2274A,117.3533,32.9673,蚌埠市,淮上区政府,,19,19,21,10,15,56,,59,59,10,11,6,6,0.4,0.5
2025-10-03T0800,2275A,117.3145,32.8977,蚌埠市,高新区,,18,,19,12,12,52,,57,57,9,11,6,6,0.5,0.6
2025-10-03T0800,3715A,117.3092,32.9314,蚌埠市,蚌埠田家炳中学,,42,41,27,29,15,48,,56,56,9,10,4,5,0.4,0.5
2025-10-03T0800,1585A,109.8756,40.6532,包头市,市环境监测站,,46,46,38,16,14,22,,32,32,39,30,9,9,0.6,0.6
2025-10-03T0800,1587A,109.9991,40.5842,包头市,包头八中,颗粒物(PM10),56,61,49,31,22,32,,32,32,39,31,11,9,0.7,0.5
2025-10-03T0800,1588A,109.8538,40.6821,包头市,青山宾馆,,38,34,34,26,20,8,,20,20,52,34,8,8,0.7,0.6
2025-10-03T0800,1589A,109.8642,40.6288,包头市,惠龙物流,,22,22,36,14,15,25,,30,30,32,25,7,8,0.6,0.5
2025-10-03T0800,1590A,110.0377,40.5546,包头市,东河鸿龙湾,,33,33,39,23,15,27,,23,23,34,32,9,10,0.6,0.5
2025-10-03T0800,3283A,109.9154,40.5685,包头市,滨河大厦,,38,26,31,26,18,17,,20,20,33,26,7,8,0.6,0.5
2025-10-03T0800,3419A,109.9447,40.6261,包头市,包头市委党校,,44,44,27,20,13,25,,39,39,44,29,15,11,0.7,0.5
2025-10-03T0800,3683A,109.8331,40.6576,包头市,昆区政府,,42,36,34,29,20,33,,44,44,32,24,9,10,0.5,0.5
2025-10-03T0800,1930A,107.185,34.3063,宝鸡市,庙沟村,,31,31,28,17,13,59,,70,70,10,11,5,5,0.6,0.5
2025-10-03T0800,1931A,107.0708,34.3017,宝鸡市,竹园沟,,28,21,31,19,17,30,,50,50,12,12,8,8,0.7,0.6
2025-10-03T0800,1932A,107.1906,34.3672,宝鸡市,三陆医院,,33,33,32,23,21,62,,70,70,12,12,6,6,0.7,0.6
2025-10-03T0800,1933A,107.1431,34.3547,宝鸡市,监测站,,38,38,34,22,20,63,,72,72,7,9,5,5,0.8,0.8
2025-10-03T0800,1934A,107.1186,34.3739,宝鸡市,技工学校,,46,33,33,32,23,64,,72,72,12,13,6,6,0.7,0.7
2025-10-03T0800,1936A,107.2058,34.3497,宝鸡市,文理学院,,33,33,32,21,20,64,,72,72,10,11,5,5,0.7,0.7
2025-10-03T0800,1937A,107.2386,34.3622,宝鸡市,三迪小学,,45,,33,31,27,57,,67,67,13,11,5,5,0.8,0.7
2025-10-03T0800,4308A,107.3898,34.3601,宝鸡市,陈仓区北开路21号,,26,19,27,18,20,69,,64,64,6,9,6,6,0.6,0.5
2025-10-03T0800,1051A,115.493,38.8632,保定市,游泳馆,细颗粒物(PM2.5),80,86,59,59,31,20,,39,39,48,27,1,2,0.2,0.1
2025-10-03T0800,1052A,115.5213,38.8959,保定市,华电二区,细颗粒物(PM2.5),70,66,49,51,27,3,,18,18,55,31,5,4,0.5,0.5
2025-10-03T0800,1053A,115.4713,38.9108,保定市,接待中心,细颗粒物(PM2.5),69,77,51,50,27,8,,19,19,43,26,2,3,0.4,0.3
2025-10-03T0800,1054A,115.4612,38.8416,保定市,地表水厂,颗粒物(PM10),95,140,70,52,22,9,,23,23,61,35,9,8,0.5,0.2
2025-10-03T0800,3581A,115.31981,38.95208,保定市,满城区生态环境分局,颗粒物(PM10),68,85,59,34,25,23,,17,17,42,28,2,2,0.3,0.3
2025-10-03T0800,3582A,115.47694,38.76408,保定市,清苑区第二中学,颗粒物(PM10),80,110,77,43,28,11,,16,16,60,40,1,2,0.4,0.3
2025-10-03T0800,3583A,115.62909,39.02311,保定市,徐水物探局,,,119,65,71,36,,,7,7,49,35,10,6,0.5,0.4
2025-10-03T0800,4004A,115.4202,38.8656,保定市,双鹰农机,细颗粒物(PM2.5),63,74,59,45,31,31,,33,33,35,27,5,5,0.3,0.2
2025-10-03T0800,4034A,115.5150,38.8590,保定市,植保所站,颗粒物(PM10),72,93,70,49,34,12,,31,31,58,33,12,10,0.5,0.4
2025-10-03T0800,2594A,99.1678,25.1081,保山市,市环境监测站,,20,,11,14,15,13,,21,21,5,6,9,8,0.4,0.4
2025-10-03T0800,2595A,99.1711,25.1328,保山市,市环保局,,15,12,13,10,9,23,,30,30,3,4,8,8,0.5,0.4
2025-10-03T0800,1866A,109.2262,21.588,北海市,牛尾岭水库,,21,21,11,10,6,27,,24,24,6,4,5,4,0.3,0.3
2025-10-03T0800,1867A,109.1436,21.4086,北海市,海滩公园,,16,16,18,3,4,27,,38,38,7,6,5,4,0.5,0.6
2025-10-03T0800,1868A,109.0981,21.4661,北海市,新市环保局,,14,14,12,7,8,29,,39,39,9,6,6,6,0.4,0.4
2025-10-03T0800,1869A,109.1778,21.5233,北海市,北海工业园,,26,26,18,17,8,15,,27,27,13,7,18,5,0.4,0.3
2025-10-03T0800,3400A,109.1911,21.4415,北海市,龙潭自来水厂,,26,,12,18,9,11,,34,34,10,6,7,5,0.5,0.4
2025-10-03T0800,1001A,116.3621,39.8784,北京市,万寿西宫,颗粒物(PM10),51,51,56,26,26,40,,26,26,35,29,3,3,0.5,0.5
2025-10-03T0800,1002A,116.2202,40.2915,北京市,定陵,,50,50,37,26,19,37,,37,37,4,6,5,6,0.4,0.3
2025-10-03T0800,1003A,116.4174,39.9289,北京市,东四,,49,49,60,24,26,51,,26,26,20,27,5,5,0.4,0.4
2025-10-03T0800,1004A,116.4072,39.8863,北京市,天坛,,49,49,51,26,24,50,,24,24,25,25,4,4,0.5,0.5
2025-10-03T0800,1005A,116.462,39.9365,北京市,农展馆,,45,45,55,25,27,41,,16,16,22,30,4,4,0.6,0.6
2025-10-03T0800,1006A,116.3392,39.9295,北京市,官园,颗粒物(PM10),51,52,56,24,23,38,,16,16,37,31,4,4,0.5,0.5
2025-10-03T0800,1007A,116.2878,39.9611,北京市,海淀万柳,颗粒物(PM10),51,51,51,24,23,9,,9,9,58,37,4,4,0.3,0.2
2025-10-03T0800,1008A,116.6636,40.135,北京市,顺义新城,,39,39,56,18,25,37,,33,33,18,23,4,4,0.3,0.4
2025-10-03T0800,1009A,116.6275,40.3275,北京市,怀柔镇,,38,38,45,24,22,31,,39,39,17,16,2,2,0.3,0.3
2025-10-03T0800,1010A,116.2296,40.217,北京市,昌平镇,,42,42,44,25,20,46,,52,52,14,20,2,2,0.3,0.4
2025-10-03T0800,1011A,116.3966,39.9821,北京市,奥体中心,,43,43,51,22,24,43,,11,11,25,33,3,4,0.5,0.5
2025-10-03T0800,3281A,115.9718,40.4529,北京市,延庆夏都,,39,39,47,19,20,29,,38,38,17,16,3,2,0.4,0.4
2025-10-03T0800,3418A,116.8336,40.4095,北京市,密云新城,,37,37,42,22,20,46,,40,40,7,9,4,4,0.4,0.4
2025-10-03T0800,3671A,116.088,39.9726,北京市,门头沟三家店,,39,39,46,19,20,36,,26,26,15,21,2,3,0.5,0.5
2025-10-03T0800,3672A,116.1541,39.8204,北京市,丰台云岗,颗粒物(PM10),56,62,63,24,23,28,,24,24,24,34,3,3,0.4,0.4
2025-10-03T0800,3673A,116.6804,39.9081,北京市,通州东关,颗粒物(PM10),53,55,67,26,29,24,,19,19,34,36,4,5,0.5,0.5
2025-10-03T0800,3674A,115.9577,39.7603,北京市,房山燕山,,47,47,41,29,20,27,,38,38,23,15,2,3,0.4,0.4
2025-10-03T0800,3675A,116.4672,39.7733,北京市,大兴旧宫,,47,47,60,25,26,40,,23,23,32,25,4,4,0.7,0.5
2025-10-03T0800,3694A,115.986,40.4563,北京市,延庆石河营,,38,38,50,19,22,26,,27,27,12,13,2,2,0.4,0.4
2025-10-03T0800,3695A,116.6151,40.3053,北京市,怀柔新城,,39,39,47,22,23,43,,46,46,8,13,4,5,0.5,0.5
2025-10-03T0800,3696A,116.2545,39.8768,北京市,丰台小屯,颗粒物(PM10),57,63,57,32,24,36,,16,16,28,31,2,2,0.5,0.5
2025-10-03T0800,3697A,116.84,40.3844,北京市,密云镇,,45,45,44,20,20,19,,23,23,30,20,5,5,0.5,0.4
2025-10-03T0800,4182A,116.1942,39.9158,北京市,八角北路9号,颗粒物(PM10),59,67,63,32,23,11,,14,14,47,34,1,2,0.4,0.4
2025-10-03T0800,4194A,117.0790,40.1518,北京市,洳河巡河路,,34,34,43,19,20,25,,27,27,9,10,2,2,0.5,0.5
2025-10-03T0800,1761A,123.8275,41.3064,本溪市,大峪,颗粒物(PM10),52,54,45,23,19,21,,14,14,22,20,7,8,1.4,0.8
2025-10-03T0800,1762A,123.7567,41.3325,本溪市,溪湖,,38,38,42,19,24,37,,14,14,14,19,6,8,1.0,1.3
2025-10-03T0800,1763A,123.7169,41.3094,本溪市,彩屯,,47,47,48,27,29,19,,11,11,19,23,6,10,1.1,1.6
2025-10-03T0800,1764A,123.7669,41.2864,本溪市,东明,,42,42,55,26,27,30,,24,24,22,26,8,7,1.4,1
2025-10-03T0800,1765A,123.7992,41.2664,本溪市,新立屯,,34,34,40,21,20,26,,25,25,15,22,7,7,0.9,0.6
2025-10-03T0800,1766A,123.8142,41.3472,本溪市,威宁,,42,42,51,27,26,25,,14,14,13,20,5,5,0.8,0.8
2025-10-03T0800,2587A,105.2864,27.3125,毕节市,八中,,42,,22,29,19,8,,10,10,7,6,8,9,0.6,0.6
2025-10-03T0800,2588A,105.31,27.2944,毕节市,师专,,40,37,26,28,18,8,,10,10,7,9,8,8,0.6,0.6
2025-10-03T0800,4263A,105.3688,27.3598,毕节市,工业大道,,43,40,20,30,14,12,,14,14,10,9,10,10,0.8,0.7
2025-10-03T0800,1629A,118.0018,37.3617,滨州市,第二水厂,,20,17,13,12,13,61,,75,75,15,7,6,5,0.3,0.2
2025-10-03T0800,1630A,117.9776,37.393,滨州市,北中新校,,19,19,18,7,12,52,,73,73,17,10,9,6,0.1,0
2025-10-03T0800,3514A,117.9378,37.3956,滨州市,中海酒店,,18,14,15,12,15,57,,73,73,10,7,5,3,0.3,0.4
2025-10-03T0800,3515A,117.9378,37.3553,滨州市,开发区一中,,25,19,19,17,14,63,,81,81,14,10,6,5,0.5,0.5
2025-10-03T0800,3516A,118.0917,37.694,滨州市,金海六路,,19,15,14,3,8,59,,66,66,10,10,4,4,0.2,0.3
2025-10-03T0800,4028A,117.9956,37.3753,滨州市,滨州市西街道办事处,,19,,9,9,13,60,,74,74,18,11,4,4,0.4,0.4
2025-10-03T0800,2311A,115.8072,33.8399,亳州市,污水处理厂,,17,,5,10,5,53,,58,58,7,6,4,4,0.4,0.3
2025-10-03T0800,2312A,115.7789,33.8518,亳州市,三国揽胜宫,,19,10,10,9,7,58,,64,64,5,5,4,4,0.5,0.4
2025-10-03T0800,3332A,115.7633,33.8034,亳州市,亳州学院,,22,,6,3,7,70,,70,70,3,4,4,4,0.5,0.4
2025-10-03T0800,2693A,82.0485,44.8556,博尔塔拉蒙古自治州,市党校,,42,35,36,29,19,14,,23,23,19,9,7,2,0.3,0.2
2025-10-03T0800,2694A,82.0806,44.8969,博尔塔拉蒙古自治州,市环保局,,35,35,36,16,16,12,,15,15,10,14,6,6,0.3,0.3
2025-10-03T0800,1071A,116.8842,38.2991,沧州市,沧县城建局,,29,29,30,20,13,72,,81,81,15,21,3,4,0.2,0.2
2025-10-03T0800,1072A,116.8584,38.3254,沧州市,电视转播站,,36,36,35,22,17,68,,69,69,9,16,3,2,0.3,0.3
2025-10-03T0800,1073A,116.8709,38.3228,沧州市,市环保局,,38,38,35,23,22,68,,75,75,9,15,4,5,0.2,0.2
2025-10-03T0800,3324A,116.8136,38.3004,沧州市,河北水利电力学院,,26,22,22,13,14,81,,82,82,8,16,3,4,0.2,0.2
2025-10-03T0800,2622A,97.1806,31.1273,昌都市,昌都监测站,,13,9,13,9,8,22,,27,27,11,14,5,6,0.1,0.2
2025-10-03T0800,3719A,97.1714,31.1406,昌都市,昌都会议中心,,11,8,10,6,6,33,,39,39,2,4,4,4,0.2,0.2
2025-10-03T0800,2690A,88.1236,43.8886,昌吉回族自治州,天山天池,,16,,2,3,2,49,,44,44,9,10,5,5,0.2,0.2
2025-10-03T0800,2692A,87.2717,44.0297,昌吉回族自治州,新区政务中心,,22,22,11,11,8,2,,8,8,17,14,5,5,0.8,0.4
2025-10-03T0800,3613A,87.3095,44.0142,昌吉回族自治州,亚心广场,,36,36,18,17,11,4,,6,6,27,19,7,6,0.7,0.3
2025-10-03T0800,1120A,125.2863,43.9027,长春市,客车厂,颗粒物(PM10),52,53,60,34,35,74,,92,92,22,23,6,6,0.6,0.7
2025-10-03T0800,1121A,125.2841,43.8463,长春市,邮电学院,颗粒物(PM10),51,52,58,32,30,54,,35,35,19,15,5,5,0.6,0.7
2025-10-03T0800,1122A,125.3716,43.8772,长春市,劳动公园,颗粒物(PM10),55,60,76,36,40,63,,35,35,26,24,8,7,0.8,0.9
2025-10-03T0800,1123A,125.3297,43.8805,长春市,园林处,,48,48,55,30,32,68,,68,68,28,24,3,4,0.6,0.7
2025-10-03T0800,1124A,125.4605,43.79,长春市,净月潭,,46,46,48,24,25,54,,61,61,8,7,4,5,0.6,0.6
2025-10-03T0800,1125A,125.7194,43.515,长春市,甩湾子,,39,39,47,26,31,36,,26,26,8,8,5,4,0.8,0.6
2025-10-03T0800,1126A,125.3863,43.8447,长春市,经开区环卫处,,46,46,58,30,28,54,,42,42,31,28,6,5,0.8,0.8
2025-10-03T0800,1127A,125.245,43.7783,长春市,高新区管委会,,49,45,52,34,30,57,,37,37,17,19,5,4,0.6,0.6
2025-10-03T0800,1128A,125.1761,43.8325,长春市,岱山公园,"颗粒物(PM10),细颗粒物(PM2.5)",52,53,62,36,33,72,,75,75,19,28,5,5,0.5,0.6
2025-10-03T0800,4281A,125.3346,43.9164,长春市,北亚泰大街1068号,颗粒物(PM10),55,59,65,31,38,68,,56,56,24,24,9,9,0.7,0.9
2025-10-03T0800,1335A,113.0833,28.2325,长沙市,经开区环保局,,26,26,54,16,32,26,,24,24,5,10,4,6,0.3,0.5
2025-10-03T0800,1336A,112.8872,28.2189,长沙市,高开区环保局,,25,21,51,17,26,23,,21,21,6,7,4,6,0.2,0.3
2025-10-03T0800,1337A,113.0792,28.2053,长沙市,马坡岭,,29,28,53,20,34,26,,25,25,6,9,5,5,0.5,0.5
2025-10-03T0800,1338A,112.9394,28.19,长沙市,湖南师范大学,,23,19,50,16,28,25,,26,26,7,11,4,4,0.5,0.6
2025-10-03T0800,1339A,113.0178,28.1322,长沙市,雨花区环保局,,38,,50,26,32,26,,27,27,6,12,6,7,0.5,0.6
2025-10-03T0800,1340A,112.9792,28.2597,长沙市,伍家岭,,33,26,54,23,27,23,,22,22,7,13,2,4,0.4,0.5
2025-10-03T0800,1341A,113.0014,28.1944,长沙市,火车新站,,22,22,55,14,33,24,,27,27,7,11,7,8,0.5,0.6
2025-10-03T0800,1342A,112.9844,28.1178,长沙市,天心区环保局,,30,26,47,21,32,29,,34,34,8,15,4,5,0.4,0.5
2025-10-03T0800,1343A,112.8908,28.1308,长沙市,湖南中医药大学,,26,26,54,15,31,26,,23,23,4,13,4,5,0.6,0.7
2025-10-03T0800,1344A,112.9581,28.3611,长沙市,沙坪,颗粒物(PM10),51,51,54,11,27,29,,28,28,5,11,3,4,0.5,0.5
2025-10-03T0800,1727A,113.1147,36.1547,长治市,清华站,,35,32,20,24,14,86,,99,99,13,9,8,8,0.7,0.6
2025-10-03T0800,1730A,113.0886,36.2125,长治市,审计局,细颗粒物(PM2.5),55,,20,39,20,70,,89,89,20,10,7,6,1.0,0.6
2025-10-03T0800,1731A,113.0844,36.1856,长治市,长治八中,细颗粒物(PM2.5),52,45,23,36,22,76,,92,92,13,6,8,7,0.9,0.6
2025-10-03T0800,2845A,113.1569,36.1911,长治市,德盛苑,,35,33,23,24,14,70,,87,87,12,6,8,8,0.6,0.5
2025-10-03T0800,3568A,113.06,36.0464,长治市,向阳小学,颗粒物(PM10),58,65,38,30,22,60,,79,79,31,12,12,9,1.2,0.9
2025-10-03T0800,3569A,112.8792,36.3144,长治市,屯留一中,,50,46,33,35,22,27,,50,50,21,11,12,12,0.8,0.7
2025-10-03T0800,4189A,113.1131,36.19948,长治市,英华南巷50号,细颗粒物(PM2.5),52,37,24,36,18,74,,86,86,18,12,9,8,0.9,0.7
2025-10-03T0800,4190A,113.2367,36.3344,长治市,学府街1号,,45,41,26,31,21,85,,86,86,11,11,10,9,0.8,0.8
2025-10-03T0800,1854A,111.6975,28.9703,常德市,市二中,,17,17,28,10,16,51,,54,54,10,7,5,6,0.6,0.7
2025-10-03T0800,1857A,111.7158,29.1456,常德市,白鹤山,,,,,,,,,,,,,,,,
2025-10-03T0800,3138A,111.7153,29.0289,常德市,武陵区永安,,17,13,27,3,11,52,,54,54,7,6,2,3,0.2,0.2
2025-10-03T0800,3139A,111.6892,28.9881,常德市,鼎城区玉霞,,21,21,29,3,14,53,,54,54,4,5,4,5,0.5,0.5
2025-10-03T0800,3140A,111.6625,29.0531,常德市,武陵区长庚,,17,17,28,3,13,51,,52,52,4,4,2,3,0.4,0.5
2025-10-03T0800,1196A,119.9633,31.762,常州市,市监测站,,26,26,48,14,27,37,,32,32,11,13,13,13,0.7,0.8
2025-10-03T0800,1200A,119.9468,31.7069,常州市,武进监测站,,23,23,36,12,26,31,,29,29,13,10,8,8,0.8,0.9
2025-10-03T0800,1201A,119.9255,31.9087,常州市,安家,,37,37,44,14,26,40,,30,30,14,19,8,8,0.9,1
2025-10-03T0800,3002A,119.9805,31.8174,常州市,行政中心,,29,28,40,20,26,36,,33,33,14,15,4,3,0.9,0.9
2025-10-03T0800,3003A,120.0522,31.7748,常州市,经开区,,43,43,50,17,26,37,,32,32,13,17,7,10,1.1,1.3
2025-10-03T0800,3010A,119.9025,31.7964,常州市,钟楼,,25,25,50,9,26,44,,31,31,14,17,8,8,0.8,0.9
2025-10-03T0800,3429A,119.8598,31.7066,常州市,武进经发区,,40,40,47,20,30,29,,27,27,20,17,10,11,1.1,1
2025-10-03T0800,3430A,119.5826,31.7245,常州市,金坛城区,颗粒物(PM10),58,65,46,25,28,36,,37,37,13,12,8,10,0.9,1
2025-10-03T0800,2220A,120.4318,41.5881,朝阳市,西梁,细颗粒物(PM2.5),97,,47,72,51,34,,44,44,24,18,8,8,1.1,0.8
2025-10-03T0800,2221A,120.4521,41.5646,朝阳市,河畔小区,细颗粒物(PM2.5),58,56,55,41,38,54,,68,68,20,15,8,8,1.2,0.8
2025-10-03T0800,2222A,120.4176,41.5648,朝阳市,八里堡,细颗粒物(PM2.5),70,54,59,51,46,36,,52,52,29,20,7,6,1.1,0.8
2025-10-03T0800,2223A,120.3806,41.5969,朝阳市,农业园区,细颗粒物(PM2.5),88,,54,65,52,18,,15,15,28,18,6,5,1.0,0.8
2025-10-03T0800,1705A,116.6367,23.6719,潮州市,西园路,,24,24,26,15,18,14,,12,12,8,10,4,4,0.2,0.2
2025-10-03T0800,3026A,116.6183,23.6608,潮州市,市政府,,26,26,30,15,15,19,,14,14,13,12,11,10,0.5,0.5
2025-10-03T0800,4036A,116.6461,23.6761,潮州市,金山,,18,,27,12,11,10,,8,8,4,7,5,5,0.7,0.6
2025-10-03T0800,2472A,113.0073,25.9061,郴州市,马头岭,,36,36,29,10,9,12,,36,36,24,15,6,6,0.2,0.2
2025-10-03T0800,2473A,113.0116,25.8226,郴州市,市职中,,26,22,23,18,16,10,,34,34,13,8,5,4,0.5,0.4
2025-10-03T0800,2475A,113.0383,25.8071,郴州市,市审计局,,22,22,21,12,14,18,,42,42,12,8,7,7,0.5,0.4
2025-10-03T0800,2476A,113.0348,25.7759,郴州市,市环保局,,27,27,23,16,12,40,,54,54,12,6,5,5,0.4,0.4
2025-10-03T0800,4252A,113.0138,25.8011,郴州市,好美居路49号,,20,20,19,8,12,28,,46,46,9,8,8,6,0.3,0.3
2025-10-03T0800,1431A,103.9728,30.7236,成都市,金泉两河,,21,21,21,3,5,20,,33,33,19,13,3,3,0.5,0.5
2025-10-03T0800,1432A,104.176,30.6872,成都市,十里店,,19,19,21,10,11,26,,34,34,15,14,3,3,0.6,0.6
2025-10-03T0800,1433A,104.079,30.5706,成都市,三瓦窑,,23,17,21,16,12,36,,41,41,14,17,4,4,0.5,0.5
2025-10-03T0800,1434A,104.1114,30.63,成都市,沙河铺,,23,23,28,9,11,18,,27,27,24,23,4,4,0.4,0.4
2025-10-03T0800,1437A,104.0786,30.6531,成都市,君平街,,22,22,26,6,14,32,,44,44,11,13,5,4,0.5,0.5
2025-10-03T0800,1438A,103.613,31.0283,成都市,灵岩寺,,,,,,,,,,,,,,,,
2025-10-03T0800,2880A,104.0239,30.65639,成都市,大石西路,,40,,23,28,17,29,,37,37,15,18,2,3,0.5,0.5
2025-10-03T0800,3136A,104.2725,30.5589,成都市,龙泉驿区区政府,,14,14,13,7,6,26,,40,40,14,11,4,5,0.4,0.5
2025-10-03T0800,3357A,104.0106,30.6931,成都市,金博路,,15,14,17,10,7,32,,37,37,15,15,6,6,0.5,0.5
2025-10-03T0800,3359A,104.0578,30.5225,成都市,华阳,,20,17,23,14,17,33,,41,41,14,14,4,5,0.5,0.5
2025-10-03T0800,3488A,104.3880,30.7467,成都市,青石路225号,,20,20,18,9,9,17,,23,23,20,13,6,5,0.7,0.6
2025-10-03T0800,3489A,104.0789,30.4072,成都市,科学城,,20,20,19,14,13,31,,40,40,14,11,5,5,0.5,0.5
2025-10-03T0800,4011A,103.8506,30.6947,成都市,光华大道三段,,33,33,26,18,14,20,,32,32,19,19,1,1,0.6,0.6
2025-10-03T0800,4224A,104.2433,30.5353,成都市,鲸龙路1057号,,38,38,20,18,10,26,,40,40,18,14,4,4,0.5,0.5
2025-10-03T0800,1062A,117.9531,40.9081,承德市,铁路,,35,35,43,3,15,6,,15,15,20,20,2,4,0.4,0.4
2025-10-03T0800,1063A,117.9392,40.9763,承德市,中国银行,,47,47,41,11,16,7,,5,5,16,17,2,2,0.4,0.4
2025-10-03T0800,1064A,117.9503,40.928,承德市,开发区,,47,47,48,23,21,5,,9,9,18,19,2,4,0.4,0.4
2025-10-03T0800,1066A,117.9268,41.0026,承德市,离宫,,30,30,34,20,17,12,,15,15,13,15,2,3,0.3,0.4
2025-10-03T0800,4274A,117.7994,40.9605,承德市,滨河大街98号,,41,41,43,9,19,10,,11,11,16,16,1,13,0.5,0.8
2025-10-03T0800,2314A,117.47,30.6618,池州市,池州学院,,26,26,33,15,20,43,,42,42,9,12,6,7,0.5,0.7
2025-10-03T0800,3237A,117.4918,30.6617,池州市,展览馆,,24,24,35,16,22,45,,44,44,8,13,5,9,0.5,0.8
2025-10-03T0800,3333A,117.5627,30.695,池州市,第八中学,,17,17,34,10,22,51,,48,48,6,10,6,10,0.5,0.9
2025-10-03T0800,3334A,117.5038,30.6243,池州市,第十二中学,,17,14,32,7,20,54,,47,47,10,15,4,7,0.6,0.9
2025-10-03T0800,1744A,118.9233,42.2816,赤峰市,松山一中,颗粒物(PM10),64,78,45,34,21,2,,41,41,61,30,10,12,1.0,0.7
2025-10-03T0800,1745A,118.9576,42.2728,赤峰市,哈达街,,47,47,45,26,19,29,,66,66,43,25,14,15,0.7,0.6
2025-10-03T0800,1746A,118.8788,42.2554,赤峰市,天义路,,50,42,37,35,28,58,,60,60,34,23,25,16,0.5,0.5
2025-10-03T0800,3058A,119.2658,42.0353,赤峰市,银河街,颗粒物(PM10),66,82,75,41,36,28,,44,44,31,18,19,28,0.8,0.8
2025-10-03T0800,3286A,118.9359,42.3147,赤峰市,桥北物流园区,颗粒物(PM10),54,57,47,18,27,14,,16,16,43,36,10,13,0.7,0.8
2025-10-03T0800,2521A,107.3476,22.4136,崇左市,市环保局江州分局,,36,36,27,14,12,7,,5,5,10,10,1,2,0.6,0.6
2025-10-03T0800,4256A,107.3750,22.3736,崇左市,石景林东路7号,,18,18,21,9,13,14,,16,16,10,9,4,4,0.5,0.5
2025-10-03T0800,2298A,118.3093,32.3153,滁州市,老年大学,,20,16,29,14,21,52,,50,50,2,4,4,5,0.3,0.5
2025-10-03T0800,2299A,118.3244,32.2786,滁州市,人大宾馆,,20,,21,11,19,61,,56,56,2,5,4,5,0.4,0.6
2025-10-03T0800,3207A,118.3118,32.3038,滁州市,市政府原办公楼,,23,,26,16,27,59,,55,55,4,7,5,6,0.3,0.5
2025-10-03T0800,3331A,118.3267,32.2634,滁州市,图书馆,,17,,21,9,19,54,,52,52,3,5,7,8,0.4,0.6
2025-10-03T0800,2605A,101.5482,25.0441,楚雄彝族自治州,州环境监测站,,8,,7,3,6,19,,18,18,2,2,6,7,0.6,0.5
2025-10-03T0800,2606A,101.538,25.0492,楚雄彝族自治州,市经济开发区,,6,6,7,3,7,16,,16,16,8,5,4,4,0.6,0.6
2025-10-03T0800,2548A,107.5277,31.2827,达州市,达州职业技术学院,,6,6,18,3,4,12,,10,10,12,9,8,9,0.3,0.3
2025-10-03T0800,2549A,107.5086,31.2186,达州市,市环境监测站,,11,6,14,3,0,9,,11,11,22,17,5,7,0.5,0.4
2025-10-03T0800,2550A,107.4988,31.2132,达州市,凤凰小区,,11,6,12,3,3,9,,12,12,22,16,5,7,0.5,0.4
2025-10-03T0800,2551A,107.5082,31.1986,达州市,达县机关宾馆,,12,,8,3,5,6,,10,10,24,17,4,6,0.5,0.4
2025-10-03T0800,2552A,107.4644,31.2124,达州市,市政中心,,16,16,22,3,0,7,,9,9,19,16,5,6,0.3,0.3
2025-10-03T0800,2614A,100.1542,25.7054,大理白族自治州,大理市环境监测站,,19,,7,13,10,33,,33,33,5,6,4,4,0.7,0.7
2025-10-03T0800,2615A,100.2171,25.5811,大理白族自治州,大理古城,,15,15,10,7,6,16,,18,18,10,8,6,6,0.8,0.8
2025-10-03T0800,1109A,121.612,38.9741,大连市,甘井子,,28,25,25,13,10,89,,84,84,16,16,5,6,0.2,0.3
2025-10-03T0800,1110A,121.565,38.9511,大连市,周水子,,32,23,27,12,13,100,,63,63,11,27,2,2,0.4,0.4
2025-10-03T0800,1111A,121.5637,38.8845,大连市,星海三站,,32,26,28,13,12,100,,74,74,4,8,4,4,0.4,0.4
2025-10-03T0800,1112A,121.6302,38.9117,大连市,青泥洼桥,,,21,18,12,10,85,,79,79,,10,8,8,0.6,0.5
2025-10-03T0800,1113A,121.6251,38.8638,大连市,傅家庄,,38,15,18,11,9,119,,95,95,7,12,10,11,0.6,0.6
2025-10-03T0800,1114A,121.5213,38.8661,大连市,七贤岭,,30,19,22,14,10,95,,76,76,12,10,4,4,0.6,0.5
2025-10-03T0800,1115A,121.2529,38.8061,大连市,旅顺,,30,14,13,14,11,93,,97,97,9,15,8,8,0.4,0.3
2025-10-03T0800,1116A,121.7485,39.1311,大连市,金州,,32,24,22,15,13,100,,95,95,14,12,11,11,0.4,0.3
2025-10-03T0800,1117A,121.7811,39.0496,大连市,开发区,,34,25,30,11,15,107,,102,102,10,19,3,4,0.5,0.5
2025-10-03T0800,1118A,121.9762,39.0631,大连市,双D港,,32,20,32,11,14,102,,96,96,7,10,7,9,0.6,0.7
2025-10-03T0800,1789A,124.81117,46.03138,大庆市,大同区,细颗粒物(PM2.5),59,66,60,42,32,73,,72,72,14,16,9,9,0.9,0.8
2025-10-03T0800,1790A,125.129,46.533,大庆市,龙凤区,颗粒物(PM10),57,63,54,24,19,59,,51,51,13,20,8,9,1.0,0.8
2025-10-03T0800,1791A,124.902,46.408,大庆市,红岗区,颗粒物(PM10),57,63,45,39,24,68,,57,57,19,15,6,6,0.9,0.7
2025-10-03T0800,1792A,125.153,46.586,大庆市,萨尔图区,颗粒物(PM10),60,70,60,41,24,62,,60,60,18,19,10,10,0.9,0.7
2025-10-03T0800,1793A,124.9042,46.6215,大庆市,让胡路区,颗粒物(PM10),52,54,52,25,22,73,,,,18,25,6,7,0.7,0.7
2025-10-03T0800,3481A,125.141,46.634,大庆市,萨区政府监测点,颗粒物(PM10),68,85,56,39,24,89,,72,72,14,13,9,9,0.9,0.7
2025-10-03T0800,1721A,113.3819,40.1097,大同市,果树场,颗粒物(PM10),66,82,63,47,35,14,,29,29,27,33,5,7,0.5,0.5
2025-10-03T0800,1723A,113.2994,40.0758,大同市,云冈宾馆,颗粒物(PM10),55,59,56,27,25,13,,12,12,37,31,5,6,1.6,1.1
2025-10-03T0800,1724A,113.3444,40.0917,大同市,大同大学,颗粒物(PM10),53,56,50,25,22,39,,36,36,38,28,8,10,0.7,0.6
2025-10-03T0800,1725A,113.2661,40.1269,大同市,安家小村,,41,41,58,21,25,28,,43,43,30,25,3,5,0.6,0.7
2025-10-03T0800,1726A,113.2711,40.0844,大同市,教育学院,颗粒物(PM10),65,80,70,26,28,18,,10,10,51,37,9,10,1.0,0.8
2025-10-03T0800,3282A,113.3397,40.0597,大同市,大同市卫生学校,,48,48,67,17,24,16,,13,13,47,37,7,10,1.0,0.8
2025-10-03T0800,3565A,113.1367,40.1122,大同市,云冈站,颗粒物(PM10),59,68,62,29,24,11,,9,9,20,23,7,9,0.7,0.6
2025-10-03T0800,3566A,113.1186,40.2556,大同市,图书馆,,48,48,55,27,25,8,,17,17,14,16,4,6,0.5,0.5
2025-10-03T0800,3567A,113.5931,40.0461,大同市,区一中,,49,49,49,30,21,58,,54,54,13,15,6,13,0.7,0.7
2025-10-03T0800,4199A,113.2798,40.0997,大同市,魏都大道141号,颗粒物(PM10),68,86,72,32,27,12,,7,7,54,41,5,6,1.3,1
2025-10-03T0800,2269A,124.1069,50.4097,大兴安岭地区,科技局,,16,14,26,11,13,35,,36,36,8,10,7,5,0.3,0.3
2025-10-03T0800,3663A,124.1164,50.4278,大兴安岭地区,红旗社区,,14,6,12,3,5,42,,42,42,4,10,4,5,0.2,0.3
2025-10-03T0800,1600A,124.3303,40.0625,丹东市,江湾东路,,25,25,42,17,25,38,,39,39,14,21,6,7,0.8,0.9
2025-10-03T0800,1601A,124.4256,40.1503,丹东市,临江后街,,24,24,43,13,21,27,,22,22,15,23,5,7,0.7,0.8
2025-10-03T0800,1602A,124.3933,40.1461,丹东市,元宝山,,29,29,34,19,20,21,,15,15,14,16,7,7,0.9,0.9
2025-10-03T0800,1603A,124.3633,40.1092,丹东市,民主桥,,31,31,42,17,23,29,,27,27,20,24,4,5,0.9,0.9
2025-10-03T0800,3541A,109.5726,19.5167,儋州市,第一中学子站,,14,14,14,3,7,14,,18,18,5,3,9,6,0.4,0.3
2025-10-03T0800,3542A,109.5567,19.5187,儋州市,东坡学校子站,,13,13,14,9,7,16,,17,17,6,6,6,5,0.4,0.2
2025-10-03T0800,2616A,98.5842,24.428,德宏傣族景颇族自治州,德宏州监测站,,22,22,15,12,9,2,,2,2,12,10,12,9,0.7,0.7
2025-10-03T0800,3677A,98.5881,24.4368,德宏傣族景颇族自治州,芒市人民政府综合楼,,31,31,23,8,9,4,,4,4,9,8,7,8,0.9,0.8
2025-10-03T0800,1901A,104.4239,31.1208,德阳市,东山公园,,13,12,8,9,9,11,,27,27,23,9,1,1,0.7,0.6
2025-10-03T0800,1902A,104.3826,31.1317,德阳市,西小区,,24,24,20,10,11,16,,30,30,21,12,3,2,0.8,0.5
2025-10-03T0800,1904A,104.3553,31.1091,德阳市,耐火材料厂,,30,30,22,7,10,16,,28,28,20,11,2,2,0.9,0.8
2025-10-03T0800,3639A,104.4019,31.1244,德阳市,市教育局,,23,,16,16,10,16,,30,30,16,8,2,4,0.8,0.7
2025-10-03T0800,1622A,116.3032,37.4674,德州市,儿童乐园,,41,41,23,22,17,66,,82,82,16,12,8,9,0.5,0.4
2025-10-03T0800,1624A,116.2991,37.4451,德州市,监理站,,25,24,14,17,13,65,,83,83,18,12,12,12,0.5,0.4
2025-10-03T0800,3066A,116.2721,37.4379,德州市,九衢泉纯净水厂,,28,27,18,19,16,58,,78,78,18,11,8,10,0.4,0.4
2025-10-03T0800,3371A,116.3728,37.4403,德州市,开发区人民医院,,22,22,20,9,13,53,,67,67,12,10,9,10,0.4,0.5
2025-10-03T0800,3511A,116.5652,37.3319,德州市,陵城艺术中心,,25,19,23,17,12,66,,72,72,13,12,10,10,0.8,0.9
2025-10-03T0800,4292A,116.3525,37.4209,德州市,新河东路,,28,22,20,19,14,68,,80,80,12,12,8,8,0.5,0.6
2025-10-03T0800,2621A,99.7056,27.8317,迪庆藏族自治州,迪庆州站,,22,21,17,15,11,25,,38,38,11,6,7,7,0.6,0.5
2025-10-03T0800,3180A,99.7136,27.8094,迪庆藏族自治州,质量技术监督局,,11,11,17,7,8,26,,42,42,19,7,8,7,0.6,0.5
2025-10-03T0800,4257A,104.6092,35.5962,定西市,将台街,,24,24,24,15,16,55,,70,70,10,11,8,8,0.5,0.5
2025-10-03T0800,4309A,104.6159,35.5701,定西市,正龙路62号,,29,28,28,20,19,48,,63,63,8,7,6,6,0.3,0.2
2025-10-03T0800,1389A,113.7547,23.0494,东莞市,莞城梨川,,16,16,19,9,9,31,,29,29,12,13,6,6,0.5,0.5
2025-10-03T0800,1390A,113.7944,23.0128,东莞市,东城石井,,16,16,18,8,9,25,,17,17,12,14,5,6,0.4,0.3
2025-10-03T0800,1391A,113.7383,22.9658,东莞市,南城西平,,22,22,17,10,10,22,,22,22,19,16,4,4,0.5,0.4
2025-10-03T0800,3319A,113.7338,23.0381,东莞市,万江金泰,,15,15,20,7,11,31,,27,27,10,13,6,6,0.5,0.5
2025-10-03T0800,3626A,113.7533,23.0202,东莞市,南城元岭,,18,18,18,8,9,26,,26,26,17,16,4,4,0.5,0.4
2025-10-03T0800,3627A,113.7875,23.0457,东莞市,东城主山,,15,15,20,6,10,33,,29,29,14,18,2,2,0.4,0.5
2025-10-03T0800,1666A,118.6614,37.4309,东营市,市环保局,,23,12,8,3,2,71,,85,85,13,10,5,5,0.2,0.2
2025-10-03T0800,3036A,118.6904,37.4338,东营市,开发区管委会,,25,10,13,3,5,77,,91,91,10,9,5,5,0.2,0.2
2025-10-03T0800,3365A,118.5719,37.565,东营市,垦利区民丰路,,16,14,14,3,7,50,,65,65,17,12,6,6,0.7,0.7
2025-10-03T0800,3498A,118.5055,37.8612,东营市,河口城区,,36,36,14,22,3,85,,87,87,15,9,9,5,0.5,0.4
2025-10-03T0800,3646A,118.4978,37.4623,东营市,胜利站,,19,18,20,3,5,60,,79,79,22,16,6,7,0.5,0.4
2025-10-03T0800,3734A,118.35,37.26,东营市,理想之城,,20,,11,14,7,41,,62,62,24,15,2,2,0.3,0.3
2025-10-03T0800,1591A,110.0023,39.8129,鄂尔多斯市,综合楼,,31,31,38,17,13,54,,60,60,27,20,8,7,0.5,0.5
2025-10-03T0800,1592A,109.9486,39.8261,鄂尔多斯市,巴音孟克林场办事处,,34,34,40,19,14,66,,69,69,21,18,6,6,0.4,0.3
2025-10-03T0800,1593A,109.7736,39.5986,鄂尔多斯市,康泽苑,颗粒物(PM10),52,53,37,22,15,13,,44,44,29,20,6,7,0.4,0.4
2025-10-03T0800,1594A,109.8119,39.5989,鄂尔多斯市,华泰汽车城,颗粒物(PM10),54,58,34,24,16,7,,29,29,28,21,5,5,0.5,0.4
2025-10-03T0800,1595A,109.9734,39.7884,鄂尔多斯市,奥林花园,,48,48,47,24,15,40,,48,48,24,22,6,6,0.6,0.5
2025-10-03T0800,2436A,114.8938,30.3994,鄂州市,市政府,,13,10,26,3,9,40,,40,40,14,14,6,7,0.6,0.7
2025-10-03T0800,2437A,114.8989,30.3714,鄂州市,赵家坝,,17,17,35,3,11,50,,50,50,9,9,7,8,0.5,0.7
2025-10-03T0800,3654A,114.8094,30.4089,鄂州市,精准医疗中心,,17,15,30,3,12,52,,51,51,2,4,7,7,0.5,0.7
2025-10-03T0800,2454A,109.4978,30.2981,恩施土家族苗族自治州,湖北民院,,28,28,30,12,16,0,,0,0,6,11,6,6,0.7,0.7
2025-10-03T0800,2455A,109.4707,30.2798,恩施土家族苗族自治州,州电力总公司,,28,28,30,11,21,0,,0,0,27,21,7,7,0.5,0.6
2025-10-03T0800,3549A,109.5061,30.3772,恩施土家族苗族自治州,龙凤新区,,23,23,24,11,11,0,,0,0,5,7,6,6,0.6,0.5
2025-10-03T0800,2499A,108.3411,21.6158,防城港市,沙万,,18,18,32,11,10,17,,17,17,11,17,4,5,0.5,0.5
2025-10-03T0800,2500A,108.3514,21.7731,防城港市,防城档案局,,45,45,31,10,13,10,,24,24,14,11,4,5,0.6,0.6
2025-10-03T0800,2501A,108.3506,21.6414,防城港市,大海花园,,14,14,24,9,10,28,,33,33,8,12,5,9,0.5,0.6
2025-10-03T0800,1371A,113.1294,23.0067,佛山市,湾梁,,12,12,13,6,11,25,,27,27,18,18,7,7,0.3,0.3
2025-10-03T0800,1372A,113.1083,23.0478,佛山市,华材职中,,10,7,12,3,9,29,,32,32,7,9,5,5,0.5,0.5
2025-10-03T0800,1373A,113.144,23.0453,佛山市,南海气象局,,10,,17,7,9,30,,31,31,11,13,6,6,0.5,0.5
2025-10-03T0800,1374A,113.2881,22.8094,佛山市,顺德苏岗,,18,18,17,9,5,20,,28,28,14,10,6,6,0.6,0.6
2025-10-03T0800,1376A,112.8383,22.8678,佛山市,高明孔堂,,13,13,15,3,9,19,,30,30,10,10,2,2,0.3,0.3
2025-10-03T0800,1377A,112.8836,23.1588,佛山市,三水监测站,,24,24,18,11,11,14,,13,13,18,18,7,5,0.5,0.5
2025-10-03T0800,1378A,112.867,23.185,佛山市,三水云东海,,18,,23,12,13,10,,18,18,25,20,3,3,0.4,0.4
2025-10-03T0800,3625A,113.2544,22.7642,佛山市,容桂街道办,,10,6,9,3,7,31,,33,33,10,12,6,6,0.6,0.6
2025-10-03T0800,1280A,119.3903,26.0543,福州市,鼓山,,,,,,,,,,,,,,,,
2025-10-03T0800,1282A,119.2681,26.0504,福州市,师大,,18,18,19,11,7,36,,40,40,11,10,5,5,0.4,0.3
2025-10-03T0800,1283A,119.2984,26.1028,福州市,五四北路,,44,44,22,7,4,32,,39,39,8,8,4,4,0.4,0.3
2025-10-03T0800,1284A,119.2648,26.0768,福州市,杨桥西路,,31,31,18,10,7,34,,40,40,9,8,4,4,0.4,0.3
2025-10-03T0800,1285A,119.317,26.0746,福州市,紫阳,,20,20,21,9,6,32,,42,42,6,6,6,6,0.5,0.3
2025-10-03T0800,3048A,119.5799,26.0936,福州市,九龙,,18,18,13,6,3,34,,32,32,5,4,5,4,0.5,0.3
2025-10-03T0800,3526A,119.5189,25.9664,福州市,吴航,,20,20,13,13,7,28,,27,27,9,5,5,5,0.6,0.4
2025-10-03T0800,1755A,123.7977,41.8491,抚顺市,望花区,颗粒物(PM10),54,58,72,33,39,12,,6,6,20,28,9,10,0.7,0.9
2025-10-03T0800,1756A,123.9161,41.8822,抚顺市,顺城区,,39,36,65,27,41,20,,12,12,18,31,6,8,0.8,0.9
2025-10-03T0800,1757A,124.0436,41.8611,抚顺市,东洲区,,35,,40,24,27,21,,17,17,13,15,5,6,0.7,0.8
2025-10-03T0800,1758A,123.9247,41.8642,抚顺市,新抚区,,40,38,59,28,33,16,,5,5,14,24,7,8,0.8,1
2025-10-03T0800,1759A,124.0972,41.8961,抚顺市,大伙房水库,,28,27,37,19,27,30,,22,22,9,13,8,8,0.6,0.8
2025-10-03T0800,1760A,123.7086,41.8391,抚顺市,沈抚新城,颗粒物(PM10),55,60,64,37,35,12,,5,5,33,33,16,9,2.1,1.2
2025-10-03T0800,2376A,116.2127,28.0814,抚州市,桐源党溪,细颗粒物(PM2.5),79,79,41,58,23,22,,20,20,14,11,4,2,0.6,0.6
2025-10-03T0800,2377A,116.3544,27.9831,抚州市,市站,,33,33,38,20,21,56,,59,59,7,6,8,4,0.6,0.6
2025-10-03T0800,2378A,116.3565,27.963,抚州市,血防站,,32,32,37,20,23,53,,54,54,8,8,9,7,0.5,0.7
2025-10-03T0800,2379A,116.3564,28.0007,抚州市,采茶剧团,,33,30,36,23,22,53,,59,59,5,4,9,7,0.7,0.7
2025-10-03T0800,2380A,116.385,27.9647,抚州市,医学分院,,33,33,40,22,22,57,,56,56,7,4,7,4,0.6,0.7
2025-10-03T0800,2207A,121.6094,41.998,阜新市,工业园区,,49,36,70,34,39,8,,31,31,35,21,9,12,0.8,0.7
2025-10-03T0800,2208A,121.6697,42.0279,阜新市,长青街,,49,49,61,27,41,26,,47,47,32,17,12,12,0.7,0.7
2025-10-03T0800,2209A,121.6673,42.0705,阜新市,农业园区,,32,30,63,22,35,75,,71,71,2,5,18,9,0.8,0.8
2025-10-03T0800,2210A,121.6717,42.0224,阜新市,东苑,颗粒物(PM10),54,58,73,29,36,28,,54,54,36,21,19,14,0.9,0.8
2025-10-03T0800,2211A,121.6506,42.0498,阜新市,玉龙新城,颗粒物(PM10),54,57,70,27,34,15,,13,13,37,24,10,11,0.7,0.7
2025-10-03T0800,2301A,115.8277,32.8929,阜阳市,市监测站,,21,16,14,3,8,65,,68,68,12,10,4,4,0.4,0.3
2025-10-03T0800,2303A,115.8554,32.8605,阜阳市,开发区,,20,12,5,8,7,62,,67,67,10,9,7,7,0.4,0.4
2025-10-03T0800,2875A,115.784,32.8892,阜阳市,阜阳职业技术学院,,20,13,12,6,7,63,,67,67,17,11,5,5,0.4,0.4
2025-10-03T0800,3468A,115.7901,32.8613,阜阳市,市规划展馆,,20,15,14,14,8,62,,66,66,9,8,4,4,0.4,0.3
2025-10-03T0800,3469A,115.836,32.9183,阜阳市,枣园社区,,21,,10,12,7,67,,69,69,11,10,5,5,0.5,0.4
2025-10-03T0800,2669A,102.9099,34.9841,甘南藏族自治州,州政府,,37,37,29,22,22,2,,1,1,17,22,4,5,0.4,0.4
2025-10-03T0800,3380A,102.8914,34.9617,甘南藏族自治州,甘肃民族师范学院,,30,30,43,19,17,1,,1,1,16,25,5,6,0.3,0.4
2025-10-03T0800,2570A,101.9603,30.0475,甘孜藏族自治州,水桥子,,23,23,11,3,5,9,,9,9,9,9,8,7,0.4,0.5
2025-10-03T0800,3065A,101.9533,29.9972,甘孜藏族自治州,州环保局,,20,20,15,13,6,16,,12,12,4,7,5,5,0.4,0.4
2025-10-03T0800,3414A,115.8347,28.932,赣江新区,桑海产业园,,48,48,42,25,25,20,,36,36,26,19,11,10,0.4,0.3
2025-10-03T0800,2362A,114.9017,25.9149,赣州市,通天岩,,25,25,30,11,16,43,,45,45,6,4,17,16,0.7,0.7
2025-10-03T0800,2363A,114.9367,25.8664,赣州市,地委,,28,28,26,16,16,27,,34,34,12,9,9,6,0.5,0.5
2025-10-03T0800,2364A,114.9461,25.8481,赣州市,气象台,,22,22,26,13,13,29,,40,40,22,7,12,6,0.7,0.5
2025-10-03T0800,2365A,114.9322,25.8333,赣州市,市图书馆,,23,23,21,16,15,41,,43,43,10,7,10,6,0.5,0.5
2025-10-03T0800,2366A,114.8905,25.8471,赣州市,华坚鞋城,,35,35,28,24,16,31,,35,35,17,10,9,6,0.7,0.6
2025-10-03T0800,3109A,115.0093,25.8613,赣州市,赣县区卫计委,,20,16,18,14,14,22,,21,21,12,6,8,6,0.5,0.5
2025-10-03T0800,2683A,106.2319,36.1417,固原市,马园,,,,,,,,,,,,,,,,
2025-10-03T0800,2684A,106.2792,36.0022,固原市,监测站,,17,16,11,6,7,53,,61,61,8,6,4,5,0.4,0.4
2025-10-03T0800,2685A,106.2375,36.0211,固原市,新区,,16,8,9,6,6,50,,54,54,8,7,5,5,0.5,0.5
2025-10-03T0800,3522A,106.2177,35.9959,固原市,原州区十五小,,15,13,12,8,7,47,,51,51,10,8,7,8,0.6,0.5
2025-10-03T0800,2543A,106.6308,30.5278,广安市,小平旧居,,,,,,,,,,,,,,,,
2025-10-03T0800,2544A,106.6303,30.4576,广安市,市委,,9,6,18,3,12,28,,23,23,11,8,8,7,0.5,0.5
2025-10-03T0800,2545A,106.6271,30.4663,广安市,友谊中学,,10,,15,6,10,29,,28,28,13,10,6,6,0.7,0.8
2025-10-03T0800,2547A,106.6388,30.4551,广安市,广电花园,,9,6,13,6,9,20,,23,23,16,9,6,7,0.7,0.6
2025-10-03T0800,2902A,106.6351,30.4865,广安市,北辰小学,,10,,11,3,10,30,,26,26,8,7,7,8,0.8,0.8
2025-10-03T0800,2523A,105.8945,32.4535,广元市,黑石坡,,15,,10,10,8,24,,26,26,2,2,10,10,0.3,0.4
2025-10-03T0800,2524A,105.821,32.4444,广元市,老城,,18,15,12,3,4,56,,59,59,7,8,5,4,0.6,0.6
2025-10-03T0800,2526A,105.8628,32.4287,广元市,监测站,,15,9,12,3,7,48,,50,50,7,7,6,6,0.6,0.6
2025-10-03T0800,3617A,105.8047,32.4166,广元市,经开区,,14,6,9,3,3,44,,49,49,8,7,2,2,0.5,0.5
2025-10-03T0800,1345A,113.2347,23.1423,广州市,广雅中学,,14,14,18,7,9,19,,27,27,20,14,4,4,0.4,0.4
2025-10-03T0800,1346A,113.2612,23.105,广州市,市五中,,15,15,16,6,7,24,,27,27,17,15,5,6,0.3,0.3
2025-10-03T0800,1348A,113.3478,23.0916,广州市,广东商学院,,12,12,17,7,11,26,,23,23,19,20,4,4,0.2,0.2
2025-10-03T0800,1349A,113.4332,23.1047,广州市,市八十六中,,16,16,15,8,7,18,,12,12,28,28,7,6,0.4,0.4
2025-10-03T0800,1350A,113.3505,22.9483,广州市,番禺中学,,10,10,15,6,11,31,,31,31,9,11,6,6,0.6,0.6
2025-10-03T0800,1351A,113.2146,23.3916,广州市,花都师范,,19,19,26,3,11,22,,22,22,19,21,5,5,0.5,0.6
2025-10-03T0800,1352A,113.2597,23.1331,广州市,市监测站,,,,19,,10,,,72,,,14,,6,,0.5
2025-10-03T0800,1353A,113.5618,23.312,广州市,九龙镇镇龙,,27,27,31,15,17,9,,6,6,16,22,7,8,0.5,0.5
2025-10-03T0800,1354A,113.2765,23.1544,广州市,麓湖,,13,13,15,6,8,9,,14,14,24,18,4,4,0.5,0.4
2025-10-03T0800,1355A,113.443,23.3035,广州市,帽峰山森林公园,,13,13,15,3,9,10,,9,9,21,26,8,9,0.6,0.6
2025-10-03T0800,2846A,113.3221,23.1322,广州市,体育西,,13,13,23,3,9,24,,21,21,17,20,5,4,0.3,0.4
2025-10-03T0800,3298A,113.5717,23.5491,广州市,从化街口,,34,34,24,20,15,8,,7,7,17,16,6,6,0.6,0.6
2025-10-03T0800,3299A,113.3472,23.3692,广州市,白云竹料,,33,33,27,18,13,12,,13,13,25,24,4,5,0.5,0.4
2025-10-03T0800,3300A,113.2981,23.237,广州市,白云嘉禾,,14,14,20,6,10,15,,12,12,22,22,4,5,0.3,0.3
2025-10-03T0800,3301A,113.4256,23.1716,广州市,黄埔科学城,,24,24,23,9,10,6,,8,8,23,22,3,5,0.8,0.5
2025-10-03T0800,3302A,113.3942,23.0483,广州市,番禺大学城,,18,18,17,7,7,22,,20,20,21,20,7,6,0.4,0.4
2025-10-03T0800,3303A,113.4922,22.8168,广州市,南沙黄阁,,17,17,17,11,8,19,,22,22,23,18,7,7,0.7,0.3
2025-10-03T0800,3304A,113.5342,22.7896,广州市,南沙街,,13,,14,9,6,16,,17,17,23,18,6,6,0.4,0.3
2025-10-03T0800,3443A,113.2902,23.5544,广州市,花都梯面,,17,17,28,7,15,5,,12,12,19,22,6,6,0.4,0.4
2025-10-03T0800,3445A,113.7858,23.7478,广州市,从化良口,,23,23,16,15,11,14,,19,19,9,10,5,5,0.7,0.7
2025-10-03T0800,3446A,113.8051,23.2614,广州市,增城荔城,,28,28,21,15,12,24,,26,26,10,11,6,6,0.5,0.4
2025-10-03T0800,2505A,109.568,23.1478,贵港市,德智高中,,,,,,,,,,,,,,,,
2025-10-03T0800,2506A,109.6047,23.0666,贵港市,江南子站,,24,24,22,16,17,25,,25,25,6,7,5,4,0.6,0.6
2025-10-03T0800,2508A,109.5669,23.1065,贵港市,荷城子站,,,,21,9,10,20,,29,29,15,11,5,4,0.5,0.5
2025-10-03T0800,3405A,109.5886,23.1172,贵港市,新世纪学校,,11,9,24,7,13,33,,37,37,7,11,4,7,0.4,0.4
2025-10-03T0800,4260A,109.5933,23.0951,贵港市,中山路155-3号,,19,,23,13,15,28,,32,32,6,7,4,4,0.5,0.5
2025-10-03T0800,1439A,106.6899,26.5998,贵阳市,马鞍山,,20,,9,14,10,35,,38,38,6,5,3,3,0.5,0.5
2025-10-03T0800,1441A,106.6243,26.6266,贵阳市,鉴湖路,,24,24,19,9,8,37,,40,40,7,5,8,6,0.1,0.3
2025-10-03T0800,1442A,106.7487,26.6343,贵阳市,燕子冲,,20,,9,14,13,37,,40,40,9,7,1,2,0.3,0.3
2025-10-03T0800,1443A,106.6555,26.4365,贵阳市,碧云窝,,39,39,23,9,5,36,,39,39,4,4,6,6,0.3,0.2
2025-10-03T0800,1445A,106.7109,26.6027,贵阳市,红边门,,22,22,18,7,13,33,,37,37,6,5,4,4,0.2,0.2
2025-10-03T0800,1446A,106.7164,26.5699,贵阳市,新华路,,19,19,16,7,5,38,,41,41,10,9,3,5,0.4,0.3
2025-10-03T0800,1447A,106.674,26.5424,贵阳市,太慈桥,,14,9,11,3,3,43,,44,44,10,11,3,4,0,0
2025-10-03T0800,1552A,106.805,26.3003,贵阳市,桐木岭,,24,24,26,12,13,45,,49,49,4,4,3,4,1.1,1.1
2025-10-03T0800,4230A,106.6882,26.5695,贵阳市,花果园大街66号,,15,,6,10,7,39,,42,42,6,4,1,2,0.5,0.5
2025-10-03T0800,4231A,106.6873,26.5169,贵阳市,漓江路57号,,12,12,14,7,6,36,,40,40,5,4,6,7,0.5,0.5
2025-10-03T0800,1862A,110.4144,25.3167,桂林市,电子科大尧山校区,,,,,,,,,,,,,,,,
2025-10-03T0800,1864A,110.3089,25.2708,桂林市,龙隐路小学,,30,30,31,21,17,22,,38,38,16,9,8,6,0.3,0.3
2025-10-03T0800,1865A,110.2869,25.2178,桂林市,八中,,30,30,31,18,16,24,,34,34,15,9,6,7,0.5,0.5
2025-10-03T0800,3531A,110.296,25.1253,桂林市,旅游学院,,34,34,28,14,17,20,,24,24,14,11,5,5,0.4,0.4
2025-10-03T0800,4222A,110.1835,25.2444,桂林市,环湖路276号,,48,48,34,27,18,6,,17,17,38,21,6,6,0.4,0.4
2025-10-03T0800,4301A,110.2803,25.2773,桂林市,信义路13号,,33,33,31,20,16,16,,44,44,36,11,7,7,0.5,0.4
2025-10-03T0800,2674A,100.2561,34.4714,果洛藏族自治州,玛沁县大武镇,,23,23,23,16,15,19,,27,27,6,7,16,13,0.5,0.5
2025-10-03T0800,1129A,126.5422,45.755,哈尔滨市,岭北,,,,,,,,,,,,,,,,
2025-10-03T0800,1130A,126.561,45.8167,哈尔滨市,松北商大,颗粒物(PM10),60,70,77,32,38,78,,44,44,19,25,8,8,0.6,0.7
2025-10-03T0800,1131A,126.979,45.5419,哈尔滨市,阿城会宁,颗粒物(PM10),57,64,72,36,42,83,,77,77,10,11,8,7,0.7,0.8
2025-10-03T0800,1132A,126.599,45.7222,哈尔滨市,南岗学府路,颗粒物(PM10),67,84,82,37,38,60,,38,38,35,26,12,11,0.9,0.9
2025-10-03T0800,1133A,126.689,45.7733,哈尔滨市,太平宏伟公园,颗粒物(PM10),60,69,88,35,44,76,,51,51,18,27,11,9,0.8,0.8
2025-10-03T0800,1134A,126.635,45.7667,哈尔滨市,道外承德广场,颗粒物(PM10),74,97,90,36,36,64,,54,54,26,30,9,9,0.7,0.8
2025-10-03T0800,1135A,126.685,45.7319,哈尔滨市,香坊红旗大街,颗粒物(PM10),59,68,80,36,47,67,,47,47,29,31,13,11,0.8,0.8
2025-10-03T0800,1136A,126.6411,45.7258,哈尔滨市,动力和平路,颗粒物(PM10),56,61,82,32,50,60,,37,37,22,29,10,9,1.0,0.8
2025-10-03T0800,1137A,126.593,45.7478,哈尔滨市,道里建国路,颗粒物(PM10),55,59,80,33,37,84,,50,50,23,35,9,8,1.9,1.5
2025-10-03T0800,1138A,126.615,45.61,哈尔滨市,平房东轻厂,颗粒物(PM10),54,58,76,27,32,68,,55,55,14,18,10,10,0.7,0.7
2025-10-03T0800,1139A,126.595,45.9855,哈尔滨市,呼兰师专,,,64,84,61,52,,,49,49,25,27,9,8,0.9,0.8
2025-10-03T0800,1140A,126.6206,45.6842,哈尔滨市,省农科院,颗粒物(PM10),69,87,99,31,44,46,,15,15,38,35,6,6,0.8,0.8
2025-10-03T0800,2688A,93.5128,42.8172,哈密市,地区监测站,颗粒物(PM10),72,93,89,20,17,54,,57,57,6,9,3,3,0.0,0.1
2025-10-03T0800,2689A,93.4961,42.8328,哈密市,哈密师范学校,颗粒物(PM10),73,95,71,12,14,54,,59,59,8,11,4,6,0.2,0.3
2025-10-03T0800,2671A,100.9048,36.9639,海北藏族自治州,海晏县西海镇,,39,,17,27,15,27,,36,36,13,8,12,12,0.6,0.4
2025-10-03T0800,3867A,102.0738,36.5056,海东市,平安区公安北苑,,49,36,38,34,25,8,,16,16,27,21,10,17,1.0,1
2025-10-03T0800,1409A,110.576,19.9507,海口市,东寨港,,18,18,11,3,8,3,,4,4,4,3,4,4,0.2,0.1
2025-10-03T0800,1410A,110.3232,20.0574,海口市,海南大学,,22,22,13,7,5,28,,30,30,3,4,4,4,0.2,0.2
2025-10-03T0800,1411A,110.283,20.0053,海口市,秀英海南医院,,14,14,15,6,5,22,,25,25,7,8,6,6,0.2,0.2
2025-10-03T0800,1412A,110.338,19.9969,海口市,海南师范大学,,16,16,12,6,5,24,,26,26,5,5,5,4,0.3,0.3
2025-10-03T0800,1413A,110.33,20.0356,海口市,龙华路环保局宿舍,,14,14,13,7,6,26,,29,29,6,5,6,6,0.2,0.1
2025-10-03T0800,3539A,110.5111,19.9736,海口市,桂林洋子站,,17,17,13,7,4,17,,23,23,8,4,5,5,0.2,0.2
2025-10-03T0800,2673A,100.6188,36.2866,海南藏族自治州,共和县恰卜恰镇,,31,31,27,6,11,9,,25,25,34,17,12,12,1.0,0.6
2025-10-03T0800,2676A,97.3731,37.3753,海西蒙古族藏族自治州,德令哈市,,31,18,29,14,10,98,,98,98,2,5,22,17,0.4,0.4
2025-10-03T0800,1048A,114.5302,36.6116,邯郸市,东污水处理厂,细颗粒物(PM2.5),60,,26,43,27,42,,49,49,18,15,10,8,0.4,0.4
2025-10-03T0800,1049A,114.4918,36.5713,邯郸市,矿院,,45,32,25,31,27,66,,70,70,14,12,6,5,0.3,0.3
2025-10-03T0800,1050A,114.484,36.6133,邯郸市,丛台公园,,42,39,28,29,21,58,,61,61,20,18,9,8,0.3,0.3
2025-10-03T0800,3458A,114.7895,36.5593,邯郸市,香泉濮院小区,颗粒物(PM10),53,56,34,28,23,54,,54,54,12,12,5,4,0.1,0.2
2025-10-03T0800,3579A,114.50634,36.77178,邯郸市,永年区实验高中,细颗粒物(PM2.5),52,51,40,36,22,43,,46,46,26,20,8,4,0.6,0.7
2025-10-03T0800,3580A,114.20016,36.44293,邯郸市,峰峰矿区临水派出所,颗粒物(PM10),55,59,37,31,20,71,,79,79,15,11,7,6,0.6,0.4
2025-10-03T0800,2634A,106.9893,33.1842,汉中市,汉川机床厂子校,,19,8,10,3,6,58,,60,60,5,6,4,4,0.5,0.5
2025-10-03T0800,2635A,107.0154,33.0706,汉中市,市监测站,,,,5,,5,,,44,,,5,,4,,0.5
2025-10-03T0800,2636A,107.0089,33.1138,汉中市,鑫源开发区,,10,6,7,3,2,31,,42,42,8,7,4,4,0.5,0.5
2025-10-03T0800,2637A,107.007,33.0323,汉中市,南郑大河坎水厂,,11,11,9,3,4,23,,36,36,10,6,2,2,0.5,0.5
2025-10-03T0800,1223A,120.2072,30.2111,杭州市,滨江,,18,18,28,12,17,41,,44,44,17,17,8,8,0.4,0.5
2025-10-03T0800,1224A,120.0633,30.2747,杭州市,西溪,,34,34,36,23,24,7,,6,6,22,18,6,6,0.5,0.5
2025-10-03T0800,1226A,120.3417,30.3150,杭州市,下沙,,23,23,27,14,16,43,,49,49,13,14,8,8,0.3,0.4
2025-10-03T0800,1227A,120.1269,30.2456,杭州市,卧龙桥,,32,30,32,22,24,7,,7,7,15,14,8,8,0.6,0.6
2025-10-03T0800,1228A,120.1903,30.2692,杭州市,浙江农大,,20,20,37,14,18,35,,35,35,19,19,6,6,0.6,0.6
2025-10-03T0800,1230A,120.1197,30.3119,杭州市,和睦小学,,36,30,30,25,24,27,,35,35,20,14,6,5,0.8,0.8
2025-10-03T0800,1231A,120.3019,30.4183,杭州市,临平镇,颗粒物(PM10),70,89,41,25,19,24,,46,46,27,21,6,6,0.8,0.7
2025-10-03T0800,1232A,120.2753,30.1839,杭州市,城厢镇,,26,26,39,12,19,34,,39,39,15,15,5,5,0.4,0.4
2025-10-03T0800,1233A,120.0883,30.1808,杭州市,云栖,,32,28,33,22,23,8,,7,7,17,20,6,6,0.7,0.7
2025-10-03T0800,3557A,119.9464,30.0494,杭州市,镇二中,,48,,32,33,33,21,,29,29,23,20,6,6,0.8,0.7
2025-10-03T0800,3558A,119.7183,30.2367,杭州市,市府大楼,,36,29,35,25,24,18,,20,20,18,13,8,8,0.3,0.3
2025-10-03T0800,3656A,120.1556,30.2864,杭州市,消防大队,,30,30,33,18,21,32,,35,35,23,19,8,8,0.8,0.7
2025-10-03T0800,1270A,117.1959,31.7848,合肥市,明珠广场,,20,14,22,12,15,61,,57,57,9,14,6,6,0.5,0.6
2025-10-03T0800,1271A,117.3072,31.8764,合肥市,三里街,,,14,24,9,11,,,55,55,8,11,4,4,0.6,0.7
2025-10-03T0800,1272A,117.2588,31.8707,合肥市,琥珀山庄,,19,19,24,13,16,52,,,,7,9,7,7,0.4,0.6
2025-10-03T0800,1273A,117.1604,31.9052,合肥市,董铺水库,,25,17,30,17,16,46,,46,46,3,4,5,5,0.3,0.4
2025-10-03T0800,1274A,117.25,31.8571,合肥市,长江中路,,22,22,25,12,12,54,,57,57,8,8,7,7,0.6,0.6
2025-10-03T0800,1275A,117.266,31.9436,合肥市,庐阳区,,27,27,26,9,12,54,,55,55,7,10,5,6,0.6,0.7
2025-10-03T0800,1276A,117.3453,31.8616,合肥市,瑶海区,,17,14,21,7,13,53,,55,55,8,13,7,8,0.5,0.7
2025-10-03T0800,1277A,117.3027,31.7964,合肥市,包河区,,16,14,22,9,13,51,,57,57,12,13,7,8,0.6,0.7
2025-10-03T0800,1278A,117.2776,31.7385,合肥市,滨湖新区,,22,22,21,14,17,56,,58,58,7,9,5,5,0.5,0.6
2025-10-03T0800,1279A,117.1318,31.8403,合肥市,高新区,,20,19,24,11,16,62,,60,60,8,9,5,5,0.6,0.6
2025-10-03T0800,3464A,117.3803,31.9147,合肥市,高教基地,,17,17,27,9,13,53,,52,52,13,15,6,7,0.4,0.5
2025-10-03T0800,3614A,79.924,37.0877,和田地区,地区环保局,颗粒物(PM10),109,168,220,41,56,76,,81,81,8,8,8,4,0.0,0.1
2025-10-03T0800,3615A,79.9131,37.113,和田地区,市环保局,颗粒物(PM10),85,119,192,39,46,68,,73,73,14,24,4,5,0.2,0.4
2025-10-03T0800,2516A,108.2011,24.715,河池市,东仁乐园,,,,,,,,,,,,,,,,
2025-10-03T0800,2517A,108.0497,24.6947,河池市,市环保站,,20,20,26,12,11,30,,25,25,12,8,9,7,0.6,0.6
2025-10-03T0800,2518A,108.0983,24.6989,河池市,市疾控中心,,19,19,21,12,11,26,,23,23,20,14,10,9,0.6,0.6
2025-10-03T0800,1696A,114.6778,23.7569,河源市,源西,,19,19,20,12,12,19,,27,27,13,9,4,4,0.8,0.7
2025-10-03T0800,1697A,114.6944,23.7586,河源市,东埔,,25,25,19,13,13,17,,28,28,15,10,6,5,0.4,0.3
2025-10-03T0800,1698A,114.6892,23.7233,河源市,老城,,26,19,22,18,10,26,,31,31,8,6,12,6,0.5,0.4
2025-10-03T0800,1718A,115.4208,35.2464,菏泽市,气象局,,40,34,20,28,16,59,,60,60,10,12,2,2,0.4,0.4
2025-10-03T0800,3374A,115.5564,35.0891,菏泽市,定陶老年大学,,29,29,13,19,7,50,,54,54,7,6,4,4,0.4,0.4
2025-10-03T0800,4184A,115.4797,35.24401,菏泽市,永昌路1号,,42,29,20,29,17,61,,61,61,7,7,8,7,0.3,0.2
2025-10-03T0800,4193A,115.4715,35.2800,菏泽市,长城路999号,,32,27,17,22,14,56,,54,54,16,18,8,7,0.3,0.3
2025-10-03T0800,2514A,111.5264,24.4172,贺州市,环保小区,,21,21,23,14,24,27,,22,22,11,9,16,17,0.7,0.6
2025-10-03T0800,2515A,111.5608,24.4078,贺州市,政协大楼,,20,15,21,14,17,20,,16,16,13,11,18,14,0.7,0.7
2025-10-03T0800,3534A,111.4744,24.4553,贺州市,西湾,,29,29,26,19,18,13,,14,14,17,12,9,9,0.5,0.4
2025-10-03T0800,2385A,114.17,35.9019,鹤壁市,市监测站,颗粒物(PM10),55,59,37,30,22,51,,63,63,18,12,9,8,0.9,0.6
2025-10-03T0800,2386A,114.2956,35.7511,鹤壁市,市交警支队,颗粒物(PM10),54,57,46,32,20,52,,67,67,16,14,7,6,0.7,0.7
2025-10-03T0800,2387A,114.2878,35.7306,鹤壁市,迎宾馆,颗粒物(PM10),55,59,38,33,20,54,,70,70,17,16,6,5,0.6,0.7
2025-10-03T0800,3474A,114.2617,35.6822,鹤壁市,大新区,细颗粒物(PM2.5),59,57,32,42,20,45,,68,68,15,9,8,8,0.7,0.6
2025-10-03T0800,3596A,114.1572,35.9603,鹤壁市,南山宾馆,细颗粒物(PM2.5),63,62,37,45,28,48,,60,60,17,11,5,4,0.8,0.5
2025-10-03T0800,2244A,130.2537,47.3416,鹤岗市,哈啤分公司,,20,20,26,12,14,45,,58,58,14,11,12,13,0.4,0.4
2025-10-03T0800,2245A,130.2684,47.3086,鹤岗市,斯达机电,,33,33,32,22,13,29,,58,58,27,13,12,12,0.4,0.4
2025-10-03T0800,2246A,130.3114,47.3388,鹤岗市,东山纸板厂,颗粒物(PM10),53,55,40,13,20,47,,51,51,15,17,13,13,0.6,0.5
2025-10-03T0800,2247A,130.1097,47.3382,鹤岗市,五号水库,,16,16,22,3,8,32,,31,31,9,10,6,6,0.2,0.2
2025-10-03T0800,2263A,127.4833,50.2524,黑河市,交通局,,21,21,36,8,15,33,,35,35,20,18,5,6,0.4,0.3
2025-10-03T0800,2264A,127.5144,50.2341,黑河市,环保局,,19,,30,13,15,32,,34,34,14,17,5,6,0.3,0.3
2025-10-03T0800,2265A,127.5291,50.2472,黑河市,大黑河岛,,,12,32,10,10,33,,35,35,7,7,11,11,,0.4
2025-10-03T0800,1074A,115.6838,37.7541,衡水市,电机北厂,,33,33,35,14,17,91,,82,82,8,12,6,6,0.2,0.2
2025-10-03T0800,1075A,115.6303,37.7316,衡水市,市监测站,,31,24,36,12,13,98,,88,88,7,11,4,5,0.2,0.2
2025-10-03T0800,3188A,115.6683,37.7217,衡水市,市城管局,,30,27,40,14,17,95,,87,87,10,12,6,6,0.3,0.3
2025-10-03T0800,3459A,115.5989,37.5491,衡水市,地表水厂,,28,28,36,9,15,88,,74,74,8,13,2,3,0.2,0.2
2025-10-03T0800,2456A,112.5003,26.9167,衡阳市,原169医院,,43,42,46,30,25,23,,29,29,16,12,29,9,0.7,0.6
2025-10-03T0800,2457A,112.6194,26.9258,衡阳市,衡阳化工总厂,,42,36,47,29,25,23,,30,30,18,10,7,8,0.8,0.8
2025-10-03T0800,2458A,112.6211,26.8956,衡阳市,珠晖区环保局,,30,26,36,21,27,22,,34,34,20,9,18,11,1.1,1
2025-10-03T0800,2459A,112.6197,26.8733,衡阳市,市委党校,,36,34,38,25,23,26,,32,32,12,8,10,9,0.6,0.5
2025-10-03T0800,2460A,112.6006,26.8919,衡阳市,市监测站,,32,32,38,18,23,30,,32,32,11,9,23,7,0.9,0.8
2025-10-03T0800,2461A,112.5664,26.9056,衡阳市,真空机电公司,,50,50,37,23,22,19,,20,20,21,13,23,13,1.8,1.5
2025-10-03T0800,3399A,112.6703,26.882,衡阳市,师范学院,,40,40,42,18,26,33,,36,36,11,10,10,7,0.9,0.9
2025-10-03T0800,2608A,103.3772,23.3993,红河哈尼族彝族自治州,污水处理厂,,13,10,14,9,8,21,,25,25,8,5,8,8,0.3,0.2
2025-10-03T0800,2609A,103.3861,23.35,红河哈尼族彝族自治州,监测站,,22,22,19,12,8,30,,32,32,3,2,10,11,0.4,0.3
2025-10-03T0800,3038A,103.3758,23.368,红河哈尼族彝族自治州,州图书馆,,30,,9,21,16,34,,34,34,4,4,2,2,0.2,0.2
2025-10-03T0800,1090A,111.6507,40.7517,呼和浩特市,呼市一监,,44,44,49,22,22,30,,44,44,31,25,7,8,0.3,0.3
2025-10-03T0800,1091A,111.6572,40.8033,呼和浩特市,小召,颗粒物(PM10),51,51,58,33,30,42,,37,37,33,38,7,8,0.4,0.5
2025-10-03T0800,1094A,111.7516,40.8369,呼和浩特市,如意水处理厂,颗粒物(PM10),57,64,55,28,23,22,,6,6,42,45,8,9,0.4,0.5
2025-10-03T0800,1095A,111.7276,40.8062,呼和浩特市,二十九中,颗粒物(PM10),55,60,55,31,25,12,,14,14,46,40,8,9,0.6,0.6
2025-10-03T0800,1096A,111.5512,40.7866,呼和浩特市,工大金川校区,颗粒物(PM10),61,71,61,29,25,4,,30,30,54,38,8,9,0.5,0.3
2025-10-03T0800,1097A,111.717,40.7612,呼和浩特市,化肥厂生活区,颗粒物(PM10),54,57,47,27,22,21,,19,19,42,42,6,7,0.5,0.4
2025-10-03T0800,3698A,111.5968,40.8178,呼和浩特市,红旗小学,颗粒物(PM10),64,78,60,32,25,11,,7,7,47,45,8,9,0.4,0.4
2025-10-03T0800,3699A,111.6518,40.8389,呼和浩特市,海东办,颗粒物(PM10),63,75,65,33,25,5,,29,29,49,37,7,8,0.6,0.5
2025-10-03T0800,2192A,119.7594,49.2261,呼伦贝尔市,区环保局,颗粒物(PM10),59,68,40,20,17,81,,81,81,17,19,13,8,0.6,0.5
2025-10-03T0800,3061A,119.7512,49.1577,呼伦贝尔市,国华电力东,,31,31,25,15,11,88,,81,81,4,7,6,6,0.4,0.3
2025-10-03T0800,1250A,120.0751,30.8669,湖州市,城西水厂,细颗粒物(PM2.5),83,81,42,61,30,24,,34,34,23,20,7,8,0.7,0.4
2025-10-03T0800,2873A,120.0830,30.8929,湖州市,仁皇山新区,细颗粒物(PM2.5),67,67,39,48,26,32,,39,39,15,15,6,5,0.8,0.5
2025-10-03T0800,2907A,120.1844,30.8596,湖州市,吴兴区站,细颗粒物(PM2.5),58,48,38,41,25,22,,29,29,20,13,6,6,0.9,0.7
2025-10-03T0800,3562A,120.4148,30.8538,湖州市,南浔区站,,,,31,,31,30,,35,35,13,10,9,9,1.0,0.6
2025-10-03T0800,1607A,120.9049,40.7211,葫芦岛市,龙港区,颗粒物(PM10),67,83,38,47,22,16,,52,52,45,12,33,9,1.0,0.7
2025-10-03T0800,1608A,120.8392,40.7514,葫芦岛市,化工街,颗粒物(PM10),62,73,54,27,29,19,,11,11,43,28,96,38,0.7,0.6
2025-10-03T0800,1609A,120.8341,40.7073,葫芦岛市,新区,细颗粒物(PM2.5),64,53,42,46,35,6,,29,29,61,20,9,6,1.2,0.9
2025-10-03T0800,1610A,120.8695,40.7677,葫芦岛市,东城区,细颗粒物(PM2.5),58,64,48,41,40,8,,15,15,47,26,39,27,1.0,0.9
2025-10-03T0800,2482A,109.5981,27.5721,怀化市,林科所,,23,23,21,3,9,62,,70,70,5,6,4,5,0.5,0.6
2025-10-03T0800,2483A,109.9453,27.5444,怀化市,河西地税局,,20,20,22,13,14,55,,49,49,6,8,1,2,0.3,0.3
2025-10-03T0800,2484A,109.9781,27.5342,怀化市,市四医院,,22,22,26,10,16,67,,70,70,5,13,6,7,0.1,0.2
2025-10-03T0800,2485A,109.9972,27.5578,怀化市,监测楼,,21,20,26,10,15,67,,66,66,2,5,3,4,0.0,0.1
2025-10-03T0800,2486A,110.0394,27.583,怀化市,市委党校,,24,24,22,14,14,42,,52,52,11,7,7,6,0.3,0.2
2025-10-03T0800,1210A,119.036,33.5981,淮安市,钵池山,,29,,18,20,25,71,,73,73,17,17,6,7,0.6,0.7
2025-10-03T0800,1211A,119.007,33.575,淮安市,北京南路,,29,29,19,13,23,70,,70,70,9,12,6,7,0.6,0.8
2025-10-03T0800,1212A,118.989,33.6067,淮安市,市监测站,,24,14,22,12,21,74,,77,77,16,17,5,5,0.5,0.7
2025-10-03T0800,1213A,119.135,33.5039,淮安市,楚州区监测站,,29,29,26,18,20,66,,64,64,15,14,8,8,0.6,0.8
2025-10-03T0800,3426A,118.8755,33.2894,淮安市,新华书店,,24,16,18,12,13,75,,72,72,8,11,6,6,0.5,0.7
2025-10-03T0800,4206A,119.0288,33.6319,淮安市,承德北路606号,,22,22,24,15,19,62,,67,67,11,10,6,6,0.4,0.5
2025-10-03T0800,2282A,116.8004,33.975,淮北市,监测站,,26,,10,18,8,55,,71,71,18,14,7,7,0.9,0.7
2025-10-03T0800,2283A,116.8091,33.9007,淮北市,烈山区政府,,23,,5,10,2,71,,75,75,5,8,7,7,0.4,0.4
2025-10-03T0800,3330A,116.8873,33.9836,淮北市,杜集区检察院,,33,,10,23,10,60,,71,71,2,4,9,9,0.3,0.3
2025-10-03T0800,4017A,116.7923,33.9535,淮北市,市博物馆,,30,,10,21,9,56,,72,72,17,12,8,7,0.6,0.5
2025-10-03T0800,2277A,116.8305,32.7727,淮南市,潘集区政府,,19,,15,11,16,59,,59,59,5,7,4,4,0.3,0.4
2025-10-03T0800,2279A,116.8569,32.5951,淮南市,谢家集区政府,,16,14,14,8,7,50,,54,54,8,9,6,6,0.4,0.4
2025-10-03T0800,2280A,116.8281,32.633,淮南市,八公山区政府,,20,20,22,14,14,53,,52,52,6,8,6,5,0.3,0.4
2025-10-03T0800,2281A,116.6325,32.6201,淮南市,焦岗湖风景区管理处,,,,,,,,,,,,,,,,
2025-10-03T0800,2894A,117.0566,32.6531,淮南市,经济技术开发区消防队,,17,11,18,3,8,52,,55,55,6,10,7,8,0.2,0.3
2025-10-03T0800,3329A,117.0108,32.5893,淮南市,山南新区,,16,8,18,7,9,51,,58,58,11,13,4,4,0.2,0.3
2025-10-03T0800,4209A,117.0031,32.6445,淮南市,国庆中路369号,,22,22,28,14,17,49,,50,50,8,11,5,6,0.3,0.4
2025-10-03T0800,2446A,114.9028,30.4742,黄冈市,职工中心,,,20,36,7,16,55,,52,52,7,11,5,6,,1
2025-10-03T0800,2929A,114.8858,30.4519,黄冈市,红卫路,,17,17,26,10,17,53,,51,51,10,10,3,4,0.3,0.4
2025-10-03T0800,3398A,114.9136,30.4445,黄冈市,市林业局,,18,13,27,3,16,55,,52,52,7,10,3,5,0.3,0.4
2025-10-03T0800,2672A,102.0199,35.5102,黄南藏族自治州,同仁县隆务镇,,17,17,26,7,12,24,,25,25,2,8,10,10,0.2,0.3
2025-10-03T0800,2295A,118.2903,29.6963,黄山市,延安路89号,细颗粒物(PM2.5),52,,39,36,17,9,,10,10,9,7,5,5,0.7,0.6
2025-10-03T0800,2297A,118.1371,30.2756,黄山市,黄山区政府5号楼,,33,26,32,23,22,8,,10,10,6,5,4,4,0.5,0.6
2025-10-03T0800,4210A,118.3354,29.7203,黄山市,滨江东路7-2号,,44,44,37,24,16,10,,13,13,10,7,3,3,0.5,0.5
2025-10-03T0800,2423A,115.0601,30.2313,黄石市,沈家营,,18,18,50,3,16,42,,39,39,6,9,8,9,0.7,0.8
2025-10-03T0800,2426A,114.8988,30.2019,黄石市,铁山,,28,28,37,11,15,44,,42,42,9,9,4,5,0.5,0.6
2025-10-03T0800,2427A,115.0307,30.2092,黄石市,团城山,,23,23,40,3,16,37,,35,35,5,8,7,9,0.9,0.9
2025-10-03T0800,3149A,115.0235,30.1578,黄石市,笔架山北路,,21,21,33,3,13,32,,34,34,2,6,7,7,0.4,0.4
2025-10-03T0800,4185A,115.0780,30.21118,黄石市,磁湖东路29号,,20,20,52,3,21,38,,36,36,7,11,11,11,0.7,0.7
2025-10-03T0800,1392A,114.4183,23.0528,惠州市,河南岸金山湖子站,,22,22,16,12,9,23,,26,26,11,9,10,9,0.5,0.5
2025-10-03T0800,1393A,114.4053,23.0822,惠州市,下埔横江三路子站,,25,25,21,11,9,30,,37,37,9,6,8,7,0.8,0.7
2025-10-03T0800,1394A,114.4103,23.1142,惠州市,江北云山西路子站,,29,29,16,15,9,29,,42,42,14,10,14,10,0.5,0.4
2025-10-03T0800,1395A,114.4645,22.7833,惠州市,惠阳区承修路船湖子站,,36,36,19,19,10,22,,35,35,15,9,11,8,0.6,0.5
2025-10-03T0800,1396A,114.5317,22.7422,惠州市,大亚湾管委会子站,,23,23,15,13,8,16,,41,41,30,11,9,9,0.5,0.4
2025-10-03T0800,3314A,114.4338,22.8134,惠州市,惠阳秋长,,22,22,16,11,7,28,,32,32,11,7,11,10,0.5,0.4
2025-10-03T0800,3452A,114.6517,22.775,惠州市,大亚湾霞涌,,23,,13,16,11,29,,29,29,9,8,7,6,0.8,0.6
2025-10-03T0800,2240A,130.9762,45.3001,鸡西市,环保局,,40,40,47,24,23,35,,57,57,33,23,9,11,0.9,0.9
2025-10-03T0800,2243A,130.9429,45.3039,鸡西市,第一中学,,39,39,42,18,20,53,,63,63,20,18,10,11,0.8,0.8
2025-10-03T0800,3707A,131.0207,45.3073,鸡西市,欧美日汽修厂,颗粒物(PM10),55,60,51,31,25,36,,27,27,29,20,11,11,0.9,0.8
2025-10-03T0800,3709A,130.9967,45.3106,鸡西市,市政设施管理处,,,,49,,23,,,35,,,26,,12,,0.8
2025-10-03T0800,2367A,114.9754,27.0803,吉安市,红声器材厂,,37,37,32,20,17,44,,54,54,9,5,11,9,0.5,0.5
2025-10-03T0800,2368A,114.9658,27.0999,吉安市,市森林工业局,,35,35,34,19,21,47,,53,53,11,7,12,9,0.5,0.5
2025-10-03T0800,2369A,114.99,27.1312,吉安市,市环境监测站,,27,27,28,18,18,47,,57,57,6,3,10,7,0.5,0.5
2025-10-03T0800,2370A,115.0093,27.0968,吉安市,青原区法院,,30,30,32,18,18,51,,62,62,7,5,11,9,0.7,0.7
2025-10-03T0800,1772A,126.54,43.8622,吉林市,哈达湾,,45,45,55,30,34,55,,59,59,21,18,4,5,0.5,0.6
2025-10-03T0800,1773A,126.5844,43.8358,吉林市,东局子,,42,42,45,26,30,50,,47,47,20,17,6,6,0.9,0.9
2025-10-03T0800,1774A,126.5052,43.8245,吉林市,电力学院,颗粒物(PM10),51,51,54,32,39,21,,16,16,29,19,7,6,0.8,0.8
2025-10-03T0800,1775A,126.6133,43.8972,吉林市,江北,,47,47,51,30,34,36,,36,36,23,11,2,3,0.9,0.8
2025-10-03T0800,1776A,126.555,43.8306,吉林市,江南公园,,40,39,45,28,33,31,,43,43,31,13,4,4,0.8,0.8
2025-10-03T0800,1778A,126.7061,43.7133,吉林市,丰满,,,23,28,23,28,51,,61,61,,9,5,6,1.0,1.4
2025-10-03T0800,2868A,126.4739,43.953,吉林市,九站,颗粒物(PM10),52,53,51,34,33,61,,44,44,23,21,10,8,0.5,0.6
2025-10-03T0800,1299A,116.9862,36.6114,济南市,科干所,,29,22,16,20,14,60,,65,65,13,15,6,6,0.4,0.5
2025-10-03T0800,1300A,116.9376,36.665,济南市,农科所,,25,24,19,17,14,59,,66,66,14,16,8,8,0.4,0.5
2025-10-03T0800,1301A,117.1265,36.6734,济南市,开发区,,29,27,19,20,17,59,,62,62,12,14,2,2,0.6,0.6
2025-10-03T0800,1303A,117.0624,36.6868,济南市,省种子仓库,,32,29,25,22,19,55,,62,62,16,16,5,4,0.6,0.7
2025-10-03T0800,1304A,116.9489,36.6447,济南市,机床二厂,,29,22,20,20,17,53,,63,63,18,16,7,7,0.3,0.3
2025-10-03T0800,1305A,117.0495,36.663,济南市,市监测站,,35,29,19,24,18,51,,67,67,18,16,2,2,0.8,0.8
2025-10-03T0800,1306A,116.7675,36.5484,济南市,长清党校,,29,27,20,20,17,59,,66,66,18,19,5,6,0.6,0.6
2025-10-03T0800,1616A,117.6795,36.229,济南市,技术学院,,35,27,5,24,8,65,,68,68,12,11,7,7,0.6,0.5
2025-10-03T0800,1961A,117.532,36.6868,济南市,东山小学,,32,32,17,22,13,74,,74,74,17,14,6,6,0.3,0.4
2025-10-03T0800,3059A,117.7161,36.2049,济南市,泰兴公司,,39,29,7,27,5,60,,68,68,11,8,8,8,0.3,0.2
2025-10-03T0800,3064A,117.6867,36.2171,济南市,莱芜战役纪念馆,,40,29,9,28,10,62,,62,62,16,13,4,4,0.7,0.6
2025-10-03T0800,3494A,117.1673,36.9782,济南市,济阳区政府,,25,24,20,17,13,55,,72,72,16,8,7,7,0.3,0.3
2025-10-03T0800,3495A,117.1171,36.63,济南市,锦屏中学,,20,12,11,12,7,63,,63,63,8,10,4,4,0.7,0.7
2025-10-03T0800,3682A,116.9814,36.6819,济南市,济南四建,,25,19,17,17,18,59,,68,68,13,13,4,4,0.7,0.7
2025-10-03T0800,1653A,116.6251,35.4302,济宁市,火炬城,,25,22,15,17,7,38,,49,49,9,7,6,5,0.6,0.3
2025-10-03T0800,1655A,116.5491,35.4042,济宁市,电化厂,,32,29,18,22,11,34,,47,47,20,12,1,1,0.7,0.5
2025-10-03T0800,3500A,116.5814,35.3707,济宁市,北湖一中,,38,26,13,26,11,40,,49,49,9,6,3,3,0.6,0.3
2025-10-03T0800,3501A,116.8249,35.5593,济宁市,服务中心,,12,12,12,3,1,34,,50,50,12,6,6,5,0.4,0.3
2025-10-03T0800,3678A,116.5907,35.4054,济宁市,市第七中学,,25,25,16,9,2,42,,50,50,9,8,8,7,0.7,0.4
2025-10-03T0800,2255A,130.2751,46.8028,佳木斯市,佳纺,,34,34,30,10,14,29,,30,30,20,15,6,4,0.5,0.5
2025-10-03T0800,2256A,130.3995,46.8307,佳木斯市,发电厂,,26,26,41,10,16,34,,38,38,20,17,8,7,0.3,0.4
2025-10-03T0800,2257A,130.3258,46.7975,佳木斯市,环保局,,20,20,31,3,16,36,,38,38,17,16,9,6,0.7,0.7
2025-10-03T0800,2258A,130.3648,46.8032,佳木斯市,十一中,,21,21,36,7,18,23,,22,22,10,16,10,10,0.4,0.6
2025-10-03T0800,2259A,130.3794,46.7588,佳木斯市,四丰,,12,12,15,8,12,28,,24,24,21,15,1,52,0.2,0.2
2025-10-03T0800,1252A,120.7436,30.778,嘉兴市,清河小学,颗粒物(PM10),57,63,27,29,14,21,,43,43,32,16,7,7,1.1,1
2025-10-03T0800,1253A,120.726,30.7478,嘉兴市,嘉兴学院,细颗粒物(PM2.5),60,68,26,43,15,22,,40,40,29,15,5,4,0.8,0.7
2025-10-03T0800,2872A,120.7846,30.7525,嘉兴市,南湖区残联,,33,33,25,22,16,30,,49,49,21,9,6,6,0.8,0.8
2025-10-03T0800,3407A,120.6916,30.7739,嘉兴市,秀洲住建,颗粒物(PM10),57,64,29,39,16,21,,36,36,24,16,7,7,0.9,0.7
2025-10-03T0800,1945A,98.2908,39.7711,嘉峪关市,气象局,颗粒物(PM10),59,68,107,22,20,38,,62,62,48,23,86,51,0.6,1.1
2025-10-03T0800,2884A,98.2672,39.7978,嘉峪关市,酒钢宾馆,颗粒物(PM10),64,78,125,27,32,54,,66,66,35,22,68,59,0.6,1
2025-10-03T0800,3248A,98.2643,39.7724,嘉峪关市,雄关区,颗粒物(PM10),54,58,88,24,27,47,,55,55,41,30,43,44,0.5,0.7
2025-10-03T0800,1383A,113.1064,22.6058,江门市,北街,,23,,15,16,6,31,,34,34,12,9,4,4,0.5,0.4
2025-10-03T0800,1384A,113.0731,22.5835,江门市,西区,,23,,18,16,8,13,,32,32,20,8,4,3,0.6,0.5
2025-10-03T0800,1385A,113.0219,22.5311,江门市,圭峰西,,,,16,8,7,32,,36,36,8,7,5,4,0.5,0.5
2025-10-03T0800,1386A,113.0828,22.5947,江门市,东湖,,11,11,12,7,8,26,,33,33,12,10,2,2,0.4,0.4
2025-10-03T0800,3311A,113.1075,22.5647,江门市,江海富民,,24,24,25,9,10,30,,36,36,15,13,7,6,0.3,0.3
2025-10-03T0800,3449A,113.05,22.4667,江门市,新会银湖,,16,14,16,11,9,11,,12,12,20,11,3,3,0.5,0.5
2025-10-03T0800,1830A,113.1992,35.2590,焦作市,影视城,,,,23,,12,,,72,,,10,,10,,0.6
2025-10-03T0800,3335A,113.3137,35.2641,焦作市,马村街道办,,44,44,36,21,22,17,,41,41,12,10,4,4,0.6,0.4
2025-10-03T0800,3336A,113.2465,35.2373,焦作市,焦作技师学院,颗粒物(PM10),52,53,36,24,17,13,,39,39,18,16,8,8,0.8,0.7
2025-10-03T0800,3477A,113.1656,35.2539,焦作市,中站许衡医院,,40,38,30,28,28,34,,50,50,19,16,5,6,0.7,0.6
2025-10-03T0800,3981A,113.2449,35.1803,焦作市,原李万街道办,,48,48,36,31,18,11,,15,15,21,20,11,9,0.7,0.6
2025-10-03T0800,4264A,113.2340,35.2190,焦作市,新安路1731号,颗粒物(PM10),52,53,32,31,22,16,,40,40,21,17,7,6,1.0,0.9
2025-10-03T0800,4295A,113.2722,35.2121,焦作市,人民路3066号,颗粒物(PM10),51,52,39,22,17,13,,32,32,20,16,5,4,0.7,0.6
2025-10-03T0800,1708A,116.3701,23.5345,揭阳市,新兴,,26,22,32,18,22,14,,19,19,20,13,7,7,0.8,0.7
2025-10-03T0800,1709A,116.3264,23.5443,揭阳市,西马,,29,23,34,20,18,17,,18,18,11,10,5,4,0.8,0.8
2025-10-03T0800,1710A,116.3611,23.5626,揭阳市,东兴,,28,28,32,17,16,13,,11,11,17,12,9,8,0.6,0.6
2025-10-03T0800,1711A,116.4151,23.5294,揭阳市,渔湖,,25,25,33,17,17,14,,12,12,21,16,7,9,0.8,0.7
2025-10-03T0800,3320A,116.403,23.5699,揭阳市,曲溪,,37,37,30,19,19,19,,22,22,15,9,6,3,0.7,0.6
2025-10-03T0800,1944A,102.1692,38.5167,金昌市,天庆家园,颗粒物(PM10),151,251,74,32,25,80,,66,66,3,14,3,15,0.3,0.7
2025-10-03T0800,4022A,102.1647,38.5371,金昌市,金川区人防中心,颗粒物(PM10),174,298,63,38,23,70,,58,58,4,12,2,11,0.5,0.6
2025-10-03T0800,4239A,102.1930,38.5319,金昌市,长春路96号,颗粒物(PM10),95,140,57,33,20,74,,59,59,2,10,4,24,0.4,0.6
2025-10-03T0800,1262A,119.647,29.077,金华市,十五中,,,,44,10,17,37,,46,46,13,11,4,3,0.5,0.5
2025-10-03T0800,1263A,119.686,29.1029,金华市,监测站,,15,15,24,8,14,38,,50,50,15,13,4,3,0.4,0.5
2025-10-03T0800,3659A,119.656,29.1131,金华市,气象局,,12,12,25,6,12,38,,46,46,12,14,4,3,0.1,0.3
2025-10-03T0800,1767A,121.1115,41.0879,锦州市,南山,细颗粒物(PM2.5),85,,39,63,44,6,,34,34,37,19,7,7,1.1,0.8
2025-10-03T0800,1768A,121.0604,40.8428,锦州市,开发区,细颗粒物(PM2.5),124,,50,94,37,3,,16,16,60,39,12,11,1.2,0.9
2025-10-03T0800,1769A,121.1836,41.1119,锦州市,百股街道,细颗粒物(PM2.5),62,,45,44,33,15,,47,47,34,18,11,8,1.1,0.9
2025-10-03T0800,1770A,121.1178,41.1222,锦州市,天安街道,细颗粒物(PM2.5),89,,49,66,51,23,,39,39,46,23,16,10,1.5,1.1
2025-10-03T0800,1771A,121.1303,41.1386,锦州市,北湖公园,细颗粒物(PM2.5),72,,52,52,40,41,,51,51,26,14,15,7,1.2,1
2025-10-03T0800,2160A,112.85,35.5051,晋城市,自来水公司,颗粒物(PM10),53,56,44,22,18,17,,35,35,24,14,4,4,0.9,0.8
2025-10-03T0800,2161A,112.8318,35.4936,晋城市,白云商贸,,44,44,36,14,10,28,,43,43,22,11,3,4,0.9,0.8
2025-10-03T0800,2162A,112.8508,35.4887,晋城市,市环保局,,38,38,30,17,17,10,,39,39,21,12,4,3,1.0,0.9
2025-10-03T0800,2163A,112.8676,35.4897,晋城市,技术学院,,48,48,32,14,13,17,,38,38,20,12,5,4,1.0,0.8
2025-10-03T0800,2165A,112.8453,35.546,晋城市,白马寺,细颗粒物(PM2.5),54,47,27,38,23,70,,70,70,14,9,11,7,1.2,0.9
2025-10-03T0800,3620A,112.8271,35.4828,晋城市,泽州一中,,43,43,30,14,14,39,,50,50,18,13,3,3,0.8,0.6
2025-10-03T0800,2173A,112.7249,37.7067,晋中市,南都小区,,42,42,33,26,20,69,,72,72,15,17,6,6,0.5,0.4
2025-10-03T0800,2174A,112.6991,37.6982,晋中市,榆次区政府,,46,46,31,20,18,70,,73,73,14,18,7,7,0.2,0.2
2025-10-03T0800,2865A,112.7195,37.6828,晋中市,榆次三中,,46,46,31,19,13,66,,69,69,14,14,8,8,0.3,0.2
2025-10-03T0800,4200A,112.7478,37.6954,晋中市,迎宾街26号,,39,39,27,22,11,64,,69,69,15,16,6,6,0.6,0.3
2025-10-03T0800,2439A,112.2014,31.0481,荆门市,竹园小学,,23,23,12,14,7,66,,70,70,11,10,1,2,0.4,0.5
2025-10-03T0800,2440A,112.1969,30.9891,荆门市,掇刀,,22,22,8,12,10,67,,72,72,6,5,1,1,0.3,0.3
2025-10-03T0800,2441A,112.2213,31.0386,荆门市,石化一小,,19,17,11,8,4,58,,63,63,8,7,2,5,0.3,0.3
2025-10-03T0800,3012A,112.1849,31.0362,荆门市,西山林语,,25,25,10,13,8,71,,75,75,5,4,3,2,0.4,0.3
2025-10-03T0800,3547A,112.1632,31.0138,荆门市,龙泉中学南校,,22,17,7,10,4,70,,75,75,13,9,3,3,0.4,0.4
2025-10-03T0800,1844A,112.2494,30.3197,荆州市,市图书馆,,26,21,16,18,11,55,,61,61,14,9,4,4,0.5,0.4
2025-10-03T0800,1845A,112.2008,30.3544,荆州市,市委党校,,29,,16,20,12,52,,57,57,11,9,6,6,0.4,0.4
2025-10-03T0800,3194A,112.2747,30.3122,荆州市,管委会,,26,26,14,13,10,54,,57,57,9,7,7,7,0.5,0.4
2025-10-03T0800,4268A,112.1722,30.3366,荆州市,学苑路85号,,25,,15,17,10,60,,66,66,9,12,5,4,0.4,0.4
2025-10-03T0800,2342A,117.3102,29.3867,景德镇市,王港中学,,,,,,,,,,,,,,,,
2025-10-03T0800,2343A,117.2117,29.2933,景德镇市,老干部活动中心,,48,41,34,33,26,16,,23,23,20,13,4,5,1.2,1
2025-10-03T0800,2344A,117.1894,29.2789,景德镇市,兽医站,,43,42,37,30,24,21,,24,24,15,11,7,8,0.9,0.8
2025-10-03T0800,2346A,117.2461,29.2956,景德镇市,陶研所,,50,44,36,35,26,16,,21,21,14,11,6,6,0.9,0.7
2025-10-03T0800,4289A,117.1542,29.2566,景德镇市,青少年活动中心,,43,34,42,30,28,22,,23,23,22,18,13,14,0.9,0.8
2025-10-03T0800,1803A,115.9872,29.6815,九江市,十里,,43,43,46,23,35,27,,26,26,14,21,7,6,0.7,0.7
2025-10-03T0800,1804A,115.9584,29.7046,九江市,茅山头,,42,42,46,26,31,22,,25,25,14,17,4,4,0.7,0.7
2025-10-03T0800,1805A,115.9877,29.7295,九江市,西园,,34,34,42,22,25,25,,29,29,24,27,3,7,0.7,0.7
2025-10-03T0800,1808A,115.9114,29.6038,九江市,综合工业园,颗粒物(PM10),57,63,47,25,30,26,,30,30,20,20,7,8,0.9,0.9
2025-10-03T0800,1809A,116.0721,29.7535,九江市,石化总厂,,48,48,52,22,33,35,,24,24,12,23,3,6,0.7,0.7
2025-10-03T0800,1810A,115.9773,29.5698,九江市,庐山气象台,,,,,,,,,,,,,,,,
2025-10-03T0800,3190A,116.0254,29.6994,九江市,外国语学校,,39,,36,27,32,27,,24,24,15,20,3,4,0.6,0.6
2025-10-03T0800,4253A,116.0102,29.6594,九江市,莲花大道8号,,35,35,33,24,23,19,,29,29,13,8,6,5,0.7,0.7
2025-10-03T0800,4240A,98.4958,39.7339,酒泉市,玉门东路5号,,31,31,108,17,30,76,,78,78,6,14,7,13,0.2,0.4
2025-10-03T0800,4241A,98.5099,39.7506,酒泉市,北大街108号,,34,34,102,21,25,71,,73,73,2,11,6,12,0.1,0.4
2025-10-03T0800,2698A,76.0072,39.4467,喀什地区,巡警大队,颗粒物(PM10),74,97,121,35,31,23,,70,70,41,24,4,5,0.4,0.3
2025-10-03T0800,2699A,75.9755,39.4694,喀什地区,吾办,颗粒物(PM10),64,78,129,30,34,27,,70,70,28,20,6,8,0.5,0.5
2025-10-03T0800,4027A,75.9483,39.4689,喀什地区,老干局,颗粒物(PM10),139,228,125,50,24,1,,66,66,66,20,3,3,0.2,0.1
2025-10-03T0800,1824A,114.3389,34.7781,开封市,肿瘤医院,,43,43,28,27,19,56,,62,62,14,13,5,5,0.7,0.6
2025-10-03T0800,1826A,114.2885,34.7965,开封市,世纪星幼儿园,,43,31,25,30,22,60,,64,64,12,13,5,5,0.6,0.6
2025-10-03T0800,3147A,114.3438,34.8106,开封市,龙亭公园,,36,29,33,25,18,48,,53,53,13,12,7,7,0.8,0.8
2025-10-03T0800,3210A,114.3644,34.7964,开封市,汴京公园,,42,30,29,29,20,55,,54,54,12,12,6,6,0.6,0.5
2025-10-03T0800,3473A,114.2485,34.8306,开封市,技师学院,,48,34,26,33,21,53,,49,49,12,11,8,7,0.8,0.8
2025-10-03T0800,3592A,114.4644,34.7556,开封市,祥符区生态环境局,,39,39,27,23,17,49,,54,54,12,12,5,5,0.6,0.5
2025-10-03T0800,1951A,84.895,45.6094,克拉玛依市,长征新村,,16,12,12,11,8,18,,20,20,10,9,2,2,0.3,0.2
2025-10-03T0800,1952A,84.8988,45.5893,克拉玛依市,南林小区,,17,17,14,7,8,4,,13,13,14,12,6,6,0.5,0.4
2025-10-03T0800,1954A,84.905,44.3396,克拉玛依市,独山子区,,12,9,15,8,9,23,,20,20,7,8,4,4,0.3,0.3
2025-10-03T0800,1955A,85.6979,46.098,克拉玛依市,乌尔禾区商贸楼,,10,10,9,7,6,17,,23,23,7,6,3,4,0.1,0.3
2025-10-03T0800,3612A,85.1045,45.6899,克拉玛依市,白碱滩区新站,颗粒物(PM10),54,58,38,10,10,24,,36,36,6,5,4,4,0.2,0.2
2025-10-03T0800,2697A,76.1454,39.7142,克孜勒苏柯尔克孜自治州,市人民政府,,31,31,100,17,23,87,,100,100,8,5,9,11,0.1,0.1
2025-10-03T0800,3665A,76.1658,39.7157,克孜勒苏柯尔克孜自治州,克州文化中心,,41,41,108,21,32,88,,94,94,5,4,14,12,0.1,0.1
2025-10-03T0800,1450A,102.8204,24.8886,昆明市,呈贡新区,,12,9,6,8,7,17,,16,16,15,11,9,3,0.7,0.5
2025-10-03T0800,1451A,102.6251,24.9608,昆明市,西山森林公园,,,,,,,,,,,,,,,,
2025-10-03T0800,1452A,102.7252,25.0902,昆明市,龙泉镇,,18,18,18,3,7,14,,7,7,11,10,2,2,0.4,0.5
2025-10-03T0800,1453A,102.7266,25.0375,昆明市,东风东路,,11,11,14,7,7,13,,13,13,14,14,5,3,0.4,0.4
2025-10-03T0800,1454A,102.6742,25.0669,昆明市,金鼎山,,43,43,20,3,8,19,,8,8,6,10,2,2,0.4,0.5
2025-10-03T0800,1455A,102.6644,25.0401,昆明市,碧鸡广场,,9,9,15,3,7,17,,10,10,10,14,8,8,0.5,0.5
2025-10-03T0800,3179A,102.7494,25.0119,昆明市,官渡区博物馆,,14,14,16,8,6,12,,7,7,13,14,3,2,0.6,0.6
2025-10-03T0800,3375A,102.8017,24.8336,昆明市,青年创业园,,15,15,11,7,7,12,,8,8,14,10,9,3,0.7,0.6
2025-10-03T0800,3550A,102.7997,24.9786,昆明市,昆明学院,,15,15,13,7,6,17,,13,13,8,11,7,8,0.5,0.4
2025-10-03T0800,3551A,102.5967,24.6736,昆明市,晋宁区生态环境分局,,24,24,18,9,4,25,,22,22,7,8,2,2,0.6,0.5
2025-10-03T0800,3552A,102.6678,24.9856,昆明市,云天化总部,,8,8,9,3,5,21,,19,19,7,8,5,4,0.4,0.4
2025-10-03T0800,1456A,91.1319,29.6514,拉萨市,八廓街,,20,6,10,3,7,62,,77,77,11,8,5,5,0.2,0.2
2025-10-03T0800,1457A,91.1221,29.6747,拉萨市,市环保局,,17,8,16,6,8,52,,76,76,15,9,7,8,0.5,0.5
2025-10-03T0800,1458A,91.0874,29.6475,拉萨市,区监测站,,19,6,7,3,6,58,,78,78,19,10,4,4,0.2,0.2
2025-10-03T0800,1459A,91.1774,29.6541,拉萨市,西藏大学,,20,9,9,3,6,63,,74,74,12,13,7,7,0.3,0.4
2025-10-03T0800,1460A,90.9798,29.6588,拉萨市,区辐射站,,19,7,9,7,6,60,,72,72,10,11,6,5,0.4,0.4
2025-10-03T0800,1461A,91.0834,29.6292,拉萨市,拉萨火车站,,21,6,8,3,5,67,,78,78,6,6,6,5,0.3,0.3
2025-10-03T0800,2520A,109.2203,23.7256,来宾市,来宾技工学校,,41,41,32,17,14,14,,8,8,15,14,18,13,0.6,0.5
2025-10-03T0800,3535A,109.1781,23.7297,来宾市,兴宾区政府,,27,27,26,12,15,25,,22,22,7,8,5,4,0.8,0.9
2025-10-03T0800,4002A,109.2416,23.7461,来宾市,中南小学,,38,38,32,20,11,10,,5,5,20,14,12,9,0.6,0.6
2025-10-03T0800,1477A,104.1373,35.9454,兰州市,榆中兰大校区,,,,,,,,,,,,,,,,
2025-10-03T0800,1479A,103.831,36.0464,兰州市,铁路设计院,,,,,,,,,,,,,,,,
2025-10-03T0800,3241A,103.7439,36.0842,兰州市,百合公园,,44,44,49,24,19,6,,5,5,21,32,2,6,1.3,1.2
2025-10-03T0800,3242A,103.9611,35.998,兰州市,和平,,25,25,26,16,13,30,,22,22,15,17,2,2,0.5,0.5
2025-10-03T0800,4236A,103.6293,36.0938,兰州市,庄浪东路808号,细颗粒物(PM2.5),59,49,50,42,31,4,,5,5,39,48,13,12,0.8,0.7
2025-10-03T0800,4237A,103.7251,36.1043,兰州市,安宁西路88号,细颗粒物(PM2.5),57,46,46,40,35,4,,4,4,25,31,6,6,0.6,0.6
2025-10-03T0800,4238A,103.8470,36.0676,兰州市,北滨河东路1号,,47,47,40,31,25,2,,1,1,32,38,6,9,0.9,0.9
2025-10-03T0800,3245A,103.6633,36.533,兰州新区,新区管委会,细颗粒物(PM2.5),54,54,46,38,30,11,,5,5,25,26,6,11,0.6,0.6
2025-10-03T0800,3246A,103.6975,36.4789,兰州新区,舟曲中学,颗粒物(PM10),56,62,51,26,30,12,,5,5,34,35,7,12,0.7,0.7
2025-10-03T0800,1067A,116.6708,39.5111,廊坊市,药材公司,细颗粒物(PM2.5),63,58,64,45,35,29,,18,18,31,32,6,8,0.7,0.4
2025-10-03T0800,1068A,116.7214,39.5589,廊坊市,开发区,颗粒物(PM10),59,68,68,40,34,16,,6,6,33,29,1,3,0.6,0.4
2025-10-03T0800,1070A,116.7244,39.5269,廊坊市,北华航天学院,细颗粒物(PM2.5),72,,71,52,43,26,,10,10,29,33,7,8,0.7,0.4
2025-10-03T0800,2919A,116.7022,39.5453,廊坊市,河北工业大学,细颗粒物(PM2.5),52,43,63,36,34,28,,15,15,29,31,3,4,0.7,0.4
2025-10-03T0800,2535A,103.7723,29.5462,乐山市,花湖湾,,35,33,20,24,17,3,,22,22,18,14,8,8,0.7,0.5
2025-10-03T0800,2536A,103.7627,29.5844,乐山市,牛耳桥,,36,27,18,25,16,6,,16,16,17,19,8,6,0.8,0.6
2025-10-03T0800,2537A,103.7508,29.6006,乐山市,市第三水厂,,28,24,22,19,18,12,,19,19,19,21,6,5,0.7,0.7
2025-10-03T0800,2538A,103.7571,29.5664,乐山市,市监测站,,36,36,22,24,14,8,,21,21,20,15,10,6,0.9,0.7
2025-10-03T0800,3361A,103.7311,29.5628,乐山市,理工大学,,32,28,26,22,20,10,,17,17,14,16,10,9,0.8,0.7
2025-10-03T0800,2598A,100.2143,26.8576,丽江市,西南郊,,12,6,7,3,3,37,,42,42,3,5,6,6,0.8,0.7
2025-10-03T0800,2599A,100.2497,26.8802,丽江市,丽江古城,,14,14,18,3,7,26,,29,29,11,10,9,9,0.4,0.5
2025-10-03T0800,2600A,100.2203,26.8906,丽江市,市中心,,12,,9,8,7,24,,29,29,11,9,9,9,0.6,0.6
2025-10-03T0800,1267A,119.914,28.4514,丽水市,监测站大楼,,10,6,14,3,7,32,,38,38,9,8,4,4,0.3,0.3
2025-10-03T0800,1268A,119.93,28.4586,丽水市,莲都小学,,14,14,14,3,5,29,,38,38,11,6,4,3,0.3,0.3
2025-10-03T0800,1269A,119.879,28.4231,丽水市,余庄前,,12,12,14,7,8,20,,22,22,9,7,4,4,0.3,0.3
2025-10-03T0800,1173A,119.176,34.5885,连云港市,市环境监测站,,31,6,6,3,4,99,,95,95,12,13,6,6,0.5,0.7
2025-10-03T0800,3000A,119.3581,34.6972,连云港市,德源药业,,34,7,6,3,3,108,,103,103,7,10,5,5,0.6,0.7
2025-10-03T0800,3007A,119.178,34.844,连云港市,新城一中,,29,16,26,3,6,90,,101,101,15,8,5,4,0.7,0.7
2025-10-03T0800,3008A,119.3608,34.7519,连云港市,胡沟管理处,,,2,10,,2,111,,107,107,4,10,8,8,0.4,0.5
2025-10-03T0800,3009A,119.1478,34.5911,连云港市,矿山设计院,,35,6,5,3,4,110,,106,106,8,9,5,5,0.5,0.7
2025-10-03T0800,3434A,119.2413,34.6539,连云港市,工贸学校,,33,6,6,3,4,105,,98,98,6,8,7,7,0.7,0.9
2025-10-03T0800,3664A,119.4172,34.7341,连云港市,连云街道,,32,6,11,3,3,102,,98,98,15,12,2,2,0.4,0.5
2025-10-03T0800,2571A,102.3431,27.8099,凉山彝族自治州,青龙寺,,16,16,12,3,3,14,,18,18,6,6,6,7,0.4,0.3
2025-10-03T0800,2572A,102.2721,27.8415,凉山彝族自治州,邛海宾馆,,15,15,15,7,7,12,,18,18,10,7,10,13,0.5,0.5
2025-10-03T0800,2573A,102.2625,27.898,凉山彝族自治州,西昌市政府,,18,18,15,11,11,12,,18,18,14,10,12,16,0.5,0.5
2025-10-03T0800,2574A,102.2685,27.8851,凉山彝族自治州,凉山州政府,,20,20,20,14,13,13,,19,19,10,7,10,13,0.8,0.8
2025-10-03T0800,4229A,102.2342,27.8859,凉山彝族自治州,凯乐南路30号,,25,25,20,12,10,2,,10,10,23,12,7,11,0.8,0.7
2025-10-03T0800,2212A,123.2,41.1953,辽阳市,宏伟区,颗粒物(PM10),59,68,43,24,21,39,,44,44,19,9,3,3,0.8,0.7
2025-10-03T0800,2213A,123.1683,41.2495,辽阳市,新华园,颗粒物(PM10),61,71,52,29,27,24,,38,38,28,18,9,8,1.3,0.8
2025-10-03T0800,2214A,123.2354,41.2639,辽阳市,滨河路,细颗粒物(PM2.5),57,60,47,40,26,22,,42,42,23,13,6,6,1.6,0.7
2025-10-03T0800,2215A,123.149,41.2991,辽阳市,铁西工业园,,,105,56,34,28,,,24,24,26,16,6,6,1.1,0.8
2025-10-03T0800,2227A,125.1358,42.8845,辽源市,环保局,颗粒物(PM10),60,70,70,30,28,15,,8,8,25,26,9,6,0.8,0.7
2025-10-03T0800,3239A,125.0764,42.9078,辽源市,银鹰制药,细颗粒物(PM2.5),59,59,59,42,37,14,,6,6,23,28,10,7,0.9,0.7
2025-10-03T0800,1625A,115.9848,36.4372,聊城市,区政府,,20,20,22,11,17,59,,59,59,10,14,8,10,0.6,0.7
2025-10-03T0800,2878A,116.0072,36.4343,聊城市,聊大东校,,32,31,28,22,23,64,,67,67,16,18,10,10,0.6,0.7
2025-10-03T0800,3200A,115.9819,36.4978,聊城市,监控中心,,21,7,19,7,13,66,,68,68,13,13,7,8,0.4,0.4
2025-10-03T0800,3513A,116.0445,36.4361,聊城市,九州社区,,26,26,29,14,17,65,,64,64,5,8,1,4,0.4,0.4
2025-10-03T0800,4018A,116.0567,36.4608,聊城市,星美广场,,31,31,30,18,18,49,,57,57,20,18,5,6,0.5,0.5
2025-10-03T0800,2632A,94.3681,29.6376,林芝市,林芝监测站,,13,,6,3,3,40,,49,49,2,2,6,6,0.3,0.3
2025-10-03T0800,2633A,94.3616,29.6616,林芝市,林芝人民医院,,11,8,8,3,4,35,,41,41,1,4,3,3,0.5,0.5
2025-10-03T0800,2603A,100.0781,23.8982,临沧市,市环保局,,25,,13,17,22,9,,7,7,4,5,1,3,0.6,0.5
2025-10-03T0800,2604A,100.0894,23.8822,临沧市,市气象局,,16,16,13,7,10,10,,10,10,6,6,7,7,0.5,0.5
2025-10-03T0800,1733A,111.5531,36.0783,临汾市,临钢医院,,40,40,50,18,20,42,,28,28,14,21,10,10,0.9,0.9
2025-10-03T0800,1734A,111.5028,36.0714,临汾市,技工学校,颗粒物(PM10),51,51,52,32,32,35,,19,19,21,25,8,10,0.9,0.8
2025-10-03T0800,1736A,111.5018,36.0855,临汾市,市委,颗粒物(PM10),60,70,62,29,27,31,,15,15,25,29,7,10,0.9,0.8
2025-10-03T0800,3018A,111.505,36.1014,临汾市,唐尧大酒店,颗粒物(PM10),55,60,67,31,28,29,,11,11,22,29,6,8,0.9,0.8
2025-10-03T0800,4244A,111.4879,36.0530,临汾市,启星学校,,39,34,46,27,30,46,,22,22,19,28,7,9,0.8,0.8
2025-10-03T0800,4271A,103.2464,35.6123,临夏回族自治州,滨河东路1号,,44,44,54,29,28,0,,0,0,8,15,10,10,0.7,0.7
2025-10-03T0800,4310A,103.2093,35.5995,临夏回族自治州,新华街21号,颗粒物(PM10),52,53,57,35,33,4,,4,4,16,24,7,7,0.7,0.7
2025-10-03T0800,1618A,118.3429,35.0532,临沂市,沂河小区,,28,12,8,8,9,89,,95,95,10,9,7,7,0.3,0.3
2025-10-03T0800,1619A,118.295,35.0583,临沂市,鲁南制药厂,,30,,1,3,7,93,,100,100,13,12,7,7,0.6,0.6
2025-10-03T0800,1620A,118.2794,34.9976,临沂市,新光毛纺厂,,28,,0,3,8,89,,96,96,17,16,7,7,0.3,0.3
2025-10-03T0800,1621A,118.3956,35.0888,临沂市,河东保险公司,,29,14,7,6,4,91,,101,101,11,11,6,6,0.4,0.4
2025-10-03T0800,3370A,118.3564,35.0215,临沂市,十里堡居委,,30,7,2,3,1,93,,101,101,16,15,7,7,0.3,0.3
2025-10-03T0800,3496A,118.3604,35.1084,临沂市,南坊新区,,29,7,5,3,2,91,,99,99,14,11,8,8,0.4,0.4
2025-10-03T0800,3860A,118.3920,35.0300,临沂市,皇山花园小区,,29,,2,3,3,92,,99,99,9,9,9,9,0.6,0.5
2025-10-03T0800,1870A,109.4856,24.3895,柳州市,柳东小学,,33,33,29,21,18,9,,17,17,17,11,7,6,0.5,0.4
2025-10-03T0800,1871A,109.4157,24.3277,柳州市,环保监测站,,32,32,29,11,16,32,,37,37,12,9,10,8,0.7,0.6
2025-10-03T0800,1872A,109.389,24.341,柳州市,河西水厂,,34,34,34,16,16,27,,34,34,16,11,8,6,0.6,0.4
2025-10-03T0800,1873A,109.4311,24.2921,柳州市,市四中,,35,35,29,15,18,16,,31,31,23,14,9,8,0.6,0.5
2025-10-03T0800,1874A,109.4006,24.3631,柳州市,市九中,颗粒物(PM10),52,54,37,30,18,16,,22,22,21,12,4,3,0.6,0.4
2025-10-03T0800,1875A,109.4958,24.3134,柳州市,古亭山,,29,29,29,16,15,3,,6,6,23,16,6,6,0.3,0.1
2025-10-03T0800,3402A,109.5422,24.3996,柳州市,市二中,,35,34,30,24,17,5,,6,6,23,17,10,14,0.5,0.5
2025-10-03T0800,2307A,116.5079,31.737,六安市,监测大楼,,20,14,17,14,14,63,,58,58,4,6,5,5,0.3,0.4
2025-10-03T0800,2308A,116.4738,31.7643,六安市,皖西学院,,,,14,,12,,,57,57,,3,5,3,0.4,0.4
2025-10-03T0800,2309A,116.4996,31.7905,六安市,朝阳厂,,19,15,12,13,12,52,,51,51,8,7,4,4,0.3,0.3
2025-10-03T0800,2310A,116.5567,31.7886,六安市,开发区,,20,16,14,14,13,57,,52,52,5,5,2,2,0.3,0.4
2025-10-03T0800,2576A,104.8,26.5892,六盘水市,窑上,,30,30,23,11,15,6,,8,8,2,3,2,2,0.3,0.3
2025-10-03T0800,2577A,104.83,26.5917,六盘水市,黄土坡,,22,22,14,9,10,22,,24,24,8,7,2,2,0.3,0.3
2025-10-03T0800,2578A,104.89,26.5939,六盘水市,水钢,,18,18,19,8,7,23,,27,27,5,4,2,3,0.2,0.2
2025-10-03T0800,2579A,104.8475,26.5894,六盘水市,民中,,12,12,13,3,7,22,,24,24,6,7,2,2,0.3,0.3
2025-10-03T0800,2580A,104.9544,26.5506,六盘水市,双水,,14,14,15,6,7,25,,29,29,5,4,3,3,0.2,0.2
2025-10-03T0800,2335A,117.0189,25.1181,龙岩市,龙岩师专,,,,,,,,,,,,,,,,
2025-10-03T0800,2336A,117.0217,25.1033,龙岩市,龙岩市监测站,,23,17,22,16,10,19,,16,16,13,12,18,8,0.5,0.4
2025-10-03T0800,2337A,117.0258,25.0661,龙岩市,闽西职业技术学院,,35,35,28,18,15,13,,16,16,9,10,18,16,0.4,0.3
2025-10-03T0800,2338A,117.0196,25.0306,龙岩市,龙岩学院,,22,17,22,15,13,25,,26,26,7,6,7,6,0.4,0.4
2025-10-03T0800,2665A,105.0822,33.3261,陇南市,汉王镇固水子,,,,,,,,,,,,,,,,
2025-10-03T0800,2885A,104.9339,33.3826,陇南市,滨江中学,,26,26,30,12,14,36,,40,40,9,6,6,6,0.6,0.5
2025-10-03T0800,3247A,104.955,33.371,陇南市,市总工会,,34,34,31,11,11,34,,41,41,10,7,7,7,0.8,0.7
2025-10-03T0800,2487A,111.9589,27.8901,娄底市,电视发射台,,38,38,42,22,22,12,,19,19,6,7,5,5,0.4,0.3
2025-10-03T0800,2488A,111.9975,27.725,娄底市,市监测站,,48,38,47,33,32,24,,28,28,11,14,8,10,0.6,0.6
2025-10-03T0800,2489A,112.0194,27.7314,娄底市,市委党校,,36,36,47,22,32,29,,36,36,7,16,4,7,0.5,0.6
2025-10-03T0800,2490A,111.9561,27.7569,娄底市,涟钢,,33,33,51,21,33,22,,18,18,10,20,7,11,0.6,0.8
2025-10-03T0800,2491A,111.9892,27.7044,娄底市,市政府,,28,27,40,19,33,27,,31,31,7,10,8,8,0.7,0.7
2025-10-03T0800,1893A,105.4324,28.9634,泸州市,九狮山,,39,39,38,8,14,5,,8,8,7,7,6,6,0.3,0.4
2025-10-03T0800,1894A,105.4427,28.9063,泸州市,小市上码头,,26,26,33,12,16,7,,12,12,16,11,5,5,0.6,0.7
2025-10-03T0800,1895A,105.4241,28.8573,泸州市,兰田宪桥,,26,26,37,13,20,10,,18,18,12,11,5,5,0.8,0.8
2025-10-03T0800,1896A,105.4379,28.8833,泸州市,市环监站,,28,28,43,18,28,13,,20,20,17,18,6,6,0.5,0.5
2025-10-03T0800,4272A,105.3689,28.7783,泸州市,纳溪中医医院,,35,34,36,24,26,9,,17,17,15,12,6,6,0.8,0.8
2025-10-03T0800,2183A,111.1406,37.5211,吕梁市,环保局,颗粒物(PM10),52,53,36,19,15,6,,3,3,31,33,7,8,0.6,0.5
2025-10-03T0800,2185A,111.1297,37.5136,吕梁市,自来水公司,颗粒物(PM10),65,80,38,24,15,6,,12,12,34,28,5,4,0.7,0.6
2025-10-03T0800,2867A,111.1283,37.51,吕梁市,马茂庄小学,颗粒物(PM10),61,72,42,30,15,4,,4,4,37,34,5,5,0.7,0.6
2025-10-03T0800,1812A,112.3931,34.6516,洛阳市,市委党校,,26,22,19,18,14,30,,35,35,22,19,6,6,0.7,0.6
2025-10-03T0800,1815A,112.494,34.6886,洛阳市,河南林校,,35,35,27,18,16,24,,32,32,22,16,6,6,0.7,0.6
2025-10-03T0800,1816A,112.3844,34.623,洛阳市,开发区管委会,,20,20,16,11,12,19,,31,31,17,12,7,7,0.7,0.6
2025-10-03T0800,1817A,112.4267,34.6258,洛阳市,市委新办公区,,28,28,20,14,13,18,,25,25,14,12,6,6,0.5,0.5
2025-10-03T0800,3340A,112.6005,34.6326,洛阳市,伊滨,,29,,22,20,12,33,,35,35,11,12,6,6,0.6,0.6
2025-10-03T0800,3341A,112.4951,34.6332,洛阳市,中移产业园,,30,28,22,21,14,17,,22,22,24,19,6,5,0.7,0.7
2025-10-03T0800,3593A,112.5736,34.8993,洛阳市,吉利监测站,,30,30,25,19,19,18,,36,36,15,13,6,6,0.6,0.7
2025-10-03T0800,3635A,112.3677,34.662,洛阳市,河科大西苑校区,,28,28,19,12,10,28,,35,35,22,16,7,7,0.7,0.6
2025-10-03T0800,3636A,112.4388,34.6781,洛阳市,英才小学,,38,38,50,21,18,3,,29,29,37,18,10,6,0.9,0.7
2025-10-03T0800,4214A,112.4600,34.6949,洛阳市,春都路1号院,,32,32,21,15,12,16,,24,24,26,18,9,5,0.6,0.6
2025-10-03T0800,2399A,114.051,33.5699,漯河市,三五一五工厂,,32,29,16,22,13,50,,50,50,13,10,6,6,0.6,0.6
2025-10-03T0800,2400A,114.0055,33.5698,漯河市,漯河大学,,39,36,20,27,14,45,,46,46,14,10,6,5,0.5,0.4
2025-10-03T0800,2401A,114.0138,33.5828,漯河市,市水利局,,39,39,18,27,14,44,,45,45,17,13,7,6,0.6,0.4
2025-10-03T0800,2402A,114.0261,33.5698,漯河市,市广电局,细颗粒物(PM2.5),59,,18,42,22,53,,51,51,12,8,4,3,0.7,0.6
2025-10-03T0800,3478A,113.9749,33.5664,漯河市,市图书馆,,38,,18,26,12,45,,42,42,15,14,6,5,0.4,0.3
2025-10-03T0800,4250A,114.0892,33.5882,漯河市,韶山路11号,,26,,20,18,12,34,,38,38,14,10,6,5,0.6,0.5
2025-10-03T0800,1798A,118.5092,31.6837,马鞍山市,湖东路四小,,25,21,37,17,26,38,,34,34,15,16,8,9,1.0,1.1
2025-10-03T0800,1799A,118.5024,31.6449,马鞍山市,开发区,,20,20,38,12,21,39,,37,37,19,15,8,7,0.8,0.8
2025-10-03T0800,1802A,118.6245,31.7241,马鞍山市,濮塘,,17,16,31,11,24,52,,45,45,11,13,8,8,0.7,0.8
2025-10-03T0800,3633A,118.4918,31.6809,马鞍山市,雨山,,24,24,34,12,16,27,,29,29,29,22,21,15,2.0,1.2
2025-10-03T0800,4191A,118.5274,31.72227,马鞍山市,慈湖高新区,,28,28,44,14,22,33,,36,36,24,19,7,8,0.6,0.7
2025-10-03T0800,1686A,111.0286,21.4688,茂名市,电白南海,,32,27,23,22,11,16,,24,24,11,8,8,6,0.7,0.6
2025-10-03T0800,1687A,110.9294,21.6533,茂名市,茂石化七小,,29,29,21,17,10,16,,23,23,13,8,29,8,0.6,0.4
2025-10-03T0800,1688A,110.9107,21.6687,茂名市,健康路,,29,29,18,19,10,14,,26,26,15,9,18,9,0.5,0.4
2025-10-03T0800,1689A,110.8592,21.6828,茂名市,高岭,,39,39,26,12,5,11,,23,23,12,10,19,11,0.7,0.5
2025-10-03T0800,3450A,111.01,21.5165,茂名市,电白水东,,17,17,9,7,6,23,,28,28,10,8,10,7,0.9,0.8
2025-10-03T0800,2539A,104.0308,30.0478,眉山市,黑龙滩水库,,16,,9,9,7,50,,50,50,1,3,3,3,0.2,0.2
2025-10-03T0800,2540A,103.8416,30.0874,眉山市,气象局,,32,32,25,12,10,16,,41,41,22,13,14,14,0.4,0.4
2025-10-03T0800,3137A,103.8578,30.0744,眉山市,市委党校,,24,24,23,3,9,24,,42,42,17,14,7,8,0.6,0.6
2025-10-03T0800,3148A,103.8291,30.0564,眉山市,区人社局,,30,30,33,3,8,28,,44,44,17,13,12,12,0.8,0.8
2025-10-03T0800,1690A,116.1231,24.3284,梅州市,梅江月梅,,29,29,29,19,17,12,,6,6,15,16,8,14,0.6,0.6
2025-10-03T0800,1691A,116.0797,24.2719,梅州市,梅县新城,,30,27,27,21,13,17,,11,11,13,11,8,8,0.6,0.6
2025-10-03T0800,1692A,116.1248,24.2654,梅州市,环境监控中心,,32,22,29,22,16,18,,12,12,12,17,36,8,0.6,0.6
2025-10-03T0800,3315A,116.1233,24.2991,梅州市,梅龙,,27,27,28,12,16,24,,20,20,10,13,11,11,0.7,0.7
2025-10-03T0800,1878A,104.7778,31.4741,绵阳市,富乐山,,16,16,15,11,8,22,,16,16,7,8,4,6,0.7,0.6
2025-10-03T0800,1880A,104.6697,31.4668,绵阳市,高新区自来水公司,,21,21,18,9,7,11,,13,13,24,14,8,9,0.6,0.6
2025-10-03T0800,1881A,104.7287,31.5075,绵阳市,三水厂,,18,16,18,12,12,6,,11,11,25,15,12,13,0.7,0.6
2025-10-03T0800,3491A,104.69,31.5322,绵阳市,西科大附属小学,,36,36,24,16,12,9,,15,15,25,19,9,10,0.6,0.5
2025-10-03T0800,3492A,104.5648,31.5343,绵阳市,安州区旅游局,,13,10,11,9,9,20,,22,22,13,10,8,7,0.6,0.6
2025-10-03T0800,4226A,104.7651,31.4531,绵阳市,绵阳市气象局,,16,15,14,11,9,21,,20,20,12,10,8,8,0.5,0.5
2025-10-03T0800,1784A,129.61,44.561,牡丹江市,环保大楼,,41,41,34,19,22,15,,10,10,16,17,8,7,0.5,0.5
2025-10-03T0800,1785A,129.6115,44.5782,牡丹江市,文化广场,,45,45,44,26,27,13,,10,10,22,23,8,6,0.7,0.7
2025-10-03T0800,1786A,129.5904,44.5963,牡丹江市,第一医院,颗粒物(PM10),52,54,56,18,34,12,,10,10,30,27,8,8,0.6,0.5
2025-10-03T0800,1787A,129.6364,44.6075,牡丹江市,机车工厂,,33,33,47,15,29,11,,4,4,23,24,8,7,0.6,0.6
2025-10-03T0800,1788A,129.6386,44.5462,牡丹江市,第一中学,,25,25,36,12,20,8,,7,7,25,21,7,5,0.5,0.4
2025-10-03T0800,2531A,105.0703,29.61,内江市,市监测站,,40,40,17,17,10,8,,18,18,9,7,2,2,0.5,0.5
2025-10-03T0800,2532A,105.0717,29.5947,内江市,东兴区政府,,20,20,9,3,3,17,,24,24,10,8,5,5,0.4,0.3
2025-10-03T0800,2533A,105.0653,29.5817,内江市,内江二中,,25,25,12,15,8,17,,25,25,13,9,2,2,0.5,0.5
2025-10-03T0800,2534A,105.0406,29.5822,内江市,内江日报社,,27,27,18,13,9,24,,27,27,8,9,4,4,0.5,0.4
2025-10-03T0800,2628A,92.0657,31.4846,那曲市,那曲监测站,,27,6,16,3,13,84,,85,85,9,17,3,4,0.2,0.4
2025-10-03T0800,4243A,92.0515,31.4787,那曲市,那曲市委宣传部,,30,6,7,3,6,94,,88,88,5,12,3,3,0.5,0.6
2025-10-03T0800,1290A,115.8931,28.6843,南昌市,省外办,,,60,41,39,29,,,49,49,28,17,,6,0.5,0.6
2025-10-03T0800,1291A,115.8886,28.7003,南昌市,省林业公司,,45,39,40,31,26,43,,45,45,8,7,20,7,0.3,0.3
2025-10-03T0800,1292A,115.8126,28.7442,南昌市,林科所,,35,31,31,24,21,44,,26,26,21,26,14,10,0.3,0.5
2025-10-03T0800,1294A,115.8518,28.687,南昌市,建工学校,颗粒物(PM10),58,66,50,34,29,48,,47,47,24,19,23,13,0.6,0.7
2025-10-03T0800,1295A,115.8921,28.6424,南昌市,象湖,颗粒物(PM10),52,54,41,31,23,40,,28,28,31,22,25,11,0.8,0.8
2025-10-03T0800,1296A,115.7423,28.7996,南昌市,武术学校,,14,14,19,8,12,9,,11,11,9,8,9,9,0.3,0.4
2025-10-03T0800,3046A,115.9084,28.6062,南昌市,机电学校,,50,50,48,29,25,43,,22,22,22,17,18,9,0.5,0.5
2025-10-03T0800,3690A,115.9721,28.7031,南昌市,外国语学校,细颗粒物(PM2.5),52,40,44,36,26,50,,39,39,27,20,19,10,0.2,0.3
2025-10-03T0800,4192A,115.9316,28.68677,南昌市,南京东路235号,颗粒物(PM10),73,96,55,25,25,43,,42,42,29,18,16,7,0.7,0.8
2025-10-03T0800,1905A,106.056,30.8064,南充市,西山风景区,,,,,,,,,,,,,,,,
2025-10-03T0800,1906A,106.0789,30.8023,南充市,南充市委,,14,14,13,9,7,4,,10,10,16,9,4,3,0.5,0.4
2025-10-03T0800,1907A,106.1031,30.8217,南充市,南充炼油厂,,22,22,17,8,7,8,,15,15,11,6,6,5,0.3,0.2
2025-10-03T0800,4227A,106.1083,30.7884,南充市,梨树横街98号,,25,,13,17,7,13,,16,16,9,6,4,4,0.3,0.2
2025-10-03T0800,4304A,106.1172,30.843,南充市,清泉寺北路188号,,25,25,12,11,8,12,,16,16,7,6,5,5,0.4,0.3
2025-10-03T0800,4305A,106.067,30.7616,南充市,同庆路1号,,8,8,9,3,3,9,,14,14,13,11,5,5,0.3,0.3
2025-10-03T0800,1151A,118.8086,32.1065,南京市,迈皋桥,,16,7,25,3,16,51,,47,47,2,4,4,4,0.6,0.6
2025-10-03T0800,1152A,118.7538,32.0551,南京市,草场门,,16,7,30,3,18,51,,41,41,12,15,3,4,0.6,0.8
2025-10-03T0800,1153A,118.7794,32.0745,南京市,山西路,,18,7,33,3,13,55,,45,45,13,13,4,4,0.6,0.8
2025-10-03T0800,1154A,118.7752,32.0023,南京市,中华门,,18,6,24,3,14,55,,42,42,4,8,4,4,0.5,0.6
2025-10-03T0800,1155A,118.8109,32.0309,南京市,瑞金路,,16,,26,3,17,50,,39,39,6,15,7,6,0.3,0.4
2025-10-03T0800,1156A,118.7997,32.0754,南京市,玄武湖,,,6,30,,11,45,,40,40,14,13,4,6,0.4,0.5
2025-10-03T0800,1157A,118.6414,32.0931,南京市,浦口,,18,7,29,3,13,56,,47,47,10,13,5,6,0.5,0.6
2025-10-03T0800,1158A,118.7356,31.9996,南京市,奥体中心,,21,8,29,3,18,67,,47,47,13,13,3,5,0.4,0.6
2025-10-03T0800,1159A,118.9125,32.1028,南京市,仙林大学城,,19,19,36,7,14,39,,34,34,22,16,14,12,1.9,1.3
2025-10-03T0800,3422A,118.8436,31.9198,南京市,江宁彩虹桥,,19,,29,3,17,58,,40,40,6,11,4,4,0.6,0.7
2025-10-03T0800,3427A,118.8554,32.3578,南京市,六合雄州,,19,15,30,3,16,60,,50,50,8,14,6,6,0.7,1
2025-10-03T0800,4249A,118.8708,31.3402,南京市,汶溪路181号,,40,40,34,15,25,49,,26,26,13,15,3,6,0.7,0.8
2025-10-03T0800,4312A,119.019,31.6512,南京市,中山西路1号,,29,29,34,10,21,34,,22,22,16,16,4,4,0.8,0.9
2025-10-03T0800,1401A,108.3103,22.7881,南宁市,二十一中,,15,15,22,8,12,20,,29,29,13,10,6,7,0.6,0.6
2025-10-03T0800,1402A,108.3141,22.8528,南宁市,北湖,,19,,21,13,12,26,,38,38,16,11,8,7,0.5,0.6
2025-10-03T0800,1403A,108.3206,22.8225,南宁市,市监测站,,24,24,23,14,13,17,,37,37,22,10,7,7,0.4,0.5
2025-10-03T0800,1404A,108.3829,22.8037,南宁市,大自然花园,,28,28,22,14,12,22,,38,38,14,8,6,6,0.5,0.6
2025-10-03T0800,1405A,108.4394,22.7904,南宁市,仙葫,,29,29,21,17,12,26,,32,32,11,9,4,5,0.5,0.5
2025-10-03T0800,1406A,108.2397,22.8467,南宁市,区农职院,,34,34,25,17,16,17,,31,31,21,15,5,5,0.6,0.6
2025-10-03T0800,1407A,108.3275,22.735,南宁市,英华嘉园,,30,30,23,13,14,23,,31,31,14,12,3,3,0.5,0.5
2025-10-03T0800,3401A,108.4834,22.7618,南宁市,红星社区,,24,24,23,13,17,7,,23,23,17,10,3,4,0.4,0.4
2025-10-03T0800,4221A,108.2177,22.7774,南宁市,乐贤路16号,,37,37,31,18,17,6,,15,15,29,20,7,6,0.4,0.4
2025-10-03T0800,2331A,118.0966,26.6761,南平市,茫荡山,,,,13,,8,,,74,,,,,1,,0.3
2025-10-03T0800,2332A,118.1681,26.6369,南平市,南平市监测站,,19,14,17,13,10,29,,35,35,8,8,4,3,0.5,0.5
2025-10-03T0800,2333A,118.1825,26.6489,南平市,南平铝业有限公司,,15,,20,10,8,42,,44,44,6,8,8,6,0.5,0.5
2025-10-03T0800,2334A,118.1756,26.6272,南平市,南平七中,,15,12,21,10,10,27,,36,36,6,7,4,4,0.5,0.5
2025-10-03T0800,1168A,120.9098,31.9663,南通市,狼山街道,,16,16,24,7,14,41,,33,33,10,22,3,4,0.6,0.4
2025-10-03T0800,1169A,120.86,32.0005,南通市,虹桥,,18,10,26,10,17,55,,48,48,12,28,3,4,0.7,0.6
2025-10-03T0800,1170A,120.87,32.02,南通市,城中,,19,19,32,7,15,52,,49,49,12,24,3,5,0.7,0.5
2025-10-03T0800,1171A,120.94,31.93,南通市,星湖花园,,19,15,24,8,16,24,,38,38,37,24,4,4,0.9,0.8
2025-10-03T0800,1172A,120.81,32.0417,南通市,紫琅学院,,16,14,26,3,13,51,,48,48,9,29,3,4,0.9,0.8
2025-10-03T0800,3291A,121.067,32.062,南通市,通州监测站,,17,17,26,7,15,45,,46,46,7,13,2,2,0.8,0.7
2025-10-03T0800,3432A,120.9348,31.9883,南通市,环境教育馆,,22,22,30,6,15,48,,47,47,10,19,4,4,0.6,0.5
2025-10-03T0800,2404A,112.5224,33.0122,南阳市,瓦房庄,,23,21,17,3,6,72,,76,76,9,7,8,7,0.5,0.5
2025-10-03T0800,2405A,112.5003,32.9735,南阳市,汉画馆,,26,26,17,14,8,68,,72,72,11,7,7,7,0.5,0.5
2025-10-03T0800,2406A,112.5573,33.027,南阳市,气象站,,25,22,10,17,5,67,,73,73,5,4,8,8,0.6,0.5
2025-10-03T0800,2407A,112.5481,32.9689,南阳市,理工学院,,25,25,15,8,6,77,,80,80,8,8,9,8,0.6,0.6
2025-10-03T0800,4008A,112.5234,32.9922,南阳市,卧龙区政府,,23,19,13,15,8,71,,74,74,11,9,7,6,0.5,0.5
2025-10-03T0800,1234A,121.8358,29.911,宁波市,区环保大楼,,13,7,10,3,6,39,,44,44,7,6,5,5,0.4,0.5
2025-10-03T0800,1235A,121.56,29.82,宁波市,万里学院,,12,12,19,6,9,38,,39,39,6,7,7,8,0.4,0.5
2025-10-03T0800,1236A,121.713,29.9572,宁波市,龙赛医院,,11,11,10,6,9,34,,38,38,11,8,6,6,0.4,0.5
2025-10-03T0800,1239A,121.633,29.7733,宁波市,钱湖水厂,,11,9,10,6,6,35,,38,38,4,3,6,6,0.5,0.6
2025-10-03T0800,1240A,121.5856,29.8635,宁波市,太古小学,,12,10,11,7,11,37,,39,39,5,4,4,4,0.5,0.6
2025-10-03T0800,1241A,121.524,29.8674,宁波市,市环境监测中心,,11,11,17,3,8,23,,32,32,15,8,7,7,0.4,0.5
2025-10-03T0800,2871A,121.6147,29.9017,宁波市,万里国际学校,,12,12,13,3,7,34,,42,42,9,3,7,5,0.4,0.4
2025-10-03T0800,3710A,121.5594,29.8975,宁波市,白沙活动中心,,11,6,11,3,6,34,,36,36,8,9,3,2,0.5,0.4
2025-10-03T0800,2339A,119.5001,26.6946,宁德市,金涵水库,,,,,,6,,,32,,,3,,2,,0.5
2025-10-03T0800,2341A,119.5388,26.6612,宁德市,宁德市监测站,,10,,13,7,8,22,,26,26,9,7,4,4,0.5,0.4
2025-10-03T0800,3209A,119.5231,26.6562,宁德市,宁德一中,,9,9,14,3,6,25,,28,28,7,5,7,6,0.3,0.2
2025-10-03T0800,2618A,98.8601,25.8567,怒江傈僳族自治州,州监测站,,30,30,23,13,13,7,,8,8,8,8,9,6,0.4,0.4
2025-10-03T0800,2619A,98.8546,25.8417,怒江傈僳族自治州,泸水一中,,17,17,17,3,10,0,,0,0,10,12,5,4,0.4,0.5
2025-10-03T0800,1888A,101.6891,26.571,攀枝花市,弄弄坪,,22,22,36,3,12,4,,2,2,13,18,4,10,0.7,0.9
2025-10-03T0800,1889A,101.5769,26.5928,攀枝花市,河门口,,20,20,24,7,9,6,,3,3,9,12,9,15,0.8,1
2025-10-03T0800,1890A,101.7169,26.585,攀枝花市,炳草岗,颗粒物(PM10),51,51,39,16,15,2,,1,1,17,20,9,10,0.8,0.9
2025-10-03T0800,1891A,101.7369,26.5008,攀枝花市,仁和,,18,18,18,6,10,3,,8,8,9,10,8,11,0.7,0.9
2025-10-03T0800,2835A,101.7227,26.567,攀枝花市,四十中小,,31,31,35,14,17,4,,6,6,13,17,8,15,1.2,1.4
2025-10-03T0800,1604A,122.0303,41.1489,盘锦市,开发区,细颗粒物(PM2.5),83,,39,61,28,49,,72,72,36,18,20,11,1.6,0.7
2025-10-03T0800,1605A,122.0485,41.0883,盘锦市,兴隆台,细颗粒物(PM2.5),70,84,43,51,26,36,,51,51,45,22,17,5,1.7,0.6
2025-10-03T0800,1606A,121.8297,41.1028,盘锦市,新生街道,细颗粒物(PM2.5),52,,35,36,19,29,,52,52,35,23,7,6,0.8,0.6
2025-10-03T0800,1832A,113.3257,33.742,平顶山市,新华旅馆,,33,32,17,23,17,39,,48,48,18,13,6,5,0.6,0.4
2025-10-03T0800,1833A,113.2919,33.737,平顶山市,规划设计院,,38,,28,26,17,28,,36,36,20,15,5,4,0.8,0.7
2025-10-03T0800,1834A,113.182,33.774,平顶山市,平顶山工学院,,44,44,24,24,15,42,,35,35,15,13,7,6,0.7,0.5
2025-10-03T0800,3204A,113.3025,33.73,平顶山市,规划局,,34,34,22,16,14,39,,39,39,13,13,7,5,0.7,0.5
2025-10-03T0800,3594A,112.8867,33.9116,平顶山市,石龙区,,22,18,14,15,12,58,,56,56,7,9,5,6,0.5,0.5
2025-10-03T0800,2656A,106.6692,35.5461,平凉市,聚贤嘉苑,,30,30,31,19,20,56,,66,66,12,11,13,11,0.8,0.7
2025-10-03T0800,2657A,106.7021,35.5307,平凉市,博物馆,,39,39,38,17,14,62,,71,71,12,12,10,11,0.7,0.7
2025-10-03T0800,2347A,114.0997,27.5002,萍乡市,武功山,,11,6,17,3,9,33,,40,40,6,5,15,14,0.4,0.4
2025-10-03T0800,2348A,113.8385,27.6434,萍乡市,中医院,颗粒物(PM10),54,57,49,32,32,34,,26,26,29,22,19,5,1.4,0.9
2025-10-03T0800,2349A,113.8493,27.6253,萍乡市,市政府车库,,39,39,38,24,35,33,,40,40,17,15,12,12,0.6,0.6
2025-10-03T0800,2350A,113.8676,27.6435,萍乡市,市环保局,颗粒物(PM10),53,56,45,33,29,28,,32,32,23,12,20,8,1.0,0.5
2025-10-03T0800,2351A,113.866,27.6198,萍乡市,安源区政府,,35,35,41,20,33,27,,38,38,16,12,9,10,0.6,0.5
2025-10-03T0800,2319A,119.0141,25.4325,莆田市,荔城区仓后路,,18,11,25,8,10,56,,56,56,6,8,7,7,0.5,0.5
2025-10-03T0800,2320A,119.0015,25.4553,莆田市,莆田市监测站,,19,,19,6,8,58,,54,54,4,6,6,6,0.4,0.4
2025-10-03T0800,2321A,119.1119,25.4561,莆田市,涵江区六中,,18,13,22,12,10,45,,55,55,13,8,7,6,0.3,0.3
2025-10-03T0800,2322A,119.1013,25.3215,莆田市,秀屿区政府,,38,38,25,20,10,45,,56,56,14,9,7,6,0.5,0.4
2025-10-03T0800,2323A,118.981,25.4792,莆田市,东圳水库,,,,14,,5,,,66,,,4,,3,,0.3
2025-10-03T0800,2392A,115.0312,35.7636,濮阳市,环保局,,23,,24,16,24,61,,56,56,11,14,5,5,0.8,0.7
2025-10-03T0800,2394A,115.0574,35.7609,濮阳市,油田运输公司,,28,28,36,18,20,61,,58,58,12,14,8,8,0.8,0.9
2025-10-03T0800,3021A,115,35.7668,濮阳市,濮水河管理处,,20,18,30,10,18,64,,47,47,10,12,8,8,0.6,0.6
2025-10-03T0800,4216A,115.0924,35.7686,濮阳市,任丘路479号,,29,29,41,16,25,60,,52,52,7,11,6,7,0.7,0.7
2025-10-03T0800,2601A,100.98,22.7633,普洱市,市环保局,,21,21,21,10,17,8,,10,10,4,4,8,8,0.4,0.4
2025-10-03T0800,2602A,100.9817,22.8322,普洱市,普洱第二中学,,25,25,21,14,10,8,,10,10,4,4,6,6,0.3,0.3
2025-10-03T0800,2262A,131.0518,45.8751,七台河市,新一中,,28,27,32,19,18,38,,25,25,20,18,13,12,1.0,0.8
2025-10-03T0800,3345A,131.0577,45.7879,七台河市,中波台,,31,31,28,21,14,29,,32,32,23,20,7,8,0.5,0.6
2025-10-03T0800,3637A,131.0176,45.7761,七台河市,人民广场,颗粒物(PM10),52,54,43,21,18,43,,49,49,17,16,8,8,0.7,0.7
2025-10-03T0800,3684A,130.8781,45.8222,七台河市,新建矿广场,颗粒物(PM10),60,70,42,27,19,21,,28,28,33,27,24,14,0.7,0.7
2025-10-03T0800,1779A,123.9305,47.3636,齐齐哈尔市,安居小区,颗粒物(PM10),55,60,50,21,14,40,,30,30,18,20,4,2,0.6,0.5
2025-10-03T0800,1780A,123.9488,47.3386,齐齐哈尔市,中心广场,颗粒物(PM10),52,53,36,14,11,42,,37,37,17,15,5,4,0.5,0.4
2025-10-03T0800,1781A,123.9483,47.3227,齐齐哈尔市,农牧车辆厂,颗粒物(PM10),54,58,48,18,12,43,,32,32,13,14,5,4,0.6,0.5
2025-10-03T0800,1783A,123.945,47.2988,齐齐哈尔市,市环境监测站,,46,46,36,23,13,46,,33,33,13,14,7,6,0.5,0.4
2025-10-03T0800,3662A,123.6333,47.2075,齐齐哈尔市,富区青少年活动中心,颗粒物(PM10),72,93,57,39,14,5,,14,14,18,11,19,6,2.0,0.6
2025-10-03T0800,2591A,107.9783,26.5747,黔东南苗族侗族自治州,市环境监测站,,20,12,12,12,10,62,,66,66,3,2,3,3,0.4,0.4
2025-10-03T0800,2881A,107.8908,26.5311,黔东南苗族侗族自治州,凯里学院,,22,22,11,10,9,64,,66,66,6,6,3,3,0.4,0.4
2025-10-03T0800,2593A,107.5228,26.2403,黔南布依族苗族自治州,小围寨,,14,14,9,9,3,44,,43,43,2,2,2,3,0.4,0.3
2025-10-03T0800,3538A,107.5175,26.2978,黔南布依族苗族自治州,沙坝,,17,17,15,9,8,37,,36,36,3,3,4,3,0.6,0.5
2025-10-03T0800,2589A,104.9022,25.0925,黔西南布依族苗族自治州,场坝街,,21,21,15,8,7,20,,21,21,5,4,5,4,0.4,0.3
2025-10-03T0800,2590A,104.8811,25.0992,黔西南布依族苗族自治州,坪东大道,,10,10,18,3,7,19,,21,21,4,3,2,3,0.4,0.4
2025-10-03T0800,2502A,108.6236,21.9667,钦州市,市环保站,,31,31,23,12,8,18,,27,27,15,13,7,4,0.5,0.4
2025-10-03T0800,2503A,108.6549,21.9481,钦州市,沙埠小学,,24,24,31,11,12,14,,15,15,11,14,7,5,0.5,0.4
2025-10-03T0800,2504A,108.5989,21.7431,钦州市,港区一小,,23,23,30,9,9,18,,21,21,16,13,3,3,0.5,0.6
2025-10-03T0800,3404A,108.5959,21.9633,钦州市,北职校,,35,35,27,15,10,10,,19,19,10,10,4,4,0.5,0.4
2025-10-03T0800,1043A,119.7493,40.0116,秦皇岛市,第一关,颗粒物(PM10),53,56,61,23,33,6,,23,23,60,47,7,7,0.5,0.6
2025-10-03T0800,1044A,119.5897,39.9499,秦皇岛市,监测站,,45,45,68,22,26,43,,36,36,35,37,4,8,0.3,0.6
2025-10-03T0800,1046A,119.5251,39.9041,秦皇岛市,建设大厦,,36,36,79,10,16,40,,24,24,24,35,7,5,0.6,0.7
2025-10-03T0800,3132A,119.610547,39.943889,秦皇岛市,文明里,,41,41,65,12,26,37,,36,36,42,38,6,9,0.2,0.4
2025-10-03T0800,4198A,119.5090,39.8253,秦皇岛市,北戴河轮滑馆,颗粒物(PM10),56,61,69,21,26,24,,13,13,42,33,3,4,0.5,0.6
2025-10-03T0800,1307A,120.6659,36.2403,青岛市,仰口,,32,12,18,3,6,102,,103,103,4,4,11,11,0.7,0.7
2025-10-03T0800,1310A,120.4134,36.0658,青岛市,市南区东部子站,,29,6,12,3,6,92,,105,105,8,3,6,6,0.2,0.2
2025-10-03T0800,1311A,120.3664,36.1032,青岛市,四方区子站,,25,6,5,3,5,79,,97,97,30,5,5,5,0.3,0.2
2025-10-03T0800,1312A,120.2994,36.054,青岛市,市南区西部子站,,32,,12,3,5,100,,106,106,14,6,7,6,0.4,0.4
2025-10-03T0800,1313A,120.4581,36.0858,青岛市,崂山区子站,,35,14,20,3,4,110,,117,117,8,3,8,8,0.2,0.2
2025-10-03T0800,1315A,120.3999,36.3083,青岛市,城阳区子站,,37,6,9,3,7,116,,124,124,2,3,3,3,0.3,0.3
2025-10-03T0800,3362A,120.5014,36.4034,青岛市,即墨2号,,,6,8,3,6,,,113,113,7,5,3,3,0.3,0.3
2025-10-03T0800,3642A,120.3503,36.0736,青岛市,市北区南部,,25,6,13,3,5,77,,101,101,31,9,15,8,0.5,0.5
2025-10-03T0800,3643A,120.3948,36.1805,青岛市,李沧区北部,,35,,4,3,7,109,,108,108,6,8,5,5,0.3,0.3
2025-10-03T0800,4290A,120.1969,35.9546,青岛市,珠江路669号,,37,,16,3,7,117,,116,116,6,5,7,7,0.3,0.3
2025-10-03T0800,4291A,120.0424,35.8656,青岛市,黄岛区人民政府广场,,32,6,15,3,3,101,,120,120,15,5,5,4,0.5,0.4
2025-10-03T0800,1702A,113.0426,23.691,清远市,环保大楼,,36,36,33,19,19,16,,27,27,25,19,15,10,0.6,0.6
2025-10-03T0800,1703A,113.0208,23.7106,清远市,凤城街办,,30,30,26,11,14,20,,24,24,25,20,16,11,0.6,0.6
2025-10-03T0800,3025A,113.0477,23.6344,清远市,技师学院,,38,38,28,14,15,19,,22,22,18,18,26,7,0.5,0.5
2025-10-03T0800,3318A,112.9903,23.7403,清远市,清新太和,,20,20,26,12,15,28,,32,32,15,16,16,10,0.5,0.5
2025-10-03T0800,3455A,113.076,23.7198,清远市,清城东城,,39,39,26,20,14,15,,24,24,21,16,9,8,0.8,0.7
2025-10-03T0800,2661A,107.6325,35.7357,庆阳市,庆阳五中,,,35,28,21,16,,,72,72,6,8,8,8,,0.5
2025-10-03T0800,2662A,107.6364,35.7067,庆阳市,市环保局,,37,37,34,19,16,73,,75,75,8,8,3,3,0.7,0.6
2025-10-03T0800,1916A,103.7897,25.5035,曲靖市,环境监测站,,17,17,13,3,5,16,,20,20,9,6,2,3,0.5,0.5
2025-10-03T0800,1917A,103.8,25.5364,曲靖市,烟厂办公区,,15,14,10,10,6,17,,22,22,9,6,4,4,0.5,0.3
2025-10-03T0800,3376A,103.7947,25.462,曲靖市,南苑二区,,8,8,9,3,3,25,,24,24,4,5,4,4,0.3,0.2
2025-10-03T0800,3377A,103.7444,25.5261,曲靖市,曲靖师范学院,,12,12,10,3,6,28,,23,23,5,6,2,2,0.3,0.3
2025-10-03T0800,1264A,118.8692,28.9398,衢州市,环保大楼,,36,36,34,25,22,31,,38,38,15,10,5,5,0.6,0.6
2025-10-03T0800,1265A,118.8709,28.9666,衢州市,实验学校,颗粒物(PM10),51,51,32,33,21,23,,38,38,22,12,6,4,0.5,0.5
2025-10-03T0800,1266A,118.8621,28.9808,衢州市,衢州学院,,37,37,36,25,24,20,,27,27,23,16,5,5,0.4,0.5
2025-10-03T0800,1611A,118.5819,24.9117,泉州市,涂山街,,39,39,22,27,14,50,,76,76,12,7,3,2,0.6,0.5
2025-10-03T0800,1612A,118.5972,24.8978,泉州市,津头埔,,39,38,22,27,14,60,,76,76,10,7,4,4,0.5,0.4
2025-10-03T0800,1613A,118.6663,24.9424,泉州市,万安,,32,32,24,21,11,50,,63,63,14,8,2,3,0.5,0.4
2025-10-03T0800,1614A,118.6117,24.9604,泉州市,清源山,,,,16,,7,,,76,,,3,,2,,0.4
2025-10-03T0800,3529A,118.6333,24.9264,泉州市,城华南路,,25,24,18,17,12,58,,63,63,5,7,3,3,0.5,0.4
2025-10-03T0800,2626A,88.8876,29.2718,日喀则市,日喀则监测站,,17,6,9,3,1,54,,70,70,14,7,13,13,0.4,0.4
2025-10-03T0800,3726A,88.8781,29.2426,日喀则市,林业技术推广中心,,21,6,13,3,1,67,,73,73,2,4,6,6,0.2,0.3
2025-10-03T0800,1659A,119.471,35.4209,日照市,监测站,,30,,6,3,3,94,,109,109,12,8,7,7,0.5,0.5
2025-10-03T0800,1660A,119.523,35.4216,日照市,市政府广场,,32,6,9,3,4,100,,114,114,5,3,4,4,0.5,0.6
2025-10-03T0800,1661A,119.5587,35.4044,日照市,港务局,,31,6,19,3,8,99,,113,113,5,3,2,2,0.4,0.4
2025-10-03T0800,3507A,119.5328,35.4625,日照市,职业技术学院,,31,6,10,3,4,99,,108,108,5,3,5,4,0.6,0.6
2025-10-03T0800,3604A,119.3266,35.1044,日照市,岚山环保分局,,33,31,12,23,5,83,,102,102,26,13,21,9,2.8,1.2
2025-10-03T0800,1835A,111.1922,34.7752,三门峡市,市政府,,30,30,18,16,11,62,,73,73,16,13,8,6,0.6,0.5
2025-10-03T0800,1836A,111.1587,34.7942,三门峡市,开发区,,33,33,20,13,11,52,,64,64,20,17,9,6,0.4,0.4
2025-10-03T0800,1838A,111.143,34.7955,三门峡市,风景区,,22,22,19,8,10,55,,66,66,10,10,12,7,0.6,0.5
2025-10-03T0800,3039A,111.1911,34.7829,三门峡市,三门峡市第一小学,,20,20,20,14,11,60,,69,69,8,8,11,6,0.6,0.6
2025-10-03T0800,3598A,111.1,34.7167,三门峡市,富达温泉假日酒店,,28,28,22,17,12,52,,55,55,13,13,8,8,0.4,0.4
2025-10-03T0800,2324A,117.6211,26.2625,三明市,三钢,,29,25,29,20,23,20,,18,18,15,12,6,5,1.5,0.9
2025-10-03T0800,2325A,117.635,26.2714,三明市,三明二中,,,,,,,,,,,,,,,,
2025-10-03T0800,2326A,117.6028,26.2378,三明市,三元区政府,,20,15,28,14,17,26,,16,16,10,13,4,4,0.5,0.6
2025-10-03T0800,2327A,117.7275,26.3108,三明市,洋溪,,,,19,,12,,,59,,,10,,7,,1.0
2025-10-03T0800,1876A,109.5078,18.2489,三亚市,河东子站,,10,10,12,7,8,9,,15,15,11,9,3,3,0.6,0.5
2025-10-03T0800,1877A,109.4964,18.2681,三亚市,河西子站,,,,16,3,3,5,,8,8,10,10,4,5,0.4,0.4
2025-10-03T0800,3540A,109.7348,18.3443,三亚市,君悦子站,,13,13,14,7,5,11,,13,13,7,6,3,3,0.5,0.4
2025-10-03T0800,2624A,91.7608,29.2313,山南市,山南监测站,,12,9,7,6,4,37,,50,50,9,8,6,6,0.3,0.3
2025-10-03T0800,2625A,91.7706,29.2436,山南市,山南人民医院,,14,9,10,3,5,44,,55,55,9,6,5,5,0.3,0.3
2025-10-03T0800,1674A,116.6794,23.3667,汕头市,金平子站,,38,38,19,21,10,21,,34,34,28,11,13,4,0.8,0.5
2025-10-03T0800,1675A,116.7244,23.3633,汕头市,龙湖子站,,22,21,19,15,8,24,,36,36,22,9,12,8,0.8,0.5
2025-10-03T0800,1676A,116.7258,23.2775,汕头市,濠江子站,,29,29,22,16,10,24,,35,35,20,6,11,6,1.2,0.8
2025-10-03T0800,1677A,116.7519,23.4714,汕头市,澄海子站,,28,28,22,15,11,19,,26,26,20,12,7,5,0.7,0.6
2025-10-03T0800,1678A,116.6092,23.2539,汕头市,潮阳子站,,25,25,20,11,9,26,,37,37,16,10,9,6,0.9,0.6
2025-10-03T0800,3444A,116.454,23.2684,汕头市,潮南峡山,颗粒物(PM10),52,53,23,35,15,25,,20,20,10,9,12,7,0.7,0.6
2025-10-03T0800,3624A,116.4069,23.2533,汕头市,潮南子站,,48,48,30,28,16,20,,24,24,16,9,9,6,0.6,0.5
2025-10-03T0800,1693A,115.3653,22.775,汕尾市,市环保局,,14,9,16,7,8,42,,44,44,6,5,4,4,0.6,0.5
2025-10-03T0800,1694A,115.3706,22.7898,汕尾市,市政府,,26,,15,18,11,29,,43,43,13,7,6,6,0.6,0.5
2025-10-03T0800,1695A,115.3622,22.7925,汕尾市,新城中学,,13,,16,9,7,33,,37,37,10,7,6,6,0.6,0.5
2025-10-03T0800,2645A,109.9154,33.8715,商洛市,监测站,,15,8,9,3,3,45,,48,48,7,7,6,6,0.6,0.6
2025-10-03T0800,3045A,109.9643,33.8471,商洛市,商州区中学,,13,13,9,8,8,38,,46,46,14,11,3,4,0.4,0.4
2025-10-03T0800,2408A,115.6702,34.4285,商丘市,环境监测站,,29,26,14,20,9,46,,59,59,10,9,2,2,0.4,0.3
2025-10-03T0800,2409A,115.6458,34.4045,商丘市,粮食局,,30,23,12,21,4,48,,64,64,12,10,2,2,0.6,0.5
2025-10-03T0800,2410A,115.6293,34.3948,商丘市,睢阳区环保局,,49,36,13,34,12,49,,65,65,9,7,3,3,0.5,0.4
2025-10-03T0800,3171A,115.6071,34.4465,商丘市,梁园区档案局,,45,,12,31,10,45,,55,55,9,8,2,2,0.6,0.5
2025-10-03T0800,1141A,121.4,31.238,上海市,普陀,,17,17,19,11,12,32,,50,50,17,11,5,5,0.6,0.6
2025-10-03T0800,1142A,121.478,31.2036,上海市,十五厂,,16,16,22,8,16,17,,38,38,31,15,6,6,0.8,0.9
2025-10-03T0800,1143A,121.467,31.3008,上海市,虹口,,18,17,19,12,13,33,,49,49,17,10,8,8,0.7,0.7
2025-10-03T0800,1147A,121.425,31.2261,上海市,静安监测站,,18,16,19,12,11,44,,52,52,16,13,4,4,0.7,0.8
2025-10-03T0800,1148A,121.703,31.1907,上海市,浦东川沙,,20,20,22,9,11,22,,42,42,19,10,9,8,0.6,0.6
2025-10-03T0800,1149A,121.533,31.2284,上海市,浦东新区监测站,,18,17,20,12,14,26,,48,48,19,8,5,5,0.5,0.5
2025-10-03T0800,1150A,121.577,31.2071,上海市,浦东张江,,22,22,21,3,9,22,,47,47,20,8,6,6,0.6,0.7
2025-10-03T0800,3265A,121.4316,31.3322,上海市,宝山庙行,,18,18,21,8,12,32,,51,51,18,10,6,6,0.4,0.5
2025-10-03T0800,3266A,121.8791,31.4662,上海市,崇明上实东滩,,16,16,20,10,11,28,,42,42,14,12,6,6,0.6,0.3
2025-10-03T0800,3268A,121.3162,31.2838,上海市,嘉定南翔,,18,17,21,12,14,22,,33,33,27,19,4,4,0.4,0.5
2025-10-03T0800,3269A,121.3359,30.7456,上海市,金山新城,,16,14,18,11,15,44,,50,50,8,4,6,6,0.8,0.9
2025-10-03T0800,3270A,121.4996,31.0739,上海市,闵行浦江,,20,20,18,8,11,23,,44,44,19,7,4,4,1.7,1.6
2025-10-03T0800,3271A,121.2886,31.1663,上海市,青浦徐泾,,21,21,20,9,12,18,,41,41,26,8,7,7,0.6,0.5
2025-10-03T0800,3272A,121.2186,31.0378,上海市,松江图书馆,,22,22,21,10,11,35,,50,50,19,12,5,5,0.4,0.4
2025-10-03T0800,3273A,121.3902,31.2059,上海市,长宁仙霞,,18,18,23,10,12,20,,39,39,20,12,4,4,0.8,0.8
2025-10-03T0800,3274A,121.7965,31.0507,上海市,浦东惠南,,16,13,17,11,11,29,,39,39,14,10,6,7,0.7,0.8
2025-10-03T0800,3544A,121.4891,30.925,上海市,奉贤南桥新城,,18,18,19,10,14,38,,53,53,17,9,6,6,0.6,0.6
2025-10-03T0800,4183A,121.4174,31.16637,上海市,冠生园路458号,,19,18,23,13,14,18,,34,34,19,14,4,4,0.8,0.8
2025-10-03T0800,4205A,121.5419,31.2683,上海市,宁武路151号,,33,33,26,16,14,15,,39,39,37,19,5,5,0.9,0.7
2025-10-03T0800,2381A,118.005,28.4572,上饶市,百草园,,,,,,,,,,,,,,,,
2025-10-03T0800,2382A,117.9756,28.4436,上饶市,市监测站,细颗粒物(PM2.5),52,42,42,36,25,15,,25,25,18,14,8,18,0.5,0.5
2025-10-03T0800,2383A,117.9519,28.4628,上饶市,凤凰光学,,41,41,42,27,26,23,,28,28,18,12,17,20,0.5,0.5
2025-10-03T0800,3685A,117.897,28.4315,上饶市,双创科技城,,49,44,38,34,26,18,,25,25,29,20,15,10,0.6,0.6
2025-10-03T0800,4211A,118.1904,28.4448,上饶市,裕丰大道,,45,45,37,22,17,35,,33,33,18,12,15,14,0.5,0.5
2025-10-03T0800,1669A,113.5824,24.7733,韶关市,市八中,,29,29,22,18,12,18,,27,27,13,10,14,11,0.6,0.5
2025-10-03T0800,1671A,113.5917,24.7972,韶关市,园林处,,42,34,23,29,18,22,,17,17,12,15,11,9,0.7,0.6
