timepoint,stationcode,longitude,latitude,area,positionname,primarypollutant,aqi,pm10,pm10_24h,pm2_5,pm2_5_24h,o3,o3_24h,o3_8h,o3_8h_24h,no2,no2_24h,so2,so2_24h,co,co_24h
2023-10-25T19:00:00,1001A,116.3621,39.8784,北京市,万寿西宫,颗粒物(PM10),88,126,164,63,114,127,87,103,103,82,75,2,2,0.9,1.1
2023-10-25T19:00:00,1002A,116.2202,40.2915,北京市,定陵,,26,26,74,11,46,90,56,76,76,8,19,3,3,0.0,0.4
2023-10-25T19:00:00,1003A,116.4174,39.9289,北京市,东四,颗粒物(PM10),85,119,174,57,108,114,81,106,105,68,66,2,2,0.9,1
2023-10-25T19:00:00,1004A,116.4072,39.8863,北京市,天坛,细颗粒物(PM2.5),80,104,147,59,107,179,65,106,100,57,49,1,3,0.8,0.9
2023-10-25T19:00:00,1005A,116.462,39.9365,北京市,农展馆,颗粒物(PM10),71,92,155,49,99,110,43,88,84,98,79,3,3,1.0,1.1
2023-10-25T19:00:00,1006A,116.3392,39.9295,北京市,官园,颗粒物(PM10),80,109,165,53,101,111,75,95,94,74,75,2,2,1.0,1.1
2023-10-25T19:00:00,1007A,116.2878,39.9611,北京市,海淀万柳,,46,43,135,16,77,85,7,63,60,91,77,1,3,1.4,1.1
2023-10-25T19:00:00,1008A,116.6636,40.135,北京市,顺义新城,,38,38,128,16,84,114,42,100,87,62,56,1,3,0.5,0.7
2023-10-25T19:00:00,1009A,116.6275,40.3275,北京市,怀柔镇,,49,49,102,22,71,110,76,102,102,43,24,2,2,0.6,0.7
2023-10-25T19:00:00,1010A,116.2296,40.217,北京市,昌平镇,,29,29,92,14,58,98,65,78,78,24,36,4,4,0.2,0.6
2023-10-25T19:00:00,1011A,116.3966,39.9821,北京市,奥体中心,颗粒物(PM10),68,85,150,40,97,103,43,77,76,85,86,2,2,0.8,1
2023-10-25T19:00:00,1012A,116.184,39.9136,北京市,古城,颗粒物(PM10),56,61,120,20,72,103,30,81,78,80,72,1,1,1.0,1
2023-10-25T19:00:00,1015A,117.1444,39.1661,天津市,勤俭道,细颗粒物(PM2.5),228,316,249,178,164,248,151,171,171,106,105,12,11,1.3,1.4
2023-10-25T19:00:00,1017A,117.237,39.1082,天津市,大直沽八号路,细颗粒物(PM2.5),200,266,245,150,153,204,163,152,152,82,107,7,6,1.2,1.3
2023-10-25T19:00:00,1018A,117.202,39.0927,天津市,前进道,细颗粒物(PM2.5),180,247,224,136,142,198,167,154,154,92,107,10,9,1.4,1.3
2023-10-25T19:00:00,1019A,117.1837,39.2133,天津市,淮河道,细颗粒物(PM2.5),241,328,254,191,165,250,181,186,186,123,125,10,9,1.4,1.4
2023-10-25T19:00:00,1021A,117.307,39.0877,天津市,跃进路,细颗粒物(PM2.5),168,206,234,127,144,165,96,132,132,106,101,9,9,1.4,1.3
2023-10-25T19:00:00,1023A,117.707,39.0343,天津市,第四大街,细颗粒物(PM2.5),133,178,190,101,125,133,67,105,105,102,97,8,9,1.1,1.4
2023-10-25T19:00:00,1024A,117.457,38.8394,天津市,永明路,细颗粒物(PM2.5),165,212,193,125,132,144,44,119,115,138,85,11,9,1.3,1
2023-10-25T19:00:00,1026A,117.764,39.1587,天津市,汉北路,细颗粒物(PM2.5),120,158,165,91,102,133,33,96,93,114,91,8,9,0.9,1.2
2023-10-25T19:00:00,1027A,117.157,38.9194,天津市,团泊洼,细颗粒物(PM2.5),169,220,219,128,147,176,148,142,142,39,68,7,11,1.1,1.3
2023-10-25T19:00:00,1029A,114.4422,38.0444,石家庄市,职工医院,颗粒物(PM10),64,78,75,33,35,134,110,124,124,46,50,8,10,0.6,0.6
2023-10-25T19:00:00,1030A,114.6063,38.0266,石家庄市,高新区,颗粒物(PM10),83,115,94,39,41,132,122,119,119,43,45,8,6,0.6,0.6
2023-10-25T19:00:00,1031A,114.4898,38.1328,石家庄市,西北水源,颗粒物(PM10),80,109,93,36,37,122,46,97,95,81,48,4,4,0.6,0.6
2023-10-25T19:00:00,1032A,114.4586,38.0058,石家庄市,西南高教,颗粒物(PM10),75,99,85,39,38,133,92,117,117,50,38,7,9,0.7,0.7
2023-10-25T19:00:00,1033A,114.5331,38.0178,石家庄市,世纪公园,颗粒物(PM10),68,86,79,38,45,129,96,110,110,48,37,9,8,0.7,0.8
2023-10-25T19:00:00,1034A,114.509,38.0457,石家庄市,人民会堂,颗粒物(PM10),71,91,79,51,47,132,120,124,124,44,37,10,12,0.6,0.6
2023-10-25T19:00:00,1035A,114.3524,37.8911,石家庄市,封龙山,颗粒物(PM10),69,88,69,38,22,156,138,128,128,14,9,14,12,0.6,0.5
2023-10-25T19:00:00,1037A,118.131,39.6363,唐山市,雷达站,细颗粒物(PM2.5),175,218,212,132,151,182,90,145,145,70,70,4,4,0.9,1.2
2023-10-25T19:00:00,1038A,118.1725,39.6334,唐山市,物资局,,,,185,,148,174,103,153,147,88,89,8,9,0.9,1
2023-10-25T19:00:00,1040A,118.1705,39.6506,唐山市,十二中,细颗粒物(PM2.5),140,202,188,107,118,169,78,137,137,103,87,2,5,1.1,1.3
2023-10-25T19:00:00,1041A,118.1869,39.622,唐山市,小山,细颗粒物(PM2.5),163,214,200,124,130,172,17,138,132,147,68,4,6,1.4,1.2
2023-10-25T19:00:00,1042A,119.5134,39.8207,秦皇岛市,北戴河环保局,细颗粒物(PM2.5),159,204,197,121,139,159,124,136,136,63,61,18,19,0.9,1.4
2023-10-25T19:00:00,1043A,119.7493,40.0116,秦皇岛市,第一关,细颗粒物(PM2.5),198,226,175,148,129,196,36,167,144,203,81,21,16,1.7,1.4
2023-10-25T19:00:00,1044A,119.5897,39.9499,秦皇岛市,监测站,细颗粒物(PM2.5),190,203,168,143,129,199,122,180,169,83,69,15,16,1.3,1.3
2023-10-25T19:00:00,1046A,119.5251,39.9041,秦皇岛市,建设大厦,细颗粒物(PM2.5),185,204,176,139,128,196,112,171,165,80,50,10,12,0.8,1
2023-10-25T19:00:00,1048A,114.5302,36.6116,邯郸市,东污水处理厂,颗粒物(PM10),62,73,86,29,46,133,67,107,107,62,56,7,16,0.8,1.5
2023-10-25T19:00:00,1049A,114.4918,36.5713,邯郸市,矿院,颗粒物(PM10),64,78,84,32,46,127,55,95,95,52,60,6,6,0.8,1.2
2023-10-25T19:00:00,1050A,114.484,36.6133,邯郸市,丛台公园,颗粒物(PM10),70,90,76,39,42,139,80,123,116,49,55,8,20,0.9,1.6
2023-10-25T19:00:00,1051A,115.493,38.8632,保定市,游泳馆,颗粒物(PM10),101,151,182,71,139,106,22,88,75,100,83,8,9,0.6,0.8
2023-10-25T19:00:00,1052A,115.5213,38.8959,保定市,华电二区,颗粒物(PM10),95,139,167,60,135,101,16,80,72,96,66,10,7,0.9,1.1
2023-10-25T19:00:00,1053A,115.4713,38.9108,保定市,接待中心,颗粒物(PM10),120,189,182,62,114,120,0,90,72,107,73,8,9,1.2,0.9
2023-10-25T19:00:00,1054A,115.4612,38.8416,保定市,地表水厂,颗粒物(PM10),107,164,215,51,112,95,16,67,64,111,89,8,8,1.0,1.1
2023-10-25T19:00:00,1056A,115.5086,38.8639,保定市,监测站,颗粒物(PM10),106,162,188,62,128,100,7,75,62,113,92,10,9,1.1,1.2
2023-10-25T19:00:00,1057A,114.8883,40.8336,张家口市,人民公园,,41,41,64,6,21,93,79,88,88,12,18,3,3,0.3,0.4
2023-10-25T19:00:00,1059A,114.8687,40.8042,张家口市,五金库,,35,35,70,2,25,93,75,85,85,13,29,2,4,0,0.2
2023-10-25T19:00:00,1060A,114.8902,40.762,张家口市,世纪豪园,颗粒物(PM10),51,52,64,16,24,94,72,85,85,18,28,3,3,0.4,0.5
2023-10-25T19:00:00,1061A,114.8916,40.8661,张家口市,北泵房,,36,36,58,8,21,108,83,97,97,10,17,6,8,0.1,0.2
2023-10-25T19:00:00,1062A,117.9531,40.9081,承德市,铁路,颗粒物(PM10),54,57,82,15,38,83,64,75,75,25,43,7,10,0.3,0.9
2023-10-25T19:00:00,1063A,117.9392,40.9763,承德市,中国银行,,44,44,88,5,42,87,70,78,78,18,45,6,9,0.3,0.9
2023-10-25T19:00:00,1064A,117.9503,40.928,承德市,开发区,颗粒物(PM10),51,52,86,21,46,88,72,80,80,14,57,5,9,0.2,1
2023-10-25T19:00:00,1065A,117.8051,40.9655,承德市,文化中心,颗粒物(PM10),60,69,116,25,47,98,52,73,73,40,65,3,15,0.3,1.3
2023-10-25T19:00:00,1066A,117.9268,41.0026,承德市,离宫,,27,27,80,17,45,86,82,79,79,7,35,1,3,0.2,0.7
2023-10-25T19:00:00,1067A,116.6708,39.5111,廊坊市,药材公司,,,,209,,136,131,109,114,114,56,61,4,4,0.9,1
2023-10-25T19:00:00,1068A,116.7214,39.5589,廊坊市,开发区,细颗粒物(PM2.5),142,189,177,108,108,129,77,102,102,96,76,3,3,0.9,0.9
2023-10-25T19:00:00,1070A,116.7244,39.5269,廊坊市,北华航天学院,细颗粒物(PM2.5),138,204,206,105,130,132,87,112,112,88,71,6,6,1.1,1
2023-10-25T19:00:00,1071A,116.8842,38.2991,沧州市,沧县城建局,颗粒物(PM10),92,133,148,51,96,138,49,108,105,99,59,7,11,1.0,0.9
2023-10-25T19:00:00,1072A,116.8584,38.3254,沧州市,电视转播站,颗粒物(PM10),84,118,142,53,96,144,35,118,109,101,61,9,8,1.0,0.9
2023-10-25T19:00:00,1073A,116.8709,38.3228,沧州市,市环保局,颗粒物(PM10),69,88,145,48,93,142,39,112,107,96,49,7,11,0.9,0.8
2023-10-25T19:00:00,1074A,115.6838,37.7541,衡水市,电机北厂,颗粒物(PM10),80,110,123,43,71,155,74,125,125,62,45,3,3,0.7,0.6
2023-10-25T19:00:00,1075A,115.6303,37.7316,衡水市,市监测站,颗粒物(PM10),90,129,117,44,68,146,56,113,112,83,56,9,11,0.8,0.8
2023-10-25T19:00:00,1077A,114.4704,37.0886,邢台市,达活泉,颗粒物(PM10),80,110,82,34,32,119,34,90,86,80,46,11,11,1.7,1.5
2023-10-25T19:00:00,1078A,114.5062,37.0349,邢台市,邢师高专,颗粒物(PM10),87,123,80,26,33,112,23,83,79,106,63,7,6,1.0,0.7
2023-10-25T19:00:00,1079A,114.5237,37.0851,邢台市,路桥公司,颗粒物(PM10),67,84,76,34,40,117,73,88,88,53,57,7,5,0.7,0.8
2023-10-25T19:00:00,1080A,114.4725,37.0719,邢台市,市环保局,,,112,81,44,32,121,,98,98,61,38,7,8,1.3,1
2023-10-25T19:00:00,1081A,112.522,37.8873,太原市,尖草坪,细颗粒物(PM2.5),100,131,127,75,64,144,37,95,94,103,78,11,15,1.2,1.2
2023-10-25T19:00:00,1083A,112.434,38.0108,太原市,上兰,,,,,,,,,,,,,,,,
2023-10-25T19:00:00,1084A,112.469,37.7124,太原市,晋源,细颗粒物(PM2.5),140,151,107,107,59,157,37,106,106,111,72,20,14,1.7,1.2
2023-10-25T19:00:00,1085A,112.5583,37.7394,太原市,小店,细颗粒物(PM2.5),119,146,157,90,70,140,39,101,101,116,84,22,17,1.3,1.2
2023-10-25T19:00:00,1086A,112.5369,37.8692,太原市,桃园,细颗粒物(PM2.5),93,125,131,69,64,141,34,96,95,114,84,11,15,1.4,1.3
2023-10-25T19:00:00,1087A,112.57,37.8195,太原市,坞城,颗粒物(PM10),85,119,111,62,60,148,20,101,98,35,70,10,13,1.2,1.1
2023-10-25T19:00:00,1088A,112.549,37.9854,太原市,南寨,细颗粒物(PM2.5),132,206,124,100,58,129,39,92,92,93,68,9,14,0.9,0.9
2023-10-25T19:00:00,1090A,111.6507,40.7517,呼和浩特市,呼市一监,颗粒物(PM10),65,80,167,24,96,147,76,103,103,24,71,9,15,0.6,0.9
2023-10-25T19:00:00,1091A,111.6572,40.8033,呼和浩特市,小召,颗粒物(PM10),57,63,146,16,80,141,76,95,95,22,74,8,15,0.4,0.9
2023-10-25T19:00:00,1094A,111.7516,40.8369,呼和浩特市,如意水处理厂,,41,41,135,15,75,145,70,103,103,26,69,6,17,0.4,0.8
2023-10-25T19:00:00,1095A,111.7276,40.8062,呼和浩特市,二十九中,颗粒物(PM10),92,133,155,12,81,150,80,106,106,19,72,8,19,0.4,0.9
2023-10-25T19:00:00,1096A,111.5512,40.7866,呼和浩特市,工大金川校区,颗粒物(PM10),99,148,142,17,68,125,57,88,88,37,76,5,14,0.4,0.8
2023-10-25T19:00:00,1097A,111.717,40.7612,呼和浩特市,化肥厂生活区,,42,42,195,14,101,165,82,108,108,18,57,7,16,0.5,1
2023-10-25T19:00:00,1098A,123.6836,41.9339,沈阳市,森林路,,,,,,,,,,,,,,,,
2023-10-25T19:00:00,1099A,123.505,41.7406,沈阳市,浑南东路,细颗粒物(PM2.5),100,146,86,75,46,176,146,153,153,40,46,14,18,1.2,1.1
2023-10-25T19:00:00,1100A,123.4231,41.6989,沈阳市,新秀街,细颗粒物(PM2.5),129,142,84,98,47,177,138,152,152,61,39,16,18,1.1,1
2023-10-25T19:00:00,1102A,123.5903,41.8411,沈阳市,东陵路,细颗粒物(PM2.5),112,143,84,84,48,193,156,166,166,37,34,14,15,1.1,1
2023-10-25T19:00:00,1103A,123.4264,41.8467,沈阳市,陵东街,细颗粒物(PM2.5),109,135,75,82,47,190,159,169,169,39,36,13,13,1.3,1.1
2023-10-25T19:00:00,1104A,123.4114,41.7653,沈阳市,文化路,细颗粒物(PM2.5),122,182,87,92,49,194,158,169,169,39,26,16,21,1.5,1.3
2023-10-25T19:00:00,1105A,123.4678,41.7867,沈阳市,小河沿,细颗粒物(PM2.5),105,128,77,79,44,183,162,163,163,38,38,13,12,1.3,1.2
2023-10-25T19:00:00,1106A,123.4017,41.7972,沈阳市,太原街,细颗粒物(PM2.5),117,144,80,88,49,194,144,167,167,57,32,12,21,1.1,0.8
2023-10-25T19:00:00,1108A,123.3783,41.9228,沈阳市,京沈街,细颗粒物(PM2.5),185,177,109,139,66,202,150,171,171,43,28,19,18,1.2,1
2023-10-25T19:00:00,1109A,121.612,38.9741,大连市,甘井子,细颗粒物(PM2.5),175,246,170,132,94,175,115,149,149,61,38,8,8,0.9,0.8
2023-10-25T19:00:00,1110A,121.565,38.9511,大连市,周水子,细颗粒物(PM2.5),144,208,162,110,88,185,88,149,149,82,52,10,10,1.5,1.2
2023-10-25T19:00:00,1111A,121.5637,38.8845,大连市,星海三站,细颗粒物(PM2.5),134,138,143,102,83,193,154,164,164,34,31,17,16,1.0,0.9
2023-10-25T19:00:00,1112A,121.6302,38.9117,大连市,青泥洼桥,细颗粒物(PM2.5),127,168,136,96,73,178,129,159,159,42,30,10,9,1.3,1.2
2023-10-25T19:00:00,1113A,121.6251,38.8638,大连市,傅家庄,细颗粒物(PM2.5),130,128,103,99,69,198,190,180,180,19,24,11,12,0.8,0.8
2023-10-25T19:00:00,1114A,121.5213,38.8661,大连市,七贤岭,细颗粒物(PM2.5),120,182,130,91,62,200,131,181,181,58,38,9,8,1.4,1
2023-10-25T19:00:00,1115A,121.2529,38.8061,大连市,旅顺,细颗粒物(PM2.5),122,122,130,92,75,202,202,184,184,23,29,13,10,1.0,1
2023-10-25T19:00:00,1116A,121.7485,39.1311,大连市,金州,颗粒物(PM10),160,269,178,114,76,185,115,163,161,58,34,16,14,1.4,1
2023-10-25T19:00:00,1117A,121.7811,39.0496,大连市,开发区,细颗粒物(PM2.5),142,183,144,108,79,179,153,159,159,40,51,11,11,1.1,0.9
2023-10-25T19:00:00,1118A,121.9762,39.0631,大连市,双D港,细颗粒物(PM2.5),117,117,67,88,50,208,128,169,169,38,29,8,8,1.3,0.9
2023-10-25T19:00:00,1119A,125.3325,43.9166,长春市,食品厂,细颗粒物(PM2.5),107,112,141,80,88,149,103,132,130,56,64,17,10,1.1,1.3
2023-10-25T19:00:00,1120A,125.2863,43.9027,长春市,客车厂,细颗粒物(PM2.5),112,107,110,84,84,141,82,130,126,73,62,42,12,1.2,1.3
2023-10-25T19:00:00,1121A,125.2841,43.8463,长春市,邮电学院,细颗粒物(PM2.5),88,117,105,65,71,164,104,144,141,63,58,22,9,1.0,0.9
2023-10-25T19:00:00,1122A,125.3716,43.8772,长春市,劳动公园,细颗粒物(PM2.5),92,110,135,68,73,157,108,139,139,57,57,17,9,1.0,1.2
2023-10-25T19:00:00,1123A,125.3297,43.8805,长春市,园林处,颗粒物(PM10),73,96,107,52,68,161,99,142,140,54,55,18,11,1.3,1.3
2023-10-25T19:00:00,1124A,125.4605,43.79,长春市,净月潭,颗粒物(PM10),69,87,78,46,53,164,108,147,143,28,21,9,8,0.8,0.7
2023-10-25T19:00:00,1125A,125.7194,43.515,长春市,甩湾子,,,,,,,,,,,,,,,,
2023-10-25T19:00:00,1126A,125.3863,43.8447,长春市,经开区环卫处,细颗粒物(PM2.5),98,111,145,73,78,153,95,137,134,61,56,12,8,1.2,1.1
2023-10-25T19:00:00,1127A,125.245,43.7783,长春市,高新区管委会,细颗粒物(PM2.5),100,121,114,75,80,162,25,142,125,115,53,9,8,1.2,1
2023-10-25T19:00:00,1128A,125.1761,43.8325,长春市,岱山公园,细颗粒物(PM2.5),107,99,117,80,80,159,78,141,135,75,69,8,9,1.1,1
2023-10-25T19:00:00,1129A,126.5422,45.755,哈尔滨市,岭北,细颗粒物(PM2.5),118,139,72,89,38,147,117,123,123,28,24,8,12,1.0,0.6
2023-10-25T19:00:00,1130A,126.561,45.8167,哈尔滨市,松北商大,细颗粒物(PM2.5),105,123,66,79,32,131,103,109,109,32,40,8,8,1.0,0.6
2023-10-25T19:00:00,1131A,126.979,45.5419,哈尔滨市,阿城会宁,细颗粒物(PM2.5),127,155,78,96,38,124,97,106,106,29,30,9,8,0.8,0.7
2023-10-25T19:00:00,1132A,126.599,45.7222,哈尔滨市,南岗学府路,细颗粒物(PM2.5),114,149,85,86,40,132,77,101,101,56,51,9,11,0.9,0.7
2023-10-25T19:00:00,1133A,126.689,45.7733,哈尔滨市,太平宏伟公园,细颗粒物(PM2.5),117,136,93,88,45,118,80,94,94,53,48,15,10,1.1,0.8
2023-10-25T19:00:00,1134A,126.635,45.7667,哈尔滨市,道外承德广场,细颗粒物(PM2.5),159,142,78,121,43,125,76,95,95,64,59,12,10,0.9,0.7
2023-10-25T19:00:00,1135A,126.685,45.7319,哈尔滨市,香坊红旗大街,细颗粒物(PM2.5),128,139,104,97,54,122,68,93,93,76,56,22,17,1.0,1
2023-10-25T19:00:00,1136A,126.6411,45.7258,哈尔滨市,动力和平路,细颗粒物(PM2.5),124,135,81,94,37,120,50,88,88,86,54,20,13,1.1,0.8
2023-10-25T19:00:00,1137A,126.593,45.7478,哈尔滨市,道里建国路,细颗粒物(PM2.5),113,130,76,85,47,132,96,110,110,52,54,13,18,1.6,1.2
2023-10-25T19:00:00,1138A,126.615,45.61,哈尔滨市,平房东轻厂,细颗粒物(PM2.5),110,137,71,83,34,143,112,120,120,28,40,12,11,0.8,0.1
2023-10-25T19:00:00,1139A,126.595,45.9855,哈尔滨市,呼兰师专,细颗粒物(PM2.5),156,132,77,119,45,133,117,112,112,40,45,21,12,1.0,0.8
2023-10-25T19:00:00,1140A,126.6206,45.6842,哈尔滨市,省农科院,细颗粒物(PM2.5),138,151,87,105,46,133,84,103,103,78,60,11,11,0.9,0.7
2023-10-25T19:00:00,1141A,121.4,31.238,上海市,普陀,细颗粒物(PM2.5),65,65,68,47,43,180,84,144,139,43,53,6,7,0.8,0.9
2023-10-25T19:00:00,1142A,121.478,31.2036,上海市,十五厂,颗粒物(PM10),56,61,66,32,38,173,80,142,136,52,65,7,7,0.7,0.8
2023-10-25T19:00:00,1143A,121.467,31.3008,上海市,虹口,颗粒物(PM10),55,59,66,34,45,140,64,105,103,64,75,6,7,0.7,1
2023-10-25T19:00:00,1144A,121.412,31.1654,上海市,徐汇上师大,细颗粒物(PM2.5),58,58,70,41,46,192,73,155,148,54,62,9,10,0.8,0.9
2023-10-25T19:00:00,1145A,121.536,31.2659,上海市,杨浦四漂,细颗粒物(PM2.5),62,69,82,44,53,158,29,103,100,103,77,10,11,0.5,0.7
2023-10-25T19:00:00,1147A,121.425,31.2261,上海市,静安监测站,细颗粒物(PM2.5),62,56,61,44,45,203,94,159,155,44,56,6,6,0.6,0.8
2023-10-25T19:00:00,1148A,121.703,31.1907,上海市,浦东川沙,,48,43,60,33,40,164,49,117,114,53,41,8,9,0.6,0.7
2023-10-25T19:00:00,1149A,121.533,31.2284,上海市,浦东新区监测站,,,51,64,,40,138,67,112,106,56,58,8,8,0.8,1
2023-10-25T19:00:00,1150A,121.577,31.2071,上海市,浦东张江,颗粒物(PM10),53,56,68,32,40,147,74,109,108,38,42,6,6,0.8,0.8
2023-10-25T19:00:00,1151A,118.8086,32.1065,南京市,迈皋桥,颗粒物(PM10),66,81,80,39,39,174,40,136,130,86,63,4,4,0.7,0.9
2023-10-25T19:00:00,1152A,118.7538,32.0551,南京市,草场门,,,,84,,47,169,,137,137,86,87,6,5,1.3,1.1
2023-10-25T19:00:00,1153A,118.7794,32.0745,南京市,山西路,颗粒物(PM10),74,97,80,53,45,183,70,159,152,72,61,7,8,1.2,1
2023-10-25T19:00:00,1154A,118.7752,32.0023,南京市,中华门,颗粒物(PM10),67,83,82,41,44,164,96,139,139,60,76,6,8,1.1,1.4
2023-10-25T19:00:00,1155A,118.8109,32.0309,南京市,瑞金路,颗粒物(PM10),74,97,82,48,41,151,15,120,106,115,69,7,8,1.1,0.9
2023-10-25T19:00:00,1156A,118.7997,32.0754,南京市,玄武湖,颗粒物(PM10),62,74,62,40,38,163,22,130,122,95,55,6,6,1.3,1.1
2023-10-25T19:00:00,1157A,118.6414,32.0931,南京市,浦口,颗粒物(PM10),57,64,64,28,36,158,123,142,137,30,30,8,8,0.7,0.8
2023-10-25T19:00:00,1158A,118.7356,31.9996,南京市,奥体中心,颗粒物(PM10),75,99,90,51,48,169,61,143,132,82,76,9,10,0.9,1
2023-10-25T19:00:00,1159A,118.9125,32.1028,南京市,仙林大学城,颗粒物(PM10),62,73,66,41,41,185,63,149,148,57,54,2,3,1.2,1.2
2023-10-25T19:00:00,1160A,120.561,31.2472,苏州市,上方山,,,77,63,,36,212,124,177,177,35,40,9,7,0.9,0.9
2023-10-25T19:00:00,1162A,120.591,31.3019,苏州市,彩香,细颗粒物(PM2.5),93,109,92,69,60,205,88,164,159,87,74,11,10,1.5,1.3
2023-10-25T19:00:00,1163A,120.596,31.3264,苏州市,轧钢厂,细颗粒物(PM2.5),90,119,108,67,60,207,93,168,166,83,63,12,11,1.4,1.4
2023-10-25T19:00:00,1164A,120.613,31.2703,苏州市,吴中区,细颗粒物(PM2.5),105,133,87,79,52,215,129,192,189,90,77,12,10,1.4,1.3
2023-10-25T19:00:00,1165A,120.543,31.2994,苏州市,苏州新区,细颗粒物(PM2.5),93,109,94,69,62,209,85,182,177,110,74,10,8,1.2,1.1
2023-10-25T19:00:00,1166A,120.669,31.3097,苏州市,苏州工业园区,细颗粒物(PM2.5),100,108,85,75,52,209,130,176,176,75,79,11,10,1.4,1.2
2023-10-25T19:00:00,1167A,120.641,31.3708,苏州市,相城区,细颗粒物(PM2.5),122,116,84,92,56,201,94,175,162,103,84,14,12,1.5,1.2
2023-10-25T19:00:00,1168A,120.9098,31.9663,南通市,狼山街道,细颗粒物(PM2.5),60,59,55,43,35,195,82,157,143,56,53,8,7,0.8,0.7
2023-10-25T19:00:00,1169A,120.86,32.0005,南通市,虹桥,,,96,77,59,56,202,75,162,150,,72,,8,1.0,1
2023-10-25T19:00:00,1170A,120.87,32.02,南通市,城中,细颗粒物(PM2.5),65,78,70,47,46,182,75,157,149,66,60,8,8,0.7,0.8
2023-10-25T19:00:00,1171A,120.94,31.93,南通市,星湖花园,颗粒物(PM10),76,101,62,52,38,220,71,182,169,94,57,9,8,0.8,0.8
2023-10-25T19:00:00,1172A,120.81,32.0417,南通市,紫琅学院,颗粒物(PM10),76,101,68,41,36,166,26,142,120,125,64,10,9,0.8,0.7
2023-10-25T19:00:00,1173A,119.176,34.5885,连云港市,市环境监测站,细颗粒物(PM2.5),79,105,113,58,76,167,128,154,154,39,43,9,10,0.9,0.8
2023-10-25T19:00:00,1177A,117.179,34.2761,徐州市,黄河新村,细颗粒物(PM2.5),74,95,120,54,77,191,116,170,168,44,57,10,10,0.7,1
2023-10-25T19:00:00,1178A,117.1918,34.2384,徐州市,淮塔,颗粒物(PM10),76,102,123,54,75,197,98,166,166,44,60,10,10,0.6,0.8
2023-10-25T19:00:00,1180A,117.256,34.2153,徐州市,新城区,颗粒物(PM10),91,132,138,60,83,186,68,158,147,82,79,8,9,0.8,1
2023-10-25T19:00:00,1181A,117.244,34.2911,徐州市,桃园路,"颗粒物(PM10),细颗粒物(PM2.5)",80,110,124,59,76,194,93,159,158,61,59,14,15,1.0,1.1
2023-10-25T19:00:00,1182A,117.2933,34.2778,徐州市,农科院,颗粒物(PM10),75,100,122,51,74,184,111,150,150,49,57,9,11,0.7,0.9
2023-10-25T19:00:00,1186A,119.389,32.3761,扬州市,邗江监测站,颗粒物(PM10),86,122,113,42,53,193,71,165,158,89,88,10,10,1.1,1.2
2023-10-25T19:00:00,1188A,120.269,31.4867,无锡市,雪浪,"颗粒物(PM10),细颗粒物(PM2.5)",70,90,62,51,38,200,112,177,174,37,24,8,9,1.6,1.1
2023-10-25T19:00:00,1189A,120.275,31.6219,无锡市,黄巷,颗粒物(PM10),89,128,117,58,61,178,36,136,130,156,108,13,15,2.0,1.8
2023-10-25T19:00:00,1190A,120.294,31.56,无锡市,曹张,细颗粒物(PM2.5),98,92,79,73,55,184,36,127,126,157,106,12,13,2.0,1.6
2023-10-25T19:00:00,1191A,120.242,31.5031,无锡市,漆塘,细颗粒物(PM2.5),62,66,58,44,42,222,124,172,172,28,25,8,9,1.6,1.3
2023-10-25T19:00:00,1192A,120.3489,31.5863,无锡市,东亭,,,119,89,68,55,193,,173,173,135,93,10,10,,2.1
2023-10-25T19:00:00,1193A,120.354,31.5475,无锡市,旺庄,细颗粒物(PM2.5),94,107,94,70,60,189,140,166,166,72,101,10,10,2.0,1.8
2023-10-25T19:00:00,1194A,120.245,31.5631,无锡市,荣巷,细颗粒物(PM2.5),70,61,49,51,38,201,142,173,173,28,29,10,12,1.6,1.4
2023-10-25T19:00:00,1195A,120.299,31.6817,无锡市,堰桥,细颗粒物(PM2.5),85,102,89,63,56,202,89,175,172,76,75,11,14,1.6,1.4
2023-10-25T19:00:00,1196A,119.9633,31.762,常州市,市监测站,细颗粒物(PM2.5),100,140,101,75,62,194,42,160,149,134,84,11,11,1.5,1.4
2023-10-25T19:00:00,1200A,119.9468,31.7069,常州市,武进监测站,细颗粒物(PM2.5),83,94,96,61,58,190,28,160,151,161,70,12,14,1.5,1.2
2023-10-25T19:00:00,1201A,119.9255,31.9087,常州市,安家,,,,108,,69,78,,77,,,65,,14,,1.2
2023-10-25T19:00:00,1203A,119.6707,32.1875,镇江市,新区办事处,,49,39,87,33,60,237,40,172,150,97,68,5,6,1.5,1
2023-10-25T19:00:00,1204A,119.4974,32.1968,镇江市,职教中心,细颗粒物(PM2.5),79,78,84,58,61,210,62,170,160,71,52,2,5,1.0,0.8
2023-10-25T19:00:00,1205A,119.4303,32.1328,镇江市,丹徒区监测站,细颗粒物(PM2.5),72,69,72,52,50,188,110,163,162,37,49,6,8,0.9,0.8
2023-10-25T19:00:00,1206A,119.905,32.4878,泰州市,公园路,细颗粒物(PM2.5),85,88,68,63,51,192,139,182,178,42,31,11,10,0.9,0.9
2023-10-25T19:00:00,1207A,119.9189,32.4625,泰州市,莲花,细颗粒物(PM2.5),92,117,89,68,60,202,123,186,181,70,36,10,8,1.1,0.8
2023-10-25T19:00:00,1209A,119.888,32.4639,泰州市,留学生创业园,细颗粒物(PM2.5),89,110,81,66,56,201,117,184,177,66,34,12,9,1.0,0.9
2023-10-25T19:00:00,1210A,119.036,33.5981,淮安市,钵池山,颗粒物(PM10),57,63,75,39,61,173,149,158,157,21,31,9,12,0.8,1
2023-10-25T19:00:00,1211A,119.007,33.575,淮安市,北京南路,细颗粒物(PM2.5),72,90,89,52,68,183,72,142,140,94,55,7,9,0.8,0.9
2023-10-25T19:00:00,1212A,118.989,33.6067,淮安市,市监测站,细颗粒物(PM2.5),70,73,95,51,61,189,151,168,168,32,42,11,14,0.8,1.1
2023-10-25T19:00:00,1213A,119.135,33.5039,淮安市,楚州区监测站,颗粒物(PM10),67,83,87,37,67,186,95,146,146,52,70,8,9,0.9,1
2023-10-25T19:00:00,1214A,119.0186,33.6297,淮安市,淮阴区监测站,细颗粒物(PM2.5),75,97,107,55,63,176,119,156,156,38,46,9,13,1.0,1.1
2023-10-25T19:00:00,1215A,120.118,33.4022,盐城市,盐城电厂,颗粒物(PM10),62,73,83,34,44,172,81,162,152,49,41,8,9,0.6,0.8
2023-10-25T19:00:00,1216A,120.156,33.3942,盐城市,市监测站,颗粒物(PM10),67,83,72,36,49,182,73,174,161,66,63,11,11,0.9,0.8
2023-10-25T19:00:00,1218A,120.2144,33.38,盐城市,开发区管委会,颗粒物(PM10),60,69,75,27,39,187,117,172,167,34,41,4,7,0.6,0.8
2023-10-25T19:00:00,1220A,118.293,33.9528,宿迁市,宿迁学院,颗粒物(PM10),72,94,89,48,56,196,60,158,152,103,48,11,12,0.6,0.5
2023-10-25T19:00:00,1221A,118.2442,33.9592,宿迁市,宿迁中学,,,,102,,64,111,,112,,,31,,10,,0.9
2023-10-25T19:00:00,1223A,120.2072,30.2111,杭州市,滨江,颗粒物(PM10),76,102,79,53,44,207,151,178,178,49,58,8,7,0.8,0.8
2023-10-25T19:00:00,1224A,120.0633,30.2747,杭州市,西溪,,48,48,48,31,42,188,70,145,142,23,33,5,5,0.7,0.7
2023-10-25T19:00:00,1226A,120.3461,30.3153,杭州市,下沙,细颗粒物(PM2.5),90,101,92,67,57,197,142,168,168,65,85,8,9,0.6,0.7
2023-10-25T19:00:00,1227A,120.1269,30.2456,杭州市,卧龙桥,,46,45,50,32,41,190,54,144,135,37,27,4,5,0.9,0.8
2023-10-25T19:00:00,1228A,120.1903,30.2692,杭州市,浙江农大,细颗粒物(PM2.5),79,72,60,58,47,153,86,134,129,60,54,7,6,0.8,0.8
2023-10-25T19:00:00,1230A,120.1197,30.3119,杭州市,和睦小学,细颗粒物(PM2.5),74,87,69,54,47,191,102,160,153,64,58,9,9,0.7,0.7
2023-10-25T19:00:00,1231A,120.3019,30.4183,杭州市,临平镇,细颗粒物(PM2.5),134,157,91,102,52,186,102,165,163,69,58,7,7,0.9,0.8
2023-10-25T19:00:00,1232A,120.2697,30.1819,杭州市,城厢镇,细颗粒物(PM2.5),135,140,79,103,57,184,127,160,160,66,55,8,8,0.9,0.8
2023-10-25T19:00:00,1233A,120.0883,30.1808,杭州市,云栖,,42,42,48,29,37,168,75,140,137,31,31,7,7,0.7,0.7
2023-10-25T19:00:00,1234A,121.8358,29.911,宁波市,区环保大楼,,38,35,28,26,20,174,65,120,118,37,47,7,7,0.6,0.6
2023-10-25T19:00:00,1235A,121.56,29.82,宁波市,万里学院,,,79,60,44,35,185,99,130,130,,34,11,10,0.9,0.9
2023-10-25T19:00:00,1236A,121.713,29.9572,宁波市,龙赛医院,,47,47,55,22,24,201,33,140,136,74,50,12,8,0.4,0.5
2023-10-25T19:00:00,1239A,121.633,29.7733,宁波市,钱湖水厂,,44,44,38,30,23,129,79,107,107,14,13,7,7,0.5,0.6
2023-10-25T19:00:00,1240A,121.5856,29.8635,宁波市,太古小学,颗粒物(PM10),66,82,51,46,29,180,97,138,138,54,42,9,8,0.9,0.9
2023-10-25T19:00:00,1241A,121.524,29.8674,宁波市,市环境监测中心,颗粒物(PM10),68,86,63,44,33,206,117,139,139,40,43,9,8,0.7,0.6
2023-10-25T19:00:00,1242A,120.634,28.0089,温州市,瓯海,颗粒物(PM10),55,59,55,32,31,145,43,116,110,35,32,6,7,0.6,0.6
2023-10-25T19:00:00,1243A,120.6748,27.9939,温州市,南浦,颗粒物(PM10),56,62,58,33,31,136,36,106,101,42,35,6,6,0.5,0.5
2023-10-25T19:00:00,1244A,120.76,27.9747,温州市,龙湾,颗粒物(PM10),54,57,64,22,27,120,40,91,85,30,39,5,5,0.4,0.5
2023-10-25T19:00:00,1245A,120.6709,28.0167,温州市,市站,,44,44,57,24,30,133,34,107,91,36,39,6,7,0.5,0.6
2023-10-25T19:00:00,1247A,120.6053,29.9928,绍兴市,城东开发委,细颗粒物(PM2.5),122,142,91,92,61,164,117,137,137,54,42,10,8,0.9,0.9
2023-10-25T19:00:00,1250A,120.0751,30.8669,湖州市,城西水厂,细颗粒物(PM2.5),67,77,73,48,45,172,152,154,154,31,69,5,6,0.7,0.7
2023-10-25T19:00:00,1252A,120.7436,30.778,嘉兴市,清河小学,颗粒物(PM10),65,80,76,38,42,194,109,169,164,63,60,7,7,0.9,0.9
2023-10-25T19:00:00,1253A,120.726,30.7478,嘉兴市,嘉兴学院,细颗粒物(PM2.5),59,64,69,42,50,175,130,162,160,34,44,8,7,0.7,0.7
2023-10-25T19:00:00,1255A,121.273,28.6459,台州市,黄岩环保大楼,细颗粒物(PM2.5),83,97,54,61,33,134,60,104,102,27,24,6,6,0.6,0.6
2023-10-25T19:00:00,1256A,121.419,28.6542,台州市,台州环保大楼,,48,48,48,30,29,142,64,100,98,14,22,4,5,0.4,0.5
2023-10-25T19:00:00,1257A,121.377,28.5773,台州市,路桥田洋王,细颗粒物(PM2.5),73,77,51,53,38,115,60,86,85,16,29,7,7,0.5,0.5
2023-10-25T19:00:00,1258A,122.122,30.0203,舟山市,定海檀枫,细颗粒物(PM2.5),57,57,26,40,17,128,68,108,104,25,19,7,7,0.6,0.4
2023-10-25T19:00:00,1259A,122.3094,29.9558,舟山市,普陀东港,,19,19,24,12,13,127,54,95,91,31,19,6,6,0.3,0.3
2023-10-25T19:00:00,1260A,122.19,29.9944,舟山市,临城新区,,48,48,24,32,14,122,67,104,104,29,21,4,5,0.4,0.4
2023-10-25T19:00:00,1262A,119.647,29.077,金华市,十五中,细颗粒物(PM2.5),84,109,56,62,43,154,44,123,119,93,45,8,6,1.5,0.8
2023-10-25T19:00:00,1263A,119.686,29.1029,金华市,监测站,细颗粒物(PM2.5),93,89,67,69,40,142,58,130,121,69,50,6,7,0.9,0.8
2023-10-25T19:00:00,1264A,118.8692,28.9398,衢州市,环保大楼,细颗粒物(PM2.5),113,124,77,85,49,143,80,113,113,51,41,8,5,0.9,0.6
2023-10-25T19:00:00,1265A,118.8709,28.9666,衢州市,实验学校,细颗粒物(PM2.5),104,137,79,78,44,151,69,117,117,66,42,11,7,0.8,0.7
2023-10-25T19:00:00,1266A,118.8621,28.9808,衢州市,衢州学院,细颗粒物(PM2.5),108,120,74,81,46,138,33,102,102,46,43,7,6,0.9,0.6
2023-10-25T19:00:00,1267A,119.914,28.4514,丽水市,监测站大楼,颗粒物(PM10),80,109,48,48,27,110,29,91,87,63,35,6,6,0.8,0.5
2023-10-25T19:00:00,1268A,119.93,28.4586,丽水市,莲都小学,细颗粒物(PM2.5),85,105,45,63,24,116,34,97,92,50,23,6,6,0.6,0.4
2023-10-25T19:00:00,1269A,119.879,28.4231,丽水市,余庄前,颗粒物(PM10),64,78,45,41,25,112,33,80,77,29,22,6,6,0.6,0.4
2023-10-25T19:00:00,1270A,117.1959,31.7848,合肥市,明珠广场,颗粒物(PM10),79,107,83,53,40,138,22,92,90,121,86,12,11,1.2,0.9
2023-10-25T19:00:00,1271A,117.3072,31.8764,合肥市,三里街,颗粒物(PM10),87,124,101,56,52,117,24,80,80,121,94,11,11,1.5,1
2023-10-25T19:00:00,1272A,117.2588,31.8707,合肥市,琥珀山庄,颗粒物(PM10),70,90,77,44,42,138,48,88,88,56,66,6,7,1.5,1
2023-10-25T19:00:00,1273A,117.1604,31.9052,合肥市,董铺水库,颗粒物(PM10),69,88,88,41,38,115,67,78,78,48,62,4,5,0.8,0.7
2023-10-25T19:00:00,1274A,117.25,31.8571,合肥市,长江中路,细颗粒物(PM2.5),125,156,89,95,49,140,43,103,103,98,76,12,11,1.8,1.1
2023-10-25T19:00:00,1275A,117.266,31.9436,合肥市,庐阳区,颗粒物(PM10),78,105,117,56,57,98,24,72,72,123,93,13,10,1.2,0.9
2023-10-25T19:00:00,1276A,117.336,31.8586,合肥市,瑶海区,,,119,114,55,54,129,35,79,79,,91,9,10,1.7,1.1
2023-10-25T19:00:00,1277A,117.3027,31.7964,合肥市,包河区,颗粒物(PM10),90,129,92,46,47,153,3,106,101,145,92,15,14,1.3,0.7
2023-10-25T19:00:00,1278A,117.2776,31.7385,合肥市,滨湖新区,颗粒物(PM10),70,90,62,44,33,159,71,129,129,56,48,7,7,0.9,0.6
2023-10-25T19:00:00,1279A,117.1318,31.8403,合肥市,高新区,颗粒物(PM10),74,97,72,53,35,124,112,112,112,48,63,10,10,0.9,0.9
2023-10-25T19:00:00,1280A,119.3903,26.0543,福州市,鼓山,,,,,,,,,,,,,,,,
2023-10-25T19:00:00,1282A,119.2681,26.0504,福州市,师大,,36,36,37,17,21,150,71,112,110,13,13,5,5,0.5,0.5
2023-10-25T19:00:00,1283A,119.2984,26.1028,福州市,五四北路,,31,31,34,12,22,147,74,108,106,14,15,3,3,0.5,0.6
2023-10-25T19:00:00,1284A,119.2648,26.0768,福州市,杨桥西路,,37,37,41,15,24,144,69,110,108,15,17,3,3,0.4,0.5
2023-10-25T19:00:00,1285A,119.317,26.0746,福州市,紫阳,,,,40,,20,141,67,103,102,15,13,,5,0.4,0.5
2023-10-25T19:00:00,1286A,118.1608,24.8169,厦门市,溪东,,,,,,,,,,,,,,,,
2023-10-25T19:00:00,1287A,118.1514,24.4767,厦门市,洪文,,29,29,42,15,23,134,68,108,108,7,13,2,4,0.4,0.4
2023-10-25T19:00:00,1288A,118.0661,24.4444,厦门市,鼓浪屿,,25,25,41,12,21,125,53,87,87,26,26,3,6,0.3,0.4
2023-10-25T19:00:00,1290A,115.8931,28.6843,南昌市,省外办,细颗粒物(PM2.5),94,128,115,70,65,69,27,54,52,55,67,6,8,0.8,1
2023-10-25T19:00:00,1291A,115.8886,28.7003,南昌市,省林业公司,颗粒物(PM10),92,134,123,63,61,68,27,56,54,77,87,9,10,0.6,0.7
2023-10-25T19:00:00,1292A,115.8126,28.7442,南昌市,林科所,细颗粒物(PM2.5),58,58,70,41,41,130,54,71,65,43,50,8,10,0.6,0.7
2023-10-25T19:00:00,1294A,115.8518,28.687,南昌市,建工学校,细颗粒物(PM2.5),108,142,113,81,59,77,49,69,66,65,78,12,13,1.0,1
2023-10-25T19:00:00,1295A,115.8921,28.6424,南昌市,象湖,细颗粒物(PM2.5),82,103,107,60,61,85,28,62,60,69,74,10,11,0.9,1
2023-10-25T19:00:00,1296A,115.7423,28.7996,南昌市,武术学校,,32,28,21,22,15,89,29,60,56,8,10,2,2,0.4,0.4
2023-10-25T19:00:00,1298A,115.9314,28.6842,南昌市,省站,细颗粒物(PM2.5),99,112,124,74,67,72,39,59,58,50,65,11,12,0.8,0.8
2023-10-25T19:00:00,1299A,116.9862,36.6114,济南市,科干所,颗粒物(PM10),93,136,107,63,51,186,159,174,174,24,17,20,10,0.8,0.6
2023-10-25T19:00:00,1300A,116.9376,36.665,济南市,农科所,"颗粒物(PM10),细颗粒物(PM2.5)",102,154,101,76,52,173,62,145,137,100,40,10,8,1.0,0.5
2023-10-25T19:00:00,1301A,117.1265,36.6734,济南市,开发区,颗粒物(PM10),83,115,89,51,42,172,72,154,143,94,39,10,9,1.1,0.6
2023-10-25T19:00:00,1303A,117.0624,36.6868,济南市,省种子仓库,"颗粒物(PM10),细颗粒物(PM2.5)",119,188,123,90,59,186,78,166,158,104,49,13,9,1.7,0.9
2023-10-25T19:00:00,1304A,116.9489,36.6447,济南市,机床二厂,颗粒物(PM10),138,225,123,98,66,181,40,153,139,141,48,13,8,1.4,0.7
2023-10-25T19:00:00,1305A,117.0495,36.663,济南市,市监测站,颗粒物(PM10),100,149,94,68,45,187,88,166,159,108,46,14,10,1.7,1
2023-10-25T19:00:00,1306A,116.7675,36.5484,济南市,长清党校,细颗粒物(PM2.5),104,149,118,78,64,188,152,173,173,40,28,18,13,0.9,0.7
2023-10-25T19:00:00,1307A,120.6659,36.2403,青岛市,仰口,臭氧1小时,57,61,63,36,39,189,165,172,172,15,16,5,6,0.5,0.6
2023-10-25T19:00:00,1310A,120.4134,36.0658,青岛市,市南区东部子站,细颗粒物(PM2.5),83,90,81,61,45,198,171,173,173,29,30,8,13,1.1,0.9
2023-10-25T19:00:00,1311A,120.3664,36.1032,青岛市,四方区子站,,,105,81,73,49,197,,125,,37,38,11,9,1.3,0.9
2023-10-25T19:00:00,1312A,120.2994,36.054,青岛市,市南区西部子站,细颗粒物(PM2.5),95,107,90,71,50,202,183,172,172,25,37,11,12,0.7,0.9
2023-10-25T19:00:00,1313A,120.4581,36.0858,青岛市,崂山区子站,细颗粒物(PM2.5),128,124,84,97,53,210,179,176,176,,40,10,10,1.5,1.1
2023-10-25T19:00:00,1314A,120.1983,35.9608,青岛市,黄岛区子站,细颗粒物(PM2.5),104,97,89,78,59,207,178,182,182,35,35,9,13,0.9,1
2023-10-25T19:00:00,1315A,120.3999,36.3083,青岛市,城阳区子站,颗粒物(PM10),103,156,92,63,41,198,128,166,164,70,51,12,10,1.4,0.9
2023-10-25T19:00:00,1316A,113.69031,34.76122,郑州市,烟厂,,50,50,78,18,36,130,36,109,103,76,51,5,9,0.6,0.6
2023-10-25T19:00:00,1317A,113.65724,34.77134,郑州市,郑纺机,颗粒物(PM10),59,67,81,18,33,129,19,108,99,104,68,6,9,0.8,0.8
2023-10-25T19:00:00,1318A,113.67526,34.80246,郑州市,银行学校,,45,45,74,10,39,126,68,109,106,53,60,5,10,0.5,0.7
2023-10-25T19:00:00,1319A,113.56746,34.81334,郑州市,供水公司,颗粒物(PM10),55,59,82,17,42,141,73,117,116,39,45,9,15,0.8,0.9
2023-10-25T19:00:00,1320A,113.7329,34.7178,郑州市,经开区管委,,,,74,,33,129,34,113,106,73,55,7,9,0.6,0.6
2023-10-25T19:00:00,1321A,113.73961,34.77172,郑州市,四十七中,,50,50,69,12,33,137,36,119,106,85,56,4,9,0.6,0.7
2023-10-25T19:00:00,1322A,113.60532,34.74838,郑州市,市监测站,颗粒物(PM10),65,80,100,31,41,121,13,95,88,114,61,7,9,0.7,0.5
2023-10-25T19:00:00,1323A,113.64164,34.7525,郑州市,河医大,颗粒物(PM10),54,58,72,16,34,129,26,104,98,88,49,8,11,0.8,0.8
2023-10-25T19:00:00,1324A,113.51488,34.91089,郑州市,岗李水库,,,,,,,,,,,,,,,,
2023-10-25T19:00:00,1325A,114.3677,30.5584,武汉市,东湖梨园,细颗粒物(PM2.5),129,118,77,98,60,124,30,53,49,82,59,9,11,1.2,0.8
2023-10-25T19:00:00,1326A,114.2529,30.558,武汉市,汉阳月湖,细颗粒物(PM2.5),134,189,106,102,61,52,25,40,36,70,90,7,10,1.2,1.1
2023-10-25T19:00:00,1327A,114.282,30.6189,武汉市,汉口花桥,细颗粒物(PM2.5),153,162,104,117,65,44,27,33,29,91,104,6,9,1.4,1.3
2023-10-25T19:00:00,1328A,114.3025,30.5332,武汉市,武昌紫阳,细颗粒物(PM2.5),127,132,84,96,63,72,33,58,48,83,83,10,12,1.3,1.1
2023-10-25T19:00:00,1329A,114.3646,30.6217,武汉市,青山钢花,细颗粒物(PM2.5),140,153,126,107,81,47,20,27,27,114,104,10,11,1.5,1.4
2023-10-25T19:00:00,1330A,114.1566,30.4825,武汉市,沌口新区,细颗粒物(PM2.5),134,118,111,102,77,81,53,60,60,70,113,9,14,1.2,1.1
2023-10-25T19:00:00,1331A,114.3014,30.5944,武汉市,汉口江滩,细颗粒物(PM2.5),178,135,91,134,75,66,48,44,44,66,93,8,8,1.2,0.9
2023-10-25T19:00:00,1333A,114.135,30.6319,武汉市,吴家山,细颗粒物(PM2.5),129,118,109,98,73,60,37,38,38,80,91,8,10,0.9,1.1
2023-10-25T19:00:00,1334A,113.8454,30.2917,武汉市,沉湖七壕,细颗粒物(PM2.5),85,73,84,63,51,156,91,85,85,20,47,5,6,1.1,1
2023-10-25T19:00:00,1335A,113.0833,28.2325,长沙市,经开区环保局,细颗粒物(PM2.5),52,31,64,36,54,133,68,88,84,9,29,5,7,0.5,0.6
2023-10-25T19:00:00,1336A,112.8872,28.2189,长沙市,高开区环保局,细颗粒物(PM2.5),68,47,85,49,57,105,68,87,80,15,49,4,6,0.6,0.8
2023-10-25T19:00:00,1337A,113.0792,28.2053,长沙市,马坡岭,细颗粒物(PM2.5),53,38,84,37,56,110,81,101,95,8,37,5,8,0.3,0.5
2023-10-25T19:00:00,1338A,112.9394,28.19,长沙市,湖南师范大学,,48,36,63,33,49,114,74,89,85,9,30,5,7,0.7,0.8
2023-10-25T19:00:00,1339A,113.0178,28.1322,长沙市,雨花区环保局,细颗粒物(PM2.5),54,40,67,38,43,102,71,94,85,16,39,1,3,0.7,0.7
2023-10-25T19:00:00,1340A,112.9792,28.2597,长沙市,伍家岭,颗粒物(PM10),51,51,93,35,68,91,72,80,78,12,46,4,6,0.6,0.8
2023-10-25T19:00:00,1341A,113.0014,28.1944,长沙市,火车新站,,,51,88,36,56,101,66,89,80,16,55,4,6,,0.9
2023-10-25T19:00:00,1342A,112.9844,28.1178,长沙市,天心区环保局,细颗粒物(PM2.5),55,42,60,39,48,105,60,94,82,19,34,4,7,0.4,0.5
2023-10-25T19:00:00,1343A,112.8908,28.1308,长沙市,湖南中医药大学,细颗粒物(PM2.5),54,54,81,38,57,111,76,97,91,12,59,3,5,0.7,0.9
2023-10-25T19:00:00,1344A,112.9581,28.3611,长沙市,沙坪,颗粒物(PM10),55,59,57,27,38,84,46,58,53,7,14,3,5,0.3,0.3
2023-10-25T19:00:00,1345A,113.2347,23.1423,广州市,广雅中学,臭氧1小时,95,78,94,43,53,247,196,207,207,51,97,5,5,1.1,1.1
2023-10-25T19:00:00,1346A,113.2612,23.105,广州市,市五中,臭氧1小时,111,102,85,58,53,262,222,209,209,43,71,6,7,1.0,1.1
2023-10-25T19:00:00,1348A,113.3478,23.0916,广州市,广东商学院,臭氧1小时,113,90,101,59,57,269,226,226,226,43,87,6,6,0.9,0.8
2023-10-25T19:00:00,1349A,113.4332,23.1047,广州市,市八十六中,细颗粒物(PM2.5),89,121,112,66,51,277,171,235,235,112,93,6,5,0.9,1.1
2023-10-25T19:00:00,1350A,113.3505,22.9483,广州市,番禺中学,臭氧1小时,104,48,65,8,37,295,207,256,256,40,65,5,6,0.9,1
2023-10-25T19:00:00,1351A,113.2146,23.3916,广州市,花都师范,颗粒物(PM10),53,56,77,29,41,238,147,201,194,45,54,5,6,0.8,1
2023-10-25T19:00:00,1352A,113.2597,23.1331,广州市,市监测站,臭氧1小时,107,91,79,56,50,247,213,213,213,46,89,5,5,0.8,1
2023-10-25T19:00:00,1353A,113.5618,23.312,广州市,九龙镇镇龙,"颗粒物(PM10),细颗粒物(PM2.5)",78,106,70,57,33,207,26,161,151,106,42,5,5,0.8,0.7
2023-10-25T19:00:00,1354A,113.2765,23.1544,广州市,麓湖,,,43,66,30,41,240,,201,201,22,64,4,5,,0.9
2023-10-25T19:00:00,1355A,113.443,23.3035,广州市,帽峰山森林公园,,50,37,58,29,38,192,158,167,167,13,30,6,7,0.5,0.5
2023-10-25T19:00:00,1356A,114.1063,22.5545,深圳市,通心岭子站,,36,36,31,24,19,117,103,108,108,15,17,3,3,0.8,0.8
2023-10-25T19:00:00,1357A,114.117,22.5625,深圳市,洪湖,,,47,36,30,16,92,33,,,18,22,,6,0.2,0.4
2023-10-25T19:00:00,1358A,113.987,22.5417,深圳市,华侨城,,45,45,34,28,21,120,104,111,111,37,24,5,5,0.8,0.8
2023-10-25T19:00:00,1359A,113.9181,22.5171,深圳市,南海子站,细颗粒物(PM2.5),85,77,45,63,26,129,67,115,110,73,24,7,5,0.8,0.6
2023-10-25T19:00:00,1360A,114.2458,22.5689,深圳市,盐田,,34,25,21,16,18,131,107,118,118,18,25,2,3,0.3,0.5
2023-10-25T19:00:00,1361A,114.2283,22.7244,深圳市,龙岗,颗粒物(PM10),52,54,48,31,25,140,98,125,124,24,30,7,7,0.5,0.5
2023-10-25T19:00:00,1363A,114.494,22.5422,深圳市,南澳,细颗粒物(PM2.5),58,58,30,41,18,125,120,116,116,12,12,7,6,0.4,0.8
2023-10-25T19:00:00,1364A,114.41,22.6342,深圳市,葵涌,,,29,28,27,20,134,118,115,115,15,19,5,5,,0.7
2023-10-25T19:00:00,1365A,114.297,22.5978,深圳市,梅沙,,47,47,39,26,19,129,106,111,111,10,9,3,3,0.6,0.7
2023-10-25T19:00:00,1366A,114.0678,22.738,深圳市,观澜,颗粒物(PM10),68,85,69,36,26,103,86,46,,58,55,5,8,2.4,0.9
2023-10-25T19:00:00,1367A,113.5814,22.2618,珠海市,吉大,,34,29,28,18,17,159,106,136,136,14,15,6,6,0.5,0.5
2023-10-25T19:00:00,1368A,113.4881,22.2335,珠海市,前山,,34,34,32,22,13,149,90,132,130,33,32,7,7,0.5,0.5
2023-10-25T19:00:00,1369A,113.628,22.4251,珠海市,唐家,,37,37,35,20,21,157,95,129,129,24,19,4,4,0.4,0.4
2023-10-25T19:00:00,1370A,113.299,22.2281,珠海市,斗门,,37,31,32,21,18,178,118,145,145,12,22,7,8,0.5,0.5
2023-10-25T19:00:00,1371A,113.1294,23.0067,佛山市,湾梁,臭氧1小时,115,75,73,38,40,279,229,244,244,34,59,9,11,0.8,0.9
2023-10-25T19:00:00,1372A,113.1083,23.0478,佛山市,华材职中,臭氧1小时,95,85,100,46,63,294,196,245,245,40,81,6,9,0.8,0.9
2023-10-25T19:00:00,1373A,113.144,23.0453,佛山市,南海气象局,臭氧1小时,106,81,84,46,55,244,212,213,213,46,76,8,9,0.7,0.8
2023-10-25T19:00:00,1374A,113.2881,22.8094,佛山市,顺德苏岗,臭氧1小时,78,68,57,44,39,261,182,218,218,30,48,8,9,0.8,0.8
2023-10-25T19:00:00,1376A,112.8383,22.8678,佛山市,高明孔堂,臭氧1小时,118,118,74,55,44,379,235,300,300,49,30,6,10,0.9,0.7
2023-10-25T19:00:00,1377A,112.8836,23.1588,佛山市,三水监测站,细颗粒物(PM2.5),70,85,82,51,48,270,153,229,229,62,65,6,8,0.8,0.8
2023-10-25T19:00:00,1378A,112.867,23.185,佛山市,三水云东海,颗粒物(PM10),55,59,63,29,44,253,123,191,191,27,43,4,6,0.6,0.7
2023-10-25T19:00:00,1379A,113.3769,22.5211,中山市,华柏园,,44,44,44,29,27,172,130,155,155,27,29,3,3,0.6,0.4
2023-10-25T19:00:00,1380A,113.3881,22.5497,中山市,张溪,颗粒物(PM10),58,66,65,28,36,193,139,170,170,22,29,3,3,0.6,0.6
2023-10-25T19:00:00,1381A,113.4075,22.5111,中山市,紫马岭,,45,28,37,31,27,177,140,164,164,16,19,3,3,0.5,0.4
2023-10-25T19:00:00,1382A,113.4411,22.4853,中山市,长江旅游区,,,,,,,,,,,,,,,,
2023-10-25T19:00:00,1383A,113.1064,22.6058,江门市,北街,细颗粒物(PM2.5),54,54,54,38,36,244,146,185,185,23,34,6,7,0.7,0.6
2023-10-25T19:00:00,1384A,113.0731,22.5835,江门市,西区,颗粒物(PM10),58,66,66,38,34,240,161,202,202,26,47,6,7,0.7,0.8
2023-10-25T19:00:00,1385A,113.0219,22.5311,江门市,圭峰西,臭氧1小时,59,59,54,31,37,251,167,211,211,26,31,4,5,0.8,0.8
2023-10-25T19:00:00,1386A,113.0828,22.5947,江门市,东湖,颗粒物(PM10),60,69,64,31,24,244,167,194,194,21,37,5,6,0.7,0.8
2023-10-25T19:00:00,1389A,113.7547,23.0494,东莞市,莞城梨川,"颗粒物(PM10),细颗粒物(PM2.5)",67,84,69,48,40,216,164,197,197,45,42,8,8,1.0,0.9
2023-10-25T19:00:00,1390A,113.7944,23.0128,东莞市,东城石井,,,,65,,35,218,144,195,190,27,29,6,6,,0.8
2023-10-25T19:00:00,1391A,113.7383,22.9658,东莞市,南城西平,颗粒物(PM10),64,78,71,41,40,235,153,211,208,38,45,4,6,0.9,0.9
2023-10-25T19:00:00,1392A,114.4183,23.0528,惠州市,河南岸金山湖子站,细颗粒物(PM2.5),57,59,50,40,32,134,110,122,122,22,16,5,6,0.6,0.6
2023-10-25T19:00:00,1393A,114.4053,23.0822,惠州市,下埔横江三路子站,颗粒物(PM10),61,71,57,39,35,136,104,126,126,28,21,7,8,0.8,0.7
2023-10-25T19:00:00,1394A,114.4103,23.1142,惠州市,江北云山西路子站,颗粒物(PM10),54,58,56,34,32,154,125,145,145,23,19,7,8,0.6,0.6
2023-10-25T19:00:00,1395A,114.4645,22.7833,惠州市,惠阳区承修路船湖子站,,,,44,,21,130,86,116,114,33,26,5,5,0.7,0.7
2023-10-25T19:00:00,1396A,114.5317,22.7422,惠州市,大亚湾管委会子站,颗粒物(PM10),56,62,56,30,23,128,99,114,113,37,29,5,5,0.7,0.7
2023-10-25T19:00:00,1397A,112.4267,23.0706,肇庆市,睦岗子站,"颗粒物(PM10),细颗粒物(PM2.5)",59,68,56,42,33,204,116,176,176,45,51,10,9,0.7,0.6
2023-10-25T19:00:00,1398A,112.4645,23.0475,肇庆市,城中子站,细颗粒物(PM2.5),62,68,56,44,37,212,168,190,190,35,54,12,14,0.9,0.8
2023-10-25T19:00:00,1399A,112.5544,23.1522,肇庆市,坑口子站,细颗粒物(PM2.5),53,48,41,37,28,190,120,172,171,18,23,10,11,0.6,0.6
2023-10-25T19:00:00,1400A,112.4753,23.1,肇庆市,七星岩子站,,,,,,,,,,,,,,,,
2023-10-25T19:00:00,1401A,108.3103,22.7881,南宁市,二十一中,,23,20,66,16,36,130,70,108,106,19,39,5,9,0.8,1.1
2023-10-25T19:00:00,1402A,108.3141,22.8528,南宁市,北湖,,35,35,66,22,36,130,58,106,106,19,31,5,16,0.7,0.9
2023-10-25T19:00:00,1403A,108.3206,22.8225,南宁市,市监测站,,29,24,57,20,33,134,64,110,109,26,41,9,14,0.6,0.8
2023-10-25T19:00:00,1404A,108.3829,22.8037,南宁市,大自然花园,,25,20,44,17,30,114,54,95,95,16,28,6,9,0.7,0.8
2023-10-25T19:00:00,1405A,108.4394,22.7904,南宁市,仙葫,,37,37,60,18,32,115,57,94,94,18,31,5,11,0.6,0.7
2023-10-25T19:00:00,1406A,108.2397,22.8467,南宁市,区农职院,,32,32,57,14,31,148,57,116,113,30,32,7,12,0.6,0.7
2023-10-25T19:00:00,1407A,108.3275,22.735,南宁市,英华嘉园,,30,30,67,17,36,109,32,86,82,51,42,6,8,0.8,0.9
2023-10-25T19:00:00,1408A,108.2257,22.7757,南宁市,沙井镇街道办,,29,29,78,15,41,127,53,100,97,30,32,3,15,0.6,0.8
2023-10-25T19:00:00,1409A,110.576,19.9507,海口市,东寨港,,,,,,,,,,,,,,,,
2023-10-25T19:00:00,1410A,110.3232,20.0574,海口市,海南大学,,39,32,29,27,9,115,115,103,103,8,8,7,6,0.5,0.4
2023-10-25T19:00:00,1411A,110.283,20.0053,海口市,秀英海南医院,,34,32,29,17,11,107,107,95,95,6,5,8,7,0.5,0.4
2023-10-25T19:00:00,1412A,110.338,19.9969,海口市,海南师范大学,,36,36,32,19,12,101,101,92,92,8,7,6,5,0.4,0.4
2023-10-25T19:00:00,1413A,110.33,20.0356,海口市,龙华路环保局宿舍,,35,31,30,18,13,109,109,100,100,8,7,8,8,0.3,0.2
2023-10-25T19:00:00,1414A,106.3787,29.8279,重庆市,缙云山,细颗粒物(PM2.5),65,72,54,47,34,92,53,82,67,12,9,7,8,0.4,0.2
2023-10-25T19:00:00,1416A,106.4213,29.8253,重庆市,天生,颗粒物(PM10),70,90,77,48,53,37,8,22,17,50,39,6,7,1.0,1
2023-10-25T19:00:00,1417A,106.6263,29.7228,重庆市,两路,细颗粒物(PM2.5),92,94,62,68,44,55,1,40,35,73,43,7,7,1.2,1.1
2023-10-25T19:00:00,1418A,106.2953,29.5983,重庆市,虎溪,细颗粒物(PM2.5),74,59,66,54,64,56,25,51,49,37,29,7,6,0.6,0.6
2023-10-25T19:00:00,1419A,106.5777,29.5102,重庆市,南坪,细颗粒物(PM2.5),72,76,96,52,71,54,45,46,46,29,36,9,9,0.8,1
2023-10-25T19:00:00,1420A,106.6556,29.6277,重庆市,唐家沱,颗粒物(PM10),68,86,79,46,50,28,8,20,20,63,48,7,7,1.0,1
2023-10-25T19:00:00,1421A,106.6349,29.4906,重庆市,茶园,细颗粒物(PM2.5),59,62,83,42,51,70,52,64,64,35,33,6,7,0.9,0.9
2023-10-25T19:00:00,1422A,106.3754,29.4572,重庆市,白市驿,细颗粒物(PM2.5),60,56,86,43,65,64,45,55,49,24,29,7,8,0.6,0.8
2023-10-25T19:00:00,1425A,106.6205,29.7166,重庆市,空港,颗粒物(PM10),70,90,76,50,49,64,6,49,42,74,49,5,6,1.1,1
2023-10-25T19:00:00,1426A,106.4782,29.4875,重庆市,新山村,细颗粒物(PM2.5),79,78,95,58,73,43,20,34,33,59,47,10,10,0.9,0.9
2023-10-25T19:00:00,1427A,106.5616,29.6453,重庆市,礼嘉,细颗粒物(PM2.5),77,76,82,56,57,54,12,41,37,70,52,9,10,1.1,1.1
2023-10-25T19:00:00,1428A,106.4522,29.7091,重庆市,蔡家,细颗粒物(PM2.5),65,63,68,47,46,55,11,38,37,41,34,7,6,0.8,0.8
2023-10-25T19:00:00,1429A,106.5093,29.3917,重庆市,鱼新街,细颗粒物(PM2.5),62,67,91,44,64,53,39,46,46,46,43,9,9,1.0,1.1
2023-10-25T19:00:00,1431A,103.9728,30.7236,成都市,金泉两河,细颗粒物(PM2.5),68,43,95,49,73,76,45,50,50,27,45,2,2,0.4,0.8
2023-10-25T19:00:00,1432A,104.176,30.6872,成都市,十里店,细颗粒物(PM2.5),72,66,116,52,93,63,49,47,47,28,50,1,2,0.6,0.8
2023-10-25T19:00:00,1433A,104.079,30.5706,成都市,三瓦窑,颗粒物(PM10),89,127,165,42,120,63,43,42,42,19,44,2,4,0.4,0.7
2023-10-25T19:00:00,1434A,104.1114,30.63,成都市,沙河铺,颗粒物(PM10),61,71,132,36,111,63,39,34,34,27,47,1,1,0.6,0.8
2023-10-25T19:00:00,1437A,104.0786,30.6531,成都市,君平街,细颗粒物(PM2.5),60,57,146,43,109,84,53,55,55,41,63,2,3,0.5,0.9
2023-10-25T19:00:00,1438A,103.613,31.0283,成都市,灵岩寺,"颗粒物(PM10),细颗粒物(PM2.5)",59,68,50,42,37,100,81,65,65,14,16,8,21,0.5,0.6
2023-10-25T19:00:00,1439A,106.6899,26.5998,贵阳市,马鞍山,,,,19,,9,61,44,57,,25,11,8,6,0.6,0.6
2023-10-25T19:00:00,1440A,106.6971,26.5694,贵阳市,市环保站,细颗粒物(PM2.5),113,105,40,85,30,75,45,62,59,29,19,9,6,0.7,0.4
2023-10-25T19:00:00,1441A,106.6243,26.6266,贵阳市,鉴湖路,,,,32,,19,62,43,56,53,23,11,4,5,0.6,0.5
2023-10-25T19:00:00,1442A,106.7487,26.6343,贵阳市,燕子冲,细颗粒物(PM2.5),110,102,40,83,30,74,44,60,58,23,17,8,8,0.7,0.5
2023-10-25T19:00:00,1443A,106.6555,26.4365,贵阳市,碧云窝,细颗粒物(PM2.5),92,102,34,68,16,75,40,67,64,33,12,6,6,0.7,0.4
2023-10-25T19:00:00,1444A,106.694,26.5161,贵阳市,中院村,细颗粒物(PM2.5),119,122,41,90,24,65,34,55,52,35,19,5,3,0.8,0.3
2023-10-25T19:00:00,1445A,106.7109,26.6027,贵阳市,红边门,细颗粒物(PM2.5),113,97,46,85,32,68,44,54,54,21,20,8,7,0.7,0.5
2023-10-25T19:00:00,1446A,106.7164,26.5699,贵阳市,新华路,细颗粒物(PM2.5),110,105,40,83,27,77,42,65,62,27,18,8,8,0.7,0.5
2023-10-25T19:00:00,1447A,106.674,26.5424,贵阳市,太慈桥,细颗粒物(PM2.5),107,92,28,80,20,75,38,64,60,32,14,6,5,0.8,0.4
2023-10-25T19:00:00,1450A,102.8204,24.8886,昆明市,呈贡新区,,27,27,23,14,14,77,47,64,63,27,23,5,10,0.8,0.8
2023-10-25T19:00:00,1451A,102.6251,24.9608,昆明市,西山森林公园,,18,15,16,8,11,72,55,63,63,9,8,5,6,0.7,0.6
2023-10-25T19:00:00,1452A,102.7252,25.0902,昆明市,龙泉镇,,30,30,26,8,11,59,42,53,53,24,23,10,10,0.9,0.9
2023-10-25T19:00:00,1453A,102.7266,25.0375,昆明市,东风东路,,23,23,25,15,16,72,46,62,61,22,18,9,10,0.7,0.7
2023-10-25T19:00:00,1454A,102.6742,25.0669,昆明市,金鼎山,,32,30,26,22,15,73,45,61,61,22,17,17,18,0.6,0.6
2023-10-25T19:00:00,1455A,102.6644,25.0401,昆明市,碧鸡广场,,,26,25,14,16,67,,61,61,22,22,8,9,0.8,0.9
2023-10-25T19:00:00,1456A,91.1319,29.6514,拉萨市,八廓街,,34,12,23,7,15,108,108,102,102,10,22,11,11,0.2,0.3
2023-10-25T19:00:00,1457A,91.1221,29.6747,拉萨市,市环保局,臭氧1小时,108,7,27,8,14,216,216,126,126,10,24,5,8,0.5,0.8
2023-10-25T19:00:00,1458A,91.0874,29.6475,拉萨市,区监测站,,31,8,16,5,10,103,97,95,95,13,24,8,8,0.3,0.5
2023-10-25T19:00:00,1459A,91.1774,29.6541,拉萨市,西藏大学,,33,9,14,7,8,104,103,98,98,12,17,7,10,0.3,0.5
2023-10-25T19:00:00,1460A,90.9798,29.6588,拉萨市,区辐射站,,34,16,23,8,11,106,106,96,96,7,22,6,6,0.4,0.5
2023-10-25T19:00:00,1461A,91.0834,29.6292,拉萨市,拉萨火车站,,29,11,16,6,8,100,92,92,92,15,18,6,6,0.3,0.5
2023-10-25T19:00:00,1462A,108.882,34.2749,西安市,高压开关厂,颗粒物(PM10),79,107,100,52,41,103,63,74,74,55,55,10,12,0.6,1
2023-10-25T19:00:00,1463A,108.993,34.2629,西安市,兴庆小区,,44,44,66,20,31,95,53,67,67,44,46,7,7,0.7,0.7
2023-10-25T19:00:00,1464A,109.06,34.2572,西安市,纺织城,颗粒物(PM10),61,72,77,25,35,101,21,65,63,70,46,6,6,0.7,0.6
2023-10-25T19:00:00,1465A,108.9356,34.2173,西安市,小寨,颗粒物(PM10),54,58,79,23,34,80,42,54,54,54,53,7,10,0.7,1
2023-10-25T19:00:00,1466A,108.954,34.2713,西安市,市人民体育场,颗粒物(PM10),55,60,78,28,37,96,52,77,77,54,48,6,7,0.7,0.9
2023-10-25T19:00:00,1467A,108.8922,34.2322,西安市,高新西区,颗粒物(PM10),59,68,73,35,40,103,32,71,71,79,52,7,8,0.9,1
2023-10-25T19:00:00,1468A,108.935,34.3474,西安市,经开区,细颗粒物(PM2.5),64,70,87,46,40,88,64,67,67,43,56,5,6,0.7,1
2023-10-25T19:00:00,1469A,108.906,34.1546,西安市,长安区,,39,39,60,23,27,92,19,67,65,67,43,6,7,0.9,0.7
2023-10-25T19:00:00,1471A,109.2186,34.3731,西安市,临潼区,颗粒物(PM10),94,137,68,29,32,88,13,53,53,84,34,6,7,1.5,0.8
2023-10-25T19:00:00,1472A,108.869,34.378,西安市,草滩,颗粒物(PM10),83,115,133,43,44,77,5,49,48,115,74,8,14,0.7,0.9
2023-10-25T19:00:00,1473A,108.985,34.1978,西安市,曲江文化产业集团,,40,40,74,15,34,79,48,62,62,51,53,5,5,1.1,1.2
2023-10-25T19:00:00,1474A,109.051,34.3213,西安市,广运潭,颗粒物(PM10),54,58,72,22,34,89,12,58,57,75,47,8,8,0.8,0.8
2023-10-25T19:00:00,1476A,103.631,36.1031,兰州市,兰炼宾馆,颗粒物(PM10),60,69,84,37,47,73,35,65,61,59,69,6,20,0.6,1
2023-10-25T19:00:00,1477A,104.1373,35.9454,兰州市,榆中兰大校区,,,,,,,,,,,,,,,,
2023-10-25T19:00:00,1478A,103.8412,36.0726,兰州市,生物制品所,颗粒物(PM10),57,64,82,35,40,69,56,47,47,42,67,7,12,0.7,1
2023-10-25T19:00:00,1479A,103.831,36.0464,兰州市,铁路设计院,细颗粒物(PM2.5),54,48,87,38,48,68,59,51,51,41,77,8,16,0.6,1.3
2023-10-25T19:00:00,1483A,101.524,36.6867,西宁市,第五水厂,,,,,,,,,,,,,,,,
2023-10-25T19:00:00,1484A,105.9512,38.6016,银川市,贺兰山马莲口,,49,49,35,15,14,105,91,96,96,21,20,6,10,0.4,0.4
2023-10-25T19:00:00,1488A,106.2328,38.4975,银川市,贺兰山东路,颗粒物(PM10),62,73,85,29,38,113,44,94,93,85,56,15,17,0.8,0.7
2023-10-25T19:00:00,1489A,106.1358,38.5036,银川市,学院路,细颗粒物(PM2.5),90,104,97,67,40,91,54,52,,62,56,15,17,0.9,0.7
2023-10-25T19:00:00,1490A,87.5801,43.8303,乌鲁木齐市,监测站,颗粒物(PM10),69,87,63,31,18,36,18,21,21,67,55,6,5,0.5,0.6
2023-10-25T19:00:00,1491A,87.6046,43.768,乌鲁木齐市,收费所,颗粒物(PM10),70,90,69,20,25,37,22,28,28,67,47,5,3,0.6,0.5
2023-10-25T19:00:00,1492A,87.4754,43.9469,乌鲁木齐市,新疆农科院农场,颗粒物(PM10),65,79,91,29,43,54,54,36,36,32,46,4,5,0.9,1
2023-10-25T19:00:00,1493A,87.5525,43.8711,乌鲁木齐市,铁路局,颗粒物(PM10),71,92,82,35,24,35,31,25,25,60,56,5,4,0.6,0.7
2023-10-25T19:00:00,1494A,87.6432,43.831,乌鲁木齐市,三十一中学,颗粒物(PM10),73,96,61,28,18,41,33,31,31,45,45,8,7,0.3,0.3
2023-10-25T19:00:00,1496A,87.7216,44.1747,乌鲁木齐市,米东区环保局,,,,50,,13,78,,53,53,,22,,5,,0.3
2023-10-25T19:00:00,1508A,112.9433,27.8614,湘潭市,板塘,,48,48,80,31,52,115,53,91,85,24,44,9,14,0.8,1
2023-10-25T19:00:00,1511A,112.9118,27.8403,湘潭市,市监测站,细颗粒物(PM2.5),52,51,86,36,59,132,59,105,99,29,54,4,8,0.6,0.9
2023-10-25T19:00:00,1512A,112.8937,27.8728,湘潭市,江麓,细颗粒物(PM2.5),59,56,92,42,62,133,61,103,96,25,49,9,11,0.5,0.8
2023-10-25T19:00:00,1513A,112.9227,27.8159,湘潭市,岳塘,,,45,92,40,61,135,,116,116,24,48,7,17,0.8,1.5
2023-10-25T19:00:00,1514A,112.9074,27.9119,湘潭市,科大,细颗粒物(PM2.5),55,57,81,39,56,121,55,97,87,26,50,7,12,0.3,1
2023-10-25T19:00:00,1515A,113.135,27.8244,株洲市,天台山庄,细颗粒物(PM2.5),72,76,96,52,59,139,55,110,102,31,44,7,11,0.6,0.9
2023-10-25T19:00:00,1518A,113.095,27.8867,株洲市,株冶医院,细颗粒物(PM2.5),62,63,78,44,57,133,61,106,100,23,37,6,10,0.5,0.7
2023-10-25T19:00:00,1519A,113.167,27.8667,株洲市,市四中,细颗粒物(PM2.5),74,73,86,54,62,130,46,102,94,32,36,5,8,0.6,0.9
2023-10-25T19:00:00,1520A,113.143,27.8381,株洲市,火车站,细颗粒物(PM2.5),65,76,88,47,60,136,55,109,104,28,38,6,9,0.7,1.1
2023-10-25T19:00:00,1524A,113.13,27.8528,株洲市,市监测站,细颗粒物(PM2.5),73,80,86,53,64,134,55,105,98,29,43,10,9,0.7,1
2023-10-25T19:00:00,1552A,106.805,26.3003,贵阳市,桐木岭,,,,,,,,,,,,,,,,
2023-10-25T19:00:00,1559A,113.251,27.8336,株洲市,大京风景区,细颗粒物(PM2.5),74,75,51,54,41,129,56,105,101,17,11,6,6,0.5,0.5
2023-10-25T19:00:00,1562A,113.0048,27.9153,湘潭市,昭山,细颗粒物(PM2.5),54,53,72,38,49,129,64,105,99,24,46,5,9,0.6,0.7
2023-10-25T19:00:00,1564A,112.4876,27.9164,湘潭市,韶山,颗粒物(PM10),56,62,95,36,57,121,76,105,98,13,20,6,8,0.6,0.9
2023-10-25T19:00:00,1585A,109.8756,40.6532,包头市,市环境监测站,颗粒物(PM10),58,65,132,32,45,99,63,83,83,38,55,9,17,0.5,1.1
2023-10-25T19:00:00,1587A,109.9991,40.5842,包头市,包头八中,颗粒物(PM10),62,73,163,18,46,108,70,88,88,34,64,10,40,0.6,1.4
2023-10-25T19:00:00,1588A,109.8538,40.6821,包头市,青山宾馆,颗粒物(PM10),59,67,127,29,42,102,55,85,82,48,56,11,19,0.8,1.1
2023-10-25T19:00:00,1589A,109.8642,40.6288,包头市,惠龙物流,细颗粒物(PM2.5),74,83,128,54,54,109,58,89,89,46,64,13,21,0.7,1
2023-10-25T19:00:00,1590A,110.0377,40.5546,包头市,东河鸿龙湾,颗粒物(PM10),56,61,128,15,38,103,75,90,90,26,59,12,34,0.4,1
2023-10-25T19:00:00,1591A,110.0023,39.8129,鄂尔多斯市,综合楼,颗粒物(PM10),62,73,68,9,14,96,73,90,89,28,24,4,9,0.4,0.5
2023-10-25T19:00:00,1592A,109.9486,39.8261,鄂尔多斯市,巴音孟克林场办事处,颗粒物(PM10),56,61,58,19,19,95,72,92,90,27,20,8,9,0.4,0.3
2023-10-25T19:00:00,1593A,109.7736,39.5986,鄂尔多斯市,康泽苑,,44,44,46,10,14,97,78,93,92,20,23,4,5,0.4,0.4
2023-10-25T19:00:00,1594A,109.8119,39.5989,鄂尔多斯市,华泰汽车城,,,,49,,14,99,75,94,93,22,37,4,4,,0.5
2023-10-25T19:00:00,1595A,109.9734,39.7884,鄂尔多斯市,奥林花园,颗粒物(PM10),56,61,74,12,17,98,77,93,92,20,35,4,15,0.5,0.5
2023-10-25T19:00:00,1597A,122.2703,40.7094,营口市,大庆路,细颗粒物(PM2.5),108,135,124,81,71,183,134,167,166,43,30,7,8,0.8,0.9
2023-10-25T19:00:00,1598A,122.2150,40.6511,营口市,镜湖西路,细颗粒物(PM2.5),107,141,118,80,67,198,128,177,175,45,32,8,11,1.1,1
2023-10-25T19:00:00,1599A,122.1658,40.6789,营口市,西炮台,细颗粒物(PM2.5),120,130,118,91,86,183,141,160,160,24,33,8,9,,0.8
2023-10-25T19:00:00,1600A,124.3303,40.0625,丹东市,江湾东路,,50,50,41,26,26,125,120,120,120,14,13,5,6,0.7,0.7
2023-10-25T19:00:00,1601A,124.4256,40.1503,丹东市,临江后街,,41,41,36,24,21,137,125,131,131,10,11,7,8,0.7,0.7
2023-10-25T19:00:00,1602A,124.3933,40.1461,丹东市,元宝山,,43,43,34,23,19,124,114,119,119,16,13,6,6,0.8,0.6
2023-10-25T19:00:00,1603A,124.3633,40.1092,丹东市,民主桥,颗粒物(PM10),51,51,41,25,21,118,106,111,111,15,13,6,8,0.9,0.9
2023-10-25T19:00:00,1604A,122.0303,41.1489,盘锦市,开发区,细颗粒物(PM2.5),142,95,71,108,94,179,164,162,162,44,41,12,13,1.0,1.1
2023-10-25T19:00:00,1605A,122.0485,41.0883,盘锦市,兴隆台,细颗粒物(PM2.5),139,134,81,106,86,192,178,174,174,38,35,13,14,1.2,1
2023-10-25T19:00:00,1606A,121.8297,41.1028,盘锦市,新生街道,细颗粒物(PM2.5),73,76,58,53,45,189,151,156,156,23,20,8,7,1.1,0.9
2023-10-25T19:00:00,1607A,120.9092,40.7136,葫芦岛市,龙港区,细颗粒物(PM2.5),239,225,147,189,136,216,104,166,166,80,34,16,14,2.4,1.5
2023-10-25T19:00:00,1608A,120.8392,40.7514,葫芦岛市,化工街,细颗粒物(PM2.5),211,268,156,161,98,206,63,143,141,85,35,10,9,2.7,1.4
2023-10-25T19:00:00,1609A,120.8341,40.7073,葫芦岛市,新区,细颗粒物(PM2.5),236,179,120,186,121,224,90,170,159,86,40,12,14,2.7,1.7
2023-10-25T19:00:00,1610A,120.8695,40.7677,葫芦岛市,东城区,细颗粒物(PM2.5),252,181,115,202,137,229,31,158,152,146,54,12,12,2.8,1.6
2023-10-25T19:00:00,1611A,118.5819,24.9117,泉州市,涂山街,,36,36,36,14,19,158,77,126,125,12,15,4,5,0.6,0.6
2023-10-25T19:00:00,1612A,118.5972,24.8978,泉州市,津头埔,,40,40,33,20,19,150,70,118,116,19,19,2,4,0.6,0.6
2023-10-25T19:00:00,1613A,118.6663,24.9424,泉州市,万安,,,39,35,15,18,155,73,124,121,,16,2,3,0.6,0.7
2023-10-25T19:00:00,1614A,118.6117,24.9604,泉州市,清源山,,,,,,,,,,,,,,,,
2023-10-25T19:00:00,1616A,117.6795,36.229,济南市,技术学院,颗粒物(PM10),97,144,131,58,66,183,104,167,163,73,67,15,14,2.7,1.4
2023-10-25T19:00:00,1618A,118.3429,35.0532,临沂市,沂河小区,细颗粒物(PM2.5),94,129,127,70,74,170,113,149,149,57,55,14,20,0.7,0.8
2023-10-25T19:00:00,1619A,118.295,35.0583,临沂市,鲁南制药厂,颗粒物(PM10),95,139,132,50,64,188,130,168,168,47,61,16,20,0.9,1
2023-10-25T19:00:00,1620A,118.2794,34.9976,临沂市,新光毛纺厂,颗粒物(PM10),90,129,129,58,78,180,115,158,158,58,63,19,24,1.0,1.1
2023-10-25T19:00:00,1621A,118.3956,35.0888,临沂市,河东保险公司,颗粒物(PM10),79,107,126,28,44,183,130,163,163,44,55,7,13,0.9,1
2023-10-25T19:00:00,1622A,116.3032,37.4674,德州市,儿童乐园,颗粒物(PM10),97,144,159,56,79,159,108,132,132,64,56,15,17,1.0,1
2023-10-25T19:00:00,1624A,116.2991,37.4451,德州市,监理站,颗粒物(PM10),110,169,174,66,104,160,69,124,123,87,56,16,20,0.9,0.9
2023-10-25T19:00:00,1625A,115.9848,36.4372,聊城市,区政府,颗粒物(PM10),125,200,169,90,100,190,13,133,125,146,51,10,13,2.1,1.1
2023-10-25T19:00:00,1628A,118.0062,37.3803,滨州市,市环保局,,,,155,,100,61,,89,,,63,,20,,1.2
2023-10-25T19:00:00,1629A,118.0018,37.3617,滨州市,第二水厂,细颗粒物(PM2.5),112,168,143,84,79,183,122,158,158,47,52,13,14,1.0,1
2023-10-25T19:00:00,1630A,117.9776,37.393,滨州市,北中新校,细颗粒物(PM2.5),97,130,133,72,70,173,93,152,148,63,49,14,17,1.3,1
2023-10-25T19:00:00,1631A,118.0414,36.8103,淄博市,人民公园,细颗粒物(PM2.5),92,132,112,68,60,184,70,161,152,93,51,11,13,1.1,0.9
2023-10-25T19:00:00,1633A,117.8525,36.4847,淄博市,双山,细颗粒物(PM2.5),89,110,103,66,68,174,134,160,160,35,30,9,10,0.7,0.8
2023-10-25T19:00:00,1634A,117.9592,36.6331,淄博市,气象站,"颗粒物(PM10),细颗粒物(PM2.5)",89,127,81,66,53,167,79,152,143,80,33,13,9,0.8,0.6
2023-10-25T19:00:00,1635A,118.3092,36.8194,淄博市,莆田园,颗粒物(PM10),95,139,108,68,54,186,92,163,152,75,37,13,16,0.8,1.1
2023-10-25T19:00:00,1637A,117.558,34.8438,枣庄市,市中区政府,细颗粒物(PM2.5),117,156,147,88,88,190,134,169,169,59,69,12,14,1.0,1.2
2023-10-25T19:00:00,1638A,117.2852,34.7837,枣庄市,薛城环保局,细颗粒物(PM2.5),95,122,149,71,88,190,129,172,171,55,63,10,12,0.9,1
2023-10-25T19:00:00,1639A,117.5852,34.7745,枣庄市,峄城区政府,颗粒物(PM10),102,153,147,,80,187,109,164,164,62,61,9,10,0.7,0.7
2023-10-25T19:00:00,1640A,117.7276,34.5578,枣庄市,台儿庄区环保局,颗粒物(PM10),68,85,101,46,73,177,102,148,148,52,71,6,7,0.7,0.9
2023-10-25T19:00:00,1641A,117.4518,35.0992,枣庄市,山亭区环保局,细颗粒物(PM2.5),102,144,112,76,71,192,151,182,181,46,38,9,9,1.2,1.1
2023-10-25T19:00:00,1642A,121.2514,37.5639,烟台市,开发区,细颗粒物(PM2.5),113,132,87,85,50,212,205,191,191,32,32,17,12,1.1,0.9
2023-10-25T19:00:00,1643A,121.3719,37.5433,烟台市,轴承厂,细颗粒物(PM2.5),88,105,85,65,53,187,98,164,152,44,20,7,8,0.8,0.5
2023-10-25T19:00:00,1644A,121.3181,37.5436,烟台市,西郊化工站,颗粒物(PM10),104,158,90,67,45,181,88,158,146,91,34,8,8,1.0,0.6
2023-10-25T19:00:00,1645A,121.4478,37.4822,烟台市,莱山环保局,颗粒物(PM10),81,112,80,57,46,192,143,173,172,40,21,12,9,0.7,0.7
2023-10-25T19:00:00,1646A,121.2611,37.4967,烟台市,福山环保局,细颗粒物(PM2.5),119,168,93,90,51,176,118,148,148,69,39,9,9,1.0,0.7
2023-10-25T19:00:00,1650A,119.1437,36.7023,潍坊市,环保局,细颗粒物(PM2.5),79,100,102,58,57,184,117,166,164,58,51,10,10,0.8,0.7
2023-10-25T19:00:00,1653A,116.6251,35.4302,济宁市,火炬城,颗粒物(PM10),80,109,114,51,79,149,77,122,122,56,36,13,17,1.0,0.8
2023-10-25T19:00:00,1655A,116.5491,35.4042,济宁市,电化厂,颗粒物(PM10),95,139,139,56,71,144,87,124,123,54,40,8,16,0.7,0.8
2023-10-25T19:00:00,1656A,117.1437,36.1937,泰安市,监测站,细颗粒物(PM2.5),95,117,124,71,79,184,108,157,156,65,50,13,13,1.2,1.1
2023-10-25T19:00:00,1657A,117.0885,36.2017,泰安市,人口学校,细颗粒物(PM2.5),85,114,110,63,72,179,93,152,151,82,43,9,9,1.0,0.9
2023-10-25T19:00:00,1658A,117.1089,36.1758,泰安市,电力学校,颗粒物(PM10),114,178,139,81,75,174,38,153,139,105,63,11,11,1.1,0.9
2023-10-25T19:00:00,1659A,119.471,35.4209,日照市,监测站,细颗粒物(PM2.5),90,117,96,67,67,167,89,140,140,67,55,17,13,1.8,1.3
2023-10-25T19:00:00,1660A,119.523,35.4216,日照市,市政府广场,细颗粒物(PM2.5),90,127,117,67,65,178,107,150,150,90,56,22,15,1.7,1
2023-10-25T19:00:00,1661A,119.5587,35.4044,日照市,港务局,细颗粒物(PM2.5),87,105,114,64,73,181,118,151,151,65,71,12,15,1.2,1.3
2023-10-25T19:00:00,1662A,122.1214,37.4236,威海市,华夏技校,细颗粒物(PM2.5),82,66,52,60,43,182,164,172,172,20,20,4,5,0.8,0.6
2023-10-25T19:00:00,1663A,122.0508,37.5236,威海市,山大分校,,,81,69,42,38,202,157,188,185,,15,8,9,,0.6
2023-10-25T19:00:00,1664A,122.1067,37.5072,威海市,市监测站,颗粒物(PM10),74,98,76,46,38,192,111,174,163,60,25,11,10,1.2,0.9
2023-10-25T19:00:00,1666A,118.6614,37.4309,东营市,市环保局,颗粒物(PM10),76,102,121,46,67,230,136,191,191,43,65,14,20,0.6,0.9
2023-10-25T19:00:00,1669A,113.5824,24.7733,韶关市,市八中,,,56,47,33,28,132,,109,109,41,26,10,21,,0.7
2023-10-25T19:00:00,1671A,113.5917,24.7972,韶关市,园林处,颗粒物(PM10),52,53,37,33,25,122,38,103,100,43,21,11,20,0.9,0.7
2023-10-25T19:00:00,1672A,113.6735,24.7791,韶关市,韶关学院,细颗粒物(PM2.5),57,46,36,40,25,157,82,117,117,25,17,12,16,1.4,0.6
2023-10-25T19:00:00,1673A,113.5971,24.6863,韶关市,曲江监测站,颗粒物(PM10),56,62,44,32,28,141,50,107,106,27,22,12,16,0.8,1
2023-10-25T19:00:00,1674A,116.6794,23.3667,汕头市,金平子站,,31,13,32,13,21,139,99,122,122,10,12,6,7,0.6,0.6
2023-10-25T19:00:00,1675A,116.7244,23.3633,汕头市,龙湖子站,,,,32,,17,134,,126,124,13,13,,7,0.5,0.7
2023-10-25T19:00:00,1676A,116.7258,23.2775,汕头市,濠江子站,,32,29,29,16,19,132,101,118,118,9,9,8,8,0.6,0.6
2023-10-25T19:00:00,1677A,116.7519,23.4714,汕头市,澄海子站,,34,34,36,22,22,138,101,124,124,18,15,10,12,0.7,0.6
2023-10-25T19:00:00,1678A,116.6092,23.2539,汕头市,潮阳子站,,40,40,35,15,21,128,94,112,112,13,9,8,9,0.5,0.5
2023-10-25T19:00:00,1680A,110.3539,21.2706,湛江市,湛江影剧院,颗粒物(PM10),53,56,37,27,21,136,135,116,116,16,14,5,11,0.6,0.6
2023-10-25T19:00:00,1681A,110.3928,21.2228,湛江市,市环境监测站,,45,30,27,31,18,139,139,117,117,9,11,2,5,0.7,0.6
2023-10-25T19:00:00,1682A,110.4019,21.1997,湛江市,环保局宿舍,,45,40,32,31,20,140,139,65,,13,16,3,6,0.6,0.7
2023-10-25T19:00:00,1683A,110.4111,21.2028,湛江市,霞山游泳场,,45,43,28,21,17,150,143,121,121,8,11,4,7,0.7,0.6
2023-10-25T19:00:00,1684A,110.3316,21.2679,湛江市,麻章区环保局,颗粒物(PM10),52,54,37,21,19,137,134,115,115,16,15,3,10,0.7,0.7
2023-10-25T19:00:00,1685A,110.4558,21.2567,湛江市,坡头区环保局,,47,47,28,31,21,152,150,130,130,8,10,3,9,0.6,0.6
2023-10-25T19:00:00,1686A,111.0286,21.4688,茂名市,电白南海,颗粒物(PM10),51,51,47,29,28,156,141,132,132,15,16,8,10,0.7,0.7
2023-10-25T19:00:00,1687A,110.9294,21.6533,茂名市,茂石化七小,颗粒物(PM10),53,56,53,27,31,141,124,125,125,20,16,7,9,0.5,0.5
2023-10-25T19:00:00,1688A,110.9107,21.6687,茂名市,健康路,颗粒物(PM10),53,56,41,27,23,146,129,128,128,16,14,9,18,0.4,0.4
2023-10-25T19:00:00,1689A,110.8592,21.6828,茂名市,高岭,颗粒物(PM10),53,56,55,36,39,144,128,126,125,16,21,8,19,0.5,0.7
2023-10-25T19:00:00,1690A,116.1231,24.3284,梅州市,梅江月梅,颗粒物(PM10),56,62,34,28,22,127,75,112,110,12,19,5,5,0.6,0.6
2023-10-25T19:00:00,1691A,116.0797,24.2719,梅州市,梅县新城,颗粒物(PM10),74,98,41,42,22,133,18,115,103,75,26,7,7,1.6,0.9
2023-10-25T19:00:00,1692A,116.1248,24.2654,梅州市,环境监控中心,,50,50,38,23,21,124,56,101,98,33,23,8,9,0.8,0.7
2023-10-25T19:00:00,1693A,115.3653,22.775,汕尾市,市环保局,,30,26,35,18,20,123,93,108,106,25,12,13,12,0.6,0.6
2023-10-25T19:00:00,1694A,115.3706,22.7898,汕尾市,市政府,,34,26,32,12,26,133,106,116,116,17,10,9,8,0.4,0.4
2023-10-25T19:00:00,1695A,115.3622,22.7925,汕尾市,新城中学,,36,36,38,19,23,130,101,112,112,17,9,11,9,0.6,0.6
2023-10-25T19:00:00,1696A,114.6778,23.7569,河源市,源西,,,88,35,,16,90,14,72,64,54,24,5,5,0.8,0.5
2023-10-25T19:00:00,1697A,114.6944,23.7586,河源市,东埔,,35,23,34,24,19,95,41,80,78,28,22,5,6,0.9,0.7
2023-10-25T19:00:00,1698A,114.6892,23.7233,河源市,老城,,33,33,30,23,17,94,46,80,78,10,15,4,5,0.7,0.7
2023-10-25T19:00:00,1699A,111.9797,21.8593,阳江市,鸳鸯湖,,46,37,40,32,31,156,122,139,139,7,19,10,12,0.6,0.7
2023-10-25T19:00:00,1701A,111.9491,21.8658,阳江市,马南垌,细颗粒物(PM2.5),53,39,47,37,36,151,118,139,139,10,27,6,7,0.7,0.9
2023-10-25T19:00:00,1702A,113.0426,23.691,清远市,环保大楼,,35,30,34,24,27,136,40,105,101,54,26,8,9,1.2,0.9
2023-10-25T19:00:00,1703A,113.0208,23.7106,清远市,凤城街办,颗粒物(PM10),54,58,44,36,23,154,31,116,109,57,30,9,10,1.1,0.8
2023-10-25T19:00:00,1705A,116.6367,23.6719,潮州市,西园路,细颗粒物(PM2.5),78,58,53,57,30,157,119,131,131,18,16,5,6,0.5,0.3
2023-10-25T19:00:00,1706A,116.6447,23.6706,潮州市,档案局,,49,47,49,34,33,170,121,149,149,19,16,6,6,0.7,0.7
2023-10-25T19:00:00,1708A,116.3701,23.5345,揭阳市,新兴,,,,55,,32,180,,158,158,,16,,13,,0.7
2023-10-25T19:00:00,1709A,116.3264,23.5443,揭阳市,西马,颗粒物(PM10),64,77,55,26,32,174,116,149,149,17,16,8,11,0.8,0.7
2023-10-25T19:00:00,1710A,116.3611,23.5626,揭阳市,东兴,颗粒物(PM10),64,78,60,28,29,189,127,160,160,21,18,8,12,1.1,0.9
2023-10-25T19:00:00,1711A,116.4151,23.5294,揭阳市,渔湖,颗粒物(PM10),62,73,57,32,28,185,107,155,155,18,21,10,9,1.0,0.8
2023-10-25T19:00:00,1712A,112.0392,22.9169,云浮市,新市府,,40,27,37,28,26,167,88,134,130,8,9,6,6,0.8,0.9
2023-10-25T19:00:00,1714A,112.0539,22.9539,云浮市,牧羊,,39,36,45,27,25,168,95,145,145,34,28,10,10,0.6,0.6
2023-10-25T19:00:00,1715A,102.575,24.3711,玉溪市,东风水库,,25,25,22,6,14,65,50,56,56,10,13,7,7,0.7,0.8
2023-10-25T19:00:00,1718A,115.4208,35.2464,菏泽市,气象局,颗粒物(PM10),76,101,130,36,75,159,102,129,129,53,60,5,20,0.7,0.7
2023-10-25T19:00:00,1719A,115.4747,35.2375,菏泽市,市政协,颗粒物(PM10),103,155,128,55,75,154,32,113,110,117,59,8,21,0.6,0.5
2023-10-25T19:00:00,1721A,113.3819,40.1097,大同市,果树场,,,,,,,,,,,,,,,,
2023-10-25T19:00:00,1723A,113.2994,40.0758,大同市,云冈宾馆,细颗粒物(PM2.5),75,81,94,55,32,99,45,74,74,63,52,15,22,0.6,0.9
2023-10-25T19:00:00,1724A,113.3444,40.0917,大同市,大同大学,颗粒物(PM10),63,75,88,25,28,101,68,86,86,41,44,13,24,0.5,0.7
2023-10-25T19:00:00,1725A,113.2661,40.1269,大同市,安家小村,颗粒物(PM10),59,67,100,18,28,107,89,91,91,16,42,15,29,0.3,1.5
2023-10-25T19:00:00,1726A,113.2711,40.0844,大同市,教育学院,颗粒物(PM10),70,89,101,31,32,95,60,74,74,49,56,18,23,0.5,1.4
2023-10-25T19:00:00,1727A,113.1147,36.1547,长治市,清华站,细颗粒物(PM2.5),79,106,87,58,45,143,39,118,114,88,46,12,11,1.0,1
2023-10-25T19:00:00,1728A,113.1031,36.1989,长治市,监测站,细颗粒物(PM2.5),92,96,82,68,48,147,37,116,113,103,55,12,10,1.6,1.1
2023-10-25T19:00:00,1730A,113.0886,36.2125,长治市,审计局,细颗粒物(PM2.5),64,76,77,46,47,142,76,118,118,64,44,16,13,1.1,1
2023-10-25T19:00:00,1731A,113.0844,36.1856,长治市,长治八中,颗粒物(PM10),70,89,102,35,40,139,83,119,119,44,45,16,15,0.8,1
2023-10-25T19:00:00,1733A,111.5531,36.0783,临汾市,临钢医院,细颗粒物(PM2.5),225,260,186,175,125,156,114,125,125,47,45,19,10,1.9,1.8
2023-10-25T19:00:00,1734A,111.5028,36.0714,临汾市,技工学校,细颗粒物(PM2.5),214,258,194,164,132,156,114,140,140,56,64,23,15,1.8,1.7
2023-10-25T19:00:00,1736A,111.5018,36.0855,临汾市,市委,细颗粒物(PM2.5),213,247,194,163,128,149,113,124,124,57,62,23,12,2.0,1.6
2023-10-25T19:00:00,1738A,113.5758,37.8572,阳泉市,市中心,,,92,90,29,40,141,23,82,,110,84,14,20,,1
2023-10-25T19:00:00,1739A,113.4894,37.8731,阳泉市,赛鱼,颗粒物(PM10),92,133,93,37,46,139,9,115,105,111,70,12,16,0.9,0.9
2023-10-25T19:00:00,1740A,113.5819,37.8486,阳泉市,南庄,颗粒物(PM10),69,88,113,35,42,147,110,128,128,40,59,14,18,0.9,0.9
2023-10-25T19:00:00,1742A,113.5614,37.8703,阳泉市,平坦,颗粒物(PM10),76,102,90,37,45,139,72,122,117,64,67,17,16,0.9,0.9
2023-10-25T19:00:00,1743A,113.5158,37.8392,阳泉市,大阳泉,颗粒物(PM10),55,59,72,36,44,144,123,134,134,27,29,13,15,0.7,0.7
2023-10-25T19:00:00,1744A,118.9233,42.2816,赤峰市,松山一中,颗粒物(PM10),68,86,77,6,18,92,63,81,81,18,49,9,12,0.4,0.8
2023-10-25T19:00:00,1745A,118.9576,42.2728,赤峰市,哈达街,颗粒物(PM10),67,84,81,18,34,95,53,84,77,27,56,11,24,0.6,0.8
2023-10-25T19:00:00,1746A,118.8788,42.2554,赤峰市,天义路,颗粒物(PM10),60,70,60,14,17,99,60,86,82,17,39,9,12,0.8,0.9
2023-10-25T19:00:00,1748A,123.044,41.1196,鞍山市,深沟寺,细颗粒物(PM2.5),87,82,74,64,52,159,117,149,143,27,15,6,6,0.9,0.7
2023-10-25T19:00:00,1749A,123.011,41.0931,鞍山市,太阳城,细颗粒物(PM2.5),108,140,86,81,53,162,89,154,142,46,20,10,9,1.3,0.9
2023-10-25T19:00:00,1750A,123.0485,41.1442,鞍山市,太平,细颗粒物(PM2.5),87,109,87,64,53,164,122,152,144,39,24,10,11,0.9,0.7
2023-10-25T19:00:00,1751A,122.9642,41.0971,鞍山市,铁西三道街,细颗粒物(PM2.5),166,208,120,126,70,166,29,148,130,127,41,16,9,1.8,1
2023-10-25T19:00:00,1752A,122.9341,41.0833,鞍山市,铁西工业园区,细颗粒物(PM2.5),195,214,115,146,75,160,52,147,136,99,36,15,11,1.7,1.2
2023-10-25T19:00:00,1753A,123.022,41.0821,鞍山市,明达新区,细颗粒物(PM2.5),99,106,85,74,56,149,113,140,131,32,20,9,8,0.8,0.6
2023-10-25T19:00:00,1754A,123.1289,41.0228,鞍山市,千山,,,,,,,,,,,,,,,,
2023-10-25T19:00:00,1755A,123.7977,41.8491,抚顺市,望花区,细颗粒物(PM2.5),142,150,91,108,69,155,130,149,146,37,40,19,15,0.8,0.8
2023-10-25T19:00:00,1756A,123.9161,41.8822,抚顺市,顺城区,细颗粒物(PM2.5),87,101,87,64,62,148,111,131,131,33,47,9,7,2.0,1.2
2023-10-25T19:00:00,1757A,124.0436,41.8611,抚顺市,东洲区,细颗粒物(PM2.5),70,62,61,51,52,154,124,148,145,17,16,9,9,0.8,0.7
2023-10-25T19:00:00,1758A,123.9247,41.8642,抚顺市,新抚区,细颗粒物(PM2.5),93,65,68,69,61,145,107,133,131,24,32,8,8,0.7,0.7
2023-10-25T19:00:00,1759A,124.0972,41.8961,抚顺市,大伙房水库,颗粒物(PM10),54,58,57,31,40,152,130,146,144,12,12,9,8,0.7,0.7
2023-10-25T19:00:00,1760A,123.7086,41.8391,抚顺市,沈抚新城,细颗粒物(PM2.5),226,136,82,176,80,168,137,158,157,46,30,14,12,1.1,0.9
2023-10-25T19:00:00,1761A,123.8275,41.3064,本溪市,大峪,颗粒物(PM10),62,73,65,34,32,142,125,139,137,20,20,8,8,0.8,0.7
2023-10-25T19:00:00,1762A,123.7567,41.3325,本溪市,溪湖,细颗粒物(PM2.5),70,71,72,51,50,147,130,144,140,20,20,11,13,0.7,0.7
2023-10-25T19:00:00,1763A,123.7169,41.3094,本溪市,彩屯,细颗粒物(PM2.5),78,94,125,57,86,127,113,121,113,34,51,23,42,1.3,2.9
2023-10-25T19:00:00,1764A,123.7669,41.2864,本溪市,东明,颗粒物(PM10),53,56,55,36,35,167,145,151,145,17,18,9,9,0.7,0.8
2023-10-25T19:00:00,1765A,123.7992,41.2664,本溪市,新立屯,颗粒物(PM10),55,59,54,33,32,157,135,152,137,14,13,9,10,0.8,0.7
2023-10-25T19:00:00,1766A,123.8142,41.3472,本溪市,威宁,颗粒物(PM10),66,82,67,45,44,139,93,127,123,27,26,6,6,0.9,0.8
2023-10-25T19:00:00,1767A,121.1115,41.0879,锦州市,南山,细颗粒物(PM2.5),273,199,142,223,171,160,119,119,119,66,40,10,15,2.0,1.4
2023-10-25T19:00:00,1768A,121.0533,40.8434,锦州市,开发区,细颗粒物(PM2.5),257,215,153,207,153,198,119,150,150,55,58,13,21,1.7,1.5
2023-10-25T19:00:00,1769A,121.1836,41.1119,锦州市,百股街道,细颗粒物(PM2.5),218,220,162,168,123,193,130,141,141,54,34,11,19,2.0,1.6
2023-10-25T19:00:00,1770A,121.1178,41.1222,锦州市,天安街道,细颗粒物(PM2.5),257,257,185,207,161,156,126,116,116,60,41,11,13,2.3,1.7
2023-10-25T19:00:00,1771A,121.1303,41.1386,锦州市,北湖公园,细颗粒物(PM2.5),287,249,178,237,176,136,130,54,,45,36,12,14,2.0,1.5
2023-10-25T19:00:00,1772A,126.54,43.8622,吉林市,哈达湾,细颗粒物(PM2.5),89,101,104,66,68,162,102,149,144,56,44,9,8,1.1,1.1
2023-10-25T19:00:00,1773A,126.5844,43.8358,吉林市,东局子,细颗粒物(PM2.5),73,86,112,53,69,154,71,138,134,76,51,7,7,1.0,1.1
2023-10-25T19:00:00,1774A,126.5052,43.8245,吉林市,电力学院,细颗粒物(PM2.5),256,315,123,206,76,155,12,131,120,126,45,17,12,2.6,1.1
2023-10-25T19:00:00,1775A,126.6133,43.8972,吉林市,江北,细颗粒物(PM2.5),162,182,132,123,85,154,51,130,122,67,46,12,11,2.1,1.2
2023-10-25T19:00:00,1776A,126.555,43.8306,吉林市,江南公园,细颗粒物(PM2.5),90,100,111,67,75,156,80,129,127,62,50,9,9,1.0,1.1
2023-10-25T19:00:00,1778A,126.7061,43.7133,吉林市,丰满,,,,,,,,,,,,,,,,
2023-10-25T19:00:00,1779A,123.9305,47.3636,齐齐哈尔市,安居小区,,50,50,55,32,23,78,62,70,70,7,20,5,6,0.2,0.3
2023-10-25T19:00:00,1780A,123.9488,47.3386,齐齐哈尔市,中心广场,,50,50,47,10,18,81,62,69,69,6,18,1,3,0.2,0.3
2023-10-25T19:00:00,1781A,123.9483,47.3227,齐齐哈尔市,农牧车辆厂,,48,48,53,8,11,80,64,70,70,5,16,6,7,0.3,0.3
2023-10-25T19:00:00,1783A,123.945,47.2988,齐齐哈尔市,市环境监测站,,,134,50,8,15,83,64,71,71,,12,,4,0.2,0.3
2023-10-25T19:00:00,1784A,129.61,44.561,牡丹江市,环保大楼,颗粒物(PM10),53,55,55,21,32,88,21,73,62,64,38,7,7,0.7,0.6
2023-10-25T19:00:00,1785A,129.6115,44.5782,牡丹江市,文化广场,颗粒物(PM10),100,149,76,73,48,83,7,64,53,79,49,17,8,1.3,0.8
2023-10-25T19:00:00,1786A,129.5904,44.5963,牡丹江市,第一医院,细颗粒物(PM2.5),88,104,67,65,45,82,8,65,53,72,46,11,8,1.2,0.9
2023-10-25T19:00:00,1787A,129.6364,44.6075,牡丹江市,机车工厂,颗粒物(PM10),73,95,108,31,50,83,15,68,60,50,39,8,9,0.8,0.8
2023-10-25T19:00:00,1788A,129.6386,44.5462,牡丹江市,第一中学,颗粒物(PM10),55,59,66,25,40,96,17,70,58,60,39,7,8,0.5,0.6
2023-10-25T19:00:00,1789A,124.81117,46.03138,大庆市,大同区,细颗粒物(PM2.5),173,147,90,131,59,112,77,98,98,14,28,5,8,0.8,0.7
2023-10-25T19:00:00,1790A,125.129,46.533,大庆市,龙凤区,细颗粒物(PM2.5),112,119,57,84,27,101,75,82,82,34,32,6,10,0.9,0.6
2023-10-25T19:00:00,1791A,124.902,46.408,大庆市,红岗区,细颗粒物(PM2.5),95,100,45,71,24,111,85,90,90,20,32,4,6,0.8,0.5
2023-10-25T19:00:00,1792A,125.153,46.586,大庆市,萨尔图区,细颗粒物(PM2.5),122,145,63,92,31,103,79,87,87,38,36,4,7,0.7,0.6
2023-10-25T19:00:00,1793A,124.9042,46.6215,大庆市,让胡路区,颗粒物(PM10),84,117,51,51,19,104,89,90,90,19,39,5,6,0.8,0.6
2023-10-25T19:00:00,1794A,118.3606,31.3519,芜湖市,监测站,细颗粒物(PM2.5),87,94,88,64,49,127,77,92,92,67,80,12,10,1.0,1
2023-10-25T19:00:00,1795A,118.3714,31.4134,芜湖市,科创中心,细颗粒物(PM2.5),88,116,105,65,64,132,20,104,96,128,81,13,9,1.1,1.1
2023-10-25T19:00:00,1796A,118.3673,31.3131,芜湖市,四水厂,细颗粒物(PM2.5),83,108,89,61,50,125,94,99,99,53,62,10,8,1.0,0.9
2023-10-25T19:00:00,1798A,118.5092,31.6837,马鞍山市,湖东路四小,"颗粒物(PM10),细颗粒物(PM2.5)",75,99,79,55,47,143,11,127,112,113,60,10,10,1.3,1.1
2023-10-25T19:00:00,1799A,118.5024,31.6449,马鞍山市,开发区,颗粒物(PM10),90,129,92,65,54,154,8,110,99,132,75,14,13,1.1,1.2
2023-10-25T19:00:00,1800A,118.5228,31.7231,马鞍山市,慈湖,,,,88,,54,154,30,123,112,,65,,10,1.0,1
2023-10-25T19:00:00,1802A,118.6245,31.7241,马鞍山市,濮塘,细颗粒物(PM2.5),58,59,58,41,35,137,94,125,122,21,13,7,9,0.7,0.8
2023-10-25T19:00:00,1803A,115.9872,29.6815,九江市,十里,细颗粒物(PM2.5),87,107,80,64,47,101,58,71,69,64,62,12,9,1.4,1
2023-10-25T19:00:00,1804A,115.9584,29.7046,九江市,茅山头,细颗粒物(PM2.5),104,116,80,78,58,116,24,73,73,101,65,16,13,1.6,1.1
2023-10-25T19:00:00,1805A,115.9877,29.7295,九江市,西园,细颗粒物(PM2.5),120,144,112,91,68,87,15,61,56,142,80,33,16,1.4,1.3
2023-10-25T19:00:00,1806A,116.0172,29.6547,九江市,五七二七厂,细颗粒物(PM2.5),65,70,56,47,40,125,101,66,66,21,35,13,14,0.7,0.8
2023-10-25T19:00:00,1808A,115.9114,29.6038,九江市,综合工业园,细颗粒物(PM2.5),85,111,80,63,50,125,22,58,57,79,62,23,14,1.2,1
2023-10-25T19:00:00,1809A,116.0721,29.7535,九江市,石化总厂,细颗粒物(PM2.5),109,146,102,82,65,101,3,48,42,120,55,11,13,1.6,0.9
2023-10-25T19:00:00,1810A,115.9773,29.5698,九江市,庐山气象台,,45,35,29,26,22,142,141,134,126,5,4,6,6,0.5,0.7
2023-10-25T19:00:00,1812A,112.3931,34.6516,洛阳市,市委党校,细颗粒物(PM2.5),83,95,94,61,71,149,99,111,111,40,44,8,6,0.7,0.7
2023-10-25T19:00:00,1814A,112.4657,34.6871,洛阳市,豫西宾馆,颗粒物(PM10),82,114,116,56,69,148,88,112,112,44,58,6,6,0.8,1
2023-10-25T19:00:00,1815A,112.494,34.6886,洛阳市,河南林校,细颗粒物(PM2.5),78,90,86,57,59,139,79,107,107,50,44,5,3,0.8,0.7
2023-10-25T19:00:00,1816A,112.3844,34.623,洛阳市,开发区管委会,细颗粒物(PM2.5),74,79,75,54,53,150,90,114,114,29,33,2,2,0.6,0.6
2023-10-25T19:00:00,1817A,112.4267,34.6258,洛阳市,市委新办公区,细颗粒物(PM2.5),77,85,66,56,44,145,105,120,120,34,35,4,3,0.6,0.5
2023-10-25T19:00:00,1818A,114.4839,36.0621,安阳市,棉研所,,,,,,,,,,,,,,,,
2023-10-25T19:00:00,1819A,114.3551,36.1017,安阳市,红庙街,颗粒物(PM10),60,70,82,37,39,156,82,133,132,48,40,11,12,0.9,1
2023-10-25T19:00:00,1820A,114.361,36.0681,安阳市,银杏小区,颗粒物(PM10),60,69,72,30,38,149,79,121,121,53,43,8,10,0.7,1
2023-10-25T19:00:00,1824A,114.3389,34.7781,开封市,肿瘤医院,,,93,96,40,54,146,47,112,110,87,61,3,11,,0.6
2023-10-25T19:00:00,1826A,114.2885,34.7965,开封市,世纪星幼儿园,颗粒物(PM10),66,81,81,31,42,129,56,108,107,79,60,7,9,0.8,0.8
2023-10-25T19:00:00,1828A,113.227,35.2125,焦作市,市环保局,颗粒物(PM10),82,113,87,42,43,128,64,99,97,60,53,15,11,0.6,0.7
2023-10-25T19:00:00,1830A,113.1992,35.2590,焦作市,影视城,,,,,,,,,,,,,,,,
2023-10-25T19:00:00,1832A,113.3257,33.742,平顶山市,新华旅馆,颗粒物(PM10),65,80,89,42,48,130,75,108,108,33,41,8,20,0.7,0.7
2023-10-25T19:00:00,1833A,113.2919,33.737,平顶山市,规划设计院,颗粒物(PM10),63,75,76,38,43,126,69,98,98,35,51,9,19,0.4,0.6
2023-10-25T19:00:00,1834A,113.182,33.774,平顶山市,平顶山工学院,颗粒物(PM10),62,74,66,31,32,131,65,106,106,33,30,7,15,0.6,0.6
2023-10-25T19:00:00,1835A,111.1922,34.7752,三门峡市,市政府,颗粒物(PM10),71,91,79,51,43,120,46,90,84,84,54,9,9,1.4,0.8
2023-10-25T19:00:00,1836A,111.1587,34.7942,三门峡市,开发区,颗粒物(PM10),100,149,120,74,65,122,45,93,93,88,39,10,8,1.0,0.6
2023-10-25T19:00:00,1838A,111.143,34.7955,三门峡市,风景区,,,,,,,,,,,,,,,,
2023-10-25T19:00:00,1840A,111.2992,30.6981,宜昌市,白龙岗,,,36,62,,53,97,60,83,81,34,36,5,6,0.8,0.7
2023-10-25T19:00:00,1841A,111.3549,30.6465,宜昌市,伍家岗,细颗粒物(PM2.5),52,32,66,36,59,93,50,83,79,39,50,5,5,0.7,0.9
2023-10-25T19:00:00,1842A,111.2628,30.6961,宜昌市,点军区,,45,26,60,31,56,99,57,82,81,22,22,7,7,0.6,0.7
2023-10-25T19:00:00,1843A,111.3275,30.7819,宜昌市,夷陵区,细颗粒物(PM2.5),55,36,66,39,58,86,86,66,66,19,30,6,7,0.6,0.6
2023-10-25T19:00:00,1844A,112.2494,30.3197,荆州市,市图书馆,细颗粒物(PM2.5),77,76,112,56,78,143,125,113,113,20,43,6,9,0.9,1
2023-10-25T19:00:00,1845A,112.2008,30.3544,荆州市,市委党校,,,,125,,84,144,136,113,113,16,37,6,9,0.8,1
2023-10-25T19:00:00,1847A,113.1094,29.3578,岳阳市,南湖风景区,细颗粒物(PM2.5),134,97,96,102,83,118,102,98,97,24,46,10,12,1.1,1.2
2023-10-25T19:00:00,1848A,113.1493,29.4251,岳阳市,城陵矶,细颗粒物(PM2.5),118,95,116,89,90,110,70,84,82,27,52,9,11,1.0,1.1
2023-10-25T19:00:00,1849A,113.1497,29.3575,岳阳市,开发区,细颗粒物(PM2.5),102,102,116,76,96,100,99,88,88,25,46,9,10,0.9,1
2023-10-25T19:00:00,1850A,113.2621,29.4758,岳阳市,云溪区,细颗粒物(PM2.5),89,83,84,66,67,137,99,90,90,20,28,6,9,1.1,1
2023-10-25T19:00:00,1851A,112.9943,29.4402,岳阳市,君山区,细颗粒物(PM2.5),130,114,125,99,109,121,95,101,100,20,30,5,9,0.9,1
2023-10-25T19:00:00,1852A,113.2117,29.355,岳阳市,金凤水库,细颗粒物(PM2.5),125,108,87,95,70,171,85,87,87,14,24,3,5,0.9,0.8
2023-10-25T19:00:00,1854A,111.6975,28.9703,常德市,市二中,细颗粒物(PM2.5),62,56,91,44,73,109,109,95,95,9,20,7,9,0.8,0.9
2023-10-25T19:00:00,1857A,111.7158,29.1456,常德市,白鹤山,细颗粒物(PM2.5),83,85,78,61,61,149,10,90,32,3,7,3,4,0.9,0.8
2023-10-25T19:00:00,1858A,110.5319,29.1217,张家界市,永定新区,,,35,45,,50,94,81,83,83,22,18,5,6,0.9,0.8
2023-10-25T19:00:00,1859A,110.4697,29.1242,张家界市,电业局,,32,32,50,19,30,102,77,85,85,24,22,9,8,0.9,0.8
2023-10-25T19:00:00,1860A,110.5594,29.3547,张家界市,未央路,,30,21,45,21,40,96,93,88,88,15,15,3,3,0.7,0.7
2023-10-25T19:00:00,1861A,110.4417,29.315,张家界市,袁家界,,33,7,27,6,23,107,103,101,101,5,6,8,9,0.9,0.9
2023-10-25T19:00:00,1862A,110.4144,25.3167,桂林市,电子科大尧山校区,,32,32,30,16,19,97,69,84,84,8,8,3,3,0.4,0.5
2023-10-25T19:00:00,1863A,110.2819,25.2697,桂林市,监测站,,40,40,48,22,31,102,62,94,91,30,26,6,7,0.8,0.8
2023-10-25T19:00:00,1864A,110.3089,25.2708,桂林市,龙隐路小学,,39,33,41,27,31,96,60,91,88,24,24,6,8,0.7,0.7
2023-10-25T19:00:00,1865A,110.2869,25.2178,桂林市,八中,,38,37,44,26,26,100,54,90,88,25,19,5,5,0.7,0.6
2023-10-25T19:00:00,1866A,109.2262,21.588,北海市,牛尾岭水库,,,,,,,,,,,,,,,,
2023-10-25T19:00:00,1867A,109.1436,21.4086,北海市,海滩公园,,43,43,35,12,17,134,117,118,118,9,11,6,8,0.8,0.8
2023-10-25T19:00:00,1868A,109.0981,21.4661,北海市,新市环保局,,32,29,42,22,32,138,95,123,123,14,16,7,11,0.7,0.8
2023-10-25T19:00:00,1869A,109.1778,21.5233,北海市,北海工业园,细颗粒物(PM2.5),55,38,56,39,34,147,110,131,131,11,16,7,12,0.7,0.8
2023-10-25T19:00:00,1870A,109.4856,24.3895,柳州市,柳东小学,细颗粒物(PM2.5),60,45,48,43,37,142,106,120,120,11,17,9,11,0.6,0.7
2023-10-25T19:00:00,1871A,109.4157,24.3277,柳州市,环保监测站,,27,15,64,14,44,130,85,106,106,15,34,6,12,0.6,0.9
2023-10-25T19:00:00,1872A,109.389,24.341,柳州市,河西水厂,,28,27,69,18,34,135,88,111,111,17,28,9,15,0.5,0.9
2023-10-25T19:00:00,1873A,109.4311,24.2921,柳州市,市四中,,,32,61,21,36,131,87,112,112,,31,5,9,0.8,1.1
2023-10-25T19:00:00,1874A,109.4006,24.3631,柳州市,市九中,,44,44,69,18,36,138,74,110,110,24,29,4,9,0.7,1
2023-10-25T19:00:00,1875A,109.4958,24.3134,柳州市,古亭山,,36,36,40,23,25,141,65,116,112,25,26,7,9,0.5,0.5
2023-10-25T19:00:00,1876A,109.5078,18.2489,三亚市,河东子站,,20,20,10,11,6,50,42,48,48,9,4,4,3,0.4,0.4
2023-10-25T19:00:00,1877A,109.4964,18.2681,三亚市,河西子站,,20,20,10,7,4,51,40,48,48,7,3,3,3,0.3,0.3
2023-10-25T19:00:00,1878A,104.7778,31.4741,绵阳市,富乐山,细颗粒物(PM2.5),69,78,100,50,74,62,1,18,7,32,31,6,4,0.8,0.9
2023-10-25T19:00:00,1879A,104.7563,31.4535,绵阳市,市人大,颗粒物(PM10),62,73,107,32,77,57,6,13,13,49,45,9,9,1.0,1
2023-10-25T19:00:00,1880A,104.6697,31.4668,绵阳市,高新区自来水公司,"颗粒物(PM10),细颗粒物(PM2.5)",52,53,113,36,66,61,10,17,17,44,47,31,10,0.7,0.7
2023-10-25T19:00:00,1881A,104.7287,31.5075,绵阳市,三水厂,,,104,124,,98,29,1,5,4,59,54,5,6,1.1,1
2023-10-25T19:00:00,1882A,104.563,28.793,宜宾市,石马中学,,,,,,,,,,,,,,,,
2023-10-25T19:00:00,1883A,104.6201,28.7728,宜宾市,市委,细颗粒物(PM2.5),100,102,104,75,78,51,22,37,36,44,41,14,7,0.8,0.8
2023-10-25T19:00:00,1884A,104.6055,28.793,宜宾市,宜宾四中,细颗粒物(PM2.5),100,106,112,75,81,53,7,37,35,61,44,15,10,1.1,0.8
2023-10-25T19:00:00,1885A,104.639,28.7562,宜宾市,市政府,细颗粒物(PM2.5),102,104,114,76,74,42,11,33,31,51,43,9,8,0.9,0.8
2023-10-25T19:00:00,1886A,104.5742,28.7199,宜宾市,黄金嘴,细颗粒物(PM2.5),77,76,88,56,65,62,18,41,41,33,30,8,7,0.8,0.7
2023-10-25T19:00:00,1888A,101.6891,26.571,攀枝花市,弄弄坪,,20,20,37,6,25,71,54,61,61,7,18,10,17,0.4,1
2023-10-25T19:00:00,1889A,101.5769,26.5928,攀枝花市,河门口,,18,14,53,8,31,99,56,76,76,13,28,11,14,0.9,1.3
2023-10-25T19:00:00,1890A,101.7169,26.585,攀枝花市,炳草岗,,30,30,55,9,31,75,37,61,61,27,34,16,19,0.6,1.7
2023-10-25T19:00:00,1891A,101.7369,26.5008,攀枝花市,仁和,,16,8,32,6,24,70,49,59,59,13,16,4,7,0.6,0.9
2023-10-25T19:00:00,1893A,105.4324,28.9634,泸州市,九狮山,,50,50,65,33,43,44,17,35,35,29,24,5,5,0.5,0.5
2023-10-25T19:00:00,1894A,105.4427,28.9063,泸州市,小市上码头,,,66,72,42,50,65,,49,,35,25,25,13,0.7,0.8
2023-10-25T19:00:00,1895A,105.4241,28.8573,泸州市,兰田宪桥,细颗粒物(PM2.5),64,60,69,46,49,55,19,46,44,25,16,4,5,0.8,0.7
2023-10-25T19:00:00,1896A,105.4379,28.8833,泸州市,市环监站,颗粒物(PM10),54,58,63,31,41,58,23,46,40,34,24,5,5,0.8,0.7
2023-10-25T19:00:00,1901A,104.4239,31.1208,德阳市,东山公园,颗粒物(PM10),72,94,149,48,74,91,26,45,34,29,35,1,2,0.7,0.8
2023-10-25T19:00:00,1902A,104.3826,31.1317,德阳市,西小区,细颗粒物(PM2.5),99,99,129,74,94,87,14,30,27,52,48,1,3,1.0,1
2023-10-25T19:00:00,1904A,104.3553,31.1091,德阳市,耐火材料厂,颗粒物(PM10),96,142,152,69,83,60,8,29,29,58,51,1,2,0.9,0.8
2023-10-25T19:00:00,1905A,106.056,30.8064,南充市,西山风景区,,,58,74,60,69,36,32,30,30,,39,6,12,0.6,0.6
2023-10-25T19:00:00,1906A,106.0789,30.8023,南充市,南充市委,细颗粒物(PM2.5),98,93,102,73,80,43,27,37,36,39,38,7,14,0.6,0.7
2023-10-25T19:00:00,1907A,106.1031,30.8217,南充市,南充炼油厂,细颗粒物(PM2.5),80,84,110,59,72,48,34,42,42,32,37,16,20,0.7,0.8
2023-10-25T19:00:00,1908A,106.1064,30.7856,南充市,高坪区监测站,细颗粒物(PM2.5),79,86,118,58,82,50,40,46,46,27,36,13,32,0.5,0.6
2023-10-25T19:00:00,1909A,106.0642,30.7636,南充市,嘉陵区环保局,细颗粒物(PM2.5),83,89,100,61,78,45,29,37,37,35,34,6,22,0.5,0.6
2023-10-25T19:00:00,1910A,106.1087,30.8388,南充市,市环境监测站,细颗粒物(PM2.5),105,83,101,79,77,44,28,34,34,40,41,19,17,0.7,0.8
2023-10-25T19:00:00,1911A,106.9222,27.6869,遵义市,丁字口,,33,26,37,23,31,57,57,47,47,22,19,5,5,0.7,0.8
2023-10-25T19:00:00,1912A,106.9242,27.7019,遵义市,凤凰山,,38,30,36,26,30,60,60,48,48,13,11,7,7,0.6,0.7
2023-10-25T19:00:00,1913A,106.8906,27.6486,遵义市,忠庄,,30,24,37,21,27,67,62,55,55,12,12,2,2,0.6,0.6
2023-10-25T19:00:00,1914A,106.9231,27.6506,遵义市,舟水桥,,33,29,40,23,28,63,63,50,50,24,19,4,3,0.8,0.9
2023-10-25T19:00:00,1915A,106.9178,27.72,遵义市,干田坝,,33,33,41,20,28,58,44,46,46,18,14,5,5,0.6,0.6
2023-10-25T19:00:00,1916A,103.7897,25.5035,曲靖市,环境监测站,,39,39,34,25,19,76,58,67,67,18,15,2,4,0.7,0.6
2023-10-25T19:00:00,1917A,103.8,25.5364,曲靖市,烟厂办公区,,35,35,34,19,19,76,46,64,64,29,15,4,6,0.6,0.5
2023-10-25T19:00:00,1918A,108.7197,34.3956,咸阳市,气象站,,,,,,,,,,,,,,,,
2023-10-25T19:00:00,1919A,108.673,34.3155,咸阳市,实验中学,颗粒物(PM10),61,71,127,31,55,80,46,55,55,52,50,3,3,0.7,0.8
2023-10-25T19:00:00,1920A,108.7233,34.3617,咸阳市,师范学院,颗粒物(PM10),71,91,140,41,69,64,55,53,53,45,53,4,5,0.7,0.9
2023-10-25T19:00:00,1922A,109.0656,35.0994,铜川市,党校,颗粒物(PM10),76,101,76,52,34,100,16,65,64,85,52,9,9,1.0,0.8
2023-10-25T19:00:00,1923A,109.0697,35.0697,铜川市,王益区政府,颗粒物(PM10),72,93,70,40,36,103,20,69,68,68,46,5,5,1.1,0.8
2023-10-25T19:00:00,1924A,108.9344,34.9058,铜川市,新区管委会,颗粒物(PM10),92,134,74,44,31,96,60,82,82,58,34,6,6,0.8,0.6
2023-10-25T19:00:00,1926A,109.4131,36.6275,延安市,枣园,颗粒物(PM10),52,54,39,18,14,120,43,86,86,52,32,8,7,0.4,0.3
2023-10-25T19:00:00,1927A,109.4761,36.6028,延安市,延大医附院,颗粒物(PM10),59,67,55,26,18,92,5,61,58,90,38,4,3,1.0,0.6
2023-10-25T19:00:00,1929A,109.5056,36.6106,延安市,百米大道,颗粒物(PM10),66,81,56,21,19,100,12,60,59,100,53,4,4,0.8,0.6
2023-10-25T19:00:00,1930A,107.185,34.3063,宝鸡市,庙沟村,颗粒物(PM10),55,59,33,20,20,53,41,37,37,20,19,8,8,0.3,0.3
2023-10-25T19:00:00,1931A,107.0708,34.3017,宝鸡市,竹园沟,,29,26,29,20,20,51,32,41,41,24,21,3,3,0.5,0.5
2023-10-25T19:00:00,1932A,107.1906,34.3672,宝鸡市,三陆医院,颗粒物(PM10),74,98,61,50,34,38,6,25,24,66,43,10,14,1.5,0.7
2023-10-25T19:00:00,1933A,107.1431,34.3547,宝鸡市,监测站,颗粒物(PM10),62,74,51,35,30,46,8,23,22,47,35,6,7,0.9,0.7
2023-10-25T19:00:00,1934A,107.1186,34.3739,宝鸡市,技工学校,颗粒物(PM10),74,97,58,49,33,65,7,32,32,63,36,6,8,1.0,0.7
2023-10-25T19:00:00,1935A,107.3906,34.3528,宝鸡市,陈仓区环保局家属楼,颗粒物(PM10),85,119,72,40,46,67,10,35,33,79,45,11,32,1.4,0.9
2023-10-25T19:00:00,1936A,107.2058,34.3497,宝鸡市,文理学院,颗粒物(PM10),83,115,64,41,32,46,4,28,27,73,42,8,9,1.6,0.8
2023-10-25T19:00:00,1937A,107.2386,34.3622,宝鸡市,三迪小学,,,,126,,51,40,8,,,69,58,8,7,,1.2
2023-10-25T19:00:00,1938A,109.5293,34.5101,渭南市,农科所,颗粒物(PM10),68,85,99,44,63,93,1,54,52,88,48,8,8,1.2,1
2023-10-25T19:00:00,1939A,109.4974,34.4877,渭南市,日报社,颗粒物(PM10),80,110,93,41,60,89,4,53,51,106,62,8,12,0.8,0.7
2023-10-25T19:00:00,1940A,109.4636,34.493,渭南市,体育馆,颗粒物(PM10),75,100,99,51,61,91,5,60,59,107,66,5,8,0.8,0.7
2023-10-25T19:00:00,1941A,109.4259,34.5023,渭南市,高新一小,颗粒物(PM10),78,106,108,53,72,94,27,59,59,76,57,5,5,0.7,0.7
2023-10-25T19:00:00,1944A,102.1692,38.5167,金昌市,天庆家园,,45,45,52,12,15,118,79,109,107,41,23,63,14,0.5,0.7
2023-10-25T19:00:00,1945A,98.2908,39.7711,嘉峪关市,气象局,颗粒物(PM10),69,88,66,34,21,113,99,99,99,20,33,6,15,0.1,0.2
2023-10-25T19:00:00,1947A,106.3394,38.817,石嘴山市,沙湖旅游区,颗粒物(PM10),83,115,95,30,48,119,28,98,94,64,40,15,19,0.4,0.5
2023-10-25T19:00:00,1948A,106.3668,39.0145,石嘴山市,大武口朝阳西街,,34,34,61,6,18,105,88,96,95,17,26,8,11,0.1,0.2
2023-10-25T19:00:00,1949A,106.7704,39.2282,石嘴山市,惠农南大街,,48,48,88,17,27,99,49,89,87,52,50,12,27,0.7,1.4
2023-10-25T19:00:00,1950A,106.7099,39.1325,石嘴山市,红果子镇惠新街,颗粒物(PM10),55,60,114,16,39,105,85,96,96,21,55,31,62,0.4,1.1
2023-10-25T19:00:00,1951A,84.895,45.6094,克拉玛依市,长征新村,,35,35,31,7,4,63,58,52,52,10,19,10,9,0.2,0.3
2023-10-25T19:00:00,1952A,84.8988,45.5893,克拉玛依市,南林小区,,31,31,30,4,12,67,61,53,53,9,19,4,5,0.2,0.4
2023-10-25T19:00:00,1954A,84.905,44.3396,克拉玛依市,独山子区,颗粒物(PM10),62,74,59,22,15,61,61,54,54,22,22,12,6,0.5,0.4
2023-10-25T19:00:00,1955A,85.6979,46.098,克拉玛依市,乌尔禾区商贸楼,,40,40,19,10,5,68,57,62,62,10,16,7,6,0.3,0.3
2023-10-25T19:00:00,1956A,86.1472,41.7538,巴音郭楞州,孔雀公园,颗粒物(PM10),85,119,116,26,30,95,76,82,82,11,36,2,3,0.3,0.6
2023-10-25T19:00:00,1957A,86.1972,41.7166,巴音郭楞州,棉纺厂,颗粒物(PM10),89,127,144,30,38,92,80,86,86,10,34,1,2,0.2,0.5
2023-10-25T19:00:00,1958A,86.2357,41.7173,巴音郭楞州,经济开发区,颗粒物(PM10),85,120,137,31,32,99,78,89,89,17,26,2,3,0.3,0.4
2023-10-25T19:00:00,1961A,117.532,36.6868,济南市,东山小学,颗粒物(PM10),77,103,104,42,52,183,95,165,154,60,36,8,8,0.5,0.4
2023-10-25T19:00:00,1966A,120.0405,35.8735,青岛市,黄岛区4号,细颗粒物(PM2.5),113,139,107,85,69,208,175,178,177,37,42,13,14,1.3,1.3
2023-10-25T19:00:00,1982A,122.0693,37.2174,威海市,文登开发区,颗粒物(PM10),79,107,77,53,38,182,165,171,171,23,21,10,9,1.1,0.8
2023-10-25T19:00:00,2031A,113.1817,27.9958,株洲市,云田中学,细颗粒物(PM2.5),94,94,70,70,49,140,53,101,93,26,24,6,9,0.8,0.8
2023-10-25T19:00:00,2054A,114.1099,32.1059,信阳市,平桥分局,细颗粒物(PM2.5),87,76,60,64,45,163,117,129,129,20,22,5,4,0.8,0.7
2023-10-25T19:00:00,2064A,113.9956,32.1271,信阳市,南湾水厂,细颗粒物(PM2.5),79,68,50,58,40,169,129,143,141,12,10,5,4,0.9,0.8
2023-10-25T19:00:00,2065A,114.0775,32.1195,信阳市,市酿酒公司,细颗粒物(PM2.5),79,83,67,58,46,166,124,134,134,18,33,5,4,1.0,1
2023-10-25T19:00:00,2066A,114.0609,32.1399,信阳市,审计局,细颗粒物(PM2.5),84,90,77,62,47,171,127,143,143,20,34,7,5,0.9,0.9
2023-10-25T19:00:00,2067A,114.6613,33.6128,周口市,市环境监测站,细颗粒物(PM2.5),74,95,144,54,98,117,77,100,100,51,53,9,10,0.6,0.7
2023-10-25T19:00:00,2068A,114.6758,33.6347,周口市,周口师范,颗粒物(PM10),67,84,120,44,77,129,76,106,106,49,45,6,6,0.6,0.7
2023-10-25T19:00:00,2069A,114.6546,33.5979,周口市,市运管处,颗粒物(PM10),68,86,151,48,88,131,81,105,105,39,46,5,5,0.7,0.8
2023-10-25T19:00:00,2070A,114.6369,33.6406,周口市,川汇区环保局,"颗粒物(PM10),细颗粒物(PM2.5)",75,100,116,55,83,122,68,95,95,47,44,7,8,0.7,0.8
2023-10-25T19:00:00,2075A,117.6336,24.4674,漳州市,九湖,,,,,,,,,,,,,,,,
2023-10-25T19:00:00,2160A,112.85,35.5051,晋城市,自来水公司,颗粒物(PM10),79,108,81,39,48,130,87,111,111,51,52,9,10,0.9,1.3
2023-10-25T19:00:00,2161A,112.8318,35.4936,晋城市,白云商贸,颗粒物(PM10),73,96,88,36,41,130,82,111,111,47,43,7,7,1.2,1.4
2023-10-25T19:00:00,2162A,112.8508,35.4887,晋城市,市环保局,颗粒物(PM10),84,117,102,41,50,132,90,111,111,46,59,7,8,1.2,1.5
2023-10-25T19:00:00,2163A,112.8676,35.4897,晋城市,技术学院,颗粒物(PM10),61,72,78,41,41,130,88,111,111,45,32,8,10,1.0,1.1
2023-10-25T19:00:00,2165A,112.8453,35.546,晋城市,白马寺,,,,,,,,,,,,,,,,
2023-10-25T19:00:00,2166A,112.4397,39.3522,朔州市,平朔,颗粒物(PM10),56,62,95,25,31,110,43,95,92,48,47,5,14,0.7,0.7
2023-10-25T19:00:00,2167A,112.4575,39.3617,朔州市,朔唯,颗粒物(PM10),65,80,127,36,36,103,41,88,85,52,57,10,19,0.9,0.9
2023-10-25T19:00:00,2168A,112.4258,39.3197,朔州市,区政府,颗粒物(PM10),62,73,91,28,35,106,56,91,90,44,45,7,13,0.6,0.7
2023-10-25T19:00:00,2169A,112.4072,39.3278,朔州市,市环保局,颗粒物(PM10),68,85,90,25,28,106,44,89,88,46,39,8,14,0.7,0.7
2023-10-25T19:00:00,2170A,112.4272,39.3681,朔州市,市二中,颗粒物(PM10),68,86,119,29,35,108,39,93,90,52,53,10,18,0.6,0.7
2023-10-25T19:00:00,2171A,112.7532,37.6945,晋中市,锦纶小区,颗粒物(PM10),108,166,109,56,47,154,46,122,118,94,49,22,16,1.2,0.8
2023-10-25T19:00:00,2173A,112.7249,37.7067,晋中市,南都小区,颗粒物(PM10),103,155,126,74,60,147,33,117,112,110,63,20,18,1.4,0.9
2023-10-25T19:00:00,2174A,112.6991,37.6982,晋中市,榆次区政府,颗粒物(PM10),114,177,109,64,53,148,16,120,113,121,58,16,16,1.4,1
2023-10-25T19:00:00,2175A,110.9956,35.0147,运城市,运城中学,细颗粒物(PM2.5),214,256,195,164,129,167,103,128,128,50,43,10,11,1.2,1.1
2023-10-25T19:00:00,2178A,110.9686,35.0303,运城市,地区技校,细颗粒物(PM2.5),172,234,195,130,111,156,71,121,121,,57,,8,1.3,1
2023-10-25T19:00:00,2179A,111.0414,35.1147,运城市,空港新区,细颗粒物(PM2.5),224,301,211,174,131,162,106,132,132,53,57,12,10,1.1,1
2023-10-25T19:00:00,2181A,112.7383,38.4519,忻州市,开发区,颗粒物(PM10),85,120,81,42,35,109,15,81,78,97,58,11,18,0.6,0.7
2023-10-25T19:00:00,2182A,112.7003,38.4928,忻州市,会展中心,颗粒物(PM10),72,94,86,32,36,100,30,80,76,84,54,10,13,0.6,0.6
2023-10-25T19:00:00,2183A,111.1406,37.5211,吕梁市,环保局,颗粒物(PM10),105,159,118,52,32,109,4,72,69,91,55,4,5,0.8,0.6
2023-10-25T19:00:00,2185A,111.1297,37.5136,吕梁市,自来水公司,颗粒物(PM10),71,92,125,39,38,108,8,77,73,82,47,6,12,1.2,0.8
2023-10-25T19:00:00,2187A,106.8174,39.6973,乌海市,市林业局,,49,49,53,23,20,100,87,98,97,15,24,8,9,0.4,0.7
2023-10-25T19:00:00,2188A,106.7907,39.6667,乌海市,中海勃湾学校,颗粒物(PM10),52,53,56,21,20,105,99,101,101,7,28,7,8,0.3,0.3
2023-10-25T19:00:00,2191A,122.2532,43.6801,通辽市,艺术职业学校,颗粒物(PM10),77,103,94,13,46,118,64,103,93,17,39,5,10,0,0.5
2023-10-25T19:00:00,2192A,119.7594,49.2261,呼伦贝尔市,区环保局,,41,41,39,27,19,66,58,60,60,7,8,4,4,0.2,0.3
2023-10-25T19:00:00,2195A,107.4212,40.761,巴彦淖尔市,附二中,颗粒物(PM10),76,102,96,32,27,99,70,87,87,23,12,6,4,0.4,0.4
2023-10-25T19:00:00,2196A,107.37,40.7372,巴彦淖尔市,市环保大楼,颗粒物(PM10),75,99,105,27,27,104,72,95,94,20,14,8,3,0.4,0.3
2023-10-25T19:00:00,2197A,113.1306,40.9923,乌兰察布市,集宁新区,,38,38,76,13,39,108,85,101,100,13,27,6,9,0.5,0.6
2023-10-25T19:00:00,2200A,122.0392,46.0656,兴安盟,胜华新制药厂,颗粒物(PM10),52,53,62,18,24,92,68,76,75,7,27,2,4,0.4,0.6
2023-10-25T19:00:00,2201A,121.9504,46.0741,兴安盟,科右前旗环保局,,46,46,45,20,21,93,72,77,77,4,22,3,4,0.5,0.7
2023-10-25T19:00:00,2202A,116.1042,43.9317,锡林郭勒盟,市环保监测站,颗粒物(PM10),67,83,38,7,6,77,21,70,62,42,14,9,9,0.4,0.3
2023-10-25T19:00:00,2203A,116.0781,43.9311,锡林郭勒盟,市政府,,36,36,37,14,9,75,25,72,65,49,20,12,10,0.4,0.3
2023-10-25T19:00:00,2204A,105.6467,38.8363,阿拉善盟,西城区西花园,,,31,35,11,14,99,76,97,94,,13,7,7,1.1,1
2023-10-25T19:00:00,2205A,105.6985,38.8411,阿拉善盟,蒙二幼,,29,29,35,9,10,104,84,100,96,22,11,7,7,0.5,0.4
2023-10-25T19:00:00,2206A,105.724,38.8516,阿拉善盟,环保局新楼,,26,25,32,10,10,112,81,105,96,20,6,6,7,0.6,0.5
2023-10-25T19:00:00,2207A,121.6094,41.998,阜新市,工业园区,颗粒物(PM10),181,312,185,61,73,166,61,134,122,83,58,13,18,1.4,1.5
2023-10-25T19:00:00,2208A,121.6697,42.0279,阜新市,长青街,颗粒物(PM10),123,196,181,66,90,151,48,127,117,63,48,11,13,1.6,1.6
2023-10-25T19:00:00,2209A,121.6673,42.0705,阜新市,农业园区,细颗粒物(PM2.5),125,153,155,95,124,149,87,128,128,27,24,13,18,1.1,1.3
2023-10-25T19:00:00,2210A,121.6717,42.0224,阜新市,东苑,颗粒物(PM10),141,231,186,63,79,141,53,116,113,83,63,14,17,1.8,1.9
2023-10-25T19:00:00,2211A,121.6506,42.0498,阜新市,玉龙新城,颗粒物(PM10),152,254,205,61,69,164,51,129,117,68,54,12,14,1.4,1.5
2023-10-25T19:00:00,2212A,123.2,41.1953,辽阳市,宏伟区,颗粒物(PM10),56,61,51,39,36,155,149,151,148,15,12,10,10,0.7,0.6
2023-10-25T19:00:00,2213A,123.1683,41.2495,辽阳市,新华园,颗粒物(PM10),62,74,58,38,36,150,139,144,143,20,16,10,9,1.0,0.9
2023-10-25T19:00:00,2214A,123.2354,41.2639,辽阳市,滨河路,"颗粒物(PM10),细颗粒物(PM2.5)",55,60,55,39,37,130,112,125,121,24,14,10,9,1.1,0.9
2023-10-25T19:00:00,2215A,123.149,41.2991,辽阳市,铁西工业园,颗粒物(PM10),77,104,85,43,39,179,126,152,144,27,20,11,11,0.8,0.7
2023-10-25T19:00:00,2216A,123.8139,42.3022,铁岭市,汇工街西,细颗粒物(PM2.5),144,136,76,110,50,174,156,160,160,31,30,15,15,1.5,1.1
2023-10-25T19:00:00,2217A,123.8649,42.2923,铁岭市,水上乐园,细颗粒物(PM2.5),156,166,83,119,68,170,159,160,160,39,34,10,8,1.6,1.2
2023-10-25T19:00:00,2218A,123.8486,42.2867,铁岭市,银州路东段,细颗粒物(PM2.5),135,188,110,103,54,158,135,113,,54,37,8,7,1.4,1
2023-10-25T19:00:00,2219A,123.7153,42.2217,铁岭市,金沙江路北,细颗粒物(PM2.5),153,153,83,117,61,172,162,163,163,32,36,14,14,1.2,1
2023-10-25T19:00:00,2220A,120.4318,41.5881,朝阳市,西梁,颗粒物(PM10),74,98,120,16,53,120,74,100,100,12,51,11,15,0.6,1.3
2023-10-25T19:00:00,2221A,120.4521,41.5646,朝阳市,河畔小区,,,127,127,12,53,130,77,109,105,,44,7,12,0.5,1.2
2023-10-25T19:00:00,2222A,120.4176,41.5648,朝阳市,八里堡,颗粒物(PM10),113,175,113,16,51,115,71,98,96,15,46,8,12,0.4,1.2
2023-10-25T19:00:00,2223A,120.3806,41.5969,朝阳市,农业园区,颗粒物(PM10),91,132,98,10,51,131,70,110,108,17,48,6,10,0.5,1.1
2023-10-25T19:00:00,2225A,124.4002,43.1713,四平市,一商场,颗粒物(PM10),121,192,147,74,68,158,122,150,147,33,33,9,8,1.1,0.8
2023-10-25T19:00:00,2226A,124.388,43.193,四平市,境园,细颗粒物(PM2.5),168,105,99,127,98,173,133,163,160,20,30,8,9,0.9,0.7
2023-10-25T19:00:00,2227A,125.1358,42.8845,辽源市,环保局,,46,45,80,32,62,176,138,163,160,17,40,9,10,0.9,1.1
2023-10-25T19:00:00,2229A,125.9358,41.7173,通化市,光明,,43,43,55,23,29,153,129,145,141,17,53,7,9,0.4,0.6
2023-10-25T19:00:00,2230A,125.9446,41.7325,通化市,铁路,,49,49,60,30,31,156,130,147,144,15,48,7,7,0.5,0.5
2023-10-25T19:00:00,2231A,126.4219,41.9171,白山市,喜丰,颗粒物(PM10),51,52,86,26,37,144,128,137,137,8,40,7,9,0.7,0.9
2023-10-25T19:00:00,2232A,126.4077,41.9419,白山市,环保局,颗粒物(PM10),65,79,72,46,40,144,87,131,127,35,36,12,10,1.1,1.1
2023-10-25T19:00:00,2233A,124.8006,45.1214,松原市,江南,细颗粒物(PM2.5),160,146,95,122,62,153,83,127,124,47,32,9,14,1.0,0.7
2023-10-25T19:00:00,2234A,124.7965,45.1722,松原市,江北,细颗粒物(PM2.5),153,123,70,117,57,142,89,122,120,24,30,5,6,1.0,0.6
2023-10-25T19:00:00,2235A,122.7911,45.6077,白城市,洮北区环保局,细颗粒物(PM2.5),74,56,81,54,50,114,84,102,102,8,32,4,5,0.5,0.7
2023-10-25T19:00:00,2236A,122.8738,45.5725,白城市,市环保局,颗粒物(PM10),59,67,77,10,38,101,69,91,90,8,39,5,11,0.2,0.7
2023-10-25T19:00:00,2237A,129.47,42.8883,延边朝鲜族自治州,妇幼医院,细颗粒物(PM2.5),80,98,74,59,50,141,30,110,101,84,41,8,10,1.0,0.8
2023-10-25T19:00:00,2238A,129.5055,42.9108,延边朝鲜族自治州,延边医院,细颗粒物(PM2.5),109,149,85,82,58,134,30,91,89,86,54,24,9,1.3,1.1
2023-10-25T19:00:00,2239A,129.3964,42.8881,延边朝鲜族自治州,朝阳川镇医院,细颗粒物(PM2.5),105,99,68,79,44,151,23,117,111,59,27,8,9,1.1,0.7
2023-10-25T19:00:00,2240A,130.9762,45.3001,鸡西市,环保局,颗粒物(PM10),67,83,65,32,37,96,4,66,50,80,25,10,6,1.2,0.5
2023-10-25T19:00:00,2243A,130.9429,45.3039,鸡西市,第一中学,颗粒物(PM10),71,92,56,31,35,118,4,76,62,82,18,30,8,0.6,0.3
2023-10-25T19:00:00,2244A,130.2537,47.3416,鹤岗市,哈啤分公司,颗粒物(PM10),69,88,52,46,32,104,46,70,66,48,17,14,13,0.6,0.3
2023-10-25T19:00:00,2245A,130.2684,47.3086,鹤岗市,斯达机电,细颗粒物(PM2.5),77,94,67,56,39,112,56,70,70,39,22,11,11,0.7,0.6
2023-10-25T19:00:00,2246A,130.3114,47.3388,鹤岗市,东山纸板厂,颗粒物(PM10),89,128,103,56,43,85,35,66,58,63,34,13,14,0.7,0.6
2023-10-25T19:00:00,2247A,130.1097,47.3382,鹤岗市,五号水库,细颗粒物(PM2.5),69,80,61,50,30,94,31,78,70,46,18,10,11,0.8,0.6
2023-10-25T19:00:00,2248A,131.1511,46.6937,双鸭山市,双合村,颗粒物(PM10),104,157,115,52,51,134,43,80,76,44,22,10,12,0.8,0.8
2023-10-25T19:00:00,2249A,131.1652,46.6191,双鸭山市,南小市,细颗粒物(PM2.5),159,149,94,121,63,113,60,70,70,30,23,10,11,0.7,0.7
2023-10-25T19:00:00,2250A,131.1524,46.6554,双鸭山市,环保局,,,109,98,72,54,120,42,37,,,27,8,10,0.5,0.8
2023-10-25T19:00:00,2251A,131.12,46.5656,双鸭山市,苗圃,细颗粒物(PM2.5),68,62,57,49,44,110,70,98,95,14,11,2,4,0.5,0.5
2023-10-25T19:00:00,2252A,128.5159,47.4311,伊春市,环保局,,40,40,49,17,41,79,30,63,59,38,21,12,6,0.6,0.6
2023-10-25T19:00:00,2253A,128.9102,47.7412,伊春市,电力嘉园,,42,42,52,25,31,92,27,60,54,35,19,10,5,0.5,0.4
2023-10-25T19:00:00,2254A,129.5029,48.471,伊春市,汤旺河国家公园,,26,26,40,16,23,74,38,63,62,5,6,5,4,0.2,0.3
2023-10-25T19:00:00,2255A,130.2751,46.8028,佳木斯市,佳纺,细颗粒物(PM2.5),74,90,101,54,68,99,15,79,70,76,44,4,4,0.8,0.8
2023-10-25T19:00:00,2256A,130.3995,46.8307,佳木斯市,发电厂,颗粒物(PM10),92,133,95,59,52,100,17,38,,65,30,8,6,0.7,0.9
2023-10-25T19:00:00,2257A,130.3258,46.7975,佳木斯市,环保局,细颗粒物(PM2.5),54,53,81,38,61,94,26,78,75,67,43,4,5,0.9,0.8
2023-10-25T19:00:00,2258A,130.3648,46.8032,佳木斯市,十一中,细颗粒物(PM2.5),67,72,98,48,69,84,23,68,65,67,46,2,4,0.8,0.8
2023-10-25T19:00:00,2259A,130.3794,46.7588,佳木斯市,四丰,颗粒物(PM10),52,54,69,33,50,127,87,100,100,16,24,1,1,0.2,0.5
2023-10-25T19:00:00,2262A,131.0518,45.8751,七台河市,新一中,细颗粒物(PM2.5),65,73,65,47,46,119,46,98,88,43,22,7,9,0.7,0.7
2023-10-25T19:00:00,2263A,127.4833,50.2524,黑河市,交通局,,44,44,35,22,19,62,61,50,50,14,20,7,8,0.3,0.3
2023-10-25T19:00:00,2264A,127.5144,50.2341,黑河市,环保局,颗粒物(PM10),52,54,43,21,19,66,65,60,60,12,22,4,8,0.4,0.5
2023-10-25T19:00:00,2265A,127.5291,50.2472,黑河市,大黑河岛,,,46,38,24,25,,,,,2,2,1,3,,
2023-10-25T19:00:00,2266A,126.9785,46.6365,绥化市,人和东街,颗粒物(PM10),55,60,68,21,40,82,47,66,66,35,35,17,9,0.5,0.6
2023-10-25T19:00:00,2267A,126.964,46.6528,绥化市,党政办公中心,颗粒物(PM10),52,54,60,24,40,85,62,67,67,24,32,11,9,0.4,0.5
2023-10-25T19:00:00,2269A,124.1069,50.4097,大兴安岭地区,科技局,,26,14,57,18,41,67,63,50,50,3,24,6,9,0.1,0.4
2023-10-25T19:00:00,2270A,117.396,32.939,蚌埠市,工人疗养院,颗粒物(PM10),68,86,91,42,50,168,113,153,152,39,35,5,16,0.7,0.9
2023-10-25T19:00:00,2271A,117.3605,32.9427,蚌埠市,百货大楼,颗粒物(PM10),66,82,91,41,48,165,120,150,150,34,44,6,10,0.6,0.9
2023-10-25T19:00:00,2273A,117.4185,32.8911,蚌埠市,蚌埠学院,颗粒物(PM10),75,100,84,47,49,172,107,149,149,45,35,12,12,0.6,0.8
2023-10-25T19:00:00,2274A,117.3533,32.9673,蚌埠市,淮上区政府,颗粒物(PM10),87,124,92,57,58,163,85,147,142,63,38,10,11,0.6,0.8
2023-10-25T19:00:00,2275A,117.3145,32.8977,蚌埠市,高新区,颗粒物(PM10),71,92,95,50,58,168,92,148,145,62,54,7,11,0.6,0.9
2023-10-25T19:00:00,2277A,116.8305,32.7727,淮南市,潘集区政府,颗粒物(PM10),96,142,91,56,52,157,63,134,127,76,47,11,14,0.8,0.6
2023-10-25T19:00:00,2278A,117.0067,32.6524,淮南市,师范学院,,,,87,,50,156,101,142,136,44,58,12,10,,0.9
2023-10-25T19:00:00,2279A,116.8569,32.5951,淮南市,谢家集区政府,颗粒物(PM10),60,69,58,38,35,162,118,125,125,49,48,12,12,0.7,0.4
2023-10-25T19:00:00,2280A,116.8281,32.633,淮南市,八公山区政府,颗粒物(PM10),72,93,64,48,35,149,95,126,125,47,30,13,10,0.8,0.5
2023-10-25T19:00:00,2281A,116.6325,32.6201,淮南市,焦岗湖风景区管理处,颗粒物(PM10),51,52,58,29,36,139,90,115,115,23,40,2,2,0.4,0.4
2023-10-25T19:00:00,2282A,116.8004,33.975,淮北市,监测站,颗粒物(PM10),67,84,109,38,67,178,91,154,147,62,45,11,13,0.9,0.9
2023-10-25T19:00:00,2283A,116.8091,33.9007,淮北市,烈山区政府,细颗粒物(PM2.5),92,131,150,68,98,179,91,157,149,64,57,8,12,0.6,0.7
2023-10-25T19:00:00,2285A,117.8177,30.9412,铜陵市,市第四中学,细颗粒物(PM2.5),72,85,76,52,42,136,101,112,112,35,52,11,10,1.2,1.1
2023-10-25T19:00:00,2286A,117.8059,30.9273,铜陵市,市公路局,颗粒物(PM10),80,109,71,30,26,131,67,102,102,53,41,11,12,1.2,1.1
2023-10-25T19:00:00,2287A,117.7807,30.9413,铜陵市,市新民污水厂,颗粒物(PM10),75,99,84,41,39,119,68,71,71,67,68,10,11,1.0,0.8
2023-10-25T19:00:00,2288A,117.7439,30.8792,铜陵市,市第九中学,细颗粒物(PM2.5),89,126,117,66,46,71,16,32,30,111,79,7,9,1.1,1.1
2023-10-25T19:00:00,2289A,117.846,30.9413,铜陵市,车站新区,细颗粒物(PM2.5),79,88,61,58,39,131,69,100,100,61,51,8,7,0.9,0.7
2023-10-25T19:00:00,2290A,117.8483,30.97,铜陵市,市职教基地,细颗粒物(PM2.5),74,95,74,54,43,106,64,86,86,39,41,10,11,1.2,0.9
2023-10-25T19:00:00,2291A,117.0809,30.5177,安庆市,环科院,二氧化氮,71,89,77,51,48,126,4,94,86,142,72,11,9,1.2,0.9
2023-10-25T19:00:00,2292A,117.0331,30.5119,安庆市,马山宾馆,细颗粒物(PM2.5),124,93,78,94,59,123,39,105,102,122,74,18,8,1.1,0.9
2023-10-25T19:00:00,2294A,116.9896,30.6145,安庆市,安庆大学,细颗粒物(PM2.5),94,106,66,70,47,126,55,96,96,65,46,7,8,1.0,0.8
2023-10-25T19:00:00,2295A,118.2903,29.6963,黄山市,延安路89号,细颗粒物(PM2.5),99,110,56,74,27,88,35,72,72,25,15,6,5,0.7,0.5
2023-10-25T19:00:00,2296A,118.327,29.7178,黄山市,黄山东路89号,颗粒物(PM10),69,88,51,47,26,84,20,71,67,35,18,5,5,1.0,0.7
2023-10-25T19:00:00,2297A,118.1371,30.2756,黄山市,黄山区政府5号楼,细颗粒物(PM2.5),70,76,50,51,31,110,32,83,80,21,12,8,6,0.9,0.7
2023-10-25T19:00:00,2298A,118.3093,32.3153,滁州市,老年大学,细颗粒物(PM2.5),105,99,65,79,44,198,66,159,154,62,40,11,11,1.5,0.8
2023-10-25T19:00:00,2299A,118.3244,32.2786,滁州市,人大宾馆,细颗粒物(PM2.5),100,113,80,75,55,186,39,149,137,90,52,12,14,1.4,0.9
2023-10-25T19:00:00,2301A,115.8277,32.8929,阜阳市,市监测站,颗粒物(PM10),64,77,85,36,59,160,98,134,134,37,39,8,9,0.7,0.8
2023-10-25T19:00:00,2303A,115.8554,32.8605,阜阳市,开发区,颗粒物(PM10),61,72,108,39,66,159,111,132,132,30,46,8,10,0.7,0.8
2023-10-25T19:00:00,2307A,116.5079,31.737,六安市,监测大楼,颗粒物(PM10),53,55,53,26,27,100,78,74,74,40,40,5,5,0.5,0.4
2023-10-25T19:00:00,2308A,116.4738,31.7643,六安市,皖西学院,颗粒物(PM10),62,74,64,30,30,82,54,70,70,49,49,10,7,0.6,0.6
2023-10-25T19:00:00,2309A,116.4996,31.7905,六安市,朝阳厂,颗粒物(PM10),64,77,62,43,38,86,40,63,63,65,50,8,8,0.7,0.6
2023-10-25T19:00:00,2310A,116.5567,31.7886,六安市,开发区,颗粒物(PM10),65,79,80,35,35,104,50,71,71,30,33,6,8,0.6,0.6
2023-10-25T19:00:00,2311A,115.8072,33.8399,亳州市,污水处理厂,颗粒物(PM10),72,94,114,41,66,163,91,137,135,66,53,9,19,0.8,0.8
2023-10-25T19:00:00,2312A,115.7789,33.8518,亳州市,三国揽胜宫,细颗粒物(PM2.5),63,74,104,45,77,174,115,159,155,41,34,9,18,0.4,0.7
2023-10-25T19:00:00,2314A,117.47,30.6618,池州市,池州学院,细颗粒物(PM2.5),78,99,71,57,44,121,74,106,106,35,30,11,10,0.8,1
2023-10-25T19:00:00,2316A,118.7581,30.9454,宣城市,鳌峰子站,细颗粒物(PM2.5),73,85,61,53,35,110,109,105,105,20,27,6,5,0.8,0.6
2023-10-25T19:00:00,2317A,118.7385,30.9743,宣城市,敬亭山子站,细颗粒物(PM2.5),64,76,52,46,32,111,98,101,101,19,24,9,8,0.8,0.5
2023-10-25T19:00:00,2318A,118.7173,30.9427,宣城市,开发区子站,细颗粒物(PM2.5),83,83,67,61,40,117,102,105,105,32,42,7,6,0.8,0.6
2023-10-25T19:00:00,2319A,119.0141,25.4325,莆田市,荔城区仓后路,,24,24,36,16,19,115,66,94,91,16,16,6,6,0.7,0.8
2023-10-25T19:00:00,2320A,119.0015,25.4553,莆田市,莆田市监测站,,,14,28,17,16,123,60,98,95,,8,8,8,0.8,0.7
2023-10-25T19:00:00,2321A,119.1119,25.4561,莆田市,涵江区六中,,25,22,30,9,17,111,78,91,90,8,12,8,8,0.7,0.6
2023-10-25T19:00:00,2322A,119.1013,25.3215,莆田市,秀屿区政府,,22,5,31,15,18,107,70,90,88,14,13,9,7,0.6,0.6
2023-10-25T19:00:00,2323A,118.981,25.4792,莆田市,东圳水库,,,,,,,,,,,,,,,,
2023-10-25T19:00:00,2324A,117.6211,26.2625,三明市,三钢,细颗粒物(PM2.5),88,82,36,65,27,133,42,101,99,44,26,8,10,0.8,0.7
2023-10-25T19:00:00,2325A,117.635,26.2714,三明市,三明二中,,49,33,31,34,23,128,55,100,100,31,20,4,7,0.9,0.8
2023-10-25T19:00:00,2326A,117.6028,26.2378,三明市,三元区政府,颗粒物(PM10),64,77,41,33,24,131,20,95,91,54,29,10,16,1.3,1.3
2023-10-25T19:00:00,2327A,117.7275,26.3108,三明市,洋溪,,,,,,,,,,,,,,,,
2023-10-25T19:00:00,2331A,118.0966,26.6761,南平市,茫荡山,,,,,,,,,,,,,,,,
2023-10-25T19:00:00,2332A,118.1681,26.6369,南平市,南平市监测站,,,53,32,31,21,113,,96,96,22,19,5,4,1.0,0.6
2023-10-25T19:00:00,2333A,118.1825,26.6489,南平市,南平铝业有限公司,,50,46,32,35,26,109,66,92,92,21,20,5,6,0.7,0.6
2023-10-25T19:00:00,2334A,118.1756,26.6272,南平市,南平七中,细颗粒物(PM2.5),74,46,29,54,22,115,58,95,94,26,14,5,4,0.7,0.5
2023-10-25T19:00:00,2335A,117.0189,25.1181,龙岩市,龙岩师专,,,,,,,,,,,,,,,,
2023-10-25T19:00:00,2336A,117.0217,25.1033,龙岩市,龙岩市监测站,,40,40,36,24,22,126,65,101,101,32,22,6,6,0.9,0.6
2023-10-25T19:00:00,2337A,117.0258,25.0661,龙岩市,闽西职业技术学院,颗粒物(PM10),54,58,45,25,21,124,50,100,98,41,30,8,8,0.9,0.7
2023-10-25T19:00:00,2338A,117.0196,25.0306,龙岩市,龙岩学院,,,37,35,16,20,120,,109,109,8,17,,5,0.4,0.6
2023-10-25T19:00:00,2339A,119.5001,26.6946,宁德市,金涵水库,,,,,,,,,,,,,,,,
2023-10-25T19:00:00,2341A,119.5388,26.6612,宁德市,宁德市监测站,,,22,29,16,20,128,68,100,99,,14,,7,0.5,0.6
2023-10-25T19:00:00,2342A,117.3102,29.3867,景德镇市,王港中学,,,58,38,54,28,72,,56,54,2,6,2,2,0.4,0.4
2023-10-25T19:00:00,2343A,117.2117,29.2933,景德镇市,老干部活动中心,细颗粒物(PM2.5),89,85,58,66,37,77,22,62,57,45,28,18,13,1.0,0.6
2023-10-25T19:00:00,2344A,117.1894,29.2789,景德镇市,兽医站,细颗粒物(PM2.5),93,92,62,69,42,84,26,61,55,45,26,18,13,1.4,1
2023-10-25T19:00:00,2345A,117.1547,29.2617,景德镇市,台达陶瓷,细颗粒物(PM2.5),89,116,60,66,39,73,18,62,55,73,32,41,15,1.2,0.7
2023-10-25T19:00:00,2346A,117.2461,29.2956,景德镇市,陶研所,颗粒物(PM10),77,104,71,50,31,63,26,39,37,19,10,9,6,0.8,0.6
2023-10-25T19:00:00,2347A,114.0997,27.5002,萍乡市,武功山,,43,43,25,28,18,130,88,112,112,11,8,8,8,0.3,0.2
2023-10-25T19:00:00,2348A,113.8385,27.6434,萍乡市,中医院,细颗粒物(PM2.5),60,66,84,43,58,135,105,124,123,16,28,17,34,0.8,1.1
2023-10-25T19:00:00,2349A,113.8493,27.6253,萍乡市,市政府车库,细颗粒物(PM2.5),69,74,90,50,59,123,95,63,,21,35,28,34,1.3,1.7
2023-10-25T19:00:00,2350A,113.8676,27.6435,萍乡市,市环保局,细颗粒物(PM2.5),77,72,88,56,63,139,102,124,124,17,28,20,34,0.7,0.9
2023-10-25T19:00:00,2351A,113.866,27.6198,萍乡市,安源区政府,颗粒物(PM10),62,74,87,37,59,137,98,124,124,24,29,25,31,1.4,1
2023-10-25T19:00:00,2352A,115.0861,27.9317,新余市,北岗,细颗粒物(PM2.5),77,67,68,56,56,94,43,74,73,38,26,43,42,0.8,0.7
2023-10-25T19:00:00,2353A,114.9886,27.8431,新余市,飞宇,颗粒物(PM10),69,88,96,49,51,99,46,76,75,45,52,65,31,1.0,0.8
2023-10-25T19:00:00,2354A,114.9231,27.8246,新余市,第二水厂,细颗粒物(PM2.5),68,74,102,49,58,113,62,97,97,50,48,29,16,0.7,0.7
2023-10-25T19:00:00,2355A,114.9308,27.8036,新余市,市气象局,细颗粒物(PM2.5),77,88,89,56,60,99,47,85,84,55,44,26,13,1.0,1.2
2023-10-25T19:00:00,2357A,116.9822,28.1136,鹰潭市,龙虎山,颗粒物(PM10),70,89,42,32,9,63,8,31,27,32,11,9,6,0.5,0.1
2023-10-25T19:00:00,2358A,117.0564,28.2642,鹰潭市,新监测站,颗粒物(PM10),73,96,76,43,45,84,7,32,31,60,36,15,24,0.8,0.8
2023-10-25T19:00:00,2359A,117.0311,28.2475,鹰潭市,财苑宾馆,细颗粒物(PM2.5),89,108,81,66,51,47,11,31,31,53,37,24,32,1.0,0.7
2023-10-25T19:00:00,2360A,117.0222,28.2264,鹰潭市,体育馆,细颗粒物(PM2.5),122,135,81,92,53,48,13,31,30,60,34,38,26,1.2,0.8
2023-10-25T19:00:00,2361A,117.0017,28.2131,鹰潭市,三川水表,细颗粒物(PM2.5),113,152,79,85,50,62,8,29,25,53,24,27,16,1.1,0.7
2023-10-25T19:00:00,2362A,114.9017,25.9149,赣州市,通天岩,,,,,,,,,,,,,,,,
2023-10-25T19:00:00,2363A,114.9367,25.8664,赣州市,地委,颗粒物(PM10),66,82,55,21,26,147,54,118,117,54,30,11,15,1.2,1
2023-10-25T19:00:00,2364A,114.9461,25.8481,赣州市,气象台,颗粒物(PM10),51,52,52,21,28,151,53,118,114,74,46,8,13,1.1,0.9
2023-10-25T19:00:00,2365A,114.9322,25.8333,赣州市,市图书馆,颗粒物(PM10),57,64,61,29,25,137,55,112,112,57,36,18,14,1.1,0.9
2023-10-25T19:00:00,2366A,114.8905,25.8471,赣州市,华坚鞋城,颗粒物(PM10),64,77,59,35,31,153,25,117,107,80,37,16,16,1.6,1.2
2023-10-25T19:00:00,2367A,114.9754,27.0803,吉安市,红声器材厂,颗粒物(PM10),62,74,83,40,59,142,102,123,123,22,31,14,14,1.0,0.9
2023-10-25T19:00:00,2368A,114.9658,27.0999,吉安市,市森林工业局,细颗粒物(PM2.5),67,71,77,48,52,141,100,125,125,25,29,21,17,1.0,0.9
2023-10-25T19:00:00,2369A,114.99,27.1312,吉安市,市环境监测站,"颗粒物(PM10),细颗粒物(PM2.5)",60,69,76,43,49,140,105,124,124,23,30,15,13,0.8,0.8
2023-10-25T19:00:00,2370A,115.0093,27.0968,吉安市,青原区法院,细颗粒物(PM2.5),63,68,81,45,58,143,104,127,127,22,30,16,15,0.9,0.9
2023-10-25T19:00:00,2371A,114.3408,27.8064,宜春市,槟榔水业,颗粒物(PM10),59,67,80,39,51,133,90,112,112,34,37,8,12,0.6,0.6
2023-10-25T19:00:00,2373A,114.3956,27.7844,宜春市,市石油公司,颗粒物(PM10),61,72,94,40,62,128,95,109,109,20,29,10,11,0.4,0.5
2023-10-25T19:00:00,2374A,114.3703,27.7914,宜春市,市气象局,颗粒物(PM10),62,73,95,40,61,126,94,107,107,26,40,9,14,0.8,1
2023-10-25T19:00:00,2375A,114.4013,27.8074,宜春市,市广电局,细颗粒物(PM2.5),60,57,74,43,51,130,104,114,114,24,31,11,18,0.8,0.8
2023-10-25T19:00:00,2376A,116.2127,28.0814,抚州市,桐源党溪,细颗粒物(PM2.5),84,86,62,62,42,59,24,44,44,23,17,2,4,1.3,1
