timepoint,stationcode,longitude,latitude,area,positionname,primarypollutant,aqi,pm10,pm10_24h,pm2_5,pm2_5_24h,o3,o3_24h,o3_8h,o3_8h_24h,no2,no2_24h,so2,so2_24h,co,co_24h
2025-06-04T1700,2566A,102.1879,31.914,阿坝藏族羌族自治州,州农科所,,22,,19,7,8,68,,62,62,11,7,12,11,0.4,0.4
2025-06-04T1700,2568A,102.2502,31.8896,阿坝藏族羌族自治州,马师校,,21,,15,12,16,67,,61,61,11,10,5,5,0.6,0.6
2025-06-04T1700,3994A,102.2165,31.9024,阿坝藏族羌族自治州,马尔康中学西区,,25,18,16,11,15,79,,68,68,4,5,5,5,0.4,0.4
2025-06-04T1700,2695A,80.292,41.1694,阿克苏地区,电视台,颗粒物(PM10),103,156,194,49,73,128,,94,94,12,23,6,5,0.1,0.2
2025-06-04T1700,2696A,80.2613,41.1551,阿克苏地区,艺术中心,颗粒物(PM10),116,182,196,58,76,123,,92,92,5,22,4,3,0.3,0.4
2025-06-04T1700,2204A,105.6467,38.8363,阿拉善盟,西城区西花园,,,,16,,12,164,,145,145,9,10,,6,0.3,0.6
2025-06-04T1700,2205A,105.6985,38.8411,阿拉善盟,蒙二幼,,45,34,22,6,6,144,,123,123,8,7,10,10,0.2,0.3
2025-06-04T1700,2206A,105.724,38.8516,阿拉善盟,环保局新楼,,50,24,19,3,4,160,,138,138,6,5,9,9,0.3,0.3
2025-06-04T1700,2708A,88.1264,47.8517,阿勒泰地区,市站,,34,19,28,13,8,106,,86,86,13,10,2,2,0.3,0.4
2025-06-04T1700,2630A,80.1161,32.5,阿里地区,阿里监测站,,50,6,7,3,5,158,,149,149,3,6,7,7,0.3,0.3
2025-06-04T1700,3192A,80.0903,32.5028,阿里地区,阿里藏医院,臭氧1小时,53,35,21,3,5,162,,158,158,1,3,6,6,0.4,0.5
2025-06-04T1700,2642A,109.0318,32.6537,安康市,香溪洞,,44,44,42,18,18,90,,62,62,5,9,8,7,0.6,0.6
2025-06-04T1700,2644A,109.0072,32.6975,安康市,汉滨区检察院,,46,46,42,26,19,102,,73,73,8,13,7,8,0.7,0.7
2025-06-04T1700,4054A,109.0325,32.6913,安康市,市邮政管理局,,42,42,45,20,21,92,,66,66,14,15,5,8,0.7,0.8
2025-06-04T1700,2291A,117.0809,30.5177,安庆市,环科院,臭氧1小时,53,33,32,22,18,162,,132,132,5,28,3,4,0.5,0.5
2025-06-04T1700,2292A,117.0331,30.5119,安庆市,马山宾馆,,50,30,30,18,19,157,,132,132,7,34,4,5,0.4,0.4
2025-06-04T1700,2294A,116.9896,30.6145,安庆市,安庆大学,,50,23,38,21,26,157,,141,141,8,31,5,6,0.5,0.5
2025-06-04T1700,3173A,117.0598,30.5351,安庆市,市人大,臭氧1小时,60,39,32,19,19,168,,143,143,6,21,4,6,0.4,0.5
2025-06-04T1700,3122A,105.9606,26.2611,安顺市,伍家关,,34,33,25,20,13,106,,98,98,9,9,4,3,0.4,0.3
2025-06-04T1700,3123A,105.9408,26.2431,安顺市,凤凰山,,41,37,25,21,17,129,,114,114,8,8,9,9,0.4,0.4
2025-06-04T1700,3124A,105.9439,26.2564,安顺市,金钟山,,39,28,21,26,19,122,,108,108,6,7,8,7,0.2,0.3
2025-06-04T1700,3125A,105.8983,26.2481,安顺市,娄家坡,,38,37,27,26,19,120,,108,108,7,9,6,8,0.4,0.4
2025-06-04T1700,1818A,114.4839,36.0621,安阳市,棉研所,,,,,,,,,,,,,,,,
2025-06-04T1700,1819A,114.3551,36.1017,安阳市,红庙街,臭氧1小时,95,50,84,9,14,196,,168,168,1,9,3,5,0,0.3
2025-06-04T1700,1820A,114.361,36.0681,安阳市,银杏小区,臭氧1小时,93,53,76,29,15,194,,172,172,2,13,3,5,0.2,0.4
2025-06-04T1700,3141A,114.3922,36.0878,安阳市,信访局,臭氧1小时,90,63,80,22,19,192,,170,170,11,15,4,5,0.4,0.5
2025-06-04T1700,3669A,114.4705,36.0637,安阳市,左辅环卫站,臭氧1小时,90,57,86,10,19,192,,168,168,7,18,4,6,0.3,0.4
2025-06-04T1700,3703A,114.2917,36.0949,安阳市,安钢职工学校,臭氧1小时,82,51,79,16,18,185,,160,160,2,14,4,14,0.3,0.6
2025-06-04T1700,1748A,123.044,41.1196,鞍山市,深沟寺,,39,14,23,7,8,123,,102,102,10,19,6,15,0.5,1.1
2025-06-04T1700,1749A,123.011,41.0931,鞍山市,太阳城,,37,10,12,3,5,117,,97,97,13,15,21,14,1.0,0.7
2025-06-04T1700,1750A,123.0485,41.1442,鞍山市,太平,,37,17,20,3,8,116,,97,97,13,15,8,11,0.8,0.8
2025-06-04T1700,1751A,122.9642,41.0971,鞍山市,铁西三道街,,38,20,27,8,8,120,,100,100,15,19,12,9,0.7,0.6
2025-06-04T1700,1753A,123.022,41.0821,鞍山市,明达新区,,35,15,19,9,8,110,,92,92,14,15,18,12,0.8,0.6
2025-06-04T1700,1754A,123.1289,41.0228,鞍山市,千山,,,,21,,5,,,62,,,15,,8,,0.6
2025-06-04T1700,4201A,122.9446,41.0826,鞍山市,兴盛南路290号,,36,18,24,8,7,115,,97,97,14,18,10,7,0.6,0.5
2025-06-04T1700,2195A,107.4212,40.761,巴彦淖尔市,附二中,,36,14,17,7,13,115,,106,106,4,10,6,8,0.3,0.4
2025-06-04T1700,2196A,107.37,40.7372,巴彦淖尔市,市环保大楼,,35,20,23,15,18,111,,108,108,6,13,6,6,0.2,0.2
2025-06-04T1700,1956A,86.1472,41.7538,巴音郭楞蒙古自治州,孔雀公园,,33,24,39,14,12,103,,105,105,11,11,8,8,0.2,0.2
2025-06-04T1700,1957A,86.1972,41.7166,巴音郭楞蒙古自治州,棉纺厂,,36,19,50,6,10,114,,104,104,5,13,3,4,0.2,0.2
2025-06-04T1700,1958A,86.2357,41.7173,巴音郭楞蒙古自治州,经济开发区,,36,20,35,3,7,115,,107,107,2,6,8,11,0.2,0.2
2025-06-04T1700,2914A,106.7677,31.8794,巴中市,苏山坪,,44,22,31,10,22,138,,90,90,11,13,4,4,0.3,0.5
2025-06-04T1700,3181A,106.7768,31.8526,巴中市,市五中,,43,28,38,13,26,135,,86,86,15,18,7,7,0.5,0.6
2025-06-04T1700,3183A,106.7418,31.8654,巴中市,圣泉水务公司,,46,21,28,13,18,145,,95,95,9,19,5,5,0.5,0.6
2025-06-04T1700,3616A,106.7616,31.8344,巴中市,市中心医院,,50,,37,35,28,141,,84,84,10,22,6,6,0.4,0.6
2025-06-04T1700,2235A,122.7911,45.6077,白城市,洮北区环保局,,36,22,14,8,5,113,,103,103,8,8,2,3,0.2,0.2
2025-06-04T1700,2236A,122.8738,45.5725,白城市,市环保局,,33,14,8,10,7,103,,97,97,2,3,4,4,0.3,0.4
2025-06-04T1700,2231A,126.4219,41.9171,白山市,喜丰,,25,21,18,6,8,80,,60,60,8,10,6,5,0.5,0.8
2025-06-04T1700,2232A,126.4077,41.9419,白山市,环保局,,27,21,19,7,8,85,,62,62,9,11,3,4,0.6,0.8
2025-06-04T1700,2647A,104.1724,36.5446,白银市,第三小学,,36,28,36,8,15,115,,108,108,4,16,7,43,0.3,0.5
2025-06-04T1700,2648A,104.1465,36.5482,白银市,动力公司,,37,25,30,7,14,118,,112,112,7,14,9,18,0.3,0.5
2025-06-04T1700,2512A,106.6103,23.9011,百色市,市监测站,,19,18,22,11,12,58,,58,58,11,10,3,4,0.5,0.5
2025-06-04T1700,2513A,106.6538,23.8859,百色市,市中心血站,,23,15,27,13,13,71,,68,68,6,12,2,3,0.7,0.7
2025-06-04T1700,3406A,106.6085,23.8798,百色市,祈福高中,,37,37,29,14,13,65,,62,62,6,10,4,4,0.6,0.6
2025-06-04T1700,2270A,117.396,32.939,蚌埠市,工人疗养院,臭氧1小时,85,54,79,18,37,188,,198,198,5,11,3,5,0.4,0.6
2025-06-04T1700,2271A,117.3605,32.9427,蚌埠市,百货大楼,臭氧1小时,82,68,75,21,38,185,,199,199,14,13,7,8,0.4,0.5
2025-06-04T1700,2273A,117.4185,32.8911,蚌埠市,蚌埠学院,臭氧1小时,78,48,67,22,43,182,,191,190,8,13,4,5,0.3,0.5
2025-06-04T1700,2274A,117.3533,32.9673,蚌埠市,淮上区政府,臭氧1小时,90,48,71,25,41,192,,204,204,12,16,6,7,0.4,0.5
2025-06-04T1700,2275A,117.3145,32.8977,蚌埠市,高新区,臭氧1小时,101,80,81,34,45,202,,205,205,18,21,7,7,0.5,0.6
2025-06-04T1700,3715A,117.3092,32.9314,蚌埠市,蚌埠田家炳中学,臭氧1小时,104,66,79,34,44,208,,212,212,12,17,7,11,0.4,0.5
2025-06-04T1700,1585A,109.8756,40.6532,包头市,市环境监测站,,40,,23,13,10,125,,105,105,10,28,14,16,0.4,0.6
2025-06-04T1700,1587A,109.9991,40.5842,包头市,包头八中,,41,13,21,3,7,131,,109,109,7,22,9,12,0.4,0.6
2025-06-04T1700,1588A,109.8538,40.6821,包头市,青山宾馆,,39,8,18,3,8,123,,111,111,7,25,12,15,0.5,0.4
2025-06-04T1700,1589A,109.8642,40.6288,包头市,惠龙物流,,41,12,21,8,11,129,,106,106,10,24,11,13,0.3,0.4
2025-06-04T1700,1590A,110.0377,40.5546,包头市,东河鸿龙湾,,42,7,22,3,4,132,,107,107,14,32,6,8,0.2,0.3
2025-06-04T1700,3283A,109.9154,40.5685,包头市,滨河大厦,,42,9,13,3,7,132,,109,109,6,20,6,7,0.3,0.4
2025-06-04T1700,3419A,109.9447,40.6261,包头市,包头市委党校,,,8,16,3,7,130,,107,107,5,18,8,12,,0.3
2025-06-04T1700,3683A,109.8331,40.6576,包头市,昆区政府,,39,7,17,3,8,122,,109,109,12,21,9,12,0.4,0.7
2025-06-04T1700,1930A,107.185,34.3063,宝鸡市,庙沟村,,40,32,30,12,9,128,,106,106,7,11,8,8,0.4,0.4
2025-06-04T1700,1931A,107.0708,34.3017,宝鸡市,竹园沟,,40,20,23,18,11,125,,98,98,7,10,5,5,0.3,0.4
2025-06-04T1700,1932A,107.1906,34.3672,宝鸡市,三陆医院,,41,31,38,12,22,130,,89,89,10,31,7,8,0.2,0.3
2025-06-04T1700,1933A,107.1431,34.3547,宝鸡市,监测站,,41,38,33,11,15,130,,90,90,10,16,6,6,0.2,0.3
2025-06-04T1700,1934A,107.1186,34.3739,宝鸡市,技工学校,,41,41,36,8,17,128,,92,92,7,16,6,7,0.3,0.4
2025-06-04T1700,1935A,107.3906,34.3528,宝鸡市,陈仓区环保局家属楼,,41,29,42,8,17,130,,92,92,7,29,5,7,0.2,0.4
2025-06-04T1700,1936A,107.2058,34.3497,宝鸡市,文理学院,,42,31,31,16,15,132,,96,96,9,20,8,8,0.4,0.4
2025-06-04T1700,1937A,107.2386,34.3622,宝鸡市,三迪小学,,49,49,44,10,15,129,,92,92,10,25,8,8,0.3,0.4
2025-06-04T1700,1051A,115.493,38.8632,保定市,游泳馆,,46,22,32,3,10,147,,123,123,7,17,4,4,0.2,0.1
2025-06-04T1700,1052A,115.5213,38.8959,保定市,华电二区,,45,16,28,7,10,142,,122,122,2,11,2,2,0.1,0.1
2025-06-04T1700,1053A,115.4713,38.9108,保定市,接待中心,,47,27,33,3,8,149,,122,122,5,15,1,2,0.1,0.1
2025-06-04T1700,1054A,115.4612,38.8416,保定市,地表水厂,,47,29,45,3,7,149,,122,122,10,21,1,2,0.0,0
2025-06-04T1700,3581A,115.31981,38.95208,保定市,满城区生态环境分局,,49,24,22,3,5,156,,128,128,10,12,2,2,0,0.1
2025-06-04T1700,3582A,115.47694,38.76408,保定市,清苑区第二中学,,47,27,46,3,13,150,,123,123,9,24,3,3,0.2,0.2
2025-06-04T1700,3583A,115.62909,39.02311,保定市,徐水物探局,,44,29,37,3,4,140,,121,121,4,20,3,3,0.0,0
2025-06-04T1700,4004A,115.4202,38.8656,保定市,双鹰农机,,50,19,30,15,15,157,,125,125,6,18,3,3,0.2,0.1
2025-06-04T1700,4034A,115.5150,38.8590,保定市,植保所站,,44,25,33,18,15,139,,121,121,2,13,3,3,0.3,0.3
2025-06-04T1700,2594A,99.1678,25.1081,保山市,市环境监测站,,,,57,,30,,,55,,,6,,9,,0.6
2025-06-04T1700,2595A,99.1711,25.1328,保山市,市环保局,,48,48,56,26,26,94,,84,84,3,5,5,5,0.4,0.5
2025-06-04T1700,1866A,109.2262,21.588,北海市,牛尾岭水库,,42,25,26,21,15,134,,116,116,7,16,9,8,0.7,0.6
2025-06-04T1700,1867A,109.1436,21.4086,北海市,海滩公园,,46,46,34,22,14,123,,100,100,5,8,5,5,0.9,0.8
2025-06-04T1700,1868A,109.0981,21.4661,北海市,新市环保局,,37,37,29,22,19,107,,102,102,10,11,3,5,0.8,0.7
2025-06-04T1700,1869A,109.1778,21.5233,北海市,北海工业园,,40,37,34,20,20,127,,119,119,8,12,5,9,0.7,0.8
2025-06-04T1700,3400A,109.1911,21.4415,北海市,龙潭自来水厂,,42,33,32,24,24,134,,113,113,6,11,9,11,0.7,0.6
2025-06-04T1700,1001A,116.3621,39.8784,北京市,万寿西宫,,45,16,17,6,5,142,,118,118,11,26,3,3,0.3,0.3
2025-06-04T1700,1002A,116.2202,40.2915,北京市,定陵,,,,,,,,,,,,,,,,
2025-06-04T1700,1003A,116.4174,39.9289,北京市,东四,,44,15,15,3,6,140,,110,110,3,17,3,2,0.3,0.4
2025-06-04T1700,1004A,116.4072,39.8863,北京市,天坛,,45,21,18,6,6,144,,116,116,11,20,2,1,0.2,0.2
2025-06-04T1700,1005A,116.462,39.9365,北京市,农展馆,,40,19,16,10,6,128,,95,95,12,25,4,4,0.1,0.2
2025-06-04T1700,1006A,116.3392,39.9295,北京市,官园,,40,29,21,13,6,128,,102,102,30,26,1,4,0,0.2
2025-06-04T1700,1007A,116.2878,39.9611,北京市,海淀万柳,,37,17,18,7,5,117,,96,96,11,24,2,2,0.3,0.3
2025-06-04T1700,1008A,116.6636,40.135,北京市,顺义新城,,35,13,20,6,5,110,,99,99,10,17,5,5,0.2,0.2
2025-06-04T1700,1009A,116.6275,40.3275,北京市,怀柔镇,,35,11,14,3,4,111,,99,99,2,4,3,2,0.4,0.4
2025-06-04T1700,1010A,116.2296,40.217,北京市,昌平镇,,35,11,10,3,5,112,,97,97,8,12,4,4,0.2,0.2
2025-06-04T1700,1011A,116.3966,39.9821,北京市,奥体中心,,30,7,15,3,5,94,,83,83,14,34,3,3,0.1,0.4
2025-06-04T1700,3281A,115.9718,40.4529,北京市,延庆夏都,,37,9,12,3,4,118,,100,100,7,12,4,4,0.3,0.3
2025-06-04T1700,3418A,116.8336,40.4095,北京市,密云新城,,35,9,16,3,4,109,,98,98,11,11,2,1,0.2,0.3
2025-06-04T1700,3671A,116.088,39.9726,北京市,门头沟三家店,,34,9,15,3,5,106,,96,96,5,16,2,2,0.1,0.1
2025-06-04T1700,3672A,116.1541,39.8204,北京市,丰台云岗,,43,31,19,22,5,136,,117,117,26,18,3,3,0.3,0.1
2025-06-04T1700,3673A,116.6804,39.9081,北京市,通州东关,,45,18,32,9,7,143,,112,112,17,34,1,2,0.2,0.3
2025-06-04T1700,3674A,115.9577,39.7603,北京市,房山燕山,,38,32,17,8,6,121,,112,112,14,15,1,5,0.3,0.2
2025-06-04T1700,3675A,116.4672,39.7733,北京市,大兴旧宫,,46,23,22,3,6,146,,114,114,8,32,2,3,0.3,0.4
2025-06-04T1700,3694A,115.986,40.4563,北京市,延庆石河营,,34,12,14,3,5,107,,90,90,6,11,2,2,0.3,0.2
2025-06-04T1700,3695A,116.6151,40.3053,北京市,怀柔新城,,35,11,12,3,5,112,,95,95,8,6,2,2,0.2,0.3
2025-06-04T1700,3696A,116.2545,39.8768,北京市,丰台小屯,,40,28,28,3,4,127,,103,103,8,27,2,2,0.1,0.2
2025-06-04T1700,3697A,116.84,40.3844,北京市,密云镇,,36,,15,6,6,113,,102,102,3,20,5,4,0.2,0.3
2025-06-04T1700,4182A,116.1942,39.9158,北京市,八角北路9号,,42,29,24,8,6,134,,105,105,15,23,1,1,0.1,0.1
2025-06-04T1700,4194A,117.0790,40.1518,北京市,洳河巡河路,,39,9,12,3,4,122,,106,106,3,8,3,2,0.3,0.3
2025-06-04T1700,1761A,123.8275,41.3064,本溪市,大峪,,39,19,24,6,5,124,,101,101,10,13,7,8,0.3,0.3
2025-06-04T1700,1762A,123.7567,41.3325,本溪市,溪湖,,39,16,20,8,7,123,,99,99,10,12,9,9,0.4,0.4
2025-06-04T1700,1763A,123.7169,41.3094,本溪市,彩屯,,38,18,23,12,8,119,,97,97,14,15,10,10,0.5,0.5
2025-06-04T1700,1764A,123.7669,41.2864,本溪市,东明,,38,26,30,12,9,120,,97,97,12,14,7,8,0.6,0.7
2025-06-04T1700,1765A,123.7992,41.2664,本溪市,新立屯,,39,16,26,8,9,122,,97,97,11,17,8,9,0.5,0.9
2025-06-04T1700,1766A,123.8142,41.3472,本溪市,威宁,,37,29,30,14,9,116,,97,97,12,15,8,7,0.4,0.4
2025-06-04T1700,2587A,105.2864,27.3125,毕节市,八中,,36,24,23,16,16,114,,105,105,9,9,2,3,0.4,0.4
2025-06-04T1700,2588A,105.31,27.2944,毕节市,师专,,39,38,30,15,13,124,,112,112,11,11,10,5,0.4,0.5
2025-06-04T1700,4263A,105.3688,27.3598,毕节市,工业大道,,40,29,26,25,17,126,,116,116,10,16,6,6,0.5,0.5
2025-06-04T1700,1629A,118.0018,37.3617,滨州市,第二水厂,,43,17,32,3,9,137,,117,117,2,16,6,7,0.1,0.3
2025-06-04T1700,1630A,117.9776,37.393,滨州市,北中新校,,42,17,26,3,7,132,,113,113,2,16,8,11,0.4,0.6
2025-06-04T1700,3514A,117.9378,37.3956,滨州市,中海酒店,,45,19,29,9,15,144,,122,122,5,16,7,13,0.5,0.6
2025-06-04T1700,3515A,117.9378,37.3553,滨州市,开发区一中,,44,27,36,9,15,138,,117,117,9,22,8,10,0.4,0.4
2025-06-04T1700,3516A,118.0917,37.694,滨州市,金海六路,,48,27,34,3,9,152,,132,132,9,26,8,11,0.0,0.1
2025-06-04T1700,4028A,117.9956,37.3753,滨州市,滨州市西街道办事处,,45,12,28,7,11,144,,126,126,8,16,7,9,0.1,0.3
2025-06-04T1700,2311A,115.8072,33.8399,亳州市,污水处理厂,臭氧1小时,80,33,63,14,35,184,,173,173,15,14,5,9,0.4,0.5
2025-06-04T1700,2312A,115.7789,33.8518,亳州市,三国揽胜宫,臭氧1小时,75,43,65,13,38,180,,170,170,11,11,8,11,0.3,0.5
2025-06-04T1700,3332A,115.7633,33.8034,亳州市,亳州学院,臭氧1小时,92,29,64,15,40,193,,176,176,10,12,5,9,0.2,0.5
2025-06-04T1700,2693A,82.0485,44.8556,博尔塔拉蒙古自治州,市党校,,35,31,26,10,13,109,,96,96,9,9,2,3,0.3,0.3
2025-06-04T1700,2694A,82.0806,44.8969,博尔塔拉蒙古自治州,市环保局,,41,41,35,14,15,114,,97,97,7,11,2,2,0.3,0.4
2025-06-04T1700,1071A,116.8842,38.2991,沧州市,沧县城建局,,42,23,35,6,13,134,,122,122,6,25,3,3,0.1,0.2
2025-06-04T1700,1072A,116.8584,38.3254,沧州市,电视转播站,,41,23,33,7,11,129,,118,118,5,25,3,3,0.2,0.3
2025-06-04T1700,1073A,116.8709,38.3228,沧州市,市环保局,,41,35,51,8,18,131,,123,123,4,23,1,2,0.2,0.3
2025-06-04T1700,3324A,116.8136,38.3004,沧州市,河北水利电力学院,,45,14,29,3,11,144,,134,134,8,33,4,5,0.2,0.2
2025-06-04T1700,2622A,97.1806,31.1273,昌都市,昌都监测站,,41,8,8,3,6,130,,121,121,1,3,4,4,0.3,0.3
2025-06-04T1700,3719A,97.1714,31.1406,昌都市,昌都会议中心,,38,7,13,3,9,121,,112,112,3,5,4,4,0.3,0.3
2025-06-04T1700,2690A,88.1236,43.8886,昌吉回族自治州,天山天池,,40,23,23,7,7,125,,106,106,6,6,5,6,0.6,0.6
2025-06-04T1700,2692A,87.2717,44.0297,昌吉回族自治州,新区政务中心,,35,20,31,13,14,112,,104,104,2,7,6,7,0.2,0.3
2025-06-04T1700,3613A,87.3095,44.0142,昌吉回族自治州,亚心广场,,35,22,43,12,14,109,,101,101,3,14,8,9,0.2,0.3
2025-06-04T1700,1119A,125.3325,43.9166,长春市,食品厂,,33,26,20,12,14,105,,98,98,20,26,4,4,0.4,0.5
2025-06-04T1700,1120A,125.2863,43.9027,长春市,客车厂,,36,18,18,11,13,115,,105,105,13,21,3,3,0.2,0.3
2025-06-04T1700,1121A,125.2841,43.8463,长春市,邮电学院,,,11,13,8,12,120,,108,108,,16,6,5,0.2,0.3
2025-06-04T1700,1122A,125.3716,43.8772,长春市,劳动公园,,36,30,21,6,17,115,,102,102,10,16,6,6,0.2,0.3
2025-06-04T1700,1123A,125.3297,43.8805,长春市,园林处,,37,16,14,3,5,116,,104,104,7,15,5,6,0.4,0.4
2025-06-04T1700,1124A,125.4605,43.79,长春市,净月潭,,38,19,15,3,9,119,,103,103,7,11,6,6,0.2,0.3
2025-06-04T1700,1125A,125.7194,43.515,长春市,甩湾子,,,,10,,7,,,62,,,16,,2,,0.4
2025-06-04T1700,1126A,125.3863,43.8447,长春市,经开区环卫处,,37,13,21,6,9,116,,102,102,8,16,5,5,0.3,0.3
2025-06-04T1700,1127A,125.245,43.7783,长春市,高新区管委会,,38,16,18,8,11,121,,109,109,9,16,5,6,0.2,0.2
2025-06-04T1700,1128A,125.1761,43.8325,长春市,岱山公园,,36,14,15,6,15,114,,107,107,13,20,4,4,0.2,0.3
2025-06-04T1700,1335A,113.0833,28.2325,长沙市,经开区环保局,,43,40,53,17,37,137,,143,143,9,24,4,5,0.4,0.5
2025-06-04T1700,1336A,112.8872,28.2189,长沙市,高开区环保局,,,35,53,22,37,179,,172,172,,20,,7,0.6,0.7
2025-06-04T1700,1337A,113.0792,28.2053,长沙市,马坡岭,臭氧1小时,67,36,58,21,40,173,,174,174,8,31,4,5,0.5,0.7
2025-06-04T1700,1338A,112.9394,28.19,长沙市,湖南师范大学,臭氧1小时,78,36,49,18,31,182,,167,167,5,16,1,1,0.5,0.5
2025-06-04T1700,1339A,113.0178,28.1322,长沙市,雨花区环保局,臭氧1小时,90,38,55,20,33,192,,167,167,4,24,5,5,0.6,0.7
2025-06-04T1700,1340A,112.9792,28.2597,长沙市,伍家岭,臭氧1小时,55,38,56,17,36,164,,151,151,8,20,4,4,0.6,0.6
2025-06-04T1700,1341A,113.0014,28.1944,长沙市,火车新站,臭氧1小时,60,43,54,24,34,168,,158,158,8,21,7,8,0.5,0.6
2025-06-04T1700,1342A,112.9844,28.1178,长沙市,天心区环保局,臭氧1小时,98,38,54,18,36,198,,187,187,10,29,2,3,0.0,0.7
2025-06-04T1700,1343A,112.8908,28.1308,长沙市,湖南中医药大学,臭氧1小时,107,52,56,27,39,214,,185,185,9,22,4,4,0.6,0.7
2025-06-04T1700,1344A,112.9581,28.3611,长沙市,沙坪,臭氧1小时,68,,41,44,29,174,,164,164,6,7,4,3,0.5,0.6
2025-06-04T1700,1727A,113.1147,36.1547,长治市,清华站,臭氧1小时,72,13,38,3,9,177,,144,144,10,31,6,9,0.4,0.5
2025-06-04T1700,1730A,113.0886,36.2125,长治市,审计局,臭氧1小时,79,10,30,7,9,183,,152,152,11,28,8,12,0.3,0.5
2025-06-04T1700,1731A,113.0844,36.1856,长治市,长治八中,,,16,41,9,15,182,,147,147,,28,10,13,0.2,0.4
2025-06-04T1700,2845A,113.1569,36.1911,长治市,德盛苑,臭氧1小时,58,16,26,3,9,166,,142,142,8,17,7,13,0.4,0.6
2025-06-04T1700,3568A,113.06,36.0464,长治市,向阳小学,,,37,55,17,14,183,,161,161,,22,10,9,0.4,0.4
2025-06-04T1700,3569A,112.8792,36.3144,长治市,屯留一中,臭氧1小时,79,13,16,3,8,183,,160,160,17,18,8,7,0.6,0.6
2025-06-04T1700,4189A,113.1131,36.19948,长治市,英华南巷50号,臭氧1小时,70,19,40,3,11,176,,149,149,8,21,8,13,0.6,0.7
2025-06-04T1700,4190A,113.2367,36.3344,长治市,学府街1号,臭氧1小时,93,32,54,8,12,194,,173,173,8,31,7,8,0.4,0.6
2025-06-04T1700,1854A,111.6975,28.9703,常德市,市二中,,49,49,40,14,28,152,,140,140,13,15,7,7,0.5,0.6
2025-06-04T1700,1857A,111.7158,29.1456,常德市,白鹤山,,,,,,,,,,,,,,,,
2025-06-04T1700,3138A,111.7153,29.0289,常德市,武陵区永安,臭氧1小时,54,32,44,22,28,163,,153,153,4,12,3,3,0.2,0.4
2025-06-04T1700,3139A,111.6892,28.9881,常德市,鼎城区玉霞,臭氧1小时,57,34,40,22,25,165,,153,153,6,14,4,6,0.4,0.6
2025-06-04T1700,3140A,111.6625,29.0531,常德市,武陵区长庚,臭氧1小时,64,41,41,23,26,171,,162,162,3,13,4,6,0.3,0.6
2025-06-04T1700,1196A,119.9633,31.762,常州市,市监测站,臭氧1小时,84,31,52,20,38,187,,208,208,21,32,10,12,0.4,0.6
2025-06-04T1700,1200A,119.9468,31.7069,常州市,武进监测站,臭氧1小时,80,36,66,18,38,184,,200,200,16,24,3,8,0.4,0.7
2025-06-04T1700,1201A,119.9255,31.9087,常州市,安家,臭氧1小时,107,52,81,31,41,214,,200,200,14,40,12,17,0.4,0.5
2025-06-04T1700,3002A,119.9805,31.8174,常州市,行政中心,臭氧1小时,111,37,56,30,36,222,,226,226,13,20,11,12,0.6,0.7
2025-06-04T1700,3003A,120.0522,31.7748,常州市,经开区,,,,55,,38,236,,233,233,16,23,,17,0.6,0.7
2025-06-04T1700,3010A,119.9025,31.7964,常州市,钟楼,,,79,66,28,37,192,,192,192,12,21,,11,0.6,0.8
2025-06-04T1700,3429A,119.8598,31.7066,常州市,武进经发区,,,,61,,36,199,,203,203,6,21,6,8,,1
2025-06-04T1700,3430A,119.5826,31.7245,常州市,金坛城区,臭氧1小时,103,37,69,29,32,206,,192,192,11,22,7,9,0.5,0.6
2025-06-04T1700,2220A,120.4318,41.5881,朝阳市,西梁,,30,11,20,3,8,96,,90,90,10,12,4,7,0.2,0.3
2025-06-04T1700,2221A,120.4521,41.5646,朝阳市,河畔小区,,31,16,20,7,8,98,,93,93,10,12,7,7,0.2,0.3
2025-06-04T1700,2222A,120.4176,41.5648,朝阳市,八里堡,,33,15,27,12,13,103,,96,96,10,13,5,6,0.2,0.3
2025-06-04T1700,2223A,120.3806,41.5969,朝阳市,农业园区,,30,18,20,3,9,96,,90,90,7,12,4,4,0.2,0.2
2025-06-04T1700,1705A,116.6367,23.6719,潮州市,西园路,,,,15,14,7,124,,89,89,9,8,4,7,0.4,0.4
2025-06-04T1700,3026A,116.6183,23.6608,潮州市,市政府,,39,,17,15,9,122,,103,103,14,8,5,6,0.8,0.8
2025-06-04T1700,4036A,116.6461,23.6761,潮州市,金山,,39,27,17,3,5,124,,93,93,9,7,7,6,0.7,0.7
2025-06-04T1700,2472A,113.0073,25.9061,郴州市,马头岭,,,35,38,18,18,87,,86,86,,13,13,12,0.3,0.4
2025-06-04T1700,2473A,113.0116,25.8226,郴州市,市职中,细颗粒物(PM2.5),54,,43,38,34,102,,100,100,7,13,8,7,0.3,0.4
2025-06-04T1700,2475A,113.0383,25.8071,郴州市,市审计局,,49,37,42,34,34,103,,97,97,4,12,9,11,0.4,0.5
2025-06-04T1700,2476A,113.0348,25.7759,郴州市,市环保局,,43,37,48,30,34,109,,99,99,6,16,9,9,0.2,0.3
2025-06-04T1700,4252A,113.0138,25.8011,郴州市,好美居路49号,细颗粒物(PM2.5),53,51,44,37,29,107,,103,103,8,13,8,13,0.5,0.5
2025-06-04T1700,1431A,103.9728,30.7236,成都市,金泉两河,,50,50,59,26,34,119,,150,150,20,34,3,5,0.5,0.6
2025-06-04T1700,1432A,104.176,30.6872,成都市,十里店,颗粒物(PM10),56,61,57,24,29,131,,137,136,25,42,5,5,0.6,0.7
2025-06-04T1700,1433A,104.079,30.5706,成都市,三瓦窑,细颗粒物(PM2.5),60,53,58,43,36,120,,134,134,24,51,5,5,0.5,0.6
2025-06-04T1700,1434A,104.1114,30.63,成都市,沙河铺,,48,48,50,25,30,106,,114,114,20,32,4,4,0.5,0.6
2025-06-04T1700,1437A,104.0786,30.6531,成都市,君平街,颗粒物(PM10),55,60,71,28,39,98,,110,110,25,48,5,6,0.7,0.8
2025-06-04T1700,1438A,103.613,31.0283,成都市,灵岩寺,,,,,,,,,,,,,,,,
2025-06-04T1700,2880A,104.0239,30.65639,成都市,大石西路,细颗粒物(PM2.5),55,53,63,39,37,135,,147,147,18,48,6,5,0.6,0.8
2025-06-04T1700,3136A,104.2725,30.5589,成都市,龙泉驿区区政府,颗粒物(PM10),51,51,38,24,21,101,,122,122,17,13,5,5,0.7,0.6
2025-06-04T1700,3357A,104.0106,30.6931,成都市,金博路,,41,41,60,13,33,119,,136,136,20,50,9,10,0.5,0.7
2025-06-04T1700,3359A,104.0578,30.5225,成都市,华阳,,,,49,,32,114,,125,125,20,33,,8,0.9,0.9
2025-06-04T1700,3488A,104.3853,30.7453,成都市,青白江技师分院,颗粒物(PM10),53,55,50,28,29,132,,113,113,18,34,5,6,0.6,0.6
2025-06-04T1700,3489A,104.0789,30.4072,成都市,科学城,,45,37,48,21,29,141,,143,143,12,24,4,5,0.3,0.4
2025-06-04T1700,4011A,103.8506,30.6947,成都市,光华大道三段,颗粒物(PM10),52,53,56,19,34,134,,158,158,16,21,5,7,0.7,0.7
2025-06-04T1700,4224A,104.2433,30.5353,成都市,鲸龙路1057号,,49,49,51,28,29,106,,124,124,27,29,7,8,0.7,0.7
2025-06-04T1700,1062A,117.9531,40.9081,承德市,铁路,,32,7,21,3,5,100,,92,92,9,10,3,6,0.2,0.2
2025-06-04T1700,1063A,117.9392,40.9763,承德市,中国银行,,34,9,23,6,7,106,,92,92,2,10,3,1,0.4,0.3
2025-06-04T1700,1064A,117.9503,40.928,承德市,开发区,,35,13,29,8,12,112,,95,95,4,13,5,4,0.2,0.2
2025-06-04T1700,1065A,117.8051,40.9655,承德市,文化中心,,35,18,31,3,7,110,,96,96,7,20,12,5,0.4,0.4
2025-06-04T1700,1066A,117.9268,41.0026,承德市,离宫,,35,18,24,11,19,112,,95,95,3,9,7,3,0.3,0.2
2025-06-04T1700,2314A,117.47,30.6618,池州市,池州学院,臭氧1小时,69,44,32,30,25,175,,148,148,9,11,6,6,0.7,0.9
2025-06-04T1700,3237A,117.4918,30.6617,池州市,展览馆,臭氧1小时,63,36,34,25,16,170,,152,152,7,11,6,6,0.6,0.9
2025-06-04T1700,3333A,117.5627,30.695,池州市,第八中学,,50,33,38,20,23,160,,149,149,4,14,6,6,0.5,0.7
2025-06-04T1700,3334A,117.5038,30.6243,池州市,第十二中学,,,37,33,25,23,161,,151,151,5,15,4,4,,1
2025-06-04T1700,1744A,118.9233,42.2816,赤峰市,松山一中,,37,6,27,3,4,117,,108,108,11,13,5,5,0.4,0.4
2025-06-04T1700,1745A,118.9576,42.2728,赤峰市,哈达街,,31,14,16,6,10,98,,93,93,17,14,9,9,0.5,0.5
2025-06-04T1700,1746A,118.8788,42.2554,赤峰市,天义路,,32,13,17,3,10,102,,92,92,9,9,6,7,0.4,0.4
2025-06-04T1700,3058A,119.2658,42.0353,赤峰市,银河街,,,12,20,3,11,107,,99,99,6,5,5,5,,0.4
2025-06-04T1700,3286A,118.9359,42.3147,赤峰市,桥北物流园区,,31,,16,16,10,97,,90,90,14,17,8,7,0.3,0.4
2025-06-04T1700,2521A,107.3476,22.4136,崇左市,市环保局江州分局,,47,29,32,19,16,148,,133,133,3,9,6,9,0.4,0.5
2025-06-04T1700,4256A,107.3750,22.3736,崇左市,石景林东路7号,臭氧1小时,65,34,28,23,16,172,,145,145,5,9,4,6,0.6,0.5
2025-06-04T1700,2298A,118.3093,32.3153,滁州市,老年大学,臭氧1小时,104,59,57,22,31,208,,192,192,10,12,6,6,0.4,0.4
2025-06-04T1700,2299A,118.3244,32.2786,滁州市,人大宾馆,臭氧1小时,90,57,55,24,40,192,,176,176,9,11,5,5,0.4,0.4
2025-06-04T1700,3207A,118.3118,32.3038,滁州市,市政府原办公楼,臭氧1小时,104,51,53,32,41,207,,191,191,5,6,5,5,0.4,0.5
2025-06-04T1700,3331A,118.3267,32.2634,滁州市,图书馆,臭氧1小时,89,50,52,33,40,191,,175,175,5,7,9,9,0.5,0.5
2025-06-04T1700,2605A,101.5482,25.0441,楚雄彝族自治州,州环境监测站,,31,30,10,16,5,98,,77,77,6,9,7,9,0.4,0.5
2025-06-04T1700,2606A,101.538,25.0492,楚雄彝族自治州,市经济开发区,,31,13,10,11,4,97,,76,76,5,9,7,8,0.5,0.6
2025-06-04T1700,2548A,107.5277,31.2827,达州市,达州职业技术学院,,44,44,45,16,16,105,,67,67,14,21,8,7,0.2,0.2
2025-06-04T1700,2549A,107.5086,31.2186,达州市,市环境监测站,,42,42,43,14,16,93,,61,61,45,33,7,7,0.3,0.5
2025-06-04T1700,2550A,107.4988,31.2132,达州市,凤凰小区,,39,39,40,19,21,118,,71,71,18,26,9,8,0.4,0.6
2025-06-04T1700,2551A,107.5082,31.1986,达州市,达县机关宾馆,,34,31,41,15,14,108,,69,69,21,27,7,7,0.4,0.5
2025-06-04T1700,2552A,107.4644,31.2124,达州市,市政中心,,47,47,50,17,19,106,,65,65,16,29,5,4,0.5,0.6
2025-06-04T1700,2614A,100.1542,25.7054,大理白族自治州,大理市环境监测站,,36,36,27,23,19,86,,86,86,6,6,6,5,0.3,0.3
2025-06-04T1700,2615A,100.2171,25.5811,大理白族自治州,大理古城,,33,33,28,10,14,90,,89,89,6,7,8,8,0.5,0.6
2025-06-04T1700,1109A,121.612,38.9741,大连市,甘井子,,37,21,27,9,7,118,,106,106,12,16,4,5,0.3,0.2
2025-06-04T1700,1110A,121.565,38.9511,大连市,周水子,,35,31,38,9,8,111,,102,102,7,14,5,6,0.3,0.2
2025-06-04T1700,1111A,121.5637,38.8845,大连市,星海三站,,35,20,24,9,7,110,,96,96,5,7,5,6,0.3,0.3
2025-06-04T1700,1112A,121.6302,38.9117,大连市,青泥洼桥,,37,22,26,10,8,118,,102,102,16,20,7,8,0,0
2025-06-04T1700,1113A,121.6251,38.8638,大连市,傅家庄,,39,24,28,9,7,122,,111,111,12,13,6,7,0.1,0.1
2025-06-04T1700,1114A,121.5213,38.8661,大连市,七贤岭,,39,26,44,10,8,123,,109,109,7,8,4,3,0.2,0.2
2025-06-04T1700,1115A,121.2529,38.8061,大连市,旅顺,,29,23,22,8,7,92,,96,96,26,15,5,4,0.2,0.2
2025-06-04T1700,1116A,121.7485,39.1311,大连市,金州,,45,45,40,12,8,115,,100,100,19,18,5,5,0.0,0.2
2025-06-04T1700,1117A,121.7811,39.0496,大连市,开发区,,34,34,42,9,8,108,,102,102,16,20,4,4,0.3,0.3
2025-06-04T1700,1118A,121.9762,39.0631,大连市,双D港,,40,22,25,10,8,127,,113,113,8,10,8,9,0.4,0.3
2025-06-04T1700,1789A,124.81117,46.03138,大庆市,大同区,,30,16,20,11,16,94,,86,86,8,14,4,5,0.5,0.5
2025-06-04T1700,1790A,125.129,46.533,大庆市,龙凤区,,33,25,32,12,19,104,,104,104,11,27,6,6,0.6,0.5
2025-06-04T1700,1791A,124.902,46.408,大庆市,红岗区,,32,19,26,12,19,102,,99,99,6,10,9,9,0.3,0.3
2025-06-04T1700,1792A,125.153,46.586,大庆市,萨尔图区,,,33,32,7,13,90,,89,89,10,19,7,8,,0.6
2025-06-04T1700,1793A,124.9042,46.6215,大庆市,让胡路区,,30,11,11,6,21,95,,96,96,10,14,6,4,0.1,0.2
2025-06-04T1700,3481A,125.141,46.634,大庆市,萨区政府监测点,,33,16,25,3,7,105,,102,102,5,12,5,6,0.3,0.4
2025-06-04T1700,1721A,113.3819,40.1097,大同市,果树场,,,,,,,,,,,,,,,,
2025-06-04T1700,1723A,113.2994,40.0758,大同市,云冈宾馆,,40,16,25,3,7,127,,103,103,8,16,5,7,0.5,0.9
2025-06-04T1700,1724A,113.3444,40.0917,大同市,大同大学,,39,18,23,3,7,122,,102,102,8,23,6,7,0.3,0.5
2025-06-04T1700,1725A,113.2661,40.1269,大同市,安家小村,,37,,31,3,7,117,,100,100,6,15,4,8,0.2,1
2025-06-04T1700,1726A,113.2711,40.0844,大同市,教育学院,,38,10,28,3,8,121,,97,97,7,17,7,8,0.3,0.7
2025-06-04T1700,3282A,113.3397,40.0597,大同市,大同市卫生学校,,38,7,22,3,8,120,,98,98,6,16,8,10,0.4,0.7
2025-06-04T1700,3565A,113.1367,40.1122,大同市,云冈站,,37,11,27,7,10,116,,98,98,11,18,6,9,0,0.1
2025-06-04T1700,3566A,113.1186,40.2556,大同市,图书馆,,37,7,14,3,5,116,,100,100,5,8,6,6,0.6,0.7
2025-06-04T1700,3567A,113.5931,40.0461,大同市,区一中,,40,26,27,16,9,128,,104,104,8,13,12,17,0.3,0.4
2025-06-04T1700,4199A,113.2798,40.0997,大同市,魏都大道141号,,38,7,34,3,9,119,,98,98,6,18,6,8,0.3,0.9
2025-06-04T1700,2269A,124.1069,50.4097,大兴安岭地区,科技局,,29,29,18,10,11,75,,74,74,3,4,9,9,0.3,0.3
2025-06-04T1700,3663A,124.1164,50.4278,大兴安岭地区,红旗社区,,25,12,5,3,4,77,,77,77,5,6,6,6,0.3,0.4
2025-06-04T1700,1600A,124.3303,40.0625,丹东市,江湾东路,,34,18,26,6,9,107,,94,94,9,14,6,7,0.4,0.5
2025-06-04T1700,1601A,124.4256,40.1503,丹东市,临江后街,,34,18,30,9,9,108,,94,94,11,19,6,8,0.4,0.6
2025-06-04T1700,1602A,124.3933,40.1461,丹东市,元宝山,,34,12,17,6,8,108,,92,92,7,11,8,8,0.4,0.5
2025-06-04T1700,1603A,124.3633,40.1092,丹东市,民主桥,,30,21,31,3,7,96,,87,87,16,18,7,8,0.7,0.7
2025-06-04T1700,3541A,109.5726,19.5167,儋州市,第一中学子站,,29,29,34,19,19,16,,68,14,6,6,6,6,0.4,0.6
2025-06-04T1700,3542A,109.5567,19.5187,儋州市,东坡学校子站,,28,22,30,19,18,82,,81,81,2,5,5,6,0.6,0.7
2025-06-04T1700,2616A,98.5842,24.428,德宏傣族景颇族自治州,德宏州监测站,,25,25,72,12,35,80,,64,64,9,11,8,8,0.6,0.7
2025-06-04T1700,3677A,98.5881,24.4368,德宏傣族景颇族自治州,芒市人民政府综合楼,,26,26,73,14,33,82,,64,64,6,8,7,7,0.4,0.5
2025-06-04T1700,1901A,104.4239,31.1208,德阳市,东山公园,,49,49,40,33,26,110,,115,115,11,14,5,5,0.8,0.7
2025-06-04T1700,1902A,104.3826,31.1317,德阳市,西小区,细颗粒物(PM2.5),57,51,48,40,30,116,,121,121,14,26,4,4,0.7,0.7
2025-06-04T1700,1904A,104.3553,31.1091,德阳市,耐火材料厂,颗粒物(PM10),52,54,58,32,32,123,,124,124,15,30,6,8,0.5,0.5
2025-06-04T1700,3639A,104.4019,31.1244,德阳市,市教育局,颗粒物(PM10),51,51,43,35,28,118,,129,129,15,22,7,6,0.9,0.9
2025-06-04T1700,1622A,116.3032,37.4674,德州市,儿童乐园,,45,9,40,3,10,142,,133,133,8,14,7,8,0.3,0.3
2025-06-04T1700,1624A,116.2991,37.4451,德州市,监理站,,45,17,32,3,8,142,,134,134,9,14,7,9,0.2,0.3
2025-06-04T1700,3066A,116.2721,37.4379,德州市,九衢泉纯净水厂,,40,14,34,3,11,128,,124,124,7,20,9,9,0.3,0.4
2025-06-04T1700,3371A,116.3728,37.4403,德州市,开发区人民医院,,43,14,37,3,8,136,,129,129,10,22,7,10,0.5,0.6
2025-06-04T1700,3372A,116.3572,37.4094,德州市,太阳城中学,,46,17,36,9,11,146,,138,138,21,21,8,9,0.3,0.3
2025-06-04T1700,3511A,116.5652,37.3319,德州市,陵城艺术中心,,48,17,42,7,9,153,,137,137,9,17,9,10,0.2,0.4
2025-06-04T1700,2621A,99.7056,27.8317,迪庆藏族自治州,迪庆州站,,31,15,29,13,14,98,,92,92,4,5,6,6,0.5,0.3
2025-06-04T1700,3180A,99.7136,27.8094,迪庆藏族自治州,质量技术监督局,颗粒物(PM10),65,80,30,7,7,91,,90,88,12,8,6,5,0.4,0.4
2025-06-04T1700,4257A,104.6092,35.5962,定西市,将台街,,45,27,32,11,14,141,,125,125,5,13,4,5,0.3,0.3
2025-06-04T1700,4309A,104.6159,35.5701,定西市,正龙路62号,,42,28,32,7,15,134,,123,123,6,9,7,8,0.2,0.2
2025-06-04T1700,1389A,113.7547,23.0494,东莞市,莞城梨川,,34,34,18,18,10,68,,70,70,17,14,8,8,0.6,0.6
2025-06-04T1700,1390A,113.7944,23.0128,东莞市,东城石井,,40,40,21,26,11,54,,56,56,30,20,3,3,0.8,0.8
2025-06-04T1700,1391A,113.7383,22.9658,东莞市,南城西平,,33,33,20,23,10,56,,54,54,24,28,3,4,0.8,0.8
2025-06-04T1700,3319A,113.7338,23.0381,东莞市,万江金泰,,31,31,19,17,9,59,,61,61,16,13,1,2,0.8,0.8
2025-06-04T1700,3626A,113.7533,23.0202,东莞市,南城元岭,,28,28,20,17,11,57,,62,62,22,16,5,5,0.9,0.9
2025-06-04T1700,3627A,113.7875,23.0457,东莞市,东城主山,,34,34,20,17,10,59,,64,64,20,14,5,6,0.8,0.8
2025-06-04T1700,1666A,118.6614,37.4309,东营市,市环保局,,44,19,27,3,5,140,,122,122,14,22,5,9,0.3,0.4
2025-06-04T1700,3036A,118.6904,37.4338,东营市,开发区管委会,,47,35,36,3,5,148,,130,130,9,22,6,9,0.4,0.4
2025-06-04T1700,3365A,118.5719,37.565,东营市,垦利区民丰路,,47,19,30,3,5,149,,125,125,12,26,8,11,0.6,0.7
2025-06-04T1700,3498A,118.5055,37.8612,东营市,河口城区,,47,24,30,3,7,149,,126,126,13,19,8,11,0.3,0.6
2025-06-04T1700,3646A,118.4978,37.4623,东营市,胜利站,,43,21,35,3,6,137,,122,122,19,23,8,11,0.3,0.5
2025-06-04T1700,3734A,118.35,37.26,东营市,理想之城,,47,19,30,3,9,150,,129,129,22,33,5,8,0.3,0.4
2025-06-04T1700,1591A,110.0023,39.8129,鄂尔多斯市,综合楼,颗粒物(PM10),67,83,20,3,3,131,,104,104,10,23,9,8,0.3,0.3
2025-06-04T1700,1592A,109.9486,39.8261,鄂尔多斯市,巴音孟克林场办事处,,46,17,21,3,8,145,,115,115,9,18,8,8,0.2,0.3
2025-06-04T1700,1593A,109.7736,39.5986,鄂尔多斯市,康泽苑,,,,24,,5,,,79,,,11,,7,,0.2
2025-06-04T1700,1594A,109.8119,39.5989,鄂尔多斯市,华泰汽车城,,43,14,24,7,7,135,,107,107,6,20,5,6,0.3,0.4
2025-06-04T1700,1595A,109.9734,39.7884,鄂尔多斯市,奥林花园,,40,22,25,7,6,126,,100,100,7,24,7,7,0.3,0.4
2025-06-04T1700,2436A,114.8938,30.3994,鄂州市,市政府,臭氧1小时,103,42,64,29,42,206,,189,189,11,33,11,12,0.5,0.7
2025-06-04T1700,2437A,114.8989,30.3714,鄂州市,赵家坝,臭氧1小时,105,36,59,23,32,210,,185,185,10,31,9,8,0.7,1
2025-06-04T1700,3654A,114.8094,30.4089,鄂州市,精准医疗中心,臭氧1小时,112,60,63,33,40,223,,180,180,8,27,7,8,1.3,1.3
2025-06-04T1700,2454A,109.4978,30.2981,恩施土家族苗族自治州,湖北民院,,47,38,37,8,15,150,,122,122,7,10,6,5,0.4,0.4
2025-06-04T1700,2455A,109.4707,30.2798,恩施土家族苗族自治州,州电力总公司,,46,29,30,9,14,146,,106,106,6,11,7,6,0.4,0.4
2025-06-04T1700,3549A,109.5061,30.3772,恩施土家族苗族自治州,龙凤新区,,31,23,25,8,12,98,,83,83,7,7,6,6,0.2,0.3
2025-06-04T1700,2499A,108.3411,21.6158,防城港市,沙万,颗粒物(PM10),73,96,35,20,15,106,,103,103,30,15,8,2,1.2,0.6
2025-06-04T1700,2500A,108.3514,21.7731,防城港市,防城档案局,,31,20,59,19,17,99,,97,97,7,19,2,2,0.7,0.7
2025-06-04T1700,2501A,108.3506,21.6414,防城港市,大海花园,,38,35,30,20,13,121,,111,111,18,11,9,4,1.3,0.8
2025-06-04T1700,1371A,113.1294,23.0067,佛山市,湾梁,,48,48,25,21,12,107,,86,86,32,23,10,9,1.0,0.8
2025-06-04T1700,1372A,113.1083,23.0478,佛山市,华材职中,,38,36,25,19,12,120,,100,100,23,22,6,7,0.7,0.6
2025-06-04T1700,1373A,113.144,23.0453,佛山市,南海气象局,,34,30,26,18,12,106,,85,85,31,23,4,4,1.1,0.9
2025-06-04T1700,1374A,113.2881,22.8094,佛山市,顺德苏岗,,34,34,25,22,10,70,,58,58,36,26,6,6,0.9,0.9
2025-06-04T1700,1376A,112.8383,22.8678,佛山市,高明孔堂,臭氧1小时,69,47,33,22,18,175,,118,118,18,24,7,11,0.9,0.9
2025-06-04T1700,1377A,112.8836,23.1588,佛山市,三水监测站,,50,41,26,24,15,160,,122,122,32,22,2,4,0.7,0.8
2025-06-04T1700,1378A,112.867,23.185,佛山市,三水云东海,"颗粒物(PM10),臭氧1小时",53,55,35,19,20,162,,129,129,16,17,1,2,0.7,0.7
2025-06-04T1700,3625A,113.2544,22.7642,佛山市,容桂街道办,,32,29,21,22,14,62,,53,53,33,30,6,6,0.9,0.9
2025-06-04T1700,1280A,119.3903,26.0543,福州市,鼓山,,,,17,,13,,,84,,,3,,2,,0.2
2025-06-04T1700,1282A,119.2681,26.0504,福州市,师大,,40,26,19,11,12,126,,108,108,12,10,4,4,0.3,0.4
2025-06-04T1700,1283A,119.2984,26.1028,福州市,五四北路,,40,,19,12,11,125,,112,112,8,12,4,4,0.4,0.6
2025-06-04T1700,1284A,119.2648,26.0768,福州市,杨桥西路,,40,23,22,13,14,126,,111,111,10,11,3,3,0.4,0.4
2025-06-04T1700,1285A,119.317,26.0746,福州市,紫阳,,39,22,22,11,16,124,,106,106,12,15,6,5,0.3,0.4
2025-06-04T1700,3048A,119.5799,26.0936,福州市,九龙,,42,25,22,10,11,133,,123,123,7,7,8,4,0.3,0.3
2025-06-04T1700,3526A,119.5189,25.9664,福州市,吴航,,41,16,22,10,14,129,,119,119,6,8,6,5,0.2,0.3
2025-06-04T1700,1755A,123.7977,41.8491,抚顺市,望花区,,40,26,19,6,8,126,,101,101,14,15,2,3,0.3,0.4
2025-06-04T1700,1756A,123.9161,41.8822,抚顺市,顺城区,,36,15,18,6,6,115,,91,91,13,16,8,8,0.3,0.4
2025-06-04T1700,1757A,124.0436,41.8611,抚顺市,东洲区,,36,19,24,6,8,114,,90,90,18,19,7,7,0.3,0.4
2025-06-04T1700,1758A,123.9247,41.8642,抚顺市,新抚区,,37,19,17,6,5,118,,92,92,8,12,6,6,0.4,0.4
2025-06-04T1700,1759A,124.0972,41.8961,抚顺市,大伙房水库,,35,29,16,6,8,112,,88,88,11,17,7,7,0.2,0.3
2025-06-04T1700,1760A,123.7086,41.8391,抚顺市,沈抚新城,,,,16,2,3,119,,100,100,14,14,4,5,0.4,0.4
2025-06-04T1700,2376A,116.2127,28.0814,抚州市,桐源党溪,,34,26,32,12,17,108,,111,111,2,2,4,4,0.8,0.9
2025-06-04T1700,2377A,116.3544,27.9831,抚州市,市站,,44,35,29,18,17,140,,136,136,4,6,2,3,0.5,0.5
2025-06-04T1700,2378A,116.3565,27.963,抚州市,血防站,,45,36,33,19,17,142,,137,137,2,7,5,5,0.4,0.5
2025-06-04T1700,2379A,116.3564,28.0007,抚州市,采茶剧团,,43,31,30,14,15,137,,132,132,2,5,6,7,0.5,0.5
2025-06-04T1700,2380A,116.385,27.9647,抚州市,医学分院,,44,34,30,18,15,140,,133,133,2,11,7,6,0.3,0.6
2025-06-04T1700,2207A,121.6094,41.998,阜新市,工业园区,,35,20,23,8,7,110,,95,95,11,14,8,8,0.2,0.3
2025-06-04T1700,2208A,121.6697,42.0279,阜新市,长青街,,35,10,13,3,3,112,,94,94,9,11,6,6,0.2,0.2
2025-06-04T1700,2209A,121.6673,42.0705,阜新市,农业园区,,35,24,16,3,2,109,,91,91,8,10,5,5,0.2,0.2
2025-06-04T1700,2210A,121.6717,42.0224,阜新市,东苑,,36,16,23,12,7,114,,95,95,11,11,4,4,0.3,0.3
2025-06-04T1700,2211A,121.6506,42.0498,阜新市,玉龙新城,,35,14,25,10,8,112,,95,95,10,11,6,6,0.3,0.4
2025-06-04T1700,2301A,115.8277,32.8929,阜阳市,市监测站,臭氧1小时,64,60,67,21,32,171,,172,172,11,12,8,9,0.3,0.4
2025-06-04T1700,2303A,115.8554,32.8605,阜阳市,开发区,臭氧1小时,64,55,80,16,26,171,,176,176,8,12,7,6,0.1,0.3
2025-06-04T1700,2875A,115.784,32.8892,阜阳市,阜阳职业技术学院,臭氧1小时,90,39,60,21,31,192,,186,186,11,12,5,6,0.3,0.5
2025-06-04T1700,3468A,115.7901,32.8613,阜阳市,市规划展馆,臭氧1小时,75,44,68,10,39,180,,178,178,9,11,4,5,0.4,0.6
2025-06-04T1700,3469A,115.836,32.9183,阜阳市,枣园社区,臭氧1小时,69,49,75,16,39,175,,172,172,8,12,6,7,0.4,0.5
2025-06-04T1700,2669A,102.9099,34.9841,甘南藏族自治州,州政府,,26,12,26,7,16,83,,75,75,2,7,4,3,0.3,0.3
2025-06-04T1700,3380A,102.8914,34.9617,甘南藏族自治州,甘肃民族师范学院,,28,11,29,3,9,89,,77,77,2,8,7,7,0.4,0.4
2025-06-04T1700,2570A,101.9603,30.0475,甘孜藏族自治州,水桥子,,31,16,23,6,10,98,,87,87,6,16,5,5,0.4,0.4
2025-06-04T1700,3065A,101.9533,29.9972,甘孜藏族自治州,州环保局,,32,26,26,3,7,102,,98,98,5,12,2,2,0.5,0.5
2025-06-04T1700,3414A,115.8347,28.932,赣江新区,桑海产业园,,38,24,25,9,12,119,,129,129,10,26,6,5,0.4,0.6
2025-06-04T1700,2362A,114.9017,25.9149,赣州市,通天岩,,28,24,26,3,6,88,,86,86,4,4,1,2,0.3,0.8
2025-06-04T1700,2363A,114.9367,25.8664,赣州市,地委,,27,21,24,10,13,85,,87,87,5,7,2,2,0.6,0.7
2025-06-04T1700,2364A,114.9461,25.8481,赣州市,气象台,,28,22,26,8,12,87,,88,88,5,9,7,8,0.1,0.3
2025-06-04T1700,2365A,114.9322,25.8333,赣州市,市图书馆,,30,16,21,9,15,95,,94,94,4,7,4,5,0.5,0.6
2025-06-04T1700,2366A,114.8905,25.8471,赣州市,华坚鞋城,,26,22,24,8,13,83,,89,89,8,8,3,4,0.2,0.3
2025-06-04T1700,3109A,115.0093,25.8613,赣州市,赣县区卫计委,,26,18,23,15,17,83,,85,85,3,10,2,2,0.3,0.4
2025-06-04T1700,2683A,106.2319,36.1417,固原市,马园,,42,42,45,10,10,124,,118,118,9,20,5,5,0.1,0.2
2025-06-04T1700,2684A,106.2792,36.0022,固原市,监测站,,39,29,27,12,7,122,,120,120,6,14,5,5,0.3,0.3
2025-06-04T1700,2685A,106.2375,36.0211,固原市,新区,,38,23,28,8,9,120,,115,115,6,12,5,5,0.3,0.3
2025-06-04T1700,3522A,106.2177,35.9959,固原市,原州区十五小,,38,21,25,6,10,120,,117,117,5,7,6,6,0.2,0.2
2025-06-04T1700,2543A,106.6308,30.5278,广安市,小平旧居,,,,,,,,,,,,,,,,
2025-06-04T1700,2544A,106.6303,30.4576,广安市,市委,,41,41,53,26,32,122,,93,93,10,21,3,5,0.5,0.6
2025-06-04T1700,2545A,106.6271,30.4663,广安市,友谊中学,,46,46,48,28,32,127,,94,94,9,20,6,7,0.8,0.9
2025-06-04T1700,2547A,106.6388,30.4551,广安市,广电花园,,48,48,51,29,31,127,,90,90,10,20,7,8,0.6,0.7
2025-06-04T1700,2902A,106.6351,30.4865,广安市,北辰小学,,50,50,51,26,29,123,,100,100,7,16,6,12,0.7,0.8
2025-06-04T1700,2523A,105.8945,32.4535,广元市,黑石坡,,34,34,41,7,16,107,,74,74,2,9,5,7,0.3,0.4
2025-06-04T1700,2524A,105.821,32.4444,广元市,老城,,40,10,33,7,12,126,,98,98,4,30,8,6,0.3,0.9
2025-06-04T1700,2526A,105.8628,32.4287,广元市,监测站,,37,20,30,9,18,117,,83,83,6,21,2,8,0.3,0.5
2025-06-04T1700,3617A,105.8047,32.4166,广元市,经开区,,41,32,48,16,27,129,,91,91,9,33,4,9,0.3,0.5
2025-06-04T1700,1345A,113.2347,23.1423,广州市,广雅中学,,50,50,30,26,16,119,,86,86,31,25,3,3,1.1,0.8
2025-06-04T1700,1346A,113.2612,23.105,广州市,市五中,颗粒物(PM10),52,53,24,31,15,109,,89,89,32,23,6,4,0.9,0.7
2025-06-04T1700,1348A,113.3478,23.0916,广州市,广东商学院,,50,48,24,35,14,78,,77,77,41,20,7,4,1.2,0.9
2025-06-04T1700,1349A,113.4332,23.1047,广州市,市八十六中,,41,41,25,16,11,38,,54,54,51,24,7,3,0.8,0.6
2025-06-04T1700,1350A,113.3505,22.9483,广州市,番禺中学,,45,45,24,27,13,92,,67,67,31,26,6,7,0.4,0.4
2025-06-04T1700,1351A,113.2146,23.3916,广州市,花都师范,,38,32,23,26,16,104,,106,106,37,24,4,5,0.7,0.8
2025-06-04T1700,1352A,113.2597,23.1331,广州市,市监测站,颗粒物(PM10),55,59,28,28,14,111,,83,83,36,27,7,6,1.1,0.9
2025-06-04T1700,1353A,113.5618,23.312,广州市,九龙镇镇龙,,33,33,20,22,12,98,,69,69,18,14,6,6,0.7,0.7
2025-06-04T1700,1354A,113.2765,23.1544,广州市,麓湖,,43,43,24,22,13,101,,74,74,27,23,3,2,0.9,0.8
2025-06-04T1700,1355A,113.443,23.3035,广州市,帽峰山森林公园,,33,18,13,3,7,103,,88,88,7,7,6,7,0.8,0.8
2025-06-04T1700,2846A,113.3221,23.1322,广州市,体育西,颗粒物(PM10),53,55,25,36,15,95,,86,86,52,25,8,6,1.0,0.8
2025-06-04T1700,3298A,113.5717,23.5491,广州市,从化街口,,27,27,22,15,13,68,,72,72,8,14,7,8,0.9,0.9
2025-06-04T1700,3299A,113.3472,23.3692,广州市,白云竹料,,31,25,22,11,12,97,,98,98,11,11,3,4,0.7,0.7
2025-06-04T1700,3300A,113.2981,23.237,广州市,白云嘉禾,,27,27,28,12,15,86,,77,77,16,24,4,5,0.8,0.9
2025-06-04T1700,3301A,113.4256,23.1716,广州市,黄埔科学城,,49,49,22,27,13,82,,74,74,30,13,5,4,0.9,0.7
2025-06-04T1700,3302A,113.3942,23.0483,广州市,番禺大学城,,32,31,19,22,14,75,,74,74,33,25,5,4,0.8,0.7
2025-06-04T1700,3303A,113.4922,22.8168,广州市,南沙黄阁,,40,40,29,20,15,58,,56,56,26,26,5,6,0.6,1
2025-06-04T1700,3304A,113.5342,22.7896,广州市,南沙街,,39,34,25,27,12,61,,55,55,33,29,3,6,1.1,0.9
2025-06-04T1700,3443A,113.2902,23.5544,广州市,花都梯面,,29,20,21,12,13,92,,84,84,9,11,6,7,0.7,0.7
2025-06-04T1700,3445A,113.7858,23.7478,广州市,从化良口,,24,24,18,15,8,59,,61,61,8,6,7,6,0.7,0.7
2025-06-04T1700,3446A,113.8051,23.2614,广州市,增城荔城,,30,30,16,16,8,63,,69,69,13,8,9,8,0.5,0.4
2025-06-04T1700,2505A,109.568,23.1478,贵港市,德智高中,,,,,,,,,,,,,,,,
2025-06-04T1700,2506A,109.6047,23.0666,贵港市,江南子站,,47,41,33,31,21,150,,129,129,7,17,5,8,0.6,0.6
2025-06-04T1700,2508A,109.5669,23.1065,贵港市,荷城子站,,36,33,29,17,13,113,,104,104,12,13,5,6,0.4,0.4
2025-06-04T1700,3405A,109.5886,23.1172,贵港市,新世纪学校,,42,36,26,20,17,132,,113,113,7,10,7,4,0.6,0.5
2025-06-04T1700,4260A,109.5933,23.0951,贵港市,中山路155-3号,,50,49,32,24,20,159,,129,129,10,14,4,5,0.5,0.5
2025-06-04T1700,1439A,106.6899,26.5998,贵阳市,马鞍山,,36,19,21,7,6,114,,98,98,10,10,4,4,0.4,0.3
2025-06-04T1700,1441A,106.6243,26.6266,贵阳市,鉴湖路,,35,29,30,12,13,110,,99,99,10,11,8,9,0.4,0.4
2025-06-04T1700,1442A,106.7487,26.6343,贵阳市,燕子冲,,,27,26,24,22,122,,108,108,10,11,4,5,,0.3
2025-06-04T1700,1443A,106.6555,26.4365,贵阳市,碧云窝,,48,36,30,14,12,152,,124,124,11,11,5,4,0.4,0.4
2025-06-04T1700,1445A,106.7109,26.6027,贵阳市,红边门,,44,27,24,19,18,139,,112,112,11,9,13,3,0.3,0.3
2025-06-04T1700,1446A,106.7164,26.5699,贵阳市,新华路,,44,31,22,9,11,138,,113,113,12,11,17,10,0.4,0.4
2025-06-04T1700,1447A,106.674,26.5424,贵阳市,太慈桥,,46,34,25,17,12,146,,111,111,20,17,4,4,0.4,0.3
2025-06-04T1700,1552A,106.805,26.3003,贵阳市,桐木岭,,34,34,32,14,18,101,,96,96,5,2,2,3,0.8,0.8
2025-06-04T1700,4230A,106.6882,26.5695,贵阳市,花果园大街66号,,41,29,24,17,15,131,,105,105,14,11,3,4,0.2,0.1
2025-06-04T1700,4231A,106.6873,26.5169,贵阳市,漓江路57号,,50,34,25,14,13,158,,121,121,11,11,2,2,0.4,0.4
2025-06-04T1700,1862A,110.4144,25.3167,桂林市,电子科大尧山校区,,,,,,,,,,,,,,,,
2025-06-04T1700,1864A,110.3089,25.2708,桂林市,龙隐路小学,,42,39,40,29,28,127,,131,131,5,8,8,9,0.5,0.6
2025-06-04T1700,1865A,110.2869,25.2178,桂林市,八中,,42,34,40,24,28,133,,131,131,6,11,7,8,0.5,0.6
2025-06-04T1700,3531A,110.296,25.1253,桂林市,旅游学院,,43,24,33,22,26,135,,122,122,5,9,3,6,0.4,0.4
2025-06-04T1700,4222A,110.1835,25.2444,桂林市,环湖路276号,,44,27,41,17,31,138,,130,130,5,11,7,18,0.5,0.6
2025-06-04T1700,4301A,110.2803,25.2773,桂林市,信义路13号,,40,31,41,23,27,127,,135,135,5,10,3,3,0.5,0.4
2025-06-04T1700,2674A,100.2561,34.4714,果洛藏族自治州,玛沁县大武镇,,39,16,13,9,10,122,,115,115,2,2,19,19,0.4,0.4
2025-06-04T1700,1129A,126.5422,45.755,哈尔滨市,岭北,,40,10,24,7,17,128,,120,120,10,26,8,11,0.5,0.7
2025-06-04T1700,1130A,126.561,45.8167,哈尔滨市,松北商大,,35,16,29,6,14,110,,109,109,12,34,5,5,0.6,0.7
2025-06-04T1700,1131A,126.979,45.5419,哈尔滨市,阿城会宁,,41,16,22,11,17,129,,114,114,15,30,11,9,0.4,0.5
2025-06-04T1700,1132A,126.599,45.7222,哈尔滨市,南岗学府路,,39,26,35,8,14,124,,116,116,8,26,7,8,0.5,0.6
2025-06-04T1700,1133A,126.689,45.7733,哈尔滨市,太平宏伟公园,,40,13,30,8,13,127,,119,119,9,32,4,5,0.5,0.7
2025-06-04T1700,1134A,126.635,45.7667,哈尔滨市,道外承德广场,,38,38,39,13,18,117,,109,109,11,33,5,6,0.4,0.5
2025-06-04T1700,1135A,126.685,45.7319,哈尔滨市,香坊红旗大街,,,19,34,12,19,126,,122,122,,36,6,8,0.4,0.7
2025-06-04T1700,1136A,126.6411,45.7258,哈尔滨市,动力和平路,,36,17,33,9,19,113,,111,111,15,32,8,9,0.4,0.5
2025-06-04T1700,1137A,126.593,45.7478,哈尔滨市,道里建国路,,40,20,31,14,15,125,,116,116,9,30,6,7,0.3,1
2025-06-04T1700,1138A,126.615,45.61,哈尔滨市,平房东轻厂,,40,28,34,12,13,127,,121,121,10,26,7,8,0.4,0.5
2025-06-04T1700,1139A,126.595,45.9855,哈尔滨市,呼兰师专,,35,25,24,3,12,111,,109,109,10,24,8,8,0.3,0.4
2025-06-04T1700,1140A,126.6206,45.6842,哈尔滨市,省农科院,颗粒物(PM10),59,68,51,20,21,114,,111,111,11,33,5,6,0.2,0.4
2025-06-04T1700,2688A,93.5128,42.8172,哈密市,地区监测站,,36,19,44,14,15,114,,102,102,8,18,3,3,0.0,0
2025-06-04T1700,2689A,93.4961,42.8328,哈密市,哈密师范学校,,37,18,42,6,14,117,,102,102,6,19,4,5,0.2,0.4
2025-06-04T1700,2671A,100.9048,36.9639,海北藏族自治州,海晏县西海镇,,45,19,26,14,15,144,,137,137,2,6,7,9,0.4,0.4
2025-06-04T1700,3867A,102.0738,36.5056,海东市,平安区公安北苑,,40,16,30,14,14,125,,115,115,3,5,8,9,0.5,0.5
2025-06-04T1700,1409A,110.576,19.9507,海口市,东寨港,,22,12,19,12,13,70,,70,70,3,6,6,7,0.5,0.6
2025-06-04T1700,1410A,110.3232,20.0574,海口市,海南大学,,31,20,25,12,16,98,,102,88,8,8,2,2,0.6,0.5
2025-06-04T1700,1411A,110.283,20.0053,海口市,秀英海南医院,,31,22,27,12,18,98,,87,87,8,9,4,5,0.5,0.4
2025-06-04T1700,1412A,110.338,19.9969,海口市,海南师范大学,,31,17,26,12,18,98,,83,83,6,9,3,3,0.5,0.5
2025-06-04T1700,1413A,110.33,20.0356,海口市,龙华路环保局宿舍,,31,22,24,12,16,98,,90,83,8,9,4,4,0.4,0.4
2025-06-04T1700,3539A,110.5111,19.9736,海口市,桂林洋子站,,25,19,32,11,16,78,,77,77,5,12,4,4,0.4,0.4
2025-06-04T1700,2673A,100.6188,36.2866,海南藏族自治州,共和县恰卜恰镇,,,,30,38,23,146,,136,136,,12,16,12,,0.4
2025-06-04T1700,2676A,97.3731,37.3753,海西蒙古族藏族自治州,德令哈市,,45,29,27,3,15,144,,136,136,2,2,15,10,0.7,0.6
2025-06-04T1700,1048A,114.5302,36.6116,邯郸市,东污水处理厂,,,33,47,,4,181,,161,161,8,21,4,6,0.4,0.3
2025-06-04T1700,1049A,114.4918,36.5713,邯郸市,矿院,,,21,36,3,5,178,,162,162,2,16,,7,,0.3
2025-06-04T1700,1050A,114.484,36.6133,邯郸市,丛台公园,臭氧1小时,70,28,41,6,9,176,,160,160,10,21,7,9,0.2,0.3
2025-06-04T1700,3458A,114.7895,36.5593,邯郸市,香泉濮院小区,臭氧1小时,75,40,61,11,7,180,,154,154,10,16,4,5,0.2,0.2
2025-06-04T1700,3579A,114.50634,36.77178,邯郸市,永年区实验高中,臭氧1小时,78,43,64,15,22,182,,161,161,8,27,5,5,0.1,0.2
2025-06-04T1700,3580A,114.20016,36.44293,邯郸市,峰峰矿区临水派出所,臭氧1小时,75,26,41,3,4,180,,162,162,8,16,8,11,0.3,0.4
2025-06-04T1700,2634A,106.9893,33.1842,汉中市,汉川机床厂子校,颗粒物(PM10),53,56,42,29,22,106,,73,73,8,15,5,4,0.6,0.5
2025-06-04T1700,2635A,107.0154,33.0706,汉中市,市监测站,颗粒物(PM10),54,57,54,26,24,104,,70,70,8,16,5,6,0.7,0.8
2025-06-04T1700,2636A,107.0089,33.1138,汉中市,鑫源开发区,,46,46,53,22,23,106,,63,63,9,20,6,6,0.6,0.6
2025-06-04T1700,2637A,107.007,33.0323,汉中市,南郑大河坎水厂,颗粒物(PM10),52,53,57,26,27,98,,69,69,10,18,5,6,0.6,0.7
2025-06-04T1700,1223A,120.2072,30.2111,杭州市,滨江,臭氧1小时,87,38,52,20,28,189,,161,161,24,33,7,7,0.4,0.6
2025-06-04T1700,1224A,120.0633,30.2747,杭州市,西溪,,49,36,40,24,29,156,,137,137,6,17,4,4,0.4,0.5
2025-06-04T1700,1226A,120.3417,30.3150,杭州市,下沙,臭氧1小时,78,24,44,13,27,182,,173,173,21,36,7,8,0.3,0.5
2025-06-04T1700,1227A,120.1269,30.2456,杭州市,卧龙桥,,46,36,42,26,30,146,,147,147,13,16,7,7,0.4,0.5
2025-06-04T1700,1228A,120.1903,30.2692,杭州市,浙江农大,,50,26,45,18,33,159,,141,141,17,33,9,9,0.4,0.6
2025-06-04T1700,1230A,120.1197,30.3119,杭州市,和睦小学,臭氧1小时,82,30,45,25,28,185,,167,167,10,25,7,7,0.4,0.5
2025-06-04T1700,1231A,120.3019,30.4183,杭州市,临平镇,臭氧1小时,64,25,59,13,39,171,,170,170,19,39,6,6,0.3,0.6
2025-06-04T1700,1232A,120.2753,30.1839,杭州市,城厢镇,臭氧1小时,65,29,48,19,33,172,,158,158,26,33,7,8,0.4,0.6
2025-06-04T1700,1233A,120.0883,30.1808,杭州市,云栖,臭氧1小时,59,44,44,25,27,167,,159,159,21,24,7,6,0.6,0.6
2025-06-04T1700,3557A,119.9464,30.0494,杭州市,镇二中,,48,28,40,16,28,152,,133,133,25,31,3,3,0.5,0.6
2025-06-04T1700,3558A,119.7183,30.2367,杭州市,市府大楼,,42,36,66,17,29,132,,134,134,14,19,8,8,0.4,0.5
2025-06-04T1700,3656A,120.1556,30.2864,杭州市,消防大队,臭氧1小时,64,36,44,20,31,171,,152,152,17,28,5,5,0.6,0.7
2025-06-04T1700,1270A,117.1959,31.7848,合肥市,明珠广场,臭氧1小时,103,68,59,34,34,206,,191,191,15,22,5,5,0.6,0.6
2025-06-04T1700,1271A,117.3072,31.8764,合肥市,三里街,臭氧1小时,78,70,59,36,33,182,,179,179,18,27,6,6,0.6,0.6
2025-06-04T1700,1272A,117.2588,31.8707,合肥市,琥珀山庄,臭氧1小时,95,73,57,34,36,196,,193,193,12,22,6,5,0.6,0.6
2025-06-04T1700,1273A,117.1604,31.9052,合肥市,董铺水库,,,68,53,31,29,188,,168,168,12,19,2,2,,0.4
2025-06-04T1700,1274A,117.25,31.8571,合肥市,长江中路,臭氧1小时,94,66,61,36,35,195,,188,188,13,21,6,6,0.5,0.5
2025-06-04T1700,1275A,117.266,31.9436,合肥市,庐阳区,臭氧1小时,104,70,60,31,32,208,,192,192,10,22,7,7,0.7,0.7
2025-06-04T1700,1276A,117.3453,31.8616,合肥市,瑶海区,臭氧1小时,75,75,62,39,33,180,,170,170,16,24,7,6,0.6,0.6
2025-06-04T1700,1277A,117.3027,31.7964,合肥市,包河区,臭氧1小时,73,63,49,31,31,178,,168,168,9,24,4,4,0.6,0.5
2025-06-04T1700,1278A,117.2776,31.7385,合肥市,滨湖新区,臭氧1小时,73,63,49,39,35,178,,166,166,9,25,7,7,0.6,0.6
2025-06-04T1700,1279A,117.1318,31.8403,合肥市,高新区,臭氧1小时,101,68,57,37,34,201,,191,191,13,19,6,6,0.5,0.6
2025-06-04T1700,3464A,117.3803,31.9147,合肥市,高教基地,臭氧1小时,110,73,56,33,31,219,,209,209,6,13,6,6,0.6,0.6
2025-06-04T1700,3614A,79.924,37.0877,和田地区,地区环保局,颗粒物(PM10),385,488,349,143,100,104,,94,94,4,9,3,2,0.4,0.4
2025-06-04T1700,3615A,79.9131,37.113,和田地区,市环保局,颗粒物(PM10),265,395,294,116,107,108,,97,97,4,9,3,2,0.6,0.7
2025-06-04T1700,2516A,108.2011,24.715,河池市,东仁乐园,,,,,,,,,,,,,,,,
2025-06-04T1700,2517A,108.0497,24.6947,河池市,市环保站,,36,36,20,7,11,102,,100,100,4,7,9,8,0.5,0.5
2025-06-04T1700,2518A,108.0983,24.6989,河池市,市疾控中心,,35,22,24,13,14,112,,105,105,6,15,9,7,0.6,0.6
2025-06-04T1700,1696A,114.6778,23.7569,河源市,源西,,28,28,19,15,12,66,,66,66,8,13,4,5,0.7,0.7
2025-06-04T1700,1697A,114.6944,23.7586,河源市,东埔,,23,23,21,16,13,58,,62,62,12,12,4,5,0.8,0.8
2025-06-04T1700,1698A,114.6892,23.7233,河源市,老城,,25,21,22,17,17,59,,58,58,9,11,4,5,0.6,0.6
2025-06-04T1700,1718A,115.4208,35.2464,菏泽市,气象局,臭氧1小时,120,79,110,35,38,239,,235,235,9,22,5,6,0.4,0.4
2025-06-04T1700,3374A,115.5564,35.0891,菏泽市,定陶老年大学,臭氧1小时,100,63,93,9,24,200,,190,190,10,19,7,9,0,0
2025-06-04T1700,4184A,115.4797,35.24401,菏泽市,永昌路1号,臭氧1小时,108,61,92,22,27,215,,212,212,13,22,14,10,0.3,0.3
2025-06-04T1700,4193A,115.4715,35.2800,菏泽市,长城路999号,臭氧1小时,121,66,101,23,30,242,,232,232,11,25,6,7,0.4,0.4
2025-06-04T1700,2514A,111.5264,24.4172,贺州市,环保小区,,45,44,37,31,24,131,,108,108,6,10,9,9,0.5,0.5
2025-06-04T1700,2515A,111.5608,24.4078,贺州市,政协大楼,,40,40,33,20,22,126,,105,105,7,11,8,9,0.5,0.6
2025-06-04T1700,3534A,111.4744,24.4553,贺州市,西湾,细颗粒物(PM2.5),52,49,32,36,25,132,,124,124,10,10,10,9,0.6,0.6
2025-06-04T1700,2385A,114.17,35.9019,鹤壁市,市监测站,,37,37,57,20,23,107,,118,114,13,22,10,15,0.9,0.8
2025-06-04T1700,2386A,114.2956,35.7511,鹤壁市,市交警支队,臭氧1小时,97,35,69,16,19,197,,168,168,8,19,4,10,0.7,1
2025-06-04T1700,2387A,114.2878,35.7306,鹤壁市,迎宾馆,臭氧1小时,105,30,86,8,18,210,,176,176,27,22,1,6,0.1,0.6
2025-06-04T1700,3474A,114.2617,35.6822,鹤壁市,大新区,臭氧1小时,102,33,64,13,17,204,,174,174,10,21,8,11,0.4,0.7
2025-06-04T1700,3596A,114.1572,35.9603,鹤壁市,南山宾馆,臭氧1小时,103,55,71,14,28,205,,175,175,7,16,6,11,0.4,0.8
2025-06-04T1700,2244A,130.2537,47.3416,鹤岗市,哈啤分公司,,36,,18,25,26,87,,78,78,4,4,14,14,0.4,0.4
2025-06-04T1700,2245A,130.2684,47.3086,鹤岗市,斯达机电,,25,22,22,17,19,80,,72,72,3,5,12,13,0.3,0.3
2025-06-04T1700,2246A,130.3114,47.3388,鹤岗市,东山纸板厂,,29,29,23,20,12,85,,78,78,8,7,14,14,0.3,0.4
2025-06-04T1700,2247A,130.1097,47.3382,鹤岗市,五号水库,,,,,,,,,,,,,,,,
2025-06-04T1700,2263A,127.4833,50.2524,黑河市,交通局,,30,18,16,7,10,96,,92,92,8,6,6,6,0.4,0.4
2025-06-04T1700,2264A,127.5144,50.2341,黑河市,环保局,,35,14,16,8,10,109,,102,102,7,5,5,4,0.2,0.4
2025-06-04T1700,2265A,127.5291,50.2472,黑河市,大黑河岛,,,,,,,94,,86,86,5,6,4,4,0.3,0.3
2025-06-04T1700,1074A,115.6838,37.7541,衡水市,电机北厂,,44,12,42,3,13,140,,126,126,6,20,6,8,0.3,0.3
2025-06-04T1700,1075A,115.6303,37.7316,衡水市,市监测站,,45,22,41,3,9,143,,125,125,4,13,3,6,0.3,0.3
2025-06-04T1700,3188A,115.6683,37.7217,衡水市,市城管局,,46,6,39,3,13,146,,131,131,29,23,3,7,0.1,0.3
2025-06-04T1700,3459A,115.5989,37.5491,衡水市,地表水厂,颗粒物(PM10),57,64,52,6,8,124,,124,124,51,33,4,5,0.2,0.3
2025-06-04T1700,2456A,112.5003,26.9167,衡阳市,原169医院,,50,38,44,28,27,159,,155,155,6,19,4,6,0.6,0.7
2025-06-04T1700,2457A,112.6194,26.9258,衡阳市,衡阳化工总厂,,45,45,47,21,33,139,,143,143,5,13,5,9,0.5,0.6
2025-06-04T1700,2458A,112.6211,26.8956,衡阳市,珠晖区环保局,,,36,46,,22,143,,151,151,6,15,6,8,0.5,0.9
2025-06-04T1700,2459A,112.6197,26.8733,衡阳市,市委党校,,,37,49,,24,138,,144,144,6,15,6,6,0.5,0.6
2025-06-04T1700,2460A,112.6006,26.8919,衡阳市,市监测站,,42,28,42,27,30,133,,137,137,6,13,8,9,0.4,0.6
2025-06-04T1700,2461A,112.5664,26.9056,衡阳市,真空机电公司,,43,28,45,25,27,136,,147,147,5,13,6,6,0.6,0.8
2025-06-04T1700,3399A,112.6703,26.882,衡阳市,师范学院,,49,49,47,27,28,138,,142,142,6,13,8,8,0.7,0.8
2025-06-04T1700,2608A,103.3772,23.3993,红河哈尼族彝族自治州,污水处理厂,,26,17,26,16,20,82,,64,64,5,9,6,9,0.1,0.2
2025-06-04T1700,2609A,103.3861,23.35,红河哈尼族彝族自治州,监测站,,24,23,30,12,18,74,,59,59,6,10,5,13,0.2,0.3
2025-06-04T1700,3038A,103.3758,23.368,红河哈尼族彝族自治州,州图书馆,,26,18,22,11,18,81,,66,66,6,9,3,6,0.3,0.4
2025-06-04T1700,1090A,111.6507,40.7517,呼和浩特市,呼市一监,,40,14,15,3,8,126,,101,101,6,14,7,7,0.3,0.3
2025-06-04T1700,1091A,111.6572,40.8033,呼和浩特市,小召,,39,17,15,7,8,123,,98,98,16,21,9,9,0.6,0.6
2025-06-04T1700,1094A,111.7516,40.8369,呼和浩特市,如意水处理厂,,40,18,22,9,9,128,,100,100,7,20,7,6,0.3,0.3
2025-06-04T1700,1095A,111.7276,40.8062,呼和浩特市,二十九中,,40,19,20,8,11,126,,97,97,9,19,6,5,0.3,0.4
2025-06-04T1700,1096A,111.5512,40.7866,呼和浩特市,工大金川校区,,40,22,18,6,9,128,,100,100,10,22,6,6,0.3,0.3
2025-06-04T1700,1097A,111.717,40.7612,呼和浩特市,化肥厂生活区,,,14,18,3,7,131,,103,103,,17,6,7,0.2,0.2
2025-06-04T1700,3698A,111.5968,40.8178,呼和浩特市,红旗小学,,41,19,17,8,8,129,,100,100,10,20,4,4,0.2,0.2
2025-06-04T1700,3699A,111.6518,40.8389,呼和浩特市,海东办,,40,17,14,3,9,128,,100,100,8,19,6,5,0.5,0.4
2025-06-04T1700,2192A,119.7594,49.2261,呼伦贝尔市,区环保局,,30,25,31,21,24,92,,89,89,7,11,5,5,0.2,0.2
2025-06-04T1700,3061A,119.7512,49.1577,呼伦贝尔市,国华电力东,,29,18,32,13,17,92,,88,88,5,7,3,4,0.2,0.3
2025-06-04T1700,1250A,120.0751,30.8669,湖州市,城西水厂,臭氧1小时,87,38,51,26,33,189,,177,177,16,45,6,6,0.5,0.5
2025-06-04T1700,2873A,120.0830,30.8929,湖州市,仁皇山新区,臭氧1小时,68,44,53,24,33,174,,173,173,21,39,5,5,0.7,0.8
2025-06-04T1700,2907A,120.1844,30.8596,湖州市,吴兴区站,臭氧1小时,67,39,48,23,36,173,,178,178,11,45,8,9,0.4,0.5
2025-06-04T1700,3562A,120.4148,30.8538,湖州市,南浔区站,臭氧1小时,78,31,57,20,42,182,,183,183,11,27,4,5,0.5,0.6
2025-06-04T1700,1607A,120.9049,40.7211,葫芦岛市,龙港区,,38,25,38,13,10,121,,104,104,8,21,8,10,0.3,0.4
2025-06-04T1700,1608A,120.8392,40.7514,葫芦岛市,化工街,,36,14,31,7,14,114,,100,100,9,29,10,12,0.4,0.4
2025-06-04T1700,1609A,120.8341,40.7073,葫芦岛市,新区,,37,17,30,8,9,116,,103,103,10,21,6,7,0.5,0.4
2025-06-04T1700,1610A,120.8695,40.7677,葫芦岛市,东城区,,36,25,36,10,10,114,,101,101,12,29,5,10,0.4,0.4
2025-06-04T1700,2482A,109.5981,27.5721,怀化市,林科所,,29,27,32,12,13,92,,95,95,5,8,5,6,0.3,0.4
2025-06-04T1700,2483A,109.9453,27.5444,怀化市,河西地税局,,34,24,33,18,19,106,,100,100,11,13,4,3,0,0.1
2025-06-04T1700,2484A,109.9781,27.5342,怀化市,市四医院,,33,25,44,17,26,104,,98,98,4,15,2,3,0.3,0.4
2025-06-04T1700,2485A,109.9972,27.5578,怀化市,监测楼,,36,32,38,25,22,92,,86,86,3,11,6,6,0.2,0.3
2025-06-04T1700,2486A,110.0394,27.583,怀化市,市委党校,,38,,32,26,24,102,,92,92,2,9,3,8,0.5,0.6
2025-06-04T1700,1210A,119.036,33.5981,淮安市,钵池山,臭氧1小时,105,68,71,33,49,209,,202,202,9,15,8,10,0.5,1
2025-06-04T1700,1211A,119.007,33.575,淮安市,北京南路,臭氧1小时,104,78,85,24,53,207,,206,206,10,22,8,14,0.3,1.4
2025-06-04T1700,1212A,118.989,33.6067,淮安市,市监测站,臭氧1小时,95,80,80,24,42,196,,192,192,15,17,10,9,0.3,0.5
2025-06-04T1700,1213A,119.135,33.5039,淮安市,楚州区监测站,臭氧1小时,69,68,84,26,46,175,,181,181,5,21,9,8,0.4,0.6
2025-06-04T1700,3426A,118.8755,33.2894,淮安市,新华书店,臭氧1小时,64,39,62,11,31,171,,177,177,6,12,8,8,0.4,0.7
2025-06-04T1700,4206A,119.0288,33.6319,淮安市,承德北路606号,臭氧1小时,100,75,77,28,45,200,,196,196,12,13,9,8,0.6,0.6
2025-06-04T1700,2282A,116.8004,33.975,淮北市,监测站,臭氧1小时,84,53,78,11,32,187,,194,194,4,16,7,8,0.7,1
2025-06-04T1700,2283A,116.8091,33.9007,淮北市,烈山区政府,臭氧1小时,89,32,74,14,38,191,,198,198,7,20,5,7,0.6,0.8
2025-06-04T1700,3330A,116.8873,33.9836,淮北市,杜集区检察院,臭氧1小时,93,44,79,12,35,194,,194,194,7,16,9,10,0.6,0.8
2025-06-04T1700,4017A,116.7923,33.9535,淮北市,市博物馆,臭氧1小时,99,40,73,10,35,199,,202,202,9,22,9,9,0.5,0.8
2025-06-04T1700,2277A,116.8305,32.7727,淮南市,潘集区政府,臭氧1小时,102,81,71,36,38,204,,190,190,8,16,6,6,0.5,0.5
2025-06-04T1700,2279A,116.8569,32.5951,淮南市,谢家集区政府,臭氧1小时,89,67,66,28,33,191,,184,184,12,15,5,6,0.3,0.3
2025-06-04T1700,2280A,116.8281,32.633,淮南市,八公山区政府,臭氧1小时,101,75,66,27,35,202,,189,189,10,12,6,6,0.3,0.4
2025-06-04T1700,2281A,116.6325,32.6201,淮南市,焦岗湖风景区管理处,,,,,,,,,,,,,,,,
2025-06-04T1700,2894A,117.0566,32.6531,淮南市,经济技术开发区消防队,,,65,62,33,40,183,,173,173,8,16,7,7,,0.4
2025-06-04T1700,3329A,117.0108,32.5893,淮南市,山南新区,臭氧1小时,99,72,65,35,40,199,,197,197,6,12,9,8,0.5,0.5
2025-06-04T1700,4209A,117.0031,32.6445,淮南市,国庆中路369号,臭氧1小时,94,55,67,17,37,195,,189,189,8,10,5,6,0.4,0.4
2025-06-04T1700,2446A,114.9028,30.4742,黄冈市,职工中心,臭氧1小时,107,41,50,33,38,214,,204,204,8,11,18,9,0.7,0.8
2025-06-04T1700,2929A,114.8858,30.4519,黄冈市,红卫路,臭氧1小时,103,48,53,29,38,205,,184,184,3,16,10,6,0.7,0.9
2025-06-04T1700,3398A,114.9136,30.4445,黄冈市,市林业局,臭氧1小时,104,46,57,34,40,208,,185,185,7,19,16,10,0.8,0.9
2025-06-04T1700,2672A,102.0199,35.5102,黄南藏族自治州,同仁县隆务镇,,39,15,22,3,10,124,,115,115,2,4,5,5,0.1,0.2
2025-06-04T1700,2295A,118.2903,29.6963,黄山市,延安路89号,,,26,26,21,11,116,,108,108,3,7,5,5,,0.4
2025-06-04T1700,2297A,118.1371,30.2756,黄山市,黄山区政府5号楼,,30,26,23,16,17,93,,89,89,2,4,4,4,0.3,0.3
2025-06-04T1700,4210A,118.3354,29.7203,黄山市,滨江东路7-2号,,37,20,31,9,13,116,,112,112,3,6,5,4,0.2,0.3
2025-06-04T1700,2423A,115.0601,30.2313,黄石市,沈家营,臭氧1小时,85,50,58,27,31,188,,185,185,9,13,12,10,0.8,0.9
2025-06-04T1700,2426A,114.8988,30.2019,黄石市,铁山,臭氧1小时,105,47,57,33,32,210,,191,191,19,29,6,7,0.3,0.4
2025-06-04T1700,2427A,115.0307,30.2092,黄石市,团城山,臭氧1小时,108,55,57,19,28,216,,203,203,7,14,16,11,0.8,0.8
2025-06-04T1700,3149A,115.0235,30.1578,黄石市,笔架山北路,臭氧1小时,92,35,46,18,26,193,,177,177,6,12,14,11,0.7,0.9
2025-06-04T1700,4185A,115.0780,30.21118,黄石市,磁湖东路29号,臭氧1小时,103,41,59,31,36,205,,179,179,6,16,14,11,0.6,0.9
2025-06-04T1700,1392A,114.4183,23.0528,惠州市,河南岸金山湖子站,,22,22,18,14,8,43,,45,45,17,12,7,8,0.8,0.7
2025-06-04T1700,1393A,114.4053,23.0822,惠州市,下埔横江三路子站,,24,24,26,12,10,56,,54,54,8,10,4,5,0.7,0.7
2025-06-04T1700,1394A,114.4103,23.1142,惠州市,江北云山西路子站,,18,18,10,12,10,54,,54,54,11,9,6,7,0.6,0.5
2025-06-04T1700,1395A,114.4645,22.7833,惠州市,惠阳区承修路船湖子站,,18,18,22,12,11,40,,33,33,20,16,8,8,0.9,0.8
2025-06-04T1700,1396A,114.5317,22.7422,惠州市,大亚湾管委会子站,,17,12,17,6,7,54,,45,45,20,17,8,8,0.7,0.8
2025-06-04T1700,3314A,114.4338,22.8134,惠州市,惠阳秋长,,17,17,15,10,8,49,,40,40,15,12,6,6,0.8,0.8
2025-06-04T1700,3452A,114.6517,22.775,惠州市,大亚湾霞涌,,16,16,12,8,5,34,,38,38,12,11,5,6,0.9,0.8
2025-06-04T1700,2240A,130.9762,45.3001,鸡西市,环保局,,20,6,12,3,6,63,,72,72,10,13,5,6,0.3,0.3
2025-06-04T1700,2243A,130.9429,45.3039,鸡西市,第一中学,,20,9,13,3,6,63,,69,69,3,7,7,7,0.5,0.5
2025-06-04T1700,3707A,131.0207,45.3073,鸡西市,欧美日汽修厂,,,0,15,,9,56,,66,66,12,11,4,5,0.3,0.4
2025-06-04T1700,3709A,130.9967,45.3106,鸡西市,市政设施管理处,,20,6,17,3,7,62,,67,67,9,13,6,6,0.4,0.5
2025-06-04T1700,2367A,114.9754,27.0803,吉安市,红声器材厂,,35,26,28,16,15,109,,104,104,4,9,10,12,0.6,0.6
2025-06-04T1700,2368A,114.9658,27.0999,吉安市,市森林工业局,,32,30,28,18,17,101,,105,105,1,7,6,9,0.6,0.6
2025-06-04T1700,2369A,114.99,27.1312,吉安市,市环境监测站,,33,22,28,19,19,104,,108,107,2,6,11,15,0.8,0.8
2025-06-04T1700,2370A,115.0093,27.0968,吉安市,青原区法院,,38,24,31,18,19,119,,113,113,2,9,4,7,0.6,0.7
2025-06-04T1700,1772A,126.54,43.8622,吉林市,哈达湾,,40,28,24,17,20,127,,103,103,11,14,5,6,0.2,0.2
2025-06-04T1700,1773A,126.5844,43.8358,吉林市,东局子,,39,27,24,18,18,122,,98,98,14,15,5,6,0.5,0.6
2025-06-04T1700,1774A,126.5052,43.8245,吉林市,电力学院,,40,24,25,20,18,125,,102,102,11,18,4,4,0.4,0.4
2025-06-04T1700,1775A,126.6133,43.8972,吉林市,江北,,38,34,30,20,16,120,,102,102,16,15,8,9,0.5,0.5
2025-06-04T1700,1776A,126.555,43.8306,吉林市,江南公园,,38,27,28,23,22,120,,97,97,10,13,5,5,0.3,0.4
2025-06-04T1700,1778A,126.7061,43.7133,吉林市,丰满,,,,,,,,,,,,,,,,
2025-06-04T1700,2868A,126.4739,43.953,吉林市,九站,,40,30,30,19,20,126,,102,102,12,15,5,6,0.3,0.3
2025-06-04T1700,1299A,116.9862,36.6114,济南市,科干所,,47,22,24,7,8,148,,131,131,10,15,4,4,0.2,0.2
2025-06-04T1700,1300A,116.9376,36.665,济南市,农科所,,46,17,29,3,5,146,,131,131,8,25,7,7,0.1,0.2
2025-06-04T1700,1301A,117.1265,36.6734,济南市,开发区,,49,20,32,3,8,154,,134,134,15,27,7,7,0.5,0.6
2025-06-04T1700,1303A,117.0624,36.6868,济南市,省种子仓库,臭氧1小时,55,22,36,3,6,164,,145,145,7,25,5,5,0.2,0.3
2025-06-04T1700,1304A,116.9489,36.6447,济南市,机床二厂,,49,22,39,3,9,154,,136,136,12,28,5,5,0.4,0.5
2025-06-04T1700,1305A,117.0495,36.663,济南市,市监测站,,48,12,31,3,6,151,,133,133,7,18,8,8,0.4,0.5
2025-06-04T1700,1306A,116.7675,36.5484,济南市,长清党校,臭氧1小时,55,27,31,3,9,164,,143,143,8,20,5,5,0.4,0.4
2025-06-04T1700,1616A,117.6795,36.229,济南市,技术学院,臭氧1小时,62,19,36,3,13,169,,138,138,9,30,11,14,0.5,0.9
2025-06-04T1700,1961A,117.532,36.6868,济南市,东山小学,臭氧1小时,55,34,34,3,7,164,,134,134,5,22,5,5,0.1,0.1
2025-06-04T1700,3059A,117.7161,36.2049,济南市,泰兴公司,臭氧1小时,70,19,33,3,11,176,,147,147,10,43,8,8,0.4,0.4
2025-06-04T1700,3064A,117.6867,36.2171,济南市,莱芜战役纪念馆,臭氧1小时,67,27,40,6,15,173,,145,145,11,27,10,10,0.1,0.7
2025-06-04T1700,3494A,117.1673,36.9782,济南市,济阳区政府,,45,24,41,3,8,142,,137,137,5,21,8,10,0.2,0.4
2025-06-04T1700,3495A,117.1171,36.63,济南市,锦屏中学,,50,15,22,3,5,158,,138,138,8,13,5,5,0.5,0.6
2025-06-04T1700,3682A,116.9814,36.6819,济南市,济南四建,,47,19,34,12,10,149,,136,136,17,31,7,5,0.3,0.3
2025-06-04T1700,1653A,116.6251,35.4302,济宁市,火炬城,臭氧1小时,104,39,68,14,26,207,,190,190,6,22,7,7,0.3,0.4
2025-06-04T1700,1655A,116.5491,35.4042,济宁市,电化厂,臭氧1小时,107,57,77,19,31,213,,192,192,2,27,3,4,0.5,0.5
2025-06-04T1700,3500A,116.5814,35.3707,济宁市,北湖一中,臭氧1小时,122,65,78,25,33,243,,214,214,10,24,11,10,0.4,0.5
2025-06-04T1700,3501A,116.8249,35.5593,济宁市,服务中心,臭氧1小时,69,40,65,3,15,175,,168,168,9,32,1,3,0.1,0.3
2025-06-04T1700,3678A,116.5907,35.4054,济宁市,市第七中学,臭氧1小时,112,78,93,24,25,224,,196,196,4,20,9,9,0.4,0.5
2025-06-04T1700,2255A,130.2751,46.8028,佳木斯市,佳纺,,26,10,10,3,8,81,,67,67,5,7,5,5,0.3,0.3
2025-06-04T1700,2256A,130.3995,46.8307,佳木斯市,发电厂,,28,12,15,6,8,89,,77,77,6,7,4,5,0.3,0.3
2025-06-04T1700,2257A,130.3258,46.7975,佳木斯市,环保局,,23,21,16,6,9,73,,65,65,16,12,4,4,0.4,0.4
2025-06-04T1700,2258A,130.3648,46.8032,佳木斯市,十一中,,26,,10,9,10,83,,70,70,6,8,4,4,0.3,0.3
2025-06-04T1700,2259A,130.3794,46.7588,佳木斯市,四丰,,,,7,3,7,,,,,8,9,1,1,0.4,0.5
2025-06-04T1700,1252A,120.7436,30.778,嘉兴市,清河小学,臭氧1小时,100,44,54,24,30,200,,198,198,21,26,7,7,0.6,0.8
2025-06-04T1700,1253A,120.726,30.7478,嘉兴市,嘉兴学院,臭氧1小时,93,41,54,22,35,194,,199,199,18,23,6,6,0.8,0.8
2025-06-04T1700,2872A,120.7846,30.7525,嘉兴市,南湖区残联,臭氧1小时,110,53,52,32,33,219,,216,216,21,22,6,6,0.7,0.7
2025-06-04T1700,3407A,120.6916,30.7739,嘉兴市,秀洲住建,臭氧1小时,92,40,50,24,32,193,,196,196,18,33,7,7,0.6,0.8
2025-06-04T1700,1945A,98.2908,39.7711,嘉峪关市,气象局,,48,48,63,9,16,144,,125,125,4,14,3,6,0.2,0.2
2025-06-04T1700,2884A,98.2672,39.7978,嘉峪关市,酒钢宾馆,,45,36,61,12,31,141,,114,114,3,20,19,36,0.5,0.7
2025-06-04T1700,3248A,98.2643,39.7724,嘉峪关市,雄关区,,45,33,55,17,18,144,,120,120,8,19,9,12,0.2,0.4
2025-06-04T1700,1383A,113.1064,22.6058,江门市,北街,,36,,29,25,15,66,,54,54,36,32,3,5,0.6,0.6
2025-06-04T1700,1384A,113.0731,22.5835,江门市,西区,,38,38,29,13,14,73,,56,56,24,27,8,9,0.7,0.7
2025-06-04T1700,1385A,113.0219,22.5311,江门市,圭峰西,,38,26,26,26,15,52,,54,54,29,20,5,5,0.7,0.6
2025-06-04T1700,1386A,113.0828,22.5947,江门市,东湖,,41,41,27,15,17,66,,52,52,30,16,10,10,0.7,0.7
2025-06-04T1700,3311A,113.1075,22.5647,江门市,江海富民,,46,46,31,22,18,67,,50,50,33,30,10,10,0.7,0.7
2025-06-04T1700,3449A,113.05,22.4667,江门市,新会银湖,,46,43,29,32,19,29,,40,40,38,30,3,3,0.8,0.7
2025-06-04T1700,1830A,113.1992,35.2590,焦作市,影视城,,,,27,,7,,,,,,16,,12,,0.4
2025-06-04T1700,3169A,113.2725,35.2067,焦作市,太极体育中心,臭氧1小时,109,94,89,18,23,218,,205,205,1,17,7,10,0,0.1
2025-06-04T1700,3335A,113.3137,35.2641,焦作市,马村街道办,臭氧1小时,114,68,80,32,29,227,,201,201,16,30,12,18,0.5,0.7
2025-06-04T1700,3336A,113.2465,35.2373,焦作市,焦作技师学院,臭氧1小时,108,58,65,14,19,215,,198,198,10,19,9,14,0.4,0.7
2025-06-04T1700,3477A,113.1656,35.2539,焦作市,中站许衡医院,臭氧1小时,103,47,53,21,19,206,,196,196,9,22,9,11,0.4,0.5
2025-06-04T1700,3981A,113.2449,35.1803,焦作市,原李万街道办,臭氧1小时,108,64,72,7,11,215,,202,202,11,25,13,16,0.4,0.4
2025-06-04T1700,4264A,113.2340,35.2190,焦作市,新安路1731号,臭氧1小时,107,54,73,15,21,214,,200,200,8,21,8,12,0.6,0.7
2025-06-04T1700,1708A,116.3701,23.5345,揭阳市,新兴,,43,26,17,14,12,135,,112,112,14,13,7,6,0.8,0.7
2025-06-04T1700,1709A,116.3264,23.5443,揭阳市,西马,,44,35,21,20,11,138,,115,115,15,10,3,7,0.9,0.8
2025-06-04T1700,1710A,116.3611,23.5626,揭阳市,东兴,,44,29,19,11,10,138,,111,111,14,10,7,4,0.8,0.7
2025-06-04T1700,1711A,116.4151,23.5294,揭阳市,渔湖,,43,38,19,13,8,137,,116,116,22,14,4,2,0.8,0.7
2025-06-04T1700,3320A,116.403,23.5699,揭阳市,曲溪,,42,36,19,14,10,133,,114,114,12,11,5,8,0.6,0.6
2025-06-04T1700,1944A,102.1692,38.5167,金昌市,天庆家园,颗粒物(PM10),78,105,57,18,24,137,,123,123,5,13,18,21,0.6,0.8
2025-06-04T1700,4022A,102.1647,38.5371,金昌市,金川区人防中心,,,136,69,23,27,135,,127,127,,14,,23,0.3,0.5
2025-06-04T1700,4239A,102.1930,38.5319,金昌市,长春路96号,颗粒物(PM10),66,81,52,16,20,134,,120,120,4,9,21,29,0.1,0.7
2025-06-04T1700,1262A,119.647,29.077,金华市,十五中,臭氧1小时,105,28,37,13,26,209,,185,185,16,19,2,6,0.5,0.6
2025-06-04T1700,1263A,119.686,29.1029,金华市,监测站,臭氧1小时,112,40,42,21,27,224,,182,182,12,21,2,2,0.4,0.5
2025-06-04T1700,3659A,119.656,29.1131,金华市,气象局,臭氧1小时,104,37,41,17,21,207,,177,177,17,24,3,4,0.5,0.7
2025-06-04T1700,1767A,121.1115,41.0879,锦州市,南山,,35,26,29,12,13,110,,98,98,10,11,6,18,0.4,0.6
2025-06-04T1700,1768A,121.0604,40.8428,锦州市,开发区,颗粒物(PM10),53,55,40,11,9,108,,104,104,25,27,5,8,0.4,0.5
2025-06-04T1700,1769A,121.1836,41.1119,锦州市,百股街道,,35,20,33,3,9,110,,98,98,7,10,7,10,0.5,0.5
2025-06-04T1700,1770A,121.1178,41.1222,锦州市,天安街道,,36,27,29,10,14,115,,107,107,12,12,6,8,0.3,0.4
2025-06-04T1700,1771A,121.1303,41.1386,锦州市,北湖公园,,35,24,21,7,10,109,,99,99,9,10,8,10,0.4,0.4
2025-06-04T1700,2160A,112.85,35.5051,晋城市,自来水公司,臭氧1小时,109,57,49,12,10,217,,187,187,10,24,7,6,0.1,0.4
2025-06-04T1700,2161A,112.8318,35.4936,晋城市,白云商贸,臭氧1小时,88,75,50,9,6,190,,161,161,16,29,11,10,0.4,0.5
2025-06-04T1700,2162A,112.8508,35.4887,晋城市,市环保局,臭氧1小时,106,72,53,17,12,211,,185,185,13,27,10,9,0.2,0.4
2025-06-04T1700,2163A,112.8676,35.4897,晋城市,技术学院,臭氧1小时,107,92,53,7,8,214,,197,197,14,24,11,8,0.7,0.6
2025-06-04T1700,2165A,112.8453,35.546,晋城市,白马寺,臭氧1小时,108,44,29,14,12,215,,182,182,7,11,8,9,0.4,0.8
2025-06-04T1700,3620A,112.8271,35.4828,晋城市,泽州一中,臭氧1小时,105,71,41,7,6,209,,183,183,12,22,12,12,0.4,0.5
2025-06-04T1700,2173A,112.7249,37.7067,晋中市,南都小区,,50,9,30,3,8,160,,126,126,4,18,8,11,0.1,0.2
2025-06-04T1700,2174A,112.6991,37.6982,晋中市,榆次区政府,,50,14,32,3,10,159,,123,123,7,22,4,5,0.4,0.4
2025-06-04T1700,2865A,112.7195,37.6828,晋中市,榆次三中,,47,12,28,3,4,149,,120,120,8,22,4,5,0.1,0.1
2025-06-04T1700,4200A,112.7478,37.6954,晋中市,迎宾街26号,,45,17,28,3,6,144,,116,116,7,21,5,6,0.1,0.2
2025-06-04T1700,2439A,112.2014,31.0481,荆门市,竹园小学,,45,24,59,18,36,144,,140,140,7,24,4,7,0.2,0.5
2025-06-04T1700,2440A,112.1969,30.9891,荆门市,掇刀,颗粒物(PM10),52,53,56,26,39,142,,118,118,9,16,6,8,0.5,0.6
2025-06-04T1700,2441A,112.2213,31.0386,荆门市,石化一小,颗粒物(PM10),53,55,64,29,41,149,,128,128,14,24,9,12,0,0.3
2025-06-04T1700,3012A,112.1849,31.0362,荆门市,西山林语,,41,24,42,16,24,131,,118,118,4,13,9,9,0.2,0.4
2025-06-04T1700,3547A,112.1632,31.0138,荆门市,龙泉中学南校,,41,32,43,20,24,130,,106,106,9,14,5,7,0.3,0.4
2025-06-04T1700,1844A,112.2494,30.3197,荆州市,市图书馆,臭氧1小时,101,36,40,28,26,201,,162,162,13,37,8,6,0.5,0.8
2025-06-04T1700,1845A,112.2008,30.3544,荆州市,市委党校,臭氧1小时,72,40,51,30,34,177,,134,134,18,37,7,7,0.4,0.5
2025-06-04T1700,3194A,112.2747,30.3122,荆州市,管委会,臭氧1小时,94,38,47,30,32,195,,144,144,14,32,9,7,0.6,0.8
2025-06-04T1700,4268A,112.1722,30.3366,荆州市,学苑路85号,臭氧1小时,73,,40,31,42,178,,134,134,15,36,8,5,0.4,0.4
2025-06-04T1700,2342A,117.3102,29.3867,景德镇市,王港中学,,,,,,,,,,,,,,,,
2025-06-04T1700,2343A,117.2117,29.2933,景德镇市,老干部活动中心,,28,19,22,10,10,89,,104,104,4,13,4,7,0.4,0.6
2025-06-04T1700,2344A,117.1894,29.2789,景德镇市,兽医站,,,23,28,8,14,88,,106,106,,16,5,8,0.9,0.9
2025-06-04T1700,2345A,117.1547,29.2617,景德镇市,台达陶瓷,,31,31,31,15,15,97,,108,108,9,19,4,23,0.3,0.4
2025-06-04T1700,2346A,117.2461,29.2956,景德镇市,陶研所,,30,21,24,12,13,96,,102,102,3,11,1,2,0.2,0.4
2025-06-04T1700,1803A,115.9872,29.6815,九江市,十里,,47,37,34,22,25,149,,151,151,9,31,5,5,0.7,0.8
2025-06-04T1700,1804A,115.9584,29.7046,九江市,茅山头,臭氧1小时,58,34,40,25,24,166,,160,160,7,24,4,5,0.6,0.6
2025-06-04T1700,1805A,115.9877,29.7295,九江市,西园,,47,40,41,22,28,148,,154,154,18,46,7,15,0.9,0.9
2025-06-04T1700,1808A,115.9114,29.6038,九江市,综合工业园,臭氧1小时,110,46,37,41,22,219,,167,167,24,33,15,10,0.8,0.6
2025-06-04T1700,1809A,116.0721,29.7535,九江市,石化总厂,,41,25,52,9,36,129,,138,138,10,42,7,12,0.8,1
2025-06-04T1700,1810A,115.9773,29.5698,九江市,庐山气象台,,43,42,20,22,15,136,,128,128,8,5,6,9,0.6,0.8
2025-06-04T1700,3190A,116.0254,29.6994,九江市,外国语学校,,47,31,36,18,25,149,,141,141,13,41,9,7,0.9,1
2025-06-04T1700,4253A,116.0102,29.6594,九江市,莲花大道8号,,40,39,23,18,14,128,,146,143,2,7,8,5,0.6,0.6
2025-06-04T1700,4240A,98.4958,39.7339,酒泉市,玉门东路5号,,46,46,60,15,24,138,,116,116,1,8,9,9,0.2,0.3
2025-06-04T1700,4241A,98.5099,39.7506,酒泉市,北大街108号,,48,48,56,17,26,150,,127,127,3,12,12,11,0.4,0.3
2025-06-04T1700,2698A,76.0072,39.4467,喀什地区,巡警大队,颗粒物(PM10),150,249,165,65,41,105,,95,86,10,14,5,5,0.2,0.3
2025-06-04T1700,2699A,75.9755,39.4694,喀什地区,吾办,细颗粒物(PM2.5),199,272,180,149,88,103,,94,86,10,14,8,7,0.1,0.2
2025-06-04T1700,4027A,75.9483,39.4689,喀什地区,老干局,颗粒物(PM10),146,242,166,80,45,93,,93,80,6,8,4,4,0.2,0.2
2025-06-04T1700,1824A,114.3389,34.7781,开封市,肿瘤医院,臭氧1小时,110,93,104,13,27,219,,214,214,6,18,9,15,0.3,0.6
2025-06-04T1700,1826A,114.2885,34.7965,开封市,世纪星幼儿园,臭氧1小时,113,99,108,32,32,226,,213,213,19,26,11,17,0.4,0.7
2025-06-04T1700,3147A,114.3438,34.8106,开封市,龙亭公园,臭氧1小时,117,82,105,20,25,234,,220,220,12,22,8,10,0.2,0.1
2025-06-04T1700,3210A,114.3644,34.7964,开封市,汴京公园,颗粒物(PM10),65,80,105,14,31,152,,143,143,11,22,10,12,0.4,0.7
2025-06-04T1700,3473A,114.2485,34.8306,开封市,技师学院,臭氧1小时,112,51,97,10,34,223,,222,222,9,23,7,15,0.4,0.7
2025-06-04T1700,3592A,114.4644,34.7556,开封市,祥符区生态环境局,臭氧1小时,98,17,75,10,29,198,,210,210,16,29,6,9,0.2,0.5
2025-06-04T1700,1951A,84.895,45.6094,克拉玛依市,长征新村,,36,22,20,11,5,115,,99,99,5,7,6,6,0.2,0.2
2025-06-04T1700,1952A,84.8988,45.5893,克拉玛依市,南林小区,,39,9,19,3,9,123,,105,105,2,6,10,11,0.2,0.1
2025-06-04T1700,1954A,84.905,44.3396,克拉玛依市,独山子区,,38,33,46,14,23,120,,114,114,6,7,6,6,0.3,0.3
2025-06-04T1700,1955A,85.6979,46.098,克拉玛依市,乌尔禾区商贸楼,,35,8,23,6,6,110,,89,89,1,5,3,3,0.2,0.2
2025-06-04T1700,3612A,85.1045,45.6899,克拉玛依市,白碱滩区新站,,39,27,35,12,20,123,,106,106,3,5,13,13,0.1,0.1
2025-06-04T1700,2697A,76.1454,39.7142,克孜勒苏柯尔克孜自治州,市人民政府,颗粒物(PM10),174,298,210,130,88,106,,98,92,1,5,2,4,0.2,0.2
2025-06-04T1700,3665A,76.1658,39.7157,克孜勒苏柯尔克孜自治州,克州文化中心,细颗粒物(PM2.5),155,239,210,118,94,101,,100,92,4,4,2,4,0.4,0.3
2025-06-04T1700,1450A,102.8204,24.8886,昆明市,呈贡新区,,35,35,23,16,12,76,,60,60,20,14,7,6,0.5,0.5
2025-06-04T1700,1451A,102.6251,24.9608,昆明市,西山森林公园,,,,,,,,,,,,,,,,
2025-06-04T1700,1452A,102.7252,25.0902,昆明市,龙泉镇,,25,,10,17,6,76,,64,64,30,8,1,3,0.4,0.3
2025-06-04T1700,1453A,102.7266,25.0375,昆明市,东风东路,,37,37,16,18,10,80,,65,65,25,17,5,5,0.5,0.4
2025-06-04T1700,1454A,102.6742,25.0669,昆明市,金鼎山,,25,21,12,12,8,77,,62,62,21,13,1,3,0.5,0.4
2025-06-04T1700,1455A,102.6644,25.0401,昆明市,碧鸡广场,,26,24,14,10,7,82,,62,62,19,15,5,5,0.6,0.5
2025-06-04T1700,3179A,102.7494,25.0119,昆明市,官渡区博物馆,,32,32,15,12,8,79,,62,62,21,18,6,6,0.5,0.5
2025-06-04T1700,3375A,102.8017,24.8336,昆明市,青年创业园,,31,19,16,15,10,99,,74,74,8,11,6,6,0.4,0.5
2025-06-04T1700,3550A,102.7997,24.9786,昆明市,昆明学院,,30,30,18,20,12,77,,66,66,26,19,5,4,0.4,0.3
2025-06-04T1700,3551A,102.5967,24.6736,昆明市,晋宁区生态环境分局,,26,16,14,12,8,83,,65,65,9,12,4,4,0.4,0.5
2025-06-04T1700,3552A,102.6678,24.9856,昆明市,云天化总部,,27,21,14,10,10,84,,65,65,20,17,3,3,0.5,0.4
2025-06-04T1700,1456A,91.1319,29.6514,拉萨市,八廓街,,37,19,14,3,7,116,,117,117,8,9,7,7,0.3,0.3
2025-06-04T1700,1457A,91.1221,29.6747,拉萨市,市环保局,,38,21,19,6,9,119,,119,119,7,12,6,6,0.3,0.3
2025-06-04T1700,1458A,91.0874,29.6475,拉萨市,区监测站,,37,10,12,3,7,116,,116,116,10,11,6,6,0.3,0.3
2025-06-04T1700,1459A,91.1774,29.6541,拉萨市,西藏大学,,37,7,13,3,7,117,,114,114,9,10,6,6,0.4,0.4
2025-06-04T1700,1460A,90.9798,29.6588,拉萨市,区辐射站,,35,18,16,6,9,109,,106,106,11,13,6,6,0.4,0.3
2025-06-04T1700,1461A,91.0834,29.6292,拉萨市,拉萨火车站,,38,10,10,6,6,119,,116,116,6,6,4,4,0.2,0.2
2025-06-04T1700,2520A,109.2203,23.7256,来宾市,来宾技工学校,臭氧1小时,62,47,42,28,24,169,,158,158,8,20,6,6,0.6,0.8
2025-06-04T1700,3535A,109.1781,23.7297,来宾市,兴宾区政府,臭氧1小时,53,39,32,23,21,162,,146,146,8,22,6,6,0.7,0.7
2025-06-04T1700,4002A,109.2416,23.7461,来宾市,中南小学,臭氧1小时,63,51,44,17,21,170,,157,157,9,28,9,10,0.6,0.8
2025-06-04T1700,1477A,104.1373,35.9454,兰州市,榆中兰大校区,,,,,,,,,,,,,,,,
2025-06-04T1700,1479A,103.831,36.0464,兰州市,铁路设计院,,40,34,37,15,22,126,,102,102,15,33,9,10,0.4,0.4
2025-06-04T1700,3241A,103.7439,36.0842,兰州市,百合公园,,38,14,34,6,12,121,,111,111,7,18,3,4,0.3,0.3
2025-06-04T1700,3242A,103.9611,35.998,兰州市,和平,,,45,33,,12,125,,113,113,7,11,6,6,0.1,0.1
2025-06-04T1700,4236A,103.6293,36.0938,兰州市,庄浪东路808号,,41,30,40,13,22,129,,118,118,10,29,9,10,0.3,0.3
2025-06-04T1700,4237A,103.7251,36.1043,兰州市,安宁西路88号,,44,43,46,18,25,140,,122,122,4,14,5,6,0.3,0.3
2025-06-04T1700,4238A,103.8470,36.0676,兰州市,北滨河东路1号,,42,38,37,13,16,133,,111,111,11,34,8,9,0.4,0.5
2025-06-04T1700,3245A,103.6633,36.533,兰州新区,新区管委会,,41,28,34,17,21,131,,122,122,7,11,4,10,0.3,0.3
2025-06-04T1700,3246A,103.6975,36.4789,兰州新区,舟曲中学,,44,27,34,8,12,138,,127,127,8,17,5,13,0.3,0.3
2025-06-04T1700,1067A,116.6708,39.5111,廊坊市,药材公司,,42,24,22,3,11,134,,113,113,7,25,2,2,0.2,0.3
2025-06-04T1700,1068A,116.7214,39.5589,廊坊市,开发区,,45,19,25,3,9,142,,120,120,10,27,2,2,0.3,0.3
2025-06-04T1700,1070A,116.7244,39.5269,廊坊市,北华航天学院,,44,28,27,13,12,138,,116,116,9,22,3,3,0.2,0.2
2025-06-04T1700,2919A,116.7022,39.5453,廊坊市,河北工业大学,,46,17,28,13,15,145,,121,121,6,20,4,3,0.3,0.3
2025-06-04T1700,2535A,103.7723,29.5462,乐山市,花湖湾,臭氧1小时,65,31,47,20,29,172,,144,144,10,20,7,10,0.4,0.6
2025-06-04T1700,2536A,103.7627,29.5844,乐山市,牛耳桥,,,46,50,27,32,165,,140,140,13,31,11,11,,1.2
2025-06-04T1700,2537A,103.7508,29.6006,乐山市,市第三水厂,臭氧1小时,79,47,44,25,27,183,,138,138,13,38,12,10,0.6,0.9
2025-06-04T1700,2538A,103.7571,29.5664,乐山市,市监测站,臭氧1小时,58,42,48,28,27,166,,128,128,11,22,11,10,0.8,1
2025-06-04T1700,3361A,103.7311,29.5628,乐山市,理工大学,,50,40,40,22,22,158,,121,121,9,27,9,9,0.9,1
2025-06-04T1700,2598A,100.2143,26.8576,丽江市,西南郊,,25,24,20,14,12,79,,77,77,5,5,6,6,0.7,0.7
2025-06-04T1700,2599A,100.2497,26.8802,丽江市,丽江古城,,25,25,19,3,12,72,,73,73,11,8,9,9,0.5,0.5
2025-06-04T1700,2600A,100.2203,26.8906,丽江市,市中心,,39,,16,27,12,63,,64,64,12,9,6,6,0.9,0.8
2025-06-04T1700,1267A,119.914,28.4514,丽水市,监测站大楼,,47,32,24,8,11,150,,123,123,8,15,3,3,0.2,0.4
2025-06-04T1700,1268A,119.93,28.4586,丽水市,莲都小学,,49,43,28,10,10,154,,123,123,9,14,3,3,0.2,0.4
2025-06-04T1700,1269A,119.879,28.4231,丽水市,余庄前,臭氧1小时,55,16,23,12,14,164,,144,144,5,9,3,3,0.3,0.4
2025-06-04T1700,1173A,119.176,34.5885,连云港市,市环境监测站,臭氧1小时,98,56,77,9,40,198,,179,179,14,22,8,9,0.4,0.5
2025-06-04T1700,3000A,119.3581,34.6972,连云港市,德源药业,,41,41,73,3,30,120,,128,128,15,29,9,12,0.4,0.6
2025-06-04T1700,3007A,119.178,34.844,连云港市,新城一中,,43,42,52,6,21,135,,140,140,25,24,9,10,0.5,0.6
2025-06-04T1700,3008A,119.3608,34.7519,连云港市,胡沟管理处,,39,39,51,7,29,77,,109,109,53,34,14,13,0.5,0.7
2025-06-04T1700,3009A,119.1478,34.5911,连云港市,矿山设计院,臭氧1小时,93,46,81,9,36,194,,174,174,19,33,8,9,0.2,0.3
2025-06-04T1700,3434A,119.2413,34.6539,连云港市,工贸学校,臭氧1小时,75,15,61,3,31,180,,163,163,13,16,10,10,0.5,0.7
2025-06-04T1700,3664A,119.4172,34.7341,连云港市,连云街道,臭氧1小时,64,22,49,6,19,171,,121,121,12,19,9,10,0.4,0.6
2025-06-04T1700,2571A,102.3431,27.8099,凉山彝族自治州,青龙寺,,31,20,18,8,4,97,,75,75,3,6,9,6,1.0,0.9
2025-06-04T1700,2572A,102.2721,27.8415,凉山彝族自治州,邛海宾馆,,40,40,23,24,10,108,,78,78,8,12,12,7,0.8,0.5
2025-06-04T1700,2573A,102.2625,27.898,凉山彝族自治州,西昌市政府,,34,29,15,7,9,108,,84,84,12,10,18,9,1.2,0.7
2025-06-04T1700,2574A,102.2685,27.8851,凉山彝族自治州,凉山州政府,,,32,17,25,12,109,,83,83,,11,15,9,0.9,0.6
2025-06-04T1700,4229A,102.2342,27.8859,凉山彝族自治州,凯乐南路30号,,42,42,26,29,14,102,,71,71,12,17,15,8,1.0,0.5
2025-06-04T1700,2212A,123.2,41.1953,辽阳市,宏伟区,,42,8,22,6,6,133,,110,110,7,10,6,7,0.4,0.4
2025-06-04T1700,2213A,123.1683,41.2495,辽阳市,新华园,,42,14,24,7,7,132,,109,109,5,11,5,3,0.3,0.3
2025-06-04T1700,2214A,123.2354,41.2639,辽阳市,滨河路,,38,,21,12,12,120,,98,98,6,9,7,7,0.2,0.2
2025-06-04T1700,2215A,123.149,41.2991,辽阳市,铁西工业园,,36,13,31,7,16,115,,96,96,6,12,3,5,0.3,0.3
2025-06-04T1700,2227A,125.1358,42.8845,辽源市,环保局,,38,17,17,8,5,119,,92,92,9,10,3,3,0.3,0.4
2025-06-04T1700,3239A,125.0764,42.9078,辽源市,银鹰制药,,38,14,12,6,7,121,,94,94,12,14,3,4,0.1,0.2
2025-06-04T1700,1625A,115.9848,36.4372,聊城市,区政府,,50,17,32,3,7,160,,146,146,3,16,6,8,0.3,0.4
2025-06-04T1700,2878A,116.0072,36.4343,聊城市,聊大东校,臭氧1小时,62,22,36,9,14,169,,154,154,5,17,6,8,0.4,0.4
2025-06-04T1700,3200A,115.9819,36.4978,聊城市,监控中心,,50,13,35,3,9,159,,145,145,5,30,7,9,0.3,0.5
2025-06-04T1700,3513A,116.0445,36.4361,聊城市,九州社区,臭氧1小时,57,23,39,3,9,165,,148,148,1,16,3,5,0.4,0.6
2025-06-04T1700,4018A,116.0567,36.4608,聊城市,星美广场,臭氧1小时,58,20,36,3,7,166,,153,153,2,13,10,9,0.6,0.4
2025-06-04T1700,2632A,94.3681,29.6376,林芝市,林芝监测站,,33,13,4,13,5,105,,98,98,5,5,3,3,0.4,0.4
2025-06-04T1700,2633A,94.3616,29.6616,林芝市,林芝人民医院,,31,6,7,3,4,98,,92,92,2,3,6,6,0.2,0.3
2025-06-04T1700,2603A,100.0781,23.8982,临沧市,市环保局,,49,41,57,34,29,59,,68,68,4,6,4,3,0.5,0.6
2025-06-04T1700,2604A,100.0894,23.8822,临沧市,市气象局,,35,35,56,23,27,32,,35,35,5,7,2,3,0.6,0.5
2025-06-04T1700,1733A,111.5531,36.0783,临汾市,临钢医院,臭氧1小时,60,30,47,3,8,168,,152,152,11,27,3,5,0.4,0.6
2025-06-04T1700,1734A,111.5028,36.0714,临汾市,技工学校,臭氧1小时,72,31,40,15,17,177,,168,168,8,23,5,7,0.4,0.5
2025-06-04T1700,1736A,111.5018,36.0855,临汾市,市委,臭氧1小时,65,31,45,3,6,172,,158,158,12,27,7,7,0.5,0.7
2025-06-04T1700,3018A,111.505,36.1014,临汾市,唐尧大酒店,臭氧1小时,84,45,52,3,8,187,,168,168,10,24,7,8,0.3,0.6
2025-06-04T1700,4244A,111.4879,36.0530,临汾市,启星学校,臭氧1小时,69,36,39,14,17,175,,152,152,11,27,6,6,0.4,0.6
2025-06-04T1700,4271A,103.2464,35.6123,临夏回族自治州,滨河东路1号,,36,15,30,6,14,113,,91,91,1,9,9,8,0.3,0.4
2025-06-04T1700,4310A,103.2093,35.5995,临夏回族自治州,新华街21号,,35,17,36,3,18,111,,98,98,6,13,5,5,0.3,0.4
2025-06-04T1700,1618A,118.3429,35.0532,临沂市,沂河小区,臭氧1小时,111,63,62,15,23,222,,173,173,14,26,7,9,0.3,0.4
2025-06-04T1700,1619A,118.295,35.0583,临沂市,鲁南制药厂,臭氧1小时,109,70,68,19,21,217,,181,181,30,32,8,10,0.4,0.5
2025-06-04T1700,1620A,118.2794,34.9976,临沂市,新光毛纺厂,臭氧1小时,113,56,67,19,21,226,,181,181,14,30,9,12,0.3,0.4
2025-06-04T1700,1621A,118.3956,35.0888,临沂市,河东保险公司,臭氧1小时,116,46,49,13,18,231,,183,183,22,29,7,9,0.4,0.5
2025-06-04T1700,3370A,118.3564,35.0215,临沂市,十里堡居委,臭氧1小时,115,58,65,12,22,229,,176,176,19,34,8,10,0.4,0.5
2025-06-04T1700,3496A,118.3604,35.1084,临沂市,南坊新区,臭氧1小时,113,56,60,19,17,226,,188,188,19,26,8,9,0.4,0.5
2025-06-04T1700,3860A,118.3920,35.0300,临沂市,皇山花园小区,臭氧1小时,116,58,63,21,22,232,,180,180,21,35,10,12,0.4,0.6
2025-06-04T1700,1870A,109.4856,24.3895,柳州市,柳东小学,,41,33,30,23,20,130,,121,121,5,7,10,10,0.4,0.4
2025-06-04T1700,1871A,109.4157,24.3277,柳州市,环保监测站,,49,40,43,34,29,136,,132,132,11,17,10,9,0.5,0.7
2025-06-04T1700,1872A,109.389,24.341,柳州市,河西水厂,,50,50,56,30,29,144,,129,129,8,22,11,12,0.4,0.5
2025-06-04T1700,1873A,109.4311,24.2921,柳州市,市四中,,47,47,41,29,23,148,,142,142,12,16,12,9,0.7,0.7
2025-06-04T1700,1874A,109.4006,24.3631,柳州市,市九中,,43,34,45,24,26,136,,123,123,5,16,15,14,0.6,0.7
2025-06-04T1700,1875A,109.4958,24.3134,柳州市,古亭山,,49,49,37,31,22,143,,129,129,4,12,6,6,0.3,0.4
2025-06-04T1700,3402A,109.5422,24.3996,柳州市,市二中,,46,38,33,29,27,147,,132,132,9,15,11,11,0.3,0.3
2025-06-04T1700,2307A,116.5079,31.737,六安市,监测大楼,臭氧1小时,80,63,46,33,28,184,,166,166,5,11,5,4,0.4,0.5
2025-06-04T1700,2308A,116.4738,31.7643,六安市,皖西学院,臭氧1小时,82,57,53,26,27,185,,169,169,5,13,6,5,0.3,0.4
2025-06-04T1700,2309A,116.4996,31.7905,六安市,朝阳厂,臭氧1小时,63,54,52,27,29,170,,158,158,12,22,6,6,0.4,0.5
2025-06-04T1700,2310A,116.5567,31.7886,六安市,开发区,臭氧1小时,83,58,60,30,33,186,,170,170,8,16,6,5,0.4,0.5
2025-06-04T1700,2576A,104.8,26.5892,六盘水市,窑上,,,23,30,15,14,85,,96,96,,5,4,3,,0.3
2025-06-04T1700,2577A,104.83,26.5917,六盘水市,黄土坡,,30,25,23,6,12,95,,105,105,12,10,10,10,0.4,0.3
2025-06-04T1700,2578A,104.89,26.5939,六盘水市,水钢,颗粒物(PM10),52,54,36,22,17,110,,106,106,13,19,11,21,0.5,0.7
2025-06-04T1700,2579A,104.8475,26.5894,六盘水市,民中,,32,23,25,7,8,102,,101,101,11,11,9,9,0.4,0.3
2025-06-04T1700,2580A,104.9544,26.5506,六盘水市,双水,,35,24,19,3,7,110,,104,104,12,10,12,11,0.4,0.4
2025-06-04T1700,2335A,117.0189,25.1181,龙岩市,龙岩师专,,,,,,,,,,,,,,,,
2025-06-04T1700,2336A,117.0217,25.1033,龙岩市,龙岩市监测站,,20,11,15,11,8,64,,64,64,18,13,2,4,0.9,0.7
2025-06-04T1700,2337A,117.0258,25.0661,龙岩市,闽西职业技术学院,,20,17,15,10,7,61,,53,53,24,11,4,7,0.7,0.7
2025-06-04T1700,2338A,117.0196,25.0306,龙岩市,龙岩学院,,20,,16,14,8,59,,57,57,26,10,2,6,0.8,0.7
2025-06-04T1700,2665A,105.0822,33.3261,陇南市,汉王镇固水子,,,,,,,,,,,,,,,,
2025-06-04T1700,2885A,104.9339,33.3826,陇南市,滨江中学,,38,38,47,18,21,113,,96,96,2,13,8,9,0.5,0.6
2025-06-04T1700,3247A,104.955,33.371,陇南市,市总工会,,37,25,37,14,16,116,,100,100,3,10,8,8,0.5,0.6
2025-06-04T1700,2487A,111.9589,27.8901,娄底市,电视发射台,,38,36,47,23,24,121,,119,119,1,2,7,11,0.5,0.5
2025-06-04T1700,2488A,111.9975,27.725,娄底市,市监测站,细颗粒物(PM2.5),64,54,62,46,44,129,,124,124,8,30,8,15,0.6,1
2025-06-04T1700,2489A,112.0194,27.7314,娄底市,市委党校,,46,38,52,32,37,133,,130,130,3,14,4,8,0.5,0.7
2025-06-04T1700,2490A,111.9561,27.7569,娄底市,涟钢,,43,42,52,30,36,124,,130,130,12,15,12,11,1.0,0.9
2025-06-04T1700,2491A,111.9892,27.7044,娄底市,市政府,,43,,49,29,36,135,,139,139,6,10,6,7,0.7,0.9
2025-06-04T1700,1893A,105.4324,28.9634,泸州市,九狮山,,35,19,27,13,22,112,,92,92,10,16,5,5,0.4,0.4
2025-06-04T1700,1894A,105.4427,28.9063,泸州市,小市上码头,,25,15,24,7,9,80,,70,70,2,11,9,12,0.4,0.5
2025-06-04T1700,1895A,105.4241,28.8573,泸州市,兰田宪桥,,35,20,28,7,12,112,,99,99,6,11,8,8,0.4,0.4
2025-06-04T1700,1896A,105.4379,28.8833,泸州市,市环监站,,34,15,23,12,12,108,,95,95,1,10,8,10,0.2,0.3
2025-06-04T1700,4272A,105.3689,28.7783,泸州市,纳溪中医医院,,35,21,29,16,20,112,,90,90,12,18,7,6,0.6,0.7
2025-06-04T1700,2183A,111.1406,37.5211,吕梁市,环保局,,47,10,43,6,10,148,,121,121,11,25,6,5,0.2,0.3
2025-06-04T1700,2185A,111.1297,37.5136,吕梁市,自来水公司,,44,20,60,3,10,140,,116,116,10,27,4,5,0.3,0.4
2025-06-04T1700,2867A,111.1283,37.51,吕梁市,马茂庄小学,,44,20,44,3,10,140,,112,112,12,28,4,4,0.3,0.4
2025-06-04T1700,1812A,112.3931,34.6516,洛阳市,市委党校,,48,21,40,12,19,153,,163,163,7,18,5,9,0.2,0.4
2025-06-04T1700,1815A,112.494,34.6886,洛阳市,河南林校,,49,17,42,13,23,155,,176,176,12,23,9,12,0.5,0.7
2025-06-04T1700,1816A,112.3844,34.623,洛阳市,开发区管委会,,50,22,34,7,15,160,,175,175,9,17,7,8,0.3,0.4
2025-06-04T1700,1817A,112.4267,34.6258,洛阳市,市委新办公区,臭氧1小时,59,25,38,6,14,167,,177,177,6,14,7,9,0.3,0.4
2025-06-04T1700,3340A,112.6005,34.6326,洛阳市,伊滨,,50,24,46,7,17,159,,172,172,6,14,5,9,0.4,0.5
2025-06-04T1700,3341A,112.4951,34.6332,洛阳市,中移产业园,,,30,44,8,14,158,,176,170,,14,7,10,0.5,0.6
2025-06-04T1700,3593A,112.5736,34.8993,洛阳市,吉利监测站,臭氧1小时,97,53,56,17,12,197,,181,181,11,17,6,7,0.5,0.6
2025-06-04T1700,3635A,112.3677,34.662,洛阳市,河科大西苑校区,,50,17,40,3,14,158,,183,180,8,23,7,12,0.2,0.6
2025-06-04T1700,3636A,112.4388,34.6781,洛阳市,英才小学,,48,39,48,11,18,152,,176,176,7,24,3,12,0.3,0.6
2025-06-04T1700,4214A,112.4600,34.6949,洛阳市,春都路1号院,臭氧1小时,65,25,54,9,18,172,,193,193,10,26,7,12,0.3,0.5
2025-06-04T1700,2399A,114.051,33.5699,漯河市,三五一五工厂,臭氧1小时,100,40,68,17,30,200,,185,185,10,21,7,8,0.2,0.8
2025-06-04T1700,2400A,114.0055,33.5698,漯河市,漯河大学,臭氧1小时,101,41,73,3,23,201,,193,193,10,23,6,7,0.3,0.5
2025-06-04T1700,2401A,114.0138,33.5828,漯河市,市水利局,臭氧1小时,93,34,62,12,26,194,,187,187,8,19,6,8,0.3,0.8
2025-06-04T1700,2402A,114.0261,33.5698,漯河市,市广电局,臭氧1小时,94,37,61,10,22,195,,186,186,16,17,5,6,0.5,0.7
2025-06-04T1700,3478A,113.9749,33.5664,漯河市,市图书馆,臭氧1小时,89,44,71,14,30,191,,183,183,15,20,5,7,0.3,0.5
2025-06-04T1700,4250A,114.0892,33.5882,漯河市,韶山路11号,臭氧1小时,101,56,66,20,29,201,,192,192,15,19,7,8,0.2,0.4
2025-06-04T1700,1798A,118.5092,31.6837,马鞍山市,湖东路四小,臭氧1小时,126,69,72,32,40,251,,210,210,10,26,8,9,0.9,1
2025-06-04T1700,1799A,118.5024,31.6449,马鞍山市,开发区,臭氧1小时,124,82,73,44,39,247,,205,205,14,34,8,8,1.0,0.9
2025-06-04T1700,1802A,118.6245,31.7241,马鞍山市,濮塘,臭氧1小时,112,77,61,53,40,224,,205,205,5,7,9,9,1.1,1
2025-06-04T1700,3633A,118.4918,31.6809,马鞍山市,雨山,臭氧1小时,121,53,65,41,39,242,,200,200,12,25,8,8,1.0,1.2
2025-06-04T1700,4191A,118.5274,31.72227,马鞍山市,慈湖高新区,臭氧1小时,119,79,80,58,60,237,,212,212,19,31,8,10,0.9,0.9
2025-06-04T1700,1686A,111.0286,21.4688,茂名市,电白南海,,48,48,34,19,20,64,,70,70,26,12,13,6,1.2,1
2025-06-04T1700,1687A,110.9294,21.6533,茂名市,茂石化七小,,,22,27,7,12,67,,65,65,,10,4,5,0.6,0.6
2025-06-04T1700,1688A,110.9107,21.6687,茂名市,健康路,,24,14,20,9,13,74,,72,72,9,11,4,7,0.6,0.6
2025-06-04T1700,1689A,110.8592,21.6828,茂名市,高岭,,24,24,38,12,14,66,,68,68,15,15,8,8,0.6,0.7
2025-06-04T1700,3450A,111.01,21.5165,茂名市,电白水东,,27,27,28,7,14,71,,65,65,13,16,4,7,0.6,0.7
2025-06-04T1700,2539A,104.0308,30.0478,眉山市,黑龙滩水库,,44,37,24,24,15,140,,148,148,8,10,2,3,0.5,0.5
2025-06-04T1700,2540A,103.8416,30.0874,眉山市,气象局,,,65,57,31,29,147,,145,145,18,39,,6,0.5,0.6
2025-06-04T1700,3137A,103.8578,30.0744,眉山市,市委党校,,46,46,49,24,25,134,,132,132,21,38,10,14,0.6,0.7
2025-06-04T1700,3148A,103.8291,30.0564,眉山市,区人社局,,43,39,47,24,26,137,,144,144,24,40,15,19,0.5,0.5
2025-06-04T1700,1690A,116.1231,24.3284,梅州市,梅江月梅,,19,,21,11,8,59,,52,52,3,10,5,6,0.8,0.8
2025-06-04T1700,1691A,116.0797,24.2719,梅州市,梅县新城,,22,20,22,15,7,58,,56,56,16,12,6,6,0.9,0.8
2025-06-04T1700,1692A,116.1248,24.2654,梅州市,环境监控中心,,26,26,23,11,8,55,,54,54,12,18,3,3,0.9,0.8
2025-06-04T1700,3315A,116.1233,24.2991,梅州市,梅龙,,32,24,18,22,13,60,,53,53,11,11,6,6,0.8,0.8
2025-06-04T1700,1878A,104.7778,31.4741,绵阳市,富乐山,,43,42,41,30,23,117,,110,110,8,14,8,8,0.5,0.5
2025-06-04T1700,1880A,104.6697,31.4668,绵阳市,高新区自来水公司,,37,37,29,12,15,113,,107,107,9,31,4,4,0.5,0.5
2025-06-04T1700,1881A,104.7287,31.5075,绵阳市,三水厂,,42,36,43,29,25,122,,113,113,12,35,9,9,0.5,0.6
2025-06-04T1700,3491A,104.69,31.5322,绵阳市,西科大附属小学,颗粒物(PM10),52,54,49,29,21,125,,120,120,11,32,8,8,0.5,0.5
2025-06-04T1700,3492A,104.5648,31.5343,绵阳市,安州区旅游局,,40,33,31,14,14,128,,124,124,11,19,3,4,0.6,0.6
2025-06-04T1700,4226A,104.7651,31.4531,绵阳市,绵阳市气象局,,46,46,43,21,24,107,,100,100,8,20,5,4,0.6,0.6
2025-06-04T1700,1784A,129.61,44.561,牡丹江市,环保大楼,,22,22,19,13,14,66,,80,78,21,11,9,8,0.3,0.2
2025-06-04T1700,1785A,129.6115,44.5782,牡丹江市,文化广场,,29,25,37,20,18,66,,75,74,24,15,10,10,0.4,0.4
2025-06-04T1700,1786A,129.5904,44.5963,牡丹江市,第一医院,,23,7,15,7,11,72,,78,78,16,13,4,4,0.5,0.4
2025-06-04T1700,1787A,129.6364,44.6075,牡丹江市,机车工厂,,41,41,25,13,7,58,,76,74,24,13,5,7,0.4,0.3
2025-06-04T1700,1788A,129.6386,44.5462,牡丹江市,第一中学,,30,27,17,21,13,63,,75,74,18,11,6,6,0.4,0.3
2025-06-04T1700,2531A,105.0703,29.61,内江市,市监测站,,36,28,31,12,22,113,,118,118,9,19,8,9,0.9,1
2025-06-04T1700,2532A,105.0717,29.5947,内江市,东兴区政府,,37,22,21,6,15,118,,122,122,8,15,4,5,0.5,0.6
2025-06-04T1700,2533A,105.0653,29.5817,内江市,内江二中,,34,19,31,12,28,108,,112,112,8,15,6,6,0.4,0.5
2025-06-04T1700,2534A,105.0406,29.5822,内江市,内江日报社,,38,38,30,12,23,111,,123,123,7,17,3,9,0.2,0.7
2025-06-04T1700,2628A,92.0657,31.4846,那曲市,那曲监测站,,,26,18,8,9,111,,128,116,13,12,7,7,,0.3
2025-06-04T1700,4243A,92.0515,31.4787,那曲市,那曲市委宣传部,,39,16,11,3,5,123,,133,126,5,9,6,6,0.1,0.1
2025-06-04T1700,1290A,115.8931,28.6843,南昌市,省外办,,,20,25,17,20,131,,132,132,8,22,9,10,,0.9
2025-06-04T1700,1291A,115.8886,28.7003,南昌市,省林业公司,,36,27,29,9,16,114,,118,118,6,21,7,9,0.4,0.5
2025-06-04T1700,1292A,115.8126,28.7442,南昌市,林科所,,40,19,15,12,10,125,,124,124,11,17,7,4,0.4,0.4
2025-06-04T1700,1294A,115.8518,28.687,南昌市,建工学校,,38,37,31,20,27,119,,121,121,9,25,6,7,0.4,0.5
2025-06-04T1700,1295A,115.8921,28.6424,南昌市,象湖,,39,17,18,9,12,122,,123,123,18,24,6,7,0.4,0.6
2025-06-04T1700,1296A,115.7423,28.7996,南昌市,武术学校,,38,,12,26,24,113,,125,125,3,3,4,5,0.2,0.3
2025-06-04T1700,3046A,115.9084,28.6062,南昌市,机电学校,,,,33,,18,128,,125,125,10,23,,4,0.5,0.5
2025-06-04T1700,3690A,115.9721,28.7031,南昌市,外国语学校,,35,26,25,10,14,111,,121,121,10,21,7,8,0.1,0.2
2025-06-04T1700,4192A,115.9316,28.68677,南昌市,南京东路235号,,35,27,35,11,14,109,,111,111,6,20,6,7,0.5,0.6
2025-06-04T1700,1905A,106.056,30.8064,南充市,西山风景区,,,,,,,,,,,,,,,,
2025-06-04T1700,1906A,106.0789,30.8023,南充市,南充市委,,39,23,46,16,31,124,,113,113,7,20,5,7,0.3,0.5
2025-06-04T1700,1907A,106.1031,30.8217,南充市,南充炼油厂,,37,33,47,21,34,117,,94,94,5,16,5,6,0.4,0.6
2025-06-04T1700,4227A,106.1083,30.7884,南充市,梨树横街98号,,36,27,54,14,32,115,,103,103,6,16,4,5,0.3,0.4
2025-06-04T1700,4304A,106.1172,30.843,南充市,清泉寺北路188号,,37,30,47,16,34,118,,89,89,6,15,5,5,0.4,0.5
2025-06-04T1700,4305A,106.067,30.7616,南充市,同庆路1号,,41,31,44,24,33,129,,109,109,8,17,4,4,0.3,0.4
2025-06-04T1700,1151A,118.8086,32.1065,南京市,迈皋桥,臭氧1小时,116,54,52,41,38,231,,204,204,14,19,4,5,0.9,0.8
2025-06-04T1700,1152A,118.7538,32.0551,南京市,草场门,臭氧1小时,112,66,63,34,40,224,,206,206,16,29,4,3,0.6,0.7
2025-06-04T1700,1153A,118.7794,32.0745,南京市,山西路,臭氧1小时,123,66,72,34,41,246,,222,222,33,18,8,6,0.6,0.5
2025-06-04T1700,1154A,118.7752,32.0023,南京市,中华门,,,,,,,,,,,,,,,,
2025-06-04T1700,1155A,118.8109,32.0309,南京市,瑞金路,臭氧1小时,104,56,62,34,41,208,,197,197,12,26,6,7,0.4,0.6
2025-06-04T1700,1156A,118.7997,32.0754,南京市,玄武湖,臭氧1小时,104,58,62,28,34,208,,185,185,10,14,4,4,0.6,0.6
2025-06-04T1700,1157A,118.6414,32.0931,南京市,浦口,臭氧1小时,105,65,55,30,32,209,,187,187,15,16,6,4,1.1,0.9
2025-06-04T1700,1158A,118.7356,31.9996,南京市,奥体中心,臭氧1小时,111,58,63,31,39,221,,212,212,11,24,4,4,0.5,0.6
2025-06-04T1700,1159A,118.9125,32.1028,南京市,仙林大学城,臭氧1小时,111,66,71,31,35,221,,215,215,10,23,9,10,0.8,1
2025-06-04T1700,3422A,118.8436,31.9198,南京市,江宁彩虹桥,臭氧1小时,112,70,58,34,35,223,,219,219,19,34,4,4,0.7,0.7
2025-06-04T1700,3427A,118.8554,32.3578,南京市,六合雄州,臭氧1小时,110,24,62,22,37,220,,199,199,18,29,10,8,0.6,0.7
2025-06-04T1700,4249A,118.8708,31.3402,南京市,汶溪路181号,臭氧1小时,68,67,42,20,32,174,,173,173,8,16,2,4,0.5,0.7
2025-06-04T1700,4312A,119.019,31.6512,南京市,中山西路1号,臭氧1小时,62,36,44,29,31,169,,172,170,8,12,4,5,0.6,0.6
2025-06-04T1700,1401A,108.3103,22.7881,南宁市,二十一中,,44,43,32,24,16,138,,133,133,18,16,3,4,0.4,0.5
2025-06-04T1700,1402A,108.3141,22.8528,南宁市,北湖,,44,36,32,25,23,139,,133,133,11,17,6,8,0.6,0.7
2025-06-04T1700,1403A,108.3206,22.8225,南宁市,市监测站,,39,29,31,20,18,123,,120,120,9,13,3,4,0.6,0.7
2025-06-04T1700,1404A,108.3829,22.8037,南宁市,大自然花园,,45,39,31,20,15,142,,133,133,8,10,6,6,0.5,0.6
2025-06-04T1700,1405A,108.4394,22.7904,南宁市,仙葫,,39,35,29,23,22,122,,118,118,6,10,10,10,0.8,0.8
2025-06-04T1700,1406A,108.2397,22.8467,南宁市,区农职院,,47,46,39,24,19,150,,137,137,10,15,6,10,0.4,0.6
2025-06-04T1700,1407A,108.3275,22.735,南宁市,英华嘉园,,48,32,35,19,19,152,,144,144,8,10,8,8,0.5,0.5
2025-06-04T1700,3401A,108.4834,22.7618,南宁市,红星社区,,50,29,30,17,18,158,,141,141,4,11,3,3,0.5,0.5
2025-06-04T1700,4221A,108.2177,22.7774,南宁市,乐贤路16号,,49,48,45,27,24,155,,145,145,10,30,11,12,0.6,0.6
2025-06-04T1700,2331A,118.0966,26.6761,南平市,茫荡山,,,,,,,,,,,,,,,,
2025-06-04T1700,2332A,118.1681,26.6369,南平市,南平市监测站,,26,20,13,8,4,82,,73,73,5,7,4,4,0.5,0.7
2025-06-04T1700,2333A,118.1825,26.6489,南平市,南平铝业有限公司,,26,18,14,13,6,83,,72,72,4,7,4,4,0.4,0.6
2025-06-04T1700,2334A,118.1756,26.6272,南平市,南平七中,,28,12,13,9,5,88,,74,74,2,5,4,4,0.4,0.6
2025-06-04T1700,1168A,120.9098,31.9663,南通市,狼山街道,臭氧1小时,141,64,60,39,41,281,,245,245,16,36,7,7,1.0,1.2
2025-06-04T1700,1169A,120.86,32.0005,南通市,虹桥,臭氧1小时,146,71,64,46,46,292,,243,243,37,56,8,7,0.9,0.8
2025-06-04T1700,1170A,120.87,32.02,南通市,城中,臭氧1小时,149,80,74,42,41,298,,246,246,28,44,12,8,1.1,1
2025-06-04T1700,1171A,120.94,31.93,南通市,星湖花园,臭氧1小时,132,66,65,44,43,263,,242,242,19,36,6,8,0.5,0.7
2025-06-04T1700,1172A,120.81,32.0417,南通市,紫琅学院,臭氧1小时,129,82,75,42,41,258,,206,206,31,55,14,10,1.2,0.8
2025-06-04T1700,3291A,121.067,32.062,南通市,通州监测站,臭氧1小时,127,63,72,31,41,253,,232,232,18,28,9,9,0.8,1
2025-06-04T1700,3432A,120.9348,31.9883,南通市,环境教育馆,臭氧1小时,150,68,70,39,42,299,,267,267,19,31,8,8,0.7,0.8
2025-06-04T1700,2404A,112.5224,33.0122,南阳市,瓦房庄,臭氧1小时,62,46,54,12,20,169,,137,137,10,21,8,9,0.5,0.6
2025-06-04T1700,2405A,112.5003,32.9735,南阳市,汉画馆,,47,43,52,16,21,149,,130,130,16,29,6,8,0.4,0.5
2025-06-04T1700,2406A,112.5573,33.027,南阳市,气象站,臭氧1小时,53,42,54,9,20,162,,132,132,11,19,7,8,0.3,0.4
2025-06-04T1700,2407A,112.5481,32.9689,南阳市,理工学院,臭氧1小时,53,40,52,15,22,162,,129,129,12,24,6,8,0.3,0.4
2025-06-04T1700,4008A,112.5234,32.9922,南阳市,卧龙区政府,颗粒物(PM10),52,53,49,19,25,154,,126,126,12,24,6,8,0.4,0.6
2025-06-04T1700,1234A,121.8358,29.911,宁波市,区环保大楼,,42,42,41,23,22,126,,123,123,21,37,8,9,0.4,0.7
2025-06-04T1700,1235A,121.56,29.82,宁波市,万里学院,,48,38,38,20,27,151,,146,146,19,30,8,10,0.4,0.6
2025-06-04T1700,1236A,121.713,29.9572,宁波市,龙赛医院,,40,31,48,20,22,125,,140,140,27,37,8,9,0.4,0.5
2025-06-04T1700,1239A,121.633,29.7733,宁波市,钱湖水厂,,48,26,30,17,20,152,,144,144,8,13,9,9,0.4,0.5
2025-06-04T1700,1240A,121.5856,29.8635,宁波市,太古小学,,49,29,42,18,23,154,,154,154,15,28,7,8,0.4,0.5
2025-06-04T1700,1241A,121.524,29.8674,宁波市,市环境监测中心,,43,28,32,16,22,136,,150,150,23,35,11,12,0.5,0.6
2025-06-04T1700,2871A,121.6147,29.9017,宁波市,万里国际学校,,49,19,33,19,27,155,,155,155,15,29,6,8,0.3,0.5
2025-06-04T1700,3710A,121.5594,29.8975,宁波市,白沙活动中心,,49,28,29,15,20,154,,156,156,12,25,9,10,0.5,0.6
2025-06-04T1700,2339A,119.5001,26.6946,宁德市,金涵水库,,,,,,,,,,,,,,,,
2025-06-04T1700,2341A,119.5388,26.6612,宁德市,宁德市监测站,,46,38,24,26,17,145,,121,121,12,9,5,5,0.5,0.5
2025-06-04T1700,3209A,119.5231,26.6562,宁德市,宁德一中,颗粒物(PM10),56,62,26,3,6,142,,120,120,13,8,6,5,0.5,0.4
2025-06-04T1700,2618A,98.8601,25.8567,怒江傈僳族自治州,州监测站,颗粒物(PM10),61,71,47,26,23,83,,56,56,4,6,10,10,0.3,0.4
2025-06-04T1700,2619A,98.8546,25.8417,怒江傈僳族自治州,泸水一中,颗粒物(PM10),61,72,46,31,16,64,,41,41,9,11,6,5,0.4,0.5
2025-06-04T1700,1888A,101.6891,26.571,攀枝花市,弄弄坪,,33,26,32,16,17,104,,76,76,9,15,8,13,0.6,0.7
2025-06-04T1700,1889A,101.5769,26.5928,攀枝花市,河门口,,34,21,28,11,16,107,,80,80,7,14,10,13,0.7,0.8
2025-06-04T1700,1890A,101.7169,26.585,攀枝花市,炳草岗,,34,18,33,13,24,106,,71,71,14,18,8,18,0.7,0.8
2025-06-04T1700,1891A,101.7369,26.5008,攀枝花市,仁和,,29,26,28,19,18,92,,77,77,6,9,11,10,0.6,0.6
2025-06-04T1700,2835A,101.7227,26.567,攀枝花市,四十中小,,35,24,19,15,10,111,,83,83,8,11,11,17,0.7,0.8
2025-06-04T1700,1604A,122.0303,41.1489,盘锦市,开发区,,37,26,30,11,8,116,,112,112,14,12,11,11,0.2,0.3
2025-06-04T1700,1605A,122.0485,41.0883,盘锦市,兴隆台,,37,20,33,9,8,117,,112,112,18,21,7,9,0.2,0.3
2025-06-04T1700,1606A,121.8297,41.1028,盘锦市,新生街道,,40,12,23,8,6,126,,108,108,11,21,9,11,0.2,0.2
2025-06-04T1700,1832A,113.3257,33.742,平顶山市,新华旅馆,臭氧1小时,60,31,55,12,20,168,,178,178,9,12,7,8,0.3,0.5
2025-06-04T1700,1833A,113.2919,33.737,平顶山市,规划设计院,臭氧1小时,55,36,55,11,21,164,,183,180,7,20,6,7,0.3,0.6
2025-06-04T1700,1834A,113.182,33.774,平顶山市,平顶山工学院,臭氧1小时,67,31,45,3,15,173,,185,185,4,13,6,6,0.4,0.5
2025-06-04T1700,3204A,113.3025,33.73,平顶山市,规划局,臭氧1小时,69,29,52,9,18,175,,180,180,6,20,7,8,0.4,0.6
2025-06-04T1700,3594A,112.8867,33.9116,平顶山市,石龙区,臭氧1小时,62,37,61,6,15,169,,170,170,8,34,6,10,0.3,0.4
2025-06-04T1700,2656A,106.6692,35.5461,平凉市,聚贤嘉苑,,,,,,,,,,,,,,,,
2025-06-04T1700,2657A,106.7021,35.5307,平凉市,博物馆,,44,44,47,10,14,126,,108,108,6,18,10,12,0.6,0.7
2025-06-04T1700,2347A,114.0997,27.5002,萍乡市,武功山,,24,,8,7,6,75,,79,79,3,4,10,11,0.6,0.6
2025-06-04T1700,2348A,113.8385,27.6434,萍乡市,中医院,,42,36,37,17,23,133,,114,114,6,9,10,11,0.8,1
2025-06-04T1700,2349A,113.8493,27.6253,萍乡市,市政府车库,,40,28,29,28,29,118,,103,103,6,10,7,7,0.9,0.9
2025-06-04T1700,2350A,113.8676,27.6435,萍乡市,市环保局,,40,40,35,14,24,124,,106,106,4,10,5,7,0.8,1.1
2025-06-04T1700,2351A,113.866,27.6198,萍乡市,安源区政府,细颗粒物(PM2.5),87,,36,64,23,113,,96,96,6,9,4,4,0.8,0.9
2025-06-04T1700,2319A,119.0141,25.4325,莆田市,荔城区仓后路,,35,20,18,11,11,110,,106,106,8,9,3,3,0.4,0.6
2025-06-04T1700,2320A,119.0015,25.4553,莆田市,莆田市监测站,,35,30,23,9,11,110,,104,104,8,8,3,3,0.4,0.5
2025-06-04T1700,2321A,119.1119,25.4561,莆田市,涵江区六中,,37,30,23,11,11,117,,110,110,10,12,3,3,0.3,0.4
2025-06-04T1700,2322A,119.1013,25.3215,莆田市,秀屿区政府,,36,32,20,10,12,115,,112,112,10,9,2,3,0.1,0.5
2025-06-04T1700,2323A,118.981,25.4792,莆田市,东圳水库,,,,,,,,,,,,,,,,
2025-06-04T1700,2392A,115.0312,35.7636,濮阳市,环保局,臭氧1小时,97,43,63,12,20,197,,178,178,10,22,9,10,0.7,0.7
2025-06-04T1700,2394A,115.0574,35.7609,濮阳市,油田运输公司,臭氧1小时,101,42,72,12,20,202,,181,181,8,21,8,9,0.4,0.6
2025-06-04T1700,3021A,115,35.7668,濮阳市,濮水河管理处,臭氧1小时,94,37,61,10,21,195,,174,174,17,27,7,7,0.5,0.6
2025-06-04T1700,4216A,115.0924,35.7686,濮阳市,任丘路479号,臭氧1小时,101,38,80,11,22,201,,182,182,7,20,9,10,0.4,0.6
2025-06-04T1700,2601A,100.98,22.7633,普洱市,市环保局,,,90,53,18,17,98,,83,83,,6,,4,0.4,0.6
2025-06-04T1700,2602A,100.9817,22.8322,普洱市,普洱第二中学,颗粒物(PM10),65,79,50,14,16,85,,76,76,4,7,5,5,0.4,0.5
2025-06-04T1700,2262A,131.0518,45.8751,七台河市,新一中,,22,6,8,3,8,70,,69,69,6,7,8,10,0.7,1.1
2025-06-04T1700,3345A,131.0577,45.7879,七台河市,中波台,,18,,6,8,7,56,,52,52,5,11,5,6,0.2,0.3
2025-06-04T1700,3637A,131.0176,45.7761,七台河市,人民广场,,18,6,15,3,9,57,,56,56,5,10,8,11,0.4,0.5
2025-06-04T1700,3684A,130.8781,45.8222,七台河市,新建矿广场,,19,,8,9,12,58,,60,58,9,13,9,10,0.4,0.3
2025-06-04T1700,1779A,123.9305,47.3636,齐齐哈尔市,安居小区,,28,25,18,7,7,87,,90,89,13,11,3,3,0.3,0.4
2025-06-04T1700,1780A,123.9488,47.3386,齐齐哈尔市,中心广场,,31,14,18,3,5,97,,96,96,11,12,6,5,0.4,0.4
2025-06-04T1700,1781A,123.9483,47.3227,齐齐哈尔市,农牧车辆厂,,28,19,20,11,7,89,,88,88,6,8,5,5,0.2,0.1
2025-06-04T1700,1783A,123.945,47.2988,齐齐哈尔市,市环境监测站,,30,19,14,10,8,96,,93,93,5,8,3,3,0.1,0.2
2025-06-04T1700,3662A,123.6333,47.2075,齐齐哈尔市,富区青少年活动中心,,34,34,19,22,11,92,,88,88,8,8,7,3,0.4,0.3
2025-06-04T1700,2591A,107.9783,26.5747,黔东南苗族侗族自治州,市环境监测站,,29,23,18,18,15,90,,81,81,5,13,1,2,0.4,0.4
2025-06-04T1700,2881A,107.8908,26.5311,黔东南苗族侗族自治州,凯里学院,,28,19,12,16,11,88,,85,85,4,9,4,3,0.3,0.3
2025-06-04T1700,2593A,107.5228,26.2403,黔南布依族苗族自治州,小围寨,,28,22,17,19,8,82,,77,77,6,8,3,5,0.3,0.3
2025-06-04T1700,3538A,107.5175,26.2978,黔南布依族苗族自治州,沙坝,,33,31,21,17,8,103,,94,94,5,9,4,5,0.5,0.5
2025-06-04T1700,2589A,104.9022,25.0925,黔西南布依族苗族自治州,场坝街,,,,26,,12,121,,102,102,9,9,,2,0.3,0.3
2025-06-04T1700,2590A,104.8811,25.0992,黔西南布依族苗族自治州,坪东大道,,31,17,28,9,16,97,,80,80,9,11,1,1,0.1,0.1
2025-06-04T1700,2502A,108.6236,21.9667,钦州市,市环保站,,42,41,42,9,14,134,,122,122,10,15,6,6,0.4,0.8
2025-06-04T1700,2503A,108.6549,21.9481,钦州市,沙埠小学,,45,38,41,20,19,142,,124,124,8,19,5,10,0.5,0.5
2025-06-04T1700,2504A,108.5989,21.7431,钦州市,港区一小,,44,44,46,26,18,116,,106,106,25,21,11,10,0.8,0.7
2025-06-04T1700,3404A,108.5959,21.9633,钦州市,北职校,,42,35,40,18,19,133,,122,122,9,16,8,8,0.5,0.7
2025-06-04T1700,1043A,119.7493,40.0116,秦皇岛市,第一关,,42,28,31,17,17,132,,105,105,17,40,6,4,0.4,0.2
2025-06-04T1700,1044A,119.5897,39.9499,秦皇岛市,监测站,,43,43,37,11,9,122,,108,108,23,33,6,5,0.4,0.3
2025-06-04T1700,1046A,119.5251,39.9041,秦皇岛市,建设大厦,,37,28,32,11,11,117,,103,103,26,30,4,4,0.5,0.3
2025-06-04T1700,3132A,119.610547,39.943889,秦皇岛市,文明里,颗粒物(PM10),52,54,37,15,12,111,,104,104,23,23,6,4,0.5,0.3
2025-06-04T1700,4198A,119.5090,39.8253,秦皇岛市,北戴河轮滑馆,,32,31,29,10,10,100,,102,102,19,13,4,5,0.5,0.3
2025-06-04T1700,1307A,120.6659,36.2403,青岛市,仰口,,39,,21,12,9,123,,124,124,5,5,8,8,0.3,0.4
2025-06-04T1700,1310A,120.4134,36.0658,青岛市,市南区东部子站,,43,24,31,3,8,137,,120,120,21,33,8,10,0.4,0.4
2025-06-04T1700,1311A,120.3664,36.1032,青岛市,四方区子站,,45,14,27,3,11,143,,137,137,6,33,4,7,0.4,0.5
2025-06-04T1700,1312A,120.2994,36.054,青岛市,市南区西部子站,,41,39,40,12,11,130,,112,112,31,50,9,10,0.4,0.5
2025-06-04T1700,1313A,120.4581,36.0858,青岛市,崂山区子站,,45,14,23,3,5,142,,126,126,9,17,7,9,0.3,0.5
2025-06-04T1700,1315A,120.3999,36.3083,青岛市,城阳区子站,,42,7,23,3,11,132,,119,119,9,25,6,6,0.4,0.5
2025-06-04T1700,1966A,120.0405,35.8735,青岛市,黄岛区4号,,45,27,31,7,10,143,,133,133,19,26,8,9,0.5,0.5
2025-06-04T1700,3362A,120.5014,36.4034,青岛市,即墨2号,,40,19,42,3,11,125,,113,113,9,20,9,10,0.2,0.2
2025-06-04T1700,3642A,120.3503,36.0736,青岛市,市北区南部,,38,26,37,3,9,120,,111,111,15,37,7,8,0.3,0.4
2025-06-04T1700,3643A,120.3948,36.1805,青岛市,李沧区北部,,,14,30,3,12,135,,117,117,,30,8,8,0.5,0.5
2025-06-04T1700,4290A,120.1969,35.9546,青岛市,珠江路669号,,46,17,24,3,7,147,,140,140,8,25,7,8,0.4,0.5
2025-06-04T1700,1702A,113.0426,23.691,清远市,环保大楼,,36,20,18,20,15,114,,104,104,8,12,6,7,0.8,1.1
2025-06-04T1700,1703A,113.0208,23.7106,清远市,凤城街办,,33,24,20,23,14,105,,97,97,9,13,8,8,0.7,0.7
2025-06-04T1700,3025A,113.0477,23.6344,清远市,技师学院,,31,22,21,17,13,97,,94,94,10,14,6,8,0.7,0.7
2025-06-04T1700,3318A,112.9903,23.7403,清远市,清新太和,,34,32,23,20,13,107,,95,95,7,13,8,7,0.8,0.8
2025-06-04T1700,3455A,113.076,23.7198,清远市,清城东城,,32,24,21,15,12,102,,94,94,6,8,8,8,0.5,0.6
2025-06-04T1700,2661A,107.6325,35.7357,庆阳市,庆阳五中,,42,32,43,8,15,132,,125,125,9,14,4,7,0.3,0.4
2025-06-04T1700,2662A,107.6364,35.7067,庆阳市,市环保局,,42,33,41,8,14,134,,128,128,7,11,5,7,0.6,0.6
2025-06-04T1700,1916A,103.7897,25.5035,曲靖市,环境监测站,,31,27,27,12,13,99,,91,91,12,12,3,4,0.5,0.6
2025-06-04T1700,1917A,103.8,25.5364,曲靖市,烟厂办公区,,38,38,25,25,13,99,,86,86,10,9,3,4,0.7,0.8
2025-06-04T1700,3376A,103.7947,25.462,曲靖市,南苑二区,,35,35,28,16,14,98,,87,87,9,14,3,5,0.6,0.8
2025-06-04T1700,3377A,103.7444,25.5261,曲靖市,曲靖师范学院,,28,,18,18,19,89,,84,84,7,9,5,6,0.4,0.5
2025-06-04T1700,1264A,118.8692,28.9398,衢州市,环保大楼,臭氧1小时,83,35,48,19,26,186,,156,156,11,16,5,4,0.4,0.4
2025-06-04T1700,1265A,118.8709,28.9666,衢州市,实验学校,臭氧1小时,78,26,44,17,24,182,,161,161,11,19,5,3,0.3,0.4
2025-06-04T1700,1266A,118.8621,28.9808,衢州市,衢州学院,臭氧1小时,59,22,36,14,24,167,,142,142,14,23,7,6,0.4,0.4
2025-06-04T1700,1611A,118.5819,24.9117,泉州市,涂山街,,39,25,16,16,11,124,,124,124,6,4,3,2,0.6,0.7
2025-06-04T1700,1612A,118.5972,24.8978,泉州市,津头埔,,39,28,17,16,13,123,,126,126,11,9,2,2,0.6,0.6
2025-06-04T1700,1613A,118.6663,24.9424,泉州市,万安,,38,23,19,12,11,119,,125,125,8,7,3,3,0.5,0.6
2025-06-04T1700,1614A,118.6117,24.9604,泉州市,清源山,,,,,,,,,,,,,,,,
2025-06-04T1700,3529A,118.6333,24.9264,泉州市,城华南路,,,22,16,12,10,111,,119,119,9,7,,3,0.5,0.5
2025-06-04T1700,2626A,88.8876,29.2718,日喀则市,日喀则监测站,,37,12,13,3,5,116,,116,116,4,6,14,15,0.2,0.1
2025-06-04T1700,3726A,88.8781,29.2426,日喀则市,林业技术推广中心,,35,18,17,3,4,112,,111,111,3,3,4,4,0.1,0.1
2025-06-04T1700,1659A,119.471,35.4209,日照市,监测站,,45,44,43,3,14,142,,146,146,28,40,9,8,0.6,0.6
2025-06-04T1700,1660A,119.523,35.4216,日照市,市政府广场,,48,39,39,3,11,151,,138,138,13,28,7,7,0.5,0.6
2025-06-04T1700,1661A,119.5587,35.4044,日照市,港务局,,43,36,54,12,21,136,,132,132,19,39,5,7,0.4,0.5
2025-06-04T1700,3507A,119.5328,35.4625,日照市,职业技术学院,,49,39,45,7,12,155,,139,139,10,25,6,7,0.5,0.6
2025-06-04T1700,3604A,119.3266,35.1044,日照市,岚山环保分局,,48,48,58,7,20,117,,139,139,27,32,7,14,0.5,0.9
2025-06-04T1700,1835A,111.1922,34.7752,三门峡市,市政府,,47,19,41,8,17,149,,149,149,8,30,7,8,0.4,0.5
2025-06-04T1700,1836A,111.1587,34.7942,三门峡市,开发区,,45,22,36,3,11,144,,156,156,8,23,6,9,0.2,0.4
2025-06-04T1700,1838A,111.143,34.7955,三门峡市,风景区,,47,20,37,7,13,148,,156,156,6,23,8,11,0.2,0.4
2025-06-04T1700,3039A,111.1911,34.7829,三门峡市,三门峡市第一小学,,47,28,37,17,13,149,,151,151,14,26,11,12,0.4,0.5
2025-06-04T1700,3598A,111.1,34.7167,三门峡市,富达温泉假日酒店,,47,30,58,9,17,148,,147,147,12,28,11,14,0.4,0.5
2025-06-04T1700,2324A,117.6211,26.2625,三明市,三钢,,28,22,17,19,16,75,,72,72,8,11,5,3,0.5,0.7
2025-06-04T1700,2325A,117.635,26.2714,三明市,三明二中,,23,14,15,6,9,72,,70,70,6,8,4,3,0.3,0.5
2025-06-04T1700,2326A,117.6028,26.2378,三明市,三元区政府,,23,10,17,3,6,72,,73,73,9,12,2,2,0.6,1
2025-06-04T1700,2327A,117.7275,26.3108,三明市,洋溪,,,,,,,,,,,,,,,,
2025-06-04T1700,1876A,109.5078,18.2489,三亚市,河东子站,,22,22,21,13,11,60,,59,58,13,7,3,3,0.3,0.3
2025-06-04T1700,1877A,109.4964,18.2681,三亚市,河西子站,,36,36,20,10,10,70,,64,64,3,6,2,3,0.2,0.2
2025-06-04T1700,3540A,109.7348,18.3443,三亚市,君悦子站,,,16,22,6,11,,,65,,,11,2,2,0.2,0.2
2025-06-04T1700,2624A,91.7608,29.2313,山南市,山南监测站,,40,15,11,3,5,125,,114,114,3,3,7,7,0.3,0.3
2025-06-04T1700,2625A,91.7706,29.2436,山南市,山南人民医院,,40,29,16,6,8,126,,113,113,2,4,5,5,0.3,0.3
2025-06-04T1700,1674A,116.6794,23.3667,汕头市,金平子站,,41,32,14,16,5,130,,116,116,12,11,3,4,0.6,0.6
2025-06-04T1700,1675A,116.7244,23.3633,汕头市,龙湖子站,,38,33,13,6,3,120,,109,109,8,8,5,5,0.6,0.6
2025-06-04T1700,1676A,116.7258,23.2775,汕头市,濠江子站,,40,37,15,8,3,125,,117,117,7,5,4,4,0.7,0.7
2025-06-04T1700,1677A,116.7519,23.4714,汕头市,澄海子站,,42,42,17,8,4,125,,120,120,11,8,3,3,0.6,0.6
2025-06-04T1700,1678A,116.6092,23.2539,汕头市,潮阳子站,,41,32,15,3,2,129,,120,120,10,4,4,4,0.5,0.5
2025-06-04T1700,3444A,116.454,23.2684,汕头市,潮南峡山,,42,33,14,11,3,134,,115,115,4,3,5,5,0.7,0.7
2025-06-04T1700,3624A,116.4069,23.2533,汕头市,潮南子站,,46,46,19,22,9,125,,107,107,4,3,5,4,0.6,0.7
2025-06-04T1700,1693A,115.3653,22.775,汕尾市,市环保局,,39,24,11,14,8,124,,108,108,10,8,3,2,0.7,0.7
2025-06-04T1700,1694A,115.3706,22.7898,汕尾市,市政府,,38,21,12,7,2,119,,104,104,9,8,5,4,0.6,0.6
2025-06-04T1700,1695A,115.3622,22.7925,汕尾市,新城中学,,38,37,13,11,7,120,,104,104,9,8,2,2,0.6,0.6
2025-06-04T1700,2645A,109.9154,33.8715,商洛市,监测站,,39,24,36,9,16,123,,124,124,7,14,7,12,0.3,0.5
2025-06-04T1700,3045A,109.9643,33.8471,商洛市,商州区中学,,39,22,38,6,12,122,,122,122,8,22,3,4,0.5,0.6
2025-06-04T1700,2408A,115.6702,34.4285,商丘市,环境监测站,臭氧1小时,89,58,78,16,26,191,,182,182,9,16,4,5,0.2,0.4
2025-06-04T1700,2409A,115.6458,34.4045,商丘市,粮食局,臭氧1小时,84,64,84,17,33,187,,180,180,7,18,2,4,0.3,0.4
2025-06-04T1700,2410A,115.6293,34.3948,商丘市,睢阳区环保局,臭氧1小时,83,68,98,18,35,186,,182,182,10,28,3,4,0.3,0.4
2025-06-04T1700,3171A,115.6071,34.4465,商丘市,梁园区档案局,颗粒物(PM10),89,127,98,13,31,179,,178,178,49,25,5,6,0,0.4
