timepoint,stationcode,longitude,latitude,area,positionname,primarypollutant,aqi,pm10,pm10_24h,pm2_5,pm2_5_24h,o3,o3_24h,o3_8h,o3_8h_24h,no2,no2_24h,so2,so2_24h,co,co_24h
2024-07-16T1600,2566A,102.1879,31.914,阿坝藏族羌族自治州,州农科所,颗粒物(PM10),59,67,28,7,8,30,,28,28,47,12,11,6,0.1,0.2
2024-07-16T1600,2568A,102.2502,31.8896,阿坝藏族羌族自治州,马师校,,17,17,16,3,12,35,,23,23,17,11,6,5,0.4,0.4
2024-07-16T1600,3994A,102.2165,31.9024,阿坝藏族羌族自治州,马尔康中学西区,,18,18,15,7,10,45,,31,31,7,8,5,5,0.4,0.4
2024-07-16T1600,2695A,80.292,41.1694,阿克苏地区,电视台,,40,39,40,13,16,127,,107,74,6,12,6,4,0.3,0.4
2024-07-16T1600,2696A,80.2613,41.1551,阿克苏地区,艺术中心,,38,33,34,7,13,120,,100,62,2,13,3,4,0.4,0.4
2024-07-16T1600,2204A,105.6467,38.8363,阿拉善盟,西城区西花园,,45,27,53,10,18,142,,136,136,8,10,8,8,0.3,0.3
2024-07-16T1600,2205A,105.6985,38.8411,阿拉善盟,蒙二幼,,40,34,46,9,14,126,,121,121,6,6,10,10,0.5,0.5
2024-07-16T1600,2206A,105.724,38.8516,阿拉善盟,环保局新楼,,41,25,31,12,13,130,,130,130,4,6,11,11,0.4,0.4
2024-07-16T1600,2708A,88.1264,47.8517,阿勒泰地区,市站,,30,30,26,10,7,91,,89,89,15,14,6,6,0.6,0.5
2024-07-16T1600,2630A,80.1161,32.5,阿里地区,阿里监测站,,45,6,6,3,4,144,,123,123,2,7,9,8,0.3,0.3
2024-07-16T1600,3192A,80.0903,32.5028,阿里地区,阿里藏医院,,45,9,10,3,4,144,,124,124,3,5,8,8,0.3,0.4
2024-07-16T1600,2642A,109.0318,32.6537,安康市,香溪洞,,28,28,23,14,12,55,,46,46,4,6,6,6,0.8,0.8
2024-07-16T1600,2643A,109.0281,32.6939,安康市,安康市监测站,,24,24,22,7,6,58,,46,46,6,7,6,6,0.6,0.7
2024-07-16T1600,2644A,109.0072,32.6975,安康市,汉滨区检察院,,20,17,26,9,10,61,,50,50,4,7,6,6,0.5,0.7
2024-07-16T1600,2291A,117.0809,30.5177,安庆市,环科院,,33,31,36,23,22,103,,75,75,18,50,6,5,0.6,0.7
2024-07-16T1600,2292A,117.0331,30.5119,安庆市,马山宾馆,,32,32,31,19,23,94,,71,71,27,42,7,7,0.6,0.7
2024-07-16T1600,2294A,116.9896,30.6145,安庆市,安庆大学,,43,43,43,26,30,97,,74,74,14,22,6,7,0.5,0.5
2024-07-16T1600,3173A,117.0598,30.5351,安庆市,市人大,,36,36,36,25,27,95,,75,75,17,39,5,7,0.4,0.7
2024-07-16T1600,3122A,105.9606,26.2611,安顺市,伍家关,,,,,,,,,,,,,,,,
2024-07-16T1600,3123A,105.9408,26.2431,安顺市,凤凰山,,17,10,12,3,8,54,,60,60,5,5,5,4,0.5,0.5
2024-07-16T1600,3124A,105.9439,26.2564,安顺市,金钟山,,18,13,11,3,10,55,,62,61,2,4,4,5,0.4,0.4
2024-07-16T1600,3125A,105.8983,26.2481,安顺市,娄家坡,,24,24,20,10,8,54,,60,60,3,3,5,5,0.3,0.4
2024-07-16T1600,1818A,114.4839,36.0621,安阳市,棉研所,,,,,,,,,,,,,,,,
2024-07-16T1600,1819A,114.3551,36.1017,安阳市,红庙街,,47,46,55,28,44,150,,126,126,1,8,3,4,0.6,1
2024-07-16T1600,1820A,114.361,36.0681,安阳市,银杏小区,,,43,45,,32,151,,127,127,1,5,3,3,0.8,1
2024-07-16T1600,3141A,114.3922,36.0878,安阳市,信访局,,48,41,52,25,29,152,,127,127,2,2,2,4,0.9,1.2
2024-07-16T1600,3669A,114.4705,36.0637,安阳市,左辅环卫站,,45,37,46,29,52,142,,123,123,4,11,3,3,1.0,1.2
2024-07-16T1600,3703A,114.2917,36.0949,安阳市,安钢职工学校,颗粒物(PM10),55,60,60,25,44,144,,120,120,4,14,2,3,0.9,1.4
2024-07-16T1600,1748A,123.044,41.1196,鞍山市,深沟寺,,26,13,24,3,13,83,,87,87,2,8,4,4,0.4,0.4
2024-07-16T1600,1749A,123.011,41.0931,鞍山市,太阳城,,26,9,20,3,14,81,,86,86,4,7,5,5,0.5,0.6
2024-07-16T1600,1750A,123.0485,41.1442,鞍山市,太平,,27,10,25,3,14,84,,86,86,6,10,2,2,0.6,0.7
2024-07-16T1600,1751A,122.9642,41.0971,鞍山市,铁西三道街,,26,13,31,7,17,83,,85,85,7,13,3,3,0.6,0.7
2024-07-16T1600,1752A,122.9341,41.0833,鞍山市,铁西工业园区,,25,11,25,3,14,80,,84,84,7,14,1,2,0.7,0.8
2024-07-16T1600,1753A,123.022,41.0821,鞍山市,明达新区,,25,8,18,3,11,79,,83,83,3,5,5,5,0.4,0.5
2024-07-16T1600,1754A,123.1289,41.0228,鞍山市,千山,,,,,,,,,,,,,,,,
2024-07-16T1600,2195A,107.4212,40.761,巴彦淖尔市,附二中,,44,20,43,18,17,140,,122,122,5,7,6,5,0.5,0.5
2024-07-16T1600,2196A,107.37,40.7372,巴彦淖尔市,市环保大楼,,43,39,43,15,12,137,,124,124,8,7,5,4,0.4,0.4
2024-07-16T1600,1956A,86.1472,41.7538,巴音郭楞蒙古自治州,孔雀公园,,44,44,50,15,17,140,,107,107,4,31,4,6,0.2,0.4
2024-07-16T1600,1957A,86.1972,41.7166,巴音郭楞蒙古自治州,棉纺厂,,47,33,57,8,17,148,,112,112,4,26,5,5,0.2,0.3
2024-07-16T1600,1958A,86.2357,41.7173,巴音郭楞蒙古自治州,经济开发区,,46,27,65,14,25,145,,120,120,4,12,4,4,0.2,0.2
2024-07-16T1600,2914A,106.7677,31.8794,巴中市,苏山坪,,24,20,15,12,9,74,,54,54,5,5,4,5,0.4,0.3
2024-07-16T1600,3182A,106.7656,31.8545,巴中市,丽阳花园,,25,24,23,17,14,79,,50,50,6,13,3,5,0.4,0.5
2024-07-16T1600,3183A,106.7418,31.8654,巴中市,圣泉水务公司,,25,25,19,17,12,74,,37,37,7,10,5,4,0.6,0.6
2024-07-16T1600,3616A,106.7616,31.8344,巴中市,市中心医院,,27,22,25,14,14,86,,50,50,6,14,4,4,0.4,0.6
2024-07-16T1600,2235A,122.7911,45.6077,白城市,洮北区环保局,,33,25,36,10,14,104,,102,102,4,7,5,6,0.4,0.5
2024-07-16T1600,2236A,122.8738,45.5725,白城市,市环保局,,37,37,43,8,22,98,,97,97,5,6,3,4,0.3,0.4
2024-07-16T1600,2231A,126.4219,41.9171,白山市,喜丰,,30,21,65,6,33,93,,84,84,7,14,10,10,0.6,0.9
2024-07-16T1600,2232A,126.4077,41.9419,白山市,环保局,,30,19,58,8,39,95,,86,86,2,10,8,7,0.7,0.8
2024-07-16T1600,2647A,104.1724,36.5446,白银市,第三小学,,44,38,51,9,19,138,,104,104,12,13,56,95,0.1,0.5
2024-07-16T1600,2648A,104.1465,36.5482,白银市,动力公司,,40,38,32,9,11,127,,104,104,14,14,10,25,0.3,0.5
2024-07-16T1600,2512A,106.6103,23.9011,百色市,市监测站,,30,25,31,16,15,96,,63,63,8,15,9,7,0.7,0.7
2024-07-16T1600,2513A,106.6538,23.8859,百色市,市中心血站,,32,28,40,22,21,94,,66,66,8,15,7,10,0.6,0.7
2024-07-16T1600,3406A,106.6085,23.8798,百色市,祈福高中,,35,35,44,16,20,98,,72,72,5,16,11,11,0.6,0.7
2024-07-16T1600,2270A,117.396,32.939,蚌埠市,工人疗养院,颗粒物(PM10),51,52,42,22,19,95,,76,76,6,9,6,7,0.7,0.6
2024-07-16T1600,2271A,117.3605,32.9427,蚌埠市,百货大楼,颗粒物(PM10),51,51,43,21,17,86,,74,74,8,9,5,6,0.6,0.6
2024-07-16T1600,2273A,117.4185,32.8911,蚌埠市,蚌埠学院,,44,44,30,27,21,100,,80,80,5,4,6,7,0.6,0.6
2024-07-16T1600,2274A,117.3533,32.9673,蚌埠市,淮上区政府,,41,41,34,24,22,98,,86,86,7,9,6,8,0.4,0.5
2024-07-16T1600,2275A,117.3145,32.8977,蚌埠市,高新区,,46,46,34,26,21,92,,75,75,10,6,6,6,0.6,0.6
2024-07-16T1600,3715A,117.3092,32.9314,蚌埠市,蚌埠田家炳中学,,49,49,38,25,20,81,,77,77,11,4,6,6,0.4,0.5
2024-07-16T1600,1585A,109.8756,40.6532,包头市,市环境监测站,,42,6,19,3,12,133,,138,138,7,16,5,7,0.4,0.5
2024-07-16T1600,1587A,109.9991,40.5842,包头市,包头八中,,48,6,25,3,8,152,,150,150,7,15,6,8,0.4,0.6
2024-07-16T1600,1588A,109.8538,40.6821,包头市,青山宾馆,,41,6,18,3,8,130,,134,134,7,14,6,7,0.3,0.5
2024-07-16T1600,1589A,109.8642,40.6288,包头市,惠龙物流,,42,9,19,3,11,132,,138,138,7,12,10,12,0.4,0.5
2024-07-16T1600,1590A,110.0377,40.5546,包头市,东河鸿龙湾,臭氧1小时,52,8,19,3,11,161,,145,145,6,11,7,8,0.4,0.6
2024-07-16T1600,3283A,109.9154,40.5685,包头市,滨河大厦,,45,6,16,3,10,144,,147,147,3,13,7,7,0.4,0.6
2024-07-16T1600,3419A,109.9447,40.6261,包头市,包头市委党校,,44,6,17,3,10,139,,146,146,8,13,2,3,0.3,0.6
2024-07-16T1600,3683A,109.8331,40.6576,包头市,昆区政府,,40,8,18,3,7,128,,133,133,8,13,5,6,0.4,0.6
2024-07-16T1600,1930A,107.185,34.3063,宝鸡市,庙沟村,,22,22,40,6,17,50,,32,32,7,12,7,8,0.5,0.5
2024-07-16T1600,1931A,107.0708,34.3017,宝鸡市,竹园沟,,20,20,37,11,16,62,,37,37,15,15,9,9,0.7,0.6
2024-07-16T1600,1932A,107.1906,34.3672,宝鸡市,三陆医院,,25,25,55,6,24,74,,40,40,12,23,7,7,0.9,0.9
2024-07-16T1600,1933A,107.1431,34.3547,宝鸡市,监测站,,23,19,50,7,21,72,,54,54,16,21,8,9,0.8,0.7
2024-07-16T1600,1934A,107.1186,34.3739,宝鸡市,技工学校,,25,21,45,13,32,77,,46,46,15,19,7,8,0.9,0.8
2024-07-16T1600,1935A,107.3906,34.3528,宝鸡市,陈仓区环保局家属楼,,24,17,39,3,18,75,,56,56,12,16,6,6,0.7,0.6
2024-07-16T1600,1936A,107.2058,34.3497,宝鸡市,文理学院,,27,16,47,8,22,86,,52,52,11,18,8,8,0.8,0.7
2024-07-16T1600,1937A,107.2386,34.3622,宝鸡市,三迪小学,,24,24,51,8,23,72,,45,45,12,20,8,8,0.8,0.8
2024-07-16T1600,1051A,115.493,38.8632,保定市,游泳馆,,42,41,50,22,30,134,,108,108,2,3,3,3,0.2,0.3
2024-07-16T1600,1052A,115.5213,38.8959,保定市,华电二区,,48,38,57,14,33,153,,128,128,2,7,2,2,0.4,0.5
2024-07-16T1600,1053A,115.4713,38.9108,保定市,接待中心,,46,36,56,20,30,146,,118,118,2,4,4,3,0.2,0.3
2024-07-16T1600,1054A,115.4612,38.8416,保定市,地表水厂,,45,28,56,16,28,142,,118,118,2,4,3,2,0.4,0.5
2024-07-16T1600,3581A,115.31981,38.95208,保定市,满城区生态环境分局,,40,36,48,22,31,128,,100,100,2,2,2,2,0.3,0.4
2024-07-16T1600,3582A,115.47694,38.76408,保定市,清苑区第二中学,,43,36,57,30,34,132,,117,117,2,7,3,3,0.4,0.5
2024-07-16T1600,3583A,115.62909,39.02311,保定市,徐水物探局,,48,40,46,22,34,151,,118,118,2,10,3,3,0.2,0.3
2024-07-16T1600,4004A,115.4202,38.8656,保定市,双鹰农机,,45,24,41,13,30,143,,125,125,4,8,3,3,0.3,0.3
2024-07-16T1600,4034A,115.5150,38.8590,保定市,植保所站,臭氧1小时,54,30,42,24,35,163,,132,132,1,4,2,3,0.2,0.4
2024-07-16T1600,2594A,99.1678,25.1081,保山市,市环境监测站,,22,22,21,12,8,42,,38,38,7,7,6,6,0.4,0.6
2024-07-16T1600,2595A,99.1711,25.1328,保山市,市环保局,,31,31,26,9,6,49,,40,40,5,5,6,6,0.4,0.4
2024-07-16T1600,1866A,109.2262,21.588,北海市,牛尾岭水库,,,,,,,,,,,,,,,,
2024-07-16T1600,1867A,109.1436,21.4086,北海市,海滩公园,,22,17,18,3,5,68,,65,65,3,6,4,4,0.6,0.6
2024-07-16T1600,1868A,109.0981,21.4661,北海市,新市环保局,,22,20,19,7,8,70,,62,62,4,7,3,4,0.4,0.5
2024-07-16T1600,1869A,109.1778,21.5233,北海市,北海工业园,,26,26,22,12,13,64,,62,62,7,9,4,8,0.5,0.5
2024-07-16T1600,3400A,109.1911,21.4415,北海市,龙潭自来水厂,,21,19,19,12,12,66,,61,61,3,7,6,6,0.5,0.5
2024-07-16T1600,1001A,116.3621,39.8784,北京市,万寿西宫,,44,16,44,13,35,139,,122,122,6,13,3,3,0.6,0.9
2024-07-16T1600,1002A,116.2202,40.2915,北京市,定陵,,50,,38,23,26,158,,134,134,6,6,3,3,0.6,0.7
2024-07-16T1600,1003A,116.4174,39.9289,北京市,东四,,49,20,44,20,35,154,,135,135,9,14,4,4,0.6,0.7
2024-07-16T1600,1004A,116.4072,39.8863,北京市,天坛,,45,21,38,16,31,143,,119,119,6,13,3,3,0.5,0.6
2024-07-16T1600,1005A,116.462,39.9365,北京市,农展馆,,45,20,39,17,31,142,,121,121,8,13,3,3,0.6,0.7
2024-07-16T1600,1006A,116.3392,39.9295,北京市,官园,,47,21,42,14,32,150,,138,138,7,14,3,2,0.5,0.6
2024-07-16T1600,1007A,116.2878,39.9611,北京市,海淀万柳,,46,17,46,17,43,147,,133,133,6,15,3,4,0.4,0.6
2024-07-16T1600,1008A,116.6636,40.135,北京市,顺义新城,臭氧1小时,62,30,36,23,27,169,,137,137,6,11,3,2,0.5,0.6
2024-07-16T1600,1009A,116.6275,40.3275,北京市,怀柔镇,臭氧1小时,65,26,41,19,32,172,,134,134,2,4,1,1,0.5,0.6
2024-07-16T1600,1010A,116.2296,40.217,北京市,昌平镇,,47,36,51,29,36,148,,122,122,12,12,2,2,0.5,0.6
2024-07-16T1600,1011A,116.3966,39.9821,北京市,奥体中心,,46,25,46,16,33,146,,134,134,10,17,3,3,0.7,0.8
2024-07-16T1600,1012A,116.184,39.9136,北京市,古城,,41,13,50,13,30,129,,122,122,6,15,1,1,0.5,0.6
2024-07-16T1600,3281A,115.9718,40.4529,北京市,延庆夏都,,35,19,38,17,32,110,,104,104,5,7,3,3,0.5,0.6
2024-07-16T1600,3417A,117.0709,40.1465,北京市,平谷新城,,40,28,50,23,37,128,,99,99,4,7,3,3,0.5,0.7
2024-07-16T1600,3418A,116.8336,40.4095,北京市,密云新城,,50,26,47,20,31,160,,128,128,2,3,4,4,0.6,0.7
2024-07-16T1600,3671A,116.088,39.9726,北京市,门头沟三家店,,,,,,,,,,,,,,,,
2024-07-16T1600,3672A,116.1541,39.8204,北京市,丰台云岗,,40,17,41,15,27,126,,120,120,5,11,3,3,0.5,0.6
2024-07-16T1600,3673A,116.6804,39.9081,北京市,通州东关,,48,20,45,18,33,151,,122,122,4,7,3,3,0.6,0.6
2024-07-16T1600,3674A,115.9577,39.7603,北京市,房山燕山,,35,22,35,14,26,112,,112,112,4,8,3,3,0.5,0.6
2024-07-16T1600,3675A,116.4672,39.7733,北京市,大兴旧宫,,42,19,36,18,31,132,,111,111,5,11,3,3,0.5,0.6
2024-07-16T1600,3694A,115.986,40.4563,北京市,延庆石河营,,32,20,37,17,33,102,,97,97,4,7,3,3,0.5,0.6
2024-07-16T1600,3695A,116.6151,40.3053,北京市,怀柔新城,,50,23,41,18,34,157,,121,121,4,5,3,3,0.7,0.8
2024-07-16T1600,3696A,116.2545,39.8768,北京市,丰台小屯,,39,15,39,13,28,123,,117,117,2,8,3,3,0.2,0.3
2024-07-16T1600,3697A,116.84,40.3844,北京市,密云镇,,44,,46,23,33,138,,110,110,3,9,3,3,0.5,0.7
2024-07-16T1600,1761A,123.8275,41.3064,本溪市,大峪,,28,13,30,13,16,87,,88,88,1,6,7,7,0.3,0.5
2024-07-16T1600,1762A,123.7567,41.3325,本溪市,溪湖,,27,20,33,7,17,86,,85,85,8,14,7,9,0.7,0.9
2024-07-16T1600,1763A,123.7169,41.3094,本溪市,彩屯,,25,19,34,9,21,79,,74,74,15,22,10,11,1.1,1.7
2024-07-16T1600,1764A,123.7669,41.2864,本溪市,东明,,29,29,40,9,17,91,,90,90,10,13,6,7,0.4,0.5
2024-07-16T1600,1765A,123.7992,41.2664,本溪市,新立屯,,27,25,31,6,13,86,,88,87,4,11,4,4,0.6,0.6
2024-07-16T1600,1766A,123.8142,41.3472,本溪市,威宁,,31,31,42,8,21,84,,82,82,8,16,8,8,0.6,0.7
2024-07-16T1600,2587A,105.2864,27.3125,毕节市,八中,,25,14,15,8,10,78,,64,64,7,9,6,6,0.2,0.3
2024-07-16T1600,2588A,105.31,27.2944,毕节市,师专,,23,14,14,10,10,73,,59,59,6,9,4,5,0.4,0.4
2024-07-16T1600,3537A,105.3631,27.3533,毕节市,长征村,,26,13,14,8,9,83,,67,67,6,8,8,8,0.3,0.3
2024-07-16T1600,1629A,118.0018,37.3617,滨州市,第二水厂,,,,30,17,22,69,,79,69,,12,1,2,,0.6
2024-07-16T1600,1630A,117.9776,37.393,滨州市,北中新校,,29,24,34,3,18,90,,90,84,9,10,1,2,0.4,0.5
2024-07-16T1600,3514A,117.9378,37.3956,滨州市,中海酒店,,28,,29,14,17,88,,97,87,14,12,3,3,0.4,0.5
2024-07-16T1600,3515A,117.9378,37.3553,滨州市,开发区一中,,23,14,34,9,23,72,,76,69,10,12,5,4,0.7,0.7
2024-07-16T1600,3516A,118.0917,37.694,滨州市,金海六路,,25,7,34,3,17,77,,92,91,5,11,6,5,0.2,0.4
2024-07-16T1600,4028A,117.9956,37.3753,滨州市,滨州市西街道办事处,,30,,29,9,20,94,,95,88,8,10,3,2,0.7,0.8
2024-07-16T1600,2311A,115.8072,33.8399,亳州市,污水处理厂,,25,,9,17,10,45,,38,38,4,5,1,1,0.7,0.6
2024-07-16T1600,2312A,115.7789,33.8518,亳州市,三国揽胜宫,,23,23,18,16,7,56,,50,50,6,6,1,1,0.4,0.4
2024-07-16T1600,3332A,115.7633,33.8034,亳州市,亳州学院,,19,16,13,13,17,52,,47,47,6,7,1,2,0.6,0.5
2024-07-16T1600,2693A,82.0485,44.8556,博尔塔拉蒙古自治州,市党校,,35,27,27,9,7,111,,88,88,12,10,10,9,0.5,0.5
2024-07-16T1600,2694A,82.0806,44.8969,博尔塔拉蒙古自治州,市环保局,,35,24,28,11,15,109,,82,82,15,17,8,8,0.6,0.6
2024-07-16T1600,1071A,116.8842,38.2991,沧州市,沧县城建局,,49,45,48,34,32,142,,126,126,8,13,5,5,0.3,0.4
2024-07-16T1600,1072A,116.8584,38.3254,沧州市,电视转播站,细颗粒物(PM2.5),55,39,46,39,35,125,,110,110,6,11,2,3,0.4,0.4
2024-07-16T1600,1073A,116.8709,38.3228,沧州市,市环保局,细颗粒物(PM2.5),59,50,49,42,32,141,,131,131,9,13,3,4,0.4,0.4
2024-07-16T1600,3324A,116.8136,38.3004,沧州市,河北水利电力学院,细颗粒物(PM2.5),58,48,42,41,36,145,,123,123,12,15,5,4,0.4,0.4
2024-07-16T1600,2622A,97.1806,31.1273,昌都市,昌都监测站,,30,8,10,3,6,96,,74,74,3,7,8,8,0.3,0.3
2024-07-16T1600,3719A,97.1714,31.1406,昌都市,昌都会议中心,,29,8,9,3,6,91,,67,67,7,6,6,7,0.4,0.3
2024-07-16T1600,2690A,88.1236,43.8886,昌吉回族自治州,天山天池,,45,25,21,6,11,144,,123,123,7,8,9,10,0.6,0.5
2024-07-16T1600,2692A,87.2717,44.0297,昌吉回族自治州,新区政务中心,,39,,47,12,15,123,,113,113,5,14,10,11,0.4,0.4
2024-07-16T1600,3613A,87.3095,44.0142,昌吉回族自治州,亚心广场,,41,36,64,22,12,131,,119,119,9,23,6,8,0.2,0.4
2024-07-16T1600,1119A,125.3325,43.9166,长春市,食品厂,,45,45,60,15,33,90,,104,104,20,22,3,3,0.5,0.7
2024-07-16T1600,1120A,125.2863,43.9027,长春市,客车厂,,33,33,55,11,34,92,,103,103,13,15,2,2,0.4,0.5
2024-07-16T1600,1121A,125.2841,43.8463,长春市,邮电学院,,34,34,53,14,32,72,,92,92,13,15,6,6,0.4,0.6
2024-07-16T1600,1122A,125.3716,43.8772,长春市,劳动公园,,35,30,58,10,29,109,,112,112,10,15,2,3,0.4,0.6
2024-07-16T1600,1123A,125.3297,43.8805,长春市,园林处,,42,42,52,21,36,114,,114,114,8,14,3,4,0.5,0.6
2024-07-16T1600,1124A,125.4605,43.79,长春市,净月潭,,,26,45,11,27,103,,97,97,4,6,4,4,,0.6
2024-07-16T1600,1125A,125.7194,43.515,长春市,甩湾子,,,,,,,,,,,,,,,,
2024-07-16T1600,1126A,125.3863,43.8447,长春市,经开区环卫处,,34,26,56,11,32,106,,109,109,12,19,2,2,0.6,0.8
2024-07-16T1600,1127A,125.245,43.7783,长春市,高新区管委会,,,16,47,9,32,,,101,101,8,14,3,3,0.4,0.7
2024-07-16T1600,1128A,125.1761,43.8325,长春市,岱山公园,,34,17,51,11,33,108,,104,104,6,18,3,3,0.3,0.6
2024-07-16T1600,1335A,113.0833,28.2325,长沙市,经开区环保局,,28,21,29,12,14,89,,87,87,5,11,5,7,0.3,0.4
2024-07-16T1600,1336A,112.8872,28.2189,长沙市,高开区环保局,,37,20,31,15,15,118,,98,98,5,12,6,8,0.4,0.5
2024-07-16T1600,1337A,113.0792,28.2053,长沙市,马坡岭,,30,19,33,8,16,94,,92,92,3,13,2,5,0.4,0.5
2024-07-16T1600,1338A,112.9394,28.19,长沙市,湖南师范大学,,37,29,35,10,16,117,,100,100,10,19,5,6,0,0.1
2024-07-16T1600,1339A,113.0178,28.1322,长沙市,雨花区环保局,,32,25,28,15,14,100,,98,98,2,10,4,7,0.3,0.4
2024-07-16T1600,1340A,112.9792,28.2597,长沙市,伍家岭,,40,32,31,11,14,125,,103,103,3,10,4,5,0.5,0.5
2024-07-16T1600,1341A,113.0014,28.1944,长沙市,火车新站,,35,30,32,12,15,109,,103,103,4,12,4,6,0.4,0.5
2024-07-16T1600,1342A,112.9844,28.1178,长沙市,天心区环保局,,,26,32,3,13,95,,89,89,,12,,6,0.3,0.5
2024-07-16T1600,1343A,112.8908,28.1308,长沙市,湖南中医药大学,,41,30,41,17,17,129,,106,106,3,18,6,6,0.8,0.8
2024-07-16T1600,1344A,112.9581,28.3611,长沙市,沙坪,,41,21,27,14,16,129,,103,103,5,14,8,8,0.4,0.5
2024-07-16T1600,1727A,113.1147,36.1547,长治市,清华站,臭氧1小时,53,39,37,29,35,162,,116,116,9,12,4,3,0.8,0.8
2024-07-16T1600,1728A,113.1031,36.1989,长治市,监测站,臭氧1小时,59,46,43,29,33,167,,125,125,12,13,4,4,0.9,0.8
2024-07-16T1600,1730A,113.0886,36.2125,长治市,审计局,,49,40,39,27,34,154,,118,118,15,17,3,3,1.0,1
2024-07-16T1600,1731A,113.0844,36.1856,长治市,长治八中,,50,31,39,25,30,158,,116,116,10,12,4,3,0.8,0.9
2024-07-16T1600,2845A,113.1569,36.1911,长治市,德盛苑,,47,37,36,31,28,149,,115,115,7,10,7,6,1.2,1.2
2024-07-16T1600,3568A,113.06,36.0464,长治市,向阳小学,,49,45,53,34,42,141,,124,124,9,13,6,11,1.1,1.3
2024-07-16T1600,3569A,112.8792,36.3144,长治市,屯留一中,臭氧1小时,57,52,53,34,44,165,,127,127,6,14,7,9,0.7,0.8
2024-07-16T1600,3570A,113.235,36.3489,长治市,潞城四中,,40,30,37,11,39,128,,122,122,10,12,3,4,0.5,0.9
2024-07-16T1600,1854A,111.6975,28.9703,常德市,市二中,,27,17,28,10,15,86,,80,80,7,6,6,8,0.3,0.4
2024-07-16T1600,1857A,111.7158,29.1456,常德市,白鹤山,,,,,,,,,,,,,,,,
2024-07-16T1600,3138A,111.7153,29.0289,常德市,武陵区永安,,29,18,29,8,17,90,,83,83,3,6,7,10,0.2,0.3
2024-07-16T1600,3139A,111.6892,28.9881,常德市,鼎城区玉霞,,28,21,29,8,18,88,,78,78,3,6,4,3,0.4,0.6
2024-07-16T1600,3140A,111.6625,29.0531,常德市,武陵区长庚,,30,19,27,9,16,96,,83,83,1,3,9,10,0.5,0.5
2024-07-16T1600,1196A,119.9633,31.762,常州市,市监测站,臭氧1小时,88,28,59,18,48,190,,158,158,6,22,6,6,0.4,0.7
2024-07-16T1600,1200A,119.9468,31.7069,常州市,武进监测站,臭氧1小时,78,29,54,21,48,182,,157,157,2,12,3,5,0.7,0.8
2024-07-16T1600,1201A,119.9255,31.9087,常州市,安家,,35,19,56,15,53,111,,141,141,6,26,4,5,0.4,0.7
2024-07-16T1600,3002A,119.9805,31.8174,常州市,行政中心,臭氧1小时,78,27,54,22,46,182,,158,158,11,19,10,9,0.4,0.7
2024-07-16T1600,3003A,120.0522,31.7748,常州市,经开区,,49,26,49,21,45,155,,137,137,20,22,2,2,0.5,0.7
2024-07-16T1600,3010A,119.9025,31.7964,常州市,钟楼,臭氧1小时,74,27,56,20,50,179,,149,149,10,19,4,4,0.8,1
2024-07-16T1600,3429A,119.8598,31.7066,常州市,武进经发区,臭氧1小时,72,27,72,13,37,177,,148,148,10,23,6,6,0.4,0.6
2024-07-16T1600,3430A,119.5826,31.7245,常州市,金坛城区,,34,17,56,8,40,107,,147,147,2,12,6,5,0.4,0.7
2024-07-16T1600,2220A,120.4318,41.5881,朝阳市,西梁,,27,8,29,7,12,84,,84,82,5,6,11,11,0.5,0.5
2024-07-16T1600,2221A,120.4521,41.5646,朝阳市,河畔小区,,,,37,7,14,87,,88,83,3,4,6,6,0.6,0.6
2024-07-16T1600,2222A,120.4176,41.5648,朝阳市,八里堡,,24,12,28,7,12,74,,78,72,7,7,4,4,0.7,0.7
2024-07-16T1600,2223A,120.3806,41.5969,朝阳市,农业园区,,26,26,31,12,13,74,,73,73,8,8,7,6,0.5,0.5
2024-07-16T1600,1705A,116.6367,23.6719,潮州市,西园路,,20,,21,14,9,39,,40,40,5,9,2,2,0.2,0.3
2024-07-16T1600,3026A,116.6183,23.6608,潮州市,市政府,,15,11,21,3,5,46,,40,40,2,4,4,4,0.6,0.7
2024-07-16T1600,4036A,116.6461,23.6761,潮州市,金山,,20,20,19,3,8,46,,41,41,2,7,6,6,0.5,0.6
2024-07-16T1600,2472A,113.0073,25.9061,郴州市,马头岭,,21,18,19,11,6,65,,58,58,1,5,8,7,0.2,0.2
2024-07-16T1600,2473A,113.0116,25.8226,郴州市,市职中,,22,,13,6,9,70,,60,60,2,5,8,6,0.2,0.3
2024-07-16T1600,2474A,113.0161,25.8001,郴州市,兴隆步行街,,22,16,17,3,8,70,,58,58,2,4,8,7,0.4,0.4
2024-07-16T1600,2475A,113.0383,25.8071,郴州市,市审计局,,22,,13,6,9,70,,58,58,3,7,5,12,0.2,0.3
2024-07-16T1600,2476A,113.0348,25.7759,郴州市,市环保局,,22,12,15,3,8,70,,59,59,7,11,7,14,0.4,0.4
2024-07-16T1600,1431A,103.9728,30.7236,成都市,金泉两河,,26,9,16,3,9,81,,40,40,3,9,1,1,0.3,0.4
2024-07-16T1600,1432A,104.176,30.6872,成都市,十里店,,25,13,15,6,8,79,,52,52,9,10,2,2,0.4,0.5
2024-07-16T1600,1433A,104.079,30.5706,成都市,三瓦窑,,32,32,21,19,11,85,,54,54,13,13,1,1,0.4,0.4
2024-07-16T1600,1434A,104.1114,30.63,成都市,沙河铺,,27,12,18,3,6,86,,46,46,11,14,4,4,0.5,0.5
2024-07-16T1600,1437A,104.0786,30.6531,成都市,君平街,,35,28,15,3,6,110,,59,59,12,14,2,2,0.5,0.6
2024-07-16T1600,1438A,103.613,31.0283,成都市,灵岩寺,,,,,,,,,,,,,,,,
2024-07-16T1600,2880A,104.0239,30.65639,成都市,大石西路,,32,11,14,6,7,102,,48,48,6,11,4,4,0.5,0.6
2024-07-16T1600,3136A,104.2725,30.5589,成都市,龙泉驿区区政府,,27,24,13,9,8,86,,62,62,9,11,3,3,0.5,0.6
2024-07-16T1600,3357A,104.0106,30.6931,成都市,金博路,,27,13,11,10,6,86,,38,38,5,11,1,2,0.6,0.6
2024-07-16T1600,3359A,104.0578,30.5225,成都市,华阳,,,27,18,22,18,73,,46,46,,7,,2,0.6,0.8
2024-07-16T1600,3487A,104.2394,30.5319,成都市,车城东七路,,36,36,27,25,18,82,,58,58,10,12,2,3,0.7,0.7
2024-07-16T1600,3488A,104.3853,30.7453,成都市,青白江技师分院,,25,23,12,10,5,80,,50,50,10,10,4,4,0.7,0.7
2024-07-16T1600,3489A,104.0789,30.4072,成都市,科学城,,31,29,21,18,14,99,,70,70,4,8,2,2,0.6,0.6
2024-07-16T1600,4011A,103.8506,30.6947,成都市,光华大道三段,,22,6,23,3,8,70,,44,44,4,11,3,3,0.5,0.5
2024-07-16T1600,1062A,117.9531,40.9081,承德市,铁路,,41,37,39,24,27,131,,100,100,11,15,5,5,0.5,0.6
2024-07-16T1600,1063A,117.9392,40.9763,承德市,中国银行,,40,38,43,14,28,128,,112,112,14,12,5,5,0.5,0.6
2024-07-16T1600,1064A,117.9503,40.928,承德市,开发区,,40,40,40,13,24,125,,102,102,21,13,7,7,0.5,0.6
2024-07-16T1600,1065A,117.8051,40.9655,承德市,文化中心,,45,45,42,22,26,120,,94,94,9,9,12,6,0.8,0.7
2024-07-16T1600,1066A,117.9268,41.0026,承德市,离宫,,37,20,43,12,25,118,,79,79,3,5,3,2,0.4,0.5
2024-07-16T1600,2314A,117.47,30.6618,池州市,池州学院,,22,19,36,15,19,67,,58,58,8,18,6,7,0.4,0.8
2024-07-16T1600,3237A,117.4918,30.6617,池州市,展览馆,,24,24,33,13,17,63,,53,53,5,15,3,4,0.4,0.7
2024-07-16T1600,3333A,117.5627,30.695,池州市,第八中学,,,27,38,27,19,78,,68,68,7,18,2,3,,0.8
2024-07-16T1600,3334A,117.5038,30.6243,池州市,第十二中学,,32,32,34,14,19,76,,60,60,9,19,6,6,0.6,1
2024-07-16T1600,1744A,118.9233,42.2816,赤峰市,松山一中,,25,12,31,3,16,79,,96,96,15,16,8,8,0.6,0.7
2024-07-16T1600,1745A,118.9576,42.2728,赤峰市,哈达街,,27,,34,12,20,84,,103,103,10,10,8,8,0.5,0.6
2024-07-16T1600,1746A,118.8788,42.2554,赤峰市,天义路,,28,12,32,3,19,87,,110,109,12,13,6,7,0.3,0.5
2024-07-16T1600,3058A,119.2658,42.0353,赤峰市,银河街,,40,21,31,20,24,125,,111,111,12,14,11,13,0.4,0.4
2024-07-16T1600,3286A,118.9359,42.3147,赤峰市,桥北物流园区,,24,18,33,9,23,75,,104,92,11,13,4,5,0.5,0.7
2024-07-16T1600,2521A,107.3476,22.4136,崇左市,市环保局江州分局,,22,9,21,8,9,70,,60,60,2,5,5,5,0.7,0.7
2024-07-16T1600,2522A,107.3702,22.3707,崇左市,城南新区,,21,10,19,6,9,67,,57,57,2,7,3,4,0.7,0.7
2024-07-16T1600,2298A,118.3093,32.3153,滁州市,老年大学,,37,35,39,24,32,116,,83,83,5,17,6,6,0.6,0.8
2024-07-16T1600,2299A,118.3244,32.2786,滁州市,人大宾馆,,41,40,49,20,32,130,,93,93,6,19,5,7,0.6,0.9
2024-07-16T1600,3207A,118.3118,32.3038,滁州市,市政府原办公楼,,36,28,39,25,33,115,,82,82,8,20,8,9,0.8,1
2024-07-16T1600,3331A,118.3267,32.2634,滁州市,图书馆,,46,46,47,22,30,132,,88,88,4,16,11,10,1.0,1.3
2024-07-16T1600,2605A,101.5482,25.0441,楚雄彝族自治州,州环境监测站,,15,6,10,3,10,45,,42,42,1,4,3,3,0.5,0.6
2024-07-16T1600,2606A,101.538,25.0492,楚雄彝族自治州,市经济开发区,,,,13,2,9,42,,38,38,3,6,4,4,0.4,0.6
2024-07-16T1600,2548A,107.5277,31.2827,达州市,达州职业技术学院,,17,17,21,7,5,52,,37,37,3,11,3,3,0.2,0.2
2024-07-16T1600,2549A,107.5086,31.2186,达州市,市环境监测站,,24,16,22,3,2,75,,58,58,13,23,7,7,0.3,0.4
2024-07-16T1600,2550A,107.4988,31.2132,达州市,凤凰小区,,26,9,16,3,6,82,,64,64,8,19,7,8,0.3,0.5
2024-07-16T1600,2551A,107.5082,31.1986,达州市,达县机关宾馆,,24,7,19,7,7,76,,62,62,14,22,5,6,0.1,0.3
2024-07-16T1600,2552A,107.4644,31.2124,达州市,市政中心,,27,16,25,3,4,84,,65,65,8,20,7,8,0.3,0.5
2024-07-16T1600,2614A,100.1542,25.7054,大理白族自治州,大理市环境监测站,,26,26,16,8,9,46,,41,41,8,5,3,3,0.5,0.5
2024-07-16T1600,2615A,100.2171,25.5811,大理白族自治州,大理古城,,23,11,12,9,8,71,,54,54,7,7,6,6,0.6,0.6
2024-07-16T1600,1109A,121.612,38.9741,大连市,甘井子,,30,17,17,13,8,95,,83,83,13,11,8,7,0.4,0.4
2024-07-16T1600,1110A,121.565,38.9511,大连市,周水子,,26,17,16,16,11,82,,76,76,15,12,9,8,0.5,0.5
2024-07-16T1600,1111A,121.5637,38.8845,大连市,星海三站,,30,20,18,16,12,96,,93,93,13,7,7,7,0.4,0.4
2024-07-16T1600,1112A,121.6302,38.9117,大连市,青泥洼桥,,31,14,11,14,11,98,,91,91,9,6,8,8,0.5,0.5
2024-07-16T1600,1113A,121.6251,38.8638,大连市,傅家庄,,31,17,13,14,10,98,,95,94,12,8,7,7,0.4,0.4
2024-07-16T1600,1114A,121.5213,38.8661,大连市,七贤岭,,,17,13,16,11,96,,97,97,,10,6,6,0.4,0.4
2024-07-16T1600,1115A,121.2529,38.8061,大连市,旅顺,,32,14,14,9,9,101,,93,91,11,8,8,8,0.4,0.4
2024-07-16T1600,1116A,121.7485,39.1311,大连市,金州,,31,11,11,11,8,99,,90,89,6,4,8,8,0.5,0.5
2024-07-16T1600,1117A,121.7811,39.0496,大连市,开发区,,33,14,17,11,11,104,,90,90,6,10,8,6,0.5,0.5
2024-07-16T1600,1118A,121.9762,39.0631,大连市,双D港,,29,8,12,8,8,91,,88,88,8,7,6,6,0.4,0.5
2024-07-16T1600,1789A,124.81117,46.03138,大庆市,大同区,,33,31,52,20,40,105,,101,101,9,9,8,7,0.4,0.5
2024-07-16T1600,1790A,125.129,46.533,大庆市,龙凤区,颗粒物(PM10),51,51,58,13,23,104,,103,99,10,9,4,5,0.4,0.6
2024-07-16T1600,1791A,124.902,46.408,大庆市,红岗区,,44,44,44,7,29,106,,112,102,3,5,6,6,0.5,0.7
2024-07-16T1600,1792A,125.153,46.586,大庆市,萨尔图区,,42,42,52,3,29,100,,100,97,7,7,4,4,0.4,0.5
2024-07-16T1600,1793A,124.9042,46.6215,大庆市,让胡路区,,39,39,60,9,26,112,,109,109,7,8,6,6,0.2,0.4
2024-07-16T1600,3481A,125.141,46.634,大庆市,萨区政府监测点,,36,35,56,13,24,113,,108,105,6,8,6,7,0.2,0.3
2024-07-16T1600,1721A,113.3819,40.1097,大同市,果树场,,,,,,,,,,,,,,,,
2024-07-16T1600,1723A,113.2994,40.0758,大同市,云冈宾馆,,45,6,28,3,26,144,,119,119,7,12,6,7,0.4,0.6
2024-07-16T1600,1724A,113.3444,40.0917,大同市,大同大学,,39,8,25,6,18,124,,108,108,7,10,9,10,0.3,0.6
2024-07-16T1600,1725A,113.2661,40.1269,大同市,安家小村,,44,7,25,3,13,138,,114,114,7,11,12,13,0.5,0.6
2024-07-16T1600,1726A,113.2711,40.0844,大同市,教育学院,,45,13,34,7,21,143,,115,115,11,16,8,9,0.4,0.6
2024-07-16T1600,3282A,113.3397,40.0597,大同市,大同市卫生学校,,45,16,34,9,21,142,,119,119,6,12,10,10,0.4,0.8
2024-07-16T1600,3565A,113.1367,40.1122,大同市,云冈站,,44,18,24,3,15,138,,113,113,6,11,8,8,0.3,0.6
2024-07-16T1600,3566A,113.1186,40.2556,大同市,图书馆,,,11,22,3,13,143,,130,130,10,15,7,9,,0.7
2024-07-16T1600,3567A,113.5931,40.0461,大同市,区一中,,43,20,27,3,15,135,,120,120,11,12,6,7,0.3,0.6
2024-07-16T1600,3676A,113.2802,40.0995,大同市,第二人民医院,,45,8,32,6,19,144,,120,120,6,11,8,8,0.4,0.6
2024-07-16T1600,2269A,124.1069,50.4097,大兴安岭地区,科技局,,42,42,53,26,26,126,,114,114,6,8,6,8,0.4,0.4
2024-07-16T1600,3663A,124.1164,50.4278,大兴安岭地区,红旗社区,,41,41,40,25,34,129,,117,117,6,7,9,9,0.5,0.6
2024-07-16T1600,1600A,124.3303,40.0625,丹东市,江湾东路,,30,29,32,12,16,94,,80,80,6,14,3,5,0.5,0.6
2024-07-16T1600,1601A,124.4256,40.1503,丹东市,临江后街,,26,22,22,13,12,82,,75,75,6,10,6,9,0.7,0.6
2024-07-16T1600,1602A,124.3933,40.1461,丹东市,元宝山,,26,26,27,15,14,74,,67,67,14,11,5,7,0.5,0.4
2024-07-16T1600,1603A,124.3633,40.1092,丹东市,民主桥,,30,30,33,12,15,78,,65,65,4,15,3,5,0.5,0.6
2024-07-16T1600,3541A,109.5726,19.5167,儋州市,第一中学子站,,13,10,10,3,4,40,,39,39,1,2,6,6,0.4,0.4
2024-07-16T1600,3542A,109.5567,19.5187,儋州市,东坡学校子站,,12,8,10,3,4,38,,36,36,2,2,6,5,0.4,0.4
2024-07-16T1600,2616A,98.5842,24.428,德宏傣族景颇族自治州,德宏州监测站,,25,22,27,17,11,65,,32,32,10,11,17,6,0.7,0.8
2024-07-16T1600,3677A,98.5881,24.4368,德宏傣族景颇族自治州,芒市人民政府综合楼,,20,17,22,13,12,64,,31,31,10,9,13,5,0.6,0.7
2024-07-16T1600,1901A,104.4239,31.1208,德阳市,东山公园,,29,29,17,12,9,57,,48,36,9,11,2,3,0.6,0.7
2024-07-16T1600,1902A,104.3826,31.1317,德阳市,西小区,,26,26,13,18,11,53,,51,38,16,14,2,3,0.6,0.7
2024-07-16T1600,1904A,104.3553,31.1091,德阳市,耐火材料厂,,,26,14,20,9,53,,50,34,,12,3,5,0.5,0.6
2024-07-16T1600,3639A,104.4019,31.1244,德阳市,市教育局,,30,30,18,17,12,66,,52,42,10,13,4,5,0.7,0.8
2024-07-16T1600,1622A,116.3032,37.4674,德州市,儿童乐园,,32,29,53,17,41,102,,106,103,8,12,7,7,0.7,0.9
2024-07-16T1600,1624A,116.2991,37.4451,德州市,监理站,,33,19,52,17,43,105,,116,110,12,14,8,8,0.5,0.7
2024-07-16T1600,3066A,116.2721,37.4379,德州市,九衢泉纯净水厂,,35,29,57,24,43,91,,111,105,12,14,4,5,0.6,0.8
2024-07-16T1600,3371A,116.3728,37.4403,德州市,开发区人民医院,,35,24,55,14,37,110,,104,104,11,14,10,9,0.6,0.7
2024-07-16T1600,3372A,116.3572,37.4094,德州市,太阳城中学,,32,22,52,19,38,101,,104,100,4,16,7,8,0.8,0.9
2024-07-16T1600,3511A,116.5652,37.3319,德州市,陵城艺术中心,,35,22,48,9,33,112,,110,107,9,16,7,7,0.6,0.7
2024-07-16T1600,2621A,99.7056,27.8317,迪庆藏族自治州,迪庆州站,,14,14,14,6,7,33,,30,30,7,8,7,7,0.3,0.4
2024-07-16T1600,3180A,99.7136,27.8094,迪庆藏族自治州,质量技术监督局,,25,25,15,3,6,35,,35,32,8,8,6,6,0.3,0.3
2024-07-16T1600,2663A,104.6241,35.5734,定西市,东关小学,,30,29,25,10,9,96,,77,77,7,8,6,6,0.2,0.3
2024-07-16T1600,2664A,104.6194,35.5934,定西市,供电公司,,30,29,19,21,16,86,,71,71,5,11,5,5,0.3,0.3
2024-07-16T1600,1389A,113.7547,23.0494,东莞市,莞城梨川,,17,16,20,6,7,53,,69,69,9,11,8,8,0.8,0.8
2024-07-16T1600,1390A,113.7944,23.0128,东莞市,东城石井,,17,15,16,7,5,52,,66,66,12,12,2,2,0.6,0.6
2024-07-16T1600,1391A,113.7383,22.9658,东莞市,南城西平,,18,14,18,7,6,57,,60,60,10,13,4,4,0.6,0.6
2024-07-16T1600,3319A,113.7338,23.0381,东莞市,万江金泰,,17,14,16,7,6,52,,68,68,9,7,6,6,0.5,0.5
2024-07-16T1600,3626A,113.7533,23.0202,东莞市,南城元岭,,29,29,23,10,6,48,,67,67,10,8,5,6,0.6,0.6
2024-07-16T1600,3627A,113.7875,23.0457,东莞市,东城主山,,16,15,15,6,6,49,,66,66,7,8,6,6,0.6,0.6
2024-07-16T1600,1666A,118.6614,37.4309,东营市,市环保局,,16,7,22,7,16,50,,76,69,8,10,17,12,0.4,0.5
2024-07-16T1600,3036A,118.6904,37.4338,东营市,开发区管委会,,20,16,27,3,14,63,,84,78,10,15,9,11,0.5,0.6
2024-07-16T1600,3365A,118.5719,37.565,东营市,垦利区民丰路,,20,9,26,3,17,62,,86,80,10,11,10,10,0.5,0.6
2024-07-16T1600,3498A,118.5055,37.8612,东营市,河口城区,,32,,25,12,18,101,,117,115,13,14,7,7,0.5,0.5
2024-07-16T1600,3646A,118.4978,37.4623,东营市,胜利站,,21,6,23,3,14,65,,84,77,12,14,4,5,0.8,0.8
2024-07-16T1600,3734A,118.35,37.26,东营市,理想之城,,,,31,,22,,,131,,,10,,10,,0.5
2024-07-16T1600,1591A,110.0023,39.8129,鄂尔多斯市,综合楼,,50,19,30,3,13,160,,143,143,12,14,8,11,0.4,0.7
2024-07-16T1600,1592A,109.9486,39.8261,鄂尔多斯市,巴音孟克林场办事处,,46,19,29,7,14,145,,128,128,6,12,7,7,0.5,0.9
2024-07-16T1600,1593A,109.7736,39.5986,鄂尔多斯市,康泽苑,臭氧1小时,58,29,28,7,12,166,,144,144,7,10,11,10,0.4,0.6
2024-07-16T1600,1594A,109.8119,39.5989,鄂尔多斯市,华泰汽车城,,49,14,25,9,17,156,,137,137,5,12,11,11,0.5,0.6
2024-07-16T1600,1595A,109.9734,39.7884,鄂尔多斯市,奥林花园,,47,12,27,12,13,149,,130,130,8,14,5,6,0.5,0.7
2024-07-16T1600,2436A,114.8938,30.3994,鄂州市,市政府,颗粒物(PM10),64,78,77,29,28,138,,99,99,10,13,6,6,1.0,1
2024-07-16T1600,2437A,114.8989,30.3714,鄂州市,赵家坝,,49,49,65,30,24,118,,84,84,16,15,5,5,0.5,0.7
2024-07-16T1600,3654A,114.8094,30.4089,鄂州市,精准医疗中心,,42,42,51,27,27,117,,101,101,14,18,11,13,0.8,0.8
2024-07-16T1600,2454A,109.4978,30.2981,恩施土家族苗族自治州,湖北民院,,22,16,23,11,12,69,,57,57,2,12,6,6,0.5,0.6
2024-07-16T1600,2455A,109.4707,30.2798,恩施土家族苗族自治州,州电力总公司,,20,10,22,3,12,63,,50,50,2,8,8,8,0.6,0.7
2024-07-16T1600,3549A,109.5061,30.3772,恩施土家族苗族自治州,龙凤新区,,19,12,20,3,11,59,,50,50,7,10,6,6,0.4,0.5
2024-07-16T1600,2499A,108.3411,21.6158,防城港市,沙万,,27,24,25,12,12,85,,57,57,8,15,9,10,0.5,0.7
2024-07-16T1600,2500A,108.3514,21.7731,防城港市,防城档案局,,22,20,28,12,12,68,,55,55,7,16,6,6,0.5,0.6
2024-07-16T1600,2501A,108.3506,21.6414,防城港市,大海花园,,27,26,29,16,12,86,,54,54,5,15,6,9,0.5,0.8
2024-07-16T1600,1371A,113.1294,23.0067,佛山市,湾梁,,19,14,16,10,10,60,,74,74,14,18,6,6,0.6,0.6
2024-07-16T1600,1372A,113.1083,23.0478,佛山市,华材职中,,22,,12,10,8,68,,92,92,12,17,5,6,0.3,0.4
2024-07-16T1600,1373A,113.144,23.0453,佛山市,南海气象局,,19,15,22,10,8,59,,73,73,9,15,7,8,0.3,0.4
2024-07-16T1600,1374A,113.2881,22.8094,佛山市,顺德苏岗,,15,8,13,3,5,47,,56,56,9,15,6,6,0.4,0.4
2024-07-16T1600,1376A,112.8383,22.8678,佛山市,高明孔堂,,29,15,17,9,5,92,,84,84,7,13,6,7,0.5,0.5
2024-07-16T1600,1377A,112.8836,23.1588,佛山市,三水监测站,,35,14,18,6,9,110,,78,78,14,21,4,5,0.4,0.4
2024-07-16T1600,1378A,112.867,23.185,佛山市,三水云东海,,30,9,18,9,8,94,,74,74,12,18,5,5,0.4,0.4
2024-07-16T1600,3625A,113.2544,22.7642,佛山市,容桂街道办,,16,14,11,3,6,49,,57,57,11,16,6,6,0.5,0.5
2024-07-16T1600,1280A,119.3903,26.0543,福州市,鼓山,,,,,,,,,,,,,,,,
2024-07-16T1600,1282A,119.2681,26.0504,福州市,师大,,47,47,20,7,6,107,,88,88,5,6,5,4,0.2,0.2
2024-07-16T1600,1283A,119.2984,26.1028,福州市,五四北路,颗粒物(PM10),53,55,21,8,7,117,,104,104,7,6,5,4,0.3,0.3
2024-07-16T1600,1284A,119.2648,26.0768,福州市,杨桥西路,,47,47,20,8,5,119,,107,107,6,6,5,4,0.2,0.2
2024-07-16T1600,1285A,119.317,26.0746,福州市,紫阳,,40,40,20,3,6,100,,95,95,7,7,4,3,0.2,0.3
2024-07-16T1600,3048A,119.5799,26.0936,福州市,九龙,,23,10,15,3,5,72,,64,64,2,3,5,5,0.2,0.3
2024-07-16T1600,3526A,119.5189,25.9664,福州市,吴航,,22,14,15,3,8,68,,71,71,2,5,5,6,0.5,0.5
2024-07-16T1600,1755A,123.7977,41.8491,抚顺市,望花区,,31,19,53,9,27,98,,96,96,3,6,3,4,0.3,0.5
2024-07-16T1600,1756A,123.9161,41.8822,抚顺市,顺城区,,30,23,42,9,25,96,,94,94,9,20,4,5,0.5,0.6
2024-07-16T1600,1757A,124.0436,41.8611,抚顺市,东洲区,,27,15,35,8,20,86,,85,85,7,10,4,5,0.4,0.3
2024-07-16T1600,1758A,123.9247,41.8642,抚顺市,新抚区,,26,25,39,8,22,83,,82,82,4,15,2,3,0.3,0.4
2024-07-16T1600,1759A,124.0972,41.8961,抚顺市,大伙房水库,,29,7,27,6,21,90,,88,88,2,8,4,4,0.3,0.4
2024-07-16T1600,1760A,123.7086,41.8391,抚顺市,沈抚新城,,36,36,42,17,27,106,,100,100,4,10,6,5,0.3,0.2
2024-07-16T1600,2376A,116.2127,28.0814,抚州市,桐源党溪,,31,31,32,3,16,75,,65,65,1,8,5,8,0.3,0.4
2024-07-16T1600,2377A,116.3544,27.9831,抚州市,市站,,27,27,31,11,16,65,,61,61,3,7,3,5,0.5,0.5
2024-07-16T1600,2378A,116.3565,27.963,抚州市,血防站,,20,15,29,9,15,63,,60,60,4,10,1,4,0.5,0.6
2024-07-16T1600,2379A,116.3564,28.0007,抚州市,采茶剧团,,22,22,31,7,16,64,,62,62,2,8,4,5,0.7,0.7
2024-07-16T1600,2380A,116.385,27.9647,抚州市,医学分院,,25,25,32,9,15,69,,66,66,3,9,4,4,0.7,0.8
2024-07-16T1600,2207A,121.6094,41.998,阜新市,工业园区,,,29,32,7,12,98,,95,95,,11,4,4,0.5,0.8
2024-07-16T1600,2208A,121.6697,42.0279,阜新市,长青街,,30,19,26,3,12,94,,94,94,8,11,4,6,0.4,0.5
2024-07-16T1600,2209A,121.6673,42.0705,阜新市,农业园区,,,6,26,,11,91,,89,89,8,9,4,5,0.6,0.5
2024-07-16T1600,2210A,121.6717,42.0224,阜新市,东苑,,28,16,24,6,15,87,,87,87,9,11,5,7,0.4,0.5
2024-07-16T1600,2211A,121.6506,42.0498,阜新市,玉龙新城,,30,16,27,3,12,93,,93,93,9,9,4,4,0.1,0.2
2024-07-16T1600,2301A,115.8277,32.8929,阜阳市,市监测站,颗粒物(PM10),53,55,34,23,13,45,,36,32,11,12,4,4,0.6,0.7
2024-07-16T1600,2303A,115.8554,32.8605,阜阳市,开发区,,38,38,37,26,23,56,,48,38,9,13,4,5,0.3,0.4
2024-07-16T1600,2875A,115.784,32.8892,阜阳市,阜阳职业技术学院,,41,41,32,22,15,58,,51,42,9,10,4,5,0.5,0.5
2024-07-16T1600,3468A,115.7901,32.8613,阜阳市,市规划展馆,,37,37,41,21,30,50,,45,35,9,11,1,1,0.5,0.6
2024-07-16T1600,3469A,115.836,32.9183,阜阳市,枣园社区,,32,32,34,20,24,49,,38,30,11,13,1,1,0.6,0.6
2024-07-16T1600,2669A,102.9099,34.9841,甘南藏族自治州,州政府,,25,15,34,12,15,79,,44,,4,14,7,8,0.1,0.4
2024-07-16T1600,3380A,102.8914,34.9617,甘南藏族自治州,甘肃民族师范学院,,25,,22,10,12,78,,65,65,2,12,2,2,0.3,0.3
2024-07-16T1600,2570A,101.9603,30.0475,甘孜藏族自治州,水桥子,,17,10,7,7,4,53,,47,47,14,12,4,4,0.4,0.3
2024-07-16T1600,3065A,101.9533,29.9972,甘孜藏族自治州,州环保局,,20,12,10,3,4,61,,51,51,12,14,2,2,0.3,0.3
2024-07-16T1600,3414A,115.8347,28.932,赣江新区,桑海产业园,,29,19,37,7,19,90,,82,82,9,24,10,11,0.2,0.3
2024-07-16T1600,2362A,114.9017,25.9149,赣州市,通天岩,,,,,,,,,,,,,,,,
2024-07-16T1600,2363A,114.9367,25.8664,赣州市,地委,,20,7,12,3,7,63,,56,56,2,4,9,10,0.7,0.7
2024-07-16T1600,2364A,114.9461,25.8481,赣州市,气象台,,19,,15,6,8,58,,52,52,4,7,7,7,0.6,0.6
2024-07-16T1600,2365A,114.9322,25.8333,赣州市,市图书馆,,20,10,13,3,4,62,,56,56,3,5,4,4,0.4,0.5
2024-07-16T1600,2366A,114.8905,25.8471,赣州市,华坚鞋城,,21,14,17,3,6,66,,53,53,3,6,15,22,0.4,0.4
2024-07-16T1600,3109A,115.0093,25.8613,赣州市,赣县区卫计委,,16,9,13,3,8,50,,46,46,9,11,7,8,0.7,0.7
2024-07-16T1600,2683A,106.2319,36.1417,固原市,马园,,30,22,20,3,4,96,,71,71,20,18,5,5,0.7,0.8
2024-07-16T1600,2684A,106.2792,36.0022,固原市,监测站,,33,8,9,3,5,104,,85,85,5,8,5,5,0.2,0.4
2024-07-16T1600,2685A,106.2375,36.0211,固原市,新区,,29,16,10,7,4,91,,24,,5,9,6,5,0.5,0.6
2024-07-16T1600,3522A,106.2177,35.9959,固原市,原州区十五小,,30,10,9,7,5,95,,84,84,5,10,8,8,0.6,0.7
2024-07-16T1600,2543A,106.6308,30.5278,广安市,小平旧居,,,,,,,,,,,,,,,,
2024-07-16T1600,2544A,106.6303,30.4576,广安市,市委,,38,22,23,13,12,120,,93,93,7,14,6,5,0.3,0.3
2024-07-16T1600,2545A,106.6271,30.4663,广安市,友谊中学,,38,16,18,10,12,121,,94,94,8,14,9,8,0.3,0.4
2024-07-16T1600,2547A,106.6388,30.4551,广安市,广电花园,,37,18,23,11,12,116,,88,88,7,11,8,7,0.4,0.4
2024-07-16T1600,2902A,106.6351,30.4865,广安市,北辰小学,,38,21,23,11,12,119,,92,92,8,12,9,9,0.2,0.3
2024-07-16T1600,2523A,105.8945,32.4535,广元市,黑石坡,,14,14,12,8,8,28,,11,11,9,15,14,14,0.5,0.5
2024-07-16T1600,2524A,105.821,32.4444,广元市,老城,,19,19,17,3,9,51,,17,17,18,24,7,8,0.8,0.9
2024-07-16T1600,2526A,105.8628,32.4287,广元市,监测站,,15,14,25,10,12,40,,19,19,23,24,8,6,0.6,0.8
2024-07-16T1600,3617A,105.8047,32.4166,广元市,经开区,,29,29,24,20,14,55,,20,20,23,25,2,2,0.8,0.9
2024-07-16T1600,1345A,113.2347,23.1423,广州市,广雅中学,,29,14,18,9,9,90,,75,75,21,20,4,5,0.4,0.4
2024-07-16T1600,1346A,113.2612,23.105,广州市,市五中,,29,16,19,11,9,90,,82,82,11,14,4,4,0.5,0.5
2024-07-16T1600,1348A,113.3478,23.0916,广州市,广东商学院,,28,21,21,8,8,87,,79,79,18,18,3,4,0.4,0.4
2024-07-16T1600,1349A,113.4332,23.1047,广州市,市八十六中,,20,19,23,11,8,63,,76,76,28,22,3,4,0.5,0.5
2024-07-16T1600,1350A,113.3505,22.9483,广州市,番禺中学,,20,6,14,3,7,63,,83,83,12,18,8,8,0.6,0.6
2024-07-16T1600,1351A,113.2146,23.3916,广州市,花都师范,,30,22,26,7,8,95,,68,68,14,21,6,6,0.5,0.5
2024-07-16T1600,1352A,113.2597,23.1331,广州市,市监测站,,34,34,21,13,8,90,,83,83,15,16,4,5,0.5,0.7
2024-07-16T1600,1353A,113.5618,23.312,广州市,九龙镇镇龙,,17,17,20,3,9,50,,56,56,13,11,7,7,0.4,0.5
2024-07-16T1600,1354A,113.2765,23.1544,广州市,麓湖,,30,19,22,9,8,93,,76,76,18,17,3,4,0.5,0.5
2024-07-16T1600,1355A,113.443,23.3035,广州市,帽峰山森林公园,,26,6,11,3,6,81,,67,67,7,12,4,5,0.5,0.5
2024-07-16T1600,2846A,113.3221,23.1322,广州市,体育西,,25,24,23,12,9,80,,71,71,22,19,4,5,0.6,0.6
2024-07-16T1600,3298A,113.5717,23.5491,广州市,从化街口,,17,10,12,3,5,53,,47,47,6,9,5,5,0.5,0.5
2024-07-16T1600,3299A,113.3472,23.3692,广州市,白云竹料,,27,18,20,3,9,84,,63,63,12,16,4,4,0.5,0.5
2024-07-16T1600,3300A,113.2981,23.237,广州市,白云嘉禾,,27,14,20,6,7,85,,69,69,18,21,5,6,0.6,0.6
2024-07-16T1600,3301A,113.4256,23.1716,广州市,黄埔科学城,,23,12,19,3,7,72,,72,72,15,17,6,7,0.5,0.6
2024-07-16T1600,3302A,113.3942,23.0483,广州市,番禺大学城,,22,19,18,3,7,70,,71,71,16,16,5,6,0.5,0.5
2024-07-16T1600,3303A,113.4922,22.8168,广州市,南沙黄阁,,19,14,18,8,7,59,,66,66,10,17,6,6,0.6,0.6
2024-07-16T1600,3304A,113.5342,22.7896,广州市,南沙街,,17,11,16,3,6,52,,59,59,7,12,5,5,0.7,0.7
2024-07-16T1600,3443A,113.2902,23.5544,广州市,花都梯面,,23,10,12,3,6,73,,56,56,5,9,4,4,0.4,0.4
2024-07-16T1600,3445A,113.7858,23.7478,广州市,从化良口,,17,10,10,6,4,54,,42,42,3,6,5,5,0.5,0.5
2024-07-16T1600,3446A,113.8051,23.2614,广州市,增城荔城,,17,17,16,7,6,46,,52,52,8,9,7,7,0.6,0.5
2024-07-16T1600,2505A,109.568,23.1478,贵港市,德智高中,,,,,,,,,,,,,,,,
2024-07-16T1600,2506A,109.6047,23.0666,贵港市,江南子站,,26,19,30,11,14,82,,75,75,4,12,7,9,0.4,0.5
2024-07-16T1600,2507A,109.6014,23.0948,贵港市,贵城子站,,25,18,27,9,18,78,,71,71,5,12,8,10,0.5,0.5
2024-07-16T1600,2508A,109.5669,23.1065,贵港市,荷城子站,,25,19,25,3,10,79,,74,74,5,9,9,12,0.5,0.5
2024-07-16T1600,3405A,109.5886,23.1172,贵港市,新世纪学校,,25,22,28,8,15,78,,74,74,3,8,7,8,0.5,0.6
2024-07-16T1600,1439A,106.6899,26.5998,贵阳市,马鞍山,,20,6,9,3,2,63,,63,63,2,5,5,6,0.4,0.4
2024-07-16T1600,1440A,106.6971,26.5694,贵阳市,市环保站,,19,19,15,10,12,55,,57,57,7,9,3,5,0.3,0.2
2024-07-16T1600,1441A,106.6243,26.6266,贵阳市,鉴湖路,,,,12,,4,55,,54,54,2,4,3,3,0.3,0.3
2024-07-16T1600,1442A,106.7487,26.6343,贵阳市,燕子冲,,19,6,5,3,2,59,,62,62,5,7,5,6,0.4,0.4
2024-07-16T1600,1443A,106.6555,26.4365,贵阳市,碧云窝,,18,17,17,3,1,56,,57,57,3,6,4,5,0.1,0.2
2024-07-16T1600,1444A,106.694,26.5161,贵阳市,中院村,,17,14,17,3,5,53,,54,54,9,11,4,6,0.3,0.3
2024-07-16T1600,1445A,106.7109,26.6027,贵阳市,红边门,,18,17,18,12,14,56,,57,57,10,12,3,5,0.4,0.5
2024-07-16T1600,1446A,106.7164,26.5699,贵阳市,新华路,,,,,,,,,,,,,,,,
2024-07-16T1600,1447A,106.674,26.5424,贵阳市,太慈桥,,18,17,12,3,6,57,,58,58,4,6,6,7,0.3,0.3
2024-07-16T1600,1552A,106.805,26.3003,贵阳市,桐木岭,,,,,,,,,,,,,,,,
2024-07-16T1600,1862A,110.4144,25.3167,桂林市,电子科大尧山校区,,25,,21,10,11,79,,76,76,4,6,4,5,0.3,0.4
2024-07-16T1600,1863A,110.2819,25.2697,桂林市,监测站,,25,,25,15,14,77,,78,78,5,11,6,12,0.5,0.6
2024-07-16T1600,1864A,110.3089,25.2708,桂林市,龙隐路小学,,25,22,24,15,14,77,,76,76,3,10,5,9,0.5,0.6
2024-07-16T1600,1865A,110.2869,25.2178,桂林市,八中,,25,11,20,8,9,78,,77,77,5,11,6,7,0.2,0.3
2024-07-16T1600,3403A,110.1764,25.2381,桂林市,创业大厦,,26,7,17,7,10,82,,78,78,4,14,6,10,0.3,0.3
2024-07-16T1600,3531A,110.296,25.1253,桂林市,旅游学院,,24,,10,3,7,75,,72,72,2,11,6,8,0.4,0.4
2024-07-16T1600,2674A,100.2561,34.4714,果洛藏族自治州,玛沁县大武镇,,30,17,17,13,7,94,,74,74,1,2,10,10,0.4,0.4
2024-07-16T1600,1129A,126.5422,45.755,哈尔滨市,岭北,,44,44,36,15,38,137,,133,133,8,18,6,8,1.1,0.8
2024-07-16T1600,1130A,126.561,45.8167,哈尔滨市,松北商大,,46,46,55,19,29,125,,118,118,8,17,6,6,0.5,0.8
2024-07-16T1600,1131A,126.979,45.5419,哈尔滨市,阿城会宁,,,59,52,22,37,128,,112,112,9,14,,19,0.7,0.8
2024-07-16T1600,1132A,126.599,45.7222,哈尔滨市,南岗学府路,,50,50,79,15,32,127,,120,120,5,17,5,5,0.6,0.8
2024-07-16T1600,1133A,126.689,45.7733,哈尔滨市,太平宏伟公园,颗粒物(PM10),54,57,63,20,30,129,,126,126,10,19,6,7,0.5,0.6
2024-07-16T1600,1134A,126.635,45.7667,哈尔滨市,道外承德广场,,,45,71,24,28,128,,124,124,,24,9,10,0.5,0.5
2024-07-16T1600,1135A,126.685,45.7319,哈尔滨市,香坊红旗大街,,46,46,65,19,40,128,,119,119,14,27,6,4,0.4,0.6
2024-07-16T1600,1136A,126.6411,45.7258,哈尔滨市,动力和平路,,,49,73,,35,124,,120,120,,23,,7,0.4,0.6
2024-07-16T1600,1137A,126.593,45.7478,哈尔滨市,道里建国路,,,,67,21,33,126,,122,122,10,24,11,10,0.9,1.2
2024-07-16T1600,1138A,126.615,45.61,哈尔滨市,平房东轻厂,,41,38,60,24,28,130,,115,115,8,18,9,9,0.3,0.6
2024-07-16T1600,1139A,126.595,45.9855,哈尔滨市,呼兰师专,,45,45,66,15,33,115,,118,118,10,20,12,12,0.4,0.6
2024-07-16T1600,1140A,126.6206,45.6842,哈尔滨市,省农科院,颗粒物(PM10),60,70,96,13,35,120,,108,108,14,36,5,8,0.4,0.8
2024-07-16T1600,2688A,93.5128,42.8172,哈密市,地区监测站,,50,14,22,10,12,157,,146,146,3,12,3,4,0.1,0.2
2024-07-16T1600,2689A,93.4961,42.8328,哈密市,哈密师范学校,,,19,34,14,10,159,,147,147,2,17,8,4,,0.3
2024-07-16T1600,2671A,100.9048,36.9639,海北藏族自治州,海晏县西海镇,,36,24,35,21,28,115,,103,103,7,16,11,15,0.5,0.6
2024-07-16T1600,3867A,102.0738,36.5056,海东市,平安区公安北苑,,35,34,44,15,23,109,,86,86,11,11,7,12,0.5,0.6
2024-07-16T1600,1409A,110.576,19.9507,海口市,东寨港,,,,,,,,,,,,,,,,
2024-07-16T1600,1410A,110.3232,20.0574,海口市,海南大学,,24,24,18,7,6,51,,45,45,5,5,5,5,0.3,0.3
2024-07-16T1600,1411A,110.283,20.0053,海口市,秀英海南医院,,14,14,16,7,6,39,,40,40,14,8,6,6,0.2,0.2
2024-07-16T1600,1412A,110.338,19.9969,海口市,海南师范大学,,15,13,15,9,6,46,,44,44,4,4,6,6,0.4,0.4
2024-07-16T1600,1413A,110.33,20.0356,海口市,龙华路环保局宿舍,,15,13,17,6,6,46,,41,41,5,5,7,7,0.2,0.2
2024-07-16T1600,3539A,110.5111,19.9736,海口市,桂林洋子站,,,15,14,9,5,42,,38,38,,3,6,7,0.2,0.2
2024-07-16T1600,2673A,100.6188,36.2866,海南藏族自治州,共和县恰卜恰镇,,32,14,27,6,20,100,,93,93,5,11,12,14,0.5,0.6
2024-07-16T1600,2676A,97.3731,37.3753,海西蒙古族藏族自治州,德令哈市,,33,28,19,13,14,103,,92,92,7,7,8,9,0.6,0.5
2024-07-16T1600,1048A,114.5302,36.6116,邯郸市,东污水处理厂,,41,26,47,24,38,130,,97,97,2,6,1,1,0.5,0.6
2024-07-16T1600,1049A,114.4918,36.5713,邯郸市,矿院,,44,37,55,24,42,139,,106,106,4,6,1,1,0.5,0.6
2024-07-16T1600,1050A,114.484,36.6133,邯郸市,丛台公园,,45,35,50,30,36,142,,108,108,4,6,2,3,0.6,0.7
2024-07-16T1600,3458A,114.7895,36.5593,邯郸市,香泉濮院小区,,41,30,44,19,38,130,,103,103,2,7,1,1,0.5,0.5
2024-07-16T1600,3579A,114.50634,36.77178,邯郸市,永年区实验高中,,40,32,59,28,40,126,,106,106,2,5,1,3,0.7,0.8
2024-07-16T1600,3580A,114.20016,36.44293,邯郸市,峰峰矿区临水派出所,,50,50,70,32,52,149,,118,118,1,5,1,3,0.6,1.1
2024-07-16T1600,2634A,106.9893,33.1842,汉中市,汉川机床厂子校,,20,15,19,14,11,55,,35,35,35,11,3,3,0.4,0.4
2024-07-16T1600,2635A,107.0154,33.0706,汉中市,市监测站,,25,25,21,9,8,62,,39,39,4,12,6,6,0.7,0.8
2024-07-16T1600,2636A,107.0089,33.1138,汉中市,鑫源开发区,,20,18,20,14,9,61,,37,37,3,13,8,8,0.6,0.7
2024-07-16T1600,2637A,107.007,33.0323,汉中市,南郑大河坎水厂,,24,24,20,16,9,65,,42,42,6,11,8,7,0.6,0.7
2024-07-16T1600,1223A,120.2072,30.2111,杭州市,滨江,,37,18,36,9,19,118,,92,92,4,14,3,3,0.5,0.6
2024-07-16T1600,1224A,120.0633,30.2747,杭州市,西溪,,34,19,29,13,22,106,,84,84,4,10,6,6,0.6,0.6
2024-07-16T1600,1226A,120.3461,30.3153,杭州市,下沙,,45,33,44,14,21,142,,106,106,5,25,6,6,0.4,0.5
2024-07-16T1600,1227A,120.1269,30.2456,杭州市,卧龙桥,,33,22,31,12,21,104,,76,76,7,14,4,5,0.6,0.7
2024-07-16T1600,1228A,120.1903,30.2692,杭州市,浙江农大,,39,30,34,12,20,123,,102,102,8,17,6,6,0.4,0.6
2024-07-16T1600,1230A,120.1197,30.3119,杭州市,和睦小学,,41,20,30,13,19,129,,99,99,8,17,4,5,0.4,0.6
2024-07-16T1600,1231A,120.3019,30.4183,杭州市,临平镇,,45,23,41,9,19,144,,107,107,6,24,5,5,0.4,0.6
2024-07-16T1600,1232A,120.2697,30.1819,杭州市,城厢镇,,39,21,39,9,23,123,,97,97,11,21,4,4,0.4,0.5
2024-07-16T1600,1233A,120.0883,30.1808,杭州市,云栖,,36,18,34,10,16,114,,92,92,10,13,7,6,0.5,0.7
2024-07-16T1600,3557A,119.9464,30.0494,杭州市,镇二中,,34,15,28,10,20,106,,93,93,9,24,7,6,0.5,0.6
2024-07-16T1600,3558A,119.7183,30.2367,杭州市,市府大楼,,30,26,26,13,18,93,,86,86,7,14,6,6,0.4,0.6
2024-07-16T1600,3656A,120.1556,30.2864,杭州市,消防大队,,,25,35,12,21,130,,104,104,,15,7,7,,0.9
2024-07-16T1600,1270A,117.1959,31.7848,合肥市,明珠广场,,46,46,41,31,30,85,,78,78,14,14,9,8,0.4,0.4
2024-07-16T1600,1271A,117.3072,31.8764,合肥市,三里街,,41,41,38,24,25,103,,79,79,17,35,3,4,0.5,0.6
2024-07-16T1600,1272A,117.2588,31.8707,合肥市,琥珀山庄,,39,39,42,19,23,99,,88,88,11,11,5,4,0.5,0.6
2024-07-16T1600,1273A,117.1604,31.9052,合肥市,董铺水库,,45,31,39,31,30,88,,82,82,9,8,3,3,0.4,0.5
2024-07-16T1600,1274A,117.25,31.8571,合肥市,长江中路,,48,48,42,26,28,95,,88,88,11,11,6,6,0.6,0.7
2024-07-16T1600,1275A,117.266,31.9436,合肥市,庐阳区,,34,34,37,22,27,104,,94,94,11,14,6,6,0.3,0.4
2024-07-16T1600,1276A,117.336,31.8586,合肥市,瑶海区,,,58,40,28,24,117,,36,,,18,8,8,0.7,0.8
2024-07-16T1600,1277A,117.3027,31.7964,合肥市,包河区,,41,41,39,24,23,96,,80,80,8,8,6,6,0.5,0.6
2024-07-16T1600,1278A,117.2776,31.7385,合肥市,滨湖新区,,41,41,32,27,23,95,,105,105,8,7,6,6,0.6,0.6
2024-07-16T1600,1279A,117.1318,31.8403,合肥市,高新区,,44,44,37,28,28,84,,79,79,15,11,7,7,0.6,0.6
2024-07-16T1600,3464A,117.3803,31.9147,合肥市,高教基地,,46,46,37,27,24,94,,78,78,9,13,6,7,0.5,0.6
2024-07-16T1600,3614A,79.924,37.0877,和田地区,地区环保局,颗粒物(PM10),126,201,202,51,54,145,,134,134,2,4,6,7,0.3,0.3
2024-07-16T1600,3615A,79.9131,37.113,和田地区,市环保局,颗粒物(PM10),120,190,188,32,48,137,,127,127,2,7,6,6,0.5,0.6
2024-07-16T1600,2516A,108.2011,24.715,河池市,东仁乐园,,,41,33,17,15,80,,61,61,7,11,,5,0.7,0.7
2024-07-16T1600,2517A,108.0497,24.6947,河池市,市环保站,,21,16,23,11,14,65,,65,65,5,13,7,8,0.4,0.5
2024-07-16T1600,2518A,108.0983,24.6989,河池市,市疾控中心,,23,17,27,12,16,71,,68,68,7,15,9,10,0.5,0.5
2024-07-16T1600,1696A,114.6778,23.7569,河源市,源西,,,13,20,3,17,36,,40,40,12,12,,4,0.5,0.5
2024-07-16T1600,1697A,114.6944,23.7586,河源市,东埔,,15,,15,6,6,45,,45,45,11,13,6,6,0.6,0.5
2024-07-16T1600,1698A,114.6892,23.7233,河源市,老城,,16,,16,3,9,50,,47,47,6,10,4,4,0.8,0.8
2024-07-16T1600,1718A,115.4208,35.2464,菏泽市,气象局,,32,22,23,18,14,102,,73,73,2,5,1,2,0.3,0.3
2024-07-16T1600,1719A,115.4747,35.2375,菏泽市,市政协,,27,18,15,16,18,86,,76,76,2,5,2,2,0.3,0.2
2024-07-16T1600,3374A,115.5564,35.0891,菏泽市,定陶老年大学,,21,7,13,3,4,66,,69,69,3,5,1,2,0.4,0.5
2024-07-16T1600,3647A,115.4702,35.2706,菏泽市,菏泽医专,,29,19,17,9,11,90,,70,70,2,5,3,2,0.5,0.5
2024-07-16T1600,2514A,111.5264,24.4172,贺州市,环保小区,,24,6,21,3,12,74,,65,65,6,11,7,8,0.5,0.5
2024-07-16T1600,2515A,111.5608,24.4078,贺州市,政协大楼,,24,17,26,7,15,76,,64,64,6,12,6,10,0.5,0.5
2024-07-16T1600,3534A,111.4744,24.4553,贺州市,西湾,,24,13,23,3,12,74,,66,66,6,12,6,6,0.5,0.5
2024-07-16T1600,2385A,114.17,35.9019,鹤壁市,市监测站,细颗粒物(PM2.5),68,55,49,49,48,159,,119,119,6,9,4,4,0.7,1.2
2024-07-16T1600,2386A,114.2956,35.7511,鹤壁市,市交警支队,细颗粒物(PM2.5),69,63,62,50,48,153,,130,130,8,12,4,5,1.1,1.2
2024-07-16T1600,2387A,114.2878,35.7306,鹤壁市,迎宾馆,细颗粒物(PM2.5),58,55,64,41,50,157,,130,130,11,15,2,3,0.9,1
2024-07-16T1600,3474A,114.2617,35.6822,鹤壁市,大新区,,,60,42,,18,147,,122,122,9,12,1,1,0.8,0.8
2024-07-16T1600,3596A,114.1572,35.9603,鹤壁市,南山宾馆,细颗粒物(PM2.5),72,,45,52,46,165,,128,128,4,6,7,8,1.4,1.6
2024-07-16T1600,2244A,130.2537,47.3416,鹤岗市,哈啤分公司,,48,48,58,31,36,113,,98,98,6,15,13,13,0.7,0.8
2024-07-16T1600,2245A,130.2684,47.3086,鹤岗市,斯达机电,,47,47,59,32,36,121,,104,104,7,13,13,12,0.5,0.5
2024-07-16T1600,2246A,130.3114,47.3388,鹤岗市,东山纸板厂,细颗粒物(PM2.5),58,,49,41,44,96,,79,79,8,18,16,16,0.7,0.8
2024-07-16T1600,2247A,130.1097,47.3382,鹤岗市,五号水库,,35,35,36,19,16,89,,101,101,6,7,9,9,0.4,0.7
2024-07-16T1600,2263A,127.4833,50.2524,黑河市,交通局,,,,60,14,29,,,96,,,9,6,7,0.3,0.5
2024-07-16T1600,2264A,127.5144,50.2341,黑河市,环保局,颗粒物(PM10),59,68,61,21,28,123,,126,126,5,8,4,4,0.4,0.5
2024-07-16T1600,2265A,127.5291,50.2472,黑河市,大黑河岛,,,,,24,46,,,,,11,10,1,2,,
2024-07-16T1600,1074A,115.6838,37.7541,衡水市,电机北厂,颗粒物(PM10),53,56,80,31,56,119,,108,108,4,8,3,2,0.4,0.6
2024-07-16T1600,1075A,115.6303,37.7316,衡水市,市监测站,,39,28,58,23,49,122,,110,110,6,12,5,5,0.5,0.7
2024-07-16T1600,3188A,115.6683,37.7217,衡水市,市城管局,,43,,63,30,52,129,,113,113,3,10,3,4,0.5,0.6
2024-07-16T1600,3459A,115.5989,37.5491,衡水市,地表水厂,,46,46,69,22,39,139,,118,118,2,7,6,6,0.5,0.6
2024-07-16T1600,2456A,112.5003,26.9167,衡阳市,原169医院,,20,18,25,11,13,61,,68,68,2,11,7,15,0.6,0.7
2024-07-16T1600,2457A,112.6194,26.9258,衡阳市,衡阳化工总厂,,,15,25,,,72,,76,76,2,7,8,10,0.3,0.4
2024-07-16T1600,2458A,112.6211,26.8956,衡阳市,珠晖区环保局,,,17,23,,,74,,76,76,1,6,7,10,0.5,0.6
2024-07-16T1600,2459A,112.6197,26.8733,衡阳市,市委党校,,23,15,22,6,9,72,,74,74,3,8,5,7,0.4,0.5
2024-07-16T1600,2460A,112.6006,26.8919,衡阳市,市监测站,,24,10,24,3,12,75,,79,79,2,7,8,12,0.4,0.5
2024-07-16T1600,2461A,112.5664,26.9056,衡阳市,真空机电公司,,22,11,29,11,15,70,,72,72,2,11,9,18,0.6,0.9
2024-07-16T1600,3399A,112.6703,26.882,衡阳市,师范学院,,22,16,23,9,12,68,,70,70,3,7,9,12,0.5,0.6
2024-07-16T1600,2608A,103.3772,23.3993,红河哈尼族彝族自治州,污水处理厂,,14,,16,9,10,42,,38,38,3,5,4,4,0.3,0.3
2024-07-16T1600,2609A,103.3861,23.35,红河哈尼族彝族自治州,监测站,,14,6,13,3,10,44,,42,42,2,4,2,4,0.3,0.3
2024-07-16T1600,3038A,103.3758,23.368,红河哈尼族彝族自治州,州图书馆,,12,8,10,3,6,38,,36,36,2,4,4,4,0.3,0.3
2024-07-16T1600,1090A,111.6507,40.7517,呼和浩特市,呼市一监,,38,6,6,3,6,120,,128,128,3,7,3,4,0.3,0.5
2024-07-16T1600,1091A,111.6572,40.8033,呼和浩特市,小召,,39,6,4,3,2,124,,,,9,8,6,6,0.4,0.4
2024-07-16T1600,1094A,111.7516,40.8369,呼和浩特市,如意水处理厂,,42,6,9,3,6,132,,132,132,5,11,2,2,0.2,0.5
2024-07-16T1600,1095A,111.7276,40.8062,呼和浩特市,二十九中,,,6,12,3,6,133,,137,137,5,9,,3,0.3,0.6
2024-07-16T1600,1096A,111.5512,40.7866,呼和浩特市,工大金川校区,,38,6,15,3,9,119,,127,127,8,14,4,4,0.3,0.5
2024-07-16T1600,1097A,111.717,40.7612,呼和浩特市,化肥厂生活区,,41,,9,6,14,129,,135,135,8,10,8,8,0.4,0.6
2024-07-16T1600,3698A,111.5968,40.8178,呼和浩特市,红旗小学,,42,6,8,3,7,133,,139,139,7,15,3,3,0.2,0.4
2024-07-16T1600,3699A,111.6518,40.8389,呼和浩特市,海东办,,42,6,9,3,7,132,,138,138,5,11,5,5,0.3,0.4
2024-07-16T1600,2192A,119.7594,49.2261,呼伦贝尔市,区环保局,,24,13,23,7,14,74,,52,52,21,17,5,5,0.6,0.5
2024-07-16T1600,3061A,119.7512,49.1577,呼伦贝尔市,国华电力东,,27,17,19,7,15,86,,57,57,6,9,3,4,0.4,0.3
2024-07-16T1600,1250A,120.0751,30.8669,湖州市,城西水厂,,43,18,50,9,31,135,,105,105,7,20,3,3,0.4,0.6
2024-07-16T1600,2873A,120.0875,30.8955,湖州市,仁皇山新区,,48,16,52,10,35,151,,122,122,7,23,6,6,0.6,0.8
2024-07-16T1600,2907A,120.1844,30.8596,湖州市,吴兴区站,,45,20,43,10,29,143,,109,109,6,20,6,7,0.4,0.5
2024-07-16T1600,3562A,120.4148,30.8538,湖州市,南浔区站,,45,19,35,8,26,143,,104,104,6,16,2,2,0.5,0.6
2024-07-16T1600,1607A,120.9092,40.7136,葫芦岛市,龙港区,,,,22,9,20,101,,90,90,6,6,3,3,0.3,0.4
2024-07-16T1600,1608A,120.8392,40.7514,葫芦岛市,化工街,,,,14,5,10,92,,86,86,10,10,13,13,1.0,0.9
2024-07-16T1600,1609A,120.8341,40.7073,葫芦岛市,新区,,31,17,25,10,11,99,,91,91,6,7,2,2,0.4,0.5
2024-07-16T1600,1610A,120.8695,40.7677,葫芦岛市,东城区,,43,,21,10,11,136,,122,122,7,9,7,7,0.6,0.7
2024-07-16T1600,2482A,109.5981,27.5721,怀化市,林科所,,34,13,12,8,7,107,,99,99,4,5,5,8,0.6,0.7
2024-07-16T1600,2483A,109.9453,27.5444,怀化市,河西地税局,,,7,16,3,9,87,,78,78,2,7,,5,0.4,0.4
2024-07-16T1600,2484A,109.9781,27.5342,怀化市,市四医院,,40,40,26,13,12,84,,79,79,4,9,3,4,0.4,0.6
2024-07-16T1600,2485A,109.9972,27.5578,怀化市,监测楼,,23,13,20,6,11,73,,73,73,3,7,5,6,0.4,0.5
2024-07-16T1600,2486A,110.0394,27.583,怀化市,市委党校,,24,14,18,3,9,75,,76,76,2,7,6,7,0.3,0.4
2024-07-16T1600,1210A,119.036,33.5981,淮安市,钵池山,,45,44,36,22,20,141,,116,116,11,16,6,6,1.0,0.9
2024-07-16T1600,1211A,119.007,33.575,淮安市,北京南路,,44,44,37,12,22,123,,99,99,12,16,6,6,0.9,0.9
2024-07-16T1600,1212A,118.989,33.6067,淮安市,市监测站,,49,46,43,34,32,132,,118,118,14,17,6,6,0.9,0.8
2024-07-16T1600,1213A,119.135,33.5039,淮安市,楚州区监测站,颗粒物(PM10),52,54,50,19,25,145,,111,111,11,19,6,5,0.8,0.7
2024-07-16T1600,1214A,119.0186,33.6297,淮安市,淮阴区监测站,,46,46,45,23,21,128,,110,110,15,21,7,8,0.7,0.7
2024-07-16T1600,3426A,118.8755,33.2894,淮安市,新华书店,,36,30,37,13,23,115,,106,106,10,15,7,6,0.7,0.8
2024-07-16T1600,2282A,116.8004,33.975,淮北市,监测站,,28,28,25,15,16,71,,56,56,5,10,7,5,0.4,0.6
2024-07-16T1600,2283A,116.8091,33.9007,淮北市,烈山区政府,,32,28,28,22,21,56,,45,45,4,11,5,5,0.6,0.7
2024-07-16T1600,3330A,116.8873,33.9836,淮北市,杜集区检察院,,33,33,33,18,25,72,,57,57,5,8,6,5,0.6,0.6
2024-07-16T1600,4017A,116.7923,33.9535,淮北市,市博物馆,,27,27,24,14,17,72,,57,57,2,6,4,3,0.6,0.7
2024-07-16T1600,2277A,116.8305,32.7727,淮南市,潘集区政府,,36,32,34,25,21,61,,63,63,6,7,2,2,0.2,0.3
2024-07-16T1600,2278A,117.0067,32.6524,淮南市,师范学院,,42,42,38,26,20,77,,73,73,4,6,10,10,0.1,0.2
2024-07-16T1600,2279A,116.8569,32.5951,淮南市,谢家集区政府,,22,22,23,3,15,54,,60,60,9,11,5,5,0.1,0.1
2024-07-16T1600,2280A,116.8281,32.633,淮南市,八公山区政府,颗粒物(PM10),56,62,43,24,28,63,,64,64,7,7,4,3,0.3,0.4
2024-07-16T1600,2281A,116.6325,32.6201,淮南市,焦岗湖风景区管理处,,,,25,15,12,,,25,23,3,8,6,5,0.3,0.3
2024-07-16T1600,2894A,117.0566,32.6531,淮南市,经济技术开发区消防队,,40,40,25,14,14,77,,71,71,6,8,4,4,0.4,0.5
2024-07-16T1600,3329A,117.0108,32.5893,淮南市,山南新区,,38,38,43,10,14,75,,71,71,8,9,5,5,0.5,0.5
2024-07-16T1600,2446A,114.9028,30.4742,黄冈市,职工中心,"颗粒物(PM10),细颗粒物(PM2.5)",53,56,54,37,32,128,,100,100,16,17,14,12,0.6,0.5
2024-07-16T1600,2929A,114.8858,30.4519,黄冈市,红卫路,颗粒物(PM10),55,59,52,37,34,130,,100,100,18,20,14,12,0.4,0.4
2024-07-16T1600,3398A,114.9136,30.4445,黄冈市,市林业局,颗粒物(PM10),53,55,48,36,35,125,,95,95,16,15,7,6,0.4,0.5
2024-07-16T1600,2672A,102.0199,35.5102,黄南藏族自治州,同仁县隆务镇,,26,26,32,15,15,74,,72,72,1,4,6,6,0.4,0.4
2024-07-16T1600,2295A,118.2903,29.6963,黄山市,延安路89号,,29,28,37,20,13,73,,68,68,1,7,7,7,0.4,0.4
2024-07-16T1600,2296A,118.327,29.7178,黄山市,黄山东路89号,,23,20,25,3,9,72,,66,66,4,7,6,5,0.4,0.4
2024-07-16T1600,2297A,118.1371,30.2756,黄山市,黄山区政府5号楼,,26,23,23,18,11,68,,54,54,4,6,6,6,0.4,0.7
2024-07-16T1600,2423A,115.0601,30.2313,黄石市,沈家营,颗粒物(PM10),78,106,91,28,27,118,,81,81,29,32,12,20,0.6,0.8
2024-07-16T1600,2424A,115.0817,30.2006,黄石市,陈家湾,颗粒物(PM10),68,85,76,26,25,130,,95,95,23,21,16,17,1.1,0.7
2024-07-16T1600,2426A,114.8988,30.2019,黄石市,铁山,,35,32,42,18,22,112,,92,92,5,12,10,10,0.3,0.4
2024-07-16T1600,2427A,115.0307,30.2092,黄石市,团城山,,45,45,57,27,24,132,,96,96,21,15,12,13,1.0,0.7
2024-07-16T1600,3149A,115.0235,30.1578,黄石市,笔架山北路,,45,45,71,18,20,130,,91,91,4,10,8,10,0.4,0.5
2024-07-16T1600,1392A,114.4183,23.0528,惠州市,河南岸金山湖子站,,16,8,15,3,5,49,,44,44,2,5,3,4,0.3,0.3
2024-07-16T1600,1393A,114.4053,23.0822,惠州市,下埔横江三路子站,,16,11,17,3,7,51,,49,49,4,7,6,7,0.4,0.4
2024-07-16T1600,1394A,114.4103,23.1142,惠州市,江北云山西路子站,,15,9,15,3,5,47,,46,46,2,4,3,3,0.4,0.4
2024-07-16T1600,1395A,114.4645,22.7833,惠州市,惠阳区承修路船湖子站,,14,11,14,6,7,44,,42,42,10,10,2,1,0.5,0.5
2024-07-16T1600,1396A,114.5317,22.7422,惠州市,大亚湾管委会子站,,15,15,13,7,4,44,,44,44,13,11,7,6,0.5,0.5
2024-07-16T1600,3314A,114.4338,22.8134,惠州市,惠阳秋长,,18,7,11,7,5,55,,50,50,5,6,5,5,0.5,0.6
2024-07-16T1600,3452A,114.6517,22.775,惠州市,大亚湾霞涌,,15,6,11,3,5,48,,42,42,5,5,4,4,0.4,0.4
2024-07-16T1600,2240A,130.9762,45.3001,鸡西市,环保局,,,61,51,35,33,74,,71,71,10,13,7,7,,0.6
2024-07-16T1600,2243A,130.9429,45.3039,鸡西市,第一中学,颗粒物(PM10),54,57,53,31,31,94,,93,93,7,11,4,4,0.4,0.5
2024-07-16T1600,3707A,131.0207,45.3073,鸡西市,欧美日汽修厂,颗粒物(PM10),57,63,49,29,32,79,,81,81,5,10,4,4,0.5,0.6
2024-07-16T1600,3709A,130.9967,45.3106,鸡西市,市政设施管理处,颗粒物(PM10),55,60,50,33,28,81,,82,82,13,17,6,6,0.5,0.5
2024-07-16T1600,2367A,114.9754,27.0803,吉安市,红声器材厂,,25,18,24,3,9,80,,64,64,5,8,13,15,0.5,0.5
2024-07-16T1600,2368A,114.9658,27.0999,吉安市,市森林工业局,,26,23,25,3,10,81,,66,66,5,9,10,13,0.4,0.3
2024-07-16T1600,2369A,114.99,27.1312,吉安市,市环境监测站,,,19,21,6,9,88,,71,71,7,8,10,12,,0.4
2024-07-16T1600,2370A,115.0093,27.0968,吉安市,青原区法院,,25,21,23,8,9,79,,62,62,9,10,11,15,0.5,0.4
2024-07-16T1600,1772A,126.54,43.8622,吉林市,哈达湾,,37,17,50,17,40,116,,107,107,6,14,4,4,0.6,0.8
2024-07-16T1600,1773A,126.5844,43.8358,吉林市,东局子,,33,29,54,22,39,104,,96,96,4,12,4,4,0.6,0.8
2024-07-16T1600,1774A,126.5052,43.8245,吉林市,电力学院,,37,29,56,20,41,117,,106,106,6,20,6,11,0.4,0.7
2024-07-16T1600,1775A,126.6133,43.8972,吉林市,江北,,30,30,50,18,34,96,,87,87,4,10,8,7,0.7,0.9
2024-07-16T1600,1776A,126.555,43.8306,吉林市,江南公园,,34,23,46,13,39,106,,102,102,10,15,5,4,0.7,0.8
2024-07-16T1600,1778A,126.7061,43.7133,吉林市,丰满,,,,,,,,,,,,,,,,
2024-07-16T1600,2868A,126.4739,43.953,吉林市,九站,,41,23,52,15,36,129,,112,112,5,13,4,4,0.6,0.8
2024-07-16T1600,1299A,116.9862,36.6114,济南市,科干所,,15,7,34,3,21,48,,56,43,8,19,7,7,0.5,0.6
2024-07-16T1600,1300A,116.9376,36.665,济南市,农科所,,15,7,33,3,18,47,,65,43,14,22,7,7,0.2,0.5
2024-07-16T1600,1301A,117.1265,36.6734,济南市,开发区,,20,6,37,3,16,64,,77,55,9,20,8,9,0.5,0.7
2024-07-16T1600,1303A,117.0624,36.6868,济南市,省种子仓库,,,7,42,,25,56,,72,50,11,25,5,6,0.5,0.6
2024-07-16T1600,1304A,116.9489,36.6447,济南市,机床二厂,,21,10,39,3,19,67,,75,56,9,21,8,8,0.2,0.4
2024-07-16T1600,1305A,117.0495,36.663,济南市,市监测站,,21,,34,3,22,65,,81,57,10,22,8,9,0.5,0.7
2024-07-16T1600,1306A,116.7675,36.5484,济南市,长清党校,,17,,31,7,20,53,,58,45,6,13,8,8,0.5,0.7
2024-07-16T1600,1616A,117.6795,36.229,济南市,技术学院,,20,,17,3,14,63,,58,53,4,12,7,8,0.6,0.8
2024-07-16T1600,1961A,117.532,36.6868,济南市,东山小学,,21,10,30,3,19,66,,60,60,9,21,4,5,0.5,0.8
2024-07-16T1600,3059A,117.7161,36.2049,济南市,泰兴公司,,18,6,21,3,11,55,,51,45,4,14,8,8,0.4,0.5
2024-07-16T1600,3064A,117.6867,36.2171,济南市,莱芜战役纪念馆,,17,9,24,3,10,52,,50,44,6,13,7,8,0.5,0.7
2024-07-16T1600,3494A,117.1673,36.9782,济南市,济阳区政府,,23,17,54,3,32,72,,99,80,6,17,7,6,0.3,0.5
2024-07-16T1600,3495A,117.1171,36.63,济南市,锦屏中学,,10,6,32,3,21,30,,53,48,10,16,9,9,0.5,0.6
2024-07-16T1600,3682A,116.9814,36.6819,济南市,济南四建,,18,6,36,3,22,57,,81,48,10,20,7,7,0.6,0.8
2024-07-16T1600,1653A,116.6251,35.4302,济宁市,火炬城,,,,32,5,12,55,,56,56,4,8,6,6,0.6,0.7
2024-07-16T1600,1655A,116.5491,35.4042,济宁市,电化厂,,18,10,22,3,16,55,,53,53,2,7,4,5,0.5,0.6
2024-07-16T1600,3500A,116.5814,35.3707,济宁市,北湖一中,,17,6,25,3,8,53,,56,56,2,7,6,7,0.4,0.5
2024-07-16T1600,3501A,116.8249,35.5593,济宁市,服务中心,,20,8,26,3,14,63,,65,65,10,10,2,2,0.3,0.4
2024-07-16T1600,3678A,116.5907,35.4054,济宁市,市第七中学,,19,6,22,3,12,60,,58,58,5,11,4,4,0.4,0.6
2024-07-16T1600,2255A,130.2751,46.8028,佳木斯市,佳纺,细颗粒物(PM2.5),64,53,55,46,39,134,,129,129,4,13,6,6,0.7,0.8
2024-07-16T1600,2256A,130.3995,46.8307,佳木斯市,发电厂,,,,61,,44,136,,128,128,7,19,7,7,,0.8
2024-07-16T1600,2257A,130.3258,46.7975,佳木斯市,环保局,细颗粒物(PM2.5),64,53,58,46,44,133,,104,,10,14,11,9,0.4,0.6
2024-07-16T1600,2258A,130.3648,46.8032,佳木斯市,十一中,细颗粒物(PM2.5),64,56,57,46,45,125,,117,117,10,18,8,8,0.7,0.7
2024-07-16T1600,2259A,130.3794,46.7588,佳木斯市,四丰,细颗粒物(PM2.5),55,55,51,39,32,104,,91,91,6,11,1,1,1.0,1
2024-07-16T1600,1252A,120.7436,30.778,嘉兴市,清河小学,,43,17,32,7,17,135,,99,99,10,25,6,6,0.1,0.4
2024-07-16T1600,1253A,120.726,30.7478,嘉兴市,嘉兴学院,,38,24,31,7,18,120,,88,88,7,17,1,2,0.4,0.5
2024-07-16T1600,2872A,120.7846,30.7525,嘉兴市,南湖区残联,,48,18,28,6,19,153,,112,112,6,17,5,5,0.4,0.5
2024-07-16T1600,3407A,120.6916,30.7739,嘉兴市,秀洲住建,,45,14,25,10,20,144,,106,106,11,23,2,2,0.5,0.6
2024-07-16T1600,1945A,98.2908,39.7711,嘉峪关市,气象局,,39,14,26,3,6,124,,119,119,2,7,4,4,0.3,0.3
2024-07-16T1600,2884A,98.2672,39.7978,嘉峪关市,酒钢宾馆,,39,22,30,3,8,124,,118,118,3,9,2,10,0.3,0.4
2024-07-16T1600,3248A,98.2643,39.7724,嘉峪关市,雄关区,,39,19,27,3,11,123,,116,116,3,7,7,7,0.4,0.5
2024-07-16T1600,1383A,113.1064,22.6058,江门市,北街,,22,15,16,13,6,68,,69,69,8,15,4,3,0.3,0.3
2024-07-16T1600,1384A,113.0731,22.5835,江门市,西区,,21,15,18,8,7,67,,69,69,7,13,5,6,0.3,0.3
2024-07-16T1600,1385A,113.0219,22.5311,江门市,圭峰西,,,6,16,6,7,68,,75,75,5,13,2,4,,0.3
2024-07-16T1600,1386A,113.0828,22.5947,江门市,东湖,,21,20,17,9,7,67,,66,66,8,13,6,6,0.3,0.3
2024-07-16T1600,3311A,113.1075,22.5647,江门市,江海富民,,23,23,30,14,10,64,,68,68,7,15,6,6,0.4,0.4
2024-07-16T1600,3449A,113.05,22.4667,江门市,新会银湖,,19,11,18,7,5,59,,61,61,6,14,4,5,0.3,0.4
2024-07-16T1600,1828A,113.227,35.2125,焦作市,市环保局,,36,36,36,25,26,111,,91,91,1,5,3,3,0.4,0.4
2024-07-16T1600,1830A,113.1992,35.2590,焦作市,影视城,,,,,,,,,,,,,,,,
2024-07-16T1600,3169A,113.2725,35.2067,焦作市,太极体育中心,,49,49,36,22,21,104,,91,91,2,6,3,3,0.5,0.5
2024-07-16T1600,3335A,113.3137,35.2641,焦作市,马村街道办,细颗粒物(PM2.5),59,48,33,42,31,109,,92,92,5,6,1,3,0.6,0.6
2024-07-16T1600,3336A,113.2465,35.2373,焦作市,焦作技师学院,,43,43,37,27,26,125,,102,102,6,11,3,2,0.8,0.8
2024-07-16T1600,3477A,113.1656,35.2539,焦作市,中站许衡医院,,48,36,32,33,33,112,,93,93,7,14,5,7,0.6,0.6
2024-07-16T1600,3981A,113.2449,35.1803,焦作市,原李万街道办,,44,44,28,22,23,101,,93,93,12,9,1,1,0.2,0.2
2024-07-16T1600,1708A,116.3701,23.5345,揭阳市,新兴,,31,31,25,9,9,47,,42,42,7,11,3,6,0.5,0.6
2024-07-16T1600,1709A,116.3264,23.5443,揭阳市,西马,,29,29,21,9,8,53,,46,46,4,5,3,5,0.6,0.7
2024-07-16T1600,1710A,116.3611,23.5626,揭阳市,东兴,,,,22,6,7,54,,46,46,4,7,1,4,0.7,0.7
2024-07-16T1600,1711A,116.4151,23.5294,揭阳市,渔湖,,15,13,24,8,10,47,,40,40,7,11,3,5,0.6,0.7
2024-07-16T1600,3320A,116.403,23.5699,揭阳市,曲溪,,14,8,20,3,9,44,,40,40,7,10,2,7,0.4,0.6
2024-07-16T1600,1944A,102.1692,38.5167,金昌市,天庆家园,,36,29,21,11,10,114,,111,111,5,5,14,13,0.6,0.5
2024-07-16T1600,3170A,102.1864,38.5253,金昌市,市委党校,,,44,29,14,9,99,,101,100,,5,25,10,0.5,0.5
2024-07-16T1600,4022A,102.1647,38.5371,金昌市,金川区人防中心,,37,29,26,13,10,116,,112,112,7,7,16,11,0.5,0.5
2024-07-16T1600,1262A,119.647,29.077,金华市,十五中,,23,,33,9,17,72,,61,61,6,20,1,2,0.2,0.5
2024-07-16T1600,1263A,119.686,29.1029,金华市,监测站,,22,8,29,3,14,70,,60,60,5,22,2,2,0.2,0.4
2024-07-16T1600,3659A,119.656,29.1131,金华市,气象局,,24,13,28,3,10,74,,60,60,2,23,3,3,0.1,0.3
2024-07-16T1600,1767A,121.1115,41.0879,锦州市,南山,,,,24,11,14,107,,101,101,7,8,4,4,0.5,0.5
2024-07-16T1600,1768A,121.0533,40.8434,锦州市,开发区,,48,48,35,10,11,116,,102,102,12,13,6,6,0.8,0.8
2024-07-16T1600,1769A,121.1836,41.1119,锦州市,百股街道,,33,17,31,3,6,103,,98,98,5,6,6,6,0.8,0.7
2024-07-16T1600,1770A,121.1178,41.1222,锦州市,天安街道,,31,28,24,14,12,97,,92,92,4,5,5,6,0.6,0.6
2024-07-16T1600,1771A,121.1303,41.1386,锦州市,北湖公园,,30,23,21,10,6,94,,88,88,8,8,4,5,0.6,0.6
2024-07-16T1600,2160A,112.85,35.5051,晋城市,自来水公司,细颗粒物(PM2.5),77,69,47,56,29,119,,85,85,10,14,6,5,1.0,1
2024-07-16T1600,2161A,112.8318,35.4936,晋城市,白云商贸,细颗粒物(PM2.5),73,79,46,53,24,109,,83,83,10,15,6,6,1.1,1
2024-07-16T1600,2162A,112.8508,35.4887,晋城市,市环保局,细颗粒物(PM2.5),77,74,50,56,28,114,,85,85,12,16,7,6,1.0,1
2024-07-16T1600,2163A,112.8676,35.4897,晋城市,技术学院,细颗粒物(PM2.5),77,78,42,56,30,121,,89,89,12,19,6,6,1.2,1.2
2024-07-16T1600,2165A,112.8453,35.546,晋城市,白马寺,,,,,,,,,,,,,,,,
2024-07-16T1600,3620A,112.8271,35.4828,晋城市,泽州一中,细颗粒物(PM2.5),89,,45,66,33,113,,85,85,10,15,9,8,1.1,1
2024-07-16T1600,2171A,112.7532,37.6945,晋中市,锦纶小区,臭氧1小时,57,36,42,22,31,165,,124,124,9,15,6,6,0.7,0.7
2024-07-16T1600,2173A,112.7249,37.7067,晋中市,南都小区,臭氧1小时,69,37,51,26,41,175,,127,127,9,12,7,6,0.5,0.7
2024-07-16T1600,2174A,112.6991,37.6982,晋中市,榆次区政府,臭氧1小时,60,39,42,24,34,168,,128,128,12,15,7,7,0.5,0.6
2024-07-16T1600,2865A,112.7195,37.6828,晋中市,榆次三中,臭氧1小时,64,36,44,19,29,171,,128,128,6,16,7,6,0.7,0.8
2024-07-16T1600,2439A,112.2014,31.0481,荆门市,竹园小学,,31,31,36,10,21,91,,78,78,6,12,11,11,0.4,0.5
2024-07-16T1600,2440A,112.1969,30.9891,荆门市,掇刀,,30,23,32,13,21,94,,81,81,10,13,7,8,0.5,0.5
2024-07-16T1600,2441A,112.2213,31.0386,荆门市,石化一小,,46,46,41,19,25,97,,81,81,6,15,16,21,0.5,0.6
2024-07-16T1600,3012A,112.1849,31.0362,荆门市,西山林语,,29,23,32,13,18,90,,78,78,3,7,8,8,0.7,0.7
2024-07-16T1600,3547A,112.1632,31.0138,荆门市,龙泉中学南校,,28,17,30,10,19,87,,77,77,2,10,8,8,0.4,0.5
2024-07-16T1600,1844A,112.2494,30.3197,荆州市,市图书馆,,31,,29,10,20,97,,78,78,5,13,6,7,0.6,0.7
2024-07-16T1600,1845A,112.2008,30.3544,荆州市,市委党校,,32,18,27,12,25,102,,80,80,7,11,5,6,0.5,0.6
2024-07-16T1600,3194A,112.2747,30.3122,荆州市,管委会,,33,,27,13,26,103,,82,82,5,10,4,4,0.3,0.4
2024-07-16T1600,3548A,112.1655,30.3364,荆州市,学苑路,,31,15,29,14,26,99,,80,80,7,11,6,7,0.5,0.5
2024-07-16T1600,2342A,117.3102,29.3867,景德镇市,王港中学,,,,,,,,,,,,,,,,
2024-07-16T1600,2343A,117.2117,29.2933,景德镇市,老干部活动中心,,28,21,27,17,18,88,,79,79,8,11,9,9,0.2,0.3
2024-07-16T1600,2344A,117.1894,29.2789,景德镇市,兽医站,,31,18,33,17,20,99,,84,84,3,8,11,11,0.2,0.3
2024-07-16T1600,2345A,117.1547,29.2617,景德镇市,台达陶瓷,,32,25,33,22,23,73,,64,64,10,15,14,17,0.2,0.3
2024-07-16T1600,2346A,117.2461,29.2956,景德镇市,陶研所,,30,24,30,7,17,94,,78,78,2,9,5,6,0.2,0.2
2024-07-16T1600,1803A,115.9872,29.6815,九江市,十里,,30,24,38,14,22,96,,94,94,8,23,10,10,0.6,0.7
2024-07-16T1600,1804A,115.9584,29.7046,九江市,茅山头,,31,13,43,13,29,97,,95,95,8,31,10,8,0.4,0.6
2024-07-16T1600,1805A,115.9877,29.7295,九江市,西园,,33,33,40,15,25,105,,80,80,16,36,8,10,0.7,0.8
2024-07-16T1600,1806A,116.0172,29.6547,九江市,五七二七厂,,34,34,26,9,19,87,,74,74,9,13,9,9,0.6,0.6
2024-07-16T1600,1808A,115.9114,29.6038,九江市,综合工业园,,32,15,33,7,21,102,,90,90,2,35,5,10,0.4,0.7
2024-07-16T1600,1809A,116.0721,29.7535,九江市,石化总厂,,35,30,39,11,26,112,,97,97,16,15,8,11,0.7,0.8
2024-07-16T1600,1810A,115.9773,29.5698,九江市,庐山气象台,,28,12,10,12,11,88,,67,67,1,1,6,11,0.5,0.8
2024-07-16T1600,3190A,116.0254,29.6994,九江市,外国语学校,,38,22,32,19,25,119,,103,103,12,24,11,16,0.6,0.7
2024-07-16T1600,2658A,98.5061,39.7443,酒泉市,仓门街子站,,38,19,29,18,16,121,,115,115,2,6,5,10,0.1,0.2
2024-07-16T1600,2659A,98.4989,39.7256,酒泉市,油田生活基地,,40,12,25,3,9,125,,119,119,3,6,6,13,0.2,0.2
2024-07-16T1600,2698A,76.0072,39.4467,喀什地区,巡警大队,,50,46,61,3,7,157,,117,116,7,13,4,3,0.2,0.2
2024-07-16T1600,2699A,75.9755,39.4694,喀什地区,吾办,,50,35,52,10,15,158,,116,113,8,13,5,4,0.3,0.3
2024-07-16T1600,4027A,75.9483,39.4689,喀什地区,老干局,,50,36,65,3,6,158,,112,112,6,13,3,3,0.2,0.2
2024-07-16T1600,1824A,114.3389,34.7781,开封市,肿瘤医院,颗粒物(PM10),52,53,39,33,20,111,,97,97,4,4,3,3,0.9,0.9
2024-07-16T1600,1826A,114.2885,34.7965,开封市,世纪星幼儿园,,49,49,38,34,24,118,,100,100,7,5,3,3,0.9,0.7
2024-07-16T1600,3147A,114.3438,34.8106,开封市,龙亭公园,,46,46,36,31,17,113,,89,89,7,7,1,2,0.9,0.7
2024-07-16T1600,3210A,114.3644,34.7964,开封市,汴京公园,细颗粒物(PM2.5),72,59,44,52,38,120,,100,100,4,5,2,2,1.0,0.8
2024-07-16T1600,3473A,114.2485,34.8306,开封市,技师学院,,46,46,38,26,18,109,,94,94,6,6,3,3,1.3,1.2
2024-07-16T1600,3592A,114.4644,34.7556,开封市,祥符区生态环境局,,42,42,33,27,21,99,,90,90,6,9,2,2,0.7,0.8
2024-07-16T1600,1951A,84.895,45.6094,克拉玛依市,长征新村,,,16,25,11,6,118,,117,117,4,6,8,9,,0.2
2024-07-16T1600,1952A,84.8988,45.5893,克拉玛依市,南林小区,,39,14,22,11,9,122,,111,106,4,10,7,7,0.1,0.2
2024-07-16T1600,1954A,84.905,44.3396,克拉玛依市,独山子区,,35,20,37,7,11,109,,112,111,7,6,6,8,0.4,0.4
2024-07-16T1600,1955A,85.6979,46.098,克拉玛依市,乌尔禾区商贸楼,,40,10,29,9,8,128,,118,118,3,8,5,8,0.3,0.3
2024-07-16T1600,3612A,85.1045,45.6899,克拉玛依市,白碱滩区新站,,46,18,27,10,14,145,,118,110,4,6,7,7,0.2,0.2
2024-07-16T1600,2697A,76.1454,39.7142,克孜勒苏柯尔克孜自治州,市人民政府,,49,21,35,6,12,156,,139,134,2,4,9,11,0.4,0.4
2024-07-16T1600,3665A,76.1658,39.7157,克孜勒苏柯尔克孜自治州,克州文化中心,,49,,29,10,12,156,,141,138,2,4,11,15,0.5,0.5
2024-07-16T1600,1450A,102.8204,24.8886,昆明市,呈贡新区,,23,19,21,3,11,72,,54,54,5,10,4,4,0.4,0.5
2024-07-16T1600,1451A,102.6251,24.9608,昆明市,西山森林公园,,,,,,,,,,,,,,,,
2024-07-16T1600,1452A,102.7252,25.0902,昆明市,龙泉镇,,24,10,15,6,8,76,,56,56,7,10,6,6,0.4,0.4
2024-07-16T1600,1453A,102.7266,25.0375,昆明市,东风东路,,21,11,15,8,9,67,,51,51,7,10,1,2,0.3,0.3
2024-07-16T1600,1454A,102.6742,25.0669,昆明市,金鼎山,,24,12,15,3,7,74,,55,55,6,11,12,12,0.3,0.3
2024-07-16T1600,1455A,102.6644,25.0401,昆明市,碧鸡广场,,23,7,17,3,7,71,,54,54,6,12,2,2,0.3,0.3
2024-07-16T1600,3179A,102.7494,25.0119,昆明市,官渡区博物馆,,24,8,12,7,8,75,,57,57,4,6,6,6,0.4,0.5
2024-07-16T1600,3375A,102.8017,24.8336,昆明市,青年创业园,,22,8,15,3,9,68,,52,52,3,8,7,7,0.3,0.3
2024-07-16T1600,3550A,102.7997,24.9786,昆明市,昆明学院,,24,8,20,3,10,76,,56,56,5,13,4,4,0.2,0.3
2024-07-16T1600,3551A,102.5967,24.6736,昆明市,晋宁区生态环境分局,,,11,12,7,9,76,,56,56,,7,8,6,0.4,0.4
2024-07-16T1600,3552A,102.6678,24.9856,昆明市,云天化总部,,23,11,12,3,8,72,,54,54,4,6,1,2,0.3,0.4
2024-07-16T1600,1456A,91.1319,29.6514,拉萨市,八廓街,,40,28,11,11,8,128,,100,100,8,11,7,5,0.2,0.2
2024-07-16T1600,1457A,91.1221,29.6747,拉萨市,市环保局,,38,9,10,3,6,120,,98,98,10,13,9,9,0.2,0.2
2024-07-16T1600,1458A,91.0874,29.6475,拉萨市,区监测站,,37,6,9,3,6,118,,94,94,7,11,7,7,0.3,0.2
2024-07-16T1600,1459A,91.1774,29.6541,拉萨市,西藏大学,,39,7,9,6,6,122,,98,98,6,7,8,9,0.2,0.2
2024-07-16T1600,1460A,90.9798,29.6588,拉萨市,区辐射站,,36,7,10,3,8,114,,94,94,7,11,8,8,0.2,0.3
2024-07-16T1600,1461A,91.0834,29.6292,拉萨市,拉萨火车站,,37,9,9,6,6,118,,91,91,8,10,8,8,0.3,0.3
2024-07-16T1600,2520A,109.2203,23.7256,来宾市,来宾技工学校,,26,18,26,14,13,81,,70,70,3,8,7,7,0.5,0.7
2024-07-16T1600,3535A,109.1781,23.7297,来宾市,兴宾区政府,,25,14,22,7,12,80,,70,70,3,9,7,5,0.6,0.7
2024-07-16T1600,4002A,109.2416,23.7461,来宾市,中南小学,,25,24,27,14,14,80,,70,70,4,12,7,7,0.6,0.7
2024-07-16T1600,1476A,103.631,36.1031,兰州市,兰炼宾馆,,40,36,34,28,22,125,,115,115,14,23,8,9,0.3,0.4
2024-07-16T1600,1477A,104.1373,35.9454,兰州市,榆中兰大校区,,,,,,,,,,,,,,,,
2024-07-16T1600,1478A,103.8412,36.0726,兰州市,生物制品所,,32,30,32,15,20,100,,93,93,16,28,10,11,0.2,0.3
2024-07-16T1600,1479A,103.831,36.0464,兰州市,铁路设计院,,34,31,31,12,15,106,,95,95,17,33,6,7,0.4,0.6
2024-07-16T1600,3186A,103.7158,36.1058,兰州市,教育港,,35,31,34,19,17,110,,110,110,12,24,3,8,0.4,0.4
2024-07-16T1600,3241A,103.7439,36.0842,兰州市,百合公园,,34,31,29,12,15,108,,92,92,13,28,7,4,0.6,0.7
2024-07-16T1600,3242A,103.9611,35.998,兰州市,和平,,34,29,29,14,11,107,,98,98,8,14,7,6,0.5,0.5
2024-07-16T1600,3245A,103.6633,36.533,兰州新区,新区管委会,,49,21,37,10,21,156,,139,139,3,10,12,22,0.3,0.5
2024-07-16T1600,3246A,103.6975,36.4789,兰州新区,舟曲中学,,47,21,49,7,18,148,,127,127,6,14,6,26,0.4,0.5
2024-07-16T1600,1067A,116.6708,39.5111,廊坊市,药材公司,,49,44,46,32,29,156,,121,121,1,10,2,2,0.6,0.5
2024-07-16T1600,1068A,116.7214,39.5589,廊坊市,开发区,臭氧1小时,62,58,50,41,32,169,,115,115,7,12,3,3,0.5,0.5
2024-07-16T1600,1070A,116.7244,39.5269,廊坊市,北华航天学院,细颗粒物(PM2.5),52,52,54,36,30,160,,128,128,8,13,3,2,0.5,0.5
2024-07-16T1600,2919A,116.7022,39.5453,廊坊市,河北工业大学,臭氧1小时,62,49,53,31,29,169,,122,122,10,14,3,3,0.5,0.5
2024-07-16T1600,2535A,103.7723,29.5462,乐山市,花湖湾,,33,,20,13,20,103,,74,74,7,16,3,3,0.4,0.5
2024-07-16T1600,2536A,103.7627,29.5844,乐山市,牛耳桥,,38,16,32,10,21,120,,84,84,10,20,2,2,0.5,0.6
2024-07-16T1600,2537A,103.7508,29.6006,乐山市,市第三水厂,,40,15,32,11,20,125,,87,87,6,18,2,3,0.5,0.6
2024-07-16T1600,2538A,103.7571,29.5664,乐山市,市监测站,,40,17,27,12,20,126,,87,87,6,16,2,3,0.5,0.6
2024-07-16T1600,3361A,103.7311,29.5628,乐山市,理工大学,,44,18,27,13,22,139,,93,93,5,16,3,5,0.5,0.6
2024-07-16T1600,2598A,100.2143,26.8576,丽江市,西南郊,,,,,,,,,,,,,,,,
2024-07-16T1600,2599A,100.2497,26.8802,丽江市,丽江古城,,17,14,19,7,14,53,,37,37,7,11,6,6,0.5,0.5
2024-07-16T1600,2600A,100.2203,26.8906,丽江市,市中心,,17,17,14,3,12,48,,32,32,8,11,7,7,0.5,0.6
2024-07-16T1600,1267A,119.914,28.4514,丽水市,监测站大楼,,26,17,15,8,7,81,,63,63,3,6,3,3,0.4,0.5
2024-07-16T1600,1268A,119.93,28.4586,丽水市,莲都小学,,26,25,19,3,6,82,,63,63,4,5,4,4,0.5,0.5
2024-07-16T1600,1269A,119.879,28.4231,丽水市,余庄前,,25,16,14,7,6,80,,60,60,2,6,2,2,0.3,0.3
2024-07-16T1600,1173A,119.176,34.5885,连云港市,市环境监测站,细颗粒物(PM2.5),58,44,32,41,22,65,,56,56,16,16,5,5,0.6,0.5
2024-07-16T1600,3000A,119.3581,34.6972,连云港市,德源药业,,27,27,24,14,14,29,,55,54,35,20,2,2,0.5,0.5
2024-07-16T1600,3007A,119.178,34.844,连云港市,新城一中,,32,32,24,20,14,63,,60,60,22,21,4,4,0.8,0.7
2024-07-16T1600,3008A,119.3608,34.7519,连云港市,胡沟管理处,,27,27,24,17,15,74,,69,66,7,17,4,5,0.7,0.7
2024-07-16T1600,3009A,119.1478,34.5911,连云港市,矿山设计院,细颗粒物(PM2.5),64,51,32,46,21,61,,49,49,11,12,2,3,0.6,0.5
2024-07-16T1600,3434A,119.2413,34.6539,连云港市,工贸学校,,36,30,23,25,18,90,,81,77,4,5,6,6,0.7,0.7
2024-07-16T1600,3664A,119.4172,34.7341,连云港市,连云街道,,31,22,24,16,16,98,,98,73,5,9,5,5,0.4,0.5
2024-07-16T1600,2571A,102.3431,27.8099,凉山彝族自治州,青龙寺,,17,6,14,3,7,52,,44,44,2,4,4,4,0.5,0.5
2024-07-16T1600,2572A,102.2721,27.8415,凉山彝族自治州,邛海宾馆,,18,12,15,8,8,56,,48,48,4,8,12,8,0.5,0.6
2024-07-16T1600,2573A,102.2625,27.898,凉山彝族自治州,西昌市政府,,17,12,11,8,7,54,,46,46,5,7,13,11,0.6,0.6
2024-07-16T1600,2574A,102.2685,27.8851,凉山彝族自治州,凉山州政府,,18,10,15,7,7,57,,48,48,5,7,13,9,0.6,0.7
2024-07-16T1600,2575A,102.237,27.8914,凉山彝族自治州,长安,,18,17,15,6,7,56,,44,44,11,9,6,7,1.3,0.9
2024-07-16T1600,2212A,123.2,41.1953,辽阳市,宏伟区,,24,6,25,3,11,76,,80,80,3,5,8,8,0.5,0.6
2024-07-16T1600,2213A,123.1683,41.2495,辽阳市,新华园,,24,11,28,7,16,76,,83,83,4,8,5,6,0.6,0.6
2024-07-16T1600,2214A,123.2354,41.2639,辽阳市,滨河路,,22,14,26,3,14,69,,72,72,5,9,8,8,0.3,0.4
2024-07-16T1600,2215A,123.149,41.2991,辽阳市,铁西工业园,,22,20,30,6,14,70,,75,75,5,7,8,8,0.6,0.7
2024-07-16T1600,2227A,125.1358,42.8845,辽源市,环保局,,34,18,40,3,29,106,,110,110,4,13,6,7,0.5,0.8
2024-07-16T1600,3239A,125.0764,42.9078,辽源市,银鹰制药,,32,12,33,11,27,101,,103,103,11,17,4,5,0.5,0.8
2024-07-16T1600,1625A,115.9848,36.4372,聊城市,区政府,,36,31,34,25,22,94,,62,62,10,15,8,9,0.6,0.7
2024-07-16T1600,2878A,116.0072,36.4343,聊城市,聊大东校,,,,22,41,24,80,,48,48,,14,6,5,0.6,0.5
2024-07-16T1600,3200A,115.9819,36.4978,聊城市,监控中心,,34,34,39,22,23,93,,62,62,8,18,8,8,0.7,0.7
2024-07-16T1600,3513A,116.0445,36.4361,聊城市,九州社区,,34,34,35,18,17,80,,49,49,9,18,7,8,0.6,0.6
2024-07-16T1600,4018A,116.0567,36.4608,聊城市,星美广场,,36,35,45,25,20,75,,49,49,14,20,2,7,0.6,0.7
2024-07-16T1600,2632A,94.3681,29.6376,林芝市,林芝监测站,,13,,4,3,4,39,,40,40,2,2,8,8,0.4,0.3
2024-07-16T1600,2633A,94.3616,29.6616,林芝市,林芝人民医院,,13,6,7,3,5,41,,42,42,4,5,9,9,0.2,0.2
2024-07-16T1600,2603A,100.0781,23.8982,临沧市,市环保局,,22,17,16,15,13,48,,36,36,6,8,5,5,0.1,0.3
2024-07-16T1600,2604A,100.0894,23.8822,临沧市,市气象局,,14,13,15,7,10,43,,33,33,5,8,5,5,0.2,0.3
2024-07-16T1600,1733A,111.5531,36.0783,临汾市,临钢医院,,38,29,41,14,21,119,,117,117,7,10,4,3,1.0,0.8
2024-07-16T1600,1734A,111.5028,36.0714,临汾市,技工学校,,35,20,31,13,19,110,,120,120,10,14,5,3,0.9,0.8
2024-07-16T1600,1736A,111.5018,36.0855,临汾市,市委,,36,28,38,9,20,115,,126,126,10,12,5,5,0.8,0.8
2024-07-16T1600,3018A,111.505,36.1014,临汾市,唐尧大酒店,,36,20,31,3,18,114,,120,120,3,9,4,4,0.9,0.9
2024-07-16T1600,3668A,111.5036,36.0414,临汾市,城南,,,,38,,22,109,,128,128,11,11,6,5,1.1,0.9
2024-07-16T1600,2667A,103.2069,35.5993,临夏回族自治州,环保局,,36,36,45,14,20,81,,61,61,5,11,7,7,0.3,0.5
2024-07-16T1600,2668A,103.2417,35.6057,临夏回族自治州,建设大厦,,39,32,38,27,20,70,,59,59,8,11,10,10,0.3,0.4
2024-07-16T1600,1618A,118.3429,35.0532,临沂市,沂河小区,,22,22,28,12,19,68,,51,51,6,8,9,10,0.4,0.4
2024-07-16T1600,1619A,118.295,35.0583,临沂市,鲁南制药厂,,23,14,23,12,15,71,,51,51,4,12,8,9,0.6,0.6
2024-07-16T1600,1620A,118.2794,34.9976,临沂市,新光毛纺厂,,23,19,19,13,16,71,,56,56,6,9,6,5,0.6,0.6
2024-07-16T1600,1621A,118.3956,35.0888,临沂市,河东保险公司,,23,17,25,16,16,64,,46,46,6,11,6,6,0.4,0.5
2024-07-16T1600,3370A,118.3564,35.0215,临沂市,十里堡居委,,32,,17,22,18,65,,52,52,10,12,6,6,0.6,0.7
2024-07-16T1600,3496A,118.3604,35.1084,临沂市,南坊新区,,25,22,29,17,16,72,,52,52,10,17,6,7,0.7,0.8
2024-07-16T1600,3860A,118.3920,35.0300,临沂市,皇山花园小区,,23,19,27,16,21,65,,49,49,11,18,8,9,0.4,0.5
2024-07-16T1600,1870A,109.4856,24.3895,柳州市,柳东小学,,28,21,17,3,9,89,,70,70,5,17,7,9,0.5,0.5
2024-07-16T1600,1871A,109.4157,24.3277,柳州市,环保监测站,,26,10,23,8,10,81,,74,74,4,14,7,9,0.4,0.6
2024-07-16T1600,1872A,109.389,24.341,柳州市,河西水厂,,25,8,34,6,15,78,,73,73,3,18,7,10,0.2,0.5
2024-07-16T1600,1873A,109.4311,24.2921,柳州市,市四中,,28,25,24,11,13,89,,81,81,3,16,5,9,0.2,0.3
2024-07-16T1600,1874A,109.4006,24.3631,柳州市,市九中,,25,17,32,3,11,80,,75,75,7,17,5,6,0.4,0.5
2024-07-16T1600,1875A,109.4958,24.3134,柳州市,古亭山,,28,21,19,13,9,88,,71,71,5,18,6,14,0.5,0.5
2024-07-16T1600,3402A,109.5422,24.3996,柳州市,市二中,,26,16,22,6,9,83,,70,70,6,16,7,9,0.3,0.3
2024-07-16T1600,2307A,116.5079,31.737,六安市,监测大楼,,22,19,25,15,19,50,,58,54,8,6,8,6,0.4,0.5
2024-07-16T1600,2308A,116.4738,31.7643,六安市,皖西学院,,19,19,35,13,18,55,,62,61,8,7,4,4,0.3,0.3
2024-07-16T1600,2309A,116.4996,31.7905,六安市,朝阳厂,,20,20,28,14,18,51,,52,49,6,6,8,8,0.3,0.4
2024-07-16T1600,2310A,116.5567,31.7886,六安市,开发区,颗粒物(PM10),52,53,42,23,25,46,,49,49,5,7,5,5,0.4,0.5
2024-07-16T1600,2576A,104.8,26.5892,六盘水市,窑上,,,,,,,,,,,,,,,,
2024-07-16T1600,2577A,104.83,26.5917,六盘水市,黄土坡,,24,12,10,3,7,75,,58,58,5,5,5,4,0.0,0
2024-07-16T1600,2578A,104.89,26.5939,六盘水市,水钢,,24,14,15,3,7,76,,58,58,2,3,10,8,0.2,0.2
2024-07-16T1600,2579A,104.8475,26.5894,六盘水市,民中,,24,17,14,3,5,74,,57,57,4,5,7,6,0.2,0.2
2024-07-16T1600,2580A,104.9544,26.5506,六盘水市,双水,,24,17,13,12,5,76,,60,60,3,4,6,6,0.2,0.2
2024-07-16T1600,2335A,117.0189,25.1181,龙岩市,龙岩师专,,,,,,,,,,,,,,,,
2024-07-16T1600,2336A,117.0217,25.1033,龙岩市,龙岩市监测站,,19,6,15,3,8,59,,63,62,6,10,4,7,0.2,0.3
2024-07-16T1600,2337A,117.0258,25.0661,龙岩市,闽西职业技术学院,,19,16,22,3,10,60,,62,62,4,10,3,11,0.3,0.3
2024-07-16T1600,2338A,117.0196,25.0306,龙岩市,龙岩学院,,19,7,13,3,8,59,,60,60,4,5,5,5,0.3,0.3
2024-07-16T1600,2665A,105.0822,33.3261,陇南市,汉王镇固水子,,,,,,,,,,,,,,,,
2024-07-16T1600,2885A,104.9339,33.3826,陇南市,滨江中学,,24,24,25,12,7,61,,52,52,7,9,4,4,0.4,0.5
2024-07-16T1600,3247A,104.955,33.371,陇南市,市总工会,,23,23,17,6,5,64,,57,57,6,6,4,4,0.4,0.4
2024-07-16T1600,2487A,111.9589,27.8901,娄底市,电视发射台,,30,27,32,16,17,96,,85,85,5,8,8,9,0.4,0.6
2024-07-16T1600,2488A,111.9975,27.725,娄底市,市监测站,,43,43,31,8,18,98,,86,86,3,9,7,9,0.5,0.6
2024-07-16T1600,2489A,112.0194,27.7314,娄底市,市委党校,,28,23,30,10,17,89,,76,76,8,10,9,12,0.6,0.6
2024-07-16T1600,2490A,111.9561,27.7569,娄底市,涟钢,,35,35,41,13,20,62,,51,51,19,25,12,14,0.7,1
2024-07-16T1600,2491A,111.9892,27.7044,娄底市,市政府,,31,16,27,3,19,97,,83,83,5,11,6,5,0.3,0.3
2024-07-16T1600,1893A,105.4324,28.9634,泸州市,九狮山,,35,18,25,13,17,110,,106,106,12,13,5,5,0.4,0.5
2024-07-16T1600,1894A,105.4427,28.9063,泸州市,小市上码头,,38,26,34,11,18,120,,114,114,9,15,4,5,0.2,0.4
2024-07-16T1600,1895A,105.4241,28.8573,泸州市,兰田宪桥,,42,22,31,18,27,133,,123,123,12,15,7,7,0.2,0.4
2024-07-16T1600,1896A,105.4379,28.8833,泸州市,市环监站,,33,19,34,14,23,103,,104,104,21,14,8,9,0.5,0.7
2024-07-16T1600,3490A,105.3617,28.7703,泸州市,纳溪区环保局,臭氧1小时,69,34,38,17,24,175,,124,124,10,17,3,4,0.5,0.5
2024-07-16T1600,2183A,111.1406,37.5211,吕梁市,环保局,,35,13,18,3,5,110,,82,82,2,18,1,1,0.6,0.7
2024-07-16T1600,2185A,111.1297,37.5136,吕梁市,自来水公司,,35,7,15,3,5,109,,85,85,6,17,2,2,0.4,0.6
2024-07-16T1600,2867A,111.1283,37.51,吕梁市,马茂庄小学,,37,11,19,3,5,116,,85,85,4,21,2,2,0.5,0.7
2024-07-16T1600,1812A,112.3931,34.6516,洛阳市,市委党校,,36,33,28,25,27,110,,86,86,11,9,2,1,0.7,0.7
2024-07-16T1600,1814A,112.4657,34.6871,洛阳市,豫西宾馆,,43,43,32,26,25,114,,87,87,9,13,3,3,0.5,0.5
2024-07-16T1600,1815A,112.494,34.6886,洛阳市,河南林校,,35,,15,20,21,111,,82,82,8,10,3,3,0.6,0.6
2024-07-16T1600,1816A,112.3844,34.623,洛阳市,开发区管委会,,46,40,28,32,23,115,,93,93,8,8,2,6,0.5,0.4
2024-07-16T1600,1817A,112.4267,34.6258,洛阳市,市委新办公区,,39,28,26,26,24,122,,93,93,5,5,5,5,0.6,0.6
2024-07-16T1600,3340A,112.6005,34.6326,洛阳市,伊滨,,46,46,31,31,28,104,,77,77,4,7,4,4,0.6,0.6
2024-07-16T1600,3341A,112.4951,34.6332,洛阳市,中移产业园,,38,28,29,26,28,111,,81,81,1,5,4,3,0.8,0.8
2024-07-16T1600,3593A,112.5736,34.8993,洛阳市,吉利监测站,,36,33,26,12,18,113,,93,93,2,4,1,3,0.8,0.8
2024-07-16T1600,3635A,112.3677,34.662,洛阳市,河科大西苑校区,,32,29,22,22,15,102,,86,86,7,4,3,3,0.7,0.7
2024-07-16T1600,3636A,112.4388,34.6781,洛阳市,英才小学,,33,,21,22,24,105,,81,81,2,3,1,1,0.6,0.6
2024-07-16T1600,2399A,114.051,33.5699,漯河市,三五一五工厂,,,,16,18,15,53,,69,57,11,11,6,6,0.6,0.6
2024-07-16T1600,2400A,114.0055,33.5698,漯河市,漯河大学,,20,15,13,14,13,53,,71,63,8,6,9,8,0.8,0.7
2024-07-16T1600,2401A,114.0138,33.5828,漯河市,市水利局,,18,,14,12,11,47,,64,52,8,5,7,7,0.5,0.5
2024-07-16T1600,2402A,114.0261,33.5698,漯河市,市广电局,,26,,11,18,14,52,,69,59,4,5,3,3,0.7,0.6
2024-07-16T1600,3478A,113.9749,33.5664,漯河市,市图书馆,,23,,16,16,14,55,,74,63,6,4,7,7,0.4,0.3
2024-07-16T1600,3479A,114.0967,33.5906,漯河市,召陵区卫健委,,,,15,,16,,,58,,,5,,5,,0.6
2024-07-16T1600,1798A,118.5092,31.6837,马鞍山市,湖东路四小,,48,43,46,14,24,152,,117,117,10,15,10,8,0.7,0.9
2024-07-16T1600,1799A,118.5024,31.6449,马鞍山市,开发区,,47,35,44,19,25,149,,111,111,16,22,9,8,0.4,0.4
2024-07-16T1600,1800A,118.5228,31.7231,马鞍山市,慈湖,,45,36,41,20,24,141,,110,110,15,21,6,4,0.8,0.8
2024-07-16T1600,1802A,118.6245,31.7241,马鞍山市,濮塘,,40,31,31,20,23,126,,83,83,14,13,5,4,0.7,0.7
2024-07-16T1600,3633A,118.4918,31.6809,马鞍山市,雨山,,42,36,46,20,23,134,,105,105,9,15,7,5,1.2,1.3
2024-07-16T1600,1686A,111.0286,21.4688,茂名市,电白南海,,19,19,19,12,9,51,,56,56,4,6,6,7,0.3,0.4
2024-07-16T1600,1687A,110.9294,21.6533,茂名市,茂石化七小,,18,17,20,12,14,47,,56,56,2,4,9,9,0.3,0.4
2024-07-16T1600,1688A,110.9107,21.6687,茂名市,健康路,,17,17,15,3,6,52,,63,63,2,3,8,9,0.4,0.4
2024-07-16T1600,1689A,110.8592,21.6828,茂名市,高岭,,,46,19,7,13,51,,62,62,7,9,9,12,,0.5
2024-07-16T1600,3450A,111.01,21.5165,茂名市,电白水东,,,12,14,7,8,46,,58,58,,8,4,5,0.4,0.3
2024-07-16T1600,2539A,104.0308,30.0478,眉山市,黑龙滩水库,,25,20,27,12,20,79,,51,51,1,8,7,7,0.6,0.7
2024-07-16T1600,2540A,103.8416,30.0874,眉山市,气象局,,37,,15,14,12,118,,85,85,7,11,6,6,0.4,0.5
2024-07-16T1600,3137A,103.8578,30.0744,眉山市,市委党校,,36,19,16,3,7,114,,82,82,2,8,5,5,0.6,0.6
2024-07-16T1600,3148A,103.8291,30.0564,眉山市,区人社局,,36,25,21,9,9,114,,81,81,15,16,8,10,0.4,0.5
2024-07-16T1600,1690A,116.1231,24.3284,梅州市,梅江月梅,,17,14,16,3,7,52,,51,51,2,5,8,10,0.4,0.4
2024-07-16T1600,1691A,116.0797,24.2719,梅州市,梅县新城,,17,17,18,3,8,50,,50,50,3,8,4,4,0.3,0.4
2024-07-16T1600,1692A,116.1248,24.2654,梅州市,环境监控中心,,15,15,18,6,8,45,,45,45,6,13,4,8,0.4,0.4
2024-07-16T1600,3315A,116.1233,24.2991,梅州市,梅龙,,16,14,15,3,5,50,,49,49,4,6,8,10,0.4,0.4
2024-07-16T1600,1878A,104.7778,31.4741,绵阳市,富乐山,,30,23,20,21,15,46,,34,32,2,5,8,8,0.5,0.5
2024-07-16T1600,1879A,104.7563,31.4535,绵阳市,市人大,,27,27,23,15,14,40,,37,25,12,15,3,3,0.5,0.6
2024-07-16T1600,1880A,104.6697,31.4668,绵阳市,高新区自来水公司,,27,27,25,14,9,41,,47,31,8,14,5,6,0.3,0.4
2024-07-16T1600,1881A,104.7287,31.5075,绵阳市,三水厂,,28,28,24,16,15,44,,27,27,6,15,6,6,0.6,0.7
2024-07-16T1600,3491A,104.69,31.5322,绵阳市,西科大附属小学,,23,23,23,15,14,29,,31,22,11,13,4,5,0.5,0.6
2024-07-16T1600,3492A,104.5648,31.5343,绵阳市,安州区旅游局,,18,16,10,12,15,50,,47,35,7,8,6,6,0.2,0.3
2024-07-16T1600,1784A,129.61,44.561,牡丹江市,环保大楼,,33,33,45,23,31,91,,88,88,6,10,6,7,0.5,0.5
2024-07-16T1600,1785A,129.6115,44.5782,牡丹江市,文化广场,细颗粒物(PM2.5),59,,44,42,42,88,,84,84,8,10,6,5,0.6,0.6
2024-07-16T1600,1786A,129.5904,44.5963,牡丹江市,第一医院,,40,39,39,28,28,87,,80,80,7,12,4,4,0.5,0.5
2024-07-16T1600,1787A,129.6364,44.6075,牡丹江市,机车工厂,颗粒物(PM10),52,53,55,30,37,92,,87,87,7,16,1,6,0.7,0.8
2024-07-16T1600,1788A,129.6386,44.5462,牡丹江市,第一中学,,47,47,43,29,29,92,,87,87,8,17,5,4,0.5,0.5
2024-07-16T1600,2531A,105.0703,29.61,内江市,市监测站,,33,,13,17,18,103,,86,86,14,9,7,6,0.3,0.3
2024-07-16T1600,2532A,105.0717,29.5947,内江市,东兴区政府,,35,12,16,3,7,112,,94,94,6,9,10,10,0.5,0.5
2024-07-16T1600,2533A,105.0653,29.5817,内江市,内江二中,,35,18,17,8,9,112,,96,96,5,11,10,9,0.6,0.6
2024-07-16T1600,2534A,105.0406,29.5822,内江市,内江日报社,,38,,16,21,17,121,,94,94,8,11,11,10,0.7,0.7
2024-07-16T1600,2628A,92.0657,31.4846,那曲市,那曲监测站,,38,38,27,9,14,110,,95,95,5,10,6,6,0.4,0.5
2024-07-16T1600,3128A,92.0506,31.4797,那曲市,那曲会议中心,,35,23,28,6,14,112,,97,97,10,14,4,4,0.4,0.5
2024-07-16T1600,1290A,115.8931,28.6843,南昌市,省外办,,31,31,39,9,19,98,,86,86,6,15,8,9,0.3,0.4
2024-07-16T1600,1291A,115.8886,28.7003,南昌市,省林业公司,细颗粒物(PM2.5),62,,43,44,21,95,,87,87,15,28,6,8,0.3,0.2
2024-07-16T1600,1292A,115.8126,28.7442,南昌市,林科所,,31,12,28,3,14,97,,96,96,6,23,6,7,0.3,0.3
2024-07-16T1600,1294A,115.8518,28.687,南昌市,建工学校,,,26,43,,17,98,,90,90,2,23,8,9,0.2,0.4
2024-07-16T1600,1295A,115.8921,28.6424,南昌市,象湖,,32,,32,13,14,102,,94,94,8,13,6,7,0.6,0.7
2024-07-16T1600,1296A,115.7423,28.7996,南昌市,武术学校,,24,12,22,12,15,76,,71,71,4,7,7,6,0.5,0.5
2024-07-16T1600,1298A,115.9314,28.6842,南昌市,省站,,30,,33,14,20,94,,86,86,15,17,8,10,0.2,0.4
2024-07-16T1600,3046A,115.9084,28.6062,南昌市,机电学校,,28,24,40,9,17,88,,88,88,1,11,8,11,0.7,0.8
2024-07-16T1600,3690A,115.9721,28.7031,南昌市,外国语学校,,29,23,34,6,17,91,,96,96,4,11,5,5,0.3,0.3
2024-07-16T1600,1905A,106.056,30.8064,南充市,西山风景区,,34,13,36,13,16,106,,85,85,5,7,7,5,0.2,0.9
2024-07-16T1600,1906A,106.0789,30.8023,南充市,南充市委,,46,29,30,16,18,145,,108,108,10,12,8,7,0.3,0.3
2024-07-16T1600,1907A,106.1031,30.8217,南充市,南充炼油厂,,45,25,32,16,16,142,,102,102,10,11,7,6,0.1,0.3
2024-07-16T1600,1908A,106.1064,30.7856,南充市,高坪区监测站,,41,23,26,15,13,131,,98,98,12,14,6,6,0.1,0.2
2024-07-16T1600,1909A,106.0642,30.7636,南充市,嘉陵区环保局,,49,33,27,9,13,156,,109,109,9,14,6,4,0.3,0.3
2024-07-16T1600,1910A,106.1087,30.8388,南充市,市环境监测站,,44,22,29,13,16,138,,95,95,10,12,6,4,0.2,0.4
2024-07-16T1600,1151A,118.8086,32.1065,南京市,迈皋桥,,47,32,37,22,25,150,,102,102,10,24,5,5,0.8,0.7
2024-07-16T1600,1152A,118.7538,32.0551,南京市,草场门,,47,34,36,17,24,148,,106,106,11,21,7,5,0.7,0.7
2024-07-16T1600,1153A,118.7794,32.0745,南京市,山西路,臭氧1小时,55,36,41,19,28,164,,118,118,7,15,4,4,0.7,0.6
2024-07-16T1600,1154A,118.7752,32.0023,南京市,中华门,,35,31,31,17,22,112,,84,84,9,18,6,7,0.7,0.7
2024-07-16T1600,1155A,118.8109,32.0309,南京市,瑞金路,,48,31,40,24,26,151,,99,99,3,11,6,6,0.5,0.5
2024-07-16T1600,1156A,118.7997,32.0754,南京市,玄武湖,,41,36,40,17,20,131,,88,88,8,9,2,3,0.8,0.7
2024-07-16T1600,1157A,118.6414,32.0931,南京市,浦口,,35,30,36,16,18,112,,93,93,4,18,3,7,0.7,0.9
2024-07-16T1600,1158A,118.7356,31.9996,南京市,奥体中心,,42,34,35,19,25,132,,98,98,16,22,9,7,0.7,0.5
2024-07-16T1600,1159A,118.9125,32.1028,南京市,仙林大学城,,50,34,40,19,27,160,,109,109,10,16,8,6,0.6,0.7
2024-07-16T1600,3422A,118.8436,31.9198,南京市,江宁彩虹桥,,43,31,39,14,26,136,,100,100,2,17,3,4,0.5,0.6
2024-07-16T1600,3423A,119.0138,31.6494,南京市,溧水永阳,,33,24,30,15,23,105,,87,87,4,16,4,4,0.4,0.6
2024-07-16T1600,3424A,118.879,31.3302,南京市,高淳老职中,,25,,31,16,28,79,,81,81,6,9,8,4,0.4,0.6
2024-07-16T1600,3427A,118.8554,32.3578,南京市,六合雄州,,37,,38,9,32,116,,108,108,2,17,7,6,0.5,0.9
2024-07-16T1600,1401A,108.3103,22.7881,南宁市,二十一中,,35,35,22,14,12,81,,73,73,9,13,3,3,0.6,0.6
2024-07-16T1600,1402A,108.3141,22.8528,南宁市,北湖,,30,20,23,13,13,95,,78,78,9,15,3,5,0.6,0.7
2024-07-16T1600,1403A,108.3206,22.8225,南宁市,市监测站,,28,25,21,10,13,89,,74,74,9,15,4,5,0.4,0.5
2024-07-16T1600,1404A,108.3829,22.8037,南宁市,大自然花园,颗粒物(PM10),69,88,25,11,15,87,,72,72,7,13,4,5,0.6,0.6
2024-07-16T1600,1405A,108.4394,22.7904,南宁市,仙葫,,27,23,26,14,17,86,,77,77,13,17,1,2,0.3,0.4
2024-07-16T1600,1406A,108.2397,22.8467,南宁市,区农职院,,28,17,30,7,18,88,,73,73,7,14,2,15,0.6,0.6
2024-07-16T1600,1407A,108.3275,22.735,南宁市,英华嘉园,,42,42,24,11,13,60,,60,60,18,18,5,5,0.6,0.6
2024-07-16T1600,1408A,108.2257,22.7757,南宁市,沙井镇街道办,,28,28,34,10,17,70,,61,61,10,20,2,3,0.4,0.5
2024-07-16T1600,3401A,108.4834,22.7618,南宁市,红星社区,,27,27,24,16,14,84,,73,73,6,14,6,6,0.6,0.6
2024-07-16T1600,2331A,118.0966,26.6761,南平市,茫荡山,,,,,,,,,,,,,,,,
2024-07-16T1600,2332A,118.1681,26.6369,南平市,南平市监测站,,34,34,20,17,11,100,,80,80,6,9,4,4,0.3,0.4
2024-07-16T1600,2333A,118.1825,26.6489,南平市,南平铝业有限公司,,28,20,22,15,11,87,,72,72,4,7,5,6,0.6,0.6
2024-07-16T1600,2334A,118.1756,26.6272,南平市,南平七中,,33,28,20,18,11,105,,82,82,4,5,5,5,0.5,0.6
2024-07-16T1600,1168A,120.9098,31.9663,南通市,狼山街道,臭氧1小时,90,32,45,19,33,192,,154,154,6,22,6,6,0.4,0.7
2024-07-16T1600,1169A,120.86,32.0005,南通市,虹桥,臭氧1小时,92,40,52,21,38,193,,137,137,11,29,6,5,0.5,0.8
2024-07-16T1600,1170A,120.87,32.02,南通市,城中,臭氧1小时,101,46,63,19,35,201,,152,152,10,28,6,7,0.4,0.7
2024-07-16T1600,1171A,120.94,31.93,南通市,星湖花园,臭氧1小时,87,35,42,16,27,189,,139,139,11,34,5,5,0.5,0.7
2024-07-16T1600,1172A,120.81,32.0417,南通市,紫琅学院,臭氧1小时,52,40,61,18,36,161,,136,136,46,47,7,8,0.5,0.7
2024-07-16T1600,3291A,121.067,32.062,南通市,通州监测站,,,41,58,22,33,180,,147,147,,26,4,5,0.7,1
2024-07-16T1600,3432A,120.9348,31.9883,南通市,环境教育馆,臭氧1小时,95,41,59,22,37,196,,148,148,16,36,8,9,0.4,0.6
2024-07-16T1600,2404A,112.5224,33.0122,南阳市,瓦房庄,,42,,59,29,22,81,,51,51,13,17,3,3,0.6,0.7
2024-07-16T1600,2405A,112.5003,32.9735,南阳市,汉画馆,,45,43,22,31,14,72,,42,42,13,16,3,3,0.6,0.7
2024-07-16T1600,2406A,112.5573,33.027,南阳市,气象站,,45,40,14,31,13,77,,53,53,12,13,3,3,0.5,0.5
2024-07-16T1600,2407A,112.5481,32.9689,南阳市,理工学院,细颗粒物(PM2.5),52,46,24,36,16,78,,51,51,12,16,2,2,0.4,0.5
2024-07-16T1600,4008A,112.5234,32.9922,南阳市,卧龙区政府,,45,43,21,31,20,82,,49,49,11,19,4,4,0.6,0.7
2024-07-16T1600,1234A,121.8358,29.911,宁波市,区环保大楼,,35,35,16,6,8,58,,56,56,12,9,6,6,0.6,0.6
2024-07-16T1600,1235A,121.56,29.82,宁波市,万里学院,,30,30,22,19,7,82,,69,69,6,12,7,6,0.4,0.5
2024-07-16T1600,1236A,121.713,29.9572,宁波市,龙赛医院,,26,15,15,3,5,83,,63,63,4,9,6,6,0.2,0.2
2024-07-16T1600,1239A,121.633,29.7733,宁波市,钱湖水厂,,26,13,11,7,5,82,,62,62,4,6,6,6,0.6,0.5
2024-07-16T1600,1240A,121.5856,29.8635,宁波市,太古小学,,27,19,17,3,6,85,,68,68,5,9,6,7,0.5,0.6
2024-07-16T1600,1241A,121.524,29.8674,宁波市,市环境监测中心,,28,17,17,7,6,89,,70,70,7,10,4,3,0.5,0.5
2024-07-16T1600,2871A,121.6147,29.9017,宁波市,万里国际学校,,28,12,14,9,8,88,,69,69,6,9,5,5,0.2,0.2
2024-07-16T1600,3710A,121.5594,29.8975,宁波市,白沙活动中心,,28,18,19,3,5,89,,71,71,5,9,5,9,0.2,0.2
2024-07-16T1600,2339A,119.5001,26.6946,宁德市,金涵水库,,,,,,,,,,,,,,,,
2024-07-16T1600,2341A,119.5388,26.6612,宁德市,宁德市监测站,,31,29,18,12,9,97,,72,72,7,8,6,7,0.3,0.4
2024-07-16T1600,3209A,119.5231,26.6562,宁德市,宁德一中,,30,25,17,3,7,94,,74,74,8,6,6,7,0.5,0.6
2024-07-16T1600,2618A,98.8601,25.8567,怒江傈僳族自治州,州监测站,,20,20,20,8,11,59,,40,40,8,7,11,11,0.5,0.5
2024-07-16T1600,2619A,98.8546,25.8417,怒江傈僳族自治州,泸水一中,,,20,16,,9,59,,32,32,9,12,5,5,0.4,0.4
2024-07-16T1600,1888A,101.6891,26.571,攀枝花市,弄弄坪,,34,34,64,12,18,74,,47,47,18,28,16,11,0.6,1.7
2024-07-16T1600,1889A,101.5769,26.5928,攀枝花市,河门口,,28,28,27,15,11,82,,60,60,19,17,29,9,1.4,0.9
2024-07-16T1600,1890A,101.7169,26.585,攀枝花市,炳草岗,,31,31,49,14,17,67,,50,50,18,26,16,17,0.7,1.5
2024-07-16T1600,1891A,101.7369,26.5008,攀枝花市,仁和,,22,10,24,6,13,69,,51,51,10,17,7,8,0.3,0.6
2024-07-16T1600,2835A,101.7227,26.567,攀枝花市,四十中小,,31,31,31,15,16,75,,61,61,14,25,10,19,0.4,1.5
2024-07-16T1600,1604A,122.0303,41.1489,盘锦市,开发区,,,,27,1,12,79,,93,93,8,10,4,4,0.4,0.2
2024-07-16T1600,1605A,122.0485,41.0883,盘锦市,兴隆台,,26,6,28,3,15,82,,93,93,13,13,2,2,0.3,0.4
2024-07-16T1600,1606A,121.8297,41.1028,盘锦市,新生街道,,32,12,20,6,12,101,,96,96,5,7,2,2,0.3,0.3
2024-07-16T1600,1832A,113.3257,33.742,平顶山市,新华旅馆,,20,,12,14,18,50,,54,46,16,10,2,2,0.6,0.6
2024-07-16T1600,1833A,113.2919,33.737,平顶山市,规划设计院,,15,9,9,8,8,45,,51,44,17,12,4,4,0.6,0.5
2024-07-16T1600,1834A,113.182,33.774,平顶山市,平顶山工学院,,17,17,12,9,5,22,,38,34,6,8,6,5,0.8,0.7
2024-07-16T1600,3204A,113.3025,33.73,平顶山市,规划局,,15,,3,8,8,47,,48,42,17,12,1,1,0.6,0.6
2024-07-16T1600,3594A,112.8867,33.9116,平顶山市,石龙区,,44,44,44,15,24,52,,43,43,7,12,7,6,0.4,0.5
2024-07-16T1600,2656A,106.6692,35.5461,平凉市,聚贤嘉苑,,27,27,27,10,15,70,,47,47,6,12,8,9,0.5,0.6
2024-07-16T1600,2657A,106.7021,35.5307,平凉市,博物馆,,22,22,28,7,12,70,,52,51,21,24,3,4,0.7,0.7
2024-07-16T1600,2347A,114.0997,27.5002,萍乡市,武功山,,20,6,18,3,6,61,,54,54,3,5,14,12,0.3,0.3
2024-07-16T1600,2348A,113.8385,27.6434,萍乡市,中医院,,24,8,24,3,13,75,,60,60,2,9,7,4,0.6,0.7
2024-07-16T1600,2349A,113.8493,27.6253,萍乡市,市政府车库,,23,12,18,12,14,71,,62,62,2,8,11,10,0.4,0.5
2024-07-16T1600,2350A,113.8676,27.6435,萍乡市,市环保局,,22,18,30,13,19,70,,62,62,2,8,8,8,0.3,0.5
2024-07-16T1600,2351A,113.866,27.6198,萍乡市,安源区政府,,21,12,21,3,7,66,,56,56,2,11,8,10,0.3,0.4
2024-07-16T1600,2319A,119.0141,25.4325,莆田市,荔城区仓后路,臭氧1小时,64,46,29,21,13,171,,126,126,11,9,7,6,0.5,0.4
2024-07-16T1600,2320A,119.0015,25.4553,莆田市,莆田市监测站,臭氧1小时,59,43,25,16,12,167,,120,120,8,4,7,6,1.1,0.9
2024-07-16T1600,2321A,119.1119,25.4561,莆田市,涵江区六中,,49,38,26,18,12,156,,117,117,7,8,7,5,0.7,0.6
2024-07-16T1600,2322A,119.1013,25.3215,莆田市,秀屿区政府,,44,32,24,13,12,139,,110,110,1,4,11,11,0.7,0.8
2024-07-16T1600,2323A,118.981,25.4792,莆田市,东圳水库,,,,,,,,,,,,,,,,
2024-07-16T1600,2392A,115.0312,35.7636,濮阳市,环保局,,38,38,28,26,24,89,,70,70,7,8,3,4,0.7,0.6
2024-07-16T1600,2394A,115.0574,35.7609,濮阳市,油田运输公司,,36,28,33,25,24,105,,71,71,8,9,4,4,0.8,0.8
2024-07-16T1600,2395A,115.0866,35.7754,濮阳市,油田物探公司,细颗粒物(PM2.5),58,,27,41,35,105,,73,73,2,5,4,4,0.5,0.5
2024-07-16T1600,3021A,115,35.7668,濮阳市,濮水河管理处,,45,,28,31,29,76,,51,51,6,7,4,4,0.7,0.7
2024-07-16T1600,2601A,100.98,22.7633,普洱市,市环保局,,,,17,,13,44,,46,46,,7,5,5,0.4,0.5
2024-07-16T1600,2602A,100.9817,22.8322,普洱市,普洱第二中学,,15,11,13,10,10,44,,36,36,6,8,2,3,0.6,0.7
2024-07-16T1600,2262A,131.0518,45.8751,七台河市,新一中,颗粒物(PM10),61,71,47,42,41,155,,133,133,11,11,10,11,0.6,0.8
2024-07-16T1600,3345A,131.0577,45.7879,七台河市,中波台,,42,35,27,29,19,122,,102,102,15,14,12,10,0.2,0.3
2024-07-16T1600,3637A,131.0176,45.7761,七台河市,人民广场,颗粒物(PM10),59,67,50,38,29,124,,99,99,11,12,13,12,0.5,0.5
2024-07-16T1600,3684A,130.8781,45.8222,七台河市,新建矿广场,颗粒物(PM10),70,90,60,33,32,126,,122,122,14,23,8,9,0.3,0.3
2024-07-16T1600,1779A,123.9305,47.3636,齐齐哈尔市,安居小区,颗粒物(PM10),58,65,58,15,34,110,,109,109,12,11,6,6,0.9,0.8
2024-07-16T1600,1780A,123.9488,47.3386,齐齐哈尔市,中心广场,颗粒物(PM10),58,65,65,17,27,109,,109,109,10,11,11,10,0.4,0.5
2024-07-16T1600,1781A,123.9483,47.3227,齐齐哈尔市,农牧车辆厂,颗粒物(PM10),52,53,60,18,25,114,,113,113,5,7,8,8,0.2,0.3
2024-07-16T1600,1783A,123.945,47.2988,齐齐哈尔市,市环境监测站,颗粒物(PM10),55,60,53,19,35,114,,113,113,4,6,5,6,0.3,0.4
2024-07-16T1600,3662A,123.6333,47.2075,齐齐哈尔市,富区青少年活动中心,,,,53,,23,125,,111,,6,7,5,4,0.5,0.6
2024-07-16T1600,2591A,107.9783,26.5747,黔东南苗族侗族自治州,市环境监测站,,22,16,12,11,10,68,,66,66,7,6,3,3,0.4,0.4
2024-07-16T1600,2881A,107.8908,26.5311,黔东南苗族侗族自治州,凯里学院,,21,,7,9,8,66,,62,62,4,5,4,4,0.5,0.4
2024-07-16T1600,2593A,107.5228,26.2403,黔南布依族苗族自治州,小围寨,,20,7,6,3,1,64,,59,59,2,2,4,5,0.4,0.4
2024-07-16T1600,3538A,107.5175,26.2978,黔南布依族苗族自治州,沙坝,,21,17,7,3,3,65,,59,59,2,4,3,4,0.4,0.4
2024-07-16T1600,2589A,104.9022,25.0925,黔西南布依族苗族自治州,场坝街,,15,13,12,8,7,48,,44,44,3,3,3,4,0.2,0.2
2024-07-16T1600,2590A,104.8811,25.0992,黔西南布依族苗族自治州,坪东大道,,15,10,14,9,7,45,,42,42,1,2,4,4,0.1,0.2
2024-07-16T1600,2502A,108.6236,21.9667,钦州市,市环保站,,21,14,26,3,10,65,,56,56,9,13,6,7,0.5,0.8
2024-07-16T1600,2503A,108.6549,21.9481,钦州市,沙埠小学,,32,32,27,14,13,71,,57,57,5,12,5,6,0.6,0.6
2024-07-16T1600,2504A,108.5989,21.7431,钦州市,港区一小,,29,29,38,15,16,90,,59,59,9,15,10,9,0.5,0.4
2024-07-16T1600,3404A,108.5959,21.9633,钦州市,北职校,,21,16,29,8,14,65,,57,57,6,11,8,10,0.5,0.7
2024-07-16T1600,1042A,119.5134,39.8207,秦皇岛市,北戴河环保局,颗粒物(PM10),51,52,37,12,10,124,,94,94,7,11,5,4,0.4,0.3
2024-07-16T1600,1043A,119.7493,40.0116,秦皇岛市,第一关,,44,44,39,24,21,116,,86,86,2,5,3,3,0.3,0.3
2024-07-16T1600,1044A,119.5897,39.9499,秦皇岛市,监测站,颗粒物(PM10),52,54,45,25,21,120,,90,90,12,12,4,4,0.4,0.4
2024-07-16T1600,1046A,119.5251,39.9041,秦皇岛市,建设大厦,,42,42,34,17,11,122,,95,95,4,3,1,3,0.2,0.2
2024-07-16T1600,3132A,119.610547,39.943889,秦皇岛市,文明里,,50,45,36,35,22,120,,87,87,5,9,2,2,0.3,0.2
2024-07-16T1600,1307A,120.6659,36.2403,青岛市,仰口,,22,,5,7,9,68,,67,67,7,4,3,3,0.1,0.2
2024-07-16T1600,1310A,120.4134,36.0658,青岛市,市南区东部子站,,21,6,6,3,1,66,,68,63,16,12,6,6,0.4,0.4
2024-07-16T1600,1311A,120.3664,36.1032,青岛市,四方区子站,,25,7,7,7,6,77,,79,62,15,14,9,9,0.6,0.5
2024-07-16T1600,1312A,120.2994,36.054,青岛市,市南区西部子站,,18,9,8,3,3,57,,64,53,31,21,7,7,0.5,0.5
2024-07-16T1600,1313A,120.4581,36.0858,青岛市,崂山区子站,,19,6,6,3,1,60,,70,62,24,16,7,7,0.5,0.4
2024-07-16T1600,1314A,120.1983,35.9608,青岛市,黄岛区子站,,29,9,11,7,8,91,,80,70,15,14,7,7,0.6,0.5
2024-07-16T1600,1315A,120.3999,36.3083,青岛市,城阳区子站,,24,7,8,7,8,76,,75,53,16,18,6,6,0.7,0.6
2024-07-16T1600,1966A,120.0405,35.8735,青岛市,黄岛区4号,,29,14,8,9,5,90,,79,77,16,10,7,7,0.6,0.5
2024-07-16T1600,3362A,120.5014,36.4034,青岛市,即墨2号,,28,6,9,3,5,88,,80,72,8,10,4,4,0.4,0.4
2024-07-16T1600,3642A,120.3503,36.0736,青岛市,市北区南部,,27,6,11,3,8,85,,76,68,12,13,4,4,0.5,0.5
2024-07-16T1600,3643A,120.3948,36.1805,青岛市,李沧区北部,,25,,8,12,8,77,,75,54,20,20,9,9,0.4,0.4
2024-07-16T1600,1702A,113.0426,23.691,清远市,环保大楼,,26,7,10,3,7,82,,62,62,6,7,6,6,0.6,0.6
2024-07-16T1600,1703A,113.0208,23.7106,清远市,凤城街办,,27,13,13,10,6,85,,61,61,4,6,4,4,0.3,0.3
2024-07-16T1600,3025A,113.0477,23.6344,清远市,技师学院,,32,14,19,6,8,102,,70,70,4,13,4,7,0.4,0.4
2024-07-16T1600,3318A,112.9903,23.7403,清远市,清新太和,,27,11,14,7,6,84,,61,61,1,3,8,6,0.4,0.4
2024-07-16T1600,3455A,113.076,23.7198,清远市,清城东城,,27,16,10,10,5,84,,58,58,3,4,4,4,0.4,0.4
2024-07-16T1600,2661A,107.6325,35.7357,庆阳市,庆阳五中,,15,10,17,3,10,48,,56,47,9,9,3,3,0.6,0.6
2024-07-16T1600,2662A,107.6364,35.7067,庆阳市,市环保局,,16,10,18,3,7,50,,56,49,8,7,4,3,0.6,0.5
2024-07-16T1600,1916A,103.7897,25.5035,曲靖市,环境监测站,,19,14,15,3,7,58,,47,47,3,8,2,3,0.3,0.4
2024-07-16T1600,1917A,103.8,25.5364,曲靖市,烟厂办公区,,20,,14,3,8,61,,50,50,3,9,4,4,0.1,0.2
2024-07-16T1600,3376A,103.7947,25.462,曲靖市,南苑二区,,20,8,16,3,8,64,,50,50,4,7,4,5,0.4,0.4
2024-07-16T1600,3377A,103.7444,25.5261,曲靖市,曲靖师范学院,,20,,14,3,8,61,,50,50,4,10,4,6,0.2,0.3
2024-07-16T1600,1264A,118.8692,28.9398,衢州市,环保大楼,,42,26,38,15,23,134,,149,149,8,17,3,4,0.6,0.6
2024-07-16T1600,1265A,118.8709,28.9666,衢州市,实验学校,,43,24,40,14,25,136,,118,118,5,16,4,5,0.6,0.6
2024-07-16T1600,1266A,118.8621,28.9808,衢州市,衢州学院,,43,31,38,15,22,135,,122,122,8,17,3,3,0.5,0.6
2024-07-16T1600,1611A,118.5819,24.9117,泉州市,涂山街,颗粒物(PM10),51,52,37,15,14,111,,102,102,8,14,4,8,0.5,0.6
2024-07-16T1600,1612A,118.5972,24.8978,泉州市,津头埔,,39,39,33,10,13,111,,102,102,11,17,3,6,0.3,0.4
2024-07-16T1600,1613A,118.6663,24.9424,泉州市,万安,,39,39,35,11,14,105,,102,102,6,14,2,3,0.4,0.5
2024-07-16T1600,1614A,118.6117,24.9604,泉州市,清源山,,,,,,,,,,,,,,,,
2024-07-16T1600,3529A,118.6333,24.9264,泉州市,城华南路,,36,36,27,12,12,109,,100,100,10,14,3,4,0.5,0.5
2024-07-16T1600,2626A,88.8876,29.2718,日喀则市,日喀则监测站,,36,17,44,3,9,114,,100,100,4,5,4,5,0.2,0.2
2024-07-16T1600,3726A,88.8781,29.2426,日喀则市,林业技术推广中心,,33,9,28,3,9,105,,96,96,5,6,5,7,0.4,0.6
2024-07-16T1600,1659A,119.471,35.4209,日照市,监测站,,23,,16,16,14,61,,52,46,20,22,9,9,0.9,0.5
2024-07-16T1600,1660A,119.523,35.4216,日照市,市政府广场,,26,24,16,18,10,59,,57,48,15,13,8,8,1.0,0.5
2024-07-16T1600,1661A,119.5587,35.4044,日照市,港务局,,31,31,20,19,8,86,,75,75,15,10,8,9,0.9,0.6
2024-07-16T1600,3507A,119.5328,35.4625,日照市,职业技术学院,,35,27,16,24,12,82,,65,65,15,12,8,8,0.9,0.6
2024-07-16T1600,3604A,119.3266,35.1044,日照市,岚山环保分局,,25,,24,15,11,77,,51,51,13,19,7,8,0.7,0.6
2024-07-16T1600,1835A,111.1922,34.7752,三门峡市,市政府,,25,25,13,10,7,55,,58,53,13,6,5,5,0.8,0.7
2024-07-16T1600,1836A,111.1587,34.7942,三门峡市,开发区,,23,23,19,11,11,57,,59,52,10,12,8,8,0.7,0.7
2024-07-16T1600,1838A,111.143,34.7955,三门峡市,风景区,,,,,,,,,,,,,,,,
2024-07-16T1600,3039A,111.1911,34.7829,三门峡市,三门峡市第一小学,,27,27,16,11,7,55,,62,54,13,8,8,7,0.7,0.6
2024-07-16T1600,3598A,111.1,34.7167,三门峡市,富达温泉假日酒店,,40,,23,28,16,54,,47,47,16,17,9,8,0.8,0.7
2024-07-16T1600,2324A,117.6211,26.2625,三明市,三钢,,26,,35,14,26,81,,105,105,12,18,5,11,0.4,0.9
2024-07-16T1600,2325A,117.635,26.2714,三明市,三明二中,,26,,29,18,19,81,,107,107,13,15,2,6,0.7,0.9
2024-07-16T1600,2326A,117.6028,26.2378,三明市,三元区政府,,25,19,35,12,21,79,,101,101,23,20,22,8,1.5,0.7
2024-07-16T1600,2327A,117.7275,26.3108,三明市,洋溪,,,,,,,,,,,,,,,,
2024-07-16T1600,1876A,109.5078,18.2489,三亚市,河东子站,,11,6,13,3,5,35,,40,38,4,4,2,2,0.4,0.5
2024-07-16T1600,1877A,109.4964,18.2681,三亚市,河西子站,,12,10,10,6,6,36,,37,37,4,3,3,3,0.2,0.4
2024-07-16T1600,3540A,109.7348,18.3443,三亚市,君悦子站,,16,16,22,3,5,45,,42,40,3,4,2,2,0.5,0.4
2024-07-16T1600,2624A,91.7608,29.2313,山南市,山南监测站,,30,14,13,3,6,96,,90,90,8,4,5,6,0.3,0.3
2024-07-16T1600,2625A,91.7706,29.2436,山南市,山南人民医院,,30,11,17,6,8,94,,86,86,7,8,6,6,0.2,0.2
2024-07-16T1600,1674A,116.6794,23.3667,汕头市,金平子站,,16,13,14,3,4,51,,46,46,3,5,6,6,0.6,0.7
2024-07-16T1600,1675A,116.7244,23.3633,汕头市,龙湖子站,,25,25,15,8,5,48,,40,40,4,5,5,5,0.6,0.6
2024-07-16T1600,1676A,116.7258,23.2775,汕头市,濠江子站,,20,20,17,3,10,51,,44,44,6,8,5,5,0.5,0.6
2024-07-16T1600,1677A,116.7519,23.4714,汕头市,澄海子站,,23,23,17,3,8,43,,40,38,6,7,4,4,0.7,0.7
2024-07-16T1600,1678A,116.6092,23.2539,汕头市,潮阳子站,,,20,18,,10,49,,43,43,2,4,4,4,0.6,0.6
2024-07-16T1600,3444A,116.454,23.2684,汕头市,潮南峡山,,,,15,,3,,,41,,,3,,4,,0.7
2024-07-16T1600,3624A,116.4069,23.2533,汕头市,潮南子站,,23,23,19,8,6,35,,40,40,12,5,6,7,0.6,0.6
2024-07-16T1600,1693A,115.3653,22.775,汕尾市,市环保局,,11,8,12,7,4,35,,36,36,9,8,6,6,0.6,0.5
2024-07-16T1600,1694A,115.3706,22.7898,汕尾市,市政府,,26,,10,18,6,32,,33,33,7,5,8,7,0.6,0.5
2024-07-16T1600,1695A,115.3622,22.7925,汕尾市,新城中学,,18,,12,12,6,33,,33,33,6,5,6,5,0.4,0.4
2024-07-16T1600,2645A,109.9154,33.8715,商洛市,监测站,,13,,11,9,9,40,,33,33,18,17,12,9,1.2,1
2024-07-16T1600,3045A,109.9643,33.8471,商洛市,商州区中学,,26,26,22,10,8,41,,29,29,14,20,2,3,1.2,0.8
2024-07-16T1600,2408A,115.6702,34.4285,商丘市,环境监测站,,17,,18,3,11,53,,68,61,2,4,8,8,0.2,0.3
2024-07-16T1600,2409A,115.6458,34.4045,商丘市,粮食局,,18,,20,3,8,56,,70,64,1,6,5,5,0,0.3
2024-07-16T1600,2410A,115.6293,34.3948,商丘市,睢阳区环保局,,16,8,16,7,11,50,,68,61,2,4,4,5,0.2,0.3
2024-07-16T1600,3171A,115.6071,34.4465,商丘市,梁园区档案局,,,,13,2,6,53,,67,61,1,5,6,6,0.3,0.4
2024-07-16T1600,1141A,121.4,31.238,上海市,普陀,,41,23,27,16,15,130,,94,94,11,22,5,10,0.4,0.5
2024-07-16T1600,1142A,121.478,31.2036,上海市,十五厂,,40,22,26,15,19,127,,92,92,12,25,14,13,0.3,0.4
2024-07-16T1600,1143A,121.467,31.3008,上海市,虹口,,42,26,28,15,19,132,,95,95,13,25,9,9,0.5,0.5
2024-07-16T1600,1144A,121.412,31.1654,上海市,徐汇上师大,,44,21,25,20,19,138,,100,100,14,26,6,6,0.5,0.6
2024-07-16T1600,1145A,121.536,31.2659,上海市,杨浦四漂,,46,42,39,18,21,147,,109,109,34,32,8,9,0.6,0.7
2024-07-16T1600,1147A,121.425,31.2261,上海市,静安监测站,,41,22,24,12,19,130,,96,96,13,24,7,12,0.5,0.5
2024-07-16T1600,1148A,121.703,31.1907,上海市,浦东川沙,,38,22,24,13,19,120,,85,85,13,22,6,6,0.4,0.5
2024-07-16T1600,1149A,121.533,31.2284,上海市,浦东新区监测站,,36,17,21,16,17,113,,81,81,13,24,5,6,0.3,0.4
2024-07-16T1600,1150A,121.577,31.2071,上海市,浦东张江,,33,19,21,12,18,104,,73,73,12,22,5,5,0.6,0.7
2024-07-16T1600,3265A,121.4316,31.3322,上海市,宝山庙行,,43,25,26,14,19,136,,99,99,11,23,9,12,0.5,0.6
2024-07-16T1600,3266A,121.8791,31.4662,上海市,崇明上实东滩,,38,15,18,3,8,121,,88,88,8,24,8,9,0.5,0.6
2024-07-16T1600,3268A,121.3162,31.2838,上海市,嘉定南翔,,,24,26,,39,120,,88,88,19,34,6,7,0.4,0.5
2024-07-16T1600,3269A,121.3359,30.7456,上海市,金山新城,,36,14,20,10,14,114,,91,91,6,13,7,8,0.4,0.5
2024-07-16T1600,3270A,121.4996,31.0739,上海市,闵行浦江,,35,15,18,13,17,109,,80,80,8,20,6,6,0.3,0.4
2024-07-16T1600,3271A,121.2886,31.1663,上海市,青浦徐泾,,41,20,25,13,21,129,,93,93,14,24,6,6,0.4,0.5
2024-07-16T1600,3272A,121.2186,31.0378,上海市,松江图书馆,,39,18,26,16,19,124,,89,89,10,20,7,5,0.5,0.6
2024-07-16T1600,3273A,121.3902,31.2059,上海市,长宁仙霞,,41,27,27,12,19,129,,92,92,16,27,7,11,0.5,0.6
2024-07-16T1600,3274A,121.7965,31.0507,上海市,浦东惠南,,35,17,16,17,16,109,,82,82,10,23,7,7,0.5,0.6
2024-07-16T1600,3544A,121.4891,30.925,上海市,奉贤南桥新城,,34,11,8,10,18,108,,77,77,14,23,6,5,0.5,0.5
2024-07-16T1600,2381A,118.005,28.4572,上饶市,百草园,细颗粒物(PM2.5),82,,29,60,18,98,,96,96,3,7,6,4,0.5,0.7
2024-07-16T1600,2382A,117.9756,28.4436,上饶市,市监测站,,36,36,36,21,21,111,,104,104,7,12,3,5,0.5,0.5
2024-07-16T1600,2383A,117.9519,28.4628,上饶市,凤凰光学,,37,35,36,18,19,117,,108,108,6,12,5,7,0.8,0.8
2024-07-16T1600,3413A,118.1953,28.4401,上饶市,广丰区教体局,,25,14,30,9,13,79,,72,72,1,4,1,11,0.5,0.6
2024-07-16T1600,3685A,117.897,28.4315,上饶市,双创科技城,,37,37,37,16,20,104,,100,100,4,10,5,6,0.7,0.8
2024-07-16T1600,1669A,113.5824,24.7733,韶关市,市八中,,18,18,15,3,6,47,,59,59,1,7,8,15,0.5,1
2024-07-16T1600,1671A,113.5917,24.7972,韶关市,园林处,,15,8,16,3,8,46,,60,60,2,8,9,12,0.5,0.6
2024-07-16T1600,1672A,113.6735,24.7791,韶关市,韶关学院,,14,12,9,3,6,44,,44,44,5,7,8,12,0.3,0.3
2024-07-16T1600,1673A,113.5971,24.6863,韶关市,曲江监测站,,21,21,19,12,8,63,,60,60,5,10,9,12,0.5,0.5
2024-07-16T1600,3622A,113.5556,24.8082,韶关市,碧湖山庄,,19,19,17,7,10,60,,68,68,4,7,10,14,0.4,0.4
2024-07-16T1600,2462A,111.5239,27.3033,邵阳市,市水土所,,,,75,,42,,,88,,,,,6,,0.6
2024-07-16T1600,2463A,111.4733,27.2317,邵阳市,市一中,,,38,35,3,20,99,,98,98,8,13,8,11,,0.5
2024-07-16T1600,2464A,111.5283,27.2442,邵阳市,市化工厂,,31,12,26,3,16,99,,92,92,4,11,12,12,0.5,0.6
2024-07-16T1600,2465A,111.4503,27.2537,邵阳市,市罐头厂,,31,27,32,16,20,98,,95,95,3,10,8,8,0.2,0.3
2024-07-16T1600,2466A,111.4328,27.2272,邵阳市,市环保局,,31,27,31,9,20,97,,98,98,3,9,6,18,0.3,0.3
2024-07-16T1600,1247A,120.6053,29.9928,绍兴市,城东开发委,,30,12,17,6,8,96,,73,73,4,6,6,5,0.4,0.5
2024-07-16T1600,2921A,120.5483,30.0003,绍兴市,树下王站,,27,,19,12,15,86,,68,68,1,9,4,3,0.4,0.5
