timepoint,stationcode,longitude,latitude,area,positionname,primarypollutant,aqi,pm10,pm10_24h,pm2_5,pm2_5_24h,o3,o3_24h,o3_8h,o3_8h_24h,no2,no2_24h,so2,so2_24h,co,co_24h
2023-05-03T04:00:00,1001A,116.3621,39.8784,北京市,万寿西宫,颗粒物(PM10),85,120,93,52,36,170,32,67,51,74,24,1,3,0.7,0.7
2023-05-03T04:00:00,1002A,116.2202,40.2915,北京市,定陵,颗粒物(PM10),66,81,90,28,33,202,79,95,86,11,13,3,3,0.5,0.6
2023-05-03T04:00:00,1003A,116.4174,39.9289,北京市,东四,颗粒物(PM10),88,125,98,48,33,200,52,77,56,48,31,2,4,0.5,0.5
2023-05-03T04:00:00,1004A,116.4072,39.8863,北京市,天坛,颗粒物(PM10),87,123,90,60,37,191,29,44,32,76,29,1,3,0.7,0.5
2023-05-03T04:00:00,1005A,116.462,39.9365,北京市,农展馆,颗粒物(PM10),83,116,102,48,38,186,8,52,24,94,38,1,3,0.6,0.5
2023-05-03T04:00:00,1006A,116.3392,39.9295,北京市,官园,颗粒物(PM10),80,110,96,50,39,175,27,80,56,64,27,3,4,0.6,0.7
2023-05-03T04:00:00,1007A,116.2878,39.9611,北京市,海淀万柳,颗粒物(PM10),71,92,96,35,36,151,11,36,30,72,36,1,3,0.6,0.6
2023-05-03T04:00:00,1008A,116.6636,40.135,北京市,顺义新城,颗粒物(PM10),81,111,108,47,41,196,83,96,90,25,20,3,5,0.7,0.6
2023-05-03T04:00:00,1009A,116.6275,40.3275,北京市,怀柔镇,颗粒物(PM10),68,85,92,34,36,203,94,112,101,15,21,1,4,0.4,0.5
2023-05-03T04:00:00,1010A,116.2296,40.217,北京市,昌平镇,颗粒物(PM10),72,93,99,40,40,203,86,114,98,13,12,2,4,0.5,0.6
2023-05-03T04:00:00,1011A,116.3966,39.9821,北京市,奥体中心,颗粒物(PM10),81,111,99,43,37,174,18,57,32,85,36,3,3,0.6,0.6
2023-05-03T04:00:00,1012A,116.184,39.9136,北京市,古城,颗粒物(PM10),85,119,116,41,43,184,21,73,52,64,32,3,3,0.7,0.6
2023-05-03T04:00:00,1015A,117.1444,39.1661,天津市,勤俭道,颗粒物(PM10),87,124,116,48,44,189,71,53,53,34,27,11,10,0.6,0.5
2023-05-03T04:00:00,1017A,117.237,39.1082,天津市,大直沽八号路,颗粒物(PM10),83,115,113,44,39,168,64,71,69,33,27,12,11,0.6,0.5
2023-05-03T04:00:00,1018A,117.202,39.0927,天津市,前进道,颗粒物(PM10),77,103,92,44,36,172,66,76,72,40,28,9,7,0.4,0.3
2023-05-03T04:00:00,1019A,117.1837,39.2133,天津市,淮河道,颗粒物(PM10),92,134,112,55,44,184,57,51,51,48,30,10,10,0.8,0.6
2023-05-03T04:00:00,1021A,117.307,39.0877,天津市,跃进路,颗粒物(PM10),84,118,106,43,36,177,48,86,70,48,27,10,9,0.8,0.6
2023-05-03T04:00:00,1023A,117.707,39.0343,天津市,第四大街,颗粒物(PM10),86,121,108,44,34,162,27,99,67,81,46,6,14,0.8,0.7
2023-05-03T04:00:00,1024A,117.457,38.8394,天津市,永明路,颗粒物(PM10),72,93,88,38,29,151,48,75,64,45,28,10,10,0.8,0.5
2023-05-03T04:00:00,1026A,117.764,39.1587,天津市,汉北路,颗粒物(PM10),58,66,72,29,32,181,74,78,70,25,37,8,11,0.5,0.6
2023-05-03T04:00:00,1027A,117.157,38.9194,天津市,团泊洼,颗粒物(PM10),75,99,85,43,30,168,48,45,45,41,33,5,5,0.7,0.5
2023-05-03T04:00:00,1029A,114.4422,38.0444,石家庄市,职工医院,颗粒物(PM10),74,98,90,44,38,180,5,86,50,78,25,8,11,0.6,0.6
2023-05-03T04:00:00,1030A,114.6063,38.0266,石家庄市,高新区,颗粒物(PM10),76,102,89,52,44,171,40,78,60,38,20,6,10,0.8,0.8
2023-05-03T04:00:00,1031A,114.4898,38.1328,石家庄市,西北水源,细颗粒物(PM2.5),75,82,106,55,44,180,27,72,56,52,28,6,9,0.8,0.6
2023-05-03T04:00:00,1032A,114.4586,38.0058,石家庄市,西南高教,颗粒物(PM10),71,92,95,43,48,185,4,82,48,81,28,7,8,0.7,0.7
2023-05-03T04:00:00,1033A,114.5331,38.0178,石家庄市,世纪公园,颗粒物(PM10),68,85,81,42,47,168,51,66,56,27,19,6,9,0.7,0.8
2023-05-03T04:00:00,1034A,114.509,38.0457,石家庄市,人民会堂,颗粒物(PM10),81,112,97,41,30,177,40,84,66,48,22,6,9,0.6,0.6
2023-05-03T04:00:00,1035A,114.3524,37.8911,石家庄市,封龙山,颗粒物(PM10),67,83,99,38,36,172,113,125,120,12,14,21,16,0.8,0.7
2023-05-03T04:00:00,1037A,118.131,39.6363,唐山市,雷达站,颗粒物(PM10),75,100,108,33,41,201,69,109,88,30,27,10,10,1.1,0.8
2023-05-03T04:00:00,1038A,118.1725,39.6334,唐山市,物资局,颗粒物(PM10),72,93,112,42,42,195,66,106,76,27,29,9,10,1.0,0.9
2023-05-03T04:00:00,1040A,118.1705,39.6506,唐山市,十二中,颗粒物(PM10),70,89,98,39,44,198,70,101,78,26,24,10,10,0.8,0.9
2023-05-03T04:00:00,1041A,118.1869,39.622,唐山市,小山,,,,,,,,,,,,,,,,
2023-05-03T04:00:00,1042A,119.5134,39.8207,秦皇岛市,北戴河环保局,颗粒物(PM10),55,60,78,19,30,161,86,98,89,14,13,2,2,0.3,0.5
2023-05-03T04:00:00,1043A,119.7493,40.0116,秦皇岛市,第一关,颗粒物(PM10),59,67,86,28,35,193,108,106,106,13,27,3,2,0.2,0.4
2023-05-03T04:00:00,1044A,119.5897,39.9499,秦皇岛市,监测站,颗粒物(PM10),59,67,85,28,36,192,88,86,86,27,19,1,2,0.3,0.4
2023-05-03T04:00:00,1046A,119.5251,39.9041,秦皇岛市,建设大厦,颗粒物(PM10),56,61,86,16,22,195,98,127,105,16,20,4,5,0.3,0.4
2023-05-03T04:00:00,1048A,114.5302,36.6116,邯郸市,东污水处理厂,颗粒物(PM10),70,89,85,38,30,139,44,66,54,31,20,6,9,0.5,0.4
2023-05-03T04:00:00,1049A,114.4918,36.5713,邯郸市,矿院,颗粒物(PM10),64,78,81,44,35,139,60,53,47,23,24,12,14,0.4,0.4
2023-05-03T04:00:00,1050A,114.484,36.6133,邯郸市,丛台公园,颗粒物(PM10),62,74,80,36,33,141,64,74,67,19,16,10,12,0.4,0.4
2023-05-03T04:00:00,1051A,115.493,38.8632,保定市,游泳馆,细颗粒物(PM2.5),77,89,91,56,45,180,42,62,50,46,23,12,12,0.3,0.2
2023-05-03T04:00:00,1052A,115.5213,38.8959,保定市,华电二区,颗粒物(PM10),81,111,84,42,50,170,11,62,35,73,25,7,10,0.4,0.5
2023-05-03T04:00:00,1053A,115.4713,38.9108,保定市,接待中心,颗粒物(PM10),110,169,87,55,43,171,0,73,26,71,17,8,11,0.5,0.4
2023-05-03T04:00:00,1054A,115.4612,38.8416,保定市,地表水厂,颗粒物(PM10),78,105,102,37,30,166,47,46,46,45,28,12,13,0.2,0.2
2023-05-03T04:00:00,1056A,115.5086,38.8639,保定市,监测站,细颗粒物(PM2.5),72,86,93,52,47,182,34,46,43,59,30,16,12,0.6,0.5
2023-05-03T04:00:00,1057A,114.8883,40.8336,张家口市,人民公园,颗粒物(PM10),81,112,98,20,32,169,107,141,132,10,11,4,5,0.5,0.5
2023-05-03T04:00:00,1059A,114.8687,40.8042,张家口市,五金库,颗粒物(PM10),76,102,107,28,37,168,149,146,146,13,18,9,6,0.5,0.5
2023-05-03T04:00:00,1060A,114.8902,40.762,张家口市,世纪豪园,颗粒物(PM10),74,98,107,42,54,170,121,128,126,13,12,10,8,0.6,0.6
2023-05-03T04:00:00,1061A,114.8916,40.8661,张家口市,北泵房,颗粒物(PM10),70,89,94,38,37,180,91,137,109,12,12,8,10,0.6,0.6
2023-05-03T04:00:00,1062A,117.9531,40.9081,承德市,铁路,颗粒物(PM10),69,88,86,35,31,177,89,129,112,21,20,9,13,0.6,0.5
2023-05-03T04:00:00,1063A,117.9392,40.9763,承德市,中国银行,颗粒物(PM10),62,74,89,25,35,181,67,110,86,26,18,7,10,0.6,0.6
2023-05-03T04:00:00,1064A,117.9503,40.928,承德市,开发区,颗粒物(PM10),70,90,87,34,31,183,70,131,96,43,22,7,11,0.7,0.6
2023-05-03T04:00:00,1065A,117.8051,40.9655,承德市,文化中心,细颗粒物(PM2.5),89,98,84,66,45,176,84,109,91,29,16,6,11,0.5,0.5
2023-05-03T04:00:00,1066A,117.9268,41.0026,承德市,离宫,颗粒物(PM10),64,78,74,35,32,176,78,109,93,26,15,5,7,0.5,0.5
2023-05-03T04:00:00,1067A,116.6708,39.5111,廊坊市,药材公司,颗粒物(PM10),71,92,90,25,30,178,27,112,81,78,22,6,6,0.4,0.4
2023-05-03T04:00:00,1068A,116.7214,39.5589,廊坊市,开发区,细颗粒物(PM2.5),73,92,94,53,42,182,11,96,54,84,29,6,9,0.6,0.5
2023-05-03T04:00:00,1070A,116.7244,39.5269,廊坊市,北华航天学院,颗粒物(PM10),85,119,99,50,41,174,13,94,58,77,26,7,10,0.4,0.4
2023-05-03T04:00:00,1071A,116.8842,38.2991,沧州市,沧县城建局,颗粒物(PM10),71,92,88,39,28,165,54,78,56,42,28,10,7,0.5,0.4
2023-05-03T04:00:00,1072A,116.8584,38.3254,沧州市,电视转播站,细颗粒物(PM2.5),73,86,87,53,33,164,56,83,58,44,28,11,10,0.6,0.5
2023-05-03T04:00:00,1073A,116.8709,38.3228,沧州市,市环保局,颗粒物(PM10),76,101,77,41,35,166,54,77,57,47,30,12,9,0.6,0.3
2023-05-03T04:00:00,1074A,115.6838,37.7541,衡水市,电机北厂,颗粒物(PM10),67,83,91,44,28,168,95,102,98,17,14,6,5,0.6,0.3
2023-05-03T04:00:00,1075A,115.6303,37.7316,衡水市,市监测站,颗粒物(PM10),69,88,90,43,36,163,107,116,110,16,12,11,9,0.6,0.4
2023-05-03T04:00:00,1077A,114.4704,37.0886,邢台市,达活泉,颗粒物(PM10),77,103,91,47,35,160,32,54,44,37,22,12,13,0.6,0.6
2023-05-03T04:00:00,1078A,114.5062,37.0349,邢台市,邢师高专,颗粒物(PM10),75,100,86,43,34,149,12,41,26,51,21,9,8,0.5,0.5
2023-05-03T04:00:00,1079A,114.5237,37.0851,邢台市,路桥公司,颗粒物(PM10),65,79,83,41,31,149,31,55,39,35,22,10,10,0.5,0.6
2023-05-03T04:00:00,1080A,114.4725,37.0719,邢台市,市环保局,颗粒物(PM10),78,106,94,53,37,153,36,51,44,34,17,10,11,0.5,0.5
2023-05-03T04:00:00,1081A,112.522,37.8873,太原市,尖草坪,颗粒物(PM10),78,106,117,44,48,168,59,87,60,46,29,6,9,0.7,0.6
2023-05-03T04:00:00,1083A,112.434,38.0108,太原市,上兰,,,,,,,,,,,,,,,,
2023-05-03T04:00:00,1084A,112.469,37.7124,太原市,晋源,细颗粒物(PM2.5),108,160,112,81,47,165,107,93,93,27,26,12,10,0.8,0.7
2023-05-03T04:00:00,1085A,112.5583,37.7394,太原市,小店,颗粒物(PM10),107,164,111,76,48,165,100,115,109,32,23,12,9,0.7,0.6
2023-05-03T04:00:00,1086A,112.5369,37.8692,太原市,桃园,颗粒物(PM10),81,112,111,43,51,165,33,128,82,78,26,6,8,0.7,0.6
2023-05-03T04:00:00,1087A,112.57,37.8195,太原市,坞城,颗粒物(PM10),75,100,111,47,45,166,131,134,133,24,16,9,9,0.6,0.6
2023-05-03T04:00:00,1088A,112.549,37.9854,太原市,南寨,颗粒物(PM10),87,123,126,54,51,159,19,49,30,57,36,4,10,0.8,0.8
2023-05-03T04:00:00,1090A,111.6507,40.7517,呼和浩特市,呼市一监,颗粒物(PM10),101,151,153,57,49,143,68,82,78,23,26,10,9,0.5,0.5
2023-05-03T04:00:00,1091A,111.6572,40.8033,呼和浩特市,小召,颗粒物(PM10),100,149,158,59,55,126,63,65,64,28,35,20,12,0.5,0.6
2023-05-03T04:00:00,1094A,111.7516,40.8369,呼和浩特市,如意水处理厂,颗粒物(PM10),110,170,155,52,47,130,6,38,20,79,36,8,10,0.5,0.5
2023-05-03T04:00:00,1095A,111.7276,40.8062,呼和浩特市,二十九中,颗粒物(PM10),108,166,162,72,62,133,29,64,55,65,34,6,9,0.6,0.6
2023-05-03T04:00:00,1096A,111.5512,40.7866,呼和浩特市,工大金川校区,颗粒物(PM10),107,164,149,62,59,132,36,69,57,45,32,14,11,0.6,0.5
2023-05-03T04:00:00,1097A,111.717,40.7612,呼和浩特市,化肥厂生活区,颗粒物(PM10),117,183,172,60,54,120,30,52,46,46,30,8,9,0.6,0.6
2023-05-03T04:00:00,1098A,123.6836,41.9339,沈阳市,森林路,,,,,,,,,,,,,,,,
2023-05-03T04:00:00,1099A,123.505,41.7406,沈阳市,浑南东路,颗粒物(PM10),55,60,61,22,19,168,139,135,135,15,16,11,14,0.5,0.5
2023-05-03T04:00:00,1100A,123.4231,41.6989,沈阳市,新秀街,颗粒物(PM10),67,83,66,23,15,166,132,131,130,14,10,94,31,0.6,0.5
2023-05-03T04:00:00,1102A,123.5903,41.8411,沈阳市,东陵路,颗粒物(PM10),60,70,73,21,18,165,133,129,129,15,15,16,12,0.8,0.6
2023-05-03T04:00:00,1103A,123.4264,41.8467,沈阳市,陵东街,颗粒物(PM10),58,66,60,23,18,166,134,137,136,14,15,32,14,0.5,0.6
2023-05-03T04:00:00,1104A,123.4114,41.7653,沈阳市,文化路,颗粒物(PM10),63,76,65,28,22,166,136,138,138,15,14,34,15,0.5,0.5
2023-05-03T04:00:00,1105A,123.4678,41.7867,沈阳市,小河沿,颗粒物(PM10),58,65,63,19,19,161,132,131,130,16,17,9,14,0.5,0.5
2023-05-03T04:00:00,1106A,123.4017,41.7972,沈阳市,太原街,颗粒物(PM10),60,70,58,22,17,166,140,141,140,13,14,25,16,0.4,0.5
2023-05-03T04:00:00,1108A,123.3783,41.9228,沈阳市,京沈街,颗粒物(PM10),58,65,73,21,20,166,147,142,142,9,14,24,16,0.4,0.5
2023-05-03T04:00:00,1109A,121.612,38.9741,大连市,甘井子,颗粒物(PM10),70,89,70,31,26,166,128,138,135,12,20,5,5,0.5,0.6
2023-05-03T04:00:00,1110A,121.565,38.9511,大连市,周水子,颗粒物(PM10),61,72,66,28,27,171,141,139,139,16,24,7,6,0.5,0.5
2023-05-03T04:00:00,1111A,121.5637,38.8845,大连市,星海三站,颗粒物(PM10),67,83,72,31,27,171,139,139,139,12,18,4,5,0.5,0.5
2023-05-03T04:00:00,1112A,121.6302,38.9117,大连市,青泥洼桥,颗粒物(PM10),71,91,71,29,24,188,143,150,148,13,14,6,6,0.6,0.6
2023-05-03T04:00:00,1113A,121.6251,38.8638,大连市,傅家庄,颗粒物(PM10),62,73,68,26,25,178,144,142,142,13,16,7,7,0.6,0.6
2023-05-03T04:00:00,1114A,121.5213,38.8661,大连市,七贤岭,颗粒物(PM10),65,79,74,32,26,188,143,147,145,12,18,5,6,0.3,0.3
2023-05-03T04:00:00,1115A,121.2529,38.8061,大连市,旅顺,颗粒物(PM10),55,60,59,27,24,180,139,136,136,12,15,7,8,0.4,0.4
2023-05-03T04:00:00,1116A,121.7485,39.1311,大连市,金州,颗粒物(PM10),61,71,60,27,25,189,158,159,158,14,17,9,9,0.5,0.5
2023-05-03T04:00:00,1117A,121.7811,39.0496,大连市,开发区,颗粒物(PM10),73,96,69,34,27,165,129,135,127,17,23,5,4,0.4,0.4
2023-05-03T04:00:00,1118A,121.9762,39.0631,大连市,双D港,颗粒物(PM10),51,51,64,20,25,157,115,122,119,10,20,4,5,0.5,0.5
2023-05-03T04:00:00,1119A,125.3325,43.9166,长春市,食品厂,,41,38,72,16,17,158,129,134,131,11,15,7,8,0.3,0.4
2023-05-03T04:00:00,1120A,125.2863,43.9027,长春市,客车厂,,42,42,66,15,19,155,123,126,125,11,13,5,6,0.3,0.4
2023-05-03T04:00:00,1121A,125.2841,43.8463,长春市,邮电学院,,39,39,61,13,15,156,123,128,124,10,11,6,7,0.3,0.4
2023-05-03T04:00:00,1122A,125.3716,43.8772,长春市,劳动公园,,41,37,56,11,13,165,129,138,135,11,12,6,7,0.3,0.4
2023-05-03T04:00:00,1123A,125.3297,43.8805,长春市,园林处,,40,37,64,10,16,155,125,129,126,8,12,3,3,0.2,0.4
2023-05-03T04:00:00,1124A,125.4605,43.79,长春市,净月潭,,32,28,42,10,12,130,102,105,103,5,5,4,4,0.3,0.3
2023-05-03T04:00:00,1125A,125.7194,43.515,长春市,甩湾子,,,,,,,,,,,,,,,,
2023-05-03T04:00:00,1126A,125.3863,43.8447,长春市,经开区环卫处,,39,39,63,12,15,149,118,122,119,7,10,6,7,0.3,0.4
2023-05-03T04:00:00,1127A,125.245,43.7783,长春市,高新区管委会,,41,27,48,12,15,161,130,133,130,5,8,4,4,0.2,0.3
2023-05-03T04:00:00,1128A,125.1761,43.8325,长春市,岱山公园,,40,39,70,13,16,154,125,126,124,8,11,5,5,0.2,0.3
2023-05-03T04:00:00,1129A,126.5422,45.755,哈尔滨市,岭北,颗粒物(PM10),80,109,171,22,26,162,118,132,127,9,11,16,16,0.2,0.4
2023-05-03T04:00:00,1130A,126.561,45.8167,哈尔滨市,松北商大,颗粒物(PM10),78,105,116,26,31,160,117,133,127,7,11,6,6,0.4,0.5
2023-05-03T04:00:00,1131A,126.979,45.5419,哈尔滨市,阿城会宁,,41,41,57,16,16,143,104,117,112,8,12,10,10,0.3,0.4
2023-05-03T04:00:00,1132A,126.599,45.7222,哈尔滨市,南岗学府路,颗粒物(PM10),80,110,130,14,20,154,117,118,118,6,10,8,8,0.4,0.5
2023-05-03T04:00:00,1133A,126.689,45.7733,哈尔滨市,太平宏伟公园,颗粒物(PM10),80,110,137,17,22,149,114,112,112,10,15,6,6,0.3,0.6
2023-05-03T04:00:00,1134A,126.635,45.7667,哈尔滨市,道外承德广场,颗粒物(PM10),85,120,124,20,23,151,116,120,119,10,16,7,10,0.4,0.5
2023-05-03T04:00:00,1135A,126.685,45.7319,哈尔滨市,香坊红旗大街,颗粒物(PM10),75,100,125,30,31,152,120,115,115,12,18,13,14,0.3,0.4
2023-05-03T04:00:00,1136A,126.6411,45.7258,哈尔滨市,动力和平路,颗粒物(PM10),74,98,142,38,30,152,116,118,118,13,17,13,14,0.3,0.4
2023-05-03T04:00:00,1137A,126.593,45.7478,哈尔滨市,道里建国路,颗粒物(PM10),79,108,133,25,24,149,113,120,118,12,16,14,14,0.4,0.6
2023-05-03T04:00:00,1138A,126.615,45.61,哈尔滨市,平房东轻厂,颗粒物(PM10),81,112,117,24,18,152,121,119,119,6,7,6,6,0.3,0.4
2023-05-03T04:00:00,1139A,126.595,45.9855,哈尔滨市,呼兰师专,颗粒物(PM10),101,152,171,25,30,158,116,136,126,12,15,12,12,0.4,0.5
2023-05-03T04:00:00,1140A,126.6206,45.6842,哈尔滨市,省农科院,颗粒物(PM10),87,124,151,22,23,157,118,121,120,14,17,12,12,0.4,0.4
2023-05-03T04:00:00,1141A,121.4,31.238,上海市,普陀,颗粒物(PM10),63,76,57,13,14,148,109,119,114,11,14,6,6,0.5,0.4
2023-05-03T04:00:00,1142A,121.478,31.2036,上海市,十五厂,颗粒物(PM10),53,56,62,18,20,134,103,108,106,11,16,7,8,0.5,0.5
2023-05-03T04:00:00,1143A,121.467,31.3008,上海市,虹口,,36,36,46,12,15,141,106,116,111,10,13,8,8,0.4,0.4
2023-05-03T04:00:00,1144A,121.412,31.1654,上海市,徐汇上师大,颗粒物(PM10),51,51,56,19,16,155,104,120,112,26,20,16,10,0.8,0.6
2023-05-03T04:00:00,1145A,121.536,31.2659,上海市,杨浦四漂,,46,46,60,18,16,146,114,125,119,10,17,7,7,0.5,0.5
2023-05-03T04:00:00,1147A,121.425,31.2261,上海市,静安监测站,颗粒物(PM10),51,51,50,16,14,146,110,119,115,12,16,6,6,0.6,0.5
2023-05-03T04:00:00,1148A,121.703,31.1907,上海市,浦东川沙,颗粒物(PM10),52,54,56,21,19,146,110,117,114,9,13,6,6,0.4,0.4
2023-05-03T04:00:00,1149A,121.533,31.2284,上海市,浦东新区监测站,,50,50,52,8,10,149,117,127,122,5,8,7,7,0.4,0.4
2023-05-03T04:00:00,1150A,121.577,31.2071,上海市,浦东张江,颗粒物(PM10),53,55,51,25,19,147,116,124,121,8,12,4,4,0.6,0.5
2023-05-03T04:00:00,1151A,118.8086,32.1065,南京市,迈皋桥,,34,34,52,12,16,190,53,84,70,16,16,7,7,0.2,0.3
2023-05-03T04:00:00,1152A,118.7538,32.0551,南京市,草场门,,29,29,55,17,17,174,52,76,64,17,18,5,6,0.6,0.6
2023-05-03T04:00:00,1153A,118.7794,32.0745,南京市,山西路,颗粒物(PM10),59,68,60,14,18,185,63,83,72,11,9,5,5,0.2,0.2
2023-05-03T04:00:00,1154A,118.7752,32.0023,南京市,中华门,,39,39,51,7,14,176,54,76,64,21,18,3,4,0.6,0.5
2023-05-03T04:00:00,1155A,118.8109,32.0309,南京市,瑞金路,,41,41,55,17,18,184,54,79,68,2,10,10,9,0.3,0.3
2023-05-03T04:00:00,1156A,118.7997,32.0754,南京市,玄武湖,,41,41,55,13,19,181,56,79,69,18,15,5,6,0.7,0.6
2023-05-03T04:00:00,1157A,118.6414,32.0931,南京市,浦口,,47,47,64,17,20,167,52,73,59,26,26,6,7,0.4,0.3
2023-05-03T04:00:00,1158A,118.7356,31.9996,南京市,奥体中心,,47,47,62,22,19,168,55,80,68,15,16,7,8,0.3,0.3
2023-05-03T04:00:00,1159A,118.9125,32.1028,南京市,仙林大学城,,39,39,50,22,19,177,61,80,71,14,13,8,9,0.6,0.5
2023-05-03T04:00:00,1160A,120.561,31.2472,苏州市,上方山,,40,34,46,28,23,129,61,73,68,25,15,8,8,0.4,0.4
2023-05-03T04:00:00,1162A,120.591,31.3019,苏州市,彩香,,43,43,50,18,16,162,91,103,98,3,10,5,6,0.6,0.6
2023-05-03T04:00:00,1163A,120.596,31.3264,苏州市,轧钢厂,,42,42,55,19,17,143,86,96,92,8,12,8,9,0.5,0.5
2023-05-03T04:00:00,1164A,120.613,31.2703,苏州市,吴中区,,47,47,51,19,16,149,82,97,90,12,13,9,10,0.6,0.6
2023-05-03T04:00:00,1165A,120.543,31.2994,苏州市,苏州新区,,37,37,47,17,18,147,79,86,84,9,9,5,6,0.5,0.5
2023-05-03T04:00:00,1166A,120.669,31.3097,苏州市,苏州工业园区,,47,47,50,20,19,143,88,96,93,2,6,8,8,0.5,0.5
2023-05-03T04:00:00,1167A,120.641,31.3708,苏州市,相城区,,43,43,49,17,17,152,91,101,97,6,9,7,7,0.6,0.5
2023-05-03T04:00:00,1168A,120.9098,31.9663,南通市,狼山街道,,44,44,61,13,15,150,84,94,92,19,15,6,7,0.3,0.3
2023-05-03T04:00:00,1169A,120.86,32.0005,南通市,虹桥,,36,36,53,16,14,155,86,93,89,18,19,7,8,0.6,0.4
2023-05-03T04:00:00,1170A,120.87,32.02,南通市,城中,,37,37,64,18,16,161,87,96,94,16,14,6,7,0.6,0.5
2023-05-03T04:00:00,1171A,120.94,31.93,南通市,星湖花园,,38,38,49,12,15,136,80,86,84,16,18,7,8,0.5,0.4
2023-05-03T04:00:00,1172A,120.81,32.0417,南通市,紫琅学院,,46,46,58,14,15,132,78,82,80,18,24,8,8,0.5,0.4
2023-05-03T04:00:00,1173A,119.176,34.5885,连云港市,市环境监测站,颗粒物(PM10),57,63,80,19,25,155,89,106,98,11,12,7,8,0.4,0.5
2023-05-03T04:00:00,1177A,117.179,34.2761,徐州市,黄河新村,颗粒物(PM10),62,73,86,32,33,170,90,92,86,15,17,10,10,0.6,0.6
2023-05-03T04:00:00,1178A,117.1918,34.2384,徐州市,淮塔,颗粒物(PM10),59,68,82,31,33,182,95,96,91,16,17,13,11,0.5,0.5
2023-05-03T04:00:00,1180A,117.256,34.2153,徐州市,新城区,颗粒物(PM10),58,65,77,27,29,175,102,94,94,16,17,8,9,0.6,0.6
2023-05-03T04:00:00,1181A,117.244,34.2911,徐州市,桃园路,颗粒物(PM10),58,66,84,19,26,165,95,92,92,12,11,12,11,0.6,0.6
2023-05-03T04:00:00,1182A,117.2933,34.2778,徐州市,农科院,颗粒物(PM10),56,61,79,19,23,166,112,105,105,17,25,11,11,0.7,0.7
2023-05-03T04:00:00,1186A,119.389,32.3761,扬州市,邗江监测站,,41,41,65,27,25,171,55,70,62,23,23,7,6,0.6,0.5
2023-05-03T04:00:00,1188A,120.269,31.4867,无锡市,雪浪,,29,17,46,9,13,162,90,93,92,7,12,8,9,0.5,0.5
2023-05-03T04:00:00,1189A,120.275,31.6219,无锡市,黄巷,,30,30,50,9,13,164,82,82,82,11,14,5,5,0.9,0.8
2023-05-03T04:00:00,1190A,120.294,31.56,无锡市,曹张,,26,26,42,12,14,168,83,82,82,6,11,5,6,0.7,0.6
2023-05-03T04:00:00,1191A,120.242,31.5031,无锡市,漆塘,,,17,41,,16,159,88,90,90,10,11,6,6,0.4,0.4
2023-05-03T04:00:00,1192A,120.3489,31.5863,无锡市,东亭,,36,36,49,14,16,156,73,77,76,13,12,10,10,0.8,0.7
2023-05-03T04:00:00,1193A,120.354,31.5475,无锡市,旺庄,,29,29,45,9,13,158,74,78,76,20,17,6,6,0.6,0.5
2023-05-03T04:00:00,1194A,120.245,31.5631,无锡市,荣巷,,30,17,41,7,15,168,94,94,94,8,14,11,12,0.6,0.6
2023-05-03T04:00:00,1195A,120.299,31.6817,无锡市,堰桥,,27,24,46,17,14,167,85,93,90,13,14,6,7,0.5,0.4
2023-05-03T04:00:00,1196A,119.9633,31.762,常州市,市监测站,,35,35,49,10,14,157,80,80,80,8,13,5,6,0.3,0.3
2023-05-03T04:00:00,1200A,119.9468,31.7069,常州市,武进监测站,,37,37,46,10,15,168,88,90,90,7,10,4,4,0.4,0.3
2023-05-03T04:00:00,1201A,119.9255,31.9087,常州市,安家,,34,34,52,13,22,162,82,79,79,11,16,7,6,0.8,0.5
2023-05-03T04:00:00,1203A,119.6707,32.1875,镇江市,新区办事处,颗粒物(PM10),54,58,59,27,20,183,55,60,56,23,16,3,3,0.7,0.4
2023-05-03T04:00:00,1204A,119.4974,32.1968,镇江市,职教中心,,40,40,58,21,20,171,73,72,71,13,15,4,3,0.4,0.5
2023-05-03T04:00:00,1205A,119.4303,32.1328,镇江市,丹徒区监测站,细颗粒物(PM2.5),95,36,58,71,36,184,75,80,76,10,12,3,4,0.4,0.4
2023-05-03T04:00:00,1206A,119.905,32.4878,泰州市,公园路,,36,36,54,19,25,176,81,84,82,11,16,9,9,0.6,0.4
2023-05-03T04:00:00,1207A,119.9189,32.4625,泰州市,莲花,,42,42,65,19,29,184,86,89,86,13,17,8,9,0.5,0.4
2023-05-03T04:00:00,1209A,119.888,32.4639,泰州市,留学生创业园,颗粒物(PM10),53,55,72,21,20,174,82,85,83,13,15,8,8,0.6,0.5
2023-05-03T04:00:00,1210A,119.036,33.5981,淮安市,钵池山,,45,29,59,31,23,171,73,97,82,17,20,10,11,0.6,0.6
2023-05-03T04:00:00,1211A,119.007,33.575,淮安市,北京南路,,48,39,69,33,23,182,67,96,81,21,22,8,9,0.5,0.5
2023-05-03T04:00:00,1212A,118.989,33.6067,淮安市,市监测站,,32,17,72,22,20,176,69,99,82,19,24,9,12,0.7,0.6
2023-05-03T04:00:00,1213A,119.135,33.5039,淮安市,楚州区监测站,,49,49,77,28,29,173,65,84,73,16,20,9,11,0.8,0.7
2023-05-03T04:00:00,1214A,119.0186,33.6297,淮安市,淮阴区监测站,,48,48,73,31,23,173,71,95,82,18,20,9,10,0.4,0.4
2023-05-03T04:00:00,1215A,120.118,33.4022,盐城市,盐城电厂,,36,36,65,19,20,182,88,108,97,9,11,6,7,0.4,0.4
2023-05-03T04:00:00,1216A,120.156,33.3942,盐城市,市监测站,,46,46,64,26,27,166,86,103,93,10,11,8,9,0.3,0.4
2023-05-03T04:00:00,1218A,120.2144,33.38,盐城市,开发区管委会,,37,37,63,25,19,170,80,97,87,12,15,9,9,0.4,0.4
2023-05-03T04:00:00,1220A,118.293,33.9528,宿迁市,宿迁学院,颗粒物(PM10),62,74,85,29,35,176,74,112,93,24,26,12,11,0.7,0.6
2023-05-03T04:00:00,1221A,118.2442,33.9592,宿迁市,宿迁中学,颗粒物(PM10),53,55,78,28,32,180,86,118,100,14,19,8,9,0.3,0.3
2023-05-03T04:00:00,1223A,120.2072,30.2111,杭州市,滨江,,23,10,29,4,11,142,73,79,76,10,11,7,7,0.5,0.4
2023-05-03T04:00:00,1224A,120.0633,30.2747,杭州市,西溪,,33,33,38,7,13,150,46,77,65,15,16,7,7,0.4,0.4
2023-05-03T04:00:00,1226A,120.3461,30.3153,杭州市,下沙,,24,19,37,15,16,141,76,85,81,15,18,6,6,0.5,0.5
2023-05-03T04:00:00,1227A,120.1269,30.2456,杭州市,卧龙桥,,28,28,32,9,12,153,38,78,64,16,11,1,2,0.4,0.4
2023-05-03T04:00:00,1228A,120.1903,30.2692,杭州市,浙江农大,,24,13,30,7,10,147,76,84,81,10,13,7,7,0.4,0.3
2023-05-03T04:00:00,1230A,120.1197,30.3119,杭州市,和睦小学,,28,28,37,19,15,145,70,75,73,11,14,5,6,0.6,0.6
2023-05-03T04:00:00,1231A,120.3019,30.4183,杭州市,临平镇,,23,18,41,9,12,147,71,74,74,9,13,4,5,0.4,0.3
2023-05-03T04:00:00,1232A,120.2697,30.1819,杭州市,城厢镇,,36,36,43,18,18,139,73,80,77,14,16,4,4,0.5,0.4
2023-05-03T04:00:00,1233A,120.0883,30.1808,杭州市,云栖,,16,16,30,9,11,138,38,73,60,23,21,6,6,0.5,0.5
2023-05-03T04:00:00,1234A,121.8358,29.911,宁波市,区环保大楼,,33,33,37,16,14,142,104,125,115,5,8,3,4,0.4,0.4
2023-05-03T04:00:00,1235A,121.56,29.82,宁波市,万里学院,,31,25,42,15,21,126,98,109,104,5,11,2,4,0.5,0.5
2023-05-03T04:00:00,1236A,121.713,29.9572,宁波市,龙赛医院,,32,25,38,8,9,134,100,116,109,5,8,5,5,0.1,0.2
2023-05-03T04:00:00,1239A,121.633,29.7733,宁波市,钱湖水厂,,32,24,31,14,18,134,100,115,108,2,2,3,4,0.3,0.3
2023-05-03T04:00:00,1240A,121.5856,29.8635,宁波市,太古小学,,30,21,35,20,9,129,94,104,98,7,9,7,8,0.5,0.5
2023-05-03T04:00:00,1241A,121.524,29.8674,宁波市,市环境监测中心,,30,28,43,9,13,117,93,98,96,4,10,6,7,0.3,0.3
2023-05-03T04:00:00,1242A,120.634,28.0089,温州市,瓯海,细颗粒物(PM2.5),72,58,73,52,48,69,2,2,2,45,54,7,8,0.6,0.5
2023-05-03T04:00:00,1243A,120.6748,27.9939,温州市,南浦,细颗粒物(PM2.5),55,52,63,39,35,76,5,4,4,43,43,4,5,0.6,0.6
2023-05-03T04:00:00,1244A,120.76,27.9747,温州市,龙湾,颗粒物(PM10),68,86,70,44,30,68,6,8,7,51,52,6,7,0.6,0.6
2023-05-03T04:00:00,1245A,120.6709,28.0167,温州市,市站,,24,24,63,15,29,86,9,7,7,44,47,4,6,0.5,0.4
2023-05-03T04:00:00,1247A,120.6053,29.9928,绍兴市,城东开发委,,25,9,23,6,11,116,78,93,86,4,6,5,6,0.4,0.3
2023-05-03T04:00:00,1250A,120.0751,30.8669,湖州市,城西水厂,,25,22,46,17,20,156,65,70,68,18,19,6,7,0.4,0.4
2023-05-03T04:00:00,1252A,120.7436,30.778,嘉兴市,清河小学,,29,22,43,3,11,129,90,94,92,7,13,5,6,0.2,0.2
2023-05-03T04:00:00,1253A,120.726,30.7478,嘉兴市,嘉兴学院,,27,21,38,10,13,128,86,94,88,8,11,6,6,0.3,0.3
2023-05-03T04:00:00,1255A,121.273,28.6459,台州市,黄岩环保大楼,,15,15,45,10,21,102,46,56,53,12,20,5,6,0.5,0.5
2023-05-03T04:00:00,1256A,121.419,28.6542,台州市,台州环保大楼,,22,22,47,14,27,120,54,68,62,8,16,4,5,0.4,0.4
2023-05-03T04:00:00,1257A,121.377,28.5773,台州市,路桥田洋王,,19,19,53,13,34,109,58,61,60,8,24,5,6,0.3,0.4
2023-05-03T04:00:00,1258A,122.122,30.0203,舟山市,定海檀枫,,30,30,35,14,18,129,93,101,98,10,14,5,6,0.4,0.4
2023-05-03T04:00:00,1259A,122.3094,29.9558,舟山市,普陀东港,,38,33,36,26,21,133,99,119,108,10,9,6,6,0.3,0.3
2023-05-03T04:00:00,1260A,122.19,29.9944,舟山市,临城新区,,40,40,40,16,20,139,104,112,108,12,15,5,5,0.3,0.4
2023-05-03T04:00:00,1262A,119.647,29.077,金华市,十五中,,26,22,27,18,11,126,65,76,70,14,13,6,6,0.5,0.4
2023-05-03T04:00:00,1263A,119.686,29.1029,金华市,监测站,,33,33,28,17,11,124,32,83,42,32,18,5,5,0.5,0.4
2023-05-03T04:00:00,1264A,118.8692,28.9398,衢州市,环保大楼,,21,21,39,7,16,150,56,60,58,13,17,9,8,0.4,0.4
2023-05-03T04:00:00,1265A,118.8709,28.9666,衢州市,实验学校,,19,19,37,10,15,157,59,69,66,10,12,4,6,0.5,0.5
2023-05-03T04:00:00,1266A,118.8621,28.9808,衢州市,衢州学院,,20,20,34,0,11,149,55,62,60,14,16,5,6,0.3,0.3
2023-05-03T04:00:00,1267A,119.914,28.4514,丽水市,监测站大楼,,29,13,26,20,19,109,22,61,38,24,12,8,5,0.4,0.3
2023-05-03T04:00:00,1268A,119.93,28.4586,丽水市,莲都小学,,35,27,26,24,15,108,8,26,16,40,16,6,5,0.3,0.3
2023-05-03T04:00:00,1269A,119.879,28.4231,丽水市,余庄前,,21,21,18,12,9,106,5,25,14,13,12,6,7,0.3,0.3
2023-05-03T04:00:00,1270A,117.1959,31.7848,合肥市,明珠广场,,39,39,62,19,30,139,63,85,72,24,24,4,6,0.5,0.5
2023-05-03T04:00:00,1271A,117.3072,31.8764,合肥市,三里街,,49,48,77,34,35,132,53,87,67,26,37,5,7,0.6,0.5
2023-05-03T04:00:00,1272A,117.2588,31.8707,合肥市,琥珀山庄,,49,39,65,34,30,141,62,102,83,19,19,3,5,1.0,0.8
2023-05-03T04:00:00,1273A,117.1604,31.9052,合肥市,董铺水库,,36,36,65,19,22,122,73,99,88,11,14,3,5,0.4,0.4
2023-05-03T04:00:00,1274A,117.25,31.8571,合肥市,长江中路,,48,48,75,30,31,135,72,97,84,16,19,8,11,0.7,0.5
2023-05-03T04:00:00,1275A,117.266,31.9436,合肥市,庐阳区,,45,41,68,31,26,129,66,96,80,24,20,7,9,0.5,0.5
2023-05-03T04:00:00,1276A,117.336,31.8586,合肥市,瑶海区,颗粒物(PM10),54,58,84,31,29,130,58,76,66,19,29,6,9,0.8,0.6
2023-05-03T04:00:00,1277A,117.3027,31.7964,合肥市,包河区,,49,25,67,34,30,141,13,89,46,66,24,8,10,0.4,0.4
2023-05-03T04:00:00,1278A,117.2776,31.7385,合肥市,滨湖新区,,48,48,60,24,24,137,70,91,76,13,15,5,7,0.6,0.5
2023-05-03T04:00:00,1279A,117.1318,31.8403,合肥市,高新区,,42,36,62,29,28,136,77,102,91,16,18,7,9,0.4,0.3
2023-05-03T04:00:00,1280A,119.3903,26.0543,福州市,鼓山,,,,,,,,,,,,,,,,
2023-05-03T04:00:00,1282A,119.2681,26.0504,福州市,师大,,35,35,41,20,17,134,33,48,42,24,18,4,7,0.5,0.5
2023-05-03T04:00:00,1283A,119.2984,26.1028,福州市,五四北路,,25,25,41,16,18,128,51,42,42,14,20,2,3,0.5,0.4
2023-05-03T04:00:00,1284A,119.2648,26.0768,福州市,杨桥西路,,36,36,45,23,20,129,32,35,34,28,20,3,5,0.6,0.5
2023-05-03T04:00:00,1285A,119.317,26.0746,福州市,紫阳,,25,21,48,17,21,127,50,45,45,13,21,3,4,0.6,0.6
2023-05-03T04:00:00,1286A,118.1608,24.8169,厦门市,溪东,,,,,,,,,,,,,,,,
2023-05-03T04:00:00,1287A,118.1514,24.4767,厦门市,洪文,,44,44,46,28,20,146,67,85,78,3,5,3,3,0.4,0.3
2023-05-03T04:00:00,1288A,118.0661,24.4444,厦门市,鼓浪屿,,42,42,46,23,20,151,78,100,90,7,19,3,2,0.5,0.5
2023-05-03T04:00:00,1290A,115.8931,28.6843,南昌市,省外办,,39,39,60,22,28,128,72,71,71,14,25,14,13,0.5,0.6
2023-05-03T04:00:00,1291A,115.8886,28.7003,南昌市,省林业公司,,35,34,62,24,28,133,67,66,66,23,39,13,13,0.4,0.5
2023-05-03T04:00:00,1292A,115.8126,28.7442,南昌市,林科所,颗粒物(PM10),51,51,52,24,23,127,19,11,11,63,34,8,11,0.7,0.6
2023-05-03T04:00:00,1294A,115.8518,28.687,南昌市,建工学校,,47,47,68,30,26,127,64,56,56,18,26,13,14,0.5,0.6
2023-05-03T04:00:00,1295A,115.8921,28.6424,南昌市,象湖,,42,42,60,21,24,125,65,64,64,18,26,20,14,0.6,0.7
2023-05-03T04:00:00,1296A,115.7423,28.7996,南昌市,武术学校,,19,10,40,13,15,130,34,37,32,6,7,14,13,0.6,0.6
2023-05-03T04:00:00,1298A,115.9314,28.6842,南昌市,省站,颗粒物(PM10),51,51,76,21,27,123,63,69,68,17,23,25,13,0.8,0.8
2023-05-03T04:00:00,1299A,116.9862,36.6114,济南市,科干所,颗粒物(PM10),53,56,62,22,24,167,138,146,135,21,16,11,9,0.5,0.4
2023-05-03T04:00:00,1300A,116.9376,36.665,济南市,农科所,颗粒物(PM10),66,81,77,29,23,157,55,44,44,65,31,4,4,0.4,0.3
2023-05-03T04:00:00,1301A,117.1265,36.6734,济南市,开发区,颗粒物(PM10),66,81,73,29,27,172,112,106,106,37,30,12,12,0.5,0.4
2023-05-03T04:00:00,1303A,117.0624,36.6868,济南市,省种子仓库,颗粒物(PM10),96,141,92,46,37,173,6,9,8,123,46,12,10,0.9,0.6
2023-05-03T04:00:00,1304A,116.9489,36.6447,济南市,机床二厂,颗粒物(PM10),72,93,89,27,28,164,27,65,44,88,26,5,5,0.5,0.4
2023-05-03T04:00:00,1305A,117.0495,36.663,济南市,市监测站,颗粒物(PM10),64,78,74,29,26,180,52,111,71,84,34,9,9,0.7,0.6
2023-05-03T04:00:00,1306A,116.7675,36.5484,济南市,长清党校,颗粒物(PM10),61,71,78,24,30,174,146,161,157,19,15,13,13,0.7,0.7
2023-05-03T04:00:00,1307A,120.6659,36.2403,青岛市,仰口,,46,46,60,22,24,117,41,53,46,9,8,5,4,0.5,0.4
2023-05-03T04:00:00,1310A,120.4134,36.0658,青岛市,市南区东部子站,颗粒物(PM10),56,61,68,34,19,184,142,138,138,8,13,6,6,0.4,0.5
2023-05-03T04:00:00,1311A,120.3664,36.1032,青岛市,四方区子站,颗粒物(PM10),57,63,69,19,20,189,147,142,142,12,20,10,7,0.5,0.6
2023-05-03T04:00:00,1312A,120.2994,36.054,青岛市,市南区西部子站,颗粒物(PM10),54,58,69,15,21,201,157,152,150,8,17,5,5,0.5,0.5
2023-05-03T04:00:00,1313A,120.4581,36.0858,青岛市,崂山区子站,颗粒物(PM10),60,70,77,24,25,184,150,147,147,8,10,7,7,0.3,0.4
2023-05-03T04:00:00,1314A,120.1983,35.9608,青岛市,黄岛区子站,颗粒物(PM10),54,58,66,20,24,176,135,133,133,6,9,4,5,0.4,0.5
2023-05-03T04:00:00,1315A,120.3999,36.3083,青岛市,城阳区子站,颗粒物(PM10),52,53,78,15,17,171,140,144,142,14,20,4,5,0.4,0.4
2023-05-03T04:00:00,1316A,113.69031,34.76122,郑州市,烟厂,颗粒物(PM10),77,104,115,40,55,172,53,61,59,42,34,7,9,0.8,0.6
2023-05-03T04:00:00,1317A,113.65724,34.77134,郑州市,郑纺机,,,74,98,,43,172,72,83,78,17,24,6,9,0.7,0.6
2023-05-03T04:00:00,1318A,113.67526,34.80246,郑州市,银行学校,颗粒物(PM10),62,73,83,40,35,168,77,84,80,8,14,6,9,0.8,0.7
2023-05-03T04:00:00,1319A,113.56746,34.81334,郑州市,供水公司,颗粒物(PM10),66,81,102,35,38,159,71,85,78,7,15,9,11,0.6,0.6
2023-05-03T04:00:00,1320A,113.7329,34.7178,郑州市,经开区管委,细颗粒物(PM2.5),67,63,87,48,43,166,78,86,80,15,21,4,6,0.6,0.5
2023-05-03T04:00:00,1321A,113.73961,34.77172,郑州市,四十七中,细颗粒物(PM2.5),93,82,100,69,51,163,74,86,79,15,21,6,8,0.8,0.7
2023-05-03T04:00:00,1322A,113.60532,34.74838,郑州市,市监测站,颗粒物(PM10),72,93,130,32,33,176,77,91,82,13,25,3,6,0.7,0.6
2023-05-03T04:00:00,1323A,113.64164,34.7525,郑州市,河医大,颗粒物(PM10),71,91,99,48,43,170,69,84,76,17,22,7,10,0.6,0.6
2023-05-03T04:00:00,1324A,113.51488,34.91089,郑州市,岗李水库,,,,,,,,,,,,,,,,
2023-05-03T04:00:00,1325A,114.3677,30.5584,武汉市,东湖梨园,颗粒物(PM10),54,58,65,29,30,113,66,64,64,24,29,10,9,1.2,0.8
2023-05-03T04:00:00,1326A,114.2529,30.558,武汉市,汉阳月湖,颗粒物(PM10),57,63,76,31,29,109,42,41,41,33,41,7,8,1.2,0.9
2023-05-03T04:00:00,1327A,114.282,30.6189,武汉市,汉口花桥,颗粒物(PM10),58,66,95,20,27,107,65,64,64,18,30,9,10,0.9,0.8
2023-05-03T04:00:00,1328A,114.3025,30.5332,武汉市,武昌紫阳,细颗粒物(PM2.5),69,58,68,50,46,122,48,50,48,29,37,7,8,1.2,1
2023-05-03T04:00:00,1329A,114.3646,30.6217,武汉市,青山钢花,细颗粒物(PM2.5),52,50,84,36,41,144,76,75,75,20,32,9,12,0.8,0.9
2023-05-03T04:00:00,1330A,114.1566,30.4825,武汉市,沌口新区,细颗粒物(PM2.5),60,56,76,43,41,114,61,55,55,19,33,8,9,0.8,0.7
2023-05-03T04:00:00,1331A,114.3014,30.5944,武汉市,汉口江滩,细颗粒物(PM2.5),57,57,71,40,41,107,67,64,63,26,42,10,10,1.2,0.9
2023-05-03T04:00:00,1333A,114.135,30.6319,武汉市,吴家山,颗粒物(PM10),56,62,63,24,28,123,63,64,62,20,27,7,9,1.0,0.8
2023-05-03T04:00:00,1334A,113.8454,30.2917,武汉市,沉湖七壕,,43,43,53,30,23,111,50,61,56,14,17,12,12,0.7,0.5
2023-05-03T04:00:00,1335A,113.0833,28.2325,长沙市,经开区环保局,,49,43,74,34,44,97,64,70,65,7,13,7,8,0.7,0.7
2023-05-03T04:00:00,1336A,112.8872,28.2189,长沙市,高开区环保局,,42,25,62,29,34,108,80,70,70,2,11,9,12,0.4,0.6
2023-05-03T04:00:00,1337A,113.0792,28.2053,长沙市,马坡岭,细颗粒物(PM2.5),57,49,77,40,51,91,54,57,55,12,16,2,2,0.4,0.5
2023-05-03T04:00:00,1338A,112.9394,28.19,长沙市,湖南师范大学,,42,42,86,21,43,105,67,55,55,12,22,8,10,0.8,1
2023-05-03T04:00:00,1339A,113.0178,28.1322,长沙市,雨花区环保局,,43,37,69,30,32,99,54,61,57,18,14,9,11,0.5,0.6
2023-05-03T04:00:00,1340A,112.9792,28.2597,长沙市,伍家岭,颗粒物(PM10),55,60,81,28,36,100,43,53,45,22,24,4,5,0.6,0.6
2023-05-03T04:00:00,1341A,113.0014,28.1944,长沙市,火车新站,"颗粒物(PM10),细颗粒物(PM2.5)",54,57,76,38,42,89,31,37,32,29,24,8,10,0.7,0.7
2023-05-03T04:00:00,1342A,112.9844,28.1178,长沙市,天心区环保局,,32,32,73,17,41,91,68,61,61,5,16,4,6,0.3,0.6
2023-05-03T04:00:00,1343A,112.8908,28.1308,长沙市,湖南中医药大学,,38,38,73,19,37,103,71,65,65,15,27,5,8,0.7,1
2023-05-03T04:00:00,1344A,112.9581,28.3611,长沙市,沙坪,细颗粒物(PM2.5),53,48,81,37,35,86,55,62,59,12,16,7,7,0.6,0.6
2023-05-03T04:00:00,1345A,113.2347,23.1423,广州市,广雅中学,,34,34,46,16,20,144,43,39,39,29,28,4,5,0.7,0.7
2023-05-03T04:00:00,1346A,113.2612,23.105,广州市,市五中,,33,33,46,18,21,161,50,44,44,21,21,7,8,0.6,0.6
2023-05-03T04:00:00,1348A,113.3478,23.0916,广州市,广东商学院,,35,35,49,15,20,141,40,29,27,27,27,4,6,0.6,0.6
2023-05-03T04:00:00,1349A,113.4332,23.1047,广州市,市八十六中,,41,41,60,17,20,172,38,22,22,34,32,4,6,0.6,0.7
2023-05-03T04:00:00,1350A,113.3505,22.9483,广州市,番禺中学,,34,34,43,17,17,138,45,42,42,31,24,7,7,0.5,0.6
2023-05-03T04:00:00,1351A,113.2146,23.3916,广州市,花都师范,,43,43,53,20,21,174,33,50,40,33,29,6,7,0.6,0.6
2023-05-03T04:00:00,1352A,113.2597,23.1331,广州市,市监测站,,40,40,48,17,20,150,46,42,42,24,24,6,7,0.6,0.7
2023-05-03T04:00:00,1353A,113.5618,23.312,广州市,九龙镇镇龙,,43,43,64,17,23,185,22,15,12,33,41,5,6,0.5,0.5
2023-05-03T04:00:00,1354A,113.2765,23.1544,广州市,麓湖,,39,39,44,17,19,162,36,40,37,32,23,6,7,0.7,0.7
2023-05-03T04:00:00,1355A,113.443,23.3035,广州市,帽峰山森林公园,,41,41,50,19,19,190,23,27,23,31,27,2,4,0.4,0.4
2023-05-03T04:00:00,1356A,114.1063,22.5545,深圳市,通心岭子站,,35,35,37,16,15,124,76,86,81,4,6,3,4,0.6,0.6
2023-05-03T04:00:00,1357A,114.117,22.5625,深圳市,洪湖,,35,35,41,13,15,144,89,98,94,8,11,8,9,0.4,0.4
2023-05-03T04:00:00,1358A,113.987,22.5417,深圳市,华侨城,,31,31,41,12,17,147,88,98,94,8,13,6,6,0.4,0.4
2023-05-03T04:00:00,1359A,113.9181,22.5171,深圳市,南海子站,,36,36,49,13,15,134,84,97,88,9,12,4,4,0.5,0.5
2023-05-03T04:00:00,1360A,114.2458,22.5689,深圳市,盐田,,40,40,41,13,17,144,92,86,86,2,18,4,6,0.5,0.6
2023-05-03T04:00:00,1361A,114.2283,22.7244,深圳市,龙岗,,30,29,37,10,13,133,95,95,95,12,12,4,4,0.5,0.5
2023-05-03T04:00:00,1363A,114.494,22.5422,深圳市,南澳,,26,24,35,10,13,146,83,88,87,7,10,7,8,0.4,0.4
2023-05-03T04:00:00,1364A,114.41,22.6342,深圳市,葵涌,,30,30,37,14,14,142,88,107,100,8,11,7,7,0.5,0.5
2023-05-03T04:00:00,1365A,114.297,22.5978,深圳市,梅沙,,43,43,47,16,17,141,94,108,104,6,11,4,5,0.7,0.7
2023-05-03T04:00:00,1366A,114.0678,22.738,深圳市,观澜,颗粒物(PM10),54,58,51,21,16,138,55,68,55,28,21,4,4,0.4,0.6
2023-05-03T04:00:00,1367A,113.5814,22.2618,珠海市,吉大,,34,34,38,17,17,135,84,109,98,8,13,7,7,0.5,0.5
2023-05-03T04:00:00,1368A,113.4881,22.2335,珠海市,前山,,39,39,42,8,16,136,86,101,94,11,16,4,4,0.3,0.3
2023-05-03T04:00:00,1369A,113.628,22.4251,珠海市,唐家,,37,37,40,13,18,126,75,81,80,9,21,4,6,0.2,0.4
2023-05-03T04:00:00,1370A,113.299,22.2281,珠海市,斗门,,35,35,41,19,20,127,76,90,85,10,12,4,5,0.4,0.4
2023-05-03T04:00:00,1371A,113.1294,23.0067,佛山市,湾梁,,39,39,48,15,17,155,54,60,55,18,15,9,9,0.6,0.6
2023-05-03T04:00:00,1372A,113.1083,23.0478,佛山市,华材职中,,29,29,43,18,19,159,55,60,57,19,16,6,6,0.4,0.4
2023-05-03T04:00:00,1373A,113.144,23.0453,佛山市,南海气象局,,30,30,44,20,20,124,31,34,32,31,24,4,5,0.5,0.5
2023-05-03T04:00:00,1374A,113.2881,22.8094,佛山市,顺德苏岗,,38,38,37,17,16,126,35,46,40,24,16,4,5,0.6,0.6
2023-05-03T04:00:00,1376A,112.8383,22.8678,佛山市,高明孔堂,,30,30,44,12,17,137,57,61,59,9,11,3,4,0.4,0.5
2023-05-03T04:00:00,1377A,112.8836,23.1588,佛山市,三水监测站,,29,29,51,18,24,164,26,38,28,42,33,6,5,0.6,0.6
2023-05-03T04:00:00,1378A,112.867,23.185,佛山市,三水云东海,,34,34,48,16,20,175,45,52,45,25,23,5,6,0.4,0.4
2023-05-03T04:00:00,1379A,113.3769,22.5211,中山市,华柏园,,23,14,36,16,17,114,73,64,64,7,14,4,5,0.4,0.5
2023-05-03T04:00:00,1380A,113.3881,22.5497,中山市,张溪,,24,14,42,16,16,119,76,70,70,5,15,2,3,0.4,0.5
2023-05-03T04:00:00,1381A,113.4075,22.5111,中山市,紫马岭,,25,20,37,10,15,125,80,72,72,4,11,4,5,0.4,0.4
2023-05-03T04:00:00,1382A,113.4411,22.4853,中山市,长江旅游区,,22,14,33,15,17,126,69,64,64,5,11,7,8,0.3,0.4
2023-05-03T04:00:00,1383A,113.1064,22.6058,江门市,北街,,29,29,44,12,14,125,57,63,61,14,16,5,6,0.6,0.6
2023-05-03T04:00:00,1384A,113.0731,22.5835,江门市,西区,,34,34,42,17,18,135,67,71,70,15,15,6,6,0.4,0.5
2023-05-03T04:00:00,1385A,113.0219,22.5311,江门市,圭峰西,,28,28,45,14,17,132,55,70,61,11,10,2,2,0.5,0.6
2023-05-03T04:00:00,1386A,113.0828,22.5947,江门市,东湖,,42,42,45,8,18,132,66,72,70,12,13,6,6,0.4,0.5
2023-05-03T04:00:00,1389A,113.7547,23.0494,东莞市,莞城梨川,,34,34,39,14,16,169,69,68,68,15,16,8,8,0.6,0.6
2023-05-03T04:00:00,1390A,113.7944,23.0128,东莞市,东城石井,,33,33,37,14,14,163,46,66,58,20,16,9,10,0.5,0.3
2023-05-03T04:00:00,1391A,113.7383,22.9658,东莞市,南城西平,,48,48,46,20,19,144,32,60,46,41,21,6,6,0.2,0.2
2023-05-03T04:00:00,1392A,114.4183,23.0528,惠州市,河南岸金山湖子站,,45,45,41,20,16,129,70,62,62,15,14,5,5,0.5,0.4
2023-05-03T04:00:00,1393A,114.4053,23.0822,惠州市,下埔横江三路子站,,37,37,38,20,15,152,95,82,82,9,12,7,6,0.5,0.5
2023-05-03T04:00:00,1394A,114.4103,23.1142,惠州市,江北云山西路子站,,37,37,38,23,16,157,103,91,91,5,9,9,7,0.5,0.5
2023-05-03T04:00:00,1395A,114.4645,22.7833,惠州市,惠阳区承修路船湖子站,,28,28,38,17,17,122,89,105,96,13,13,6,6,0.5,0.5
2023-05-03T04:00:00,1396A,114.5317,22.7422,惠州市,大亚湾管委会子站,,30,28,44,18,16,145,93,101,99,13,17,9,9,0.4,0.4
2023-05-03T04:00:00,1397A,112.4267,23.0706,肇庆市,睦岗子站,颗粒物(PM10),52,54,46,23,18,147,53,68,60,16,14,13,10,0.4,0.5
2023-05-03T04:00:00,1398A,112.4645,23.0475,肇庆市,城中子站,,,64,48,27,21,144,39,63,51,,19,14,12,0.5,0.6
2023-05-03T04:00:00,1399A,112.5544,23.1522,肇庆市,坑口子站,,36,36,39,19,20,142,41,63,51,21,20,7,6,0.3,0.4
2023-05-03T04:00:00,1400A,112.4753,23.1,肇庆市,七星岩子站,,,,,,,,,,,,,,,,
2023-05-03T04:00:00,1401A,108.3103,22.7881,南宁市,二十一中,,23,23,33,14,20,97,58,68,62,12,10,5,6,0.8,0.8
2023-05-03T04:00:00,1402A,108.3141,22.8528,南宁市,北湖,,26,26,36,13,20,93,57,63,60,8,9,7,8,0.5,0.6
2023-05-03T04:00:00,1403A,108.3206,22.8225,南宁市,市监测站,,25,23,32,17,22,94,56,62,60,15,16,6,7,0.7,0.7
2023-05-03T04:00:00,1404A,108.3829,22.8037,南宁市,大自然花园,,26,21,31,18,22,83,51,59,56,10,10,6,6,0.8,0.8
2023-05-03T04:00:00,1405A,108.4394,22.7904,南宁市,仙葫,,28,28,34,17,19,89,43,61,52,16,13,6,5,0.7,0.6
2023-05-03T04:00:00,1406A,108.2397,22.8467,南宁市,区农职院,,24,24,35,10,17,90,62,65,64,12,14,6,7,0.5,0.5
2023-05-03T04:00:00,1407A,108.3275,22.735,南宁市,英华嘉园,,27,27,38,16,22,83,52,50,50,15,20,6,7,0.7,0.8
2023-05-03T04:00:00,1408A,108.2257,22.7757,南宁市,沙井镇街道办,,30,30,36,21,20,87,46,38,38,24,20,5,5,0.7,0.8
2023-05-03T04:00:00,1409A,110.576,19.9507,海口市,东寨港,,,8,24,9,11,41,14,23,19,,,7,6,0.5,0.5
2023-05-03T04:00:00,1410A,110.3232,20.0574,海口市,海南大学,,31,31,31,10,13,81,53,57,56,5,6,6,6,0.3,0.3
2023-05-03T04:00:00,1411A,110.283,20.0053,海口市,秀英海南医院,,30,30,31,11,14,76,47,55,51,6,8,4,4,0.3,0.5
2023-05-03T04:00:00,1412A,110.338,19.9969,海口市,海南师范大学,,29,29,33,6,13,73,46,49,48,2,3,4,4,0.3,0.3
2023-05-03T04:00:00,1413A,110.33,20.0356,海口市,龙华路环保局宿舍,,31,31,31,11,14,54,36,40,38,4,7,5,5,0.4,0.3
2023-05-03T04:00:00,1414A,106.3787,29.8279,重庆市,缙云山,颗粒物(PM10),58,65,59,27,21,177,81,94,86,11,15,11,11,0.5,0.4
2023-05-03T04:00:00,1416A,106.4213,29.8253,重庆市,天生,颗粒物(PM10),67,83,65,36,34,163,66,72,68,13,20,10,11,0.8,0.7
2023-05-03T04:00:00,1417A,106.6263,29.7228,重庆市,两路,,47,47,59,28,23,167,67,80,73,22,34,6,9,0.6,0.7
2023-05-03T04:00:00,1418A,106.2953,29.5983,重庆市,虎溪,细颗粒物(PM2.5),62,71,65,44,32,157,70,82,73,16,21,22,10,0.6,0.5
2023-05-03T04:00:00,1419A,106.5777,29.5102,重庆市,南坪,颗粒物(PM10),53,56,64,32,30,166,53,72,64,27,23,9,12,0.7,0.6
2023-05-03T04:00:00,1420A,106.6556,29.6277,重庆市,唐家沱,颗粒物(PM10),51,52,60,22,24,182,64,76,67,17,20,7,10,0.8,0.9
2023-05-03T04:00:00,1421A,106.6349,29.4906,重庆市,茶园,,50,50,64,24,26,163,52,62,59,30,31,6,8,0.8,0.8
2023-05-03T04:00:00,1422A,106.3754,29.4572,重庆市,白市驿,,49,49,65,20,27,166,67,63,62,15,24,9,12,0.6,0.7
2023-05-03T04:00:00,1425A,106.6205,29.7166,重庆市,空港,颗粒物(PM10),52,53,70,22,28,177,71,85,78,16,21,7,10,0.6,0.6
2023-05-03T04:00:00,1426A,106.4782,29.4875,重庆市,新山村,颗粒物(PM10),60,69,77,21,29,160,53,56,52,27,35,8,12,0.5,0.6
2023-05-03T04:00:00,1427A,106.5616,29.6453,重庆市,礼嘉,颗粒物(PM10),70,90,64,33,29,177,72,71,70,15,25,8,10,0.7,0.8
2023-05-03T04:00:00,1428A,106.4522,29.7091,重庆市,蔡家,颗粒物(PM10),51,52,67,33,28,160,50,68,54,23,24,9,9,0.7,0.6
2023-05-03T04:00:00,1429A,106.5093,29.3917,重庆市,鱼新街,,48,48,57,31,27,189,64,70,68,18,25,8,12,0.9,0.8
2023-05-03T04:00:00,1431A,103.9728,30.7236,成都市,金泉两河,,46,46,51,31,26,155,59,77,69,7,9,2,2,0.3,0.3
2023-05-03T04:00:00,1432A,104.176,30.6872,成都市,十里店,细颗粒物(PM2.5),63,62,57,45,32,159,50,78,64,13,11,2,2,0.4,0.4
2023-05-03T04:00:00,1433A,104.079,30.5706,成都市,三瓦窑,颗粒物(PM10),53,55,56,28,30,175,63,82,74,6,11,2,2,0.3,0.3
2023-05-03T04:00:00,1434A,104.1114,30.63,成都市,沙河铺,细颗粒物(PM2.5),63,49,54,45,28,172,54,74,64,6,8,2,2,0.4,0.3
2023-05-03T04:00:00,1437A,104.0786,30.6531,成都市,君平街,,50,50,53,26,32,179,66,92,77,13,15,3,2,0.4,0.4
2023-05-03T04:00:00,1438A,103.613,31.0283,成都市,灵岩寺,,49,40,39,34,28,179,114,156,134,7,8,2,4,0.7,0.7
2023-05-03T04:00:00,1439A,106.6899,26.5998,贵阳市,马鞍山,,35,31,42,24,26,110,89,92,91,6,9,5,5,0.5,0.5
2023-05-03T04:00:00,1440A,106.6971,26.5694,贵阳市,市环保站,,43,34,50,30,34,110,92,94,93,5,14,4,4,0.2,0.3
2023-05-03T04:00:00,1441A,106.6243,26.6266,贵阳市,鉴湖路,,44,44,50,22,23,109,87,87,86,4,7,5,4,0.2,0.2
2023-05-03T04:00:00,1442A,106.7487,26.6343,贵阳市,燕子冲,,45,39,50,31,32,108,87,88,88,9,11,5,6,0.7,0.5
2023-05-03T04:00:00,1443A,106.6555,26.4365,贵阳市,碧云窝,,39,39,53,19,21,115,93,96,94,4,8,4,5,0.6,0.6
2023-05-03T04:00:00,1444A,106.694,26.5161,贵阳市,中院村,,41,41,55,19,25,101,80,86,83,10,14,7,7,0.5,0.5
2023-05-03T04:00:00,1445A,106.7109,26.6027,贵阳市,红边门,,45,39,51,31,31,110,86,90,88,9,17,4,4,0.5,0.5
2023-05-03T04:00:00,1446A,106.7164,26.5699,贵阳市,新华路,,39,34,51,27,27,110,89,90,90,7,11,4,3,0.5,0.5
2023-05-03T04:00:00,1447A,106.674,26.5424,贵阳市,太慈桥,,39,39,54,17,20,111,89,92,90,4,8,5,5,0.3,0.4
2023-05-03T04:00:00,1450A,102.8204,24.8886,昆明市,呈贡新区,,32,28,31,18,20,122,100,98,98,6,8,6,6,0.6,0.6
2023-05-03T04:00:00,1451A,102.6251,24.9608,昆明市,西山森林公园,,35,18,24,9,16,126,112,115,114,9,11,6,7,0.7,0.8
2023-05-03T04:00:00,1452A,102.7252,25.0902,昆明市,龙泉镇,,25,24,25,17,19,110,76,92,83,18,12,8,8,0.4,0.5
2023-05-03T04:00:00,1453A,102.7266,25.0375,昆明市,东风东路,,26,24,30,12,17,104,82,84,84,13,11,9,8,0.5,0.6
2023-05-03T04:00:00,1454A,102.6742,25.0669,昆明市,金鼎山,,31,17,27,15,22,111,98,99,95,15,14,10,4,0.8,0.6
2023-05-03T04:00:00,1455A,102.6644,25.0401,昆明市,碧鸡广场,,29,23,31,15,20,116,90,90,86,16,15,6,7,0.5,0.7
2023-05-03T04:00:00,1456A,91.1319,29.6514,拉萨市,八廓街,,36,9,15,1,5,157,114,128,117,8,10,6,6,0.2,0.2
2023-05-03T04:00:00,1457A,91.1221,29.6747,拉萨市,市环保局,,35,10,11,2,4,166,109,127,116,12,11,5,5,0.3,0.4
2023-05-03T04:00:00,1458A,91.0874,29.6475,拉萨市,区监测站,,32,11,12,4,4,156,102,133,115,17,11,6,6,0.1,0.1
2023-05-03T04:00:00,1459A,91.1774,29.6541,拉萨市,西藏大学,,37,6,10,1,4,164,116,135,123,8,8,8,8,0.5,0.5
2023-05-03T04:00:00,1460A,90.9798,29.6588,拉萨市,区辐射站,,31,16,21,5,5,143,99,112,105,13,16,7,8,0.4,0.4
2023-05-03T04:00:00,1461A,91.0834,29.6292,拉萨市,拉萨火车站,,34,10,13,5,3,154,108,128,116,10,7,8,8,0.4,0.3
2023-05-03T04:00:00,1462A,108.882,34.2749,西安市,高压开关厂,颗粒物(PM10),62,74,82,32,35,166,119,108,108,16,27,9,9,0.4,0.4
2023-05-03T04:00:00,1463A,108.993,34.2629,西安市,兴庆小区,颗粒物(PM10),57,64,80,28,26,161,124,116,116,5,10,7,7,0.5,0.6
2023-05-03T04:00:00,1464A,109.06,34.2572,西安市,纺织城,颗粒物(PM10),63,75,88,33,35,164,117,117,117,15,10,10,7,0.5,0.4
2023-05-03T04:00:00,1465A,108.9356,34.2173,西安市,小寨,颗粒物(PM10),60,70,79,22,29,166,113,110,110,8,16,9,9,0.3,0.3
2023-05-03T04:00:00,1466A,108.954,34.2713,西安市,市人民体育场,颗粒物(PM10),56,61,83,29,32,163,118,112,112,10,18,9,8,0.3,0.4
2023-05-03T04:00:00,1467A,108.8922,34.2322,西安市,高新西区,颗粒物(PM10),52,53,73,27,29,175,118,113,113,9,21,8,8,0.4,0.5
2023-05-03T04:00:00,1468A,108.935,34.3474,西安市,经开区,颗粒物(PM10),63,76,84,28,34,156,80,108,95,20,23,4,5,0.3,0.3
2023-05-03T04:00:00,1469A,108.906,34.1546,西安市,长安区,颗粒物(PM10),54,57,75,20,31,176,100,97,97,14,23,7,7,0.5,0.5
2023-05-03T04:00:00,1471A,109.2186,34.3731,西安市,临潼区,颗粒物(PM10),57,63,80,28,31,153,74,122,104,22,23,9,9,0.7,0.8
2023-05-03T04:00:00,1472A,108.869,34.378,西安市,草滩,颗粒物(PM10),67,84,83,23,35,141,76,96,83,23,27,12,11,0.6,0.3
2023-05-03T04:00:00,1473A,108.985,34.1978,西安市,曲江文化产业集团,颗粒物(PM10),77,103,95,28,31,171,114,110,110,13,17,6,7,0.4,0.4
2023-05-03T04:00:00,1474A,109.051,34.3213,西安市,广运潭,颗粒物(PM10),62,74,118,27,33,142,68,108,94,21,19,10,9,0.4,0.4
2023-05-03T04:00:00,1476A,103.631,36.1031,兰州市,兰炼宾馆,,50,46,80,35,50,165,52,88,74,29,28,9,19,0.5,0.6
2023-05-03T04:00:00,1477A,104.1373,35.9454,兰州市,榆中兰大校区,,,,,,,,,,,,,,,,
2023-05-03T04:00:00,1478A,103.8412,36.0726,兰州市,生物制品所,,45,38,81,31,33,150,71,86,79,16,31,6,9,0.5,0.6
2023-05-03T04:00:00,1479A,103.831,36.0464,兰州市,铁路设计院,,44,44,73,29,34,157,56,90,78,30,33,4,8,0.5,0.6
2023-05-03T04:00:00,1483A,101.524,36.6867,西宁市,第五水厂,,,,,,,,,,,,,,,,
2023-05-03T04:00:00,1484A,105.9512,38.6016,银川市,贺兰山马莲口,,39,39,58,16,23,165,105,123,113,8,8,10,11,0.5,0.4
2023-05-03T04:00:00,1488A,106.2328,38.4975,银川市,贺兰山东路,颗粒物(PM10),54,58,98,27,43,148,109,115,110,12,14,8,7,0.3,0.3
2023-05-03T04:00:00,1489A,106.1358,38.5036,银川市,学院路,颗粒物(PM10),65,79,101,20,26,154,98,117,107,16,16,10,13,0.4,0.4
2023-05-03T04:00:00,1490A,87.5801,43.8303,乌鲁木齐市,监测站,颗粒物(PM10),57,63,104,4,21,99,84,60,60,10,16,4,5,0.4,0.4
2023-05-03T04:00:00,1491A,87.6046,43.768,乌鲁木齐市,收费所,颗粒物(PM10),59,67,128,17,27,95,79,63,63,8,14,4,4,0.2,0.2
2023-05-03T04:00:00,1492A,87.4754,43.9469,乌鲁木齐市,新疆农科院农场,细颗粒物(PM2.5),57,35,124,40,59,95,77,50,50,14,17,5,5,0.7,0.7
2023-05-03T04:00:00,1493A,87.5525,43.8711,乌鲁木齐市,铁路局,,,,,,,,,,,,,,,,
2023-05-03T04:00:00,1494A,87.6432,43.831,乌鲁木齐市,三十一中学,颗粒物(PM10),54,57,100,15,20,105,84,73,73,2,5,8,9,0.6,0.6
2023-05-03T04:00:00,1496A,87.7216,44.1747,乌鲁木齐市,米东区环保局,,43,43,84,16,28,106,88,88,88,2,2,8,10,0.3,0.2
2023-05-03T04:00:00,1508A,112.9433,27.8614,湘潭市,板塘,,34,34,72,18,36,91,67,60,60,15,25,12,17,0.2,0.5
2023-05-03T04:00:00,1511A,112.9118,27.8403,湘潭市,市监测站,,,,,,,,,,,,,,,,
2023-05-03T04:00:00,1512A,112.8937,27.8728,湘潭市,江麓,,43,33,69,30,40,106,45,38,38,18,17,16,11,0.5,0.6
2023-05-03T04:00:00,1513A,112.9227,27.8159,湘潭市,岳塘,,33,32,71,23,36,101,73,74,73,1,11,3,9,0.3,0.6
2023-05-03T04:00:00,1514A,112.9074,27.9119,湘潭市,科大,,33,33,72,20,32,109,80,79,79,7,16,6,13,0.7,1
2023-05-03T04:00:00,1515A,113.135,27.8244,株洲市,天台山庄,,46,46,79,25,36,106,77,72,72,5,13,9,14,0.5,0.8
2023-05-03T04:00:00,1518A,113.095,27.8867,株洲市,株冶医院,,29,27,74,20,41,107,83,80,80,6,19,7,12,0.4,0.7
2023-05-03T04:00:00,1519A,113.167,27.8667,株洲市,市四中,,45,45,72,30,41,106,63,68,64,17,19,13,16,0.5,0.6
2023-05-03T04:00:00,1520A,113.143,27.8381,株洲市,火车站,,49,48,74,34,41,105,52,67,60,14,16,10,14,0.7,0.8
2023-05-03T04:00:00,1524A,113.13,27.8528,株洲市,市监测站,,43,34,74,30,42,112,76,74,74,8,16,6,10,0.6,0.8
2023-05-03T04:00:00,1552A,106.805,26.3003,贵阳市,桐木岭,,,,,,,,,,,,,,,,
2023-05-03T04:00:00,1559A,113.251,27.8336,株洲市,大京风景区,,41,41,66,28,33,100,68,70,69,8,10,9,11,0.8,0.9
2023-05-03T04:00:00,1562A,113.0048,27.9153,湘潭市,昭山,,36,29,73,25,33,103,82,79,79,5,14,5,10,0.6,1
2023-05-03T04:00:00,1564A,112.4876,27.9164,湘潭市,韶山,,34,34,55,13,21,101,81,80,80,3,7,7,9,0.8,0.8
2023-05-03T04:00:00,1585A,109.8756,40.6532,包头市,市环境监测站,颗粒物(PM10),86,121,125,43,52,142,68,54,54,36,28,23,25,0.6,0.5
2023-05-03T04:00:00,1587A,109.9991,40.5842,包头市,包头八中,颗粒物(PM10),85,120,131,44,62,144,99,72,72,24,30,21,31,0.7,0.6
2023-05-03T04:00:00,1588A,109.8538,40.6821,包头市,青山宾馆,颗粒物(PM10),80,109,112,44,54,137,63,38,38,38,33,20,22,0.7,0.7
2023-05-03T04:00:00,1589A,109.8642,40.6288,包头市,惠龙物流,颗粒物(PM10),88,126,119,47,54,140,69,55,55,39,30,20,19,0.7,0.5
2023-05-03T04:00:00,1590A,110.0377,40.5546,包头市,东河鸿龙湾,颗粒物(PM10),89,128,138,43,57,136,78,59,59,27,26,22,23,0.6,0.5
2023-05-03T04:00:00,1591A,110.0023,39.8129,鄂尔多斯市,综合楼,颗粒物(PM10),86,122,149,36,51,132,90,96,86,22,22,13,10,0.7,0.6
2023-05-03T04:00:00,1592A,109.9486,39.8261,鄂尔多斯市,巴音孟克林场办事处,颗粒物(PM10),68,85,135,27,38,143,108,105,105,20,17,13,10,0.7,0.6
2023-05-03T04:00:00,1593A,109.7736,39.5986,鄂尔多斯市,康泽苑,颗粒物(PM10),59,68,115,26,43,133,108,102,102,15,18,11,10,0.7,0.6
2023-05-03T04:00:00,1594A,109.8119,39.5989,鄂尔多斯市,华泰汽车城,颗粒物(PM10),56,61,119,24,38,129,95,87,87,16,22,10,9,0.6,0.5
2023-05-03T04:00:00,1595A,109.9734,39.7884,鄂尔多斯市,奥林花园,颗粒物(PM10),80,110,144,27,40,138,80,84,79,30,24,14,10,1.0,0.7
2023-05-03T04:00:00,1597A,122.2703,40.7094,营口市,大庆路,颗粒物(PM10),55,60,61,25,23,183,148,146,146,9,15,5,7,0.5,0.6
2023-05-03T04:00:00,1598A,122.2150,40.6511,营口市,镜湖西路,颗粒物(PM10),53,56,56,17,18,170,130,128,128,12,15,9,10,0.3,0.5
2023-05-03T04:00:00,1599A,122.1658,40.6789,营口市,西炮台,颗粒物(PM10),57,64,74,21,18,187,140,147,142,14,17,7,10,0.4,0.5
2023-05-03T04:00:00,1600A,124.3303,40.0625,丹东市,江湾东路,颗粒物(PM10),59,67,65,28,26,158,127,154,138,16,12,8,12,0.6,0.7
2023-05-03T04:00:00,1601A,124.4256,40.1503,丹东市,临江后街,颗粒物(PM10),62,74,53,25,17,168,79,149,102,22,10,11,13,0.7,0.6
2023-05-03T04:00:00,1602A,124.3933,40.1461,丹东市,元宝山,,45,36,35,30,20,158,141,142,140,8,13,9,9,0.5,0.5
2023-05-03T04:00:00,1603A,124.3633,40.1092,丹东市,民主桥,颗粒物(PM10),59,68,55,27,22,159,90,116,106,15,17,4,6,0.6,0.6
2023-05-03T04:00:00,1604A,122.0303,41.1489,盘锦市,开发区,,40,37,71,21,21,184,127,127,127,14,18,7,11,0.9,1
2023-05-03T04:00:00,1605A,122.0485,41.0883,盘锦市,兴隆台,颗粒物(PM10),53,56,75,15,19,178,124,124,124,15,21,18,11,0.6,0.7
2023-05-03T04:00:00,1606A,121.8297,41.1028,盘锦市,新生街道,,44,42,55,23,21,187,139,140,138,16,19,6,8,0.6,0.6
2023-05-03T04:00:00,1607A,120.9092,40.7136,葫芦岛市,龙港区,,47,47,65,16,20,208,132,143,138,12,15,8,9,0.3,0.3
2023-05-03T04:00:00,1608A,120.8392,40.7514,葫芦岛市,化工街,颗粒物(PM10),52,53,82,19,25,214,130,143,138,7,11,7,8,0.5,0.6
2023-05-03T04:00:00,1609A,120.8341,40.7073,葫芦岛市,新区,颗粒物(PM10),51,52,74,18,23,219,136,151,143,9,13,10,11,0.4,0.5
2023-05-03T04:00:00,1610A,120.8695,40.7677,葫芦岛市,东城区,颗粒物(PM10),54,57,74,15,19,216,136,148,142,9,17,8,9,0.4,0.5
2023-05-03T04:00:00,1611A,118.5819,24.9117,泉州市,涂山街,,48,36,44,33,23,154,55,70,64,20,17,10,10,0.7,0.6
2023-05-03T04:00:00,1612A,118.5972,24.8978,泉州市,津头埔,,49,31,44,34,27,150,60,70,63,17,21,11,11,0.7,0.6
2023-05-03T04:00:00,1613A,118.6663,24.9424,泉州市,万安,细颗粒物(PM2.5),68,35,41,49,31,164,59,77,65,13,11,10,9,0.8,0.6
2023-05-03T04:00:00,1614A,118.6117,24.9604,泉州市,清源山,,,,,,,,,,,,,,,,
2023-05-03T04:00:00,1616A,117.6795,36.229,济南市,技术学院,细颗粒物(PM2.5),68,61,83,49,65,179,114,104,104,29,28,9,11,0.6,0.7
2023-05-03T04:00:00,1618A,118.3429,35.0532,临沂市,沂河小区,颗粒物(PM10),67,83,89,32,42,175,63,100,86,20,16,10,13,0.4,0.3
2023-05-03T04:00:00,1619A,118.295,35.0583,临沂市,鲁南制药厂,颗粒物(PM10),62,73,86,32,35,188,85,110,101,24,22,14,17,0.4,0.4
2023-05-03T04:00:00,1620A,118.2794,34.9976,临沂市,新光毛纺厂,,44,44,57,29,36,177,79,92,89,33,21,11,12,0.5,0.4
2023-05-03T04:00:00,1621A,118.3956,35.0888,临沂市,河东保险公司,颗粒物(PM10),69,88,83,32,38,180,44,86,66,42,31,8,13,1.3,0.6
2023-05-03T04:00:00,1622A,116.3032,37.4674,德州市,儿童乐园,颗粒物(PM10),67,83,90,41,34,180,114,143,126,15,12,11,9,0.8,0.7
2023-05-03T04:00:00,1624A,116.2991,37.4451,德州市,监理站,颗粒物(PM10),71,92,93,31,26,177,106,139,119,23,18,17,13,0.6,0.5
2023-05-03T04:00:00,1625A,115.9848,36.4372,聊城市,区政府,颗粒物(PM10),71,92,96,34,34,170,113,115,112,26,24,12,15,0.7,0.7
2023-05-03T04:00:00,1628A,118.0062,37.3803,滨州市,市环保局,颗粒物(PM10),72,94,98,36,33,181,54,74,65,40,27,14,11,1.2,0.7
2023-05-03T04:00:00,1629A,118.0018,37.3617,滨州市,第二水厂,颗粒物(PM10),87,124,103,42,35,178,36,70,54,60,33,10,8,0.9,0.6
2023-05-03T04:00:00,1630A,117.9776,37.393,滨州市,北中新校,颗粒物(PM10),71,92,95,34,29,181,59,82,67,35,22,11,9,0.8,0.5
2023-05-03T04:00:00,1631A,118.0414,36.8103,淄博市,人民公园,细颗粒物(PM2.5),80,88,81,59,41,169,63,101,81,31,19,13,13,1.1,0.6
2023-05-03T04:00:00,1633A,117.8525,36.4847,淄博市,双山,颗粒物(PM10),51,51,68,22,29,179,106,126,116,31,16,11,11,0.2,0.3
2023-05-03T04:00:00,1634A,117.9592,36.6331,淄博市,气象站,颗粒物(PM10),62,73,83,24,27,182,124,130,129,18,17,17,12,0.6,0.5
2023-05-03T04:00:00,1635A,118.3092,36.8194,淄博市,莆田园,颗粒物(PM10),62,73,78,39,32,168,51,114,82,42,15,9,11,0.6,0.5
2023-05-03T04:00:00,1637A,117.558,34.8438,枣庄市,市中区政府,颗粒物(PM10),74,97,107,41,41,192,89,104,98,37,31,32,20,0.8,0.5
2023-05-03T04:00:00,1638A,117.2852,34.7837,枣庄市,薛城环保局,颗粒物(PM10),64,78,94,34,42,184,107,121,107,27,23,18,13,0.4,0.4
2023-05-03T04:00:00,1639A,117.5852,34.7745,枣庄市,峄城区政府,颗粒物(PM10),64,78,89,24,37,191,109,128,115,20,20,20,15,0.4,0.4
2023-05-03T04:00:00,1640A,117.7276,34.5578,枣庄市,台儿庄区环保局,颗粒物(PM10),57,63,89,29,28,176,72,100,86,28,31,16,13,0.7,0.7
2023-05-03T04:00:00,1641A,117.4518,35.0992,枣庄市,山亭区环保局,颗粒物(PM10),56,61,85,32,40,182,118,132,122,18,18,12,11,0.2,0.3
2023-05-03T04:00:00,1642A,121.2514,37.5639,烟台市,开发区,,46,46,64,22,23,184,143,147,146,8,12,8,9,0.4,0.4
2023-05-03T04:00:00,1643A,121.3719,37.5433,烟台市,轴承厂,颗粒物(PM10),52,53,68,21,23,182,156,155,155,5,6,7,8,0.4,0.4
2023-05-03T04:00:00,1644A,121.3181,37.5436,烟台市,西郊化工站,颗粒物(PM10),54,58,76,20,20,182,155,154,154,4,7,4,5,0.3,0.3
2023-05-03T04:00:00,1645A,121.4478,37.4822,烟台市,莱山环保局,颗粒物(PM10),57,63,74,22,23,181,157,155,155,4,6,9,9,0.3,0.3
2023-05-03T04:00:00,1646A,121.2611,37.4967,烟台市,福山环保局,颗粒物(PM10),57,63,77,19,19,180,142,146,143,10,13,8,9,0.0,0.1
2023-05-03T04:00:00,1650A,119.1437,36.7023,潍坊市,环保局,颗粒物(PM10),57,63,85,20,28,176,98,109,104,12,16,7,9,0.7,0.7
2023-05-03T04:00:00,1653A,116.6251,35.4302,济宁市,火炬城,颗粒物(PM10),58,65,84,27,31,194,103,126,116,20,16,22,18,0.9,0.8
2023-05-03T04:00:00,1655A,116.5491,35.4042,济宁市,电化厂,颗粒物(PM10),66,82,95,36,35,201,104,121,114,20,15,17,16,0.7,0.6
2023-05-03T04:00:00,1656A,117.1437,36.1937,泰安市,监测站,颗粒物(PM10),67,83,80,44,41,175,127,127,124,12,19,13,9,0.7,0.6
2023-05-03T04:00:00,1657A,117.0885,36.2017,泰安市,人口学校,颗粒物(PM10),71,92,83,31,34,172,132,162,142,11,12,12,10,0.5,0.4
2023-05-03T04:00:00,1658A,117.1089,36.1758,泰安市,电力学校,颗粒物(PM10),70,90,84,34,38,173,126,127,124,14,19,16,13,0.6,0.5
2023-05-03T04:00:00,1659A,119.471,35.4209,日照市,监测站,细颗粒物(PM2.5),84,61,71,62,30,160,125,130,128,8,22,2,4,0.2,0.3
2023-05-03T04:00:00,1660A,119.523,35.4216,日照市,市政府广场,颗粒物(PM10),56,61,76,21,24,163,124,134,127,2,14,3,5,0.3,0.3
2023-05-03T04:00:00,1661A,119.5587,35.4044,日照市,港务局,,,,99,22,24,170,134,141,137,7,20,5,7,0.3,0.4
2023-05-03T04:00:00,1662A,122.1214,37.4236,威海市,华夏技校,,46,46,72,22,26,178,137,178,157,9,12,3,4,0.3,0.4
2023-05-03T04:00:00,1663A,122.0508,37.5236,威海市,山大分校,颗粒物(PM10),52,54,88,27,20,196,149,196,172,5,7,1,2,0.4,0.4
2023-05-03T04:00:00,1664A,122.1067,37.5072,威海市,市监测站,,46,46,73,17,28,193,144,189,165,6,7,4,5,0.3,0.3
2023-05-03T04:00:00,1666A,118.6614,37.4309,东营市,市环保局,颗粒物(PM10),53,56,90,22,30,364,82,109,96,19,19,11,13,1.3,0.8
2023-05-03T04:00:00,1669A,113.5824,24.7733,韶关市,市八中,,50,50,44,18,23,125,50,77,60,29,18,18,13,1.1,0.7
2023-05-03T04:00:00,1671A,113.5917,24.7972,韶关市,园林处,,37,37,44,21,20,117,49,50,45,17,14,14,11,0.9,0.7
2023-05-03T04:00:00,1672A,113.6735,24.7791,韶关市,韶关学院,,30,27,44,21,25,125,66,65,62,10,21,12,20,0.5,0.7
2023-05-03T04:00:00,1673A,113.5971,24.6863,韶关市,曲江监测站,,33,33,41,20,23,132,84,66,66,11,16,11,10,0.5,0.6
2023-05-03T04:00:00,1674A,116.6794,23.3667,汕头市,金平子站,,43,20,37,30,20,150,100,113,102,10,19,5,7,0.7,0.7
2023-05-03T04:00:00,1675A,116.7244,23.3633,汕头市,龙湖子站,,36,25,40,25,18,162,115,124,114,8,14,2,5,0.6,0.6
2023-05-03T04:00:00,1676A,116.7258,23.2775,汕头市,濠江子站,,40,20,36,28,19,149,103,107,104,8,11,7,9,0.5,0.5
2023-05-03T04:00:00,1677A,116.7519,23.4714,汕头市,澄海子站,细颗粒物(PM2.5),52,28,42,36,23,162,107,106,102,11,18,8,9,0.5,0.5
2023-05-03T04:00:00,1678A,116.6092,23.2539,汕头市,潮阳子站,,34,27,46,20,18,159,108,110,104,6,14,9,11,0.4,0.4
2023-05-03T04:00:00,1680A,110.3539,21.2706,湛江市,湛江影剧院,,31,31,40,14,18,98,65,74,70,2,4,5,5,0.3,0.4
2023-05-03T04:00:00,1681A,110.3928,21.2228,湛江市,市环境监测站,,27,27,38,12,23,90,64,74,69,2,8,6,6,0.5,0.5
2023-05-03T04:00:00,1682A,110.4019,21.1997,湛江市,环保局宿舍,,29,29,38,12,18,98,67,75,71,2,4,4,4,0.4,0.5
2023-05-03T04:00:00,1683A,110.4111,21.2028,湛江市,霞山游泳场,,32,32,40,14,18,100,70,81,76,4,5,4,5,0.5,0.5
2023-05-03T04:00:00,1684A,110.3316,21.2679,湛江市,麻章区环保局,,29,29,40,13,21,103,68,76,72,4,6,5,5,0.4,0.5
2023-05-03T04:00:00,1685A,110.4558,21.2567,湛江市,坡头区环保局,,25,25,35,15,16,104,70,81,76,4,4,6,6,0.6,0.6
2023-05-03T04:00:00,1686A,111.0286,21.4688,茂名市,电白南海,颗粒物(PM10),52,53,54,17,22,113,89,86,86,4,6,5,5,0.4,0.5
2023-05-03T04:00:00,1687A,110.9294,21.6533,茂名市,茂石化七小,,36,36,39,13,18,95,79,76,76,5,6,4,5,0.5,0.5
2023-05-03T04:00:00,1688A,110.9107,21.6687,茂名市,健康路,,29,29,35,8,13,99,84,80,80,2,5,5,6,0.3,0.4
2023-05-03T04:00:00,1689A,110.8592,21.6828,茂名市,高岭,,44,44,45,19,24,99,81,78,78,6,9,4,5,0.5,0.6
2023-05-03T04:00:00,1690A,116.1231,24.3284,梅州市,梅江月梅,,42,40,43,29,22,154,29,87,48,36,14,8,10,0.5,0.5
2023-05-03T04:00:00,1691A,116.0797,24.2719,梅州市,梅县新城,,39,38,44,27,21,150,40,74,62,29,15,8,9,0.6,0.5
2023-05-03T04:00:00,1692A,116.1248,24.2654,梅州市,环境监控中心,,44,44,47,27,23,153,50,33,33,24,26,4,6,0.5,0.5
2023-05-03T04:00:00,1693A,115.3653,22.775,汕尾市,市环保局,,37,37,40,15,15,149,104,130,118,8,8,10,11,0.6,0.6
2023-05-03T04:00:00,1694A,115.3706,22.7898,汕尾市,市政府,,42,32,40,29,21,156,103,124,112,10,10,6,6,0.7,0.6
2023-05-03T04:00:00,1695A,115.3622,22.7925,汕尾市,新城中学,,,,,,,,,,,,,,,,
2023-05-03T04:00:00,1696A,114.6778,23.7569,河源市,源西,,40,36,41,28,24,121,26,33,29,30,18,5,5,0.7,0.7
2023-05-03T04:00:00,1697A,114.6944,23.7586,河源市,东埔,,38,38,43,24,21,132,26,58,40,28,15,5,6,0.6,0.5
2023-05-03T04:00:00,1698A,114.6892,23.7233,河源市,老城,颗粒物(PM10),53,55,52,23,19,133,37,66,58,20,12,6,6,0.6,0.6
2023-05-03T04:00:00,1699A,111.9797,21.8593,阳江市,鸳鸯湖,,37,37,40,24,20,107,66,71,68,8,5,6,7,0.5,0.5
2023-05-03T04:00:00,1701A,111.9491,21.8658,阳江市,马南垌,,38,38,44,24,20,110,68,73,70,9,7,5,6,0.5,0.6
2023-05-03T04:00:00,1702A,113.0426,23.691,清远市,环保大楼,"颗粒物(PM10),细颗粒物(PM2.5)",52,54,51,36,31,171,31,54,44,27,23,6,6,0.7,0.9
2023-05-03T04:00:00,1703A,113.0208,23.7106,清远市,凤城街办,颗粒物(PM10),52,53,58,24,24,163,37,50,45,14,16,7,7,0.6,0.6
2023-05-03T04:00:00,1705A,116.6367,23.6719,潮州市,西园路,,42,39,54,29,27,146,74,87,70,5,11,4,7,0.4,0.4
2023-05-03T04:00:00,1706A,116.6447,23.6706,潮州市,档案局,,41,41,54,28,34,178,83,96,80,6,11,9,11,0.4,0.5
2023-05-03T04:00:00,1708A,116.3701,23.5345,揭阳市,新兴,,43,43,58,30,26,184,86,92,90,12,22,14,14,0.5,0.6
2023-05-03T04:00:00,1709A,116.3264,23.5443,揭阳市,西马,颗粒物(PM10),56,61,61,29,25,181,87,94,90,13,21,10,10,0.6,0.7
2023-05-03T04:00:00,1710A,116.3611,23.5626,揭阳市,东兴,颗粒物(PM10),57,64,61,33,26,187,81,83,83,15,23,13,11,0.5,0.7
2023-05-03T04:00:00,1711A,116.4151,23.5294,揭阳市,渔湖,,43,43,60,18,30,184,79,93,89,12,21,16,14,0.5,0.6
2023-05-03T04:00:00,1712A,112.0392,22.9169,云浮市,新市府,,28,23,35,19,21,107,63,52,52,4,6,3,4,0.6,0.7
2023-05-03T04:00:00,1714A,112.0539,22.9539,云浮市,牧羊,,26,26,43,17,21,103,65,73,69,9,12,6,8,0.5,0.5
2023-05-03T04:00:00,1715A,102.575,24.3711,玉溪市,东风水库,,46,34,31,32,25,113,88,91,89,11,10,9,8,0.9,0.8
2023-05-03T04:00:00,1718A,115.4208,35.2464,菏泽市,气象局,颗粒物(PM10),80,110,87,40,34,156,88,108,97,21,18,9,9,0.6,0.5
2023-05-03T04:00:00,1719A,115.4747,35.2375,菏泽市,市政协,细颗粒物(PM2.5),65,61,66,47,35,158,86,97,91,18,15,7,7,0.8,0.7
2023-05-03T04:00:00,1721A,113.3819,40.1097,大同市,果树场,,,,,,,,,,,,,,,,
2023-05-03T04:00:00,1723A,113.2994,40.0758,大同市,云冈宾馆,颗粒物(PM10),114,178,154,51,50,141,96,94,92,23,31,8,9,0.5,0.5
2023-05-03T04:00:00,1724A,113.3444,40.0917,大同市,大同大学,颗粒物(PM10),115,179,154,53,52,144,94,96,95,19,19,14,13,0.5,0.5
2023-05-03T04:00:00,1725A,113.2661,40.1269,大同市,安家小村,颗粒物(PM10),188,325,180,58,54,140,101,106,101,22,20,9,10,0.4,0.4
2023-05-03T04:00:00,1726A,113.2711,40.0844,大同市,教育学院,颗粒物(PM10),116,181,154,58,55,136,,,,35,32,9,10,0.5,0.5
2023-05-03T04:00:00,1727A,113.1147,36.1547,长治市,清华站,颗粒物(PM10),66,81,59,34,21,151,83,114,99,27,11,15,9,2.3,0.6
2023-05-03T04:00:00,1728A,113.1031,36.1989,长治市,监测站,颗粒物(PM10),76,101,61,31,26,148,28,121,67,59,16,10,7,1.8,0.6
2023-05-03T04:00:00,1730A,113.0886,36.2125,长治市,审计局,颗粒物(PM10),69,88,59,44,26,153,66,130,95,40,15,14,9,1.2,0.5
2023-05-03T04:00:00,1731A,113.0844,36.1856,长治市,长治八中,颗粒物(PM10),76,102,68,42,31,153,63,128,90,29,10,10,6,1.8,0.5
2023-05-03T04:00:00,1733A,111.5531,36.0783,临汾市,临钢医院,颗粒物(PM10),74,98,85,41,42,190,89,100,96,25,29,4,6,0.8,0.8
2023-05-03T04:00:00,1734A,111.5028,36.0714,临汾市,技工学校,颗粒物(PM10),61,71,75,36,32,197,105,108,108,18,19,4,6,0.8,0.9
2023-05-03T04:00:00,1736A,111.5018,36.0855,临汾市,市委,,,100,91,31,33,199,,115,115,18,19,3,6,0.7,0.8
2023-05-03T04:00:00,1738A,113.5758,37.8572,阳泉市,市中心,颗粒物(PM10),77,104,102,34,34,180,17,89,40,67,37,19,15,1.1,0.9
2023-05-03T04:00:00,1739A,113.4894,37.8731,阳泉市,赛鱼,颗粒物(PM10),68,86,107,45,36,179,35,62,47,20,28,9,12,0.8,0.6
2023-05-03T04:00:00,1740A,113.5819,37.8486,阳泉市,南庄,颗粒物(PM10),84,118,129,48,38,182,69,98,88,24,30,12,14,0.8,0.8
2023-05-03T04:00:00,1742A,113.5614,37.8703,阳泉市,平坦,颗粒物(PM10),94,137,126,58,48,174,7,74,29,89,43,10,11,0.9,0.8
2023-05-03T04:00:00,1743A,113.5158,37.8392,阳泉市,大阳泉,颗粒物(PM10),84,117,109,42,37,179,97,138,122,22,17,13,12,0.8,0.7
2023-05-03T04:00:00,1744A,118.9233,42.2816,赤峰市,松山一中,颗粒物(PM10),58,65,73,29,22,159,158,155,155,16,20,14,13,0.6,0.6
2023-05-03T04:00:00,1745A,118.9576,42.2728,赤峰市,哈达街,颗粒物(PM10),62,73,91,28,29,163,156,157,157,12,19,15,16,0.6,0.6
2023-05-03T04:00:00,1746A,118.8788,42.2554,赤峰市,天义路,臭氧1小时,64,66,85,33,26,175,171,170,170,12,15,14,14,0.1,0.5
2023-05-03T04:00:00,1748A,123.044,41.1196,鞍山市,深沟寺,颗粒物(PM10),51,52,48,22,20,173,145,146,146,5,7,8,9,0.5,0.5
2023-05-03T04:00:00,1749A,123.011,41.0931,鞍山市,太阳城,,47,47,47,16,16,170,148,148,148,8,10,7,8,0.4,0.4
2023-05-03T04:00:00,1750A,123.0485,41.1442,鞍山市,太平,颗粒物(PM10),55,59,58,20,18,166,142,138,138,7,11,10,11,0.4,0.4
2023-05-03T04:00:00,1751A,122.9642,41.0971,鞍山市,铁西三道街,颗粒物(PM10),57,64,75,20,25,156,148,146,146,7,16,4,6,0.6,0.7
2023-05-03T04:00:00,1752A,122.9341,41.0833,鞍山市,铁西工业园区,颗粒物(PM10),59,67,64,20,19,164,143,142,142,10,12,8,9,0.5,0.6
2023-05-03T04:00:00,1753A,123.022,41.0821,鞍山市,明达新区,,48,48,48,18,18,169,152,150,150,7,8,6,7,0.3,0.3
2023-05-03T04:00:00,1754A,123.1289,41.0228,鞍山市,千山,,,,,,,,,,,,,,,,
2023-05-03T04:00:00,1755A,123.7977,41.8491,抚顺市,望花区,颗粒物(PM10),63,76,73,25,24,181,169,163,163,9,15,10,13,0.4,0.5
2023-05-03T04:00:00,1756A,123.9161,41.8822,抚顺市,顺城区,颗粒物(PM10),56,62,59,29,19,184,152,165,162,11,10,7,5,0.9,0.7
2023-05-03T04:00:00,1757A,124.0436,41.8611,抚顺市,东洲区,臭氧1小时,74,63,63,24,20,189,179,173,173,6,7,19,12,0.4,0.6
2023-05-03T04:00:00,1758A,123.9247,41.8642,抚顺市,新抚区,颗粒物(PM10),64,77,67,26,19,184,120,159,146,20,12,11,10,0.5,0.4
2023-05-03T04:00:00,1759A,124.0972,41.8961,抚顺市,大伙房水库,臭氧1小时,88,53,48,20,16,200,190,184,184,4,5,8,8,0.4,0.4
2023-05-03T04:00:00,1760A,123.7086,41.8391,抚顺市,沈抚新城,颗粒物(PM10),60,70,74,27,23,190,163,163,163,13,12,15,13,0.5,0.5
2023-05-03T04:00:00,1761A,123.8275,41.3064,本溪市,大峪,颗粒物(PM10),64,78,60,20,17,164,143,149,148,12,10,4,4,0.5,0.5
2023-05-03T04:00:00,1762A,123.7567,41.3325,本溪市,溪湖,颗粒物(PM10),62,73,61,27,21,170,132,129,129,34,24,28,21,1.1,0.9
2023-05-03T04:00:00,1763A,123.7169,41.3094,本溪市,彩屯,,,93,88,,38,140,120,118,118,43,42,76,73,2.5,2.3
2023-05-03T04:00:00,1764A,123.7669,41.2864,本溪市,东明,颗粒物(PM10),60,70,65,26,23,168,164,160,160,12,14,7,8,0.6,0.6
2023-05-03T04:00:00,1765A,123.7992,41.2664,本溪市,新立屯,颗粒物(PM10),60,70,64,20,18,165,163,158,158,8,10,7,7,0.4,0.4
2023-05-03T04:00:00,1766A,123.8142,41.3472,本溪市,威宁,颗粒物(PM10),68,86,68,23,21,151,123,133,130,15,11,6,7,0.5,0.5
2023-05-03T04:00:00,1767A,121.1115,41.0879,锦州市,南山,颗粒物(PM10),57,64,82,28,30,222,129,136,134,17,20,7,14,0.6,0.6
2023-05-03T04:00:00,1768A,121.0533,40.8434,锦州市,开发区,颗粒物(PM10),73,96,114,24,26,209,127,131,130,19,25,8,12,0.4,0.5
2023-05-03T04:00:00,1769A,121.1836,41.1119,锦州市,百股街道,颗粒物(PM10),54,57,76,24,28,226,131,136,135,14,17,6,9,0.5,0.6
2023-05-03T04:00:00,1770A,121.1178,41.1222,锦州市,天安街道,,,,,,,,,,,,,,,,
2023-05-03T04:00:00,1771A,121.1303,41.1386,锦州市,北湖公园,颗粒物(PM10),51,52,76,20,25,203,122,127,125,16,19,12,18,0.6,0.7
2023-05-03T04:00:00,1772A,126.54,43.8622,吉林市,哈达湾,,50,45,38,16,13,167,157,153,153,4,8,5,5,0.5,0.5
2023-05-03T04:00:00,1773A,126.5844,43.8358,吉林市,东局子,,50,46,39,16,13,163,157,152,152,4,8,6,6,0.4,0.5
2023-05-03T04:00:00,1774A,126.5052,43.8245,吉林市,电力学院,,50,45,40,19,14,166,160,155,155,5,10,7,7,0.5,0.5
2023-05-03T04:00:00,1775A,126.6133,43.8972,吉林市,江北,,48,44,40,15,14,158,152,148,148,3,6,6,7,0.5,0.5
2023-05-03T04:00:00,1776A,126.555,43.8306,吉林市,江南公园,,49,46,44,18,18,162,155,150,150,6,10,6,6,0.4,0.5
2023-05-03T04:00:00,1778A,126.7061,43.7133,吉林市,丰满,,,,,,,,,,,,,,,,
2023-05-03T04:00:00,1779A,123.9305,47.3636,齐齐哈尔市,安居小区,颗粒物(PM10),343,454,351,59,43,125,61,98,75,13,18,3,4,0.4,0.6
2023-05-03T04:00:00,1780A,123.9488,47.3386,齐齐哈尔市,中心广场,颗粒物(PM10),318,434,306,47,42,126,68,102,83,8,16,5,8,0.4,0.6
2023-05-03T04:00:00,1781A,123.9483,47.3227,齐齐哈尔市,农牧车辆厂,颗粒物(PM10),385,488,353,58,35,135,65,105,84,14,15,5,6,0.5,0.5
2023-05-03T04:00:00,1783A,123.945,47.2988,齐齐哈尔市,市环境监测站,颗粒物(PM10),169,287,366,70,60,128,68,99,80,12,13,5,6,0.5,0.6
2023-05-03T04:00:00,1784A,129.61,44.561,牡丹江市,环保大楼,,41,40,29,20,17,140,129,118,118,5,10,4,4,0.2,0.3
2023-05-03T04:00:00,1785A,129.6115,44.5782,牡丹江市,文化广场,,39,29,31,19,18,136,124,122,122,8,17,4,4,0.3,0.4
2023-05-03T04:00:00,1786A,129.5904,44.5963,牡丹江市,第一医院,,39,39,39,10,20,142,122,118,118,5,11,3,3,0.4,0.5
2023-05-03T04:00:00,1787A,129.6364,44.6075,牡丹江市,机车工厂,,39,37,30,9,11,139,123,120,120,6,11,4,4,0.2,0.2
2023-05-03T04:00:00,1788A,129.6386,44.5462,牡丹江市,第一中学,颗粒物(PM10),52,53,33,16,13,140,127,122,122,4,9,2,2,0.3,0.3
2023-05-03T04:00:00,1789A,124.81117,46.03138,大庆市,大同区,颗粒物(PM10),209,356,611,51,60,150,115,146,130,6,10,4,4,0.4,0.4
2023-05-03T04:00:00,1790A,125.129,46.533,大庆市,龙凤区,颗粒物(PM10),170,289,298,41,35,135,124,134,130,8,12,2,3,0.4,0.4
2023-05-03T04:00:00,1791A,124.902,46.408,大庆市,红岗区,颗粒物(PM10),151,251,330,44,43,139,122,139,132,8,12,6,6,0.4,0.5
2023-05-03T04:00:00,1792A,125.153,46.586,大庆市,萨尔图区,颗粒物(PM10),184,317,349,59,53,131,119,130,126,8,13,6,7,0.3,0.3
2023-05-03T04:00:00,1793A,124.9042,46.6215,大庆市,让胡路区,颗粒物(PM10),148,245,247,43,36,144,116,143,131,16,12,6,7,0.4,0.4
2023-05-03T04:00:00,1794A,118.3606,31.3519,芜湖市,监测站,,39,39,62,25,30,158,72,88,78,17,28,10,9,0.6,0.7
2023-05-03T04:00:00,1795A,118.3714,31.4134,芜湖市,科创中心,,49,49,77,28,34,158,55,66,53,23,40,8,7,0.9,0.8
2023-05-03T04:00:00,1796A,118.3673,31.3131,芜湖市,四水厂,,43,43,65,26,32,160,64,87,76,20,31,10,10,0.5,0.6
2023-05-03T04:00:00,1798A,118.5092,31.6837,马鞍山市,湖东路四小,颗粒物(PM10),57,64,57,27,28,166,71,95,84,17,19,10,9,0.7,0.7
2023-05-03T04:00:00,1799A,118.5024,31.6449,马鞍山市,开发区,颗粒物(PM10),60,69,75,34,31,165,62,89,72,19,18,7,7,0.7,0.6
2023-05-03T04:00:00,1800A,118.5228,31.7231,马鞍山市,慈湖,颗粒物(PM10),60,70,61,28,34,164,66,98,82,30,24,35,13,0.6,0.5
2023-05-03T04:00:00,1802A,118.6245,31.7241,马鞍山市,濮塘,,40,34,46,28,24,155,62,92,76,16,13,7,8,1.1,1.1
2023-05-03T04:00:00,1803A,115.9872,29.6815,九江市,十里,颗粒物(PM10),54,57,60,29,25,121,66,57,43,28,31,11,10,0.6,0.7
2023-05-03T04:00:00,1804A,115.9584,29.7046,九江市,茅山头,,50,50,62,31,30,110,41,30,30,44,54,14,10,0.6,0.6
2023-05-03T04:00:00,1805A,115.9877,29.7295,九江市,西园,,38,17,47,26,24,116,16,109,44,69,38,9,9,0.4,0.6
2023-05-03T04:00:00,1806A,116.0172,29.6547,九江市,五七二七厂,,39,39,46,25,22,140,66,119,94,21,10,9,10,0.4,0.4
2023-05-03T04:00:00,1808A,115.9114,29.6038,九江市,综合工业园,,41,41,61,18,26,124,110,66,66,2,35,11,11,0.7,0.7
2023-05-03T04:00:00,1809A,116.0721,29.7535,九江市,石化总厂,,34,34,53,13,20,114,84,92,86,17,20,14,15,0.5,0.5
2023-05-03T04:00:00,1810A,115.9773,29.5698,九江市,庐山气象台,,30,30,39,14,21,119,94,104,100,4,5,7,6,0.6,0.8
2023-05-03T04:00:00,1812A,112.3931,34.6516,洛阳市,市委党校,颗粒物(PM10),67,84,92,46,41,177,35,51,38,47,36,2,5,0.8,0.7
2023-05-03T04:00:00,1814A,112.4657,34.6871,洛阳市,豫西宾馆,颗粒物(PM10),79,107,103,44,39,168,51,64,61,27,24,3,6,1.0,0.9
2023-05-03T04:00:00,1815A,112.494,34.6886,洛阳市,河南林校,颗粒物(PM10),67,84,91,39,34,168,42,64,58,27,28,6,10,0.4,0.4
2023-05-03T04:00:00,1816A,112.3844,34.623,洛阳市,开发区管委会,颗粒物(PM10),65,79,86,39,34,193,24,36,32,34,21,3,7,0.5,0.4
2023-05-03T04:00:00,1817A,112.4267,34.6258,洛阳市,市委新办公区,细颗粒物(PM2.5),64,73,86,46,40,184,35,60,50,27,26,4,7,0.6,0.5
2023-05-03T04:00:00,1818A,114.4839,36.0621,安阳市,棉研所,,,,,,,,,,,,,,,,
2023-05-03T04:00:00,1819A,114.3551,36.1017,安阳市,红庙街,颗粒物(PM10),68,85,101,33,38,144,82,80,80,18,24,8,8,0.7,0.8
2023-05-03T04:00:00,1820A,114.361,36.0681,安阳市,银杏小区,颗粒物(PM10),69,88,94,47,47,137,72,70,70,19,22,12,12,0.7,0.6
2023-05-03T04:00:00,1824A,114.3389,34.7781,开封市,肿瘤医院,颗粒物(PM10),52,53,94,24,33,149,81,76,76,2,10,5,10,0.6,0.5
2023-05-03T04:00:00,1826A,114.2885,34.7965,开封市,世纪星幼儿园,颗粒物(PM10),52,54,86,30,41,151,87,83,83,8,13,4,8,0.6,0.5
2023-05-03T04:00:00,1828A,113.227,35.2125,焦作市,市环保局,颗粒物(PM10),65,80,97,34,32,177,66,92,76,20,25,10,11,0.6,0.6
2023-05-03T04:00:00,1830A,113.1992,35.2590,焦作市,影视城,,,,,,,,,,,,,,,,
2023-05-03T04:00:00,1832A,113.3257,33.742,平顶山市,新华旅馆,,43,43,100,24,38,151,53,79,64,24,26,10,15,0.6,0.5
2023-05-03T04:00:00,1833A,113.2919,33.737,平顶山市,规划设计院,颗粒物(PM10),51,51,86,32,37,160,45,89,67,23,20,5,11,0.7,0.6
2023-05-03T04:00:00,1834A,113.182,33.774,平顶山市,平顶山工学院,,44,44,81,27,30,156,52,83,68,15,15,3,7,0.5,0.4
2023-05-03T04:00:00,1835A,111.1922,34.7752,三门峡市,市政府,颗粒物(PM10),52,54,92,31,34,184,95,107,103,10,17,8,12,0.6,0.5
2023-05-03T04:00:00,1836A,111.1587,34.7942,三门峡市,开发区,颗粒物(PM10),76,101,101,43,41,185,98,124,111,16,19,6,10,0.8,0.7
2023-05-03T04:00:00,1838A,111.143,34.7955,三门峡市,风景区,,,,,,,,,,,,,,,,
2023-05-03T04:00:00,1840A,111.2992,30.6981,宜昌市,白龙岗,"颗粒物(PM10),细颗粒物(PM2.5)",62,73,70,44,35,138,37,52,48,24,29,6,8,0.7,0.7
2023-05-03T04:00:00,1841A,111.3549,30.6465,宜昌市,伍家岗,细颗粒物(PM2.5),73,73,70,53,40,141,12,51,31,53,30,6,9,0.7,0.6
2023-05-03T04:00:00,1842A,111.2628,30.6961,宜昌市,点军区,颗粒物(PM10),56,61,70,36,31,139,28,46,39,21,35,7,9,0.7,0.6
2023-05-03T04:00:00,1843A,111.3275,30.7819,宜昌市,夷陵区,颗粒物(PM10),53,55,65,34,31,133,28,46,34,20,25,6,9,0.5,0.6
2023-05-03T04:00:00,1844A,112.2494,30.3197,荆州市,市图书馆,颗粒物(PM10),55,60,71,30,38,91,38,47,44,12,20,6,12,0.7,0.7
2023-05-03T04:00:00,1845A,112.2008,30.3544,荆州市,市委党校,颗粒物(PM10),55,59,72,34,42,90,34,42,40,15,21,7,11,0.8,0.8
2023-05-03T04:00:00,1847A,113.1094,29.3578,岳阳市,南湖风景区,,35,35,56,17,24,98,87,90,89,1,9,10,12,0.6,0.6
2023-05-03T04:00:00,1848A,113.1493,29.4251,岳阳市,城陵矶,,41,41,58,23,26,102,79,83,82,14,16,11,9,0.6,0.7
2023-05-03T04:00:00,1849A,113.1497,29.3575,岳阳市,开发区,,41,41,57,20,25,97,79,80,80,10,14,11,10,0.7,0.7
2023-05-03T04:00:00,1850A,113.2621,29.4758,岳阳市,云溪区,,30,28,48,20,23,109,95,97,96,3,8,7,8,0.8,0.7
2023-05-03T04:00:00,1851A,112.9943,29.4402,岳阳市,君山区,,44,44,61,27,33,98,78,77,77,8,14,12,10,0.5,0.7
2023-05-03T04:00:00,1852A,113.2117,29.355,岳阳市,金凤水库,,50,50,57,25,27,79,59,62,57,14,15,12,9,0.6,0.6
2023-05-03T04:00:00,1854A,111.6975,28.9703,常德市,市二中,细颗粒物(PM2.5),73,70,64,53,43,96,28,38,32,11,16,14,9,0.5,0.5
2023-05-03T04:00:00,1857A,111.7158,29.1456,常德市,白鹤山,颗粒物(PM10),55,60,64,34,38,93,34,40,37,7,7,7,8,0.8,0.6
2023-05-03T04:00:00,1858A,110.5319,29.1217,张家界市,永定新区,颗粒物(PM10),51,52,60,20,23,72,13,17,12,28,27,3,3,0.2,0.2
2023-05-03T04:00:00,1859A,110.4697,29.1242,张家界市,电业局,,46,46,64,29,32,82,12,25,18,23,25,2,3,0.4,0.4
2023-05-03T04:00:00,1860A,110.5594,29.3547,张家界市,未央路,,35,34,48,24,28,75,11,12,12,7,21,3,3,0.3,0.3
2023-05-03T04:00:00,1861A,110.4417,29.315,张家界市,袁家界,,29,23,38,20,23,114,47,32,32,3,15,7,8,0.6,0.5
2023-05-03T04:00:00,1862A,110.4144,25.3167,桂林市,电子科大尧山校区,,38,38,34,18,23,92,72,81,76,6,7,4,4,0.7,0.7
2023-05-03T04:00:00,1863A,110.2819,25.2697,桂林市,监测站,,35,32,50,24,42,108,70,73,72,6,17,8,8,0.7,0.8
2023-05-03T04:00:00,1864A,110.3089,25.2708,桂林市,龙隐路小学,,35,35,53,24,38,90,60,62,61,8,17,10,10,0.7,0.8
2023-05-03T04:00:00,1865A,110.2869,25.2178,桂林市,八中,,34,34,39,21,28,93,60,64,63,8,14,7,5,0.3,0.6
2023-05-03T04:00:00,1866A,109.2262,21.588,北海市,牛尾岭水库,,23,23,27,11,11,80,60,61,60,3,3,18,10,0.5,0.6
2023-05-03T04:00:00,1867A,109.1436,21.4086,北海市,海滩公园,,30,30,33,5,12,91,65,68,66,4,5,2,2,0.7,0.8
2023-05-03T04:00:00,1868A,109.0981,21.4661,北海市,新市环保局,,30,30,28,0,9,89,65,69,67,3,4,1,2,0.4,0.5
2023-05-03T04:00:00,1869A,109.1778,21.5233,北海市,北海工业园,,35,35,34,12,15,86,64,68,66,4,5,4,4,0.5,0.6
2023-05-03T04:00:00,1870A,109.4856,24.3895,柳州市,柳东小学,,,,,,,,,,,,,,,,
2023-05-03T04:00:00,1871A,109.4157,24.3277,柳州市,环保监测站,,38,38,39,14,22,73,44,53,49,10,11,4,4,0.7,0.7
2023-05-03T04:00:00,1872A,109.389,24.341,柳州市,河西水厂,颗粒物(PM10),56,62,39,20,21,67,38,44,40,10,12,4,4,0.9,1
2023-05-03T04:00:00,1873A,109.4311,24.2921,柳州市,市四中,,31,31,38,20,22,77,46,54,51,10,11,7,7,0.7,0.8
2023-05-03T04:00:00,1874A,109.4006,24.3631,柳州市,市九中,,34,34,43,18,21,74,46,53,50,9,13,7,7,0.6,0.7
2023-05-03T04:00:00,1875A,109.4958,24.3134,柳州市,古亭山,,32,32,33,17,25,86,54,60,58,6,9,2,3,0.6,0.6
2023-05-03T04:00:00,1876A,109.5078,18.2489,三亚市,河东子站,,29,29,28,12,15,74,42,50,45,5,5,2,2,0.6,0.6
2023-05-03T04:00:00,1877A,109.4964,18.2681,三亚市,河西子站,,24,24,26,12,14,67,42,44,44,5,6,2,2,0.3,0.4
2023-05-03T04:00:00,1878A,104.7778,31.4741,绵阳市,富乐山,,44,44,44,23,26,128,38,50,47,8,10,3,3,0.5,0.5
2023-05-03T04:00:00,1879A,104.7563,31.4535,绵阳市,市人大,,46,46,46,24,25,112,55,64,59,11,19,3,5,0.4,0.4
2023-05-03T04:00:00,1880A,104.6697,31.4668,绵阳市,高新区自来水公司,,48,48,48,24,24,129,47,61,54,20,15,5,5,0.5,0.5
2023-05-03T04:00:00,1881A,104.7287,31.5075,绵阳市,三水厂,颗粒物(PM10),54,57,51,34,36,128,32,56,41,24,16,4,5,0.4,0.4
2023-05-03T04:00:00,1882A,104.563,28.793,宜宾市,石马中学,细颗粒物(PM2.5),82,82,86,60,53,170,111,118,112,13,17,5,7,0.6,0.5
2023-05-03T04:00:00,1883A,104.6201,28.7728,宜宾市,市委,细颗粒物(PM2.5),90,101,98,67,57,168,109,101,101,13,22,8,10,0.5,0.5
2023-05-03T04:00:00,1884A,104.6055,28.793,宜宾市,宜宾四中,细颗粒物(PM2.5),99,102,97,74,60,167,115,110,110,14,21,8,9,0.6,0.6
2023-05-03T04:00:00,1885A,104.639,28.7562,宜宾市,市政府,细颗粒物(PM2.5),93,96,97,69,57,185,119,110,110,16,21,8,13,0.5,0.6
2023-05-03T04:00:00,1886A,104.5742,28.7199,宜宾市,黄金嘴,细颗粒物(PM2.5),90,103,95,67,55,187,104,114,109,16,21,8,10,0.4,0.4
2023-05-03T04:00:00,1888A,101.6891,26.571,攀枝花市,弄弄坪,,26,19,39,11,22,121,82,88,86,11,19,8,17,0.3,0.9
2023-05-03T04:00:00,1889A,101.5769,26.5928,攀枝花市,河门口,,23,23,32,13,19,118,58,74,68,27,20,15,18,0.8,1
2023-05-03T04:00:00,1890A,101.7169,26.585,攀枝花市,炳草岗,,28,28,39,12,24,128,66,76,72,20,27,6,9,0.4,0.7
2023-05-03T04:00:00,1891A,101.7369,26.5008,攀枝花市,仁和,,26,15,27,11,20,114,82,91,84,6,11,6,6,0.6,0.7
2023-05-03T04:00:00,1893A,105.4324,28.9634,泸州市,九狮山,颗粒物(PM10),54,57,55,33,28,163,64,113,92,14,12,8,10,0.3,0.3
2023-05-03T04:00:00,1894A,105.4427,28.9063,泸州市,小市上码头,颗粒物(PM10),70,89,84,45,39,170,95,112,105,12,15,11,10,0.6,0.5
2023-05-03T04:00:00,1895A,105.4241,28.8573,泸州市,兰田宪桥,细颗粒物(PM2.5),75,96,87,55,44,170,90,117,104,15,13,46,16,0.7,0.6
2023-05-03T04:00:00,1896A,105.4379,28.8833,泸州市,市环监站,颗粒物(PM10),68,85,76,41,35,158,90,102,98,16,19,9,8,0.6,0.6
2023-05-03T04:00:00,1901A,104.4239,31.1208,德阳市,东山公园,,45,45,47,28,28,131,49,50,43,15,19,1,2,0.5,0.4
2023-05-03T04:00:00,1902A,104.3826,31.1317,德阳市,西小区,,49,49,49,32,30,131,60,54,54,12,12,2,2,0.4,0.5
2023-05-03T04:00:00,1904A,104.3553,31.1091,德阳市,耐火材料厂,,43,39,43,30,30,147,65,62,60,6,8,2,4,0.4,0.3
2023-05-03T04:00:00,1905A,106.056,30.8064,南充市,西山风景区,,36,36,42,24,27,142,45,68,56,6,7,4,5,0.4,0.4
2023-05-03T04:00:00,1906A,106.0789,30.8023,南充市,南充市委,,44,44,53,25,25,144,50,63,54,11,14,9,10,0.4,0.4
2023-05-03T04:00:00,1907A,106.1031,30.8217,南充市,南充炼油厂,,45,45,55,23,26,135,46,60,52,10,12,11,11,0.3,0.3
2023-05-03T04:00:00,1908A,106.1064,30.7856,南充市,高坪区监测站,,45,45,50,21,26,131,46,57,53,12,14,10,12,0.4,0.4
2023-05-03T04:00:00,1909A,106.0642,30.7636,南充市,嘉陵区环保局,,46,46,51,24,28,145,50,66,56,14,17,8,9,0.4,0.5
2023-05-03T04:00:00,1910A,106.1087,30.8388,南充市,市环境监测站,,48,48,54,30,31,134,44,56,49,11,15,13,12,0.5,0.5
2023-05-03T04:00:00,1911A,106.9222,27.6869,遵义市,丁字口,,45,32,38,31,31,112,42,76,63,21,15,7,8,0.6,0.5
2023-05-03T04:00:00,1912A,106.9242,27.7019,遵义市,凤凰山,,42,26,44,29,23,128,91,98,94,10,11,5,6,0.5,0.5
2023-05-03T04:00:00,1913A,106.8906,27.6486,遵义市,忠庄,颗粒物(PM10),53,55,56,29,23,113,66,69,68,6,10,3,3,0.4,0.4
2023-05-03T04:00:00,1914A,106.9231,27.6506,遵义市,舟水桥,,45,41,42,31,23,122,32,80,61,18,11,4,3,0.6,0.6
2023-05-03T04:00:00,1915A,106.9178,27.72,遵义市,干田坝,,38,38,46,24,18,122,65,88,80,12,12,6,7,0.6,0.6
2023-05-03T04:00:00,1916A,103.7897,25.5035,曲靖市,环境监测站,,28,20,31,11,15,118,89,87,87,7,8,8,9,0.7,0.6
2023-05-03T04:00:00,1917A,103.8,25.5364,曲靖市,烟厂办公区,,32,30,31,14,16,133,101,102,101,6,9,3,4,0.8,0.7
2023-05-03T04:00:00,1918A,108.7197,34.3956,咸阳市,气象站,颗粒物(PM10),66,82,84,25,36,147,91,84,84,17,30,6,6,0.3,0.4
2023-05-03T04:00:00,1919A,108.673,34.3155,咸阳市,实验中学,颗粒物(PM10),72,93,85,29,33,167,88,92,90,22,24,7,6,0.7,0.8
2023-05-03T04:00:00,1920A,108.7233,34.3617,咸阳市,师范学院,颗粒物(PM10),66,82,87,22,35,153,94,88,88,15,28,6,7,0.5,0.6
2023-05-03T04:00:00,1922A,109.0656,35.0994,铜川市,党校,细颗粒物(PM2.5),60,53,71,43,51,152,104,97,97,14,20,9,11,0.8,0.8
2023-05-03T04:00:00,1923A,109.0697,35.0697,铜川市,王益区政府,,46,39,62,32,40,153,97,97,97,6,17,5,10,0.3,0.4
2023-05-03T04:00:00,1924A,108.9344,34.9058,铜川市,新区管委会,颗粒物(PM10),52,53,84,24,28,165,107,110,108,19,18,9,10,0.6,0.5
2023-05-03T04:00:00,1926A,109.4131,36.6275,延安市,枣园,颗粒物(PM10),55,59,57,27,23,153,31,24,24,27,25,8,9,0.6,0.6
2023-05-03T04:00:00,1927A,109.4761,36.6028,延安市,延大医附院,颗粒物(PM10),57,64,66,26,25,152,22,30,20,26,22,4,5,0.4,0.4
2023-05-03T04:00:00,1929A,109.5056,36.6106,延安市,百米大道,颗粒物(PM10),81,111,70,54,29,148,18,40,24,66,34,36,8,0.7,0.4
2023-05-03T04:00:00,1930A,107.185,34.3063,宝鸡市,庙沟村,颗粒物(PM10),54,58,54,34,33,170,79,113,94,10,12,7,9,0.6,0.5
2023-05-03T04:00:00,1931A,107.0708,34.3017,宝鸡市,竹园沟,,45,44,47,31,28,167,48,74,62,20,18,7,8,0.4,0.4
2023-05-03T04:00:00,1932A,107.1906,34.3672,宝鸡市,三陆医院,细颗粒物(PM2.5),73,93,80,53,38,174,24,54,34,53,34,10,9,0.6,0.6
2023-05-03T04:00:00,1933A,107.1431,34.3547,宝鸡市,监测站,颗粒物(PM10),55,60,65,34,30,182,50,65,59,22,21,8,8,0.5,0.4
2023-05-03T04:00:00,1934A,107.1186,34.3739,宝鸡市,技工学校,颗粒物(PM10),57,64,66,36,30,172,56,81,68,14,19,7,6,0.5,0.4
2023-05-03T04:00:00,1935A,107.3906,34.3528,宝鸡市,陈仓区环保局家属楼,颗粒物(PM10),69,88,90,38,34,168,38,56,41,43,39,6,17,0.6,0.7
2023-05-03T04:00:00,1936A,107.2058,34.3497,宝鸡市,文理学院,细颗粒物(PM2.5),68,64,67,49,33,183,59,80,70,20,20,8,11,0.6,0.5
2023-05-03T04:00:00,1937A,107.2386,34.3622,宝鸡市,三迪小学,颗粒物(PM10),63,76,75,44,37,178,49,74,64,33,31,9,11,0.6,0.6
2023-05-03T04:00:00,1938A,109.5293,34.5101,渭南市,农科所,颗粒物(PM10),64,78,90,31,43,141,80,60,60,18,30,8,9,0.5,0.5
2023-05-03T04:00:00,1939A,109.4974,34.4877,渭南市,日报社,颗粒物(PM10),53,56,84,26,36,154,97,75,75,13,33,6,7,0.5,0.5
2023-05-03T04:00:00,1940A,109.4636,34.493,渭南市,体育馆,颗粒物(PM10),56,61,85,30,39,155,101,59,59,14,37,8,8,0.4,0.5
2023-05-03T04:00:00,1941A,109.4259,34.5023,渭南市,高新一小,颗粒物(PM10),56,62,96,27,30,153,101,72,72,10,21,4,5,0.5,0.5
2023-05-03T04:00:00,1943A,102.1725,38.5339,金昌市,新川苑,颗粒物(PM10),62,74,104,22,27,134,97,117,106,9,19,8,19,0.5,0.6
2023-05-03T04:00:00,1944A,102.1692,38.5167,金昌市,天庆家园,颗粒物(PM10),57,63,82,24,31,141,79,122,102,18,19,6,12,0.7,0.7
2023-05-03T04:00:00,1945A,98.2908,39.7711,嘉峪关市,气象局,颗粒物(PM10),349,459,188,88,45,126,85,105,87,34,14,70,12,1.7,0.4
2023-05-03T04:00:00,1947A,106.3394,38.817,石嘴山市,沙湖旅游区,颗粒物(PM10),68,85,137,36,36,165,78,82,80,21,21,19,18,0.5,0.5
2023-05-03T04:00:00,1948A,106.3668,39.0145,石嘴山市,大武口朝阳西街,颗粒物(PM10),68,86,126,39,60,154,70,93,83,21,22,24,17,1.1,0.4
2023-05-03T04:00:00,1949A,106.7704,39.2282,石嘴山市,惠农南大街,颗粒物(PM10),60,70,131,41,66,143,71,71,69,17,20,33,23,0.7,0.6
2023-05-03T04:00:00,1950A,106.7099,39.1325,石嘴山市,红果子镇惠新街,颗粒物(PM10),55,60,91,30,62,159,73,71,71,13,17,5,10,0.5,0.6
2023-05-03T04:00:00,1951A,84.895,45.6094,克拉玛依市,长征新村,,30,20,37,7,8,102,95,97,96,2,2,7,7,0.2,0.2
2023-05-03T04:00:00,1952A,84.8988,45.5893,克拉玛依市,南林小区,,30,18,35,9,19,100,93,94,93,1,3,4,4,0.2,0.2
2023-05-03T04:00:00,1954A,84.905,44.3396,克拉玛依市,独山子区,,30,16,64,14,26,109,94,101,95,5,5,5,6,0.3,0.3
2023-05-03T04:00:00,1955A,85.6979,46.098,克拉玛依市,乌尔禾区商贸楼,,30,30,29,1,11,107,89,90,90,2,2,7,8,0.3,0.3
2023-05-03T04:00:00,1956A,86.1472,41.7538,巴音郭楞州,孔雀公园,,33,24,75,19,17,117,103,112,109,1,4,3,3,0.3,0.2
2023-05-03T04:00:00,1957A,86.1972,41.7166,巴音郭楞州,棉纺厂,,40,40,81,15,16,112,100,111,106,3,6,2,3,0.2,0.2
2023-05-03T04:00:00,1958A,86.2357,41.7173,巴音郭楞州,经济开发区,,34,24,74,3,16,117,107,114,110,1,3,6,7,0.2,0.2
2023-05-03T04:00:00,1961A,117.532,36.6868,济南市,东山小学,颗粒物(PM10),69,88,87,27,29,186,61,146,105,55,22,6,9,0.6,0.6
2023-05-03T04:00:00,1966A,120.0405,35.8735,青岛市,黄岛区4号,颗粒物(PM10),57,63,70,22,19,180,135,137,136,5,8,6,6,0.6,0.6
2023-05-03T04:00:00,1982A,122.0693,37.2174,威海市,文登开发区,颗粒物(PM10),52,53,82,17,22,171,133,171,153,7,10,4,5,0.3,0.3
2023-05-03T04:00:00,2031A,113.1817,27.9958,株洲市,云田中学,,49,48,70,34,38,119,71,76,72,7,9,7,10,0.5,0.6
2023-05-03T04:00:00,2054A,114.1099,32.1059,信阳市,平桥分局,,40,27,58,28,32,126,80,94,88,6,12,6,9,0.4,0.4
2023-05-03T04:00:00,2064A,113.9956,32.1271,信阳市,南湾水厂,,49,49,64,24,26,132,60,86,73,5,8,5,7,0.7,0.7
2023-05-03T04:00:00,2065A,114.0775,32.1195,信阳市,市酿酒公司,,39,33,54,27,32,131,89,98,94,7,16,6,9,0.6,0.6
2023-05-03T04:00:00,2066A,114.0609,32.1399,信阳市,审计局,,34,34,62,23,34,132,90,99,95,6,14,6,8,0.6,0.5
2023-05-03T04:00:00,2067A,114.6613,33.6128,周口市,市环境监测站,颗粒物(PM10),54,57,89,33,35,142,84,107,99,7,11,3,7,0.6,0.4
2023-05-03T04:00:00,2068A,114.6758,33.6347,周口市,周口师范,,39,39,96,24,36,135,80,106,95,7,11,7,11,0.5,0.4
2023-05-03T04:00:00,2069A,114.6546,33.5979,周口市,市运管处,,45,41,86,31,28,141,89,102,96,10,12,6,11,0.6,0.4
2023-05-03T04:00:00,2070A,114.6369,33.6406,周口市,川汇区环保局,,39,39,104,22,31,130,84,101,94,6,12,6,10,0.6,0.5
2023-05-03T04:00:00,2075A,117.6336,24.4674,漳州市,九湖,,,,,,,,,,,,,,,,
2023-05-03T04:00:00,2160A,112.85,35.5051,晋城市,自来水公司,颗粒物(PM10),56,61,67,24,22,193,104,133,112,18,17,14,13,0.8,0.7
2023-05-03T04:00:00,2161A,112.8318,35.4936,晋城市,白云商贸,颗粒物(PM10),69,88,72,29,26,181,76,106,90,20,16,6,7,0.6,0.6
2023-05-03T04:00:00,2162A,112.8508,35.4887,晋城市,市环保局,颗粒物(PM10),66,81,74,29,31,189,96,114,97,25,20,10,10,0.6,0.5
2023-05-03T04:00:00,2163A,112.8676,35.4897,晋城市,技术学院,颗粒物(PM10),66,82,69,31,27,178,94,119,102,18,16,9,9,0.3,0.3
2023-05-03T04:00:00,2165A,112.8453,35.546,晋城市,白马寺,,,,,,,,,,,,,,,,
2023-05-03T04:00:00,2166A,112.4397,39.3522,朔州市,平朔,颗粒物(PM10),84,117,152,56,64,140,91,98,95,13,9,5,6,0.7,0.5
2023-05-03T04:00:00,2167A,112.4575,39.3617,朔州市,朔唯,颗粒物(PM10),92,134,160,51,55,137,93,100,92,21,16,9,10,0.6,0.6
2023-05-03T04:00:00,2168A,112.4258,39.3197,朔州市,区政府,颗粒物(PM10),92,134,157,41,44,142,99,117,111,6,7,4,4,0.6,0.5
2023-05-03T04:00:00,2169A,112.4072,39.3278,朔州市,市环保局,颗粒物(PM10),91,131,156,44,52,125,90,99,96,14,13,4,5,0.6,0.6
2023-05-03T04:00:00,2170A,112.4272,39.3681,朔州市,市二中,细颗粒物(PM2.5),108,130,155,81,62,149,93,110,102,20,10,5,6,0.4,0.4
2023-05-03T04:00:00,2171A,112.7532,37.6945,晋中市,锦纶小区,"颗粒物(PM10),细颗粒物(PM2.5)",82,114,106,60,42,196,125,125,125,20,20,13,13,0.7,0.5
2023-05-03T04:00:00,2173A,112.7249,37.7067,晋中市,南都小区,颗粒物(PM10),91,132,111,46,34,192,116,113,113,23,19,10,11,0.9,0.7
2023-05-03T04:00:00,2174A,112.6991,37.6982,晋中市,榆次区政府,颗粒物(PM10),96,141,113,42,28,179,113,115,114,24,19,12,14,0.8,0.8
2023-05-03T04:00:00,2175A,110.9956,35.0147,运城市,运城中学,颗粒物(PM10),59,67,70,26,29,185,126,139,132,4,6,6,8,0.4,0.4
2023-05-03T04:00:00,2178A,110.9686,35.0303,运城市,地区技校,颗粒物(PM10),65,80,84,30,23,189,128,138,130,6,14,5,6,0.6,0.5
2023-05-03T04:00:00,2179A,111.0414,35.1147,运城市,空港新区,颗粒物(PM10),58,66,94,27,27,163,105,134,118,7,9,7,8,0.6,0.4
2023-05-03T04:00:00,2181A,112.7383,38.4519,忻州市,开发区,颗粒物(PM10),71,91,115,44,44,176,151,157,151,9,18,15,14,0.9,0.7
2023-05-03T04:00:00,2182A,112.7003,38.4928,忻州市,会展中心,颗粒物(PM10),82,114,120,51,46,164,97,125,116,26,24,8,12,0.6,0.6
2023-05-03T04:00:00,2183A,111.1406,37.5211,吕梁市,环保局,颗粒物(PM10),67,83,95,19,21,153,74,43,43,31,50,11,7,0.5,0.6
2023-05-03T04:00:00,2185A,111.1297,37.5136,吕梁市,自来水公司,颗粒物(PM10),72,94,115,15,21,147,98,70,70,21,34,12,8,0.4,0.5
2023-05-03T04:00:00,2187A,106.8174,39.6973,乌海市,市林业局,颗粒物(PM10),68,85,133,25,42,148,93,100,94,20,21,33,37,0.9,0.8
2023-05-03T04:00:00,2188A,106.7907,39.6667,乌海市,中海勃湾学校,颗粒物(PM10),65,79,137,23,36,150,106,110,109,15,21,19,34,0.5,0.5
2023-05-03T04:00:00,2191A,122.2532,43.6801,通辽市,艺术职业学校,颗粒物(PM10),87,123,355,43,66,187,132,148,139,14,18,6,8,0.6,0.6
2023-05-03T04:00:00,2192A,119.7594,49.2261,呼伦贝尔市,区环保局,,46,46,309,23,53,179,72,82,77,2,6,5,5,0.1,0.2
2023-05-03T04:00:00,2195A,107.4212,40.761,巴彦淖尔市,附二中,细颗粒物(PM2.5),99,133,152,74,64,137,93,108,100,12,15,4,8,0.4,0.5
2023-05-03T04:00:00,2196A,107.37,40.7372,巴彦淖尔市,市环保大楼,颗粒物(PM10),79,107,162,53,52,135,103,109,106,5,11,4,9,0.4,0.6
2023-05-03T04:00:00,2197A,113.1306,40.9923,乌兰察布市,集宁新区,颗粒物(PM10),83,116,106,43,36,143,111,112,112,15,14,16,13,0.6,0.5
2023-05-03T04:00:00,2200A,122.0392,46.0656,兴安盟,胜华新制药厂,颗粒物(PM10),100,149,202,24,57,150,86,102,88,8,13,3,6,0.3,0.5
2023-05-03T04:00:00,2201A,121.9504,46.0741,兴安盟,科右前旗环保局,颗粒物(PM10),112,174,232,44,55,147,82,95,86,9,15,3,5,0.6,0.7
2023-05-03T04:00:00,2202A,116.1042,43.9317,锡林郭勒盟,市环保监测站,颗粒物(PM10),86,122,154,20,30,112,48,39,38,11,10,11,11,0.2,0.3
2023-05-03T04:00:00,2203A,116.0781,43.9311,锡林郭勒盟,市政府,颗粒物(PM10),89,127,155,19,31,113,50,32,32,16,18,10,8,0.2,0.2
2023-05-03T04:00:00,2204A,105.6467,38.8363,阿拉善盟,西城区西花园,颗粒物(PM10),62,74,92,33,35,145,112,124,118,8,9,9,9,0.5,0.4
2023-05-03T04:00:00,2205A,105.6985,38.8411,阿拉善盟,蒙二幼,颗粒物(PM10),62,74,107,31,37,160,126,140,134,10,7,15,10,0.6,0.6
2023-05-03T04:00:00,2206A,105.724,38.8516,阿拉善盟,环保局新楼,细颗粒物(PM2.5),59,45,72,42,49,167,134,144,140,5,6,7,8,0.5,0.5
2023-05-03T04:00:00,2207A,121.6094,41.998,阜新市,工业园区,颗粒物(PM10),66,82,305,26,30,202,127,126,126,10,12,13,13,0.5,0.5
2023-05-03T04:00:00,2208A,121.6697,42.0279,阜新市,长青街,颗粒物(PM10),56,61,221,31,27,211,128,128,128,12,15,13,14,0.5,0.6
2023-05-03T04:00:00,2209A,121.6673,42.0705,阜新市,农业园区,颗粒物(PM10),57,63,148,22,31,205,135,136,136,11,13,11,11,0.4,0.9
2023-05-03T04:00:00,2210A,121.6717,42.0224,阜新市,东苑,颗粒物(PM10),61,72,203,34,36,200,125,124,124,10,16,14,13,0.5,0.7
2023-05-03T04:00:00,2211A,121.6506,42.0498,阜新市,玉龙新城,颗粒物(PM10),51,52,193,26,29,202,121,122,122,9,11,12,11,0.5,0.7
2023-05-03T04:00:00,2212A,123.2,41.1953,辽阳市,宏伟区,,50,50,47,18,16,162,153,148,148,8,10,10,11,0.4,0.4
2023-05-03T04:00:00,2213A,123.1683,41.2495,辽阳市,新华园,颗粒物(PM10),53,55,59,22,20,152,140,136,136,6,8,11,11,0.4,0.4
2023-05-03T04:00:00,2214A,123.2354,41.2639,辽阳市,滨河路,颗粒物(PM10),55,60,59,24,20,141,134,131,131,10,12,6,6,0.3,0.3
2023-05-03T04:00:00,2215A,123.149,41.2991,辽阳市,铁西工业园,颗粒物(PM10),54,58,80,22,22,151,144,140,140,9,12,7,8,0.4,0.4
2023-05-03T04:00:00,2216A,123.8139,42.3022,铁岭市,汇工街西,颗粒物(PM10),53,56,78,22,31,162,145,136,136,10,12,11,11,0.6,0.6
2023-05-03T04:00:00,2217A,123.8649,42.2923,铁岭市,水上乐园,颗粒物(PM10),53,56,66,19,19,172,145,142,142,12,13,8,8,0.5,0.4
2023-05-03T04:00:00,2218A,123.8486,42.2867,铁岭市,银州路东段,颗粒物(PM10),58,66,70,22,17,160,142,137,137,7,12,10,10,0.6,0.5
2023-05-03T04:00:00,2219A,123.7153,42.2217,铁岭市,金沙江路北,颗粒物(PM10),54,58,81,24,20,160,143,136,136,14,16,12,10,0.5,0.5
2023-05-03T04:00:00,2220A,120.4318,41.5881,朝阳市,西梁,颗粒物(PM10),51,52,73,20,37,197,138,165,151,12,14,11,11,0.7,0.8
2023-05-03T04:00:00,2221A,120.4521,41.5646,朝阳市,河畔小区,颗粒物(PM10),55,59,90,17,24,211,146,180,163,11,12,12,13,0.6,0.7
2023-05-03T04:00:00,2222A,120.4176,41.5648,朝阳市,八里堡,颗粒物(PM10),57,63,88,20,28,200,132,167,149,13,14,12,13,0.6,0.7
2023-05-03T04:00:00,2223A,120.3806,41.5969,朝阳市,农业园区,颗粒物(PM10),60,69,95,21,32,196,133,156,148,11,16,10,13,0.6,0.7
2023-05-03T04:00:00,2225A,124.4002,43.1713,四平市,一商场,,44,34,72,23,26,167,140,136,136,5,8,7,8,0.2,0.3
2023-05-03T04:00:00,2226A,124.388,43.193,四平市,境园,,44,44,77,4,27,168,134,130,130,7,8,6,7,0.1,0.3
2023-05-03T04:00:00,2227A,125.1358,42.8845,辽源市,环保局,,46,27,31,14,15,162,147,140,140,2,5,6,7,0.3,0.4
2023-05-03T04:00:00,2229A,125.9358,41.7173,通化市,光明,臭氧1小时,62,60,47,22,18,172,169,172,171,3,12,10,17,0.4,0.6
2023-05-03T04:00:00,2230A,125.9446,41.7325,通化市,铁路,颗粒物(PM10),55,60,51,26,20,169,156,169,164,13,16,9,15,0.3,0.4
2023-05-03T04:00:00,2231A,126.4219,41.9171,白山市,喜丰,颗粒物(PM10),61,72,75,21,20,151,138,150,146,11,16,12,13,1.1,1.2
2023-05-03T04:00:00,2232A,126.4077,41.9419,白山市,环保局,颗粒物(PM10),63,75,62,18,19,163,156,162,159,8,12,15,13,0.5,0.5
2023-05-03T04:00:00,2233A,124.8006,45.1214,松原市,江南,颗粒物(PM10),137,223,381,50,69,168,121,133,127,3,7,6,6,0.4,0.4
2023-05-03T04:00:00,2234A,124.7965,45.1722,松原市,江北,颗粒物(PM10),179,307,468,53,66,162,112,124,119,9,11,1,4,0.3,0.5
2023-05-03T04:00:00,2235A,122.7911,45.6077,白城市,洮北区环保局,颗粒物(PM10),149,248,529,50,68,169,119,152,137,12,11,5,4,0.3,0.3
2023-05-03T04:00:00,2236A,122.8738,45.5725,白城市,市环保局,颗粒物(PM10),129,207,463,50,74,165,124,152,140,7,8,5,6,0.6,0.5
2023-05-03T04:00:00,2237A,129.47,42.8883,延边朝鲜族自治州,妇幼医院,,,140,44,,17,129,46,50,48,23,17,10,8,0.7,0.6
2023-05-03T04:00:00,2238A,129.5055,42.9108,延边朝鲜族自治州,延边医院,,31,31,34,12,14,119,66,58,58,15,19,8,8,0.5,0.5
2023-05-03T04:00:00,2239A,129.3964,42.8881,延边朝鲜族自治州,朝阳川镇医院,颗粒物(PM10),51,52,35,25,15,127,14,30,20,23,15,7,7,0.6,0.5
2023-05-03T04:00:00,2240A,130.9762,45.3001,鸡西市,环保局,,40,37,38,16,16,127,127,118,118,6,12,5,5,0.4,0.5
2023-05-03T04:00:00,2243A,130.9429,45.3039,鸡西市,第一中学,,40,39,30,18,13,126,126,116,116,2,3,6,5,0.4,0.4
2023-05-03T04:00:00,2244A,130.2537,47.3416,鹤岗市,哈啤分公司,颗粒物(PM10),60,69,44,18,15,144,97,83,83,11,14,11,12,0.3,0.3
2023-05-03T04:00:00,2245A,130.2684,47.3086,鹤岗市,斯达机电,颗粒物(PM10),59,68,55,23,18,138,97,87,87,13,13,7,7,0.2,0.3
2023-05-03T04:00:00,2246A,130.3114,47.3388,鹤岗市,东山纸板厂,颗粒物(PM10),51,52,64,26,18,127,54,67,54,20,18,9,9,0.6,0.4
2023-05-03T04:00:00,2247A,130.1097,47.3382,鹤岗市,五号水库,,45,45,31,17,12,159,128,78,78,6,9,9,9,0.1,0.1
2023-05-03T04:00:00,2248A,131.1511,46.6937,双鸭山市,双合村,,50,50,51,17,20,142,142,139,139,6,9,7,10,0.6,0.8
2023-05-03T04:00:00,2249A,131.1652,46.6191,双鸭山市,南小市,颗粒物(PM10),53,56,46,14,14,135,135,132,132,4,8,4,4,0.4,0.5
2023-05-03T04:00:00,2250A,131.1524,46.6554,双鸭山市,环保局,,42,41,32,18,16,136,133,127,127,4,8,6,7,0.5,0.5
2023-05-03T04:00:00,2251A,131.12,46.5656,双鸭山市,苗圃,,45,22,18,15,11,154,144,146,144,6,7,3,4,0.3,0.3
2023-05-03T04:00:00,2252A,128.5159,47.4311,伊春市,环保局,颗粒物(PM10),73,96,64,34,26,173,139,134,134,8,10,7,6,0.4,0.4
2023-05-03T04:00:00,2253A,128.9102,47.7412,伊春市,电力嘉园,颗粒物(PM10),90,130,74,24,19,175,140,135,135,5,8,5,8,0.6,0.6
2023-05-03T04:00:00,2254A,129.5029,48.471,伊春市,汤旺河国家公园,颗粒物(PM10),165,280,50,52,24,154,103,86,86,5,5,5,5,0.8,0.8
2023-05-03T04:00:00,2255A,130.2751,46.8028,佳木斯市,佳纺,,47,47,32,17,14,135,135,128,128,5,5,4,4,0.4,0.4
2023-05-03T04:00:00,2256A,130.3995,46.8307,佳木斯市,发电厂,颗粒物(PM10),52,54,38,20,15,133,133,128,128,11,11,6,5,0.3,0.3
2023-05-03T04:00:00,2257A,130.3258,46.7975,佳木斯市,环保局,,44,44,32,17,14,129,129,125,125,6,8,4,4,0.4,0.4
2023-05-03T04:00:00,2258A,130.3648,46.8032,佳木斯市,十一中,,50,50,38,18,16,134,134,128,128,6,11,8,7,0.4,0.4
2023-05-03T04:00:00,2259A,130.3794,46.7588,佳木斯市,四丰,臭氧1小时,74,39,28,17,13,179,179,172,172,4,4,1,1,0.3,0.2
2023-05-03T04:00:00,2262A,131.0518,45.8751,七台河市,新一中,,40,38,34,19,17,145,127,127,127,10,8,8,8,0.7,0.7
2023-05-03T04:00:00,2263A,127.4833,50.2524,黑河市,交通局,颗粒物(PM10),77,103,57,16,16,148,70,78,75,11,13,9,9,0.5,0.6
2023-05-03T04:00:00,2264A,127.5144,50.2341,黑河市,环保局,颗粒物(PM10),86,121,80,26,21,155,80,87,83,9,13,6,5,0.5,0.5
2023-05-03T04:00:00,2265A,127.5291,50.2472,黑河市,大黑河岛,颗粒物(PM10),52,53,49,34,25,333,86,100,94,4,3,5,4,0.5,0.4
2023-05-03T04:00:00,2266A,126.9785,46.6365,绥化市,人和东街,颗粒物(PM10),114,177,153,25,26,151,115,131,119,6,11,7,10,0.4,0.5
2023-05-03T04:00:00,2267A,126.964,46.6528,绥化市,党政办公中心,颗粒物(PM10),111,171,149,26,33,167,126,144,132,4,7,6,7,0.4,0.4
2023-05-03T04:00:00,2269A,124.1069,50.4097,大兴安岭地区,科技局,颗粒物(PM10),67,83,85,22,18,132,94,122,108,4,11,4,5,0.2,0.4
2023-05-03T04:00:00,2270A,117.396,32.939,蚌埠市,工人疗养院,,46,46,60,23,27,163,88,116,105,19,20,7,9,0.6,0.6
2023-05-03T04:00:00,2271A,117.3605,32.9427,蚌埠市,百货大楼,,28,27,63,15,25,161,89,112,104,8,12,3,6,0.5,0.5
2023-05-03T04:00:00,2273A,117.4185,32.8911,蚌埠市,蚌埠学院,,46,46,73,29,27,149,71,100,90,16,14,5,8,0.6,0.5
2023-05-03T04:00:00,2274A,117.3533,32.9673,蚌埠市,淮上区政府,,41,41,68,22,26,164,89,113,104,9,12,4,8,0.5,0.4
2023-05-03T04:00:00,2275A,117.3145,32.8977,蚌埠市,高新区,,44,44,70,27,28,159,84,104,95,10,10,5,8,0.7,0.5
2023-05-03T04:00:00,2277A,116.8305,32.7727,淮南市,潘集区政府,,36,36,68,23,37,157,72,78,76,8,15,5,9,0.3,0.2
2023-05-03T04:00:00,2278A,117.0067,32.6524,淮南市,师范学院,,50,50,73,27,33,158,80,89,82,6,13,5,7,0.3,0.3
2023-05-03T04:00:00,2279A,116.8569,32.5951,淮南市,谢家集区政府,,32,32,63,13,25,163,80,76,76,8,14,4,7,0.2,0.3
2023-05-03T04:00:00,2280A,116.8281,32.633,淮南市,八公山区政府,颗粒物(PM10),51,52,74,21,26,156,84,79,79,6,14,2,9,0.3,0.3
2023-05-03T04:00:00,2281A,116.6325,32.6201,淮南市,焦岗湖风景区管理处,,35,35,51,17,26,141,64,73,66,7,14,8,11,0.3,0.3
2023-05-03T04:00:00,2282A,116.8004,33.975,淮北市,监测站,颗粒物(PM10),61,72,90,8,29,171,83,87,83,14,21,8,9,0.6,0.7
2023-05-03T04:00:00,2283A,116.8091,33.9007,淮北市,烈山区政府,细颗粒物(PM2.5),52,49,81,36,34,169,75,74,74,20,23,11,13,0.6,0.6
2023-05-03T04:00:00,2284A,116.7856,33.9477,淮北市,职业技术学院,颗粒物(PM10),61,72,94,40,37,163,76,80,78,17,21,7,9,0.6,0.6
2023-05-03T04:00:00,2285A,117.8177,30.9412,铜陵市,市第四中学,,33,27,58,6,20,138,104,101,99,9,31,4,7,0.3,0.6
2023-05-03T04:00:00,2286A,117.8059,30.9273,铜陵市,市公路局,,31,31,58,1,20,128,90,95,89,9,27,6,12,0.5,0.8
2023-05-03T04:00:00,2287A,117.7807,30.9413,铜陵市,市新民污水厂,,29,26,55,16,24,152,90,100,92,8,33,8,10,0.4,0.6
2023-05-03T04:00:00,2288A,117.7439,30.8792,铜陵市,市第九中学,,38,38,77,20,21,140,67,100,68,48,49,11,9,0.5,0.6
2023-05-03T04:00:00,2289A,117.846,30.9413,铜陵市,车站新区,,29,29,47,3,17,140,92,110,102,14,22,8,11,0.4,0.6
2023-05-03T04:00:00,2290A,117.8483,30.97,铜陵市,市职教基地,,32,20,50,14,18,137,100,95,95,7,19,5,9,0.4,0.6
2023-05-03T04:00:00,2291A,117.0809,30.5177,安庆市,环科院,颗粒物(PM10),52,53,55,33,30,127,61,32,32,16,38,9,8,0.5,0.5
2023-05-03T04:00:00,2292A,117.0331,30.5119,安庆市,马山宾馆,"颗粒物(PM10),细颗粒物(PM2.5)",54,58,54,38,29,128,48,39,39,21,26,13,12,0.7,0.6
2023-05-03T04:00:00,2294A,116.9896,30.6145,安庆市,安庆大学,,50,50,58,34,29,134,53,50,50,11,17,8,12,0.5,0.4
2023-05-03T04:00:00,2295A,118.2903,29.6963,黄山市,延安路89号,,37,37,43,21,26,141,21,26,23,20,16,7,7,0.4,0.3
2023-05-03T04:00:00,2296A,118.327,29.7178,黄山市,黄山东路89号,,39,39,39,11,20,135,24,35,30,15,14,6,7,0.6,0.6
2023-05-03T04:00:00,2297A,118.1371,30.2756,黄山市,黄山区政府5号楼,,26,26,43,17,19,126,33,46,39,7,10,6,6,0.6,0.6
2023-05-03T04:00:00,2298A,118.3093,32.3153,滁州市,老年大学,,40,40,60,23,24,170,65,92,79,20,20,8,8,0.8,0.5
2023-05-03T04:00:00,2299A,118.3244,32.2786,滁州市,人大宾馆,,47,47,62,25,29,172,67,80,68,28,25,8,8,0.9,0.5
2023-05-03T04:00:00,2301A,115.8277,32.8929,阜阳市,市监测站,,24,24,62,13,26,125,64,85,70,11,20,5,8,0.5,0.5
2023-05-03T04:00:00,2303A,115.8554,32.8605,阜阳市,开发区,,38,38,68,17,24,140,70,85,72,10,19,6,8,0.4,0.5
2023-05-03T04:00:00,2307A,116.5079,31.737,六安市,监测大楼,,35,35,46,14,20,116,86,94,88,2,10,3,5,0.3,0.3
2023-05-03T04:00:00,2308A,116.4738,31.7643,六安市,皖西学院,,38,38,53,16,19,120,79,97,84,3,9,4,5,0.3,0.3
2023-05-03T04:00:00,2309A,116.4996,31.7905,六安市,朝阳厂,,50,50,44,19,17,128,76,91,86,8,11,4,6,0.4,0.4
2023-05-03T04:00:00,2310A,116.5567,31.7886,六安市,开发区,,38,38,64,20,27,121,66,87,76,8,15,4,16,0.4,0.4
2023-05-03T04:00:00,2311A,115.8072,33.8399,亳州市,污水处理厂,,42,42,71,22,30,164,88,80,80,1,10,4,8,0.5,0.5
2023-05-03T04:00:00,2312A,115.7789,33.8518,亳州市,三国揽胜宫,颗粒物(PM10),52,54,79,32,30,149,79,79,76,5,13,4,8,0.6,0.6
2023-05-03T04:00:00,2314A,117.47,30.6618,池州市,池州学院,,49,49,60,30,31,160,60,64,62,12,23,5,7,0.5,0.6
2023-05-03T04:00:00,2316A,118.7581,30.9454,宣城市,鳌峰子站,,36,36,55,25,25,115,84,81,81,12,12,4,4,0.4,0.4
2023-05-03T04:00:00,2317A,118.7385,30.9743,宣城市,敬亭山子站,,33,33,53,18,25,121,62,60,60,22,18,7,8,0.4,0.4
2023-05-03T04:00:00,2318A,118.7173,30.9427,宣城市,开发区子站,,36,36,50,24,24,122,78,79,78,15,13,11,9,0.5,0.5
2023-05-03T04:00:00,2319A,119.0141,25.4325,莆田市,荔城区仓后路,,50,42,43,35,26,129,27,60,44,22,14,6,7,0.9,0.8
2023-05-03T04:00:00,2320A,119.0015,25.4553,莆田市,莆田市监测站,,32,25,33,22,25,135,37,44,36,7,9,8,9,0.6,0.6
2023-05-03T04:00:00,2321A,119.1119,25.4561,莆田市,涵江区六中,,42,41,41,29,29,133,38,40,39,15,15,7,8,0.8,0.7
2023-05-03T04:00:00,2322A,119.1013,25.3215,莆田市,秀屿区政府,细颗粒物(PM2.5),57,39,36,40,24,130,37,63,51,23,12,6,7,1.0,0.7
2023-05-03T04:00:00,2323A,118.981,25.4792,莆田市,东圳水库,,,,,,,,,,,,,,,,
2023-05-03T04:00:00,2324A,117.6211,26.2625,三明市,三钢,,38,29,35,26,20,136,35,46,36,16,19,8,10,0.4,0.4
2023-05-03T04:00:00,2325A,117.635,26.2714,三明市,三明二中,,29,21,29,20,18,135,35,46,39,17,19,4,8,0.5,0.5
2023-05-03T04:00:00,2326A,117.6028,26.2378,三明市,三元区政府,细颗粒物(PM2.5),55,46,38,39,24,139,16,36,26,29,21,9,11,1.1,0.6
2023-05-03T04:00:00,2327A,117.7275,26.3108,三明市,洋溪,,,,,,,,,,,,,,,,
2023-05-03T04:00:00,2331A,118.0966,26.6761,南平市,茫荡山,,,,,,,,,,,,,,,,
2023-05-03T04:00:00,2332A,118.1681,26.6369,南平市,南平市监测站,,23,23,28,16,19,113,30,34,28,13,12,3,4,0.5,0.5
2023-05-03T04:00:00,2333A,118.1825,26.6489,南平市,南平铝业有限公司,,32,26,26,22,19,117,23,25,24,22,14,7,7,0.9,0.7
2023-05-03T04:00:00,2334A,118.1756,26.6272,南平市,南平七中,,25,24,27,17,16,115,30,34,32,20,13,6,5,0.4,0.4
2023-05-03T04:00:00,2335A,117.0189,25.1181,龙岩市,龙岩师专,,,,,,,,,,,,,,,,
2023-05-03T04:00:00,2336A,117.0217,25.1033,龙岩市,龙岩市监测站,,48,44,43,33,24,146,29,36,30,25,22,10,13,0.5,0.4
2023-05-03T04:00:00,2337A,117.0258,25.0661,龙岩市,闽西职业技术学院,颗粒物(PM10),56,62,49,30,21,141,45,65,50,29,23,41,25,0.5,0.4
2023-05-03T04:00:00,2338A,117.0196,25.0306,龙岩市,龙岩学院,,28,27,38,19,19,136,44,61,52,15,18,4,7,0.3,0.4
2023-05-03T04:00:00,2339A,119.5001,26.6946,宁德市,金涵水库,,,,,,,,,,,,,,,,
2023-05-03T04:00:00,2341A,119.5388,26.6612,宁德市,宁德市监测站,细颗粒物(PM2.5),59,53,47,42,30,94,5,6,6,33,30,4,4,0.7,0.5
2023-05-03T04:00:00,2342A,117.3102,29.3867,景德镇市,王港中学,,42,42,44,20,21,76,26,40,32,26,16,10,10,0.5,0.4
2023-05-03T04:00:00,2343A,117.2117,29.2933,景德镇市,老干部活动中心,,42,42,56,21,29,124,94,92,92,10,11,6,6,0.3,0.4
2023-05-03T04:00:00,2344A,117.1894,29.2789,景德镇市,兽医站,,33,31,42,13,22,136,104,105,105,8,11,6,6,0.3,0.5
2023-05-03T04:00:00,2345A,117.1547,29.2617,景德镇市,台达陶瓷,,35,34,40,24,21,119,62,81,67,16,15,12,17,0.4,0.5
2023-05-03T04:00:00,2346A,117.2461,29.2956,景德镇市,陶研所,,35,35,45,20,20,128,86,94,89,6,5,6,6,0.4,0.3
2023-05-03T04:00:00,2347A,114.0997,27.5002,萍乡市,武功山,,23,3,27,8,18,88,72,68,68,9,7,20,18,0.8,0.7
2023-05-03T04:00:00,2348A,113.8385,27.6434,萍乡市,中医院,细颗粒物(PM2.5),62,56,86,44,46,95,24,32,30,22,25,12,20,0.8,0.8
2023-05-03T04:00:00,2349A,113.8493,27.6253,萍乡市,市政府车库,颗粒物(PM10),83,116,104,57,51,101,21,25,21,24,26,25,29,1.0,1.6
2023-05-03T04:00:00,2350A,113.8676,27.6435,萍乡市,市环保局,细颗粒物(PM2.5),87,94,99,64,51,91,26,28,25,23,25,33,29,0.7,0.6
2023-05-03T04:00:00,2351A,113.866,27.6198,萍乡市,安源区政府,细颗粒物(PM2.5),77,89,94,56,53,90,14,15,14,32,29,24,25,1.5,1.3
2023-05-03T04:00:00,2352A,115.0861,27.9317,新余市,北岗,,31,31,55,18,33,93,61,67,64,8,12,10,15,0.6,0.6
2023-05-03T04:00:00,2353A,114.9886,27.8431,新余市,飞宇,,41,41,98,18,31,96,74,80,77,8,17,4,5,0.5,0.6
2023-05-03T04:00:00,2354A,114.9231,27.8246,新余市,第二水厂,,50,50,92,25,42,92,62,63,63,15,29,14,17,0.7,0.8
2023-05-03T04:00:00,2355A,114.9308,27.8036,新余市,市气象局,,38,38,65,22,32,113,70,84,78,11,14,15,13,0.8,0.7
2023-05-03T04:00:00,2357A,116.9822,28.1136,鹰潭市,龙虎山,,20,18,46,14,17,122,38,71,51,3,2,2,1,0.5,0.3
2023-05-03T04:00:00,2358A,117.0564,28.2642,鹰潭市,新监测站,,43,43,55,28,26,151,75,92,88,12,16,12,18,0.6,0.8
2023-05-03T04:00:00,2359A,117.0311,28.2475,鹰潭市,财苑宾馆,,46,46,48,24,19,260,98,84,84,15,14,23,18,0.6,0.4
2023-05-03T04:00:00,2360A,117.0222,28.2264,鹰潭市,体育馆,,35,35,38,18,14,154,69,83,78,13,5,2,3,0.1,0.1
2023-05-03T04:00:00,2361A,117.0017,28.2131,鹰潭市,三川水表,,26,26,38,15,16,146,73,62,62,8,8,2,2,0.4,0.2
2023-05-03T04:00:00,2362A,114.9017,25.9149,赣州市,通天岩,,39,30,53,27,28,127,20,63,52,34,19,8,11,1.7,1.7
2023-05-03T04:00:00,2363A,114.9367,25.8664,赣州市,地委,,46,46,51,21,27,123,12,30,14,25,19,9,12,1.1,1.1
2023-05-03T04:00:00,2364A,114.9461,25.8481,赣州市,气象台,,26,26,41,13,22,112,41,51,48,19,15,6,8,0.6,0.6
2023-05-03T04:00:00,2365A,114.9322,25.8333,赣州市,市图书馆,,41,41,52,16,23,126,46,48,43,18,20,6,7,1.0,1.1
2023-05-03T04:00:00,2366A,114.8905,25.8471,赣州市,华坚鞋城,,50,50,65,33,31,125,51,49,42,6,16,16,23,0.6,0.7
2023-05-03T04:00:00,2367A,114.9754,27.0803,吉安市,红声器材厂,,44,44,62,17,30,118,78,81,77,5,9,10,12,0.4,0.5
2023-05-03T04:00:00,2368A,114.9658,27.0999,吉安市,市森林工业局,,34,34,56,20,31,111,74,79,74,4,7,10,11,0.2,0.3
2023-05-03T04:00:00,2369A,114.99,27.1312,吉安市,市环境监测站,,31,31,57,15,28,117,78,82,79,6,11,11,12,0.3,0.5
2023-05-03T04:00:00,2370A,115.0093,27.0968,吉安市,青原区法院,,,,,,,,,,,,,,,,
2023-05-03T04:00:00,2371A,114.3408,27.8064,宜春市,槟榔水业,细颗粒物(PM2.5),78,87,87,57,47,72,7,8,8,17,17,7,8,0.7,0.8
2023-05-03T04:00:00,2373A,114.3956,27.7844,宜春市,市石油公司,,42,42,79,23,37,115,32,88,68,19,18,2,5,0.7,0.6
2023-05-03T04:00:00,2374A,114.3703,27.7914,宜春市,市气象局,细颗粒物(PM2.5),77,99,85,56,40,120,36,48,37,21,24,7,9,0.8,0.8
2023-05-03T04:00:00,2375A,114.4013,27.8074,宜春市,市广电局,,35,35,76,22,36,122,78,94,90,8,15,6,15,0.6,0.6
2023-05-03T04:00:00,2376A,116.2127,28.0814,抚州市,桐源党溪,,32,32,39,15,21,125,90,83,83,3,4,2,3,0.9,1
2023-05-03T04:00:00,2377A,116.3544,27.9831,抚州市,市站,,34,34,46,15,21,115,68,89,82,10,9,8,11,0.6,0.5
2023-05-03T04:00:00,2378A,116.3565,27.963,抚州市,血防站,,32,32,43,15,18,117,77,90,84,6,6,5,5,0.7,0.7
2023-05-03T04:00:00,2379A,116.3564,28.0007,抚州市,采茶剧团,,29,29,42,15,18,119,75,87,83,10,9,4,4,0.9,0.8
2023-05-03T04:00:00,2380A,116.385,27.9647,抚州市,医学分院,,30,30,47,12,15,110,74,83,80,9,7,18,7,0.4,0.5
2023-05-03T04:00:00,2381A,118.005,28.4572,上饶市,百草园,颗粒物(PM10),51,52,44,31,20,131,51,86,67,10,4,64,32,0.6,0.7
2023-05-03T04:00:00,2382A,117.9756,28.4436,上饶市,市监测站,颗粒物(PM10),53,56,52,28,23,138,46,78,58,19,15,48,27,0.6,0.6
2023-05-03T04:00:00,2383A,117.9519,28.4628,上饶市,凤凰光学,颗粒物(PM10),51,52,52,24,20,139,48,60,54,20,19,16,16,0.6,0.6
2023-05-03T04:00:00,2385A,114.17,35.9019,鹤壁市,市监测站,颗粒物(PM10),75,100,96,48,41,146,49,55,48,46,33,18,12,0.9,0.8
2023-05-03T04:00:00,2386A,114.2956,35.7511,鹤壁市,市交警支队,颗粒物(PM10),61,72,83,39,30,123,67,74,71,26,29,7,17,0.4,0.5
2023-05-03T04:00:00,2387A,114.2878,35.7306,鹤壁市,迎宾馆,颗粒物(PM10),62,74,86,41,36,123,62,77,70,26,29,15,16,1.1,1.1
2023-05-03T04:00:00,2389A,113.836,35.311,新乡市,环保西院,,,107,94,,36,134,28,79,58,46,30,14,7,0.8,0.7
2023-05-03T04:00:00,2390A,113.884,35.272,新乡市,开发区,颗粒物(PM10),64,77,81,31,29,144,61,80,69,25,23,11,10,0.6,0.6
2023-05-03T04:00:00,2391A,113.883,35.303,新乡市,环保东院,颗粒物(PM10),70,90,77,35,30,134,32,83,58,54,29,15,7,0.7,0.6
2023-05-03T04:00:00,2392A,115.0312,35.7636,濮阳市,环保局,细颗粒物(PM2.5),79,101,90,58,39,146,83,94,91,20,20,13,12,0.5,0.4
2023-05-03T04:00:00,2394A,115.0574,35.7609,濮阳市,油田运输公司,细颗粒物(PM2.5),77,97,92,56,39,149,88,90,90,20,19,14,15,0.6,0.4
2023-05-03T04:00:00,2395A,115.0866,35.7754,濮阳市,油田物探公司,细颗粒物(PM2.5),80,99,88,59,40,142,82,94,91,21,19,11,11,0.5,0.3
2023-05-03T04:00:00,2396A,113.8276,34.0159,许昌市,监测站,细颗粒物(PM2.5),54,43,86,38,40,151,78,86,82,10,17,7,9,0.8,0.6
2023-05-03T04:00:00,2398A,113.7906,33.9953,许昌市,开发区,细颗粒物(PM2.5),57,40,96,40,33,151,80,86,80,8,14,2,5,0.7,0.6
2023-05-03T04:00:00,2399A,114.051,33.5699,漯河市,三五一五工厂,,39,39,77,27,27,142,84,101,92,4,9,7,10,0.5,0.4
2023-05-03T04:00:00,2400A,114.0055,33.5698,漯河市,漯河大学,,43,36,68,30,29,146,88,107,99,6,6,8,10,0.5,0.4
2023-05-03T04:00:00,2401A,114.0138,33.5828,漯河市,市水利局,,45,39,81,31,32,142,83,102,94,8,10,7,9,0.5,0.4
2023-05-03T04:00:00,2402A,114.0261,33.5698,漯河市,市广电局,,39,39,66,27,26,149,86,106,98,10,10,6,9,0.6,0.4
2023-05-03T04:00:00,2404A,112.5224,33.0122,南阳市,瓦房庄,,41,41,68,28,31,140,71,69,69,4,21,5,8,0.6,0.5
2023-05-03T04:00:00,2405A,112.5003,32.9735,南阳市,汉画馆,,48,48,73,30,33,148,66,69,68,5,13,6,8,0.7,0.6
2023-05-03T04:00:00,2406A,112.5573,33.027,南阳市,气象站,,38,28,66,26,32,137,71,74,73,6,14,3,6,0.6,0.7
2023-05-03T04:00:00,2407A,112.5481,32.9689,南阳市,理工学院,,39,39,65,24,36,147,72,72,72,3,11,3,5,0.6,0.5
2023-05-03T04:00:00,2408A,115.6702,34.4285,商丘市,环境监测站,颗粒物(PM10),92,134,86,39,43,149,76,95,84,11,12,9,11,0.6,0.5
2023-05-03T04:00:00,2409A,115.6458,34.4045,商丘市,粮食局,颗粒物(PM10),66,82,77,35,35,155,81,100,90,8,10,6,9,0.1,0.1
2023-05-03T04:00:00,2410A,115.6293,34.3948,商丘市,睢阳区环保局,颗粒物(PM10),92,134,105,24,32,152,77,95,87,7,10,5,8,0.6,0.5
2023-05-03T04:00:00,2420A,114.0189,32.9656,驻马店市,市一纸厂,,45,45,66,23,26,142,74,90,82,6,10,3,4,0.5,0.4
2023-05-03T04:00:00,2421A,114.0114,33.015,驻马店市,市彩印厂,颗粒物(PM10),54,57,71,30,29,140,76,97,87,8,10,14,7,0.6,0.4
2023-05-03T04:00:00,2422A,113.9976,32.9771,驻马店市,天方二分厂,,50,50,73,33,32,139,78,89,83,6,11,7,8,0,0.2
2023-05-03T04:00:00,2423A,115.0601,30.2313,黄石市,沈家营,颗粒物(PM10),54,57,75,25,27,117,56,62,60,29,26,15,19,2.0,1.3
