timepoint,stationcode,longitude,latitude,area,positionname,primarypollutant,aqi,pm10,pm10_24h,pm2_5,pm2_5_24h,o3,o3_24h,o3_8h,o3_8h_24h,no2,no2_24h,so2,so2_24h,co,co_24h
2024-05-08T2100,2566A,102.1879,31.914,阿坝藏族羌族自治州,州农科所,,18,12,21,12,11,17,,24,24,4,12,3,3,0,0
2024-05-08T2100,2568A,102.2502,31.8896,阿坝藏族羌族自治州,马师校,,19,16,12,13,11,45,,81,77,14,11,3,3,0.3,0.3
2024-05-08T2100,3994A,102.2165,31.9024,阿坝藏族羌族自治州,马尔康中学西区,,30,,15,21,13,61,,86,84,6,8,6,5,0.3,0.3
2024-05-08T2100,2695A,80.292,41.1694,阿克苏地区,电视台,颗粒物(PM10),61,72,87,30,31,122,,128,128,16,24,7,5,0.3,0.4
2024-05-08T2100,2696A,80.2613,41.1551,阿克苏地区,艺术中心,颗粒物(PM10),68,85,89,26,34,127,,132,132,14,37,4,4,0.2,0.5
2024-05-08T2100,2204A,105.6467,38.8363,阿拉善盟,西城区西花园,颗粒物(PM10),80,110,60,18,12,128,,160,157,8,7,9,9,0.6,0.6
2024-05-08T2100,2205A,105.6985,38.8411,阿拉善盟,蒙二幼,颗粒物(PM10),58,66,54,13,20,124,,147,145,7,7,8,9,0.5,0.3
2024-05-08T2100,2206A,105.724,38.8516,阿拉善盟,环保局新楼,颗粒物(PM10),53,55,42,12,14,136,,160,158,7,6,10,10,0.4,0.4
2024-05-08T2100,2708A,88.1264,47.8517,阿勒泰地区,市站,,30,10,25,3,5,95,,91,91,8,10,5,5,0.3,0.3
2024-05-08T2100,3192A,80.0903,32.5028,阿里地区,阿里藏医院,臭氧1小时,108,12,15,6,6,216,,204,204,8,6,9,10,0.4,0.5
2024-05-08T2100,2642A,109.0318,32.6537,安康市,香溪洞,,33,24,44,23,29,90,,114,108,5,8,6,7,0.4,0.5
2024-05-08T2100,2643A,109.0281,32.6939,安康市,安康市监测站,,36,36,47,22,25,78,,116,106,5,9,8,10,0.4,0.5
2024-05-08T2100,2644A,109.0072,32.6975,安康市,汉滨区检察院,,39,39,43,21,28,74,,116,106,9,7,8,9,0.4,0.5
2024-05-08T2100,2291A,117.0809,30.5177,安庆市,环科院,,45,45,52,23,35,130,,185,171,22,20,9,10,0.5,0.8
2024-05-08T2100,2292A,117.0331,30.5119,安庆市,马山宾馆,,49,49,52,21,36,134,,178,167,20,15,7,9,0.4,0.7
2024-05-08T2100,2294A,116.9896,30.6145,安庆市,安庆大学,,48,41,48,19,31,152,,178,172,12,13,8,8,0.4,0.7
2024-05-08T2100,3173A,117.0598,30.5351,安庆市,市人大,颗粒物(PM10),56,62,58,23,36,122,,178,163,25,15,6,7,0.5,0.7
2024-05-08T2100,3123A,105.9408,26.2431,安顺市,凤凰山,,40,30,40,28,30,75,,71,70,12,12,10,9,0.3,0.5
2024-05-08T2100,3124A,105.9439,26.2564,安顺市,金钟山,,26,19,23,18,25,73,,69,68,11,8,8,7,0.4,0.5
2024-05-08T2100,3125A,105.8983,26.2481,安顺市,娄家坡,,30,28,35,21,25,75,,71,70,11,8,9,8,0.4,0.5
2024-05-08T2100,1819A,114.3551,36.1017,安阳市,红庙街,颗粒物(PM10),66,82,92,17,32,131,,167,159,5,17,3,10,0.5,0.6
2024-05-08T2100,1820A,114.361,36.0681,安阳市,银杏小区,颗粒物(PM10),56,62,81,18,32,128,,164,156,3,14,6,11,0.7,0.8
2024-05-08T2100,3141A,114.3922,36.0878,安阳市,信访局,颗粒物(PM10),62,73,90,20,31,123,,164,155,9,16,5,9,0.4,0.6
2024-05-08T2100,3669A,114.4705,36.0637,安阳市,左辅环卫站,颗粒物(PM10),58,65,81,19,36,106,,159,148,18,24,10,10,0.5,0.6
2024-05-08T2100,3703A,114.2917,36.0949,安阳市,安钢职工学校,颗粒物(PM10),80,110,115,20,39,118,,155,146,15,31,5,7,0.4,0.6
2024-05-08T2100,1748A,123.044,41.1196,鞍山市,深沟寺,颗粒物(PM10),54,58,50,26,24,105,,132,128,21,20,18,12,1.0,0.9
2024-05-08T2100,1749A,123.011,41.0931,鞍山市,太阳城,颗粒物(PM10),54,57,60,26,31,105,,139,134,25,38,17,19,1.1,1.4
2024-05-08T2100,1750A,123.0485,41.1442,鞍山市,太平,颗粒物(PM10),54,58,55,28,31,113,,135,131,24,32,16,10,1.0,0.9
2024-05-08T2100,1751A,122.9642,41.0971,鞍山市,铁西三道街,颗粒物(PM10),64,78,96,34,47,104,,141,135,35,50,19,15,1.0,1.1
2024-05-08T2100,1752A,122.9341,41.0833,鞍山市,铁西工业园区,颗粒物(PM10),53,56,77,32,47,116,,144,139,24,46,15,17,0.7,1
2024-05-08T2100,1753A,123.022,41.0821,鞍山市,明达新区,颗粒物(PM10),54,58,58,31,36,104,,132,128,26,35,21,18,1.1,1.3
2024-05-08T2100,2195A,107.4212,40.761,巴彦淖尔市,附二中,颗粒物(PM10),76,102,56,37,28,141,,174,173,39,17,5,7,0.6,0.4
2024-05-08T2100,2196A,107.37,40.7372,巴彦淖尔市,市环保大楼,颗粒物(PM10),75,99,64,32,20,155,,171,171,23,14,10,6,0.7,0.5
2024-05-08T2100,1956A,86.1472,41.7538,巴音郭楞蒙古自治州,孔雀公园,颗粒物(PM10),98,146,137,51,41,93,,105,105,15,39,6,7,0.3,0.5
2024-05-08T2100,1957A,86.1972,41.7166,巴音郭楞蒙古自治州,棉纺厂,颗粒物(PM10),120,190,141,53,45,86,,102,100,9,20,3,3,0.2,0.3
2024-05-08T2100,1958A,86.2357,41.7173,巴音郭楞蒙古自治州,经济开发区,颗粒物(PM10),100,150,141,65,43,96,,107,105,7,12,7,7,0.2,0.2
2024-05-08T2100,2914A,106.7677,31.8794,巴中市,苏山坪,细颗粒物(PM2.5),68,63,33,49,22,106,,116,114,14,8,6,4,0.6,0.4
2024-05-08T2100,3182A,106.7656,31.8545,巴中市,丽阳花园,颗粒物(PM10),77,103,42,55,25,88,,123,115,26,14,8,5,0.8,0.5
2024-05-08T2100,3183A,106.7418,31.8654,巴中市,圣泉水务公司,细颗粒物(PM2.5),90,82,35,67,25,74,,118,110,32,14,5,5,0.8,0.5
2024-05-08T2100,3616A,106.7616,31.8344,巴中市,市中心医院,细颗粒物(PM2.5),79,76,38,58,26,84,,124,114,22,10,8,5,0.7,0.5
2024-05-08T2100,2235A,122.7911,45.6077,白城市,洮北区环保局,颗粒物(PM10),100,150,108,39,21,101,,123,118,2,9,4,5,0.4,0.2
2024-05-08T2100,2236A,122.8738,45.5725,白城市,市环保局,颗粒物(PM10),114,177,93,26,21,105,,130,124,9,15,4,5,0.2,0.3
2024-05-08T2100,2231A,126.4219,41.9171,白山市,喜丰,,49,49,33,14,13,51,,118,106,35,17,10,10,0.9,0.8
2024-05-08T2100,2232A,126.4077,41.9419,白山市,环保局,颗粒物(PM10),64,78,40,26,14,38,,113,95,37,17,10,10,1.0,0.6
2024-05-08T2100,2647A,104.1724,36.5446,白银市,第三小学,,43,43,47,19,22,89,,115,110,20,20,8,21,0.7,0.7
2024-05-08T2100,2648A,104.1465,36.5482,白银市,动力公司,,33,31,41,19,23,104,,124,120,13,17,10,18,0.5,0.7
2024-05-08T2100,2512A,106.6103,23.9011,百色市,市监测站,,26,19,35,14,24,83,,90,78,7,15,5,11,0.7,0.8
2024-05-08T2100,2513A,106.6538,23.8859,百色市,市中心血站,,25,20,40,17,27,74,,75,67,11,19,5,12,0.7,0.8
2024-05-08T2100,3406A,106.6085,23.8798,百色市,祈福高中,,26,18,42,14,22,82,,88,78,7,16,10,13,0.7,0.9
2024-05-08T2100,2270A,117.396,32.939,蚌埠市,工人疗养院,颗粒物(PM10),74,97,59,45,22,114,,155,150,30,15,7,7,0.4,0.3
2024-05-08T2100,2271A,117.3605,32.9427,蚌埠市,百货大楼,颗粒物(PM10),66,81,57,44,21,126,,153,151,33,18,3,4,0.5,0.4
2024-05-08T2100,2273A,117.4185,32.8911,蚌埠市,蚌埠学院,细颗粒物(PM2.5),125,129,55,95,28,65,,141,130,78,30,71,16,0.5,0.4
2024-05-08T2100,2274A,117.3533,32.9673,蚌埠市,淮上区政府,颗粒物(PM10),62,73,53,41,25,138,,150,149,16,13,5,6,0.3,0.3
2024-05-08T2100,2275A,117.3145,32.8977,蚌埠市,高新区,"颗粒物(PM10),细颗粒物(PM2.5)",53,56,49,37,24,147,,153,153,15,12,6,5,0.3,0.3
2024-05-08T2100,3715A,117.3092,32.9314,蚌埠市,蚌埠田家炳中学,颗粒物(PM10),64,77,57,44,28,141,,156,155,16,14,6,6,0.4,0.3
2024-05-08T2100,1585A,109.8756,40.6532,包头市,市环境监测站,,43,43,46,18,19,72,,152,140,83,45,10,15,0.6,0.7
2024-05-08T2100,1587A,109.9991,40.5842,包头市,包头八中,细颗粒物(PM2.5),57,58,71,40,27,99,,151,147,49,47,10,17,0.6,0.5
2024-05-08T2100,1588A,109.8538,40.6821,包头市,青山宾馆,二氧化氮,52,23,41,16,18,38,,147,132,104,44,12,17,0.5,0.7
2024-05-08T2100,1589A,109.8642,40.6288,包头市,惠龙物流,,39,39,45,13,21,97,,156,150,58,41,12,18,0.4,0.5
2024-05-08T2100,1590A,110.0377,40.5546,包头市,东河鸿龙湾,颗粒物(PM10),60,70,58,20,19,76,,148,141,53,39,12,15,0.6,0.6
2024-05-08T2100,3283A,109.9154,40.5685,包头市,滨河大厦,,38,38,47,13,19,69,,148,138,70,45,12,17,0.5,0.6
2024-05-08T2100,3419A,109.9447,40.6261,包头市,包头市委党校,,39,39,58,12,17,107,,152,148,50,44,12,20,0.5,0.8
2024-05-08T2100,3683A,109.8331,40.6576,包头市,昆区政府,,37,37,48,16,20,103,,154,150,51,45,11,17,0.6,0.7
2024-05-08T2100,1930A,107.185,34.3063,宝鸡市,庙沟村,,36,36,58,21,26,28,,92,75,26,18,8,9,0.7,0.7
2024-05-08T2100,1931A,107.0708,34.3017,宝鸡市,竹园沟,细颗粒物(PM2.5),55,,47,39,33,57,,101,84,19,19,6,6,0.7,0.6
2024-05-08T2100,1932A,107.1906,34.3672,宝鸡市,三陆医院,,50,46,68,35,39,44,,104,83,37,35,6,8,0.9,0.7
2024-05-08T2100,1933A,107.1431,34.3547,宝鸡市,监测站,,48,42,49,33,31,47,,98,82,37,31,7,8,0.7,0.6
2024-05-08T2100,1934A,107.1186,34.3739,宝鸡市,技工学校,,43,31,51,30,32,69,,108,97,22,20,6,7,0.6,0.6
2024-05-08T2100,1935A,107.3906,34.3528,宝鸡市,陈仓区环保局家属楼,细颗粒物(PM2.5),99,,66,74,48,66,,133,111,28,28,4,6,0.8,0.7
2024-05-08T2100,1936A,107.2058,34.3497,宝鸡市,文理学院,,,51,62,31,33,,,111,104,34,27,5,6,0.7,0.6
2024-05-08T2100,1937A,107.2386,34.3622,宝鸡市,三迪小学,细颗粒物(PM2.5),54,,61,38,38,60,,115,97,32,31,7,8,0.8,0.7
2024-05-08T2100,1051A,115.493,38.8632,保定市,游泳馆,颗粒物(PM10),82,113,146,30,49,142,,186,176,10,37,4,4,0.2,0.3
2024-05-08T2100,1052A,115.5213,38.8959,保定市,华电二区,颗粒物(PM10),58,65,87,33,37,136,,182,174,18,31,6,6,0.4,0.6
2024-05-08T2100,1053A,115.4713,38.9108,保定市,接待中心,颗粒物(PM10),54,58,82,17,33,139,,185,176,12,27,7,6,0.3,0.4
2024-05-08T2100,1054A,115.4612,38.8416,保定市,地表水厂,颗粒物(PM10),74,97,121,37,54,142,,181,171,10,45,5,5,0.3,0.4
2024-05-08T2100,3581A,115.31981,38.95208,保定市,满城区生态环境分局,颗粒物(PM10),86,122,92,48,37,118,,189,177,20,21,4,4,0.5,0.5
2024-05-08T2100,3582A,115.47694,38.76408,保定市,清苑区第二中学,颗粒物(PM10),75,99,123,32,46,135,,185,173,20,39,6,7,0.3,0.5
2024-05-08T2100,3583A,115.62909,39.02311,保定市,徐水物探局,颗粒物(PM10),78,105,123,22,38,132,,187,177,16,41,7,6,0.2,0.3
2024-05-08T2100,4004A,115.4202,38.8656,保定市,双鹰农机,颗粒物(PM10),67,83,104,39,46,128,,190,178,22,45,6,7,0.2,0.3
2024-05-08T2100,4034A,115.5150,38.8590,保定市,植保所站,颗粒物(PM10),74,98,119,43,51,143,,197,187,18,36,5,7,0.4,0.5
2024-05-08T2100,2594A,99.1678,25.1081,保山市,市环境监测站,,44,44,42,24,25,87,,122,116,9,10,8,8,0.5,0.5
2024-05-08T2100,2595A,99.1711,25.1328,保山市,市环保局,,48,48,50,29,24,93,,120,115,5,7,6,6,0.5,0.5
2024-05-08T2100,1867A,109.1436,21.4086,北海市,海滩公园,,26,15,26,10,13,82,,82,82,9,8,8,7,0.5,0.6
2024-05-08T2100,1868A,109.0981,21.4661,北海市,新市环保局,,28,,26,12,15,88,,88,88,8,8,5,6,0.6,0.6
2024-05-08T2100,1869A,109.1778,21.5233,北海市,北海工业园,,28,19,44,10,23,88,,86,86,6,13,11,10,0.4,0.5
2024-05-08T2100,3400A,109.1911,21.4415,北海市,龙潭自来水厂,,,15,27,9,23,80,,78,78,,11,6,6,0.6,0.7
2024-05-08T2100,1001A,116.3621,39.8784,北京市,万寿西宫,颗粒物(PM10),70,90,91,27,40,164,,192,191,16,40,3,2,0.5,0.6
2024-05-08T2100,1003A,116.4174,39.9289,北京市,东四,颗粒物(PM10),76,102,98,26,42,154,,182,181,19,34,4,4,0.6,0.6
2024-05-08T2100,1004A,116.4072,39.8863,北京市,天坛,颗粒物(PM10),58,65,72,27,39,161,,184,184,17,34,4,3,0.5,0.5
2024-05-08T2100,1005A,116.462,39.9365,北京市,农展馆,颗粒物(PM10),67,83,87,28,43,150,,167,167,17,41,3,2,0.5,0.5
2024-05-08T2100,1006A,116.3392,39.9295,北京市,官园,颗粒物(PM10),71,91,88,32,34,164,,189,189,17,35,5,4,0.4,0.4
2024-05-08T2100,1007A,116.2878,39.9611,北京市,海淀万柳,颗粒物(PM10),68,85,86,26,36,165,,188,188,35,38,7,6,0.5,0.5
2024-05-08T2100,1008A,116.6636,40.135,北京市,顺义新城,颗粒物(PM10),67,83,97,26,44,166,,193,192,19,33,3,3,0.5,0.5
2024-05-08T2100,1009A,116.6275,40.3275,北京市,怀柔镇,颗粒物(PM10),59,68,66,24,31,166,,191,190,22,17,5,4,0.6,0.4
2024-05-08T2100,1010A,116.2296,40.217,北京市,昌平镇,颗粒物(PM10),66,82,69,28,29,130,,171,168,23,19,2,3,0.6,0.4
2024-05-08T2100,1011A,116.3966,39.9821,北京市,奥体中心,颗粒物(PM10),71,92,83,28,39,154,,168,168,16,42,2,2,0.6,0.6
2024-05-08T2100,1012A,116.184,39.9136,北京市,古城,颗粒物(PM10),78,106,90,29,33,154,,181,181,25,48,3,2,0.3,0.3
2024-05-08T2100,3281A,115.9718,40.4529,北京市,延庆夏都,颗粒物(PM10),75,99,62,36,25,169,,180,180,19,18,2,2,0.6,0.3
2024-05-08T2100,3417A,117.0709,40.1465,北京市,平谷新城,颗粒物(PM10),67,84,72,29,34,150,,189,185,17,17,1,3,0.4,0.4
2024-05-08T2100,3418A,116.8336,40.4095,北京市,密云新城,臭氧1小时,72,80,71,26,29,177,,199,199,17,22,4,2,0.5,0.4
2024-05-08T2100,3672A,116.1541,39.8204,北京市,丰台云岗,颗粒物(PM10),55,59,75,27,32,147,,182,178,12,29,3,3,0.6,0.5
2024-05-08T2100,3673A,116.6804,39.9081,北京市,通州东关,颗粒物(PM10),62,73,106,24,48,154,,182,181,10,28,2,3,0.4,0.6
2024-05-08T2100,3674A,115.9577,39.7603,北京市,房山燕山,颗粒物(PM10),74,98,73,40,25,137,,170,169,21,23,3,2,0.4,0.4
2024-05-08T2100,3675A,116.4672,39.7733,北京市,大兴旧宫,颗粒物(PM10),64,77,78,24,37,157,,194,193,15,32,1,2,0.4,0.5
2024-05-08T2100,3694A,115.986,40.4563,北京市,延庆石河营,臭氧1小时,77,82,53,33,25,181,,189,189,15,20,1,2,0.6,0.3
2024-05-08T2100,3695A,116.6151,40.3053,北京市,怀柔新城,颗粒物(PM10),63,75,69,24,31,147,,185,182,19,16,2,3,0.6,0.4
2024-05-08T2100,3696A,116.2545,39.8768,北京市,丰台小屯,颗粒物(PM10),66,81,82,28,34,143,,172,172,17,43,2,3,0.4,0.5
2024-05-08T2100,3697A,116.84,40.3844,北京市,密云镇,臭氧1小时,69,85,64,28,28,175,,194,194,14,30,3,2,0.5,0.3
2024-05-08T2100,1761A,123.8275,41.3064,本溪市,大峪,,40,39,48,17,19,127,,139,138,11,29,10,11,0.6,0.8
2024-05-08T2100,1762A,123.7567,41.3325,本溪市,溪湖,,49,49,71,20,28,111,,137,133,17,35,10,12,0.7,0.9
2024-05-08T2100,1763A,123.7169,41.3094,本溪市,彩屯,颗粒物(PM10),53,55,66,30,36,99,,131,122,32,37,18,16,2.7,1.6
2024-05-08T2100,1764A,123.7669,41.2864,本溪市,东明,颗粒物(PM10),55,60,60,29,30,109,,127,126,18,38,12,14,0.5,1.1
2024-05-08T2100,1765A,123.7992,41.2664,本溪市,新立屯,颗粒物(PM10),52,53,53,19,22,118,,129,110,13,33,11,14,0.5,0.8
2024-05-08T2100,1766A,123.8142,41.3472,本溪市,威宁,颗粒物(PM10),52,53,52,23,23,47,,123,107,61,29,7,8,0.6,0.6
2024-05-08T2100,2587A,105.2864,27.3125,毕节市,八中,,30,24,31,21,26,64,,72,72,16,14,6,6,0.5,0.5
2024-05-08T2100,2588A,105.31,27.2944,毕节市,师专,,23,22,32,16,23,62,,69,69,14,13,9,10,0.5,0.5
2024-05-08T2100,3537A,105.3631,27.3533,毕节市,长征村,,40,36,40,28,31,67,,80,79,13,10,11,9,0.6,0.6
2024-05-08T2100,1629A,118.0018,37.3617,滨州市,第二水厂,颗粒物(PM10),81,112,85,56,46,125,,185,174,34,33,8,12,0.7,0.7
2024-05-08T2100,1630A,117.9776,37.393,滨州市,北中新校,颗粒物(PM10),57,63,71,34,44,124,,182,170,36,29,11,14,0.9,0.8
2024-05-08T2100,3514A,117.9378,37.3956,滨州市,中海酒店,细颗粒物(PM2.5),77,90,75,56,46,126,,200,186,35,22,13,20,0.5,0.8
2024-05-08T2100,3515A,117.9378,37.3553,滨州市,开发区一中,颗粒物(PM10),80,110,70,56,45,100,,181,169,64,33,12,17,0.8,0.8
2024-05-08T2100,3516A,118.0917,37.694,滨州市,金海六路,细颗粒物(PM2.5),77,93,79,56,42,129,,187,175,49,36,9,13,0.6,0.5
2024-05-08T2100,4028A,117.9956,37.3753,滨州市,滨州市西街道办事处,颗粒物(PM10),75,100,81,51,54,76,,176,159,52,31,9,14,1.1,0.8
2024-05-08T2100,2311A,115.8072,33.8399,亳州市,污水处理厂,颗粒物(PM10),54,57,53,24,21,116,,146,142,17,16,11,12,0.2,0.3
2024-05-08T2100,2312A,115.7789,33.8518,亳州市,三国揽胜宫,颗粒物(PM10),52,54,55,17,21,134,,145,144,9,12,10,12,0.3,0.4
2024-05-08T2100,3332A,115.7633,33.8034,亳州市,亳州学院,颗粒物(PM10),55,60,51,15,17,129,,145,144,11,11,10,11,0.4,0.4
2024-05-08T2100,2693A,82.0485,44.8556,博尔塔拉蒙古自治州,市党校,,,14,27,14,10,,,124,124,6,7,10,9,0.1,0.3
2024-05-08T2100,2694A,82.0806,44.8969,博尔塔拉蒙古自治州,市环保局,,32,25,34,14,12,101,,127,125,8,13,8,8,0.3,0.4
2024-05-08T2100,1071A,116.8842,38.2991,沧州市,沧县城建局,,,67,83,20,35,128,,181,167,21,21,4,7,,0.6
2024-05-08T2100,1072A,116.8584,38.3254,沧州市,电视转播站,颗粒物(PM10),74,97,83,46,40,133,,170,163,21,15,6,7,0.3,0.3
2024-05-08T2100,1073A,116.8709,38.3228,沧州市,市环保局,颗粒物(PM10),68,85,78,45,48,123,,175,163,28,22,5,6,0.5,0.5
2024-05-08T2100,3324A,116.8136,38.3004,沧州市,河北水利电力学院,颗粒物(PM10),74,97,92,48,41,108,,175,160,39,25,8,10,0.4,0.5
2024-05-08T2100,2622A,97.1806,31.1273,昌都市,昌都监测站,,38,14,8,10,5,120,,132,132,18,8,9,9,0.6,0.3
2024-05-08T2100,3719A,97.1714,31.1406,昌都市,昌都会议中心,,45,10,7,7,5,143,,146,146,6,7,10,10,0.2,0.3
2024-05-08T2100,2690A,88.1236,43.8886,昌吉回族自治州,天山天池,,29,18,14,11,12,92,,108,107,6,5,6,6,0.4,0.5
2024-05-08T2100,2692A,87.2717,44.0297,昌吉回族自治州,新区政务中心,,36,21,34,15,15,114,,120,120,13,25,8,9,0.4,0.6
2024-05-08T2100,3613A,87.3095,44.0142,昌吉回族自治州,亚心广场,,39,,40,27,10,115,,124,124,15,26,6,8,0.4,0.5
2024-05-08T2100,1119A,125.3325,43.9166,长春市,食品厂,,47,47,80,25,32,119,,124,121,21,45,7,8,0.3,0.5
2024-05-08T2100,1120A,125.2863,43.9027,长春市,客车厂,颗粒物(PM10),52,53,66,29,34,117,,123,120,21,42,5,6,0.3,0.4
2024-05-08T2100,1121A,125.2841,43.8463,长春市,邮电学院,颗粒物(PM10),54,58,61,22,32,116,,125,123,16,33,8,9,0.2,0.3
2024-05-08T2100,1122A,125.3716,43.8772,长春市,劳动公园,,47,47,65,19,29,113,,130,126,18,37,5,6,0.3,0.4
2024-05-08T2100,1123A,125.3297,43.8805,长春市,园林处,,38,38,52,14,24,120,,126,124,17,38,7,6,0.3,0.4
2024-05-08T2100,1124A,125.4605,43.79,长春市,净月潭,,28,27,33,16,17,89,,123,116,8,9,8,8,0.2,0.2
2024-05-08T2100,1126A,125.3863,43.8447,长春市,经开区环卫处,,35,33,64,15,26,110,,112,112,14,34,5,6,0.4,0.5
2024-05-08T2100,1127A,125.245,43.7783,长春市,高新区管委会,,37,37,53,20,28,99,,123,118,18,33,7,7,0.3,0.4
2024-05-08T2100,1128A,125.1761,43.8325,长春市,岱山公园,,43,43,66,28,38,102,,125,117,31,46,7,7,0.4,0.5
2024-05-08T2100,1335A,113.0833,28.2325,长沙市,经开区环保局,细颗粒物(PM2.5),80,100,76,59,56,102,,164,160,56,23,7,9,0.9,0.7
2024-05-08T2100,1336A,112.8872,28.2189,长沙市,高开区环保局,颗粒物(PM10),68,85,80,43,51,172,,179,179,15,29,6,9,1.0,1
2024-05-08T2100,1337A,113.0792,28.2053,长沙市,马坡岭,颗粒物(PM10),64,77,78,29,56,107,,148,144,28,25,8,9,0.4,0.6
2024-05-08T2100,1338A,112.9394,28.19,长沙市,湖南师范大学,颗粒物(PM10),65,79,76,45,51,131,,178,173,16,22,4,6,0.7,0.7
2024-05-08T2100,1339A,113.0178,28.1322,长沙市,雨花区环保局,颗粒物(PM10),66,81,78,41,51,125,,162,158,27,25,7,7,0.7,0.7
2024-05-08T2100,1340A,112.9792,28.2597,长沙市,伍家岭,颗粒物(PM10),68,85,82,41,52,100,,168,160,56,38,6,7,0.9,0.8
2024-05-08T2100,1341A,113.0014,28.1944,长沙市,火车新站,细颗粒物(PM2.5),79,87,76,58,56,141,,173,169,29,25,4,5,1.0,0.9
2024-05-08T2100,1342A,112.9844,28.1178,长沙市,天心区环保局,细颗粒物(PM2.5),69,80,74,50,48,136,,159,156,32,30,4,5,0.6,0.5
2024-05-08T2100,1343A,112.8908,28.1308,长沙市,湖南中医药大学,"颗粒物(PM10),细颗粒物(PM2.5)",64,78,74,46,48,63,,170,156,75,26,8,9,0.9,0.9
2024-05-08T2100,1344A,112.9581,28.3611,长沙市,沙坪,细颗粒物(PM2.5),59,59,60,42,39,103,,178,172,15,4,7,16,0.8,0.9
2024-05-08T2100,1727A,113.1147,36.1547,长治市,清华站,臭氧1小时,79,69,70,48,37,183,,191,190,15,21,11,11,0.6,0.7
2024-05-08T2100,1728A,113.1031,36.1989,长治市,监测站,臭氧1小时,93,89,69,44,35,194,,195,195,18,25,15,19,0.7,1.5
2024-05-08T2100,1730A,113.0886,36.2125,长治市,审计局,臭氧1小时,90,70,64,51,36,192,,197,196,16,13,15,17,0.5,1.1
2024-05-08T2100,1731A,113.0844,36.1856,长治市,长治八中,臭氧1小时,90,83,80,38,40,192,,198,198,24,27,11,11,0.6,0.8
2024-05-08T2100,2845A,113.1569,36.1911,长治市,德盛苑,臭氧1小时,80,60,52,46,33,184,,193,193,14,13,8,9,0.6,1
2024-05-08T2100,3568A,113.06,36.0464,长治市,向阳小学,臭氧1小时,97,88,77,52,46,197,,196,196,16,18,13,14,0.7,0.8
2024-05-08T2100,3569A,112.8792,36.3144,长治市,屯留一中,细颗粒物(PM2.5),82,74,67,60,41,181,,186,185,12,20,10,9,0.7,0.9
2024-05-08T2100,1854A,111.6975,28.9703,常德市,市二中,细颗粒物(PM2.5),108,118,87,81,62,105,,168,157,26,14,13,9,0.8,0.8
2024-05-08T2100,3138A,111.7153,29.0289,常德市,武陵区永安,细颗粒物(PM2.5),107,115,93,80,68,135,,171,165,15,15,16,11,0.7,0.8
2024-05-08T2100,3139A,111.6892,28.9881,常德市,鼎城区玉霞,细颗粒物(PM2.5),104,103,87,78,69,134,,172,164,16,17,17,11,0.7,0.8
2024-05-08T2100,3140A,111.6625,29.0531,常德市,武陵区长庚,细颗粒物(PM2.5),97,103,93,72,71,139,,171,167,14,16,16,12,0.9,1
2024-05-08T2100,1196A,119.9633,31.762,常州市,市监测站,,38,38,42,22,28,104,,147,125,24,17,5,7,0.5,0.5
2024-05-08T2100,1200A,119.9468,31.7069,常州市,武进监测站,,34,34,43,18,23,100,,153,129,28,19,9,9,0.6,0.5
2024-05-08T2100,1201A,119.9255,31.9087,常州市,安家,,33,33,43,22,29,74,,139,112,36,21,10,10,0.8,0.6
2024-05-08T2100,3002A,119.9805,31.8174,常州市,行政中心,,48,48,48,17,26,96,,139,115,22,14,7,8,0.7,0.6
2024-05-08T2100,3003A,120.0522,31.7748,常州市,经开区,,41,41,46,24,26,96,,141,120,33,24,7,8,0.4,0.4
2024-05-08T2100,3010A,119.9025,31.7964,常州市,钟楼,,32,30,43,17,28,101,,142,121,22,20,9,9,0.8,0.7
2024-05-08T2100,3429A,119.8598,31.7066,常州市,武进经发区,,30,30,48,14,27,94,,150,126,24,22,9,9,0.6,0.5
2024-05-08T2100,3430A,119.5826,31.7245,常州市,金坛城区,,28,25,44,10,25,89,,167,146,22,16,7,9,0.7,0.7
2024-05-08T2100,2220A,120.4318,41.5881,朝阳市,西梁,臭氧1小时,94,,38,64,30,195,,162,162,16,28,18,13,1.2,0.6
2024-05-08T2100,2221A,120.4521,41.5646,朝阳市,河畔小区,臭氧1小时,106,94,55,64,29,212,,176,176,16,23,16,11,1.2,0.5
2024-05-08T2100,2222A,120.4176,41.5648,朝阳市,八里堡,细颗粒物(PM2.5),87,93,69,64,32,182,,157,157,20,31,16,12,1.4,0.7
2024-05-08T2100,2223A,120.3806,41.5969,朝阳市,农业园区,细颗粒物(PM2.5),183,,46,138,36,172,,165,165,19,23,14,13,1.1,0.6
2024-05-08T2100,1705A,116.6367,23.6719,潮州市,西园路,颗粒物(PM10),55,60,42,27,30,111,,147,144,21,15,11,7,0.6,0.5
2024-05-08T2100,3026A,116.6183,23.6608,潮州市,市政府,,43,43,51,25,31,124,,150,149,15,14,8,7,0.9,0.9
2024-05-08T2100,4036A,116.6461,23.6761,潮州市,金山,颗粒物(PM10),54,57,51,25,31,105,,139,137,19,15,12,8,0.9,0.8
2024-05-08T2100,2472A,113.0073,25.9061,郴州市,马头岭,,37,37,58,22,26,31,,104,85,39,18,3,12,0.7,0.9
2024-05-08T2100,2473A,113.0116,25.8226,郴州市,市职中,,42,37,47,29,41,88,,129,120,8,8,7,13,0.7,0.8
2024-05-08T2100,2474A,113.0161,25.8001,郴州市,兴隆步行街,,43,38,50,30,38,86,,132,121,13,10,6,13,0.6,0.7
2024-05-08T2100,2475A,113.0383,25.8071,郴州市,市审计局,,42,42,48,20,31,62,,128,116,25,12,6,14,0.7,0.7
2024-05-08T2100,2476A,113.0348,25.7759,郴州市,市环保局,颗粒物(PM10),51,52,52,28,40,81,,127,118,18,15,6,11,0.7,0.8
2024-05-08T2100,1431A,103.9728,30.7236,成都市,金泉两河,,34,34,49,20,24,49,,54,54,17,24,1,1,0.3,0.5
2024-05-08T2100,1432A,104.176,30.6872,成都市,十里店,,27,27,58,16,36,72,,82,76,26,44,4,4,0.7,0.9
2024-05-08T2100,1433A,104.079,30.5706,成都市,三瓦窑,,46,41,57,32,38,57,,67,64,32,47,2,2,0.4,0.6
2024-05-08T2100,1434A,104.1114,30.63,成都市,沙河铺,,39,39,50,18,31,52,,70,60,27,28,3,2,0.4,0.6
2024-05-08T2100,1437A,104.0786,30.6531,成都市,君平街,,50,37,51,35,27,65,,74,72,20,39,3,4,0.5,0.7
2024-05-08T2100,2880A,104.0239,30.65639,成都市,大石西路,,43,43,48,18,27,66,,71,70,23,40,3,3,0.4,0.6
2024-05-08T2100,3136A,104.2725,30.5589,成都市,龙泉驿区区政府,,25,19,36,14,23,79,,78,74,11,17,1,2,0.4,0.5
2024-05-08T2100,3357A,104.0106,30.6931,成都市,金博路,,35,35,46,19,28,51,,59,59,20,33,1,2,0.5,0.6
2024-05-08T2100,3359A,104.0578,30.5225,成都市,华阳,,35,29,44,24,34,70,,76,76,14,39,2,2,0.3,0.5
2024-05-08T2100,3487A,104.2394,30.5319,成都市,车城东七路,,33,33,49,22,33,77,,78,74,11,29,2,4,0.5,0.6
2024-05-08T2100,3488A,104.3853,30.7453,成都市,青白江技师分院,,32,32,49,17,30,60,,79,74,23,35,2,3,0.5,0.7
2024-05-08T2100,3489A,104.0789,30.4072,成都市,科学城,,32,32,48,20,34,66,,82,76,15,26,2,2,0.6,0.7
2024-05-08T2100,4011A,103.8506,30.6947,成都市,光华大道三段,,42,42,49,21,32,63,,63,63,15,25,3,2,0.4,0.6
2024-05-08T2100,1062A,117.9531,40.9081,承德市,铁路,颗粒物(PM10),64,77,42,24,17,159,,152,152,30,19,8,8,0.4,0.3
2024-05-08T2100,1063A,117.9392,40.9763,承德市,中国银行,颗粒物(PM10),60,70,44,27,15,99,,145,138,36,20,12,10,0.6,0.4
2024-05-08T2100,1064A,117.9503,40.928,承德市,开发区,颗粒物(PM10),66,81,48,26,24,142,,153,152,26,23,7,6,0.5,0.4
2024-05-08T2100,1065A,117.8051,40.9655,承德市,文化中心,颗粒物(PM10),104,158,66,47,23,96,,154,148,79,33,73,28,0.5,0.4
2024-05-08T2100,1066A,117.9268,41.0026,承德市,离宫,颗粒物(PM10),54,58,37,31,21,147,,149,149,11,14,8,7,0.4,0.3
2024-05-08T2100,2314A,117.47,30.6618,池州市,池州学院,颗粒物(PM10),51,51,57,30,38,120,,184,174,33,27,12,8,0.5,0.7
2024-05-08T2100,3237A,117.4918,30.6617,池州市,展览馆,颗粒物(PM10),53,55,49,35,35,116,,177,166,35,27,6,5,0.6,0.8
2024-05-08T2100,3333A,117.5627,30.695,池州市,第八中学,,39,39,54,20,34,122,,185,175,26,20,7,6,0.5,0.8
2024-05-08T2100,3334A,117.5038,30.6243,池州市,第十二中学,颗粒物(PM10),52,53,57,30,35,122,,186,177,32,27,6,6,0.5,1
2024-05-08T2100,1744A,118.9233,42.2816,赤峰市,松山一中,,,159,57,,18,69,,108,91,14,35,8,12,0.5,0.5
2024-05-08T2100,1745A,118.9576,42.2728,赤峰市,哈达街,颗粒物(PM10),107,164,44,42,17,91,,108,102,20,29,8,10,0.3,0.4
2024-05-08T2100,1746A,118.8788,42.2554,赤峰市,天义路,颗粒物(PM10),100,150,40,19,13,66,,109,87,22,27,6,15,0.2,0.3
2024-05-08T2100,3058A,119.2658,42.0353,赤峰市,银河街,颗粒物(PM10),71,92,50,16,20,77,,120,109,20,25,13,19,0.4,0.4
2024-05-08T2100,3286A,118.9359,42.3147,赤峰市,桥北物流园区,颗粒物(PM10),102,153,48,37,24,79,,115,97,21,39,7,11,0.3,0.4
2024-05-08T2100,2521A,107.3476,22.4136,崇左市,市环保局江州分局,,24,16,39,11,21,76,,86,86,6,15,7,8,0.6,0.7
2024-05-08T2100,2522A,107.3702,22.3707,崇左市,城南新区,,23,17,30,16,28,70,,87,86,12,18,6,6,0.7,0.7
2024-05-08T2100,2298A,118.3093,32.3153,滁州市,老年大学,,46,46,43,22,25,117,,158,150,25,16,6,9,0.5,0.5
2024-05-08T2100,2299A,118.3244,32.2786,滁州市,人大宾馆,,45,45,41,19,21,101,,154,142,35,18,5,8,0.6,0.6
2024-05-08T2100,3207A,118.3118,32.3038,滁州市,市政府原办公楼,,43,43,43,30,27,105,,155,146,32,19,5,10,0.6,0.5
2024-05-08T2100,3331A,118.3267,32.2634,滁州市,图书馆,,43,43,48,23,20,126,,154,148,13,13,7,8,0.6,0.5
2024-05-08T2100,2605A,101.5482,25.0441,楚雄彝族自治州,州环境监测站,,42,,34,29,28,84,,110,108,8,9,6,7,0.6,0.6
2024-05-08T2100,2606A,101.538,25.0492,楚雄彝族自治州,市经济开发区,,45,37,28,31,27,80,,106,103,12,12,4,5,0.6,0.5
2024-05-08T2100,2548A,107.5277,31.2827,达州市,达州职业技术学院,颗粒物(PM10),55,59,46,16,17,27,,111,95,57,22,6,6,0.6,0.4
2024-05-08T2100,2549A,107.5086,31.2186,达州市,市环境监测站,颗粒物(PM10),55,60,53,29,20,31,,112,99,64,27,8,8,1.0,0.7
2024-05-08T2100,2550A,107.4988,31.2132,达州市,凤凰小区,颗粒物(PM10),62,73,52,31,21,41,,112,99,57,24,8,9,1.0,0.8
2024-05-08T2100,2551A,107.5082,31.1986,达州市,达县机关宾馆,细颗粒物(PM2.5),94,105,55,70,29,18,,103,86,77,33,5,5,0.6,0.3
2024-05-08T2100,2552A,107.4644,31.2124,达州市,市政中心,颗粒物(PM10),79,107,54,48,21,18,,106,89,82,25,10,8,0.7,0.7
2024-05-08T2100,2614A,100.1542,25.7054,大理白族自治州,大理市环境监测站,,37,36,45,14,23,117,,122,122,21,20,6,6,0.6,0.6
2024-05-08T2100,2615A,100.2171,25.5811,大理白族自治州,大理古城,,38,,33,17,24,119,,116,116,12,13,8,7,0.6,0.6
2024-05-08T2100,1109A,121.612,38.9741,大连市,甘井子,细颗粒物(PM2.5),80,89,56,59,30,139,,141,138,35,24,15,11,0.8,0.7
2024-05-08T2100,1110A,121.565,38.9511,大连市,周水子,细颗粒物(PM2.5),75,82,55,55,31,121,,144,122,44,34,11,10,1.0,1
2024-05-08T2100,1111A,121.5637,38.8845,大连市,星海三站,细颗粒物(PM2.5),59,60,54,42,31,120,,137,114,32,22,9,7,0.6,0.7
2024-05-08T2100,1112A,121.6302,38.9117,大连市,青泥洼桥,"细颗粒物(PM2.5),臭氧1小时",62,68,57,44,30,169,,161,161,17,20,15,12,0.5,0.6
2024-05-08T2100,1113A,121.6251,38.8638,大连市,傅家庄,颗粒物(PM10),53,56,49,34,29,103,,122,102,31,24,9,9,0.4,0.6
2024-05-08T2100,1114A,121.5213,38.8661,大连市,七贤岭,细颗粒物(PM2.5),80,90,56,59,35,116,,142,124,42,23,10,10,0.5,0.7
2024-05-08T2100,1115A,121.2529,38.8061,大连市,旅顺,颗粒物(PM10),57,64,62,38,33,143,,180,175,34,20,12,11,0.6,0.6
2024-05-08T2100,1116A,121.7485,39.1311,大连市,金州,细颗粒物(PM2.5),72,88,65,52,37,153,,169,169,28,24,19,10,0.9,0.8
2024-05-08T2100,1117A,121.7811,39.0496,大连市,开发区,颗粒物(PM10),59,67,61,41,31,119,,133,130,37,34,9,10,0.6,0.7
2024-05-08T2100,1118A,121.9762,39.0631,大连市,双D港,细颗粒物(PM2.5),59,60,51,42,28,156,,123,118,27,26,15,12,0.8,0.7
2024-05-08T2100,1789A,124.81117,46.03138,大庆市,大同区,颗粒物(PM10),71,91,98,36,37,118,,131,128,8,13,7,7,0.4,0.4
2024-05-08T2100,1790A,125.129,46.533,大庆市,龙凤区,,,143,70,40,26,,,124,,11,18,6,9,0.4,0.4
2024-05-08T2100,1791A,124.902,46.408,大庆市,红岗区,颗粒物(PM10),97,143,99,32,23,110,,110,110,8,13,6,7,0.4,0.4
2024-05-08T2100,1792A,125.153,46.586,大庆市,萨尔图区,颗粒物(PM10),137,223,89,28,25,94,,109,108,8,16,7,10,0.2,0.2
2024-05-08T2100,1793A,124.9042,46.6215,大庆市,让胡路区,颗粒物(PM10),118,185,89,27,23,85,,126,121,6,15,5,5,0.2,0.3
2024-05-08T2100,3481A,125.141,46.634,大庆市,萨区政府监测点,颗粒物(PM10),103,156,87,32,24,88,,125,119,6,13,7,8,0.2,0.2
2024-05-08T2100,1723A,113.2994,40.0758,大同市,云冈宾馆,颗粒物(PM10),53,55,51,9,21,73,,124,119,59,32,8,12,0.6,0.9
2024-05-08T2100,1724A,113.3444,40.0917,大同市,大同大学,,42,36,44,29,14,86,,127,124,39,20,13,21,0.4,0.6
2024-05-08T2100,1725A,113.2661,40.1269,大同市,安家小村,颗粒物(PM10),59,67,67,20,20,85,,121,118,30,29,10,15,0.4,1.8
2024-05-08T2100,1726A,113.2711,40.0844,大同市,教育学院,细颗粒物(PM2.5),90,74,62,67,23,39,,132,122,88,36,8,14,1.1,1.2
2024-05-08T2100,3282A,113.3397,40.0597,大同市,大同市卫生学校,,34,34,44,19,14,90,,126,123,39,28,8,15,0.5,0.7
2024-05-08T2100,3565A,113.1367,40.1122,大同市,云冈站,颗粒物(PM10),56,62,54,19,16,82,,123,118,25,32,13,15,0.3,0.5
2024-05-08T2100,3566A,113.1186,40.2556,大同市,图书馆,颗粒物(PM10),65,79,38,23,14,44,,114,103,52,21,21,14,0.5,0.5
2024-05-08T2100,3567A,113.5931,40.0461,大同市,区一中,,33,33,34,21,10,74,,127,118,34,21,10,9,0.4,0.3
2024-05-08T2100,3676A,113.2802,40.0995,大同市,第二人民医院,,46,46,62,21,18,93,,125,123,36,29,11,15,0.5,1
2024-05-08T2100,2269A,124.1069,50.4097,大兴安岭地区,科技局,,26,16,31,11,14,81,,91,85,3,4,5,5,0.5,0.5
2024-05-08T2100,3663A,124.1164,50.4278,大兴安岭地区,红旗社区,,26,5,30,3,10,83,,91,87,2,11,4,7,0.3,0.3
2024-05-08T2100,1600A,124.3303,40.0625,丹东市,江湾东路,细颗粒物(PM2.5),67,66,43,48,26,84,,118,111,29,21,17,10,0.5,0.5
2024-05-08T2100,1601A,124.4256,40.1503,丹东市,临江后街,,42,42,33,27,20,93,,127,123,13,12,7,8,0.7,0.7
2024-05-08T2100,1602A,124.3933,40.1461,丹东市,元宝山,颗粒物(PM10),53,55,37,34,17,87,,117,113,23,18,10,9,1.0,0.8
2024-05-08T2100,1603A,124.3633,40.1092,丹东市,民主桥,,47,47,39,32,21,85,,114,108,19,20,11,12,0.6,0.6
2024-05-08T2100,3541A,109.5726,19.5167,儋州市,第一中学子站,,21,21,20,11,12,54,,70,70,7,6,4,4,0.4,0.4
2024-05-08T2100,3542A,109.5567,19.5187,儋州市,东坡学校子站,,17,12,23,11,12,53,,72,71,7,5,5,6,0.5,0.4
2024-05-08T2100,2616A,98.5842,24.428,德宏傣族景颇族自治州,德宏州监测站,"颗粒物(PM10),细颗粒物(PM2.5)",62,74,46,44,43,98,,137,133,33,18,3,4,0.7,0.6
2024-05-08T2100,3677A,98.5881,24.4368,德宏傣族景颇族自治州,芒市人民政府综合楼,颗粒物(PM10),52,54,53,28,34,103,,131,129,21,13,4,5,0.7,0.6
2024-05-08T2100,1901A,104.4239,31.1208,德阳市,东山公园,,50,50,75,25,34,49,,86,81,31,28,3,5,0.5,0.7
2024-05-08T2100,1902A,104.3826,31.1317,德阳市,西小区,颗粒物(PM10),51,52,83,28,43,45,,79,76,38,41,2,4,0.6,0.8
2024-05-08T2100,1904A,104.3553,31.1091,德阳市,耐火材料厂,,48,48,80,26,41,44,,79,76,40,41,4,6,0.6,0.7
2024-05-08T2100,3639A,104.4019,31.1244,德阳市,市教育局,,44,44,68,25,38,46,,78,75,34,35,2,4,0.5,0.7
2024-05-08T2100,1622A,116.3032,37.4674,德州市,儿童乐园,颗粒物(PM10),71,92,102,29,42,145,,183,171,21,21,8,11,0.6,0.7
2024-05-08T2100,1624A,116.2991,37.4451,德州市,监理站,颗粒物(PM10),69,88,97,31,42,147,,188,174,18,22,9,11,0.5,0.6
2024-05-08T2100,3066A,116.2721,37.4379,德州市,九衢泉纯净水厂,颗粒物(PM10),73,95,98,31,47,110,,179,155,47,32,7,9,0.3,0.4
2024-05-08T2100,3371A,116.3728,37.4403,德州市,开发区人民医院,颗粒物(PM10),62,73,100,22,40,148,,188,177,21,22,11,13,0.4,0.5
2024-05-08T2100,3372A,116.3572,37.4094,德州市,太阳城中学,颗粒物(PM10),73,95,106,31,47,120,,182,168,25,28,7,10,0.4,0.6
2024-05-08T2100,3511A,116.5652,37.3319,德州市,陵城艺术中心,颗粒物(PM10),65,80,105,27,42,119,,178,164,34,24,11,13,0.6,0.7
2024-05-08T2100,2621A,99.7056,27.8317,迪庆藏族自治州,迪庆州站,,34,30,24,16,15,107,,127,123,12,10,7,8,0.5,0.4
2024-05-08T2100,3180A,99.7136,27.8094,迪庆藏族自治州,质量技术监督局,,37,29,22,11,10,116,,130,125,11,10,7,7,0.5,0.4
2024-05-08T2100,2663A,104.6241,35.5734,定西市,东关小学,,40,40,53,23,22,111,,128,122,10,13,4,4,0.2,0.3
2024-05-08T2100,2664A,104.6194,35.5934,定西市,供电公司,,48,46,47,33,30,106,,123,117,6,10,5,5,0.1,0.2
2024-05-08T2100,1389A,113.7547,23.0494,东莞市,莞城梨川,,36,36,36,20,21,105,,107,98,18,22,7,8,0.8,0.8
2024-05-08T2100,1390A,113.7944,23.0128,东莞市,东城石井,,33,29,31,18,20,103,,109,104,14,19,6,7,0.7,0.8
2024-05-08T2100,1391A,113.7383,22.9658,东莞市,南城西平,,34,24,37,12,22,108,,128,127,12,29,4,9,0.8,0.9
2024-05-08T2100,3319A,113.7338,23.0381,东莞市,万江金泰,,34,34,34,23,22,102,,103,95,20,19,7,7,0.9,0.9
2024-05-08T2100,3626A,113.7533,23.0202,东莞市,南城元岭,,32,27,32,18,21,102,,116,107,18,18,8,8,0.8,0.8
2024-05-08T2100,3627A,113.7875,23.0457,东莞市,东城主山,,34,29,30,18,21,106,,105,97,13,18,7,9,0.7,0.7
2024-05-08T2100,1666A,118.6614,37.4309,东营市,市环保局,颗粒物(PM10),57,63,65,29,33,158,,209,204,41,36,11,16,0.4,0.4
2024-05-08T2100,3036A,118.6904,37.4338,东营市,开发区管委会,颗粒物(PM10),64,78,68,44,35,155,,199,192,32,31,20,12,0.7,0.5
2024-05-08T2100,3365A,118.5719,37.565,东营市,垦利区民丰路,颗粒物(PM10),79,107,74,41,36,156,,210,204,43,43,14,13,0.7,0.6
2024-05-08T2100,3498A,118.5055,37.8612,东营市,河口城区,颗粒物(PM10),71,92,78,51,39,136,,186,179,19,22,7,12,0.5,0.5
2024-05-08T2100,3646A,118.4978,37.4623,东营市,胜利站,颗粒物(PM10),62,74,67,41,35,144,,202,193,53,40,13,15,1.0,0.8
2024-05-08T2100,3734A,118.35,37.26,东营市,理想之城,颗粒物(PM10),73,95,69,41,35,110,,206,191,62,43,14,20,0.9,0.9
2024-05-08T2100,1591A,110.0023,39.8129,鄂尔多斯市,综合楼,颗粒物(PM10),67,83,53,17,19,133,,151,151,24,30,6,7,0.5,0.6
2024-05-08T2100,1592A,109.9486,39.8261,鄂尔多斯市,巴音孟克林场办事处,颗粒物(PM10),59,68,50,24,15,129,,145,145,22,20,10,9,0.5,0.5
2024-05-08T2100,1593A,109.7736,39.5986,鄂尔多斯市,康泽苑,,47,39,36,24,16,148,,157,157,22,22,6,6,0.5,0.5
2024-05-08T2100,1594A,109.8119,39.5989,鄂尔多斯市,华泰汽车城,,41,29,38,17,16,131,,142,142,21,38,6,6,0.3,0.4
2024-05-08T2100,1595A,109.9734,39.7884,鄂尔多斯市,奥林花园,颗粒物(PM10),59,68,58,39,21,119,,143,142,27,38,8,8,0.5,0.6
2024-05-08T2100,2436A,114.8938,30.3994,鄂州市,市政府,颗粒物(PM10),72,93,55,50,28,149,,163,161,16,24,15,10,1.0,0.3
2024-05-08T2100,3654A,114.8094,30.4089,鄂州市,精准医疗中心,"颗粒物(PM10),细颗粒物(PM2.5)",67,84,70,48,30,145,,157,155,18,22,10,7,0.5,0.4
2024-05-08T2100,2454A,109.4978,30.2981,恩施土家族苗族自治州,湖北民院,,48,46,38,33,21,92,,118,116,25,18,7,7,0.7,0.7
2024-05-08T2100,2455A,109.4707,30.2798,恩施土家族苗族自治州,州电力总公司,,45,44,38,31,24,90,,113,111,26,29,8,8,0.7,0.6
2024-05-08T2100,3549A,109.5061,30.3772,恩施土家族苗族自治州,龙凤新区,,48,48,30,33,20,43,,117,102,23,11,6,6,0.7,0.5
2024-05-08T2100,2499A,108.3411,21.6158,防城港市,沙万,,26,,40,18,26,72,,81,81,18,23,7,9,1.2,0.9
2024-05-08T2100,2500A,108.3514,21.7731,防城港市,防城档案局,,25,25,70,14,30,61,,82,78,18,20,3,5,0.6,0.9
2024-05-08T2100,2501A,108.3506,21.6414,防城港市,大海花园,,26,13,35,11,19,83,,86,86,12,16,5,9,0.7,0.8
2024-05-08T2100,1371A,113.1294,23.0067,佛山市,湾梁,,41,41,32,20,20,32,,109,92,40,26,8,8,0.6,0.4
2024-05-08T2100,1372A,113.1083,23.0478,佛山市,华材职中,,41,41,31,25,22,6,,96,76,71,28,2,2,0.9,0.6
2024-05-08T2100,1373A,113.144,23.0453,佛山市,南海气象局,,35,33,39,24,23,22,,90,79,50,23,8,8,1.0,0.7
2024-05-08T2100,1374A,113.2881,22.8094,佛山市,顺德苏岗,,45,32,28,31,25,60,,140,130,28,24,5,5,0.9,0.8
2024-05-08T2100,1376A,112.8383,22.8678,佛山市,高明孔堂,,42,42,38,22,24,66,,144,142,20,19,5,7,0.7,0.8
2024-05-08T2100,1377A,112.8836,23.1588,佛山市,三水监测站,颗粒物(PM10),54,58,30,34,23,21,,100,78,71,33,6,5,0.8,0.7
2024-05-08T2100,1378A,112.867,23.185,佛山市,三水云东海,,45,37,29,31,23,7,,100,80,61,25,4,4,0.8,0.6
2024-05-08T2100,3625A,113.2544,22.7642,佛山市,容桂街道办,,35,27,29,24,22,79,,157,151,32,24,4,4,0.6,0.5
2024-05-08T2100,1282A,119.2681,26.0504,福州市,师大,臭氧1小时,68,44,44,36,34,174,,160,160,12,13,4,5,0.6,0.7
2024-05-08T2100,1283A,119.2984,26.1028,福州市,五四北路,臭氧1小时,87,40,32,32,34,189,,170,170,14,18,4,4,0.7,0.8
2024-05-08T2100,1284A,119.2648,26.0768,福州市,杨桥西路,臭氧1小时,93,33,41,29,33,194,,172,172,8,17,4,4,0.7,0.8
2024-05-08T2100,1285A,119.317,26.0746,福州市,紫阳,臭氧1小时,75,42,46,28,35,180,,162,162,11,18,4,4,0.5,0.7
2024-05-08T2100,3048A,119.5799,26.0936,福州市,九龙,臭氧1小时,94,46,33,32,26,195,,181,181,12,11,6,5,0.5,0.6
2024-05-08T2100,3526A,119.5189,25.9664,福州市,吴航,臭氧1小时,92,46,35,35,26,193,,171,171,4,8,5,4,0.8,0.9
2024-05-08T2100,1755A,123.7977,41.8491,抚顺市,望花区,颗粒物(PM10),58,66,56,30,32,122,,157,149,28,29,9,6,0.7,0.5
2024-05-08T2100,1756A,123.9161,41.8822,抚顺市,顺城区,,48,48,50,21,28,131,,152,149,22,33,10,10,0.9,0.5
2024-05-08T2100,1757A,124.0436,41.8611,抚顺市,东洲区,颗粒物(PM10),61,72,36,23,22,101,,146,138,29,14,6,5,0.5,0.3
2024-05-08T2100,1758A,123.9247,41.8642,抚顺市,新抚区,颗粒物(PM10),52,53,48,25,25,132,,153,149,15,24,9,8,0.5,0.4
2024-05-08T2100,1759A,124.0972,41.8961,抚顺市,大伙房水库,,45,41,49,18,25,141,,158,158,10,16,10,7,0.3,0.2
2024-05-08T2100,1760A,123.7086,41.8391,抚顺市,沈抚新城,颗粒物(PM10),69,87,64,25,30,92,,142,131,34,32,16,10,0.6,0.6
2024-05-08T2100,2376A,116.2127,28.0814,抚州市,桐源党溪,,46,46,45,26,27,77,,141,128,9,6,6,6,0.5,0.6
2024-05-08T2100,2377A,116.3544,27.9831,抚州市,市站,,50,50,51,31,33,135,,152,147,12,13,3,7,0.7,0.8
2024-05-08T2100,2378A,116.3565,27.963,抚州市,血防站,,48,48,51,27,31,141,,155,152,9,13,1,8,0.7,0.7
2024-05-08T2100,2379A,116.3564,28.0007,抚州市,采茶剧团,,50,50,50,33,32,124,,148,142,13,13,4,6,0.7,0.8
2024-05-08T2100,2380A,116.385,27.9647,抚州市,医学分院,颗粒物(PM10),55,60,56,33,30,129,,157,150,13,14,29,9,0.8,0.9
2024-05-08T2100,2207A,121.6094,41.998,阜新市,工业园区,"细颗粒物(PM2.5),臭氧1小时",109,150,95,82,43,217,,172,172,13,26,13,15,1.0,0.7
2024-05-08T2100,2208A,121.6697,42.0279,阜新市,长青街,臭氧1小时,101,125,74,74,40,202,,160,160,14,27,14,15,1.0,1.2
2024-05-08T2100,2209A,121.6673,42.0705,阜新市,农业园区,臭氧1小时,109,97,65,46,26,218,,167,167,10,11,12,13,0.8,1.1
2024-05-08T2100,2210A,121.6717,42.0224,阜新市,东苑,臭氧1小时,97,104,84,61,35,197,,158,158,18,30,16,19,0.9,1.2
2024-05-08T2100,2211A,121.6506,42.0498,阜新市,玉龙新城,臭氧1小时,105,104,73,70,32,210,,166,166,13,28,13,13,0.9,1.3
2024-05-08T2100,2301A,115.8277,32.8929,阜阳市,市监测站,,40,40,51,25,30,99,,139,129,29,21,10,9,0.3,0.4
2024-05-08T2100,2303A,115.8554,32.8605,阜阳市,开发区,颗粒物(PM10),64,77,60,25,26,98,,137,128,34,21,8,7,0.4,0.4
2024-05-08T2100,2875A,115.784,32.8892,阜阳市,阜阳职业技术学院,,38,37,50,21,24,120,,142,137,16,20,9,8,0.3,0.3
2024-05-08T2100,3468A,115.7901,32.8613,阜阳市,市规划展馆,,40,40,51,18,21,118,,146,140,21,16,7,8,0.3,0.4
2024-05-08T2100,3469A,115.836,32.9183,阜阳市,枣园社区,,36,32,48,20,23,114,,140,133,20,22,7,8,0.3,0.3
2024-05-08T2100,2669A,102.9099,34.9841,甘南藏族自治州,州政府,,32,32,33,21,20,92,,123,120,14,19,14,8,0.8,0.8
2024-05-08T2100,3380A,102.8914,34.9617,甘南藏族自治州,甘肃民族师范学院,,41,41,41,16,16,96,,134,129,18,29,8,12,0.7,0.7
2024-05-08T2100,2570A,101.9603,30.0475,甘孜藏族自治州,水桥子,,20,,6,4,8,61,,102,92,23,15,2,2,0.3,0.3
2024-05-08T2100,3065A,101.9533,29.9972,甘孜藏族自治州,州环保局,,24,,11,12,6,76,,100,93,18,19,1,1,0.3,0.3
2024-05-08T2100,3414A,115.8347,28.932,赣江新区,桑海产业园,颗粒物(PM10),51,51,53,34,31,137,,168,160,16,23,11,10,0.6,0.7
2024-05-08T2100,2363A,114.9367,25.8664,赣州市,地委,,40,40,39,26,23,109,,120,118,11,14,12,11,0.6,0.7
2024-05-08T2100,2364A,114.9461,25.8481,赣州市,气象台,,39,32,40,27,24,104,,120,116,10,15,8,8,0.4,0.5
2024-05-08T2100,2365A,114.9322,25.8333,赣州市,市图书馆,,42,42,40,28,24,112,,124,121,11,14,13,7,0.8,0.9
2024-05-08T2100,2366A,114.8905,25.8471,赣州市,华坚鞋城,,46,46,45,22,24,121,,122,121,11,14,10,10,0.4,0.5
2024-05-08T2100,3109A,115.0093,25.8613,赣州市,赣县区卫计委,,47,47,41,31,25,94,,117,112,17,21,11,10,0.5,0.6
2024-05-08T2100,2683A,106.2319,36.1417,固原市,马园,,37,37,53,17,26,69,,124,107,44,25,7,5,0.5,0.4
2024-05-08T2100,2684A,106.2792,36.0022,固原市,监测站,,32,23,40,11,18,102,,119,112,11,13,2,2,0.3,0.4
2024-05-08T2100,2685A,106.2375,36.0211,固原市,新区,,41,41,55,13,18,96,,120,114,15,14,3,2,0.3,0.3
2024-05-08T2100,3522A,106.2177,35.9959,固原市,原州区十五小,,34,30,45,16,21,108,,136,118,7,8,5,5,0.1,0.2
2024-05-08T2100,2544A,106.6303,30.4576,广安市,市委,细颗粒物(PM2.5),85,81,93,63,66,109,,142,138,22,21,12,11,0.8,0.9
2024-05-08T2100,2545A,106.6271,30.4663,广安市,友谊中学,细颗粒物(PM2.5),74,74,75,54,56,112,,145,140,22,22,14,9,0.8,0.9
2024-05-08T2100,2547A,106.6388,30.4551,广安市,广电花园,细颗粒物(PM2.5),77,78,81,56,55,108,,138,135,19,18,10,9,0.8,0.9
2024-05-08T2100,2902A,106.6351,30.4865,广安市,北辰小学,细颗粒物(PM2.5),78,70,92,57,58,119,,147,143,16,17,16,10,0.8,0.9
2024-05-08T2100,2523A,105.8945,32.4535,广元市,黑石坡,,37,37,36,25,27,36,,75,59,12,13,5,5,0.3,0.5
2024-05-08T2100,2524A,105.821,32.4444,广元市,老城,颗粒物(PM10),51,52,46,25,22,22,,84,70,45,31,6,7,0.9,1
2024-05-08T2100,2526A,105.8628,32.4287,广元市,监测站,,40,34,42,28,30,39,,91,79,13,15,4,4,0.5,0.6
2024-05-08T2100,3617A,105.8047,32.4166,广元市,经开区,,47,47,51,28,34,32,,88,73,29,25,6,8,0.7,0.8
2024-05-08T2100,1345A,113.2347,23.1423,广州市,广雅中学,,48,48,29,28,19,4,,83,66,81,35,5,5,1.2,0.9
2024-05-08T2100,1346A,113.2612,23.105,广州市,市五中,,43,40,28,30,23,33,,99,86,51,26,7,7,1.0,0.9
2024-05-08T2100,1348A,113.3478,23.0916,广州市,广东商学院,颗粒物(PM10),51,51,30,32,20,5,,90,64,71,38,4,4,0.7,0.5
2024-05-08T2100,1349A,113.4332,23.1047,广州市,市八十六中,颗粒物(PM10),54,57,30,28,19,11,,76,61,70,40,4,4,0.9,0.7
2024-05-08T2100,1350A,113.3505,22.9483,广州市,番禺中学,,39,39,35,26,24,46,,118,104,40,33,4,5,0.9,0.7
2024-05-08T2100,1351A,113.2146,23.3916,广州市,花都师范,,47,47,25,28,14,43,,85,72,40,22,6,6,0.7,0.7
2024-05-08T2100,1352A,113.2597,23.1331,广州市,市监测站,,50,50,29,29,19,8,,81,67,74,29,5,5,0.9,0.6
2024-05-08T2100,1353A,113.5618,23.312,广州市,九龙镇镇龙,,41,41,25,25,15,20,,73,57,34,17,6,6,0.7,0.6
2024-05-08T2100,1354A,113.2765,23.1544,广州市,麓湖,,29,29,26,20,17,31,,78,57,28,28,4,5,0.6,0.6
2024-05-08T2100,1355A,113.443,23.3035,广州市,帽峰山森林公园,,22,21,14,15,10,44,,75,66,7,9,4,5,0.6,0.5
2024-05-08T2100,2846A,113.3221,23.1322,广州市,体育西,,41,41,28,27,19,50,,90,82,29,19,5,5,0.8,0.8
2024-05-08T2100,3298A,113.5717,23.5491,广州市,从化街口,,48,48,21,27,12,25,,77,64,28,15,5,5,0.8,0.7
2024-05-08T2100,3299A,113.3472,23.3692,广州市,白云竹料,颗粒物(PM10),51,51,22,34,14,9,,88,73,63,19,4,6,1.0,0.8
2024-05-08T2100,3300A,113.2981,23.237,广州市,白云嘉禾,,45,45,28,20,16,26,,80,66,53,33,5,5,1.0,0.8
2024-05-08T2100,3301A,113.4256,23.1716,广州市,黄埔科学城,,31,31,23,16,13,37,,86,70,34,23,4,4,0.8,0.7
2024-05-08T2100,3302A,113.3942,23.0483,广州市,番禺大学城,,38,32,32,26,20,13,,83,68,62,39,8,9,1.0,0.8
2024-05-08T2100,3303A,113.4922,22.8168,广州市,南沙黄阁,,33,30,42,23,26,100,,170,155,30,41,6,6,0.8,0.8
2024-05-08T2100,3304A,113.5342,22.7896,广州市,南沙街,,50,50,44,22,29,104,,169,158,20,32,6,7,0.7,0.7
2024-05-08T2100,3443A,113.2902,23.5544,广州市,花都梯面,,40,40,22,27,16,74,,97,93,19,10,7,4,0.8,0.7
2024-05-08T2100,3445A,113.7858,23.7478,广州市,从化良口,,30,30,19,16,12,44,,85,73,9,6,4,4,0.8,0.7
2024-05-08T2100,3446A,113.8051,23.2614,广州市,增城荔城,,39,39,26,22,16,26,,76,66,25,12,4,4,0.7,0.6
2024-05-08T2100,2506A,109.6047,23.0666,贵港市,江南子站,,46,39,43,32,32,28,,64,45,24,22,8,8,0.7,0.8
2024-05-08T2100,2507A,109.6014,23.0948,贵港市,贵城子站,颗粒物(PM10),51,52,44,32,30,32,,60,45,19,19,7,9,0.7,0.6
2024-05-08T2100,2508A,109.5669,23.1065,贵港市,荷城子站,,35,34,33,24,19,36,,53,41,13,15,8,9,0.6,0.6
2024-05-08T2100,3405A,109.5886,23.1172,贵港市,新世纪学校,,42,34,33,29,22,30,,57,42,16,15,8,9,0.9,0.8
2024-05-08T2100,1439A,106.6899,26.5998,贵阳市,马鞍山,,15,9,20,7,10,48,,62,54,11,10,6,6,0.2,0.2
2024-05-08T2100,1440A,106.6971,26.5694,贵阳市,市环保站,,18,,19,12,18,51,,86,69,18,15,3,3,0.4,0.3
2024-05-08T2100,1441A,106.6243,26.6266,贵阳市,鉴湖路,,19,7,22,7,13,58,,72,62,6,6,2,2,0.4,0.4
2024-05-08T2100,1442A,106.7487,26.6343,贵阳市,燕子冲,,22,7,20,5,12,70,,78,71,6,5,5,5,0.5,0.4
2024-05-08T2100,1443A,106.6555,26.4365,贵阳市,碧云窝,,16,7,23,7,10,50,,72,57,16,14,4,4,0.4,0.5
2024-05-08T2100,1444A,106.694,26.5161,贵阳市,中院村,,14,14,24,2,12,39,,75,55,19,12,6,6,0.5,0.4
2024-05-08T2100,1445A,106.7109,26.6027,贵阳市,红边门,,20,,23,14,18,56,,85,70,17,13,3,3,0.5,0.3
2024-05-08T2100,1446A,106.7164,26.5699,贵阳市,新华路,,19,9,21,7,15,58,,86,71,12,8,4,5,0.5,0.4
2024-05-08T2100,1447A,106.674,26.5424,贵阳市,太慈桥,,15,12,21,7,11,46,,74,58,17,11,4,4,0.4,0.3
2024-05-08T2100,1862A,110.4144,25.3167,桂林市,电子科大尧山校区,,49,49,48,32,33,81,,113,105,7,7,4,7,0.8,0.8
2024-05-08T2100,1863A,110.2819,25.2697,桂林市,监测站,颗粒物(PM10),56,61,54,39,42,81,,104,99,22,11,5,5,0.9,0.8
2024-05-08T2100,1864A,110.3089,25.2708,桂林市,龙隐路小学,,50,48,45,35,32,72,,104,97,17,9,5,6,0.9,0.8
2024-05-08T2100,1865A,110.2869,25.2178,桂林市,八中,颗粒物(PM10),53,56,50,32,31,67,,84,,28,11,6,6,0.9,0.8
2024-05-08T2100,3403A,110.1764,25.2381,桂林市,创业大厦,细颗粒物(PM2.5),73,66,51,53,36,62,,109,98,21,9,226,21,0.8,0.7
2024-05-08T2100,3531A,110.296,25.1253,桂林市,旅游学院,,41,41,42,27,33,61,,105,96,18,9,6,7,0.8,0.8
2024-05-08T2100,2674A,100.2561,34.4714,果洛藏族自治州,玛沁县大武镇,,33,25,14,19,12,104,,121,118,10,6,10,12,0.4,0.4
2024-05-08T2100,1129A,126.5422,45.755,哈尔滨市,岭北,颗粒物(PM10),61,71,64,29,32,102,,132,126,24,26,9,11,0.5,0.4
2024-05-08T2100,1130A,126.561,45.8167,哈尔滨市,松北商大,,48,48,54,28,25,98,,122,116,17,29,6,5,0.5,0.5
2024-05-08T2100,1131A,126.979,45.5419,哈尔滨市,阿城会宁,颗粒物(PM10),56,62,63,24,28,84,,130,123,11,20,6,4,0.4,0.5
2024-05-08T2100,1132A,126.599,45.7222,哈尔滨市,南岗学府路,颗粒物(PM10),60,70,62,35,36,88,,131,122,26,30,5,5,0.4,0.4
2024-05-08T2100,1133A,126.689,45.7733,哈尔滨市,太平宏伟公园,颗粒物(PM10),59,68,67,24,26,97,,130,123,21,26,5,6,0.5,0.5
2024-05-08T2100,1134A,126.635,45.7667,哈尔滨市,道外承德广场,颗粒物(PM10),60,70,67,36,30,93,,123,116,27,39,7,7,0.3,0.3
2024-05-08T2100,1135A,126.685,45.7319,哈尔滨市,香坊红旗大街,,45,,23,31,31,91,,124,116,23,34,8,7,0.5,0.6
2024-05-08T2100,1136A,126.6411,45.7258,哈尔滨市,动力和平路,颗粒物(PM10),58,65,66,27,25,93,,128,120,24,30,6,7,0.4,0.4
2024-05-08T2100,1137A,126.593,45.7478,哈尔滨市,道里建国路,颗粒物(PM10),58,65,66,30,31,87,,124,116,29,42,7,8,0.7,0.3
2024-05-08T2100,1138A,126.615,45.61,哈尔滨市,平房东轻厂,颗粒物(PM10),66,81,81,31,37,88,,126,116,14,36,7,9,0.4,0.3
2024-05-08T2100,1139A,126.595,45.9855,哈尔滨市,呼兰师专,颗粒物(PM10),63,75,73,40,36,110,,128,118,16,27,6,7,0.4,0.5
2024-05-08T2100,1140A,126.6206,45.6842,哈尔滨市,省农科院,颗粒物(PM10),61,72,67,31,38,89,,131,121,26,37,5,6,0.4,0.5
2024-05-08T2100,2688A,93.5128,42.8172,哈密市,地区监测站,颗粒物(PM10),76,101,80,33,27,87,,105,104,27,13,6,6,0.4,0.3
2024-05-08T2100,2689A,93.4961,42.8328,哈密市,哈密师范学校,颗粒物(PM10),88,126,75,32,23,89,,104,104,22,12,4,5,0.4,0.3
2024-05-08T2100,2671A,100.9048,36.9639,海北藏族自治州,海晏县西海镇,颗粒物(PM10),58,65,49,23,18,129,,141,140,9,10,16,17,0.2,0.5
2024-05-08T2100,3867A,102.0738,36.5056,海东市,平安区公安北苑,,42,42,53,25,28,120,,145,142,16,13,9,12,0.6,0.6
2024-05-08T2100,1410A,110.3232,20.0574,海口市,海南大学,,,,20,,11,,,64,64,7,6,,5,,0.2
2024-05-08T2100,1411A,110.283,20.0053,海口市,秀英海南医院,,28,28,23,19,15,63,,60,57,5,11,5,5,0.3,0.3
2024-05-08T2100,1412A,110.338,19.9969,海口市,海南师范大学,,22,20,21,15,13,65,,61,60,2,6,6,6,0.4,0.4
2024-05-08T2100,1413A,110.33,20.0356,海口市,龙华路环保局宿舍,,25,24,22,17,13,68,,61,61,3,6,6,6,0.4,0.3
2024-05-08T2100,3539A,110.5111,19.9736,海口市,桂林洋子站,,26,22,22,18,13,69,,59,59,4,9,5,6,0.3,0.3
2024-05-08T2100,2673A,100.6188,36.2866,海南藏族自治州,共和县恰卜恰镇,,50,50,42,10,20,116,,140,139,29,17,12,12,0.6,0.4
2024-05-08T2100,2676A,97.3731,37.3753,海西蒙古族藏族自治州,德令哈市,,44,36,33,20,14,140,,145,145,5,6,8,7,0.6,0.6
2024-05-08T2100,1048A,114.5302,36.6116,邯郸市,东污水处理厂,颗粒物(PM10),55,59,65,24,36,116,,148,138,18,20,7,10,0.3,0.5
2024-05-08T2100,1049A,114.4918,36.5713,邯郸市,矿院,颗粒物(PM10),57,63,67,24,36,115,,147,136,19,27,9,10,0.4,0.6
2024-05-08T2100,1050A,114.484,36.6133,邯郸市,丛台公园,颗粒物(PM10),57,64,69,20,33,128,,156,146,8,11,7,11,0.3,0.5
2024-05-08T2100,3458A,114.7895,36.5593,邯郸市,香泉濮院小区,颗粒物(PM10),61,71,92,27,35,126,,169,157,14,14,9,14,0,0.2
2024-05-08T2100,3579A,114.50634,36.77178,邯郸市,永年区实验高中,颗粒物(PM10),56,62,88,19,37,146,,169,160,12,21,8,11,0.2,0.4
2024-05-08T2100,3580A,114.20016,36.44293,邯郸市,峰峰矿区临水派出所,颗粒物(PM10),56,61,67,20,29,128,,161,153,17,14,7,7,0.5,0.6
2024-05-08T2100,2634A,106.9893,33.1842,汉中市,汉川机床厂子校,,48,34,42,33,32,66,,102,92,11,14,4,5,0.7,0.5
2024-05-08T2100,2635A,107.0154,33.0706,汉中市,市监测站,,,,58,24,33,,,106,100,10,16,8,15,,0.9
2024-05-08T2100,2636A,107.0089,33.1138,汉中市,鑫源开发区,,44,44,46,23,26,67,,105,94,15,19,9,22,0.8,0.9
2024-05-08T2100,2637A,107.007,33.0323,汉中市,南郑大河坎水厂,,41,41,50,24,33,64,,108,94,11,13,7,9,0.6,0.6
2024-05-08T2100,1223A,120.2072,30.2111,杭州市,滨江,,34,34,62,20,37,103,,200,183,22,21,5,5,0.6,0.8
2024-05-08T2100,1224A,120.0633,30.2747,杭州市,西溪,,36,19,46,9,33,113,,188,177,23,26,6,7,0.5,0.7
2024-05-08T2100,1226A,120.3461,30.3153,杭州市,下沙,,33,33,72,6,35,82,,180,155,28,59,7,8,0.5,0.8
2024-05-08T2100,1227A,120.1269,30.2456,杭州市,卧龙桥,,35,31,46,16,36,109,,196,182,24,17,5,5,0.6,0.7
2024-05-08T2100,1228A,120.1903,30.2692,杭州市,浙江农大,,34,34,60,15,39,88,,167,154,24,28,7,7,0.4,0.7
2024-05-08T2100,1230A,120.1197,30.3119,杭州市,和睦小学,,34,25,71,10,34,108,,191,176,20,28,5,7,0.5,0.8
2024-05-08T2100,1231A,120.3019,30.4183,杭州市,临平镇,,29,23,70,10,47,91,,188,164,18,26,4,6,0.5,0.7
2024-05-08T2100,1232A,120.2697,30.1819,杭州市,城厢镇,,32,32,60,13,39,98,,184,168,25,27,6,6,0.6,0.9
2024-05-08T2100,1233A,120.0883,30.1808,杭州市,云栖,,40,40,57,15,30,121,,198,182,27,22,8,8,0.5,0.7
2024-05-08T2100,3557A,119.9464,30.0494,杭州市,镇二中,,46,39,49,19,33,147,,193,190,24,29,8,8,0.5,0.8
2024-05-08T2100,3558A,119.7183,30.2367,杭州市,市府大楼,,49,35,52,27,39,154,,196,194,27,21,7,6,0.5,0.8
2024-05-08T2100,3656A,120.1556,30.2864,杭州市,消防大队,,30,28,63,13,39,94,,184,170,24,31,6,7,0.6,0.9
2024-05-08T2100,1270A,117.1959,31.7848,合肥市,明珠广场,,41,41,48,22,24,107,,151,140,33,33,7,8,0.5,0.6
2024-05-08T2100,1271A,117.3072,31.8764,合肥市,三里街,,36,36,47,19,20,91,,135,128,42,32,6,7,0.3,0.3
2024-05-08T2100,1272A,117.2588,31.8707,合肥市,琥珀山庄,,35,29,46,9,16,110,,142,136,23,22,4,4,0.6,0.7
2024-05-08T2100,1273A,117.1604,31.9052,合肥市,董铺水库,,48,48,54,14,22,108,,133,130,24,22,3,3,0.3,0.3
2024-05-08T2100,1274A,117.25,31.8571,合肥市,长江中路,,39,34,47,27,25,112,,139,134,24,22,6,6,0.4,0.5
2024-05-08T2100,1275A,117.266,31.9436,合肥市,庐阳区,颗粒物(PM10),62,73,63,27,27,55,,143,127,75,38,2,3,0.4,0.4
2024-05-08T2100,1276A,117.336,31.8586,合肥市,瑶海区,颗粒物(PM10),59,68,50,16,20,105,,134,127,22,19,7,8,0.4,0.6
2024-05-08T2100,1277A,117.3027,31.7964,合肥市,包河区,二氧化氮,57,53,52,19,25,20,,128,,114,66,4,7,0.3,0.3
2024-05-08T2100,1278A,117.2776,31.7385,合肥市,滨湖新区,,48,48,48,17,22,90,,136,126,34,30,6,5,0.4,0.4
2024-05-08T2100,1279A,117.1318,31.8403,合肥市,高新区,,39,39,52,18,25,100,,132,125,32,30,7,7,0.5,0.6
2024-05-08T2100,3464A,117.3803,31.9147,合肥市,高教基地,,37,23,36,10,17,116,,138,136,12,12,4,4,0.3,0.3
2024-05-08T2100,3614A,79.924,37.0877,和田地区,地区环保局,,,166,143,,47,108,,120,120,10,3,8,7,0.4,0.4
2024-05-08T2100,3615A,79.9131,37.113,和田地区,市环保局,颗粒物(PM10),87,124,132,42,36,103,,115,114,11,12,5,6,0.4,0.5
2024-05-08T2100,2516A,108.2011,24.715,河池市,东仁乐园,,28,28,37,13,21,6,,9,9,4,8,2,3,0.7,0.8
2024-05-08T2100,2517A,108.0497,24.6947,河池市,市环保站,,23,23,28,13,23,30,,46,44,12,18,9,9,0.5,0.6
2024-05-08T2100,2518A,108.0983,24.6989,河池市,市疾控中心,,39,39,35,19,25,14,,40,36,27,22,9,9,0.6,0.7
2024-05-08T2100,1697A,114.6944,23.7586,河源市,东埔,,44,44,33,26,21,61,,94,89,22,15,7,7,0.8,0.7
2024-05-08T2100,1698A,114.6892,23.7233,河源市,老城,,35,35,29,19,18,50,,90,82,15,10,5,6,0.7,0.6
2024-05-08T2100,1718A,115.4208,35.2464,菏泽市,气象局,颗粒物(PM10),59,67,81,19,36,113,,146,137,30,25,3,7,0.4,0.5
2024-05-08T2100,1719A,115.4747,35.2375,菏泽市,市政协,,44,44,76,18,40,128,,148,143,14,22,5,7,0.1,0.2
2024-05-08T2100,3374A,115.5564,35.0891,菏泽市,定陶老年大学,颗粒物(PM10),65,80,69,19,26,100,,145,132,34,26,8,9,0.5,0.5
2024-05-08T2100,3647A,115.4702,35.2706,菏泽市,菏泽医专,颗粒物(PM10),52,53,79,9,26,135,,153,149,18,25,2,6,0.2,0.4
2024-05-08T2100,2514A,111.5264,24.4172,贺州市,环保小区,细颗粒物(PM2.5),63,49,43,45,30,70,,86,82,15,12,8,8,0.8,0.7
2024-05-08T2100,2515A,111.5608,24.4078,贺州市,政协大楼,颗粒物(PM10),55,59,45,38,30,71,,88,84,14,14,8,8,0.7,0.6
2024-05-08T2100,3534A,111.4744,24.4553,贺州市,西湾,细颗粒物(PM2.5),59,48,41,42,30,70,,81,79,14,8,8,8,0.8,0.7
2024-05-08T2100,2385A,114.17,35.9019,鹤壁市,市监测站,颗粒物(PM10),66,81,84,45,49,137,,161,154,21,31,7,10,0.3,0.3
2024-05-08T2100,2386A,114.2956,35.7511,鹤壁市,市交警支队,颗粒物(PM10),57,64,70,23,37,116,,157,148,17,32,11,14,0.3,0.5
2024-05-08T2100,2387A,114.2878,35.7306,鹤壁市,迎宾馆,颗粒物(PM10),54,58,69,20,33,115,,157,149,18,25,12,14,0.4,0.6
2024-05-08T2100,3474A,114.2617,35.6822,鹤壁市,大新区,颗粒物(PM10),59,68,77,22,29,86,,153,139,25,20,9,11,0.4,0.6
2024-05-08T2100,3596A,114.1572,35.9603,鹤壁市,南山宾馆,颗粒物(PM10),78,106,84,19,41,146,,167,162,14,19,8,14,0.5,0.5
2024-05-08T2100,2244A,130.2537,47.3416,鹤岗市,哈啤分公司,,39,39,33,16,13,74,,94,91,16,13,14,12,0.5,0.5
2024-05-08T2100,2245A,130.2684,47.3086,鹤岗市,斯达机电,,47,47,38,31,25,81,,92,88,21,17,10,13,0.6,0.5
2024-05-08T2100,2246A,130.3114,47.3388,鹤岗市,东山纸板厂,颗粒物(PM10),67,84,89,36,29,78,,95,91,15,23,14,14,0.5,0.9
2024-05-08T2100,2247A,130.1097,47.3382,鹤岗市,五号水库,,49,49,30,10,13,98,,115,112,7,7,12,10,0.1,0.4
2024-05-08T2100,2263A,127.4833,50.2524,黑河市,交通局,,40,,52,28,18,79,,109,100,3,7,4,5,0.2,0.2
2024-05-08T2100,2264A,127.5144,50.2341,黑河市,环保局,,36,26,52,25,18,88,,109,105,3,8,3,7,0.3,0.3
2024-05-08T2100,2265A,127.5291,50.2472,黑河市,大黑河岛,颗粒物(PM10),66,81,130,22,21,61,,103,83,9,11,4,7,0.4,0.4
2024-05-08T2100,1074A,115.6838,37.7541,衡水市,电机北厂,颗粒物(PM10),64,77,87,26,36,156,,173,166,13,14,10,7,0.3,0.4
2024-05-08T2100,1075A,115.6303,37.7316,衡水市,市监测站,颗粒物(PM10),58,66,93,38,39,153,,179,168,18,22,8,9,0.3,0.6
2024-05-08T2100,3188A,115.6683,37.7217,衡水市,市城管局,,,65,86,25,40,144,,172,162,16,19,7,9,,0.5
2024-05-08T2100,3459A,115.5989,37.5491,衡水市,地表水厂,颗粒物(PM10),68,85,97,29,37,117,,172,155,33,39,11,7,0.3,0.4
2024-05-08T2100,2456A,112.5003,26.9167,衡阳市,原169医院,细颗粒物(PM2.5),80,108,89,59,65,77,,128,116,30,12,14,7,1.1,1
2024-05-08T2100,2457A,112.6194,26.9258,衡阳市,衡阳化工总厂,细颗粒物(PM2.5),172,190,108,130,77,88,,159,139,26,17,19,12,1.1,0.9
2024-05-08T2100,2458A,112.6211,26.8956,衡阳市,珠晖区环保局,细颗粒物(PM2.5),198,188,94,148,66,79,,152,134,43,23,19,9,1.6,1.2
2024-05-08T2100,2459A,112.6197,26.8733,衡阳市,市委党校,细颗粒物(PM2.5),145,154,96,111,61,84,,161,144,37,18,19,11,1.3,1.1
2024-05-08T2100,2460A,112.6006,26.8919,衡阳市,市监测站,细颗粒物(PM2.5),166,145,83,126,67,97,,158,145,27,18,17,10,1.4,1.1
2024-05-08T2100,2461A,112.5664,26.9056,衡阳市,真空机电公司,细颗粒物(PM2.5),90,104,82,67,59,99,,150,139,24,15,40,12,1.2,0.9
2024-05-08T2100,3399A,112.6703,26.882,衡阳市,师范学院,细颗粒物(PM2.5),193,174,88,145,69,77,,155,134,26,16,20,11,1.4,1
2024-05-08T2100,2608A,103.3772,23.3993,红河哈尼族彝族自治州,污水处理厂,"颗粒物(PM10),细颗粒物(PM2.5)",60,69,37,43,26,88,,104,99,12,10,12,11,0.6,0.5
2024-05-08T2100,2609A,103.3861,23.35,红河哈尼族彝族自治州,监测站,,40,39,29,28,21,99,,106,102,13,12,9,8,0.5,0.6
2024-05-08T2100,3038A,103.3758,23.368,红河哈尼族彝族自治州,州图书馆,细颗粒物(PM2.5),54,46,31,38,22,98,,102,98,12,9,8,7,0.5,0.5
2024-05-08T2100,1090A,111.6507,40.7517,呼和浩特市,呼市一监,颗粒物(PM10),69,88,38,22,13,102,,140,136,29,26,6,6,0.4,0.4
2024-05-08T2100,1091A,111.6572,40.8033,呼和浩特市,小召,颗粒物(PM10),53,56,36,20,19,105,,124,123,37,32,12,8,0.6,0.5
2024-05-08T2100,1094A,111.7516,40.8369,呼和浩特市,如意水处理厂,,,66,37,,10,84,,127,123,50,31,8,7,0.6,0.4
2024-05-08T2100,1095A,111.7276,40.8062,呼和浩特市,二十九中,颗粒物(PM10),51,52,36,18,13,112,,133,132,34,27,6,3,0.5,0.5
2024-05-08T2100,1096A,111.5512,40.7866,呼和浩特市,工大金川校区,,47,47,23,28,13,76,,126,121,54,34,10,7,0.4,0.3
2024-05-08T2100,1097A,111.717,40.7612,呼和浩特市,化肥厂生活区,颗粒物(PM10),69,87,40,29,17,74,,130,124,60,28,8,8,0.5,0.3
2024-05-08T2100,3698A,111.5968,40.8178,呼和浩特市,红旗小学,颗粒物(PM10),75,100,39,30,14,64,,128,121,78,35,6,5,0.5,0.3
2024-05-08T2100,3699A,111.6518,40.8389,呼和浩特市,海东办,颗粒物(PM10),57,63,34,29,17,95,,131,128,44,34,10,8,0.4,0.4
2024-05-08T2100,2192A,119.7594,49.2261,呼伦贝尔市,区环保局,,48,44,75,33,19,64,,95,91,33,13,4,4,0.5,0.4
2024-05-08T2100,3061A,119.7512,49.1577,呼伦贝尔市,国华电力东,,44,44,68,15,16,77,,98,96,13,8,5,4,0.4,0.3
2024-05-08T2100,1250A,120.0751,30.8669,湖州市,城西水厂,,35,20,62,8,36,110,,186,176,24,50,4,5,0.6,0.7
2024-05-08T2100,2873A,120.0875,30.8955,湖州市,仁皇山新区,,34,20,50,10,36,107,,189,176,34,39,5,7,0.6,0.8
2024-05-08T2100,2907A,120.1844,30.8596,湖州市,吴兴区站,,32,21,48,9,34,102,,187,172,19,26,5,6,0.4,0.6
2024-05-08T2100,3562A,120.4148,30.8538,湖州市,南浔区站,,28,27,50,12,34,89,,187,162,21,20,6,7,0.2,0.4
2024-05-08T2100,1607A,120.9092,40.7136,葫芦岛市,龙港区,细颗粒物(PM2.5),183,,94,138,68,182,,169,169,14,37,10,55,0.8,1
2024-05-08T2100,1608A,120.8392,40.7514,葫芦岛市,化工街,细颗粒物(PM2.5),89,105,89,66,41,172,,174,174,29,53,11,30,0.8,0.6
2024-05-08T2100,1609A,120.8341,40.7073,葫芦岛市,新区,细颗粒物(PM2.5),128,103,86,97,58,188,,178,178,20,59,8,16,0.8,1
2024-05-08T2100,1610A,120.8695,40.7677,葫芦岛市,东城区,细颗粒物(PM2.5),134,110,84,102,52,164,,173,173,24,45,9,41,0.9,0.9
2024-05-08T2100,2482A,109.5981,27.5721,怀化市,林科所,,31,29,38,21,27,97,,97,97,7,5,8,11,0.5,0.6
2024-05-08T2100,2483A,109.9453,27.5444,怀化市,河西地税局,,32,32,45,19,30,66,,77,77,14,12,3,5,0.5,0.6
2024-05-08T2100,2484A,109.9781,27.5342,怀化市,市四医院,,37,37,50,25,39,66,,84,84,18,17,8,9,0.8,0.9
2024-05-08T2100,2485A,109.9972,27.5578,怀化市,监测楼,,35,34,53,24,35,80,,79,79,12,16,8,12,0.6,0.7
2024-05-08T2100,2486A,110.0394,27.583,怀化市,市委党校,,,39,54,28,36,,,81,81,,18,4,12,0.5,0.9
2024-05-08T2100,1210A,119.036,33.5981,淮安市,钵池山,,39,39,43,22,27,107,,132,126,24,19,8,8,0.5,0.6
2024-05-08T2100,1211A,119.007,33.575,淮安市,北京南路,,39,39,45,22,26,112,,137,129,25,18,8,8,0.5,0.5
2024-05-08T2100,1212A,118.989,33.6067,淮安市,市监测站,,44,44,46,27,29,118,,138,130,22,21,6,7,0.5,0.5
2024-05-08T2100,1213A,119.135,33.5039,淮安市,楚州区监测站,颗粒物(PM10),64,78,57,27,27,73,,134,120,45,21,7,8,0.6,0.5
2024-05-08T2100,1214A,119.0186,33.6297,淮安市,淮阴区监测站,,44,44,49,23,29,105,,136,125,35,25,6,6,0.5,0.5
2024-05-08T2100,3426A,118.8755,33.2894,淮安市,新华书店,,49,49,50,28,30,100,,140,131,31,25,6,7,0.4,0.4
2024-05-08T2100,2282A,116.8004,33.975,淮北市,监测站,,44,44,52,22,20,130,,152,149,17,15,8,7,0.5,0.4
2024-05-08T2100,2283A,116.8091,33.9007,淮北市,烈山区政府,颗粒物(PM10),59,68,63,25,18,129,,155,152,16,11,6,5,0.4,0.4
2024-05-08T2100,3330A,116.8873,33.9836,淮北市,杜集区检察院,颗粒物(PM10),56,62,57,36,33,136,,161,158,17,16,6,6,0.5,0.4
2024-05-08T2100,4017A,116.7923,33.9535,淮北市,市博物馆,颗粒物(PM10),56,61,52,22,21,128,,154,149,14,10,7,7,0.6,0.5
2024-05-08T2100,2277A,116.8305,32.7727,淮南市,潘集区政府,"颗粒物(PM10),细颗粒物(PM2.5)",58,65,57,41,30,117,,146,142,21,17,6,7,0.3,0.3
2024-05-08T2100,2278A,117.0067,32.6524,淮南市,师范学院,细颗粒物(PM2.5),59,58,56,42,38,131,,146,144,17,18,9,10,0.5,0.4
2024-05-08T2100,2279A,116.8569,32.5951,淮南市,谢家集区政府,,48,48,51,26,23,122,,146,144,19,17,5,8,0.2,0.2
2024-05-08T2100,2280A,116.8281,32.633,淮南市,八公山区政府,颗粒物(PM10),55,60,58,28,25,109,,142,135,22,18,9,10,0.3,0.3
2024-05-08T2100,2281A,116.6325,32.6201,淮南市,焦岗湖风景区管理处,颗粒物(PM10),52,54,45,16,16,80,,115,110,52,32,5,5,0.0,0.1
2024-05-08T2100,2894A,117.0566,32.6531,淮南市,经济技术开发区消防队,颗粒物(PM10),58,66,60,34,30,119,,147,144,28,24,7,7,0.5,0.3
2024-05-08T2100,3329A,117.0108,32.5893,淮南市,山南新区,颗粒物(PM10),56,61,58,22,17,136,,151,150,19,16,8,7,0.3,0.3
2024-05-08T2100,2446A,114.9028,30.4742,黄冈市,职工中心,细颗粒物(PM2.5),77,92,56,56,32,140,,160,157,16,10,13,6,0.7,0.5
2024-05-08T2100,2929A,114.8858,30.4519,黄冈市,红卫路,细颗粒物(PM2.5),87,99,49,64,32,127,,155,151,37,12,13,6,1.0,0.5
2024-05-08T2100,3398A,114.9136,30.4445,黄冈市,市林业局,细颗粒物(PM2.5),93,93,52,69,33,137,,164,159,22,9,10,4,0.8,0.4
2024-05-08T2100,2672A,102.0199,35.5102,黄南藏族自治州,同仁县隆务镇,,44,44,25,10,12,127,,135,134,1,2,11,10,0.3,0.4
2024-05-08T2100,2295A,118.2903,29.6963,黄山市,延安路89号,细颗粒物(PM2.5),90,87,56,67,24,104,,162,146,19,8,9,7,0.6,0.6
2024-05-08T2100,2296A,118.327,29.7178,黄山市,黄山东路89号,细颗粒物(PM2.5),93,93,49,69,27,104,,157,141,16,9,8,6,0.7,0.5
2024-05-08T2100,2297A,118.1371,30.2756,黄山市,黄山区政府5号楼,颗粒物(PM10),61,72,44,39,30,93,,165,155,20,8,5,5,0.7,0.7
2024-05-08T2100,2423A,115.0601,30.2313,黄石市,沈家营,颗粒物(PM10),54,57,51,36,27,160,,181,179,10,25,7,11,0.7,0.8
2024-05-08T2100,2424A,115.0817,30.2006,黄石市,陈家湾,臭氧1小时,62,72,52,42,31,169,,187,187,10,23,8,7,0.5,0.6
2024-05-08T2100,2426A,114.8988,30.2019,黄石市,铁山,细颗粒物(PM2.5),69,67,46,50,26,161,,187,184,13,13,11,8,0.7,0.7
2024-05-08T2100,2427A,115.0307,30.2092,黄石市,团城山,颗粒物(PM10),62,73,57,38,25,158,,177,175,9,20,13,14,0.5,0.8
2024-05-08T2100,3149A,115.0235,30.1578,黄石市,笔架山北路,细颗粒物(PM2.5),65,69,46,47,25,146,,187,179,15,13,12,12,0.7,0.7
2024-05-08T2100,1392A,114.4183,23.0528,惠州市,河南岸金山湖子站,,48,42,29,33,23,111,,102,102,9,9,5,5,0.7,0.6
2024-05-08T2100,1393A,114.4053,23.0822,惠州市,下埔横江三路子站,细颗粒物(PM2.5),53,49,33,37,22,123,,112,112,10,10,6,6,0.8,0.7
2024-05-08T2100,1394A,114.4103,23.1142,惠州市,江北云山西路子站,,49,40,29,34,20,133,,114,114,6,8,6,7,1.0,0.9
2024-05-08T2100,1395A,114.4645,22.7833,惠州市,惠阳区承修路船湖子站,,40,29,33,20,23,128,,143,143,14,15,3,4,0.6,0.5
2024-05-08T2100,1396A,114.5317,22.7422,惠州市,大亚湾管委会子站,,41,29,36,19,23,131,,150,146,21,18,4,4,0.9,0.9
2024-05-08T2100,3314A,114.4338,22.8134,惠州市,惠阳秋长,,47,39,40,20,21,148,,163,163,13,14,5,5,0.8,0.7
2024-05-08T2100,3452A,114.6517,22.775,惠州市,大亚湾霞涌,,43,23,28,23,20,137,,144,144,9,11,7,5,0.6,0.6
2024-05-08T2100,2240A,130.9762,45.3001,鸡西市,环保局,,41,41,45,19,23,67,,80,78,17,13,7,6,0.5,0.5
2024-05-08T2100,2243A,130.9429,45.3039,鸡西市,第一中学,,33,33,40,18,19,95,,98,98,7,9,12,7,0.4,0.4
2024-05-08T2100,3707A,131.0207,45.3073,鸡西市,欧美日汽修厂,颗粒物(PM10),55,60,64,36,33,66,,84,78,22,22,5,6,0.4,0.3
2024-05-08T2100,3709A,130.9967,45.3106,鸡西市,市政设施管理处,细颗粒物(PM2.5),73,54,55,53,31,34,,87,76,30,23,7,7,0.5,0.4
2024-05-08T2100,2367A,114.9754,27.0803,吉安市,红声器材厂,,46,46,59,22,31,116,,159,151,31,26,18,14,0.4,0.6
2024-05-08T2100,2368A,114.9658,27.0999,吉安市,市森林工业局,,42,42,56,24,39,126,,152,146,19,23,20,15,0.4,0.5
2024-05-08T2100,2369A,114.99,27.1312,吉安市,市环境监测站,,41,40,54,23,34,131,,164,156,22,24,18,17,0.5,0.7
2024-05-08T2100,2370A,115.0093,27.0968,吉安市,青原区法院,,46,46,57,32,37,120,,152,146,22,29,16,16,0.5,0.6
2024-05-08T2100,1772A,126.54,43.8622,吉林市,哈达湾,,48,48,34,21,16,108,,120,119,15,19,6,6,0.5,0.5
2024-05-08T2100,1773A,126.5844,43.8358,吉林市,东局子,,33,30,33,17,15,103,,115,114,16,20,4,4,0.5,0.6
2024-05-08T2100,1774A,126.5052,43.8245,吉林市,电力学院,,48,48,43,22,18,76,,119,111,35,21,16,10,0.6,0.6
2024-05-08T2100,1775A,126.6133,43.8972,吉林市,江北,,34,33,38,18,17,108,,118,116,13,26,8,7,0.5,0.5
2024-05-08T2100,1776A,126.555,43.8306,吉林市,江南公园,,35,31,34,17,18,109,,118,117,14,19,5,5,0.4,0.5
2024-05-08T2100,2868A,126.4739,43.953,吉林市,九站,,38,35,50,16,22,119,,122,121,13,31,7,12,0.5,0.6
2024-05-08T2100,1299A,116.9862,36.6114,济南市,科干所,,46,46,72,17,33,144,,177,172,14,29,7,7,0.6,0.7
2024-05-08T2100,1300A,116.9376,36.665,济南市,农科所,颗粒物(PM10),51,51,76,17,33,119,,172,162,32,37,5,6,0.6,0.7
2024-05-08T2100,1301A,117.1265,36.6734,济南市,开发区,颗粒物(PM10),52,54,68,22,30,147,,187,183,17,36,9,7,0.6,0.6
2024-05-08T2100,1303A,117.0624,36.6868,济南市,省种子仓库,颗粒物(PM10),62,73,85,22,33,137,,181,176,20,50,3,4,0.4,0.5
2024-05-08T2100,1304A,116.9489,36.6447,济南市,机床二厂,颗粒物(PM10),64,78,106,22,39,133,,183,176,27,42,4,6,0.6,0.7
2024-05-08T2100,1305A,117.0495,36.663,济南市,市监测站,,46,46,66,10,28,132,,189,181,29,40,8,8,0.3,0.4
2024-05-08T2100,1306A,116.7675,36.5484,济南市,长清党校,臭氧1小时,53,51,70,20,35,162,,176,174,18,29,7,8,0.5,0.6
2024-05-08T2100,1616A,117.6795,36.229,济南市,技术学院,颗粒物(PM10),63,75,63,36,32,133,,178,170,33,43,24,10,4.3,0.7
2024-05-08T2100,1961A,117.532,36.6868,济南市,东山小学,颗粒物(PM10),61,71,65,34,27,135,,182,174,42,30,5,6,0.4,0.3
2024-05-08T2100,3059A,117.7161,36.2049,济南市,泰兴公司,颗粒物(PM10),58,66,64,29,37,105,,176,163,42,46,14,11,1.1,0.8
2024-05-08T2100,3064A,117.6867,36.2171,济南市,莱芜战役纪念馆,颗粒物(PM10),60,70,70,24,31,125,,170,162,26,38,11,8,1.0,1
2024-05-08T2100,3494A,117.1673,36.9782,济南市,济阳区政府,颗粒物(PM10),72,93,93,29,38,138,,181,177,32,49,6,7,0.8,0.7
2024-05-08T2100,3495A,117.1171,36.63,济南市,锦屏中学,,49,49,56,17,23,141,,191,185,14,15,8,7,0.4,0.4
2024-05-08T2100,3682A,116.9814,36.6819,济南市,济南四建,颗粒物(PM10),54,58,82,24,45,129,,174,168,28,35,7,8,0.3,0.5
2024-05-08T2100,1653A,116.6251,35.4302,济宁市,火炬城,,46,46,66,17,25,137,,165,160,10,18,8,8,0.4,0.5
2024-05-08T2100,1655A,116.5491,35.4042,济宁市,电化厂,颗粒物(PM10),74,98,80,27,30,106,,166,158,26,15,7,6,0.5,0.6
2024-05-08T2100,3500A,116.5814,35.3707,济宁市,北湖一中,颗粒物(PM10),55,59,64,17,27,117,,156,149,21,14,7,4,0.3,0.3
2024-05-08T2100,3501A,116.8249,35.5593,济宁市,服务中心,颗粒物(PM10),72,93,80,15,29,105,,159,148,25,27,5,4,0.4,0.5
2024-05-08T2100,3678A,116.5907,35.4054,济宁市,市第七中学,,47,47,70,14,24,141,,170,165,10,15,6,6,0.3,0.4
2024-05-08T2100,2255A,130.2751,46.8028,佳木斯市,佳纺,颗粒物(PM10),54,58,52,24,21,113,,124,123,6,12,3,3,0.4,0.4
2024-05-08T2100,2256A,130.3995,46.8307,佳木斯市,发电厂,颗粒物(PM10),52,53,49,30,32,115,,121,120,10,19,6,5,0.5,0.5
2024-05-08T2100,2257A,130.3258,46.7975,佳木斯市,环保局,颗粒物(PM10),53,55,40,30,25,116,,118,118,9,14,5,4,0.4,0.4
2024-05-08T2100,2258A,130.3648,46.8032,佳木斯市,十一中,颗粒物(PM10),55,59,44,25,25,110,,118,117,14,20,5,5,0.4,0.5
2024-05-08T2100,2259A,130.3794,46.7588,佳木斯市,四丰,,43,37,30,12,12,135,,138,138,6,7,1,1,0.4,0.4
2024-05-08T2100,1252A,120.7436,30.778,嘉兴市,清河小学,,25,19,48,6,26,79,,160,132,25,29,4,5,0.5,0.7
2024-05-08T2100,1253A,120.726,30.7478,嘉兴市,嘉兴学院,,25,22,46,8,28,78,,165,136,16,18,6,7,0.4,0.6
2024-05-08T2100,2872A,120.7846,30.7525,嘉兴市,南湖区残联,,,37,55,8,31,,,167,142,19,22,6,7,0.4,0.6
2024-05-08T2100,3407A,120.6916,30.7739,嘉兴市,秀洲住建,,26,20,47,8,30,82,,175,144,15,22,5,6,0.5,0.7
2024-05-08T2100,1945A,98.2908,39.7711,嘉峪关市,气象局,颗粒物(PM10),104,158,185,58,64,131,,155,152,18,21,3,27,0.5,0.9
2024-05-08T2100,2884A,98.2672,39.7978,嘉峪关市,酒钢宾馆,颗粒物(PM10),101,151,193,51,67,138,,151,150,16,21,6,41,0.3,0.7
2024-05-08T2100,3248A,98.2643,39.7724,嘉峪关市,雄关区,颗粒物(PM10),90,129,156,44,49,134,,154,151,17,20,5,13,0.3,0.5
2024-05-08T2100,1383A,113.1064,22.6058,江门市,北街,细颗粒物(PM2.5),69,56,33,50,26,107,,170,170,36,21,4,4,1.0,0.7
2024-05-08T2100,1384A,113.0731,22.5835,江门市,西区,颗粒物(PM10),59,67,34,36,20,79,,154,154,55,23,6,7,0.8,0.6
2024-05-08T2100,1385A,113.0219,22.5311,江门市,圭峰西,,49,44,33,34,21,84,,129,129,18,17,3,4,0.9,0.8
2024-05-08T2100,1386A,113.0828,22.5947,江门市,东湖,颗粒物(PM10),61,71,36,40,23,91,,143,143,35,20,5,6,0.9,0.7
2024-05-08T2100,3311A,113.1075,22.5647,江门市,江海富民,细颗粒物(PM2.5),58,63,43,41,28,106,,154,154,40,25,4,4,0.8,0.6
2024-05-08T2100,3449A,113.05,22.4667,江门市,新会银湖,,42,42,31,24,20,53,,120,116,27,18,5,5,0.8,0.6
2024-05-08T2100,1828A,113.227,35.2125,焦作市,市环保局,颗粒物(PM10),66,82,69,37,44,146,,197,190,18,14,4,6,0.4,0.6
2024-05-08T2100,3169A,113.2725,35.2067,焦作市,太极体育中心,颗粒物(PM10),71,91,87,32,42,140,,194,185,21,18,7,8,0.3,0.4
2024-05-08T2100,3335A,113.3137,35.2641,焦作市,马村街道办,颗粒物(PM10),76,102,80,39,42,121,,169,162,23,14,4,6,0.4,0.6
2024-05-08T2100,3336A,113.2465,35.2373,焦作市,焦作技师学院,颗粒物(PM10),70,90,72,39,41,133,,180,172,24,16,6,7,0.6,0.5
2024-05-08T2100,3477A,113.1656,35.2539,焦作市,中站许衡医院,颗粒物(PM10),53,55,63,25,37,160,,189,185,14,12,7,9,0.3,0.5
2024-05-08T2100,3981A,113.2449,35.1803,焦作市,原李万街道办,颗粒物(PM10),75,99,83,27,36,134,,175,170,11,14,8,9,0.5,0.6
2024-05-08T2100,1708A,116.3701,23.5345,揭阳市,新兴,,36,33,66,25,41,108,,138,123,18,20,6,7,0.9,1
2024-05-08T2100,1709A,116.3264,23.5443,揭阳市,西马,颗粒物(PM10),63,76,63,31,36,55,,138,108,34,20,6,6,1.0,0.9
2024-05-08T2100,1710A,116.3611,23.5626,揭阳市,东兴,颗粒物(PM10),54,57,77,24,37,110,,127,108,14,22,8,8,1.0,1
2024-05-08T2100,1711A,116.4151,23.5294,揭阳市,渔湖,,38,28,50,14,29,119,,151,148,16,19,7,10,0.9,1
2024-05-08T2100,3320A,116.403,23.5699,揭阳市,曲溪,颗粒物(PM10),52,54,54,33,36,122,,137,134,17,21,14,7,0.8,0.9
2024-05-08T2100,1944A,102.1692,38.5167,金昌市,天庆家园,,49,49,118,26,64,133,,156,154,16,17,8,9,0.7,0.7
2024-05-08T2100,3170A,102.1864,38.5253,金昌市,市委党校,颗粒物(PM10),61,72,142,29,65,139,,162,160,11,10,10,9,0.3,0.4
2024-05-08T2100,4022A,102.1647,38.5371,金昌市,金川区人防中心,颗粒物(PM10),60,70,137,22,46,128,,158,155,20,11,8,10,0.5,0.5
2024-05-08T2100,1262A,119.647,29.077,金华市,十五中,臭氧1小时,78,63,76,29,59,182,,195,179,24,22,6,5,0.5,0.7
2024-05-08T2100,1263A,119.686,29.1029,金华市,监测站,,,66,76,,52,169,,188,168,28,26,4,3,0.6,0.7
2024-05-08T2100,3659A,119.656,29.1131,金华市,气象局,臭氧1小时,69,59,77,32,54,175,,195,175,33,33,6,5,0.6,0.7
2024-05-08T2100,1767A,121.1115,41.0879,锦州市,南山,细颗粒物(PM2.5),168,,66,127,53,182,,184,184,26,25,21,19,0.8,0.6
2024-05-08T2100,1768A,121.0533,40.8434,锦州市,开发区,细颗粒物(PM2.5),152,135,101,116,64,166,,171,171,41,53,12,35,0.8,0.9
2024-05-08T2100,1769A,121.1836,41.1119,锦州市,百股街道,细颗粒物(PM2.5),100,88,64,75,38,189,,188,188,34,25,14,13,1.0,0.8
2024-05-08T2100,1770A,121.1178,41.1222,锦州市,天安街道,细颗粒物(PM2.5),158,128,79,120,46,172,,170,170,27,32,20,16,1.0,0.8
2024-05-08T2100,1771A,121.1303,41.1386,锦州市,北湖公园,细颗粒物(PM2.5),162,,51,123,44,182,,176,176,29,26,17,12,1.0,0.8
2024-05-08T2100,2160A,112.85,35.5051,晋城市,自来水公司,臭氧1小时,84,72,83,34,42,187,,199,199,22,27,8,9,0.8,0.9
2024-05-08T2100,2161A,112.8318,35.4936,晋城市,白云商贸,臭氧1小时,89,76,86,41,46,191,,205,205,22,26,9,10,0.7,0.8
2024-05-08T2100,2162A,112.8508,35.4887,晋城市,市环保局,臭氧1小时,78,100,104,31,42,182,,200,200,27,25,9,9,0.6,0.8
2024-05-08T2100,2163A,112.8676,35.4897,晋城市,技术学院,臭氧1小时,89,77,72,34,42,191,,199,199,19,27,8,9,0.7,0.9
2024-05-08T2100,3620A,112.8271,35.4828,晋城市,泽州一中,臭氧1小时,82,94,89,31,44,185,,200,200,26,30,10,10,0.8,1
2024-05-08T2100,2171A,112.7532,37.6945,晋中市,锦纶小区,颗粒物(PM10),63,75,70,29,33,111,,183,168,56,25,10,12,0.8,0.5
2024-05-08T2100,2173A,112.7249,37.7067,晋中市,南都小区,颗粒物(PM10),71,92,72,35,35,116,,183,170,51,23,9,10,0.7,0.5
2024-05-08T2100,2174A,112.6991,37.6982,晋中市,榆次区政府,颗粒物(PM10),67,83,67,29,33,132,,186,174,44,23,9,11,0.5,0.5
2024-05-08T2100,2865A,112.7195,37.6828,晋中市,榆次三中,颗粒物(PM10),74,97,77,48,32,120,,186,172,46,25,10,11,0.7,0.6
2024-05-08T2100,2439A,112.2014,31.0481,荆门市,竹园小学,颗粒物(PM10),54,58,63,25,37,113,,173,164,31,25,21,11,0.6,0.7
2024-05-08T2100,2440A,112.1969,30.9891,荆门市,掇刀,颗粒物(PM10),59,67,57,34,43,107,,174,162,42,23,22,13,0.6,0.7
2024-05-08T2100,2441A,112.2213,31.0386,荆门市,石化一小,颗粒物(PM10),51,52,72,28,36,84,,173,158,49,30,38,17,0.7,0.8
2024-05-08T2100,3012A,112.1849,31.0362,荆门市,西山林语,,40,33,50,14,29,125,,174,165,14,13,9,10,0.6,0.5
2024-05-08T2100,3547A,112.1632,31.0138,荆门市,龙泉中学南校,颗粒物(PM10),51,52,54,30,30,138,,177,171,20,17,13,12,0.5,0.6
2024-05-08T2100,1844A,112.2494,30.3197,荆州市,市图书馆,细颗粒物(PM2.5),54,46,61,38,41,120,,184,172,37,34,8,9,0.6,0.9
2024-05-08T2100,1845A,112.2008,30.3544,荆州市,市委党校,,49,49,65,18,41,133,,148,,30,30,7,9,0.6,0.9
2024-05-08T2100,3194A,112.2747,30.3122,荆州市,管委会,,48,48,62,25,39,132,,186,177,26,27,6,6,0.5,0.8
2024-05-08T2100,3548A,112.1655,30.3364,荆州市,学苑路,细颗粒物(PM2.5),53,49,57,37,52,136,,193,185,28,23,6,7,0.5,0.7
2024-05-08T2100,2343A,117.2117,29.2933,景德镇市,老干部活动中心,颗粒物(PM10),55,59,38,31,24,100,,156,144,21,14,13,6,0.3,0.4
2024-05-08T2100,2344A,117.1894,29.2789,景德镇市,兽医站,,42,42,33,23,25,95,,139,129,14,12,8,8,0.4,0.4
2024-05-08T2100,2345A,117.1547,29.2617,景德镇市,台达陶瓷,,30,21,29,21,23,83,,136,125,34,20,8,9,0.5,0.5
2024-05-08T2100,2346A,117.2461,29.2956,景德镇市,陶研所,,48,48,36,30,18,65,,138,118,18,12,7,4,0.3,0.3
2024-05-08T2100,1803A,115.9872,29.6815,九江市,十里,颗粒物(PM10),53,55,49,32,31,136,,185,175,29,22,14,11,0.8,0.7
2024-05-08T2100,1804A,115.9584,29.7046,九江市,茅山头,臭氧1小时,55,57,46,38,36,164,,175,172,19,22,11,10,0.7,0.7
2024-05-08T2100,1805A,115.9877,29.7295,九江市,西园,细颗粒物(PM2.5),52,51,49,36,34,159,,172,167,20,24,13,13,0.8,0.7
2024-05-08T2100,1806A,116.0172,29.6547,九江市,五七二七厂,颗粒物(PM10),53,56,50,28,26,149,,177,169,13,12,21,15,0.5,0.2
2024-05-08T2100,1808A,115.9114,29.6038,九江市,综合工业园,颗粒物(PM10),53,56,52,35,30,99,,176,157,76,30,16,13,0.8,0.7
2024-05-08T2100,1809A,116.0721,29.7535,九江市,石化总厂,细颗粒物(PM2.5),59,62,52,42,30,120,,167,155,51,37,12,13,0.8,0.9
2024-05-08T2100,1810A,115.9773,29.5698,九江市,庐山气象台,,48,33,29,25,19,152,,161,161,5,5,7,13,1.2,0.8
2024-05-08T2100,3190A,116.0254,29.6994,九江市,外国语学校,颗粒物(PM10),58,66,49,36,31,157,,185,180,33,22,12,10,1.0,1
2024-05-08T2100,2658A,98.5061,39.7443,酒泉市,仓门街子站,颗粒物(PM10),104,158,180,47,49,114,,142,139,25,16,10,15,0.5,0.4
2024-05-08T2100,2659A,98.4989,39.7256,酒泉市,油田生活基地,颗粒物(PM10),100,149,198,44,52,136,,147,146,13,20,12,17,0.3,0.4
2024-05-08T2100,2698A,76.0072,39.4467,喀什地区,巡警大队,,,40,88,5,14,,,138,138,10,37,2,3,0.1,0.3
2024-05-08T2100,2699A,75.9755,39.4694,喀什地区,吾办,,50,50,97,13,33,140,,135,135,15,40,5,4,0.3,0.5
2024-05-08T2100,4027A,75.9483,39.4689,喀什地区,老干局,,45,45,113,8,51,140,,137,137,27,56,5,5,0.2,0.4
2024-05-08T2100,1824A,114.3389,34.7781,开封市,肿瘤医院,颗粒物(PM10),79,108,87,23,33,110,,157,150,21,19,4,7,0.3,0.4
2024-05-08T2100,1826A,114.2885,34.7965,开封市,世纪星幼儿园,颗粒物(PM10),62,74,79,26,34,120,,154,147,14,18,5,7,0.4,0.6
2024-05-08T2100,3147A,114.3438,34.8106,开封市,龙亭公园,颗粒物(PM10),54,57,82,20,34,118,,156,148,17,20,4,7,0.4,0.5
2024-05-08T2100,3210A,114.3644,34.7964,开封市,汴京公园,颗粒物(PM10),96,142,117,19,38,113,,159,150,23,20,14,6,0.3,0.5
2024-05-08T2100,3473A,114.2485,34.8306,开封市,技师学院,颗粒物(PM10),83,116,97,24,41,132,,159,153,13,21,4,6,0.2,0.4
2024-05-08T2100,3592A,114.4644,34.7556,开封市,祥符区生态环境局,颗粒物(PM10),87,123,95,18,34,88,,148,134,38,35,6,8,0.3,0.5
2024-05-08T2100,1951A,84.895,45.6094,克拉玛依市,长征新村,,26,24,21,7,5,81,,97,90,18,14,8,9,0.2,0.2
2024-05-08T2100,1952A,84.8988,45.5893,克拉玛依市,南林小区,,31,31,22,16,10,58,,98,81,29,19,7,7,0.7,0.2
2024-05-08T2100,1954A,84.905,44.3396,克拉玛依市,独山子区,,35,15,21,7,8,111,,130,129,4,6,8,8,0.2,0.4
2024-05-08T2100,1955A,85.6979,46.098,克拉玛依市,乌尔禾区商贸楼,,29,15,18,6,4,90,,109,107,7,8,10,9,0.1,0.2
2024-05-08T2100,3612A,85.1045,45.6899,克拉玛依市,白碱滩区新站,,32,32,26,12,16,84,,113,107,23,14,8,7,0.2,0.3
2024-05-08T2100,2697A,76.1454,39.7142,克孜勒苏柯尔克孜自治州,市人民政府,,45,41,45,15,17,142,,143,143,6,13,7,10,0.4,0.4
2024-05-08T2100,3665A,76.1658,39.7157,克孜勒苏柯尔克孜自治州,克州文化中心,,45,37,36,14,17,141,,142,142,7,11,8,10,0.3,0.3
2024-05-08T2100,1450A,102.8204,24.8886,昆明市,呈贡新区,,39,37,38,27,30,85,,103,100,14,18,4,5,0.8,0.8
2024-05-08T2100,1452A,102.7252,25.0902,昆明市,龙泉镇,,47,47,41,31,29,41,,97,88,40,29,6,6,0.9,0.8
2024-05-08T2100,1453A,102.7266,25.0375,昆明市,东风东路,,43,43,47,28,28,72,,96,95,33,21,7,7,0.8,0.7
2024-05-08T2100,1454A,102.6742,25.0669,昆明市,金鼎山,,38,38,42,22,24,94,,103,103,24,23,1,2,0.8,0.7
2024-05-08T2100,1455A,102.6644,25.0401,昆明市,碧鸡广场,,34,34,46,18,29,92,,104,102,19,22,3,7,0.7,0.7
2024-05-08T2100,3179A,102.7494,25.0119,昆明市,官渡区博物馆,,36,32,49,25,27,64,,104,96,33,22,10,9,0.8,0.7
2024-05-08T2100,3375A,102.8017,24.8336,昆明市,青年创业园,,42,39,43,29,29,67,,116,108,25,14,6,9,0.7,0.7
2024-05-08T2100,3550A,102.7997,24.9786,昆明市,昆明学院,细颗粒物(PM2.5),64,57,51,46,34,87,,106,96,22,23,17,9,0.8,0.7
2024-05-08T2100,3551A,102.5967,24.6736,昆明市,晋宁区生态环境分局,,28,21,36,14,27,89,,118,112,17,10,1,3,0.6,0.7
2024-05-08T2100,3552A,102.6678,24.9856,昆明市,云天化总部,,33,26,40,23,28,84,,116,111,12,14,6,7,0.7,0.7
2024-05-08T2100,1456A,91.1319,29.6514,拉萨市,八廓街,,45,15,13,8,10,141,,148,147,18,9,8,7,0.5,0.5
2024-05-08T2100,1457A,91.1221,29.6747,拉萨市,市环保局,,35,19,14,10,9,111,,146,142,40,16,6,6,0.6,0.4
2024-05-08T2100,1458A,91.0874,29.6475,拉萨市,区监测站,,,0,9,0,6,135,,142,142,16,13,,5,0.6,0.4
2024-05-08T2100,1459A,91.1774,29.6541,拉萨市,西藏大学,,47,18,11,7,8,150,,150,150,15,8,4,4,0.4,0.3
2024-05-08T2100,1460A,90.9798,29.6588,拉萨市,区辐射站,,40,22,13,7,9,126,,136,136,28,17,7,7,0.6,0.5
2024-05-08T2100,1461A,91.0834,29.6292,拉萨市,拉萨火车站,,44,12,9,7,8,139,,148,146,17,14,6,6,0.4,0.4
2024-05-08T2100,2520A,109.2203,23.7256,来宾市,来宾技工学校,,43,,49,30,30,49,,58,58,13,14,6,7,0.8,1
2024-05-08T2100,3535A,109.1781,23.7297,来宾市,兴宾区政府,,46,46,43,32,30,52,,59,59,13,15,6,6,0.8,0.9
2024-05-08T2100,4002A,109.2416,23.7461,来宾市,中南小学,,42,42,47,27,30,47,,60,59,15,18,5,6,0.9,1.1
2024-05-08T2100,1476A,103.631,36.1031,兰州市,兰炼宾馆,颗粒物(PM10),53,56,56,36,33,111,,146,142,18,38,5,11,0.2,0.4
2024-05-08T2100,1478A,103.8412,36.0726,兰州市,生物制品所,颗粒物(PM10),57,64,53,39,36,95,,133,126,24,29,10,10,0.4,0.4
2024-05-08T2100,1479A,103.831,36.0464,兰州市,铁路设计院,颗粒物(PM10),62,73,53,25,26,101,,138,132,22,51,9,9,0.3,0.5
2024-05-08T2100,3186A,103.7158,36.1058,兰州市,教育港,颗粒物(PM10),52,53,54,34,30,109,,147,142,14,35,7,9,0.3,0.4
2024-05-08T2100,3241A,103.7439,36.0842,兰州市,百合公园,,43,43,48,28,25,105,,140,136,16,42,3,4,0.3,0.4
2024-05-08T2100,3242A,103.9611,35.998,兰州市,和平,,,,41,72,25,,,137,136,14,14,8,8,0.4,0.4
2024-05-08T2100,3245A,103.6633,36.533,兰州新区,新区管委会,颗粒物(PM10),62,73,44,18,22,115,,142,137,8,11,4,7,0.4,0.4
2024-05-08T2100,3246A,103.6975,36.4789,兰州新区,舟曲中学,颗粒物(PM10),53,56,50,14,19,111,,136,131,11,9,19,12,0.3,0.3
2024-05-08T2100,1067A,116.6708,39.5111,廊坊市,药材公司,颗粒物(PM10),63,75,94,34,47,156,,182,177,14,26,4,4,0.5,0.5
2024-05-08T2100,1068A,116.7214,39.5589,廊坊市,开发区,,,,89,,40,160,,184,179,,34,4,3,,0.5
2024-05-08T2100,1070A,116.7244,39.5269,廊坊市,北华航天学院,颗粒物(PM10),72,93,103,29,41,151,,176,172,18,29,3,3,0.4,0.5
2024-05-08T2100,2919A,116.7022,39.5453,廊坊市,河北工业大学,颗粒物(PM10),70,90,101,33,49,158,,183,179,18,31,6,5,0.4,0.5
2024-05-08T2100,2535A,103.7723,29.5462,乐山市,花湖湾,,26,24,40,18,38,49,,61,61,16,19,2,2,0.7,0.8
2024-05-08T2100,2536A,103.7627,29.5844,乐山市,牛耳桥,,28,26,42,19,39,58,,68,68,25,27,7,5,0.7,0.7
2024-05-08T2100,2537A,103.7508,29.6006,乐山市,市第三水厂,,28,28,45,17,34,64,,70,70,23,26,5,4,0.7,0.6
2024-05-08T2100,2538A,103.7571,29.5664,乐山市,市监测站,,33,26,47,23,37,59,,69,69,22,19,6,5,0.9,0.9
2024-05-08T2100,3361A,103.7311,29.5628,乐山市,理工大学,,32,30,42,22,37,59,,71,71,25,19,13,8,0.8,0.7
2024-05-08T2100,2599A,100.2497,26.8802,丽江市,丽江古城,,,37,31,23,21,,,118,118,16,12,7,7,0.5,0.6
2024-05-08T2100,2600A,100.2203,26.8906,丽江市,市中心,,34,34,24,17,15,102,,116,116,15,10,9,8,0.9,0.7
2024-05-08T2100,1267A,119.914,28.4514,丽水市,监测站大楼,,46,46,47,12,26,125,,173,160,21,22,3,3,0.4,0.5
2024-05-08T2100,1268A,119.93,28.4586,丽水市,莲都小学,,49,49,51,16,27,146,,178,168,13,21,4,4,0.4,0.4
2024-05-08T2100,1269A,119.879,28.4231,丽水市,余庄前,,43,43,42,28,29,77,,172,143,16,14,3,4,0.4,0.5
2024-05-08T2100,1173A,119.176,34.5885,连云港市,市环境监测站,颗粒物(PM10),51,51,55,24,25,111,,147,141,26,25,6,9,0.4,0.5
2024-05-08T2100,3000A,119.3581,34.6972,连云港市,德源药业,,39,36,56,19,23,122,,146,141,18,31,6,8,0.4,0.6
2024-05-08T2100,3007A,119.178,34.844,连云港市,新城一中,颗粒物(PM10),51,52,58,24,27,122,,161,152,27,26,8,15,0.6,1
2024-05-08T2100,3008A,119.3608,34.7519,连云港市,胡沟管理处,,46,36,44,17,20,146,,150,149,10,20,7,10,0.4,0.6
2024-05-08T2100,3009A,119.1478,34.5911,连云港市,矿山设计院,细颗粒物(PM2.5),64,68,61,46,34,123,,150,146,23,22,8,10,0.6,0.7
2024-05-08T2100,3434A,119.2413,34.6539,连云港市,工贸学校,,44,40,47,20,27,138,,160,156,12,16,9,11,0.5,0.7
2024-05-08T2100,3664A,119.4172,34.7341,连云港市,连云街道,,50,41,55,17,21,158,,160,160,9,18,4,6,0.5,0.6
2024-05-08T2100,2571A,102.3431,27.8099,凉山彝族自治州,青龙寺,,33,19,25,3,4,105,,122,122,6,9,7,8,0.5,0.5
2024-05-08T2100,2572A,102.2721,27.8415,凉山彝族自治州,邛海宾馆,,31,18,27,10,19,98,,119,118,9,11,8,10,0.7,0.7
2024-05-08T2100,2573A,102.2625,27.898,凉山彝族自治州,西昌市政府,,26,22,29,13,23,82,,114,112,14,15,10,11,0.6,0.8
2024-05-08T2100,2574A,102.2685,27.8851,凉山彝族自治州,凉山州政府,,28,23,30,11,20,88,,115,113,13,15,10,12,0.7,0.7
2024-05-08T2100,2575A,102.237,27.8914,凉山彝族自治州,长安,,30,22,33,9,17,93,,118,116,9,15,9,13,0.8,0.9
2024-05-08T2100,2212A,123.2,41.1953,辽阳市,宏伟区,颗粒物(PM10),59,67,59,21,26,106,,140,127,20,31,15,14,0.8,0.9
2024-05-08T2100,2213A,123.1683,41.2495,辽阳市,新华园,颗粒物(PM10),62,74,76,27,36,92,,141,124,38,40,20,17,1.0,1
2024-05-08T2100,2214A,123.2354,41.2639,辽阳市,滨河路,颗粒物(PM10),61,71,65,40,50,95,,139,128,27,30,12,11,0.6,0.7
2024-05-08T2100,2215A,123.149,41.2991,辽阳市,铁西工业园,颗粒物(PM10),57,63,78,39,47,99,,146,132,28,36,21,16,1.0,0.9
2024-05-08T2100,2227A,125.1358,42.8845,辽源市,环保局,,29,26,29,12,16,92,,118,111,27,25,7,7,0.6,0.6
2024-05-08T2100,3239A,125.0764,42.9078,辽源市,银鹰制药,,40,40,37,14,19,56,,105,98,62,32,14,10,0.5,0.6
2024-05-08T2100,1625A,115.9848,36.4372,聊城市,区政府,颗粒物(PM10),61,72,88,29,35,128,,163,158,17,19,7,7,0.6,0.7
2024-05-08T2100,2878A,116.0072,36.4343,聊城市,聊大东校,颗粒物(PM10),73,95,93,19,41,141,,167,163,20,20,6,8,0.7,0.7
2024-05-08T2100,3200A,115.9819,36.4978,聊城市,监控中心,颗粒物(PM10),61,72,88,19,33,132,,165,160,20,37,8,9,0.4,0.6
2024-05-08T2100,3513A,116.0445,36.4361,聊城市,九州社区,颗粒物(PM10),66,81,97,28,36,118,,170,162,19,16,6,8,0.4,0.5
2024-05-08T2100,4018A,116.0567,36.4608,聊城市,星美广场,颗粒物(PM10),66,81,98,27,40,131,,167,162,14,15,6,8,0.5,0.6
2024-05-08T2100,2632A,94.3681,29.6376,林芝市,林芝监测站,,,,14,8,11,118,,129,127,2,4,6,6,0.5,0.5
2024-05-08T2100,2633A,94.3616,29.6616,林芝市,林芝人民医院,,39,21,14,11,10,123,,132,131,4,6,7,7,0.4,0.5
2024-05-08T2100,2603A,100.0781,23.8982,临沧市,市环保局,细颗粒物(PM2.5),59,49,60,42,40,109,,120,118,11,14,6,9,0.5,0.5
2024-05-08T2100,2604A,100.0894,23.8822,临沧市,市气象局,细颗粒物(PM2.5),55,50,60,39,49,106,,118,116,12,16,7,8,0.7,0.7
2024-05-08T2100,1733A,111.5531,36.0783,临汾市,临钢医院,颗粒物(PM10),66,81,82,33,35,130,,181,170,16,22,9,10,0.9,0.7
2024-05-08T2100,1734A,111.5028,36.0714,临汾市,技工学校,细颗粒物(PM2.5),65,78,72,47,40,141,,195,183,22,27,10,11,0.7,0.8
2024-05-08T2100,1736A,111.5018,36.0855,临汾市,市委,颗粒物(PM10),67,84,78,34,32,142,,199,186,12,16,9,10,1.0,1
2024-05-08T2100,3018A,111.505,36.1014,临汾市,唐尧大酒店,颗粒物(PM10),72,93,84,35,32,123,,175,163,19,20,10,10,0.8,0.8
2024-05-08T2100,3668A,111.5036,36.0414,临汾市,城南,颗粒物(PM10),64,77,77,42,40,126,,192,175,28,30,7,8,0.6,0.7
2024-05-08T2100,2667A,103.2069,35.5993,临夏回族自治州,环保局,,41,41,60,17,28,113,,128,126,10,18,5,4,0.3,0.5
2024-05-08T2100,2668A,103.2417,35.6057,临夏回族自治州,建设大厦,颗粒物(PM10),53,56,50,25,28,118,,135,134,8,12,10,9,0.3,0.3
2024-05-08T2100,1618A,118.3429,35.0532,临沂市,沂河小区,颗粒物(PM10),53,56,55,31,29,118,,157,149,24,20,12,9,0.5,0.3
2024-05-08T2100,1619A,118.295,35.0583,临沂市,鲁南制药厂,颗粒物(PM10),56,61,57,27,27,137,,168,166,20,24,9,9,0.4,0.3
2024-05-08T2100,1620A,118.2794,34.9976,临沂市,新光毛纺厂,颗粒物(PM10),59,68,60,31,22,117,,159,154,30,25,16,8,0.6,0.5
2024-05-08T2100,1621A,118.3956,35.0888,临沂市,河东保险公司,,42,41,47,25,24,132,,161,158,24,22,11,6,0.3,0.2
2024-05-08T2100,3370A,118.3564,35.0215,临沂市,十里堡居委,颗粒物(PM10),53,56,53,22,24,124,,165,161,25,19,15,7,0.7,0.5
2024-05-08T2100,3496A,118.3604,35.1084,临沂市,南坊新区,颗粒物(PM10),53,56,54,19,22,133,,156,154,21,22,10,10,0.4,0.2
2024-05-08T2100,3860A,118.3920,35.0300,临沂市,皇山花园小区,颗粒物(PM10),54,58,57,27,26,126,,162,158,24,18,10,8,0.5,0.3
2024-05-08T2100,1870A,109.4856,24.3895,柳州市,柳东小学,,44,44,41,30,32,38,,54,49,13,18,9,8,0.6,0.7
2024-05-08T2100,1871A,109.4157,24.3277,柳州市,环保监测站,颗粒物(PM10),52,54,58,32,38,29,,51,44,25,28,9,9,0.9,1
2024-05-08T2100,1872A,109.389,24.341,柳州市,河西水厂,颗粒物(PM10),51,51,61,33,34,36,,50,47,16,26,11,16,0.8,1.1
2024-05-08T2100,1873A,109.4311,24.2921,柳州市,市四中,,49,49,58,33,39,42,,59,56,17,24,7,8,0.8,1.1
2024-05-08T2100,1874A,109.4006,24.3631,柳州市,市九中,颗粒物(PM10),52,54,61,26,35,41,,52,50,18,29,8,9,0.8,0.9
2024-05-08T2100,1875A,109.4958,24.3134,柳州市,古亭山,,46,40,47,32,31,40,,62,54,12,22,7,6,0.6,0.7
2024-05-08T2100,3402A,109.5422,24.3996,柳州市,市二中,,,42,46,32,29,26,,68,48,21,22,,8,0.5,0.6
2024-05-08T2100,2307A,116.5079,31.737,六安市,监测大楼,,39,37,39,25,24,123,,154,150,22,21,5,6,0.4,0.5
2024-05-08T2100,2308A,116.4738,31.7643,六安市,皖西学院,颗粒物(PM10),54,58,52,23,24,125,,163,157,24,22,5,4,0.4,0.5
2024-05-08T2100,2309A,116.4996,31.7905,六安市,朝阳厂,,47,47,48,24,24,119,,158,152,25,24,7,6,0.2,0.2
2024-05-08T2100,2310A,116.5567,31.7886,六安市,开发区,,50,50,52,26,28,105,,154,145,27,24,8,8,0.5,0.5
2024-05-08T2100,2577A,104.83,26.5917,六盘水市,黄土坡,,30,9,15,9,14,96,,91,91,16,15,5,6,0.5,0.6
2024-05-08T2100,2578A,104.89,26.5939,六盘水市,水钢,,37,11,22,9,16,117,,108,108,4,12,7,8,0.3,0.4
2024-05-08T2100,2579A,104.8475,26.5894,六盘水市,民中,,32,12,15,9,13,101,,94,94,12,13,5,6,0.5,0.5
2024-05-08T2100,2580A,104.9544,26.5506,六盘水市,双水,,36,,12,9,11,114,,113,113,5,7,6,6,0.3,0.4
2024-05-08T2100,2336A,117.0217,25.1033,龙岩市,龙岩市监测站,细颗粒物(PM2.5),55,42,36,39,25,112,,101,100,22,15,12,7,0.6,0.5
2024-05-08T2100,2337A,117.0258,25.0661,龙岩市,闽西职业技术学院,,50,44,47,35,26,109,,101,99,21,23,10,17,0.7,0.6
2024-05-08T2100,2338A,117.0196,25.0306,龙岩市,龙岩学院,,39,36,40,27,24,74,,108,98,8,14,7,5,0.7,0.6
2024-05-08T2100,2885A,104.9339,33.3826,陇南市,滨江中学,,42,42,49,23,18,94,,98,98,6,5,5,6,0.6,0.5
2024-05-08T2100,3247A,104.955,33.371,陇南市,市总工会,,38,38,36,9,9,100,,96,96,5,8,6,7,0.7,0.7
2024-05-08T2100,2487A,111.9589,27.8901,娄底市,电视发射台,颗粒物(PM10),52,54,42,29,21,97,,129,124,5,5,5,5,0.8,0.8
2024-05-08T2100,2488A,111.9975,27.725,娄底市,市监测站,颗粒物(PM10),61,72,75,38,44,121,,134,134,17,21,5,10,0.8,1.4
2024-05-08T2100,2489A,112.0194,27.7314,娄底市,市委党校,颗粒物(PM10),62,73,64,38,46,110,,123,123,20,22,6,10,0.6,1.5
2024-05-08T2100,2490A,111.9561,27.7569,娄底市,涟钢,细颗粒物(PM2.5),82,104,62,60,46,101,,107,107,32,23,15,14,1.1,1.3
2024-05-08T2100,2491A,111.9892,27.7044,娄底市,市政府,细颗粒物(PM2.5),74,69,63,54,48,91,,135,131,30,15,6,7,1.1,1.2
2024-05-08T2100,1893A,105.4324,28.9634,泸州市,九狮山,,,69,42,46,25,,,59,59,,23,5,5,0.5,0.3
2024-05-08T2100,1894A,105.4427,28.9063,泸州市,小市上码头,细颗粒物(PM2.5),79,75,52,58,34,54,,54,54,16,21,6,6,0.6,0.5
2024-05-08T2100,1895A,105.4241,28.8573,泸州市,兰田宪桥,细颗粒物(PM2.5),74,73,53,54,38,62,,51,51,15,19,6,6,0.6,0.5
2024-05-08T2100,1896A,105.4379,28.8833,泸州市,市环监站,细颗粒物(PM2.5),77,72,53,56,40,48,,44,44,23,24,7,7,0.7,0.6
2024-05-08T2100,3490A,105.3617,28.7703,泸州市,纳溪区环保局,细颗粒物(PM2.5),83,,46,61,34,57,,64,64,17,21,2,3,0.6,0.4
2024-05-08T2100,2183A,111.1406,37.5211,吕梁市,环保局,颗粒物(PM10),53,55,59,26,22,148,,174,171,21,34,6,6,0.5,0.4
2024-05-08T2100,2185A,111.1297,37.5136,吕梁市,自来水公司,颗粒物(PM10),51,52,64,23,23,144,,167,165,22,28,7,6,0.5,0.4
2024-05-08T2100,2867A,111.1283,37.51,吕梁市,马茂庄小学,颗粒物(PM10),58,65,68,33,24,105,,176,166,68,40,5,4,0.5,0.4
2024-05-08T2100,1812A,112.3931,34.6516,洛阳市,市委党校,臭氧1小时,65,70,85,43,59,172,,203,200,9,22,5,8,0.6,0.8
2024-05-08T2100,1814A,112.4657,34.6871,洛阳市,豫西宾馆,颗粒物(PM10),70,90,107,39,53,168,,211,207,15,22,6,10,0.6,0.7
2024-05-08T2100,1815A,112.494,34.6886,洛阳市,河南林校,细颗粒物(PM2.5),67,76,85,48,60,162,,205,201,20,26,7,10,0.5,0.7
2024-05-08T2100,1816A,112.3844,34.623,洛阳市,开发区管委会,细颗粒物(PM2.5),65,71,89,47,59,165,,200,196,10,19,5,7,0.4,0.6
2024-05-08T2100,1817A,112.4267,34.6258,洛阳市,市委新办公区,细颗粒物(PM2.5),62,70,90,44,58,166,,196,193,11,20,6,8,0.7,0.9
2024-05-08T2100,3340A,112.6005,34.6326,洛阳市,伊滨,臭氧1小时,62,68,83,40,54,169,,201,198,15,27,7,8,0.6,0.8
2024-05-08T2100,3341A,112.4951,34.6332,洛阳市,中移产业园,颗粒物(PM10),61,71,84,37,57,165,,196,191,11,24,6,10,0.6,0.8
2024-05-08T2100,3593A,112.5736,34.8993,洛阳市,吉利监测站,颗粒物(PM10),64,78,91,30,44,135,,206,196,28,29,4,7,0.3,0.6
2024-05-08T2100,3635A,112.3677,34.662,洛阳市,河科大西苑校区,颗粒物(PM10),67,83,94,36,53,168,,198,195,6,26,5,10,0.5,0.7
2024-05-08T2100,3636A,112.4388,34.6781,洛阳市,英才小学,颗粒物(PM10),71,91,101,41,48,159,,201,197,18,20,6,10,0.7,0.8
2024-05-08T2100,2400A,114.0055,33.5698,漯河市,漯河大学,颗粒物(PM10),61,71,83,29,45,138,,171,167,17,25,8,12,0.3,0.5
2024-05-08T2100,2401A,114.0138,33.5828,漯河市,市水利局,颗粒物(PM10),57,63,85,29,45,137,,169,165,14,23,8,11,0.4,0.8
2024-05-08T2100,2402A,114.0261,33.5698,漯河市,市广电局,颗粒物(PM10),61,71,82,30,43,133,,168,164,13,21,5,9,0.5,0.7
2024-05-08T2100,3478A,113.9749,33.5664,漯河市,市图书馆,颗粒物(PM10),59,68,83,32,42,140,,173,169,11,24,5,12,0.5,0.6
2024-05-08T2100,3479A,114.0967,33.5906,漯河市,召陵区卫健委,颗粒物(PM10),59,67,87,29,49,126,,168,162,16,32,6,10,0.3,0.5
2024-05-08T2100,1798A,118.5092,31.6837,马鞍山市,湖东路四小,颗粒物(PM10),53,56,59,28,25,134,,164,162,26,30,6,7,0.6,0.7
2024-05-08T2100,1799A,118.5024,31.6449,马鞍山市,开发区,颗粒物(PM10),58,66,73,32,28,99,,164,157,64,48,8,9,0.6,0.7
2024-05-08T2100,1800A,118.5228,31.7231,马鞍山市,慈湖,颗粒物(PM10),51,52,58,30,32,144,,159,158,24,43,5,7,0.6,0.8
2024-05-08T2100,1802A,118.6245,31.7241,马鞍山市,濮塘,,44,36,44,24,24,139,,170,167,11,16,3,5,0.6,0.8
2024-05-08T2100,3633A,118.4918,31.6809,马鞍山市,雨山,颗粒物(PM10),53,55,56,28,27,140,,159,157,24,29,8,10,0.5,0.7
2024-05-08T2100,1686A,111.0286,21.4688,茂名市,电白南海,,27,24,31,17,18,86,,88,88,8,11,9,10,0.6,0.5
2024-05-08T2100,1687A,110.9294,21.6533,茂名市,茂石化七小,,27,17,24,14,17,84,,77,77,12,11,12,12,0.7,0.7
2024-05-08T2100,1688A,110.9107,21.6687,茂名市,健康路,,27,17,21,7,12,85,,82,82,8,9,9,10,0.6,0.6
2024-05-08T2100,1689A,110.8592,21.6828,茂名市,高岭,,26,,27,14,17,82,,78,78,7,13,9,8,0.8,0.7
2024-05-08T2100,3450A,111.01,21.5165,茂名市,电白水东,,28,19,20,14,15,88,,85,85,20,14,7,6,0.5,0.5
2024-05-08T2100,2539A,104.0308,30.0478,眉山市,黑龙滩水库,,32,32,52,20,40,62,,74,70,10,15,2,3,0.3,0.4
2024-05-08T2100,2540A,103.8416,30.0874,眉山市,气象局,,34,34,54,2,30,81,,88,88,19,26,8,10,0.3,0.5
2024-05-08T2100,3137A,103.8578,30.0744,眉山市,市委党校,,29,29,58,14,38,70,,85,82,24,26,7,7,0.3,0.5
2024-05-08T2100,3148A,103.8291,30.0564,眉山市,区人社局,,41,41,56,12,41,72,,86,84,23,30,11,9,0.5,0.6
2024-05-08T2100,1690A,116.1231,24.3284,梅州市,梅江月梅,,37,37,40,15,23,69,,105,100,6,11,4,4,0.6,0.7
2024-05-08T2100,1691A,116.0797,24.2719,梅州市,梅县新城,,26,26,35,11,23,77,,108,101,12,17,3,4,0.6,0.6
2024-05-08T2100,1692A,116.1248,24.2654,梅州市,环境监控中心,,30,30,36,12,22,40,,101,91,33,18,3,7,0.7,0.7
2024-05-08T2100,3315A,116.1233,24.2991,梅州市,梅龙,,44,44,35,24,25,74,,101,96,13,11,11,9,0.8,0.8
2024-05-08T2100,1878A,104.7778,31.4741,绵阳市,富乐山,细颗粒物(PM2.5),60,68,82,43,65,83,,114,113,28,22,13,10,0.6,0.6
2024-05-08T2100,1879A,104.7563,31.4535,绵阳市,市人大,细颗粒物(PM2.5),70,82,91,51,56,77,,104,102,28,29,15,13,0.6,0.7
2024-05-08T2100,1880A,104.6697,31.4668,绵阳市,高新区自来水公司,颗粒物(PM10),69,87,98,34,57,76,,108,107,28,33,12,13,0.4,0.6
2024-05-08T2100,1881A,104.7287,31.5075,绵阳市,三水厂,颗粒物(PM10),67,83,86,47,73,73,,107,104,44,32,16,11,0.7,0.7
2024-05-08T2100,3491A,104.69,31.5322,绵阳市,西科大附属小学,细颗粒物(PM2.5),78,85,82,57,56,68,,102,100,42,34,14,9,0.6,0.6
2024-05-08T2100,3492A,104.5648,31.5343,绵阳市,安州区旅游局,细颗粒物(PM2.5),103,104,73,77,60,67,,78,76,36,26,14,9,0.8,0.7
2024-05-08T2100,1784A,129.61,44.561,牡丹江市,环保大楼,,48,45,28,33,20,70,,107,98,20,13,6,5,0.4,0.3
2024-05-08T2100,1785A,129.6115,44.5782,牡丹江市,文化广场,颗粒物(PM10),52,54,41,34,29,63,,106,97,29,21,7,8,0.5,0.4
2024-05-08T2100,1786A,129.5904,44.5963,牡丹江市,第一医院,细颗粒物(PM2.5),67,74,32,48,20,29,,107,90,49,19,6,5,0.8,0.4
2024-05-08T2100,1787A,129.6364,44.6075,牡丹江市,机车工厂,,49,49,46,17,17,65,,110,97,23,16,11,6,0.5,0.3
2024-05-08T2100,1788A,129.6386,44.5462,牡丹江市,第一中学,颗粒物(PM10),61,71,31,25,17,77,,114,103,14,13,5,5,0.3,0.2
2024-05-08T2100,2531A,105.0703,29.61,内江市,市监测站,,39,36,65,27,62,50,,68,64,25,26,6,7,0.4,0.7
2024-05-08T2100,2532A,105.0717,29.5947,内江市,东兴区政府,,50,50,72,24,49,65,,69,68,21,27,9,10,0.4,0.7
2024-05-08T2100,2533A,105.0653,29.5817,内江市,内江二中,,46,41,70,32,63,60,,63,62,22,28,7,8,0.4,0.7
2024-05-08T2100,2534A,105.0406,29.5822,内江市,内江日报社,,40,40,70,23,63,68,,68,68,22,31,5,7,0.5,0.8
2024-05-08T2100,2628A,92.0657,31.4846,那曲市,那曲监测站,,,8,29,0,14,,,127,127,12,9,14,5,0.8,0.8
2024-05-08T2100,3128A,92.0506,31.4797,那曲市,那曲会议中心,,41,30,31,13,12,129,,130,130,11,9,4,3,0.7,0.7
2024-05-08T2100,1290A,115.8931,28.6843,南昌市,省外办,颗粒物(PM10),51,52,61,27,32,118,,164,154,20,22,7,8,0.2,0.5
2024-05-08T2100,1291A,115.8886,28.7003,南昌市,省林业公司,颗粒物(PM10),52,53,58,24,30,105,,161,147,29,35,5,6,0.4,0.5
2024-05-08T2100,1292A,115.8126,28.7442,南昌市,林科所,,,29,38,12,22,129,,176,165,23,17,6,7,,0.6
2024-05-08T2100,1294A,115.8518,28.687,南昌市,建工学校,颗粒物(PM10),53,56,56,26,28,122,,173,163,21,17,5,7,0.4,0.6
2024-05-08T2100,1295A,115.8921,28.6424,南昌市,象湖,,40,38,54,25,30,128,,177,167,17,18,6,6,0.6,0.8
2024-05-08T2100,1296A,115.7423,28.7996,南昌市,武术学校,,40,,19,28,28,88,,158,134,5,4,8,9,0.3,0.4
2024-05-08T2100,1298A,115.9314,28.6842,南昌市,省站,,48,48,64,23,35,127,,169,161,13,17,9,10,0.4,0.6
2024-05-08T2100,3046A,115.9084,28.6062,南昌市,机电学校,,47,47,60,19,29,126,,166,158,18,20,8,8,0.5,0.7
2024-05-08T2100,3690A,115.9721,28.7031,南昌市,外国语学校,,40,39,55,23,34,128,,162,155,15,20,3,5,0.7,0.7
2024-05-08T2100,1906A,106.0789,30.8023,南充市,南充市委,细颗粒物(PM2.5),77,69,97,56,83,82,,128,121,30,26,7,9,0.5,0.6
2024-05-08T2100,1907A,106.1031,30.8217,南充市,南充炼油厂,细颗粒物(PM2.5),93,91,106,69,78,108,,148,141,22,23,8,10,0.7,0.8
2024-05-08T2100,1908A,106.1064,30.7856,南充市,高坪区监测站,细颗粒物(PM2.5),77,72,111,56,80,90,,138,128,30,24,7,9,0.4,0.3
2024-05-08T2100,1909A,106.0642,30.7636,南充市,嘉陵区环保局,细颗粒物(PM2.5),100,111,105,75,86,110,,131,126,19,30,8,12,0.6,0.7
2024-05-08T2100,1910A,106.1087,30.8388,南充市,市环境监测站,细颗粒物(PM2.5),75,81,93,55,67,94,,133,125,30,25,7,9,0.7,0.6
2024-05-08T2100,1151A,118.8086,32.1065,南京市,迈皋桥,,41,41,38,19,22,46,,150,132,57,37,3,4,0.6,0.6
2024-05-08T2100,1152A,118.7538,32.0551,南京市,草场门,,36,36,44,19,27,102,,158,146,32,28,3,3,0.3,0.3
2024-05-08T2100,1153A,118.7794,32.0745,南京市,山西路,,36,36,52,17,17,94,,154,141,33,25,4,4,0.3,0.3
2024-05-08T2100,1154A,118.7752,32.0023,南京市,中华门,,39,39,46,22,23,88,,146,136,40,27,8,8,0.5,0.5
2024-05-08T2100,1155A,118.8109,32.0309,南京市,瑞金路,,39,36,44,27,25,92,,151,141,30,21,12,11,0.6,0.5
2024-05-08T2100,1156A,118.7997,32.0754,南京市,玄武湖,,42,42,47,24,23,82,,145,130,47,32,8,7,0.5,0.4
2024-05-08T2100,1157A,118.6414,32.0931,南京市,浦口,,44,44,47,25,24,112,,145,140,17,17,7,7,0.6,0.5
2024-05-08T2100,1158A,118.7356,31.9996,南京市,奥体中心,,39,37,47,27,26,104,,158,147,27,22,8,8,0.4,0.5
2024-05-08T2100,1159A,118.9125,32.1028,南京市,仙林大学城,,31,31,40,14,19,87,,154,141,31,30,8,9,0.5,0.4
2024-05-08T2100,3422A,118.8436,31.9198,南京市,江宁彩虹桥,,44,44,52,22,25,91,,164,152,39,27,4,4,0.5,0.5
2024-05-08T2100,3423A,119.0138,31.6494,南京市,溧水永阳,,39,34,51,22,30,122,,166,162,26,28,4,4,0.3,0.4
2024-05-08T2100,3424A,118.879,31.3302,南京市,高淳老职中,细颗粒物(PM2.5),52,36,63,36,32,143,,163,162,20,22,5,7,0.2,0.3
2024-05-08T2100,3427A,118.8554,32.3578,南京市,六合雄州,,26,23,42,18,20,83,,144,130,25,18,3,3,0.4,0.4
2024-05-08T2100,1401A,108.3103,22.7881,南宁市,二十一中,,36,33,33,25,24,57,,68,60,17,24,4,4,1.0,1
2024-05-08T2100,1402A,108.3141,22.8528,南宁市,北湖,,48,,40,33,26,48,,60,48,19,27,4,6,1.1,1.1
2024-05-08T2100,1403A,108.3206,22.8225,南宁市,市监测站,,42,,34,29,28,48,,54,47,23,28,5,6,0.9,0.9
2024-05-08T2100,1404A,108.3829,22.8037,南宁市,大自然花园,,48,43,36,33,26,59,,54,54,13,22,5,5,0.8,0.7
2024-05-08T2100,1405A,108.4394,22.7904,南宁市,仙葫,,42,32,45,29,27,50,,52,49,17,22,6,5,1.2,1.2
2024-05-08T2100,1406A,108.2397,22.8467,南宁市,区农职院,,38,34,48,26,28,28,,73,46,33,34,6,9,1.0,0.9
2024-05-08T2100,1407A,108.3275,22.735,南宁市,英华嘉园,细颗粒物(PM2.5),52,,40,36,26,52,,64,54,18,31,6,6,0.9,0.9
2024-05-08T2100,1408A,108.2257,22.7757,南宁市,沙井镇街道办,,42,34,58,29,30,46,,56,47,25,40,4,5,0.8,0.8
2024-05-08T2100,3401A,108.4834,22.7618,南宁市,红星社区,,38,,42,26,26,44,,57,54,19,32,7,7,0.8,0.8
2024-05-08T2100,2332A,118.1681,26.6369,南平市,南平市监测站,,33,33,32,18,18,91,,139,128,19,16,5,5,0.7,0.6
2024-05-08T2100,2333A,118.1825,26.6489,南平市,南平铝业有限公司,,40,40,35,26,20,108,,133,125,13,16,5,7,0.7,0.7
2024-05-08T2100,2334A,118.1756,26.6272,南平市,南平七中,,41,26,34,23,22,129,,141,134,8,14,4,5,0.7,0.7
2024-05-08T2100,1168A,120.9098,31.9663,南通市,狼山街道,,34,34,37,16,19,93,,123,120,19,16,10,10,0.4,0.5
2024-05-08T2100,1169A,120.86,32.0005,南通市,虹桥,,33,33,45,12,23,101,,122,118,20,16,5,5,0.5,0.5
2024-05-08T2100,1170A,120.87,32.02,南通市,城中,,40,40,55,24,32,95,,116,115,24,15,5,5,0.6,0.6
2024-05-08T2100,1171A,120.94,31.93,南通市,星湖花园,,30,30,36,15,20,86,,122,118,30,21,7,7,0.5,0.6
2024-05-08T2100,1172A,120.81,32.0417,南通市,紫琅学院,,34,34,37,23,22,83,,124,118,40,18,9,9,0.4,0.5
2024-05-08T2100,3291A,121.067,32.062,南通市,通州监测站,,34,34,47,12,21,108,,124,124,7,10,8,8,0.5,0.5
2024-05-08T2100,3432A,120.9348,31.9883,南通市,环境教育馆,,41,41,46,23,22,62,,118,110,35,17,7,7,0.5,0.5
2024-05-08T2100,2404A,112.5224,33.0122,南阳市,瓦房庄,,50,50,57,20,27,140,,152,145,12,18,5,5,0.6,0.7
2024-05-08T2100,2405A,112.5003,32.9735,南阳市,汉画馆,颗粒物(PM10),56,62,62,35,40,132,,159,150,28,17,4,5,0.4,0.6
2024-05-08T2100,2406A,112.5573,33.027,南阳市,气象站,颗粒物(PM10),53,55,57,29,31,133,,167,156,16,17,3,3,0.7,0.8
2024-05-08T2100,2407A,112.5481,32.9689,南阳市,理工学院,颗粒物(PM10),55,59,58,22,32,134,,165,157,20,15,4,5,0.5,0.6
2024-05-08T2100,4008A,112.5234,32.9922,南阳市,卧龙区政府,颗粒物(PM10),51,51,56,28,34,138,,165,157,18,17,5,6,0.6,0.7
2024-05-08T2100,1234A,121.8358,29.911,宁波市,区环保大楼,,,11,65,5,33,,,147,109,26,49,6,8,0.4,0.9
2024-05-08T2100,1235A,121.56,29.82,宁波市,万里学院,,28,17,55,5,33,89,,178,133,25,33,5,7,0.4,0.7
2024-05-08T2100,1236A,121.713,29.9572,宁波市,龙赛医院,,26,26,67,8,31,79,,149,110,26,50,6,8,0.5,0.8
2024-05-08T2100,1239A,121.633,29.7733,宁波市,钱湖水厂,,25,12,61,4,33,80,,177,131,19,17,6,6,0.6,0.9
2024-05-08T2100,1240A,121.5856,29.8635,宁波市,太古小学,,34,34,60,8,31,88,,166,120,22,38,6,7,0.5,0.9
2024-05-08T2100,1241A,121.524,29.8674,宁波市,市环境监测中心,,28,16,55,5,30,87,,177,131,25,38,9,10,0.5,0.7
2024-05-08T2100,3710A,121.5594,29.8975,宁波市,白沙活动中心,,25,17,68,10,32,78,,164,116,31,38,10,11,0.4,0.7
2024-05-08T2100,2341A,119.5388,26.6612,宁德市,宁德市监测站,臭氧1小时,79,47,38,40,32,183,,166,166,13,15,8,9,0.6,0.8
2024-05-08T2100,3209A,119.5231,26.6562,宁德市,宁德一中,,,59,44,31,30,,,166,166,30,15,8,8,0.6,0.8
2024-05-08T2100,2618A,98.8601,25.8567,怒江傈僳族自治州,州监测站,,42,35,24,29,19,87,,107,104,14,4,7,8,0.5,0.4
2024-05-08T2100,2619A,98.8546,25.8417,怒江傈僳族自治州,泸水一中,颗粒物(PM10),57,64,27,33,18,39,,94,83,42,12,7,7,0.7,0.3
2024-05-08T2100,1888A,101.6891,26.571,攀枝花市,弄弄坪,颗粒物(PM10),56,61,57,31,29,102,,124,124,34,28,28,24,0.8,0.9
2024-05-08T2100,1889A,101.5769,26.5928,攀枝花市,河门口,,38,34,57,22,35,120,,128,128,23,30,23,19,0.8,1.2
2024-05-08T2100,1890A,101.7169,26.585,攀枝花市,炳草岗,颗粒物(PM10),57,64,54,26,32,94,,132,132,41,32,28,33,0.7,0.9
2024-05-08T2100,1891A,101.7369,26.5008,攀枝花市,仁和,,39,37,46,27,33,104,,131,131,20,23,11,15,0.6,0.9
2024-05-08T2100,2835A,101.7227,26.567,攀枝花市,四十中小,,42,39,44,29,28,118,,137,137,31,22,25,28,0.8,0.8
2024-05-08T2100,1604A,122.0303,41.1489,盘锦市,开发区,细颗粒物(PM2.5),117,,57,88,38,192,,164,164,17,24,9,7,0.9,0.5
2024-05-08T2100,1605A,122.0485,41.0883,盘锦市,兴隆台,细颗粒物(PM2.5),139,,51,106,38,182,,158,158,23,30,11,10,1.0,0.6
2024-05-08T2100,1606A,121.8297,41.1028,盘锦市,新生街道,臭氧1小时,113,72,48,72,31,225,,184,184,17,34,10,9,0.9,0.7
2024-05-08T2100,1832A,113.3257,33.742,平顶山市,新华旅馆,颗粒物(PM10),64,77,98,31,55,153,,184,178,13,22,12,13,0.4,0.6
2024-05-08T2100,1833A,113.2919,33.737,平顶山市,规划设计院,颗粒物(PM10),56,62,81,34,49,140,,170,165,16,28,23,11,0.7,0.8
2024-05-08T2100,1834A,113.182,33.774,平顶山市,平顶山工学院,颗粒物(PM10),59,67,88,31,45,146,,178,169,13,17,9,9,0.5,0.7
2024-05-08T2100,3204A,113.3025,33.73,平顶山市,规划局,颗粒物(PM10),62,73,92,35,49,146,,172,168,12,27,14,9,0.6,0.7
2024-05-08T2100,3594A,112.8867,33.9116,平顶山市,石龙区,颗粒物(PM10),64,77,139,28,50,135,,190,178,19,44,13,13,0.5,0.7
2024-05-08T2100,2656A,106.6692,35.5461,平凉市,聚贤嘉苑,,38,38,55,15,25,120,,131,124,12,21,8,10,0.4,0.4
2024-05-08T2100,2657A,106.7021,35.5307,平凉市,博物馆,,46,46,64,21,27,124,,134,126,10,26,17,19,0.5,0.7
2024-05-08T2100,2347A,114.0997,27.5002,萍乡市,武功山,,38,19,25,7,6,119,,135,134,5,6,6,7,0.2,0.3
2024-05-08T2100,2348A,113.8385,27.6434,萍乡市,中医院,,45,44,51,21,31,141,,147,147,18,23,4,7,0.8,0.9
2024-05-08T2100,2349A,113.8493,27.6253,萍乡市,市政府车库,颗粒物(PM10),56,61,48,32,34,129,,143,142,23,20,23,11,3.3,1
2024-05-08T2100,2350A,113.8676,27.6435,萍乡市,市环保局,,45,45,49,28,32,143,,141,141,15,19,8,10,0.4,0.5
2024-05-08T2100,2351A,113.866,27.6198,萍乡市,安源区政府,颗粒物(PM10),59,68,57,35,32,138,,143,141,21,20,12,13,0.7,1.3
2024-05-08T2100,2319A,119.0141,25.4325,莆田市,荔城区仓后路,臭氧1小时,67,40,52,29,27,173,,157,157,13,18,5,6,0.8,1.1
2024-05-08T2100,2320A,119.0015,25.4553,莆田市,莆田市监测站,,,36,39,27,23,147,,153,153,11,11,7,7,,1
2024-05-08T2100,2321A,119.1119,25.4561,莆田市,涵江区六中,臭氧1小时,75,48,48,32,29,180,,162,162,11,20,8,8,0.7,1
2024-05-08T2100,2322A,119.1013,25.3215,莆田市,秀屿区政府,臭氧1小时,70,47,42,34,28,176,,156,156,13,17,8,10,0.8,1
2024-05-08T2100,2392A,115.0312,35.7636,濮阳市,环保局,颗粒物(PM10),61,72,74,18,33,120,,153,144,15,17,8,36,0.3,0.5
2024-05-08T2100,2394A,115.0574,35.7609,濮阳市,油田运输公司,颗粒物(PM10),52,54,76,19,39,126,,158,147,12,17,9,34,0.2,0.4
2024-05-08T2100,2395A,115.0866,35.7754,濮阳市,油田物探公司,,,54,62,,37,104,,157,140,23,18,10,24,0.4,0.5
2024-05-08T2100,3021A,115,35.7668,濮阳市,濮水河管理处,颗粒物(PM10),51,51,69,20,33,123,,154,144,14,14,8,25,0.2,0.5
2024-05-08T2100,2601A,100.98,22.7633,普洱市,市环保局,颗粒物(PM10),57,63,48,30,42,105,,117,116,11,9,8,8,0.5,0.5
2024-05-08T2100,2602A,100.9817,22.8322,普洱市,普洱第二中学,,48,48,45,26,31,99,,120,117,13,10,9,9,0.6,0.5
2024-05-08T2100,2262A,131.0518,45.8751,七台河市,新一中,,,,38,,26,72,,,,25,12,5,8,1.6,0.9
2024-05-08T2100,3345A,131.0577,45.7879,七台河市,中波台,,46,46,38,17,16,76,,118,100,34,21,8,9,0.7,0.6
2024-05-08T2100,3637A,131.0176,45.7761,七台河市,人民广场,颗粒物(PM10),56,62,51,32,27,56,,116,92,35,21,10,11,0.5,0.5
2024-05-08T2100,3684A,130.8781,45.8222,七台河市,新建矿广场,,50,36,55,35,28,60,,114,98,27,27,11,16,0.5,0.6
2024-05-08T2100,1779A,123.9305,47.3636,齐齐哈尔市,安居小区,颗粒物(PM10),128,206,95,14,16,82,,112,105,4,11,4,5,0.3,0.4
2024-05-08T2100,1780A,123.9488,47.3386,齐齐哈尔市,中心广场,颗粒物(PM10),89,128,123,19,11,85,,115,108,4,10,6,8,0.2,0.3
2024-05-08T2100,1781A,123.9483,47.3227,齐齐哈尔市,农牧车辆厂,颗粒物(PM10),136,222,110,22,15,,,118,,3,12,6,8,0.3,0.3
2024-05-08T2100,1783A,123.945,47.2988,齐齐哈尔市,市环境监测站,颗粒物(PM10),169,287,118,22,20,89,,120,112,4,9,3,6,0.2,0.2
2024-05-08T2100,3662A,123.6333,47.2075,齐齐哈尔市,富区青少年活动中心,,,77,128,22,24,,,121,120,5,10,5,7,0.3,0.4
2024-05-08T2100,2591A,107.9783,26.5747,黔东南苗族侗族自治州,市环境监测站,,30,24,26,21,20,74,,63,63,16,13,3,4,0.5,0.5
2024-05-08T2100,2881A,107.8908,26.5311,黔东南苗族侗族自治州,凯里学院,,29,18,23,15,15,91,,77,77,2,5,2,3,0.3,0.3
2024-05-08T2100,2593A,107.5228,26.2403,黔南布依族苗族自治州,小围寨,,13,,16,9,11,38,,60,48,9,7,4,4,0.5,0.4
2024-05-08T2100,3538A,107.5175,26.2978,黔南布依族苗族自治州,沙坝,,15,7,18,5,9,47,,70,52,13,8,3,3,0.5,0.5
2024-05-08T2100,2589A,104.9022,25.0925,黔西南布依族苗族自治州,场坝街,,24,24,17,11,11,67,,85,80,13,10,2,5,0.6,0.6
2024-05-08T2100,2590A,104.8811,25.0992,黔西南布依族苗族自治州,坪东大道,,21,13,13,4,6,67,,89,76,17,13,3,3,0.3,0.4
2024-05-08T2100,2502A,108.6236,21.9667,钦州市,市环保站,,22,12,44,12,22,69,,81,80,13,21,5,7,0.7,0.8
2024-05-08T2100,2503A,108.6549,21.9481,钦州市,沙埠小学,,24,17,49,12,24,74,,87,86,12,27,7,6,0.8,0.9
2024-05-08T2100,2504A,108.5989,21.7431,钦州市,港区一小,,30,30,59,18,27,81,,87,86,18,23,6,8,0.6,0.8
2024-05-08T2100,3404A,108.5959,21.9633,钦州市,北职校,,22,18,52,13,30,68,,81,80,15,26,7,9,0.7,0.9
2024-05-08T2100,1042A,119.5134,39.8207,秦皇岛市,北戴河环保局,臭氧1小时,89,117,94,55,40,191,,194,194,28,34,9,13,0.7,0.9
2024-05-08T2100,1044A,119.5897,39.9499,秦皇岛市,监测站,颗粒物(PM10),83,115,89,57,46,185,,199,199,33,46,12,8,0.8,0.7
2024-05-08T2100,1046A,119.5251,39.9041,秦皇岛市,建设大厦,颗粒物(PM10),89,128,95,54,38,174,,191,190,21,37,14,12,0.8,0.6
2024-05-08T2100,3132A,119.610547,39.943889,秦皇岛市,文明里,颗粒物(PM10),85,119,92,41,37,174,,185,185,36,47,6,7,0.9,0.7
2024-05-08T2100,1307A,120.6659,36.2403,青岛市,仰口,颗粒物(PM10),54,58,50,34,30,152,,149,149,9,10,4,5,0.5,0.4
2024-05-08T2100,1310A,120.4134,36.0658,青岛市,市南区东部子站,颗粒物(PM10),54,58,87,27,37,134,,153,153,27,32,7,8,0.5,0.7
2024-05-08T2100,1311A,120.3664,36.1032,青岛市,四方区子站,细颗粒物(PM2.5),70,73,78,51,44,130,,166,162,45,37,6,6,0.6,0.5
2024-05-08T2100,1312A,120.2994,36.054,青岛市,市南区西部子站,颗粒物(PM10),63,75,85,37,44,137,,146,146,36,43,9,10,0.5,0.5
2024-05-08T2100,1313A,120.4581,36.0858,青岛市,崂山区子站,颗粒物(PM10),59,68,72,34,32,126,,153,153,31,31,9,9,0.5,0.6
2024-05-08T2100,1314A,120.1983,35.9608,青岛市,黄岛区子站,细颗粒物(PM2.5),55,58,69,39,41,140,,160,159,24,31,8,9,0.6,0.6
2024-05-08T2100,1315A,120.3999,36.3083,青岛市,城阳区子站,颗粒物(PM10),60,70,74,29,33,142,,148,146,39,39,8,8,0.6,0.6
2024-05-08T2100,1966A,120.0405,35.8735,青岛市,黄岛区4号,颗粒物(PM10),60,70,60,29,29,132,,163,160,39,24,9,10,0.7,0.7
2024-05-08T2100,3362A,120.5014,36.4034,青岛市,即墨2号,颗粒物(PM10),74,98,75,37,39,133,,157,155,38,31,7,7,0.6,0.6
2024-05-08T2100,3642A,120.3503,36.0736,青岛市,市北区南部,颗粒物(PM10),54,58,78,29,36,140,,170,168,26,39,8,11,0.6,0.7
2024-05-08T2100,3643A,120.3948,36.1805,青岛市,李沧区北部,颗粒物(PM10),67,83,88,41,47,133,,156,153,47,45,9,10,0.6,0.6
2024-05-08T2100,1702A,113.0426,23.691,清远市,环保大楼,,37,37,23,22,19,75,,97,94,18,9,6,6,1.0,0.9
2024-05-08T2100,1703A,113.0208,23.7106,清远市,凤城街办,,37,37,27,22,18,78,,103,98,22,17,5,5,0.6,0.5
2024-05-08T2100,3025A,113.0477,23.6344,清远市,技师学院,,45,45,31,26,16,78,,103,97,20,14,6,5,0.7,0.6
2024-05-08T2100,3318A,112.9903,23.7403,清远市,清新太和,,32,32,25,20,14,94,,109,107,11,13,7,6,0.6,0.6
2024-05-08T2100,3455A,113.076,23.7198,清远市,清城东城,,40,40,27,24,17,86,,108,105,15,11,6,6,0.5,0.6
2024-05-08T2100,2661A,107.6325,35.7357,庆阳市,庆阳五中,,36,36,56,16,25,108,,134,124,8,14,5,8,0.4,0.5
2024-05-08T2100,2662A,107.6364,35.7067,庆阳市,市环保局,,32,28,51,10,23,102,,136,122,13,12,5,8,0.4,0.4
2024-05-08T2100,1916A,103.7897,25.5035,曲靖市,环境监测站,,27,24,21,7,11,85,,95,84,13,13,3,3,0.7,0.8
2024-05-08T2100,1917A,103.8,25.5364,曲靖市,烟厂办公区,,29,8,19,6,13,91,,94,93,12,11,3,4,0.5,0.6
2024-05-08T2100,3376A,103.7947,25.462,曲靖市,南苑二区,,28,,21,10,14,88,,89,89,16,17,10,5,0.6,0.7
2024-05-08T2100,3377A,103.7444,25.5261,曲靖市,曲靖师范学院,,29,14,20,6,13,90,,96,93,15,16,6,8,0.4,0.5
2024-05-08T2100,1264A,118.8692,28.9398,衢州市,环保大楼,颗粒物(PM10),53,56,57,32,38,85,,170,144,39,19,5,4,0.7,0.7
2024-05-08T2100,1265A,118.8709,28.9666,衢州市,实验学校,颗粒物(PM10),52,53,60,28,39,102,,178,150,35,18,8,7,0.6,0.6
2024-05-08T2100,1266A,118.8621,28.9808,衢州市,衢州学院,,44,44,55,26,40,102,,176,146,26,20,9,8,0.5,0.5
2024-05-08T2100,1611A,118.5819,24.9117,泉州市,涂山街,臭氧1小时,59,47,41,33,26,167,,167,162,14,16,6,6,0.9,1
2024-05-08T2100,1612A,118.5972,24.8978,泉州市,津头埔,,49,48,40,30,25,156,,166,161,23,23,4,4,0.8,0.8
2024-05-08T2100,1613A,118.6663,24.9424,泉州市,万安,臭氧1小时,63,48,43,29,26,170,,174,170,18,20,3,3,0.6,0.7
2024-05-08T2100,3529A,118.6333,24.9264,泉州市,城华南路,颗粒物(PM10),52,54,40,32,27,159,,165,159,23,21,7,5,0.6,0.7
2024-05-08T2100,2626A,88.8876,29.2718,日喀则市,日喀则监测站,臭氧1小时,62,11,11,8,7,169,,156,156,5,8,6,5,0.5,0.5
2024-05-08T2100,3726A,88.8781,29.2426,日喀则市,林业技术推广中心,臭氧1小时,57,7,12,2,3,165,,153,153,7,9,6,6,0.5,0.7
2024-05-08T2100,1659A,119.471,35.4209,日照市,监测站,颗粒物(PM10),51,51,48,21,25,137,,168,166,26,27,9,10,0.6,0.6
2024-05-08T2100,1660A,119.523,35.4216,日照市,市政府广场,,44,44,49,18,22,137,,161,155,34,21,10,10,0.4,0.4
2024-05-08T2100,1661A,119.5587,35.4044,日照市,港务局,颗粒物(PM10),63,75,59,23,22,114,,156,143,55,24,11,9,0.6,0.5
2024-05-08T2100,3507A,119.5328,35.4625,日照市,职业技术学院,颗粒物(PM10),58,66,51,27,22,103,,159,148,50,22,10,10,0.5,0.5
2024-05-08T2100,3604A,119.3266,35.1044,日照市,岚山环保分局,,45,41,55,24,30,141,,173,170,17,24,7,25,0.5,1.2
2024-05-08T2100,1835A,111.1922,34.7752,三门峡市,市政府,细颗粒物(PM2.5),67,74,82,48,40,166,,171,171,16,18,10,12,0.8,0.8
2024-05-08T2100,1836A,111.1587,34.7942,三门峡市,开发区,颗粒物(PM10),72,93,89,42,42,167,,182,180,23,18,9,12,0.6,0.6
2024-05-08T2100,3039A,111.1911,34.7829,三门峡市,三门峡市第一小学,臭氧1小时,74,67,73,45,40,179,,184,184,17,17,10,13,0.6,0.6
2024-05-08T2100,3598A,111.1,34.7167,三门峡市,富达温泉假日酒店,颗粒物(PM10),68,85,83,45,45,160,,167,166,22,21,9,11,0.7,0.8
2024-05-08T2100,2324A,117.6211,26.2625,三明市,三钢,,47,47,41,29,27,74,,137,122,34,22,6,9,0.5,1.1
2024-05-08T2100,2325A,117.635,26.2714,三明市,三明二中,,27,22,38,18,24,84,,139,126,21,15,6,8,0.7,1.1
2024-05-08T2100,2326A,117.6028,26.2378,三明市,三元区政府,,44,44,43,21,25,69,,136,121,26,17,8,9,0.6,0.8
2024-05-08T2100,1876A,109.5078,18.2489,三亚市,河东子站,,27,27,18,14,12,37,,48,42,4,6,4,4,0.3,0.3
2024-05-08T2100,1877A,109.4964,18.2681,三亚市,河西子站,,19,15,18,13,13,35,,50,44,6,6,2,1,0.2,0.2
2024-05-08T2100,3540A,109.7348,18.3443,三亚市,君悦子站,,,13,18,9,8,,,52,44,3,7,2,2,0.3,0.4
2024-05-08T2100,2624A,91.7608,29.2313,山南市,山南监测站,,,2,9,1,7,,,150,150,3,7,7,7,0.3,0.5
2024-05-08T2100,2625A,91.7706,29.2436,山南市,山南人民医院,,46,10,11,7,8,146,,152,152,9,10,7,7,0.3,0.4
