timepoint,stationcode,longitude,latitude,area,positionname,primarypollutant,aqi,pm10,pm10_24h,pm2_5,pm2_5_24h,o3,o3_24h,o3_8h,o3_8h_24h,no2,no2_24h,so2,so2_24h,co,co_24h
2025-02-21T0000,2566A,102.1879,31.914,阿坝藏族羌族自治州,州农科所,,24,24,27,10,9,63,,91,78,6,10,8,10,0,0
2025-02-21T0000,2568A,102.2502,31.8896,阿坝藏族羌族自治州,马师校,,22,19,18,15,15,54,,95,73,13,10,5,5,0.4,0.5
2025-02-21T0000,3994A,102.2165,31.9024,阿坝藏族羌族自治州,马尔康中学西区,,21,21,15,9,12,60,,102,82,14,8,6,6,0.5,0.5
2025-02-21T0000,2695A,80.292,41.1694,阿克苏地区,电视台,颗粒物(PM10),130,209,205,75,61,16,,94,76,74,34,7,4,1.5,1
2025-02-21T0000,2696A,80.2613,41.1551,阿克苏地区,艺术中心,颗粒物(PM10),125,200,217,74,64,34,,88,72,51,30,9,7,1.0,0.9
2025-02-21T0000,2204A,105.6467,38.8363,阿拉善盟,西城区西花园,细颗粒物(PM2.5),69,69,67,50,44,86,,107,99,13,12,15,16,0.8,0.8
2025-02-21T0000,2205A,105.6985,38.8411,阿拉善盟,蒙二幼,颗粒物(PM10),51,51,58,28,36,89,,101,93,14,13,7,10,0.8,1
2025-02-21T0000,2206A,105.724,38.8516,阿拉善盟,环保局新楼,,43,43,52,22,29,101,,103,100,8,9,9,10,0.6,0.8
2025-02-21T0000,2708A,88.1264,47.8517,阿勒泰地区,市站,,23,23,16,8,7,66,,84,74,16,14,2,3,0.6,0.5
2025-02-21T0000,2630A,80.1161,32.5,阿里地区,阿里监测站,,27,12,9,6,4,84,,95,92,6,5,12,10,0.6,0.5
2025-02-21T0000,3192A,80.0903,32.5028,阿里地区,阿里藏医院,,30,10,12,3,5,95,,98,98,1,3,5,7,0.5,0.5
2025-02-21T0000,2642A,109.0318,32.6537,安康市,香溪洞,细颗粒物(PM2.5),123,,92,93,87,82,,88,84,16,17,10,11,0.8,0.8
2025-02-21T0000,2644A,109.0072,32.6975,安康市,汉滨区检察院,细颗粒物(PM2.5),117,123,126,88,86,90,,95,92,16,18,6,15,0.7,0.7
2025-02-21T0000,4054A,109.0325,32.6913,安康市,市邮政管理局,细颗粒物(PM2.5),129,125,125,98,90,78,,90,84,22,21,6,7,0.8,0.8
2025-02-21T0000,2291A,117.0809,30.5177,安庆市,环科院,细颗粒物(PM2.5),57,43,62,40,49,66,,74,62,18,20,5,7,0.5,0.5
2025-02-21T0000,2292A,117.0331,30.5119,安庆市,马山宾馆,细颗粒物(PM2.5),60,46,60,43,51,67,,78,61,21,23,7,8,0.6,0.6
2025-02-21T0000,2294A,116.9896,30.6145,安庆市,安庆大学,,49,36,66,34,49,76,,88,69,17,20,5,6,0.5,0.6
2025-02-21T0000,3173A,117.0598,30.5351,安庆市,市人大,细颗粒物(PM2.5),58,46,64,41,50,67,,77,60,20,23,5,6,0.6,0.6
2025-02-21T0000,3122A,105.9606,26.2611,安顺市,伍家关,,30,26,23,21,12,30,,39,33,15,13,30,16,0.8,0.6
2025-02-21T0000,3123A,105.9408,26.2431,安顺市,凤凰山,,35,30,20,24,18,25,,34,29,18,16,33,22,0.8,0.7
2025-02-21T0000,3124A,105.9439,26.2564,安顺市,金钟山,,29,26,17,20,15,29,,37,34,12,12,33,19,0.9,0.8
2025-02-21T0000,3125A,105.8983,26.2481,安顺市,娄家坡,,30,22,18,21,17,29,,37,33,12,14,16,15,0.8,0.7
2025-02-21T0000,1818A,114.4839,36.0621,安阳市,棉研所,细颗粒物(PM2.5),60,43,57,43,53,64,,70,55,11,19,6,9,0.4,0.5
2025-02-21T0000,1819A,114.3551,36.1017,安阳市,红庙街,细颗粒物(PM2.5),80,77,62,59,45,35,,76,62,26,15,2,5,0.2,0.6
2025-02-21T0000,1820A,114.361,36.0681,安阳市,银杏小区,细颗粒物(PM2.5),82,70,54,60,52,38,,80,60,24,15,4,6,0.5,0.5
2025-02-21T0000,3141A,114.3922,36.0878,安阳市,信访局,细颗粒物(PM2.5),84,65,61,62,52,31,,84,60,38,21,1,4,0.5,0.5
2025-02-21T0000,3669A,114.4705,36.0637,安阳市,左辅环卫站,细颗粒物(PM2.5),60,57,72,43,51,71,,81,65,8,12,2,5,0.4,0.5
2025-02-21T0000,3703A,114.2917,36.0949,安阳市,安钢职工学校,细颗粒物(PM2.5),87,,61,64,56,46,,78,66,23,16,10,6,0.5,0.5
2025-02-21T0000,1748A,123.044,41.1196,鞍山市,深沟寺,颗粒物(PM10),51,51,37,30,22,36,,71,53,32,16,9,11,0.6,0.6
2025-02-21T0000,1749A,123.011,41.0931,鞍山市,太阳城,,45,45,49,25,29,42,,72,60,24,23,6,18,0.5,1.3
2025-02-21T0000,1750A,123.0485,41.1442,鞍山市,太平,颗粒物(PM10),58,66,52,28,24,33,,75,52,40,22,9,10,0.7,0.7
2025-02-21T0000,1751A,122.9642,41.0971,鞍山市,铁西三道街,颗粒物(PM10),52,54,49,34,22,30,,74,55,43,24,15,9,0.6,0.8
2025-02-21T0000,1753A,123.022,41.0821,鞍山市,明达新区,,46,46,49,24,26,39,,75,63,35,25,7,12,0.6,1
2025-02-21T0000,1754A,123.1289,41.0228,鞍山市,千山,,,,42,,20,,,48,,,20,,6,,0.8
2025-02-21T0000,4201A,122.9446,41.0826,鞍山市,兴盛南路290号,颗粒物(PM10),70,90,59,50,29,22,,68,48,56,34,10,11,0.7,1
2025-02-21T0000,2195A,107.4212,40.761,巴彦淖尔市,附二中,颗粒物(PM10),52,54,46,29,22,56,,72,62,20,13,18,16,0.5,0.5
2025-02-21T0000,2196A,107.37,40.7372,巴彦淖尔市,市环保大楼,细颗粒物(PM2.5),55,45,42,39,19,66,,77,,20,14,17,9,0.3,0.3
2025-02-21T0000,1956A,86.1472,41.7538,巴音郭楞蒙古自治州,孔雀公园,颗粒物(PM10),118,185,220,38,44,56,,83,68,35,26,5,6,0.6,0.5
2025-02-21T0000,1957A,86.1972,41.7166,巴音郭楞蒙古自治州,棉纺厂,颗粒物(PM10),130,210,251,34,36,19,,90,61,82,33,4,4,0.6,0.5
2025-02-21T0000,1958A,86.2357,41.7173,巴音郭楞蒙古自治州,经济开发区,颗粒物(PM10),117,184,200,37,33,79,,98,90,10,7,4,4,0.4,0.4
2025-02-21T0000,2914A,106.7677,31.8794,巴中市,苏山坪,,40,32,42,28,33,59,,59,56,7,10,5,5,0.3,0.4
2025-02-21T0000,3181A,106.7768,31.8526,巴中市,市五中,,49,43,50,34,37,23,,56,39,16,22,4,4,0.7,0.7
2025-02-21T0000,3183A,106.7418,31.8654,巴中市,圣泉水务公司,细颗粒物(PM2.5),52,46,47,36,38,5,,61,33,38,25,6,6,0.7,0.7
2025-02-21T0000,3616A,106.7616,31.8344,巴中市,市中心医院,细颗粒物(PM2.5),55,42,48,39,44,16,,58,43,29,24,5,6,0.8,0.7
2025-02-21T0000,2235A,122.7911,45.6077,白城市,洮北区环保局,,38,38,29,23,18,61,,68,60,16,19,5,5,0.4,0.4
2025-02-21T0000,2236A,122.8738,45.5725,白城市,市环保局,,40,39,27,28,19,30,,70,40,40,22,7,7,0.3,0.2
2025-02-21T0000,2231A,126.4219,41.9171,白山市,喜丰,颗粒物(PM10),52,54,56,29,24,34,,73,52,39,30,27,16,0.8,0.6
2025-02-21T0000,2232A,126.4077,41.9419,白山市,环保局,颗粒物(PM10),52,54,59,26,26,55,,75,62,15,30,9,14,0.5,0.6
2025-02-21T0000,2647A,104.1724,36.5446,白银市,第三小学,颗粒物(PM10),71,92,69,49,45,76,,105,92,31,24,58,65,1.5,1
2025-02-21T0000,2648A,104.1465,36.5482,白银市,动力公司,"颗粒物(PM10),细颗粒物(PM2.5)",62,74,60,44,39,75,,112,99,22,21,19,24,1.0,0.8
2025-02-21T0000,2512A,106.6103,23.9011,百色市,市监测站,,20,17,23,14,17,10,,14,10,21,24,7,11,1.0,1
2025-02-21T0000,2513A,106.6538,23.8859,百色市,市中心血站,,26,18,26,18,22,4,,14,8,24,23,9,13,1.0,1
2025-02-21T0000,3406A,106.6085,23.8798,百色市,祈福高中,,15,,21,10,14,11,,16,12,19,24,6,8,0.9,0.9
2025-02-21T0000,2270A,117.396,32.939,蚌埠市,工人疗养院,,34,34,50,19,28,74,,90,80,13,15,4,4,0.4,0.5
2025-02-21T0000,2271A,117.3605,32.9427,蚌埠市,百货大楼,,39,39,51,20,28,62,,87,74,18,13,4,5,0.3,0.4
2025-02-21T0000,2273A,117.4185,32.8911,蚌埠市,蚌埠学院,,41,41,48,26,34,53,,90,71,33,22,6,7,0.4,0.4
2025-02-21T0000,2274A,117.3533,32.9673,蚌埠市,淮上区政府,,43,41,51,30,34,62,,80,72,18,17,6,7,0.6,0.6
2025-02-21T0000,2275A,117.3145,32.8977,蚌埠市,高新区,,30,29,46,21,31,66,,90,83,19,19,8,8,0.4,0.5
2025-02-21T0000,3715A,117.3092,32.9314,蚌埠市,蚌埠田家炳中学,,39,39,52,16,32,72,,89,80,17,18,5,5,0.4,0.4
2025-02-21T0000,1585A,109.8756,40.6532,包头市,市环境监测站,颗粒物(PM10),52,53,25,21,13,6,,73,32,72,28,14,13,0.9,0.6
2025-02-21T0000,1587A,109.9991,40.5842,包头市,包头八中,颗粒物(PM10),74,98,36,44,20,8,,71,38,69,28,16,16,1.1,0.7
2025-02-21T0000,1588A,109.8538,40.6821,包头市,青山宾馆,,39,39,20,20,12,8,,70,30,69,28,11,11,0.8,0.6
2025-02-21T0000,1589A,109.8642,40.6288,包头市,惠龙物流,颗粒物(PM10),56,61,26,28,12,6,,76,38,77,29,12,10,1.1,0.9
2025-02-21T0000,1590A,110.0377,40.5546,包头市,东河鸿龙湾,细颗粒物(PM2.5),84,113,39,62,17,11,,78,37,81,32,14,14,1.5,0.7
2025-02-21T0000,3283A,109.9154,40.5685,包头市,滨河大厦,细颗粒物(PM2.5),85,90,30,63,16,8,,76,43,88,31,15,11,1.2,0.7
2025-02-21T0000,3419A,109.9447,40.6261,包头市,包头市委党校,颗粒物(PM10),57,63,36,8,14,6,,72,35,70,31,12,12,0.7,0.4
2025-02-21T0000,3683A,109.8331,40.6576,包头市,昆区政府,颗粒物(PM10),54,57,24,30,13,8,,69,34,77,29,16,14,1.0,0.7
2025-02-21T0000,1930A,107.185,34.3063,宝鸡市,庙沟村,细颗粒物(PM2.5),130,,73,99,82,27,,35,30,27,24,5,6,0.7,0.8
2025-02-21T0000,1931A,107.0708,34.3017,宝鸡市,竹园沟,细颗粒物(PM2.5),122,,82,92,87,39,,37,36,24,26,6,6,0.7,0.8
2025-02-21T0000,1932A,107.1906,34.3672,宝鸡市,三陆医院,细颗粒物(PM2.5),120,,90,91,96,26,,41,38,28,23,4,4,0.9,0.9
2025-02-21T0000,1933A,107.1431,34.3547,宝鸡市,监测站,细颗粒物(PM2.5),118,,94,89,92,33,,40,40,23,23,6,6,0.8,0.8
2025-02-21T0000,1934A,107.1186,34.3739,宝鸡市,技工学校,细颗粒物(PM2.5),109,,77,82,92,32,,39,38,21,21,3,3,0.9,0.9
2025-02-21T0000,1935A,107.3906,34.3528,宝鸡市,陈仓区环保局家属楼,细颗粒物(PM2.5),123,,90,93,99,19,,44,25,33,26,6,6,0.8,0.7
2025-02-21T0000,1936A,107.2058,34.3497,宝鸡市,文理学院,细颗粒物(PM2.5),107,,87,80,87,30,,43,40,27,25,4,4,0.7,0.7
2025-02-21T0000,1937A,107.2386,34.3622,宝鸡市,三迪小学,细颗粒物(PM2.5),105,,87,79,92,23,,38,34,31,26,5,5,0.8,0.7
2025-02-21T0000,1051A,115.493,38.8632,保定市,游泳馆,,,84,51,58,33,23,,59,47,58,36,12,7,,0.4
2025-02-21T0000,1052A,115.5213,38.8959,保定市,华电二区,细颗粒物(PM2.5),69,71,51,50,35,21,,82,45,62,39,11,11,0.5,0.5
2025-02-21T0000,1053A,115.4713,38.9108,保定市,接待中心,细颗粒物(PM2.5),72,69,54,52,32,21,,81,54,68,37,8,8,0.6,0.6
2025-02-21T0000,1054A,115.4612,38.8416,保定市,地表水厂,细颗粒物(PM2.5),72,80,65,52,36,28,,81,58,66,39,5,5,0.6,0.5
2025-02-21T0000,3581A,115.31981,38.95208,保定市,满城区生态环境分局,细颗粒物(PM2.5),89,105,62,66,29,11,,84,43,76,41,11,10,0.9,0.6
2025-02-21T0000,3582A,115.47694,38.76408,保定市,清苑区第二中学,细颗粒物(PM2.5),95,123,76,71,39,6,,77,44,86,44,8,7,0.6,0.6
2025-02-21T0000,3583A,115.62909,39.02311,保定市,徐水物探局,颗粒物(PM10),60,69,44,39,24,40,,106,70,64,37,6,6,0.5,0.5
2025-02-21T0000,4004A,115.4202,38.8656,保定市,双鹰农机,颗粒物(PM10),72,93,57,38,32,9,,82,58,68,30,5,6,0.7,0.6
2025-02-21T0000,4034A,115.5150,38.8590,保定市,植保所站,颗粒物(PM10),74,98,61,50,36,19,,78,51,66,40,9,7,0.7,0.7
2025-02-21T0000,2594A,99.1678,25.1081,保山市,市环境监测站,,46,41,45,32,33,82,,103,95,6,10,5,6,0.3,0.4
2025-02-21T0000,2595A,99.1711,25.1328,保山市,市环保局,,50,50,48,34,31,94,,105,101,3,7,7,7,0.4,0.6
2025-02-21T0000,1866A,109.2262,21.588,北海市,牛尾岭水库,,,43,34,27,23,65,,94,76,,10,6,6,0.7,0.5
2025-02-21T0000,1867A,109.1436,21.4086,北海市,海滩公园,颗粒物(PM10),59,67,38,37,19,79,,114,95,14,9,7,7,0.9,0.7
2025-02-21T0000,1868A,109.0981,21.4661,北海市,新市环保局,颗粒物(PM10),56,62,38,36,21,83,,107,90,14,12,7,6,0.7,0.6
2025-02-21T0000,1869A,109.1778,21.5233,北海市,北海工业园,细颗粒物(PM2.5),62,62,54,44,30,79,,113,89,13,13,9,9,0.8,0.7
2025-02-21T0000,3400A,109.1911,21.4415,北海市,龙潭自来水厂,细颗粒物(PM2.5),62,65,40,44,25,76,,104,87,15,12,7,8,0.6,0.5
2025-02-21T0000,1001A,116.3621,39.8784,北京市,万寿西宫,,20,14,18,6,8,62,,76,72,20,15,2,3,0.3,0.4
2025-02-21T0000,1002A,116.2202,40.2915,北京市,定陵,,,,,,,,,,,,,,,,
2025-02-21T0000,1003A,116.4174,39.9289,北京市,东四,,21,12,17,3,8,65,,80,73,13,13,2,3,0.2,0.3
2025-02-21T0000,1004A,116.4072,39.8863,北京市,天坛,,21,11,22,3,11,65,,75,70,16,16,3,4,0.3,0.4
2025-02-21T0000,1005A,116.462,39.9365,北京市,农展馆,,23,10,15,3,7,73,,84,78,15,19,4,5,0.4,0.5
2025-02-21T0000,1006A,116.3392,39.9295,北京市,官园,,19,15,15,6,7,58,,69,63,14,12,6,6,0.3,0.3
2025-02-21T0000,1007A,116.2878,39.9611,北京市,海淀万柳,,16,16,16,7,7,48,,64,57,25,17,3,3,0.5,0.5
2025-02-21T0000,1008A,116.6636,40.135,北京市,顺义新城,,25,9,15,3,7,78,,77,76,5,9,4,4,0.2,0.2
2025-02-21T0000,1009A,116.6275,40.3275,北京市,怀柔镇,,22,8,12,3,7,69,,70,69,6,8,2,2,0.5,0.5
2025-02-21T0000,1010A,116.2296,40.217,北京市,昌平镇,,19,13,18,10,11,59,,65,64,4,20,3,2,0.3,0.3
2025-02-21T0000,1011A,116.3966,39.9821,北京市,奥体中心,,19,12,14,6,8,60,,74,68,19,15,3,4,0.3,0.3
2025-02-21T0000,3281A,115.9718,40.4529,北京市,延庆夏都,,21,12,19,6,11,65,,74,71,3,14,5,5,0.3,0.4
2025-02-21T0000,3418A,116.8336,40.4095,北京市,密云新城,,23,8,9,3,4,73,,72,72,1,3,4,4,0.2,0.3
2025-02-21T0000,3671A,116.088,39.9726,北京市,门头沟三家店,,22,22,19,11,8,36,,76,59,32,22,3,3,0.2,0.2
2025-02-21T0000,3672A,116.1541,39.8204,北京市,丰台云岗,,20,20,20,9,9,50,,77,69,27,16,3,3,0.3,0.3
2025-02-21T0000,3673A,116.6804,39.9081,北京市,通州东关,,20,9,34,3,17,63,,66,57,11,26,4,8,0.2,0.6
2025-02-21T0000,3674A,115.9577,39.7603,北京市,房山燕山,,25,25,28,10,12,50,,69,61,14,16,4,3,0.3,0.3
2025-02-21T0000,3675A,116.4672,39.7733,北京市,大兴旧宫,,17,11,25,3,13,54,,67,62,18,21,2,3,0.1,0.4
2025-02-21T0000,3694A,115.986,40.4563,北京市,延庆石河营,,21,11,18,7,10,65,,75,72,3,13,4,4,0.4,0.4
2025-02-21T0000,3695A,116.6151,40.3053,北京市,怀柔新城,,23,10,12,6,9,71,,73,73,4,4,4,4,0.2,0.2
2025-02-21T0000,3696A,116.2545,39.8768,北京市,丰台小屯,,19,13,15,6,6,59,,72,67,12,11,1,2,0.2,0.2
2025-02-21T0000,3697A,116.84,40.3844,北京市,密云镇,,25,9,12,3,5,77,,77,76,5,9,2,2,0.3,0.3
2025-02-21T0000,4182A,116.1942,39.9158,北京市,八角北路9号,,19,19,19,8,7,59,,72,67,11,10,2,2,0.2,0.2
2025-02-21T0000,4194A,117.0790,40.1518,北京市,洳河巡河路,,23,6,14,3,11,71,,69,69,5,14,3,2,0.3,0.4
2025-02-21T0000,1761A,123.8275,41.3064,本溪市,大峪,,37,37,45,21,25,41,,70,52,27,31,6,8,0.7,1.1
2025-02-21T0000,1762A,123.7567,41.3325,本溪市,溪湖,颗粒物(PM10),56,62,56,31,30,13,,69,34,57,39,5,7,0.7,0.8
2025-02-21T0000,1763A,123.7169,41.3094,本溪市,彩屯,,42,40,51,29,34,41,,68,38,36,34,6,7,0.8,0.9
2025-02-21T0000,1764A,123.7669,41.2864,本溪市,东明,,42,34,55,29,30,21,,60,34,40,37,10,15,0.8,1.3
2025-02-21T0000,1765A,123.7992,41.2664,本溪市,新立屯,细颗粒物(PM2.5),58,,46,41,38,38,,78,42,41,39,5,11,0.6,1.3
2025-02-21T0000,1766A,123.8142,41.3472,本溪市,威宁,颗粒物(PM10),55,60,64,31,28,10,,68,25,50,32,2,4,0.7,0.8
2025-02-21T0000,2587A,105.2864,27.3125,毕节市,八中,,20,17,14,14,11,48,,49,48,7,11,7,8,0.7,0.8
2025-02-21T0000,2588A,105.31,27.2944,毕节市,师专,,20,17,12,14,10,52,,56,55,9,12,5,4,0.7,0.7
2025-02-21T0000,4263A,105.3688,27.3598,毕节市,工业大道,,23,20,11,16,9,53,,58,55,10,13,8,7,0.7,0.7
2025-02-21T0000,1629A,118.0018,37.3617,滨州市,第二水厂,,41,41,60,24,37,46,,89,72,34,36,9,14,0.6,0.7
2025-02-21T0000,1630A,117.9776,37.393,滨州市,北中新校,,44,44,64,22,38,62,,92,76,29,38,10,14,0.6,0.7
2025-02-21T0000,3514A,117.9378,37.3956,滨州市,中海酒店,,45,44,55,31,41,70,,96,80,17,27,8,12,0.5,0.6
2025-02-21T0000,3515A,117.9378,37.3553,滨州市,开发区一中,,39,39,68,24,39,55,,95,80,31,40,8,13,0.4,0.6
2025-02-21T0000,3516A,118.0917,37.694,滨州市,金海六路,细颗粒物(PM2.5),52,51,52,36,32,55,,90,72,25,29,24,15,0.8,0.9
2025-02-21T0000,4028A,117.9956,37.3753,滨州市,滨州市西街道办事处,,49,36,58,34,44,60,,90,75,24,35,11,12,0.8,0.9
2025-02-21T0000,2311A,115.8072,33.8399,亳州市,污水处理厂,,48,43,49,33,30,80,,86,82,10,12,6,6,0.5,0.4
2025-02-21T0000,2312A,115.7789,33.8518,亳州市,三国揽胜宫,颗粒物(PM10),51,51,58,22,26,85,,89,86,14,16,5,5,0.4,0.3
2025-02-21T0000,3332A,115.7633,33.8034,亳州市,亳州学院,,46,46,53,27,25,79,,86,79,13,14,4,4,0.3,0.2
2025-02-21T0000,2693A,82.0485,44.8556,博尔塔拉蒙古自治州,市党校,细颗粒物(PM2.5),82,64,72,60,60,83,,96,95,19,20,7,8,1.8,1.8
2025-02-21T0000,2694A,82.0806,44.8969,博尔塔拉蒙古自治州,市环保局,颗粒物(PM10),78,105,93,51,51,58,,73,67,46,36,6,7,1.7,1.6
2025-02-21T0000,1071A,116.8842,38.2991,沧州市,沧县城建局,细颗粒物(PM2.5),57,59,69,40,47,42,,74,55,48,43,6,10,0.7,0.6
2025-02-21T0000,1072A,116.8584,38.3254,沧州市,电视转播站,颗粒物(PM10),51,52,63,34,43,26,,72,57,55,37,9,11,0.6,0.5
2025-02-21T0000,1073A,116.8709,38.3228,沧州市,市环保局,细颗粒物(PM2.5),58,57,62,41,45,22,,70,52,57,37,8,12,0.6,0.5
2025-02-21T0000,3324A,116.8136,38.3004,沧州市,河北水利电力学院,细颗粒物(PM2.5),59,51,66,42,46,36,,71,55,42,34,8,11,0.6,0.5
2025-02-21T0000,2622A,97.1806,31.1273,昌都市,昌都监测站,,44,44,20,27,11,30,,69,52,25,10,6,6,1.1,0.7
2025-02-21T0000,3719A,97.1714,31.1406,昌都市,昌都会议中心,,22,11,10,9,6,68,,99,87,5,2,9,8,0.4,0.3
2025-02-21T0000,2690A,88.1236,43.8886,昌吉回族自治州,天山天池,,37,37,23,20,11,99,,113,107,4,4,5,5,0.5,0.5
2025-02-21T0000,2692A,87.2717,44.0297,昌吉回族自治州,新区政务中心,细颗粒物(PM2.5),89,106,116,66,80,51,,70,66,33,36,2,2,1.1,1.1
2025-02-21T0000,3613A,87.3095,44.0142,昌吉回族自治州,亚心广场,细颗粒物(PM2.5),92,88,126,68,107,58,,78,75,19,18,4,5,0.6,0.9
2025-02-21T0000,1119A,125.3325,43.9166,长春市,食品厂,,48,48,43,27,26,13,,71,50,65,36,10,8,0.5,0.5
2025-02-21T0000,1120A,125.2863,43.9027,长春市,客车厂,,49,41,43,34,35,17,,64,36,64,40,6,7,0.6,0.5
2025-02-21T0000,1121A,125.2841,43.8463,长春市,邮电学院,,42,42,32,29,27,53,,73,56,24,29,6,8,0.5,0.6
2025-02-21T0000,1122A,125.3716,43.8772,长春市,劳动公园,,32,30,36,22,24,56,,75,64,23,27,9,8,0.4,0.5
2025-02-21T0000,1123A,125.3297,43.8805,长春市,园林处,,29,26,35,20,26,64,,72,64,13,23,10,10,0.3,0.4
2025-02-21T0000,1124A,125.4605,43.79,长春市,净月潭,,29,29,34,20,22,44,,73,57,18,19,6,7,0.5,0.5
2025-02-21T0000,1125A,125.7194,43.515,长春市,甩湾子,,,,,,,,,,,,,,,,
2025-02-21T0000,1126A,125.3863,43.8447,长春市,经开区环卫处,,43,42,41,30,23,20,,66,54,59,31,6,6,0.5,0.6
2025-02-21T0000,1127A,125.245,43.7783,长春市,高新区管委会,细颗粒物(PM2.5),63,,39,45,31,8,,72,47,74,34,10,9,1.1,0.9
2025-02-21T0000,1128A,125.1761,43.8325,长春市,岱山公园,细颗粒物(PM2.5),70,52,38,51,32,15,,76,38,60,38,8,8,0.9,0.7
2025-02-21T0000,1335A,113.0833,28.2325,长沙市,经开区环保局,细颗粒物(PM2.5),125,121,46,95,43,31,,48,44,33,29,7,5,0.7,0.6
2025-02-21T0000,1336A,112.8872,28.2189,长沙市,高开区环保局,细颗粒物(PM2.5),119,118,57,90,53,39,,63,50,21,15,4,3,0.8,0.7
2025-02-21T0000,1337A,113.0792,28.2053,长沙市,马坡岭,细颗粒物(PM2.5),105,129,53,79,38,37,,51,47,28,28,3,2,0.7,0.6
2025-02-21T0000,1338A,112.9394,28.19,长沙市,湖南师范大学,细颗粒物(PM2.5),114,148,61,86,44,42,,60,51,16,16,4,3,0.7,0.6
2025-02-21T0000,1339A,113.0178,28.1322,长沙市,雨花区环保局,细颗粒物(PM2.5),125,132,53,95,44,40,,55,51,24,24,4,4,0.6,0.5
2025-02-21T0000,1340A,112.9792,28.2597,长沙市,伍家岭,细颗粒物(PM2.5),118,124,67,89,52,37,,53,43,20,24,4,3,0.8,0.7
2025-02-21T0000,1341A,113.0014,28.1944,长沙市,火车新站,细颗粒物(PM2.5),132,141,56,100,47,40,,59,54,24,21,,2,0.9,0.8
2025-02-21T0000,1342A,112.9844,28.1178,长沙市,天心区环保局,细颗粒物(PM2.5),112,118,48,84,38,39,,56,50,28,27,3,2,0.8,0.7
2025-02-21T0000,1343A,112.8908,28.1308,长沙市,湖南中医药大学,细颗粒物(PM2.5),130,136,66,99,52,42,,59,49,20,21,3,3,0.9,0.8
2025-02-21T0000,1344A,112.9581,28.3611,长沙市,沙坪,细颗粒物(PM2.5),119,99,49,90,42,35,,62,47,23,15,8,7,0.9,0.7
2025-02-21T0000,1727A,113.1147,36.1547,长治市,清华站,细颗粒物(PM2.5),132,,72,100,72,41,,64,50,20,20,8,8,0.9,0.8
2025-02-21T0000,1730A,113.0886,36.2125,长治市,审计局,细颗粒物(PM2.5),147,,77,112,85,44,,68,54,19,19,6,5,0.9,0.9
2025-02-21T0000,1731A,113.0844,36.1856,长治市,长治八中,细颗粒物(PM2.5),147,,89,112,84,43,,62,48,20,22,8,8,0.9,0.9
2025-02-21T0000,2845A,113.1569,36.1911,长治市,德盛苑,细颗粒物(PM2.5),128,,87,97,78,45,,67,52,23,23,9,4,1.4,1.1
2025-02-21T0000,3568A,113.06,36.0464,长治市,向阳小学,细颗粒物(PM2.5),129,104,88,98,72,48,,66,50,23,24,6,8,0.9,0.8
2025-02-21T0000,3569A,112.8792,36.3144,长治市,屯留一中,细颗粒物(PM2.5),114,91,81,86,80,36,,76,56,35,28,9,8,0.7,0.8
2025-02-21T0000,4189A,113.1131,36.19948,长治市,英华南巷50号,细颗粒物(PM2.5),138,,79,105,81,49,,76,60,22,25,9,8,1.1,1
2025-02-21T0000,4190A,113.2367,36.3344,长治市,学府街1号,颗粒物(PM10),70,89,81,38,41,40,,78,65,35,22,10,4,1.3,1
2025-02-21T0000,1854A,111.6975,28.9703,常德市,市二中,细颗粒物(PM2.5),140,155,131,107,82,31,,54,41,29,21,8,4,0.8,0.7
2025-02-21T0000,1857A,111.7158,29.1456,常德市,白鹤山,,,,,,,,,,,,,,,,
2025-02-21T0000,3138A,111.7153,29.0289,常德市,武陵区永安,细颗粒物(PM2.5),132,131,117,100,91,45,,56,49,30,24,2,2,0.8,0.7
2025-02-21T0000,3139A,111.6892,28.9881,常德市,鼎城区玉霞,,,,115,,80,29,,54,42,35,21,7,4,1.0,0.9
2025-02-21T0000,3140A,111.6625,29.0531,常德市,武陵区长庚,细颗粒物(PM2.5),139,140,124,106,90,21,,50,38,40,25,6,4,0.8,0.7
2025-02-21T0000,1196A,119.9633,31.762,常州市,市监测站,,34,34,42,19,26,66,,82,71,20,21,7,8,0.2,0.4
2025-02-21T0000,1200A,119.9468,31.7069,常州市,武进监测站,,36,36,44,19,24,66,,81,70,17,19,9,9,0.2,0.5
2025-02-21T0000,1201A,119.9255,31.9087,常州市,安家,,35,35,44,21,23,62,,69,64,24,29,7,9,0.4,0.5
2025-02-21T0000,3002A,119.9805,31.8174,常州市,行政中心,,30,30,37,17,23,66,,77,69,17,21,10,12,0.4,0.6
2025-02-21T0000,3003A,120.0522,31.7748,常州市,经开区,,38,38,47,17,19,73,,88,77,20,22,6,7,0.3,0.4
2025-02-21T0000,3010A,119.9025,31.7964,常州市,钟楼,,33,33,47,16,23,70,,82,72,18,21,7,8,0.4,0.6
2025-02-21T0000,3429A,119.8598,31.7066,常州市,武进经发区,,26,26,45,12,25,71,,85,73,20,26,6,7,0.3,0.6
2025-02-21T0000,3430A,119.5826,31.7245,常州市,金坛城区,,29,29,49,16,30,74,,84,73,17,23,6,8,0.3,0.5
2025-02-21T0000,2220A,120.4318,41.5881,朝阳市,西梁,,34,34,40,14,18,58,,78,59,16,21,8,6,0.5,0.6
2025-02-21T0000,2221A,120.4521,41.5646,朝阳市,河畔小区,,26,26,38,12,14,56,,69,57,11,16,7,6,0.6,0.7
2025-02-21T0000,2222A,120.4176,41.5648,朝阳市,八里堡,,34,34,46,12,17,62,,75,61,12,19,7,7,0.1,0.4
2025-02-21T0000,2223A,120.3806,41.5969,朝阳市,农业园区,,37,37,30,14,15,55,,78,58,19,14,8,6,0.6,0.5
2025-02-21T0000,1705A,116.6367,23.6719,潮州市,西园路,细颗粒物(PM2.5),57,,42,40,35,72,,107,92,18,17,8,6,0.4,0.4
2025-02-21T0000,3026A,116.6183,23.6608,潮州市,市政府,,39,35,44,27,30,73,,104,90,19,21,9,5,0.7,0.7
2025-02-21T0000,4036A,116.6461,23.6761,潮州市,金山,,48,,37,33,31,69,,105,89,15,14,8,7,0.6,0.6
2025-02-21T0000,2472A,113.0073,25.9061,郴州市,马头岭,,13,13,9,9,7,36,,39,30,24,19,8,8,0.7,0.7
2025-02-21T0000,2473A,113.0116,25.8226,郴州市,市职中,,12,,11,8,8,26,,29,17,16,17,4,4,0.7,0.8
2025-02-21T0000,2475A,113.0383,25.8071,郴州市,市审计局,,10,9,11,3,7,22,,34,20,20,16,3,5,0.7,0.8
2025-02-21T0000,2476A,113.0348,25.7759,郴州市,市环保局,,13,9,17,9,9,17,,25,14,18,16,3,5,0.8,0.9
2025-02-21T0000,4252A,113.0138,25.8011,郴州市,好美居路49号,,12,9,12,8,10,26,,34,20,21,20,5,6,0.7,0.8
2025-02-21T0000,1431A,103.9728,30.7236,成都市,金泉两河,细颗粒物(PM2.5),57,52,45,40,26,22,,46,35,28,24,2,2,0.5,0.5
2025-02-21T0000,1432A,104.176,30.6872,成都市,十里店,颗粒物(PM10),54,58,45,21,36,21,,51,41,32,22,2,2,0.6,0.6
2025-02-21T0000,1433A,104.079,30.5706,成都市,三瓦窑,颗粒物(PM10),52,54,49,34,34,35,,47,42,28,28,4,4,0.7,0.8
2025-02-21T0000,1434A,104.1114,30.63,成都市,沙河铺,细颗粒物(PM2.5),60,52,49,43,43,27,,47,41,29,24,5,4,0.6,0.6
2025-02-21T0000,1437A,104.0786,30.6531,成都市,君平街,细颗粒物(PM2.5),68,61,49,49,40,12,,46,39,43,26,5,5,0.5,0.5
2025-02-21T0000,1438A,103.613,31.0283,成都市,灵岩寺,,,,,,,,,,,,,,,,
2025-02-21T0000,2880A,104.0239,30.65639,成都市,大石西路,颗粒物(PM10),53,55,48,36,38,20,,44,38,39,29,4,4,0.6,0.6
2025-02-21T0000,3136A,104.2725,30.5589,成都市,龙泉驿区区政府,,42,29,42,29,35,38,,57,50,14,22,3,4,0.7,0.7
2025-02-21T0000,3357A,104.0106,30.6931,成都市,金博路,颗粒物(PM10),55,60,39,32,28,16,,40,33,35,29,2,2,0.5,0.5
2025-02-21T0000,3359A,104.0578,30.5225,成都市,华阳,细颗粒物(PM2.5),52,46,46,36,40,24,,41,35,37,31,6,6,0.6,0.7
2025-02-21T0000,3488A,104.3853,30.7453,成都市,青白江技师分院,,41,41,45,26,37,7,,51,27,31,25,5,4,0.4,0.4
2025-02-21T0000,3489A,104.0789,30.4072,成都市,科学城,,48,39,49,33,39,27,,54,50,33,24,4,4,0.7,0.7
2025-02-21T0000,4011A,103.8506,30.6947,成都市,光华大道三段,,50,43,39,35,24,25,,47,36,26,23,4,4,0.4,0.5
2025-02-21T0000,4224A,104.2433,30.5353,成都市,鲸龙路1057号,,,42,50,34,38,35,,57,50,21,25,,1,0.7,0.7
2025-02-21T0000,1062A,117.9531,40.9081,承德市,铁路,,24,24,22,15,9,58,,77,72,14,12,5,5,0.3,0.3
2025-02-21T0000,1063A,117.9392,40.9763,承德市,中国银行,,35,35,24,21,8,34,,75,65,29,10,2,2,0.5,0.3
2025-02-21T0000,1064A,117.9503,40.928,承德市,开发区,,26,26,31,13,17,66,,84,80,6,14,2,3,0.2,0.3
2025-02-21T0000,1065A,117.8051,40.9655,承德市,文化中心,,21,21,37,10,10,66,,77,70,8,21,2,3,0.3,0.3
2025-02-21T0000,1066A,117.9268,41.0026,承德市,离宫,,29,,21,20,15,68,,79,74,4,7,4,3,0.2,0.3
2025-02-21T0000,2314A,117.47,30.6618,池州市,池州学院,,39,,49,27,41,66,,69,63,13,19,4,5,0.5,0.5
2025-02-21T0000,3237A,117.4918,30.6617,池州市,展览馆,细颗粒物(PM2.5),52,,53,36,41,67,,80,66,10,14,4,5,0.5,0.5
2025-02-21T0000,3333A,117.5627,30.695,池州市,第八中学,,42,30,49,29,38,64,,79,64,14,14,3,3,0.5,0.4
2025-02-21T0000,3334A,117.5038,30.6243,池州市,第十二中学,,43,32,48,30,37,63,,81,64,14,13,5,5,0.5,0.5
2025-02-21T0000,1744A,118.9233,42.2816,赤峰市,松山一中,,17,15,22,8,7,54,,65,57,14,18,18,12,0.5,0.6
2025-02-21T0000,1745A,118.9576,42.2728,赤峰市,哈达街,,16,11,18,3,6,51,,66,53,12,21,10,7,0.4,0.6
2025-02-21T0000,1746A,118.8788,42.2554,赤峰市,天义路,,18,18,19,3,7,52,,61,53,10,15,7,10,0.5,0.5
2025-02-21T0000,3058A,119.2658,42.0353,赤峰市,银河街,,22,22,33,8,13,53,,59,52,13,18,13,18,0.6,0.7
2025-02-21T0000,3286A,118.9359,42.3147,赤峰市,桥北物流园区,,16,14,17,8,9,50,,64,54,18,20,5,5,0.5,0.5
2025-02-21T0000,2521A,107.3476,22.4136,崇左市,市环保局江州分局,,22,16,64,15,40,14,,14,12,13,18,5,5,0.9,1
2025-02-21T0000,4256A,107.3750,22.3736,崇左市,石景林东路7号,,39,34,67,27,45,9,,17,11,24,26,4,4,0.8,0.8
2025-02-21T0000,2298A,118.3093,32.3153,滁州市,老年大学,,42,42,55,23,35,68,,88,78,13,17,3,3,0.3,0.4
2025-02-21T0000,2299A,118.3244,32.2786,滁州市,人大宾馆,,32,32,51,20,36,64,,91,77,22,24,8,8,0.5,0.6
2025-02-21T0000,3207A,118.3118,32.3038,滁州市,市政府原办公楼,,33,28,43,23,33,62,,86,74,19,20,6,5,0.3,0.5
2025-02-21T0000,3331A,118.3267,32.2634,滁州市,图书馆,,38,38,52,20,33,57,,88,75,16,9,6,6,0.6,0.6
2025-02-21T0000,2605A,101.5482,25.0441,楚雄彝族自治州,州环境监测站,,45,36,37,31,30,98,,109,104,10,12,6,6,0.5,0.5
2025-02-21T0000,2606A,101.538,25.0492,楚雄彝族自治州,市经济开发区,细颗粒物(PM2.5),55,46,42,39,31,88,,106,101,14,13,6,7,0.6,0.5
2025-02-21T0000,2548A,107.5277,31.2827,达州市,达州职业技术学院,,28,27,39,19,25,14,,65,32,22,22,4,5,0.5,0.4
2025-02-21T0000,2549A,107.5086,31.2186,达州市,市环境监测站,,36,36,37,17,21,2,,58,30,47,34,4,4,0.6,0.5
2025-02-21T0000,2550A,107.4988,31.2132,达州市,凤凰小区,,32,27,30,22,21,8,,65,37,47,30,6,6,0.7,0.6
2025-02-21T0000,2551A,107.5082,31.1986,达州市,达县机关宾馆,,31,31,31,16,22,3,,61,31,48,35,4,4,0.6,0.5
2025-02-21T0000,2552A,107.4644,31.2124,达州市,市政中心,,38,38,40,19,19,3,,59,35,54,33,2,2,0.7,0.6
2025-02-21T0000,2614A,100.1542,25.7054,大理白族自治州,大理市环境监测站,,33,33,27,20,22,88,,88,88,6,7,6,6,0.3,0.4
2025-02-21T0000,2615A,100.2171,25.5811,大理白族自治州,大理古城,,49,37,29,34,24,86,,96,92,9,9,6,7,0.6,0.5
2025-02-21T0000,1109A,121.612,38.9741,大连市,甘井子,,33,33,34,23,18,75,,81,72,16,19,7,7,0.6,0.5
2025-02-21T0000,1110A,121.565,38.9511,大连市,周水子,,38,38,47,20,16,45,,77,57,39,26,7,8,0.6,0.4
2025-02-21T0000,1111A,121.5637,38.8845,大连市,星海三站,,32,32,32,22,18,48,,80,64,23,17,12,12,0.7,0.6
2025-02-21T0000,1112A,121.6302,38.9117,大连市,青泥洼桥,,36,36,33,20,16,77,,78,71,7,14,13,13,0.5,0.5
2025-02-21T0000,1113A,121.6251,38.8638,大连市,傅家庄,,30,28,29,21,17,68,,76,68,14,17,6,7,0.5,0.6
2025-02-21T0000,1114A,121.5213,38.8661,大连市,七贤岭,,41,41,29,23,16,52,,85,69,16,12,8,9,0.7,0.7
2025-02-21T0000,1115A,121.2529,38.8061,大连市,旅顺,,23,20,24,14,16,72,,79,74,10,11,12,12,0.6,0.6
2025-02-21T0000,1116A,121.7485,39.1311,大连市,金州,颗粒物(PM10),52,53,42,34,21,77,,80,75,15,15,8,8,1.0,0.9
2025-02-21T0000,1117A,121.7811,39.0496,大连市,开发区,,39,31,31,27,20,69,,72,68,13,14,13,13,0.8,0.7
2025-02-21T0000,1118A,121.9762,39.0631,大连市,双D港,,46,40,35,32,20,68,,87,78,16,14,10,11,0.8,0.7
2025-02-21T0000,1789A,124.81117,46.03138,大庆市,大同区,细颗粒物(PM2.5),52,36,40,36,36,60,,68,61,12,12,3,4,0.6,0.6
2025-02-21T0000,1790A,125.129,46.533,大庆市,龙凤区,,27,27,31,18,23,56,,74,60,26,26,8,8,0.5,0.5
2025-02-21T0000,1791A,124.902,46.408,大庆市,红岗区,,27,27,33,17,22,69,,72,66,8,15,3,3,0.5,0.6
2025-02-21T0000,1792A,125.153,46.586,大庆市,萨尔图区,,26,22,33,18,19,60,,66,57,24,28,4,6,0.4,0.4
2025-02-21T0000,1793A,124.9042,46.6215,大庆市,让胡路区,,39,,31,27,27,66,,71,65,9,12,7,7,0.3,0.3
2025-02-21T0000,3481A,125.141,46.634,大庆市,萨区政府监测点,,25,25,32,14,19,39,,68,55,39,25,4,5,0.6,0.6
2025-02-21T0000,1721A,113.3819,40.1097,大同市,果树场,,42,32,23,29,13,18,,82,50,30,8,11,8,0.7,0.4
2025-02-21T0000,1723A,113.2994,40.0758,大同市,云冈宾馆,,44,44,25,20,9,33,,84,52,31,16,11,10,0.8,0.7
2025-02-21T0000,1724A,113.3444,40.0917,大同市,大同大学,颗粒物(PM10),52,53,18,20,8,26,,81,49,42,18,66,17,1.0,0.5
2025-02-21T0000,1725A,113.2661,40.1269,大同市,安家小村,颗粒物(PM10),54,57,23,20,6,14,,83,51,44,11,10,9,1.9,0.4
2025-02-21T0000,1726A,113.2711,40.0844,大同市,教育学院,颗粒物(PM10),56,61,24,28,10,19,,82,47,50,18,10,8,1.4,0.5
2025-02-21T0000,3282A,113.3397,40.0597,大同市,大同市卫生学校,颗粒物(PM10),51,51,20,17,8,27,,82,60,42,13,40,9,0.8,0.2
2025-02-21T0000,3565A,113.1367,40.1122,大同市,云冈站,颗粒物(PM10),59,68,37,21,14,6,,80,43,47,25,35,22,0.8,0.6
2025-02-21T0000,3566A,113.1186,40.2556,大同市,图书馆,,31,31,25,14,15,32,,72,47,12,14,12,15,0.5,0.6
2025-02-21T0000,3567A,113.5931,40.0461,大同市,区一中,颗粒物(PM10),58,65,39,33,15,64,,86,74,16,12,21,17,0.6,0.4
2025-02-21T0000,4199A,113.2798,40.0997,大同市,魏都大道141号,颗粒物(PM10),57,64,26,24,10,19,,84,48,47,17,13,13,0.8,0.5
2025-02-21T0000,2269A,124.1069,50.4097,大兴安岭地区,科技局,,25,21,17,17,16,61,,74,68,4,5,3,6,0.3,0.2
2025-02-21T0000,3663A,124.1164,50.4278,大兴安岭地区,红旗社区,,36,,14,25,11,52,,64,56,12,13,15,8,0.6,0.4
2025-02-21T0000,1600A,124.3303,40.0625,丹东市,江湾东路,,34,34,79,22,26,60,,77,71,18,16,10,11,0.6,0.7
2025-02-21T0000,1601A,124.4256,40.1503,丹东市,临江后街,,33,33,31,21,18,60,,77,69,14,16,12,12,0.6,0.6
2025-02-21T0000,1602A,124.3933,40.1461,丹东市,元宝山,,26,26,26,16,15,60,,72,67,11,11,7,10,0.8,0.8
2025-02-21T0000,1603A,124.3633,40.1092,丹东市,民主桥,,32,32,33,16,16,62,,70,66,12,16,5,6,0.8,0.9
2025-02-21T0000,3541A,109.5726,19.5167,儋州市,第一中学子站,,35,35,28,16,14,80,,89,84,3,4,3,3,0.5,0.5
2025-02-21T0000,3542A,109.5567,19.5187,儋州市,东坡学校子站,,35,35,30,15,14,84,,95,88,2,4,2,2,0.5,0.5
2025-02-21T0000,2616A,98.5842,24.428,德宏傣族景颇族自治州,德宏州监测站,细颗粒物(PM2.5),74,82,83,54,57,81,,117,90,15,30,9,11,0.9,0.9
2025-02-21T0000,3677A,98.5881,24.4368,德宏傣族景颇族自治州,芒市人民政府综合楼,细颗粒物(PM2.5),67,80,96,48,50,74,,120,99,14,17,5,8,0.7,0.7
2025-02-21T0000,1901A,104.4239,31.1208,德阳市,东山公园,,50,39,40,35,38,32,,54,46,19,15,2,2,0.5,0.5
2025-02-21T0000,1902A,104.3826,31.1317,德阳市,西小区,,50,41,45,35,41,28,,53,45,27,23,3,3,0.4,0.5
2025-02-21T0000,1904A,104.3553,31.1091,德阳市,耐火材料厂,细颗粒物(PM2.5),52,45,46,36,39,29,,49,42,18,23,3,3,0.4,0.5
2025-02-21T0000,3639A,104.4019,31.1244,德阳市,市教育局,,46,39,42,32,38,25,,54,42,32,24,3,3,0.5,0.5
2025-02-21T0000,1622A,116.3032,37.4674,德州市,儿童乐园,细颗粒物(PM2.5),70,73,85,51,53,70,,94,76,26,32,14,17,1.0,1
2025-02-21T0000,1624A,116.2991,37.4451,德州市,监理站,细颗粒物(PM2.5),62,61,77,44,52,74,,96,81,31,37,16,18,0.8,0.7
2025-02-21T0000,3066A,116.2721,37.4379,德州市,九衢泉纯净水厂,颗粒物(PM10),57,63,77,34,48,73,,93,79,26,37,16,18,0.7,0.6
2025-02-21T0000,3371A,116.3728,37.4403,德州市,开发区人民医院,细颗粒物(PM2.5),67,70,82,48,51,64,,95,77,36,39,18,20,1.0,0.9
2025-02-21T0000,3372A,116.3572,37.4094,德州市,太阳城中学,细颗粒物(PM2.5),62,66,84,44,54,69,,95,79,26,34,18,18,1.1,1.1
2025-02-21T0000,3511A,116.5652,37.3319,德州市,陵城艺术中心,细颗粒物(PM2.5),79,75,88,58,57,59,,88,71,29,35,19,18,0.9,0.8
2025-02-21T0000,2621A,99.7056,27.8317,迪庆藏族自治州,迪庆州站,,27,26,28,16,15,86,,94,88,8,9,6,6,0.3,0.3
2025-02-21T0000,3180A,99.7136,27.8094,迪庆藏族自治州,质量技术监督局,,27,18,21,3,12,85,,91,86,6,9,8,8,0.2,0.3
2025-02-21T0000,2663A,104.6241,35.5734,定西市,东关小学,细颗粒物(PM2.5),103,,64,77,37,74,,107,,11,10,8,10,0.5,0.5
2025-02-21T0000,4257A,104.6092,35.5962,定西市,将台街,细颗粒物(PM2.5),59,65,64,42,37,70,,95,78,12,21,13,17,0.4,0.6
2025-02-21T0000,1389A,113.7547,23.0494,东莞市,莞城梨川,颗粒物(PM10),51,52,54,19,26,80,,131,87,18,27,3,4,0.4,0.4
2025-02-21T0000,1390A,113.7944,23.0128,东莞市,东城石井,,40,40,45,19,23,77,,123,88,23,28,8,8,0.4,0.4
2025-02-21T0000,1391A,113.7383,22.9658,东莞市,南城西平,颗粒物(PM10),55,60,49,23,25,65,,120,80,40,39,4,3,0.3,0.4
2025-02-21T0000,3319A,113.7338,23.0381,东莞市,万江金泰,,40,40,43,20,23,81,,136,93,23,29,2,2,0.4,0.4
2025-02-21T0000,3626A,113.7533,23.0202,东莞市,南城元岭,,43,43,47,18,24,74,,121,84,21,27,4,4,0.5,0.5
2025-02-21T0000,3627A,113.7875,23.0457,东莞市,东城主山,,41,41,52,18,23,78,,120,79,21,34,6,6,0.3,0.3
2025-02-21T0000,1666A,118.6614,37.4309,东营市,市环保局,,25,19,45,9,28,77,,90,82,14,28,3,9,0.3,0.4
2025-02-21T0000,3036A,118.6904,37.4338,东营市,开发区管委会,,25,19,51,12,30,79,,96,88,18,27,2,9,0.5,0.7
2025-02-21T0000,3365A,118.5719,37.565,东营市,垦利区民丰路,,31,31,48,17,28,38,,92,70,44,32,15,20,0.4,0.6
2025-02-21T0000,3498A,118.5055,37.8612,东营市,河口城区,,41,41,48,17,23,71,,94,81,12,15,3,6,0.7,0.7
2025-02-21T0000,3646A,118.4978,37.4623,东营市,胜利站,,33,33,50,9,26,70,,92,81,17,24,7,13,0.6,0.7
2025-02-21T0000,3734A,118.35,37.26,东营市,理想之城,,29,29,47,14,27,66,,92,80,23,35,6,12,0.6,0.7
2025-02-21T0000,1591A,110.0023,39.8129,鄂尔多斯市,综合楼,,25,22,47,7,14,78,,67,64,12,35,7,12,0.4,0.5
2025-02-21T0000,1592A,109.9486,39.8261,鄂尔多斯市,巴音孟克林场办事处,,39,39,46,9,15,61,,69,67,27,33,8,11,0.3,0.4
2025-02-21T0000,1593A,109.7736,39.5986,鄂尔多斯市,康泽苑,,31,31,37,17,16,54,,78,63,26,23,8,8,0.4,0.5
2025-02-21T0000,1594A,109.8119,39.5989,鄂尔多斯市,华泰汽车城,,36,36,36,19,16,8,,73,45,63,31,5,5,0.5,0.5
2025-02-21T0000,1595A,109.9734,39.7884,鄂尔多斯市,奥林花园,,31,31,47,12,15,52,,67,57,29,32,6,10,0.3,0.5
2025-02-21T0000,2436A,114.8938,30.3994,鄂州市,市政府,细颗粒物(PM2.5),98,79,83,73,68,37,,73,53,26,41,4,7,0.6,0.8
2025-02-21T0000,2437A,114.8989,30.3714,鄂州市,赵家坝,细颗粒物(PM2.5),88,86,79,65,65,36,,76,57,16,23,1,4,0.7,0.8
2025-02-21T0000,3654A,114.8094,30.4089,鄂州市,精准医疗中心,细颗粒物(PM2.5),92,77,79,68,64,37,,110,58,24,34,4,6,0.6,0.6
2025-02-21T0000,2454A,109.4978,30.2981,恩施土家族苗族自治州,湖北民院,细颗粒物(PM2.5),84,62,49,62,53,12,,66,44,39,23,6,6,0.7,0.6
2025-02-21T0000,2455A,109.4707,30.2798,恩施土家族苗族自治州,州电力总公司,细颗粒物(PM2.5),78,63,60,57,51,26,,61,43,18,19,6,4,0.5,0.9
2025-02-21T0000,3549A,109.5061,30.3772,恩施土家族苗族自治州,龙凤新区,颗粒物(PM10),51,51,44,34,34,14,,60,33,14,13,7,7,0.7,0.6
2025-02-21T0000,2499A,108.3411,21.6158,防城港市,沙万,细颗粒物(PM2.5),104,82,74,78,52,24,,74,50,20,22,9,10,1.2,0.9
2025-02-21T0000,2500A,108.3514,21.7731,防城港市,防城档案局,细颗粒物(PM2.5),89,76,84,66,53,15,,45,29,20,20,4,4,1.0,1
2025-02-21T0000,2501A,108.3506,21.6414,防城港市,大海花园,细颗粒物(PM2.5),125,,77,95,75,30,,86,55,19,21,6,7,1.2,1.1
2025-02-21T0000,1371A,113.1294,23.0067,佛山市,湾梁,,44,44,55,20,22,69,,135,95,25,38,7,7,0.6,0.6
2025-02-21T0000,1372A,113.1083,23.0478,佛山市,华材职中,,39,39,48,26,25,78,,157,114,25,36,8,8,0.5,0.5
2025-02-21T0000,1373A,113.144,23.0453,佛山市,南海气象局,,42,,45,29,25,61,,138,92,24,31,9,8,0.4,0.4
2025-02-21T0000,1374A,113.2881,22.8094,佛山市,顺德苏岗,,46,46,49,22,21,58,,108,79,27,30,5,5,0.5,0.5
2025-02-21T0000,1376A,112.8383,22.8678,佛山市,高明孔堂,,36,36,40,24,23,93,,127,107,8,14,5,5,0.7,0.7
2025-02-21T0000,1377A,112.8836,23.1588,佛山市,三水监测站,,39,39,55,25,32,68,,131,98,30,43,1,2,0.4,0.6
2025-02-21T0000,1378A,112.867,23.185,佛山市,三水云东海,,36,36,50,23,31,70,,159,112,36,44,1,2,0.4,0.7
2025-02-21T0000,3625A,113.2544,22.7642,佛山市,容桂街道办,,34,34,40,22,24,63,,117,79,25,30,6,7,0.5,0.6
2025-02-21T0000,1280A,119.3903,26.0543,福州市,鼓山,,,,6,,3,,,87,,,7,,3,,0.3
2025-02-21T0000,1282A,119.2681,26.0504,福州市,师大,,25,6,9,3,3,80,,80,80,9,13,2,3,0.5,0.5
2025-02-21T0000,1283A,119.2984,26.1028,福州市,五四北路,,24,8,8,3,4,75,,81,80,12,16,3,3,0.7,0.6
2025-02-21T0000,1284A,119.2648,26.0768,福州市,杨桥西路,,25,7,9,3,3,78,,84,84,12,16,3,3,0.5,0.5
2025-02-21T0000,1285A,119.317,26.0746,福州市,紫阳,,24,6,10,3,3,74,,78,78,13,17,2,2,0.5,0.5
2025-02-21T0000,3048A,119.5799,26.0936,福州市,九龙,,22,6,9,3,4,68,,73,73,13,15,3,3,0.5,0.6
2025-02-21T0000,3526A,119.5189,25.9664,福州市,吴航,,23,6,9,3,7,71,,82,80,14,12,3,3,0.4,0.6
2025-02-21T0000,1755A,123.7977,41.8491,抚顺市,望花区,"颗粒物(PM10),细颗粒物(PM2.5)",65,79,71,47,42,13,,68,39,50,36,5,4,1.3,1.1
2025-02-21T0000,1756A,123.9161,41.8822,抚顺市,顺城区,细颗粒物(PM2.5),60,61,67,43,38,9,,67,40,60,38,7,7,1.1,0.9
2025-02-21T0000,1757A,124.0436,41.8611,抚顺市,东洲区,颗粒物(PM10),61,72,70,43,45,37,,61,48,24,21,6,6,0.8,0.8
2025-02-21T0000,1758A,123.9247,41.8642,抚顺市,新抚区,细颗粒物(PM2.5),73,83,60,53,34,9,,69,41,56,37,2,4,1.1,0.8
2025-02-21T0000,1759A,124.0972,41.8961,抚顺市,大伙房水库,细颗粒物(PM2.5),63,64,50,45,36,42,,64,50,20,24,7,6,0.8,0.7
2025-02-21T0000,1760A,123.7086,41.8391,抚顺市,沈抚新城,细颗粒物(PM2.5),103,,50,77,52,10,,70,31,61,36,4,4,1.3,0.9
2025-02-21T0000,2376A,116.2127,28.0814,抚州市,桐源党溪,,38,38,30,14,13,42,,45,45,4,3,1,2,0.6,0.6
2025-02-21T0000,2377A,116.3544,27.9831,抚州市,市站,,21,21,21,14,13,56,,53,53,12,14,2,8,0.8,0.9
2025-02-21T0000,2378A,116.3565,27.963,抚州市,血防站,,22,22,25,12,13,61,,56,56,11,15,7,11,0.7,0.8
2025-02-21T0000,2379A,116.3564,28.0007,抚州市,采茶剧团,,28,25,19,19,14,42,,40,38,5,8,5,11,0.5,0.6
2025-02-21T0000,2380A,116.385,27.9647,抚州市,医学分院,,18,18,23,10,12,46,,43,43,9,12,4,6,0.8,0.8
2025-02-21T0000,2207A,121.6094,41.998,阜新市,工业园区,颗粒物(PM10),99,147,49,59,28,21,,76,43,34,21,13,12,0.7,0.4
2025-02-21T0000,2208A,121.6697,42.0279,阜新市,长青街,颗粒物(PM10),80,110,31,35,14,19,,73,47,44,13,7,6,0.6,0.4
2025-02-21T0000,2209A,121.6673,42.0705,阜新市,农业园区,,23,23,21,3,6,57,,71,63,11,8,9,9,0.2,0.2
2025-02-21T0000,2210A,121.6717,42.0224,阜新市,东苑,颗粒物(PM10),80,109,38,38,18,10,,65,35,56,18,9,7,1.1,0.8
2025-02-21T0000,2211A,121.6506,42.0498,阜新市,玉龙新城,颗粒物(PM10),54,57,56,33,25,7,,76,30,55,28,8,6,0.8,0.6
2025-02-21T0000,2301A,115.8277,32.8929,阜阳市,市监测站,,43,38,57,30,46,82,,81,81,9,12,6,6,0.3,0.3
2025-02-21T0000,2303A,115.8554,32.8605,阜阳市,开发区,,46,46,69,32,42,77,,76,76,12,16,5,6,0.4,0.4
2025-02-21T0000,2875A,115.784,32.8892,阜阳市,阜阳职业技术学院,,45,33,58,31,42,79,,79,79,8,12,6,7,0.3,0.3
2025-02-21T0000,3468A,115.7901,32.8613,阜阳市,市规划展馆,,35,35,59,24,41,85,,86,86,11,14,6,6,0.2,0.4
2025-02-21T0000,3469A,115.836,32.9183,阜阳市,枣园社区,,42,42,61,24,41,85,,86,86,9,12,5,5,0.4,0.4
2025-02-21T0000,2669A,102.9099,34.9841,甘南藏族自治州,州政府,颗粒物(PM10),57,64,48,29,26,47,,86,70,25,14,13,12,0.6,0.5
2025-02-21T0000,3380A,102.8914,34.9617,甘南藏族自治州,甘肃民族师范学院,颗粒物(PM10),58,66,50,31,18,49,,86,66,26,19,4,5,0.6,0.5
2025-02-21T0000,2570A,101.9603,30.0475,甘孜藏族自治州,水桥子,,32,32,13,18,8,10,,61,45,44,17,2,3,0.5,0.6
2025-02-21T0000,3065A,101.9533,29.9972,甘孜藏族自治州,州环保局,,16,16,14,9,6,34,,68,50,32,16,4,4,0.6,0.6
2025-02-21T0000,3414A,115.8347,28.932,赣江新区,桑海产业园,细颗粒物(PM2.5),54,44,38,38,32,34,,41,37,19,18,5,5,0.4,0.5
2025-02-21T0000,2362A,114.9017,25.9149,赣州市,通天岩,,13,13,20,3,5,26,,27,19,12,10,8,8,0.6,0.7
2025-02-21T0000,2363A,114.9367,25.8664,赣州市,地委,,17,17,22,3,9,32,,29,25,9,10,9,6,0.7,0.8
2025-02-21T0000,2364A,114.9461,25.8481,赣州市,气象台,,20,20,27,3,8,36,,34,27,15,17,7,6,0.5,0.7
2025-02-21T0000,2365A,114.9322,25.8333,赣州市,市图书馆,,16,,15,11,8,35,,34,27,14,16,4,4,0.6,0.7
2025-02-21T0000,2366A,114.8905,25.8471,赣州市,华坚鞋城,,11,9,18,7,10,34,,28,25,9,12,5,5,0.2,0.2
2025-02-21T0000,3109A,115.0093,25.8613,赣州市,赣县区卫计委,,10,6,15,3,10,29,,24,22,13,14,2,3,0.4,0.5
2025-02-21T0000,2683A,106.2319,36.1417,固原市,马园,细颗粒物(PM2.5),63,,61,45,45,56,,72,65,23,25,5,6,0.6,0.6
2025-02-21T0000,2684A,106.2792,36.0022,固原市,监测站,细颗粒物(PM2.5),77,,46,56,40,53,,86,77,25,13,6,5,1.0,0.5
2025-02-21T0000,2685A,106.2375,36.0211,固原市,新区,细颗粒物(PM2.5),67,,45,48,35,40,,80,70,35,16,5,5,0.7,0.5
2025-02-21T0000,3522A,106.2177,35.9959,固原市,原州区十五小,细颗粒物(PM2.5),72,59,57,52,44,55,,86,70,28,17,10,10,1.0,0.7
2025-02-21T0000,2543A,106.6308,30.5278,广安市,小平旧居,,,,,,,,,,,,,,,,
2025-02-21T0000,2544A,106.6303,30.4576,广安市,市委,,33,26,35,23,28,44,,63,56,12,11,3,3,0.5,0.5
2025-02-21T0000,2545A,106.6271,30.4663,广安市,友谊中学,,35,32,37,24,28,37,,63,52,19,15,2,2,0.5,0.5
2025-02-21T0000,2547A,106.6388,30.4551,广安市,广电花园,,35,26,33,24,30,41,,60,51,14,16,2,2,0.3,0.4
2025-02-21T0000,2902A,106.6351,30.4865,广安市,北辰小学,,33,28,36,23,27,39,,64,55,15,13,3,4,0.6,0.6
2025-02-21T0000,2523A,105.8945,32.4535,广元市,黑石坡,细颗粒物(PM2.5),57,,42,40,35,13,,26,20,15,17,9,9,0.5,0.5
2025-02-21T0000,2524A,105.821,32.4444,广元市,老城,"颗粒物(PM10),细颗粒物(PM2.5)",58,65,52,41,33,34,,46,41,31,26,3,2,0.3,0.3
2025-02-21T0000,2526A,105.8628,32.4287,广元市,监测站,细颗粒物(PM2.5),58,51,46,41,37,36,,46,42,25,25,3,3,0.5,0.6
2025-02-21T0000,3617A,105.8047,32.4166,广元市,经开区,细颗粒物(PM2.5),73,58,49,53,43,18,,44,38,38,27,1,2,0.6,0.6
2025-02-21T0000,1345A,113.2347,23.1423,广州市,广雅中学,,47,47,51,30,26,65,,132,101,28,36,4,4,0.5,0.5
2025-02-21T0000,1346A,113.2612,23.105,广州市,市五中,,40,40,48,19,24,65,,122,97,24,34,3,3,0.5,0.6
2025-02-21T0000,1348A,113.3478,23.0916,广州市,广东商学院,,40,40,43,25,25,54,,112,87,40,42,4,4,0.7,0.7
2025-02-21T0000,1349A,113.4332,23.1047,广州市,市八十六中,,50,50,48,24,25,37,,103,57,55,60,3,4,0.3,0.4
2025-02-21T0000,1350A,113.3505,22.9483,广州市,番禺中学,,37,37,41,23,22,65,,115,89,29,31,4,5,0.7,0.7
2025-02-21T0000,1351A,113.2146,23.3916,广州市,花都师范,颗粒物(PM10),51,52,59,24,30,62,,111,81,30,47,6,6,0.6,0.7
2025-02-21T0000,1352A,113.2597,23.1331,广州市,市监测站,,36,36,44,19,22,65,,121,96,25,37,5,6,0.6,0.6
2025-02-21T0000,1353A,113.5618,23.312,广州市,九龙镇镇龙,颗粒物(PM10),53,56,57,30,31,23,,140,72,74,43,7,6,0.5,0.5
2025-02-21T0000,1354A,113.2765,23.1544,广州市,麓湖,,41,41,44,21,23,66,,123,98,28,38,2,3,0.4,0.5
2025-02-21T0000,1355A,113.443,23.3035,广州市,帽峰山森林公园,,41,41,40,15,14,43,,114,81,37,30,9,8,0.7,0.7
2025-02-21T0000,2846A,113.3221,23.1322,广州市,体育西,,46,46,49,25,26,54,,118,92,32,32,4,4,0.5,0.6
2025-02-21T0000,3298A,113.5717,23.5491,广州市,从化街口,细颗粒物(PM2.5),70,81,68,51,44,66,,172,115,38,38,13,10,0.8,0.8
2025-02-21T0000,3299A,113.3472,23.3692,广州市,白云竹料,颗粒物(PM10),59,67,56,34,29,52,,120,88,42,39,7,8,0.7,0.7
2025-02-21T0000,3300A,113.2981,23.237,广州市,白云嘉禾,颗粒物(PM10),51,51,52,24,26,58,,109,83,42,53,6,6,0.4,0.6
2025-02-21T0000,3301A,113.4256,23.1716,广州市,黄埔科学城,颗粒物(PM10),54,58,51,29,26,43,,114,71,42,48,7,8,0.5,0.5
2025-02-21T0000,3302A,113.3942,23.0483,广州市,番禺大学城,颗粒物(PM10),53,56,55,20,22,51,,87,68,34,40,7,8,0.9,0.9
2025-02-21T0000,3303A,113.4922,22.8168,广州市,南沙黄阁,,29,29,42,20,20,69,,97,81,24,32,4,5,0.4,0.5
2025-02-21T0000,3304A,113.5342,22.7896,广州市,南沙街,,27,27,39,16,19,64,,100,80,32,33,6,6,0.6,0.6
2025-02-21T0000,3443A,113.2902,23.5544,广州市,花都梯面,细颗粒物(PM2.5),63,65,50,45,30,65,,132,102,22,34,13,6,0.9,0.7
2025-02-21T0000,3445A,113.7858,23.7478,广州市,从化良口,细颗粒物(PM2.5),78,77,38,57,28,77,,120,92,18,14,15,7,0.8,0.6
2025-02-21T0000,3446A,113.8051,23.2614,广州市,增城荔城,颗粒物(PM10),51,51,56,26,32,85,,177,118,20,25,6,8,0.5,0.5
2025-02-21T0000,2505A,109.568,23.1478,贵港市,德智高中,,,,,,,,,,,,,,,,
2025-02-21T0000,2506A,109.6047,23.0666,贵港市,江南子站,细颗粒物(PM2.5),64,56,85,46,65,24,,47,28,18,24,8,9,0.7,0.8
2025-02-21T0000,2507A,109.6014,23.0948,贵港市,贵城子站,颗粒物(PM10),53,55,71,34,46,25,,44,26,17,24,6,7,0.4,0.5
2025-02-21T0000,2508A,109.5669,23.1065,贵港市,荷城子站,,25,24,63,17,46,25,,33,24,5,15,9,9,0.7,0.7
2025-02-21T0000,3405A,109.5886,23.1172,贵港市,新世纪学校,,44,44,71,29,51,26,,40,27,11,17,3,1,0.7,0.8
2025-02-21T0000,1439A,106.6899,26.5998,贵阳市,马鞍山,,17,17,11,7,5,42,,41,41,6,9,4,4,0.2,0.3
2025-02-21T0000,1441A,106.6243,26.6266,贵阳市,鉴湖路,,17,17,18,7,6,41,,46,38,9,12,10,10,0.4,0.5
2025-02-21T0000,1442A,106.7487,26.6343,贵阳市,燕子冲,,25,,13,17,10,48,,51,47,6,7,5,6,0.5,0.5
2025-02-21T0000,1443A,106.6555,26.4365,贵阳市,碧云窝,,16,12,18,7,6,51,,43,43,10,17,7,10,0.5,0.5
2025-02-21T0000,1445A,106.7109,26.6027,贵阳市,红边门,,20,,10,14,12,49,,44,44,10,6,7,9,0.6,0.6
2025-02-21T0000,1446A,106.7164,26.5699,贵阳市,新华路,,17,9,15,9,9,53,,49,47,4,8,5,7,0.6,0.5
2025-02-21T0000,1447A,106.674,26.5424,贵阳市,太慈桥,,18,12,13,12,7,51,,47,47,9,13,6,6,0.3,0.2
2025-02-21T0000,1552A,106.805,26.3003,贵阳市,桐木岭,,30,30,22,19,12,36,,42,39,10,8,8,10,0.9,0.9
2025-02-21T0000,4230A,106.6882,26.5695,贵阳市,花果园大街66号,,26,,6,18,12,45,,41,41,8,10,4,5,0.5,0.5
2025-02-21T0000,4231A,106.6873,26.5169,贵阳市,漓江路57号,,15,9,12,9,8,48,,49,47,10,14,9,10,0.4,0.5
2025-02-21T0000,1862A,110.4144,25.3167,桂林市,电子科大尧山校区,,25,,3,17,6,47,,51,51,9,8,4,4,0.8,0.7
2025-02-21T0000,1864A,110.3089,25.2708,桂林市,龙隐路小学,,17,,6,3,5,52,,54,51,9,10,8,7,0.9,0.9
2025-02-21T0000,1865A,110.2869,25.2178,桂林市,八中,,15,7,9,3,8,46,,44,42,14,17,6,6,0.5,0.6
2025-02-21T0000,3531A,110.296,25.1253,桂林市,旅游学院,,13,,4,9,6,39,,40,37,15,17,6,6,0.8,0.8
2025-02-21T0000,4222A,110.1835,25.2444,桂林市,环湖路276号,,15,,8,9,7,48,,52,48,10,10,6,6,0.7,0.7
2025-02-21T0000,4301A,110.2803,25.2773,桂林市,信义路13号,,15,,7,6,8,46,,51,46,12,13,12,12,0.5,0.5
2025-02-21T0000,2674A,100.2561,34.4714,果洛藏族自治州,玛沁县大武镇,,38,38,40,18,13,69,,97,82,2,3,18,19,0.5,0.5
2025-02-21T0000,1129A,126.5422,45.755,哈尔滨市,岭北,,32,26,35,22,30,67,,83,79,30,20,5,8,0.7,0.7
2025-02-21T0000,1130A,126.561,45.8167,哈尔滨市,松北商大,,28,26,36,19,29,63,,76,67,17,19,8,13,0.4,0.5
2025-02-21T0000,1131A,126.979,45.5419,哈尔滨市,阿城会宁,细颗粒物(PM2.5),92,94,70,68,59,10,,75,54,64,30,6,10,1.3,0.9
2025-02-21T0000,1132A,126.599,45.7222,哈尔滨市,南岗学府路,,41,41,42,20,23,69,,68,68,18,23,26,11,0.4,0.4
2025-02-21T0000,1133A,126.689,45.7733,哈尔滨市,太平宏伟公园,,30,29,40,21,25,65,,74,69,20,23,8,15,0.6,0.8
2025-02-21T0000,1134A,126.635,45.7667,哈尔滨市,道外承德广场,,41,41,48,27,30,70,,75,72,17,23,13,12,0.5,0.4
2025-02-21T0000,1135A,126.685,45.7319,哈尔滨市,香坊红旗大街,,29,27,38,20,35,73,,76,75,11,23,7,15,0.6,0.8
2025-02-21T0000,1136A,126.6411,45.7258,哈尔滨市,动力和平路,,33,32,35,23,27,71,,79,75,14,18,12,15,0.4,0.5
2025-02-21T0000,1137A,126.593,45.7478,哈尔滨市,道里建国路,,30,30,36,17,28,65,,69,64,13,18,2,7,0.5,0.5
2025-02-21T0000,1138A,126.615,45.61,哈尔滨市,平房东轻厂,,46,34,52,32,39,20,,73,45,59,39,9,8,1.0,0.9
2025-02-21T0000,1139A,126.595,45.9855,哈尔滨市,呼兰师专,,45,35,46,31,40,27,,74,50,51,27,6,7,0.6,0.7
2025-02-21T0000,1140A,126.6206,45.6842,哈尔滨市,省农科院,,35,29,56,24,44,64,,80,75,20,31,24,14,0.5,0.7
2025-02-21T0000,2688A,93.5128,42.8172,哈密市,地区监测站,颗粒物(PM10),79,107,83,30,25,37,,86,65,58,32,12,8,0.7,0.4
2025-02-21T0000,2689A,93.4961,42.8328,哈密市,哈密师范学校,颗粒物(PM10),73,96,63,31,21,17,,85,58,80,41,7,6,1.2,0.8
2025-02-21T0000,2671A,100.9048,36.9639,海北藏族自治州,海晏县西海镇,,34,34,59,13,32,83,,102,98,2,9,8,10,0.4,0.6
2025-02-21T0000,3867A,102.0738,36.5056,海东市,平安区公安北苑,细颗粒物(PM2.5),67,55,72,48,40,86,,106,100,23,15,22,19,0.8,0.6
2025-02-21T0000,1409A,110.576,19.9507,海口市,东寨港,,23,23,29,15,16,67,,87,78,4,3,1,3,0.5,0.5
2025-02-21T0000,1410A,110.3232,20.0574,海口市,海南大学,颗粒物(PM10),54,57,46,23,20,82,,95,83,11,9,3,5,0.4,0.4
2025-02-21T0000,1411A,110.283,20.0053,海口市,秀英海南医院,,44,44,37,21,17,84,,95,86,9,9,4,4,0.4,0.4
2025-02-21T0000,1412A,110.338,19.9969,海口市,海南师范大学,,48,48,39,20,16,84,,100,87,8,8,3,5,0.4,0.4
2025-02-21T0000,1413A,110.33,20.0356,海口市,龙华路环保局宿舍,,42,42,36,21,17,85,,95,84,7,7,4,3,0.4,0.4
2025-02-21T0000,3539A,110.5111,19.9736,海口市,桂林洋子站,,44,44,33,18,15,69,,98,86,8,5,3,3,0.3,0.3
2025-02-21T0000,2673A,100.6188,36.2866,海南藏族自治州,共和县恰卜恰镇,,23,23,51,3,19,71,,115,106,21,13,8,8,0.5,0.5
2025-02-21T0000,2676A,97.3731,37.3753,海西蒙古族藏族自治州,德令哈市,,48,36,38,33,16,74,,107,94,5,5,18,16,0.5,0.5
2025-02-21T0000,1048A,114.5302,36.6116,邯郸市,东污水处理厂,细颗粒物(PM2.5),70,62,55,51,38,46,,86,68,23,15,2,2,0.5,0.5
2025-02-21T0000,1049A,114.4918,36.5713,邯郸市,矿院,颗粒物(PM10),73,95,59,51,46,26,,84,61,43,18,1,3,0.5,0.5
2025-02-21T0000,1050A,114.484,36.6133,邯郸市,丛台公园,细颗粒物(PM2.5),70,67,56,51,46,43,,86,67,24,15,8,9,0.4,0.5
2025-02-21T0000,3458A,114.7895,36.5593,邯郸市,香泉濮院小区,颗粒物(PM10),53,55,49,34,36,49,,90,66,25,14,2,3,0.5,0.5
2025-02-21T0000,3579A,114.50634,36.77178,邯郸市,永年区实验高中,细颗粒物(PM2.5),80,91,65,59,39,49,,86,67,22,23,6,6,0.9,0.7
2025-02-21T0000,3580A,114.20016,36.44293,邯郸市,峰峰矿区临水派出所,细颗粒物(PM2.5),98,82,70,73,54,48,,90,69,20,12,6,6,1.0,0.9
2025-02-21T0000,2634A,106.9893,33.1842,汉中市,汉川机床厂子校,细颗粒物(PM2.5),98,,54,73,61,39,,84,61,7,6,6,6,0.6,0.5
2025-02-21T0000,2635A,107.0154,33.0706,汉中市,市监测站,细颗粒物(PM2.5),112,,74,84,67,29,,74,49,28,16,5,5,1.5,1.2
2025-02-21T0000,2636A,107.0089,33.1138,汉中市,鑫源开发区,细颗粒物(PM2.5),122,,72,92,80,22,,77,51,38,18,5,4,1.1,0.7
2025-02-21T0000,2637A,107.007,33.0323,汉中市,南郑大河坎水厂,细颗粒物(PM2.5),107,93,83,80,70,25,,71,44,19,19,5,4,1.1,0.9
2025-02-21T0000,1223A,120.2072,30.2111,杭州市,滨江,,25,7,41,6,35,79,,80,79,16,25,6,6,0.4,0.5
2025-02-21T0000,1224A,120.0633,30.2747,杭州市,西溪,,25,,49,8,31,78,,88,85,12,16,6,6,0.4,0.5
2025-02-21T0000,1226A,120.3461,30.3153,杭州市,下沙,,23,9,48,3,29,72,,74,72,15,24,8,8,0.7,0.7
2025-02-21T0000,1227A,120.1269,30.2456,杭州市,卧龙桥,,26,6,41,3,30,81,,90,87,16,20,5,5,0.3,0.4
2025-02-21T0000,1228A,120.1903,30.2692,杭州市,浙江农大,,26,26,50,3,32,66,,77,74,21,21,6,6,0.3,0.3
2025-02-21T0000,1230A,120.1197,30.3119,杭州市,和睦小学,,26,,32,12,31,81,,86,83,16,23,6,6,0.4,0.5
2025-02-21T0000,1231A,120.3019,30.4183,杭州市,临平镇,,26,10,38,6,26,82,,87,84,10,15,4,5,0.4,0.5
2025-02-21T0000,1232A,120.2697,30.1819,杭州市,城厢镇,,22,15,25,11,19,70,,71,71,19,21,6,6,0.3,0.4
2025-02-21T0000,1233A,120.0883,30.1808,杭州市,云栖,,25,13,46,8,31,80,,87,87,18,23,6,6,0.4,0.5
2025-02-21T0000,3557A,119.9464,30.0494,杭州市,镇二中,,22,,27,10,27,69,,79,78,18,22,5,5,0.4,0.7
2025-02-21T0000,3558A,119.7183,30.2367,杭州市,市府大楼,,23,12,44,9,29,72,,82,82,18,22,6,6,0.5,0.6
2025-02-21T0000,3656A,120.1556,30.2864,杭州市,消防大队,,26,9,47,3,31,82,,90,87,19,22,5,6,0.3,0.5
2025-02-21T0000,1270A,117.1959,31.7848,合肥市,明珠广场,细颗粒物(PM2.5),64,58,67,46,43,53,,78,66,25,27,6,8,0.7,0.7
2025-02-21T0000,1271A,117.3072,31.8764,合肥市,三里街,细颗粒物(PM2.5),67,66,66,48,43,48,,76,64,27,25,5,6,0.5,0.4
2025-02-21T0000,1272A,117.2588,31.8707,合肥市,琥珀山庄,细颗粒物(PM2.5),75,66,66,55,53,50,,76,65,26,24,7,8,0.8,0.7
2025-02-21T0000,1273A,117.1604,31.9052,合肥市,董铺水库,颗粒物(PM10),64,78,69,41,35,62,,83,77,21,21,3,4,0.5,0.5
2025-02-21T0000,1274A,117.25,31.8571,合肥市,长江中路,细颗粒物(PM2.5),84,66,72,62,51,56,,83,72,28,26,7,8,0.7,0.7
2025-02-21T0000,1275A,117.266,31.9436,合肥市,庐阳区,细颗粒物(PM2.5),64,73,71,46,44,60,,80,71,23,23,2,3,0.7,0.6
2025-02-21T0000,1276A,117.336,31.8586,合肥市,瑶海区,细颗粒物(PM2.5),68,68,70,49,44,49,,71,59,29,29,6,6,0.6,0.6
2025-02-21T0000,1277A,117.3027,31.7964,合肥市,包河区,细颗粒物(PM2.5),73,66,68,53,46,57,,74,58,25,32,3,4,0.7,0.7
2025-02-21T0000,1278A,117.2776,31.7385,合肥市,滨湖新区,细颗粒物(PM2.5),83,68,71,61,53,59,,80,67,21,23,2,4,0.5,0.5
2025-02-21T0000,1279A,117.1318,31.8403,合肥市,高新区,细颗粒物(PM2.5),79,70,71,58,48,60,,82,73,28,27,2,3,0.6,0.6
2025-02-21T0000,3464A,117.3803,31.9147,合肥市,高教基地,细颗粒物(PM2.5),79,68,68,58,52,48,,82,69,24,20,5,7,0.6,0.5
2025-02-21T0000,3614A,79.924,37.0877,和田地区,地区环保局,颗粒物(PM10),174,297,304,112,79,34,,38,,34,20,43,16,,2.3
2025-02-21T0000,3615A,79.9131,37.113,和田地区,市环保局,颗粒物(PM10),122,193,226,51,57,31,,90,69,39,18,5,2,1.8,1.4
2025-02-21T0000,2516A,108.2011,24.715,河池市,东仁乐园,,8,6,11,3,7,23,,26,24,12,12,5,5,0.6,0.7
2025-02-21T0000,2517A,108.0497,24.6947,河池市,市环保站,,12,12,8,7,5,29,,28,27,8,10,7,7,0.7,0.7
2025-02-21T0000,2518A,108.0983,24.6989,河池市,市疾控中心,,8,,7,3,4,23,,21,21,9,11,5,5,0.7,0.7
2025-02-21T0000,1696A,114.6778,23.7569,河源市,源西,,32,24,40,22,27,84,,104,93,17,27,5,5,0.4,0.5
2025-02-21T0000,1697A,114.6944,23.7586,河源市,东埔,,50,50,43,26,29,84,,111,100,21,23,4,4,0.6,0.7
2025-02-21T0000,1698A,114.6892,23.7233,河源市,老城,,38,38,46,23,30,86,,111,101,19,19,4,4,0.7,0.7
2025-02-21T0000,1718A,115.4208,35.2464,菏泽市,气象局,细颗粒物(PM2.5),62,45,85,44,58,79,,64,64,16,32,4,8,0.4,0.6
2025-02-21T0000,3374A,115.5564,35.0891,菏泽市,定陶老年大学,,45,44,69,31,43,82,,80,80,14,26,4,7,0.7,0.8
2025-02-21T0000,4184A,115.4797,35.24401,菏泽市,永昌路1号,细颗粒物(PM2.5),59,47,96,42,58,78,,68,68,22,34,6,10,0.6,0.7
2025-02-21T0000,4193A,115.4715,35.2800,菏泽市,长城路999号,颗粒物(PM10),51,52,92,33,56,68,,51,51,18,34,9,12,0.5,0.6
2025-02-21T0000,2514A,111.5264,24.4172,贺州市,环保小区,,15,11,23,10,13,38,,35,32,9,11,5,6,0.8,0.9
2025-02-21T0000,2515A,111.5608,24.4078,贺州市,政协大楼,,24,24,29,8,14,33,,30,30,10,12,8,8,0.7,0.8
2025-02-21T0000,3534A,111.4744,24.4553,贺州市,西湾,,15,12,21,10,13,35,,34,34,9,11,6,6,0.7,0.8
2025-02-21T0000,2385A,114.17,35.9019,鹤壁市,市监测站,细颗粒物(PM2.5),74,83,70,54,46,40,,74,60,33,27,1,3,0.3,0.5
2025-02-21T0000,2386A,114.2956,35.7511,鹤壁市,市交警支队,细颗粒物(PM2.5),57,54,61,40,38,74,,77,69,14,18,3,6,0.3,0.4
2025-02-21T0000,2387A,114.2878,35.7306,鹤壁市,迎宾馆,细颗粒物(PM2.5),87,,67,64,43,71,,76,67,20,22,2,4,0.4,0.5
2025-02-21T0000,3474A,114.2617,35.6822,鹤壁市,大新区,细颗粒物(PM2.5),62,,50,44,45,56,,70,54,24,22,2,5,0.5,0.5
2025-02-21T0000,3596A,114.1572,35.9603,鹤壁市,南山宾馆,细颗粒物(PM2.5),82,90,74,60,58,30,,78,59,30,15,4,5,0.3,0.3
2025-02-21T0000,2244A,130.2537,47.3416,鹤岗市,哈啤分公司,,22,22,23,13,18,69,,66,61,1,7,11,12,0.4,0.4
2025-02-21T0000,2245A,130.2684,47.3086,鹤岗市,斯达机电,,25,23,24,17,19,67,,66,58,2,8,11,12,0.3,0.3
2025-02-21T0000,2246A,130.3114,47.3388,鹤岗市,东山纸板厂,,46,46,30,23,19,67,,66,48,4,16,10,11,0.2,0.5
2025-02-21T0000,2247A,130.1097,47.3382,鹤岗市,五号水库,,23,17,19,16,13,68,,91,78,8,7,6,7,0.2,0.1
2025-02-21T0000,2263A,127.4833,50.2524,黑河市,交通局,,21,12,14,9,12,65,,77,67,6,6,6,6,0.3,0.2
2025-02-21T0000,2264A,127.5144,50.2341,黑河市,环保局,,28,,18,19,14,70,,70,67,5,6,5,5,0.5,0.5
2025-02-21T0000,2265A,127.5291,50.2472,黑河市,大黑河岛,,,,,,,,,,,,,,,,
2025-02-21T0000,1074A,115.6838,37.7541,衡水市,电机北厂,细颗粒物(PM2.5),69,71,89,50,59,46,,80,59,34,38,11,12,0.5,0.6
2025-02-21T0000,1075A,115.6303,37.7316,衡水市,市监测站,细颗粒物(PM2.5),62,64,76,44,54,64,,84,70,27,37,12,13,0.5,0.6
2025-02-21T0000,3188A,115.6683,37.7217,衡水市,市城管局,颗粒物(PM10),62,74,79,43,58,45,,80,59,39,43,17,15,0.6,0.7
2025-02-21T0000,3459A,115.5989,37.5491,衡水市,地表水厂,细颗粒物(PM2.5),69,66,73,50,55,50,,94,61,38,48,10,12,0.6,0.6
2025-02-21T0000,2456A,112.5003,26.9167,衡阳市,原169医院,颗粒物(PM10),51,52,21,22,13,40,,37,37,14,14,2,3,0.6,0.6
2025-02-21T0000,2457A,112.6194,26.9258,衡阳市,衡阳化工总厂,细颗粒物(PM2.5),88,,19,65,19,44,,40,40,17,18,2,3,0.7,0.7
2025-02-21T0000,2458A,112.6211,26.8956,衡阳市,珠晖区环保局,细颗粒物(PM2.5),68,,19,49,20,39,,41,41,24,20,3,3,0.8,0.8
2025-02-21T0000,2459A,112.6197,26.8733,衡阳市,市委党校,细颗粒物(PM2.5),72,,19,52,17,47,,43,43,20,19,7,7,0.8,0.7
2025-02-21T0000,2460A,112.6006,26.8919,衡阳市,市监测站,,49,42,25,34,20,42,,43,43,18,15,7,7,0.8,0.9
2025-02-21T0000,2461A,112.5664,26.9056,衡阳市,真空机电公司,细颗粒物(PM2.5),62,50,22,44,22,45,,42,42,24,25,4,4,0.7,0.7
2025-02-21T0000,3399A,112.6703,26.882,衡阳市,师范学院,颗粒物(PM10),55,60,19,36,16,51,,41,41,18,19,6,6,0.9,0.9
2025-02-21T0000,2608A,103.3772,23.3993,红河哈尼族彝族自治州,污水处理厂,,38,37,35,26,31,68,,86,74,5,6,6,6,0.6,0.6
2025-02-21T0000,2609A,103.3861,23.35,红河哈尼族彝族自治州,监测站,,49,,37,34,24,71,,92,79,6,7,7,7,0.7,0.7
2025-02-21T0000,3038A,103.3758,23.368,红河哈尼族彝族自治州,州图书馆,,38,,25,26,24,72,,85,77,5,6,6,6,0.6,0.6
2025-02-21T0000,1090A,111.6507,40.7517,呼和浩特市,呼市一监,细颗粒物(PM2.5),75,56,28,55,16,28,,83,60,39,12,8,7,0.4,0.2
2025-02-21T0000,1091A,111.6572,40.8033,呼和浩特市,小召,细颗粒物(PM2.5),52,48,31,36,17,24,,82,60,58,22,9,5,0.6,0.4
2025-02-21T0000,1094A,111.7516,40.8369,呼和浩特市,如意水处理厂,,35,34,19,22,11,11,,76,52,69,17,9,8,0.5,0.3
2025-02-21T0000,1095A,111.7276,40.8062,呼和浩特市,二十九中,,,38,23,21,7,17,,76,56,,15,3,3,0.1,0.1
2025-02-21T0000,1096A,111.5512,40.7866,呼和浩特市,工大金川校区,颗粒物(PM10),53,56,31,36,16,27,,81,62,56,18,6,8,0.5,0.4
2025-02-21T0000,1097A,111.717,40.7612,呼和浩特市,化肥厂生活区,细颗粒物(PM2.5),70,71,26,51,14,35,,82,62,37,15,8,6,0.6,0.3
2025-02-21T0000,3698A,111.5968,40.8178,呼和浩特市,红旗小学,细颗粒物(PM2.5),59,61,31,42,15,34,,84,63,58,20,6,6,0.6,0.5
2025-02-21T0000,3699A,111.6518,40.8389,呼和浩特市,海东办,细颗粒物(PM2.5),73,68,24,53,14,11,,80,50,64,21,6,6,0.8,0.5
2025-02-21T0000,2192A,119.7594,49.2261,呼伦贝尔市,区环保局,,45,,31,31,24,59,,72,68,18,22,6,6,0.4,0.5
2025-02-21T0000,3061A,119.7512,49.1577,呼伦贝尔市,国华电力东,,36,,29,25,20,68,,76,69,7,9,3,4,0.3,0.3
2025-02-21T0000,1250A,120.0751,30.8669,湖州市,城西水厂,,25,25,45,17,28,69,,80,72,21,22,6,6,0.3,0.4
2025-02-21T0000,2873A,120.0875,30.8955,湖州市,仁皇山新区,,,,,,,,,,,,,,,,
2025-02-21T0000,2907A,120.1844,30.8596,湖州市,吴兴区站,,30,30,44,17,28,61,,72,68,19,17,4,5,0.2,0.4
2025-02-21T0000,3562A,120.4148,30.8538,湖州市,南浔区站,,,,46,,29,,,81,,,21,,8,,0.3
2025-02-21T0000,1607A,120.9092,40.7136,葫芦岛市,龙港区,,45,40,44,31,27,13,,75,46,52,29,10,14,1.2,0.8
2025-02-21T0000,1608A,120.8392,40.7514,葫芦岛市,化工街,细颗粒物(PM2.5),79,105,68,58,31,7,,76,39,67,43,36,20,0.8,0.5
2025-02-21T0000,1609A,120.8341,40.7073,葫芦岛市,新区,细颗粒物(PM2.5),88,83,46,65,29,6,,78,41,78,43,18,16,1.2,0.7
2025-02-21T0000,1610A,120.8695,40.7677,葫芦岛市,东城区,细颗粒物(PM2.5),73,85,59,53,30,6,,71,35,58,35,27,18,1.0,0.7
2025-02-21T0000,2482A,109.5981,27.5721,怀化市,林科所,,32,29,18,22,14,60,,72,67,9,9,5,5,1.4,1.3
2025-02-21T0000,2483A,109.9453,27.5444,怀化市,河西地税局,细颗粒物(PM2.5),73,57,34,53,32,57,,67,63,10,10,6,6,0.7,0.7
2025-02-21T0000,2484A,109.9781,27.5342,怀化市,市四医院,细颗粒物(PM2.5),62,52,39,44,31,54,,63,58,12,10,4,4,0.8,0.8
2025-02-21T0000,2485A,109.9972,27.5578,怀化市,监测楼,细颗粒物(PM2.5),54,48,32,38,25,50,,61,55,11,10,5,5,0.8,0.7
2025-02-21T0000,2486A,110.0394,27.583,怀化市,市委党校,细颗粒物(PM2.5),52,42,27,36,23,52,,66,60,17,13,5,5,0.9,0.8
2025-02-21T0000,1210A,119.036,33.5981,淮安市,钵池山,,38,34,37,26,25,75,,91,82,14,15,7,7,0.5,0.5
2025-02-21T0000,1211A,119.007,33.575,淮安市,北京南路,,38,31,37,26,24,71,,91,82,15,15,8,9,0.5,0.6
2025-02-21T0000,1212A,118.989,33.6067,淮安市,市监测站,,42,,34,29,25,82,,96,89,15,16,7,8,0.6,0.6
2025-02-21T0000,1213A,119.135,33.5039,淮安市,楚州区监测站,,35,29,40,24,25,63,,92,75,15,15,6,8,0.6,0.7
2025-02-21T0000,3426A,118.8755,33.2894,淮安市,新华书店,,35,30,37,24,22,60,,89,74,20,16,8,8,0.4,0.4
2025-02-21T0000,4206A,119.0288,33.6319,淮安市,承德北路606号,,41,41,47,26,25,72,,91,80,17,22,8,7,0.6,0.6
2025-02-21T0000,2282A,116.8004,33.975,淮北市,监测站,,49,48,50,34,30,83,,82,82,11,14,6,6,0.5,0.5
2025-02-21T0000,2283A,116.8091,33.9007,淮北市,烈山区政府,,50,50,45,35,31,90,,94,94,13,13,4,4,0.6,0.6
2025-02-21T0000,3330A,116.8873,33.9836,淮北市,杜集区检察院,细颗粒物(PM2.5),59,58,50,42,34,86,,88,88,13,13,4,4,0.6,0.6
2025-02-21T0000,4017A,116.7923,33.9535,淮北市,市博物馆,细颗粒物(PM2.5),53,52,48,37,30,88,,88,88,13,15,6,7,0.6,0.6
2025-02-21T0000,2277A,116.8305,32.7727,淮南市,潘集区政府,细颗粒物(PM2.5),54,53,62,38,45,81,,85,79,11,13,2,3,0.4,0.5
2025-02-21T0000,2279A,116.8569,32.5951,淮南市,谢家集区政府,,50,50,67,33,41,73,,86,74,13,17,6,6,0.5,0.5
2025-02-21T0000,2280A,116.8281,32.633,淮南市,八公山区政府,,50,49,62,35,40,82,,92,77,7,10,8,8,0.4,0.5
2025-02-21T0000,2281A,116.6325,32.6201,淮南市,焦岗湖风景区管理处,,37,37,53,23,32,64,,70,61,7,9,9,9,0,0
2025-02-21T0000,2894A,117.0566,32.6531,淮南市,经济技术开发区消防队,颗粒物(PM10),53,56,61,28,38,71,,103,78,18,15,5,5,0.4,0.5
2025-02-21T0000,3329A,117.0108,32.5893,淮南市,山南新区,颗粒物(PM10),51,51,60,30,36,79,,98,83,9,11,6,6,0.4,0.5
2025-02-21T0000,4209A,117.0031,32.6445,淮南市,国庆中路369号,颗粒物(PM10),52,54,61,32,37,84,,93,81,11,15,4,5,0.3,0.3
2025-02-21T0000,2446A,114.9028,30.4742,黄冈市,职工中心,,,,86,,61,,,54,,,30,,5,,0.6
2025-02-21T0000,2929A,114.8858,30.4519,黄冈市,红卫路,细颗粒物(PM2.5),82,78,84,60,62,47,,87,62,22,30,6,8,0.6,0.8
2025-02-21T0000,3398A,114.9136,30.4445,黄冈市,市林业局,细颗粒物(PM2.5),85,70,81,63,60,42,,82,58,16,24,8,12,0.6,0.7
2025-02-21T0000,2672A,102.0199,35.5102,黄南藏族自治州,同仁县隆务镇,颗粒物(PM10),61,72,72,36,40,69,,88,77,6,6,16,14,0.5,0.4
2025-02-21T0000,2295A,118.2903,29.6963,黄山市,延安路89号,,22,8,14,8,10,68,,77,75,8,7,4,4,0.2,0.2
2025-02-21T0000,2297A,118.1371,30.2756,黄山市,黄山区政府5号楼,,19,11,20,11,13,59,,69,66,7,6,7,7,0.3,0.3
2025-02-21T0000,4210A,118.3354,29.7203,黄山市,滨江东路7-2号,,20,12,19,3,10,63,,74,70,7,8,4,4,0.4,0.4
2025-02-21T0000,2423A,115.0601,30.2313,黄石市,沈家营,细颗粒物(PM2.5),83,90,76,61,44,34,,88,63,27,32,13,13,0.8,0.7
2025-02-21T0000,2426A,114.8988,30.2019,黄石市,铁山,细颗粒物(PM2.5),95,,71,71,58,31,,85,64,28,21,8,13,0.6,0.7
2025-02-21T0000,2427A,115.0307,30.2092,黄石市,团城山,细颗粒物(PM2.5),95,97,77,71,52,42,,74,62,21,25,6,7,0.6,0.5
2025-02-21T0000,3149A,115.0235,30.1578,黄石市,笔架山北路,细颗粒物(PM2.5),79,70,64,58,46,43,,86,59,16,20,4,6,0.9,0.8
2025-02-21T0000,4185A,115.0780,30.21118,黄石市,磁湖东路29号,细颗粒物(PM2.5),103,92,81,77,57,54,,96,76,12,22,7,7,0.9,0.9
2025-02-21T0000,1392A,114.4183,23.0528,惠州市,河南岸金山湖子站,,34,34,38,20,20,82,,107,91,14,16,7,8,0.3,0.5
2025-02-21T0000,1393A,114.4053,23.0822,惠州市,下埔横江三路子站,,41,41,42,24,23,86,,116,98,16,18,7,8,0.5,0.5
2025-02-21T0000,1394A,114.4103,23.1142,惠州市,江北云山西路子站,,38,38,40,22,22,92,,122,103,15,18,7,8,0.5,0.6
2025-02-21T0000,1395A,114.4645,22.7833,惠州市,惠阳区承修路船湖子站,,36,36,44,19,20,94,,109,100,9,12,9,10,0.6,0.6
2025-02-21T0000,1396A,114.5317,22.7422,惠州市,大亚湾管委会子站,,31,30,41,16,19,98,,114,104,9,12,6,7,0.5,0.5
2025-02-21T0000,3314A,114.4338,22.8134,惠州市,惠阳秋长,,32,24,43,18,19,102,,117,108,10,16,7,9,0.6,0.6
2025-02-21T0000,3452A,114.6517,22.775,惠州市,大亚湾霞涌,,31,22,37,16,18,98,,115,107,9,14,7,7,0.4,0.5
2025-02-21T0000,2240A,130.9762,45.3001,鸡西市,环保局,,23,18,23,8,13,73,,77,69,5,8,5,6,0.4,0.5
2025-02-21T0000,2243A,130.9429,45.3039,鸡西市,第一中学,,24,14,19,9,13,75,,80,72,3,6,5,6,0.2,0.2
2025-02-21T0000,3707A,131.0207,45.3073,鸡西市,欧美日汽修厂,,26,15,27,8,19,82,,82,76,6,14,7,9,0.5,0.6
2025-02-21T0000,3709A,130.9967,45.3106,鸡西市,市政设施管理处,,22,22,25,12,18,62,,77,62,11,15,3,5,0.4,0.4
2025-02-21T0000,2367A,114.9754,27.0803,吉安市,红声器材厂,,19,19,24,9,11,56,,40,40,15,21,11,12,0.6,0.6
2025-02-21T0000,2368A,114.9658,27.0999,吉安市,市森林工业局,,18,16,18,12,11,56,,42,42,14,23,14,13,0.3,0.4
2025-02-21T0000,2369A,114.99,27.1312,吉安市,市环境监测站,,19,19,26,8,17,58,,39,39,19,22,12,14,0.4,0.5
2025-02-21T0000,2370A,115.0093,27.0968,吉安市,青原区法院,,26,20,21,18,14,41,,40,40,37,28,8,6,0.4,0.5
2025-02-21T0000,1772A,126.54,43.8622,吉林市,哈达湾,,36,31,31,25,22,63,,78,66,16,16,10,10,0.5,0.5
2025-02-21T0000,1773A,126.5844,43.8358,吉林市,东局子,,49,49,41,28,25,43,,74,53,26,21,7,8,0.6,0.5
2025-02-21T0000,1774A,126.5052,43.8245,吉林市,电力学院,细颗粒物(PM2.5),55,56,38,39,30,31,,77,59,32,20,5,5,0.9,0.6
2025-02-21T0000,1775A,126.6133,43.8972,吉林市,江北,,45,40,49,31,33,55,,74,54,16,26,5,7,0.8,0.8
2025-02-21T0000,1776A,126.555,43.8306,吉林市,江南公园,细颗粒物(PM2.5),57,52,32,40,27,35,,73,60,35,24,4,5,0.6,0.7
2025-02-21T0000,1778A,126.7061,43.7133,吉林市,丰满,,30,26,26,21,21,59,,80,68,9,9,6,7,0.7,0.7
2025-02-21T0000,2868A,126.4739,43.953,吉林市,九站,,33,31,38,23,29,43,,78,55,35,29,7,12,0.6,0.6
2025-02-21T0000,1299A,116.9862,36.6114,济南市,科干所,细颗粒物(PM2.5),85,100,86,63,51,39,,86,67,57,44,14,12,0.6,0.6
2025-02-21T0000,1300A,116.9376,36.665,济南市,农科所,细颗粒物(PM2.5),80,105,100,59,51,40,,81,66,49,55,17,15,1.0,1
2025-02-21T0000,1301A,117.1265,36.6734,济南市,开发区,细颗粒物(PM2.5),95,107,80,71,49,33,,84,68,55,47,19,13,0.8,0.7
2025-02-21T0000,1303A,117.0624,36.6868,济南市,省种子仓库,"颗粒物(PM10),细颗粒物(PM2.5)",85,119,97,63,54,38,,84,69,41,46,18,13,0.8,0.8
2025-02-21T0000,1304A,116.9489,36.6447,济南市,机床二厂,细颗粒物(PM2.5),85,110,102,63,59,43,,83,65,55,60,19,20,1.0,1
2025-02-21T0000,1305A,117.0495,36.663,济南市,市监测站,细颗粒物(PM2.5),89,110,89,66,48,39,,81,67,49,57,20,16,0.7,0.7
2025-02-21T0000,1306A,116.7675,36.5484,济南市,长清党校,细颗粒物(PM2.5),98,105,103,73,61,21,,91,71,70,54,7,13,0.8,0.8
2025-02-21T0000,1616A,117.6795,36.229,济南市,技术学院,细颗粒物(PM2.5),138,149,86,105,62,6,,79,48,80,43,16,16,1.4,1.4
2025-02-21T0000,1961A,117.532,36.6868,济南市,东山小学,细颗粒物(PM2.5),80,105,75,59,38,30,,100,68,58,43,14,12,0.9,0.8
2025-02-21T0000,3059A,117.7161,36.2049,济南市,泰兴公司,细颗粒物(PM2.5),113,119,90,85,57,8,,82,44,77,46,12,14,1.0,0.9
2025-02-21T0000,3064A,117.6867,36.2171,济南市,莱芜战役纪念馆,细颗粒物(PM2.5),125,141,95,95,60,10,,80,51,82,44,12,14,1.3,1.5
2025-02-21T0000,3494A,117.1673,36.9782,济南市,济阳区政府,,46,46,76,32,43,60,,84,66,18,34,15,24,0.5,0.6
2025-02-21T0000,3495A,117.1171,36.63,济南市,锦屏中学,细颗粒物(PM2.5),64,71,68,46,42,38,,70,56,32,30,7,9,0.9,0.9
2025-02-21T0000,3682A,116.9814,36.6819,济南市,济南四建,细颗粒物(PM2.5),92,102,92,68,53,28,,78,61,59,60,17,17,0.6,0.6
2025-02-21T0000,1653A,116.6251,35.4302,济宁市,火炬城,细颗粒物(PM2.5),70,86,64,51,31,28,,71,47,42,27,13,12,0.8,0.7
2025-02-21T0000,1655A,116.5491,35.4042,济宁市,电化厂,细颗粒物(PM2.5),98,124,89,73,54,22,,70,33,49,24,25,15,0.9,0.8
2025-02-21T0000,3500A,116.5814,35.3707,济宁市,北湖一中,细颗粒物(PM2.5),85,90,61,63,45,23,,70,40,50,32,9,8,1.1,0.9
2025-02-21T0000,3501A,116.8249,35.5593,济宁市,服务中心,细颗粒物(PM2.5),82,91,75,60,41,34,,72,50,40,27,12,8,0.8,0.7
2025-02-21T0000,3678A,116.5907,35.4054,济宁市,市第七中学,细颗粒物(PM2.5),92,78,62,68,47,44,,72,51,36,27,13,8,0.6,0.6
2025-02-21T0000,2255A,130.2751,46.8028,佳木斯市,佳纺,细颗粒物(PM2.5),59,55,42,42,32,41,,78,49,32,25,9,6,0.8,0.7
2025-02-21T0000,2256A,130.3995,46.8307,佳木斯市,发电厂,细颗粒物(PM2.5),60,48,32,43,28,48,,75,58,32,20,5,6,0.5,0.4
2025-02-21T0000,2257A,130.3258,46.7975,佳木斯市,环保局,颗粒物(PM10),52,54,33,35,24,30,,72,48,33,20,12,8,0.8,0.5
2025-02-21T0000,2258A,130.3648,46.8032,佳木斯市,十一中,"颗粒物(PM10),细颗粒物(PM2.5)",52,54,36,36,27,38,,64,46,40,27,14,6,0.4,0.4
2025-02-21T0000,2259A,130.3794,46.7588,佳木斯市,四丰,,26,23,32,18,17,63,,78,74,14,7,1,1,0.5,0.5
2025-02-21T0000,1252A,120.7436,30.778,嘉兴市,清河小学,,24,24,33,14,21,59,,78,70,21,18,4,4,0.5,0.5
2025-02-21T0000,1253A,120.726,30.7478,嘉兴市,嘉兴学院,,28,28,41,13,22,72,,78,73,12,15,6,6,0.4,0.5
2025-02-21T0000,2872A,120.7846,30.7525,嘉兴市,南湖区残联,,31,31,46,8,19,71,,81,74,11,13,7,8,0.3,0.4
2025-02-21T0000,3407A,120.6916,30.7739,嘉兴市,秀洲住建,,23,20,32,16,23,64,,80,74,18,17,5,5,0.3,0.2
2025-02-21T0000,1945A,98.2908,39.7711,嘉峪关市,气象局,颗粒物(PM10),71,92,87,29,29,74,,100,91,16,17,15,7,0.4,0.4
2025-02-21T0000,2884A,98.2672,39.7978,嘉峪关市,酒钢宾馆,颗粒物(PM10),65,80,93,29,30,82,,97,89,11,15,2,8,0.3,0.6
2025-02-21T0000,3248A,98.2643,39.7724,嘉峪关市,雄关区,颗粒物(PM10),64,77,76,35,28,80,,102,94,14,21,18,14,0.4,0.5
2025-02-21T0000,1383A,113.1064,22.6058,江门市,北街,,38,29,41,26,18,77,,115,94,16,18,3,4,0.6,0.6
2025-02-21T0000,1384A,113.0731,22.5835,江门市,西区,,29,25,38,20,21,87,,122,104,18,20,5,6,0.4,0.4
2025-02-21T0000,1385A,113.0219,22.5311,江门市,圭峰西,,26,,39,18,22,82,,111,96,14,17,5,6,0.7,0.7
2025-02-21T0000,1386A,113.0828,22.5947,江门市,东湖,,32,32,35,17,22,86,,122,105,16,19,8,8,0.4,0.4
2025-02-21T0000,3311A,113.1075,22.5647,江门市,江海富民,,40,40,48,28,26,82,,117,101,16,18,6,7,0.4,0.4
2025-02-21T0000,3449A,113.05,22.4667,江门市,新会银湖,,30,27,36,21,24,70,,116,95,20,19,6,8,0.6,0.6
2025-02-21T0000,1830A,113.1992,35.2590,焦作市,影视城,细颗粒物(PM2.5),88,72,71,65,56,35,,64,32,14,19,11,13,0.5,0.7
2025-02-21T0000,3169A,113.2725,35.2067,焦作市,太极体育中心,颗粒物(PM10),65,79,76,40,47,55,,64,,17,19,4,8,0.4,0.6
2025-02-21T0000,3335A,113.3137,35.2641,焦作市,马村街道办,颗粒物(PM10),57,64,74,39,51,65,,62,60,15,21,5,8,0.5,0.6
2025-02-21T0000,3336A,113.2465,35.2373,焦作市,焦作技师学院,颗粒物(PM10),55,60,74,36,45,57,,60,56,15,19,3,7,0.9,0.9
2025-02-21T0000,3477A,113.1656,35.2539,焦作市,中站许衡医院,细颗粒物(PM2.5),82,80,78,60,52,37,,59,43,24,24,5,8,0.8,0.8
2025-02-21T0000,3981A,113.2449,35.1803,焦作市,原李万街道办,颗粒物(PM10),66,81,85,46,47,70,,66,58,14,20,5,10,0.4,0.6
2025-02-21T0000,4264A,113.2340,35.2190,焦作市,新安路1731号,细颗粒物(PM2.5),75,81,84,55,52,51,,66,58,19,19,3,7,0.7,0.8
2025-02-21T0000,1708A,116.3701,23.5345,揭阳市,新兴,,45,,40,31,32,82,,116,98,19,23,6,7,0.5,0.6
2025-02-21T0000,1709A,116.3264,23.5443,揭阳市,西马,,35,32,45,24,29,90,,125,107,12,19,9,9,0.5,0.5
2025-02-21T0000,1710A,116.3611,23.5626,揭阳市,东兴,,38,32,45,26,27,89,,120,104,12,18,6,7,0.7,0.8
2025-02-21T0000,1711A,116.4151,23.5294,揭阳市,渔湖,,29,29,42,16,21,84,,124,106,18,22,7,8,0.6,0.6
2025-02-21T0000,3320A,116.403,23.5699,揭阳市,曲溪,,29,29,45,19,27,90,,126,109,19,26,6,7,0.4,0.5
2025-02-21T0000,1944A,102.1692,38.5167,金昌市,天庆家园,细颗粒物(PM2.5),129,117,72,98,45,58,,104,82,29,17,15,16,1.2,0.9
2025-02-21T0000,4022A,102.1647,38.5371,金昌市,金川区人防中心,颗粒物(PM10),75,100,83,52,39,58,,99,83,10,10,8,13,0.9,0.6
2025-02-21T0000,4239A,102.1930,38.5319,金昌市,长春路96号,细颗粒物(PM2.5),149,,74,114,77,64,,98,86,14,16,3,18,0.9,0.7
2025-02-21T0000,1262A,119.647,29.077,金华市,十五中,,22,8,23,3,16,68,,72,68,19,28,4,4,0.3,0.4
2025-02-21T0000,1263A,119.686,29.1029,金华市,监测站,,20,,27,11,21,62,,69,67,19,25,4,4,0.4,0.4
2025-02-21T0000,3659A,119.656,29.1131,金华市,气象局,,18,11,25,9,18,55,,69,60,32,33,4,4,0.4,0.4
2025-02-21T0000,1767A,121.1115,41.0879,锦州市,南山,细颗粒物(PM2.5),64,62,39,46,32,32,,78,48,44,26,24,14,1.0,0.6
2025-02-21T0000,1768A,121.0533,40.8434,锦州市,开发区,细颗粒物(PM2.5),84,84,61,62,25,6,,72,34,78,44,22,21,1.3,1
2025-02-21T0000,1769A,121.1836,41.1119,锦州市,百股街道,细颗粒物(PM2.5),83,61,40,61,23,15,,76,43,47,22,14,12,1.3,0.8
2025-02-21T0000,1770A,121.1178,41.1222,锦州市,天安街道,,40,39,30,28,16,47,,70,52,22,15,16,12,0.7,0.5
2025-02-21T0000,1771A,121.1303,41.1386,锦州市,北湖公园,,43,43,32,25,18,43,,76,53,23,14,23,13,0.6,0.5
2025-02-21T0000,2160A,112.85,35.5051,晋城市,自来水公司,细颗粒物(PM2.5),89,,67,66,47,43,,72,46,26,21,6,7,0.6,0.5
2025-02-21T0000,2161A,112.8318,35.4936,晋城市,白云商贸,细颗粒物(PM2.5),73,81,78,53,44,41,,77,45,26,21,4,5,1.0,0.9
2025-02-21T0000,2162A,112.8508,35.4887,晋城市,市环保局,细颗粒物(PM2.5),79,81,77,58,45,42,,71,43,22,20,5,6,0.6,0.6
2025-02-21T0000,2163A,112.8676,35.4897,晋城市,技术学院,细颗粒物(PM2.5),79,72,76,58,39,48,,71,46,23,22,4,6,0.8,0.7
2025-02-21T0000,2165A,112.8453,35.546,晋城市,白马寺,,,,,,,,,,,,,,,,
2025-02-21T0000,3620A,112.8271,35.4828,晋城市,泽州一中,细颗粒物(PM2.5),92,81,71,68,45,39,,73,,26,23,4,5,0.8,0.6
2025-02-21T0000,2173A,112.7249,37.7067,晋中市,南都小区,颗粒物(PM10),73,96,88,48,50,32,,87,68,49,32,11,10,0.5,0.4
2025-02-21T0000,2174A,112.6991,37.6982,晋中市,榆次区政府,颗粒物(PM10),74,97,87,49,46,29,,82,64,48,29,10,9,0.5,0.5
2025-02-21T0000,2865A,112.7195,37.6828,晋中市,榆次三中,颗粒物(PM10),75,100,94,46,50,46,,85,67,37,32,8,9,0.5,0.6
2025-02-21T0000,4200A,112.7478,37.6954,晋中市,迎宾街26号,颗粒物(PM10),75,100,93,51,50,46,,88,72,38,30,4,6,0.6,0.7
2025-02-21T0000,2439A,112.2014,31.0481,荆门市,竹园小学,细颗粒物(PM2.5),114,112,118,86,80,49,,74,62,21,23,4,6,0.8,0.8
2025-02-21T0000,2440A,112.1969,30.9891,荆门市,掇刀,细颗粒物(PM2.5),110,111,117,83,78,53,,79,64,20,20,10,10,0.6,0.7
2025-02-21T0000,2441A,112.2213,31.0386,荆门市,石化一小,细颗粒物(PM2.5),113,111,115,85,74,49,,79,60,24,23,5,10,0.7,0.7
2025-02-21T0000,3012A,112.1849,31.0362,荆门市,西山林语,细颗粒物(PM2.5),110,107,109,83,77,58,,83,71,17,19,3,5,0.4,0.4
2025-02-21T0000,3547A,112.1632,31.0138,荆门市,龙泉中学南校,细颗粒物(PM2.5),109,110,121,82,83,60,,81,70,11,15,6,9,0.8,0.8
2025-02-21T0000,1844A,112.2494,30.3197,荆州市,市图书馆,细颗粒物(PM2.5),118,,96,89,92,43,,69,57,27,27,5,7,0.7,0.8
2025-02-21T0000,1845A,112.2008,30.3544,荆州市,市委党校,细颗粒物(PM2.5),117,96,106,88,88,46,,75,62,29,28,6,8,0.7,0.8
2025-02-21T0000,3194A,112.2747,30.3122,荆州市,管委会,细颗粒物(PM2.5),120,,104,91,93,50,,71,62,22,25,7,9,0.6,0.7
2025-02-21T0000,4268A,112.1722,30.3366,荆州市,学苑路85号,细颗粒物(PM2.5),114,96,105,86,89,38,,75,59,34,27,10,10,0.7,0.8
2025-02-21T0000,2342A,117.3102,29.3867,景德镇市,王港中学,,,,,,,,,,,,,,,,
2025-02-21T0000,2343A,117.2117,29.2933,景德镇市,老干部活动中心,,22,14,13,3,12,70,,66,66,7,10,3,4,0.3,0.4
2025-02-21T0000,2344A,117.1894,29.2789,景德镇市,兽医站,,22,10,22,3,8,70,,66,66,6,10,3,3,0.4,0.4
2025-02-21T0000,2345A,117.1547,29.2617,景德镇市,台达陶瓷,,21,9,16,6,10,67,,62,62,8,13,2,7,0.4,0.4
2025-02-21T0000,2346A,117.2461,29.2956,景德镇市,陶研所,,20,,11,3,12,62,,57,57,9,13,4,4,0.3,0.3
2025-02-21T0000,1803A,115.9872,29.6815,九江市,十里,,42,34,47,29,33,53,,63,56,18,20,14,15,0.6,0.4
2025-02-21T0000,1804A,115.9584,29.7046,九江市,茅山头,,,,17,,14,,,,,,26,,13,,0.4
2025-02-21T0000,1805A,115.9877,29.7295,九江市,西园,,35,,42,24,33,56,,66,60,21,24,9,10,1.1,1
2025-02-21T0000,1808A,115.9114,29.6038,九江市,综合工业园,,45,,48,31,42,58,,62,59,23,37,4,4,0.7,0.8
2025-02-21T0000,1809A,116.0721,29.7535,九江市,石化总厂,细颗粒物(PM2.5),67,,53,48,49,56,,62,60,21,24,10,11,0.8,0.8
2025-02-21T0000,1810A,115.9773,29.5698,九江市,庐山气象台,,26,8,20,7,17,83,,100,70,5,6,14,12,0.6,0.9
2025-02-21T0000,3190A,116.0254,29.6994,九江市,外国语学校,,44,44,46,26,35,61,,73,64,24,26,4,6,0.8,0.8
2025-02-21T0000,4253A,116.0102,29.6594,九江市,莲花大道8号,细颗粒物(PM2.5),55,41,46,39,43,48,,64,52,12,13,5,6,0.5,0.4
2025-02-21T0000,2658A,98.5061,39.7443,酒泉市,仓门街子站,颗粒物(PM10),62,73,92,41,30,83,,94,87,6,11,38,20,0.4,0.4
2025-02-21T0000,4240A,98.4958,39.7339,酒泉市,玉门东路5号,颗粒物(PM10),65,80,98,37,38,80,,92,86,5,11,35,16,0.3,0.4
2025-02-21T0000,2698A,76.0072,39.4467,喀什地区,巡警大队,颗粒物(PM10),229,370,336,133,91,8,,78,59,106,48,27,10,4.0,1.6
2025-02-21T0000,2699A,75.9755,39.4694,喀什地区,吾办,颗粒物(PM10),191,331,328,123,100,11,,73,54,87,48,16,10,1.8,1.3
2025-02-21T0000,4027A,75.9483,39.4689,喀什地区,老干局,颗粒物(PM10),208,355,349,88,70,14,,78,55,83,41,21,10,2.8,1.6
2025-02-21T0000,1824A,114.3389,34.7781,开封市,肿瘤医院,细颗粒物(PM2.5),94,,61,70,49,40,,60,55,22,18,5,8,0.9,0.8
2025-02-21T0000,1826A,114.2885,34.7965,开封市,世纪星幼儿园,细颗粒物(PM2.5),98,,61,73,54,34,,65,59,30,26,5,7,0.7,0.8
2025-02-21T0000,3147A,114.3438,34.8106,开封市,龙亭公园,细颗粒物(PM2.5),85,,58,63,53,33,,56,51,28,23,1,4,0.5,0.4
2025-02-21T0000,3210A,114.3644,34.7964,开封市,汴京公园,细颗粒物(PM2.5),85,,63,63,53,51,,58,54,16,20,4,7,1.1,1
2025-02-21T0000,3473A,114.2485,34.8306,开封市,技师学院,细颗粒物(PM2.5),83,72,72,61,48,7,,52,,63,31,4,6,0.7,0.8
2025-02-21T0000,3592A,114.4644,34.7556,开封市,祥符区生态环境局,细颗粒物(PM2.5),73,61,82,53,60,38,,47,44,35,30,3,8,0.9,1.2
2025-02-21T0000,1951A,84.895,45.6094,克拉玛依市,长征新村,细颗粒物(PM2.5),77,70,50,56,31,78,,89,87,25,28,6,6,0.7,0.7
2025-02-21T0000,1952A,84.8988,45.5893,克拉玛依市,南林小区,细颗粒物(PM2.5),70,66,50,51,35,83,,100,98,24,20,2,3,0.8,0.8
2025-02-21T0000,1954A,84.905,44.3396,克拉玛依市,独山子区,细颗粒物(PM2.5),74,,78,54,78,88,,111,98,33,35,4,4,0.6,0.9
2025-02-21T0000,1955A,85.6979,46.098,克拉玛依市,乌尔禾区商贸楼,颗粒物(PM10),51,51,53,23,39,58,,101,93,42,32,5,6,0.7,1.1
2025-02-21T0000,3612A,85.1045,45.6899,克拉玛依市,白碱滩区新站,细颗粒物(PM2.5),73,76,62,53,41,77,,98,93,18,26,5,6,1.2,1.2
2025-02-21T0000,2697A,76.1454,39.7142,克孜勒苏柯尔克孜自治州,市人民政府,颗粒物(PM10),172,294,307,76,83,52,,90,74,27,19,6,5,1.2,1.1
2025-02-21T0000,3665A,76.1658,39.7157,克孜勒苏柯尔克孜自治州,克州文化中心,,,,295,,73,30,,88,75,48,15,9,9,0.6,0.6
2025-02-21T0000,1450A,102.8204,24.8886,昆明市,呈贡新区,细颗粒物(PM2.5),64,66,51,46,38,73,,104,84,26,18,13,7,0.5,0.5
2025-02-21T0000,1451A,102.6251,24.9608,昆明市,西山森林公园,,,,,,,,,,,,,,,,
2025-02-21T0000,1452A,102.7252,25.0902,昆明市,龙泉镇,颗粒物(PM10),52,53,41,32,29,5,,112,78,87,25,8,7,0.6,0.5
2025-02-21T0000,1453A,102.7266,25.0375,昆明市,东风东路,,50,46,47,35,35,80,,107,95,17,16,7,9,0.6,0.7
2025-02-21T0000,1454A,102.6742,25.0669,昆明市,金鼎山,细颗粒物(PM2.5),89,,41,66,31,31,,105,83,55,18,6,6,0.7,0.5
2025-02-21T0000,1455A,102.6644,25.0401,昆明市,碧鸡广场,颗粒物(PM10),57,63,45,39,35,28,,108,77,65,24,8,9,0.6,0.6
2025-02-21T0000,3179A,102.7494,25.0119,昆明市,官渡区博物馆,颗粒物(PM10),51,52,46,32,34,67,,110,94,26,17,8,10,0.5,0.6
2025-02-21T0000,3375A,102.8017,24.8336,昆明市,青年创业园,颗粒物(PM10),55,59,48,38,35,83,,110,96,16,12,18,9,0.5,0.4
2025-02-21T0000,3550A,102.7997,24.9786,昆明市,昆明学院,,48,48,46,33,34,88,,112,100,16,16,6,6,0.5,0.6
2025-02-21T0000,3551A,102.5967,24.6736,昆明市,晋宁区生态环境分局,细颗粒物(PM2.5),67,79,53,48,37,76,,106,90,13,10,6,6,0.7,0.7
2025-02-21T0000,3552A,102.6678,24.9856,昆明市,云天化总部,,43,41,42,30,32,64,,118,104,31,13,7,9,0.4,0.4
2025-02-21T0000,1456A,91.1319,29.6514,拉萨市,八廓街,,29,27,16,17,9,91,,113,99,18,10,7,6,0.5,0.4
2025-02-21T0000,1457A,91.1221,29.6747,拉萨市,市环保局,,29,29,16,15,9,72,,107,91,26,15,7,5,0.7,0.5
2025-02-21T0000,1458A,91.0874,29.6475,拉萨市,区监测站,,26,20,11,14,7,83,,107,94,25,12,6,6,0.5,0.4
2025-02-21T0000,1459A,91.1774,29.6541,拉萨市,西藏大学,,27,20,14,10,7,86,,107,98,15,10,5,5,0.4,0.5
2025-02-21T0000,1460A,90.9798,29.6588,拉萨市,区辐射站,,35,35,18,22,10,56,,107,91,40,17,8,7,0.5,0.3
2025-02-21T0000,1461A,91.0834,29.6292,拉萨市,拉萨火车站,,23,20,11,10,7,51,,109,95,45,10,4,4,0.6,0.3
2025-02-21T0000,2520A,109.2203,23.7256,来宾市,来宾技工学校,,15,10,33,10,19,27,,27,27,13,15,6,6,0.9,1.1
2025-02-21T0000,3535A,109.1781,23.7297,来宾市,兴宾区政府,,10,10,28,7,19,32,,31,31,11,14,5,5,1.0,1
2025-02-21T0000,4002A,109.2416,23.7461,来宾市,中南小学,,16,13,32,11,19,26,,28,27,14,14,5,7,1.0,1.1
2025-02-21T0000,1477A,104.1373,35.9454,兰州市,榆中兰大校区,,,,,,,,,,,,,,,,
2025-02-21T0000,1479A,103.831,36.0464,兰州市,铁路设计院,细颗粒物(PM2.5),73,61,74,53,54,61,,82,65,35,41,6,8,0.6,0.8
2025-02-21T0000,3241A,103.7439,36.0842,兰州市,百合公园,细颗粒物(PM2.5),63,55,69,45,42,73,,98,74,14,20,7,8,0.7,0.5
2025-02-21T0000,3242A,103.9611,35.998,兰州市,和平,细颗粒物(PM2.5),69,77,89,50,53,46,,87,68,38,36,9,14,0.7,0.9
2025-02-21T0000,4236A,103.6293,36.0938,兰州市,庄浪东路808号,细颗粒物(PM2.5),65,78,72,47,48,34,,111,75,64,30,6,9,0.8,0.6
2025-02-21T0000,4237A,103.7251,36.1043,兰州市,安宁西路88号,细颗粒物(PM2.5),64,73,75,46,47,82,,116,96,19,24,15,17,0.7,0.6
2025-02-21T0000,4238A,103.8470,36.0676,兰州市,北滨河东路1号,细颗粒物(PM2.5),67,59,68,48,48,70,,95,77,27,31,9,10,0.8,0.7
2025-02-21T0000,3245A,103.6633,36.533,兰州新区,新区管委会,颗粒物(PM10),68,86,65,42,43,82,,114,103,15,14,22,20,0.6,0.4
2025-02-21T0000,3246A,103.6975,36.4789,兰州新区,舟曲中学,细颗粒物(PM2.5),84,103,73,62,42,79,,108,98,26,16,24,22,0.6,0.5
2025-02-21T0000,1067A,116.6708,39.5111,廊坊市,药材公司,,20,20,44,3,28,59,,71,52,20,31,9,8,0.4,0.8
2025-02-21T0000,1068A,116.7214,39.5589,廊坊市,开发区,,17,,40,10,29,52,,72,53,25,36,16,9,0.3,0.7
2025-02-21T0000,1070A,116.7244,39.5269,廊坊市,北华航天学院,,21,21,39,3,26,50,,74,55,39,42,7,7,0.3,0.7
2025-02-21T0000,2919A,116.7022,39.5453,廊坊市,河北工业大学,,22,22,42,11,26,54,,70,54,20,30,16,9,0.3,0.7
2025-02-21T0000,2535A,103.7723,29.5462,乐山市,花湖湾,,45,44,47,31,37,47,,57,50,13,17,6,14,0.5,0.5
2025-02-21T0000,2536A,103.7627,29.5844,乐山市,牛耳桥,细颗粒物(PM2.5),55,47,55,39,47,37,,48,38,17,24,6,6,0.5,0.5
2025-02-21T0000,2537A,103.7508,29.6006,乐山市,市第三水厂,,49,43,43,34,34,32,,56,43,14,15,3,3,0.5,0.5
2025-02-21T0000,2538A,103.7571,29.5664,乐山市,市监测站,,38,34,39,26,31,41,,52,43,12,17,4,4,0.6,0.6
2025-02-21T0000,3361A,103.7311,29.5628,乐山市,理工大学,,45,35,42,31,36,23,,54,31,21,20,4,5,0.5,0.5
2025-02-21T0000,2598A,100.2143,26.8576,丽江市,西南郊,,30,20,22,17,12,93,,100,95,2,3,4,4,0.5,0.5
2025-02-21T0000,2599A,100.2497,26.8802,丽江市,丽江古城,,26,24,17,18,12,78,,92,84,8,10,7,8,0.6,0.6
2025-02-21T0000,2600A,100.2203,26.8906,丽江市,市中心,,23,16,12,13,9,73,,89,81,11,11,7,7,0.6,0.5
2025-02-21T0000,1267A,119.914,28.4514,丽水市,监测站大楼,,21,6,13,3,10,65,,64,59,11,16,3,3,0.1,0.3
2025-02-21T0000,1268A,119.93,28.4586,丽水市,莲都小学,,21,6,13,3,12,67,,67,62,12,16,5,5,0.3,0.3
2025-02-21T0000,1269A,119.879,28.4231,丽水市,余庄前,,18,6,14,3,10,57,,66,60,14,16,4,4,0.4,0.4
2025-02-21T0000,1173A,119.176,34.5885,连云港市,市环境监测站,,29,29,33,17,18,81,,86,84,11,12,7,8,0.4,0.4
2025-02-21T0000,3000A,119.3581,34.6972,连云港市,德源药业,颗粒物(PM10),51,51,43,22,22,49,,75,56,37,29,5,6,0.4,0.5
2025-02-21T0000,3007A,119.178,34.844,连云港市,新城一中,,45,45,44,30,29,59,,80,62,31,34,9,9,0.4,0.3
2025-02-21T0000,3008A,119.3608,34.7519,连云港市,胡沟管理处,,28,24,28,17,17,87,,79,76,16,31,7,8,1.2,0.9
2025-02-21T0000,3009A,119.1478,34.5911,连云港市,矿山设计院,,35,31,35,24,19,81,,90,88,14,14,4,4,0.3,0.5
2025-02-21T0000,3434A,119.2413,34.6539,连云港市,工贸学校,,37,37,38,23,22,88,,90,90,10,13,8,9,0.5,0.5
2025-02-21T0000,3664A,119.4172,34.7341,连云港市,连云街道,,33,33,35,17,20,86,,92,92,17,24,9,9,1.0,0.5
2025-02-21T0000,2571A,102.3431,27.8099,凉山彝族自治州,青龙寺,,34,34,24,9,7,53,,104,88,24,7,4,4,0.9,0.9
2025-02-21T0000,2572A,102.2721,27.8415,凉山彝族自治州,邛海宾馆,,30,30,29,18,17,73,,106,96,19,12,7,11,0.6,0.7
2025-02-21T0000,2573A,102.2625,27.898,凉山彝族自治州,西昌市政府,,30,30,40,19,22,82,,99,94,6,9,5,12,0.5,0.8
2025-02-21T0000,2574A,102.2685,27.8851,凉山彝族自治州,凉山州政府,,35,35,31,19,17,77,,104,97,12,13,12,14,0.3,0.5
2025-02-21T0000,2575A,102.237,27.8914,凉山彝族自治州,长安,,41,41,33,22,20,78,,107,102,13,15,7,12,0.6,0.8
2025-02-21T0000,2212A,123.2,41.1953,辽阳市,宏伟区,,38,27,37,26,22,50,,82,67,18,13,13,11,0.7,0.6
2025-02-21T0000,2213A,123.1683,41.2495,辽阳市,新华园,细颗粒物(PM2.5),99,92,42,74,29,7,,72,48,69,26,17,12,2.2,0.9
2025-02-21T0000,2214A,123.2354,41.2639,辽阳市,滨河路,细颗粒物(PM2.5),59,47,37,42,26,33,,78,57,34,20,7,6,0.6,0.6
2025-02-21T0000,2215A,123.149,41.2991,辽阳市,铁西工业园,细颗粒物(PM2.5),92,72,53,68,36,11,,74,41,44,25,10,9,1.3,0.8
2025-02-21T0000,2227A,125.1358,42.8845,辽源市,环保局,颗粒物(PM10),94,138,100,67,37,8,,79,39,71,41,4,10,1.6,1.3
2025-02-21T0000,3239A,125.0764,42.9078,辽源市,银鹰制药,细颗粒物(PM2.5),65,72,68,47,47,13,,81,38,50,32,4,5,1.1,0.7
2025-02-21T0000,1625A,115.9848,36.4372,聊城市,区政府,细颗粒物(PM2.5),97,106,78,72,51,45,,81,58,32,30,15,17,0.9,0.8
2025-02-21T0000,2878A,116.0072,36.4343,聊城市,聊大东校,细颗粒物(PM2.5),112,107,84,84,56,44,,79,59,30,29,11,13,0.8,0.8
2025-02-21T0000,3200A,115.9819,36.4978,聊城市,监控中心,细颗粒物(PM2.5),156,153,92,119,59,33,,83,53,43,38,16,17,1.1,0.9
2025-02-21T0000,3513A,116.0445,36.4361,聊城市,九州社区,细颗粒物(PM2.5),87,88,82,64,53,56,,86,67,30,33,12,15,0.7,0.8
2025-02-21T0000,4018A,116.0567,36.4608,聊城市,星美广场,细颗粒物(PM2.5),77,83,80,56,52,59,,85,69,20,27,16,20,0.9,0.9
2025-02-21T0000,2632A,94.3681,29.6376,林芝市,林芝监测站,,,8,7,6,5,73,,101,81,2,2,,6,0.6,0.5
2025-02-21T0000,2633A,94.3616,29.6616,林芝市,林芝人民医院,,31,10,9,6,6,98,,98,97,2,3,6,6,0.5,0.5
2025-02-21T0000,2603A,100.0781,23.8982,临沧市,市环保局,细颗粒物(PM2.5),70,70,60,51,40,61,,110,90,18,13,11,10,0.5,0.5
2025-02-21T0000,2604A,100.0894,23.8822,临沧市,市气象局,细颗粒物(PM2.5),64,62,53,46,38,58,,112,,19,14,10,10,0.5,0.5
2025-02-21T0000,1733A,111.5531,36.0783,临汾市,临钢医院,细颗粒物(PM2.5),105,103,84,79,52,30,,73,51,29,19,8,5,1.2,0.9
2025-02-21T0000,1734A,111.5028,36.0714,临汾市,技工学校,细颗粒物(PM2.5),123,112,81,93,63,23,,71,47,37,19,10,7,1.0,0.7
2025-02-21T0000,1736A,111.5018,36.0855,临汾市,市委,细颗粒物(PM2.5),119,116,85,90,58,24,,77,51,40,22,9,6,1.0,0.7
2025-02-21T0000,3018A,111.505,36.1014,临汾市,唐尧大酒店,细颗粒物(PM2.5),124,134,86,94,62,22,,76,51,39,19,11,6,1.4,0.8
2025-02-21T0000,4244A,111.4879,36.0530,临汾市,启星学校,细颗粒物(PM2.5),123,105,77,93,63,18,,72,44,40,20,3,3,0.8,0.6
2025-02-21T0000,2667A,103.2069,35.5993,临夏回族自治州,环保局,,,,79,,30,,,74,,,14,,6,,0.6
2025-02-21T0000,4271A,103.2464,35.6123,临夏回族自治州,滨河东路1号,颗粒物(PM10),86,122,69,42,29,13,,87,59,40,14,3,4,2.0,0.8
2025-02-21T0000,1618A,118.3429,35.0532,临沂市,沂河小区,细颗粒物(PM2.5),62,63,57,44,36,65,,72,67,16,21,10,12,0.5,0.6
2025-02-21T0000,1619A,118.295,35.0583,临沂市,鲁南制药厂,颗粒物(PM10),64,78,57,38,32,61,,63,56,29,34,8,11,0.5,0.6
2025-02-21T0000,1620A,118.2794,34.9976,临沂市,新光毛纺厂,细颗粒物(PM2.5),53,48,50,37,34,53,,72,60,38,25,10,10,0.6,0.6
2025-02-21T0000,1621A,118.3956,35.0888,临沂市,河东保险公司,细颗粒物(PM2.5),73,66,59,53,36,41,,78,52,44,32,7,8,0.6,0.6
2025-02-21T0000,3370A,118.3564,35.0215,临沂市,十里堡居委,细颗粒物(PM2.5),55,53,48,39,33,65,,75,68,18,22,9,10,0.5,0.5
2025-02-21T0000,3496A,118.3604,35.1084,临沂市,南坊新区,细颗粒物(PM2.5),62,66,55,44,35,52,,75,63,36,31,8,8,0.6,0.6
2025-02-21T0000,3860A,118.3920,35.0300,临沂市,皇山花园小区,细颗粒物(PM2.5),65,66,54,47,35,52,,76,64,35,29,7,8,0.8,0.8
2025-02-21T0000,1870A,109.4856,24.3895,柳州市,柳东小学,,12,8,13,6,10,24,,32,30,14,13,9,9,1.2,1.2
2025-02-21T0000,1871A,109.4157,24.3277,柳州市,环保监测站,,9,9,15,6,11,26,,30,29,14,18,9,9,0.8,0.8
2025-02-21T0000,1872A,109.389,24.341,柳州市,河西水厂,,10,10,20,7,12,17,,21,20,20,18,4,6,0.8,1
2025-02-21T0000,1873A,109.4311,24.2921,柳州市,市四中,,10,,15,7,10,29,,31,30,12,12,7,7,0.6,0.7
2025-02-21T0000,1874A,109.4006,24.3631,柳州市,市九中,,12,11,16,8,11,21,,28,26,16,17,5,6,0.9,0.9
2025-02-21T0000,1875A,109.4958,24.3134,柳州市,古亭山,,11,,15,3,10,35,,35,35,9,10,7,7,0.6,0.6
2025-02-21T0000,3402A,109.5422,24.3996,柳州市,市二中,,8,6,13,3,10,24,,31,30,16,14,8,8,0.5,0.6
2025-02-21T0000,2307A,116.5079,31.737,六安市,监测大楼,细颗粒物(PM2.5),63,49,67,45,52,56,,71,63,19,24,4,5,0.6,0.7
2025-02-21T0000,2308A,116.4738,31.7643,六安市,皖西学院,细颗粒物(PM2.5),68,65,80,49,52,55,,71,65,24,28,3,4,0.6,0.7
2025-02-21T0000,2309A,116.4996,31.7905,六安市,朝阳厂,,,58,67,46,52,,,67,60,23,32,2,4,0.6,0.7
2025-02-21T0000,2310A,116.5567,31.7886,六安市,开发区,细颗粒物(PM2.5),64,70,84,46,56,48,,75,61,20,25,3,4,0.5,0.6
2025-02-21T0000,2576A,104.8,26.5892,六盘水市,窑上,,39,37,37,27,20,11,,23,18,20,14,4,5,0.8,0.8
2025-02-21T0000,2577A,104.83,26.5917,六盘水市,黄土坡,,23,16,25,16,19,16,,22,18,23,19,11,11,0.8,0.8
2025-02-21T0000,2578A,104.89,26.5939,六盘水市,水钢,细颗粒物(PM2.5),75,63,37,55,32,20,,29,24,17,15,8,9,0.5,0.6
2025-02-21T0000,2579A,104.8475,26.5894,六盘水市,民中,,25,17,23,17,15,14,,20,18,24,20,11,10,0.8,0.8
2025-02-21T0000,2580A,104.9544,26.5506,六盘水市,双水,,12,12,16,7,10,24,,27,24,16,14,10,9,0.6,0.6
2025-02-21T0000,2335A,117.0189,25.1181,龙岩市,龙岩师专,,,,,,,,,,,,,,,,
2025-02-21T0000,2336A,117.0217,25.1033,龙岩市,龙岩市监测站,细颗粒物(PM2.5),54,,35,38,26,50,,73,57,20,19,13,10,0.5,0.6
2025-02-21T0000,2337A,117.0258,25.0661,龙岩市,闽西职业技术学院,细颗粒物(PM2.5),52,43,44,36,29,52,,70,58,17,19,11,8,0.6,0.6
2025-02-21T0000,2338A,117.0196,25.0306,龙岩市,龙岩学院,,49,,36,34,30,52,,74,58,11,12,3,4,0.5,0.5
2025-02-21T0000,2665A,105.0822,33.3261,陇南市,汉王镇固水子,,,,,,,,,,,,,,,,
2025-02-21T0000,2885A,104.9339,33.3826,陇南市,滨江中学,,45,34,38,31,25,39,,48,44,21,20,25,15,0.5,0.9
2025-02-21T0000,3247A,104.955,33.371,陇南市,市总工会,,43,42,36,30,22,43,,53,48,19,18,11,9,1.1,1
2025-02-21T0000,2487A,111.9589,27.8901,娄底市,电视发射台,细颗粒物(PM2.5),63,,30,45,31,82,,77,77,14,11,6,5,0.6,0.6
2025-02-21T0000,2488A,111.9975,27.725,娄底市,市监测站,细颗粒物(PM2.5),57,60,44,40,29,65,,59,59,21,31,7,8,0.7,0.7
2025-02-21T0000,2489A,112.0194,27.7314,娄底市,市委党校,细颗粒物(PM2.5),72,64,46,52,38,73,,69,69,18,20,3,3,0.6,0.6
2025-02-21T0000,2490A,111.9561,27.7569,娄底市,涟钢,细颗粒物(PM2.5),64,56,42,46,36,50,,64,63,14,13,6,7,0.7,0.6
2025-02-21T0000,2491A,111.9892,27.7044,娄底市,市政府,细颗粒物(PM2.5),80,,41,59,35,68,,65,65,19,20,6,5,0.6,0.7
2025-02-21T0000,1893A,105.4324,28.9634,泸州市,九狮山,,,,,,,,,,,,,,,,
2025-02-21T0000,1894A,105.4427,28.9063,泸州市,小市上码头,细颗粒物(PM2.5),78,95,86,57,52,18,,28,19,20,21,6,6,0.3,0.3
2025-02-21T0000,1895A,105.4241,28.8573,泸州市,兰田宪桥,细颗粒物(PM2.5),73,76,78,53,56,9,,28,18,30,22,4,4,0.6,0.6
2025-02-21T0000,1896A,105.4379,28.8833,泸州市,市环监站,细颗粒物(PM2.5),82,96,95,60,57,18,,30,18,22,23,5,5,0.4,0.4
2025-02-21T0000,3490A,105.3617,28.7703,泸州市,纳溪区环保局,,,,72,,70,,,26,,,13,,4,,0.7
2025-02-21T0000,2183A,111.1406,37.5211,吕梁市,环保局,颗粒物(PM10),75,99,88,53,61,3,,64,22,65,40,5,8,0.7,0.7
2025-02-21T0000,2185A,111.1297,37.5136,吕梁市,自来水公司,细颗粒物(PM2.5),65,74,82,47,58,18,,61,32,45,34,4,8,0.5,0.6
2025-02-21T0000,2867A,111.1283,37.51,吕梁市,马茂庄小学,颗粒物(PM10),72,94,95,47,56,7,,57,27,62,38,13,12,0.5,0.5
2025-02-21T0000,1812A,112.3931,34.6516,洛阳市,市委党校,细颗粒物(PM2.5),93,84,70,69,44,33,,63,52,25,23,3,6,0.6,0.5
2025-02-21T0000,1815A,112.494,34.6886,洛阳市,河南林校,细颗粒物(PM2.5),105,,60,79,53,25,,70,51,40,24,2,4,0.7,0.6
2025-02-21T0000,1816A,112.3844,34.623,洛阳市,开发区管委会,细颗粒物(PM2.5),102,97,76,76,55,47,,73,64,23,22,5,6,0.7,0.6
2025-02-21T0000,1817A,112.4267,34.6258,洛阳市,市委新办公区,细颗粒物(PM2.5),104,102,82,78,51,46,,75,61,26,24,3,19,1.3,0.8
2025-02-21T0000,3340A,112.6005,34.6326,洛阳市,伊滨,细颗粒物(PM2.5),123,107,79,93,62,43,,68,58,22,22,3,6,0.8,0.7
2025-02-21T0000,3341A,112.4951,34.6332,洛阳市,中移产业园,细颗粒物(PM2.5),128,,62,97,67,28,,67,56,38,27,2,5,0.8,0.8
2025-02-21T0000,3593A,112.5736,34.8993,洛阳市,吉利监测站,细颗粒物(PM2.5),107,,69,80,66,48,,64,51,18,26,5,7,0.5,0.5
2025-02-21T0000,3635A,112.3677,34.662,洛阳市,河科大西苑校区,细颗粒物(PM2.5),103,84,69,77,52,36,,70,54,29,22,5,7,0.8,0.7
2025-02-21T0000,3636A,112.4388,34.6781,洛阳市,英才小学,细颗粒物(PM2.5),92,79,68,68,44,34,,72,54,29,22,1,4,0.5,0.5
2025-02-21T0000,4214A,112.4600,34.6949,洛阳市,春都路1号院,细颗粒物(PM2.5),88,78,78,65,46,41,,74,56,30,25,6,8,0.8,0.7
2025-02-21T0000,2399A,114.051,33.5699,漯河市,三五一五工厂,细颗粒物(PM2.5),83,68,88,61,70,46,,49,38,15,21,3,4,0.6,0.6
2025-02-21T0000,2400A,114.0055,33.5698,漯河市,漯河大学,细颗粒物(PM2.5),83,63,85,61,64,48,,48,39,16,22,3,5,0.5,0.5
2025-02-21T0000,2401A,114.0138,33.5828,漯河市,市水利局,细颗粒物(PM2.5),83,66,86,61,67,46,,46,37,15,21,2,3,0.4,0.5
2025-02-21T0000,2402A,114.0261,33.5698,漯河市,市广电局,细颗粒物(PM2.5),82,68,83,60,61,45,,45,36,14,22,3,4,0.6,0.6
2025-02-21T0000,3478A,113.9749,33.5664,漯河市,市图书馆,细颗粒物(PM2.5),87,73,94,64,72,48,,45,38,15,21,1,3,0.6,0.6
2025-02-21T0000,4250A,114.0892,33.5882,漯河市,韶山路11号,细颗粒物(PM2.5),87,74,95,64,70,39,,50,35,19,22,3,6,0.5,0.7
2025-02-21T0000,1798A,118.5092,31.6837,马鞍山市,湖东路四小,,43,42,59,30,35,65,,82,74,20,25,8,8,0.4,0.5
2025-02-21T0000,1799A,118.5024,31.6449,马鞍山市,开发区,,49,45,62,34,43,61,,78,71,22,27,7,7,0.4,0.5
2025-02-21T0000,1802A,118.6245,31.7241,马鞍山市,濮塘,细颗粒物(PM2.5),53,45,56,37,41,61,,85,74,12,16,4,6,0.5,0.6
2025-02-21T0000,3633A,118.4918,31.6809,马鞍山市,雨山,,49,45,67,34,43,64,,81,72,16,20,5,6,0.6,0.7
2025-02-21T0000,4191A,118.5274,31.72227,马鞍山市,慈湖高新区,细颗粒物(PM2.5),64,52,64,46,49,52,,79,63,24,24,8,8,0.4,0.6
2025-02-21T0000,1686A,111.0286,21.4688,茂名市,电白南海,,46,46,49,17,20,90,,98,93,8,8,3,3,0.7,0.7
2025-02-21T0000,1687A,110.9294,21.6533,茂名市,茂石化七小,,44,44,42,19,21,83,,104,96,9,7,1,2,0.8,0.8
2025-02-21T0000,1688A,110.9107,21.6687,茂名市,健康路,,36,36,37,24,20,88,,105,97,8,8,3,3,0.8,0.8
2025-02-21T0000,1689A,110.8592,21.6828,茂名市,高岭,,46,46,49,14,18,82,,103,91,14,11,3,9,0.6,0.6
2025-02-21T0000,3450A,111.01,21.5165,茂名市,电白水东,,36,36,37,12,17,90,,95,94,3,6,2,3,0.6,0.8
2025-02-21T0000,2539A,104.0308,30.0478,眉山市,黑龙滩水库,细颗粒物(PM2.5),54,52,47,38,37,48,,54,50,5,11,3,3,0.5,0.5
2025-02-21T0000,2540A,103.8416,30.0874,眉山市,气象局,细颗粒物(PM2.5),62,58,51,44,44,10,,50,27,35,22,4,4,0.6,0.5
2025-02-21T0000,3137A,103.8578,30.0744,眉山市,市委党校,细颗粒物(PM2.5),62,46,47,44,38,18,,48,28,32,27,5,6,0.7,0.6
2025-02-21T0000,3148A,103.8291,30.0564,眉山市,区人社局,细颗粒物(PM2.5),62,47,42,44,40,17,,47,27,34,30,6,7,0.8,0.7
2025-02-21T0000,1690A,116.1231,24.3284,梅州市,梅江月梅,,40,35,37,28,28,103,,109,109,11,10,11,10,0.6,0.5
2025-02-21T0000,1691A,116.0797,24.2719,梅州市,梅县新城,,48,43,42,33,31,87,,110,100,22,20,6,6,0.6,0.6
2025-02-21T0000,1692A,116.1248,24.2654,梅州市,环境监控中心,,45,45,42,31,31,78,,104,93,25,23,6,7,0.7,0.6
2025-02-21T0000,3315A,116.1233,24.2991,梅州市,梅龙,,45,41,41,31,28,97,,108,106,22,19,11,8,0.6,0.6
2025-02-21T0000,1878A,104.7778,31.4741,绵阳市,富乐山,,36,30,39,25,33,32,,40,31,8,15,2,2,0.4,0.4
2025-02-21T0000,1880A,104.6697,31.4668,绵阳市,高新区自来水公司,,49,49,46,34,32,14,,43,30,33,27,3,3,0.6,0.6
2025-02-21T0000,1881A,104.7287,31.5075,绵阳市,三水厂,细颗粒物(PM2.5),60,57,49,43,39,2,,48,29,37,27,6,6,0.8,0.7
2025-02-21T0000,3491A,104.69,31.5322,绵阳市,西科大附属小学,细颗粒物(PM2.5),58,54,46,41,34,11,,46,28,36,27,6,6,0.5,0.4
2025-02-21T0000,3492A,104.5648,31.5343,绵阳市,安州区旅游局,细颗粒物(PM2.5),55,47,42,39,34,26,,41,32,21,20,13,12,0.7,0.7
2025-02-21T0000,4226A,104.7651,31.4531,绵阳市,绵阳市气象局,,33,32,47,23,32,35,,42,42,16,16,5,4,0.5,0.4
2025-02-21T0000,1784A,129.61,44.561,牡丹江市,环保大楼,,40,39,40,28,25,46,,77,54,22,17,6,6,0.5,0.5
2025-02-21T0000,1785A,129.6115,44.5782,牡丹江市,文化广场,细颗粒物(PM2.5),52,51,37,36,31,35,,81,58,40,23,11,8,0.8,0.6
2025-02-21T0000,1786A,129.5904,44.5963,牡丹江市,第一医院,,50,42,40,35,34,52,,78,63,17,19,6,7,0.8,0.7
2025-02-21T0000,1787A,129.6364,44.6075,牡丹江市,机车工厂,细颗粒物(PM2.5),57,49,56,40,31,42,,74,53,18,19,7,8,0.8,0.7
2025-02-21T0000,1788A,129.6386,44.5462,牡丹江市,第一中学,,28,28,30,19,23,50,,78,57,17,13,8,8,0.3,0.3
2025-02-21T0000,2531A,105.0703,29.61,内江市,市监测站,,,,45,54,47,18,,38,27,14,17,5,5,,0.6
2025-02-21T0000,2532A,105.0717,29.5947,内江市,东兴区政府,,,58,46,,44,12,,37,17,17,19,4,5,0.7,0.7
2025-02-21T0000,2533A,105.0653,29.5817,内江市,内江二中,细颗粒物(PM2.5),75,77,60,55,50,21,,38,30,18,20,6,6,0.8,0.7
2025-02-21T0000,2534A,105.0406,29.5822,内江市,内江日报社,细颗粒物(PM2.5),74,56,50,54,48,22,,36,28,19,22,6,6,0.6,0.5
2025-02-21T0000,2628A,92.0657,31.4846,那曲市,那曲监测站,,21,21,32,11,23,60,,78,69,12,13,6,10,0.5,0.8
2025-02-21T0000,3128A,92.0506,31.4797,那曲市,那曲会议中心,,27,27,28,10,14,84,,98,92,2,8,7,8,0.7,1
2025-02-21T0000,1290A,115.8931,28.6843,南昌市,省外办,细颗粒物(PM2.5),64,,44,46,36,59,,60,59,17,18,4,4,0.5,0.4
2025-02-21T0000,1291A,115.8886,28.7003,南昌市,省林业公司,细颗粒物(PM2.5),55,,29,39,32,48,,51,48,13,15,6,6,0.5,0.4
2025-02-21T0000,1292A,115.8126,28.7442,南昌市,林科所,,42,,27,29,26,52,,57,52,19,16,5,5,0.7,0.6
2025-02-21T0000,1294A,115.8518,28.687,南昌市,建工学校,细颗粒物(PM2.5),57,41,32,40,28,49,,53,47,25,27,7,6,0.8,0.7
2025-02-21T0000,1295A,115.8921,28.6424,南昌市,象湖,细颗粒物(PM2.5),62,,26,44,30,49,,60,54,24,19,5,5,0.9,0.8
2025-02-21T0000,1296A,115.7423,28.7996,南昌市,武术学校,,39,39,26,16,19,50,,60,54,16,14,3,3,0.6,0.5
2025-02-21T0000,3046A,115.9084,28.6062,南昌市,机电学校,细颗粒物(PM2.5),67,50,35,48,30,48,,56,50,20,20,7,7,0.8,0.8
2025-02-21T0000,3690A,115.9721,28.7031,南昌市,外国语学校,细颗粒物(PM2.5),67,,33,48,25,44,,54,44,21,17,3,3,0.5,0.4
2025-02-21T0000,4192A,115.9316,28.68677,南昌市,南京东路235号,细颗粒物(PM2.5),60,48,31,43,33,51,,58,54,19,16,4,3,0.8,0.8
2025-02-21T0000,1905A,106.056,30.8064,南充市,西山风景区,,20,20,36,12,30,43,,55,51,5,8,1,2,0.5,0.6
2025-02-21T0000,1906A,106.0789,30.8023,南充市,南充市委,,32,26,44,22,37,26,,53,36,22,21,4,4,0.6,0.6
2025-02-21T0000,1907A,106.1031,30.8217,南充市,南充炼油厂,,36,32,41,25,37,33,,52,43,14,16,3,4,0.5,0.6
2025-02-21T0000,1909A,106.0642,30.7636,南充市,嘉陵区环保局,,35,31,49,24,35,22,,46,35,29,23,4,4,0.5,0.6
2025-02-21T0000,1910A,106.1087,30.8388,南充市,市环境监测站,,39,28,44,27,35,40,,56,48,9,13,6,6,0.4,0.5
2025-02-21T0000,4227A,106.1083,30.7884,南充市,梨树横街98号,,26,26,43,16,32,37,,53,46,19,20,4,5,0.7,0.7
2025-02-21T0000,1151A,118.8086,32.1065,南京市,迈皋桥,,30,30,42,14,24,64,,83,72,15,20,4,4,0.4,0.5
2025-02-21T0000,1152A,118.7538,32.0551,南京市,草场门,,25,24,48,17,27,47,,72,62,21,21,5,6,0.7,0.7
2025-02-21T0000,1153A,118.7794,32.0745,南京市,山西路,,31,31,56,17,29,61,,88,76,5,6,4,4,0.4,0.5
2025-02-21T0000,1154A,118.7752,32.0023,南京市,中华门,,34,34,48,17,26,56,,81,72,15,17,3,4,0.4,0.5
2025-02-21T0000,1155A,118.8109,32.0309,南京市,瑞金路,,27,27,49,17,28,56,,84,72,15,11,7,6,0.6,0.7
2025-02-21T0000,1156A,118.7997,32.0754,南京市,玄武湖,,33,33,49,15,25,58,,82,71,14,18,8,8,0.4,0.5
2025-02-21T0000,1157A,118.6414,32.0931,南京市,浦口,,34,34,56,13,27,58,,68,64,17,26,6,8,0.5,0.6
2025-02-21T0000,1158A,118.7356,31.9996,南京市,奥体中心,,35,35,54,17,29,59,,89,79,21,23,5,6,0.3,0.5
2025-02-21T0000,1159A,118.9125,32.1028,南京市,仙林大学城,,29,29,48,19,27,61,,86,74,16,18,6,8,0.5,0.6
2025-02-21T0000,3422A,118.8436,31.9198,南京市,江宁彩虹桥,,31,31,56,17,28,53,,76,68,15,17,4,5,0.5,0.6
2025-02-21T0000,3423A,119.0138,31.6494,南京市,溧水永阳,,50,,43,35,38,55,,81,68,22,24,4,4,0.5,0.6
2025-02-21T0000,3427A,118.8554,32.3578,南京市,六合雄州,,25,25,40,7,17,66,,82,72,3,7,5,4,0.5,0.6
2025-02-21T0000,4249A,118.8708,31.3402,南京市,汶溪路181号,,48,40,56,33,42,58,,73,67,16,19,2,3,0.3,0.4
2025-02-21T0000,1401A,108.3103,22.7881,南宁市,二十一中,,28,28,53,11,35,16,,10,9,23,30,5,6,0.9,1.1
2025-02-21T0000,1402A,108.3141,22.8528,南宁市,北湖,,19,15,49,13,33,12,,8,6,26,30,7,9,1.0,1.1
2025-02-21T0000,1403A,108.3206,22.8225,南宁市,市监测站,,26,,52,18,34,13,,7,7,24,29,10,10,1.1,1.3
2025-02-21T0000,1404A,108.3829,22.8037,南宁市,大自然花园,,25,,49,17,35,22,,14,14,16,25,6,6,1.5,1.6
2025-02-21T0000,1405A,108.4394,22.7904,南宁市,仙葫,,10,10,48,3,31,26,,15,15,12,22,2,3,0.7,0.9
2025-02-21T0000,1406A,108.2397,22.8467,南宁市,区农职院,,36,36,45,17,25,0,,8,3,20,22,8,9,0.8,0.9
2025-02-21T0000,1407A,108.3275,22.735,南宁市,英华嘉园,,15,15,60,9,37,21,,10,10,14,26,6,7,0.7,1
2025-02-21T0000,3401A,108.4834,22.7618,南宁市,红星社区,,20,20,52,12,35,16,,28,15,14,20,7,8,1.0,1.1
2025-02-21T0000,4221A,108.2177,22.7774,南宁市,乐贤路16号,,29,23,58,20,35,6,,7,5,28,24,6,6,1.0,1.1
2025-02-21T0000,2331A,118.0966,26.6761,南平市,茫荡山,,,,,,,,,,,,,,,,
2025-02-21T0000,2332A,118.1681,26.6369,南平市,南平市监测站,,15,,15,10,14,32,,65,49,13,14,4,5,0.5,0.5
2025-02-21T0000,2333A,118.1825,26.6489,南平市,南平铝业有限公司,,13,6,15,3,12,40,,60,47,12,18,4,5,0.6,0.7
2025-02-21T0000,2334A,118.1756,26.6272,南平市,南平七中,,12,,13,8,12,32,,63,49,12,13,4,4,0.5,0.5
2025-02-21T0000,1168A,120.9098,31.9663,南通市,狼山街道,,30,30,29,16,14,76,,86,81,15,13,5,5,0.5,0.5
2025-02-21T0000,1169A,120.86,32.0005,南通市,虹桥,,28,28,39,16,16,80,,79,78,16,18,5,5,0.1,0.1
2025-02-21T0000,1170A,120.87,32.02,南通市,城中,,25,24,32,11,13,79,,83,79,14,14,5,5,0.4,0.5
2025-02-21T0000,1171A,120.94,31.93,南通市,星湖花园,,25,23,24,15,14,78,,82,78,15,14,6,6,0.2,0.2
2025-02-21T0000,1172A,120.81,32.0417,南通市,紫琅学院,,25,17,25,11,12,79,,81,79,14,15,2,2,0.3,0.4
2025-02-21T0000,3291A,121.067,32.062,南通市,通州监测站,,28,22,26,12,13,87,,90,88,10,12,3,3,0.4,0.4
2025-02-21T0000,3432A,120.9348,31.9883,南通市,环境教育馆,,27,22,28,13,15,86,,94,88,8,8,4,4,0.5,0.5
2025-02-21T0000,2404A,112.5224,33.0122,南阳市,瓦房庄,细颗粒物(PM2.5),110,86,95,83,69,44,,68,56,17,18,4,8,0.6,0.6
2025-02-21T0000,2405A,112.5003,32.9735,南阳市,汉画馆,细颗粒物(PM2.5),88,82,89,65,55,49,,72,59,19,20,6,8,0.6,0.6
2025-02-21T0000,2406A,112.5573,33.027,南阳市,气象站,细颗粒物(PM2.5),110,102,103,83,68,37,,68,53,20,18,4,6,0.7,0.6
2025-02-21T0000,2407A,112.5481,32.9689,南阳市,理工学院,细颗粒物(PM2.5),108,88,92,81,66,37,,69,51,22,19,7,8,0.6,0.6
2025-02-21T0000,4008A,112.5234,32.9922,南阳市,卧龙区政府,细颗粒物(PM2.5),103,87,93,77,64,45,,70,56,21,22,5,7,0.6,0.6
2025-02-21T0000,1234A,121.8358,29.911,宁波市,区环保大楼,,19,,37,12,26,60,,75,62,30,31,5,6,0.6,0.7
2025-02-21T0000,1235A,121.56,29.82,宁波市,万里学院,,22,13,45,10,29,69,,76,72,14,19,6,6,0.4,0.6
2025-02-21T0000,1236A,121.713,29.9572,宁波市,龙赛医院,,22,17,39,13,24,68,,77,74,20,25,4,5,0.4,0.5
2025-02-21T0000,1239A,121.633,29.7733,宁波市,钱湖水厂,,20,8,32,8,26,64,,78,74,18,20,5,5,0.4,0.4
2025-02-21T0000,1240A,121.5856,29.8635,宁波市,太古小学,,24,11,45,9,26,74,,82,77,19,27,6,7,0.3,0.4
2025-02-21T0000,1241A,121.524,29.8674,宁波市,市环境监测中心,,25,12,56,8,30,79,,76,75,13,27,5,6,0.4,0.5
2025-02-21T0000,2871A,121.6147,29.9017,宁波市,万里国际学校,,24,24,47,7,21,75,,77,72,12,24,6,6,0.3,0.3
2025-02-21T0000,3710A,121.5594,29.8975,宁波市,白沙活动中心,,25,21,47,8,28,78,,78,71,15,30,4,5,0.3,0.3
2025-02-21T0000,2339A,119.5001,26.6946,宁德市,金涵水库,,,,,,,,,,,,,,,,
2025-02-21T0000,2341A,119.5388,26.6612,宁德市,宁德市监测站,,20,,12,8,15,62,,54,54,11,14,4,4,0.5,0.6
2025-02-21T0000,3209A,119.5231,26.6562,宁德市,宁德一中,,23,,11,9,16,73,,63,62,5,14,3,4,0.2,0.3
2025-02-21T0000,2618A,98.8601,25.8567,怒江傈僳族自治州,州监测站,,38,36,31,26,19,57,,76,63,7,9,6,6,0.3,0.4
2025-02-21T0000,2619A,98.8546,25.8417,怒江傈僳族自治州,泸水一中,,49,,30,34,22,24,,58,33,20,15,6,6,0.5,0.4
2025-02-21T0000,1888A,101.6891,26.571,攀枝花市,弄弄坪,,35,35,42,20,27,74,,92,75,18,30,9,24,0.5,1.7
2025-02-21T0000,1889A,101.5769,26.5928,攀枝花市,河门口,,37,37,32,21,21,51,,103,91,31,18,10,10,0.6,0.6
2025-02-21T0000,1890A,101.7169,26.585,攀枝花市,炳草岗,,43,43,43,21,23,43,,100,70,40,36,8,12,0.6,1.3
2025-02-21T0000,1891A,101.7369,26.5008,攀枝花市,仁和,,30,30,34,19,24,66,,98,69,14,19,7,7,0.5,0.6
2025-02-21T0000,2835A,101.7227,26.567,攀枝花市,四十中小,,37,37,44,21,24,97,,98,85,6,31,10,17,0.4,1.3
2025-02-21T0000,1604A,122.0303,41.1489,盘锦市,开发区,细颗粒物(PM2.5),82,,37,60,22,9,,77,52,59,23,5,7,0.9,0.6
2025-02-21T0000,1605A,122.0485,41.0883,盘锦市,兴隆台,细颗粒物(PM2.5),59,65,36,42,20,7,,74,52,67,25,9,8,1.3,0.7
2025-02-21T0000,1606A,121.8297,41.1028,盘锦市,新生街道,颗粒物(PM10),59,68,46,39,23,8,,78,36,59,40,9,13,0.8,0.8
2025-02-21T0000,1832A,113.3257,33.742,平顶山市,新华旅馆,细颗粒物(PM2.5),97,81,98,72,64,23,,56,29,27,24,3,5,0.7,0.6
2025-02-21T0000,1833A,113.2919,33.737,平顶山市,规划设计院,细颗粒物(PM2.5),93,75,88,69,61,30,,60,35,27,26,5,6,0.5,0.5
2025-02-21T0000,1834A,113.182,33.774,平顶山市,平顶山工学院,细颗粒物(PM2.5),85,66,85,63,57,29,,56,35,20,21,2,5,0.5,0.5
2025-02-21T0000,3204A,113.3025,33.73,平顶山市,规划局,细颗粒物(PM2.5),107,,84,80,68,28,,60,33,27,24,2,4,0.7,0.5
2025-02-21T0000,3594A,112.8867,33.9116,平顶山市,石龙区,细颗粒物(PM2.5),85,78,97,63,65,43,,65,49,21,28,4,8,0.4,0.5
2025-02-21T0000,2656A,106.6692,35.5461,平凉市,聚贤嘉苑,,,,,,,,,,,,,,,,
2025-02-21T0000,2657A,106.7021,35.5307,平凉市,博物馆,细颗粒物(PM2.5),75,71,66,55,48,56,,80,57,17,33,8,7,0.9,0.7
2025-02-21T0000,2347A,114.0997,27.5002,萍乡市,武功山,,12,,3,3,7,36,,42,42,6,9,4,5,0.4,0.5
2025-02-21T0000,2348A,113.8385,27.6434,萍乡市,中医院,,28,24,21,19,16,44,,50,48,19,20,5,5,0.8,0.8
2025-02-21T0000,2349A,113.8493,27.6253,萍乡市,市政府车库,,29,29,18,12,17,43,,48,44,19,18,5,4,0.7,0.7
2025-02-21T0000,2350A,113.8676,27.6435,萍乡市,市环保局,,18,18,18,11,15,46,,47,44,16,17,2,6,0.5,0.6
2025-02-21T0000,2351A,113.866,27.6198,萍乡市,安源区政府,,28,19,20,19,13,38,,44,37,19,22,5,6,0.8,0.9
2025-02-21T0000,2319A,119.0141,25.4325,莆田市,荔城区仓后路,,25,6,11,3,2,78,,84,76,8,10,2,2,0.5,0.6
2025-02-21T0000,2320A,119.0015,25.4553,莆田市,莆田市监测站,,27,6,8,3,2,84,,89,81,5,7,3,3,0.4,0.5
2025-02-21T0000,2321A,119.1119,25.4561,莆田市,涵江区六中,,27,6,14,3,6,84,,89,82,10,15,2,2,0.4,0.5
2025-02-21T0000,2322A,119.1013,25.3215,莆田市,秀屿区政府,,26,15,13,3,5,83,,85,82,12,15,2,3,0.5,0.5
2025-02-21T0000,2323A,118.981,25.4792,莆田市,东圳水库,,,,,,,,,,,,,,,,
2025-02-21T0000,2392A,115.0312,35.7636,濮阳市,环保局,细颗粒物(PM2.5),72,,53,52,43,46,,67,49,19,19,4,6,0.8,0.8
2025-02-21T0000,2394A,115.0574,35.7609,濮阳市,油田运输公司,细颗粒物(PM2.5),70,70,69,51,42,49,,63,50,15,20,3,5,0.9,0.9
2025-02-21T0000,3021A,115,35.7668,濮阳市,濮水河管理处,细颗粒物(PM2.5),68,66,65,49,38,43,,64,41,20,22,5,6,0.4,0.4
2025-02-21T0000,4216A,115.0924,35.7686,濮阳市,任丘路479号,颗粒物(PM10),82,114,73,51,46,57,,67,56,12,18,5,7,1.0,0.9
2025-02-21T0000,2601A,100.98,22.7633,普洱市,市环保局,颗粒物(PM10),63,75,74,37,33,60,,116,84,10,12,7,7,0.6,0.6
2025-02-21T0000,2602A,100.9817,22.8322,普洱市,普洱第二中学,"颗粒物(PM10),细颗粒物(PM2.5)",69,88,70,50,36,13,,102,68,54,25,2,3,0.4,0.8
2025-02-21T0000,2262A,131.0518,45.8751,七台河市,新一中,,26,22,27,14,19,83,,96,86,9,10,12,12,0.7,0.7
2025-02-21T0000,3345A,131.0577,45.7879,七台河市,中波台,,36,33,43,25,33,63,,79,60,24,24,11,10,0.3,0.3
2025-02-21T0000,3637A,131.0176,45.7761,七台河市,人民广场,,42,31,55,29,35,56,,83,57,29,26,8,9,0.3,0.5
2025-02-21T0000,3684A,130.8781,45.8222,七台河市,新建矿广场,细颗粒物(PM2.5),55,41,43,39,32,47,,82,57,26,21,5,7,0.3,0.4
2025-02-21T0000,1779A,123.9305,47.3636,齐齐哈尔市,安居小区,细颗粒物(PM2.5),83,,34,61,21,13,,76,36,69,27,7,5,0.6,0.4
2025-02-21T0000,1780A,123.9488,47.3386,齐齐哈尔市,中心广场,,,,25,,15,44,,68,45,31,21,6,6,0.9,0.5
2025-02-21T0000,1781A,123.9483,47.3227,齐齐哈尔市,农牧车辆厂,,45,,24,31,19,53,,73,46,21,20,7,7,0.5,0.4
2025-02-21T0000,1783A,123.945,47.2988,齐齐哈尔市,市环境监测站,细颗粒物(PM2.5),54,54,30,38,19,43,,72,43,32,21,5,5,0.5,0.4
2025-02-21T0000,3662A,123.6333,47.2075,齐齐哈尔市,富区青少年活动中心,细颗粒物(PM2.5),79,,32,58,19,32,,74,51,40,17,12,8,0.8,0.6
2025-02-21T0000,2591A,107.9783,26.5747,黔东南苗族侗族自治州,市环境监测站,,25,19,15,17,13,72,,63,63,7,10,2,2,0.5,0.6
2025-02-21T0000,2881A,107.8908,26.5311,黔东南苗族侗族自治州,凯里学院,,22,22,7,10,7,68,,59,59,10,9,2,2,0.6,0.5
2025-02-21T0000,2593A,107.5228,26.2403,黔南布依族苗族自治州,小围寨,,17,6,4,3,2,54,,45,45,5,8,4,5,0.9,0.8
2025-02-21T0000,3538A,107.5175,26.2978,黔南布依族苗族自治州,沙坝,,20,7,7,3,3,63,,54,51,2,4,4,5,0.8,0.7
2025-02-21T0000,2589A,104.9022,25.0925,黔西南布依族苗族自治州,场坝街,,32,32,21,8,9,19,,26,19,13,10,3,3,0.4,0.3
2025-02-21T0000,2590A,104.8811,25.0992,黔西南布依族苗族自治州,坪东大道,,12,12,19,8,11,20,,23,20,13,9,5,4,0.3,0.2
2025-02-21T0000,2502A,108.6236,21.9667,钦州市,市环保站,细颗粒物(PM2.5),64,73,94,46,61,26,,45,28,24,30,8,9,1.2,1.2
2025-02-21T0000,2503A,108.6549,21.9481,钦州市,沙埠小学,细颗粒物(PM2.5),59,66,85,42,54,28,,40,30,22,31,6,8,1.2,1.2
2025-02-21T0000,2504A,108.5989,21.7431,钦州市,港区一小,细颗粒物(PM2.5),79,89,96,58,56,21,,54,32,28,26,9,10,1.2,1.1
2025-02-21T0000,3404A,108.5959,21.9633,钦州市,北职校,细颗粒物(PM2.5),95,79,82,71,72,20,,49,30,29,29,7,7,1.3,1.1
2025-02-21T0000,1043A,119.7493,40.0116,秦皇岛市,第一关,细颗粒物(PM2.5),60,57,34,43,28,6,,82,43,77,42,5,5,0.6,0.4
2025-02-21T0000,1044A,119.5897,39.9499,秦皇岛市,监测站,颗粒物(PM10),51,52,39,28,19,9,,81,56,66,28,3,3,0.5,0.4
2025-02-21T0000,1046A,119.5251,39.9041,秦皇岛市,建设大厦,,49,46,42,34,27,38,,81,54,30,27,4,4,0.6,0.5
2025-02-21T0000,3132A,119.610547,39.943889,秦皇岛市,文明里,,45,45,39,18,15,20,,81,64,61,25,4,4,0.3,0.3
2025-02-21T0000,4198A,119.5090,39.8253,秦皇岛市,北戴河轮滑馆,,32,32,33,17,17,79,,81,80,3,18,7,8,0.2,0.4
2025-02-21T0000,1307A,120.6659,36.2403,青岛市,仰口,细颗粒物(PM2.5),62,48,36,44,30,55,,94,60,19,11,3,3,0.8,0.7
2025-02-21T0000,1310A,120.4134,36.0658,青岛市,市南区东部子站,,34,34,36,22,21,91,,91,91,9,11,8,9,0.4,0.5
2025-02-21T0000,1311A,120.3664,36.1032,青岛市,四方区子站,,36,36,34,24,24,86,,93,90,16,20,4,4,0.6,0.7
2025-02-21T0000,1312A,120.2994,36.054,青岛市,市南区西部子站,,44,44,40,24,19,46,,93,84,56,22,8,10,0.6,0.6
2025-02-21T0000,1313A,120.4581,36.0858,青岛市,崂山区子站,,27,27,30,12,18,72,,97,88,19,14,8,10,0.5,0.6
2025-02-21T0000,1315A,120.3999,36.3083,青岛市,城阳区子站,颗粒物(PM10),60,70,51,39,26,22,,81,62,70,33,9,9,1.1,0.9
2025-02-21T0000,1966A,120.0405,35.8735,青岛市,黄岛区4号,,46,46,42,29,23,70,,101,90,30,32,9,9,0.8,0.8
2025-02-21T0000,3362A,120.5014,36.4034,青岛市,即墨2号,细颗粒物(PM2.5),92,84,57,68,42,45,,85,61,32,22,8,10,1.2,0.9
2025-02-21T0000,3642A,120.3503,36.0736,青岛市,市北区南部,,35,30,38,24,19,62,,77,74,24,15,7,7,0.7,0.7
2025-02-21T0000,3643A,120.3948,36.1805,青岛市,李沧区北部,,35,34,43,24,32,64,,82,70,34,30,10,12,0.7,0.8
2025-02-21T0000,4290A,120.1969,35.9546,青岛市,珠江路669号,,39,36,46,27,30,72,,94,91,26,41,9,9,0.7,0.7
2025-02-21T0000,1702A,113.0426,23.691,清远市,环保大楼,颗粒物(PM10),62,74,87,32,40,70,,144,115,14,24,7,10,1.1,1.1
2025-02-21T0000,1703A,113.0208,23.7106,清远市,凤城街办,,45,45,66,30,44,69,,142,115,18,32,8,11,0.8,0.9
2025-02-21T0000,3025A,113.0477,23.6344,清远市,技师学院,颗粒物(PM10),58,65,76,39,43,75,,155,121,21,39,10,15,0.7,0.7
2025-02-21T0000,3318A,112.9903,23.7403,清远市,清新太和,,39,39,65,23,40,62,,159,130,13,28,8,10,0.9,0.9
2025-02-21T0000,3455A,113.076,23.7198,清远市,清城东城,颗粒物(PM10),55,60,88,38,45,70,,153,120,15,23,8,10,0.9,1
2025-02-21T0000,2661A,107.6325,35.7357,庆阳市,庆阳五中,细颗粒物(PM2.5),88,68,57,65,53,47,,76,61,33,17,7,3,0.7,0.6
2025-02-21T0000,2662A,107.6364,35.7067,庆阳市,市环保局,细颗粒物(PM2.5),82,69,56,60,45,60,,74,63,16,14,3,3,0.7,0.6
2025-02-21T0000,1916A,103.7897,25.5035,曲靖市,环境监测站,颗粒物(PM10),60,69,38,28,22,44,,110,92,22,13,13,5,0.8,0.5
2025-02-21T0000,1917A,103.8,25.5364,曲靖市,烟厂办公区,颗粒物(PM10),53,55,38,28,23,57,,111,98,17,12,7,6,0.6,0.5
2025-02-21T0000,3376A,103.7947,25.462,曲靖市,南苑二区,颗粒物(PM10),65,79,37,32,23,46,,113,95,18,10,16,4,0.8,0.4
2025-02-21T0000,3377A,103.7444,25.5261,曲靖市,曲靖师范学院,,46,46,41,32,31,78,,113,99,16,14,6,15,0.4,0.5
2025-02-21T0000,1264A,118.8692,28.9398,衢州市,环保大楼,,18,6,18,3,15,55,,68,66,13,14,2,2,0.5,0.5
2025-02-21T0000,1265A,118.8709,28.9666,衢州市,实验学校,,20,6,14,3,12,64,,83,77,11,11,1,4,0.4,0.3
2025-02-21T0000,1266A,118.8621,28.9808,衢州市,衢州学院,,17,6,12,3,10,52,,75,65,20,17,4,3,0.6,0.5
2025-02-21T0000,1611A,118.5819,24.9117,泉州市,涂山街,,23,,18,14,13,73,,92,76,16,14,4,2,0.7,0.7
2025-02-21T0000,1612A,118.5972,24.8978,泉州市,津头埔,,22,,18,15,14,64,,82,65,19,16,3,2,0.6,0.6
2025-02-21T0000,1613A,118.6663,24.9424,泉州市,万安,,24,12,18,11,11,76,,92,76,16,14,5,3,0.4,0.5
2025-02-21T0000,1614A,118.6117,24.9604,泉州市,清源山,,,,,,,,,,,,,,,,
2025-02-21T0000,3529A,118.6333,24.9264,泉州市,城华南路,,21,19,20,12,12,66,,85,67,20,16,4,2,0.4,0.5
2025-02-21T0000,2626A,88.8876,29.2718,日喀则市,日喀则监测站,,34,18,24,10,8,108,,106,103,5,9,4,4,0.4,0.5
2025-02-21T0000,3726A,88.8781,29.2426,日喀则市,林业技术推广中心,,34,15,25,6,8,107,,103,103,2,3,7,7,0.3,0.4
2025-02-21T0000,1659A,119.471,35.4209,日照市,监测站,颗粒物(PM10),51,51,44,34,29,7,,78,61,79,49,9,8,0.9,0.7
2025-02-21T0000,1660A,119.523,35.4216,日照市,市政府广场,,44,44,40,20,23,57,,84,75,34,24,5,5,0.6,0.6
2025-02-21T0000,1661A,119.5587,35.4044,日照市,港务局,颗粒物(PM10),51,51,41,30,28,51,,91,79,52,23,9,9,0.7,0.7
2025-02-21T0000,3507A,119.5328,35.4625,日照市,职业技术学院,,46,46,39,19,20,23,,90,74,58,23,6,6,0.6,0.7
2025-02-21T0000,3604A,119.3266,35.1044,日照市,岚山环保分局,,36,36,46,25,27,96,,84,84,12,28,6,7,0.6,0.7
2025-02-21T0000,1835A,111.1922,34.7752,三门峡市,市政府,细颗粒物(PM2.5),119,,57,90,66,38,,62,45,22,19,4,6,0.8,0.7
2025-02-21T0000,1836A,111.1587,34.7942,三门峡市,开发区,细颗粒物(PM2.5),122,97,82,92,68,40,,67,49,21,16,2,4,0.7,0.6
2025-02-21T0000,1838A,111.143,34.7955,三门峡市,风景区,,,,,,,,,,,,,,,,
2025-02-21T0000,3039A,111.1911,34.7829,三门峡市,三门峡市第一小学,细颗粒物(PM2.5),119,,55,90,68,41,,56,50,23,16,2,5,0.8,0.7
2025-02-21T0000,3598A,111.1,34.7167,三门峡市,富达温泉假日酒店,细颗粒物(PM2.5),125,,80,95,70,29,,52,31,32,33,5,7,0.9,0.8
