timepoint,stationcode,longitude,latitude,area,positionname,primarypollutant,aqi,pm10,pm10_24h,pm2_5,pm2_5_24h,o3,o3_24h,o3_8h,o3_8h_24h,no2,no2_24h,so2,so2_24h,co,co_24h
2025-03-30T2000,2566A,102.1879,31.914,阿坝藏族羌族自治州,州农科所,颗粒物(PM10),80,110,50,28,16,70,,74,74,13,9,12,12,0.3,0.3
2025-03-30T2000,2568A,102.2502,31.8896,阿坝藏族羌族自治州,马师校,颗粒物(PM10),78,105,52,42,25,75,,86,86,20,11,5,5,0.5,0.4
2025-03-30T2000,3994A,102.2165,31.9024,阿坝藏族羌族自治州,马尔康中学西区,颗粒物(PM10),70,90,43,37,17,93,,95,95,8,7,5,5,0.4,0.4
2025-03-30T2000,2695A,80.292,41.1694,阿克苏地区,电视台,,,,709,,174,88,,85,85,,26,4,4,0.4,0.7
2025-03-30T2000,2696A,80.2613,41.1551,阿克苏地区,艺术中心,颗粒物(PM10),500,751,785,197,194,84,,84,84,8,26,3,4,0.4,1
2025-03-30T2000,2204A,105.6467,38.8363,阿拉善盟,西城区西花园,,29,24,25,3,11,92,,112,110,10,9,11,12,0.6,0.6
2025-03-30T2000,2205A,105.6985,38.8411,阿拉善盟,蒙二幼,,26,16,19,3,7,83,,101,99,10,8,5,6,0.7,0.7
2025-03-30T2000,2206A,105.724,38.8516,阿拉善盟,环保局新楼,,29,7,15,3,6,90,,102,101,4,4,8,9,0.7,0.7
2025-03-30T2000,2708A,88.1264,47.8517,阿勒泰地区,市站,,28,10,11,3,5,88,,87,84,1,6,2,3,0.4,0.4
2025-03-30T2000,2630A,80.1161,32.5,阿里地区,阿里监测站,,33,13,19,6,9,105,,102,102,1,3,5,6,0.4,0.5
2025-03-30T2000,3192A,80.0903,32.5028,阿里地区,阿里藏医院,,33,6,27,3,13,105,,100,100,1,2,6,6,0.4,0.4
2025-03-30T2000,2642A,109.0318,32.6537,安康市,香溪洞,颗粒物(PM10),56,62,57,26,25,91,,87,87,5,10,7,8,1.2,1.2
2025-03-30T2000,2644A,109.0072,32.6975,安康市,汉滨区检察院,颗粒物(PM10),67,83,70,24,23,58,,90,90,32,16,7,9,0.5,0.4
2025-03-30T2000,4054A,109.0325,32.6913,安康市,市邮政管理局,颗粒物(PM10),70,90,71,33,26,57,,90,90,28,14,7,10,0.6,0.4
2025-03-30T2000,2291A,117.0809,30.5177,安庆市,环科院,颗粒物(PM10),77,103,102,42,41,104,,108,108,16,23,8,9,0.5,0.5
2025-03-30T2000,2292A,117.0331,30.5119,安庆市,马山宾馆,颗粒物(PM10),77,103,100,45,38,98,,107,107,20,21,6,6,0.4,0.4
2025-03-30T2000,2294A,116.9896,30.6145,安庆市,安庆大学,颗粒物(PM10),73,96,124,40,49,111,,117,117,12,16,4,4,0.5,0.4
2025-03-30T2000,3173A,117.0598,30.5351,安庆市,市人大,颗粒物(PM10),79,107,109,47,45,95,,107,107,19,15,6,8,0.8,0.7
2025-03-30T2000,3122A,105.9606,26.2611,安顺市,伍家关,,42,42,17,15,7,62,,63,63,14,8,18,8,0.5,0.4
2025-03-30T2000,3123A,105.9408,26.2431,安顺市,凤凰山,细颗粒物(PM2.5),58,,16,41,13,59,,62,62,15,9,20,10,0.4,0.3
2025-03-30T2000,3124A,105.9439,26.2564,安顺市,金钟山,细颗粒物(PM2.5),52,,16,36,13,61,,62,62,14,9,20,8,0.5,0.5
2025-03-30T2000,3125A,105.8983,26.2481,安顺市,娄家坡,,50,,16,35,14,61,,62,62,13,10,16,11,0.5,0.5
2025-03-30T2000,1818A,114.4839,36.0621,安阳市,棉研所,,,,,,,,,,,,,,,,
2025-03-30T2000,1819A,114.3551,36.1017,安阳市,红庙街,颗粒物(PM10),56,62,72,35,34,74,,91,90,18,25,6,12,0.3,0.6
2025-03-30T2000,1820A,114.361,36.0681,安阳市,银杏小区,颗粒物(PM10),58,65,77,36,40,74,,98,96,21,30,5,9,0.5,0.8
2025-03-30T2000,3141A,114.3922,36.0878,安阳市,信访局,颗粒物(PM10),61,71,75,38,37,69,,79,79,21,29,7,8,0.5,0.7
2025-03-30T2000,3669A,114.4705,36.0637,安阳市,左辅环卫站,颗粒物(PM10),68,86,84,45,40,69,,101,98,20,22,6,7,0.6,0.7
2025-03-30T2000,3703A,114.2917,36.0949,安阳市,安钢职工学校,颗粒物(PM10),57,63,95,33,49,79,,94,93,19,31,4,12,0.9,1.4
2025-03-30T2000,1748A,123.044,41.1196,鞍山市,深沟寺,,46,46,34,28,17,83,,94,94,11,10,11,13,0.6,0.8
2025-03-30T2000,1749A,123.011,41.0931,鞍山市,太阳城,颗粒物(PM10),55,59,35,33,17,80,,95,93,16,13,8,10,0.5,0.6
2025-03-30T2000,1750A,123.0485,41.1442,鞍山市,太平,颗粒物(PM10),53,55,44,31,18,80,,88,87,17,14,11,15,1.1,1.3
2025-03-30T2000,1751A,122.9642,41.0971,鞍山市,铁西三道街,颗粒物(PM10),60,70,46,41,23,77,,94,92,26,20,12,7,0.7,0.6
2025-03-30T2000,1753A,123.022,41.0821,鞍山市,明达新区,颗粒物(PM10),58,66,43,40,20,86,,67,,13,14,9,11,0.4,0.5
2025-03-30T2000,1754A,123.1289,41.0228,鞍山市,千山,,,,21,,8,,,71,,,9,,5,,0.7
2025-03-30T2000,4201A,122.9446,41.0826,鞍山市,兴盛南路290号,,,95,48,56,23,,,95,95,37,26,19,13,0.7,0.6
2025-03-30T2000,2195A,107.4212,40.761,巴彦淖尔市,附二中,,45,45,30,14,15,75,,95,94,17,17,6,7,0.4,0.3
2025-03-30T2000,2196A,107.37,40.7372,巴彦淖尔市,市环保大楼,,49,49,33,20,18,71,,97,94,19,14,5,4,0.3,0.3
2025-03-30T2000,1956A,86.1472,41.7538,巴音郭楞蒙古自治州,孔雀公园,颗粒物(PM10),500,659,644,167,140,78,,78,78,7,17,5,5,,0.4
2025-03-30T2000,1957A,86.1972,41.7166,巴音郭楞蒙古自治州,棉纺厂,颗粒物(PM10),500,793,783,168,158,80,,78,78,8,20,2,2,0.3,0.4
2025-03-30T2000,1958A,86.2357,41.7173,巴音郭楞蒙古自治州,经济开发区,颗粒物(PM10),500,685,667,141,134,82,,81,81,7,18,4,4,0.2,0.3
2025-03-30T2000,2914A,106.7677,31.8794,巴中市,苏山坪,,29,29,22,18,13,55,,69,66,14,8,3,3,0.4,0.4
2025-03-30T2000,3181A,106.7768,31.8526,巴中市,市五中,,24,24,29,14,14,53,,66,64,14,11,5,4,0.5,0.4
2025-03-30T2000,3183A,106.7418,31.8654,巴中市,圣泉水务公司,,21,21,23,14,12,54,,70,68,16,13,8,7,0.5,0.5
2025-03-30T2000,3616A,106.7616,31.8344,巴中市,市中心医院,,22,22,25,13,15,52,,67,65,11,8,8,8,0.5,0.5
2025-03-30T2000,2235A,122.7911,45.6077,白城市,洮北区环保局,细颗粒物(PM2.5),55,39,28,39,23,72,,90,87,16,9,4,3,0.6,0.5
2025-03-30T2000,2236A,122.8738,45.5725,白城市,市环保局,,30,27,22,21,16,70,,91,87,11,5,6,6,0.4,0.4
2025-03-30T2000,2231A,126.4219,41.9171,白山市,喜丰,,35,35,30,13,12,86,,90,90,10,11,9,7,0.8,0.8
2025-03-30T2000,2232A,126.4077,41.9419,白山市,环保局,,,70,45,24,11,66,,94,90,26,14,,3,0.8,0.4
2025-03-30T2000,2647A,104.1724,36.5446,白银市,第三小学,颗粒物(PM10),95,139,120,33,43,94,,97,97,10,29,13,57,0.6,1
2025-03-30T2000,2648A,104.1465,36.5482,白银市,动力公司,颗粒物(PM10),81,112,107,31,40,98,,100,100,10,24,8,33,0.4,0.8
2025-03-30T2000,2512A,106.6103,23.9011,百色市,市监测站,,29,29,22,17,10,59,,69,69,17,11,24,11,0.6,0.5
2025-03-30T2000,2513A,106.6538,23.8859,百色市,市中心血站,,39,37,24,27,6,56,,68,68,17,11,19,12,0.6,0.5
2025-03-30T2000,3406A,106.6085,23.8798,百色市,祈福高中,,37,37,27,18,10,55,,69,69,22,13,16,8,0.6,0.5
2025-03-30T2000,2270A,117.396,32.939,蚌埠市,工人疗养院,颗粒物(PM10),94,137,94,48,36,98,,112,112,15,25,5,5,0.5,0.4
2025-03-30T2000,2271A,117.3605,32.9427,蚌埠市,百货大楼,颗粒物(PM10),96,141,95,51,35,92,,103,103,24,30,6,6,0.5,0.4
2025-03-30T2000,2273A,117.4185,32.8911,蚌埠市,蚌埠学院,颗粒物(PM10),96,141,95,42,37,100,,111,110,13,34,3,5,0.5,0.4
2025-03-30T2000,2274A,117.3533,32.9673,蚌埠市,淮上区政府,颗粒物(PM10),97,144,97,54,40,102,,110,110,13,26,5,5,0.3,0.2
2025-03-30T2000,2275A,117.3145,32.8977,蚌埠市,高新区,颗粒物(PM10),98,146,92,53,39,81,,106,104,29,25,5,5,0.5,0.4
2025-03-30T2000,3715A,117.3092,32.9314,蚌埠市,蚌埠田家炳中学,颗粒物(PM10),104,158,106,51,42,84,,108,106,32,32,7,6,0.4,0.3
2025-03-30T2000,1585A,109.8756,40.6532,包头市,市环境监测站,,33,33,26,11,12,82,,103,102,22,22,10,13,0.3,0.4
2025-03-30T2000,1587A,109.9991,40.5842,包头市,包头八中,,,47,30,,13,74,,98,97,28,26,9,9,0.4,0.5
2025-03-30T2000,1588A,109.8538,40.6821,包头市,青山宾馆,,34,34,26,16,14,57,,100,96,45,21,8,11,0.4,0.6
2025-03-30T2000,1589A,109.8642,40.6288,包头市,惠龙物流,,,21,24,6,12,,,107,107,16,19,6,12,0.4,0.6
2025-03-30T2000,1590A,110.0377,40.5546,包头市,东河鸿龙湾,,27,24,26,3,8,86,,102,102,14,22,8,8,0.5,0.5
2025-03-30T2000,3283A,109.9154,40.5685,包头市,滨河大厦,,25,19,20,10,16,78,,102,100,20,17,12,11,0.6,0.6
2025-03-30T2000,3419A,109.9447,40.6261,包头市,包头市委党校,,28,24,27,10,11,89,,104,104,14,22,6,10,0.5,0.8
2025-03-30T2000,3683A,109.8331,40.6576,包头市,昆区政府,,28,19,24,11,16,87,,102,99,19,20,6,11,0.4,0.6
2025-03-30T2000,1930A,107.185,34.3063,宝鸡市,庙沟村,颗粒物(PM10),84,118,120,61,47,94,,102,102,22,23,7,7,0.4,0.4
2025-03-30T2000,1931A,107.0708,34.3017,宝鸡市,竹园沟,,,,,,,,,,,,,,,,
2025-03-30T2000,1932A,107.1906,34.3672,宝鸡市,三陆医院,颗粒物(PM10),89,128,133,63,62,84,,103,103,31,27,4,7,0.5,0.5
2025-03-30T2000,1933A,107.1431,34.3547,宝鸡市,监测站,颗粒物(PM10),95,139,143,51,47,93,,103,103,26,21,8,8,0.7,0.7
2025-03-30T2000,1934A,107.1186,34.3739,宝鸡市,技工学校,颗粒物(PM10),91,132,136,49,47,89,,101,101,29,19,4,7,0.5,0.5
2025-03-30T2000,1935A,107.3906,34.3528,宝鸡市,陈仓区环保局家属楼,颗粒物(PM10),86,121,129,59,45,77,,100,99,31,27,7,10,0.6,0.6
2025-03-30T2000,1936A,107.2058,34.3497,宝鸡市,文理学院,颗粒物(PM10),87,123,136,51,52,95,,105,105,22,22,6,6,0.4,0.5
2025-03-30T2000,1937A,107.2386,34.3622,宝鸡市,三迪小学,颗粒物(PM10),89,128,141,50,55,84,,102,102,35,27,6,8,0.6,0.6
2025-03-30T2000,1051A,115.493,38.8632,保定市,游泳馆,颗粒物(PM10),66,82,61,38,26,76,,103,102,35,31,2,3,0.4,0.4
2025-03-30T2000,1052A,115.5213,38.8959,保定市,华电二区,,46,46,48,23,26,94,,108,108,15,17,3,3,0.3,0.4
2025-03-30T2000,1053A,115.4713,38.9108,保定市,接待中心,颗粒物(PM10),51,52,53,30,29,91,,102,102,17,22,4,4,0.3,0.3
2025-03-30T2000,1054A,115.4612,38.8416,保定市,地表水厂,颗粒物(PM10),63,75,71,22,28,75,,106,105,40,34,2,3,0.4,0.4
2025-03-30T2000,3581A,115.31981,38.95208,保定市,满城区生态环境分局,颗粒物(PM10),53,56,48,31,20,83,,98,98,24,24,4,2,0.3,0.3
2025-03-30T2000,3582A,115.47694,38.76408,保定市,清苑区第二中学,颗粒物(PM10),62,74,70,28,24,80,,107,106,29,26,3,3,0.3,0.4
2025-03-30T2000,3583A,115.62909,39.02311,保定市,徐水物探局,颗粒物(PM10),70,90,53,31,18,92,,109,109,24,25,5,3,0.3,0.2
2025-03-30T2000,4004A,115.4202,38.8656,保定市,双鹰农机,,43,43,54,17,24,85,,106,106,28,29,4,4,0.3,0.4
2025-03-30T2000,4034A,115.5150,38.8590,保定市,植保所站,颗粒物(PM10),68,85,61,38,33,81,,104,104,29,21,2,3,0.2,0.2
2025-03-30T2000,2594A,99.1678,25.1081,保山市,市环境监测站,细颗粒物(PM2.5),74,74,88,54,58,146,,149,147,11,13,4,5,0.4,0.6
2025-03-30T2000,2595A,99.1711,25.1328,保山市,市环保局,细颗粒物(PM2.5),69,83,94,50,62,148,,157,155,7,10,5,6,0.6,0.7
2025-03-30T2000,1866A,109.2262,21.588,北海市,牛尾岭水库,,,14,5,11,5,28,,29,29,,8,6,6,0.7,0.7
2025-03-30T2000,1867A,109.1436,21.4086,北海市,海滩公园,,22,20,9,15,6,39,,44,44,14,11,5,5,0.5,0.4
2025-03-30T2000,1868A,109.0981,21.4661,北海市,新市环保局,,39,,8,27,10,42,,43,43,13,11,3,3,0.9,0.8
2025-03-30T2000,1869A,109.1778,21.5233,北海市,北海工业园,,29,28,10,20,11,40,,43,43,13,12,7,9,0.6,0.5
2025-03-30T2000,3400A,109.1911,21.4415,北海市,龙潭自来水厂,,26,22,9,18,8,38,,43,42,12,10,6,6,0.4,0.4
2025-03-30T2000,1001A,116.3621,39.8784,北京市,万寿西宫,颗粒物(PM10),56,62,42,24,17,104,,104,104,20,31,3,3,0.3,0.4
2025-03-30T2000,1002A,116.2202,40.2915,北京市,定陵,,,,,,,,,,,,,,,,
2025-03-30T2000,1003A,116.4174,39.9289,北京市,东四,颗粒物(PM10),56,62,41,27,17,99,,96,96,16,24,5,5,0.3,0.4
2025-03-30T2000,1004A,116.4072,39.8863,北京市,天坛,颗粒物(PM10),54,57,37,26,16,95,,96,96,17,24,1,3,0.5,0.6
2025-03-30T2000,1005A,116.462,39.9365,北京市,农展馆,颗粒物(PM10),57,64,41,28,18,97,,94,94,20,28,7,8,0.4,0.5
2025-03-30T2000,1006A,116.3392,39.9295,北京市,官园,颗粒物(PM10),58,65,42,32,16,84,,85,85,19,23,6,7,0.5,0.5
2025-03-30T2000,1007A,116.2878,39.9611,北京市,海淀万柳,颗粒物(PM10),55,59,39,23,14,81,,82,82,21,26,4,4,0.5,0.5
2025-03-30T2000,1008A,116.6636,40.135,北京市,顺义新城,,50,50,40,25,14,99,,98,98,18,24,6,6,0.3,0.3
2025-03-30T2000,1009A,116.6275,40.3275,北京市,怀柔镇,,47,47,33,20,12,60,,80,79,31,13,3,4,0.4,0.3
2025-03-30T2000,1010A,116.2296,40.217,北京市,昌平镇,颗粒物(PM10),56,62,35,24,12,85,,88,88,20,20,2,2,0.6,0.5
2025-03-30T2000,1011A,116.3966,39.9821,北京市,奥体中心,颗粒物(PM10),57,63,41,22,14,96,,94,94,19,31,4,5,0.6,0.6
2025-03-30T2000,3281A,115.9718,40.4529,北京市,延庆夏都,,28,24,26,9,10,88,,95,95,8,11,5,6,0.4,0.4
2025-03-30T2000,3418A,116.8336,40.4095,北京市,密云新城,,42,42,37,18,13,80,,83,83,22,15,3,3,0.5,0.5
2025-03-30T2000,3671A,116.088,39.9726,北京市,门头沟三家店,颗粒物(PM10),76,101,84,32,18,69,,71,71,32,41,6,5,0.4,0.4
2025-03-30T2000,3672A,116.1541,39.8204,北京市,丰台云岗,颗粒物(PM10),55,59,48,32,18,86,,94,94,22,28,5,5,0.3,0.3
2025-03-30T2000,3673A,116.6804,39.9081,北京市,通州东关,颗粒物(PM10),56,61,48,24,18,97,,97,97,21,36,5,6,0.4,0.5
2025-03-30T2000,3674A,115.9577,39.7603,北京市,房山燕山,颗粒物(PM10),52,54,34,28,14,88,,89,89,19,17,5,5,0.3,0.2
2025-03-30T2000,3675A,116.4672,39.7733,北京市,大兴旧宫,颗粒物(PM10),57,63,44,24,16,88,,92,92,16,27,1,3,0.3,0.4
2025-03-30T2000,3694A,115.986,40.4563,北京市,延庆石河营,,44,44,25,10,10,72,,96,94,21,12,4,5,0.4,0.4
2025-03-30T2000,3695A,116.6151,40.3053,北京市,怀柔新城,,42,42,32,16,11,68,,81,81,16,9,5,5,0.5,0.5
2025-03-30T2000,3696A,116.2545,39.8768,北京市,丰台小屯,颗粒物(PM10),57,64,47,29,19,79,,86,86,28,36,2,3,0.4,0.4
2025-03-30T2000,3697A,116.84,40.3844,北京市,密云镇,,39,39,38,15,12,89,,91,91,17,27,5,4,0.4,0.4
2025-03-30T2000,4182A,116.1942,39.9158,北京市,八角北路9号,颗粒物(PM10),62,74,46,26,16,82,,88,88,18,22,2,2,0.1,0.2
2025-03-30T2000,4194A,117.0790,40.1518,北京市,洳河巡河路,,44,44,29,20,13,85,,95,95,21,13,5,3,0.4,0.4
2025-03-30T2000,1761A,123.8275,41.3064,本溪市,大峪,,32,24,33,22,19,88,,92,92,10,11,11,11,0.8,0.8
2025-03-30T2000,1762A,123.7567,41.3325,本溪市,溪湖,细颗粒物(PM2.5),55,44,36,39,19,79,,101,99,24,18,11,7,0.7,0.5
2025-03-30T2000,1763A,123.7169,41.3094,本溪市,彩屯,细颗粒物(PM2.5),69,85,40,50,20,51,,98,93,56,24,14,10,1.2,0.7
2025-03-30T2000,1764A,123.7669,41.2864,本溪市,东明,,41,41,38,25,17,89,,91,91,16,19,11,14,0.6,0.8
2025-03-30T2000,1765A,123.7992,41.2664,本溪市,新立屯,,40,,30,28,16,74,,94,91,32,21,7,10,0.6,0.6
2025-03-30T2000,1766A,123.8142,41.3472,本溪市,威宁,,46,46,43,24,17,76,,94,93,17,17,7,6,0.7,0.6
2025-03-30T2000,2587A,105.2864,27.3125,毕节市,八中,,29,26,18,20,13,48,,62,58,8,7,8,8,0.6,0.5
2025-03-30T2000,2588A,105.31,27.2944,毕节市,师专,,17,16,14,11,10,52,,67,61,10,9,5,5,0.5,0.5
2025-03-30T2000,4263A,105.3688,27.3598,毕节市,工业大道,,15,12,14,9,8,48,,71,62,12,9,7,7,0.3,0.3
2025-03-30T2000,1629A,118.0018,37.3617,滨州市,第二水厂,颗粒物(PM10),70,90,63,34,24,84,,99,99,26,38,11,11,0.6,0.5
2025-03-30T2000,1630A,117.9776,37.393,滨州市,北中新校,,,,,,,,,,,,,,,,
2025-03-30T2000,3514A,117.9378,37.3956,滨州市,中海酒店,颗粒物(PM10),79,107,64,39,34,86,,106,105,30,29,9,12,0.4,0.4
2025-03-30T2000,3515A,117.9378,37.3553,滨州市,开发区一中,颗粒物(PM10),69,88,66,31,25,91,,100,100,29,42,10,11,0.3,0.3
2025-03-30T2000,3516A,118.0917,37.694,滨州市,金海六路,颗粒物(PM10),62,73,60,34,28,97,,106,106,29,36,80,16,0.8,0.7
2025-03-30T2000,4028A,117.9956,37.3753,滨州市,滨州市西街道办事处,"颗粒物(PM10),细颗粒物(PM2.5)",64,78,57,46,31,94,,107,107,24,27,9,9,0.5,0.5
2025-03-30T2000,2311A,115.8072,33.8399,亳州市,污水处理厂,颗粒物(PM10),75,99,71,33,27,109,,113,113,18,21,3,4,0.2,0.2
2025-03-30T2000,2312A,115.7789,33.8518,亳州市,三国揽胜宫,颗粒物(PM10),78,106,70,34,26,101,,108,108,14,14,4,5,0.3,0.3
2025-03-30T2000,3332A,115.7633,33.8034,亳州市,亳州学院,颗粒物(PM10),75,100,70,33,27,97,,106,106,12,11,6,6,0.4,0.4
2025-03-30T2000,2693A,82.0485,44.8556,博尔塔拉蒙古自治州,市党校,颗粒物(PM10),57,64,73,30,28,116,,111,111,31,33,4,2,0.1,0.2
2025-03-30T2000,2694A,82.0806,44.8969,博尔塔拉蒙古自治州,市环保局,,,,72,,18,,,70,,,23,,4,,0.8
2025-03-30T2000,1071A,116.8842,38.2991,沧州市,沧县城建局,颗粒物(PM10),66,82,65,39,34,78,,101,100,31,31,3,5,0.4,0.3
2025-03-30T2000,1072A,116.8584,38.3254,沧州市,电视转播站,细颗粒物(PM2.5),64,72,56,46,32,92,,109,109,29,30,7,6,0.4,0.4
2025-03-30T2000,1073A,116.8709,38.3228,沧州市,市环保局,颗粒物(PM10),68,86,60,44,31,87,,107,107,26,26,10,11,0.4,0.4
2025-03-30T2000,3324A,116.8136,38.3004,沧州市,河北水利电力学院,颗粒物(PM10),76,102,72,53,35,69,,97,95,43,34,4,4,0.3,0.3
2025-03-30T2000,2622A,97.1806,31.1273,昌都市,昌都监测站,,39,18,18,8,10,122,,124,123,2,7,8,7,0.1,0.2
2025-03-30T2000,3719A,97.1714,31.1406,昌都市,昌都会议中心,,37,16,18,12,11,116,,122,121,9,8,3,3,0.3,0.2
2025-03-30T2000,2690A,88.1236,43.8886,昌吉回族自治州,天山天池,颗粒物(PM10),59,68,54,22,16,103,,98,98,16,11,6,4,0.8,0.6
2025-03-30T2000,2692A,87.2717,44.0297,昌吉回族自治州,新区政务中心,颗粒物(PM10),62,74,85,17,24,107,,107,107,11,20,10,11,0.6,0.7
2025-03-30T2000,3613A,87.3095,44.0142,昌吉回族自治州,亚心广场,颗粒物(PM10),68,85,102,27,35,106,,105,105,6,18,7,8,0.4,0.6
2025-03-30T2000,1119A,125.3325,43.9166,长春市,食品厂,细颗粒物(PM2.5),64,58,30,46,17,77,,93,91,23,14,11,7,0.4,0.2
2025-03-30T2000,1120A,125.2863,43.9027,长春市,客车厂,细颗粒物(PM2.5),73,61,29,53,17,70,,88,86,29,15,10,7,0.6,0.4
2025-03-30T2000,1121A,125.2841,43.8463,长春市,邮电学院,细颗粒物(PM2.5),60,68,29,43,15,70,,92,90,27,9,13,8,0.4,0.3
2025-03-30T2000,1122A,125.3716,43.8772,长春市,劳动公园,细颗粒物(PM2.5),75,58,30,55,16,81,,94,93,16,6,9,7,0.2,0.4
2025-03-30T2000,1123A,125.3297,43.8805,长春市,园林处,颗粒物(PM10),58,66,27,36,15,81,,92,92,19,9,10,7,0.3,0.2
2025-03-30T2000,1124A,125.4605,43.79,长春市,净月潭,颗粒物(PM10),65,80,31,44,16,79,,93,92,15,9,11,6,0.6,0.4
2025-03-30T2000,1125A,125.7194,43.515,长春市,甩湾子,细颗粒物(PM2.5),59,56,38,42,21,78,,107,103,11,6,3,2,0.6,0.4
2025-03-30T2000,1126A,125.3863,43.8447,长春市,经开区环卫处,细颗粒物(PM2.5),62,69,30,44,14,70,,90,88,21,12,7,6,0.4,0.2
2025-03-30T2000,1127A,125.245,43.7783,长春市,高新区管委会,细颗粒物(PM2.5),99,,30,74,22,66,,92,89,28,13,10,8,0.6,0.3
2025-03-30T2000,1128A,125.1761,43.8325,长春市,岱山公园,细颗粒物(PM2.5),75,67,25,55,17,55,,96,91,44,10,11,5,0.6,0.3
2025-03-30T2000,1335A,113.0833,28.2325,长沙市,经开区环保局,,50,50,34,26,16,66,,89,85,22,11,3,3,0.4,0.3
2025-03-30T2000,1336A,112.8872,28.2189,长沙市,高开区环保局,颗粒物(PM10),55,60,35,36,18,64,,90,85,15,8,4,3,0.4,0.4
2025-03-30T2000,1337A,113.0792,28.2053,长沙市,马坡岭,,45,45,31,24,18,62,,85,81,17,6,4,4,0.5,0.4
2025-03-30T2000,1338A,112.9394,28.19,长沙市,湖南师范大学,颗粒物(PM10),51,51,33,30,18,53,,87,81,23,11,4,4,0.5,0.4
2025-03-30T2000,1339A,113.0178,28.1322,长沙市,雨花区环保局,,37,37,29,23,17,71,,82,80,18,13,5,4,0.4,0.4
2025-03-30T2000,1340A,112.9792,28.2597,长沙市,伍家岭,颗粒物(PM10),54,57,38,27,17,67,,84,82,16,9,2,2,0.4,0.4
2025-03-30T2000,1341A,113.0014,28.1944,长沙市,火车新站,,49,49,34,24,18,69,,87,84,25,14,5,5,0.5,0.4
2025-03-30T2000,1342A,112.9844,28.1178,长沙市,天心区环保局,,44,44,30,26,19,73,,89,86,20,12,2,2,0.7,0.6
2025-03-30T2000,1343A,112.8908,28.1308,长沙市,湖南中医药大学,颗粒物(PM10),51,51,34,26,19,50,,85,80,23,11,3,3,0.6,0.5
2025-03-30T2000,1344A,112.9581,28.3611,长沙市,沙坪,,50,50,42,29,22,38,,82,68,15,6,4,5,0.4,0.3
2025-03-30T2000,1727A,113.1147,36.1547,长治市,清华站,,30,29,41,17,14,94,,102,102,14,22,7,7,0.5,0.6
2025-03-30T2000,1730A,113.0886,36.2125,长治市,审计局,,,44,35,19,14,92,,104,104,,21,8,10,,0.4
2025-03-30T2000,1731A,113.0844,36.1856,长治市,长治八中,,48,48,48,18,21,94,,105,105,20,21,8,11,0.4,0.5
2025-03-30T2000,2845A,113.1569,36.1911,长治市,德盛苑,,30,30,30,19,14,95,,102,102,12,12,5,6,0.5,0.6
2025-03-30T2000,3568A,113.06,36.0464,长治市,向阳小学,颗粒物(PM10),51,52,53,7,20,94,,102,102,15,18,11,11,0.3,0.4
2025-03-30T2000,3569A,112.8792,36.3144,长治市,屯留一中,,39,39,35,14,11,82,,106,104,33,26,6,7,0.4,0.4
2025-03-30T2000,4189A,113.1131,36.19948,长治市,英华南巷50号,,33,33,40,19,17,97,,106,106,18,19,9,13,0.6,0.8
2025-03-30T2000,4190A,113.2367,36.3344,长治市,学府街1号,,38,38,50,20,23,56,,106,100,32,24,7,15,0.7,0.9
2025-03-30T2000,1854A,111.6975,28.9703,常德市,市二中,颗粒物(PM10),67,84,53,41,24,77,,84,84,13,11,4,4,0.3,0.3
2025-03-30T2000,1857A,111.7158,29.1456,常德市,白鹤山,,,,,,,,,,,,,,,,
2025-03-30T2000,3138A,111.7153,29.0289,常德市,武陵区永安,颗粒物(PM10),71,92,60,41,26,82,,90,90,17,13,4,3,0.5,0.5
2025-03-30T2000,3139A,111.6892,28.9881,常德市,鼎城区玉霞,颗粒物(PM10),63,75,56,38,25,90,,100,100,14,12,5,5,0.3,0.3
2025-03-30T2000,3140A,111.6625,29.0531,常德市,武陵区长庚,颗粒物(PM10),77,104,59,37,24,90,,97,97,15,9,5,4,0.4,0.4
2025-03-30T2000,1196A,119.9633,31.762,常州市,市监测站,颗粒物(PM10),62,74,66,31,29,86,,97,96,22,16,6,7,0.5,0.6
2025-03-30T2000,1200A,119.9468,31.7069,常州市,武进监测站,颗粒物(PM10),52,53,63,26,25,90,,97,97,26,27,14,14,0.3,0.4
2025-03-30T2000,1201A,119.9255,31.9087,常州市,安家,颗粒物(PM10),58,66,56,34,27,69,,96,94,35,24,6,7,0.6,5.1
2025-03-30T2000,3002A,119.9805,31.8174,常州市,行政中心,颗粒物(PM10),53,55,47,30,23,83,,97,95,30,28,6,7,0.4,0.4
2025-03-30T2000,3003A,120.0522,31.7748,常州市,经开区,颗粒物(PM10),55,59,62,25,22,87,,100,98,30,31,10,10,0.8,0.5
2025-03-30T2000,3010A,119.9025,31.7964,常州市,钟楼,颗粒物(PM10),56,61,64,33,26,86,,90,90,23,26,7,8,0.7,0.8
2025-03-30T2000,3429A,119.8598,31.7066,常州市,武进经发区,颗粒物(PM10),54,57,77,31,32,85,,99,98,32,26,7,8,0.6,0.7
2025-03-30T2000,3430A,119.5826,31.7245,常州市,金坛城区,颗粒物(PM10),57,64,87,33,37,95,,107,106,21,21,8,8,0.7,0.7
2025-03-30T2000,2220A,120.4318,41.5881,朝阳市,西梁,,38,38,36,19,14,78,,86,85,10,14,10,10,0.7,0.8
2025-03-30T2000,2221A,120.4521,41.5646,朝阳市,河畔小区,,34,34,30,14,13,82,,88,88,9,10,8,8,0.7,0.7
2025-03-30T2000,2222A,120.4176,41.5648,朝阳市,八里堡,,41,41,36,16,13,74,,84,83,13,13,7,8,0.6,0.6
2025-03-30T2000,2223A,120.3806,41.5969,朝阳市,农业园区,,40,40,37,22,17,76,,87,85,13,14,8,10,0.5,0.5
2025-03-30T2000,1705A,116.6367,23.6719,潮州市,西园路,,,,,,,,,,,,,,,,
2025-03-30T2000,3026A,116.6183,23.6608,潮州市,市政府,,9,8,6,6,3,21,,23,22,14,12,3,3,0.6,0.6
2025-03-30T2000,4036A,116.6461,23.6761,潮州市,金山,,7,6,4,3,3,22,,21,21,13,12,6,6,0.5,0.5
2025-03-30T2000,2472A,113.0073,25.9061,郴州市,马头岭,,15,15,21,9,9,43,,42,42,7,8,7,7,0.6,0.6
2025-03-30T2000,2473A,113.0116,25.8226,郴州市,市职中,,15,,18,10,10,48,,46,46,11,10,4,4,0.5,0.5
2025-03-30T2000,2475A,113.0383,25.8071,郴州市,市审计局,,17,9,19,8,11,54,,48,48,9,11,4,4,0.7,0.6
2025-03-30T2000,2476A,113.0348,25.7759,郴州市,市环保局,,16,14,24,11,13,47,,43,43,10,9,5,5,0.4,0.4
2025-03-30T2000,4252A,113.0138,25.8011,郴州市,好美居路49号,,17,17,19,7,13,54,,52,52,13,10,6,6,0.5,0.5
2025-03-30T2000,1431A,103.9728,30.7236,成都市,金泉两河,颗粒物(PM10),51,52,67,11,21,46,,60,56,23,19,1,2,0.6,0.6
2025-03-30T2000,1432A,104.176,30.6872,成都市,十里店,,38,38,39,22,14,51,,68,64,18,18,3,3,0.5,0.4
2025-03-30T2000,1433A,104.079,30.5706,成都市,三瓦窑,,40,40,57,25,20,46,,64,59,30,27,3,4,0.8,0.7
2025-03-30T2000,1434A,104.1114,30.63,成都市,沙河铺,,33,33,45,12,19,56,,66,60,17,17,5,5,0.5,0.4
2025-03-30T2000,1437A,104.0786,30.6531,成都市,君平街,,49,49,54,32,22,46,,68,60,31,23,5,6,0.8,0.7
2025-03-30T2000,1438A,103.613,31.0283,成都市,灵岩寺,,,,,,,,,,,,,,,,
2025-03-30T2000,2880A,104.0239,30.65639,成都市,大石西路,,49,49,59,27,23,33,,59,55,36,23,3,4,0.9,0.7
2025-03-30T2000,3136A,104.2725,30.5589,成都市,龙泉驿区区政府,,20,,23,14,12,51,,61,58,12,12,4,4,0.7,0.6
2025-03-30T2000,3357A,104.0106,30.6931,成都市,金博路,,42,42,50,19,17,39,,55,52,25,20,5,5,0.5,0.5
2025-03-30T2000,3359A,104.0578,30.5225,成都市,华阳,,32,27,50,22,29,43,,62,57,24,23,5,5,0.5,0.7
2025-03-30T2000,3488A,104.3853,30.7453,成都市,青白江技师分院,,34,34,33,20,15,44,,63,57,19,17,6,5,0.7,0.6
2025-03-30T2000,3489A,104.0789,30.4072,成都市,科学城,,32,32,39,19,18,48,,62,59,12,14,4,4,0.5,0.4
2025-03-30T2000,4011A,103.8506,30.6947,成都市,光华大道三段,颗粒物(PM10),55,59,68,33,28,46,,73,65,34,22,4,4,0.7,0.6
2025-03-30T2000,4224A,104.2433,30.5353,成都市,鲸龙路1057号,,29,29,37,17,17,51,,63,59,17,17,4,4,0.7,0.6
2025-03-30T2000,1062A,117.9531,40.9081,承德市,铁路,,35,35,32,14,10,54,,85,82,40,21,6,6,0.3,0.3
2025-03-30T2000,1063A,117.9392,40.9763,承德市,中国银行,,44,44,34,14,10,61,,87,84,24,11,11,5,0.7,0.4
2025-03-30T2000,1064A,117.9503,40.928,承德市,开发区,,24,24,36,16,15,74,,90,89,8,14,4,4,0.3,0.3
2025-03-30T2000,1065A,117.8051,40.9655,承德市,文化中心,,39,39,51,16,12,76,,84,84,20,22,10,6,0.9,0.5
2025-03-30T2000,1066A,117.9268,41.0026,承德市,离宫,,32,32,29,17,15,50,,66,64,9,8,16,12,0.4,0.3
2025-03-30T2000,2314A,117.47,30.6618,池州市,池州学院,颗粒物(PM10),78,105,116,48,43,101,,106,106,14,12,5,5,0.4,0.3
2025-03-30T2000,3237A,117.4918,30.6617,池州市,展览馆,颗粒物(PM10),73,96,109,45,43,101,,106,106,13,13,4,5,0.4,0.5
2025-03-30T2000,3333A,117.5627,30.695,池州市,第八中学,颗粒物(PM10),75,99,113,47,41,97,,104,104,12,11,4,5,0.6,0.6
2025-03-30T2000,3334A,117.5038,30.6243,池州市,第十二中学,颗粒物(PM10),74,98,106,43,39,90,,105,105,19,15,5,6,0.5,0.7
2025-03-30T2000,1744A,118.9233,42.2816,赤峰市,松山一中,,22,22,23,3,6,66,,76,75,20,17,9,9,0.5,0.5
2025-03-30T2000,1745A,118.9576,42.2728,赤峰市,哈达街,,25,22,18,6,7,78,,83,82,14,14,6,6,0.4,0.5
2025-03-30T2000,1746A,118.8788,42.2554,赤峰市,天义路,,31,31,27,15,8,56,,72,70,24,14,8,8,0.4,0.4
2025-03-30T2000,3058A,119.2658,42.0353,赤峰市,银河街,,26,26,33,7,15,66,,71,70,15,19,13,17,0.2,0.4
2025-03-30T2000,3286A,118.9359,42.3147,赤峰市,桥北物流园区,,22,20,17,13,13,70,,81,79,18,21,8,9,0.5,0.6
2025-03-30T2000,2521A,107.3476,22.4136,崇左市,市环保局江州分局,,26,26,16,12,6,44,,49,49,12,9,5,5,0.4,0.4
2025-03-30T2000,4256A,107.3750,22.3736,崇左市,石景林东路7号,,21,21,18,6,5,47,,52,52,13,10,6,5,0.5,0.4
2025-03-30T2000,2298A,118.3093,32.3153,滁州市,老年大学,,,79,91,41,38,,,106,106,21,19,4,3,0.6,0.5
2025-03-30T2000,2299A,118.3244,32.2786,滁州市,人大宾馆,细颗粒物(PM2.5),63,65,98,45,45,93,,101,101,22,20,8,8,0.5,0.5
2025-03-30T2000,3207A,118.3118,32.3038,滁州市,市政府原办公楼,细颗粒物(PM2.5),59,66,87,42,38,96,,104,104,24,20,4,4,0.3,0.3
2025-03-30T2000,3331A,118.3267,32.2634,滁州市,图书馆,细颗粒物(PM2.5),64,74,99,46,44,96,,104,104,28,25,5,5,0.4,0.4
2025-03-30T2000,2605A,101.5482,25.0441,楚雄彝族自治州,州环境监测站,细颗粒物(PM2.5),70,76,85,51,71,152,,160,157,8,22,8,11,0.6,0.8
2025-03-30T2000,2606A,101.538,25.0492,楚雄彝族自治州,市经济开发区,细颗粒物(PM2.5),75,88,86,55,68,147,,156,154,10,18,5,8,0.7,0.8
2025-03-30T2000,2548A,107.5277,31.2827,达州市,达州职业技术学院,,47,47,37,18,14,40,,65,64,25,18,5,5,0.4,0.3
2025-03-30T2000,2549A,107.5086,31.2186,达州市,市环境监测站,,42,42,38,14,12,62,,66,66,24,25,4,4,0.6,0.5
2025-03-30T2000,2550A,107.4988,31.2132,达州市,凤凰小区,,48,48,36,22,17,62,,69,69,22,24,6,6,0.5,0.4
2025-03-30T2000,2551A,107.5082,31.1986,达州市,达县机关宾馆,,44,44,36,15,15,56,,62,62,27,24,4,4,0.3,0.3
2025-03-30T2000,2552A,107.4644,31.2124,达州市,市政中心,,42,42,40,12,13,68,,66,66,14,21,1,2,0.3,0.4
2025-03-30T2000,2614A,100.1542,25.7054,大理白族自治州,大理市环境监测站,细颗粒物(PM2.5),69,80,79,50,55,139,,149,144,8,13,7,8,0.9,0.9
2025-03-30T2000,2615A,100.2171,25.5811,大理白族自治州,大理古城,细颗粒物(PM2.5),75,87,77,55,56,125,,141,134,9,8,7,8,0.6,0.7
2025-03-30T2000,1109A,121.612,38.9741,大连市,甘井子,,38,38,38,19,17,73,,94,91,33,22,8,7,0.2,0.3
2025-03-30T2000,1110A,121.565,38.9511,大连市,周水子,,37,37,39,22,20,63,,83,80,36,27,5,7,1.2,0.5
2025-03-30T2000,1111A,121.5637,38.8845,大连市,星海三站,,32,32,37,18,17,74,,92,90,20,15,6,8,0.4,0.5
2025-03-30T2000,1112A,121.6302,38.9117,大连市,青泥洼桥,,34,34,36,16,14,79,,94,93,23,15,9,9,0.5,0.5
2025-03-30T2000,1113A,121.6251,38.8638,大连市,傅家庄,,30,30,30,13,14,75,,89,87,26,16,9,10,0.2,0.3
2025-03-30T2000,1114A,121.5213,38.8661,大连市,七贤岭,,37,37,37,19,16,68,,85,83,24,17,7,6,0.4,0.4
2025-03-30T2000,1115A,121.2529,38.8061,大连市,旅顺,,27,27,28,16,16,77,,81,80,14,16,9,9,0.5,0.6
2025-03-30T2000,1116A,121.7485,39.1311,大连市,金州,颗粒物(PM10),51,51,39,20,15,79,,92,89,24,19,9,9,0.4,0.4
2025-03-30T2000,1117A,121.7811,39.0496,大连市,开发区,,39,39,43,18,17,72,,85,84,25,19,6,7,0.5,0.4
2025-03-30T2000,1118A,121.9762,39.0631,大连市,双D港,,33,33,33,13,14,72,,99,94,25,14,9,8,0.5,0.4
2025-03-30T2000,1789A,124.81117,46.03138,大庆市,大同区,细颗粒物(PM2.5),83,89,23,61,18,75,,87,87,20,7,9,3,0.7,0.3
2025-03-30T2000,1790A,125.129,46.533,大庆市,龙凤区,,40,40,35,22,18,64,,84,80,17,10,7,6,0.5,0.4
2025-03-30T2000,1791A,124.902,46.408,大庆市,红岗区,,25,25,18,16,15,79,,92,90,9,6,4,4,0.4,0.3
2025-03-30T2000,1792A,125.153,46.586,大庆市,萨尔图区,,41,41,27,19,13,62,,83,80,24,11,8,6,0.5,0.4
2025-03-30T2000,1793A,124.9042,46.6215,大庆市,让胡路区,,29,25,20,20,19,76,,83,83,8,6,5,5,0.2,0.2
2025-03-30T2000,3481A,125.141,46.634,大庆市,萨区政府监测点,,26,26,20,9,5,80,,92,90,10,7,7,5,0.3,0.4
2025-03-30T2000,1721A,113.3819,40.1097,大同市,果树场,,46,46,34,18,18,31,,92,86,61,26,8,13,0.8,0.8
2025-03-30T2000,1723A,113.2994,40.0758,大同市,云冈宾馆,,31,26,29,6,10,98,,102,102,12,21,8,12,0.7,0.8
2025-03-30T2000,1724A,113.3444,40.0917,大同市,大同大学,,,26,33,18,16,93,,98,98,8,28,14,18,,0.7
2025-03-30T2000,1725A,113.2661,40.1269,大同市,安家小村,,29,23,50,6,11,91,,98,98,7,14,9,12,0.2,0.9
2025-03-30T2000,1726A,113.2711,40.0844,大同市,教育学院,,29,25,28,14,12,91,,101,101,17,22,8,11,0.5,0.7
2025-03-30T2000,3282A,113.3397,40.0597,大同市,大同市卫生学校,,36,36,36,13,14,87,,94,94,18,25,6,10,0.4,0.5
2025-03-30T2000,3565A,113.1367,40.1122,大同市,云冈站,,25,23,28,3,12,77,,97,95,17,18,10,14,0.3,0.4
2025-03-30T2000,3566A,113.1186,40.2556,大同市,图书馆,,25,18,21,7,12,78,,93,91,5,8,8,9,0.2,0.4
2025-03-30T2000,3567A,113.5931,40.0461,大同市,区一中,,26,20,43,11,14,83,,97,96,11,17,13,20,0.5,0.7
2025-03-30T2000,4199A,113.2798,40.0997,大同市,魏都大道141号,,31,31,37,15,15,87,,103,102,18,26,11,14,0.4,0.6
2025-03-30T2000,2269A,124.1069,50.4097,大兴安岭地区,科技局,,30,26,18,21,15,82,,91,90,5,3,9,6,0.4,0.3
2025-03-30T2000,3663A,124.1164,50.4278,大兴安岭地区,红旗社区,,25,12,9,12,7,77,,90,89,11,4,10,4,0.4,0.3
2025-03-30T2000,1600A,124.3303,40.0625,丹东市,江湾东路,,38,38,42,22,21,74,,97,93,19,16,13,12,0.6,0.8
2025-03-30T2000,1601A,124.4256,40.1503,丹东市,临江后街,,27,25,52,12,26,86,,91,91,10,22,8,11,0.7,0.9
2025-03-30T2000,1602A,124.3933,40.1461,丹东市,元宝山,,30,30,35,15,16,85,,90,90,11,18,9,8,0.4,0.6
2025-03-30T2000,1603A,124.3633,40.1092,丹东市,民主桥,,31,31,49,10,27,88,,93,93,10,21,10,10,0.4,0.7
2025-03-30T2000,3541A,109.5726,19.5167,儋州市,第一中学子站,,11,9,8,3,3,34,,39,39,10,10,3,4,0.7,0.7
2025-03-30T2000,3542A,109.5567,19.5187,儋州市,东坡学校子站,,15,15,9,6,5,36,,42,42,12,10,5,5,0.7,0.7
2025-03-30T2000,2616A,98.5842,24.428,德宏傣族景颇族自治州,德宏州监测站,细颗粒物(PM2.5),100,121,138,75,102,132,,152,152,27,37,9,10,0.9,1.1
2025-03-30T2000,3677A,98.5881,24.4368,德宏傣族景颇族自治州,芒市人民政府综合楼,颗粒物(PM10),102,154,156,74,99,137,,158,158,23,22,10,10,0.9,1
2025-03-30T2000,1901A,104.4239,31.1208,德阳市,东山公园,,30,27,35,21,20,52,,68,65,14,10,2,2,0.5,0.4
2025-03-30T2000,1902A,104.3826,31.1317,德阳市,西小区,,32,30,41,22,22,53,,68,66,18,14,3,3,0.5,0.4
2025-03-30T2000,1904A,104.3553,31.1091,德阳市,耐火材料厂,,36,36,42,20,22,53,,68,65,18,16,4,4,0.3,0.3
2025-03-30T2000,3639A,104.4019,31.1244,德阳市,市教育局,,32,27,33,22,21,52,,70,66,20,15,3,3,0.4,0.4
2025-03-30T2000,1622A,116.3032,37.4674,德州市,儿童乐园,颗粒物(PM10),60,70,63,27,25,94,,114,114,25,20,6,6,0.6,0.6
2025-03-30T2000,1624A,116.2991,37.4451,德州市,监理站,颗粒物(PM10),58,66,57,36,28,96,,114,114,23,19,7,6,0.4,0.3
2025-03-30T2000,3066A,116.2721,37.4379,德州市,九衢泉纯净水厂,颗粒物(PM10),60,70,61,29,27,87,,110,110,35,35,9,9,0.5,0.4
2025-03-30T2000,3371A,116.3728,37.4403,德州市,开发区人民医院,颗粒物(PM10),58,66,61,36,23,79,,110,109,41,17,6,6,0.5,0.5
2025-03-30T2000,3372A,116.3572,37.4094,德州市,太阳城中学,颗粒物(PM10),71,92,65,48,29,97,,113,113,23,20,6,6,0.5,0.4
2025-03-30T2000,3511A,116.5652,37.3319,德州市,陵城艺术中心,颗粒物(PM10),60,70,64,29,30,95,,110,108,21,30,11,14,0.6,0.6
2025-03-30T2000,2621A,99.7056,27.8317,迪庆藏族自治州,迪庆州站,颗粒物(PM10),69,87,76,48,43,123,,140,132,16,11,9,8,0.9,0.8
2025-03-30T2000,3180A,99.7136,27.8094,迪庆藏族自治州,质量技术监督局,颗粒物(PM10),55,60,60,31,41,125,,141,132,14,12,9,9,0.9,0.9
2025-03-30T2000,4257A,104.6092,35.5962,定西市,将台街,颗粒物(PM10),82,113,119,27,35,94,,102,102,18,24,7,7,1.0,0.5
2025-03-30T2000,4309A,104.6159,35.5701,定西市,正龙路62号,颗粒物(PM10),76,101,122,30,37,92,,109,107,20,14,22,11,4.1,0.8
2025-03-30T2000,1389A,113.7547,23.0494,东莞市,莞城梨川,,16,16,6,9,4,27,,38,30,18,12,3,3,0.5,0.5
2025-03-30T2000,1390A,113.7944,23.0128,东莞市,东城石井,,12,12,5,6,3,31,,38,32,15,13,5,5,0.6,0.5
2025-03-30T2000,1391A,113.7383,22.9658,东莞市,南城西平,,15,15,7,6,3,19,,30,26,26,21,6,6,0.7,0.7
2025-03-30T2000,3319A,113.7338,23.0381,东莞市,万江金泰,,11,11,5,6,3,34,,42,34,8,6,1,2,0.9,0.8
2025-03-30T2000,3626A,113.7533,23.0202,东莞市,南城元岭,,13,13,5,9,3,23,,37,28,16,10,5,5,0.6,0.6
2025-03-30T2000,3627A,113.7875,23.0457,东莞市,东城主山,,11,11,4,6,2,22,,34,30,21,15,6,6,0.6,0.6
2025-03-30T2000,1666A,118.6614,37.4309,东营市,市环保局,颗粒物(PM10),58,66,61,31,23,107,,110,110,22,35,6,11,0.5,0.6
2025-03-30T2000,3036A,118.6904,37.4338,东营市,开发区管委会,"颗粒物(PM10),细颗粒物(PM2.5)",62,73,68,44,29,103,,108,108,29,38,6,9,0.6,0.7
2025-03-30T2000,3365A,118.5719,37.565,东营市,垦利区民丰路,颗粒物(PM10),59,68,55,34,26,102,,110,110,19,24,11,13,0.6,0.6
2025-03-30T2000,3498A,118.5055,37.8612,东营市,河口城区,颗粒物(PM10),54,58,55,22,19,99,,100,100,16,24,5,9,0.8,0.8
2025-03-30T2000,3646A,118.4978,37.4623,东营市,胜利站,颗粒物(PM10),58,66,65,36,27,99,,107,107,32,40,11,13,0.5,0.5
2025-03-30T2000,3734A,118.35,37.26,东营市,理想之城,颗粒物(PM10),62,73,64,29,24,105,,111,111,24,37,7,8,0.4,0.5
2025-03-30T2000,1591A,110.0023,39.8129,鄂尔多斯市,综合楼,,27,27,27,3,7,79,,96,94,22,23,8,13,0.4,0.3
2025-03-30T2000,1592A,109.9486,39.8261,鄂尔多斯市,巴音孟克林场办事处,,29,29,24,9,10,80,,99,97,20,23,6,9,0.3,0.4
2025-03-30T2000,1593A,109.7736,39.5986,鄂尔多斯市,康泽苑,,27,17,23,7,9,86,,99,98,13,10,3,3,0.3,0.3
2025-03-30T2000,1594A,109.8119,39.5989,鄂尔多斯市,华泰汽车城,,26,14,27,9,13,81,,96,95,18,18,3,4,0.3,0.3
2025-03-30T2000,1595A,109.9734,39.7884,鄂尔多斯市,奥林花园,,,19,30,,8,85,,99,98,17,29,5,9,0.5,0.5
2025-03-30T2000,2436A,114.8938,30.3994,鄂州市,市政府,颗粒物(PM10),73,96,86,42,35,93,,94,94,12,14,5,6,0.6,0.7
2025-03-30T2000,2437A,114.8989,30.3714,鄂州市,赵家坝,颗粒物(PM10),77,104,96,36,35,68,,73,73,21,23,3,4,0.4,0.4
2025-03-30T2000,3654A,114.8094,30.4089,鄂州市,精准医疗中心,颗粒物(PM10),80,110,90,43,36,97,,115,115,25,21,8,5,0.6,0.6
2025-03-30T2000,2454A,109.4978,30.2981,恩施土家族苗族自治州,湖北民院,,49,49,49,18,23,85,,94,94,6,3,2,2,0.3,0.3
2025-03-30T2000,2455A,109.4707,30.2798,恩施土家族苗族自治州,州电力总公司,,41,41,45,16,23,56,,81,81,34,13,5,5,0.1,0.2
2025-03-30T2000,3549A,109.5061,30.3772,恩施土家族苗族自治州,龙凤新区,,35,35,44,12,19,51,,83,82,12,8,6,6,0.3,0.3
2025-03-30T2000,2499A,108.3411,21.6158,防城港市,沙万,,16,16,10,10,5,40,,41,40,15,12,7,7,0.4,0.3
2025-03-30T2000,2500A,108.3514,21.7731,防城港市,防城档案局,,34,34,15,13,5,36,,35,33,14,10,1,1,0.4,0.4
2025-03-30T2000,2501A,108.3506,21.6414,防城港市,大海花园,,23,23,11,13,6,42,,41,40,12,8,5,5,0.7,0.7
2025-03-30T2000,1371A,113.1294,23.0067,佛山市,湾梁,,17,17,10,3,4,32,,43,36,26,21,6,6,0.8,0.7
2025-03-30T2000,1372A,113.1083,23.0478,佛山市,华材职中,,22,22,13,11,8,30,,39,34,27,26,6,5,0.5,0.5
2025-03-30T2000,1373A,113.144,23.0453,佛山市,南海气象局,,18,18,8,3,5,27,,36,30,25,21,4,4,0.6,0.6
2025-03-30T2000,1374A,113.2881,22.8094,佛山市,顺德苏岗,,15,15,10,3,1,20,,29,24,24,19,4,4,0.6,0.6
2025-03-30T2000,1376A,112.8383,22.8678,佛山市,高明孔堂,,35,35,15,12,5,24,,40,32,27,15,13,6,0.7,0.6
2025-03-30T2000,1377A,112.8836,23.1588,佛山市,三水监测站,,22,22,9,8,5,30,,39,31,23,20,1,3,0.5,0.5
2025-03-30T2000,1378A,112.867,23.185,佛山市,三水云东海,,15,15,10,9,7,30,,34,32,22,20,1,2,0.5,0.5
2025-03-30T2000,3625A,113.2544,22.7642,佛山市,容桂街道办,,19,19,6,9,4,24,,33,30,27,21,6,6,0.7,0.6
2025-03-30T2000,1280A,119.3903,26.0543,福州市,鼓山,,,,7,,3,,,77,,,3,,3,,0.4
2025-03-30T2000,1282A,119.2681,26.0504,福州市,师大,,28,6,14,3,6,88,,79,79,8,8,3,3,0.5,0.4
2025-03-30T2000,1283A,119.2984,26.1028,福州市,五四北路,,27,6,12,3,7,84,,77,77,8,9,3,3,0.6,0.5
2025-03-30T2000,1284A,119.2648,26.0768,福州市,杨桥西路,,27,10,15,3,5,84,,77,77,11,11,3,3,0.6,0.5
2025-03-30T2000,1285A,119.317,26.0746,福州市,紫阳,,27,7,14,3,6,84,,78,78,13,14,4,4,0.4,0.3
2025-03-30T2000,3048A,119.5799,26.0936,福州市,九龙,,25,6,13,3,5,80,,80,80,7,7,3,3,0.3,0.3
2025-03-30T2000,3526A,119.5189,25.9664,福州市,吴航,,28,7,15,6,9,87,,86,86,5,6,3,4,0.5,0.5
2025-03-30T2000,1755A,123.7977,41.8491,抚顺市,望花区,颗粒物(PM10),57,64,39,36,20,81,,100,98,28,20,5,5,0.6,0.7
2025-03-30T2000,1756A,123.9161,41.8822,抚顺市,顺城区,颗粒物(PM10),53,56,40,30,18,88,,98,98,23,21,10,7,0.8,0.7
2025-03-30T2000,1757A,124.0436,41.8611,抚顺市,东洲区,颗粒物(PM10),51,52,40,33,19,87,,95,95,16,14,9,8,0.6,0.6
2025-03-30T2000,1758A,123.9247,41.8642,抚顺市,新抚区,,,,40,,20,70,,88,86,31,19,6,6,0.5,0.5
2025-03-30T2000,1759A,124.0972,41.8961,抚顺市,大伙房水库,,50,50,37,35,20,90,,95,95,12,18,9,8,0.7,0.6
2025-03-30T2000,1760A,123.7086,41.8391,抚顺市,沈抚新城,,45,42,37,31,17,86,,99,98,19,19,10,9,0.5,0.4
2025-03-30T2000,2376A,116.2127,28.0814,抚州市,桐源党溪,颗粒物(PM10),51,52,42,25,17,66,,74,74,3,3,5,4,0.6,0.6
2025-03-30T2000,2377A,116.3544,27.9831,抚州市,市站,,36,36,31,19,13,57,,64,62,12,6,11,9,0.6,0.6
2025-03-30T2000,2378A,116.3565,27.963,抚州市,血防站,,46,46,37,15,12,58,,64,63,12,6,3,3,0.9,0.7
2025-03-30T2000,2379A,116.3564,28.0007,抚州市,采茶剧团,,,38,30,20,14,52,,59,58,9,4,2,3,,1.3
2025-03-30T2000,2380A,116.385,27.9647,抚州市,医学分院,,,33,29,17,11,,,52,52,10,6,5,4,0.6,0.4
2025-03-30T2000,2207A,121.6094,41.998,阜新市,工业园区,颗粒物(PM10),55,60,37,29,16,81,,97,94,13,8,18,9,0.4,0.3
2025-03-30T2000,2208A,121.6697,42.0279,阜新市,长青街,,38,38,32,26,14,83,,98,94,14,8,12,7,0.4,0.3
2025-03-30T2000,2209A,121.6673,42.0705,阜新市,农业园区,颗粒物(PM10),52,53,38,12,10,87,,94,92,8,4,12,8,0.7,0.6
2025-03-30T2000,2210A,121.6717,42.0224,阜新市,东苑,,48,48,38,29,15,84,,94,91,12,7,13,7,0.5,0.5
2025-03-30T2000,2211A,121.6506,42.0498,阜新市,玉龙新城,,50,50,34,31,13,85,,95,92,10,12,11,6,0.4,0.3
2025-03-30T2000,2301A,115.8277,32.8929,阜阳市,市监测站,颗粒物(PM10),81,111,90,45,46,100,,106,106,18,18,7,8,0.3,0.3
2025-03-30T2000,2303A,115.8554,32.8605,阜阳市,开发区,颗粒物(PM10),96,141,114,39,43,99,,110,110,25,21,6,7,0.5,0.4
2025-03-30T2000,2875A,115.784,32.8892,阜阳市,阜阳职业技术学院,颗粒物(PM10),80,110,90,42,40,101,,103,103,17,16,7,7,0.4,0.4
2025-03-30T2000,3468A,115.7901,32.8613,阜阳市,市规划展馆,颗粒物(PM10),76,102,95,45,43,105,,110,110,15,13,7,7,0.3,0.3
2025-03-30T2000,3469A,115.836,32.9183,阜阳市,枣园社区,颗粒物(PM10),76,102,96,46,43,112,,114,114,14,16,5,6,0.4,0.4
2025-03-30T2000,2669A,102.9099,34.9841,甘南藏族自治州,州政府,颗粒物(PM10),89,127,112,43,38,83,,89,89,10,11,9,8,0.5,0.4
2025-03-30T2000,3380A,102.8914,34.9617,甘南藏族自治州,甘肃民族师范学院,颗粒物(PM10),96,142,119,47,38,99,,102,102,11,14,8,9,0.6,0.6
2025-03-30T2000,2570A,101.9603,30.0475,甘孜藏族自治州,水桥子,,22,22,14,11,10,44,,54,53,26,16,3,3,0.5,0.4
2025-03-30T2000,3065A,101.9533,29.9972,甘孜藏族自治州,州环保局,,19,19,16,8,7,48,,60,59,26,13,5,4,0.4,0.4
2025-03-30T2000,3414A,115.8347,28.932,赣江新区,桑海产业园,颗粒物(PM10),68,85,90,30,30,54,,66,66,19,18,5,5,0.4,0.3
2025-03-30T2000,2362A,114.9017,25.9149,赣州市,通天岩,,21,11,14,6,4,65,,66,66,5,4,11,9,1.3,1.2
2025-03-30T2000,2363A,114.9367,25.8664,赣州市,地委,,18,18,19,3,6,53,,51,51,8,8,9,4,0.7,0.6
2025-03-30T2000,2364A,114.9461,25.8481,赣州市,气象台,,26,26,24,3,4,60,,56,56,14,13,7,6,0.3,0.3
2025-03-30T2000,2365A,114.9322,25.8333,赣州市,市图书馆,,18,8,9,6,6,57,,56,56,14,13,4,4,0.5,0.3
2025-03-30T2000,2366A,114.8905,25.8471,赣州市,华坚鞋城,,19,16,12,9,8,59,,55,55,13,13,7,7,0.3,0.3
2025-03-30T2000,3109A,115.0093,25.8613,赣州市,赣县区卫计委,,17,,7,9,6,53,,52,52,6,6,2,2,0.4,0.3
2025-03-30T2000,2683A,106.2319,36.1417,固原市,马园,细颗粒物(PM2.5),93,116,94,69,34,83,,93,93,25,29,6,6,0.7,0.8
2025-03-30T2000,2684A,106.2792,36.0022,固原市,监测站,颗粒物(PM10),72,93,84,33,32,102,,105,105,14,15,7,8,0.5,0.6
2025-03-30T2000,2685A,106.2375,36.0211,固原市,新区,颗粒物(PM10),68,86,81,24,32,106,,104,104,14,29,7,8,0.3,0.5
2025-03-30T2000,3522A,106.2177,35.9959,固原市,原州区十五小,颗粒物(PM10),73,96,87,32,31,95,,98,98,18,21,6,6,0.4,0.5
2025-03-30T2000,2543A,106.6308,30.5278,广安市,小平旧居,,,,,,,,,,,,,,,,
2025-03-30T2000,2544A,106.6303,30.4576,广安市,市委,,26,26,23,12,13,51,,53,53,16,11,3,3,0.4,0.3
2025-03-30T2000,2545A,106.6271,30.4663,广安市,友谊中学,,21,21,19,11,11,52,,56,56,13,11,1,1,0.4,0.4
2025-03-30T2000,2547A,106.6388,30.4551,广安市,广电花园,,24,24,21,10,13,42,,46,46,22,14,5,4,0.4,0.4
2025-03-30T2000,2902A,106.6351,30.4865,广安市,北辰小学,,26,18,16,18,13,49,,55,55,13,11,3,3,0.4,0.3
2025-03-30T2000,2523A,105.8945,32.4535,广元市,黑石坡,,36,36,53,15,28,27,,54,47,23,7,11,4,0.6,0.3
2025-03-30T2000,2524A,105.821,32.4444,广元市,老城,,,,62,42,26,34,,52,50,24,15,3,2,0.6,0.5
2025-03-30T2000,2526A,105.8628,32.4287,广元市,监测站,,48,40,59,33,27,44,,59,55,16,10,5,4,0.4,0.3
2025-03-30T2000,3617A,105.8047,32.4166,广元市,经开区,,49,49,64,30,31,33,,48,47,26,17,4,5,0.5,0.5
2025-03-30T2000,1345A,113.2347,23.1423,广州市,广雅中学,,24,24,13,14,8,32,,37,34,25,23,3,3,0.4,0.4
2025-03-30T2000,1346A,113.2612,23.105,广州市,市五中,,21,21,8,13,5,31,,40,38,19,11,1,1,0.7,0.8
2025-03-30T2000,1348A,113.3478,23.0916,广州市,广东商学院,,18,18,7,6,2,32,,41,38,20,15,4,4,0.4,0.4
2025-03-30T2000,1349A,113.4332,23.1047,广州市,市八十六中,,21,21,9,14,5,30,,40,39,23,17,2,3,0.8,0.8
2025-03-30T2000,1350A,113.3505,22.9483,广州市,番禺中学,,24,24,10,7,2,31,,38,36,26,21,3,3,0.5,0.4
2025-03-30T2000,1351A,113.2146,23.3916,广州市,花都师范,,21,21,9,10,4,31,,45,40,17,11,4,4,0.4,0.5
2025-03-30T2000,1352A,113.2597,23.1331,广州市,市监测站,,19,19,9,9,4,32,,39,38,27,20,4,4,0.4,0.4
2025-03-30T2000,1353A,113.5618,23.312,广州市,九龙镇镇龙,,12,9,3,6,2,36,,40,39,12,11,4,4,0.4,0.4
2025-03-30T2000,1354A,113.2765,23.1544,广州市,麓湖,,18,18,9,9,5,34,,39,39,19,18,4,3,0.4,0.4
2025-03-30T2000,1355A,113.443,23.3035,广州市,帽峰山森林公园,细颗粒物(PM2.5),70,,2,51,5,37,,44,42,10,9,5,5,0.6,0.6
2025-03-30T2000,2846A,113.3221,23.1322,广州市,体育西,,23,23,11,10,4,35,,40,39,17,13,4,4,0.5,0.4
2025-03-30T2000,3298A,113.5717,23.5491,广州市,从化街口,,14,8,4,3,2,43,,50,48,9,8,7,7,0.5,0.5
2025-03-30T2000,3299A,113.3472,23.3692,广州市,白云竹料,,16,14,5,10,4,50,,55,54,12,11,6,6,0.4,0.4
2025-03-30T2000,3300A,113.2981,23.237,广州市,白云嘉禾,,21,21,9,14,5,32,,40,35,22,19,3,3,0.4,0.4
2025-03-30T2000,3301A,113.4256,23.1716,广州市,黄埔科学城,,19,19,7,12,5,31,,42,41,15,9,7,7,0.5,0.4
2025-03-30T2000,3302A,113.3942,23.0483,广州市,番禺大学城,,13,8,8,8,3,30,,38,36,26,23,5,5,0.4,0.3
2025-03-30T2000,3303A,113.4922,22.8168,广州市,南沙黄阁,,19,19,10,9,5,22,,30,27,28,25,5,4,0.7,0.7
2025-03-30T2000,3304A,113.5342,22.7896,广州市,南沙街,,20,20,10,11,6,19,,30,24,29,24,5,4,0.7,0.6
2025-03-30T2000,3443A,113.2902,23.5544,广州市,花都梯面,,18,14,7,12,5,34,,43,41,12,10,4,4,0.5,0.5
2025-03-30T2000,3445A,113.7858,23.7478,广州市,从化良口,,11,6,2,3,1,35,,45,42,10,8,6,6,0.4,0.4
2025-03-30T2000,3446A,113.8051,23.2614,广州市,增城荔城,,12,8,3,3,2,37,,43,39,11,9,7,7,0.3,0.3
2025-03-30T2000,2505A,109.568,23.1478,贵港市,德智高中,,,,,,,,,,,,,,,,
2025-03-30T2000,2506A,109.6047,23.0666,贵港市,江南子站,,24,24,12,13,6,50,,51,51,10,8,2,1,0.7,0.7
2025-03-30T2000,2507A,109.6014,23.0948,贵港市,贵城子站,,,,,,,,,,,,,,,,
2025-03-30T2000,2508A,109.5669,23.1065,贵港市,荷城子站,,22,22,11,14,4,44,,46,46,16,12,3,2,0.5,0.5
2025-03-30T2000,3405A,109.5886,23.1172,贵港市,新世纪学校,,29,29,16,14,10,49,,50,50,10,8,1,1,0.7,0.6
2025-03-30T2000,1439A,106.6899,26.5998,贵阳市,马鞍山,,31,31,16,19,11,66,,68,68,17,14,5,4,0.3,0.3
2025-03-30T2000,1441A,106.6243,26.6266,贵阳市,鉴湖路,,46,46,28,29,10,64,,68,67,6,6,6,6,0.3,0.3
2025-03-30T2000,1442A,106.7487,26.6343,贵阳市,燕子冲,,35,27,15,24,15,67,,66,66,11,11,5,5,0.2,0.2
2025-03-30T2000,1443A,106.6555,26.4365,贵阳市,碧云窝,,34,34,30,17,11,67,,64,64,11,11,13,10,0.3,0.4
2025-03-30T2000,1445A,106.7109,26.6027,贵阳市,红边门,,39,36,23,27,15,63,,66,65,22,17,8,5,0.2,0.2
2025-03-30T2000,1446A,106.7164,26.5699,贵阳市,新华路,,34,34,22,17,14,61,,63,63,12,7,6,5,0.4,0.3
2025-03-30T2000,1447A,106.674,26.5424,贵阳市,太慈桥,,34,34,21,19,12,67,,66,66,14,12,6,6,0.3,0.4
2025-03-30T2000,1552A,106.805,26.3003,贵阳市,桐木岭,,42,42,26,23,15,63,,63,63,5,5,1,1,0.7,0.7
2025-03-30T2000,4230A,106.6882,26.5695,贵阳市,花果园大街66号,,39,,15,27,17,64,,65,65,13,11,7,5,0.4,0.3
2025-03-30T2000,4231A,106.6873,26.5169,贵阳市,漓江路57号,,34,34,24,14,13,70,,67,67,12,12,11,11,0.4,0.4
2025-03-30T2000,1862A,110.4144,25.3167,桂林市,电子科大尧山校区,,,,,,,,,,,,,,,,
2025-03-30T2000,1864A,110.3089,25.2708,桂林市,龙隐路小学,,29,,13,20,10,54,,62,60,9,7,13,9,0.5,0.5
2025-03-30T2000,1865A,110.2869,25.2178,桂林市,八中,,,,15,,12,,,58,,,11,,7,,0.5
2025-03-30T2000,3531A,110.296,25.1253,桂林市,旅游学院,,18,,8,12,9,52,,55,55,9,7,7,7,0.5,0.4
2025-03-30T2000,4222A,110.1835,25.2444,桂林市,环湖路276号,,15,12,14,9,12,47,,50,50,16,15,6,7,0.4,0.4
2025-03-30T2000,4301A,110.2803,25.2773,桂林市,信义路13号,,22,17,15,15,11,51,,57,56,13,11,16,11,0.6,0.6
2025-03-30T2000,2674A,100.2561,34.4714,果洛藏族自治州,玛沁县大武镇,颗粒物(PM10),126,202,124,67,32,118,,121,121,2,3,4,6,0.3,0.4
2025-03-30T2000,1129A,126.5422,45.755,哈尔滨市,岭北,,,35,19,14,13,86,,91,90,13,11,6,14,,1.2
2025-03-30T2000,1130A,126.561,45.8167,哈尔滨市,松北商大,,30,30,22,19,13,81,,92,91,10,10,5,7,0.7,0.6
2025-03-30T2000,1131A,126.979,45.5419,哈尔滨市,阿城会宁,,45,42,28,31,18,76,,90,87,11,12,11,7,0.5,0.4
2025-03-30T2000,1132A,126.599,45.7222,哈尔滨市,南岗学府路,颗粒物(PM10),51,51,29,23,10,76,,88,86,15,12,7,8,0.8,0.7
2025-03-30T2000,1133A,126.689,45.7733,哈尔滨市,太平宏伟公园,,46,41,25,32,12,78,,91,90,18,10,10,7,0.7,0.7
2025-03-30T2000,1134A,126.635,45.7667,哈尔滨市,道外承德广场,,49,44,31,34,18,66,,90,87,32,13,8,6,0.6,0.6
2025-03-30T2000,1135A,126.685,45.7319,哈尔滨市,香坊红旗大街,颗粒物(PM10),52,53,29,33,16,59,,89,85,31,13,11,10,0.7,0.6
2025-03-30T2000,1136A,126.6411,45.7258,哈尔滨市,动力和平路,,,,21,32,14,73,,79,78,15,13,8,10,0.5,0.5
2025-03-30T2000,1137A,126.593,45.7478,哈尔滨市,道里建国路,细颗粒物(PM2.5),58,,25,41,16,67,,88,85,22,9,4,4,0.5,0.4
2025-03-30T2000,1138A,126.615,45.61,哈尔滨市,平房东轻厂,,29,29,23,16,12,63,,85,80,16,17,8,7,0.6,0.7
2025-03-30T2000,1139A,126.595,45.9855,哈尔滨市,呼兰师专,,42,42,24,27,15,79,,83,83,13,14,11,6,0.4,0.4
2025-03-30T2000,1140A,126.6206,45.6842,哈尔滨市,省农科院,,49,49,37,30,19,61,,87,83,18,18,8,8,0.6,0.5
2025-03-30T2000,2688A,93.5128,42.8172,哈密市,地区监测站,细颗粒物(PM2.5),94,74,75,70,48,81,,82,82,12,32,8,7,0.2,0.3
2025-03-30T2000,2689A,93.4961,42.8328,哈密市,哈密师范学校,颗粒物(PM10),53,55,62,19,21,90,,90,90,10,38,4,5,0.2,0.4
2025-03-30T2000,2671A,100.9048,36.9639,海北藏族自治州,海晏县西海镇,颗粒物(PM10),122,194,116,73,41,115,,114,114,1,6,5,9,0.4,0.5
2025-03-30T2000,3867A,102.0738,36.5056,海东市,平安区公安北苑,颗粒物(PM10),122,194,158,40,49,102,,101,101,6,17,13,11,0.9,1.1
2025-03-30T2000,1409A,110.576,19.9507,海口市,东寨港,,15,,4,6,6,45,,44,44,6,8,7,5,0.6,0.6
2025-03-30T2000,1410A,110.3232,20.0574,海口市,海南大学,,22,22,15,11,6,37,,35,34,8,9,2,2,0.5,0.5
2025-03-30T2000,1411A,110.283,20.0053,海口市,秀英海南医院,,11,11,9,6,6,35,,35,32,13,13,4,4,0.4,0.4
2025-03-30T2000,1412A,110.338,19.9969,海口市,海南师范大学,,14,10,9,8,6,42,,38,37,7,7,2,3,0.4,0.4
2025-03-30T2000,1413A,110.33,20.0356,海口市,龙华路环保局宿舍,,13,12,10,9,7,39,,37,34,8,8,4,4,0.5,0.5
2025-03-30T2000,3539A,110.5111,19.9736,海口市,桂林洋子站,,,9,13,3,6,54,,52,52,6,8,,4,0.4,0.4
2025-03-30T2000,2673A,100.6188,36.2866,海南藏族自治州,共和县恰卜恰镇,细颗粒物(PM2.5),202,222,110,152,80,100,,110,110,16,12,13,12,0.6,0.5
2025-03-30T2000,2676A,97.3731,37.3753,海西蒙古族藏族自治州,德令哈市,颗粒物(PM10),180,310,266,90,61,121,,114,114,2,5,12,13,0.4,0.5
2025-03-30T2000,1048A,114.5302,36.6116,邯郸市,东污水处理厂,颗粒物(PM10),61,71,56,22,27,80,,98,98,26,32,4,6,0.6,0.6
2025-03-30T2000,1049A,114.4918,36.5713,邯郸市,矿院,颗粒物(PM10),65,80,71,27,24,75,,92,92,18,29,5,6,0.5,0.5
2025-03-30T2000,1050A,114.484,36.6133,邯郸市,丛台公园,颗粒物(PM10),61,72,64,26,28,85,,98,98,18,27,7,8,0.5,0.7
2025-03-30T2000,3458A,114.7895,36.5593,邯郸市,香泉濮院小区,颗粒物(PM10),59,68,64,24,24,87,,103,103,16,18,6,5,0.5,0.4
2025-03-30T2000,3579A,114.50634,36.77178,邯郸市,永年区实验高中,颗粒物(PM10),60,70,80,32,30,92,,101,101,16,30,7,7,0.6,0.8
2025-03-30T2000,3580A,114.20016,36.44293,邯郸市,峰峰矿区临水派出所,细颗粒物(PM2.5),62,65,67,44,29,82,,119,112,21,30,13,18,0.8,1.1
2025-03-30T2000,2634A,106.9893,33.1842,汉中市,汉川机床厂子校,,,,74,26,28,58,,94,89,9,5,7,8,0.9,1
2025-03-30T2000,2635A,107.0154,33.0706,汉中市,市监测站,,47,47,73,23,29,64,,83,82,18,18,7,6,0.8,0.8
2025-03-30T2000,2636A,107.0089,33.1138,汉中市,鑫源开发区,,36,36,77,23,36,66,,86,83,17,20,11,8,0.5,0.4
2025-03-30T2000,2637A,107.007,33.0323,汉中市,南郑大河坎水厂,,36,36,65,22,28,57,,82,80,18,16,2,5,0.6,0.6
2025-03-30T2000,1223A,120.2072,30.2111,杭州市,滨江,,29,28,78,13,36,90,,94,94,17,23,8,7,0.1,0.3
2025-03-30T2000,1224A,120.0633,30.2747,杭州市,西溪,,31,31,83,16,31,90,,92,92,20,20,7,6,0.3,0.4
2025-03-30T2000,1226A,120.3417,30.3150,杭州市,下沙,,26,23,90,6,33,81,,90,90,28,30,5,5,0.2,0.4
2025-03-30T2000,1227A,120.1269,30.2456,杭州市,卧龙桥,,29,27,74,12,32,92,,93,93,14,16,7,6,0.6,0.7
2025-03-30T2000,1228A,120.1903,30.2692,杭州市,浙江农大,,28,28,77,11,30,81,,88,88,23,19,3,2,0.4,0.5
2025-03-30T2000,1230A,120.1197,30.3119,杭州市,和睦小学,,28,28,81,19,33,89,,94,94,16,19,7,7,0.4,0.5
2025-03-30T2000,1231A,120.3019,30.4183,杭州市,临平镇,,30,27,81,8,30,94,,100,100,18,24,6,6,0.4,0.5
2025-03-30T2000,1232A,120.2753,30.1839,杭州市,城厢镇,,30,30,85,13,36,84,,95,95,28,26,8,7,0.2,0.4
2025-03-30T2000,1233A,120.0883,30.1808,杭州市,云栖,,29,29,70,12,28,92,,88,88,18,19,9,8,0.4,0.6
2025-03-30T2000,3557A,119.9464,30.0494,杭州市,镇二中,,28,26,72,11,33,88,,80,80,20,26,6,6,0.4,0.6
2025-03-30T2000,3558A,119.7183,30.2367,杭州市,市府大楼,,39,39,82,18,34,84,,75,75,23,19,8,7,0.7,0.7
2025-03-30T2000,3656A,120.1556,30.2864,杭州市,消防大队,,31,31,85,13,38,92,,98,98,28,28,3,3,0.3,0.5
2025-03-30T2000,1270A,117.1959,31.7848,合肥市,明珠广场,颗粒物(PM10),76,102,125,51,41,93,,104,104,24,25,6,5,0.6,0.4
2025-03-30T2000,1271A,117.3072,31.8764,合肥市,三里街,颗粒物(PM10),78,105,128,48,40,84,,94,94,27,23,7,6,0.7,0.6
2025-03-30T2000,1272A,117.2588,31.8707,合肥市,琥珀山庄,细颗粒物(PM2.5),80,97,132,59,55,99,,104,104,24,22,4,3,0.7,0.6
2025-03-30T2000,1273A,117.1604,31.9052,合肥市,董铺水库,颗粒物(PM10),84,117,137,44,35,111,,112,112,18,28,4,3,0.5,0.4
2025-03-30T2000,1274A,117.25,31.8571,合肥市,长江中路,颗粒物(PM10),76,102,130,48,42,98,,103,103,22,20,9,8,0.7,0.6
2025-03-30T2000,1275A,117.266,31.9436,合肥市,庐阳区,颗粒物(PM10),89,127,141,56,48,85,,98,98,31,29,5,4,0.7,0.6
2025-03-30T2000,1276A,117.3453,31.8616,合肥市,瑶海区,颗粒物(PM10),80,110,133,46,40,87,,96,96,30,25,8,6,0.6,0.5
2025-03-30T2000,1277A,117.3027,31.7964,合肥市,包河区,颗粒物(PM10),78,105,126,46,41,97,,108,108,20,23,6,5,0.7,0.6
2025-03-30T2000,1278A,117.2776,31.7385,合肥市,滨湖新区,颗粒物(PM10),82,114,130,56,42,87,,103,103,26,18,4,2,0.7,0.6
2025-03-30T2000,1279A,117.1318,31.8403,合肥市,高新区,,,110,130,48,41,,,103,103,31,30,2,2,0.4,0.3
2025-03-30T2000,3464A,117.3803,31.9147,合肥市,高教基地,颗粒物(PM10),81,111,129,58,45,81,,97,95,31,23,4,3,0.6,0.4
2025-03-30T2000,3614A,79.924,37.0877,和田地区,地区环保局,,,,2534,,675,50,,48,48,8,15,1,1,0.4,0.3
2025-03-30T2000,3615A,79.9131,37.113,和田地区,市环保局,颗粒物(PM10),500,1813,2293,483,568,58,,57,57,9,13,1,1,0.3,0.4
2025-03-30T2000,2516A,108.2011,24.715,河池市,东仁乐园,,21,,11,11,6,66,,64,64,7,7,6,6,0.7,0.7
2025-03-30T2000,2517A,108.0497,24.6947,河池市,市环保站,,21,,7,12,5,67,,66,66,4,4,6,5,0.4,0.4
2025-03-30T2000,2518A,108.0983,24.6989,河池市,市疾控中心,,22,,9,9,5,68,,66,66,2,3,6,6,0.4,0.4
2025-03-30T2000,1696A,114.6778,23.7569,河源市,源西,,11,6,4,3,4,34,,41,37,12,11,4,4,0.6,0.6
2025-03-30T2000,1697A,114.6944,23.7586,河源市,东埔,,13,13,4,3,4,30,,40,35,16,12,3,4,0.5,0.5
2025-03-30T2000,1698A,114.6892,23.7233,河源市,老城,,12,12,6,3,2,31,,40,36,15,12,4,4,0.5,0.5
2025-03-30T2000,1718A,115.4208,35.2464,菏泽市,气象局,颗粒物(PM10),72,94,81,38,33,93,,103,103,16,18,4,7,0.4,0.4
2025-03-30T2000,3374A,115.5564,35.0891,菏泽市,定陶老年大学,颗粒物(PM10),68,85,65,36,24,91,,100,100,22,22,8,6,0.5,0.5
2025-03-30T2000,4184A,115.4797,35.24401,菏泽市,永昌路1号,颗粒物(PM10),68,85,73,38,31,94,,99,99,16,18,4,8,0.2,0.2
2025-03-30T2000,4193A,115.4715,35.2800,菏泽市,长城路999号,颗粒物(PM10),68,86,74,31,25,101,,103,103,17,19,7,7,0.5,0.5
2025-03-30T2000,2514A,111.5264,24.4172,贺州市,环保小区,,19,13,14,13,8,41,,46,44,11,10,5,6,0.5,0.4
2025-03-30T2000,2515A,111.5608,24.4078,贺州市,政协大楼,,27,27,23,11,8,34,,38,38,13,11,6,6,0.5,0.4
2025-03-30T2000,3534A,111.4744,24.4553,贺州市,西湾,,20,20,13,11,7,41,,43,42,12,11,6,7,0.5,0.5
2025-03-30T2000,2385A,114.17,35.9019,鹤壁市,市监测站,颗粒物(PM10),64,78,79,39,32,81,,92,90,20,25,6,12,0.7,1
2025-03-30T2000,2386A,114.2956,35.7511,鹤壁市,市交警支队,颗粒物(PM10),67,84,75,34,30,82,,88,88,20,32,5,11,1.2,1.1
2025-03-30T2000,2387A,114.2878,35.7306,鹤壁市,迎宾馆,颗粒物(PM10),70,89,79,35,25,78,,89,89,22,32,5,7,0.5,0.7
2025-03-30T2000,3474A,114.2617,35.6822,鹤壁市,大新区,颗粒物(PM10),61,71,74,37,29,69,,85,84,26,38,6,9,0.6,0.8
2025-03-30T2000,3596A,114.1572,35.9603,鹤壁市,南山宾馆,颗粒物(PM10),65,79,86,41,41,83,,94,92,22,27,5,13,0.5,1
2025-03-30T2000,2244A,130.2537,47.3416,鹤岗市,哈啤分公司,,29,28,19,20,14,66,,74,72,4,2,13,14,0.4,0.3
2025-03-30T2000,2245A,130.2684,47.3086,鹤岗市,斯达机电,,30,30,22,18,13,66,,72,70,6,2,16,13,0.3,0.2
2025-03-30T2000,2246A,130.3114,47.3388,鹤岗市,东山纸板厂,,36,36,23,25,18,72,,77,76,6,5,12,12,0.6,0.6
2025-03-30T2000,2247A,130.1097,47.3382,鹤岗市,五号水库,,,,,,,,,,,,,,,,
2025-03-30T2000,2263A,127.4833,50.2524,黑河市,交通局,,30,22,18,21,11,79,,82,82,6,5,6,6,0.4,0.3
2025-03-30T2000,2264A,127.5144,50.2341,黑河市,环保局,,28,19,17,19,14,82,,85,85,9,5,11,5,0.3,0.3
2025-03-30T2000,2265A,127.5291,50.2472,黑河市,大黑河岛,,31,31,14,13,5,28,,29,29,7,7,1,2,0.3,0.2
2025-03-30T2000,1074A,115.6838,37.7541,衡水市,电机北厂,颗粒物(PM10),55,60,66,38,32,99,,110,110,20,22,7,7,0.4,0.4
2025-03-30T2000,1075A,115.6303,37.7316,衡水市,市监测站,颗粒物(PM10),54,57,57,26,25,92,,108,108,24,23,14,13,0.3,0.3
2025-03-30T2000,3188A,115.6683,37.7217,衡水市,市城管局,细颗粒物(PM2.5),73,69,64,53,33,84,,106,106,28,28,11,9,0.4,0.4
2025-03-30T2000,3459A,115.5989,37.5491,衡水市,地表水厂,颗粒物(PM10),62,73,64,30,30,66,,110,106,46,38,10,9,0.4,0.4
2025-03-30T2000,2456A,112.5003,26.9167,衡阳市,原169医院,,15,14,24,10,14,43,,53,53,21,14,6,6,0.4,0.4
2025-03-30T2000,2457A,112.6194,26.9258,衡阳市,衡阳化工总厂,,30,26,22,21,14,70,,78,77,11,10,5,4,0.5,0.5
2025-03-30T2000,2458A,112.6211,26.8956,衡阳市,珠晖区环保局,,23,21,22,14,16,73,,78,78,12,11,6,5,0.5,0.5
2025-03-30T2000,2459A,112.6197,26.8733,衡阳市,市委党校,,22,21,22,14,13,70,,78,77,13,11,8,7,0.5,0.5
2025-03-30T2000,2460A,112.6006,26.8919,衡阳市,市监测站,,48,47,27,33,17,71,,78,77,15,13,7,7,0.7,0.6
2025-03-30T2000,2461A,112.5664,26.9056,衡阳市,真空机电公司,,26,26,25,13,16,69,,75,74,13,12,4,4,0.4,0.5
2025-03-30T2000,3399A,112.6703,26.882,衡阳市,师范学院,,21,18,24,12,18,66,,76,76,15,12,9,8,0.5,0.5
2025-03-30T2000,2608A,103.3772,23.3993,红河哈尼族彝族自治州,污水处理厂,细颗粒物(PM2.5),54,48,24,38,20,47,,51,51,11,10,13,8,0.5,0.5
2025-03-30T2000,2609A,103.3861,23.35,红河哈尼族彝族自治州,监测站,,40,40,28,28,18,52,,49,49,9,10,13,11,0.5,0.5
2025-03-30T2000,3038A,103.3758,23.368,红河哈尼族彝族自治州,州图书馆,,48,,12,33,19,51,,49,49,11,10,6,6,0.4,0.4
2025-03-30T2000,1090A,111.6507,40.7517,呼和浩特市,呼市一监,颗粒物(PM10),51,51,25,22,10,97,,102,102,13,9,13,10,0.7,0.6
2025-03-30T2000,1091A,111.6572,40.8033,呼和浩特市,小召,颗粒物(PM10),52,53,28,23,10,89,,96,96,25,17,8,6,0.6,0.4
2025-03-30T2000,1094A,111.7516,40.8369,呼和浩特市,如意水处理厂,颗粒物(PM10),51,52,25,26,11,98,,99,99,17,17,11,7,0.7,0.5
2025-03-30T2000,1095A,111.7276,40.8062,呼和浩特市,二十九中,,50,50,24,23,10,97,,99,99,20,13,8,5,0.9,0.8
2025-03-30T2000,1096A,111.5512,40.7866,呼和浩特市,工大金川校区,,49,49,24,16,10,95,,102,102,17,16,9,7,0.6,0.6
2025-03-30T2000,1097A,111.717,40.7612,呼和浩特市,化肥厂生活区,颗粒物(PM10),57,63,26,26,10,97,,102,102,24,16,11,8,0.6,0.4
2025-03-30T2000,3698A,111.5968,40.8178,呼和浩特市,红旗小学,,48,48,28,20,11,76,,99,98,39,21,6,6,0.5,0.5
2025-03-30T2000,3699A,111.6518,40.8389,呼和浩特市,海东办,,44,44,23,15,11,81,,92,92,18,14,7,7,0.6,0.5
2025-03-30T2000,2192A,119.7594,49.2261,呼伦贝尔市,区环保局,,46,41,31,32,19,65,,81,78,14,8,5,5,0.4,0.3
2025-03-30T2000,3061A,119.7512,49.1577,呼伦贝尔市,国华电力东,,32,30,25,22,13,70,,81,80,6,4,5,5,0.3,0.3
2025-03-30T2000,1250A,120.0751,30.8669,湖州市,城西水厂,,30,30,82,12,33,96,,100,100,19,32,7,7,0.3,0.3
2025-03-30T2000,2873A,120.0830,30.8929,湖州市,仁皇山新区,,31,31,79,14,35,95,,101,101,18,32,5,5,0.4,0.5
2025-03-30T2000,2907A,120.1844,30.8596,湖州市,吴兴区站,,30,28,79,12,34,93,,98,98,16,28,6,6,0.2,0.3
2025-03-30T2000,3562A,120.4148,30.8538,湖州市,南浔区站,,32,22,76,8,32,100,,103,103,13,25,2,3,0.3,0.4
2025-03-30T2000,1607A,120.9049,40.7211,葫芦岛市,龙港区,,28,16,30,8,13,89,,88,88,8,20,8,10,0.5,0.6
2025-03-30T2000,1608A,120.8392,40.7514,葫芦岛市,化工街,,28,22,34,12,14,88,,91,91,14,34,10,16,0.4,0.5
2025-03-30T2000,1609A,120.8341,40.7073,葫芦岛市,新区,,31,16,31,10,16,99,,96,96,10,27,9,17,0.2,0.5
2025-03-30T2000,1610A,120.8695,40.7677,葫芦岛市,东城区,,25,,31,17,15,80,,83,83,16,32,5,15,0.5,0.6
2025-03-30T2000,2482A,109.5981,27.5721,怀化市,林科所,,29,29,22,9,11,37,,66,60,12,6,4,4,0.3,0.3
2025-03-30T2000,2483A,109.9453,27.5444,怀化市,河西地税局,,33,33,23,23,14,42,,63,60,19,6,8,8,0.4,0.3
2025-03-30T2000,2484A,109.9781,27.5342,怀化市,市四医院,,26,24,21,18,12,58,,63,63,10,5,5,4,0.1,0.2
2025-03-30T2000,2485A,109.9972,27.5578,怀化市,监测楼,,25,21,19,17,11,61,,66,66,11,6,8,9,0.3,0.3
2025-03-30T2000,2486A,110.0394,27.583,怀化市,市委党校,,22,20,21,15,13,62,,64,63,10,8,6,4,0.4,0.4
2025-03-30T2000,1210A,119.036,33.5981,淮安市,钵池山,颗粒物(PM10),60,70,52,42,33,89,,101,101,26,22,11,10,0.8,0.6
2025-03-30T2000,1211A,119.007,33.575,淮安市,北京南路,颗粒物(PM10),57,63,52,37,28,98,,103,103,24,26,10,10,0.7,0.6
2025-03-30T2000,1212A,118.989,33.6067,淮安市,市监测站,细颗粒物(PM2.5),55,58,52,39,32,97,,103,103,27,29,11,10,0.6,0.8
2025-03-30T2000,1213A,119.135,33.5039,淮安市,楚州区监测站,颗粒物(PM10),61,71,55,35,31,78,,94,93,25,25,14,9,0.9,0.7
2025-03-30T2000,3426A,118.8755,33.2894,淮安市,新华书店,"颗粒物(PM10),细颗粒物(PM2.5)",63,76,59,45,35,80,,101,100,32,25,11,9,0.7,0.6
2025-03-30T2000,4206A,119.0288,33.6319,淮安市,承德北路606号,颗粒物(PM10),65,80,66,34,33,91,,98,98,28,28,9,9,0.8,0.7
2025-03-30T2000,2282A,116.8004,33.975,淮北市,监测站,颗粒物(PM10),61,72,60,37,29,97,,104,104,20,17,8,7,0.7,0.6
2025-03-30T2000,2283A,116.8091,33.9007,淮北市,烈山区政府,颗粒物(PM10),70,89,66,36,30,100,,110,110,24,24,5,7,0.7,0.7
2025-03-30T2000,3330A,116.8873,33.9836,淮北市,杜集区检察院,颗粒物(PM10),75,99,67,36,30,92,,104,104,24,22,6,7,0.6,0.6
2025-03-30T2000,4017A,116.7923,33.9535,淮北市,市博物馆,颗粒物(PM10),62,74,63,30,27,100,,105,105,20,20,10,10,0.7,0.7
2025-03-30T2000,2277A,116.8305,32.7727,淮南市,潘集区政府,颗粒物(PM10),111,171,121,71,53,81,,105,103,33,23,6,8,0.5,0.5
2025-03-30T2000,2279A,116.8569,32.5951,淮南市,谢家集区政府,颗粒物(PM10),105,160,126,54,45,67,,104,100,42,23,7,8,0.3,0.3
2025-03-30T2000,2280A,116.8281,32.633,淮南市,八公山区政府,颗粒物(PM10),99,147,118,48,42,84,,104,102,17,16,6,7,0.3,0.3
2025-03-30T2000,2281A,116.6325,32.6201,淮南市,焦岗湖风景区管理处,颗粒物(PM10),85,119,94,37,34,79,,79,79,9,18,6,5,0.5,0.5
2025-03-30T2000,2894A,117.0566,32.6531,淮南市,经济技术开发区消防队,颗粒物(PM10),105,159,107,58,42,87,,112,109,18,20,6,6,0.4,0.4
2025-03-30T2000,3329A,117.0108,32.5893,淮南市,山南新区,颗粒物(PM10),111,172,134,65,40,87,,108,106,29,25,7,7,0.5,0.4
2025-03-30T2000,4209A,117.0031,32.6445,淮南市,国庆中路369号,细颗粒物(PM2.5),103,141,111,77,46,88,,109,108,21,17,7,7,0.4,0.3
2025-03-30T2000,2446A,114.9028,30.4742,黄冈市,职工中心,,,75,68,35,32,110,,118,118,,19,6,6,0.6,0.5
2025-03-30T2000,2929A,114.8858,30.4519,黄冈市,红卫路,颗粒物(PM10),69,87,81,30,30,107,,111,111,15,14,5,6,0.6,0.6
2025-03-30T2000,3398A,114.9136,30.4445,黄冈市,市林业局,颗粒物(PM10),68,85,75,32,28,102,,108,108,14,14,7,7,0.7,0.7
2025-03-30T2000,2672A,102.0199,35.5102,黄南藏族自治州,同仁县隆务镇,颗粒物(PM10),109,167,117,50,35,86,,97,97,15,7,17,18,0.7,0.4
2025-03-30T2000,2295A,118.2903,29.6963,黄山市,延安路89号,颗粒物(PM10),60,70,60,40,33,59,,68,68,10,7,4,4,0.4,0.3
2025-03-30T2000,2297A,118.1371,30.2756,黄山市,黄山区政府5号楼,颗粒物(PM10),66,81,82,31,28,72,,88,88,6,4,8,7,0.4,0.5
2025-03-30T2000,4210A,118.3354,29.7203,黄山市,滨江东路7-2号,颗粒物(PM10),60,70,63,27,26,71,,66,66,5,5,4,4,0.4,0.4
2025-03-30T2000,2423A,115.0601,30.2313,黄石市,沈家营,颗粒物(PM10),70,90,85,35,31,102,,110,110,12,13,6,7,0.6,0.6
2025-03-30T2000,2426A,114.8988,30.2019,黄石市,铁山,颗粒物(PM10),69,88,84,48,40,87,,107,107,25,19,10,7,1.3,1.4
2025-03-30T2000,2427A,115.0307,30.2092,黄石市,团城山,颗粒物(PM10),68,85,80,32,30,99,,103,103,18,18,8,7,0.7,0.7
2025-03-30T2000,3149A,115.0235,30.1578,黄石市,笔架山北路,颗粒物(PM10),60,70,63,38,29,93,,104,104,17,11,11,9,0.6,0.6
2025-03-30T2000,4185A,115.0780,30.21118,黄石市,磁湖东路29号,颗粒物(PM10),72,94,94,40,36,112,,114,114,13,17,7,8,0.6,0.6
2025-03-30T2000,1392A,114.4183,23.0528,惠州市,河南岸金山湖子站,,11,9,6,3,2,33,,41,36,16,15,8,8,0.6,0.5
2025-03-30T2000,1393A,114.4053,23.0822,惠州市,下埔横江三路子站,,10,10,5,3,3,32,,42,36,15,12,8,8,0.5,0.5
2025-03-30T2000,1394A,114.4103,23.1142,惠州市,江北云山西路子站,,10,8,5,3,3,28,,40,34,20,16,9,9,0.5,0.4
2025-03-30T2000,1395A,114.4645,22.7833,惠州市,惠阳区承修路船湖子站,,9,9,6,6,4,24,,35,30,15,12,8,8,0.5,0.4
2025-03-30T2000,1396A,114.5317,22.7422,惠州市,大亚湾管委会子站,,8,6,4,3,2,25,,35,30,14,10,6,6,0.8,0.7
2025-03-30T2000,3314A,114.4338,22.8134,惠州市,惠阳秋长,,10,7,4,3,3,30,,40,35,9,6,3,2,0.6,0.6
2025-03-30T2000,3452A,114.6517,22.775,惠州市,大亚湾霞涌,,,6,4,3,2,26,,33,30,13,12,6,6,,0.9
2025-03-30T2000,2240A,130.9762,45.3001,鸡西市,环保局,,25,25,20,12,11,73,,87,84,14,6,5,4,0.6,0.5
2025-03-30T2000,2243A,130.9429,45.3039,鸡西市,第一中学,,26,17,14,15,9,82,,88,87,5,2,5,5,0.4,0.4
2025-03-30T2000,3707A,131.0207,45.3073,鸡西市,欧美日汽修厂,,42,42,24,26,13,76,,94,90,14,7,5,5,0.5,0.4
2025-03-30T2000,3709A,130.9967,45.3106,鸡西市,市政设施管理处,,29,26,22,20,11,61,,83,79,18,8,4,3,0.5,0.3
2025-03-30T2000,2367A,114.9754,27.0803,吉安市,红声器材厂,,45,45,31,25,11,60,,65,64,14,14,12,11,0.4,0.4
2025-03-30T2000,2368A,114.9658,27.0999,吉安市,市森林工业局,,45,45,26,22,12,57,,66,64,15,11,10,8,0.3,0.3
2025-03-30T2000,2369A,114.99,27.1312,吉安市,市环境监测站,,36,36,27,16,22,68,,69,69,6,8,22,15,0.4,0.3
2025-03-30T2000,2370A,115.0093,27.0968,吉安市,青原区法院,,40,40,28,23,15,65,,73,72,18,17,10,9,0.4,0.4
2025-03-30T2000,1772A,126.54,43.8622,吉林市,哈达湾,细颗粒物(PM2.5),68,69,39,49,19,96,,96,96,12,8,8,7,0.6,0.5
2025-03-30T2000,1773A,126.5844,43.8358,吉林市,东局子,细颗粒物(PM2.5),77,83,33,56,20,94,,103,103,18,9,7,6,0.6,0.4
2025-03-30T2000,1774A,126.5052,43.8245,吉林市,电力学院,细颗粒物(PM2.5),74,74,36,54,22,96,,100,100,12,7,7,6,0.5,0.4
2025-03-30T2000,1775A,126.6133,43.8972,吉林市,江北,细颗粒物(PM2.5),99,78,38,74,22,92,,96,96,16,11,3,3,0.2,0.1
2025-03-30T2000,1776A,126.555,43.8306,吉林市,江南公园,细颗粒物(PM2.5),80,86,34,59,22,97,,100,100,11,7,7,6,0.3,0.2
2025-03-30T2000,1778A,126.7061,43.7133,吉林市,丰满,细颗粒物(PM2.5),64,59,35,46,20,113,,118,118,9,5,7,6,0.3,0.3
2025-03-30T2000,2868A,126.4739,43.953,吉林市,九站,颗粒物(PM10),63,76,42,37,17,91,,94,94,10,6,10,9,0.7,0.6
2025-03-30T2000,1299A,116.9862,36.6114,济南市,科干所,颗粒物(PM10),57,63,49,32,19,101,,107,107,15,13,8,6,0.5,0.4
2025-03-30T2000,1300A,116.9376,36.665,济南市,农科所,颗粒物(PM10),61,71,60,24,17,82,,104,103,29,21,8,8,0.5,0.4
2025-03-30T2000,1301A,117.1265,36.6734,济南市,开发区,颗粒物(PM10),61,71,46,29,22,100,,111,111,22,12,8,7,0.6,0.5
2025-03-30T2000,1303A,117.0624,36.6868,济南市,省种子仓库,颗粒物(PM10),64,78,59,34,21,99,,110,110,18,15,5,5,0.7,0.6
2025-03-30T2000,1304A,116.9489,36.6447,济南市,机床二厂,颗粒物(PM10),81,112,69,39,25,75,,102,100,33,20,9,8,0.5,0.4
2025-03-30T2000,1305A,117.0495,36.663,济南市,市监测站,颗粒物(PM10),62,73,54,29,22,85,,104,103,29,14,9,8,0.5,0.4
2025-03-30T2000,1306A,116.7675,36.5484,济南市,长清党校,颗粒物(PM10),63,76,58,39,24,93,,110,109,31,17,6,6,0.6,0.6
2025-03-30T2000,1616A,117.6795,36.229,济南市,技术学院,颗粒物(PM10),60,70,60,39,28,104,,112,112,20,35,10,12,0.7,0.7
2025-03-30T2000,1961A,117.532,36.6868,济南市,东山小学,颗粒物(PM10),58,66,48,22,17,96,,112,111,18,16,7,6,0.7,0.7
2025-03-30T2000,3059A,117.7161,36.2049,济南市,泰兴公司,颗粒物(PM10),65,80,62,36,31,99,,114,113,23,36,8,10,0.5,0.5
2025-03-30T2000,3064A,117.6867,36.2171,济南市,莱芜战役纪念馆,颗粒物(PM10),59,68,65,31,26,106,,114,114,22,38,6,7,0.5,0.5
2025-03-30T2000,3494A,117.1673,36.9782,济南市,济阳区政府,颗粒物(PM10),63,76,67,32,21,82,,104,103,32,31,10,9,0.5,0.4
2025-03-30T2000,3495A,117.1171,36.63,济南市,锦屏中学,颗粒物(PM10),61,71,44,24,16,90,,106,105,18,12,9,9,0.4,0.3
2025-03-30T2000,3682A,116.9814,36.6819,济南市,济南四建,细颗粒物(PM2.5),77,75,55,56,28,92,,106,106,24,14,6,6,0.4,0.3
2025-03-30T2000,1653A,116.6251,35.4302,济宁市,火炬城,颗粒物(PM10),53,56,51,27,28,101,,109,109,12,16,8,9,0.3,0.3
2025-03-30T2000,1655A,116.5491,35.4042,济宁市,电化厂,颗粒物(PM10),72,93,76,39,33,78,,105,103,31,23,5,10,0.4,0.4
2025-03-30T2000,3500A,116.5814,35.3707,济宁市,北湖一中,颗粒物(PM10),53,56,48,12,20,93,,105,105,19,20,10,12,0.2,0.3
2025-03-30T2000,3501A,116.8249,35.5593,济宁市,服务中心,颗粒物(PM10),59,67,71,25,26,78,,106,104,37,35,6,8,0.8,0.8
2025-03-30T2000,3678A,116.5907,35.4054,济宁市,市第七中学,颗粒物(PM10),58,65,57,24,21,96,,107,107,13,18,5,6,0.2,0.3
2025-03-30T2000,2255A,130.2751,46.8028,佳木斯市,佳纺,,33,33,20,18,11,67,,79,74,12,8,5,6,0.3,0.3
2025-03-30T2000,2256A,130.3995,46.8307,佳木斯市,发电厂,,24,19,13,10,8,75,,86,84,11,7,4,3,0.6,0.5
2025-03-30T2000,2257A,130.3258,46.7975,佳木斯市,环保局,,22,22,16,8,9,69,,89,83,16,9,3,2,0.3,0.3
2025-03-30T2000,2258A,130.3648,46.8032,佳木斯市,十一中,,24,22,18,11,11,75,,83,80,13,10,4,4,0.4,0.3
2025-03-30T2000,2259A,130.3794,46.7588,佳木斯市,四丰,,25,18,17,3,6,78,,79,79,2,2,1,1,0.7,0.7
2025-03-30T2000,1252A,120.7436,30.778,嘉兴市,清河小学,,,25,44,7,23,92,,93,93,15,26,9,7,,0.6
2025-03-30T2000,1253A,120.726,30.7478,嘉兴市,嘉兴学院,,,30,72,8,25,62,,95,88,12,28,7,8,,0.8
2025-03-30T2000,2872A,120.7846,30.7525,嘉兴市,南湖区残联,,45,45,81,3,25,99,,100,100,11,19,8,8,0.7,0.6
2025-03-30T2000,3407A,120.6916,30.7739,嘉兴市,秀洲住建,,31,,67,8,27,98,,103,103,15,23,6,5,0.6,0.6
2025-03-30T2000,1945A,98.2908,39.7711,嘉峪关市,气象局,颗粒物(PM10),58,66,80,17,26,91,,96,96,18,19,52,17,0.7,0.6
2025-03-30T2000,2884A,98.2672,39.7978,嘉峪关市,酒钢宾馆,颗粒物(PM10),65,80,88,17,24,96,,95,95,11,20,24,22,0,0.4
2025-03-30T2000,3248A,98.2643,39.7724,嘉峪关市,雄关区,颗粒物(PM10),54,57,69,23,25,92,,96,96,17,24,10,8,0.3,0.5
2025-03-30T2000,1383A,113.1064,22.6058,江门市,北街,,28,28,11,10,5,20,,37,28,35,22,2,2,0.6,0.5
2025-03-30T2000,1384A,113.0731,22.5835,江门市,西区,,28,28,11,7,4,18,,38,29,32,20,6,6,0.6,0.5
2025-03-30T2000,1385A,113.0219,22.5311,江门市,圭峰西,,19,19,9,7,4,20,,34,30,31,20,4,3,0.6,0.5
2025-03-30T2000,1386A,113.0828,22.5947,江门市,东湖,,24,24,11,12,7,19,,39,30,33,20,7,7,0.5,0.5
2025-03-30T2000,3311A,113.1075,22.5647,江门市,江海富民,,18,18,15,8,7,22,,36,28,30,20,6,6,0.6,0.6
2025-03-30T2000,3449A,113.05,22.4667,江门市,新会银湖,,22,22,9,11,7,16,,31,24,32,24,1,2,0.7,0.7
2025-03-30T2000,1830A,113.1992,35.2590,焦作市,影视城,,,,,,,,,,,,,,,,
2025-03-30T2000,3169A,113.2725,35.2067,焦作市,太极体育中心,颗粒物(PM10),55,59,62,24,32,92,,107,107,22,24,8,10,0.7,0.8
2025-03-30T2000,3335A,113.3137,35.2641,焦作市,马村街道办,颗粒物(PM10),63,75,69,33,33,94,,102,102,20,30,10,13,0.5,0.7
2025-03-30T2000,3336A,113.2465,35.2373,焦作市,焦作技师学院,颗粒物(PM10),52,54,72,17,28,91,,110,110,23,29,6,13,0.4,0.6
2025-03-30T2000,3477A,113.1656,35.2539,焦作市,中站许衡医院,颗粒物(PM10),63,76,61,29,30,60,,111,108,54,24,8,13,0.6,1
2025-03-30T2000,3981A,113.2449,35.1803,焦作市,原李万街道办,颗粒物(PM10),64,78,59,12,21,89,,109,109,26,30,9,9,0.4,0.6
2025-03-30T2000,4264A,113.2340,35.2190,焦作市,新安路1731号,,48,48,72,26,33,91,,105,105,26,29,7,13,0.5,0.7
2025-03-30T2000,1708A,116.3701,23.5345,揭阳市,新兴,,16,16,10,11,7,9,,19,16,28,19,6,6,0.7,0.6
2025-03-30T2000,1709A,116.3264,23.5443,揭阳市,西马,,12,12,9,7,4,15,,21,19,20,14,6,6,0.6,0.6
2025-03-30T2000,1710A,116.3611,23.5626,揭阳市,东兴,,15,15,12,10,7,9,,16,14,25,19,6,6,0.8,0.7
2025-03-30T2000,1711A,116.4151,23.5294,揭阳市,渔湖,,28,8,11,3,4,18,,24,20,56,22,5,5,0.6,0.6
2025-03-30T2000,3320A,116.403,23.5699,揭阳市,曲溪,,18,18,9,7,5,23,,25,21,23,23,3,4,0.6,0.5
2025-03-30T2000,1944A,102.1692,38.5167,金昌市,天庆家园,,33,32,40,14,22,103,,104,104,7,13,7,17,0.8,0.8
2025-03-30T2000,4022A,102.1647,38.5371,金昌市,金川区人防中心,,50,50,55,15,23,98,,101,101,15,20,8,11,0.5,0.6
2025-03-30T2000,4239A,102.1930,38.5319,金昌市,长春路96号,颗粒物(PM10),53,55,76,12,23,94,,96,96,3,10,10,49,0.6,0.7
2025-03-30T2000,1262A,119.647,29.077,金华市,十五中,,41,41,51,27,29,59,,70,66,24,22,5,5,0.5,0.5
2025-03-30T2000,1263A,119.686,29.1029,金华市,监测站,细颗粒物(PM2.5),53,53,54,37,32,55,,72,67,23,19,4,4,0.5,0.4
2025-03-30T2000,3659A,119.656,29.1131,金华市,气象局,,46,46,57,28,31,64,,68,66,18,23,5,4,0.3,0.3
2025-03-30T2000,1767A,121.1115,41.0879,锦州市,南山,,26,25,28,18,17,71,,86,83,24,12,8,16,0.4,0.5
2025-03-30T2000,1768A,121.0604,40.8428,锦州市,开发区,,26,23,35,12,15,81,,88,87,17,21,9,22,0.4,0.5
2025-03-30T2000,1769A,121.1836,41.1119,锦州市,百股街道,,25,16,26,12,10,80,,89,88,14,11,6,11,0.5,0.5
2025-03-30T2000,1770A,121.1178,41.1222,锦州市,天安街道,,28,28,28,17,15,73,,85,82,23,12,11,24,0.4,0.4
2025-03-30T2000,1771A,121.1303,41.1386,锦州市,北湖公园,,24,19,23,13,11,76,,87,85,17,5,10,10,0.4,0.3
2025-03-30T2000,2160A,112.85,35.5051,晋城市,自来水公司,,47,47,52,14,17,104,,107,107,18,21,9,14,0.4,0.9
2025-03-30T2000,2161A,112.8318,35.4936,晋城市,白云商贸,颗粒物(PM10),61,71,52,14,10,101,,107,107,21,20,7,9,0.5,0.8
2025-03-30T2000,2162A,112.8508,35.4887,晋城市,市环保局,,44,44,57,14,17,101,,106,106,20,20,5,10,0.3,0.8
2025-03-30T2000,2163A,112.8676,35.4897,晋城市,技术学院,颗粒物(PM10),63,76,59,9,14,100,,106,106,19,27,8,12,0.4,0.9
2025-03-30T2000,2165A,112.8453,35.546,晋城市,白马寺,,38,38,45,17,23,106,,106,106,10,15,6,15,0.5,1.3
2025-03-30T2000,3620A,112.8271,35.4828,晋城市,泽州一中,,33,33,46,12,15,98,,104,104,17,16,9,12,0.4,0.7
2025-03-30T2000,2173A,112.7249,37.7067,晋中市,南都小区,,47,47,55,23,22,92,,104,104,18,24,7,13,0.4,0.5
2025-03-30T2000,2174A,112.6991,37.6982,晋中市,榆次区政府,,48,48,55,19,15,91,,107,106,19,26,8,13,0.5,0.5
2025-03-30T2000,2865A,112.7195,37.6828,晋中市,榆次三中,颗粒物(PM10),51,51,57,17,15,95,,106,106,15,26,9,11,0.5,0.4
2025-03-30T2000,4200A,112.7478,37.6954,晋中市,迎宾街26号,,46,46,59,12,16,100,,111,111,12,21,7,11,0.4,0.3
2025-03-30T2000,2439A,112.2014,31.0481,荆门市,竹园小学,颗粒物(PM10),75,99,95,39,40,92,,100,100,17,13,3,5,0.1,0.1
2025-03-30T2000,2440A,112.1969,30.9891,荆门市,掇刀,颗粒物(PM10),74,98,93,37,34,80,,91,91,18,11,4,5,0.4,0.3
2025-03-30T2000,2441A,112.2213,31.0386,荆门市,石化一小,颗粒物(PM10),66,81,91,41,39,84,,96,96,18,13,11,9,0.1,0.2
2025-03-30T2000,3012A,112.1849,31.0362,荆门市,西山林语,颗粒物(PM10),62,74,83,34,34,90,,97,97,13,10,5,5,0.3,0.2
2025-03-30T2000,3547A,112.1632,31.0138,荆门市,龙泉中学南校,颗粒物(PM10),74,97,96,35,40,77,,89,89,20,15,6,7,0.6,0.5
2025-03-30T2000,1844A,112.2494,30.3197,荆州市,市图书馆,颗粒物(PM10),68,86,70,40,35,83,,85,85,14,15,4,4,0.4,0.4
2025-03-30T2000,1845A,112.2008,30.3544,荆州市,市委党校,颗粒物(PM10),72,93,74,36,34,86,,86,86,17,12,6,5,0.3,0.3
2025-03-30T2000,3194A,112.2747,30.3122,荆州市,管委会,颗粒物(PM10),66,82,72,38,36,84,,90,90,15,11,6,6,0.4,0.3
2025-03-30T2000,4268A,112.1722,30.3366,荆州市,学苑路85号,颗粒物(PM10),62,73,63,35,31,76,,88,88,25,17,7,7,0.5,0.4
2025-03-30T2000,2342A,117.3102,29.3867,景德镇市,王港中学,,,,,,,,,,,,,,,,
2025-03-30T2000,2343A,117.2117,29.2933,景德镇市,老干部活动中心,,37,37,49,24,19,64,,64,64,12,10,5,5,0.2,0.1
2025-03-30T2000,2344A,117.1894,29.2789,景德镇市,兽医站,,46,46,70,17,16,69,,66,66,8,6,4,4,0.3,0.3
2025-03-30T2000,2345A,117.1547,29.2617,景德镇市,台达陶瓷,,39,39,65,19,18,67,,64,64,10,15,4,24,0.6,0.9
2025-03-30T2000,2346A,117.2461,29.2956,景德镇市,陶研所,,35,31,46,24,25,68,,66,66,10,8,6,5,0.5,0.4
2025-03-30T2000,1803A,115.9872,29.6815,九江市,十里,颗粒物(PM10),68,86,88,32,31,62,,86,86,19,17,2,4,0.5,0.5
2025-03-30T2000,1804A,115.9584,29.7046,九江市,茅山头,颗粒物(PM10),74,98,94,26,29,73,,87,87,11,14,4,6,0.3,0.4
2025-03-30T2000,1805A,115.9877,29.7295,九江市,西园,颗粒物(PM10),63,76,75,31,26,85,,97,97,15,18,6,9,0.8,0.8
2025-03-30T2000,1808A,115.9114,29.6038,九江市,综合工业园,颗粒物(PM10),66,82,88,28,35,61,,84,83,31,33,7,9,0.7,0.6
2025-03-30T2000,1809A,116.0721,29.7535,九江市,石化总厂,细颗粒物(PM2.5),72,88,86,52,39,69,,86,85,20,14,3,3,0.5,0.5
2025-03-30T2000,1810A,115.9773,29.5698,九江市,庐山气象台,颗粒物(PM10),64,77,82,34,37,78,,88,86,8,8,6,6,0.8,0.6
2025-03-30T2000,3190A,116.0254,29.6994,九江市,外国语学校,颗粒物(PM10),61,72,85,31,30,73,,80,80,12,19,9,11,0.7,0.7
2025-03-30T2000,4253A,116.0102,29.6594,九江市,莲花大道8号,颗粒物(PM10),74,97,96,34,36,69,,85,85,9,11,6,7,0.4,0.4
2025-03-30T2000,4240A,98.4958,39.7339,酒泉市,玉门东路5号,颗粒物(PM10),64,78,96,31,32,97,,98,98,7,19,7,12,0.3,0.5
2025-03-30T2000,4241A,98.5099,39.7506,酒泉市,北大街108号,颗粒物(PM10),63,75,90,31,31,86,,90,90,12,18,12,12,0.3,0.5
2025-03-30T2000,2698A,76.0072,39.4467,喀什地区,巡警大队,颗粒物(PM10),500,1175,1494,269,376,70,,71,71,14,34,3,3,0.5,0.8
2025-03-30T2000,2699A,75.9755,39.4694,喀什地区,吾办,颗粒物(PM10),500,1173,1470,354,424,66,,72,72,16,28,2,2,0.6,0.8
2025-03-30T2000,4027A,75.9483,39.4689,喀什地区,老干局,颗粒物(PM10),500,1218,1536,280,347,67,,73,73,14,24,1,2,0.4,0.6
2025-03-30T2000,1824A,114.3389,34.7781,开封市,肿瘤医院,颗粒物(PM10),55,59,64,23,27,96,,103,103,16,23,7,8,0.5,0.5
2025-03-30T2000,1826A,114.2885,34.7965,开封市,世纪星幼儿园,颗粒物(PM10),60,69,68,35,38,104,,110,110,20,28,7,9,0.6,0.6
2025-03-30T2000,3147A,114.3438,34.8106,开封市,龙亭公园,颗粒物(PM10),60,70,67,24,28,103,,108,108,20,26,3,4,0.2,0.3
2025-03-30T2000,3210A,114.3644,34.7964,开封市,汴京公园,颗粒物(PM10),64,78,78,25,32,96,,106,106,26,30,5,6,0.5,0.5
2025-03-30T2000,3473A,114.2485,34.8306,开封市,技师学院,细颗粒物(PM2.5),74,60,69,54,33,106,,107,107,19,32,11,14,0.5,0.5
2025-03-30T2000,3592A,114.4644,34.7556,开封市,祥符区生态环境局,颗粒物(PM10),64,78,80,26,31,80,,100,100,32,28,4,6,0.6,0.7
2025-03-30T2000,1951A,84.895,45.6094,克拉玛依市,长征新村,,32,24,26,3,7,102,,95,95,11,13,7,7,0.2,0.2
2025-03-30T2000,1952A,84.8988,45.5893,克拉玛依市,南林小区,,33,19,26,11,9,103,,94,94,1,9,3,4,0.4,0.5
2025-03-30T2000,1954A,84.905,44.3396,克拉玛依市,独山子区,,48,48,54,21,18,106,,109,109,8,9,6,5,0.4,0.4
2025-03-30T2000,1955A,85.6979,46.098,克拉玛依市,乌尔禾区商贸楼,,33,22,28,19,7,103,,98,98,4,11,5,5,0.5,0.5
2025-03-30T2000,3612A,85.1045,45.6899,克拉玛依市,白碱滩区新站,,31,22,21,3,6,98,,88,88,6,13,7,8,0,0.2
2025-03-30T2000,2697A,76.1454,39.7142,克孜勒苏柯尔克孜自治州,市人民政府,颗粒物(PM10),500,1227,1548,340,453,83,,85,85,4,12,4,4,0.4,0.4
2025-03-30T2000,3665A,76.1658,39.7157,克孜勒苏柯尔克孜自治州,克州文化中心,颗粒物(PM10),500,1062,1438,302,371,81,,82,82,5,10,5,4,0.5,0.5
2025-03-30T2000,1450A,102.8204,24.8886,昆明市,呈贡新区,细颗粒物(PM2.5),70,71,74,51,56,55,,54,54,24,22,7,8,0.9,0.8
2025-03-30T2000,1451A,102.6251,24.9608,昆明市,西山森林公园,,,,,,,,,,,,,,,,
2025-03-30T2000,1452A,102.7252,25.0902,昆明市,龙泉镇,颗粒物(PM10),58,65,85,39,61,38,,73,69,28,24,6,8,0.7,0.8
2025-03-30T2000,1453A,102.7266,25.0375,昆明市,东风东路,"颗粒物(PM10),细颗粒物(PM2.5)",69,87,94,50,66,20,,67,62,60,37,7,8,0.8,0.8
2025-03-30T2000,1454A,102.6742,25.0669,昆明市,金鼎山,颗粒物(PM10),62,73,88,36,65,35,,76,73,37,27,3,2,0.8,0.8
2025-03-30T2000,1455A,102.6644,25.0401,昆明市,碧鸡广场,颗粒物(PM10),58,65,88,38,68,29,,75,71,49,34,6,7,0.8,0.8
2025-03-30T2000,3179A,102.7494,25.0119,昆明市,官渡区博物馆,,,,102,,66,,,148,,,40,,7,,0.8
2025-03-30T2000,3375A,102.8017,24.8336,昆明市,青年创业园,细颗粒物(PM2.5),74,72,85,54,64,113,,114,114,15,19,7,10,0.7,0.8
2025-03-30T2000,3550A,102.7997,24.9786,昆明市,昆明学院,颗粒物(PM10),68,86,97,44,61,11,,57,50,51,32,4,5,0.8,0.7
2025-03-30T2000,3551A,102.5967,24.6736,昆明市,晋宁区生态环境分局,细颗粒物(PM2.5),89,75,73,66,63,155,,148,148,8,13,7,8,0.9,0.8
2025-03-30T2000,3552A,102.6678,24.9856,昆明市,云天化总部,,,77,92,46,68,,,45,,66,32,6,7,0.8,1.1
2025-03-30T2000,1456A,91.1319,29.6514,拉萨市,八廓街,,35,33,38,13,15,109,,116,116,12,22,8,9,0.5,0.6
2025-03-30T2000,1457A,91.1221,29.6747,拉萨市,市环保局,,36,36,43,12,18,102,,113,112,11,17,4,6,0.2,0.3
2025-03-30T2000,1458A,91.0874,29.6475,拉萨市,区监测站,,39,39,38,10,15,105,,111,110,7,20,6,8,0.3,0.4
2025-03-30T2000,1459A,91.1774,29.6541,拉萨市,西藏大学,,44,44,39,14,14,100,,105,105,7,14,8,10,0.4,0.4
2025-03-30T2000,1460A,90.9798,29.6588,拉萨市,区辐射站,,41,41,40,11,16,100,,112,110,13,17,7,8,0.5,0.5
2025-03-30T2000,1461A,91.0834,29.6292,拉萨市,拉萨火车站,,38,38,37,8,15,105,,111,110,4,8,3,4,0.5,0.4
2025-03-30T2000,2520A,109.2203,23.7256,来宾市,来宾技工学校,,18,18,14,8,6,47,,53,53,10,8,4,4,0.4,0.4
2025-03-30T2000,3535A,109.1781,23.7297,来宾市,兴宾区政府,,27,27,14,10,8,45,,52,52,11,6,8,6,0.6,0.6
2025-03-30T2000,4002A,109.2416,23.7461,来宾市,中南小学,,,17,14,11,9,,,48,48,7,6,5,6,0.5,0.6
2025-03-30T2000,1477A,104.1373,35.9454,兰州市,榆中兰大校区,,,,,,,,,,,,,,,,
2025-03-30T2000,1479A,103.831,36.0464,兰州市,铁路设计院,颗粒物(PM10),114,178,128,41,36,84,,90,90,30,49,12,12,0.6,1.1
2025-03-30T2000,3241A,103.7439,36.0842,兰州市,百合公园,颗粒物(PM10),106,162,127,45,41,90,,88,88,10,42,12,11,0.4,0.9
2025-03-30T2000,3242A,103.9611,35.998,兰州市,和平,颗粒物(PM10),115,179,158,40,50,98,,92,92,13,36,11,11,0.3,0.6
2025-03-30T2000,4236A,103.6293,36.0938,兰州市,庄浪东路808号,颗粒物(PM10),118,185,135,60,55,91,,98,98,20,48,16,16,0.6,1
2025-03-30T2000,4237A,103.7251,36.1043,兰州市,安宁西路88号,颗粒物(PM10),136,221,152,53,48,95,,99,99,11,40,10,10,0.4,0.7
2025-03-30T2000,4238A,103.8470,36.0676,兰州市,北滨河东路1号,颗粒物(PM10),109,167,126,48,42,96,,100,100,19,43,15,14,0.5,1
2025-03-30T2000,3245A,103.6633,36.533,兰州新区,新区管委会,颗粒物(PM10),81,111,106,46,46,97,,102,102,12,21,19,26,0.6,0.8
2025-03-30T2000,3246A,103.6975,36.4789,兰州新区,舟曲中学,颗粒物(PM10),111,171,141,38,40,96,,102,102,14,25,14,18,0.6,0.8
2025-03-30T2000,1067A,116.6708,39.5111,廊坊市,药材公司,颗粒物(PM10),56,61,42,30,23,86,,98,98,19,30,3,3,0.4,0.5
2025-03-30T2000,1068A,116.7214,39.5589,廊坊市,开发区,颗粒物(PM10),53,55,44,30,21,95,,101,101,23,40,2,3,0.3,0.4
2025-03-30T2000,1070A,116.7244,39.5269,廊坊市,北华航天学院,,49,49,35,32,19,91,,97,97,22,33,4,5,0.3,0.4
2025-03-30T2000,2919A,116.7022,39.5453,廊坊市,河北工业大学,颗粒物(PM10),56,61,38,36,24,96,,101,101,18,31,6,6,0.4,0.5
2025-03-30T2000,2535A,103.7723,29.5462,乐山市,花湖湾,,23,23,38,15,21,43,,64,60,12,9,3,3,0.5,0.4
2025-03-30T2000,2536A,103.7627,29.5844,乐山市,牛耳桥,,35,34,42,24,21,40,,62,57,22,20,7,8,0.5,0.4
2025-03-30T2000,2537A,103.7508,29.6006,乐山市,市第三水厂,,29,29,43,18,22,43,,68,62,14,12,4,5,0.4,0.4
2025-03-30T2000,2538A,103.7571,29.5664,乐山市,市监测站,,38,31,40,26,23,42,,66,61,14,12,6,7,0.6,0.5
2025-03-30T2000,3361A,103.7311,29.5628,乐山市,理工大学,,29,29,43,19,22,48,,73,68,14,12,4,4,0.4,0.4
2025-03-30T2000,2598A,100.2143,26.8576,丽江市,西南郊,细颗粒物(PM2.5),73,76,78,53,57,124,,139,134,7,9,5,5,1.0,1.1
2025-03-30T2000,2599A,100.2497,26.8802,丽江市,丽江古城,细颗粒物(PM2.5),67,78,73,48,48,110,,129,125,15,13,8,8,0.8,0.8
2025-03-30T2000,2600A,100.2203,26.8906,丽江市,市中心,细颗粒物(PM2.5),78,76,63,57,48,101,,124,119,20,17,12,11,1.0,1
2025-03-30T2000,1267A,119.914,28.4514,丽水市,监测站大楼,,22,22,16,14,10,37,,60,53,28,16,2,2,0.3,0.2
2025-03-30T2000,1268A,119.93,28.4586,丽水市,莲都小学,,28,24,22,19,12,34,,57,48,32,18,3,3,0.3,0.3
2025-03-30T2000,1269A,119.879,28.4231,丽水市,余庄前,,26,25,21,18,15,33,,58,53,19,18,3,3,0.5,0.4
2025-03-30T2000,1173A,119.176,34.5885,连云港市,市环境监测站,颗粒物(PM10),54,58,58,29,32,82,,95,95,22,21,10,10,0.6,0.6
2025-03-30T2000,3000A,119.3581,34.6972,连云港市,德源药业,颗粒物(PM10),52,53,54,27,27,72,,94,93,26,27,8,9,0.4,0.4
2025-03-30T2000,3007A,119.178,34.844,连云港市,新城一中,颗粒物(PM10),54,58,57,32,32,82,,96,96,26,29,8,10,0.5,0.5
2025-03-30T2000,3008A,119.3608,34.7519,连云港市,胡沟管理处,,48,48,40,24,22,91,,95,95,19,22,7,8,0.6,0.7
2025-03-30T2000,3009A,119.1478,34.5911,连云港市,矿山设计院,颗粒物(PM10),56,61,59,27,30,97,,98,98,17,26,9,10,0.4,0.5
2025-03-30T2000,3434A,119.2413,34.6539,连云港市,工贸学校,,43,,1,30,33,98,,97,97,16,20,9,10,0.9,0.8
2025-03-30T2000,3664A,119.4172,34.7341,连云港市,连云街道,颗粒物(PM10),51,51,52,25,25,94,,94,94,18,20,7,9,0.3,0.3
2025-03-30T2000,2571A,102.3431,27.8099,凉山彝族自治州,青龙寺,,43,43,46,14,13,76,,94,94,8,8,7,9,0.7,0.6
2025-03-30T2000,2572A,102.2721,27.8415,凉山彝族自治州,邛海宾馆,颗粒物(PM10),55,60,49,31,24,82,,86,86,17,12,6,9,0.6,0.5
2025-03-30T2000,2573A,102.2625,27.898,凉山彝族自治州,西昌市政府,细颗粒物(PM2.5),54,53,46,38,27,79,,86,86,13,11,7,13,0.5,0.5
2025-03-30T2000,2574A,102.2685,27.8851,凉山彝族自治州,凉山州政府,颗粒物(PM10),56,62,48,37,26,91,,93,93,14,15,5,11,0.5,0.6
2025-03-30T2000,4229A,102.2342,27.8859,凉山彝族自治州,凯乐南路30号,颗粒物(PM10),58,66,53,32,23,78,,84,84,16,15,6,21,0.6,0.5
2025-03-30T2000,2212A,123.2,41.1953,辽阳市,宏伟区,,36,36,36,22,15,85,,95,94,15,14,15,14,0.9,0.9
2025-03-30T2000,2213A,123.1683,41.2495,辽阳市,新华园,细颗粒物(PM2.5),60,49,43,43,19,78,,101,97,30,20,15,17,1.2,1.2
2025-03-30T2000,2214A,123.2354,41.2639,辽阳市,滨河路,,43,41,33,30,19,66,,96,91,31,16,25,15,0.6,0.5
2025-03-30T2000,2215A,123.149,41.2991,辽阳市,铁西工业园,颗粒物(PM10),53,56,42,30,22,75,,99,97,31,20,10,12,0.8,0.8
2025-03-30T2000,2227A,125.1358,42.8845,辽源市,环保局,颗粒物(PM10),67,83,54,37,21,89,,105,103,17,11,7,5,0.8,0.6
2025-03-30T2000,3239A,125.0764,42.9078,辽源市,银鹰制药,,48,48,36,31,22,86,,108,106,20,11,8,9,1.0,0.9
2025-03-30T2000,1625A,115.9848,36.4372,聊城市,区政府,颗粒物(PM10),68,86,63,35,26,90,,105,105,31,25,10,9,0.6,0.5
2025-03-30T2000,2878A,116.0072,36.4343,聊城市,聊大东校,颗粒物(PM10),70,90,71,42,32,92,,104,104,27,23,11,10,0.6,0.5
2025-03-30T2000,3200A,115.9819,36.4978,聊城市,监控中心,颗粒物(PM10),70,90,63,39,27,96,,105,105,21,18,14,13,0.6,0.5
2025-03-30T2000,3513A,116.0445,36.4361,聊城市,九州社区,颗粒物(PM10),70,90,70,29,27,93,,109,109,24,25,12,12,0.6,0.5
2025-03-30T2000,4018A,116.0567,36.4608,聊城市,星美广场,颗粒物(PM10),73,95,72,25,26,89,,106,106,23,19,11,10,0.7,0.6
2025-03-30T2000,2632A,94.3681,29.6376,林芝市,林芝监测站,,41,14,15,8,11,131,,129,129,8,6,5,5,0.4,0.4
2025-03-30T2000,2633A,94.3616,29.6616,林芝市,林芝人民医院,,40,23,15,7,7,126,,122,122,3,2,8,8,0.4,0.4
2025-03-30T2000,2603A,100.0781,23.8982,临沧市,市环保局,细颗粒物(PM2.5),135,130,121,103,85,154,,161,161,13,17,10,11,0.8,0.9
2025-03-30T2000,2604A,100.0894,23.8822,临沧市,市气象局,细颗粒物(PM2.5),98,85,100,73,86,162,,165,165,12,19,7,8,0.7,0.8
2025-03-30T2000,1733A,111.5531,36.0783,临汾市,临钢医院,,47,47,61,13,22,88,,102,102,24,22,7,6,0.8,0.7
2025-03-30T2000,1734A,111.5028,36.0714,临汾市,技工学校,颗粒物(PM10),56,61,58,32,29,92,,108,108,21,23,10,11,0.6,0.7
2025-03-30T2000,1736A,111.5018,36.0855,临汾市,市委,,40,40,59,18,21,96,,110,110,24,25,5,6,0.9,0.9
2025-03-30T2000,3018A,111.505,36.1014,临汾市,唐尧大酒店,颗粒物(PM10),53,56,68,19,22,95,,102,102,18,24,9,10,0.5,0.7
2025-03-30T2000,4244A,111.4879,36.0530,临汾市,启星学校,,46,46,61,30,29,88,,106,106,21,23,7,8,0.6,0.7
2025-03-30T2000,4271A,103.2464,35.6123,临夏回族自治州,滨河东路1号,颗粒物(PM10),119,188,154,64,54,124,,110,110,14,12,10,8,0.9,0.8
2025-03-30T2000,4310A,103.2093,35.5995,临夏回族自治州,新华街21号,颗粒物(PM10),115,180,140,63,54,111,,97,97,25,20,17,14,0.6,0.7
2025-03-30T2000,1618A,118.3429,35.0532,临沂市,沂河小区,颗粒物(PM10),64,78,69,39,34,81,,94,94,18,30,10,10,0.5,0.7
2025-03-30T2000,1619A,118.295,35.0583,临沂市,鲁南制药厂,颗粒物(PM10),60,70,71,34,32,92,,106,106,26,46,11,12,0.4,0.6
2025-03-30T2000,1620A,118.2794,34.9976,临沂市,新光毛纺厂,颗粒物(PM10),63,75,61,36,30,78,,98,97,32,39,14,11,0.6,0.7
2025-03-30T2000,1621A,118.3956,35.0888,临沂市,河东保险公司,颗粒物(PM10),53,56,61,28,30,97,,19,,23,41,7,7,0.3,0.4
2025-03-30T2000,3370A,118.3564,35.0215,临沂市,十里堡居委,颗粒物(PM10),60,70,64,36,29,80,,98,98,25,33,8,8,0.6,0.7
2025-03-30T2000,3496A,118.3604,35.1084,临沂市,南坊新区,颗粒物(PM10),56,61,67,27,29,93,,101,101,17,38,9,8,0.5,0.6
2025-03-30T2000,3860A,118.3920,35.0300,临沂市,皇山花园小区,颗粒物(PM10),64,78,63,37,30,88,,102,102,18,30,10,10,0.3,0.4
2025-03-30T2000,1870A,109.4856,24.3895,柳州市,柳东小学,,19,14,12,13,8,41,,46,46,11,10,9,9,0.5,0.5
2025-03-30T2000,1871A,109.4157,24.3277,柳州市,环保监测站,,20,20,12,12,8,48,,49,49,8,7,10,10,0.7,0.7
2025-03-30T2000,1872A,109.389,24.341,柳州市,河西水厂,,,24,20,19,11,,,49,49,9,17,5,10,0.6,1.1
2025-03-30T2000,1873A,109.4311,24.2921,柳州市,市四中,,15,12,15,10,15,43,,46,46,8,6,8,8,0.6,0.5
2025-03-30T2000,1874A,109.4006,24.3631,柳州市,市九中,,22,22,15,12,7,48,,50,50,8,10,7,8,0.4,0.4
2025-03-30T2000,1875A,109.4958,24.3134,柳州市,古亭山,,15,14,10,3,5,48,,49,49,6,5,6,6,0.6,0.6
2025-03-30T2000,3402A,109.5422,24.3996,柳州市,市二中,,18,14,12,12,8,42,,46,46,9,8,9,9,0.3,0.3
2025-03-30T2000,2307A,116.5079,31.737,六安市,监测大楼,颗粒物(PM10),80,110,109,46,39,91,,102,102,18,11,6,5,0.6,0.4
2025-03-30T2000,2308A,116.4738,31.7643,六安市,皖西学院,颗粒物(PM10),88,126,123,53,40,101,,104,104,18,17,5,4,0.6,0.5
2025-03-30T2000,2309A,116.4996,31.7905,六安市,朝阳厂,颗粒物(PM10),84,117,106,51,36,94,,102,102,25,19,4,3,0.7,0.6
2025-03-30T2000,2310A,116.5567,31.7886,六安市,开发区,颗粒物(PM10),94,138,136,57,45,95,,107,107,16,14,3,4,0.7,0.5
2025-03-30T2000,2576A,104.8,26.5892,六盘水市,窑上,细颗粒物(PM2.5),75,85,33,55,21,32,,61,53,29,10,5,5,1.2,0.6
2025-03-30T2000,2577A,104.83,26.5917,六盘水市,黄土坡,细颗粒物(PM2.5),74,88,25,54,15,33,,56,47,34,13,11,10,1.0,0.6
2025-03-30T2000,2578A,104.89,26.5939,六盘水市,水钢,细颗粒物(PM2.5),73,83,33,53,19,42,,54,49,27,14,13,10,0.5,0.5
2025-03-30T2000,2579A,104.8475,26.5894,六盘水市,民中,颗粒物(PM10),59,68,24,41,12,36,,52,45,32,15,10,8,0.8,0.5
2025-03-30T2000,2580A,104.9544,26.5506,六盘水市,双水,颗粒物(PM10),52,53,20,34,14,59,,60,59,15,11,11,10,0.5,0.5
2025-03-30T2000,2335A,117.0189,25.1181,龙岩市,龙岩师专,,,,,,,,,,,,,,,,
2025-03-30T2000,2336A,117.0217,25.1033,龙岩市,龙岩市监测站,,15,6,2,3,1,47,,52,51,11,11,5,4,0.3,0.3
2025-03-30T2000,2337A,117.0258,25.0661,龙岩市,闽西职业技术学院,,15,,4,3,3,45,,50,48,11,10,2,3,0.5,0.5
2025-03-30T2000,2338A,117.0196,25.0306,龙岩市,龙岩学院,,13,6,5,3,3,39,,47,46,13,10,3,2,0.6,0.5
2025-03-30T2000,2665A,105.0822,33.3261,陇南市,汉王镇固水子,,,,,,,,,,,,,,,,
2025-03-30T2000,2885A,104.9339,33.3826,陇南市,滨江中学,颗粒物(PM10),68,86,95,35,28,66,,76,75,8,6,5,5,0.5,0.4
2025-03-30T2000,3247A,104.955,33.371,陇南市,市总工会,颗粒物(PM10),61,72,90,31,31,71,,80,79,6,5,6,6,0.5,0.5
2025-03-30T2000,2487A,111.9589,27.8901,娄底市,电视发射台,,30,30,26,15,11,72,,86,84,6,5,6,6,0.6,0.5
2025-03-30T2000,2488A,111.9975,27.725,娄底市,市监测站,,38,36,26,26,17,77,,82,82,12,10,8,9,0.6,0.5
2025-03-30T2000,2489A,112.0194,27.7314,娄底市,市委党校,,33,33,26,22,15,79,,85,85,6,4,4,4,0.5,0.4
2025-03-30T2000,2490A,111.9561,27.7569,娄底市,涟钢,,36,36,28,22,16,78,,84,84,13,10,6,6,0.7,0.6
2025-03-30T2000,2491A,111.9892,27.7044,娄底市,市政府,,36,35,26,25,16,78,,84,84,10,8,6,5,0.6,0.6
2025-03-30T2000,1893A,105.4324,28.9634,泸州市,九狮山,,,,,,,,,,,,,,,,
2025-03-30T2000,1894A,105.4427,28.9063,泸州市,小市上码头,,18,18,27,11,14,52,,47,47,16,14,5,5,0.4,0.4
2025-03-30T2000,1895A,105.4241,28.8573,泸州市,兰田宪桥,,23,20,27,16,15,32,,41,41,14,9,6,5,0.4,0.4
2025-03-30T2000,1896A,105.4379,28.8833,泸州市,市环监站,,,,,,,,,,,,,,,,
2025-03-30T2000,4272A,105.3689,28.7783,泸州市,纳溪中医医院,,19,19,25,10,14,35,,44,42,18,10,4,4,0.5,0.5
2025-03-30T2000,2183A,111.1406,37.5211,吕梁市,环保局,,30,28,44,21,13,64,,99,95,38,36,1,2,0.4,0.4
2025-03-30T2000,2185A,111.1297,37.5136,吕梁市,自来水公司,,46,46,82,24,17,64,,100,96,34,32,2,3,0.4,0.4
2025-03-30T2000,2867A,111.1283,37.51,吕梁市,马茂庄小学,,35,35,52,17,13,68,,102,98,35,36,4,3,0.4,0.4
2025-03-30T2000,1812A,112.3931,34.6516,洛阳市,市委党校,颗粒物(PM10),66,82,53,23,22,99,,105,105,16,18,15,6,0.5,0.4
2025-03-30T2000,1815A,112.494,34.6886,洛阳市,河南林校,颗粒物(PM10),54,58,56,24,24,97,,107,107,17,21,4,6,0.6,0.6
2025-03-30T2000,1816A,112.3844,34.623,洛阳市,开发区管委会,颗粒物(PM10),55,59,51,26,24,98,,108,108,17,20,10,5,0.4,0.3
2025-03-30T2000,1817A,112.4267,34.6258,洛阳市,市委新办公区,颗粒物(PM10),56,61,51,16,24,101,,108,108,19,18,10,5,0.3,0.3
2025-03-30T2000,3340A,112.6005,34.6326,洛阳市,伊滨,,50,50,51,27,31,108,,108,108,10,17,4,6,0.6,0.6
2025-03-30T2000,3341A,112.4951,34.6332,洛阳市,中移产业园,颗粒物(PM10),54,58,60,25,28,96,,102,102,12,16,6,7,0.2,0.2
2025-03-30T2000,3593A,112.5736,34.8993,洛阳市,吉利监测站,,43,43,44,22,22,86,,110,110,22,23,8,9,0.5,0.4
2025-03-30T2000,3635A,112.3677,34.662,洛阳市,河科大西苑校区,颗粒物(PM10),63,76,57,17,23,95,,102,102,15,20,13,9,0.4,0.4
2025-03-30T2000,3636A,112.4388,34.6781,洛阳市,英才小学,颗粒物(PM10),54,57,54,27,24,94,,103,103,20,25,10,9,0.4,0.4
2025-03-30T2000,4214A,112.4600,34.6949,洛阳市,春都路1号院,颗粒物(PM10),60,70,69,19,25,103,,112,112,13,24,7,9,0.5,0.6
2025-03-30T2000,2399A,114.051,33.5699,漯河市,三五一五工厂,颗粒物(PM10),74,98,84,41,38,80,,108,106,25,23,9,6,0.5,0.5
2025-03-30T2000,2400A,114.0055,33.5698,漯河市,漯河大学,颗粒物(PM10),70,89,81,34,31,95,,109,109,11,20,5,8,0.4,0.4
2025-03-30T2000,2401A,114.0138,33.5828,漯河市,市水利局,颗粒物(PM10),70,90,80,36,33,97,,111,110,12,20,3,7,0.5,0.6
2025-03-30T2000,2402A,114.0261,33.5698,漯河市,市广电局,颗粒物(PM10),68,85,79,33,33,90,,106,106,10,18,4,6,0.4,0.5
2025-03-30T2000,3478A,113.9749,33.5664,漯河市,市图书馆,颗粒物(PM10),62,74,79,23,31,93,,112,112,17,22,4,6,0.5,0.5
2025-03-30T2000,4250A,114.0892,33.5882,漯河市,韶山路11号,颗粒物(PM10),67,83,81,34,35,83,,112,110,19,19,4,6,0.4,0.4
2025-03-30T2000,1798A,118.5092,31.6837,马鞍山市,湖东路四小,颗粒物(PM10),53,55,118,26,46,100,,100,100,22,25,6,8,0.5,0.7
2025-03-30T2000,1799A,118.5024,31.6449,马鞍山市,开发区,颗粒物(PM10),60,70,123,29,50,86,,97,97,33,32,5,6,0.5,0.7
2025-03-30T2000,1802A,118.6245,31.7241,马鞍山市,濮塘,细颗粒物(PM2.5),52,52,104,36,46,102,,102,102,11,16,8,8,0.3,0.5
2025-03-30T2000,3633A,118.4918,31.6809,马鞍山市,雨山,颗粒物(PM10),56,62,126,30,49,96,,93,93,19,26,8,8,0.6,0.9
2025-03-30T2000,4191A,118.5274,31.72227,马鞍山市,慈湖高新区,颗粒物(PM10),54,57,138,33,52,102,,95,95,18,30,5,7,0.6,0.8
2025-03-30T2000,1686A,111.0286,21.4688,茂名市,电白南海,,32,29,21,22,13,24,,28,27,14,12,2,3,0.9,0.9
2025-03-30T2000,1687A,110.9294,21.6533,茂名市,茂石化七小,,19,19,10,9,5,19,,21,21,9,6,1,1,0.9,0.9
2025-03-30T2000,1688A,110.9107,21.6687,茂名市,健康路,,13,9,9,9,6,29,,30,30,12,9,2,5,0.7,0.7
2025-03-30T2000,1689A,110.8592,21.6828,茂名市,高岭,,17,17,14,7,4,22,,25,25,13,9,12,14,0.6,0.6
2025-03-30T2000,3450A,111.01,21.5165,茂名市,电白水东,,25,24,15,17,11,19,,24,23,18,14,15,9,0.7,0.7
2025-03-30T2000,2539A,104.0308,30.0478,眉山市,黑龙滩水库,,21,21,22,12,11,41,,55,52,3,2,3,3,0.5,0.5
2025-03-30T2000,2540A,103.8416,30.0874,眉山市,气象局,,35,35,53,14,19,45,,66,62,19,17,5,5,0.4,0.4
2025-03-30T2000,3137A,103.8578,30.0744,眉山市,市委党校,,25,22,35,17,16,41,,61,57,13,11,3,3,0.5,0.4
2025-03-30T2000,3148A,103.8291,30.0564,眉山市,区人社局,,22,22,44,9,18,41,,61,57,22,22,1,2,0.5,0.4
2025-03-30T2000,1690A,116.1231,24.3284,梅州市,梅江月梅,,9,9,7,3,5,18,,24,21,16,14,3,3,0.5,0.5
2025-03-30T2000,1691A,116.0797,24.2719,梅州市,梅县新城,,8,6,5,3,3,24,,31,29,14,11,4,4,0.5,0.4
2025-03-30T2000,1692A,116.1248,24.2654,梅州市,环境监控中心,,8,,3,3,4,22,,27,25,16,14,5,5,0.5,0.4
2025-03-30T2000,3315A,116.1233,24.2991,梅州市,梅龙,,7,7,5,3,3,22,,27,26,12,10,5,6,0.6,0.6
2025-03-30T2000,1878A,104.7778,31.4741,绵阳市,富乐山,,20,20,39,13,20,49,,70,67,8,8,2,2,0.3,0.3
2025-03-30T2000,1880A,104.6697,31.4668,绵阳市,高新区自来水公司,,33,33,49,17,20,54,,69,68,20,15,3,2,0.5,0.4
2025-03-30T2000,1881A,104.7287,31.5075,绵阳市,三水厂,,22,22,44,15,21,64,,75,74,10,9,4,5,0.5,0.4
2025-03-30T2000,3491A,104.69,31.5322,绵阳市,西科大附属小学,,26,26,47,17,22,60,,71,71,16,15,6,6,0.4,0.4
2025-03-30T2000,3492A,104.5648,31.5343,绵阳市,安州区旅游局,,32,32,49,14,16,45,,58,57,20,14,11,9,0.1,0
2025-03-30T2000,4226A,104.7651,31.4531,绵阳市,绵阳市气象局,,25,23,40,17,21,49,,52,52,7,8,4,4,0.4,0.4
2025-03-30T2000,1784A,129.61,44.561,牡丹江市,环保大楼,,45,38,30,31,22,79,,83,82,11,8,4,5,0.3,0.2
2025-03-30T2000,1785A,129.6115,44.5782,牡丹江市,文化广场,细颗粒物(PM2.5),52,41,28,36,21,72,,86,83,18,6,11,8,0.5,0.3
2025-03-30T2000,1786A,129.5904,44.5963,牡丹江市,第一医院,细颗粒物(PM2.5),57,,28,40,21,72,,86,84,21,10,10,9,0.3,0.2
2025-03-30T2000,1787A,129.6364,44.6075,牡丹江市,机车工厂,,45,38,31,31,17,61,,87,84,25,6,9,8,0.4,0.3
2025-03-30T2000,1788A,129.6386,44.5462,牡丹江市,第一中学,,40,40,28,17,18,52,,88,82,30,6,7,6,0.4,0.3
2025-03-30T2000,2531A,105.0703,29.61,内江市,市监测站,,29,20,23,20,15,47,,51,50,14,12,1,2,0.6,0.5
2025-03-30T2000,2532A,105.0717,29.5947,内江市,东兴区政府,,28,28,19,12,9,46,,47,47,16,14,3,3,0.5,0.5
2025-03-30T2000,2533A,105.0653,29.5817,内江市,内江二中,,30,30,24,18,15,49,,50,50,14,12,7,7,0.3,0.3
2025-03-30T2000,2534A,105.0406,29.5822,内江市,内江日报社,,39,39,22,18,13,48,,47,47,14,14,2,1,0.5,0.4
2025-03-30T2000,2628A,92.0657,31.4846,那曲市,那曲监测站,,30,30,49,18,24,93,,104,104,16,19,11,11,1.1,1.2
2025-03-30T2000,4243A,92.0515,31.4787,那曲市,那曲市委宣传部,,34,33,52,12,27,108,,106,106,5,18,4,6,0.2,0.7
2025-03-30T2000,1290A,115.8931,28.6843,南昌市,省外办,颗粒物(PM10),52,53,68,34,35,64,,68,68,21,21,5,5,0.6,0.5
2025-03-30T2000,1291A,115.8886,28.7003,南昌市,省林业公司,,46,46,71,29,33,67,,68,68,10,11,7,7,0.1,0.1
2025-03-30T2000,1292A,115.8126,28.7442,南昌市,林科所,颗粒物(PM10),60,70,73,39,29,41,,72,70,35,17,1,2,0.3,0.2
2025-03-30T2000,1294A,115.8518,28.687,南昌市,建工学校,颗粒物(PM10),54,58,83,30,39,70,,75,75,14,15,3,3,0.4,0.3
2025-03-30T2000,1295A,115.8921,28.6424,南昌市,象湖,,48,48,69,27,31,74,,82,82,15,10,7,6,0.7,0.6
2025-03-30T2000,1296A,115.7423,28.7996,南昌市,武术学校,颗粒物(PM10),55,59,60,23,21,35,,72,68,10,7,5,5,0.5,0.5
2025-03-30T2000,3046A,115.9084,28.6062,南昌市,机电学校,颗粒物(PM10),53,56,72,31,31,56,,74,73,28,17,2,3,0.5,0.5
2025-03-30T2000,3690A,115.9721,28.7031,南昌市,外国语学校,,,,71,,26,,,82,82,12,14,6,6,0.0,0
2025-03-30T2000,4192A,115.9316,28.68677,南昌市,南京东路235号,,50,50,75,27,32,76,,81,81,14,15,8,8,0.3,0.3
2025-03-30T2000,1905A,106.056,30.8064,南充市,西山风景区,,14,13,15,9,11,42,,41,41,7,8,3,3,0.4,0.3
2025-03-30T2000,1906A,106.0789,30.8023,南充市,南充市委,,18,18,25,12,18,37,,42,40,20,15,3,2,0.5,0.5
2025-03-30T2000,1907A,106.1031,30.8217,南充市,南充炼油厂,,24,24,29,9,17,38,,40,39,13,11,3,3,0.4,0.3
2025-03-30T2000,1909A,106.0642,30.7636,南充市,嘉陵区环保局,,28,,25,19,15,32,,38,37,17,13,2,2,0.2,0.1
2025-03-30T2000,4227A,106.1083,30.7884,南充市,梨树横街98号,,28,19,26,19,15,40,,43,43,18,12,4,4,0.3,0.2
2025-03-30T2000,4304A,106.1172,30.843,南充市,清泉寺北路188号,,29,24,28,20,19,44,,44,43,12,10,6,6,0.3,0.2
2025-03-30T2000,1151A,118.8086,32.1065,南京市,迈皋桥,颗粒物(PM10),52,54,83,31,33,94,,103,103,23,29,4,4,0.4,0.4
2025-03-30T2000,1152A,118.7538,32.0551,南京市,草场门,,46,46,101,24,34,92,,98,98,32,31,5,6,0.5,0.6
2025-03-30T2000,1153A,118.7794,32.0745,南京市,山西路,颗粒物(PM10),51,51,115,31,42,94,,97,97,6,12,4,4,0.2,0.3
2025-03-30T2000,1154A,118.7752,32.0023,南京市,中华门,,48,48,97,24,35,90,,94,94,19,23,8,9,0.5,0.5
2025-03-30T2000,1155A,118.8109,32.0309,南京市,瑞金路,颗粒物(PM10),53,56,105,24,36,92,,98,98,18,21,6,6,0.8,0.8
2025-03-30T2000,1156A,118.7997,32.0754,南京市,玄武湖,颗粒物(PM10),53,55,105,25,34,92,,97,97,11,19,4,5,0.5,0.6
2025-03-30T2000,1157A,118.6414,32.0931,南京市,浦口,颗粒物(PM10),57,64,126,31,35,97,,81,81,24,19,7,6,0.2,0.3
2025-03-30T2000,1158A,118.7356,31.9996,南京市,奥体中心,,50,50,108,24,37,99,,102,102,20,28,6,7,0.4,0.5
2025-03-30T2000,1159A,118.9125,32.1028,南京市,仙林大学城,颗粒物(PM10),52,53,91,29,36,85,,97,97,20,22,7,7,0.7,0.7
2025-03-30T2000,3422A,118.8436,31.9198,南京市,江宁彩虹桥,颗粒物(PM10),52,53,108,24,36,90,,100,100,15,19,5,4,0.5,0.6
2025-03-30T2000,3427A,118.8554,32.3578,南京市,六合雄州,颗粒物(PM10),57,64,67,29,29,88,,99,98,18,21,5,6,0.3,0.3
2025-03-30T2000,4249A,118.8708,31.3402,南京市,汶溪路181号,细颗粒物(PM2.5),60,61,99,43,39,93,,98,98,19,20,3,3,0.7,0.8
2025-03-30T2000,4312A,119.019,31.6512,南京市,中山西路1号,,48,48,78,31,39,94,,103,103,4,13,4,5,0.4,0.5
2025-03-30T2000,1401A,108.3103,22.7881,南宁市,二十一中,,17,17,11,11,5,45,,46,46,17,14,6,6,0.6,0.6
2025-03-30T2000,1402A,108.3141,22.8528,南宁市,北湖,,26,26,14,11,5,48,,48,48,14,13,6,10,0.6,0.5
2025-03-30T2000,1403A,108.3206,22.8225,南宁市,市监测站,,15,12,12,10,8,42,,43,43,17,14,6,8,0.5,0.5
2025-03-30T2000,1404A,108.3829,22.8037,南宁市,大自然花园,,21,21,11,8,5,49,,52,52,11,8,6,5,0.6,0.5
2025-03-30T2000,1405A,108.4394,22.7904,南宁市,仙葫,,18,13,8,12,7,46,,50,50,9,9,6,6,0.4,0.4
2025-03-30T2000,1406A,108.2397,22.8467,南宁市,区农职院,,23,23,14,3,4,44,,42,42,12,9,5,4,0.5,0.6
2025-03-30T2000,1407A,108.3275,22.735,南宁市,英华嘉园,,16,14,12,3,2,50,,50,50,10,10,7,7,0.5,0.5
2025-03-30T2000,3401A,108.4834,22.7618,南宁市,红星社区,,25,,8,17,6,52,,58,58,10,6,9,8,0.5,0.5
2025-03-30T2000,4221A,108.2177,22.7774,南宁市,乐贤路16号,,22,22,18,15,12,39,,39,39,17,12,9,9,0.6,0.6
2025-03-30T2000,2331A,118.0966,26.6761,南平市,茫荡山,,,,,,,,,,,,,,,,
2025-03-30T2000,2332A,118.1681,26.6369,南平市,南平市监测站,,20,7,6,7,4,62,,62,62,10,9,4,3,0.5,0.4
2025-03-30T2000,2333A,118.1825,26.6489,南平市,南平铝业有限公司,,20,7,6,3,1,63,,64,64,8,8,5,4,0.6,0.6
2025-03-30T2000,2334A,118.1756,26.6272,南平市,南平七中,,21,6,6,3,3,66,,62,62,8,9,5,6,0.6,0.7
2025-03-30T2000,1168A,120.9098,31.9663,南通市,狼山街道,,37,37,37,12,16,100,,103,103,18,18,6,7,0.3,0.3
2025-03-30T2000,1169A,120.86,32.0005,南通市,虹桥,,32,32,37,18,18,93,,92,92,22,21,5,6,0.7,0.6
2025-03-30T2000,1170A,120.87,32.02,南通市,城中,,38,38,39,14,16,97,,99,99,24,20,7,7,0.5,0.5
2025-03-30T2000,1171A,120.94,31.93,南通市,星湖花园,,,29,32,15,17,,,96,96,20,17,6,7,0.5,0.5
2025-03-30T2000,1172A,120.81,32.0417,南通市,紫琅学院,,36,36,33,15,14,90,,94,93,23,24,4,4,0.3,0.3
2025-03-30T2000,3291A,121.067,32.062,南通市,通州监测站,,34,34,33,14,17,99,,106,106,16,13,5,4,0.5,0.5
2025-03-30T2000,3432A,120.9348,31.9883,南通市,环境教育馆,,34,34,34,16,17,88,,108,106,23,20,5,6,0.3,0.3
2025-03-30T2000,2404A,112.5224,33.0122,南阳市,瓦房庄,颗粒物(PM10),67,84,87,36,38,83,,99,99,23,21,6,6,0.4,0.4
2025-03-30T2000,2405A,112.5003,32.9735,南阳市,汉画馆,颗粒物(PM10),64,78,78,32,34,88,,98,98,22,29,4,5,0.4,0.4
2025-03-30T2000,2406A,112.5573,33.027,南阳市,气象站,颗粒物(PM10),73,95,92,27,30,88,,98,98,19,21,4,5,0.5,0.4
2025-03-30T2000,2407A,112.5481,32.9689,南阳市,理工学院,颗粒物(PM10),69,87,82,34,33,85,,103,100,22,30,6,4,0.2,0.4
2025-03-30T2000,4008A,112.5234,32.9922,南阳市,卧龙区政府,颗粒物(PM10),71,92,92,24,34,97,,104,104,15,22,4,5,0.5,0.5
2025-03-30T2000,1234A,121.8358,29.911,宁波市,区环保大楼,,25,25,65,12,29,78,,84,84,22,31,7,7,0.4,0.5
2025-03-30T2000,1235A,121.56,29.82,宁波市,万里学院,,26,26,69,8,30,79,,86,85,18,24,6,7,0.4,0.5
2025-03-30T2000,1236A,121.713,29.9572,宁波市,龙赛医院,,28,22,63,15,30,87,,88,88,16,28,7,7,0.5,0.5
2025-03-30T2000,1239A,121.633,29.7733,宁波市,钱湖水厂,,25,13,62,3,28,77,,86,86,10,22,6,7,0.4,0.6
2025-03-30T2000,1240A,121.5856,29.8635,宁波市,太古小学,,25,25,68,10,23,80,,88,87,21,21,8,9,0.3,0.4
2025-03-30T2000,1241A,121.524,29.8674,宁波市,市环境监测中心,,30,30,67,11,24,77,,81,80,21,24,8,8,0.5,0.6
2025-03-30T2000,2871A,121.6147,29.9017,宁波市,万里国际学校,,37,37,61,6,20,78,,84,84,18,21,7,7,0.4,0.5
2025-03-30T2000,3710A,121.5594,29.8975,宁波市,白沙活动中心,,35,35,72,11,34,78,,85,84,19,19,7,6,0.2,0.3
2025-03-30T2000,2339A,119.5001,26.6946,宁德市,金涵水库,,,,,,,,,,,,,,,,
2025-03-30T2000,2341A,119.5388,26.6612,宁德市,宁德市监测站,,24,,10,10,11,76,,73,70,10,11,4,4,0.4,0.4
2025-03-30T2000,3209A,119.5231,26.6562,宁德市,宁德一中,,26,6,11,3,5,82,,79,77,7,8,5,5,0.2,0.2
2025-03-30T2000,2618A,98.8601,25.8567,怒江傈僳族自治州,州监测站,细颗粒物(PM2.5),93,102,89,69,72,134,,104,104,8,7,7,6,0.6,0.7
2025-03-30T2000,2619A,98.8546,25.8417,怒江傈僳族自治州,泸水一中,细颗粒物(PM2.5),90,101,87,67,78,95,,92,92,22,13,7,6,0.9,0.8
2025-03-30T2000,1888A,101.6891,26.571,攀枝花市,弄弄坪,细颗粒物(PM2.5),95,106,104,71,59,93,,131,131,40,34,38,25,4.5,1.7
2025-03-30T2000,1889A,101.5769,26.5928,攀枝花市,河门口,细颗粒物(PM2.5),70,80,108,51,74,125,,142,142,10,31,8,17,0.6,1.2
2025-03-30T2000,1890A,101.7169,26.585,攀枝花市,炳草岗,颗粒物(PM10),61,71,85,41,46,114,,143,143,24,31,11,20,0.8,1.1
2025-03-30T2000,1891A,101.7369,26.5008,攀枝花市,仁和,细颗粒物(PM2.5),79,94,91,58,58,104,,143,143,25,29,8,10,0.9,0.9
2025-03-30T2000,2835A,101.7227,26.567,攀枝花市,四十中小,细颗粒物(PM2.5),73,91,91,53,47,132,,152,152,13,28,10,18,0.5,0.7
2025-03-30T2000,1604A,122.0303,41.1489,盘锦市,开发区,,40,31,22,28,15,82,,97,95,18,12,6,8,0.5,0.4
2025-03-30T2000,1605A,122.0485,41.0883,盘锦市,兴隆台,,34,34,26,20,16,77,,92,89,22,15,6,9,0.6,0.5
2025-03-30T2000,1606A,121.8297,41.1028,盘锦市,新生街道,,23,18,20,12,11,71,,96,92,21,19,8,10,0.5,0.5
2025-03-30T2000,1832A,113.3257,33.742,平顶山市,新华旅馆,颗粒物(PM10),61,72,70,24,31,97,,108,108,16,22,5,5,0.4,0.4
2025-03-30T2000,1833A,113.2919,33.737,平顶山市,规划设计院,颗粒物(PM10),62,73,62,37,29,95,,108,108,14,19,5,6,0.4,0.3
2025-03-30T2000,1834A,113.182,33.774,平顶山市,平顶山工学院,颗粒物(PM10),60,70,55,29,21,97,,108,108,14,14,1,1,0.3,0.3
2025-03-30T2000,3204A,113.3025,33.73,平顶山市,规划局,颗粒物(PM10),65,80,65,24,28,93,,108,108,16,20,4,5,0.5,0.7
2025-03-30T2000,3594A,112.8867,33.9116,平顶山市,石龙区,颗粒物(PM10),70,89,85,34,26,99,,108,108,12,24,5,6,0.3,0.3
2025-03-30T2000,2656A,106.6692,35.5461,平凉市,聚贤嘉苑,颗粒物(PM10),70,90,112,26,38,90,,107,107,28,35,8,11,0.4,0.6
2025-03-30T2000,2657A,106.7021,35.5307,平凉市,博物馆,颗粒物(PM10),79,108,118,31,41,95,,106,106,24,34,14,22,0.5,0.9
2025-03-30T2000,2347A,114.0997,27.5002,萍乡市,武功山,,35,35,12,22,10,60,,80,74,7,7,5,4,0.9,0.8
2025-03-30T2000,2348A,113.8385,27.6434,萍乡市,中医院,颗粒物(PM10),62,73,33,33,19,75,,87,84,10,5,6,6,0.6,0.5
2025-03-30T2000,2349A,113.8493,27.6253,萍乡市,市政府车库,颗粒物(PM10),59,67,31,35,19,72,,87,83,16,10,6,5,1.1,0.6
2025-03-30T2000,2350A,113.8676,27.6435,萍乡市,市环保局,颗粒物(PM10),55,60,32,30,20,74,,88,84,8,4,1,2,0.5,0.4
2025-03-30T2000,2351A,113.866,27.6198,萍乡市,安源区政府,颗粒物(PM10),57,64,34,33,19,68,,82,79,15,9,2,2,1.0,0.5
2025-03-30T2000,2319A,119.0141,25.4325,莆田市,荔城区仓后路,,22,7,13,3,2,69,,69,69,16,17,2,2,0.5,0.5
2025-03-30T2000,2320A,119.0015,25.4553,莆田市,莆田市监测站,,25,6,6,3,2,79,,78,78,10,9,3,3,0.5,0.5
2025-03-30T2000,2321A,119.1119,25.4561,莆田市,涵江区六中,,27,6,11,3,2,86,,83,83,13,13,2,2,0.4,0.4
2025-03-30T2000,2322A,119.1013,25.3215,莆田市,秀屿区政府,,27,6,11,3,4,86,,81,81,13,14,3,3,0.4,0.5
2025-03-30T2000,2323A,118.981,25.4792,莆田市,东圳水库,,,,,,,,,,,,,,,,
2025-03-30T2000,2392A,115.0312,35.7636,濮阳市,环保局,颗粒物(PM10),52,54,53,30,28,100,,102,102,19,20,6,6,0.9,0.9
2025-03-30T2000,2394A,115.0574,35.7609,濮阳市,油田运输公司,颗粒物(PM10),59,67,70,27,30,97,,103,103,20,21,6,7,0.5,0.5
2025-03-30T2000,3021A,115,35.7668,濮阳市,濮水河管理处,颗粒物(PM10),62,74,71,23,24,100,,103,103,22,22,6,7,0.8,0.8
2025-03-30T2000,4216A,115.0924,35.7686,濮阳市,任丘路479号,颗粒物(PM10),66,82,76,33,34,93,,107,107,24,21,5,7,0.7,0.7
2025-03-30T2000,2601A,100.98,22.7633,普洱市,市环保局,细颗粒物(PM2.5),139,210,140,106,69,147,,167,167,23,18,7,5,1.3,1.1
2025-03-30T2000,2602A,100.9817,22.8322,普洱市,普洱第二中学,细颗粒物(PM2.5),150,128,97,115,70,121,,149,148,27,27,8,7,1.1,0.9
2025-03-30T2000,2262A,131.0518,45.8751,七台河市,新一中,,29,29,13,14,7,89,,100,98,10,6,14,11,0.7,0.6
2025-03-30T2000,3345A,131.0577,45.7879,七台河市,中波台,,25,25,19,11,9,76,,83,81,14,12,4,5,0.6,0.5
2025-03-30T2000,3637A,131.0176,45.7761,七台河市,人民广场,,30,30,26,21,16,80,,86,85,14,11,5,6,0.8,0.8
2025-03-30T2000,3684A,130.8781,45.8222,七台河市,新建矿广场,,39,27,23,27,21,73,,83,82,10,9,10,9,0.5,0.5
2025-03-30T2000,1779A,123.9305,47.3636,齐齐哈尔市,安居小区,,,90,24,,30,75,,91,86,25,9,4,2,0.5,0.2
2025-03-30T2000,1780A,123.9488,47.3386,齐齐哈尔市,中心广场,细颗粒物(PM2.5),79,76,21,58,9,66,,86,82,29,8,8,4,0.7,0.4
2025-03-30T2000,1781A,123.9483,47.3227,齐齐哈尔市,农牧车辆厂,颗粒物(PM10),63,75,24,31,8,80,,92,90,17,6,6,5,0.4,0.3
2025-03-30T2000,1783A,123.945,47.2988,齐齐哈尔市,市环境监测站,颗粒物(PM10),68,85,21,47,11,76,,90,88,17,6,6,3,0.5,0.3
2025-03-30T2000,3662A,123.6333,47.2075,齐齐哈尔市,富区青少年活动中心,细颗粒物(PM2.5),110,95,35,83,14,63,,83,79,20,10,10,8,0.7,0.4
2025-03-30T2000,2591A,107.9783,26.5747,黔东南苗族侗族自治州,市环境监测站,,21,21,16,14,11,52,,66,54,12,8,4,3,0.3,0.3
2025-03-30T2000,2881A,107.8908,26.5311,黔东南苗族侗族自治州,凯里学院,,19,19,10,13,9,49,,61,50,6,4,1,1,0.4,0.3
2025-03-30T2000,2593A,107.5228,26.2403,黔南布依族苗族自治州,小围寨,,18,17,6,12,4,51,,58,56,7,5,3,3,0.2,0.2
2025-03-30T2000,3538A,107.5175,26.2978,黔南布依族苗族自治州,沙坝,,24,24,11,12,6,52,,58,53,7,7,4,4,0.4,0.4
2025-03-30T2000,2589A,104.9022,25.0925,黔西南布依族苗族自治州,场坝街,颗粒物(PM10),54,57,29,31,17,51,,56,56,15,12,6,5,0.3,0.2
2025-03-30T2000,2590A,104.8811,25.0992,黔西南布依族苗族自治州,坪东大道,细颗粒物(PM2.5),67,,28,48,21,48,,53,53,19,14,11,2,0.4,0.3
2025-03-30T2000,2502A,108.6236,21.9667,钦州市,市环保站,,22,22,11,7,4,47,,48,48,15,14,7,7,0.6,0.6
2025-03-30T2000,2503A,108.6549,21.9481,钦州市,沙埠小学,,16,16,10,3,1,46,,50,50,18,15,6,5,0.4,0.4
2025-03-30T2000,2504A,108.5989,21.7431,钦州市,港区一小,,15,,17,10,7,46,,38,,18,22,8,8,0.6,0.6
2025-03-30T2000,3404A,108.5959,21.9633,钦州市,北职校,,21,21,11,11,8,47,,48,48,11,10,7,6,0.6,0.5
2025-03-30T2000,1043A,119.7493,40.0116,秦皇岛市,第一关,,49,46,36,34,19,77,,90,89,20,32,4,4,0.4,0.3
2025-03-30T2000,1044A,119.5897,39.9499,秦皇岛市,监测站,,43,43,45,18,15,94,,91,91,9,26,2,4,0.3,0.4
2025-03-30T2000,1046A,119.5251,39.9041,秦皇岛市,建设大厦,,33,33,53,22,22,92,,89,89,15,35,3,11,0.3,0.4
2025-03-30T2000,3132A,119.610547,39.943889,秦皇岛市,文明里,,37,37,42,19,14,85,,86,86,20,30,3,6,0.2,0.3
2025-03-30T2000,4198A,119.5090,39.8253,秦皇岛市,北戴河轮滑馆,,36,36,38,19,15,101,,91,91,11,25,5,6,0.3,0.4
2025-03-30T2000,1307A,120.6659,36.2403,青岛市,仰口,颗粒物(PM10),54,57,38,29,21,111,,114,114,11,9,7,5,0.6,0.6
2025-03-30T2000,1310A,120.4134,36.0658,青岛市,市南区东部子站,颗粒物(PM10),63,75,52,31,22,84,,88,84,25,18,6,9,0.5,0.7
2025-03-30T2000,1311A,120.3664,36.1032,青岛市,四方区子站,颗粒物(PM10),60,70,46,41,23,88,,92,92,25,19,6,7,0.6,0.6
2025-03-30T2000,1312A,120.2994,36.054,青岛市,市南区西部子站,颗粒物(PM10),56,61,48,34,19,84,,82,82,24,27,6,9,0.7,0.8
2025-03-30T2000,1313A,120.4581,36.0858,青岛市,崂山区子站,颗粒物(PM10),59,68,45,39,24,97,,93,93,18,16,8,10,0.6,0.8
2025-03-30T2000,1315A,120.3999,36.3083,青岛市,城阳区子站,颗粒物(PM10),62,73,47,32,21,81,,100,98,29,22,10,9,0.7,0.6
2025-03-30T2000,1966A,120.0405,35.8735,青岛市,黄岛区4号,颗粒物(PM10),53,56,44,24,18,98,,97,97,19,22,8,10,0.6,0.8
2025-03-30T2000,3362A,120.5014,36.4034,青岛市,即墨2号,颗粒物(PM10),62,74,53,41,23,91,,104,103,23,17,9,8,0.6,0.6
2025-03-30T2000,3642A,120.3503,36.0736,青岛市,市北区南部,颗粒物(PM10),61,72,46,34,22,73,,73,72,17,15,6,8,0.7,0.8
2025-03-30T2000,3643A,120.3948,36.1805,青岛市,李沧区北部,颗粒物(PM10),59,68,46,41,22,82,,65,,34,28,8,8,0.7,0.8
2025-03-30T2000,4290A,120.1969,35.9546,青岛市,珠江路669号,颗粒物(PM10),57,63,47,34,26,91,,90,90,20,18,7,9,0.7,0.9
2025-03-30T2000,1702A,113.0426,23.691,清远市,环保大楼,,14,14,5,6,3,38,,53,43,11,7,7,10,0.7,0.6
2025-03-30T2000,1703A,113.0208,23.7106,清远市,凤城街办,,17,17,4,7,2,35,,46,38,18,14,7,5,0.5,0.4
2025-03-30T2000,3025A,113.0477,23.6344,清远市,技师学院,,17,17,7,10,4,33,,48,42,19,14,8,6,0.6,0.4
2025-03-30T2000,3318A,112.9903,23.7403,清远市,清新太和,,14,6,2,3,1,42,,50,47,12,12,5,6,0.5,0.5
2025-03-30T2000,3455A,113.076,23.7198,清远市,清城东城,,19,16,7,13,5,33,,47,40,18,13,8,7,0.6,0.6
2025-03-30T2000,2661A,107.6325,35.7357,庆阳市,庆阳五中,细颗粒物(PM2.5),67,72,87,48,42,97,,108,108,17,16,5,8,0.7,0.3
2025-03-30T2000,2662A,107.6364,35.7067,庆阳市,市环保局,颗粒物(PM10),60,69,84,24,33,92,,104,104,19,14,8,9,0.4,0.4
2025-03-30T2000,1916A,103.7897,25.5035,曲靖市,环境监测站,,46,46,43,20,22,20,,24,24,27,22,3,7,0.5,0.6
2025-03-30T2000,1917A,103.8,25.5364,曲靖市,烟厂办公区,颗粒物(PM10),53,56,43,28,24,25,,26,26,22,22,5,9,0.6,0.8
2025-03-30T2000,3376A,103.7947,25.462,曲靖市,南苑二区,颗粒物(PM10),54,58,35,29,23,20,,28,27,29,19,7,6,0.7,0.6
2025-03-30T2000,3377A,103.7444,25.5261,曲靖市,曲靖师范学院,细颗粒物(PM2.5),52,50,46,36,33,23,,26,26,23,19,4,9,0.5,0.7
2025-03-30T2000,1264A,118.8692,28.9398,衢州市,环保大楼,细颗粒物(PM2.5),57,60,62,40,33,56,,79,74,26,18,3,3,0.4,0.3
2025-03-30T2000,1265A,118.8709,28.9666,衢州市,实验学校,,,,62,,32,57,,80,72,,17,3,5,0.4,0.4
2025-03-30T2000,1266A,118.8621,28.9808,衢州市,衢州学院,细颗粒物(PM2.5),59,62,66,42,36,49,,73,65,24,17,4,4,0.7,0.6
2025-03-30T2000,1611A,118.5819,24.9117,泉州市,涂山街,,24,,8,3,5,75,,76,76,10,8,2,2,0.5,0.5
2025-03-30T2000,1612A,118.5972,24.8978,泉州市,津头埔,,23,,8,3,6,71,,76,73,17,13,1,2,0.7,0.6
2025-03-30T2000,1613A,118.6663,24.9424,泉州市,万安,,23,6,11,3,4,73,,77,75,9,7,2,2,0.5,0.5
2025-03-30T2000,1614A,118.6117,24.9604,泉州市,清源山,,,,,,,,,,,,,,,,
2025-03-30T2000,3529A,118.6333,24.9264,泉州市,城华南路,,24,6,8,3,4,74,,76,74,9,7,2,2,0.5,0.5
2025-03-30T2000,2626A,88.8876,29.2718,日喀则市,日喀则监测站,颗粒物(PM10),64,78,27,13,9,101,,112,110,3,5,6,5,0.3,0.4
2025-03-30T2000,3726A,88.8781,29.2426,日喀则市,林业技术推广中心,颗粒物(PM10),81,111,36,24,10,102,,112,109,2,2,5,5,0.2,0.3
2025-03-30T2000,1659A,119.471,35.4209,日照市,监测站,颗粒物(PM10),64,78,59,27,24,74,,94,92,34,33,8,8,0.7,0.6
2025-03-30T2000,1660A,119.523,35.4216,日照市,市政府广场,颗粒物(PM10),62,73,65,32,26,67,,79,78,38,32,10,9,0.9,0.8
2025-03-30T2000,1661A,119.5587,35.4044,日照市,港务局,颗粒物(PM10),69,88,78,35,34,73,,82,82,39,35,7,9,0.7,0.8
2025-03-30T2000,3507A,119.5328,35.4625,日照市,职业技术学院,颗粒物(PM10),62,73,60,27,22,73,,88,86,31,24,10,9,0.9,0.7
2025-03-30T2000,3604A,119.3266,35.1044,日照市,岚山环保分局,颗粒物(PM10),58,66,73,30,38,94,,95,95,19,38,5,11,0.5,0.7
2025-03-30T2000,1835A,111.1922,34.7752,三门峡市,市政府,,36,36,55,22,30,83,,120,118,34,35,4,5,0.6,0.5
2025-03-30T2000,1836A,111.1587,34.7942,三门峡市,开发区,,48,48,61,21,27,89,,107,106,21,32,8,2,0.5,0.6
2025-03-30T2000,1838A,111.143,34.7955,三门峡市,风景区,,30,28,54,13,21,95,,107,107,15,26,12,11,0.3,0.4
2025-03-30T2000,3039A,111.1911,34.7829,三门峡市,三门峡市第一小学,,40,40,62,18,25,93,,119,118,28,34,5,5,0.6,0.5
2025-03-30T2000,3598A,111.1,34.7167,三门峡市,富达温泉假日酒店,颗粒物(PM10),52,54,65,13,36,82,,106,106,23,36,8,12,0.6,0.6
2025-03-30T2000,2324A,117.6211,26.2625,三明市,三钢,,18,,4,7,6,56,,50,45,10,8,3,3,0.5,0.5
