timepoint,stationcode,longitude,latitude,area,positionname,primarypollutant,aqi,pm10,pm10_24h,pm2_5,pm2_5_24h,o3,o3_24h,o3_8h,o3_8h_24h,no2,no2_24h,so2,so2_24h,co,co_24h
2024-08-19T1600,2566A,102.1879,31.914,阿坝藏族羌族自治州,州农科所,,31,6,19,3,6,99,,71,71,6,13,6,7,0,0
2024-08-19T1600,2568A,102.2502,31.8896,阿坝藏族羌族自治州,马师校,,37,6,14,3,9,118,,82,82,8,10,3,3,0.2,0.3
2024-08-19T1600,3994A,102.2165,31.9024,阿坝藏族羌族自治州,马尔康中学西区,,,5,13,,9,117,,94,94,7,8,,4,0.2,0.2
2024-08-19T1600,2695A,80.292,41.1694,阿克苏地区,电视台,,35,31,114,17,35,111,,108,108,7,14,4,4,0.4,0.4
2024-08-19T1600,2696A,80.2613,41.1551,阿克苏地区,艺术中心,,36,26,109,13,38,113,,111,111,6,18,4,4,0.5,0.7
2024-08-19T1600,2204A,105.6467,38.8363,阿拉善盟,西城区西花园,,45,14,20,3,8,142,,134,134,7,10,9,10,1.0,1
2024-08-19T1600,2205A,105.6985,38.8411,阿拉善盟,蒙二幼,,40,15,12,3,4,126,,121,121,4,5,6,6,0.4,0.4
2024-08-19T1600,2206A,105.724,38.8516,阿拉善盟,环保局新楼,,40,13,9,3,4,125,,126,126,5,4,9,8,0.3,0.3
2024-08-19T1600,2708A,88.1264,47.8517,阿勒泰地区,市站,,24,18,21,6,9,75,,61,59,17,12,7,7,0.6,0.6
2024-08-19T1600,2630A,80.1161,32.5,阿里地区,阿里监测站,,36,,4,3,3,113,,112,109,4,6,5,6,0.3,0.3
2024-08-19T1600,3192A,80.0903,32.5028,阿里地区,阿里藏医院,,35,6,8,3,5,109,,107,105,3,4,7,7,0.3,0.3
2024-08-19T1600,2642A,109.0318,32.6537,安康市,香溪洞,,38,24,28,15,12,121,,80,80,32,10,6,6,0.4,0.4
2024-08-19T1600,2643A,109.0281,32.6939,安康市,安康市监测站,,40,21,21,11,13,128,,94,94,5,7,7,7,0.5,0.5
2024-08-19T1600,2644A,109.0072,32.6975,安康市,汉滨区检察院,,40,20,22,17,14,128,,97,97,6,8,9,8,0.4,0.5
2024-08-19T1600,2291A,117.0809,30.5177,安庆市,环科院,,38,30,33,10,22,119,,97,97,15,19,7,7,0.6,0.8
2024-08-19T1600,2292A,117.0331,30.5119,安庆市,马山宾馆,,39,14,25,11,22,124,,94,94,12,19,8,9,0.3,0.4
2024-08-19T1600,2294A,116.9896,30.6145,安庆市,安庆大学,臭氧1小时,65,28,35,16,26,172,,116,116,14,12,18,12,0.6,0.7
2024-08-19T1600,3173A,117.0598,30.5351,安庆市,市人大,,42,13,30,11,16,133,,100,100,9,14,6,7,0.3,0.5
2024-08-19T1600,3122A,105.9606,26.2611,安顺市,伍家关,,,,,,,,,,,,,,,,
2024-08-19T1600,3123A,105.9408,26.2431,安顺市,凤凰山,,36,25,32,17,26,114,,113,113,8,13,8,13,0.5,0.5
2024-08-19T1600,3124A,105.9439,26.2564,安顺市,金钟山,,37,30,32,21,26,117,,118,118,7,9,5,9,0.6,0.7
2024-08-19T1600,3125A,105.8983,26.2481,安顺市,娄家坡,,37,20,27,15,20,116,,116,116,10,9,7,9,0.6,0.6
2024-08-19T1600,1818A,114.4839,36.0621,安阳市,棉研所,,,,,,,,,,,,,,,,
2024-08-19T1600,1819A,114.3551,36.1017,安阳市,红庙街,,36,25,25,9,11,114,,106,106,2,5,5,6,0.3,0.6
2024-08-19T1600,1820A,114.361,36.0681,安阳市,银杏小区,,37,26,22,18,17,117,,106,106,2,4,2,2,0.3,0.5
2024-08-19T1600,3141A,114.3922,36.0878,安阳市,信访局,,39,17,24,15,12,122,,109,109,2,4,1,2,0.3,0.5
2024-08-19T1600,3669A,114.4705,36.0637,安阳市,左辅环卫站,,36,34,26,8,15,115,,100,100,2,7,5,5,0.4,0.5
2024-08-19T1600,3703A,114.2917,36.0949,安阳市,安钢职工学校,,37,22,31,9,15,117,,105,105,2,9,4,5,0.4,0.6
2024-08-19T1600,1748A,123.044,41.1196,鞍山市,深沟寺,,30,30,28,21,15,45,,66,66,31,11,4,4,1.7,0.7
2024-08-19T1600,1749A,123.011,41.0931,鞍山市,太阳城,,24,23,27,13,15,74,,61,61,16,9,3,3,0.7,0.7
2024-08-19T1600,1750A,123.0485,41.1442,鞍山市,太平,,41,41,34,27,22,62,,67,67,36,17,6,4,1.6,0.8
2024-08-19T1600,1751A,122.9642,41.0971,鞍山市,铁西三道街,,28,28,36,16,22,80,,75,75,22,20,3,3,0.9,0.9
2024-08-19T1600,1752A,122.9341,41.0833,鞍山市,铁西工业园区,,24,24,36,12,19,69,,68,68,11,21,6,8,0.9,1
2024-08-19T1600,1753A,123.022,41.0821,鞍山市,明达新区,,29,29,27,18,16,74,,67,67,19,9,3,3,0.7,0.6
2024-08-19T1600,1754A,123.1289,41.0228,鞍山市,千山,,,,,,,,,,,,,,,,
2024-08-19T1600,2195A,107.4212,40.761,巴彦淖尔市,附二中,,35,29,42,24,21,109,,112,112,8,16,3,6,0.4,0.4
2024-08-19T1600,2196A,107.37,40.7372,巴彦淖尔市,市环保大楼,,43,43,39,7,13,108,,110,110,7,10,4,6,0.2,0.3
2024-08-19T1600,1956A,86.1472,41.7538,巴音郭楞蒙古自治州,孔雀公园,颗粒物(PM10),52,53,82,6,18,117,,112,112,4,14,4,5,0.3,0.3
2024-08-19T1600,1957A,86.1972,41.7166,巴音郭楞蒙古自治州,棉纺厂,颗粒物(PM10),65,80,84,19,24,110,,102,102,9,21,5,5,0.2,0.3
2024-08-19T1600,1958A,86.2357,41.7173,巴音郭楞蒙古自治州,经济开发区,颗粒物(PM10),64,78,81,12,22,114,,108,108,3,8,5,8,0.2,0.3
2024-08-19T1600,2914A,106.7677,31.8794,巴中市,苏山坪,,43,23,25,19,16,136,,120,120,6,9,4,4,0.5,0.5
2024-08-19T1600,3182A,106.7656,31.8545,巴中市,丽阳花园,,43,27,29,18,21,136,,114,114,6,14,4,4,0.5,0.6
2024-08-19T1600,3183A,106.7418,31.8654,巴中市,圣泉水务公司,,44,27,23,21,17,138,,111,111,6,13,4,3,0.5,0.6
2024-08-19T1600,3616A,106.7616,31.8344,巴中市,市中心医院,,43,26,30,16,20,136,,125,125,5,15,4,4,0.4,0.6
2024-08-19T1600,2235A,122.7911,45.6077,白城市,洮北区环保局,,,,11,,6,,,61,,,8,,4,,0.7
2024-08-19T1600,2236A,122.8738,45.5725,白城市,市环保局,,22,22,24,3,6,42,,58,36,8,9,2,3,0.4,0.5
2024-08-19T1600,2231A,126.4219,41.9171,白山市,喜丰,,25,19,41,10,14,78,,80,80,2,12,8,9,0.5,0.6
2024-08-19T1600,2232A,126.4077,41.9419,白山市,环保局,,27,27,34,9,15,84,,74,74,11,11,9,10,0.7,0.7
2024-08-19T1600,2647A,104.1724,36.5446,白银市,第三小学,,46,24,45,7,15,145,,116,116,8,20,19,26,0.3,0.6
2024-08-19T1600,2648A,104.1465,36.5482,白银市,动力公司,,44,13,26,3,10,138,,112,112,8,14,21,17,0.2,0.5
2024-08-19T1600,2512A,106.6103,23.9011,百色市,市监测站,,29,,24,20,12,78,,65,65,7,13,4,4,0.7,0.5
2024-08-19T1600,2513A,106.6538,23.8859,百色市,市中心血站,,27,15,31,10,14,85,,71,71,5,14,2,6,0.6,0.7
2024-08-19T1600,3406A,106.6085,23.8798,百色市,祈福高中,,25,20,33,10,14,77,,65,65,3,12,2,4,0.8,0.8
2024-08-19T1600,2270A,117.396,32.939,蚌埠市,工人疗养院,颗粒物(PM10),60,70,41,8,18,123,,120,120,4,14,8,10,0.4,0.4
2024-08-19T1600,2271A,117.3605,32.9427,蚌埠市,百货大楼,颗粒物(PM10),57,63,41,8,18,116,,125,125,2,12,6,8,0.4,0.4
2024-08-19T1600,2273A,117.4185,32.8911,蚌埠市,蚌埠学院,颗粒物(PM10),56,61,31,12,19,132,,122,122,5,12,7,7,0.5,0.5
2024-08-19T1600,2274A,117.3533,32.9673,蚌埠市,淮上区政府,,37,36,39,8,21,118,,130,130,1,9,6,8,0.5,0.6
2024-08-19T1600,2275A,117.3145,32.8977,蚌埠市,高新区,颗粒物(PM10),63,75,36,3,19,124,,127,127,6,7,34,8,0.5,0.5
2024-08-19T1600,3715A,117.3092,32.9314,蚌埠市,蚌埠田家炳中学,颗粒物(PM10),53,55,38,8,20,120,,131,131,2,5,8,10,0.6,0.6
2024-08-19T1600,1585A,109.8756,40.6532,包头市,市环境监测站,,35,15,27,3,15,109,,94,94,12,22,4,6,0.3,0.5
2024-08-19T1600,1587A,109.9991,40.5842,包头市,包头八中,,32,19,33,3,12,101,,99,99,16,28,5,10,0.5,0.9
2024-08-19T1600,1588A,109.8538,40.6821,包头市,青山宾馆,,35,8,22,3,9,110,,94,94,10,18,4,4,0.4,0.5
2024-08-19T1600,1589A,109.8642,40.6288,包头市,惠龙物流,,35,10,23,6,13,109,,100,100,10,17,4,6,0.4,0.5
2024-08-19T1600,1590A,110.0377,40.5546,包头市,东河鸿龙湾,,31,22,31,3,17,99,,98,98,14,23,5,11,0.6,1
2024-08-19T1600,3283A,109.9154,40.5685,包头市,滨河大厦,,34,,22,6,15,108,,104,104,10,24,7,9,0.5,0.7
2024-08-19T1600,3419A,109.9447,40.6261,包头市,包头市委党校,,30,14,29,8,15,95,,94,94,16,35,5,5,0.4,0.6
2024-08-19T1600,3683A,109.8331,40.6576,包头市,昆区政府,,35,10,20,3,11,109,,94,94,10,16,3,5,0.4,0.5
2024-08-19T1600,1930A,107.185,34.3063,宝鸡市,庙沟村,,44,23,21,14,11,138,,112,112,6,9,7,7,0.4,0.4
2024-08-19T1600,1931A,107.0708,34.3017,宝鸡市,竹园沟,,42,22,23,11,10,132,,110,110,8,12,8,8,0.5,0.5
2024-08-19T1600,1932A,107.1906,34.3672,宝鸡市,三陆医院,,49,40,37,25,19,156,,120,120,11,19,10,10,0.5,0.6
2024-08-19T1600,1933A,107.1431,34.3547,宝鸡市,监测站,颗粒物(PM10),71,91,40,23,15,143,,103,103,39,20,8,7,0.5,0.5
2024-08-19T1600,1934A,107.1186,34.3739,宝鸡市,技工学校,臭氧1小时,60,44,34,18,16,168,,120,120,11,14,9,9,0.6,0.6
2024-08-19T1600,1935A,107.3906,34.3528,宝鸡市,陈仓区环保局家属楼,臭氧1小时,58,28,28,10,12,166,,114,114,9,18,9,9,0.5,0.6
2024-08-19T1600,1936A,107.2058,34.3497,宝鸡市,文理学院,,,,28,,8,,,105,,,18,,9,,0.3
2024-08-19T1600,1937A,107.2386,34.3622,宝鸡市,三迪小学,,49,44,33,32,20,154,,110,110,18,22,11,10,0.3,0.4
2024-08-19T1600,1051A,115.493,38.8632,保定市,游泳馆,,33,13,26,3,12,103,,80,80,10,14,2,2,0.2,0.3
2024-08-19T1600,1052A,115.5213,38.8959,保定市,华电二区,,32,9,27,3,14,100,,76,76,5,10,2,2,0.1,0.2
2024-08-19T1600,1053A,115.4713,38.9108,保定市,接待中心,,29,17,29,13,12,92,,68,68,4,9,1,2,0.4,0.4
2024-08-19T1600,1054A,115.4612,38.8416,保定市,地表水厂,,33,24,31,3,12,105,,78,78,1,7,1,1,0.2,0.3
2024-08-19T1600,3581A,115.31981,38.95208,保定市,满城区生态环境分局,,35,22,24,17,10,110,,88,88,8,13,4,3,0.3,0.3
2024-08-19T1600,3582A,115.47694,38.76408,保定市,清苑区第二中学,,36,21,27,8,11,113,,84,84,6,13,5,4,0.3,0.3
2024-08-19T1600,3583A,115.62909,39.02311,保定市,徐水物探局,,26,,25,14,10,83,,77,77,11,15,3,3,0.3,0.3
2024-08-19T1600,4004A,115.4202,38.8656,保定市,双鹰农机,,36,10,25,3,10,114,,88,88,5,10,2,2,0.3,0.3
2024-08-19T1600,4034A,115.5150,38.8590,保定市,植保所站,,37,20,26,6,14,116,,88,88,3,7,2,2,0.4,0.4
2024-08-19T1600,2594A,99.1678,25.1081,保山市,市环境监测站,,24,24,29,13,15,68,,58,58,13,9,6,6,0.5,0.5
2024-08-19T1600,2595A,99.1711,25.1328,保山市,市环保局,,33,33,28,3,9,73,,64,64,10,6,9,8,0.7,0.6
2024-08-19T1600,1866A,109.2262,21.588,北海市,牛尾岭水库,,,,,,,,,,,,,,,,
2024-08-19T1600,1867A,109.1436,21.4086,北海市,海滩公园,颗粒物(PM10),67,84,36,3,3,48,,67,53,6,9,4,4,0.8,0.6
2024-08-19T1600,1868A,109.0981,21.4661,北海市,新市环保局,,16,16,13,7,4,49,,72,60,5,6,2,2,0.5,0.6
2024-08-19T1600,1869A,109.1778,21.5233,北海市,北海工业园,,18,15,18,7,10,55,,66,63,4,10,4,4,0.5,0.6
2024-08-19T1600,3400A,109.1911,21.4415,北海市,龙潭自来水厂,,17,8,14,6,7,52,,52,52,4,8,7,8,0.5,0.5
2024-08-19T1600,1001A,116.3621,39.8784,北京市,万寿西宫,,42,24,19,19,16,134,,107,107,9,14,3,3,0.7,0.6
2024-08-19T1600,1002A,116.2202,40.2915,北京市,定陵,,39,15,24,10,14,122,,72,72,6,4,1,1,0.5,0.5
2024-08-19T1600,1003A,116.4174,39.9289,北京市,东四,,44,24,19,19,15,139,,107,107,10,15,3,3,0.9,0.8
2024-08-19T1600,1004A,116.4072,39.8863,北京市,天坛,,39,27,20,20,16,123,,95,95,10,13,3,3,0.7,0.6
2024-08-19T1600,1005A,116.462,39.9365,北京市,农展馆,,37,24,19,15,14,118,,90,90,9,17,1,2,0.6,0.5
2024-08-19T1600,1006A,116.3392,39.9295,北京市,官园,,44,28,19,17,15,138,,108,108,10,14,3,4,0.6,0.6
2024-08-19T1600,1007A,116.2878,39.9611,北京市,海淀万柳,,40,19,16,14,13,125,,105,105,9,13,3,2,0.5,0.5
2024-08-19T1600,1008A,116.6636,40.135,北京市,顺义新城,,37,16,17,13,13,118,,103,103,4,7,3,3,0.5,0.5
2024-08-19T1600,1009A,116.6275,40.3275,北京市,怀柔镇,,44,19,16,11,11,139,,95,95,9,9,5,5,0.5,0.5
2024-08-19T1600,1010A,116.2296,40.217,北京市,昌平镇,,35,18,23,9,14,112,,78,78,11,17,4,4,0.4,0.5
2024-08-19T1600,1011A,116.3966,39.9821,北京市,奥体中心,,39,20,14,13,11,122,,101,101,13,19,1,2,0.7,0.6
2024-08-19T1600,1012A,116.184,39.9136,北京市,古城,,42,17,21,12,13,132,,106,106,10,13,1,1,0.6,0.5
2024-08-19T1600,3281A,115.9718,40.4529,北京市,延庆夏都,,31,13,14,9,9,97,,88,88,2,2,3,3,0.4,0.4
2024-08-19T1600,3417A,117.0709,40.1465,北京市,平谷新城,,,21,20,14,13,106,,81,81,6,6,3,3,,0.5
2024-08-19T1600,3418A,116.8336,40.4095,北京市,密云新城,,38,20,15,12,8,119,,87,87,4,3,3,3,0.5,0.4
2024-08-19T1600,3671A,116.088,39.9726,北京市,门头沟三家店,,,,5,13,12,107,,79,79,5,6,3,3,0.4,0.4
2024-08-19T1600,3672A,116.1541,39.8204,北京市,丰台云岗,,36,23,24,14,17,114,,86,86,11,12,3,3,0.5,0.5
2024-08-19T1600,3673A,116.6804,39.9081,北京市,通州东关,,40,40,25,28,18,115,,97,97,4,8,3,3,0.9,0.6
2024-08-19T1600,3674A,115.9577,39.7603,北京市,房山燕山,,35,23,20,9,11,112,,83,83,9,7,3,3,0.4,0.4
2024-08-19T1600,3675A,116.4672,39.7733,北京市,大兴旧宫,,35,19,23,16,20,111,,90,90,2,8,3,3,0.6,0.6
2024-08-19T1600,3694A,115.986,40.4563,北京市,延庆石河营,,30,13,13,8,9,96,,86,86,1,4,3,3,0.4,0.4
2024-08-19T1600,3695A,116.6151,40.3053,北京市,怀柔新城,,42,17,15,12,11,133,,86,86,6,4,3,3,0.6,0.5
2024-08-19T1600,3696A,116.2545,39.8768,北京市,丰台小屯,,34,22,20,14,14,107,,98,98,7,13,5,5,0.6,0.5
2024-08-19T1600,3697A,116.84,40.3844,北京市,密云镇,,32,16,18,11,10,102,,76,76,2,6,1,1,0.5,0.5
2024-08-19T1600,1761A,123.8275,41.3064,本溪市,大峪,,23,,26,11,15,72,,67,67,5,10,6,6,0.5,0.9
2024-08-19T1600,1762A,123.7567,41.3325,本溪市,溪湖,,24,20,32,6,15,76,,69,69,11,14,5,6,0.7,0.8
2024-08-19T1600,1763A,123.7169,41.3094,本溪市,彩屯,,,25,40,12,23,65,,53,53,,23,11,9,1.8,2.2
2024-08-19T1600,1764A,123.7669,41.2864,本溪市,东明,,26,21,31,8,15,81,,74,74,10,12,4,5,0.5,0.6
2024-08-19T1600,1765A,123.7992,41.2664,本溪市,新立屯,,23,6,23,3,10,72,,68,68,7,14,2,2,0.8,0.9
2024-08-19T1600,1766A,123.8142,41.3472,本溪市,威宁,,22,15,32,10,18,68,,58,58,9,13,8,8,0.5,0.7
2024-08-19T1600,2587A,105.2864,27.3125,毕节市,八中,,39,17,31,7,26,122,,88,88,5,14,5,6,0.3,0.6
2024-08-19T1600,2588A,105.31,27.2944,毕节市,师专,,38,10,30,10,22,121,,83,83,6,17,6,7,0.4,0.6
2024-08-19T1600,3537A,105.3631,27.3533,毕节市,长征村,,41,12,44,10,39,130,,94,94,4,10,6,6,0.4,0.6
2024-08-19T1600,1629A,118.0018,37.3617,滨州市,第二水厂,,38,,17,7,15,121,,93,93,4,11,1,2,0.6,0.7
2024-08-19T1600,1630A,117.9776,37.393,滨州市,北中新校,,37,9,23,7,15,116,,82,82,6,15,4,4,0.5,0.6
2024-08-19T1600,3514A,117.9378,37.3956,滨州市,中海酒店,,40,14,18,12,15,127,,90,90,6,12,3,4,0.5,0.6
2024-08-19T1600,3515A,117.9378,37.3553,滨州市,开发区一中,,41,17,21,14,18,131,,97,97,9,15,5,7,0.6,0.7
2024-08-19T1600,3516A,118.0917,37.694,滨州市,金海六路,,36,6,9,3,5,114,,103,103,6,15,2,2,0.5,0.5
2024-08-19T1600,4028A,117.9956,37.3753,滨州市,滨州市西街道办事处,,41,14,21,9,16,130,,98,98,4,9,3,4,0.5,0.6
2024-08-19T1600,2311A,115.8072,33.8399,亳州市,污水处理厂,,31,17,19,17,12,98,,93,93,5,7,2,10,0.5,0.5
2024-08-19T1600,2312A,115.7789,33.8518,亳州市,三国揽胜宫,,33,23,20,17,16,104,,99,99,3,5,1,7,0.4,0.5
2024-08-19T1600,3332A,115.7633,33.8034,亳州市,亳州学院,,35,,12,18,8,110,,107,107,2,5,3,6,0.3,0.4
2024-08-19T1600,2693A,82.0485,44.8556,博尔塔拉蒙古自治州,市党校,,32,,16,15,8,101,,82,81,6,8,7,7,0.4,0.4
2024-08-19T1600,2694A,82.0806,44.8969,博尔塔拉蒙古自治州,市环保局,,29,14,26,10,11,92,,76,76,8,10,6,6,0.4,0.5
2024-08-19T1600,1071A,116.8842,38.2991,沧州市,沧县城建局,,35,15,19,13,16,110,,101,101,6,12,4,4,0.4,0.5
2024-08-19T1600,1072A,116.8584,38.3254,沧州市,电视转播站,,33,21,18,7,10,103,,87,87,4,11,2,2,0.2,0.2
2024-08-19T1600,1073A,116.8709,38.3228,沧州市,市环保局,,35,22,16,16,12,109,,96,96,5,12,1,2,0.3,0.3
2024-08-19T1600,3324A,116.8136,38.3004,沧州市,河北水利电力学院,,39,,13,12,17,124,,99,99,4,11,5,5,0.6,0.3
2024-08-19T1600,2622A,97.1806,31.1273,昌都市,昌都监测站,,41,6,11,3,6,129,,99,99,1,9,5,5,0.5,0.5
2024-08-19T1600,3719A,97.1714,31.1406,昌都市,昌都会议中心,,45,7,9,3,6,141,,115,115,2,4,6,6,0.3,0.3
2024-08-19T1600,2690A,88.1236,43.8886,昌吉回族自治州,天山天池,,30,,41,8,7,94,,87,87,8,9,3,3,0.6,0.6
2024-08-19T1600,2692A,87.2717,44.0297,昌吉回族自治州,新区政务中心,,25,16,43,13,14,80,,82,82,9,9,8,9,0.6,0.5
2024-08-19T1600,3613A,87.3095,44.0142,昌吉回族自治州,亚心广场,,29,9,49,3,9,90,,86,86,14,13,4,4,0.2,0.2
2024-08-19T1600,1119A,125.3325,43.9166,长春市,食品厂,,36,12,28,8,17,113,,72,72,10,20,3,3,0.5,0.6
2024-08-19T1600,1120A,125.2863,43.9027,长春市,客车厂,,35,19,28,6,17,112,,76,76,10,18,5,6,0.5,0.6
2024-08-19T1600,1121A,125.2841,43.8463,长春市,邮电学院,,28,12,26,9,14,89,,62,62,6,14,6,6,0.5,0.6
2024-08-19T1600,1122A,125.3716,43.8772,长春市,劳动公园,,36,9,27,8,14,115,,76,76,6,14,6,6,0.6,0.7
2024-08-19T1600,1123A,125.3297,43.8805,长春市,园林处,,35,11,24,10,14,109,,74,74,8,14,3,3,0.4,0.6
2024-08-19T1600,1124A,125.4605,43.79,长春市,净月潭,,22,9,22,8,13,68,,54,54,4,5,5,5,0.5,0.5
2024-08-19T1600,1125A,125.7194,43.515,长春市,甩湾子,,,,,,,,,,,,,,,,
2024-08-19T1600,1126A,125.3863,43.8447,长春市,经开区环卫处,,32,10,24,7,13,102,,65,65,6,14,5,5,0.6,0.7
2024-08-19T1600,1127A,125.245,43.7783,长春市,高新区管委会,,34,9,23,7,14,108,,74,74,5,12,3,3,0.6,0.6
2024-08-19T1600,1128A,125.1761,43.8325,长春市,岱山公园,,34,11,26,11,16,108,,74,74,6,17,3,2,0.5,0.6
2024-08-19T1600,1335A,113.0833,28.2325,长沙市,经开区环保局,,40,40,27,27,13,120,,100,100,8,12,3,2,0.5,0.4
2024-08-19T1600,1336A,112.8872,28.2189,长沙市,高开区环保局,,40,39,29,24,16,128,,106,106,6,11,2,2,0.6,0.5
2024-08-19T1600,1337A,113.0792,28.2053,长沙市,马坡岭,细颗粒物(PM2.5),54,42,27,38,19,152,,143,143,6,9,2,2,0.6,0.5
2024-08-19T1600,1338A,112.9394,28.19,长沙市,湖南师范大学,,42,41,34,25,19,133,,115,115,4,12,5,5,0.7,0.7
2024-08-19T1600,1339A,113.0178,28.1322,长沙市,雨花区环保局,,46,46,29,21,14,133,,114,114,5,14,4,4,0.4,0.4
2024-08-19T1600,1340A,112.9792,28.2597,长沙市,伍家岭,,41,41,29,27,18,130,,104,104,3,8,1,1,0.5,0.5
2024-08-19T1600,1341A,113.0014,28.1944,长沙市,火车新站,,45,37,27,27,16,144,,122,122,3,7,3,3,0.5,0.4
2024-08-19T1600,1342A,112.9844,28.1178,长沙市,天心区环保局,,43,43,29,27,18,124,,113,113,9,19,1,2,0.5,0.5
2024-08-19T1600,1343A,112.8908,28.1308,长沙市,湖南中医药大学,,49,42,29,34,20,136,,117,117,3,11,4,4,0.5,0.5
2024-08-19T1600,1344A,112.9581,28.3611,长沙市,沙坪,,40,26,26,14,17,125,,99,99,4,6,7,6,0.6,0.6
2024-08-19T1600,1727A,113.1147,36.1547,长治市,清华站,,40,37,41,3,30,128,,121,121,9,11,5,5,0.5,0.7
2024-08-19T1600,1728A,113.1031,36.1989,长治市,监测站,,40,35,48,3,28,125,,118,118,12,15,7,7,0.9,1.1
2024-08-19T1600,1730A,113.0886,36.2125,长治市,审计局,,50,50,39,9,27,118,,116,116,9,12,4,4,0.7,0.8
2024-08-19T1600,1731A,113.0844,36.1856,长治市,长治八中,,39,36,48,25,32,124,,127,127,10,12,5,5,0.5,0.8
2024-08-19T1600,2845A,113.1569,36.1911,长治市,德盛苑,,41,26,38,7,26,130,,118,118,5,8,6,7,0.8,1.1
2024-08-19T1600,3568A,113.06,36.0464,长治市,向阳小学,,49,49,67,31,46,132,,132,132,8,11,8,8,0.5,0.8
2024-08-19T1600,3569A,112.8792,36.3144,长治市,屯留一中,,42,35,51,7,31,133,,133,133,8,13,11,9,0.6,0.6
2024-08-19T1600,3570A,113.235,36.3489,长治市,潞城四中,,45,34,31,3,18,143,,131,131,5,10,7,5,0.4,0.7
2024-08-19T1600,1854A,111.6975,28.9703,常德市,市二中,,45,30,27,20,21,144,,122,122,2,4,6,7,0.5,0.5
2024-08-19T1600,1857A,111.7158,29.1456,常德市,白鹤山,,,,,,,,,,,,,,,,
2024-08-19T1600,3138A,111.7153,29.0289,常德市,武陵区永安,,45,23,27,19,19,143,,120,120,5,6,7,7,0.5,0.5
2024-08-19T1600,3139A,111.6892,28.9881,常德市,鼎城区玉霞,,45,22,27,18,21,142,,122,122,4,6,6,6,0.5,0.6
2024-08-19T1600,3140A,111.6625,29.0531,常德市,武陵区长庚,,45,20,25,16,21,141,,119,119,4,6,7,8,0.5,0.6
2024-08-19T1600,1196A,119.9633,31.762,常州市,市监测站,,39,24,26,16,14,123,,110,110,15,20,6,6,0.4,0.5
2024-08-19T1600,1200A,119.9468,31.7069,常州市,武进监测站,,38,23,23,12,12,120,,103,103,13,18,5,8,0.7,0.6
2024-08-19T1600,1201A,119.9255,31.9087,常州市,安家,,30,21,25,11,14,94,,89,89,17,20,4,5,0.6,0.6
2024-08-19T1600,3002A,119.9805,31.8174,常州市,行政中心,,35,26,19,16,16,112,,99,99,16,20,8,8,0.3,0.3
2024-08-19T1600,3003A,120.0522,31.7748,常州市,经开区,,30,26,24,14,9,96,,94,94,14,17,7,8,0.4,0.4
2024-08-19T1600,3010A,119.9025,31.7964,常州市,钟楼,,30,20,24,12,11,96,,94,94,20,18,6,7,0.6,0.6
2024-08-19T1600,3429A,119.8598,31.7066,常州市,武进经发区,,34,34,25,18,12,106,,103,103,24,19,9,9,0.6,0.5
2024-08-19T1600,3430A,119.5826,31.7245,常州市,金坛城区,,36,30,23,16,12,113,,103,103,11,13,6,8,0.6,0.6
2024-08-19T1600,2220A,120.4318,41.5881,朝阳市,西梁,,,,27,,17,,,88,,,10,,8,,0.7
2024-08-19T1600,2221A,120.4521,41.5646,朝阳市,河畔小区,,,24,32,,17,74,,77,77,4,10,6,8,0.9,0.8
2024-08-19T1600,2222A,120.4176,41.5648,朝阳市,八里堡,,27,27,34,18,18,78,,75,75,8,14,6,6,0.8,0.9
2024-08-19T1600,2223A,120.3806,41.5969,朝阳市,农业园区,,35,27,24,24,16,75,,69,69,5,9,3,3,0.4,0.4
2024-08-19T1600,1705A,116.6367,23.6719,潮州市,西园路,,12,,20,8,13,37,,40,40,12,15,2,3,0.5,0.6
2024-08-19T1600,3026A,116.6183,23.6608,潮州市,市政府,,16,13,22,7,12,50,,48,48,12,11,6,5,0.7,0.8
2024-08-19T1600,4036A,116.6461,23.6761,潮州市,金山,,16,12,20,10,12,51,,50,50,9,14,6,10,0.6,0.7
2024-08-19T1600,2472A,113.0073,25.9061,郴州市,马头岭,,25,18,28,10,10,79,,66,66,3,7,6,7,0.1,0.1
2024-08-19T1600,2473A,113.0116,25.8226,郴州市,市职中,,31,,21,16,18,99,,77,77,3,7,7,7,0.4,0.5
2024-08-19T1600,2474A,113.0161,25.8001,郴州市,兴隆步行街,,31,23,26,9,16,98,,76,76,6,9,5,6,0.7,0.7
2024-08-19T1600,2475A,113.0383,25.8071,郴州市,市审计局,,30,12,16,9,15,93,,72,72,3,10,4,4,0.5,0.5
2024-08-19T1600,2476A,113.0348,25.7759,郴州市,市环保局,,31,,17,15,12,97,,72,72,8,15,2,3,0.7,0.6
2024-08-19T1600,1431A,103.9728,30.7236,成都市,金泉两河,臭氧1小时,102,18,32,8,19,203,,163,163,4,14,2,2,0.4,0.5
2024-08-19T1600,1432A,104.176,30.6872,成都市,十里店,,50,22,31,20,18,160,,150,150,4,13,4,6,0.5,0.6
2024-08-19T1600,1433A,104.079,30.5706,成都市,三瓦窑,,48,22,28,18,21,153,,144,144,6,23,2,3,0.5,0.6
2024-08-19T1600,1434A,104.1114,30.63,成都市,沙河铺,,48,34,31,19,16,151,,141,141,5,14,4,5,0.4,0.5
2024-08-19T1600,1437A,104.0786,30.6531,成都市,君平街,臭氧1小时,69,15,31,3,14,175,,161,161,9,16,4,5,0.3,0.5
2024-08-19T1600,1438A,103.613,31.0283,成都市,灵岩寺,,,,,,,,,,,,,,,,
2024-08-19T1600,2880A,104.0239,30.65639,成都市,大石西路,臭氧1小时,63,24,34,14,18,170,,146,146,9,21,5,5,0.4,0.5
2024-08-19T1600,3136A,104.2725,30.5589,成都市,龙泉驿区区政府,臭氧1小时,62,14,18,7,12,169,,140,140,6,9,5,4,0.4,0.5
2024-08-19T1600,3357A,104.0106,30.6931,成都市,金博路,臭氧1小时,78,13,26,8,15,182,,148,148,12,19,2,2,0.2,0.4
2024-08-19T1600,3359A,104.0578,30.5225,成都市,华阳,,47,24,29,19,24,148,,144,144,2,7,3,4,0.6,0.6
2024-08-19T1600,3487A,104.2394,30.5319,成都市,车城东七路,,49,24,28,19,19,156,,146,146,4,9,3,3,0.4,0.4
2024-08-19T1600,3488A,104.3853,30.7453,成都市,青白江技师分院,,,17,25,12,19,170,,156,156,,22,3,4,0.5,0.5
2024-08-19T1600,3489A,104.0789,30.4072,成都市,科学城,,47,27,25,21,20,150,,136,136,1,8,4,4,0.4,0.4
2024-08-19T1600,4011A,103.8506,30.6947,成都市,光华大道三段,臭氧1小时,111,58,42,35,19,222,,168,168,8,20,3,3,0.5,0.6
2024-08-19T1600,1062A,117.9531,40.9081,承德市,铁路,,31,17,21,11,8,98,,68,68,11,17,8,7,0.4,0.4
2024-08-19T1600,1063A,117.9392,40.9763,承德市,中国银行,,31,10,18,3,8,99,,77,77,6,13,4,4,0.4,0.4
2024-08-19T1600,1064A,117.9503,40.928,承德市,开发区,,31,27,28,7,12,99,,71,71,10,16,6,6,0.4,0.4
2024-08-19T1600,1065A,117.8051,40.9655,承德市,文化中心,,35,30,22,3,7,111,,89,89,7,12,6,6,0.4,0.3
2024-08-19T1600,1066A,117.9268,41.0026,承德市,离宫,,19,17,22,3,7,60,,64,64,4,7,2,3,0.5,0.4
2024-08-19T1600,2314A,117.47,30.6618,池州市,池州学院,,39,19,29,15,20,124,,94,94,3,11,6,5,0.7,0.9
2024-08-19T1600,3237A,117.4918,30.6617,池州市,展览馆,,39,21,31,12,22,123,,95,95,3,10,5,4,0.7,0.8
2024-08-19T1600,3333A,117.5627,30.695,池州市,第八中学,,40,26,34,19,22,128,,97,97,9,13,7,4,0.5,0.6
2024-08-19T1600,3334A,117.5038,30.6243,池州市,第十二中学,,38,19,28,12,20,120,,97,97,5,15,5,4,0.8,1.2
2024-08-19T1600,1744A,118.9233,42.2816,赤峰市,松山一中,,27,27,21,6,5,86,,73,73,18,20,10,9,0.7,0.7
2024-08-19T1600,1745A,118.9576,42.2728,赤峰市,哈达街,,29,26,21,10,8,91,,73,73,11,14,10,13,0.5,0.6
2024-08-19T1600,1746A,118.8788,42.2554,赤峰市,天义路,,,,19,,11,100,,93,93,12,14,8,8,0.4,0.4
2024-08-19T1600,3058A,119.2658,42.0353,赤峰市,银河街,,38,38,23,24,18,88,,75,75,11,14,10,13,0.4,0.6
2024-08-19T1600,3286A,118.9359,42.3147,赤峰市,桥北物流园区,,30,18,10,9,9,94,,84,84,11,16,7,7,0.7,0.8
2024-08-19T1600,2521A,107.3476,22.4136,崇左市,市环保局江州分局,,27,11,22,9,11,84,,64,64,2,5,5,5,0.5,0.6
2024-08-19T1600,2522A,107.3702,22.3707,崇左市,城南新区,,30,,21,14,14,95,,73,73,1,4,4,4,0.5,0.5
2024-08-19T1600,2298A,118.3093,32.3153,滁州市,老年大学,,44,39,36,15,20,138,,119,119,12,15,8,8,0.6,0.4
2024-08-19T1600,2299A,118.3244,32.2786,滁州市,人大宾馆,,42,32,37,17,23,132,,113,113,10,15,5,6,0.7,0.6
2024-08-19T1600,3207A,118.3118,32.3038,滁州市,市政府原办公楼,,42,32,34,21,24,132,,115,115,11,16,9,8,0.9,0.8
2024-08-19T1600,3331A,118.3267,32.2634,滁州市,图书馆,,41,31,36,15,23,130,,115,115,7,14,5,6,0.8,0.8
2024-08-19T1600,2605A,101.5482,25.0441,楚雄彝族自治州,州环境监测站,,37,21,26,14,26,116,,81,81,5,15,4,5,0.7,0.7
2024-08-19T1600,2606A,101.538,25.0492,楚雄彝族自治州,市经济开发区,,37,,26,21,23,116,,80,80,6,15,5,5,0.7,0.7
2024-08-19T1600,2548A,107.5277,31.2827,达州市,达州职业技术学院,,45,42,42,17,22,143,,109,109,9,25,7,6,0.8,0.7
2024-08-19T1600,2549A,107.5086,31.2186,达州市,市环境监测站,臭氧1小时,62,44,49,22,25,169,,135,135,18,21,12,8,1.0,0.7
2024-08-19T1600,2550A,107.4988,31.2132,达州市,凤凰小区,臭氧1小时,70,46,46,24,31,176,,145,145,14,18,15,9,1.1,0.8
2024-08-19T1600,2551A,107.5082,31.1986,达州市,达县机关宾馆,臭氧1小时,74,44,52,14,27,179,,143,143,18,29,13,7,0.8,0.6
2024-08-19T1600,2552A,107.4644,31.2124,达州市,市政中心,,47,39,59,19,33,149,,150,150,12,22,7,14,0.8,1.3
2024-08-19T1600,2614A,100.1542,25.7054,大理白族自治州,大理市环境监测站,,34,,10,16,12,107,,93,93,4,12,5,4,0.5,0.6
2024-08-19T1600,2615A,100.2171,25.5811,大理白族自治州,大理古城,,31,29,18,10,11,98,,80,80,5,8,8,6,0.6,0.6
2024-08-19T1600,1109A,121.612,38.9741,大连市,甘井子,,25,16,17,10,10,77,,82,82,19,14,6,6,0.1,0.2
2024-08-19T1600,1110A,121.565,38.9511,大连市,周水子,,30,13,17,9,11,94,,85,85,10,12,7,7,0.6,0.6
2024-08-19T1600,1111A,121.5637,38.8845,大连市,星海三站,,31,15,20,6,10,98,,89,89,8,6,7,7,0.4,0.4
2024-08-19T1600,1112A,121.6302,38.9117,大连市,青泥洼桥,,32,10,13,6,9,100,,88,88,3,3,7,7,0.5,0.4
2024-08-19T1600,1113A,121.6251,38.8638,大连市,傅家庄,,38,15,18,9,10,121,,120,120,8,3,6,6,0.6,0.5
2024-08-19T1600,1114A,121.5213,38.8661,大连市,七贤岭,,35,9,18,7,10,109,,96,96,9,9,7,6,0.2,0.2
2024-08-19T1600,1115A,121.2529,38.8061,大连市,旅顺,,30,9,14,6,11,93,,90,90,23,13,7,7,0.3,0.3
2024-08-19T1600,1116A,121.7485,39.1311,大连市,金州,,41,41,27,3,9,69,,69,69,9,8,8,8,0.5,0.4
2024-08-19T1600,1117A,121.7811,39.0496,大连市,开发区,,32,15,20,6,9,102,,89,89,2,7,8,8,0.3,0.3
2024-08-19T1600,1118A,121.9762,39.0631,大连市,双D港,,33,13,15,11,9,103,,88,88,9,10,6,6,0.4,0.4
2024-08-19T1600,1789A,124.81117,46.03138,大庆市,大同区,,19,14,13,13,15,46,,43,43,6,5,8,8,0.4,0.4
2024-08-19T1600,1790A,125.129,46.533,大庆市,龙凤区,,17,17,18,11,10,46,,41,40,5,6,3,4,0.4,0.4
2024-08-19T1600,1791A,124.902,46.408,大庆市,红岗区,,21,21,21,11,14,49,,42,42,7,8,8,8,0.4,0.4
2024-08-19T1600,1792A,125.153,46.586,大庆市,萨尔图区,,19,19,14,3,6,47,,41,41,4,4,5,5,0.1,0.1
2024-08-19T1600,1793A,124.9042,46.6215,大庆市,让胡路区,,19,19,24,6,12,41,,34,34,6,8,7,8,0.2,0.2
2024-08-19T1600,3481A,125.141,46.634,大庆市,萨区政府监测点,,18,18,21,3,5,46,,38,38,3,5,6,6,0.3,0.3
2024-08-19T1600,1721A,113.3819,40.1097,大同市,果树场,,,,,,,,,,,,,,,,
2024-08-19T1600,1723A,113.2994,40.0758,大同市,云冈宾馆,,42,19,23,9,13,132,,133,133,10,12,6,7,0.5,0.6
2024-08-19T1600,1724A,113.3444,40.0917,大同市,大同大学,,39,25,21,13,13,124,,131,131,11,10,6,7,0.4,0.4
2024-08-19T1600,1725A,113.2661,40.1269,大同市,安家小村,,40,26,26,10,9,127,,125,125,10,12,8,10,0.4,0.6
2024-08-19T1600,1726A,113.2711,40.0844,大同市,教育学院,,42,29,29,8,14,132,,133,133,16,17,9,10,0.5,0.6
2024-08-19T1600,3282A,113.3397,40.0597,大同市,大同市卫生学校,,42,26,22,14,13,132,,129,129,11,11,7,7,0.7,0.5
2024-08-19T1600,3565A,113.1367,40.1122,大同市,云冈站,,41,21,29,18,14,131,,128,128,9,11,8,9,0.3,0.4
2024-08-19T1600,3566A,113.1186,40.2556,大同市,图书馆,,42,26,25,10,15,132,,134,134,11,11,7,9,0.5,0.5
2024-08-19T1600,3567A,113.5931,40.0461,大同市,区一中,,45,12,22,3,9,143,,131,131,6,11,6,7,0.4,0.5
2024-08-19T1600,3676A,113.2802,40.0995,大同市,第二人民医院,,42,32,27,9,13,133,,135,135,10,11,9,10,0.5,0.6
2024-08-19T1600,2269A,124.1069,50.4097,大兴安岭地区,科技局,,23,,18,16,14,67,,60,60,4,4,4,4,0.1,0.1
2024-08-19T1600,3663A,124.1164,50.4278,大兴安岭地区,红旗社区,,22,12,9,10,7,69,,60,60,2,4,5,6,0.3,0.3
2024-08-19T1600,1600A,124.3303,40.0625,丹东市,江湾东路,,23,23,33,12,19,64,,59,59,7,7,6,3,0.6,0.8
2024-08-19T1600,1601A,124.4256,40.1503,丹东市,临江后街,,23,22,37,11,20,71,,65,65,4,7,5,5,0.6,0.8
2024-08-19T1600,1602A,124.3933,40.1461,丹东市,元宝山,,19,12,33,11,19,59,,56,56,2,4,2,1,0.6,0.8
2024-08-19T1600,1603A,124.3633,40.1092,丹东市,民主桥,,25,25,36,12,19,62,,56,56,3,7,1,2,0.4,0.7
2024-08-19T1600,3541A,109.5726,19.5167,儋州市,第一中学子站,,17,15,17,8,9,52,,45,45,2,4,3,3,0.5,0.5
2024-08-19T1600,3542A,109.5567,19.5187,儋州市,东坡学校子站,,18,13,16,10,9,55,,48,48,3,5,2,3,0.6,0.6
2024-08-19T1600,2616A,98.5842,24.428,德宏傣族景颇族自治州,德宏州监测站,,12,12,19,6,10,35,,26,26,5,11,6,14,0.7,0.7
2024-08-19T1600,3677A,98.5881,24.4368,德宏傣族景颇族自治州,芒市人民政府综合楼,,10,9,25,3,12,30,,22,22,8,16,6,28,0.7,0.8
2024-08-19T1600,1901A,104.4239,31.1208,德阳市,东山公园,臭氧1小时,80,30,33,16,20,184,,147,147,7,16,3,4,0.6,0.6
2024-08-19T1600,1902A,104.3826,31.1317,德阳市,西小区,臭氧1小时,63,30,43,15,24,170,,136,136,8,24,2,4,0.5,0.6
2024-08-19T1600,1904A,104.3553,31.1091,德阳市,耐火材料厂,臭氧1小时,69,24,43,16,24,175,,144,144,4,23,3,4,0.5,0.6
2024-08-19T1600,3639A,104.4019,31.1244,德阳市,市教育局,臭氧1小时,69,29,39,12,20,175,,141,141,5,19,1,2,0.5,0.6
2024-08-19T1600,1622A,116.3032,37.4674,德州市,儿童乐园,,33,14,16,9,9,104,,103,103,7,8,8,7,0.6,0.6
2024-08-19T1600,1624A,116.2991,37.4451,德州市,监理站,,35,7,10,7,9,112,,112,112,7,10,9,8,0.5,0.5
2024-08-19T1600,3066A,116.2721,37.4379,德州市,九衢泉纯净水厂,,33,9,14,3,12,104,,101,101,4,7,9,7,0.5,0.5
2024-08-19T1600,3371A,116.3728,37.4403,德州市,开发区人民医院,,36,12,13,9,8,113,,105,105,13,14,9,8,0.7,0.5
2024-08-19T1600,3372A,116.3572,37.4094,德州市,太阳城中学,,37,17,11,12,10,116,,111,111,7,9,8,7,0.6,0.5
2024-08-19T1600,3511A,116.5652,37.3319,德州市,陵城艺术中心,,37,19,13,9,7,118,,101,101,8,10,7,7,0.7,0.6
2024-08-19T1600,2621A,99.7056,27.8317,迪庆藏族自治州,迪庆州站,,35,15,22,3,11,110,,85,85,8,14,9,10,0.2,0.4
2024-08-19T1600,3180A,99.7136,27.8094,迪庆藏族自治州,质量技术监督局,,31,18,15,3,8,99,,82,82,10,15,8,8,0.3,0.5
2024-08-19T1600,2663A,104.6241,35.5734,定西市,东关小学,,44,20,35,20,20,139,,110,110,3,17,12,12,0.3,0.3
2024-08-19T1600,2664A,104.6194,35.5934,定西市,供电公司,,45,14,36,7,19,142,,111,111,1,20,7,7,0.2,0.3
2024-08-19T1600,1389A,113.7547,23.0494,东莞市,莞城梨川,,45,35,25,25,16,143,,50,50,22,28,6,6,1.0,0.9
2024-08-19T1600,1390A,113.7944,23.0128,东莞市,东城石井,,39,30,23,26,14,124,,54,54,19,29,5,4,0.6,0.7
2024-08-19T1600,1391A,113.7383,22.9658,东莞市,南城西平,,29,,24,20,15,89,,44,44,12,27,1,2,0.7,0.7
2024-08-19T1600,3319A,113.7338,23.0381,东莞市,万江金泰,,44,34,26,27,17,140,,48,48,20,30,5,5,0.9,0.9
2024-08-19T1600,3626A,113.7533,23.0202,东莞市,南城元岭,,,35,24,,16,124,,47,47,14,25,6,6,0.8,0.9
2024-08-19T1600,3627A,113.7875,23.0457,东莞市,东城主山,,44,37,24,23,15,138,,51,51,15,24,7,7,0.7,0.6
2024-08-19T1600,1666A,118.6614,37.4309,东营市,市环保局,,35,12,15,9,10,111,,101,101,7,15,3,4,0.3,0.3
2024-08-19T1600,3036A,118.6904,37.4338,东营市,开发区管委会,,35,35,22,7,11,111,,102,102,4,11,2,2,0.3,0.3
2024-08-19T1600,3365A,118.5719,37.565,东营市,垦利区民丰路,,29,7,14,3,11,92,,89,89,2,9,6,6,0.3,0.4
2024-08-19T1600,3498A,118.5055,37.8612,东营市,河口城区,,36,6,10,3,5,114,,110,110,4,6,4,4,0.6,0.7
2024-08-19T1600,3646A,118.4978,37.4623,东营市,胜利站,,36,6,16,3,10,113,,109,109,4,11,6,6,0.4,0.6
2024-08-19T1600,3734A,118.35,37.26,东营市,理想之城,,32,14,13,12,14,100,,91,91,7,15,4,4,0.5,0.6
2024-08-19T1600,1591A,110.0023,39.8129,鄂尔多斯市,综合楼,,50,29,39,9,15,158,,126,126,12,30,13,11,0.6,0.8
2024-08-19T1600,1592A,109.9486,39.8261,鄂尔多斯市,巴音孟克林场办事处,,44,29,41,14,17,140,,117,117,9,34,9,8,0.4,0.8
2024-08-19T1600,1593A,109.7736,39.5986,鄂尔多斯市,康泽苑,,40,9,21,3,7,128,,116,116,2,8,5,5,0.4,0.4
2024-08-19T1600,1594A,109.8119,39.5989,鄂尔多斯市,华泰汽车城,,40,9,26,7,14,128,,119,119,5,14,3,3,0.5,0.5
2024-08-19T1600,1595A,109.9734,39.7884,鄂尔多斯市,奥林花园,,44,19,32,17,14,140,,115,115,8,31,6,5,0.5,0.7
2024-08-19T1600,2436A,114.8938,30.3994,鄂州市,市政府,,50,50,35,21,14,124,,119,119,17,10,10,9,1.1,0.6
2024-08-19T1600,2437A,114.8989,30.3714,鄂州市,赵家坝,,,6,35,,14,136,,119,119,28,16,4,12,0.8,0.6
2024-08-19T1600,3654A,114.8094,30.4089,鄂州市,精准医疗中心,,39,39,35,20,17,108,,122,122,28,16,16,9,1.6,0.7
2024-08-19T1600,2454A,109.4978,30.2981,恩施土家族苗族自治州,湖北民院,,42,16,20,13,12,133,,117,117,12,19,8,8,0.6,0.7
2024-08-19T1600,2455A,109.4707,30.2798,恩施土家族苗族自治州,州电力总公司,,41,16,18,11,11,129,,105,105,10,19,6,6,0.6,0.6
2024-08-19T1600,3549A,109.5061,30.3772,恩施土家族苗族自治州,龙凤新区,,40,,18,20,12,127,,103,103,8,9,7,6,0.6,0.6
2024-08-19T1600,2499A,108.3411,21.6158,防城港市,沙万,,31,31,21,16,11,79,,58,58,15,13,13,10,0.6,0.7
2024-08-19T1600,2500A,108.3514,21.7731,防城港市,防城档案局,,38,30,30,26,17,97,,74,74,6,9,7,7,0.6,0.7
2024-08-19T1600,2501A,108.3506,21.6414,防城港市,大海花园,,31,31,18,9,9,78,,60,60,15,9,7,7,0.6,0.6
2024-08-19T1600,1371A,113.1294,23.0067,佛山市,湾梁,,37,,20,21,18,118,,72,72,20,28,7,7,0.9,1
2024-08-19T1600,1372A,113.1083,23.0478,佛山市,华材职中,,43,31,23,22,14,137,,73,73,18,28,6,6,0.5,0.6
2024-08-19T1600,1373A,113.144,23.0453,佛山市,南海气象局,,40,38,26,21,14,126,,76,76,14,20,5,5,0.6,0.7
2024-08-19T1600,1374A,113.2881,22.8094,佛山市,顺德苏岗,,18,13,17,7,10,55,,72,72,24,24,6,6,0.6,0.8
2024-08-19T1600,1376A,112.8383,22.8678,佛山市,高明孔堂,,42,42,22,17,12,74,,72,72,6,10,6,7,0.6,0.6
2024-08-19T1600,1377A,112.8836,23.1588,佛山市,三水监测站,,50,39,24,26,16,157,,75,75,24,31,4,5,0.7,0.7
2024-08-19T1600,1378A,112.867,23.185,佛山市,三水云东海,,48,31,28,22,23,151,,72,72,18,32,8,9,0.7,0.7
2024-08-19T1600,3625A,113.2544,22.7642,佛山市,容桂街道办,,20,,14,14,16,50,,84,84,30,27,5,5,0.8,0.8
2024-08-19T1600,1280A,119.3903,26.0543,福州市,鼓山,,,,,,,,,,,,,,,,
2024-08-19T1600,1282A,119.2681,26.0504,福州市,师大,,31,24,22,10,8,99,,82,82,6,10,4,4,0.3,0.3
2024-08-19T1600,1283A,119.2984,26.1028,福州市,五四北路,,,,28,10,7,102,,84,84,6,8,3,3,0.3,0.3
2024-08-19T1600,1284A,119.2648,26.0768,福州市,杨桥西路,,32,24,21,9,8,102,,86,86,6,10,3,3,0.4,0.4
2024-08-19T1600,1285A,119.317,26.0746,福州市,紫阳,,28,24,19,7,7,88,,76,76,10,12,5,5,0.4,0.4
2024-08-19T1600,3048A,119.5799,26.0936,福州市,九龙,,24,12,21,12,9,76,,72,72,4,4,5,6,0.3,0.3
2024-08-19T1600,3526A,119.5189,25.9664,福州市,吴航,,23,16,19,7,8,71,,71,71,3,4,5,5,0.5,0.5
2024-08-19T1600,1755A,123.7977,41.8491,抚顺市,望花区,,34,23,42,16,25,108,,75,75,15,19,11,10,0.7,0.9
2024-08-19T1600,1756A,123.9161,41.8822,抚顺市,顺城区,,33,20,38,14,20,103,,81,81,14,23,4,4,0.6,0.7
2024-08-19T1600,1757A,124.0436,41.8611,抚顺市,东洲区,,31,11,31,9,19,98,,78,78,15,12,3,4,0.5,0.6
2024-08-19T1600,1758A,123.9247,41.8642,抚顺市,新抚区,,34,,41,17,21,108,,79,79,21,24,6,6,0.9,0.8
2024-08-19T1600,1759A,124.0972,41.8961,抚顺市,大伙房水库,,29,27,33,9,17,92,,86,86,8,10,4,4,0.7,0.7
2024-08-19T1600,1760A,123.7086,41.8391,抚顺市,沈抚新城,,32,20,53,7,18,100,,73,73,15,16,11,6,1.0,0.3
2024-08-19T1600,2376A,116.2127,28.0814,抚州市,桐源党溪,,28,28,28,14,11,84,,65,65,3,4,6,9,0.9,0.9
2024-08-19T1600,2377A,116.3544,27.9831,抚州市,市站,,25,24,20,13,10,80,,62,62,1,5,3,4,0.4,0.4
2024-08-19T1600,2378A,116.3565,27.963,抚州市,血防站,,,19,19,8,7,71,,65,65,1,4,,5,0.5,0.5
2024-08-19T1600,2379A,116.3564,28.0007,抚州市,采茶剧团,,24,18,19,10,8,76,,60,60,2,5,4,4,0.5,0.6
2024-08-19T1600,2380A,116.385,27.9647,抚州市,医学分院,,46,46,21,6,7,75,,60,60,2,5,3,3,0.9,1
2024-08-19T1600,2207A,121.6094,41.998,阜新市,工业园区,,31,13,38,12,22,99,,89,89,15,15,8,9,0.9,0.8
2024-08-19T1600,2208A,121.6697,42.0279,阜新市,长青街,,26,22,39,16,23,83,,80,78,12,10,3,10,0.7,0.7
2024-08-19T1600,2209A,121.6673,42.0705,阜新市,农业园区,,25,6,35,3,20,77,,81,81,11,12,3,4,0.6,0.7
2024-08-19T1600,2210A,121.6717,42.0224,阜新市,东苑,,40,,43,28,24,93,,88,84,10,10,7,5,0.6,1
2024-08-19T1600,2211A,121.6506,42.0498,阜新市,玉龙新城,,29,,36,15,21,92,,89,89,10,11,4,7,0.5,0.5
2024-08-19T1600,2301A,115.8277,32.8929,阜阳市,市监测站,,35,19,33,10,18,110,,119,119,5,12,6,7,0.5,0.6
2024-08-19T1600,2303A,115.8554,32.8605,阜阳市,开发区,,36,,40,13,26,114,,116,116,8,13,4,4,0.4,0.5
2024-08-19T1600,2875A,115.784,32.8892,阜阳市,阜阳职业技术学院,,33,,33,11,19,105,,122,122,7,12,4,5,0.4,0.5
2024-08-19T1600,3468A,115.7901,32.8613,阜阳市,市规划展馆,,35,,38,10,27,112,,126,126,9,12,6,6,0.5,0.6
2024-08-19T1600,3469A,115.836,32.9183,阜阳市,枣园社区,,,,43,15,29,99,,107,107,10,17,4,4,0.5,0.6
2024-08-19T1600,2669A,102.9099,34.9841,甘南藏族自治州,州政府,,39,18,28,9,15,123,,109,109,2,18,9,9,0.3,0.4
2024-08-19T1600,3380A,102.8914,34.9617,甘南藏族自治州,甘肃民族师范学院,,,,,,,,,,,,,,,,
2024-08-19T1600,2570A,101.9603,30.0475,甘孜藏族自治州,水桥子,,31,,17,12,9,97,,62,62,3,19,4,4,0.2,0.3
2024-08-19T1600,3065A,101.9533,29.9972,甘孜藏族自治州,州环保局,,32,12,13,8,5,100,,75,75,8,13,3,2,0.2,0.2
2024-08-19T1600,3414A,115.8347,28.932,赣江新区,桑海产业园,,24,12,10,7,9,75,,69,67,5,10,9,9,0.1,0.1
2024-08-19T1600,2362A,114.9017,25.9149,赣州市,通天岩,,,,,,,,,,,,,,,,
2024-08-19T1600,2363A,114.9367,25.8664,赣州市,地委,,23,8,16,6,13,73,,70,70,4,7,6,7,0.9,0.9
2024-08-19T1600,2364A,114.9461,25.8481,赣州市,气象台,,23,10,17,3,13,73,,70,70,7,7,9,12,0.5,0.6
2024-08-19T1600,2365A,114.9322,25.8333,赣州市,市图书馆,,25,7,16,6,9,80,,79,79,2,4,3,4,0.7,0.8
2024-08-19T1600,2366A,114.8905,25.8471,赣州市,华坚鞋城,,22,9,17,3,10,70,,65,65,4,6,4,7,0.4,0.4
2024-08-19T1600,3109A,115.0093,25.8613,赣州市,赣县区卫计委,,23,15,16,7,8,73,,76,76,6,9,6,6,0.5,0.6
2024-08-19T1600,2683A,106.2319,36.1417,固原市,马园,,40,14,32,3,8,127,,108,108,7,27,6,6,0.5,0.7
2024-08-19T1600,2684A,106.2792,36.0022,固原市,监测站,,42,,25,3,9,134,,119,119,6,18,4,4,0.3,0.3
2024-08-19T1600,2685A,106.2375,36.0211,固原市,新区,,41,11,29,3,10,130,,111,111,2,29,7,7,0.2,0.3
2024-08-19T1600,3522A,106.2177,35.9959,固原市,原州区十五小,,43,13,24,3,9,135,,124,124,3,16,7,7,0.3,0.4
2024-08-19T1600,2543A,106.6308,30.5278,广安市,小平旧居,,,,,,,,,,,,,,,,
2024-08-19T1600,2544A,106.6303,30.4576,广安市,市委,臭氧1小时,69,27,52,24,39,175,,156,156,8,15,6,6,0.4,0.5
2024-08-19T1600,2545A,106.6271,30.4663,广安市,友谊中学,臭氧1小时,68,35,48,22,36,174,,156,156,10,14,5,7,0.4,0.6
2024-08-19T1600,2547A,106.6388,30.4551,广安市,广电花园,臭氧1小时,67,33,55,22,37,173,,152,152,8,14,7,8,0.4,0.5
2024-08-19T1600,2902A,106.6351,30.4865,广安市,北辰小学,臭氧1小时,70,37,59,22,38,176,,153,153,6,14,7,8,0.3,0.5
2024-08-19T1600,2523A,105.8945,32.4535,广元市,黑石坡,,50,13,12,3,7,160,,106,106,5,9,6,8,0.3,0.3
2024-08-19T1600,2524A,105.821,32.4444,广元市,老城,臭氧1小时,55,20,17,7,8,164,,110,110,9,27,3,4,0.5,0.5
2024-08-19T1600,2526A,105.8628,32.4287,广元市,监测站,臭氧1小时,59,19,14,11,8,167,,116,116,7,10,3,3,0.6,0.5
2024-08-19T1600,3617A,105.8047,32.4166,广元市,经开区,臭氧1小时,55,38,30,26,17,164,,111,111,6,25,4,7,0.5,0.6
2024-08-19T1600,1345A,113.2347,23.1423,广州市,广雅中学,,50,32,27,17,17,160,,75,75,18,35,5,5,0.8,0.6
2024-08-19T1600,1346A,113.2612,23.105,广州市,市五中,,48,29,24,24,21,151,,72,72,13,26,4,4,0.8,0.7
2024-08-19T1600,1348A,113.3478,23.0916,广州市,广东商学院,,40,24,24,17,17,126,,56,56,15,31,3,3,0.7,0.7
2024-08-19T1600,1349A,113.4332,23.1047,广州市,市八十六中,,40,31,23,24,16,126,,50,50,31,38,3,3,0.8,0.8
2024-08-19T1600,1350A,113.3505,22.9483,广州市,番禺中学,,28,14,20,13,13,88,,68,68,17,24,4,4,0.5,0.6
2024-08-19T1600,1351A,113.2146,23.3916,广州市,花都师范,,43,,15,20,12,136,,71,71,10,21,7,5,0.7,0.6
2024-08-19T1600,1352A,113.2597,23.1331,广州市,市监测站,,46,26,23,16,17,145,,69,69,15,28,5,5,0.7,0.7
2024-08-19T1600,1353A,113.5618,23.312,广州市,九龙镇镇龙,,38,37,14,25,9,119,,61,61,11,16,6,6,0.7,0.7
2024-08-19T1600,1354A,113.2765,23.1544,广州市,麓湖,,47,25,23,19,15,149,,67,67,14,29,4,4,0.7,0.7
2024-08-19T1600,1355A,113.443,23.3035,广州市,帽峰山森林公园,,44,20,10,6,6,140,,75,75,8,12,3,3,0.5,0.4
2024-08-19T1600,2846A,113.3221,23.1322,广州市,体育西,,47,34,25,26,18,148,,69,69,12,22,5,4,0.8,0.8
2024-08-19T1600,3298A,113.5717,23.5491,广州市,从化街口,,44,,13,27,10,138,,78,78,10,14,6,6,0.7,0.7
2024-08-19T1600,3299A,113.3472,23.3692,广州市,白云竹料,,48,29,15,16,10,151,,71,71,15,24,4,4,0.7,0.7
2024-08-19T1600,3300A,113.2981,23.237,广州市,白云嘉禾,,48,24,22,20,16,153,,73,73,16,34,4,4,0.9,0.9
2024-08-19T1600,3301A,113.4256,23.1716,广州市,黄埔科学城,,50,25,24,21,17,159,,65,65,19,32,8,7,0.7,0.7
2024-08-19T1600,3302A,113.3942,23.0483,广州市,番禺大学城,,36,25,22,16,15,114,,50,50,14,23,7,7,0.6,0.6
2024-08-19T1600,3303A,113.4922,22.8168,广州市,南沙黄阁,,25,25,21,13,16,68,,54,54,27,28,4,4,0.8,0.9
2024-08-19T1600,3304A,113.5342,22.7896,广州市,南沙街,,29,29,21,6,10,69,,50,50,16,23,5,5,0.7,0.7
2024-08-19T1600,3443A,113.2902,23.5544,广州市,花都梯面,,44,22,17,19,11,140,,72,72,11,17,4,4,0.7,0.7
2024-08-19T1600,3445A,113.7858,23.7478,广州市,从化良口,,26,17,13,16,8,81,,52,52,5,10,5,5,0.8,0.8
2024-08-19T1600,3446A,113.8051,23.2614,广州市,增城荔城,细颗粒物(PM2.5),60,46,12,43,10,133,,76,76,19,14,8,7,0.7,0.5
2024-08-19T1600,2505A,109.568,23.1478,贵港市,德智高中,,,,,,,,,,,,,,,,
2024-08-19T1600,2506A,109.6047,23.0666,贵港市,江南子站,,,24,28,15,15,114,,87,87,4,10,,7,0.7,0.7
2024-08-19T1600,2507A,109.6014,23.0948,贵港市,贵城子站,,34,23,32,18,18,106,,80,80,7,11,7,7,0.6,0.7
2024-08-19T1600,2508A,109.5669,23.1065,贵港市,荷城子站,,36,29,24,19,9,115,,78,78,8,9,9,9,0.5,0.5
2024-08-19T1600,3405A,109.5886,23.1172,贵港市,新世纪学校,,36,29,28,18,14,113,,77,77,6,8,9,9,0.6,0.6
2024-08-19T1600,1439A,106.6899,26.5998,贵阳市,马鞍山,,36,29,26,7,9,114,,85,85,12,19,12,11,0.5,0.6
2024-08-19T1600,1440A,106.6971,26.5694,贵阳市,市环保站,颗粒物(PM10),67,83,47,25,29,132,,105,105,37,34,5,4,0.3,0.4
2024-08-19T1600,1441A,106.6243,26.6266,贵阳市,鉴湖路,,48,31,31,17,16,153,,113,113,10,14,3,5,0.6,0.5
2024-08-19T1600,1442A,106.7487,26.6343,贵阳市,燕子冲,,47,19,20,14,19,148,,107,107,9,17,7,6,0.6,0.6
2024-08-19T1600,1443A,106.6555,26.4365,贵阳市,碧云窝,,38,34,40,17,20,120,,102,102,11,19,5,5,0.5,0.5
2024-08-19T1600,1444A,106.694,26.5161,贵阳市,中院村,,34,24,46,14,25,107,,110,110,27,28,6,7,0.5,0.6
2024-08-19T1600,1445A,106.7109,26.6027,贵阳市,红边门,,49,29,35,29,27,155,,114,114,16,25,3,4,0.3,0.4
2024-08-19T1600,1446A,106.7164,26.5699,贵阳市,新华路,,39,27,32,14,21,123,,103,103,12,22,3,4,0.5,0.6
2024-08-19T1600,1447A,106.674,26.5424,贵阳市,太慈桥,,43,31,29,14,18,136,,112,112,19,21,8,7,0.5,0.5
2024-08-19T1600,1552A,106.805,26.3003,贵阳市,桐木岭,,,,,,,,,,,,,,,,
2024-08-19T1600,1862A,110.4144,25.3167,桂林市,电子科大尧山校区,,38,38,42,21,23,91,,75,75,2,5,5,15,0.5,0.6
2024-08-19T1600,1863A,110.2819,25.2697,桂林市,监测站,,41,41,46,26,22,103,,68,68,6,13,8,10,0.6,0.7
2024-08-19T1600,1864A,110.3089,25.2708,桂林市,龙隐路小学,,42,36,40,29,24,128,,85,85,4,9,7,11,0.4,0.5
2024-08-19T1600,1865A,110.2869,25.2178,桂林市,八中,,49,49,41,28,23,118,,81,81,5,9,7,8,0.4,0.6
2024-08-19T1600,3403A,110.1764,25.2381,桂林市,创业大厦,,42,31,46,29,36,103,,67,67,6,18,8,20,0.4,0.4
2024-08-19T1600,3531A,110.296,25.1253,桂林市,旅游学院,,37,22,24,17,19,118,,80,80,4,9,6,6,0.4,0.4
2024-08-19T1600,2674A,100.2561,34.4714,果洛藏族自治州,玛沁县大武镇,,43,23,28,8,11,137,,103,103,1,5,5,8,0.4,0.4
2024-08-19T1600,1129A,126.5422,45.755,哈尔滨市,岭北,,17,8,19,3,11,52,,58,47,14,16,11,10,0.3,0.5
2024-08-19T1600,1130A,126.561,45.8167,哈尔滨市,松北商大,,14,14,23,3,9,44,,39,37,9,14,7,7,0.5,0.5
2024-08-19T1600,1131A,126.979,45.5419,哈尔滨市,阿城会宁,,10,,25,3,13,32,,29,29,9,14,4,5,0.6,0.6
2024-08-19T1600,1132A,126.599,45.7222,哈尔滨市,南岗学府路,,20,20,38,3,10,41,,46,41,6,13,6,7,0.4,0.5
2024-08-19T1600,1133A,126.689,45.7733,哈尔滨市,太平宏伟公园,,17,17,31,3,10,32,,41,31,16,19,5,4,0.4,0.5
2024-08-19T1600,1134A,126.635,45.7667,哈尔滨市,道外承德广场,,20,20,32,3,10,30,,43,28,20,22,11,10,0.7,0.6
2024-08-19T1600,1135A,126.685,45.7319,哈尔滨市,香坊红旗大街,,17,17,26,3,14,34,,43,34,20,21,9,10,0.8,0.8
2024-08-19T1600,1136A,126.6411,45.7258,哈尔滨市,动力和平路,,17,17,30,3,8,38,,47,38,12,17,4,5,0.5,0.5
2024-08-19T1600,1137A,126.593,45.7478,哈尔滨市,道里建国路,,17,17,33,3,13,39,,48,35,9,15,10,11,0.5,0.6
2024-08-19T1600,1138A,126.615,45.61,哈尔滨市,平房东轻厂,,13,8,37,7,13,39,,34,34,16,25,6,5,0.3,0.4
2024-08-19T1600,1139A,126.595,45.9855,哈尔滨市,呼兰师专,,13,12,19,3,8,39,,44,42,16,17,10,10,0.6,0.5
2024-08-19T1600,1140A,126.6206,45.6842,哈尔滨市,省农科院,,14,14,29,3,8,39,,38,36,9,17,8,8,0.5,0.6
2024-08-19T1600,2688A,93.5128,42.8172,哈密市,地区监测站,颗粒物(PM10),109,167,94,60,23,122,,119,119,2,10,3,3,0.2,0.2
2024-08-19T1600,2689A,93.4961,42.8328,哈密市,哈密师范学校,颗粒物(PM10),84,117,66,35,17,129,,124,123,5,13,6,4,0.4,0.5
2024-08-19T1600,2671A,100.9048,36.9639,海北藏族自治州,海晏县西海镇,,42,18,14,14,12,132,,116,116,5,9,16,14,0.4,0.4
2024-08-19T1600,3867A,102.0738,36.5056,海东市,平安区公安北苑,,50,26,33,10,13,159,,121,121,9,13,8,14,0.4,0.5
2024-08-19T1600,1409A,110.576,19.9507,海口市,东寨港,,,,,,,,,,,,,,,,
2024-08-19T1600,1410A,110.3232,20.0574,海口市,海南大学,,25,25,20,11,11,56,,48,48,8,11,4,5,0.4,0.4
2024-08-19T1600,1411A,110.283,20.0053,海口市,秀英海南医院,,23,23,22,11,11,54,,44,44,10,13,6,7,0.3,0.3
2024-08-19T1600,1412A,110.338,19.9969,海口市,海南师范大学,,21,21,22,11,12,56,,49,49,10,9,7,7,0.4,0.4
2024-08-19T1600,1413A,110.33,20.0356,海口市,龙华路环保局宿舍,,26,26,27,10,12,56,,48,48,6,9,8,8,0.2,0.3
2024-08-19T1600,3539A,110.5111,19.9736,海口市,桂林洋子站,,16,14,24,6,13,51,,45,45,7,9,7,6,0.3,0.3
2024-08-19T1600,2673A,100.6188,36.2866,海南藏族自治州,共和县恰卜恰镇,,,,28,3,10,121,,121,121,,11,7,17,0.6,0.5
2024-08-19T1600,2676A,97.3731,37.3753,海西蒙古族藏族自治州,德令哈市,,44,24,18,11,9,140,,120,120,7,9,10,9,0.4,0.5
2024-08-19T1600,1048A,114.5302,36.6116,邯郸市,东污水处理厂,,41,28,23,3,8,130,,104,104,2,3,2,2,0.3,0.5
2024-08-19T1600,1049A,114.4918,36.5713,邯郸市,矿院,,43,33,22,17,9,137,,95,95,5,8,1,3,0.4,0.6
2024-08-19T1600,1050A,114.484,36.6133,邯郸市,丛台公园,,40,17,22,3,12,128,,93,93,2,4,3,4,0.3,0.5
2024-08-19T1600,3458A,114.7895,36.5593,邯郸市,香泉濮院小区,,37,16,17,3,5,118,,108,108,1,5,1,2,0.3,0.4
2024-08-19T1600,3579A,114.50634,36.77178,邯郸市,永年区实验高中,,40,24,26,14,13,127,,106,106,2,4,2,2,0.4,0.6
2024-08-19T1600,3580A,114.20016,36.44293,邯郸市,峰峰矿区临水派出所,,45,32,37,15,13,141,,102,102,2,9,2,5,0.8,1.2
2024-08-19T1600,2634A,106.9893,33.1842,汉中市,汉川机床厂子校,,48,21,18,14,7,151,,101,101,5,8,6,4,0.9,0.6
2024-08-19T1600,2635A,107.0154,33.0706,汉中市,市监测站,,,29,27,21,12,130,,111,111,,8,8,7,0.6,0.6
2024-08-19T1600,2636A,107.0089,33.1138,汉中市,鑫源开发区,臭氧1小时,69,28,26,18,11,175,,112,112,5,12,12,10,0.8,0.6
2024-08-19T1600,2637A,107.007,33.0323,汉中市,南郑大河坎水厂,,41,19,20,9,10,129,,99,99,3,7,9,9,0.6,0.7
2024-08-19T1600,1223A,120.2072,30.2111,杭州市,滨江,,26,26,23,13,15,69,,92,92,9,12,5,5,0.5,0.5
2024-08-19T1600,1224A,120.0633,30.2747,杭州市,西溪,,33,21,29,18,18,105,,105,105,12,14,5,5,0.6,0.6
2024-08-19T1600,1226A,120.3461,30.3153,杭州市,下沙,,24,24,29,12,13,61,,100,95,9,18,6,8,0.3,0.4
2024-08-19T1600,1227A,120.1269,30.2456,杭州市,卧龙桥,,31,24,26,15,15,97,,127,127,11,14,5,5,0.5,0.5
2024-08-19T1600,1228A,120.1903,30.2692,杭州市,浙江农大,,27,27,25,12,13,75,,102,102,17,15,8,8,0.5,0.5
2024-08-19T1600,1230A,120.1197,30.3119,杭州市,和睦小学,,30,19,20,17,17,95,,118,118,10,13,6,6,0.5,0.5
2024-08-19T1600,1231A,120.3019,30.4183,杭州市,临平镇,,29,29,24,7,7,80,,103,103,6,11,4,5,0.6,0.6
2024-08-19T1600,1232A,120.2697,30.1819,杭州市,城厢镇,,24,24,23,10,15,68,,94,94,8,10,5,6,0.5,0.5
2024-08-19T1600,1233A,120.0883,30.1808,杭州市,云栖,,30,24,19,17,14,95,,107,107,12,18,8,8,0.4,0.6
2024-08-19T1600,3557A,119.9464,30.0494,杭州市,镇二中,,,12,21,9,17,88,,99,99,10,14,7,8,,0.7
2024-08-19T1600,3558A,119.7183,30.2367,杭州市,市府大楼,,37,14,25,9,20,117,,125,125,7,12,6,6,0.4,0.5
2024-08-19T1600,3656A,120.1556,30.2864,杭州市,消防大队,,40,40,27,17,15,84,,108,108,7,12,7,8,0.6,0.7
2024-08-19T1600,1270A,117.1959,31.7848,合肥市,明珠广场,臭氧1小时,77,46,54,34,34,181,,133,133,11,32,6,7,0.5,0.6
2024-08-19T1600,1271A,117.3072,31.8764,合肥市,三里街,臭氧1小时,54,39,46,29,29,163,,128,128,7,20,5,5,0.5,0.6
2024-08-19T1600,1272A,117.2588,31.8707,合肥市,琥珀山庄,臭氧1小时,74,58,51,37,36,179,,149,149,9,17,6,7,0.5,0.9
2024-08-19T1600,1273A,117.1604,31.9052,合肥市,董铺水库,,,41,45,38,28,154,,125,125,,15,3,3,0.5,0.4
2024-08-19T1600,1274A,117.25,31.8571,合肥市,长江中路,臭氧1小时,67,53,53,38,34,173,,137,137,9,16,8,9,0.7,0.8
2024-08-19T1600,1275A,117.266,31.9436,合肥市,庐阳区,臭氧1小时,103,56,51,36,29,205,,157,157,,21,5,5,0.6,0.6
2024-08-19T1600,1276A,117.336,31.8586,合肥市,瑶海区,,50,,54,35,32,158,,121,121,14,30,5,6,0.5,0.7
2024-08-19T1600,1277A,117.3027,31.7964,合肥市,包河区,臭氧1小时,55,44,53,31,35,164,,125,125,6,43,8,8,0.4,0.6
2024-08-19T1600,1278A,117.2776,31.7385,合肥市,滨湖新区,臭氧1小时,57,36,41,31,28,165,,122,122,5,17,8,9,0.6,0.6
2024-08-19T1600,1279A,117.1318,31.8403,合肥市,高新区,臭氧1小时,73,44,42,30,29,178,,129,129,15,24,9,9,0.8,0.8
2024-08-19T1600,3464A,117.3803,31.9147,合肥市,高教基地,,49,49,44,30,31,154,,115,115,7,14,9,10,0.5,0.5
2024-08-19T1600,3614A,79.924,37.0877,和田地区,地区环保局,颗粒物(PM10),500,627,396,133,102,102,,94,94,2,7,,7,0.4,0.6
2024-08-19T1600,3615A,79.9131,37.113,和田地区,市环保局,颗粒物(PM10),454,554,376,234,106,96,,85,85,1,18,7,7,0.5,0.6
2024-08-19T1600,2516A,108.2011,24.715,河池市,东仁乐园,,45,45,38,27,24,95,,79,79,6,9,7,6,0.8,0.8
2024-08-19T1600,2517A,108.0497,24.6947,河池市,市环保站,,32,21,25,15,16,101,,84,84,6,10,9,10,0.7,0.7
2024-08-19T1600,2518A,108.0983,24.6989,河池市,市疾控中心,,36,20,34,18,18,114,,85,85,9,15,9,10,0.5,0.6
2024-08-19T1600,1696A,114.6778,23.7569,河源市,源西,,23,8,11,7,13,71,,64,64,6,12,4,4,0.6,0.6
2024-08-19T1600,1697A,114.6944,23.7586,河源市,东埔,,23,7,11,3,7,71,,61,61,11,16,2,2,0.7,0.7
2024-08-19T1600,1698A,114.6892,23.7233,河源市,老城,,25,,12,9,8,77,,75,75,5,10,4,4,0.5,0.5
2024-08-19T1600,1718A,115.4208,35.2464,菏泽市,气象局,,33,11,20,8,13,104,,98,98,1,5,3,3,0.2,0.2
2024-08-19T1600,1719A,115.4747,35.2375,菏泽市,市政协,,30,11,18,11,12,95,,91,91,2,5,3,3,0.2,0.1
2024-08-19T1600,3374A,115.5564,35.0891,菏泽市,定陶老年大学,,30,12,15,3,4,93,,89,89,6,7,5,5,0.2,0.2
2024-08-19T1600,3647A,115.4702,35.2706,菏泽市,菏泽医专,,33,8,14,6,7,103,,92,92,2,5,8,7,0.5,0.5
2024-08-19T1600,2514A,111.5264,24.4172,贺州市,环保小区,,28,20,24,8,10,88,,66,66,5,11,6,7,0.6,0.6
2024-08-19T1600,2515A,111.5608,24.4078,贺州市,政协大楼,,30,16,26,9,12,94,,68,68,7,14,5,5,0.6,0.6
2024-08-19T1600,3534A,111.4744,24.4553,贺州市,西湾,,27,19,20,3,7,86,,64,64,5,10,5,7,0.5,0.6
2024-08-19T1600,2385A,114.17,35.9019,鹤壁市,市监测站,,41,25,26,18,18,131,,118,118,2,6,6,7,0.3,0.5
2024-08-19T1600,2386A,114.2956,35.7511,鹤壁市,市交警支队,,38,,23,22,18,119,,112,112,6,12,2,2,0.3,0.5
2024-08-19T1600,2387A,114.2878,35.7306,鹤壁市,迎宾馆,,38,,14,12,12,120,,114,114,6,14,3,4,0.7,0.7
2024-08-19T1600,3474A,114.2617,35.6822,鹤壁市,大新区,,,27,19,,,121,,110,110,6,12,3,3,0.3,0.3
2024-08-19T1600,3596A,114.1572,35.9603,鹤壁市,南山宾馆,,41,25,13,17,10,129,,108,108,1,5,2,4,0.2,0.3
2024-08-19T1600,2244A,130.2537,47.3416,鹤岗市,哈啤分公司,,29,29,21,10,13,45,,38,38,5,4,12,12,0.3,0.3
2024-08-19T1600,2245A,130.2684,47.3086,鹤岗市,斯达机电,,27,27,20,13,9,48,,38,38,7,8,13,13,0.1,0.2
2024-08-19T1600,2246A,130.3114,47.3388,鹤岗市,东山纸板厂,,22,,15,15,16,48,,42,42,6,6,15,15,0.4,0.7
2024-08-19T1600,2247A,130.1097,47.3382,鹤岗市,五号水库,,17,8,7,3,4,53,,43,43,5,4,10,10,0.6,0.6
2024-08-19T1600,2263A,127.4833,50.2524,黑河市,交通局,,35,32,28,24,16,84,,73,73,5,7,5,6,0.3,0.3
2024-08-19T1600,2264A,127.5144,50.2341,黑河市,环保局,,30,23,23,21,14,77,,67,67,4,7,3,3,0.3,0.3
2024-08-19T1600,2265A,127.5291,50.2472,黑河市,大黑河岛,,,27,22,23,15,,,,,10,9,2,2,,
2024-08-19T1600,1074A,115.6838,37.7541,衡水市,电机北厂,,39,14,14,14,13,122,,101,101,3,5,3,3,0.3,0.3
2024-08-19T1600,1075A,115.6303,37.7316,衡水市,市监测站,,41,18,20,3,11,131,,107,107,7,7,2,2,0.3,0.3
2024-08-19T1600,3188A,115.6683,37.7217,衡水市,市城管局,,,15,17,13,12,129,,107,107,3,3,,2,0.4,0.4
2024-08-19T1600,3459A,115.5989,37.5491,衡水市,地表水厂,,41,35,27,11,8,129,,101,101,1,3,7,7,0.3,0.4
2024-08-19T1600,2456A,112.5003,26.9167,衡阳市,原169医院,,25,,47,15,26,80,,80,80,6,8,7,8,0.4,0.6
2024-08-19T1600,2457A,112.6194,26.9258,衡阳市,衡阳化工总厂,,,31,55,,,98,,77,77,4,10,6,10,0.6,0.8
2024-08-19T1600,2458A,112.6211,26.8956,衡阳市,珠晖区环保局,,,24,43,,,105,,80,80,5,14,6,9,0.6,0.8
2024-08-19T1600,2459A,112.6197,26.8733,衡阳市,市委党校,,35,32,44,17,21,112,,91,91,5,9,6,8,0.6,0.8
2024-08-19T1600,2460A,112.6006,26.8919,衡阳市,市监测站,,33,22,44,18,30,105,,88,88,4,12,5,14,0.7,1
2024-08-19T1600,2461A,112.5664,26.9056,衡阳市,真空机电公司,,30,22,47,16,26,94,,84,84,3,10,6,6,0.6,0.9
2024-08-19T1600,3399A,112.6703,26.882,衡阳市,师范学院,,30,20,27,10,13,96,,89,89,6,8,7,7,0.5,0.6
2024-08-19T1600,2608A,103.3772,23.3993,红河哈尼族彝族自治州,污水处理厂,,39,,26,27,25,75,,87,87,7,11,6,27,0.3,0.4
2024-08-19T1600,2609A,103.3861,23.35,红河哈尼族彝族自治州,监测站,,32,32,32,20,22,87,,84,84,7,13,9,35,0.4,0.5
2024-08-19T1600,3038A,103.3758,23.368,红河哈尼族彝族自治州,州图书馆,,30,,32,21,18,77,,83,83,7,10,6,37,0.3,0.4
2024-08-19T1600,1090A,111.6507,40.7517,呼和浩特市,呼市一监,,45,14,35,8,18,142,,122,122,4,12,8,10,0.5,0.7
2024-08-19T1600,1091A,111.6572,40.8033,呼和浩特市,小召,,40,17,26,9,12,125,,116,116,14,16,5,6,0.5,0.6
2024-08-19T1600,1094A,111.7516,40.8369,呼和浩特市,如意水处理厂,,44,11,21,7,14,138,,115,115,6,14,6,6,0.4,0.6
2024-08-19T1600,1095A,111.7276,40.8062,呼和浩特市,二十九中,,44,14,34,9,14,138,,123,123,9,21,4,5,0.6,0.7
2024-08-19T1600,1096A,111.5512,40.7866,呼和浩特市,工大金川校区,,42,18,32,10,10,134,,114,114,11,18,5,6,0.4,0.5
2024-08-19T1600,1097A,111.717,40.7612,呼和浩特市,化肥厂生活区,,45,17,41,6,16,144,,127,127,5,14,7,9,0.4,0.6
2024-08-19T1600,3698A,111.5968,40.8178,呼和浩特市,红旗小学,,42,27,26,11,9,134,,121,121,14,15,4,4,0.4,0.4
2024-08-19T1600,3699A,111.6518,40.8389,呼和浩特市,海东办,,40,22,29,12,10,126,,118,118,14,17,4,5,0.7,0.7
2024-08-19T1600,2192A,119.7594,49.2261,呼伦贝尔市,区环保局,,44,44,26,19,18,68,,55,55,9,10,3,5,0.3,0.4
2024-08-19T1600,3061A,119.7512,49.1577,呼伦贝尔市,国华电力东,,30,30,22,18,13,72,,54,54,4,4,4,4,0.2,0.2
2024-08-19T1600,1250A,120.0751,30.8669,湖州市,城西水厂,,41,27,20,13,10,130,,96,96,7,11,4,4,0.4,0.4
2024-08-19T1600,2873A,120.0875,30.8955,湖州市,仁皇山新区,,42,23,17,16,12,132,,97,97,7,13,6,6,0.6,0.5
2024-08-19T1600,2907A,120.1844,30.8596,湖州市,吴兴区站,,40,25,20,15,11,127,,95,95,6,11,7,7,0.4,0.4
2024-08-19T1600,3562A,120.4148,30.8538,湖州市,南浔区站,,37,22,17,12,9,117,,79,79,4,9,5,6,0.5,0.4
2024-08-19T1600,1607A,120.9092,40.7136,葫芦岛市,龙港区,,39,28,31,21,19,102,,95,95,24,11,117,21,0.8,0.6
2024-08-19T1600,1608A,120.8392,40.7514,葫芦岛市,化工街,,30,6,18,3,13,96,,93,93,19,20,3,3,0.6,0.6
2024-08-19T1600,1609A,120.8341,40.7073,葫芦岛市,新区,,31,,19,11,13,97,,94,94,20,14,17,8,0.8,0.5
2024-08-19T1600,1610A,120.8695,40.7677,葫芦岛市,东城区,,30,30,23,7,20,91,,97,97,20,20,8,8,0.7,0.2
2024-08-19T1600,2482A,109.5981,27.5721,怀化市,林科所,,30,16,21,7,13,94,,85,85,6,8,3,7,0.2,0.3
2024-08-19T1600,2483A,109.9453,27.5444,怀化市,河西地税局,,32,17,27,11,16,100,,99,99,3,8,11,9,0.5,0.6
2024-08-19T1600,2484A,109.9781,27.5342,怀化市,市四医院,,32,25,26,18,18,100,,97,97,2,6,4,5,0.5,0.7
2024-08-19T1600,2485A,109.9972,27.5578,怀化市,监测楼,,32,14,26,13,18,100,,96,96,2,7,4,8,0.5,0.6
2024-08-19T1600,2486A,110.0394,27.583,怀化市,市委党校,,28,14,25,10,24,89,,86,86,2,9,10,13,0.5,0.7
2024-08-19T1600,1210A,119.036,33.5981,淮安市,钵池山,,30,22,16,14,14,95,,86,86,10,13,7,7,0.5,0.5
2024-08-19T1600,1211A,119.007,33.575,淮安市,北京南路,,30,19,17,16,12,93,,82,82,6,8,5,5,0.7,0.6
2024-08-19T1600,1212A,118.989,33.6067,淮安市,市监测站,,34,34,19,14,14,102,,86,86,10,11,6,6,1.0,0.9
2024-08-19T1600,1213A,119.135,33.5039,淮安市,楚州区监测站,,29,29,27,14,13,88,,81,81,10,14,5,6,0.5,0.5
2024-08-19T1600,1214A,119.0186,33.6297,淮安市,淮阴区监测站,,31,24,22,14,13,98,,95,95,13,16,4,4,0.4,0.5
2024-08-19T1600,3426A,118.8755,33.2894,淮安市,新华书店,,33,30,19,15,14,104,,88,88,11,13,6,7,0.6,0.6
2024-08-19T1600,2282A,116.8004,33.975,淮北市,监测站,,28,15,34,8,17,88,,86,86,7,6,4,5,0.5,0.5
2024-08-19T1600,2283A,116.8091,33.9007,淮北市,烈山区政府,,30,12,32,3,18,95,,90,90,6,7,6,6,0.5,0.5
2024-08-19T1600,3330A,116.8873,33.9836,淮北市,杜集区检察院,,29,23,27,9,20,91,,88,88,4,5,1,2,0.5,0.6
2024-08-19T1600,4017A,116.7923,33.9535,淮北市,市博物馆,,31,11,32,7,18,97,,87,87,6,9,3,4,0.6,0.6
2024-08-19T1600,2277A,116.8305,32.7727,淮南市,潘集区政府,颗粒物(PM10),51,51,43,21,27,147,,140,140,7,14,4,5,0.6,0.6
2024-08-19T1600,2278A,117.0067,32.6524,淮南市,师范学院,,49,49,41,16,19,154,,138,138,7,8,9,10,0.5,0.6
2024-08-19T1600,2279A,116.8569,32.5951,淮南市,谢家集区政府,,50,35,34,17,15,158,,131,131,9,15,8,8,0.5,0.6
2024-08-19T1600,2280A,116.8281,32.633,淮南市,八公山区政府,臭氧1小时,57,45,50,28,29,165,,138,138,9,13,6,7,0.5,0.5
2024-08-19T1600,2281A,116.6325,32.6201,淮南市,焦岗湖风景区管理处,,28,27,30,8,15,89,,84,84,6,14,3,3,0.3,0.3
2024-08-19T1600,2894A,117.0566,32.6531,淮南市,经济技术开发区消防队,,43,32,28,23,14,136,,133,133,5,11,5,6,0.4,0.5
2024-08-19T1600,3329A,117.0108,32.5893,淮南市,山南新区,颗粒物(PM10),51,52,45,23,25,154,,134,134,9,12,6,6,0.6,0.6
2024-08-19T1600,2446A,114.9028,30.4742,黄冈市,职工中心,,38,38,28,25,18,119,,117,117,22,13,12,10,1.1,0.4
2024-08-19T1600,2929A,114.8858,30.4519,黄冈市,红卫路,,39,33,27,27,21,120,,120,120,21,12,11,10,0.9,0.4
2024-08-19T1600,3398A,114.9136,30.4445,黄冈市,市林业局,,44,33,42,26,18,139,,127,127,13,8,8,9,0.8,0.5
2024-08-19T1600,2672A,102.0199,35.5102,黄南藏族自治州,同仁县隆务镇,,42,11,25,11,8,132,,108,108,3,3,12,10,0.4,0.3
2024-08-19T1600,2295A,118.2903,29.6963,黄山市,延安路89号,,20,18,44,3,16,63,,96,96,5,5,5,5,0.5,0.6
2024-08-19T1600,2296A,118.327,29.7178,黄山市,黄山东路89号,,18,18,25,3,12,56,,83,83,6,5,6,6,0.4,0.5
2024-08-19T1600,2297A,118.1371,30.2756,黄山市,黄山区政府5号楼,,25,14,36,3,23,80,,84,84,4,7,6,6,0.4,0.5
2024-08-19T1600,2423A,115.0601,30.2313,黄石市,沈家营,,43,43,49,23,19,135,,116,116,9,19,6,10,0.8,0.7
2024-08-19T1600,2424A,115.0817,30.2006,黄石市,陈家湾,,48,48,55,16,21,127,,106,106,9,24,4,5,0.4,0.7
2024-08-19T1600,2426A,114.8988,30.2019,黄石市,铁山,,45,42,47,20,21,144,,159,159,4,16,8,10,0.3,0.4
2024-08-19T1600,2427A,115.0307,30.2092,黄石市,团城山,,45,36,42,21,20,143,,123,123,11,17,11,15,0.7,0.6
2024-08-19T1600,3149A,115.0235,30.1578,黄石市,笔架山北路,,49,34,47,17,17,156,,132,132,6,11,6,8,0.4,0.3
2024-08-19T1600,1392A,114.4183,23.0528,惠州市,河南岸金山湖子站,,20,14,17,12,13,63,,34,34,9,11,4,4,0.7,0.7
2024-08-19T1600,1393A,114.4053,23.0822,惠州市,下埔横江三路子站,,25,25,18,15,12,77,,48,48,14,14,3,4,0.7,0.7
2024-08-19T1600,1394A,114.4103,23.1142,惠州市,江北云山西路子站,,26,23,16,10,9,83,,50,50,13,12,3,3,0.8,0.7
2024-08-19T1600,1395A,114.4645,22.7833,惠州市,惠阳区承修路船湖子站,,,13,15,10,11,51,,41,41,19,20,,4,,0.7
2024-08-19T1600,1396A,114.5317,22.7422,惠州市,大亚湾管委会子站,,15,12,17,7,8,48,,44,44,22,23,6,6,0.5,0.5
2024-08-19T1600,3314A,114.4338,22.8134,惠州市,惠阳秋长,,17,17,15,9,13,48,,37,37,24,27,5,5,0.6,0.9
2024-08-19T1600,3452A,114.6517,22.775,惠州市,大亚湾霞涌,,20,,13,14,11,52,,42,42,12,15,3,3,0.5,0.5
2024-08-19T1600,2240A,130.9762,45.3001,鸡西市,环保局,,14,11,15,7,7,43,,41,39,4,5,4,4,0.4,0.4
2024-08-19T1600,2243A,130.9429,45.3039,鸡西市,第一中学,,16,12,17,9,8,50,,44,44,5,10,4,4,0.2,0.3
2024-08-19T1600,3707A,131.0207,45.3073,鸡西市,欧美日汽修厂,,14,,9,8,7,44,,40,40,3,5,3,3,0.4,0.4
2024-08-19T1600,3709A,130.9967,45.3106,鸡西市,市政设施管理处,,15,11,12,3,6,46,,42,42,8,10,4,4,0.2,0.3
2024-08-19T1600,2367A,114.9754,27.0803,吉安市,红声器材厂,,28,28,26,10,13,84,,60,60,7,9,11,11,0.6,0.6
2024-08-19T1600,2368A,114.9658,27.0999,吉安市,市森林工业局,,26,23,24,15,12,81,,70,70,8,7,8,12,0.7,0.5
2024-08-19T1600,2369A,114.99,27.1312,吉安市,市环境监测站,,23,23,21,10,10,70,,54,54,7,7,11,16,0.6,0.6
2024-08-19T1600,2370A,115.0093,27.0968,吉安市,青原区法院,,30,23,22,21,13,86,,65,65,8,10,6,10,0.6,0.5
2024-08-19T1600,1772A,126.54,43.8622,吉林市,哈达湾,,30,15,24,10,14,93,,76,76,10,12,7,7,0.7,0.7
2024-08-19T1600,1773A,126.5844,43.8358,吉林市,东局子,,25,18,27,15,15,80,,72,72,16,12,4,4,0.7,0.8
2024-08-19T1600,1774A,126.5052,43.8245,吉林市,电力学院,,34,18,29,12,17,107,,78,78,12,12,4,5,0.8,0.8
2024-08-19T1600,1775A,126.6133,43.8972,吉林市,江北,,21,13,23,8,12,66,,56,56,2,8,7,7,0.8,0.9
2024-08-19T1600,1776A,126.555,43.8306,吉林市,江南公园,,33,24,24,22,17,105,,80,80,18,14,8,4,0.8,0.9
2024-08-19T1600,1778A,126.7061,43.7133,吉林市,丰满,,,,,,,,,,,,,,,,
2024-08-19T1600,2868A,126.4739,43.953,吉林市,九站,,26,25,34,13,17,81,,65,65,7,12,7,8,1.2,0.9
2024-08-19T1600,1299A,116.9862,36.6114,济南市,科干所,,38,6,14,3,11,119,,94,94,15,17,5,5,0.5,0.6
2024-08-19T1600,1300A,116.9376,36.665,济南市,农科所,,,15,19,3,13,126,,103,103,,26,,7,0.4,0.5
2024-08-19T1600,1301A,117.1265,36.6734,济南市,开发区,,,15,22,3,10,131,,106,106,15,26,,7,0.6,0.7
2024-08-19T1600,1303A,117.0624,36.6868,济南市,省种子仓库,,42,9,25,3,13,134,,107,107,12,25,5,5,0.4,0.5
2024-08-19T1600,1304A,116.9489,36.6447,济南市,机床二厂,,45,15,18,3,5,144,,116,116,14,21,8,7,0.5,0.5
2024-08-19T1600,1305A,117.0495,36.663,济南市,市监测站,,,12,23,7,16,134,,112,112,,27,8,7,0.5,0.6
2024-08-19T1600,1306A,116.7675,36.5484,济南市,长清党校,,41,10,13,7,9,129,,100,100,9,14,9,9,0.6,0.6
2024-08-19T1600,1616A,117.6795,36.229,济南市,技术学院,,30,,14,3,10,96,,91,91,7,12,9,10,0.6,0.9
2024-08-19T1600,1961A,117.532,36.6868,济南市,东山小学,,40,17,21,3,9,126,,94,94,14,23,9,9,0.6,0.8
2024-08-19T1600,3059A,117.7161,36.2049,济南市,泰兴公司,,26,7,17,3,10,81,,84,83,10,20,9,9,0.5,0.6
2024-08-19T1600,3064A,117.6867,36.2171,济南市,莱芜战役纪念馆,,27,12,18,3,9,85,,81,81,4,13,13,13,0.5,0.7
2024-08-19T1600,3494A,117.1673,36.9782,济南市,济阳区政府,,40,17,22,12,12,128,,108,108,4,12,10,10,0.5,0.6
2024-08-19T1600,3495A,117.1171,36.63,济南市,锦屏中学,,40,10,15,3,10,128,,101,101,10,15,11,10,0.5,0.6
2024-08-19T1600,3682A,116.9814,36.6819,济南市,济南四建,,40,7,20,3,12,126,,102,102,14,24,7,6,0.5,0.6
2024-08-19T1600,1653A,116.6251,35.4302,济宁市,火炬城,,35,27,22,12,11,110,,102,102,11,11,9,8,0.7,0.7
2024-08-19T1600,1655A,116.5491,35.4042,济宁市,电化厂,,37,21,21,17,14,117,,110,110,11,11,8,7,0.7,0.6
2024-08-19T1600,3500A,116.5814,35.3707,济宁市,北湖一中,,36,25,21,17,8,113,,106,106,12,10,13,12,0.4,0.3
2024-08-19T1600,3501A,116.8249,35.5593,济宁市,服务中心,,29,13,19,3,8,91,,87,87,6,10,5,4,0.4,0.4
2024-08-19T1600,3678A,116.5907,35.4054,济宁市,市第七中学,,35,27,20,7,9,110,,102,102,13,13,6,5,0.6,0.6
2024-08-19T1600,2255A,130.2751,46.8028,佳木斯市,佳纺,,21,21,20,6,8,46,,40,40,10,10,2,3,0.5,0.5
2024-08-19T1600,2256A,130.3995,46.8307,佳木斯市,发电厂,,41,41,24,9,9,46,,39,39,7,6,11,8,0.5,0.5
2024-08-19T1600,2257A,130.3258,46.7975,佳木斯市,环保局,,26,26,20,6,8,36,,30,30,15,12,8,8,0.6,0.6
2024-08-19T1600,2258A,130.3648,46.8032,佳木斯市,十一中,,17,17,18,7,8,49,,39,39,8,8,6,6,0.4,0.4
2024-08-19T1600,2259A,130.3794,46.7588,佳木斯市,四丰,,,8,14,6,7,42,,33,33,,,1,39,0.4,0.5
2024-08-19T1600,1252A,120.7436,30.778,嘉兴市,清河小学,,32,18,15,7,8,102,,87,87,8,12,4,4,0.5,0.6
2024-08-19T1600,1253A,120.726,30.7478,嘉兴市,嘉兴学院,,28,24,24,8,8,88,,76,76,14,13,2,3,0.3,0.4
2024-08-19T1600,2872A,120.7846,30.7525,嘉兴市,南湖区残联,,34,17,18,7,9,107,,94,94,4,9,6,5,0.4,0.4
2024-08-19T1600,3407A,120.6916,30.7739,嘉兴市,秀洲住建,,36,15,12,7,8,113,,94,94,6,11,3,3,0.4,0.4
2024-08-19T1600,1945A,98.2908,39.7711,嘉峪关市,气象局,颗粒物(PM10),63,75,32,14,9,126,,106,106,4,16,3,9,0.2,0.3
2024-08-19T1600,2884A,98.2672,39.7978,嘉峪关市,酒钢宾馆,颗粒物(PM10),63,75,36,9,10,127,,114,114,3,9,1,15,0.3,0.4
2024-08-19T1600,3248A,98.2643,39.7724,嘉峪关市,雄关区,,48,48,30,3,7,122,,103,103,4,10,8,10,0.3,0.4
2024-08-19T1600,1383A,113.1064,22.6058,江门市,北街,,20,,21,3,12,62,,70,70,10,14,3,3,0.6,0.6
2024-08-19T1600,1384A,113.0731,22.5835,江门市,西区,,20,14,21,11,11,63,,72,72,18,15,4,4,0.5,0.6
2024-08-19T1600,1385A,113.0219,22.5311,江门市,圭峰西,,20,,22,9,13,62,,66,66,12,11,2,3,0.6,0.6
2024-08-19T1600,1386A,113.0828,22.5947,江门市,东湖,,20,10,21,3,10,63,,66,66,12,13,4,5,0.5,0.6
2024-08-19T1600,3311A,113.1075,22.5647,江门市,江海富民,,32,32,27,17,15,74,,76,76,12,16,5,6,0.4,0.5
2024-08-19T1600,3449A,113.05,22.4667,江门市,新会银湖,,15,,24,10,14,48,,66,66,23,19,3,4,0.5,0.5
2024-08-19T1600,1828A,113.227,35.2125,焦作市,市环保局,,50,31,40,23,31,159,,114,114,8,13,3,2,0.8,0.5
2024-08-19T1600,1830A,113.1992,35.2590,焦作市,影视城,,,,,,,,,,,,,,,,
2024-08-19T1600,3169A,113.2725,35.2067,焦作市,太极体育中心,,50,35,49,26,30,157,,111,111,7,12,2,3,0.9,0.6
2024-08-19T1600,3335A,113.3137,35.2641,焦作市,马村街道办,,49,33,43,31,34,155,,111,111,9,14,2,2,0.8,0.7
2024-08-19T1600,3336A,113.2465,35.2373,焦作市,焦作技师学院,臭氧1小时,54,47,50,29,30,163,,111,111,6,11,3,2,0.9,0.6
2024-08-19T1600,3477A,113.1656,35.2539,焦作市,中站许衡医院,,47,24,39,21,32,149,,106,106,7,13,3,4,0.8,0.6
2024-08-19T1600,3981A,113.2449,35.1803,焦作市,原李万街道办,,,,44,22,27,151,,102,102,6,13,6,2,,0.1
2024-08-19T1600,1708A,116.3701,23.5345,揭阳市,新兴,,16,,26,10,14,50,,51,51,14,15,4,4,0.7,0.7
2024-08-19T1600,1709A,116.3264,23.5443,揭阳市,西马,,15,10,29,8,11,47,,55,55,13,9,3,3,0.8,0.9
2024-08-19T1600,1710A,116.3611,23.5626,揭阳市,东兴,,16,12,37,11,14,49,,53,53,13,16,4,6,0.8,1
2024-08-19T1600,1711A,116.4151,23.5294,揭阳市,渔湖,,16,6,28,3,11,50,,46,46,12,19,4,4,0.5,0.7
2024-08-19T1600,3320A,116.403,23.5699,揭阳市,曲溪,,16,6,25,3,14,50,,49,49,11,22,2,6,0.7,0.9
2024-08-19T1600,1944A,102.1692,38.5167,金昌市,天庆家园,,38,13,24,3,11,121,,113,113,5,14,6,13,0.4,0.5
2024-08-19T1600,3170A,102.1864,38.5253,金昌市,市委党校,,,11,27,3,10,122,,114,114,3,12,,16,0.5,0.7
2024-08-19T1600,4022A,102.1647,38.5371,金昌市,金川区人防中心,,38,9,33,3,12,119,,112,112,5,16,9,15,0.5,0.6
2024-08-19T1600,1262A,119.647,29.077,金华市,十五中,,27,,27,7,16,86,,88,88,5,15,1,2,0.4,0.5
2024-08-19T1600,1263A,119.686,29.1029,金华市,监测站,,28,7,30,3,18,88,,95,95,6,19,2,2,0.4,0.5
2024-08-19T1600,3659A,119.656,29.1131,金华市,气象局,,28,8,26,3,12,88,,95,95,4,21,4,4,0.3,0.5
2024-08-19T1600,1767A,121.1115,41.0879,锦州市,南山,,26,,24,13,20,83,,75,75,10,15,4,5,0.6,0.6
2024-08-19T1600,1768A,121.0533,40.8434,锦州市,开发区,,,,28,6,16,112,,103,103,7,19,4,5,0.7,0.8
2024-08-19T1600,1769A,121.1836,41.1119,锦州市,百股街道,,28,18,23,9,9,87,,79,79,10,13,5,4,0.7,0.7
2024-08-19T1600,1770A,121.1178,41.1222,锦州市,天安街道,,27,,28,14,17,85,,81,81,13,12,6,6,0.8,0.9
2024-08-19T1600,1771A,121.1303,41.1386,锦州市,北湖公园,,28,16,27,15,17,89,,78,78,8,11,4,5,0.7,0.8
2024-08-19T1600,2160A,112.85,35.5051,晋城市,自来水公司,颗粒物(PM10),60,69,68,31,40,154,,139,139,10,15,8,9,0.9,1
2024-08-19T1600,2161A,112.8318,35.4936,晋城市,白云商贸,颗粒物(PM10),58,65,61,34,35,148,,145,145,12,16,8,9,1.1,1.1
2024-08-19T1600,2162A,112.8508,35.4887,晋城市,市环保局,颗粒物(PM10),57,63,70,34,40,146,,136,136,15,16,7,8,1.0,1
2024-08-19T1600,2163A,112.8676,35.4897,晋城市,技术学院,细颗粒物(PM2.5),52,45,57,36,41,148,,138,138,13,16,8,8,1.0,1
2024-08-19T1600,2165A,112.8453,35.546,晋城市,白马寺,,,,,,,,,,,,,,,,
2024-08-19T1600,3620A,112.8271,35.4828,晋城市,泽州一中,颗粒物(PM10),51,51,59,34,38,147,,137,137,14,15,9,9,1.0,1
2024-08-19T1600,2171A,112.7532,37.6945,晋中市,锦纶小区,,45,22,43,12,19,143,,133,133,6,16,8,9,0.3,0.5
2024-08-19T1600,2173A,112.7249,37.7067,晋中市,南都小区,,44,30,46,25,25,140,,133,133,8,26,6,8,0.4,0.7
2024-08-19T1600,2174A,112.6991,37.6982,晋中市,榆次区政府,,43,24,45,22,24,136,,139,139,8,26,7,10,0.3,0.3
2024-08-19T1600,2865A,112.7195,37.6828,晋中市,榆次三中,,44,27,45,9,18,138,,136,136,7,17,6,8,0.4,0.6
2024-08-19T1600,2439A,112.2014,31.0481,荆门市,竹园小学,,41,23,30,14,16,131,,105,105,6,13,11,10,0.5,0.6
2024-08-19T1600,2440A,112.1969,30.9891,荆门市,掇刀,,45,25,24,17,18,142,,112,112,10,12,8,7,0.6,0.6
2024-08-19T1600,2441A,112.2213,31.0386,荆门市,石化一小,,45,26,32,18,15,143,,110,110,7,13,15,12,0.4,0.5
2024-08-19T1600,3012A,112.1849,31.0362,荆门市,西山林语,,41,19,26,14,18,130,,108,108,7,12,8,8,0.4,0.5
2024-08-19T1600,3547A,112.1632,31.0138,荆门市,龙泉中学南校,,41,18,22,12,13,129,,111,111,6,11,8,9,0.5,0.6
2024-08-19T1600,1844A,112.2494,30.3197,荆州市,市图书馆,,,,18,15,16,,,103,103,,17,5,7,,0.6
2024-08-19T1600,1845A,112.2008,30.3544,荆州市,市委党校,,46,,24,26,18,145,,110,110,5,11,7,8,0.7,0.6
2024-08-19T1600,3194A,112.2747,30.3122,荆州市,管委会,,45,22,20,19,16,143,,114,114,5,11,6,7,0.6,0.6
2024-08-19T1600,3548A,112.1655,30.3364,荆州市,学苑路,,50,23,22,21,17,160,,114,114,7,11,7,9,0.7,0.7
2024-08-19T1600,2342A,117.3102,29.3867,景德镇市,王港中学,,,,,,,,,,,,,,,,
2024-08-19T1600,2343A,117.2117,29.2933,景德镇市,老干部活动中心,,23,21,20,3,14,72,,68,68,4,7,5,6,0.3,0.3
2024-08-19T1600,2344A,117.1894,29.2789,景德镇市,兽医站,,25,15,24,9,16,79,,75,75,4,7,8,8,0.3,0.3
2024-08-19T1600,2345A,117.1547,29.2617,景德镇市,台达陶瓷,,29,29,22,11,15,74,,71,71,30,10,16,15,0.5,0.2
2024-08-19T1600,2346A,117.2461,29.2956,景德镇市,陶研所,,28,28,26,10,17,66,,62,62,5,9,9,8,0.3,0.4
2024-08-19T1600,1803A,115.9872,29.6815,九江市,十里,,26,9,19,3,13,82,,79,79,4,12,9,9,0.6,0.6
2024-08-19T1600,1804A,115.9584,29.7046,九江市,茅山头,,32,8,19,6,12,101,,83,83,9,16,10,9,0.6,0.6
2024-08-19T1600,1805A,115.9877,29.7295,九江市,西园,,37,,22,12,16,116,,96,96,14,29,10,11,0.6,0.7
2024-08-19T1600,1806A,116.0172,29.6547,九江市,五七二七厂,,19,6,14,3,12,58,,69,69,6,10,7,7,0.2,0.2
2024-08-19T1600,1808A,115.9114,29.6038,九江市,综合工业园,,31,10,21,9,13,97,,95,95,4,19,7,7,0.7,0.7
2024-08-19T1600,1809A,116.0721,29.7535,九江市,石化总厂,,41,14,25,12,16,129,,86,86,14,17,13,11,1.2,0.8
2024-08-19T1600,1810A,115.9773,29.5698,九江市,庐山气象台,,25,10,14,8,11,78,,90,73,4,3,10,9,0.9,0.8
2024-08-19T1600,3190A,116.0254,29.6994,九江市,外国语学校,,27,8,20,3,15,85,,78,78,7,13,13,11,0.5,0.6
2024-08-19T1600,2658A,98.5061,39.7443,酒泉市,仓门街子站,颗粒物(PM10),58,66,35,10,8,120,,104,104,4,11,9,20,0.2,0.3
2024-08-19T1600,2659A,98.4989,39.7256,酒泉市,油田生活基地,颗粒物(PM10),63,75,43,18,12,123,,103,103,3,11,13,54,0.3,0.3
2024-08-19T1600,2698A,76.0072,39.4467,喀什地区,巡警大队,,46,46,147,11,30,111,,102,102,8,21,3,4,0.3,0.4
2024-08-19T1600,2699A,75.9755,39.4694,喀什地区,吾办,,48,48,125,21,39,104,,96,96,11,15,3,4,0.4,0.4
2024-08-19T1600,4027A,75.9483,39.4689,喀什地区,老干局,,50,50,124,3,24,105,,99,98,7,10,4,4,0.4,0.4
2024-08-19T1600,1824A,114.3389,34.7781,开封市,肿瘤医院,,41,14,29,9,11,129,,106,106,3,10,4,4,0.5,0.7
2024-08-19T1600,1826A,114.2885,34.7965,开封市,世纪星幼儿园,,,13,29,,13,123,,100,100,2,8,4,3,0.4,0.5
2024-08-19T1600,3147A,114.3438,34.8106,开封市,龙亭公园,,39,20,26,9,15,123,,99,99,4,8,3,3,0.5,0.6
2024-08-19T1600,3210A,114.3644,34.7964,开封市,汴京公园,,41,6,29,3,17,130,,106,106,3,9,4,4,0.4,0.5
2024-08-19T1600,3473A,114.2485,34.8306,开封市,技师学院,,35,21,28,6,15,109,,98,98,14,11,9,8,0.7,0.8
2024-08-19T1600,3592A,114.4644,34.7556,开封市,祥符区生态环境局,,38,14,27,7,16,119,,90,90,8,19,6,6,0.6,0.5
2024-08-19T1600,1951A,84.895,45.6094,克拉玛依市,长征新村,,27,14,13,3,6,86,,79,79,2,4,6,6,0.2,0.2
2024-08-19T1600,1952A,84.8988,45.5893,克拉玛依市,南林小区,,27,13,14,11,11,86,,77,73,4,8,8,7,0.2,0.2
2024-08-19T1600,1954A,84.905,44.3396,克拉玛依市,独山子区,,36,,22,11,8,113,,101,100,5,4,10,6,0.3,0.3
2024-08-19T1600,1955A,85.6979,46.098,克拉玛依市,乌尔禾区商贸楼,,23,,14,6,7,71,,64,64,9,6,3,4,0.2,0.2
2024-08-19T1600,3612A,85.1045,45.6899,克拉玛依市,白碱滩区新站,,25,18,20,3,5,77,,71,71,8,8,8,8,0.4,0.4
2024-08-19T1600,2697A,76.1454,39.7142,克孜勒苏柯尔克孜自治州,市人民政府,颗粒物(PM10),51,52,126,14,45,107,,102,101,5,9,2,14,0.5,0.4
2024-08-19T1600,3665A,76.1658,39.7157,克孜勒苏柯尔克孜自治州,克州文化中心,,36,33,105,14,37,114,,112,111,2,6,4,9,0.3,0.3
2024-08-19T1600,1450A,102.8204,24.8886,昆明市,呈贡新区,,42,28,34,15,24,133,,110,110,12,16,4,5,0.6,0.7
2024-08-19T1600,1451A,102.6251,24.9608,昆明市,西山森林公园,,,,,,,,,,,,,,,,
2024-08-19T1600,1452A,102.7252,25.0902,昆明市,龙泉镇,,,,24,16,17,121,,98,98,14,14,6,6,0.7,0.8
2024-08-19T1600,1453A,102.7266,25.0375,昆明市,东风东路,,32,23,33,14,22,101,,101,101,24,21,4,5,0.7,0.7
2024-08-19T1600,1454A,102.6742,25.0669,昆明市,金鼎山,,35,15,33,14,20,111,,106,106,21,16,7,8,0.6,0.5
2024-08-19T1600,1455A,102.6644,25.0401,昆明市,碧鸡广场,,35,24,34,14,22,112,,111,111,22,18,4,4,0.6,0.5
2024-08-19T1600,3179A,102.7494,25.0119,昆明市,官渡区博物馆,,27,25,36,18,19,85,,101,101,30,29,6,6,0.5,0.5
2024-08-19T1600,3375A,102.8017,24.8336,昆明市,青年创业园,,43,19,29,18,23,137,,110,110,7,20,2,3,0.5,0.6
2024-08-19T1600,3550A,102.7997,24.9786,昆明市,昆明学院,,41,27,41,15,28,129,,118,118,19,26,5,5,0.5,0.6
2024-08-19T1600,3551A,102.5967,24.6736,昆明市,晋宁区生态环境分局,,39,20,28,14,24,124,,117,117,6,12,4,7,0.7,0.8
2024-08-19T1600,3552A,102.6678,24.9856,昆明市,云天化总部,,40,26,32,17,24,128,,111,111,16,15,5,6,0.6,0.6
2024-08-19T1600,1456A,91.1319,29.6514,拉萨市,八廓街,,40,18,13,9,9,128,,104,104,7,11,7,11,0.2,0.2
2024-08-19T1600,1457A,91.1221,29.6747,拉萨市,市环保局,,39,11,17,8,9,123,,98,98,11,15,8,11,0.1,0.1
2024-08-19T1600,1458A,91.0874,29.6475,拉萨市,区监测站,,40,7,11,7,7,125,,100,100,9,16,8,11,0.0,0.2
2024-08-19T1600,1459A,91.1774,29.6541,拉萨市,西藏大学,,40,7,10,7,6,125,,103,103,4,6,8,13,0.4,0.4
2024-08-19T1600,1460A,90.9798,29.6588,拉萨市,区辐射站,,40,11,21,6,12,127,,98,98,5,23,8,10,0.1,0.3
2024-08-19T1600,1461A,91.0834,29.6292,拉萨市,拉萨火车站,,40,8,12,6,8,127,,101,101,4,19,10,11,0.1,0.2
2024-08-19T1600,2520A,109.2203,23.7256,来宾市,来宾技工学校,,30,27,39,21,21,81,,67,67,6,12,8,19,0.7,0.7
2024-08-19T1600,3535A,109.1781,23.7297,来宾市,兴宾区政府,,27,27,20,18,10,84,,67,67,4,5,6,5,0.8,0.8
2024-08-19T1600,4002A,109.2416,23.7461,来宾市,中南小学,,34,34,32,23,18,94,,72,72,5,12,10,14,0.8,0.8
2024-08-19T1600,1476A,103.631,36.1031,兰州市,兰炼宾馆,臭氧1小时,65,27,44,11,24,172,,131,131,7,31,15,26,0.4,0.5
2024-08-19T1600,1477A,104.1373,35.9454,兰州市,榆中兰大校区,,,,,,,,,,,,,,,,
2024-08-19T1600,1478A,103.8412,36.0726,兰州市,生物制品所,臭氧1小时,58,27,45,13,23,166,,111,111,16,42,10,14,0.4,0.6
2024-08-19T1600,1479A,103.831,36.0464,兰州市,铁路设计院,,50,29,49,21,31,160,,108,108,29,60,12,21,0.4,0.9
2024-08-19T1600,3186A,103.7158,36.1058,兰州市,教育港,,,43,56,19,26,183,,126,126,8,32,,16,0.3,0.4
2024-08-19T1600,3241A,103.7439,36.0842,兰州市,百合公园,臭氧1小时,84,31,40,13,19,187,,122,122,7,38,10,18,0.4,0.7
2024-08-19T1600,3242A,103.9611,35.998,兰州市,和平,臭氧1小时,54,26,34,6,13,163,,114,114,7,17,10,13,0.2,0.3
2024-08-19T1600,3245A,103.6633,36.533,兰州新区,新区管委会,臭氧1小时,52,28,36,14,14,161,,125,125,3,11,7,13,0.3,0.4
2024-08-19T1600,3246A,103.6975,36.4789,兰州新区,舟曲中学,臭氧1小时,52,13,28,3,9,161,,119,119,6,16,8,11,0.3,0.4
2024-08-19T1600,1067A,116.6708,39.5111,廊坊市,药材公司,,36,35,34,17,16,114,,91,91,10,12,3,3,0.6,0.4
2024-08-19T1600,1068A,116.7214,39.5589,廊坊市,开发区,,37,37,32,20,21,104,,87,87,6,8,3,3,0.6,0.4
2024-08-19T1600,1070A,116.7244,39.5269,廊坊市,北华航天学院,,43,43,46,19,15,107,,87,87,9,13,1,1,0.6,0.5
2024-08-19T1600,2919A,116.7022,39.5453,廊坊市,河北工业大学,,36,29,39,24,21,114,,94,94,8,11,1,2,0.6,0.4
2024-08-19T1600,2535A,103.7723,29.5462,乐山市,花湖湾,,41,,38,20,35,130,,107,107,3,29,5,5,0.3,0.6
2024-08-19T1600,2536A,103.7627,29.5844,乐山市,牛耳桥,,44,20,37,16,33,138,,107,107,6,16,3,3,0.4,0.6
2024-08-19T1600,2537A,103.7508,29.6006,乐山市,市第三水厂,,45,24,35,14,27,144,,115,115,7,16,3,4,0.4,0.6
2024-08-19T1600,2538A,103.7571,29.5664,乐山市,市监测站,,44,,39,29,31,139,,114,114,5,14,4,6,0.4,0.6
2024-08-19T1600,3361A,103.7311,29.5628,乐山市,理工大学,,46,26,43,17,34,146,,118,118,4,15,4,6,0.6,0.8
2024-08-19T1600,2598A,100.2143,26.8576,丽江市,西南郊,,,,,,,,,,,,,,,,
2024-08-19T1600,2599A,100.2497,26.8802,丽江市,丽江古城,,18,13,13,10,11,57,,58,58,18,13,10,9,0.5,0.6
2024-08-19T1600,2600A,100.2203,26.8906,丽江市,市中心,,25,,10,9,6,80,,66,66,11,13,9,8,0.5,0.6
2024-08-19T1600,1267A,119.914,28.4514,丽水市,监测站大楼,,32,32,15,16,8,86,,71,71,5,6,2,2,0.4,0.3
2024-08-19T1600,1268A,119.93,28.4586,丽水市,莲都小学,,,,12,14,8,88,,,,6,8,3,4,,0.3
2024-08-19T1600,1269A,119.879,28.4231,丽水市,余庄前,,27,24,15,12,8,84,,70,70,4,6,4,4,0.4,0.3
2024-08-19T1600,1173A,119.176,34.5885,连云港市,市环境监测站,,30,9,13,3,5,93,,87,87,6,9,6,6,0.3,0.3
2024-08-19T1600,3000A,119.3581,34.6972,连云港市,德源药业,,27,17,16,3,4,84,,82,82,7,9,5,4,0.3,0.3
2024-08-19T1600,3007A,119.178,34.844,连云港市,新城一中,,25,24,19,8,8,78,,79,79,7,11,2,3,0.6,0.6
2024-08-19T1600,3008A,119.3608,34.7519,连云港市,胡沟管理处,,19,14,14,3,5,58,,62,58,28,15,12,8,0.4,0.5
2024-08-19T1600,3009A,119.1478,34.5911,连云港市,矿山设计院,,29,7,16,3,6,91,,83,83,11,11,3,4,0.5,0.6
2024-08-19T1600,3434A,119.2413,34.6539,连云港市,工贸学校,,27,10,12,6,8,86,,82,82,2,3,6,6,0.5,0.5
2024-08-19T1600,3664A,119.4172,34.7341,连云港市,连云街道,,26,12,16,6,7,81,,74,74,7,8,2,3,0.4,0.4
2024-08-19T1600,2571A,102.3431,27.8099,凉山彝族自治州,青龙寺,,48,24,19,13,11,151,,89,89,6,6,13,4,0.7,0.4
2024-08-19T1600,2572A,102.2721,27.8415,凉山彝族自治州,邛海宾馆,臭氧1小时,58,45,24,32,16,166,,94,94,8,12,25,12,1.3,0.8
2024-08-19T1600,2573A,102.2625,27.898,凉山彝族自治州,西昌市政府,臭氧1小时,59,34,24,24,19,167,,95,95,10,11,16,12,1.3,1
2024-08-19T1600,2574A,102.2685,27.8851,凉山彝族自治州,凉山州政府,臭氧1小时,58,40,26,34,18,166,,98,98,10,14,16,11,1.2,1.1
2024-08-19T1600,2575A,102.237,27.8914,凉山彝族自治州,长安,臭氧1小时,62,29,35,23,21,169,,99,99,13,18,20,13,1.4,0.8
2024-08-19T1600,2212A,123.2,41.1953,辽阳市,宏伟区,,24,16,23,11,14,75,,76,76,6,7,6,6,0.6,0.5
2024-08-19T1600,2213A,123.1683,41.2495,辽阳市,新华园,,31,31,28,17,16,81,,73,73,8,10,5,6,0.7,0.7
2024-08-19T1600,2214A,123.2354,41.2639,辽阳市,滨河路,,27,27,24,12,15,66,,66,66,11,10,8,8,0.5,0.4
2024-08-19T1600,2215A,123.149,41.2991,辽阳市,铁西工业园,,23,13,29,11,13,72,,60,60,6,8,7,7,0.9,0.9
2024-08-19T1600,2227A,125.1358,42.8845,辽源市,环保局,,22,13,21,9,10,70,,68,68,2,6,5,6,0.8,0.8
2024-08-19T1600,3239A,125.0764,42.9078,辽源市,银鹰制药,,23,19,19,10,11,71,,68,68,10,12,4,5,0.9,0.9
2024-08-19T1600,1625A,115.9848,36.4372,聊城市,区政府,,36,,21,22,14,115,,111,111,12,14,10,8,0.5,0.5
2024-08-19T1600,2878A,116.0072,36.4343,聊城市,聊大东校,,39,19,20,17,19,123,,112,112,8,13,10,8,0.6,0.5
2024-08-19T1600,3200A,115.9819,36.4978,聊城市,监控中心,,32,8,20,7,11,102,,98,98,5,14,8,7,0.6,0.6
2024-08-19T1600,3513A,116.0445,36.4361,聊城市,九州社区,,,,35,,21,,,104,,,13,,6,,0.6
2024-08-19T1600,4018A,116.0567,36.4608,聊城市,星美广场,,35,27,29,7,12,109,,107,107,9,11,8,7,0.3,0.4
2024-08-19T1600,2632A,94.3681,29.6376,林芝市,林芝监测站,,37,12,10,3,6,117,,70,70,2,3,10,9,0.2,0.3
2024-08-19T1600,2633A,94.3616,29.6616,林芝市,林芝人民医院,,40,9,11,3,6,125,,75,75,4,6,6,7,0.1,0.2
2024-08-19T1600,2603A,100.0781,23.8982,临沧市,市环保局,,39,,21,27,23,62,,63,63,10,8,5,5,0.3,0.3
2024-08-19T1600,2604A,100.0894,23.8822,临沧市,市气象局,,20,18,16,6,12,64,,57,57,8,8,5,5,0.4,0.4
2024-08-19T1600,1733A,111.5531,36.0783,临汾市,临钢医院,,50,40,60,18,30,158,,130,130,7,14,6,6,0.7,1
2024-08-19T1600,1734A,111.5028,36.0714,临汾市,技工学校,颗粒物(PM10),53,55,67,16,29,143,,137,137,11,20,4,4,0.6,1
2024-08-19T1600,1736A,111.5018,36.0855,临汾市,市委,,50,50,57,11,30,146,,143,143,12,18,4,8,0.5,1.1
2024-08-19T1600,3018A,111.505,36.1014,临汾市,唐尧大酒店,,40,38,49,13,25,128,,124,124,9,16,5,6,0.6,1
2024-08-19T1600,3668A,111.5036,36.0414,临汾市,城南,颗粒物(PM10),60,70,62,17,31,156,,137,137,8,18,4,5,0.6,0.9
2024-08-19T1600,2667A,103.2069,35.5993,临夏回族自治州,环保局,,45,35,45,18,21,144,,111,111,2,13,10,9,0.3,0.4
2024-08-19T1600,2668A,103.2417,35.6057,临夏回族自治州,建设大厦,,45,25,34,12,17,144,,111,111,1,10,8,8,0.4,0.4
2024-08-19T1600,1618A,118.3429,35.0532,临沂市,沂河小区,,23,22,24,15,16,71,,78,78,16,8,6,9,0.4,0.4
2024-08-19T1600,1619A,118.295,35.0583,临沂市,鲁南制药厂,,25,14,18,10,13,77,,80,80,17,12,4,10,0.3,0.2
2024-08-19T1600,1620A,118.2794,34.9976,临沂市,新光毛纺厂,,23,12,16,10,11,73,,84,84,23,15,5,10,0.8,0.7
2024-08-19T1600,1621A,118.3956,35.0888,临沂市,河东保险公司,,21,14,20,10,9,67,,73,73,14,15,6,6,0.3,0.3
2024-08-19T1600,3370A,118.3564,35.0215,临沂市,十里堡居委,,22,14,15,14,13,69,,79,79,14,12,6,10,0.6,0.6
2024-08-19T1600,3496A,118.3604,35.1084,临沂市,南坊新区,,26,17,22,7,10,82,,80,80,14,12,7,8,0.7,0.6
2024-08-19T1600,3860A,118.3920,35.0300,临沂市,皇山花园小区,,26,24,21,18,14,68,,75,75,18,14,5,7,0.5,0.5
2024-08-19T1600,1870A,109.4856,24.3895,柳州市,柳东小学,,27,19,30,14,13,86,,78,78,4,8,8,9,0.8,0.8
2024-08-19T1600,1871A,109.4157,24.3277,柳州市,环保监测站,,38,,23,24,24,119,,101,101,5,9,8,7,0.9,1
2024-08-19T1600,1872A,109.389,24.341,柳州市,河西水厂,,45,28,27,17,16,141,,111,111,9,9,9,7,1.2,1
2024-08-19T1600,1873A,109.4311,24.2921,柳州市,市四中,,41,38,26,19,16,129,,110,110,5,9,6,7,0.9,0.9
2024-08-19T1600,1874A,109.4006,24.3631,柳州市,市九中,,45,40,29,22,15,142,,112,112,14,9,8,6,1.0,0.8
2024-08-19T1600,1875A,109.4958,24.3134,柳州市,古亭山,,33,33,23,18,13,87,,88,88,7,11,6,7,0.9,0.9
2024-08-19T1600,3402A,109.5422,24.3996,柳州市,市二中,,29,20,24,15,12,91,,76,76,6,11,6,7,0.8,0.8
2024-08-19T1600,2307A,116.5079,31.737,六安市,监测大楼,,45,,31,29,23,143,,129,129,6,9,5,6,0.5,0.5
2024-08-19T1600,2308A,116.4738,31.7643,六安市,皖西学院,,44,34,43,29,23,140,,126,126,6,9,4,5,0.3,0.3
2024-08-19T1600,2309A,116.4996,31.7905,六安市,朝阳厂,,44,,34,25,23,139,,121,121,4,8,10,10,0.2,0.3
2024-08-19T1600,2310A,116.5567,31.7886,六安市,开发区,,46,41,40,32,26,139,,125,125,8,10,4,18,0.4,0.4
2024-08-19T1600,2576A,104.8,26.5892,六盘水市,窑上,,,,,,,,,,,,,,,,
2024-08-19T1600,2577A,104.83,26.5917,六盘水市,黄土坡,,40,12,21,9,16,127,,108,108,4,13,7,7,0.3,0.5
2024-08-19T1600,2578A,104.89,26.5939,六盘水市,水钢,,39,19,37,15,14,124,,89,89,6,24,8,12,0.5,1
2024-08-19T1600,2579A,104.8475,26.5894,六盘水市,民中,,39,15,24,9,12,123,,108,108,4,19,7,7,0.3,0.5
2024-08-19T1600,2580A,104.9544,26.5506,六盘水市,双水,,41,22,33,8,14,131,,97,97,5,20,7,8,0.4,0.7
2024-08-19T1600,2335A,117.0189,25.1181,龙岩市,龙岩师专,,,,,,,,,,,,,,,,
2024-08-19T1600,2336A,117.0217,25.1033,龙岩市,龙岩市监测站,,20,11,11,6,5,62,,68,68,7,11,4,4,0.4,0.4
2024-08-19T1600,2337A,117.0258,25.0661,龙岩市,闽西职业技术学院,,20,9,13,3,5,63,,69,69,4,9,2,5,0.4,0.4
2024-08-19T1600,2338A,117.0196,25.0306,龙岩市,龙岩学院,,19,8,13,3,5,59,,67,67,2,5,2,3,0.4,0.4
2024-08-19T1600,2665A,105.0822,33.3261,陇南市,汉王镇固水子,,,,,,,,,,,,,,,,
2024-08-19T1600,2885A,104.9339,33.3826,陇南市,滨江中学,,33,21,50,6,12,104,,80,80,6,14,5,6,0.6,0.7
2024-08-19T1600,3247A,104.955,33.371,陇南市,市总工会,,34,24,34,3,5,108,,83,83,4,5,5,6,0.3,0.3
2024-08-19T1600,2487A,111.9589,27.8901,娄底市,电视发射台,,30,30,38,12,15,56,,59,59,3,4,6,6,0.4,0.4
2024-08-19T1600,2488A,111.9975,27.725,娄底市,市监测站,,36,36,29,10,16,57,,95,95,34,11,25,7,2.7,0.6
2024-08-19T1600,2489A,112.0194,27.7314,娄底市,市委党校,,28,20,26,19,18,62,,78,78,20,8,16,8,2.4,0.6
2024-08-19T1600,2490A,111.9561,27.7569,娄底市,涟钢,,17,10,31,7,15,53,,58,58,12,15,13,12,0.6,1
2024-08-19T1600,2491A,111.9892,27.7044,娄底市,市政府,,38,27,23,26,17,70,,86,86,24,9,6,6,0.8,0.4
2024-08-19T1600,1893A,105.4324,28.9634,泸州市,九狮山,臭氧1小时,53,33,47,25,33,162,,126,126,11,19,4,4,0.4,0.4
2024-08-19T1600,1894A,105.4427,28.9063,泸州市,小市上码头,臭氧1小时,65,41,52,24,38,172,,139,139,8,16,5,6,0.5,0.6
2024-08-19T1600,1895A,105.4241,28.8573,泸州市,兰田宪桥,臭氧1小时,65,38,47,33,44,172,,138,138,14,18,7,6,0.4,0.6
2024-08-19T1600,1896A,105.4379,28.8833,泸州市,市环监站,,50,27,52,21,42,160,,129,129,5,18,6,10,0.4,0.5
2024-08-19T1600,3490A,105.3617,28.7703,泸州市,纳溪区环保局,臭氧1小时,104,44,53,36,40,207,,162,162,9,20,4,5,0.5,0.6
2024-08-19T1600,2183A,111.1406,37.5211,吕梁市,环保局,,46,26,43,14,17,147,,117,117,5,17,5,5,0.4,0.4
2024-08-19T1600,2185A,111.1297,37.5136,吕梁市,自来水公司,,44,14,40,10,14,140,,107,107,6,16,5,4,0.4,0.5
2024-08-19T1600,2867A,111.1283,37.51,吕梁市,马茂庄小学,臭氧1小时,55,32,50,19,15,164,,110,110,11,27,6,3,0.6,0.6
2024-08-19T1600,1812A,112.3931,34.6516,洛阳市,市委党校,,45,25,25,18,18,143,,104,104,3,6,4,4,0.7,0.7
2024-08-19T1600,1814A,112.4657,34.6871,洛阳市,豫西宾馆,,49,49,35,18,18,142,,110,110,4,9,3,4,0.4,0.4
2024-08-19T1600,1815A,112.494,34.6886,洛阳市,河南林校,,47,35,26,24,18,148,,111,111,5,9,4,4,0.6,0.6
2024-08-19T1600,1816A,112.3844,34.623,洛阳市,开发区管委会,,43,26,22,14,15,136,,101,101,2,6,3,2,0.3,0.4
2024-08-19T1600,1817A,112.4267,34.6258,洛阳市,市委新办公区,,46,,23,22,23,145,,108,108,2,3,3,4,0.6,0.6
2024-08-19T1600,3340A,112.6005,34.6326,洛阳市,伊滨,,47,24,30,16,17,148,,103,103,2,2,4,5,0.6,0.7
2024-08-19T1600,3341A,112.4951,34.6332,洛阳市,中移产业园,,47,21,29,14,20,149,,112,112,1,6,3,4,0.6,0.7
2024-08-19T1600,3593A,112.5736,34.8993,洛阳市,吉利监测站,颗粒物(PM10),59,67,47,10,31,133,,121,121,2,13,1,3,0.5,0.9
2024-08-19T1600,3635A,112.3677,34.662,洛阳市,河科大西苑校区,,46,23,19,12,11,146,,108,108,3,3,4,4,0.6,0.7
2024-08-19T1600,3636A,112.4388,34.6781,洛阳市,英才小学,,,20,22,15,24,142,,128,128,2,5,,3,0.5,0.6
2024-08-19T1600,2399A,114.051,33.5699,漯河市,三五一五工厂,,35,27,34,21,23,112,,110,110,4,12,6,6,0.4,0.5
2024-08-19T1600,2400A,114.0055,33.5698,漯河市,漯河大学,,35,28,32,17,23,112,,108,108,3,9,10,10,0.5,0.6
2024-08-19T1600,2401A,114.0138,33.5828,漯河市,市水利局,,34,24,34,12,21,106,,104,104,4,10,6,7,0.5,0.5
2024-08-19T1600,2402A,114.0261,33.5698,漯河市,市广电局,,36,24,29,13,18,114,,111,111,1,7,4,6,0.5,0.5
2024-08-19T1600,3478A,113.9749,33.5664,漯河市,市图书馆,,41,41,34,15,25,117,,112,112,4,8,8,9,0.4,0.5
2024-08-19T1600,3479A,114.0967,33.5906,漯河市,召陵区卫健委,,41,41,42,18,26,113,,112,112,4,17,2,2,0.6,0.6
2024-08-19T1600,1798A,118.5092,31.6837,马鞍山市,湖东路四小,,35,19,36,16,23,109,,111,111,9,17,7,8,0.6,0.7
2024-08-19T1600,1799A,118.5024,31.6449,马鞍山市,开发区,,33,29,47,16,22,105,,110,110,9,23,4,4,0.6,0.7
2024-08-19T1600,1800A,118.5228,31.7231,马鞍山市,慈湖,,37,31,35,17,22,118,,114,114,4,13,5,6,0.5,0.7
2024-08-19T1600,1802A,118.6245,31.7241,马鞍山市,濮塘,,32,21,26,15,21,102,,100,100,11,16,5,6,0.5,0.6
2024-08-19T1600,3633A,118.4918,31.6809,马鞍山市,雨山,,34,22,33,15,19,107,,111,111,6,12,6,7,0.7,0.8
2024-08-19T1600,1686A,111.0286,21.4688,茂名市,电白南海,,20,,20,14,15,56,,65,63,6,12,14,9,0.5,0.5
2024-08-19T1600,1687A,110.9294,21.6533,茂名市,茂石化七小,,20,14,15,9,14,62,,52,52,5,10,7,10,0.4,0.4
2024-08-19T1600,1688A,110.9107,21.6687,茂名市,健康路,,21,9,13,3,5,65,,55,55,4,10,9,14,0.6,0.7
2024-08-19T1600,1689A,110.8592,21.6828,茂名市,高岭,,19,14,22,3,13,58,,50,50,6,15,20,30,0.5,0.6
2024-08-19T1600,3450A,111.01,21.5165,茂名市,电白水东,,17,,12,7,10,52,,54,54,5,9,4,7,0.5,0.5
2024-08-19T1600,2539A,104.0308,30.0478,眉山市,黑龙滩水库,,43,18,26,3,15,137,,119,119,2,3,6,5,0.3,0.3
2024-08-19T1600,2540A,103.8416,30.0874,眉山市,气象局,,45,21,30,12,18,144,,104,104,5,29,7,7,0.4,0.5
2024-08-19T1600,3137A,103.8578,30.0744,眉山市,市委党校,,45,14,26,7,15,143,,119,119,3,18,7,7,0.3,0.4
2024-08-19T1600,3148A,103.8291,30.0564,眉山市,区人社局,,45,21,28,9,16,144,,125,125,8,22,6,7,0.4,0.5
2024-08-19T1600,1690A,116.1231,24.3284,梅州市,梅江月梅,,24,16,16,3,8,74,,66,66,2,6,6,6,0.3,0.4
2024-08-19T1600,1691A,116.0797,24.2719,梅州市,梅县新城,,20,15,14,3,7,64,,56,56,4,11,4,4,0.5,0.5
2024-08-19T1600,1692A,116.1248,24.2654,梅州市,环境监控中心,,21,17,17,6,8,65,,59,59,6,13,4,5,0.5,0.5
2024-08-19T1600,3315A,116.1233,24.2991,梅州市,梅龙,,24,6,8,3,9,76,,67,67,4,9,8,8,0.6,0.6
2024-08-19T1600,1878A,104.7778,31.4741,绵阳市,富乐山,,49,43,39,29,27,156,,137,137,7,13,3,3,0.5,0.6
2024-08-19T1600,1879A,104.7563,31.4535,绵阳市,市人大,,50,42,47,24,27,160,,132,132,7,24,7,10,0.5,0.6
2024-08-19T1600,1880A,104.6697,31.4668,绵阳市,高新区自来水公司,臭氧1小时,59,36,49,14,25,167,,135,135,6,29,8,8,0.5,0.5
2024-08-19T1600,1881A,104.7287,31.5075,绵阳市,三水厂,臭氧1小时,52,33,51,30,31,161,,135,135,11,28,6,6,0.6,0.7
2024-08-19T1600,3491A,104.69,31.5322,绵阳市,西科大附属小学,,50,36,45,23,26,160,,128,128,5,23,8,10,0.5,0.6
2024-08-19T1600,3492A,104.5648,31.5343,绵阳市,安州区旅游局,臭氧1小时,80,35,41,29,31,184,,139,139,8,16,4,7,0.5,0.5
2024-08-19T1600,1784A,129.61,44.561,牡丹江市,环保大楼,,19,19,19,7,14,47,,54,51,9,9,7,7,0.3,0.3
2024-08-19T1600,1785A,129.6115,44.5782,牡丹江市,文化广场,,14,11,24,6,18,43,,44,,10,12,7,8,0.4,0.4
2024-08-19T1600,1786A,129.5904,44.5963,牡丹江市,第一医院,,16,16,22,3,14,48,,51,48,8,10,6,6,0.4,0.5
2024-08-19T1600,1787A,129.6364,44.6075,牡丹江市,机车工厂,,17,17,30,9,16,38,,47,43,6,8,7,10,0.3,0.4
2024-08-19T1600,1788A,129.6386,44.5462,牡丹江市,第一中学,,,,20,16,16,48,,53,51,,10,5,5,0.4,0.4
2024-08-19T1600,2531A,105.0703,29.61,内江市,市监测站,臭氧1小时,69,,35,32,41,175,,144,144,9,24,10,10,0.3,0.5
2024-08-19T1600,2532A,105.0717,29.5947,内江市,东兴区政府,,45,32,44,21,35,144,,124,124,13,25,4,4,0.7,0.8
2024-08-19T1600,2533A,105.0653,29.5817,内江市,内江二中,,48,24,46,18,31,153,,128,128,8,26,6,6,0.6,0.8
2024-08-19T1600,2534A,105.0406,29.5822,内江市,内江日报社,,50,,44,25,38,160,,133,133,12,34,11,7,0.4,0.6
2024-08-19T1600,2628A,92.0657,31.4846,那曲市,那曲监测站,,40,16,33,3,12,128,,110,110,8,6,5,5,0.4,0.4
2024-08-19T1600,3128A,92.0506,31.4797,那曲市,那曲会议中心,,43,15,35,3,13,136,,110,110,3,10,4,4,0.2,0.3
2024-08-19T1600,1290A,115.8931,28.6843,南昌市,省外办,,27,20,21,12,12,86,,79,79,19,12,8,8,0.3,0.4
2024-08-19T1600,1291A,115.8886,28.7003,南昌市,省林业公司,,25,14,13,7,8,80,,74,74,9,10,7,6,0.6,0.6
2024-08-19T1600,1292A,115.8126,28.7442,南昌市,林科所,,26,6,6,3,3,81,,76,76,3,9,8,8,0.1,0.1
2024-08-19T1600,1294A,115.8518,28.687,南昌市,建工学校,,29,11,11,8,5,91,,80,80,6,9,8,8,0.3,0.3
2024-08-19T1600,1295A,115.8921,28.6424,南昌市,象湖,,31,,12,10,8,99,,79,79,5,7,4,5,0.5,0.6
2024-08-19T1600,1296A,115.7423,28.7996,南昌市,武术学校,,,13,17,8,16,68,,64,64,2,4,3,2,,0.1
2024-08-19T1600,1298A,115.9314,28.6842,南昌市,省站,,26,8,15,8,11,83,,72,72,13,12,7,8,0.6,0.6
2024-08-19T1600,3046A,115.9084,28.6062,南昌市,机电学校,,28,15,20,7,8,87,,71,71,5,8,7,7,0.5,0.5
2024-08-19T1600,3690A,115.9721,28.7031,南昌市,外国语学校,,28,10,14,6,6,87,,74,74,1,3,7,7,0.4,0.4
2024-08-19T1600,1905A,106.056,30.8064,南充市,西山风景区,,41,,41,23,39,130,,124,124,20,24,1,5,0.1,0.2
2024-08-19T1600,1906A,106.0789,30.8023,南充市,南充市委,,48,36,56,29,44,153,,150,150,6,11,6,10,0.3,0.5
2024-08-19T1600,1907A,106.1031,30.8217,南充市,南充炼油厂,臭氧1小时,58,35,56,26,41,166,,155,155,6,11,6,9,0.3,0.5
2024-08-19T1600,1908A,106.1064,30.7856,南充市,高坪区监测站,,50,30,58,28,42,159,,142,142,9,13,6,8,0.5,0.6
2024-08-19T1600,1909A,106.0642,30.7636,南充市,嘉陵区环保局,,50,36,58,29,44,158,,139,139,9,14,8,11,0.4,0.5
2024-08-19T1600,1910A,106.1087,30.8388,南充市,市环境监测站,臭氧1小时,55,32,54,31,38,164,,154,154,9,16,5,8,0.3,0.5
2024-08-19T1600,1151A,118.8086,32.1065,南京市,迈皋桥,,29,16,25,3,14,92,,97,97,15,19,5,6,0.1,0.4
2024-08-19T1600,1152A,118.7538,32.0551,南京市,草场门,,26,9,27,3,13,83,,89,89,13,12,4,6,0.4,0.4
2024-08-19T1600,1153A,118.7794,32.0745,南京市,山西路,,36,,26,7,15,115,,112,112,3,7,4,4,0.3,0.4
2024-08-19T1600,1154A,118.7752,32.0023,南京市,中华门,,29,12,23,9,15,92,,99,99,10,13,4,4,0.5,0.5
2024-08-19T1600,1155A,118.8109,32.0309,南京市,瑞金路,,32,12,27,7,16,100,,104,104,5,8,6,7,0.4,0.4
2024-08-19T1600,1156A,118.7997,32.0754,南京市,玄武湖,,31,6,28,3,11,97,,92,92,3,6,6,6,0.5,0.6
2024-08-19T1600,1157A,118.6414,32.0931,南京市,浦口,,35,11,31,7,16,111,,104,104,12,16,7,8,0.4,0.5
2024-08-19T1600,1158A,118.7356,31.9996,南京市,奥体中心,,33,12,25,12,19,104,,105,105,11,13,7,8,0.3,0.3
2024-08-19T1600,1159A,118.9125,32.1028,南京市,仙林大学城,,33,,28,12,15,103,,112,112,12,15,6,8,0.5,0.6
2024-08-19T1600,3422A,118.8436,31.9198,南京市,江宁彩虹桥,,30,,28,9,16,94,,94,94,13,9,3,4,0.6,0.6
2024-08-19T1600,3423A,119.0138,31.6494,南京市,溧水永阳,,33,14,22,11,11,104,,113,113,8,11,4,4,0.4,0.4
2024-08-19T1600,3424A,118.879,31.3302,南京市,高淳老职中,,34,27,28,8,19,106,,114,114,8,12,3,7,0.4,0.5
2024-08-19T1600,3427A,118.8554,32.3578,南京市,六合雄州,,31,22,27,9,17,97,,94,94,2,2,3,5,0.3,0.5
2024-08-19T1600,1401A,108.3103,22.7881,南宁市,二十一中,,44,44,33,16,19,119,,93,93,10,19,2,2,0.9,0.9
2024-08-19T1600,1402A,108.3141,22.8528,南宁市,北湖,,39,27,35,18,20,124,,102,102,12,22,3,6,0.8,0.8
2024-08-19T1600,1403A,108.3206,22.8225,南宁市,市监测站,,39,37,34,17,18,124,,94,94,16,22,4,6,0.7,0.8
2024-08-19T1600,1404A,108.3829,22.8037,南宁市,大自然花园,,38,24,29,16,19,119,,103,103,12,15,4,4,0.7,0.8
2024-08-19T1600,1405A,108.4394,22.7904,南宁市,仙葫,,30,13,32,9,19,96,,91,91,6,16,5,5,0.6,0.9
2024-08-19T1600,1406A,108.2397,22.8467,南宁市,区农职院,,39,32,38,17,20,124,,95,95,11,17,6,15,0.9,0.9
2024-08-19T1600,1407A,108.3275,22.735,南宁市,英华嘉园,,38,38,32,17,19,112,,91,91,12,22,5,5,0.6,0.7
2024-08-19T1600,1408A,108.2257,22.7757,南宁市,沙井镇街道办,颗粒物(PM10),53,55,37,16,17,116,,88,88,12,21,2,3,0.8,0.8
2024-08-19T1600,3401A,108.4834,22.7618,南宁市,红星社区,,33,21,31,12,20,103,,95,95,9,15,5,5,0.8,0.9
2024-08-19T1600,2331A,118.0966,26.6761,南平市,茫荡山,,,,,,,,,,,,,,,,
2024-08-19T1600,2332A,118.1681,26.6369,南平市,南平市监测站,,21,11,12,3,5,65,,67,67,6,7,4,5,0.8,0.8
2024-08-19T1600,2333A,118.1825,26.6489,南平市,南平铝业有限公司,,21,19,15,3,4,67,,66,66,4,7,4,6,0.6,0.6
2024-08-19T1600,2334A,118.1756,26.6272,南平市,南平七中,,21,12,19,6,6,66,,63,63,2,4,4,4,0.6,0.6
2024-08-19T1600,1168A,120.9098,31.9663,南通市,狼山街道,,31,12,7,3,3,99,,90,90,7,7,7,6,0.6,0.6
2024-08-19T1600,1169A,120.86,32.0005,南通市,虹桥,,33,18,12,7,3,105,,89,89,6,7,6,6,0.6,0.6
2024-08-19T1600,1170A,120.87,32.02,南通市,城中,,35,25,14,3,3,110,,93,93,10,10,7,7,0.5,0.5
2024-08-19T1600,1171A,120.94,31.93,南通市,星湖花园,,30,15,6,3,0,94,,88,88,12,13,6,5,0.6,0.5
2024-08-19T1600,1172A,120.81,32.0417,南通市,紫琅学院,,28,17,8,6,2,89,,86,86,30,16,11,7,1.9,0.7
2024-08-19T1600,3291A,121.067,32.062,南通市,通州监测站,,24,12,11,3,3,75,,74,74,5,6,3,4,0.5,0.6
2024-08-19T1600,3432A,120.9348,31.9883,南通市,环境教育馆,,31,19,14,3,2,97,,90,90,12,12,5,5,0.4,0.4
2024-08-19T1600,2404A,112.5224,33.0122,南阳市,瓦房庄,,46,14,21,12,12,146,,104,104,8,13,6,5,0.5,0.5
2024-08-19T1600,2405A,112.5003,32.9735,南阳市,汉画馆,,42,23,22,14,14,133,,95,95,7,11,5,4,0.6,0.6
2024-08-19T1600,2406A,112.5573,33.027,南阳市,气象站,,48,18,22,9,10,153,,108,108,7,12,6,6,0.4,0.3
2024-08-19T1600,2407A,112.5481,32.9689,南阳市,理工学院,,44,16,18,8,9,139,,105,105,8,14,5,5,0.5,0.5
2024-08-19T1600,4008A,112.5234,32.9922,南阳市,卧龙区政府,,43,17,21,14,14,135,,99,99,10,15,6,5,0.6,0.6
2024-08-19T1600,1234A,121.8358,29.911,宁波市,区环保大楼,,17,17,15,8,7,46,,45,45,3,9,7,7,0.6,0.6
2024-08-19T1600,1235A,121.56,29.82,宁波市,万里学院,,19,19,23,8,10,53,,52,52,7,9,9,9,0.7,0.6
2024-08-19T1600,1236A,121.713,29.9572,宁波市,龙赛医院,,17,16,15,8,7,52,,48,48,4,8,8,8,0.5,0.5
2024-08-19T1600,1239A,121.633,29.7733,宁波市,钱湖水厂,,16,15,11,7,6,50,,49,49,10,7,7,7,0.6,0.5
2024-08-19T1600,1240A,121.5856,29.8635,宁波市,太古小学,,19,19,15,12,7,52,,48,48,9,10,6,6,0.7,0.7
2024-08-19T1600,1241A,121.524,29.8674,宁波市,市环境监测中心,,18,18,14,7,6,50,,53,53,6,8,4,4,0.6,0.6
2024-08-19T1600,2871A,121.6147,29.9017,宁波市,万里国际学校,,19,16,19,10,9,58,,53,53,7,8,6,6,0.4,0.4
2024-08-19T1600,3710A,121.5594,29.8975,宁波市,白沙活动中心,,20,20,17,6,6,60,,54,54,8,8,6,6,0.4,0.4
2024-08-19T1600,2339A,119.5001,26.6946,宁德市,金涵水库,,,,,,,,,,,,,,,,
2024-08-19T1600,2341A,119.5388,26.6612,宁德市,宁德市监测站,,26,16,20,11,12,82,,63,63,9,12,5,5,0.5,0.5
2024-08-19T1600,3209A,119.5231,26.6562,宁德市,宁德一中,,36,34,25,25,14,73,,63,63,9,9,4,5,0.5,0.6
2024-08-19T1600,2618A,98.8601,25.8567,怒江傈僳族自治州,州监测站,,26,26,19,13,11,38,,32,31,14,7,5,5,0.5,0.5
2024-08-19T1600,2619A,98.8546,25.8417,怒江傈僳族自治州,泸水一中,,23,19,17,16,8,34,,24,23,14,11,5,5,0.4,0.4
2024-08-19T1600,1888A,101.6891,26.571,攀枝花市,弄弄坪,,30,24,50,10,21,95,,57,57,8,23,10,11,0.6,1.2
2024-08-19T1600,1889A,101.5769,26.5928,攀枝花市,河门口,,31,19,28,10,16,99,,65,65,9,15,4,5,0.7,0.8
2024-08-19T1600,1890A,101.7169,26.585,攀枝花市,炳草岗,,32,17,57,10,26,100,,59,59,7,28,13,21,0.7,1.5
2024-08-19T1600,1891A,101.7369,26.5008,攀枝花市,仁和,,34,27,36,15,22,106,,76,76,20,18,30,11,1.8,1.6
2024-08-19T1600,2835A,101.7227,26.567,攀枝花市,四十中小,,33,31,38,19,25,104,,68,68,8,27,5,13,0.6,1.5
2024-08-19T1600,1604A,122.0303,41.1489,盘锦市,开发区,,35,,24,8,16,112,,95,95,10,11,5,5,0.4,0.5
2024-08-19T1600,1605A,122.0485,41.0883,盘锦市,兴隆台,,35,,24,3,14,110,,93,93,12,12,5,4,0.6,0.6
2024-08-19T1600,1606A,121.8297,41.1028,盘锦市,新生街道,,29,12,21,6,14,91,,96,93,5,5,4,4,0.6,0.7
2024-08-19T1600,1832A,113.3257,33.742,平顶山市,新华旅馆,,,36,37,,24,131,,114,114,7,13,4,5,0.7,0.7
2024-08-19T1600,1833A,113.2919,33.737,平顶山市,规划设计院,,44,20,26,15,15,138,,115,115,11,14,8,7,0.9,0.9
2024-08-19T1600,1834A,113.182,33.774,平顶山市,平顶山工学院,,47,38,28,19,13,149,,120,120,7,11,6,6,0.8,0.8
2024-08-19T1600,3204A,113.3025,33.73,平顶山市,规划局,,43,34,28,20,19,136,,108,108,10,15,4,4,0.6,0.8
2024-08-19T1600,3594A,112.8867,33.9116,平顶山市,石龙区,,46,19,38,10,15,145,,114,114,7,18,10,9,0.5,0.6
2024-08-19T1600,2656A,106.6692,35.5461,平凉市,聚贤嘉苑,,45,32,30,9,12,141,,110,110,12,25,6,6,0.2,0.2
2024-08-19T1600,2657A,106.7021,35.5307,平凉市,博物馆,,46,28,36,12,12,145,,112,112,8,23,8,8,0.5,0.6
2024-08-19T1600,2347A,114.0997,27.5002,萍乡市,武功山,,31,7,8,3,3,98,,65,65,4,4,11,17,0.4,0.4
2024-08-19T1600,2348A,113.8385,27.6434,萍乡市,中医院,,37,37,41,21,28,114,,79,79,6,15,6,11,0.8,0.9
2024-08-19T1600,2349A,113.8493,27.6253,萍乡市,市政府车库,,35,,45,24,28,91,,68,68,8,11,17,19,0.7,0.8
2024-08-19T1600,2350A,113.8676,27.6435,萍乡市,市环保局,,30,29,38,18,25,96,,79,79,1,8,14,18,0.8,0.9
2024-08-19T1600,2351A,113.866,27.6198,萍乡市,安源区政府,,29,27,37,20,21,92,,69,69,7,13,13,17,0.5,0.6
2024-08-19T1600,2319A,119.0141,25.4325,莆田市,荔城区仓后路,,22,21,21,8,9,70,,75,75,8,9,7,6,0.5,0.5
2024-08-19T1600,2320A,119.0015,25.4553,莆田市,莆田市监测站,,23,23,23,7,7,72,,83,83,10,8,6,6,0.5,0.5
2024-08-19T1600,2321A,119.1119,25.4561,莆田市,涵江区六中,,24,17,20,3,8,76,,76,76,3,9,6,6,0.4,0.5
2024-08-19T1600,2322A,119.1013,25.3215,莆田市,秀屿区政府,,30,30,16,3,4,79,,74,74,5,9,5,6,0.5,0.5
2024-08-19T1600,2323A,118.981,25.4792,莆田市,东圳水库,,,,,,,,,,,,,,,,
2024-08-19T1600,2392A,115.0312,35.7636,濮阳市,环保局,,33,11,14,7,11,103,,88,88,8,8,3,5,0.4,0.5
2024-08-19T1600,2394A,115.0574,35.7609,濮阳市,油田运输公司,,35,,12,12,11,109,,95,95,4,6,2,2,0.2,0.3
2024-08-19T1600,2395A,115.0866,35.7754,濮阳市,油田物探公司,,33,8,15,8,14,105,,91,91,2,5,4,4,0.4,0.5
2024-08-19T1600,3021A,115,35.7668,濮阳市,濮水河管理处,,27,,18,8,14,86,,66,66,6,6,3,2,0.3,0.3
2024-08-19T1600,2601A,100.98,22.7633,普洱市,市环保局,,22,18,21,6,12,70,,60,60,5,9,5,4,0.4,0.5
2024-08-19T1600,2602A,100.9817,22.8322,普洱市,普洱第二中学,,26,14,17,9,10,81,,59,59,5,9,6,6,0.4,0.4
2024-08-19T1600,2262A,131.0518,45.8751,七台河市,新一中,,14,6,15,3,10,44,,49,49,5,8,10,8,1.1,1.2
2024-08-19T1600,3345A,131.0577,45.7879,七台河市,中波台,,12,9,8,8,6,32,,33,33,9,13,9,10,0.3,0.3
2024-08-19T1600,3637A,131.0176,45.7761,七台河市,人民广场,,18,,16,12,10,43,,43,43,8,11,12,12,0.3,0.4
2024-08-19T1600,3684A,130.8781,45.8222,七台河市,新建矿广场,,22,,15,15,15,35,,42,42,19,18,12,16,0.2,0.4
2024-08-19T1600,1779A,123.9305,47.3636,齐齐哈尔市,安居小区,,27,27,16,6,5,53,,45,45,6,9,7,8,0.4,0.4
2024-08-19T1600,1780A,123.9488,47.3386,齐齐哈尔市,中心广场,,27,27,17,12,8,47,,40,40,12,10,2,2,0.3,0.3
2024-08-19T1600,1781A,123.9483,47.3227,齐齐哈尔市,农牧车辆厂,,27,27,22,3,4,55,,45,45,8,8,8,8,0.1,0.1
2024-08-19T1600,1783A,123.945,47.2988,齐齐哈尔市,市环境监测站,,23,23,15,14,8,56,,46,46,7,8,7,7,0.2,0.3
2024-08-19T1600,3662A,123.6333,47.2075,齐齐哈尔市,富区青少年活动中心,,,23,11,3,6,52,,46,46,,8,4,4,0.4,0.7
2024-08-19T1600,2591A,107.9783,26.5747,黔东南苗族侗族自治州,市环境监测站,,26,23,25,15,17,82,,78,78,15,24,4,4,0.6,0.7
2024-08-19T1600,2881A,107.8908,26.5311,黔东南苗族侗族自治州,凯里学院,,25,24,20,15,14,79,,77,77,13,12,5,6,0.4,0.4
2024-08-19T1600,2593A,107.5228,26.2403,黔南布依族苗族自治州,小围寨,,32,14,16,9,9,102,,72,72,6,11,5,4,0.5,0.5
2024-08-19T1600,3538A,107.5175,26.2978,黔南布依族苗族自治州,沙坝,,37,24,18,12,9,117,,78,78,5,7,5,4,0.6,0.5
2024-08-19T1600,2589A,104.9022,25.0925,黔西南布依族苗族自治州,场坝街,,32,18,17,3,8,101,,80,80,3,8,3,13,0.2,0.3
2024-08-19T1600,2590A,104.8811,25.0992,黔西南布依族苗族自治州,坪东大道,,32,12,24,6,13,100,,80,80,2,9,5,8,0.1,0.2
2024-08-19T1600,2502A,108.6236,21.9667,钦州市,市环保站,,39,39,33,9,13,109,,86,86,12,22,10,9,0.6,0.8
2024-08-19T1600,2503A,108.6549,21.9481,钦州市,沙埠小学,,38,38,41,18,19,106,,87,87,9,20,7,6,0.7,0.7
2024-08-19T1600,2504A,108.5989,21.7431,钦州市,港区一小,,22,18,30,7,11,69,,59,59,7,14,8,11,0.6,0.7
2024-08-19T1600,3404A,108.5959,21.9633,钦州市,北职校,,35,30,34,15,18,109,,85,85,15,21,7,7,0.7,0.8
2024-08-19T1600,1042A,119.5134,39.8207,秦皇岛市,北戴河环保局,,35,20,25,3,6,111,,92,78,15,16,2,1,0.4,0.5
2024-08-19T1600,1043A,119.7493,40.0116,秦皇岛市,第一关,,31,24,35,10,25,98,,62,55,6,28,3,3,0.6,0.4
2024-08-19T1600,1044A,119.5897,39.9499,秦皇岛市,监测站,,32,24,38,11,19,100,,87,75,10,17,3,3,0.5,0.5
2024-08-19T1600,1046A,119.5251,39.9041,秦皇岛市,建设大厦,,35,16,27,6,8,109,,84,67,2,17,3,3,0.2,0.2
2024-08-19T1600,3132A,119.610547,39.943889,秦皇岛市,文明里,,34,21,27,3,10,107,,88,76,6,14,1,2,0.5,0.5
2024-08-19T1600,1307A,120.6659,36.2403,青岛市,仰口,,24,17,10,11,10,74,,67,67,2,4,8,8,0.1,0
2024-08-19T1600,1310A,120.4134,36.0658,青岛市,市南区东部子站,,22,12,14,3,2,70,,66,66,3,8,6,7,0.6,0.5
2024-08-19T1600,1311A,120.3664,36.1032,青岛市,四方区子站,,24,12,9,3,6,76,,72,72,2,4,9,9,0.6,0.6
2024-08-19T1600,1312A,120.2994,36.054,青岛市,市南区西部子站,,18,12,19,3,7,57,,64,60,15,15,8,8,0.5,0.5
2024-08-19T1600,1313A,120.4581,36.0858,青岛市,崂山区子站,,24,17,15,3,2,74,,72,72,8,11,8,8,0.6,0.6
2024-08-19T1600,1314A,120.1983,35.9608,青岛市,黄岛区子站,,22,6,6,3,6,70,,70,70,11,10,6,6,0.6,0.5
2024-08-19T1600,1315A,120.3999,36.3083,青岛市,城阳区子站,,25,7,11,3,7,77,,68,68,8,13,6,6,0.4,0.5
2024-08-19T1600,1966A,120.0405,35.8735,青岛市,黄岛区4号,,22,6,8,3,3,68,,66,65,22,13,9,8,0.5,0.4
2024-08-19T1600,3362A,120.5014,36.4034,青岛市,即墨2号,,24,8,11,6,9,74,,71,71,8,11,6,6,0.3,0.3
2024-08-19T1600,3642A,120.3503,36.0736,青岛市,市北区南部,,22,12,13,3,4,68,,65,65,7,12,6,7,0.5,0.5
2024-08-19T1600,3643A,120.3948,36.1805,青岛市,李沧区北部,,23,12,10,3,8,72,,72,72,9,11,8,8,0.5,0.5
2024-08-19T1600,1702A,113.0426,23.691,清远市,环保大楼,,34,14,49,12,15,108,,76,76,6,16,5,6,0.7,0.7
2024-08-19T1600,1703A,113.0208,23.7106,清远市,凤城街办,,26,17,34,12,23,82,,56,56,6,16,5,5,0.5,0.5
2024-08-19T1600,3025A,113.0477,23.6344,清远市,技师学院,,39,18,28,12,17,122,,72,72,4,17,4,4,0.6,0.7
2024-08-19T1600,3318A,112.9903,23.7403,清远市,清新太和,,25,20,37,12,25,79,,57,57,6,11,4,4,0.8,0.8
2024-08-19T1600,3455A,113.076,23.7198,清远市,清城东城,,28,28,31,18,22,89,,68,68,9,11,6,6,0.7,0.8
2024-08-19T1600,2661A,107.6325,35.7357,庆阳市,庆阳五中,,40,17,33,3,18,125,,119,119,2,6,5,6,0.4,0.5
2024-08-19T1600,2662A,107.6364,35.7067,庆阳市,市环保局,,39,19,31,6,15,124,,122,122,4,8,7,8,0.3,0.5
2024-08-19T1600,1916A,103.7897,25.5035,曲靖市,环境监测站,,46,27,39,14,20,147,,104,104,7,15,4,6,0.5,0.7
2024-08-19T1600,1917A,103.8,25.5364,曲靖市,烟厂办公区,,40,,36,18,22,127,,91,91,8,18,3,4,0.5,0.7
2024-08-19T1600,3376A,103.7947,25.462,曲靖市,南苑二区,,44,24,32,17,20,139,,104,104,9,14,7,7,0.7,0.8
2024-08-19T1600,3377A,103.7444,25.5261,曲靖市,曲靖师范学院,,46,26,35,12,27,146,,103,103,8,25,7,17,0.6,0.8
2024-08-19T1600,1264A,118.8692,28.9398,衢州市,环保大楼,,36,13,25,8,18,115,,105,105,7,11,4,4,0.4,0.4
2024-08-19T1600,1265A,118.8709,28.9666,衢州市,实验学校,,34,25,30,12,18,108,,96,96,14,12,6,7,0.2,0.2
2024-08-19T1600,1266A,118.8621,28.9808,衢州市,衢州学院,,35,10,26,8,19,112,,101,101,9,14,4,4,0.3,0.3
2024-08-19T1600,1611A,118.5819,24.9117,泉州市,涂山街,,25,19,19,8,13,78,,80,80,4,11,4,5,0.5,0.6
2024-08-19T1600,1612A,118.5972,24.8978,泉州市,津头埔,,24,20,20,6,12,74,,77,77,11,16,2,3,0.6,0.6
2024-08-19T1600,1613A,118.6663,24.9424,泉州市,万安,,24,18,17,7,11,74,,75,75,4,11,1,2,0.5,0.5
2024-08-19T1600,1614A,118.6117,24.9604,泉州市,清源山,,,,,,,,,,,,,,,,
2024-08-19T1600,3529A,118.6333,24.9264,泉州市,城华南路,,23,14,19,6,12,71,,72,72,6,10,2,3,0.5,0.5
2024-08-19T1600,2626A,88.8876,29.2718,日喀则市,日喀则监测站,,42,17,11,9,6,134,,111,110,4,5,5,5,0.4,0.4
2024-08-19T1600,3726A,88.8781,29.2426,日喀则市,林业技术推广中心,,41,9,12,3,7,129,,107,107,5,8,7,6,0.4,0.4
2024-08-19T1600,1659A,119.471,35.4209,日照市,监测站,,22,12,11,3,9,68,,68,68,7,15,10,9,0.3,0.3
2024-08-19T1600,1660A,119.523,35.4216,日照市,市政府广场,,24,12,13,3,4,74,,76,76,4,8,10,10,0.4,0.4
2024-08-19T1600,1661A,119.5587,35.4044,日照市,港务局,,21,14,13,3,8,67,,76,76,9,5,9,8,0.4,0.3
2024-08-19T1600,3507A,119.5328,35.4625,日照市,职业技术学院,,24,12,10,3,6,74,,77,77,12,12,8,8,0.5,0.5
2024-08-19T1600,3604A,119.3266,35.1044,日照市,岚山环保分局,,23,12,21,3,4,71,,77,77,9,11,8,9,0.4,0.5
2024-08-19T1600,1835A,111.1922,34.7752,三门峡市,市政府,臭氧1小时,55,28,49,13,20,164,,111,111,8,24,14,16,0.5,0.7
2024-08-19T1600,1836A,111.1587,34.7942,三门峡市,开发区,臭氧1小时,60,19,35,11,21,168,,114,114,10,16,17,13,0.5,0.6
2024-08-19T1600,1838A,111.143,34.7955,三门峡市,风景区,,,,,,,,,,,,,,,,
2024-08-19T1600,3039A,111.1911,34.7829,三门峡市,三门峡市第一小学,,50,36,39,18,19,157,,110,110,8,21,12,16,0.5,0.6
2024-08-19T1600,3598A,111.1,34.7167,三门峡市,富达温泉假日酒店,臭氧1小时,55,39,46,11,24,164,,120,120,10,20,19,14,0.4,0.5
2024-08-19T1600,2324A,117.6211,26.2625,三明市,三钢,,22,15,17,3,11,69,,66,66,3,10,5,5,0.6,0.7
2024-08-19T1600,2325A,117.635,26.2714,三明市,三明二中,,23,17,17,9,7,72,,67,67,3,8,2,3,0.5,0.6
2024-08-19T1600,2326A,117.6028,26.2378,三明市,三元区政府,,24,16,26,6,10,74,,67,67,5,10,1,2,0.4,0.5
2024-08-19T1600,2327A,117.7275,26.3108,三明市,洋溪,,,,,,,,,,,,,,,,
2024-08-19T1600,1876A,109.5078,18.2489,三亚市,河东子站,,24,24,23,10,12,64,,65,65,2,7,2,2,0.3,0.3
2024-08-19T1600,1877A,109.4964,18.2681,三亚市,河西子站,,20,18,20,12,14,62,,61,61,3,7,3,2,0.2,0.2
2024-08-19T1600,3540A,109.7348,18.3443,三亚市,君悦子站,,24,24,23,3,9,52,,52,52,8,10,2,2,0.2,0.3
2024-08-19T1600,2624A,91.7608,29.2313,山南市,山南监测站,,39,7,13,3,6,122,,96,96,2,7,7,7,0.2,0.2
2024-08-19T1600,2625A,91.7706,29.2436,山南市,山南人民医院,,35,23,20,3,7,112,,92,92,10,10,7,7,0.1,0.1
2024-08-19T1600,1674A,116.6794,23.3667,汕头市,金平子站,,13,,8,3,6,39,,39,39,7,7,4,4,0.7,0.6
2024-08-19T1600,1675A,116.7244,23.3633,汕头市,龙湖子站,,15,9,10,6,4,46,,45,43,7,7,5,5,0.5,0.6
2024-08-19T1600,1676A,116.7258,23.2775,汕头市,濠江子站,,16,11,10,3,6,49,,45,42,8,12,5,5,0.6,0.6
2024-08-19T1600,1677A,116.7519,23.4714,汕头市,澄海子站,,17,9,14,3,8,53,,52,52,8,9,3,3,0.7,0.8
2024-08-19T1600,1678A,116.6092,23.2539,汕头市,潮阳子站,,15,13,10,3,6,45,,44,42,2,2,4,4,0.5,0.5
2024-08-19T1600,3444A,116.454,23.2684,汕头市,潮南峡山,,15,6,10,3,5,48,,44,44,2,2,5,5,0.7,0.7
2024-08-19T1600,3624A,116.4069,23.2533,汕头市,潮南子站,,17,6,14,3,6,52,,48,48,7,6,4,4,0.6,0.7
2024-08-19T1600,1693A,115.3653,22.775,汕尾市,市环保局,,16,8,20,3,8,49,,46,46,15,14,6,6,0.5,0.5
2024-08-19T1600,1694A,115.3706,22.7898,汕尾市,市政府,,15,8,16,3,8,46,,43,43,11,11,6,5,0.4,0.5
2024-08-19T1600,1695A,115.3622,22.7925,汕尾市,新城中学,,16,12,22,3,8,49,,45,45,11,10,6,6,0.5,0.6
2024-08-19T1600,2645A,109.9154,33.8715,商洛市,监测站,,49,12,22,10,12,155,,97,97,9,13,7,5,0.4,0.5
2024-08-19T1600,3045A,109.9643,33.8471,商洛市,商州区中学,,47,27,29,12,18,149,,96,96,9,18,6,8,0.4,0.6
2024-08-19T1600,2408A,115.6702,34.4285,商丘市,环境监测站,,32,17,21,12,13,100,,100,100,8,7,3,3,0.5,0.5
2024-08-19T1600,2409A,115.6458,34.4045,商丘市,粮食局,,34,25,22,15,13,108,,104,104,6,5,6,6,0.3,0.3
2024-08-19T1600,2410A,115.6293,34.3948,商丘市,睢阳区环保局,,34,24,24,19,15,108,,107,107,3,4,5,5,0.3,0.3
2024-08-19T1600,3171A,115.6071,34.4465,商丘市,梁园区档案局,,33,,23,22,17,104,,104,104,5,6,6,6,0.4,0.4
2024-08-19T1600,1141A,121.4,31.238,上海市,普陀,,19,17,17,7,6,59,,66,66,10,13,4,5,0.3,0.3
2024-08-19T1600,1142A,121.478,31.2036,上海市,十五厂,,20,18,18,9,10,62,,66,66,10,14,8,8,0.3,0.4
2024-08-19T1600,1143A,121.467,31.3008,上海市,虹口,,21,21,17,6,8,66,,65,65,8,13,8,7,0.5,0.5
2024-08-19T1600,1144A,121.412,31.1654,上海市,徐汇上师大,,25,23,22,11,10,80,,66,66,12,16,5,5,0.4,0.4
2024-08-19T1600,1145A,121.536,31.2659,上海市,杨浦四漂,,39,39,22,11,7,70,,66,66,9,13,6,6,0.3,0.4
2024-08-19T1600,1147A,121.425,31.2261,上海市,静安监测站,,19,15,16,6,7,60,,69,69,9,14,6,5,0.4,0.4
2024-08-19T1600,1148A,121.703,31.1907,上海市,浦东川沙,,33,33,23,22,10,64,,57,57,8,16,6,6,0.5,0.6
2024-08-19T1600,1149A,121.533,31.2284,上海市,浦东新区监测站,,20,16,15,8,8,63,,61,61,7,11,5,5,0.4,0.4
2024-08-19T1600,1150A,121.577,31.2071,上海市,浦东张江,,24,24,18,3,8,57,,53,53,15,15,5,6,0.5,0.6
2024-08-19T1600,3265A,121.4316,31.3322,上海市,宝山庙行,,22,17,19,10,15,70,,71,71,8,12,5,5,0.4,0.4
2024-08-19T1600,3266A,121.8791,31.4662,上海市,崇明上实东滩,,22,12,13,7,7,70,,55,55,5,9,8,8,0.7,0.7
2024-08-19T1600,3268A,121.3162,31.2838,上海市,嘉定南翔,,20,19,17,8,8,63,,63,63,12,16,6,6,0.4,0.5
2024-08-19T1600,3269A,121.3359,30.7456,上海市,金山新城,,29,13,13,8,7,91,,76,76,9,11,7,8,0.5,0.5
2024-08-19T1600,3270A,121.4996,31.0739,上海市,闵行浦江,,26,17,16,13,12,83,,64,64,9,16,8,6,0.5,0.5
2024-08-19T1600,3271A,121.2886,31.1663,上海市,青浦徐泾,,29,21,16,10,8,92,,73,73,8,14,7,7,0.5,0.5
2024-08-19T1600,3272A,121.2186,31.0378,上海市,松江图书馆,,30,21,16,11,8,96,,72,72,8,14,6,6,0.5,0.6
2024-08-19T1600,3273A,121.3902,31.2059,上海市,长宁仙霞,,22,18,16,11,8,68,,66,66,8,13,8,8,0.5,0.6
2024-08-19T1600,3274A,121.7965,31.0507,上海市,浦东惠南,,23,23,19,10,10,64,,55,55,8,11,8,8,0.5,0.5
2024-08-19T1600,3544A,121.4891,30.925,上海市,奉贤南桥新城,,22,19,14,13,7,68,,58,58,7,12,7,7,0.6,0.6
2024-08-19T1600,2381A,118.005,28.4572,上饶市,百草园,,32,,23,22,14,80,,83,83,2,2,2,2,0.3,0.3
2024-08-19T1600,2382A,117.9756,28.4436,上饶市,市监测站,,27,22,20,11,13,85,,92,92,4,8,2,3,0.5,0.6
2024-08-19T1600,2383A,117.9519,28.4628,上饶市,凤凰光学,,25,21,21,15,13,79,,89,89,2,6,5,5,0.9,0.9
2024-08-19T1600,3413A,118.1953,28.4401,上饶市,广丰区教体局,,29,11,18,10,10,90,,77,77,5,5,4,5,0.8,0.8
2024-08-19T1600,3685A,117.897,28.4315,上饶市,双创科技城,,25,20,20,13,12,79,,97,97,6,6,4,3,0.7,0.7
2024-08-19T1600,1669A,113.5824,24.7733,韶关市,市八中,,31,31,23,13,13,73,,69,69,2,3,9,10,0.7,0.8
2024-08-19T1600,1671A,113.5917,24.7972,韶关市,园林处,,25,10,18,8,14,78,,72,72,2,3,10,10,0.6,0.7
2024-08-19T1600,1672A,113.6735,24.7791,韶关市,韶关学院,,27,27,18,12,10,74,,69,69,5,8,8,9,0.3,0.3
2024-08-19T1600,1673A,113.5971,24.6863,韶关市,曲江监测站,,,26,22,17,12,83,,79,79,,10,12,12,0.6,0.7
2024-08-19T1600,3622A,113.5556,24.8082,韶关市,碧湖山庄,,23,21,20,12,10,72,,70,70,4,3,10,11,0.7,0.7
2024-08-19T1600,2462A,111.5239,27.3033,邵阳市,市水土所,,43,40,28,30,17,75,,76,76,2,3,5,4,0.5,0.5
