timepoint,stationcode,longitude,latitude,area,positionname,primarypollutant,aqi,pm10,pm10_24h,pm2_5,pm2_5_24h,o3,o3_24h,o3_8h,o3_8h_24h,no2,no2_24h,so2,so2_24h,co,co_24h
2026-01-12T2300,2568A,102.2503,31.8896,阿坝藏族羌族自治州,马师校,,33,31,17,23,14,27,,70,52,25,13,4,4,0.6,0.5
2026-01-12T2300,3994A,102.2174,31.9016,阿坝藏族羌族自治州,马尔康中学西区,,24,24,14,12,14,32,,73,52,26,13,6,6,0.5,0.5
2026-01-12T2300,2695A,80.2899,41.1684,阿克苏地区,电视台,细颗粒物(PM2.5),138,176,97,105,59,12,,70,63,90,41,4,3,2.6,1.2
2026-01-12T2300,2696A,80.2592,41.1541,阿克苏地区,艺术中心,细颗粒物(PM2.5),144,188,88,110,64,8,,74,61,103,35,8,5,2.0,1
2026-01-12T2300,2205A,105.699,38.8409,阿拉善盟,蒙二幼,,45,45,253,13,48,64,,82,66,8,10,9,9,0.6,0.6
2026-01-12T2300,2206A,105.7198,38.8508,阿拉善盟,环保局新楼,,44,44,233,12,46,78,,78,78,4,6,6,7,0.6,0.6
2026-01-12T2300,2708A,88.1266,47.8515,阿勒泰地区,市站,,35,30,15,24,8,22,,52,40,55,32,5,6,0.8,0.6
2026-01-12T2300,4166A,88.1198,47.7931,阿勒泰地区,阿勒泰路33号,,20,16,21,14,10,58,,58,58,22,40,5,9,0.5,0.7
2026-01-12T2300,2630A,80.1171,32.4999,阿里地区,阿里监测站,,20,,3,3,3,18,,67,54,40,8,12,6,0.9,0.5
2026-01-12T2300,3192A,80.0906,32.5029,阿里地区,阿里藏医院,,20,20,15,11,8,55,,76,72,12,10,13,15,0.7,0.7
2026-01-12T2300,2644A,109.0088,32.6974,安康市,汉滨区检察院,细颗粒物(PM2.5),78,74,70,57,51,20,,67,54,36,27,4,5,0.8,0.7
2026-01-12T2300,4054A,109.0324,32.6913,安康市,市邮政管理局,细颗粒物(PM2.5),150,128,92,115,64,10,,48,30,50,37,7,8,1.2,1.1
2026-01-12T2300,2291A,117.0806,30.5181,安庆市,环科院,细颗粒物(PM2.5),70,78,71,51,38,22,,61,48,42,40,10,7,0.4,0.4
2026-01-12T2300,2292A,117.0331,30.5118,安庆市,马山宾馆,细颗粒物(PM2.5),70,84,71,51,38,36,,50,43,28,41,8,7,0.5,0.5
2026-01-12T2300,2294A,116.9897,30.6146,安庆市,安庆大学,细颗粒物(PM2.5),64,73,72,46,36,54,,77,67,27,33,10,7,0.6,0.6
2026-01-12T2300,3173A,117.0598,30.5351,安庆市,市人大,颗粒物(PM10),69,88,73,49,37,44,,60,53,27,41,21,12,0.5,0.5
2026-01-12T2300,3123A,105.9408,26.2431,安顺市,凤凰山,细颗粒物(PM2.5),88,76,55,65,45,53,,82,77,29,20,32,23,0.8,0.6
2026-01-12T2300,3124A,105.9443,26.2567,安顺市,金钟山,细颗粒物(PM2.5),103,,53,77,46,40,,84,75,31,16,42,23,0.9,0.6
2026-01-12T2300,3125A,105.8983,26.248,安顺市,娄家坡,细颗粒物(PM2.5),102,85,55,76,48,50,,84,77,28,17,44,19,1.2,0.8
2026-01-12T2300,1819A,114.3552,36.1017,安阳市,红庙街,颗粒物(PM10),92,133,92,40,32,26,,66,45,47,30,6,7,1.1,1.1
2026-01-12T2300,1820A,114.361,36.0681,安阳市,银杏小区,颗粒物(PM10),82,113,90,48,38,50,,72,54,28,26,8,5,0.5,0.5
2026-01-12T2300,3141A,114.3921,36.0879,安阳市,信访局,颗粒物(PM10),86,122,88,41,35,28,,74,54,42,24,8,9,0.9,0.8
2026-01-12T2300,3669A,114.4706,36.0634,安阳市,左辅环卫站,细颗粒物(PM2.5),112,137,98,84,53,22,,71,45,51,32,13,8,1.0,0.7
2026-01-12T2300,4117A,114.2918,36.0769,安阳市,钢三路198号,颗粒物(PM10),85,120,116,41,34,35,,67,46,36,31,5,5,0.5,0.7
2026-01-12T2300,1748A,123.0441,41.1201,鞍山市,深沟寺,,46,46,40,25,21,24,,63,36,41,21,10,10,0.8,0.8
2026-01-12T2300,1749A,123.011,41.0931,鞍山市,太阳城,,40,40,39,22,20,44,,65,43,28,20,14,13,0.6,0.7
2026-01-12T2300,1750A,123.0483,41.1445,鞍山市,太平,颗粒物(PM10),76,101,66,38,25,20,,65,33,49,22,11,11,1.0,0.7
2026-01-12T2300,1751A,122.964,41.0968,鞍山市,铁西三道街,细颗粒物(PM2.5),64,72,51,46,24,32,,59,39,43,26,16,17,1.3,1.2
2026-01-12T2300,1753A,123.0219,41.0822,鞍山市,明达新区,,34,34,40,17,21,35,,63,39,29,20,15,13,0.4,0.5
2026-01-12T2300,4201A,122.944647,41.082639,鞍山市,兴盛南路290号,细颗粒物(PM2.5),82,93,51,60,26,14,,58,28,55,27,14,16,1.0,0.9
2026-01-12T2300,2195A,107.4206,40.7609,巴彦淖尔市,附二中,颗粒物(PM10),60,70,150,27,44,53,,64,58,13,7,3,2,0.5,0.5
2026-01-12T2300,2196A,107.37,40.7372,巴彦淖尔市,市环保大楼,颗粒物(PM10),57,64,148,21,35,43,,74,59,25,9,4,4,0.5,0.5
2026-01-12T2300,1956A,86.1476,41.7529,巴音郭楞蒙古自治州,孔雀公园,细颗粒物(PM2.5),94,90,92,70,57,51,,62,60,41,45,8,8,1.0,0.8
2026-01-12T2300,1957A,86.1971,41.7166,巴音郭楞蒙古自治州,棉纺厂,颗粒物(PM10),119,188,117,57,52,2,,56,33,87,56,/,/,/,/
2026-01-12T2300,1958A,86.236,41.7172,巴音郭楞蒙古自治州,经济开发区,颗粒物(PM10),76,102,87,53,44,6,,59,39,57,31,5,6,1.0,0.8
2026-01-12T2300,3181A,106.776805,31.852614,巴中市,市五中,细颗粒物(PM2.5),115,117,111,87,84,12,,66,46,42,33,5,5,1.2,1.3
2026-01-12T2300,3183A,106.7419,31.8654,巴中市,圣泉水务公司,细颗粒物(PM2.5),112,115,89,84,72,1,,71,38,58,38,5,5,0.8,0.7
2026-01-12T2300,3616A,106.7617,31.8343,巴中市,市中心医院,细颗粒物(PM2.5),150,148,111,115,90,2,,63,34,52,37,7,7,1.5,1.2
2026-01-12T2300,2235A,122.7909,45.608,白城市,洮北区环保局,,23,23,39,8,31,59,,51,51,10,20,9,7,0.2,0.4
2026-01-12T2300,2236A,122.8741,45.5725,白城市,市环保局,,22,22,33,11,27,60,,51,51,5,16,5,4,0.3,0.4
2026-01-12T2300,2231A,126.4219,41.9172,白山市,喜丰,,28,28,50,13,27,67,,53,53,8,30,16,19,0.6,0.9
2026-01-12T2300,2232A,126.4082,41.9416,白山市,环保局,,22,21,40,10,30,69,,57,57,6,25,13,12,0.8,1.1
2026-01-12T2300,2647A,104.1727,36.5448,白银市,第三小学,细颗粒物(PM2.5),89,107,74,66,46,10,,57,31,67,43,16,27,1.4,1.1
2026-01-12T2300,2648A,104.1467,36.5482,白银市,动力公司,细颗粒物(PM2.5),87,99,69,64,42,16,,64,40,48,34,9,18,1.2,1.1
2026-01-12T2300,2512A,106.6102,23.901,百色市,市监测站,细颗粒物(PM2.5),84,72,78,62,58,41,,98,80,26,28,9,15,0.8,0.7
2026-01-12T2300,2513A,106.6524,23.8842,百色市,市中心血站,细颗粒物(PM2.5),162,163,110,123,83,3,,99,60,80,48,12,18,1.5,1.1
2026-01-12T2300,4133A,106.6273,23.8798,百色市,龙景西路,颗粒物(PM10),141,232,128,94,69,3,,104,59,61,41,9,18,1.1,0.9
2026-01-12T2300,2270A,117.396,32.9389,蚌埠市,工人疗养院,颗粒物(PM10),84,118,98,50,36,38,,76,62,45,28,7,8,0.6,0.6
2026-01-12T2300,2271A,117.3606,32.9428,蚌埠市,百货大楼,细颗粒物(PM2.5),73,93,83,53,35,32,,65,59,45,26,8,9,0.6,0.6
2026-01-12T2300,2273A,117.4183,32.8909,蚌埠市,蚌埠学院,细颗粒物(PM2.5),88,119,89,65,37,40,,84,65,40,25,6,7,0.5,0.4
2026-01-12T2300,2274A,117.3534,32.9672,蚌埠市,淮上区政府,颗粒物(PM10),80,110,95,53,39,52,,75,58,38,28,4,5,0.6,0.6
2026-01-12T2300,2275A,117.3143,32.8977,蚌埠市,高新区,细颗粒物(PM2.5),87,122,98,64,43,36,,65,53,42,30,9,10,0.4,0.4
2026-01-12T2300,3715A,117.3091,32.9314,蚌埠市,蚌埠田家炳中学,颗粒物(PM10),86,122,103,61,43,29,,76,56,60,33,8,10,0.5,0.5
2026-01-12T2300,1585A,109.8761,40.6533,包头市,市环境监测站,颗粒物(PM10),81,111,132,20,35,37,,62,52,37,41,5,9,0.7,1.1
2026-01-12T2300,1587A,109.9992,40.5843,包头市,包头八中,颗粒物(PM10),83,116,146,46,52,17,,59,40,56,45,5,14,0.6,1
2026-01-12T2300,1589A,109.8641,40.6288,包头市,惠龙物流,颗粒物(PM10),73,95,138,31,44,34,,61,48,40,48,9,17,1.0,1.3
2026-01-12T2300,1590A,110.0376,40.5546,包头市,东河鸿龙湾,颗粒物(PM10),81,111,142,22,39,14,,66,46,64,49,9,13,1.1,1.3
2026-01-12T2300,3283A,109.9154,40.5684,包头市,滨河大厦,颗粒物(PM10),83,116,140,41,47,8,,63,37,55,39,9,15,0.8,1
2026-01-12T2300,3419A,109.9449,40.6259,包头市,包头市委党校,颗粒物(PM10),73,96,117,27,37,16,,62,45,56,40,8,12,0.7,0.9
2026-01-12T2300,3683A,109.8332,40.6577,包头市,昆区政府,颗粒物(PM10),76,102,137,36,45,49,,56,54,29,47,21,15,0.8,1.4
2026-01-12T2300,1931A,107.0802,34.3129,宝鸡市,竹园沟,,49,43,41,34,30,28,,87,56,27,15,6,5,0.5,0.3
2026-01-12T2300,1933A,107.1429,34.3549,宝鸡市,监测站,颗粒物(PM10),53,56,62,32,41,20,,61,30,30,36,4,4,0.6,0.7
2026-01-12T2300,1934A,107.1172,34.3759,宝鸡市,技工学校,颗粒物(PM10),66,81,68,39,37,11,,79,47,49,23,4,4,1.0,0.6
2026-01-12T2300,1936A,107.2025,34.3518,宝鸡市,文理学院,细颗粒物(PM2.5),55,50,62,39,41,19,,63,36,42,36,4,4,0.5,0.5
2026-01-12T2300,1937A,107.2396,34.3626,宝鸡市,三迪小学,细颗粒物(PM2.5),74,,76,54,47,5,,65,36,62,44,4,4,0.8,0.6
2026-01-12T2300,4155A,107.1721,34.3558,宝鸡市,滨河北路,颗粒物(PM10),63,75,65,39,35,18,,73,42,40,29,4,4,0.6,0.5
2026-01-12T2300,4308A,107.3898,34.3601,宝鸡市,陈仓区北开路21号,细颗粒物(PM2.5),83,74,93,61,56,39,,72,42,51,44,46,55,0.7,0.8
2026-01-12T2300,1051A,115.4803,38.8568,保定市,游泳馆,细颗粒物(PM2.5),99,123,94,74,47,5,,36,12,69,49,8,11,1.2,0.8
2026-01-12T2300,1052A,115.509,38.8895,保定市,华电二区,细颗粒物(PM2.5),115,123,86,87,51,0,,26,6,76,50,6,5,1.4,1
2026-01-12T2300,1053A,115.4588,38.9037,保定市,接待中心,细颗粒物(PM2.5),94,118,89,70,46,2,,15,9,66,49,2,3,0.8,0.6
2026-01-12T2300,1054A,115.4484,38.8344,保定市,地表水厂,细颗粒物(PM2.5),97,137,106,72,48,5,,34,12,72,52,4,4,0.8,0.6
2026-01-12T2300,3581A,115.3136,38.9511,保定市,满城区生态环境分局,细颗粒物(PM2.5),156,197,124,119,75,3,,35,12,86,61,10,5,1.6,1.2
2026-01-12T2300,3582A,115.4709,38.7628,保定市,清苑区第二中学,细颗粒物(PM2.5),115,152,119,87,48,4,,31,12,68,45,16,11,0.9,0.7
2026-01-12T2300,3583A,115.6231,39.0223,保定市,徐水物探局,细颗粒物(PM2.5),145,203,126,111,57,4,,27,8,64,46,10,8,1.2,0.8
2026-01-12T2300,4004A,115.4199,38.8665,保定市,双鹰农机,细颗粒物(PM2.5),103,151,104,77,41,10,,38,16,64,45,7,7,1.1,0.7
2026-01-12T2300,4034A,115.515,38.8589,保定市,植保所站,细颗粒物(PM2.5),117,138,92,88,52,0,,26,5,69,51,4,5,1.2,0.8
2026-01-12T2300,2594A,99.1589,25.1137,保山市,市环境监测站,,19,19,26,12,21,56,,84,72,8,10,3,4,0.3,0.3
2026-01-12T2300,2595A,99.1616,25.1381,保山市,市环保局,,28,24,27,19,19,70,,88,80,3,6,4,4,0.4,0.5
2026-01-12T2300,1867A,109.1435,21.4085,北海市,海滩公园,,46,46,50,29,26,102,,130,101,17,18,8,12,0.9,0.8
2026-01-12T2300,1868A,109.0983,21.466,北海市,新市环保局,细颗粒物(PM2.5),89,,48,66,34,91,,115,105,26,22,6,8,0.7,0.5
2026-01-12T2300,1869A,109.1775,21.5232,北海市,北海工业园,细颗粒物(PM2.5),83,80,56,61,38,83,,127,114,21,21,8,15,0.7,0.6
2026-01-12T2300,3400A,109.1844,21.4396,北海市,龙潭自来水厂,,44,44,58,28,41,85,,124,99,16,16,7,9,0.9,0.8
2026-01-12T2300,1001A,116.3611,39.8786,北京市,万寿西宫,,29,29,71,9,31,65,,22,19,9,55,1,3,0.3,0.7
2026-01-12T2300,1003A,116.4174,39.9289,北京市,东四,,26,26,67,8,29,60,,27,27,13,45,3,5,0.1,0.4
2026-01-12T2300,1004A,116.4073,39.8858,北京市,天坛,,25,25,65,9,29,70,,23,23,6,48,2,3,0.3,0.7
2026-01-12T2300,1005A,116.4622,39.9364,北京市,农展馆,,44,44,69,19,27,13,,25,13,56,46,3,5,0.9,0.9
2026-01-12T2300,1006A,116.3399,39.9293,北京市,官园,,32,32,69,9,36,68,,29,29,5,46,3,5,0.3,0.6
2026-01-12T2300,1007A,116.2879,39.9613,北京市,海淀万柳,,25,25,62,7,23,68,,34,34,6,50,2,3,0.4,0.7
2026-01-12T2300,1008A,116.6635,40.1349,北京市,顺义新城,,23,18,59,3,23,73,,44,44,5,33,3,4,0.4,0.6
2026-01-12T2300,1009A,116.6275,40.327,北京市,怀柔镇,,23,14,36,3,15,72,,65,65,3,17,6,7,0.1,0.2
2026-01-12T2300,1010A,116.2295,40.217,北京市,昌平镇,,23,16,42,7,18,71,,77,76,5,25,4,5,0.4,0.6
2026-01-12T2300,1011A,116.3968,39.982,北京市,奥体中心,,32,32,56,13,23,35,,51,48,43,45,3,5,0.7,0.9
2026-01-12T2300,3418A,116.8336,40.4095,北京市,密云新城,,23,16,39,7,16,71,,69,69,3,17,3,4,0.2,0.4
2026-01-12T2300,3671A,116.0879,39.9725,北京市,门头沟三家店,,30,30,45,9,15,65,,72,72,6,21,3,3,0.3,0.5
2026-01-12T2300,3672A,116.1507,39.8246,北京市,丰台云岗,,38,38,68,18,26,55,,34,25,22,41,1,2,0.3,0.5
2026-01-12T2300,3674A,115.9578,39.7602,北京市,房山燕山,颗粒物(PM10),57,64,63,21,28,36,,41,32,31,29,6,6,0.4,0.6
2026-01-12T2300,3675A,116.4669,39.7734,北京市,大兴旧宫,,48,48,77,15,29,20,,25,15,54,47,3,3,0.5,0.6
2026-01-12T2300,3694A,115.9859,40.4562,北京市,延庆石河营,,26,13,37,3,14,81,,82,82,1,16,3,3,0.3,0.5
2026-01-12T2300,3695A,116.6151,40.3052,北京市,怀柔新城,,23,13,41,3,17,73,,65,65,4,16,4,5,0.2,0.4
2026-01-12T2300,3696A,116.2542,39.8764,北京市,丰台小屯,,31,31,67,10,24,64,,23,23,9,46,4,5,0.3,0.6
2026-01-12T2300,3697A,116.8399,40.3843,北京市,密云镇,,23,15,46,3,18,72,,67,67,6,29,1,2,0.3,0.6
2026-01-12T2300,4057A,115.9423,40.4431,北京市,延庆百泉,,21,15,38,3,15,67,,70,70,2,17,2,2,0.3,0.5
2026-01-12T2300,4058A,116.6598,39.9164,北京市,通州新华,,32,32,82,16,36,32,,22,13,46,61,3,5,0.4,0.7
2026-01-12T2300,4182A,116.1942,39.9158,北京市,石景山八角,,28,28,67,8,23,67,,32,32,4,43,1,2,0.2,0.4
2026-01-12T2300,4194A,117.078628,40.151726,北京市,平谷新城,,22,13,49,3,20,69,,52,52,3,21,3,2,0.3,0.5
2026-01-12T2300,1761A,123.8274146,41.31234549,本溪市,大峪,,36,36,38,19,17,37,,54,40,20,20,7,9,0.7,0.8
2026-01-12T2300,1763A,123.7169,41.3094,本溪市,彩屯,颗粒物(PM10),54,58,45,35,27,26,,34,32,39,39,8,17,0.9,2.9
2026-01-12T2300,1764A,123.7672166,41.28649327,本溪市,东明,,43,40,39,30,18,27,,59,43,41,15,8,8,0.9,0.8
2026-01-12T2300,1765A,123.799345,41.266614,本溪市,新立屯,,38,32,34,26,18,13,,58,35,48,19,9,11,0.9,0.9
2026-01-12T2300,1766A,123.829144,41.336777,本溪市,威宁,细颗粒物(PM2.5),53,38,42,37,21,7,,55,34,57,23,6,9,0.9,0.8
2026-01-12T2300,2587A,105.287,27.3133,毕节市,八中,细颗粒物(PM2.5),124,128,81,94,64,30,,85,54,23,17,11,10,1.1,0.9
2026-01-12T2300,2588A,105.3079,27.2987,毕节市,师专,细颗粒物(PM2.5),138,144,79,105,61,6,,91,47,62,23,8,8,1.2,0.8
2026-01-12T2300,4263A,105.3688,27.3598,毕节市,工业大道,细颗粒物(PM2.5),115,132,77,87,60,19,,86,51,37,21,11,11,/,/
2026-01-12T2300,1629A,117.9961,37.3604,滨州市,第二水厂,颗粒物(PM10),81,112,95,57,46,12,,43,26,58,49,16,16,0.9,0.9
2026-01-12T2300,1630A,117.9789,37.3931,滨州市,北中新校,细颗粒物(PM2.5),98,129,89,73,46,1,,44,22,71,52,8,9,1.7,0.9
2026-01-12T2300,3514A,117.9379,37.3959,滨州市,中海酒店,细颗粒物(PM2.5),85,117,90,63,48,8,,46,23,60,45,9,14,1.2,0.9
2026-01-12T2300,3515A,117.9381509,37.35547456,滨州市,开发区一中,"颗粒物(PM10),细颗粒物(PM2.5)",85,119,97,63,49,6,,45,20,55,41,18,21,1.0,0.9
2026-01-12T2300,3516A,118.0914,37.6938,滨州市,金海六路,颗粒物(PM10),101,151,92,75,39,7,,52,24,72,45,12,9,1.3,0.9
2026-01-12T2300,4028A,117.9955,37.3752,滨州市,滨州市西街道办事处,细颗粒物(PM2.5),125,163,104,95,54,2,,45,18,56,43,11,15,2.2,1
2026-01-12T2300,2311A,115.8071,33.8399,亳州市,污水处理厂,颗粒物(PM10),79,107,96,50,36,40,,69,48,28,26,3,4,0.4,0.4
2026-01-12T2300,2312A,115.7789,33.8519,亳州市,三国揽胜宫,细颗粒物(PM2.5),88,121,95,65,43,35,,69,53,35,25,4,5,0.5,0.5
2026-01-12T2300,3332A,115.7631,33.803,亳州市,亳州学院,颗粒物(PM10),80,109,86,53,38,44,,71,59,27,26,3,4,0.5,0.4
2026-01-12T2300,2693A,82.0482,44.8553,博尔塔拉蒙古自治州,市党校,细颗粒物(PM2.5),99,116,113,74,64,32,,51,47,44,34,3,6,0.8,0.8
2026-01-12T2300,2694A,82.0805,44.8966,博尔塔拉蒙古自治州,市环保局,颗粒物(PM10),90,130,115,58,57,25,,44,39,49,34,8,10,1.4,1.2
2026-01-12T2300,1071A,116.8733,38.2922,沧州市,沧县城建局,细颗粒物(PM2.5),120,135,94,91,49,7,,41,18,74,48,10,8,1.5,0.7
2026-01-12T2300,1072A,116.8462,38.3189,沧州市,电视转播站,细颗粒物(PM2.5),89,121,90,66,52,1,,41,17,71,46,6,6,1.1,0.7
2026-01-12T2300,1073A,116.8588,38.3161,沧州市,市环保局,细颗粒物(PM2.5),97,120,93,72,48,3,,46,16,62,41,8,9,1.2,0.7
2026-01-12T2300,3324A,116.8011,38.294,沧州市,河北水利电力学院,颗粒物(PM10),89,127,98,64,39,2,,37,14,74,43,8,6,1.0,0.6
2026-01-12T2300,2622A,97.1813,31.1289,昌都市,昌都监测站,细颗粒物(PM2.5),79,92,35,58,16,16,,78,44,41,18,1,3,1.2,0.6
2026-01-12T2300,3719A,97.1707,31.1428,昌都市,昌都会议中心,,22,19,12,15,11,50,,76,66,5,3,1,2,0.5,0.3
2026-01-12T2300,2692A,87.2722,44.0298,昌吉回族自治州,新区政务中心,细颗粒物(PM2.5),195,,147,146,112,31,,61,53,48,54,7,6,1.8,1.6
2026-01-12T2300,3613A,87.3069,44.0093,昌吉回族自治州,亚心广场,细颗粒物(PM2.5),245,249,168,195,129,42,,70,62,43,48,6,8,2.1,1.5
2026-01-12T2300,4164A,87.2057,43.9289,昌吉回族自治州,财政所,细颗粒物(PM2.5),87,92,93,64,66,48,,66,66,26,25,5,5,0.8,0.8
2026-01-12T2300,1120A,125.2874,43.9024,长春市,客车厂,细颗粒物(PM2.5),54,45,45,38,34,37,,46,30,21,23,9,10,0.5,0.6
2026-01-12T2300,1121A,125.2943,43.8508,长春市,邮电学院,,45,42,38,31,32,39,,48,28,21,22,12,12,0.4,0.5
2026-01-12T2300,1122A,125.3648,43.8745,长春市,劳动公园,颗粒物(PM10),52,54,45,27,27,43,,50,33,20,25,10,11,0.5,0.7
2026-01-12T2300,1123A,125.3233,43.8781,长春市,园林处,,47,47,40,30,28,39,,47,32,18,20,10,11,0.6,0.7
2026-01-12T2300,1124A,125.4604,43.7904,长春市,净月潭,颗粒物(PM10),54,57,40,34,24,25,,54,30,29,17,5,7,0.6,0.6
2026-01-12T2300,1126A,125.38,43.8422,长春市,经开区环卫处,,50,50,45,25,45,36,,47,26,24,24,9,8,0.5,0.6
2026-01-12T2300,1127A,125.234,43.7761,长春市,高新区管委会,,49,49,45,23,32,49,,55,31,13,20,6,7,0.4,0.6
2026-01-12T2300,1128A,125.1695,43.83,长春市,岱山公园,,49,49,48,24,34,39,,46,27,20,25,6,7,0.4,0.6
2026-01-12T2300,4281A,125.334645,43.916281,长春市,北亚泰大街1068号,颗粒物(PM10),51,51,43,32,30,33,,45,26,28,28,14,10,0.7,0.8
2026-01-12T2300,1335A,113.082,28.2421,长沙市,经开区环保局,细颗粒物(PM2.5),105,137,86,79,42,8,,57,31,68,41,12,7,1.0,0.5
2026-01-12T2300,1336A,112.8873,28.2202,长沙市,高开区环保局,细颗粒物(PM2.5),102,110,82,76,41,11,,64,37,52,27,15,10,1.0,0.7
2026-01-12T2300,1337A,113.0785,28.2012,长沙市,马坡岭,细颗粒物(PM2.5),117,136,89,88,46,2,,57,27,64,38,9,8,1.4,0.8
2026-01-12T2300,1338A,112.9448,28.1894,长沙市,湖南师范大学,细颗粒物(PM2.5),79,88,86,58,41,24,,71,30,50,43,15,9,0.8,0.8
2026-01-12T2300,1339A,113.0177,28.1322,长沙市,雨花区环保局,细颗粒物(PM2.5),95,113,83,71,39,0,,70,31,81,36,14,13,1.2,0.7
2026-01-12T2300,1340A,112.9795,28.2593,长沙市,伍家岭,颗粒物(PM10),98,145,104,71,35,2,,34,20,63,57,6,8,1.2,0.8
2026-01-12T2300,1341A,113.002,28.1944,长沙市,火车新站,细颗粒物(PM2.5),117,139,92,88,47,9,,67,29,82,46,12,12,1.4,0.8
2026-01-12T2300,1342A,112.9846,28.1177,长沙市,天心区环保局,细颗粒物(PM2.5),84,85,81,62,41,34,,74,42,44,35,17,11,0.9,0.8
2026-01-12T2300,1343A,112.8906,28.1307,长沙市,湖南中医药大学,细颗粒物(PM2.5),90,116,88,67,43,3,,51,32,75,49,11,10,1.1,0.7
2026-01-12T2300,1727A,113.1146,36.1547,长治市,清华站,颗粒物(PM10),72,94,74,27,25,41,,73,60,32,19,12,12,0.6,0.6
2026-01-12T2300,1730A,113.0887,36.2126,长治市,审计局,颗粒物(PM10),74,98,67,29,27,38,,71,58,32,22,12,10,0.6,0.6
2026-01-12T2300,1731A,113.0845,36.1856,长治市,长治八中,,,,87,,31,25,,71,52,32,17,12,11,0.7,0.7
2026-01-12T2300,2845A,113.1561,36.1912,长治市,德盛苑,颗粒物(PM10),62,73,61,31,27,61,,75,68,18,14,12,9,0.6,0.5
2026-01-12T2300,3568A,113.0603,36.0464,长治市,向阳小学,颗粒物(PM10),92,134,96,36,29,51,,80,68,27,21,13,11,0.4,0.5
2026-01-12T2300,3569A,112.8788,36.315,长治市,屯留一中,颗粒物(PM10),74,98,76,32,25,15,,74,57,55,18,16,10,0.7,0.6
2026-01-12T2300,4189A,113.113092,36.199482,长治市,英华南巷50号,颗粒物(PM10),85,119,78,34,29,36,,75,57,35,30,16,9,0.7,0.6
2026-01-12T2300,4190A,113.23666,36.33435,长治市,学府街1号,颗粒物(PM10),76,102,77,39,30,3,,74,54,66,21,10,9,0.7,0.7
2026-01-12T2300,1854A,111.696,28.9725,常德市,市二中,,,,120,,82,71,,101,85,22,28,6,7,,0.9
2026-01-12T2300,3138A,111.7152,29.0288,常德市,武陵区永安,颗粒物(PM10),80,109,127,52,72,69,,98,83,22,24,5,6,0.8,0.9
2026-01-12T2300,3139A,111.6891,28.9881,常德市,鼎城区玉霞,细颗粒物(PM2.5),120,130,134,91,88,14,,93,66,46,36,8,9,0.9,0.8
2026-01-12T2300,3140A,111.6651,29.0526,常德市,武陵区长庚,细颗粒物(PM2.5),69,85,132,50,82,77,,95,80,14,26,5,6,0.7,0.8
2026-01-12T2300,1196A,119.9524,31.7586,常州市,市监测站,颗粒物(PM10),61,72,79,31,36,37,,49,31,43,50,4,6,0.8,0.7
2026-01-12T2300,1200A,119.9351,31.703,常州市,武进监测站,颗粒物(PM10),56,62,76,31,37,49,,44,33,32,50,10,15,0.3,0.3
2026-01-12T2300,3002A,119.9701,31.813,常州市,行政中心,颗粒物(PM10),61,71,72,29,29,40,,56,50,49,43,10,9,0.7,0.6
2026-01-12T2300,3003A,120.0434,31.7726,常州市,经开区,颗粒物(PM10),62,73,91,27,33,56,,48,36,27,47,13,14,0.4,0.8
2026-01-12T2300,3010A,119.8919,31.7892,常州市,钟楼,颗粒物(PM10),61,72,71,35,30,39,,56,46,42,44,8,11,0.6,0.5
2026-01-12T2300,3429A,119.8595,31.706,常州市,武进经发区,细颗粒物(PM2.5),65,68,80,47,48,58,,56,55,29,47,4,5,0.7,0.6
2026-01-12T2300,3430A,119.5812,31.7256,常州市,金坛城区,颗粒物(PM10),60,69,70,36,33,39,,61,57,30,34,10,10,1.0,0.7
2026-01-12T2300,4089A,119.9551,31.863,常州市,崇义南街5-H号,颗粒物(PM10),60,70,68,41,32,33,,63,52,51,42,7,7,0.8,0.7
2026-01-12T2300,2220A,120.4318,41.588,朝阳市,西梁,,29,26,56,20,20,38,,55,52,34,23,11,8,0.6,0.8
2026-01-12T2300,2221A,120.452,41.565,朝阳市,河畔小区,,23,23,53,9,20,64,,62,62,9,18,6,9,0.4,0.7
2026-01-12T2300,2222A,120.4176,41.5648,朝阳市,八里堡,,31,31,55,19,20,50,,56,55,22,26,8,12,0.5,0.8
2026-01-12T2300,3026A,116.6179,23.6608,潮州市,市政府,颗粒物(PM10),71,92,84,46,36,28,,122,81,38,22,8,10,0.8,0.5
2026-01-12T2300,4036A,116.646,23.676,潮州市,金山,颗粒物(PM10),70,89,77,44,40,38,,124,79,28,18,4,4,0.5,0.4
2026-01-12T2300,2473A,113.0116,25.8228,郴州市,市职中,细颗粒物(PM2.5),84,76,62,62,48,0,,80,42,47,30,6,8,1.0,0.8
2026-01-12T2300,2475A,113.0381,25.8074,郴州市,市审计局,细颗粒物(PM2.5),72,74,63,52,48,4,,83,47,53,34,6,6,/,/
2026-01-12T2300,2476A,113.0348,25.7757,郴州市,市环保局,细颗粒物(PM2.5),89,94,77,66,52,14,,74,41,56,40,6,8,0.9,0.8
2026-01-12T2300,4252A,113.0138,25.8011,郴州市,好美居路49号,细颗粒物(PM2.5),92,77,59,68,48,2,,86,52,66,35,8,8,/,/
2026-01-12T2300,1431A,103.9727,30.7242,成都市,金泉两河,细颗粒物(PM2.5),152,139,163,116,155,1,,94,58,95,55,3,3,2.0,1.3
2026-01-12T2300,1432A,104.1423,30.6765,成都市,十里店,细颗粒物(PM2.5),192,181,172,144,139,10,,112,89,114,56,4,4,1.4,1.1
2026-01-12T2300,1433A,104.0594,30.5765,成都市,三瓦窑,细颗粒物(PM2.5),206,189,185,156,165,1,,106,77,120,70,4,5,1.6,1.4
2026-01-12T2300,1434A,104.1122,30.6306,成都市,沙河铺,细颗粒物(PM2.5),227,204,177,177,161,2,,86,59,101,65,3,3,2.2,1.3
2026-01-12T2300,2880A,104.0219,30.6561,成都市,大石西路,细颗粒物(PM2.5),190,198,184,143,140,1,,92,61,110,58,6,6,2.2,1.4
2026-01-12T2300,3136A,104.2724,30.559,成都市,龙泉驿区区政府,细颗粒物(PM2.5),132,110,139,100,119,97,,116,108,16,32,6,6,0.7,0.9
2026-01-12T2300,3357A,104.0028,30.6891,成都市,金博路,细颗粒物(PM2.5),189,178,168,142,145,0,,96,62,107,59,5,6,2.0,1.4
2026-01-12T2300,3359A,104.056,30.5228,成都市,华阳,细颗粒物(PM2.5),203,185,180,153,142,3,,100,65,118,65,4,4,2.1,1.2
2026-01-12T2300,3488A,104.387954,30.746684,成都市,青石路225号,细颗粒物(PM2.5),147,133,180,112,150,22,,114,63,94,56,4,5,0.8,1
2026-01-12T2300,3489A,104.0788,30.4054,成都市,科学城,细颗粒物(PM2.5),163,146,181,124,156,2,,115,84,76,45,6,6,0.8,0.9
2026-01-12T2300,4011A,103.8505,30.6946,成都市,光华大道三段,细颗粒物(PM2.5),204,179,182,154,157,3,,112,66,82,48,3,4,1.7,0.9
2026-01-12T2300,4144A,104.3257,30.6406,成都市,八角井街185号,细颗粒物(PM2.5),140,136,180,107,142,90,,105,99,19,36,3,3,0.8,1.1
2026-01-12T2300,4224A,104.2433276,30.53529463,成都市,鲸龙路1057号,细颗粒物(PM2.5),163,134,158,124,147,3,,96,62,85,46,6,6,1.0,1
2026-01-12T2300,1062A,117.9531,40.908,承德市,铁路,,25,22,59,3,19,78,,68,68,2,23,4,8,0.2,0.7
2026-01-12T2300,1063A,117.9397,40.9763,承德市,中国银行,,24,8,55,3,18,76,,69,69,1,21,3,4,0.3,0.6
2026-01-12T2300,4073A,117.9462,40.95,承德市,杏林街1号,,25,11,48,3,22,78,,69,69,2,19,4,6,0.2,0.6
2026-01-12T2300,4274A,117.7994,40.9605,承德市,滨河大街98号,,28,,49,19,23,70,,71,71,3,20,3,9,0.2,0.5
2026-01-12T2300,2314A,117.4698,30.6617,池州市,池州学院,颗粒物(PM10),60,69,66,39,34,33,,62,58,44,37,16,8,1.2,1.1
2026-01-12T2300,3237A,117.4918,30.6617,池州市,展览馆,颗粒物(PM10),59,68,64,35,29,40,,64,62,35,35,18,4,1.2,1.2
2026-01-12T2300,3333A,117.5626,30.695,池州市,第八中学,颗粒物(PM10),58,65,66,32,31,46,,69,64,34,33,20,5,0.9,0.9
2026-01-12T2300,3334A,117.5037,30.6242,池州市,第十二中学,颗粒物(PM10),52,53,64,24,28,57,,72,68,30,39,6,4,0.3,1
2026-01-12T2300,1744A,118.9229,42.2816,赤峰市,松山一中,,20,8,48,3,11,63,,62,62,7,20,3,5,0.5,0.7
2026-01-12T2300,1745A,118.9588,42.2733,赤峰市,哈达街,,22,16,48,3,10,68,,66,66,7,18,4,7,0.5,0.7
2026-01-12T2300,1746A,118.8792,42.2551,赤峰市,天义路,,22,9,35,6,17,68,,76,76,4,15,5,6,0.4,0.5
2026-01-12T2300,3058A,119.2656,42.0356,赤峰市,银河街,,32,32,57,8,21,66,,66,66,8,14,15,12,0.7,0.8
2026-01-12T2300,3286A,118.9359,42.3146,赤峰市,桥北物流园区,,24,15,35,3,17,75,,74,74,5,15,4,5,0.3,0.4
2026-01-12T2300,2521A,107.3473,22.4137,崇左市,市环保局江州分局,细颗粒物(PM2.5),83,99,89,61,64,29,,128,93,47,32,7,9,0.9,0.8
2026-01-12T2300,4256A,107.375,22.3736,崇左市,石景林东路7号,细颗粒物(PM2.5),74,68,71,54,57,36,,129,88,47,37,7,8,0.7,0.7
2026-01-12T2300,3207A,118.31131,32.3033,滁州市,市政府原办公楼,细颗粒物(PM2.5),69,82,72,50,34,83,,86,83,19,32,7,8,0.5,0.6
2026-01-12T2300,3331A,118.3268,32.2633,滁州市,图书馆,细颗粒物(PM2.5),69,84,71,50,30,52,,77,67,35,34,10,12,0.5,0.6
2026-01-12T2300,4101A,118.3196,32.3335,滁州市,银山路666号,细颗粒物(PM2.5),94,88,74,70,48,73,,90,86,19,28,16,13,0.4,0.4
2026-01-12T2300,4102A,118.3426,32.2979,滁州市,黄山路555号,细颗粒物(PM2.5),94,104,91,70,48,64,,87,75,30,35,11,14,0.8,0.8
2026-01-12T2300,2606A,101.5379,25.0492,楚雄彝族自治州,市经济开发区,细颗粒物(PM2.5),60,67,30,43,23,9,,77,47,50,21,8,4,1.0,0.8
2026-01-12T2300,4153A,101.5536,25.0343,楚雄彝族自治州,团结路562号,,,54,33,36,22,8,,79,52,,14,4,6,1.0,0.6
2026-01-12T2300,2549A,107.5087,31.2186,达州市,市环境监测站,细颗粒物(PM2.5),170,157,161,129,131,6,,59,40,62,53,6,7,0.9,1.1
2026-01-12T2300,2550A,107.4988,31.2132,达州市,凤凰小区,细颗粒物(PM2.5),170,171,176,129,133,4,,56,35,60,49,4,6,1.0,1.2
2026-01-12T2300,2551A,107.5081,31.1987,达州市,达县机关宾馆,细颗粒物(PM2.5),166,173,186,126,134,2,,37,16,58,56,3,4,1.0,1.3
2026-01-12T2300,2552A,107.4644,31.2124,达州市,市政中心,细颗粒物(PM2.5),168,177,184,127,130,5,,62,33,72,56,6,8,1.2,1.2
2026-01-12T2300,2614A,100.2168,25.5818,大理白族自治州,大理市环境监测站,,49,,22,34,21,12,,66,49,56,15,7,6,0.7,0.6
2026-01-12T2300,2615A,100.1542,25.7055,大理白族自治州,大理古城,,43,43,21,25,16,33,,79,58,30,11,8,8,0.7,0.5
2026-01-12T2300,1109A,121.6119,38.974,大连市,甘井子,颗粒物(PM10),69,88,57,48,29,32,,64,41,37,24,15,11,0.5,0.2
2026-01-12T2300,1110A,121.565,38.9509,大连市,周水子,"颗粒物(PM10),细颗粒物(PM2.5)",65,79,49,47,29,20,,57,33,45,26,3,3,0.8,0.5
2026-01-12T2300,1111A,121.5637,38.8849,大连市,星海三站,细颗粒物(PM2.5),63,73,45,45,28,28,,60,40,33,22,11,9,1.0,0.6
2026-01-12T2300,1112A,121.6301,38.9117,大连市,青泥洼桥,颗粒物(PM10),68,86,58,46,28,35,,61,35,30,20,12,10,0.8,0.6
2026-01-12T2300,1113A,121.6248,38.8643,大连市,傅家庄,颗粒物(PM10),63,75,52,37,28,36,,58,37,30,22,14,11,0.6,0.4
2026-01-12T2300,1114A,121.5117,38.8636,大连市,七贤岭,颗粒物(PM10),64,77,46,42,24,34,,59,43,30,17,12,9,1.2,0.8
2026-01-12T2300,1116A,121.7507,39.1339,大连市,金州,细颗粒物(PM2.5),70,84,56,51,32,24,,58,39,43,28,15,11,0.9,0.5
2026-01-12T2300,1117A,121.7811,39.0495,大连市,开发区,颗粒物(PM10),56,62,45,28,28,51,,52,38,16,24,6,5,0.6,0.6
2026-01-12T2300,1118A,121.9762,39.0631,大连市,双D港,颗粒物(PM10),69,88,58,33,23,48,,68,49,25,21,12,9,0.7,0.4
2026-01-12T2300,4082A,121.2548,38.8188,大连市,旅顺,颗粒物(PM10),70,90,57,44,28,39,,56,41,19,15,9,7,0.7,0.7
2026-01-12T2300,1789A,124.8085,46.0381,大庆市,大同区,细颗粒物(PM2.5),90,85,63,67,45,31,,44,31,27,23,7,10,0.8,0.7
2026-01-12T2300,1790A,125.1166,46.5255,大庆市,龙凤区,细颗粒物(PM2.5),85,81,66,63,39,19,,35,17,44,37,7,8,1.1,0.8
2026-01-12T2300,1791A,124.8894,46.4007,大庆市,红岗区,颗粒物(PM10),67,84,50,46,37,25,,37,26,25,23,4,6,0.7,0.6
2026-01-12T2300,1792A,125.1391,46.578,大庆市,萨尔图区,细颗粒物(PM2.5),109,98,74,82,54,15,,29,14,40,29,8,9,0.9,0.7
2026-01-12T2300,1793A,124.9026,46.6217,大庆市,让胡路区,细颗粒物(PM2.5),100,86,58,75,52,35,,44,31,26,24,6,7,0.8,0.7
2026-01-12T2300,3481A,125.127,46.6277,大庆市,萨区政府监测点,细颗粒物(PM2.5),119,115,79,90,53,8,,32,13,51,32,8,9,1.0,0.7
2026-01-12T2300,1723A,113.2926,40.0759,大同市,云冈宾馆,颗粒物(PM10),95,140,92,28,20,30,,66,53,33,19,9,7,0.7,0.5
2026-01-12T2300,1724A,113.3437,40.0921,大同市,大同大学,颗粒物(PM10),67,83,75,28,23,33,,72,52,35,18,16,5,1.0,0.6
2026-01-12T2300,1725A,113.2637,40.129,大同市,安家小村,颗粒物(PM10),80,109,74,45,20,31,,72,62,40,16,11,6,0.9,0.4
2026-01-12T2300,3282A,113.3399,40.0586,大同市,大同市卫生学校,细颗粒物(PM2.5),132,124,88,100,33,32,,67,56,39,19,6,5,0.5,0.4
2026-01-12T2300,3565A,113.1371,40.1122,大同市,云冈站,细颗粒物(PM2.5),80,93,79,59,24,0,,68,42,58,17,6,6,0.7,0.5
2026-01-12T2300,3566A,113.1186,40.2556,大同市,图书馆,颗粒物(PM10),54,57,69,26,26,34,,72,54,12,12,5,7,0.6,0.5
2026-01-12T2300,3567A,113.5931,40.0459,大同市,区一中,颗粒物(PM10),66,81,87,34,23,42,,79,61,25,19,10,9,0.9,0.5
2026-01-12T2300,4199A,113.2798248,40.09972476,大同市,魏都大道141号,颗粒物(PM10),81,112,91,42,21,10,,68,48,59,21,9,6,1.1,0.6
2026-01-12T2300,2269A,124.1068,50.4091,大兴安岭地区,科技局,,40,40,42,24,25,32,,35,34,13,15,5,8,0.5,0.4
2026-01-12T2300,3663A,124.117,50.4279,大兴安岭地区,红旗社区,细颗粒物(PM2.5),62,44,31,44,27,14,,46,28,36,17,8,9,0.8,0.5
2026-01-12T2300,1600A,124.33,40.0625,丹东市,江湾东路,,48,46,43,33,32,37,,46,36,24,20,9,14,0.7,1
2026-01-12T2300,1601A,124.4242,40.1513,丹东市,临江后街,,46,44,46,32,29,35,,43,37,18,23,6,9,0.8,0.8
2026-01-12T2300,1602A,124.3935,40.1461,丹东市,元宝山,,42,38,40,29,28,31,,44,38,25,18,9,9,0.8,0.7
2026-01-12T2300,1603A,124.3634,40.1093,丹东市,民主桥,,46,46,50,25,28,36,,36,34,20,28,11,10,0.8,0.9
2026-01-12T2300,3541A,109.5726195,19.51688767,儋州市,第一中学子站,颗粒物(PM10),58,66,43,28,21,82,,93,91,4,6,3,4,0.6,0.5
2026-01-12T2300,3542A,109.5567,19.5187,儋州市,东坡学校子站,颗粒物(PM10),56,61,40,27,24,93,,104,102,5,6,4,4,0.5,0.5
2026-01-12T2300,2616A,98.5611,24.4273,德宏傣族景颇族自治州,德宏州监测站,细颗粒物(PM2.5),54,53,58,38,43,49,,87,66,20,23,6,6,0.7,0.7
2026-01-12T2300,3677A,98.5887,24.4366,德宏傣族景颇族自治州,芒市人民政府综合楼,颗粒物(PM10),54,58,57,30,36,40,,76,63,13,18,4,4,0.7,0.8
2026-01-12T2300,1901A,104.424,31.1209,德阳市,东山公园,细颗粒物(PM2.5),176,137,149,133,141,98,,118,117,26,30,4,5,1.0,1.1
2026-01-12T2300,1902A,104.3827,31.1318,德阳市,西小区,细颗粒物(PM2.5),202,197,189,152,151,2,,87,51,101,64,5,5,1.7,1.5
2026-01-12T2300,1904A,104.3553,31.1091,德阳市,耐火材料厂,细颗粒物(PM2.5),214,201,167,164,152,5,,92,66,96,58,3,3,1.5,1.2
2026-01-12T2300,4145A,104.4144,31.1495,德阳市,市林业局,细颗粒物(PM2.5),186,146,164,140,154,7,,48,42,82,58,3,4,1.3,1.5
2026-01-12T2300,1622A,116.3034,37.4675,德州市,儿童乐园,颗粒物(PM10),93,136,107,61,38,20,,49,32,50,32,17,14,1.1,0.8
2026-01-12T2300,1624A,116.2992,37.4449,德州市,监理站,颗粒物(PM10),91,132,99,61,35,18,,54,30,68,41,17,15,1.1,0.8
2026-01-12T2300,3066A,116.2722,37.438,德州市,九衢泉纯净水厂,颗粒物(PM10),95,139,99,68,39,7,,47,22,76,44,22,18,1.1,0.8
2026-01-12T2300,3371A,116.3693,37.44,德州市,开发区人民医院,颗粒物(PM10),92,134,101,56,36,15,,58,35,75,41,16,14,1.1,0.8
2026-01-12T2300,3511A,116.5687,37.3331,德州市,陵城艺术中心,细颗粒物(PM2.5),110,161,111,83,44,0,,48,20,76,42,28,20,1.3,0.8
2026-01-12T2300,4292A,116.352738,37.420875,德州市,新河东路,颗粒物(PM10),92,134,98,66,39,6,,49,24,84,46,18,16,0.9,0.9
2026-01-12T2300,2621A,99.7054,27.8319,迪庆藏族自治州,迪庆州站,,46,40,31,32,20,45,,76,63,21,12,5,5,0.9,0.6
2026-01-12T2300,3180A,99.7122,27.8129,迪庆藏族自治州,质量技术监督局,颗粒物(PM10),51,51,30,35,17,40,,84,67,29,15,4,4,1.1,0.6
2026-01-12T2300,4257A,104.6092,35.5962,定西市,将台街,颗粒物(PM10),63,76,71,41,44,11,,71,44,48,33,22,18,1.0,0.9
2026-01-12T2300,4309A,104.6159,35.5701,定西市,正龙路62号,颗粒物(PM10),60,70,77,34,46,19,,70,49,22,17,24,17,1.2,0.9
2026-01-12T2300,1390A,113.7943,23.0132,东莞市,东城石井,颗粒物(PM10),72,94,81,50,42,44,,144,108,83,60,7,8,0.6,0.6
2026-01-12T2300,1391A,113.7384,22.9659,东莞市,南城西平,颗粒物(PM10),78,106,92,53,51,79,,140,116,56,74,11,11,0.7,0.7
2026-01-12T2300,3319A,113.7283,23.041,东莞市,万江金泰,细颗粒物(PM2.5),122,174,97,92,52,,,131,,137,76,6,9,2.2,1
2026-01-12T2300,4129A,113.8666,23.1062,东莞市,裕兴路,颗粒物(PM10),111,171,96,76,43,8,,138,63,135,70,8,13,1.3,0.9
2026-01-12T2300,4130A,114.0076,22.9739,东莞市,教育路1号,细颗粒物(PM2.5),130,199,111,99,54,4,,164,90,149,74,8,6,1.3,0.7
2026-01-12T2300,4131A,113.7981,22.8124,东莞市,长怡路1号,颗粒物(PM10),78,105,94,54,45,41,,144,96,81,72,8,9,0.9,0.7
2026-01-12T2300,1666A,118.6612,37.4313,东营市,市环保局,细颗粒物(PM2.5),89,114,86,66,40,4,,46,19,73,45,16,20,1.3,1
2026-01-12T2300,3036A,118.6903,37.4337,东营市,开发区管委会,,,105,90,58,39,,,50,27,71,42,16,20,0.8,0.8
2026-01-12T2300,3365A,118.5721,37.5654,东营市,垦利区民丰路,颗粒物(PM10),91,132,89,66,40,2,,48,24,71,44,10,9,1.0,0.8
2026-01-12T2300,3498A,118.5063,37.8606,东营市,河口城区,颗粒物(PM10),89,127,89,63,39,13,,54,31,59,40,11,7,1.0,1
2026-01-12T2300,3646A,118.4979,37.4623,东营市,胜利站,,,84,74,66,40,,,43,21,70,48,17,18,1.3,0.8
2026-01-12T2300,3734A,118.5753,37.4405,东营市,理想之城,细颗粒物(PM2.5),94,124,83,70,44,2,,46,19,71,47,10,12,1.3,1
2026-01-12T2300,1591A,110.0024,39.8127,鄂尔多斯市,综合楼,颗粒物(PM10),67,83,116,27,33,66,,74,65,11,9,4,4,0.4,0.4
2026-01-12T2300,1592A,109.9485,39.8259,鄂尔多斯市,巴音孟克林场办事处,颗粒物(PM10),79,107,149,24,36,66,,76,66,12,8,5,5,0.3,0.3
2026-01-12T2300,1593A,109.7734,39.5987,鄂尔多斯市,康泽苑,颗粒物(PM10),73,95,168,31,41,60,,78,69,13,7,5,5,0.3,0.3
2026-01-12T2300,1594A,109.8121,39.5987,鄂尔多斯市,华泰汽车城,颗粒物(PM10),78,105,166,27,38,53,,79,66,18,9,3,3,0.4,0.3
2026-01-12T2300,1595A,109.9734,39.7884,鄂尔多斯市,奥林花园,颗粒物(PM10),82,114,154,24,31,57,,71,62,18,14,4,5,0.3,0.4
2026-01-12T2300,2436A,114.894,30.3989,鄂州市,市政府,细颗粒物(PM2.5),99,107,68,74,38,17,,71,55,60,35,6,8,1.3,0.8
2026-01-12T2300,2437A,114.8986,30.3714,鄂州市,赵家坝,细颗粒物(PM2.5),94,118,74,70,39,20,,93,70,59,23,9,10,0.9,0.8
2026-01-12T2300,3654A,114.8093,30.4091,鄂州市,精准医疗中心,细颗粒物(PM2.5),99,100,73,74,44,68,,97,90,45,37,5,10,0.5,0.9
2026-01-12T2300,2454A,109.4978,30.2979,恩施土家族苗族自治州,湖北民院,细颗粒物(PM2.5),138,,55,105,51,13,,92,62,40,20,6,6,1.4,0.9
2026-01-12T2300,3549A,109.5061,30.3771,恩施土家族苗族自治州,龙凤新区,细颗粒物(PM2.5),104,99,72,78,59,24,,84,54,19,15,7,7,0.6,0.4
2026-01-12T2300,2499A,108.3411,21.6159,防城港市,沙万,颗粒物(PM10),59,67,76,28,35,67,,111,82,29,32,17,14,0.8,0.8
2026-01-12T2300,2500A,108.3515,21.7733,防城港市,防城档案局,颗粒物(PM10),74,98,94,51,52,9,,130,76,50,32,5,7,0.9,0.8
2026-01-12T2300,2501A,108.3506,21.6414,防城港市,大海花园,颗粒物(PM10),51,51,65,31,36,104,,131,104,19,27,37,16,0.8,0.9
2026-01-12T2300,1371A,113.1293,23.0065,佛山市,湾梁,颗粒物(PM10),73,95,91,48,55,22,,126,97,81,82,/,/,/,/
2026-01-12T2300,1372A,113.1082,23.0477,佛山市,华材职中,颗粒物(PM10),113,175,123,63,61,6,,113,75,132,91,7,9,1.2,0.9
2026-01-12T2300,1373A,113.1439,23.045,佛山市,南海气象局,细颗粒物(PM2.5),87,93,93,64,57,32,,124,99,96,79,/,/,/,/
2026-01-12T2300,1374A,113.2879,22.8094,佛山市,顺德苏岗,细颗粒物(PM2.5),85,87,77,63,50,35,,137,99,66,66,/,/,1.1,0.9
2026-01-12T2300,1376A,112.8384,22.8678,佛山市,高明孔堂,细颗粒物(PM2.5),58,60,66,41,44,89,,138,125,26,44,/,/,/,/
2026-01-12T2300,1377A,112.8835,23.1584,佛山市,三水监测站,颗粒物(PM10),96,141,108,64,62,2,,107,61,135,81,6,16,1.1,0.9
2026-01-12T2300,1378A,112.8668,23.185,佛山市,三水云东海,颗粒物(PM10),92,133,95,62,62,0,,124,91,126,66,/,/,/,/
2026-01-12T2300,3625A,113.2568,22.7629,佛山市,容桂街道办,细颗粒物(PM2.5),117,134,97,88,56,51,,139,115,94,74,/,/,/,/
2026-01-12T2300,1282A,119.2681,26.0506,福州市,师大,颗粒物(PM10),60,70,75,26,20,44,,91,70,52,29,5,4,0.6,0.5
2026-01-12T2300,1283A,119.2983,26.1028,福州市,五四北路,颗粒物(PM10),58,66,71,32,21,5,,89,52,77,29,4,5,0.9,0.7
2026-01-12T2300,1284A,119.2648,26.0769,福州市,杨桥西路,颗粒物(PM10),62,74,71,35,20,28,,93,68,51,22,5,5,/,/
2026-01-12T2300,3048A,119.5799,26.0937,福州市,九龙,,38,38,58,16,13,45,,97,84,30,18,4,5,0.6,0.6
2026-01-12T2300,3526A,119.5188,25.9666,福州市,吴航,,43,43,70,14,20,53,,89,76,26,28,4,7,0.7,0.6
2026-01-12T2300,4104A,119.3106,26.0648,福州市,路通桥巷6号,颗粒物(PM10),60,70,68,30,23,36,,89,67,47,20,/,/,/,/
2026-01-12T2300,1755A,123.7974,41.8494,抚顺市,望花区,细颗粒物(PM2.5),62,68,49,44,26,11,,53,40,53,26,8,9,0.9,0.8
2026-01-12T2300,1756A,123.9161,41.8827,抚顺市,顺城区,细颗粒物(PM2.5),70,78,45,51,25,7,,52,31,54,31,7,9,1.1,0.8
2026-01-12T2300,1757A,124.0437,41.8615,抚顺市,东洲区,细颗粒物(PM2.5),69,55,44,50,22,10,,56,43,53,21,12,16,1.1,0.9
2026-01-12T2300,1758A,123.9246,41.8638,抚顺市,新抚区,细颗粒物(PM2.5),65,68,45,47,26,12,,57,39,58,27,6,8,1.0,0.8
2026-01-12T2300,1759A,124.0972,41.8961,抚顺市,大伙房水库,,44,44,36,21,16,20,,57,42,44,16,11,12,0.8,0.8
2026-01-12T2300,1760A,123.708,41.8386,抚顺市,沈抚新城,颗粒物(PM10),62,73,43,29,23,10,,56,43,58,22,10,9,1.1,1
2026-01-12T2300,2377A,116.3544,27.9833,抚州市,市站,细颗粒物(PM2.5),113,134,88,85,49,6,,64,23,52,32,10,13,0.9,0.5
2026-01-12T2300,2378A,116.3562,27.9631,抚州市,血防站,细颗粒物(PM2.5),108,124,82,81,46,4,,58,21,69,45,8,11,1.7,1.3
2026-01-12T2300,2379A,116.3561,28.0007,抚州市,采茶剧团,细颗粒物(PM2.5),113,129,99,85,50,1,,62,24,52,33,7,10,1.3,1
2026-01-12T2300,2380A,116.3854,27.9648,抚州市,医学分院,细颗粒物(PM2.5),102,148,94,76,45,6,,68,25,44,27,4,8,1.5,0.9
2026-01-12T2300,2207A,121.6095,41.9978,阜新市,工业园区,,27,27,63,7,29,68,,62,61,4,22,7,17,0.4,0.7
2026-01-12T2300,2208A,121.6567,42.0188,阜新市,长青街,,20,9,45,7,18,64,,66,65,6,18,7,12,0.3,0.5
2026-01-12T2300,2209A,121.6672,42.07,阜新市,农业园区,,19,10,50,9,19,59,,63,62,6,16,6,14,0.3,0.5
2026-01-12T2300,2211A,121.6343,42.0455,阜新市,玉龙新城,,20,20,58,6,23,52,,58,55,18,24,6,14,0.3,0.6
2026-01-12T2300,2301A,115.8276,32.8929,阜阳市,市监测站,"颗粒物(PM10),细颗粒物(PM2.5)",73,95,81,53,41,70,,83,77,26,23,5,6,0.5,0.4
2026-01-12T2300,2303A,115.8551,32.8606,阜阳市,开发区,细颗粒物(PM2.5),84,102,85,62,36,66,,79,71,31,26,6,6,0.5,0.4
2026-01-12T2300,2875A,115.783962,32.889217,阜阳市,阜阳职业技术学院,颗粒物(PM10),80,109,90,56,37,61,,85,76,33,20,8,8,0.6,0.5
2026-01-12T2300,3468A,115.79,32.8614,阜阳市,市规划展馆,细颗粒物(PM2.5),88,102,90,65,45,75,,90,82,22,20,7,7,0.7,0.6
2026-01-12T2300,3469A,115.835101,32.918568,阜阳市,枣园社区,"颗粒物(PM10),细颗粒物(PM2.5)",77,103,87,56,42,76,,84,79,22,23,5,5,0.5,0.5
2026-01-12T2300,2669A,102.9097,34.9841,甘南藏族自治州,州政府,颗粒物(PM10),60,69,56,39,31,6,,88,44,54,37,14,9,1.5,1.1
2026-01-12T2300,3380A,102.8915,34.9618,甘南藏族自治州,甘肃民族师范学院,颗粒物(PM10),69,87,53,29,14,12,,81,49,50,31,14,12,0.8,0.7
2026-01-12T2300,2570A,101.96,30.048,甘孜藏族自治州,水桥子,,42,42,25,3,9,21,,81,49,46,25,5,6,0.6,0.5
2026-01-12T2300,3065A,101.9534,29.9976,甘孜藏族自治州,州环保局,,19,12,28,3,7,59,,86,55,11,17,5,5,0.4,0.4
2026-01-12T2300,2363A,114.9368,25.8663,赣州市,地委,颗粒物(PM10),63,75,59,40,35,4,,109,71,77,45,8,9,0.9,0.9
2026-01-12T2300,2364A,114.946,25.8483,赣州市,气象台,颗粒物(PM10),81,111,80,46,32,4,,96,56,101,63,4,5,1.0,0.7
2026-01-12T2300,2365A,114.932,25.8332,赣州市,市图书馆,颗粒物(PM10),82,113,73,50,37,2,,83,52,93,56,5,6,1.2,0.9
2026-01-12T2300,2366A,114.8905,25.8472,赣州市,华坚鞋城,颗粒物(PM10),80,110,75,49,38,8,,102,54,100,49,8,13,0.9,0.5
2026-01-12T2300,3109A,115.0094,25.8614,赣州市,赣县区卫计委,细颗粒物(PM2.5),84,81,65,62,48,16,,96,60,52,38,8,7,0.9,0.7
2026-01-12T2300,2684A,106.2753,36.0057,固原市,监测站,颗粒物(PM10),57,64,42,33,13,23,,78,61,53,13,14,5,1.3,0.5
2026-01-12T2300,2685A,106.2384,36.0189,固原市,新区,,29,29,38,19,8,57,,80,72,27,8,4,3,0.4,0.3
2026-01-12T2300,2544A,106.6307,30.4577,广安市,市委,细颗粒物(PM2.5),217,187,200,167,194,4,,66,41,65,35,9,9,1.6,1.4
2026-01-12T2300,2545A,106.6266,30.4662,广安市,友谊中学,细颗粒物(PM2.5),198,169,189,148,175,8,,80,53,48,31,6,7,1.4,1.2
2026-01-12T2300,2547A,106.6386,30.4551,广安市,广电花园,细颗粒物(PM2.5),237,192,194,187,188,5,,74,49,62,33,9,9,1.5,1.1
2026-01-12T2300,2902A,106.6347,30.4868,广安市,北辰小学,细颗粒物(PM2.5),196,158,177,147,167,20,,86,64,32,27,1,12,1.3,1.3
2026-01-12T2300,2524A,105.8211,32.4444,广元市,老城,细颗粒物(PM2.5),88,108,106,65,89,5,,67,37,77,54,19,21,1.1,1.4
2026-01-12T2300,2526A,105.8629,32.429,广元市,监测站,细颗粒物(PM2.5),89,98,107,66,85,8,,66,38,64,50,4,11,1.3,1.5
2026-01-12T2300,3617A,105.8047,32.4167,广元市,经开区,细颗粒物(PM2.5),84,96,118,62,87,1,,64,29,71,50,3,10,1.2,1.4
2026-01-12T2300,1345A,113.2346,23.1423,广州市,广雅中学,细颗粒物(PM2.5),120,169,123,91,64,1,,110,64,156,93,4,5,1.9,1.3
2026-01-12T2300,1346A,113.2611,23.105,广州市,市五中,细颗粒物(PM2.5),125,141,106,95,67,4,,126,86,171,102,10,11,/,/
2026-01-12T2300,1348A,113.3477,23.0916,广州市,广东商学院,细颗粒物(PM2.5),144,150,105,110,65,3,,114,65,148,90,8,8,1.3,0.7
2026-01-12T2300,1349A,113.4332,23.105,广州市,市八十六中,细颗粒物(PM2.5),107,104,82,80,56,2,,118,71,156,93,9,10,/,/
2026-01-12T2300,1350A,113.3506,22.9488,广州市,番禺中学,细颗粒物(PM2.5),137,188,111,104,63,6,,125,73,111,86,3,5,1.6,0.9
2026-01-12T2300,1351A,113.2147,23.3918,广州市,花都师范,细颗粒物(PM2.5),97,132,92,72,50,3,,135,91,139,83,6,9,1.5,0.8
2026-01-12T2300,1352A,113.2599,23.1329,广州市,市监测站,细颗粒物(PM2.5),104,131,104,78,44,5,,113,73,146,99,3,3,/,/
2026-01-12T2300,1353A,113.5618,23.3119,广州市,九龙镇镇龙,颗粒物(PM10),86,122,84,58,42,3,,107,65,98,60,5,6,0.7,0.5
2026-01-12T2300,1354A,113.2764,23.1544,广州市,麓湖,细颗粒物(PM2.5),75,91,86,55,54,4,,111,68,135,91,10,10,0.6,0.7
2026-01-12T2300,2846A,113.3209,23.1323,广州市,体育西,细颗粒物(PM2.5),112,134,98,84,57,3,,109,77,154,87,8,8,1.4,0.8
2026-01-12T2300,3298A,113.5718,23.5493,广州市,从化街口,细颗粒物(PM2.5),70,85,65,51,42,12,,120,73,86,54,11,12,0.8,0.6
2026-01-12T2300,3299A,113.3463,23.369,广州市,白云竹料,"颗粒物(PM10),细颗粒物(PM2.5)",104,158,93,78,50,4,,137,87,115,65,5,6,1.4,0.7
2026-01-12T2300,3300A,113.2981,23.2365,广州市,白云嘉禾,细颗粒物(PM2.5),107,158,103,80,52,3,,127,69,131,91,8,7,/,/
2026-01-12T2300,3301A,113.4256,23.1716,广州市,黄埔科学城,颗粒物(PM10),67,84,77,46,44,16,,136,97,92,63,7,7,1.0,0.7
2026-01-12T2300,3302A,113.3942,23.0485,广州市,番禺大学城,细颗粒物(PM2.5),107,143,89,80,53,4,,134,97,175,83,13,12,1.0,0.6
2026-01-12T2300,3303A,113.4923,22.8169,广州市,南沙黄阁,细颗粒物(PM2.5),90,128,94,67,48,28,,134,83,106,82,8,8,/,/
2026-01-12T2300,3304A,113.534,22.7893,广州市,南沙街,颗粒物(PM10),66,81,76,47,41,121,,151,134,41,57,6,6,0.5,0.5
2026-01-12T2300,3443A,113.2905,23.5541,广州市,花都梯面,颗粒物(PM10),51,52,57,26,30,5,,121,58,78,54,5,8,/,/
2026-01-12T2300,3445A,113.786,23.7479,广州市,从化良口,,35,34,32,24,23,87,,118,106,17,21,10,9,/,/
2026-01-12T2300,3446A,113.805,23.2614,广州市,增城荔城,颗粒物(PM10),60,70,51,35,30,29,,121,86,59,32,6,9,0.8,0.6
2026-01-12T2300,2506A,109.604387,23.066791,贵港市,江南子站,细颗粒物(PM2.5),75,90,102,55,58,87,,136,125,35,43,9,13,0.7,0.8
2026-01-12T2300,2508A,109.5669,23.1065,贵港市,荷城子站,"颗粒物(PM10),细颗粒物(PM2.5)",64,78,75,46,44,92,,116,109,24,39,9,12,0.9,0.9
2026-01-12T2300,3405A,109.5886,23.1172,贵港市,新世纪学校,颗粒物(PM10),65,80,79,46,46,103,,127,120,18,34,/,/,0.4,0.5
2026-01-12T2300,4260A,109.5933,23.095,贵港市,中山路155-3号,细颗粒物(PM2.5),72,67,74,52,56,113,,136,130,21,37,/,/,0.5,0.7
2026-01-12T2300,1439A,106.6863,26.6035,贵阳市,马鞍山,细颗粒物(PM2.5),92,78,46,68,40,11,,63,48,26,17,5,7,/,/
2026-01-12T2300,1441A,106.6241,26.6266,贵阳市,鉴湖路,细颗粒物(PM2.5),83,85,50,61,34,32,,77,64,40,18,6,6,1.0,0.6
2026-01-12T2300,1442A,106.7468,26.6344,贵阳市,燕子冲,细颗粒物(PM2.5),79,61,52,58,48,39,,63,57,17,20,6,9,0.7,0.7
2026-01-12T2300,1443A,106.6556,26.4362,贵阳市,碧云窝,细颗粒物(PM2.5),100,97,58,75,39,30,,90,71,23,18,9,12,/,/
2026-01-12T2300,1445A,106.6963,26.6063,贵阳市,红边门,细颗粒物(PM2.5),85,83,56,63,44,16,,48,39,50,31,50,17,/,/
2026-01-12T2300,1446A,106.7162383,26.56964667,贵阳市,新华路,细颗粒物(PM2.5),98,119,59,73,39,4,,59,48,62,27,17,11,1.3,0.7
2026-01-12T2300,1447A,106.6742,26.542,贵阳市,太慈桥,细颗粒物(PM2.5),70,68,45,51,34,40,,64,60,34,25,3,5,/,/
2026-01-12T2300,4230A,106.688212,26.56952,贵阳市,花果园大街66号,细颗粒物(PM2.5),114,,42,86,48,22,,62,48,50,22,10,6,/,/
2026-01-12T2300,4231A,106.687268,26.516892,贵阳市,漓江路57号,细颗粒物(PM2.5),92,88,51,68,37,11,,63,56,56,27,31,12,1.4,1
2026-01-12T2300,1864A,110.3091,25.2705,桂林市,龙隐路小学,细颗粒物(PM2.5),140,128,82,107,72,6,,71,38,65,32,8,13,1.1,0.8
2026-01-12T2300,1865A,110.2849361,25.22909545,桂林市,八中,细颗粒物(PM2.5),153,135,92,117,77,11,,64,39,58,43,10,13,1.0,0.7
2026-01-12T2300,3531A,110.296,25.1254,桂林市,旅游学院,细颗粒物(PM2.5),138,136,82,105,58,7,,81,50,60,35,7,7,0.8,0.4
2026-01-12T2300,4222A,110.1835,25.2444,桂林市,环湖路276号,细颗粒物(PM2.5),125,134,97,95,71,3,,66,36,72,52,61,40,1.0,0.8
2026-01-12T2300,4301A,110.2803,25.2773,桂林市,信义路13号,细颗粒物(PM2.5),114,108,82,86,62,2,,68,38,75,40,9,15,1.3,0.8
2026-01-12T2300,2674A,100.2262,34.4854,果洛藏族自治州,玛沁县大武镇,颗粒物(PM10),51,51,41,23,13,42,,88,73,13,7,14,14,0.5,0.5
2026-01-12T2300,1130A,126.5557,45.8109,哈尔滨市,松北商大,细颗粒物(PM2.5),99,82,65,74,54,6,,34,10,55,42,7,9,1.0,0.8
2026-01-12T2300,1132A,126.6162,45.719,哈尔滨市,南岗学府路,,,,55,,38,,,46,,,27,,11,,0.9
2026-01-12T2300,1133A,126.6894,45.7733,哈尔滨市,太平宏伟公园,细颗粒物(PM2.5),80,72,70,59,53,21,,35,22,38,34,14,13,0.9,0.8
2026-01-12T2300,1134A,126.6361,45.7672,哈尔滨市,道外承德广场,细颗粒物(PM2.5),90,110,85,67,50,20,,40,22,44,38,10,11,0.8,0.7
2026-01-12T2300,1136A,126.644,45.7261,哈尔滨市,动力和平路,细颗粒物(PM2.5),83,88,66,61,46,18,,41,30,36,29,11,11,1.0,1
2026-01-12T2300,1137A,126.5933,45.7479,哈尔滨市,道里建国路,细颗粒物(PM2.5),97,73,58,72,52,21,,38,25,33,34,14,14,0.8,0.6
2026-01-12T2300,1138A,126.6127,45.6119,哈尔滨市,平房东轻厂,细颗粒物(PM2.5),93,102,64,69,46,8,,47,17,58,31,18,8,1.1,0.8
2026-01-12T2300,1139A,126.5875,45.9827,哈尔滨市,呼兰师专,细颗粒物(PM2.5),166,134,83,126,80,7,,34,19,54,37,10,9,1.3,1
2026-01-12T2300,1140A,126.6299,45.6799,哈尔滨市,省农科院,细颗粒物(PM2.5),127,113,67,96,53,8,,40,23,60,40,14,12,1.2,0.6
2026-01-12T2300,4282A,126.6769,45.7379,哈尔滨市,华山路1号,细颗粒物(PM2.5),77,75,57,56,44,23,,37,25,36,33,22,23,0.9,0.8
2026-01-12T2300,4283A,126.9717,45.5356,哈尔滨市,解放大街52号,细颗粒物(PM2.5),93,70,48,69,41,28,,55,36,32,20,15,12,1.0,0.7
2026-01-12T2300,2688A,93.5124,42.8176,哈密市,地区监测站,细颗粒物(PM2.5),104,125,138,78,70,30,,36,29,26,26,3,3,0.6,1.1
2026-01-12T2300,2689A,93.5014,42.8312,哈密市,哈密师范学校,颗粒物(PM10),89,127,140,62,52,16,,29,24,42,40,5,6,1.1,1.1
2026-01-12T2300,2671A,100.9016,36.9464,海北藏族自治州,海晏县西海镇,,21,21,18,9,11,52,,84,71,5,2,8,7,0.3,0.3
2026-01-12T2300,3867A,102.074,36.5056,海东市,平安区公安局北苑,,43,43,42,12,23,2,,63,49,63,20,12,13,1.2,0.9
2026-01-12T2300,4163A,102.0984,36.5119,海东市,滨河路,,40,40,42,19,23,0,,60,33,67,37,7,11,0.7,0.8
2026-01-12T2300,1410A,110.3189,20.0596,海口市,海南大学,颗粒物(PM10),57,64,49,27,22,141,,148,144,11,10,6,6,0.3,0.3
2026-01-12T2300,1411A,110.2827,20.0051,海口市,秀英海南医院,颗粒物(PM10),57,64,50,24,22,121,,122,120,9,18,7,8,0.4,0.4
2026-01-12T2300,1412A,110.3391,19.9979,海口市,海南师范大学,颗粒物(PM10),57,63,51,26,23,126,,134,130,11,16,6,6,0.4,0.4
2026-01-12T2300,1413A,110.3303,20.0359,海口市,龙华路环保局宿舍,颗粒物(PM10),56,62,48,26,23,126,,136,131,12,14,/,/,0.7,0.6
2026-01-12T2300,3539A,110.5111,19.9737,海口市,桂林洋子站,颗粒物(PM10),57,64,54,30,25,105,,126,113,11,17,/,/,/,/
2026-01-12T2300,4134A,110.1952,20.0451,海口市,长滨二路9号,颗粒物(PM10),52,53,42,26,22,122,,126,124,8,11,/,/,/,/
2026-01-12T2300,2673A,100.6158,36.2985,海南藏族自治州,共和县恰卜恰镇,,43,38,36,30,17,28,,86,48,26,24,17,12,0.5,0.6
2026-01-12T2300,2676A,97.373,37.376,海西蒙古族藏族自治州,德令哈市,,21,14,23,14,8,67,,79,72,3,9,12,15,0.4,0.7
2026-01-12T2300,1049A,114.492,36.5712,邯郸市,矿院,细颗粒物(PM2.5),110,108,83,83,60,3,,44,30,69,46,6,9,1.2,1
2026-01-12T2300,1050A,114.4839,36.6136,邯郸市,丛台公园,细颗粒物(PM2.5),107,118,90,80,57,8,,37,24,67,46,8,10,1.1,1.1
2026-01-12T2300,3458A,114.7893,36.5592,邯郸市,香泉濮院小区,细颗粒物(PM2.5),128,141,96,97,54,23,,54,42,53,33,11,9,0.9,0.8
2026-01-12T2300,3580A,114.1998,36.4439,邯郸市,峰峰矿区临水派出所,颗粒物(PM10),62,74,54,39,32,45,,78,59,34,18,23,12,1.1,0.7
2026-01-12T2300,4068A,114.5209,36.7697,邯郸市,建安街268号,细颗粒物(PM2.5),165,178,101,125,54,4,,34,18,64,48,11,13,1.4,1.1
2026-01-12T2300,4069A,114.5488,36.6177,邯郸市,丛台东路558号,细颗粒物(PM2.5),124,128,91,94,56,2,,40,22,91,50,10,11,1.4,1
2026-01-12T2300,2635A,107.0155,33.0707,汉中市,市监测站,细颗粒物(PM2.5),236,,118,186,108,15,,76,49,70,45,7,7,2.2,1.4
2026-01-12T2300,2636A,107.0083,33.114,汉中市,鑫源开发区,细颗粒物(PM2.5),142,147,99,108,87,3,,86,57,68,44,6,8,1.4,1.1
2026-01-12T2300,2637A,107.0072,33.0323,汉中市,南郑大河坎水厂,细颗粒物(PM2.5),193,169,134,145,103,28,,73,46,35,35,7,5,1.4,1.4
2026-01-12T2300,1223A,120.2073,30.2111,杭州市,滨江,颗粒物(PM10),59,68,78,36,37,40,,52,50,40,47,7,7,0.7,0.5
2026-01-12T2300,1224A,120.0625,30.2737,杭州市,西溪,,46,46,59,24,26,0,,59,26,42,40,8,9,0.7,0.8
2026-01-12T2300,1226A,120.3417,30.315,杭州市,下沙,颗粒物(PM10),56,61,78,29,31,58,,55,53,27,51,8,10,0.6,0.7
2026-01-12T2300,1227A,120.1252,30.2465,杭州市,卧龙桥,,45,45,59,22,26,24,,68,55,46,35,10,10,0.4,0.4
2026-01-12T2300,1228A,120.1902,30.2691,杭州市,浙江农大,颗粒物(PM10),67,83,77,41,36,7,,55,35,79,53,7,6,0.5,0.5
2026-01-12T2300,1230A,120.1195,30.3121,杭州市,和睦小学,颗粒物(PM10),60,69,74,36,34,10,,52,31,71,46,6,6,0.8,0.7
2026-01-12T2300,1231A,120.3076,30.4146,杭州市,临平镇,颗粒物(PM10),56,62,84,27,34,28,,44,22,50,53,8,8,0.5,0.5
2026-01-12T2300,1232A,120.2753,30.1839,杭州市,城厢镇,颗粒物(PM10),68,86,87,39,38,30,,44,33,53,54,8,8,0.4,0.5
2026-01-12T2300,1233A,120.0883,30.1808,杭州市,云栖,,50,50,63,21,26,44,,61,54,18,28,3,4,0.4,0.5
2026-01-12T2300,3557A,119.9463,30.0496,杭州市,镇二中,细颗粒物(PM2.5),64,73,70,46,36,17,,47,26,55,48,6,6,1.0,0.8
2026-01-12T2300,3558A,119.7184,30.2367,杭州市,市府大楼,颗粒物(PM10),65,79,82,43,40,25,,61,31,27,29,10,11,0.8,0.8
2026-01-12T2300,3656A,120.1554,30.2863,杭州市,消防大队,颗粒物(PM10),54,58,71,33,33,15,,56,44,67,44,8,7,0.5,0.4
2026-01-12T2300,1270A,117.1957,31.7845,合肥市,明珠广场,细颗粒物(PM2.5),73,90,80,53,36,41,,64,52,62,44,8,8,0.7,0.6
2026-01-12T2300,1271A,117.307,31.8765,合肥市,三里街,颗粒物(PM10),84,117,78,61,35,16,,54,44,84,55,8,7,1.2,0.7
2026-01-12T2300,1272A,117.2587,31.8703,合肥市,琥珀山庄,细颗粒物(PM2.5),88,110,81,65,41,10,,68,52,108,47,8,9,1.9,0.9
2026-01-12T2300,1275A,117.2593,31.9376,合肥市,庐阳区,细颗粒物(PM2.5),73,92,78,53,31,66,,89,84,40,39,4,7,0.7,0.8
2026-01-12T2300,1276A,117.345251,31.861615,合肥市,瑶海区,颗粒物(PM10),84,117,82,54,33,1,,49,31,105,57,7,6,1.0,0.6
2026-01-12T2300,1277A,117.3033,31.7967,合肥市,包河区,细颗粒物(PM2.5),85,105,74,63,37,3,,61,28,111,44,11,8,1.0,0.8
2026-01-12T2300,1278A,117.278,31.7392,合肥市,滨湖新区,细颗粒物(PM2.5),79,100,72,58,37,1,,65,36,99,38,9,6,0.8,0.7
2026-01-12T2300,1279A,117.1324,31.8395,合肥市,高新区,细颗粒物(PM2.5),73,88,74,53,32,53,,89,84,54,35,6,6,0.6,0.5
2026-01-12T2300,3464A,117.3802,31.9148,合肥市,高教基地,细颗粒物(PM2.5),97,117,79,72,41,5,,67,40,81,41,9,9,0.9,0.6
2026-01-12T2300,4098A,117.2518,31.8404,合肥市,中国科学技术大学,细颗粒物(PM2.5),72,90,71,52,36,52,,86,82,58,37,9,9,0.8,0.6
2026-01-12T2300,3614A,79.9241,37.0878,和田地区,地区环保局,颗粒物(PM10),98,146,106,71,56,33,,77,60,67,44,32,9,2.0,0.9
2026-01-12T2300,3615A,79.9132,37.1137,和田地区,市环保局,颗粒物(PM10),117,183,108,66,55,10,,82,60,94,48,23,7,3.6,1.6
2026-01-12T2300,2517A,108.0496,24.6957,河池市,市环保站,细颗粒物(PM2.5),109,100,73,82,57,15,,89,61,48,31,3,7,1.0,0.8
2026-01-12T2300,4302A,108.0901,24.6945,河池市,上任中路54号,细颗粒物(PM2.5),134,133,89,102,68,3,,85,46,59,41,6,9,1.2,1
2026-01-12T2300,1697A,114.6962,23.7538,河源市,东埔,细颗粒物(PM2.5),60,68,48,43,30,12,,111,60,72,42,6,7,1.0,0.8
2026-01-12T2300,1698A,114.6895,23.7232,河源市,老城,,,47,46,,24,29,,109,79,59,31,6,7,0.6,0.7
2026-01-12T2300,3374A,115.5562,35.089,菏泽市,定陶老年大学,细颗粒物(PM2.5),100,132,94,75,42,39,,62,51,43,30,6,5,0.5,0.4
2026-01-12T2300,4114A,115.4239,35.2593,菏泽市,黄河路600号,细颗粒物(PM2.5),100,132,106,75,49,13,,58,,69,40,8,6,0.9,0.7
2026-01-12T2300,4115A,115.5025,35.2727,菏泽市,菏泽市人社局,颗粒物(PM10),95,139,101,68,46,27,,55,39,53,32,8,6,0.7,0.6
2026-01-12T2300,4184A,115.479691,35.244011,菏泽市,永昌路1号,细颗粒物(PM2.5),107,138,102,80,50,15,,57,35,65,33,9,8,0.7,0.5
2026-01-12T2300,4193A,115.471542,35.280012,菏泽市,长城路999号,细颗粒物(PM2.5),93,134,100,69,42,31,,62,51,57,29,7,5,0.9,0.7
2026-01-12T2300,2514A,111.5264,24.4178,贺州市,环保小区,细颗粒物(PM2.5),104,91,60,78,41,28,,82,70,53,32,8,10,0.7,0.4
2026-01-12T2300,2515A,111.561,24.4074,贺州市,政协大楼,细颗粒物(PM2.5),94,93,55,70,35,10,,97,65,68,38,10,13,1.1,0.7
2026-01-12T2300,3534A,111.4744,24.455,贺州市,西湾,颗粒物(PM10),75,100,63,54,37,6,,95,63,68,36,10,9,1.0,0.6
2026-01-12T2300,2385A,114.17,35.9019,鹤壁市,市监测站,颗粒物(PM10),60,69,63,24,26,64,,71,60,23,24,4,5,0.1,0.6
2026-01-12T2300,2386A,114.2953,35.7512,鹤壁市,市交警支队,颗粒物(PM10),69,88,82,18,30,56,,66,50,16,30,4,6,0.5,0.7
2026-01-12T2300,2387A,114.2877,35.7302,鹤壁市,迎宾馆,颗粒物(PM10),70,90,92,29,32,55,,65,53,22,32,4,7,0.6,0.7
2026-01-12T2300,3474A,114.2616,35.6824,鹤壁市,大新区,颗粒物(PM10),76,101,90,24,33,52,,62,53,22,25,5,7,0.4,0.6
2026-01-12T2300,3596A,114.1573,35.9607,鹤壁市,南山宾馆,颗粒物(PM10),72,93,76,18,27,73,,77,73,4,11,5,8,0.5,0.6
2026-01-12T2300,2244A,130.2537,47.3416,鹤岗市,哈啤分公司,,45,38,40,31,43,39,,47,32,20,22,8,9,0.5,0.7
2026-01-12T2300,2245A,130.2683,47.3087,鹤岗市,斯达机电,细颗粒物(PM2.5),64,56,47,46,33,31,,46,30,29,25,10,10,0.7,0.7
2026-01-12T2300,2246A,130.3114,47.3388,鹤岗市,东山纸板厂,细颗粒物(PM2.5),70,64,53,51,46,11,,40,14,56,36,15,13,1.0,1.4
2026-01-12T2300,2263A,127.4832,50.2524,黑河市,交通局,,36,28,52,25,39,35,,26,26,14,31,7,8,0.5,0.8
2026-01-12T2300,2264A,127.5146,50.2339,黑河市,环保局,,39,,52,27,39,34,,22,20,15,31,7,12,0.3,0.7
2026-01-12T2300,1074A,115.6839,37.754,衡水市,电机北厂,细颗粒物(PM2.5),80,107,97,59,39,30,,53,44,37,28,8,9,0.8,0.6
2026-01-12T2300,1075A,115.6303,37.7318,衡水市,市监测站,颗粒物(PM10),85,120,89,56,39,21,,50,40,48,31,14,10,0.8,0.6
2026-01-12T2300,3188A,115.6684,37.7216,衡水市,市城管局,细颗粒物(PM2.5),88,122,102,65,43,30,,54,49,42,32,19,9,0.7,0.5
2026-01-12T2300,3459A,115.599,37.5491,衡水市,地表水厂,细颗粒物(PM2.5),83,112,90,61,45,3,,56,27,70,35,12,11,0.9,0.6
2026-01-12T2300,2457A,112.6209,26.9268,衡阳市,衡阳化工总厂,细颗粒物(PM2.5),175,167,121,132,85,2,,36,4,56,48,11,11,1.6,1.2
2026-01-12T2300,2458A,112.621,26.8957,衡阳市,珠晖区环保局,细颗粒物(PM2.5),195,173,115,146,81,3,,21,5,69,59,8,9,2.2,1.5
2026-01-12T2300,2459A,112.628,26.8654,衡阳市,市委党校,细颗粒物(PM2.5),217,184,103,167,77,5,,29,10,57,48,11,13,2.0,1.2
2026-01-12T2300,2460A,112.6007,26.8977,衡阳市,市监测站,细颗粒物(PM2.5),189,227,137,142,77,2,,31,4,56,45,8,10,2.8,1.4
2026-01-12T2300,2461A,112.5658,26.9013,衡阳市,真空机电公司,细颗粒物(PM2.5),203,207,133,153,87,3,,26,5,66,55,10,11,2.6,1.5
2026-01-12T2300,3399A,112.6703,26.8817,衡阳市,师范学院,细颗粒物(PM2.5),155,186,113,118,69,4,,29,13,55,45,3,6,1.7,1.2
2026-01-12T2300,3038A,103.3757,23.3679,红河哈尼族彝族自治州,州图书馆,细颗粒物(PM2.5),59,65,47,42,36,73,,84,77,13,11,7,7,0.6,0.6
2026-01-12T2300,4154A,103.401,23.3561,红河哈尼族彝族自治州,蒙自市朝阳路,细颗粒物(PM2.5),55,48,33,39,36,79,,87,80,7,9,6,7,0.6,0.6
2026-01-12T2300,1090A,111.6506,40.7517,呼和浩特市,呼市一监,,44,44,88,20,35,41,,49,48,31,38,6,9,0.4,0.8
2026-01-12T2300,1094A,111.7516,40.8369,呼和浩特市,如意水处理厂,,27,27,61,10,24,52,,16,,24,47,10,13,0.1,0.5
2026-01-12T2300,1095A,111.727798,40.806187,呼和浩特市,二十九中,,24,24,84,10,29,56,,52,52,17,41,9,15,0.3,0.7
2026-01-12T2300,1097A,111.717,40.7617,呼和浩特市,化肥厂生活区,,44,44,85,12,31,48,,44,44,26,42,4,10,0.5,0.9
2026-01-12T2300,3699A,111.6519,40.8389,呼和浩特市,海东办,,29,29,83,8,33,55,,51,51,19,38,3,7,0.3,0.7
2026-01-12T2300,4275A,111.591512,40.827312,呼和浩特市,成吉思汗西街8号,,24,24,83,7,26,37,,38,38,30,44,4,9,0.5,0.8
2026-01-12T2300,4276A,111.6597,40.8077,呼和浩特市,公园东路75号,,27,27,89,9,32,55,,50,50,21,46,4,9,0.2,0.7
2026-01-12T2300,4277A,111.5427,40.7846,呼和浩特市,金海路35号,,40,40,86,23,31,17,,32,25,47,47,10,12,0.5,0.5
2026-01-12T2300,3061A,119.7511,49.1576,呼伦贝尔市,国华电力东,,38,28,27,26,19,52,,52,51,14,19,6,7,0.4,0.4
2026-01-12T2300,4279A,119.7569,49.2222,呼伦贝尔市,伊敏大街东7号,,33,,27,23,23,48,,49,48,8,17,7,8,0.6,0.5
2026-01-12T2300,1250A,120.075,30.867,湖州市,城西水厂,细颗粒物(PM2.5),69,84,80,50,37,10,,42,20,98,61,13,12,0.4,0.5
2026-01-12T2300,2873A,120.083,30.8929,湖州市,仁皇山新区,"颗粒物(PM10),细颗粒物(PM2.5)",79,107,82,58,40,2,,38,14,103,75,15,12,0.7,0.5
2026-01-12T2300,2907A,120.1846,30.8592,湖州市,吴兴区站,颗粒物(PM10),58,65,80,32,36,8,,49,29,75,58,7,8,0.6,0.6
2026-01-12T2300,3562A,120.4146,30.8538,湖州市,南浔区站,颗粒物(PM10),57,63,74,32,34,19,,42,26,56,54,9,8,0.6,0.7
2026-01-12T2300,1607A,120.904878,40.721091,葫芦岛市,龙港区,,43,43,68,15,32,44,,43,32,28,34,18,20,0.7,0.9
2026-01-12T2300,1608A,120.8382,40.7521,葫芦岛市,化工街,,31,31,64,9,24,60,,43,43,10,36,15,25,0.5,0.6
2026-01-12T2300,1609A,120.8339,40.7078,葫芦岛市,新区,,30,30,55,15,26,60,,39,39,12,37,14,19,0.8,1
2026-01-12T2300,1610A,120.8697,40.7679,葫芦岛市,东城区,,26,26,59,13,30,55,,39,38,16,40,19,16,0.6,0.8
2026-01-12T2300,2483A,109.9297,27.5383,怀化市,河西地税局,细颗粒物(PM2.5),122,97,93,92,81,9,,46,36,23,36,1,3,/,/
2026-01-12T2300,2484A,109.9783,27.5342,怀化市,市四医院,细颗粒物(PM2.5),138,138,117,105,82,0,,40,34,46,37,10,12,0.9,0.8
2026-01-12T2300,2485A,109.9971,27.5579,怀化市,监测楼,细颗粒物(PM2.5),152,140,111,116,89,7,,48,39,34,35,2,5,0.6,0.4
2026-01-12T2300,1210A,119.0566,33.5991,淮安市,钵池山,颗粒物(PM10),82,114,76,54,31,49,,64,57,34,30,9,10,0.9,1
2026-01-12T2300,1211A,119.0083,33.578,淮安市,北京南路,颗粒物(PM10),91,132,87,59,32,10,,43,22,65,41,10,12,0.6,0.8
2026-01-12T2300,1212A,118.9938,33.6083,淮安市,市监测站,细颗粒物(PM2.5),92,110,72,68,35,20,,61,43,64,36,12,12,0.5,0.9
2026-01-12T2300,1213A,119.135,33.5038,淮安市,楚州区监测站,细颗粒物(PM2.5),84,115,81,62,43,34,,61,46,47,37,14,11,0.9,0.6
2026-01-12T2300,3426A,118.8757,33.2897,淮安市,新华书店,颗粒物(PM10),79,108,80,57,39,47,,68,64,30,32,10,10,1.2,1.2
2026-01-12T2300,4092A,119.119691,33.550006,淮安市,枚皋中路89号,细颗粒物(PM2.5),83,112,78,61,40,45,,66,48,41,34,12,11,0.3,0.3
2026-01-12T2300,4206A,119.028838,33.631911,淮安市,承德北路606号,颗粒物(PM10),90,129,87,59,33,34,,58,46,52,37,10,11,0.6,0.7
2026-01-12T2300,2282A,116.8005,33.9749,淮北市,监测站,颗粒物(PM10),78,105,95,37,39,38,,68,50,46,38,10,11,1.2,0.6
2026-01-12T2300,2283A,116.8094,33.9008,淮北市,烈山区政府,"颗粒物(PM10),细颗粒物(PM2.5)",87,123,101,64,42,15,,74,52,64,32,13,13,0.7,0.4
2026-01-12T2300,4017A,116.7926,33.9534,淮北市,市博物馆,颗粒物(PM10),97,143,105,70,48,7,,69,35,83,45,5,6,1.3,0.7
2026-01-12T2300,4100A,116.8322,33.9884,淮北市,杜集区第一实验学校,颗粒物(PM10),91,132,104,66,44,17,,71,45,49,27,8,9,1.0,0.6
2026-01-12T2300,2277A,116.8304,32.7726,淮南市,潘集区政府,细颗粒物(PM2.5),88,110,104,65,51,44,,77,66,47,28,8,8,0.7,0.7
2026-01-12T2300,2279A,116.8569,32.5949,淮南市,谢家集区政府,颗粒物(PM10),72,94,88,46,28,58,,82,76,34,29,9,9,0.5,0.5
2026-01-12T2300,2280A,116.8279,32.6333,淮南市,八公山区政府,颗粒物(PM10),60,70,74,39,30,89,,88,87,12,19,6,5,0.4,0.5
2026-01-12T2300,2894A,117.0561,32.6536,淮南市,经济技术开发区消防队,颗粒物(PM10),81,111,105,53,41,29,,80,68,60,31,6,7,0.7,0.5
2026-01-12T2300,3329A,117.011,32.5891,淮南市,山南新区,颗粒物(PM10),74,98,106,34,32,61,,82,76,33,28,5,4,0.6,0.6
2026-01-12T2300,4209A,117.003137,32.644456,淮南市,国庆中路369号,细颗粒物(PM2.5),93,91,76,69,49,54,,71,63,33,28,11,10,0.7,0.7
2026-01-12T2300,2446A,114.9021,30.474,黄冈市,职工中心,细颗粒物(PM2.5),78,81,59,57,32,57,,92,86,39,27,9,11,0.9,0.7
2026-01-12T2300,2929A,114.8858,30.4519,黄冈市,红卫路,细颗粒物(PM2.5),83,74,55,61,33,46,,89,79,51,31,9,10,0.8,0.6
2026-01-12T2300,3398A,114.9134,30.4446,黄冈市,市林业局,细颗粒物(PM2.5),87,105,76,64,34,34,,95,80,65,34,6,8,0.7,0.7
2026-01-12T2300,2672A,102.02,35.5101,黄南藏族自治州,同仁县隆务镇,,,,30,,12,,,74,66,2,4,9,10,0.4,0.4
2026-01-12T2300,2295A,118.2905,29.6965,黄山市,延安路89号,细颗粒物(PM2.5),70,66,51,51,36,13,,62,39,26,22,4,4,0.6,0.5
2026-01-12T2300,2297A,118.1369,30.2755,黄山市,黄山区政府5号楼,,42,42,45,29,27,56,,80,80,10,10,3,3,0.4,0.4
2026-01-12T2300,4210A,118.335445,29.720283,黄山市,滨江东路7-2号,细颗粒物(PM2.5),68,69,65,49,34,15,,43,26,25,24,/,/,/,/
2026-01-12T2300,2423A,115.0547,30.2332,黄石市,沈家营,细颗粒物(PM2.5),94,117,78,70,38,0,,79,58,98,46,14,12,1.8,1.6
2026-01-12T2300,2426A,114.899,30.211,黄石市,铁山,细颗粒物(PM2.5),94,96,83,70,40,42,,92,69,29,32,7,11,0.5,0.5
2026-01-12T2300,2427A,115.0259,30.2108,黄石市,团城山,细颗粒物(PM2.5),82,103,70,60,33,48,,92,83,54,31,7,7,1.0,0.8
2026-01-12T2300,3149A,115.0174,30.1591,黄石市,笔架山北路,颗粒物(PM10),85,119,97,62,39,48,,84,79,30,27,9,13,1.3,1.2
2026-01-12T2300,4185A,115.078022,30.21118,黄石市,磁湖东路29号,细颗粒物(PM2.5),97,117,85,72,48,13,,66,48,62,49,7,14,1.3,1.3
2026-01-12T2300,1392A,114.4181,23.0528,惠州市,河南岸金山湖子站,颗粒物(PM10),76,102,74,50,40,65,,144,128,48,33,4,8,0.9,0.7
2026-01-12T2300,1393A,114.4055,23.0824,惠州市,下埔横江三路子站,细颗粒物(PM2.5),102,134,79,76,44,36,,151,123,88,46,7,9,1.1,0.7
2026-01-12T2300,1395A,114.4645,22.7832,惠州市,惠阳区承修路船湖子站,颗粒物(PM10),64,78,87,40,39,104,,140,122,29,39,7,7,0.4,0.4
2026-01-12T2300,1396A,114.5316,22.7423,惠州市,大亚湾管委会子站,颗粒物(PM10),70,89,75,48,37,24,,134,96,89,43,6,8,0.7,0.6
2026-01-12T2300,3314A,114.4334,22.8134,惠州市,惠阳秋长,细颗粒物(PM2.5),165,251,93,125,46,6,,176,124,117,51,/,/,/,/
2026-01-12T2300,3452A,114.6521,22.7755,惠州市,大亚湾霞涌,颗粒物(PM10),56,61,69,26,31,55,,156,113,51,27,/,/,/,/
2026-01-12T2300,4300A,114.4089,23.1147,惠州市,文华一路1号,"颗粒物(PM10),细颗粒物(PM2.5)",77,104,79,56,43,40,,149,131,90,51,/,/,/,/
2026-01-12T2300,2240A,130.9618,45.2926,鸡西市,环保局,细颗粒物(PM2.5),104,95,46,78,37,6,,45,18,54,23,14,9,0.9,0.7
2026-01-12T2300,2243A,130.9294,45.2959,鸡西市,第一中学,细颗粒物(PM2.5),84,71,44,62,36,10,,65,16,46,19,8,5,0.7,0.7
2026-01-12T2300,3707A,131.0069,45.2988,鸡西市,欧美日汽修厂,细颗粒物(PM2.5),147,132,62,112,51,7,,41,21,50,27,53,19,1.4,0.6
2026-01-12T2300,2367A,114.9753,27.0803,吉安市,红声器材厂,颗粒物(PM10),82,114,80,57,39,1,,70,39,83,39,11,11,1.1,0.7
2026-01-12T2300,2369A,114.9903,27.1313,吉安市,市环境监测站,颗粒物(PM10),74,98,74,53,39,8,,77,42,82,39,10,10,/,/
2026-01-12T2300,2370A,115.009527,27.096792,吉安市,青原区法院,颗粒物(PM10),82,114,79,58,40,0,,70,28,82,44,12,12,0.8,0.6
2026-01-12T2300,1772A,126.54,43.8622,吉林市,哈达湾,颗粒物(PM10),55,60,44,31,24,44,,54,48,22,17,26,11,1.0,0.9
2026-01-12T2300,1773A,126.5843,43.8358,吉林市,东局子,,50,44,32,35,22,38,,50,42,25,15,3,4,0.8,0.8
2026-01-12T2300,1774A,126.5051,43.8243,吉林市,电力学院,细颗粒物(PM2.5),54,56,40,38,28,36,,54,46,30,19,10,11,0.8,0.8
2026-01-12T2300,1775A,126.6133,43.8971,吉林市,江北,颗粒物(PM10),53,56,37,36,22,39,,51,42,21,15,12,7,1.0,1
2026-01-12T2300,1776A,126.5549,43.8304,吉林市,江南公园,颗粒物(PM10),64,77,60,42,31,44,,54,46,18,17,7,8,0.6,0.6
2026-01-12T2300,2868A,126.4737,43.953,吉林市,九站,细颗粒物(PM2.5),53,53,43,37,28,42,,51,39,23,22,8,10,0.7,0.7
2026-01-12T2300,1299A,116.9866,36.6118,济南市,科干所,颗粒物(PM10),74,97,88,42,31,22,,59,35,53,27,22,12,1.1,0.8
2026-01-12T2300,1300A,116.9379,36.6652,济南市,农科所,颗粒物(PM10),86,122,114,49,41,3,,54,19,76,49,23,19,1.1,0.9
2026-01-12T2300,1301A,117.1265,36.6736,济南市,开发区,颗粒物(PM10),68,85,80,37,32,23,,63,29,56,32,6,6,0.9,0.8
2026-01-12T2300,1303A,117.0616,36.6865,济南市,省种子仓库,颗粒物(PM10),102,153,101,56,33,6,,64,26,72,34,10,8,1.4,0.7
2026-01-12T2300,1304A,116.9495185,36.644937,济南市,机床二厂,细颗粒物(PM2.5),123,129,114,93,49,5,,58,21,74,38,49,23,1.0,0.6
2026-01-12T2300,1305A,117.0496,36.6629,济南市,市监测站,细颗粒物(PM2.5),89,100,91,66,33,4,,62,22,64,27,7,7,1.1,0.7
2026-01-12T2300,1306A,116.7674,36.5458,济南市,长清党校,颗粒物(PM10),74,98,88,49,39,26,,59,38,53,29,12,10,0.9,0.8
2026-01-12T2300,1961A,117.5323,36.6865,济南市,东山小学,颗粒物(PM10),72,93,91,32,29,18,,67,32,59,29,6,7,1.0,0.9
2026-01-12T2300,3059A,117.7181,36.205,济南市,泰兴公司,细颗粒物(PM2.5),144,158,111,110,57,7,,59,21,70,52,15,13,1.4,1.2
2026-01-12T2300,3064A,117.6861,36.2172,济南市,莱芜战役纪念馆,细颗粒物(PM2.5),130,149,103,99,56,5,,54,23,71,39,14,13,1.0,0.7
2026-01-12T2300,3494A,117.1673,36.9782,济南市,济阳区政府,颗粒物(PM10),89,127,104,56,34,16,,57,32,74,41,16,11,0.8,0.6
2026-01-12T2300,3495A,117.1168,36.6299,济南市,锦屏中学,颗粒物(PM10),66,81,80,29,26,43,,66,44,31,24,4,4,0.7,0.7
2026-01-12T2300,4108A,117.7107,36.2385,济南市,山财大街5号,细颗粒物(PM2.5),99,119,95,74,43,10,,59,25,75,42,18,16,0.9,1
2026-01-12T2300,4109A,116.9744,36.6889,济南市,无影山路12号,颗粒物(PM10),82,114,106,56,37,10,,58,26,70,31,26,12,0.9,0.6
2026-01-12T2300,1653A,116.6229,35.4288,济宁市,火炬城,细颗粒物(PM2.5),107,106,84,80,51,26,,59,43,59,31,7,6,0.7,0.5
2026-01-12T2300,3500A,116.5808,35.3703,济宁市,北湖一中,细颗粒物(PM2.5),95,100,80,71,49,24,,59,44,62,34,12,9,0.7,0.5
2026-01-12T2300,3501A,116.8251,35.5592,济宁市,服务中心,细颗粒物(PM2.5),113,151,100,85,47,2,,49,30,83,46,19,13,1.1,0.8
2026-01-12T2300,3678A,116.5907,35.4054,济宁市,市第七中学,细颗粒物(PM2.5),113,131,96,85,44,7,,63,34,86,37,11,7,1.4,0.7
2026-01-12T2300,4111A,116.6075,35.4566,济宁市,任和路,细颗粒物(PM2.5),90,125,100,67,45,7,,58,26,71,36,7,7,1.0,0.6
2026-01-12T2300,4112A,116.5648,35.3921,济宁市,文体南路1号,细颗粒物(PM2.5),102,121,98,76,48,2,,57,30,77,34,7,7,1.3,0.7
2026-01-12T2300,2255A,130.2749,46.8028,佳木斯市,佳纺,,,,77,,58,,,32,15,,36,12,10,1.2,0.9
2026-01-12T2300,2257A,130.3258,46.7975,佳木斯市,环保局,细颗粒物(PM2.5),137,120,61,104,52,4,,36,5,67,42,14,11,1.0,0.7
2026-01-12T2300,4285A,130.363,46.806,佳木斯市,顺和街,细颗粒物(PM2.5),133,121,63,101,54,6,,27,12,70,40,15,13,1.2,0.8
2026-01-12T2300,4286A,130.3952,46.8268,佳木斯市,长安路196号,细颗粒物(PM2.5),103,82,59,77,53,17,,32,22,49,37,8,8,0.9,0.7
2026-01-12T2300,1252A,120.7439,30.778,嘉兴市,清河小学,颗粒物(PM10),59,68,80,33,31,27,,54,27,52,44,9,8,0.4,0.5
2026-01-12T2300,1253A,120.7261,30.7477,嘉兴市,嘉兴学院,颗粒物(PM10),61,71,79,32,34,12,,52,18,60,44,8,8,0.7,0.6
2026-01-12T2300,2872A,120.7845,30.7524,嘉兴市,南湖区残联,颗粒物(PM10),61,71,78,35,36,27,,60,35,57,44,6,6,0.5,0.7
2026-01-12T2300,3407A,120.6915,30.7741,嘉兴市,秀洲住建,颗粒物(PM10),61,71,79,33,35,12,,54,24,70,52,8,9,0.5,0.5
2026-01-12T2300,1945A,98.291,39.7705,嘉峪关市,气象局,,23,22,49,7,15,72,,75,63,11,16,22,20,0.3,0.5
2026-01-12T2300,2884A,98.2672,39.7978,嘉峪关市,酒钢宾馆,,28,27,84,9,26,41,,38,33,56,64,25,37,0.4,1.1
2026-01-12T2300,3248A,98.2644,39.7723,嘉峪关市,雄关区,,22,22,37,11,17,62,,72,61,19,23,22,21,0.3,0.5
2026-01-12T2300,1383A,113.1063,22.6058,江门市,北街,细颗粒物(PM2.5),94,127,89,70,54,17,,151,114,122,70,/,/,/,/
2026-01-12T2300,1384A,113.073,22.5835,江门市,西区,颗粒物(PM10),95,140,97,70,54,10,,139,100,134,75,/,/,/,/
2026-01-12T2300,1385A,113.0218,22.531,江门市,圭峰西,细颗粒物(PM2.5),104,102,65,78,41,60,,138,124,104,43,/,/,/,/
2026-01-12T2300,1386A,113.0826,22.5947,江门市,东湖,细颗粒物(PM2.5),98,118,87,73,48,8,,145,100,139,76,8,9,1.1,0.7
2026-01-12T2300,3311A,113.1077,22.5647,江门市,江海富民,,,146,95,,37,43,,146,115,110,70,/,/,1.3,0.7
2026-01-12T2300,3449A,113.0496,22.4669,江门市,新会银湖,细颗粒物(PM2.5),130,108,80,99,60,64,,131,94,50,52,6,8,0.6,0.6
2026-01-12T2300,3335A,113.3137,35.2643,焦作市,马村街道办,颗粒物(PM10),78,106,86,31,33,66,,79,75,15,20,8,12,0.4,0.4
2026-01-12T2300,3336A,113.2464,35.2374,焦作市,焦作技师学院,颗粒物(PM10),84,117,87,34,28,37,,79,69,42,24,10,13,0.6,0.5
2026-01-12T2300,3477A,113.1656,35.2536,焦作市,中站许衡医院,颗粒物(PM10),84,117,90,34,34,55,,80,74,30,22,9,12,0.6,0.5
2026-01-12T2300,3981A,113.2456,35.18,焦作市,原李万街道办,颗粒物(PM10),82,114,98,29,30,59,,78,72,16,23,9,11,0.5,0.6
2026-01-12T2300,4264A,113.234,35.219,焦作市,新安路1731号,颗粒物(PM10),91,132,102,36,35,48,,78,70,27,22,7,9,0.6,0.6
2026-01-12T2300,4295A,113.2722,35.2121,焦作市,人民路3066号,颗粒物(PM10),84,118,98,27,28,47,,74,67,25,24,5,9,0.6,0.6
2026-01-12T2300,1708A,116.3701,23.5345,揭阳市,新兴,颗粒物(PM10),56,61,84,25,42,54,,112,75,39,35,9,13,0.5,0.6
2026-01-12T2300,1709A,116.3261,23.5442,揭阳市,西马,颗粒物(PM10),56,62,88,29,40,51,,122,81,30,26,4,8,0.5,0.5
2026-01-12T2300,1710A,116.361,23.5627,揭阳市,东兴,颗粒物(PM10),58,66,90,29,38,32,,116,78,50,29,10,13,/,/
2026-01-12T2300,1711A,116.4151,23.5295,揭阳市,渔湖,颗粒物(PM10),58,66,83,19,36,51,,119,80,35,30,7,10,/,/
2026-01-12T2300,3320A,116.4028,23.5699,揭阳市,曲溪,颗粒物(PM10),71,92,92,36,43,24,,125,67,59,30,5,10,1.1,0.6
2026-01-12T2300,1944A,102.1691,38.5166,金昌市,天庆家园,颗粒物(PM10),80,110,117,38,27,42,,78,61,31,25,140,42,1.0,0.9
2026-01-12T2300,4022A,102.1648,38.5369,金昌市,金川区人防中心,细颗粒物(PM2.5),73,88,107,53,38,40,,82,68,34,19,59,30,1.1,0.8
2026-01-12T2300,4239A,102.193042,38.531887,金昌市,长春路96号,颗粒物(PM10),73,95,87,34,24,52,,80,72,41,22,43,39,1.0,0.9
2026-01-12T2300,1262A,119.6478,29.0773,金华市,十五中,细颗粒物(PM2.5),78,104,100,57,47,24,,64,33,49,55,4,5,0.6,0.6
2026-01-12T2300,1263A,119.6859,29.1032,金华市,监测站,颗粒物(PM10),81,111,105,59,49,0,,50,22,89,67,4,4,0.7,0.6
2026-01-12T2300,3659A,119.656,29.1132,金华市,气象局,细颗粒物(PM2.5),95,132,97,71,44,5,,56,24,90,62,5,4,0.9,0.7
2026-01-12T2300,1767A,121.1114,41.0879,锦州市,南山,,23,22,50,13,26,72,,63,63,5,23,6,13,0.4,0.7
2026-01-12T2300,1768A,121.060361,40.842794,锦州市,开发区,,37,37,71,16,28,58,,42,42,9,29,7,15,0.5,0.8
2026-01-12T2300,1769A,121.1836,41.1118,锦州市,百股街道,,22,19,56,3,22,68,,57,57,8,27,7,12,0.5,0.8
2026-01-12T2300,1770A,121.1176,41.1224,锦州市,天安街道,,26,26,52,7,23,77,,64,64,7,23,8,14,0.5,0.8
2026-01-12T2300,1771A,121.1303,41.1385,锦州市,北湖公园,,26,26,52,6,24,70,,62,62,5,20,6,13,0.6,0.9
2026-01-12T2300,2160A,112.8496,35.5051,晋城市,自来水公司,颗粒物(PM10),92,133,93,39,31,44,,70,59,31,25,8,8,1.1,1
2026-01-12T2300,2162A,112.8509,35.4886,晋城市,市环保局,颗粒物(PM10),92,133,95,36,30,21,,80,58,54,29,4,5,1.0,0.8
2026-01-12T2300,3620A,112.8258,35.4804,晋城市,泽州一中,颗粒物(PM10),85,119,95,29,26,64,,80,68,15,17,5,5,0.6,0.5
2026-01-12T2300,4078A,112.8246,35.5152,晋城市,前书院路,颗粒物(PM10),89,127,112,34,22,42,,70,61,34,24,7,6,0.7,0.6
2026-01-12T2300,4079A,112.8864,35.4773,晋城市,祥云街666号,颗粒物(PM10),86,122,94,39,30,41,,79,71,23,12,5,5,0.7,0.6
2026-01-12T2300,2174A,112.6992,37.6984,晋中市,榆次区政府,颗粒物(PM10),115,180,129,58,42,14,,65,45,51,35,25,22,1.1,0.9
2026-01-12T2300,2865A,112.7195,37.683,晋中市,榆次三中,颗粒物(PM10),122,193,137,56,35,17,,65,43,46,34,24,23,0.7,0.9
2026-01-12T2300,4080A,112.7375,37.7215,晋中市,广安街188号,颗粒物(PM10),110,170,122,50,36,19,,65,50,46,37,20,19,0.6,0.6
2026-01-12T2300,4200A,112.7478,37.6954,晋中市,迎宾街26号,颗粒物(PM10),119,188,133,53,39,14,,66,48,50,32,25,23,0.9,0.9
2026-01-12T2300,2439A,112.2012,31.048,荆门市,竹园小学,细颗粒物(PM2.5),128,135,117,97,62,102,,94,94,20,30,2,2,0.9,0.2
2026-01-12T2300,2440A,112.1968,30.9892,荆门市,掇刀,细颗粒物(PM2.5),119,140,119,90,62,100,,95,95,22,30,7,6,0.7,0.6
2026-01-12T2300,3012A,112.1849,31.0361,荆门市,西山林语,细颗粒物(PM2.5),114,124,106,86,52,105,,100,100,20,23,7,7,0.6,0.4
2026-01-12T2300,3547A,112.1631,31.0134,荆门市,龙泉中学南校,细颗粒物(PM2.5),124,146,120,94,65,102,,98,98,16,21,6,7,0.6,0.5
2026-01-12T2300,4124A,112.2213,31.0654,荆门市,新台西路6号,细颗粒物(PM2.5),127,129,121,96,73,104,,95,95,21,30,10,11,0.8,0.6
2026-01-12T2300,1844A,112.2493,30.3198,荆州市,市图书馆,细颗粒物(PM2.5),132,102,104,100,76,81,,110,100,23,38,7,10,0.9,0.9
2026-01-12T2300,1845A,112.2009,30.3543,荆州市,市委党校,细颗粒物(PM2.5),124,112,112,94,71,73,,93,86,29,40,4,5,0.9,0.8
2026-01-12T2300,3194A,112.2749,30.3124,荆州市,管委会,细颗粒物(PM2.5),123,116,110,93,76,76,,104,97,23,40,8,9,0.9,0.9
2026-01-12T2300,4268A,112.1722,30.3366,荆州市,学苑路85号,细颗粒物(PM2.5),124,128,111,94,69,80,,111,100,23,34,9,12,0.9,0.8
2026-01-12T2300,2343A,117.2114,29.2931,景德镇市,老干部活动中心,细颗粒物(PM2.5),74,81,61,54,34,0,,34,18,45,35,8,8,1.0,0.7
2026-01-12T2300,2344A,117.1893,29.2789,景德镇市,兽医站,细颗粒物(PM2.5),82,110,67,60,25,3,,43,,50,34,10,13,1.1,0.8
2026-01-12T2300,2346A,117.246,29.2958,景德镇市,陶研所,细颗粒物(PM2.5),78,86,58,57,38,0,,21,8,43,41,3,9,1.0,0.7
2026-01-12T2300,4289A,117.154766,29.256967,景德镇市,青少年活动中心,细颗粒物(PM2.5),87,113,73,64,32,1,,38,18,57,41,11,17,/,/
2026-01-12T2300,1803A,115.9873,29.6816,九江市,十里,颗粒物(PM10),71,91,64,41,33,6,,46,29,73,55,10,9,1.0,1
2026-01-12T2300,1804A,115.9583,29.7047,九江市,茅山头,颗粒物(PM10),69,88,63,44,30,12,,56,43,67,46,8,6,1.1,0.9
2026-01-12T2300,1805A,115.9877,29.7295,九江市,西园,颗粒物(PM10),70,89,65,49,29,13,,51,34,72,59,4,4,0.9,0.8
2026-01-12T2300,1808A,115.9112,29.6038,九江市,综合工业园,细颗粒物(PM2.5),77,93,62,56,39,17,,58,46,66,45,6,5,0.6,0.6
2026-01-12T2300,3190A,116.0254,29.6995,九江市,外国语学校,颗粒物(PM10),72,93,67,50,34,11,,33,23,60,51,11,11,1.0,0.9
2026-01-12T2300,4253A,116.010205,29.659402,九江市,莲花大道8号,细颗粒物(PM2.5),65,64,58,47,34,28,,43,37,28,31,4,5,0.5,0.5
2026-01-12T2300,4240A,98.495752,39.733935,酒泉市,玉门东路5号,颗粒物(PM10),56,61,85,31,31,22,,52,44,37,29,14,14,0.7,0.8
2026-01-12T2300,4241A,98.5099,39.7506,酒泉市,北大街108号,细颗粒物(PM2.5),60,68,101,43,35,5,,55,37,53,36,12,12,0.9,0.9
2026-01-12T2300,2698A,76.0071,39.466,喀什地区,巡警大队,细颗粒物(PM2.5),79,105,146,58,91,49,,69,68,53,54,9,7,1.1,2.3
2026-01-12T2300,2699A,75.9756,39.4693,喀什地区,吾办,细颗粒物(PM2.5),97,119,136,72,104,39,,68,66,61,59,13,9,1.6,2.4
2026-01-12T2300,4027A,75.9485,39.4688,喀什地区,老干局,细颗粒物(PM2.5),137,166,165,104,95,7,,72,58,92,49,9,6,2.6,2.8
2026-01-12T2300,1824A,114.3389,34.778,开封市,肿瘤医院,颗粒物(PM10),72,94,101,23,31,55,,74,66,24,30,4,6,0.6,0.6
2026-01-12T2300,1826A,114.2884,34.7966,开封市,世纪星幼儿园,颗粒物(PM10),78,105,94,26,37,56,,74,66,27,33,1,3,0.4,0.4
2026-01-12T2300,3147A,114.3434,34.8101,开封市,龙亭公园,颗粒物(PM10),79,108,102,24,32,59,,78,73,25,35,8,8,0.5,0.6
2026-01-12T2300,3210A,114.3645,34.7955,开封市,汴京公园,颗粒物(PM10),82,114,104,26,33,54,,68,64,27,32,5,6,0.5,0.5
2026-01-12T2300,3473A,114.2485,34.8306,开封市,技师学院,颗粒物(PM10),74,98,90,27,28,41,,76,67,39,28,5,7,0.6,0.7
2026-01-12T2300,3592A,114.4518,34.7503,开封市,祥符区生态环境局,颗粒物(PM10),98,146,81,23,36,54,,75,61,25,34,3,5,0.5,0.5
2026-01-12T2300,1951A,84.886,45.6029,克拉玛依市,长征新村,细颗粒物(PM2.5),128,132,127,97,96,44,,46,45,45,37,4,5,1.1,1
2026-01-12T2300,1952A,84.8894,45.5827,克拉玛依市,南林小区,细颗粒物(PM2.5),102,123,122,76,73,57,,50,50,18,21,2,3,1.2,1.3
2026-01-12T2300,1954A,84.896,44.3328,克拉玛依市,独山子区,细颗粒物(PM2.5),110,129,106,83,67,54,,70,60,42,41,5,5,0.9,0.8
2026-01-12T2300,1955A,85.6888,46.0909,克拉玛依市,乌尔禾区商贸楼,细颗粒物(PM2.5),183,148,125,138,108,55,,59,59,37,35,6,6,1.2,1.1
2026-01-12T2300,3612A,85.1045,45.6895,克拉玛依市,白碱滩区新站,细颗粒物(PM2.5),158,146,135,120,102,50,,53,53,35,38,9,8,1.0,1
2026-01-12T2300,2697A,76.1457,39.7143,克孜勒苏柯尔克孜自治州,市人民政府,颗粒物(PM10),77,103,77,55,45,54,,86,76,31,18,2,2,0.4,0.3
2026-01-12T2300,3665A,76.1654,39.7157,克孜勒苏柯尔克孜自治州,克州文化中心,细颗粒物(PM2.5),73,78,64,53,50,33,,82,74,55,21,5,5,1.1,0.9
2026-01-12T2300,1450A,102.8203,24.889,昆明市,呈贡新区,细颗粒物(PM2.5),63,58,28,45,17,29,,86,73,52,17,5,4,0.8,0.6
2026-01-12T2300,1452A,102.7253,25.0904,昆明市,龙泉镇,颗粒物(PM10),57,64,33,36,19,1,,76,40,56,22,2,3,0.8,0.6
2026-01-12T2300,1453A,102.7267,25.0378,昆明市,东风东路,颗粒物(PM10),78,106,39,53,24,4,,82,53,70,24,5,5,1.2,0.7
2026-01-12T2300,1454A,102.6744,25.0671,昆明市,金鼎山,"颗粒物(PM10),细颗粒物(PM2.5)",74,97,38,54,22,7,,80,49,65,24,3,3,1.0,0.7
2026-01-12T2300,1455A,102.6643,25.0401,昆明市,碧鸡广场,颗粒物(PM10),74,97,38,50,24,12,,81,50,58,27,3,4,0.7,0.5
2026-01-12T2300,3179A,102.7491,25.012,昆明市,官渡区博物馆,细颗粒物(PM2.5),88,89,36,65,21,2,,82,46,88,30,5,4,1.3,0.7
2026-01-12T2300,3375A,102.8016,24.8336,昆明市,青年创业园,,47,47,26,28,20,20,,90,61,40,12,4,3,0.6,0.5
2026-01-12T2300,3550A,102.8,24.9787,昆明市,昆明学院,颗粒物(PM10),74,98,33,53,21,4,,86,61,74,21,3,3,0.6,0.4
2026-01-12T2300,3551A,102.5969,24.6738,昆明市,晋宁区生态环境分局,细颗粒物(PM2.5),119,136,36,90,26,0,,80,52,58,17,5,2,1.0,0.6
2026-01-12T2300,3552A,102.6673,24.9861,昆明市,云天化总部,颗粒物(PM10),52,53,25,31,18,2,,87,58,69,19,7,5,0.6,0.4
2026-01-12T2300,1456A,91.132,29.6515,拉萨市,八廓街,细颗粒物(PM2.5),53,50,17,37,10,21,,94,68,60,15,8,6,1.1,0.3
2026-01-12T2300,1457A,91.1221,29.6748,拉萨市,市环保局,颗粒物(PM10),81,112,29,21,10,14,,86,62,51,17,16,7,3.0,0.8
2026-01-12T2300,1458A,91.0874,29.6476,拉萨市,区监测站,,31,23,11,12,6,26,,83,,62,18,5,4,1.0,0.7
2026-01-12T2300,1459A,91.1774,29.6541,拉萨市,西藏大学,,30,30,14,15,8,48,,86,74,34,14,5,4,0.6,0.4
2026-01-12T2300,1460A,90.9798,29.6586,拉萨市,区辐射站,细颗粒物(PM2.5),54,55,21,38,13,25,,85,63,58,22,7,4,1.1,0.5
2026-01-12T2300,1461A,91.0831,29.6292,拉萨市,拉萨火车站,,24,24,18,11,10,54,,81,69,26,18,4,4,0.7,0.5
2026-01-12T2300,2520A,109.2203,23.7252,来宾市,来宾技工学校,细颗粒物(PM2.5),140,124,94,107,67,36,,129,102,45,32,14,22,1.1,0.8
2026-01-12T2300,3535A,109.1781,23.7293,来宾市,兴宾区政府,细颗粒物(PM2.5),122,127,82,92,61,46,,136,106,39,22,11,9,0.8,0.7
2026-01-12T2300,4002A,109.2312,23.7428,来宾市,中南小学,细颗粒物(PM2.5),165,137,98,125,73,16,,130,98,60,39,10,10,1.1,0.8
2026-01-12T2300,1479A,103.8309,36.0467,兰州市,铁路设计院,,,,,,,,,,,,,,,,
2026-01-12T2300,3241A,103.7439,36.0841,兰州市,百合公园,细颗粒物(PM2.5),137,186,120,104,71,0,,32,10,112,83,28,26,3.5,2.2
2026-01-12T2300,3242A,103.9613,35.9985,兰州市,和平,细颗粒物(PM2.5),64,61,91,46,62,24,,50,36,40,49,9,19,0.8,1.7
2026-01-12T2300,4236A,103.629272,36.093822,兰州市,庄浪东路808号,颗粒物(PM10),52,53,109,34,59,18,,68,42,60,68,12,26,0.7,1.3
2026-01-12T2300,4237A,103.7251,36.104344,兰州市,安宁西路88号,颗粒物(PM10),93,136,126,67,60,2,,49,20,109,88,21,24,2.1,1.6
2026-01-12T2300,4238A,103.846982,36.067567,兰州市,北滨河东路1号,细颗粒物(PM2.5),110,142,130,83,76,2,,26,9,96,91,18,21,2.3,2.3
2026-01-12T2300,1067A,116.6712,39.5109,廊坊市,药材公司,细颗粒物(PM2.5),75,95,75,55,43,1,,21,6,68,55,5,6,0.9,0.7
2026-01-12T2300,1068A,116.7215,39.5592,廊坊市,开发区,颗粒物(PM10),60,69,77,24,43,5,,22,6,69,58,4,7,0.5,0.6
2026-01-12T2300,1070A,116.7246,39.5273,廊坊市,北华航天学院,颗粒物(PM10),79,108,88,47,44,3,,25,8,69,58,4,6,0.7,0.7
2026-01-12T2300,2919A,116.7022,39.5454,廊坊市,河北工业大学,颗粒物(PM10),72,93,83,31,42,5,,22,7,70,55,4,7,0.6,0.7
2026-01-12T2300,2536A,103.7629,29.5844,乐山市,牛耳桥,细颗粒物(PM2.5),168,147,154,127,141,5,,76,43,60,44,8,8,1.0,1.1
2026-01-12T2300,2537A,103.7501,29.6002,乐山市,市第三水厂,细颗粒物(PM2.5),149,144,162,114,136,1,,81,49,67,47,6,7,1.1,1.2
2026-01-12T2300,2538A,103.7571,29.5664,乐山市,市监测站,细颗粒物(PM2.5),166,151,162,126,144,18,,88,69,64,39,7,7,1.3,1.2
2026-01-12T2300,3361A,103.7313,29.563,乐山市,理工大学,细颗粒物(PM2.5),160,149,168,122,151,37,,97,81,44,37,5,6,0.9,0.9
2026-01-12T2300,2599A,100.2497,26.8802,丽江市,丽江古城,,49,49,26,20,10,43,,82,72,24,10,9,8,0.7,0.5
2026-01-12T2300,2600A,100.2203,26.8906,丽江市,市中心,,29,29,18,16,8,51,,82,72,19,11,8,7,0.5,0.4
2026-01-12T2300,1267A,119.9141,28.4513,丽水市,监测站大楼,细颗粒物(PM2.5),82,81,66,60,40,2,,73,28,56,37,5,7,1.1,0.7
2026-01-12T2300,1268A,119.93,28.4589,丽水市,莲都小学,颗粒物(PM10),72,93,73,39,27,1,,79,33,67,39,/,/,/,/
2026-01-12T2300,1269A,119.8794,28.4232,丽水市,余庄前,颗粒物(PM10),53,56,60,26,29,17,,75,48,31,28,4,5,0.3,0.3
2026-01-12T2300,1173A,119.1759,34.5885,连云港市,市环境监测站,细颗粒物(PM2.5),119,134,80,90,41,4,,56,28,77,34,23,13,0.9,0.7
2026-01-12T2300,3000A,119.3577,34.6971,连云港市,德源药业,细颗粒物(PM2.5),113,161,94,85,40,4,,58,21,79,39,11,7,0.9,0.8
2026-01-12T2300,3007A,119.178,34.8442,连云港市,新城一中,细颗粒物(PM2.5),133,132,70,101,46,19,,60,40,70,33,17,13,1.2,0.9
2026-01-12T2300,3008A,119.3607,34.7519,连云港市,胡沟管理处,细颗粒物(PM2.5),104,139,71,78,35,10,,62,31,78,34,12,6,1.0,0.8
2026-01-12T2300,3009A,119.1478,34.5913,连云港市,矿山设计院,细颗粒物(PM2.5),104,141,83,78,36,2,,60,32,83,36,22,12,1.0,0.7
2026-01-12T2300,3434A,119.2414,34.6539,连云港市,工贸学校,细颗粒物(PM2.5),118,145,89,89,43,31,,58,48,43,25,20,15,1.0,0.8
2026-01-12T2300,3664A,119.4171,34.734,连云港市,连云街道,细颗粒物(PM2.5),98,126,93,73,36,36,,73,59,45,23,9,6,0.9,0.8
2026-01-12T2300,2573A,102.2629,27.8981,凉山彝族自治州,西昌市政府,,37,37,40,22,28,61,,75,71,9,16,7,8,0.7,0.7
2026-01-12T2300,2574A,102.2686,27.885,凉山彝族自治州,凉山州政府,,41,41,44,27,29,50,,73,65,17,20,9,9,0.8,0.9
2026-01-12T2300,4229A,102.2342,27.8859,凉山彝族自治州,凯乐南路30号,,46,46,51,25,29,37,,65,55,33,32,7,7,0.6,0.5
2026-01-12T2300,2212A,123.1978,41.2036,辽阳市,宏伟区,,46,33,42,32,22,42,,63,47,21,12,9,8,0.7,0.6
2026-01-12T2300,2213A,123.1684,41.2497,辽阳市,新华园,细颗粒物(PM2.5),98,,44,73,27,18,,60,36,52,22,13,10,0.9,0.5
2026-01-12T2300,2214A,123.2355,41.2663,辽阳市,滨河路,颗粒物(PM10),56,62,47,39,22,16,,48,28,39,19,23,13,0.3,0.2
2026-01-12T2300,4083A,123.153,41.2874,辽阳市,铁西路150号,细颗粒物(PM2.5),72,55,51,52,23,18,,57,35,46,22,10,9,0.9,0.6
2026-01-12T2300,2227A,125.1359,42.8845,辽源市,环保局,,49,49,49,17,22,60,,65,63,10,16,6,7,0.5,0.6
2026-01-12T2300,4085A,125.0998,42.9134,辽源市,安宁大街333号,,39,39,39,21,15,54,,62,58,14,17,5,12,0.3,0.4
2026-01-12T2300,1625A,115.9789,36.4372,聊城市,区政府,细颗粒物(PM2.5),98,124,100,73,42,39,,50,38,50,41,16,17,1.0,0.9
2026-01-12T2300,3200A,115.9772,36.4986,聊城市,监控中心,细颗粒物(PM2.5),89,105,103,66,45,38,,58,45,54,36,15,16,0.7,0.7
2026-01-12T2300,3513A,116.0443,36.436,聊城市,九州社区,细颗粒物(PM2.5),87,117,104,64,46,49,,63,48,37,25,11,8,0.7,0.6
2026-01-12T2300,4018A,116.0564,36.4609,聊城市,星美广场,颗粒物(PM10),82,114,105,58,42,46,,55,47,35,24,8,7,0.8,0.7
2026-01-12T2300,4113A,116.0091,36.4495,聊城市,利民路,细颗粒物(PM2.5),90,102,88,67,48,44,,55,44,48,39,14,14,1.0,0.9
2026-01-12T2300,2632A,94.3683,29.6373,林芝市,林芝监测站,,29,29,16,16,9,33,,80,60,27,14,3,3,0.6,0.5
2026-01-12T2300,2633A,94.3616,29.6634,林芝市,林芝人民医院,,32,32,17,19,10,36,,71,63,24,11,3,3,0.5,0.5
2026-01-12T2300,2603A,100.0779,23.8981,临沧市,市环保局,细颗粒物(PM2.5),85,,39,63,43,32,,79,60,22,12,4,3,0.7,0.5
2026-01-12T2300,2604A,100.0894,23.882,临沧市,市气象局,细颗粒物(PM2.5),58,44,40,41,31,44,,80,63,12,13,7,7,0.6,0.5
2026-01-12T2300,1733A,111.5552,36.0791,临汾市,临钢医院,颗粒物(PM10),103,156,122,69,54,11,,48,28,40,37,7,10,1.3,1
2026-01-12T2300,1734A,111.4984,36.0734,临汾市,技工学校,细颗粒物(PM2.5),143,210,127,109,62,1,,45,23,60,45,11,15,1.6,1.2
2026-01-12T2300,1736A,111.5017,36.0857,临汾市,市委,颗粒物(PM10),141,232,127,106,56,2,,50,25,70,49,16,17,1.8,1.5
2026-01-12T2300,3018A,111.5048,36.1015,临汾市,唐尧大酒店,细颗粒物(PM2.5),155,222,125,118,57,6,,49,27,68,48,12,12,2.0,1.3
2026-01-12T2300,4244A,111.4879,36.053,临汾市,启星学校,细颗粒物(PM2.5),129,198,119,98,58,2,,48,24,84,60,12,15,2.1,1.6
2026-01-12T2300,4271A,103.2464,35.6123,临夏回族自治州,滨河东路1号,细颗粒物(PM2.5),134,210,140,102,63,5,,59,29,48,37,9,7,1.8,1.4
2026-01-12T2300,4310A,103.207136,35.599807,临夏回族自治州,新华街21号,细颗粒物(PM2.5),142,168,119,108,72,3,,61,39,54,40,16,11,2.8,2
2026-01-12T2300,1618A,118.3429,35.0532,临沂市,沂河小区,细颗粒物(PM2.5),162,197,122,123,63,4,,47,19,90,55,41,25,1.5,0.9
2026-01-12T2300,1619A,118.2962,35.0568,临沂市,鲁南制药厂,细颗粒物(PM2.5),205,241,124,155,66,,,50,15,95,58,43,31,1.4,1
2026-01-12T2300,1620A,118.2793,34.9976,临沂市,新光毛纺厂,细颗粒物(PM2.5),112,129,107,84,55,5,,52,23,76,50,31,21,1.1,0.8
2026-01-12T2300,1621A,118.3955,35.0889,临沂市,河东保险公司,细颗粒物(PM2.5),129,151,103,98,54,7,,52,23,81,47,29,26,1.3,0.9
2026-01-12T2300,3370A,118.3563,35.0215,临沂市,十里堡居委,细颗粒物(PM2.5),132,183,115,100,55,4,,55,22,90,55,54,28,1.4,0.9
2026-01-12T2300,3496A,118.359,35.1067,临沂市,南坊新区,细颗粒物(PM2.5),117,146,102,88,52,3,,50,24,87,51,25,21,1.0,0.7
2026-01-12T2300,3860A,118.3915,35.0297,临沂市,皇山花园小区,颗粒物(PM10),107,163,103,66,47,8,,55,27,93,53,35,26,1.2,0.9
2026-01-12T2300,1870A,109.4854,24.3898,柳州市,柳东小学,细颗粒物(PM2.5),112,105,82,84,66,86,,100,99,26,29,22,34,1.2,0.9
2026-01-12T2300,1871A,109.4109,24.3304,柳州市,环保监测站,细颗粒物(PM2.5),142,138,110,108,77,3,,93,53,78,49,9,12,1.8,1.2
2026-01-12T2300,1872A,109.3886,24.3408,柳州市,河西水厂,细颗粒物(PM2.5),145,230,151,111,91,2,,94,48,81,53,13,17,1.2,1.2
2026-01-12T2300,1873A,109.4263,24.2951,柳州市,市四中,细颗粒物(PM2.5),132,130,108,100,82,0,,90,46,88,58,13,15,2.1,1.1
2026-01-12T2300,1874A,109.396,24.3658,柳州市,市九中,细颗粒物(PM2.5),150,202,116,115,80,12,,90,53,79,49,27,21,1.7,1.3
2026-01-12T2300,1875A,109.4912,24.3164,柳州市,古亭山,细颗粒物(PM2.5),79,86,76,58,51,1,,87,52,80,52,14,15,0.9,0.7
2026-01-12T2300,3402A,109.5422,24.3994,柳州市,市二中,细颗粒物(PM2.5),109,101,81,82,68,0,,86,52,57,43,9,30,1.0,0.7
2026-01-12T2300,2307A,116.5078,31.7369,六安市,监测大楼,细颗粒物(PM2.5),64,59,64,46,35,69,,96,89,34,30,5,5,0.6,0.5
2026-01-12T2300,2308A,116.4738,31.7642,六安市,皖西学院,细颗粒物(PM2.5),72,79,73,52,33,77,,106,92,28,25,7,6,0.5,0.5
2026-01-12T2300,2309A,116.4997,31.7904,六安市,朝阳厂,细颗粒物(PM2.5),60,67,65,43,32,87,,96,92,18,26,7,7,0.5,0.5
2026-01-12T2300,2310A,116.5566,31.7885,六安市,开发区,细颗粒物(PM2.5),68,81,86,49,40,80,,87,77,28,35,7,6,0.5,0.6
2026-01-12T2300,2577A,104.8293,26.592,六盘水市,黄土坡,细颗粒物(PM2.5),87,97,78,64,59,16,,76,53,39,24,8,13,1.2,0.9
2026-01-12T2300,2579A,104.8481,26.5898,六盘水市,民中,细颗粒物(PM2.5),125,126,77,95,63,4,,71,38,63,31,27,12,1.9,1
2026-01-12T2300,2580A,104.9541,26.5506,六盘水市,双水,细颗粒物(PM2.5),87,90,75,64,58,36,,73,55,26,20,5,6,0.5,0.5
2026-01-12T2300,4151A,104.8899,26.5685,六盘水市,钟山大道中段564号,细颗粒物(PM2.5),132,169,101,100,65,4,,67,41,62,29,17,13,1.8,1.4
2026-01-12T2300,2336A,117.022,25.1031,龙岩市,龙岩市监测站,,48,48,48,28,28,14,,117,68,64,31,17,23,1.1,0.6
2026-01-12T2300,2337A,117.0257,25.0662,龙岩市,闽西职业技术学院,颗粒物(PM10),53,56,62,24,31,35,,113,74,46,26,32,16,0.5,0.5
2026-01-12T2300,2338A,117.0195,25.0306,龙岩市,龙岩学院,,34,34,45,21,28,60,,112,89,17,16,8,9,/,/
2026-01-12T2300,2885A,104.9344,33.3827,陇南市,滨江中学,颗粒物(PM10),92,134,106,65,58,3,,55,23,67,47,21,15,2.8,1.7
2026-01-12T2300,3247A,104.9551,33.3709,陇南市,市总工会,细颗粒物(PM2.5),99,120,80,74,54,7,,61,42,66,33,18,11,2.3,1.1
2026-01-12T2300,2488A,111.9984,27.7346,娄底市,市监测站,细颗粒物(PM2.5),189,192,121,142,86,4,,56,37,73,44,13,13,2.3,1.2
2026-01-12T2300,2491A,111.9888,27.7035,娄底市,市政府,细颗粒物(PM2.5),189,178,127,142,98,5,,51,34,51,35,8,10,1.5,1.2
2026-01-12T2300,4127A,111.9812,27.7591,娄底市,涟钢职大,细颗粒物(PM2.5),158,203,128,120,76,0,,50,32,67,43,8,13,1.7,0.9
2026-01-12T2300,4128A,112.0303,27.7457,娄底市,娄底体校,细颗粒物(PM2.5),149,145,109,114,80,10,,48,37,31,29,2,4,1.0,0.8
2026-01-12T2300,1894A,105.4427,28.9063,泸州市,小市上码头,细颗粒物(PM2.5),159,156,151,121,112,45,,80,71,26,26,12,12,1.3,1.3
2026-01-12T2300,1895A,105.4241,28.8573,泸州市,兰田宪桥,细颗粒物(PM2.5),158,153,152,120,111,42,,83,67,37,23,8,8,1.4,1.3
2026-01-12T2300,1896A,105.4378,28.8833,泸州市,市环监站,细颗粒物(PM2.5),142,141,143,108,112,38,,89,73,38,25,8,9,1.2,1.2
2026-01-12T2300,4272A,105.3689,28.7783,泸州市,纳溪中医医院,细颗粒物(PM2.5),183,177,144,138,128,8,,83,51,35,25,8,9,1.3,1.1
2026-01-12T2300,2183A,111.1447,37.5212,吕梁市,环保局,颗粒物(PM10),132,214,157,50,37,1,,52,21,54,40,4,5,0.4,0.6
2026-01-12T2300,2185A,111.1285,37.5338,吕梁市,自来水公司,颗粒物(PM10),146,241,159,55,44,2,,58,33,48,32,10,9,0.5,0.5
2026-01-12T2300,2867A,111.1225,37.5093,吕梁市,马茂庄小学,颗粒物(PM10),141,231,164,46,39,1,,47,20,56,42,5,8,0.5,0.6
2026-01-12T2300,1812A,112.3934,34.6517,洛阳市,市委党校,颗粒物(PM10),76,101,86,53,44,5,,79,46,74,37,10,11,1.2,0.7
2026-01-12T2300,1815A,112.494,34.6883,洛阳市,河南林校,颗粒物(PM10),78,106,103,47,36,6,,76,50,67,39,10,13,0.9,0.8
2026-01-12T2300,1816A,112.3843,34.623,洛阳市,开发区管委会,颗粒物(PM10),65,80,87,38,38,36,,77,62,37,28,9,11,0.7,0.7
2026-01-12T2300,1817A,112.4263,34.6249,洛阳市,市委新办公区,细颗粒物(PM2.5),79,90,88,58,42,4,,83,59,71,30,10,10,1.0,0.6
2026-01-12T2300,3340A,112.6005,34.6323,洛阳市,伊滨,细颗粒物(PM2.5),93,104,98,69,47,8,,76,50,54,29,7,9,0.6,0.5
2026-01-12T2300,3341A,112.495,34.6338,洛阳市,中移产业园,颗粒物(PM10),70,90,94,44,39,0,,74,48,81,41,14,12,1.0,0.5
2026-01-12T2300,3593A,112.5736,34.8993,洛阳市,吉利监测站,颗粒物(PM10),77,104,84,33,33,12,,82,53,57,32,9,9,0.6,0.6
2026-01-12T2300,3635A,112.3678,34.6623,洛阳市,河科大西苑校区,颗粒物(PM10),83,116,95,53,34,3,,75,44,62,32,12,11,1.0,0.7
2026-01-12T2300,3636A,112.4387,34.678,洛阳市,英才小学,颗粒物(PM10),82,114,99,57,44,5,,78,44,78,42,12,14,1.0,0.7
2026-01-12T2300,4214A,112.460027,34.694929,洛阳市,春都路1号院,颗粒物(PM10),86,122,113,42,35,13,,76,53,59,34,7,11,0.9,0.8
2026-01-12T2300,2399A,114.051,33.5721,漯河市,三五一五工厂,细颗粒物(PM2.5),90,113,101,67,44,50,,75,65,29,21,9,8,1.0,0.9
2026-01-12T2300,2400A,114.0055,33.5698,漯河市,漯河大学,,,94,87,56,41,,,73,,20,22,7,7,0.7,0.7
2026-01-12T2300,2401A,114.0134,33.5826,漯河市,市水利局,细颗粒物(PM2.5),85,100,86,63,44,34,,68,56,28,20,8,8,0.7,0.6
2026-01-12T2300,2402A,114.0261,33.5697,漯河市,市广电局,细颗粒物(PM2.5),84,98,86,62,44,48,,75,64,30,22,9,8,0.7,0.6
2026-01-12T2300,3478A,113.9691,33.568,漯河市,市图书馆,细颗粒物(PM2.5),78,103,93,57,45,55,,64,61,16,18,6,7,0.6,0.6
2026-01-12T2300,4250A,114.089259,33.588274,漯河市,韶山路11号,"颗粒物(PM10),细颗粒物(PM2.5)",75,100,95,55,41,58,,75,66,21,23,8,8,0.7,0.7
2026-01-12T2300,1798A,118.5084,31.6838,马鞍山市,湖东路四小,"颗粒物(PM10),细颗粒物(PM2.5)",67,83,78,48,33,40,,64,52,36,34,6,6,0.5,0.6
2026-01-12T2300,1799A,118.5019,31.6449,马鞍山市,开发区,细颗粒物(PM2.5),73,85,85,53,41,23,,60,37,56,41,6,6,0.5,0.6
2026-01-12T2300,3633A,118.4914,31.681,马鞍山市,雨山,细颗粒物(PM2.5),78,93,81,57,38,32,,72,54,48,36,8,8,0.6,0.6
2026-01-12T2300,4191A,118.527362,31.722269,马鞍山市,慈湖高新区,细颗粒物(PM2.5),85,104,92,63,43,27,,62,42,53,44,8,9,0.7,0.7
2026-01-12T2300,1686A,111.0285,21.469,茂名市,电白南海,颗粒物(PM10),62,73,69,27,27,93,,125,113,34,21,8,13,1.0,0.8
2026-01-12T2300,1687A,110.9294,21.6533,茂名市,茂石化七小,颗粒物(PM10),62,73,65,31,26,98,,121,110,20,23,8,13,0.6,0.4
2026-01-12T2300,1688A,110.9108,21.6688,茂名市,健康路,颗粒物(PM10),53,56,60,24,30,96,,132,118,25,28,8,22,0.7,0.7
2026-01-12T2300,1689A,110.8592,21.6826,茂名市,高岭,颗粒物(PM10),73,95,84,29,29,71,,133,111,41,27,16,20,/,/
2026-01-12T2300,3450A,111.0101,21.5165,茂名市,电白水东,颗粒物(PM10),53,56,55,22,23,114,,124,114,17,17,7,10,/,/
2026-01-12T2300,2540A,103.8414,30.0871,眉山市,气象局,细颗粒物(PM2.5),208,185,167,158,149,9,,109,83,70,43,12,16,1.1,1
2026-01-12T2300,3148A,103.829,30.0563,眉山市,区人社局,细颗粒物(PM2.5),201,178,166,151,147,0,,96,64,89,52,10,12,1.6,1.2
2026-01-12T2300,4148A,103.8836,30.0695,眉山市,眉职院,细颗粒物(PM2.5),172,172,172,130,131,3,,104,68,71,37,1,3,1.1,1.1
2026-01-12T2300,1690A,116.1248,24.3307,梅州市,梅江月梅,颗粒物(PM10),66,81,60,37,31,11,,130,92,79,38,/,/,/,/
2026-01-12T2300,1691A,116.0798,24.2719,梅州市,梅县新城,细颗粒物(PM2.5),68,74,64,49,38,23,,122,61,62,43,7,8,0.8,0.7
2026-01-12T2300,3315A,116.1234,24.2994,梅州市,梅龙,颗粒物(PM10),60,70,63,41,32,34,,116,73,43,36,8,9,0.9,0.7
2026-01-12T2300,1878A,104.7775,31.4741,绵阳市,富乐山,细颗粒物(PM2.5),144,128,133,110,107,28,,88,75,65,39,11,11,1.0,0.8
2026-01-12T2300,1880A,104.6698,31.4668,绵阳市,高新区自来水公司,细颗粒物(PM2.5),175,174,156,132,117,0,,88,54,92,49,10,9,1.3,1.2
2026-01-12T2300,3491A,104.6899,31.5324,绵阳市,西科大附属小学,细颗粒物(PM2.5),155,155,155,118,118,3,,86,64,101,46,8,8,0.9,0.8
2026-01-12T2300,3492A,104.5647,31.5343,绵阳市,安州区旅游局,细颗粒物(PM2.5),178,179,135,134,114,11,,91,52,65,46,10,12,1.1,1.3
2026-01-12T2300,4146A,104.7092,31.4972,绵阳市,科技城新区公安局,细颗粒物(PM2.5),160,147,131,122,107,14,,105,88,96,38,5,5,1.0,0.9
2026-01-12T2300,4226A,104.765114,31.453094,绵阳市,绵阳市气象局,细颗粒物(PM2.5),149,144,142,114,114,1,,84,62,99,52,2,3,1.4,1.1
2026-01-12T2300,1784A,129.61,44.561,牡丹江市,环保大楼,细颗粒物(PM2.5),82,102,55,60,40,11,,31,15,53,35,5,5,0.8,0.6
2026-01-12T2300,1787A,129.6364,44.6075,牡丹江市,机车工厂,细颗粒物(PM2.5),88,108,77,65,47,3,,16,8,51,45,3,4,1.2,0.8
2026-01-12T2300,1788A,129.6386,44.5462,牡丹江市,第一中学,细颗粒物(PM2.5),69,,43,50,34,10,,25,9,35,32,6,6,0.9,0.7
2026-01-12T2300,4287A,129.5992,44.5964,牡丹江市,东晓云街98号,细颗粒物(PM2.5),100,95,71,75,62,7,,32,18,45,34,6,8,1.6,1
2026-01-12T2300,2531A,105.0703,29.61,内江市,市监测站,细颗粒物(PM2.5),140,,115,107,114,26,,113,74,47,32,5,6,1.2,1.1
2026-01-12T2300,2533A,105.0657,29.5807,内江市,内江二中,细颗粒物(PM2.5),135,128,133,103,115,4,,98,61,61,40,5,5,1.3,1.1
2026-01-12T2300,2534A,105.0407,29.5828,内江市,内江日报社,细颗粒物(PM2.5),132,124,111,100,110,3,,107,64,97,46,3,3,1.4,0.9
2026-01-12T2300,4147A,105.0433,29.6105,内江市,玉峰路西段888号,细颗粒物(PM2.5),150,,117,115,113,15,,109,70,55,40,1,1,1.1,1
2026-01-12T2300,2628A,92.0653,31.4846,那曲市,那曲监测站,细颗粒物(PM2.5),200,204,43,150,28,24,,73,58,74,29,27,8,4.2,1.5
2026-01-12T2300,4243A,92.0515,31.4787,那曲市,那曲市委宣传部,细颗粒物(PM2.5),83,81,25,61,16,12,,76,59,57,18,18,8,2.2,0.9
2026-01-12T2300,1291A,115.8887,28.7006,南昌市,省林业公司,细颗粒物(PM2.5),98,139,105,73,45,2,,35,28,84,61,12,10,1.4,1.1
2026-01-12T2300,1292A,115.813,28.7443,南昌市,林科所,颗粒物(PM10),64,78,86,44,41,5,,39,17,69,61,12,12,0.5,0.5
2026-01-12T2300,1294A,115.8518,28.687,南昌市,建工学校,细颗粒物(PM2.5),97,137,108,72,47,12,,31,25,64,51,30,19,1.0,0.8
2026-01-12T2300,1295A,115.8926,28.6425,南昌市,象湖,细颗粒物(PM2.5),94,111,86,70,45,1,,25,10,68,60,18,14,0.8,0.8
2026-01-12T2300,3046A,115.9084,28.6062,南昌市,机电学校,细颗粒物(PM2.5),122,146,114,92,53,5,,22,12,65,62,9,11,0.8,0.7
2026-01-12T2300,3690A,115.9718,28.7032,南昌市,外国语学校,细颗粒物(PM2.5),107,126,96,80,44,0,,27,13,81,62,18,18,1.0,0.7
2026-01-12T2300,4106A,115.7923,28.6873,南昌市,工业二路,细颗粒物(PM2.5),108,110,75,81,47,1,,29,20,85,71,13,9,0.7,0.5
2026-01-12T2300,4192A,115.931587,28.686774,南昌市,南京东路235号,细颗粒物(PM2.5),122,144,102,92,50,5,,28,16,80,65,14,11,1.0,0.6
2026-01-12T2300,1906A,106.0791,30.8022,南充市,南充市委,细颗粒物(PM2.5),185,167,134,139,122,2,,55,34,69,41,5,5,1.7,1.1
2026-01-12T2300,1907A,106.1038,30.8215,南充市,南充炼油厂,细颗粒物(PM2.5),216,184,141,166,122,10,,74,57,67,34,6,6,1.3,0.9
2026-01-12T2300,4227A,106.108336,30.788436,南充市,梨树横街98号,细颗粒物(PM2.5),158,142,136,120,108,29,,80,71,67,38,6,7,1.2,0.9
2026-01-12T2300,4304A,106.1172,30.843,南充市,清泉寺北路188号,细颗粒物(PM2.5),159,141,115,121,111,33,,86,78,43,28,6,6,0.8,0.7
2026-01-12T2300,4305A,106.067,30.7616,南充市,同庆路1号,细颗粒物(PM2.5),144,133,129,110,113,1,,70,,65,38,7,7,1.4,1.6
2026-01-12T2300,1151A,118.8033,32.1085,南京市,迈皋桥,颗粒物(PM10),59,68,62,39,28,32,,62,48,48,31,6,6,0.8,0.8
2026-01-12T2300,1152A,118.7487,32.057,南京市,草场门,颗粒物(PM10),68,85,81,41,31,38,,57,43,49,44,11,9,0.5,0.4
2026-01-12T2300,1154A,118.770105,32.004342,南京市,中华门,颗粒物(PM10),67,83,73,46,32,8,,55,29,64,43,6,6,0.8,0.8
2026-01-12T2300,1155A,118.8059,32.0329,南京市,瑞金路,细颗粒物(PM2.5),73,80,79,53,37,2,,48,25,102,59,4,4,1.1,1
2026-01-12T2300,1156A,118.7946,32.0774,南京市,玄武湖,颗粒物(PM10),63,76,69,37,25,40,,53,46,26,26,4,4,0.7,0.7
2026-01-12T2300,1157A,118.6415,32.0964,南京市,浦口,颗粒物(PM10),70,89,78,44,29,69,,66,66,23,37,10,12,0.4,0.6
2026-01-12T2300,1158A,118.730129,32.000956,南京市,奥体中心,颗粒物(PM10),71,91,80,48,33,20,,61,41,68,44,8,12,0.7,0.8
2026-01-12T2300,1159A,118.9072,32.1047,南京市,仙林大学城,颗粒物(PM10),65,80,84,36,28,31,,56,40,55,44,10,10,0.8,0.8
2026-01-12T2300,3422A,118.8443,31.919,南京市,江宁彩虹桥,细颗粒物(PM2.5),67,75,68,48,37,20,,73,46,50,35,4,4,0.6,0.6
2026-01-12T2300,3427A,118.8497,32.3599,南京市,六合雄州,细颗粒物(PM2.5),78,100,83,57,35,43,,69,65,37,39,10,14,0.8,0.9
2026-01-12T2300,4086A,118.7641,32.0841,南京市,新模范马路66号,"颗粒物(PM10),细颗粒物(PM2.5)",67,83,82,48,34,28,,53,40,58,42,4,4,0.7,0.7
2026-01-12T2300,4249A,118.8707617,31.34017673,南京市,汶溪路181号,颗粒物(PM10),53,56,57,31,33,52,,76,63,37,32,8,8,0.7,0.5
2026-01-12T2300,4312A,119.019,31.6512,南京市,中山西路1号,颗粒物(PM10),65,80,57,41,33,42,,68,59,35,34,6,4,0.7,0.6
2026-01-12T2300,1401A,108.3098,22.788,南宁市,二十一中,细颗粒物(PM2.5),85,100,66,63,52,0,,112,78,97,41,5,6,1.7,1
2026-01-12T2300,1402A,108.3135,22.8529,南宁市,北湖,细颗粒物(PM2.5),109,124,74,82,60,2,,124,78,109,53,4,9,1.2,0.9
2026-01-12T2300,1403A,108.3205,22.8222,南宁市,市监测站,"颗粒物(PM10),细颗粒物(PM2.5)",74,98,68,54,46,8,,120,81,113,48,7,12,1.3,0.9
2026-01-12T2300,1404A,108.3828,22.8038,南宁市,大自然花园,颗粒物(PM10),63,76,70,44,50,37,,127,84,61,41,7,8,0.9,0.8
2026-01-12T2300,1406A,108.2397,22.8462,南宁市,区农职院,颗粒物(PM10),60,70,65,31,44,59,,120,88,32,40,8,14,0.8,0.9
2026-01-12T2300,1407A,108.3285,22.7356,南宁市,英华嘉园,细颗粒物(PM2.5),89,74,75,66,61,1,,119,64,80,50,4,6,1.2,0.8
2026-01-12T2300,3401A,108.4829,22.762,南宁市,红星社区,颗粒物(PM10),61,71,61,41,44,20,,125,85,70,42,6,7,0.9,0.8
2026-01-12T2300,4132A,108.2927,23.1477,南宁市,起凤路9号,细颗粒物(PM2.5),110,123,79,83,60,0,,139,98,80,32,2,4,0.9,0.7
2026-01-12T2300,4221A,108.2177,22.7774,南宁市,乐贤路16号,颗粒物(PM10),69,87,84,42,50,0,,120,72,69,54,2,4,0.9,0.7
2026-01-12T2300,2332A,118.1682,26.6371,南平市,南平市监测站,,49,49,52,28,26,20,,89,54,40,21,4,5,0.6,0.5
2026-01-12T2300,2334A,118.1757,26.6276,南平市,南平七中,,37,37,55,23,22,35,,90,60,31,20,6,7,0.6,0.6
2026-01-12T2300,1168A,120.9056,31.9669,南通市,狼山街道,细颗粒物(PM2.5),63,73,65,45,31,2,,38,13,81,51,5,4,0.6,0.4
2026-01-12T2300,1170A,120.8635,32.0231,南通市,城中,颗粒物(PM10),80,110,72,46,27,1,,42,13,91,54,13,6,1.2,0.7
2026-01-12T2300,1171A,120.9376,31.9301,南通市,星湖花园,"颗粒物(PM10),细颗粒物(PM2.5)",67,84,71,48,30,9,,48,20,88,55,10,7,0.8,0.3
2026-01-12T2300,1172A,120.8053,32.046,南通市,紫琅学院,颗粒物(PM10),75,99,65,43,23,9,,44,16,82,51,10,5,0.8,0.5
2026-01-12T2300,3291A,121.0631,32.0644,南通市,通州监测站,颗粒物(PM10),73,95,68,51,27,5,,54,19,104,55,12,7,1.2,0.6
2026-01-12T2300,3432A,120.9348,31.9874,南通市,环境教育馆,颗粒物(PM10),63,75,68,39,28,5,,44,19,75,54,8,7,0.9,0.7
2026-01-12T2300,4091A,120.8692,31.9885,南通市,洪江路,细颗粒物(PM2.5),67,76,55,48,28,0,,38,7,86,53,6,5,0.8,0.6
2026-01-12T2300,2404A,112.5338,33.0086,南阳市,瓦房庄,细颗粒物(PM2.5),186,160,93,140,57,7,,69,33,54,32,9,8,1.3,0.9
2026-01-12T2300,2405A,112.5002,32.9734,南阳市,汉画馆,细颗粒物(PM2.5),159,165,97,121,50,6,,66,32,59,38,6,8,1.2,0.8
2026-01-12T2300,2406A,112.5778,33.0144,南阳市,气象站,细颗粒物(PM2.5),138,168,106,105,48,8,,75,47,63,32,7,7,1.2,0.8
2026-01-12T2300,2407A,112.548,32.9687,南阳市,理工学院,细颗粒物(PM2.5),109,135,97,82,50,5,,73,37,66,40,9,7,1.2,0.8
2026-01-12T2300,4008A,112.5233,32.9921,南阳市,卧龙区政府,细颗粒物(PM2.5),134,189,106,102,50,4,,65,32,63,37,7,7,1.3,0.9
2026-01-12T2300,1234A,121.8352,29.9111,宁波市,区环保大楼,颗粒物(PM10),74,98,73,39,24,2,,74,28,102,57,6,6,0.8,0.5
2026-01-12T2300,1235A,121.5595,29.8208,宁波市,万里学院,颗粒物(PM10),66,82,87,37,37,32,,80,53,63,47,5,6,0.6,0.6
2026-01-12T2300,1236A,121.713,29.9564,宁波市,龙赛医院,颗粒物(PM10),76,102,92,53,40,28,,75,41,63,49,3,3,0.7,0.6
2026-01-12T2300,1240A,121.5855,29.8635,宁波市,太古小学,颗粒物(PM10),63,76,79,41,35,9,,86,51,86,44,5,5,0.7,0.7
2026-01-12T2300,1241A,121.5239,29.8673,宁波市,市环境监测中心,颗粒物(PM10),64,77,76,40,32,18,,76,48,83,48,7,8,0.8,0.7
2026-01-12T2300,2871A,121.6156,29.9015,宁波市,万里国际学校,颗粒物(PM10),59,67,68,35,31,41,,87,63,60,44,6,5,0.6,0.5
2026-01-12T2300,3710A,121.5593,29.8976,宁波市,白沙活动中心,颗粒物(PM10),62,73,68,40,30,28,,78,44,61,45,5,6,0.8,0.7
2026-01-12T2300,4095A,121.8962,29.7529,宁波市,中科路88号,颗粒物(PM10),61,72,65,35,28,4,,96,47,78,41,5,5,0.3,0.5
2026-01-12T2300,2341A,119.5387,26.6611,宁德市,宁德市监测站,,42,42,63,21,21,44,,82,66,22,24,7,8,0.6,0.5
2026-01-12T2300,3209A,119.5231,26.6562,宁德市,宁德一中,,42,42,61,23,25,48,,81,67,19,19,6,7,0.6,0.6
2026-01-12T2300,2618A,98.859,25.8541,怒江傈僳族自治州,州监测站,,43,37,29,30,20,39,,73,62,20,9,8,8,0.4,0.4
2026-01-12T2300,2619A,98.8607,25.8168,怒江傈僳族自治州,泸水一中,,29,25,28,20,21,23,,59,38,24,17,6,6,0.8,0.7
2026-01-12T2300,1888A,101.6891,26.571,攀枝花市,弄弄坪,细颗粒物(PM2.5),54,53,57,38,31,54,,84,77,18,27,11,20,0.7,1.7
2026-01-12T2300,1889A,101.577,26.5914,攀枝花市,河门口,细颗粒物(PM2.5),67,68,56,48,35,25,,88,75,40,26,15,25,1.0,1.2
2026-01-12T2300,1891A,101.7365,26.4986,攀枝花市,仁和,细颗粒物(PM2.5),60,52,42,43,27,42,,83,64,19,20,8,9,0.8,0.7
2026-01-12T2300,2835A,101.7222,26.567,攀枝花市,四十中小,颗粒物(PM10),57,63,43,34,24,9,,79,49,65,30,12,12,1.5,1.1
2026-01-12T2300,1604A,122.0303,41.1489,盘锦市,开发区,,42,42,60,22,29,50,,52,44,13,15,6,6,0.6,0.7
2026-01-12T2300,1605A,122.0486,41.0883,盘锦市,兴隆台,,44,44,51,25,24,43,,48,40,28,27,9,8,0.6,0.6
2026-01-12T2300,1606A,121.8297,41.1026,盘锦市,新生街道,,25,25,53,3,23,49,,51,38,28,25,6,9,0.3,0.6
2026-01-12T2300,1832A,113.3257,33.7423,平顶山市,新华旅馆,细颗粒物(PM2.5),134,161,104,102,49,6,,70,39,68,35,6,7,1.1,0.7
2026-01-12T2300,1833A,113.2917,33.737,平顶山市,规划设计院,细颗粒物(PM2.5),105,148,107,79,52,5,,72,36,67,34,6,9,1.7,0.8
2026-01-12T2300,1834A,113.182,33.7738,平顶山市,平顶山工学院,颗粒物(PM10),81,112,93,53,49,55,,77,64,29,26,11,10,0.4,0.4
2026-01-12T2300,3594A,112.8736,33.9068,平顶山市,石龙区,颗粒物(PM10),87,123,107,40,47,1,,81,50,85,42,6,8,0.7,0.6
2026-01-12T2300,4116A,113.284,33.7139,平顶山市,姚电大道23号,颗粒物(PM10),87,123,122,61,53,41,,72,59,37,30,7,9,0.7,0.6
2026-01-12T2300,2656A,106.6633,35.5338,平凉市,聚贤嘉苑,颗粒物(PM10),51,51,41,20,19,38,,85,59,38,22,17,13,0.8,0.6
2026-01-12T2300,2657A,106.7021,35.5307,平凉市,博物馆,细颗粒物(PM2.5),53,46,51,37,25,45,,82,59,28,25,11,12,0.6,0.7
2026-01-12T2300,2348A,113.8384,27.6436,萍乡市,中医院,细颗粒物(PM2.5),144,151,128,110,65,7,,53,17,62,53,8,17,2.2,1.9
2026-01-12T2300,2350A,113.8677,27.6438,萍乡市,市环保局,细颗粒物(PM2.5),169,159,117,128,73,5,,41,18,58,51,17,25,2.0,1.4
2026-01-12T2300,2351A,113.8663,27.6202,萍乡市,安源区政府,细颗粒物(PM2.5),208,169,120,158,94,3,,35,17,49,42,12,17,1.7,1.4
2026-01-12T2300,4107A,113.8686,27.6668,萍乡市,联洪村委会,细颗粒物(PM2.5),160,188,117,122,66,16,,47,20,58,47,6,6,2.3,1.1
2026-01-12T2300,2319A,119.0142,25.4324,莆田市,荔城区仓后路,颗粒物(PM10),55,60,62,31,18,53,,98,80,26,17,/,/,/,/
2026-01-12T2300,2320A,119.0016,25.4553,莆田市,莆田市监测站,,33,32,51,23,14,70,,100,84,14,12,4,4,0.5,0.4
2026-01-12T2300,2321A,119.112,25.4561,莆田市,涵江区六中,颗粒物(PM10),53,55,55,14,14,56,,100,88,34,14,/,/,0.6,0.5
2026-01-12T2300,2322A,119.1014,25.3215,莆田市,秀屿区政府,颗粒物(PM10),64,77,67,41,22,35,,96,72,40,16,4,3,0.6,0.5
2026-01-12T2300,2392A,115.0312,35.7636,濮阳市,环保局,细颗粒物(PM2.5),95,118,87,71,31,14,,61,,60,37,9,8,1.2,0.8
2026-01-12T2300,3021A,115,35.7667,濮阳市,濮水河管理处,颗粒物(PM10),90,130,89,58,24,14,,57,32,52,37,7,8,1.2,0.9
2026-01-12T2300,4118A,115.0552,35.7816,濮阳市,中原东路68号,细颗粒物(PM2.5),97,138,100,72,37,14,,57,37,62,37,8,8,1.0,0.7
2026-01-12T2300,4216A,115.0923632,35.76857718,濮阳市,任丘路479号,细颗粒物(PM2.5),104,139,98,78,42,21,,57,39,55,36,10,8,0.9,0.7
2026-01-12T2300,2601A,100.9801,22.7634,普洱市,市环保局,细颗粒物(PM2.5),58,61,49,41,18,39,,69,57,10,9,4,4,0.5,0.5
2026-01-12T2300,2602A,100.9763,22.8237,普洱市,普洱第二中学,颗粒物(PM10),55,59,43,24,20,9,,71,51,31,15,5,5,0.5,0.4
2026-01-12T2300,3345A,131.0413,45.7795,七台河市,中波台,,46,38,55,32,40,41,,45,43,18,23,7,8,0.5,0.5
2026-01-12T2300,3637A,131.0136,45.7688,七台河市,人民广场,,46,38,50,32,43,32,,53,45,32,25,7,8,0.6,0.6
2026-01-12T2300,3684A,130.8639,45.8144,七台河市,新建矿广场,细颗粒物(PM2.5),53,48,54,37,37,31,,36,30,24,26,6,5,0.6,0.4
2026-01-12T2300,1779A,123.9307,47.3641,齐齐哈尔市,安居小区,细颗粒物(PM2.5),77,60,57,56,46,26,,30,22,32,25,9,9,0.9,0.8
2026-01-12T2300,1780A,123.9497,47.3389,齐齐哈尔市,中心广场,细颗粒物(PM2.5),64,71,58,46,44,34,,27,24,20,22,7,6,0.8,0.8
2026-01-12T2300,1781A,123.9483,47.3229,齐齐哈尔市,农牧车辆厂,细颗粒物(PM2.5),85,70,58,63,40,33,,27,25,14,16,7,6,0.6,0.5
2026-01-12T2300,1783A,123.9442,47.2994,齐齐哈尔市,市环境监测站,细颗粒物(PM2.5),67,53,59,48,41,45,,32,30,16,22,9,6,0.7,0.7
2026-01-12T2300,3662A,123.6341,47.2079,齐齐哈尔市,富区青少年活动中心,,39,35,57,27,42,42,,35,28,16,16,6,5,0.6,0.7
2026-01-12T2300,2591A,107.9765,26.5724,黔东南苗族侗族自治州,市环境监测站,细颗粒物(PM2.5),89,81,67,66,53,6,,49,31,41,32,3,2,0.6,0.6
2026-01-12T2300,2881A,107.8909,26.531,黔东南苗族侗族自治州,凯里学院,细颗粒物(PM2.5),75,61,66,55,50,9,,52,34,28,25,5,6,0.7,0.7
2026-01-12T2300,2593A,107.5223,26.2371,黔南布依族苗族自治州,小围寨,细颗粒物(PM2.5),55,46,38,39,32,36,,59,55,14,11,5,7,0.8,0.7
2026-01-12T2300,3538A,107.5175,26.2977,黔南布依族苗族自治州,沙坝,细颗粒物(PM2.5),62,51,42,44,36,21,,60,50,21,16,6,7,1.0,0.9
2026-01-12T2300,2589A,104.9022,25.0943,黔西南布依族苗族自治州,场坝街,细颗粒物(PM2.5),123,98,83,93,70,31,,66,58,28,17,5,6,0.8,0.7
2026-01-12T2300,2590A,104.8812,25.0994,黔西南布依族苗族自治州,坪东大道,细颗粒物(PM2.5),115,89,79,87,69,21,,72,60,34,18,6,7,1.0,0.8
2026-01-12T2300,2502A,108.6238,21.9667,钦州市,市环保站,颗粒物(PM10),78,105,104,51,50,56,,140,98,56,46,5,6,0.9,0.9
2026-01-12T2300,2503A,108.655,21.9481,钦州市,沙埠小学,颗粒物(PM10),118,185,109,70,58,1,,148,82,96,55,6,9,1.2,1.1
2026-01-12T2300,2504A,108.5989,21.7435,钦州市,港区一小,,48,48,84,30,45,91,,125,94,22,48,4,10,0.6,0.6
2026-01-12T2300,3404A,108.5959,21.9634,钦州市,北职校,颗粒物(PM10),72,94,93,43,56,70,,142,103,36,41,8,10,0.7,0.8
2026-01-12T2300,1046A,119.5247,39.9346,秦皇岛市,建设大厦,颗粒物(PM10),74,97,74,50,37,24,,40,23,44,44,15,18,0.6,0.9
2026-01-12T2300,3132A,119.5979,39.938,秦皇岛市,文明里,颗粒物(PM10),74,98,75,36,30,12,,39,21,59,43,18,20,0.6,0.8
2026-01-12T2300,4066A,119.7458,39.9952,秦皇岛市,南园路157号,颗粒物(PM10),72,93,81,41,32,7,,44,16,63,47,15,17,0.7,0.9
2026-01-12T2300,4067A,119.5131,39.8858,秦皇岛市,翠岛大街1号,颗粒物(PM10),60,70,69,30,29,22,,38,22,36,35,16,18,0.7,0.9
2026-01-12T2300,4198A,119.509013,39.825305,秦皇岛市,北戴河轮滑馆,颗粒物(PM10),74,97,79,53,32,28,,44,26,41,38,9,14,0.6,0.9
2026-01-12T2300,1310A,120.404,36.0625,青岛市,市南区东部子站,颗粒物(PM10),80,110,75,51,28,21,,63,20,58,33,17,13,1.0,0.8
2026-01-12T2300,1311A,120.362344,36.10282,青岛市,四方区子站,颗粒物(PM10),79,107,80,56,32,23,,66,22,50,29,10,7,1.0,0.8
2026-01-12T2300,1312A,120.294373,36.054183,青岛市,市南区西部子站,,,,77,51,30,26,,56,14,50,36,10,7,0.9,0.7
2026-01-12T2300,1313A,120.4581,36.0858,青岛市,崂山区子站,颗粒物(PM10),79,107,70,48,25,29,,66,23,48,28,18,14,0.8,0.5
2026-01-12T2300,1315A,120.3945,36.3083,青岛市,城阳区子站,颗粒物(PM10),80,110,81,54,29,27,,57,28,59,38,23,11,1.2,0.9
2026-01-12T2300,3642A,120.3454,36.0735,青岛市,市北区南部,颗粒物(PM10),85,119,68,46,28,25,,58,16,46,31,10,4,0.8,0.7
2026-01-12T2300,3643A,120.3897,36.18,青岛市,李沧区北部,细颗粒物(PM2.5),92,114,74,68,35,18,,55,17,61,36,19,12,1.3,1
2026-01-12T2300,4110A,120.5222,36.4089,青岛市,盟旺路653号,颗粒物(PM10),86,122,77,55,30,37,,58,36,46,37,13,7,0.7,0.7
2026-01-12T2300,4290A,120.196923,35.954556,青岛市,珠江路669号,颗粒物(PM10),71,92,70,46,35,32,,70,28,57,31,16,14,0.9,0.8
2026-01-12T2300,4291A,120.0424,35.8656,青岛市,黄岛区人民政府广场,细颗粒物(PM2.5),104,132,88,78,33,12,,60,21,76,40,15,11,1.3,1
2026-01-12T2300,1703A,113.0218,23.7086,清远市,凤城街办,颗粒物(PM10),73,95,60,50,37,4,,120,89,123,44,/,/,/,/
2026-01-12T2300,3025A,113.0479,23.6343,清远市,技师学院,细颗粒物(PM2.5),95,135,76,71,41,6,,127,73,127,64,9,14,1.0,0.6
2026-01-12T2300,3318A,112.9898,23.7403,清远市,清新太和,,40,40,50,25,31,105,,147,137,23,28,11,10,0.5,0.5
2026-01-12T2300,3455A,113.076,23.72,清远市,清城东城,颗粒物(PM10),57,64,54,31,31,36,,114,85,55,39,/,/,/,/
2026-01-12T2300,2661A,107.6325,35.7357,庆阳市,庆阳五中,颗粒物(PM10),52,53,72,27,27,70,,81,58,17,20,6,6,0.5,0.5
2026-01-12T2300,2662A,107.6361,35.7067,庆阳市,市环保局,,45,45,68,17,24,85,,79,70,10,16,7,11,0.5,0.5
2026-01-12T2300,1916A,103.7897,25.5036,曲靖市,环境监测站,颗粒物(PM10),54,58,45,29,24,20,,71,50,39,20,5,5,0.9,0.8
2026-01-12T2300,1917A,103.8013,25.5357,曲靖市,烟厂办公区,颗粒物(PM10),66,81,43,34,25,4,,70,49,53,20,5,4,0.9,0.6
2026-01-12T2300,3376A,103.7926,25.4651,曲靖市,南苑二区,,47,47,35,30,25,34,,79,65,26,12,4,4,0.4,0.5
2026-01-12T2300,3377A,103.7442,25.5259,曲靖市,曲靖师范学院,细颗粒物(PM2.5),65,70,39,47,27,18,,71,55,34,18,4,3,0.7,0.5
2026-01-12T2300,1264A,118.8694,28.94,衢州市,环保大楼,颗粒物(PM10),62,74,82,34,35,37,,63,46,47,44,/,/,/,/
2026-01-12T2300,1266A,118.8622,28.9809,衢州市,衢州学院,颗粒物(PM10),60,70,72,24,22,35,,62,48,48,41,12,7,0.7,0.6
2026-01-12T2300,4097A,118.9646,28.9832,衢州市,衢州三中,颗粒物(PM10),61,72,85,35,36,36,,60,48,45,43,11,8,0.8,0.8
2026-01-12T2300,1611A,118.5818,24.9116,泉州市,涂山街,颗粒物(PM10),58,65,65,30,22,52,,100,81,34,18,3,3,0.6,0.4
2026-01-12T2300,1612A,118.597,24.8976,泉州市,津头埔,,,60,65,28,22,,,98,86,43,19,4,4,0.7,0.5
2026-01-12T2300,1613A,118.6669,24.9422,泉州市,万安,颗粒物(PM10),69,88,70,30,18,4,,96,66,83,23,3,3,0.8,0.5
2026-01-12T2300,4105A,118.6355,24.9148,泉州市,霞新路6号,颗粒物(PM10),57,63,58,24,20,11,,101,52,84,26,/,/,0.5,0.4
2026-01-12T2300,2626A,88.8873,29.2723,日喀则市,日喀则监测站,,,179,46,,10,18,,90,62,68,17,36,9,2.2,0.5
2026-01-12T2300,3726A,88.8775,29.2425,日喀则市,林业技术推广中心,,50,50,26,26,9,45,,92,81,22,6,13,8,0.8,0.2
2026-01-12T2300,1659A,119.4711,35.421,日照市,监测站,细颗粒物(PM2.5),123,146,92,93,46,2,,53,22,87,49,22,15,1.4,1
2026-01-12T2300,1660A,119.523,35.4216,日照市,市政府广场,细颗粒物(PM2.5),108,122,82,81,42,29,,60,40,60,43,18,16,0.7,0.7
2026-01-12T2300,1661A,119.5511,35.4113,日照市,港务局,细颗粒物(PM2.5),114,144,98,86,50,16,,52,27,70,48,14,14,1.0,0.9
2026-01-12T2300,3507A,119.5326,35.4627,日照市,职业技术学院,细颗粒物(PM2.5),92,124,87,68,38,25,,56,34,66,46,14,13,1.0,0.9
2026-01-12T2300,3604A,119.3267,35.1043,日照市,岚山环保分局,细颗粒物(PM2.5),102,129,95,76,49,28,,59,42,61,40,25,18,1.1,1
2026-01-12T2300,1835A,111.1922,34.7752,三门峡市,市政府,颗粒物(PM10),67,83,87,47,52,0,,56,32,66,48,27,16,0.8,0.8
2026-01-12T2300,1836A,111.1588,34.794,三门峡市,开发区,颗粒物(PM10),75,99,104,54,52,14,,56,37,55,47,9,9,0.9,0.8
2026-01-12T2300,3039A,111.1911,34.7829,三门峡市,三门峡市第一小学,颗粒物(PM10),78,105,100,50,52,6,,53,40,66,50,16,13,1.0,0.8
2026-01-12T2300,3598A,111.1031,34.719,三门峡市,富达温泉假日酒店,细颗粒物(PM2.5),69,81,96,50,53,27,,62,54,39,45,17,14,1.2,0.9
2026-01-12T2300,2324A,117.621,26.2626,三明市,三钢,细颗粒物(PM2.5),53,49,46,37,30,16,,98,54,59,33,6,9,1.0,1
2026-01-12T2300,2325A,117.6352,26.2714,三明市,三明二中,细颗粒物(PM2.5),52,49,42,36,28,18,,92,56,51,27,11,11,1.1,0.8
2026-01-12T2300,2326A,117.6028,26.2377,三明市,三元区政府,颗粒物(PM10),52,54,51,33,30,23,,94,53,43,32,6,9,0.9,1.1
2026-01-12T2300,1877A,109.4962,18.2682,三亚市,河西子站,颗粒物(PM10),56,62,45,30,22,53,,110,86,32,16,6,6,0.7,0.6
2026-01-12T2300,3540A,109.7348,18.3443,三亚市,君悦子站,颗粒物(PM10),51,51,45,29,21,48,,106,80,33,14,5,5,0.7,0.6
2026-01-12T2300,4135A,109.1714,18.3739,三亚市,城东小学站,细颗粒物(PM2.5),72,,34,52,32,75,,135,115,15,11,/,/,/,/
2026-01-12T2300,2624A,91.7592,29.234,山南市,山南监测站,,,29,20,,8,51,,88,74,23,8,5,4,0.7,0.4
2026-01-12T2300,2625A,91.7701,29.2436,山南市,山南人民医院,,22,15,26,3,9,69,,79,68,5,8,2,3,0.4,0.4
2026-01-12T2300,1674A,116.6795,23.3666,汕头市,金平子站,,50,50,63,22,23,18,,93,80,64,23,4,8,0.9,0.8
2026-01-12T2300,1675A,116.7248,23.3632,汕头市,龙湖子站,颗粒物(PM10),55,59,62,21,20,55,,92,84,36,18,9,12,/,/
2026-01-12T2300,1676A,116.7257,23.2774,汕头市,濠江子站,,48,45,59,33,22,31,,90,72,42,19,7,8,/,/
2026-01-12T2300,1677A,116.7518,23.4712,汕头市,澄海子站,颗粒物(PM10),62,73,68,28,25,72,,100,90,34,20,6,11,0.6,0.6
2026-01-12T2300,1678A,116.6088,23.2539,汕头市,潮阳子站,细颗粒物(PM2.5),57,60,62,40,21,40,,97,77,32,16,6,8,0.8,0.4
2026-01-12T2300,3444A,116.4539,23.2684,汕头市,潮南峡山,颗粒物(PM10),61,71,71,39,30,32,,98,75,30,21,8,11,0.7,0.6
2026-01-12T2300,3624A,116.4069,23.2533,汕头市,潮南子站,颗粒物(PM10),75,100,85,36,31,39,,90,73,42,22,7,9,/,/
2026-01-12T2300,1693A,115.3653,22.7751,汕尾市,市环保局,细颗粒物(PM2.5),59,51,75,42,37,67,,100,92,25,20,7,8,0.8,0.7
2026-01-12T2300,1695A,115.362,22.7926,汕尾市,新城中学,细颗粒物(PM2.5),77,66,73,56,42,49,,106,87,37,21,5,6,0.9,0.7
2026-01-12T2300,2645A,109.9155,33.8714,商洛市,监测站,,33,33,57,18,25,36,,80,59,30,29,5,5,0.5,0.6
2026-01-12T2300,3045A,109.9647,33.8486,商洛市,商州区中学,,40,40,65,25,29,7,,82,50,53,31,7,7,0.7,0.6
2026-01-12T2300,2408A,115.6701,34.4283,商丘市,环境监测站,细颗粒物(PM2.5),97,126,89,72,44,3,,73,48,74,26,8,4,1.0,0.5
