timepoint,stationcode,longitude,latitude,area,positionname,primarypollutant,aqi,pm10,pm10_24h,pm2_5,pm2_5_24h,o3,o3_24h,o3_8h,o3_8h_24h,no2,no2_24h,so2,so2_24h,co,co_24h
2026-01-12T0700,2568A,102.2503,31.8896,阿坝藏族羌族自治州,马师校,,19,18,18,13,17,30,,,,8,17,4,4,0.5,0.6
2026-01-12T0700,3994A,102.2174,31.9016,阿坝藏族羌族自治州,马尔康中学西区,,12,6,14,3,11,37,,,,8,13,6,6,0.4,0.5
2026-01-12T0700,2695A,80.2899,41.1684,阿克苏地区,电视台,颗粒物(PM10),61,72,98,42,65,30,,,,29,40,2,3,1.2,1.2
2026-01-12T0700,2696A,80.2592,41.1541,阿克苏地区,艺术中心,细颗粒物(PM2.5),94,,90,70,70,37,,,,24,33,4,5,1.1,1
2026-01-12T0700,2205A,105.699,38.8409,阿拉善盟,蒙二幼,颗粒物(PM10),362,469,170,72,32,75,,,,6,11,9,10,0.6,0.6
2026-01-12T0700,2206A,105.7198,38.8508,阿拉善盟,环保局新楼,颗粒物(PM10),313,430,152,73,33,76,,,,4,6,7,8,0.6,0.6
2026-01-12T0700,2708A,88.1266,47.8515,阿勒泰地区,市站,,14,12,10,7,5,43,,,,22,21,3,4,0.6,0.5
2026-01-12T0700,4166A,88.1198,47.7931,阿勒泰地区,阿勒泰路33号,,20,19,20,14,9,32,,,,37,38,10,6,0.6,0.6
2026-01-12T0700,2630A,80.1171,32.4999,阿里地区,阿里监测站,,17,6,3,3,4,53,,,,4,8,5,7,0.4,0.4
2026-01-12T0700,3192A,80.0906,32.5029,阿里地区,阿里藏医院,,16,16,17,10,11,46,,,,11,12,14,15,0.8,0.8
2026-01-12T0700,2644A,109.0088,32.6974,安康市,汉滨区检察院,细颗粒物(PM2.5),57,50,61,40,38,8,,,,21,25,4,5,0.5,0.6
2026-01-12T0700,4054A,109.0324,32.6913,安康市,市邮政管理局,细颗粒物(PM2.5),69,64,78,50,49,7,,,,21,34,7,8,0.7,0.9
2026-01-12T0700,2291A,117.0806,30.5181,安庆市,环科院,颗粒物(PM10),55,59,81,33,31,1,,,,56,30,6,6,0.4,0.3
2026-01-12T0700,2292A,117.0331,30.5118,安庆市,马山宾馆,颗粒物(PM10),58,66,73,35,30,3,,,,58,30,6,6,0.5,0.4
2026-01-12T0700,2294A,116.9897,30.6146,安庆市,安庆大学,"颗粒物(PM10),细颗粒物(PM2.5)",58,65,64,41,27,4,,,,47,27,4,4,0.7,0.5
2026-01-12T0700,3173A,117.0598,30.5351,安庆市,市人大,颗粒物(PM10),60,69,81,36,30,2,,,,61,36,22,9,0.5,0.4
2026-01-12T0700,3123A,105.9408,26.2431,安顺市,凤凰山,细颗粒物(PM2.5),57,50,60,40,52,73,,,,18,17,25,17,0.5,0.6
2026-01-12T0700,3124A,105.9443,26.2567,安顺市,金钟山,细颗粒物(PM2.5),60,51,60,43,53,70,,,,12,13,41,20,0.6,0.6
2026-01-12T0700,3125A,105.8983,26.248,安顺市,娄家坡,细颗粒物(PM2.5),59,46,62,42,53,78,,,,12,14,15,13,0.7,0.8
2026-01-12T0700,1819A,114.3552,36.1017,安阳市,红庙街,细颗粒物(PM2.5),75,93,70,55,22,20,,,,41,19,6,3,1.1,0.6
2026-01-12T0700,1820A,114.361,36.0681,安阳市,银杏小区,颗粒物(PM10),78,106,72,50,27,19,,,,34,21,4,4,0.6,0.3
2026-01-12T0700,3141A,114.3921,36.0879,安阳市,信访局,,,84,72,37,22,18,,,,,16,5,5,0.6,0.5
2026-01-12T0700,3669A,114.4706,36.0634,安阳市,左辅环卫站,颗粒物(PM10),73,95,82,51,31,11,,,,39,22,5,4,0.6,0.5
2026-01-12T0700,4117A,114.2918,36.0769,安阳市,钢三路198号,颗粒物(PM10),81,112,80,53,26,11,,,,35,25,4,3,1.1,0.7
2026-01-12T0700,1748A,123.0441,41.1201,鞍山市,深沟寺,,26,26,25,11,12,60,,,,12,10,8,8,0.6,0.7
2026-01-12T0700,1749A,123.011,41.0931,鞍山市,太阳城,,25,25,24,13,13,60,,,,12,10,11,12,0.6,0.7
2026-01-12T0700,1750A,123.0483,41.1445,鞍山市,太平,,32,32,26,10,12,60,,,,12,12,9,9,0.5,0.6
2026-01-12T0700,1751A,122.964,41.0968,鞍山市,铁西三道街,,36,36,31,14,13,52,,,,22,20,13,21,0.9,0.8
2026-01-12T0700,1753A,123.0219,41.0822,鞍山市,明达新区,,27,27,25,14,12,58,,,,14,14,11,13,0.3,0.5
2026-01-12T0700,4201A,122.944647,41.082639,鞍山市,兴盛南路290号,,32,32,34,11,13,57,,,,11,19,10,12,0.7,0.8
2026-01-12T0700,2195A,107.4206,40.7609,巴彦淖尔市,附二中,颗粒物(PM10),139,227,133,57,39,61,,,,4,16,2,4,0.4,0.6
2026-01-12T0700,2196A,107.37,40.7372,巴彦淖尔市,市环保大楼,颗粒物(PM10),135,219,128,47,27,67,,,,4,12,4,5,0.4,0.6
2026-01-12T0700,1956A,86.1476,41.7529,巴音郭楞蒙古自治州,孔雀公园,细颗粒物(PM2.5),75,95,67,55,41,51,,,,20,37,7,8,0.6,0.7
2026-01-12T0700,1957A,86.1971,41.7166,巴音郭楞蒙古自治州,棉纺厂,颗粒物(PM10),81,111,68,54,28,23,,,,54,29,/,/,/,/
2026-01-12T0700,1958A,86.236,41.7172,巴音郭楞蒙古自治州,经济开发区,细颗粒物(PM2.5),70,87,50,51,25,46,,,,14,20,5,6,0.7,0.6
2026-01-12T0700,3181A,106.776805,31.852614,巴中市,市五中,细颗粒物(PM2.5),117,114,121,88,91,7,,,,30,40,5,6,1.2,1.3
2026-01-12T0700,3183A,106.7419,31.8654,巴中市,圣泉水务公司,细颗粒物(PM2.5),87,76,99,64,80,23,,,,24,41,5,5,0.6,0.8
2026-01-12T0700,3616A,106.7617,31.8343,巴中市,市中心医院,细颗粒物(PM2.5),129,113,129,98,104,1,,,,29,38,7,7,1.2,1.2
2026-01-12T0700,2235A,122.7909,45.608,白城市,洮北区环保局,,48,46,28,33,19,14,,,,42,17,9,7,0.5,0.2
2026-01-12T0700,2236A,122.8741,45.5725,白城市,市环保局,,36,31,27,25,21,21,,,,29,13,3,4,0.4,0.3
2026-01-12T0700,2231A,126.4219,41.9172,白山市,喜丰,,,49,49,23,26,12,,,,41,28,,14,0.8,0.7
2026-01-12T0700,2232A,126.4082,41.9416,白山市,环保局,,46,44,38,32,31,12,,,,32,26,11,11,1.1,0.9
2026-01-12T0700,2647A,104.1727,36.5448,白银市,第三小学,细颗粒物(PM2.5),53,53,84,37,50,20,,,,34,46,35,46,1.1,1.2
2026-01-12T0700,2648A,104.1467,36.5482,白银市,动力公司,,35,35,78,24,46,31,,,,22,36,9,32,1.1,1.1
2026-01-12T0700,2512A,106.6102,23.901,百色市,市监测站,细颗粒物(PM2.5),73,64,56,53,42,14,,,,28,23,12,9,0.7,0.6
2026-01-12T0700,2513A,106.6524,23.8842,百色市,市中心血站,细颗粒物(PM2.5),93,76,81,69,59,14,,,,29,40,8,11,0.9,0.9
2026-01-12T0700,4133A,106.6273,23.8798,百色市,龙景西路,"颗粒物(PM10),细颗粒物(PM2.5)",64,78,92,46,48,1,,,,30,33,8,10,0.6,0.8
2026-01-12T0700,2270A,117.396,32.9389,蚌埠市,工人疗养院,颗粒物(PM10),71,92,76,43,22,35,,,,28,25,12,8,0.8,0.4
2026-01-12T0700,2271A,117.3606,32.9428,蚌埠市,百货大楼,颗粒物(PM10),65,79,59,33,21,37,,,,26,21,10,8,0.7,0.5
2026-01-12T0700,2273A,117.4183,32.8909,蚌埠市,蚌埠学院,颗粒物(PM10),62,73,68,27,23,42,,,,25,24,6,6,0.4,0.3
2026-01-12T0700,2274A,117.3534,32.9672,蚌埠市,淮上区政府,颗粒物(PM10),68,85,70,36,26,45,,,,24,25,5,4,0.6,0.5
2026-01-12T0700,2275A,117.3143,32.8977,蚌埠市,高新区,颗粒物(PM10),71,92,70,41,27,32,,,,29,25,9,9,0.4,0.3
2026-01-12T0700,3715A,117.3091,32.9314,蚌埠市,蚌埠田家炳中学,颗粒物(PM10),78,106,72,40,28,28,,,,34,27,7,8,0.5,0.4
2026-01-12T0700,1585A,109.8761,40.6533,包头市,市环境监测站,颗粒物(PM10),86,122,67,40,28,51,,,,22,44,4,11,0.6,1.2
2026-01-12T0700,1587A,109.9992,40.5843,包头市,包头八中,颗粒物(PM10),88,126,69,43,33,37,,,,34,43,4,12,0.6,1.1
2026-01-12T0700,1589A,109.8641,40.6288,包头市,惠龙物流,颗粒物(PM10),86,121,62,37,28,11,,,,59,46,13,15,1.0,1.1
2026-01-12T0700,1590A,110.0376,40.5546,包头市,东河鸿龙湾,颗粒物(PM10),77,103,67,22,28,16,,,,60,53,14,14,1.3,1.5
2026-01-12T0700,3283A,109.9154,40.5684,包头市,滨河大厦,颗粒物(PM10),83,116,55,45,25,28,,,,37,42,21,12,1.0,1.1
2026-01-12T0700,3419A,109.9449,40.6259,包头市,包头市委党校,颗粒物(PM10),87,124,65,23,28,48,,,,23,47,8,15,0.5,1.1
2026-01-12T0700,3683A,109.8332,40.6577,包头市,昆区政府,颗粒物(PM10),96,142,70,30,31,58,,,,19,52,6,14,0.6,1.3
2026-01-12T0700,1931A,107.0802,34.3129,宝鸡市,竹园沟,细颗粒物(PM2.5),52,39,59,36,31,86,,,,6,19,6,7,0.3,0.4
2026-01-12T0700,1933A,107.1429,34.3549,宝鸡市,监测站,细颗粒物(PM2.5),59,61,72,42,39,8,,,,40,31,4,5,0.7,0.6
2026-01-12T0700,1934A,107.1172,34.3759,宝鸡市,技工学校,细颗粒物(PM2.5),57,61,76,40,38,15,,,,31,25,3,6,0.9,0.6
2026-01-12T0700,1936A,107.2025,34.3518,宝鸡市,文理学院,细颗粒物(PM2.5),62,55,70,44,38,18,,,,31,31,4,5,0.5,0.4
2026-01-12T0700,1937A,107.2396,34.3626,宝鸡市,三迪小学,细颗粒物(PM2.5),68,57,77,49,43,6,,,,44,36,3,5,0.6,0.5
2026-01-12T0700,4155A,107.1721,34.3558,宝鸡市,滨河北路,颗粒物(PM10),60,70,76,38,34,17,,,,27,27,4,5,0.6,0.5
2026-01-12T0700,4308A,107.3898,34.3601,宝鸡市,陈仓区北开路21号,细颗粒物(PM2.5),84,81,91,62,55,32,,,,30,35,65,44,1.4,0.8
2026-01-12T0700,1051A,115.4803,38.8568,保定市,游泳馆,颗粒物(PM10),65,79,52,39,21,6,,,,54,24,14,7,0.5,0.4
2026-01-12T0700,1052A,115.509,38.8895,保定市,华电二区,颗粒物(PM10),58,66,48,40,25,0,,,,50,21,4,3,1.0,0.7
2026-01-12T0700,1053A,115.4588,38.9037,保定市,接待中心,颗粒物(PM10),66,81,53,38,22,2,,,,51,25,3,2,0.5,0.2
2026-01-12T0700,1054A,115.4484,38.8344,保定市,地表水厂,颗粒物(PM10),77,104,70,47,25,6,,,,58,32,5,3,0.5,0.3
2026-01-12T0700,3581A,115.3136,38.9511,保定市,满城区生态环境分局,颗粒物(PM10),75,100,72,48,30,4,,,,57,41,4,3,1.2,0.8
2026-01-12T0700,3582A,115.4709,38.7628,保定市,清苑区第二中学,颗粒物(PM10),116,182,69,71,23,3,,,,52,25,12,7,0.7,0.4
2026-01-12T0700,3583A,115.6231,39.0223,保定市,徐水物探局,颗粒物(PM10),79,108,80,45,32,2,,,,42,27,5,5,0.8,0.5
2026-01-12T0700,4004A,115.4199,38.8665,保定市,双鹰农机,颗粒物(PM10),75,100,64,41,25,8,,,,48,23,7,6,0.6,0.4
2026-01-12T0700,4034A,115.515,38.8589,保定市,植保所站,细颗粒物(PM2.5),70,80,58,51,33,0,,,,51,28,4,4,0.8,0.5
2026-01-12T0700,2594A,99.1589,25.1137,保山市,市环境监测站,,25,20,26,17,22,49,,,,6,8,4,3,0.3,0.3
2026-01-12T0700,2595A,99.1616,25.1381,保山市,市环保局,,29,23,29,20,21,53,,,,4,5,4,4,0.5,0.4
2026-01-12T0700,1867A,109.1435,21.4085,北海市,海滩公园,细颗粒物(PM2.5),80,75,59,59,36,67,,,,29,20,22,11,0.8,0.8
2026-01-12T0700,1868A,109.0983,21.466,北海市,新市环保局,细颗粒物(PM2.5),79,65,59,58,47,71,,,,38,25,23,7,0.7,0.6
2026-01-12T0700,1869A,109.1775,21.5232,北海市,北海工业园,细颗粒物(PM2.5),80,76,72,59,53,70,,,,25,34,27,13,0.7,0.7
2026-01-12T0700,3400A,109.1844,21.4396,北海市,龙潭自来水厂,细颗粒物(PM2.5),122,,65,92,51,33,,,,27,23,13,9,1.0,0.9
2026-01-12T0700,1001A,116.3611,39.8786,北京市,万寿西宫,颗粒物(PM10),53,55,48,21,17,2,,,,58,33,3,3,0.6,0.5
2026-01-12T0700,1003A,116.4174,39.9289,北京市,东四,颗粒物(PM10),55,59,46,24,17,3,,,,49,26,6,5,0.4,0.3
2026-01-12T0700,1004A,116.4073,39.8858,北京市,天坛,颗粒物(PM10),53,56,42,26,17,3,,,,50,28,2,3,0.7,0.5
2026-01-12T0700,1005A,116.4622,39.9364,北京市,农展馆,颗粒物(PM10),54,57,46,26,18,3,,,,49,25,5,4,0.8,0.6
2026-01-12T0700,1006A,116.3399,39.9293,北京市,官园,,50,50,48,33,27,2,,,,53,28,4,5,0.6,0.6
2026-01-12T0700,1007A,116.2879,39.9613,北京市,海淀万柳,,48,48,46,18,17,2,,,,54,35,2,3,0.7,0.5
2026-01-12T0700,1008A,116.6635,40.1349,北京市,顺义新城,颗粒物(PM10),53,55,42,22,15,1,,,,47,27,3,4,0.7,0.6
2026-01-12T0700,1009A,116.6275,40.327,北京市,怀柔镇,,36,36,28,16,13,24,,,,17,16,6,7,0.3,0.2
2026-01-12T0700,1010A,116.2295,40.217,北京市,昌平镇,,41,41,35,20,15,19,,,,32,24,4,5,0.7,0.6
2026-01-12T0700,1011A,116.3968,39.982,北京市,奥体中心,,44,44,42,19,17,1,,,,57,30,4,5,0.9,0.7
2026-01-12T0700,3418A,116.8336,40.4095,北京市,密云新城,,45,45,38,17,15,8,,,,29,21,3,4,0.6,0.5
2026-01-12T0700,3671A,116.0879,39.9725,北京市,门头沟三家店,,43,43,44,15,18,14,,,,25,23,2,3,0.5,0.5
2026-01-12T0700,3672A,116.1507,39.8246,北京市,丰台云岗,,41,41,51,15,20,7,,,,37,27,3,2,0.4,0.4
2026-01-12T0700,3674A,115.9578,39.7602,北京市,房山燕山,,50,50,42,26,19,17,,,,26,18,5,4,0.7,0.5
2026-01-12T0700,3675A,116.4669,39.7734,北京市,大兴旧宫,颗粒物(PM10),65,80,48,29,16,2,,,,56,24,4,3,0.7,0.4
2026-01-12T0700,3694A,115.9859,40.4562,北京市,延庆石河营,,38,38,31,19,13,10,,,,22,18,2,3,0.8,0.5
2026-01-12T0700,3695A,116.6151,40.3052,北京市,怀柔新城,,44,44,32,22,16,26,,,,15,14,4,4,0.5,0.4
2026-01-12T0700,3696A,116.2542,39.8764,北京市,丰台小屯,颗粒物(PM10),53,55,49,17,15,1,,,,52,29,4,4,0.6,0.5
2026-01-12T0700,3697A,116.8399,40.3843,北京市,密云镇,颗粒物(PM10),51,51,40,22,15,2,,,,46,28,1,2,0.7,0.5
2026-01-12T0700,4057A,115.9423,40.4431,北京市,延庆百泉,,44,44,35,21,14,0,,,,32,19,1,2,0.8,0.5
2026-01-12T0700,4058A,116.6598,39.9164,北京市,通州新华,颗粒物(PM10),57,63,51,30,23,1,,,,64,32,5,4,0.7,0.4
2026-01-12T0700,4182A,116.1942,39.9158,北京市,石景山八角,颗粒物(PM10),53,55,49,20,17,10,,,,43,29,2,2,0.4,0.2
2026-01-12T0700,4194A,117.078628,40.151726,北京市,平谷新城,,45,45,33,21,15,5,,,,25,14,3,2,0.6,0.4
2026-01-12T0700,1761A,123.8274146,41.31234549,本溪市,大峪,,22,22,27,8,15,54,,,,11,20,9,9,0.7,0.9
2026-01-12T0700,1763A,123.7169,41.3094,本溪市,彩屯,,34,32,34,14,18,32,,,,37,31,17,13,3.4,2
2026-01-12T0700,1764A,123.7672166,41.28649327,本溪市,东明,,26,26,28,9,10,57,,,,9,10,9,9,0.7,0.8
2026-01-12T0700,1765A,123.799345,41.266614,本溪市,新立屯,,20,20,22,11,12,58,,,,10,14,10,11,0.8,0.9
2026-01-12T0700,1766A,123.829144,41.336777,本溪市,威宁,,32,32,46,10,23,56,,,,11,24,9,7,0.6,0.9
2026-01-12T0700,2587A,105.287,27.3133,毕节市,八中,细颗粒物(PM2.5),78,66,81,57,65,67,,,,10,16,9,11,0.8,0.9
2026-01-12T0700,2588A,105.3079,27.2987,毕节市,师专,细颗粒物(PM2.5),72,62,78,52,62,67,,,,10,15,8,9,0.7,0.7
2026-01-12T0700,4263A,105.3688,27.3598,毕节市,工业大道,细颗粒物(PM2.5),73,62,78,53,59,78,,,,11,17,9,11,/,/
2026-01-12T0700,1629A,117.9961,37.3604,滨州市,第二水厂,颗粒物(PM10),67,83,46,39,22,1,,,,56,37,14,14,1.1,0.7
2026-01-12T0700,1630A,117.9789,37.3931,滨州市,北中新校,颗粒物(PM10),67,83,44,34,22,3,,,,57,35,8,7,1.0,0.5
2026-01-12T0700,3514A,117.9379,37.3959,滨州市,中海酒店,"颗粒物(PM10),细颗粒物(PM2.5)",62,73,41,44,22,10,,,,47,30,13,12,0.9,0.6
2026-01-12T0700,3515A,117.9381509,37.35547456,滨州市,开发区一中,颗粒物(PM10),68,85,49,41,23,4,,,,42,28,22,16,1.0,0.6
2026-01-12T0700,3516A,118.0914,37.6938,滨州市,金海六路,颗粒物(PM10),63,76,39,31,14,21,,,,33,25,8,5,0.9,0.6
2026-01-12T0700,4028A,117.9955,37.3752,滨州市,滨州市西街道办事处,颗粒物(PM10),69,88,45,39,26,2,,,,45,30,13,13,1.0,0.6
2026-01-12T0700,2311A,115.8071,33.8399,亳州市,污水处理厂,颗粒物(PM10),64,77,65,36,24,33,,,,22,18,7,4,0.3,0.3
2026-01-12T0700,2312A,115.7789,33.8519,亳州市,三国揽胜宫,颗粒物(PM10),66,81,64,41,27,34,,,,20,19,9,4,0.4,0.3
2026-01-12T0700,3332A,115.7631,33.803,亳州市,亳州学院,颗粒物(PM10),61,71,60,32,23,27,,,,26,21,4,3,0.4,0.3
2026-01-12T0700,2693A,82.0482,44.8553,博尔塔拉蒙古自治州,市党校,细颗粒物(PM2.5),83,105,94,61,52,29,,,,31,30,2,6,0.7,0.6
2026-01-12T0700,2694A,82.0805,44.8966,博尔塔拉蒙古自治州,市环保局,颗粒物(PM10),80,109,99,50,50,47,,,,17,28,6,7,1.1,1
2026-01-12T0700,1071A,116.8733,38.2922,沧州市,沧县城建局,颗粒物(PM10),68,85,46,41,23,5,,,,56,29,5,6,0.7,0.4
2026-01-12T0700,1072A,116.8462,38.3189,沧州市,电视转播站,细颗粒物(PM2.5),67,71,46,48,23,0,,,,54,29,3,4,0.7,0.5
2026-01-12T0700,1073A,116.8588,38.3161,沧州市,市环保局,颗粒物(PM10),68,85,49,39,26,4,,,,48,25,7,8,0.7,0.4
2026-01-12T0700,3324A,116.8011,38.294,沧州市,河北水利电力学院,颗粒物(PM10),68,85,51,41,18,18,,,,31,26,5,5,0.5,0.3
2026-01-12T0700,2622A,97.1813,31.1289,昌都市,昌都监测站,,30,30,25,3,13,58,,,,5,13,3,2,0.2,0.5
2026-01-12T0700,3719A,97.1707,31.1428,昌都市,昌都会议中心,,19,11,11,9,8,59,,,,2,2,3,2,0.2,0.3
2026-01-12T0700,2692A,87.2722,44.0298,昌吉回族自治州,新区政务中心,细颗粒物(PM2.5),170,178,164,129,120,8,,,,65,52,4,6,1.8,1.7
2026-01-12T0700,3613A,87.3069,44.0093,昌吉回族自治州,亚心广场,细颗粒物(PM2.5),140,146,216,107,159,25,,,,41,49,7,8,1.3,1.5
2026-01-12T0700,4164A,87.2057,43.9289,昌吉回族自治州,财政所,细颗粒物(PM2.5),74,96,94,54,66,58,,,,17,18,5,5,0.7,0.8
2026-01-12T0700,1120A,125.2874,43.9024,长春市,客车厂,,29,29,41,12,36,43,,,,16,21,9,9,0.5,0.5
2026-01-12T0700,1121A,125.2943,43.8508,长春市,邮电学院,,28,,31,19,33,44,,,,15,20,11,12,0.4,0.5
2026-01-12T0700,1122A,125.3648,43.8745,长春市,劳动公园,,26,26,41,13,28,40,,,,23,22,10,11,0.7,0.7
2026-01-12T0700,1123A,125.3233,43.8781,长春市,园林处,,27,27,38,17,31,40,,,,16,17,10,11,0.6,0.7
2026-01-12T0700,1124A,125.4604,43.7904,长春市,净月潭,,28,28,42,19,31,50,,,,9,17,7,6,0.5,0.6
2026-01-12T0700,1126A,125.38,43.8422,长春市,经开区环卫处,,27,27,41,13,30,43,,,,17,22,7,9,0.4,0.5
2026-01-12T0700,1127A,125.234,43.7761,长春市,高新区管委会,,26,25,45,18,36,50,,,,12,18,7,7,0.5,0.6
2026-01-12T0700,1128A,125.1695,43.83,长春市,岱山公园,,29,25,41,20,32,42,,,,17,24,7,6,0.5,0.5
2026-01-12T0700,4281A,125.334645,43.916281,长春市,北亚泰大街1068号,,27,27,40,15,34,36,,,,27,25,8,8,0.6,0.7
2026-01-12T0700,1335A,113.082,28.2421,长沙市,经开区环保局,颗粒物(PM10),59,67,89,25,42,61,,,,20,40,6,7,0.3,0.5
2026-01-12T0700,1336A,112.8873,28.2202,长沙市,高开区环保局,颗粒物(PM10),56,61,88,21,47,58,,,,15,21,8,8,0.4,0.5
2026-01-12T0700,1337A,113.0785,28.2012,长沙市,马坡岭,颗粒物(PM10),59,67,92,29,46,51,,,,23,29,6,6,0.6,0.7
2026-01-12T0700,1338A,112.9448,28.1894,长沙市,湖南师范大学,颗粒物(PM10),57,64,85,24,39,59,,,,22,31,6,8,0.5,0.6
2026-01-12T0700,1339A,113.0177,28.1322,长沙市,雨花区环保局,颗粒物(PM10),56,62,86,25,41,66,,,,18,27,11,10,0.4,0.6
2026-01-12T0700,1340A,112.9795,28.2593,长沙市,伍家岭,颗粒物(PM10),68,86,113,32,55,20,,,,46,52,6,7,0.5,0.7
2026-01-12T0700,1341A,113.002,28.1944,长沙市,火车新站,颗粒物(PM10),60,70,96,29,51,56,,,,30,33,11,11,0.4,0.6
2026-01-12T0700,1342A,112.9846,28.1177,长沙市,天心区环保局,颗粒物(PM10),57,64,85,28,45,69,,,,21,28,9,8,0.7,0.8
2026-01-12T0700,1343A,112.8906,28.1307,长沙市,湖南中医药大学,颗粒物(PM10),63,76,94,29,49,12,,,,73,44,8,8,0.5,0.7
2026-01-12T0700,1727A,113.1146,36.1547,长治市,清华站,颗粒物(PM10),52,53,41,22,18,32,,,,30,14,10,12,0.7,0.6
2026-01-12T0700,1730A,113.0887,36.2126,长治市,审计局,颗粒物(PM10),51,51,43,29,17,38,,,,31,19,10,9,0.7,0.5
2026-01-12T0700,1731A,113.0845,36.1856,长治市,长治八中,,,,56,35,23,35,,,,20,14,10,11,0.8,0.6
2026-01-12T0700,2845A,113.1561,36.1912,长治市,德盛苑,,49,49,39,22,18,61,,,,15,11,8,9,0.5,0.5
2026-01-12T0700,3568A,113.0603,36.0464,长治市,向阳小学,颗粒物(PM10),62,74,63,31,22,44,,,,24,18,13,11,0.7,0.5
2026-01-12T0700,3569A,112.8788,36.315,长治市,屯留一中,颗粒物(PM10),58,65,54,36,17,42,,,,17,18,9,10,0.8,0.6
2026-01-12T0700,4189A,113.113092,36.199482,长治市,英华南巷50号,,,65,50,29,26,41,,,,,11,7,8,0.7,0.6
2026-01-12T0700,4190A,113.23666,36.33435,长治市,学府街1号,颗粒物(PM10),54,58,48,31,18,40,,,,27,18,9,10,0.9,0.6
2026-01-12T0700,1854A,111.696,28.9725,常德市,市二中,细颗粒物(PM2.5),128,141,125,97,77,20,,,,20,26,5,7,0.9,0.7
2026-01-12T0700,3138A,111.7152,29.0288,常德市,武陵区永安,,,,122,,58,,,82,,,22,,7,,0.8
2026-01-12T0700,3139A,111.6891,28.9881,常德市,鼎城区玉霞,细颗粒物(PM2.5),124,130,135,94,82,11,,,,28,33,7,9,0.7,0.7
2026-01-12T0700,3140A,111.6651,29.0526,常德市,武陵区长庚,细颗粒物(PM2.5),125,158,135,95,77,28,,,,24,25,6,6,0.8,0.7
2026-01-12T0700,1196A,119.9524,31.7586,常州市,市监测站,颗粒物(PM10),58,65,64,26,24,21,,,,34,38,2,3,0.5,0.6
2026-01-12T0700,1200A,119.9351,31.703,常州市,武进监测站,颗粒物(PM10),59,68,64,29,24,30,,,,31,40,10,9,0.2,0.3
2026-01-12T0700,3002A,119.9701,31.813,常州市,行政中心,颗粒物(PM10),57,63,70,26,22,26,,,,34,39,6,6,0.6,0.5
2026-01-12T0700,3003A,120.0434,31.7726,常州市,经开区,颗粒物(PM10),68,85,75,30,21,20,,,,36,42,23,11,2.7,0.5
2026-01-12T0700,3010A,119.8919,31.7892,常州市,钟楼,颗粒物(PM10),58,65,66,23,21,30,,,,33,39,8,8,0.5,0.4
2026-01-12T0700,3429A,119.8595,31.706,常州市,武进经发区,颗粒物(PM10),64,77,72,44,34,23,,,,46,50,2,4,0.5,0.5
2026-01-12T0700,3430A,119.5812,31.7256,常州市,金坛城区,颗粒物(PM10),70,89,70,39,28,10,,,,52,34,8,8,0.7,0.6
2026-01-12T0700,4089A,119.9551,31.863,常州市,崇义南街5-H号,颗粒物(PM10),52,53,64,29,20,24,,,,35,41,5,6,0.7,0.5
2026-01-12T0700,2220A,120.4318,41.588,朝阳市,西梁,,47,47,34,17,11,38,,,,23,15,5,6,0.7,0.6
2026-01-12T0700,2221A,120.452,41.565,朝阳市,河畔小区,颗粒物(PM10),52,53,35,21,11,32,,,,31,13,15,8,1.2,0.5
2026-01-12T0700,2222A,120.4176,41.5648,朝阳市,八里堡,,48,48,32,15,11,37,,,,28,16,8,10,0.6,0.6
2026-01-12T0700,3026A,116.6179,23.6608,潮州市,市政府,颗粒物(PM10),64,77,72,36,31,70,,,,16,15,10,9,0.4,0.4
2026-01-12T0700,4036A,116.646,23.676,潮州市,金山,颗粒物(PM10),57,64,63,39,36,47,,,,18,14,3,4,0.4,0.4
2026-01-12T0700,2473A,113.0116,25.8228,郴州市,市职中,细颗粒物(PM2.5),72,61,66,52,52,0,,,,27,29,4,11,0.9,0.8
2026-01-12T0700,2475A,113.0381,25.8074,郴州市,市审计局,细颗粒物(PM2.5),75,67,68,55,53,0,,,,37,33,2,10,/,/
2026-01-12T0700,2476A,113.0348,25.7757,郴州市,市环保局,细颗粒物(PM2.5),75,79,79,55,53,0,,,,38,37,4,10,0.8,0.8
2026-01-12T0700,4252A,113.0138,25.8011,郴州市,好美居路49号,细颗粒物(PM2.5),65,50,65,47,55,1,,,,32,37,3,10,/,/
2026-01-12T0700,1431A,103.9727,30.7242,成都市,金泉两河,细颗粒物(PM2.5),222,178,182,172,160,4,,,,42,55,2,4,1.3,1.3
2026-01-12T0700,1432A,104.1423,30.6765,成都市,十里店,细颗粒物(PM2.5),208,180,187,158,152,5,,,,56,67,4,5,1.1,1.2
2026-01-12T0700,1433A,104.0594,30.5765,成都市,三瓦窑,细颗粒物(PM2.5),239,216,182,189,160,1,,,,62,72,5,5,1.5,1.3
2026-01-12T0700,1434A,104.1122,30.6306,成都市,沙河铺,细颗粒物(PM2.5),214,193,186,164,170,1,,,,57,76,3,3,1.2,1.1
2026-01-12T0700,2880A,104.0219,30.6561,成都市,大石西路,细颗粒物(PM2.5),183,197,189,138,143,0,,,,49,64,5,6,1.3,1.2
2026-01-12T0700,3136A,104.2724,30.559,成都市,龙泉驿区区政府,细颗粒物(PM2.5),149,139,153,114,128,30,,,,30,45,6,6,0.8,0.9
2026-01-12T0700,3357A,104.0028,30.6891,成都市,金博路,细颗粒物(PM2.5),218,190,171,168,145,1,,,,49,62,5,5,1.4,1.3
2026-01-12T0700,3359A,104.056,30.5228,成都市,华阳,细颗粒物(PM2.5),201,190,175,151,140,2,,,,58,70,3,4,1.1,1.1
2026-01-12T0700,3488A,104.387954,30.746684,成都市,青石路225号,细颗粒物(PM2.5),226,206,189,176,165,1,,,,46,54,4,4,1.1,1.1
2026-01-12T0700,3489A,104.0788,30.4054,成都市,科学城,细颗粒物(PM2.5),200,187,171,150,146,2,,,,44,56,6,6,1.1,0.9
2026-01-12T0700,4011A,103.8505,30.6946,成都市,光华大道三段,细颗粒物(PM2.5),220,186,191,170,163,9,,,,35,51,3,4,0.8,0.9
2026-01-12T0700,4144A,104.3257,30.6406,成都市,八角井街185号,细颗粒物(PM2.5),203,197,196,153,152,1,,,,36,49,2,3,1.2,1.2
2026-01-12T0700,4224A,104.2433276,30.53529463,成都市,鲸龙路1057号,细颗粒物(PM2.5),201,163,164,151,152,3,,,,40,52,5,6,1.0,1
2026-01-12T0700,1062A,117.9531,40.908,承德市,铁路,,49,49,38,24,19,4,,,,36,26,6,9,0.9,0.7
2026-01-12T0700,1063A,117.9397,40.9763,承德市,中国银行,颗粒物(PM10),52,54,35,27,16,9,,,,27,22,3,4,0.7,0.6
2026-01-12T0700,4073A,117.9462,40.95,承德市,杏林街1号,,45,45,26,31,18,12,,,,22,17,4,7,0.7,0.5
2026-01-12T0700,4274A,117.7994,40.9605,承德市,滨河大街98号,,34,34,22,21,14,12,,,,27,16,5,11,0.5,0.5
2026-01-12T0700,2314A,117.4698,30.6617,池州市,池州学院,颗粒物(PM10),52,54,79,30,34,4,,,,47,40,3,6,2.1,1
2026-01-12T0700,3237A,117.4918,30.6617,池州市,展览馆,颗粒物(PM10),52,54,75,31,31,1,,,,45,35,2,4,1.9,1
2026-01-12T0700,3333A,117.5626,30.695,池州市,第八中学,颗粒物(PM10),60,70,86,36,35,21,,,,28,36,3,5,1.0,0.8
2026-01-12T0700,3334A,117.5037,30.6242,池州市,第十二中学,颗粒物(PM10),59,67,84,32,31,1,,,,50,43,3,5,2.0,0.9
2026-01-12T0700,1744A,118.9229,42.2816,赤峰市,松山一中,,49,49,31,15,8,34,,,,25,15,5,6,0.7,0.7
2026-01-12T0700,1745A,118.9588,42.2733,赤峰市,哈达街,,40,40,31,3,5,40,,,,19,13,3,4,0.7,0.6
2026-01-12T0700,1746A,118.8792,42.2551,赤峰市,天义路,,32,32,18,16,9,52,,,,13,9,5,5,0.5,0.5
2026-01-12T0700,3058A,119.2656,42.0356,赤峰市,银河街,颗粒物(PM10),51,52,40,22,16,36,,,,19,10,14,12,0.9,0.7
2026-01-12T0700,3286A,118.9359,42.3146,赤峰市,桥北物流园区,,38,38,17,15,10,48,,,,15,12,5,5,0.4,0.3
2026-01-12T0700,2521A,107.3473,22.4137,崇左市,市环保局江州分局,细颗粒物(PM2.5),97,87,89,72,67,9,,,,27,33,6,11,0.8,0.8
2026-01-12T0700,4256A,107.375,22.3736,崇左市,石景林东路7号,细颗粒物(PM2.5),80,77,72,59,64,9,,,,32,33,6,8,0.6,0.6
2026-01-12T0700,3207A,118.31131,32.3033,滁州市,市政府原办公楼,颗粒物(PM10),63,75,64,35,25,26,,,,42,31,8,8,0.8,0.5
2026-01-12T0700,3331A,118.3268,32.2633,滁州市,图书馆,颗粒物(PM10),59,68,61,32,22,20,,,,45,30,12,10,0.8,0.5
2026-01-12T0700,4101A,118.3196,32.3335,滁州市,银山路666号,细颗粒物(PM2.5),64,68,68,46,34,16,,,,40,31,10,10,0.6,0.4
2026-01-12T0700,4102A,118.3426,32.2979,滁州市,黄山路555号,颗粒物(PM10),71,91,77,45,31,24,,,,45,28,14,12,1.0,0.7
2026-01-12T0700,2606A,101.5379,25.0492,楚雄彝族自治州,市经济开发区,,36,29,32,25,27,4,,,,25,14,4,3,0.7,0.8
2026-01-12T0700,4153A,101.5536,25.0343,楚雄彝族自治州,团结路562号,,37,37,26,25,22,8,,,,26,10,6,4,0.6,0.6
2026-01-12T0700,2549A,107.5087,31.2186,达州市,市环境监测站,细颗粒物(PM2.5),168,150,158,127,126,4,,,,38,61,6,8,1.1,1.2
2026-01-12T0700,2550A,107.4988,31.2132,达州市,凤凰小区,细颗粒物(PM2.5),170,166,178,129,134,2,,,,32,57,5,7,1.1,1.4
2026-01-12T0700,2551A,107.5081,31.1987,达州市,达县机关宾馆,细颗粒物(PM2.5),165,156,184,125,130,2,,,,33,57,3,5,1.1,1.4
2026-01-12T0700,2552A,107.4644,31.2124,达州市,市政中心,细颗粒物(PM2.5),192,191,178,144,128,5,,,,40,58,7,8,1.2,1
2026-01-12T0700,2614A,100.2168,25.5818,大理白族自治州,大理市环境监测站,,30,,22,21,18,64,,,,6,7,6,6,0.6,0.6
2026-01-12T0700,2615A,100.1542,25.7055,大理白族自治州,大理古城,,19,,36,12,13,59,,,,9,6,8,7,0.5,0.5
2026-01-12T0700,1109A,121.6119,38.974,大连市,甘井子,,42,42,27,23,12,42,,,,28,14,13,9,0.1,0.2
2026-01-12T0700,1110A,121.565,38.9509,大连市,周水子,,32,32,26,20,13,34,,,,32,17,4,3,0.4,0.4
2026-01-12T0700,1111A,121.5637,38.8849,大连市,星海三站,,30,30,24,20,12,47,,,,20,14,9,7,0.5,0.4
2026-01-12T0700,1112A,121.6301,38.9117,大连市,青泥洼桥,,43,43,27,17,10,53,,,,12,9,10,8,0.5,0.3
2026-01-12T0700,1113A,121.6248,38.8643,大连市,傅家庄,,42,42,26,23,12,48,,,,16,11,9,8,0.4,0.3
2026-01-12T0700,1114A,121.5117,38.8636,大连市,七贤岭,,32,32,25,16,10,49,,,,13,6,9,7,0.8,0.5
2026-01-12T0700,1116A,121.7507,39.1339,大连市,金州,,39,39,28,21,14,39,,,,31,17,13,8,0.4,0.3
2026-01-12T0700,1117A,121.7811,39.0495,大连市,开发区,,26,24,23,18,12,40,,,,23,15,5,5,0.5,0.4
2026-01-12T0700,1118A,121.9762,39.0631,大连市,双D港,,50,50,22,16,9,57,,,,15,10,10,7,0.3,0.2
2026-01-12T0700,4082A,121.2548,38.8188,大连市,旅顺,颗粒物(PM10),51,51,24,22,12,43,,,,16,9,6,5,0.7,0.6
2026-01-12T0700,1789A,124.8085,46.0381,大庆市,大同区,细颗粒物(PM2.5),60,62,55,43,40,27,,,,28,18,18,8,0.8,0.7
2026-01-12T0700,1790A,125.1166,46.5255,大庆市,龙凤区,颗粒物(PM10),57,63,53,38,31,19,,,,39,32,7,9,0.9,0.7
2026-01-12T0700,1791A,124.8894,46.4007,大庆市,红岗区,,48,48,44,31,33,26,,,,24,24,5,7,0.6,0.6
2026-01-12T0700,1792A,125.1391,46.578,大庆市,萨尔图区,细颗粒物(PM2.5),70,70,54,51,35,16,,,,30,24,9,9,0.7,0.5
2026-01-12T0700,1793A,124.9026,46.6217,大庆市,让胡路区,细颗粒物(PM2.5),69,52,40,50,38,28,,,,29,19,6,8,0.7,0.6
2026-01-12T0700,3481A,125.127,46.6277,大庆市,萨区政府监测点,颗粒物(PM10),74,97,54,51,33,19,,,,29,25,8,9,0.6,0.5
2026-01-12T0700,1723A,113.2926,40.0759,大同市,云冈宾馆,颗粒物(PM10),81,112,62,28,23,43,,,,23,27,7,10,0.8,0.7
2026-01-12T0700,1724A,113.3437,40.0921,大同市,大同大学,颗粒物(PM10),78,105,52,27,19,38,,,,24,23,5,8,0.9,0.7
2026-01-12T0700,1725A,113.2637,40.129,大同市,安家小村,颗粒物(PM10),70,89,58,24,19,34,,,,29,24,7,9,0.9,0.5
2026-01-12T0700,3282A,113.3399,40.0586,大同市,大同市卫生学校,颗粒物(PM10),91,132,65,36,22,50,,,,20,29,4,9,0.3,0.6
2026-01-12T0700,3565A,113.1371,40.1122,大同市,云冈站,颗粒物(PM10),82,113,42,33,14,50,,,,17,15,6,7,0.6,0.5
2026-01-12T0700,3566A,113.1186,40.2556,大同市,图书馆,"颗粒物(PM10),细颗粒物(PM2.5)",63,76,43,45,23,29,,,,28,18,21,12,1.1,0.4
2026-01-12T0700,3567A,113.5931,40.0459,大同市,区一中,颗粒物(PM10),84,117,59,22,19,57,,,,19,23,10,11,0.4,0.5
2026-01-12T0700,4199A,113.2798248,40.09972476,大同市,魏都大道141号,颗粒物(PM10),83,116,73,23,20,29,,,,36,28,6,8,1.5,0.8
2026-01-12T0700,2269A,124.1068,50.4091,大兴安岭地区,科技局,,38,38,32,23,22,30,,,,16,14,9,8,0.4,0.4
2026-01-12T0700,3663A,124.117,50.4279,大兴安岭地区,红旗社区,,28,24,31,19,25,44,,,,10,25,8,11,0.4,0.6
2026-01-12T0700,1600A,124.33,40.0625,丹东市,江湾东路,细颗粒物(PM2.5),54,50,51,38,37,36,,,,18,22,11,14,1.2,1.1
2026-01-12T0700,1601A,124.4242,40.1513,丹东市,临江后街,,39,39,44,24,23,11,,,,47,16,11,6,1.0,0.8
2026-01-12T0700,1602A,124.3935,40.1461,丹东市,元宝山,,29,29,30,19,20,39,,,,12,12,7,9,0.6,0.6
2026-01-12T0700,1603A,124.3634,40.1093,丹东市,民主桥,,22,22,63,11,32,23,,,,28,24,7,10,0.6,0.9
2026-01-12T0700,3541A,109.5726195,19.51688767,儋州市,第一中学子站,,43,43,45,22,24,74,,,,8,8,6,5,0.6,0.6
2026-01-12T0700,3542A,109.5567,19.5187,儋州市,东坡学校子站,,40,40,41,26,28,78,,,,6,9,5,6,0.5,0.5
2026-01-12T0700,2616A,98.5611,24.4273,德宏傣族景颇族自治州,德宏州监测站,细颗粒物(PM2.5),64,51,61,46,46,3,,,,27,26,6,8,0.8,0.8
2026-01-12T0700,3677A,98.5887,24.4366,德宏傣族景颇族自治州,芒市人民政府综合楼,细颗粒物(PM2.5),52,39,60,36,38,9,,,,19,19,4,5,0.8,0.8
2026-01-12T0700,1901A,104.424,31.1209,德阳市,东山公园,细颗粒物(PM2.5),190,147,144,143,137,21,,,,26,29,4,4,1.1,1.1
2026-01-12T0700,1902A,104.3827,31.1318,德阳市,西小区,细颗粒物(PM2.5),207,184,172,157,142,3,,,,39,46,4,3,1.7,1.2
2026-01-12T0700,1904A,104.3553,31.1091,德阳市,耐火材料厂,,,,162,,146,,,33,,,52,,2,,1.0
2026-01-12T0700,4145A,104.4144,31.1495,德阳市,市林业局,,,,169,,156,,,32,,,43,,3,,1.3
2026-01-12T0700,1622A,116.3034,37.4675,德州市,儿童乐园,颗粒物(PM10),71,92,71,36,19,30,,,,24,22,12,11,0.7,0.7
2026-01-12T0700,1624A,116.2992,37.4449,德州市,监理站,颗粒物(PM10),64,78,57,34,14,39,,,,30,26,13,13,0.6,0.6
2026-01-12T0700,3066A,116.2722,37.438,德州市,九衢泉纯净水厂,颗粒物(PM10),62,73,61,31,20,26,,,,34,29,12,13,0.6,0.5
2026-01-12T0700,3371A,116.3693,37.44,德州市,开发区人民医院,颗粒物(PM10),69,88,65,36,19,36,,,,32,27,12,13,0.7,0.6
2026-01-12T0700,3511A,116.5687,37.3331,德州市,陵城艺术中心,颗粒物(PM10),68,85,63,31,18,25,,,,32,25,18,16,0.5,0.4
2026-01-12T0700,4292A,116.352738,37.420875,德州市,新河东路,颗粒物(PM10),67,83,61,36,21,27,,,,35,24,13,13,0.7,0.7
2026-01-12T0700,2621A,99.7054,27.8319,迪庆藏族自治州,迪庆州站,,21,21,24,13,16,52,,,,7,7,5,5,0.4,0.4
2026-01-12T0700,3180A,99.7122,27.8129,迪庆藏族自治州,质量技术监督局,,25,,20,17,11,57,,,,9,6,4,4,0.4,0.4
2026-01-12T0700,4257A,104.6092,35.5962,定西市,将台街,"颗粒物(PM10),细颗粒物(PM2.5)",59,67,76,42,49,12,,,,26,32,10,18,0.7,1
2026-01-12T0700,4309A,104.6159,35.5701,定西市,正龙路62号,颗粒物(PM10),62,74,81,33,49,22,,,,10,15,6,15,0.7,0.9
2026-01-12T0700,1390A,113.7943,23.0132,东莞市,东城石井,细颗粒物(PM2.5),67,81,51,48,29,11,,,,72,42,6,7,0.6,0.4
2026-01-12T0700,1391A,113.7384,22.9659,东莞市,南城西平,颗粒物(PM10),72,93,64,49,35,0,,,,94,67,10,9,0.7,0.6
2026-01-12T0700,3319A,113.7283,23.041,东莞市,万江金泰,颗粒物(PM10),61,71,65,39,35,23,,,,64,50,10,7,0.8,0.8
2026-01-12T0700,4129A,113.8666,23.1062,东莞市,裕兴路,颗粒物(PM10),60,70,68,36,32,20,,,,67,48,15,10,0.8,0.8
2026-01-12T0700,4130A,114.0076,22.9739,东莞市,教育路1号,颗粒物(PM10),79,108,71,53,33,8,,,,85,53,6,6,0.7,0.6
2026-01-12T0700,4131A,113.7981,22.8124,东莞市,长怡路1号,颗粒物(PM10),78,106,70,52,33,6,,,,93,61,8,8,0.7,0.6
2026-01-12T0700,1666A,118.6612,37.4313,东营市,市环保局,颗粒物(PM10),56,61,35,24,12,20,,,,38,26,15,16,1.1,0.7
2026-01-12T0700,3036A,118.6903,37.4337,东营市,开发区管委会,颗粒物(PM10),62,74,39,24,13,28,,,,32,20,16,15,1.0,0.6
2026-01-12T0700,3365A,118.5721,37.5654,东营市,垦利区民丰路,颗粒物(PM10),59,68,35,22,11,18,,,,38,24,10,6,1.0,0.6
2026-01-12T0700,3498A,118.5063,37.8606,东营市,河口城区,颗粒物(PM10),62,73,35,27,11,25,,,,34,23,6,5,1.2,0.7
2026-01-12T0700,3646A,118.4979,37.4623,东营市,胜利站,颗粒物(PM10),53,56,34,27,14,13,,,,46,28,14,14,0.8,0.4
2026-01-12T0700,3734A,118.5753,37.4405,东营市,理想之城,颗粒物(PM10),54,58,35,27,18,8,,,,45,29,11,8,1.1,0.7
2026-01-12T0700,1591A,110.0024,39.8127,鄂尔多斯市,综合楼,颗粒物(PM10),104,158,53,46,16,73,,,,5,19,3,8,0.3,0.4
2026-01-12T0700,1592A,109.9485,39.8259,鄂尔多斯市,巴音孟克林场办事处,颗粒物(PM10),126,202,69,48,18,73,,,,9,14,5,9,0.3,0.4
2026-01-12T0700,1593A,109.7734,39.5987,鄂尔多斯市,康泽苑,颗粒物(PM10),161,271,80,66,22,75,,,,6,18,5,7,0.3,0.4
2026-01-12T0700,1594A,109.8121,39.5987,鄂尔多斯市,华泰汽车城,颗粒物(PM10),161,271,81,61,20,75,,,,6,17,3,6,0.3,0.3
2026-01-12T0700,1595A,109.9734,39.7884,鄂尔多斯市,奥林花园,颗粒物(PM10),123,195,76,48,16,72,,,,8,26,3,4,0.4,0.4
2026-01-12T0700,2436A,114.894,30.3989,鄂州市,市政府,臭氧1小时(O3_1h),53,43,75,25,25,162,,,,30,27,7,10,0.5,0.6
2026-01-12T0700,2437A,114.8986,30.3714,鄂州市,赵家坝,颗粒物(PM10),54,58,84,20,26,34,,,,19,17,8,12,0.7,0.7
2026-01-12T0700,3654A,114.8093,30.4091,鄂州市,精准医疗中心,,,,86,,32,,,72,,,33,,10,,0.8
2026-01-12T0700,2454A,109.4978,30.2979,恩施土家族苗族自治州,湖北民院,,48,39,64,33,57,53,,,,10,21,6,7,0.7,0.9
2026-01-12T0700,3549A,109.5061,30.3771,恩施土家族苗族自治州,龙凤新区,细颗粒物(PM2.5),74,62,83,54,68,10,,,,9,17,7,7,0.4,0.5
2026-01-12T0700,2499A,108.3411,21.6159,防城港市,沙万,颗粒物(PM10),67,84,75,45,41,61,,,,24,33,15,13,0.7,0.6
2026-01-12T0700,2500A,108.3515,21.7733,防城港市,防城档案局,细颗粒物(PM2.5),80,106,86,59,49,6,,,,32,29,4,7,1.0,0.7
2026-01-12T0700,2501A,108.3506,21.6414,防城港市,大海花园,颗粒物(PM10),64,77,63,45,45,49,,,,23,28,17,16,0.9,0.8
2026-01-12T0700,1371A,113.1293,23.0065,佛山市,湾梁,细颗粒物(PM2.5),104,119,52,78,32,1,,,,113,54,/,/,/,/
2026-01-12T0700,1372A,113.1082,23.0477,佛山市,华材职中,细颗粒物(PM2.5),112,149,78,84,37,6,,,,112,65,9,7,1.1,0.7
2026-01-12T0700,1373A,113.1439,23.045,佛山市,南海气象局,颗粒物(PM10),91,132,57,67,33,1,,,,104,55,/,/,/,/
2026-01-12T0700,1374A,113.2879,22.8094,佛山市,顺德苏岗,细颗粒物(PM2.5),73,79,45,53,31,0,,,,93,48,/,/,1.0,0.7
2026-01-12T0700,1376A,112.8384,22.8678,佛山市,高明孔堂,,48,45,44,33,30,30,,,,33,32,/,/,/,/
2026-01-12T0700,1377A,112.8835,23.1584,佛山市,三水监测站,细颗粒物(PM2.5),114,134,71,86,41,3,,,,91,64,35,11,1.0,0.7
2026-01-12T0700,1378A,112.8668,23.185,佛山市,三水云东海,细颗粒物(PM2.5),112,126,64,84,40,0,,,,74,52,/,/,/,/
2026-01-12T0700,3625A,113.2568,22.7629,佛山市,容桂街道办,细颗粒物(PM2.5),70,80,62,51,36,1,,,,96,58,/,/,/,/
2026-01-12T0700,1282A,119.2681,26.0506,福州市,师大,颗粒物(PM10),63,75,80,21,30,56,,,,26,27,4,5,0.5,0.5
2026-01-12T0700,1283A,119.2983,26.1028,福州市,五四北路,颗粒物(PM10),61,72,74,18,28,52,,,,24,24,5,6,0.7,0.6
2026-01-12T0700,1284A,119.2648,26.0769,福州市,杨桥西路,颗粒物(PM10),63,75,76,18,29,55,,,,22,20,5,6,/,/
2026-01-12T0700,3048A,119.5799,26.0937,福州市,九龙,颗粒物(PM10),60,70,76,15,26,69,,,,16,21,6,6,0.6,0.6
2026-01-12T0700,3526A,119.5188,25.9666,福州市,吴航,颗粒物(PM10),85,119,77,38,28,22,,,,66,25,21,7,0.7,0.6
2026-01-12T0700,4104A,119.3106,26.0648,福州市,路通桥巷6号,颗粒物(PM10),57,63,69,24,31,59,,,,16,19,/,/,/,/
2026-01-12T0700,1755A,123.7974,41.8494,抚顺市,望花区,,30,30,38,12,21,51,,,,17,24,10,10,0.6,0.8
2026-01-12T0700,1756A,123.9161,41.8827,抚顺市,顺城区,,26,26,40,9,21,54,,,,14,29,9,8,0.6,0.8
2026-01-12T0700,1757A,124.0437,41.8615,抚顺市,东洲区,,30,30,37,8,26,56,,,,14,21,20,14,1.2,0.9
2026-01-12T0700,1758A,123.9246,41.8638,抚顺市,新抚区,,26,26,43,11,27,60,,,,14,29,8,8,0.6,0.9
2026-01-12T0700,1759A,124.0972,41.8961,抚顺市,大伙房水库,,26,26,37,10,24,58,,,,6,16,12,11,0.6,0.8
2026-01-12T0700,1760A,123.708,41.8386,抚顺市,沈抚新城,,31,31,31,8,16,53,,,,14,15,9,8,1.0,0.6
2026-01-12T0700,2377A,116.3544,27.9833,抚州市,市站,颗粒物(PM10),62,73,75,40,35,29,,,,23,19,13,14,0.4,0.3
2026-01-12T0700,2378A,116.3562,27.9631,抚州市,血防站,颗粒物(PM10),59,68,70,36,35,21,,,,30,27,9,11,1.1,1
2026-01-12T0700,2379A,116.3561,28.0007,抚州市,采茶剧团,颗粒物(PM10),62,74,73,41,33,1,,,,39,19,7,9,0.9,0.7
2026-01-12T0700,2380A,116.3854,27.9648,抚州市,医学分院,颗粒物(PM10),60,69,80,37,32,24,,,,20,15,6,10,0.8,0.6
2026-01-12T0700,2207A,121.6095,41.9978,阜新市,工业园区,颗粒物(PM10),52,53,40,29,17,30,,,,31,12,23,14,0.8,0.5
2026-01-12T0700,2208A,121.6567,42.0188,阜新市,长青街,,36,36,33,17,12,37,,,,21,12,13,10,0.6,0.4
2026-01-12T0700,2209A,121.6672,42.07,阜新市,农业园区,颗粒物(PM10),55,59,40,27,14,31,,,,25,13,20,12,0.7,0.4
2026-01-12T0700,2211A,121.6343,42.0455,阜新市,玉龙新城,,42,42,36,18,11,33,,,,26,12,19,11,0.7,0.5
2026-01-12T0700,2301A,115.8276,32.8929,阜阳市,市监测站,颗粒物(PM10),55,60,68,31,30,38,,,,25,25,5,6,0.4,0.3
2026-01-12T0700,2303A,115.8551,32.8606,阜阳市,开发区,颗粒物(PM10),53,56,67,29,28,32,,,,26,25,5,6,0.4,0.4
2026-01-12T0700,2875A,115.783962,32.889217,阜阳市,阜阳职业技术学院,颗粒物(PM10),57,64,59,33,24,49,,,,19,18,8,8,0.4,0.4
2026-01-12T0700,3468A,115.79,32.8614,阜阳市,市规划展馆,颗粒物(PM10),61,72,68,36,29,42,,,,19,17,6,7,0.5,0.5
2026-01-12T0700,3469A,115.835101,32.918568,阜阳市,枣园社区,颗粒物(PM10),63,76,68,32,29,40,,,,24,27,4,5,0.5,0.4
2026-01-12T0700,2669A,102.9097,34.9841,甘南藏族自治州,州政府,,44,44,50,29,27,7,,,,40,36,5,11,1.3,0.9
2026-01-12T0700,3380A,102.8915,34.9618,甘南藏族自治州,甘肃民族师范学院,,49,49,51,10,13,14,,,,42,31,12,16,0.8,0.7
2026-01-12T0700,2570A,101.96,30.048,甘孜藏族自治州,水桥子,,20,20,23,13,11,37,,,,24,19,5,6,0.5,0.4
2026-01-12T0700,3065A,101.9534,29.9976,甘孜藏族自治州,州环保局,,19,18,23,13,9,49,,,,13,14,5,6,0.4,0.4
2026-01-12T0700,2363A,114.9368,25.8663,赣州市,地委,颗粒物(PM10),54,58,49,32,30,11,,,,34,25,8,9,0.8,0.7
2026-01-12T0700,2364A,114.946,25.8483,赣州市,气象台,颗粒物(PM10),58,65,63,29,28,4,,,,56,40,5,6,0.6,0.6
2026-01-12T0700,2365A,114.932,25.8332,赣州市,市图书馆,颗粒物(PM10),55,60,55,38,31,20,,,,33,32,5,6,0.6,0.6
2026-01-12T0700,2366A,114.8905,25.8472,赣州市,华坚鞋城,细颗粒物(PM2.5),64,70,59,46,33,19,,,,37,30,20,12,0.4,0.4
2026-01-12T0700,3109A,115.0094,25.8614,赣州市,赣县区卫计委,细颗粒物(PM2.5),54,46,51,38,39,10,,,,25,30,8,7,0.6,0.6
2026-01-12T0700,2684A,106.2753,36.0057,固原市,监测站,,47,47,51,13,22,72,,,,8,17,6,5,0.4,0.6
2026-01-12T0700,2685A,106.2384,36.0189,固原市,新区,,45,45,44,8,19,74,,,,9,11,4,3,0.3,0.4
2026-01-12T0700,2544A,106.6307,30.4577,广安市,市委,细颗粒物(PM2.5),258,,189,208,182,4,,,,30,30,9,9,1.3,1.3
2026-01-12T0700,2545A,106.6266,30.4662,广安市,友谊中学,细颗粒物(PM2.5),242,201,180,192,167,9,,,,29,30,7,6,1.2,1.2
2026-01-12T0700,2547A,106.6386,30.4551,广安市,广电花园,细颗粒物(PM2.5),247,208,179,197,170,5,,,,29,29,8,8,1.0,1
2026-01-12T0700,2902A,106.6347,30.4868,广安市,北辰小学,细颗粒物(PM2.5),246,206,173,196,158,8,,,,27,29,16,17,1.4,1.3
2026-01-12T0700,2524A,105.8211,32.4444,广元市,老城,细颗粒物(PM2.5),138,112,108,105,75,4,,,,51,56,11,23,1.8,1.4
2026-01-12T0700,2526A,105.8629,32.429,广元市,监测站,细颗粒物(PM2.5),119,104,113,90,90,10,,,,40,53,6,24,1.3,1.9
2026-01-12T0700,3617A,105.8047,32.4167,广元市,经开区,细颗粒物(PM2.5),125,131,138,95,96,1,,,,42,53,5,32,1.5,1.9
2026-01-12T0700,1345A,113.2346,23.1423,广州市,广雅中学,颗粒物(PM10),77,104,83,54,44,1,,,,95,69,4,4,1.1,1.1
2026-01-12T0700,1346A,113.2611,23.105,广州市,市五中,细颗粒物(PM2.5),70,80,68,51,45,2,,,,109,70,10,10,/,/
2026-01-12T0700,1348A,113.3477,23.0916,广州市,广东商学院,细颗粒物(PM2.5),69,79,65,50,37,0,,,,92,57,7,7,0.6,0.4
2026-01-12T0700,1349A,113.4332,23.105,广州市,市八十六中,细颗粒物(PM2.5),73,69,57,53,35,1,,,,89,68,13,9,/,/
2026-01-12T0700,1350A,113.3506,22.9488,广州市,番禺中学,细颗粒物(PM2.5),80,102,77,59,46,2,,,,96,64,7,4,0.8,0.7
2026-01-12T0700,1351A,113.2147,23.3918,广州市,花都师范,颗粒物(PM10),60,70,57,40,32,2,,,,90,54,6,8,0.8,0.6
2026-01-12T0700,1352A,113.2599,23.1329,广州市,市监测站,颗粒物(PM10),69,88,54,13,32,1,,,,109,69,3,3,/,/
2026-01-12T0700,1353A,113.5618,23.3119,广州市,九龙镇镇龙,颗粒物(PM10),52,54,58,29,28,0,,,,48,40,5,6,0.5,0.5
2026-01-12T0700,1354A,113.2764,23.1544,广州市,麓湖,细颗粒物(PM2.5),74,82,53,54,33,2,,,,102,64,11,10,1.5,0.5
2026-01-12T0700,2846A,113.3209,23.1323,广州市,体育西,细颗粒物(PM2.5),69,85,57,50,35,0,,,,97,58,8,8,0.7,0.7
2026-01-12T0700,3298A,113.5718,23.5493,广州市,从化街口,,36,36,49,24,31,4,,,,51,40,8,9,0.5,0.5
2026-01-12T0700,3299A,113.3463,23.369,广州市,白云竹料,颗粒物(PM10),53,56,65,32,34,8,,,,59,48,3,5,0.5,0.6
2026-01-12T0700,3300A,113.2981,23.2365,广州市,白云嘉禾,颗粒物(PM10),63,75,71,39,36,0,,,,94,69,5,6,/,/
2026-01-12T0700,3301A,113.4256,23.1716,广州市,黄埔科学城,细颗粒物(PM2.5),62,72,45,44,26,0,,,,72,41,5,7,0.8,0.6
2026-01-12T0700,3302A,113.3942,23.0485,广州市,番禺大学城,细颗粒物(PM2.5),67,80,55,48,34,2,,,,94,54,12,11,0.6,0.5
2026-01-12T0700,3303A,113.4923,22.8169,广州市,南沙黄阁,颗粒物(PM10),78,106,57,47,28,1,,,,104,58,7,8,/,/
2026-01-12T0700,3304A,113.534,22.7893,广州市,南沙街,颗粒物(PM10),65,80,53,44,28,0,,,,95,43,3,5,0.6,0.4
2026-01-12T0700,3443A,113.2905,23.5541,广州市,花都梯面,,40,40,39,25,23,1,,,,51,39,5,7,/,/
2026-01-12T0700,3445A,113.786,23.7479,广州市,从化良口,,21,21,25,14,17,22,,,,29,18,7,9,/,/
2026-01-12T0700,3446A,113.805,23.2614,广州市,增城荔城,,41,41,37,28,23,40,,,,26,25,12,8,0.5,0.5
2026-01-12T0700,2506A,109.604387,23.066791,贵港市,江南子站,细颗粒物(PM2.5),94,122,105,70,67,9,,,,63,47,16,10,1.1,0.9
2026-01-12T0700,2508A,109.5669,23.1065,贵港市,荷城子站,细颗粒物(PM2.5),67,70,71,48,45,47,,,,28,39,16,9,0.9,0.9
2026-01-12T0700,3405A,109.5886,23.1172,贵港市,新世纪学校,,,,61,,39,,,109,,,26,,,,0.4
2026-01-12T0700,4260A,109.5933,23.095,贵港市,中山路155-3号,细颗粒物(PM2.5),79,64,73,58,56,36,,,,38,39,/,/,0.7,0.7
2026-01-12T0700,1439A,106.6863,26.6035,贵阳市,马鞍山,,45,39,57,31,50,61,,,,14,18,8,9,/,/
2026-01-12T0700,1441A,106.6241,26.6266,贵阳市,鉴湖路,,44,44,64,27,44,77,,,,14,18,7,9,0.6,0.6
2026-01-12T0700,1442A,106.7468,26.6344,贵阳市,燕子冲,,,,88,,82,,,28,,,23,,11,,0.9
2026-01-12T0700,1443A,106.6556,26.4362,贵阳市,碧云窝,颗粒物(PM10),52,53,62,29,43,93,,,,13,16,6,11,/,/
2026-01-12T0700,1445A,106.6963,26.6063,贵阳市,红边门,,,,77,,62,,,50,,,25,,12,,
2026-01-12T0700,1446A,106.7162383,26.56964667,贵阳市,新华路,,46,46,69,29,45,68,,,,18,24,8,12,0.5,0.6
2026-01-12T0700,1447A,106.6742,26.542,贵阳市,太慈桥,,44,44,59,29,44,66,,,,22,22,5,6,/,/
2026-01-12T0700,4230A,106.688212,26.56952,贵阳市,花果园大街66号,细颗粒物(PM2.5),58,,53,41,35,65,,,,18,23,5,8,/,/
2026-01-12T0700,4231A,106.687268,26.516892,贵阳市,漓江路57号,细颗粒物(PM2.5),58,51,63,41,47,66,,,,22,25,9,16,0.9,0.9
2026-01-12T0700,1864A,110.3091,25.2705,桂林市,龙隐路小学,细颗粒物(PM2.5),98,75,65,73,60,38,,,,25,21,16,10,0.7,0.7
2026-01-12T0700,1865A,110.2849361,25.22909545,桂林市,八中,细颗粒物(PM2.5),94,81,80,70,69,4,,,,45,33,8,12,0.6,0.6
2026-01-12T0700,3531A,110.296,25.1254,桂林市,旅游学院,颗粒物(PM10),59,68,65,39,47,5,,,,36,31,4,7,0.4,0.4
2026-01-12T0700,4222A,110.1835,25.2444,桂林市,环湖路276号,细颗粒物(PM2.5),92,90,74,68,56,2,,,,52,40,21,16,0.7,0.7
2026-01-12T0700,4301A,110.2803,25.2773,桂林市,信义路13号,细颗粒物(PM2.5),87,74,66,64,50,39,,,,29,26,17,9,0.7,0.7
2026-01-12T0700,2674A,100.2262,34.4854,果洛藏族自治州,玛沁县大武镇,,36,36,42,7,11,40,,,,4,6,18,15,0.4,0.5
2026-01-12T0700,1130A,126.5557,45.8109,哈尔滨市,松北商大,,49,49,67,20,53,36,,,,23,37,8,15,0.5,0.7
2026-01-12T0700,1132A,126.6162,45.719,哈尔滨市,南岗学府路,,43,43,78,26,58,23,,,,32,35,12,15,0.8,1
2026-01-12T0700,1133A,126.6894,45.7733,哈尔滨市,太平宏伟公园,细颗粒物(PM2.5),52,44,67,36,52,28,,,,31,32,13,23,0.7,0.8
2026-01-12T0700,1134A,126.6361,45.7672,哈尔滨市,道外承德广场,颗粒物(PM10),54,57,83,28,50,39,,,,26,38,10,16,0.5,0.9
2026-01-12T0700,1136A,126.644,45.7261,哈尔滨市,动力和平路,,40,40,73,26,59,34,,,,22,34,10,16,0.8,1
2026-01-12T0700,1137A,126.5933,45.7479,哈尔滨市,道里建国路,,49,42,66,34,61,27,,,,36,36,15,18,0.3,0.7
2026-01-12T0700,1138A,126.6127,45.6119,哈尔滨市,平房东轻厂,,42,35,71,29,59,39,,,,17,29,4,7,0.6,0.8
2026-01-12T0700,1139A,126.5875,45.9827,哈尔滨市,呼兰师专,细颗粒物(PM2.5),72,54,81,52,76,27,,,,25,35,8,10,0.8,0.9
2026-01-12T0700,1140A,126.6299,45.6799,哈尔滨市,省农科院,,49,49,92,32,74,25,,,,40,47,11,15,0.5,0.7
2026-01-12T0700,4282A,126.6769,45.7379,哈尔滨市,华山路1号,,40,36,67,28,52,38,,,,24,37,19,28,0.7,0.8
2026-01-12T0700,4283A,126.9717,45.5356,哈尔滨市,解放大街52号,,38,33,75,26,68,49,,,,13,26,11,15,0.6,0.9
2026-01-12T0700,2688A,93.5124,42.8176,哈密市,地区监测站,颗粒物(PM10),89,128,105,39,51,15,,,,31,20,2,3,1.1,0.4
2026-01-12T0700,2689A,93.5014,42.8312,哈密市,哈密师范学校,颗粒物(PM10),83,116,106,40,39,18,,,,35,31,4,6,0.8,0.6
2026-01-12T0700,2671A,100.9016,36.9464,海北藏族自治州,海晏县西海镇,,26,,18,18,12,70,,,,1,2,7,7,0.3,0.3
2026-01-12T0700,3867A,102.074,36.5056,海东市,平安区公安局北苑,,49,49,49,27,24,24,,,,14,20,8,19,0.8,1.1
2026-01-12T0700,4163A,102.0984,36.5119,海东市,滨河路,,47,47,47,27,29,9,,,,43,38,9,19,1.0,1.2
2026-01-12T0700,1410A,110.3189,20.0596,海口市,海南大学,,45,45,36,20,20,110,,,,12,11,6,8,0.3,0.2
2026-01-12T0700,1411A,110.2827,20.0051,海口市,秀英海南医院,,39,39,39,25,19,14,,,,71,17,8,9,0.7,0.3
2026-01-12T0700,1412A,110.3391,19.9979,海口市,海南师范大学,,39,39,38,21,21,91,,,,23,14,6,8,0.5,0.4
2026-01-12T0700,1413A,110.3303,20.0359,海口市,龙华路环保局宿舍,,39,39,37,22,20,91,,,,19,14,/,/,0.7,0.5
2026-01-12T0700,3539A,110.5111,19.9737,海口市,桂林洋子站,,41,41,40,20,21,88,,,,16,14,/,/,/,/
2026-01-12T0700,4134A,110.1952,20.0451,海口市,长滨二路9号,,39,39,30,24,20,81,,,,19,11,/,/,/,/
2026-01-12T0700,2673A,100.6158,36.2985,海南藏族自治州,共和县恰卜恰镇,,41,41,37,15,14,19,,,,37,14,11,11,0.6,0.5
2026-01-12T0700,2676A,97.373,37.376,海西蒙古族藏族自治州,德令哈市,,25,16,24,3,13,77,,,,1,6,11,13,0.3,0.5
2026-01-12T0700,1049A,114.492,36.5712,邯郸市,矿院,细颗粒物(PM2.5),67,60,56,48,33,15,,,,39,22,6,7,0.9,0.5
2026-01-12T0700,1050A,114.4839,36.6136,邯郸市,丛台公园,"颗粒物(PM10),细颗粒物(PM2.5)",58,66,54,41,27,31,,,,36,21,10,6,1.0,0.5
2026-01-12T0700,3458A,114.7893,36.5592,邯郸市,香泉濮院小区,细颗粒物(PM2.5),67,71,61,48,30,18,,,,32,18,4,3,0.5,0.4
2026-01-12T0700,3580A,114.1998,36.4439,邯郸市,峰峰矿区临水派出所,,39,39,48,24,25,69,,,,9,15,9,8,0.6,0.6
2026-01-12T0700,4068A,114.5209,36.7697,邯郸市,建安街268号,颗粒物(PM10),71,91,62,51,22,2,,,,51,27,9,7,1.1,0.5
2026-01-12T0700,4069A,114.5488,36.6177,邯郸市,丛台东路558号,细颗粒物(PM2.5),63,64,54,45,24,4,,,,51,28,8,9,0.8,0.4
2026-01-12T0700,2635A,107.0155,33.0707,汉中市,市监测站,细颗粒物(PM2.5),137,,101,104,91,7,,,,34,37,5,6,1.3,1.1
2026-01-12T0700,2636A,107.0083,33.114,汉中市,鑫源开发区,细颗粒物(PM2.5),102,,86,76,74,23,,,,43,39,6,8,1.2,1
2026-01-12T0700,2637A,107.0072,33.0323,汉中市,南郑大河坎水厂,细颗粒物(PM2.5),128,117,120,97,91,2,,,,28,34,3,7,,1.1
2026-01-12T0700,1223A,120.2073,30.2111,杭州市,滨江,颗粒物(PM10),62,74,97,37,33,5,,,,55,45,7,8,0.5,0.4
2026-01-12T0700,1224A,120.0625,30.2737,杭州市,西溪,颗粒物(PM10),52,54,82,24,27,0,,,,40,37,8,10,0.9,0.9
2026-01-12T0700,1226A,120.3417,30.315,杭州市,下沙,颗粒物(PM10),67,83,101,31,32,4,,,,61,58,9,11,0.7,0.6
2026-01-12T0700,1227A,120.1252,30.2465,杭州市,卧龙桥,颗粒物(PM10),59,67,74,31,25,7,,,,49,32,10,10,0.5,0.4
2026-01-12T0700,1228A,120.1902,30.2691,杭州市,浙江农大,颗粒物(PM10),67,83,91,39,33,12,,,,51,47,6,7,0.6,0.5
2026-01-12T0700,1230A,120.1195,30.3121,杭州市,和睦小学,颗粒物(PM10),60,69,89,32,32,16,,,,40,41,6,7,0.7,0.6
2026-01-12T0700,1231A,120.3076,30.4146,杭州市,临平镇,颗粒物(PM10),69,87,100,36,32,2,,,,59,42,8,10,0.6,0.5
2026-01-12T0700,1232A,120.2753,30.1839,杭州市,城厢镇,颗粒物(PM10),65,79,104,36,34,1,,,,54,43,7,9,0.6,0.5
2026-01-12T0700,1233A,120.0883,30.1808,杭州市,云栖,颗粒物(PM10),56,61,77,28,25,6,,,,33,26,3,4,0.5,0.5
2026-01-12T0700,3557A,119.9463,30.0496,杭州市,镇二中,颗粒物(PM10),54,58,74,29,30,2,,,,50,42,6,6,0.8,0.6
2026-01-12T0700,3558A,119.7184,30.2367,杭州市,市府大楼,颗粒物(PM10),62,73,79,37,32,24,,,,25,26,12,11,0.7,0.6
2026-01-12T0700,3656A,120.1554,30.2863,杭州市,消防大队,颗粒物(PM10),64,78,92,36,32,12,,,,46,42,6,8,0.5,0.4
2026-01-12T0700,1270A,117.1957,31.7845,合肥市,明珠广场,颗粒物(PM10),64,78,71,41,23,22,,,,39,31,8,7,0.7,0.5
2026-01-12T0700,1271A,117.307,31.8765,合肥市,三里街,颗粒物(PM10),62,73,67,34,24,15,,,,48,36,8,7,0.7,0.5
2026-01-12T0700,1272A,117.2587,31.8703,合肥市,琥珀山庄,颗粒物(PM10),63,75,70,37,26,31,,,,34,29,9,9,0.8,0.7
2026-01-12T0700,1275A,117.2593,31.9376,合肥市,庐阳区,颗粒物(PM10),60,70,76,24,23,30,,,,41,39,8,7,0.9,0.8
2026-01-12T0700,1276A,117.345251,31.861615,合肥市,瑶海区,颗粒物(PM10),59,68,73,29,25,20,,,,45,43,7,6,0.8,0.5
2026-01-12T0700,1277A,117.3033,31.7967,合肥市,包河区,颗粒物(PM10),64,78,69,44,26,28,,,,32,32,8,7,0.8,0.7
2026-01-12T0700,1278A,117.278,31.7392,合肥市,滨湖新区,"颗粒物(PM10),细颗粒物(PM2.5)",62,73,67,44,26,32,,,,31,24,7,5,0.7,0.5
2026-01-12T0700,1279A,117.1324,31.8395,合肥市,高新区,颗粒物(PM10),65,80,71,33,22,31,,,,37,32,7,6,0.5,0.4
2026-01-12T0700,3464A,117.3802,31.9148,合肥市,高教基地,颗粒物(PM10),60,70,67,38,26,30,,,,30,27,10,9,0.7,0.5
2026-01-12T0700,4098A,117.2518,31.8404,合肥市,中国科学技术大学,颗粒物(PM10),59,68,65,38,22,25,,,,39,28,9,9,0.5,0.4
2026-01-12T0700,3614A,79.9241,37.0878,和田地区,地区环保局,颗粒物(PM10),62,73,109,37,59,24,,,,64,49,2,8,1.2,0.9
2026-01-12T0700,3615A,79.9132,37.1137,和田地区,市环保局,颗粒物(PM10),78,105,108,38,54,33,,,,38,53,2,7,0.6,1.9
2026-01-12T0700,2517A,108.0496,24.6957,河池市,市环保站,细颗粒物(PM2.5),67,49,54,48,43,17,,,,24,23,4,6,0.7,0.7
2026-01-12T0700,4302A,108.0901,24.6945,河池市,上任中路54号,细颗粒物(PM2.5),74,71,64,54,47,2,,,,37,35,5,8,0.9,0.8
2026-01-12T0700,1697A,114.6962,23.7538,河源市,东埔,,34,34,43,21,30,31,,,,34,40,7,7,0.6,0.7
2026-01-12T0700,1698A,114.6895,23.7232,河源市,老城,,38,38,38,13,19,18,,,,32,25,6,7,0.8,0.7
2026-01-12T0700,3374A,115.5562,35.089,菏泽市,定陶老年大学,颗粒物(PM10),62,73,67,34,21,31,,,,25,21,3,3,0.3,0.2
2026-01-12T0700,4114A,115.4239,35.2593,菏泽市,黄河路600号,颗粒物(PM10),74,98,79,47,27,26,,,,30,25,4,3,0.5,0.4
2026-01-12T0700,4115A,115.5025,35.2727,菏泽市,菏泽市人社局,颗粒物(PM10),69,88,72,43,23,28,,,,27,22,4,3,0.5,0.4
2026-01-12T0700,4184A,115.479691,35.244011,菏泽市,永昌路1号,颗粒物(PM10),68,85,76,45,28,28,,,,27,23,5,5,0.4,0.3
2026-01-12T0700,4193A,115.471542,35.280012,菏泽市,长城路999号,颗粒物(PM10),70,90,83,38,22,31,,,,27,22,3,4,0.6,0.5
2026-01-12T0700,2514A,111.5264,24.4178,贺州市,环保小区,,43,36,55,30,43,17,,,,27,24,6,8,0.4,0.4
2026-01-12T0700,2515A,111.561,24.4074,贺州市,政协大楼,,45,39,53,31,37,2,,,,36,35,10,12,0.6,0.7
2026-01-12T0700,3534A,111.4744,24.455,贺州市,西湾,细颗粒物(PM2.5),60,63,61,43,36,9,,,,30,32,7,9,0.6,0.7
2026-01-12T0700,2385A,114.17,35.9019,鹤壁市,市监测站,"颗粒物(PM10),细颗粒物(PM2.5)",62,74,55,44,21,24,,,,21,18,4,6,0.6,0.5
2026-01-12T0700,2386A,114.2953,35.7512,鹤壁市,市交警支队,颗粒物(PM10),73,95,71,44,23,13,,,,40,22,9,5,0.7,0.4
2026-01-12T0700,2387A,114.2877,35.7302,鹤壁市,迎宾馆,颗粒物(PM10),74,97,82,49,27,14,,,,35,24,14,6,0.9,0.6
2026-01-12T0700,3474A,114.2616,35.6824,鹤壁市,大新区,,,96,76,42,28,10,,,,,26,10,6,0.8,0.4
2026-01-12T0700,3596A,114.1573,35.9607,鹤壁市,南山宾馆,颗粒物(PM10),80,110,70,33,23,40,,,,13,12,8,6,0.6,0.5
2026-01-12T0700,2244A,130.2537,47.3416,鹤岗市,哈啤分公司,,42,32,21,29,18,30,,,,25,6,6,6,0.8,0.4
2026-01-12T0700,2245A,130.2683,47.3087,鹤岗市,斯达机电,,47,47,24,27,19,29,,,,31,8,9,6,0.6,0.5
2026-01-12T0700,2246A,130.3114,47.3388,鹤岗市,东山纸板厂,细颗粒物(PM2.5),64,60,22,46,23,14,,,,45,11,12,7,1.5,0.9
2026-01-12T0700,2263A,127.4832,50.2524,黑河市,交通局,,48,,38,33,31,30,,,,16,25,5,8,0.5,0.6
2026-01-12T0700,2264A,127.5146,50.2339,黑河市,环保局,,,,20,,19,,,46,,,19,,8,,0.4
2026-01-12T0700,1074A,115.6839,37.754,衡水市,电机北厂,颗粒物(PM10),69,87,58,30,23,6,,,,38,21,9,6,0.5,0.4
2026-01-12T0700,1075A,115.6303,37.7318,衡水市,市监测站,颗粒物(PM10),59,68,57,33,21,17,,,,28,20,7,7,0.5,0.4
2026-01-12T0700,3188A,115.6684,37.7216,衡水市,市城管局,颗粒物(PM10),67,83,63,46,26,8,,,,40,23,6,5,0.5,0.4
2026-01-12T0700,3459A,115.599,37.5491,衡水市,地表水厂,颗粒物(PM10),62,74,54,31,23,7,,,,37,23,6,6,0.4,0.4
2026-01-12T0700,2457A,112.6209,26.9268,衡阳市,衡阳化工总厂,细颗粒物(PM2.5),93,87,89,69,68,21,,,,34,24,11,14,0.9,0.9
2026-01-12T0700,2458A,112.621,26.8957,衡阳市,珠晖区环保局,细颗粒物(PM2.5),77,84,85,56,72,6,,,,53,42,7,10,1.2,1.2
2026-01-12T0700,2459A,112.628,26.8654,衡阳市,市委党校,细颗粒物(PM2.5),64,68,86,46,67,36,,,,27,29,12,15,0.9,1
2026-01-12T0700,2460A,112.6007,26.8977,衡阳市,市监测站,细颗粒物(PM2.5),85,99,112,63,69,19,,,,36,29,9,12,1.0,1.1
2026-01-12T0700,2461A,112.5658,26.9013,衡阳市,真空机电公司,细颗粒物(PM2.5),87,98,106,64,65,2,,,,57,37,9,13,1.2,1.1
2026-01-12T0700,3399A,112.6703,26.8817,衡阳市,师范学院,细颗粒物(PM2.5),72,85,93,52,58,17,,,,31,29,4,8,1.0,1
2026-01-12T0700,3038A,103.3757,23.3679,红河哈尼族彝族自治州,州图书馆,细颗粒物(PM2.5),53,51,51,37,40,50,,,,12,8,7,6,0.6,0.6
2026-01-12T0700,4154A,103.401,23.3561,红河哈尼族彝族自治州,蒙自市朝阳路,细颗粒物(PM2.5),52,,41,36,39,57,,,,10,7,8,6,0.7,0.5
2026-01-12T0700,1090A,111.6506,40.7517,呼和浩特市,呼市一监,颗粒物(PM10),59,68,61,30,28,0,,,,43,41,2,4,1.1,0.7
2026-01-12T0700,1094A,111.7516,40.8369,呼和浩特市,如意水处理厂,颗粒物(PM10),51,52,59,21,24,0,,,,58,51,20,14,0.6,0.4
2026-01-12T0700,1095A,111.727798,40.806187,呼和浩特市,二十九中,颗粒物(PM10),53,56,57,21,23,3,,,,50,44,13,15,0.8,0.7
2026-01-12T0700,1097A,111.717,40.7617,呼和浩特市,化肥厂生活区,颗粒物(PM10),58,65,62,27,27,2,,,,50,43,7,9,1.0,0.9
2026-01-12T0700,3699A,111.6519,40.8389,呼和浩特市,海东办,颗粒物(PM10),57,63,59,25,24,4,,,,47,43,5,8,1.0,0.7
2026-01-12T0700,4275A,111.591512,40.827312,呼和浩特市,成吉思汗西街8号,颗粒物(PM10),53,56,54,22,18,3,,,,49,44,7,9,0.9,0.7
2026-01-12T0700,4276A,111.6597,40.8077,呼和浩特市,公园东路75号,颗粒物(PM10),60,70,60,27,25,8,,,,57,47,8,9,1.0,0.6
2026-01-12T0700,4277A,111.5427,40.7846,呼和浩特市,金海路35号,颗粒物(PM10),53,56,51,23,19,0,,,,50,45,10,12,0.6,0.5
2026-01-12T0700,3061A,119.7511,49.1576,呼伦贝尔市,国华电力东,,35,35,21,21,14,50,,,,19,19,6,7,0.5,0.4
2026-01-12T0700,4279A,119.7569,49.2222,呼伦贝尔市,伊敏大街东7号,,29,21,28,20,23,44,,,,16,21,7,7,0.5,0.5
2026-01-12T0700,1250A,120.075,30.867,湖州市,城西水厂,颗粒物(PM10),72,93,83,39,30,8,,,,60,43,10,12,0.6,0.5
2026-01-12T0700,2873A,120.083,30.8929,湖州市,仁皇山新区,,,,77,,25,,,71,,,34,,12,,0.4
2026-01-12T0700,2907A,120.1846,30.8592,湖州市,吴兴区站,颗粒物(PM10),65,80,83,37,28,4,,,,65,46,8,8,0.7,0.6
2026-01-12T0700,3562A,120.4146,30.8538,湖州市,南浔区站,颗粒物(PM10),59,68,69,32,26,10,,,,53,41,7,8,0.7,0.6
2026-01-12T0700,1607A,120.904878,40.721091,葫芦岛市,龙港区,,46,46,33,17,9,35,,,,29,12,12,9,0.8,0.6
2026-01-12T0700,1608A,120.8382,40.7521,葫芦岛市,化工街,,46,46,30,17,11,21,,,,43,20,25,19,0.5,0.4
2026-01-12T0700,1609A,120.8339,40.7078,葫芦岛市,新区,,45,45,26,17,10,25,,,,39,16,16,11,1.1,0.7
2026-01-12T0700,1610A,120.8697,40.7679,葫芦岛市,东城区,颗粒物(PM10),51,52,30,22,12,24,,,,42,21,13,10,0.9,0.7
2026-01-12T0700,2483A,109.9297,27.5383,怀化市,河西地税局,细颗粒物(PM2.5),88,78,87,65,76,18,,,,29,37,3,3,/,/
2026-01-12T0700,2484A,109.9783,27.5342,怀化市,市四医院,细颗粒物(PM2.5),84,90,101,62,76,49,,,,16,31,13,12,0.6,0.9
2026-01-12T0700,2485A,109.9971,27.5579,怀化市,监测楼,细颗粒物(PM2.5),85,82,99,63,84,46,,,,27,36,4,5,0.2,0.5
2026-01-12T0700,1210A,119.0566,33.5991,淮安市,钵池山,颗粒物(PM10),54,58,52,23,18,12,,,,39,22,7,7,0.9,0.7
2026-01-12T0700,1211A,119.0083,33.578,淮安市,北京南路,颗粒物(PM10),57,63,56,21,20,7,,,,38,24,8,8,0.7,0.4
2026-01-12T0700,1212A,118.9938,33.6083,淮安市,市监测站,颗粒物(PM10),53,56,46,29,16,12,,,,42,24,10,10,0.8,0.8
2026-01-12T0700,1213A,119.135,33.5038,淮安市,楚州区监测站,细颗粒物(PM2.5),60,66,52,43,16,2,,,,51,26,9,9,0.7,0.4
2026-01-12T0700,3426A,118.8757,33.2897,淮安市,新华书店,颗粒物(PM10),60,70,61,35,24,5,,,,52,30,10,9,1.2,0.9
2026-01-12T0700,4092A,119.119691,33.550006,淮安市,枚皋中路89号,颗粒物(PM10),54,57,49,34,19,9,,,,45,21,9,9,0.3,0.4
2026-01-12T0700,4206A,119.028838,33.631911,淮安市,承德北路606号,颗粒物(PM10),60,70,57,23,20,15,,,,41,25,9,8,0.8,0.6
2026-01-12T0700,2282A,116.8005,33.9749,淮北市,监测站,颗粒物(PM10),64,78,65,41,25,25,,,,40,29,11,10,0.5,0.5
2026-01-12T0700,2283A,116.8094,33.9008,淮北市,烈山区政府,颗粒物(PM10),64,78,75,37,22,17,,,,36,22,12,12,0.5,0.4
2026-01-12T0700,4017A,116.7926,33.9534,淮北市,市博物馆,颗粒物(PM10),64,77,65,38,23,24,,,,41,29,6,5,0.6,0.5
2026-01-12T0700,4100A,116.8322,33.9884,淮北市,杜集区第一实验学校,颗粒物(PM10),68,86,71,34,23,21,,,,25,15,8,9,0.5,0.4
2026-01-12T0700,2277A,116.8304,32.7726,淮南市,潘集区政府,细颗粒物(PM2.5),73,84,82,53,40,24,,,,34,28,7,8,0.7,0.6
2026-01-12T0700,2279A,116.8569,32.5949,淮南市,谢家集区政府,颗粒物(PM10),63,75,80,25,18,11,,,,42,28,9,10,0.5,0.5
2026-01-12T0700,2280A,116.8279,32.6333,淮南市,八公山区政府,颗粒物(PM10),61,72,68,27,20,27,,,,26,21,5,6,0.5,0.4
2026-01-12T0700,2894A,117.0561,32.6536,淮南市,经济技术开发区消防队,颗粒物(PM10),71,91,88,32,32,30,,,,33,28,7,6,0.5,0.5
2026-01-12T0700,3329A,117.011,32.5891,淮南市,山南新区,颗粒物(PM10),77,104,90,32,21,26,,,,35,23,4,4,0.5,0.5
2026-01-12T0700,4209A,117.003137,32.644456,淮南市,国庆中路369号,颗粒物(PM10),56,61,58,35,29,30,,,,32,26,9,7,0.7,0.7
2026-01-12T0700,2446A,114.9021,30.474,黄冈市,职工中心,,47,47,58,22,23,43,,,,23,23,12,10,0.6,0.5
2026-01-12T0700,2929A,114.8858,30.4519,黄冈市,红卫路,,44,44,54,22,21,30,,,,34,23,9,9,0.5,0.4
2026-01-12T0700,3398A,114.9134,30.4446,黄冈市,市林业局,颗粒物(PM10),54,58,83,21,23,37,,,,34,26,8,8,0.8,0.6
2026-01-12T0700,2672A,102.02,35.5101,黄南藏族自治州,同仁县隆务镇,,24,24,32,3,14,64,,,,1,6,8,10,0.2,0.4
2026-01-12T0700,2295A,118.2905,29.6965,黄山市,延安路89号,,26,26,42,15,27,20,,,,15,16,3,4,0.4,0.4
2026-01-12T0700,2297A,118.1369,30.2755,黄山市,黄山区政府5号楼,,32,32,61,20,32,19,,,,10,11,2,3,0.4,0.4
2026-01-12T0700,4210A,118.335445,29.720283,黄山市,滨江东路7-2号,,30,30,60,20,29,15,,,,16,16,/,/,/,/
2026-01-12T0700,2423A,115.0547,30.2332,黄石市,沈家营,,,,76,,26,,,76,,,26,,12,,1.4
2026-01-12T0700,2426A,114.899,30.211,黄石市,铁山,颗粒物(PM10),55,59,64,32,26,37,,,,32,18,14,9,1.0,0.6
2026-01-12T0700,2427A,115.0259,30.2108,黄石市,团城山,颗粒物(PM10),57,63,75,19,21,27,,,,34,18,7,7,0.8,0.6
2026-01-12T0700,3149A,115.0174,30.1591,黄石市,笔架山北路,颗粒物(PM10),63,76,104,33,25,29,,,,29,16,16,10,1.2,1.1
2026-01-12T0700,4185A,115.078022,30.21118,黄石市,磁湖东路29号,颗粒物(PM10),57,64,75,37,29,7,,,,59,26,15,13,1.2,0.9
2026-01-12T0700,1392A,114.4181,23.0528,惠州市,河南岸金山湖子站,颗粒物(PM10),60,69,57,40,30,35,,,,31,27,12,7,0.7,0.6
2026-01-12T0700,1393A,114.4055,23.0824,惠州市,下埔横江三路子站,颗粒物(PM10),64,78,58,44,32,48,,,,32,30,10,9,0.5,0.5
2026-01-12T0700,1395A,114.4645,22.7832,惠州市,惠阳区承修路船湖子站,颗粒物(PM10),71,92,67,42,30,28,,,,49,29,10,7,0.5,0.4
2026-01-12T0700,1396A,114.5316,22.7423,惠州市,大亚湾管委会子站,细颗粒物(PM2.5),64,65,56,46,28,12,,,,69,27,15,8,0.6,0.4
2026-01-12T0700,3314A,114.4334,22.8134,惠州市,惠阳秋长,细颗粒物(PM2.5),67,80,60,48,32,42,,,,48,33,/,/,/,/
2026-01-12T0700,3452A,114.6521,22.7755,惠州市,大亚湾霞涌,颗粒物(PM10),58,65,54,35,25,76,,,,24,20,/,/,/,/
2026-01-12T0700,4300A,114.4089,23.1147,惠州市,文华一路1号,颗粒物(PM10),65,79,59,45,34,37,,,,39,38,/,/,/,/
2026-01-12T0700,2240A,130.9618,45.2926,鸡西市,环保局,,38,31,23,26,20,40,,,,12,7,6,6,0.6,0.5
2026-01-12T0700,2243A,130.9294,45.2959,鸡西市,第一中学,,29,28,23,20,17,64,,,,4,4,4,4,0.7,0.7
2026-01-12T0700,3707A,131.0069,45.2988,鸡西市,欧美日汽修厂,细颗粒物(PM2.5),54,51,27,38,21,21,,,,31,11,21,9,0.6,0.3
2026-01-12T0700,2367A,114.9753,27.0803,吉安市,红声器材厂,颗粒物(PM10),59,68,71,37,31,30,,,,24,25,10,11,0.6,0.6
2026-01-12T0700,2369A,114.9903,27.1313,吉安市,市环境监测站,颗粒物(PM10),56,61,66,34,33,8,,,,43,25,7,10,/,/
2026-01-12T0700,2370A,115.009527,27.096792,吉安市,青原区法院,颗粒物(PM10),58,65,71,34,35,14,,,,36,30,10,12,0.6,0.6
2026-01-12T0700,1772A,126.54,43.8622,吉林市,哈达湾,,31,31,48,18,31,53,,,,11,18,6,8,0.8,0.9
2026-01-12T0700,1773A,126.5843,43.8358,吉林市,东局子,,25,25,40,11,24,48,,,,10,16,4,4,0.7,0.8
2026-01-12T0700,1774A,126.5051,43.8243,吉林市,电力学院,,25,21,50,17,39,48,,,,13,22,11,11,0.7,0.9
2026-01-12T0700,1775A,126.6133,43.8971,吉林市,江北,,21,21,38,14,29,49,,,,11,17,6,7,1.0,1
2026-01-12T0700,1776A,126.5549,43.8304,吉林市,江南公园,,29,28,45,20,31,50,,,,15,19,7,9,0.6,0.6
2026-01-12T0700,2868A,126.4737,43.953,吉林市,九站,,29,23,42,20,32,45,,,,18,21,8,9,0.6,0.7
2026-01-12T0700,1299A,116.9866,36.6118,济南市,科干所,颗粒物(PM10),59,68,58,24,13,57,,,,15,13,7,6,0.6,0.6
2026-01-12T0700,1300A,116.9379,36.6652,济南市,农科所,,,,43,,6,,,59,,,15,,6,,0.5
2026-01-12T0700,1301A,117.1265,36.6736,济南市,开发区,颗粒物(PM10),58,66,55,29,16,60,,,,18,19,5,5,0.6,0.6
2026-01-12T0700,1303A,117.0616,36.6865,济南市,省种子仓库,颗粒物(PM10),64,78,64,22,13,60,,,,18,18,5,5,0.5,0.5
2026-01-12T0700,1304A,116.9495185,36.644937,济南市,机床二厂,颗粒物(PM10),63,76,82,27,17,53,,,,21,20,8,7,0.3,0.3
2026-01-12T0700,1305A,117.0496,36.6629,济南市,市监测站,颗粒物(PM10),61,71,60,22,13,60,,,,12,12,5,5,0.6,0.5
2026-01-12T0700,1306A,116.7674,36.5458,济南市,长清党校,颗粒物(PM10),59,68,62,32,17,44,,,,21,18,9,7,0.7,0.7
2026-01-12T0700,1961A,117.5323,36.6865,济南市,东山小学,颗粒物(PM10),61,71,64,17,14,62,,,,14,17,5,6,0.8,0.8
2026-01-12T0700,3059A,117.7181,36.205,济南市,泰兴公司,颗粒物(PM10),63,75,59,31,24,19,,,,52,38,13,10,0.8,0.8
2026-01-12T0700,3064A,117.6861,36.2172,济南市,莱芜战役纪念馆,颗粒物(PM10),57,63,50,29,22,45,,,,26,22,12,8,0.3,0.3
2026-01-12T0700,3494A,117.1673,36.9782,济南市,济阳区政府,颗粒物(PM10),70,90,65,24,16,49,,,,24,31,8,9,0.4,0.4
2026-01-12T0700,3495A,117.1168,36.6299,济南市,锦屏中学,颗粒物(PM10),58,66,57,24,11,62,,,,17,16,2,2,0.6,0.5
2026-01-12T0700,4108A,117.7107,36.2385,济南市,山财大街5号,颗粒物(PM10),57,63,51,20,15,52,,,,27,29,15,12,0.9,0.9
2026-01-12T0700,4109A,116.9744,36.6889,济南市,无影山路12号,颗粒物(PM10),59,68,73,24,14,53,,,,15,15,7,7,0.5,0.4
2026-01-12T0700,1653A,116.6229,35.4288,济宁市,火炬城,颗粒物(PM10),62,74,58,41,26,37,,,,22,21,5,4,0.4,0.3
2026-01-12T0700,3500A,116.5808,35.3703,济宁市,北湖一中,"颗粒物(PM10),细颗粒物(PM2.5)",59,67,54,42,25,29,,,,28,23,7,5,0.5,0.4
2026-01-12T0700,3501A,116.8251,35.5592,济宁市,服务中心,颗粒物(PM10),65,80,70,33,23,26,,,,32,36,11,10,0.7,0.6
2026-01-12T0700,3678A,116.5907,35.4054,济宁市,市第七中学,颗粒物(PM10),68,85,64,31,16,36,,,,22,19,4,3,0.5,0.4
2026-01-12T0700,4111A,116.6075,35.4566,济宁市,任和路,颗粒物(PM10),68,85,65,32,20,35,,,,24,21,5,5,0.5,0.4
2026-01-12T0700,4112A,116.5648,35.3921,济宁市,文体南路1号,颗粒物(PM10),62,73,60,40,23,31,,,,24,22,5,4,0.5,0.4
2026-01-12T0700,2255A,130.2749,46.8028,佳木斯市,佳纺,,43,34,37,30,31,22,,,,30,22,8,11,0.7,0.6
2026-01-12T0700,2257A,130.3258,46.7975,佳木斯市,环保局,,29,25,34,20,27,28,,,,29,22,11,9,0.5,0.5
2026-01-12T0700,4285A,130.363,46.806,佳木斯市,顺和街,,42,,33,29,25,6,,,,52,22,11,12,0.7,0.6
2026-01-12T0700,4286A,130.3952,46.8268,佳木斯市,长安路196号,细颗粒物(PM2.5),52,39,33,36,27,10,,,,47,22,8,7,0.6,0.5
2026-01-12T0700,1252A,120.7439,30.778,嘉兴市,清河小学,颗粒物(PM10),59,68,71,24,23,18,,,,40,35,7,8,0.6,0.4
2026-01-12T0700,1253A,120.7261,30.7477,嘉兴市,嘉兴学院,颗粒物(PM10),60,69,67,29,22,23,,,,34,30,8,8,0.5,0.5
2026-01-12T0700,2872A,120.7845,30.7524,嘉兴市,南湖区残联,颗粒物(PM10),62,74,68,32,24,28,,,,37,36,6,6,0.7,0.7
2026-01-12T0700,3407A,120.6915,30.7741,嘉兴市,秀洲住建,颗粒物(PM10),61,71,68,31,24,19,,,,46,42,8,8,0.5,0.5
2026-01-12T0700,1945A,98.291,39.7705,嘉峪关市,气象局,颗粒物(PM10),52,53,71,17,14,42,,,,31,13,26,18,0.7,0.4
2026-01-12T0700,2884A,98.2672,39.7978,嘉峪关市,酒钢宾馆,颗粒物(PM10),125,200,122,90,24,6,,,,88,56,148,25,2.7,0.7
2026-01-12T0700,3248A,98.2644,39.7723,嘉峪关市,雄关区,颗粒物(PM10),52,53,51,24,17,16,,,,62,19,56,20,0.9,0.4
2026-01-12T0700,1383A,113.1063,22.6058,江门市,北街,细颗粒物(PM2.5),68,65,55,49,32,7,,,,87,42,/,/,/,/
2026-01-12T0700,1384A,113.073,22.5835,江门市,西区,颗粒物(PM10),67,83,64,39,33,2,,,,82,53,/,/,/,/
2026-01-12T0700,1385A,113.0218,22.531,江门市,圭峰西,,39,37,41,27,25,66,,,,26,28,/,/,/,/
2026-01-12T0700,1386A,113.0826,22.5947,江门市,东湖,细颗粒物(PM2.5),67,70,56,48,33,3,,,,76,50,7,9,0.6,0.6
2026-01-12T0700,3311A,113.1077,22.5647,江门市,江海富民,颗粒物(PM10),62,73,58,38,24,11,,,,90,46,/,/,0.7,0.5
2026-01-12T0700,3449A,113.0496,22.4669,江门市,新会银湖,细颗粒物(PM2.5),75,58,57,55,42,0,,,,50,42,7,8,0.6,0.5
2026-01-12T0700,3335A,113.3137,35.2643,焦作市,马村街道办,颗粒物(PM10),69,88,68,36,28,21,,,,33,25,15,12,0.8,0.5
2026-01-12T0700,3336A,113.2464,35.2374,焦作市,焦作技师学院,颗粒物(PM10),68,85,68,36,26,18,,,,38,29,16,14,1.0,0.5
2026-01-12T0700,3477A,113.1656,35.2536,焦作市,中站许衡医院,颗粒物(PM10),72,93,65,40,30,40,,,,31,25,35,9,0.9,0.5
2026-01-12T0700,3981A,113.2456,35.18,焦作市,原李万街道办,"颗粒物(PM10),细颗粒物(PM2.5)",64,77,76,46,24,10,,,,37,26,10,11,0.7,0.6
2026-01-12T0700,4264A,113.234,35.219,焦作市,新安路1731号,颗粒物(PM10),73,96,72,42,30,18,,,,34,27,8,8,1.0,0.7
2026-01-12T0700,4295A,113.2722,35.2121,焦作市,人民路3066号,颗粒物(PM10),69,87,75,38,26,16,,,,37,28,11,10,0.9,0.6
2026-01-12T0700,1708A,116.3701,23.5345,揭阳市,新兴,细颗粒物(PM2.5),77,82,71,56,35,61,,,,35,29,25,12,0.5,0.5
2026-01-12T0700,1709A,116.3261,23.5442,揭阳市,西马,细颗粒物(PM2.5),75,98,75,55,34,45,,,,34,22,9,7,0.6,0.4
2026-01-12T0700,1710A,116.361,23.5627,揭阳市,东兴,颗粒物(PM10),68,85,76,43,32,59,,,,29,24,18,12,/,/
2026-01-12T0700,1711A,116.4151,23.5295,揭阳市,渔湖,颗粒物(PM10),69,87,77,44,33,48,,,,42,29,13,7,/,/
2026-01-12T0700,3320A,116.4028,23.5699,揭阳市,曲溪,颗粒物(PM10),72,94,79,43,36,68,,,,25,26,12,11,0.5,0.6
2026-01-12T0700,1944A,102.1691,38.5166,金昌市,天庆家园,,29,29,85,8,24,64,,,,12,19,8,24,0.7,0.8
2026-01-12T0700,4022A,102.1648,38.5369,金昌市,金川区人防中心,,49,49,87,32,34,53,,,,13,16,24,22,1.0,0.8
2026-01-12T0700,4239A,102.193042,38.531887,金昌市,长春路96号,,47,47,75,16,21,46,,,,19,16,30,24,1.0,0.8
2026-01-12T0700,1262A,119.6478,29.0773,金华市,十五中,颗粒物(PM10),75,100,94,46,34,9,,,,59,42,4,4,0.5,0.4
2026-01-12T0700,1263A,119.6859,29.1032,金华市,监测站,颗粒物(PM10),80,109,110,50,39,0,,,,62,58,4,4,0.5,0.4
2026-01-12T0700,3659A,119.656,29.1132,金华市,气象局,颗粒物(PM10),71,91,96,44,34,4,,,,56,52,3,4,0.6,0.5
2026-01-12T0700,1767A,121.1114,41.0879,锦州市,南山,,43,43,28,20,13,28,,,,33,18,10,9,0.7,0.6
2026-01-12T0700,1768A,121.060361,40.842794,锦州市,开发区,颗粒物(PM10),56,61,50,20,13,21,,,,34,15,32,13,1.1,0.6
2026-01-12T0700,1769A,121.1836,41.1118,锦州市,百股街道,,41,41,31,17,10,32,,,,34,18,9,8,0.8,0.6
2026-01-12T0700,1770A,121.1176,41.1224,锦州市,天安街道,,45,45,30,18,11,37,,,,29,17,13,12,0.8,0.6
2026-01-12T0700,1771A,121.1303,41.1385,锦州市,北湖公园,,44,44,29,18,11,35,,,,24,14,10,9,0.9,0.7
2026-01-12T0700,2160A,112.8496,35.5051,晋城市,自来水公司,,50,50,65,33,22,24,,,,39,28,11,8,1.1,1
2026-01-12T0700,2162A,112.8509,35.4886,晋城市,市环保局,颗粒物(PM10),65,79,68,34,24,17,,,,42,30,8,5,1.1,0.7
2026-01-12T0700,3620A,112.8258,35.4804,晋城市,泽州一中,颗粒物(PM10),66,81,68,27,20,45,,,,19,19,6,5,0.7,0.4
2026-01-12T0700,4078A,112.8246,35.5152,晋城市,前书院路,颗粒物(PM10),56,61,69,10,17,47,,,,26,30,8,7,0.7,0.6
2026-01-12T0700,4079A,112.8864,35.4773,晋城市,祥云街666号,颗粒物(PM10),60,69,64,32,21,43,,,,13,20,7,6,0.8,0.5
2026-01-12T0700,2174A,112.6992,37.6984,晋中市,榆次区政府,颗粒物(PM10),70,90,67,33,26,24,,,,38,36,27,24,1.1,0.8
2026-01-12T0700,2865A,112.7195,37.683,晋中市,榆次三中,颗粒物(PM10),75,100,68,34,23,18,,,,39,37,29,25,1.2,0.9
2026-01-12T0700,4080A,112.7375,37.7215,晋中市,广安街188号,颗粒物(PM10),66,81,69,34,25,20,,,,44,40,27,21,1.0,0.6
2026-01-12T0700,4200A,112.7478,37.6954,晋中市,迎宾街26号,颗粒物(PM10),71,92,67,39,28,16,,,,41,33,28,25,1.4,0.9
2026-01-12T0700,2439A,112.2012,31.048,荆门市,竹园小学,颗粒物(PM10),80,109,107,51,41,36,,,,32,28,2,2,0.0,0.1
2026-01-12T0700,2440A,112.1968,30.9892,荆门市,掇刀,颗粒物(PM10),80,109,108,53,42,35,,,,33,27,7,6,0.6,0.5
2026-01-12T0700,3012A,112.1849,31.0361,荆门市,西山林语,颗粒物(PM10),80,110,93,46,35,44,,,,26,23,9,6,0.4,0.3
2026-01-12T0700,3547A,112.1631,31.0134,荆门市,龙泉中学南校,颗粒物(PM10),83,116,112,53,43,49,,,,17,20,7,5,0.4,0.4
2026-01-12T0700,4124A,112.2213,31.0654,荆门市,新台西路6号,细颗粒物(PM2.5),90,113,114,67,52,37,,,,30,26,9,11,0.6,0.5
2026-01-12T0700,1844A,112.2493,30.3198,荆州市,市图书馆,细颗粒物(PM2.5),87,108,100,64,51,39,,,,38,44,10,13,0.8,0.8
2026-01-12T0700,1845A,112.2009,30.3543,荆州市,市委党校,颗粒物(PM10),83,115,109,60,50,26,,,,44,46,7,9,0.8,0.7
2026-01-12T0700,3194A,112.2749,30.3124,荆州市,管委会,细颗粒物(PM2.5),94,113,102,70,54,25,,,,48,48,8,14,0.8,0.8
2026-01-12T0700,4268A,112.1722,30.3366,荆州市,学苑路85号,细颗粒物(PM2.5),87,110,99,64,49,15,,,,42,37,11,14,0.8,0.8
2026-01-12T0700,2343A,117.2114,29.2931,景德镇市,老干部活动中心,,28,28,52,19,23,18,,,,19,24,6,7,0.4,0.5
2026-01-12T0700,2344A,117.1893,29.2789,景德镇市,兽医站,,42,42,62,16,19,22,,,,21,25,7,7,0.6,0.6
2026-01-12T0700,2346A,117.246,29.2958,景德镇市,陶研所,,38,34,42,26,22,5,,,,20,21,4,4,0.4,0.3
2026-01-12T0700,4289A,117.154766,29.256967,景德镇市,青少年活动中心,,47,47,62,18,22,15,,,,27,33,8,7,/,/
2026-01-12T0700,1803A,115.9873,29.6816,九江市,十里,颗粒物(PM10),59,68,66,39,27,6,,,,56,35,8,7,1.0,0.9
2026-01-12T0700,1804A,115.9583,29.7047,九江市,茅山头,"颗粒物(PM10),细颗粒物(PM2.5)",55,60,71,39,26,1,,,,55,37,5,5,0.9,0.8
2026-01-12T0700,1805A,115.9877,29.7295,九江市,西园,颗粒物(PM10),57,64,68,35,24,8,,,,64,45,4,3,0.8,0.6
2026-01-12T0700,1808A,115.9112,29.6038,九江市,综合工业园,颗粒物(PM10),55,59,74,31,33,7,,,,57,48,6,5,0.7,0.7
2026-01-12T0700,3190A,116.0254,29.6995,九江市,外国语学校,细颗粒物(PM2.5),53,53,66,37,27,4,,,,52,39,10,8,0.9,0.8
2026-01-12T0700,4253A,116.010205,29.659402,九江市,莲花大道8号,颗粒物(PM10),53,55,66,28,21,22,,,,21,15,4,6,0.5,0.4
2026-01-12T0700,4240A,98.495752,39.733935,酒泉市,玉门东路5号,,39,39,121,16,32,31,,,,22,23,12,15,0.5,0.7
2026-01-12T0700,4241A,98.5099,39.7506,酒泉市,北大街108号,,41,41,163,16,36,28,,,,26,27,11,14,0.4,0.7
2026-01-12T0700,2698A,76.0071,39.466,喀什地区,巡警大队,细颗粒物(PM2.5),92,107,136,68,87,20,,,,32,50,3,6,2.2,2.2
2026-01-12T0700,2699A,75.9756,39.4693,喀什地区,吾办,细颗粒物(PM2.5),103,91,126,77,96,7,,,,52,57,4,10,2.2,2.2
2026-01-12T0700,4027A,75.9485,39.4688,喀什地区,老干局,细颗粒物(PM2.5),85,83,150,63,91,13,,,,36,48,2,7,3.6,2.6
2026-01-12T0700,1824A,114.3389,34.778,开封市,肿瘤医院,颗粒物(PM10),75,99,77,47,28,4,,,,50,30,6,5,0.8,0.6
2026-01-12T0700,1826A,114.2884,34.7966,开封市,世纪星幼儿园,细颗粒物(PM2.5),74,91,71,54,33,4,,,,57,31,4,3,0.6,0.4
2026-01-12T0700,3147A,114.3434,34.8101,开封市,龙亭公园,"颗粒物(PM10),细颗粒物(PM2.5)",68,86,73,49,34,7,,,,62,38,9,8,0.7,0.5
2026-01-12T0700,3210A,114.3645,34.7955,开封市,汴京公园,"颗粒物(PM10),细颗粒物(PM2.5)",69,88,78,50,31,3,,,,55,34,5,6,0.7,0.5
2026-01-12T0700,3473A,114.2485,34.8306,开封市,技师学院,颗粒物(PM10),69,87,66,34,25,21,,,,44,26,7,6,0.8,0.6
2026-01-12T0700,3592A,114.4518,34.7503,开封市,祥符区生态环境局,颗粒物(PM10),76,101,74,52,32,9,,,,48,36,8,5,0.6,0.5
2026-01-12T0700,1951A,84.886,45.6029,克拉玛依市,长征新村,细颗粒物(PM2.5),129,140,109,98,81,30,,,,33,32,5,5,1.0,0.9
2026-01-12T0700,1952A,84.8894,45.5827,克拉玛依市,南林小区,细颗粒物(PM2.5),94,121,106,70,63,33,,,,18,20,2,2,1.3,1.2
2026-01-12T0700,1954A,84.896,44.3328,克拉玛依市,独山子区,细颗粒物(PM2.5),77,88,83,56,52,73,,,,15,36,5,5,0.6,0.8
2026-01-12T0700,1955A,85.6888,46.0909,克拉玛依市,乌尔禾区商贸楼,细颗粒物(PM2.5),143,128,87,109,71,45,,,,31,30,5,6,1.1,0.9
2026-01-12T0700,3612A,85.1045,45.6895,克拉玛依市,白碱滩区新站,细颗粒物(PM2.5),134,134,115,102,85,9,,,,52,27,8,8,1.0,0.8
2026-01-12T0700,2697A,76.1457,39.7143,克孜勒苏柯尔克孜自治州,市人民政府,颗粒物(PM10),59,68,90,38,51,46,,,,9,16,3,2,0.4,0.5
2026-01-12T0700,3665A,76.1654,39.7157,克孜勒苏柯尔克孜自治州,克州文化中心,细颗粒物(PM2.5),63,60,75,45,55,49,,,,12,19,4,6,0.7,0.9
2026-01-12T0700,1450A,102.8203,24.889,昆明市,呈贡新区,,27,27,30,15,19,46,,,,11,12,3,3,0.7,0.7
2026-01-12T0700,1452A,102.7253,25.0904,昆明市,龙泉镇,,48,48,36,27,25,0,,,,31,14,2,2,0.7,0.7
2026-01-12T0700,1453A,102.7267,25.0378,昆明市,东风东路,,35,27,34,24,33,48,,,,12,12,4,4,0.5,0.6
2026-01-12T0700,1454A,102.6744,25.0671,昆明市,金鼎山,,34,34,45,20,24,34,,,,18,15,3,3,0.6,0.7
2026-01-12T0700,1455A,102.6643,25.0401,昆明市,碧鸡广场,,33,30,33,23,29,33,,,,20,20,4,3,0.4,0.5
2026-01-12T0700,3179A,102.7491,25.012,昆明市,官渡区博物馆,,,,44,,28,,,67,,,19,,3,,0.7
2026-01-12T0700,3375A,102.8016,24.8336,昆明市,青年创业园,,26,23,27,18,22,50,,,,5,7,2,2,0.5,0.6
2026-01-12T0700,3550A,102.8,24.9787,昆明市,昆明学院,,26,25,32,18,23,56,,,,8,12,3,2,0.3,0.4
2026-01-12T0700,3551A,102.5969,24.6738,昆明市,晋宁区生态环境分局,,35,26,33,24,24,34,,,,13,12,1,2,0.6,0.6
2026-01-12T0700,3552A,102.6673,24.9861,昆明市,云天化总部,,25,23,28,17,21,44,,,,11,11,5,5,0.4,0.4
2026-01-12T0700,1456A,91.132,29.6515,拉萨市,八廓街,,21,11,26,7,11,66,,,,12,10,6,7,0.3,0.2
2026-01-12T0700,1457A,91.1221,29.6748,拉萨市,市环保局,,22,9,32,6,13,70,,,,10,13,6,7,0.4,0.6
2026-01-12T0700,1458A,91.0874,29.6476,拉萨市,区监测站,,22,7,22,3,7,68,,,,13,14,3,4,0.7,0.6
2026-01-12T0700,1459A,91.1774,29.6541,拉萨市,西藏大学,,24,11,28,3,8,74,,,,7,12,4,5,0.3,0.3
2026-01-12T0700,1460A,90.9798,29.6586,拉萨市,区辐射站,,22,11,32,3,15,70,,,,11,20,3,4,0.4,0.5
2026-01-12T0700,1461A,91.0831,29.6292,拉萨市,拉萨火车站,,26,,25,7,10,81,,,,6,18,3,4,0.4,0.6
2026-01-12T0700,2520A,109.2203,23.7252,来宾市,来宾技工学校,细颗粒物(PM2.5),99,93,85,74,57,1,,,,40,34,14,20,0.9,0.8
2026-01-12T0700,3535A,109.1781,23.7293,来宾市,兴宾区政府,细颗粒物(PM2.5),90,82,73,67,56,22,,,,18,17,6,9,0.6,0.6
2026-01-12T0700,4002A,109.2312,23.7428,来宾市,中南小学,细颗粒物(PM2.5),119,113,77,90,56,2,,,,40,41,6,8,0.8,0.7
2026-01-12T0700,1479A,103.8309,36.0467,兰州市,铁路设计院,,,,,,,,,,,,,,,,
2026-01-12T0700,3241A,103.7439,36.0841,兰州市,百合公园,细颗粒物(PM2.5),78,87,103,57,59,0,,,,58,69,28,26,1.9,1.7
2026-01-12T0700,3242A,103.9613,35.9985,兰州市,和平,颗粒物(PM10),57,64,93,31,62,14,,,,40,42,9,17,1.4,1.4
2026-01-12T0700,4236A,103.629272,36.093822,兰州市,庄浪东路808号,细颗粒物(PM2.5),75,70,104,55,58,13,,,,49,61,22,27,1.0,1.2
2026-01-12T0700,4237A,103.7251,36.104344,兰州市,安宁西路88号,颗粒物(PM10),84,118,118,59,56,2,,,,71,74,24,25,1.4,1.4
2026-01-12T0700,4238A,103.846982,36.067567,兰州市,北滨河东路1号,细颗粒物(PM2.5),83,92,109,61,61,3,,,,65,73,14,19,2.1,1.7
2026-01-12T0700,1067A,116.6712,39.5109,廊坊市,药材公司,颗粒物(PM10),59,68,40,39,21,1,,,,51,30,5,4,0.8,0.5
2026-01-12T0700,1068A,116.7215,39.5592,廊坊市,开发区,颗粒物(PM10),60,69,44,41,22,1,,,,56,33,6,6,0.7,0.4
2026-01-12T0700,1070A,116.7246,39.5273,廊坊市,北华航天学院,颗粒物(PM10),59,67,49,35,21,2,,,,58,32,5,4,0.9,0.4
2026-01-12T0700,2919A,116.7022,39.5454,廊坊市,河北工业大学,颗粒物(PM10),61,72,47,42,24,1,,,,56,32,8,6,0.7,0.4
2026-01-12T0700,2536A,103.7629,29.5844,乐山市,牛耳桥,细颗粒物(PM2.5),200,170,156,150,144,0,,,,33,40,7,8,1.0,1
2026-01-12T0700,2537A,103.7501,29.6002,乐山市,市第三水厂,细颗粒物(PM2.5),212,189,165,162,142,2,,,,47,42,7,7,1.2,1
2026-01-12T0700,2538A,103.7571,29.5664,乐山市,市监测站,细颗粒物(PM2.5),218,197,160,168,145,1,,,,48,37,7,8,1.3,1
2026-01-12T0700,3361A,103.7313,29.563,乐山市,理工大学,细颗粒物(PM2.5),226,202,167,176,150,4,,,,49,40,6,5,1.0,0.9
2026-01-12T0700,2599A,100.2497,26.8802,丽江市,丽江古城,,23,19,26,7,13,73,,,,9,12,7,8,0.4,0.5
2026-01-12T0700,2600A,100.2203,26.8906,丽江市,市中心,,24,14,18,6,9,75,,,,6,10,7,7,0.3,0.4
2026-01-12T0700,1267A,119.9141,28.4513,丽水市,监测站大楼,,40,40,60,21,27,13,,,,31,28,6,7,0.4,0.3
2026-01-12T0700,1268A,119.93,28.4589,丽水市,莲都小学,颗粒物(PM10),53,56,63,23,24,6,,,,38,26,/,/,/,/
2026-01-12T0700,1269A,119.8794,28.4232,丽水市,余庄前,,46,46,59,26,29,2,,,,24,26,4,5,0.3,0.3
2026-01-12T0700,1173A,119.1759,34.5885,连云港市,市环境监测站,,41,41,39,17,15,33,,,,16,16,9,11,0.5,0.6
2026-01-12T0700,3000A,119.3577,34.6971,连云港市,德源药业,颗粒物(PM10),60,70,52,22,13,38,,,,20,24,7,6,0.9,0.6
2026-01-12T0700,3007A,119.178,34.8442,连云港市,新城一中,,38,38,44,17,13,37,,,,20,25,10,12,0.9,0.8
2026-01-12T0700,3008A,119.3607,34.7519,连云港市,胡沟管理处,,44,44,34,17,9,49,,,,19,15,5,4,0.8,0.7
2026-01-12T0700,3009A,119.1478,34.5913,连云港市,矿山设计院,,48,48,42,12,11,35,,,,23,22,8,8,0.7,0.6
2026-01-12T0700,3434A,119.2414,34.6539,连云港市,工贸学校,颗粒物(PM10),61,71,42,21,13,36,,,,20,14,13,12,0.8,0.6
2026-01-12T0700,3664A,119.4171,34.734,连云港市,连云街道,颗粒物(PM10),65,80,50,13,9,52,,,,16,16,4,4,0.8,0.6
2026-01-12T0700,2573A,102.2629,27.8981,凉山彝族自治州,西昌市政府,,30,30,43,21,27,45,,,,8,12,6,8,0.6,0.7
2026-01-12T0700,2574A,102.2686,27.885,凉山彝族自治州,凉山州政府,,40,35,46,28,32,37,,,,14,16,8,9,0.8,0.8
2026-01-12T0700,4229A,102.2342,27.8859,凉山彝族自治州,凯乐南路30号,,43,43,46,25,27,12,,,,42,21,6,9,0.4,0.5
2026-01-12T0700,2212A,123.1978,41.2036,辽阳市,宏伟区,,23,23,22,12,14,63,,,,4,6,5,6,0.5,0.5
2026-01-12T0700,2213A,123.1684,41.2497,辽阳市,新华园,,22,22,25,10,13,56,,,,12,12,8,8,0.2,0.3
2026-01-12T0700,2214A,123.2355,41.2663,辽阳市,滨河路,,23,23,25,13,14,45,,,,10,7,9,14,0.0,0.1
2026-01-12T0700,4083A,123.153,41.2874,辽阳市,铁西路150号,,34,34,28,13,9,51,,,,15,10,9,8,0.5,0.4
2026-01-12T0700,2227A,125.1359,42.8845,辽源市,环保局,,44,44,55,20,32,43,,,,22,20,9,6,0.6,0.7
2026-01-12T0700,4085A,125.0998,42.9134,辽源市,安宁大街333号,,28,28,38,9,25,39,,,,20,20,21,8,0.3,0.4
2026-01-12T0700,1625A,115.9789,36.4372,聊城市,区政府,颗粒物(PM10),65,80,69,34,20,26,,,,34,26,14,12,0.8,0.6
2026-01-12T0700,3200A,115.9772,36.4986,聊城市,监控中心,颗粒物(PM10),72,94,81,34,20,29,,,,26,21,14,11,0.7,0.5
2026-01-12T0700,3513A,116.0443,36.436,聊城市,九州社区,颗粒物(PM10),69,87,77,39,22,36,,,,16,14,6,4,0.5,0.5
2026-01-12T0700,4018A,116.0564,36.4609,聊城市,星美广场,颗粒物(PM10),67,84,80,36,20,29,,,,19,17,6,4,0.6,0.4
2026-01-12T0700,4113A,116.0091,36.4495,聊城市,利民路,颗粒物(PM10),65,79,62,38,23,30,,,,32,26,11,9,0.8,0.7
2026-01-12T0700,2632A,94.3683,29.6373,林芝市,林芝监测站,,17,6,10,6,6,53,,,,1,3,3,3,0.4,0.4
2026-01-12T0700,2633A,94.3616,29.6634,林芝市,林芝人民医院,,14,11,13,8,8,43,,,,6,5,3,2,0.4,0.4
2026-01-12T0700,2603A,100.0779,23.8981,临沧市,市环保局,细颗粒物(PM2.5),55,,40,39,42,14,,,,12,11,2,3,0.5,0.5
2026-01-12T0700,2604A,100.0894,23.882,临沧市,市气象局,,48,,39,33,28,16,,,,13,11,6,6,0.5,0.5
2026-01-12T0700,1733A,111.5552,36.0791,临汾市,临钢医院,颗粒物(PM10),81,111,61,55,22,9,,,,36,29,11,3,1.0,0.6
2026-01-12T0700,1734A,111.4984,36.0734,临汾市,技工学校,颗粒物(PM10),80,110,58,46,25,9,,,,42,32,17,5,1.0,0.5
2026-01-12T0700,1736A,111.5017,36.0857,临汾市,市委,颗粒物(PM10),72,93,65,51,18,14,,,,42,36,20,6,1.3,0.8
2026-01-12T0700,3018A,111.5048,36.1015,临汾市,唐尧大酒店,颗粒物(PM10),76,102,69,50,20,15,,,,41,37,15,3,1.2,0.6
2026-01-12T0700,4244A,111.4879,36.053,临汾市,启星学校,颗粒物(PM10),74,98,55,43,25,1,,,,53,42,7,5,1.2,0.9
2026-01-12T0700,4271A,103.2464,35.6123,临夏回族自治州,滨河东路1号,颗粒物(PM10),82,113,146,57,71,11,,,,25,35,5,7,1.3,1.4
2026-01-12T0700,4310A,103.207136,35.599807,临夏回族自治州,新华街21号,细颗粒物(PM2.5),83,101,132,61,84,10,,,,36,39,8,11,2.0,1.9
2026-01-12T0700,1618A,118.3429,35.0532,临沂市,沂河小区,颗粒物(PM10),63,75,67,41,28,10,,,,44,27,18,16,0.8,0.6
2026-01-12T0700,1619A,118.2962,35.0568,临沂市,鲁南制药厂,颗粒物(PM10),65,80,68,42,30,6,,,,49,30,18,16,0.8,0.6
2026-01-12T0700,1620A,118.2793,34.9976,临沂市,新光毛纺厂,颗粒物(PM10),63,75,71,40,29,6,,,,49,34,18,16,0.8,0.6
2026-01-12T0700,1621A,118.3955,35.0889,临沂市,河东保险公司,颗粒物(PM10),57,63,57,32,22,12,,,,39,24,14,20,0.7,0.6
2026-01-12T0700,3370A,118.3563,35.0215,临沂市,十里堡居委,,,68,58,27,18,,,,,55,27,16,17,0.7,0.4
2026-01-12T0700,3496A,118.359,35.1067,临沂市,南坊新区,颗粒物(PM10),58,66,55,31,20,17,,,,43,27,16,16,0.6,0.4
2026-01-12T0700,3860A,118.3915,35.0297,临沂市,皇山花园小区,颗粒物(PM10),56,61,56,29,17,16,,,,47,27,19,21,0.7,0.5
2026-01-12T0700,1870A,109.4854,24.3898,柳州市,柳东小学,细颗粒物(PM2.5),84,70,59,62,50,46,,,,31,22,62,29,0.9,0.7
2026-01-12T0700,1871A,109.4109,24.3304,柳州市,环保监测站,细颗粒物(PM2.5),104,115,77,78,59,4,,,,50,39,10,9,1.0,0.8
2026-01-12T0700,1872A,109.3886,24.3408,柳州市,河西水厂,细颗粒物(PM2.5),109,125,111,82,71,1,,,,48,45,11,14,0.9,1
2026-01-12T0700,1873A,109.4263,24.2951,柳州市,市四中,细颗粒物(PM2.5),100,82,78,75,59,0,,,,56,48,12,13,0.9,0.8
2026-01-12T0700,1874A,109.396,24.3658,柳州市,市九中,细颗粒物(PM2.5),94,96,77,70,59,13,,,,50,37,18,15,1.0,0.9
2026-01-12T0700,1875A,109.4912,24.3164,柳州市,古亭山,,46,43,61,32,47,9,,,,46,40,12,14,0.6,0.6
2026-01-12T0700,3402A,109.5422,24.3994,柳州市,市二中,细颗粒物(PM2.5),92,68,63,68,55,5,,,,40,32,23,27,0.7,0.6
2026-01-12T0700,2307A,116.5078,31.7369,六安市,监测大楼,颗粒物(PM10),57,63,68,35,30,23,,,,40,27,4,4,0.5,0.4
2026-01-12T0700,2308A,116.4738,31.7642,六安市,皖西学院,颗粒物(PM10),62,73,80,35,28,21,,,,35,24,5,6,0.6,0.5
2026-01-12T0700,2309A,116.4997,31.7904,六安市,朝阳厂,颗粒物(PM10),52,53,68,32,28,26,,,,41,28,8,7,0.6,0.4
2026-01-12T0700,2310A,116.5566,31.7885,六安市,开发区,颗粒物(PM10),71,92,84,43,34,18,,,,40,31,5,5,0.8,0.5
2026-01-12T0700,2577A,104.8293,26.592,六盘水市,黄土坡,细颗粒物(PM2.5),87,71,75,64,60,56,,,,16,23,11,10,0.8,0.8
2026-01-12T0700,2579A,104.8481,26.5898,六盘水市,民中,细颗粒物(PM2.5),62,53,68,44,59,55,,,,17,21,5,6,0.8,0.8
2026-01-12T0700,2580A,104.9541,26.5506,六盘水市,双水,细颗粒物(PM2.5),79,66,78,58,62,54,,,,13,17,4,5,0.4,0.4
2026-01-12T0700,4151A,104.8899,26.5685,六盘水市,钟山大道中段564号,细颗粒物(PM2.5),73,72,83,53,57,45,,,,22,16,8,8,1.3,0.9
2026-01-12T0700,2336A,117.022,25.1031,龙岩市,龙岩市监测站,,42,40,41,29,27,34,,,,32,27,42,33,0.6,0.5
2026-01-12T0700,2337A,117.0257,25.0662,龙岩市,闽西职业技术学院,颗粒物(PM10),62,74,49,38,27,35,,,,27,23,30,14,0.5,0.5
2026-01-12T0700,2338A,117.0195,25.0306,龙岩市,龙岩学院,细颗粒物(PM2.5),54,56,37,38,24,39,,,,21,16,7,10,/,/
2026-01-12T0700,2885A,104.9344,33.3827,陇南市,滨江中学,细颗粒物(PM2.5),70,69,102,51,54,14,,,,41,48,8,15,0.6,1.7
2026-01-12T0700,3247A,104.9551,33.3709,陇南市,市总工会,细颗粒物(PM2.5),73,68,72,53,46,29,,,,27,28,9,10,0.9,0.9
2026-01-12T0700,2488A,111.9984,27.7346,娄底市,市监测站,细颗粒物(PM2.5),69,84,97,50,70,38,,,,31,31,10,14,0.9,1.2
2026-01-12T0700,2491A,111.9888,27.7035,娄底市,市政府,细颗粒物(PM2.5),112,98,101,84,77,21,,,,23,27,7,9,1.0,1.1
2026-01-12T0700,4127A,111.9812,27.7591,娄底市,涟钢职大,颗粒物(PM10),74,98,96,51,62,26,,,,33,32,6,12,0.6,1.1
2026-01-12T0700,4128A,112.0303,27.7457,娄底市,娄底体校,细颗粒物(PM2.5),74,78,86,54,65,26,,,,18,23,2,5,0.6,0.7
2026-01-12T0700,1894A,105.4427,28.9063,泸州市,小市上码头,细颗粒物(PM2.5),155,156,137,118,105,29,,,,27,24,12,11,1.4,1.3
2026-01-12T0700,1895A,105.4241,28.8573,泸州市,兰田宪桥,细颗粒物(PM2.5),168,170,137,127,104,25,,,,19,21,7,8,1.3,1.2
2026-01-12T0700,1896A,105.4378,28.8833,泸州市,市环监站,细颗粒物(PM2.5),163,155,130,124,105,35,,,,23,22,10,9,1.2,1.1
2026-01-12T0700,4272A,105.3689,28.7783,泸州市,纳溪中医医院,细颗粒物(PM2.5),182,148,127,137,116,21,,,,20,18,8,8,1.1,1
2026-01-12T0700,2183A,111.1447,37.5212,吕梁市,环保局,颗粒物(PM10),72,93,80,26,22,2,,,,43,41,4,4,0.9,0.7
2026-01-12T0700,2185A,111.1285,37.5338,吕梁市,自来水公司,颗粒物(PM10),78,106,96,36,26,1,,,,40,39,7,9,0.5,0.6
2026-01-12T0700,2867A,111.1225,37.5093,吕梁市,马茂庄小学,颗粒物(PM10),81,111,91,30,22,1,,,,46,45,8,8,0.7,0.6
2026-01-12T0700,1812A,112.3934,34.6517,洛阳市,市委党校,颗粒物(PM10),66,81,78,41,36,36,,,,27,41,14,12,0.6,0.6
2026-01-12T0700,1815A,112.494,34.6883,洛阳市,河南林校,颗粒物(PM10),70,89,88,43,35,11,,,,48,42,14,13,0.9,0.7
2026-01-12T0700,1816A,112.3843,34.623,洛阳市,开发区管委会,细颗粒物(PM2.5),74,92,81,54,39,17,,,,34,37,13,14,0.9,0.8
2026-01-12T0700,1817A,112.4263,34.6249,洛阳市,市委新办公区,细颗粒物(PM2.5),75,90,82,55,41,19,,,,32,36,11,12,0.8,0.7
2026-01-12T0700,3340A,112.6005,34.6323,洛阳市,伊滨,颗粒物(PM10),81,111,91,58,50,18,,,,29,34,10,10,0.6,0.5
2026-01-12T0700,3341A,112.495,34.6338,洛阳市,中移产业园,"颗粒物(PM10),细颗粒物(PM2.5)",69,88,87,50,44,14,,,,44,47,12,13,0.6,0.5
2026-01-12T0700,3593A,112.5736,34.8993,洛阳市,吉利监测站,颗粒物(PM10),58,66,70,36,31,20,,,,34,39,9,10,0.7,0.7
2026-01-12T0700,3635A,112.3678,34.6623,洛阳市,河科大西苑校区,颗粒物(PM10),72,93,87,37,36,34,,,,26,37,14,12,0.8,0.7
2026-01-12T0700,3636A,112.4387,34.678,洛阳市,英才小学,颗粒物(PM10),77,104,88,51,45,32,,,,31,43,16,13,0.8,0.7
2026-01-12T0700,4214A,112.460027,34.694929,洛阳市,春都路1号院,颗粒物(PM10),79,108,100,40,36,30,,,,29,38,15,11,0.9,0.9
2026-01-12T0700,2399A,114.051,33.5721,漯河市,三五一五工厂,颗粒物(PM10),67,84,88,34,32,33,,,,24,22,8,8,0.9,0.7
2026-01-12T0700,2400A,114.0055,33.5698,漯河市,漯河大学,颗粒物(PM10),62,74,77,36,31,33,,,,27,21,6,7,0.6,0.6
2026-01-12T0700,2401A,114.0134,33.5826,漯河市,市水利局,颗粒物(PM10),64,78,77,41,32,28,,,,25,19,7,8,0.5,0.5
2026-01-12T0700,2402A,114.0261,33.5697,漯河市,市广电局,颗粒物(PM10),62,73,76,38,32,36,,,,26,22,7,7,0.6,0.5
2026-01-12T0700,3478A,113.9691,33.568,漯河市,市图书馆,颗粒物(PM10),64,78,81,39,34,32,,,,17,18,5,6,0.6,0.6
2026-01-12T0700,4250A,114.089259,33.588274,漯河市,韶山路11号,颗粒物(PM10),64,78,82,39,33,33,,,,27,26,7,7,0.7,0.6
2026-01-12T0700,1798A,118.5084,31.6838,马鞍山市,湖东路四小,颗粒物(PM10),61,71,75,32,25,18,,,,42,33,4,7,0.9,0.7
2026-01-12T0700,1799A,118.5019,31.6449,马鞍山市,开发区,颗粒物(PM10),60,69,83,40,31,28,,,,34,39,5,10,0.6,0.8
2026-01-12T0700,3633A,118.4914,31.681,马鞍山市,雨山,颗粒物(PM10),64,77,76,33,26,28,,,,36,36,6,11,0.8,0.8
2026-01-12T0700,4191A,118.527362,31.722269,马鞍山市,慈湖高新区,颗粒物(PM10),72,93,87,40,27,19,,,,47,37,5,7,0.5,0.5
2026-01-12T0700,1686A,111.0285,21.469,茂名市,电白南海,颗粒物(PM10),53,56,50,31,23,78,,,,20,19,27,14,0.7,0.6
2026-01-12T0700,1687A,110.9294,21.6533,茂名市,茂石化七小,,46,46,48,17,22,76,,,,22,23,11,13,0.1,0.2
2026-01-12T0700,1688A,110.9108,21.6688,茂名市,健康路,细颗粒物(PM2.5),58,63,45,41,29,35,,,,46,27,61,23,2.0,0.8
2026-01-12T0700,1689A,110.8592,21.6826,茂名市,高岭,颗粒物(PM10),70,90,69,46,25,29,,,,39,27,40,19,/,/
2026-01-12T0700,3450A,111.0101,21.5165,茂名市,电白水东,,46,46,40,22,22,100,,,,15,17,11,12,/,/
2026-01-12T0700,2540A,103.8414,30.0871,眉山市,气象局,细颗粒物(PM2.5),180,153,172,136,153,4,,,,40,47,12,14,0.9,1
2026-01-12T0700,3148A,103.829,30.0563,眉山市,区人社局,细颗粒物(PM2.5),211,179,162,161,144,4,,,,44,51,8,11,1.1,1.1
2026-01-12T0700,4148A,103.8836,30.0695,眉山市,眉职院,细颗粒物(PM2.5),169,174,169,128,130,0,,,,34,38,1,2,1.1,1
2026-01-12T0700,1690A,116.1248,24.3307,梅州市,梅江月梅,,50,50,46,26,25,8,,,,42,36,/,/,/,/
2026-01-12T0700,1691A,116.0798,24.2719,梅州市,梅县新城,,37,37,49,21,31,9,,,,35,38,7,8,0.5,0.6
2026-01-12T0700,3315A,116.1234,24.2994,梅州市,梅龙,,44,44,47,27,27,12,,,,35,36,8,9,0.6,0.7
2026-01-12T0700,1878A,104.7775,31.4741,绵阳市,富乐山,细颗粒物(PM2.5),158,154,133,120,110,2,,,,37,33,11,11,0.9,0.8
2026-01-12T0700,1880A,104.6698,31.4668,绵阳市,高新区自来水公司,细颗粒物(PM2.5),147,167,168,112,125,0,,,,36,47,8,8,1.3,1.2
2026-01-12T0700,3491A,104.6899,31.5324,绵阳市,西科大附属小学,细颗粒物(PM2.5),142,141,181,108,119,16,,,,34,43,7,8,1.0,1
2026-01-12T0700,3492A,104.5647,31.5343,绵阳市,安州区旅游局,细颗粒物(PM2.5),128,119,138,97,121,7,,,,28,41,10,11,1.3,1.4
2026-01-12T0700,4146A,104.7092,31.4972,绵阳市,科技城新区公安局,细颗粒物(PM2.5),148,142,145,113,119,39,,,,24,37,3,4,0.9,1
2026-01-12T0700,4226A,104.765114,31.453094,绵阳市,绵阳市气象局,细颗粒物(PM2.5),173,171,144,131,120,2,,,,42,46,3,8,1.2,1
2026-01-12T0700,1784A,129.61,44.561,牡丹江市,环保大楼,,33,29,36,23,30,24,,,,29,20,5,4,0.5,0.4
2026-01-12T0700,1787A,129.6364,44.6075,牡丹江市,机车工厂,颗粒物(PM10),58,66,45,31,32,2,,,,45,25,2,3,0.8,0.4
2026-01-12T0700,1788A,129.6386,44.5462,牡丹江市,第一中学,,32,26,29,22,26,14,,,,31,18,7,5,0.6,0.5
2026-01-12T0700,4287A,129.5992,44.5964,牡丹江市,东晓云街98号,细颗粒物(PM2.5),70,57,40,51,37,12,,,,40,17,12,6,1.0,0.6
2026-01-12T0700,2531A,105.0703,29.61,内江市,市监测站,细颗粒物(PM2.5),153,123,126,117,131,31,,,,30,26,5,6,0.9,1
2026-01-12T0700,2533A,105.0657,29.5807,内江市,内江二中,细颗粒物(PM2.5),168,142,146,127,127,15,,,,45,38,5,5,1.1,1.1
2026-01-12T0700,2534A,105.0407,29.5828,内江市,内江日报社,细颗粒物(PM2.5),155,,119,118,122,14,,,,43,36,3,3,0.8,0.8
2026-01-12T0700,4147A,105.0433,29.6105,内江市,玉峰路西段888号,细颗粒物(PM2.5),158,,124,120,123,18,,,,41,32,1,2,0.9,1
2026-01-12T0700,2628A,92.0653,31.4846,那曲市,那曲监测站,,22,21,38,15,24,31,,,,28,23,6,8,1.8,1.3
2026-01-12T0700,4243A,92.0515,31.4787,那曲市,那曲市委宣传部,,13,10,23,6,13,40,,,,10,12,3,6,0.7,0.8
2026-01-12T0700,1291A,115.8887,28.7006,南昌市,省林业公司,颗粒物(PM10),71,92,97,44,30,0,,,,60,40,6,5,1.0,0.8
2026-01-12T0700,1292A,115.813,28.7443,南昌市,林科所,颗粒物(PM10),54,58,72,29,23,10,,,,60,34,8,8,0.4,0.4
2026-01-12T0700,1294A,115.8518,28.687,南昌市,建工学校,颗粒物(PM10),72,94,86,32,29,0,,,,50,27,13,14,0.7,0.6
2026-01-12T0700,1295A,115.8926,28.6425,南昌市,象湖,颗粒物(PM10),66,82,75,46,31,0,,,,62,40,11,10,1.1,0.8
2026-01-12T0700,3046A,115.9084,28.6062,南昌市,机电学校,颗粒物(PM10),77,103,98,53,34,3,,,,69,41,8,6,0.7,0.5
2026-01-12T0700,3690A,115.9718,28.7032,南昌市,外国语学校,颗粒物(PM10),56,62,81,29,32,14,,,,50,36,13,14,0.6,0.6
2026-01-12T0700,4106A,115.7923,28.6873,南昌市,工业二路,,48,48,60,30,27,2,,,,67,48,4,4,0.4,0.3
2026-01-12T0700,4192A,115.931587,28.686774,南昌市,南京东路235号,颗粒物(PM10),65,79,91,32,31,3,,,,69,38,7,7,0.4,0.3
2026-01-12T0700,1906A,106.0791,30.8022,南充市,南充市委,细颗粒物(PM2.5),148,122,136,113,121,10,,,,35,38,4,4,0.8,0.9
2026-01-12T0700,1907A,106.1038,30.8215,南充市,南充炼油厂,细颗粒物(PM2.5),147,126,137,112,117,9,,,,35,29,6,6,0.9,0.8
2026-01-12T0700,4227A,106.108336,30.788436,南充市,梨树横街98号,细颗粒物(PM2.5),138,136,135,105,108,16,,,,38,37,6,6,0.9,0.8
2026-01-12T0700,4304A,106.1172,30.843,南充市,清泉寺北路188号,细颗粒物(PM2.5),137,112,111,104,106,31,,,,25,22,6,6,0.6,0.6
2026-01-12T0700,4305A,106.067,30.7616,南充市,同庆路1号,细颗粒物(PM2.5),147,128,133,112,116,3,,,,36,40,6,6,0.8,0.9
2026-01-12T0700,1151A,118.8033,32.1085,南京市,迈皋桥,颗粒物(PM10),54,57,51,27,18,35,,,,29,22,6,6,0.7,0.7
2026-01-12T0700,1152A,118.7487,32.057,南京市,草场门,颗粒物(PM10),60,70,70,31,20,18,,,,50,36,9,10,0.3,0.3
2026-01-12T0700,1154A,118.770105,32.004342,南京市,中华门,颗粒物(PM10),54,58,62,24,19,4,,,,49,31,4,5,0.5,0.5
2026-01-12T0700,1155A,118.8059,32.0329,南京市,瑞金路,颗粒物(PM10),58,66,62,31,24,11,,,,54,38,4,4,0.8,0.8
2026-01-12T0700,1156A,118.7946,32.0774,南京市,玄武湖,颗粒物(PM10),53,56,55,21,15,18,,,,22,23,4,4,0.7,0.6
2026-01-12T0700,1157A,118.6415,32.0964,南京市,浦口,颗粒物(PM10),58,65,62,26,17,17,,,,46,30,12,10,0.5,0.4
2026-01-12T0700,1158A,118.730129,32.000956,南京市,奥体中心,颗粒物(PM10),60,69,65,24,21,24,,,,44,31,9,9,0.5,0.5
2026-01-12T0700,1159A,118.9072,32.1047,南京市,仙林大学城,颗粒物(PM10),63,75,68,22,16,21,,,,43,32,10,7,0.8,0.6
2026-01-12T0700,3422A,118.8443,31.919,南京市,江宁彩虹桥,颗粒物(PM10),57,63,60,31,24,28,,,,37,30,4,5,0.5,0.5
2026-01-12T0700,3427A,118.8497,32.3599,南京市,六合雄州,颗粒物(PM10),62,74,67,32,21,12,,,,55,36,12,9,0.7,0.6
2026-01-12T0700,4086A,118.7641,32.0841,南京市,新模范马路66号,颗粒物(PM10),59,68,71,34,20,20,,,,38,29,4,5,0.9,0.8
2026-01-12T0700,4249A,118.8707617,31.34017673,南京市,汶溪路181号,细颗粒物(PM2.5),64,68,70,46,30,27,,,,44,32,11,6,0.6,0.5
2026-01-12T0700,4312A,119.019,31.6512,南京市,中山西路1号,颗粒物(PM10),51,51,60,28,26,10,,,,42,33,3,4,0.6,0.5
2026-01-12T0700,1401A,108.3098,22.788,南宁市,二十一中,细颗粒物(PM2.5),82,66,71,60,56,39,,,,35,46,8,6,0.9,0.7
2026-01-12T0700,1402A,108.3135,22.8529,南宁市,北湖,细颗粒物(PM2.5),98,82,82,73,64,21,,,,54,63,16,8,0.9,1
2026-01-12T0700,1403A,108.3205,22.8222,南宁市,市监测站,细颗粒物(PM2.5),74,66,72,54,52,39,,,,38,50,18,12,0.9,0.9
2026-01-12T0700,1404A,108.3828,22.8038,南宁市,大自然花园,细颗粒物(PM2.5),80,73,70,59,54,20,,,,48,38,8,8,0.8,0.8
2026-01-12T0700,1406A,108.2397,22.8462,南宁市,区农职院,细颗粒物(PM2.5),79,72,67,58,51,16,,,,51,43,17,15,0.9,0.9
2026-01-12T0700,1407A,108.3285,22.7356,南宁市,英华嘉园,细颗粒物(PM2.5),92,79,85,68,61,42,,,,32,55,7,7,0.7,0.9
2026-01-12T0700,3401A,108.4829,22.762,南宁市,红星社区,细颗粒物(PM2.5),72,70,61,52,47,9,,,,58,39,6,7,0.9,0.8
2026-01-12T0700,4132A,108.2927,23.1477,南宁市,起凤路9号,细颗粒物(PM2.5),88,75,86,65,68,65,,,,22,33,5,5,0.7,0.7
2026-01-12T0700,4221A,108.2177,22.7774,南宁市,乐贤路16号,细颗粒物(PM2.5),92,88,92,68,59,19,,,,72,56,5,6,0.7,0.6
2026-01-12T0700,2332A,118.1682,26.6371,南平市,南平市监测站,,50,50,40,23,25,49,,,,20,20,6,5,0.4,0.4
2026-01-12T0700,2334A,118.1757,26.6276,南平市,南平七中,颗粒物(PM10),53,55,42,21,23,55,,,,15,19,6,8,0.6,0.6
2026-01-12T0700,1168A,120.9056,31.9669,南通市,狼山街道,颗粒物(PM10),53,55,46,28,15,9,,,,61,19,5,4,0.4,0.3
2026-01-12T0700,1170A,120.8635,32.0231,南通市,城中,颗粒物(PM10),51,51,51,14,12,33,,,,36,20,4,5,0.5,0.5
2026-01-12T0700,1171A,120.9376,31.9301,南通市,星湖花园,,46,46,47,17,14,25,,,,53,24,10,6,0.2,0.1
2026-01-12T0700,1172A,120.8053,32.046,南通市,紫琅学院,颗粒物(PM10),53,56,52,8,12,36,,,,34,22,4,4,0.4,0.3
2026-01-12T0700,3291A,121.0631,32.0644,南通市,通州监测站,,39,39,41,9,11,37,,,,37,20,4,5,0.5,0.4
2026-01-12T0700,3432A,120.9348,31.9874,南通市,环境教育馆,,41,41,51,16,13,25,,,,43,30,6,5,0.5,0.5
2026-01-12T0700,4091A,120.8692,31.9885,南通市,洪江路,,37,37,37,16,12,29,,,,35,20,3,3,0.5,0.4
2026-01-12T0700,2404A,112.5338,33.0086,南阳市,瓦房庄,颗粒物(PM10),63,75,82,41,42,42,,,,20,26,9,7,1.1,0.7
2026-01-12T0700,2405A,112.5002,32.9734,南阳市,汉画馆,颗粒物(PM10),69,87,85,39,39,16,,,,42,34,9,6,1.4,0.6
2026-01-12T0700,2406A,112.5778,33.0144,南阳市,气象站,颗粒物(PM10),67,84,98,31,39,49,,,,21,27,8,6,1.0,0.7
2026-01-12T0700,2407A,112.548,32.9687,南阳市,理工学院,颗粒物(PM10),68,85,87,39,39,23,,,,37,33,9,6,1.4,0.7
2026-01-12T0700,4008A,112.5233,32.9921,南阳市,卧龙区政府,颗粒物(PM10),65,80,89,39,37,28,,,,31,32,9,6,1.4,0.8
2026-01-12T0700,1234A,121.8352,29.9111,宁波市,区环保大楼,颗粒物(PM10),56,62,73,22,23,17,,,,56,36,5,6,0.6,0.4
2026-01-12T0700,1235A,121.5595,29.8208,宁波市,万里学院,颗粒物(PM10),66,82,98,36,33,15,,,,49,40,6,5,0.6,0.6
2026-01-12T0700,1236A,121.713,29.9564,宁波市,龙赛医院,颗粒物(PM10),66,82,83,32,21,4,,,,56,34,2,3,0.7,0.6
2026-01-12T0700,1240A,121.5855,29.8635,宁波市,太古小学,颗粒物(PM10),61,71,91,29,28,26,,,,32,37,5,5,0.9,0.7
2026-01-12T0700,1241A,121.5239,29.8673,宁波市,市环境监测中心,颗粒物(PM10),61,71,92,22,25,16,,,,44,43,7,8,0.7,0.7
2026-01-12T0700,2871A,121.6156,29.9015,宁波市,万里国际学校,颗粒物(PM10),56,62,80,27,26,27,,,,42,44,5,5,0.5,0.5
2026-01-12T0700,3710A,121.5593,29.8976,宁波市,白沙活动中心,颗粒物(PM10),57,64,83,27,27,19,,,,44,37,5,5,0.7,0.7
2026-01-12T0700,4095A,121.8962,29.7529,宁波市,中科路88号,颗粒物(PM10),51,52,71,21,18,2,,,,51,33,4,6,0.7,0.5
2026-01-12T0700,2341A,119.5387,26.6611,宁德市,宁德市监测站,颗粒物(PM10),52,54,59,19,20,27,,,,35,23,7,8,0.5,0.4
2026-01-12T0700,3209A,119.5231,26.6562,宁德市,宁德一中,颗粒物(PM10),51,51,57,13,25,44,,,,14,17,6,7,0.6,0.6
2026-01-12T0700,2618A,98.859,25.8541,怒江傈僳族自治州,州监测站,,22,19,32,15,23,48,,,,5,10,8,7,0.3,0.4
2026-01-12T0700,2619A,98.8607,25.8168,怒江傈僳族自治州,泸水一中,,18,13,27,12,21,25,,,,9,13,6,6,0.5,0.6
2026-01-12T0700,1888A,101.6891,26.571,攀枝花市,弄弄坪,颗粒物(PM10),71,92,50,35,28,4,,,,40,25,14,16,1.7,1.5
2026-01-12T0700,1889A,101.577,26.5914,攀枝花市,河门口,颗粒物(PM10),51,52,46,30,30,9,,,,28,22,33,29,0.9,1.1
2026-01-12T0700,1891A,101.7365,26.4986,攀枝花市,仁和,,30,30,38,15,22,22,,,,21,18,8,11,0.6,0.9
2026-01-12T0700,2835A,101.7222,26.567,攀枝花市,四十中小,,36,36,46,20,29,10,,,,32,23,13,14,0.9,1.1
2026-01-12T0700,1604A,122.0303,41.1489,盘锦市,开发区,,43,43,28,15,12,45,,,,13,10,7,4,0.6,0.4
2026-01-12T0700,1605A,122.0486,41.0883,盘锦市,兴隆台,,43,43,28,14,10,43,,,,23,21,8,7,0.6,0.5
2026-01-12T0700,1606A,121.8297,41.1026,盘锦市,新生街道,,40,40,23,19,11,44,,,,21,14,8,8,0.7,0.5
2026-01-12T0700,1832A,113.3257,33.7423,平顶山市,新华旅馆,颗粒物(PM10),74,98,78,43,29,17,,,,37,27,9,7,0.6,0.5
2026-01-12T0700,1833A,113.2917,33.737,平顶山市,规划设计院,颗粒物(PM10),78,106,76,46,34,23,,,,31,24,12,8,0.6,0.5
2026-01-12T0700,1834A,113.182,33.7738,平顶山市,平顶山工学院,颗粒物(PM10),71,91,69,48,31,32,,,,24,24,12,9,0.4,0.3
2026-01-12T0700,3594A,112.8736,33.9068,平顶山市,石龙区,颗粒物(PM10),81,112,109,46,45,21,,,,42,34,7,9,0.6,0.6
2026-01-12T0700,4116A,113.284,33.7139,平顶山市,姚电大道23号,细颗粒物(PM2.5),94,107,91,70,36,26,,,,29,28,13,8,0.7,0.5
2026-01-12T0700,2656A,106.6633,35.5338,平凉市,聚贤嘉苑,,49,49,60,23,29,53,,,,24,30,10,14,0.6,0.8
2026-01-12T0700,2657A,106.7021,35.5307,平凉市,博物馆,颗粒物(PM10),57,64,76,17,39,29,,,,40,33,11,13,0.8,0.8
2026-01-12T0700,2348A,113.8384,27.6436,萍乡市,中医院,颗粒物(PM10),78,105,97,50,38,34,,,,48,27,25,11,2.4,0.9
2026-01-12T0700,2350A,113.8677,27.6438,萍乡市,市环保局,颗粒物(PM10),73,95,86,52,44,27,,,,44,27,34,19,1.6,0.8
2026-01-12T0700,2351A,113.8663,27.6202,萍乡市,安源区政府,细颗粒物(PM2.5),85,88,94,63,57,32,,,,33,29,25,13,1.1,1.1
2026-01-12T0700,4107A,113.8686,27.6668,萍乡市,联洪村委会,颗粒物(PM10),66,82,84,41,38,33,,,,40,22,7,6,0.5,0.5
2026-01-12T0700,2319A,119.0142,25.4324,莆田市,荔城区仓后路,颗粒物(PM10),54,58,71,16,26,69,,,,16,16,/,/,/,/
2026-01-12T0700,2320A,119.0016,25.4553,莆田市,莆田市监测站,颗粒物(PM10),52,53,62,13,25,81,,,,8,13,3,4,0.4,0.4
2026-01-12T0700,2321A,119.112,25.4561,莆田市,涵江区六中,颗粒物(PM10),53,56,68,15,27,73,,,,12,14,/,/,0.4,0.5
2026-01-12T0700,2322A,119.1014,25.3215,莆田市,秀屿区政府,颗粒物(PM10),58,65,78,17,29,75,,,,10,14,2,3,0.5,0.5
2026-01-12T0700,2392A,115.0312,35.7636,濮阳市,环保局,颗粒物(PM10),65,79,61,24,15,21,,,,35,23,7,7,0.7,0.5
2026-01-12T0700,3021A,115,35.7667,濮阳市,濮水河管理处,颗粒物(PM10),67,83,61,22,13,19,,,,35,22,6,6,0.7,0.6
2026-01-12T0700,4118A,115.0552,35.7816,濮阳市,中原东路68号,颗粒物(PM10),74,97,75,38,19,22,,,,37,22,8,6,0.5,0.4
2026-01-12T0700,4216A,115.0923632,35.76857718,濮阳市,任丘路479号,颗粒物(PM10),70,89,74,34,23,24,,,,33,24,8,6,0.6,0.4
2026-01-12T0700,2601A,100.9801,22.7634,普洱市,市环保局,,37,37,43,22,23,20,,,,5,8,5,4,0.4,0.4
2026-01-12T0700,2602A,100.9763,22.8237,普洱市,普洱第二中学,,35,35,37,22,22,13,,,,14,12,5,5,0.3,0.3
2026-01-12T0700,3345A,131.0413,45.7795,七台河市,中波台,,50,39,37,35,30,29,,,,22,18,6,7,0.5,0.3
2026-01-12T0700,3637A,131.0136,45.7688,七台河市,人民广场,细颗粒物(PM2.5),57,44,48,40,39,24,,,,33,25,6,8,0.7,0.6
2026-01-12T0700,3684A,130.8639,45.8144,七台河市,新建矿广场,,46,36,40,32,33,25,,,,24,16,3,5,0.2,0.3
2026-01-12T0700,1779A,123.9307,47.3641,齐齐哈尔市,安居小区,,42,42,33,24,21,25,,,,23,18,9,8,0.8,0.7
2026-01-12T0700,1780A,123.9497,47.3389,齐齐哈尔市,中心广场,,45,31,30,31,21,20,,,,20,16,5,6,0.7,0.7
2026-01-12T0700,1781A,123.9483,47.3229,齐齐哈尔市,农牧车辆厂,颗粒物(PM10),51,51,32,18,20,18,,,,14,11,5,6,0.5,0.4
2026-01-12T0700,1783A,123.9442,47.2994,齐齐哈尔市,市环境监测站,,39,39,34,26,21,20,,,,24,14,5,7,0.7,0.6
2026-01-12T0700,3662A,123.6341,47.2079,齐齐哈尔市,富区青少年活动中心,,45,45,38,19,19,32,,,,13,12,4,6,0.5,0.5
2026-01-12T0700,2591A,107.9765,26.5724,黔东南苗族侗族自治州,市环境监测站,细颗粒物(PM2.5),53,47,70,37,59,30,,,,22,30,2,3,0.4,0.6
2026-01-12T0700,2881A,107.8909,26.531,黔东南苗族侗族自治州,凯里学院,细颗粒物(PM2.5),55,48,68,39,55,45,,,,15,23,5,5,0.6,0.6
2026-01-12T0700,2593A,107.5223,26.2371,黔南布依族苗族自治州,小围寨,,45,31,40,31,35,80,,,,5,11,6,9,0.6,0.7
2026-01-12T0700,3538A,107.5175,26.2977,黔南布依族苗族自治州,沙坝,,45,36,48,31,39,63,,,,8,17,5,7,0.7,0.9
2026-01-12T0700,2589A,104.9022,25.0943,黔西南布依族苗族自治州,场坝街,细颗粒物(PM2.5),98,78,91,73,80,32,,,,13,14,4,5,0.6,0.7
2026-01-12T0700,2590A,104.8812,25.0994,黔西南布依族苗族自治州,坪东大道,细颗粒物(PM2.5),92,75,91,68,78,18,,,,20,17,5,7,0.8,0.8
2026-01-12T0700,2502A,108.6238,21.9667,钦州市,市环保站,细颗粒物(PM2.5),79,100,111,58,56,16,,,,48,48,5,7,0.9,1.2
2026-01-12T0700,2503A,108.655,21.9481,钦州市,沙埠小学,细颗粒物(PM2.5),84,69,109,62,63,14,,,,55,55,14,9,1.1,1.1
2026-01-12T0700,2504A,108.5989,21.7435,钦州市,港区一小,细颗粒物(PM2.5),78,57,84,57,55,37,,,,57,42,11,10,0.6,0.8
2026-01-12T0700,3404A,108.5959,21.9634,钦州市,北职校,细颗粒物(PM2.5),98,94,90,73,62,14,,,,39,40,8,11,0.8,0.9
2026-01-12T0700,1046A,119.5247,39.9346,秦皇岛市,建设大厦,颗粒物(PM10),58,65,32,30,22,13,,,,52,24,15,9,0.8,0.5
2026-01-12T0700,3132A,119.5979,39.938,秦皇岛市,文明里,颗粒物(PM10),52,54,30,31,16,17,,,,43,19,18,12,0.7,0.4
2026-01-12T0700,4066A,119.7458,39.9952,秦皇岛市,南园路157号,颗粒物(PM10),63,76,33,23,11,19,,,,42,26,17,10,0.8,0.5
2026-01-12T0700,4067A,119.5131,39.8858,秦皇岛市,翠岛大街1号,颗粒物(PM10),51,52,35,19,9,12,,,,44,19,18,12,0.8,0.5
2026-01-12T0700,4198A,119.509013,39.825305,秦皇岛市,北戴河轮滑馆,颗粒物(PM10),54,58,32,23,15,24,,,,35,19,13,7,1.0,0.4
2026-01-12T0700,1310A,120.404,36.0625,青岛市,市南区东部子站,,48,48,35,12,8,60,,,,10,9,10,10,0.6,0.5
2026-01-12T0700,1311A,120.362344,36.10282,青岛市,四方区子站,颗粒物(PM10),51,51,43,17,10,63,,,,10,7,4,3,0.6,0.5
2026-01-12T0700,1312A,120.294373,36.054183,青岛市,市南区西部子站,颗粒物(PM10),52,53,32,15,9,55,,,,14,11,4,4,0.4,0.4
2026-01-12T0700,1313A,120.4581,36.0858,青岛市,崂山区子站,颗粒物(PM10),51,51,29,12,5,64,,,,7,6,11,10,0.3,0.2
2026-01-12T0700,1315A,120.3945,36.3083,青岛市,城阳区子站,颗粒物(PM10),53,56,38,15,11,48,,,,29,20,7,7,0.7,0.7
2026-01-12T0700,3642A,120.3454,36.0735,青岛市,市北区南部,,41,41,33,9,8,57,,,,9,9,1,2,0.5,0.5
2026-01-12T0700,3643A,120.3897,36.18,青岛市,李沧区北部,,48,48,35,19,14,48,,,,20,15,9,9,0.8,0.7
2026-01-12T0700,4110A,120.5222,36.4089,青岛市,盟旺路653号,,49,49,39,16,13,49,,,,26,24,3,4,0.5,0.4
2026-01-12T0700,4290A,120.196923,35.954556,青岛市,珠江路669号,,39,39,29,15,12,65,,,,9,11,11,11,0.4,0.4
2026-01-12T0700,4291A,120.0424,35.8656,青岛市,黄岛区人民政府广场,颗粒物(PM10),51,51,34,14,7,52,,,,22,11,8,8,0.7,0.6
2026-01-12T0700,1703A,113.0218,23.7086,清远市,凤城街办,,38,38,37,23,22,48,,,,29,28,/,/,/,/
2026-01-12T0700,3025A,113.0479,23.6343,清远市,技师学院,,50,50,55,28,29,5,,,,63,46,18,11,0.5,0.5
2026-01-12T0700,3318A,112.9898,23.7403,清远市,清新太和,,28,28,32,15,17,55,,,,23,20,7,7,0.5,0.4
2026-01-12T0700,3455A,113.076,23.72,清远市,清城东城,,36,36,35,22,20,24,,,,36,27,/,/,/,/
2026-01-12T0700,2661A,107.6325,35.7357,庆阳市,庆阳五中,颗粒物(PM10),75,99,74,20,32,73,,,,10,18,4,6,0.3,0.5
2026-01-12T0700,2662A,107.6361,35.7067,庆阳市,市环保局,颗粒物(PM10),67,83,72,12,32,80,,,,7,14,5,6,0.3,0.5
2026-01-12T0700,1916A,103.7897,25.5036,曲靖市,环境监测站,,32,32,44,20,29,29,,,,19,14,3,4,0.6,0.7
2026-01-12T0700,1917A,103.8013,25.5357,曲靖市,烟厂办公区,,29,28,43,20,30,35,,,,18,13,3,4,0.5,0.6
2026-01-12T0700,3376A,103.7926,25.4651,曲靖市,南苑二区,,22,22,38,15,30,35,,,,8,9,4,4,0.4,0.6
2026-01-12T0700,3377A,103.7442,25.5259,曲靖市,曲靖师范学院,,42,42,40,26,30,33,,,,18,12,5,2,0.4,0.4
2026-01-12T0700,1264A,118.8694,28.94,衢州市,环保大楼,颗粒物(PM10),68,85,80,38,32,7,,,,49,40,/,/,/,/
2026-01-12T0700,1266A,118.8622,28.9809,衢州市,衢州学院,颗粒物(PM10),59,67,73,20,23,5,,,,48,42,5,6,0.6,0.6
2026-01-12T0700,4097A,118.9646,28.9832,衢州市,衢州三中,颗粒物(PM10),72,94,84,41,33,0,,,,48,41,5,7,0.8,0.7
2026-01-12T0700,1611A,118.5818,24.9116,泉州市,涂山街,颗粒物(PM10),58,65,78,23,28,69,,,,15,16,3,4,0.5,0.5
2026-01-12T0700,1612A,118.597,24.8976,泉州市,津头埔,颗粒物(PM10),57,63,74,22,27,68,,,,17,18,4,5,0.5,0.5
2026-01-12T0700,1613A,118.6669,24.9422,泉州市,万安,颗粒物(PM10),57,64,79,16,25,63,,,,20,16,3,4,0.4,0.5
2026-01-12T0700,4105A,118.6355,24.9148,泉州市,霞新路6号,颗粒物(PM10),55,60,66,20,27,67,,,,13,19,/,/,0.4,0.5
2026-01-12T0700,2626A,88.8873,29.2723,日喀则市,日喀则监测站,,19,8,60,3,12,58,,,,15,9,3,4,0.3,0.3
2026-01-12T0700,3726A,88.8775,29.2425,日喀则市,林业技术推广中心,,21,11,54,3,12,66,,,,4,6,7,9,0.1,0.2
2026-01-12T0700,1659A,119.4711,35.421,日照市,监测站,颗粒物(PM10),51,51,36,21,13,22,,,,36,23,11,9,0.8,0.7
2026-01-12T0700,1660A,119.523,35.4216,日照市,市政府广场,,46,46,38,22,11,27,,,,36,22,14,11,0.6,0.4
2026-01-12T0700,1661A,119.5511,35.4113,日照市,港务局,颗粒物(PM10),56,61,45,31,21,24,,,,40,22,13,9,0.9,0.5
2026-01-12T0700,3507A,119.5326,35.4627,日照市,职业技术学院,颗粒物(PM10),52,53,40,19,11,23,,,,44,23,10,9,0.7,0.6
2026-01-12T0700,3604A,119.3267,35.1043,日照市,岚山环保分局,颗粒物(PM10),52,53,42,22,17,36,,,,33,18,13,10,0.7,0.6
2026-01-12T0700,1835A,111.1922,34.7752,三门峡市,市政府,细颗粒物(PM2.5),75,97,72,55,37,3,,,,44,33,17,14,0.9,0.6
2026-01-12T0700,1836A,111.1588,34.794,三门峡市,开发区,颗粒物(PM10),77,103,84,51,35,1,,,,48,32,8,10,0.9,0.6
2026-01-12T0700,3039A,111.1911,34.7829,三门峡市,三门峡市第一小学,"颗粒物(PM10),细颗粒物(PM2.5)",73,96,79,53,38,3,,,,50,37,14,13,1.0,0.6
2026-01-12T0700,3598A,111.1031,34.719,三门峡市,富达温泉假日酒店,细颗粒物(PM2.5),82,104,83,60,40,8,,,,49,39,16,11,1.2,0.7
2026-01-12T0700,2324A,117.621,26.2626,三明市,三钢,,38,30,37,26,28,20,,,,31,25,6,6,0.6,0.9
2026-01-12T0700,2325A,117.6352,26.2714,三明市,三明二中,,35,27,34,24,24,25,,,,20,21,9,9,0.5,0.6
2026-01-12T0700,2326A,117.6028,26.2377,三明市,三元区政府,,36,33,42,25,28,10,,,,26,30,5,7,0.9,0.9
2026-01-12T0700,1877A,109.4962,18.2682,三亚市,河西子站,,42,42,49,24,26,96,,,,13,17,5,6,0.6,0.6
2026-01-12T0700,3540A,109.7348,18.3443,三亚市,君悦子站,,33,32,51,23,25,81,,,,12,15,5,6,0.6,0.6
2026-01-12T0700,4135A,109.1714,18.3739,三亚市,城东小学站,,43,,34,30,27,71,,,,8,12,/,/,/,/
2026-01-12T0700,2624A,91.7592,29.234,山南市,山南监测站,,24,12,30,3,9,76,,,,2,6,4,5,0.3,0.3
2026-01-12T0700,2625A,91.7701,29.2436,山南市,山南人民医院,,22,15,40,3,11,70,,,,5,6,2,4,0.3,0.4
2026-01-12T0700,1674A,116.6795,23.3666,汕头市,金平子站,颗粒物(PM10),62,73,66,32,27,89,,,,20,21,14,7,0.8,0.8
2026-01-12T0700,1675A,116.7248,23.3632,汕头市,龙湖子站,颗粒物(PM10),59,68,64,21,23,87,,,,16,17,15,12,/,/
2026-01-12T0700,1676A,116.7257,23.2774,汕头市,濠江子站,颗粒物(PM10),56,61,61,25,29,82,,,,19,18,10,9,/,/
2026-01-12T0700,1677A,116.7518,23.4712,汕头市,澄海子站,颗粒物(PM10),61,72,74,34,30,90,,,,18,19,29,9,0.6,0.4
2026-01-12T0700,1678A,116.6088,23.2539,汕头市,潮阳子站,颗粒物(PM10),57,64,64,20,23,86,,,,15,14,11,9,0.4,0.4
2026-01-12T0700,3444A,116.4539,23.2684,汕头市,潮南峡山,颗粒物(PM10),64,77,68,30,33,88,,,,19,18,15,11,0.9,0.6
2026-01-12T0700,3624A,116.4069,23.2533,汕头市,潮南子站,颗粒物(PM10),67,83,81,31,34,76,,,,22,21,10,10,/,/
2026-01-12T0700,1693A,115.3653,22.7751,汕尾市,市环保局,颗粒物(PM10),62,73,58,43,30,91,,,,17,15,7,8,0.7,0.5
2026-01-12T0700,1695A,115.362,22.7926,汕尾市,新城中学,细颗粒物(PM2.5),65,74,59,47,33,87,,,,16,13,6,6,0.7,0.6
2026-01-12T0700,2645A,109.9155,33.8714,商洛市,监测站,颗粒物(PM10),62,73,75,30,30,24,,,,31,30,5,6,0.6,0.6
2026-01-12T0700,3045A,109.9647,33.8486,商洛市,商州区中学,颗粒物(PM10),59,67,80,37,32,4,,,,41,28,5,8,0.7,0.6
2026-01-12T0700,2408A,115.6701,34.4283,商丘市,环境监测站,颗粒物(PM10),63,75,60,42,25,41,,,,18,18,5,3,0.4,0.3
2026-01-12T0700,2409A,115.6458,34.4047,商丘市,粮食局,颗粒物(PM10),61,71,59,43,25,33,,,,19,18,6,5,0.5,0.3
2026-01-12T0700,3171A,115.6069,34.4465,商丘市,梁园区档案局,颗粒物(PM10),62,73,59,37,22,34,,,,22,19,7,5,0.3,0.2
2026-01-12T0700,4119A,115.6701,34.3767,商丘市,北海东路185号,颗粒物(PM10),67,84,67,41,22,32,,,,18,17,4,3,0.4,0.3
2026-01-12T0700,4120A,115.6172,34.3704,商丘市,中山大街3号,颗粒物(PM10),73,95,76,44,25,21,,,,24,23,4,4,0.3,0.2
2026-01-12T0700,1141A,121.401,31.2382,上海市,普陀,颗粒物(PM10),57,63,57,16,18,35,,,,34,28,8,8,0.6,0.5
2026-01-12T0700,1142A,121.4774,31.2043,上海市,十五厂,颗粒物(PM10),51,52,54,12,15,18,,,,55,33,7,8,0.6,0.6
2026-01-12T0700,1143A,121.4673,31.3011,上海市,虹口,颗粒物(PM10),56,61,63,12,16,28,,,,39,32,7,8,0.5,0.4
2026-01-12T0700,1147A,121.4253,31.226,上海市,静安监测站,颗粒物(PM10),51,51,50,14,15,34,,,,42,31,8,8,0.4,0.3
2026-01-12T0700,1148A,121.7029,31.1905,上海市,浦东川沙,,49,49,56,14,15,31,,,,40,30,6,7,0.4,0.4
2026-01-12T0700,1149A,121.5339,31.229,上海市,浦东新区监测站,,49,49,53,18,19,28,,,,41,28,6,7,0.6,0.6
2026-01-12T0700,1150A,121.5776,31.2038,上海市,浦东张江,,49,49,56,13,14,30,,,,42,32,7,8,0.5,0.5
2026-01-12T0700,3265A,121.4242,31.3303,上海市,宝山庙行,颗粒物(PM10),52,54,56,13,17,32,,,,38,32,7,8,0.3,0.3
2026-01-12T0700,3266A,121.8789,31.4662,上海市,崇明上实东滩,,36,36,44,12,13,49,,,,24,15,5,5,0.1,0.1
2026-01-12T0700,3268A,121.316,31.2839,上海市,嘉定南翔,,44,44,50,13,16,20,,,,53,38,5,6,0.4,0.4
2026-01-12T0700,3269A,121.3357,30.7455,上海市,金山新城,颗粒物(PM10),56,62,58,24,23,39,,,,30,27,11,10,0.4,0.4
2026-01-12T0700,3270A,121.4996,31.0741,上海市,闵行浦江,颗粒物(PM10),54,58,54,22,15,15,,,,52,33,7,8,0.3,0.4
2026-01-12T0700,3271A,121.2886,31.1663,上海市,青浦徐泾,,50,50,55,20,19,23,,,,43,36,5,7,0.7,0.8
2026-01-12T0700,3272A,121.2193,31.0382,上海市,松江图书馆,颗粒物(PM10),57,64,68,17,19,18,,,,56,42,7,8,0.6,0.6
2026-01-12T0700,3273A,121.3904,31.206,上海市,长宁仙霞,颗粒物(PM10),52,54,50,13,16,31,,,,39,29,8,8,0.4,0.5
2026-01-12T0700,3274A,121.7964,31.0507,上海市,浦东惠南,颗粒物(PM10),52,54,67,17,16,4,,,,52,28,4,6,0.4,0.3
2026-01-12T0700,3544A,121.4891,30.925,上海市,奉贤南桥新城,颗粒物(PM10),58,66,64,26,20,30,,,,47,31,9,10,0.6,0.6
2026-01-12T0700,4183A,121.417401,31.16637,上海市,冠生园路458号,,50,50,51,10,16,24,,,,51,33,5,6,0.5,0.5
2026-01-12T0700,4205A,121.541914,31.268301,上海市,宁武路151号,颗粒物(PM10),53,56,54,13,16,22,,,,47,32,5,6,0.6,0.6
2026-01-12T0700,2382A,117.9758,28.4439,上饶市,市监测站,颗粒物(PM10),59,67,62,24,23,28,,,,31,28,12,15,/,/
2026-01-12T0700,2383A,117.9521,28.4637,上饶市,凤凰光学,颗粒物(PM10),66,81,66,32,24,7,,,,46,34,15,16,0.5,0.6
2026-01-12T0700,3685A,117.897,28.4316,上饶市,双创科技城,颗粒物(PM10),66,81,69,39,34,26,,,,46,40,12,12,0.7,0.7
2026-01-12T0700,4211A,118.190438,28.444845,上饶市,裕丰大道,颗粒物(PM10),56,61,64,39,27,19,,,,42,28,15,11,0.9,0.7
2026-01-12T0700,1669A,113.5821,24.7733,韶关市,市八中,颗粒物(PM10),54,58,51,34,31,10,,,,52,36,12,13,0.7,0.6
2026-01-12T0700,1671A,113.5916,24.7973,韶关市,园林处,细颗粒物(PM2.5),55,48,43,39,36,3,,,,52,44,14,11,/,/
2026-01-12T0700,1673A,113.5971,24.6864,韶关市,曲江监测站,,50,50,47,33,31,22,,,,32,29,15,16,0.6,0.4
2026-01-12T0700,2809A,113.6668,24.7756,韶关市,大学路288号,,42,,34,29,26,5,,,,24,15,8,12,/,/
2026-01-12T0700,3622A,113.5556,24.8082,韶关市,碧湖山庄,颗粒物(PM10),56,62,55,34,34,20,,,,21,21,7,9,0.4,0.4
2026-01-12T0700,2464A,111.5277,27.2442,邵阳市,市化工厂,细颗粒物(PM2.5),112,113,121,84,92,36,,,,30,36,6,11,1.2,1.2
2026-01-12T0700,2466A,111.4327,27.2276,邵阳市,市环保局,细颗粒物(PM2.5),127,,95,96,88,8,,,,42,28,7,11,1.5,1.3
2026-01-12T0700,4218A,111.446,27.2472,邵阳市,北塔二期4-26地块,细颗粒物(PM2.5),120,,104,91,90,11,,,,33,33,7,9,1.3,1.3
2026-01-12T0700,4219A,111.4739,27.2282,邵阳市,邵水西路287号,细颗粒物(PM2.5),138,117,103,105,93,9,,,,44,30,10,13,1.1,1
2026-01-12T0700,1247A,120.6053,29.9927,绍兴市,城东开发委,,47,47,86,19,27,20,,,,29,30,7,8,0.6,0.6
2026-01-12T0700,2921A,120.5482,30.0003,绍兴市,树下王站,颗粒物(PM10),52,53,78,21,27,5,,,,53,40,6,7,0.8,0.8
2026-01-12T0700,3408A,120.5685,29.936,绍兴市,绍兴中专,颗粒物(PM10),52,54,86,22,25,2,,,,46,33,7,8,0.4,0.4
2026-01-12T0700,3409A,120.4905,30.086,绍兴市,柯桥区政府,颗粒物(PM10),61,72,88,33,31,17,,,,42,41,6,8,0.5,0.5
2026-01-12T0700,3410A,120.8751,30.0249,绍兴市,重华小学,颗粒物(PM10),54,58,76,24,27,26,,,,31,30,6,8,0.7,0.8
2026-01-12T0700,3411A,120.837,30.0137,绍兴市,上虞中学,颗粒物(PM10),57,63,81,30,29,17,,,,45,35,8,9,0.6,0.6
2026-01-12T0700,3560A,120.4715,30.0414,绍兴市,柯桥妇保,颗粒物(PM10),59,67,91,27,27,8,,,,36,31,5,6,0.5,0.5
2026-01-12T0700,3658A,120.6156,30.0762,绍兴市,袍江中学,颗粒物(PM10),51,51,89,23,27,9,,,,46,39,5,6,0.6,0.5
2026-01-12T0700,1356A,114.0948,22.5506,深圳市,通心岭子站,颗粒物(PM10),57,63,43,29,23,72,,,,20,17,7,8,0.6,0.4
2026-01-12T0700,1357A,114.1153,22.5713,深圳市,洪湖,颗粒物(PM10),67,83,54,38,25,8,,,,82,30,8,9,0.8,0.6
2026-01-12T0700,1358A,113.9823,22.5398,深圳市,华侨城,颗粒物(PM10),57,63,52,32,28,75,,,,22,28,/,/,/,/
2026-01-12T0700,1359A,113.9181,22.517,深圳市,南海子站,颗粒物(PM10),60,70,55,31,28,94,,,,16,27,6,7,0.7,0.7
2026-01-12T0700,1360A,114.2345,22.565,深圳市,盐田,颗粒物(PM10),58,66,46,30,24,102,,,,12,20,7,8,0.6,0.6
2026-01-12T0700,1363A,114.4911,22.5381,深圳市,南澳,颗粒物(PM10),53,56,44,28,21,94,,,,12,12,/,/,/,/
2026-01-12T0700,1364A,114.41,22.6346,深圳市,葵涌,颗粒物(PM10),52,53,42,25,22,54,,,,25,17,7,8,0.7,0.6
2026-01-12T0700,1365A,114.2967,22.5978,深圳市,梅沙,颗粒物(PM10),56,61,45,25,20,95,,,,13,13,/,/,/,/
2026-01-12T0700,1366A,114.0563,22.7353,深圳市,观澜,颗粒物(PM10),78,106,83,56,41,4,,,,70,60,6,7,0.7,0.6
2026-01-12T0700,3305A,114.0614,22.556,深圳市,莲花,颗粒物(PM10),56,62,45,31,24,64,,,,29,28,/,/,/,/
2026-01-12T0700,3306A,114.0144,22.6163,深圳市,民治,颗粒物(PM10),66,81,53,41,30,55,,,,46,35,/,/,/,/
2026-01-12T0700,3307A,114.1756,22.6421,深圳市,横岗,颗粒物(PM10),71,91,57,43,27,36,,,,69,25,/,/,/,/
2026-01-12T0700,3447A,114.344,22.7115,深圳市,坪山,颗粒物(PM10),81,112,57,54,28,1,,,,78,39,9,9,1.0,0.7
2026-01-12T0700,3623A,113.8952,22.586,深圳市,西乡,颗粒物(PM10),64,77,57,39,28,51,,,,42,44,6,7,0.7,0.6
2026-01-12T0700,4220A,114.214113,22.713717,深圳市,黄阁路,"颗粒物(PM10),细颗粒物(PM2.5)",69,88,49,50,27,43,,,,49,30,6,7,0.8,0.6
2026-01-12T0700,1099A,123.5058,41.7084,沈阳市,浑南东路,,26,26,26,15,17,57,,,,15,27,10,10,0.6,0.7
2026-01-12T0700,1100A,123.4238,41.6992,沈阳市,新秀街,,34,34,26,12,16,60,,,,9,13,7,8,0.5,0.5
2026-01-12T0700,1102A,123.5903,41.8412,沈阳市,东陵路,,25,25,28,14,16,52,,,,14,18,8,9,0.5,0.6
2026-01-12T0700,1103A,123.4267,41.8466,沈阳市,陵东街,,26,26,24,13,15,50,,,,18,17,13,13,0.5,0.5
2026-01-12T0700,1104A,123.4116,41.7654,沈阳市,文化路,,27,27,28,14,15,60,,,,12,14,8,12,0.6,0.6
2026-01-12T0700,1105A,123.4673,41.787,沈阳市,小河沿,,25,25,23,13,14,52,,,,22,22,13,12,0.6,0.7
2026-01-12T0700,1106A,123.4019,41.7978,沈阳市,太原街,,24,24,23,9,17,51,,,,20,18,10,13,0.3,0.3
2026-01-12T0700,1108A,123.3778,41.9233,沈阳市,京沈街,,36,36,29,16,17,52,,,,21,22,8,9,0.5,0.5
