timepoint,stationcode,longitude,latitude,area,positionname,primarypollutant,aqi,pm10,pm10_24h,pm2_5,pm2_5_24h,o3,o3_24h,o3_8h,o3_8h_24h,no2,no2_24h,so2,so2_24h,co,co_24h
2025-08-23T1000,2566A,102.1879,31.914,阿坝藏族羌族自治州,州农科所,,12,9,14,7,8,37,,39,35,12,7,15,15,0.1,0
2025-08-23T1000,2568A,102.2502,31.8896,阿坝藏族羌族自治州,马师校,,13,13,16,7,16,30,,28,24,9,6,8,8,0.7,0.7
2025-08-23T1000,3994A,102.2165,31.9024,阿坝藏族羌族自治州,马尔康中学西区,,13,10,11,6,12,41,,36,34,4,3,8,8,0.6,0.6
2025-08-23T1000,2695A,80.292,41.1694,阿克苏地区,电视台,颗粒物(PM10),57,63,60,23,24,59,,58,58,14,12,5,5,0.6,0.6
2025-08-23T1000,2696A,80.2613,41.1551,阿克苏地区,艺术中心,,,,85,23,30,64,,59,59,19,19,4,4,0.4,0.4
2025-08-23T1000,2204A,105.6467,38.8363,阿拉善盟,西城区西花园,,,,27,,15,,,114,,,12,,9,,0.9
2025-08-23T1000,2205A,105.6985,38.8411,阿拉善盟,蒙二幼,,35,17,26,11,13,110,,100,100,7,7,10,9,0.5,0.6
2025-08-23T1000,2206A,105.724,38.8516,阿拉善盟,环保局新楼,,35,18,24,10,13,111,,101,101,8,7,10,10,0.5,0.5
2025-08-23T1000,2708A,88.1264,47.8517,阿勒泰地区,市站,,26,26,28,9,7,66,,69,69,13,13,3,3,0.3,0.3
2025-08-23T1000,2630A,80.1161,32.5,阿里地区,阿里监测站,,26,26,11,10,5,55,,64,60,20,12,7,6,0.3,0.2
2025-08-23T1000,3192A,80.0903,32.5028,阿里地区,阿里藏医院,,24,18,10,7,4,76,,75,73,7,5,6,6,0.1,0.1
2025-08-23T1000,2642A,109.0318,32.6537,安康市,香溪洞,,19,19,18,3,5,39,,38,36,6,4,6,6,0.8,0.7
2025-08-23T1000,2644A,109.0072,32.6975,安康市,汉滨区检察院,颗粒物(PM10),54,58,20,12,7,41,,22,22,7,6,15,5,0.5,0.4
2025-08-23T1000,4054A,109.0325,32.6913,安康市,市邮政管理局,,33,33,20,6,9,38,,28,27,6,6,4,5,0.6,0.5
2025-08-23T1000,2291A,117.0809,30.5177,安庆市,环科院,,18,13,15,12,8,53,,26,26,9,11,7,5,0.5,0.5
2025-08-23T1000,2292A,117.0331,30.5119,安庆市,马山宾馆,,15,,13,10,7,44,,17,17,15,14,5,5,0.5,0.4
2025-08-23T1000,2294A,116.9896,30.6145,安庆市,安庆大学,,23,18,15,14,10,72,,37,37,7,10,6,5,0.4,0.4
2025-08-23T1000,3173A,117.0598,30.5351,安庆市,市人大,,23,23,15,13,8,56,,24,24,14,14,7,6,0.5,0.4
2025-08-23T1000,3122A,105.9606,26.2611,安顺市,伍家关,,16,8,7,3,5,51,,51,51,3,2,4,4,0.5,0.5
2025-08-23T1000,3123A,105.9408,26.2431,安顺市,凤凰山,,15,10,7,9,8,47,,45,45,3,4,6,6,0.4,0.3
2025-08-23T1000,3124A,105.9439,26.2564,安顺市,金钟山,,,13,9,8,6,48,,48,48,,3,,6,0.4,0.4
2025-08-23T1000,3125A,105.8983,26.2481,安顺市,娄家坡,,16,,5,11,5,46,,46,46,2,2,8,7,0.5,0.5
2025-08-23T1000,1818A,114.4839,36.0621,安阳市,棉研所,,,,,,,,,,,,,,,,
2025-08-23T1000,1819A,114.3551,36.1017,安阳市,红庙街,,30,24,41,7,13,96,,68,68,11,12,7,7,0.5,0.6
2025-08-23T1000,1820A,114.361,36.0681,安阳市,银杏小区,,33,18,42,14,19,104,,73,73,11,13,6,7,0.3,0.5
2025-08-23T1000,3141A,114.3922,36.0878,安阳市,信访局,,34,16,39,11,16,106,,79,79,12,12,7,7,0.6,0.7
2025-08-23T1000,3669A,114.4705,36.0637,安阳市,左辅环卫站,,34,28,36,3,17,108,,75,75,9,12,5,6,0.4,0.4
2025-08-23T1000,3703A,114.2917,36.0949,安阳市,安钢职工学校,,48,48,46,21,19,98,,76,76,11,11,6,8,0.4,0.6
2025-08-23T1000,1748A,123.044,41.1196,鞍山市,深沟寺,,28,26,26,12,15,88,,37,37,17,8,11,6,1.4,1.2
2025-08-23T1000,1749A,123.011,41.0931,鞍山市,太阳城,,26,23,33,11,19,82,,44,44,16,11,11,7,1.1,1.3
2025-08-23T1000,1750A,123.0485,41.1442,鞍山市,太平,,31,31,35,13,19,84,,45,45,20,13,10,7,1.4,1.3
2025-08-23T1000,1751A,122.9642,41.0971,鞍山市,铁西三道街,,29,29,38,14,20,80,,36,36,12,20,5,6,1.3,1.3
2025-08-23T1000,1753A,123.022,41.0821,鞍山市,明达新区,,,32,30,14,16,77,,38,38,,11,12,8,1.3,1.3
2025-08-23T1000,1754A,123.1289,41.0228,鞍山市,千山,,,,,,,,,,,,,,,,
2025-08-23T1000,4201A,122.9446,41.0826,鞍山市,兴盛南路290号,,33,33,39,14,18,71,,26,26,16,24,6,7,1.6,1.4
2025-08-23T1000,2195A,107.4212,40.761,巴彦淖尔市,附二中,,40,40,57,16,25,112,,91,91,12,18,10,14,0.7,0.9
2025-08-23T1000,2196A,107.37,40.7372,巴彦淖尔市,市环保大楼,,35,31,55,14,24,109,,69,69,9,20,8,11,0.6,0.9
2025-08-23T1000,1956A,86.1472,41.7538,巴音郭楞蒙古自治州,孔雀公园,,37,37,40,20,16,44,,83,72,34,18,10,5,0.4,0.3
2025-08-23T1000,1957A,86.1972,41.7166,巴音郭楞蒙古自治州,棉纺厂,颗粒物(PM10),52,54,54,3,11,50,,63,60,26,18,4,4,0.3,0.3
2025-08-23T1000,1958A,86.2357,41.7173,巴音郭楞蒙古自治州,经济开发区,,38,38,30,6,9,57,,75,71,14,9,4,4,0.3,0.2
2025-08-23T1000,2914A,106.7677,31.8794,巴中市,苏山坪,,13,12,16,7,10,39,,42,40,6,6,4,4,0.5,0.4
2025-08-23T1000,3181A,106.7768,31.8526,巴中市,市五中,,17,17,16,10,11,31,,12,12,9,10,6,6,0.5,0.5
2025-08-23T1000,3183A,106.7418,31.8654,巴中市,圣泉水务公司,,15,15,16,8,11,28,,22,22,5,6,6,5,0.6,0.6
2025-08-23T1000,3616A,106.7616,31.8344,巴中市,市中心医院,,17,17,16,9,10,34,,17,17,10,10,6,6,0.4,0.4
2025-08-23T1000,2235A,122.7911,45.6077,白城市,洮北区环保局,,18,10,11,9,8,55,,33,33,5,6,7,5,0.5,0.3
2025-08-23T1000,2236A,122.8738,45.5725,白城市,市环保局,,20,17,11,14,7,47,,31,31,6,5,4,4,0.5,0.4
2025-08-23T1000,2231A,126.4219,41.9171,白山市,喜丰,,32,32,28,10,9,51,,23,23,11,13,3,6,0.7,0.7
2025-08-23T1000,2232A,126.4077,41.9419,白山市,环保局,,29,29,23,18,11,59,,23,23,9,12,5,5,0.8,0.7
2025-08-23T1000,2647A,104.1724,36.5446,白银市,第三小学,,23,,15,16,11,71,,52,52,8,12,13,12,0.6,0.6
2025-08-23T1000,2648A,104.1465,36.5482,白银市,动力公司,,28,20,14,19,12,68,,42,42,10,10,16,8,0.7,0.6
2025-08-23T1000,2512A,106.6103,23.9011,百色市,市监测站,颗粒物(PM10),51,51,37,17,16,30,,8,8,14,13,20,9,0.7,0.6
2025-08-23T1000,2513A,106.6538,23.8859,百色市,市中心血站,,40,40,44,17,22,34,,9,9,12,22,12,8,0.7,0.8
2025-08-23T1000,3406A,106.6085,23.8798,百色市,祈福高中,,39,39,44,21,20,24,,6,6,18,17,18,8,0.8,0.7
2025-08-23T1000,2270A,117.396,32.939,蚌埠市,工人疗养院,,25,25,29,9,7,78,,52,52,5,11,5,5,0.3,0.3
2025-08-23T1000,2271A,117.3605,32.9427,蚌埠市,百货大楼,,28,28,25,8,9,77,,49,49,10,15,8,7,0.5,0.4
2025-08-23T1000,2273A,117.4185,32.8911,蚌埠市,蚌埠学院,,25,19,23,8,9,77,,46,46,4,11,7,6,0.4,0.4
2025-08-23T1000,2274A,117.3533,32.9673,蚌埠市,淮上区政府,,31,31,28,7,11,86,,54,54,12,16,9,7,0.5,0.4
2025-08-23T1000,2275A,117.3145,32.8977,蚌埠市,高新区,,24,22,25,10,11,76,,45,45,10,15,9,7,0.5,0.5
2025-08-23T1000,3715A,117.3092,32.9314,蚌埠市,蚌埠田家炳中学,,29,29,31,10,10,84,,50,50,11,15,9,8,0.4,0.4
2025-08-23T1000,1585A,109.8756,40.6532,包头市,市环境监测站,,26,19,39,11,15,81,,68,67,17,37,3,7,0.6,0.7
2025-08-23T1000,1587A,109.9991,40.5842,包头市,包头八中,,29,26,37,14,13,91,,72,72,18,27,7,6,0.6,0.7
2025-08-23T1000,1588A,109.8538,40.6821,包头市,青山宾馆,,28,19,32,12,13,88,,65,65,18,33,3,6,0.4,0.6
2025-08-23T1000,1589A,109.8642,40.6288,包头市,惠龙物流,,40,40,40,13,17,74,,75,69,24,25,3,6,0.5,0.7
2025-08-23T1000,1590A,110.0377,40.5546,包头市,东河鸿龙湾,,32,15,34,15,17,100,,78,78,13,22,8,5,0.7,0.6
2025-08-23T1000,3283A,109.9154,40.5685,包头市,滨河大厦,,28,14,27,6,14,87,,65,65,11,26,3,5,0.5,0.6
2025-08-23T1000,3419A,109.9447,40.6261,包头市,包头市委党校,,30,24,29,10,14,94,,73,73,19,28,5,9,0.5,0.7
2025-08-23T1000,3683A,109.8331,40.6576,包头市,昆区政府,,28,25,36,12,14,88,,90,88,18,26,4,10,0.5,0.6
2025-08-23T1000,1930A,107.185,34.3063,宝鸡市,庙沟村,,24,,23,6,10,76,,76,76,7,8,4,4,0.5,0.5
2025-08-23T1000,1931A,107.0708,34.3017,宝鸡市,竹园沟,,17,,28,6,11,54,,47,47,7,9,7,8,0.3,0.3
2025-08-23T1000,1932A,107.1906,34.3672,宝鸡市,三陆医院,,18,9,31,3,10,56,,54,54,15,11,7,8,0.6,0.5
2025-08-23T1000,1933A,107.1431,34.3547,宝鸡市,监测站,,19,13,32,9,12,59,,58,58,9,10,8,8,0.4,0.4
2025-08-23T1000,1934A,107.1186,34.3739,宝鸡市,技工学校,,19,6,30,3,11,59,,56,56,9,9,7,6,0.6,0.5
2025-08-23T1000,1936A,107.2058,34.3497,宝鸡市,文理学院,,19,,28,8,13,59,,66,65,14,10,7,8,0.5,0.4
2025-08-23T1000,1937A,107.2386,34.3622,宝鸡市,三迪小学,,20,6,31,3,13,64,,62,61,13,13,4,5,0.5,0.5
2025-08-23T1000,4308A,107.3898,34.3601,宝鸡市,陈仓区北开路21号,,22,,19,3,10,70,,65,65,9,8,5,6,0.4,0.4
2025-08-23T1000,1051A,115.493,38.8632,保定市,游泳馆,,28,28,29,3,12,89,,82,82,4,11,8,9,0.2,0.3
2025-08-23T1000,1052A,115.5213,38.8959,保定市,华电二区,,23,21,30,9,14,72,,80,74,8,12,3,3,0.3,0.4
2025-08-23T1000,1053A,115.4713,38.9108,保定市,接待中心,,22,22,28,3,12,70,,69,67,7,8,3,3,0.2,0.3
2025-08-23T1000,1054A,115.4612,38.8416,保定市,地表水厂,,,23,37,,9,83,,72,72,13,17,4,4,0.3,0.4
2025-08-23T1000,3581A,115.31981,38.95208,保定市,满城区生态环境分局,,31,14,29,3,9,98,,85,85,11,13,3,3,0,0.1
2025-08-23T1000,3582A,115.47694,38.76408,保定市,清苑区第二中学,,42,42,38,10,12,73,,67,67,7,8,6,4,0.2,0.3
2025-08-23T1000,3583A,115.62909,39.02311,保定市,徐水物探局,,31,31,36,3,1,58,,81,72,18,13,3,4,0.2,0.2
2025-08-23T1000,4004A,115.4202,38.8656,保定市,双鹰农机,,29,20,34,14,18,90,,75,75,4,11,4,4,0.2,0.2
2025-08-23T1000,4034A,115.5150,38.8590,保定市,植保所站,,,30,40,3,9,90,,90,86,,11,3,2,0.2,0.2
2025-08-23T1000,2594A,99.1678,25.1081,保山市,市环境监测站,,28,,13,19,12,23,,10,10,10,8,7,7,0.5,0.4
2025-08-23T1000,2595A,99.1711,25.1328,保山市,市环保局,,17,17,14,11,9,24,,14,14,7,6,7,7,0.5,0.4
2025-08-23T1000,1866A,109.2262,21.588,北海市,牛尾岭水库,,20,20,17,12,8,33,,20,20,3,6,7,4,0.4,0.4
2025-08-23T1000,1867A,109.1436,21.4086,北海市,海滩公园,,13,12,23,3,4,41,,34,34,4,6,4,3,0.6,0.6
2025-08-23T1000,1868A,109.0981,21.4661,北海市,新市环保局,,13,13,13,9,8,33,,28,28,7,8,4,3,0.3,0.3
2025-08-23T1000,1869A,109.1778,21.5233,北海市,北海工业园,,19,19,21,3,10,40,,21,21,5,9,4,5,0.4,0.4
2025-08-23T1000,3400A,109.1911,21.4415,北海市,龙潭自来水厂,,19,,14,13,9,40,,33,32,5,6,3,2,0.4,0.4
2025-08-23T1000,1001A,116.3621,39.8784,北京市,万寿西宫,,21,19,28,8,13,66,,53,53,17,20,3,4,0.5,0.5
2025-08-23T1000,1002A,116.2202,40.2915,北京市,定陵,,22,19,29,8,9,68,,55,55,2,2,4,3,0.3,0.4
2025-08-23T1000,1003A,116.4174,39.9289,北京市,东四,,22,22,31,10,13,56,,51,50,24,21,2,4,0.6,0.6
2025-08-23T1000,1004A,116.4072,39.8863,北京市,天坛,,20,20,26,9,13,56,,43,43,27,19,3,4,0.5,0.6
2025-08-23T1000,1005A,116.462,39.9365,北京市,农展馆,,21,21,29,10,14,40,,39,39,21,22,3,4,0.6,0.7
2025-08-23T1000,1006A,116.3392,39.9295,北京市,官园,,22,17,27,8,15,69,,49,49,19,20,5,7,0.4,0.5
2025-08-23T1000,1007A,116.2878,39.9611,北京市,海淀万柳,,21,21,26,10,12,34,,27,27,21,20,3,6,0.5,0.4
2025-08-23T1000,1008A,116.6636,40.135,北京市,顺义新城,,,,,,,,,,,,,,,,
2025-08-23T1000,1009A,116.6275,40.3275,北京市,怀柔镇,,24,24,23,12,10,42,,42,38,9,10,3,2,0.6,0.6
2025-08-23T1000,1010A,116.2296,40.217,北京市,昌平镇,,22,22,26,10,14,56,,44,42,11,13,4,6,0.7,0.6
2025-08-23T1000,1011A,116.3966,39.9821,北京市,奥体中心,,22,22,28,11,13,41,,37,37,21,21,4,5,0.4,0.5
2025-08-23T1000,3281A,115.9718,40.4529,北京市,延庆夏都,,20,20,25,9,10,64,,51,51,16,12,4,4,0.4,0.5
2025-08-23T1000,3418A,116.8336,40.4095,北京市,密云新城,,20,20,18,10,7,43,,31,31,5,6,1,1,0.3,0.3
2025-08-23T1000,3671A,116.088,39.9726,北京市,门头沟三家店,,22,14,25,8,13,70,,61,61,10,11,3,11,0.5,0.6
2025-08-23T1000,3672A,116.1541,39.8204,北京市,丰台云岗,,16,14,23,3,11,49,,49,49,8,11,4,5,0.4,0.5
2025-08-23T1000,3673A,116.6804,39.9081,北京市,通州东关,,33,33,38,15,16,35,,32,32,28,33,5,5,0.6,0.6
2025-08-23T1000,3674A,115.9577,39.7603,北京市,房山燕山,,28,11,20,6,10,89,,78,78,9,8,1,19,0.2,0.3
2025-08-23T1000,3675A,116.4672,39.7733,北京市,大兴旧宫,,18,18,26,9,12,46,,36,36,18,18,2,3,0.6,0.7
2025-08-23T1000,3694A,115.986,40.4563,北京市,延庆石河营,,17,16,20,9,10,53,,36,36,11,8,1,1,0.4,0.4
2025-08-23T1000,3695A,116.6151,40.3053,北京市,怀柔新城,,22,22,24,11,11,52,,44,43,3,5,2,2,0.5,0.6
2025-08-23T1000,3696A,116.2545,39.8768,北京市,丰台小屯,,20,20,25,8,11,52,,50,50,14,14,2,3,0.6,0.7
2025-08-23T1000,3697A,116.84,40.3844,北京市,密云镇,,23,23,22,7,8,45,,28,28,6,13,3,4,0.5,0.5
2025-08-23T1000,4182A,116.1942,39.9158,北京市,八角北路9号,,26,13,26,6,12,83,,73,73,3,10,3,9,0.2,0.3
2025-08-23T1000,4194A,117.0790,40.1518,北京市,洳河巡河路,,25,25,22,12,8,43,,52,51,8,6,3,3,0.4,0.4
2025-08-23T1000,1761A,123.8275,41.3064,本溪市,大峪,,21,21,29,8,11,65,,25,25,12,16,5,5,0.8,0.9
2025-08-23T1000,1762A,123.7567,41.3325,本溪市,溪湖,,25,25,22,12,13,46,,19,19,18,10,12,10,1.4,1
2025-08-23T1000,1763A,123.7169,41.3094,本溪市,彩屯,,30,30,27,16,16,39,,16,16,36,18,18,8,3.0,1.1
2025-08-23T1000,1764A,123.7669,41.2864,本溪市,东明,,32,32,31,6,13,57,,25,25,18,18,4,4,0.7,1
2025-08-23T1000,1765A,123.7992,41.2664,本溪市,新立屯,,21,12,27,3,11,66,,20,20,6,17,4,4,0.8,1
2025-08-23T1000,1766A,123.8142,41.3472,本溪市,威宁,,38,38,27,12,13,49,,17,17,8,14,10,9,1.0,0.9
2025-08-23T1000,2587A,105.2864,27.3125,毕节市,八中,,9,8,11,6,9,21,,11,11,6,8,6,5,0.6,0.5
2025-08-23T1000,2588A,105.31,27.2944,毕节市,师专,,19,19,22,3,5,18,,15,14,10,10,6,8,0.6,0.6
2025-08-23T1000,4263A,105.3688,27.3598,毕节市,工业大道,,,13,8,8,5,,,22,22,11,10,7,7,0.6,0.6
2025-08-23T1000,1629A,118.0018,37.3617,滨州市,第二水厂,,38,29,26,17,17,120,,67,67,16,10,5,3,0.6,0.5
2025-08-23T1000,1630A,117.9776,37.393,滨州市,北中新校,,38,36,35,22,19,121,,60,60,22,14,1,2,0.8,0.6
2025-08-23T1000,3514A,117.9378,37.3956,滨州市,中海酒店,,39,29,27,19,17,123,,57,57,11,9,5,2,0.7,0.6
2025-08-23T1000,3515A,117.9378,37.3553,滨州市,开发区一中,,42,29,31,22,18,134,,76,76,13,14,9,7,0.4,0.6
2025-08-23T1000,3516A,118.0917,37.694,滨州市,金海六路,,36,27,22,12,12,115,,46,46,10,12,21,5,0.4,0.3
2025-08-23T1000,4028A,117.9956,37.3753,滨州市,滨州市西街道办事处,,41,29,21,22,19,129,,73,73,23,12,2,2,0.5,0.4
2025-08-23T1000,2311A,115.8072,33.8399,亳州市,污水处理厂,,27,27,13,14,8,85,,44,44,11,9,5,8,0.8,0.5
2025-08-23T1000,2312A,115.7789,33.8518,亳州市,三国揽胜宫,,35,35,18,16,9,92,,59,59,7,6,5,4,0.8,0.7
2025-08-23T1000,3332A,115.7633,33.8034,亳州市,亳州学院,,27,27,12,15,10,84,,49,49,11,8,6,5,1.4,0.8
2025-08-23T1000,2693A,82.0485,44.8556,博尔塔拉蒙古自治州,市党校,,28,28,25,18,17,56,,57,57,8,7,4,4,0.1,0.1
2025-08-23T1000,2694A,82.0806,44.8969,博尔塔拉蒙古自治州,市环保局,,31,31,31,12,12,43,,44,44,9,8,3,4,0.2,0.2
2025-08-23T1000,1071A,116.8842,38.2991,沧州市,沧县城建局,,44,44,35,12,14,117,,73,73,15,20,5,4,0.5,0.4
2025-08-23T1000,1072A,116.8584,38.3254,沧州市,电视转播站,,48,48,52,14,16,85,,48,48,20,23,3,2,0.3,0.3
2025-08-23T1000,1073A,116.8709,38.3228,沧州市,市环保局,,47,47,44,23,22,103,,54,54,21,22,6,4,0.4,0.4
2025-08-23T1000,3324A,116.8136,38.3004,沧州市,河北水利电力学院,,41,41,34,21,19,117,,65,65,16,26,5,4,0.3,0.4
2025-08-23T1000,2622A,97.1806,31.1273,昌都市,昌都监测站,,13,13,11,3,5,28,,31,27,5,4,5,5,0.3,0.3
2025-08-23T1000,3719A,97.1714,31.1406,昌都市,昌都会议中心,,10,9,6,3,4,32,,36,31,7,4,3,3,0.2,0.2
2025-08-23T1000,2690A,88.1236,43.8886,昌吉回族自治州,天山天池,,25,6,11,3,3,77,,70,69,7,8,9,10,0.4,0.4
2025-08-23T1000,2692A,87.2717,44.0297,昌吉回族自治州,新区政务中心,,33,33,27,10,13,83,,47,47,13,26,1,1,0.3,0.5
2025-08-23T1000,3613A,87.3095,44.0142,昌吉回族自治州,亚心广场,,34,34,35,3,13,80,,49,49,17,28,6,8,0.2,0.5
2025-08-23T1000,1120A,125.2863,43.9027,长春市,客车厂,,32,32,21,14,11,88,,72,72,15,14,4,4,0.5,0.4
2025-08-23T1000,1121A,125.2841,43.8463,长春市,邮电学院,,30,22,18,13,9,94,,74,74,7,9,5,5,0.6,0.5
2025-08-23T1000,1122A,125.3716,43.8772,长春市,劳动公园,,34,34,23,17,11,79,,60,60,11,11,7,7,0.6,0.5
2025-08-23T1000,1123A,125.3297,43.8805,长春市,园林处,,31,31,19,12,8,96,,77,77,8,9,4,4,0.6,0.5
2025-08-23T1000,1124A,125.4605,43.79,长春市,净月潭,,27,27,19,12,7,78,,52,52,5,5,4,4,0.5,0.3
2025-08-23T1000,1125A,125.7194,43.515,长春市,甩湾子,,,,,,,,,,,,,,,,
2025-08-23T1000,1126A,125.3863,43.8447,长春市,经开区环卫处,,36,36,21,12,7,74,,49,49,12,11,3,3,0.7,0.5
2025-08-23T1000,1127A,125.245,43.7783,长春市,高新区管委会,,29,28,17,14,9,92,,58,58,4,8,3,3,0.6,0.5
2025-08-23T1000,1128A,125.1761,43.8325,长春市,岱山公园,,28,24,20,17,11,87,,62,62,7,14,4,4,0.6,0.4
2025-08-23T1000,4281A,125.3346,43.9164,长春市,北亚泰大街1068号,,29,16,22,13,12,92,,73,73,14,15,7,6,0.6,0.5
2025-08-23T1000,1335A,113.0833,28.2325,长沙市,经开区环保局,,38,38,27,26,14,52,,28,28,14,14,10,6,0.5,0.4
2025-08-23T1000,1336A,112.8872,28.2189,长沙市,高开区环保局,,31,31,24,13,9,56,,29,29,10,9,12,6,0.8,0.3
2025-08-23T1000,1337A,113.0792,28.2053,长沙市,马坡岭,,40,40,28,18,14,58,,23,23,10,14,11,6,0.6,0.5
2025-08-23T1000,1338A,112.9394,28.19,长沙市,湖南师范大学,,36,36,24,22,13,70,,28,28,15,17,12,5,0.4,0.3
2025-08-23T1000,1339A,113.0178,28.1322,长沙市,雨花区环保局,,33,33,24,15,10,62,,29,29,8,10,9,7,0.5,0.5
2025-08-23T1000,1340A,112.9792,28.2597,长沙市,伍家岭,,35,35,26,18,13,60,,26,26,12,12,8,4,0.4,0.3
2025-08-23T1000,1341A,113.0014,28.1944,长沙市,火车新站,,38,38,28,14,10,62,,30,30,10,10,11,8,0.5,0.5
2025-08-23T1000,1342A,112.9844,28.1178,长沙市,天心区环保局,,32,32,24,14,12,66,,33,33,8,11,8,5,0.4,0.4
2025-08-23T1000,1343A,112.8908,28.1308,长沙市,湖南中医药大学,,37,37,26,14,16,70,,25,25,13,11,16,5,1.4,0.7
2025-08-23T1000,1344A,112.9581,28.3611,长沙市,沙坪,,23,23,17,15,8,62,,16,16,14,13,8,3,0.5,0.4
2025-08-23T1000,1727A,113.1147,36.1547,长治市,清华站,,35,35,33,9,15,94,,83,83,6,9,7,9,0.9,1.1
2025-08-23T1000,1730A,113.0886,36.2125,长治市,审计局,,32,30,30,12,18,101,,83,83,8,10,6,7,1.0,1
2025-08-23T1000,1731A,113.0844,36.1856,长治市,长治八中,,35,28,36,24,26,101,,80,80,5,9,9,9,1.2,1.3
2025-08-23T1000,2845A,113.1569,36.1911,长治市,德盛苑,,31,26,31,9,16,98,,68,68,5,8,8,8,1.1,1
2025-08-23T1000,3568A,113.06,36.0464,长治市,向阳小学,颗粒物(PM10),54,58,67,28,25,92,,72,72,1,3,3,4,0.8,1
2025-08-23T1000,3569A,112.8792,36.3144,长治市,屯留一中,颗粒物(PM10),51,52,48,29,33,105,,92,92,14,19,16,14,1.1,1.1
2025-08-23T1000,4189A,113.1131,36.19948,长治市,英华南巷50号,,36,36,36,14,20,104,,74,74,6,12,8,8,1.0,1
2025-08-23T1000,4190A,113.2367,36.3344,长治市,学府街1号,,40,40,33,24,21,103,,95,94,8,10,8,4,1.1,1
2025-08-23T1000,1854A,111.6975,28.9703,常德市,市二中,,23,18,18,16,13,42,,24,24,10,8,4,4,0.4,0.4
2025-08-23T1000,1857A,111.7158,29.1456,常德市,白鹤山,,,,,,,,,,,,,,,,
2025-08-23T1000,3138A,111.7153,29.0289,常德市,武陵区永安,,23,23,18,11,9,47,,26,26,3,6,4,4,0.4,0.4
2025-08-23T1000,3139A,111.6892,28.9881,常德市,鼎城区玉霞,,28,28,19,13,11,38,,17,17,7,9,4,4,0.6,0.6
2025-08-23T1000,3140A,111.6625,29.0531,常德市,武陵区长庚,,19,15,17,13,11,41,,22,22,3,4,6,5,0.3,0.3
2025-08-23T1000,1196A,119.9633,31.762,常州市,市监测站,,29,27,22,7,15,90,,54,54,8,15,12,12,0.5,0.5
2025-08-23T1000,1200A,119.9468,31.7069,常州市,武进监测站,,27,19,24,7,10,85,,57,57,2,4,5,6,0.8,0.8
2025-08-23T1000,1201A,119.9255,31.9087,常州市,安家,,30,30,34,12,18,90,,40,40,11,32,10,10,0.8,0.9
2025-08-23T1000,3002A,119.9805,31.8174,常州市,行政中心,,31,31,34,14,17,97,,54,54,12,17,11,11,0.6,0.6
2025-08-23T1000,3003A,120.0522,31.7748,常州市,经开区,,30,30,39,11,16,93,,56,56,8,19,5,5,0.7,0.9
2025-08-23T1000,3010A,119.9025,31.7964,常州市,钟楼,,31,31,29,9,13,87,,51,51,10,16,7,7,0.4,0.5
2025-08-23T1000,3429A,119.8598,31.7066,常州市,武进经发区,,27,18,24,10,13,84,,50,50,4,8,8,8,0.8,0.8
2025-08-23T1000,3430A,119.5826,31.7245,常州市,金坛城区,,27,,19,10,13,86,,47,47,8,12,10,10,0.4,0.4
2025-08-23T1000,2220A,120.4318,41.5881,朝阳市,西梁,,50,50,36,14,12,37,,22,22,30,25,8,5,1.2,0.7
2025-08-23T1000,2221A,120.4521,41.5646,朝阳市,河畔小区,,48,48,27,10,4,38,,33,32,24,15,11,7,1.1,0.6
2025-08-23T1000,2222A,120.4176,41.5648,朝阳市,八里堡,颗粒物(PM10),59,67,40,13,11,26,,20,20,40,27,14,8,1.7,0.8
2025-08-23T1000,2223A,120.3806,41.5969,朝阳市,农业园区,,38,38,26,17,8,41,,11,11,20,18,12,10,1.0,0.6
2025-08-23T1000,1705A,116.6367,23.6719,潮州市,西园路,,46,46,30,21,18,71,,21,21,13,12,4,4,0.4,0.3
2025-08-23T1000,3026A,116.6183,23.6608,潮州市,市政府,颗粒物(PM10),56,61,36,18,17,74,,29,29,10,12,4,4,0.5,0.5
2025-08-23T1000,4036A,116.6461,23.6761,潮州市,金山,,,53,29,20,18,68,,17,17,13,9,5,4,,0.5
2025-08-23T1000,2472A,113.0073,25.9061,郴州市,马头岭,,23,23,22,7,8,57,,15,15,8,12,7,6,0.3,0.5
2025-08-23T1000,2473A,113.0116,25.8226,郴州市,市职中,,22,22,20,15,11,50,,12,12,6,11,4,4,0.3,0.3
2025-08-23T1000,2475A,113.0383,25.8071,郴州市,市审计局,,22,22,20,9,10,57,,26,26,7,11,6,5,0.3,0.3
2025-08-23T1000,2476A,113.0348,25.7759,郴州市,市环保局,,21,21,22,13,12,64,,31,31,10,12,1,2,0.2,0.2
2025-08-23T1000,4252A,113.0138,25.8011,郴州市,好美居路49号,,35,,18,24,14,53,,21,21,6,11,3,3,0.3,0.3
2025-08-23T1000,1431A,103.9728,30.7236,成都市,金泉两河,,24,24,24,3,8,33,,34,33,11,11,2,3,0.6,0.6
2025-08-23T1000,1432A,104.176,30.6872,成都市,十里店,,12,10,23,3,10,36,,34,33,15,14,3,3,0.7,0.6
2025-08-23T1000,1433A,104.079,30.5706,成都市,三瓦窑,,24,24,23,3,10,49,,48,47,15,15,2,2,0.5,0.4
2025-08-23T1000,1434A,104.1114,30.63,成都市,沙河铺,,13,13,28,7,11,35,,37,34,14,14,3,3,0.7,0.7
2025-08-23T1000,1437A,104.0786,30.6531,成都市,君平街,,28,28,29,3,12,42,,41,41,12,10,2,3,0.6,0.6
2025-08-23T1000,1438A,103.613,31.0283,成都市,灵岩寺,,,,,,,,,,,,,,,,
2025-08-23T1000,2880A,104.0239,30.65639,成都市,大石西路,,23,23,26,15,15,37,,35,35,15,16,3,3,0.8,0.7
2025-08-23T1000,3136A,104.2725,30.5589,成都市,龙泉驿区区政府,,12,9,16,3,6,37,,31,29,16,15,5,5,0.6,0.5
2025-08-23T1000,3357A,104.0106,30.6931,成都市,金博路,,14,14,18,6,8,33,,27,26,14,14,5,5,0.6,0.6
2025-08-23T1000,3359A,104.0578,30.5225,成都市,华阳,,17,17,23,9,17,42,,50,46,14,16,3,3,0.8,0.6
2025-08-23T1000,3488A,104.3853,30.7453,成都市,青白江技师分院,,19,15,24,13,11,37,,34,32,10,14,6,6,0.7,0.6
2025-08-23T1000,3489A,104.0789,30.4072,成都市,科学城,,23,23,29,15,17,48,,40,38,14,13,3,4,0.5,0.5
2025-08-23T1000,4011A,103.8506,30.6947,成都市,光华大道三段,,10,7,24,3,11,32,,39,38,16,14,5,5,0.8,0.8
2025-08-23T1000,4224A,104.2433,30.5353,成都市,鲸龙路1057号,,26,24,27,18,18,36,,38,36,18,16,3,3,0.6,0.5
2025-08-23T1000,1062A,117.9531,40.9081,承德市,铁路,,,,31,40,14,14,,10,9,,16,2,7,0.3,0.5
2025-08-23T1000,1063A,117.9392,40.9763,承德市,中国银行,,37,37,31,11,12,8,,4,4,15,14,3,5,0.4,0.3
2025-08-23T1000,1064A,117.9503,40.928,承德市,开发区,,,28,31,10,13,13,,8,8,,12,4,8,0.5,0.6
2025-08-23T1000,1066A,117.9268,41.0026,承德市,离宫,,24,24,24,7,10,9,,9,8,13,9,1,3,0.3,0.3
2025-08-23T1000,4274A,117.7994,40.9605,承德市,滨河大街98号,,41,41,31,3,8,9,,6,6,22,15,5,12,0.7,0.5
2025-08-23T1000,2314A,117.47,30.6618,池州市,池州学院,,17,17,14,8,7,53,,35,35,12,8,6,7,0.4,0.4
2025-08-23T1000,3237A,117.4918,30.6617,池州市,展览馆,,19,18,13,8,6,58,,33,33,7,8,5,6,0.5,0.5
2025-08-23T1000,3333A,117.5627,30.695,池州市,第八中学,,,,12,,6,,,67,,,7,,5,,0.2
2025-08-23T1000,3334A,117.5038,30.6243,池州市,第十二中学,,21,21,15,9,6,55,,25,25,13,14,4,4,0.6,0.7
2025-08-23T1000,1744A,118.9233,42.2816,赤峰市,松山一中,,20,19,16,3,5,61,,36,36,28,21,5,6,0.5,0.5
2025-08-23T1000,1745A,118.9576,42.2728,赤峰市,哈达街,,28,28,21,6,6,51,,38,38,25,19,11,11,0.5,0.5
2025-08-23T1000,1746A,118.8788,42.2554,赤峰市,天义路,,24,17,12,8,8,76,,41,41,14,16,10,12,0.2,0.3
2025-08-23T1000,3058A,119.2658,42.0353,赤峰市,银河街,颗粒物(PM10),54,57,33,12,15,32,,19,19,25,17,81,21,0.8,0.6
2025-08-23T1000,3286A,118.9359,42.3147,赤峰市,桥北物流园区,,37,37,25,3,12,38,,30,30,25,19,8,9,0.6,0.5
2025-08-23T1000,2521A,107.3476,22.4136,崇左市,市环保局江州分局,,27,27,30,9,8,26,,9,9,12,10,10,7,0.6,0.5
2025-08-23T1000,4256A,107.3750,22.3736,崇左市,石景林东路7号,,28,28,25,13,11,27,,11,11,9,9,6,5,0.5,0.7
2025-08-23T1000,2298A,118.3093,32.3153,滁州市,老年大学,,27,22,27,3,10,86,,56,56,6,7,9,11,0.2,0.3
2025-08-23T1000,2299A,118.3244,32.2786,滁州市,人大宾馆,,27,,17,9,16,85,,53,53,3,4,8,6,0.3,0.3
2025-08-23T1000,3207A,118.3118,32.3038,滁州市,市政府原办公楼,,26,13,22,11,19,83,,50,50,5,6,10,8,0.3,0.4
2025-08-23T1000,3331A,118.3267,32.2634,滁州市,图书馆,,27,,18,16,18,86,,56,56,4,5,13,12,0.3,0.3
2025-08-23T1000,2605A,101.5482,25.0441,楚雄彝族自治州,州环境监测站,,8,6,4,3,3,24,,21,21,5,4,5,4,0.4,0.4
2025-08-23T1000,2606A,101.538,25.0492,楚雄彝族自治州,市经济开发区,,7,6,8,3,6,21,,20,20,7,7,6,6,0.4,0.3
2025-08-23T1000,2548A,107.5277,31.2827,达州市,达州职业技术学院,,41,41,30,18,6,34,,9,9,13,15,19,8,0.3,0.3
2025-08-23T1000,2549A,107.5086,31.2186,达州市,市环境监测站,颗粒物(PM10),52,54,26,14,5,15,,10,8,34,21,13,7,0.5,0.4
2025-08-23T1000,2550A,107.4988,31.2132,达州市,凤凰小区,,48,48,22,19,9,16,,12,9,26,17,1,2,0.4,0.3
2025-08-23T1000,2551A,107.5082,31.1986,达州市,达县机关宾馆,,,,22,,8,,,10,10,25,21,14,5,0.4,0.4
2025-08-23T1000,2552A,107.4644,31.2124,达州市,市政中心,,31,31,28,9,6,25,,18,16,22,14,13,4,0.4,0.3
2025-08-23T1000,2614A,100.1542,25.7054,大理白族自治州,大理市环境监测站,,16,,2,11,12,29,,31,31,6,6,4,4,0.5,0.4
2025-08-23T1000,2615A,100.2171,25.5811,大理白族自治州,大理古城,,13,,7,9,6,25,,26,24,6,7,5,5,0.6,0.7
2025-08-23T1000,1109A,121.612,38.9741,大连市,甘井子,,29,26,28,20,18,74,,44,44,17,21,8,7,0.8,0.6
2025-08-23T1000,1110A,121.565,38.9511,大连市,周水子,,31,21,19,16,15,98,,48,48,13,19,7,6,1.0,0.6
2025-08-23T1000,1111A,121.5637,38.8845,大连市,星海三站,,30,25,20,19,14,96,,52,52,13,14,6,5,0.5,0.5
2025-08-23T1000,1112A,121.6302,38.9117,大连市,青泥洼桥,,49,49,28,25,14,135,,67,67,7,14,7,7,0.6,0.6
2025-08-23T1000,1113A,121.6251,38.8638,大连市,傅家庄,,30,18,18,15,13,95,,69,69,6,9,10,9,0.4,0.4
2025-08-23T1000,1114A,121.5213,38.8661,大连市,七贤岭,,34,21,17,14,11,107,,56,56,6,8,7,6,0.7,0.7
2025-08-23T1000,1115A,121.2529,38.8061,大连市,旅顺,,30,24,13,21,13,95,,60,60,5,13,7,7,0.4,0.4
2025-08-23T1000,1116A,121.7485,39.1311,大连市,金州,,,14,19,11,13,,,86,83,13,13,13,12,0.5,0.4
2025-08-23T1000,1117A,121.7811,39.0496,大连市,开发区,,,30,25,17,19,,,54,46,,20,7,5,1.0,0.7
2025-08-23T1000,1118A,121.9762,39.0631,大连市,双D港,,35,20,21,18,16,110,,70,70,4,10,10,8,0.6,0.6
2025-08-23T1000,1789A,124.81117,46.03138,大庆市,大同区,,28,28,15,3,6,58,,32,32,9,9,9,9,0.6,0.6
2025-08-23T1000,1790A,125.129,46.533,大庆市,龙凤区,,16,16,15,8,9,51,,37,37,14,14,8,8,0.8,0.5
2025-08-23T1000,1791A,124.902,46.408,大庆市,红岗区,,24,24,16,15,11,42,,32,32,15,10,9,8,0.5,0.6
2025-08-23T1000,1792A,125.153,46.586,大庆市,萨尔图区,,39,39,24,22,9,53,,33,33,22,15,8,8,0.7,0.5
2025-08-23T1000,1793A,124.9042,46.6215,大庆市,让胡路区,,,23,22,17,12,42,,37,37,11,13,,6,0.3,0.4
2025-08-23T1000,3481A,125.141,46.634,大庆市,萨区政府监测点,,42,42,23,17,7,46,,40,38,19,10,8,7,0.5,0.4
2025-08-23T1000,1721A,113.3819,40.1097,大同市,果树场,,17,12,36,9,16,53,,44,44,17,19,8,9,0.5,0.5
2025-08-23T1000,1723A,113.2994,40.0758,大同市,云冈宾馆,,27,25,53,13,15,85,,76,76,14,22,4,7,1.1,0.7
2025-08-23T1000,1724A,113.3444,40.0917,大同市,大同大学,,24,15,42,8,15,74,,59,59,18,28,7,10,0.6,0.6
2025-08-23T1000,1725A,113.2661,40.1269,大同市,安家小村,,30,11,50,3,12,96,,74,74,7,19,3,6,0.8,0.7
2025-08-23T1000,1726A,113.2711,40.0844,大同市,教育学院,,27,14,50,13,17,85,,72,72,15,21,8,12,0.6,0.5
2025-08-23T1000,3282A,113.3397,40.0597,大同市,大同市卫生学校,,24,19,49,9,18,74,,64,64,16,23,6,9,1.0,0.7
2025-08-23T1000,3565A,113.1367,40.1122,大同市,云冈站,,25,12,49,7,20,79,,55,55,12,13,4,5,0.3,0.4
2025-08-23T1000,3566A,113.1186,40.2556,大同市,图书馆,,30,10,28,3,12,96,,71,71,5,14,2,9,0.6,0.7
2025-08-23T1000,3567A,113.5931,40.0461,大同市,区一中,,31,18,35,10,13,98,,71,71,7,11,8,12,0.5,0.5
2025-08-23T1000,4199A,113.2798,40.0997,大同市,魏都大道141号,,28,12,47,9,17,88,,74,74,13,20,1,5,0.6,0.5
2025-08-23T1000,2269A,124.1069,50.4097,大兴安岭地区,科技局,,12,10,16,8,9,32,,40,38,2,3,6,5,0.3,0.3
2025-08-23T1000,3663A,124.1164,50.4278,大兴安岭地区,红旗社区,,9,6,1,3,2,26,,33,30,4,3,5,4,0.3,0.3
2025-08-23T1000,1600A,124.3303,40.0625,丹东市,江湾东路,,25,12,21,10,15,79,,52,52,6,9,3,5,0.7,0.6
2025-08-23T1000,1601A,124.4256,40.1503,丹东市,临江后街,,26,18,25,9,13,82,,42,42,4,9,8,6,0.6,0.7
2025-08-23T1000,1602A,124.3933,40.1461,丹东市,元宝山,,23,17,22,13,12,71,,41,41,9,10,2,2,0.7,0.6
2025-08-23T1000,1603A,124.3633,40.1092,丹东市,民主桥,,,,22,,11,53,,48,48,8,9,,2,0.6,0.6
2025-08-23T1000,3541A,109.5726,19.5167,儋州市,第一中学子站,,14,14,11,6,5,26,,16,16,4,4,6,7,0.4,0.4
2025-08-23T1000,3542A,109.5567,19.5187,儋州市,东坡学校子站,,20,20,16,7,7,25,,12,12,5,6,7,8,0.5,0.5
2025-08-23T1000,2616A,98.5842,24.428,德宏傣族景颇族自治州,德宏州监测站,,34,34,20,7,9,12,,14,14,13,10,9,11,0.9,0.8
2025-08-23T1000,3677A,98.5881,24.4368,德宏傣族景颇族自治州,芒市人民政府综合楼,,31,31,21,10,8,12,,12,12,9,8,7,9,0.7,0.7
2025-08-23T1000,1901A,104.4239,31.1208,德阳市,东山公园,,15,,8,7,8,46,,38,38,3,8,3,3,0.7,0.7
2025-08-23T1000,1902A,104.3826,31.1317,德阳市,西小区,,16,16,16,10,10,47,,46,46,10,11,3,3,0.8,0.7
2025-08-23T1000,1904A,104.3553,31.1091,德阳市,耐火材料厂,,20,20,18,9,10,40,,34,34,10,12,2,1,0.6,0.6
2025-08-23T1000,3639A,104.4019,31.1244,德阳市,市教育局,,17,17,18,9,9,47,,42,42,4,8,7,7,0.7,0.8
2025-08-23T1000,1622A,116.3032,37.4674,德州市,儿童乐园,,48,48,32,17,15,143,,73,73,14,16,17,13,0.6,0.5
2025-08-23T1000,1624A,116.2991,37.4451,德州市,监理站,,44,36,29,14,13,140,,79,79,10,12,14,12,0.8,0.6
2025-08-23T1000,3066A,116.2721,37.4379,德州市,九衢泉纯净水厂,,46,46,32,19,17,140,,77,77,13,15,9,7,0.9,0.8
2025-08-23T1000,3371A,116.3728,37.4403,德州市,开发区人民医院,,37,34,29,14,15,118,,69,69,10,16,15,12,1.1,1
2025-08-23T1000,3511A,116.5652,37.3319,德州市,陵城艺术中心,,36,29,26,9,8,113,,93,90,12,11,17,15,0.6,0.6
2025-08-23T1000,4292A,116.3525,37.4209,德州市,新河东路,,40,34,29,17,16,125,,76,76,12,16,15,12,1.0,0.9
2025-08-23T1000,2621A,99.7056,27.8317,迪庆藏族自治州,迪庆州站,,18,18,18,8,13,27,,22,22,6,7,6,6,0.5,0.6
2025-08-23T1000,3180A,99.7136,27.8094,迪庆藏族自治州,质量技术监督局,,10,10,13,7,7,29,,29,29,10,9,7,7,0.4,0.4
2025-08-23T1000,4257A,104.6092,35.5962,定西市,将台街,,27,25,25,15,19,84,,77,74,11,13,7,7,0.5,0.5
2025-08-23T1000,4309A,104.6159,35.5701,定西市,正龙路62号,,,,26,,16,84,,85,82,8,9,,5,0.2,0.2
2025-08-23T1000,1389A,113.7547,23.0494,东莞市,莞城梨川,,36,28,53,18,35,114,,44,44,13,24,6,8,0.4,0.5
2025-08-23T1000,1390A,113.7944,23.0128,东莞市,东城石井,颗粒物(PM10),52,53,44,35,25,103,,31,31,24,21,10,5,0.9,0.9
2025-08-23T1000,1391A,113.7383,22.9658,东莞市,南城西平,,42,42,50,27,29,100,,30,30,24,37,12,8,0.6,0.7
2025-08-23T1000,3319A,113.7338,23.0381,东莞市,万江金泰,,34,33,55,17,33,106,,40,40,14,26,5,6,0.6,0.7
2025-08-23T1000,3626A,113.7533,23.0202,东莞市,南城元岭,,35,33,50,21,30,109,,43,43,16,26,9,9,0.4,0.5
2025-08-23T1000,3627A,113.7875,23.0457,东莞市,东城主山,,,38,61,23,34,111,,38,38,,37,8,9,0.5,0.6
2025-08-23T1000,1666A,118.6614,37.4309,东营市,市环保局,,,34,20,,10,131,,82,82,19,15,15,9,0.5,0.3
2025-08-23T1000,3036A,118.6904,37.4338,东营市,开发区管委会,,43,38,23,17,8,137,,87,87,18,14,11,7,0.6,0.4
2025-08-23T1000,3365A,118.5719,37.565,东营市,垦利区民丰路,,39,39,25,19,13,122,,64,64,16,15,11,9,1.0,0.8
2025-08-23T1000,3498A,118.5055,37.8612,东营市,河口城区,,40,27,16,15,5,126,,94,94,14,13,10,8,1.0,0.8
2025-08-23T1000,3646A,118.4978,37.4623,东营市,胜利站,颗粒物(PM10),59,67,29,14,11,121,,77,77,26,18,4,3,0.8,0.6
2025-08-23T1000,3734A,118.35,37.26,东营市,理想之城,,36,29,20,19,12,115,,59,59,15,12,8,4,0.6,0.4
2025-08-23T1000,1591A,110.0023,39.8129,鄂尔多斯市,综合楼,,24,24,25,9,9,73,,109,102,36,15,7,7,0.6,0.5
2025-08-23T1000,1592A,109.9486,39.8261,鄂尔多斯市,巴音孟克林场办事处,,25,24,27,9,9,78,,112,104,30,16,4,5,0.6,0.6
2025-08-23T1000,1593A,109.7736,39.5986,鄂尔多斯市,康泽苑,,26,17,27,7,9,83,,82,82,10,10,5,6,0.4,0.3
2025-08-23T1000,1594A,109.8119,39.5989,鄂尔多斯市,华泰汽车城,,28,19,23,12,13,89,,85,84,10,11,8,7,0.5,0.5
2025-08-23T1000,1595A,109.9734,39.7884,鄂尔多斯市,奥林花园,,24,24,30,12,13,74,,97,91,27,17,6,7,0.6,0.6
2025-08-23T1000,2436A,114.8938,30.3994,鄂州市,市政府,,24,24,12,11,4,50,,31,31,13,11,8,6,0.5,0.4
2025-08-23T1000,2437A,114.8989,30.3714,鄂州市,赵家坝,,20,20,20,6,1,45,,30,30,14,9,10,8,0.7,0.6
2025-08-23T1000,3654A,114.8094,30.4089,鄂州市,精准医疗中心,,26,26,18,11,5,49,,20,20,17,16,10,12,1.4,1.1
2025-08-23T1000,2454A,109.4978,30.2981,恩施土家族苗族自治州,湖北民院,,21,21,18,10,9,26,,16,16,10,5,5,5,0.5,0.5
2025-08-23T1000,2455A,109.4707,30.2798,恩施土家族苗族自治州,州电力总公司,,24,24,15,16,10,20,,11,11,13,6,5,4,0.2,0.3
2025-08-23T1000,3549A,109.5061,30.3772,恩施土家族苗族自治州,龙凤新区,,22,22,16,3,8,38,,23,23,10,6,5,4,0.4,0.4
2025-08-23T1000,2499A,108.3411,21.6158,防城港市,沙万,,42,42,25,13,12,25,,14,14,11,15,4,3,0.6,0.5
2025-08-23T1000,2500A,108.3514,21.7731,防城港市,防城档案局,,30,30,28,13,12,21,,8,8,11,12,3,2,0.5,0.6
2025-08-23T1000,2501A,108.3506,21.6414,防城港市,大海花园,,42,42,22,13,11,28,,16,16,10,13,7,5,0.6,0.5
2025-08-23T1000,1371A,113.1294,23.0067,佛山市,湾梁,细颗粒物(PM2.5),68,78,38,49,31,79,,28,28,64,34,8,7,0.8,0.6
2025-08-23T1000,1372A,113.1083,23.0478,佛山市,华材职中,颗粒物(PM10),60,70,44,36,25,87,,28,28,56,32,5,4,0.8,0.7
2025-08-23T1000,1373A,113.144,23.0453,佛山市,南海气象局,颗粒物(PM10),61,72,41,29,18,81,,36,36,56,29,6,5,0.7,0.5
2025-08-23T1000,1374A,113.2881,22.8094,佛山市,顺德苏岗,颗粒物(PM10),57,63,35,39,16,107,,21,21,32,26,5,5,0.9,0.7
2025-08-23T1000,1376A,112.8383,22.8678,佛山市,高明孔堂,颗粒物(PM10),59,67,23,21,10,79,,33,33,44,12,23,7,0.8,0.5
2025-08-23T1000,1377A,112.8836,23.1588,佛山市,三水监测站,颗粒物(PM10),65,80,53,41,28,86,,33,33,35,29,12,6,0.8,0.7
2025-08-23T1000,1378A,112.867,23.185,佛山市,三水云东海,细颗粒物(PM2.5),79,73,48,58,32,104,,28,28,32,29,9,3,0.8,0.7
2025-08-23T1000,3625A,113.2544,22.7642,佛山市,容桂街道办,颗粒物(PM10),54,58,25,36,17,136,,33,33,35,27,8,7,0.8,0.7
2025-08-23T1000,1280A,119.3903,26.0543,福州市,鼓山,,,,,,,,,,,,,,,,
2025-08-23T1000,1282A,119.2681,26.0504,福州市,师大,,36,27,32,13,15,114,,56,56,6,12,7,6,0.4,0.3
2025-08-23T1000,1283A,119.2984,26.1028,福州市,五四北路,,37,37,31,16,16,111,,71,71,11,12,5,4,0.4,0.3
2025-08-23T1000,1284A,119.2648,26.0768,福州市,杨桥西路,,36,30,30,13,16,113,,52,52,7,12,5,4,0.3,0.3
2025-08-23T1000,1285A,119.317,26.0746,福州市,紫阳,,40,40,38,22,16,102,,64,64,19,14,6,5,0.5,0.3
2025-08-23T1000,3048A,119.5799,26.0936,福州市,九龙,,36,36,24,9,14,108,,60,60,7,8,7,5,0.6,0.3
2025-08-23T1000,3526A,119.5189,25.9664,福州市,吴航,,46,46,28,23,15,90,,48,48,18,11,10,7,0.4,0.3
2025-08-23T1000,1755A,123.7977,41.8491,抚顺市,望花区,,39,39,36,16,22,84,,27,27,17,23,11,6,1.3,1
2025-08-23T1000,1756A,123.9161,41.8822,抚顺市,顺城区,,43,41,28,30,17,96,,30,30,23,24,8,6,1.6,1
2025-08-23T1000,1757A,124.0436,41.8611,抚顺市,东洲区,,36,36,21,19,13,95,,34,34,12,10,9,8,0.9,0.9
2025-08-23T1000,1758A,123.9247,41.8642,抚顺市,新抚区,,46,46,27,26,16,86,,25,25,22,18,8,5,1.5,1
2025-08-23T1000,1759A,124.0972,41.8961,抚顺市,大伙房水库,,,,17,12,10,55,,33,33,,10,7,7,0.9,0.8
2025-08-23T1000,1760A,123.7086,41.8391,抚顺市,沈抚新城,,,,26,,18,,,15,,26,21,10,5,1.6,1
2025-08-23T1000,2376A,116.2127,28.0814,抚州市,桐源党溪,,43,43,31,19,12,37,,12,12,4,7,6,11,1.0,0.9
2025-08-23T1000,2377A,116.3544,27.9831,抚州市,市站,,27,27,20,12,8,44,,29,29,10,6,4,2,0.4,0.5
2025-08-23T1000,2378A,116.3565,27.963,抚州市,血防站,,29,29,23,11,10,36,,23,23,12,8,4,3,0.4,0.4
2025-08-23T1000,2379A,116.3564,28.0007,抚州市,采茶剧团,,34,34,22,13,8,31,,23,23,10,4,4,4,0.7,0.6
2025-08-23T1000,2380A,116.385,27.9647,抚州市,医学分院,,28,28,23,11,9,35,,24,23,18,8,4,4,0.3,0.3
2025-08-23T1000,2207A,121.6094,41.998,阜新市,工业园区,细颗粒物(PM2.5),53,47,32,37,13,44,,14,14,29,25,15,8,1.2,0.7
2025-08-23T1000,2208A,121.6697,42.0279,阜新市,长青街,,47,47,28,23,14,50,,24,24,25,17,19,10,1.1,0.8
2025-08-23T1000,2209A,121.6673,42.0705,阜新市,农业园区,,46,46,32,19,12,53,,56,52,18,11,11,6,1.1,0.7
2025-08-23T1000,2210A,121.6717,42.0224,阜新市,东苑,,45,45,37,20,14,49,,32,32,29,22,27,14,1.1,0.9
2025-08-23T1000,2211A,121.6506,42.0498,阜新市,玉龙新城,,46,46,35,22,12,37,,13,13,22,22,14,8,1.2,0.7
2025-08-23T1000,2301A,115.8277,32.8929,阜阳市,市监测站,,30,30,28,13,12,79,,45,45,11,15,4,5,0.1,0.2
2025-08-23T1000,2303A,115.8554,32.8605,阜阳市,开发区,,39,39,26,9,14,70,,41,41,8,11,6,6,0.3,0.3
2025-08-23T1000,2875A,115.784,32.8892,阜阳市,阜阳职业技术学院,,28,23,22,6,10,88,,56,56,9,10,6,6,0.3,0.3
2025-08-23T1000,3468A,115.7901,32.8613,阜阳市,市规划展馆,,43,43,28,13,14,75,,32,32,7,11,2,2,0.4,0.4
2025-08-23T1000,3469A,115.836,32.9183,阜阳市,枣园社区,,26,24,25,10,13,82,,44,44,9,10,4,3,0.4,0.4
2025-08-23T1000,2669A,102.9099,34.9841,甘南藏族自治州,州政府,,29,,18,20,14,67,,58,53,7,7,4,4,0.3,0.3
2025-08-23T1000,3380A,102.8914,34.9617,甘南藏族自治州,甘肃民族师范学院,,20,16,14,8,6,61,,56,50,7,3,4,4,0.2,0.1
2025-08-23T1000,2570A,101.9603,30.0475,甘孜藏族自治州,水桥子,,17,9,7,3,6,52,,51,44,20,12,6,6,0.4,0.2
2025-08-23T1000,3065A,101.9533,29.9972,甘孜藏族自治州,州环保局,,21,13,11,6,4,65,,53,53,11,11,4,4,0.2,0.2
2025-08-23T1000,3414A,115.8347,28.932,赣江新区,桑海产业园,,24,24,22,13,8,36,,19,19,17,18,5,4,0.4,0.3
2025-08-23T1000,2362A,114.9017,25.9149,赣州市,通天岩,,25,25,20,12,14,54,,21,21,8,4,19,17,1.3,1.4
2025-08-23T1000,2363A,114.9367,25.8664,赣州市,地委,,26,26,27,14,15,62,,23,23,13,12,8,6,0.9,0.8
2025-08-23T1000,2364A,114.9461,25.8481,赣州市,气象台,,20,20,26,13,10,63,,19,19,18,13,11,10,0.7,0.6
2025-08-23T1000,2365A,114.9322,25.8333,赣州市,市图书馆,,25,24,24,17,12,42,,14,14,19,14,7,5,0.6,0.6
2025-08-23T1000,2366A,114.8905,25.8471,赣州市,华坚鞋城,,37,37,28,15,13,49,,22,22,20,16,8,6,0.6,0.5
2025-08-23T1000,3109A,115.0093,25.8613,赣州市,赣县区卫计委,,37,37,30,10,13,29,,16,13,11,8,7,6,0.3,0.3
2025-08-23T1000,2683A,106.2319,36.1417,固原市,马园,,,,,,,,,,,,,,,,
2025-08-23T1000,2684A,106.2792,36.0022,固原市,监测站,,,,22,7,6,,,107,,6,5,5,6,0.3,0.3
2025-08-23T1000,2685A,106.2375,36.0211,固原市,新区,,27,7,20,6,9,84,,97,94,6,6,7,7,0.1,0.2
2025-08-23T1000,3522A,106.2177,35.9959,固原市,原州区十五小,,27,24,23,17,11,86,,96,92,8,6,8,8,0.4,0.3
2025-08-23T1000,2543A,106.6308,30.5278,广安市,小平旧居,,,,,,,,,,,,,,,,
2025-08-23T1000,2544A,106.6303,30.4576,广安市,市委,,24,24,23,13,18,31,,29,26,13,10,1,2,0.3,0.3
2025-08-23T1000,2545A,106.6271,30.4663,广安市,友谊中学,,23,23,26,13,15,41,,39,36,14,11,6,6,0.8,0.7
2025-08-23T1000,2547A,106.6388,30.4551,广安市,广电花园,,41,41,38,9,14,27,,27,25,14,10,4,4,0.7,0.5
2025-08-23T1000,2902A,106.6351,30.4865,广安市,北辰小学,,31,31,27,13,15,41,,35,32,10,8,11,10,0.5,0.5
2025-08-23T1000,2523A,105.8945,32.4535,广元市,黑石坡,,14,9,16,3,8,43,,23,23,6,7,1,1,0.4,0.3
2025-08-23T1000,2524A,105.821,32.4444,广元市,老城,,20,10,12,8,6,63,,47,47,13,12,2,3,0.6,0.7
2025-08-23T1000,2526A,105.8628,32.4287,广元市,监测站,,18,10,12,7,6,57,,42,42,12,12,6,7,0.8,0.8
2025-08-23T1000,3617A,105.8047,32.4166,广元市,经开区,,19,9,17,3,10,59,,35,35,10,15,4,6,0.6,0.7
2025-08-23T1000,1345A,113.2347,23.1423,广州市,广雅中学,颗粒物(PM10),53,55,49,31,29,140,,39,39,27,47,5,3,0.7,0.6
2025-08-23T1000,1346A,113.2612,23.105,广州市,市五中,颗粒物(PM10),51,51,47,33,28,141,,45,45,23,37,7,6,0.4,0.3
2025-08-23T1000,1348A,113.3478,23.0916,广州市,广东商学院,,42,42,40,24,24,115,,31,31,24,47,5,4,0.2,0.5
2025-08-23T1000,1349A,113.4332,23.1047,广州市,市八十六中,颗粒物(PM10),51,51,38,32,24,88,,21,21,50,50,6,4,0.6,0.5
2025-08-23T1000,1350A,113.3505,22.9483,广州市,番禺中学,颗粒物(PM10),59,67,42,40,22,135,,45,45,30,27,10,7,0.7,0.6
2025-08-23T1000,1351A,113.2146,23.3916,广州市,花都师范,颗粒物(PM10),53,55,46,31,30,93,,38,38,48,35,6,5,0.7,0.7
2025-08-23T1000,1352A,113.2597,23.1331,广州市,市监测站,,47,47,47,29,24,138,,33,33,22,46,8,6,0.5,0.5
2025-08-23T1000,1353A,113.5618,23.312,广州市,九龙镇镇龙,,,25,38,17,24,79,,30,30,8,17,,6,0.5,0.6
2025-08-23T1000,1354A,113.2765,23.1544,广州市,麓湖,,43,43,42,27,24,131,,27,27,17,43,4,2,0.4,0.5
2025-08-23T1000,1355A,113.443,23.3035,广州市,帽峰山森林公园,,27,22,25,8,11,86,,76,67,13,11,8,7,0.6,0.6
2025-08-23T1000,2846A,113.3221,23.1322,广州市,体育西,,40,38,46,25,28,128,,45,45,21,40,4,3,0.5,0.6
2025-08-23T1000,3298A,113.5717,23.5491,广州市,从化街口,,30,30,36,17,21,73,,22,22,10,17,7,7,0.6,0.6
2025-08-23T1000,3299A,113.3472,23.3692,广州市,白云竹料,,31,31,50,18,32,86,,31,31,14,26,4,4,0.5,0.6
2025-08-23T1000,3300A,113.2981,23.237,广州市,白云嘉禾,,44,44,51,25,28,105,,42,42,28,38,6,5,0.5,0.6
2025-08-23T1000,3301A,113.4256,23.1716,广州市,黄埔科学城,,32,32,40,21,23,101,,40,40,15,22,4,4,0.5,0.5
2025-08-23T1000,3302A,113.3942,23.0483,广州市,番禺大学城,颗粒物(PM10),56,61,33,36,28,106,,24,24,41,47,11,10,0.6,0.5
2025-08-23T1000,3303A,113.4922,22.8168,广州市,南沙黄阁,颗粒物(PM10),73,96,45,49,20,153,,50,50,40,30,7,5,0.8,0.6
2025-08-23T1000,3304A,113.5342,22.7896,广州市,南沙街,颗粒物(PM10),70,89,34,43,18,145,,41,41,42,28,9,5,0.6,0.5
2025-08-23T1000,3443A,113.2902,23.5544,广州市,花都梯面,,27,23,33,15,21,85,,23,23,8,20,8,7,0.5,0.5
2025-08-23T1000,3445A,113.7858,23.7478,广州市,从化良口,,16,16,22,11,12,38,,24,23,7,9,4,4,0.5,0.5
2025-08-23T1000,3446A,113.8051,23.2614,广州市,增城荔城,,23,22,34,16,26,61,,29,29,8,11,8,8,0.5,0.5
2025-08-23T1000,2505A,109.568,23.1478,贵港市,德智高中,,,,,,,,,,,,,,,,
2025-08-23T1000,2506A,109.6047,23.0666,贵港市,江南子站,,41,41,48,27,24,46,,12,12,10,18,4,6,0.6,0.7
2025-08-23T1000,2508A,109.5669,23.1065,贵港市,荷城子站,,31,31,26,12,11,58,,19,19,11,17,4,3,0.5,0.5
2025-08-23T1000,3405A,109.5886,23.1172,贵港市,新世纪学校,,39,39,30,22,17,58,,22,22,17,21,1,5,0.6,0.5
2025-08-23T1000,4260A,109.5933,23.0951,贵港市,中山路155-3号,,36,33,41,25,18,54,,14,14,12,18,6,6,0.6,0.6
2025-08-23T1000,1439A,106.6899,26.5998,贵阳市,马鞍山,,17,17,10,3,0,40,,38,37,7,6,4,3,0.2,0.2
2025-08-23T1000,1441A,106.6243,26.6266,贵阳市,鉴湖路,,29,29,22,3,1,35,,35,34,9,6,2,3,0.2,0.2
2025-08-23T1000,1442A,106.7487,26.6343,贵阳市,燕子冲,,25,,7,17,9,40,,36,36,8,7,4,3,0.3,0.3
2025-08-23T1000,1443A,106.6555,26.4365,贵阳市,碧云窝,,29,29,20,3,4,46,,42,42,8,8,6,4,0.2,0.2
2025-08-23T1000,1445A,106.7109,26.6027,贵阳市,红边门,,25,19,15,17,8,39,,34,34,12,10,7,8,0.3,0.3
2025-08-23T1000,1446A,106.7164,26.5699,贵阳市,新华路,,18,17,12,12,10,38,,33,33,8,10,4,4,0.4,0.3
2025-08-23T1000,1447A,106.674,26.5424,贵阳市,太慈桥,,19,19,11,9,3,40,,36,36,9,7,7,6,0,0
2025-08-23T1000,1552A,106.805,26.3003,贵阳市,桐木岭,,29,29,24,14,12,47,,48,48,5,4,4,5,0.9,0.9
2025-08-23T1000,4230A,106.6882,26.5695,贵阳市,花果园大街66号,,15,,3,10,8,40,,37,37,7,6,3,3,0.4,0.4
2025-08-23T1000,4231A,106.6873,26.5169,贵阳市,漓江路57号,,14,12,11,7,5,44,,40,40,4,4,4,4,0.4,0.4
2025-08-23T1000,1862A,110.4144,25.3167,桂林市,电子科大尧山校区,,,,,,,,,,,,,,,,
2025-08-23T1000,1864A,110.3089,25.2708,桂林市,龙隐路小学,,,,26,17,14,46,,11,11,,9,,6,0.3,0.3
2025-08-23T1000,1865A,110.2869,25.2178,桂林市,八中,,43,43,26,16,10,40,,13,13,13,11,10,9,0.6,0.5
2025-08-23T1000,3531A,110.296,25.1253,桂林市,旅游学院,,29,29,15,14,7,34,,9,9,8,7,7,5,0.5,0.4
2025-08-23T1000,4222A,110.1835,25.2444,桂林市,环湖路276号,,41,41,28,19,12,38,,11,11,18,16,8,6,0.2,0.2
2025-08-23T1000,4301A,110.2803,25.2773,桂林市,信义路13号,,37,37,28,21,10,44,,16,16,12,10,7,6,0.6,0.5
2025-08-23T1000,2674A,100.2561,34.4714,果洛藏族自治州,玛沁县大武镇,,32,32,23,14,13,59,,39,38,8,4,15,14,0.7,0.4
2025-08-23T1000,1129A,126.5422,45.755,哈尔滨市,岭北,,27,16,14,6,6,84,,68,68,15,15,12,12,1.1,0.7
2025-08-23T1000,1130A,126.561,45.8167,哈尔滨市,松北商大,,28,28,18,11,7,50,,27,27,11,14,7,6,0.4,0.4
2025-08-23T1000,1131A,126.979,45.5419,哈尔滨市,阿城会宁,,29,29,20,17,11,62,,39,39,6,9,8,7,0.5,0.5
2025-08-23T1000,1132A,126.599,45.7222,哈尔滨市,南岗学府路,,28,28,24,16,8,58,,31,31,12,17,9,7,0.6,0.6
2025-08-23T1000,1133A,126.689,45.7733,哈尔滨市,太平宏伟公园,,34,34,21,11,6,58,,28,28,16,20,8,7,0.6,0.5
2025-08-23T1000,1134A,126.635,45.7667,哈尔滨市,道外承德广场,,41,41,32,11,7,47,,29,29,14,17,6,6,0.8,0.7
2025-08-23T1000,1135A,126.685,45.7319,哈尔滨市,香坊红旗大街,,34,34,18,16,16,60,,30,30,16,20,10,8,0.6,0.5
2025-08-23T1000,1136A,126.6411,45.7258,哈尔滨市,动力和平路,,,32,20,,,61,,34,34,13,18,7,5,0.6,0.6
2025-08-23T1000,1137A,126.593,45.7478,哈尔滨市,道里建国路,,34,34,18,10,8,58,,34,34,14,20,11,10,0.6,1.2
2025-08-23T1000,1138A,126.615,45.61,哈尔滨市,平房东轻厂,,29,29,18,9,6,49,,32,32,9,12,7,8,0.5,0.5
2025-08-23T1000,1139A,126.595,45.9855,哈尔滨市,呼兰师专,,41,41,19,22,14,36,,30,30,17,16,10,9,0.5,0.5
2025-08-23T1000,1140A,126.6206,45.6842,哈尔滨市,省农科院,,24,24,20,13,20,54,,22,22,12,25,11,9,0.6,0.6
2025-08-23T1000,2688A,93.5128,42.8172,哈密市,地区监测站,颗粒物(PM10),53,55,59,19,20,72,,57,57,9,19,4,6,0.4,0.4
2025-08-23T1000,2689A,93.4961,42.8328,哈密市,哈密师范学校,,38,38,50,16,17,70,,42,42,16,24,4,4,0.1,0.2
2025-08-23T1000,2671A,100.9048,36.9639,海北藏族自治州,海晏县西海镇,,30,23,22,19,17,95,,85,85,6,4,9,8,0.6,0.5
2025-08-23T1000,3867A,102.0738,36.5056,海东市,平安区公安北苑,,25,19,26,17,17,60,,39,38,8,14,16,15,0.6,1
2025-08-23T1000,1409A,110.576,19.9507,海口市,东寨港,细颗粒物(PM2.5),92,,13,68,12,30,,11,11,3,4,6,6,0.3,0.4
2025-08-23T1000,1410A,110.3232,20.0574,海口市,海南大学,,14,14,14,6,6,35,,26,26,9,6,3,3,0.3,0.3
2025-08-23T1000,1411A,110.283,20.0053,海口市,秀英海南医院,,10,9,16,7,8,32,,21,21,9,10,5,5,0.3,0.3
2025-08-23T1000,1412A,110.338,19.9969,海口市,海南师范大学,,14,14,16,3,8,40,,26,26,5,7,4,4,0.4,0.4
2025-08-23T1000,1413A,110.33,20.0356,海口市,龙华路环保局宿舍,,15,15,14,6,8,38,,25,25,9,7,5,5,0.3,0.3
2025-08-23T1000,3539A,110.5111,19.9736,海口市,桂林洋子站,,11,11,20,3,9,35,,12,12,8,12,3,3,0.2,0.3
2025-08-23T1000,2673A,100.6188,36.2866,海南藏族自治州,共和县恰卜恰镇,,29,24,19,7,7,92,,60,60,3,9,11,10,0.0,0.4
2025-08-23T1000,2676A,97.3731,37.3753,海西蒙古族藏族自治州,德令哈市,,31,,16,15,13,99,,114,109,2,3,12,13,0.3,0.4
2025-08-23T1000,1048A,114.5302,36.6116,邯郸市,东污水处理厂,,29,23,29,16,20,92,,90,90,6,7,6,7,0.4,0.4
2025-08-23T1000,1049A,114.4918,36.5713,邯郸市,矿院,,33,16,20,3,4,104,,99,99,5,6,4,5,0.4,0.4
2025-08-23T1000,1050A,114.484,36.6133,邯郸市,丛台公园,,,17,25,14,13,,,106,106,,10,,7,,0.4
2025-08-23T1000,3458A,114.7895,36.5593,邯郸市,香泉濮院小区,,28,16,32,3,8,89,,92,92,8,8,2,3,0.3,0.3
2025-08-23T1000,3579A,114.50634,36.77178,邯郸市,永年区实验高中,,30,30,36,11,15,96,,99,99,13,13,6,6,0.9,0.6
2025-08-23T1000,3580A,114.20016,36.44293,邯郸市,峰峰矿区临水派出所,,,46,42,,0,99,,105,96,3,4,6,7,0.5,0.5
2025-08-23T1000,2634A,106.9893,33.1842,汉中市,汉川机床厂子校,,18,10,30,8,13,55,,35,35,10,12,4,5,0.7,0.9
2025-08-23T1000,2635A,107.0154,33.0706,汉中市,市监测站,,16,,30,3,14,49,,31,31,10,10,6,7,0.8,0.8
2025-08-23T1000,2636A,107.0089,33.1138,汉中市,鑫源开发区,,15,,27,9,14,47,,34,34,11,15,7,10,0.8,1.1
2025-08-23T1000,2637A,107.007,33.0323,汉中市,南郑大河坎水厂,,14,14,24,6,11,42,,20,20,7,10,5,5,0.5,0.5
2025-08-23T1000,1223A,120.2072,30.2111,杭州市,滨江,,24,16,24,8,12,74,,43,43,13,18,7,7,0.3,0.3
2025-08-23T1000,1224A,120.0633,30.2747,杭州市,西溪,,25,10,16,7,12,80,,37,37,9,13,11,10,0.3,0.4
2025-08-23T1000,1226A,120.3417,30.3150,杭州市,下沙,,25,17,25,9,15,79,,54,54,10,15,6,7,0.2,0.3
2025-08-23T1000,1227A,120.1269,30.2456,杭州市,卧龙桥,,24,12,16,3,10,75,,35,35,6,11,8,7,0.4,0.5
2025-08-23T1000,1228A,120.1903,30.2692,杭州市,浙江农大,,27,27,32,9,11,68,,46,46,10,10,5,4,0.6,0.6
2025-08-23T1000,1230A,120.1197,30.3119,杭州市,和睦小学,,25,11,17,9,11,77,,46,46,8,12,6,6,0.4,0.4
2025-08-23T1000,1231A,120.3019,30.4183,杭州市,临平镇,,27,17,33,11,12,85,,54,54,8,12,6,6,0.2,0.3
2025-08-23T1000,1232A,120.2753,30.1839,杭州市,城厢镇,,25,16,27,8,15,77,,43,43,7,12,8,8,0.5,0.5
2025-08-23T1000,1233A,120.0883,30.1808,杭州市,云栖,,26,14,17,7,8,82,,40,40,11,20,10,10,0.6,0.6
2025-08-23T1000,3557A,119.9464,30.0494,杭州市,镇二中,,21,21,21,14,14,64,,31,31,18,16,5,4,0.7,0.6
2025-08-23T1000,3558A,119.7183,30.2367,杭州市,市府大楼,,20,6,12,3,9,62,,35,35,6,9,8,8,0.2,0.3
2025-08-23T1000,3656A,120.1556,30.2864,杭州市,消防大队,,25,13,17,7,10,80,,54,54,4,7,6,6,0.6,0.6
2025-08-23T1000,1270A,117.1959,31.7848,合肥市,明珠广场,,23,19,19,3,8,71,,45,45,13,14,6,7,0.5,0.5
2025-08-23T1000,1271A,117.3072,31.8764,合肥市,三里街,,41,41,22,12,8,68,,46,46,17,14,4,5,0.4,0.4
2025-08-23T1000,1272A,117.2588,31.8707,合肥市,琥珀山庄,,29,27,23,12,11,91,,60,60,12,11,7,7,0.4,0.4
2025-08-23T1000,1273A,117.1604,31.9052,合肥市,董铺水库,,24,24,19,7,8,66,,45,45,13,8,4,4,0.3,0.3
2025-08-23T1000,1274A,117.25,31.8571,合肥市,长江中路,,26,24,22,3,6,82,,50,50,14,13,7,7,0.4,0.4
2025-08-23T1000,1275A,117.266,31.9436,合肥市,庐阳区,,27,17,24,3,6,86,,54,54,12,13,6,6,0.3,0.4
2025-08-23T1000,1276A,117.3453,31.8616,合肥市,瑶海区,,24,24,20,3,7,74,,50,50,14,12,6,6,0.5,0.5
2025-08-23T1000,1277A,117.3027,31.7964,合肥市,包河区,,24,14,18,3,6,74,,54,54,8,6,11,11,0.5,0.5
2025-08-23T1000,1278A,117.2776,31.7385,合肥市,滨湖新区,,23,12,18,12,11,71,,50,50,6,6,5,4,0.4,0.4
2025-08-23T1000,1279A,117.1318,31.8403,合肥市,高新区,,26,17,21,3,8,81,,55,55,14,15,5,5,0.4,0.4
2025-08-23T1000,3464A,117.3803,31.9147,合肥市,高教基地,,24,22,18,3,9,75,,53,53,12,10,5,5,0.4,0.4
2025-08-23T1000,3614A,79.924,37.0877,和田地区,地区环保局,颗粒物(PM10),500,930,876,224,171,54,,86,74,21,6,2,2,0.3,0.5
2025-08-23T1000,3615A,79.9131,37.113,和田地区,市环保局,颗粒物(PM10),500,1035,662,191,133,31,,76,61,36,14,1,2,0.4,0.2
2025-08-23T1000,2516A,108.2011,24.715,河池市,东仁乐园,,,,,,,,,,,,,,,,
2025-08-23T1000,2517A,108.0497,24.6947,河池市,市环保站,,34,34,25,13,11,34,,13,13,10,9,9,5,0.6,0.5
2025-08-23T1000,2518A,108.0983,24.6989,河池市,市疾控中心,,29,29,25,14,12,24,,7,7,13,14,9,7,0.6,0.6
2025-08-23T1000,1696A,114.6778,23.7569,河源市,源西,,28,28,24,15,13,38,,15,15,8,14,8,6,0.7,0.8
2025-08-23T1000,1697A,114.6944,23.7586,河源市,东埔,,32,32,24,18,17,49,,18,18,13,14,10,6,0.5,0.5
2025-08-23T1000,1698A,114.6892,23.7233,河源市,老城,,,24,28,18,16,,,12,12,9,14,,6,0.6,0.6
2025-08-23T1000,1718A,115.4208,35.2464,菏泽市,气象局,,29,29,38,16,17,91,,71,71,12,12,4,4,0.3,0.3
2025-08-23T1000,3374A,115.5564,35.0891,菏泽市,定陶老年大学,,27,27,26,7,6,77,,56,56,8,8,6,5,0.4,0.4
2025-08-23T1000,4184A,115.4797,35.24401,菏泽市,永昌路1号,,40,40,38,17,18,89,,63,63,13,15,9,10,0.4,0.3
2025-08-23T1000,4193A,115.4715,35.2800,菏泽市,长城路999号,,38,38,36,17,12,90,,61,60,16,15,6,6,0.6,0.6
2025-08-23T1000,2514A,111.5264,24.4172,贺州市,环保小区,,25,25,23,11,13,45,,19,19,10,10,14,13,0.6,0.5
2025-08-23T1000,2515A,111.5608,24.4078,贺州市,政协大楼,,22,,19,15,12,38,,9,9,7,11,5,12,0.5,0.6
2025-08-23T1000,3534A,111.4744,24.4553,贺州市,西湾,,35,35,28,18,13,44,,19,19,12,12,10,8,0.4,0.4
2025-08-23T1000,2385A,114.17,35.9019,鹤壁市,市监测站,,47,47,43,27,25,94,,67,67,11,11,8,7,0.8,0.8
2025-08-23T1000,2386A,114.2956,35.7511,鹤壁市,市交警支队,,40,36,42,28,28,99,,69,69,13,14,12,10,0.7,0.9
2025-08-23T1000,2387A,114.2878,35.7306,鹤壁市,迎宾馆,颗粒物(PM10),54,58,47,28,28,106,,74,74,13,12,6,9,1.0,1
2025-08-23T1000,3474A,114.2617,35.6822,鹤壁市,大新区,颗粒物(PM10),57,63,45,24,19,102,,73,73,9,7,13,10,1.2,1
2025-08-23T1000,3596A,114.1572,35.9603,鹤壁市,南山宾馆,,32,29,48,21,23,102,,85,85,14,13,8,7,0.8,0.9
2025-08-23T1000,2244A,130.2537,47.3416,鹤岗市,哈啤分公司,,19,15,17,3,5,59,,46,46,3,4,12,12,0.4,0.4
2025-08-23T1000,2245A,130.2684,47.3086,鹤岗市,斯达机电,,19,9,15,3,7,58,,54,51,6,5,12,12,0.5,0.4
2025-08-23T1000,2246A,130.3114,47.3388,鹤岗市,东山纸板厂,,25,21,13,17,13,66,,46,46,7,7,12,13,0.5,0.5
2025-08-23T1000,2247A,130.1097,47.3382,鹤岗市,五号水库,,18,6,6,3,4,55,,40,38,6,7,6,6,0.4,0.4
2025-08-23T1000,2263A,127.4833,50.2524,黑河市,交通局,,18,15,16,3,7,55,,,,7,14,5,5,0.5,0.5
2025-08-23T1000,2264A,127.5144,50.2341,黑河市,环保局,,17,7,12,7,10,54,,54,54,6,7,5,3,0.3,0.4
2025-08-23T1000,2265A,127.5291,50.2472,黑河市,大黑河岛,,,,,2,6,39,,36,36,2,2,21,21,0.3,0.5
2025-08-23T1000,1074A,115.6838,37.7541,衡水市,电机北厂,,35,35,35,9,17,78,,63,63,11,14,5,6,0.4,0.5
2025-08-23T1000,1075A,115.6303,37.7316,衡水市,市监测站,颗粒物(PM10),51,52,43,15,15,76,,60,60,11,10,4,5,0.4,0.5
2025-08-23T1000,3188A,115.6683,37.7217,衡水市,市城管局,,34,34,34,15,18,79,,77,73,10,10,7,8,0.3,0.4
2025-08-23T1000,3459A,115.5989,37.5491,衡水市,地表水厂,,28,28,40,17,14,89,,66,66,9,11,2,2,0.3,0.3
2025-08-23T1000,2456A,112.5003,26.9167,衡阳市,原169医院,,38,38,22,9,9,64,,23,23,2,4,3,3,0.6,0.5
2025-08-23T1000,2457A,112.6194,26.9258,衡阳市,衡阳化工总厂,,42,42,31,25,17,64,,17,17,14,13,15,8,1.1,1.1
2025-08-23T1000,2458A,112.6211,26.8956,衡阳市,珠晖区环保局,,,58,28,,12,62,,22,22,11,13,14,16,0.9,0.6
2025-08-23T1000,2459A,112.6197,26.8733,衡阳市,市委党校,,26,26,22,16,13,57,,19,19,12,14,13,14,0.4,0.4
2025-08-23T1000,2460A,112.6006,26.8919,衡阳市,市监测站,颗粒物(PM10),53,55,28,28,18,64,,25,25,17,14,26,14,1.4,1.5
2025-08-23T1000,2461A,112.5664,26.9056,衡阳市,真空机电公司,颗粒物(PM10),57,64,23,14,12,58,,21,21,12,11,22,10,1.1,0.9
2025-08-23T1000,3399A,112.6703,26.882,衡阳市,师范学院,,,59,36,16,16,57,,18,18,10,11,,9,0.9,0.8
2025-08-23T1000,2608A,103.3772,23.3993,红河哈尼族彝族自治州,污水处理厂,,22,18,19,15,17,38,,35,35,8,7,7,8,0.3,0.3
2025-08-23T1000,2609A,103.3861,23.35,红河哈尼族彝族自治州,监测站,,26,26,26,7,10,36,,34,34,6,4,9,9,0.2,0.2
2025-08-23T1000,3038A,103.3758,23.368,红河哈尼族彝族自治州,州图书馆,,35,,10,24,17,38,,40,39,7,6,1,2,0.3,0.3
2025-08-23T1000,1090A,111.6507,40.7517,呼和浩特市,呼市一监,,29,24,37,20,14,77,,56,56,13,15,2,3,0.5,0.4
2025-08-23T1000,1091A,111.6572,40.8033,呼和浩特市,小召,,36,36,38,17,14,79,,79,76,19,22,9,10,0.5,0.5
2025-08-23T1000,1094A,111.7516,40.8369,呼和浩特市,如意水处理厂,,34,34,36,14,13,81,,65,65,17,24,7,6,0.4,0.4
2025-08-23T1000,1095A,111.7276,40.8062,呼和浩特市,二十九中,,42,42,43,22,14,69,,73,73,15,17,6,7,0.7,0.6
2025-08-23T1000,1096A,111.5512,40.7866,呼和浩特市,工大金川校区,,41,41,39,19,15,73,,52,52,21,25,6,6,0.4,0.4
2025-08-23T1000,1097A,111.717,40.7612,呼和浩特市,化肥厂生活区,,42,42,41,19,16,68,,62,62,18,20,6,7,0.5,0.4
2025-08-23T1000,3698A,111.5968,40.8178,呼和浩特市,红旗小学,,41,41,41,21,14,65,,74,63,27,22,4,5,0.3,0.3
2025-08-23T1000,3699A,111.6518,40.8389,呼和浩特市,海东办,颗粒物(PM10),51,51,45,22,14,62,,86,77,30,21,7,6,0.5,0.5
2025-08-23T1000,2192A,119.7594,49.2261,呼伦贝尔市,区环保局,,23,16,19,16,13,32,,38,35,10,8,5,5,0,0.4
2025-08-23T1000,3061A,119.7512,49.1577,呼伦贝尔市,国华电力东,,15,15,13,3,8,40,,40,38,3,2,9,8,0.6,0.6
2025-08-23T1000,1250A,120.0751,30.8669,湖州市,城西水厂,,31,24,27,13,17,99,,55,55,17,24,7,8,0.4,0.4
2025-08-23T1000,2873A,120.0830,30.8929,湖州市,仁皇山新区,,25,20,25,10,14,80,,41,41,8,17,5,5,0.3,0.3
2025-08-23T1000,2907A,120.1844,30.8596,湖州市,吴兴区站,,29,21,25,12,14,90,,52,52,8,13,7,7,0.5,0.5
2025-08-23T1000,3562A,120.4148,30.8538,湖州市,南浔区站,,35,32,38,19,23,109,,64,62,11,12,8,7,0.7,0.7
2025-08-23T1000,1607A,120.9049,40.7211,葫芦岛市,龙港区,,35,35,49,19,21,88,,66,65,26,15,6,5,0.9,0.7
2025-08-23T1000,1608A,120.8392,40.7514,葫芦岛市,化工街,颗粒物(PM10),54,58,28,19,13,30,,20,18,56,32,3,8,0.8,0.6
2025-08-23T1000,1609A,120.8341,40.7073,葫芦岛市,新区,,35,35,29,22,24,61,,36,34,37,23,2,2,0.7,0.8
2025-08-23T1000,1610A,120.8695,40.7677,葫芦岛市,东城区,颗粒物(PM10),52,54,37,22,26,47,,24,24,50,35,10,8,1.2,0.7
2025-08-23T1000,2482A,109.5981,27.5721,怀化市,林科所,,24,24,20,6,5,46,,36,36,4,5,3,4,0.5,0.6
2025-08-23T1000,2483A,109.9453,27.5444,怀化市,河西地税局,,29,29,21,14,11,46,,22,22,4,8,2,2,0.0,0
2025-08-23T1000,2484A,109.9781,27.5342,怀化市,市四医院,,44,44,28,19,13,37,,21,21,14,9,7,5,0.6,0.4
2025-08-23T1000,2485A,109.9972,27.5578,怀化市,监测楼,,30,30,22,14,11,45,,26,26,12,9,6,4,0.3,0.2
2025-08-23T1000,2486A,110.0394,27.583,怀化市,市委党校,,26,26,20,13,12,38,,19,19,9,8,9,7,0.4,0.2
2025-08-23T1000,1210A,119.036,33.5981,淮安市,钵池山,,32,22,29,22,23,102,,77,74,6,9,4,4,0.6,0.8
2025-08-23T1000,1211A,119.007,33.575,淮安市,北京南路,,32,29,35,13,22,102,,71,67,9,12,7,7,0.6,0.7
2025-08-23T1000,1212A,118.989,33.6067,淮安市,市监测站,,32,29,34,19,23,101,,83,75,10,10,10,10,0.7,0.6
2025-08-23T1000,1213A,119.135,33.5039,淮安市,楚州区监测站,,46,46,52,24,25,97,,59,58,13,18,8,7,0.7,0.7
2025-08-23T1000,3426A,118.8755,33.2894,淮安市,新华书店,,30,26,27,14,16,96,,55,55,10,15,5,6,0.2,0.3
2025-08-23T1000,4206A,119.0288,33.6319,淮安市,承德北路606号,,34,34,42,22,23,98,,76,72,8,13,8,7,0.4,0.5
2025-08-23T1000,2282A,116.8004,33.975,淮北市,监测站,,42,42,24,8,18,114,,67,67,3,6,10,8,0.7,0.6
2025-08-23T1000,2283A,116.8091,33.9007,淮北市,烈山区政府,,,,32,,7,,,99,,,14,,10,,0.5
2025-08-23T1000,3330A,116.8873,33.9836,淮北市,杜集区检察院,,34,30,26,15,15,106,,52,52,8,9,10,9,0.7,0.7
2025-08-23T1000,4017A,116.7923,33.9535,淮北市,市博物馆,颗粒物(PM10),52,53,25,18,13,112,,58,58,10,12,12,10,0.5,0.5
2025-08-23T1000,2277A,116.8305,32.7727,淮南市,潘集区政府,,,29,25,,7,67,,33,33,15,14,6,5,0.3,0.3
2025-08-23T1000,2279A,116.8569,32.5951,淮南市,谢家集区政府,,21,13,25,11,9,66,,34,34,6,11,7,7,0.1,0.1
2025-08-23T1000,2280A,116.8281,32.633,淮南市,八公山区政府,,24,24,27,11,11,67,,34,34,8,11,4,5,0.3,0.3
2025-08-23T1000,2281A,116.6325,32.6201,淮南市,焦岗湖风景区管理处,,,,,,,,,,,,,,,,
2025-08-23T1000,2894A,117.0566,32.6531,淮南市,经济技术开发区消防队,,22,21,24,3,5,70,,38,38,14,15,9,9,0.3,0.3
2025-08-23T1000,3329A,117.0108,32.5893,淮南市,山南新区,,22,21,19,8,6,68,,36,36,12,12,5,5,0.5,0.4
2025-08-23T1000,4209A,117.0031,32.6445,淮南市,国庆中路369号,,31,31,27,11,14,73,,39,39,11,10,4,4,0.5,0.5
2025-08-23T1000,2446A,114.9028,30.4742,黄冈市,职工中心,,23,17,12,16,10,53,,38,38,13,10,10,9,0.7,0.4
2025-08-23T1000,2929A,114.8858,30.4519,黄冈市,红卫路,,22,20,16,15,11,50,,33,33,15,12,11,11,0.5,0.4
2025-08-23T1000,3398A,114.9136,30.4445,黄冈市,市林业局,,24,24,18,15,9,50,,34,34,12,10,9,9,0.3,0.3
2025-08-23T1000,2672A,102.0199,35.5102,黄南藏族自治州,同仁县隆务镇,,23,23,19,15,8,62,,50,50,4,4,9,9,0.4,0.3
2025-08-23T1000,2295A,118.2903,29.6963,黄山市,延安路89号,,27,27,21,15,7,38,,14,14,6,5,4,4,0.4,0.3
2025-08-23T1000,2297A,118.1371,30.2756,黄山市,黄山区政府5号楼,,24,24,18,11,8,44,,14,14,3,5,4,4,0.5,0.5
2025-08-23T1000,4210A,118.3354,29.7203,黄山市,滨江东路7-2号,,18,18,20,3,4,33,,17,17,5,4,2,2,0.3,0.3
2025-08-23T1000,2423A,115.0601,30.2313,黄石市,沈家营,,42,42,33,7,6,46,,14,14,17,16,10,9,0.9,0.7
2025-08-23T1000,2426A,114.8988,30.2019,黄石市,铁山,,15,15,16,10,4,42,,19,19,7,10,6,4,0.6,0.6
2025-08-23T1000,2427A,115.0307,30.2092,黄石市,团城山,,19,19,19,3,1,5,,12,5,7,11,8,8,0.5,0.6
2025-08-23T1000,3149A,115.0235,30.1578,黄石市,笔架山北路,,22,22,15,3,2,46,,20,20,14,11,8,7,0.6,0.6
2025-08-23T1000,4185A,115.0780,30.21118,黄石市,磁湖东路29号,,37,37,34,7,7,43,,19,19,17,16,13,12,1.1,0.8
2025-08-23T1000,1392A,114.4183,23.0528,惠州市,河南岸金山湖子站,,27,27,26,14,16,60,,28,28,14,14,10,8,0.6,0.5
2025-08-23T1000,1393A,114.4053,23.0822,惠州市,下埔横江三路子站,,35,35,28,20,15,65,,32,32,11,12,9,6,0.4,0.3
2025-08-23T1000,1394A,114.4103,23.1142,惠州市,江北云山西路子站,,,26,27,15,16,70,,,,,15,11,9,0.9,0.6
2025-08-23T1000,1395A,114.4645,22.7833,惠州市,惠阳区承修路船湖子站,,27,27,36,14,18,68,,22,22,13,18,8,8,0.6,0.6
2025-08-23T1000,1396A,114.5317,22.7422,惠州市,大亚湾管委会子站,,32,32,33,16,18,86,,31,31,22,25,10,8,0.5,0.4
2025-08-23T1000,3314A,114.4338,22.8134,惠州市,惠阳秋长,,27,27,31,13,15,75,,30,30,11,18,8,8,0.5,0.6
2025-08-23T1000,3452A,114.6517,22.775,惠州市,大亚湾霞涌,,23,,21,16,14,65,,37,37,11,14,6,6,0.5,0.3
2025-08-23T1000,2240A,130.9762,45.3001,鸡西市,环保局,,22,18,10,10,5,68,,40,40,8,10,6,7,0.5,0.5
2025-08-23T1000,2243A,130.9429,45.3039,鸡西市,第一中学,,22,18,10,3,6,68,,42,42,6,8,9,8,0.6,0.6
2025-08-23T1000,3707A,131.0207,45.3073,鸡西市,欧美日汽修厂,,28,28,16,3,8,48,,26,26,21,13,12,11,0.7,0.6
2025-08-23T1000,3709A,130.9967,45.3106,鸡西市,市政设施管理处,,28,28,12,12,5,49,,26,26,24,18,8,7,0.7,0.7
2025-08-23T1000,2367A,114.9754,27.0803,吉安市,红声器材厂,,33,33,33,22,15,64,,34,34,4,7,8,8,0.6,0.6
2025-08-23T1000,2368A,114.9658,27.0999,吉安市,市森林工业局,,28,28,30,10,14,72,,38,38,6,8,10,9,0.4,0.4
2025-08-23T1000,2369A,114.99,27.1312,吉安市,市环境监测站,,28,28,26,13,13,84,,47,47,3,5,11,12,0.5,0.5
2025-08-23T1000,2370A,115.0093,27.0968,吉安市,青原区法院,,30,30,29,17,15,66,,40,40,16,11,16,10,0.5,0.5
2025-08-23T1000,1772A,126.54,43.8622,吉林市,哈达湾,,30,22,21,13,12,96,,63,63,6,8,7,7,0.4,0.4
2025-08-23T1000,1773A,126.5844,43.8358,吉林市,东局子,,,13,19,13,9,,,41,41,7,9,6,5,0.7,0.7
2025-08-23T1000,1774A,126.5052,43.8245,吉林市,电力学院,,27,18,18,9,10,86,,51,51,4,9,6,6,0.7,0.7
2025-08-23T1000,1775A,126.6133,43.8972,吉林市,江北,,25,20,17,8,10,78,,49,49,6,7,5,4,0.6,0.5
2025-08-23T1000,1776A,126.555,43.8306,吉林市,江南公园,,28,20,18,13,7,89,,56,56,6,7,2,2,0.4,0.4
2025-08-23T1000,1778A,126.7061,43.7133,吉林市,丰满,,27,14,15,10,10,85,,56,56,5,4,4,5,0.8,0.8
2025-08-23T1000,2868A,126.4739,43.953,吉林市,九站,,30,27,15,16,11,93,,62,62,8,12,3,3,0.5,0.5
2025-08-23T1000,1299A,116.9862,36.6114,济南市,科干所,,46,46,26,22,17,57,,47,43,32,18,6,6,0.6,0.5
2025-08-23T1000,1300A,116.9376,36.665,济南市,农科所,,42,42,23,15,9,42,,22,22,34,24,8,8,0.4,0.3
2025-08-23T1000,1301A,117.1265,36.6734,济南市,开发区,,49,49,26,22,16,67,,28,28,32,23,7,7,0.7,0.6
2025-08-23T1000,1303A,117.0624,36.6868,济南市,省种子仓库,颗粒物(PM10),53,56,29,14,9,66,,30,30,29,23,5,5,0.7,0.6
2025-08-23T1000,1304A,116.9489,36.6447,济南市,机床二厂,,46,46,28,15,11,52,,35,34,35,23,9,9,0.4,0.4
2025-08-23T1000,1305A,117.0495,36.663,济南市,市监测站,,49,49,26,20,14,61,,28,28,33,23,9,9,0.8,0.7
2025-08-23T1000,1306A,116.7675,36.5484,济南市,长清党校,,29,27,26,20,14,77,,41,41,12,22,6,6,0.6,0.6
2025-08-23T1000,1616A,117.6795,36.229,济南市,技术学院,颗粒物(PM10),52,53,24,27,13,114,,59,59,17,16,16,10,0.9,0.8
2025-08-23T1000,1961A,117.532,36.6868,济南市,东山小学,颗粒物(PM10),58,66,36,29,17,82,,42,42,45,23,8,6,0.7,0.3
2025-08-23T1000,3059A,117.7161,36.2049,济南市,泰兴公司,颗粒物(PM10),52,53,25,27,13,105,,49,49,21,17,20,12,1.0,0.7
2025-08-23T1000,3064A,117.6867,36.2171,济南市,莱芜战役纪念馆,颗粒物(PM10),54,58,27,33,16,92,,48,48,23,18,8,8,1.1,0.7
2025-08-23T1000,3494A,117.1673,36.9782,济南市,济阳区政府,颗粒物(PM10),55,59,33,32,11,74,,54,52,10,8,6,7,0.5,0.3
2025-08-23T1000,3495A,117.1171,36.63,济南市,锦屏中学,,42,42,22,20,10,55,,30,30,35,17,9,8,0.8,0.6
2025-08-23T1000,3682A,116.9814,36.6819,济南市,济南四建,,39,39,22,17,13,66,,30,30,28,22,6,5,0.6,0.5
2025-08-23T1000,1653A,116.6251,35.4302,济宁市,火炬城,,34,8,24,7,6,107,,74,74,4,5,8,5,0.7,0.6
2025-08-23T1000,1655A,116.5491,35.4042,济宁市,电化厂,,36,17,29,12,9,115,,79,79,6,6,6,3,1.0,0.8
2025-08-23T1000,3500A,116.5814,35.3707,济宁市,北湖一中,,35,17,25,3,7,109,,73,73,3,3,12,8,0.4,0.2
2025-08-23T1000,3501A,116.8249,35.5593,济宁市,服务中心,,48,48,29,3,4,102,,65,65,7,8,4,3,0.5,0.4
2025-08-23T1000,3678A,116.5907,35.4054,济宁市,市第七中学,,35,21,24,3,2,109,,78,78,5,4,11,8,0.6,0.4
2025-08-23T1000,2255A,130.2751,46.8028,佳木斯市,佳纺,,12,,9,7,5,36,,36,36,14,9,9,9,0.4,0.4
2025-08-23T1000,2256A,130.3995,46.8307,佳木斯市,发电厂,,,,11,,6,49,,38,37,17,11,7,8,0.7,0.5
2025-08-23T1000,2257A,130.3258,46.7975,佳木斯市,环保局,,18,18,11,3,7,48,,39,39,12,12,9,8,0.8,0.6
2025-08-23T1000,2258A,130.3648,46.8032,佳木斯市,十一中,,15,8,7,7,7,48,,36,35,11,9,10,10,0.6,0.6
2025-08-23T1000,2259A,130.3794,46.7588,佳木斯市,四丰,,,10,6,,,6,,5,5,6,11,379,40,0.4,0.4
2025-08-23T1000,1252A,120.7436,30.778,嘉兴市,清河小学,,37,37,32,17,16,116,,55,55,14,17,7,7,0.8,0.7
2025-08-23T1000,1253A,120.726,30.7478,嘉兴市,嘉兴学院,,37,28,27,15,15,116,,47,47,10,17,6,6,0.2,0.4
2025-08-23T1000,2872A,120.7846,30.7525,嘉兴市,南湖区残联,,37,29,30,17,20,117,,56,56,11,17,6,7,0.5,0.6
2025-08-23T1000,3407A,120.6916,30.7739,嘉兴市,秀洲住建,,38,35,32,22,18,119,,55,55,10,14,7,7,0.7,0.7
2025-08-23T1000,1945A,98.2908,39.7711,嘉峪关市,气象局,颗粒物(PM10),62,73,28,17,9,109,,115,113,14,13,16,12,0.6,0.7
2025-08-23T1000,2884A,98.2672,39.7978,嘉峪关市,酒钢宾馆,颗粒物(PM10),71,92,39,29,14,113,,108,106,12,9,39,33,0.8,0.8
2025-08-23T1000,3248A,98.2643,39.7724,嘉峪关市,雄关区,颗粒物(PM10),59,68,31,21,17,100,,101,100,19,15,22,16,0.5,0.5
2025-08-23T1000,1383A,113.1064,22.6058,江门市,北街,颗粒物(PM10),52,54,23,32,14,98,,30,30,35,18,6,4,0.6,0.5
2025-08-23T1000,1384A,113.0731,22.5835,江门市,西区,,,,28,,11,,,64,,,20,,7,,0.7
2025-08-23T1000,1385A,113.0219,22.5311,江门市,圭峰西,,50,50,22,32,10,111,,40,40,23,9,4,2,0.7,0.5
2025-08-23T1000,1386A,113.0828,22.5947,江门市,东湖,,50,50,23,18,13,94,,24,24,29,18,11,8,0.5,0.5
2025-08-23T1000,3311A,113.1075,22.5647,江门市,江海富民,,36,36,31,12,11,112,,33,33,25,16,7,4,0.3,0.2
2025-08-23T1000,3449A,113.05,22.4667,江门市,新会银湖,,46,46,28,26,15,100,,18,18,22,16,5,3,0.6,0.4
2025-08-23T1000,1830A,113.1992,35.2590,焦作市,影视城,,,,29,,11,,,,,,8,,9,,0.9
2025-08-23T1000,3335A,113.3137,35.2641,焦作市,马村街道办,,39,39,41,21,21,106,,95,93,10,10,11,7,0.7,0.7
2025-08-23T1000,3336A,113.2465,35.2373,焦作市,焦作技师学院,,40,40,44,19,15,109,,96,94,12,14,11,6,1.0,0.9
2025-08-23T1000,3477A,113.1656,35.2539,焦作市,中站许衡医院,,39,39,38,22,22,115,,106,102,11,10,8,7,0.7,0.7
2025-08-23T1000,3981A,113.2449,35.1803,焦作市,原李万街道办,,37,37,44,14,15,105,,98,94,12,11,15,15,0.5,0.6
2025-08-23T1000,4264A,113.2340,35.2190,焦作市,新安路1731号,,36,35,42,21,18,114,,100,97,11,9,12,8,0.7,0.6
2025-08-23T1000,4295A,113.2722,35.2121,焦作市,人民路3066号,,,57,43,24,22,,,88,84,15,9,10,5,0.9,0.6
2025-08-23T1000,1708A,116.3701,23.5345,揭阳市,新兴,颗粒物(PM10),57,64,53,30,27,87,,26,26,14,23,8,8,0.5,0.7
2025-08-23T1000,1709A,116.3264,23.5443,揭阳市,西马,颗粒物(PM10),58,65,54,29,28,90,,18,18,12,22,7,3,0.7,0.8
2025-08-23T1000,1710A,116.3611,23.5626,揭阳市,东兴,颗粒物(PM10),56,61,59,24,28,89,,27,27,13,23,9,6,0.6,0.8
2025-08-23T1000,1711A,116.4151,23.5294,揭阳市,渔湖,颗粒物(PM10),57,63,58,27,26,88,,23,23,13,25,8,10,0.7,0.8
2025-08-23T1000,3320A,116.403,23.5699,揭阳市,曲溪,颗粒物(PM10),54,58,47,31,28,89,,29,29,16,22,9,5,0.5,0.6
2025-08-23T1000,1944A,102.1692,38.5167,金昌市,天庆家园,,29,14,28,3,10,91,,39,39,10,16,11,7,0.6,0.7
2025-08-23T1000,4022A,102.1647,38.5371,金昌市,金川区人防中心,,45,45,25,16,13,69,,24,23,12,12,19,17,0.5,0.6
2025-08-23T1000,4239A,102.1930,38.5319,金昌市,长春路96号,,,21,26,7,10,,,22,17,10,13,17,43,0.5,0.6
2025-08-23T1000,1262A,119.647,29.077,金华市,十五中,,30,30,23,15,12,82,,41,41,15,13,7,4,0.6,0.4
2025-08-23T1000,1263A,119.686,29.1029,金华市,监测站,,30,30,21,14,12,80,,41,41,17,14,7,5,0.6,0.5
2025-08-23T1000,3659A,119.656,29.1131,金华市,气象局,,24,24,20,9,10,67,,37,37,19,16,5,4,0.8,0.6
2025-08-23T1000,1767A,121.1115,41.0879,锦州市,南山,细颗粒物(PM2.5),74,,33,54,21,62,,22,22,20,21,3,6,1.7,0.8
2025-08-23T1000,1768A,121.0604,40.8428,锦州市,开发区,颗粒物(PM10),81,112,62,44,27,81,,47,46,42,34,2,8,1.6,1.1
2025-08-23T1000,1769A,121.1836,41.1119,锦州市,百股街道,,45,41,30,31,14,98,,37,37,24,18,10,8,1.1,0.8
2025-08-23T1000,1770A,121.1178,41.1222,锦州市,天安街道,细颗粒物(PM2.5),54,52,48,38,21,79,,27,27,23,33,30,13,1.8,1.1
2025-08-23T1000,1771A,121.1303,41.1386,锦州市,北湖公园,,,75,36,34,19,,,21,21,,18,,7,,0.9
2025-08-23T1000,2160A,112.85,35.5051,晋城市,自来水公司,,36,36,46,14,20,94,,90,85,9,11,5,5,0.4,0.6
2025-08-23T1000,2161A,112.8318,35.4936,晋城市,白云商贸,,30,30,38,3,14,92,,82,78,6,8,5,5,0.5,0.6
2025-08-23T1000,2162A,112.8508,35.4887,晋城市,市环保局,,37,37,39,17,18,76,,69,66,6,9,2,2,0.5,0.6
2025-08-23T1000,2163A,112.8676,35.4897,晋城市,技术学院,,40,40,40,12,16,81,,79,74,8,10,3,4,0.7,0.7
2025-08-23T1000,2165A,112.8453,35.546,晋城市,白马寺,,39,,28,27,21,99,,106,100,4,5,6,7,0.6,0.7
2025-08-23T1000,3620A,112.8271,35.4828,晋城市,泽州一中,,47,47,43,14,17,91,,81,78,5,9,3,3,0.6,0.7
2025-08-23T1000,2173A,112.7249,37.7067,晋中市,南都小区,,23,22,29,14,16,71,,81,79,14,12,7,6,0.5,0.6
2025-08-23T1000,2174A,112.6991,37.6982,晋中市,榆次区政府,,33,,24,23,15,74,,76,76,13,12,4,5,0.5,0.7
2025-08-23T1000,2865A,112.7195,37.6828,晋中市,榆次三中,,24,12,19,3,9,74,,86,83,11,9,5,7,0.6,0.6
2025-08-23T1000,4200A,112.7478,37.6954,晋中市,迎宾街26号,,22,17,19,7,6,69,,85,82,13,10,7,8,0.3,0.5
2025-08-23T1000,2439A,112.2014,31.0481,荆门市,竹园小学,,47,47,26,20,12,30,,29,26,12,10,5,5,0.7,0.6
2025-08-23T1000,2440A,112.1969,30.9891,荆门市,掇刀,颗粒物(PM10),52,54,25,17,11,35,,25,23,12,11,1,1,0.5,0.5
2025-08-23T1000,2441A,112.2213,31.0386,荆门市,石化一小,,49,49,26,15,11,36,,27,25,14,13,4,6,0.9,0.8
2025-08-23T1000,3012A,112.1849,31.0362,荆门市,西山林语,,46,46,22,21,12,31,,30,27,10,8,1,2,0.4,0.4
2025-08-23T1000,3547A,112.1632,31.0138,荆门市,龙泉中学南校,,39,,21,27,13,33,,32,30,11,10,4,4,0.7,0.7
2025-08-23T1000,1844A,112.2494,30.3197,荆州市,市图书馆,,45,45,17,13,12,52,,31,31,7,8,4,4,0.5,0.5
2025-08-23T1000,1845A,112.2008,30.3544,荆州市,市委党校,,16,16,17,3,12,49,,28,28,9,11,5,5,0.4,0.4
2025-08-23T1000,3194A,112.2747,30.3122,荆州市,管委会,,23,,16,16,13,50,,29,29,5,8,6,6,0.5,0.5
2025-08-23T1000,4268A,112.1722,30.3366,荆州市,学苑路85号,,25,25,35,16,13,51,,29,29,4,5,6,6,0.3,0.4
2025-08-23T1000,2342A,117.3102,29.3867,景德镇市,王港中学,,,,,,,,,,,,,,,,
2025-08-23T1000,2343A,117.2117,29.2933,景德镇市,老干部活动中心,,18,18,17,8,10,28,,29,24,7,7,7,9,0.6,0.6
2025-08-23T1000,2344A,117.1894,29.2789,景德镇市,兽医站,,17,17,24,6,10,32,,29,27,7,10,4,7,0.8,0.8
2025-08-23T1000,2346A,117.2461,29.2956,景德镇市,陶研所,,20,20,20,6,7,29,,26,23,9,8,8,8,0.4,0.5
2025-08-23T1000,4289A,117.1542,29.2566,景德镇市,青少年活动中心,,16,15,20,11,11,31,,24,24,8,13,4,7,0.6,0.6
2025-08-23T1000,1803A,115.9872,29.6815,九江市,十里,,,29,17,18,12,,,14,14,19,17,6,4,0.7,0.6
2025-08-23T1000,1804A,115.9584,29.7046,九江市,茅山头,,23,23,17,14,12,44,,19,19,11,12,3,4,0.6,0.4
2025-08-23T1000,1805A,115.9877,29.7295,九江市,西园,,23,23,15,12,8,41,,22,22,21,19,5,5,0.7,0.5
2025-08-23T1000,1808A,115.9114,29.6038,九江市,综合工业园,,19,15,16,9,9,58,,30,30,14,16,8,6,0.8,0.7
2025-08-23T1000,1809A,116.0721,29.7535,九江市,石化总厂,,16,16,17,11,19,47,,32,32,12,14,6,6,0.4,0.4
2025-08-23T1000,1810A,115.9773,29.5698,九江市,庐山气象台,,15,6,5,3,3,47,,53,50,4,3,6,6,0.9,0.8
2025-08-23T1000,3190A,116.0254,29.6994,九江市,外国语学校,,20,20,13,13,12,48,,25,25,11,13,8,7,0.9,0.8
2025-08-23T1000,4253A,116.0102,29.6594,九江市,莲花大道8号,,19,19,9,9,9,36,,13,13,14,9,5,5,0.5,0.4
2025-08-23T1000,4240A,98.4958,39.7339,酒泉市,玉门东路5号,颗粒物(PM10),65,80,42,26,24,77,,102,85,26,12,8,10,0.3,0.4
2025-08-23T1000,4241A,98.5099,39.7506,酒泉市,北大街108号,颗粒物(PM10),62,73,41,25,19,76,,90,77,24,11,10,13,0.3,0.5
2025-08-23T1000,2698A,76.0072,39.4467,喀什地区,巡警大队,颗粒物(PM10),99,148,202,52,69,74,,52,52,26,24,4,3,0.3,0.3
2025-08-23T1000,2699A,75.9755,39.4694,喀什地区,吾办,颗粒物(PM10),121,192,221,63,68,60,,42,40,33,23,8,8,0.4,0.4
2025-08-23T1000,4027A,75.9483,39.4689,喀什地区,老干局,颗粒物(PM10),117,183,207,44,54,76,,37,37,20,23,5,5,0.2,0.2
2025-08-23T1000,1824A,114.3389,34.7781,开封市,肿瘤医院,,45,45,42,22,15,93,,57,57,18,15,5,3,0.6,0.5
2025-08-23T1000,1826A,114.2885,34.7965,开封市,世纪星幼儿园,,41,41,38,27,18,95,,58,58,11,10,6,4,0.7,0.6
2025-08-23T1000,3147A,114.3438,34.8106,开封市,龙亭公园,颗粒物(PM10),51,52,38,15,8,82,,54,54,10,8,9,4,0.7,0.7
2025-08-23T1000,3210A,114.3644,34.7964,开封市,汴京公园,,47,47,43,26,23,94,,58,58,11,11,5,4,0.6,0.5
2025-08-23T1000,3473A,114.2485,34.8306,开封市,技师学院,,44,44,37,24,20,90,,58,58,10,7,4,3,0.8,0.7
2025-08-23T1000,3592A,114.4644,34.7556,开封市,祥符区生态环境局,,38,38,38,24,17,71,,44,44,11,16,4,3,0.6,0.6
2025-08-23T1000,1951A,84.895,45.6094,克拉玛依市,长征新村,,31,31,23,3,11,47,,66,63,22,13,4,4,0.4,0.3
2025-08-23T1000,1952A,84.8988,45.5893,克拉玛依市,南林小区,,43,43,38,12,11,31,,41,41,25,22,6,6,0.1,0.1
2025-08-23T1000,1954A,84.905,44.3396,克拉玛依市,独山子区,,40,40,18,3,7,28,,91,78,45,12,10,10,0.6,0.3
2025-08-23T1000,1955A,85.6979,46.098,克拉玛依市,乌尔禾区商贸楼,,50,50,21,20,8,20,,42,36,32,18,8,7,0.3,0.2
2025-08-23T1000,3612A,85.1045,45.6899,克拉玛依市,白碱滩区新站,,29,29,48,12,18,72,,70,66,7,9,10,10,0.5,0.4
2025-08-23T1000,2697A,76.1454,39.7142,克孜勒苏柯尔克孜自治州,市人民政府,颗粒物(PM10),131,212,172,66,63,41,,56,50,35,18,12,8,0.2,0.1
2025-08-23T1000,3665A,76.1658,39.7157,克孜勒苏柯尔克孜自治州,克州文化中心,颗粒物(PM10),94,137,162,63,55,82,,67,67,12,10,6,8,0.3,0.3
2025-08-23T1000,1450A,102.8204,24.8886,昆明市,呈贡新区,,16,,1,11,6,27,,24,24,13,12,2,4,0.5,0.5
2025-08-23T1000,1451A,102.6251,24.9608,昆明市,西山森林公园,,,,,,,,,,,,,,,,
2025-08-23T1000,1452A,102.7252,25.0902,昆明市,龙泉镇,,9,6,8,3,4,28,,17,17,9,10,1,1,0.3,0.3
2025-08-23T1000,1453A,102.7266,25.0375,昆明市,东风东路,,10,6,6,3,6,31,,26,26,11,11,2,2,0.3,0.4
2025-08-23T1000,1454A,102.6742,25.0669,昆明市,金鼎山,,9,9,9,3,3,27,,17,17,7,10,1,2,0.3,0.3
2025-08-23T1000,1455A,102.6644,25.0401,昆明市,碧鸡广场,,8,8,10,3,3,25,,14,14,10,14,6,8,0.4,0.5
2025-08-23T1000,3179A,102.7494,25.0119,昆明市,官渡区博物馆,,10,6,6,3,3,30,,27,26,8,6,1,2,0.4,0.4
2025-08-23T1000,3375A,102.8017,24.8336,昆明市,青年创业园,,10,6,7,3,5,32,,25,25,5,7,1,2,0.3,0.4
2025-08-23T1000,3550A,102.7997,24.9786,昆明市,昆明学院,,9,6,6,3,3,28,,24,24,11,11,6,6,0.4,0.4
2025-08-23T1000,3551A,102.5967,24.6736,昆明市,晋宁区生态环境分局,,12,10,12,3,4,38,,31,31,5,6,2,2,0.5,0.5
2025-08-23T1000,3552A,102.6678,24.9856,昆明市,云天化总部,,10,6,8,3,6,29,,22,22,7,7,4,4,0.4,0.4
2025-08-23T1000,1456A,91.1319,29.6514,拉萨市,八廓街,,26,,6,7,7,82,,84,84,10,8,4,5,0.3,0.2
2025-08-23T1000,1457A,91.1221,29.6747,拉萨市,市环保局,,22,14,8,11,7,70,,80,79,14,9,7,7,0.3,0.2
2025-08-23T1000,1458A,91.0874,29.6475,拉萨市,区监测站,,24,7,6,7,6,75,,79,78,18,11,3,3,0.5,0.4
2025-08-23T1000,1459A,91.1774,29.6541,拉萨市,西藏大学,,23,15,6,10,6,72,,78,78,13,8,5,6,0.2,0.1
2025-08-23T1000,1460A,90.9798,29.6588,拉萨市,区辐射站,,25,,8,17,7,77,,77,77,12,10,4,4,0.4,0.3
2025-08-23T1000,1461A,91.0834,29.6292,拉萨市,拉萨火车站,,22,9,7,3,6,70,,76,75,17,9,4,5,0.3,0.2
2025-08-23T1000,2520A,109.2203,23.7256,来宾市,来宾技工学校,,30,30,34,9,22,61,,16,16,6,11,11,11,0.5,0.5
2025-08-23T1000,3535A,109.1781,23.7297,来宾市,兴宾区政府,,32,32,25,20,15,51,,20,20,12,10,9,7,0.8,0.7
2025-08-23T1000,4002A,109.2416,23.7461,来宾市,中南小学,,31,31,31,12,16,66,,22,22,5,12,19,16,0.6,0.6
2025-08-23T1000,1477A,104.1373,35.9454,兰州市,榆中兰大校区,,,,,,,,,,,,,,,,
2025-08-23T1000,1479A,103.831,36.0464,兰州市,铁路设计院,,33,33,31,18,21,39,,56,44,41,32,10,10,0.7,0.6
2025-08-23T1000,3241A,103.7439,36.0842,兰州市,百合公园,,29,29,29,12,14,59,,37,36,20,20,14,7,0.5,0.5
2025-08-23T1000,3242A,103.9611,35.998,兰州市,和平,,35,35,16,12,11,76,,64,56,17,12,9,13,0.3,0.4
2025-08-23T1000,4236A,103.6293,36.0938,兰州市,庄浪东路808号,,33,33,32,22,19,86,,44,44,38,34,12,12,0.4,0.4
2025-08-23T1000,4237A,103.7251,36.1043,兰州市,安宁西路88号,,31,31,28,19,21,77,,56,53,12,15,8,8,0.3,0.3
2025-08-23T1000,4238A,103.8470,36.0676,兰州市,北滨河东路1号,,26,26,22,14,21,58,,46,38,27,23,11,9,0.5,0.4
2025-08-23T1000,3245A,103.6633,36.533,兰州新区,新区管委会,,24,18,21,14,13,75,,56,55,16,9,18,12,0.4,0.4
2025-08-23T1000,3246A,103.6975,36.4789,兰州新区,舟曲中学,,27,26,18,18,11,86,,65,65,9,13,30,9,0.4,0.3
2025-08-23T1000,1067A,116.6708,39.5111,廊坊市,药材公司,,28,21,38,9,14,89,,47,47,12,21,4,4,0.3,0.3
2025-08-23T1000,1068A,116.7214,39.5589,廊坊市,开发区,,26,20,36,7,17,81,,42,42,11,18,2,2,0.3,0.4
2025-08-23T1000,1070A,116.7244,39.5269,廊坊市,北华航天学院,,30,30,54,8,16,88,,48,48,11,19,4,4,0.2,0.4
2025-08-23T1000,2919A,116.7022,39.5453,廊坊市,河北工业大学,,36,36,52,9,16,86,,49,49,10,17,2,3,0.2,0.4
2025-08-23T1000,2535A,103.7723,29.5462,乐山市,花湖湾,,19,17,16,13,13,35,,57,50,15,8,2,2,0.4,0.4
2025-08-23T1000,2536A,103.7627,29.5844,乐山市,牛耳桥,,16,16,18,10,13,38,,66,58,18,10,5,5,0.6,0.5
2025-08-23T1000,2537A,103.7508,29.6006,乐山市,市第三水厂,,18,13,16,12,13,40,,64,57,18,10,3,3,0.7,0.6
2025-08-23T1000,2538A,103.7571,29.5664,乐山市,市监测站,,15,15,18,10,13,35,,58,50,12,8,6,6,0.8,0.8
2025-08-23T1000,3361A,103.7311,29.5628,乐山市,理工大学,,18,16,23,12,17,41,,56,50,14,11,7,7,0.7,0.6
2025-08-23T1000,2598A,100.2143,26.8576,丽江市,西南郊,,16,16,7,9,4,21,,20,19,10,10,7,6,1.0,1
2025-08-23T1000,2599A,100.2497,26.8802,丽江市,丽江古城,,21,21,15,9,5,25,,24,22,9,10,10,10,0.6,0.6
2025-08-23T1000,2600A,100.2203,26.8906,丽江市,市中心,,20,20,8,13,8,15,,15,14,12,13,10,9,0.6,0.5
2025-08-23T1000,1267A,119.914,28.4514,丽水市,监测站大楼,,28,15,15,11,9,87,,56,56,15,10,5,4,0.4,0.3
2025-08-23T1000,1268A,119.93,28.4586,丽水市,莲都小学,,32,32,21,7,5,87,,44,44,14,11,4,3,0.4,0.3
2025-08-23T1000,1269A,119.879,28.4231,丽水市,余庄前,,23,23,17,15,11,70,,20,20,15,12,7,5,0.5,0.4
2025-08-23T1000,1173A,119.176,34.5885,连云港市,市环境监测站,,41,41,37,27,24,128,,90,90,10,10,1,2,0.6,0.6
2025-08-23T1000,3000A,119.3581,34.6972,连云港市,德源药业,,48,41,37,27,22,153,,99,99,13,14,5,5,0.8,0.7
2025-08-23T1000,3007A,119.178,34.844,连云港市,新城一中,,47,41,35,29,26,150,,80,80,18,14,4,4,1.0,0.8
2025-08-23T1000,3008A,119.3608,34.7519,连云港市,胡沟管理处,,49,39,32,19,19,155,,133,133,11,14,10,10,0.7,0.6
2025-08-23T1000,3009A,119.1478,34.5911,连云港市,矿山设计院,,39,34,36,22,23,123,,84,84,10,12,13,13,0.9,0.8
2025-08-23T1000,3434A,119.2413,34.6539,连云港市,工贸学校,,48,46,39,24,27,151,,118,118,7,8,7,7,0.9,0.8
2025-08-23T1000,3664A,119.4172,34.7341,连云港市,连云街道,臭氧1小时,55,50,43,36,26,164,,156,156,22,10,5,5,0.9,0.8
2025-08-23T1000,2571A,102.3431,27.8099,凉山彝族自治州,青龙寺,,16,16,12,7,6,40,,21,21,4,4,2,1,0.7,0.6
2025-08-23T1000,2572A,102.2721,27.8415,凉山彝族自治州,邛海宾馆,,22,22,7,14,9,34,,37,30,11,10,12,8,0.9,0.7
2025-08-23T1000,2573A,102.2625,27.898,凉山彝族自治州,西昌市政府,,49,,14,34,11,26,,42,36,21,8,6,6,0.8,0.4
2025-08-23T1000,2574A,102.2685,27.8851,凉山彝族自治州,凉山州政府,,30,30,17,16,13,31,,48,41,17,11,11,8,1.5,0.9
2025-08-23T1000,4229A,102.2342,27.8859,凉山彝族自治州,凯乐南路30号,,49,38,18,34,12,32,,34,29,16,13,16,11,0.9,0.8
2025-08-23T1000,2212A,123.2,41.1953,辽阳市,宏伟区,,37,37,27,6,13,62,,33,33,6,9,2,2,0.7,1
2025-08-23T1000,2213A,123.1683,41.2495,辽阳市,新华园,,,20,35,12,29,81,,37,37,16,19,,6,,0.8
2025-08-23T1000,2214A,123.2354,41.2639,辽阳市,滨河路,,18,18,32,10,15,44,,27,27,5,13,3,3,0.6,0.9
2025-08-23T1000,2215A,123.149,41.2991,辽阳市,铁西工业园,,37,37,48,16,18,57,,26,26,28,18,2,3,2.1,1.3
2025-08-23T1000,2227A,125.1358,42.8845,辽源市,环保局,,30,30,24,10,5,70,,38,38,8,9,8,8,0.8,0.5
2025-08-23T1000,3239A,125.0764,42.9078,辽源市,银鹰制药,,28,28,16,19,11,71,,39,39,12,11,9,9,0.7,0.5
2025-08-23T1000,1625A,115.9848,36.4372,聊城市,区政府,颗粒物(PM10),54,57,28,31,17,92,,50,50,17,15,17,12,1.0,0.9
2025-08-23T1000,2878A,116.0072,36.4343,聊城市,聊大东校,颗粒物(PM10),52,53,31,23,17,95,,50,50,15,16,14,12,0.6,0.5
2025-08-23T1000,3200A,115.9819,36.4978,聊城市,监控中心,颗粒物(PM10),56,61,28,31,12,92,,42,42,27,24,17,10,1.1,0.8
2025-08-23T1000,3513A,116.0445,36.4361,聊城市,九州社区,颗粒物(PM10),54,57,34,22,16,90,,46,46,12,13,10,7,0.4,0.3
2025-08-23T1000,4018A,116.0567,36.4608,聊城市,星美广场,颗粒物(PM10),54,57,32,22,15,89,,,,16,15,5,3,0.8,0.6
2025-08-23T1000,2632A,94.3681,29.6376,林芝市,林芝监测站,,13,6,5,3,4,39,,31,31,3,3,4,5,0.4,0.4
2025-08-23T1000,2633A,94.3616,29.6616,林芝市,林芝人民医院,,12,6,7,3,4,38,,31,31,4,3,6,7,0.5,0.5
2025-08-23T1000,2603A,100.0781,23.8982,临沧市,市环保局,,25,,17,17,21,14,,11,11,10,9,6,6,0.5,0.4
2025-08-23T1000,2604A,100.0894,23.8822,临沧市,市气象局,,19,13,14,13,12,16,,12,12,8,9,7,7,0.6,0.5
2025-08-23T1000,1733A,111.5531,36.0783,临汾市,临钢医院,,37,37,48,20,15,69,,77,71,14,15,10,13,1.3,1.1
2025-08-23T1000,1734A,111.5028,36.0714,临汾市,技工学校,,46,37,46,32,28,60,,76,69,12,10,7,12,1.3,1
2025-08-23T1000,1736A,111.5018,36.0855,临汾市,市委,颗粒物(PM10),60,70,59,16,17,61,,78,71,15,13,5,10,1.4,1.1
2025-08-23T1000,3018A,111.505,36.1014,临汾市,唐尧大酒店,颗粒物(PM10),51,51,56,23,18,56,,75,68,14,13,4,7,1.3,1
2025-08-23T1000,4244A,111.4879,36.0530,临汾市,启星学校,,43,40,44,30,26,60,,74,68,13,13,2,6,1.3,1
2025-08-23T1000,4271A,103.2464,35.6123,临夏回族自治州,滨河东路1号,,49,49,24,19,14,26,,29,23,20,13,6,6,0.5,0.4
2025-08-23T1000,4310A,103.2093,35.5995,临夏回族自治州,新华街21号,,49,38,22,34,16,36,,54,47,16,9,5,5,0.5,0.3
2025-08-23T1000,1618A,118.3429,35.0532,临沂市,沂河小区,颗粒物(PM10),52,53,49,33,36,133,,66,66,21,19,13,12,0.6,0.5
2025-08-23T1000,1619A,118.295,35.0583,临沂市,鲁南制药厂,,48,48,50,30,35,137,,64,64,22,22,14,12,0.6,0.5
2025-08-23T1000,1620A,118.2794,34.9976,临沂市,新光毛纺厂,,43,39,58,30,42,131,,57,57,19,22,12,13,0.6,0.6
2025-08-23T1000,1621A,118.3956,35.0888,临沂市,河东保险公司,,,39,44,24,27,130,,60,60,18,17,12,9,,0.4
2025-08-23T1000,3370A,118.3564,35.0215,临沂市,十里堡居委,细颗粒物(PM2.5),55,44,51,39,45,137,,66,66,21,21,13,13,0.6,0.5
2025-08-23T1000,3496A,118.3604,35.1084,临沂市,南坊新区,颗粒物(PM10),53,56,47,29,27,136,,65,65,24,21,11,10,0.8,0.5
2025-08-23T1000,3860A,118.3920,35.0300,临沂市,皇山花园小区,细颗粒物(PM2.5),72,61,55,52,39,144,,70,70,22,20,14,12,0.8,0.6
2025-08-23T1000,1870A,109.4856,24.3895,柳州市,柳东小学,,43,43,28,22,15,75,,28,28,6,12,5,6,0.3,0.4
2025-08-23T1000,1871A,109.4157,24.3277,柳州市,环保监测站,,34,34,30,22,19,63,,26,26,7,13,7,7,0.4,0.4
2025-08-23T1000,1872A,109.389,24.341,柳州市,河西水厂,,44,44,37,19,18,64,,20,20,9,16,4,5,0.5,0.5
2025-08-23T1000,1873A,109.4311,24.2921,柳州市,市四中,,27,27,33,16,15,62,,24,24,10,18,7,7,0.5,0.5
2025-08-23T1000,1874A,109.4006,24.3631,柳州市,市九中,,28,21,39,19,18,63,,17,17,10,15,5,5,0.3,0.3
2025-08-23T1000,1875A,109.4958,24.3134,柳州市,古亭山,,46,46,31,16,18,63,,14,14,8,15,6,5,0.6,0.6
2025-08-23T1000,3402A,109.5422,24.3996,柳州市,市二中,,40,40,33,18,17,69,,19,19,9,17,8,10,0.7,0.7
2025-08-23T1000,2307A,116.5079,31.737,六安市,监测大楼,,23,19,15,3,9,71,,37,37,7,8,4,4,0.2,0.4
2025-08-23T1000,2308A,116.4738,31.7643,六安市,皖西学院,,33,33,19,7,10,80,,43,43,4,6,3,3,0.2,0.3
2025-08-23T1000,2309A,116.4996,31.7905,六安市,朝阳厂,,23,11,18,3,11,72,,38,38,8,13,6,5,0.3,0.3
2025-08-23T1000,2310A,116.5567,31.7886,六安市,开发区,,25,,17,15,13,77,,28,28,8,10,3,3,0.4,0.4
2025-08-23T1000,2576A,104.8,26.5892,六盘水市,窑上,,21,21,16,3,2,17,,18,18,10,10,5,5,0.3,0.3
2025-08-23T1000,2577A,104.83,26.5917,六盘水市,黄土坡,,14,14,7,3,5,16,,22,21,22,15,13,10,0.7,0.4
2025-08-23T1000,2578A,104.89,26.5939,六盘水市,水钢,,23,23,14,6,10,30,,32,30,6,6,11,11,0.2,0.2
2025-08-23T1000,2579A,104.8475,26.5894,六盘水市,民中,,7,6,7,3,2,22,,26,25,13,11,9,9,0.4,0.4
2025-08-23T1000,2580A,104.9544,26.5506,六盘水市,双水,,13,,2,9,5,34,,36,34,6,6,6,6,0.1,0.1
2025-08-23T1000,2335A,117.0189,25.1181,龙岩市,龙岩师专,,,,,,,,,,,,,,,,
2025-08-23T1000,2336A,117.0217,25.1033,龙岩市,龙岩市监测站,,38,38,29,22,10,48,,14,14,16,13,6,7,0.8,0.6
2025-08-23T1000,2337A,117.0258,25.0661,龙岩市,闽西职业技术学院,,31,31,30,17,10,52,,11,11,13,14,6,14,0.8,0.6
2025-08-23T1000,2338A,117.0196,25.0306,龙岩市,龙岩学院,,40,40,24,19,11,35,,10,10,20,14,9,7,0.6,0.5
2025-08-23T1000,2665A,105.0822,33.3261,陇南市,汉王镇固水子,,,,,,,,,,,,,,,,
2025-08-23T1000,2885A,104.9339,33.3826,陇南市,滨江中学,,28,28,28,3,11,51,,51,51,9,5,9,8,0.8,0.7
2025-08-23T1000,3247A,104.955,33.371,陇南市,市总工会,,28,28,31,3,7,62,,57,57,9,7,6,6,0.8,0.7
2025-08-23T1000,2487A,111.9589,27.8901,娄底市,电视发射台,,27,27,31,12,12,44,,14,14,5,6,6,5,0.4,0.5
2025-08-23T1000,2488A,111.9975,27.725,娄底市,市监测站,,34,34,26,15,14,51,,26,26,7,9,4,5,0.6,0.6
2025-08-23T1000,2489A,112.0194,27.7314,娄底市,市委党校,,29,28,23,20,15,54,,32,32,8,7,6,3,0.5,0.4
2025-08-23T1000,2490A,111.9561,27.7569,娄底市,涟钢,,48,48,37,23,17,40,,14,14,29,20,9,8,1.7,0.9
2025-08-23T1000,2491A,111.9892,27.7044,娄底市,市政府,,28,28,21,11,15,52,,21,21,6,5,7,7,0.4,0.4
2025-08-23T1000,1893A,105.4324,28.9634,泸州市,九狮山,,,,26,26,23,,,17,17,9,10,7,6,,0.4
2025-08-23T1000,1894A,105.4427,28.9063,泸州市,小市上码头,,11,11,18,3,6,35,,28,28,9,11,3,3,0.0,0
2025-08-23T1000,1895A,105.4241,28.8573,泸州市,兰田宪桥,,12,12,19,3,8,17,,11,10,8,9,7,7,0.3,0.4
2025-08-23T1000,1896A,105.4379,28.8833,泸州市,市环监站,,12,9,19,7,12,38,,39,37,11,12,7,6,0.2,0.2
2025-08-23T1000,4272A,105.3689,28.7783,泸州市,纳溪中医医院,,19,8,17,3,10,59,,40,39,13,14,2,2,0.4,0.4
2025-08-23T1000,2183A,111.1406,37.5211,吕梁市,环保局,,22,,23,15,11,56,,56,53,11,10,4,4,0.5,0.5
2025-08-23T1000,2185A,111.1297,37.5136,吕梁市,自来水公司,,16,6,23,3,10,49,,48,47,13,11,2,3,0.6,0.5
2025-08-23T1000,2867A,111.1283,37.51,吕梁市,马茂庄小学,,16,8,29,7,11,49,,50,47,18,14,2,3,0.4,0.4
2025-08-23T1000,1812A,112.3931,34.6516,洛阳市,市委党校,,50,50,36,29,19,91,,62,57,16,11,11,10,0.8,0.6
2025-08-23T1000,1815A,112.494,34.6886,洛阳市,河南林校,颗粒物(PM10),51,52,50,21,23,93,,64,64,19,19,11,10,0.7,0.7
2025-08-23T1000,1816A,112.3844,34.623,洛阳市,开发区管委会,,42,42,33,26,20,104,,61,58,13,10,8,6,0.8,0.6
2025-08-23T1000,1817A,112.4267,34.6258,洛阳市,市委新办公区,,42,40,36,29,21,93,,60,57,15,12,12,10,0.7,0.6
2025-08-23T1000,3340A,112.6005,34.6326,洛阳市,伊滨,细颗粒物(PM2.5),53,49,48,37,26,94,,43,43,16,15,10,10,0.8,0.7
2025-08-23T1000,3341A,112.4951,34.6332,洛阳市,中移产业园,颗粒物(PM10),53,56,43,32,23,94,,51,51,18,18,12,11,0.9,0.8
2025-08-23T1000,3593A,112.5736,34.8993,洛阳市,吉利监测站,,,,47,,28,88,,76,76,,9,10,8,0.8,0.9
2025-08-23T1000,3635A,112.3677,34.662,洛阳市,河科大西苑校区,颗粒物(PM10),51,52,39,19,15,96,,58,54,18,17,13,10,0.7,0.6
2025-08-23T1000,3636A,112.4388,34.6781,洛阳市,英才小学,颗粒物(PM10),56,62,45,26,23,86,,60,60,14,14,11,9,0.8,0.8
2025-08-23T1000,4214A,112.4600,34.6949,洛阳市,春都路1号院,,48,48,42,18,16,78,,53,53,11,12,10,9,0.8,0.8
2025-08-23T1000,2399A,114.051,33.5699,漯河市,三五一五工厂,,34,34,31,16,14,84,,42,42,8,13,6,6,0.5,0.5
2025-08-23T1000,2400A,114.0055,33.5698,漯河市,漯河大学,,27,25,23,14,10,86,,46,46,11,11,7,5,0.4,0.4
2025-08-23T1000,2401A,114.0138,33.5828,漯河市,市水利局,,34,34,27,19,13,90,,47,47,9,10,7,6,0.4,0.3
2025-08-23T1000,2402A,114.0261,33.5698,漯河市,市广电局,,32,32,24,16,17,93,,46,46,8,11,6,4,0.5,0.4
2025-08-23T1000,3478A,113.9749,33.5664,漯河市,市图书馆,,28,28,35,16,18,82,,39,39,8,12,6,7,0.3,0.3
2025-08-23T1000,4250A,114.0892,33.5882,漯河市,韶山路11号,,28,18,26,11,15,88,,40,40,9,13,3,3,0.5,0.5
2025-08-23T1000,1798A,118.5092,31.6837,马鞍山市,湖东路四小,,24,21,25,13,13,74,,48,48,13,16,8,8,0.8,0.7
2025-08-23T1000,1799A,118.5024,31.6449,马鞍山市,开发区,,25,25,28,15,12,74,,44,44,15,21,13,10,1.0,0.8
2025-08-23T1000,1802A,118.6245,31.7241,马鞍山市,濮塘,,33,33,27,21,14,90,,55,55,18,17,11,9,1.2,1
2025-08-23T1000,3633A,118.4918,31.6809,马鞍山市,雨山,,22,19,26,14,13,68,,43,43,15,19,10,9,0.8,0.7
2025-08-23T1000,4191A,118.5274,31.72227,马鞍山市,慈湖高新区,,25,25,26,11,12,69,,48,48,16,18,10,9,0.7,0.6
2025-08-23T1000,1686A,111.0286,21.4688,茂名市,电白南海,,25,24,15,17,9,60,,26,26,8,8,8,4,0.6,0.5
2025-08-23T1000,1687A,110.9294,21.6533,茂名市,茂石化七小,,27,27,16,17,7,56,,30,30,10,8,15,6,0.7,0.5
2025-08-23T1000,1688A,110.9107,21.6687,茂名市,健康路,,28,27,11,19,7,58,,29,29,10,9,20,8,1.0,0.8
2025-08-23T1000,1689A,110.8592,21.6828,茂名市,高岭,,39,39,23,14,5,49,,23,23,13,11,14,10,0.6,0.5
2025-08-23T1000,3450A,111.01,21.5165,茂名市,电白水东,,23,22,8,12,3,72,,30,30,14,7,14,5,0.6,0.4
2025-08-23T1000,2539A,104.0308,30.0478,眉山市,黑龙滩水库,,30,20,12,7,8,93,,97,91,9,5,2,2,0.3,0.3
2025-08-23T1000,2540A,103.8416,30.0874,眉山市,气象局,,18,18,30,3,11,52,,49,49,12,14,10,13,0.5,0.5
2025-08-23T1000,3137A,103.8578,30.0744,眉山市,市委党校,,16,9,19,7,7,51,,51,51,15,14,13,8,0.5,0.5
2025-08-23T1000,3148A,103.8291,30.0564,眉山市,区人社局,,21,21,33,3,6,50,,42,42,18,17,10,10,0.6,0.6
2025-08-23T1000,1690A,116.1231,24.3284,梅州市,梅江月梅,,27,27,26,15,13,47,,12,12,11,12,10,9,0.7,0.6
2025-08-23T1000,1691A,116.0797,24.2719,梅州市,梅县新城,,26,26,29,16,13,50,,12,12,10,15,12,8,0.6,0.5
2025-08-23T1000,1692A,116.1248,24.2654,梅州市,环境监控中心,,29,29,26,15,12,42,,11,11,12,16,5,8,0.6,0.5
2025-08-23T1000,3315A,116.1233,24.2991,梅州市,梅龙,,22,22,22,7,6,44,,14,14,8,12,12,9,0.7,0.7
2025-08-23T1000,1878A,104.7778,31.4741,绵阳市,富乐山,,22,22,18,15,10,43,,35,31,4,6,8,8,0.5,0.5
2025-08-23T1000,1880A,104.6697,31.4668,绵阳市,高新区自来水公司,,17,17,18,3,6,33,,38,32,10,12,8,8,0.5,0.4
2025-08-23T1000,1881A,104.7287,31.5075,绵阳市,三水厂,,21,21,14,10,11,43,,36,33,5,10,8,8,0.4,0.4
2025-08-23T1000,3491A,104.69,31.5322,绵阳市,西科大附属小学,,19,19,20,9,10,31,,34,28,12,12,8,8,0.5,0.5
2025-08-23T1000,3492A,104.5648,31.5343,绵阳市,安州区旅游局,,27,27,19,9,5,31,,31,28,13,10,10,10,0.3,0.3
2025-08-23T1000,4226A,104.7651,31.4531,绵阳市,绵阳市气象局,,13,13,16,6,9,41,,39,34,4,6,6,6,0.4,0.4
2025-08-23T1000,1784A,129.61,44.561,牡丹江市,环保大楼,,23,12,21,7,10,72,,30,30,7,9,4,4,0.3,0.3
2025-08-23T1000,1785A,129.6115,44.5782,牡丹江市,文化广场,,22,13,18,10,18,69,,33,33,10,13,5,5,0.5,0.5
2025-08-23T1000,1786A,129.5904,44.5963,牡丹江市,第一医院,,22,17,16,9,18,70,,22,22,9,11,6,6,0.2,0.2
2025-08-23T1000,1787A,129.6364,44.6075,牡丹江市,机车工厂,,20,18,21,7,15,64,,17,17,11,10,6,6,0.5,0.6
2025-08-23T1000,1788A,129.6386,44.5462,牡丹江市,第一中学,,24,18,18,7,13,75,,25,25,6,9,6,5,0.2,0.2
2025-08-23T1000,2531A,105.0703,29.61,内江市,市监测站,,18,18,20,10,13,49,,40,40,6,8,1,1,1.0,0.9
2025-08-23T1000,2532A,105.0717,29.5947,内江市,东兴区政府,,17,17,15,9,8,45,,36,36,8,9,6,6,0.7,0.6
2025-08-23T1000,2533A,105.0653,29.5817,内江市,内江二中,,35,,24,24,16,46,,37,37,9,10,3,3,0.7,0.6
2025-08-23T1000,2534A,105.0406,29.5822,内江市,内江日报社,,28,,16,19,15,47,,37,37,14,14,8,8,0.6,0.5
2025-08-23T1000,2628A,92.0657,31.4846,那曲市,那曲监测站,,48,48,23,20,10,52,,63,56,24,15,7,5,0.5,0.4
2025-08-23T1000,4243A,92.0515,31.4787,那曲市,那曲市委宣传部,,,,11,11,6,49,,72,66,17,6,4,4,0.4,0.3
2025-08-23T1000,1290A,115.8931,28.6843,南昌市,省外办,,35,32,20,24,16,34,,26,24,17,13,8,6,0.6,0.6
2025-08-23T1000,1291A,115.8886,28.7003,南昌市,省林业公司,,34,34,22,14,12,40,,14,14,19,17,6,4,0.8,0.6
2025-08-23T1000,1292A,115.8126,28.7442,南昌市,林科所,,28,24,19,19,7,25,,9,9,21,18,4,4,0.9,0.7
2025-08-23T1000,1294A,115.8518,28.687,南昌市,建工学校,,38,27,28,26,20,35,,12,12,26,26,8,6,0.7,0.6
2025-08-23T1000,1295A,115.8921,28.6424,南昌市,象湖,,25,25,19,12,8,31,,25,25,22,19,11,8,0.6,0.5
2025-08-23T1000,1296A,115.7423,28.7996,南昌市,武术学校,,15,11,15,10,10,27,,7,7,15,9,9,9,0.6,0.6
2025-08-23T1000,3046A,115.9084,28.6062,南昌市,机电学校,,30,30,25,14,11,35,,22,22,17,17,12,7,0.6,0.5
2025-08-23T1000,3690A,115.9721,28.7031,南昌市,外国语学校,,36,36,25,12,11,38,,27,27,20,15,23,9,1.8,0.6
2025-08-23T1000,4192A,115.9316,28.68677,南昌市,南京东路235号,,45,45,33,14,11,38,,30,30,25,18,8,9,0.9,0.8
2025-08-23T1000,1905A,106.056,30.8064,南充市,西山风景区,,,,,,,,,,,,,,,,
2025-08-23T1000,1906A,106.0789,30.8023,南充市,南充市委,,22,22,23,15,17,23,,27,22,13,10,4,4,0.5,0.4
2025-08-23T1000,1907A,106.1031,30.8217,南充市,南充炼油厂,,32,32,27,10,15,18,,28,23,11,7,4,4,0.3,0.3
2025-08-23T1000,4227A,106.1083,30.7884,南充市,梨树横街98号,,21,21,22,14,17,30,,42,37,7,6,3,3,0.3,0.2
2025-08-23T1000,4304A,106.1172,30.843,南充市,清泉寺北路188号,,32,28,23,22,19,13,,28,21,10,7,3,3,0.5,0.4
2025-08-23T1000,4305A,106.067,30.7616,南充市,同庆路1号,,30,30,21,12,12,19,,36,28,16,10,4,5,0.4,0.3
2025-08-23T1000,1151A,118.8086,32.1065,南京市,迈皋桥,,22,10,16,9,11,70,,48,48,24,22,4,4,1.2,0.9
2025-08-23T1000,1152A,118.7538,32.0551,南京市,草场门,,29,29,24,9,12,52,,38,38,24,19,14,8,1.5,1
2025-08-23T1000,1153A,118.7794,32.0745,南京市,山西路,,24,24,27,3,8,63,,46,46,24,19,8,6,1.3,1
2025-08-23T1000,1154A,118.7752,32.0023,南京市,中华门,,31,31,22,12,9,58,,38,38,16,17,4,4,1.8,1.6
2025-08-23T1000,1155A,118.8109,32.0309,南京市,瑞金路,,27,27,22,7,11,67,,43,43,27,28,6,6,1.0,0.9
2025-08-23T1000,1156A,118.7997,32.0754,南京市,玄武湖,,,31,25,,5,61,,39,39,13,12,4,4,0.7,0.6
2025-08-23T1000,1157A,118.6414,32.0931,南京市,浦口,,,,25,19,9,66,,45,45,,11,8,6,0.7,0.6
2025-08-23T1000,1158A,118.7356,31.9996,南京市,奥体中心,,26,26,25,7,12,65,,45,45,22,21,17,13,1.3,1
2025-08-23T1000,1159A,118.9125,32.1028,南京市,仙林大学城,,24,24,28,3,7,69,,41,41,12,15,16,13,1.1,1.1
2025-08-23T1000,3422A,118.8436,31.9198,南京市,江宁彩虹桥,,26,17,31,9,9,83,,54,54,16,14,4,4,1.1,0.7
2025-08-23T1000,3427A,118.8554,32.3578,南京市,六合雄州,,28,20,30,3,11,87,,48,48,21,17,14,8,1.1,0.8
2025-08-23T1000,4249A,118.8708,31.3402,南京市,汶溪路181号,,26,12,14,8,10,83,,57,57,7,8,8,7,0.4,0.5
2025-08-23T1000,4312A,119.019,31.6512,南京市,中山西路1号,,23,12,12,6,10,73,,36,36,9,13,3,4,0.5,0.6
2025-08-23T1000,1401A,108.3103,22.7881,南宁市,二十一中,,34,34,21,10,10,37,,20,20,14,10,8,6,0.6,0.5
2025-08-23T1000,1402A,108.3141,22.8528,南宁市,北湖,,23,23,19,13,16,41,,21,21,11,10,8,5,0.4,0.3
2025-08-23T1000,1403A,108.3206,22.8225,南宁市,市监测站,,44,44,19,15,13,36,,27,26,15,9,8,5,0.5,0.4
2025-08-23T1000,1404A,108.3829,22.8037,南宁市,大自然花园,,19,19,20,11,11,46,,26,25,8,7,9,5,0.7,0.6
2025-08-23T1000,1405A,108.4394,22.7904,南宁市,仙葫,,31,31,19,10,12,44,,22,22,12,9,10,5,0.6,0.5
2025-08-23T1000,1406A,108.2397,22.8467,南宁市,区农职院,,16,16,21,6,13,35,,10,10,11,15,6,5,0.3,0.3
2025-08-23T1000,1407A,108.3275,22.735,南宁市,英华嘉园,,44,44,26,27,22,41,,16,16,13,15,8,5,0.4,0.3
2025-08-23T1000,3401A,108.4834,22.7618,南宁市,红星社区,,26,26,23,17,15,50,,24,24,12,10,6,3,0.5,0.5
2025-08-23T1000,4221A,108.2177,22.7774,南宁市,乐贤路16号,,32,32,25,12,12,29,,6,6,12,19,12,4,0.4,0.4
2025-08-23T1000,2331A,118.0966,26.6761,南平市,茫荡山,,,,,,,,,,,,,,,,
2025-08-23T1000,2332A,118.1681,26.6369,南平市,南平市监测站,,28,25,24,19,15,60,,17,17,7,12,5,5,0.5,0.5
2025-08-23T1000,2333A,118.1825,26.6489,南平市,南平铝业有限公司,,29,26,24,20,12,59,,19,19,8,13,7,4,0.7,0.7
2025-08-23T1000,2334A,118.1756,26.6272,南平市,南平七中,,37,37,26,15,11,54,,14,14,7,10,4,3,0.7,0.7
2025-08-23T1000,1168A,120.9098,31.9663,南通市,狼山街道,细颗粒物(PM2.5),52,52,44,36,30,152,,66,66,25,26,9,4,1.4,0.9
2025-08-23T1000,1169A,120.86,32.0005,南通市,虹桥,细颗粒物(PM2.5),68,72,44,49,32,120,,86,86,69,27,24,3,2.7,0.9
2025-08-23T1000,1170A,120.87,32.02,南通市,城中,颗粒物(PM10),74,98,54,52,30,126,,86,86,66,26,52,8,4.0,1
2025-08-23T1000,1171A,120.94,31.93,南通市,星湖花园,,50,49,41,35,28,158,,74,74,30,27,8,5,1.1,0.6
2025-08-23T1000,1172A,120.81,32.0417,南通市,紫琅学院,颗粒物(PM10),65,80,48,34,28,119,,90,90,54,27,14,6,1.5,0.9
2025-08-23T1000,3291A,121.067,32.062,南通市,通州监测站,"颗粒物(PM10),细颗粒物(PM2.5)",52,53,44,36,30,144,,74,74,25,16,1,2,1.0,0.9
2025-08-23T1000,3432A,120.9348,31.9883,南通市,环境教育馆,颗粒物(PM10),53,56,50,28,29,152,,56,56,29,30,9,5,1.0,0.6
2025-08-23T1000,2404A,112.5224,33.0122,南阳市,瓦房庄,,28,28,29,10,12,64,,54,54,5,7,8,7,0.4,0.4
2025-08-23T1000,2405A,112.5003,32.9735,南阳市,汉画馆,,35,35,27,8,6,66,,51,51,7,9,8,8,0.4,0.4
2025-08-23T1000,2406A,112.5573,33.027,南阳市,气象站,,22,14,17,3,7,68,,52,52,6,9,8,8,0.3,0.3
2025-08-23T1000,2407A,112.5481,32.9689,南阳市,理工学院,,20,18,23,3,5,64,,50,50,4,9,9,8,0.4,0.4
2025-08-23T1000,4008A,112.5234,32.9922,南阳市,卧龙区政府,,30,30,28,16,12,64,,52,52,10,10,7,6,0.5,0.5
2025-08-23T1000,1234A,121.8358,29.911,宁波市,区环保大楼,颗粒物(PM10),54,57,44,12,13,110,,97,97,9,12,6,6,0.5,0.5
2025-08-23T1000,1235A,121.56,29.82,宁波市,万里学院,,38,28,27,21,16,119,,91,91,6,8,7,7,0.6,0.5
2025-08-23T1000,1236A,121.713,29.9572,宁波市,龙赛医院,,35,31,26,14,14,111,,89,89,9,10,5,5,0.5,0.4
2025-08-23T1000,1239A,121.633,29.7733,宁波市,钱湖水厂,,36,24,17,18,12,115,,84,84,8,9,6,6,0.5,0.4
2025-08-23T1000,1240A,121.5856,29.8635,宁波市,太古小学,,37,37,25,15,14,112,,85,85,6,6,3,3,0.6,0.5
2025-08-23T1000,1241A,121.524,29.8674,宁波市,市环境监测中心,,34,28,25,14,13,107,,78,78,10,10,8,8,0.6,0.6
2025-08-23T1000,2871A,121.6147,29.9017,宁波市,万里国际学校,,39,20,20,16,14,124,,94,94,9,7,5,5,0.7,0.7
2025-08-23T1000,3710A,121.5594,29.8975,宁波市,白沙活动中心,,,21,21,12,12,,,84,83,9,10,6,6,0.7,0.6
2025-08-23T1000,2339A,119.5001,26.6946,宁德市,金涵水库,,,,,,,,,,,,,,,,
2025-08-23T1000,2341A,119.5388,26.6612,宁德市,宁德市监测站,,,,20,20,11,75,,52,52,13,9,,3,0.6,0.5
2025-08-23T1000,3209A,119.5231,26.6562,宁德市,宁德一中,,43,40,23,30,17,88,,52,52,12,7,7,5,0.5,0.3
2025-08-23T1000,2618A,98.8601,25.8567,怒江傈僳族自治州,州监测站,,20,20,16,12,11,12,,20,17,8,6,2,3,0.4,0.4
2025-08-23T1000,2619A,98.8546,25.8417,怒江傈僳族自治州,泸水一中,,14,14,14,8,8,1,,7,4,9,8,4,4,0.4,0.4
2025-08-23T1000,1888A,101.6891,26.571,攀枝花市,弄弄坪,,24,24,31,3,12,15,,19,16,13,15,4,5,0.9,0.9
2025-08-23T1000,1889A,101.5769,26.5928,攀枝花市,河门口,,20,20,18,10,9,11,,15,14,15,13,10,7,1.4,0.9
2025-08-23T1000,1890A,101.7169,26.585,攀枝花市,炳草岗,,26,26,31,10,12,14,,21,17,18,16,4,8,0.7,0.8
2025-08-23T1000,1891A,101.7369,26.5008,攀枝花市,仁和,,6,6,19,3,11,19,,11,11,7,12,6,9,0.5,0.9
2025-08-23T1000,2835A,101.7227,26.567,攀枝花市,四十中小,,14,14,17,8,9,16,,24,20,15,13,7,8,0.7,0.8
2025-08-23T1000,1604A,122.0303,41.1489,盘锦市,开发区,,34,14,23,9,24,107,,88,88,8,8,10,8,0.7,0.7
2025-08-23T1000,1605A,122.0485,41.0883,盘锦市,兴隆台,,30,13,23,8,15,93,,70,70,8,11,5,5,0.8,0.8
2025-08-23T1000,1606A,121.8297,41.1028,盘锦市,新生街道,,,26,18,3,14,89,,68,68,,9,4,3,0.8,0.9
2025-08-23T1000,1832A,113.3257,33.742,平顶山市,新华旅馆,,34,34,37,15,15,80,,47,47,7,12,5,6,0.4,0.4
2025-08-23T1000,1833A,113.2919,33.737,平顶山市,规划设计院,,28,25,29,13,15,88,,58,58,7,21,4,4,0.4,0.4
2025-08-23T1000,1834A,113.182,33.774,平顶山市,平顶山工学院,,29,19,26,9,11,91,,59,59,8,11,6,6,0.4,0.5
2025-08-23T1000,3204A,113.3025,33.73,平顶山市,规划局,,28,27,33,10,11,88,,54,54,8,13,4,5,0.3,0.4
2025-08-23T1000,3594A,112.8867,33.9116,平顶山市,石龙区,,27,21,37,13,16,86,,45,45,7,18,8,8,0.4,0.5
2025-08-23T1000,2656A,106.6692,35.5461,平凉市,聚贤嘉苑,,28,21,35,7,14,88,,81,81,6,10,7,7,0.6,0.6
2025-08-23T1000,2657A,106.7021,35.5307,平凉市,博物馆,,30,30,40,12,12,89,,81,81,4,9,9,9,0.4,0.4
2025-08-23T1000,2347A,114.0997,27.5002,萍乡市,武功山,,16,16,4,3,4,34,,19,19,4,4,8,8,0.6,0.5
2025-08-23T1000,2348A,113.8385,27.6434,萍乡市,中医院,,32,32,23,21,15,52,,25,25,12,11,29,17,1.0,0.6
2025-08-23T1000,2349A,113.8493,27.6253,萍乡市,市政府车库,,49,42,23,34,18,37,,12,12,17,12,26,15,2.2,0.8
2025-08-23T1000,2350A,113.8676,27.6435,萍乡市,市环保局,,46,36,24,32,20,35,,16,16,10,10,19,11,1.0,0.6
2025-08-23T1000,2351A,113.866,27.6198,萍乡市,安源区政府,颗粒物(PM10),58,66,37,13,16,30,,9,9,15,10,22,15,2.7,0.7
2025-08-23T1000,2319A,119.0141,25.4325,莆田市,荔城区仓后路,颗粒物(PM10),57,63,46,33,31,126,,69,69,12,14,9,8,0.7,0.7
2025-08-23T1000,2320A,119.0015,25.4553,莆田市,莆田市监测站,"颗粒物(PM10),细颗粒物(PM2.5)",58,65,42,41,27,133,,64,64,13,12,10,6,0.6,0.5
2025-08-23T1000,2321A,119.1119,25.4561,莆田市,涵江区六中,,,61,45,34,30,121,,75,75,,16,7,7,,0.6
2025-08-23T1000,2322A,119.1013,25.3215,莆田市,秀屿区政府,颗粒物(PM10),54,57,34,18,22,74,,55,55,14,13,4,4,0.8,0.5
2025-08-23T1000,2323A,118.981,25.4792,莆田市,东圳水库,,,,,,,,,,,,,,,,
2025-08-23T1000,2392A,115.0312,35.7636,濮阳市,环保局,,30,16,23,12,17,96,,85,83,10,10,3,3,0.5,0.5
2025-08-23T1000,2394A,115.0574,35.7609,濮阳市,油田运输公司,,30,22,26,21,25,93,,85,82,7,8,3,3,0.6,0.6
2025-08-23T1000,3021A,115,35.7668,濮阳市,濮水河管理处,,,14,24,,,61,,46,42,7,6,1,2,0.4,0.5
2025-08-23T1000,4216A,115.0924,35.7686,濮阳市,任丘路479号,,28,26,31,10,14,89,,79,78,8,8,3,3,0.6,0.6
2025-08-23T1000,2601A,100.98,22.7633,普洱市,市环保局,,16,16,20,9,14,33,,34,34,4,3,6,6,0.6,0.5
2025-08-23T1000,2602A,100.9817,22.8322,普洱市,普洱第二中学,,18,18,20,3,11,28,,32,31,7,5,5,5,0.4,0.4
2025-08-23T1000,2262A,131.0518,45.8751,七台河市,新一中,,28,6,5,3,5,89,,54,54,5,8,9,9,0.7,1
2025-08-23T1000,3345A,131.0577,45.7879,七台河市,中波台,,20,,8,6,7,64,,42,42,10,12,8,7,0.4,0.5
2025-08-23T1000,3637A,131.0176,45.7761,七台河市,人民广场,,23,10,9,7,7,71,,49,49,11,10,10,10,0.5,0.6
2025-08-23T1000,3684A,130.8781,45.8222,七台河市,新建矿广场,,19,17,8,3,6,59,,29,29,17,10,10,9,0.4,0.4
2025-08-23T1000,1779A,123.9305,47.3636,齐齐哈尔市,安居小区,,27,27,21,3,9,56,,37,37,8,10,3,3,0.6,0.6
2025-08-23T1000,1780A,123.9488,47.3386,齐齐哈尔市,中心广场,,20,20,18,7,5,62,,41,41,8,10,6,6,0.5,0.4
2025-08-23T1000,1781A,123.9483,47.3227,齐齐哈尔市,农牧车辆厂,,29,29,22,11,6,60,,36,36,8,8,7,10,0.4,0.4
2025-08-23T1000,1783A,123.945,47.2988,齐齐哈尔市,市环境监测站,,19,18,15,10,7,60,,37,37,7,8,6,6,0.5,0.5
2025-08-23T1000,3662A,123.6333,47.2075,齐齐哈尔市,富区青少年活动中心,,17,14,14,9,9,53,,34,34,5,6,5,5,0.5,0.5
2025-08-23T1000,2591A,107.9783,26.5747,黔东南苗族侗族自治州,市环境监测站,,,13,12,,12,39,,44,43,6,3,3,2,0.4,0.4
2025-08-23T1000,2881A,107.8908,26.5311,黔东南苗族侗族自治州,凯里学院,,14,9,8,7,6,44,,49,48,6,5,2,3,0.4,0.4
2025-08-23T1000,2593A,107.5228,26.2403,黔南布依族苗族自治州,小围寨,,19,19,10,3,4,31,,33,33,4,3,4,4,0.2,0.2
2025-08-23T1000,3538A,107.5175,26.2978,黔南布依族苗族自治州,沙坝,,19,19,15,3,0,25,,26,26,4,4,5,4,0.3,0.2
2025-08-23T1000,2589A,104.9022,25.0925,黔西南布依族苗族自治州,场坝街,,14,14,14,8,6,30,,31,30,6,5,4,4,0.3,0.3
2025-08-23T1000,2590A,104.8811,25.0992,黔西南布依族苗族自治州,坪东大道,,21,21,16,3,7,33,,28,27,4,4,2,2,0.5,0.4
2025-08-23T1000,2502A,108.6236,21.9667,钦州市,市环保站,,24,24,27,14,11,37,,14,14,9,14,5,5,0.5,0.6
2025-08-23T1000,2503A,108.6549,21.9481,钦州市,沙埠小学,,26,26,31,11,14,39,,13,13,7,16,1,2,0.4,0.6
2025-08-23T1000,2504A,108.5989,21.7431,钦州市,港区一小,,40,40,47,15,15,32,,10,10,14,26,14,9,0.5,0.7
2025-08-23T1000,3404A,108.5959,21.9633,钦州市,北职校,,41,41,31,14,13,29,,8,8,11,16,2,4,0.6,0.6
2025-08-23T1000,1043A,119.7493,40.0116,秦皇岛市,第一关,,46,46,27,15,7,59,,16,16,31,35,7,6,0.5,0.8
2025-08-23T1000,1044A,119.5897,39.9499,秦皇岛市,监测站,,39,39,34,3,8,77,,42,42,16,22,5,6,0.4,0.5
2025-08-23T1000,1046A,119.5251,39.9041,秦皇岛市,建设大厦,,31,31,35,3,6,62,,36,36,22,20,7,7,0.4,0.4
2025-08-23T1000,3132A,119.610547,39.943889,秦皇岛市,文明里,,36,36,33,3,6,61,,37,37,33,23,7,7,0.3,0.3
2025-08-23T1000,4198A,119.5090,39.8253,秦皇岛市,北戴河轮滑馆,,38,38,42,8,16,74,,24,24,17,20,4,3,0.5,0.6
2025-08-23T1000,1307A,120.6659,36.2403,青岛市,仰口,,45,45,33,30,21,119,,116,114,9,5,9,9,1.2,1.1
2025-08-23T1000,1310A,120.4134,36.0658,青岛市,市南区东部子站,细颗粒物(PM2.5),52,41,34,36,26,160,,144,144,4,3,7,6,0.2,0.2
2025-08-23T1000,1311A,120.3664,36.1032,青岛市,四方区子站,细颗粒物(PM2.5),62,48,39,44,30,157,,162,157,2,4,7,10,0.6,0.5
2025-08-23T1000,1312A,120.2994,36.054,青岛市,市南区西部子站,,46,46,38,32,23,122,,123,122,27,17,5,5,0.9,0.9
2025-08-23T1000,1313A,120.4581,36.0858,青岛市,崂山区子站,,44,44,38,24,21,137,,134,134,6,5,8,8,0.4,0.3
2025-08-23T1000,1315A,120.3999,36.3083,青岛市,城阳区子站,颗粒物(PM10),53,56,43,24,22,152,,147,145,11,10,6,7,1.0,0.8
2025-08-23T1000,1966A,120.0405,35.8735,青岛市,黄岛区4号,,49,44,40,34,25,153,,153,148,4,5,5,5,0.8,0.8
2025-08-23T1000,3362A,120.5014,36.4034,青岛市,即墨2号,,50,39,43,21,20,157,,148,146,8,8,4,4,0.5,0.4
2025-08-23T1000,3642A,120.3503,36.0736,青岛市,市北区南部,臭氧1小时,80,,33,34,26,184,,165,165,8,9,6,6,1.0,0.9
2025-08-23T1000,3643A,120.3948,36.1805,青岛市,李沧区北部,细颗粒物(PM2.5),58,46,40,41,33,120,,123,120,7,10,5,5,0.6,0.6
2025-08-23T1000,4290A,120.1969,35.9546,青岛市,珠江路669号,细颗粒物(PM2.5),55,41,39,39,30,154,,164,159,3,4,5,5,0.7,0.7
2025-08-23T1000,1702A,113.0426,23.691,清远市,环保大楼,,49,49,48,22,23,68,,43,40,13,14,10,10,0.9,0.9
2025-08-23T1000,1703A,113.0208,23.7106,清远市,凤城街办,,33,33,35,23,18,70,,51,49,17,16,10,8,0.5,0.5
2025-08-23T1000,3025A,113.0477,23.6344,清远市,技师学院,,38,38,40,20,22,60,,25,25,18,20,13,11,0.5,0.5
2025-08-23T1000,3318A,112.9903,23.7403,清远市,清新太和,,35,28,38,24,21,87,,72,71,20,14,10,7,0.6,0.5
2025-08-23T1000,3455A,113.076,23.7198,清远市,清城东城,,37,37,34,22,18,65,,36,36,11,10,9,8,0.6,0.6
2025-08-23T1000,2661A,107.6325,35.7357,庆阳市,庆阳五中,,,,28,,8,,,82,82,,6,,8,0.4,0.4
2025-08-23T1000,2662A,107.6364,35.7067,庆阳市,市环保局,,25,14,28,3,10,80,,90,90,5,4,2,3,0.4,0.4
2025-08-23T1000,1916A,103.7897,25.5035,曲靖市,环境监测站,,21,21,11,3,4,28,,27,27,10,7,4,4,0.4,0.3
2025-08-23T1000,1917A,103.8,25.5364,曲靖市,烟厂办公区,,16,14,8,11,7,28,,26,26,7,5,3,3,0.6,0.5
2025-08-23T1000,3376A,103.7947,25.462,曲靖市,南苑二区,,10,9,6,6,4,32,,31,31,7,4,4,4,0.5,0.4
2025-08-23T1000,3377A,103.7444,25.5261,曲靖市,曲靖师范学院,,12,12,7,3,3,28,,31,30,7,5,5,5,0.3,0.3
2025-08-23T1000,1264A,118.8692,28.9398,衢州市,环保大楼,,,27,19,14,10,46,,25,25,20,14,6,3,,0.4
2025-08-23T1000,1265A,118.8709,28.9666,衢州市,实验学校,,27,27,19,12,10,39,,24,24,13,13,4,2,0.3,0.4
2025-08-23T1000,1266A,118.8621,28.9808,衢州市,衢州学院,,19,19,18,9,8,36,,20,20,14,14,3,3,0.3,0.3
2025-08-23T1000,1611A,118.5819,24.9117,泉州市,涂山街,,50,50,50,32,29,133,,51,51,13,22,6,4,0.7,0.6
2025-08-23T1000,1612A,118.5972,24.8978,泉州市,津头埔,,39,35,48,23,30,123,,59,59,13,21,6,5,0.6,0.5
2025-08-23T1000,1613A,118.6663,24.9424,泉州市,万安,,36,32,46,25,29,114,,50,50,12,22,4,3,0.5,0.6
2025-08-23T1000,1614A,118.6117,24.9604,泉州市,清源山,,,,,,,,,,,,,,,,
2025-08-23T1000,3529A,118.6333,24.9264,泉州市,城华南路,,46,46,45,27,30,119,,56,56,12,19,5,4,0.6,0.5
2025-08-23T1000,2626A,88.8876,29.2718,日喀则市,日喀则监测站,,25,6,4,3,1,78,,81,81,3,6,8,10,0.3,0.3
2025-08-23T1000,3726A,88.8781,29.2426,日喀则市,林业技术推广中心,,24,7,6,3,1,76,,81,80,3,3,6,6,0.4,0.3
2025-08-23T1000,1659A,119.471,35.4209,日照市,监测站,,49,44,44,34,29,141,,67,64,21,22,15,9,1.3,0.8
2025-08-23T1000,1660A,119.523,35.4216,日照市,市政府广场,,44,44,48,28,26,136,,72,72,13,18,8,8,0.9,1
2025-08-23T1000,1661A,119.5587,35.4044,日照市,港务局,细颗粒物(PM2.5),69,61,53,50,44,144,,79,78,22,21,10,9,1.1,1
2025-08-23T1000,3507A,119.5328,35.4625,日照市,职业技术学院,,44,39,46,29,28,139,,74,74,16,18,8,7,0.8,0.9
2025-08-23T1000,3604A,119.3266,35.1044,日照市,岚山环保分局,,50,36,42,25,22,157,,77,77,8,15,9,8,0.8,0.9
2025-08-23T1000,1835A,111.1922,34.7752,三门峡市,市政府,,39,39,37,21,16,56,,55,48,16,14,10,8,0.6,0.5
2025-08-23T1000,1836A,111.1587,34.7942,三门峡市,开发区,颗粒物(PM10),52,54,48,28,20,61,,56,50,12,13,4,5,0.5,0.4
2025-08-23T1000,1838A,111.143,34.7955,三门峡市,风景区,细颗粒物(PM2.5),64,66,47,46,20,70,,54,50,8,10,5,5,0.6,0.5
2025-08-23T1000,3039A,111.1911,34.7829,三门峡市,三门峡市第一小学,,43,43,42,16,17,63,,61,57,12,11,4,6,0.6,0.5
2025-08-23T1000,3598A,111.1,34.7167,三门峡市,富达温泉假日酒店,细颗粒物(PM2.5),53,49,40,37,19,62,,33,33,17,13,11,8,0.7,0.6
2025-08-23T1000,2324A,117.6211,26.2625,三明市,三钢,,29,23,25,20,14,67,,22,22,8,13,2,4,0.6,0.9
2025-08-23T1000,2325A,117.635,26.2714,三明市,三明二中,,35,35,25,22,16,62,,20,20,6,10,2,2,0.7,0.7
2025-08-23T1000,2326A,117.6028,26.2378,三明市,三元区政府,,27,27,30,18,15,66,,18,18,8,16,1,3,0.6,0.7
2025-08-23T1000,2327A,117.7275,26.3108,三明市,洋溪,,,,,,,,,,,,,,,,
2025-08-23T1000,1876A,109.5078,18.2489,三亚市,河东子站,,13,13,10,3,4,34,,20,20,1,2,3,3,0.5,0.5
2025-08-23T1000,1877A,109.4964,18.2681,三亚市,河西子站,,12,12,11,3,2,31,,21,21,5,7,2,2,0.4,0.4
2025-08-23T1000,3540A,109.7348,18.3443,三亚市,君悦子站,,14,14,16,3,4,39,,23,23,4,6,3,3,0.5,0.4
2025-08-23T1000,2624A,91.7608,29.2313,山南市,山南监测站,,18,12,4,9,3,55,,57,57,5,5,2,3,0.3,0.3
2025-08-23T1000,2625A,91.7706,29.2436,山南市,山南人民医院,,17,13,6,10,3,53,,56,56,4,5,3,4,0.2,0.2
2025-08-23T1000,1674A,116.6794,23.3667,汕头市,金平子站,,50,50,44,17,29,88,,62,62,11,21,3,3,0.5,0.7
2025-08-23T1000,1675A,116.7244,23.3633,汕头市,龙湖子站,,27,,36,16,23,84,,63,63,6,16,7,8,0.5,0.6
2025-08-23T1000,1676A,116.7258,23.2775,汕头市,濠江子站,,41,41,38,20,21,93,,51,51,5,21,6,7,0.7,0.7
2025-08-23T1000,1677A,116.7519,23.4714,汕头市,澄海子站,,38,31,44,26,25,81,,66,66,9,14,4,2,0.6,0.7
2025-08-23T1000,1678A,116.6092,23.2539,汕头市,潮阳子站,,26,,40,15,24,81,,56,56,6,13,5,6,0.6,0.7
2025-08-23T1000,3444A,116.454,23.2684,汕头市,潮南峡山,,39,32,57,27,38,85,,30,30,11,17,7,7,0.6,0.8
2025-08-23T1000,3624A,116.4069,23.2533,汕头市,潮南子站,,46,46,59,27,34,87,,30,30,9,15,5,5,0.7,0.7
2025-08-23T1000,1693A,115.3653,22.775,汕尾市,市环保局,,49,49,18,22,11,78,,38,38,12,11,4,3,0.6,0.5
2025-08-23T1000,1694A,115.3706,22.7898,汕尾市,市政府,,38,38,18,24,6,82,,34,34,13,11,4,4,0.8,0.6
2025-08-23T1000,1695A,115.3622,22.7925,汕尾市,新城中学,,39,39,24,21,9,84,,35,35,11,13,5,5,0.6,0.5
2025-08-23T1000,2645A,109.9154,33.8715,商洛市,监测站,,42,42,35,15,13,19,,11,10,15,16,6,7,0.8,0.7
2025-08-23T1000,3045A,109.9643,33.8471,商洛市,商州区中学,颗粒物(PM10),57,63,46,21,19,18,,6,6,16,17,11,8,0.8,0.6
2025-08-23T1000,2408A,115.6702,34.4285,商丘市,环境监测站,,,24,23,7,11,83,,64,64,,5,,2,0.6,0.5
2025-08-23T1000,2409A,115.6458,34.4045,商丘市,粮食局,,26,26,23,13,9,81,,63,63,6,5,5,4,0.5,0.4
2025-08-23T1000,2410A,115.6293,34.3948,商丘市,睢阳区环保局,,39,39,29,13,11,77,,60,59,7,6,5,3,0.4,0.3
2025-08-23T1000,3171A,115.6071,34.4465,商丘市,梁园区档案局,,32,32,26,9,11,74,,64,63,8,7,4,3,0.6,0.5
2025-08-23T1000,1141A,121.4,31.238,上海市,普陀,,50,50,34,34,19,153,,72,72,18,18,7,6,0.6,0.5
2025-08-23T1000,1142A,121.478,31.2036,上海市,十五厂,颗粒物(PM10),56,61,34,29,21,151,,72,72,16,15,10,8,0.6,0.5
2025-08-23T1000,1143A,121.467,31.3008,上海市,虹口,,46,44,33,32,21,140,,70,70,11,15,7,6,0.7,0.7
2025-08-23T1000,1147A,121.425,31.2261,上海市,静安监测站,,49,48,35,28,22,154,,78,78,18,17,6,5,0.9,0.8
2025-08-23T1000,1148A,121.703,31.1907,上海市,浦东川沙,颗粒物(PM10),51,51,32,28,19,148,,78,78,17,15,8,7,0.8,0.8
2025-08-23T1000,1149A,121.533,31.2284,上海市,浦东新区监测站,,48,47,31,20,26,151,,76,76,16,13,6,6,0.1,0.5
2025-08-23T1000,1150A,121.577,31.2071,上海市,浦东张江,颗粒物(PM10),53,55,33,30,20,156,,85,85,16,15,6,6,0.9,0.8
2025-08-23T1000,3265A,121.4316,31.3322,上海市,宝山庙行,颗粒物(PM10),51,51,36,27,21,137,,67,67,18,19,6,6,0.5,0.5
2025-08-23T1000,3266A,121.8791,31.4662,上海市,崇明上实东滩,,50,50,29,35,21,130,,79,79,16,16,6,5,0.8,0.6
2025-08-23T1000,3268A,121.3162,31.2838,上海市,嘉定南翔,,,53,35,27,22,,,40,39,17,24,,5,0.4,0.3
2025-08-23T1000,3269A,121.3359,30.7456,上海市,金山新城,,45,45,29,28,20,111,,77,77,16,12,7,6,0.7,0.6
2025-08-23T1000,3270A,121.4996,31.0739,上海市,闵行浦江,颗粒物(PM10),52,53,28,25,17,138,,70,70,14,13,6,5,0.8,0.8
2025-08-23T1000,3271A,121.2886,31.1663,上海市,青浦徐泾,,47,47,28,28,19,150,,66,66,12,16,8,7,0.8,0.7
2025-08-23T1000,3272A,121.2186,31.0378,上海市,松江图书馆,,50,50,28,35,22,143,,63,63,21,20,9,8,0.7,0.6
2025-08-23T1000,3273A,121.3902,31.2059,上海市,长宁仙霞,,46,46,33,26,17,133,,62,62,20,18,10,9,0.8,0.7
2025-08-23T1000,3274A,121.7965,31.0507,上海市,浦东惠南,,43,35,26,30,22,130,,76,76,12,15,10,10,0.9,0.8
2025-08-23T1000,3544A,121.4891,30.925,上海市,奉贤南桥新城,,40,36,26,28,18,128,,77,77,8,11,6,5,0.7,0.7
2025-08-23T1000,4183A,121.4174,31.16637,上海市,冠生园路458号,,49,49,32,28,20,134,,64,64,20,19,4,4,0.8,0.7
2025-08-23T1000,4205A,121.5419,31.2683,上海市,宁武路151号,,,,48,,25,,,,,,21,,4,,0.3
2025-08-23T1000,2381A,118.005,28.4572,上饶市,百草园,,,,,,,,,,,,,,,,
2025-08-23T1000,2382A,117.9756,28.4436,上饶市,市监测站,,28,28,21,9,8,56,,26,26,12,9,11,7,0.6,0.4
2025-08-23T1000,2383A,117.9519,28.4628,上饶市,凤凰光学,,27,27,23,12,9,46,,27,27,12,10,13,12,0.2,0.2
2025-08-23T1000,3685A,117.897,28.4315,上饶市,双创科技城,,21,21,21,10,11,58,,36,36,12,11,9,11,0.4,0.4
2025-08-23T1000,4211A,118.1904,28.4448,上饶市,裕丰大道,,27,27,19,13,8,62,,26,26,10,11,19,18,0.4,0.4
2025-08-23T1000,1669A,113.5824,24.7733,韶关市,市八中,,44,44,35,24,19,63,,19,19,12,16,17,17,0.7,0.7
2025-08-23T1000,1671A,113.5917,24.7972,韶关市,园林处,,32,29,29,22,18,67,,18,18,8,14,16,14,0.5,0.5
2025-08-23T1000,1673A,113.5971,24.6863,韶关市,曲江监测站,,42,42,30,26,15,49,,18,18,24,19,18,8,0.7,0.6
2025-08-23T1000,2809A,113.6668,24.7756,韶关市,大学路288号,,28,28,26,19,15,64,,19,19,9,10,26,15,0.7,0.7
2025-08-23T1000,3622A,113.5556,24.8082,韶关市,碧湖山庄,,45,45,35,23,18,56,,19,19,11,12,11,10,0.8,0.7
2025-08-23T1000,2462A,111.5239,27.3033,邵阳市,市水土所,,,,,,,,,,,,,,,,
2025-08-23T1000,2464A,111.5283,27.2442,邵阳市,市化工厂,,40,40,29,19,16,38,,9,9,14,15,10,9,0.7,0.7
