timepoint,stationcode,longitude,latitude,area,positionname,primarypollutant,aqi,pm10,pm10_24h,pm2_5,pm2_5_24h,o3,o3_24h,o3_8h,o3_8h_24h,no2,no2_24h,so2,so2_24h,co,co_24h
2024-10-07T2100,2566A,102.1879,31.914,阿坝藏族羌族自治州,州农科所,颗粒物(PM10),57,64,29,19,9,20,,44,37,21,14,9,9,0.1,0.1
2024-10-07T2100,2568A,102.2502,31.8896,阿坝藏族羌族自治州,马师校,,33,33,14,12,14,11,,41,35,11,7,5,4,0.3,0.3
2024-10-07T2100,3994A,102.2165,31.9024,阿坝藏族羌族自治州,马尔康中学西区,,30,24,17,21,15,13,,38,34,12,7,6,5,0.5,0.4
2024-10-07T2100,2695A,80.292,41.1694,阿克苏地区,电视台,颗粒物(PM10),140,229,112,70,38,54,,93,93,54,32,5,4,0.8,0.6
2024-10-07T2100,2696A,80.2613,41.1551,阿克苏地区,艺术中心,颗粒物(PM10),109,167,108,49,35,48,,93,92,57,32,5,4,0.9,0.6
2024-10-07T2100,2204A,105.6467,38.8363,阿拉善盟,西城区西花园,,35,24,35,19,18,112,,120,118,11,12,9,9,0.8,0.8
2024-10-07T2100,2205A,105.6985,38.8411,阿拉善盟,蒙二幼,,33,27,24,8,9,104,,111,110,10,7,8,7,0.7,0.6
2024-10-07T2100,2206A,105.724,38.8516,阿拉善盟,环保局新楼,,36,22,21,8,8,113,,112,112,7,7,9,8,0.5,0.5
2024-10-07T2100,2708A,88.1264,47.8517,阿勒泰地区,市站,颗粒物(PM10),55,60,31,20,7,38,,89,83,67,16,10,8,0.5,0.2
2024-10-07T2100,2630A,80.1161,32.5,阿里地区,阿里监测站,,36,6,10,3,5,114,,121,121,6,12,6,6,0.4,0.4
2024-10-07T2100,3192A,80.0903,32.5028,阿里地区,阿里藏医院,,37,16,13,3,7,116,,120,120,5,9,5,5,0.4,0.4
2024-10-07T2100,2642A,109.0318,32.6537,安康市,香溪洞,,35,35,29,16,18,95,,110,110,13,6,9,8,0.4,0.4
2024-10-07T2100,2643A,109.0281,32.6939,安康市,安康市监测站,,46,46,39,32,27,58,,100,95,23,12,14,10,0.7,0.6
2024-10-07T2100,2644A,109.0072,32.6975,安康市,汉滨区检察院,,45,45,40,20,25,58,,99,96,23,13,7,10,0.5,0.7
2024-10-07T2100,2291A,117.0809,30.5177,安庆市,环科院,,22,8,8,6,7,68,,74,65,15,13,7,7,0.5,0.4
2024-10-07T2100,2292A,117.0331,30.5119,安庆市,马山宾馆,,24,7,9,3,6,75,,79,71,17,15,8,8,0.4,0.3
2024-10-07T2100,2294A,116.9896,30.6145,安庆市,安庆大学,,25,6,8,3,5,78,,77,75,8,8,8,7,0.5,0.4
2024-10-07T2100,3173A,117.0598,30.5351,安庆市,市人大,,22,8,9,3,6,69,,71,65,13,12,8,9,0.7,0.7
2024-10-07T2100,3123A,105.9408,26.2431,安顺市,凤凰山,,38,30,27,26,20,75,,87,85,9,9,6,7,0.4,0.4
2024-10-07T2100,3124A,105.9439,26.2564,安顺市,金钟山,,39,29,28,27,23,77,,87,86,8,8,8,9,0.5,0.5
2024-10-07T2100,3125A,105.8983,26.2481,安顺市,娄家坡,,40,34,28,28,22,74,,84,82,10,9,8,9,0.6,0.6
2024-10-07T2100,1818A,114.4839,36.0621,安阳市,棉研所,细颗粒物(PM2.5),149,115,130,114,103,50,,92,90,51,38,7,7,1.2,0.9
2024-10-07T2100,1819A,114.3551,36.1017,安阳市,红庙街,细颗粒物(PM2.5),110,114,115,83,91,46,,90,88,35,30,4,5,1.1,0.9
2024-10-07T2100,1820A,114.361,36.0681,安阳市,银杏小区,细颗粒物(PM2.5),144,,112,110,78,,,97,97,29,22,4,4,,1
2024-10-07T2100,3141A,114.3922,36.0878,安阳市,信访局,细颗粒物(PM2.5),122,108,123,92,102,61,,89,89,34,30,3,4,1.0,0.7
2024-10-07T2100,3669A,114.4705,36.0637,安阳市,左辅环卫站,细颗粒物(PM2.5),117,152,148,88,97,59,,92,91,36,32,4,5,1.3,1.1
2024-10-07T2100,3703A,114.2917,36.0949,安阳市,安钢职工学校,细颗粒物(PM2.5),134,108,124,102,104,21,,89,84,62,40,1,12,1.1,1.4
2024-10-07T2100,1748A,123.044,41.1196,鞍山市,深沟寺,,36,36,34,22,21,50,,75,71,24,15,8,6,0.9,0.6
2024-10-07T2100,1749A,123.011,41.0931,鞍山市,太阳城,,29,29,31,20,21,64,,77,75,16,15,9,8,0.9,0.4
2024-10-07T2100,1750A,123.0485,41.1442,鞍山市,太平,颗粒物(PM10),61,72,37,39,22,11,,75,65,63,20,13,11,1.8,0.8
2024-10-07T2100,1751A,122.9642,41.0971,鞍山市,铁西三道街,颗粒物(PM10),53,55,46,31,26,40,,71,66,45,27,16,13,2.6,1.4
2024-10-07T2100,1752A,122.9341,41.0833,鞍山市,铁西工业园区,细颗粒物(PM2.5),92,100,42,68,26,9,,76,60,64,25,12,14,1.1,0.6
2024-10-07T2100,1753A,123.022,41.0821,鞍山市,明达新区,,40,40,32,27,23,42,,70,66,20,13,8,6,1.0,0.5
2024-10-07T2100,2195A,107.4212,40.761,巴彦淖尔市,附二中,细颗粒物(PM2.5),123,152,54,93,30,52,,87,81,43,21,59,10,0.7,0.4
2024-10-07T2100,2196A,107.37,40.7372,巴彦淖尔市,市环保大楼,,48,48,40,28,24,63,,83,79,27,17,3,4,0.6,0.4
2024-10-07T2100,1956A,86.1472,41.7538,巴音郭楞蒙古自治州,孔雀公园,颗粒物(PM10),88,125,103,31,28,61,,91,90,40,52,1,3,0.6,0.6
2024-10-07T2100,1957A,86.1972,41.7166,巴音郭楞蒙古自治州,棉纺厂,颗粒物(PM10),92,134,130,35,29,62,,92,89,28,32,5,6,0.4,0.4
2024-10-07T2100,1958A,86.2357,41.7173,巴音郭楞蒙古自治州,经济开发区,颗粒物(PM10),87,123,121,30,30,49,,92,87,33,21,7,7,0.3,0.2
2024-10-07T2100,2914A,106.7677,31.8794,巴中市,苏山坪,,43,37,36,30,26,57,,85,82,23,11,3,2,0.6,0.5
2024-10-07T2100,3182A,106.7656,31.8545,巴中市,丽阳花园,细颗粒物(PM2.5),55,54,34,39,27,20,,83,70,40,15,5,5,0.7,0.6
2024-10-07T2100,3183A,106.7418,31.8654,巴中市,圣泉水务公司,细颗粒物(PM2.5),55,47,32,39,28,9,,86,70,50,14,4,4,0.6,0.5
2024-10-07T2100,3616A,106.7616,31.8344,巴中市,市中心医院,"颗粒物(PM10),细颗粒物(PM2.5)",59,67,36,42,22,31,,82,73,33,11,4,5,0.6,0.5
2024-10-07T2100,2235A,122.7911,45.6077,白城市,洮北区环保局,颗粒物(PM10),51,51,45,25,34,46,,71,63,23,17,5,5,0.4,0.7
2024-10-07T2100,2236A,122.8738,45.5725,白城市,市环保局,,36,36,49,17,31,41,,67,57,23,25,4,5,0.4,0.5
2024-10-07T2100,2231A,126.4219,41.9171,白山市,喜丰,颗粒物(PM10),55,59,32,22,15,11,,81,64,58,14,6,7,0.7,0.5
2024-10-07T2100,2232A,126.4077,41.9419,白山市,环保局,颗粒物(PM10),54,58,35,26,14,17,,72,61,41,12,8,8,0.8,0.7
2024-10-07T2100,2647A,104.1724,36.5446,白银市,第三小学,,,66,57,37,29,,,97,97,,22,,49,,0.9
2024-10-07T2100,2648A,104.1465,36.5482,白银市,动力公司,颗粒物(PM10),55,59,51,31,25,43,,95,89,44,22,11,18,0.6,1
2024-10-07T2100,2512A,106.6103,23.9011,百色市,市监测站,,40,40,42,28,29,79,,100,98,7,12,7,7,0.7,0.7
2024-10-07T2100,2513A,106.6538,23.8859,百色市,市中心血站,颗粒物(PM10),51,51,58,32,41,65,,101,95,18,23,5,6,0.7,0.7
2024-10-07T2100,3406A,106.6085,23.8798,百色市,祈福高中,"颗粒物(PM10),细颗粒物(PM2.5)",52,53,60,36,32,76,,98,96,14,20,5,4,0.8,0.7
2024-10-07T2100,2270A,117.396,32.939,蚌埠市,工人疗养院,,31,31,15,9,7,47,,94,74,33,11,4,5,0.4,0.3
2024-10-07T2100,2271A,117.3605,32.9427,蚌埠市,百货大楼,,38,38,14,21,7,39,,91,79,46,13,5,4,0.4,0.3
2024-10-07T2100,2273A,117.4185,32.8911,蚌埠市,蚌埠学院,,35,27,7,24,10,48,,96,72,28,15,6,6,0.3,0.3
2024-10-07T2100,2274A,117.3533,32.9673,蚌埠市,淮上区政府,,39,39,14,23,9,38,,94,79,47,11,6,5,0.4,0.3
2024-10-07T2100,2275A,117.3145,32.8977,蚌埠市,高新区,,32,29,11,22,10,12,,94,61,60,20,6,8,0.4,0.3
2024-10-07T2100,3715A,117.3092,32.9314,蚌埠市,蚌埠田家炳中学,,38,38,17,13,11,17,,96,66,53,16,5,4,0.3,0.2
2024-10-07T2100,1585A,109.8756,40.6532,包头市,市环境监测站,颗粒物(PM10),59,68,36,35,19,21,,76,61,70,30,14,17,0.9,0.8
2024-10-07T2100,1587A,109.9991,40.5842,包头市,包头八中,颗粒物(PM10),63,76,41,33,23,8,,79,66,84,36,7,8,1.2,0.8
2024-10-07T2100,1588A,109.8538,40.6821,包头市,青山宾馆,,46,46,31,14,23,47,,78,72,40,25,9,18,0.6,0.8
2024-10-07T2100,1589A,109.8642,40.6288,包头市,惠龙物流,颗粒物(PM10),52,54,34,32,20,16,,80,72,83,29,19,17,1.1,0.9
2024-10-07T2100,1590A,110.0377,40.5546,包头市,东河鸿龙湾,颗粒物(PM10),57,64,32,23,16,18,,88,79,68,28,9,10,0.9,0.6
2024-10-07T2100,3283A,109.9154,40.5685,包头市,滨河大厦,细颗粒物(PM2.5),58,61,33,41,21,31,,86,78,68,30,33,17,0.8,0.6
2024-10-07T2100,3419A,109.9447,40.6261,包头市,包头市委党校,,45,45,36,31,21,13,,87,78,90,33,13,13,0.8,0.5
2024-10-07T2100,3683A,109.8331,40.6576,包头市,昆区政府,颗粒物(PM10),54,57,36,18,24,38,,80,72,51,24,10,21,0.5,0.8
2024-10-07T2100,1930A,107.185,34.3063,宝鸡市,庙沟村,,36,32,29,25,17,78,,93,90,14,12,7,7,0.6,0.6
2024-10-07T2100,1931A,107.0708,34.3017,宝鸡市,竹园沟,,33,31,29,23,18,49,,100,88,23,18,7,7,0.5,0.4
2024-10-07T2100,1932A,107.1906,34.3672,宝鸡市,三陆医院,"颗粒物(PM10),细颗粒物(PM2.5)",62,74,48,44,27,23,,85,72,69,37,6,8,0.6,0.5
2024-10-07T2100,1933A,107.1431,34.3547,宝鸡市,监测站,,50,50,42,25,21,29,,91,73,35,23,7,7,0.5,0.5
2024-10-07T2100,1934A,107.1186,34.3739,宝鸡市,技工学校,颗粒物(PM10),56,61,43,37,25,51,,94,84,33,25,8,7,0.7,0.6
2024-10-07T2100,1935A,107.3906,34.3528,宝鸡市,陈仓区环保局家属楼,细颗粒物(PM2.5),93,71,50,69,36,49,,100,98,52,33,9,10,0.8,0.6
2024-10-07T2100,1936A,107.2058,34.3497,宝鸡市,文理学院,,43,43,41,16,23,24,,87,68,44,29,8,9,0.6,0.5
2024-10-07T2100,1937A,107.2386,34.3622,宝鸡市,三迪小学,颗粒物(PM10),53,56,44,29,26,32,,84,78,60,36,8,9,0.7,0.6
2024-10-07T2100,1051A,115.493,38.8632,保定市,游泳馆,细颗粒物(PM2.5),72,81,72,52,54,35,,88,80,56,25,1,2,0.6,0.5
2024-10-07T2100,1052A,115.5213,38.8959,保定市,华电二区,细颗粒物(PM2.5),58,58,73,41,60,32,,82,77,40,27,3,3,0.3,0.3
2024-10-07T2100,1053A,115.4713,38.9108,保定市,接待中心,细颗粒物(PM2.5),82,104,82,60,66,37,,79,73,43,29,3,3,0.5,0.5
2024-10-07T2100,1054A,115.4612,38.8416,保定市,地表水厂,细颗粒物(PM2.5),74,65,73,54,56,38,,77,68,44,24,3,3,0.0,0.2
2024-10-07T2100,3581A,115.31981,38.95208,保定市,满城区生态环境分局,细颗粒物(PM2.5),73,85,87,53,57,43,,86,79,36,31,3,4,0.7,0.6
2024-10-07T2100,3582A,115.47694,38.76408,保定市,清苑区第二中学,细颗粒物(PM2.5),79,97,77,58,58,25,,88,81,70,32,5,4,0.5,0.5
2024-10-07T2100,3583A,115.62909,39.02311,保定市,徐水物探局,细颗粒物(PM2.5),73,85,57,53,47,7,,73,59,70,29,4,4,0.4,0.4
2024-10-07T2100,4004A,115.4202,38.8656,保定市,双鹰农机,颗粒物(PM10),75,100,81,54,54,15,,84,72,75,35,3,3,0.6,0.6
2024-10-07T2100,4034A,115.5150,38.8590,保定市,植保所站,"颗粒物(PM10),细颗粒物(PM2.5)",68,86,71,49,54,19,,84,77,60,31,2,4,0.5,0.4
2024-10-07T2100,2594A,99.1678,25.1081,保山市,市环境监测站,,22,22,25,15,10,34,,46,41,6,7,5,5,0.4,0.4
2024-10-07T2100,2595A,99.1711,25.1328,保山市,市环保局,,20,20,26,11,8,45,,54,51,3,6,4,5,0.3,0.5
2024-10-07T2100,1867A,109.1436,21.4086,北海市,海滩公园,颗粒物(PM10),60,70,57,37,33,161,,167,167,11,12,11,10,0.9,0.8
2024-10-07T2100,1868A,109.0981,21.4661,北海市,新市环保局,细颗粒物(PM2.5),67,72,57,48,39,160,,165,165,10,11,7,10,0.7,0.8
2024-10-07T2100,1869A,109.1778,21.5233,北海市,北海工业园,细颗粒物(PM2.5),70,66,57,51,40,156,,160,160,12,13,8,11,1.0,0.9
2024-10-07T2100,3400A,109.1911,21.4415,北海市,龙潭自来水厂,细颗粒物(PM2.5),72,68,54,52,41,156,,167,167,9,12,9,12,0.7,0.7
2024-10-07T2100,1001A,116.3621,39.8784,北京市,万寿西宫,,29,29,19,20,14,58,,66,66,32,28,1,1,0.4,0.3
2024-10-07T2100,1002A,116.2202,40.2915,北京市,定陵,,7,6,7,3,8,11,,50,38,13,8,3,2,0.2,0.2
2024-10-07T2100,1003A,116.4174,39.9289,北京市,东四,颗粒物(PM10),51,51,21,32,14,66,,75,74,24,16,2,3,0.6,0.5
2024-10-07T2100,1004A,116.4072,39.8863,北京市,天坛,,29,28,18,20,14,31,,69,63,27,16,3,3,0.4,0.4
2024-10-07T2100,1005A,116.462,39.9365,北京市,农展馆,,46,46,18,27,12,56,,69,68,33,20,1,3,0.5,0.3
2024-10-07T2100,1006A,116.3392,39.9295,北京市,官园,颗粒物(PM10),51,51,24,30,16,56,,70,69,23,18,3,3,0.3,0.6
2024-10-07T2100,1007A,116.2878,39.9611,北京市,海淀万柳,颗粒物(PM10),52,53,25,31,18,48,,68,66,38,24,3,3,0.5,0.4
2024-10-07T2100,1008A,116.6636,40.135,北京市,顺义新城,,16,13,13,6,9,14,,60,51,32,16,3,3,0.3,0.3
2024-10-07T2100,1009A,116.6275,40.3275,北京市,怀柔镇,,13,9,16,7,12,41,,64,58,8,9,3,3,0.3,0.4
2024-10-07T2100,1010A,116.2296,40.217,北京市,昌平镇,,13,11,17,3,10,41,,59,53,15,15,3,3,0.2,0.3
2024-10-07T2100,1011A,116.3966,39.9821,北京市,奥体中心,,46,46,21,32,15,67,,67,67,30,26,2,2,0.5,0.5
2024-10-07T2100,1012A,116.184,39.9136,北京市,古城,颗粒物(PM10),56,61,37,29,26,3,,65,54,68,21,3,3,0.8,0.6
2024-10-07T2100,3281A,115.9718,40.4529,北京市,延庆夏都,,20,15,10,8,6,12,,68,60,39,15,1,2,0.4,0.3
2024-10-07T2100,3417A,117.0709,40.1465,北京市,平谷新城,,22,21,21,15,18,12,,64,46,17,11,3,3,0.4,0.3
2024-10-07T2100,3418A,116.8336,40.4095,北京市,密云新城,,24,24,11,8,7,17,,58,46,13,9,3,2,0.3,0.3
2024-10-07T2100,3671A,116.088,39.9726,北京市,门头沟三家店,,22,22,28,9,17,23,,66,58,30,14,2,2,0.2,0.3
2024-10-07T2100,3672A,116.1541,39.8204,北京市,丰台云岗,颗粒物(PM10),54,57,35,30,26,5,,60,51,59,24,3,3,0.5,0.4
2024-10-07T2100,3673A,116.6804,39.9081,北京市,通州东关,,29,29,23,12,14,25,,64,56,43,20,3,2,0.4,0.4
2024-10-07T2100,3674A,115.9577,39.7603,北京市,房山燕山,,33,33,34,23,22,47,,66,65,14,12,3,3,0.3,0.3
2024-10-07T2100,3675A,116.4672,39.7733,北京市,大兴旧宫,,36,36,28,11,15,19,,69,59,38,20,3,3,0.4,0.4
2024-10-07T2100,3694A,115.986,40.4563,北京市,延庆石河营,,16,11,8,6,6,9,,62,55,31,11,3,3,0.3,0.2
2024-10-07T2100,3695A,116.6151,40.3053,北京市,怀柔新城,,15,8,15,3,12,47,,61,58,8,8,3,3,0.2,0.3
2024-10-07T2100,3696A,116.2545,39.8768,北京市,丰台小屯,颗粒物(PM10),52,53,29,33,20,30,,64,59,45,22,3,2,0.6,0.5
2024-10-07T2100,3697A,116.84,40.3844,北京市,密云镇,,25,25,11,13,7,9,,61,44,37,15,3,3,0.4,0.3
2024-10-07T2100,1761A,123.8275,41.3064,本溪市,大峪,,29,27,27,20,18,54,,82,75,12,12,9,9,0.7,0.7
2024-10-07T2100,1762A,123.7567,41.3325,本溪市,溪湖,颗粒物(PM10),53,55,36,26,20,11,,78,63,57,17,9,9,0.6,0.6
2024-10-07T2100,1763A,123.7169,41.3094,本溪市,彩屯,,33,29,36,23,26,25,,70,54,35,28,8,9,0.7,0.8
2024-10-07T2100,1764A,123.7669,41.2864,本溪市,东明,颗粒物(PM10),56,62,34,32,19,15,,79,62,58,22,5,5,1.3,0.8
2024-10-07T2100,1765A,123.7992,41.2664,本溪市,新立屯,,28,24,24,17,17,11,,80,56,55,20,5,6,0.4,0.5
2024-10-07T2100,1766A,123.8142,41.3472,本溪市,威宁,颗粒物(PM10),64,78,34,27,21,11,,82,56,52,19,8,8,0.6,0.5
2024-10-07T2100,2587A,105.2864,27.3125,毕节市,八中,,29,25,24,20,20,62,,74,66,10,8,6,6,0.4,0.4
2024-10-07T2100,2588A,105.31,27.2944,毕节市,师专,,36,30,23,25,20,51,,73,64,15,8,9,7,0.5,0.5
2024-10-07T2100,3537A,105.3631,27.3533,毕节市,长征村,细颗粒物(PM2.5),52,45,34,36,28,50,,80,70,11,7,8,7,0.5,0.5
2024-10-07T2100,1629A,118.0018,37.3617,滨州市,第二水厂,,36,36,37,17,18,39,,88,80,50,15,7,6,0.5,0.3
2024-10-07T2100,1630A,117.9776,37.393,滨州市,北中新校,,36,36,39,9,17,20,,87,77,48,16,6,9,0.5,0.4
2024-10-07T2100,3514A,117.9378,37.3956,滨州市,中海酒店,,19,19,34,7,21,60,,92,87,26,12,6,6,0.5,0.5
2024-10-07T2100,3515A,117.9378,37.3553,滨州市,开发区一中,,24,24,36,3,19,64,,87,85,27,15,8,9,0.3,0.6
2024-10-07T2100,3516A,118.0917,37.694,滨州市,金海六路,颗粒物(PM10),51,51,27,17,12,28,,90,80,51,15,4,4,0.5,0.4
2024-10-07T2100,4028A,117.9956,37.3753,滨州市,滨州市西街道办事处,,32,31,31,22,22,48,,88,82,40,13,11,8,0.6,0.6
2024-10-07T2100,2311A,115.8072,33.8399,亳州市,污水处理厂,,27,23,27,12,23,86,,109,108,19,14,3,5,0.4,0.4
2024-10-07T2100,2312A,115.7789,33.8518,亳州市,三国揽胜宫,,26,26,25,18,26,81,,104,102,14,13,3,4,0.3,0.4
2024-10-07T2100,3332A,115.7633,33.8034,亳州市,亳州学院,,30,30,35,15,24,76,,108,105,21,14,2,3,0.4,0.4
2024-10-07T2100,2693A,82.0485,44.8556,博尔塔拉蒙古自治州,市党校,颗粒物(PM10),53,55,49,18,19,41,,102,97,16,12,5,7,0.3,0.3
2024-10-07T2100,2694A,82.0806,44.8969,博尔塔拉蒙古自治州,市环保局,颗粒物(PM10),63,76,63,20,20,40,,92,91,47,21,8,6,0.6,0.5
2024-10-07T2100,1071A,116.8842,38.2991,沧州市,沧县城建局,颗粒物(PM10),65,80,45,26,30,11,,85,75,72,25,4,5,0.9,0.9
2024-10-07T2100,1072A,116.8584,38.3254,沧州市,电视转播站,,45,45,45,22,27,27,,89,80,54,26,6,9,0.6,0.8
2024-10-07T2100,1073A,116.8709,38.3228,沧州市,市环保局,颗粒物(PM10),54,58,55,33,35,18,,84,74,53,22,2,5,0.6,0.8
2024-10-07T2100,3324A,116.8136,38.3004,沧州市,河北水利电力学院,,46,44,44,32,35,32,,88,80,51,23,3,6,0.4,0.7
2024-10-07T2100,2622A,97.1806,31.1273,昌都市,昌都监测站,,,,5,8,4,79,,80,79,8,6,8,8,0.6,0.5
2024-10-07T2100,3719A,97.1714,31.1406,昌都市,昌都会议中心,,29,10,6,7,4,92,,90,90,3,3,8,8,0.3,0.3
2024-10-07T2100,2690A,88.1236,43.8886,昌吉回族自治州,天山天池,,38,38,20,9,6,74,,103,100,6,5,8,8,0.5,0.5
2024-10-07T2100,2692A,87.2717,44.0297,昌吉回族自治州,新区政务中心,颗粒物(PM10),63,75,67,19,26,28,,109,100,82,29,8,7,1.2,0.8
2024-10-07T2100,3613A,87.3095,44.0142,昌吉回族自治州,亚心广场,颗粒物(PM10),73,95,88,24,23,20,,102,93,106,41,10,6,1.4,0.8
2024-10-07T2100,1119A,125.3325,43.9166,长春市,食品厂,细颗粒物(PM2.5),68,58,42,49,22,23,,66,49,52,31,5,7,0.6,0.4
2024-10-07T2100,1120A,125.2863,43.9027,长春市,客车厂,细颗粒物(PM2.5),63,53,37,45,23,24,,67,49,54,31,7,8,0.6,0.5
2024-10-07T2100,1121A,125.2841,43.8463,长春市,邮电学院,细颗粒物(PM2.5),57,50,33,40,20,18,,74,54,64,29,7,7,0.5,0.4
2024-10-07T2100,1122A,125.3716,43.8772,长春市,劳动公园,颗粒物(PM10),53,56,37,34,18,18,,80,61,61,29,7,8,0.4,0.3
2024-10-07T2100,1123A,125.3297,43.8805,长春市,园林处,,50,40,30,35,20,40,,71,59,37,25,5,6,0.5,0.3
2024-10-07T2100,1124A,125.4605,43.79,长春市,净月潭,,36,36,30,21,18,29,,72,60,23,23,5,6,0.3,0.3
2024-10-07T2100,1126A,125.3863,43.8447,长春市,经开区环卫处,颗粒物(PM10),58,65,36,28,21,4,,72,52,64,28,9,8,1.0,0.5
2024-10-07T2100,1127A,125.245,43.7783,长春市,高新区管委会,细颗粒物(PM2.5),74,66,38,54,24,9,,75,50,56,27,6,6,0.6,0.4
2024-10-07T2100,1128A,125.1761,43.8325,长春市,岱山公园,细颗粒物(PM2.5),64,49,35,46,23,28,,71,57,46,23,5,5,0.5,0.4
2024-10-07T2100,1335A,113.0833,28.2325,长沙市,经开区环保局,,46,42,54,32,44,91,,97,96,16,16,4,5,0.4,0.4
2024-10-07T2100,1336A,112.8872,28.2189,长沙市,高开区环保局,细颗粒物(PM2.5),52,40,56,36,51,91,,96,96,9,10,4,5,0.3,0.3
2024-10-07T2100,1337A,113.0792,28.2053,长沙市,马坡岭,,45,43,55,31,47,94,,99,98,8,9,4,5,0.5,0.5
2024-10-07T2100,1338A,112.9394,28.19,长沙市,湖南师范大学,,46,44,60,32,43,89,,97,97,12,9,2,4,0.5,0.6
2024-10-07T2100,1339A,113.0178,28.1322,长沙市,雨花区环保局,细颗粒物(PM2.5),52,41,54,36,50,88,,96,94,11,8,6,6,0.5,0.5
2024-10-07T2100,1340A,112.9792,28.2597,长沙市,伍家岭,细颗粒物(PM2.5),57,51,52,40,42,82,,94,91,10,8,4,4,0.7,0.7
2024-10-07T2100,1341A,113.0014,28.1944,长沙市,火车新站,细颗粒物(PM2.5),52,47,54,36,41,82,,90,89,14,11,5,5,0.4,0.4
2024-10-07T2100,1342A,112.9844,28.1178,长沙市,天心区环保局,,,47,67,28,45,,,87,87,12,13,4,5,0.5,0.8
2024-10-07T2100,1343A,112.8908,28.1308,长沙市,湖南中医药大学,,48,44,59,33,50,97,,101,100,6,7,5,6,0.9,1
2024-10-07T2100,1344A,112.9581,28.3611,长沙市,沙坪,,41,41,47,26,30,84,,96,94,8,6,8,8,0.7,0.7
2024-10-07T2100,1727A,113.1147,36.1547,长治市,清华站,细颗粒物(PM2.5),110,83,47,83,38,118,,134,134,17,18,9,9,1.1,1.1
2024-10-07T2100,1728A,113.1031,36.1989,长治市,监测站,细颗粒物(PM2.5),98,87,51,73,44,122,,132,132,18,18,10,11,1.0,1.1
2024-10-07T2100,1730A,113.0886,36.2125,长治市,审计局,细颗粒物(PM2.5),113,,52,85,52,118,,130,130,17,13,7,9,0.6,0.7
2024-10-07T2100,1731A,113.0844,36.1856,长治市,长治八中,细颗粒物(PM2.5),82,103,61,60,31,117,,133,133,20,17,8,9,1.0,1.1
2024-10-07T2100,2845A,113.1569,36.1911,长治市,德盛苑,细颗粒物(PM2.5),104,93,56,78,38,115,,132,131,17,14,4,5,1.1,1.1
2024-10-07T2100,3568A,113.06,36.0464,长治市,向阳小学,细颗粒物(PM2.5),133,116,92,101,72,112,,134,132,24,27,6,7,1.0,1
2024-10-07T2100,3569A,112.8792,36.3144,长治市,屯留一中,细颗粒物(PM2.5),152,120,72,116,60,106,,139,132,24,23,10,17,1.7,1.8
2024-10-07T2100,3570A,113.235,36.3489,长治市,潞城四中,细颗粒物(PM2.5),112,,54,84,58,69,,131,115,22,16,8,7,1.1,0.9
2024-10-07T2100,1854A,111.6975,28.9703,常德市,市二中,,,,37,57,31,,,110,109,27,12,4,9,0.6,0.6
2024-10-07T2100,3138A,111.7153,29.0289,常德市,武陵区永安,细颗粒物(PM2.5),62,64,37,44,29,82,,109,105,23,13,11,10,0.9,0.8
2024-10-07T2100,3139A,111.6892,28.9881,常德市,鼎城区玉霞,颗粒物(PM10),69,87,39,48,27,66,,116,108,31,12,12,12,0.8,0.7
2024-10-07T2100,3140A,111.6625,29.0531,常德市,武陵区长庚,细颗粒物(PM2.5),63,64,41,45,33,84,,112,106,25,14,10,10,0.5,0.4
2024-10-07T2100,1196A,119.9633,31.762,常州市,市监测站,,32,32,12,19,8,66,,97,88,19,8,7,6,0.5,0.4
2024-10-07T2100,1200A,119.9468,31.7069,常州市,武进监测站,,26,26,12,16,7,52,,98,84,26,8,12,6,0.7,0.6
2024-10-07T2100,1201A,119.9255,31.9087,常州市,安家,,,38,16,15,8,56,,96,78,30,17,5,6,,0.2
2024-10-07T2100,3002A,119.9805,31.8174,常州市,行政中心,,32,32,14,18,7,62,,92,79,21,13,4,4,0.2,0.1
2024-10-07T2100,3003A,120.0522,31.7748,常州市,经开区,,,42,17,,5,,,96,89,,14,,6,,0
2024-10-07T2100,3010A,119.9025,31.7964,常州市,钟楼,,25,25,17,17,7,56,,91,78,27,15,8,8,0.7,1.6
2024-10-07T2100,3429A,119.8598,31.7066,常州市,武进经发区,,30,30,14,19,9,70,,88,82,13,14,6,6,0.5,0.4
2024-10-07T2100,3430A,119.5826,31.7245,常州市,金坛城区,,26,23,14,16,11,82,,99,92,9,7,8,7,0.6,0.5
2024-10-07T2100,2220A,120.4318,41.5881,朝阳市,西梁,颗粒物(PM10),77,103,42,39,20,7,,61,42,37,20,7,7,1.0,0.7
2024-10-07T2100,2221A,120.4521,41.5646,朝阳市,河畔小区,,,,25,19,14,17,,62,53,34,16,7,8,1.2,0.5
2024-10-07T2100,2222A,120.4176,41.5648,朝阳市,八里堡,颗粒物(PM10),64,78,38,29,16,7,,65,44,53,27,10,10,1.2,0.7
2024-10-07T2100,2223A,120.3806,41.5969,朝阳市,农业园区,,19,19,19,11,15,25,,65,49,24,15,6,6,0.4,0.4
2024-10-07T2100,1705A,116.6367,23.6719,潮州市,西园路,,26,26,28,14,22,63,,68,68,11,10,4,4,0.5,0.5
2024-10-07T2100,3026A,116.6183,23.6608,潮州市,市政府,,20,18,32,14,16,62,,77,76,6,9,5,7,0.6,0.6
2024-10-07T2100,4036A,116.6461,23.6761,潮州市,金山,,26,,27,14,23,83,,78,78,8,8,7,7,0.6,0.6
2024-10-07T2100,2472A,113.0073,25.9061,郴州市,马头岭,颗粒物(PM10),58,65,91,35,44,100,,118,114,9,16,8,10,0.3,0.5
2024-10-07T2100,2473A,113.0116,25.8226,郴州市,市职中,细颗粒物(PM2.5),89,76,82,66,72,101,,127,120,14,16,5,7,0.6,0.7
2024-10-07T2100,2474A,113.0161,25.8001,郴州市,兴隆步行街,细颗粒物(PM2.5),84,82,88,62,70,107,,131,129,14,17,5,7,0.4,0.5
2024-10-07T2100,2475A,113.0383,25.8071,郴州市,市审计局,细颗粒物(PM2.5),79,75,84,58,70,103,,125,123,6,7,2,4,0.5,0.7
2024-10-07T2100,2476A,113.0348,25.7759,郴州市,市环保局,颗粒物(PM10),70,89,94,50,71,105,,120,118,11,13,8,8,0.6,0.7
2024-10-07T2100,1431A,103.9728,30.7236,成都市,金泉两河,,,44,31,20,17,,,81,81,21,17,3,3,0.5,0.4
2024-10-07T2100,1432A,104.176,30.6872,成都市,十里店,,30,30,33,15,28,48,,81,77,33,20,1,1,0.6,0.6
2024-10-07T2100,1433A,104.079,30.5706,成都市,三瓦窑,,35,27,34,24,29,79,,87,87,18,24,2,3,0.5,0.5
2024-10-07T2100,1434A,104.1114,30.63,成都市,沙河铺,,45,45,41,15,27,46,,81,75,25,18,3,2,0.6,0.6
2024-10-07T2100,1437A,104.0786,30.6531,成都市,君平街,,25,25,33,15,25,67,,84,84,26,22,2,3,0.6,0.6
2024-10-07T2100,2880A,104.0239,30.65639,成都市,大石西路,,35,33,39,24,26,52,,84,82,21,18,3,3,0.4,0.4
2024-10-07T2100,3136A,104.2725,30.5589,成都市,龙泉驿区区政府,,27,27,23,17,18,56,,84,83,21,19,1,1,0.5,0.5
2024-10-07T2100,3357A,104.0106,30.6931,成都市,金博路,,,,31,,22,,,78,78,,18,,2,,0.6
2024-10-07T2100,3359A,104.0578,30.5225,成都市,华阳,,39,31,31,27,28,52,,74,72,24,13,3,3,0.7,0.6
2024-10-07T2100,3487A,104.2394,30.5319,成都市,车城东七路,,26,25,30,18,24,77,,92,92,17,15,2,2,0.5,0.5
2024-10-07T2100,3488A,104.3853,30.7453,成都市,青白江技师分院,,22,22,25,14,19,58,,93,86,20,18,2,2,0.5,0.6
2024-10-07T2100,3489A,104.0789,30.4072,成都市,科学城,,22,18,30,15,27,62,,85,84,18,15,4,4,0.5,0.5
2024-10-07T2100,4011A,103.8506,30.6947,成都市,光华大道三段,,46,35,41,32,27,70,,83,83,16,11,3,3,0.6,0.6
2024-10-07T2100,1062A,117.9531,40.9081,承德市,铁路,,26,26,19,3,8,24,,52,43,22,23,8,11,0.3,0.3
2024-10-07T2100,1063A,117.9392,40.9763,承德市,中国银行,颗粒物(PM10),51,52,17,27,10,11,,58,49,30,16,5,5,0.5,0.4
2024-10-07T2100,1064A,117.9503,40.928,承德市,开发区,,41,41,33,19,15,12,,55,49,34,20,7,8,0.4,0.3
2024-10-07T2100,1065A,117.8051,40.9655,承德市,文化中心,,49,49,23,6,8,2,,60,45,43,20,1,6,0.4,0.3
2024-10-07T2100,1066A,117.9268,41.0026,承德市,离宫,,28,21,15,19,19,19,,46,43,16,8,4,4,0.3,0.3
2024-10-07T2100,2314A,117.47,30.6618,池州市,池州学院,,20,17,7,13,5,61,,72,68,19,9,6,6,0.6,0.3
2024-10-07T2100,3237A,117.4918,30.6617,池州市,展览馆,,23,23,8,15,6,56,,71,65,23,10,6,4,0.6,0.3
2024-10-07T2100,3333A,117.5627,30.695,池州市,第八中学,,20,14,10,9,6,63,,74,65,16,10,4,4,0.6,0.4
2024-10-07T2100,3334A,117.5038,30.6243,池州市,第十二中学,,26,,9,18,7,58,,75,61,20,14,4,4,0.7,0.5
2024-10-07T2100,1744A,118.9233,42.2816,赤峰市,松山一中,颗粒物(PM10),71,92,18,40,9,8,,65,48,56,25,11,9,1.0,0.5
2024-10-07T2100,1745A,118.9576,42.2728,赤峰市,哈达街,颗粒物(PM10),62,74,18,35,10,10,,64,48,30,18,8,7,0.7,0.5
2024-10-07T2100,1746A,118.8788,42.2554,赤峰市,天义路,颗粒物(PM10),60,69,19,25,9,8,,66,43,45,23,6,6,0.6,0.3
2024-10-07T2100,3058A,119.2658,42.0353,赤峰市,银河街,颗粒物(PM10),58,65,24,22,14,7,,68,51,41,20,21,14,0.7,0.4
2024-10-07T2100,3286A,118.9359,42.3147,赤峰市,桥北物流园区,颗粒物(PM10),57,64,16,29,11,4,,68,48,62,28,11,8,0.1,0
2024-10-07T2100,2521A,107.3476,22.4136,崇左市,市环保局江州分局,颗粒物(PM10),61,71,57,43,31,88,,128,121,18,14,4,5,0.7,0.6
2024-10-07T2100,2522A,107.3702,22.3707,崇左市,城南新区,细颗粒物(PM2.5),54,50,43,38,30,107,,135,130,19,14,10,5,0.8,0.6
2024-10-07T2100,2298A,118.3093,32.3153,滁州市,老年大学,,23,13,10,8,10,71,,103,92,9,10,3,4,0.3,0.3
2024-10-07T2100,2299A,118.3244,32.2786,滁州市,人大宾馆,,25,14,12,11,7,77,,97,88,9,9,5,5,0.2,0.2
2024-10-07T2100,3207A,118.3118,32.3038,滁州市,市政府原办公楼,,25,,12,17,14,75,,98,88,12,12,5,5,0.3,0.3
2024-10-07T2100,3331A,118.3267,32.2634,滁州市,图书馆,,23,18,10,11,7,73,,101,88,14,12,3,4,0.2,0.3
2024-10-07T2100,2605A,101.5482,25.0441,楚雄彝族自治州,州环境监测站,,31,31,18,19,16,45,,52,50,8,5,7,7,0.7,0.6
2024-10-07T2100,2606A,101.538,25.0492,楚雄彝族自治州,市经济开发区,,30,25,21,21,17,46,,49,47,8,6,5,5,0.9,0.8
2024-10-07T2100,2548A,107.5277,31.2827,达州市,达州职业技术学院,,34,34,36,16,26,5,,68,56,54,22,4,4,0.8,0.7
2024-10-07T2100,2549A,107.5086,31.2186,达州市,市环境监测站,,40,40,44,12,26,10,,74,64,59,26,4,6,0.7,0.6
2024-10-07T2100,2550A,107.4988,31.2132,达州市,凤凰小区,,48,48,40,24,29,16,,79,70,60,24,7,7,0.8,0.6
2024-10-07T2100,2551A,107.5082,31.1986,达州市,达县机关宾馆,颗粒物(PM10),51,51,43,24,29,3,,69,57,63,33,5,4,0.7,0.5
2024-10-07T2100,2552A,107.4644,31.2124,达州市,市政中心,,49,49,52,24,31,22,,73,65,59,28,6,6,1.0,0.7
2024-10-07T2100,2614A,100.1542,25.7054,大理白族自治州,大理市环境监测站,,,18,16,9,8,,,47,47,6,6,6,6,0.6,0.6
2024-10-07T2100,2615A,100.2171,25.5811,大理白族自治州,大理古城,,21,21,18,13,10,24,,57,52,17,9,7,7,0.6,0.5
2024-10-07T2100,1109A,121.612,38.9741,大连市,甘井子,,27,27,36,16,17,72,,85,84,26,15,8,7,0.9,0.8
2024-10-07T2100,1110A,121.565,38.9511,大连市,周水子,,26,26,35,17,18,76,,82,82,24,16,9,9,0.4,0.4
2024-10-07T2100,1111A,121.5637,38.8845,大连市,星海三站,,26,24,30,16,17,82,,90,90,15,6,6,5,0.3,0.3
2024-10-07T2100,1112A,121.6302,38.9117,大连市,青泥洼桥,,28,28,35,15,18,75,,82,82,20,14,8,7,0.3,0.4
2024-10-07T2100,1113A,121.6251,38.8638,大连市,傅家庄,,26,26,33,15,18,75,,85,85,19,10,8,7,0.4,0.4
2024-10-07T2100,1114A,121.5213,38.8661,大连市,七贤岭,,29,24,32,16,16,91,,94,94,13,9,7,6,0.6,0.5
2024-10-07T2100,1115A,121.2529,38.8061,大连市,旅顺,,49,36,26,34,18,92,,95,95,14,10,8,6,0.5,0.5
2024-10-07T2100,1116A,121.7485,39.1311,大连市,金州,,28,26,32,19,20,81,,90,90,16,12,6,6,0.5,0.6
2024-10-07T2100,1117A,121.7811,39.0496,大连市,开发区,,,30,38,19,21,,,87,87,16,11,9,8,0.4,0.4
2024-10-07T2100,1118A,121.9762,39.0631,大连市,双D港,,30,30,38,21,22,89,,94,94,15,14,7,6,0.6,0.7
2024-10-07T2100,1789A,124.81117,46.03138,大庆市,大同区,细颗粒物(PM2.5),67,61,51,48,36,47,,60,52,12,21,5,3,0.4,0.4
2024-10-07T2100,1790A,125.129,46.533,大庆市,龙凤区,细颗粒物(PM2.5),62,60,67,44,35,51,,45,37,18,46,4,6,0.6,0.6
2024-10-07T2100,1791A,124.902,46.408,大庆市,红岗区,颗粒物(PM10),55,59,52,34,27,52,,66,60,21,24,6,6,0.6,0.5
2024-10-07T2100,1792A,125.153,46.586,大庆市,萨尔图区,细颗粒物(PM2.5),62,59,63,44,41,47,,55,45,28,34,8,8,0.4,0.5
2024-10-07T2100,1793A,124.9042,46.6215,大庆市,让胡路区,细颗粒物(PM2.5),62,72,56,44,36,20,,61,52,48,25,4,4,0.7,0.6
2024-10-07T2100,3481A,125.141,46.634,大庆市,萨区政府监测点,颗粒物(PM10),58,65,45,38,31,44,,61,52,27,26,8,6,0.5,0.4
2024-10-07T2100,1721A,113.3819,40.1097,大同市,果树场,颗粒物(PM10),82,114,34,23,15,32,,78,64,18,15,7,8,0.8,0.6
2024-10-07T2100,1723A,113.2994,40.0758,大同市,云冈宾馆,颗粒物(PM10),64,78,28,33,13,18,,82,71,69,24,10,9,1.0,0.6
2024-10-07T2100,1724A,113.3444,40.0917,大同市,大同大学,颗粒物(PM10),65,80,27,24,15,30,,79,70,42,23,12,15,0.6,0.5
2024-10-07T2100,1725A,113.2661,40.1269,大同市,安家小村,颗粒物(PM10),52,53,24,22,12,29,,80,73,46,16,13,13,0.5,0.4
2024-10-07T2100,1726A,113.2711,40.0844,大同市,教育学院,细颗粒物(PM2.5),87,103,30,64,15,6,,75,61,84,25,10,9,1.2,0.6
2024-10-07T2100,3282A,113.3397,40.0597,大同市,大同市卫生学校,颗粒物(PM10),60,69,25,27,14,19,,81,72,63,21,9,10,0.9,0.8
2024-10-07T2100,3565A,113.1367,40.1122,大同市,云冈站,颗粒物(PM10),54,58,33,20,14,29,,85,74,26,16,12,12,0.5,0.6
2024-10-07T2100,3566A,113.1186,40.2556,大同市,图书馆,颗粒物(PM10),57,64,33,20,16,30,,82,68,19,17,9,11,0.7,0.6
2024-10-07T2100,3567A,113.5931,40.0461,大同市,区一中,,42,42,17,14,10,34,,84,74,33,12,7,7,0.4,0.4
2024-10-07T2100,3676A,113.2802,40.0995,大同市,第二人民医院,颗粒物(PM10),66,81,28,38,14,15,,81,70,66,20,16,13,1.0,0.7
2024-10-07T2100,2269A,124.1069,50.4097,大兴安岭地区,科技局,,28,28,60,19,43,46,,74,70,15,7,8,8,0.4,0.5
2024-10-07T2100,3663A,124.1164,50.4278,大兴安岭地区,红旗社区,,15,14,57,10,48,44,,69,67,11,14,2,2,0.4,0.6
2024-10-07T2100,1600A,124.3303,40.0625,丹东市,江湾东路,,30,30,51,14,31,66,,69,68,14,21,8,7,0.5,0.7
2024-10-07T2100,1601A,124.4256,40.1503,丹东市,临江后街,,22,21,41,12,26,70,,79,74,12,18,6,7,0.5,0.8
2024-10-07T2100,1602A,124.3933,40.1461,丹东市,元宝山,,22,19,34,14,24,69,,72,72,8,14,5,4,0.9,1
2024-10-07T2100,1603A,124.3633,40.1092,丹东市,民主桥,,30,30,45,11,24,67,,68,67,15,19,6,5,0.5,0.7
2024-10-07T2100,3541A,109.5726,19.5167,儋州市,第一中学子站,,46,46,20,32,12,136,,112,112,9,4,7,6,0.4,0.4
2024-10-07T2100,3542A,109.5567,19.5187,儋州市,东坡学校子站,,45,41,22,31,12,140,,116,116,7,4,6,6,0.6,0.5
2024-10-07T2100,2616A,98.5842,24.428,德宏傣族景颇族自治州,德宏州监测站,,30,30,24,10,8,19,,54,46,16,10,4,6,0.5,0.4
2024-10-07T2100,3677A,98.5881,24.4368,德宏傣族景颇族自治州,芒市人民政府综合楼,,21,21,21,12,10,19,,56,46,10,8,5,4,0.6,0.5
2024-10-07T2100,1901A,104.4239,31.1208,德阳市,东山公园,,32,29,32,22,22,74,,100,98,20,20,2,2,0.5,0.6
2024-10-07T2100,1902A,104.3826,31.1317,德阳市,西小区,,40,40,45,23,30,57,,96,92,24,23,1,1,0.6,0.6
2024-10-07T2100,1904A,104.3553,31.1091,德阳市,耐火材料厂,,37,37,42,23,26,57,,99,94,20,20,3,3,0.5,0.4
2024-10-07T2100,3639A,104.4019,31.1244,德阳市,市教育局,,36,36,47,17,29,47,,94,88,37,24,2,1,0.6,0.5
2024-10-07T2100,1622A,116.3032,37.4674,德州市,儿童乐园,颗粒物(PM10),56,61,78,19,52,52,,93,86,56,29,8,11,0.6,0.8
2024-10-07T2100,1624A,116.2991,37.4451,德州市,监理站,,46,46,76,17,54,60,,99,95,46,26,7,8,0.5,0.7
2024-10-07T2100,3066A,116.2721,37.4379,德州市,九衢泉纯净水厂,,44,44,74,22,45,63,,96,93,42,26,9,10,0.6,0.8
2024-10-07T2100,3371A,116.3728,37.4403,德州市,开发区人民医院,,36,36,76,14,44,61,,89,82,37,23,9,10,0.5,0.7
2024-10-07T2100,3372A,116.3572,37.4094,德州市,太阳城中学,,46,46,79,22,47,17,,104,89,78,29,8,9,0.6,0.7
2024-10-07T2100,3511A,116.5652,37.3319,德州市,陵城艺术中心,颗粒物(PM10),54,58,82,27,53,20,,91,73,74,30,8,9,0.7,0.7
2024-10-07T2100,2621A,99.7056,27.8317,迪庆藏族自治州,迪庆州站,,22,22,15,10,8,50,,56,54,8,8,8,9,0.3,0.3
2024-10-07T2100,3180A,99.7136,27.8094,迪庆藏族自治州,质量技术监督局,,17,15,14,7,8,53,,57,55,6,7,6,6,0.5,0.5
2024-10-07T2100,2663A,104.6241,35.5734,定西市,东关小学,,,,40,,27,,,90,88,20,11,6,5,0.4,0.3
2024-10-07T2100,2664A,104.6194,35.5934,定西市,供电公司,,48,48,44,28,26,73,,91,86,11,11,6,6,0.4,0.4
2024-10-07T2100,1389A,113.7547,23.0494,东莞市,莞城梨川,颗粒物(PM10),66,82,43,47,26,105,,130,120,25,15,9,7,0.9,0.6
2024-10-07T2100,1390A,113.7944,23.0128,东莞市,东城石井,,47,47,38,27,23,109,,142,130,19,14,9,8,0.7,0.6
2024-10-07T2100,1391A,113.7383,22.9658,东莞市,南城西平,颗粒物(PM10),51,51,42,30,24,107,,143,129,24,28,4,2,0.8,0.7
2024-10-07T2100,3319A,113.7338,23.0381,东莞市,万江金泰,颗粒物(PM10),58,66,44,37,25,108,,127,118,19,14,11,9,0.7,0.6
2024-10-07T2100,3626A,113.7533,23.0202,东莞市,南城元岭,颗粒物(PM10),55,60,39,35,23,112,,136,125,17,10,11,9,0.9,0.7
2024-10-07T2100,3627A,113.7875,23.0457,东莞市,东城主山,颗粒物(PM10),56,61,44,38,26,110,,138,126,26,22,10,8,0.7,0.6
2024-10-07T2100,1666A,118.6614,37.4309,东营市,市环保局,,39,39,27,14,12,77,,98,96,20,8,2,3,0.4,0.3
2024-10-07T2100,3036A,118.6904,37.4338,东营市,开发区管委会,,28,28,33,12,13,86,,97,97,17,10,2,2,0.1,0.1
2024-10-07T2100,3365A,118.5719,37.565,东营市,垦利区民丰路,,20,19,24,3,12,64,,82,76,26,12,9,10,0.4,0.4
2024-10-07T2100,3498A,118.5055,37.8612,东营市,河口城区,,23,22,23,7,12,45,,85,78,46,21,5,6,0.4,0.4
2024-10-07T2100,3646A,118.4978,37.4623,东营市,胜利站,,39,39,33,22,13,61,,90,85,29,10,8,8,0.3,0.4
2024-10-07T2100,3734A,118.35,37.26,东营市,理想之城,,32,27,29,22,17,42,,85,77,51,16,2,3,0.3,0.3
2024-10-07T2100,1591A,110.0023,39.8129,鄂尔多斯市,综合楼,颗粒物(PM10),78,105,46,48,17,18,,82,75,83,35,10,8,1.0,0.5
2024-10-07T2100,1592A,109.9486,39.8261,鄂尔多斯市,巴音孟克林场办事处,颗粒物(PM10),65,80,43,34,19,5,,74,62,84,37,9,8,1.1,0.6
2024-10-07T2100,1593A,109.7736,39.5986,鄂尔多斯市,康泽苑,,18,17,23,12,14,43,,94,81,28,10,6,7,0.4,0.4
2024-10-07T2100,1594A,109.8119,39.5989,鄂尔多斯市,华泰汽车城,颗粒物(PM10),54,58,30,22,17,7,,88,63,59,20,10,10,0.9,0.5
2024-10-07T2100,1595A,109.9734,39.7884,鄂尔多斯市,奥林花园,颗粒物(PM10),70,90,43,22,15,11,,69,60,75,36,7,7,0.9,0.6
2024-10-07T2100,2436A,114.8938,30.3994,鄂州市,市政府,,25,25,17,15,11,51,,69,62,22,17,10,9,0.6,0.5
2024-10-07T2100,2437A,114.8989,30.3714,鄂州市,赵家坝,,26,23,20,18,11,44,,75,63,24,15,10,10,0.6,0.5
2024-10-07T2100,3654A,114.8094,30.4089,鄂州市,精准医疗中心,,19,16,19,7,8,58,,85,69,8,9,5,6,0.5,0.6
2024-10-07T2100,2454A,109.4978,30.2981,恩施土家族苗族自治州,湖北民院,,41,41,26,24,16,21,,58,55,22,17,9,9,0.6,0.6
2024-10-07T2100,2455A,109.4707,30.2798,恩施土家族苗族自治州,州电力总公司,,32,25,24,22,17,20,,56,54,28,22,7,6,0.8,0.8
2024-10-07T2100,3549A,109.5061,30.3772,恩施土家族苗族自治州,龙凤新区,,21,21,20,13,14,12,,52,47,15,16,6,6,0.7,0.8
2024-10-07T2100,2499A,108.3411,21.6158,防城港市,沙万,细颗粒物(PM2.5),62,56,51,44,36,138,,145,144,15,14,11,11,0.6,0.6
2024-10-07T2100,2500A,108.3514,21.7731,防城港市,防城档案局,颗粒物(PM10),99,147,100,52,44,102,,135,127,35,26,10,10,0.7,0.7
2024-10-07T2100,2501A,108.3506,21.6414,防城港市,大海花园,,,54,52,42,34,,,141,141,13,13,9,9,0.7,0.7
2024-10-07T2100,1371A,113.1294,23.0067,佛山市,湾梁,"颗粒物(PM10),细颗粒物(PM2.5)",54,58,48,38,27,132,,177,168,21,24,10,9,0.8,0.7
2024-10-07T2100,1372A,113.1083,23.0478,佛山市,华材职中,细颗粒物(PM2.5),62,66,53,44,32,121,,166,156,24,31,11,11,0.7,0.6
2024-10-07T2100,1373A,113.144,23.0453,佛山市,南海气象局,细颗粒物(PM2.5),53,53,47,37,28,125,,174,163,17,21,10,10,0.6,0.6
2024-10-07T2100,1374A,113.2881,22.8094,佛山市,顺德苏岗,颗粒物(PM10),62,73,40,34,22,122,,158,151,18,21,11,9,0.7,0.7
2024-10-07T2100,1376A,112.8383,22.8678,佛山市,高明孔堂,细颗粒物(PM2.5),67,75,54,48,36,124,,179,167,20,23,11,13,1.0,0.7
2024-10-07T2100,1377A,112.8836,23.1588,佛山市,三水监测站,细颗粒物(PM2.5),70,70,54,51,36,121,,161,154,22,23,11,11,0.7,0.6
2024-10-07T2100,1378A,112.867,23.185,佛山市,三水云东海,细颗粒物(PM2.5),74,66,46,54,37,123,,158,146,20,23,11,13,0.7,0.6
2024-10-07T2100,3625A,113.2544,22.7642,佛山市,容桂街道办,细颗粒物(PM2.5),55,56,37,39,27,132,,169,162,20,22,10,9,0.9,0.8
2024-10-07T2100,1282A,119.2681,26.0504,福州市,师大,,24,10,13,3,4,75,,66,66,11,11,1,1,0.3,0.3
2024-10-07T2100,1283A,119.2984,26.1028,福州市,五四北路,,25,14,17,3,8,77,,74,74,13,14,3,3,0.4,0.4
2024-10-07T2100,1284A,119.2648,26.0768,福州市,杨桥西路,,24,15,14,3,5,74,,66,66,14,12,3,3,0.5,0.4
2024-10-07T2100,1285A,119.317,26.0746,福州市,紫阳,,19,15,20,11,9,58,,54,54,18,20,6,6,0.6,0.5
2024-10-07T2100,3048A,119.5799,26.0936,福州市,九龙,,28,16,16,3,3,87,,105,105,4,2,6,6,0.4,0.4
2024-10-07T2100,3526A,119.5189,25.9664,福州市,吴航,,30,6,10,3,5,94,,104,104,6,6,6,6,0.5,0.5
2024-10-07T2100,1755A,123.7977,41.8491,抚顺市,望花区,颗粒物(PM10),58,66,27,36,19,8,,73,54,47,15,6,5,0.6,0.3
2024-10-07T2100,1756A,123.9161,41.8822,抚顺市,顺城区,颗粒物(PM10),56,62,27,32,18,14,,74,50,38,18,5,4,0.5,0.3
2024-10-07T2100,1757A,124.0436,41.8611,抚顺市,东洲区,细颗粒物(PM2.5),59,58,25,42,21,27,,72,59,28,12,6,6,0.5,0.4
2024-10-07T2100,1758A,123.9247,41.8642,抚顺市,新抚区,颗粒物(PM10),52,53,23,33,18,7,,78,57,45,16,4,4,0.7,0.3
2024-10-07T2100,1759A,124.0972,41.8961,抚顺市,大伙房水库,,44,44,24,28,18,52,,76,69,17,8,7,7,0.4,0.3
2024-10-07T2100,1760A,123.7086,41.8391,抚顺市,沈抚新城,颗粒物(PM10),51,51,29,27,19,6,,81,58,46,18,8,8,0.4,0.2
2024-10-07T2100,2376A,116.2127,28.0814,抚州市,桐源党溪,,49,49,33,19,15,72,,115,105,4,3,5,5,0.8,0.8
2024-10-07T2100,2377A,116.3544,27.9831,抚州市,市站,,34,34,27,20,15,61,,94,88,10,8,1,3,0.8,0.8
2024-10-07T2100,2378A,116.3565,27.963,抚州市,血防站,,35,35,30,18,14,68,,107,100,12,10,7,3,0.6,0.6
2024-10-07T2100,2379A,116.3564,28.0007,抚州市,采茶剧团,,35,35,28,22,15,63,,102,94,5,4,4,4,0.6,0.7
2024-10-07T2100,2380A,116.385,27.9647,抚州市,医学分院,,32,32,27,16,13,83,,115,111,8,7,4,5,0.6,0.7
2024-10-07T2100,2207A,121.6094,41.998,阜新市,工业园区,颗粒物(PM10),72,94,34,37,19,4,,74,46,54,23,15,9,1.0,0.7
2024-10-07T2100,2208A,121.6697,42.0279,阜新市,长青街,颗粒物(PM10),61,72,24,34,16,3,,66,47,29,13,6,5,0.9,0.5
2024-10-07T2100,2209A,121.6673,42.0705,阜新市,农业园区,,20,,20,14,15,44,,65,60,18,11,9,5,0.5,0.6
2024-10-07T2100,2210A,121.6717,42.0224,阜新市,东苑,颗粒物(PM10),61,71,32,37,17,7,,67,47,51,18,19,9,1.0,0.7
2024-10-07T2100,2211A,121.6506,42.0498,阜新市,玉龙新城,颗粒物(PM10),70,89,33,38,16,9,,72,46,34,18,6,6,0.8,0.4
2024-10-07T2100,2301A,115.8277,32.8929,阜阳市,市监测站,,37,37,22,19,16,55,,96,92,24,14,6,8,0.4,0.4
2024-10-07T2100,2303A,115.8554,32.8605,阜阳市,开发区,,25,21,24,17,17,68,,93,91,26,17,5,8,0.4,0.3
2024-10-07T2100,2875A,115.784,32.8892,阜阳市,阜阳职业技术学院,,25,15,21,9,15,80,,94,94,16,16,6,7,0.4,0.4
2024-10-07T2100,3468A,115.7901,32.8613,阜阳市,市规划展馆,,22,19,22,15,18,67,,98,95,26,18,6,7,0.6,0.5
2024-10-07T2100,3469A,115.836,32.9183,阜阳市,枣园社区,,25,25,22,14,18,75,,94,93,22,15,7,8,0.4,0.4
2024-10-07T2100,2669A,102.9099,34.9841,甘南藏族自治州,州政府,,32,30,26,22,16,76,,89,88,5,9,10,11,0.5,0.5
2024-10-07T2100,3380A,102.8914,34.9617,甘南藏族自治州,甘肃民族师范学院,,34,34,26,22,18,79,,90,89,8,11,4,4,0.5,0.5
2024-10-07T2100,2570A,101.9603,30.0475,甘孜藏族自治州,水桥子,,12,10,5,8,5,37,,50,50,16,15,5,5,0.4,0.3
2024-10-07T2100,3065A,101.9533,29.9972,甘孜藏族自治州,州环保局,,13,12,6,3,4,40,,54,53,19,14,3,3,0.4,0.3
2024-10-07T2100,3414A,115.8347,28.932,赣江新区,桑海产业园,,22,19,25,10,11,68,,91,75,12,12,7,10,0.3,0.3
2024-10-07T2100,2362A,114.9017,25.9149,赣州市,通天岩,细颗粒物(PM2.5),62,52,41,44,33,108,,150,145,8,8,14,16,0.6,0.5
2024-10-07T2100,2363A,114.9367,25.8664,赣州市,地委,细颗粒物(PM2.5),62,52,42,44,31,122,,136,136,14,12,2,3,1.3,1.2
2024-10-07T2100,2364A,114.9461,25.8481,赣州市,气象台,细颗粒物(PM2.5),63,59,45,45,33,133,,143,143,12,9,11,5,0.7,0.6
2024-10-07T2100,2365A,114.9322,25.8333,赣州市,市图书馆,细颗粒物(PM2.5),55,54,42,39,28,141,,150,150,9,8,7,5,0.8,0.7
2024-10-07T2100,2366A,114.8905,25.8471,赣州市,华坚鞋城,细颗粒物(PM2.5),59,63,44,42,28,127,,138,138,11,9,3,4,0.6,0.5
2024-10-07T2100,3109A,115.0093,25.8613,赣州市,赣县区卫计委,细颗粒物(PM2.5),60,54,42,43,30,126,,134,134,11,12,5,6,0.7,0.7
2024-10-07T2100,2683A,106.2319,36.1417,固原市,马园,颗粒物(PM10),52,54,44,18,16,40,,85,68,52,32,6,7,0.5,0.4
2024-10-07T2100,2684A,106.2792,36.0022,固原市,监测站,,33,33,35,22,15,80,,94,91,18,24,6,6,0.5,0.4
2024-10-07T2100,2685A,106.2375,36.0211,固原市,新区,,39,39,35,20,15,86,,92,90,16,25,5,5,0.4,0.4
2024-10-07T2100,3522A,106.2177,35.9959,固原市,原州区十五小,,45,45,33,23,15,71,,91,87,25,16,5,5,0.6,0.5
2024-10-07T2100,2544A,106.6303,30.4576,广安市,市委,颗粒物(PM10),54,57,41,37,30,46,,75,69,29,19,2,3,0.5,0.4
2024-10-07T2100,2545A,106.6271,30.4663,广安市,友谊中学,,50,50,43,35,29,34,,75,66,40,21,2,4,0.6,0.5
2024-10-07T2100,2547A,106.6388,30.4551,广安市,广电花园,颗粒物(PM10),55,60,39,32,27,27,,74,64,39,20,1,2,0.4,0.4
2024-10-07T2100,2902A,106.6351,30.4865,广安市,北辰小学,颗粒物(PM10),55,60,40,38,28,34,,79,70,32,16,3,4,0.6,0.5
2024-10-07T2100,2523A,105.8945,32.4535,广元市,黑石坡,,39,,26,27,22,60,,72,72,10,14,14,15,0.3,0.5
2024-10-07T2100,2524A,105.821,32.4444,广元市,老城,颗粒物(PM10),52,54,38,26,18,9,,77,71,60,18,3,6,0.4,0.4
2024-10-07T2100,2526A,105.8628,32.4287,广元市,监测站,,45,38,27,31,19,55,,80,80,14,12,1,3,0.5,0.5
2024-10-07T2100,3617A,105.8047,32.4166,广元市,经开区,,40,40,38,24,26,42,,79,78,35,18,8,7,0.6,0.6
2024-10-07T2100,1345A,113.2347,23.1423,广州市,广雅中学,细颗粒物(PM2.5),59,64,53,42,30,112,,151,143,24,30,9,9,0.8,0.7
2024-10-07T2100,1346A,113.2612,23.105,广州市,市五中,颗粒物(PM10),67,84,54,44,30,121,,162,153,18,15,7,6,0.8,0.7
2024-10-07T2100,1348A,113.3478,23.0916,广州市,广东商学院,颗粒物(PM10),58,66,46,40,29,117,,150,142,21,18,8,7,0.7,0.7
2024-10-07T2100,1349A,113.4332,23.1047,广州市,市八十六中,颗粒物(PM10),58,66,54,33,27,122,,146,142,17,20,5,5,0.8,0.7
2024-10-07T2100,1350A,113.3505,22.9483,广州市,番禺中学,颗粒物(PM10),55,59,47,38,30,127,,162,154,24,21,9,8,0.7,0.6
2024-10-07T2100,1351A,113.2146,23.3916,广州市,花都师范,细颗粒物(PM2.5),59,65,45,42,30,130,,163,158,11,11,6,11,0.6,0.6
2024-10-07T2100,1352A,113.2597,23.1331,广州市,市监测站,细颗粒物(PM2.5),57,62,45,40,27,112,,150,140,24,23,8,7,1.0,0.9
2024-10-07T2100,1353A,113.5618,23.312,广州市,九龙镇镇龙,颗粒物(PM10),56,61,45,37,28,112,,122,121,20,19,9,8,0.7,0.6
2024-10-07T2100,1354A,113.2765,23.1544,广州市,麓湖,"颗粒物(PM10),细颗粒物(PM2.5)",59,68,49,42,28,115,,153,144,22,22,10,8,0.7,0.6
2024-10-07T2100,1355A,113.443,23.3035,广州市,帽峰山森林公园,,42,42,32,27,22,126,,150,146,10,10,10,8,0.6,0.5
2024-10-07T2100,2846A,113.3221,23.1322,广州市,体育西,细颗粒物(PM2.5),58,58,42,41,27,102,,141,134,23,18,8,6,0.7,0.6
2024-10-07T2100,3298A,113.5717,23.5491,广州市,从化街口,颗粒物(PM10),56,62,42,37,27,103,,131,124,24,16,11,11,0.8,0.6
2024-10-07T2100,3299A,113.3472,23.3692,广州市,白云竹料,细颗粒物(PM2.5),58,52,46,41,29,119,,149,143,14,14,8,8,0.8,0.7
2024-10-07T2100,3300A,113.2981,23.237,广州市,白云嘉禾,颗粒物(PM10),59,68,54,38,28,107,,145,137,16,18,9,8,0.8,0.8
2024-10-07T2100,3301A,113.4256,23.1716,广州市,黄埔科学城,颗粒物(PM10),55,59,41,36,26,114,,144,137,20,15,10,7,1.0,0.9
2024-10-07T2100,3302A,113.3942,23.0483,广州市,番禺大学城,细颗粒物(PM2.5),52,46,38,36,24,116,,148,142,20,20,14,13,0.4,0.4
2024-10-07T2100,3303A,113.4922,22.8168,广州市,南沙黄阁,细颗粒物(PM2.5),57,52,48,40,30,124,,162,152,27,27,8,11,0.9,0.8
2024-10-07T2100,3304A,113.5342,22.7896,广州市,南沙街,"颗粒物(PM10),细颗粒物(PM2.5)",55,60,46,39,26,117,,159,148,26,24,9,12,0.9,0.8
2024-10-07T2100,3443A,113.2902,23.5544,广州市,花都梯面,细颗粒物(PM2.5),69,59,42,50,32,115,,145,140,10,12,8,12,0.7,0.7
2024-10-07T2100,3445A,113.7858,23.7478,广州市,从化良口,颗粒物(PM10),52,53,31,31,21,111,,124,120,10,7,11,8,0.8,0.7
2024-10-07T2100,3446A,113.8051,23.2614,广州市,增城荔城,,37,37,33,24,23,108,,125,119,12,10,8,8,0.6,0.6
2024-10-07T2100,2506A,109.6047,23.0666,贵港市,江南子站,颗粒物(PM10),57,63,75,39,45,161,,177,177,11,24,9,11,0.7,0.8
2024-10-07T2100,2507A,109.6014,23.0948,贵港市,贵城子站,细颗粒物(PM2.5),59,56,60,42,42,158,,175,174,12,14,9,11,0.9,0.8
2024-10-07T2100,2508A,109.5669,23.1065,贵港市,荷城子站,颗粒物(PM10),59,68,63,41,35,157,,164,163,13,17,12,14,0.7,0.7
2024-10-07T2100,3405A,109.5886,23.1172,贵港市,新世纪学校,颗粒物(PM10),57,63,63,37,34,148,,170,167,13,14,9,10,0.5,0.6
2024-10-07T2100,1439A,106.6899,26.5998,贵阳市,马鞍山,,,27,22,17,12,,,75,74,14,12,4,4,0.3,0.7
2024-10-07T2100,1440A,106.6971,26.5694,贵阳市,市环保站,,43,39,21,30,20,77,,86,86,10,10,4,6,0.4,0.4
2024-10-07T2100,1441A,106.6243,26.6266,贵阳市,鉴湖路,,34,34,21,22,14,63,,77,76,12,7,6,6,0.4,0.4
2024-10-07T2100,1442A,106.7487,26.6343,贵阳市,燕子冲,细颗粒物(PM2.5),52,,19,36,21,71,,83,82,10,7,5,6,0.4,0.4
2024-10-07T2100,1443A,106.6555,26.4365,贵阳市,碧云窝,,45,41,35,31,18,64,,79,77,16,13,5,6,0.4,0.4
2024-10-07T2100,1444A,106.694,26.5161,贵阳市,中院村,,49,39,27,34,20,68,,80,79,15,12,8,9,0.6,0.6
2024-10-07T2100,1445A,106.7109,26.6027,贵阳市,红边门,,45,39,27,31,22,70,,81,80,14,12,6,6,0.5,0.5
2024-10-07T2100,1446A,106.7164,26.5699,贵阳市,新华路,,45,36,22,31,19,73,,82,82,10,10,4,5,0.4,0.4
2024-10-07T2100,1447A,106.674,26.5424,贵阳市,太慈桥,,24,22,22,14,15,76,,82,82,12,11,6,6,0.4,0.4
2024-10-07T2100,1862A,110.4144,25.3167,桂林市,电子科大尧山校区,,45,38,63,31,42,121,,146,140,6,10,6,7,0.5,0.6
2024-10-07T2100,1863A,110.2819,25.2697,桂林市,监测站,细颗粒物(PM2.5),55,53,67,39,47,113,,153,144,12,12,8,11,0.4,0.5
2024-10-07T2100,1864A,110.3089,25.2708,桂林市,龙隐路小学,细颗粒物(PM2.5),59,,65,42,47,121,,160,152,8,8,9,12,0.7,0.8
2024-10-07T2100,1865A,110.2869,25.2178,桂林市,八中,颗粒物(PM10),56,62,65,36,48,113,,149,142,11,12,8,10,0.7,0.8
2024-10-07T2100,3403A,110.1764,25.2381,桂林市,创业大厦,细颗粒物(PM2.5),58,63,70,41,54,118,,158,150,9,10,11,15,0.4,0.4
2024-10-07T2100,3531A,110.296,25.1253,桂林市,旅游学院,细颗粒物(PM2.5),55,53,57,39,43,126,,154,148,8,8,11,11,0.5,0.5
2024-10-07T2100,2674A,100.2561,34.4714,果洛藏族自治州,玛沁县大武镇,,27,19,15,10,12,84,,99,98,1,2,9,9,0.4,0.4
2024-10-07T2100,1129A,126.5422,45.755,哈尔滨市,岭北,细颗粒物(PM2.5),63,57,36,45,25,69,,101,90,33,26,7,9,0.3,0.1
2024-10-07T2100,1130A,126.561,45.8167,哈尔滨市,松北商大,颗粒物(PM10),52,54,40,28,20,10,,68,44,45,33,7,8,0.6,0.6
2024-10-07T2100,1131A,126.979,45.5419,哈尔滨市,阿城会宁,颗粒物(PM10),64,77,59,43,28,26,,71,53,33,26,9,8,0.6,0.6
2024-10-07T2100,1132A,126.599,45.7222,哈尔滨市,南岗学府路,颗粒物(PM10),71,91,54,48,24,26,,78,62,43,35,6,6,0.8,0.5
2024-10-07T2100,1133A,126.689,45.7733,哈尔滨市,太平宏伟公园,细颗粒物(PM2.5),65,55,64,47,30,41,,75,66,29,27,4,5,0.8,0.7
2024-10-07T2100,1134A,126.635,45.7667,哈尔滨市,道外承德广场,颗粒物(PM10),58,65,52,39,23,32,,69,60,48,42,4,5,0.8,0.7
2024-10-07T2100,1135A,126.685,45.7319,哈尔滨市,香坊红旗大街,细颗粒物(PM2.5),83,97,60,61,32,23,,76,62,52,36,7,8,1.1,0.8
2024-10-07T2100,1136A,126.6411,45.7258,哈尔滨市,动力和平路,细颗粒物(PM2.5),57,60,45,40,29,31,,75,61,38,36,7,7,0.8,0.6
2024-10-07T2100,1137A,126.593,45.7478,哈尔滨市,道里建国路,细颗粒物(PM2.5),94,73,45,70,31,6,,69,49,80,45,14,12,1.6,0.7
2024-10-07T2100,1138A,126.615,45.61,哈尔滨市,平房东轻厂,"颗粒物(PM10),细颗粒物(PM2.5)",57,63,57,40,25,17,,73,43,56,45,6,7,0.6,0.6
2024-10-07T2100,1139A,126.595,45.9855,哈尔滨市,呼兰师专,细颗粒物(PM2.5),58,58,45,41,28,25,,63,45,54,37,4,3,0.6,0.5
2024-10-07T2100,1140A,126.6206,45.6842,哈尔滨市,省农科院,颗粒物(PM10),121,191,73,79,35,8,,67,40,67,45,9,7,0.9,0.9
2024-10-07T2100,2688A,93.5128,42.8172,哈密市,地区监测站,颗粒物(PM10),54,58,51,32,26,64,,97,89,44,34,4,6,0.4,0.3
2024-10-07T2100,2689A,93.4961,42.8328,哈密市,哈密师范学校,颗粒物(PM10),71,92,55,24,23,43,,100,92,55,42,4,5,0.8,0.5
2024-10-07T2100,2671A,100.9048,36.9639,海北藏族自治州,海晏县西海镇,,38,38,39,26,27,89,,105,104,22,12,24,14,0.7,0.5
2024-10-07T2100,3867A,102.0738,36.5056,海东市,平安区公安北苑,细颗粒物(PM2.5),54,55,55,38,28,87,,110,109,24,19,15,17,0.7,0.8
2024-10-07T2100,1410A,110.3232,20.0574,海口市,海南大学,臭氧1小时,87,55,40,39,25,189,,190,190,8,7,4,4,0.5,0.5
2024-10-07T2100,1411A,110.283,20.0053,海口市,秀英海南医院,臭氧1小时,73,57,34,36,23,178,,180,180,11,10,7,7,0.4,0.4
2024-10-07T2100,1412A,110.338,19.9969,海口市,海南师范大学,臭氧1小时,80,59,37,37,24,184,,188,188,9,8,8,7,0.6,0.5
2024-10-07T2100,1413A,110.33,20.0356,海口市,龙华路环保局宿舍,臭氧1小时,85,54,37,37,24,188,,190,190,9,7,6,6,0.5,0.4
2024-10-07T2100,3539A,110.5111,19.9736,海口市,桂林洋子站,细颗粒物(PM2.5),70,70,39,51,26,175,,194,194,10,7,8,8,0.5,0.4
2024-10-07T2100,2673A,100.6188,36.2866,海南藏族自治州,共和县恰卜恰镇,,40,40,38,9,21,37,,95,85,38,17,10,10,0.6,0.6
2024-10-07T2100,2676A,97.3731,37.3753,海西蒙古族藏族自治州,德令哈市,,31,,30,18,10,98,,115,112,15,9,11,10,0.4,0.5
2024-10-07T2100,1048A,114.5302,36.6116,邯郸市,东污水处理厂,细颗粒物(PM2.5),107,106,119,80,99,51,,70,70,31,31,2,3,0.9,0.8
2024-10-07T2100,1049A,114.4918,36.5713,邯郸市,矿院,细颗粒物(PM2.5),119,132,146,90,107,27,,64,62,43,25,3,4,1.0,0.9
2024-10-07T2100,1050A,114.484,36.6133,邯郸市,丛台公园,细颗粒物(PM2.5),108,110,140,81,100,42,,62,62,40,30,4,4,0.8,0.8
2024-10-07T2100,3458A,114.7895,36.5593,邯郸市,香泉濮院小区,细颗粒物(PM2.5),103,118,126,77,82,21,,82,77,63,32,4,4,0.8,0.7
2024-10-07T2100,3579A,114.50634,36.77178,邯郸市,永年区实验高中,,,104,140,62,95,,,89,89,26,23,4,5,0.7,0.9
2024-10-07T2100,3580A,114.20016,36.44293,邯郸市,峰峰矿区临水派出所,细颗粒物(PM2.5),103,84,96,77,86,64,,85,78,23,17,9,4,1.3,0.8
2024-10-07T2100,2634A,106.9893,33.1842,汉中市,汉川机床厂子校,,43,43,45,27,32,72,,103,102,9,10,5,13,0.7,0.7
2024-10-07T2100,2635A,107.0154,33.0706,汉中市,市监测站,颗粒物(PM10),59,67,53,33,34,52,,107,103,34,14,8,9,0.9,0.7
2024-10-07T2100,2636A,107.0089,33.1138,汉中市,鑫源开发区,细颗粒物(PM2.5),57,61,58,40,40,72,,108,107,19,16,11,17,0.5,0.5
2024-10-07T2100,2637A,107.007,33.0323,汉中市,南郑大河坎水厂,颗粒物(PM10),60,70,45,41,33,45,,103,94,21,14,8,8,0.7,0.6
2024-10-07T2100,1223A,120.2072,30.2111,杭州市,滨江,,25,6,12,6,7,77,,72,72,14,16,4,4,0.6,0.7
2024-10-07T2100,1224A,120.0633,30.2747,杭州市,西溪,,27,6,12,3,8,84,,73,73,12,16,5,5,0.7,0.8
2024-10-07T2100,1226A,120.3461,30.3153,杭州市,下沙,,,15,15,3,6,69,,76,74,,25,5,6,0.8,0.8
2024-10-07T2100,1227A,120.1269,30.2456,杭州市,卧龙桥,,25,6,10,3,10,80,,74,74,15,16,5,5,0.5,0.6
2024-10-07T2100,1228A,120.1903,30.2692,杭州市,浙江农大,,25,7,10,3,10,78,,71,71,13,17,8,8,0.5,0.6
2024-10-07T2100,1230A,120.1197,30.3119,杭州市,和睦小学,,27,,10,3,6,85,,77,76,17,19,6,6,0.6,0.7
2024-10-07T2100,1231A,120.3019,30.4183,杭州市,临平镇,,27,13,14,8,9,86,,86,86,11,13,4,4,0.6,0.7
2024-10-07T2100,1232A,120.2697,30.1819,杭州市,城厢镇,,24,7,8,7,11,76,,80,79,13,12,6,6,0.7,0.8
2024-10-07T2100,1233A,120.0883,30.1808,杭州市,云栖,,17,7,11,3,5,54,,66,65,17,13,6,6,0.6,0.7
2024-10-07T2100,3557A,119.9464,30.0494,杭州市,镇二中,,22,6,10,3,10,69,,76,75,14,15,7,8,0.7,0.7
2024-10-07T2100,3558A,119.7183,30.2367,杭州市,市府大楼,,26,,9,3,7,81,,79,79,12,13,6,6,0.6,0.7
2024-10-07T2100,3656A,120.1556,30.2864,杭州市,消防大队,,28,,10,3,10,87,,79,79,13,16,8,8,0.3,0.5
2024-10-07T2100,1270A,117.1959,31.7848,合肥市,明珠广场,,22,17,8,9,5,70,,82,82,25,16,10,10,0.5,0.4
2024-10-07T2100,1271A,117.3072,31.8764,合肥市,三里街,,21,14,7,9,4,49,,77,73,41,15,2,2,0.5,0.4
2024-10-07T2100,1272A,117.2588,31.8707,合肥市,琥珀山庄,,28,19,7,19,9,52,,87,84,26,14,7,7,0.5,0.4
2024-10-07T2100,1273A,117.1604,31.9052,合肥市,董铺水库,,19,9,8,3,3,60,,84,81,15,9,3,2,0.3,0.2
2024-10-07T2100,1274A,117.25,31.8571,合肥市,长江中路,,33,29,16,23,10,66,,88,87,24,13,7,7,0.8,0.7
2024-10-07T2100,1275A,117.266,31.9436,合肥市,庐阳区,,25,22,8,17,5,59,,87,83,33,14,3,2,0.5,0.4
2024-10-07T2100,1276A,117.336,31.8586,合肥市,瑶海区,,25,14,8,10,5,80,,88,88,19,20,6,6,0.4,0.3
2024-10-07T2100,1277A,117.3027,31.7964,合肥市,包河区,,36,17,6,12,4,15,,73,52,72,32,5,4,0.6,0.5
2024-10-07T2100,1278A,117.2776,31.7385,合肥市,滨湖新区,,21,17,8,12,7,66,,79,79,25,19,4,4,0.3,0.2
2024-10-07T2100,1279A,117.1318,31.8403,合肥市,高新区,,22,22,9,14,8,63,,80,80,23,14,7,6,0.6,0.6
2024-10-07T2100,3464A,117.3803,31.9147,合肥市,高教基地,,12,10,10,6,5,36,,79,70,8,7,4,3,0.2,0.2
2024-10-07T2100,3614A,79.924,37.0877,和田地区,地区环保局,颗粒物(PM10),147,243,305,,69,87,,100,100,17,15,6,8,0.5,0.5
2024-10-07T2100,3615A,79.9131,37.113,和田地区,市环保局,颗粒物(PM10),134,217,272,65,78,79,,102,101,32,22,7,7,0.6,0.5
2024-10-07T2100,2516A,108.2011,24.715,河池市,东仁乐园,细颗粒物(PM2.5),55,55,52,39,33,82,,129,115,7,11,3,4,0.7,0.7
2024-10-07T2100,2517A,108.0497,24.6947,河池市,市环保站,,48,37,49,33,36,80,,129,118,10,18,10,11,0.8,0.8
2024-10-07T2100,2518A,108.0983,24.6989,河池市,市疾控中心,细颗粒物(PM2.5),53,43,55,37,37,85,,131,120,8,24,11,12,0.6,0.6
2024-10-07T2100,1696A,114.6778,23.7569,河源市,源西,,41,33,33,27,24,130,,123,123,11,14,6,7,0.6,0.5
2024-10-07T2100,1697A,114.6944,23.7586,河源市,东埔,,49,35,29,34,27,130,,124,124,12,12,6,5,0.8,0.8
2024-10-07T2100,1698A,114.6892,23.7233,河源市,老城,,42,41,35,24,22,132,,125,125,11,10,5,5,0.7,0.6
2024-10-07T2100,1718A,115.4208,35.2464,菏泽市,气象局,颗粒物(PM10),79,107,128,57,67,53,,111,106,60,38,4,6,0.6,0.5
2024-10-07T2100,1719A,115.4747,35.2375,菏泽市,市政协,颗粒物(PM10),74,97,129,50,69,74,,112,110,34,32,4,7,0.6,0.5
2024-10-07T2100,3374A,115.5564,35.0891,菏泽市,定陶老年大学,细颗粒物(PM2.5),92,114,121,68,68,65,,112,105,24,26,6,8,0.5,0.4
2024-10-07T2100,3647A,115.4702,35.2706,菏泽市,菏泽医专,细颗粒物(PM2.5),99,99,115,74,81,71,,113,111,34,32,7,10,1.0,1
2024-10-07T2100,2514A,111.5264,24.4172,贺州市,环保小区,细颗粒物(PM2.5),74,82,74,54,48,116,,158,139,19,19,8,9,0.7,0.7
2024-10-07T2100,2515A,111.5608,24.4078,贺州市,政协大楼,,,71,72,41,43,122,,159,143,15,18,7,8,,0.9
2024-10-07T2100,3534A,111.4744,24.4553,贺州市,西湾,细颗粒物(PM2.5),73,74,66,53,49,114,,148,138,13,13,6,8,0.6,0.7
2024-10-07T2100,2385A,114.17,35.9019,鹤壁市,市监测站,细颗粒物(PM2.5),144,128,117,110,91,44,,94,84,51,33,4,7,1.2,1.2
2024-10-07T2100,2386A,114.2956,35.7511,鹤壁市,市交警支队,细颗粒物(PM2.5),128,132,125,97,84,40,,91,86,47,34,3,2,0.8,0.8
2024-10-07T2100,2387A,114.2878,35.7306,鹤壁市,迎宾馆,细颗粒物(PM2.5),156,154,136,119,102,53,,95,91,41,32,5,9,1.1,1.1
2024-10-07T2100,3474A,114.2617,35.6822,鹤壁市,大新区,细颗粒物(PM2.5),123,103,87,93,89,48,,89,86,34,24,1,4,1.0,0.9
2024-10-07T2100,3596A,114.1572,35.9603,鹤壁市,南山宾馆,细颗粒物(PM2.5),143,112,123,109,91,84,,94,94,17,23,3,3,0.8,1.1
2024-10-07T2100,2244A,130.2537,47.3416,鹤岗市,哈啤分公司,细颗粒物(PM2.5),60,45,32,43,23,46,,67,64,15,10,13,14,0.7,0.5
2024-10-07T2100,2245A,130.2684,47.3086,鹤岗市,斯达机电,细颗粒物(PM2.5),57,51,42,40,25,64,,66,66,10,14,13,14,0.4,0.4
2024-10-07T2100,2246A,130.3114,47.3388,鹤岗市,东山纸板厂,颗粒物(PM10),163,276,64,57,29,28,,63,54,26,21,18,18,0.6,0.8
2024-10-07T2100,2247A,130.1097,47.3382,鹤岗市,五号水库,,42,39,19,29,13,56,,77,73,10,6,8,8,0.2,0.1
2024-10-07T2100,2263A,127.4833,50.2524,黑河市,交通局,,43,40,49,30,36,32,,64,56,24,12,8,7,0.5,0.5
2024-10-07T2100,2264A,127.5144,50.2341,黑河市,环保局,,38,33,42,26,32,56,,72,68,15,10,5,4,0.4,0.4
2024-10-07T2100,2265A,127.5291,50.2472,黑河市,大黑河岛,,,,,25,38,48,,70,66,19,11,3,2,0.2,0.3
2024-10-07T2100,1074A,115.6838,37.7541,衡水市,电机北厂,颗粒物(PM10),69,87,83,31,56,15,,86,76,66,23,8,7,0.4,0.6
2024-10-07T2100,1075A,115.6303,37.7316,衡水市,市监测站,颗粒物(PM10),61,72,76,30,54,24,,88,78,59,31,6,7,0.6,0.7
2024-10-07T2100,3188A,115.6683,37.7217,衡水市,市城管局,颗粒物(PM10),62,74,76,31,54,1,,89,74,96,29,2,4,0.5,0.7
2024-10-07T2100,3459A,115.5989,37.5491,衡水市,地表水厂,颗粒物(PM10),59,67,73,22,48,2,,92,71,94,31,4,4,0.5,0.6
2024-10-07T2100,2456A,112.5003,26.9167,衡阳市,原169医院,颗粒物(PM10),70,89,55,50,43,91,,114,106,19,19,14,15,0.6,0.6
2024-10-07T2100,2457A,112.6194,26.9258,衡阳市,衡阳化工总厂,细颗粒物(PM2.5),94,99,72,70,64,87,,119,105,10,8,5,6,0.6,0.7
2024-10-07T2100,2458A,112.6211,26.8956,衡阳市,珠晖区环保局,细颗粒物(PM2.5),89,92,70,66,60,90,,117,106,12,15,7,9,0.7,0.7
2024-10-07T2100,2459A,112.6197,26.8733,衡阳市,市委党校,细颗粒物(PM2.5),105,90,70,79,53,95,,124,112,14,13,9,10,0.7,0.7
2024-10-07T2100,2460A,112.6006,26.8919,衡阳市,市监测站,细颗粒物(PM2.5),113,95,68,85,56,94,,122,111,12,12,7,9,0.7,0.7
2024-10-07T2100,2461A,112.5664,26.9056,衡阳市,真空机电公司,细颗粒物(PM2.5),82,97,65,60,54,93,,118,109,11,10,4,6,0.8,0.7
2024-10-07T2100,3399A,112.6703,26.882,衡阳市,师范学院,细颗粒物(PM2.5),84,80,74,62,53,90,,124,112,14,14,8,10,0.7,0.7
2024-10-07T2100,2608A,103.3772,23.3993,红河哈尼族彝族自治州,污水处理厂,细颗粒物(PM2.5),55,39,35,39,29,74,,89,84,10,10,4,8,0.5,0.5
2024-10-07T2100,2609A,103.3861,23.35,红河哈尼族彝族自治州,监测站,细颗粒物(PM2.5),59,45,43,42,33,78,,87,83,6,8,8,8,0.5,0.5
2024-10-07T2100,3038A,103.3758,23.368,红河哈尼族彝族自治州,州图书馆,,39,32,38,27,23,78,,86,81,6,7,6,7,0.4,0.4
2024-10-07T2100,1090A,111.6507,40.7517,呼和浩特市,呼市一监,"颗粒物(PM10),细颗粒物(PM2.5)",62,73,27,44,17,35,,88,78,38,15,6,6,0.5,0.5
2024-10-07T2100,1091A,111.6572,40.8033,呼和浩特市,小召,颗粒物(PM10),63,75,28,35,17,38,,80,72,46,20,15,8,0.6,0.4
2024-10-07T2100,1094A,111.7516,40.8369,呼和浩特市,如意水处理厂,颗粒物(PM10),51,51,26,25,15,38,,83,76,45,19,8,8,0.5,0.3
2024-10-07T2100,1096A,111.5512,40.7866,呼和浩特市,工大金川校区,颗粒物(PM10),66,81,31,37,16,28,,84,74,50,21,3,4,0.7,0.5
2024-10-07T2100,1097A,111.717,40.7612,呼和浩特市,化肥厂生活区,颗粒物(PM10),58,66,27,25,14,25,,85,73,64,19,10,8,0.5,0.4
2024-10-07T2100,3698A,111.5968,40.8178,呼和浩特市,红旗小学,,44,44,30,20,15,58,,82,72,29,23,3,4,0.4,0.4
2024-10-07T2100,3699A,111.6518,40.8389,呼和浩特市,海东办,,48,48,28,23,16,15,,84,72,71,24,4,5,0.7,0.5
2024-10-07T2100,2192A,119.7594,49.2261,呼伦贝尔市,区环保局,,33,28,21,23,17,72,,76,76,10,11,4,5,0.1,0.1
2024-10-07T2100,3061A,119.7512,49.1577,呼伦贝尔市,国华电力东,,21,19,20,9,13,67,,81,79,7,6,3,3,0.3,0.3
2024-10-07T2100,1250A,120.0751,30.8669,湖州市,城西水厂,,32,13,10,11,9,102,,89,89,16,17,4,4,0.7,0.7
2024-10-07T2100,2873A,120.0875,30.8955,湖州市,仁皇山新区,,31,15,11,14,10,99,,89,89,10,10,6,6,0.6,0.6
2024-10-07T2100,2907A,120.1844,30.8596,湖州市,吴兴区站,,29,18,12,10,10,91,,84,84,8,9,5,5,0.7,0.7
2024-10-07T2100,3562A,120.4148,30.8538,湖州市,南浔区站,,25,21,10,15,10,78,,76,76,13,12,2,2,0.6,0.6
2024-10-07T2100,1607A,120.9092,40.7136,葫芦岛市,龙港区,细颗粒物(PM2.5),62,66,30,44,17,20,,75,59,51,23,15,17,0.7,0.5
2024-10-07T2100,1608A,120.8392,40.7514,葫芦岛市,化工街,颗粒物(PM10),92,134,36,66,22,10,,73,49,66,21,44,20,1.0,0.3
2024-10-07T2100,1609A,120.8341,40.7073,葫芦岛市,新区,细颗粒物(PM2.5),72,70,29,52,22,6,,75,51,78,23,11,13,0.9,0.5
2024-10-07T2100,1610A,120.8695,40.7677,葫芦岛市,东城区,,,142,38,69,23,5,,68,44,,14,182,22,0.8,0.2
2024-10-07T2100,2482A,109.5981,27.5721,怀化市,林科所,,28,19,32,8,21,88,,97,96,10,13,5,6,0.7,0.8
2024-10-07T2100,2483A,109.9453,27.5444,怀化市,河西地税局,,28,25,42,16,29,88,,96,95,8,11,9,11,0.3,0.4
2024-10-07T2100,2484A,109.9781,27.5342,怀化市,市四医院,,28,28,47,18,30,78,,90,89,6,8,7,11,0.5,0.6
2024-10-07T2100,2485A,109.9972,27.5578,怀化市,监测楼,,32,31,45,22,26,82,,96,94,8,12,8,9,0.4,0.5
2024-10-07T2100,2486A,110.0394,27.583,怀化市,市委党校,,30,30,45,18,28,80,,94,92,9,11,8,10,0.4,0.5
2024-10-07T2100,1210A,119.036,33.5981,淮安市,钵池山,颗粒物(PM10),56,61,19,32,18,41,,73,68,36,17,5,4,0.9,0.7
2024-10-07T2100,1211A,119.007,33.575,淮安市,北京南路,颗粒物(PM10),53,56,26,26,16,16,,64,52,54,25,6,6,0.5,0.4
2024-10-07T2100,1212A,118.989,33.6067,淮安市,市监测站,,49,48,17,34,15,20,,66,53,58,26,11,7,0.7,0.6
2024-10-07T2100,1213A,119.135,33.5039,淮安市,楚州区监测站,,45,39,20,31,19,21,,66,55,41,22,6,6,0.6,0.6
2024-10-07T2100,1214A,119.0186,33.6297,淮安市,淮阴区监测站,颗粒物(PM10),65,80,23,32,19,22,,66,54,62,29,8,5,0.7,0.4
2024-10-07T2100,3426A,118.8755,33.2894,淮安市,新华书店,,27,27,16,14,12,68,,89,87,19,19,7,8,0.4,0.3
2024-10-07T2100,2282A,116.8004,33.975,淮北市,监测站,颗粒物(PM10),51,51,18,18,11,53,,88,80,27,14,3,2,0.5,0.3
2024-10-07T2100,2283A,116.8091,33.9007,淮北市,烈山区政府,,37,37,14,16,11,43,,92,78,52,15,8,5,0.2,0.2
2024-10-07T2100,3330A,116.8873,33.9836,淮北市,杜集区检察院,,43,43,27,17,16,69,,95,87,22,14,3,2,1.1,0.8
2024-10-07T2100,4017A,116.7923,33.9535,淮北市,市博物馆,,41,41,17,18,12,65,,94,90,28,15,4,5,0.5,0.5
2024-10-07T2100,2277A,116.8305,32.7727,淮南市,潘集区政府,,24,23,13,16,12,76,,99,95,20,13,7,6,0.5,0.4
2024-10-07T2100,2278A,117.0067,32.6524,淮南市,师范学院,,26,24,12,18,9,81,,99,93,13,11,5,5,0.2,0.2
2024-10-07T2100,2279A,116.8569,32.5951,淮南市,谢家集区政府,,30,,12,21,13,66,,92,88,21,12,6,6,0.3,0.2
2024-10-07T2100,2280A,116.8281,32.633,淮南市,八公山区政府,,26,26,16,16,11,73,,96,92,10,8,4,7,0.2,0.2
2024-10-07T2100,2281A,116.6325,32.6201,淮南市,焦岗湖风景区管理处,细颗粒物(PM2.5),58,,10,41,10,38,,85,82,7,6,7,7,0.1,0
2024-10-07T2100,2894A,117.0566,32.6531,淮南市,经济技术开发区消防队,,23,21,12,16,7,71,,100,92,17,9,4,4,0.3,0.3
2024-10-07T2100,3329A,117.0108,32.5893,淮南市,山南新区,,20,18,12,12,6,62,,104,94,24,14,2,2,0.6,0.4
2024-10-07T2100,2446A,114.9028,30.4742,黄冈市,职工中心,,36,36,27,24,21,52,,77,65,19,13,12,8,0.4,0.4
2024-10-07T2100,2929A,114.8858,30.4519,黄冈市,红卫路,,29,26,19,20,16,57,,76,68,18,14,10,7,0.6,0.6
2024-10-07T2100,3398A,114.9136,30.4445,黄冈市,市林业局,,32,28,23,22,18,50,,80,67,20,9,9,8,0.4,0.4
2024-10-07T2100,2672A,102.0199,35.5102,黄南藏族自治州,同仁县隆务镇,,48,48,41,22,20,71,,90,87,1,4,10,9,0.4,0.5
2024-10-07T2100,2295A,118.2903,29.6963,黄山市,延安路89号,,24,,13,7,5,76,,79,79,5,5,6,6,0.3,0.4
2024-10-07T2100,2296A,118.327,29.7178,黄山市,黄山东路89号,,23,11,12,3,5,72,,78,78,5,5,4,4,0.3,0.4
2024-10-07T2100,2297A,118.1371,30.2756,黄山市,黄山区政府5号楼,,22,11,7,3,5,68,,74,71,8,9,8,7,0.4,0.5
2024-10-07T2100,2424A,115.0817,30.2006,黄石市,陈家湾,,26,26,28,12,17,50,,77,63,19,14,8,8,0.4,0.6
2024-10-07T2100,2426A,114.8988,30.2019,黄石市,铁山,,30,28,29,21,18,47,,87,70,18,10,8,9,0.6,0.6
2024-10-07T2100,2427A,115.0307,30.2092,黄石市,团城山,,25,25,31,12,12,48,,69,55,15,15,4,6,0.5,0.7
2024-10-07T2100,3149A,115.0235,30.1578,黄石市,笔架山北路,,19,19,26,13,15,50,,79,63,13,14,6,8,0.4,0.6
2024-10-07T2100,1392A,114.4183,23.0528,惠州市,河南岸金山湖子站,,45,45,35,29,23,102,,123,119,14,10,8,8,0.6,0.5
2024-10-07T2100,1393A,114.4053,23.0822,惠州市,下埔横江三路子站,,41,41,35,28,23,116,,133,129,13,10,7,7,0.7,0.6
2024-10-07T2100,1394A,114.4103,23.1142,惠州市,江北云山西路子站,,39,39,34,18,20,111,,130,126,12,9,7,7,0.5,0.5
2024-10-07T2100,1395A,114.4645,22.7833,惠州市,惠阳区承修路船湖子站,颗粒物(PM10),51,52,43,30,25,94,,113,109,24,16,8,8,0.7,0.6
2024-10-07T2100,1396A,114.5317,22.7422,惠州市,大亚湾管委会子站,,39,39,34,24,21,112,,112,112,14,14,10,9,0.5,0.5
2024-10-07T2100,3314A,114.4338,22.8134,惠州市,惠阳秋长,,40,39,28,28,21,104,,114,112,15,11,7,7,0.4,0.5
2024-10-07T2100,3452A,114.6517,22.775,惠州市,大亚湾霞涌,,42,29,25,29,18,88,,107,103,11,10,6,6,0.6,0.6
2024-10-07T2100,2240A,130.9762,45.3001,鸡西市,环保局,颗粒物(PM10),51,51,25,28,11,35,,60,54,20,10,7,7,0.5,0.3
2024-10-07T2100,3707A,131.0207,45.3073,鸡西市,欧美日汽修厂,,50,50,31,32,16,53,,61,53,15,22,9,7,0.2,0.1
2024-10-07T2100,3709A,130.9967,45.3106,鸡西市,市政设施管理处,颗粒物(PM10),53,55,31,28,13,30,,60,50,31,22,8,7,0.3,0.2
2024-10-07T2100,2367A,114.9754,27.0803,吉安市,红声器材厂,细颗粒物(PM2.5),73,83,51,53,29,126,,142,142,22,19,13,12,0.6,0.6
2024-10-07T2100,2368A,114.9658,27.0999,吉安市,市森林工业局,细颗粒物(PM2.5),72,77,48,52,30,124,,138,138,22,19,13,14,0.9,0.8
2024-10-07T2100,2369A,114.99,27.1312,吉安市,市环境监测站,细颗粒物(PM2.5),69,68,47,50,29,127,,141,141,18,18,17,18,0.7,0.6
2024-10-07T2100,2370A,115.0093,27.0968,吉安市,青原区法院,细颗粒物(PM2.5),67,66,48,48,30,125,,144,144,18,19,21,18,0.7,0.7
2024-10-07T2100,1772A,126.54,43.8622,吉林市,哈达湾,细颗粒物(PM2.5),78,73,41,57,26,19,,81,66,54,25,6,9,1.0,0.7
2024-10-07T2100,1773A,126.5844,43.8358,吉林市,东局子,,45,44,43,31,30,36,,75,57,34,27,5,7,0.7,0.7
2024-10-07T2100,1774A,126.5052,43.8245,吉林市,电力学院,细颗粒物(PM2.5),85,94,48,63,32,8,,72,48,44,23,5,6,1.1,0.8
2024-10-07T2100,1775A,126.6133,43.8972,吉林市,江北,颗粒物(PM10),63,75,52,39,30,23,,72,54,50,27,9,10,0.9,0.9
2024-10-07T2100,1776A,126.555,43.8306,吉林市,江南公园,细颗粒物(PM2.5),65,72,41,47,30,13,,79,61,53,24,6,7,0.9,0.7
2024-10-07T2100,1778A,126.7061,43.7133,吉林市,丰满,,30,24,28,21,27,59,,79,76,6,10,6,7,0.3,0.4
2024-10-07T2100,2868A,126.4739,43.953,吉林市,九站,细颗粒物(PM2.5),64,70,44,46,27,10,,78,54,62,27,8,7,0.8,0.7
2024-10-07T2100,1299A,116.9862,36.6114,济南市,科干所,颗粒物(PM10),54,58,90,24,45,53,,90,86,36,44,5,8,0.8,0.8
2024-10-07T2100,1300A,116.9376,36.665,济南市,农科所,颗粒物(PM10),59,68,99,22,47,28,,84,74,67,47,5,7,0.8,0.8
2024-10-07T2100,1301A,117.1265,36.6734,济南市,开发区,颗粒物(PM10),57,63,83,37,50,44,,85,80,56,45,5,10,0.7,0.7
2024-10-07T2100,1303A,117.0624,36.6868,济南市,省种子仓库,颗粒物(PM10),59,68,99,34,60,56,,89,84,41,31,4,6,0.5,0.5
2024-10-07T2100,1304A,116.9489,36.6447,济南市,机床二厂,颗粒物(PM10),63,76,89,32,46,37,,93,87,70,49,4,6,0.8,0.8
2024-10-07T2100,1305A,117.0495,36.663,济南市,市监测站,颗粒物(PM10),59,68,87,34,58,30,,92,83,67,40,4,7,0.8,0.7
2024-10-07T2100,1306A,116.7675,36.5484,济南市,长清党校,颗粒物(PM10),56,61,84,29,44,52,,102,95,50,47,6,6,0.7,0.7
2024-10-07T2100,1616A,117.6795,36.229,济南市,技术学院,颗粒物(PM10),64,78,62,36,41,63,,90,87,31,29,7,9,0.6,0.7
2024-10-07T2100,1961A,117.532,36.6868,济南市,东山小学,颗粒物(PM10),56,61,73,29,37,29,,93,84,62,40,4,4,0.8,0.6
2024-10-07T2100,3059A,117.7161,36.2049,济南市,泰兴公司,"颗粒物(PM10),细颗粒物(PM2.5)",52,53,55,36,34,66,,86,84,27,37,6,8,0.4,0.5
2024-10-07T2100,3064A,117.6867,36.2171,济南市,莱芜战役纪念馆,颗粒物(PM10),67,83,65,29,36,66,,91,89,37,31,6,6,0.6,0.7
2024-10-07T2100,3494A,117.1673,36.9782,济南市,济阳区政府,颗粒物(PM10),56,61,74,34,42,69,,93,90,24,23,3,4,0.4,0.5
2024-10-07T2100,3495A,117.1171,36.63,济南市,锦屏中学,,29,29,59,20,39,55,,90,84,28,32,4,5,0.5,0.6
2024-10-07T2100,3682A,116.9814,36.6819,济南市,济南四建,颗粒物(PM10),58,66,78,27,47,34,,81,72,73,41,3,5,0.6,0.6
2024-10-07T2100,1653A,116.6251,35.4302,济宁市,火炬城,"颗粒物(PM10),细颗粒物(PM2.5)",55,60,38,39,24,68,,100,92,26,17,8,9,0.8,0.6
2024-10-07T2100,1655A,116.5491,35.4042,济宁市,电化厂,颗粒物(PM10),82,114,60,51,27,9,,99,84,74,23,7,8,1.4,1
2024-10-07T2100,3500A,116.5814,35.3707,济宁市,北湖一中,细颗粒物(PM2.5),67,70,40,48,32,56,,101,92,32,19,5,7,0.7,0.5
2024-10-07T2100,3501A,116.8249,35.5593,济宁市,服务中心,细颗粒物(PM2.5),69,73,44,50,29,32,,94,81,50,22,6,7,1.0,0.7
2024-10-07T2100,3678A,116.5907,35.4054,济宁市,市第七中学,细颗粒物(PM2.5),67,71,40,48,28,52,,98,83,41,19,7,8,0.9,0.6
2024-10-07T2100,2255A,130.2751,46.8028,佳木斯市,佳纺,颗粒物(PM10),77,103,47,49,20,35,,64,44,36,21,5,3,0.6,0.5
2024-10-07T2100,2256A,130.3995,46.8307,佳木斯市,发电厂,,46,42,35,32,19,57,,66,63,15,18,6,6,0.4,0.4
2024-10-07T2100,2257A,130.3258,46.7975,佳木斯市,环保局,细颗粒物(PM2.5),59,65,39,42,19,26,,62,44,39,25,8,8,0.5,0.5
2024-10-07T2100,2258A,130.3648,46.8032,佳木斯市,十一中,细颗粒物(PM2.5),60,67,42,43,22,35,,62,50,42,28,12,8,0.6,0.6
2024-10-07T2100,2259A,130.3794,46.7588,佳木斯市,四丰,,38,38,19,19,10,61,,65,62,12,10,1,1,0.3,0.1
2024-10-07T2100,1252A,120.7436,30.778,嘉兴市,清河小学,,28,14,8,7,5,89,,88,88,15,14,4,4,0.5,0.5
2024-10-07T2100,1253A,120.726,30.7478,嘉兴市,嘉兴学院,,29,11,8,9,7,90,,88,88,11,12,3,3,0.3,0.3
2024-10-07T2100,2872A,120.7846,30.7525,嘉兴市,南湖区残联,,29,13,10,11,6,92,,93,91,10,8,5,4,0.3,0.3
2024-10-07T2100,3407A,120.6916,30.7739,嘉兴市,秀洲住建,,28,13,6,8,6,87,,88,88,11,11,6,5,0.3,0.4
2024-10-07T2100,1945A,98.2908,39.7711,嘉峪关市,气象局,颗粒物(PM10),69,88,63,36,19,74,,108,105,30,23,3,6,0.4,0.3
2024-10-07T2100,2884A,98.2672,39.7978,嘉峪关市,酒钢宾馆,颗粒物(PM10),57,63,61,24,20,91,,117,115,26,17,10,18,0.7,0.4
2024-10-07T2100,3248A,98.2643,39.7724,嘉峪关市,雄关区,颗粒物(PM10),63,75,52,29,19,75,,105,102,29,29,8,9,0.6,0.4
2024-10-07T2100,1383A,113.1064,22.6058,江门市,北街,"颗粒物(PM10),细颗粒物(PM2.5)",59,68,50,42,32,132,,194,188,24,22,8,7,0.6,0.7
2024-10-07T2100,1384A,113.0731,22.5835,江门市,西区,细颗粒物(PM2.5),74,86,53,54,30,129,,199,190,27,23,10,9,0.6,0.5
2024-10-07T2100,1385A,113.0219,22.5311,江门市,圭峰西,细颗粒物(PM2.5),70,64,46,51,32,140,,197,190,21,22,8,6,1.0,0.9
2024-10-07T2100,1386A,113.0828,22.5947,江门市,东湖,细颗粒物(PM2.5),73,73,52,53,31,126,,193,184,22,21,8,7,0.6,0.5
2024-10-07T2100,3311A,113.1075,22.5647,江门市,江海富民,颗粒物(PM10),63,75,49,27,25,140,,199,192,23,22,10,9,0.7,0.5
2024-10-07T2100,3449A,113.05,22.4667,江门市,新会银湖,细颗粒物(PM2.5),70,70,50,51,35,147,,198,191,18,25,8,7,0.8,0.6
2024-10-07T2100,1828A,113.227,35.2125,焦作市,市环保局,细颗粒物(PM2.5),156,160,106,119,74,,,130,130,29,26,5,8,0.8,0.6
2024-10-07T2100,1830A,113.1992,35.2590,焦作市,影视城,细颗粒物(PM2.5),123,119,82,93,64,110,,126,126,14,15,5,8,0.8,0.7
2024-10-07T2100,3169A,113.2725,35.2067,焦作市,太极体育中心,细颗粒物(PM2.5),122,162,120,92,60,78,,122,118,36,31,6,7,0.7,0.7
2024-10-07T2100,3335A,113.3137,35.2641,焦作市,马村街道办,细颗粒物(PM2.5),137,144,91,104,67,81,,125,121,28,23,3,7,0.7,0.6
2024-10-07T2100,3336A,113.2465,35.2373,焦作市,焦作技师学院,细颗粒物(PM2.5),153,162,102,117,71,78,,126,123,37,23,6,6,1.0,0.8
2024-10-07T2100,3477A,113.1656,35.2539,焦作市,中站许衡医院,细颗粒物(PM2.5),117,124,88,88,62,105,,125,125,23,26,4,6,1.0,0.8
2024-10-07T2100,3981A,113.2449,35.1803,焦作市,原李万街道办,细颗粒物(PM2.5),152,178,116,116,79,75,,129,122,32,22,4,6,1.0,0.8
2024-10-07T2100,1708A,116.3701,23.5345,揭阳市,新兴,,32,,36,22,23,62,,106,93,12,12,6,6,0.6,0.6
2024-10-07T2100,1709A,116.3264,23.5443,揭阳市,西马,,31,31,37,18,26,72,,96,90,13,8,6,6,0.7,0.7
2024-10-07T2100,1710A,116.3611,23.5626,揭阳市,东兴,,28,22,40,19,21,73,,102,92,11,13,5,6,0.7,0.7
2024-10-07T2100,1711A,116.4151,23.5294,揭阳市,渔湖,,29,,40,20,19,66,,112,97,11,16,7,8,0.6,0.7
2024-10-07T2100,3320A,116.403,23.5699,揭阳市,曲溪,,39,35,36,27,22,66,,105,90,13,17,2,2,0.5,0.5
2024-10-07T2100,1944A,102.1692,38.5167,金昌市,天庆家园,细颗粒物(PM2.5),59,65,45,42,26,60,,109,103,41,20,13,13,1.2,0.8
2024-10-07T2100,3170A,102.1864,38.5253,金昌市,市委党校,颗粒物(PM10),65,79,54,30,23,81,,111,107,34,17,10,8,0.7,0.6
2024-10-07T2100,4022A,102.1647,38.5371,金昌市,金川区人防中心,颗粒物(PM10),79,108,55,33,24,59,,112,103,62,20,9,10,0.8,0.6
2024-10-07T2100,1262A,119.647,29.077,金华市,十五中,,24,24,27,11,12,56,,56,56,27,26,2,2,0.6,0.6
2024-10-07T2100,1263A,119.686,29.1029,金华市,监测站,,17,13,17,8,10,52,,63,58,26,24,2,2,0.7,0.7
2024-10-07T2100,3659A,119.656,29.1131,金华市,气象局,,15,15,18,3,10,47,,47,47,30,35,3,3,0.6,0.4
2024-10-07T2100,1767A,121.1115,41.0879,锦州市,南山,细颗粒物(PM2.5),83,68,27,61,26,9,,67,49,55,20,13,10,1.2,0.6
2024-10-07T2100,1768A,121.0533,40.8434,锦州市,开发区,颗粒物(PM10),118,185,46,87,27,8,,64,44,90,28,17,12,1.5,0.7
2024-10-07T2100,1769A,121.1836,41.1119,锦州市,百股街道,细颗粒物(PM2.5),67,74,35,48,24,9,,68,47,42,15,9,10,1.0,0.7
2024-10-07T2100,1770A,121.1178,41.1222,锦州市,天安街道,颗粒物(PM10),73,95,31,50,22,10,,68,48,58,20,12,11,1.2,0.6
2024-10-07T2100,1771A,121.1303,41.1386,锦州市,北湖公园,"颗粒物(PM10),细颗粒物(PM2.5)",53,56,28,37,22,16,,72,55,54,18,15,11,0.8,0.5
2024-10-07T2100,2160A,112.85,35.5051,晋城市,自来水公司,细颗粒物(PM2.5),110,118,109,83,79,126,,140,140,28,43,12,12,1.1,1.2
2024-10-07T2100,2161A,112.8318,35.4936,晋城市,白云商贸,,,,123,,81,,,140,140,28,45,6,8,1.0,1.1
2024-10-07T2100,2162A,112.8508,35.4887,晋城市,市环保局,细颗粒物(PM2.5),110,128,126,83,74,122,,138,138,26,50,8,8,1.2,1.2
2024-10-07T2100,2163A,112.8676,35.4897,晋城市,技术学院,细颗粒物(PM2.5),107,124,114,80,70,118,,136,136,30,52,8,9,1.2,1.1
2024-10-07T2100,2165A,112.8453,35.546,晋城市,白马寺,细颗粒物(PM2.5),104,125,114,78,76,121,,137,134,22,21,11,13,1.2,1.2
2024-10-07T2100,3620A,112.8271,35.4828,晋城市,泽州一中,细颗粒物(PM2.5),122,111,119,92,85,102,,135,135,31,42,12,12,1.2,1.2
2024-10-07T2100,2171A,112.7532,37.6945,晋中市,锦纶小区,颗粒物(PM10),59,68,37,29,20,42,,118,103,43,25,7,6,0.5,0.5
2024-10-07T2100,2173A,112.7249,37.7067,晋中市,南都小区,颗粒物(PM10),79,107,40,35,24,20,,118,101,88,29,6,5,0.6,0.3
2024-10-07T2100,2174A,112.6991,37.6982,晋中市,榆次区政府,颗粒物(PM10),70,90,46,31,22,42,,122,106,61,34,7,7,0.6,0.4
2024-10-07T2100,2865A,112.7195,37.6828,晋中市,榆次三中,颗粒物(PM10),62,73,40,27,17,39,,119,105,50,24,8,8,0.6,0.5
2024-10-07T2100,2439A,112.2014,31.0481,荆门市,竹园小学,颗粒物(PM10),68,85,41,42,30,56,,117,109,42,22,11,10,0.6,0.6
2024-10-07T2100,2440A,112.1969,30.9891,荆门市,掇刀,颗粒物(PM10),60,69,37,42,29,94,,128,126,32,18,8,8,0.5,0.5
2024-10-07T2100,2441A,112.2213,31.0386,荆门市,石化一小,"颗粒物(PM10),细颗粒物(PM2.5)",62,74,44,44,37,63,,124,118,51,20,18,15,0.7,0.5
2024-10-07T2100,3012A,112.1849,31.0362,荆门市,西山林语,细颗粒物(PM2.5),59,56,33,42,23,108,,124,124,19,16,7,8,0.4,0.5
2024-10-07T2100,3547A,112.1632,31.0138,荆门市,龙泉中学南校,颗粒物(PM10),53,56,29,36,18,108,,128,128,23,18,6,6,0.5,0.6
2024-10-07T2100,1844A,112.2494,30.3197,荆州市,市图书馆,,34,34,28,23,22,65,,113,109,35,18,8,9,0.8,0.6
2024-10-07T2100,1845A,112.2008,30.3544,荆州市,市委党校,,38,38,30,24,26,57,,112,107,41,17,7,7,0.6,0.5
2024-10-07T2100,3194A,112.2747,30.3122,荆州市,管委会,,32,32,26,18,23,63,,113,109,40,17,8,8,0.8,0.6
2024-10-07T2100,3548A,112.1655,30.3364,荆州市,学苑路,,38,38,31,23,25,88,,120,120,32,17,7,8,0.5,0.5
2024-10-07T2100,2343A,117.2117,29.2933,景德镇市,老干部活动中心,,19,9,7,3,3,60,,66,65,6,5,7,7,0.3,0.3
2024-10-07T2100,2344A,117.1894,29.2789,景德镇市,兽医站,,21,17,11,3,4,67,,72,72,4,5,6,6,0.2,0.3
2024-10-07T2100,2345A,117.1547,29.2617,景德镇市,台达陶瓷,,20,10,12,3,7,63,,67,66,5,10,7,9,0.4,0.5
2024-10-07T2100,2346A,117.2461,29.2956,景德镇市,陶研所,,20,8,9,3,5,63,,71,70,9,9,7,6,0.3,0.3
2024-10-07T2100,1803A,115.9872,29.6815,九江市,十里,,23,11,16,7,7,72,,84,77,14,12,7,8,0.5,0.5
2024-10-07T2100,1804A,115.9584,29.7046,九江市,茅山头,,20,,15,8,9,64,,76,69,12,12,10,9,0.6,0.5
2024-10-07T2100,1805A,115.9877,29.7295,九江市,西园,,23,,12,6,9,72,,83,78,12,12,8,8,0.4,0.3
2024-10-07T2100,1806A,116.0172,29.6547,九江市,五七二七厂,,21,,12,12,12,66,,79,73,11,11,8,8,0.6,0.5
2024-10-07T2100,1808A,115.9114,29.6038,九江市,综合工业园,,24,6,13,3,9,76,,85,76,11,14,6,7,0.3,0.3
2024-10-07T2100,1809A,116.0721,29.7535,九江市,石化总厂,,21,,18,10,14,65,,79,71,10,10,7,8,0.5,0.5
2024-10-07T2100,1810A,115.9773,29.5698,九江市,庐山气象台,,26,12,14,3,11,83,,99,81,3,4,6,7,0.6,0.6
2024-10-07T2100,3190A,116.0254,29.6994,九江市,外国语学校,,20,7,15,3,8,62,,73,66,12,13,6,8,0.1,0.1
2024-10-07T2100,2658A,98.5061,39.7443,酒泉市,仓门街子站,颗粒物(PM10),51,51,48,31,20,85,,109,107,16,13,4,9,0.4,0.2
2024-10-07T2100,2659A,98.4989,39.7256,酒泉市,油田生活基地,颗粒物(PM10),58,66,55,25,23,83,,106,104,21,15,7,16,0.3,0.2
2024-10-07T2100,2698A,76.0072,39.4467,喀什地区,巡警大队,颗粒物(PM10),88,126,125,26,23,67,,71,71,33,33,4,4,0.6,0.6
2024-10-07T2100,2699A,75.9755,39.4694,喀什地区,吾办,颗粒物(PM10),90,130,117,39,35,68,,69,69,32,29,4,3,0.6,0.6
2024-10-07T2100,4027A,75.9483,39.4689,喀什地区,老干局,颗粒物(PM10),91,132,118,20,20,61,,70,70,23,29,4,4,0.6,0.6
2024-10-07T2100,1824A,114.3389,34.7781,开封市,肿瘤医院,细颗粒物(PM2.5),176,167,141,133,127,80,,108,102,25,26,3,4,0.8,0.8
2024-10-07T2100,1826A,114.2885,34.7965,开封市,世纪星幼儿园,细颗粒物(PM2.5),90,121,130,67,67,57,,105,96,44,35,3,3,0.9,0.8
2024-10-07T2100,3147A,114.3438,34.8106,开封市,龙亭公园,细颗粒物(PM2.5),108,124,129,81,80,62,,101,92,39,31,1,4,0.9,0.8
2024-10-07T2100,3210A,114.3644,34.7964,开封市,汴京公园,细颗粒物(PM2.5),165,155,150,125,115,41,,94,81,33,28,2,4,0.9,0.8
2024-10-07T2100,3473A,114.2485,34.8306,开封市,技师学院,颗粒物(PM10),106,161,133,61,65,60,,100,92,43,30,4,6,1.0,1
2024-10-07T2100,3592A,114.4644,34.7556,开封市,祥符区生态环境局,,,,136,,81,59,,96,88,,34,7,9,1.1,0.9
2024-10-07T2100,1951A,84.895,45.6094,克拉玛依市,长征新村,颗粒物(PM10),81,112,56,34,10,25,,93,54,58,26,7,7,0.6,0.3
2024-10-07T2100,1952A,84.8988,45.5893,克拉玛依市,南林小区,,,94,54,39,23,,,93,56,72,34,6,3,0.1,0.1
2024-10-07T2100,1954A,84.905,44.3396,克拉玛依市,独山子区,,44,44,34,14,13,37,,111,99,52,16,8,9,0.7,0.4
2024-10-07T2100,1955A,85.6979,46.098,克拉玛依市,乌尔禾区商贸楼,颗粒物(PM10),52,53,46,14,8,82,,88,88,20,16,4,5,0.3,0.3
2024-10-07T2100,3612A,85.1045,45.6899,克拉玛依市,白碱滩区新站,颗粒物(PM10),62,73,52,17,10,65,,96,71,32,25,8,8,0.3,0.3
2024-10-07T2100,2697A,76.1454,39.7142,克孜勒苏柯尔克孜自治州,市人民政府,颗粒物(PM10),99,148,97,48,33,37,,97,93,60,11,4,10,0.5,0.2
2024-10-07T2100,3665A,76.1658,39.7157,克孜勒苏柯尔克孜自治州,克州文化中心,颗粒物(PM10),96,141,88,45,34,58,,97,93,46,12,7,12,0.6,0.3
2024-10-07T2100,1450A,102.8204,24.8886,昆明市,呈贡新区,,50,45,47,35,28,32,,50,29,19,20,12,6,0.9,0.7
2024-10-07T2100,1452A,102.7252,25.0902,昆明市,龙泉镇,,20,20,23,12,12,33,,40,34,15,16,6,7,0.8,0.7
2024-10-07T2100,1453A,102.7266,25.0375,昆明市,东风东路,,32,32,31,19,17,24,,46,23,19,16,6,6,0.7,0.6
2024-10-07T2100,1454A,102.6742,25.0669,昆明市,金鼎山,,23,23,25,11,12,36,,54,37,15,13,1,2,0.7,0.6
2024-10-07T2100,1455A,102.6644,25.0401,昆明市,碧鸡广场,,26,26,29,17,19,26,,54,29,21,15,6,6,0.5,0.4
2024-10-07T2100,3179A,102.7494,25.0119,昆明市,官渡区博物馆,,29,26,32,20,19,27,,46,27,24,23,6,6,0.6,0.6
2024-10-07T2100,3375A,102.8017,24.8336,昆明市,青年创业园,,38,36,35,26,25,34,,64,33,14,11,4,4,0.7,0.6
2024-10-07T2100,3550A,102.7997,24.9786,昆明市,昆明学院,,50,50,35,28,22,20,,52,22,30,22,6,6,0.7,0.6
2024-10-07T2100,3551A,102.5967,24.6736,昆明市,晋宁区生态环境分局,细颗粒物(PM2.5),52,48,32,36,28,28,,62,42,31,17,2,2,0.9,0.9
2024-10-07T2100,3552A,102.6678,24.9856,昆明市,云天化总部,,39,39,29,27,21,33,,63,28,21,16,5,5,0.4,0.4
2024-10-07T2100,1456A,91.1319,29.6514,拉萨市,八廓街,,29,23,19,10,9,90,,127,123,28,21,7,8,0.3,0.3
2024-10-07T2100,1457A,91.1221,29.6747,拉萨市,市环保局,,22,16,18,9,8,68,,128,119,38,21,5,7,0.4,0.3
2024-10-07T2100,1458A,91.0874,29.6475,拉萨市,区监测站,,30,18,15,8,8,58,,121,113,59,26,5,6,0.5,0.4
2024-10-07T2100,1459A,91.1774,29.6541,拉萨市,西藏大学,,30,22,13,7,7,96,,124,122,23,14,6,9,0.3,0.3
2024-10-07T2100,1460A,90.9798,29.6588,拉萨市,区辐射站,,31,,18,11,9,97,,116,113,18,23,8,9,0.2,0.3
2024-10-07T2100,1461A,91.0834,29.6292,拉萨市,拉萨火车站,,,8,12,8,10,,,120,120,9,11,5,5,0.1,0.3
2024-10-07T2100,2520A,109.2203,23.7256,来宾市,来宾技工学校,细颗粒物(PM2.5),59,54,55,42,37,124,,152,147,14,12,9,10,0.8,0.8
2024-10-07T2100,3535A,109.1781,23.7297,来宾市,兴宾区政府,"颗粒物(PM10),细颗粒物(PM2.5)",55,59,50,39,36,136,,155,152,9,8,10,9,0.6,0.6
2024-10-07T2100,4002A,109.2416,23.7461,来宾市,中南小学,细颗粒物(PM2.5),64,71,60,46,38,124,,162,154,13,11,11,11,0.9,0.9
2024-10-07T2100,1476A,103.631,36.1031,兰州市,兰炼宾馆,颗粒物(PM10),68,86,64,48,35,40,,110,102,70,29,8,8,0.8,0.5
2024-10-07T2100,1478A,103.8412,36.0726,兰州市,生物制品所,颗粒物(PM10),66,81,58,45,32,24,,95,87,60,34,9,11,0.8,0.5
2024-10-07T2100,1479A,103.831,36.0464,兰州市,铁路设计院,颗粒物(PM10),77,103,62,52,37,4,,88,67,110,46,11,8,1.6,0.6
2024-10-07T2100,3186A,103.7158,36.1058,兰州市,教育港,颗粒物(PM10),76,102,66,48,38,19,,103,92,83,30,9,9,0.9,0.6
2024-10-07T2100,3241A,103.7439,36.0842,兰州市,百合公园,颗粒物(PM10),67,83,57,47,30,26,,104,91,68,29,8,9,0.8,0.6
2024-10-07T2100,3242A,103.9611,35.998,兰州市,和平,颗粒物(PM10),73,96,72,49,40,48,,100,92,38,25,9,11,0.6,0.6
2024-10-07T2100,3245A,103.6633,36.533,兰州新区,新区管委会,细颗粒物(PM2.5),63,69,51,45,28,74,,116,112,24,18,13,14,0.6,0.5
2024-10-07T2100,3246A,103.6975,36.4789,兰州新区,舟曲中学,颗粒物(PM10),55,59,54,30,27,70,,118,113,32,19,29,22,0.5,0.5
2024-10-07T2100,1067A,116.6708,39.5111,廊坊市,药材公司,,36,36,39,17,24,31,,65,59,40,28,2,5,0.4,0.5
2024-10-07T2100,1068A,116.7214,39.5589,廊坊市,开发区,,36,36,37,13,19,24,,69,56,57,28,2,2,0.4,0.4
2024-10-07T2100,1070A,116.7244,39.5269,廊坊市,北华航天学院,,37,37,41,9,19,38,,69,60,41,27,3,3,0.3,0.5
2024-10-07T2100,2919A,116.7022,39.5453,廊坊市,河北工业大学,,38,38,36,23,22,39,,71,65,44,29,3,4,0.3,0.4
2024-10-07T2100,2535A,103.7723,29.5462,乐山市,花湖湾,,40,39,40,28,28,80,,80,80,9,17,2,2,0.7,0.8
2024-10-07T2100,2536A,103.7627,29.5844,乐山市,牛耳桥,,43,43,39,30,32,31,,75,65,34,24,4,5,0.6,0.6
2024-10-07T2100,2537A,103.7508,29.6006,乐山市,市第三水厂,细颗粒物(PM2.5),55,46,45,39,39,32,,79,73,42,21,4,5,0.7,0.7
2024-10-07T2100,2538A,103.7571,29.5664,乐山市,市监测站,,,,43,,29,35,,75,68,34,18,4,4,0.7,0.6
2024-10-07T2100,3361A,103.7311,29.5628,乐山市,理工大学,,33,29,42,23,34,37,,80,70,21,17,3,3,0.6,0.6
2024-10-07T2100,2599A,100.2497,26.8802,丽江市,丽江古城,,20,20,19,13,13,32,,51,49,11,11,8,9,0.6,0.6
2024-10-07T2100,2600A,100.2203,26.8906,丽江市,市中心,,19,,12,13,8,34,,52,50,12,9,6,6,0.6,0.5
2024-10-07T2100,1267A,119.914,28.4514,丽水市,监测站大楼,,25,10,11,8,7,77,,72,72,14,17,6,6,0.6,0.6
2024-10-07T2100,1268A,119.93,28.4586,丽水市,莲都小学,,27,15,11,8,6,84,,80,80,14,15,4,4,0.6,0.5
2024-10-07T2100,1269A,119.879,28.4231,丽水市,余庄前,,22,22,15,8,5,17,,52,42,10,12,4,4,0.6,0.5
2024-10-07T2100,1173A,119.176,34.5885,连云港市,市环境监测站,细颗粒物(PM2.5),67,75,47,48,35,53,,85,84,36,25,7,9,0.6,0.4
2024-10-07T2100,3000A,119.3581,34.6972,连云港市,德源药业,细颗粒物(PM2.5),67,73,44,48,30,14,,80,69,54,31,6,7,0.5,0.4
2024-10-07T2100,3007A,119.178,34.844,连云港市,新城一中,颗粒物(PM10),62,73,55,36,26,64,,92,88,25,23,7,7,0.7,0.6
2024-10-07T2100,3008A,119.3608,34.7519,连云港市,胡沟管理处,,36,36,37,22,30,87,,99,99,12,18,3,3,0.4,0.4
2024-10-07T2100,3009A,119.1478,34.5911,连云港市,矿山设计院,细颗粒物(PM2.5),70,75,49,51,37,30,,81,77,49,28,6,8,0.8,0.7
2024-10-07T2100,3434A,119.2413,34.6539,连云港市,工贸学校,,47,47,36,32,25,43,,82,80,24,22,7,10,0.8,0.7
2024-10-07T2100,3664A,119.4172,34.7341,连云港市,连云街道,,32,32,32,17,18,46,,87,82,31,20,8,8,1.1,0.6
2024-10-07T2100,2571A,102.3431,27.8099,凉山彝族自治州,青龙寺,,12,12,10,3,3,16,,38,26,5,5,6,6,0.7,0.7
2024-10-07T2100,2572A,102.2721,27.8415,凉山彝族自治州,邛海宾馆,,19,19,10,9,5,21,,48,34,21,11,9,8,0.7,0.6
2024-10-07T2100,2573A,102.2625,27.898,凉山彝族自治州,西昌市政府,,12,12,8,8,5,34,,52,48,11,8,7,7,0.7,0.6
2024-10-07T2100,2574A,102.2685,27.8851,凉山彝族自治州,凉山州政府,,15,,8,10,5,41,,53,51,12,8,6,6,0.9,0.8
2024-10-07T2100,2575A,102.237,27.8914,凉山彝族自治州,长安,,12,12,9,7,6,38,,48,46,9,9,8,9,0.9,0.8
2024-10-07T2100,2212A,123.2,41.1953,辽阳市,宏伟区,颗粒物(PM10),56,61,28,26,21,11,,71,59,46,17,6,6,0.8,0.5
2024-10-07T2100,2213A,123.1683,41.2495,辽阳市,新华园,颗粒物(PM10),68,85,29,32,19,21,,67,59,49,19,9,10,1.0,0.6
2024-10-07T2100,2214A,123.2354,41.2639,辽阳市,滨河路,颗粒物(PM10),60,69,27,39,20,11,,67,56,48,17,11,11,0.9,0.7
2024-10-07T2100,2215A,123.149,41.2991,辽阳市,铁西工业园,颗粒物(PM10),83,116,37,45,21,8,,63,45,40,17,11,13,0.8,0.6
2024-10-07T2100,2227A,125.1358,42.8845,辽源市,环保局,颗粒物(PM10),55,59,29,35,19,8,,76,54,40,17,8,10,1.0,0.6
2024-10-07T2100,3239A,125.0764,42.9078,辽源市,银鹰制药,颗粒物(PM10),65,79,28,34,16,5,,72,48,41,18,4,4,0.8,0.6
2024-10-07T2100,1625A,115.9848,36.4372,聊城市,区政府,颗粒物(PM10),54,57,114,28,61,64,,94,91,31,32,7,10,0.5,0.6
2024-10-07T2100,2878A,116.0072,36.4343,聊城市,聊大东校,细颗粒物(PM2.5),62,66,107,44,64,61,,99,95,40,33,8,10,0.7,0.7
2024-10-07T2100,3200A,115.9819,36.4978,聊城市,监控中心,颗粒物(PM10),68,85,101,48,62,43,,92,81,55,34,7,8,0.7,0.7
2024-10-07T2100,3513A,116.0445,36.4361,聊城市,九州社区,,,75,106,41,58,,,93,91,61,36,5,7,0.6,0.5
2024-10-07T2100,4018A,116.0567,36.4608,聊城市,星美广场,颗粒物(PM10),69,87,99,42,56,32,,97,85,63,30,10,9,0.6,0.6
2024-10-07T2100,2632A,94.3681,29.6376,林芝市,林芝监测站,,19,,2,3,2,60,,65,65,2,2,10,10,0.2,0.2
2024-10-07T2100,2633A,94.3616,29.6616,林芝市,林芝人民医院,,19,10,6,3,3,58,,67,67,6,6,5,5,0.3,0.3
2024-10-07T2100,2603A,100.0781,23.8982,临沧市,市环保局,,43,33,20,30,13,21,,46,39,13,9,7,6,0.7,0.5
2024-10-07T2100,2604A,100.0894,23.8822,临沧市,市气象局,,29,24,23,20,16,31,,48,41,11,9,3,4,0.6,0.6
2024-10-07T2100,1733A,111.5531,36.0783,临汾市,临钢医院,细颗粒物(PM2.5),144,179,103,110,58,78,,139,129,51,37,9,11,1.4,1.1
2024-10-07T2100,1734A,111.5028,36.0714,临汾市,技工学校,细颗粒物(PM2.5),127,151,102,96,65,93,,152,144,52,50,11,12,1.3,1.1
2024-10-07T2100,1736A,111.5018,36.0855,临汾市,市委,细颗粒物(PM2.5),94,129,103,70,58,96,,163,154,36,33,10,12,1.1,1
2024-10-07T2100,3018A,111.505,36.1014,临汾市,唐尧大酒店,细颗粒物(PM2.5),79,103,100,58,61,90,,151,143,29,36,8,11,1.0,1
2024-10-07T2100,3668A,111.5036,36.0414,临汾市,城南,细颗粒物(PM2.5),158,204,124,120,74,62,,154,132,66,45,10,11,1.3,1.1
2024-10-07T2100,2667A,103.2069,35.5993,临夏回族自治州,环保局,颗粒物(PM10),53,55,50,19,22,87,,66,,26,16,6,9,0.7,0.6
2024-10-07T2100,2668A,103.2417,35.6057,临夏回族自治州,建设大厦,颗粒物(PM10),60,69,50,28,26,45,,101,94,48,24,1,2,0.6,0.6
2024-10-07T2100,1618A,118.3429,35.0532,临沂市,沂河小区,颗粒物(PM10),93,136,61,44,27,8,,89,75,83,24,7,8,0.8,0.5
2024-10-07T2100,1619A,118.295,35.0583,临沂市,鲁南制药厂,颗粒物(PM10),103,156,67,39,28,3,,89,67,86,34,8,7,1.0,0.6
2024-10-07T2100,1620A,118.2794,34.9976,临沂市,新光毛纺厂,颗粒物(PM10),79,107,56,45,33,10,,82,58,76,42,4,6,1.0,0.8
2024-10-07T2100,1621A,118.3956,35.0888,临沂市,河东保险公司,细颗粒物(PM2.5),65,70,49,47,32,40,,95,83,51,32,7,8,1.0,0.8
2024-10-07T2100,3370A,118.3564,35.0215,临沂市,十里堡居委,细颗粒物(PM2.5),94,136,45,70,33,6,,92,77,87,29,5,6,1.1,0.7
2024-10-07T2100,3496A,118.3604,35.1084,临沂市,南坊新区,细颗粒物(PM2.5),77,95,58,56,34,22,,89,74,66,32,7,9,0.9,0.7
2024-10-07T2100,3860A,118.3920,35.0300,临沂市,皇山花园小区,颗粒物(PM10),82,114,47,58,36,19,,92,80,78,28,7,9,1.1,0.8
2024-10-07T2100,1870A,109.4856,24.3895,柳州市,柳东小学,细颗粒物(PM2.5),59,58,53,42,39,124,,145,141,7,7,9,10,0.6,0.7
2024-10-07T2100,1871A,109.4157,24.3277,柳州市,环保监测站,颗粒物(PM10),55,60,63,36,44,120,,147,142,8,11,9,12,0.8,0.8
2024-10-07T2100,1872A,109.389,24.341,柳州市,河西水厂,颗粒物(PM10),63,75,76,42,45,114,,144,140,14,23,12,27,0.9,1.8
2024-10-07T2100,1873A,109.4311,24.2921,柳州市,市四中,细颗粒物(PM2.5),53,52,56,37,38,128,,156,151,8,10,8,10,0.8,0.9
2024-10-07T2100,1874A,109.4006,24.3631,柳州市,市九中,细颗粒物(PM2.5),57,42,66,40,42,116,,147,141,14,13,7,10,1.0,1.1
2024-10-07T2100,1875A,109.4958,24.3134,柳州市,古亭山,细颗粒物(PM2.5),52,48,54,36,40,130,,153,148,9,10,9,10,0.8,0.9
2024-10-07T2100,3402A,109.5422,24.3996,柳州市,市二中,细颗粒物(PM2.5),53,48,53,37,38,124,,151,145,11,12,9,10,0.7,0.7
2024-10-07T2100,2307A,116.5079,31.737,六安市,监测大楼,,24,18,12,9,10,75,,80,80,13,8,4,4,0.3,0.3
2024-10-07T2100,2308A,116.4738,31.7643,六安市,皖西学院,,26,14,12,10,10,82,,84,84,15,9,4,4,0.4,0.4
2024-10-07T2100,2309A,116.4996,31.7905,六安市,朝阳厂,,25,,7,17,10,67,,80,78,20,8,3,3,0.4,0.3
2024-10-07T2100,2310A,116.5567,31.7886,六安市,开发区,,,17,14,9,10,,,82,82,10,8,3,3,0.3,0.4
2024-10-07T2100,2577A,104.83,26.5917,六盘水市,黄土坡,,25,25,15,17,10,65,,63,63,10,9,7,9,0.3,0.4
2024-10-07T2100,2578A,104.89,26.5939,六盘水市,水钢,,33,33,21,10,10,65,,62,62,9,18,6,7,0.2,0.4
2024-10-07T2100,2579A,104.8475,26.5894,六盘水市,民中,,26,26,14,14,7,61,,58,58,11,11,7,8,0.3,0.4
2024-10-07T2100,2580A,104.9544,26.5506,六盘水市,双水,,24,24,19,14,8,65,,64,64,4,9,6,9,0.4,0.4
2024-10-07T2100,2336A,117.0217,25.1033,龙岩市,龙岩市监测站,,16,16,19,8,13,41,,67,55,14,12,6,7,0.6,0.6
2024-10-07T2100,2337A,117.0258,25.0661,龙岩市,闽西职业技术学院,,16,15,27,11,17,48,,68,58,7,11,4,6,0.6,0.6
2024-10-07T2100,2338A,117.0196,25.0306,龙岩市,龙岩学院,,18,18,23,11,17,42,,70,58,9,10,3,4,0.5,0.5
2024-10-07T2100,2885A,104.9339,33.3826,陇南市,滨江中学,,49,49,46,27,25,71,,84,82,9,11,8,10,0.5,0.5
2024-10-07T2100,3247A,104.955,33.371,陇南市,市总工会,,37,37,48,8,19,76,,86,85,7,11,3,5,0.3,0.4
2024-10-07T2100,2487A,111.9589,27.8901,娄底市,电视发射台,,46,33,39,32,34,109,,108,108,6,8,6,6,0.3,0.4
2024-10-07T2100,2488A,111.9975,27.725,娄底市,市监测站,,45,45,45,29,35,108,,110,110,8,8,5,7,0.4,0.4
2024-10-07T2100,2489A,112.0194,27.7314,娄底市,市委党校,细颗粒物(PM2.5),54,53,48,38,35,98,,102,102,10,9,5,5,0.5,0.5
2024-10-07T2100,2490A,111.9561,27.7569,娄底市,涟钢,,45,32,50,31,38,96,,97,97,8,12,6,7,1.0,1.1
2024-10-07T2100,2491A,111.9892,27.7044,娄底市,市政府,,50,44,48,35,36,107,,107,107,9,11,4,6,0.4,0.5
2024-10-07T2100,1893A,105.4324,28.9634,泸州市,九狮山,颗粒物(PM10),52,53,43,34,29,54,,73,71,22,21,4,4,0.5,0.5
2024-10-07T2100,1894A,105.4427,28.9063,泸州市,小市上码头,颗粒物(PM10),55,59,50,37,32,79,,88,88,14,17,3,4,0.7,0.6
2024-10-07T2100,1895A,105.4241,28.8573,泸州市,兰田宪桥,细颗粒物(PM2.5),54,49,41,38,34,75,,91,91,16,13,3,3,0.5,0.5
2024-10-07T2100,1896A,105.4379,28.8833,泸州市,市环监站,细颗粒物(PM2.5),59,56,50,42,39,73,,86,85,13,16,3,3,0.6,0.6
2024-10-07T2100,3490A,105.3617,28.7703,泸州市,纳溪区环保局,细颗粒物(PM2.5),64,60,39,46,30,59,,84,82,21,19,6,6,0.5,0.5
2024-10-07T2100,2183A,111.1406,37.5211,吕梁市,环保局,颗粒物(PM10),68,85,50,21,20,21,,90,74,46,25,3,4,0.5,0.5
2024-10-07T2100,2185A,111.1297,37.5136,吕梁市,自来水公司,颗粒物(PM10),54,57,43,13,16,52,,89,81,22,22,2,5,0.4,0.4
2024-10-07T2100,2867A,111.1283,37.51,吕梁市,马茂庄小学,颗粒物(PM10),67,84,57,20,18,10,,91,73,61,28,2,5,0.4,0.4
2024-10-07T2100,1812A,112.3931,34.6516,洛阳市,市委党校,细颗粒物(PM2.5),93,79,98,69,86,92,,123,122,30,40,7,15,0.8,0.9
2024-10-07T2100,1814A,112.4657,34.6871,洛阳市,豫西宾馆,细颗粒物(PM2.5),102,94,110,76,81,73,,100,100,28,38,9,16,1.0,1
2024-10-07T2100,1815A,112.494,34.6886,洛阳市,河南林校,细颗粒物(PM2.5),119,105,108,90,92,79,,113,112,32,39,3,7,0.7,0.8
2024-10-07T2100,1816A,112.3844,34.623,洛阳市,开发区管委会,细颗粒物(PM2.5),113,100,127,85,97,,,136,136,26,32,2,9,0.6,0.7
2024-10-07T2100,1817A,112.4267,34.6258,洛阳市,市委新办公区,细颗粒物(PM2.5),99,109,125,74,88,89,,122,121,29,29,2,8,0.6,0.6
2024-10-07T2100,3340A,112.6005,34.6326,洛阳市,伊滨,细颗粒物(PM2.5),94,79,108,70,86,70,,123,120,28,34,9,10,0.9,0.8
2024-10-07T2100,3341A,112.4951,34.6332,洛阳市,中移产业园,细颗粒物(PM2.5),100,98,110,75,86,78,,132,127,40,33,2,8,0.8,0.8
2024-10-07T2100,3593A,112.5736,34.8993,洛阳市,吉利监测站,细颗粒物(PM2.5),97,110,104,72,65,69,,112,110,35,52,6,9,0.7,0.7
2024-10-07T2100,3635A,112.3677,34.662,洛阳市,河科大西苑校区,细颗粒物(PM2.5),83,94,118,61,83,94,,129,127,36,44,4,12,0.8,0.9
2024-10-07T2100,3636A,112.4388,34.6781,洛阳市,英才小学,颗粒物(PM10),80,110,131,56,68,89,,123,121,31,42,3,10,0.7,0.8
2024-10-07T2100,2399A,114.051,33.5699,漯河市,三五一五工厂,细颗粒物(PM2.5),159,252,125,121,76,83,,153,146,30,23,8,8,0.9,0.7
2024-10-07T2100,2400A,114.0055,33.5698,漯河市,漯河大学,细颗粒物(PM2.5),178,210,117,134,87,85,,156,149,27,20,8,7,1.0,0.8
2024-10-07T2100,2401A,114.0138,33.5828,漯河市,市水利局,细颗粒物(PM2.5),178,237,126,134,85,74,,150,142,30,19,9,8,1.2,0.9
2024-10-07T2100,2402A,114.0261,33.5698,漯河市,市广电局,细颗粒物(PM2.5),195,230,115,146,87,88,,156,149,26,19,9,9,1.0,0.8
2024-10-07T2100,3478A,113.9749,33.5664,漯河市,市图书馆,细颗粒物(PM2.5),159,215,115,121,80,94,,163,157,23,20,17,14,0.8,0.6
2024-10-07T2100,3479A,114.0967,33.5906,漯河市,召陵区卫健委,细颗粒物(PM2.5),225,256,122,175,92,55,,150,138,47,24,12,9,0.9,0.6
2024-10-07T2100,1798A,118.5092,31.6837,马鞍山市,湖东路四小,,29,22,9,20,8,72,,93,91,23,16,6,6,0.6,0.6
2024-10-07T2100,1799A,118.5024,31.6449,马鞍山市,开发区,,25,17,10,17,6,71,,90,88,26,20,6,6,0.6,0.6
2024-10-07T2100,1800A,118.5228,31.7231,马鞍山市,慈湖,,27,27,13,11,8,51,,88,80,32,18,8,8,0.7,0.6
2024-10-07T2100,1802A,118.6245,31.7241,马鞍山市,濮塘,,28,,11,19,8,64,,91,86,2,2,9,8,0.9,0.9
2024-10-07T2100,3633A,118.4918,31.6809,马鞍山市,雨山,,28,,10,19,7,71,,90,88,24,20,5,6,0.7,0.8
2024-10-07T2100,1686A,111.0286,21.4688,茂名市,电白南海,臭氧1小时,69,51,55,17,28,175,,172,172,16,15,11,16,0.8,0.8
2024-10-07T2100,1687A,110.9294,21.6533,茂名市,茂石化七小,,,73,46,48,28,,,124,124,15,14,22,19,0.8,0.7
2024-10-07T2100,1688A,110.9107,21.6687,茂名市,健康路,细颗粒物(PM2.5),62,70,42,44,27,129,,131,131,15,10,15,21,0.8,0.7
2024-10-07T2100,1689A,110.8592,21.6828,茂名市,高岭,细颗粒物(PM2.5),62,70,54,44,30,136,,133,133,18,14,16,18,0.8,0.8
2024-10-07T2100,3450A,111.01,21.5165,茂名市,电白水东,臭氧1小时,62,44,40,36,27,169,,152,152,8,11,8,12,0.8,0.7
2024-10-07T2100,2539A,104.0308,30.0478,眉山市,黑龙滩水库,,36,32,37,25,28,58,,96,93,5,5,4,4,0.5,0.5
2024-10-07T2100,2540A,103.8416,30.0874,眉山市,气象局,,39,35,31,27,29,45,,79,76,33,20,6,6,0.6,0.5
2024-10-07T2100,3137A,103.8578,30.0744,眉山市,市委党校,,36,36,33,22,23,47,,81,78,40,21,8,8,0.6,0.5
2024-10-07T2100,3148A,103.8291,30.0564,眉山市,区人社局,,35,35,41,22,26,42,,78,74,41,22,6,6,0.7,0.6
2024-10-07T2100,1690A,116.1231,24.3284,梅州市,梅江月梅,,35,35,29,24,22,50,,84,72,19,14,9,8,0.7,0.6
2024-10-07T2100,1691A,116.0797,24.2719,梅州市,梅县新城,,27,27,28,3,22,62,,82,74,15,13,6,5,0.6,0.6
2024-10-07T2100,1692A,116.1248,24.2654,梅州市,环境监控中心,,26,26,32,11,22,57,,85,75,19,18,6,6,0.6,0.6
2024-10-07T2100,3315A,116.1233,24.2991,梅州市,梅龙,,28,24,26,19,21,51,,84,72,18,14,11,10,0.6,0.6
2024-10-07T2100,1878A,104.7778,31.4741,绵阳市,富乐山,,38,30,42,26,40,56,,88,86,23,16,2,2,0.5,0.5
2024-10-07T2100,1879A,104.7563,31.4535,绵阳市,市人大,,49,38,52,34,34,68,,92,89,26,17,11,11,0.5,0.6
2024-10-07T2100,1880A,104.6697,31.4668,绵阳市,高新区自来水公司,颗粒物(PM10),55,59,52,31,28,44,,92,86,39,19,3,3,0.6,0.5
2024-10-07T2100,1881A,104.7287,31.5075,绵阳市,三水厂,,,,46,,45,7,,79,67,61,25,7,6,0.8,0.5
2024-10-07T2100,3491A,104.69,31.5322,绵阳市,西科大附属小学,,50,48,43,35,32,38,,88,82,51,25,6,4,0.6,0.5
2024-10-07T2100,3492A,104.5648,31.5343,绵阳市,安州区旅游局,,,90,49,58,48,,,95,,31,18,13,8,0.7,0.6
2024-10-07T2100,1784A,129.61,44.561,牡丹江市,环保大楼,,44,44,25,22,15,32,,69,62,25,12,7,6,0.5,0.3
2024-10-07T2100,1785A,129.6115,44.5782,牡丹江市,文化广场,,45,38,28,31,19,34,,65,61,28,15,8,8,0.5,0.4
2024-10-07T2100,1786A,129.5904,44.5963,牡丹江市,第一医院,,40,37,26,28,26,43,,71,68,24,11,7,7,0.5,0.3
2024-10-07T2100,1787A,129.6364,44.6075,牡丹江市,机车工厂,细颗粒物(PM2.5),54,,26,38,21,19,,70,64,35,11,6,9,0.4,0.3
2024-10-07T2100,1788A,129.6386,44.5462,牡丹江市,第一中学,,48,44,27,33,18,38,,73,63,11,12,5,6,0.3,0.3
2024-10-07T2100,2531A,105.0703,29.61,内江市,市监测站,细颗粒物(PM2.5),59,46,36,42,28,43,,76,68,34,20,7,6,0.2,0.3
2024-10-07T2100,2532A,105.0717,29.5947,内江市,东兴区政府,颗粒物(PM10),61,71,35,40,26,46,,80,71,36,24,4,4,0.6,0.5
2024-10-07T2100,2533A,105.0653,29.5817,内江市,内江二中,,,56,38,41,32,,,80,77,39,20,4,5,0.6,0.5
2024-10-07T2100,2534A,105.0406,29.5822,内江市,内江日报社,细颗粒物(PM2.5),60,,42,43,32,38,,78,72,31,25,4,5,0.6,0.5
2024-10-07T2100,2628A,92.0657,31.4846,那曲市,那曲监测站,,34,34,25,11,9,77,,108,104,8,6,6,6,0.4,0.4
2024-10-07T2100,3128A,92.0506,31.4797,那曲市,那曲会议中心,,28,15,43,7,13,87,,110,108,6,11,3,3,0.4,0.5
2024-10-07T2100,1290A,115.8931,28.6843,南昌市,省外办,,28,28,29,9,17,88,,102,91,12,16,10,10,0.6,0.7
2024-10-07T2100,1291A,115.8886,28.7003,南昌市,省林业公司,,29,29,27,12,14,86,,101,89,9,12,6,6,0.3,0.3
2024-10-07T2100,1292A,115.8126,28.7442,南昌市,林科所,,23,14,18,14,11,72,,104,87,19,15,7,7,0.6,0.6
2024-10-07T2100,1294A,115.8518,28.687,南昌市,建工学校,,44,44,29,21,15,74,,100,86,13,14,7,8,0.5,0.5
2024-10-07T2100,1295A,115.8921,28.6424,南昌市,象湖,,33,33,24,11,14,92,,110,98,14,16,7,8,0.6,0.6
2024-10-07T2100,1296A,115.7423,28.7996,南昌市,武术学校,,35,,15,24,18,61,,89,67,15,8,2,2,0.4,0.5
2024-10-07T2100,1298A,115.9314,28.6842,南昌市,省站,,29,29,35,12,16,77,,94,82,16,16,9,10,0.6,0.6
2024-10-07T2100,3046A,115.9084,28.6062,南昌市,机电学校,,29,29,37,14,15,82,,103,91,15,15,7,8,0.6,0.6
2024-10-07T2100,3690A,115.9721,28.7031,南昌市,外国语学校,,28,28,32,11,14,73,,94,84,14,13,6,6,0.6,1
2024-10-07T2100,1905A,106.056,30.8064,南充市,西山风景区,,39,27,27,27,26,64,,76,75,10,8,2,1,0.9,0.9
2024-10-07T2100,1906A,106.0789,30.8023,南充市,南充市委,,39,34,34,27,29,63,,83,81,21,15,3,2,0.5,0.4
2024-10-07T2100,1907A,106.1031,30.8217,南充市,南充炼油厂,,40,39,39,28,29,63,,86,84,23,14,3,2,0.5,0.4
2024-10-07T2100,1908A,106.1064,30.7856,南充市,高坪区监测站,,40,40,35,28,29,58,,79,77,25,18,6,5,0.5,0.5
2024-10-07T2100,1909A,106.0642,30.7636,南充市,嘉陵区环保局,细颗粒物(PM2.5),55,53,37,39,26,58,,77,75,22,20,3,2,0.5,0.4
2024-10-07T2100,1910A,106.1087,30.8388,南充市,市环境监测站,,46,42,38,32,32,54,,77,75,32,19,3,3,0.5,0.3
2024-10-07T2100,1151A,118.8086,32.1065,南京市,迈皋桥,,17,15,4,3,3,53,,89,74,19,12,3,4,0.5,0.3
2024-10-07T2100,1152A,118.7538,32.0551,南京市,草场门,,19,14,4,7,5,60,,87,76,28,19,4,4,0.2,0.2
2024-10-07T2100,1153A,118.7794,32.0745,南京市,山西路,,25,22,8,17,7,56,,88,78,24,12,5,4,0.4,0.4
2024-10-07T2100,1154A,118.7752,32.0023,南京市,中华门,,25,19,6,17,5,60,,89,76,20,12,4,4,0.6,0.4
2024-10-07T2100,1155A,118.8109,32.0309,南京市,瑞金路,,25,19,10,17,7,55,,84,73,21,13,4,3,0.6,0.5
2024-10-07T2100,1156A,118.7997,32.0754,南京市,玄武湖,,22,22,11,14,4,48,,81,64,33,22,4,4,0.5,0.4
2024-10-07T2100,1157A,118.6414,32.0931,南京市,浦口,,23,12,9,7,7,71,,82,74,10,10,5,5,0.4,0.5
2024-10-07T2100,1158A,118.7356,31.9996,南京市,奥体中心,,22,18,7,12,9,70,,96,86,19,11,5,5,0.3,0.3
2024-10-07T2100,1159A,118.9125,32.1028,南京市,仙林大学城,,25,24,10,17,6,49,,94,78,32,15,6,4,0.5,0.4
2024-10-07T2100,3422A,118.8436,31.9198,南京市,江宁彩虹桥,,25,13,9,12,5,78,,88,81,18,9,4,4,0.5,0.4
2024-10-07T2100,3423A,119.0138,31.6494,南京市,溧水永阳,,23,,8,11,7,72,,92,86,12,10,4,4,0.5,0.5
2024-10-07T2100,3424A,118.879,31.3302,南京市,高淳老职中,,29,9,12,8,7,91,,98,98,12,10,2,3,0.5,0.5
2024-10-07T2100,3427A,118.8554,32.3578,南京市,六合雄州,,20,15,8,3,4,61,,92,76,15,11,7,6,0.3,0.3
2024-10-07T2100,1401A,108.3103,22.7881,南宁市,二十一中,细颗粒物(PM2.5),62,50,72,44,48,126,,172,160,21,37,8,12,1.0,1
2024-10-07T2100,1402A,108.3141,22.8528,南宁市,北湖,细颗粒物(PM2.5),69,68,65,50,45,92,,162,148,40,36,16,19,1.1,1.1
2024-10-07T2100,1403A,108.3206,22.8225,南宁市,市监测站,,,67,64,40,41,,,160,149,32,34,9,18,0.9,0.9
2024-10-07T2100,1404A,108.3829,22.8037,南宁市,大自然花园,细颗粒物(PM2.5),65,71,54,47,40,132,,159,151,17,21,18,13,0.5,0.5
2024-10-07T2100,1405A,108.4394,22.7904,南宁市,仙葫,细颗粒物(PM2.5),89,66,64,66,51,113,,142,133,22,33,7,12,0.9,1
2024-10-07T2100,1406A,108.2397,22.8467,南宁市,区农职院,细颗粒物(PM2.5),67,74,62,48,38,70,,160,140,35,19,12,10,0.8,0.8
2024-10-07T2100,1407A,108.3275,22.735,南宁市,英华嘉园,细颗粒物(PM2.5),62,57,66,44,43,118,,164,152,24,40,8,10,0.8,0.8
2024-10-07T2100,1408A,108.2257,22.7757,南宁市,沙井镇街道办,细颗粒物(PM2.5),72,78,79,52,43,39,,157,131,74,38,5,9,0.9,0.8
2024-10-07T2100,3401A,108.4834,22.7618,南宁市,红星社区,细颗粒物(PM2.5),65,55,58,47,41,96,,159,144,38,26,5,9,0.7,0.7
2024-10-07T2100,2332A,118.1681,26.6369,南平市,南平市监测站,,18,7,21,7,15,56,,55,55,7,9,4,4,0.4,0.3
2024-10-07T2100,2333A,118.1825,26.6489,南平市,南平铝业有限公司,,17,10,18,6,15,54,,52,52,7,10,4,4,0.5,0.5
2024-10-07T2100,2334A,118.1756,26.6272,南平市,南平七中,,16,15,19,11,12,42,,52,51,5,6,2,3,0.5,0.6
2024-10-07T2100,1168A,120.9098,31.9663,南通市,狼山街道,,25,,3,17,2,70,,102,90,12,6,6,5,0.5,0.4
2024-10-07T2100,1169A,120.86,32.0005,南通市,虹桥,,26,24,8,18,3,69,,101,89,15,8,6,6,0.5,0.4
2024-10-07T2100,1170A,120.87,32.02,南通市,城中,,24,24,6,14,3,72,,102,91,17,10,6,5,0.5,0.4
2024-10-07T2100,1171A,120.94,31.93,南通市,星湖花园,,,,1,,2,75,,99,92,,10,5,5,0.6,0.5
2024-10-07T2100,1172A,120.81,32.0417,南通市,紫琅学院,,28,,3,19,3,70,,96,83,11,7,7,7,0.4,0.3
2024-10-07T2100,3291A,121.067,32.062,南通市,通州监测站,,24,24,6,14,2,70,,106,92,11,6,2,2,0.6,0.5
2024-10-07T2100,3432A,120.9348,31.9883,南通市,环境教育馆,,25,24,6,12,1,78,,105,95,12,6,3,2,0.6,0.4
2024-10-07T2100,2404A,112.5224,33.0122,南阳市,瓦房庄,细颗粒物(PM2.5),97,97,64,72,53,106,,150,146,30,24,5,4,0.8,0.7
2024-10-07T2100,2405A,112.5003,32.9735,南阳市,汉画馆,细颗粒物(PM2.5),92,83,58,68,53,88,,137,132,30,27,6,7,0.7,0.6
2024-10-07T2100,2406A,112.5573,33.027,南阳市,气象站,细颗粒物(PM2.5),110,99,63,83,47,110,,154,152,31,24,8,8,0.7,0.6
2024-10-07T2100,2407A,112.5481,32.9689,南阳市,理工学院,细颗粒物(PM2.5),97,105,60,72,44,86,,144,140,48,27,7,7,0.7,0.6
2024-10-07T2100,4008A,112.5234,32.9922,南阳市,卧龙区政府,细颗粒物(PM2.5),90,102,68,67,49,78,,149,142,60,29,5,5,0.9,0.7
2024-10-07T2100,1234A,121.8358,29.911,宁波市,区环保大楼,,22,12,7,8,5,69,,90,88,40,17,6,7,0.7,0.6
2024-10-07T2100,1235A,121.56,29.82,宁波市,万里学院,,32,8,8,7,6,100,,91,91,12,15,6,6,0.5,0.6
2024-10-07T2100,1236A,121.713,29.9572,宁波市,龙赛医院,,,8,7,3,4,118,,108,108,8,14,9,8,,0.7
2024-10-07T2100,1239A,121.633,29.7733,宁波市,钱湖水厂,,30,11,9,3,5,96,,94,94,13,15,8,8,0.6,0.6
2024-10-07T2100,1240A,121.5856,29.8635,宁波市,太古小学,,30,11,10,3,4,96,,81,81,17,18,7,7,0.7,0.8
2024-10-07T2100,1241A,121.524,29.8674,宁波市,市环境监测中心,,30,11,8,3,3,93,,88,88,15,16,5,6,0.5,0.6
2024-10-07T2100,2871A,121.6147,29.9017,宁波市,万里国际学校,,28,8,9,3,6,88,,93,93,31,30,8,7,0.6,0.6
2024-10-07T2100,3710A,121.5594,29.8975,宁波市,白沙活动中心,,,8,8,3,3,102,,95,95,12,16,,8,0.4,0.4
2024-10-07T2100,2341A,119.5388,26.6612,宁德市,宁德市监测站,,18,,15,6,10,55,,69,67,12,14,6,6,0.5,0.5
2024-10-07T2100,3209A,119.5231,26.6562,宁德市,宁德一中,,19,8,16,3,9,59,,74,73,7,7,6,6,0.4,0.3
2024-10-07T2100,2618A,98.8601,25.8567,怒江傈僳族自治州,州监测站,,34,34,23,18,12,23,,44,39,10,9,6,6,0.3,0.3
2024-10-07T2100,2619A,98.8546,25.8417,怒江傈僳族自治州,泸水一中,,26,26,19,11,10,14,,36,31,16,11,6,6,0.5,0.3
2024-10-07T2100,1888A,101.6891,26.571,攀枝花市,弄弄坪,,32,32,21,8,5,42,,50,50,14,13,10,11,0.5,0.6
2024-10-07T2100,1889A,101.5769,26.5928,攀枝花市,河门口,,28,28,25,14,12,32,,46,44,28,21,27,20,1.8,1.4
2024-10-07T2100,1890A,101.7169,26.585,攀枝花市,炳草岗,,19,19,21,13,10,39,,46,46,19,15,9,10,0.6,0.6
2024-10-07T2100,1891A,101.7369,26.5008,攀枝花市,仁和,,34,34,34,16,19,26,,56,52,32,22,12,21,0.8,0.7
2024-10-07T2100,2835A,101.7227,26.567,攀枝花市,四十中小,,15,15,17,6,7,47,,54,53,10,8,8,7,0.9,0.8
2024-10-07T2100,1604A,122.0303,41.1489,盘锦市,开发区,细颗粒物(PM2.5),100,100,34,75,28,36,,87,68,40,15,4,3,0.7,0.4
2024-10-07T2100,1605A,122.0485,41.0883,盘锦市,兴隆台,细颗粒物(PM2.5),148,136,34,113,28,9,,84,59,78,23,7,6,1.5,0.4
2024-10-07T2100,1606A,121.8297,41.1028,盘锦市,新生街道,细颗粒物(PM2.5),87,64,27,64,24,68,,84,79,19,17,10,9,0.6,0.4
2024-10-07T2100,1832A,113.3257,33.742,平顶山市,新华旅馆,细颗粒物(PM2.5),133,156,111,101,79,96,,156,146,41,28,9,8,0.8,0.7
2024-10-07T2100,1833A,113.2919,33.737,平顶山市,规划设计院,细颗粒物(PM2.5),134,163,119,102,76,104,,161,154,30,27,10,9,1.0,0.8
2024-10-07T2100,1834A,113.182,33.774,平顶山市,平顶山工学院,细颗粒物(PM2.5),128,157,108,97,77,103,,158,153,32,25,8,9,0.9,0.7
2024-10-07T2100,3204A,113.3025,33.73,平顶山市,规划局,细颗粒物(PM2.5),142,158,115,108,79,104,,160,154,30,27,8,7,0.9,0.7
2024-10-07T2100,3594A,112.8867,33.9116,平顶山市,石龙区,细颗粒物(PM2.5),137,148,111,104,57,110,,155,144,22,43,13,12,1.0,0.8
2024-10-07T2100,2656A,106.6692,35.5461,平凉市,聚贤嘉苑,,40,40,40,27,20,74,,106,102,28,23,8,8,0.4,0.3
2024-10-07T2100,2657A,106.7021,35.5307,平凉市,博物馆,颗粒物(PM10),60,69,47,31,19,56,,107,95,46,30,11,12,1.0,0.3
2024-10-07T2100,2347A,114.0997,27.5002,萍乡市,武功山,颗粒物(PM10),52,54,60,33,43,90,,114,111,10,9,4,6,0.4,0.5
2024-10-07T2100,2348A,113.8385,27.6434,萍乡市,中医院,颗粒物(PM10),52,53,80,35,57,73,,104,96,15,16,10,11,1.0,0.8
2024-10-07T2100,2349A,113.8493,27.6253,萍乡市,市政府车库,细颗粒物(PM2.5),63,60,81,45,61,66,,100,92,20,16,14,11,0.7,0.7
2024-10-07T2100,2350A,113.8676,27.6435,萍乡市,市环保局,细颗粒物(PM2.5),59,55,73,42,57,68,,99,92,14,12,10,9,0.7,0.7
2024-10-07T2100,2351A,113.866,27.6198,萍乡市,安源区政府,细颗粒物(PM2.5),57,62,79,40,53,73,,105,98,21,17,12,8,0.4,0.5
2024-10-07T2100,2319A,119.0141,25.4325,莆田市,荔城区仓后路,,21,15,15,3,5,66,,68,68,11,11,7,8,0.6,0.5
2024-10-07T2100,2320A,119.0015,25.4553,莆田市,莆田市监测站,,21,6,13,3,3,65,,70,70,6,8,7,7,0.4,0.4
2024-10-07T2100,2321A,119.1119,25.4561,莆田市,涵江区六中,,30,11,13,3,5,96,,87,87,1,2,1,1,0.4,0.3
2024-10-07T2100,2322A,119.1013,25.3215,莆田市,秀屿区政府,,32,15,17,3,4,102,,93,93,5,6,7,6,0.6,0.6
2024-10-07T2100,2392A,115.0312,35.7636,濮阳市,环保局,细颗粒物(PM2.5),74,63,94,54,88,45,,85,84,31,24,1,4,0.9,0.8
2024-10-07T2100,2394A,115.0574,35.7609,濮阳市,油田运输公司,细颗粒物(PM2.5),75,83,125,55,88,46,,88,87,36,26,2,5,0.8,0.8
2024-10-07T2100,2395A,115.0866,35.7754,濮阳市,油田物探公司,细颗粒物(PM2.5),87,97,139,64,100,36,,81,78,44,29,1,3,0.9,0.8
2024-10-07T2100,3021A,115,35.7668,濮阳市,濮水河管理处,细颗粒物(PM2.5),80,,75,59,98,21,,72,68,26,20,3,2,0.6,0.6
2024-10-07T2100,2601A,100.98,22.7633,普洱市,市环保局,,43,38,31,30,16,42,,72,66,10,6,4,4,0.6,0.5
2024-10-07T2100,2602A,100.9817,22.8322,普洱市,普洱第二中学,,38,38,35,21,14,36,,75,67,15,9,4,4,0.7,0.6
2024-10-07T2100,2262A,131.0518,45.8751,七台河市,新一中,,50,50,26,30,10,63,,81,78,12,8,9,9,1.3,1.2
2024-10-07T2100,3345A,131.0577,45.7879,七台河市,中波台,颗粒物(PM10),53,56,35,34,14,53,,60,52,23,25,6,7,0.8,0.6
2024-10-07T2100,3637A,131.0176,45.7761,七台河市,人民广场,细颗粒物(PM2.5),62,65,40,44,21,43,,58,50,30,23,7,8,0.6,0.4
2024-10-07T2100,3684A,130.8781,45.8222,七台河市,新建矿广场,颗粒物(PM10),113,175,64,46,21,18,,57,48,44,25,9,8,0.8,0.5
2024-10-07T2100,1779A,123.9305,47.3636,齐齐哈尔市,安居小区,,42,42,62,14,44,47,,60,54,22,21,10,9,0.4,0.6
2024-10-07T2100,1780A,123.9488,47.3386,齐齐哈尔市,中心广场,细颗粒物(PM2.5),63,,65,45,17,47,,58,50,21,19,4,3,0.3,0.4
2024-10-07T2100,1781A,123.9483,47.3227,齐齐哈尔市,农牧车辆厂,,36,34,74,25,45,51,,57,47,15,22,9,10,0.3,0.6
2024-10-07T2100,1783A,123.945,47.2988,齐齐哈尔市,市环境监测站,,37,37,66,15,44,52,,65,63,15,17,9,12,0.3,0.5
2024-10-07T2100,3662A,123.6333,47.2075,齐齐哈尔市,富区青少年活动中心,颗粒物(PM10),54,57,78,8,41,40,,62,58,23,19,8,13,0.6,1.1
2024-10-07T2100,2591A,107.9783,26.5747,黔东南苗族侗族自治州,市环境监测站,,46,42,46,32,34,55,,67,63,16,14,4,4,0.5,0.5
2024-10-07T2100,2881A,107.8908,26.5311,黔东南苗族侗族自治州,凯里学院,,39,29,39,27,31,54,,68,65,12,11,3,3,0.6,0.6
2024-10-07T2100,2593A,107.5228,26.2403,黔南布依族苗族自治州,小围寨,,,36,34,29,29,,,89,86,14,7,6,7,0.5,0.5
2024-10-07T2100,3538A,107.5175,26.2978,黔南布依族苗族自治州,沙坝,细颗粒物(PM2.5),52,45,42,36,31,67,,84,81,11,9,4,6,0.6,0.6
2024-10-07T2100,2589A,104.9022,25.0925,黔西南布依族苗族自治州,场坝街,颗粒物(PM10),51,51,48,34,34,45,,59,57,20,12,18,7,0.4,0.4
2024-10-07T2100,2590A,104.8811,25.0992,黔西南布依族苗族自治州,坪东大道,,50,48,46,35,40,43,,59,57,12,8,9,8,0.4,0.4
2024-10-07T2100,2502A,108.6236,21.9667,钦州市,市环保站,颗粒物(PM10),65,80,85,39,39,133,,146,143,20,24,10,13,0.7,1.3
2024-10-07T2100,2503A,108.6549,21.9481,钦州市,沙埠小学,颗粒物(PM10),75,99,84,50,45,132,,154,150,24,23,8,10,0.8,1
2024-10-07T2100,2504A,108.5989,21.7431,钦州市,港区一小,颗粒物(PM10),70,89,85,44,43,142,,153,150,20,22,8,10,0.8,0.9
2024-10-07T2100,3404A,108.5959,21.9633,钦州市,北职校,细颗粒物(PM2.5),69,83,68,50,47,126,,155,149,22,16,9,11,0.9,1.1
2024-10-07T2100,1042A,119.5134,39.8207,秦皇岛市,北戴河环保局,,41,41,22,22,11,50,,81,78,30,18,1,2,0.5,0.4
2024-10-07T2100,1043A,119.7493,40.0116,秦皇岛市,第一关,细颗粒物(PM2.5),62,57,28,44,26,25,,85,74,71,28,3,2,0.5,0.4
2024-10-07T2100,1044A,119.5897,39.9499,秦皇岛市,监测站,颗粒物(PM10),62,73,29,43,25,1,,83,67,84,20,3,2,0.8,0.4
2024-10-07T2100,1046A,119.5251,39.9041,秦皇岛市,建设大厦,颗粒物(PM10),69,88,34,39,17,10,,79,61,66,27,3,2,0.6,0.3
2024-10-07T2100,3132A,119.610547,39.943889,秦皇岛市,文明里,颗粒物(PM10),74,97,32,32,17,4,,81,69,84,20,2,2,1.0,0.5
2024-10-07T2100,1307A,120.6659,36.2403,青岛市,仰口,,26,18,41,18,23,78,,86,74,6,8,6,6,0.5,0.9
2024-10-07T2100,1310A,120.4134,36.0658,青岛市,市南区东部子站,,29,29,51,12,22,78,,84,82,13,27,6,6,0.4,0.5
2024-10-07T2100,1311A,120.3664,36.1032,青岛市,四方区子站,,27,27,50,14,24,81,,91,87,19,36,8,9,0.3,0.4
2024-10-07T2100,1312A,120.2994,36.054,青岛市,市南区西部子站,,31,31,50,7,17,88,,88,85,9,23,8,9,0.4,0.6
2024-10-07T2100,1313A,120.4581,36.0858,青岛市,崂山区子站,,26,22,39,9,17,81,,88,86,16,28,8,8,0.5,0.6
2024-10-07T2100,1314A,120.1983,35.9608,青岛市,黄岛区子站,,29,29,47,17,22,63,,86,80,28,29,9,9,0.4,0.5
2024-10-07T2100,1315A,120.3999,36.3083,青岛市,城阳区子站,,27,27,39,12,19,79,,88,84,17,26,9,8,0.5,0.6
2024-10-07T2100,1966A,120.0405,35.8735,青岛市,黄岛区4号,,24,24,49,9,21,74,,90,86,18,30,5,7,0.4,0.5
2024-10-07T2100,3362A,120.5014,36.4034,青岛市,即墨2号,,31,31,48,18,22,66,,78,76,17,24,6,7,0.4,0.5
2024-10-07T2100,3642A,120.3503,36.0736,青岛市,市北区南部,,32,32,49,14,21,78,,84,81,21,33,8,8,0.5,0.6
2024-10-07T2100,3643A,120.3948,36.1805,青岛市,李沧区北部,,27,27,46,17,24,80,,88,84,19,26,9,9,0.6,0.7
2024-10-07T2100,1702A,113.0426,23.691,清远市,环保大楼,细颗粒物(PM2.5),85,89,56,63,40,131,,143,140,12,12,8,11,0.9,0.8
2024-10-07T2100,1703A,113.0208,23.7106,清远市,凤城街办,细颗粒物(PM2.5),60,62,48,43,34,128,,140,138,9,8,8,11,0.9,0.8
2024-10-07T2100,3025A,113.0477,23.6344,清远市,技师学院,,,71,52,47,32,134,,152,147,7,10,,11,0.8,0.8
2024-10-07T2100,3318A,112.9903,23.7403,清远市,清新太和,细颗粒物(PM2.5),68,72,49,49,33,134,,141,140,8,7,7,8,0.7,0.7
2024-10-07T2100,3455A,113.076,23.7198,清远市,清城东城,细颗粒物(PM2.5),62,55,52,44,35,136,,148,146,4,5,5,8,0.6,0.6
2024-10-07T2100,2661A,107.6325,35.7357,庆阳市,庆阳五中,颗粒物(PM10),52,54,39,26,16,100,,113,112,24,10,7,7,0.5,0.4
2024-10-07T2100,2662A,107.6364,35.7067,庆阳市,市环保局,颗粒物(PM10),51,51,37,31,14,102,,113,112,23,12,6,6,0.5,0.4
2024-10-07T2100,1916A,103.7897,25.5035,曲靖市,环境监测站,,26,26,18,3,8,26,,39,35,22,16,3,4,0.8,0.7
2024-10-07T2100,1917A,103.8,25.5364,曲靖市,烟厂办公区,,29,29,18,18,10,29,,45,40,22,15,3,4,0.8,0.8
2024-10-07T2100,3376A,103.7947,25.462,曲靖市,南苑二区,,23,23,16,10,10,38,,43,42,18,15,9,10,1.0,1
2024-10-07T2100,3377A,103.7444,25.5261,曲靖市,曲靖师范学院,,23,23,11,15,7,41,,55,49,18,14,8,7,0.7,0.7
2024-10-07T2100,1264A,118.8692,28.9398,衢州市,环保大楼,,18,14,18,9,11,57,,67,63,18,16,5,6,0.5,0.5
2024-10-07T2100,1265A,118.8709,28.9666,衢州市,实验学校,,19,11,16,8,14,58,,72,67,14,13,2,4,0.4,0.4
2024-10-07T2100,1266A,118.8621,28.9808,衢州市,衢州学院,,16,11,21,7,13,51,,72,66,23,17,7,7,0.4,0.5
2024-10-07T2100,1611A,118.5819,24.9117,泉州市,涂山街,,26,18,22,7,12,83,,84,84,11,12,3,2,0.4,0.4
2024-10-07T2100,1612A,118.5972,24.8978,泉州市,津头埔,,24,22,24,7,11,76,,82,81,11,10,4,4,0.4,0.4
2024-10-07T2100,1613A,118.6663,24.9424,泉州市,万安,,25,18,20,6,10,77,,84,84,8,10,3,2,0.4,0.3
2024-10-07T2100,3529A,118.6333,24.9264,泉州市,城华南路,,25,17,18,3,8,79,,83,82,8,9,4,4,0.3,0.3
2024-10-07T2100,2626A,88.8876,29.2718,日喀则市,日喀则监测站,,44,44,15,15,6,57,,127,119,45,11,5,5,0.7,0.3
2024-10-07T2100,3726A,88.8781,29.2426,日喀则市,林业技术推广中心,,31,18,12,3,2,98,,124,121,12,7,6,6,0.4,0.4
2024-10-07T2100,1659A,119.471,35.4209,日照市,监测站,,36,36,39,15,24,65,,98,89,23,29,11,10,0.6,0.6
2024-10-07T2100,1660A,119.523,35.4216,日照市,市政府广场,,29,29,39,11,22,82,,104,97,12,24,6,6,0.4,0.5
2024-10-07T2100,1661A,119.5587,35.4044,日照市,港务局,,31,31,39,18,30,80,,104,98,13,21,9,9,0.5,0.6
2024-10-07T2100,3507A,119.5328,35.4625,日照市,职业技术学院,,25,24,39,17,22,80,,98,91,13,28,8,9,0.5,0.6
2024-10-07T2100,3604A,119.3266,35.1044,日照市,岚山环保分局,,44,44,64,21,39,65,,101,93,29,37,29,19,2.4,1.3
2024-10-07T2100,1835A,111.1922,34.7752,三门峡市,市政府,细颗粒物(PM2.5),100,97,88,75,63,90,,137,133,45,35,17,15,1.0,0.8
2024-10-07T2100,1836A,111.1587,34.7942,三门峡市,开发区,细颗粒物(PM2.5),107,129,113,80,74,125,,139,139,24,27,13,14,0.8,0.8
2024-10-07T2100,1838A,111.143,34.7955,三门峡市,风景区,颗粒物(PM10),76,101,104,55,62,121,,,,22,23,17,14,1.0,1
2024-10-07T2100,3039A,111.1911,34.7829,三门峡市,三门峡市第一小学,细颗粒物(PM2.5),98,98,92,73,65,118,,131,131,22,25,12,14,0.8,0.8
2024-10-07T2100,3598A,111.1,34.7167,三门峡市,富达温泉假日酒店,细颗粒物(PM2.5),120,123,125,91,93,90,,123,121,24,32,15,15,0.7,0.7
2024-10-07T2100,2324A,117.6211,26.2625,三明市,三钢,,26,26,24,13,21,34,,52,28,8,11,1,3,0.4,0.7
2024-10-07T2100,2325A,117.635,26.2714,三明市,三明二中,,22,16,22,15,17,38,,51,30,11,15,2,3,0.6,0.6
2024-10-07T2100,2326A,117.6028,26.2378,三明市,三元区政府,,33,31,30,23,21,18,,29,22,22,20,2,3,0.7,0.7
2024-10-07T2100,1876A,109.5078,18.2489,三亚市,河东子站,,31,31,14,18,6,81,,60,60,6,3,4,4,0.4,0.3
2024-10-07T2100,1877A,109.4964,18.2681,三亚市,河西子站,,28,25,12,19,7,69,,57,57,9,6,4,4,0.4,0.4
2024-10-07T2100,3540A,109.7348,18.3443,三亚市,君悦子站,,43,43,15,17,6,91,,71,71,7,5,3,2,0.5,0.5
2024-10-07T2100,2624A,91.7608,29.2313,山南市,山南监测站,,24,22,15,15,8,76,,112,108,34,7,9,9,0.4,0.3
2024-10-07T2100,2625A,91.7706,29.2436,山南市,山南人民医院,,30,24,17,11,7,96,,114,114,16,10,8,9,0.3,0.3
2024-10-07T2100,1674A,116.6794,23.3667,汕头市,金平子站,,29,13,26,12,18,90,,122,111,9,14,4,7,0.5,0.6
2024-10-07T2100,1675A,116.7244,23.3633,汕头市,龙湖子站,,27,13,31,3,19,84,,105,99,4,6,7,8,0.7,0.6
2024-10-07T2100,1676A,116.7258,23.2775,汕头市,濠江子站,,25,,19,9,16,78,,95,89,6,9,6,7,0.7,0.8
2024-10-07T2100,1677A,116.7519,23.4714,汕头市,澄海子站,,27,10,25,10,19,86,,110,105,7,10,6,7,0.8,0.9
