timepoint,stationcode,longitude,latitude,area,positionname,primarypollutant,aqi,pm10,pm10_24h,pm2_5,pm2_5_24h,o3,o3_24h,o3_8h,o3_8h_24h,no2,no2_24h,so2,so2_24h,co,co_24h
2024-10-07T2300,2566A,102.1879,31.914,阿坝藏族羌族自治州,州农科所,,19,17,24,13,9,20,,44,29,8,13,7,8,0,0.1
2024-10-07T2300,2568A,102.2502,31.8896,阿坝藏族羌族自治州,马师校,,23,23,15,12,13,7,,41,26,8,7,5,4,0.3,0.3
2024-10-07T2300,3994A,102.2165,31.9024,阿坝藏族羌族自治州,马尔康中学西区,,30,23,17,21,16,9,,38,26,10,7,5,5,0.4,0.4
2024-10-07T2300,2695A,80.292,41.1694,阿克苏地区,电视台,颗粒物(PM10),105,160,114,53,39,63,,93,87,35,32,2,4,0.6,0.6
2024-10-07T2300,2696A,80.2613,41.1551,阿克苏地区,艺术中心,颗粒物(PM10),94,137,110,45,35,61,,93,84,46,33,3,4,0.8,0.7
2024-10-07T2300,2204A,105.6467,38.8363,阿拉善盟,西城区西花园,,42,34,32,29,18,114,,120,115,10,11,9,9,0.8,0.8
2024-10-07T2300,2205A,105.6985,38.8411,阿拉善盟,蒙二幼,,30,30,24,14,9,93,,111,105,16,7,8,7,0.7,0.6
2024-10-07T2300,2206A,105.724,38.8516,阿拉善盟,环保局新楼,,34,29,20,12,7,107,,112,111,9,7,10,8,0.6,0.5
2024-10-07T2300,2708A,88.1264,47.8517,阿勒泰地区,市站,颗粒物(PM10),133,216,41,10,10,60,,89,72,24,18,9,8,0.4,0.3
2024-10-07T2300,2630A,80.1161,32.5,阿里地区,阿里监测站,,32,28,11,13,5,36,,121,108,64,16,9,6,0.8,0.4
2024-10-07T2300,3192A,80.0903,32.5028,阿里地区,阿里藏医院,,31,31,14,8,7,65,,120,112,43,11,8,5,0.7,0.4
2024-10-07T2300,2642A,109.0318,32.6537,安康市,香溪洞,,40,40,30,21,18,81,,110,107,8,6,8,8,0.4,0.4
2024-10-07T2300,2643A,109.0281,32.6939,安康市,安康市监测站,,37,37,39,24,27,48,,100,81,17,13,14,10,0.6,0.6
2024-10-07T2300,2644A,109.0072,32.6975,安康市,汉滨区检察院,,41,41,40,18,25,46,,99,82,17,13,7,9,0.4,0.6
2024-10-07T2300,2291A,117.0809,30.5177,安庆市,环科院,,21,,8,12,7,66,,74,63,14,13,7,7,0.5,0.4
2024-10-07T2300,2292A,117.0331,30.5119,安庆市,马山宾馆,,23,,8,9,6,73,,79,70,15,15,8,8,0.5,0.3
2024-10-07T2300,2294A,116.9896,30.6145,安庆市,安庆大学,,25,10,8,9,5,79,,77,76,8,8,7,7,0.5,0.4
2024-10-07T2300,3173A,117.0598,30.5351,安庆市,市人大,,,,9,8,6,68,,71,64,11,12,7,9,,0.7
2024-10-07T2300,3123A,105.9408,26.2431,安顺市,凤凰山,,33,28,27,23,20,75,,87,81,9,9,8,7,0.4,0.4
2024-10-07T2300,3124A,105.9439,26.2564,安顺市,金钟山,,36,29,27,25,24,75,,87,82,9,8,11,10,0.5,0.5
2024-10-07T2300,3125A,105.8983,26.2481,安顺市,娄家坡,,36,30,28,25,22,73,,84,79,10,9,11,9,0.6,0.6
2024-10-07T2300,1818A,114.4839,36.0621,安阳市,棉研所,细颗粒物(PM2.5),155,127,131,118,108,21,,92,71,66,38,6,7,1.2,1
2024-10-07T2300,1819A,114.3551,36.1017,安阳市,红庙街,细颗粒物(PM2.5),114,94,116,86,95,18,,90,71,47,29,2,4,1.2,1
2024-10-07T2300,1820A,114.361,36.0681,安阳市,银杏小区,细颗粒物(PM2.5),144,,113,110,84,19,,100,84,37,22,2,4,1.4,1
2024-10-07T2300,3141A,114.3922,36.0878,安阳市,信访局,细颗粒物(PM2.5),123,109,124,93,105,18,,89,75,59,31,2,3,1.2,0.8
2024-10-07T2300,3669A,114.4705,36.0637,安阳市,左辅环卫站,细颗粒物(PM2.5),118,153,152,89,100,26,,92,74,46,31,3,5,1.3,1.1
2024-10-07T2300,3703A,114.2917,36.0949,安阳市,安钢职工学校,细颗粒物(PM2.5),140,139,126,107,109,24,,89,66,44,36,1,11,1.3,1.4
2024-10-07T2300,1748A,123.044,41.1196,鞍山市,深沟寺,,37,37,34,22,21,28,,75,56,21,16,4,6,0.6,0.6
2024-10-07T2300,1749A,123.011,41.0931,鞍山市,太阳城,,42,42,31,29,21,48,,77,67,18,15,8,8,0.4,0.4
2024-10-07T2300,1750A,123.0485,41.1442,鞍山市,太平,颗粒物(PM10),52,54,39,28,22,21,,75,48,39,22,9,11,0.9,0.8
2024-10-07T2300,1751A,122.9642,41.0971,鞍山市,铁西三道街,颗粒物(PM10),71,92,49,40,27,6,,71,49,57,30,6,13,1.2,1.3
2024-10-07T2300,1752A,122.9341,41.0833,鞍山市,铁西工业园区,细颗粒物(PM2.5),77,94,46,56,29,7,,76,40,46,28,10,14,1.1,0.6
2024-10-07T2300,1753A,123.022,41.0821,鞍山市,明达新区,,43,43,33,26,23,29,,70,53,23,14,6,6,0.6,0.5
2024-10-07T2300,2195A,107.4212,40.761,巴彦淖尔市,附二中,,45,42,55,31,30,58,,87,72,22,21,7,13,0.4,0.4
2024-10-07T2300,2196A,107.37,40.7372,巴彦淖尔市,市环保大楼,,32,32,39,12,23,67,,83,73,19,17,3,4,0.4,0.4
2024-10-07T2300,1956A,86.1472,41.7538,巴音郭楞蒙古自治州,孔雀公园,颗粒物(PM10),98,145,105,38,28,0,,91,69,90,51,2,3,0.9,0.6
2024-10-07T2300,1957A,86.1972,41.7166,巴音郭楞蒙古自治州,棉纺厂,颗粒物(PM10),119,187,135,43,30,5,,92,68,81,34,6,6,0.7,0.4
2024-10-07T2300,1958A,86.2357,41.7173,巴音郭楞蒙古自治州,经济开发区,颗粒物(PM10),133,216,126,44,30,60,,92,78,26,19,8,7,0.2,0.2
2024-10-07T2300,2914A,106.7677,31.8794,巴中市,苏山坪,,48,42,35,33,26,59,,85,72,18,12,3,2,0.5,0.5
2024-10-07T2300,3182A,106.7656,31.8545,巴中市,丽阳花园,,45,43,35,31,27,13,,83,52,33,16,5,5,0.6,0.6
2024-10-07T2300,3183A,106.7418,31.8654,巴中市,圣泉水务公司,,45,38,32,31,28,5,,86,48,43,17,5,4,0.5,0.5
2024-10-07T2300,3616A,106.7616,31.8344,巴中市,市中心医院,颗粒物(PM10),53,55,37,35,23,14,,82,55,34,13,4,5,0.6,0.5
2024-10-07T2300,2235A,122.7911,45.6077,白城市,洮北区环保局,,39,39,44,17,33,45,,71,56,14,16,5,5,0.4,0.7
2024-10-07T2300,2236A,122.8738,45.5725,白城市,市环保局,,27,27,47,13,30,44,,67,49,15,22,4,5,0.4,0.5
2024-10-07T2300,2231A,126.4219,41.9171,白山市,喜丰,颗粒物(PM10),60,69,33,26,14,9,,81,47,46,16,9,7,0.6,0.5
2024-10-07T2300,2232A,126.4077,41.9419,白山市,环保局,颗粒物(PM10),64,77,36,23,13,14,,72,45,36,14,7,8,0.7,0.7
2024-10-07T2300,2647A,104.1724,36.5446,白银市,第三小学,颗粒物(PM10),102,153,63,47,31,48,,97,86,66,25,60,52,1.3,0.9
2024-10-07T2300,2648A,104.1465,36.5482,白银市,动力公司,颗粒物(PM10),70,89,56,33,27,11,,95,64,57,26,8,18,1.1,1
2024-10-07T2300,2512A,106.6103,23.9011,百色市,市监测站,,40,35,41,28,29,50,,100,86,18,11,6,7,0.8,0.7
2024-10-07T2300,2513A,106.6538,23.8859,百色市,市中心血站,,50,49,53,35,40,46,,101,81,25,21,5,5,0.7,0.7
2024-10-07T2300,3406A,106.6085,23.8798,百色市,祈福高中,,46,35,54,32,31,59,,98,86,14,18,4,4,0.8,0.7
2024-10-07T2300,2270A,117.396,32.939,蚌埠市,工人疗养院,,45,45,17,21,8,25,,94,62,42,14,4,5,0.5,0.3
2024-10-07T2300,2271A,117.3605,32.9427,蚌埠市,百货大楼,,47,47,16,25,8,35,,91,67,39,16,5,4,0.5,0.3
2024-10-07T2300,2273A,117.4185,32.8911,蚌埠市,蚌埠学院,,36,,8,25,11,56,,96,61,21,16,5,6,0.3,0.3
2024-10-07T2300,2274A,117.3533,32.9673,蚌埠市,淮上区政府,,34,34,16,19,10,37,,94,64,41,14,6,5,0.4,0.3
2024-10-07T2300,2275A,117.3145,32.8977,蚌埠市,高新区,,30,24,13,21,11,24,,94,44,49,23,6,8,0.3,0.3
2024-10-07T2300,3715A,117.3092,32.9314,蚌埠市,蚌埠田家炳中学,,40,40,19,19,12,29,,96,47,42,19,8,5,0.3,0.2
2024-10-07T2300,1585A,109.8756,40.6532,包头市,市环境监测站,颗粒物(PM10),60,70,40,15,20,6,,76,43,67,34,7,17,0.9,0.8
2024-10-07T2300,1587A,109.9991,40.5842,包头市,包头八中,颗粒物(PM10),62,73,45,27,24,30,,79,50,56,39,8,9,0.9,0.8
2024-10-07T2300,1588A,109.8538,40.6821,包头市,青山宾馆,,36,31,33,14,23,5,,78,56,72,28,7,18,0.7,0.8
2024-10-07T2300,1589A,109.8642,40.6288,包头市,惠龙物流,细颗粒物(PM2.5),58,62,38,41,23,6,,80,55,76,34,11,18,0.8,0.9
2024-10-07T2300,1590A,110.0377,40.5546,包头市,东河鸿龙湾,颗粒物(PM10),73,95,38,28,17,7,,88,57,73,31,10,11,0.9,0.6
2024-10-07T2300,3283A,109.9154,40.5685,包头市,滨河大厦,颗粒物(PM10),56,62,37,27,23,10,,86,57,74,34,12,17,0.7,0.6
2024-10-07T2300,3419A,109.9447,40.6261,包头市,包头市委党校,,48,48,38,22,23,17,,87,59,64,37,7,13,0.5,0.6
2024-10-07T2300,3683A,109.8331,40.6576,包头市,昆区政府,,27,27,37,13,24,32,,80,63,51,27,7,21,0.4,0.8
2024-10-07T2300,1930A,107.185,34.3063,宝鸡市,庙沟村,,40,37,30,28,17,72,,93,82,18,12,7,7,0.6,0.6
2024-10-07T2300,1931A,107.0708,34.3017,宝鸡市,竹园沟,,38,30,30,26,18,42,,100,71,20,18,7,7,0.4,0.4
2024-10-07T2300,1932A,107.1906,34.3672,宝鸡市,三陆医院,细颗粒物(PM2.5),60,60,49,43,28,18,,85,53,59,39,7,8,0.6,0.5
2024-10-07T2300,1933A,107.1431,34.3547,宝鸡市,监测站,,39,36,42,27,22,30,,91,56,26,23,7,7,0.5,0.5
2024-10-07T2300,1934A,107.1186,34.3739,宝鸡市,技工学校,颗粒物(PM10),54,57,44,35,25,42,,94,70,29,25,7,7,0.6,0.6
2024-10-07T2300,1935A,107.3906,34.3528,宝鸡市,陈仓区环保局家属楼,细颗粒物(PM2.5),84,75,52,62,39,7,,100,77,69,35,8,10,0.7,0.6
2024-10-07T2300,1936A,107.2058,34.3497,宝鸡市,文理学院,,46,46,42,19,23,31,,87,52,34,28,8,9,0.5,0.5
2024-10-07T2300,1937A,107.2386,34.3622,宝鸡市,三迪小学,,48,48,44,22,26,24,,84,60,51,36,8,9,0.6,0.6
2024-10-07T2300,1051A,115.493,38.8632,保定市,游泳馆,细颗粒物(PM2.5),78,77,69,57,50,23,,88,64,60,27,3,2,0.6,0.5
2024-10-07T2300,1052A,115.5213,38.8959,保定市,华电二区,细颗粒物(PM2.5),69,79,69,50,54,8,,82,59,62,28,4,3,0.4,0.3
2024-10-07T2300,1053A,115.4713,38.9108,保定市,接待中心,细颗粒物(PM2.5),99,104,79,74,61,20,,79,56,58,30,3,3,0.6,0.5
2024-10-07T2300,1054A,115.4612,38.8416,保定市,地表水厂,细颗粒物(PM2.5),90,81,70,67,53,16,,77,51,65,27,3,3,0.1,0.1
2024-10-07T2300,3581A,115.31981,38.95208,保定市,满城区生态环境分局,细颗粒物(PM2.5),117,117,83,88,55,28,,86,62,38,30,3,4,0.7,0.7
2024-10-07T2300,3582A,115.47694,38.76408,保定市,清苑区第二中学,细颗粒物(PM2.5),98,102,74,73,55,23,,88,64,74,35,6,4,0.5,0.5
2024-10-07T2300,3583A,115.62909,39.02311,保定市,徐水物探局,细颗粒物(PM2.5),94,95,57,70,45,12,,73,43,58,31,6,4,0.3,0.3
2024-10-07T2300,4004A,115.4202,38.8656,保定市,双鹰农机,细颗粒物(PM2.5),110,101,78,83,52,16,,84,52,70,37,3,3,0.6,0.6
2024-10-07T2300,4034A,115.5150,38.8590,保定市,植保所站,细颗粒物(PM2.5),74,93,68,54,50,1,,84,56,87,35,6,4,0.5,0.4
2024-10-07T2300,2594A,99.1678,25.1081,保山市,市环境监测站,,25,25,24,10,10,18,,46,33,6,7,4,5,0.4,0.4
2024-10-07T2300,2595A,99.1711,25.1328,保山市,市环保局,,21,21,25,10,7,27,,54,45,4,5,4,5,0.3,0.4
2024-10-07T2300,1867A,109.1436,21.4086,北海市,海滩公园,细颗粒物(PM2.5),64,70,57,46,34,155,,167,164,10,12,9,10,0.9,0.8
2024-10-07T2300,1868A,109.0981,21.4661,北海市,新市环保局,细颗粒物(PM2.5),62,64,57,44,39,153,,165,163,10,11,10,10,0.8,0.8
2024-10-07T2300,1869A,109.1778,21.5233,北海市,北海工业园,细颗粒物(PM2.5),74,74,57,54,40,145,,162,162,15,13,9,11,1.0,0.9
2024-10-07T2300,3400A,109.1911,21.4415,北海市,龙潭自来水厂,细颗粒物(PM2.5),67,66,54,48,41,142,,167,159,10,12,10,12,0.7,0.7
2024-10-07T2300,1001A,116.3621,39.8784,北京市,万寿西宫,,33,33,19,22,13,27,,66,59,47,30,1,1,0.4,0.3
2024-10-07T2300,1002A,116.2202,40.2915,北京市,定陵,,6,6,5,3,5,19,,50,29,9,8,3,2,0.2,0.2
2024-10-07T2300,1003A,116.4174,39.9289,北京市,东四,颗粒物(PM10),56,62,22,38,15,37,,75,68,39,17,2,2,0.6,0.5
2024-10-07T2300,1004A,116.4072,39.8863,北京市,天坛,,50,47,18,35,13,26,,69,52,29,17,3,3,0.5,0.3
2024-10-07T2300,1005A,116.462,39.9365,北京市,农展馆,颗粒物(PM10),53,56,19,32,12,43,,69,62,36,21,3,3,0.6,0.3
2024-10-07T2300,1006A,116.3392,39.9295,北京市,官园,,49,49,25,29,16,18,,70,58,45,20,3,3,0.4,0.5
2024-10-07T2300,1007A,116.2878,39.9611,北京市,海淀万柳,颗粒物(PM10),53,55,26,28,17,12,,68,53,56,27,2,3,0.5,0.4
2024-10-07T2300,1008A,116.6636,40.135,北京市,顺义新城,,26,26,12,13,8,2,,60,35,50,19,3,3,0.4,0.3
2024-10-07T2300,1009A,116.6275,40.3275,北京市,怀柔镇,,10,8,15,3,10,30,,64,49,9,8,3,3,0.3,0.3
2024-10-07T2300,1010A,116.2296,40.217,北京市,昌平镇,,13,8,11,3,7,41,,59,48,13,15,3,3,0.2,0.2
2024-10-07T2300,1011A,116.3966,39.9821,北京市,奥体中心,,39,39,22,25,15,29,,67,60,50,28,2,2,0.6,0.5
2024-10-07T2300,1012A,116.184,39.9136,北京市,古城,,17,17,33,7,22,41,,65,45,18,21,3,3,0.5,0.6
2024-10-07T2300,3281A,115.9718,40.4529,北京市,延庆夏都,,20,20,11,11,6,12,,68,46,22,16,1,2,0.4,0.3
2024-10-07T2300,3417A,117.0709,40.1465,北京市,平谷新城,,16,16,17,11,14,13,,64,31,10,11,3,3,0.3,0.3
2024-10-07T2300,3418A,116.8336,40.4095,北京市,密云新城,,11,10,11,3,6,34,,58,37,4,8,3,2,0.2,0.2
2024-10-07T2300,3671A,116.088,39.9726,北京市,门头沟三家店,,16,16,23,6,13,25,,66,48,21,14,2,2,0.2,0.3
2024-10-07T2300,3672A,116.1541,39.8204,北京市,丰台云岗,颗粒物(PM10),54,57,33,27,23,11,,60,37,51,26,3,3,0.4,0.4
2024-10-07T2300,3673A,116.6804,39.9081,北京市,通州东关,,50,50,22,19,12,2,,64,42,51,22,1,2,0.5,0.3
2024-10-07T2300,3674A,115.9577,39.7603,北京市,房山燕山,,22,21,29,15,19,37,,66,57,18,12,3,3,0.3,0.3
2024-10-07T2300,3675A,116.4672,39.7733,北京市,大兴旧宫,,44,44,25,14,12,4,,69,43,46,22,3,3,0.4,0.3
2024-10-07T2300,3694A,115.986,40.4563,北京市,延庆石河营,,17,17,8,10,6,5,,62,40,20,13,3,3,0.3,0.2
2024-10-07T2300,3695A,116.6151,40.3053,北京市,怀柔新城,,12,8,14,6,11,37,,61,52,14,9,3,3,0.2,0.3
2024-10-07T2300,3696A,116.2545,39.8768,北京市,丰台小屯,颗粒物(PM10),51,51,28,27,19,2,,64,44,58,25,1,2,0.6,0.5
2024-10-07T2300,3697A,116.84,40.3844,北京市,密云镇,,18,18,11,8,7,4,,61,29,32,17,3,3,0.4,0.3
2024-10-07T2300,1761A,123.8275,41.3064,本溪市,大峪,,40,40,27,23,18,18,,82,60,36,13,9,9,0.7,0.7
2024-10-07T2300,1762A,123.7567,41.3325,本溪市,溪湖,颗粒物(PM10),57,64,38,22,20,9,,78,44,47,20,9,9,0.6,0.5
2024-10-07T2300,1763A,123.7169,41.3094,本溪市,彩屯,,33,33,35,23,25,25,,70,41,30,28,8,9,0.7,0.8
2024-10-07T2300,1764A,123.7669,41.2864,本溪市,东明,,42,42,34,27,19,11,,79,45,54,24,5,5,0.9,0.8
2024-10-07T2300,1765A,123.7992,41.2664,本溪市,新立屯,,23,23,22,16,16,18,,80,37,44,22,5,6,0.4,0.4
2024-10-07T2300,1766A,123.8142,41.3472,本溪市,威宁,颗粒物(PM10),65,80,38,29,21,7,,82,35,42,21,8,8,0.6,0.5
2024-10-07T2300,2587A,105.2864,27.3125,毕节市,八中,,33,27,24,23,20,45,,74,59,13,9,6,6,0.5,0.4
2024-10-07T2300,2588A,105.31,27.2944,毕节市,师专,,32,27,24,22,20,46,,73,58,12,9,9,8,0.5,0.5
2024-10-07T2300,3537A,105.3631,27.3533,毕节市,长征村,细颗粒物(PM2.5),57,50,36,40,29,50,,80,62,9,7,10,7,0.5,0.5
2024-10-07T2300,1629A,118.0018,37.3617,滨州市,第二水厂,,29,29,31,19,14,38,,88,65,43,17,5,6,0.4,0.3
2024-10-07T2300,1630A,117.9776,37.393,滨州市,北中新校,,44,44,34,22,13,13,,87,56,49,18,7,8,0.5,0.4
2024-10-07T2300,3514A,117.9378,37.3956,滨州市,中海酒店,,36,36,28,14,18,40,,92,73,35,13,5,6,0.7,0.5
2024-10-07T2300,3515A,117.9378,37.3553,滨州市,开发区一中,,36,36,32,12,16,44,,87,72,44,17,7,8,0.2,0.6
2024-10-07T2300,3516A,118.0917,37.694,滨州市,金海六路,,34,34,24,14,10,35,,90,65,35,17,3,4,0.4,0.3
2024-10-07T2300,4028A,117.9956,37.3753,滨州市,滨州市西街道办事处,,42,34,26,29,19,32,,88,65,42,15,7,8,0.6,0.6
2024-10-07T2300,2311A,115.8072,33.8399,亳州市,污水处理厂,,26,26,27,12,21,67,,109,98,29,15,4,5,0.4,0.4
2024-10-07T2300,2312A,115.7789,33.8518,亳州市,三国揽胜宫,,29,29,25,20,25,73,,104,93,16,13,3,4,0.3,0.4
2024-10-07T2300,3332A,115.7633,33.8034,亳州市,亳州学院,,32,32,35,21,23,55,,108,92,32,15,3,3,0.4,0.4
2024-10-07T2300,2693A,82.0485,44.8556,博尔塔拉蒙古自治州,市党校,颗粒物(PM10),55,59,49,10,19,58,,102,87,26,12,5,6,0.3,0.3
2024-10-07T2300,2694A,82.0806,44.8969,博尔塔拉蒙古自治州,市环保局,颗粒物(PM10),74,98,61,23,19,28,,92,71,44,21,8,6,0.7,0.5
2024-10-07T2300,1071A,116.8842,38.2991,沧州市,沧县城建局,颗粒物(PM10),58,65,44,25,26,5,,85,54,81,28,4,4,0.8,0.9
2024-10-07T2300,1072A,116.8584,38.3254,沧州市,电视转播站,,50,50,41,24,23,7,,89,58,58,26,7,8,0.7,0.8
2024-10-07T2300,1073A,116.8709,38.3228,沧州市,市环保局,颗粒物(PM10),55,60,50,33,32,12,,84,54,54,25,2,4,0.5,0.7
2024-10-07T2300,3324A,116.8136,38.3004,沧州市,河北水利电力学院,颗粒物(PM10),59,68,41,38,31,6,,88,58,68,25,5,6,0.7,0.7
2024-10-07T2300,2622A,97.1806,31.1273,昌都市,昌都监测站,,25,7,6,3,4,79,,80,79,3,6,8,8,0.5,0.5
2024-10-07T2300,3719A,97.1714,31.1406,昌都市,昌都会议中心,,28,6,6,3,4,89,,90,90,1,3,8,8,0.3,0.3
2024-10-07T2300,2690A,88.1236,43.8886,昌吉回族自治州,天山天池,,25,24,21,9,6,80,,103,94,4,5,8,8,0.5,0.5
2024-10-07T2300,2692A,87.2717,44.0297,昌吉回族自治州,新区政务中心,颗粒物(PM10),67,84,65,34,27,2,,109,74,102,32,7,7,1.4,0.9
2024-10-07T2300,3613A,87.3095,44.0142,昌吉回族自治州,亚心广场,颗粒物(PM10),87,124,87,27,22,14,,102,73,98,41,6,6,1.0,0.8
2024-10-07T2300,1119A,125.3325,43.9166,长春市,食品厂,细颗粒物(PM2.5),83,86,45,61,25,14,,66,34,60,34,6,7,0.7,0.4
2024-10-07T2300,1120A,125.2863,43.9027,长春市,客车厂,细颗粒物(PM2.5),93,77,40,69,26,16,,67,37,61,33,7,7,0.8,0.5
2024-10-07T2300,1121A,125.2841,43.8463,长春市,邮电学院,细颗粒物(PM2.5),93,83,36,69,23,9,,74,36,54,30,6,7,0.6,0.4
2024-10-07T2300,1122A,125.3716,43.8772,长春市,劳动公园,细颗粒物(PM2.5),79,84,41,58,21,11,,80,44,62,31,7,7,0.6,0.3
2024-10-07T2300,1123A,125.3297,43.8805,长春市,园林处,细颗粒物(PM2.5),83,79,33,61,23,30,,71,48,48,26,7,6,0.6,0.3
2024-10-07T2300,1124A,125.4605,43.79,长春市,净月潭,,44,44,30,27,19,30,,72,46,25,23,5,6,0.3,0.3
2024-10-07T2300,1126A,125.3863,43.8447,长春市,经开区环卫处,颗粒物(PM10),62,73,39,41,22,7,,72,34,60,32,9,8,0.8,0.6
2024-10-07T2300,1127A,125.245,43.7783,长春市,高新区管委会,细颗粒物(PM2.5),59,57,40,42,25,6,,75,31,53,28,6,6,0.4,0.4
2024-10-07T2300,1128A,125.1761,43.8325,长春市,岱山公园,细颗粒物(PM2.5),80,99,39,59,27,4,,71,39,64,27,6,5,0.7,0.4
2024-10-07T2300,1335A,113.0833,28.2325,长沙市,经开区环保局,细颗粒物(PM2.5),58,44,52,41,44,79,,97,91,19,17,4,5,0.4,0.4
2024-10-07T2300,1336A,112.8872,28.2189,长沙市,高开区环保局,细颗粒物(PM2.5),54,,51,38,49,80,,96,92,13,10,4,5,0.3,0.3
2024-10-07T2300,1337A,113.0792,28.2053,长沙市,马坡岭,细颗粒物(PM2.5),54,42,52,38,46,82,,99,93,10,9,4,5,0.5,0.5
2024-10-07T2300,1338A,112.9394,28.19,长沙市,湖南师范大学,细颗粒物(PM2.5),53,46,57,37,42,83,,97,94,13,9,2,3,0.5,0.6
2024-10-07T2300,1339A,113.0178,28.1322,长沙市,雨花区环保局,细颗粒物(PM2.5),55,43,52,39,49,81,,96,90,11,8,6,6,0.5,0.5
2024-10-07T2300,1340A,112.9792,28.2597,长沙市,伍家岭,细颗粒物(PM2.5),64,46,50,46,43,72,,94,86,14,8,5,4,0.7,0.7
2024-10-07T2300,1341A,113.0014,28.1944,长沙市,火车新站,,49,43,53,34,41,75,,90,85,16,11,5,5,0.4,0.4
2024-10-07T2300,1342A,112.9844,28.1178,长沙市,天心区环保局,细颗粒物(PM2.5),67,,64,48,45,73,,87,83,19,13,4,5,0.5,0.7
2024-10-07T2300,1343A,112.8908,28.1308,长沙市,湖南中医药大学,细颗粒物(PM2.5),54,,55,38,48,86,,101,98,11,7,5,6,1.0,1
2024-10-07T2300,1344A,112.9581,28.3611,长沙市,沙坪,,50,50,47,22,29,70,,96,88,9,6,10,8,0.8,0.7
2024-10-07T2300,1727A,113.1147,36.1547,长治市,清华站,细颗粒物(PM2.5),94,74,50,70,43,108,,134,126,14,18,7,9,1.0,1.1
2024-10-07T2300,1728A,113.1031,36.1989,长治市,监测站,细颗粒物(PM2.5),94,,55,70,49,110,,132,125,15,18,9,11,1.0,1.1
2024-10-07T2300,1730A,113.0886,36.2125,长治市,审计局,细颗粒物(PM2.5),100,76,56,75,57,110,,130,124,14,14,6,8,0.6,0.7
2024-10-07T2300,1731A,113.0844,36.1856,长治市,长治八中,细颗粒物(PM2.5),80,97,65,59,35,110,,133,126,15,17,6,9,1.0,1.1
2024-10-07T2300,2845A,113.1569,36.1911,长治市,德盛苑,细颗粒物(PM2.5),92,,61,68,43,110,,132,124,14,14,4,5,1.0,1.1
2024-10-07T2300,3568A,113.06,36.0464,长治市,向阳小学,细颗粒物(PM2.5),113,110,91,85,70,95,,134,124,24,27,5,7,0.9,1
2024-10-07T2300,3569A,112.8792,36.3144,长治市,屯留一中,细颗粒物(PM2.5),140,,77,107,66,113,,139,124,18,23,10,17,1.6,1.8
2024-10-07T2300,3570A,113.235,36.3489,长治市,潞城四中,细颗粒物(PM2.5),115,,58,87,64,29,,131,90,38,17,6,7,1.1,1
2024-10-07T2300,1854A,111.6975,28.9703,常德市,市二中,细颗粒物(PM2.5),89,,35,66,31,30,,110,87,50,15,4,9,0.6,0.6
2024-10-07T2300,3138A,111.7153,29.0289,常德市,武陵区永安,细颗粒物(PM2.5),70,63,38,51,29,86,,109,97,19,14,15,11,0.9,0.8
2024-10-07T2300,3139A,111.6892,28.9881,常德市,鼎城区玉霞,细颗粒物(PM2.5),79,85,41,58,28,31,,116,88,48,15,12,12,0.8,0.7
2024-10-07T2300,3140A,111.6625,29.0531,常德市,武陵区长庚,细颗粒物(PM2.5),74,88,44,54,34,56,,112,93,39,16,13,10,0.5,0.4
2024-10-07T2300,1196A,119.9633,31.762,常州市,市监测站,,41,41,14,27,10,54,,97,77,20,9,7,7,0.5,0.4
2024-10-07T2300,1200A,119.9468,31.7069,常州市,武进监测站,,33,33,14,20,8,53,,98,72,18,10,13,6,0.8,0.6
2024-10-07T2300,1201A,119.9255,31.9087,常州市,安家,颗粒物(PM10),52,53,18,20,8,38,,96,65,29,18,6,6,0.3,0.2
2024-10-07T2300,3002A,119.9805,31.8174,常州市,行政中心,,44,44,16,29,8,46,,92,69,23,14,5,4,0.3,0.2
2024-10-07T2300,3003A,120.0522,31.7748,常州市,经开区,,,47,19,18,6,,,96,,,14,6,6,0.1,0
2024-10-07T2300,3010A,119.9025,31.7964,常州市,钟楼,,46,46,19,21,9,44,,91,66,27,16,9,8,0.7,1.5
2024-10-07T2300,3429A,119.8598,31.7066,常州市,武进经发区,,37,37,16,23,10,58,,88,75,14,15,6,6,0.5,0.4
2024-10-07T2300,3430A,119.5826,31.7245,常州市,金坛城区,,31,31,15,19,12,69,,99,86,8,8,8,7,0.6,0.5
2024-10-07T2300,2220A,120.4318,41.5881,朝阳市,西梁,,44,44,44,29,22,7,,61,26,30,21,6,7,0.8,0.7
2024-10-07T2300,2221A,120.4521,41.5646,朝阳市,河畔小区,,30,30,27,18,15,18,,62,43,24,17,7,8,0.7,0.5
2024-10-07T2300,2222A,120.4176,41.5648,朝阳市,八里堡,,34,34,40,23,17,5,,65,26,39,29,9,9,0.7,0.7
2024-10-07T2300,2223A,120.3806,41.5969,朝阳市,农业园区,,20,20,20,13,15,6,,65,34,32,16,6,6,0.4,0.4
2024-10-07T2300,1705A,116.6367,23.6719,潮州市,西园路,,28,,26,19,22,51,,68,67,11,10,4,4,0.5,0.4
2024-10-07T2300,3026A,116.6183,23.6608,潮州市,市政府,,22,18,30,15,16,60,,77,74,7,8,5,7,0.6,0.6
2024-10-07T2300,4036A,116.6461,23.6761,潮州市,金山,,29,,26,20,22,59,,78,76,8,8,7,7,0.6,0.6
2024-10-07T2300,2472A,113.0073,25.9061,郴州市,马头岭,颗粒物(PM10),55,60,87,33,43,86,,118,106,10,13,8,10,0.3,0.5
2024-10-07T2300,2473A,113.0116,25.8226,郴州市,市职中,细颗粒物(PM2.5),62,52,79,44,70,91,,127,110,13,16,4,7,0.6,0.7
2024-10-07T2300,2474A,113.0161,25.8001,郴州市,兴隆步行街,细颗粒物(PM2.5),63,54,85,45,69,96,,131,119,13,16,4,6,0.4,0.5
2024-10-07T2300,2475A,113.0383,25.8071,郴州市,市审计局,细颗粒物(PM2.5),69,54,82,50,69,89,,125,113,8,7,1,4,0.5,0.6
2024-10-07T2300,2476A,113.0348,25.7759,郴州市,市环保局,细颗粒物(PM2.5),68,64,92,49,69,90,,120,110,11,12,6,8,0.6,0.7
2024-10-07T2300,1431A,103.9728,30.7236,成都市,金泉两河,,31,31,28,3,15,11,,81,62,36,18,3,3,0.7,0.4
2024-10-07T2300,1432A,104.176,30.6872,成都市,十里店,,26,20,29,18,24,51,,81,67,27,20,1,1,0.6,0.6
2024-10-07T2300,1433A,104.079,30.5706,成都市,三瓦窑,,31,31,32,16,26,43,,87,79,36,24,2,3,0.7,0.5
2024-10-07T2300,1434A,104.1114,30.63,成都市,沙河铺,,36,32,38,25,25,25,,81,60,29,18,3,2,0.7,0.6
2024-10-07T2300,1437A,104.0786,30.6531,成都市,君平街,,35,35,31,23,22,26,,84,73,48,22,2,2,0.7,0.6
2024-10-07T2300,2880A,104.0239,30.65639,成都市,大石西路,,37,37,37,17,24,19,,84,66,44,19,2,3,0.5,0.4
2024-10-07T2300,3136A,104.2725,30.5589,成都市,龙泉驿区区政府,,22,22,20,12,16,50,,84,74,16,18,1,1,0.5,0.5
2024-10-07T2300,3357A,104.0106,30.6931,成都市,金博路,,34,34,27,11,20,23,,78,67,40,19,1,2,0.7,0.6
2024-10-07T2300,3359A,104.0578,30.5225,成都市,华阳,,35,34,29,24,26,22,,74,60,40,14,3,3,0.8,0.6
2024-10-07T2300,3487A,104.2394,30.5319,成都市,车城东七路,,29,29,26,20,21,45,,92,79,33,16,2,2,0.6,0.5
2024-10-07T2300,3488A,104.3853,30.7453,成都市,青白江技师分院,,22,22,22,14,17,24,,93,71,38,18,3,2,0.6,0.6
2024-10-07T2300,3489A,104.0789,30.4072,成都市,科学城,,22,18,27,15,24,27,,85,72,25,14,4,4,0.6,0.5
2024-10-07T2300,4011A,103.8506,30.6947,成都市,光华大道三段,,29,27,38,20,24,52,,83,79,20,11,2,3,0.6,0.6
2024-10-07T2300,1062A,117.9531,40.9081,承德市,铁路,,20,20,19,14,8,19,,52,30,20,22,8,11,0.3,0.3
2024-10-07T2300,1063A,117.9392,40.9763,承德市,中国银行,,31,31,18,18,11,5,,58,33,29,18,5,5,0.4,0.4
2024-10-07T2300,1064A,117.9503,40.928,承德市,开发区,,39,39,33,25,15,4,,55,33,37,22,7,8,0.4,0.3
2024-10-07T2300,1065A,117.8051,40.9655,承德市,文化中心,,47,47,25,3,8,0,,60,28,39,21,1,5,0.3,0.3
2024-10-07T2300,1066A,117.9268,41.0026,承德市,离宫,,32,,14,22,19,10,,46,31,19,9,4,4,0.3,0.3
2024-10-07T2300,2314A,117.47,30.6618,池州市,池州学院,,24,17,8,14,6,76,,72,68,12,10,6,6,0.4,0.3
2024-10-07T2300,3237A,117.4918,30.6617,池州市,展览馆,,24,19,10,12,7,75,,71,64,14,11,7,4,0.4,0.3
2024-10-07T2300,3333A,117.5627,30.695,池州市,第八中学,,23,17,11,12,7,72,,74,66,13,11,5,4,0.5,0.4
2024-10-07T2300,3334A,117.5038,30.6243,池州市,第十二中学,,20,16,9,14,8,64,,75,61,17,14,5,4,0.6,0.5
2024-10-07T2300,1744A,118.9233,42.2816,赤峰市,松山一中,细颗粒物(PM2.5),64,72,23,46,12,13,,65,33,40,26,10,9,0.7,0.5
2024-10-07T2300,1745A,118.9576,42.2728,赤峰市,哈达街,细颗粒物(PM2.5),63,73,23,45,13,11,,64,32,24,18,7,7,0.6,0.5
2024-10-07T2300,1746A,118.8788,42.2554,赤峰市,天义路,细颗粒物(PM2.5),59,62,23,42,11,8,,66,29,37,23,7,6,0.5,0.3
2024-10-07T2300,3058A,119.2658,42.0353,赤峰市,银河街,颗粒物(PM10),61,71,28,21,15,11,,68,35,31,22,21,15,0.7,0.5
2024-10-07T2300,3286A,118.9359,42.3147,赤峰市,桥北物流园区,颗粒物(PM10),60,69,20,42,13,7,,68,29,45,29,9,8,0.1,0.1
2024-10-07T2300,2521A,107.3476,22.4136,崇左市,市环保局江州分局,颗粒物(PM10),65,80,58,42,32,62,,128,105,19,14,4,5,0.7,0.6
2024-10-07T2300,2522A,107.3702,22.3707,崇左市,城南新区,细颗粒物(PM2.5),57,62,44,40,30,42,,135,109,34,15,5,6,0.8,0.6
2024-10-07T2300,2298A,118.3093,32.3153,滁州市,老年大学,,22,,9,10,10,69,,103,82,8,10,3,4,0.3,0.3
2024-10-07T2300,2299A,118.3244,32.2786,滁州市,人大宾馆,,24,18,12,15,8,76,,97,82,8,9,5,5,0.2,0.2
2024-10-07T2300,3207A,118.3118,32.3038,滁州市,市政府原办公楼,,25,15,12,10,14,77,,98,81,11,13,4,5,0.2,0.3
2024-10-07T2300,3331A,118.3267,32.2634,滁州市,图书馆,,24,12,10,11,7,74,,101,80,12,12,4,4,0.3,0.2
2024-10-07T2300,2605A,101.5482,25.0441,楚雄彝族自治州,州环境监测站,,33,26,18,23,17,44,,52,49,9,5,7,7,0.7,0.6
2024-10-07T2300,2606A,101.538,25.0492,楚雄彝族自治州,市经济开发区,,35,27,22,24,17,47,,49,47,9,6,6,5,0.9,0.8
2024-10-07T2300,2548A,107.5277,31.2827,达州市,达州职业技术学院,,29,29,34,15,24,1,,68,37,46,24,4,4,0.7,0.7
2024-10-07T2300,2549A,107.5086,31.2186,达州市,市环境监测站,,43,43,42,14,24,6,,74,48,48,28,4,6,0.9,0.6
2024-10-07T2300,2550A,107.4988,31.2132,达州市,凤凰小区,,36,36,39,19,27,18,,79,56,46,27,7,7,0.7,0.6
2024-10-07T2300,2551A,107.5082,31.1986,达州市,达县机关宾馆,,31,31,42,10,27,2,,69,38,52,35,5,4,0.6,0.5
2024-10-07T2300,2552A,107.4644,31.2124,达州市,市政中心,颗粒物(PM10),53,55,51,24,30,4,,73,51,64,30,8,6,0.7,0.7
2024-10-07T2300,2614A,100.1542,25.7054,大理白族自治州,大理市环境监测站,,19,14,16,13,8,41,,47,46,7,6,6,6,0.6,0.6
2024-10-07T2300,2615A,100.2171,25.5811,大理白族自治州,大理古城,,25,25,19,14,10,30,,57,41,12,9,7,7,0.6,0.5
2024-10-07T2300,1109A,121.612,38.9741,大连市,甘井子,,27,27,34,17,16,75,,85,81,19,16,7,7,0.9,0.8
2024-10-07T2300,1110A,121.565,38.9511,大连市,周水子,,29,27,32,20,17,52,,82,76,44,18,10,9,0.5,0.4
2024-10-07T2300,1111A,121.5637,38.8845,大连市,星海三站,,28,25,28,19,16,75,,90,86,15,7,6,5,0.3,0.3
2024-10-07T2300,1112A,121.6302,38.9117,大连市,青泥洼桥,,30,30,32,16,16,70,,82,79,21,15,9,7,0.3,0.4
2024-10-07T2300,1113A,121.6251,38.8638,大连市,傅家庄,,26,26,31,16,17,72,,85,82,17,11,8,7,0.4,0.4
2024-10-07T2300,1114A,121.5213,38.8661,大连市,七贤岭,,29,28,30,19,15,90,,94,93,11,9,7,6,0.6,0.5
2024-10-07T2300,1115A,121.2529,38.8061,大连市,旅顺,细颗粒物(PM2.5),54,38,27,38,19,90,,95,93,12,10,8,6,0.5,0.5
2024-10-07T2300,1116A,121.7485,39.1311,大连市,金州,,32,29,30,22,19,59,,90,83,13,12,6,6,0.6,0.6
2024-10-07T2300,1117A,121.7811,39.0496,大连市,开发区,,33,32,36,23,20,67,,87,84,15,11,10,8,0.4,0.4
2024-10-07T2300,1118A,121.9762,39.0631,大连市,双D港,,36,31,36,25,22,78,,94,91,15,14,8,7,0.6,0.7
2024-10-07T2300,1789A,124.81117,46.03138,大庆市,大同区,细颗粒物(PM2.5),74,71,53,54,38,42,,60,46,10,18,4,3,0.4,0.4
2024-10-07T2300,1790A,125.129,46.533,大庆市,龙凤区,细颗粒物(PM2.5),54,45,64,38,35,46,,45,38,9,42,2,5,0.5,0.6
2024-10-07T2300,1791A,124.902,46.408,大庆市,红岗区,颗粒物(PM10),53,55,53,29,28,42,,66,54,20,22,6,6,0.5,0.5
2024-10-07T2300,1792A,125.153,46.586,大庆市,萨尔图区,颗粒物(PM10),51,52,61,33,41,45,,55,43,20,30,6,8,0.4,0.5
2024-10-07T2300,1793A,124.9042,46.6215,大庆市,让胡路区,颗粒物(PM10),55,59,53,38,35,38,,61,46,26,23,4,4,0.6,0.5
2024-10-07T2300,3481A,125.141,46.634,大庆市,萨区政府监测点,,45,43,46,31,32,50,,61,48,18,23,7,6,0.4,0.4
2024-10-07T2300,1721A,113.3819,40.1097,大同市,果树场,颗粒物(PM10),68,86,38,30,15,17,,78,48,21,15,6,8,0.7,0.6
2024-10-07T2300,1723A,113.2994,40.0758,大同市,云冈宾馆,颗粒物(PM10),64,78,32,26,13,6,,82,50,53,27,8,9,0.9,0.6
2024-10-07T2300,1724A,113.3444,40.0917,大同市,大同大学,颗粒物(PM10),62,74,30,30,14,16,,79,53,46,25,15,15,0.8,0.6
2024-10-07T2300,1725A,113.2661,40.1269,大同市,安家小村,颗粒物(PM10),56,61,26,21,12,15,,80,54,47,19,13,13,0.5,0.4
2024-10-07T2300,1726A,113.2711,40.0844,大同市,教育学院,颗粒物(PM10),87,124,37,34,16,2,,75,41,68,29,10,9,1.5,0.6
2024-10-07T2300,3282A,113.3397,40.0597,大同市,大同市卫生学校,颗粒物(PM10),85,120,31,35,15,4,,81,52,61,24,9,9,1.1,0.8
2024-10-07T2300,3565A,113.1367,40.1122,大同市,云冈站,颗粒物(PM10),63,76,36,22,14,7,,85,54,40,18,12,13,0.5,0.6
2024-10-07T2300,3566A,113.1186,40.2556,大同市,图书馆,,38,38,34,18,16,30,,82,54,12,16,8,11,0.5,0.6
2024-10-07T2300,3567A,113.5931,40.0461,大同市,区一中,,20,20,18,3,10,46,,84,62,15,12,6,7,0.4,0.4
2024-10-07T2300,3676A,113.2802,40.0995,大同市,第二人民医院,颗粒物(PM10),89,127,34,30,15,7,,81,50,59,23,17,13,1.8,0.7
2024-10-07T2300,2269A,124.1069,50.4097,大兴安岭地区,科技局,,29,26,53,20,39,46,,74,63,7,6,10,8,0.4,0.5
2024-10-07T2300,3663A,124.1164,50.4278,大兴安岭地区,红旗社区,,22,22,51,9,42,16,,69,54,16,13,2,2,0.4,0.6
2024-10-07T2300,1600A,124.3303,40.0625,丹东市,江湾东路,,29,29,48,13,28,63,,69,66,12,18,8,7,0.4,0.7
2024-10-07T2300,1601A,124.4256,40.1503,丹东市,临江后街,,21,21,37,11,24,67,,79,71,11,16,7,7,0.5,0.7
2024-10-07T2300,1602A,124.3933,40.1461,丹东市,元宝山,,21,18,32,13,23,66,,72,70,6,12,4,4,0.8,0.9
2024-10-07T2300,1603A,124.3633,40.1092,丹东市,民主桥,,29,29,44,10,23,67,,68,65,10,18,6,5,0.5,0.7
2024-10-07T2300,3541A,109.5726,19.5167,儋州市,第一中学子站,颗粒物(PM10),57,63,21,39,13,146,,122,122,9,4,9,6,0.5,0.4
2024-10-07T2300,3542A,109.5567,19.5187,儋州市,东坡学校子站,细颗粒物(PM2.5),58,51,22,41,12,152,,126,126,7,4,8,6,0.7,0.5
2024-10-07T2300,2616A,98.5842,24.428,德宏傣族景颇族自治州,德宏州监测站,,24,24,24,8,7,7,,54,33,18,10,4,6,0.5,0.4
2024-10-07T2300,3677A,98.5881,24.4368,德宏傣族景颇族自治州,芒市人民政府综合楼,,20,20,21,11,10,11,,56,36,8,8,4,5,0.5,0.5
2024-10-07T2300,1901A,104.4239,31.1208,德阳市,东山公园,,40,34,32,28,22,57,,100,84,16,20,6,2,0.6,0.6
2024-10-07T2300,1902A,104.3826,31.1317,德阳市,西小区,,45,44,44,31,29,41,,96,77,32,23,2,1,0.6,0.6
2024-10-07T2300,1904A,104.3553,31.1091,德阳市,耐火材料厂,,44,44,41,25,25,29,,99,75,36,19,3,3,0.5,0.4
2024-10-07T2300,3639A,104.4019,31.1244,德阳市,市教育局,,47,47,47,26,28,28,,94,69,36,25,1,1,0.5,0.5
2024-10-07T2300,1622A,116.3032,37.4674,德州市,儿童乐园,细颗粒物(PM2.5),55,56,68,39,45,25,,93,68,71,31,9,10,0.6,0.7
2024-10-07T2300,1624A,116.2991,37.4451,德州市,监理站,,44,44,66,17,46,46,,99,80,50,26,6,8,0.6,0.7
2024-10-07T2300,3066A,116.2721,37.4379,德州市,九衢泉纯净水厂,颗粒物(PM10),52,53,65,29,39,17,,96,74,70,28,9,10,0.8,0.8
2024-10-07T2300,3371A,116.3728,37.4403,德州市,开发区人民医院,,44,44,66,24,38,12,,89,63,75,25,9,10,0.6,0.7
2024-10-07T2300,3372A,116.3572,37.4094,德州市,太阳城中学,,48,48,69,22,41,8,,104,64,75,31,9,9,0.6,0.7
2024-10-07T2300,3511A,116.5652,37.3319,德州市,陵城艺术中心,细颗粒物(PM2.5),110,105,75,83,48,23,,91,52,81,33,10,9,0.7,0.7
2024-10-07T2300,2621A,99.7056,27.8317,迪庆藏族自治州,迪庆州站,,17,,15,11,8,53,,56,53,7,8,8,9,0.3,0.3
2024-10-07T2300,3180A,99.7136,27.8094,迪庆藏族自治州,质量技术监督局,,18,13,15,10,8,56,,57,54,6,7,6,6,0.5,0.5
2024-10-07T2300,2663A,104.6241,35.5734,定西市,东关小学,,46,44,42,32,28,42,,90,74,22,12,4,5,0.3,0.3
2024-10-07T2300,2664A,104.6194,35.5934,定西市,供电公司,,43,37,43,30,25,39,,91,74,28,12,6,6,0.5,0.4
2024-10-07T2300,1389A,113.7547,23.0494,东莞市,莞城梨川,颗粒物(PM10),52,54,42,32,26,94,,130,109,16,14,8,7,0.7,0.6
2024-10-07T2300,1390A,113.7944,23.0128,东莞市,东城石井,,38,38,37,22,23,99,,142,117,15,14,7,8,0.6,0.6
2024-10-07T2300,1391A,113.7383,22.9658,东莞市,南城西平,,40,40,42,18,24,92,,143,112,22,25,3,2,0.8,0.7
2024-10-07T2300,3319A,113.7338,23.0381,东莞市,万江金泰,,48,48,42,27,25,94,,127,108,14,13,9,9,0.6,0.6
2024-10-07T2300,3626A,113.7533,23.0202,东莞市,南城元岭,,46,46,39,26,24,96,,136,112,11,10,9,9,0.7,0.7
2024-10-07T2300,3627A,113.7875,23.0457,东莞市,东城主山,,45,45,43,30,25,97,,138,114,18,22,8,8,0.6,0.6
2024-10-07T2300,1666A,118.6614,37.4309,东营市,市环保局,,34,34,25,12,11,55,,98,86,31,10,3,3,0.5,0.3
2024-10-07T2300,3036A,118.6904,37.4338,东营市,开发区管委会,,39,35,31,27,13,83,,97,94,16,10,3,2,0.1,0.1
2024-10-07T2300,3365A,118.5719,37.565,东营市,垦利区民丰路,,24,24,21,12,10,32,,82,63,37,14,9,10,0.5,0.4
2024-10-07T2300,3498A,118.5055,37.8612,东营市,河口城区,,25,17,21,17,11,70,,85,70,24,22,6,5,0.4,0.4
2024-10-07T2300,3646A,118.4978,37.4623,东营市,胜利站,,39,37,31,27,13,21,,90,71,57,13,8,8,0.6,0.3
2024-10-07T2300,3734A,118.35,37.26,东营市,理想之城,,27,27,27,12,15,36,,85,63,39,19,2,3,0.3,0.3
2024-10-07T2300,1591A,110.0023,39.8129,鄂尔多斯市,综合楼,颗粒物(PM10),79,107,50,51,20,10,,82,58,79,39,15,9,1.4,0.6
2024-10-07T2300,1592A,109.9486,39.8261,鄂尔多斯市,巴音孟克林场办事处,颗粒物(PM10),67,83,45,46,20,5,,74,46,73,39,10,8,1.1,0.7
2024-10-07T2300,1593A,109.7736,39.5986,鄂尔多斯市,康泽苑,,14,14,22,3,13,42,,94,67,16,11,5,7,0.3,0.4
2024-10-07T2300,1594A,109.8119,39.5989,鄂尔多斯市,华泰汽车城,,39,39,31,17,17,6,,88,41,43,22,9,10,0.8,0.5
2024-10-07T2300,1595A,109.9734,39.7884,鄂尔多斯市,奥林花园,细颗粒物(PM2.5),92,80,45,68,20,5,,69,44,67,38,8,8,1.1,0.7
2024-10-07T2300,2436A,114.8938,30.3994,鄂州市,市政府,,20,18,16,14,10,47,,69,58,21,17,11,9,0.5,0.5
2024-10-07T2300,2437A,114.8989,30.3714,鄂州市,赵家坝,,27,27,19,18,11,36,,75,57,25,16,10,10,0.6,0.5
2024-10-07T2300,3654A,114.8094,30.4089,鄂州市,精准医疗中心,,21,21,18,11,8,48,,85,63,15,10,5,6,0.7,0.6
2024-10-07T2300,2454A,109.4978,30.2981,恩施土家族苗族自治州,湖北民院,,35,35,26,18,16,18,,58,43,16,18,9,9,0.6,0.6
2024-10-07T2300,2455A,109.4707,30.2798,恩施土家族苗族自治州,州电力总公司,,32,26,24,22,16,16,,56,44,24,21,7,7,0.8,0.8
2024-10-07T2300,3549A,109.5061,30.3772,恩施土家族苗族自治州,龙凤新区,,22,21,19,15,14,10,,52,35,14,15,6,6,0.7,0.8
2024-10-07T2300,2499A,108.3411,21.6158,防城港市,沙万,细颗粒物(PM2.5),62,64,51,44,36,130,,145,140,13,13,11,11,0.6,0.6
2024-10-07T2300,2500A,108.3514,21.7731,防城港市,防城档案局,颗粒物(PM10),89,127,99,51,44,98,,135,118,32,25,10,10,0.7,0.6
2024-10-07T2300,2501A,108.3506,21.6414,防城港市,大海花园,,,68,53,41,35,,,141,,12,12,9,9,0.6,0.7
2024-10-07T2300,1371A,113.1294,23.0067,佛山市,湾梁,细颗粒物(PM2.5),55,58,48,39,28,112,,177,151,24,24,11,9,0.8,0.7
2024-10-07T2300,1372A,113.1083,23.0478,佛山市,华材职中,细颗粒物(PM2.5),67,70,53,48,33,104,,166,140,28,29,10,11,0.7,0.6
2024-10-07T2300,1373A,113.144,23.0453,佛山市,南海气象局,"颗粒物(PM10),细颗粒物(PM2.5)",55,60,47,39,29,107,,174,145,20,20,11,10,0.6,0.6
2024-10-07T2300,1374A,113.2881,22.8094,佛山市,顺德苏岗,细颗粒物(PM2.5),52,52,40,36,22,102,,158,135,19,19,10,9,0.7,0.7
2024-10-07T2300,1376A,112.8383,22.8678,佛山市,高明孔堂,细颗粒物(PM2.5),70,68,55,51,37,118,,179,149,15,21,8,13,0.7,0.7
2024-10-07T2300,1377A,112.8836,23.1588,佛山市,三水监测站,细颗粒物(PM2.5),77,68,56,56,38,113,,161,140,21,23,7,10,0.7,0.6
2024-10-07T2300,1378A,112.867,23.185,佛山市,三水云东海,细颗粒物(PM2.5),74,67,48,54,39,113,,158,132,19,22,12,13,0.7,0.7
2024-10-07T2300,3625A,113.2544,22.7642,佛山市,容桂街道办,细颗粒物(PM2.5),58,48,36,41,28,108,,169,146,22,21,10,9,0.8,0.7
2024-10-07T2300,1282A,119.2681,26.0504,福州市,师大,,23,9,13,3,4,73,,70,70,10,10,1,1,0.3,0.3
2024-10-07T2300,1283A,119.2984,26.1028,福州市,五四北路,,24,7,16,3,7,75,,76,76,10,13,3,3,0.4,0.4
2024-10-07T2300,1284A,119.2648,26.0768,福州市,杨桥西路,,25,6,13,3,5,78,,72,72,9,12,3,3,0.5,0.4
2024-10-07T2300,1285A,119.317,26.0746,福州市,紫阳,,20,10,18,6,8,61,,56,56,15,18,6,6,0.6,0.5
2024-10-07T2300,3048A,119.5799,26.0936,福州市,九龙,,24,8,14,3,2,76,,105,98,4,2,6,6,0.4,0.4
2024-10-07T2300,3526A,119.5189,25.9664,福州市,吴航,,26,6,9,3,5,81,,104,101,7,5,6,6,0.5,0.5
2024-10-07T2300,1755A,123.7977,41.8491,抚顺市,望花区,颗粒物(PM10),67,83,31,46,22,6,,73,36,46,18,6,5,1.3,0.4
2024-10-07T2300,1756A,123.9161,41.8822,抚顺市,顺城区,颗粒物(PM10),53,55,31,35,21,6,,74,32,35,20,6,5,0.5,0.4
2024-10-07T2300,1757A,124.0436,41.8611,抚顺市,东洲区,,46,43,29,32,24,27,,72,48,17,13,5,6,0.4,0.4
2024-10-07T2300,1758A,123.9247,41.8642,抚顺市,新抚区,颗粒物(PM10),56,62,28,29,19,7,,78,37,35,18,4,4,0.5,0.3
2024-10-07T2300,1759A,124.0972,41.8961,抚顺市,大伙房水库,,35,27,26,24,19,24,,76,58,28,9,7,7,0.4,0.3
2024-10-07T2300,1760A,123.7086,41.8391,抚顺市,沈抚新城,颗粒物(PM10),60,69,33,38,21,6,,81,38,43,20,8,8,0.6,0.3
2024-10-07T2300,2376A,116.2127,28.0814,抚州市,桐源党溪,,32,32,33,19,15,72,,115,93,3,3,5,5,0.7,0.7
2024-10-07T2300,2377A,116.3544,27.9831,抚州市,市站,,26,26,27,14,14,59,,94,79,8,8,2,2,0.7,0.7
2024-10-07T2300,2378A,116.3565,27.963,抚州市,血防站,,29,29,29,14,13,65,,107,89,10,10,3,3,0.5,0.6
2024-10-07T2300,2379A,116.3564,28.0007,抚州市,采茶剧团,,25,25,26,15,14,61,,102,83,4,4,4,4,0.6,0.7
2024-10-07T2300,2380A,116.385,27.9647,抚州市,医学分院,,30,30,26,17,12,83,,115,101,7,6,5,5,0.6,0.7
2024-10-07T2300,2207A,121.6094,41.998,阜新市,工业园区,,41,41,37,20,20,3,,74,26,39,25,8,9,0.7,0.7
2024-10-07T2300,2208A,121.6697,42.0279,阜新市,长青街,颗粒物(PM10),69,88,30,38,18,3,,66,29,26,15,6,6,1.0,0.5
2024-10-07T2300,2209A,121.6673,42.0705,阜新市,农业园区,,38,38,22,17,16,38,,65,49,28,13,6,5,0.4,0.6
2024-10-07T2300,2210A,121.6717,42.0224,阜新市,东苑,颗粒物(PM10),59,68,37,32,19,6,,67,30,38,21,16,10,1.1,0.7
2024-10-07T2300,2211A,121.6506,42.0498,阜新市,玉龙新城,颗粒物(PM10),53,55,38,19,18,6,,72,28,24,19,7,6,0.6,0.5
2024-10-07T2300,2301A,115.8277,32.8929,阜阳市,市监测站,,29,21,23,20,16,74,,96,85,16,14,6,8,0.4,0.4
2024-10-07T2300,2303A,115.8554,32.8605,阜阳市,开发区,,31,31,24,18,17,55,,93,82,23,18,5,8,0.4,0.3
2024-10-07T2300,2875A,115.784,32.8892,阜阳市,阜阳职业技术学院,,25,11,20,9,14,79,,94,88,15,15,6,7,0.4,0.4
2024-10-07T2300,3468A,115.7901,32.8613,阜阳市,市规划展馆,,23,23,22,13,18,70,,98,87,20,18,5,7,0.5,0.5
2024-10-07T2300,3469A,115.836,32.9183,阜阳市,枣园社区,,24,24,22,14,18,72,,94,85,20,15,6,8,0.4,0.4
2024-10-07T2300,2669A,102.9099,34.9841,甘南藏族自治州,州政府,,,,25,,15,,,89,87,14,8,6,11,0.5,0.5
2024-10-07T2300,3380A,102.8914,34.9617,甘南藏族自治州,甘肃民族师范学院,细颗粒物(PM2.5),52,,26,36,18,80,,90,86,10,11,3,4,0.6,0.5
2024-10-07T2300,2570A,101.9603,30.0475,甘孜藏族自治州,水桥子,,10,9,6,3,5,27,,50,46,20,16,5,5,0.4,0.3
2024-10-07T2300,3065A,101.9533,29.9972,甘孜藏族自治州,州环保局,,13,11,7,7,5,29,,54,47,25,15,3,3,0.3,0.3
2024-10-07T2300,3414A,115.8347,28.932,赣江新区,桑海产业园,,23,9,23,3,11,71,,91,71,7,11,7,9,0.4,0.3
2024-10-07T2300,2362A,114.9017,25.9149,赣州市,通天岩,细颗粒物(PM2.5),82,,42,60,36,77,,150,129,8,8,14,16,0.5,0.5
2024-10-07T2300,2363A,114.9367,25.8664,赣州市,地委,细颗粒物(PM2.5),67,56,44,48,32,109,,136,131,15,12,6,3,1.3,1.2
2024-10-07T2300,2364A,114.9461,25.8481,赣州市,气象台,细颗粒物(PM2.5),68,58,47,49,34,122,,143,140,10,9,14,5,0.7,0.6
2024-10-07T2300,2365A,114.9322,25.8333,赣州市,市图书馆,细颗粒物(PM2.5),57,58,44,40,29,131,,150,147,10,8,5,5,0.8,0.8
2024-10-07T2300,2366A,114.8905,25.8471,赣州市,华坚鞋城,"颗粒物(PM10),细颗粒物(PM2.5)",54,58,45,38,29,123,,138,135,10,9,3,4,0.6,0.5
2024-10-07T2300,3109A,115.0093,25.8613,赣州市,赣县区卫计委,细颗粒物(PM2.5),55,52,43,39,31,94,,134,128,18,12,5,6,0.8,0.7
2024-10-07T2300,2683A,106.2319,36.1417,固原市,马园,,32,32,42,15,16,80,,85,65,14,30,6,7,0.4,0.4
2024-10-07T2300,2684A,106.2792,36.0022,固原市,监测站,,33,33,34,22,16,72,,94,86,17,22,7,6,0.4,0.4
2024-10-07T2300,2685A,106.2375,36.0211,固原市,新区,,34,34,35,21,15,70,,92,85,19,24,5,5,0.4,0.4
2024-10-07T2300,3522A,106.2177,35.9959,固原市,原州区十五小,,39,39,34,21,16,74,,91,82,17,15,5,5,0.6,0.5
2024-10-07T2300,2544A,106.6303,30.4576,广安市,市委,细颗粒物(PM2.5),59,62,42,42,30,18,,75,53,40,21,2,3,0.6,0.4
2024-10-07T2300,2545A,106.6271,30.4663,广安市,友谊中学,细颗粒物(PM2.5),55,56,43,39,29,10,,75,50,40,23,2,3,0.6,0.5
2024-10-07T2300,2547A,106.6388,30.4551,广安市,广电花园,颗粒物(PM10),54,58,41,37,27,20,,74,48,37,22,1,1,0.5,0.4
2024-10-07T2300,2902A,106.6351,30.4865,广安市,北辰小学,细颗粒物(PM2.5),57,57,41,40,29,17,,79,53,29,18,3,4,0.6,0.5
2024-10-07T2300,2523A,105.8945,32.4535,广元市,黑石坡,,33,,24,23,21,60,,72,68,8,13,14,15,0.4,0.5
2024-10-07T2300,2524A,105.821,32.4444,广元市,老城,颗粒物(PM10),52,54,38,25,18,16,,77,56,40,19,2,6,0.3,0.4
2024-10-07T2300,2526A,105.8628,32.4287,广元市,监测站,,45,45,28,27,20,56,,80,72,8,12,1,3,0.4,0.5
2024-10-07T2300,3617A,105.8047,32.4166,广元市,经开区,,38,38,39,24,26,22,,79,65,40,19,4,7,0.6,0.6
2024-10-07T2300,1345A,113.2347,23.1423,广州市,广雅中学,细颗粒物(PM2.5),68,70,54,49,32,96,,151,130,28,29,8,9,0.8,0.7
2024-10-07T2300,1346A,113.2612,23.105,广州市,市五中,颗粒物(PM10),75,99,57,50,32,99,,162,137,23,15,7,6,0.8,0.7
2024-10-07T2300,1348A,113.3478,23.0916,广州市,广东商学院,细颗粒物(PM2.5),64,71,47,46,30,105,,150,132,21,17,8,7,0.7,0.7
2024-10-07T2300,1349A,113.4332,23.1047,广州市,市八十六中,颗粒物(PM10),58,66,56,38,27,111,,146,132,17,19,6,5,0.8,0.7
2024-10-07T2300,1350A,113.3505,22.9483,广州市,番禺中学,细颗粒物(PM2.5),58,61,47,41,29,112,,162,140,23,21,9,8,0.7,0.6
2024-10-07T2300,1351A,113.2146,23.3916,广州市,花都师范,细颗粒物(PM2.5),63,65,46,45,31,123,,163,147,13,11,8,10,0.6,0.6
2024-10-07T2300,1352A,113.2597,23.1331,广州市,市监测站,细颗粒物(PM2.5),67,71,47,48,28,91,,150,124,31,22,7,7,1.0,0.9
2024-10-07T2300,1353A,113.5618,23.312,广州市,九龙镇镇龙,颗粒物(PM10),56,61,45,39,28,105,,122,118,18,18,9,8,0.8,0.6
2024-10-07T2300,1354A,113.2765,23.1544,广州市,麓湖,细颗粒物(PM2.5),68,72,51,49,30,92,,153,128,31,21,9,8,0.7,0.6
2024-10-07T2300,1355A,113.443,23.3035,广州市,帽峰山森林公园,颗粒物(PM10),52,53,33,32,23,118,,150,140,12,10,13,9,0.7,0.5
2024-10-07T2300,2846A,113.3221,23.1322,广州市,体育西,细颗粒物(PM2.5),63,64,43,45,28,85,,141,120,28,17,7,6,0.8,0.6
2024-10-07T2300,3298A,113.5717,23.5491,广州市,从化街口,颗粒物(PM10),55,59,42,38,27,113,,131,119,13,14,12,11,0.8,0.6
2024-10-07T2300,3299A,113.3472,23.3692,广州市,白云竹料,细颗粒物(PM2.5),77,66,47,56,31,108,,149,133,15,14,8,8,0.8,0.7
2024-10-07T2300,3300A,113.2981,23.237,广州市,白云嘉禾,细颗粒物(PM2.5),67,73,54,48,29,96,,145,125,18,18,8,8,0.9,0.8
2024-10-07T2300,3301A,113.4256,23.1716,广州市,黄埔科学城,细颗粒物(PM2.5),59,63,42,42,27,112,,144,130,14,14,11,7,1.0,0.9
2024-10-07T2300,3302A,113.3942,23.0483,广州市,番禺大学城,细颗粒物(PM2.5),58,48,38,41,25,105,,148,128,21,19,15,13,0.4,0.4
2024-10-07T2300,3303A,113.4922,22.8168,广州市,南沙黄阁,细颗粒物(PM2.5),57,53,48,40,30,99,,162,136,30,26,10,11,0.9,0.8
2024-10-07T2300,3304A,113.5342,22.7896,广州市,南沙街,颗粒物(PM10),56,62,47,39,27,91,,159,130,31,24,13,11,0.9,0.8
2024-10-07T2300,3443A,113.2902,23.5544,广州市,花都梯面,细颗粒物(PM2.5),72,62,44,52,33,113,,145,132,11,9,10,13,0.7,0.7
2024-10-07T2300,3445A,113.7858,23.7478,广州市,从化良口,颗粒物(PM10),56,62,34,39,23,110,,124,116,11,7,12,9,0.9,0.7
2024-10-07T2300,3446A,113.8051,23.2614,广州市,增城荔城,,34,34,33,22,24,102,,125,114,11,10,7,8,0.6,0.6
2024-10-07T2300,2506A,109.6047,23.0666,贵港市,江南子站,细颗粒物(PM2.5),62,66,75,44,45,156,,177,171,11,22,10,11,0.7,0.8
2024-10-07T2300,2507A,109.6014,23.0948,贵港市,贵城子站,细颗粒物(PM2.5),63,59,60,45,43,150,,175,167,14,14,9,11,0.9,0.8
2024-10-07T2300,2508A,109.5669,23.1065,贵港市,荷城子站,颗粒物(PM10),58,66,64,34,35,151,,164,159,13,17,12,14,0.7,0.7
2024-10-07T2300,3405A,109.5886,23.1172,贵港市,新世纪学校,颗粒物(PM10),59,68,64,40,35,146,,170,160,13,14,9,10,0.5,0.6
2024-10-07T2300,1439A,106.6899,26.5998,贵阳市,马鞍山,,39,39,22,24,12,49,,75,66,17,12,3,4,0.3,0.6
2024-10-07T2300,1440A,106.6971,26.5694,贵阳市,市环保站,,39,27,21,27,21,76,,86,82,10,10,4,6,0.4,0.4
2024-10-07T2300,1441A,106.6243,26.6266,贵阳市,鉴湖路,,24,24,21,12,14,66,,77,72,9,8,5,6,0.4,0.4
2024-10-07T2300,1442A,106.7487,26.6343,贵阳市,燕子冲,,35,24,20,24,21,64,,83,77,10,7,5,6,0.5,0.4
2024-10-07T2300,1443A,106.6555,26.4365,贵阳市,碧云窝,,41,41,36,27,19,65,,79,71,13,13,5,6,0.4,0.4
2024-10-07T2300,1444A,106.694,26.5161,贵阳市,中院村,,39,39,28,19,20,69,,80,74,11,11,7,9,0.6,0.6
2024-10-07T2300,1445A,106.7109,26.6027,贵阳市,红边门,,39,36,27,27,22,66,,81,76,15,13,5,6,0.5,0.5
2024-10-07T2300,1446A,106.7164,26.5699,贵阳市,新华路,,35,24,23,24,19,70,,82,78,9,9,4,5,0.4,0.4
2024-10-07T2300,1447A,106.674,26.5424,贵阳市,太慈桥,,31,31,22,19,16,69,,82,78,13,11,5,6,0.4,0.4
2024-10-07T2300,1862A,110.4144,25.3167,桂林市,电子科大尧山校区,,35,31,60,23,40,109,,146,132,8,10,6,7,0.5,0.6
2024-10-07T2300,1863A,110.2819,25.2697,桂林市,监测站,,50,,65,35,46,104,,153,130,11,11,8,11,0.3,0.5
2024-10-07T2300,1864A,110.3089,25.2708,桂林市,龙隐路小学,细颗粒物(PM2.5),54,,59,38,47,112,,160,139,6,8,9,12,0.6,0.8
2024-10-07T2300,1865A,110.2869,25.2178,桂林市,八中,,43,,62,30,47,103,,149,129,9,11,9,10,0.6,0.7
2024-10-07T2300,3403A,110.1764,25.2381,桂林市,创业大厦,,42,34,68,29,52,103,,158,135,8,10,9,14,0.4,0.4
2024-10-07T2300,3531A,110.296,25.1253,桂林市,旅游学院,,,,57,,43,112,,154,137,6,8,8,11,,0.5
2024-10-07T2300,2674A,100.2561,34.4714,果洛藏族自治州,玛沁县大武镇,,29,20,15,16,12,91,,99,94,1,2,10,9,0.4,0.4
2024-10-07T2300,1129A,126.5422,45.755,哈尔滨市,岭北,细颗粒物(PM2.5),65,63,39,47,28,70,,101,82,40,26,8,9,0.5,0.1
2024-10-07T2300,1130A,126.561,45.8167,哈尔滨市,松北商大,,49,49,40,31,21,20,,68,30,44,32,8,8,0.8,0.6
2024-10-07T2300,1131A,126.979,45.5419,哈尔滨市,阿城会宁,颗粒物(PM10),61,72,59,37,29,29,,71,38,24,25,10,8,0.6,0.6
2024-10-07T2300,1132A,126.599,45.7222,哈尔滨市,南岗学府路,颗粒物(PM10),113,176,63,62,29,6,,78,43,60,35,6,6,1.1,0.6
2024-10-07T2300,1133A,126.689,45.7733,哈尔滨市,太平宏伟公园,颗粒物(PM10),91,131,68,55,32,4,,75,49,64,28,4,5,1.1,0.7
2024-10-07T2300,1134A,126.635,45.7667,哈尔滨市,道外承德广场,颗粒物(PM10),71,91,55,42,26,8,,69,43,71,42,4,5,1.3,0.7
2024-10-07T2300,1135A,126.685,45.7319,哈尔滨市,香坊红旗大街,颗粒物(PM10),79,107,65,56,35,6,,76,42,72,38,9,9,1.0,0.8
2024-10-07T2300,1136A,126.6411,45.7258,哈尔滨市,动力和平路,颗粒物(PM10),74,98,48,41,31,4,,75,41,64,36,7,7,0.9,0.6
2024-10-07T2300,1137A,126.593,45.7478,哈尔滨市,道里建国路,细颗粒物(PM2.5),79,78,48,58,34,11,,69,32,64,45,17,13,0.6,0.7
2024-10-07T2300,1138A,126.615,45.61,哈尔滨市,平房东轻厂,颗粒物(PM10),53,56,55,31,26,30,,73,29,37,43,6,7,0.6,0.6
2024-10-07T2300,1139A,126.595,45.9855,哈尔滨市,呼兰师专,细颗粒物(PM2.5),60,56,46,43,29,29,,63,36,45,36,3,3,0.7,0.5
2024-10-07T2300,1140A,126.6206,45.6842,哈尔滨市,省农科院,颗粒物(PM10),94,138,82,52,37,10,,67,23,67,44,9,7,0.8,0.9
2024-10-07T2300,2688A,93.5128,42.8172,哈密市,地区监测站,颗粒物(PM10),54,57,50,30,26,31,,97,77,74,31,3,6,0.5,0.3
2024-10-07T2300,2689A,93.4961,42.8328,哈密市,哈密师范学校,颗粒物(PM10),60,69,52,23,21,38,,100,78,51,40,4,5,0.7,0.4
2024-10-07T2300,2671A,100.9048,36.9639,海北藏族自治州,海晏县西海镇,,44,44,39,30,27,101,,105,102,12,13,15,14,0.6,0.5
2024-10-07T2300,3867A,102.0738,36.5056,海东市,平安区公安北苑,颗粒物(PM10),61,72,57,40,29,83,,110,101,20,19,20,17,1.2,0.9
2024-10-07T2300,1410A,110.3232,20.0574,海口市,海南大学,臭氧1小时,74,54,41,38,26,179,,192,192,9,7,4,4,0.6,0.5
2024-10-07T2300,1411A,110.283,20.0053,海口市,秀英海南医院,,48,45,35,31,24,153,,184,184,12,10,6,7,0.4,0.4
2024-10-07T2300,1412A,110.338,19.9969,海口市,海南师范大学,臭氧1小时,63,51,38,37,25,170,,190,189,9,8,7,7,0.6,0.5
2024-10-07T2300,1413A,110.33,20.0356,海口市,龙华路环保局宿舍,臭氧1小时,74,50,38,35,25,179,,192,192,8,7,6,6,0.4,0.4
2024-10-07T2300,3539A,110.5111,19.9736,海口市,桂林洋子站,臭氧1小时,60,53,41,40,27,168,,194,189,8,7,8,8,0.4,0.4
2024-10-07T2300,2673A,100.6188,36.2866,海南藏族自治州,共和县恰卜恰镇,,45,45,36,12,20,80,,95,77,17,15,13,10,0.7,0.6
2024-10-07T2300,2676A,97.3731,37.3753,海西蒙古族藏族自治州,德令哈市,,35,27,29,21,10,109,,115,111,6,9,10,10,0.4,0.5
2024-10-07T2300,1048A,114.5302,36.6116,邯郸市,东污水处理厂,细颗粒物(PM2.5),122,117,121,92,103,13,,70,62,56,31,3,3,1.1,0.8
2024-10-07T2300,1049A,114.4918,36.5713,邯郸市,矿院,细颗粒物(PM2.5),107,137,149,80,109,4,,64,50,54,25,3,4,1.0,0.9
2024-10-07T2300,1050A,114.484,36.6133,邯郸市,丛台公园,细颗粒物(PM2.5),109,137,143,82,102,6,,62,51,63,31,6,4,1.0,0.8
2024-10-07T2300,3458A,114.7895,36.5593,邯郸市,香泉濮院小区,细颗粒物(PM2.5),115,114,129,87,84,31,,82,61,48,34,4,4,0.9,0.7
2024-10-07T2300,3579A,114.50634,36.77178,邯郸市,永年区实验高中,细颗粒物(PM2.5),87,94,135,64,93,35,,92,82,40,21,4,5,0.8,0.9
2024-10-07T2300,3580A,114.20016,36.44293,邯郸市,峰峰矿区临水派出所,细颗粒物(PM2.5),100,75,98,75,90,83,,85,77,8,17,4,4,0.9,0.9
2024-10-07T2300,2634A,106.9893,33.1842,汉中市,汉川机床厂子校,细颗粒物(PM2.5),58,,45,41,32,52,,103,90,16,10,5,13,0.7,0.7
2024-10-07T2300,2635A,107.0154,33.0706,汉中市,市监测站,颗粒物(PM10),62,73,54,43,35,32,,107,85,38,15,9,9,0.9,0.7
2024-10-07T2300,2636A,107.0089,33.1138,汉中市,鑫源开发区,颗粒物(PM10),64,77,59,38,40,41,,108,91,38,18,11,17,0.6,0.5
2024-10-07T2300,2637A,107.007,33.0323,汉中市,南郑大河坎水厂,细颗粒物(PM2.5),58,63,46,41,32,29,,103,74,27,15,8,8,0.7,0.6
2024-10-07T2300,1223A,120.2072,30.2111,杭州市,滨江,,24,9,11,7,7,74,,73,73,14,16,4,4,0.7,0.7
2024-10-07T2300,1224A,120.0633,30.2747,杭州市,西溪,,25,7,11,6,7,79,,76,76,13,16,5,5,0.8,0.8
2024-10-07T2300,1226A,120.3461,30.3153,杭州市,下沙,,26,15,15,3,6,81,,76,74,22,24,6,6,0.7,0.8
2024-10-07T2300,1227A,120.1269,30.2456,杭州市,卧龙桥,,25,6,9,3,9,80,,75,75,13,16,5,5,0.5,0.6
2024-10-07T2300,1228A,120.1903,30.2692,杭州市,浙江农大,,24,8,10,8,9,74,,72,72,12,16,8,8,0.6,0.6
2024-10-07T2300,1230A,120.1197,30.3119,杭州市,和睦小学,,27,,9,6,6,84,,79,79,17,19,6,6,0.7,0.7
2024-10-07T2300,1231A,120.3019,30.4183,杭州市,临平镇,,29,20,13,14,8,90,,86,86,11,13,4,4,0.6,0.7
2024-10-07T2300,1232A,120.2697,30.1819,杭州市,城厢镇,,25,,8,8,10,79,,80,78,10,12,6,6,0.7,0.8
2024-10-07T2300,1233A,120.0883,30.1808,杭州市,云栖,,21,10,11,3,4,65,,66,66,11,13,6,6,0.7,0.7
2024-10-07T2300,3557A,119.9464,30.0494,杭州市,镇二中,,25,6,9,3,9,77,,76,76,10,15,7,8,0.7,0.7
2024-10-07T2300,3558A,119.7183,30.2367,杭州市,市府大楼,,26,,8,3,6,83,,80,80,9,13,6,6,0.6,0.7
2024-10-07T2300,3656A,120.1556,30.2864,杭州市,消防大队,,27,,9,8,9,85,,82,82,12,15,8,8,0.4,0.5
2024-10-07T2300,1270A,117.1959,31.7848,合肥市,明珠广场,,24,24,9,14,6,39,,82,71,40,18,10,10,0.5,0.4
2024-10-07T2300,1271A,117.3072,31.8764,合肥市,三里街,,27,27,8,14,4,45,,77,65,30,17,3,2,0.5,0.4
2024-10-07T2300,1272A,117.2588,31.8707,合肥市,琥珀山庄,,34,34,9,22,9,34,,87,71,30,15,6,7,0.6,0.4
2024-10-07T2300,1273A,117.1604,31.9052,合肥市,董铺水库,,25,24,8,17,4,46,,84,70,22,10,4,3,0.3,0.2
2024-10-07T2300,1274A,117.25,31.8571,合肥市,长江中路,,41,41,18,26,11,49,,88,77,26,14,7,7,0.8,0.8
2024-10-07T2300,1275A,117.266,31.9436,合肥市,庐阳区,,27,27,9,7,5,46,,87,71,32,16,3,3,0.5,0.5
2024-10-07T2300,1276A,117.336,31.8586,合肥市,瑶海区,,29,29,9,13,5,40,,88,76,47,22,8,6,0.4,0.3
2024-10-07T2300,1277A,117.3027,31.7964,合肥市,包河区,,38,14,7,14,5,5,,73,36,76,36,5,4,0.6,0.5
2024-10-07T2300,1278A,117.2776,31.7385,合肥市,滨湖新区,,25,19,8,17,7,46,,79,71,36,20,4,4,0.3,0.2
2024-10-07T2300,1279A,117.1318,31.8403,合肥市,高新区,,36,27,10,25,8,51,,80,72,24,15,7,6,0.6,0.6
2024-10-07T2300,3464A,117.3803,31.9147,合肥市,高教基地,,16,16,9,9,4,30,,79,56,8,7,4,3,0.3,0.2
2024-10-07T2300,3614A,79.924,37.0877,和田地区,地区环保局,颗粒物(PM10),174,298,298,,64,65,,100,95,33,15,11,8,0.8,0.5
2024-10-07T2300,3615A,79.9131,37.113,和田地区,市环保局,颗粒物(PM10),146,242,264,91,77,37,,102,91,66,23,8,7,1.0,0.5
2024-10-07T2300,2516A,108.2011,24.715,河池市,东仁乐园,细颗粒物(PM2.5),52,48,53,36,34,78,,129,101,8,10,3,4,0.7,0.7
2024-10-07T2300,2517A,108.0497,24.6947,河池市,市环保站,细颗粒物(PM2.5),52,,47,36,35,73,,129,102,12,16,10,11,0.8,0.7
2024-10-07T2300,2518A,108.0983,24.6989,河池市,市疾控中心,细颗粒物(PM2.5),53,39,51,37,37,88,,131,107,8,22,12,12,0.6,0.6
2024-10-07T2300,1696A,114.6778,23.7569,河源市,源西,,42,39,34,29,25,121,,123,123,14,14,7,7,0.6,0.5
2024-10-07T2300,1697A,114.6944,23.7586,河源市,东埔,细颗粒物(PM2.5),53,46,30,37,27,126,,126,126,13,12,5,6,0.8,0.8
2024-10-07T2300,1698A,114.6892,23.7233,河源市,老城,,40,36,35,27,23,127,,127,127,12,10,4,5,0.7,0.6
2024-10-07T2300,1718A,115.4208,35.2464,菏泽市,气象局,细颗粒物(PM2.5),80,104,127,59,69,61,,111,93,42,38,3,6,0.5,0.5
2024-10-07T2300,1719A,115.4747,35.2375,菏泽市,市政协,细颗粒物(PM2.5),90,117,129,67,71,47,,112,92,44,33,7,8,0.5,0.5
2024-10-07T2300,3374A,115.5564,35.0891,菏泽市,定陶老年大学,细颗粒物(PM2.5),85,100,121,63,70,35,,112,86,39,25,6,8,0.5,0.4
2024-10-07T2300,3647A,115.4702,35.2706,菏泽市,菏泽医专,细颗粒物(PM2.5),104,99,115,78,84,62,,113,93,33,33,7,11,1.0,1
2024-10-07T2300,2514A,111.5264,24.4172,贺州市,环保小区,细颗粒物(PM2.5),69,54,72,50,48,115,,158,126,14,18,8,9,0.5,0.7
2024-10-07T2300,2515A,111.5608,24.4078,贺州市,政协大楼,,,64,73,40,43,114,,159,129,13,17,7,8,,0.9
2024-10-07T2300,3534A,111.4744,24.4553,贺州市,西湾,细颗粒物(PM2.5),62,59,66,44,49,111,,148,127,11,12,7,8,0.6,0.7
2024-10-07T2300,2385A,114.17,35.9019,鹤壁市,市监测站,细颗粒物(PM2.5),128,108,120,97,95,38,,94,70,35,33,2,6,1.0,1.2
2024-10-07T2300,2386A,114.2956,35.7511,鹤壁市,市交警支队,,,130,127,,87,23,,91,69,52,32,3,2,0.8,0.9
2024-10-07T2300,2387A,114.2878,35.7306,鹤壁市,迎宾馆,细颗粒物(PM2.5),140,135,140,107,107,41,,95,77,35,31,5,9,1.0,1.1
2024-10-07T2300,3474A,114.2617,35.6822,鹤壁市,大新区,细颗粒物(PM2.5),110,104,91,83,92,33,,89,70,28,24,1,4,0.9,1
2024-10-07T2300,3596A,114.1572,35.9603,鹤壁市,南山宾馆,细颗粒物(PM2.5),147,119,125,112,97,75,,94,92,18,23,3,3,0.7,1.1
2024-10-07T2300,2244A,130.2537,47.3416,鹤岗市,哈啤分公司,颗粒物(PM10),55,60,34,32,24,36,,67,55,15,11,14,14,0.7,0.5
2024-10-07T2300,2245A,130.2684,47.3086,鹤岗市,斯达机电,,49,47,40,34,25,68,,66,66,9,13,14,14,0.4,0.4
2024-10-07T2300,2246A,130.3114,47.3388,鹤岗市,东山纸板厂,颗粒物(PM10),107,163,70,60,31,15,,63,40,29,21,16,18,0.6,0.8
2024-10-07T2300,2247A,130.1097,47.3382,鹤岗市,五号水库,,45,34,21,31,15,40,,77,63,6,5,8,8,0.2,0.1
2024-10-07T2300,2263A,127.4833,50.2524,黑河市,交通局,,32,31,49,22,36,48,,64,52,16,13,15,8,0.5,0.5
2024-10-07T2300,2264A,127.5144,50.2341,黑河市,环保局,,25,22,42,17,32,69,,72,65,5,10,4,4,0.3,0.4
2024-10-07T2300,2265A,127.5291,50.2472,黑河市,大黑河岛,,,,,24,38,58,,70,61,11,12,2,2,0.2,0.3
2024-10-07T2300,1074A,115.6838,37.7541,衡水市,电机北厂,,47,47,78,28,50,7,,86,55,75,27,12,8,0.3,0.6
2024-10-07T2300,1075A,115.6303,37.7316,衡水市,市监测站,颗粒物(PM10),53,55,72,18,48,38,,88,63,59,33,6,7,0.4,0.7
2024-10-07T2300,3188A,115.6683,37.7217,衡水市,市城管局,颗粒物(PM10),56,62,70,33,48,12,,89,52,85,34,1,4,0.4,0.7
2024-10-07T2300,3459A,115.5989,37.5491,衡水市,地表水厂,颗粒物(PM10),57,64,67,30,43,4,,92,47,76,35,24,5,0.4,0.6
2024-10-07T2300,2456A,112.5003,26.9167,衡阳市,原169医院,细颗粒物(PM2.5),62,57,53,44,42,81,,114,96,19,19,14,15,0.6,0.6
2024-10-07T2300,2457A,112.6194,26.9258,衡阳市,衡阳化工总厂,细颗粒物(PM2.5),74,61,70,54,61,89,,119,95,8,8,5,6,0.6,0.6
2024-10-07T2300,2458A,112.6211,26.8956,衡阳市,珠晖区环保局,细颗粒物(PM2.5),68,59,67,49,57,87,,117,96,12,13,8,9,0.6,0.7
2024-10-07T2300,2459A,112.6197,26.8733,衡阳市,市委党校,细颗粒物(PM2.5),68,52,68,49,51,91,,124,101,11,13,9,10,0.7,0.7
2024-10-07T2300,2460A,112.6006,26.8919,衡阳市,市监测站,细颗粒物(PM2.5),73,60,67,53,55,97,,122,102,10,12,8,9,0.6,0.7
2024-10-07T2300,2461A,112.5664,26.9056,衡阳市,真空机电公司,细颗粒物(PM2.5),67,54,63,48,52,95,,118,101,10,10,6,6,0.7,0.7
2024-10-07T2300,3399A,112.6703,26.882,衡阳市,师范学院,细颗粒物(PM2.5),70,66,71,51,52,84,,124,99,13,14,8,10,0.6,0.7
2024-10-07T2300,2608A,103.3772,23.3993,红河哈尼族彝族自治州,污水处理厂,细颗粒物(PM2.5),57,,35,40,30,69,,89,78,10,9,7,7,0.5,0.5
2024-10-07T2300,2609A,103.3861,23.35,红河哈尼族彝族自治州,监测站,,48,44,42,33,33,75,,87,79,8,8,8,8,0.5,0.5
2024-10-07T2300,3038A,103.3758,23.368,红河哈尼族彝族自治州,州图书馆,,40,40,38,25,22,74,,86,78,8,7,6,7,0.4,0.4
2024-10-07T2300,1090A,111.6507,40.7517,呼和浩特市,呼市一监,颗粒物(PM10),63,75,32,42,19,14,,88,61,49,18,7,6,0.5,0.5
2024-10-07T2300,1091A,111.6572,40.8033,呼和浩特市,小召,颗粒物(PM10),56,61,32,29,18,21,,80,55,58,23,9,8,0.6,0.4
2024-10-07T2300,1094A,111.7516,40.8369,呼和浩特市,如意水处理厂,颗粒物(PM10),51,52,28,23,15,8,,83,57,62,22,7,8,0.4,0.3
2024-10-07T2300,1095A,111.7276,40.8062,呼和浩特市,二十九中,颗粒物(PM10),61,72,25,27,15,10,,82,,70,23,6,5,0.7,0.5
2024-10-07T2300,1096A,111.5512,40.7866,呼和浩特市,工大金川校区,颗粒物(PM10),57,63,35,23,17,3,,84,56,67,25,3,4,0.6,0.5
2024-10-07T2300,1097A,111.717,40.7612,呼和浩特市,化肥厂生活区,颗粒物(PM10),67,83,31,32,15,4,,85,54,67,23,8,8,0.5,0.4
2024-10-07T2300,3698A,111.5968,40.8178,呼和浩特市,红旗小学,颗粒物(PM10),57,63,34,24,16,7,,82,54,70,27,4,4,0.5,0.4
2024-10-07T2300,3699A,111.6518,40.8389,呼和浩特市,海东办,颗粒物(PM10),62,73,32,29,17,4,,84,52,73,29,6,5,0.8,0.5
2024-10-07T2300,2192A,119.7594,49.2261,呼伦贝尔市,区环保局,,26,26,21,16,16,64,,76,73,15,10,5,5,0.1,0.1
2024-10-07T2300,3061A,119.7512,49.1577,呼伦贝尔市,国华电力东,,20,16,20,9,12,63,,81,74,6,6,2,3,0.3,0.3
2024-10-07T2300,1250A,120.0751,30.8669,湖州市,城西水厂,,46,,10,32,10,59,,90,86,40,19,4,4,0.7,0.7
2024-10-07T2300,2873A,120.0875,30.8955,湖州市,仁皇山新区,,30,23,11,21,11,73,,90,88,12,10,6,6,0.4,0.6
2024-10-07T2300,2907A,120.1844,30.8596,湖州市,吴兴区站,,33,30,12,23,10,59,,85,81,29,10,5,5,0.6,0.7
2024-10-07T2300,3562A,120.4148,30.8538,湖州市,南浔区站,颗粒物(PM10),52,54,12,30,11,70,,76,75,15,12,2,2,0.6,0.6
2024-10-07T2300,1607A,120.9092,40.7136,葫芦岛市,龙港区,细颗粒物(PM2.5),82,85,36,60,21,14,,75,44,67,26,16,17,0.8,0.5
2024-10-07T2300,1608A,120.8392,40.7514,葫芦岛市,化工街,颗粒物(PM10),75,100,45,51,26,8,,73,33,51,24,68,26,0.8,0.4
2024-10-07T2300,1609A,120.8341,40.7073,葫芦岛市,新区,细颗粒物(PM2.5),67,72,35,48,25,6,,75,33,65,27,11,13,0.8,0.5
2024-10-07T2300,1610A,120.8695,40.7677,葫芦岛市,东城区,二氧化硫,81,75,45,46,26,7,,68,30,38,16,367,47,0.6,0.3
2024-10-07T2300,2482A,109.5981,27.5721,怀化市,林科所,,27,15,30,11,20,84,,97,92,12,12,5,6,0.7,0.8
2024-10-07T2300,2483A,109.9453,27.5444,怀化市,河西地税局,,25,24,39,17,27,80,,96,91,11,10,16,11,0.3,0.4
2024-10-07T2300,2484A,109.9781,27.5342,怀化市,市四医院,,29,29,44,17,28,77,,90,84,5,7,8,10,0.5,0.6
2024-10-07T2300,2485A,109.9972,27.5578,怀化市,监测楼,,27,27,41,13,24,80,,96,89,8,10,9,9,0.4,0.5
2024-10-07T2300,2486A,110.0394,27.583,怀化市,市委党校,,29,29,41,19,26,77,,94,87,8,10,9,10,0.4,0.5
2024-10-07T2300,1210A,119.036,33.5981,淮安市,钵池山,细颗粒物(PM2.5),59,56,23,42,20,55,,73,61,23,18,5,4,0.9,0.7
2024-10-07T2300,1211A,119.007,33.575,淮安市,北京南路,颗粒物(PM10),53,56,29,33,18,24,,64,40,41,27,6,6,0.5,0.4
2024-10-07T2300,1212A,118.989,33.6067,淮安市,市监测站,细颗粒物(PM2.5),52,48,20,36,18,26,,66,40,46,28,12,7,0.8,0.6
2024-10-07T2300,1213A,119.135,33.5039,淮安市,楚州区监测站,细颗粒物(PM2.5),55,39,22,39,21,35,,66,44,30,24,6,6,0.6,0.6
2024-10-07T2300,1214A,119.0186,33.6297,淮安市,淮阴区监测站,细颗粒物(PM2.5),53,48,27,37,21,32,,66,43,43,31,7,5,0.6,0.5
2024-10-07T2300,3426A,118.8755,33.2894,淮安市,新华书店,,26,26,18,14,12,77,,89,82,15,19,8,8,0.3,0.3
2024-10-07T2300,2282A,116.8004,33.975,淮北市,监测站,,35,35,20,16,11,63,,88,73,19,15,2,2,0.4,0.3
2024-10-07T2300,2283A,116.8091,33.9007,淮北市,烈山区政府,,46,46,17,19,12,33,,92,65,48,18,6,5,0.2,0.2
2024-10-07T2300,3330A,116.8873,33.9836,淮北市,杜集区检察院,,,41,28,16,14,49,,95,77,25,15,2,2,,0.8
2024-10-07T2300,4017A,116.7923,33.9535,淮北市,市博物馆,,33,33,18,16,11,66,,94,82,21,15,2,5,0.4,0.5
2024-10-07T2300,2277A,116.8305,32.7727,淮南市,潘集区政府,颗粒物(PM10),53,56,16,20,12,40,,99,82,39,15,6,6,0.5,0.4
2024-10-07T2300,2278A,117.0067,32.6524,淮南市,师范学院,,44,44,14,11,9,32,,99,79,41,12,5,5,0.5,0.2
2024-10-07T2300,2279A,116.8569,32.5951,淮南市,谢家集区政府,,29,21,13,20,13,78,,92,80,14,13,6,6,0.2,0.2
2024-10-07T2300,2280A,116.8281,32.633,淮南市,八公山区政府,,30,30,16,20,11,68,,96,84,10,8,6,7,0.2,0.2
2024-10-07T2300,2281A,116.6325,32.6201,淮南市,焦岗湖风景区管理处,,18,18,11,11,10,38,,85,70,12,7,7,7,0.0,0
2024-10-07T2300,2894A,117.0566,32.6531,淮南市,经济技术开发区消防队,,35,35,12,13,7,42,,100,79,33,10,5,4,0.4,0.3
2024-10-07T2300,3329A,117.0108,32.5893,淮南市,山南新区,,36,36,14,19,7,48,,104,80,24,15,2,2,0.5,0.4
2024-10-07T2300,2446A,114.9028,30.4742,黄冈市,职工中心,,40,31,27,28,21,48,,77,60,19,14,11,9,0.4,0.4
2024-10-07T2300,2929A,114.8858,30.4519,黄冈市,红卫路,,29,24,18,20,15,48,,76,63,20,15,9,8,0.6,0.6
2024-10-07T2300,3398A,114.9136,30.4445,黄冈市,市林业局,,38,35,23,26,18,42,,80,61,22,10,14,8,0.5,0.4
2024-10-07T2300,2672A,102.0199,35.5102,黄南藏族自治州,同仁县隆务镇,,41,41,42,23,21,62,,90,79,2,4,9,9,0.5,0.5
2024-10-07T2300,2295A,118.2903,29.6963,黄山市,延安路89号,,23,8,11,3,5,72,,80,80,5,5,6,6,0.3,0.4
2024-10-07T2300,2296A,118.327,29.7178,黄山市,黄山东路89号,,22,,11,3,5,70,,79,78,5,5,4,4,0.3,0.4
2024-10-07T2300,2297A,118.1371,30.2756,黄山市,黄山区政府5号楼,,23,7,8,3,5,73,,74,71,6,9,7,7,0.3,0.5
2024-10-07T2300,2423A,115.0601,30.2313,黄石市,沈家营,,27,27,27,17,13,33,,75,51,17,14,12,7,0.5,0.6
2024-10-07T2300,2424A,115.0817,30.2006,黄石市,陈家湾,,22,,26,15,16,42,,77,56,14,14,8,8,0.4,0.5
2024-10-07T2300,2426A,114.8988,30.2019,黄石市,铁山,,30,24,28,21,18,25,,87,59,34,12,9,9,0.7,0.6
2024-10-07T2300,2427A,115.0307,30.2092,黄石市,团城山,,31,31,30,17,11,40,,69,52,18,16,4,5,0.5,0.7
2024-10-07T2300,3149A,115.0235,30.1578,黄石市,笔架山北路,,29,24,25,20,14,43,,79,57,15,15,4,8,0.4,0.6
2024-10-07T2300,1392A,114.4183,23.0528,惠州市,河南岸金山湖子站,,44,44,36,26,24,116,,123,115,12,10,8,8,0.6,0.5
2024-10-07T2300,1393A,114.4053,23.0822,惠州市,下埔横江三路子站,,45,45,36,31,24,127,,133,126,12,10,6,7,0.7,0.6
2024-10-07T2300,1394A,114.4103,23.1142,惠州市,江北云山西路子站,,42,42,35,23,20,122,,130,122,10,9,8,7,0.5,0.5
2024-10-07T2300,1395A,114.4645,22.7833,惠州市,惠阳区承修路船湖子站,颗粒物(PM10),51,51,42,28,25,101,,113,104,16,16,10,8,0.6,0.6
2024-10-07T2300,1396A,114.5317,22.7422,惠州市,大亚湾管委会子站,,36,36,33,22,21,106,,112,110,10,13,10,9,0.4,0.5
2024-10-07T2300,3314A,114.4338,22.8134,惠州市,惠阳秋长,,36,36,29,25,22,111,,114,110,11,11,8,7,0.5,0.5
2024-10-07T2300,3452A,114.6517,22.775,惠州市,大亚湾霞涌,,28,25,25,19,19,75,,107,97,12,9,6,6,0.7,0.6
2024-10-07T2300,2240A,130.9762,45.3001,鸡西市,环保局,,47,47,27,28,12,26,,60,47,23,10,6,7,0.5,0.3
2024-10-07T2300,3707A,131.0207,45.3073,鸡西市,欧美日汽修厂,细颗粒物(PM2.5),58,64,34,41,17,10,,61,41,42,23,7,7,0.4,0.2
2024-10-07T2300,3709A,130.9967,45.3106,鸡西市,市政设施管理处,颗粒物(PM10),57,64,33,32,15,21,,60,40,35,22,6,7,0.3,0.2
2024-10-07T2300,2367A,114.9754,27.0803,吉安市,红声器材厂,颗粒物(PM10),60,70,52,38,30,78,,142,130,22,19,11,12,0.5,0.6
2024-10-07T2300,2368A,114.9658,27.0999,吉安市,市森林工业局,细颗粒物(PM2.5),59,65,49,42,32,76,,138,127,21,18,11,13,0.7,0.8
2024-10-07T2300,2369A,114.99,27.1312,吉安市,市环境监测站,细颗粒物(PM2.5),55,57,47,39,30,76,,141,129,18,17,15,18,0.5,0.6
2024-10-07T2300,2370A,115.0093,27.0968,吉安市,青原区法院,,48,48,48,28,29,82,,144,133,19,19,15,17,0.6,0.7
2024-10-07T2300,1772A,126.54,43.8622,吉林市,哈达湾,,45,45,41,30,27,32,,81,52,32,25,6,9,0.7,0.7
2024-10-07T2300,1773A,126.5844,43.8358,吉林市,东局子,,40,40,43,27,29,42,,75,46,22,26,5,7,0.6,0.7
2024-10-07T2300,1774A,126.5052,43.8245,吉林市,电力学院,细颗粒物(PM2.5),64,63,50,46,33,10,,72,29,32,24,5,6,0.9,0.8
2024-10-07T2300,1775A,126.6133,43.8972,吉林市,江北,,46,46,53,28,30,41,,72,42,17,26,7,10,0.8,0.9
2024-10-07T2300,1776A,126.555,43.8306,吉林市,江南公园,细颗粒物(PM2.5),57,61,43,40,31,16,,79,43,46,26,6,7,0.8,0.7
2024-10-07T2300,1778A,126.7061,43.7133,吉林市,丰满,,26,21,28,18,27,56,,79,69,5,10,6,7,0.3,0.4
2024-10-07T2300,2868A,126.4739,43.953,吉林市,九站,"颗粒物(PM10),细颗粒物(PM2.5)",57,63,45,40,28,26,,78,38,39,28,7,7,0.7,0.7
2024-10-07T2300,1299A,116.9862,36.6114,济南市,科干所,颗粒物(PM10),54,58,84,27,42,34,,90,73,52,42,5,7,0.8,0.8
2024-10-07T2300,1300A,116.9376,36.665,济南市,农科所,颗粒物(PM10),59,68,92,22,43,13,,84,54,81,50,5,6,0.8,0.8
2024-10-07T2300,1301A,117.1265,36.6734,济南市,开发区,颗粒物(PM10),55,59,77,29,45,17,,85,60,62,44,4,10,0.7,0.7
2024-10-07T2300,1303A,117.0624,36.6868,济南市,省种子仓库,颗粒物(PM10),62,73,91,31,54,12,,89,68,63,31,3,6,0.5,0.5
2024-10-07T2300,1304A,116.9489,36.6447,济南市,机床二厂,颗粒物(PM10),61,71,82,37,41,7,,93,65,86,50,4,5,1.0,0.8
2024-10-07T2300,1305A,117.0495,36.663,济南市,市监测站,颗粒物(PM10),56,61,79,29,52,31,,92,66,55,40,4,7,0.7,0.7
2024-10-07T2300,1306A,116.7675,36.5484,济南市,长清党校,颗粒物(PM10),57,63,79,32,41,15,,102,74,76,46,5,6,0.8,0.7
2024-10-07T2300,1616A,117.6795,36.229,济南市,技术学院,颗粒物(PM10),57,63,64,24,41,53,,90,77,35,28,8,8,0.7,0.7
2024-10-07T2300,1961A,117.532,36.6868,济南市,东山小学,颗粒物(PM10),51,51,69,24,36,31,,93,66,47,39,5,4,0.7,0.6
2024-10-07T2300,3059A,117.7161,36.2049,济南市,泰兴公司,颗粒物(PM10),51,51,54,31,34,28,,86,70,58,36,7,7,0.4,0.5
2024-10-07T2300,3064A,117.6867,36.2171,济南市,莱芜战役纪念馆,颗粒物(PM10),58,66,66,22,35,50,,91,77,53,32,7,6,0.6,0.6
2024-10-07T2300,3494A,117.1673,36.9782,济南市,济阳区政府,"颗粒物(PM10),细颗粒物(PM2.5)",59,68,67,42,38,50,,93,79,30,22,5,3,0.5,0.4
2024-10-07T2300,3495A,117.1171,36.63,济南市,锦屏中学,,34,34,57,22,39,53,,90,73,24,31,4,5,0.5,0.6
2024-10-07T2300,3682A,116.9814,36.6819,济南市,济南四建,颗粒物(PM10),54,58,73,29,43,31,,81,59,59,42,4,5,0.6,0.6
2024-10-07T2300,1653A,116.6251,35.4302,济宁市,火炬城,细颗粒物(PM2.5),73,83,42,53,27,22,,100,70,47,20,8,9,1.0,0.7
2024-10-07T2300,1655A,116.5491,35.4042,济宁市,电化厂,颗粒物(PM10),86,122,66,63,31,22,,99,64,62,26,7,8,1.3,1
2024-10-07T2300,3500A,116.5814,35.3707,济宁市,北湖一中,细颗粒物(PM2.5),83,71,43,61,35,31,,101,70,49,22,6,7,0.7,0.5
2024-10-07T2300,3501A,116.8249,35.5593,济宁市,服务中心,颗粒物(PM10),77,104,49,50,32,11,,94,56,66,26,8,7,0.9,0.7
2024-10-07T2300,3678A,116.5907,35.4054,济宁市,市第七中学,细颗粒物(PM2.5),94,91,45,70,32,36,,98,64,44,22,7,8,0.9,0.7
2024-10-07T2300,2255A,130.2751,46.8028,佳木斯市,佳纺,颗粒物(PM10),58,65,47,37,21,43,,64,37,20,21,3,3,0.5,0.5
2024-10-07T2300,2256A,130.3995,46.8307,佳木斯市,发电厂,,45,39,31,31,19,49,,66,58,22,16,9,6,0.4,0.4
2024-10-07T2300,2257A,130.3258,46.7975,佳木斯市,环保局,颗粒物(PM10),54,57,39,36,21,45,,62,36,22,24,8,8,0.4,0.4
2024-10-07T2300,2258A,130.3648,46.8032,佳木斯市,十一中,"颗粒物(PM10),细颗粒物(PM2.5)",54,57,39,38,21,43,,62,43,34,28,7,8,0.6,0.6
2024-10-07T2300,2259A,130.3794,46.7588,佳木斯市,四丰,,37,37,20,22,12,60,,65,60,10,10,1,1,0.2,0.1
2024-10-07T2300,1252A,120.7436,30.778,嘉兴市,清河小学,,28,28,9,12,5,74,,88,84,19,15,4,4,0.7,0.5
2024-10-07T2300,1253A,120.726,30.7478,嘉兴市,嘉兴学院,,30,,8,21,7,78,,88,86,16,13,3,3,0.4,0.3
2024-10-07T2300,2872A,120.7846,30.7525,嘉兴市,南湖区残联,,29,,10,20,6,84,,93,90,11,8,5,4,0.6,0.3
2024-10-07T2300,3407A,120.6916,30.7739,嘉兴市,秀洲住建,,24,24,7,16,7,74,,88,85,16,12,6,5,0.5,0.4
2024-10-07T2300,1945A,98.2908,39.7711,嘉峪关市,气象局,颗粒物(PM10),53,56,64,19,20,69,,108,95,29,24,2,6,0.2,0.3
2024-10-07T2300,2884A,98.2672,39.7978,嘉峪关市,酒钢宾馆,,41,41,60,14,20,95,,117,109,13,18,5,18,0.4,0.4
2024-10-07T2300,3248A,98.2643,39.7724,嘉峪关市,雄关区,颗粒物(PM10),54,57,52,27,20,75,,105,94,24,30,8,9,1.1,0.5
2024-10-07T2300,1383A,113.1064,22.6058,江门市,北街,细颗粒物(PM2.5),55,56,51,39,32,111,,194,167,20,21,8,7,0.6,0.7
2024-10-07T2300,1384A,113.0731,22.5835,江门市,西区,细颗粒物(PM2.5),62,62,53,44,31,115,,199,168,18,22,8,8,0.5,0.5
2024-10-07T2300,1385A,113.0219,22.5311,江门市,圭峰西,细颗粒物(PM2.5),62,50,47,44,33,121,,197,170,17,22,6,6,0.9,0.9
2024-10-07T2300,1386A,113.0828,22.5947,江门市,东湖,细颗粒物(PM2.5),57,58,52,40,32,109,,193,162,16,20,7,7,0.6,0.5
2024-10-07T2300,3311A,113.1075,22.5647,江门市,江海富民,颗粒物(PM10),57,63,50,33,26,116,,199,173,19,21,9,9,0.6,0.5
2024-10-07T2300,3449A,113.05,22.4667,江门市,新会银湖,细颗粒物(PM2.5),64,62,51,46,36,117,,198,172,17,25,8,7,0.7,0.6
2024-10-07T2300,1828A,113.227,35.2125,焦作市,市环保局,细颗粒物(PM2.5),166,173,113,126,79,71,,130,114,30,26,7,9,0.8,0.6
2024-10-07T2300,1830A,113.1992,35.2590,焦作市,影视城,细颗粒物(PM2.5),115,136,87,87,67,92,,126,118,12,15,5,8,0.8,0.7
2024-10-07T2300,3169A,113.2725,35.2067,焦作市,太极体育中心,细颗粒物(PM2.5),133,193,125,101,64,51,,122,100,42,31,4,7,0.8,0.7
2024-10-07T2300,3335A,113.3137,35.2641,焦作市,马村街道办,细颗粒物(PM2.5),140,143,96,107,71,53,,125,102,37,23,2,6,0.9,0.6
2024-10-07T2300,3336A,113.2465,35.2373,焦作市,焦作技师学院,细颗粒物(PM2.5),153,159,108,117,77,60,,126,107,33,24,2,6,1.0,0.8
2024-10-07T2300,3477A,113.1656,35.2539,焦作市,中站许衡医院,细颗粒物(PM2.5),143,139,92,109,66,60,,125,113,39,24,3,6,1.0,0.9
2024-10-07T2300,3981A,113.2449,35.1803,焦作市,原李万街道办,细颗粒物(PM2.5),162,173,122,123,84,66,,129,106,26,22,7,7,1.0,0.9
2024-10-07T2300,1708A,116.3701,23.5345,揭阳市,新兴,,30,,36,21,24,49,,106,76,12,11,4,6,0.5,0.6
2024-10-07T2300,1709A,116.3264,23.5443,揭阳市,西马,,31,31,37,16,26,48,,96,77,14,8,11,7,0.7,0.7
2024-10-07T2300,1710A,116.3611,23.5626,揭阳市,东兴,,32,22,39,22,21,57,,102,79,10,13,4,6,0.8,0.7
2024-10-07T2300,1711A,116.4151,23.5294,揭阳市,渔湖,,35,35,41,15,19,52,,112,80,13,16,6,8,0.6,0.7
2024-10-07T2300,3320A,116.403,23.5699,揭阳市,曲溪,,32,31,35,22,22,50,,105,74,16,17,2,2,0.5,0.5
2024-10-07T2300,1944A,102.1692,38.5167,金昌市,天庆家园,颗粒物(PM10),52,54,47,30,26,50,,109,87,34,22,13,14,0.9,0.8
2024-10-07T2300,3170A,102.1864,38.5253,金昌市,市委党校,颗粒物(PM10),56,62,56,26,24,94,,111,100,17,18,22,9,0.6,0.7
2024-10-07T2300,4022A,102.1647,38.5371,金昌市,金川区人防中心,颗粒物(PM10),80,109,62,35,26,58,,112,89,48,23,18,10,0.8,0.7
2024-10-07T2300,1262A,119.647,29.077,金华市,十五中,,21,21,26,7,11,64,,60,60,20,26,2,2,0.5,0.6
2024-10-07T2300,1263A,119.686,29.1029,金华市,监测站,,20,9,15,6,9,63,,63,58,18,24,2,2,0.6,0.7
2024-10-07T2300,3659A,119.656,29.1131,金华市,气象局,,17,10,17,3,9,54,,51,50,26,33,3,3,0.4,0.4
2024-10-07T2300,1767A,121.1115,41.0879,锦州市,南山,细颗粒物(PM2.5),107,89,34,80,31,7,,67,33,43,22,14,11,1.5,0.7
2024-10-07T2300,1768A,121.0533,40.8434,锦州市,开发区,颗粒物(PM10),139,228,65,102,35,6,,64,29,62,32,15,12,1.6,0.8
2024-10-07T2300,1769A,121.1836,41.1119,锦州市,百股街道,细颗粒物(PM2.5),52,51,38,36,26,10,,68,31,35,18,12,11,0.9,0.7
2024-10-07T2300,1770A,121.1178,41.1222,锦州市,天安街道,细颗粒物(PM2.5),88,112,39,65,26,10,,68,32,52,23,10,11,1.5,0.6
2024-10-07T2300,1771A,121.1303,41.1386,锦州市,北湖公园,细颗粒物(PM2.5),77,82,34,56,26,8,,72,37,43,21,9,11,1.1,0.6
2024-10-07T2300,2160A,112.85,35.5051,晋城市,自来水公司,细颗粒物(PM2.5),125,138,112,95,80,125,,140,134,23,42,10,12,1.1,1.1
2024-10-07T2300,2161A,112.8318,35.4936,晋城市,白云商贸,细颗粒物(PM2.5),147,134,124,112,83,123,,141,137,25,42,6,8,1.0,1.1
2024-10-07T2300,2162A,112.8508,35.4887,晋城市,市环保局,细颗粒物(PM2.5),117,128,126,88,75,115,,138,130,25,47,6,8,1.1,1.2
2024-10-07T2300,2163A,112.8676,35.4897,晋城市,技术学院,细颗粒物(PM2.5),117,129,115,88,70,112,,136,128,28,46,6,9,1.1,1.1
2024-10-07T2300,2165A,112.8453,35.546,晋城市,白马寺,细颗粒物(PM2.5),103,135,118,77,77,106,,137,126,21,21,10,12,1.1,1.2
2024-10-07T2300,3620A,112.8271,35.4828,晋城市,泽州一中,细颗粒物(PM2.5),147,,121,112,87,103,,135,123,24,41,9,12,1.2,1.2
2024-10-07T2300,2171A,112.7532,37.6945,晋中市,锦纶小区,颗粒物(PM10),60,70,41,31,21,28,,118,81,47,27,6,6,0.6,0.5
2024-10-07T2300,2173A,112.7249,37.7067,晋中市,南都小区,细颗粒物(PM2.5),65,73,43,47,25,47,,118,83,49,31,5,5,0.4,0.3
2024-10-07T2300,2174A,112.6991,37.6982,晋中市,榆次区政府,颗粒物(PM10),58,66,50,36,23,57,,122,86,39,36,6,7,0.4,0.4
2024-10-07T2300,2865A,112.7195,37.6828,晋中市,榆次三中,颗粒物(PM10),57,63,43,31,19,35,,119,85,39,26,7,8,0.6,0.5
2024-10-07T2300,2439A,112.2014,31.0481,荆门市,竹园小学,细颗粒物(PM2.5),77,68,44,56,32,43,,117,90,43,23,12,11,0.6,0.6
2024-10-07T2300,2440A,112.1969,30.9891,荆门市,掇刀,细颗粒物(PM2.5),70,81,41,51,30,62,,128,111,43,20,8,8,0.7,0.5
2024-10-07T2300,2441A,112.2213,31.0386,荆门市,石化一小,颗粒物(PM10),65,80,48,41,38,34,,124,94,55,23,19,16,0.7,0.5
2024-10-07T2300,3012A,112.1849,31.0362,荆门市,西山林语,细颗粒物(PM2.5),75,72,36,55,26,70,,124,109,19,16,7,8,0.5,0.5
2024-10-07T2300,3547A,112.1632,31.0138,荆门市,龙泉中学南校,颗粒物(PM10),56,61,32,38,20,96,,128,119,24,19,9,6,0.5,0.6
2024-10-07T2300,1844A,112.2494,30.3197,荆州市,市图书馆,,50,50,30,27,22,34,,113,91,53,21,9,9,0.9,0.6
2024-10-07T2300,1845A,112.2008,30.3544,荆州市,市委党校,,40,37,30,28,26,37,,112,88,45,19,6,7,0.7,0.5
2024-10-07T2300,3194A,112.2747,30.3122,荆州市,管委会,,38,38,27,24,23,22,,113,89,57,20,8,8,0.9,0.6
2024-10-07T2300,3548A,112.1655,30.3364,荆州市,学苑路,,48,48,32,31,25,48,,120,106,40,18,6,8,0.6,0.5
2024-10-07T2300,2343A,117.2117,29.2933,景德镇市,老干部活动中心,,19,,7,3,3,60,,66,63,6,5,7,7,0.3,0.3
2024-10-07T2300,2344A,117.1894,29.2789,景德镇市,兽医站,,21,15,11,3,4,66,,72,70,4,5,5,6,0.3,0.3
2024-10-07T2300,2345A,117.1547,29.2617,景德镇市,台达陶瓷,,20,6,11,3,5,62,,67,65,4,10,6,9,0.4,0.4
2024-10-07T2300,2346A,117.2461,29.2956,景德镇市,陶研所,,20,7,8,3,4,64,,71,67,10,8,6,6,0.3,0.3
2024-10-07T2300,1803A,115.9872,29.6815,九江市,十里,,20,10,15,3,6,61,,84,74,15,12,8,8,0.5,0.5
2024-10-07T2300,1804A,115.9584,29.7046,九江市,茅山头,,17,6,15,6,9,53,,76,67,13,12,11,9,0.6,0.5
2024-10-07T2300,1805A,115.9877,29.7295,九江市,西园,,20,6,10,3,8,62,,83,75,13,12,8,8,0.3,0.3
2024-10-07T2300,1806A,116.0172,29.6547,九江市,五七二七厂,,18,,11,10,11,57,,79,70,10,11,7,8,0.5,0.5
2024-10-07T2300,1808A,115.9114,29.6038,九江市,综合工业园,,18,6,12,3,8,57,,85,74,16,14,7,7,0.3,0.3
2024-10-07T2300,1809A,116.0721,29.7535,九江市,石化总厂,,17,,16,3,12,54,,79,69,11,10,7,8,0.5,0.5
2024-10-07T2300,1810A,115.9773,29.5698,九江市,庐山气象台,,30,9,11,3,10,95,,99,85,2,4,6,7,0.4,0.6
2024-10-07T2300,3190A,116.0254,29.6994,九江市,外国语学校,,17,12,14,3,7,54,,73,64,12,13,1,7,0.1,0.1
2024-10-07T2300,2658A,98.5061,39.7443,酒泉市,仓门街子站,颗粒物(PM10),51,51,49,34,21,68,,109,96,16,14,3,7,0.4,0.3
2024-10-07T2300,2659A,98.4989,39.7256,酒泉市,油田生活基地,颗粒物(PM10),69,88,55,34,23,30,,106,90,56,17,4,14,0.4,0.2
2024-10-07T2300,2698A,76.0072,39.4467,喀什地区,巡警大队,颗粒物(PM10),127,203,130,68,26,0,,71,63,97,37,7,4,1.7,0.6
2024-10-07T2300,2699A,75.9755,39.4694,喀什地区,吾办,颗粒物(PM10),101,152,119,48,35,9,,70,65,70,31,3,3,1.3,0.7
2024-10-07T2300,4027A,75.9483,39.4689,喀什地区,老干局,颗粒物(PM10),118,185,121,40,21,17,,70,65,64,31,4,4,1.1,0.6
2024-10-07T2300,1824A,114.3389,34.7781,开封市,肿瘤医院,细颗粒物(PM2.5),206,181,141,156,129,55,,108,92,32,26,3,4,0.9,0.8
2024-10-07T2300,1826A,114.2885,34.7965,开封市,世纪星幼儿园,细颗粒物(PM2.5),94,131,128,70,66,24,,105,81,54,36,1,3,0.9,0.8
2024-10-07T2300,3147A,114.3438,34.8106,开封市,龙亭公园,细颗粒物(PM2.5),109,161,131,82,80,42,,101,80,42,32,2,4,0.9,0.8
2024-10-07T2300,3210A,114.3644,34.7964,开封市,汴京公园,细颗粒物(PM2.5),168,170,150,127,116,16,,94,66,38,28,3,4,1.0,0.8
2024-10-07T2300,3473A,114.2485,34.8306,开封市,技师学院,颗粒物(PM10),110,170,135,70,64,17,,100,78,65,32,3,6,1.1,1
2024-10-07T2300,3592A,114.4644,34.7556,开封市,祥符区生态环境局,细颗粒物(PM2.5),148,,132,113,84,41,,96,81,34,33,8,9,0.9,0.9
2024-10-07T2300,1951A,84.895,45.6094,克拉玛依市,长征新村,,44,44,54,3,9,88,,93,58,5,23,6,7,0.2,0.3
2024-10-07T2300,1952A,84.8988,45.5893,克拉玛依市,南林小区,细颗粒物(PM2.5),52,42,51,36,23,82,,93,58,17,30,4,3,0.1,0.1
2024-10-07T2300,1954A,84.905,44.3396,克拉玛依市,独山子区,,41,41,34,19,13,54,,111,83,29,17,8,9,0.6,0.4
2024-10-07T2300,1955A,85.6979,46.098,克拉玛依市,乌尔禾区商贸楼,,32,26,46,3,7,101,,90,90,2,14,5,5,0.2,0.3
2024-10-07T2300,3612A,85.1045,45.6899,克拉玛依市,白碱滩区新站,,27,27,50,14,11,82,,96,74,14,25,8,8,0.2,0.3
2024-10-07T2300,2697A,76.1454,39.7142,克孜勒苏柯尔克孜自治州,市人民政府,颗粒物(PM10),107,164,101,47,34,13,,97,76,77,15,4,9,0.6,0.3
2024-10-07T2300,3665A,76.1658,39.7157,克孜勒苏柯尔克孜自治州,克州文化中心,颗粒物(PM10),96,141,94,52,36,38,,97,76,62,17,6,11,0.5,0.3
2024-10-07T2300,1450A,102.8204,24.8886,昆明市,呈贡新区,,48,48,47,30,28,28,,50,31,14,20,6,6,0.8,0.7
2024-10-07T2300,1452A,102.7252,25.0902,昆明市,龙泉镇,,22,22,22,14,11,29,,40,33,14,15,6,7,0.8,0.7
2024-10-07T2300,1453A,102.7266,25.0375,昆明市,东风东路,,31,31,30,18,17,27,,46,24,14,16,5,6,0.6,0.6
2024-10-07T2300,1454A,102.6742,25.0669,昆明市,金鼎山,,24,24,24,12,11,30,,54,36,16,13,1,2,0.7,0.6
2024-10-07T2300,1455A,102.6644,25.0401,昆明市,碧鸡广场,,33,33,28,23,19,24,,54,28,19,15,6,6,0.5,0.4
2024-10-07T2300,3179A,102.7494,25.0119,昆明市,官渡区博物馆,,25,25,32,16,19,20,,46,26,26,22,6,6,0.7,0.6
2024-10-07T2300,3375A,102.8017,24.8336,昆明市,青年创业园,,38,35,36,26,25,26,,64,32,16,12,4,4,0.8,0.6
2024-10-07T2300,3550A,102.7997,24.9786,昆明市,昆明学院,,35,35,35,20,22,15,,52,20,32,24,6,6,0.7,0.6
2024-10-07T2300,3551A,102.5967,24.6736,昆明市,晋宁区生态环境分局,颗粒物(PM10),53,55,33,34,28,45,,62,36,19,18,1,2,0.9,0.9
2024-10-07T2300,3552A,102.6678,24.9856,昆明市,云天化总部,,36,35,30,25,21,31,,63,29,19,17,5,5,0.4,0.4
2024-10-07T2300,1456A,91.1319,29.6514,拉萨市,八廓街,,31,31,19,13,9,70,,127,109,38,22,7,8,0.4,0.3
2024-10-07T2300,1457A,91.1221,29.6747,拉萨市,市环保局,,31,31,18,18,8,63,,128,102,31,20,6,7,0.4,0.3
2024-10-07T2300,1458A,91.0874,29.6475,拉萨市,区监测站,,44,37,15,20,8,20,,121,89,87,26,6,6,0.7,0.4
2024-10-07T2300,1459A,91.1774,29.6541,拉萨市,西藏大学,,25,25,13,10,8,77,,124,113,28,14,5,9,0.3,0.3
2024-10-07T2300,1460A,90.9798,29.6588,拉萨市,区辐射站,,25,6,17,6,9,78,,116,106,29,23,10,9,0.3,0.2
2024-10-07T2300,1461A,91.0834,29.6292,拉萨市,拉萨火车站,,30,11,12,8,10,95,,120,113,10,11,5,5,0.3,0.3
2024-10-07T2300,2520A,109.2203,23.7256,来宾市,来宾技工学校,细颗粒物(PM2.5),53,53,56,37,38,110,,152,137,10,12,8,10,0.7,0.8
2024-10-07T2300,3535A,109.1781,23.7297,来宾市,兴宾区政府,细颗粒物(PM2.5),57,59,50,40,36,119,,155,143,8,8,9,9,0.6,0.6
2024-10-07T2300,4002A,109.2416,23.7461,来宾市,中南小学,细颗粒物(PM2.5),54,49,60,38,38,115,,162,142,8,10,11,11,0.8,0.8
2024-10-07T2300,1476A,103.631,36.1031,兰州市,兰炼宾馆,颗粒物(PM10),75,99,67,50,37,8,,110,76,88,35,8,9,1.0,0.6
2024-10-07T2300,1478A,103.8412,36.0726,兰州市,生物制品所,颗粒物(PM10),66,81,61,45,33,3,,95,64,78,39,8,11,0.6,0.5
2024-10-07T2300,1479A,103.831,36.0464,兰州市,铁路设计院,细颗粒物(PM2.5),72,86,65,52,38,4,,88,44,84,51,7,8,1.0,0.7
2024-10-07T2300,3186A,103.7158,36.1058,兰州市,教育港,颗粒物(PM10),74,98,69,49,39,2,,103,66,83,36,9,9,1.1,0.6
2024-10-07T2300,3241A,103.7439,36.0842,兰州市,百合公园,细颗粒物(PM2.5),65,73,60,47,32,5,,104,65,77,35,8,9,0.9,0.6
2024-10-07T2300,3242A,103.9611,35.998,兰州市,和平,颗粒物(PM10),59,68,72,35,40,43,,100,76,33,26,9,11,0.6,0.6
2024-10-07T2300,3245A,103.6633,36.533,兰州新区,新区管委会,细颗粒物(PM2.5),68,74,54,49,29,39,,116,94,38,19,31,15,0.7,0.5
2024-10-07T2300,3246A,103.6975,36.4789,兰州新区,舟曲中学,颗粒物(PM10),61,71,55,35,28,40,,118,95,55,21,10,21,0.5,0.5
2024-10-07T2300,1067A,116.6708,39.5111,廊坊市,药材公司,,42,36,31,29,20,28,,65,49,36,26,2,4,0.4,0.5
2024-10-07T2300,1068A,116.7214,39.5589,廊坊市,开发区,,30,30,30,15,14,24,,69,43,36,27,1,2,0.4,0.4
2024-10-07T2300,1070A,116.7244,39.5269,廊坊市,北华航天学院,,41,41,34,10,14,43,,69,51,33,26,3,3,0.3,0.4
2024-10-07T2300,2919A,116.7022,39.5453,廊坊市,河北工业大学,,39,39,30,26,18,54,,71,59,28,27,3,3,0.2,0.4
2024-10-07T2300,2535A,103.7723,29.5462,乐山市,花湖湾,细颗粒物(PM2.5),55,56,41,39,28,49,,80,74,19,17,3,2,0.8,0.8
2024-10-07T2300,2536A,103.7627,29.5844,乐山市,牛耳桥,细颗粒物(PM2.5),55,47,40,39,32,18,,75,49,37,24,4,5,0.6,0.5
2024-10-07T2300,2537A,103.7508,29.6006,乐山市,市第三水厂,细颗粒物(PM2.5),77,58,46,56,40,6,,79,54,45,22,4,5,0.8,0.7
2024-10-07T2300,2538A,103.7571,29.5664,乐山市,市监测站,,,44,44,,29,23,,75,55,36,20,3,4,0.7,0.6
2024-10-07T2300,3361A,103.7311,29.5628,乐山市,理工大学,,43,37,42,30,33,10,,80,51,39,19,2,3,0.7,0.6
2024-10-07T2300,2599A,100.2497,26.8802,丽江市,丽江古城,,19,,18,13,13,31,,51,43,13,10,8,9,0.6,0.6
2024-10-07T2300,2600A,100.2203,26.8906,丽江市,市中心,,15,,12,10,8,32,,52,44,11,9,6,6,0.6,0.5
2024-10-07T2300,1267A,119.914,28.4514,丽水市,监测站大楼,,22,10,11,6,7,69,,72,71,13,17,6,6,0.6,0.6
2024-10-07T2300,1268A,119.93,28.4586,丽水市,莲都小学,,24,11,11,3,5,74,,80,78,15,15,4,4,0.6,0.5
2024-10-07T2300,1269A,119.879,28.4231,丽水市,余庄前,,22,22,14,8,5,19,,52,31,9,12,4,4,0.6,0.5
2024-10-07T2300,1173A,119.176,34.5885,连云港市,市环境监测站,颗粒物(PM10),60,70,52,41,38,42,,85,70,36,26,8,10,0.5,0.5
2024-10-07T2300,3000A,119.3581,34.6972,连云港市,德源药业,,44,44,48,22,32,47,,80,49,38,32,7,7,0.4,0.4
2024-10-07T2300,3007A,119.178,34.844,连云港市,新城一中,颗粒物(PM10),59,67,58,29,27,35,,92,72,36,24,11,8,0.9,0.7
2024-10-07T2300,3008A,119.3608,34.7519,连云港市,胡沟管理处,,31,31,38,14,30,71,,99,91,13,17,2,3,0.3,0.4
2024-10-07T2300,3009A,119.1478,34.5911,连云港市,矿山设计院,细颗粒物(PM2.5),67,68,53,48,40,32,,81,59,41,30,7,8,0.8,0.7
2024-10-07T2300,3434A,119.2413,34.6539,连云港市,工贸学校,,49,49,38,34,27,27,,82,63,31,22,7,10,0.8,0.7
2024-10-07T2300,3664A,119.4172,34.7341,连云港市,连云街道,,22,22,33,11,19,68,,87,71,19,21,6,8,0.3,0.6
2024-10-07T2300,2571A,102.3431,27.8099,凉山彝族自治州,青龙寺,,9,9,9,3,3,20,,38,19,4,5,6,6,0.7,0.7
2024-10-07T2300,2572A,102.2721,27.8415,凉山彝族自治州,邛海宾馆,,14,14,11,7,5,32,,48,27,7,11,9,8,0.6,0.6
2024-10-07T2300,2573A,102.2625,27.898,凉山彝族自治州,西昌市政府,,18,15,8,12,5,32,,52,42,9,8,6,7,0.6,0.6
2024-10-07T2300,2574A,102.2685,27.8851,凉山彝族自治州,凉山州政府,,10,7,8,7,6,32,,53,45,12,9,6,6,0.9,0.8
2024-10-07T2300,2575A,102.237,27.8914,凉山彝族自治州,长安,,12,12,9,8,6,26,,48,39,9,9,9,9,0.8,0.8
2024-10-07T2300,2212A,123.2,41.1953,辽阳市,宏伟区,,46,46,31,27,21,20,,71,44,26,18,6,6,0.6,0.5
2024-10-07T2300,2213A,123.1683,41.2495,辽阳市,新华园,颗粒物(PM10),75,99,37,36,20,6,,67,42,50,22,9,10,1.0,0.7
2024-10-07T2300,2214A,123.2354,41.2639,辽阳市,滨河路,颗粒物(PM10),57,64,31,39,22,6,,67,39,37,18,10,11,0.8,0.7
2024-10-07T2300,2215A,123.149,41.2991,辽阳市,铁西工业园,"颗粒物(PM10),细颗粒物(PM2.5)",78,105,44,57,24,4,,63,28,42,19,12,13,0.9,0.6
2024-10-07T2300,2227A,125.1358,42.8845,辽源市,环保局,细颗粒物(PM2.5),55,57,32,39,21,8,,76,35,27,18,8,10,0.9,0.6
2024-10-07T2300,3239A,125.0764,42.9078,辽源市,银鹰制药,颗粒物(PM10),55,59,32,27,18,5,,72,29,36,20,6,4,0.8,0.6
2024-10-07T2300,1625A,115.9848,36.4372,聊城市,区政府,颗粒物(PM10),58,66,110,33,59,24,,94,76,56,34,8,10,0.7,0.6
2024-10-07T2300,2878A,116.0072,36.4343,聊城市,聊大东校,颗粒物(PM10),63,75,104,41,63,28,,99,76,60,35,7,9,0.7,0.7
2024-10-07T2300,3200A,115.9819,36.4978,聊城市,监控中心,颗粒物(PM10),57,64,96,36,60,17,,92,63,78,35,8,8,0.7,0.7
2024-10-07T2300,3513A,116.0445,36.4361,聊城市,九州社区,颗粒物(PM10),65,79,105,45,58,37,,93,79,47,38,7,7,0.5,0.5
2024-10-07T2300,4018A,116.0567,36.4608,聊城市,星美广场,颗粒物(PM10),71,91,98,42,55,55,,97,71,37,31,8,9,0.5,0.6
2024-10-07T2300,2632A,94.3681,29.6376,林芝市,林芝监测站,,15,6,3,3,2,46,,65,62,3,2,10,10,0.2,0.2
2024-10-07T2300,2633A,94.3616,29.6616,林芝市,林芝人民医院,,14,8,6,3,3,42,,67,63,9,6,6,5,0.3,0.3
2024-10-07T2300,2603A,100.0781,23.8982,临沧市,市环保局,,26,26,21,13,13,20,,46,32,9,9,8,6,0.6,0.5
2024-10-07T2300,2604A,100.0894,23.8822,临沧市,市气象局,,23,18,23,16,17,22,,48,33,6,9,3,4,0.6,0.6
2024-10-07T2300,1733A,111.5531,36.0783,临汾市,临钢医院,细颗粒物(PM2.5),132,167,103,100,59,32,,139,108,64,34,6,11,1.3,1.1
2024-10-07T2300,1734A,111.5028,36.0714,临汾市,技工学校,细颗粒物(PM2.5),150,155,101,115,66,80,,152,126,54,47,13,12,1.5,1.1
2024-10-07T2300,1736A,111.5018,36.0855,临汾市,市委,细颗粒物(PM2.5),138,158,102,105,59,88,,163,136,36,32,14,12,1.4,1
2024-10-07T2300,3018A,111.505,36.1014,临汾市,唐尧大酒店,细颗粒物(PM2.5),78,102,97,57,60,57,,151,125,42,35,8,11,1.0,1
2024-10-07T2300,3668A,111.5036,36.0414,临汾市,城南,细颗粒物(PM2.5),159,195,124,121,74,45,,154,106,55,42,10,11,1.3,1.1
2024-10-07T2300,2667A,103.2069,35.5993,临夏回族自治州,环保局,颗粒物(PM10),65,80,53,27,21,26,,66,,44,17,4,8,0.9,0.6
2024-10-07T2300,2668A,103.2417,35.6057,临夏回族自治州,建设大厦,颗粒物(PM10),62,73,52,34,27,22,,101,72,45,24,1,2,0.9,0.6
2024-10-07T2300,1618A,118.3429,35.0532,临沂市,沂河小区,颗粒物(PM10),86,122,68,50,30,13,,89,52,68,28,10,9,0.7,0.5
2024-10-07T2300,1619A,118.295,35.0583,临沂市,鲁南制药厂,颗粒物(PM10),91,132,74,52,30,6,,89,43,74,37,8,8,0.8,0.7
2024-10-07T2300,1620A,118.2794,34.9976,临沂市,新光毛纺厂,细颗粒物(PM2.5),84,95,62,62,35,6,,82,36,73,45,6,6,1.3,0.8
2024-10-07T2300,1621A,118.3956,35.0888,临沂市,河东保险公司,细颗粒物(PM2.5),82,95,53,60,34,15,,95,61,76,34,7,8,1.0,0.9
2024-10-07T2300,3370A,118.3564,35.0215,临沂市,十里堡居委,细颗粒物(PM2.5),100,107,53,75,37,9,,92,52,75,33,6,6,1.1,0.8
2024-10-07T2300,3496A,118.3604,35.1084,临沂市,南坊新区,细颗粒物(PM2.5),92,110,63,68,38,4,,89,49,76,35,9,9,0.9,0.7
2024-10-07T2300,3860A,118.3920,35.0300,临沂市,皇山花园小区,细颗粒物(PM2.5),95,117,54,71,39,9,,92,56,87,32,9,8,1.1,0.8
2024-10-07T2300,1870A,109.4856,24.3895,柳州市,柳东小学,细颗粒物(PM2.5),54,50,54,38,40,106,,145,132,9,7,9,10,0.6,0.7
2024-10-07T2300,1871A,109.4157,24.3277,柳州市,环保监测站,颗粒物(PM10),54,57,61,37,43,103,,147,131,13,10,10,11,0.8,0.8
2024-10-07T2300,1872A,109.389,24.341,柳州市,河西水厂,颗粒物(PM10),60,70,75,39,44,76,,144,124,35,24,30,26,2.8,1.9
2024-10-07T2300,1873A,109.4311,24.2921,柳州市,市四中,细颗粒物(PM2.5),52,42,55,36,38,112,,156,140,10,9,8,9,0.8,0.9
2024-10-07T2300,1874A,109.4006,24.3631,柳州市,市九中,细颗粒物(PM2.5),53,47,64,37,42,101,,147,129,14,13,8,9,1.0,1.1
2024-10-07T2300,1875A,109.4958,24.3134,柳州市,古亭山,细颗粒物(PM2.5),53,47,54,37,40,115,,153,139,10,10,9,10,0.8,0.9
2024-10-07T2300,3402A,109.5422,24.3996,柳州市,市二中,细颗粒物(PM2.5),58,47,54,41,39,109,,151,135,12,12,10,10,0.7,0.7
2024-10-07T2300,2307A,116.5079,31.737,六安市,监测大楼,,17,,12,11,10,34,,80,73,34,10,4,4,0.4,0.3
2024-10-07T2300,2308A,116.4738,31.7643,六安市,皖西学院,,20,16,12,14,10,58,,84,80,16,10,4,4,0.4,0.4
2024-10-07T2300,2309A,116.4996,31.7905,六安市,朝阳厂,,23,16,7,16,10,50,,80,73,16,9,3,3,0.3,0.3
2024-10-07T2300,2310A,116.5567,31.7886,六安市,开发区,,14,14,13,6,9,29,,83,74,28,9,3,3,0.4,0.4
2024-10-07T2300,2577A,104.83,26.5917,六盘水市,黄土坡,,28,28,15,15,11,58,,63,62,8,9,7,9,0.3,0.4
2024-10-07T2300,2578A,104.89,26.5939,六盘水市,水钢,,27,27,22,17,10,64,,63,63,8,17,5,7,0.2,0.3
2024-10-07T2300,2579A,104.8475,26.5894,六盘水市,民中,,25,23,15,17,8,49,,58,56,18,12,7,8,0.3,0.4
2024-10-07T2300,2580A,104.9544,26.5506,六盘水市,双水,,24,24,19,9,8,69,,66,66,3,9,6,9,0.4,0.4
2024-10-07T2300,2336A,117.0217,25.1033,龙岩市,龙岩市监测站,,16,8,18,6,12,49,,67,49,10,12,14,7,0.5,0.6
2024-10-07T2300,2337A,117.0258,25.0661,龙岩市,闽西职业技术学院,,17,11,26,7,16,53,,68,53,4,11,7,7,0.6,0.6
2024-10-07T2300,2338A,117.0196,25.0306,龙岩市,龙岩学院,,13,12,22,9,17,41,,70,50,9,10,3,4,0.5,0.5
2024-10-07T2300,2885A,104.9339,33.3826,陇南市,滨江中学,,44,44,45,20,24,69,,84,76,8,10,8,10,0.5,0.5
2024-10-07T2300,3247A,104.955,33.371,陇南市,市总工会,,37,37,46,6,18,74,,86,80,5,10,3,5,0.4,0.4
2024-10-07T2300,2487A,111.9589,27.8901,娄底市,电视发射台,,32,25,34,19,29,102,,108,108,5,7,6,6,0.3,0.3
2024-10-07T2300,2488A,111.9975,27.725,娄底市,市监测站,,33,33,40,19,32,105,,110,108,12,8,7,6,0.3,0.4
2024-10-07T2300,2489A,112.0194,27.7314,娄底市,市委党校,,39,39,44,26,32,102,,102,102,9,9,5,5,0.4,0.5
2024-10-07T2300,2490A,111.9561,27.7569,娄底市,涟钢,,33,31,46,23,34,105,,98,98,6,11,5,6,0.9,1.1
2024-10-07T2300,2491A,111.9892,27.7044,娄底市,市政府,,35,30,43,24,32,107,,108,107,8,11,4,6,0.4,0.5
2024-10-07T2300,1893A,105.4324,28.9634,泸州市,九狮山,颗粒物(PM10),52,53,42,33,29,47,,73,64,23,21,4,4,0.5,0.5
2024-10-07T2300,1894A,105.4427,28.9063,泸州市,小市上码头,颗粒物(PM10),57,64,51,39,32,73,,88,82,12,16,3,4,0.6,0.6
2024-10-07T2300,1895A,105.4241,28.8573,泸州市,兰田宪桥,细颗粒物(PM2.5),67,55,41,48,33,60,,91,82,20,13,3,3,0.5,0.5
2024-10-07T2300,1896A,105.4379,28.8833,泸州市,市环监站,细颗粒物(PM2.5),69,65,50,50,38,61,,86,76,15,15,3,3,0.6,0.6
2024-10-07T2300,3490A,105.3617,28.7703,泸州市,纳溪区环保局,细颗粒物(PM2.5),57,58,41,40,31,61,,84,74,17,18,6,6,0.5,0.5
2024-10-07T2300,2183A,111.1406,37.5211,吕梁市,环保局,,49,49,50,13,19,25,,90,55,33,25,3,3,0.4,0.5
2024-10-07T2300,2185A,111.1297,37.5136,吕梁市,自来水公司,颗粒物(PM10),60,70,44,12,16,25,,89,64,32,22,2,5,0.4,0.4
2024-10-07T2300,2867A,111.1283,37.51,吕梁市,马茂庄小学,颗粒物(PM10),52,54,56,9,17,22,,91,52,42,29,1,5,0.3,0.4
2024-10-07T2300,1812A,112.3931,34.6516,洛阳市,市委党校,细颗粒物(PM2.5),114,93,98,86,87,68,,123,110,35,41,7,14,0.9,0.9
2024-10-07T2300,1814A,112.4657,34.6871,洛阳市,豫西宾馆,细颗粒物(PM2.5),123,107,109,93,82,65,,101,96,32,38,11,15,1.1,1
2024-10-07T2300,1815A,112.494,34.6886,洛阳市,河南林校,细颗粒物(PM2.5),132,116,108,100,93,62,,113,100,33,39,2,7,0.8,0.8
2024-10-07T2300,1816A,112.3844,34.623,洛阳市,开发区管委会,细颗粒物(PM2.5),124,118,127,94,98,77,,136,121,,32,3,8,0.7,0.7
2024-10-07T2300,1817A,112.4267,34.6258,洛阳市,市委新办公区,细颗粒物(PM2.5),125,128,124,95,87,68,,122,106,30,30,2,7,0.7,0.6
2024-10-07T2300,3340A,112.6005,34.6326,洛阳市,伊滨,细颗粒物(PM2.5),105,,102,79,85,21,,123,95,39,33,7,10,1.0,0.8
2024-10-07T2300,3341A,112.4951,34.6332,洛阳市,中移产业园,细颗粒物(PM2.5),114,116,110,86,86,59,,132,108,39,34,2,7,0.9,0.9
2024-10-07T2300,3593A,112.5736,34.8993,洛阳市,吉利监测站,细颗粒物(PM2.5),113,96,102,85,68,49,,112,94,42,47,6,9,0.7,0.7
2024-10-07T2300,3635A,112.3677,34.662,洛阳市,河科大西苑校区,细颗粒物(PM2.5),107,116,118,80,83,17,,129,108,74,45,5,11,1.0,0.9
2024-10-07T2300,3636A,112.4388,34.6781,洛阳市,英才小学,细颗粒物(PM2.5),93,131,131,69,68,85,,123,111,27,42,4,9,0.9,0.8
2024-10-07T2300,2399A,114.051,33.5699,漯河市,三五一五工厂,细颗粒物(PM2.5),208,274,143,158,84,54,,153,119,35,24,7,8,1.0,0.7
2024-10-07T2300,2400A,114.0055,33.5698,漯河市,漯河大学,细颗粒物(PM2.5),211,243,131,161,94,54,,156,122,32,22,14,7,1.1,0.8
2024-10-07T2300,2401A,114.0138,33.5828,漯河市,市水利局,细颗粒物(PM2.5),213,276,142,163,93,44,,150,112,40,21,10,8,1.3,1
2024-10-07T2300,2402A,114.0261,33.5698,漯河市,市广电局,细颗粒物(PM2.5),209,237,130,159,96,71,,156,124,25,20,10,9,1.1,0.8
2024-10-07T2300,3478A,113.9749,33.5664,漯河市,市图书馆,细颗粒物(PM2.5),201,234,127,151,86,69,,163,131,29,20,25,16,0.9,0.6
2024-10-07T2300,3479A,114.0967,33.5906,漯河市,召陵区卫健委,细颗粒物(PM2.5),254,,126,204,103,33,,150,106,50,26,5,9,0.9,0.6
2024-10-07T2300,1798A,118.5092,31.6837,马鞍山市,湖东路四小,,38,31,11,26,10,54,,93,83,28,17,9,7,0.8,0.6
2024-10-07T2300,1799A,118.5024,31.6449,马鞍山市,开发区,,39,,11,27,8,53,,90,82,30,21,8,6,0.9,0.6
2024-10-07T2300,1800A,118.5228,31.7231,马鞍山市,慈湖,,24,24,14,15,8,61,,88,71,19,19,8,8,0.7,0.7
2024-10-07T2300,1802A,118.6245,31.7241,马鞍山市,濮塘,,33,,11,23,9,46,,91,78,4,3,9,8,0.9,0.9
2024-10-07T2300,3633A,118.4918,31.6809,马鞍山市,雨山,,30,24,10,21,8,45,,90,79,34,20,8,6,0.9,0.8
2024-10-07T2300,1686A,111.0286,21.4688,茂名市,电白南海,臭氧1小时,57,61,55,27,28,165,,175,175,17,14,11,16,0.8,0.8
2024-10-07T2300,1687A,110.9294,21.6533,茂名市,茂石化七小,细颗粒物(PM2.5),55,58,47,39,29,128,,128,128,14,13,13,19,0.7,0.7
2024-10-07T2300,1688A,110.9107,21.6687,茂名市,健康路,颗粒物(PM10),57,63,44,36,28,124,,132,131,15,11,26,22,0.8,0.7
2024-10-07T2300,1689A,110.8592,21.6828,茂名市,高岭,细颗粒物(PM2.5),55,56,56,39,32,123,,133,130,23,15,20,18,0.8,0.8
2024-10-07T2300,3450A,111.01,21.5165,茂名市,电白水东,,50,44,40,34,27,157,,160,160,7,11,8,12,0.8,0.7
2024-10-07T2300,2539A,104.0308,30.0478,眉山市,黑龙滩水库,,33,33,37,23,27,37,,96,81,6,5,4,4,0.5,0.5
2024-10-07T2300,2540A,103.8416,30.0874,眉山市,气象局,,40,40,30,27,28,14,,79,64,44,20,6,6,0.6,0.5
2024-10-07T2300,3137A,103.8578,30.0744,眉山市,市委党校,,39,39,33,24,23,40,,81,68,36,22,8,8,0.6,0.5
2024-10-07T2300,3148A,103.8291,30.0564,眉山市,区人社局,,39,36,40,27,26,47,,78,67,28,22,6,6,0.6,0.6
2024-10-07T2300,1690A,116.1231,24.3284,梅州市,梅江月梅,,27,27,29,17,21,31,,84,58,28,14,9,8,0.7,0.6
2024-10-07T2300,1691A,116.0797,24.2719,梅州市,梅县新城,,31,31,28,8,20,57,,82,67,18,14,6,5,0.6,0.6
2024-10-07T2300,1692A,116.1248,24.2654,梅州市,环境监控中心,,42,42,33,8,21,32,,85,61,34,20,6,6,0.6,0.6
2024-10-07T2300,3315A,116.1233,24.2991,梅州市,梅龙,,31,31,26,19,21,40,,84,60,23,15,11,10,0.7,0.6
2024-10-07T2300,1878A,104.7778,31.4741,绵阳市,富乐山,,38,34,42,26,38,46,,88,72,18,16,2,2,0.5,0.5
2024-10-07T2300,1879A,104.7563,31.4535,绵阳市,市人大,,46,46,52,31,35,51,,92,77,25,18,9,11,0.5,0.6
2024-10-07T2300,1880A,104.6697,31.4668,绵阳市,高新区自来水公司,细颗粒物(PM2.5),67,81,55,48,30,35,,92,70,27,20,6,3,0.6,0.5
2024-10-07T2300,1881A,104.7287,31.5075,绵阳市,三水厂,颗粒物(PM10),56,62,48,25,43,10,,79,44,55,27,6,6,0.7,0.5
2024-10-07T2300,3491A,104.69,31.5322,绵阳市,西科大附属小学,细颗粒物(PM2.5),59,51,44,42,33,10,,88,61,63,28,4,4,0.6,0.5
2024-10-07T2300,3492A,104.5648,31.5343,绵阳市,安州区旅游局,细颗粒物(PM2.5),98,81,52,73,51,41,,95,,32,18,10,8,0.7,0.6
2024-10-07T2300,1784A,129.61,44.561,牡丹江市,环保大楼,,36,36,25,21,16,36,,69,52,13,12,6,6,0.4,0.3
2024-10-07T2300,1785A,129.6115,44.5782,牡丹江市,文化广场,,43,38,29,30,19,32,,65,51,18,15,8,8,0.4,0.4
2024-10-07T2300,1786A,129.5904,44.5963,牡丹江市,第一医院,细颗粒物(PM2.5),58,46,28,41,28,25,,71,54,25,13,6,7,0.5,0.3
2024-10-07T2300,1787A,129.6364,44.6075,牡丹江市,机车工厂,,48,43,27,33,22,26,,70,51,18,13,42,10,0.4,0.3
2024-10-07T2300,1788A,129.6386,44.5462,牡丹江市,第一中学,,37,37,27,23,18,38,,73,53,9,10,6,6,0.2,0.3
2024-10-07T2300,2531A,105.0703,29.61,内江市,市监测站,细颗粒物(PM2.5),59,53,37,42,29,24,,76,54,43,22,6,6,0.3,0.2
2024-10-07T2300,2532A,105.0717,29.5947,内江市,东兴区政府,细颗粒物(PM2.5),52,50,37,36,27,55,,80,61,23,24,5,5,0.6,0.5
2024-10-07T2300,2533A,105.0653,29.5817,内江市,内江二中,细颗粒物(PM2.5),59,47,38,42,33,35,,80,61,41,22,4,5,0.6,0.5
2024-10-07T2300,2534A,105.0406,29.5822,内江市,内江日报社,细颗粒物(PM2.5),54,47,42,38,32,31,,78,57,34,26,4,5,0.5,0.5
2024-10-07T2300,2628A,92.0657,31.4846,那曲市,那曲监测站,,34,34,24,19,8,78,,108,96,7,6,6,6,0.5,0.3
2024-10-07T2300,3128A,92.0506,31.4797,那曲市,那曲会议中心,,32,9,42,3,12,102,,110,104,2,10,2,3,0.4,0.5
2024-10-07T2300,1290A,115.8931,28.6843,南昌市,省外办,,25,20,29,9,16,79,,102,82,15,15,10,10,0.7,0.7
2024-10-07T2300,1291A,115.8886,28.7003,南昌市,省林业公司,,24,19,26,7,13,76,,101,80,9,12,6,6,0.3,0.3
2024-10-07T2300,1292A,115.8126,28.7442,南昌市,林科所,,25,22,18,3,10,80,,104,79,13,15,7,7,0.6,0.6
2024-10-07T2300,1294A,115.8518,28.687,南昌市,建工学校,,27,27,30,18,15,75,,100,77,10,13,7,8,0.5,0.5
2024-10-07T2300,1295A,115.8921,28.6424,南昌市,象湖,,34,34,25,10,14,82,,110,87,14,16,8,8,0.6,0.6
2024-10-07T2300,1296A,115.7423,28.7996,南昌市,武术学校,,18,12,15,8,18,55,,89,59,14,9,2,2,0.4,0.4
2024-10-07T2300,1298A,115.9314,28.6842,南昌市,省站,,24,18,34,9,15,74,,94,75,14,16,9,10,0.6,0.6
2024-10-07T2300,3046A,115.9084,28.6062,南昌市,机电学校,,30,30,36,12,14,80,,103,81,13,15,8,8,0.6,0.6
2024-10-07T2300,3690A,115.9721,28.7031,南昌市,外国语学校,,23,14,30,9,13,72,,94,75,13,13,6,6,0.6,1
2024-10-07T2300,1905A,106.056,30.8064,南充市,西山风景区,,45,33,26,31,26,52,,76,67,13,8,2,1,1.0,0.9
2024-10-07T2300,1906A,106.0789,30.8023,南充市,南充市委,,40,40,34,24,28,26,,83,66,42,16,3,2,0.6,0.4
2024-10-07T2300,1907A,106.1031,30.8217,南充市,南充炼油厂,"颗粒物(PM10),细颗粒物(PM2.5)",54,58,39,38,30,56,,86,73,24,15,4,2,0.4,0.4
2024-10-07T2300,1908A,106.1064,30.7856,南充市,高坪区监测站,,43,42,35,30,29,50,,79,66,29,19,7,5,0.5,0.5
2024-10-07T2300,1909A,106.0642,30.7636,南充市,嘉陵区环保局,细颗粒物(PM2.5),55,52,38,39,26,38,,77,63,26,21,4,2,0.6,0.4
2024-10-07T2300,1910A,106.1087,30.8388,南充市,市环境监测站,细颗粒物(PM2.5),54,47,38,38,32,34,,77,61,42,20,3,3,0.4,0.3
2024-10-07T2300,1151A,118.8086,32.1065,南京市,迈皋桥,,17,14,5,9,3,53,,89,63,16,13,4,4,0.4,0.3
2024-10-07T2300,1152A,118.7538,32.0551,南京市,草场门,,19,,4,12,5,58,,87,68,24,20,5,4,0.2,0.2
2024-10-07T2300,1153A,118.7794,32.0745,南京市,山西路,,21,17,9,12,7,65,,88,71,13,13,4,4,0.4,0.4
2024-10-07T2300,1154A,118.7752,32.0023,南京市,中华门,,20,14,7,9,5,63,,89,68,14,12,4,4,0.5,0.4
2024-10-07T2300,1155A,118.8109,32.0309,南京市,瑞金路,,18,14,11,12,7,57,,84,63,14,13,5,3,0.5,0.5
2024-10-07T2300,1156A,118.7997,32.0754,南京市,玄武湖,,17,15,11,10,5,53,,81,57,25,23,5,4,0.4,0.4
2024-10-07T2300,1157A,118.6414,32.0931,南京市,浦口,,23,15,9,14,8,71,,82,70,9,11,5,5,0.4,0.5
2024-10-07T2300,1158A,118.7356,31.9996,南京市,奥体中心,,22,,8,14,9,68,,96,78,18,12,6,5,0.2,0.3
2024-10-07T2300,1159A,118.9125,32.1028,南京市,仙林大学城,,18,17,11,12,6,55,,94,66,24,16,5,4,0.5,0.4
2024-10-07T2300,3422A,118.8436,31.9198,南京市,江宁彩虹桥,,25,,9,17,6,62,,88,76,15,10,4,4,0.6,0.4
2024-10-07T2300,3423A,119.0138,31.6494,南京市,溧水永阳,,22,22,8,10,8,52,,92,78,17,11,4,4,0.5,0.5
2024-10-07T2300,3424A,118.879,31.3302,南京市,高淳老职中,,25,,12,12,8,77,,98,94,15,11,2,3,0.6,0.5
2024-10-07T2300,3427A,118.8554,32.3578,南京市,六合雄州,,16,16,9,10,5,49,,92,65,13,11,7,6,0.3,0.3
2024-10-07T2300,1401A,108.3103,22.7881,南宁市,二十一中,细颗粒物(PM2.5),58,53,71,41,46,128,,172,145,20,34,10,13,0.9,1
2024-10-07T2300,1402A,108.3141,22.8528,南宁市,北湖,细颗粒物(PM2.5),73,92,65,53,45,50,,162,118,70,35,10,19,1.1,1
2024-10-07T2300,1403A,108.3206,22.8225,南宁市,市监测站,,,67,65,46,41,,,160,,38,32,30,19,0.9,0.9
2024-10-07T2300,1404A,108.3829,22.8037,南宁市,大自然花园,细颗粒物(PM2.5),63,55,55,45,41,118,,159,140,17,20,14,13,0.5,0.5
2024-10-07T2300,1405A,108.4394,22.7904,南宁市,仙葫,细颗粒物(PM2.5),77,69,64,56,49,54,,142,118,64,31,9,12,0.9,1
2024-10-07T2300,1406A,108.2397,22.8467,南宁市,区农职院,颗粒物(PM10),68,86,61,37,38,82,,160,117,19,18,12,10,0.8,0.8
2024-10-07T2300,1407A,108.3275,22.735,南宁市,英华嘉园,细颗粒物(PM2.5),62,60,65,44,43,92,,164,134,35,36,8,10,0.8,0.8
2024-10-07T2300,1408A,108.2257,22.7757,南宁市,沙井镇街道办,细颗粒物(PM2.5),72,80,76,52,43,11,,157,91,72,38,5,9,0.9,0.8
2024-10-07T2300,3401A,108.4834,22.7618,南宁市,红星社区,颗粒物(PM10),60,70,59,41,41,97,,159,124,29,25,5,9,0.7,0.7
2024-10-07T2300,2332A,118.1681,26.6369,南平市,南平市监测站,,18,11,20,8,14,57,,55,53,6,8,4,4,0.3,0.3
2024-10-07T2300,2333A,118.1825,26.6489,南平市,南平铝业有限公司,,17,10,17,10,15,53,,52,51,7,9,4,4,0.5,0.5
2024-10-07T2300,2334A,118.1756,26.6272,南平市,南平七中,,16,,19,11,12,47,,52,47,4,6,2,3,0.5,0.5
2024-10-07T2300,1168A,120.9098,31.9663,南通市,狼山街道,,23,17,5,16,3,66,,102,82,10,7,6,5,0.5,0.4
2024-10-07T2300,1169A,120.86,32.0005,南通市,虹桥,,32,26,10,22,5,60,,101,79,14,9,8,6,0.5,0.4
2024-10-07T2300,1170A,120.87,32.02,南通市,城中,,24,24,7,14,4,65,,102,82,14,11,7,5,0.5,0.4
2024-10-07T2300,1171A,120.94,31.93,南通市,星湖花园,,,20,3,14,3,,,99,90,20,10,6,5,0.6,0.5
2024-10-07T2300,1172A,120.81,32.0417,南通市,紫琅学院,,19,,4,11,4,60,,96,75,10,8,9,7,0.4,0.3
2024-10-07T2300,3291A,121.067,32.062,南通市,通州监测站,,25,22,8,17,3,63,,106,82,11,6,2,2,0.6,0.5
2024-10-07T2300,3432A,120.9348,31.9883,南通市,环境教育馆,,22,19,7,12,2,70,,105,87,10,7,3,3,0.5,0.4
2024-10-07T2300,2404A,112.5224,33.0122,南阳市,瓦房庄,细颗粒物(PM2.5),119,115,70,90,56,48,,150,121,52,26,4,4,1.1,0.8
2024-10-07T2300,2405A,112.5003,32.9735,南阳市,汉画馆,细颗粒物(PM2.5),92,86,61,68,55,48,,137,110,40,28,6,7,0.9,0.6
2024-10-07T2300,2406A,112.5573,33.027,南阳市,气象站,细颗粒物(PM2.5),170,147,69,129,52,79,,154,132,40,25,8,8,0.8,0.6
2024-10-07T2300,2407A,112.5481,32.9689,南阳市,理工学院,细颗粒物(PM2.5),104,110,66,78,47,48,,144,115,54,29,7,7,0.8,0.6
2024-10-07T2300,4008A,112.5234,32.9922,南阳市,卧龙区政府,细颗粒物(PM2.5),97,107,72,72,52,51,,149,116,55,32,5,5,1.0,0.8
2024-10-07T2300,1234A,121.8358,29.911,宁波市,区环保大楼,,31,16,8,9,6,98,,90,90,22,18,6,7,0.6,0.6
2024-10-07T2300,1235A,121.56,29.82,宁波市,万里学院,,30,,8,12,6,96,,95,95,13,15,6,6,0.5,0.6
2024-10-07T2300,1236A,121.713,29.9572,宁波市,龙赛医院,,,13,8,6,4,112,,111,111,,14,8,8,0.6,0.7
2024-10-07T2300,1239A,121.633,29.7733,宁波市,钱湖水厂,,30,20,9,9,4,96,,98,98,13,14,8,8,0.6,0.6
2024-10-07T2300,1240A,121.5856,29.8635,宁波市,太古小学,,31,22,11,3,4,97,,93,93,16,18,8,7,0.7,0.8
2024-10-07T2300,1241A,121.524,29.8674,宁波市,市环境监测中心,,30,11,8,3,3,93,,92,92,14,16,6,6,0.5,0.6
2024-10-07T2300,2871A,121.6147,29.9017,宁波市,万里国际学校,,30,11,9,7,6,93,,97,97,28,30,8,7,0.6,0.6
2024-10-07T2300,3710A,121.5594,29.8975,宁波市,白沙活动中心,,33,12,8,6,3,104,,101,101,8,15,8,8,0.4,0.4
2024-10-07T2300,2341A,119.5388,26.6612,宁德市,宁德市监测站,,17,8,14,7,9,53,,69,64,10,13,7,6,0.6,0.5
2024-10-07T2300,3209A,119.5231,26.6562,宁德市,宁德一中,,19,7,15,3,8,59,,74,71,4,7,6,6,0.4,0.3
2024-10-07T2300,2618A,98.8601,25.8567,怒江傈僳族自治州,州监测站,,29,29,24,16,12,19,,44,34,17,9,6,6,0.4,0.3
2024-10-07T2300,2619A,98.8546,25.8417,怒江傈僳族自治州,泸水一中,,22,20,20,15,11,19,,36,27,15,12,6,6,0.4,0.4
2024-10-07T2300,1888A,101.6891,26.571,攀枝花市,弄弄坪,,21,21,20,9,5,37,,50,46,14,13,10,10,0.5,0.5
2024-10-07T2300,1889A,101.5769,26.5928,攀枝花市,河门口,,32,32,25,16,12,25,,46,38,30,22,22,19,1.6,1.4
2024-10-07T2300,1890A,101.7169,26.585,攀枝花市,炳草岗,,25,20,20,17,9,38,,46,44,15,14,9,9,0.6,0.6
2024-10-07T2300,1891A,101.7369,26.5008,攀枝花市,仁和,颗粒物(PM10),62,73,34,39,19,23,,56,42,29,22,20,21,0.9,0.7
2024-10-07T2300,2835A,101.7227,26.567,攀枝花市,四十中小,,16,16,17,6,6,44,,54,51,9,7,8,7,0.9,0.9
2024-10-07T2300,1604A,122.0303,41.1489,盘锦市,开发区,细颗粒物(PM2.5),117,95,42,88,34,24,,87,51,51,19,4,3,0.8,0.4
2024-10-07T2300,1605A,122.0485,41.0883,盘锦市,兴隆台,细颗粒物(PM2.5),130,121,44,99,36,7,,84,39,66,28,6,6,1.5,0.5
2024-10-07T2300,1606A,121.8297,41.1028,盘锦市,新生街道,细颗粒物(PM2.5),73,62,32,53,27,8,,84,61,51,19,9,9,0.9,0.4
2024-10-07T2300,1832A,113.3257,33.742,平顶山市,新华旅馆,细颗粒物(PM2.5),172,213,121,130,85,54,,156,118,49,30,10,8,1.0,0.7
2024-10-07T2300,1833A,113.2919,33.737,平顶山市,规划设计院,细颗粒物(PM2.5),175,192,126,132,82,72,,161,131,35,28,9,9,1.1,0.9
2024-10-07T2300,1834A,113.182,33.774,平顶山市,平顶山工学院,细颗粒物(PM2.5),149,159,113,114,81,84,,158,132,27,26,8,9,0.9,0.7
2024-10-07T2300,3204A,113.3025,33.73,平顶山市,规划局,细颗粒物(PM2.5),173,193,123,131,84,75,,160,131,33,28,11,8,1.1,0.7
2024-10-07T2300,3594A,112.8867,33.9116,平顶山市,石龙区,细颗粒物(PM2.5),149,163,116,114,62,51,,155,122,50,42,11,13,1.1,0.8
2024-10-07T2300,2656A,106.6692,35.5461,平凉市,聚贤嘉苑,,48,48,40,30,20,37,,106,84,54,26,8,8,0.4,0.3
2024-10-07T2300,2657A,106.7021,35.5307,平凉市,博物馆,颗粒物(PM10),53,56,48,25,20,55,,107,78,39,31,11,12,0.4,0.4
2024-10-07T2300,2347A,114.0997,27.5002,萍乡市,武功山,,45,45,59,22,41,83,,114,102,9,9,6,6,0.4,0.5
2024-10-07T2300,2348A,113.8385,27.6434,萍乡市,中医院,细颗粒物(PM2.5),69,52,77,50,56,60,,104,81,17,16,12,10,0.6,0.8
2024-10-07T2300,2349A,113.8493,27.6253,萍乡市,市政府车库,细颗粒物(PM2.5),55,55,79,39,59,62,,100,78,15,16,13,11,0.6,0.7
2024-10-07T2300,2350A,113.8676,27.6435,萍乡市,市环保局,细颗粒物(PM2.5),54,43,69,38,54,59,,99,78,13,12,12,9,0.4,0.7
2024-10-07T2300,2351A,113.866,27.6198,萍乡市,安源区政府,,47,47,75,28,51,67,,105,84,16,17,9,8,0.4,0.5
2024-10-07T2300,2319A,119.0141,25.4325,莆田市,荔城区仓后路,,23,15,15,7,5,72,,70,70,14,11,8,7,0.6,0.5
2024-10-07T2300,2320A,119.0015,25.4553,莆田市,莆田市监测站,,21,14,13,3,2,67,,71,70,6,8,7,7,0.4,0.4
2024-10-07T2300,2321A,119.1119,25.4561,莆田市,涵江区六中,,28,15,14,3,5,88,,90,90,6,3,1,1,0.4,0.3
2024-10-07T2300,2322A,119.1013,25.3215,莆田市,秀屿区政府,,30,6,17,3,4,96,,96,96,5,6,7,6,0.8,0.6
2024-10-07T2300,2392A,115.0312,35.7636,濮阳市,环保局,细颗粒物(PM2.5),77,69,92,56,88,20,,85,65,51,26,1,3,1.0,0.8
2024-10-07T2300,2394A,115.0574,35.7609,濮阳市,油田运输公司,细颗粒物(PM2.5),78,87,123,57,88,31,,88,69,44,27,2,4,1.0,0.8
2024-10-07T2300,2395A,115.0866,35.7754,濮阳市,油田物探公司,细颗粒物(PM2.5),95,106,137,71,100,6,,81,59,69,30,1,2,1.0,0.8
2024-10-07T2300,3021A,115,35.7668,濮阳市,濮水河管理处,细颗粒物(PM2.5),80,,66,59,96,5,,72,48,29,20,3,2,0.6,0.6
2024-10-07T2300,2601A,100.98,22.7633,普洱市,市环保局,,41,41,32,26,17,44,,72,58,8,6,4,4,0.5,0.5
2024-10-07T2300,2602A,100.9817,22.8322,普洱市,普洱第二中学,,45,45,36,21,15,30,,75,56,15,9,4,4,0.7,0.6
2024-10-07T2300,2262A,131.0518,45.8751,七台河市,新一中,,40,37,28,28,12,49,,81,71,13,8,9,9,1.3,1.2
2024-10-07T2300,3345A,131.0577,45.7879,七台河市,中波台,,42,41,34,29,15,43,,60,47,34,25,6,7,0.7,0.7
2024-10-07T2300,3637A,131.0176,45.7761,七台河市,人民广场,细颗粒物(PM2.5),54,53,40,38,22,29,,58,43,39,24,7,8,0.6,0.4
2024-10-07T2300,3684A,130.8781,45.8222,七台河市,新建矿广场,颗粒物(PM10),142,234,74,51,23,19,,57,36,41,26,10,8,1.0,0.5
2024-10-07T2300,1779A,123.9305,47.3636,齐齐哈尔市,安居小区,,43,43,60,12,42,44,,60,46,18,20,10,10,0.4,0.6
2024-10-07T2300,1780A,123.9488,47.3386,齐齐哈尔市,中心广场,,,32,62,,17,51,,58,44,16,19,3,3,0.2,0.4
2024-10-07T2300,1781A,123.9483,47.3227,齐齐哈尔市,农牧车辆厂,,34,34,72,13,42,47,,57,40,16,21,8,10,0.3,0.6
2024-10-07T2300,1783A,123.945,47.2988,齐齐哈尔市,市环境监测站,,37,37,64,19,41,42,,65,54,21,17,9,12,0.3,0.4
2024-10-07T2300,3662A,123.6333,47.2075,齐齐哈尔市,富区青少年活动中心,,30,30,76,20,40,55,,62,52,16,19,5,11,0.3,1
2024-10-07T2300,2591A,107.9783,26.5747,黔东南苗族侗族自治州,市环境监测站,,45,42,45,31,34,81,,67,66,10,13,4,4,0.5,0.5
2024-10-07T2300,2881A,107.8908,26.5311,黔东南苗族侗族自治州,凯里学院,,42,39,38,29,31,89,,68,67,9,11,3,3,0.5,0.6
2024-10-07T2300,2593A,107.5228,26.2403,黔南布依族苗族自治州,小围寨,,42,36,32,29,27,55,,89,76,14,8,7,7,0.5,0.5
2024-10-07T2300,3538A,107.5175,26.2978,黔南布依族苗族自治州,沙坝,,42,42,40,29,30,57,,84,73,13,9,5,6,0.5,0.6
2024-10-07T2300,2589A,104.9022,25.0925,黔西南布依族苗族自治州,场坝街,细颗粒物(PM2.5),53,40,42,37,30,34,,59,52,20,12,42,9,0.4,0.4
2024-10-07T2300,2590A,104.8811,25.0992,黔西南布依族苗族自治州,坪东大道,,45,38,41,31,36,38,,59,52,13,8,8,8,0.4,0.4
2024-10-07T2300,2502A,108.6236,21.9667,钦州市,市环保站,颗粒物(PM10),68,85,82,48,40,122,,146,136,22,23,15,13,3.1,1.4
2024-10-07T2300,2503A,108.6549,21.9481,钦州市,沙埠小学,颗粒物(PM10),64,77,82,39,44,136,,154,144,20,22,8,9,0.7,1
2024-10-07T2300,2504A,108.5989,21.7431,钦州市,港区一小,颗粒物(PM10),69,87,86,44,43,113,,153,142,33,22,18,11,1.0,0.9
2024-10-07T2300,3404A,108.5959,21.9633,钦州市,北职校,颗粒物(PM10),62,74,67,43,47,144,,155,143,13,16,8,10,0.9,1.1
2024-10-07T2300,1042A,119.5134,39.8207,秦皇岛市,北戴河环保局,,47,47,24,29,12,11,,81,66,60,21,2,2,0.7,0.4
2024-10-07T2300,1043A,119.7493,40.0116,秦皇岛市,第一关,细颗粒物(PM2.5),54,54,31,38,28,3,,85,52,80,34,3,2,0.5,0.4
2024-10-07T2300,1044A,119.5897,39.9499,秦皇岛市,监测站,细颗粒物(PM2.5),54,40,31,38,26,25,,83,50,38,23,2,2,0.5,0.4
2024-10-07T2300,1046A,119.5251,39.9041,秦皇岛市,建设大厦,颗粒物(PM10),59,67,38,35,19,4,,79,42,58,31,3,2,0.5,0.4
2024-10-07T2300,3132A,119.610547,39.943889,秦皇岛市,文明里,颗粒物(PM10),57,64,35,30,18,22,,81,53,42,23,1,2,0.7,0.5
2024-10-07T2300,1307A,120.6659,36.2403,青岛市,仰口,,26,,41,18,24,83,,86,76,4,9,8,7,0.5,0.9
2024-10-07T2300,1310A,120.4134,36.0658,青岛市,市南区东部子站,,29,29,48,14,21,72,,84,80,14,24,7,6,0.4,0.5
2024-10-07T2300,1311A,120.3664,36.1032,青岛市,四方区子站,,34,34,48,14,23,73,,91,83,21,31,9,9,0.3,0.4
2024-10-07T2300,1312A,120.2994,36.054,青岛市,市南区西部子站,,27,27,48,3,16,84,,88,85,8,20,8,9,0.4,0.5
2024-10-07T2300,1313A,120.4581,36.0858,青岛市,崂山区子站,,27,17,36,9,16,86,,88,84,12,24,9,8,0.5,0.6
2024-10-07T2300,1314A,120.1983,35.9608,青岛市,黄岛区子站,,22,19,44,12,22,68,,86,74,27,28,9,9,0.4,0.5
2024-10-07T2300,1315A,120.3999,36.3083,青岛市,城阳区子站,,25,24,38,17,19,68,,88,80,20,23,8,8,0.5,0.6
2024-10-07T2300,1966A,120.0405,35.8735,青岛市,黄岛区4号,,24,24,46,14,20,67,,90,80,18,26,6,7,0.4,0.5
2024-10-07T2300,3362A,120.5014,36.4034,青岛市,即墨2号,,32,30,44,22,21,57,,78,71,18,21,6,7,0.4,0.5
2024-10-07T2300,3642A,120.3503,36.0736,青岛市,市北区南部,,27,27,47,12,20,77,,84,80,20,30,8,8,0.5,0.6
2024-10-07T2300,3643A,120.3948,36.1805,青岛市,李沧区北部,,36,36,46,19,24,67,,88,79,23,25,9,9,0.6,0.6
2024-10-07T2300,1702A,113.0426,23.691,清远市,环保大楼,细颗粒物(PM2.5),77,84,60,56,42,130,,143,135,12,12,8,10,0.8,0.8
2024-10-07T2300,1703A,113.0208,23.7106,清远市,凤城街办,细颗粒物(PM2.5),58,61,50,41,36,124,,140,132,7,8,9,10,0.9,0.8
2024-10-07T2300,3025A,113.0477,23.6344,清远市,技师学院,,,63,54,41,34,,,152,143,8,9,7,11,0.7,0.8
2024-10-07T2300,3318A,112.9903,23.7403,清远市,清新太和,细颗粒物(PM2.5),69,71,52,50,36,128,,141,136,8,7,5,8,0.7,0.7
2024-10-07T2300,3455A,113.076,23.7198,清远市,清城东城,细颗粒物(PM2.5),60,55,54,43,37,131,,148,140,6,5,5,8,0.6,0.6
2024-10-07T2300,2661A,107.6325,35.7357,庆阳市,庆阳五中,颗粒物(PM10),51,51,40,24,17,89,,113,105,11,11,6,7,0.5,0.4
2024-10-07T2300,2662A,107.6364,35.7067,庆阳市,市环保局,颗粒物(PM10),51,52,38,33,16,78,,113,103,20,13,9,6,0.5,0.4
2024-10-07T2300,1916A,103.7897,25.5035,曲靖市,环境监测站,,24,24,17,8,8,27,,39,31,18,17,3,4,0.6,0.8
2024-10-07T2300,1917A,103.8,25.5364,曲靖市,烟厂办公区,,24,24,18,3,9,31,,45,36,14,15,5,4,0.6,0.8
2024-10-07T2300,3376A,103.7947,25.462,曲靖市,南苑二区,,18,18,15,10,9,31,,43,38,19,16,8,10,0.9,1
2024-10-07T2300,3377A,103.7444,25.5261,曲靖市,曲靖师范学院,,20,20,11,11,7,33,,55,44,19,13,12,7,0.8,0.7
2024-10-07T2300,1264A,118.8692,28.9398,衢州市,环保大楼,,20,20,17,12,11,56,,67,59,15,16,5,6,0.5,0.5
2024-10-07T2300,1265A,118.8709,28.9666,衢州市,实验学校,,19,15,14,13,13,60,,72,62,11,12,4,5,0.4,0.4
2024-10-07T2300,1266A,118.8621,28.9808,衢州市,衢州学院,,20,19,19,12,12,63,,72,62,12,17,7,7,0.4,0.5
2024-10-07T2300,1611A,118.5819,24.9117,泉州市,涂山街,,29,9,22,3,12,91,,85,85,8,11,2,2,0.4,0.4
2024-10-07T2300,1612A,118.5972,24.8978,泉州市,津头埔,,27,13,24,3,10,85,,82,81,8,10,4,4,0.4,0.4
2024-10-07T2300,1613A,118.6663,24.9424,泉州市,万安,,27,13,20,3,10,84,,84,84,5,10,3,2,0.4,0.4
2024-10-07T2300,3529A,118.6333,24.9264,泉州市,城华南路,,27,8,18,3,8,86,,83,82,5,8,3,4,0.3,0.3
2024-10-07T2300,2626A,88.8876,29.2718,日喀则市,日喀则监测站,颗粒物(PM10),56,62,18,26,8,38,,127,96,41,13,5,5,0.7,0.4
2024-10-07T2300,3726A,88.8781,29.2426,日喀则市,林业技术推广中心,,44,44,13,14,3,59,,124,106,26,8,7,6,0.5,0.4
2024-10-07T2300,1659A,119.471,35.4209,日照市,监测站,,25,17,38,17,23,70,,98,80,18,26,12,10,0.5,0.6
2024-10-07T2300,1660A,119.523,35.4216,日照市,市政府广场,,23,22,38,10,21,73,,104,89,16,21,5,6,0.4,0.5
2024-10-07T2300,1661A,119.5587,35.4044,日照市,港务局,,28,22,38,13,29,89,,104,92,8,19,7,9,0.5,0.6
2024-10-07T2300,3507A,119.5328,35.4625,日照市,职业技术学院,,27,17,38,7,20,85,,98,86,9,26,9,9,0.5,0.6
2024-10-07T2300,3604A,119.3266,35.1044,日照市,岚山环保分局,,39,39,64,17,38,52,,101,77,35,37,39,21,3.1,1.5
2024-10-07T2300,1835A,111.1922,34.7752,三门峡市,市政府,细颗粒物(PM2.5),95,118,90,71,64,22,,137,106,85,37,12,15,0.9,0.8
2024-10-07T2300,1836A,111.1587,34.7942,三门峡市,开发区,细颗粒物(PM2.5),130,148,116,99,76,103,,139,133,25,26,18,14,0.8,0.8
2024-10-07T2300,3039A,111.1911,34.7829,三门峡市,三门峡市第一小学,细颗粒物(PM2.5),104,99,92,78,66,104,,131,127,21,23,17,15,0.8,0.8
2024-10-07T2300,3598A,111.1,34.7167,三门峡市,富达温泉假日酒店,细颗粒物(PM2.5),102,95,123,76,92,70,,123,108,22,31,13,15,0.6,0.7
2024-10-07T2300,2324A,117.6211,26.2625,三明市,三钢,,20,,23,14,20,52,,52,33,4,11,1,3,0.3,0.6
2024-10-07T2300,2325A,117.635,26.2714,三明市,三明二中,,19,,21,13,17,50,,51,34,9,14,2,3,0.6,0.6
2024-10-07T2300,2326A,117.6028,26.2378,三明市,三元区政府,,19,17,29,13,20,33,,29,24,18,19,5,3,1.0,0.7
2024-10-07T2300,1876A,109.5078,18.2489,三亚市,河东子站,,43,35,15,26,7,135,,77,77,5,3,5,4,0.4,0.3
2024-10-07T2300,1877A,109.4964,18.2681,三亚市,河西子站,,38,29,12,26,7,112,,68,68,9,5,4,4,0.4,0.4
2024-10-07T2300,3540A,109.7348,18.3443,三亚市,君悦子站,颗粒物(PM10),55,59,18,24,7,149,,95,95,7,5,3,2,0.6,0.5
2024-10-07T2300,2624A,91.7608,29.2313,山南市,山南监测站,,28,28,16,12,8,70,,112,98,22,9,9,9,0.4,0.3
2024-10-07T2300,2625A,91.7706,29.2436,山南市,山南人民医院,,32,14,17,7,7,102,,114,110,7,10,9,9,0.2,0.3
2024-10-07T2300,1674A,116.6794,23.3667,汕头市,金平子站,,,,27,17,18,68,,122,95,11,14,5,7,0.6,0.6
2024-10-07T2300,1675A,116.7244,23.3633,汕头市,龙湖子站,,20,14,29,3,19,64,,105,88,4,6,7,8,0.7,0.6
2024-10-07T2300,1676A,116.7258,23.2775,汕头市,濠江子站,,28,,20,19,16,60,,95,84,7,8,6,7,0.8,0.8
2024-10-07T2300,1677A,116.7519,23.4714,汕头市,澄海子站,,25,,25,17,19,66,,110,94,7,10,5,7,0.9,0.9
2024-10-07T2300,1678A,116.6092,23.2539,汕头市,潮阳子站,,24,24,26,14,16,66,,117,89,4,7,5,6,0.5,0.5
