timepoint,stationcode,longitude,latitude,area,positionname,primarypollutant,aqi,pm10,pm10_24h,pm2_5,pm2_5_24h,o3,o3_24h,o3_8h,o3_8h_24h,no2,no2_24h,so2,so2_24h,co,co_24h
2024-11-15T1300,2566A,102.1879,31.914,阿坝藏族羌族自治州,州农科所,,23,22,23,9,8,72,,43,43,5,12,7,9,0.0,0.1
2024-11-15T1300,2568A,102.2502,31.8896,阿坝藏族羌族自治州,马师校,,22,,15,9,17,68,,33,33,8,21,4,4,0.4,0.4
2024-11-15T1300,3994A,102.2165,31.9024,阿坝藏族羌族自治州,马尔康中学西区,,26,26,22,10,15,62,,35,35,8,16,5,4,0.4,0.5
2024-11-15T1300,2695A,80.292,41.1694,阿克苏地区,电视台,颗粒物(PM10),70,89,70,35,28,43,,78,51,46,22,4,3,0.7,0.4
2024-11-15T1300,2696A,80.2613,41.1551,阿克苏地区,艺术中心,颗粒物(PM10),72,94,68,33,25,49,,78,56,44,19,4,4,0.8,0.5
2024-11-15T1300,2204A,105.6467,38.8363,阿拉善盟,西城区西花园,颗粒物(PM10),101,152,103,19,43,83,,82,82,9,17,8,9,0.7,0.9
2024-11-15T1300,2205A,105.6985,38.8411,阿拉善盟,蒙二幼,颗粒物(PM10),118,186,110,25,30,78,,77,77,8,18,7,8,0.5,0.7
2024-11-15T1300,2206A,105.724,38.8516,阿拉善盟,环保局新楼,颗粒物(PM10),132,213,82,25,26,80,,82,80,7,13,8,9,0.5,0.6
2024-11-15T1300,2708A,88.1264,47.8517,阿勒泰地区,市站,,,6,7,,4,54,,55,44,22,14,12,8,0.1,0.1
2024-11-15T1300,2630A,80.1161,32.5,阿里地区,阿里监测站,,30,10,26,3,8,93,,76,76,7,6,4,5,0.6,0.6
2024-11-15T1300,3192A,80.0903,32.5028,阿里地区,阿里藏医院,,30,9,23,6,5,95,,89,73,4,6,6,6,0.6,0.6
2024-11-15T1300,2642A,109.0318,32.6537,安康市,香溪洞,,,34,19,14,9,,,31,25,14,12,10,9,0.6,0.6
2024-11-15T1300,2644A,109.0072,32.6975,安康市,汉滨区检察院,,40,40,20,24,11,21,,9,9,29,23,7,8,0.9,0.8
2024-11-15T1300,4054A,109.0325,32.6913,安康市,市邮政管理局,,40,40,24,21,12,36,,12,12,21,23,9,10,1.0,1
2024-11-15T1300,2291A,117.0809,30.5177,安庆市,环科院,细颗粒物(PM2.5),89,84,57,66,45,56,,35,35,25,47,9,10,1.1,1.3
2024-11-15T1300,2292A,117.0331,30.5119,安庆市,马山宾馆,细颗粒物(PM2.5),68,,58,49,45,64,,42,42,22,50,7,8,1.0,1.3
2024-11-15T1300,2294A,116.9896,30.6145,安庆市,安庆大学,细颗粒物(PM2.5),79,81,66,58,48,60,,44,44,23,43,9,10,0.9,1
2024-11-15T1300,3173A,117.0598,30.5351,安庆市,市人大,细颗粒物(PM2.5),72,61,61,52,49,56,,34,34,21,43,11,12,0.8,1.1
2024-11-15T1300,3122A,105.9606,26.2611,安顺市,伍家关,,,26,27,24,28,,,70,69,4,6,5,5,0.5,0.6
2024-11-15T1300,3123A,105.9408,26.2431,安顺市,凤凰山,,33,30,38,21,29,103,,88,88,4,9,7,9,0.4,0.4
2024-11-15T1300,3124A,105.9439,26.2564,安顺市,金钟山,,33,30,38,21,32,104,,90,90,4,7,6,8,0.5,0.5
2024-11-15T1300,3125A,105.8983,26.2481,安顺市,娄家坡,,35,28,36,24,31,101,,88,88,6,9,8,11,0.5,0.5
2024-11-15T1300,1818A,114.4839,36.0621,安阳市,棉研所,细颗粒物(PM2.5),97,,56,72,73,73,,40,40,20,28,6,6,1.2,1.2
2024-11-15T1300,1819A,114.3551,36.1017,安阳市,红庙街,细颗粒物(PM2.5),114,,59,86,75,57,,32,32,21,28,1,3,1.5,1.3
2024-11-15T1300,1820A,114.361,36.0681,安阳市,银杏小区,细颗粒物(PM2.5),94,72,58,70,66,63,,36,36,14,22,2,2,1.5,1.6
2024-11-15T1300,3141A,114.3922,36.0878,安阳市,信访局,细颗粒物(PM2.5),104,,61,78,68,60,,27,27,11,22,3,3,1.3,1.2
2024-11-15T1300,3669A,114.4705,36.0637,安阳市,左辅环卫站,细颗粒物(PM2.5),77,87,85,56,58,65,,35,35,10,18,2,1,1.1,1
2024-11-15T1300,3703A,114.2917,36.0949,安阳市,安钢职工学校,细颗粒物(PM2.5),143,,69,109,88,40,,23,23,33,34,2,1,1.9,1.4
2024-11-15T1300,1748A,123.044,41.1196,鞍山市,深沟寺,,43,43,34,29,23,54,,41,41,41,21,12,4,1.5,0.7
2024-11-15T1300,1749A,123.011,41.0931,鞍山市,太阳城,,35,35,32,22,21,70,,58,58,26,14,6,4,0.8,0.6
2024-11-15T1300,1750A,123.0485,41.1442,鞍山市,太平,颗粒物(PM10),56,61,37,39,23,33,,31,26,59,39,22,10,1.9,0.6
2024-11-15T1300,1751A,122.9642,41.0971,鞍山市,铁西三道街,,42,38,40,29,30,67,,38,38,29,40,6,6,1.3,1
2024-11-15T1300,1752A,122.9341,41.0833,鞍山市,铁西工业园区,,48,48,73,32,43,64,,32,32,32,45,10,8,3.7,1.4
2024-11-15T1300,1753A,123.022,41.0821,鞍山市,明达新区,,35,30,28,24,21,67,,54,54,23,12,10,6,0.7,0.6
2024-11-15T1300,1754A,123.1289,41.0228,鞍山市,千山,,,,30,,20,,,46,,,5,,2,,0.4
2024-11-15T1300,2195A,107.4212,40.761,巴彦淖尔市,附二中,颗粒物(PM10),121,192,121,70,60,41,,28,23,23,32,9,10,0.6,0.8
2024-11-15T1300,2196A,107.37,40.7372,巴彦淖尔市,市环保大楼,颗粒物(PM10),116,181,102,41,52,62,,26,26,15,27,8,7,0.4,0.6
2024-11-15T1300,1956A,86.1472,41.7538,巴音郭楞蒙古自治州,孔雀公园,,50,50,45,9,14,55,,51,40,16,27,4,3,0.3,0.4
2024-11-15T1300,1957A,86.1972,41.7166,巴音郭楞蒙古自治州,棉纺厂,颗粒物(PM10),58,66,46,19,14,59,,68,44,14,20,5,2,0.4,0.3
2024-11-15T1300,1958A,86.2357,41.7173,巴音郭楞蒙古自治州,经济开发区,,42,42,43,19,14,64,,72,53,9,10,5,2,0.3,0.2
2024-11-15T1300,2914A,106.7677,31.8794,巴中市,苏山坪,,25,19,20,17,16,17,,31,22,17,13,5,4,0.7,0.6
2024-11-15T1300,3182A,106.7656,31.8545,巴中市,丽阳花园,,37,37,33,25,21,15,,6,6,28,21,4,4,0.9,0.7
2024-11-15T1300,3183A,106.7418,31.8654,巴中市,圣泉水务公司,,34,34,29,23,20,14,,6,6,26,20,4,4,0.8,0.6
2024-11-15T1300,3616A,106.7616,31.8344,巴中市,市中心医院,,29,29,30,18,21,14,,5,5,24,20,5,4,0.7,0.7
2024-11-15T1300,2235A,122.7911,45.6077,白城市,洮北区环保局,细颗粒物(PM2.5),217,169,150,167,138,56,,35,35,33,34,1,3,0.6,0.8
2024-11-15T1300,2236A,122.8738,45.5725,白城市,市环保局,细颗粒物(PM2.5),220,188,160,170,133,68,,37,37,24,31,7,6,0.9,0.9
2024-11-15T1300,2231A,126.4219,41.9171,白山市,喜丰,,29,28,44,6,24,90,,44,44,12,37,9,13,0.6,0.9
2024-11-15T1300,2232A,126.4077,41.9419,白山市,环保局,,27,17,49,3,34,84,,42,42,9,38,10,10,0.8,1.1
2024-11-15T1300,2647A,104.1724,36.5446,白银市,第三小学,颗粒物(PM10),73,96,124,12,47,84,,79,79,10,26,8,44,0.4,1
2024-11-15T1300,2648A,104.1465,36.5482,白银市,动力公司,颗粒物(PM10),74,97,112,13,51,84,,79,79,9,24,5,20,0.4,1
2024-11-15T1300,2512A,106.6103,23.9011,百色市,市监测站,细颗粒物(PM2.5),64,68,68,46,46,102,,41,41,9,17,11,9,0.7,0.7
2024-11-15T1300,2513A,106.6538,23.8859,百色市,市中心血站,细颗粒物(PM2.5),80,83,99,59,66,116,,39,39,13,26,19,12,0.9,1
2024-11-15T1300,3406A,106.6085,23.8798,百色市,祈福高中,,,76,98,59,63,99,,37,37,,28,,9,0.7,0.8
2024-11-15T1300,2270A,117.396,32.939,蚌埠市,工人疗养院,细颗粒物(PM2.5),98,115,121,73,95,49,,30,30,20,26,4,5,0.7,0.7
2024-11-15T1300,2271A,117.3605,32.9427,蚌埠市,百货大楼,细颗粒物(PM2.5),109,121,113,82,75,47,,28,28,19,25,4,5,0.7,0.6
2024-11-15T1300,2273A,117.4185,32.8911,蚌埠市,蚌埠学院,细颗粒物(PM2.5),114,,82,86,78,52,,30,30,19,26,6,7,0.7,0.6
2024-11-15T1300,2274A,117.3533,32.9673,蚌埠市,淮上区政府,细颗粒物(PM2.5),110,100,95,83,76,50,,28,28,19,26,5,5,0.7,0.7
2024-11-15T1300,2275A,117.3145,32.8977,蚌埠市,高新区,细颗粒物(PM2.5),114,92,81,86,79,43,,32,32,24,28,5,6,0.8,0.7
2024-11-15T1300,3715A,117.3092,32.9314,蚌埠市,蚌埠田家炳中学,细颗粒物(PM2.5),100,134,117,75,68,43,,27,27,19,25,4,5,0.7,0.6
2024-11-15T1300,1585A,109.8756,40.6532,包头市,市环境监测站,细颗粒物(PM2.5),90,89,65,67,47,18,,28,14,50,44,14,16,1.3,1.2
2024-11-15T1300,1587A,109.9991,40.5842,包头市,包头八中,细颗粒物(PM2.5),94,83,83,70,65,18,,30,19,43,39,14,20,1.1,1.2
2024-11-15T1300,1588A,109.8538,40.6821,包头市,青山宾馆,细颗粒物(PM2.5),124,113,66,94,60,9,,26,12,65,47,17,18,1.8,1.3
2024-11-15T1300,1589A,109.8642,40.6288,包头市,惠龙物流,细颗粒物(PM2.5),73,84,60,53,39,18,,25,13,47,42,10,11,1.1,1.1
2024-11-15T1300,1590A,110.0377,40.5546,包头市,东河鸿龙湾,,,67,53,45,35,,,29,23,,31,,10,1.0,0.9
2024-11-15T1300,3283A,109.9154,40.5685,包头市,滨河大厦,细颗粒物(PM2.5),77,84,57,56,37,13,,28,26,50,37,12,11,1.1,0.9
2024-11-15T1300,3419A,109.9447,40.6261,包头市,包头市委党校,细颗粒物(PM2.5),77,82,75,56,47,15,,25,13,44,44,15,24,1.2,1.4
2024-11-15T1300,3683A,109.8331,40.6576,包头市,昆区政府,细颗粒物(PM2.5),110,95,64,83,59,13,,26,15,53,43,14,15,1.4,1.1
2024-11-15T1300,1930A,107.185,34.3063,宝鸡市,庙沟村,,39,39,46,17,54,19,,22,22,23,20,6,6,1.2,1.1
2024-11-15T1300,1931A,107.0708,34.3017,宝鸡市,竹园沟,,49,45,52,34,39,22,,25,25,26,22,7,7,1.2,1.1
2024-11-15T1300,1932A,107.1906,34.3672,宝鸡市,三陆医院,细颗粒物(PM2.5),55,50,55,39,46,21,,28,26,25,29,6,6,1.3,1.2
2024-11-15T1300,1933A,107.1431,34.3547,宝鸡市,监测站,细颗粒物(PM2.5),59,56,58,42,46,22,,30,27,28,28,7,8,1.3,1.1
2024-11-15T1300,1934A,107.1186,34.3739,宝鸡市,技工学校,,49,46,53,34,50,24,,32,28,30,35,7,8,1.5,1.4
2024-11-15T1300,1935A,107.3906,34.3528,宝鸡市,陈仓区环保局家属楼,细颗粒物(PM2.5),94,,57,70,59,20,,23,20,26,28,7,7,1.3,1.2
2024-11-15T1300,1936A,107.2058,34.3497,宝鸡市,文理学院,,45,41,58,31,37,22,,30,25,25,29,6,7,1.4,1.3
2024-11-15T1300,1937A,107.2386,34.3622,宝鸡市,三迪小学,细颗粒物(PM2.5),67,,57,48,51,31,,28,28,23,36,8,8,1.2,1.1
2024-11-15T1300,1051A,115.493,38.8632,保定市,游泳馆,细颗粒物(PM2.5),82,76,71,60,47,16,,7,7,24,36,2,3,0.8,0.9
2024-11-15T1300,1052A,115.5213,38.8959,保定市,华电二区,细颗粒物(PM2.5),55,43,49,39,42,13,,6,6,47,39,5,5,0.8,0.6
2024-11-15T1300,1053A,115.4713,38.9108,保定市,接待中心,细颗粒物(PM2.5),89,74,60,66,47,18,,11,11,43,33,2,2,0.9,0.7
2024-11-15T1300,1054A,115.4612,38.8416,保定市,地表水厂,细颗粒物(PM2.5),83,77,60,61,42,14,,6,6,37,36,3,2,0.8,0.6
2024-11-15T1300,3581A,115.31981,38.95208,保定市,满城区生态环境分局,细颗粒物(PM2.5),73,63,52,53,35,52,,16,16,30,33,2,2,0.7,0.7
2024-11-15T1300,3582A,115.47694,38.76408,保定市,清苑区第二中学,细颗粒物(PM2.5),63,49,44,45,36,16,,8,8,23,29,3,4,1.0,0.8
2024-11-15T1300,3583A,115.62909,39.02311,保定市,徐水物探局,细颗粒物(PM2.5),73,,42,53,40,23,,8,8,30,40,6,5,0.9,0.8
2024-11-15T1300,4004A,115.4202,38.8656,保定市,双鹰农机,颗粒物(PM10),61,72,58,38,37,22,,10,10,45,45,2,2,1.0,0.8
2024-11-15T1300,4034A,115.5150,38.8590,保定市,植保所站,细颗粒物(PM2.5),62,56,59,44,48,13,,6,6,35,45,3,3,0.9,0.9
2024-11-15T1300,2594A,99.1678,25.1081,保山市,市环境监测站,,37,37,26,3,9,79,,33,30,7,10,5,5,0.3,0.3
2024-11-15T1300,2595A,99.1711,25.1328,保山市,市环保局,,32,32,27,13,14,80,,44,40,7,7,4,5,0.4,0.4
2024-11-15T1300,1866A,109.2262,21.588,北海市,牛尾岭水库,,39,35,39,27,34,83,,47,47,5,11,9,8,0.7,0.8
2024-11-15T1300,1867A,109.1436,21.4086,北海市,海滩公园,,42,37,46,29,30,127,,86,84,9,12,10,11,0.8,0.8
2024-11-15T1300,1868A,109.0981,21.4661,北海市,新市环保局,,,,44,,32,148,,85,84,19,15,68,15,,0.7
2024-11-15T1300,1869A,109.1778,21.5233,北海市,北海工业园,细颗粒物(PM2.5),55,48,55,39,38,154,,86,86,12,18,18,14,0.9,0.8
2024-11-15T1300,3400A,109.1911,21.4415,北海市,龙潭自来水厂,细颗粒物(PM2.5),55,49,42,39,39,126,,69,69,12,12,10,11,0.9,0.8
2024-11-15T1300,1001A,116.3621,39.8784,北京市,万寿西宫,细颗粒物(PM2.5),103,89,37,77,40,28,,6,6,48,61,2,2,1.1,1
2024-11-15T1300,1002A,116.2202,40.2915,北京市,定陵,细颗粒物(PM2.5),67,58,38,48,31,22,,6,6,18,16,1,2,0.6,0.5
2024-11-15T1300,1003A,116.4174,39.9289,北京市,东四,细颗粒物(PM2.5),105,103,65,79,50,24,,8,8,50,49,3,4,1.1,1.2
2024-11-15T1300,1004A,116.4072,39.8863,北京市,天坛,细颗粒物(PM2.5),102,102,60,76,42,25,,6,6,49,24,3,3,1.1,1
2024-11-15T1300,1005A,116.462,39.9365,北京市,农展馆,细颗粒物(PM2.5),85,86,56,63,37,13,,4,4,52,49,3,4,1.1,1.1
2024-11-15T1300,1006A,116.3392,39.9295,北京市,官园,细颗粒物(PM2.5),107,103,53,80,39,16,,6,6,46,50,4,5,1.3,1.1
2024-11-15T1300,1007A,116.2878,39.9611,北京市,海淀万柳,细颗粒物(PM2.5),98,99,58,73,38,32,,15,15,32,38,3,3,1.0,1
2024-11-15T1300,1008A,116.6636,40.135,北京市,顺义新城,细颗粒物(PM2.5),68,69,37,49,28,41,,10,10,20,29,3,3,0.7,0.6
2024-11-15T1300,1009A,116.6275,40.3275,北京市,怀柔镇,"颗粒物(PM10),细颗粒物(PM2.5)",53,55,35,37,29,18,,11,10,28,21,3,3,0.8,0.7
2024-11-15T1300,1010A,116.2296,40.217,北京市,昌平镇,细颗粒物(PM2.5),82,85,51,60,34,43,,11,11,13,28,5,5,0.8,0.8
2024-11-15T1300,1011A,116.3966,39.9821,北京市,奥体中心,细颗粒物(PM2.5),92,94,61,68,41,11,,6,6,51,49,3,2,1.1,1.1
2024-11-15T1300,1012A,116.184,39.9136,北京市,古城,细颗粒物(PM2.5),87,89,55,64,41,32,,11,11,29,45,4,4,0.7,0.7
2024-11-15T1300,3281A,115.9718,40.4529,北京市,延庆夏都,细颗粒物(PM2.5),65,53,44,47,35,35,,9,9,20,23,1,2,0.5,0.6
2024-11-15T1300,3417A,117.0709,40.1465,北京市,平谷新城,细颗粒物(PM2.5),67,62,39,48,28,62,,20,20,13,18,1,3,0.8,0.7
2024-11-15T1300,3418A,116.8336,40.4095,北京市,密云新城,细颗粒物(PM2.5),60,60,34,43,25,49,,23,23,13,16,1,3,0.6,0.5
2024-11-15T1300,3671A,116.088,39.9726,北京市,门头沟三家店,细颗粒物(PM2.5),72,84,46,52,27,32,,17,17,37,39,8,7,0.7,0.6
2024-11-15T1300,3672A,116.1541,39.8204,北京市,丰台云岗,细颗粒物(PM2.5),85,79,38,63,31,26,,10,10,50,36,4,4,1.0,0.7
2024-11-15T1300,3673A,116.6804,39.9081,北京市,通州东关,细颗粒物(PM2.5),89,90,83,66,48,22,,6,6,39,51,3,2,1.0,1
2024-11-15T1300,3674A,115.9577,39.7603,北京市,房山燕山,细颗粒物(PM2.5),64,66,27,46,20,38,,18,18,33,17,2,2,0.6,0.6
2024-11-15T1300,3675A,116.4672,39.7733,北京市,大兴旧宫,细颗粒物(PM2.5),92,81,52,68,33,23,,6,6,57,36,3,3,1.0,0.9
2024-11-15T1300,3694A,115.986,40.4563,北京市,延庆石河营,细颗粒物(PM2.5),60,48,41,43,34,16,,5,5,36,26,1,2,0.7,0.7
2024-11-15T1300,3695A,116.6151,40.3053,北京市,怀柔新城,细颗粒物(PM2.5),57,45,32,40,31,22,,14,12,19,13,3,3,0.6,0.5
2024-11-15T1300,3696A,116.2545,39.8768,北京市,丰台小屯,细颗粒物(PM2.5),104,118,59,78,35,22,,9,9,46,46,2,2,1.2,1
2024-11-15T1300,3697A,116.84,40.3844,北京市,密云镇,细颗粒物(PM2.5),63,72,42,45,26,43,,10,10,10,30,3,3,0.7,0.6
2024-11-15T1300,1761A,123.8275,41.3064,本溪市,大峪,,30,28,44,21,28,58,,29,29,34,45,13,11,0.6,0.9
2024-11-15T1300,1762A,123.7567,41.3325,本溪市,溪湖,,,39,63,24,38,65,,29,29,33,37,,10,,1.5
2024-11-15T1300,1763A,123.7169,41.3094,本溪市,彩屯,,40,34,63,28,49,66,,26,26,34,40,17,10,1.8,1.6
2024-11-15T1300,1764A,123.7669,41.2864,本溪市,东明,,49,49,40,19,28,54,,29,29,47,53,9,6,0.9,1.1
2024-11-15T1300,1765A,123.7992,41.2664,本溪市,新立屯,,47,47,26,14,12,49,,35,35,49,40,6,5,0.7,0.5
2024-11-15T1300,1766A,123.8142,41.3472,本溪市,威宁,,,,39,,27,50,,21,21,,34,9,8,0.6,0.7
2024-11-15T1300,2587A,105.2864,27.3125,毕节市,八中,,46,43,55,32,44,101,,55,55,9,12,8,7,0.5,0.7
2024-11-15T1300,2588A,105.31,27.2944,毕节市,师专,,48,42,47,33,43,101,,53,53,9,13,7,7,0.5,0.6
2024-11-15T1300,3537A,105.3631,27.3533,毕节市,长征村,,48,48,61,32,42,110,,62,62,6,7,9,7,0.5,0.6
2024-11-15T1300,1629A,118.0018,37.3617,滨州市,第二水厂,细颗粒物(PM2.5),94,88,64,70,47,21,,14,12,43,37,6,6,1.5,1.3
2024-11-15T1300,1630A,117.9776,37.393,滨州市,北中新校,细颗粒物(PM2.5),79,80,61,58,42,22,,12,11,50,41,3,4,1.6,1.4
2024-11-15T1300,3514A,117.9378,37.3956,滨州市,中海酒店,细颗粒物(PM2.5),73,61,54,53,40,32,,21,21,42,35,4,4,1.5,1.4
2024-11-15T1300,3515A,117.9378,37.3553,滨州市,开发区一中,,,78,53,61,43,,,19,17,,37,7,7,1.4,1.3
2024-11-15T1300,3516A,118.0917,37.694,滨州市,金海六路,细颗粒物(PM2.5),94,95,70,70,50,22,,11,11,39,46,5,5,1.5,1.7
2024-11-15T1300,4028A,117.9956,37.3753,滨州市,滨州市西街道办事处,细颗粒物(PM2.5),100,,49,75,52,25,,14,13,43,36,3,3,1.6,1.4
2024-11-15T1300,2311A,115.8072,33.8399,亳州市,污水处理厂,细颗粒物(PM2.5),119,106,99,90,86,53,,25,25,18,21,4,4,0.9,0.9
2024-11-15T1300,2312A,115.7789,33.8518,亳州市,三国揽胜宫,细颗粒物(PM2.5),129,,85,98,86,44,,25,25,19,21,1,2,,0.6
2024-11-15T1300,3332A,115.7633,33.8034,亳州市,亳州学院,细颗粒物(PM2.5),87,109,100,64,65,57,,28,28,17,18,2,2,0.8,0.8
2024-11-15T1300,2693A,82.0485,44.8556,博尔塔拉蒙古自治州,市党校,,43,36,37,30,18,48,,34,34,11,12,6,5,0.3,0.3
2024-11-15T1300,2694A,82.0806,44.8969,博尔塔拉蒙古自治州,市环保局,,36,36,47,10,15,47,,33,33,8,13,3,4,0.3,0.4
2024-11-15T1300,1071A,116.8842,38.2991,沧州市,沧县城建局,细颗粒物(PM2.5),57,49,44,40,37,74,,28,28,16,41,1,2,1.0,1.4
2024-11-15T1300,1072A,116.8584,38.3254,沧州市,电视转播站,颗粒物(PM10),51,51,45,34,31,76,,22,22,15,36,3,3,1.0,1.3
2024-11-15T1300,1073A,116.8709,38.3228,沧州市,市环保局,颗粒物(PM10),51,52,46,35,33,72,,24,24,14,35,1,2,0.9,1.2
2024-11-15T1300,3324A,116.8136,38.3004,沧州市,河北水利电力学院,细颗粒物(PM2.5),68,,36,49,40,77,,25,25,7,39,4,4,0.9,1.2
2024-11-15T1300,2622A,97.1806,31.1273,昌都市,昌都监测站,,20,20,28,6,15,55,,33,33,10,25,7,7,0.5,0.9
2024-11-15T1300,3719A,97.1714,31.1406,昌都市,昌都会议中心,,,,14,,8,50,,40,38,11,9,6,6,,0.6
2024-11-15T1300,2690A,88.1236,43.8886,昌吉回族自治州,天山天池,,24,,6,15,6,75,,67,67,2,2,3,3,0.5,0.5
2024-11-15T1300,2692A,87.2717,44.0297,昌吉回族自治州,新区政务中心,颗粒物(PM10),60,70,46,14,12,50,,27,26,22,27,9,7,0.5,0.4
2024-11-15T1300,3613A,87.3095,44.0142,昌吉回族自治州,亚心广场,颗粒物(PM10),59,68,56,7,7,45,,27,24,29,34,4,2,0.7,0.6
2024-11-15T1300,1119A,125.3325,43.9166,长春市,食品厂,,30,21,34,21,33,72,,23,23,12,31,7,7,0.5,0.7
2024-11-15T1300,1120A,125.2863,43.9027,长春市,客车厂,,28,21,35,19,35,71,,23,23,12,30,8,7,0.3,0.6
2024-11-15T1300,1121A,125.2841,43.8463,长春市,邮电学院,,27,27,36,11,32,74,,25,25,14,30,8,9,0.4,0.7
2024-11-15T1300,1122A,125.3716,43.8772,长春市,劳动公园,,30,30,38,16,28,80,,31,31,13,30,8,10,0.3,0.6
2024-11-15T1300,1123A,125.3297,43.8805,长春市,园林处,,29,29,39,19,39,71,,25,25,13,31,6,8,0.4,0.7
2024-11-15T1300,1124A,125.4605,43.79,长春市,净月潭,,,,21,13,21,79,,34,34,,16,7,6,0.5,0.6
2024-11-15T1300,1125A,125.7194,43.515,长春市,甩湾子,,,,,,,,,,,,,,,,
2024-11-15T1300,1126A,125.3863,43.8447,长春市,经开区环卫处,,24,21,32,16,29,75,,28,28,14,31,10,10,0.3,0.6
2024-11-15T1300,1127A,125.245,43.7783,长春市,高新区管委会,,30,30,29,14,33,77,,29,29,10,29,6,6,0.2,0.6
2024-11-15T1300,1128A,125.1761,43.8325,长春市,岱山公园,,29,29,38,20,41,67,,22,22,10,31,6,5,0.4,0.6
2024-11-15T1300,1335A,113.0833,28.2325,长沙市,经开区环保局,细颗粒物(PM2.5),134,121,121,102,107,59,,27,27,16,31,3,2,0.7,0.8
2024-11-15T1300,1336A,112.8872,28.2189,长沙市,高开区环保局,细颗粒物(PM2.5),150,140,114,115,104,66,,34,30,18,19,6,6,0.9,0.8
2024-11-15T1300,1337A,113.0792,28.2053,长沙市,马坡岭,细颗粒物(PM2.5),139,,114,106,106,68,,30,30,16,28,3,4,0.7,0.8
2024-11-15T1300,1338A,112.9394,28.19,长沙市,湖南师范大学,细颗粒物(PM2.5),166,150,138,126,104,61,,37,31,20,24,7,8,1.1,1.1
2024-11-15T1300,1339A,113.0178,28.1322,长沙市,雨花区环保局,细颗粒物(PM2.5),285,,102,235,134,74,,37,37,14,21,4,5,0.7,0.8
2024-11-15T1300,1340A,112.9792,28.2597,长沙市,伍家岭,细颗粒物(PM2.5),144,160,145,110,107,58,,34,28,15,28,2,3,0.9,0.9
2024-11-15T1300,1341A,113.0014,28.1944,长沙市,火车新站,细颗粒物(PM2.5),128,132,120,97,98,62,,37,33,16,28,2,3,0.9,1
2024-11-15T1300,1342A,112.9844,28.1178,长沙市,天心区环保局,细颗粒物(PM2.5),143,149,149,109,96,64,,31,31,15,23,1,2,0.7,0.8
2024-11-15T1300,1343A,112.8908,28.1308,长沙市,湖南中医药大学,细颗粒物(PM2.5),175,169,154,132,122,71,,38,36,22,31,8,8,1.2,1.1
2024-11-15T1300,1344A,112.9581,28.3611,长沙市,沙坪,颗粒物(PM10),92,134,125,55,59,66,,32,28,9,12,6,8,0.8,0.8
2024-11-15T1300,1727A,113.1147,36.1547,长治市,清华站,细颗粒物(PM2.5),73,67,54,53,45,27,,14,14,37,33,7,8,1.4,1.6
2024-11-15T1300,1728A,113.1031,36.1989,长治市,监测站,细颗粒物(PM2.5),70,59,60,51,44,28,,13,13,30,32,10,11,1.5,1.7
2024-11-15T1300,1730A,113.0886,36.2125,长治市,审计局,,,,53,,49,33,,10,,18,26,6,7,1.2,1.3
2024-11-15T1300,1731A,113.0844,36.1856,长治市,长治八中,细颗粒物(PM2.5),87,75,64,64,58,26,,14,14,33,34,7,7,1.4,1.6
2024-11-15T1300,2845A,113.1569,36.1911,长治市,德盛苑,细颗粒物(PM2.5),73,63,51,53,40,41,,19,19,29,26,5,6,1.5,1.4
2024-11-15T1300,3568A,113.06,36.0464,长治市,向阳小学,细颗粒物(PM2.5),78,67,66,57,45,36,,24,24,30,32,8,9,1.2,1.3
2024-11-15T1300,3569A,112.8792,36.3144,长治市,屯留一中,"颗粒物(PM10),细颗粒物(PM2.5)",53,56,52,37,40,61,,21,21,16,32,9,9,1.2,1.2
2024-11-15T1300,3570A,113.235,36.3489,长治市,潞城四中,细颗粒物(PM2.5),77,62,50,56,44,45,,35,31,32,33,9,9,2.1,1.4
2024-11-15T1300,1854A,111.6975,28.9703,常德市,市二中,细颗粒物(PM2.5),59,58,65,42,46,60,,51,49,17,16,6,6,0.9,0.9
2024-11-15T1300,1857A,111.7158,29.1456,常德市,白鹤山,,,,,,,,,,,,,,,,
2024-11-15T1300,3138A,111.7153,29.0289,常德市,武陵区永安,细颗粒物(PM2.5),54,53,57,38,42,59,,52,52,16,17,6,7,0.8,0.8
2024-11-15T1300,3139A,111.6892,28.9881,常德市,鼎城区玉霞,颗粒物(PM10),58,65,67,37,44,60,,49,48,17,17,6,7,0.9,0.9
2024-11-15T1300,3140A,111.6625,29.0531,常德市,武陵区长庚,细颗粒物(PM2.5),57,54,64,40,46,57,,47,47,18,18,5,5,0.9,0.8
2024-11-15T1300,1196A,119.9633,31.762,常州市,市监测站,细颗粒物(PM2.5),163,243,135,124,63,14,,8,8,65,52,7,7,1.8,1
2024-11-15T1300,1200A,119.9468,31.7069,常州市,武进监测站,细颗粒物(PM2.5),152,170,95,116,57,16,,10,10,73,48,7,7,1.8,0.9
2024-11-15T1300,1201A,119.9255,31.9087,常州市,安家,细颗粒物(PM2.5),113,162,121,85,60,38,,14,14,34,49,8,8,0.9,0.9
2024-11-15T1300,3002A,119.9805,31.8174,常州市,行政中心,细颗粒物(PM2.5),148,192,118,113,59,18,,9,9,54,43,16,16,1.4,1
2024-11-15T1300,3003A,120.0522,31.7748,常州市,经开区,细颗粒物(PM2.5),143,,62,109,57,17,,8,8,56,51,8,8,1.5,1.1
2024-11-15T1300,3010A,119.9025,31.7964,常州市,钟楼,细颗粒物(PM2.5),143,125,87,109,63,23,,12,12,61,49,6,8,1.1,0.8
2024-11-15T1300,3429A,119.8598,31.7066,常州市,武进经发区,颗粒物(PM10),113,176,94,79,48,13,,9,9,67,52,4,6,1.6,1
2024-11-15T1300,3430A,119.5826,31.7245,常州市,金坛城区,细颗粒物(PM2.5),92,97,65,68,46,28,,11,11,42,36,6,7,0.9,0.8
2024-11-15T1300,2220A,120.4318,41.5881,朝阳市,西梁,颗粒物(PM10),62,73,82,36,51,25,,8,8,20,26,12,12,1.2,1.8
2024-11-15T1300,2221A,120.4521,41.5646,朝阳市,河畔小区,,50,50,39,31,33,33,,10,10,22,25,7,6,1.1,1.2
2024-11-15T1300,2222A,120.4176,41.5648,朝阳市,八里堡,,50,,60,35,42,31,,11,11,22,31,8,8,1.1,1.5
2024-11-15T1300,2223A,120.3806,41.5969,朝阳市,农业园区,细颗粒物(PM2.5),64,61,42,46,47,28,,11,11,25,30,13,7,1.4,1.3
2024-11-15T1300,1705A,116.6367,23.6719,潮州市,西园路,颗粒物(PM10),58,66,41,30,31,113,,36,36,14,22,8,7,0.9,0.8
2024-11-15T1300,3026A,116.6183,23.6608,潮州市,市政府,颗粒物(PM10),61,72,61,24,28,131,,48,48,15,29,14,18,0.9,0.9
2024-11-15T1300,4036A,116.6461,23.6761,潮州市,金山,颗粒物(PM10),58,65,44,28,29,124,,38,38,11,19,13,10,0.8,0.7
2024-11-15T1300,2472A,113.0073,25.9061,郴州市,马头岭,,18,18,60,9,30,28,,31,27,13,21,7,14,0.2,0.8
2024-11-15T1300,2473A,113.0116,25.8226,郴州市,市职中,,29,21,64,20,51,22,,21,19,14,24,6,8,0.8,0.8
2024-11-15T1300,2474A,113.0161,25.8001,郴州市,兴隆步行街,,17,17,67,9,45,19,,25,18,10,19,6,11,0.8,0.8
2024-11-15T1300,2475A,113.0383,25.8071,郴州市,市审计局,,30,25,66,21,51,18,,15,15,10,24,3,9,0.9,0.8
2024-11-15T1300,2476A,113.0348,25.7759,郴州市,市环保局,,26,26,75,14,58,24,,16,16,16,28,7,14,1.0,1
2024-11-15T1300,1431A,103.9728,30.7236,成都市,金泉两河,细颗粒物(PM2.5),55,58,62,39,45,18,,11,11,35,35,3,3,0.7,0.8
2024-11-15T1300,1432A,104.176,30.6872,成都市,十里店,细颗粒物(PM2.5),78,70,61,57,47,12,,7,7,42,45,3,2,0.8,0.8
2024-11-15T1300,1433A,104.079,30.5706,成都市,三瓦窑,细颗粒物(PM2.5),74,85,73,54,54,12,,4,4,42,47,3,3,0.8,0.9
2024-11-15T1300,1434A,104.1114,30.63,成都市,沙河铺,细颗粒物(PM2.5),68,75,64,49,46,9,,6,6,43,39,3,3,0.8,0.8
2024-11-15T1300,1437A,104.0786,30.6531,成都市,君平街,细颗粒物(PM2.5),78,72,69,57,50,16,,11,11,48,52,5,5,0.6,0.5
2024-11-15T1300,1438A,103.613,31.0283,成都市,灵岩寺,,,,,,,,,,,,,,,,
2024-11-15T1300,2880A,104.0239,30.65639,成都市,大石西路,细颗粒物(PM2.5),75,68,69,55,49,14,,9,9,36,40,5,4,0.8,0.9
2024-11-15T1300,3136A,104.2725,30.5589,成都市,龙泉驿区区政府,颗粒物(PM10),54,58,45,36,34,10,,5,5,36,34,3,3,0.8,0.7
2024-11-15T1300,3357A,104.0106,30.6931,成都市,金博路,颗粒物(PM10),58,65,63,35,45,15,,9,9,36,39,2,2,0.6,0.7
2024-11-15T1300,3359A,104.0578,30.5225,成都市,华阳,颗粒物(PM10),60,70,64,41,43,7,,5,5,41,37,2,1,1.1,1
2024-11-15T1300,3487A,104.2394,30.5319,成都市,车城东七路,颗粒物(PM10),60,70,64,42,42,17,,5,5,36,40,4,4,0.8,0.8
2024-11-15T1300,3488A,104.3853,30.7453,成都市,青白江技师分院,,49,49,56,33,40,22,,6,6,20,32,3,4,0.7,0.8
2024-11-15T1300,3489A,104.0789,30.4072,成都市,科学城,细颗粒物(PM2.5),67,61,56,48,47,11,,5,5,40,32,4,4,0.9,0.8
2024-11-15T1300,4011A,103.8506,30.6947,成都市,光华大道三段,颗粒物(PM10),52,53,59,22,39,25,,19,15,28,30,2,1,0.7,0.7
2024-11-15T1300,1062A,117.9531,40.9081,承德市,铁路,,39,,58,27,39,14,,5,5,28,36,4,6,0.8,1.1
2024-11-15T1300,1063A,117.9392,40.9763,承德市,中国银行,,23,23,52,12,32,18,,8,8,21,31,1,2,0.6,0.9
2024-11-15T1300,1064A,117.9503,40.928,承德市,开发区,,38,37,63,26,37,17,,9,9,20,28,5,6,0.8,1.2
2024-11-15T1300,1065A,117.8051,40.9655,承德市,文化中心,,34,34,64,18,36,16,,7,7,28,30,4,7,0.7,1
2024-11-15T1300,1066A,117.9268,41.0026,承德市,离宫,,40,,45,28,44,18,,8,8,16,24,2,1,0.5,0.7
2024-11-15T1300,2314A,117.47,30.6618,池州市,池州学院,细颗粒物(PM2.5),69,75,66,50,42,16,,5,5,41,45,8,8,1.0,1.1
2024-11-15T1300,3237A,117.4918,30.6617,池州市,展览馆,细颗粒物(PM2.5),63,73,62,45,39,19,,7,7,36,40,5,5,0.9,1
2024-11-15T1300,3333A,117.5627,30.695,池州市,第八中学,细颗粒物(PM2.5),67,77,59,48,37,21,,6,6,31,38,5,5,0.9,1
2024-11-15T1300,3334A,117.5038,30.6243,池州市,第十二中学,细颗粒物(PM2.5),70,67,50,51,37,8,,4,4,39,35,3,3,1.1,1.1
2024-11-15T1300,1744A,118.9233,42.2816,赤峰市,松山一中,颗粒物(PM10),64,78,67,30,32,18,,15,15,54,43,78,17,1.6,1.1
2024-11-15T1300,1745A,118.9576,42.2728,赤峰市,哈达街,颗粒物(PM10),61,72,55,31,29,17,,16,16,41,32,93,16,2.0,0.8
2024-11-15T1300,1746A,118.8788,42.2554,赤峰市,天义路,,45,45,49,25,30,28,,16,16,45,41,29,11,0.7,0.6
2024-11-15T1300,3058A,119.2658,42.0353,赤峰市,银河街,细颗粒物(PM2.5),107,98,78,80,50,32,,14,14,32,36,20,17,1.4,1.2
2024-11-15T1300,3286A,118.9359,42.3147,赤峰市,桥北物流园区,细颗粒物(PM2.5),60,67,68,43,38,25,,21,21,51,46,80,15,1.9,1
2024-11-15T1300,2521A,107.3476,22.4136,崇左市,市环保局江州分局,颗粒物(PM10),58,65,64,38,34,113,,53,53,5,19,8,4,0.6,0.6
2024-11-15T1300,2522A,107.3702,22.3707,崇左市,城南新区,,,73,45,37,31,116,,62,62,4,15,,6,0.6,0.6
2024-11-15T1300,2298A,118.3093,32.3153,滁州市,老年大学,细颗粒物(PM2.5),87,72,80,64,65,85,,39,39,15,26,8,8,0.5,0.6
2024-11-15T1300,2299A,118.3244,32.2786,滁州市,人大宾馆,细颗粒物(PM2.5),94,96,106,70,71,78,,40,40,28,35,8,9,0.5,0.6
2024-11-15T1300,3207A,118.3118,32.3038,滁州市,市政府原办公楼,细颗粒物(PM2.5),95,,84,71,74,81,,39,39,17,28,6,7,0.5,0.7
2024-11-15T1300,3331A,118.3267,32.2634,滁州市,图书馆,细颗粒物(PM2.5),70,66,74,51,54,81,,41,41,18,28,6,7,0.4,0.5
2024-11-15T1300,2605A,101.5482,25.0441,楚雄彝族自治州,州环境监测站,,25,20,18,7,10,79,,28,28,5,20,6,15,0.4,0.5
2024-11-15T1300,2606A,101.538,25.0492,楚雄彝族自治州,市经济开发区,,25,14,22,9,12,77,,29,29,7,22,6,10,0.5,0.6
2024-11-15T1300,2548A,107.5277,31.2827,达州市,达州职业技术学院,细颗粒物(PM2.5),53,44,44,37,26,18,,7,7,19,19,12,8,0.9,0.9
2024-11-15T1300,2549A,107.5086,31.2186,达州市,市环境监测站,颗粒物(PM10),52,54,48,24,18,11,,4,4,27,26,19,10,0.7,0.7
2024-11-15T1300,2550A,107.4988,31.2132,达州市,凤凰小区,,48,48,36,31,22,17,,8,8,22,23,19,12,0.7,0.8
2024-11-15T1300,2551A,107.5082,31.1986,达州市,达县机关宾馆,,50,48,38,35,27,18,,8,8,29,27,15,9,0.8,0.8
2024-11-15T1300,2552A,107.4644,31.2124,达州市,市政中心,颗粒物(PM10),53,55,44,34,20,14,,8,8,30,27,15,8,0.8,0.9
2024-11-15T1300,2614A,100.1542,25.7054,大理白族自治州,大理市环境监测站,,29,29,21,14,17,71,,56,55,5,9,6,6,0.5,0.5
2024-11-15T1300,2615A,100.2171,25.5811,大理白族自治州,大理古城,,30,30,24,3,11,84,,52,52,6,16,6,6,0.3,0.3
2024-11-15T1300,1109A,121.612,38.9741,大连市,甘井子,,44,44,49,22,31,83,,63,63,18,28,7,7,0.7,0.7
2024-11-15T1300,1110A,121.565,38.9511,大连市,周水子,,47,47,55,23,33,83,,53,53,17,32,8,6,0.8,0.7
2024-11-15T1300,1111A,121.5637,38.8845,大连市,星海三站,,38,38,45,21,26,89,,67,67,12,21,6,7,0.5,0.6
2024-11-15T1300,1112A,121.6302,38.9117,大连市,青泥洼桥,,48,48,57,25,29,80,,59,59,6,17,8,8,0.7,0.7
2024-11-15T1300,1113A,121.6251,38.8638,大连市,傅家庄,,36,36,44,20,24,85,,68,68,12,19,9,10,0.6,0.6
2024-11-15T1300,1114A,121.5213,38.8661,大连市,七贤岭,,36,36,49,20,25,93,,71,71,9,21,7,8,0.5,0.5
2024-11-15T1300,1115A,121.2529,38.8061,大连市,旅顺,,31,27,36,18,20,99,,81,81,6,12,7,8,0.7,0.7
2024-11-15T1300,1116A,121.7485,39.1311,大连市,金州,,32,26,59,16,34,100,,59,59,11,22,8,7,0.5,0.8
2024-11-15T1300,1117A,121.7811,39.0496,大连市,开发区,颗粒物(PM10),52,53,60,23,35,87,,57,57,10,23,8,8,0.5,0.7
2024-11-15T1300,1118A,121.9762,39.0631,大连市,双D港,,,33,43,25,33,89,,67,67,,17,6,6,,0.8
2024-11-15T1300,1789A,124.81117,46.03138,大庆市,大同区,细颗粒物(PM2.5),103,92,175,77,143,52,,28,28,17,34,5,5,0.5,0.8
2024-11-15T1300,1790A,125.129,46.533,大庆市,龙凤区,,,,152,,110,,,28,28,15,40,7,7,0.6,0.8
2024-11-15T1300,1791A,124.902,46.408,大庆市,红岗区,细颗粒物(PM2.5),69,56,147,50,114,59,,31,31,16,43,7,8,0.4,0.9
2024-11-15T1300,1792A,125.153,46.586,大庆市,萨尔图区,细颗粒物(PM2.5),130,112,171,99,143,60,,38,38,22,43,8,7,0.5,0.7
2024-11-15T1300,1793A,124.9042,46.6215,大庆市,让胡路区,细颗粒物(PM2.5),102,90,180,76,132,55,,25,25,24,39,8,7,0.5,0.8
2024-11-15T1300,3481A,125.141,46.634,大庆市,萨区政府监测点,,,,167,,138,50,,28,28,19,40,8,6,,0.9
2024-11-15T1300,1721A,113.3819,40.1097,大同市,果树场,细颗粒物(PM2.5),78,74,66,57,52,26,,13,13,51,39,13,10,1.3,1.2
2024-11-15T1300,1723A,113.2994,40.0758,大同市,云冈宾馆,细颗粒物(PM2.5),110,97,69,83,52,18,,10,10,53,41,17,9,1.5,1.3
2024-11-15T1300,1724A,113.3444,40.0917,大同市,大同大学,细颗粒物(PM2.5),80,105,62,59,42,20,,13,13,54,42,14,14,1.5,1.1
2024-11-15T1300,1725A,113.2661,40.1269,大同市,安家小村,细颗粒物(PM2.5),95,97,74,71,48,22,,14,14,50,41,29,17,2.4,1.6
2024-11-15T1300,1726A,113.2711,40.0844,大同市,教育学院,细颗粒物(PM2.5),94,125,91,70,50,14,,7,7,60,48,20,12,1.6,1.6
2024-11-15T1300,3282A,113.3397,40.0597,大同市,大同市卫生学校,细颗粒物(PM2.5),105,131,80,79,50,10,,8,8,50,45,11,10,1.4,1
2024-11-15T1300,3565A,113.1367,40.1122,大同市,云冈站,细颗粒物(PM2.5),73,59,64,53,43,26,,14,14,41,37,32,14,0.9,0.8
2024-11-15T1300,3566A,113.1186,40.2556,大同市,图书馆,细颗粒物(PM2.5),75,59,51,55,38,46,,20,20,20,28,24,18,0.9,0.8
2024-11-15T1300,3567A,113.5931,40.0461,大同市,区一中,颗粒物(PM10),68,85,74,31,25,20,,21,12,42,31,15,14,1.3,1
2024-11-15T1300,3676A,113.2802,40.0995,大同市,第二人民医院,细颗粒物(PM2.5),95,128,90,71,48,19,,12,12,59,46,17,14,1.9,1.6
2024-11-15T1300,2269A,124.1069,50.4097,大兴安岭地区,科技局,,37,37,38,15,18,30,,39,33,19,10,7,5,0.4,0.3
2024-11-15T1300,3663A,124.1164,50.4278,大兴安岭地区,红旗社区,,14,9,30,6,23,44,,17,17,10,22,4,6,0.4,0.5
2024-11-15T1300,1600A,124.3303,40.0625,丹东市,江湾东路,,42,42,66,28,39,78,,43,43,10,29,13,12,0.8,1
2024-11-15T1300,1601A,124.4256,40.1503,丹东市,临江后街,,33,28,58,23,38,83,,38,38,8,26,9,8,0.5,0.8
2024-11-15T1300,1602A,124.3933,40.1461,丹东市,元宝山,,29,28,59,20,32,69,,35,35,17,26,7,5,0.6,0.8
2024-11-15T1300,1603A,124.3633,40.1092,丹东市,民主桥,,47,47,62,25,31,75,,35,35,30,41,12,9,0.8,0.9
2024-11-15T1300,3541A,109.5726,19.5167,儋州市,第一中学子站,,27,22,48,18,31,84,,57,57,2,5,5,5,0.6,0.6
2024-11-15T1300,3542A,109.5567,19.5187,儋州市,东坡学校子站,,32,32,37,20,26,95,,63,63,3,6,5,5,0.5,0.6
2024-11-15T1300,2616A,98.5842,24.428,德宏傣族景颇族自治州,德宏州监测站,,41,41,28,21,16,66,,32,32,18,23,24,12,0.6,0.6
2024-11-15T1300,3677A,98.5881,24.4368,德宏傣族景颇族自治州,芒市人民政府综合楼,,46,46,28,23,15,66,,31,31,18,14,18,8,0.6,0.6
2024-11-15T1300,1901A,104.4239,31.1208,德阳市,东山公园,颗粒物(PM10),53,55,39,25,20,17,,27,21,24,21,2,2,0.8,0.7
2024-11-15T1300,1902A,104.3826,31.1317,德阳市,西小区,,50,50,39,30,27,13,,29,21,28,26,2,3,1.0,0.9
2024-11-15T1300,1904A,104.3553,31.1091,德阳市,耐火材料厂,颗粒物(PM10),53,56,38,28,24,11,,20,14,30,26,4,5,0.8,0.7
2024-11-15T1300,3639A,104.4019,31.1244,德阳市,市教育局,,48,48,36,22,21,14,,24,16,26,26,3,4,0.9,0.7
2024-11-15T1300,1622A,116.3032,37.4674,德州市,儿童乐园,细颗粒物(PM2.5),62,61,55,44,44,75,,57,57,19,28,8,8,1.0,1.2
2024-11-15T1300,1624A,116.2991,37.4451,德州市,监理站,细颗粒物(PM2.5),67,51,47,48,46,77,,60,60,17,25,10,10,1.0,1.2
2024-11-15T1300,3066A,116.2721,37.4379,德州市,九衢泉纯净水厂,,46,46,52,31,36,77,,55,55,13,24,7,8,1.1,1.3
2024-11-15T1300,3371A,116.3728,37.4403,德州市,开发区人民医院,颗粒物(PM10),57,63,55,36,41,66,,47,47,22,29,6,6,0.9,1
2024-11-15T1300,3372A,116.3572,37.4094,德州市,太阳城中学,细颗粒物(PM2.5),64,53,57,46,48,69,,49,49,24,32,4,5,1.0,1.2
2024-11-15T1300,3511A,116.5652,37.3319,德州市,陵城艺术中心,细颗粒物(PM2.5),73,68,50,53,44,38,,41,40,33,35,7,7,1.0,1.2
2024-11-15T1300,2621A,99.7056,27.8317,迪庆藏族自治州,迪庆州站,,38,38,29,22,15,82,,47,47,16,14,6,6,0.4,0.4
2024-11-15T1300,3180A,99.7136,27.8094,迪庆藏族自治州,质量技术监督局,,48,48,30,6,15,83,,37,37,23,16,8,7,0.7,0.6
2024-11-15T1300,2663A,104.6241,35.5734,定西市,东关小学,颗粒物(PM10),106,162,75,44,33,69,,56,56,7,11,3,3,0.3,0.5
2024-11-15T1300,2664A,104.6194,35.5934,定西市,供电公司,颗粒物(PM10),95,140,63,37,31,70,,59,59,6,12,4,6,0.0,0.2
2024-11-15T1300,1389A,113.7547,23.0494,东莞市,莞城梨川,,22,17,12,15,9,46,,29,29,15,19,7,7,0.6,0.6
2024-11-15T1300,1390A,113.7944,23.0128,东莞市,东城石井,,16,14,15,10,9,51,,31,31,10,18,8,8,0.6,0.6
2024-11-15T1300,1391A,113.7383,22.9658,东莞市,南城西平,,13,12,16,9,10,40,,19,19,17,28,4,6,0.6,0.6
2024-11-15T1300,3319A,113.7338,23.0381,东莞市,万江金泰,,18,17,16,12,9,48,,30,30,11,18,7,7,0.7,0.7
2024-11-15T1300,3626A,113.7533,23.0202,东莞市,南城元岭,,18,15,12,12,8,43,,31,31,9,13,6,7,0.7,0.7
2024-11-15T1300,3627A,113.7875,23.0457,东莞市,东城主山,,20,20,14,13,9,42,,28,28,16,20,6,6,0.6,0.5
2024-11-15T1300,1666A,118.6614,37.4309,东营市,市环保局,细颗粒物(PM2.5),94,92,65,70,54,69,,24,24,19,50,3,5,0.6,1
2024-11-15T1300,3036A,118.6904,37.4338,东营市,开发区管委会,细颗粒物(PM2.5),104,90,68,78,57,73,,28,28,18,47,3,4,0.5,0.8
2024-11-15T1300,3365A,118.5719,37.565,东营市,垦利区民丰路,细颗粒物(PM2.5),85,68,61,63,49,38,,15,15,32,46,5,7,1.1,1.4
2024-11-15T1300,3498A,118.5055,37.8612,东营市,河口城区,细颗粒物(PM2.5),92,75,65,68,50,33,,17,17,27,42,2,3,1.6,1.7
2024-11-15T1300,3646A,118.4978,37.4623,东营市,胜利站,,,,53,56,51,,,10,10,34,48,3,5,1.4,1.8
2024-11-15T1300,3734A,118.35,37.26,东营市,理想之城,细颗粒物(PM2.5),94,102,90,70,57,52,,19,19,30,53,4,6,1.0,1.3
2024-11-15T1300,1591A,110.0023,39.8129,鄂尔多斯市,综合楼,颗粒物(PM10),57,63,58,39,30,52,,52,46,25,36,7,9,0.9,1
2024-11-15T1300,1592A,109.9486,39.8261,鄂尔多斯市,巴音孟克林场办事处,颗粒物(PM10),54,58,52,36,30,41,,43,39,26,32,6,9,0.7,0.8
2024-11-15T1300,1593A,109.7736,39.5986,鄂尔多斯市,康泽苑,颗粒物(PM10),60,70,49,41,34,58,,52,45,14,22,6,7,0.7,0.7
2024-11-15T1300,1594A,109.8119,39.5989,鄂尔多斯市,华泰汽车城,颗粒物(PM10),59,68,48,39,34,53,,50,42,14,20,5,6,0.6,0.6
2024-11-15T1300,1595A,109.9734,39.7884,鄂尔多斯市,奥林花园,颗粒物(PM10),58,66,58,36,30,46,,41,39,22,34,5,8,0.6,0.8
2024-11-15T1300,2436A,114.8938,30.3994,鄂州市,市政府,细颗粒物(PM2.5),70,88,94,51,56,86,,41,41,21,36,7,8,0.9,1
2024-11-15T1300,2437A,114.8989,30.3714,鄂州市,赵家坝,细颗粒物(PM2.5),74,96,94,54,55,82,,34,34,19,30,6,7,1.0,1
2024-11-15T1300,3654A,114.8094,30.4089,鄂州市,精准医疗中心,,,80,89,45,59,91,,43,43,23,39,,8,0.9,0.9
2024-11-15T1300,2454A,109.4978,30.2981,恩施土家族苗族自治州,湖北民院,,46,46,40,27,25,34,,10,10,24,24,6,6,0.5,0.6
2024-11-15T1300,2455A,109.4707,30.2798,恩施土家族苗族自治州,州电力总公司,,34,34,37,18,23,27,,11,11,24,24,7,7,0.8,0.9
2024-11-15T1300,3549A,109.5061,30.3772,恩施土家族苗族自治州,龙凤新区,,45,45,37,29,22,21,,8,8,25,21,6,6,0.8,0.9
2024-11-15T1300,2499A,108.3411,21.6158,防城港市,沙万,颗粒物(PM10),86,121,54,46,37,98,,69,59,51,23,40,13,1.3,0.8
2024-11-15T1300,2500A,108.3514,21.7731,防城港市,防城档案局,颗粒物(PM10),56,62,62,33,36,121,,62,62,11,17,11,9,0.6,0.7
2024-11-15T1300,2501A,108.3506,21.6414,防城港市,大海花园,颗粒物(PM10),86,122,54,41,32,110,,75,66,50,22,29,10,1.3,0.8
2024-11-15T1300,1371A,113.1294,23.0067,佛山市,湾梁,,17,17,14,10,9,27,,29,29,34,27,6,6,0.7,0.6
2024-11-15T1300,1372A,113.1083,23.0478,佛山市,华材职中,,20,17,13,14,13,18,,18,18,35,28,8,8,0.6,0.5
2024-11-15T1300,1373A,113.144,23.0453,佛山市,南海气象局,,22,22,19,9,10,27,,16,16,29,25,7,7,0.6,0.5
2024-11-15T1300,1374A,113.2881,22.8094,佛山市,顺德苏岗,,21,21,21,14,9,26,,21,21,34,30,7,8,0.7,0.6
2024-11-15T1300,1376A,112.8383,22.8678,佛山市,高明孔堂,,31,31,26,15,17,36,,24,24,33,27,5,5,0.6,0.5
2024-11-15T1300,1377A,112.8836,23.1588,佛山市,三水监测站,,38,29,20,26,22,27,,17,17,35,27,5,6,0.6,0.6
2024-11-15T1300,1378A,112.867,23.185,佛山市,三水云东海,,25,,20,17,18,16,,12,12,25,24,9,8,0.7,0.7
2024-11-15T1300,3625A,113.2544,22.7642,佛山市,容桂街道办,,25,,13,17,11,42,,31,31,27,27,6,7,0.7,0.7
2024-11-15T1300,1280A,119.3903,26.0543,福州市,鼓山,,,,9,,12,,,37,,,5,,3,,0.3
2024-11-15T1300,1282A,119.2681,26.0504,福州市,师大,,19,19,29,3,15,47,,34,34,10,14,3,2,0.5,0.5
2024-11-15T1300,1283A,119.2984,26.1028,福州市,五四北路,,13,6,27,3,15,40,,25,25,5,20,3,3,0.5,0.5
2024-11-15T1300,1284A,119.2648,26.0768,福州市,杨桥西路,,15,11,28,3,17,45,,32,32,5,17,1,2,0.4,0.4
2024-11-15T1300,1285A,119.317,26.0746,福州市,紫阳,,11,10,40,3,18,35,,21,21,6,26,3,3,0.3,0.3
2024-11-15T1300,3048A,119.5799,26.0936,福州市,九龙,,15,11,17,3,7,48,,24,24,6,7,3,2,0.2,0.3
2024-11-15T1300,3526A,119.5189,25.9664,福州市,吴航,,,11,34,7,21,46,,18,18,,33,3,3,0.3,0.5
2024-11-15T1300,1755A,123.7977,41.8491,抚顺市,望花区,,34,34,36,21,26,62,,26,26,28,36,7,4,0.7,0.7
2024-11-15T1300,1756A,123.9161,41.8822,抚顺市,顺城区,,28,28,27,16,22,86,,36,36,16,33,7,5,0.7,0.5
2024-11-15T1300,1757A,124.0436,41.8611,抚顺市,东洲区,,23,21,21,9,17,72,,43,43,8,10,5,6,0.4,0.5
2024-11-15T1300,1758A,123.9247,41.8642,抚顺市,新抚区,,44,44,27,14,19,77,,31,31,17,29,6,4,0.6,0.5
2024-11-15T1300,1759A,124.0972,41.8961,抚顺市,大伙房水库,,22,13,17,11,20,70,,46,46,5,10,7,6,0.5,0.6
2024-11-15T1300,1760A,123.7086,41.8391,抚顺市,沈抚新城,,,44,37,23,28,73,,38,38,19,32,,8,0.9,0.9
2024-11-15T1300,2376A,116.2127,28.0814,抚州市,桐源党溪,,21,21,37,8,20,21,,18,18,3,5,7,6,0.4,0.5
2024-11-15T1300,2377A,116.3544,27.9831,抚州市,市站,,29,29,39,12,22,20,,16,16,11,13,3,4,1.1,1.1
2024-11-15T1300,2378A,116.3565,27.963,抚州市,血防站,,30,30,41,12,20,16,,14,13,12,14,2,5,1.1,1
2024-11-15T1300,2379A,116.3564,28.0007,抚州市,采茶剧团,,,24,37,10,22,14,,10,,10,12,7,8,,1
2024-11-15T1300,2380A,116.385,27.9647,抚州市,医学分院,,25,25,42,3,16,16,,12,12,10,14,4,6,0.8,1
2024-11-15T1300,2207A,121.6094,41.998,阜新市,工业园区,,32,22,54,22,34,68,,43,43,19,33,11,19,0.7,1.1
2024-11-15T1300,2208A,121.6697,42.0279,阜新市,长青街,,37,37,46,25,30,61,,42,42,26,27,13,18,0.7,0.9
2024-11-15T1300,2209A,121.6673,42.0705,阜新市,农业园区,,49,49,35,29,27,61,,52,52,27,22,12,15,0.5,0.7
2024-11-15T1300,2210A,121.6717,42.0224,阜新市,东苑,颗粒物(PM10),51,51,42,26,25,54,,41,41,30,36,19,26,0.8,1
2024-11-15T1300,2211A,121.6506,42.0498,阜新市,玉龙新城,,44,44,44,23,27,67,,42,42,24,29,14,18,0.7,1
2024-11-15T1300,2301A,115.8277,32.8929,阜阳市,市监测站,细颗粒物(PM2.5),88,93,92,65,63,42,,21,21,23,28,5,6,0.8,0.7
2024-11-15T1300,2303A,115.8554,32.8605,阜阳市,开发区,细颗粒物(PM2.5),104,98,96,78,69,34,,17,17,29,29,6,6,0.8,0.7
2024-11-15T1300,2875A,115.784,32.8892,阜阳市,阜阳职业技术学院,细颗粒物(PM2.5),75,95,97,55,59,43,,23,23,18,22,6,5,0.7,0.7
2024-11-15T1300,3468A,115.7901,32.8613,阜阳市,市规划展馆,细颗粒物(PM2.5),107,80,82,80,80,47,,31,31,22,25,6,6,0.8,0.7
2024-11-15T1300,3469A,115.836,32.9183,阜阳市,枣园社区,细颗粒物(PM2.5),102,87,91,76,75,48,,23,23,20,28,6,7,0.6,0.6
2024-11-15T1300,2669A,102.9099,34.9841,甘南藏族自治州,州政府,,32,32,29,11,14,70,,30,30,5,25,4,5,0.5,0.7
2024-11-15T1300,3380A,102.8914,34.9617,甘南藏族自治州,甘肃民族师范学院,,23,,24,7,14,72,,28,28,6,29,4,6,0.4,0.4
2024-11-15T1300,2570A,101.9603,30.0475,甘孜藏族自治州,水桥子,,28,28,22,12,9,51,,23,23,12,26,8,7,0.3,0.3
2024-11-15T1300,3065A,101.9533,29.9972,甘孜藏族自治州,州环保局,,20,10,18,7,5,64,,50,47,10,16,4,4,0.2,0.3
2024-11-15T1300,3414A,115.8347,28.932,赣江新区,桑海产业园,,15,14,13,10,11,24,,18,18,20,29,9,8,0.4,0.5
2024-11-15T1300,2362A,114.9017,25.9149,赣州市,通天岩,,20,18,35,14,26,35,,27,27,12,11,3,3,0.7,0.6
2024-11-15T1300,2363A,114.9367,25.8664,赣州市,地委,,40,,48,28,31,33,,35,35,10,22,2,4,1.0,1
2024-11-15T1300,2364A,114.9461,25.8481,赣州市,气象台,,32,22,42,22,29,26,,30,30,18,29,4,9,0.9,0.8
2024-11-15T1300,2365A,114.9322,25.8333,赣州市,市图书馆,,19,,44,13,25,34,,38,38,13,28,3,6,1.0,1
2024-11-15T1300,2366A,114.8905,25.8471,赣州市,华坚鞋城,,22,22,49,7,27,28,,44,31,13,23,3,5,0.5,0.4
2024-11-15T1300,3109A,115.0093,25.8613,赣州市,赣县区卫计委,,,26,41,11,24,22,,18,18,,30,5,5,0.6,0.7
2024-11-15T1300,2683A,106.2319,36.1417,固原市,马园,颗粒物(PM10),197,343,92,33,26,63,,50,50,15,21,6,6,0.7,0.9
2024-11-15T1300,2684A,106.2792,36.0022,固原市,监测站,颗粒物(PM10),171,292,74,42,30,68,,56,56,13,17,4,4,0.5,0.6
2024-11-15T1300,2685A,106.2375,36.0211,固原市,新区,颗粒物(PM10),186,322,76,40,28,67,,56,56,11,15,4,4,0.4,0.6
2024-11-15T1300,3522A,106.2177,35.9959,固原市,原州区十五小,颗粒物(PM10),156,261,68,52,30,64,,55,55,14,17,5,5,0.5,0.6
2024-11-15T1300,2543A,106.6308,30.5278,广安市,小平旧居,,,,,,,,,,,,,,,,
2024-11-15T1300,2544A,106.6303,30.4576,广安市,市委,,41,41,36,21,21,33,,24,21,13,16,3,3,0.6,0.5
2024-11-15T1300,2545A,106.6271,30.4663,广安市,友谊中学,,33,29,30,23,21,33,,24,19,12,18,3,3,0.7,0.6
2024-11-15T1300,2547A,106.6388,30.4551,广安市,广电花园,,,41,33,19,19,30,,23,20,14,18,,6,0.7,0.6
2024-11-15T1300,2902A,106.6351,30.4865,广安市,北辰小学,,37,37,33,22,23,31,,26,22,10,13,5,5,0.7,0.7
2024-11-15T1300,2523A,105.8945,32.4535,广元市,黑石坡,,28,24,22,19,14,2,,0,0,13,19,6,7,0.8,0.7
2024-11-15T1300,2524A,105.821,32.4444,广元市,老城,,43,43,37,16,19,9,,5,5,21,24,4,8,1.2,1.1
2024-11-15T1300,2526A,105.8628,32.4287,广元市,监测站,,30,,33,21,22,13,,8,8,22,26,3,7,1.0,1.1
2024-11-15T1300,3617A,105.8047,32.4166,广元市,经开区,颗粒物(PM10),52,54,44,29,23,11,,6,6,24,24,4,10,1.2,1.1
2024-11-15T1300,1345A,113.2347,23.1423,广州市,广雅中学,,31,31,18,16,8,23,,26,26,40,29,6,6,0.9,0.7
2024-11-15T1300,1346A,113.2612,23.105,广州市,市五中,,28,19,13,19,10,43,,33,33,21,19,4,4,0.7,0.6
2024-11-15T1300,1348A,113.3478,23.0916,广州市,广东商学院,,22,20,15,15,10,28,,15,15,23,20,5,5,0.6,0.5
2024-11-15T1300,1349A,113.4332,23.1047,广州市,市八十六中,,19,19,26,10,10,20,,15,15,35,30,4,4,0.6,0.6
2024-11-15T1300,1350A,113.3505,22.9483,广州市,番禺中学,,29,24,18,20,14,41,,32,32,33,33,7,7,0.7,0.6
2024-11-15T1300,1351A,113.2146,23.3916,广州市,花都师范,,14,14,16,9,10,38,,28,28,20,20,4,4,1.0,0.9
2024-11-15T1300,1352A,113.2597,23.1331,广州市,市监测站,,15,15,12,10,7,34,,25,25,16,16,5,5,0.5,0.5
2024-11-15T1300,1353A,113.5618,23.312,广州市,九龙镇镇龙,,18,14,10,12,8,40,,31,31,16,12,5,5,0.5,0.5
2024-11-15T1300,1354A,113.2765,23.1544,广州市,麓湖,,15,12,10,10,7,32,,16,16,22,24,3,4,0.6,0.5
2024-11-15T1300,1355A,113.443,23.3035,广州市,帽峰山森林公园,,13,,3,3,5,39,,33,33,12,16,4,4,0.7,0.6
2024-11-15T1300,2846A,113.3221,23.1322,广州市,体育西,,23,21,15,16,9,27,,20,20,28,19,2,3,0.6,0.5
2024-11-15T1300,3298A,113.5717,23.5491,广州市,从化街口,,12,7,16,3,10,38,,29,29,13,19,8,8,0.6,0.6
2024-11-15T1300,3299A,113.3472,23.3692,广州市,白云竹料,,14,10,16,7,11,42,,34,34,15,18,6,6,0.6,0.6
2024-11-15T1300,3300A,113.2981,23.237,广州市,白云嘉禾,,,27,20,13,9,27,,10,,34,33,,6,1.0,1
2024-11-15T1300,3301A,113.4256,23.1716,广州市,黄埔科学城,,12,12,11,8,7,34,,25,25,17,19,6,5,0.7,0.6
2024-11-15T1300,3302A,113.3942,23.0483,广州市,番禺大学城,,22,19,23,15,11,19,,15,15,34,31,8,8,1.4,1.2
2024-11-15T1300,3303A,113.4922,22.8168,广州市,南沙黄阁,,26,20,20,18,15,51,,32,32,32,36,5,6,0.8,0.7
2024-11-15T1300,3304A,113.5342,22.7896,广州市,南沙街,,25,,18,17,13,61,,42,42,22,25,5,4,0.5,0.5
2024-11-15T1300,3443A,113.2902,23.5544,广州市,花都梯面,,16,16,16,11,10,34,,34,34,8,11,7,6,0.6,0.6
2024-11-15T1300,3445A,113.7858,23.7478,广州市,从化良口,,,6,8,3,7,37,,24,24,5,9,,5,,0.8
2024-11-15T1300,3446A,113.8051,23.2614,广州市,增城荔城,,20,16,12,14,9,32,,25,25,14,11,5,5,0.5,0.5
2024-11-15T1300,2505A,109.568,23.1478,贵港市,德智高中,,,,,,,,,,,,,,,,
2024-11-15T1300,2506A,109.6047,23.0666,贵港市,江南子站,,34,34,53,19,32,105,,48,48,9,21,11,14,0.7,0.8
2024-11-15T1300,2507A,109.6014,23.0948,贵港市,贵城子站,,43,43,52,21,31,99,,44,44,8,19,10,13,0.4,0.6
2024-11-15T1300,2508A,109.5669,23.1065,贵港市,荷城子站,,,34,51,22,27,99,,53,53,,23,14,16,0.6,0.6
2024-11-15T1300,3405A,109.5886,23.1172,贵港市,新世纪学校,,32,27,44,17,25,101,,48,48,12,22,11,12,0.5,0.6
2024-11-15T1300,1439A,106.6899,26.5998,贵阳市,马鞍山,,35,34,34,24,22,108,,48,48,8,14,5,4,0.6,0.6
2024-11-15T1300,1440A,106.6971,26.5694,贵阳市,市环保站,,45,34,44,31,35,112,,63,63,12,22,5,4,0.4,0.5
2024-11-15T1300,1441A,106.6243,26.6266,贵阳市,鉴湖路,,46,46,40,29,25,101,,64,64,7,13,7,5,0.4,0.4
2024-11-15T1300,1442A,106.7487,26.6343,贵阳市,燕子冲,,42,29,38,29,35,119,,43,43,8,15,30,7,0.4,0.5
2024-11-15T1300,1443A,106.6555,26.4365,贵阳市,碧云窝,,,,47,,25,103,,49,49,6,14,8,6,,0.5
2024-11-15T1300,1444A,106.694,26.5161,贵阳市,中院村,,45,41,48,31,32,95,,50,50,10,31,5,5,0.6,0.7
2024-11-15T1300,1445A,106.7109,26.6027,贵阳市,红边门,细颗粒物(PM2.5),52,48,48,36,36,105,,53,53,13,22,5,5,0.6,0.7
2024-11-15T1300,1446A,106.7164,26.5699,贵阳市,新华路,,39,34,44,27,31,106,,60,60,9,19,6,5,0.4,0.4
2024-11-15T1300,1447A,106.674,26.5424,贵阳市,太慈桥,,32,31,40,22,25,102,,46,46,8,19,6,6,0.3,0.4
2024-11-15T1300,1552A,106.805,26.3003,贵阳市,桐木岭,颗粒物(PM10),51,51,52,31,37,103,,93,93,2,2,4,5,0.5,0.6
2024-11-15T1300,1862A,110.4144,25.3167,桂林市,电子科大尧山校区,,49,,43,34,36,84,,58,58,4,8,3,8,0.6,0.6
2024-11-15T1300,1863A,110.2819,25.2697,桂林市,监测站,细颗粒物(PM2.5),72,70,54,52,45,106,,67,67,9,14,10,16,0.7,0.6
2024-11-15T1300,1864A,110.3089,25.2708,桂林市,龙隐路小学,,,,50,,42,,,86,,,15,,15,,0.7
2024-11-15T1300,1865A,110.2869,25.2178,桂林市,八中,细颗粒物(PM2.5),64,70,53,46,38,105,,61,61,10,15,10,11,0.7,0.7
2024-11-15T1300,3403A,110.1764,25.2381,桂林市,创业大厦,细颗粒物(PM2.5),64,53,50,46,42,114,,63,63,9,15,8,12,0.4,0.4
2024-11-15T1300,3531A,110.296,25.1253,桂林市,旅游学院,细颗粒物(PM2.5),55,44,41,39,32,109,,54,54,9,14,12,14,0.7,0.7
2024-11-15T1300,2674A,100.2561,34.4714,果洛藏族自治州,玛沁县大武镇,,25,21,40,7,22,78,,42,42,4,10,20,15,0.5,0.5
2024-11-15T1300,1129A,126.5422,45.755,哈尔滨市,岭北,细颗粒物(PM2.5),256,223,173,206,150,55,,58,57,58,31,17,16,0.2,0.1
2024-11-15T1300,1130A,126.561,45.8167,哈尔滨市,松北商大,细颗粒物(PM2.5),256,212,155,206,157,47,,41,41,37,34,9,13,1.1,0.9
2024-11-15T1300,1131A,126.979,45.5419,哈尔滨市,阿城会宁,细颗粒物(PM2.5),138,126,126,105,116,38,,40,38,20,24,12,11,,0.9
2024-11-15T1300,1132A,126.599,45.7222,哈尔滨市,南岗学府路,细颗粒物(PM2.5),230,257,188,180,131,46,,39,39,43,38,,8,1.0,0.8
2024-11-15T1300,1133A,126.689,45.7733,哈尔滨市,太平宏伟公园,细颗粒物(PM2.5),235,251,165,185,152,36,,43,39,49,36,11,8,0.9,0.8
2024-11-15T1300,1134A,126.635,45.7667,哈尔滨市,道外承德广场,细颗粒物(PM2.5),235,263,192,185,161,36,,37,35,56,43,10,12,1.4,1.1
2024-11-15T1300,1135A,126.685,45.7319,哈尔滨市,香坊红旗大街,细颗粒物(PM2.5),261,237,182,211,157,41,,36,36,40,43,8,8,1.3,1
2024-11-15T1300,1136A,126.6411,45.7258,哈尔滨市,动力和平路,细颗粒物(PM2.5),241,237,167,191,164,33,,32,31,51,41,11,10,1.0,0.8
2024-11-15T1300,1137A,126.593,45.7478,哈尔滨市,道里建国路,细颗粒物(PM2.5),234,233,163,184,160,40,,38,38,51,40,9,9,0.2,0.4
2024-11-15T1300,1138A,126.615,45.61,哈尔滨市,平房东轻厂,细颗粒物(PM2.5),208,188,161,158,141,40,,29,29,28,37,8,9,0.8,0.8
2024-11-15T1300,1139A,126.595,45.9855,哈尔滨市,呼兰师专,细颗粒物(PM2.5),238,194,166,188,188,46,,41,38,28,28,6,6,0.8,0.7
2024-11-15T1300,1140A,126.6206,45.6842,哈尔滨市,省农科院,细颗粒物(PM2.5),206,229,185,156,132,39,,29,29,36,43,6,7,0.9,1
2024-11-15T1300,2688A,93.5128,42.8172,哈密市,地区监测站,,32,32,35,14,13,53,,57,51,8,11,3,4,0.2,0.3
2024-11-15T1300,2689A,93.4961,42.8328,哈密市,哈密师范学校,,26,,30,18,18,56,,63,54,11,14,4,4,0.4,0.4
2024-11-15T1300,2671A,100.9048,36.9639,海北藏族自治州,海晏县西海镇,颗粒物(PM10),68,86,28,45,21,77,,59,59,12,10,8,11,0.7,0.5
2024-11-15T1300,3867A,102.0738,36.5056,海东市,平安区公安北苑,颗粒物(PM10),99,147,92,33,42,73,,46,46,12,40,8,13,0.5,0.8
2024-11-15T1300,1409A,110.576,19.9507,海口市,东寨港,,,,,,,,,,,,,,,,
2024-11-15T1300,1410A,110.3232,20.0574,海口市,海南大学,,34,17,38,15,28,106,,97,94,10,17,4,5,0.5,0.5
2024-11-15T1300,1411A,110.283,20.0053,海口市,秀英海南医院,,34,23,51,11,31,106,,89,89,8,18,6,7,0.3,0.5
2024-11-15T1300,1412A,110.338,19.9969,海口市,海南师范大学,,38,38,51,15,30,115,,96,96,10,17,6,6,0.5,0.5
2024-11-15T1300,1413A,110.33,20.0356,海口市,龙华路环保局宿舍,,34,27,39,14,29,107,,95,95,12,18,5,6,0.4,0.4
2024-11-15T1300,3539A,110.5111,19.9736,海口市,桂林洋子站,,39,19,45,15,32,124,,96,96,8,19,7,7,0.4,0.4
2024-11-15T1300,2673A,100.6188,36.2866,海南藏族自治州,共和县恰卜恰镇,,39,27,40,27,16,76,,42,42,5,24,12,10,0.5,0.6
2024-11-15T1300,2676A,97.3731,37.3753,海西蒙古族藏族自治州,德令哈市,,42,42,37,7,15,96,,70,70,6,6,21,17,0.4,0.5
2024-11-15T1300,1048A,114.5302,36.6116,邯郸市,东污水处理厂,细颗粒物(PM2.5),89,,59,66,64,63,,28,28,18,33,3,2,1.1,1.1
2024-11-15T1300,1049A,114.4918,36.5713,邯郸市,矿院,细颗粒物(PM2.5),100,102,83,75,63,58,,27,27,17,29,3,2,1.0,0.9
2024-11-15T1300,1050A,114.484,36.6133,邯郸市,丛台公园,细颗粒物(PM2.5),103,,69,77,71,58,,27,27,22,33,5,5,1.1,1
2024-11-15T1300,3458A,114.7895,36.5593,邯郸市,香泉濮院小区,细颗粒物(PM2.5),53,42,50,37,38,72,,36,36,8,18,4,3,0.9,0.9
2024-11-15T1300,3579A,114.50634,36.77178,邯郸市,永年区实验高中,细颗粒物(PM2.5),85,84,95,63,71,60,,22,22,20,34,3,3,0.8,1.2
2024-11-15T1300,3580A,114.20016,36.44293,邯郸市,峰峰矿区临水派出所,细颗粒物(PM2.5),143,,68,109,66,39,,25,25,,21,,6,1.8,1.5
2024-11-15T1300,2634A,106.9893,33.1842,汉中市,汉川机床厂子校,,27,27,26,15,12,27,,9,9,16,19,5,5,0.7,0.7
2024-11-15T1300,2635A,107.0154,33.0706,汉中市,市监测站,,29,28,35,20,18,19,,9,9,18,17,9,9,1.0,0.9
2024-11-15T1300,2636A,107.0089,33.1138,汉中市,鑫源开发区,,36,36,34,17,17,25,,8,8,22,26,10,10,0.9,0.9
2024-11-15T1300,2637A,107.007,33.0323,汉中市,南郑大河坎水厂,,40,40,28,21,16,20,,12,12,24,19,8,8,0.8,0.7
2024-11-15T1300,1223A,120.2072,30.2111,杭州市,滨江,,,60,55,40,33,8,,3,3,,55,,6,0.8,0.9
2024-11-15T1300,1224A,120.0633,30.2747,杭州市,西溪,细颗粒物(PM2.5),59,55,43,42,34,6,,4,4,62,41,6,6,1.0,0.7
2024-11-15T1300,1226A,120.3461,30.3153,杭州市,下沙,,38,38,54,25,32,26,,8,8,43,66,6,6,0.8,0.9
2024-11-15T1300,1227A,120.1269,30.2456,杭州市,卧龙桥,细颗粒物(PM2.5),64,58,45,46,30,8,,6,6,58,36,6,6,1.0,0.8
2024-11-15T1300,1228A,120.1903,30.2692,杭州市,浙江农大,细颗粒物(PM2.5),54,41,43,38,33,9,,3,3,58,51,4,4,0.8,0.9
2024-11-15T1300,1230A,120.1197,30.3119,杭州市,和睦小学,,50,45,41,35,31,11,,5,5,60,47,5,5,0.8,0.8
2024-11-15T1300,1231A,120.3019,30.4183,杭州市,临平镇,颗粒物(PM10),54,57,60,31,34,22,,8,8,45,62,5,5,0.8,0.9
2024-11-15T1300,1232A,120.2697,30.1819,杭州市,城厢镇,,,42,48,42,40,24,,9,9,50,52,5,5,,0.9
2024-11-15T1300,1233A,120.0883,30.1808,杭州市,云栖,细颗粒物(PM2.5),53,45,32,37,25,7,,4,4,62,39,8,7,1.0,0.9
2024-11-15T1300,3557A,119.9464,30.0494,杭州市,镇二中,,50,41,51,35,35,18,,7,7,38,40,6,6,0.9,1.2
2024-11-15T1300,3558A,119.7183,30.2367,杭州市,市府大楼,,36,31,32,25,23,10,,9,9,58,35,6,6,0.8,0.7
2024-11-15T1300,3656A,120.1556,30.2864,杭州市,消防大队,细颗粒物(PM2.5),64,54,49,46,35,9,,6,6,64,56,8,8,0.8,0.8
2024-11-15T1300,1270A,117.1959,31.7848,合肥市,明珠广场,细颗粒物(PM2.5),113,117,95,85,66,52,,39,35,31,36,6,7,0.8,0.7
2024-11-15T1300,1271A,117.3072,31.8764,合肥市,三里街,细颗粒物(PM2.5),89,102,88,66,54,40,,37,29,22,29,3,4,0.9,0.9
2024-11-15T1300,1272A,117.2588,31.8707,合肥市,琥珀山庄,细颗粒物(PM2.5),90,90,86,67,53,47,,43,38,32,34,8,9,0.7,0.7
2024-11-15T1300,1273A,117.1604,31.9052,合肥市,董铺水库,颗粒物(PM10),97,144,113,68,58,47,,29,27,22,29,3,4,0.6,0.6
2024-11-15T1300,1274A,117.25,31.8571,合肥市,长江中路,细颗粒物(PM2.5),104,124,109,78,63,45,,43,37,29,30,6,7,0.8,0.8
2024-11-15T1300,1275A,117.266,31.9436,合肥市,庐阳区,细颗粒物(PM2.5),94,102,98,70,64,51,,36,29,17,30,4,5,0.7,0.8
2024-11-15T1300,1276A,117.336,31.8586,合肥市,瑶海区,细颗粒物(PM2.5),102,129,102,76,60,45,,46,37,28,31,6,8,0.9,0.8
2024-11-15T1300,1277A,117.3027,31.7964,合肥市,包河区,细颗粒物(PM2.5),110,97,82,83,60,38,,24,24,33,49,4,5,0.9,0.8
2024-11-15T1300,1278A,117.2776,31.7385,合肥市,滨湖新区,细颗粒物(PM2.5),94,119,92,70,55,43,,46,37,30,28,6,6,0.7,0.7
2024-11-15T1300,1279A,117.1318,31.8403,合肥市,高新区,细颗粒物(PM2.5),140,129,107,107,83,36,,33,28,31,36,4,5,1.0,1.1
2024-11-15T1300,3464A,117.3803,31.9147,合肥市,高教基地,细颗粒物(PM2.5),94,121,98,70,49,50,,37,31,26,29,6,6,0.6,0.5
2024-11-15T1300,3614A,79.924,37.0877,和田地区,地区环保局,颗粒物(PM10),116,181,163,63,65,78,,42,42,13,31,10,9,0.8,0.9
2024-11-15T1300,3615A,79.9131,37.113,和田地区,市环保局,颗粒物(PM10),92,134,137,55,56,78,,30,30,13,31,9,9,1.4,1.4
2024-11-15T1300,2516A,108.2011,24.715,河池市,东仁乐园,颗粒物(PM10),82,113,85,47,46,30,,18,18,102,60,9,9,1.6,1.7
2024-11-15T1300,2517A,108.0497,24.6947,河池市,市环保站,颗粒物(PM10),60,69,61,39,44,125,,50,50,12,23,11,11,0.6,0.7
2024-11-15T1300,2518A,108.0983,24.6989,河池市,市疾控中心,颗粒物(PM10),59,68,75,41,46,110,,37,37,19,35,12,10,0.7,0.7
2024-11-15T1300,1696A,114.6778,23.7569,河源市,源西,,23,23,19,13,16,49,,25,25,5,15,5,5,0.5,0.5
2024-11-15T1300,1697A,114.6944,23.7586,河源市,东埔,,25,25,20,14,21,52,,27,27,8,15,4,4,0.5,0.6
2024-11-15T1300,1698A,114.6892,23.7233,河源市,老城,,23,23,25,15,19,57,,28,28,6,16,3,4,0.6,0.6
2024-11-15T1300,1718A,115.4208,35.2464,菏泽市,气象局,细颗粒物(PM2.5),128,124,119,97,86,36,,31,29,25,23,3,5,1.4,1
2024-11-15T1300,1719A,115.4747,35.2375,菏泽市,市政协,细颗粒物(PM2.5),140,118,112,107,90,26,,25,21,32,32,5,6,,1
2024-11-15T1300,3374A,115.5564,35.0891,菏泽市,定陶老年大学,细颗粒物(PM2.5),104,114,106,78,68,25,,14,14,37,36,5,4,1.1,0.9
2024-11-15T1300,3647A,115.4702,35.2706,菏泽市,菏泽医专,细颗粒物(PM2.5),127,106,109,96,82,30,,27,25,25,27,4,5,1.0,0.9
2024-11-15T1300,2514A,111.5264,24.4172,贺州市,环保小区,,45,45,44,24,33,59,,21,21,15,17,6,6,0.7,0.7
2024-11-15T1300,2515A,111.5608,24.4078,贺州市,政协大楼,,,49,54,31,32,60,,18,18,,21,,9,0.7,0.6
2024-11-15T1300,3534A,111.4744,24.4553,贺州市,西湾,颗粒物(PM10),54,57,50,30,33,60,,22,22,16,20,6,7,0.6,0.7
2024-11-15T1300,2385A,114.17,35.9019,鹤壁市,市监测站,细颗粒物(PM2.5),113,92,96,85,82,36,,16,16,22,29,1,2,,1.3
2024-11-15T1300,2386A,114.2956,35.7511,鹤壁市,市交警支队,细颗粒物(PM2.5),125,116,99,95,72,46,,22,22,21,31,1,2,1.8,1.4
2024-11-15T1300,2387A,114.2878,35.7306,鹤壁市,迎宾馆,细颗粒物(PM2.5),109,131,113,82,72,50,,25,25,20,30,1,3,1.9,1.5
2024-11-15T1300,3474A,114.2617,35.6822,鹤壁市,大新区,细颗粒物(PM2.5),100,,66,75,70,68,,28,28,12,24,2,1,1.6,1.5
2024-11-15T1300,3596A,114.1572,35.9603,鹤壁市,南山宾馆,细颗粒物(PM2.5),88,92,75,65,55,38,,17,17,15,18,3,3,2.1,1.5
2024-11-15T1300,2244A,130.2537,47.3416,鹤岗市,哈啤分公司,,20,16,61,14,57,53,,51,51,7,16,14,14,0.4,0.7
2024-11-15T1300,2245A,130.2684,47.3086,鹤岗市,斯达机电,,22,16,75,15,69,43,,53,51,14,21,22,15,0,0.3
2024-11-15T1300,2246A,130.3114,47.3388,鹤岗市,东山纸板厂,,16,14,74,9,64,50,,49,49,14,22,15,16,0.3,0.8
2024-11-15T1300,2247A,130.1097,47.3382,鹤岗市,五号水库,,24,17,63,8,46,74,,61,61,6,15,9,9,0.4,0.5
2024-11-15T1300,2263A,127.4833,50.2524,黑河市,交通局,,36,36,36,16,25,31,,43,34,27,14,15,7,0.6,0.5
2024-11-15T1300,2264A,127.5144,50.2341,黑河市,环保局,,22,21,34,15,26,45,,50,38,14,14,6,5,0.2,0.2
2024-11-15T1300,2265A,127.5291,50.2472,黑河市,大黑河岛,,42,,36,29,35,16,,39,29,14,15,1,2,0.6,0.6
2024-11-15T1300,1074A,115.6838,37.7541,衡水市,电机北厂,,,43,43,37,41,64,,22,19,18,25,,2,0.8,1
2024-11-15T1300,1075A,115.6303,37.7316,衡水市,市监测站,细颗粒物(PM2.5),58,42,46,41,37,60,,22,22,23,33,2,2,0.9,0.9
2024-11-15T1300,3188A,115.6683,37.7217,衡水市,市城管局,,,,39,48,39,56,,32,32,26,29,3,3,,1
2024-11-15T1300,3459A,115.5989,37.5491,衡水市,地表水厂,细颗粒物(PM2.5),55,,35,39,33,66,,47,47,18,26,4,5,0.9,1
2024-11-15T1300,2456A,112.5003,26.9167,衡阳市,原169医院,细颗粒物(PM2.5),78,95,68,57,50,53,,38,38,9,14,8,8,0.7,0.8
2024-11-15T1300,2457A,112.6194,26.9258,衡阳市,衡阳化工总厂,,,,70,,61,,,63,,,12,,18,,0.8
2024-11-15T1300,2458A,112.6211,26.8956,衡阳市,珠晖区环保局,细颗粒物(PM2.5),92,91,64,68,48,70,,44,44,15,16,13,10,1.1,0.9
2024-11-15T1300,2459A,112.6197,26.8733,衡阳市,市委党校,细颗粒物(PM2.5),97,101,63,72,43,85,,55,55,13,12,9,8,0.9,0.8
2024-11-15T1300,2460A,112.6006,26.8919,衡阳市,市监测站,细颗粒物(PM2.5),114,98,55,86,45,58,,46,46,16,12,11,14,1.0,0.9
2024-11-15T1300,2461A,112.5664,26.9056,衡阳市,真空机电公司,细颗粒物(PM2.5),88,82,73,65,55,53,,26,26,12,20,5,10,1.0,1.1
2024-11-15T1300,3399A,112.6703,26.882,衡阳市,师范学院,细颗粒物(PM2.5),109,100,62,82,51,90,,57,57,7,7,9,9,,0.9
2024-11-15T1300,2608A,103.3772,23.3993,红河哈尼族彝族自治州,污水处理厂,,28,25,34,17,26,87,,49,49,8,13,9,11,0.4,0.5
2024-11-15T1300,2609A,103.3861,23.35,红河哈尼族彝族自治州,监测站,,34,31,35,22,26,106,,60,60,10,12,10,8,0.3,0.4
2024-11-15T1300,3038A,103.3758,23.368,红河哈尼族彝族自治州,州图书馆,,31,25,23,8,19,98,,55,55,8,9,9,6,0.4,0.4
2024-11-15T1300,1090A,111.6507,40.7517,呼和浩特市,呼市一监,细颗粒物(PM2.5),75,85,75,55,56,8,,3,3,31,36,8,9,1.2,1.1
2024-11-15T1300,1091A,111.6572,40.8033,呼和浩特市,小召,细颗粒物(PM2.5),95,85,92,71,72,18,,14,14,42,46,8,9,1.1,1
2024-11-15T1300,1094A,111.7516,40.8369,呼和浩特市,如意水处理厂,细颗粒物(PM2.5),65,67,85,47,57,5,,3,3,45,50,7,8,0.8,0.7
2024-11-15T1300,1095A,111.7276,40.8062,呼和浩特市,二十九中,细颗粒物(PM2.5),78,66,90,57,63,9,,7,7,37,41,7,7,1.1,1
2024-11-15T1300,1096A,111.5512,40.7866,呼和浩特市,工大金川校区,细颗粒物(PM2.5),95,71,103,71,72,7,,4,4,41,45,4,6,1.1,1.1
2024-11-15T1300,1097A,111.717,40.7612,呼和浩特市,化肥厂生活区,细颗粒物(PM2.5),70,72,81,51,59,8,,6,6,40,41,8,9,1.0,0.9
2024-11-15T1300,3698A,111.5968,40.8178,呼和浩特市,红旗小学,细颗粒物(PM2.5),92,75,97,68,70,10,,4,4,40,49,4,7,1.0,1
2024-11-15T1300,3699A,111.6518,40.8389,呼和浩特市,海东办,细颗粒物(PM2.5),93,,94,69,74,14,,6,6,39,49,8,10,0.9,1
2024-11-15T1300,2192A,119.7594,49.2261,呼伦贝尔市,区环保局,,29,29,33,7,17,65,,45,45,12,24,5,7,0.4,0.5
2024-11-15T1300,3061A,119.7512,49.1577,呼伦贝尔市,国华电力东,,24,24,24,10,15,71,,50,50,7,15,7,6,0.4,0.4
2024-11-15T1300,1250A,120.0751,30.8669,湖州市,城西水厂,细颗粒物(PM2.5),72,59,56,52,39,25,,14,14,46,56,5,5,0.7,0.7
2024-11-15T1300,2873A,120.0875,30.8955,湖州市,仁皇山新区,细颗粒物(PM2.5),69,,47,50,39,33,,20,20,50,62,4,5,0.8,0.8
2024-11-15T1300,2907A,120.1844,30.8596,湖州市,吴兴区站,细颗粒物(PM2.5),85,,48,63,38,18,,10,10,51,58,6,6,0.7,0.9
2024-11-15T1300,3562A,120.4148,30.8538,湖州市,南浔区站,,,,44,,43,20,,11,11,,50,,3,0.8,0.7
2024-11-15T1300,1607A,120.9092,40.7136,葫芦岛市,龙港区,细颗粒物(PM2.5),58,51,62,41,54,36,,18,18,31,42,46,52,0.8,1.2
2024-11-15T1300,1608A,120.8392,40.7514,葫芦岛市,化工街,,,31,44,19,30,38,,20,17,25,41,20,21,,1.3
2024-11-15T1300,1609A,120.8341,40.7073,葫芦岛市,新区,,50,36,41,35,43,39,,18,15,33,41,13,12,1.0,0.9
2024-11-15T1300,1610A,120.8695,40.7677,葫芦岛市,东城区,,43,33,42,30,42,34,,22,16,31,37,13,14,0.7,1
2024-11-15T1300,2482A,109.5981,27.5721,怀化市,林科所,细颗粒物(PM2.5),80,70,61,59,51,66,,79,65,13,12,12,13,1.2,1.2
2024-11-15T1300,2483A,109.9453,27.5444,怀化市,河西地税局,细颗粒物(PM2.5),72,83,76,52,55,67,,73,64,14,19,14,13,0.9,0.9
2024-11-15T1300,2484A,109.9781,27.5342,怀化市,市四医院,细颗粒物(PM2.5),73,74,81,53,62,68,,72,67,11,12,8,13,0.9,0.9
2024-11-15T1300,2485A,109.9972,27.5578,怀化市,监测楼,细颗粒物(PM2.5),74,81,88,54,57,69,,65,65,12,15,6,10,0.7,0.7
2024-11-15T1300,2486A,110.0394,27.583,怀化市,市委党校,细颗粒物(PM2.5),67,72,73,48,49,72,,68,64,12,16,7,15,0.7,0.8
2024-11-15T1300,1210A,119.036,33.5981,淮安市,钵池山,细颗粒物(PM2.5),54,,66,38,71,88,,48,48,15,36,4,5,0.5,0.7
2024-11-15T1300,1211A,119.007,33.575,淮安市,北京南路,,49,,57,34,69,85,,53,53,12,28,5,6,0.5,0.7
2024-11-15T1300,1212A,118.989,33.6067,淮安市,市监测站,,42,31,66,29,55,76,,45,45,20,34,2,3,0.7,0.9
2024-11-15T1300,1213A,119.135,33.5039,淮安市,楚州区监测站,细颗粒物(PM2.5),52,39,69,36,77,75,,51,51,18,30,5,5,0.6,0.8
2024-11-15T1300,1214A,119.0186,33.6297,淮安市,淮阴区监测站,细颗粒物(PM2.5),64,,71,46,69,67,,39,39,25,39,4,5,0.5,0.7
2024-11-15T1300,3426A,118.8755,33.2894,淮安市,新华书店,,,32,82,24,100,79,,45,45,15,34,,5,0.4,0.7
2024-11-15T1300,2282A,116.8004,33.975,淮北市,监测站,,42,42,52,27,35,74,,38,38,7,20,2,2,1.0,0.7
2024-11-15T1300,2283A,116.8091,33.9007,淮北市,烈山区政府,细颗粒物(PM2.5),58,48,80,41,62,82,,50,50,9,26,2,2,0.7,0.6
2024-11-15T1300,3330A,116.8873,33.9836,淮北市,杜集区检察院,细颗粒物(PM2.5),68,62,88,49,71,82,,56,56,9,25,2,2,1.1,1
2024-11-15T1300,4017A,116.7923,33.9535,淮北市,市博物馆,,35,32,51,24,36,82,,49,49,10,25,4,4,1.0,1
2024-11-15T1300,2277A,116.8305,32.7727,淮南市,潘集区政府,,,,83,,73,,,22,22,24,27,6,7,0.7,0.8
2024-11-15T1300,2278A,117.0067,32.6524,淮南市,师范学院,细颗粒物(PM2.5),132,,99,100,85,33,,19,19,27,30,12,12,0.4,0.4
2024-11-15T1300,2279A,116.8569,32.5951,淮南市,谢家集区政府,细颗粒物(PM2.5),123,140,120,93,87,40,,22,22,25,26,8,11,0.6,0.7
2024-11-15T1300,2280A,116.8281,32.633,淮南市,八公山区政府,细颗粒物(PM2.5),130,124,119,99,93,35,,22,22,26,25,9,9,0.7,0.6
2024-11-15T1300,2281A,116.6325,32.6201,淮南市,焦岗湖风景区管理处,颗粒物(PM10),78,106,98,51,61,25,,13,13,31,28,6,6,0.5,0.6
2024-11-15T1300,2894A,117.0566,32.6531,淮南市,经济技术开发区消防队,颗粒物(PM10),78,106,104,54,63,38,,25,25,28,27,4,6,0.6,0.6
2024-11-15T1300,3329A,117.0108,32.5893,淮南市,山南新区,细颗粒物(PM2.5),94,99,108,70,82,51,,31,31,20,26,5,7,0.6,0.7
2024-11-15T1300,2446A,114.9028,30.4742,黄冈市,职工中心,细颗粒物(PM2.5),73,72,96,53,73,105,,48,48,16,25,9,12,0.7,0.8
2024-11-15T1300,2929A,114.8858,30.4519,黄冈市,红卫路,细颗粒物(PM2.5),85,90,94,63,69,103,,54,54,22,29,9,10,0.9,0.9
2024-11-15T1300,3398A,114.9136,30.4445,黄冈市,市林业局,细颗粒物(PM2.5),92,91,102,68,70,113,,60,60,18,28,10,11,0.7,0.8
2024-11-15T1300,2672A,102.0199,35.5102,黄南藏族自治州,同仁县隆务镇,,,,50,57,26,79,,53,53,11,9,,5,0.7,0.5
2024-11-15T1300,2295A,118.2903,29.6963,黄山市,延安路89号,,15,15,26,3,13,12,,8,8,15,19,6,6,0.6,0.6
2024-11-15T1300,2296A,118.327,29.7178,黄山市,黄山东路89号,,29,29,33,6,13,10,,5,5,18,20,4,5,0.6,0.6
2024-11-15T1300,2297A,118.1371,30.2756,黄山市,黄山区政府5号楼,,11,,24,6,17,35,,16,16,6,12,7,7,0.4,0.5
2024-11-15T1300,2423A,115.0601,30.2313,黄石市,沈家营,颗粒物(PM10),91,131,111,67,60,76,,31,31,39,44,36,20,1.2,1
2024-11-15T1300,2424A,115.0817,30.2006,黄石市,陈家湾,细颗粒物(PM2.5),93,129,114,69,62,66,,24,24,32,35,15,13,1.1,1.1
2024-11-15T1300,2426A,114.8988,30.2019,黄石市,铁山,细颗粒物(PM2.5),65,54,85,47,59,94,,47,47,11,30,13,11,0.5,0.5
2024-11-15T1300,2427A,115.0307,30.2092,黄石市,团城山,颗粒物(PM10),83,116,105,58,58,72,,27,27,32,38,13,13,0.9,0.9
2024-11-15T1300,3149A,115.0235,30.1578,黄石市,笔架山北路,颗粒物(PM10),54,58,70,33,39,103,,51,51,7,20,6,8,0.6,0.9
2024-11-15T1300,1392A,114.4183,23.0528,惠州市,河南岸金山湖子站,,29,29,17,19,12,39,,18,18,15,13,5,5,0.6,0.5
2024-11-15T1300,1393A,114.4053,23.0822,惠州市,下埔横江三路子站,,32,32,18,21,14,52,,23,23,16,13,5,4,0.7,0.6
2024-11-15T1300,1394A,114.4103,23.1142,惠州市,江北云山西路子站,,24,24,16,12,11,57,,23,23,15,14,7,6,0.7,0.6
2024-11-15T1300,1395A,114.4645,22.7833,惠州市,惠阳区承修路船湖子站,,41,41,22,28,14,36,,30,21,21,13,6,6,0.6,0.5
2024-11-15T1300,1396A,114.5317,22.7422,惠州市,大亚湾管委会子站,,32,30,22,22,15,48,,47,29,16,18,5,6,0.7,0.6
2024-11-15T1300,3314A,114.4338,22.8134,惠州市,惠阳秋长,,33,27,14,23,12,43,,22,22,20,12,6,5,0.6,0.6
2024-11-15T1300,3452A,114.6517,22.775,惠州市,大亚湾霞涌,,,,14,,11,59,,27,27,,12,,6,0.4,0.3
2024-11-15T1300,2240A,130.9762,45.3001,鸡西市,环保局,细颗粒物(PM2.5),92,84,58,68,43,32,,18,13,27,35,8,8,0.6,0.7
2024-11-15T1300,2243A,130.9429,45.3039,鸡西市,第一中学,细颗粒物(PM2.5),92,91,52,68,36,31,,22,18,30,27,7,7,0.6,0.5
2024-11-15T1300,3707A,131.0207,45.3073,鸡西市,欧美日汽修厂,细颗粒物(PM2.5),123,96,88,93,70,45,,16,16,20,38,12,16,0.7,0.9
2024-11-15T1300,3709A,130.9967,45.3106,鸡西市,市政设施管理处,细颗粒物(PM2.5),104,108,87,78,55,40,,11,11,24,42,10,10,0.8,1
2024-11-15T1300,2367A,114.9754,27.0803,吉安市,红声器材厂,,16,16,53,3,34,12,,12,8,22,25,11,16,0.7,0.7
2024-11-15T1300,2368A,114.9658,27.0999,吉安市,市森林工业局,,11,11,48,3,34,21,,20,16,17,20,10,14,0.6,0.7
2024-11-15T1300,2369A,114.99,27.1312,吉安市,市环境监测站,,13,13,46,3,30,17,,17,13,21,23,13,15,0.5,0.6
2024-11-15T1300,2370A,115.0093,27.0968,吉安市,青原区法院,,12,12,49,8,35,14,,12,9,23,25,11,14,0.8,0.8
2024-11-15T1300,1772A,126.54,43.8622,吉林市,哈达湾,,24,19,32,12,24,75,,36,36,14,24,6,6,0.5,0.8
2024-11-15T1300,1773A,126.5844,43.8358,吉林市,东局子,,25,15,32,14,23,79,,28,28,7,25,4,5,0.6,0.9
2024-11-15T1300,1774A,126.5052,43.8245,吉林市,电力学院,,25,17,37,17,26,71,,23,23,9,21,5,5,0.6,0.9
2024-11-15T1300,1775A,126.6133,43.8972,吉林市,江北,,25,14,48,11,30,78,,34,34,10,26,8,8,0.8,1
2024-11-15T1300,1776A,126.555,43.8306,吉林市,江南公园,,30,30,42,14,30,71,,13,,12,27,9,8,0.6,0.8
2024-11-15T1300,1778A,126.7061,43.7133,吉林市,丰满,,,,16,,16,,,61,,,7,,7,,0.8
2024-11-15T1300,2868A,126.4739,43.953,吉林市,九站,,33,33,39,23,29,62,,24,24,20,24,8,5,0.6,0.7
2024-11-15T1300,1299A,116.9862,36.6114,济南市,科干所,颗粒物(PM10),57,63,68,34,41,44,,16,16,44,50,3,4,1.2,1.4
2024-11-15T1300,1300A,116.9376,36.665,济南市,农科所,颗粒物(PM10),69,88,70,49,43,24,,12,12,50,43,5,5,1.1,1
2024-11-15T1300,1301A,117.1265,36.6734,济南市,开发区,,,85,69,66,51,17,,12,12,,45,5,5,1.4,1.3
2024-11-15T1300,1303A,117.0624,36.6868,济南市,省种子仓库,,,,73,,63,,,15,,,39,,3,,1.0
2024-11-15T1300,1304A,116.9489,36.6447,济南市,机床二厂,,49,49,53,29,33,36,,16,16,43,44,4,4,1.1,1.2
2024-11-15T1300,1305A,117.0495,36.663,济南市,市监测站,,,,60,,50,27,,14,14,53,42,5,5,1.1,1
2024-11-15T1300,1306A,116.7675,36.5484,济南市,长清党校,细颗粒物(PM2.5),74,71,73,54,47,40,,20,20,40,45,6,7,1.2,1.3
2024-11-15T1300,1616A,117.6795,36.229,济南市,技术学院,细颗粒物(PM2.5),70,66,51,51,42,36,,17,17,23,35,7,7,0.9,1.5
2024-11-15T1300,1961A,117.532,36.6868,济南市,东山小学,细颗粒物(PM2.5),85,88,62,63,41,10,,12,11,48,39,6,5,1.4,0.9
2024-11-15T1300,3059A,117.7161,36.2049,济南市,泰兴公司,细颗粒物(PM2.5),64,53,45,46,34,44,,17,17,25,41,7,7,0.7,1.1
2024-11-15T1300,3064A,117.6867,36.2171,济南市,莱芜战役纪念馆,细颗粒物(PM2.5),64,63,50,46,32,40,,16,16,27,40,7,7,0.9,1.2
2024-11-15T1300,3494A,117.1673,36.9782,济南市,济阳区政府,细颗粒物(PM2.5),77,76,71,56,49,16,,18,16,41,38,7,7,1.4,1.2
2024-11-15T1300,3495A,117.1171,36.63,济南市,锦屏中学,细颗粒物(PM2.5),74,71,47,54,37,18,,11,11,54,41,5,5,1.4,1.2
2024-11-15T1300,3682A,116.9814,36.6819,济南市,济南四建,细颗粒物(PM2.5),74,70,58,54,46,19,,9,9,50,43,3,3,1.3,1.1
2024-11-15T1300,1653A,116.6251,35.4302,济宁市,火炬城,,,117,78,51,51,39,,15,15,36,34,,10,1.3,1.2
2024-11-15T1300,1655A,116.5491,35.4042,济宁市,电化厂,"颗粒物(PM10),细颗粒物(PM2.5)",73,96,104,53,49,28,,8,8,42,41,7,7,1.3,1.2
2024-11-15T1300,3500A,116.5814,35.3707,济宁市,北湖一中,细颗粒物(PM2.5),62,49,72,44,67,59,,16,16,24,37,7,6,0.9,1
2024-11-15T1300,3501A,116.8249,35.5593,济宁市,服务中心,细颗粒物(PM2.5),80,66,62,59,58,21,,10,10,42,38,6,6,1.6,1.4
2024-11-15T1300,3678A,116.5907,35.4054,济宁市,市第七中学,细颗粒物(PM2.5),85,74,68,63,60,34,,15,15,42,38,3,3,1.3,1.1
2024-11-15T1300,2255A,130.2751,46.8028,佳木斯市,佳纺,,,31,106,22,97,49,,34,34,14,36,7,7,,1
2024-11-15T1300,2256A,130.3995,46.8307,佳木斯市,发电厂,,23,21,78,16,84,51,,49,49,9,29,5,5,0.4,0.8
2024-11-15T1300,2257A,130.3258,46.7975,佳木斯市,环保局,,32,32,109,20,93,45,,38,38,15,33,10,10,0.4,0.9
2024-11-15T1300,2258A,130.3648,46.8032,佳木斯市,十一中,,26,22,110,18,104,44,,44,44,16,30,6,6,0.4,1
2024-11-15T1300,2259A,130.3794,46.7588,佳木斯市,四丰,,,,136,,95,,,12,,,40,,1,,0.4
2024-11-15T1300,1252A,120.7436,30.778,嘉兴市,清河小学,,20,20,42,11,28,30,,14,14,33,43,8,8,0.6,0.7
2024-11-15T1300,1253A,120.726,30.7478,嘉兴市,嘉兴学院,,,28,41,28,37,24,,11,11,,44,4,4,0.6,0.5
2024-11-15T1300,2872A,120.7846,30.7525,嘉兴市,南湖区残联,,30,30,38,21,34,29,,18,18,36,39,6,6,0.7,0.7
2024-11-15T1300,3407A,120.6916,30.7739,嘉兴市,秀洲住建,,22,,37,15,23,32,,13,13,26,37,7,7,0.6,0.6
2024-11-15T1300,1945A,98.2908,39.7711,嘉峪关市,气象局,,48,48,126,14,24,57,,65,59,17,19,7,25,0.4,0.7
2024-11-15T1300,2884A,98.2672,39.7978,嘉峪关市,酒钢宾馆,,44,44,166,14,26,67,,62,62,16,23,20,29,0.7,0.7
2024-11-15T1300,3248A,98.2643,39.7724,嘉峪关市,雄关区,,37,37,97,14,26,60,,64,60,19,25,8,15,0.4,0.5
2024-11-15T1300,1383A,113.1064,22.6058,江门市,北街,,31,31,27,21,15,53,,41,41,28,28,5,5,0.7,0.6
2024-11-15T1300,1384A,113.0731,22.5835,江门市,西区,,27,27,23,10,12,50,,38,38,29,30,6,6,0.5,0.4
2024-11-15T1300,1385A,113.0219,22.5311,江门市,圭峰西,,22,16,20,15,14,51,,39,39,24,26,2,3,0.5,0.5
2024-11-15T1300,1386A,113.0828,22.5947,江门市,东湖,,29,29,24,20,12,49,,36,36,25,27,6,6,0.5,0.5
2024-11-15T1300,3311A,113.1075,22.5647,江门市,江海富民,,28,28,29,17,18,46,,38,38,30,31,6,6,0.5,0.5
2024-11-15T1300,3449A,113.05,22.4667,江门市,新会银湖,,33,,23,23,17,43,,30,30,30,32,6,6,0.5,0.5
2024-11-15T1300,1828A,113.227,35.2125,焦作市,市环保局,细颗粒物(PM2.5),130,,105,99,87,28,,18,12,24,29,2,3,1.6,1.4
2024-11-15T1300,1830A,113.1992,35.2590,焦作市,影视城,细颗粒物(PM2.5),69,,49,50,48,34,,41,36,11,14,6,6,1.6,1.3
2024-11-15T1300,3169A,113.2725,35.2067,焦作市,太极体育中心,细颗粒物(PM2.5),119,105,102,90,75,24,,15,12,27,31,2,2,1.8,1.4
2024-11-15T1300,3335A,113.3137,35.2641,焦作市,马村街道办,细颗粒物(PM2.5),118,90,92,89,81,30,,17,16,23,27,4,4,1.6,1.4
2024-11-15T1300,3336A,113.2465,35.2373,焦作市,焦作技师学院,细颗粒物(PM2.5),107,105,102,80,76,27,,19,15,21,24,3,4,1.8,1.5
2024-11-15T1300,3477A,113.1656,35.2539,焦作市,中站许衡医院,,,61,64,47,49,30,,32,28,11,23,,4,1.4,1.4
2024-11-15T1300,3981A,113.2449,35.1803,焦作市,原李万街道办,细颗粒物(PM2.5),124,115,103,94,73,29,,16,15,28,31,8,7,1.7,1.3
2024-11-15T1300,1708A,116.3701,23.5345,揭阳市,新兴,,33,,61,23,35,102,,58,58,12,29,7,9,0.6,0.7
2024-11-15T1300,1709A,116.3264,23.5443,揭阳市,西马,,29,,57,10,27,92,,53,53,3,23,7,10,0.7,1
2024-11-15T1300,1710A,116.3611,23.5626,揭阳市,东兴,,36,31,70,19,34,113,,61,61,4,24,9,13,0.9,1.1
2024-11-15T1300,1711A,116.4151,23.5294,揭阳市,渔湖,,48,39,58,33,21,139,,65,65,11,26,9,10,0.8,0.9
2024-11-15T1300,3320A,116.403,23.5699,揭阳市,曲溪,,49,49,47,34,25,134,,59,59,11,27,7,10,0.7,0.9
2024-11-15T1300,1944A,102.1692,38.5167,金昌市,天庆家园,,40,40,154,10,45,75,,78,73,6,18,10,32,0.5,0.6
2024-11-15T1300,3170A,102.1864,38.5253,金昌市,市委党校,,47,47,131,6,37,75,,76,73,6,17,7,14,0.5,0.7
2024-11-15T1300,4022A,102.1647,38.5371,金昌市,金川区人防中心,,50,50,185,9,41,73,,77,72,6,13,8,12,0.5,0.6
2024-11-15T1300,1262A,119.647,29.077,金华市,十五中,,,10,48,3,31,30,,12,12,27,44,,4,0.4,0.7
2024-11-15T1300,1263A,119.686,29.1029,金华市,监测站,,14,10,47,6,29,28,,10,10,27,42,3,4,0.4,0.7
2024-11-15T1300,3659A,119.656,29.1131,金华市,气象局,,13,9,45,3,28,25,,6,6,25,46,3,3,0.3,0.7
2024-11-15T1300,1767A,121.1115,41.0879,锦州市,南山,细颗粒物(PM2.5),70,59,35,51,29,34,,30,28,28,31,18,9,1.2,1
2024-11-15T1300,1768A,121.0533,40.8434,锦州市,开发区,,,,41,66,47,44,,28,28,22,35,9,12,1.0,1.1
2024-11-15T1300,1769A,121.1836,41.1119,锦州市,百股街道,细颗粒物(PM2.5),62,56,34,44,31,31,,28,24,29,34,13,14,1.2,1.2
2024-11-15T1300,1770A,121.1178,41.1222,锦州市,天安街道,细颗粒物(PM2.5),84,,34,62,45,36,,29,29,30,34,18,15,1.1,1.1
2024-11-15T1300,1771A,121.1303,41.1386,锦州市,北湖公园,细颗粒物(PM2.5),78,59,39,57,48,34,,25,25,24,34,8,10,1.1,1.2
2024-11-15T1300,2160A,112.85,35.5051,晋城市,自来水公司,,43,43,44,27,28,72,,37,37,14,24,4,4,1.2,1.2
2024-11-15T1300,2161A,112.8318,35.4936,晋城市,白云商贸,,45,45,50,27,30,62,,37,37,20,27,4,4,1.2,1.2
2024-11-15T1300,2162A,112.8508,35.4887,晋城市,市环保局,,45,39,42,31,29,66,,35,35,20,30,5,6,1.2,1.3
2024-11-15T1300,2163A,112.8676,35.4897,晋城市,技术学院,,46,46,44,24,25,67,,31,31,22,33,4,4,1.3,1.3
2024-11-15T1300,2165A,112.8453,35.546,晋城市,白马寺,,35,30,38,24,25,64,,43,43,16,19,9,9,1.1,1.2
2024-11-15T1300,3620A,112.8271,35.4828,晋城市,泽州一中,,,25,41,,28,59,,37,37,,25,6,5,1.4,1.4
2024-11-15T1300,2171A,112.7532,37.6945,晋中市,锦纶小区,细颗粒物(PM2.5),64,63,80,46,55,41,,18,18,36,46,12,11,1.0,1.3
2024-11-15T1300,2173A,112.7249,37.7067,晋中市,南都小区,颗粒物(PM10),66,81,90,41,54,29,,14,14,48,50,10,8,1.3,1.1
2024-11-15T1300,2174A,112.6991,37.6982,晋中市,榆次区政府,颗粒物(PM10),71,92,93,40,48,31,,13,13,51,52,12,11,1.4,1.1
2024-11-15T1300,2865A,112.7195,37.6828,晋中市,榆次三中,细颗粒物(PM2.5),73,80,87,53,55,33,,14,14,40,45,14,11,1.7,1.2
2024-11-15T1300,2439A,112.2014,31.0481,荆门市,竹园小学,细颗粒物(PM2.5),135,125,119,103,97,56,,53,43,17,18,10,10,0.8,0.7
2024-11-15T1300,2440A,112.1969,30.9891,荆门市,掇刀,细颗粒物(PM2.5),128,107,113,97,94,57,,61,50,21,20,7,7,0.7,0.7
2024-11-15T1300,2441A,112.2213,31.0386,荆门市,石化一小,细颗粒物(PM2.5),142,123,136,108,105,60,,51,44,16,21,9,9,0.6,0.5
2024-11-15T1300,3012A,112.1849,31.0362,荆门市,西山林语,细颗粒物(PM2.5),120,111,112,91,85,57,,61,52,22,19,5,6,0.6,0.6
2024-11-15T1300,3547A,112.1632,31.0138,荆门市,龙泉中学南校,,49,43,48,34,40,61,,63,50,14,15,12,9,0.7,0.7
2024-11-15T1300,1844A,112.2494,30.3197,荆州市,市图书馆,颗粒物(PM10),71,92,75,42,43,29,,36,24,28,26,5,5,1.0,0.9
2024-11-15T1300,1845A,112.2008,30.3544,荆州市,市委党校,颗粒物(PM10),101,151,87,46,46,37,,39,28,27,24,5,5,1.1,0.9
2024-11-15T1300,3194A,112.2747,30.3122,荆州市,管委会,颗粒物(PM10),68,85,84,37,44,34,,38,26,23,24,9,9,1.0,0.9
2024-11-15T1300,3548A,112.1655,30.3364,荆州市,学苑路,细颗粒物(PM2.5),124,,57,94,80,45,,46,34,19,22,9,8,1.4,1.1
2024-11-15T1300,2342A,117.3102,29.3867,景德镇市,王港中学,,,,,,,,,,,,,,,,
2024-11-15T1300,2343A,117.2117,29.2933,景德镇市,老干部活动中心,,28,,13,19,8,16,,19,16,12,11,6,6,0.3,0.2
2024-11-15T1300,2344A,117.1894,29.2789,景德镇市,兽医站,,16,16,21,8,6,19,,21,18,11,8,5,6,0.3,0.3
2024-11-15T1300,2345A,117.1547,29.2617,景德镇市,台达陶瓷,,13,13,13,7,8,17,,20,17,12,10,23,7,0.4,0.4
2024-11-15T1300,2346A,117.2461,29.2956,景德镇市,陶研所,,14,14,13,3,7,15,,16,14,12,10,9,9,0.2,0.2
2024-11-15T1300,1803A,115.9872,29.6815,九江市,十里,细颗粒物(PM2.5),68,68,45,49,32,73,,35,35,21,36,7,7,0.9,0.8
2024-11-15T1300,1804A,115.9584,29.7046,九江市,茅山头,细颗粒物(PM2.5),63,64,41,45,31,81,,36,36,18,35,11,11,1.0,1
2024-11-15T1300,1805A,115.9877,29.7295,九江市,西园,细颗粒物(PM2.5),69,67,45,50,32,95,,42,42,14,29,9,8,0.7,0.7
2024-11-15T1300,1806A,116.0172,29.6547,九江市,五七二七厂,细颗粒物(PM2.5),63,57,41,45,35,59,,36,36,20,29,11,9,1.3,1.2
2024-11-15T1300,1808A,115.9114,29.6038,九江市,综合工业园,细颗粒物(PM2.5),62,45,60,44,34,64,,31,31,21,43,7,11,0.7,0.8
2024-11-15T1300,1809A,116.0721,29.7535,九江市,石化总厂,细颗粒物(PM2.5),64,71,56,46,39,80,,30,30,21,35,12,11,1.1,1
2024-11-15T1300,1810A,115.9773,29.5698,九江市,庐山气象台,,20,6,8,3,8,62,,53,50,1,2,8,8,1.2,1.4
2024-11-15T1300,3190A,116.0254,29.6994,九江市,外国语学校,细颗粒物(PM2.5),70,69,44,51,32,65,,31,31,28,45,12,13,0.8,0.6
2024-11-15T1300,2658A,98.5061,39.7443,酒泉市,仓门街子站,颗粒物(PM10),58,66,174,18,31,67,,64,62,10,10,6,7,0.3,0.3
2024-11-15T1300,2659A,98.4989,39.7256,酒泉市,油田生活基地,颗粒物(PM10),56,61,149,22,34,58,,61,58,13,10,10,9,0.3,0.3
2024-11-15T1300,2698A,76.0072,39.4467,喀什地区,巡警大队,颗粒物(PM10),85,119,119,16,25,63,,57,57,19,42,5,7,0.5,1.1
2024-11-15T1300,2699A,75.9755,39.4694,喀什地区,吾办,颗粒物(PM10),83,115,124,30,38,62,,56,56,18,38,3,4,0.4,1
2024-11-15T1300,4027A,75.9483,39.4689,喀什地区,老干局,颗粒物(PM10),82,113,136,19,29,75,,68,68,15,37,3,4,0.3,1
2024-11-15T1300,1824A,114.3389,34.7781,开封市,肿瘤医院,细颗粒物(PM2.5),120,100,74,91,62,27,,37,28,17,19,2,2,1.3,1.2
2024-11-15T1300,1826A,114.2885,34.7965,开封市,世纪星幼儿园,,,,60,,35,27,,38,28,,20,3,3,1.2,1.1
2024-11-15T1300,3147A,114.3438,34.8106,开封市,龙亭公园,,,76,67,36,34,26,,34,27,17,20,,3,1.3,1.1
2024-11-15T1300,3210A,114.3644,34.7964,开封市,汴京公园,细颗粒物(PM2.5),120,114,86,91,71,24,,32,24,17,19,3,3,1.2,1
2024-11-15T1300,3473A,114.2485,34.8306,开封市,技师学院,颗粒物(PM10),64,78,69,35,34,29,,33,27,14,18,3,3,1.4,1.4
2024-11-15T1300,3592A,114.4644,34.7556,开封市,祥符区生态环境局,细颗粒物(PM2.5),77,80,61,56,43,27,,30,22,19,23,2,2,1.2,1.1
2024-11-15T1300,1951A,84.895,45.6094,克拉玛依市,长征新村,,15,12,9,10,6,43,,43,41,7,5,5,5,0.2,0.2
2024-11-15T1300,1952A,84.8988,45.5893,克拉玛依市,南林小区,,,,9,,9,46,,45,42,8,5,4,4,,0.5
2024-11-15T1300,1954A,84.905,44.3396,克拉玛依市,独山子区,,30,30,21,10,8,44,,48,37,12,13,5,5,0.3,0.3
2024-11-15T1300,1955A,85.6979,46.098,克拉玛依市,乌尔禾区商贸楼,,18,,14,11,5,56,,47,43,5,7,4,4,0.3,0.3
2024-11-15T1300,3612A,85.1045,45.6899,克拉玛依市,白碱滩区新站,,,12,14,3,6,51,,52,52,,8,7,8,0,0.1
2024-11-15T1300,2697A,76.1454,39.7142,克孜勒苏柯尔克孜自治州,市人民政府,颗粒物(PM10),70,89,77,26,20,86,,76,76,13,18,4,7,0.5,0.6
2024-11-15T1300,3665A,76.1658,39.7157,克孜勒苏柯尔克孜自治州,克州文化中心,颗粒物(PM10),66,81,72,28,20,84,,76,76,13,30,7,10,0.6,0.7
2024-11-15T1300,1450A,102.8204,24.8886,昆明市,呈贡新区,,28,21,34,11,21,87,,38,38,10,29,8,8,0.5,0.7
2024-11-15T1300,1451A,102.6251,24.9608,昆明市,西山森林公园,,,,,,,,,,,,,,,,
2024-11-15T1300,1452A,102.7252,25.0902,昆明市,龙泉镇,,28,,27,19,20,86,,22,22,15,37,9,7,0.4,0.4
2024-11-15T1300,1453A,102.7266,25.0375,昆明市,东风东路,,26,26,31,18,18,81,,24,24,14,32,10,10,0.7,0.8
2024-11-15T1300,1454A,102.6742,25.0669,昆明市,金鼎山,,30,29,29,6,16,96,,45,45,14,34,7,6,0.6,0.7
2024-11-15T1300,1455A,102.6644,25.0401,昆明市,碧鸡广场,,27,27,32,11,18,86,,36,36,14,38,7,6,0.4,0.5
2024-11-15T1300,3179A,102.7494,25.0119,昆明市,官渡区博物馆,,32,32,51,18,27,91,,28,28,9,37,10,10,0.5,0.9
2024-11-15T1300,3375A,102.8017,24.8336,昆明市,青年创业园,,31,22,31,14,15,99,,40,40,4,28,4,7,0.4,0.5
2024-11-15T1300,3550A,102.7997,24.9786,昆明市,昆明学院,,30,30,55,15,26,92,,33,33,10,32,11,9,0.4,0.6
2024-11-15T1300,3551A,102.5967,24.6736,昆明市,晋宁区生态环境分局,,28,9,26,7,17,87,,48,48,11,21,2,1,0.2,0.4
2024-11-15T1300,3552A,102.6678,24.9856,昆明市,云天化总部,,31,28,30,17,17,98,,41,41,9,36,9,10,0.3,0.4
2024-11-15T1300,1456A,91.1319,29.6514,拉萨市,八廓街,,27,27,30,12,17,70,,49,49,14,28,24,11,0.4,0.8
2024-11-15T1300,1457A,91.1221,29.6747,拉萨市,市环保局,,21,21,44,13,25,64,,37,37,17,30,22,12,0.3,0.8
2024-11-15T1300,1458A,91.0874,29.6475,拉萨市,区监测站,,26,26,28,15,14,59,,36,36,18,37,22,10,0.4,0.6
2024-11-15T1300,1459A,91.1774,29.6541,拉萨市,西藏大学,,,24,26,8,10,,,42,40,11,20,31,10,,0.5
2024-11-15T1300,1460A,90.9798,29.6588,拉萨市,区辐射站,颗粒物(PM10),53,56,34,29,17,57,,30,30,32,33,20,10,0.6,0.5
2024-11-15T1300,1461A,91.0834,29.6292,拉萨市,拉萨火车站,,19,17,18,8,11,59,,29,29,18,31,17,8,0.5,0.7
2024-11-15T1300,2520A,109.2203,23.7256,来宾市,来宾技工学校,颗粒物(PM10),55,60,70,27,39,118,,55,55,10,25,5,7,0.6,0.7
2024-11-15T1300,3535A,109.1781,23.7297,来宾市,兴宾区政府,细颗粒物(PM2.5),53,39,54,37,35,113,,64,64,7,11,5,7,0.7,0.7
2024-11-15T1300,4002A,109.2416,23.7461,来宾市,中南小学,颗粒物(PM10),55,60,71,29,39,114,,45,45,7,28,6,8,0.6,0.7
2024-11-15T1300,1476A,103.631,36.1031,兰州市,兰炼宾馆,颗粒物(PM10),92,134,134,41,65,84,,73,73,13,57,10,15,0.2,1
2024-11-15T1300,1477A,104.1373,35.9454,兰州市,榆中兰大校区,,,,,,,,,,,,,,,,
2024-11-15T1300,1478A,103.8412,36.0726,兰州市,生物制品所,颗粒物(PM10),103,156,112,35,53,67,,72,72,26,46,22,15,0.4,0.9
2024-11-15T1300,1479A,103.831,36.0464,兰州市,铁路设计院,颗粒物(PM10),90,129,112,43,62,68,,62,62,23,57,17,12,0.4,1
2024-11-15T1300,3186A,103.7158,36.1058,兰州市,教育港,颗粒物(PM10),106,162,146,45,65,75,,68,68,14,53,10,15,0.5,1.1
2024-11-15T1300,3241A,103.7439,36.0842,兰州市,百合公园,颗粒物(PM10),88,125,119,30,55,79,,71,71,12,49,9,13,0.4,1
2024-11-15T1300,3242A,103.9611,35.998,兰州市,和平,颗粒物(PM10),112,173,99,42,43,77,,70,70,12,26,20,13,0.3,0.5
2024-11-15T1300,3245A,103.6633,36.533,兰州新区,新区管委会,,,130,124,36,61,90,,70,70,10,33,,17,0.5,0.8
2024-11-15T1300,3246A,103.6975,36.4789,兰州新区,舟曲中学,颗粒物(PM10),99,148,114,21,53,83,,74,74,13,32,6,18,0.3,0.7
2024-11-15T1300,1067A,116.6708,39.5111,廊坊市,药材公司,,,104,64,,51,7,,4,4,,50,5,3,1.3,0.9
2024-11-15T1300,1068A,116.7214,39.5589,廊坊市,开发区,细颗粒物(PM2.5),68,71,51,49,34,15,,3,3,53,45,2,3,1.0,0.9
2024-11-15T1300,1070A,116.7244,39.5269,廊坊市,北华航天学院,细颗粒物(PM2.5),109,,62,82,44,10,,3,3,56,41,4,4,1.1,1.1
2024-11-15T1300,2919A,116.7022,39.5453,廊坊市,河北工业大学,细颗粒物(PM2.5),88,,60,65,46,11,,3,3,51,46,4,4,1.0,1
2024-11-15T1300,2535A,103.7723,29.5462,乐山市,花湖湾,细颗粒物(PM2.5),67,60,50,48,39,30,,7,7,21,27,5,5,0.9,0.9
2024-11-15T1300,2536A,103.7627,29.5844,乐山市,牛耳桥,细颗粒物(PM2.5),63,59,49,45,39,33,,8,8,26,32,5,6,0.7,0.7
2024-11-15T1300,2537A,103.7508,29.6006,乐山市,市第三水厂,细颗粒物(PM2.5),63,55,49,45,39,41,,13,13,26,36,6,6,0.9,0.9
2024-11-15T1300,2538A,103.7571,29.5664,乐山市,市监测站,细颗粒物(PM2.5),58,58,51,41,36,33,,9,9,23,28,6,7,0.8,0.8
2024-11-15T1300,3361A,103.7311,29.5628,乐山市,理工大学,,,60,49,41,42,38,,13,13,23,30,,6,0.8,0.8
2024-11-15T1300,2598A,100.2143,26.8576,丽江市,西南郊,,23,16,31,12,15,71,,46,46,5,16,6,6,0.4,0.6
2024-11-15T1300,2599A,100.2497,26.8802,丽江市,丽江古城,,20,20,29,8,14,60,,42,42,9,14,9,10,0.4,0.5
2024-11-15T1300,2600A,100.2203,26.8906,丽江市,市中心,,20,16,17,3,12,62,,39,39,8,13,7,8,0.5,0.5
2024-11-15T1300,1267A,119.914,28.4514,丽水市,监测站大楼,,,,26,8,15,15,,9,9,21,24,6,6,,0.8
2024-11-15T1300,1268A,119.93,28.4586,丽水市,莲都小学,,11,10,31,6,14,20,,10,10,22,26,4,4,0.6,0.6
2024-11-15T1300,1269A,119.879,28.4231,丽水市,余庄前,,10,9,24,7,17,20,,7,7,19,18,5,5,0.5,0.5
2024-11-15T1300,1173A,119.176,34.5885,连云港市,市环境监测站,,44,44,42,27,33,97,,74,74,21,24,8,7,0.6,0.7
2024-11-15T1300,3000A,119.3581,34.6972,连云港市,德源药业,颗粒物(PM10),52,53,39,34,28,96,,70,70,24,23,6,5,0.4,0.6
2024-11-15T1300,3007A,119.178,34.844,连云港市,新城一中,,48,48,47,24,24,114,,59,59,17,31,8,7,0.8,0.9
2024-11-15T1300,3008A,119.3608,34.7519,连云港市,胡沟管理处,,45,44,25,31,22,113,,79,79,10,11,7,5,0.5,0.6
2024-11-15T1300,3009A,119.1478,34.5911,连云港市,矿山设计院,,49,46,41,34,34,99,,72,72,19,22,8,7,0.7,0.7
2024-11-15T1300,3434A,119.2413,34.6539,连云港市,工贸学校,,35,35,34,22,23,102,,80,80,21,20,7,7,0.6,0.8
2024-11-15T1300,3664A,119.4172,34.7341,连云港市,连云街道,,37,37,30,22,19,106,,70,70,19,26,7,6,0.6,0.7
2024-11-15T1300,2571A,102.3431,27.8099,凉山彝族自治州,青龙寺,,29,22,25,11,9,91,,44,44,9,8,14,6,1.0,0.7
2024-11-15T1300,2572A,102.2721,27.8415,凉山彝族自治州,邛海宾馆,,45,45,35,25,18,82,,38,38,15,18,20,12,1.3,0.8
2024-11-15T1300,2573A,102.2625,27.898,凉山彝族自治州,西昌市政府,,49,44,27,34,19,75,,49,42,19,14,13,10,1.0,0.7
2024-11-15T1300,2574A,102.2685,27.8851,凉山彝族自治州,凉山州政府,,43,43,31,25,18,74,,42,42,16,17,15,11,0.8,0.7
2024-11-15T1300,2575A,102.237,27.8914,凉山彝族自治州,长安,颗粒物(PM10),63,75,41,40,23,58,,23,22,32,23,24,14,1.2,0.8
2024-11-15T1300,2212A,123.2,41.1953,辽阳市,宏伟区,,24,24,20,16,17,62,,44,44,23,15,7,6,0.6,0.6
2024-11-15T1300,2213A,123.1683,41.2495,辽阳市,新华园,,28,26,32,19,24,64,,36,36,24,30,9,9,0.8,0.8
2024-11-15T1300,2214A,123.2354,41.2639,辽阳市,滨河路,,24,24,21,15,20,73,,42,42,17,26,10,10,0.8,0.8
2024-11-15T1300,2215A,123.149,41.2991,辽阳市,铁西工业园,,32,31,35,22,22,60,,29,29,24,25,15,12,0.8,0.8
2024-11-15T1300,2227A,125.1358,42.8845,辽源市,环保局,,28,23,20,15,12,87,,43,38,10,16,7,6,0.6,0.7
2024-11-15T1300,3239A,125.0764,42.9078,辽源市,银鹰制药,,27,17,18,14,13,84,,40,40,10,21,10,8,0.6,0.7
2024-11-15T1300,1625A,115.9848,36.4372,聊城市,区政府,细颗粒物(PM2.5),70,73,74,51,53,53,,52,42,31,32,6,5,1.0,1.1
2024-11-15T1300,2878A,116.0072,36.4343,聊城市,聊大东校,细颗粒物(PM2.5),93,85,68,69,53,48,,49,41,31,32,8,7,0.9,1
2024-11-15T1300,3200A,115.9819,36.4978,聊城市,监控中心,细颗粒物(PM2.5),107,89,55,80,54,41,,36,36,38,35,7,7,1.1,1.1
2024-11-15T1300,3513A,116.0445,36.4361,聊城市,九州社区,细颗粒物(PM2.5),83,90,74,61,47,45,,40,35,28,31,10,11,1.1,1.2
2024-11-15T1300,4018A,116.0567,36.4608,聊城市,星美广场,细颗粒物(PM2.5),97,112,80,72,49,38,,46,41,30,28,7,7,1.0,0.9
2024-11-15T1300,2632A,94.3681,29.6376,林芝市,林芝监测站,,20,18,17,3,8,61,,43,43,6,6,6,6,0.3,0.3
2024-11-15T1300,2633A,94.3616,29.6616,林芝市,林芝人民医院,,,,15,,8,60,,46,41,,5,6,6,0.3,0.3
2024-11-15T1300,2603A,100.0781,23.8982,临沧市,市环保局,,24,15,19,3,13,76,,30,30,9,12,8,9,0.4,0.4
2024-11-15T1300,2604A,100.0894,23.8822,临沧市,市气象局,,25,22,24,12,16,79,,30,30,10,12,8,9,0.4,0.5
2024-11-15T1300,1733A,111.5531,36.0783,临汾市,临钢医院,细颗粒物(PM2.5),178,145,69,134,49,,,5,5,48,40,12,7,2.2,1.5
2024-11-15T1300,1734A,111.5028,36.0714,临汾市,技工学校,细颗粒物(PM2.5),100,109,59,75,46,7,,6,6,47,43,11,8,1.7,1.3
2024-11-15T1300,1736A,111.5018,36.0855,临汾市,市委,细颗粒物(PM2.5),112,130,71,84,46,7,,5,5,43,38,12,8,2.0,1.3
2024-11-15T1300,3018A,111.505,36.1014,临汾市,唐尧大酒店,细颗粒物(PM2.5),117,111,67,88,45,9,,6,6,36,34,9,6,1.8,1.3
2024-11-15T1300,3668A,111.5036,36.0414,临汾市,城南,细颗粒物(PM2.5),94,98,66,70,49,3,,5,5,40,42,10,7,1.6,1.3
2024-11-15T1300,2667A,103.2069,35.5993,临夏回族自治州,环保局,,45,45,86,10,19,59,,22,22,14,39,5,9,0.4,1.2
2024-11-15T1300,2668A,103.2417,35.6057,临夏回族自治州,建设大厦,,39,39,64,25,26,62,,21,21,10,36,5,8,0.4,1
2024-11-15T1300,1618A,118.3429,35.0532,临沂市,沂河小区,,48,48,53,23,29,93,,62,62,13,21,7,6,0.5,0.6
2024-11-15T1300,1619A,118.295,35.0583,临沂市,鲁南制药厂,,,44,52,19,28,78,,52,52,29,29,,4,1.0,1
2024-11-15T1300,1620A,118.2794,34.9976,临沂市,新光毛纺厂,,44,44,45,26,33,92,,64,64,24,28,4,4,0.9,1
2024-11-15T1300,1621A,118.3956,35.0888,临沂市,河东保险公司,,31,31,43,21,34,98,,59,59,12,21,3,3,0.7,0.8
2024-11-15T1300,3370A,118.3564,35.0215,临沂市,十里堡居委,细颗粒物(PM2.5),52,36,41,36,39,96,,62,62,18,25,5,4,0.6,0.7
2024-11-15T1300,3496A,118.3604,35.1084,临沂市,南坊新区,,41,41,46,27,34,103,,64,64,17,29,3,3,0.6,0.8
2024-11-15T1300,3860A,118.3920,35.0300,临沂市,皇山花园小区,细颗粒物(PM2.5),53,,46,37,46,90,,55,55,22,35,2,2,0.8,0.9
2024-11-15T1300,1870A,109.4856,24.3895,柳州市,柳东小学,,40,37,49,28,37,107,,50,50,6,23,10,11,0.6,0.7
2024-11-15T1300,1871A,109.4157,24.3277,柳州市,环保监测站,细颗粒物(PM2.5),60,,70,43,41,104,,48,48,7,34,10,16,0.6,0.8
2024-11-15T1300,1872A,109.389,24.341,柳州市,河西水厂,,48,46,84,33,45,103,,45,45,7,36,13,21,0.9,1.1
2024-11-15T1300,1873A,109.4311,24.2921,柳州市,市四中,颗粒物(PM10),53,56,73,34,38,118,,48,48,10,41,9,11,0.5,0.7
2024-11-15T1300,1874A,109.4006,24.3631,柳州市,市九中,,45,42,82,31,38,108,,50,50,8,32,10,11,1.0,1
2024-11-15T1300,1875A,109.4958,24.3134,柳州市,古亭山,,,48,43,33,26,,,37,37,15,43,14,12,0.8,0.7
2024-11-15T1300,3402A,109.5422,24.3996,柳州市,市二中,,42,42,56,27,36,101,,43,43,10,37,10,11,0.6,0.6
2024-11-15T1300,2307A,116.5079,31.737,六安市,监测大楼,细颗粒物(PM2.5),139,,84,106,102,60,,34,34,25,26,5,6,0.8,0.7
2024-11-15T1300,2308A,116.4738,31.7643,六安市,皖西学院,细颗粒物(PM2.5),144,,92,110,102,57,,30,30,25,25,5,6,0.8,0.8
2024-11-15T1300,2309A,116.4996,31.7905,六安市,朝阳厂,细颗粒物(PM2.5),130,,78,99,99,53,,28,28,24,27,2,2,0.8,0.8
2024-11-15T1300,2310A,116.5567,31.7886,六安市,开发区,细颗粒物(PM2.5),82,88,101,60,58,55,,32,32,28,33,5,5,0.7,0.7
2024-11-15T1300,2576A,104.8,26.5892,六盘水市,窑上,,46,41,35,32,26,89,,50,50,6,5,4,3,0.5,0.4
2024-11-15T1300,2577A,104.83,26.5917,六盘水市,黄土坡,,,34,35,25,20,96,,58,58,8,16,,7,0.5,0.6
2024-11-15T1300,2578A,104.89,26.5939,六盘水市,水钢,,37,37,55,22,38,103,,72,72,6,20,4,5,0.3,0.4
2024-11-15T1300,2579A,104.8475,26.5894,六盘水市,民中,,32,32,41,19,28,97,,62,62,7,25,9,10,0.4,0.7
2024-11-15T1300,2580A,104.9544,26.5506,六盘水市,双水,,34,34,46,19,28,94,,56,56,6,16,8,7,0.2,0.3
2024-11-15T1300,2335A,117.0189,25.1181,龙岩市,龙岩师专,,,,,,,,,,,,,,,,
2024-11-15T1300,2336A,117.0217,25.1033,龙岩市,龙岩市监测站,,19,16,23,13,22,55,,33,33,7,14,4,7,0.5,0.6
2024-11-15T1300,2337A,117.0258,25.0661,龙岩市,闽西职业技术学院,,20,,24,14,18,57,,34,34,4,11,2,5,0.5,0.7
2024-11-15T1300,2338A,117.0196,25.0306,龙岩市,龙岩学院,,43,,26,30,19,62,,28,28,6,14,2,4,0.6,0.7
2024-11-15T1300,2665A,105.0822,33.3261,陇南市,汉王镇固水子,,,,,,,,,,,,,,,,
2024-11-15T1300,2885A,104.9339,33.3826,陇南市,滨江中学,,40,40,46,11,15,52,,20,20,10,22,6,9,0.5,0.8
2024-11-15T1300,3247A,104.955,33.371,陇南市,市总工会,,29,29,36,16,10,54,,34,34,12,14,5,6,0.5,0.6
2024-11-15T1300,2487A,111.9589,27.8901,娄底市,电视发射台,细颗粒物(PM2.5),107,102,75,80,61,97,,78,69,15,13,7,8,0.9,0.9
2024-11-15T1300,2488A,111.9975,27.725,娄底市,市监测站,细颗粒物(PM2.5),94,93,102,70,71,116,,93,80,14,17,8,10,0.8,0.8
2024-11-15T1300,2489A,112.0194,27.7314,娄底市,市委党校,细颗粒物(PM2.5),99,94,90,74,68,108,,86,68,19,20,8,8,0.8,0.8
2024-11-15T1300,2490A,111.9561,27.7569,娄底市,涟钢,细颗粒物(PM2.5),87,105,87,64,66,102,,92,70,24,21,14,13,1.1,1
2024-11-15T1300,2491A,111.9892,27.7044,娄底市,市政府,细颗粒物(PM2.5),107,112,85,80,70,111,,87,74,19,13,10,11,0.6,0.7
2024-11-15T1300,1893A,105.4324,28.9634,泸州市,九狮山,"颗粒物(PM10),细颗粒物(PM2.5)",64,77,62,46,40,18,,5,5,26,19,6,5,0.7,0.5
2024-11-15T1300,1894A,105.4427,28.9063,泸州市,小市上码头,细颗粒物(PM2.5),82,87,65,60,46,30,,12,11,36,27,8,6,0.9,0.8
2024-11-15T1300,1895A,105.4241,28.8573,泸州市,兰田宪桥,细颗粒物(PM2.5),105,,51,79,47,25,,14,14,40,27,7,5,0.9,0.8
2024-11-15T1300,1896A,105.4379,28.8833,泸州市,市环监站,细颗粒物(PM2.5),109,95,63,82,53,20,,11,10,37,28,8,7,0.9,0.8
2024-11-15T1300,3490A,105.3617,28.7703,泸州市,纳溪区环保局,细颗粒物(PM2.5),84,76,51,62,42,27,,10,10,22,29,7,6,0.9,0.8
2024-11-15T1300,2183A,111.1406,37.5211,吕梁市,环保局,颗粒物(PM10),63,76,65,33,32,4,,2,2,29,35,5,5,0.8,0.6
2024-11-15T1300,2185A,111.1297,37.5136,吕梁市,自来水公司,颗粒物(PM10),67,83,69,40,34,5,,4,4,30,35,8,8,1.0,0.7
2024-11-15T1300,2867A,111.1283,37.51,吕梁市,马茂庄小学,颗粒物(PM10),69,87,82,41,36,5,,4,4,33,39,5,6,1.0,0.7
2024-11-15T1300,1812A,112.3931,34.6516,洛阳市,市委党校,细颗粒物(PM2.5),109,93,79,82,78,25,,23,20,32,25,3,2,1.4,1.1
2024-11-15T1300,1814A,112.4657,34.6871,洛阳市,豫西宾馆,细颗粒物(PM2.5),94,76,65,70,64,31,,25,25,28,22,2,2,1.4,1.1
2024-11-15T1300,1815A,112.494,34.6886,洛阳市,河南林校,细颗粒物(PM2.5),102,81,71,76,75,29,,23,23,,26,,3,1.2,0.8
2024-11-15T1300,1816A,112.3844,34.623,洛阳市,开发区管委会,细颗粒物(PM2.5),104,106,96,78,81,25,,23,19,29,23,6,6,1.1,0.8
2024-11-15T1300,1817A,112.4267,34.6258,洛阳市,市委新办公区,细颗粒物(PM2.5),98,89,93,73,70,25,,20,17,28,26,2,2,1.1,0.9
2024-11-15T1300,3340A,112.6005,34.6326,洛阳市,伊滨,,,100,56,73,64,25,,18,17,,23,4,4,1.4,1.2
2024-11-15T1300,3341A,112.4951,34.6332,洛阳市,中移产业园,细颗粒物(PM2.5),108,,70,81,72,30,,22,20,25,26,4,3,1.4,1.2
2024-11-15T1300,3593A,112.5736,34.8993,洛阳市,吉利监测站,,,,49,,60,30,,32,29,,16,3,2,,1
2024-11-15T1300,3635A,112.3677,34.662,洛阳市,河科大西苑校区,细颗粒物(PM2.5),88,93,87,65,61,28,,24,22,31,25,2,2,1.2,1
2024-11-15T1300,3636A,112.4388,34.6781,洛阳市,英才小学,细颗粒物(PM2.5),89,91,76,66,63,27,,20,18,28,23,2,2,1.4,1.1
2024-11-15T1300,2399A,114.051,33.5699,漯河市,三五一五工厂,细颗粒物(PM2.5),147,166,122,112,80,18,,20,15,21,22,5,5,1.0,0.9
2024-11-15T1300,2400A,114.0055,33.5698,漯河市,漯河大学,,,,102,,90,18,,21,15,21,21,,4,0.8,0.9
2024-11-15T1300,2401A,114.0138,33.5828,漯河市,市水利局,细颗粒物(PM2.5),168,166,127,127,94,17,,18,14,15,17,5,5,1.0,0.9
2024-11-15T1300,2402A,114.0261,33.5698,漯河市,市广电局,细颗粒物(PM2.5),148,161,113,113,80,19,,22,16,18,19,3,3,0.9,0.8
2024-11-15T1300,3478A,113.9749,33.5664,漯河市,市图书馆,细颗粒物(PM2.5),155,174,124,118,87,20,,22,17,17,18,3,3,1.0,0.9
2024-11-15T1300,3479A,114.0967,33.5906,漯河市,召陵区卫健委,细颗粒物(PM2.5),190,197,140,143,106,17,,14,12,17,23,7,7,1.0,0.9
2024-11-15T1300,1798A,118.5092,31.6837,马鞍山市,湖东路四小,细颗粒物(PM2.5),93,85,86,69,58,51,,22,22,32,41,5,6,1.0,1
2024-11-15T1300,1799A,118.5024,31.6449,马鞍山市,开发区,细颗粒物(PM2.5),104,82,90,78,58,50,,18,18,36,44,7,7,1.0,1
2024-11-15T1300,1800A,118.5228,31.7231,马鞍山市,慈湖,细颗粒物(PM2.5),93,130,120,69,57,56,,22,22,27,46,9,10,1.1,1.2
2024-11-15T1300,1802A,118.6245,31.7241,马鞍山市,濮塘,细颗粒物(PM2.5),143,113,84,109,69,47,,19,19,44,35,7,7,1.0,0.8
2024-11-15T1300,3633A,118.4918,31.6809,马鞍山市,雨山,细颗粒物(PM2.5),69,69,76,50,45,54,,21,21,28,40,5,5,1.1,1.1
2024-11-15T1300,1686A,111.0286,21.4688,茂名市,电白南海,细颗粒物(PM2.5),79,80,71,58,49,134,,79,79,15,20,18,16,0.8,0.8
2024-11-15T1300,1687A,110.9294,21.6533,茂名市,茂石化七小,,35,31,44,24,30,100,,58,58,7,15,9,15,0.6,0.8
2024-11-15T1300,1688A,110.9107,21.6687,茂名市,健康路,,32,19,41,9,25,102,,54,54,4,13,13,27,0.5,0.7
2024-11-15T1300,1689A,110.8592,21.6828,茂名市,高岭,,34,34,59,22,34,90,,41,41,7,20,12,22,0.6,0.7
2024-11-15T1300,3450A,111.01,21.5165,茂名市,电白水东,,44,44,58,24,44,118,,72,72,15,17,15,26,0.6,0.8
2024-11-15T1300,2539A,104.0308,30.0478,眉山市,黑龙滩水库,细颗粒物(PM2.5),65,58,46,47,40,43,,19,19,7,12,3,2,0.4,0.4
2024-11-15T1300,2540A,103.8416,30.0874,眉山市,气象局,细颗粒物(PM2.5),94,72,48,70,43,24,,9,9,31,27,8,7,0.9,0.8
2024-11-15T1300,3137A,103.8578,30.0744,眉山市,市委党校,细颗粒物(PM2.5),73,85,50,53,33,22,,8,8,36,32,6,6,0.8,0.7
2024-11-15T1300,3148A,103.8291,30.0564,眉山市,区人社局,细颗粒物(PM2.5),77,75,46,56,37,24,,8,8,39,36,7,6,0.8,0.7
2024-11-15T1300,1690A,116.1231,24.3284,梅州市,梅江月梅,,30,30,31,21,23,64,,25,25,18,19,9,9,0.6,0.5
2024-11-15T1300,1691A,116.0797,24.2719,梅州市,梅县新城,,46,46,30,29,23,69,,29,29,13,20,6,6,0.4,0.5
2024-11-15T1300,1692A,116.1248,24.2654,梅州市,环境监控中心,,32,32,34,17,20,79,,33,33,12,23,8,8,0.5,0.5
2024-11-15T1300,3315A,116.1233,24.2991,梅州市,梅龙,,29,29,25,16,17,71,,31,31,17,21,6,6,0.6,0.6
2024-11-15T1300,1878A,104.7778,31.4741,绵阳市,富乐山,,43,33,35,30,27,23,,7,7,17,22,3,3,0.7,0.7
2024-11-15T1300,1879A,104.7563,31.4535,绵阳市,市人大,颗粒物(PM10),52,53,47,32,29,11,,4,4,29,31,7,5,0.7,0.7
2024-11-15T1300,1880A,104.6697,31.4668,绵阳市,高新区自来水公司,,46,46,32,24,18,6,,7,5,33,29,4,3,0.8,0.7
2024-11-15T1300,1881A,104.7287,31.5075,绵阳市,三水厂,细颗粒物(PM2.5),74,,46,54,38,6,,4,4,28,30,7,7,0.9,0.9
2024-11-15T1300,3491A,104.69,31.5322,绵阳市,西科大附属小学,颗粒物(PM10),51,52,48,29,26,12,,11,11,21,23,4,4,0.8,0.7
2024-11-15T1300,3492A,104.5648,31.5343,绵阳市,安州区旅游局,,42,,31,29,26,20,,28,21,15,18,7,10,0.9,0.9
2024-11-15T1300,1784A,129.61,44.561,牡丹江市,环保大楼,,33,27,62,23,38,36,,19,19,23,37,7,8,0.5,0.7
2024-11-15T1300,1785A,129.6115,44.5782,牡丹江市,文化广场,,,,100,,58,,,7,,,52,,14,,1.0
2024-11-15T1300,1786A,129.5904,44.5963,牡丹江市,第一医院,细颗粒物(PM2.5),64,47,66,46,55,40,,21,21,29,39,9,8,0.7,0.8
2024-11-15T1300,1787A,129.6364,44.6075,牡丹江市,机车工厂,颗粒物(PM10),51,51,85,35,47,28,,12,12,32,44,13,10,0.6,0.9
2024-11-15T1300,1788A,129.6386,44.5462,牡丹江市,第一中学,,,42,61,15,41,41,,18,18,17,33,6,6,,0.7
2024-11-15T1300,2531A,105.0703,29.61,内江市,市监测站,细颗粒物(PM2.5),55,,29,39,33,51,,23,23,5,16,9,7,0.8,0.7
2024-11-15T1300,2532A,105.0717,29.5947,内江市,东兴区政府,细颗粒物(PM2.5),57,,23,40,23,51,,39,29,13,17,9,8,0.6,0.6
2024-11-15T1300,2533A,105.0653,29.5817,内江市,内江二中,细颗粒物(PM2.5),73,53,34,53,30,46,,39,26,21,22,9,8,0.7,0.6
2024-11-15T1300,2534A,105.0406,29.5822,内江市,内江日报社,细颗粒物(PM2.5),69,,34,50,33,43,,22,20,19,28,8,8,0.7,0.6
2024-11-15T1300,2628A,92.0657,31.4846,那曲市,那曲监测站,颗粒物(PM10),52,54,75,25,38,64,,28,28,12,23,6,10,0.4,1
2024-11-15T1300,3128A,92.0506,31.4797,那曲市,那曲会议中心,颗粒物(PM10),69,88,90,6,31,65,,24,24,7,18,2,5,0.5,0.9
2024-11-15T1300,1290A,115.8931,28.6843,南昌市,省外办,,,20,30,9,21,24,,24,21,,23,,4,,0.7
2024-11-15T1300,1291A,115.8886,28.7003,南昌市,省林业公司,,9,,16,3,16,21,,20,20,17,25,5,6,0.4,0.6
2024-11-15T1300,1292A,115.8126,28.7442,南昌市,林科所,,10,,12,3,11,28,,33,26,20,29,5,6,0.2,0.3
2024-11-15T1300,1294A,115.8518,28.687,南昌市,建工学校,,9,,23,3,16,25,,27,25,17,21,5,5,0.4,0.6
2024-11-15T1300,1295A,115.8921,28.6424,南昌市,象湖,,10,8,22,7,16,26,,29,27,18,23,5,6,0.4,0.6
2024-11-15T1300,1296A,115.7423,28.7996,南昌市,武术学校,,19,19,22,8,10,20,,19,19,10,10,4,4,0.5,0.6
2024-11-15T1300,1298A,115.9314,28.6842,南昌市,省站,,14,14,42,9,18,27,,25,24,15,21,4,5,0.6,0.7
2024-11-15T1300,3046A,115.9084,28.6062,南昌市,机电学校,,14,14,32,3,18,26,,27,24,16,23,7,9,0.3,0.6
2024-11-15T1300,3690A,115.9721,28.7031,南昌市,外国语学校,,10,10,23,3,15,30,,27,26,10,14,5,6,0.4,0.7
2024-11-15T1300,1905A,106.056,30.8064,南充市,西山风景区,,39,,23,27,21,15,,20,10,13,10,2,1,1.0,0.8
2024-11-15T1300,1906A,106.0789,30.8023,南充市,南充市委,,50,49,32,35,23,15,,8,8,21,24,3,3,0.4,0.4
2024-11-15T1300,1907A,106.1031,30.8217,南充市,南充炼油厂,,50,50,46,34,28,12,,12,8,18,19,2,3,0.5,0.5
2024-11-15T1300,1908A,106.1064,30.7856,南充市,高坪区监测站,细颗粒物(PM2.5),57,54,38,40,29,12,,11,9,23,23,2,3,0.5,0.4
2024-11-15T1300,1909A,106.0642,30.7636,南充市,嘉陵区环保局,颗粒物(PM10),55,59,39,29,22,10,,13,8,28,27,3,4,0.7,0.6
2024-11-15T1300,1910A,106.1087,30.8388,南充市,市环境监测站,细颗粒物(PM2.5),57,41,37,40,28,14,,11,9,16,15,3,4,0.5,0.4
2024-11-15T1300,1151A,118.8086,32.1065,南京市,迈皋桥,细颗粒物(PM2.5),70,72,67,51,45,73,,30,30,30,43,4,4,0.5,0.6
2024-11-15T1300,1152A,118.7538,32.0551,南京市,草场门,细颗粒物(PM2.5),79,85,78,58,52,68,,34,34,45,53,4,7,0.7,0.9
2024-11-15T1300,1153A,118.7794,32.0745,南京市,山西路,细颗粒物(PM2.5),89,92,90,66,56,68,,33,33,25,37,4,4,0.4,0.6
2024-11-15T1300,1154A,118.7752,32.0023,南京市,中华门,细颗粒物(PM2.5),83,92,85,61,54,60,,30,30,29,47,4,4,0.6,0.8
2024-11-15T1300,1155A,118.8109,32.0309,南京市,瑞金路,细颗粒物(PM2.5),92,100,88,68,60,56,,28,28,34,48,8,8,0.3,0.5
2024-11-15T1300,1156A,118.7997,32.0754,南京市,玄武湖,细颗粒物(PM2.5),90,,76,67,58,56,,22,22,50,55,6,6,0.9,0.9
2024-11-15T1300,1157A,118.6414,32.0931,南京市,浦口,细颗粒物(PM2.5),63,57,59,45,44,68,,32,32,19,30,7,8,0.8,0.9
2024-11-15T1300,1158A,118.7356,31.9996,南京市,奥体中心,细颗粒物(PM2.5),92,106,92,68,63,59,,30,30,34,46,7,8,0.6,0.7
2024-11-15T1300,1159A,118.9125,32.1028,南京市,仙林大学城,细颗粒物(PM2.5),77,88,80,56,53,69,,30,30,36,41,8,7,0.7,0.7
2024-11-15T1300,3422A,118.8436,31.9198,南京市,江宁彩虹桥,细颗粒物(PM2.5),83,74,65,61,53,56,,20,20,30,50,4,4,0.8,0.8
2024-11-15T1300,3423A,119.0138,31.6494,南京市,溧水永阳,,,107,61,,36,42,,16,16,35,28,,4,,0.7
2024-11-15T1300,3424A,118.879,31.3302,南京市,高淳老职中,,49,47,43,34,35,45,,23,23,27,26,4,5,0.6,0.5
2024-11-15T1300,3427A,118.8554,32.3578,南京市,六合雄州,细颗粒物(PM2.5),60,61,92,43,51,73,,36,36,9,23,8,9,1.0,1.2
2024-11-15T1300,1401A,108.3103,22.7881,南宁市,二十一中,颗粒物(PM10),64,78,65,39,46,150,,59,59,16,35,5,7,0.9,0.9
2024-11-15T1300,1402A,108.3141,22.8528,南宁市,北湖,细颗粒物(PM2.5),68,73,78,49,51,138,,48,48,21,40,7,10,0.9,0.9
2024-11-15T1300,1403A,108.3206,22.8225,南宁市,市监测站,颗粒物(PM10),68,86,70,42,49,134,,62,62,19,29,9,13,0.7,0.7
2024-11-15T1300,1404A,108.3829,22.8037,南宁市,大自然花园,细颗粒物(PM2.5),58,59,60,41,43,132,,57,57,18,26,7,8,0.8,0.8
2024-11-15T1300,1405A,108.4394,22.7904,南宁市,仙葫,颗粒物(PM10),54,58,65,37,45,120,,43,43,19,32,5,7,0.7,0.8
2024-11-15T1300,1406A,108.2397,22.8467,南宁市,区农职院,颗粒物(PM10),61,72,80,42,51,150,,49,49,21,33,7,12,0.8,0.8
2024-11-15T1300,1407A,108.3275,22.735,南宁市,英华嘉园,细颗粒物(PM2.5),69,75,74,50,47,143,,50,50,19,44,9,11,0.8,0.8
2024-11-15T1300,1408A,108.2257,22.7757,南宁市,沙井镇街道办,颗粒物(PM10),60,69,103,42,55,133,,46,46,20,45,9,9,0.8,0.8
2024-11-15T1300,3401A,108.4834,22.7618,南宁市,红星社区,,,48,60,38,44,141,,44,44,10,30,,8,0.8,0.9
2024-11-15T1300,2331A,118.0966,26.6761,南平市,茫荡山,,,,,,,,,,,,,,,,
2024-11-15T1300,2332A,118.1681,26.6369,南平市,南平市监测站,,40,32,35,28,26,44,,16,16,12,22,3,4,0.5,0.6
2024-11-15T1300,2333A,118.1825,26.6489,南平市,南平铝业有限公司,,33,,31,23,23,40,,13,13,13,22,2,4,0.5,0.6
2024-11-15T1300,2334A,118.1756,26.6272,南平市,南平七中,,40,40,33,22,23,47,,16,16,15,21,3,3,0.5,0.6
2024-11-15T1300,1168A,120.9098,31.9663,南通市,狼山街道,细颗粒物(PM2.5),100,115,50,75,33,44,,18,18,32,50,6,6,0.9,0.7
2024-11-15T1300,1169A,120.86,32.0005,南通市,虹桥,细颗粒物(PM2.5),100,106,60,75,43,38,,14,14,35,55,6,7,0.8,0.7
2024-11-15T1300,1170A,120.87,32.02,南通市,城中,,,,55,,33,38,,17,17,33,53,6,7,0.9,0.8
2024-11-15T1300,1171A,120.94,31.93,南通市,星湖花园,细颗粒物(PM2.5),87,88,45,64,34,40,,15,15,36,55,5,6,0.9,0.8
2024-11-15T1300,1172A,120.81,32.0417,南通市,紫琅学院,细颗粒物(PM2.5),73,88,46,53,34,42,,17,17,27,59,3,4,0.8,0.8
2024-11-15T1300,3291A,121.067,32.062,南通市,通州监测站,细颗粒物(PM2.5),89,97,50,66,36,50,,24,24,26,46,3,3,1.0,0.9
2024-11-15T1300,3432A,120.9348,31.9883,南通市,环境教育馆,细颗粒物(PM2.5),100,114,55,75,31,41,,16,16,35,54,4,4,0.8,0.7
2024-11-15T1300,2404A,112.5224,33.0122,南阳市,瓦房庄,细颗粒物(PM2.5),53,40,68,37,65,24,,43,29,21,20,3,3,0.9,0.8
2024-11-15T1300,2405A,112.5003,32.9735,南阳市,汉画馆,细颗粒物(PM2.5),57,44,71,40,61,23,,43,30,24,22,4,4,0.9,0.8
2024-11-15T1300,2406A,112.5573,33.027,南阳市,气象站,细颗粒物(PM2.5),55,41,66,39,83,26,,39,28,22,25,4,4,0.9,0.9
2024-11-15T1300,2407A,112.5481,32.9689,南阳市,理工学院,,42,35,60,29,48,19,,34,24,23,25,3,3,0.9,0.9
2024-11-15T1300,4008A,112.5234,32.9922,南阳市,卧龙区政府,细颗粒物(PM2.5),59,,62,42,68,21,,42,27,26,25,4,4,0.9,0.9
2024-11-15T1300,1234A,121.8358,29.911,宁波市,区环保大楼,,25,20,17,11,8,7,,25,4,49,47,9,7,0.6,0.7
2024-11-15T1300,1235A,121.56,29.82,宁波市,万里学院,细颗粒物(PM2.5),53,,23,37,15,13,,25,20,57,49,8,6,0.9,0.8
2024-11-15T1300,1236A,121.713,29.9572,宁波市,龙赛医院,,28,21,23,10,11,5,,28,5,56,49,10,11,0.5,0.7
2024-11-15T1300,1239A,121.633,29.7733,宁波市,钱湖水厂,,30,29,12,21,9,14,,53,33,47,32,8,6,1.0,0.9
2024-11-15T1300,1240A,121.5856,29.8635,宁波市,太古小学,,33,33,21,14,12,10,,20,16,38,36,10,8,0.9,1.1
2024-11-15T1300,1241A,121.524,29.8674,宁波市,市环境监测中心,,28,28,19,12,11,28,,19,19,45,52,4,5,0.7,0.9
2024-11-15T1300,2871A,121.6147,29.9017,宁波市,万里国际学校,,28,17,15,14,12,9,,10,8,56,56,11,8,0.6,0.7
2024-11-15T1300,3710A,121.5594,29.8975,宁波市,白沙活动中心,,26,18,14,10,9,16,,16,14,52,53,11,9,0.6,0.7
2024-11-15T1300,2339A,119.5001,26.6946,宁德市,金涵水库,,,,,,,,,,,,,,,,
2024-11-15T1300,2341A,119.5388,26.6612,宁德市,宁德市监测站,,21,21,27,14,19,30,,13,13,13,26,3,2,0.5,0.9
2024-11-15T1300,3209A,119.5231,26.6562,宁德市,宁德一中,,28,21,27,19,25,32,,18,18,14,24,2,2,0.4,0.8
2024-11-15T1300,2618A,98.8601,25.8567,怒江傈僳族自治州,州监测站,,20,20,30,12,18,58,,29,29,7,14,5,5,0.4,0.5
2024-11-15T1300,2619A,98.8546,25.8417,怒江傈僳族自治州,泸水一中,,25,24,23,17,15,51,,20,20,8,17,6,6,0.3,0.4
2024-11-15T1300,1888A,101.6891,26.571,攀枝花市,弄弄坪,细颗粒物(PM2.5),54,56,41,38,23,59,,23,23,37,29,36,17,2.0,1.4
2024-11-15T1300,1889A,101.5769,26.5928,攀枝花市,河门口,,38,38,34,23,23,72,,25,25,30,25,39,10,3.5,1.1
2024-11-15T1300,1890A,101.7169,26.585,攀枝花市,炳草岗,,48,48,54,24,29,71,,21,21,28,43,37,21,1.4,1.1
2024-11-15T1300,1891A,101.7369,26.5008,攀枝花市,仁和,细颗粒物(PM2.5),97,105,37,72,22,102,,38,38,27,20,39,9,1.8,1
2024-11-15T1300,2835A,101.7227,26.567,攀枝花市,四十中小,,49,49,52,26,27,65,,19,19,26,43,17,9,1.3,1.2
2024-11-15T1300,1604A,122.0303,41.1489,盘锦市,开发区,细颗粒物(PM2.5),69,,33,50,42,63,,37,37,26,26,16,9,0.7,0.6
2024-11-15T1300,1605A,122.0485,41.0883,盘锦市,兴隆台,细颗粒物(PM2.5),67,51,34,48,43,62,,38,38,31,33,18,4,1.0,0.9
2024-11-15T1300,1606A,121.8297,41.1028,盘锦市,新生街道,细颗粒物(PM2.5),72,,25,52,33,47,,29,29,31,29,10,9,0.8,0.7
2024-11-15T1300,1832A,113.3257,33.742,平顶山市,新华旅馆,细颗粒物(PM2.5),129,104,84,98,75,30,,21,21,18,29,6,6,0.9,0.9
2024-11-15T1300,1833A,113.2919,33.737,平顶山市,规划设计院,细颗粒物(PM2.5),117,111,93,88,71,34,,25,24,14,23,5,5,1.1,1.1
2024-11-15T1300,1834A,113.182,33.774,平顶山市,平顶山工学院,细颗粒物(PM2.5),107,99,100,80,67,33,,22,21,,20,5,6,1.0,1
2024-11-15T1300,3204A,113.3025,33.73,平顶山市,规划局,细颗粒物(PM2.5),129,102,92,98,82,35,,24,24,20,29,5,5,1.0,1
2024-11-15T1300,3594A,112.8867,33.9116,平顶山市,石龙区,细颗粒物(PM2.5),95,,57,71,61,42,,30,30,5,11,8,9,1.0,1.1
2024-11-15T1300,2656A,106.6692,35.5461,平凉市,聚贤嘉苑,颗粒物(PM10),99,148,66,36,33,66,,44,44,17,34,8,10,0.6,0.9
2024-11-15T1300,2657A,106.7021,35.5307,平凉市,博物馆,颗粒物(PM10),112,174,73,38,34,71,,46,46,16,30,6,11,0.3,0.6
2024-11-15T1300,2347A,114.0997,27.5002,萍乡市,武功山,,11,6,13,3,4,33,,26,26,8,8,13,12,0.3,0.5
2024-11-15T1300,2348A,113.8385,27.6434,萍乡市,中医院,,22,17,35,15,28,36,,34,27,7,12,13,16,0.7,0.8
2024-11-15T1300,2349A,113.8493,27.6253,萍乡市,市政府车库,,25,,26,17,28,38,,35,29,6,11,21,17,0.4,0.6
2024-11-15T1300,2350A,113.8676,27.6435,萍乡市,市环保局,,16,16,31,9,26,39,,36,31,4,9,13,20,0.5,0.6
2024-11-15T1300,2351A,113.866,27.6198,萍乡市,安源区政府,,17,17,39,6,25,40,,34,28,10,16,15,20,0.9,1.1
2024-11-15T1300,2319A,119.0141,25.4325,莆田市,荔城区仓后路,,14,14,13,3,4,44,,31,31,6,8,1,1,0.3,0.5
2024-11-15T1300,2320A,119.0015,25.4553,莆田市,莆田市监测站,,21,21,12,3,1,46,,28,28,4,3,2,2,0.2,0.3
2024-11-15T1300,2321A,119.1119,25.4561,莆田市,涵江区六中,,14,7,21,3,10,42,,22,22,4,14,2,2,0.3,0.4
2024-11-15T1300,2322A,119.1013,25.3215,莆田市,秀屿区政府,,35,35,24,3,8,52,,24,24,6,14,5,3,0.6,0.5
2024-11-15T1300,2323A,118.981,25.4792,莆田市,东圳水库,,,,,,,,,,,,,,,,
2024-11-15T1300,2392A,115.0312,35.7636,濮阳市,环保局,细颗粒物(PM2.5),77,,40,56,71,62,,45,45,16,19,2,3,0.8,1
2024-11-15T1300,2394A,115.0574,35.7609,濮阳市,油田运输公司,细颗粒物(PM2.5),74,66,88,54,68,65,,45,45,15,21,1,4,0.9,1
2024-11-15T1300,2395A,115.0866,35.7754,濮阳市,油田物探公司,细颗粒物(PM2.5),80,,80,59,69,62,,38,38,12,19,1,3,1.1,1.2
2024-11-15T1300,3021A,115,35.7668,濮阳市,濮水河管理处,细颗粒物(PM2.5),83,68,80,61,68,58,,31,31,15,18,2,1,1.0,1.1
2024-11-15T1300,2601A,100.98,22.7633,普洱市,市环保局,,24,24,25,3,18,72,,37,37,7,9,5,5,0.3,0.4
2024-11-15T1300,2602A,100.9817,22.8322,普洱市,普洱第二中学,,,21,27,11,12,69,,28,28,6,16,,6,0.2,0.3
2024-11-15T1300,2262A,131.0518,45.8751,七台河市,新一中,细颗粒物(PM2.5),110,95,91,83,68,66,,41,41,22,33,11,12,1.5,1.5
2024-11-15T1300,3345A,131.0577,45.7879,七台河市,中波台,细颗粒物(PM2.5),102,91,85,76,63,60,,32,32,23,41,11,12,0.6,0.7
2024-11-15T1300,3637A,131.0176,45.7761,七台河市,人民广场,细颗粒物(PM2.5),93,113,108,69,69,64,,29,29,26,46,11,11,1.0,1.2
2024-11-15T1300,3684A,130.8781,45.8222,七台河市,新建矿广场,细颗粒物(PM2.5),79,97,120,58,70,66,,33,33,19,38,10,13,0.6,0.9
2024-11-15T1300,1779A,123.9305,47.3636,齐齐哈尔市,安居小区,细颗粒物(PM2.5),99,97,131,74,120,37,,32,23,34,33,8,7,0.5,0.6
2024-11-15T1300,1780A,123.9488,47.3386,齐齐哈尔市,中心广场,细颗粒物(PM2.5),85,90,118,63,101,41,,34,26,26,32,6,3,0.6,0.7
2024-11-15T1300,1781A,123.9483,47.3227,齐齐哈尔市,农牧车辆厂,,,73,113,58,93,49,,38,30,20,33,,6,0.3,0.5
2024-11-15T1300,1783A,123.945,47.2988,齐齐哈尔市,市环境监测站,细颗粒物(PM2.5),82,82,126,60,104,46,,28,26,24,36,8,5,0.5,0.7
2024-11-15T1300,3662A,123.6333,47.2075,齐齐哈尔市,富区青少年活动中心,"颗粒物(PM10),细颗粒物(PM2.5)",57,64,238,40,178,40,,24,24,9,33,6,7,0.3,0.9
2024-11-15T1300,2591A,107.9783,26.5747,黔东南苗族侗族自治州,市环境监测站,细颗粒物(PM2.5),85,73,55,63,45,62,,51,51,17,25,5,5,0.6,0.5
2024-11-15T1300,2881A,107.8908,26.5311,黔东南苗族侗族自治州,凯里学院,细颗粒物(PM2.5),68,61,40,49,37,80,,57,54,8,9,4,5,0.5,0.4
2024-11-15T1300,2593A,107.5228,26.2403,黔南布依族苗族自治州,小围寨,,39,31,32,27,29,97,,36,36,5,11,4,4,0.4,0.4
2024-11-15T1300,3538A,107.5175,26.2978,黔南布依族苗族自治州,沙坝,,39,36,39,27,28,105,,39,39,5,11,4,4,0.5,0.5
2024-11-15T1300,2589A,104.9022,25.0925,黔西南布依族苗族自治州,场坝街,,32,32,38,7,25,86,,34,34,6,25,5,22,0.3,0.4
2024-11-15T1300,2590A,104.8811,25.0992,黔西南布依族苗族自治州,坪东大道,,27,17,29,13,24,84,,45,45,6,21,3,5,0.2,0.3
2024-11-15T1300,2502A,108.6236,21.9667,钦州市,市环保站,颗粒物(PM10),56,61,68,34,38,127,,62,62,11,24,12,13,1.1,1
2024-11-15T1300,2503A,108.6549,21.9481,钦州市,沙埠小学,,,141,84,29,41,139,,41,41,,35,11,11,1.7,1.2
2024-11-15T1300,2504A,108.5989,21.7431,钦州市,港区一小,颗粒物(PM10),83,115,73,44,40,126,,56,56,28,31,13,13,1.0,0.9
2024-11-15T1300,3404A,108.5959,21.9633,钦州市,北职校,,40,40,64,21,40,104,,54,54,8,24,12,11,0.7,1.1
2024-11-15T1300,1042A,119.5134,39.8207,秦皇岛市,北戴河环保局,,35,24,28,24,13,46,,30,30,19,27,3,3,0.5,0.7
2024-11-15T1300,1043A,119.7493,40.0116,秦皇岛市,第一关,,29,,22,20,24,39,,37,37,14,30,1,1,0.5,0.7
2024-11-15T1300,1044A,119.5897,39.9499,秦皇岛市,监测站,,21,21,26,3,8,37,,24,24,23,35,2,2,0.6,0.9
2024-11-15T1300,1046A,119.5251,39.9041,秦皇岛市,建设大厦,,28,28,31,8,15,42,,20,20,26,43,1,2,0.5,0.9
2024-11-15T1300,3132A,119.610547,39.943889,秦皇岛市,文明里,,28,28,31,12,17,38,,26,26,22,37,2,2,0.4,0.7
2024-11-15T1300,1307A,120.6659,36.2403,青岛市,仰口,,36,,23,25,22,99,,80,80,8,7,8,7,0.4,0.5
2024-11-15T1300,1310A,120.4134,36.0658,青岛市,市南区东部子站,,35,29,49,17,23,112,,70,70,10,43,10,10,0.5,0.6
2024-11-15T1300,1311A,120.3664,36.1032,青岛市,四方区子站,颗粒物(PM10),56,61,57,27,33,83,,48,48,39,56,12,10,0.8,0.8
2024-11-15T1300,1312A,120.2994,36.054,青岛市,市南区西部子站,,34,34,45,20,26,97,,50,50,21,41,11,10,0.7,0.7
2024-11-15T1300,1313A,120.4581,36.0858,青岛市,崂山区子站,,35,31,36,19,19,110,,80,80,17,41,9,9,0.6,0.7
2024-11-15T1300,1314A,120.1983,35.9608,青岛市,黄岛区子站,,46,46,48,24,28,83,,43,43,49,70,10,10,0.7,0.7
2024-11-15T1300,1315A,120.3999,36.3083,青岛市,城阳区子站,,37,27,55,17,31,118,,55,55,9,43,9,9,0.6,0.8
2024-11-15T1300,1966A,120.0405,35.8735,青岛市,黄岛区4号,,41,41,39,27,25,113,,77,77,26,40,9,9,0.6,0.7
2024-11-15T1300,3362A,120.5014,36.4034,青岛市,即墨2号,,34,26,46,14,24,108,,53,53,7,28,7,8,0.5,0.6
2024-11-15T1300,3642A,120.3503,36.0736,青岛市,市北区南部,颗粒物(PM10),62,74,51,27,26,91,,51,51,27,56,10,11,0.7,0.8
2024-11-15T1300,3643A,120.3948,36.1805,青岛市,李沧区北部,颗粒物(PM10),53,56,57,29,35,94,,58,58,43,58,12,10,0.8,0.8
2024-11-15T1300,1702A,113.0426,23.691,清远市,环保大楼,,12,10,12,8,12,36,,31,29,8,6,4,4,0.5,0.5
2024-11-15T1300,1703A,113.0208,23.7106,清远市,凤城街办,,20,16,15,14,12,34,,31,31,15,11,3,4,0.8,0.8
2024-11-15T1300,3025A,113.0477,23.6344,清远市,技师学院,,15,10,16,6,10,46,,30,30,8,10,6,7,1.1,1.1
2024-11-15T1300,3318A,112.9903,23.7403,清远市,清新太和,,22,22,21,15,12,30,,31,31,28,15,4,3,0.7,0.7
2024-11-15T1300,3455A,113.076,23.7198,清远市,清城东城,,,11,16,7,10,35,,24,24,6,7,,5,0.7,0.7
2024-11-15T1300,2661A,107.6325,35.7357,庆阳市,庆阳五中,颗粒物(PM10),57,64,41,30,26,35,,50,43,15,16,7,8,0.6,0.8
2024-11-15T1300,2662A,107.6364,35.7067,庆阳市,市环保局,颗粒物(PM10),57,63,37,27,25,38,,53,44,12,8,6,6,0.5,0.7
2024-11-15T1300,1916A,103.7897,25.5035,曲靖市,环境监测站,,,26,34,15,16,,,23,23,14,31,8,6,0.5,0.5
2024-11-15T1300,1917A,103.8,25.5364,曲靖市,烟厂办公区,,40,40,48,15,25,98,,38,38,13,37,4,19,0.3,0.6
2024-11-15T1300,3376A,103.7947,25.462,曲靖市,南苑二区,,39,29,28,27,15,100,,54,54,10,12,10,6,0.6,0.5
2024-11-15T1300,3377A,103.7444,25.5261,曲靖市,曲靖师范学院,,31,10,49,7,36,99,,37,37,7,37,9,70,0.4,0.8
2024-11-15T1300,1264A,118.8692,28.9398,衢州市,环保大楼,,16,16,50,7,32,32,,21,21,17,32,4,4,0.5,0.7
2024-11-15T1300,1265A,118.8709,28.9666,衢州市,实验学校,,13,,40,9,33,31,,14,14,13,33,7,6,0.5,0.6
2024-11-15T1300,1266A,118.8621,28.9808,衢州市,衢州学院,,,10,46,6,30,35,,15,15,,27,5,5,,0.6
2024-11-15T1300,1611A,118.5819,24.9117,泉州市,涂山街,,29,29,27,9,17,79,,36,36,13,18,1,1,0.3,0.4
2024-11-15T1300,1612A,118.5972,24.8978,泉州市,津头埔,,30,30,27,10,15,71,,33,33,14,19,2,2,0.4,0.5
2024-11-15T1300,1613A,118.6663,24.9424,泉州市,万安,,,27,27,8,15,85,,28,28,8,18,,1,0.4,0.4
2024-11-15T1300,1614A,118.6117,24.9604,泉州市,清源山,,,,,,,,,,,,,,,,
2024-11-15T1300,3529A,118.6333,24.9264,泉州市,城华南路,,28,18,26,3,13,88,,34,34,7,15,2,1,0.2,0.3
2024-11-15T1300,2626A,88.8876,29.2718,日喀则市,日喀则监测站,,32,32,45,17,24,65,,24,24,15,28,4,5,0.5,0.8
2024-11-15T1300,3726A,88.8781,29.2426,日喀则市,林业技术推广中心,,24,24,36,9,14,62,,28,28,8,19,7,8,0.5,0.6
2024-11-15T1300,1659A,119.471,35.4209,日照市,监测站,,33,29,28,23,26,95,,58,58,21,31,7,5,0.6,0.5
2024-11-15T1300,1660A,119.523,35.4216,日照市,市政府广场,,34,27,30,10,19,106,,77,77,10,10,6,5,0.6,0.7
2024-11-15T1300,1661A,119.5587,35.4044,日照市,港务局,,,,26,32,34,106,,83,83,,19,9,6,0.5,0.6
2024-11-15T1300,3507A,119.5328,35.4625,日照市,职业技术学院,,34,34,31,22,21,106,,82,82,20,22,6,4,0.6,0.6
2024-11-15T1300,3604A,119.3266,35.1044,日照市,岚山环保分局,,,,38,,33,,,58,58,20,31,,10,0.4,1.2
2024-11-15T1300,1835A,111.1922,34.7752,三门峡市,市政府,细颗粒物(PM2.5),57,,47,40,42,38,,38,36,15,20,2,3,0.9,0.9
2024-11-15T1300,1836A,111.1587,34.7942,三门峡市,开发区,细颗粒物(PM2.5),53,52,67,37,46,36,,38,37,16,19,1,2,1.2,1.1
