timepoint,stationcode,longitude,latitude,area,positionname,primarypollutant,aqi,pm10,pm10_24h,pm2_5,pm2_5_24h,o3,o3_24h,o3_8h,o3_8h_24h,no2,no2_24h,so2,so2_24h,co,co_24h
2025-01-26T0500,2566A,102.1879,31.914,阿坝藏族羌族自治州,州农科所,颗粒物(PM10),61,72,45,32,14,74,,,,1,8,8,9,1.1,1.2
2025-01-26T0500,2568A,102.2502,31.8896,阿坝藏族羌族自治州,马师校,颗粒物(PM10),57,63,36,25,24,73,,,,12,17,6,6,0.5,0.8
2025-01-26T0500,3994A,102.2165,31.9024,阿坝藏族羌族自治州,马尔康中学西区,颗粒物(PM10),97,144,66,30,24,72,,,,4,6,4,5,0.4,0.7
2025-01-26T0500,2695A,80.292,41.1694,阿克苏地区,电视台,颗粒物(PM10),172,294,84,27,27,69,,,,14,20,2,6,0.3,0.4
2025-01-26T0500,2696A,80.2613,41.1551,阿克苏地区,艺术中心,颗粒物(PM10),422,522,113,77,39,67,,,,10,16,4,6,0.5,0.7
2025-01-26T0500,2204A,105.6467,38.8363,阿拉善盟,西城区西花园,颗粒物(PM10),88,126,95,19,25,83,,,,8,11,7,11,0.5,0.6
2025-01-26T0500,2205A,105.6985,38.8411,阿拉善盟,蒙二幼,颗粒物(PM10),85,119,91,19,14,78,,,,8,9,5,6,0.5,0.8
2025-01-26T0500,2206A,105.724,38.8516,阿拉善盟,环保局新楼,颗粒物(PM10),75,99,77,17,13,82,,,,3,5,7,7,0.5,0.5
2025-01-26T0500,2708A,88.1264,47.8517,阿勒泰地区,市站,,16,10,13,6,8,49,,,,6,16,1,5,0.3,0.2
2025-01-26T0500,2630A,80.1161,32.5,阿里地区,阿里监测站,,22,6,7,3,3,68,,,,1,4,6,8,0.4,0.5
2025-01-26T0500,3192A,80.0903,32.5028,阿里地区,阿里藏医院,,21,15,14,7,6,66,,,,6,8,13,10,0.7,0.7
2025-01-26T0500,2642A,109.0318,32.6537,安康市,香溪洞,,28,28,11,10,10,56,,,,8,8,8,8,0.5,0.8
2025-01-26T0500,2644A,109.0072,32.6975,安康市,汉滨区检察院,,20,20,12,12,11,30,,,,10,13,5,5,0.6,0.7
2025-01-26T0500,4054A,109.0325,32.6913,安康市,市邮政管理局,,26,20,12,18,15,33,,,,11,13,4,5,0.6,0.8
2025-01-26T0500,2291A,117.0809,30.5177,安庆市,环科院,,26,19,34,18,19,78,,,,8,11,4,5,0.6,0.6
2025-01-26T0500,2292A,117.0331,30.5119,安庆市,马山宾馆,,23,17,35,16,23,72,,,,4,8,6,7,0.6,0.6
2025-01-26T0500,2294A,116.9896,30.6145,安庆市,安庆大学,,21,16,30,12,18,66,,,,7,8,5,5,0.6,0.5
2025-01-26T0500,3173A,117.0598,30.5351,安庆市,市人大,颗粒物(PM10),51,52,38,18,22,76,,,,8,14,5,6,0.6,0.6
2025-01-26T0500,3123A,105.9408,26.2431,安顺市,凤凰山,,25,9,15,3,9,78,,,,9,13,12,13,0.5,0.8
2025-01-26T0500,3124A,105.9439,26.2564,安顺市,金钟山,,24,,6,3,8,75,,,,8,11,12,13,0.6,0.9
2025-01-26T0500,3125A,105.8983,26.2481,安顺市,娄家坡,,25,8,15,3,11,77,,,,8,13,1,6,0.6,0.9
2025-01-26T0500,1819A,114.3551,36.1017,安阳市,红庙街,细颗粒物(PM2.5),100,,86,75,83,54,,,,8,12,2,5,0.8,0.8
2025-01-26T0500,1820A,114.361,36.0681,安阳市,银杏小区,细颗粒物(PM2.5),109,,79,82,89,54,,,,7,16,1,4,0.8,0.8
2025-01-26T0500,3141A,114.3922,36.0878,安阳市,信访局,细颗粒物(PM2.5),109,,83,82,88,62,,,,8,16,3,3,0.9,0.8
2025-01-26T0500,3669A,114.4705,36.0637,安阳市,左辅环卫站,细颗粒物(PM2.5),107,80,99,80,88,55,,,,11,14,3,2,0.7,0.7
2025-01-26T0500,3703A,114.2917,36.0949,安阳市,安钢职工学校,细颗粒物(PM2.5),117,,86,88,89,48,,,,20,28,1,6,1.1,1.1
2025-01-26T0500,1748A,123.044,41.1196,鞍山市,深沟寺,细颗粒物(PM2.5),138,160,116,105,90,12,,,,62,42,18,13,2.5,1.3
2025-01-26T0500,1749A,123.011,41.0931,鞍山市,太阳城,细颗粒物(PM2.5),204,190,117,154,91,7,,,,64,48,12,9,2.5,1.2
2025-01-26T0500,1750A,123.0485,41.1442,鞍山市,太平,细颗粒物(PM2.5),135,155,135,103,97,9,,,,62,53,16,18,2.5,1.8
2025-01-26T0500,1751A,122.9642,41.0971,鞍山市,铁西三道街,细颗粒物(PM2.5),224,224,148,174,111,8,,,,53,54,22,25,2.6,2.2
2025-01-26T0500,1753A,123.022,41.0821,鞍山市,明达新区,细颗粒物(PM2.5),207,192,109,157,89,26,,,,61,44,13,10,2.3,1.1
2025-01-26T0500,4201A,122.9446,41.0826,鞍山市,兴盛南路290号,细颗粒物(PM2.5),221,220,169,171,128,10,,,,68,68,14,30,2.7,2.2
2025-01-26T0500,2195A,107.4212,40.761,巴彦淖尔市,附二中,颗粒物(PM10),118,186,538,46,89,71,,,,2,6,5,5,0.5,0.5
2025-01-26T0500,2196A,107.37,40.7372,巴彦淖尔市,市环保大楼,颗粒物(PM10),95,139,488,31,83,72,,,,1,3,2,3,0.2,0.1
2025-01-26T0500,1956A,86.1472,41.7538,巴音郭楞蒙古自治州,孔雀公园,颗粒物(PM10),500,923,496,55,39,50,,,,16,16,2,2,0.5,0.4
2025-01-26T0500,1957A,86.1972,41.7166,巴音郭楞蒙古自治州,棉纺厂,颗粒物(PM10),500,668,391,44,25,6,,,,58,13,1,1,0.5,0.3
2025-01-26T0500,1958A,86.2357,41.7173,巴音郭楞蒙古自治州,经济开发区,颗粒物(PM10),288,411,311,27,20,35,,,,15,9,2,2,0.2,0.3
2025-01-26T0500,2914A,106.7677,31.8794,巴中市,苏山坪,,48,48,18,11,8,80,,,,2,4,3,3,0.5,0.6
2025-01-26T0500,3183A,106.7418,31.8654,巴中市,圣泉水务公司,颗粒物(PM10),51,52,22,12,10,83,,,,4,8,2,3,0.3,0.5
2025-01-26T0500,3616A,106.7616,31.8344,巴中市,市中心医院,颗粒物(PM10),52,54,22,21,14,81,,,,4,12,3,4,0.3,0.5
2025-01-26T0500,2235A,122.7911,45.6077,白城市,洮北区环保局,细颗粒物(PM2.5),115,91,130,87,127,71,,,,17,24,4,7,0.6,0.9
2025-01-26T0500,2236A,122.8738,45.5725,白城市,市环保局,细颗粒物(PM2.5),128,107,107,97,92,48,,,,16,26,4,4,0.7,0.8
2025-01-26T0500,2231A,126.4219,41.9171,白山市,喜丰,颗粒物(PM10),51,51,66,32,33,38,,,,24,34,39,26,0.7,0.7
2025-01-26T0500,2232A,126.4077,41.9419,白山市,环保局,颗粒物(PM10),51,52,65,19,34,39,,,,11,21,13,20,0.6,0.7
2025-01-26T0500,2647A,104.1724,36.5446,白银市,第三小学,颗粒物(PM10),125,200,133,27,22,68,,,,10,8,6,6,0.7,0.7
2025-01-26T0500,2648A,104.1465,36.5482,白银市,动力公司,颗粒物(PM10),117,184,121,21,20,63,,,,8,8,1,2,0.7,0.6
2025-01-26T0500,2512A,106.6103,23.9011,百色市,市监测站,,12,10,47,7,31,38,,,,12,16,8,11,1.2,1.2
2025-01-26T0500,2513A,106.6538,23.8859,百色市,市中心血站,,13,13,48,6,35,40,,,,11,16,7,10,1.2,1.1
2025-01-26T0500,3406A,106.6085,23.8798,百色市,祈福高中,,20,14,57,14,35,41,,,,10,15,5,8,1.2,1.2
2025-01-26T0500,2270A,117.396,32.939,蚌埠市,工人疗养院,细颗粒物(PM2.5),79,72,46,58,32,86,,,,14,14,3,3,0.9,0.6
2025-01-26T0500,2271A,117.3605,32.9427,蚌埠市,百货大楼,细颗粒物(PM2.5),82,66,44,60,32,84,,,,10,11,3,3,0.7,0.4
2025-01-26T0500,2273A,117.4185,32.8911,蚌埠市,蚌埠学院,细颗粒物(PM2.5),82,,36,60,33,87,,,,11,14,4,5,0.7,0.5
2025-01-26T0500,2274A,117.3533,32.9673,蚌埠市,淮上区政府,细颗粒物(PM2.5),89,68,43,66,38,84,,,,11,12,6,6,1.0,0.7
2025-01-26T0500,2275A,117.3145,32.8977,蚌埠市,高新区,细颗粒物(PM2.5),92,,37,68,35,80,,,,15,18,5,6,1.0,0.7
2025-01-26T0500,3715A,117.3092,32.9314,蚌埠市,蚌埠田家炳中学,细颗粒物(PM2.5),88,71,45,65,35,82,,,,8,10,3,3,0.8,0.4
2025-01-26T0500,1585A,109.8756,40.6532,包头市,市环境监测站,颗粒物(PM10),292,414,221,53,42,55,,,,24,13,15,9,1.0,0.5
2025-01-26T0500,1588A,109.8538,40.6821,包头市,青山宾馆,颗粒物(PM10),205,353,207,62,47,72,,,,6,9,5,6,0.8,0.7
2025-01-26T0500,1589A,109.8642,40.6288,包头市,惠龙物流,颗粒物(PM10),268,397,219,60,41,56,,,,20,16,8,7,0.7,0.5
2025-01-26T0500,1590A,110.0377,40.5546,包头市,东河鸿龙湾,颗粒物(PM10),177,303,241,47,40,70,,,,5,14,6,8,0.4,0.5
2025-01-26T0500,3283A,109.9154,40.5685,包头市,滨河大厦,颗粒物(PM10),203,352,231,53,46,66,,,,5,10,6,8,0.4,0.5
2025-01-26T0500,3419A,109.9447,40.6261,包头市,包头市委党校,颗粒物(PM10),248,383,222,47,40,60,,,,12,9,6,4,0.9,0.7
2025-01-26T0500,3683A,109.8331,40.6576,包头市,昆区政府,颗粒物(PM10),260,392,211,68,42,40,,,,36,12,16,9,1.1,0.5
2025-01-26T0500,1930A,107.185,34.3063,宝鸡市,庙沟村,颗粒物(PM10),62,74,60,12,13,74,,,,7,6,5,5,0.3,0.4
2025-01-26T0500,1931A,107.0708,34.3017,宝鸡市,竹园沟,,48,48,53,3,12,64,,,,8,10,5,6,0.4,0.5
2025-01-26T0500,1932A,107.1906,34.3672,宝鸡市,三陆医院,颗粒物(PM10),55,60,67,25,26,47,,,,10,24,3,4,0.8,0.7
2025-01-26T0500,1933A,107.1431,34.3547,宝鸡市,监测站,,47,47,64,15,18,50,,,,9,13,5,6,0.6,0.6
2025-01-26T0500,1934A,107.1186,34.3739,宝鸡市,技工学校,颗粒物(PM10),53,55,63,19,25,48,,,,1,11,2,4,0.6,0.6
2025-01-26T0500,1935A,107.3906,34.3528,宝鸡市,陈仓区环保局家属楼,颗粒物(PM10),63,75,74,13,15,70,,,,14,13,6,6,0.5,0.5
2025-01-26T0500,1936A,107.2058,34.3497,宝鸡市,文理学院,颗粒物(PM10),60,69,66,26,14,43,,,,7,13,5,5,0.3,0.4
2025-01-26T0500,1937A,107.2386,34.3622,宝鸡市,三迪小学,颗粒物(PM10),60,70,61,22,22,44,,,,6,9,5,5,0.6,0.5
2025-01-26T0500,1051A,115.493,38.8632,保定市,游泳馆,细颗粒物(PM2.5),142,111,109,108,96,27,,,,23,23,5,4,1.2,1
2025-01-26T0500,1052A,115.5213,38.8959,保定市,华电二区,细颗粒物(PM2.5),152,,96,116,102,34,,,,17,25,3,5,1.0,0.8
2025-01-26T0500,1053A,115.4713,38.9108,保定市,接待中心,细颗粒物(PM2.5),170,130,117,129,108,25,,,,26,27,4,5,1.2,0.9
2025-01-26T0500,1054A,115.4612,38.8416,保定市,地表水厂,细颗粒物(PM2.5),144,119,120,110,101,48,,,,22,33,3,3,1.0,0.9
2025-01-26T0500,3581A,115.31981,38.95208,保定市,满城区生态环境分局,细颗粒物(PM2.5),180,141,136,136,127,25,,,,18,30,4,5,1.4,1.2
2025-01-26T0500,3582A,115.47694,38.76408,保定市,清苑区第二中学,细颗粒物(PM2.5),109,107,116,82,88,59,,,,18,27,4,4,0.9,0.8
2025-01-26T0500,3583A,115.62909,39.02311,保定市,徐水物探局,细颗粒物(PM2.5),144,,86,110,90,36,,,,32,31,6,7,0.9,0.6
2025-01-26T0500,4004A,115.4202,38.8656,保定市,双鹰农机,细颗粒物(PM2.5),144,122,120,110,98,29,,,,19,25,3,2,1.0,0.8
2025-01-26T0500,4034A,115.5150,38.8590,保定市,植保所站,细颗粒物(PM2.5),153,117,103,117,91,35,,,,21,22,6,6,1.1,0.8
2025-01-26T0500,2594A,99.1678,25.1081,保山市,市环境监测站,,50,42,38,35,26,80,,,,5,8,4,5,0.3,0.3
2025-01-26T0500,2595A,99.1711,25.1328,保山市,市环保局,细颗粒物(PM2.5),64,,41,46,32,87,,,,3,5,7,6,0.4,0.4
2025-01-26T0500,1867A,109.1436,21.4086,北海市,海滩公园,,29,29,45,3,20,27,,,,12,11,6,6,1.1,0.9
2025-01-26T0500,1868A,109.0981,21.4661,北海市,新市环保局,,23,23,52,9,30,28,,,,14,16,6,6,0.9,0.6
2025-01-26T0500,1869A,109.1778,21.5233,北海市,北海工业园,,15,11,58,10,41,27,,,,10,12,6,8,1.0,0.7
2025-01-26T0500,3400A,109.1911,21.4415,北海市,龙潭自来水厂,,22,20,49,15,31,26,,,,10,9,5,5,1.0,0.7
2025-01-26T0500,1001A,116.3621,39.8784,北京市,万寿西宫,细颗粒物(PM2.5),75,83,122,55,94,55,,,,21,41,7,8,0.6,1.1
2025-01-26T0500,1003A,116.4174,39.9289,北京市,东四,颗粒物(PM10),55,60,123,23,94,68,,,,6,29,4,7,0.4,1.1
2025-01-26T0500,1004A,116.4072,39.8863,北京市,天坛,细颗粒物(PM2.5),85,84,116,63,95,52,,,,18,28,3,4,0.6,1.1
2025-01-26T0500,1005A,116.462,39.9365,北京市,农展馆,颗粒物(PM10),57,64,121,23,92,73,,,,7,38,3,6,0.5,1.3
2025-01-26T0500,1006A,116.3392,39.9295,北京市,官园,颗粒物(PM10),51,52,125,24,94,65,,,,9,37,6,9,0.4,1.1
2025-01-26T0500,1007A,116.2878,39.9611,北京市,海淀万柳,,49,49,131,22,102,61,,,,14,42,6,7,0.5,1.4
2025-01-26T0500,1008A,116.6636,40.135,北京市,顺义新城,细颗粒物(PM2.5),165,166,151,125,118,31,,,,29,39,1,3,1.2,1.2
2025-01-26T0500,1009A,116.6275,40.3275,北京市,怀柔镇,细颗粒物(PM2.5),143,135,141,109,113,37,,,,28,40,1,3,1.3,1.4
2025-01-26T0500,1010A,116.2296,40.217,北京市,昌平镇,颗粒物(PM10),80,110,141,29,108,62,,,,4,35,1,3,0.1,1.1
2025-01-26T0500,1011A,116.3966,39.9821,北京市,奥体中心,颗粒物(PM10),61,72,126,25,94,68,,,,10,37,4,6,0.3,1.1
2025-01-26T0500,3281A,115.9718,40.4529,北京市,延庆夏都,颗粒物(PM10),66,81,127,29,97,64,,,,7,24,4,6,0.3,1.2
2025-01-26T0500,3417A,117.0709,40.1465,北京市,平谷新城,细颗粒物(PM2.5),173,152,138,131,113,24,,,,24,28,3,3,1.4,1.4
2025-01-26T0500,3418A,116.8336,40.4095,北京市,密云新城,细颗粒物(PM2.5),135,133,134,103,101,40,,,,22,29,2,3,1.0,1.1
2025-01-26T0500,3671A,116.088,39.9726,北京市,门头沟三家店,颗粒物(PM10),52,54,122,18,98,65,,,,8,32,4,5,0.2,1.1
2025-01-26T0500,3672A,116.1541,39.8204,北京市,丰台云岗,,50,50,122,20,95,71,,,,12,30,3,5,0.2,1
2025-01-26T0500,3673A,116.6804,39.9081,北京市,通州东关,颗粒物(PM10),56,61,123,22,91,50,,,,14,34,3,3,0.3,1
2025-01-26T0500,3674A,115.9577,39.7603,北京市,房山燕山,细颗粒物(PM2.5),156,135,122,119,105,44,,,,19,24,3,3,0.9,1
2025-01-26T0500,3675A,116.4672,39.7733,北京市,大兴旧宫,细颗粒物(PM2.5),129,127,123,98,94,32,,,,23,30,3,3,0.9,1.1
2025-01-26T0500,3694A,115.986,40.4563,北京市,延庆石河营,颗粒物(PM10),62,74,126,29,100,70,,,,8,26,3,4,0.4,1.3
2025-01-26T0500,3695A,116.6151,40.3053,北京市,怀柔新城,细颗粒物(PM2.5),152,143,145,116,118,36,,,,22,29,1,2,1.1,1.2
2025-01-26T0500,3696A,116.2545,39.8768,北京市,丰台小屯,颗粒物(PM10),52,54,124,22,95,63,,,,9,45,5,7,0.2,1.1
2025-01-26T0500,3697A,116.84,40.3844,北京市,密云镇,细颗粒物(PM2.5),142,134,136,108,104,16,,,,38,33,3,3,1.1,1.2
2025-01-26T0500,4182A,116.1942,39.91583,北京市,八角,颗粒物(PM10),55,59,123,18,91,65,,,,5,33,2,3,0.3,1.2
2025-01-26T0500,1761A,123.8275,41.3064,本溪市,大峪,细颗粒物(PM2.5),65,73,84,47,58,18,,,,46,35,6,8,1.2,1.3
2025-01-26T0500,1762A,123.7567,41.3325,本溪市,溪湖,细颗粒物(PM2.5),117,122,106,88,71,7,,,,48,36,8,10,2.3,1.6
2025-01-26T0500,1763A,123.7169,41.3094,本溪市,彩屯,细颗粒物(PM2.5),125,121,90,95,72,6,,,,69,42,9,10,3.1,1.6
2025-01-26T0500,1764A,123.7669,41.2864,本溪市,东明,细颗粒物(PM2.5),80,79,106,59,74,8,,,,53,52,9,10,1.8,1.9
2025-01-26T0500,1765A,123.7992,41.2664,本溪市,新立屯,,34,34,62,23,36,28,,,,37,41,4,7,0.8,1
2025-01-26T0500,1766A,123.8142,41.3472,本溪市,威宁,颗粒物(PM10),82,114,111,57,65,11,,,,36,37,3,4,1.1,0.8
2025-01-26T0500,2587A,105.2864,27.3125,毕节市,八中,,26,8,8,6,5,82,,,,5,8,6,7,0.5,0.8
2025-01-26T0500,2588A,105.31,27.2944,毕节市,师专,,26,9,7,6,6,81,,,,8,11,5,6,0.7,0.9
2025-01-26T0500,1629A,118.0018,37.3617,滨州市,第二水厂,"颗粒物(PM10),细颗粒物(PM2.5)",52,53,52,36,32,52,,,,14,15,8,9,0.4,0.4
2025-01-26T0500,1630A,117.9776,37.393,滨州市,北中新校,颗粒物(PM10),59,68,58,39,34,49,,,,22,21,6,6,0.6,0.4
2025-01-26T0500,3514A,117.9378,37.3956,滨州市,中海酒店,细颗粒物(PM2.5),70,66,54,51,39,44,,,,22,20,5,5,0.7,0.5
2025-01-26T0500,3515A,117.9378,37.3553,滨州市,开发区一中,细颗粒物(PM2.5),67,66,51,48,32,32,,,,28,19,7,7,0.5,0.3
2025-01-26T0500,3516A,118.0917,37.694,滨州市,金海六路,细颗粒物(PM2.5),52,49,47,36,32,43,,,,24,23,7,20,0.9,0.7
2025-01-26T0500,4028A,117.9956,37.3753,滨州市,滨州市西街道办事处,细颗粒物(PM2.5),62,53,50,44,39,55,,,,15,15,6,6,0.5,0.4
2025-01-26T0500,2311A,115.8072,33.8399,亳州市,污水处理厂,细颗粒物(PM2.5),74,58,68,54,53,53,,,,10,12,5,6,0.9,0.8
2025-01-26T0500,2312A,115.7789,33.8518,亳州市,三国揽胜宫,细颗粒物(PM2.5),68,67,82,49,52,58,,,,16,18,2,3,0.6,0.6
2025-01-26T0500,3332A,115.7633,33.8034,亳州市,亳州学院,细颗粒物(PM2.5),75,57,60,55,46,52,,,,11,12,1,2,0.9,0.8
2025-01-26T0500,2693A,82.0485,44.8556,博尔塔拉蒙古自治州,市党校,,40,32,39,28,27,73,,,,12,17,6,7,0.4,0.4
2025-01-26T0500,2694A,82.0806,44.8969,博尔塔拉蒙古自治州,市环保局,颗粒物(PM10),52,53,51,14,19,67,,,,12,19,5,6,0.8,0.7
2025-01-26T0500,1071A,116.8842,38.2991,沧州市,沧县城建局,细颗粒物(PM2.5),80,69,78,59,58,50,,,,18,24,3,7,0.6,0.7
2025-01-26T0500,1072A,116.8584,38.3254,沧州市,电视转播站,细颗粒物(PM2.5),89,69,76,66,59,44,,,,17,25,6,8,0.6,0.7
2025-01-26T0500,1073A,116.8709,38.3228,沧州市,市环保局,细颗粒物(PM2.5),70,79,74,51,55,48,,,,18,24,4,6,0.6,0.6
2025-01-26T0500,3324A,116.8136,38.3004,沧州市,河北水利电力学院,细颗粒物(PM2.5),82,63,74,60,56,44,,,,16,23,4,6,0.6,0.6
2025-01-26T0500,2622A,97.1806,31.1273,昌都市,昌都监测站,,25,11,22,6,12,80,,,,2,3,5,6,0.8,0.7
2025-01-26T0500,3719A,97.1714,31.1406,昌都市,昌都会议中心,颗粒物(PM10),90,129,164,7,10,73,,,,2,2,4,4,0.4,0.3
2025-01-26T0500,2690A,88.1236,43.8886,昌吉回族自治州,天山天池,,,,4,0,2,77,,,,2,2,3,3,0.6,0.6
2025-01-26T0500,2692A,87.2717,44.0297,昌吉回族自治州,新区政务中心,细颗粒物(PM2.5),67,66,72,48,41,45,,,,21,40,2,2,0.6,0.7
2025-01-26T0500,3613A,87.3095,44.0142,昌吉回族自治州,亚心广场,细颗粒物(PM2.5),83,85,78,61,55,56,,,,13,29,4,4,0.5,0.6
2025-01-26T0500,1119A,125.3325,43.9166,长春市,食品厂,细颗粒物(PM2.5),140,116,104,107,96,14,,,,56,42,10,12,1.2,1
2025-01-26T0500,1120A,125.2863,43.9027,长春市,客车厂,细颗粒物(PM2.5),102,98,91,76,83,13,,,,66,56,11,12,1.1,0.9
2025-01-26T0500,1121A,125.2841,43.8463,长春市,邮电学院,细颗粒物(PM2.5),99,89,92,74,83,28,,,,44,39,12,16,1.2,1.1
2025-01-26T0500,1122A,125.3716,43.8772,长春市,劳动公园,细颗粒物(PM2.5),75,84,105,55,82,28,,,,47,46,10,16,1.0,1
2025-01-26T0500,1123A,125.3297,43.8805,长春市,园林处,细颗粒物(PM2.5),89,70,88,66,81,26,,,,49,38,19,18,0.9,0.8
2025-01-26T0500,1124A,125.4605,43.79,长春市,净月潭,细颗粒物(PM2.5),93,79,55,69,45,53,,,,13,14,8,8,1.0,0.7
2025-01-26T0500,1126A,125.3863,43.8447,长春市,经开区环卫处,细颗粒物(PM2.5),78,73,94,57,70,24,,,,41,44,13,13,0.9,1
2025-01-26T0500,1127A,125.245,43.7783,长春市,高新区管委会,细颗粒物(PM2.5),102,,79,76,66,40,,,,29,43,9,9,0.9,0.9
2025-01-26T0500,1128A,125.1761,43.8325,长春市,岱山公园,细颗粒物(PM2.5),87,69,86,64,71,40,,,,39,59,13,20,0.9,0.9
2025-01-26T0500,1335A,113.0833,28.2325,长沙市,经开区环保局,,26,22,14,18,8,60,,,,7,10,4,4,0.6,0.6
2025-01-26T0500,1336A,112.8872,28.2189,长沙市,高开区环保局,,35,24,18,24,9,67,,,,7,11,2,3,0.8,0.9
2025-01-26T0500,1337A,113.0792,28.2053,长沙市,马坡岭,,25,20,16,17,8,61,,,,10,13,2,2,0.7,0.7
2025-01-26T0500,1338A,112.9394,28.19,长沙市,湖南师范大学,,29,29,15,18,16,61,,,,7,9,1,2,0.5,0.6
2025-01-26T0500,1339A,113.0178,28.1322,长沙市,雨花区环保局,,26,,13,18,8,57,,,,11,13,4,4,0.7,0.8
2025-01-26T0500,1340A,112.9792,28.2597,长沙市,伍家岭,,29,26,16,20,10,56,,,,14,13,3,2,0.9,1
2025-01-26T0500,1341A,113.0014,28.1944,长沙市,火车新站,,32,,15,22,13,58,,,,10,11,1,1,0.8,0.9
2025-01-26T0500,1342A,112.9844,28.1178,长沙市,天心区环保局,,29,21,14,20,10,54,,,,12,13,1,2,0.8,1
2025-01-26T0500,1343A,112.8908,28.1308,长沙市,湖南中医药大学,,23,,15,16,17,66,,,,8,8,2,2,0.8,0.9
2025-01-26T0500,1344A,112.9581,28.3611,长沙市,沙坪,,29,20,22,20,13,59,,,,9,10,6,6,0.9,1.1
2025-01-26T0500,1727A,113.1147,36.1547,长治市,清华站,,48,48,58,19,51,67,,,,11,20,7,11,0.4,0.7
2025-01-26T0500,1730A,113.0886,36.2125,长治市,审计局,颗粒物(PM10),51,52,62,31,57,67,,,,6,15,6,8,0.3,0.7
2025-01-26T0500,1731A,113.0844,36.1856,长治市,长治八中,颗粒物(PM10),63,76,70,27,66,67,,,,10,18,6,11,0.4,0.8
2025-01-26T0500,2845A,113.1569,36.1911,长治市,德盛苑,颗粒物(PM10),51,52,61,24,54,67,,,,10,22,8,7,0.5,0.8
2025-01-26T0500,3568A,113.06,36.0464,长治市,向阳小学,颗粒物(PM10),66,81,82,29,58,64,,,,14,23,9,12,0.5,0.9
2025-01-26T0500,3569A,112.8792,36.3144,长治市,屯留一中,颗粒物(PM10),68,86,63,27,55,56,,,,40,32,5,12,0.3,0.5
2025-01-26T0500,4189A,113.1131,36.19948,长治市,英华南巷50号,颗粒物(PM10),55,59,61,24,56,74,,,,10,19,8,9,0.4,0.8
2025-01-26T0500,4190A,113.2367,36.3344,长治市,学府街1号,颗粒物(PM10),52,53,70,22,68,61,,,,12,17,23,10,0.5,1
2025-01-26T0500,1854A,111.6975,28.9703,常德市,市二中,,42,,22,29,14,72,,,,6,6,2,2,0.6,0.6
2025-01-26T0500,3138A,111.7153,29.0289,常德市,武陵区永安,,46,,19,32,20,75,,,,15,16,2,1,0.8,0.6
2025-01-26T0500,3139A,111.6892,28.9881,常德市,鼎城区玉霞,,45,,11,31,18,75,,,,11,12,3,3,0.9,0.9
2025-01-26T0500,3140A,111.6625,29.0531,常德市,武陵区长庚,,39,27,19,27,15,72,,,,10,12,3,2,0.6,0.6
2025-01-26T0500,1196A,119.9633,31.762,常州市,市监测站,颗粒物(PM10),54,57,45,34,24,78,,,,19,23,7,8,0.6,0.5
2025-01-26T0500,1200A,119.9468,31.7069,常州市,武进监测站,,50,50,37,30,22,77,,,,9,14,5,5,0.6,0.6
2025-01-26T0500,1201A,119.9255,31.9087,常州市,安家,,38,38,44,18,24,85,,,,14,16,6,6,0.5,0.5
2025-01-26T0500,3002A,119.9805,31.8174,常州市,行政中心,,44,44,40,23,24,73,,,,10,13,10,11,0.5,0.5
2025-01-26T0500,3003A,120.0522,31.7748,常州市,经开区,颗粒物(PM10),51,52,40,28,20,81,,,,14,18,3,6,0.5,0.4
2025-01-26T0500,3010A,119.9025,31.7964,常州市,钟楼,,49,49,42,30,22,74,,,,12,15,7,7,0.7,0.6
2025-01-26T0500,3429A,119.8598,31.7066,常州市,武进经发区,细颗粒物(PM2.5),59,62,45,42,24,74,,,,18,19,6,6,0.6,0.5
2025-01-26T0500,3430A,119.5826,31.7245,常州市,金坛城区,细颗粒物(PM2.5),62,61,44,44,25,79,,,,9,9,6,6,0.7,0.5
2025-01-26T0500,2220A,120.4318,41.5881,朝阳市,西梁,细颗粒物(PM2.5),104,94,130,78,107,17,,,,49,50,14,18,1.7,1.6
2025-01-26T0500,2221A,120.4521,41.5646,朝阳市,河畔小区,细颗粒物(PM2.5),113,,103,85,86,24,,,,30,35,10,13,1.7,1.5
2025-01-26T0500,2222A,120.4176,41.5648,朝阳市,八里堡,细颗粒物(PM2.5),119,99,122,90,99,19,,,,45,46,12,16,1.6,1.6
2025-01-26T0500,2223A,120.3806,41.5969,朝阳市,农业园区,细颗粒物(PM2.5),109,104,99,82,88,11,,,,47,41,10,14,1.6,1.3
2025-01-26T0500,1705A,116.6367,23.6719,潮州市,西园路,,46,37,34,32,28,47,,,,12,12,4,4,0.2,0.3
2025-01-26T0500,3026A,116.6183,23.6608,潮州市,市政府,,37,37,38,23,21,67,,,,18,20,4,4,0.4,0.4
2025-01-26T0500,4036A,116.6461,23.6761,潮州市,金山,,35,29,33,24,21,49,,,,11,11,5,5,0.5,0.5
2025-01-26T0500,2472A,113.0073,25.9061,郴州市,马头岭,,18,18,26,3,20,52,,,,11,19,7,7,0.8,1
2025-01-26T0500,2473A,113.0116,25.8226,郴州市,市职中,,15,,33,10,26,46,,,,12,18,5,5,0.8,1
2025-01-26T0500,2475A,113.0383,25.8071,郴州市,市审计局,,18,,37,12,30,47,,,,6,12,2,2,0.8,1
2025-01-26T0500,2476A,113.0348,25.7759,郴州市,市环保局,,13,13,44,7,32,40,,,,8,16,6,6,0.6,0.8
2025-01-26T0500,4252A,113.0138,25.8011,郴州市,人民路派出所,,16,,35,6,34,50,,,,8,15,4,4,0.6,0.7
2025-01-26T0500,1431A,103.9728,30.7236,成都市,金泉两河,颗粒物(PM10),51,51,43,10,28,62,,,,12,19,1,2,0.5,0.8
2025-01-26T0500,1432A,104.176,30.6872,成都市,十里店,,30,30,39,16,26,60,,,,8,16,2,2,0.4,0.6
2025-01-26T0500,1433A,104.079,30.5706,成都市,三瓦窑,,33,33,40,16,29,60,,,,11,21,3,2,0.4,0.7
2025-01-26T0500,1434A,104.1114,30.63,成都市,沙河铺,,37,37,42,17,28,56,,,,15,21,4,4,0.6,0.8
2025-01-26T0500,1437A,104.0786,30.6531,成都市,君平街,,30,26,40,21,35,62,,,,12,21,4,4,0.5,0.8
2025-01-26T0500,2880A,104.0239,30.65639,成都市,大石西路,,37,37,40,16,28,56,,,,14,23,3,4,0.4,0.7
2025-01-26T0500,3136A,104.2725,30.5589,成都市,龙泉驿区区政府,颗粒物(PM10),54,58,37,31,30,36,,,,14,20,3,3,0.9,1
2025-01-26T0500,3357A,104.0106,30.6931,成都市,金博路,,32,32,34,8,24,54,,,,8,17,2,2,0.5,0.8
2025-01-26T0500,3359A,104.0578,30.5225,成都市,华阳,,34,34,37,22,32,60,,,,10,16,3,3,0.5,0.8
2025-01-26T0500,3488A,104.3853,30.7453,成都市,青白江技师分院,颗粒物(PM10),72,93,52,24,30,38,,,,22,19,4,4,0.3,0.7
2025-01-26T0500,3489A,104.0789,30.4072,成都市,科学城,,33,29,31,23,27,37,,,,8,12,4,4,0.7,1
2025-01-26T0500,4011A,103.8506,30.6947,成都市,光华大道三段,,42,42,34,19,23,53,,,,10,17,3,2,0.6,0.8
2025-01-26T0500,4224A,104.2433,30.5353,成都市,鲸龙路1057号,细颗粒物(PM2.5),57,52,40,40,31,31,,,,10,15,1,1,0.9,0.9
2025-01-26T0500,1062A,117.9531,40.9081,承德市,铁路,,38,38,115,17,88,57,,,,12,53,6,10,0.4,1.5
2025-01-26T0500,1063A,117.9392,40.9763,承德市,中国银行,细颗粒物(PM2.5),134,146,134,102,83,12,,,,50,46,2,4,1.6,1.4
2025-01-26T0500,1064A,117.9503,40.928,承德市,开发区,细颗粒物(PM2.5),69,65,123,50,88,52,,,,27,47,5,7,0.7,1.3
2025-01-26T0500,1065A,117.8051,40.9655,承德市,文化中心,颗粒物(PM10),52,54,153,16,103,69,,,,6,35,4,9,0.2,1.5
2025-01-26T0500,1066A,117.9268,41.0026,承德市,离宫,细颗粒物(PM2.5),99,96,124,74,107,43,,,,26,37,3,5,0.8,1.2
2025-01-26T0500,2314A,117.47,30.6618,池州市,池州学院,,33,28,36,23,23,78,,,,6,16,4,8,0.4,0.5
2025-01-26T0500,3237A,117.4918,30.6617,池州市,展览馆,,43,32,42,30,29,76,,,,6,17,4,6,0.4,0.6
2025-01-26T0500,3333A,117.5627,30.695,池州市,第八中学,,43,40,38,30,23,85,,,,4,10,3,5,0.4,0.5
2025-01-26T0500,3334A,117.5038,30.6243,池州市,第十二中学,,40,32,35,28,23,85,,,,7,11,5,4,0.5,0.6
2025-01-26T0500,1744A,118.9233,42.2816,赤峰市,松山一中,细颗粒物(PM2.5),90,91,106,67,69,29,,,,33,50,13,33,1.3,1.5
2025-01-26T0500,1745A,118.9576,42.2728,赤峰市,哈达街,细颗粒物(PM2.5),103,104,102,77,75,28,,,,43,59,11,34,1.6,1.7
2025-01-26T0500,1746A,118.8788,42.2554,赤峰市,天义路,细颗粒物(PM2.5),117,116,109,88,75,19,,,,40,43,12,23,1.5,1.3
2025-01-26T0500,3058A,119.2658,42.0353,赤峰市,银河街,细颗粒物(PM2.5),132,118,136,100,106,22,,,,36,40,19,27,2.0,1.8
2025-01-26T0500,3286A,118.9359,42.3147,赤峰市,桥北物流园区,细颗粒物(PM2.5),122,,92,92,97,31,,,,33,41,12,24,1.5,1.4
2025-01-26T0500,2521A,107.3476,22.4136,崇左市,市环保局江州分局,,16,14,41,3,22,50,,,,8,11,4,5,1.1,0.9
2025-01-26T0500,2522A,107.3702,22.3707,崇左市,城南新区,,17,7,36,6,22,52,,,,10,13,6,5,1.1,0.9
2025-01-26T0500,2298A,118.3093,32.3153,滁州市,老年大学,细颗粒物(PM2.5),73,57,42,53,27,84,,,,14,15,6,8,0.5,0.3
2025-01-26T0500,2299A,118.3244,32.2786,滁州市,人大宾馆,细颗粒物(PM2.5),83,,39,61,25,82,,,,5,7,5,6,0.7,0.5
2025-01-26T0500,3207A,118.3118,32.3038,滁州市,市政府原办公楼,细颗粒物(PM2.5),74,60,39,54,29,82,,,,11,14,3,4,0.5,0.3
2025-01-26T0500,3331A,118.3267,32.2634,滁州市,图书馆,细颗粒物(PM2.5),79,69,42,58,27,79,,,,10,10,4,4,0.7,0.5
2025-01-26T0500,2605A,101.5482,25.0441,楚雄彝族自治州,州环境监测站,,40,32,22,28,17,60,,,,10,11,11,7,0.7,0.4
2025-01-26T0500,2606A,101.538,25.0492,楚雄彝族自治州,市经济开发区,,40,35,32,28,21,55,,,,12,13,10,7,0.7,0.5
2025-01-26T0500,2548A,107.5277,31.2827,达州市,达州职业技术学院,,25,25,19,12,10,65,,,,9,19,3,4,0.6,0.8
2025-01-26T0500,2549A,107.5086,31.2186,达州市,市环境监测站,,22,19,16,7,4,70,,,,10,24,4,5,0.5,0.8
2025-01-26T0500,2550A,107.4988,31.2132,达州市,凤凰小区,,23,19,11,7,6,72,,,,11,19,5,6,0.3,0.6
2025-01-26T0500,2551A,107.5082,31.1986,达州市,达县机关宾馆,,19,19,11,8,11,57,,,,22,30,3,4,0.6,0.9
2025-01-26T0500,2552A,107.4644,31.2124,达州市,市政中心,,28,28,18,7,5,64,,,,11,23,1,2,0.4,0.7
2025-01-26T0500,2614A,100.1542,25.7054,大理白族自治州,大理市环境监测站,,35,35,27,19,21,86,,,,4,6,8,7,0.6,0.6
2025-01-26T0500,2615A,100.2171,25.5811,大理白族自治州,大理古城,,32,32,26,19,20,68,,,,6,11,5,6,0.8,0.8
2025-01-26T0500,1109A,121.612,38.9741,大连市,甘井子,细颗粒物(PM2.5),138,119,104,105,89,49,,,,34,37,9,11,0.8,1
2025-01-26T0500,1110A,121.565,38.9511,大连市,周水子,细颗粒物(PM2.5),134,109,99,102,90,48,,,,31,37,15,17,1.2,1.4
2025-01-26T0500,1111A,121.5637,38.8845,大连市,星海三站,细颗粒物(PM2.5),112,93,93,84,76,50,,,,27,28,13,14,1.1,1.1
2025-01-26T0500,1112A,121.6302,38.9117,大连市,青泥洼桥,细颗粒物(PM2.5),147,124,107,112,95,30,,,,42,36,22,18,1.8,1.4
2025-01-26T0500,1113A,121.6251,38.8638,大连市,傅家庄,细颗粒物(PM2.5),119,102,94,90,77,43,,,,40,35,25,18,1.5,1.3
2025-01-26T0500,1114A,121.5213,38.8661,大连市,七贤岭,细颗粒物(PM2.5),78,67,82,57,66,60,,,,18,24,9,11,0.9,1
2025-01-26T0500,1115A,121.2529,38.8061,大连市,旅顺,细颗粒物(PM2.5),119,96,77,90,68,64,,,,18,19,8,10,1.2,1.1
2025-01-26T0500,1116A,121.7485,39.1311,大连市,金州,细颗粒物(PM2.5),147,127,114,112,99,38,,,,36,34,11,14,1.0,1.2
2025-01-26T0500,1117A,121.7811,39.0496,大连市,开发区,细颗粒物(PM2.5),160,140,111,122,92,31,,,,42,46,20,18,1.4,1.2
2025-01-26T0500,1118A,121.9762,39.0631,大连市,双D港,细颗粒物(PM2.5),162,,85,123,87,52,,,,23,23,10,13,1.7,1.4
2025-01-26T0500,1789A,124.81117,46.03138,大庆市,大同区,细颗粒物(PM2.5),278,261,244,228,218,56,,,,36,45,14,12,1.8,1.8
2025-01-26T0500,1790A,125.129,46.533,大庆市,龙凤区,细颗粒物(PM2.5),233,227,261,183,213,81,,,,34,48,8,7,1.4,1.7
2025-01-26T0500,1791A,124.902,46.408,大庆市,红岗区,细颗粒物(PM2.5),255,235,217,205,187,66,,,,38,43,10,7,1.7,1.2
2025-01-26T0500,1792A,125.153,46.586,大庆市,萨尔图区,细颗粒物(PM2.5),257,237,281,207,248,84,,,,36,52,5,5,1.4,1.4
2025-01-26T0500,1793A,124.9042,46.6215,大庆市,让胡路区,细颗粒物(PM2.5),282,261,248,232,214,45,,,,47,58,6,7,1.6,1.7
2025-01-26T0500,3481A,125.141,46.634,大庆市,萨区政府监测点,细颗粒物(PM2.5),265,252,281,215,242,85,,,,30,44,4,4,1.5,1.6
2025-01-26T0500,1723A,113.2994,40.0758,大同市,云冈宾馆,颗粒物(PM10),175,299,135,62,65,64,,,,7,34,8,16,0.5,1.1
2025-01-26T0500,1724A,113.3444,40.0917,大同市,大同大学,颗粒物(PM10),136,222,121,66,59,60,,,,9,32,6,16,0.4,1
2025-01-26T0500,1725A,113.2661,40.1269,大同市,安家小村,颗粒物(PM10),123,195,135,61,62,60,,,,8,31,9,24,0.4,1.4
2025-01-26T0500,1726A,113.2711,40.0844,大同市,教育学院,颗粒物(PM10),160,269,134,64,65,54,,,,13,39,6,17,0.4,1
2025-01-26T0500,3282A,113.3397,40.0597,大同市,大同市卫生学校,颗粒物(PM10),169,287,122,69,63,61,,,,9,35,8,14,0.5,1
2025-01-26T0500,3565A,113.1367,40.1122,大同市,云冈站,颗粒物(PM10),174,298,129,62,65,62,,,,9,30,9,20,0.4,0.9
2025-01-26T0500,3566A,113.1186,40.2556,大同市,图书馆,颗粒物(PM10),75,100,122,23,74,67,,,,7,23,6,19,0.4,1
2025-01-26T0500,4199A,113.2798,40.0997,大同市,魏都大道141号,颗粒物(PM10),146,242,138,70,67,59,,,,13,37,13,23,0.7,1.5
2025-01-26T0500,2269A,124.1069,50.4097,大兴安岭地区,科技局,细颗粒物(PM2.5),65,68,41,47,30,47,,,,15,12,9,9,0.6,0.5
2025-01-26T0500,3663A,124.1164,50.4278,大兴安岭地区,红旗社区,,43,,40,30,32,32,,,,26,27,4,7,0.6,0.7
2025-01-26T0500,1600A,124.3303,40.0625,丹东市,江湾东路,颗粒物(PM10),73,95,95,51,51,26,,,,21,27,18,14,2.0,1
2025-01-26T0500,1601A,124.4256,40.1503,丹东市,临江后街,细颗粒物(PM2.5),64,64,67,46,44,18,,,,40,31,15,13,1.3,1
2025-01-26T0500,1602A,124.3933,40.1461,丹东市,元宝山,细颗粒物(PM2.5),63,65,43,45,29,13,,,,40,18,10,12,1.8,1
2025-01-26T0500,1603A,124.3633,40.1092,丹东市,民主桥,颗粒物(PM10),54,58,68,33,37,22,,,,41,35,10,13,0.9,1
2025-01-26T0500,3542A,109.5567,19.5187,儋州市,东坡学校子站,,33,33,23,14,12,66,,,,1,2,5,7,0.5,0.5
2025-01-26T0500,2616A,98.5842,24.428,德宏傣族景颇族自治州,德宏州监测站,细颗粒物(PM2.5),74,65,60,54,45,11,,,,42,22,6,7,0.6,0.7
2025-01-26T0500,3677A,98.5881,24.4368,德宏傣族景颇族自治州,芒市人民政府综合楼,细颗粒物(PM2.5),59,60,65,42,37,54,,,,8,14,6,6,0.4,0.5
2025-01-26T0500,1901A,104.4239,31.1208,德阳市,东山公园,颗粒物(PM10),87,124,55,24,33,74,,,,8,16,1,2,0.2,0.6
2025-01-26T0500,1902A,104.3826,31.1317,德阳市,西小区,颗粒物(PM10),83,116,61,32,37,74,,,,6,21,1,2,0.3,0.8
2025-01-26T0500,1904A,104.3553,31.1091,德阳市,耐火材料厂,细颗粒物(PM2.5),69,57,48,50,42,31,,,,13,20,3,3,0.7,0.8
2025-01-26T0500,3639A,104.4019,31.1244,德阳市,市教育局,颗粒物(PM10),75,100,50,24,31,71,,,,10,23,2,3,0.4,0.8
2025-01-26T0500,1622A,116.3032,37.4674,德州市,儿童乐园,细颗粒物(PM2.5),110,,79,83,56,49,,,,17,18,4,7,0.9,0.8
2025-01-26T0500,1624A,116.2991,37.4451,德州市,监理站,细颗粒物(PM2.5),104,83,69,78,50,57,,,,20,22,9,13,0.9,0.8
2025-01-26T0500,3066A,116.2721,37.4379,德州市,九衢泉纯净水厂,细颗粒物(PM2.5),107,83,71,80,52,59,,,,14,18,7,12,0.8,0.7
2025-01-26T0500,3371A,116.3728,37.4403,德州市,开发区人民医院,细颗粒物(PM2.5),98,85,77,73,54,61,,,,16,21,7,12,1.0,0.9
2025-01-26T0500,3372A,116.3572,37.4094,德州市,太阳城中学,细颗粒物(PM2.5),100,78,71,75,56,60,,,,12,16,6,11,0.7,0.7
2025-01-26T0500,3511A,116.5652,37.3319,德州市,陵城艺术中心,细颗粒物(PM2.5),79,73,79,58,55,45,,,,21,21,8,13,0.8,0.8
2025-01-26T0500,2621A,99.7056,27.8317,迪庆藏族自治州,迪庆州站,,20,,24,14,14,55,,,,9,9,9,9,0.4,0.4
2025-01-26T0500,3180A,99.7136,27.8094,迪庆藏族自治州,质量技术监督局,,26,22,20,18,12,54,,,,8,10,8,8,0.5,0.5
2025-01-26T0500,2663A,104.6241,35.5734,定西市,东关小学,颗粒物(PM10),78,105,95,29,32,52,,,,2,3,5,7,0.8,0.4
2025-01-26T0500,2664A,104.6194,35.5934,定西市,供电公司,颗粒物(PM10),78,105,82,25,22,56,,,,30,22,21,38,1.8,1.1
2025-01-26T0500,1389A,113.7547,23.0494,东莞市,莞城梨川,,37,37,29,22,16,83,,,,12,13,5,5,0.5,0.5
2025-01-26T0500,1390A,113.7944,23.0128,东莞市,东城石井,,27,27,24,14,14,77,,,,9,11,6,6,0.5,0.5
2025-01-26T0500,1391A,113.7383,22.9658,东莞市,南城西平,,30,30,25,14,12,77,,,,11,14,4,6,0.6,0.6
2025-01-26T0500,3319A,113.7338,23.0381,东莞市,万江金泰,,35,35,26,16,13,86,,,,8,11,5,3,0.5,0.2
2025-01-26T0500,3626A,113.7533,23.0202,东莞市,南城元岭,,30,30,26,13,14,91,,,,6,10,6,6,0.5,0.5
2025-01-26T0500,3627A,113.7875,23.0457,东莞市,东城主山,,29,24,24,13,12,91,,,,6,7,6,6,0.4,0.4
2025-01-26T0500,1666A,118.6614,37.4309,东营市,市环保局,,45,44,45,31,30,56,,,,16,13,5,4,0.5,0.5
2025-01-26T0500,3036A,118.6904,37.4338,东营市,开发区管委会,细颗粒物(PM2.5),52,50,48,36,33,52,,,,23,17,3,2,0.6,0.5
2025-01-26T0500,3365A,118.5719,37.565,东营市,垦利区民丰路,,42,36,46,29,29,57,,,,11,14,3,3,0.6,0.2
2025-01-26T0500,3498A,118.5055,37.8612,东营市,河口城区,,34,34,41,15,25,60,,,,14,17,7,6,0.8,0.8
2025-01-26T0500,3646A,118.4978,37.4623,东营市,胜利站,颗粒物(PM10),51,52,53,34,34,47,,,,16,17,5,6,0.7,0.6
2025-01-26T0500,3734A,118.35,37.26,东营市,理想之城,颗粒物(PM10),53,56,49,31,31,58,,,,18,21,4,4,0.5,0.5
2025-01-26T0500,1591A,110.0023,39.8129,鄂尔多斯市,综合楼,颗粒物(PM10),500,613,262,88,44,75,,,,4,8,5,6,0.3,0.3
2025-01-26T0500,1592A,109.9486,39.8261,鄂尔多斯市,巴音孟克林场办事处,颗粒物(PM10),471,571,243,95,48,76,,,,4,7,5,6,0.4,0.4
2025-01-26T0500,1593A,109.7736,39.5986,鄂尔多斯市,康泽苑,颗粒物(PM10),352,461,209,85,43,70,,,,4,6,4,5,0.3,0.3
2025-01-26T0500,1594A,109.8119,39.5989,鄂尔多斯市,华泰汽车城,颗粒物(PM10),262,393,201,80,45,69,,,,4,4,3,3,0.2,0.2
2025-01-26T0500,1595A,109.9734,39.7884,鄂尔多斯市,奥林花园,颗粒物(PM10),500,603,254,85,43,53,,,,24,10,26,8,0.5,0.5
2025-01-26T0500,2436A,114.8938,30.3994,鄂州市,市政府,,20,20,16,13,11,45,,,,16,19,7,7,1.1,1
2025-01-26T0500,2437A,114.8989,30.3714,鄂州市,赵家坝,,28,,22,19,12,62,,,,9,9,4,4,0.7,0.6
2025-01-26T0500,2454A,109.4978,30.2981,恩施土家族苗族自治州,湖北民院,,26,22,16,18,12,30,,,,12,12,7,7,0.6,0.6
2025-01-26T0500,2455A,109.4707,30.2798,恩施土家族苗族自治州,州电力总公司,,18,14,11,12,9,32,,,,11,13,7,8,0.8,0.8
2025-01-26T0500,3549A,109.5061,30.3772,恩施土家族苗族自治州,龙凤新区,,18,16,13,12,10,34,,,,5,7,6,6,0.8,0.9
2025-01-26T0500,2499A,108.3411,21.6158,防城港市,沙万,,15,13,37,3,21,46,,,,7,13,6,7,0.9,0.7
2025-01-26T0500,2500A,108.3514,21.7731,防城港市,防城档案局,,15,15,42,7,25,35,,,,9,14,4,5,0.9,0.9
2025-01-26T0500,2501A,108.3506,21.6414,防城港市,大海花园,,11,11,38,7,20,27,,,,6,12,4,4,1.1,0.9
2025-01-26T0500,1371A,113.1294,23.0067,佛山市,湾梁,,48,,34,33,13,36,,,,19,22,6,6,0.6,0.3
2025-01-26T0500,1372A,113.1083,23.0478,佛山市,华材职中,,25,,30,17,16,39,,,,18,20,7,7,0.7,0.4
2025-01-26T0500,1373A,113.144,23.0453,佛山市,南海气象局,,28,23,29,19,16,32,,,,14,18,6,7,0.8,0.5
2025-01-26T0500,1374A,113.2881,22.8094,佛山市,顺德苏岗,,36,36,33,14,15,65,,,,17,16,8,8,0.5,0.5
2025-01-26T0500,1376A,112.8383,22.8678,佛山市,高明孔堂,,30,30,28,18,16,45,,,,13,12,3,4,0.6,0.4
2025-01-26T0500,1377A,112.8836,23.1588,佛山市,三水监测站,,15,,29,10,15,32,,,,13,21,3,3,0.7,0.4
2025-01-26T0500,1378A,112.867,23.185,佛山市,三水云东海,,13,13,30,3,16,29,,,,19,26,6,7,0.7,0.5
2025-01-26T0500,3625A,113.2544,22.7642,佛山市,容桂街道办,,29,29,26,14,16,61,,,,21,20,7,6,0.5,0.5
2025-01-26T0500,1282A,119.2681,26.0504,福州市,师大,,45,45,35,26,19,109,,,,7,9,3,3,0.4,0.4
2025-01-26T0500,1283A,119.2984,26.1028,福州市,五四北路,,38,38,32,24,18,107,,,,7,9,1,2,0.4,0.4
2025-01-26T0500,1284A,119.2648,26.0768,福州市,杨桥西路,,47,47,37,25,18,110,,,,7,9,1,2,0.3,0.3
2025-01-26T0500,1285A,119.317,26.0746,福州市,紫阳,,44,44,35,25,14,102,,,,11,12,4,4,0.4,0.4
2025-01-26T0500,3048A,119.5799,26.0936,福州市,九龙,,37,37,36,20,17,97,,,,7,6,2,2,0.4,0.4
2025-01-26T0500,3526A,119.5189,25.9664,福州市,吴航,,39,39,36,23,21,105,,,,9,9,2,2,0.4,0.5
2025-01-26T0500,1755A,123.7977,41.8491,抚顺市,望花区,细颗粒物(PM2.5),83,72,85,61,63,44,,,,23,30,7,9,0.9,1.1
2025-01-26T0500,1756A,123.9161,41.8822,抚顺市,顺城区,细颗粒物(PM2.5),63,51,93,45,60,59,,,,18,38,10,10,0.8,1.2
2025-01-26T0500,1757A,124.0436,41.8611,抚顺市,东洲区,细颗粒物(PM2.5),63,52,52,45,41,60,,,,11,12,15,15,0.8,0.8
2025-01-26T0500,1758A,123.9247,41.8642,抚顺市,新抚区,细颗粒物(PM2.5),97,,75,72,56,45,,,,33,32,11,9,0.9,1.1
2025-01-26T0500,1759A,124.0972,41.8961,抚顺市,大伙房水库,细颗粒物(PM2.5),64,46,49,46,40,62,,,,15,15,15,13,0.8,0.8
2025-01-26T0500,1760A,123.7086,41.8391,抚顺市,沈抚新城,细颗粒物(PM2.5),70,,84,51,72,51,,,,19,28,7,7,0.9,1.1
2025-01-26T0500,2376A,116.2127,28.0814,抚州市,桐源党溪,,26,26,49,10,28,50,,,,2,2,3,2,0.6,0.7
2025-01-26T0500,2377A,116.3544,27.9831,抚州市,市站,,21,18,32,12,23,66,,,,8,14,2,2,1.4,1.2
2025-01-26T0500,2378A,116.3565,27.963,抚州市,血防站,,26,26,38,10,25,60,,,,4,9,4,5,0.7,0.9
2025-01-26T0500,2379A,116.3564,28.0007,抚州市,采茶剧团,,18,16,29,12,22,52,,,,2,7,6,6,1.2,1.4
2025-01-26T0500,2380A,116.385,27.9647,抚州市,医学分院,,19,19,32,10,19,46,,,,4,8,5,4,0.9,1.1
2025-01-26T0500,2207A,121.6094,41.998,阜新市,工业园区,颗粒物(PM10),85,120,94,58,59,28,,,,24,28,18,28,1.0,1
2025-01-26T0500,2208A,121.6697,42.0279,阜新市,长青街,细颗粒物(PM2.5),85,100,72,63,50,23,,,,26,24,32,31,1.0,0.8
2025-01-26T0500,2209A,121.6673,42.0705,阜新市,农业园区,细颗粒物(PM2.5),77,68,52,56,35,63,,,,13,12,40,16,3.3,0.8
2025-01-26T0500,2210A,121.6717,42.0224,阜新市,东苑,细颗粒物(PM2.5),92,103,77,68,57,28,,,,34,31,31,42,1.7,1
2025-01-26T0500,2211A,121.6506,42.0498,阜新市,玉龙新城,细颗粒物(PM2.5),77,73,76,56,51,20,,,,41,30,10,26,1.9,1.4
2025-01-26T0500,2301A,115.8277,32.8929,阜阳市,市监测站,细颗粒物(PM2.5),79,,42,58,38,37,,,,16,15,4,5,0.8,0.6
2025-01-26T0500,2303A,115.8554,32.8605,阜阳市,开发区,细颗粒物(PM2.5),75,78,52,55,37,40,,,,12,13,6,6,0.8,0.6
2025-01-26T0500,2875A,115.784,32.8892,阜阳市,阜阳职业技术学院,细颗粒物(PM2.5),87,80,46,64,39,36,,,,11,11,6,6,0.9,0.7
2025-01-26T0500,3468A,115.7901,32.8613,阜阳市,市规划展馆,细颗粒物(PM2.5),92,75,40,68,36,40,,,,15,14,4,4,1.0,0.7
2025-01-26T0500,3469A,115.836,32.9183,阜阳市,枣园社区,细颗粒物(PM2.5),80,67,42,59,35,44,,,,12,13,3,5,0.9,0.6
2025-01-26T0500,2669A,102.9099,34.9841,甘南藏族自治州,州政府,颗粒物(PM10),88,126,114,37,23,40,,,,20,7,7,8,0.6,0.3
2025-01-26T0500,3380A,102.8914,34.9617,甘南藏族自治州,甘肃民族师范学院,,43,43,67,14,27,59,,,,16,10,3,5,0.3,0.3
2025-01-26T0500,2570A,101.9603,30.0475,甘孜藏族自治州,水桥子,,26,12,10,12,5,81,,,,6,6,3,2,0.5,0.6
2025-01-26T0500,3065A,101.9533,29.9972,甘孜藏族自治州,州环保局,,27,,6,3,4,85,,,,4,7,4,4,0.5,0.6
2025-01-26T0500,3414A,115.8347,28.932,赣江新区,桑海产业园,,17,6,28,3,22,54,,,,10,16,10,10,0.4,0.5
2025-01-26T0500,2362A,114.9017,25.9149,赣州市,通天岩,,8,8,45,3,13,25,,,,8,14,7,7,0.5,0.6
2025-01-26T0500,2363A,114.9367,25.8664,赣州市,地委,,12,12,56,3,42,24,,,,8,11,3,5,0.4,0.6
2025-01-26T0500,2364A,114.9461,25.8481,赣州市,气象台,,19,19,61,3,37,30,,,,13,19,6,6,0.8,0.8
2025-01-26T0500,2365A,114.9322,25.8333,赣州市,市图书馆,,8,,59,3,49,24,,,,12,17,3,4,0.7,1.1
2025-01-26T0500,2366A,114.8905,25.8471,赣州市,华坚鞋城,,13,,52,9,38,23,,,,8,13,4,5,0.5,0.7
2025-01-26T0500,3109A,115.0093,25.8613,赣州市,赣县区卫计委,,9,,44,3,37,28,,,,6,12,2,3,0.3,0.3
2025-01-26T0500,2683A,106.2319,36.1417,固原市,马园,颗粒物(PM10),89,128,111,22,22,66,,,,12,14,6,7,0.8,0.7
2025-01-26T0500,2684A,106.2792,36.0022,固原市,监测站,颗粒物(PM10),80,109,93,14,15,83,,,,9,14,5,5,0.4,0.4
2025-01-26T0500,2685A,106.2375,36.0211,固原市,新区,颗粒物(PM10),81,111,104,12,13,82,,,,4,10,5,6,0.3,0.3
2025-01-26T0500,3522A,106.2177,35.9959,固原市,原州区十五小,颗粒物(PM10),82,114,91,16,14,82,,,,5,7,4,19,0.2,0.3
2025-01-26T0500,2544A,106.6303,30.4576,广安市,市委,,30,30,17,16,13,63,,,,8,11,3,4,0.6,0.8
2025-01-26T0500,2545A,106.6271,30.4663,广安市,友谊中学,,22,22,15,15,12,68,,,,10,15,4,4,0.5,0.7
2025-01-26T0500,2547A,106.6388,30.4551,广安市,广电花园,,23,23,13,15,13,50,,,,10,14,2,2,0.6,0.8
2025-01-26T0500,2902A,106.6351,30.4865,广安市,北辰小学,,26,26,14,18,13,67,,,,11,15,4,5,0.4,0.7
2025-01-26T0500,2523A,105.8945,32.4535,广元市,黑石坡,颗粒物(PM10),96,141,104,27,28,70,,,,2,2,5,4,0.3,0.3
2025-01-26T0500,2524A,105.821,32.4444,广元市,老城,颗粒物(PM10),83,115,87,25,23,79,,,,2,5,3,2,0.1,0.1
2025-01-26T0500,2526A,105.8628,32.4287,广元市,监测站,颗粒物(PM10),75,99,73,22,24,83,,,,3,6,3,3,0.1,0.1
2025-01-26T0500,3617A,105.8047,32.4166,广元市,经开区,颗粒物(PM10),83,116,75,26,22,66,,,,3,7,3,3,0.4,0.4
2025-01-26T0500,1345A,113.2347,23.1423,广州市,广雅中学,细颗粒物(PM2.5),82,,32,60,23,29,,,,19,16,3,4,1.0,0.8
2025-01-26T0500,1346A,113.2612,23.105,广州市,市五中,,40,40,31,24,16,32,,,,12,15,2,3,0.9,0.6
2025-01-26T0500,1348A,113.3478,23.0916,广州市,广东商学院,,48,48,30,30,18,29,,,,15,21,3,4,0.9,0.6
2025-01-26T0500,1349A,113.4332,23.1047,广州市,市八十六中,颗粒物(PM10),55,60,32,36,18,38,,,,17,21,3,3,0.8,0.5
2025-01-26T0500,1350A,113.3505,22.9483,广州市,番禺中学,,34,34,28,21,15,70,,,,14,18,3,3,0.7,0.6
2025-01-26T0500,1351A,113.2146,23.3916,广州市,花都师范,,16,16,31,9,19,26,,,,11,16,4,5,0.8,0.6
2025-01-26T0500,1352A,113.2597,23.1331,广州市,市监测站,,32,32,30,20,16,30,,,,12,16,4,5,0.7,0.5
2025-01-26T0500,1353A,113.5618,23.312,广州市,九龙镇镇龙,,27,27,36,18,21,27,,,,15,26,4,4,0.8,0.5
2025-01-26T0500,1354A,113.2765,23.1544,广州市,麓湖,,30,30,30,21,18,27,,,,12,15,1,2,0.8,0.5
2025-01-26T0500,1355A,113.443,23.3035,广州市,帽峰山森林公园,,13,13,24,3,3,32,,,,10,15,5,6,0.8,0.5
2025-01-26T0500,2846A,113.3221,23.1322,广州市,体育西,细颗粒物(PM2.5),57,52,34,40,21,27,,,,8,13,3,4,0.7,0.5
2025-01-26T0500,3298A,113.5717,23.5491,广州市,从化街口,,25,25,36,14,23,25,,,,15,19,6,6,0.9,0.6
2025-01-26T0500,3299A,113.3472,23.3692,广州市,白云竹料,,11,11,34,7,20,30,,,,11,15,6,6,1.0,0.7
2025-01-26T0500,3300A,113.2981,23.237,广州市,白云嘉禾,,24,24,32,15,18,24,,,,17,21,6,7,1.5,1.1
2025-01-26T0500,3301A,113.4256,23.1716,广州市,黄埔科学城,细颗粒物(PM2.5),54,56,29,38,18,30,,,,13,16,6,6,0.6,0.4
2025-01-26T0500,3302A,113.3942,23.0483,广州市,番禺大学城,颗粒物(PM10),55,60,40,29,17,40,,,,17,21,7,8,0.7,0.5
2025-01-26T0500,3303A,113.4922,22.8168,广州市,南沙黄阁,,30,30,28,19,14,64,,,,16,17,3,3,0.3,0.2
2025-01-26T0500,3304A,113.5342,22.7896,广州市,南沙街,,26,26,26,16,13,65,,,,18,19,4,4,0.6,0.6
2025-01-26T0500,3443A,113.2902,23.5544,广州市,花都梯面,,14,6,24,3,15,24,,,,9,11,3,3,1.4,0.9
2025-01-26T0500,3445A,113.7858,23.7478,广州市,从化良口,,12,7,24,3,18,38,,,,9,8,5,5,0.9,0.6
2025-01-26T0500,3446A,113.8051,23.2614,广州市,增城荔城,细颗粒物(PM2.5),52,52,32,36,20,46,,,,13,11,4,4,0.5,0.4
2025-01-26T0500,2506A,109.6047,23.0666,贵港市,江南子站,,14,14,55,8,32,23,,,,17,17,2,4,0.9,0.7
2025-01-26T0500,2507A,109.6014,23.0948,贵港市,贵城子站,,19,19,66,7,36,21,,,,11,17,6,8,1.0,0.8
2025-01-26T0500,2508A,109.5669,23.1065,贵港市,荷城子站,,9,9,55,3,28,26,,,,11,17,8,10,0.9,0.8
2025-01-26T0500,3405A,109.5886,23.1172,贵港市,新世纪学校,,12,9,61,8,31,26,,,,14,18,5,5,1.0,0.9
2025-01-26T0500,1439A,106.6899,26.5998,贵阳市,马鞍山,,,5,13,,3,63,,,,8,14,1,2,0.7,1
2025-01-26T0500,1441A,106.6243,26.6266,贵阳市,鉴湖路,,21,,10,7,8,65,,,,6,9,7,7,0.5,0.8
2025-01-26T0500,1442A,106.7487,26.6343,贵阳市,燕子冲,,18,6,4,3,8,57,,,,6,10,6,6,0.6,0.9
2025-01-26T0500,1443A,106.6555,26.4365,贵阳市,碧云窝,,21,9,15,3,6,66,,,,9,14,6,9,0.5,0.8
2025-01-26T0500,1445A,106.7109,26.6027,贵阳市,红边门,,21,9,15,7,12,65,,,,11,17,6,9,0.6,1.1
2025-01-26T0500,1446A,106.7164,26.5699,贵阳市,新华路,,21,6,11,3,6,65,,,,3,8,8,11,0.6,0.7
2025-01-26T0500,1447A,106.674,26.5424,贵阳市,太慈桥,,21,6,11,3,8,67,,,,8,14,7,6,0.5,0.8
2025-01-26T0500,4230A,106.6882,26.5695,贵阳市,花果园大街66号,,19,6,9,3,11,59,,,,16,22,2,2,0.3,0.6
2025-01-26T0500,4231A,106.6873,26.5169,贵阳市,漓江路57号,,20,6,14,3,10,62,,,,6,13,6,9,0.5,0.9
2025-01-26T0500,1862A,110.4144,25.3167,桂林市,电子科大尧山校区,,19,,23,3,24,59,,,,4,12,4,4,0.9,1.1
2025-01-26T0500,1863A,110.2819,25.2697,桂林市,监测站,,19,,39,7,36,59,,,,12,20,8,8,0.5,0.8
2025-01-26T0500,1864A,110.3089,25.2708,桂林市,龙隐路小学,,28,,36,19,58,61,,,,8,14,7,7,0.6,0.9
2025-01-26T0500,1865A,110.2869,25.2178,桂林市,八中,,19,,37,13,42,55,,,,10,16,6,6,0.9,1.1
2025-01-26T0500,3403A,110.1764,25.2381,桂林市,创业大厦,,21,,38,14,37,67,,,,12,19,5,6,0.9,1.2
2025-01-26T0500,3531A,110.296,25.1253,桂林市,旅游学院,,13,,39,3,45,41,,,,17,23,6,6,1.0,1.4
2025-01-26T0500,2674A,100.2561,34.4714,果洛藏族自治州,玛沁县大武镇,颗粒物(PM10),62,74,128,13,24,89,,,,2,2,8,11,0.4,0.4
2025-01-26T0500,1129A,126.5422,45.755,哈尔滨市,岭北,细颗粒物(PM2.5),305,273,279,255,246,77,,,,44,72,24,38,0.7,1.5
2025-01-26T0500,1130A,126.561,45.8167,哈尔滨市,松北商大,细颗粒物(PM2.5),320,284,305,270,276,67,,,,38,75,4,11,2.0,2.3
2025-01-26T0500,1131A,126.979,45.5419,哈尔滨市,阿城会宁,细颗粒物(PM2.5),294,261,216,244,197,19,,,,66,53,21,23,2.2,1.8
2025-01-26T0500,1132A,126.599,45.7222,哈尔滨市,南岗学府路,细颗粒物(PM2.5),224,220,257,174,199,33,,,,81,97,3,12,1.4,1.9
2025-01-26T0500,1133A,126.689,45.7733,哈尔滨市,太平宏伟公园,细颗粒物(PM2.5),294,271,271,244,214,9,,,,89,83,8,15,1.6,1.7
2025-01-26T0500,1134A,126.635,45.7667,哈尔滨市,道外承德广场,细颗粒物(PM2.5),301,332,324,251,239,25,,,,85,88,5,14,1.5,1.8
2025-01-26T0500,1135A,126.685,45.7319,哈尔滨市,香坊红旗大街,细颗粒物(PM2.5),268,232,256,218,230,64,,,,41,80,14,32,1.5,2
2025-01-26T0500,1136A,126.6411,45.7258,哈尔滨市,动力和平路,细颗粒物(PM2.5),234,198,232,184,198,56,,,,42,78,6,18,1.6,1.9
2025-01-26T0500,1137A,126.593,45.7478,哈尔滨市,道里建国路,细颗粒物(PM2.5),256,218,272,206,246,33,,,,74,94,21,39,1.5,2.1
2025-01-26T0500,1138A,126.615,45.61,哈尔滨市,平房东轻厂,细颗粒物(PM2.5),267,252,245,217,220,58,,,,50,78,13,15,1.1,1.5
2025-01-26T0500,1139A,126.595,45.9855,哈尔滨市,呼兰师专,细颗粒物(PM2.5),253,243,351,203,294,63,,,,39,70,10,21,1.5,2.4
2025-01-26T0500,1140A,126.6206,45.6842,哈尔滨市,省农科院,细颗粒物(PM2.5),249,231,256,199,220,43,,,,66,91,9,18,1.5,1.8
2025-01-26T0500,2688A,93.5128,42.8172,哈密市,地区监测站,颗粒物(PM10),57,63,62,15,13,42,,,,16,8,3,3,0.7,0.2
2025-01-26T0500,2689A,93.4961,42.8328,哈密市,哈密师范学校,,26,26,45,13,16,43,,,,14,18,5,6,0.3,0.1
2025-01-26T0500,2671A,100.9048,36.9639,海北藏族自治州,海晏县西海镇,,44,44,145,13,34,90,,,,1,6,14,18,0.4,0.5
2025-01-26T0500,3867A,102.0738,36.5056,海东市,平安区公安北苑,颗粒物(PM10),58,65,81,34,34,66,,,,3,10,6,14,0.5,0.5
2025-01-26T0500,1409A,110.576,19.9507,海口市,东寨港,,31,31,26,9,11,72,,,,3,3,12,12,0.2,0.2
2025-01-26T0500,1410A,110.3232,20.0574,海口市,海南大学,,42,42,37,15,10,86,,,,6,5,5,5,0.4,0.4
2025-01-26T0500,1411A,110.283,20.0053,海口市,秀英海南医院,,40,40,36,12,14,85,,,,3,3,3,3,0.3,0.3
2025-01-26T0500,1412A,110.338,19.9969,海口市,海南师范大学,,42,42,35,16,15,89,,,,2,2,5,5,0.3,0.3
2025-01-26T0500,1413A,110.33,20.0356,海口市,龙华路环保局宿舍,,43,43,37,16,15,87,,,,6,6,6,5,0.3,0.3
2025-01-26T0500,3539A,110.5111,19.9736,海口市,桂林洋子站,,27,15,22,12,12,84,,,,2,1,4,4,0.2,0.2
2025-01-26T0500,2673A,100.6188,36.2866,海南藏族自治州,共和县恰卜恰镇,,47,47,177,21,39,88,,,,2,3,12,12,0.5,0.5
2025-01-26T0500,2676A,97.3731,37.3753,海西蒙古族藏族自治州,德令哈市,,46,46,162,12,29,90,,,,2,5,14,15,0.5,0.5
2025-01-26T0500,1048A,114.5302,36.6116,邯郸市,东污水处理厂,细颗粒物(PM2.5),113,,83,85,80,40,,,,14,16,3,3,0.8,0.8
2025-01-26T0500,1049A,114.4918,36.5713,邯郸市,矿院,细颗粒物(PM2.5),107,109,97,80,72,38,,,,10,12,3,2,0.8,0.7
2025-01-26T0500,1050A,114.484,36.6133,邯郸市,丛台公园,细颗粒物(PM2.5),114,86,92,86,75,38,,,,19,20,2,3,0.8,0.7
2025-01-26T0500,3458A,114.7895,36.5593,邯郸市,香泉濮院小区,细颗粒物(PM2.5),100,,88,75,78,62,,,,10,14,1,3,0.9,0.8
2025-01-26T0500,3579A,114.50634,36.77178,邯郸市,永年区实验高中,细颗粒物(PM2.5),95,82,97,71,68,39,,,,19,19,2,4,1.0,0.9
2025-01-26T0500,3580A,114.20016,36.44293,邯郸市,峰峰矿区临水派出所,细颗粒物(PM2.5),129,102,89,98,84,49,,,,13,14,1,4,1.1,0.9
2025-01-26T0500,2634A,106.9893,33.1842,汉中市,汉川机床厂子校,颗粒物(PM10),54,58,52,11,21,90,,,,1,3,6,6,0.8,0.9
2025-01-26T0500,2635A,107.0154,33.0706,汉中市,市监测站,,,61,46,22,24,,,,,11,15,5,5,0.2,1.3
2025-01-26T0500,2636A,107.0089,33.1138,汉中市,鑫源开发区,颗粒物(PM10),54,58,51,18,24,82,,,,4,8,4,4,0.0,0.2
2025-01-26T0500,2637A,107.007,33.0323,汉中市,南郑大河坎水厂,颗粒物(PM10),56,61,55,13,19,85,,,,6,10,4,4,0.1,0.3
2025-01-26T0500,1223A,120.2072,30.2111,杭州市,滨江,,47,47,36,29,20,77,,,,15,20,6,6,0.5,0.4
2025-01-26T0500,1224A,120.0633,30.2747,杭州市,西溪,,44,44,36,20,14,71,,,,16,23,6,6,0.7,0.6
2025-01-26T0500,1226A,120.3461,30.3153,杭州市,下沙,,49,49,36,25,15,70,,,,16,23,6,7,0.7,0.5
2025-01-26T0500,1227A,120.1269,30.2456,杭州市,卧龙桥,,40,40,32,24,18,67,,,,18,25,5,6,0.6,0.5
2025-01-26T0500,1228A,120.1903,30.2692,杭州市,浙江农大,,50,50,34,29,21,68,,,,15,22,6,6,0.6,0.5
2025-01-26T0500,1230A,120.1197,30.3119,杭州市,和睦小学,,36,36,30,20,17,79,,,,16,24,6,6,0.6,0.5
2025-01-26T0500,1231A,120.3019,30.4183,杭州市,临平镇,,44,44,35,24,15,83,,,,10,16,5,6,0.6,0.5
2025-01-26T0500,1232A,120.2697,30.1819,杭州市,城厢镇,,50,50,40,29,21,72,,,,13,20,5,6,0.5,0.5
2025-01-26T0500,1233A,120.0883,30.1808,杭州市,云栖,,48,48,37,24,18,77,,,,17,22,7,7,0.7,0.6
2025-01-26T0500,3557A,119.9464,30.0494,杭州市,镇二中,,40,40,28,20,15,69,,,,17,23,6,6,0.8,0.7
2025-01-26T0500,3558A,119.7183,30.2367,杭州市,市府大楼,,43,43,30,28,20,69,,,,18,23,6,7,0.5,0.4
2025-01-26T0500,3656A,120.1556,30.2864,杭州市,消防大队,,46,46,37,24,19,80,,,,16,22,8,9,0.6,0.5
2025-01-26T0500,1270A,117.1959,31.7848,合肥市,明珠广场,,26,,26,17,20,83,,,,11,14,6,7,0.5,0.5
2025-01-26T0500,1271A,117.3072,31.8764,合肥市,三里街,,39,,30,27,20,75,,,,10,13,3,4,0.4,0.4
2025-01-26T0500,1272A,117.2588,31.8707,合肥市,琥珀山庄,,35,24,28,24,20,68,,,,14,14,4,5,0.7,0.6
2025-01-26T0500,1273A,117.1604,31.9052,合肥市,董铺水库,,25,22,28,17,14,72,,,,8,7,2,3,0.5,0.3
2025-01-26T0500,1274A,117.25,31.8571,合肥市,长江中路,,38,,29,26,21,76,,,,13,13,6,6,0.7,0.6
2025-01-26T0500,1275A,117.266,31.9436,合肥市,庐阳区,,42,31,30,29,20,71,,,,14,12,2,2,0.7,0.5
2025-01-26T0500,1276A,117.336,31.8586,合肥市,瑶海区,,30,,28,21,18,74,,,,6,7,5,6,0.5,0.3
2025-01-26T0500,1277A,117.3027,31.7964,合肥市,包河区,,28,,31,19,21,83,,,,11,17,2,3,0.3,0.3
2025-01-26T0500,1278A,117.2776,31.7385,合肥市,滨湖新区,,27,17,32,12,19,85,,,,12,11,2,3,0.3,0.3
2025-01-26T0500,1279A,117.1318,31.8403,合肥市,高新区,,35,27,31,24,21,75,,,,14,14,4,4,0.5,0.4
2025-01-26T0500,3464A,117.3803,31.9147,合肥市,高教基地,,33,,28,23,19,72,,,,5,6,4,5,0.4,0.3
2025-01-26T0500,3614A,79.924,37.0877,和田地区,地区环保局,颗粒物(PM10),206,354,383,63,74,44,,,,5,16,1,5,0.4,0.6
2025-01-26T0500,3615A,79.9131,37.113,和田地区,市环保局,颗粒物(PM10),235,374,389,73,64,30,,,,12,24,2,4,1.6,1.8
2025-01-26T0500,2516A,108.2011,24.715,河池市,东仁乐园,,16,,34,7,17,50,,,,5,13,5,6,0.7,1
2025-01-26T0500,2517A,108.0497,24.6947,河池市,市环保站,,,,21,1,12,44,,,,6,9,7,7,0.8,0.9
2025-01-26T0500,2518A,108.0983,24.6989,河池市,市疾控中心,,16,,22,3,15,51,,,,6,12,6,7,0.7,0.8
2025-01-26T0500,1696A,114.6778,23.7569,河源市,源西,,28,22,28,19,20,64,,,,10,13,5,5,0.4,0.4
2025-01-26T0500,1697A,114.6944,23.7586,河源市,东埔,,33,26,31,23,22,76,,,,12,14,3,3,0.5,0.5
2025-01-26T0500,1698A,114.6892,23.7233,河源市,老城,,30,27,31,21,21,73,,,,7,8,4,4,0.5,0.5
2025-01-26T0500,1718A,115.4208,35.2464,菏泽市,气象局,细颗粒物(PM2.5),98,78,105,73,81,55,,,,21,25,2,5,0.7,0.7
2025-01-26T0500,3374A,115.5564,35.0891,菏泽市,定陶老年大学,细颗粒物(PM2.5),89,,96,66,76,59,,,,20,26,4,7,0.8,0.9
2025-01-26T0500,4184A,115.4797,35.24401,菏泽市,永昌路1号,细颗粒物(PM2.5),98,,94,73,84,61,,,,22,30,4,8,0.7,0.8
2025-01-26T0500,4193A,115.4715,35.2800,菏泽市,长城路999号,细颗粒物(PM2.5),85,67,99,63,76,49,,,,18,26,7,10,0.6,0.7
2025-01-26T0500,2514A,111.5264,24.4172,贺州市,环保小区,,12,6,68,3,63,36,,,,10,15,5,5,0.8,1.1
2025-01-26T0500,2515A,111.5608,24.4078,贺州市,政协大楼,,18,18,70,3,56,33,,,,8,13,5,5,0.8,1.1
2025-01-26T0500,3534A,111.4744,24.4553,贺州市,西湾,,13,9,82,3,73,40,,,,9,15,6,6,0.9,1.2
2025-01-26T0500,2385A,114.17,35.9019,鹤壁市,市监测站,细颗粒物(PM2.5),105,,98,79,81,49,,,,12,13,3,5,1.4,1.1
2025-01-26T0500,2386A,114.2956,35.7511,鹤壁市,市交警支队,细颗粒物(PM2.5),97,84,106,72,78,72,,,,11,20,1,6,0.8,1
2025-01-26T0500,2387A,114.2878,35.7306,鹤壁市,迎宾馆,细颗粒物(PM2.5),103,90,107,77,81,67,,,,19,28,3,4,0.9,1
2025-01-26T0500,3474A,114.2617,35.6822,鹤壁市,大新区,细颗粒物(PM2.5),108,,77,81,90,34,,,,24,20,3,7,0.9,0.9
2025-01-26T0500,3596A,114.1572,35.9603,鹤壁市,南山宾馆,细颗粒物(PM2.5),127,,100,96,96,36,,,,14,13,3,4,1.5,1.2
2025-01-26T0500,2244A,130.2537,47.3416,鹤岗市,哈啤分公司,细颗粒物(PM2.5),54,,73,38,57,48,,,,14,30,13,15,0.7,1.1
2025-01-26T0500,2245A,130.2684,47.3086,鹤岗市,斯达机电,细颗粒物(PM2.5),54,41,81,38,61,53,,,,13,31,15,18,0.4,0.6
2025-01-26T0500,2246A,130.3114,47.3388,鹤岗市,东山纸板厂,细颗粒物(PM2.5),117,,83,88,98,17,,,,28,44,14,17,2.8,2.6
2025-01-26T0500,2247A,130.1097,47.3382,鹤岗市,五号水库,,23,22,45,14,31,72,,,,8,11,5,6,0.4,0.6
2025-01-26T0500,2263A,127.4833,50.2524,黑河市,交通局,颗粒物(PM10),51,51,88,35,58,33,,,,22,34,6,9,1.0,1.2
2025-01-26T0500,2264A,127.5144,50.2341,黑河市,环保局,,43,32,88,30,69,42,,,,13,34,7,14,0.5,1
2025-01-26T0500,2265A,127.5291,50.2472,黑河市,大黑河岛,,,53,86,44,71,5,,,,10,20,2,2,,
2025-01-26T0500,1074A,115.6838,37.7541,衡水市,电机北厂,细颗粒物(PM2.5),112,98,108,84,86,70,,,,11,18,4,5,0.8,0.7
2025-01-26T0500,1075A,115.6303,37.7316,衡水市,市监测站,细颗粒物(PM2.5),119,,93,90,82,63,,,,16,22,9,10,0.8,0.7
2025-01-26T0500,3188A,115.6683,37.7217,衡水市,市城管局,细颗粒物(PM2.5),114,,92,86,78,62,,,,16,22,6,8,0.8,0.8
2025-01-26T0500,3459A,115.5989,37.5491,衡水市,地表水厂,细颗粒物(PM2.5),128,,80,97,80,61,,,,7,12,4,6,1.0,0.8
2025-01-26T0500,2456A,112.5003,26.9167,衡阳市,原169医院,,16,12,10,11,14,43,,,,11,15,1,25,0.6,0.7
2025-01-26T0500,2457A,112.6194,26.9258,衡阳市,衡阳化工总厂,,28,20,11,19,8,59,,,,13,16,2,4,0.8,0.9
2025-01-26T0500,2458A,112.6211,26.8956,衡阳市,珠晖区环保局,,23,,14,16,17,64,,,,13,17,7,7,0.8,1
2025-01-26T0500,2459A,112.6197,26.8733,衡阳市,市委党校,,23,,11,16,10,61,,,,12,16,6,5,0.8,0.9
2025-01-26T0500,2460A,112.6006,26.8919,衡阳市,市监测站,,28,,17,19,15,62,,,,11,15,5,6,0.7,0.9
2025-01-26T0500,2461A,112.5664,26.9056,衡阳市,真空机电公司,,26,,17,18,21,60,,,,7,11,3,3,0.8,0.9
2025-01-26T0500,3399A,112.6703,26.882,衡阳市,师范学院,,26,23,13,18,12,53,,,,14,17,5,5,1.1,1.1
2025-01-26T0500,2608A,103.3772,23.3993,红河哈尼族彝族自治州,污水处理厂,细颗粒物(PM2.5),63,,39,45,39,68,,,,6,7,6,8,0.6,0.4
2025-01-26T0500,2609A,103.3861,23.35,红河哈尼族彝族自治州,监测站,细颗粒物(PM2.5),60,,39,43,36,68,,,,5,5,9,9,0.6,0.4
2025-01-26T0500,3038A,103.3758,23.368,红河哈尼族彝族自治州,州图书馆,,50,,32,35,29,62,,,,6,6,7,8,0.6,0.4
2025-01-26T0500,1090A,111.6507,40.7517,呼和浩特市,呼市一监,颗粒物(PM10),198,346,168,56,70,78,,,,5,20,5,7,0.3,0.6
2025-01-26T0500,1091A,111.6572,40.8033,呼和浩特市,小召,颗粒物(PM10),364,471,180,70,54,76,,,,4,19,6,8,0.3,0.6
2025-01-26T0500,1094A,111.7516,40.8369,呼和浩特市,如意水处理厂,颗粒物(PM10),273,401,163,67,54,62,,,,5,20,4,7,0.3,0.6
2025-01-26T0500,1095A,111.7276,40.8062,呼和浩特市,二十九中,颗粒物(PM10),209,356,177,64,57,66,,,,5,17,3,3,0.4,0.6
2025-01-26T0500,1096A,111.5512,40.7866,呼和浩特市,工大金川校区,颗粒物(PM10),173,296,162,43,71,69,,,,3,24,5,9,0.4,0.7
2025-01-26T0500,1097A,111.717,40.7612,呼和浩特市,化肥厂生活区,颗粒物(PM10),205,353,156,60,59,72,,,,6,21,4,6,0.2,0.5
2025-01-26T0500,3698A,111.5968,40.8178,呼和浩特市,红旗小学,颗粒物(PM10),334,447,173,65,56,72,,,,4,20,3,6,0.4,0.7
2025-01-26T0500,3699A,111.6518,40.8389,呼和浩特市,海东办,颗粒物(PM10),345,456,189,67,54,68,,,,4,22,2,5,0.3,0.6
2025-01-26T0500,2192A,119.7594,49.2261,呼伦贝尔市,区环保局,,35,35,37,23,36,42,,,,24,32,6,10,0.5,0.6
2025-01-26T0500,3061A,119.7512,49.1577,呼伦贝尔市,国华电力东,,30,29,32,21,24,53,,,,12,19,5,12,0.4,0.4
2025-01-26T0500,1250A,120.0751,30.8669,湖州市,城西水厂,颗粒物(PM10),57,63,35,39,16,85,,,,13,13,7,7,0.6,0.3
2025-01-26T0500,2873A,120.0875,30.8955,湖州市,仁皇山新区,颗粒物(PM10),55,59,31,38,16,79,,,,18,18,6,6,1.0,0.6
2025-01-26T0500,2907A,120.1844,30.8596,湖州市,吴兴区站,颗粒物(PM10),56,62,31,37,16,79,,,,14,11,5,5,0.8,0.4
2025-01-26T0500,3562A,120.4148,30.8538,湖州市,南浔区站,,48,48,30,28,16,82,,,,12,15,7,7,0.6,0.4
2025-01-26T0500,1607A,120.9092,40.7136,葫芦岛市,龙港区,细颗粒物(PM2.5),83,92,113,61,77,23,,,,37,49,23,32,0.8,1
2025-01-26T0500,1608A,120.8392,40.7514,葫芦岛市,化工街,细颗粒物(PM2.5),100,112,108,75,69,7,,,,56,46,51,38,1.0,0.7
2025-01-26T0500,1609A,120.8341,40.7073,葫芦岛市,新区,细颗粒物(PM2.5),95,94,88,71,72,23,,,,48,50,22,24,1.3,1.1
2025-01-26T0500,1610A,120.8695,40.7677,葫芦岛市,东城区,细颗粒物(PM2.5),110,104,92,83,74,24,,,,32,38,122,36,1.2,0.9
2025-01-26T0500,2482A,109.5981,27.5721,怀化市,林科所,,18,6,8,3,6,55,,,,10,10,2,3,0.7,0.8
2025-01-26T0500,2483A,109.9453,27.5444,怀化市,河西地税局,,17,14,13,11,13,53,,,,9,12,3,3,0.8,0.8
2025-01-26T0500,2484A,109.9781,27.5342,怀化市,市四医院,,23,,13,16,11,52,,,,9,13,2,2,0.6,0.7
2025-01-26T0500,2485A,109.9972,27.5578,怀化市,监测楼,,16,11,13,11,11,48,,,,11,14,2,2,1.0,1.1
2025-01-26T0500,2486A,110.0394,27.583,怀化市,市委党校,,17,12,11,8,11,53,,,,11,14,4,4,0.9,1
2025-01-26T0500,1210A,119.036,33.5981,淮安市,钵池山,细颗粒物(PM2.5),90,85,58,67,36,67,,,,19,15,7,7,1.0,0.8
2025-01-26T0500,1211A,119.007,33.575,淮安市,北京南路,细颗粒物(PM2.5),87,83,57,64,34,61,,,,17,13,7,7,1.0,0.9
2025-01-26T0500,1212A,118.989,33.6067,淮安市,市监测站,细颗粒物(PM2.5),104,80,53,78,46,60,,,,21,17,6,6,1.0,0.7
2025-01-26T0500,1213A,119.135,33.5039,淮安市,楚州区监测站,细颗粒物(PM2.5),85,83,59,63,35,73,,,,17,14,6,6,1.0,0.7
2025-01-26T0500,1214A,119.0186,33.6297,淮安市,淮阴区监测站,细颗粒物(PM2.5),94,102,66,70,36,58,,,,23,18,6,6,1.0,0.8
2025-01-26T0500,3426A,118.8755,33.2894,淮安市,新华书店,细颗粒物(PM2.5),67,,53,48,38,87,,,,13,17,7,8,0.7,0.6
2025-01-26T0500,2282A,116.8004,33.975,淮北市,监测站,细颗粒物(PM2.5),99,92,84,74,63,57,,,,11,16,3,5,0.7,0.7
2025-01-26T0500,2283A,116.8091,33.9007,淮北市,烈山区政府,细颗粒物(PM2.5),103,82,77,77,65,60,,,,20,22,2,4,0.9,0.8
2025-01-26T0500,3330A,116.8873,33.9836,淮北市,杜集区检察院,细颗粒物(PM2.5),109,88,84,82,66,60,,,,14,19,2,4,1.0,0.8
2025-01-26T0500,4017A,116.7923,33.9535,淮北市,市博物馆,细颗粒物(PM2.5),102,88,83,76,63,58,,,,19,24,4,7,1.0,1
2025-01-26T0500,2277A,116.8305,32.7727,淮南市,潘集区政府,细颗粒物(PM2.5),88,68,49,65,45,66,,,,14,15,7,7,0.8,0.6
2025-01-26T0500,2279A,116.8569,32.5951,淮南市,谢家集区政府,细颗粒物(PM2.5),73,56,43,53,37,66,,,,8,8,4,4,0.5,0.4
2025-01-26T0500,2280A,116.8281,32.633,淮南市,八公山区政府,细颗粒物(PM2.5),72,55,43,52,35,70,,,,8,11,3,4,0.6,0.5
2025-01-26T0500,2281A,116.6325,32.6201,淮南市,焦岗湖风景区管理处,细颗粒物(PM2.5),57,45,34,40,24,18,,,,11,11,7,8,0.3,0.3
2025-01-26T0500,2894A,117.0566,32.6531,淮南市,经济技术开发区消防队,细颗粒物(PM2.5),72,74,46,52,33,76,,,,5,10,3,4,0.6,0.4
2025-01-26T0500,3329A,117.0108,32.5893,淮南市,山南新区,细颗粒物(PM2.5),70,51,36,51,29,77,,,,12,11,5,5,0.8,0.6
2025-01-26T0500,4209A,117.0031,32.6445,淮南市,国庆中路369号,细颗粒物(PM2.5),80,76,48,59,34,70,,,,10,14,8,9,1.0,0.8
2025-01-26T0500,2446A,114.9028,30.4742,黄冈市,职工中心,,28,19,18,19,16,58,,,,9,11,7,7,1.6,1.3
2025-01-26T0500,2929A,114.8858,30.4519,黄冈市,红卫路,,26,,16,18,15,59,,,,16,15,4,5,1.1,1
2025-01-26T0500,3398A,114.9136,30.4445,黄冈市,市林业局,,33,,16,23,16,57,,,,1,2,7,7,0.6,0.5
2025-01-26T0500,2672A,102.0199,35.5102,黄南藏族自治州,同仁县隆务镇,颗粒物(PM10),87,123,144,27,40,86,,,,1,3,15,14,0.4,0.6
2025-01-26T0500,2295A,118.2903,29.6963,黄山市,延安路89号,,23,23,40,13,25,60,,,,5,6,4,4,0.4,0.5
2025-01-26T0500,2297A,118.1371,30.2756,黄山市,黄山区政府5号楼,,19,15,39,13,27,58,,,,10,11,7,8,0.7,0.7
2025-01-26T0500,4210A,118.3354,29.7203,黄山市,滨江东路7-2号,,27,27,43,16,26,57,,,,11,14,4,4,0.3,0.4
2025-01-26T0500,2423A,115.0601,30.2313,黄石市,沈家营,,20,17,19,12,8,63,,,,12,12,7,7,0.8,0.6
2025-01-26T0500,2426A,114.8988,30.2019,黄石市,铁山,,31,31,20,19,8,59,,,,7,4,6,5,0.6,0.3
2025-01-26T0500,2427A,115.0307,30.2092,黄石市,团城山,,15,13,20,10,8,42,,,,10,13,6,7,0.7,0.5
2025-01-26T0500,3149A,115.0235,30.1578,黄石市,笔架山北路,,19,13,13,10,5,60,,,,6,8,4,4,0.7,0.5
2025-01-26T0500,4185A,115.0780,30.21118,黄石市,磁湖东路29号,,23,,24,16,12,59,,,,2,6,6,6,0.8,0.7
2025-01-26T0500,1392A,114.4183,23.0528,惠州市,河南岸金山湖子站,,30,30,26,15,15,61,,,,10,8,6,6,0.6,0.5
2025-01-26T0500,1393A,114.4053,23.0822,惠州市,下埔横江三路子站,,36,36,30,19,16,76,,,,11,10,6,6,0.5,0.5
2025-01-26T0500,1394A,114.4103,23.1142,惠州市,江北云山西路子站,,34,34,28,19,16,91,,,,9,10,6,6,0.4,0.5
2025-01-26T0500,1395A,114.4645,22.7833,惠州市,惠阳区承修路船湖子站,,39,39,27,19,13,66,,,,11,6,8,8,0.6,0.5
2025-01-26T0500,1396A,114.5317,22.7422,惠州市,大亚湾管委会子站,,34,34,27,15,12,90,,,,10,9,6,6,0.6,0.5
2025-01-26T0500,3314A,114.4338,22.8134,惠州市,惠阳秋长,,36,36,29,17,13,81,,,,9,7,10,12,0.6,0.6
2025-01-26T0500,3452A,114.6517,22.775,惠州市,大亚湾霞涌,,35,35,27,20,15,89,,,,6,7,6,6,0.2,0.2
2025-01-26T0500,2240A,130.9762,45.3001,鸡西市,环保局,细颗粒物(PM2.5),73,60,80,53,68,41,,,,20,34,6,8,0.9,1.1
2025-01-26T0500,2243A,130.9429,45.3039,鸡西市,第一中学,细颗粒物(PM2.5),59,51,47,42,42,54,,,,10,11,5,5,0.7,0.7
2025-01-26T0500,3707A,131.0207,45.3073,鸡西市,欧美日汽修厂,细颗粒物(PM2.5),108,82,113,81,91,19,,,,45,47,91,43,2.5,1.8
2025-01-26T0500,3709A,130.9967,45.3106,鸡西市,市政设施管理处,细颗粒物(PM2.5),77,85,80,56,65,35,,,,27,44,13,12,1.1,1.1
2025-01-26T0500,2367A,114.9754,27.0803,吉安市,红声器材厂,,19,19,39,3,25,30,,,,15,18,8,8,0.7,0.7
2025-01-26T0500,2368A,114.9658,27.0999,吉安市,市森林工业局,,12,12,32,7,24,35,,,,17,23,10,9,0.6,0.6
2025-01-26T0500,2369A,114.99,27.1312,吉安市,市环境监测站,,10,7,32,7,25,30,,,,10,16,10,10,0.6,0.6
2025-01-26T0500,2370A,115.0093,27.0968,吉安市,青原区法院,,11,9,33,3,27,33,,,,18,24,8,9,0.6,0.6
2025-01-26T0500,1772A,126.54,43.8622,吉林市,哈达湾,细颗粒物(PM2.5),103,105,153,77,117,35,,,,36,51,10,18,1.3,1.6
2025-01-26T0500,1773A,126.5844,43.8358,吉林市,东局子,细颗粒物(PM2.5),80,76,108,59,87,35,,,,29,42,5,9,0.8,0.9
2025-01-26T0500,1774A,126.5052,43.8245,吉林市,电力学院,细颗粒物(PM2.5),144,128,146,110,118,14,,,,41,46,5,12,1.9,1.9
2025-01-26T0500,1775A,126.6133,43.8972,吉林市,江北,细颗粒物(PM2.5),100,92,162,75,134,24,,,,42,59,9,13,1.5,2
2025-01-26T0500,1776A,126.555,43.8306,吉林市,江南公园,细颗粒物(PM2.5),134,120,136,102,114,16,,,,47,58,5,10,1.3,1.8
2025-01-26T0500,2868A,126.4739,43.953,吉林市,九站,细颗粒物(PM2.5),188,176,149,141,125,12,,,,68,52,24,22,2.1,1.9
2025-01-26T0500,1299A,116.9862,36.6114,济南市,科干所,细颗粒物(PM2.5),68,63,73,49,51,36,,,,32,29,9,10,0.8,0.8
2025-01-26T0500,1300A,116.9376,36.665,济南市,农科所,颗粒物(PM10),55,59,81,37,49,54,,,,22,31,10,14,0.7,0.8
2025-01-26T0500,1301A,117.1265,36.6734,济南市,开发区,细颗粒物(PM2.5),83,81,80,61,60,36,,,,27,24,10,12,0.8,0.9
2025-01-26T0500,1303A,117.0624,36.6868,济南市,省种子仓库,细颗粒物(PM2.5),73,70,88,53,58,41,,,,22,26,7,11,0.6,0.6
2025-01-26T0500,1305A,117.0495,36.663,济南市,市监测站,细颗粒物(PM2.5),68,66,80,49,54,39,,,,32,32,11,14,0.9,0.9
2025-01-26T0500,1306A,116.7675,36.5484,济南市,长清党校,细颗粒物(PM2.5),68,68,86,49,59,52,,,,25,30,9,10,0.8,0.9
2025-01-26T0500,1616A,117.6795,36.229,济南市,技术学院,细颗粒物(PM2.5),83,66,75,61,58,49,,,,29,28,11,10,0.9,0.9
2025-01-26T0500,1961A,117.532,36.6868,济南市,东山小学,细颗粒物(PM2.5),77,98,85,56,51,39,,,,32,25,10,10,0.9,0.9
2025-01-26T0500,3059A,117.7161,36.2049,济南市,泰兴公司,细颗粒物(PM2.5),70,61,77,51,54,48,,,,28,24,11,11,0.8,0.8
2025-01-26T0500,3064A,117.6867,36.2171,济南市,莱芜战役纪念馆,细颗粒物(PM2.5),67,68,83,48,56,55,,,,25,28,8,8,0.7,0.8
2025-01-26T0500,3494A,117.1673,36.9782,济南市,济阳区政府,细颗粒物(PM2.5),64,68,72,46,49,47,,,,19,20,10,10,0.8,0.7
2025-01-26T0500,3495A,117.1171,36.63,济南市,锦屏中学,细颗粒物(PM2.5),77,78,71,56,52,32,,,,34,24,9,10,0.6,0.6
2025-01-26T0500,1653A,116.6251,35.4302,济宁市,火炬城,细颗粒物(PM2.5),70,60,100,51,84,43,,,,14,20,9,11,0.7,0.9
2025-01-26T0500,1655A,116.5491,35.4042,济宁市,电化厂,细颗粒物(PM2.5),83,92,134,61,87,44,,,,26,34,10,12,0.8,1.1
2025-01-26T0500,3500A,116.5814,35.3707,济宁市,北湖一中,细颗粒物(PM2.5),62,65,100,44,78,42,,,,24,34,1,5,0.9,1.1
2025-01-26T0500,3501A,116.8249,35.5593,济宁市,服务中心,细颗粒物(PM2.5),70,86,118,51,75,44,,,,18,23,9,9,0.7,0.9
2025-01-26T0500,3678A,116.5907,35.4054,济宁市,市第七中学,细颗粒物(PM2.5),83,64,101,61,86,48,,,,19,23,4,6,0.6,0.8
2025-01-26T0500,2255A,130.2751,46.8028,佳木斯市,佳纺,细颗粒物(PM2.5),178,149,136,134,127,20,,,,59,47,3,8,2.0,1.6
2025-01-26T0500,2256A,130.3995,46.8307,佳木斯市,发电厂,细颗粒物(PM2.5),163,124,116,124,119,59,,,,24,28,5,7,1.1,1.1
2025-01-26T0500,2257A,130.3258,46.7975,佳木斯市,环保局,细颗粒物(PM2.5),182,155,139,137,126,18,,,,52,54,7,10,1.7,1.6
2025-01-26T0500,2258A,130.3648,46.8032,佳木斯市,十一中,细颗粒物(PM2.5),199,206,140,149,125,9,,,,83,64,6,9,1.6,1.4
2025-01-26T0500,2259A,130.3794,46.7588,佳木斯市,四丰,颗粒物(PM10),98,146,107,59,66,74,,,,12,15,1,1,1.3,1.2
2025-01-26T0500,1252A,120.7436,30.778,嘉兴市,清河小学,,40,40,25,22,15,79,,,,13,16,4,4,0.5,0.4
2025-01-26T0500,1253A,120.726,30.7478,嘉兴市,嘉兴学院,,44,44,35,24,13,77,,,,10,12,6,7,0.8,0.7
2025-01-26T0500,2872A,120.7846,30.7525,嘉兴市,南湖区残联,,40,40,35,24,12,77,,,,9,13,8,7,0.7,0.7
2025-01-26T0500,3407A,120.6916,30.7739,嘉兴市,秀洲住建,,48,48,30,26,16,78,,,,12,16,4,5,0.3,0.2
2025-01-26T0500,1945A,98.2908,39.7711,嘉峪关市,气象局,颗粒物(PM10),70,90,182,14,19,56,,,,19,7,1,6,0.3,0.4
2025-01-26T0500,2884A,98.2672,39.7978,嘉峪关市,酒钢宾馆,颗粒物(PM10),75,100,212,14,19,60,,,,14,9,2,16,0.5,0.6
2025-01-26T0500,3248A,98.2643,39.7724,嘉峪关市,雄关区,颗粒物(PM10),63,76,135,11,21,38,,,,44,12,10,9,0.5,0.4
2025-01-26T0500,1383A,113.1064,22.6058,江门市,北街,,29,29,26,15,14,73,,,,15,17,3,4,0.5,0.5
2025-01-26T0500,1384A,113.0731,22.5835,江门市,西区,,37,37,28,18,16,73,,,,13,15,5,5,0.6,0.5
2025-01-26T0500,1385A,113.0219,22.5311,江门市,圭峰西,,25,25,32,15,15,70,,,,12,16,3,4,0.4,0.4
2025-01-26T0500,1386A,113.0828,22.5947,江门市,东湖,,34,34,27,16,16,74,,,,12,13,5,5,0.3,0.3
2025-01-26T0500,3311A,113.1075,22.5647,江门市,江海富民,,43,43,36,19,17,72,,,,12,14,4,5,0.3,0.3
2025-01-26T0500,3449A,113.05,22.4667,江门市,新会银湖,,28,27,28,19,18,29,,,,31,19,5,5,0.7,0.6
2025-01-26T0500,1828A,113.227,35.2125,焦作市,市环保局,颗粒物(PM10),79,108,120,30,92,62,,,,6,21,5,4,0.4,1.1
2025-01-26T0500,3169A,113.2725,35.2067,焦作市,太极体育中心,颗粒物(PM10),63,76,119,32,95,58,,,,12,31,7,5,0.5,1.4
2025-01-26T0500,3335A,113.3137,35.2641,焦作市,马村街道办,颗粒物(PM10),64,77,115,42,107,41,,,,16,32,4,4,0.8,1.4
2025-01-26T0500,3336A,113.2465,35.2373,焦作市,焦作技师学院,颗粒物(PM10),64,78,108,27,94,56,,,,6,24,4,5,0.6,1.4
2025-01-26T0500,3477A,113.1656,35.2539,焦作市,中站许衡医院,颗粒物(PM10),82,113,108,37,96,64,,,,8,31,7,8,0.6,1.6
2025-01-26T0500,3981A,113.2449,35.1803,焦作市,原李万街道办,颗粒物(PM10),81,111,106,27,81,65,,,,2,11,8,7,0.5,1
2025-01-26T0500,1708A,116.3701,23.5345,揭阳市,新兴,"颗粒物(PM10),细颗粒物(PM2.5)",54,57,37,38,24,77,,,,8,6,6,5,0.5,0.5
2025-01-26T0500,1709A,116.3264,23.5443,揭阳市,西马,,49,49,39,30,21,87,,,,10,9,8,6,0.8,0.7
2025-01-26T0500,1710A,116.3611,23.5626,揭阳市,东兴,,45,45,41,29,22,65,,,,11,9,5,5,0.9,0.8
2025-01-26T0500,1711A,116.4151,23.5294,揭阳市,渔湖,,35,35,36,19,19,84,,,,4,5,6,6,0.7,0.6
2025-01-26T0500,3320A,116.403,23.5699,揭阳市,曲溪,,47,47,37,27,20,55,,,,19,14,2,2,0.7,0.7
2025-01-26T0500,1944A,102.1692,38.5167,金昌市,天庆家园,,,91,113,15,18,67,,,,8,4,,12,0.8,0.6
2025-01-26T0500,4022A,102.1647,38.5371,金昌市,金川区人防中心,颗粒物(PM10),82,113,158,12,17,78,,,,3,4,4,5,0.6,0.5
2025-01-26T0500,4239A,102.1930,38.5319,金昌市,长春路96号,颗粒物(PM10),71,91,107,13,18,78,,,,4,5,4,6,0.6,0.6
2025-01-26T0500,1262A,119.647,29.077,金华市,十五中,,47,47,47,24,27,62,,,,20,22,3,3,0.4,0.5
2025-01-26T0500,1263A,119.686,29.1029,金华市,监测站,颗粒物(PM10),51,51,46,29,28,60,,,,12,16,4,4,0.3,0.3
2025-01-26T0500,3659A,119.656,29.1131,金华市,气象局,颗粒物(PM10),51,52,50,27,28,55,,,,20,19,3,4,0.5,0.4
2025-01-26T0500,1767A,121.1115,41.0879,锦州市,南山,细颗粒物(PM2.5),117,107,90,88,84,25,,,,31,37,13,16,1.5,1.2
2025-01-26T0500,1768A,121.0533,40.8434,锦州市,开发区,细颗粒物(PM2.5),133,146,97,101,68,7,,,,54,29,24,28,1.6,0.9
2025-01-26T0500,1769A,121.1836,41.1119,锦州市,百股街道,细颗粒物(PM2.5),104,116,104,78,91,18,,,,36,36,16,23,1.4,1.4
2025-01-26T0500,1770A,121.1178,41.1222,锦州市,天安街道,细颗粒物(PM2.5),109,92,86,82,73,17,,,,45,41,14,17,1.2,1
2025-01-26T0500,1771A,121.1303,41.1386,锦州市,北湖公园,细颗粒物(PM2.5),88,92,81,65,68,27,,,,29,32,14,19,1.2,1.1
2025-01-26T0500,2160A,112.85,35.5051,晋城市,自来水公司,颗粒物(PM10),83,116,86,27,63,70,,,,11,19,4,6,0.4,1
2025-01-26T0500,2161A,112.8318,35.4936,晋城市,白云商贸,颗粒物(PM10),97,144,94,22,54,72,,,,13,22,5,6,0.4,1.1
2025-01-26T0500,2162A,112.8508,35.4887,晋城市,市环保局,颗粒物(PM10),90,130,98,31,63,69,,,,10,20,5,6,0.5,1.1
2025-01-26T0500,2163A,112.8676,35.4897,晋城市,技术学院,颗粒物(PM10),100,150,92,34,65,79,,,,11,22,4,6,0.6,1.2
2025-01-26T0500,3620A,112.8271,35.4828,晋城市,泽州一中,颗粒物(PM10),77,103,79,31,61,68,,,,16,26,4,11,0.3,0.8
2025-01-26T0500,2173A,112.7249,37.7067,晋中市,南都小区,颗粒物(PM10),161,272,119,48,65,71,,,,11,24,3,6,0.0,0.5
2025-01-26T0500,2174A,112.6991,37.6982,晋中市,榆次区政府,颗粒物(PM10),164,278,118,50,63,67,,,,10,22,9,8,0.3,0.7
2025-01-26T0500,2865A,112.7195,37.6828,晋中市,榆次三中,颗粒物(PM10),172,293,123,46,67,71,,,,7,20,4,8,0.3,0.8
2025-01-26T0500,4200A,112.7478,37.6954,晋中市,榆次一中,颗粒物(PM10),158,266,118,48,69,72,,,,7,21,4,7,0.1,0.7
2025-01-26T0500,2439A,112.2014,31.0481,荆门市,竹园小学,细颗粒物(PM2.5),57,57,40,40,39,57,,,,11,15,3,3,0.9,0.8
2025-01-26T0500,2440A,112.1969,30.9891,荆门市,掇刀,细颗粒物(PM2.5),53,43,37,37,32,64,,,,14,14,12,11,0.7,0.7
2025-01-26T0500,2441A,112.2213,31.0386,荆门市,石化一小,细颗粒物(PM2.5),62,57,38,44,38,61,,,,12,15,7,7,0.6,0.6
2025-01-26T0500,3012A,112.1849,31.0362,荆门市,西山林语,,48,40,35,33,37,48,,,,11,10,2,2,1.0,1
2025-01-26T0500,3547A,112.1632,31.0138,荆门市,龙泉中学南校,,29,,33,20,31,64,,,,4,8,10,9,0.7,1
2025-01-26T0500,1844A,112.2494,30.3197,荆州市,市图书馆,细颗粒物(PM2.5),60,,26,43,32,73,,,,16,21,3,3,0.7,0.7
2025-01-26T0500,1845A,112.2008,30.3544,荆州市,市委党校,细颗粒物(PM2.5),60,,30,43,32,73,,,,13,17,4,4,0.6,0.6
2025-01-26T0500,3194A,112.2747,30.3122,荆州市,管委会,细颗粒物(PM2.5),58,,32,41,32,79,,,,12,14,4,4,0.9,0.8
2025-01-26T0500,3548A,112.1655,30.3364,荆州市,学苑路,细颗粒物(PM2.5),59,,28,42,28,74,,,,18,16,4,4,0.8,0.9
2025-01-26T0500,2343A,117.2117,29.2933,景德镇市,老干部活动中心,,16,13,23,6,21,50,,,,9,10,4,4,0.5,0.4
2025-01-26T0500,2344A,117.1894,29.2789,景德镇市,兽医站,,17,16,36,3,16,52,,,,11,10,4,4,0.7,0.7
2025-01-26T0500,2345A,117.1547,29.2617,景德镇市,台达陶瓷,,16,10,22,3,18,49,,,,9,9,1,2,0.3,0.2
2025-01-26T0500,2346A,117.2461,29.2956,景德镇市,陶研所,,18,,22,11,25,57,,,,11,12,4,4,0.6,0.5
2025-01-26T0500,1803A,115.9872,29.6815,九江市,十里,,22,,28,15,23,60,,,,9,13,4,5,0.5,0.6
2025-01-26T0500,1804A,115.9584,29.7046,九江市,茅山头,,19,6,31,3,21,60,,,,11,14,7,5,0.7,0.7
2025-01-26T0500,1805A,115.9877,29.7295,九江市,西园,,17,8,32,6,20,53,,,,6,12,9,9,0.4,0.5
2025-01-26T0500,1808A,115.9114,29.6038,九江市,综合工业园,,19,8,26,3,22,60,,,,11,14,4,4,0.5,0.5
2025-01-26T0500,1809A,116.0721,29.7535,九江市,石化总厂,,19,,32,13,33,53,,,,10,16,8,9,0.6,0.8
2025-01-26T0500,1810A,115.9773,29.5698,九江市,庐山气象台,,18,6,9,3,6,57,,,,6,9,7,7,1.0,1.4
2025-01-26T0500,3190A,116.0254,29.6994,九江市,外国语学校,,20,,31,11,23,63,,,,15,20,3,7,0.4,0.5
2025-01-26T0500,4253A,116.0102,29.6594,九江市,莲花大道8号,,22,,32,15,30,55,,,,6,12,5,5,0,0.1
2025-01-26T0500,2658A,98.5061,39.7443,酒泉市,仓门街子站,颗粒物(PM10),87,124,276,14,25,66,,,,6,5,5,6,0.4,0.3
2025-01-26T0500,4240A,98.4958,39.7339,酒泉市,玉门东路5号,颗粒物(PM10),91,132,291,14,21,57,,,,6,5,4,5,0.3,0.3
2025-01-26T0500,2698A,76.0072,39.4467,喀什地区,巡警大队,颗粒物(PM10),89,128,164,29,44,40,,,,39,45,5,6,1.4,1.4
2025-01-26T0500,2699A,75.9755,39.4694,喀什地区,吾办,颗粒物(PM10),98,145,170,63,51,24,,,,53,39,2,3,1.9,1.3
2025-01-26T0500,4027A,75.9483,39.4689,喀什地区,老干局,颗粒物(PM10),118,186,218,49,48,30,,,,33,41,2,4,2.2,1.8
2025-01-26T0500,1824A,114.3389,34.7781,开封市,肿瘤医院,细颗粒物(PM2.5),103,,78,77,92,46,,,,12,15,3,3,1.3,1.1
2025-01-26T0500,1826A,114.2885,34.7965,开封市,世纪星幼儿园,细颗粒物(PM2.5),110,,79,83,106,38,,,,18,22,3,4,1.1,0.9
2025-01-26T0500,3147A,114.3438,34.8106,开封市,龙亭公园,细颗粒物(PM2.5),93,,81,69,90,38,,,,16,20,3,4,1.3,1
2025-01-26T0500,3210A,114.3644,34.7964,开封市,汴京公园,细颗粒物(PM2.5),105,,89,79,96,36,,,,16,18,2,3,1.3,1.1
2025-01-26T0500,3473A,114.2485,34.8306,开封市,技师学院,细颗粒物(PM2.5),105,,81,79,94,21,,,,28,27,2,3,1.3,1.1
2025-01-26T0500,3592A,114.4644,34.7556,开封市,祥符区生态环境局,细颗粒物(PM2.5),108,83,112,81,100,42,,,,18,21,2,3,1.2,1.1
2025-01-26T0500,1951A,84.895,45.6094,克拉玛依市,长征新村,,22,15,12,15,11,43,,,,15,12,7,5,0.3,0.3
2025-01-26T0500,1952A,84.8988,45.5893,克拉玛依市,南林小区,,23,,12,16,11,50,,,,9,14,2,4,0.6,0.6
2025-01-26T0500,1954A,84.905,44.3396,克拉玛依市,独山子区,细颗粒物(PM2.5),62,57,48,44,27,71,,,,18,28,4,4,0.7,0.7
2025-01-26T0500,1955A,85.6979,46.098,克拉玛依市,乌尔禾区商贸楼,,13,8,9,3,9,38,,,,25,23,3,4,0.9,0.6
2025-01-26T0500,3612A,85.1045,45.6899,克拉玛依市,白碱滩区新站,,16,12,12,3,7,50,,,,7,7,3,3,0.4,0.4
2025-01-26T0500,2697A,76.1454,39.7142,克孜勒苏柯尔克孜自治州,市人民政府,颗粒物(PM10),78,105,167,30,36,60,,,,10,11,3,3,0.4,0.7
2025-01-26T0500,3665A,76.1658,39.7157,克孜勒苏柯尔克孜自治州,克州文化中心,颗粒物(PM10),73,96,123,27,31,64,,,,5,15,6,6,0.6,0.6
2025-01-26T0500,1450A,102.8204,24.8886,昆明市,呈贡新区,,22,14,26,3,25,69,,,,6,8,6,7,0.7,0.5
2025-01-26T0500,1452A,102.7252,25.0902,昆明市,龙泉镇,,21,21,26,6,18,63,,,,7,17,6,7,0.7,0.5
2025-01-26T0500,1453A,102.7266,25.0375,昆明市,东风东路,,21,9,25,9,17,66,,,,8,12,6,8,0.7,0.6
2025-01-26T0500,1454A,102.6742,25.0669,昆明市,金鼎山,,20,12,23,3,19,63,,,,7,12,7,9,0.9,0.6
2025-01-26T0500,1455A,102.6644,25.0401,昆明市,碧鸡广场,,21,,28,11,21,65,,,,7,12,5,7,0.8,0.6
2025-01-26T0500,3179A,102.7494,25.0119,昆明市,官渡区博物馆,,21,20,24,8,17,67,,,,8,13,6,7,0.8,0.6
2025-01-26T0500,3375A,102.8017,24.8336,昆明市,青年创业园,,24,14,28,7,18,75,,,,5,7,5,6,0.8,0.5
2025-01-26T0500,3550A,102.7997,24.9786,昆明市,昆明学院,,25,14,28,3,16,77,,,,8,8,3,4,0.7,0.5
2025-01-26T0500,3551A,102.5967,24.6736,昆明市,晋宁区生态环境分局,,30,30,39,9,16,66,,,,5,8,2,3,1.0,0.6
2025-01-26T0500,3552A,102.6678,24.9856,昆明市,云天化总部,,23,10,24,3,18,72,,,,6,7,5,7,0.7,0.4
2025-01-26T0500,1456A,91.1319,29.6514,拉萨市,八廓街,,28,14,33,6,9,89,,,,2,2,4,6,0.3,0.3
2025-01-26T0500,1457A,91.1221,29.6747,拉萨市,市环保局,,30,7,37,6,10,95,,,,9,13,3,4,0.4,0.5
2025-01-26T0500,1458A,91.0874,29.6475,拉萨市,区监测站,,30,14,24,6,8,96,,,,4,8,5,6,0.4,0.4
2025-01-26T0500,1459A,91.1774,29.6541,拉萨市,西藏大学,,29,13,34,6,8,92,,,,3,4,5,5,0.3,0.3
2025-01-26T0500,1460A,90.9798,29.6588,拉萨市,区辐射站,,30,13,25,6,9,93,,,,3,10,6,6,0.4,0.5
2025-01-26T0500,1461A,91.0834,29.6292,拉萨市,拉萨火车站,,33,13,22,6,9,103,,,,2,10,3,4,0.4,0.5
2025-01-26T0500,2520A,109.2203,23.7256,来宾市,来宾技工学校,,15,6,39,3,25,45,,,,8,12,5,8,0.7,0.8
2025-01-26T0500,3535A,109.1781,23.7297,来宾市,兴宾区政府,,14,6,40,3,26,44,,,,4,7,4,5,0.8,0.9
2025-01-26T0500,4002A,109.2416,23.7461,来宾市,中南小学,,14,,44,9,27,44,,,,6,13,15,17,0.8,1
2025-01-26T0500,1479A,103.831,36.0464,兰州市,铁路设计院,颗粒物(PM10),86,121,110,32,34,58,,,,27,25,9,10,1.2,0.8
2025-01-26T0500,3241A,103.7439,36.0842,兰州市,百合公园,颗粒物(PM10),82,113,105,28,28,57,,,,13,15,10,11,0.7,0.7
2025-01-26T0500,3242A,103.9611,35.998,兰州市,和平,颗粒物(PM10),83,116,118,21,26,73,,,,11,10,8,14,0.3,0.4
2025-01-26T0500,4236A,103.6293,36.0938,兰州市,庄浪东路808号,颗粒物(PM10),78,105,105,30,34,74,,,,7,14,3,5,0.4,0.4
2025-01-26T0500,4237A,103.7251,36.1043,兰州市,安宁西路88号,颗粒物(PM10),95,139,119,29,35,67,,,,12,7,11,14,0.4,0.6
2025-01-26T0500,4238A,103.8470,36.0676,兰州市,北滨河东路1号,颗粒物(PM10),87,124,113,27,33,60,,,,30,21,13,16,0.6,0.3
2025-01-26T0500,3245A,103.6633,36.533,兰州新区,新区管委会,颗粒物(PM10),82,113,107,25,34,78,,,,6,8,7,12,0.4,0.3
2025-01-26T0500,3246A,103.6975,36.4789,兰州新区,舟曲中学,颗粒物(PM10),117,184,134,25,24,72,,,,10,7,6,9,0.7,0.7
2025-01-26T0500,1067A,116.6708,39.5111,廊坊市,药材公司,细颗粒物(PM2.5),142,121,133,108,114,40,,,,28,41,3,10,0.9,1.4
2025-01-26T0500,1068A,116.7214,39.5589,廊坊市,开发区,细颗粒物(PM2.5),138,119,134,105,110,44,,,,24,39,3,9,0.9,1.3
2025-01-26T0500,1070A,116.7244,39.5269,廊坊市,北华航天学院,细颗粒物(PM2.5),127,116,134,96,102,46,,,,18,27,3,11,0.9,1.1
2025-01-26T0500,2919A,116.7022,39.5453,廊坊市,河北工业大学,细颗粒物(PM2.5),139,110,126,106,106,44,,,,20,28,4,12,0.8,1.2
2025-01-26T0500,2535A,103.7723,29.5462,乐山市,花湖湾,,28,28,27,14,18,65,,,,14,18,5,5,0.4,0.8
2025-01-26T0500,2536A,103.7627,29.5844,乐山市,牛耳桥,,17,13,18,9,15,53,,,,16,21,5,5,0.2,0.5
2025-01-26T0500,2537A,103.7508,29.6006,乐山市,市第三水厂,,21,15,19,10,13,65,,,,12,19,4,4,0.5,0.8
2025-01-26T0500,2538A,103.7571,29.5664,乐山市,市监测站,,20,14,17,9,12,61,,,,8,12,4,4,0.3,0.7
2025-01-26T0500,3361A,103.7311,29.5628,乐山市,理工大学,,18,12,17,8,13,56,,,,11,17,4,4,0.4,0.7
2025-01-26T0500,2599A,100.2497,26.8802,丽江市,丽江古城,,26,22,20,18,13,61,,,,6,8,9,9,0.6,0.8
2025-01-26T0500,2600A,100.2203,26.8906,丽江市,市中心,,20,19,14,13,9,64,,,,6,8,8,8,0.7,0.6
2025-01-26T0500,1267A,119.914,28.4514,丽水市,监测站大楼,,38,34,36,26,33,56,,,,7,8,3,4,0.4,0.4
2025-01-26T0500,1268A,119.93,28.4586,丽水市,莲都小学,,43,43,46,26,30,59,,,,5,6,4,5,0.6,0.6
2025-01-26T0500,1269A,119.879,28.4231,丽水市,余庄前,,40,30,38,28,27,14,,,,14,11,3,3,0.6,0.6
2025-01-26T0500,1173A,119.176,34.5885,连云港市,市环境监测站,细颗粒物(PM2.5),94,95,68,70,51,39,,,,39,17,13,8,1.4,0.9
2025-01-26T0500,3000A,119.3581,34.6972,连云港市,德源药业,细颗粒物(PM2.5),83,83,66,61,47,64,,,,24,22,9,7,1.4,0.7
2025-01-26T0500,3007A,119.178,34.844,连云港市,新城一中,细颗粒物(PM2.5),83,78,69,61,61,63,,,,20,24,12,12,0.9,1.1
2025-01-26T0500,3008A,119.3608,34.7519,连云港市,胡沟管理处,细颗粒物(PM2.5),79,63,56,58,43,59,,,,27,20,17,7,2.4,1
2025-01-26T0500,3009A,119.1478,34.5911,连云港市,矿山设计院,细颗粒物(PM2.5),104,110,76,78,54,61,,,,29,28,8,6,1.3,0.9
2025-01-26T0500,3434A,119.2413,34.6539,连云港市,工贸学校,细颗粒物(PM2.5),100,94,73,75,57,56,,,,19,17,12,9,1.2,0.8
2025-01-26T0500,3664A,119.4172,34.7341,连云港市,连云街道,细颗粒物(PM2.5),75,74,68,55,46,57,,,,26,26,8,8,1.0,0.8
2025-01-26T0500,2571A,102.3431,27.8099,凉山彝族自治州,青龙寺,,28,9,17,3,5,88,,,,3,4,6,6,0.7,0.8
2025-01-26T0500,2572A,102.2721,27.8415,凉山彝族自治州,邛海宾馆,,28,10,20,6,12,89,,,,3,7,7,7,0.7,0.9
2025-01-26T0500,2573A,102.2625,27.898,凉山彝族自治州,西昌市政府,,27,12,21,3,12,86,,,,5,8,7,8,0.6,0.9
2025-01-26T0500,2574A,102.2685,27.8851,凉山彝族自治州,凉山州政府,,26,10,18,3,12,83,,,,5,8,7,8,0.7,0.9
2025-01-26T0500,2575A,102.237,27.8914,凉山彝族自治州,长安,,29,10,18,6,12,92,,,,5,9,6,8,0.3,0.9
2025-01-26T0500,2212A,123.2,41.1953,辽阳市,宏伟区,细颗粒物(PM2.5),120,99,108,91,96,25,,,,39,40,10,12,1.5,1.3
2025-01-26T0500,2213A,123.1683,41.2495,辽阳市,新华园,细颗粒物(PM2.5),142,130,126,108,109,6,,,,61,56,23,20,2.5,2
2025-01-26T0500,2214A,123.2354,41.2639,辽阳市,滨河路,细颗粒物(PM2.5),113,99,111,85,98,20,,,,40,45,10,14,1.5,1.4
2025-01-26T0500,2215A,123.149,41.2991,辽阳市,铁西工业园,细颗粒物(PM2.5),219,169,121,169,103,9,,,,52,47,8,10,2.6,1.3
2025-01-26T0500,2227A,125.1358,42.8845,辽源市,环保局,颗粒物(PM10),68,86,100,46,64,26,,,,29,40,16,17,1.3,1.7
2025-01-26T0500,3239A,125.0764,42.9078,辽源市,银鹰制药,细颗粒物(PM2.5),82,78,84,60,69,31,,,,17,32,9,9,1.3,1.5
2025-01-26T0500,1625A,115.9848,36.4372,聊城市,区政府,细颗粒物(PM2.5),89,75,83,66,59,55,,,,14,19,9,16,1.3,1.3
2025-01-26T0500,2878A,116.0072,36.4343,聊城市,聊大东校,细颗粒物(PM2.5),105,88,91,79,65,51,,,,16,22,4,12,1.0,1.1
2025-01-26T0500,3200A,115.9819,36.4978,聊城市,监控中心,细颗粒物(PM2.5),98,83,91,73,63,52,,,,14,17,9,16,1.0,0.9
2025-01-26T0500,3513A,116.0445,36.4361,聊城市,九州社区,细颗粒物(PM2.5),98,80,81,73,61,54,,,,16,21,7,15,0.7,0.8
2025-01-26T0500,4018A,116.0567,36.4608,聊城市,星美广场,细颗粒物(PM2.5),105,89,92,79,64,47,,,,17,21,10,18,0.7,0.7
2025-01-26T0500,2632A,94.3681,29.6376,林芝市,林芝监测站,,22,18,16,9,10,70,,,,1,2,6,6,0.2,0.2
2025-01-26T0500,2633A,94.3616,29.6616,林芝市,林芝人民医院,,23,23,20,9,9,61,,,,1,1,6,6,0.3,0.3
2025-01-26T0500,2603A,100.0781,23.8982,临沧市,市环保局,,39,36,35,27,25,42,,,,11,11,7,8,0.5,0.5
2025-01-26T0500,2604A,100.0894,23.8822,临沧市,市气象局,,46,33,34,32,29,44,,,,9,11,7,7,0.3,0.3
2025-01-26T0500,1733A,111.5531,36.0783,临汾市,临钢医院,颗粒物(PM10),102,154,91,19,32,69,,,,3,13,6,7,0.2,0.9
2025-01-26T0500,1734A,111.5028,36.0714,临汾市,技工学校,颗粒物(PM10),96,141,84,24,44,67,,,,1,12,4,5,0.3,0.9
2025-01-26T0500,1736A,111.5018,36.0855,临汾市,市委,颗粒物(PM10),105,159,97,15,36,68,,,,4,14,2,4,0.4,1.1
2025-01-26T0500,3018A,111.505,36.1014,临汾市,唐尧大酒店,颗粒物(PM10),97,144,96,25,39,67,,,,1,11,4,6,0.1,0.7
2025-01-26T0500,4244A,111.4879,36.0530,临汾市,启星学校,颗粒物(PM10),94,138,80,19,40,70,,,,1,10,3,2,0.4,1.1
2025-01-26T0500,2667A,103.2069,35.5993,临夏回族自治州,环保局,颗粒物(PM10),55,60,72,13,16,62,,,,6,11,7,8,0.4,0.6
2025-01-26T0500,2668A,103.2417,35.6057,临夏回族自治州,建设大厦,颗粒物(PM10),68,86,94,29,23,63,,,,5,9,12,12,0.5,0.5
2025-01-26T0500,1618A,118.3429,35.0532,临沂市,沂河小区,细颗粒物(PM2.5),65,51,90,47,66,75,,,,15,21,11,13,0.6,0.8
2025-01-26T0500,1619A,118.295,35.0583,临沂市,鲁南制药厂,,50,46,91,35,61,78,,,,10,23,9,11,0.4,0.6
2025-01-26T0500,1620A,118.2794,34.9976,临沂市,新光毛纺厂,细颗粒物(PM2.5),57,48,78,40,58,78,,,,17,23,10,11,0.6,0.8
2025-01-26T0500,1621A,118.3956,35.0888,临沂市,河东保险公司,细颗粒物(PM2.5),68,66,92,49,68,64,,,,15,21,6,9,1.1,1.1
2025-01-26T0500,3370A,118.3564,35.0215,临沂市,十里堡居委,细颗粒物(PM2.5),58,46,83,41,61,75,,,,14,20,10,12,0.8,1
2025-01-26T0500,3496A,118.3604,35.1084,临沂市,南坊新区,细颗粒物(PM2.5),52,51,83,36,65,74,,,,17,25,7,9,0.6,0.8
2025-01-26T0500,3860A,118.3920,35.0300,临沂市,皇山花园小区,细颗粒物(PM2.5),54,53,88,38,59,67,,,,14,22,7,9,0.6,0.8
2025-01-26T0500,1870A,109.4856,24.3895,柳州市,柳东小学,,29,,56,20,69,50,,,,11,20,9,10,0.9,1.2
2025-01-26T0500,1871A,109.4157,24.3277,柳州市,环保监测站,,17,6,40,3,28,54,,,,10,18,9,9,0.9,1.2
2025-01-26T0500,1872A,109.389,24.341,柳州市,河西水厂,,35,35,53,16,37,34,,,,25,29,17,14,1.8,2.1
2025-01-26T0500,1873A,109.4311,24.2921,柳州市,市四中,,18,,39,11,30,55,,,,9,16,6,7,0.8,1.1
2025-01-26T0500,1874A,109.4006,24.3631,柳州市,市九中,,14,11,42,3,31,44,,,,18,19,6,7,0.9,1.2
2025-01-26T0500,1875A,109.4958,24.3134,柳州市,古亭山,,16,7,44,6,34,50,,,,5,16,10,13,0.7,1.1
2025-01-26T0500,3402A,109.5422,24.3996,柳州市,市二中,,21,21,52,3,44,39,,,,10,18,8,9,1.0,1.3
2025-01-26T0500,2307A,116.5079,31.737,六安市,监测大楼,,40,31,28,28,22,53,,,,8,8,3,4,0.7,0.6
2025-01-26T0500,2308A,116.4738,31.7643,六安市,皖西学院,,39,39,32,22,22,53,,,,17,16,3,3,0.8,0.6
2025-01-26T0500,2309A,116.4996,31.7905,六安市,朝阳厂,,42,39,29,29,24,50,,,,9,11,3,2,0.6,0.4
2025-01-26T0500,2310A,116.5567,31.7886,六安市,开发区,细颗粒物(PM2.5),53,48,34,37,25,54,,,,16,14,2,3,0.9,0.7
2025-01-26T0500,2577A,104.83,26.5917,六盘水市,黄土坡,,28,10,16,3,11,87,,,,4,9,8,10,0.6,0.9
2025-01-26T0500,2578A,104.89,26.5939,六盘水市,水钢,,24,16,18,3,11,76,,,,14,18,7,11,0.5,1.1
2025-01-26T0500,2579A,104.8475,26.5894,六盘水市,民中,,27,6,13,3,8,84,,,,4,9,9,9,0.5,0.8
2025-01-26T0500,2580A,104.9544,26.5506,六盘水市,双水,,28,9,14,6,11,87,,,,1,5,6,8,0.6,0.8
2025-01-26T0500,2336A,117.0217,25.1033,龙岩市,龙岩市监测站,,48,41,29,33,24,66,,,,25,23,6,4,0.5,0.6
2025-01-26T0500,2337A,117.0258,25.0661,龙岩市,闽西职业技术学院,,39,34,27,27,21,71,,,,12,14,4,3,0.5,0.4
2025-01-26T0500,2338A,117.0196,25.0306,龙岩市,龙岩学院,,32,23,25,22,19,51,,,,12,12,4,5,0.4,0.5
2025-01-26T0500,2885A,104.9339,33.3826,陇南市,滨江中学,颗粒物(PM10),61,71,96,26,29,74,,,,2,6,3,18,0.5,0.6
2025-01-26T0500,3247A,104.955,33.371,陇南市,市总工会,颗粒物(PM10),66,82,99,23,26,78,,,,3,7,4,9,0.5,0.5
2025-01-26T0500,2488A,111.9975,27.725,娄底市,市监测站,,28,13,10,13,8,88,,,,8,15,8,9,0.4,0.6
2025-01-26T0500,2489A,112.0194,27.7314,娄底市,市委党校,,29,,10,14,10,90,,,,11,23,3,4,0.4,0.6
2025-01-26T0500,2490A,111.9561,27.7569,娄底市,涟钢,,28,18,12,15,11,87,,,,16,12,1,2,1.2,0.6
2025-01-26T0500,2491A,111.9892,27.7044,娄底市,市政府,,29,12,11,11,9,91,,,,11,16,4,5,0.5,0.7
2025-01-26T0500,1894A,105.4427,28.9063,泸州市,小市上码头,,35,32,26,24,22,56,,,,10,16,2,2,0.5,0.7
2025-01-26T0500,1895A,105.4241,28.8573,泸州市,兰田宪桥,,30,30,23,16,24,48,,,,8,13,2,2,0.8,1
2025-01-26T0500,1896A,105.4379,28.8833,泸州市,市环监站,,30,30,24,21,18,57,,,,8,16,4,5,0.5,0.7
2025-01-26T0500,3490A,105.3617,28.7703,泸州市,纳溪区环保局,,35,32,29,24,21,43,,,,12,9,5,4,0.6,0.8
2025-01-26T0500,2183A,111.1406,37.5211,吕梁市,环保局,颗粒物(PM10),128,206,118,40,40,59,,,,8,13,3,2,0.2,0.4
2025-01-26T0500,2185A,111.1297,37.5136,吕梁市,自来水公司,颗粒物(PM10),123,196,117,33,42,59,,,,10,17,3,4,0.2,0.4
2025-01-26T0500,2867A,111.1283,37.51,吕梁市,马茂庄小学,颗粒物(PM10),132,213,124,35,41,62,,,,11,15,6,5,0.2,0.4
2025-01-26T0500,1812A,112.3931,34.6516,洛阳市,市委党校,颗粒物(PM10),71,91,72,19,63,67,,,,2,17,2,2,0.7,1.2
2025-01-26T0500,1815A,112.494,34.6886,洛阳市,河南林校,颗粒物(PM10),75,100,66,22,69,60,,,,8,27,2,2,0.3,0.9
2025-01-26T0500,1816A,112.3844,34.623,洛阳市,开发区管委会,颗粒物(PM10),70,89,79,24,68,72,,,,4,23,3,4,0.4,0.9
2025-01-26T0500,1817A,112.4267,34.6258,洛阳市,市委新办公区,颗粒物(PM10),73,96,83,27,66,67,,,,6,20,3,2,0.3,0.8
2025-01-26T0500,3340A,112.6005,34.6326,洛阳市,伊滨,颗粒物(PM10),76,101,85,18,65,68,,,,4,10,3,3,0.8,1.3
2025-01-26T0500,3341A,112.4951,34.6332,洛阳市,中移产业园,颗粒物(PM10),72,93,64,25,60,73,,,,8,24,3,2,0.4,1
2025-01-26T0500,3593A,112.5736,34.8993,洛阳市,吉利监测站,颗粒物(PM10),77,104,88,20,73,63,,,,5,21,4,5,0.1,0.6
2025-01-26T0500,3635A,112.3677,34.662,洛阳市,河科大西苑校区,颗粒物(PM10),77,103,73,22,61,70,,,,8,23,2,2,0.5,1
2025-01-26T0500,3636A,112.4388,34.6781,洛阳市,英才小学,颗粒物(PM10),76,102,71,24,58,62,,,,4,18,8,8,0.4,0.9
2025-01-26T0500,4214A,112.4600,34.6949,洛阳市,春都路1号院,颗粒物(PM10),81,112,80,22,62,60,,,,16,35,7,6,0.5,1.1
2025-01-26T0500,2399A,114.051,33.5699,漯河市,三五一五工厂,,49,42,100,34,100,59,,,,5,17,3,3,0.5,0.9
2025-01-26T0500,2400A,114.0055,33.5698,漯河市,漯河大学,颗粒物(PM10),51,52,89,24,92,58,,,,9,20,4,4,0.4,0.9
2025-01-26T0500,2401A,114.0138,33.5828,漯河市,市水利局,,41,41,92,22,93,57,,,,7,18,2,2,0.4,0.8
2025-01-26T0500,2402A,114.0261,33.5698,漯河市,市广电局,细颗粒物(PM2.5),60,,92,43,96,60,,,,4,16,2,4,0.5,0.9
2025-01-26T0500,3478A,113.9749,33.5664,漯河市,市图书馆,颗粒物(PM10),51,52,104,23,95,60,,,,13,24,2,2,0.6,1.1
2025-01-26T0500,3479A,114.0967,33.5906,漯河市,召陵区卫健委,细颗粒物(PM2.5),73,69,107,53,98,56,,,,4,14,1,1,0.5,0.9
2025-01-26T0500,1798A,118.5092,31.6837,马鞍山市,湖东路四小,细颗粒物(PM2.5),67,57,36,48,20,68,,,,14,13,3,3,0.9,0.6
2025-01-26T0500,1799A,118.5024,31.6449,马鞍山市,开发区,细颗粒物(PM2.5),74,60,37,54,21,72,,,,15,20,6,6,0.9,0.4
2025-01-26T0500,1802A,118.6245,31.7241,马鞍山市,濮塘,细颗粒物(PM2.5),72,,34,52,22,76,,,,5,2,4,4,0.7,0.5
2025-01-26T0500,3633A,118.4918,31.6809,马鞍山市,雨山,细颗粒物(PM2.5),69,63,38,50,22,69,,,,18,13,5,5,1.1,0.7
2025-01-26T0500,4191A,118.5274,31.72227,马鞍山市,慈湖高新区,细颗粒物(PM2.5),72,66,36,52,23,68,,,,12,11,7,8,0.9,0.6
2025-01-26T0500,1686A,111.0286,21.4688,茂名市,电白南海,,39,39,44,19,17,58,,,,13,12,12,6,0.5,0.4
2025-01-26T0500,1687A,110.9294,21.6533,茂名市,茂石化七小,颗粒物(PM10),52,53,41,31,18,52,,,,11,10,16,8,0.5,0.4
2025-01-26T0500,1688A,110.9107,21.6687,茂名市,健康路,,48,48,37,31,21,42,,,,15,10,18,8,0.6,0.6
2025-01-26T0500,1689A,110.8592,21.6828,茂名市,高岭,颗粒物(PM10),52,53,46,22,16,43,,,,13,13,7,8,0.7,0.6
2025-01-26T0500,3450A,111.01,21.5165,茂名市,电白水东,,39,39,36,22,15,55,,,,11,7,12,6,0.7,0.6
2025-01-26T0500,2540A,103.8416,30.0874,眉山市,气象局,,39,35,37,27,34,50,,,,9,14,4,5,0.7,1
2025-01-26T0500,3137A,103.8578,30.0744,眉山市,市委党校,,32,27,31,22,25,54,,,,10,20,2,3,0.7,0.9
2025-01-26T0500,3148A,103.8291,30.0564,眉山市,区人社局,,37,37,33,17,27,54,,,,17,23,3,5,0.7,1
2025-01-26T0500,1690A,116.1231,24.3284,梅州市,梅江月梅,,39,31,31,27,24,77,,,,11,11,8,9,0.4,0.4
2025-01-26T0500,1691A,116.0797,24.2719,梅州市,梅县新城,,33,26,37,23,26,77,,,,10,15,5,4,0.5,0.5
2025-01-26T0500,1692A,116.1248,24.2654,梅州市,环境监控中心,,35,31,34,24,26,71,,,,7,14,6,6,0.5,0.5
2025-01-26T0500,3315A,116.1233,24.2991,梅州市,梅龙,,39,39,35,25,24,79,,,,12,15,6,9,0.7,0.7
2025-01-26T0500,1878A,104.7778,31.4741,绵阳市,富乐山,颗粒物(PM10),70,90,54,23,20,69,,,,9,10,1,2,0.3,0.4
2025-01-26T0500,1880A,104.6697,31.4668,绵阳市,高新区自来水公司,颗粒物(PM10),90,130,70,17,21,79,,,,10,17,2,2,0.2,0.3
2025-01-26T0500,1881A,104.7287,31.5075,绵阳市,三水厂,颗粒物(PM10),80,109,62,23,23,83,,,,6,10,1,2,0.2,0.3
2025-01-26T0500,3491A,104.69,31.5322,绵阳市,西科大附属小学,,,108,55,22,19,,,,,6,8,5,5,0.3,0.4
2025-01-26T0500,3492A,104.5648,31.5343,绵阳市,安州区旅游局,颗粒物(PM10),86,122,69,19,22,84,,,,3,11,8,8,0.5,0.7
2025-01-26T0500,4226A,104.7651,31.4531,绵阳市,绵阳市气象局,颗粒物(PM10),83,115,64,22,20,82,,,,4,8,5,6,0.3,0.3
2025-01-26T0500,1784A,129.61,44.561,牡丹江市,环保大楼,细颗粒物(PM2.5),67,74,86,48,58,16,,,,37,43,7,10,0.9,1
2025-01-26T0500,1785A,129.6115,44.5782,牡丹江市,文化广场,细颗粒物(PM2.5),87,113,109,64,68,9,,,,45,48,7,11,1.1,1.2
2025-01-26T0500,1786A,129.5904,44.5963,牡丹江市,第一医院,细颗粒物(PM2.5),84,80,101,62,86,20,,,,36,43,8,10,1.0,1.1
2025-01-26T0500,1787A,129.6364,44.6075,牡丹江市,机车工厂,细颗粒物(PM2.5),109,95,97,82,56,9,,,,40,44,7,10,1.0,1.1
2025-01-26T0500,1788A,129.6386,44.5462,牡丹江市,第一中学,,31,31,59,21,42,20,,,,24,29,6,9,0.8,0.9
2025-01-26T0500,2531A,105.0703,29.61,内江市,市监测站,,38,38,22,22,20,64,,,,8,18,4,6,1.4,1.5
2025-01-26T0500,2532A,105.0717,29.5947,内江市,东兴区政府,,49,49,33,19,19,69,,,,12,23,3,2,0.1,0.4
2025-01-26T0500,2533A,105.0653,29.5817,内江市,内江二中,颗粒物(PM10),53,55,37,15,17,70,,,,8,20,7,7,0.5,0.8
2025-01-26T0500,2628A,92.0657,31.4846,那曲市,那曲监测站,,28,28,24,3,0,57,,,,10,9,11,9,1.5,1
2025-01-26T0500,3128A,92.0506,31.4797,那曲市,那曲会议中心,,17,14,22,3,8,52,,,,3,2,2,2,1.4,1.1
2025-01-26T0500,1290A,115.8931,28.6843,南昌市,省外办,,19,,28,7,26,58,,,,2,4,3,3,0.5,0.6
2025-01-26T0500,1291A,115.8886,28.7003,南昌市,省林业公司,,18,,20,7,23,57,,,,5,12,6,6,0.4,0.5
2025-01-26T0500,1292A,115.8126,28.7442,南昌市,林科所,,20,6,14,3,16,62,,,,9,19,6,5,0.6,0.8
2025-01-26T0500,1294A,115.8518,28.687,南昌市,建工学校,,32,,28,22,30,59,,,,10,18,8,8,0.7,0.8
2025-01-26T0500,1295A,115.8921,28.6424,南昌市,象湖,,20,6,21,3,22,62,,,,11,15,5,5,0.8,0.9
2025-01-26T0500,1296A,115.7423,28.7996,南昌市,武术学校,,15,15,21,9,12,42,,,,10,14,3,4,0.4,0.4
2025-01-26T0500,3046A,115.9084,28.6062,南昌市,机电学校,,19,6,27,3,22,58,,,,6,13,9,10,0.6,0.7
2025-01-26T0500,3690A,115.9721,28.7031,南昌市,外国语学校,,16,,27,9,23,50,,,,11,12,4,4,0.5,0.5
2025-01-26T0500,4192A,115.9316,28.68677,南昌市,南京东路235号,,19,7,30,3,23,58,,,,10,17,2,3,0.5,0.6
2025-01-26T0500,1905A,106.056,30.8064,南充市,西山风景区,颗粒物(PM10),68,85,28,17,16,72,,,,1,6,3,3,0.1,0.4
2025-01-26T0500,1906A,106.0789,30.8023,南充市,南充市委,,30,30,19,12,13,58,,,,10,16,2,2,0.3,0.6
2025-01-26T0500,1907A,106.1031,30.8217,南充市,南充炼油厂,颗粒物(PM10),75,100,33,24,20,64,,,,7,15,3,3,0.3,0.6
2025-01-26T0500,1909A,106.0642,30.7636,南充市,嘉陵区环保局,颗粒物(PM10),80,109,38,22,20,68,,,,9,20,2,2,0.4,0.8
2025-01-26T0500,1910A,106.1087,30.8388,南充市,市环境监测站,颗粒物(PM10),67,83,38,27,22,56,,,,9,13,5,5,0.4,0.7
2025-01-26T0500,4227A,106.1083,30.7884,南充市,梨树横街98号,,31,31,17,19,19,62,,,,10,17,2,2,0.5,0.8
2025-01-26T0500,1151A,118.8086,32.1065,南京市,迈皋桥,细颗粒物(PM2.5),62,58,35,44,21,83,,,,18,23,4,5,0.7,0.4
2025-01-26T0500,1152A,118.7538,32.0551,南京市,草场门,细颗粒物(PM2.5),73,58,35,53,22,72,,,,12,14,5,6,0.6,0.4
2025-01-26T0500,1153A,118.7794,32.0745,南京市,山西路,细颗粒物(PM2.5),67,63,38,48,22,89,,,,2,2,3,4,0.5,0.3
2025-01-26T0500,1154A,118.7752,32.0023,南京市,中华门,细颗粒物(PM2.5),58,51,32,41,21,70,,,,14,18,8,8,0.6,0.6
2025-01-26T0500,1155A,118.8109,32.0309,南京市,瑞金路,细颗粒物(PM2.5),58,61,35,41,20,76,,,,8,13,7,6,0.7,0.5
2025-01-26T0500,1156A,118.7997,32.0754,南京市,玄武湖,细颗粒物(PM2.5),62,64,39,44,17,77,,,,12,15,7,7,0.8,0.7
2025-01-26T0500,1157A,118.6414,32.0931,南京市,浦口,细颗粒物(PM2.5),69,74,39,50,22,74,,,,10,12,5,6,0.6,0.4
2025-01-26T0500,1159A,118.9125,32.1028,南京市,仙林大学城,细颗粒物(PM2.5),64,58,40,46,21,76,,,,11,12,6,6,0.8,0.6
2025-01-26T0500,3422A,118.8436,31.9198,南京市,江宁彩虹桥,颗粒物(PM10),58,66,39,36,18,81,,,,5,7,4,4,0.7,0.5
2025-01-26T0500,3423A,119.0138,31.6494,南京市,溧水永阳,细颗粒物(PM2.5),69,,31,50,24,77,,,,9,10,3,4,0.7,0.5
2025-01-26T0500,3427A,118.8554,32.3578,南京市,六合雄州,细颗粒物(PM2.5),67,77,43,48,19,64,,,,1,2,2,3,0.7,0.4
2025-01-26T0500,4249A,118.8708,31.3402,南京市,汶溪路181号,细颗粒物(PM2.5),54,47,37,38,23,82,,,,2,4,9,11,0.4,0.4
2025-01-26T0500,1401A,108.3103,22.7881,南宁市,二十一中,,10,,36,3,20,32,,,,15,15,4,4,1.0,0.9
2025-01-26T0500,1402A,108.3141,22.8528,南宁市,北湖,,12,,31,8,22,30,,,,10,13,5,4,1.1,0.9
2025-01-26T0500,1403A,108.3206,22.8225,南宁市,市监测站,,16,,34,11,21,31,,,,8,11,7,6,1.0,0.8
2025-01-26T0500,1405A,108.4394,22.7904,南宁市,仙葫,,12,12,29,3,17,37,,,,11,7,3,3,0.8,0.7
2025-01-26T0500,1406A,108.2397,22.8467,南宁市,区农职院,,12,,33,8,19,32,,,,12,15,5,5,1.0,0.8
2025-01-26T0500,1407A,108.3275,22.735,南宁市,英华嘉园,,15,,34,10,17,33,,,,11,11,5,5,0.9,0.9
2025-01-26T0500,3401A,108.4834,22.7618,南宁市,红星社区,,32,32,34,7,19,48,,,,11,11,7,8,0.9,0.9
2025-01-26T0500,4221A,108.2177,22.7774,南宁市,乐贤路16号,,,,43,11,25,33,,,,4,13,5,4,1.0,0.9
2025-01-26T0500,2332A,118.1681,26.6369,南平市,南平市监测站,,34,34,31,21,20,68,,,,8,12,3,4,0.4,0.5
2025-01-26T0500,2333A,118.1825,26.6489,南平市,南平铝业有限公司,,42,30,27,29,22,58,,,,10,13,4,4,0.5,0.5
2025-01-26T0500,2334A,118.1756,26.6272,南平市,南平七中,,33,28,26,23,20,54,,,,7,10,4,7,0.6,0.7
2025-01-26T0500,1168A,120.9098,31.9663,南通市,狼山街道,,36,36,34,23,16,81,,,,7,7,6,6,0.6,0.5
2025-01-26T0500,1169A,120.86,32.0005,南通市,虹桥,,36,36,29,22,17,79,,,,8,9,4,4,0.6,0.5
2025-01-26T0500,1170A,120.87,32.02,南通市,城中,,38,38,38,19,15,80,,,,14,15,5,6,0.4,0.3
2025-01-26T0500,1171A,120.94,31.93,南通市,星湖花园,,33,33,31,19,16,82,,,,9,11,6,5,0.5,0.4
2025-01-26T0500,1172A,120.81,32.0417,南通市,紫琅学院,,31,31,30,16,13,77,,,,11,12,3,2,0.4,0.4
2025-01-26T0500,3291A,121.067,32.062,南通市,通州监测站,,32,29,34,22,16,88,,,,9,11,3,3,0.6,0.5
2025-01-26T0500,3432A,120.9348,31.9883,南通市,环境教育馆,,36,36,34,23,20,91,,,,4,5,4,4,0.3,0.3
2025-01-26T0500,2404A,112.5224,33.0122,南阳市,瓦房庄,细颗粒物(PM2.5),78,60,63,57,65,49,,,,14,17,4,5,0.9,0.9
2025-01-26T0500,2405A,112.5003,32.9735,南阳市,汉画馆,细颗粒物(PM2.5),72,53,58,52,57,53,,,,12,18,5,5,1.0,1
2025-01-26T0500,2406A,112.5573,33.027,南阳市,气象站,细颗粒物(PM2.5),77,64,63,56,59,41,,,,16,15,6,5,1.0,0.8
2025-01-26T0500,2407A,112.5481,32.9689,南阳市,理工学院,细颗粒物(PM2.5),74,57,58,54,59,51,,,,13,16,5,5,1.0,1
2025-01-26T0500,4008A,112.5234,32.9922,南阳市,卧龙区政府,细颗粒物(PM2.5),73,53,59,53,59,46,,,,8,14,4,4,1.0,1
2025-01-26T0500,1234A,121.8358,29.911,宁波市,区环保大楼,,30,28,38,16,19,94,,,,12,26,6,7,0.5,0.5
2025-01-26T0500,1235A,121.56,29.82,宁波市,万里学院,,45,45,37,23,17,91,,,,18,23,6,7,0.6,0.6
2025-01-26T0500,1236A,121.713,29.9572,宁波市,龙赛医院,,33,33,35,17,16,91,,,,23,26,9,9,0.7,0.6
2025-01-26T0500,1239A,121.633,29.7733,宁波市,钱湖水厂,,34,34,35,19,17,93,,,,17,18,6,7,0.9,0.9
2025-01-26T0500,1240A,121.5856,29.8635,宁波市,太古小学,,44,44,40,18,15,92,,,,17,22,9,10,0.5,0.4
2025-01-26T0500,1241A,121.524,29.8674,宁波市,市环境监测中心,颗粒物(PM10),51,52,43,19,15,93,,,,12,20,6,8,0.7,0.7
2025-01-26T0500,2871A,121.6147,29.9017,宁波市,万里国际学校,,40,40,37,17,13,92,,,,20,24,8,9,0.7,0.6
2025-01-26T0500,3710A,121.5594,29.8975,宁波市,白沙活动中心,,39,39,34,18,15,93,,,,12,18,6,8,0.6,0.6
2025-01-26T0500,2341A,119.5388,26.6612,宁德市,宁德市监测站,,35,31,35,24,23,89,,,,8,9,3,3,0.2,0.2
2025-01-26T0500,3209A,119.5231,26.6562,宁德市,宁德一中,,36,36,35,21,21,93,,,,8,9,3,3,0.2,0.2
2025-01-26T0500,2618A,98.8601,25.8567,怒江傈僳族自治州,州监测站,细颗粒物(PM2.5),58,53,49,41,33,24,,,,14,16,5,4,0.7,0.6
2025-01-26T0500,2619A,98.8546,25.8417,怒江傈僳族自治州,泸水一中,细颗粒物(PM2.5),72,56,43,52,35,15,,,,15,19,6,6,0.6,0.6
2025-01-26T0500,1888A,101.6891,26.571,攀枝花市,弄弄坪,颗粒物(PM10),51,51,72,8,34,60,,,,9,26,23,46,0.9,1.5
2025-01-26T0500,1889A,101.5769,26.5928,攀枝花市,河门口,,38,38,48,9,24,60,,,,13,22,17,25,1.2,1.2
2025-01-26T0500,1890A,101.7169,26.585,攀枝花市,炳草岗,,26,26,56,6,25,64,,,,7,23,20,38,0.8,0.9
2025-01-26T0500,1891A,101.7369,26.5008,攀枝花市,仁和,,22,7,37,3,23,68,,,,8,17,5,8,0.8,0.7
2025-01-26T0500,2835A,101.7227,26.567,攀枝花市,四十中小,,42,42,54,12,24,61,,,,8,27,21,41,1.0,1.3
2025-01-26T0500,1604A,122.0303,41.1489,盘锦市,开发区,细颗粒物(PM2.5),87,79,89,64,76,47,,,,18,21,10,8,0.9,0.9
2025-01-26T0500,1605A,122.0485,41.0883,盘锦市,兴隆台,细颗粒物(PM2.5),97,84,81,72,66,40,,,,27,24,10,10,1.0,0.9
2025-01-26T0500,1606A,121.8297,41.1028,盘锦市,新生街道,细颗粒物(PM2.5),80,62,83,59,76,8,,,,60,39,11,13,1.1,0.9
2025-01-26T0500,1832A,113.3257,33.742,平顶山市,新华旅馆,颗粒物(PM10),86,122,91,25,61,73,,,,2,12,3,2,0.2,0.7
2025-01-26T0500,1833A,113.2919,33.737,平顶山市,规划设计院,颗粒物(PM10),74,97,89,22,71,75,,,,2,10,4,4,0.5,0.9
2025-01-26T0500,1834A,113.182,33.774,平顶山市,平顶山工学院,颗粒物(PM10),78,106,88,24,63,73,,,,2,14,6,5,0.3,0.8
2025-01-26T0500,3204A,113.3025,33.73,平顶山市,规划局,颗粒物(PM10),85,119,81,36,71,70,,,,2,12,2,1,0.4,1.2
2025-01-26T0500,3594A,112.8867,33.9116,平顶山市,石龙区,颗粒物(PM10),87,124,77,24,57,75,,,,4,11,3,4,0.2,0.7
2025-01-26T0500,2656A,106.6692,35.5461,平凉市,聚贤嘉苑,颗粒物(PM10),90,129,96,20,22,93,,,,13,14,14,6,0.4,0.5
2025-01-26T0500,2657A,106.7021,35.5307,平凉市,博物馆,颗粒物(PM10),94,137,108,21,21,86,,,,7,8,8,8,0.7,0.6
2025-01-26T0500,2347A,114.0997,27.5002,萍乡市,武功山,,13,,10,9,12,40,,,,8,14,13,13,0.8,1
2025-01-26T0500,2348A,113.8385,27.6434,萍乡市,中医院,,17,17,17,9,13,39,,,,1,10,5,5,0.9,1.2
2025-01-26T0500,2349A,113.8493,27.6253,萍乡市,市政府车库,,19,13,13,13,11,34,,,,10,14,6,6,1.1,0.8
2025-01-26T0500,2350A,113.8676,27.6435,萍乡市,市环保局,,13,13,15,8,12,37,,,,10,18,6,7,1.0,1.1
2025-01-26T0500,2351A,113.866,27.6198,萍乡市,安源区政府,,13,13,11,3,11,30,,,,7,12,11,9,0.9,0.9
2025-01-26T0500,2319A,119.0141,25.4325,莆田市,荔城区仓后路,,37,37,35,25,18,104,,,,5,6,2,2,0.4,0.4
2025-01-26T0500,2320A,119.0015,25.4553,莆田市,莆田市监测站,,39,39,30,23,17,108,,,,4,4,3,3,0.4,0.4
2025-01-26T0500,2321A,119.1119,25.4561,莆田市,涵江区六中,,41,41,34,24,17,105,,,,6,6,2,2,0.5,0.4
2025-01-26T0500,2322A,119.1013,25.3215,莆田市,秀屿区政府,,45,45,36,27,22,103,,,,7,7,3,3,0.5,0.5
2025-01-26T0500,2392A,115.0312,35.7636,濮阳市,环保局,细颗粒物(PM2.5),73,53,72,53,72,60,,,,15,20,1,3,0.8,0.9
2025-01-26T0500,2394A,115.0574,35.7609,濮阳市,油田运输公司,细颗粒物(PM2.5),70,58,90,51,72,61,,,,12,16,3,3,1.0,1
2025-01-26T0500,3021A,115,35.7668,濮阳市,濮水河管理处,细颗粒物(PM2.5),74,54,91,54,73,55,,,,12,16,2,4,1.1,1.1
2025-01-26T0500,4216A,115.0924,35.7686,濮阳市,任丘路479号,细颗粒物(PM2.5),77,59,94,56,76,66,,,,6,13,3,6,0.7,1.2
2025-01-26T0500,2601A,100.98,22.7633,普洱市,市环保局,,29,29,41,18,15,41,,,,5,8,6,6,0.5,0.5
2025-01-26T0500,2602A,100.9817,22.8322,普洱市,普洱第二中学,,30,30,38,21,18,13,,,,24,22,3,4,0.5,0.5
2025-01-26T0500,2262A,131.0518,45.8751,七台河市,新一中,细颗粒物(PM2.5),70,,95,51,73,66,,,,20,27,10,13,2.1,2.2
2025-01-26T0500,3345A,131.0577,45.7879,七台河市,中波台,细颗粒物(PM2.5),139,125,123,106,109,26,,,,50,61,4,12,1.9,1.5
2025-01-26T0500,3637A,131.0176,45.7761,七台河市,人民广场,细颗粒物(PM2.5),140,154,169,107,116,26,,,,76,75,6,12,1.0,0.6
2025-01-26T0500,3684A,130.8781,45.8222,七台河市,新建矿广场,细颗粒物(PM2.5),137,144,159,104,121,5,,,,83,63,25,13,1.2,1.1
2025-01-26T0500,1779A,123.9305,47.3636,齐齐哈尔市,安居小区,细颗粒物(PM2.5),260,216,213,210,212,43,,,,46,56,4,4,1.5,1.6
2025-01-26T0500,1780A,123.9488,47.3386,齐齐哈尔市,中心广场,细颗粒物(PM2.5),251,260,239,201,188,49,,,,46,58,3,4,1.5,1.5
2025-01-26T0500,1781A,123.9483,47.3227,齐齐哈尔市,农牧车辆厂,细颗粒物(PM2.5),228,205,183,178,153,48,,,,46,57,5,9,1.4,1.3
2025-01-26T0500,1783A,123.945,47.2988,齐齐哈尔市,市环境监测站,细颗粒物(PM2.5),253,224,209,203,180,58,,,,37,52,3,3,1.6,1.4
2025-01-26T0500,3662A,123.6333,47.2075,齐齐哈尔市,富区青少年活动中心,细颗粒物(PM2.5),202,217,246,152,193,56,,,,27,39,6,9,2.0,2.1
2025-01-26T0500,2591A,107.9783,26.5747,黔东南苗族侗族自治州,市环境监测站,,25,10,15,10,14,80,,,,6,9,2,2,0.4,0.7
2025-01-26T0500,2881A,107.8908,26.5311,黔东南苗族侗族自治州,凯里学院,,23,,7,10,16,73,,,,3,7,2,3,0.5,0.8
2025-01-26T0500,2593A,107.5228,26.2403,黔南布依族苗族自治州,小围寨,,13,6,7,3,7,40,,,,7,8,4,4,0.6,0.9
2025-01-26T0500,3538A,107.5175,26.2978,黔南布依族苗族自治州,沙坝,,15,7,11,3,7,45,,,,7,9,5,5,0.7,1
2025-01-26T0500,2589A,104.9022,25.0925,黔西南布依族苗族自治州,场坝街,,22,15,41,15,29,70,,,,8,11,5,4,0.5,0.5
2025-01-26T0500,2590A,104.8811,25.0992,黔西南布依族苗族自治州,坪东大道,,29,29,33,15,27,70,,,,7,10,4,5,0.6,0.6
2025-01-26T0500,2502A,108.6236,21.9667,钦州市,市环保站,,12,12,54,3,28,30,,,,13,19,5,6,1.1,0.9
2025-01-26T0500,2503A,108.6549,21.9481,钦州市,沙埠小学,,21,21,57,3,34,29,,,,12,20,5,5,1.0,0.9
2025-01-26T0500,2504A,108.5989,21.7431,钦州市,港区一小,,32,32,50,10,24,22,,,,22,22,7,6,1.1,0.8
2025-01-26T0500,3404A,108.5959,21.9633,钦州市,北职校,,17,17,55,3,37,29,,,,12,18,4,4,1.1,1
2025-01-26T0500,1043A,119.7493,40.0116,秦皇岛市,第一关,细颗粒物(PM2.5),73,80,76,53,54,7,,,,61,47,10,8,1.2,0.7
2025-01-26T0500,1044A,119.5897,39.9499,秦皇岛市,监测站,细颗粒物(PM2.5),93,81,77,69,56,4,,,,64,51,5,6,1.2,0.8
2025-01-26T0500,1046A,119.5251,39.9041,秦皇岛市,建设大厦,细颗粒物(PM2.5),97,102,91,72,62,8,,,,55,47,6,7,1.4,0.9
2025-01-26T0500,3132A,119.610547,39.943889,秦皇岛市,文明里,颗粒物(PM10),80,109,93,52,46,28,,,,39,38,7,8,0.6,0.6
2025-01-26T0500,4198A,119.5090,39.8253,秦皇岛市,北戴河轮滑馆,细颗粒物(PM2.5),72,86,76,52,46,49,,,,17,25,11,9,0.7,0.6
2025-01-26T0500,1307A,120.6659,36.2403,青岛市,仰口,细颗粒物(PM2.5),93,80,79,69,67,62,,,,16,16,3,6,1.0,0.8
2025-01-26T0500,1310A,120.4134,36.0658,青岛市,市南区东部子站,细颗粒物(PM2.5),79,78,88,58,56,50,,,,30,36,15,13,1.0,1.1
2025-01-26T0500,1311A,120.3664,36.1032,青岛市,四方区子站,细颗粒物(PM2.5),77,70,83,56,63,54,,,,10,26,8,9,1.0,1.1
2025-01-26T0500,1312A,120.2994,36.054,青岛市,市南区西部子站,细颗粒物(PM2.5),62,63,78,44,53,52,,,,24,31,4,6,0.8,0.9
2025-01-26T0500,1313A,120.4581,36.0858,青岛市,崂山区子站,细颗粒物(PM2.5),85,85,75,63,54,47,,,,25,29,10,11,1.0,1
2025-01-26T0500,1314A,120.1983,35.9608,青岛市,黄岛区子站,细颗粒物(PM2.5),59,56,79,42,59,64,,,,21,44,6,9,0.8,1
2025-01-26T0500,1315A,120.3999,36.3083,青岛市,城阳区子站,"颗粒物(PM10),细颗粒物(PM2.5)",62,73,104,44,62,45,,,,16,26,8,12,1.0,1.3
2025-01-26T0500,1966A,120.0405,35.8735,青岛市,黄岛区4号,颗粒物(PM10),51,51,70,34,50,67,,,,20,34,10,13,1.0,1.1
2025-01-26T0500,3362A,120.5014,36.4034,青岛市,即墨2号,细颗粒物(PM2.5),90,91,103,67,76,44,,,,25,30,10,10,1.2,1.3
2025-01-26T0500,3642A,120.3503,36.0736,青岛市,市北区南部,"颗粒物(PM10),细颗粒物(PM2.5)",70,90,83,51,55,44,,,,32,39,7,11,0.9,1
2025-01-26T0500,3643A,120.3948,36.1805,青岛市,李沧区北部,细颗粒物(PM2.5),89,68,85,66,68,43,,,,32,35,11,13,0.9,1.1
2025-01-26T0500,1702A,113.0426,23.691,清远市,环保大楼,,11,,36,3,23,34,,,,5,14,2,3,0.7,0.6
2025-01-26T0500,1703A,113.0208,23.7106,清远市,凤城街办,,10,6,34,3,23,30,,,,5,15,4,5,0.9,0.7
2025-01-26T0500,3025A,113.0477,23.6344,清远市,技师学院,,10,6,34,3,20,32,,,,11,15,5,6,0.7,0.5
2025-01-26T0500,3318A,112.9903,23.7403,清远市,清新太和,,11,6,29,3,17,33,,,,7,11,6,6,0.9,0.6
2025-01-26T0500,3455A,113.076,23.7198,清远市,清城东城,,9,6,34,3,22,28,,,,6,9,4,4,0.9,0.6
2025-01-26T0500,2661A,107.6325,35.7357,庆阳市,庆阳五中,颗粒物(PM10),60,69,77,14,16,78,,,,5,7,2,3,0.3,0.4
2025-01-26T0500,2662A,107.6364,35.7067,庆阳市,市环保局,颗粒物(PM10),62,74,79,13,12,80,,,,6,9,2,2,0.3,0.3
2025-01-26T0500,1916A,103.7897,25.5035,曲靖市,环境监测站,,25,19,38,3,21,80,,,,9,14,3,7,0.6,0.8
2025-01-26T0500,1917A,103.8,25.5364,曲靖市,烟厂办公区,,23,6,36,3,20,73,,,,6,15,4,5,0.5,0.6
2025-01-26T0500,3376A,103.7947,25.462,曲靖市,南苑二区,,25,,34,8,20,79,,,,9,13,4,8,0.7,0.7
2025-01-26T0500,3377A,103.7444,25.5261,曲靖市,曲靖师范学院,,27,9,35,3,24,85,,,,8,14,4,8,0.4,0.6
2025-01-26T0500,1264A,118.8692,28.9398,衢州市,环保大楼,,42,42,52,22,33,60,,,,10,12,4,4,0.2,0.3
2025-01-26T0500,1265A,118.8709,28.9666,衢州市,实验学校,,38,38,43,25,31,59,,,,10,11,3,3,0.3,0.3
2025-01-26T0500,1266A,118.8621,28.9808,衢州市,衢州学院,,36,36,46,23,32,48,,,,13,14,2,2,0.4,0.4
2025-01-26T0500,1611A,118.5819,24.9117,泉州市,涂山街,,40,40,37,22,19,107,,,,6,8,4,5,0.5,0.5
2025-01-26T0500,1612A,118.5972,24.8978,泉州市,津头埔,,38,38,34,24,20,100,,,,10,11,2,3,0.6,0.6
2025-01-26T0500,1613A,118.6663,24.9424,泉州市,万安,,41,41,37,20,18,110,,,,7,9,2,4,0.5,0.5
2025-01-26T0500,3529A,118.6333,24.9264,泉州市,城华南路,,42,42,35,21,19,101,,,,6,7,2,3,0.4,0.4
2025-01-26T0500,2626A,88.8876,29.2718,日喀则市,日喀则监测站,颗粒物(PM10),81,112,94,18,16,88,,,,5,8,5,4,0.5,0.5
2025-01-26T0500,3726A,88.8781,29.2426,日喀则市,林业技术推广中心,颗粒物(PM10),75,99,111,14,16,88,,,,2,5,6,6,0.3,0.4
2025-01-26T0500,1659A,119.471,35.4209,日照市,监测站,细颗粒物(PM2.5),63,58,72,45,54,60,,,,26,32,6,7,0.7,0.8
2025-01-26T0500,1660A,119.523,35.4216,日照市,市政府广场,细颗粒物(PM2.5),57,51,68,40,48,66,,,,16,20,5,6,0.7,0.8
2025-01-26T0500,1661A,119.5587,35.4044,日照市,港务局,细颗粒物(PM2.5),59,51,67,42,50,62,,,,31,27,8,9,0.7,0.8
2025-01-26T0500,3507A,119.5328,35.4625,日照市,职业技术学院,细颗粒物(PM2.5),52,44,69,36,48,74,,,,17,26,5,6,0.7,0.9
2025-01-26T0500,3604A,119.3266,35.1044,日照市,岚山环保分局,,30,29,84,21,59,92,,,,13,32,13,21,0.7,2.3
2025-01-26T0500,1835A,111.1922,34.7752,三门峡市,市政府,颗粒物(PM10),76,102,44,20,41,80,,,,4,18,5,6,0.5,1
2025-01-26T0500,1836A,111.1587,34.7942,三门峡市,开发区,颗粒物(PM10),65,80,46,15,32,76,,,,4,12,3,3,0.7,1
2025-01-26T0500,3039A,111.1911,34.7829,三门峡市,三门峡市第一小学,颗粒物(PM10),85,120,51,11,32,77,,,,2,15,6,4,0.5,1
2025-01-26T0500,3598A,111.1,34.7167,三门峡市,富达温泉假日酒店,颗粒物(PM10),83,116,60,20,38,68,,,,2,20,7,6,0.5,1
2025-01-26T0500,2324A,117.6211,26.2625,三明市,三钢,,35,25,26,24,24,64,,,,8,14,2,4,0.4,0.5
2025-01-26T0500,2325A,117.635,26.2714,三明市,三明二中,,26,19,20,18,16,62,,,,5,10,2,3,0.2,0.3
2025-01-26T0500,2326A,117.6028,26.2378,三明市,三元区政府,,25,25,23,16,17,65,,,,8,14,2,5,0.5,0.6
2025-01-26T0500,1876A,109.5078,18.2489,三亚市,河东子站,,23,20,25,12,13,71,,,,1,2,2,3,0.4,0.4
2025-01-26T0500,1877A,109.4964,18.2681,三亚市,河西子站,,22,21,23,14,13,68,,,,2,4,3,3,0.4,0.4
2025-01-26T0500,3540A,109.7348,18.3443,三亚市,君悦子站,,27,27,25,11,12,49,,,,7,5,4,3,0.3,0.3
2025-01-26T0500,2624A,91.7608,29.2313,山南市,山南监测站,,40,40,73,8,16,94,,,,2,4,4,5,0.3,0.3
2025-01-26T0500,2625A,91.7706,29.2436,山南市,山南人民医院,,30,28,98,7,20,94,,,,2,4,2,3,0.3,0.4
2025-01-26T0500,1674A,116.6794,23.3667,汕头市,金平子站,,39,34,29,27,19,83,,,,12,11,4,5,0.7,0.7
2025-01-26T0500,1675A,116.7244,23.3633,汕头市,龙湖子站,,38,38,30,15,14,89,,,,9,9,3,3,0.7,0.7
2025-01-26T0500,1676A,116.7258,23.2775,汕头市,濠江子站,,32,30,27,17,21,100,,,,5,7,4,3,0.8,0.7
2025-01-26T0500,1677A,116.7519,23.4714,汕头市,澄海子站,,42,42,35,28,20,73,,,,18,12,8,8,0.5,0.6
2025-01-26T0500,1678A,116.6092,23.2539,汕头市,潮阳子站,,34,34,30,16,14,99,,,,4,4,6,6,0.5,0.5
2025-01-26T0500,3444A,116.454,23.2684,汕头市,潮南峡山,颗粒物(PM10),51,52,35,26,15,81,,,,8,7,8,8,0.7,0.6
2025-01-26T0500,3624A,116.4069,23.2533,汕头市,潮南子站,颗粒物(PM10),57,64,43,34,19,88,,,,10,9,7,7,0.7,0.6
2025-01-26T0500,1693A,115.3653,22.775,汕尾市,市环保局,,33,31,27,23,20,95,,,,4,6,7,7,0.5,0.5
2025-01-26T0500,1694A,115.3706,22.7898,汕尾市,市政府,,36,36,26,20,18,88,,,,3,4,9,9,0.4,0.6
2025-01-26T0500,1695A,115.3622,22.7925,汕尾市,新城中学,,30,30,28,20,18,84,,,,4,5,8,7,0.4,0.4
2025-01-26T0500,2645A,109.9154,33.8715,商洛市,监测站,,48,48,15,16,12,76,,,,5,10,4,4,0.2,0.5
2025-01-26T0500,3045A,109.9643,33.8471,商洛市,商州区中学,颗粒物(PM10),70,89,27,14,16,78,,,,5,8,3,4,0.4,0.6
2025-01-26T0500,2408A,115.6702,34.4285,商丘市,环境监测站,细颗粒物(PM2.5),90,,113,67,106,44,,,,16,23,1,3,0.5,0.6
2025-01-26T0500,2409A,115.6458,34.4045,商丘市,粮食局,,,,102,64,100,59,,,,,22,3,2,0.8,0.8
2025-01-26T0500,2410A,115.6293,34.3948,商丘市,睢阳区环保局,细颗粒物(PM2.5),89,,105,66,104,56,,,,9,19,3,3,0.5,0.6
2025-01-26T0500,3171A,115.6071,34.4465,商丘市,梁园区档案局,细颗粒物(PM2.5),83,,90,61,102,49,,,,11,17,2,4,0.7,0.9
2025-01-26T0500,1141A,121.4,31.238,上海市,普陀,,47,47,41,22,15,79,,,,23,24,6,6,0.5,0.6
2025-01-26T0500,1142A,121.478,31.2036,上海市,十五厂,,45,45,40,26,19,87,,,,17,23,6,6,0.6,0.6
2025-01-26T0500,1143A,121.467,31.3008,上海市,虹口,,42,42,37,26,18,81,,,,27,29,6,6,0.8,0.8
2025-01-26T0500,1147A,121.425,31.2261,上海市,静安监测站,,43,43,39,28,20,84,,,,23,25,8,9,0.4,0.4
2025-01-26T0500,1148A,121.703,31.1907,上海市,浦东川沙,,47,47,42,24,17,76,,,,29,27,6,6,0.4,0.4
2025-01-26T0500,1149A,121.533,31.2284,上海市,浦东新区监测站,,40,40,38,25,18,81,,,,26,30,7,7,0.6,0.6
2025-01-26T0500,1150A,121.577,31.2071,上海市,浦东张江,,,42,37,25,16,84,,,,,28,6,6,0.7,0.6
2025-01-26T0500,3265A,121.4316,31.3322,上海市,宝山庙行,,41,41,39,25,18,81,,,,23,22,8,7,0.5,0.4
2025-01-26T0500,3266A,121.8791,31.4662,上海市,崇明上实东滩,,38,38,36,23,17,90,,,,12,12,7,7,0.4,0.4
2025-01-26T0500,3268A,121.3162,31.2838,上海市,嘉定南翔,,48,48,45,26,17,73,,,,23,23,7,7,0.6,0.5
2025-01-26T0500,3269A,121.3359,30.7456,上海市,金山新城,,42,42,35,29,20,93,,,,17,18,2,2,0.5,0.5
2025-01-26T0500,3270A,121.4996,31.0739,上海市,闵行浦江,,45,45,41,23,19,86,,,,24,23,6,5,0.4,0.4
2025-01-26T0500,3271A,121.2886,31.1663,上海市,青浦徐泾,,44,44,35,28,19,70,,,,29,26,8,6,1.1,0.6
2025-01-26T0500,3272A,121.2186,31.0378,上海市,松江图书馆,,49,49,37,27,18,67,,,,28,24,9,7,1.0,0.6
2025-01-26T0500,3273A,121.3902,31.2059,上海市,长宁仙霞,,44,44,38,24,16,88,,,,24,26,8,9,0.5,0.5
2025-01-26T0500,3274A,121.7965,31.0507,上海市,浦东惠南,,40,40,38,24,19,91,,,,27,29,6,6,0.6,0.6
2025-01-26T0500,3544A,121.4891,30.925,上海市,奉贤南桥新城,,44,44,39,27,19,89,,,,20,20,7,7,0.5,0.5
2025-01-26T0500,4183A,121.4174,31.16637,上海市,冠生园路458号,,44,44,39,29,20,89,,,,16,19,7,7,0.6,0.6
2025-01-26T0500,4205A,121.5419,31.2683,上海市,宁武路151号,,44,44,40,24,18,81,,,,18,24,5,5,0.1,0.3
2025-01-26T0500,2381A,118.005,28.4572,上饶市,百草园,,34,34,40,3,24,60,,,,2,2,4,4,1.0,1
2025-01-26T0500,2382A,117.9756,28.4436,上饶市,市监测站,,32,32,41,18,23,65,,,,7,7,5,8,0.6,0.6
2025-01-26T0500,2383A,117.9519,28.4628,上饶市,凤凰光学,,28,22,39,19,24,68,,,,5,8,7,6,0.9,1
2025-01-26T0500,3685A,117.897,28.4315,上饶市,双创科技城,,32,25,38,22,27,55,,,,6,10,4,5,0.7,0.7
2025-01-26T0500,4211A,118.1904,28.4448,上饶市,裕丰大道,,29,,45,20,31,55,,,,11,14,4,4,0.5,0.6
2025-01-26T0500,1669A,113.5824,24.7733,韶关市,市八中,,12,6,48,3,33,37,,,,11,17,3,6,0.7,0.7
2025-01-26T0500,1671A,113.5917,24.7972,韶关市,园林处,,13,6,41,3,33,40,,,,12,19,6,9,0.7,0.7
2025-01-26T0500,1672A,113.6735,24.7791,韶关市,韶关学院,,9,6,40,3,30,26,,,,14,15,10,12,0.9,0.9
2025-01-26T0500,1673A,113.5971,24.6863,韶关市,曲江监测站,,10,6,55,3,30,31,,,,14,14,4,9,0.7,0.7
2025-01-26T0500,3622A,113.5556,24.8082,韶关市,碧湖山庄,,10,6,45,3,32,29,,,,13,17,4,5,0.7,0.7
2025-01-26T0500,2464A,111.5283,27.2442,邵阳市,市化工厂,,28,18,16,15,12,89,,,,6,10,8,9,1.1,1.2
2025-01-26T0500,2466A,111.4328,27.2272,邵阳市,市环保局,,30,,14,18,7,93,,,,6,12,9,10,0.9,1
2025-01-26T0500,4218A,111.4399,27.2495,邵阳市,邵阳卫生学校,,29,22,11,14,10,90,,,,6,12,8,8,0.7,0.8
2025-01-26T0500,4219A,111.4684,27.2316,邵阳市,邵阳市第二中学图书馆,,30,,9,16,12,96,,,,4,9,6,7,0.7,0.8
2025-01-26T0500,1247A,120.6053,29.9928,绍兴市,城东开发委,颗粒物(PM10),56,62,37,30,15,69,,,,16,15,6,6,0.8,0.7
2025-01-26T0500,2921A,120.5483,30.0003,绍兴市,树下王站,颗粒物(PM10),51,52,36,30,16,65,,,,33,33,6,6,1.0,0.8
2025-01-26T0500,3408A,120.5683,29.9361,绍兴市,绍兴中专,颗粒物(PM10),51,52,34,32,18,66,,,,9,9,2,2,0.4,0.3
2025-01-26T0500,3409A,120.4906,30.0861,绍兴市,柯桥区政府,颗粒物(PM10),58,65,39,38,19,69,,,,19,18,8,7,0.6,0.5
2025-01-26T0500,3410A,120.8752,30.0249,绍兴市,重华小学,颗粒物(PM10),53,56,36,32,18,66,,,,20,18,8,8,0.8,0.8
2025-01-26T0500,3411A,120.8369,30.0137,绍兴市,上虞中学,颗粒物(PM10),56,62,35,34,19,71,,,,14,11,6,6,0.7,0.6
2025-01-26T0500,3560A,120.4722,30.0415,绍兴市,柯桥妇保,颗粒物(PM10),52,53,35,25,12,65,,,,22,22,5,6,0.5,0.4
2025-01-26T0500,3658A,120.6153,30.0764,绍兴市,袍江中学,颗粒物(PM10),53,56,34,28,14,68,,,,15,16,4,3,0.8,0.6
2025-01-26T0500,1356A,114.1063,22.5545,深圳市,通心岭子站,,,32,25,17,12,97,,,,7,5,7,7,,0.4
2025-01-26T0500,1357A,114.117,22.5625,深圳市,洪湖,,36,36,35,17,14,76,,,,18,11,5,5,0.5,0.6
2025-01-26T0500,1358A,113.987,22.5417,深圳市,华侨城,,31,31,24,13,10,87,,,,8,8,6,6,0.5,0.5
2025-01-26T0500,1359A,113.9181,22.5171,深圳市,南海子站,,36,36,28,14,13,98,,,,8,8,6,6,0.5,0.5
2025-01-26T0500,1360A,114.2458,22.5689,深圳市,盐田,,39,39,28,17,13,76,,,,33,32,7,7,0.4,0.4
2025-01-26T0500,1361A,114.2283,22.7244,深圳市,龙岗,,33,33,26,17,12,79,,,,6,4,7,7,0.6,0.6
2025-01-26T0500,1363A,114.494,22.5422,深圳市,南澳,,32,27,22,14,11,102,,,,4,4,7,7,0.5,0.5
2025-01-26T0500,1364A,114.41,22.6342,深圳市,葵涌,,29,27,23,13,10,92,,,,9,8,4,4,0.6,0.6
