timepoint,stationcode,longitude,latitude,area,positionname,primarypollutant,aqi,pm10,pm10_24h,pm2_5,pm2_5_24h,o3,o3_24h,o3_8h,o3_8h_24h,no2,no2_24h,so2,so2_24h,co,co_24h
2026-04-21T1600,2568A,102.2503,31.8896,阿坝藏族羌族自治州,马师校,,34,30,26,7,6,107,107,76,76,5,4,6,6,0.2,0.3
2026-04-21T1600,3994A,102.2174,31.9016,阿坝藏族羌族自治州,马尔康中学西区,,34,23,23,8,7,107,107,74,74,5,6,4,4,0.2,0.3
2026-04-21T1600,2695A,80.2899,41.1684,阿克苏地区,电视台,颗粒物(PM10),219,363,231,89,105,106,106,72,72,4,18,3,2,0.8,1
2026-04-21T1600,2696A,80.2592,41.1541,阿克苏地区,艺术中心,细颗粒物(PM2.5),150,222,198,114,110,110,110,67,67,4,26,5,4,0.4,0.6
2026-04-21T1600,2205A,105.699,38.8409,阿拉善盟,蒙二幼,颗粒物(PM10),95,112,120,29,27,124,124,108,108,5,6,10,10,0.4,0.4
2026-04-21T1600,2206A,105.7198,38.8508,阿拉善盟,环保局新楼,颗粒物(PM10),95,112,120,24,28,112,112,103,103,5,7,10,10,0.5,0.6
2026-04-21T1600,2708A,88.1266,47.8515,阿勒泰地区,市站,,34,25,25,3,3,106,106,106,103,6,5,6,5,0.1,0
2026-04-21T1600,4166A,88.1198,47.7931,阿勒泰地区,阿勒泰路33号,,33,22,30,3,3,103,103,99,94,3,4,6,6,0.1,0.2
2026-04-21T1600,2630A,80.1171,32.4999,阿里地区,阿里监测站,,37,6,21,3,7,118,118,103,103,1,5,5,6,0.3,0.4
2026-04-21T1600,3192A,80.0906,32.5029,阿里地区,阿里藏医院,,38,6,19,3,5,120,120,106,104,2,3,6,8,0.3,0.4
2026-04-21T1600,2644A,109.0088,32.6974,安康市,汉滨区检察院,,37,37,103,14,35,56,56,61,59,6,7,5,6,0.3,0.3
2026-04-21T1600,4054A,109.0324,32.6913,安康市,市邮政管理局,,43,43,115,18,37,57,57,67,63,7,7,4,4,0.5,0.5
2026-04-21T1600,2291A,117.0806,30.5181,安庆市,环科院,,43,36,37,30,22,49,49,51,44,17,12,5,6,0.5,0.4
2026-04-21T1600,2292A,117.0331,30.5118,安庆市,马山宾馆,,45,NA,36,31,21,47,47,50,44,15,10,4,4,0.5,0.4
2026-04-21T1600,2294A,116.9897,30.6146,安庆市,安庆大学,,17,16,35,9,16,52,52,52,45,12,10,3,3,0.5,0.4
2026-04-21T1600,3173A,117.0598,30.5351,安庆市,市人大,,42,36,38,29,21,46,46,50,42,16,10,3,3,0.6,0.5
2026-04-21T1600,3123A,105.9408,26.2431,安顺市,凤凰山,细颗粒物(PM2.5),72,NA,33,46,24,109,109,102,102,8,7,6,8,0.8,0.6
2026-04-21T1600,3124A,105.9443,26.2567,安顺市,金钟山,细颗粒物(PM2.5),68,47,34,44,24,101,101,92,92,5,6,5,7,0.7,0.6
2026-04-21T1600,3125A,105.8983,26.248,安顺市,娄家坡,细颗粒物(PM2.5),72,NA,26,46,23,107,107,94,94,4,5,1,2,0.7,0.6
2026-04-21T1600,1819A,114.3552,36.1017,安阳市,红庙街,,45,45,82,17,24,80,80,71,71,12,19,2,4,0.2,0.4
2026-04-21T1600,1820A,114.361,36.0681,安阳市,银杏小区,NA,NA,NA,93,17,26,73,73,68,68,NA,14,4,6,0,0.1
2026-04-21T1600,3141A,114.3921,36.0879,安阳市,信访局,,35,35,80,16,26,70,70,70,70,15,17,2,3,0.4,0.4
2026-04-21T1600,3669A,114.4706,36.0634,安阳市,左辅环卫站,,35,35,73,15,22,67,67,57,57,13,16,2,2,0.3,0.3
2026-04-21T1600,4117A,114.2918,36.0769,安阳市,钢三路198号,,25,24,84,15,23,79,79,60,60,13,16,2,3,0.2,0.3
2026-04-21T1600,1748A,123.0441,41.1201,鞍山市,深沟寺,颗粒物(PM10),100,119,132,36,31,124,124,107,107,20,23,15,17,0.8,1.1
2026-04-21T1600,1749A,123.011,41.0931,鞍山市,太阳城,颗粒物(PM10),95,112,121,36,34,120,120,99,99,17,21,12,14,0.7,1.2
2026-04-21T1600,1750A,123.0483,41.1445,鞍山市,太平,颗粒物(PM10),102,124,126,37,36,120,120,97,97,18,22,12,14,0.8,1
2026-04-21T1600,1751A,122.964,41.0968,鞍山市,铁西三道街,颗粒物(PM10),101,122,134,38,34,118,118,94,94,21,23,12,12,0.8,0.8
2026-04-21T1600,1753A,123.0219,41.0822,鞍山市,明达新区,颗粒物(PM10),100,120,127,34,31,123,123,97,97,17,20,13,15,0.7,1
2026-04-21T1600,4201A,122.944647,41.082639,鞍山市,兴盛南路290号,NA,NA,NA,140,NA,35,NA,NA,88,NA,NA,21,NA,13,NA,0.9
2026-04-21T1600,2195A,107.4206,40.7609,巴彦淖尔市,附二中,颗粒物(PM10),59,62,82,20,27,122,122,99,99,5,16,8,12,0.4,0.5
2026-04-21T1600,2196A,107.37,40.7372,巴彦淖尔市,市环保大楼,颗粒物(PM10),55,57,65,18,30,124,124,104,104,5,17,6,6,0.3,0.4
2026-04-21T1600,1956A,86.1476,41.7529,巴音郭楞蒙古自治州,孔雀公园,颗粒物(PM10),105,133,162,58,92,93,93,76,74,1,7,10,10,0.3,0.4
2026-04-21T1600,1957A,86.1971,41.7166,巴音郭楞蒙古自治州,棉纺厂,颗粒物(PM10),124,180,197,80,88,100,100,81,70,NA,9,/,/,/,/
2026-04-21T1600,1958A,86.236,41.7172,巴音郭楞蒙古自治州,经济开发区,细颗粒物(PM2.5),116,149,160,77,85,89,89,68,64,3,11,7,8,0.4,0.4
2026-04-21T1600,3181A,106.776805,31.852614,巴中市,市五中,NA,NA,10,23,3,4,50,50,40,40,NA,8,9,8,0.6,0.6
2026-04-21T1600,3183A,106.7419,31.8654,巴中市,圣泉水务公司,,15,6,1,3,2,48,48,47,42,5,7,8,9,0.7,0.7
2026-04-21T1600,3616A,106.7617,31.8343,巴中市,市中心医院,,18,6,12,3,4,55,55,48,48,4,8,10,9,0.5,0.5
2026-04-21T1600,2235A,122.7909,45.608,白城市,洮北区环保局,NA,NA,53,41,6,13,108,108,101,101,NA,8,5,10,0.2,0
2026-04-21T1600,2236A,122.8741,45.5725,白城市,市环保局,,48,48,43,3,7,106,106,99,99,8,10,3,4,0.0,0.1
2026-04-21T1600,2231A,126.4219,41.9172,白山市,喜丰,颗粒物(PM10),78,89,110,3,14,104,104,94,94,6,14,6,9,0.8,0.9
2026-04-21T1600,2232A,126.4082,41.9416,白山市,环保局,,38,38,82,3,13,107,107,98,98,6,10,8,9,0.7,0.8
2026-04-21T1600,2647A,104.1727,36.5448,白银市,第三小学,颗粒物(PM10),103,127,112,46,46,84,84,80,62,8,11,16,26,0.4,0.5
2026-04-21T1600,2648A,104.1467,36.5482,白银市,动力公司,颗粒物(PM10),102,124,110,NA,67,88,88,92,74,9,13,12,27,0.3,0.3
2026-04-21T1600,2512A,106.6102,23.901,百色市,市监测站,,47,47,44,23,30,110,110,93,93,8,12,12,21,0.8,0.9
2026-04-21T1600,2513A,106.6524,23.8842,百色市,市中心血站,细颗粒物(PM2.5),72,NA,46,46,37,113,113,93,93,9,14,9,18,0.6,0.8
2026-04-21T1600,4133A,106.6273,23.8798,百色市,龙景西路,颗粒物(PM10),63,67,50,33,34,118,118,93,93,10,13,14,20,0.8,0.8
2026-04-21T1600,2270A,117.396,32.9389,蚌埠市,工人疗养院,颗粒物(PM10),74,83,69,14,16,91,91,89,89,15,19,5,5,0.3,0.3
2026-04-21T1600,2271A,117.3606,32.9428,蚌埠市,百货大楼,颗粒物(PM10),74,83,69,14,17,82,82,85,85,18,16,6,5,0.3,0.3
2026-04-21T1600,2273A,117.4183,32.8909,蚌埠市,蚌埠学院,颗粒物(PM10),75,85,71,12,16,92,92,78,78,20,27,6,6,0.4,0.4
2026-04-21T1600,2274A,117.3534,32.9672,蚌埠市,淮上区政府,颗粒物(PM10),78,88,75,15,17,91,91,86,86,18,22,5,5,0.2,0.2
2026-04-21T1600,2275A,117.3143,32.8977,蚌埠市,高新区,颗粒物(PM10),72,80,64,14,16,78,78,82,82,22,20,8,7,0.4,0.3
2026-04-21T1600,3715A,117.3091,32.9314,蚌埠市,蚌埠田家炳中学,颗粒物(PM10),75,85,72,16,21,90,90,90,90,15,16,6,6,0.3,0.3
2026-04-21T1600,1585A,109.8761,40.6533,包头市,市环境监测站,,49,49,61,13,24,124,124,99,99,14,35,12,14,0.6,0.7
2026-04-21T1600,1587A,109.9992,40.5843,包头市,包头八中,,47,47,70,18,34,117,117,94,94,9,34,11,14,0.5,1
2026-04-21T1600,1589A,109.8641,40.6288,包头市,惠龙物流,,43,43,56,11,23,121,121,101,101,9,33,10,15,0.5,0.7
2026-04-21T1600,1590A,110.0376,40.5546,包头市,东河鸿龙湾,,38,29,60,3,28,120,120,100,100,7,42,12,14,0.4,0.7
2026-04-21T1600,3283A,109.9154,40.5684,包头市,滨河大厦,NA,NA,36,48,NA,24,120,120,102,102,8,38,11,14,0.3,0.7
2026-04-21T1600,3419A,109.9449,40.6259,包头市,包头市委党校,,40,40,46,15,22,127,127,96,96,8,36,12,15,0.5,0.6
2026-04-21T1600,3683A,109.8332,40.6577,包头市,昆区政府,,45,45,52,17,25,117,117,103,103,16,31,11,13,0.7,0.8
2026-04-21T1600,1931A,107.0802,34.3129,宝鸡市,竹园沟,,25,6,70,3,16,78,78,70,70,9,7,7,6,0.5,0.4
2026-04-21T1600,1933A,107.1429,34.3549,宝鸡市,监测站,,27,11,78,3,22,84,84,75,75,4,5,5,5,0.5,0.5
2026-04-21T1600,1934A,107.1172,34.3759,宝鸡市,技工学校,,27,11,79,3,24,86,86,80,77,6,8,3,3,0.5,0.5
2026-04-21T1600,1936A,107.2025,34.3518,宝鸡市,文理学院,,27,8,78,3,25,84,84,77,77,10,10,4,4,0.4,0.4
2026-04-21T1600,1937A,107.2396,34.3626,宝鸡市,三迪小学,,27,22,92,7,25,85,85,79,78,14,15,4,4,0.4,0.4
2026-04-21T1600,4155A,107.1721,34.3558,宝鸡市,滨河北路,,25,6,86,3,21,80,80,73,73,9,9,6,6,0.4,0.4
2026-04-21T1600,4308A,107.3898,34.3601,宝鸡市,陈仓区北开路21号,,25,19,89,7,25,77,77,72,72,10,12,6,6,0.3,0.3
2026-04-21T1600,1051A,115.4803,38.8568,保定市,游泳馆,颗粒物(PM10),88,102,76,48,28,129,129,88,88,16,20,13,3,0.6,0.3
2026-04-21T1600,1052A,115.509,38.8895,保定市,华电二区,细颗粒物(PM2.5),100,87,71,60,30,130,130,87,87,13,15,9,4,0.6,0.3
2026-04-21T1600,1053A,115.4588,38.9037,保定市,接待中心,颗粒物(PM10),86,100,77,51,32,120,120,82,82,12,17,12,3,0.7,0.3
2026-04-21T1600,1054A,115.4484,38.8344,保定市,地表水厂,颗粒物(PM10),101,122,91,47,24,118,118,87,87,17,20,14,5,0.8,0.4
2026-04-21T1600,3581A,115.3136,38.9511,保定市,满城区生态环境分局,颗粒物(PM10),95,112,106,31,24,107,107,79,79,13,22,9,3,0.5,0.3
2026-04-21T1600,3582A,115.4709,38.7628,保定市,清苑区第二中学,颗粒物(PM10),107,138,96,40,22,114,114,85,85,15,16,13,6,0.8,0.4
2026-04-21T1600,3583A,115.6231,39.0223,保定市,徐水物探局,颗粒物(PM10),111,147,106,40,25,112,112,87,87,19,19,8,3,0.8,0.5
2026-04-21T1600,4004A,115.4199,38.8665,保定市,双鹰农机,颗粒物(PM10),104,128,98,47,26,119,119,80,80,16,22,15,6,0.7,0.2
2026-04-21T1600,4034A,115.515,38.8589,保定市,植保所站,颗粒物(PM10),102,123,105,54,24,129,129,88,88,16,16,11,4,0.9,0.5
2026-04-21T1600,2594A,99.1589,25.1137,保山市,市环境监测站,颗粒物(PM10),54,55,46,33,35,117,117,111,111,7,10,7,6,0.3,0.4
2026-04-21T1600,2595A,99.1616,25.1381,保山市,市环保局,颗粒物(PM10),67,73,49,40,41,117,117,110,110,6,7,7,6,0.4,0.5
2026-04-21T1600,1867A,109.1435,21.4085,北海市,海滩公园,,44,44,32,24,23,100,100,67,67,8,7,6,6,0.7,0.5
2026-04-21T1600,1868A,109.0983,21.466,北海市,新市环保局,,34,34,27,19,19,88,88,66,66,7,7,8,8,0.4,0.5
2026-04-21T1600,1869A,109.1775,21.5232,北海市,北海工业园,,35,29,34,24,24,89,89,64,64,5,10,6,6,0.6,0.4
2026-04-21T1600,3400A,109.1844,21.4396,北海市,龙潭自来水厂,,31,29,25,15,17,98,98,63,63,4,6,7,7,0.8,0.8
2026-04-21T1600,1001A,116.3611,39.8786,北京市,万寿西宫,颗粒物(PM10),62,66,86,30,30,131,131,86,86,13,30,4,4,0.3,0.3
2026-04-21T1600,1003A,116.4174,39.9289,北京市,东四,颗粒物(PM10),56,58,80,22,25,135,135,90,90,7,25,3,2,0.4,0.5
2026-04-21T1600,1004A,116.4073,39.8858,北京市,天坛,颗粒物(PM10),58,61,78,18,29,127,127,83,83,10,26,5,4,0.3,0.3
2026-04-21T1600,1005A,116.4622,39.9364,北京市,农展馆,颗粒物(PM10),58,60,86,24,28,126,126,82,82,13,29,4,4,0.2,0.3
2026-04-21T1600,1006A,116.3399,39.9293,北京市,官园,颗粒物(PM10),65,70,87,18,24,121,121,78,78,12,31,3,3,0.2,0.3
2026-04-21T1600,1007A,116.2879,39.9613,北京市,海淀万柳,颗粒物(PM10),67,73,80,28,26,111,111,70,70,15,34,5,4,0.2,0.3
2026-04-21T1600,1008A,116.6635,40.1349,北京市,顺义新城,颗粒物(PM10),58,61,87,19,20,126,126,79,79,9,9,2,4,0.3,0.3
2026-04-21T1600,1009A,116.6275,40.327,北京市,怀柔镇,颗粒物(PM10),58,61,56,19,16,124,124,78,78,1,11,5,4,0.4,0.4
2026-04-21T1600,1010A,116.2295,40.217,北京市,昌平镇,颗粒物(PM10),71,79,50,22,16,123,123,77,77,19,26,4,3,0.3,0.3
2026-04-21T1600,1011A,116.3968,39.982,北京市,奥体中心,颗粒物(PM10),56,58,78,23,26,120,120,78,78,11,31,4,4,0.3,0.4
2026-04-21T1600,3418A,116.8336,40.4095,北京市,密云新城,颗粒物(PM10),58,61,70,15,16,119,119,77,77,9,20,4,2,0.3,0.3
2026-04-21T1600,3671A,116.0879,39.9725,北京市,门头沟三家店,颗粒物(PM10),76,86,61,30,20,117,117,82,82,8,17,4,2,0.2,0.3
2026-04-21T1600,3672A,116.1507,39.8246,北京市,丰台云岗,颗粒物(PM10),72,80,96,41,30,123,123,81,81,15,32,2,2,0.3,0.3
2026-04-21T1600,3674A,115.9578,39.7602,北京市,房山燕山,颗粒物(PM10),78,89,63,29,21,110,110,84,84,18,19,5,4,0.5,0.4
2026-04-21T1600,3675A,116.4669,39.7734,北京市,大兴旧宫,颗粒物(PM10),68,74,88,37,29,135,135,95,95,12,22,2,2,0.4,0.5
2026-04-21T1600,3694A,115.9859,40.4562,北京市,延庆石河营,,33,29,37,8,11,103,103,80,80,2,22,1,2,0.2,0.3
2026-04-21T1600,3695A,116.6151,40.3052,北京市,怀柔新城,NA,NA,NA,NA,NA,NA,NA,NA,NA,NA,NA,NA,NA,NA,NA,NA
2026-04-21T1600,3696A,116.2542,39.8764,北京市,丰台小屯,细颗粒物(PM2.5),105,74,79,65,31,120,120,76,76,13,33,3,3,0.3,0.3
2026-04-21T1600,3697A,116.8399,40.3843,北京市,密云镇,,45,45,60,26,19,125,125,75,75,15,28,6,6,0.3,0.4
2026-04-21T1600,4057A,115.9423,40.4431,北京市,延庆百泉,,38,28,38,9,12,119,119,91,91,9,17,1,3,0.3,0.4
2026-04-21T1600,4058A,116.6598,39.9164,北京市,通州新华,颗粒物(PM10),59,62,94,27,33,120,120,80,80,16,34,5,5,0.4,0.4
2026-04-21T1600,4182A,116.1942,39.9158,北京市,石景山八角,颗粒物(PM10),71,79,102,20,27,108,108,73,73,14,38,3,3,0.3,0.3
2026-04-21T1600,4194A,117.078628,40.151726,北京市,平谷新城,颗粒物(PM10),57,59,78,30,26,127,127,86,86,18,22,3,2,0.3,0.3
2026-04-21T1600,1761A,123.8274146,41.31234549,本溪市,大峪,颗粒物(PM10),58,61,123,12,24,103,103,92,92,7,17,9,11,0.9,1.3
2026-04-21T1600,1763A,123.7169,41.3094,本溪市,彩屯,颗粒物(PM10),61,65,123,7,25,113,113,41,NA,4,15,9,11,0.4,0.8
2026-04-21T1600,1764A,123.7672166,41.28649327,本溪市,东明,颗粒物(PM10),58,61,135,11,26,98,98,90,90,18,27,12,13,1.4,1.5
2026-04-21T1600,1765A,123.799345,41.266614,本溪市,新立屯,,35,33,112,8,20,111,111,100,100,1,15,8,8,0.5,0.6
2026-04-21T1600,1766A,123.829144,41.336777,本溪市,威宁,颗粒物(PM10),57,59,137,9,25,105,105,92,92,6,20,8,10,0.5,1.1
2026-04-21T1600,2587A,105.287,27.3133,毕节市,八中,,20,NA,32,10,18,62,62,50,50,5,6,7,8,0.5,0.5
2026-04-21T1600,2588A,105.3079,27.2987,毕节市,师专,,19,15,31,11,16,58,58,45,45,6,6,9,10,0.5,0.5
2026-04-21T1600,4263A,105.3688,27.3598,毕节市,工业大道,,23,23,42,8,21,64,64,50,50,6,5,17,16,/,/
2026-04-21T1600,1629A,117.9961,37.3604,滨州市,第二水厂,颗粒物(PM10),72,80,91,24,22,93,93,81,81,13,19,7,7,0.3,0.2
2026-04-21T1600,1630A,117.9789,37.3931,滨州市,北中新校,颗粒物(PM10),68,75,78,20,20,96,96,85,85,14,16,5,5,0.2,0.3
2026-04-21T1600,3514A,117.9379,37.3959,滨州市,中海酒店,颗粒物(PM10),74,83,86,20,22,105,105,88,88,17,25,12,14,0.9,0.7
2026-04-21T1600,3515A,117.9381509,37.35547456,滨州市,开发区一中,颗粒物(PM10),83,95,103,24,26,83,83,72,72,17,27,8,9,0.6,0.6
2026-04-21T1600,3516A,118.0914,37.6938,滨州市,金海六路,颗粒物(PM10),69,76,88,21,24,96,96,85,85,8,19,7,7,0.4,0.5
2026-04-21T1600,4028A,117.9955,37.3752,滨州市,滨州市西街道办事处,颗粒物(PM10),78,88,96,20,18,91,91,84,84,15,17,6,7,0.2,0.2
2026-04-21T1600,2311A,115.8071,33.8399,亳州市,污水处理厂,颗粒物(PM10),68,74,73,15,22,72,72,56,56,15,20,6,7,0.1,0.1
2026-04-21T1600,2312A,115.7789,33.8519,亳州市,三国揽胜宫,NA,NA,NA,79,16,21,68,68,54,54,12,14,9,9,0.2,0.2
2026-04-21T1600,3332A,115.7631,33.803,亳州市,亳州学院,颗粒物(PM10),64,69,70,16,20,70,70,60,60,12,12,8,8,0.3,0.3
2026-04-21T1600,2693A,82.0482,44.8553,博尔塔拉蒙古自治州,市党校,颗粒物(PM10),54,55,53,8,10,115,115,88,88,1,4,2,2,0.4,0.5
2026-04-21T1600,2694A,82.0805,44.8966,博尔塔拉蒙古自治州,市环保局,,38,38,57,3,9,108,108,80,80,5,19,4,4,0.3,0.3
2026-04-21T1600,1071A,116.8733,38.2922,沧州市,沧县城建局,颗粒物(PM10),83,96,86,30,22,104,104,87,87,13,24,6,5,0.4,0.4
2026-04-21T1600,1072A,116.8462,38.3189,沧州市,电视转播站,颗粒物(PM10),74,83,79,32,22,109,109,95,95,11,15,7,7,0.1,0.1
2026-04-21T1600,1073A,116.8588,38.3161,沧州市,市环保局,颗粒物(PM10),83,96,91,25,20,106,106,93,93,14,18,6,6,0.5,0.5
2026-04-21T1600,3324A,116.8011,38.294,沧州市,河北水利电力学院,颗粒物(PM10),79,90,89,27,27,101,101,87,87,10,22,7,6,0.2,0.3
2026-04-21T1600,2622A,97.1813,31.1289,昌都市,昌都监测站,,38,15,13,3,4,120,120,84,84,5,10,10,10,0.3,0.4
2026-04-21T1600,3719A,97.1707,31.1428,昌都市,昌都会议中心,,37,15,10,3,5,118,118,89,89,5,6,7,7,0.3,0.3
2026-04-21T1600,2692A,87.2722,44.0298,昌吉回族自治州,新区政务中心,颗粒物(PM10),52,52,35,7,11,109,109,73,73,8,16,6,6,0.3,0.4
2026-04-21T1600,3613A,87.3069,44.0093,昌吉回族自治州,亚心广场,颗粒物(PM10),63,68,49,14,12,116,116,77,77,6,15,7,7,0.3,0.5
2026-04-21T1600,4164A,87.2057,43.9289,昌吉回族自治州,财政所,NA,NA,65,46,3,6,NA,NA,74,74,15,10,7,7,NA,0.3
2026-04-21T1600,1120A,125.2874,43.9024,长春市,客车厂,颗粒物(PM10),61,65,118,11,16,92,92,89,89,12,10,6,6,0.5,0.5
2026-04-21T1600,1121A,125.2943,43.8508,长春市,邮电学院,颗粒物(PM10),60,64,103,19,23,101,101,95,95,3,5,6,6,0.3,0.3
2026-04-21T1600,1122A,125.3648,43.8745,长春市,劳动公园,颗粒物(PM10),73,82,101,11,16,96,96,92,92,9,10,6,6,0.5,0.4
2026-04-21T1600,1123A,125.3233,43.8781,长春市,园林处,颗粒物(PM10),62,66,93,10,17,102,102,96,96,7,9,6,6,0.2,0.2
2026-04-21T1600,1124A,125.4604,43.7904,长春市,净月潭,颗粒物(PM10),56,58,92,10,16,101,101,98,98,6,7,5,5,0.3,0.3
2026-04-21T1600,1126A,125.38,43.8422,长春市,经开区环卫处,颗粒物(PM10),63,68,109,18,17,100,100,94,94,6,8,6,5,0.3,0.3
2026-04-21T1600,1127A,125.234,43.7761,长春市,高新区管委会,颗粒物(PM10),69,76,97,11,17,94,94,90,90,6,7,7,7,0.2,0.2
2026-04-21T1600,1128A,125.1695,43.83,长春市,岱山公园,颗粒物(PM10),69,76,106,9,17,98,98,93,93,7,8,4,4,0.2,0.2
2026-04-21T1600,4281A,125.334645,43.916281,长春市,北亚泰大街1068号,颗粒物(PM10),59,62,110,10,16,95,95,90,90,10,13,4,4,0.2,0.2
2026-04-21T1600,1335A,113.082,28.2421,长沙市,经开区环保局,,13,6,25,3,10,41,41,54,43,12,9,4,4,0.3,0.3
2026-04-21T1600,1336A,112.8873,28.2202,长沙市,高开区环保局,,14,7,26,3,9,44,44,57,47,9,6,5,5,0.4,0.3
2026-04-21T1600,1337A,113.0785,28.2012,长沙市,马坡岭,,13,10,25,7,11,41,41,56,44,13,9,5,5,0.7,0.6
2026-04-21T1600,1338A,112.9448,28.1894,长沙市,湖南师范大学,,15,6,23,3,9,48,48,61,52,11,7,5,5,0.5,0.5
2026-04-21T1600,1339A,113.0177,28.1322,长沙市,雨花区环保局,,15,7,19,3,9,45,45,57,47,8,5,3,3,0.5,0.4
2026-04-21T1600,1340A,112.9795,28.2593,长沙市,伍家岭,,15,6,29,3,13,46,46,57,49,12,10,4,4,0.4,0.3
2026-04-21T1600,1341A,113.002,28.1944,长沙市,火车新站,,14,11,23,3,11,42,42,55,44,11,6,3,4,0.3,0.3
2026-04-21T1600,1342A,112.9846,28.1177,长沙市,天心区环保局,,15,9,22,3,8,46,46,61,49,12,5,5,4,0.3,0.5
2026-04-21T1600,1343A,112.8906,28.1307,长沙市,湖南中医药大学,,15,6,22,3,8,46,46,62,NA,12,7,5,5,0.5,0.4
2026-04-21T1600,1727A,113.1146,36.1547,长治市,清华站,,31,11,81,3,32,98,98,73,73,8,18,7,8,0.4,0.7
2026-04-21T1600,1730A,113.0887,36.2126,长治市,审计局,,32,15,87,8,37,101,101,70,70,2,16,6,9,0.2,0.5
2026-04-21T1600,1731A,113.0845,36.1856,长治市,长治八中,,32,8,99,3,34,101,101,64,NA,3,17,8,10,0.5,0.8
2026-04-21T1600,2845A,113.1561,36.1912,长治市,德盛苑,,31,8,84,3,34,99,99,78,73,5,16,7,9,0.3,0.7
2026-04-21T1600,3568A,113.0603,36.0464,长治市,向阳小学,,35,35,113,3,33,105,105,73,73,7,24,7,8,0.4,0.7
2026-04-21T1600,3569A,112.8788,36.315,长治市,屯留一中,,30,17,82,6,27,95,95,71,71,12,23,8,7,0.6,0.6
2026-04-21T1600,4189A,113.113092,36.199482,长治市,英华南巷50号,,31,14,96,3,38,98,98,70,70,4,15,2,5,0.5,0.7
2026-04-21T1600,4190A,113.23666,36.33435,长治市,学府街1号,,30,15,84,3,26,95,95,82,82,6,17,2,5,0.5,0.7
2026-04-21T1600,1854A,111.696,28.9725,常德市,市二中,,21,6,74,3,26,65,65,73,70,8,5,7,7,0.6,0.6
2026-04-21T1600,3138A,111.7152,29.0288,常德市,武陵区永安,,21,6,76,3,27,65,65,74,69,10,9,5,5,0.5,0.5
2026-04-21T1600,3139A,111.6891,28.9881,常德市,鼎城区玉霞,,20,6,73,3,25,64,64,74,71,7,4,9,9,0.9,0.8
2026-04-21T1600,3140A,111.6651,29.0526,常德市,武陵区长庚,,20,6,73,3,24,63,63,73,70,10,3,8,8,0.6,0.6
2026-04-21T1600,1196A,119.9524,31.7586,常州市,市监测站,颗粒物(PM10),84,97,69,16,12,74,74,73,73,38,20,6,5,0.5,0.6
2026-04-21T1600,1200A,119.9351,31.703,常州市,武进监测站,颗粒物(PM10),90,105,72,17,12,72,72,69,67,37,24,1,6,0.4,0.6
2026-04-21T1600,3002A,119.9701,31.813,常州市,行政中心,颗粒物(PM10),98,117,100,19,13,77,77,77,77,33,21,6,7,0.8,0.8
2026-04-21T1600,3003A,120.0434,31.7726,常州市,经开区,颗粒物(PM10),89,104,81,17,12,74,74,79,79,32,17,3,4,0.6,0.7
2026-04-21T1600,3010A,119.8919,31.7892,常州市,钟楼,颗粒物(PM10),85,98,66,19,15,80,80,80,80,44,25,9,10,0.3,0.3
2026-04-21T1600,3429A,119.8595,31.706,常州市,武进经发区,颗粒物(PM10),105,131,87,22,17,73,73,69,69,42,28,6,7,0.4,0.4
2026-04-21T1600,3430A,119.5812,31.7256,常州市,金坛城区,颗粒物(PM10),101,121,84,22,18,73,73,69,69,23,16,10,9,0.5,0.6
2026-04-21T1600,4089A,119.9551,31.863,常州市,崇义南街5-H号,颗粒物(PM10),88,103,94,19,12,77,77,80,80,31,17,7,7,0.3,0.5
2026-04-21T1600,2220A,120.4318,41.588,朝阳市,西梁,,34,23,108,3,13,108,108,98,98,6,13,4,3,0.3,0.3
2026-04-21T1600,2221A,120.452,41.565,朝阳市,河畔小区,,37,28,110,3,12,116,116,105,105,7,12,6,10,0.2,0.4
2026-04-21T1600,2222A,120.4176,41.5648,朝阳市,八里堡,,35,32,114,6,12,109,109,98,98,10,15,6,7,0.1,0.2
2026-04-21T1600,3026A,116.6179,23.6608,潮州市,市政府,,31,30,34,20,24,97,97,94,94,10,8,4,4,0.6,0.6
2026-04-21T1600,4036A,116.646,23.676,潮州市,金山,,35,35,31,24,23,86,86,91,91,14,9,3,3,0.5,0.4
2026-04-21T1600,2473A,113.0116,25.8228,郴州市,市职中,,20,16,13,14,8,28,28,42,35,17,13,7,7,0.6,0.6
2026-04-21T1600,2475A,113.0381,25.8074,郴州市,市审计局,,22,20,14,15,9,39,39,50,39,14,10,2,2,/,/
2026-04-21T1600,2476A,113.0348,25.7757,郴州市,市环保局,,32,32,21,20,11,30,30,46,34,20,12,11,7,0.7,0.6
2026-04-21T1600,4252A,113.0138,25.8011,郴州市,好美居路49号,,25,19,14,17,10,38,38,52,40,13,10,3,2,/,/
2026-04-21T1600,1431A,103.9727,30.7242,成都市,金泉两河,,27,6,53,3,24,85,85,62,62,8,12,2,2,0.3,0.3
2026-04-21T1600,1432A,104.1423,30.6765,成都市,十里店,,25,10,43,3,19,80,80,62,62,6,10,4,4,0.2,0.2
2026-04-21T1600,1433A,104.0594,30.5765,成都市,三瓦窑,,25,NA,41,3,17,80,80,64,64,2,3,2,2,0.5,0.5
2026-04-21T1600,1434A,104.1122,30.6306,成都市,沙河铺,,23,NA,44,3,18,72,72,55,55,10,14,2,2,0.2,0.2
2026-04-21T1600,2880A,104.0219,30.6561,成都市,大石西路,,25,22,45,3,22,79,79,57,57,6,10,4,4,0.3,0.4
2026-04-21T1600,3136A,104.2724,30.559,成都市,龙泉驿区区政府,,21,NA,27,6,16,66,66,59,59,5,7,6,7,0.4,0.4
2026-04-21T1600,3357A,104.0028,30.6891,成都市,金博路,,25,6,35,3,22,80,80,57,57,10,15,6,6,0.3,0.4
2026-04-21T1600,3359A,104.056,30.5228,成都市,华阳,,24,7,37,3,17,75,75,63,63,8,10,3,3,0.1,0.1
2026-04-21T1600,3488A,104.387954,30.746684,成都市,青石路225号,,25,NA,31,3,16,77,77,63,63,6,7,5,4,0.5,0.6
2026-04-21T1600,3489A,104.0788,30.4054,成都市,科学城,,24,10,44,3,16,76,76,66,66,6,7,4,4,0.6,0.6
2026-04-21T1600,4011A,103.8505,30.6946,成都市,光华大道三段,,28,10,53,3,23,88,88,63,63,12,16,3,3,0.4,0.4
2026-04-21T1600,4144A,104.3257,30.6406,成都市,八角井街185号,,20,6,36,3,15,64,64,58,58,8,10,6,5,0.4,0.4
2026-04-21T1600,4224A,104.2433276,30.53529463,成都市,鲸龙路1057号,,22,7,35,3,10,69,69,63,63,6,8,6,6,0.4,0.4
2026-04-21T1600,1062A,117.9531,40.908,承德市,铁路,,34,34,44,3,9,108,108,80,80,8,13,2,4,0.2,0.3
2026-04-21T1600,1063A,117.9397,40.9763,承德市,中国银行,,34,22,45,3,8,106,106,82,82,2,12,3,2,0.3,0.4
2026-04-21T1600,4073A,117.9462,40.95,承德市,杏林街1号,,36,24,44,10,13,114,114,85,85,1,12,1,4,0.2,0.4
2026-04-21T1600,4274A,117.7994,40.9605,承德市,滨河大街98号,,36,36,42,6,10,113,113,86,86,2,11,2,6,0.4,0.5
2026-04-21T1600,2314A,117.4698,30.6617,池州市,池州学院,,21,21,50,13,24,51,51,48,42,21,27,3,5,0.8,0.8
2026-04-21T1600,3237A,117.4918,30.6617,池州市,展览馆,,22,22,53,10,21,52,52,49,42,18,22,2,4,0.4,0.5
2026-04-21T1600,3333A,117.5626,30.695,池州市,第八中学,,19,19,50,10,22,52,52,46,42,18,26,3,5,0.5,0.5
2026-04-21T1600,3334A,117.5037,30.6242,池州市,第十二中学,,20,17,45,14,21,42,42,46,43,21,22,2,4,0.7,0.7
2026-04-21T1600,1744A,118.9229,42.2816,赤峰市,松山一中,,31,26,52,8,7,97,97,94,94,9,12,4,5,0.4,0.4
2026-04-21T1600,1745A,118.9588,42.2733,赤峰市,哈达街,,30,22,55,10,8,93,93,89,89,3,6,5,6,0.5,0.6
2026-04-21T1600,1746A,118.8792,42.2551,赤峰市,天义路,,31,20,41,9,8,98,98,94,94,4,6,5,6,0.2,0.2
2026-04-21T1600,3058A,119.2656,42.0356,赤峰市,银河街,,35,23,68,3,11,109,109,102,102,2,6,6,9,0.3,0.4
2026-04-21T1600,3286A,118.9359,42.3146,赤峰市,桥北物流园区,,31,31,49,13,11,97,97,91,91,2,20,4,4,0.0,0.1
2026-04-21T1600,2521A,107.3473,22.4137,崇左市,市环保局江州分局,颗粒物(PM10),53,54,49,33,31,82,82,68,68,7,10,6,3,0.6,0.6
2026-04-21T1600,4256A,107.375,22.3736,崇左市,石景林东路7号,,45,40,38,31,31,88,88,72,72,7,10,2,2,0.8,0.9
2026-04-21T1600,3207A,118.31131,32.3033,滁州市,市政府原办公楼,颗粒物(PM10),85,99,66,42,26,73,73,76,76,40,22,11,7,0.7,0.4
2026-04-21T1600,3331A,118.3268,32.2633,滁州市,图书馆,颗粒物(PM10),81,93,60,27,16,76,76,76,76,30,19,12,10,0.6,0.4
2026-04-21T1600,4101A,118.3196,32.3335,滁州市,银山路666号,颗粒物(PM10),96,114,71,30,17,79,79,82,82,37,18,13,7,0.5,0.3
2026-04-21T1600,4102A,118.3426,32.2979,滁州市,黄山路555号,颗粒物(PM10),105,132,83,28,17,72,72,74,74,38,23,12,8,0.9,0.6
2026-04-21T1600,2606A,101.5379,25.0492,楚雄彝族自治州,市经济开发区,,50,50,45,34,31,121,121,118,118,5,8,1,1,0.7,0.7
2026-04-21T1600,4153A,101.5536,25.0343,楚雄彝族自治州,团结路562号,颗粒物(PM10),56,58,40,34,29,123,123,124,124,5,5,4,3,0.4,0.4
2026-04-21T1600,2549A,107.5087,31.2186,达州市,市环境监测站,,18,18,26,3,6,52,52,42,42,7,14,6,6,0.3,0.3
2026-04-21T1600,2550A,107.4988,31.2132,达州市,凤凰小区,,18,9,25,3,7,55,55,43,43,6,13,6,6,0.1,0.1
2026-04-21T1600,2551A,107.5081,31.1987,达州市,达县机关宾馆,,15,12,25,3,6,45,45,36,36,14,21,6,6,0.2,0.2
2026-04-21T1600,2552A,107.4644,31.2124,达州市,市政中心,,26,26,30,3,5,56,56,38,38,8,14,6,8,0.3,0.3
2026-04-21T1600,2614A,100.2168,25.5818,大理白族自治州,大理市环境监测站,细颗粒物(PM2.5),64,48,38,42,32,105,105,101,101,11,11,4,4,0.6,0.6
2026-04-21T1600,2615A,100.1542,25.7055,大理白族自治州,大理古城,,46,46,37,19,25,114,114,102,102,4,10,4,4,0.5,0.6
2026-04-21T1600,1109A,121.6119,38.974,大连市,甘井子,颗粒物(PM10),54,55,90,20,25,142,142,126,126,14,14,10,9,0.7,0.6
2026-04-21T1600,1110A,121.565,38.9509,大连市,周水子,颗粒物(PM10),58,60,92,24,22,125,125,108,108,19,19,7,7,0.5,0.5
2026-04-21T1600,1111A,121.5637,38.8849,大连市,星海三站,NA,NA,78,89,41,18,137,137,109,109,20,14,NA,5,0.5,0.4
2026-04-21T1600,1112A,121.6301,38.9117,大连市,青泥洼桥,颗粒物(PM10),75,84,90,38,23,142,142,117,117,20,16,8,7,0.5,0.5
2026-04-21T1600,1113A,121.6248,38.8643,大连市,傅家庄,颗粒物(PM10),112,151,113,52,28,136,136,96,96,20,14,11,8,0.7,0.5
2026-04-21T1600,1114A,121.5117,38.8636,大连市,七贤岭,NA,NA,NA,84,49,23,151,151,115,115,20,13,9,7,0.6,0.4
2026-04-21T1600,1116A,121.7507,39.1339,大连市,金州,颗粒物(PM10),73,81,107,29,27,131,131,113,113,17,17,7,6,0.4,0.3
2026-04-21T1600,1117A,121.7811,39.0495,大连市,开发区,颗粒物(PM10),55,57,101,14,22,123,123,113,113,14,16,8,9,0.3,0.3
2026-04-21T1600,1118A,121.9762,39.0631,大连市,双D港,颗粒物(PM10),79,90,88,47,38,118,118,108,108,28,20,8,7,0.7,0.7
2026-04-21T1600,4082A,121.2548,38.8188,大连市,旅顺,颗粒物(PM10),90,105,105,44,29,142,142,106,106,18,16,8,6,0.6,0.4
2026-04-21T1600,1789A,124.8085,46.0381,大庆市,大同区,颗粒物(PM10),92,108,73,20,10,109,109,104,104,2,8,1,2,0.3,0.3
2026-04-21T1600,1790A,125.1166,46.5255,大庆市,龙凤区,颗粒物(PM10),65,71,49,12,11,90,90,89,89,8,11,1,4,0.1,0.4
2026-04-21T1600,1791A,124.8894,46.4007,大庆市,红岗区,颗粒物(PM10),75,84,56,19,11,92,92,92,92,4,7,5,6,0.3,0.4
2026-04-21T1600,1792A,125.1391,46.578,大庆市,萨尔图区,颗粒物(PM10),107,136,108,7,8,95,95,94,94,8,9,6,7,0.2,0.2
2026-04-21T1600,1793A,124.9026,46.6217,大庆市,让胡路区,,40,40,38,10,9,87,87,86,86,4,5,3,2,0.2,0.2
2026-04-21T1600,3481A,125.127,46.6277,大庆市,萨区政府监测点,,36,36,43,3,6,99,99,98,98,2,3,8,8,0.2,0.3
2026-04-21T1600,1723A,113.2926,40.0759,大同市,云冈宾馆,颗粒物(PM10),57,59,75,17,21,104,104,80,80,16,29,9,9,0.2,0.7
2026-04-21T1600,1724A,113.3437,40.0921,大同市,大同大学,,36,36,37,13,16,109,109,90,90,16,20,7,8,0.3,0.4
2026-04-21T1600,1725A,113.2637,40.129,大同市,安家小村,颗粒物(PM10),60,63,60,11,17,108,108,84,84,15,23,9,8,0.3,1.1
2026-04-21T1600,3282A,113.3399,40.0586,大同市,大同市卫生学校,颗粒物(PM10),51,51,57,11,15,116,116,93,93,14,25,8,8,0.3,0.6
2026-04-21T1600,3565A,113.1371,40.1122,大同市,云冈站,颗粒物(PM10),60,64,54,15,16,104,104,87,87,16,31,7,7,0.3,0.4
2026-04-21T1600,3566A,113.1186,40.2556,大同市,图书馆,,39,39,44,8,13,73,73,59,59,7,12,4,5,0.6,0.6
2026-04-21T1600,3567A,113.5931,40.0459,大同市,区一中,颗粒物(PM10),125,183,67,9,23,119,119,101,101,11,22,3,8,0.3,0.9
2026-04-21T1600,4199A,113.2798248,40.09972476,大同市,魏都大道141号,颗粒物(PM10),59,62,74,14,21,107,107,83,83,14,29,10,11,0.5,1.3
2026-04-21T1600,2269A,124.1068,50.4091,大兴安岭地区,科技局,,29,29,21,9,9,74,74,69,69,1,2,8,8,0.5,0.4
2026-04-21T1600,3663A,124.117,50.4279,大兴安岭地区,红旗社区,,26,9,12,3,6,81,81,75,75,1,5,8,9,0.2,0.3
2026-04-21T1600,1600A,124.33,40.0625,丹东市,江湾东路,颗粒物(PM10),112,149,161,30,29,135,135,101,101,14,15,6,5,0.5,0.4
2026-04-21T1600,1601A,124.4242,40.1513,丹东市,临江后街,颗粒物(PM10),102,125,128,29,25,125,125,97,97,13,12,9,8,0.6,0.5
2026-04-21T1600,1602A,124.3935,40.1461,丹东市,元宝山,颗粒物(PM10),98,117,124,29,26,128,128,96,96,15,14,10,8,0.5,0.6
2026-04-21T1600,1603A,124.3634,40.1093,丹东市,民主桥,颗粒物(PM10),102,123,148,30,31,127,127,95,95,15,17,10,9,0.6,0.7
2026-04-21T1600,3541A,109.5726195,19.51688767,儋州市,第一中学子站,,30,30,28,20,19,91,91,77,77,1,7,4,4,0.8,0.9
2026-04-21T1600,3542A,109.5567,19.5187,儋州市,东坡学校子站,,33,23,31,23,21,96,96,82,82,2,9,4,5,0.5,0.5
2026-04-21T1600,2616A,98.5611,24.4273,德宏傣族景颇族自治州,德宏州监测站,细颗粒物(PM2.5),94,68,56,57,55,136,136,88,88,8,17,6,7,0.5,0.7
2026-04-21T1600,3677A,98.5887,24.4366,德宏傣族景颇族自治州,芒市人民政府综合楼,颗粒物(PM10),89,104,87,53,52,122,122,79,79,10,14,6,4,0.3,0.7
2026-04-21T1600,1901A,104.424,31.1209,德阳市,东山公园,,24,6,27,3,15,76,76,56,56,2,4,3,3,0.4,0.5
2026-04-21T1600,1902A,104.3827,31.1318,德阳市,西小区,,23,11,39,3,14,73,73,54,54,5,8,3,3,0.3,0.4
2026-04-21T1600,1904A,104.3553,31.1091,德阳市,耐火材料厂,,25,13,35,3,14,78,78,59,59,8,13,2,2,0.2,0.3
2026-04-21T1600,4145A,104.4144,31.1495,德阳市,市林业局,,26,10,32,3,13,81,81,60,60,2,4,1,1,0.2,0.2
2026-04-21T1600,1622A,116.3034,37.4675,德州市,儿童乐园,颗粒物(PM10),88,102,107,28,28,87,87,86,86,13,16,9,8,0.5,0.4
2026-04-21T1600,1624A,116.2992,37.4449,德州市,监理站,颗粒物(PM10),83,95,108,27,24,90,90,87,87,19,20,11,9,0.4,0.4
2026-04-21T1600,3066A,116.2722,37.438,德州市,九衢泉纯净水厂,颗粒物(PM10),90,105,103,31,25,84,84,84,84,20,33,1,3,0.5,0.5
2026-04-21T1600,3371A,116.3693,37.44,德州市,开发区人民医院,颗粒物(PM10),83,95,107,27,23,87,87,78,78,17,21,12,10,0.3,0.4
2026-04-21T1600,3511A,116.5687,37.3331,德州市,陵城艺术中心,颗粒物(PM10),106,134,105,34,28,80,80,67,67,NA,17,NA,14,0.4,0.5
2026-04-21T1600,4292A,116.352738,37.420875,德州市,新河东路,颗粒物(PM10),80,92,99,25,20,84,84,73,73,15,22,9,8,0.7,0.5
2026-04-21T1600,2621A,99.7054,27.8319,迪庆藏族自治州,迪庆州站,,30,10,16,9,9,96,96,92,92,13,12,8,8,0.7,0.6
2026-04-21T1600,3180A,99.7122,27.8129,迪庆藏族自治州,质量技术监督局,,31,18,14,16,8,97,97,93,93,20,12,8,8,0.6,0.4
2026-04-21T1600,4257A,104.6092,35.5962,定西市,将台街,颗粒物(PM10),93,109,98,45,37,107,107,90,90,6,7,4,5,0.1,0.1
2026-04-21T1600,4309A,104.6159,35.5701,定西市,正龙路62号,颗粒物(PM10),94,111,99,38,34,103,103,90,90,8,7,3,2,0.3,0.3
2026-04-21T1600,4071A,114.9883,38.5232,定州市,交通局,颗粒物(PM10),109,141,97,32,23,105,105,80,80,20,22,19,9,1.4,0.5
2026-04-21T1600,4072A,115.0045,38.5136,定州市,第五中学,颗粒物(PM10),108,140,112,39,22,104,104,74,74,19,25,14,6,1.3,0.6
2026-04-21T1600,1390A,113.7943,23.0132,东莞市,东城石井,,29,12,43,7,30,92,92,73,73,8,31,5,5,0.4,0.7
2026-04-21T1600,1391A,113.7384,22.9659,东莞市,南城西平,,27,12,37,7,29,86,86,73,73,5,30,7,7,0.3,0.7
2026-04-21T1600,3319A,113.7283,23.041,东莞市,万江金泰,NA,NA,NA,46,15,36,89,89,75,75,8,28,NA,7,0.4,0.8
2026-04-21T1600,4129A,113.8666,23.1062,东莞市,裕兴路,,28,15,61,6,40,89,89,74,74,8,24,6,7,0.7,1
2026-04-21T1600,4130A,114.0076,22.9739,东莞市,教育路1号,,32,16,50,7,35,100,100,75,75,11,30,7,7,0.6,0.7
2026-04-21T1600,4131A,113.7981,22.8124,东莞市,长怡路1号,,25,17,29,8,17,77,77,69,69,8,21,6,8,0.1,0.4
2026-04-21T1600,1666A,118.6612,37.4313,东营市,市环保局,颗粒物(PM10),68,75,95,30,29,93,93,84,84,26,30,16,13,0.5,0.4
2026-04-21T1600,3036A,118.6903,37.4337,东营市,开发区管委会,颗粒物(PM10),70,78,103,33,27,97,97,88,88,34,37,15,10,0.8,0.6
2026-04-21T1600,3365A,118.5721,37.5654,东营市,垦利区民丰路,,48,48,87,30,25,106,106,90,90,15,22,9,8,0.3,0.4
2026-04-21T1600,3498A,118.5063,37.8606,东营市,河口城区,颗粒物(PM10),68,75,93,20,23,102,102,93,93,10,15,16,15,0.7,0.7
2026-04-21T1600,3646A,118.4979,37.4623,东营市,胜利站,颗粒物(PM10),58,60,73,22,22,92,92,74,74,20,27,6,7,0.4,0.4
2026-04-21T1600,3734A,118.5753,37.4405,东营市,理想之城,颗粒物(PM10),67,73,96,26,29,96,96,77,77,25,36,9,8,0.4,0.4
2026-04-21T1600,1591A,110.0024,39.8127,鄂尔多斯市,综合楼,,39,19,34,10,15,123,123,110,110,10,15,7,7,0.3,0.3
2026-04-21T1600,1592A,109.9485,39.8259,鄂尔多斯市,巴音孟克林场办事处,,40,17,31,7,10,128,128,114,114,5,12,6,5,0.3,0.5
2026-04-21T1600,1593A,109.7734,39.5987,鄂尔多斯市,康泽苑,,41,29,33,6,9,130,130,109,109,6,11,10,8,0.2,0.2
2026-04-21T1600,1594A,109.8121,39.5987,鄂尔多斯市,华泰汽车城,,39,24,34,11,10,123,123,100,100,7,17,11,9,0.2,0.3
2026-04-21T1600,1595A,109.9734,39.7884,鄂尔多斯市,奥林花园,,40,19,38,6,10,128,128,111,111,10,26,6,5,0.1,0.2
2026-04-21T1600,2436A,114.894,30.3989,鄂州市,市政府,,36,36,23,22,9,57,57,57,57,16,14,8,8,0.4,0.3
2026-04-21T1600,2437A,114.8986,30.3714,鄂州市,赵家坝,,37,37,28,24,9,49,49,52,52,14,9,6,7,0.6,0.4
2026-04-21T1600,3654A,114.8093,30.4091,鄂州市,精准医疗中心,,35,35,25,20,10,53,53,53,53,15,11,4,4,0.6,0.4
2026-04-21T1600,2454A,109.4978,30.2979,恩施土家族苗族自治州,湖北民院,,32,31,56,22,23,46,46,69,48,9,8,7,7,0.5,0.1
2026-04-21T1600,3549A,109.5061,30.3771,恩施土家族苗族自治州,龙凤新区,,32,32,57,13,21,32,32,61,39,15,7,7,6,0.4,0.3
2026-04-21T1600,2499A,108.3411,21.6159,防城港市,沙万,,34,34,35,17,17,72,72,60,60,8,15,6,6,0.6,0.6
2026-04-21T1600,2500A,108.3515,21.7733,防城港市,防城档案局,,26,26,27,15,17,72,72,66,66,2,5,7,7,0.4,0.5
2026-04-21T1600,2501A,108.3506,21.6414,防城港市,大海花园,,38,26,31,26,20,83,83,71,71,4,11,8,8,0.6,0.7
2026-04-21T1600,1371A,113.1293,23.0065,佛山市,湾梁,,29,24,29,10,24,90,90,68,68,6,24,/,/,/,/
2026-04-21T1600,1372A,113.1082,23.0477,佛山市,华材职中,,30,22,29,12,25,94,94,82,82,8,20,3,4,0.3,0.4
2026-04-21T1600,1373A,113.1439,23.045,佛山市,南海气象局,,29,21,32,11,24,90,90,79,79,12,25,/,/,/,/
2026-04-21T1600,1374A,113.2879,22.8094,佛山市,顺德苏岗,,27,14,21,10,18,85,85,79,79,5,15,/,/,0.4,0.5
2026-04-21T1600,1376A,112.8384,22.8678,佛山市,高明孔堂,,24,18,28,13,17,76,76,64,64,6,10,/,/,/,/
2026-04-21T1600,1377A,112.8835,23.1584,佛山市,三水监测站,,23,22,32,14,27,72,72,62,62,17,33,3,5,0.3,0.4
2026-04-21T1600,1378A,112.8668,23.185,佛山市,三水云东海,,46,46,45,15,27,79,79,67,67,13,24,/,/,/,/
2026-04-21T1600,3625A,113.2568,22.7629,佛山市,容桂街道办,,24,24,21,15,20,69,69,70,70,11,17,/,/,/,/
2026-04-21T1600,1282A,119.2681,26.0506,福州市,师大,,39,39,40,16,21,76,76,97,88,24,15,3,4,0.3,0.5
2026-04-21T1600,1283A,119.2983,26.1028,福州市,五四北路,,25,19,30,6,18,78,78,100,95,23,16,4,4,0.2,0.3
2026-04-21T1600,1284A,119.2648,26.0769,福州市,杨桥西路,,27,18,33,7,20,84,84,99,92,13,13,3,4,/,/
2026-04-21T1600,3048A,119.5799,26.0937,福州市,九龙,,30,30,29,15,16,70,70,105,84,19,11,5,6,0.3,0.4
2026-04-21T1600,3526A,119.5188,25.9666,福州市,吴航,,32,15,26,7,15,101,101,108,104,10,10,5,5,0.4,0.4
2026-04-21T1600,4104A,119.3106,26.0648,福州市,路通桥巷6号,,34,34,32,20,23,72,72,99,96,23,13,/,/,/,/
2026-04-21T1600,1755A,123.7974,41.8494,抚顺市,望花区,颗粒物(PM10),75,84,143,17,31,112,112,99,99,19,35,12,20,0.8,1.2
2026-04-21T1600,1756A,123.9161,41.8827,抚顺市,顺城区,颗粒物(PM10),55,57,121,10,27,114,114,97,97,12,27,12,20,0.5,0.9
2026-04-21T1600,1757A,124.0437,41.8615,抚顺市,东洲区,颗粒物(PM10),70,77,139,10,30,109,109,94,94,11,24,12,16,0.6,1.1
2026-04-21T1600,1758A,123.9246,41.8638,抚顺市,新抚区,颗粒物(PM10),68,74,137,12,30,116,116,98,98,11,24,10,16,0.5,1
2026-04-21T1600,1759A,124.0972,41.8961,抚顺市,大伙房水库,颗粒物(PM10),59,62,132,9,28,114,114,98,98,9,20,9,14,0.4,0.9
2026-04-21T1600,1760A,123.708,41.8386,抚顺市,沈抚新城,颗粒物(PM10),70,78,137,14,27,112,112,96,96,13,25,11,16,0.6,1
2026-04-21T1600,2377A,116.3544,27.9833,抚州市,市站,,35,28,38,24,23,55,55,47,47,11,9,4,5,1.0,0.8
2026-04-21T1600,2378A,116.3562,27.9631,抚州市,血防站,,24,24,35,16,22,64,64,50,50,12,9,6,8,1.0,0.9
2026-04-21T1600,2379A,116.3561,28.0007,抚州市,采茶剧团,,43,32,40,30,23,56,56,50,50,14,8,15,15,0.9,0.8
2026-04-21T1600,2380A,116.3854,27.9648,抚州市,医学分院,NA,NA,39,45,12,17,74,74,55,55,7,8,6,7,NA,1
2026-04-21T1600,2207A,121.6095,41.9978,阜新市,工业园区,,38,38,200,3,37,105,105,97,97,6,22,6,13,0.2,0.4
2026-04-21T1600,2208A,121.6567,42.0188,阜新市,长青街,,36,36,155,3,31,111,111,98,98,7,21,6,12,0.3,0.5
2026-04-21T1600,2209A,121.6672,42.07,阜新市,农业园区,,45,45,178,3,34,104,104,101,101,7,14,5,13,0.2,0.4
2026-04-21T1600,2211A,121.6343,42.0455,阜新市,玉龙新城,,37,37,194,3,30,109,109,101,101,8,28,4,8,0.2,0.4
2026-04-21T1600,2301A,115.8276,32.8929,阜阳市,市监测站,NA,NA,66,47,16,18,74,74,73,70,NA,15,6,6,NA,0.3
2026-04-21T1600,2303A,115.8551,32.8606,阜阳市,开发区,颗粒物(PM10),59,62,54,12,16,76,76,66,65,14,13,5,5,0.4,0.4
2026-04-21T1600,2875A,115.783962,32.889217,阜阳市,阜阳职业技术学院,,49,49,33,12,16,78,78,73,71,13,12,7,7,0.3,0.3
2026-04-21T1600,3468A,115.79,32.8614,阜阳市,市规划展馆,颗粒物(PM10),58,61,47,12,18,74,74,69,67,16,15,8,8,0.4,0.4
2026-04-21T1600,3469A,115.835101,32.918568,阜阳市,枣园社区,颗粒物(PM10),56,58,48,13,17,75,75,70,65,14,12,5,6,0.4,0.4
2026-04-21T1600,2669A,102.9097,34.9841,甘南藏族自治州,州政府,颗粒物(PM10),52,52,53,17,27,102,102,82,82,2,8,3,2,0.3,0.3
2026-04-21T1600,3380A,102.8915,34.9618,甘南藏族自治州,甘肃民族师范学院,,40,40,60,14,25,113,113,89,89,5,11,3,2,0.2,0.2
2026-04-21T1600,2570A,101.96,30.048,甘孜藏族自治州,水桥子,,20,12,8,6,2,61,61,55,55,9,11,6,6,0.0,0
2026-04-21T1600,3065A,101.9534,29.9976,甘孜藏族自治州,州环保局,,23,12,11,7,3,72,72,62,62,10,12,4,4,0.3,0.3
2026-04-21T1600,2363A,114.9368,25.8663,赣州市,地委,,35,35,36,13,24,77,77,79,79,3,9,1,2,1.1,1.1
2026-04-21T1600,2364A,114.946,25.8483,赣州市,气象台,,29,29,35,18,26,79,79,84,79,4,8,3,5,0.3,0.7
2026-04-21T1600,2365A,114.932,25.8332,赣州市,市图书馆,,29,20,31,20,24,75,75,80,76,4,9,3,4,0.9,0.9
2026-04-21T1600,2366A,114.8905,25.8472,赣州市,华坚鞋城,,27,27,35,17,25,72,72,86,78,8,11,6,6,0.8,0.9
2026-04-21T1600,3109A,115.0094,25.8614,赣州市,赣县区卫计委,,39,39,32,19,22,63,63,56,56,2,11,2,2,0.9,1
2026-04-21T1600,2684A,106.2753,36.0057,固原市,监测站,,30,NA,50,3,16,96,96,91,91,5,6,5,6,0.4,0.4
2026-04-21T1600,2685A,106.2384,36.0189,固原市,新区,,28,8,51,3,15,88,88,86,84,7,8,4,5,0.5,0.5
2026-04-21T1600,2544A,106.6307,30.4577,广安市,市委,,12,NA,41,8,18,32,32,36,32,8,7,6,6,0.4,0.3
2026-04-21T1600,2545A,106.6266,30.4662,广安市,友谊中学,,10,6,40,3,21,32,32,34,32,7,6,6,6,0.4,0.4
2026-04-21T1600,2547A,106.6386,30.4551,广安市,广电花园,,11,11,44,7,26,27,27,33,28,12,11,5,6,0.4,0.3
2026-04-21T1600,2902A,106.6347,30.4868,广安市,北辰小学,,12,9,45,3,24,38,38,37,37,8,7,10,10,0.3,0.3
2026-04-21T1600,2524A,105.8211,32.4444,广元市,老城,,25,10,35,3,9,77,77,75,75,5,6,1,1,0.4,0.4
2026-04-21T1600,2526A,105.8629,32.429,广元市,监测站,,24,14,24,3,6,76,76,71,71,6,9,3,3,0.4,0.4
2026-04-21T1600,3617A,105.8047,32.4167,广元市,经开区,,24,8,15,3,5,74,74,70,70,7,8,2,2,0.3,0.3
2026-04-21T1600,1345A,113.2346,23.1423,广州市,广雅中学,,28,25,31,12,20,89,89,76,76,6,18,2,2,0.7,0.7
2026-04-21T1600,1346A,113.2611,23.105,广州市,市五中,,33,21,28,15,22,105,105,93,93,13,24,4,3,/,/
2026-04-21T1600,1348A,113.3477,23.0916,广州市,广东商学院,,34,21,26,15,19,106,106,88,88,10,23,5,5,0.7,0.8
2026-04-21T1600,1349A,113.4332,23.105,广州市,市八十六中,,28,25,23,16,16,88,88,84,84,18,33,6,7,/,/
2026-04-21T1600,1350A,113.3506,22.9488,广州市,番禺中学,,31,25,26,13,15,97,97,87,87,9,21,6,5,0.5,0.6
2026-04-21T1600,1351A,113.2147,23.3918,广州市,花都师范,,37,24,37,19,25,118,118,87,87,16,37,6,6,0.7,0.9
2026-04-21T1600,1352A,113.2599,23.1329,广州市,市监测站,,31,25,30,13,17,97,97,83,83,4,15,4,3,/,/
2026-04-21T1600,1353A,113.5618,23.3119,广州市,九龙镇镇龙,,35,23,40,13,27,109,109,77,77,19,24,6,6,0.3,0.5
2026-04-21T1600,1354A,113.2764,23.1544,广州市,麓湖,,33,24,29,15,20,105,105,88,88,13,19,5,5,0.3,0.4
2026-04-21T1600,2846A,113.3209,23.1323,广州市,体育西,,34,25,30,13,18,106,106,85,85,11,23,5,5,0.5,0.6
2026-04-21T1600,3298A,113.5718,23.5493,广州市,从化街口,,41,22,42,15,30,131,131,91,91,11,18,7,7,0.6,0.7
2026-04-21T1600,3299A,113.3463,23.369,广州市,白云竹料,,37,23,46,12,31,117,117,84,84,15,30,3,3,0.5,0.7
2026-04-21T1600,3300A,113.2981,23.2365,广州市,白云嘉禾,,35,29,34,15,23,111,111,93,93,13,29,6,5,/,/
2026-04-21T1600,3301A,113.4256,23.1716,广州市,黄埔科学城,,31,23,27,14,20,97,97,89,89,14,24,5,5,0.4,0.6
2026-04-21T1600,3302A,113.3942,23.0485,广州市,番禺大学城,,35,25,23,6,14,110,110,98,98,11,20,5,5,0.5,0.6
2026-04-21T1600,3303A,113.4923,22.8169,广州市,南沙黄阁,NA,NA,NA,29,14,14,85,85,74,74,10,15,6,6,/,/
2026-04-21T1600,3304A,113.534,22.7893,广州市,南沙街,,25,23,27,12,15,77,77,70,70,9,18,6,6,0.3,0.4
2026-04-21T1600,3443A,113.2905,23.5541,广州市,花都梯面,,37,24,40,13,28,117,117,76,76,18,22,7,7,/,/
2026-04-21T1600,3445A,113.786,23.7479,广州市,从化良口,,35,27,34,20,24,111,111,76,76,8,12,5,4,/,/
2026-04-21T1600,3446A,113.805,23.2614,广州市,增城荔城,,30,14,42,9,30,95,95,80,80,7,17,6,6,0.4,0.7
2026-04-21T1600,2506A,109.604387,23.066791,贵港市,江南子站,,39,39,51,27,31,62,62,49,49,8,20,8,11,0.7,0.8
2026-04-21T1600,2508A,109.5669,23.1065,贵港市,荷城子站,,43,39,38,30,28,57,57,48,48,15,17,10,12,0.7,0.8
2026-04-21T1600,3405A,109.5886,23.1172,贵港市,新世纪学校,,39,39,43,22,32,59,59,49,49,19,24,/,/,0.6,0.6
2026-04-21T1600,4260A,109.5933,23.095,贵港市,中山路155-3号,,41,41,52,26,33,64,64,54,54,11,19,/,/,0.4,1
2026-04-21T1600,1439A,106.6863,26.6035,贵阳市,马鞍山,,25,19,15,17,9,23,23,42,20,12,11,2,3,/,/
2026-04-21T1600,1441A,106.6241,26.6266,贵阳市,鉴湖路,颗粒物(PM10),51,51,30,24,10,15,15,46,26,17,13,5,5,0.6,0.8
2026-04-21T1600,1442A,106.7468,26.6344,贵阳市,燕子冲,,27,27,21,14,7,30,30,46,30,10,8,6,5,0.6,1
2026-04-21T1600,1443A,106.6556,26.4362,贵阳市,碧云窝,,44,44,36,26,15,39,39,40,34,18,14,8,6,/,/
2026-04-21T1600,1445A,106.6963,26.6063,贵阳市,红边门,NA,NA,27,17,21,11,23,23,44,21,NA,11,NA,6,/,/
2026-04-21T1600,1446A,106.7162383,26.56964667,贵阳市,新华路,,24,24,22,15,8,24,24,41,25,11,12,2,2,0.6,0.3
2026-04-21T1600,1447A,106.6742,26.542,贵阳市,太慈桥,,28,24,19,19,9,26,26,41,21,12,14,2,3,/,/
2026-04-21T1600,4230A,106.688212,26.56952,贵阳市,花果园大街66号,,25,19,11,17,9,27,27,46,24,11,12,2,2,/,/
2026-04-21T1600,4231A,106.687268,26.516892,贵阳市,漓江路57号,,26,24,17,18,10,24,24,40,21,12,13,5,5,0.7,0.7
2026-04-21T1600,1864A,110.3091,25.2705,桂林市,龙隐路小学,,15,NA,12,7,8,47,47,54,49,9,8,3,3,0.4,0.5
2026-04-21T1600,1865A,110.2849361,25.22909545,桂林市,八中,,12,10,13,3,4,36,36,50,40,18,14,3,3,0.7,0.7
2026-04-21T1600,3531A,110.296,25.1254,桂林市,旅游学院,,12,6,23,3,8,38,38,50,44,14,8,6,6,0.7,0.6
2026-04-21T1600,4222A,110.1835,25.2444,桂林市,环湖路276号,,13,6,10,3,10,41,41,56,46,12,9,3,4,0.4,0.4
2026-04-21T1600,4301A,110.2803,25.2773,桂林市,信义路13号,,11,9,10,3,5,35,35,52,40,14,12,3,4,0.7,0.7
2026-04-21T1600,2674A,100.2262,34.4854,果洛藏族自治州,玛沁县大武镇,NA,NA,26,34,11,17,123,123,97,97,NA,2,20,19,0.2,0.3
2026-04-21T1600,1130A,126.5557,45.8109,哈尔滨市,松北商大,颗粒物(PM10),55,56,58,9,8,99,99,89,89,5,6,6,6,0.5,0.5
2026-04-21T1600,1132A,126.6162,45.719,哈尔滨市,南岗学府路,颗粒物(PM10),75,84,70,9,7,100,100,92,92,6,10,2,1,0.4,0.4
2026-04-21T1600,1133A,126.6894,45.7733,哈尔滨市,太平宏伟公园,颗粒物(PM10),80,92,67,3,6,100,100,90,90,8,8,5,5,0.3,0.3
2026-04-21T1600,1134A,126.6361,45.7672,哈尔滨市,道外承德广场,NA,NA,112,101,3,6,98,98,87,87,8,9,NA,6,0.2,0.5
2026-04-21T1600,1136A,126.644,45.7261,哈尔滨市,动力和平路,颗粒物(PM10),76,86,74,9,6,98,98,89,89,8,11,3,2,0.3,0.3
2026-04-21T1600,1137A,126.5933,45.7479,哈尔滨市,道里建国路,,39,39,52,9,8,97,97,90,90,7,10,1,3,0.2,0.1
2026-04-21T1600,1138A,126.6127,45.6119,哈尔滨市,平房东轻厂,颗粒物(PM10),78,88,90,7,6,89,89,85,85,15,12,12,14,0.5,0.6
2026-04-21T1600,1139A,126.5875,45.9827,哈尔滨市,呼兰师专,NA,NA,NA,NA,NA,NA,NA,NA,NA,NA,NA,NA,NA,NA,NA,NA
2026-04-21T1600,1140A,126.6299,45.6799,哈尔滨市,省农科院,,30,NA,82,14,11,94,94,82,82,7,8,6,6,0.1,0.3
2026-04-21T1600,4282A,126.6769,45.7379,哈尔滨市,华山路1号,颗粒物(PM10),80,92,82,11,8,104,104,95,95,2,4,4,5,0.1,0.2
2026-04-21T1600,4283A,126.9717,45.5356,哈尔滨市,解放大街52号,颗粒物(PM10),90,105,107,7,5,95,95,92,92,12,8,1,3,0.4,0.5
2026-04-21T1600,2688A,93.5124,42.8176,哈密市,地区监测站,NA,NA,57,70,NA,28,105,105,83,83,4,10,9,8,0.3,0.4
2026-04-21T1600,2689A,93.5014,42.8312,哈密市,哈密师范学校,细颗粒物(PM2.5),90,76,68,55,31,108,108,82,82,5,12,7,8,0.2,0.2
2026-04-21T1600,2671A,100.9016,36.9464,海北藏族自治州,海晏县西海镇,颗粒物(PM10),73,81,88,33,43,110,110,94,94,1,3,4,11,0.4,0.5
2026-04-21T1600,3867A,102.074,36.5056,海东市,平安区公安局北苑,颗粒物(PM10),70,77,94,40,47,121,121,99,99,6,11,6,14,0.5,0.5
2026-04-21T1600,4163A,102.0984,36.5119,海东市,滨河路,NA,NA,65,94,37,46,97,97,82,82,NA,19,6,13,0.7,0.7
2026-04-21T1600,1410A,110.3189,20.0596,海口市,海南大学,NA,NA,25,25,18,18,83,83,74,74,4,5,NA,5,0.4,0.4
2026-04-21T1600,1411A,110.2827,20.0051,海口市,秀英海南医院,,26,26,24,18,18,82,82,71,71,5,7,8,8,0.3,0.3
2026-04-21T1600,1412A,110.3391,19.9979,海口市,海南师范大学,,30,30,26,19,19,80,80,73,73,4,6,6,6,0.5,0.5
2026-04-21T1600,1413A,110.3303,20.0359,海口市,龙华路环保局宿舍,,29,29,28,19,19,86,86,76,76,5,10,/,/,0.6,0.6
2026-04-21T1600,3539A,110.5111,19.9737,海口市,桂林洋子站,,25,25,25,17,16,67,67,64,64,4,6,/,/,/,/
2026-04-21T1600,4134A,110.1952,20.0451,海口市,长滨二路9号,,32,32,27,20,18,86,86,72,72,3,5,/,/,/,/
2026-04-21T1600,2673A,100.6158,36.2985,海南藏族自治州,共和县恰卜恰镇,颗粒物(PM10),86,100,60,46,30,120,120,103,103,2,5,13,8,0.2,0.3
2026-04-21T1600,2676A,97.373,37.376,海西蒙古族藏族自治州,德令哈市,NA,NA,NA,130,NA,48,140,140,131,131,2,3,13,16,NA,0.4
2026-04-21T1600,1049A,114.492,36.5712,邯郸市,矿院,,37,37,67,12,21,82,82,54,54,5,13,4,5,0.5,0.4
2026-04-21T1600,1050A,114.4839,36.6136,邯郸市,丛台公园,,30,25,66,21,27,84,84,59,59,11,18,3,3,0.4,0.4
2026-04-21T1600,3458A,114.7893,36.5592,邯郸市,香泉濮院小区,,26,24,76,15,27,82,82,66,66,8,11,1,3,0.3,0.3
2026-04-21T1600,3580A,114.1998,36.4439,邯郸市,峰峰矿区临水派出所,,33,29,71,14,33,105,105,85,85,7,16,1,4,0,0.6
2026-04-21T1600,4068A,114.5209,36.7697,邯郸市,建安街268号,,46,46,77,18,29,84,84,59,59,11,19,2,4,0.4,0.5
2026-04-21T1600,4069A,114.5488,36.6177,邯郸市,丛台东路558号,,41,41,71,17,33,79,79,51,51,8,16,4,3,0.4,0.4
2026-04-21T1600,2635A,107.0155,33.0707,汉中市,市监测站,,26,21,67,11,28,81,81,76,76,6,7,4,4,0.3,0.2
2026-04-21T1600,2636A,107.0083,33.114,汉中市,鑫源开发区,,26,18,66,7,27,81,81,78,78,6,6,4,4,0.3,0.3
2026-04-21T1600,2637A,107.0072,33.0323,汉中市,南郑大河坎水厂,,25,16,69,10,27,77,77,73,73,5,5,4,3,0.3,0.2
2026-04-21T1600,1223A,120.2073,30.2111,杭州市,滨江,颗粒物(PM10),71,79,63,27,27,47,47,72,52,41,19,8,7,0.9,0.8
2026-04-21T1600,1224A,120.0625,30.2737,杭州市,西溪,颗粒物(PM10),69,76,60,29,27,57,57,70,52,21,14,4,4,0.7,0.7
2026-04-21T1600,1226A,120.3417,30.315,杭州市,下沙,颗粒物(PM10),79,90,65,24,20,61,61,72,59,23,14,8,7,0.6,0.6
2026-04-21T1600,1227A,120.1252,30.2465,杭州市,卧龙桥,颗粒物(PM10),60,63,51,25,25,58,58,81,58,37,23,9,8,0.5,0.4
2026-04-21T1600,1228A,120.1902,30.2691,杭州市,浙江农大,颗粒物(PM10),64,69,52,24,21,62,62,73,55,35,27,8,7,0.4,0.4
2026-04-21T1600,1230A,120.1195,30.3121,杭州市,和睦小学,颗粒物(PM10),63,68,50,27,22,55,55,70,54,31,17,6,6,0.6,0.6
2026-04-21T1600,1231A,120.3076,30.4146,杭州市,临平镇,颗粒物(PM10),66,72,51,20,18,85,85,80,77,22,16,6,6,0.4,0.5
2026-04-21T1600,1232A,120.2753,30.1839,杭州市,城厢镇,颗粒物(PM10),66,72,54,29,27,46,46,67,47,40,21,6,6,0.5,0.4
2026-04-21T1600,1233A,120.0883,30.1808,杭州市,云栖,颗粒物(PM10),60,64,60,31,29,43,43,72,49,41,25,7,6,0.7,0.6
2026-04-21T1600,3557A,119.9463,30.0496,杭州市,镇二中,,49,49,55,34,33,49,49,70,56,30,19,4,4,0.5,0.4
2026-04-21T1600,3558A,119.7184,30.2367,杭州市,市府大楼,,48,48,49,30,29,41,41,57,45,30,20,6,6,0.6,0.6
2026-04-21T1600,3656A,120.1554,30.2863,杭州市,消防大队,颗粒物(PM10),69,76,53,26,24,57,57,66,53,25,15,5,5,0.3,0.4
2026-04-21T1600,1270A,117.1957,31.7845,合肥市,明珠广场,颗粒物(PM10),70,78,52,26,17,67,67,56,56,28,20,8,7,0.6,0.6
2026-04-21T1600,1271A,117.307,31.8765,合肥市,三里街,颗粒物(PM10),65,70,51,23,14,69,69,53,53,26,22,6,6,0.5,0.5
2026-04-21T1600,1272A,117.2587,31.8703,合肥市,琥珀山庄,颗粒物(PM10),70,78,55,22,15,76,76,61,61,26,22,6,7,0.7,0.7
2026-04-21T1600,1275A,117.2593,31.9376,合肥市,庐阳区,颗粒物(PM10),68,75,58,24,16,78,78,64,64,19,15,6,5,0.7,0.6
2026-04-21T1600,1276A,117.345251,31.861615,合肥市,瑶海区,颗粒物(PM10),63,68,53,23,14,71,71,60,60,27,19,7,7,0.6,0.5
2026-04-21T1600,1277A,117.3033,31.7967,合肥市,包河区,NA,NA,NA,54,21,15,63,63,47,47,30,31,10,8,0.5,0.5
2026-04-21T1600,1278A,117.278,31.7392,合肥市,滨湖新区,颗粒物(PM10),74,83,57,22,15,70,70,59,59,17,15,6,5,0.6,0.5
2026-04-21T1600,1279A,117.1324,31.8395,合肥市,高新区,颗粒物(PM10),65,70,53,22,15,72,72,57,57,19,16,6,5,0.6,0.5
2026-04-21T1600,3464A,117.3802,31.9148,合肥市,高教基地,NA,NA,NA,55,NA,13,76,76,66,66,NA,14,9,8,0.6,0.5
2026-04-21T1600,4098A,117.2518,31.8404,合肥市,中国科学技术大学,颗粒物(PM10),68,75,51,22,15,72,72,62,62,19,14,6,7,0.6,0.6
2026-04-21T1600,3614A,79.9241,37.0878,和田地区,地区环保局,颗粒物(PM10),398,498,921,145,290,114,114,80,80,3,10,3,2,0.4,0.5
2026-04-21T1600,3615A,79.9132,37.1137,和田地区,市环保局,颗粒物(PM10),429,529,877,135,349,117,117,78,78,2,15,1,2,0.4,0.6
2026-04-21T1600,2517A,108.0496,24.6957,河池市,市环保站,,33,33,33,21,23,82,82,53,53,2,5,5,6,0.7,0.7
2026-04-21T1600,4302A,108.0901,24.6945,河池市,上任中路54号,NA,NA,45,34,24,22,87,87,58,58,NA,10,6,7,NA,0.7
2026-04-21T1600,1697A,114.6962,23.7538,河源市,东埔,,23,13,34,13,27,73,73,89,72,5,8,5,6,0.5,0.6
2026-04-21T1600,1698A,114.6895,23.7232,河源市,老城,,27,27,40,13,29,72,72,79,71,5,9,6,7,0.5,0.6
2026-04-21T1600,3374A,115.5562,35.089,菏泽市,定陶老年大学,,44,44,78,16,22,94,94,91,91,10,12,6,6,0.4,0.4
2026-04-21T1600,4114A,115.4239,35.2593,菏泽市,黄河路600号,,40,40,95,12,24,92,92,71,NA,11,16,2,4,0.2,0.2
2026-04-21T1600,4115A,115.5025,35.2727,菏泽市,菏泽市人社局,,42,42,84,13,20,92,92,90,90,11,14,6,6,0.2,0.2
2026-04-21T1600,4184A,115.479691,35.244011,菏泽市,永昌路1号,,36,36,86,15,23,103,103,96,96,15,20,3,3,0.5,0.5
2026-04-21T1600,4193A,115.471542,35.280012,菏泽市,长城路999号,,39,39,81,13,20,104,104,100,100,12,14,7,7,0.1,0.1
2026-04-21T1600,2514A,111.5264,24.4178,贺州市,环保小区,,38,38,45,24,31,34,34,32,32,25,19,6,7,0.4,0.4
2026-04-21T1600,2515A,111.561,24.4074,贺州市,政协大楼,,33,27,35,23,30,72,72,63,63,13,17,10,10,0.5,0.5
2026-04-21T1600,3534A,111.4744,24.455,贺州市,西湾,,49,49,56,25,30,45,45,40,40,15,18,9,9,0.6,0.6
2026-04-21T1600,2385A,114.17,35.9019,鹤壁市,市监测站,,28,15,68,3,29,88,88,79,79,10,15,4,6,0.3,0.5
2026-04-21T1600,2386A,114.2953,35.7512,鹤壁市,市交警支队,,28,26,79,3,21,88,88,79,79,13,29,4,7,0.4,0.4
2026-04-21T1600,2387A,114.2877,35.7302,鹤壁市,迎宾馆,,31,31,90,11,27,83,83,72,72,12,22,4,7,0.4,0.5
2026-04-21T1600,3474A,114.2616,35.6824,鹤壁市,大新区,,28,21,83,9,28,87,87,70,70,8,22,4,4,0.3,0.4
2026-04-21T1600,3596A,114.1573,35.9607,鹤壁市,南山宾馆,,29,29,81,13,29,74,74,73,73,10,13,8,8,0.4,0.5
2026-04-21T1600,2244A,130.2537,47.3416,鹤岗市,哈啤分公司,,25,23,48,7,14,78,78,75,75,7,7,11,11,0.3,0.3
2026-04-21T1600,2245A,130.2683,47.3087,鹤岗市,斯达机电,,25,23,62,6,14,79,79,76,76,4,7,12,11,0.3,0.4
2026-04-21T1600,2246A,130.3114,47.3388,鹤岗市,东山纸板厂,,39,39,73,12,16,85,85,82,82,6,11,9,11,0.4,0.6
2026-04-21T1600,2263A,127.4832,50.2524,黑河市,交通局,,33,33,27,12,15,71,71,71,71,14,10,5,5,0.2,0.2
2026-04-21T1600,2264A,127.5146,50.2339,黑河市,环保局,,24,20,23,7,11,74,74,72,72,8,10,8,7,0.3,0.3
2026-04-21T1600,1074A,115.6839,37.754,衡水市,电机北厂,颗粒物(PM10),72,80,90,24,20,90,90,85,85,15,20,11,5,0.4,0.2
2026-04-21T1600,1075A,115.6303,37.7318,衡水市,市监测站,颗粒物(PM10),72,80,90,25,17,84,84,79,79,15,20,9,6,0.3,0.2
2026-04-21T1600,3188A,115.6684,37.7216,衡水市,市城管局,颗粒物(PM10),78,89,91,20,23,89,89,83,83,12,18,4,3,0.3,0.3
2026-04-21T1600,3459A,115.599,37.5491,衡水市,地表水厂,颗粒物(PM10),77,87,88,28,21,80,80,76,76,11,20,4,4,0.4,0.3
2026-04-21T1600,2457A,112.6209,26.9268,衡阳市,衡阳化工总厂,,14,10,8,3,3,43,43,52,41,8,8,4,4,0.6,0.5
2026-04-21T1600,2458A,112.621,26.8957,衡阳市,珠晖区环保局,,12,9,8,3,2,37,37,48,36,13,10,6,7,0.8,0.7
2026-04-21T1600,2459A,112.628,26.8654,衡阳市,市委党校,,13,11,8,3,4,40,40,53,38,8,6,8,8,0.8,0.7
2026-04-21T1600,2460A,112.6007,26.8977,衡阳市,市监测站,,14,12,11,6,5,43,43,52,38,12,10,7,6,0.7,0.7
2026-04-21T1600,2461A,112.5658,26.9013,衡阳市,真空机电公司,,14,12,9,8,5,43,43,54,37,11,9,6,6,0.7,0.7
2026-04-21T1600,3399A,112.6703,26.8817,衡阳市,师范学院,,15,9,9,9,6,46,46,55,44,11,8,6,6,0.6,0.5
2026-04-21T1600,3038A,103.3757,23.3679,红河哈尼族彝族自治州,州图书馆,细颗粒物(PM2.5),58,45,54,39,45,129,129,122,122,5,6,4,4,0.3,0.5
2026-04-21T1600,4154A,103.401,23.3561,红河哈尼族彝族自治州,蒙自市朝阳路,,49,NA,43,34,40,126,126,120,120,5,7,5,5,0.4,0.6
2026-04-21T1600,1090A,111.6506,40.7517,呼和浩特市,呼市一监,颗粒物(PM10),63,68,103,20,52,113,113,90,90,10,32,6,9,0.3,0.6
2026-04-21T1600,1094A,111.7516,40.8369,呼和浩特市,如意水处理厂,颗粒物(PM10),55,57,72,24,29,120,120,91,91,8,28,9,10,0.2,0.4
2026-04-21T1600,1095A,111.727798,40.806187,呼和浩特市,二十九中,颗粒物(PM10),63,68,90,11,43,114,114,88,88,8,27,11,12,0.2,0.6
2026-04-21T1600,1097A,111.717,40.7617,呼和浩特市,化肥厂生活区,颗粒物(PM10),53,54,103,10,58,115,115,89,89,9,33,7,10,0.3,0.7
2026-04-21T1600,3699A,111.6519,40.8389,呼和浩特市,海东办,颗粒物(PM10),68,75,69,43,39,115,115,88,88,9,33,6,7,0.2,0.4
2026-04-21T1600,4275A,111.591512,40.827312,呼和浩特市,成吉思汗西街8号,颗粒物(PM10),90,105,72,24,22,112,112,94,94,11,32,6,7,0.4,0.5
2026-04-21T1600,4276A,111.6597,40.8077,呼和浩特市,公园东路75号,颗粒物(PM10),75,85,80,18,35,109,109,88,88,10,26,6,9,0.2,0.4
2026-04-21T1600,4277A,111.5427,40.7846,呼和浩特市,金海路35号,颗粒物(PM10),71,79,74,19,29,105,105,84,84,16,29,6,8,0.3,0.4
2026-04-21T1600,3061A,119.7511,49.1576,呼伦贝尔市,国华电力东,,29,26,25,7,11,91,91,87,87,5,6,5,5,0.3,0.3
2026-04-21T1600,4279A,119.7569,49.2222,呼伦贝尔市,伊敏大街东7号,,30,25,23,11,9,93,93,88,88,5,6,6,6,0.4,0.4
2026-04-21T1600,1250A,120.075,30.867,湖州市,城西水厂,颗粒物(PM10),68,74,56,19,18,104,104,81,81,14,16,5,6,0.3,0.4
2026-04-21T1600,2873A,120.083,30.8929,湖州市,仁皇山新区,颗粒物(PM10),69,76,56,18,17,93,93,75,75,17,19,5,6,0.3,0.4
2026-04-21T1600,2907A,120.1846,30.8592,湖州市,吴兴区站,颗粒物(PM10),68,74,58,19,17,97,97,78,78,19,19,6,6,0.1,0.2
2026-04-21T1600,3562A,120.4146,30.8538,湖州市,南浔区站,颗粒物(PM10),62,66,56,18,18,92,92,76,76,16,16,6,6,0.5,0.5
2026-04-21T1600,1607A,120.904878,40.721091,葫芦岛市,龙港区,颗粒物(PM10),88,102,93,22,16,119,119,95,95,21,25,11,10,0.5,0.5
2026-04-21T1600,1608A,120.8382,40.7521,葫芦岛市,化工街,颗粒物(PM10),90,105,110,29,24,110,110,93,93,17,38,15,16,0.4,0.6
2026-04-21T1600,1609A,120.8339,40.7078,葫芦岛市,新区,颗粒物(PM10),101,121,80,29,18,114,114,92,92,21,29,11,9,0.7,0.6
2026-04-21T1600,1610A,120.8697,40.7679,葫芦岛市,东城区,颗粒物(PM10),72,80,117,31,28,112,112,96,96,23,46,11,14,0.5,0.8
2026-04-21T1600,2483A,109.9297,27.5383,怀化市,河西地税局,,16,6,22,3,10,49,49,52,45,6,6,6,6,/,/
2026-04-21T1600,2484A,109.9783,27.5342,怀化市,市四医院,NA,NA,14,29,3,10,48,48,54,45,5,5,3,2,NA,0.3
2026-04-21T1600,2485A,109.9971,27.5579,怀化市,监测楼,,15,6,20,3,6,47,47,52,43,5,5,2,3,0.4,0.4
2026-04-21T1600,1210A,119.0566,33.5991,淮安市,钵池山,颗粒物(PM10),79,90,75,19,21,75,75,66,66,13,24,10,9,0.3,0.3
2026-04-21T1600,1211A,119.0083,33.578,淮安市,北京南路,颗粒物(PM10),88,102,79,17,20,70,70,62,62,11,19,9,8,0.3,0.3
2026-04-21T1600,1212A,118.9938,33.6083,淮安市,市监测站,颗粒物(PM10),83,95,74,20,22,80,80,74,74,13,17,7,6,0.5,0.5
2026-04-21T1600,1213A,119.135,33.5038,淮安市,楚州区监测站,颗粒物(PM10),88,103,78,17,22,75,75,61,61,11,29,6,6,0.3,0.4
2026-04-21T1600,3426A,118.8757,33.2897,淮安市,新华书店,颗粒物(PM10),83,96,76,17,19,72,72,71,71,11,22,7,7,0.2,0.4
2026-04-21T1600,4092A,119.119691,33.550006,淮安市,枚皋中路89号,颗粒物(PM10),85,98,70,17,22,82,82,64,64,12,23,8,7,0.4,0.4
2026-04-21T1600,4206A,119.028838,33.631911,淮安市,承德北路606号,颗粒物(PM10),93,110,84,16,20,69,69,63,63,14,24,9,8,0.4,0.5
2026-04-21T1600,2282A,116.8005,33.9749,淮北市,监测站,颗粒物(PM10),71,79,89,16,21,77,77,76,76,21,20,8,8,0.4,0.4
2026-04-21T1600,2283A,116.8094,33.9008,淮北市,烈山区政府,颗粒物(PM10),61,65,88,15,21,78,78,78,78,14,18,7,7,0.3,0.3
2026-04-21T1600,4017A,116.7926,33.9534,淮北市,市博物馆,颗粒物(PM10),66,72,83,17,23,77,77,80,80,18,17,10,10,0.3,0.4
2026-04-21T1600,4100A,116.8322,33.9884,淮北市,杜集区第一实验学校,颗粒物(PM10),73,82,91,14,21,80,80,77,77,16,16,8,9,0.3,0.4
2026-04-21T1600,2277A,116.8304,32.7726,淮南市,潘集区政府,颗粒物(PM10),58,61,55,15,14,72,72,76,76,22,18,6,6,0.3,0.3
2026-04-21T1600,2279A,116.8569,32.5949,淮南市,谢家集区政府,,32,NA,48,22,17,68,68,72,68,21,14,9,9,0.4,0.3
2026-04-21T1600,2280A,116.8279,32.6333,淮南市,八公山区政府,颗粒物(PM10),65,71,61,22,16,69,69,75,66,15,11,6,7,0.5,0.3
2026-04-21T1600,2894A,117.0561,32.6536,淮南市,经济技术开发区消防队,颗粒物(PM10),70,77,62,23,16,61,61,68,65,27,18,8,7,0.3,0.1
2026-04-21T1600,3329A,117.011,32.5891,淮南市,山南新区,颗粒物(PM10),76,86,64,23,17,81,81,77,73,18,16,9,8,0.5,0.3
2026-04-21T1600,4209A,117.003137,32.644456,淮南市,国庆中路369号,颗粒物(PM10),66,72,60,19,16,65,65,68,62,18,13,8,6,0.5,0.4
2026-04-21T1600,2446A,114.9021,30.474,黄冈市,职工中心,,37,37,20,19,11,58,58,59,59,14,7,7,7,0.4,0.3
2026-04-21T1600,2929A,114.8858,30.4519,黄冈市,红卫路,,35,35,19,19,9,65,65,64,64,8,5,5,5,0.3,0.2
2026-04-21T1600,3398A,114.9134,30.4446,黄冈市,市林业局,,40,40,21,18,11,64,64,70,70,10,7,4,4,0.4,0.3
2026-04-21T1600,2672A,102.02,35.5101,黄南藏族自治州,同仁县隆务镇,,36,32,38,20,23,115,115,102,102,1,3,10,10,0.2,0.3
2026-04-21T1600,2295A,118.2905,29.6965,黄山市,延安路89号,,21,13,43,6,26,66,66,65,65,9,10,4,4,0.3,0.4
2026-04-21T1600,2297A,118.1369,30.2755,黄山市,黄山区政府5号楼,,19,11,41,3,19,58,58,49,49,6,10,2,2,0.3,0.3
2026-04-21T1600,4210A,118.335445,29.720283,黄山市,滨江东路7-2号,,24,24,48,8,27,67,67,65,65,10,10,/,/,/,/
2026-04-21T1600,2423A,115.0547,30.2332,黄石市,沈家营,,50,50,39,21,17,44,44,36,36,11,14,4,4,0.3,1.8
2026-04-21T1600,2426A,114.899,30.211,黄石市,铁山,,32,32,37,18,15,52,52,46,46,14,11,6,7,0.5,0.5
2026-04-21T1600,2427A,115.0259,30.2108,黄石市,团城山,,46,46,38,23,18,48,48,43,43,10,9,5,5,0.8,0.6
2026-04-21T1600,3149A,115.0174,30.1591,黄石市,笔架山北路,颗粒物(PM10),54,55,51,20,19,50,50,44,42,8,8,8,8,0.7,0.7
2026-04-21T1600,4185A,115.078022,30.21118,黄石市,磁湖东路29号,NA,NA,46,42,23,16,66,66,53,53,16,24,4,4,NA,2.2
2026-04-21T1600,1392A,114.4181,23.0528,惠州市,河南岸金山湖子站,,31,19,33,15,25,97,97,83,78,6,12,6,7,0.5,0.6
2026-04-21T1600,1393A,114.4055,23.0824,惠州市,下埔横江三路子站,,30,23,41,13,28,96,96,89,82,5,9,5,6,0.6,0.8
2026-04-21T1600,1395A,114.4645,22.7832,惠州市,惠阳区承修路船湖子站,,23,19,35,13,24,73,73,76,69,4,10,5,6,0.4,0.6
2026-04-21T1600,1396A,114.5316,22.7423,惠州市,大亚湾管委会子站,,22,15,32,13,21,69,69,68,68,1,9,4,4,0.3,0.4
2026-04-21T1600,3314A,114.4334,22.8134,惠州市,惠阳秋长,,27,27,32,10,25,85,85,74,74,4,12,/,/,/,/
2026-04-21T1600,3452A,114.6521,22.7755,惠州市,大亚湾霞涌,,41,41,21,14,16,80,80,94,74,5,7,/,/,/,/
2026-04-21T1600,4300A,114.4089,23.1147,惠州市,文华一路1号,,31,21,33,14,25,97,97,87,81,6,11,/,/,/,/
2026-04-21T1600,2240A,130.9618,45.2926,鸡西市,环保局,,26,24,108,8,17,81,81,78,78,6,11,7,7,0.2,0.3
2026-04-21T1600,2243A,130.9294,45.2959,鸡西市,第一中学,,25,18,96,8,19,80,80,74,74,4,7,5,5,0.2,0.3
2026-04-21T1600,3707A,131.0069,45.2988,鸡西市,欧美日汽修厂,,24,20,107,13,17,75,75,72,72,6,12,2,3,0.4,0.5
2026-04-21T1600,2367A,114.9753,27.0803,吉安市,红声器材厂,,30,22,36,21,19,48,48,77,47,17,12,8,6,0.5,0.5
2026-04-21T1600,2369A,114.9903,27.1313,吉安市,市环境监测站,,33,NA,34,23,21,35,35,74,42,23,12,17,12,/,/
2026-04-21T1600,2370A,115.009527,27.096792,吉安市,青原区法院,,17,17,36,9,20,37,37,73,42,22,15,9,8,0.7,0.7
2026-04-21T1600,1772A,126.54,43.8622,吉林市,哈达湾,颗粒物(PM10),78,88,122,14,14,99,99,95,95,6,4,5,5,0.2,0.2
2026-04-21T1600,1773A,126.5843,43.8358,吉林市,东局子,颗粒物(PM10),55,57,101,9,10,96,96,92,92,8,6,3,3,0.9,0.9
2026-04-21T1600,1774A,126.5051,43.8243,吉林市,电力学院,颗粒物(PM10),63,67,99,13,16,101,101,98,98,10,7,4,4,0.6,0.6
2026-04-21T1600,1775A,126.6133,43.8971,吉林市,江北,颗粒物(PM10),64,69,102,9,10,104,104,100,100,11,10,11,10,0.4,0.4
2026-04-21T1600,1776A,126.5549,43.8304,吉林市,江南公园,颗粒物(PM10),54,55,96,12,13,98,98,92,92,6,6,6,6,0.4,0.4
2026-04-21T1600,2868A,126.4737,43.953,吉林市,九站,颗粒物(PM10),97,115,132,18,16,96,96,93,93,8,9,8,8,0.3,0.3
2026-04-21T1600,1299A,116.9866,36.6118,济南市,科干所,颗粒物(PM10),68,75,76,22,16,107,107,99,99,13,14,8,6,0.4,0.4
2026-04-21T1600,1300A,116.9379,36.6652,济南市,农科所,颗粒物(PM10),60,63,76,18,19,86,86,79,79,19,21,7,6,0.3,0.3
2026-04-21T1600,1301A,117.1265,36.6736,济南市,开发区,NA,NA,63,75,21,19,109,109,89,89,NA,30,7,4,0.4,0.4
2026-04-21T1600,1303A,117.0616,36.6865,济南市,省种子仓库,颗粒物(PM10),68,75,91,22,25,100,100,92,92,14,18,6,5,0.4,0.4
2026-04-21T1600,1304A,116.9495185,36.644937,济南市,机床二厂,颗粒物(PM10),73,81,94,35,27,100,100,90,90,20,26,8,5,0.4,0.4
2026-04-21T1600,1305A,117.0496,36.6629,济南市,市监测站,颗粒物(PM10),73,81,83,23,21,101,101,91,91,16,21,6,4,0.5,0.5
2026-04-21T1600,1306A,116.7674,36.5458,济南市,长清党校,颗粒物(PM10),74,83,83,26,19,90,90,85,85,18,25,8,5,0.5,0.5
2026-04-21T1600,1961A,117.5323,36.6865,济南市,东山小学,颗粒物(PM10),73,81,77,24,15,102,102,83,83,20,34,6,3,0.4,0.4
2026-04-21T1600,3059A,117.7181,36.205,济南市,泰兴公司,颗粒物(PM10),83,95,87,22,21,93,93,78,78,19,40,9,9,0.3,0.6
2026-04-21T1600,3064A,117.6861,36.2172,济南市,莱芜战役纪念馆,NA,NA,92,89,NA,20,96,96,82,82,14,36,6,7,NA,0.9
2026-04-21T1600,3494A,117.1673,36.9782,济南市,济阳区政府,颗粒物(PM10),75,85,97,27,25,80,80,75,75,19,28,9,8,0.5,0.4
2026-04-21T1600,3495A,117.1168,36.6299,济南市,锦屏中学,颗粒物(PM10),63,68,67,23,15,100,100,98,98,13,16,7,4,0.4,0.4
2026-04-21T1600,4108A,117.7107,36.2385,济南市,山财大街5号,颗粒物(PM10),83,95,87,25,21,98,98,78,78,15,39,7,6,0.5,0.7
2026-04-21T1600,4109A,116.9744,36.6889,济南市,无影山路12号,颗粒物(PM10),58,61,80,22,24,92,92,88,88,15,17,5,5,0.2,0.2
2026-04-21T1600,1653A,116.6229,35.4288,济宁市,火炬城,颗粒物(PM10),62,66,89,26,28,88,88,71,71,14,26,5,4,0.4,0.4
2026-04-21T1600,3500A,116.5808,35.3703,济宁市,北湖一中,颗粒物(PM10),60,63,87,16,25,99,99,76,76,16,32,8,7,0.3,0.2
2026-04-21T1600,3501A,116.8251,35.5592,济宁市,服务中心,颗粒物(PM10),98,116,103,47,32,71,71,65,65,26,34,7,4,0.6,0.5
2026-04-21T1600,3678A,116.5907,35.4054,济宁市,市第七中学,颗粒物(PM10),68,74,112,20,26,106,106,85,85,13,29,6,7,0.3,0.3
2026-04-21T1600,4111A,116.6075,35.4566,济宁市,任和路,颗粒物(PM10),79,90,102,23,30,99,99,78,78,13,30,8,8,0.3,0.3
2026-04-21T1600,4112A,116.5648,35.3921,济宁市,文体南路1号,颗粒物(PM10),64,69,100,17,23,103,103,75,75,9,29,5,5,0.4,0.4
2026-04-21T1600,4122A,112.6071,35.1015,济源市,市委党校,NA,NA,18,86,NA,36,81,81,84,84,13,16,5,7,0.2,0.5
2026-04-21T1600,4123A,112.596,35.0702,济源市,沁园中路1号,,28,12,85,3,33,88,88,87,87,7,12,1,3,0.3,0.5
2026-04-21T1600,2255A,130.2749,46.8028,佳木斯市,佳纺,,42,42,80,8,16,71,71,71,71,6,8,3,4,0.2,0.3
2026-04-21T1600,2257A,130.3258,46.7975,佳木斯市,环保局,,25,22,79,8,16,79,79,76,76,4,9,2,3,0.2,0.2
2026-04-21T1600,4285A,130.363,46.806,佳木斯市,顺和街,,24,22,84,3,15,74,74,70,70,6,12,3,3,0.2,0.2
2026-04-21T1600,4286A,130.3952,46.8268,佳木斯市,长安路196号,,25,16,88,3,12,78,78,75,75,2,8,1,2,0.3,0.3
2026-04-21T1600,1252A,120.7439,30.778,嘉兴市,清河小学,颗粒物(PM10),80,91,70,13,12,96,96,85,85,18,15,7,7,0.4,0.4
2026-04-21T1600,1253A,120.7261,30.7477,嘉兴市,嘉兴学院,颗粒物(PM10),62,66,55,16,15,97,97,83,83,22,18,7,6,0.6,0.5
2026-04-21T1600,2872A,120.7845,30.7524,嘉兴市,南湖区残联,颗粒物(PM10),70,77,66,19,17,99,99,90,90,20,13,6,5,0.4,0.4
2026-04-21T1600,3407A,120.6915,30.7741,嘉兴市,秀洲住建,颗粒物(PM10),72,80,68,14,13,103,103,90,90,18,15,7,6,0.4,0.4
2026-04-21T1600,1945A,98.291,39.7705,嘉峪关市,气象局,颗粒物(PM10),127,190,261,62,77,112,112,96,96,6,15,19,17,0.8,0.9
2026-04-21T1600,2884A,98.2672,39.7978,嘉峪关市,酒钢宾馆,颗粒物(PM10),135,210,283,50,76,114,114,96,96,1,12,18,26,0.4,0.6
2026-04-21T1600,3248A,98.2644,39.7723,嘉峪关市,雄关区,颗粒物(PM10),122,176,225,54,73,114,114,97,97,5,16,8,13,0.4,0.5
2026-04-21T1600,1383A,113.1063,22.6058,江门市,北街,,22,22,28,10,19,67,67,63,63,6,12,/,/,/,/
2026-04-21T1600,1384A,113.073,22.5835,江门市,西区,,21,20,34,9,20,67,67,65,65,9,15,/,/,/,/
2026-04-21T1600,1385A,113.0218,22.531,江门市,圭峰西,,30,30,32,10,19,67,67,64,64,9,14,/,/,/,/
2026-04-21T1600,1386A,113.0826,22.5947,江门市,东湖,,22,22,29,7,20,66,66,63,63,7,11,6,7,0.3,0.4
2026-04-21T1600,3311A,113.1077,22.5647,江门市,江海富民,,38,38,41,8,22,69,69,65,65,8,16,/,/,0.2,0.3
2026-04-21T1600,3449A,113.0496,22.4669,江门市,新会银湖,NA,NA,47,32,8,26,61,61,58,58,10,21,7,7,NA,0.7
2026-04-21T1600,3335A,113.3137,35.2643,焦作市,马村街道办,,31,28,87,6,25,98,98,96,96,3,10,6,8,0.2,0.3
2026-04-21T1600,3336A,113.2464,35.2374,焦作市,焦作技师学院,,26,18,78,7,26,81,81,91,91,9,10,7,8,0.7,0.8
2026-04-21T1600,3477A,113.1656,35.2536,焦作市,中站许衡医院,,26,24,74,9,22,83,83,85,85,5,8,8,9,0.3,0.4
2026-04-21T1600,3981A,113.2456,35.18,焦作市,原李万街道办,,33,33,77,12,22,74,74,85,85,9,13,5,5,0.2,0.2
2026-04-21T1600,4264A,113.234,35.219,焦作市,新安路1731号,,26,19,76,18,21,82,82,96,96,15,16,9,10,0.3,0.6
2026-04-21T1600,4295A,113.2722,35.2121,焦作市,人民路3066号,,26,26,81,8,29,73,73,84,84,10,11,4,5,0.3,0.3
2026-04-21T1600,1708A,116.3701,23.5345,揭阳市,新兴,,26,22,37,18,25,83,83,79,79,16,15,5,8,0.7,0.8
2026-04-21T1600,1709A,116.3261,23.5442,揭阳市,西马,,26,24,40,18,24,79,79,79,79,19,12,4,6,0.7,0.7
2026-04-21T1600,1710A,116.361,23.5627,揭阳市,东兴,,25,23,34,17,24,80,80,77,77,16,13,5,6,/,/
2026-04-21T1600,1711A,116.4151,23.5295,揭阳市,渔湖,,26,NA,40,18,25,81,81,84,84,18,14,2,3,/,/
2026-04-21T1600,3320A,116.4028,23.5699,揭阳市,曲溪,,31,31,35,19,23,85,85,83,83,10,7,14,12,0.6,0.7
2026-04-21T1600,1944A,102.1691,38.5166,金昌市,天庆家园,颗粒物(PM10),134,207,221,80,78,115,115,102,102,4,8,6,15,0.3,0.4
2026-04-21T1600,4022A,102.1648,38.5369,金昌市,金川区人防中心,颗粒物(PM10),127,190,211,51,61,118,118,101,101,6,9,7,7,0.4,0.5
2026-04-21T1600,4239A,102.193042,38.531887,金昌市,长春路96号,颗粒物(PM10),132,203,218,63,71,111,111,96,96,3,6,8,8,0.4,0.4
2026-04-21T1600,1262A,119.6478,29.0773,金华市,十五中,NA,NA,47,67,33,39,41,41,64,41,NA,22,NA,3,0.8,0.6
2026-04-21T1600,1263A,119.6859,29.1032,金华市,监测站,,46,46,64,27,33,43,43,66,46,40,25,4,4,0.5,0.4
2026-04-21T1600,3659A,119.656,29.1132,金华市,气象局,,42,42,63,29,37,44,44,66,47,32,22,3,4,0.4,0.4
2026-04-21T1600,1767A,121.1114,41.0879,锦州市,南山,,39,34,105,8,33,122,122,109,109,9,35,8,34,0.3,0.7
2026-04-21T1600,1768A,121.060361,40.842794,锦州市,开发区,颗粒物(PM10),143,230,172,42,35,106,106,84,84,30,49,9,16,0.7,0.7
2026-04-21T1600,1769A,121.1836,41.1118,锦州市,百股街道,,39,39,105,9,33,121,121,109,109,13,32,5,19,0.5,0.9
2026-04-21T1600,1770A,121.1176,41.1224,锦州市,天安街道,NA,NA,33,131,7,50,115,115,102,102,8,39,4,29,NA,0.6
2026-04-21T1600,1771A,121.1303,41.1385,锦州市,北湖公园,,37,26,117,10,40,117,117,108,108,7,35,7,27,0.3,0.8
2026-04-21T1600,2160A,112.8496,35.5051,晋城市,自来水公司,,37,37,115,3,21,86,86,98,98,15,13,3,4,0.2,0.3
2026-04-21T1600,2162A,112.8509,35.4886,晋城市,市环保局,,26,11,93,3,23,83,83,92,92,9,12,5,5,0.3,0.3
2026-04-21T1600,3620A,112.8258,35.4804,晋城市,泽州一中,,29,6,92,3,23,90,90,99,99,11,13,3,4,0.6,0.6
2026-04-21T1600,4078A,112.8246,35.5152,晋城市,前书院路,,29,NA,90,13,22,90,90,98,98,15,16,6,7,0.6,0.7
2026-04-21T1600,4079A,112.8864,35.4773,晋城市,祥云街666号,,27,10,85,3,27,85,85,90,90,10,17,6,6,0.3,0.4
2026-04-21T1600,2174A,112.6992,37.6984,晋中市,榆次区政府,颗粒物(PM10),127,188,73,70,29,87,87,68,68,36,34,NA,10,1.2,0.6
2026-04-21T1600,2865A,112.7195,37.683,晋中市,榆次三中,颗粒物(PM10),133,205,75,65,22,89,89,71,71,32,31,17,9,1.5,0.3
2026-04-21T1600,4080A,112.7375,37.7215,晋中市,广安街188号,颗粒物(PM10),124,180,80,60,26,90,90,73,73,32,40,16,10,1.0,0.5
2026-04-21T1600,4200A,112.7478,37.6954,晋中市,迎宾街26号,颗粒物(PM10),131,200,75,74,27,90,90,74,74,30,26,19,9,1.0,0.5
2026-04-21T1600,2439A,112.2012,31.048,荆门市,竹园小学,,20,11,89,6,21,62,62,70,69,12,14,1,3,0.4,0.3
2026-04-21T1600,2440A,112.1968,30.9892,荆门市,掇刀,,22,8,86,6,24,68,68,74,73,8,9,8,8,0.5,0.4
2026-04-21T1600,3012A,112.1849,31.0361,荆门市,西山林语,,22,9,94,7,23,68,68,75,75,8,9,5,5,0.4,0.3
2026-04-21T1600,3547A,112.1631,31.0134,荆门市,龙泉中学南校,,23,6,85,3,23,71,71,81,79,13,12,4,4,0.3,0.2
2026-04-21T1600,4124A,112.2213,31.0654,荆门市,新台西路6号,,20,15,85,11,28,62,62,70,69,9,8,6,7,0.5,0.5
2026-04-21T1600,1844A,112.2493,30.3198,荆州市,市图书馆,,21,NA,74,8,26,66,66,62,62,14,15,4,5,0.5,0.5
2026-04-21T1600,1845A,112.2009,30.3543,荆州市,市委党校,,20,7,78,7,24,62,62,59,59,13,14,6,7,0.5,0.4
2026-04-21T1600,3194A,112.2749,30.3124,荆州市,管委会,,19,NA,71,12,24,59,59,59,58,11,11,6,6,0.4,0.4
2026-04-21T1600,4268A,112.1722,30.3366,荆州市,学苑路85号,,24,24,56,3,19,71,71,71,71,6,7,2,4,0.4,0.4
2026-04-21T1600,2343A,117.2114,29.2931,景德镇市,老干部活动中心,,19,11,34,3,28,59,59,66,66,8,6,4,4,0.7,0.7
2026-04-21T1600,2344A,117.1893,29.2789,景德镇市,兽医站,,22,13,42,3,23,68,68,73,73,11,10,4,3,0.6,0.6
2026-04-21T1600,2346A,117.246,29.2958,景德镇市,陶研所,,22,10,33,3,25,68,68,74,74,5,6,4,4,0.6,0.7
2026-04-21T1600,4289A,117.154766,29.256967,景德镇市,青少年活动中心,,19,15,39,7,25,58,58,65,65,13,10,4,4,/,/
2026-04-21T1600,1803A,115.9873,29.6816,九江市,十里,,20,20,37,12,20,34,34,53,38,27,17,7,7,1.0,0.8
2026-04-21T1600,1804A,115.9583,29.7047,九江市,茅山头,,16,NA,31,11,22,42,42,57,41,19,12,4,4,0.7,0.6
2026-04-21T1600,1805A,115.9877,29.7295,九江市,西园,,20,20,36,13,22,45,45,58,45,24,18,4,3,0.8,0.6
2026-04-21T1600,1808A,115.9112,29.6038,九江市,综合工业园,,18,NA,29,12,21,26,26,51,33,31,20,7,7,0.8,0.6
2026-04-21T1600,3190A,116.0254,29.6995,九江市,外国语学校,,18,14,30,12,20,31,31,48,34,24,14,9,9,0.9,0.7
2026-04-21T1600,4253A,116.010205,29.659402,九江市,莲花大道8号,,19,NA,33,13,21,34,34,49,36,18,10,4,4,0.7,0.6
2026-04-21T1600,4240A,98.495752,39.733935,酒泉市,玉门东路5号,颗粒物(PM10),142,227,273,58,79,99,99,82,82,3,14,7,9,0.2,0.4
2026-04-21T1600,4241A,98.5099,39.7506,酒泉市,北大街108号,颗粒物(PM10),146,239,266,64,82,92,92,79,79,3,14,8,11,0.2,0.3
2026-04-21T1600,2698A,76.0071,39.466,喀什地区,巡警大队,颗粒物(PM10),303,422,262,126,85,109,109,78,78,3,22,4,4,0.2,0.3
2026-04-21T1600,2699A,75.9756,39.4693,喀什地区,吾办,颗粒物(PM10),292,414,235,118,77,106,106,76,76,4,18,4,4,0.5,0.6
2026-04-21T1600,4027A,75.9485,39.4688,喀什地区,老干局,颗粒物(PM10),250,385,247,113,72,108,108,71,71,6,21,3,2,0.3,0.4
2026-04-21T1600,1824A,114.3389,34.778,开封市,肿瘤医院,NA,NA,30,77,27,23,89,89,88,88,NA,18,NA,7,0.5,0.5
2026-04-21T1600,1826A,114.2884,34.7966,开封市,世纪星幼儿园,,28,28,76,13,22,79,79,78,78,16,24,6,7,0.5,0.5
2026-04-21T1600,3147A,114.3434,34.8101,开封市,龙亭公园,,36,36,77,13,17,84,84,88,88,15,20,7,8,0.3,0.3
2026-04-21T1600,3210A,114.3645,34.7955,开封市,汴京公园,,33,17,77,15,19,104,104,93,93,11,19,4,5,0.4,0.2
2026-04-21T1600,3473A,114.2485,34.8306,开封市,技师学院,,30,30,74,8,20,83,83,73,73,14,21,4,5,0.4,0.4
2026-04-21T1600,3592A,114.4518,34.7503,开封市,祥符区生态环境局,,28,18,81,12,24,87,87,86,86,13,28,7,10,0.5,0.5
2026-04-21T1600,1951A,84.886,45.6029,克拉玛依市,长征新村,,38,26,26,3,8,119,119,85,85,4,13,7,6,0.5,0.5
2026-04-21T1600,1952A,84.8894,45.5827,克拉玛依市,南林小区,,39,33,39,6,3,124,124,86,86,2,6,5,5,0.1,0.1
2026-04-21T1600,1954A,84.896,44.3328,克拉玛依市,独山子区,,36,20,34,3,8,114,114,100,100,5,10,5,5,0.4,0.4
2026-04-21T1600,1955A,85.6888,46.0909,克拉玛依市,乌尔禾区商贸楼,,50,50,55,12,9,114,114,82,82,7,15,4,3,0.3,0.3
2026-04-21T1600,3612A,85.1045,45.6895,克拉玛依市,白碱滩区新站,,45,45,51,8,8,128,128,86,86,3,9,10,7,0.2,0.2
2026-04-21T1600,2697A,76.1457,39.7143,克孜勒苏柯尔克孜自治州,市人民政府,颗粒物(PM10),174,297,180,103,62,112,112,83,83,2,12,4,5,0.1,0.1
2026-04-21T1600,3665A,76.1654,39.7157,克孜勒苏柯尔克孜自治州,克州文化中心,颗粒物(PM10),193,335,188,111,72,110,110,88,88,1,10,3,4,0.1,0.2
2026-04-21T1600,1450A,102.8203,24.889,昆明市,呈贡新区,,49,49,40,32,28,135,135,131,131,8,13,5,4,0.7,0.8
2026-04-21T1600,1452A,102.7253,25.0904,昆明市,龙泉镇,,43,39,42,30,27,123,123,117,117,5,16,4,4,0.6,0.7
2026-04-21T1600,1453A,102.7267,25.0378,昆明市,东风东路,,50,50,42,26,30,130,130,127,127,8,18,2,4,0.5,0.6
2026-04-21T1600,1454A,102.6744,25.0671,昆明市,金鼎山,颗粒物(PM10),55,56,47,29,30,118,118,116,116,12,13,1,3,0.6,0.7
2026-04-21T1600,1455A,102.6643,25.0401,昆明市,碧鸡广场,,43,38,47,30,31,123,123,116,116,8,20,4,6,0.5,0.6
2026-04-21T1600,3179A,102.7491,25.012,昆明市,官渡区博物馆,颗粒物(PM10),57,59,47,31,28,128,128,123,123,10,21,4,4,0.6,0.7
2026-04-21T1600,3375A,102.8016,24.8336,昆明市,青年创业园,,48,39,42,33,28,135,135,131,131,3,9,5,5,0.6,0.6
2026-04-21T1600,3550A,102.8,24.9787,昆明市,昆明学院,颗粒物(PM10),53,54,43,30,25,131,131,127,127,9,14,5,5,0.5,0.5
2026-04-21T1600,3551A,102.5969,24.6738,昆明市,晋宁区生态环境分局,颗粒物(PM10),53,53,50,29,30,129,129,125,125,3,6,4,4,0.4,0.5
2026-04-21T1600,3552A,102.6673,24.9861,昆明市,云天化总部,,47,47,39,32,25,133,133,129,129,9,13,5,5,0.7,0.6
2026-04-21T1600,1456A,91.132,29.6515,拉萨市,八廓街,,39,15,23,7,8,123,123,114,114,7,5,3,4,0.2,0.2
2026-04-21T1600,1457A,91.1221,29.6748,拉萨市,市环保局,,37,17,22,3,6,117,117,107,107,10,10,4,4,0.2,0.2
2026-04-21T1600,1458A,91.0874,29.6476,拉萨市,区监测站,,40,7,19,6,7,127,127,110,110,7,9,5,5,0.2,0.2
2026-04-21T1600,1459A,91.1774,29.6541,拉萨市,西藏大学,,38,14,20,11,7,119,119,108,108,9,9,3,3,0.2,0.2
2026-04-21T1600,1460A,90.9798,29.6586,拉萨市,区辐射站,,35,22,22,3,7,111,111,100,100,11,10,5,5,0.2,0.3
2026-04-21T1600,1461A,91.0831,29.6292,拉萨市,拉萨火车站,,38,12,19,10,8,121,121,111,111,8,7,4,4,0.2,0.2
2026-04-21T1600,2520A,109.2203,23.7252,来宾市,来宾技工学校,NA,NA,47,37,30,24,76,76,64,64,4,6,5,5,NA,0.7
2026-04-21T1600,3535A,109.1781,23.7293,来宾市,兴宾区政府,颗粒物(PM10),56,58,56,28,26,73,73,60,60,9,8,7,7,0.6,0.6
2026-04-21T1600,4002A,109.2312,23.7428,来宾市,中南小学,,48,48,42,29,30,80,80,65,65,7,11,6,7,0.5,0.6
2026-04-21T1600,1479A,103.8309,36.0467,兰州市,铁路设计院,颗粒物(PM10),102,125,120,61,53,99,99,63,63,12,20,6,5,0.7,0.7
2026-04-21T1600,3241A,103.7439,36.0841,兰州市,百合公园,细颗粒物(PM2.5),110,105,112,70,52,99,99,77,77,9,15,9,5,0.4,0.3
2026-04-21T1600,3242A,103.9613,35.9985,兰州市,和平,颗粒物(PM10),98,116,108,41,43,110,110,78,78,4,10,8,7,0.3,0.3
2026-04-21T1600,4236A,103.629272,36.093822,兰州市,庄浪东路808号,细颗粒物(PM2.5),148,121,120,112,56,122,122,95,95,9,15,12,9,0.4,0.4
2026-04-21T1600,4237A,103.7251,36.104344,兰州市,安宁西路88号,细颗粒物(PM2.5),108,124,130,68,55,109,109,88,88,12,15,11,9,0.3,0.3
2026-04-21T1600,4238A,103.846982,36.067567,兰州市,北滨河东路1号,颗粒物(PM10),117,164,109,49,48,100,100,71,71,10,16,10,10,0.5,0.5
2026-04-21T1600,1067A,116.6712,39.5109,廊坊市,药材公司,NA,NA,NA,80,NA,27,126,126,101,101,7,17,2,2,NA,0.3
2026-04-21T1600,1068A,116.7215,39.5592,廊坊市,开发区,颗粒物(PM10),78,89,88,34,32,134,134,98,98,3,10,2,2,0.3,0.4
2026-04-21T1600,1070A,116.7246,39.5273,廊坊市,北华航天学院,颗粒物(PM10),64,69,87,28,32,130,130,97,97,5,12,4,3,0.4,0.4
2026-04-21T1600,2919A,116.7022,39.5454,廊坊市,河北工业大学,颗粒物(PM10),60,64,87,30,29,135,135,98,98,8,15,3,2,0.3,0.4
2026-04-21T1600,2536A,103.7629,29.5844,乐山市,牛耳桥,颗粒物(PM10),58,60,87,29,28,51,51,64,51,18,16,3,4,0.5,0.5
2026-04-21T1600,2537A,103.7501,29.6002,乐山市,市第三水厂,颗粒物(PM10),52,52,87,33,29,51,51,64,51,16,15,3,4,0.5,0.4
2026-04-21T1600,2538A,103.7571,29.5664,乐山市,市监测站,,48,48,88,29,28,50,50,62,51,14,11,3,3,0.6,0.6
2026-04-21T1600,3361A,103.7313,29.563,乐山市,理工大学,,46,46,89,28,33,50,50,68,52,14,11,3,4,0.5,0.4
2026-04-21T1600,2599A,100.2497,26.8802,丽江市,丽江古城,,31,28,21,6,8,97,97,100,100,6,6,8,8,0.8,0.8
2026-04-21T1600,2600A,100.2203,26.8906,丽江市,市中心,,32,17,13,12,10,101,101,100,100,9,10,6,6,0.6,0.6
2026-04-21T1600,1267A,119.9141,28.4513,丽水市,监测站大楼,,30,18,36,10,23,93,93,123,105,10,10,4,4,0.2,0.3
2026-04-21T1600,1268A,119.93,28.4589,丽水市,莲都小学,NA,NA,NA,43,NA,24,92,92,126,105,9,9,/,/,/,/
2026-04-21T1600,1269A,119.8794,28.4232,丽水市,余庄前,,25,22,37,11,20,77,77,99,84,8,7,5,5,0.3,0.4
2026-04-21T1600,1173A,119.1759,34.5885,连云港市,市环境监测站,颗粒物(PM10),72,80,87,14,20,90,90,87,87,15,22,8,9,0.5,0.6
2026-04-21T1600,3000A,119.3577,34.6971,连云港市,德源药业,颗粒物(PM10),90,105,108,22,20,90,90,95,95,28,32,7,6,0.5,0.5
2026-04-21T1600,3007A,119.178,34.8442,连云港市,新城一中,颗粒物(PM10),77,87,90,17,29,98,98,87,87,27,30,6,6,0.6,0.7
2026-04-21T1600,3008A,119.3607,34.7519,连云港市,胡沟管理处,,44,44,48,14,15,103,103,91,91,18,25,16,15,0.2,0.3
2026-04-21T1600,3009A,119.1478,34.5913,连云港市,矿山设计院,颗粒物(PM10),75,85,87,14,21,92,92,90,90,14,22,19,20,0.6,0.7
2026-04-21T1600,3434A,119.2414,34.6539,连云港市,工贸学校,颗粒物(PM10),68,75,92,16,20,97,97,96,96,10,11,6,6,0.3,0.4
2026-04-21T1600,3664A,119.4171,34.734,连云港市,连云街道,颗粒物(PM10),90,105,94,22,20,77,77,87,87,43,25,21,21,0.4,0.4
2026-04-21T1600,2573A,102.2629,27.8981,凉山彝族自治州,西昌市政府,,39,23,25,19,24,122,122,100,100,6,10,13,12,0.5,0.7
2026-04-21T1600,2574A,102.2686,27.885,凉山彝族自治州,凉山州政府,,34,28,29,16,21,107,107,97,97,6,12,8,7,0.2,0.8
2026-04-21T1600,4229A,102.2342,27.8859,凉山彝族自治州,凯乐南路30号,,34,26,30,15,17,106,106,81,81,9,18,8,6,0.7,0.8
2026-04-21T1600,2212A,123.1978,41.2036,辽阳市,宏伟区,颗粒物(PM10),95,112,134,24,25,125,125,101,101,10,14,7,9,0.4,0.6
2026-04-21T1600,2213A,123.1684,41.2497,辽阳市,新华园,颗粒物(PM10),88,103,139,25,28,124,124,99,99,17,24,12,16,0.6,0.9
2026-04-21T1600,2214A,123.2355,41.2663,辽阳市,滨河路,颗粒物(PM10),90,105,141,23,28,118,118,95,95,14,26,8,12,0.6,0.8
2026-04-21T1600,4083A,123.153,41.2874,辽阳市,铁西路150号,颗粒物(PM10),119,169,163,32,38,100,100,84,84,20,28,16,19,1.0,1.5
2026-04-21T1600,2227A,125.1359,42.8845,辽源市,环保局,颗粒物(PM10),89,104,105,25,17,107,107,98,98,4,6,6,5,0.4,0.3
2026-04-21T1600,4085A,125.0998,42.9134,辽源市,安宁大街333号,颗粒物(PM10),95,112,160,10,18,104,104,95,95,5,8,5,6,0.3,0.3
2026-04-21T1600,1625A,115.9789,36.4372,聊城市,区政府,,45,45,98,12,21,90,90,79,79,11,17,8,7,0.5,0.5
2026-04-21T1600,3200A,115.9772,36.4986,聊城市,监控中心,颗粒物(PM10),51,51,104,13,22,98,98,89,89,16,21,9,9,0.3,0.4
2026-04-21T1600,3513A,116.0443,36.436,聊城市,九州社区,颗粒物(PM10),52,52,97,12,24,100,100,88,88,18,27,8,7,0.5,0.4
2026-04-21T1600,4018A,116.0564,36.4609,聊城市,星美广场,,43,43,91,14,26,90,90,79,79,15,21,6,6,0.3,0.4
2026-04-21T1600,4113A,116.0091,36.4495,聊城市,利民路,,36,36,79,14,19,97,97,90,90,12,17,11,10,0.5,0.4
2026-04-21T1600,2632A,94.3683,29.6373,林芝市,林芝监测站,,31,NA,14,15,5,98,98,89,89,5,5,3,4,0.4,0.4
2026-04-21T1600,2633A,94.3616,29.6634,林芝市,林芝人民医院,,31,20,10,7,5,99,99,89,89,4,4,4,4,0.4,0.5
2026-04-21T1600,2603A,100.0779,23.8981,临沧市,市环保局,NA,NA,65,58,32,42,123,123,98,98,4,10,NA,5,NA,0.7
2026-04-21T1600,2604A,100.0894,23.882,临沧市,市气象局,颗粒物(PM10),52,52,63,35,49,125,125,94,94,4,10,7,6,0.5,0.8
2026-04-21T1600,1733A,111.5552,36.0791,临汾市,临钢医院,,27,25,100,9,29,86,86,80,80,9,20,5,6,0.5,0.6
2026-04-21T1600,1734A,111.4984,36.0734,临汾市,技工学校,,31,31,84,9,30,88,88,82,82,8,22,4,7,0.5,0.6
2026-04-21T1600,1736A,111.5017,36.0857,临汾市,市委,,36,36,84,9,22,90,90,83,83,8,22,5,7,0.6,0.7
2026-04-21T1600,3018A,111.5048,36.1015,临汾市,唐尧大酒店,,32,32,90,18,38,87,87,84,84,10,24,4,6,0.5,0.6
2026-04-21T1600,4244A,111.4879,36.053,临汾市,启星学校,细颗粒物(PM2.5),98,NA,84,59,35,86,86,79,79,8,27,5,7,0.5,0.6
2026-04-21T1600,4271A,103.2464,35.6123,临夏回族自治州,滨河东路1号,颗粒物(PM10),85,99,84,38,40,108,108,90,90,8,12,11,9,0.2,0.4
2026-04-21T1600,4310A,103.207136,35.599807,临夏回族自治州,新华街21号,颗粒物(PM10),75,85,82,37,38,82,82,75,75,4,6,8,6,0.2,0.2
2026-04-21T1600,1618A,118.3429,35.0532,临沂市,沂河小区,颗粒物(PM10),91,107,107,32,32,79,79,77,77,23,26,13,16,0.4,0.3
2026-04-21T1600,1619A,118.2962,35.0568,临沂市,鲁南制药厂,颗粒物(PM10),93,110,103,30,31,88,88,82,82,22,26,16,17,0.3,0.3
2026-04-21T1600,1620A,118.2793,34.9976,临沂市,新光毛纺厂,颗粒物(PM10),88,102,106,40,36,83,83,75,75,23,31,15,20,0.3,0.3
2026-04-21T1600,1621A,118.3955,35.0889,临沂市,河东保险公司,NA,NA,NA,95,NA,31,NA,NA,112,79,NA,27,NA,15,NA,0.4
2026-04-21T1600,3370A,118.3563,35.0215,临沂市,十里堡居委,颗粒物(PM10),86,100,110,35,38,84,84,79,79,28,36,12,18,0.5,0.5
2026-04-21T1600,3496A,118.359,35.1067,临沂市,南坊新区,颗粒物(PM10),88,102,96,33,29,84,84,87,87,27,24,14,14,0.3,0.2
2026-04-21T1600,3860A,118.3915,35.0297,临沂市,皇山花园小区,颗粒物(PM10),95,112,104,34,36,84,84,84,84,31,34,12,19,0.4,0.4
2026-04-21T1600,1870A,109.4854,24.3898,柳州市,柳东小学,,42,35,34,29,25,81,81,66,66,6,7,4,4,0.7,0.7
2026-04-21T1600,1871A,109.4109,24.3304,柳州市,环保监测站,,43,43,37,30,25,79,79,62,62,9,11,4,5,0.8,0.8
2026-04-21T1600,1872A,109.3886,24.3408,柳州市,河西水厂,,48,44,39,33,28,87,87,68,68,8,10,9,10,0.7,0.6
2026-04-21T1600,1873A,109.4263,24.2951,柳州市,市四中,,46,46,43,31,28,76,76,61,61,9,10,6,6,0.7,0.7
2026-04-21T1600,1874A,109.396,24.3658,柳州市,市九中,,48,48,39,30,26,79,79,61,61,8,9,5,5,0.5,0.5
2026-04-21T1600,1875A,109.4912,24.3164,柳州市,古亭山,,50,50,36,28,25,82,82,67,67,7,9,4,5,0.6,0.6
2026-04-21T1600,3402A,109.5422,24.3994,柳州市,市二中,,43,38,35,30,27,79,79,63,63,7,9,9,9,0.6,0.6
2026-04-21T1600,2307A,116.5078,31.7369,六安市,监测大楼,颗粒物(PM10),59,62,40,38,20,45,45,54,45,23,15,4,4,0.5,0.3
2026-04-21T1600,2308A,116.4738,31.7642,六安市,皖西学院,颗粒物(PM10),66,72,49,34,19,48,48,57,50,22,14,4,5,0.5,0.4
2026-04-21T1600,2309A,116.4997,31.7904,六安市,朝阳厂,颗粒物(PM10),54,55,34,33,18,47,47,55,48,25,15,6,5,0.4,0.3
2026-04-21T1600,2310A,116.5566,31.7885,六安市,开发区,颗粒物(PM10),59,62,34,34,18,52,52,59,52,28,18,4,5,0.6,0.4
2026-04-21T1600,2577A,104.8293,26.592,六盘水市,黄土坡,,42,42,28,27,21,116,116,110,110,13,10,7,6,0.2,0.2
2026-04-21T1600,2579A,104.8481,26.5898,六盘水市,民中,,40,33,28,28,21,116,116,108,108,11,9,5,4,0.7,0.6
2026-04-21T1600,2580A,104.9541,26.5506,六盘水市,双水,,38,36,26,25,22,120,120,99,99,8,8,4,4,0.3,0.3
2026-04-21T1600,4151A,104.8899,26.5685,六盘水市,钟山大道中段564号,,42,41,33,29,20,119,119,104,104,7,6,3,2,0.3,0.3
2026-04-21T1600,2336A,117.022,25.1031,龙岩市,龙岩市监测站,,26,NA,31,12,30,83,83,81,79,17,14,5,6,0.5,0.5
2026-04-21T1600,2337A,117.0257,25.0662,龙岩市,闽西职业技术学院,,24,14,32,12,26,74,74,81,76,11,9,6,7,0.7,0.7
2026-04-21T1600,2338A,117.0195,25.0306,龙岩市,龙岩学院,,25,21,34,16,25,80,80,80,77,7,9,4,5,/,/
2026-04-21T1600,2885A,104.9344,33.3827,陇南市,滨江中学,,24,23,64,16,25,74,74,64,64,7,7,8,8,0.7,0.6
2026-04-21T1600,3247A,104.9551,33.3709,陇南市,市总工会,,25,25,58,16,21,76,76,64,64,7,7,8,8,0.5,0.5
2026-04-21T1600,2488A,111.9984,27.7346,娄底市,市监测站,NA,NA,NA,12,3,6,41,41,43,43,NA,9,4,5,0.3,0.6
2026-04-21T1600,2491A,111.9888,27.7035,娄底市,市政府,,16,6,13,3,6,49,49,51,49,7,8,3,3,0.4,0.4
2026-04-21T1600,4127A,111.9812,27.7591,娄底市,涟钢职大,,16,NA,11,3,4,50,50,44,44,8,7,2,2,0.3,0.5
2026-04-21T1600,4128A,112.0303,27.7457,娄底市,娄底体校,,14,6,12,3,4,42,42,46,43,9,7,3,3,0.2,0.3
2026-04-21T1600,1894A,105.4427,28.9063,泸州市,小市上码头,,31,31,70,19,31,67,67,47,47,11,15,6,7,0.5,0.5
2026-04-21T1600,1895A,105.4241,28.8573,泸州市,兰田宪桥,颗粒物(PM10),65,71,133,42,70,70,70,48,48,8,12,7,7,0.8,0.8
2026-04-21T1600,1896A,105.4378,28.8833,泸州市,市环监站,,41,41,83,21,34,69,69,47,47,20,19,8,9,0.7,0.7
2026-04-21T1600,4272A,105.3689,28.7783,泸州市,纳溪中医医院,颗粒物(PM10),60,64,145,24,39,70,70,51,51,6,12,4,4,0.5,0.7
2026-04-21T1600,2183A,111.1447,37.5212,吕梁市,环保局,颗粒物(PM10),104,130,84,30,18,90,90,73,73,18,30,6,6,0.5,0.5
2026-04-21T1600,2185A,111.1285,37.5338,吕梁市,自来水公司,颗粒物(PM10),103,127,81,31,19,88,88,74,74,NA,28,4,8,0.5,0.5
2026-04-21T1600,2867A,111.1225,37.5093,吕梁市,马茂庄小学,颗粒物(PM10),108,140,85,27,17,91,91,74,74,17,28,9,11,0.5,0.5
2026-04-21T1600,1812A,112.3934,34.6517,洛阳市,市委党校,,26,18,65,6,33,81,81,75,75,14,14,6,8,0.5,0.5
2026-04-21T1600,1815A,112.494,34.6883,洛阳市,河南林校,,27,23,82,8,33,85,85,77,77,20,18,9,10,0.5,0.6
2026-04-21T1600,1816A,112.3843,34.623,洛阳市,开发区管委会,,37,37,88,9,32,87,87,79,79,10,11,8,10,0.7,0.7
2026-04-21T1600,1817A,112.4263,34.6249,洛阳市,市委新办公区,NA,NA,18,89,6,34,80,80,72,72,19,16,NA,9,0.4,0.4
2026-04-21T1600,3340A,112.6005,34.6323,洛阳市,伊滨,,25,13,82,3,33,78,78,80,80,13,13,7,8,0.5,0.6
2026-04-21T1600,3341A,112.495,34.6338,洛阳市,中移产业园,,26,15,53,7,43,83,83,78,78,18,17,7,9,0.3,0.4
2026-04-21T1600,3593A,112.5736,34.8993,洛阳市,吉利监测站,,26,15,86,6,32,82,82,82,82,13,14,6,8,0.3,0.4
2026-04-21T1600,3635A,112.3678,34.6623,洛阳市,河科大西苑校区,,28,16,80,12,35,88,88,83,83,12,13,7,8,0.4,0.5
2026-04-21T1600,3636A,112.4387,34.678,洛阳市,英才小学,,26,21,87,3,36,82,82,75,75,18,18,8,11,0.3,0.4
2026-04-21T1600,4214A,112.460027,34.694929,洛阳市,春都路1号院,,28,17,86,3,36,87,87,80,80,16,15,7,10,0.3,0.4
2026-04-21T1600,2399A,114.051,33.5721,漯河市,三五一五工厂,颗粒物(PM10),52,52,82,23,24,76,76,90,90,16,21,4,6,0.4,0.3
2026-04-21T1600,2400A,114.0055,33.5698,漯河市,漯河大学,,40,39,79,28,24,75,75,79,79,18,23,5,6,0.4,0.3
2026-04-21T1600,2401A,114.0134,33.5826,漯河市,市水利局,,41,41,82,23,23,76,76,76,76,12,18,4,5,0.4,0.4
2026-04-21T1600,2402A,114.0261,33.5697,漯河市,市广电局,,39,39,80,21,23,77,77,85,85,17,22,4,6,0.3,0.3
2026-04-21T1600,3478A,113.9691,33.568,漯河市,市图书馆,,47,47,83,21,23,74,74,78,78,13,18,6,7,0.5,0.4
2026-04-21T1600,4250A,114.089259,33.588274,漯河市,韶山路11号,,45,45,82,30,24,72,72,72,72,14,25,5,7,0.3,0.3
2026-04-21T1600,1798A,118.5084,31.6838,马鞍山市,湖东路四小,颗粒物(PM10),75,85,69,25,16,76,76,71,71,21,19,5,6,0.4,0.4
2026-04-21T1600,1799A,118.5019,31.6449,马鞍山市,开发区,颗粒物(PM10),73,82,67,23,16,74,74,70,70,23,21,5,7,0.4,0.5
2026-04-21T1600,3633A,118.4914,31.681,马鞍山市,雨山,颗粒物(PM10),63,68,64,24,19,78,78,71,71,21,19,10,8,0.4,0.5
2026-04-21T1600,4191A,118.527362,31.722269,马鞍山市,慈湖高新区,颗粒物(PM10),75,85,64,23,15,77,77,69,69,20,17,5,6,0.3,0.4
2026-04-21T1600,1686A,111.0285,21.469,茂名市,电白南海,NA,NA,NA,28,12,15,57,57,59,58,NA,6,5,5,0.6,0.8
2026-04-21T1600,1687A,110.9294,21.6533,茂名市,茂石化七小,,29,29,27,12,17,52,52,52,52,7,10,5,5,0.4,0.5
2026-04-21T1600,1688A,110.9108,21.6688,茂名市,健康路,,22,22,18,12,15,53,53,54,54,7,8,4,4,0.5,0.6
2026-04-21T1600,1689A,110.8592,21.6826,茂名市,高岭,颗粒物(PM10),70,78,41,16,17,52,52,52,52,8,8,2,2,/,/
2026-04-21T1600,3450A,111.0101,21.5165,茂名市,电白水东,,23,17,17,16,16,54,54,56,56,4,6,2,2,/,/
2026-04-21T1600,2540A,103.8414,30.0871,眉山市,气象局,,28,28,56,3,7,75,75,59,59,12,10,6,6,0.5,0.5
2026-04-21T1600,3148A,103.829,30.0563,眉山市,区人社局,,22,22,59,3,11,70,70,61,58,19,15,11,7,0.7,0.6
2026-04-21T1600,4148A,103.8836,30.0695,眉山市,眉职院,,24,11,32,3,8,74,74,58,58,11,11,8,7,0.6,0.6
2026-04-21T1600,1690A,116.1248,24.3307,梅州市,梅江月梅,,32,22,31,22,26,54,54,80,49,17,10,/,/,/,/
2026-04-21T1600,1691A,116.0798,24.2719,梅州市,梅县新城,,30,21,33,21,27,54,54,73,54,16,14,8,10,0.6,0.6
2026-04-21T1600,3315A,116.1234,24.2994,梅州市,梅龙,NA,NA,NA,28,22,25,60,60,85,64,13,9,NA,7,0.8,0.8
2026-04-21T1600,1878A,104.7775,31.4741,绵阳市,富乐山,,23,7,35,3,9,73,73,58,58,7,8,7,7,0.5,0.5
2026-04-21T1600,1880A,104.6698,31.4668,绵阳市,高新区自来水公司,NA,NA,6,31,3,10,73,73,57,57,4,6,NA,6,0.6,0.6
2026-04-21T1600,3491A,104.6899,31.5324,绵阳市,西科大附属小学,,24,7,35,3,12,76,76,59,59,6,10,7,7,0.4,0.4
2026-04-21T1600,3492A,104.5647,31.5343,绵阳市,安州区旅游局,,23,6,34,3,11,73,73,56,56,6,5,5,4,0.2,0.2
2026-04-21T1600,4146A,104.7092,31.4972,绵阳市,科技城新区公安局,,22,9,38,3,9,68,68,54,54,6,6,6,6,0.4,0.4
2026-04-21T1600,4226A,104.765114,31.453094,绵阳市,绵阳市气象局,,20,9,30,3,10,64,64,53,53,10,9,5,6,0.4,0.3
2026-04-21T1600,1784A,129.61,44.561,牡丹江市,环保大楼,颗粒物(PM10),68,74,89,10,14,88,88,88,88,8,7,2,2,0.1,0.2
2026-04-21T1600,1787A,129.6364,44.6075,牡丹江市,机车工厂,颗粒物(PM10),51,51,89,16,15,82,82,83,83,15,11,9,8,0.1,0.1
2026-04-21T1600,1788A,129.6386,44.5462,牡丹江市,第一中学,颗粒物(PM10),52,52,91,11,13,89,89,89,89,6,6,7,7,0.3,0.3
2026-04-21T1600,4287A,129.5992,44.5964,牡丹江市,东晓云街98号,颗粒物(PM10),53,54,92,10,15,88,88,86,86,6,6,3,3,0.2,0.2
2026-04-21T1600,2531A,105.0703,29.61,内江市,市监测站,,23,23,58,6,16,49,49,46,42,8,9,8,8,0.4,0.4
2026-04-21T1600,2533A,105.0657,29.5807,内江市,内江二中,,16,NA,52,10,25,49,49,47,42,9,10,6,6,0.2,0.2
2026-04-21T1600,2534A,105.0407,29.5828,内江市,内江日报社,,16,NA,51,10,27,50,50,46,43,7,9,8,8,0.3,0.3
2026-04-21T1600,4147A,105.0433,29.6105,内江市,玉峰路西段888号,,16,10,51,10,26,51,51,44,44,7,10,4,4,0.3,0.3
2026-04-21T1600,2628A,92.0653,31.4846,那曲市,那曲监测站,,35,29,50,12,24,111,111,87,87,5,14,4,6,0.6,0.8
2026-04-21T1600,4243A,92.0515,31.4787,那曲市,那曲市委宣传部,,37,22,39,3,19,116,116,92,92,1,8,6,7,0.4,0.6
2026-04-21T1600,1291A,115.8887,28.7006,南昌市,省林业公司,,12,9,22,8,15,28,28,44,33,22,10,5,4,0.5,0.4
2026-04-21T1600,1292A,115.813,28.7443,南昌市,林科所,,13,7,17,3,13,31,31,52,41,26,11,7,7,0.8,0.6
2026-04-21T1600,1294A,115.8518,28.687,南昌市,建工学校,,12,NA,29,6,15,30,30,46,37,23,12,9,9,0.9,0.7
2026-04-21T1600,1295A,115.8926,28.6425,南昌市,象湖,,12,NA,18,8,22,27,27,45,32,23,13,7,7,1.0,0.9
2026-04-21T1600,3046A,115.9084,28.6062,南昌市,机电学校,,14,14,24,8,17,26,26,50,35,26,11,4,4,0.7,0.6
2026-04-21T1600,3690A,115.9718,28.7032,南昌市,外国语学校,,11,6,27,3,14,31,31,45,34,22,14,8,8,0.8,0.7
2026-04-21T1600,4106A,115.7923,28.6873,南昌市,工业二路,,14,14,28,6,15,35,35,49,40,16,11,4,4,0.8,0.6
2026-04-21T1600,4192A,115.931587,28.686774,南昌市,南京东路235号,,11,NA,34,3,16,35,35,49,37,17,9,5,5,0.7,0.5
2026-04-21T1600,1906A,106.0791,30.8022,南充市,南充市委,,14,6,18,3,8,42,42,30,30,8,9,7,6,0.3,0.3
2026-04-21T1600,1907A,106.1038,30.8215,南充市,南充炼油厂,,15,15,22,3,9,44,44,35,35,6,8,4,4,0.2,0.2
2026-04-21T1600,4227A,106.108336,30.788436,南充市,梨树横街98号,,15,6,18,3,9,46,46,33,33,3,7,5,6,0.2,0.3
2026-04-21T1600,4304A,106.1172,30.843,南充市,清泉寺北路188号,,15,11,19,3,10,46,46,36,36,4,6,6,5,0.3,0.3
2026-04-21T1600,4305A,106.067,30.7616,南充市,同庆路1号,,14,7,21,3,8,42,42,29,29,10,11,6,6,0.2,0.2
2026-04-21T1600,1151A,118.8033,32.1085,南京市,迈皋桥,NA,NA,85,63,18,9,78,78,85,85,46,25,NA,34,0.5,0.7
2026-04-21T1600,1152A,118.7487,32.057,南京市,草场门,颗粒物(PM10),84,97,75,25,13,73,73,77,77,31,24,5,5,0.4,0.4
2026-04-21T1600,1154A,118.770105,32.004342,南京市,中华门,颗粒物(PM10),84,97,74,18,9,76,76,79,79,24,18,9,8,0.4,0.5
2026-04-21T1600,1155A,118.8059,32.0329,南京市,瑞金路,颗粒物(PM10),88,102,72,20,10,73,73,77,77,27,21,6,8,0.6,0.6
2026-04-21T1600,1156A,118.7946,32.0774,南京市,玄武湖,颗粒物(PM10),85,98,67,19,9,72,72,76,76,26,17,4,5,0.4,0.4
2026-04-21T1600,1157A,118.6415,32.0964,南京市,浦口,颗粒物(PM10),87,101,77,22,10,67,67,69,69,31,25,5,6,0.5,0.5
2026-04-21T1600,1158A,118.730129,32.000956,南京市,奥体中心,颗粒物(PM10),82,94,72,16,9,58,58,60,60,29,23,8,8,0.3,0.3
2026-04-21T1600,1159A,118.9072,32.1047,南京市,仙林大学城,颗粒物(PM10),103,127,81,23,11,78,78,86,86,31,23,9,9,0.6,0.6
2026-04-21T1600,3422A,118.8443,31.919,南京市,江宁彩虹桥,颗粒物(PM10),77,87,71,15,11,81,81,84,84,36,28,3,4,0.4,0.5
2026-04-21T1600,3427A,118.8497,32.3599,南京市,六合雄州,颗粒物(PM10),87,101,68,18,8,75,75,76,76,50,31,4,4,0.9,0.7
2026-04-21T1600,4086A,118.7641,32.0841,南京市,新模范马路66号,颗粒物(PM10),91,107,75,21,9,78,78,83,83,25,16,4,4,0.4,0.4
2026-04-21T1600,4249A,118.8707617,31.34017673,南京市,汶溪路181号,颗粒物(PM10),61,65,61,19,10,75,75,72,72,19,19,4,6,0.4,0.5
2026-04-21T1600,4312A,119.019,31.6512,南京市,中山西路1号,颗粒物(PM10),80,92,68,15,8,70,70,65,65,20,19,4,4,0.4,0.5
2026-04-21T1600,1401A,108.3098,22.788,南宁市,二十一中,,28,28,27,16,17,61,61,60,60,7,8,2,2,0.4,0.5
2026-04-21T1600,1402A,108.3135,22.8529,南宁市,北湖,,34,34,27,19,22,64,64,62,62,7,8,1,2,0.6,0.7
2026-04-21T1600,1403A,108.3205,22.8222,南宁市,市监测站,,37,37,28,15,16,68,68,65,65,5,6,1,2,0.3,0.4
2026-04-21T1600,1404A,108.3828,22.8038,南宁市,大自然花园,,35,35,32,20,19,70,70,66,66,9,8,5,5,0.5,0.6
2026-04-21T1600,1406A,108.2397,22.8462,南宁市,区农职院,,26,26,29,13,14,56,56,54,54,4,6,1,2,0.5,0.5
2026-04-21T1600,1407A,108.3285,22.7356,南宁市,英华嘉园,,36,36,33,16,17,66,66,63,63,10,11,3,4,0.4,0.4
2026-04-21T1600,3401A,108.4829,22.762,南宁市,红星社区,,32,32,32,17,19,73,73,66,66,5,7,4,5,0.5,0.5
2026-04-21T1600,4132A,108.2927,23.1477,南宁市,起凤路9号,NA,NA,38,29,28,20,75,75,66,66,6,6,NA,4,0.6,0.5
2026-04-21T1600,4221A,108.2177,22.7774,南宁市,乐贤路16号,,28,28,29,16,15,55,55,53,53,9,13,4,4,0.3,0.3
2026-04-21T1600,2332A,118.1682,26.6371,南平市,南平市监测站,,30,26,31,15,19,94,94,104,97,5,9,3,4,0.3,0.4
2026-04-21T1600,2334A,118.1757,26.6276,南平市,南平七中,,27,21,30,16,18,84,84,107,96,7,8,2,3,0.4,0.5
2026-04-21T1600,1168A,120.9056,31.9669,南通市,狼山街道,颗粒物(PM10),81,93,107,18,14,96,96,93,93,7,9,4,4,0.3,0.3
2026-04-21T1600,1170A,120.8635,32.0231,南通市,城中,颗粒物(PM10),88,102,115,16,16,97,97,94,94,11,11,4,4,0.2,0.2
2026-04-21T1600,1171A,120.9376,31.9301,南通市,星湖花园,颗粒物(PM10),80,92,106,17,13,94,94,95,95,10,11,3,4,0.3,0.3
2026-04-21T1600,1172A,120.8053,32.046,南通市,紫琅学院,颗粒物(PM10),75,85,103,12,11,102,102,98,98,13,14,4,5,0.5,0.5
2026-04-21T1600,3291A,121.0631,32.0644,南通市,通州监测站,颗粒物(PM10),86,100,114,18,15,100,100,98,98,13,13,3,3,0.4,0.3
2026-04-21T1600,3432A,120.9348,31.9874,南通市,环境教育馆,颗粒物(PM10),88,102,108,16,13,94,94,92,92,14,16,4,4,0.4,0.4
2026-04-21T1600,4091A,120.8692,31.9885,南通市,洪江路,颗粒物(PM10),71,79,89,17,12,95,95,91,91,10,14,5,5,0.6,0.6
2026-04-21T1600,2404A,112.5338,33.0086,南阳市,瓦房庄,,28,28,68,3,16,81,81,83,83,13,15,4,4,0.4,0.4
2026-04-21T1600,2405A,112.5002,32.9734,南阳市,汉画馆,,28,28,68,3,18,79,79,82,81,10,12,5,6,0.4,0.4
2026-04-21T1600,2406A,112.5778,33.0144,南阳市,气象站,,26,19,73,6,16,82,82,84,84,8,12,4,6,0.3,0.3
2026-04-21T1600,2407A,112.548,32.9687,南阳市,理工学院,,27,26,67,6,16,84,84,84,84,8,10,6,6,0.4,0.3
2026-04-21T1600,4008A,112.5233,32.9921,南阳市,卧龙区政府,,25,21,76,3,16,80,80,82,81,9,10,6,6,0.4,0.4
2026-04-21T1600,1234A,121.8352,29.9111,宁波市,区环保大楼,颗粒物(PM10),86,100,56,16,13,80,80,70,68,28,26,7,6,0.3,0.3
2026-04-21T1600,1235A,121.5595,29.8208,宁波市,万里学院,颗粒物(PM10),58,60,42,13,16,85,85,83,83,13,12,8,8,0.5,0.5
2026-04-21T1600,1236A,121.713,29.9564,宁波市,龙赛医院,颗粒物(PM10),73,81,63,15,13,80,80,69,61,15,18,6,7,0.3,0.4
2026-04-21T1600,1240A,121.5855,29.8635,宁波市,太古小学,颗粒物(PM10),60,63,45,13,16,85,85,76,76,17,15,4,4,0.3,0.3
2026-04-21T1600,1241A,121.5239,29.8673,宁波市,市环境监测中心,颗粒物(PM10),53,53,40,13,16,78,78,72,72,17,15,4,4,0.3,0.4
2026-04-21T1600,2871A,121.6156,29.9015,宁波市,万里国际学校,颗粒物(PM10),61,65,44,14,15,94,94,77,77,13,16,5,5,0.3,0.4
2026-04-21T1600,3710A,121.5593,29.8976,宁波市,白沙活动中心,颗粒物(PM10),51,51,37,12,12,89,89,75,75,16,15,5,5,0.4,0.4
2026-04-21T1600,4095A,121.8962,29.7529,宁波市,中科路88号,颗粒物(PM10),88,103,52,16,12,91,91,81,81,18,17,7,7,0.3,0.4
2026-04-21T1600,2341A,119.5387,26.6611,宁德市,宁德市监测站,,27,21,28,16,17,84,84,114,90,20,16,7,7,0.5,0.5
2026-04-21T1600,3209A,119.5231,26.6562,宁德市,宁德一中,,30,30,34,18,19,87,87,113,91,15,10,6,6,0.1,0.2
2026-04-21T1600,2618A,98.859,25.8541,怒江傈僳族自治州,州监测站,,48,48,44,33,30,65,65,47,47,12,13,6,6,0.4,0.4
2026-04-21T1600,2619A,98.8607,25.8168,怒江傈僳族自治州,泸水一中,,45,36,40,31,32,63,63,38,38,12,17,5,5,0.7,0.7
2026-04-21T1600,1888A,101.6891,26.571,攀枝花市,弄弄坪,,47,47,65,17,30,130,130,96,96,12,26,9,16,0.7,0.9
2026-04-21T1600,1889A,101.577,26.5914,攀枝花市,河门口,NA,NA,NA,NA,NA,NA,NA,NA,NA,NA,NA,NA,NA,NA,NA,NA
2026-04-21T1600,1891A,101.7365,26.4986,攀枝花市,仁和,,46,46,53,28,35,123,123,98,98,7,19,3,8,0.3,0.5
2026-04-21T1600,2835A,101.7222,26.567,攀枝花市,四十中小,,42,42,46,20,26,122,122,99,99,8,19,7,23,0.5,0.8
2026-04-21T1600,1604A,122.0303,41.1489,盘锦市,开发区,颗粒物(PM10),81,93,97,37,27,125,125,95,95,15,17,9,8,0.4,0.3
2026-04-21T1600,1605A,122.0486,41.0883,盘锦市,兴隆台,颗粒物(PM10),75,85,95,38,29,117,117,87,87,15,22,11,10,0.6,0.5
2026-04-21T1600,1606A,121.8297,41.1026,盘锦市,新生街道,颗粒物(PM10),74,83,82,30,24,124,124,91,91,24,25,7,7,0.6,0.5
2026-04-21T1600,1832A,113.3257,33.7423,平顶山市,新华旅馆,,36,36,90,8,20,90,90,79,79,7,15,4,5,0.3,0.4
2026-04-21T1600,1833A,113.2917,33.737,平顶山市,规划设计院,,30,30,82,3,21,84,84,80,80,10,12,6,8,0.4,0.3
2026-04-21T1600,1834A,113.182,33.7738,平顶山市,平顶山工学院,,30,30,76,17,21,91,91,87,87,8,12,8,9,0.4,0.4
2026-04-21T1600,3594A,112.8736,33.9068,平顶山市,石龙区,,30,21,79,13,23,94,94,83,83,7,11,7,8,0.3,0.3
2026-04-21T1600,4116A,113.284,33.7139,平顶山市,姚电大道23号,,37,37,95,12,22,89,89,84,84,13,17,4,6,0.4,0.3
2026-04-21T1600,2656A,106.6633,35.5338,平凉市,聚贤嘉苑,,27,27,60,6,19,86,86,76,76,6,13,6,6,0.4,0.4
2026-04-21T1600,2657A,106.7021,35.5307,平凉市,博物馆,,30,30,54,3,15,88,88,84,79,6,10,9,9,0.3,0.3
2026-04-21T1600,2348A,113.8384,27.6436,萍乡市,中医院,,25,25,22,14,18,28,28,39,26,19,18,7,7,0.7,0.8
2026-04-21T1600,2350A,113.8677,27.6438,萍乡市,市环保局,,43,38,26,30,20,26,26,44,26,23,18,12,12,1.0,0.7
2026-04-21T1600,2351A,113.8663,27.6202,萍乡市,安源区政府,,40,33,22,28,16,12,12,38,27,18,9,10,10,0.8,0.4
2026-04-21T1600,4107A,113.8686,27.6668,萍乡市,联洪村委会,,30,24,29,21,21,20,20,32,17,23,19,4,5,0.7,0.8
2026-04-21T1600,2319A,119.0142,25.4324,莆田市,荔城区仓后路,,39,39,40,12,24,105,105,106,106,2,7,/,/,/,/
2026-04-21T1600,2320A,119.0016,25.4553,莆田市,莆田市监测站,,33,33,30,14,18,100,100,105,105,8,11,2,6,0.4,0.4
2026-04-21T1600,2321A,119.112,25.4561,莆田市,涵江区六中,,36,36,36,12,20,109,109,113,113,3,13,/,/,0.4,0.5
2026-04-21T1600,2322A,119.1014,25.3215,莆田市,秀屿区政府,,48,48,36,10,20,104,104,104,104,5,6,3,4,0.4,0.5
2026-04-21T1600,2392A,115.0312,35.7636,濮阳市,环保局,,31,31,73,13,13,88,88,82,82,16,20,4,4,0.5,0.3
2026-04-21T1600,3021A,115,35.7667,濮阳市,濮水河管理处,,25,24,64,15,15,78,78,74,74,14,20,5,4,0.4,0.4
2026-04-21T1600,4118A,115.0552,35.7816,濮阳市,中原东路68号,,31,28,73,16,12,97,97,87,87,12,13,3,3,0.4,0.4
2026-04-21T1600,4216A,115.0923632,35.76857718,濮阳市,任丘路479号,,31,31,73,17,15,93,93,85,85,7,12,3,4,0.2,0.2
2026-04-21T1600,2601A,100.9801,22.7634,普洱市,市环保局,颗粒物(PM10),85,98,86,43,45,145,145,99,99,6,10,5,5,0.8,1
2026-04-21T1600,2602A,100.9763,22.8237,普洱市,普洱第二中学,"颗粒物(PM10),细颗粒物(PM2.5)",78,88,77,49,47,136,136,100,100,9,18,7,6,0.8,0.9
2026-04-21T1600,3345A,131.0413,45.7795,七台河市,中波台,,23,8,75,3,15,72,72,74,65,9,12,4,4,0.4,0.5
2026-04-21T1600,3637A,131.0136,45.7688,七台河市,人民广场,,25,13,84,3,9,78,78,79,70,11,14,10,9,0.5,0.6
2026-04-21T1600,3684A,130.8639,45.8144,七台河市,新建矿广场,,21,7,83,7,14,66,66,58,57,8,17,8,9,0.2,0.2
2026-04-21T1600,1779A,123.9307,47.3641,齐齐哈尔市,安居小区,颗粒物(PM10),71,79,24,6,6,97,97,94,94,1,2,6,6,0.4,0.3
2026-04-21T1600,1780A,123.9497,47.3389,齐齐哈尔市,中心广场,颗粒物(PM10),54,55,24,3,4,89,89,87,87,1,2,5,5,0.2,0.2
2026-04-21T1600,1781A,123.9483,47.3229,齐齐哈尔市,农牧车辆厂,颗粒物(PM10),86,100,37,10,4,100,100,98,98,3,4,4,5,0.4,0.4
2026-04-21T1600,1783A,123.9442,47.2994,齐齐哈尔市,市环境监测站,颗粒物(PM10),105,133,39,3,4,90,90,86,86,4,6,2,2,0.4,0.4
2026-04-21T1600,3662A,123.6341,47.2079,齐齐哈尔市,富区青少年活动中心,,48,48,39,3,7,92,92,91,91,5,8,3,4,0.2,0.2
2026-04-21T1600,2591A,107.9765,26.5724,黔东南苗族侗族自治州,市环境监测站,,10,6,7,3,6,32,32,46,30,7,6,3,2,0.6,0.6
2026-04-21T1600,2881A,107.8909,26.531,黔东南苗族侗族自治州,凯里学院,,11,9,5,7,7,34,34,49,35,7,6,2,2,0.4,0.4
2026-04-21T1600,2593A,107.5223,26.2371,黔南布依族苗族自治州,小围寨,,39,39,4,12,5,18,18,38,22,8,7,4,4,0.4,0.5
2026-04-21T1600,3538A,107.5175,26.2977,黔南布依族苗族自治州,沙坝,,7,7,6,3,4,12,12,35,18,7,4,4,3,0.5,0.5
2026-04-21T1600,2589A,104.9022,25.0943,黔西南布依族苗族自治州,场坝街,,43,NA,29,30,25,136,136,94,94,5,6,6,7,0.4,0.5
2026-04-21T1600,2590A,104.8812,25.0994,黔西南布依族苗族自治州,坪东大道,细颗粒物(PM2.5),52,NA,32,36,26,144,144,95,95,6,7,3,4,0.4,0.5
2026-04-21T1600,2502A,108.6238,21.9667,钦州市,市环保站,,39,39,32,17,17,76,76,65,65,12,10,3,2,0.5,0.5
2026-04-21T1600,2503A,108.655,21.9481,钦州市,沙埠小学,,38,38,36,22,23,81,81,62,62,7,12,2,3,0.7,0.8
2026-04-21T1600,2504A,108.5989,21.7435,钦州市,港区一小,,37,37,44,18,26,87,87,56,56,10,12,2,4,0.5,0.7
2026-04-21T1600,3404A,108.5959,21.9634,钦州市,北职校,,35,35,28,18,21,77,77,58,58,8,10,1,2,0.4,0.5
2026-04-21T1600,1046A,119.5247,39.9346,秦皇岛市,建设大厦,颗粒物(PM10),117,162,115,26,19,127,127,102,102,7,26,9,8,0.5,0.4
2026-04-21T1600,3132A,119.5979,39.938,秦皇岛市,文明里,颗粒物(PM10),94,111,97,26,20,107,107,92,92,27,26,11,11,0.5,0.5
2026-04-21T1600,4066A,119.7458,39.9952,秦皇岛市,南园路157号,颗粒物(PM10),83,95,100,30,23,104,104,89,89,28,30,10,10,0.6,0.5
2026-04-21T1600,4067A,119.5131,39.8858,秦皇岛市,翠岛大街1号,颗粒物(PM10),70,77,79,19,20,114,114,95,95,18,22,10,10,0.6,0.6
2026-04-21T1600,4198A,119.509013,39.825305,秦皇岛市,北戴河轮滑馆,颗粒物(PM10),82,94,92,32,21,102,102,88,88,26,27,10,11,0.5,0.6
2026-04-21T1600,1310A,120.404,36.0625,青岛市,市南区东部子站,颗粒物(PM10),95,112,104,43,32,81,81,66,66,35,46,7,8,0.6,0.6
2026-04-21T1600,1311A,120.362344,36.10282,青岛市,四方区子站,颗粒物(PM10),83,95,100,25,27,129,129,104,104,14,34,8,9,0.6,0.7
2026-04-21T1600,1312A,120.294373,36.054183,青岛市,市南区西部子站,颗粒物(PM10),90,105,108,21,26,109,109,84,84,30,51,4,7,0.6,0.7
2026-04-21T1600,1313A,120.4581,36.0858,青岛市,崂山区子站,颗粒物(PM10),91,107,96,37,27,82,82,71,71,42,30,10,10,0.5,0.5
2026-04-21T1600,1315A,120.3945,36.3083,青岛市,城阳区子站,颗粒物(PM10),75,85,99,18,24,122,122,100,100,16,33,7,7,0.6,0.7
2026-04-21T1600,3642A,120.3454,36.0735,青岛市,市北区南部,颗粒物(PM10),88,103,103,34,28,120,120,94,94,19,30,5,7,0.6,0.7
2026-04-21T1600,3643A,120.3897,36.18,青岛市,李沧区北部,颗粒物(PM10),98,117,108,20,25,110,110,99,99,20,29,10,10,0.5,0.6
2026-04-21T1600,4110A,120.5222,36.4089,青岛市,盟旺路653号,颗粒物(PM10),73,82,98,16,27,118,118,103,103,13,19,5,5,0.5,0.6
2026-04-21T1600,4290A,120.196923,35.954556,青岛市,珠江路669号,颗粒物(PM10),102,124,113,25,27,114,114,91,91,29,31,6,7,0.7,0.8
2026-04-21T1600,4291A,120.0424,35.8656,青岛市,黄岛区人民政府广场,NA,NA,NA,105,11,23,114,114,92,92,11,37,NA,10,0.4,0.7
2026-04-21T1600,1703A,113.0218,23.7086,清远市,凤城街办,NA,NA,20,37,NA,34,110,110,78,78,NA,26,/,/,/,/
2026-04-21T1600,3025A,113.0479,23.6343,清远市,技师学院,,39,18,42,12,30,124,124,83,83,15,30,4,6,0.4,0.5
2026-04-21T1600,3318A,112.9898,23.7403,清远市,清新太和,,39,27,39,17,27,124,124,90,90,17,20,8,7,0.3,0.4
2026-04-21T1600,3455A,113.076,23.72,清远市,清城东城,,39,22,48,15,33,124,124,83,83,11,18,/,/,/,/
2026-04-21T1600,2661A,107.6325,35.7357,庆阳市,庆阳五中,,25,8,39,3,11,80,80,80,77,6,8,2,2,0.3,0.2
2026-04-21T1600,2662A,107.6361,35.7067,庆阳市,市环保局,,26,15,35,6,11,83,83,84,80,8,10,4,4,0.8,0.7
2026-04-21T1600,1916A,103.7897,25.5036,曲靖市,环境监测站,颗粒物(PM10),60,64,40,38,25,135,135,127,127,6,9,6,6,0.5,0.5
2026-04-21T1600,1917A,103.8013,25.5357,曲靖市,烟厂办公区,颗粒物(PM10),52,52,38,24,21,137,137,125,125,6,8,7,7,0.4,0.5
2026-04-21T1600,3376A,103.7926,25.4651,曲靖市,南苑二区,,41,37,32,23,24,129,129,120,120,5,7,4,4,0.5,0.6
2026-04-21T1600,3377A,103.7442,25.5259,曲靖市,曲靖师范学院,,46,46,38,30,25,135,135,126,126,6,10,3,4,0.4,0.4
2026-04-21T1600,1264A,118.8694,28.94,衢州市,环保大楼,,32,31,65,22,41,66,66,77,58,18,17,/,/,/,/
2026-04-21T1600,1266A,118.8622,28.9809,衢州市,衢州学院,,32,28,61,22,41,68,68,83,63,22,22,5,7,0.4,0.4
2026-04-21T1600,4097A,118.9646,28.9832,衢州市,衢州三中,,33,33,63,22,38,61,61,74,56,18,18,7,7,0.4,0.4
2026-04-21T1600,1611A,118.5818,24.9116,泉州市,涂山街,,38,38,33,17,23,85,85,92,92,16,15,3,4,0.6,0.8
2026-04-21T1600,1612A,118.597,24.8976,泉州市,津头埔,,37,37,34,15,24,90,90,97,97,16,16,3,4,0.5,0.6
2026-04-21T1600,1613A,118.6669,24.9422,泉州市,万安,,39,39,34,16,23,82,82,89,89,15,14,3,4,0.5,0.6
2026-04-21T1600,4105A,118.6355,24.9148,泉州市,霞新路6号,,29,29,30,15,23,82,82,91,91,18,18,/,/,0.5,0.6
2026-04-21T1600,2626A,88.8873,29.2723,日喀则市,日喀则监测站,,41,14,16,6,5,129,129,123,123,4,4,7,10,0.3,0.4
2026-04-21T1600,3726A,88.8775,29.2425,日喀则市,林业技术推广中心,,40,13,20,6,2,127,127,118,118,3,3,6,6,0.2,0.2
2026-04-21T1600,1659A,119.4711,35.421,日照市,监测站,颗粒物(PM10),72,80,100,18,26,114,114,95,95,21,43,10,13,0.6,0.8
2026-04-21T1600,1660A,119.523,35.4216,日照市,市政府广场,颗粒物(PM10),93,110,109,30,29,106,106,94,94,28,41,9,14,0.7,1
2026-04-21T1600,1661A,119.5511,35.4113,日照市,港务局,颗粒物(PM10),91,107,135,46,34,91,91,89,89,38,57,8,14,0.7,1
2026-04-21T1600,3507A,119.5326,35.4627,日照市,职业技术学院,颗粒物(PM10),78,88,89,29,28,107,107,98,98,29,41,10,13,0.6,0.9
2026-04-21T1600,3604A,119.3267,35.1043,日照市,岚山环保分局,颗粒物(PM10),95,112,114,24,27,100,100,84,84,34,36,12,19,0.7,0.8
2026-04-21T1600,1835A,111.1922,34.7752,三门峡市,市政府,,24,NA,80,3,38,75,75,72,72,6,11,7,8,0.3,0.4
2026-04-21T1600,1836A,111.1588,34.794,三门峡市,开发区,,25,24,110,12,42,79,79,76,76,9,12,9,11,0.4,0.4
2026-04-21T1600,3039A,111.1911,34.7829,三门峡市,三门峡市第一小学,,25,NA,96,6,28,77,77,74,74,4,10,10,10,0.2,0.2
2026-04-21T1600,3598A,111.1031,34.719,三门峡市,富达温泉假日酒店,,27,11,91,6,33,86,86,84,84,6,9,11,11,0.4,0.4
2026-04-21T1600,2324A,117.621,26.2626,三明市,三钢,,34,34,37,21,32,72,72,74,74,12,17,4,8,0.6,1.1
2026-04-21T1600,2325A,117.6352,26.2714,三明市,三明二中,,34,34,34,22,27,66,66,71,68,12,15,1,2,0.5,0.7
2026-04-21T1600,2326A,117.6028,26.2377,三明市,三元区政府,,32,31,40,22,31,71,71,65,65,10,14,4,4,0.7,0.7
2026-04-21T1600,1877A,109.4962,18.2682,三亚市,河西子站,,25,25,24,14,16,60,60,62,62,1,3,5,5,0.4,0.4
2026-04-21T1600,3540A,109.7348,18.3443,三亚市,君悦子站,,28,28,26,14,16,57,57,54,54,4,7,4,4,0.6,0.6
2026-04-21T1600,4135A,109.1714,18.3739,三亚市,城东小学站,,28,28,28,12,16,60,60,64,64,3,5,/,/,/,/
2026-04-21T1600,2624A,91.7592,29.234,山南市,山南监测站,,39,16,23,3,5,124,124,102,102,2,4,7,8,0.2,0.2
2026-04-21T1600,2625A,91.7701,29.2436,山南市,山南人民医院,,40,17,24,6,7,127,127,106,106,2,3,8,9,0.2,0.2
2026-04-21T1600,1674A,116.6795,23.3666,汕头市,金平子站,,35,32,23,20,18,112,112,110,110,7,7,4,4,0.7,0.7
2026-04-21T1600,1675A,116.7248,23.3632,汕头市,龙湖子站,,34,28,24,21,18,108,108,107,107,4,4,5,5,/,/
2026-04-21T1600,1676A,116.7257,23.2774,汕头市,濠江子站,,33,32,29,21,18,103,103,101,101,8,10,7,7,/,/
2026-04-21T1600,1677A,116.7518,23.4712,汕头市,澄海子站,,34,31,27,17,18,106,106,109,108,11,9,6,7,0.8,0.8
2026-04-21T1600,1678A,116.6088,23.2539,汕头市,潮阳子站,,35,32,25,18,20,111,111,108,108,5,5,6,6,0.6,0.6
2026-04-21T1600,3444A,116.4539,23.2684,汕头市,潮南峡山,,34,26,31,18,22,106,106,100,100,8,7,6,7,0.8,0.8
2026-04-21T1600,3624A,116.4069,23.2533,汕头市,潮南子站,,29,29,33,20,24,92,92,88,88,11,6,5,6,/,/
2026-04-21T1600,1693A,115.3653,22.7751,汕尾市,市环保局,,27,16,26,16,16,85,85,93,87,4,4,5,5,0.7,0.7
2026-04-21T1600,1695A,115.362,22.7926,汕尾市,新城中学,,27,24,23,13,15,85,85,97,90,7,5,6,6,0.6,0.6
2026-04-21T1600,2645A,109.9155,33.8714,商洛市,监测站,,26,6,55,3,19,81,81,64,64,6,9,7,6,0.4,0.4
2026-04-21T1600,3045A,109.9647,33.8486,商洛市,商州区中学,,23,7,49,3,20,73,73,56,56,9,15,2,3,0.5,0.5
2026-04-21T1600,2408A,115.6701,34.4283,商丘市,环境监测站,颗粒物(PM10),74,83,96,25,28,75,75,48,48,10,24,4,3,0.4,0.4
2026-04-21T1600,2409A,115.6458,34.4047,商丘市,粮食局,颗粒物(PM10),70,77,88,24,24,71,71,59,59,14,23,5,5,0.4,0.4
2026-04-21T1600,3171A,115.6069,34.4465,商丘市,梁园区档案局,颗粒物(PM10),70,78,103,28,25,76,76,48,48,16,36,6,5,0.3,0.3
2026-04-21T1600,4119A,115.6701,34.3767,商丘市,北海东路185号,颗粒物(PM10),73,82,91,26,23,74,74,61,61,15,26,7,6,0.5,0.4
2026-04-21T1600,4120A,115.6172,34.3704,商丘市,中山大街3号,颗粒物(PM10),79,90,107,25,24,76,76,67,67,11,25,9,8,0.3,0.2
2026-04-21T1600,1141A,121.401,31.2382,上海市,普陀,颗粒物(PM10),97,115,96,22,21,97,97,93,93,19,18,5,6,0.3,0.3
2026-04-21T1600,1142A,121.4774,31.2043,上海市,十五厂,颗粒物(PM10),97,115,98,24,22,91,91,87,87,16,15,5,5,0.5,0.4
2026-04-21T1600,1143A,121.4673,31.3011,上海市,虹口,颗粒物(PM10),98,117,102,23,19,88,88,87,87,17,15,4,4,0.5,0.4
2026-04-21T1600,1147A,121.4253,31.226,上海市,静安监测站,颗粒物(PM10),94,111,97,22,20,97,97,91,91,19,20,8,8,0.4,0.5
2026-04-21T1600,1148A,121.7029,31.1905,上海市,浦东川沙,颗粒物(PM10),102,123,112,24,23,97,97,99,99,23,16,7,8,0.6,0.6
2026-04-21T1600,1149A,121.5339,31.229,上海市,浦东新区监测站,颗粒物(PM10),91,107,97,22,20,92,92,86,86,15,17,5,6,0.3,0.3
2026-04-21T1600,1150A,121.5776,31.2038,上海市,浦东张江,颗粒物(PM10),95,113,102,25,21,103,103,96,96,15,17,6,6,0.1,0.1
2026-04-21T1600,3265A,121.4242,31.3303,上海市,宝山庙行,颗粒物(PM10),95,113,96,23,19,89,89,88,88,22,18,6,7,0.2,0.2
2026-04-21T1600,3266A,121.8789,31.4662,上海市,崇明上实东滩,颗粒物(PM10),95,113,101,25,22,106,106,103,103,7,5,6,6,0.3,0.1
2026-04-21T1600,3268A,121.316,31.2839,上海市,嘉定南翔,颗粒物(PM10),88,103,88,22,20,78,78,77,77,16,13,5,5,0.3,0.3
2026-04-21T1600,3269A,121.3357,30.7455,上海市,金山新城,颗粒物(PM10),73,81,89,20,22,106,106,96,96,8,10,5,5,0.5,0.6
2026-04-21T1600,3270A,121.4996,31.0741,上海市,闵行浦江,颗粒物(PM10),92,108,100,24,23,89,89,86,86,18,17,6,6,0.1,0.1
2026-04-21T1600,3271A,121.2886,31.1663,上海市,青浦徐泾,颗粒物(PM10),93,109,90,23,21,93,93,88,88,17,17,6,5,0.3,0.4
2026-04-21T1600,3272A,121.2193,31.0382,上海市,松江图书馆,颗粒物(PM10),95,113,96,26,22,101,101,88,88,6,12,7,7,0.4,0.5
2026-04-21T1600,3273A,121.3904,31.206,上海市,长宁仙霞,颗粒物(PM10),96,114,92,22,22,89,89,84,84,17,17,6,6,0.2,0.2
2026-04-21T1600,3274A,121.7964,31.0507,上海市,浦东惠南,颗粒物(PM10),95,112,102,23,21,106,106,95,95,14,18,6,6,0.4,0.4
2026-04-21T1600,3544A,121.4891,30.925,上海市,奉贤南桥新城,颗粒物(PM10),91,107,105,22,24,97,97,88,88,13,11,3,4,0.3,0.3
2026-04-21T1600,4183A,121.417401,31.16637,上海市,冠生园路458号,颗粒物(PM10),90,105,90,28,23,87,87,81,81,17,18,8,9,0.1,0.1
2026-04-21T1600,4205A,121.541914,31.268301,上海市,宁武路151号,颗粒物(PM10),107,136,110,31,24,79,79,80,80,36,25,7,6,0.3,0.3
2026-04-21T1600,2382A,117.9758,28.4439,上饶市,市监测站,,39,39,51,26,37,65,65,120,65,16,10,5,7,/,/
2026-04-21T1600,2383A,117.9521,28.4637,上饶市,凤凰光学,,45,NA,58,31,40,56,56,105,59,24,19,5,6,0.5,0.6
2026-04-21T1600,3685A,117.897,28.4316,上饶市,双创科技城,,38,38,55,24,38,68,68,122,68,14,15,5,7,0.5,0.5
2026-04-21T1600,4211A,118.190438,28.444845,上饶市,裕丰大道,,39,38,60,27,41,59,59,103,60,18,16,11,13,0.7,0.7
2026-04-21T1600,1669A,113.5821,24.7733,韶关市,市八中,NA,NA,35,47,22,33,124,124,81,81,NA,22,NA,13,0.4,0.6
2026-04-21T1600,1671A,113.5916,24.7973,韶关市,园林处,,38,28,42,24,35,119,119,74,74,12,22,6,11,/,/
2026-04-21T1600,1673A,113.5971,24.6864,韶关市,曲江监测站,,38,29,41,20,29,120,120,81,81,14,16,5,8,0.6,0.7
2026-04-21T1600,2809A,113.6668,24.7756,韶关市,大学路288号,颗粒物(PM10),54,55,40,35,30,120,120,82,82,17,13,9,8,/,/
2026-04-21T1600,3622A,113.5556,24.8082,韶关市,碧湖山庄,,40,31,45,21,33,128,128,79,79,11,16,6,8,0.4,0.6
2026-04-21T1600,2464A,111.5277,27.2442,邵阳市,市化工厂,,19,NA,11,13,12,38,38,49,36,10,7,6,6,0.6,0.6
2026-04-21T1600,2466A,111.4327,27.2276,邵阳市,市环保局,,22,NA,11,15,11,44,44,55,45,9,7,5,5,0.7,0.7
