timepoint,stationcode,longitude,latitude,area,positionname,primarypollutant,aqi,pm10,pm10_24h,pm2_5,pm2_5_24h,o3,o3_24h,o3_8h,o3_8h_24h,no2,no2_24h,so2,so2_24h,co,co_24h
2026-04-03T1400,2568A,102.2503,31.8896,阿坝藏族羌族自治州,马师校,,34,20,22,10,8,106,106,72,72,3,5,5,5,0.2,0.2
2026-04-03T1400,3994A,102.2174,31.9016,阿坝藏族羌族自治州,马尔康中学西区,,32,NA,19,11,8,100,100,75,75,4,6,3,3,0.2,0.2
2026-04-03T1400,2695A,80.2899,41.1684,阿克苏地区,电视台,颗粒物(PM10),102,124,111,43,40,113,113,69,69,8,24,4,4,0.3,0.5
2026-04-03T1400,2696A,80.2592,41.1541,阿克苏地区,艺术中心,颗粒物(PM10),103,126,121,36,41,119,119,71,71,17,41,5,5,0.3,0.6
2026-04-03T1400,2205A,105.699,38.8409,阿拉善盟,蒙二幼,颗粒物(PM10),117,164,362,42,79,93,93,103,88,5,7,8,8,0.4,0.5
2026-04-03T1400,2206A,105.7198,38.8508,阿拉善盟,环保局新楼,颗粒物(PM10),108,140,296,43,82,90,90,99,86,3,4,8,8,0.4,0.5
2026-04-03T1400,2708A,88.1266,47.8515,阿勒泰地区,市站,,32,19,13,3,3,100,100,108,104,6,5,5,5,0.3,0.3
2026-04-03T1400,4166A,88.1198,47.7931,阿勒泰地区,阿勒泰路33号,,31,22,16,3,2,99,99,101,94,4,6,5,5,0.3,0.3
2026-04-03T1400,2630A,80.1171,32.4999,阿里地区,阿里监测站,,28,8,13,3,4,88,88,64,64,4,6,6,6,0.4,0.4
2026-04-03T1400,3192A,80.0906,32.5029,阿里地区,阿里藏医院,,30,6,11,3,3,93,93,67,66,2,4,7,8,0.3,0.3
2026-04-03T1400,2644A,109.0088,32.6974,安康市,汉滨区检察院,,34,34,45,21,25,84,84,35,35,9,19,5,5,0.5,0.6
2026-04-03T1400,4054A,109.0324,32.6913,安康市,市邮政管理局,,36,36,55,20,29,84,84,38,38,11,23,4,8,0.5,0.7
2026-04-03T1400,2291A,117.0806,30.5181,安庆市,环科院,,23,23,46,15,27,55,55,54,54,25,39,5,6,0.5,0.5
2026-04-03T1400,2292A,117.0331,30.5118,安庆市,马山宾馆,,40,NA,34,28,26,36,36,46,46,39,39,5,6,0.6,0.6
2026-04-03T1400,2294A,116.9897,30.6146,安庆市,安庆大学,,35,29,38,24,22,46,46,56,56,23,19,2,4,0.5,0.6
2026-04-03T1400,3173A,117.0598,30.5351,安庆市,市人大,,26,19,37,18,24,55,55,61,61,25,30,6,8,0.5,0.6
2026-04-03T1400,3123A,105.9408,26.2431,安顺市,凤凰山,,35,NA,34,19,27,112,112,86,86,6,11,7,6,0.5,0.6
2026-04-03T1400,3124A,105.9443,26.2567,安顺市,金钟山,NA,NA,NA,34,NA,26,102,102,75,75,5,9,NA,8,0.5,0.6
2026-04-03T1400,3125A,105.8983,26.248,安顺市,娄家坡,,34,NA,34,20,28,106,106,84,84,5,8,15,15,0.4,0.6
2026-04-03T1400,1819A,114.3552,36.1017,安阳市,红庙街,颗粒物(PM10),62,66,57,38,34,121,121,86,86,11,16,5,5,0.2,0.3
2026-04-03T1400,1820A,114.361,36.0681,安阳市,银杏小区,颗粒物(PM10),70,77,62,38,38,122,122,87,87,13,18,6,6,0.3,0.4
2026-04-03T1400,3141A,114.3921,36.0879,安阳市,信访局,颗粒物(PM10),67,73,58,32,35,131,131,95,95,2,13,4,3,0.5,0.5
2026-04-03T1400,3669A,114.4706,36.0634,安阳市,左辅环卫站,颗粒物(PM10),76,86,66,35,35,122,122,82,82,5,8,6,5,0.5,0.4
2026-04-03T1400,4117A,114.2918,36.0769,安阳市,钢三路198号,颗粒物(PM10),59,62,56,28,34,115,115,86,86,9,13,4,4,0.4,0.5
2026-04-03T1400,1748A,123.0441,41.1201,鞍山市,深沟寺,细颗粒物(PM2.5),76,83,84,48,45,140,140,120,120,12,18,9,12,0.8,0.8
2026-04-03T1400,1749A,123.011,41.0931,鞍山市,太阳城,细颗粒物(PM2.5),88,78,91,54,57,135,135,123,122,10,17,7,10,0.8,0.8
2026-04-03T1400,1750A,123.0483,41.1445,鞍山市,太平,"颗粒物(PM10),细颗粒物(PM2.5)",82,94,88,51,46,102,102,100,100,13,18,9,12,1.1,1.1
2026-04-03T1400,1751A,122.964,41.0968,鞍山市,铁西三道街,细颗粒物(PM2.5),88,96,100,54,58,134,134,120,120,15,29,6,11,0.8,1
2026-04-03T1400,1753A,123.0219,41.0822,鞍山市,明达新区,细颗粒物(PM2.5),80,77,88,50,51,129,129,123,121,12,17,8,11,0.8,0.9
2026-04-03T1400,4201A,122.944647,41.082639,鞍山市,兴盛南路290号,细颗粒物(PM2.5),96,105,106,58,60,134,134,120,120,11,24,7,13,0.7,1
2026-04-03T1400,2195A,107.4206,40.7609,巴彦淖尔市,附二中,,34,34,385,6,95,103,103,89,89,3,4,10,10,0.3,0.3
2026-04-03T1400,2196A,107.37,40.7372,巴彦淖尔市,市环保大楼,,34,29,360,6,106,106,106,90,90,4,5,6,6,0.3,0.3
2026-04-03T1400,1956A,86.1476,41.7529,巴音郭楞蒙古自治州,孔雀公园,NA,NA,105,76,NA,28,106,106,74,74,5,28,10,11,0.2,0.5
2026-04-03T1400,1957A,86.1971,41.7166,巴音郭楞蒙古自治州,棉纺厂,颗粒物(PM10),105,133,103,34,26,104,104,71,70,2,25,/,/,/,/
2026-04-03T1400,1958A,86.236,41.7172,巴音郭楞蒙古自治州,经济开发区,颗粒物(PM10),93,110,65,25,18,95,95,83,83,2,13,7,8,0.2,0.3
2026-04-03T1400,3181A,106.776805,31.852614,巴中市,市五中,,24,24,27,12,12,66,66,30,30,8,15,9,8,0.5,0.6
2026-04-03T1400,3183A,106.7419,31.8654,巴中市,圣泉水务公司,,26,26,23,15,13,64,64,37,37,8,16,9,8,0.6,0.6
2026-04-03T1400,3616A,106.7617,31.8343,巴中市,市中心医院,,25,22,27,16,17,77,77,37,37,5,15,9,8,0.6,0.6
2026-04-03T1400,2235A,122.7909,45.608,白城市,洮北区环保局,细颗粒物(PM2.5),54,39,79,37,50,81,81,70,70,15,22,6,7,0.2,0.3
2026-04-03T1400,2236A,122.8741,45.5725,白城市,市环保局,细颗粒物(PM2.5),60,NA,76,40,48,71,71,62,62,9,14,6,7,0.4,0.5
2026-04-03T1400,2231A,126.4219,41.9172,白山市,喜丰,颗粒物(PM10),60,64,89,37,42,129,129,83,83,9,33,10,10,1.0,1
2026-04-03T1400,2232A,126.4082,41.9416,白山市,环保局,细颗粒物(PM2.5),74,67,59,47,37,138,138,87,87,11,22,11,10,0.8,0.8
2026-04-03T1400,2647A,104.1727,36.5448,白银市,第三小学,颗粒物(PM10),103,126,201,28,52,108,108,101,101,4,7,4,6,0.2,0.2
2026-04-03T1400,2648A,104.1467,36.5482,白银市,动力公司,颗粒物(PM10),103,126,188,36,52,103,103,99,98,4,5,4,7,0.1,0.2
2026-04-03T1400,2512A,106.6102,23.901,百色市,市监测站,细颗粒物(PM2.5),82,64,54,51,43,131,131,73,73,8,14,11,11,0.9,0.9
2026-04-03T1400,2513A,106.6524,23.8842,百色市,市中心血站,细颗粒物(PM2.5),123,105,67,85,57,130,130,74,74,9,16,9,12,0.9,0.9
2026-04-03T1400,4133A,106.6273,23.8798,百色市,龙景西路,细颗粒物(PM2.5),94,79,73,57,52,141,141,72,72,9,17,13,15,0.8,0.7
2026-04-03T1400,2270A,117.396,32.9389,蚌埠市,工人疗养院,颗粒物(PM10),57,59,69,33,39,111,111,81,68,32,26,6,6,0.3,0.5
2026-04-03T1400,2271A,117.3606,32.9428,蚌埠市,百货大楼,,42,40,57,23,33,133,133,81,72,10,23,7,7,0.5,0.6
2026-04-03T1400,2273A,117.4183,32.8909,蚌埠市,蚌埠学院,,45,34,60,31,41,128,128,68,68,11,26,6,6,0.5,0.6
2026-04-03T1400,2274A,117.3534,32.9672,蚌埠市,淮上区政府,,43,41,61,26,39,135,135,85,70,9,23,6,6,0.4,0.5
2026-04-03T1400,2275A,117.3143,32.8977,蚌埠市,高新区,,43,41,60,30,39,130,130,71,66,15,28,9,9,0.6,0.7
2026-04-03T1400,3715A,117.3091,32.9314,蚌埠市,蚌埠田家炳中学,,43,43,67,23,39,136,136,77,72,9,22,9,9,0.4,0.5
2026-04-03T1400,1585A,109.8761,40.6533,包头市,市环境监测站,,37,37,306,3,68,100,100,92,92,6,21,5,12,0.3,0.7
2026-04-03T1400,1587A,109.9992,40.5843,包头市,包头八中,,33,33,298,7,88,98,98,90,89,4,15,6,10,0.3,0.4
2026-04-03T1400,1589A,109.8641,40.6288,包头市,惠龙物流,,44,44,285,12,70,97,97,89,89,4,17,4,10,0.2,0.5
2026-04-03T1400,1590A,110.0376,40.5546,包头市,东河鸿龙湾,,31,23,279,3,72,97,97,90,88,5,14,8,13,0.3,0.4
2026-04-03T1400,3283A,109.9154,40.5684,包头市,滨河大厦,,35,35,310,3,82,98,98,89,89,1,12,7,9,0.3,0.3
2026-04-03T1400,3419A,109.9449,40.6259,包头市,包头市委党校,颗粒物(PM10),58,61,297,9,66,95,95,88,86,4,15,5,11,0.2,0.4
2026-04-03T1400,3683A,109.8332,40.6577,包头市,昆区政府,,32,29,294,3,65,100,100,90,90,7,22,2,12,0.4,0.8
2026-04-03T1400,1931A,107.0802,34.3129,宝鸡市,竹园沟,颗粒物(PM10),130,197,75,24,22,119,119,87,87,11,14,7,7,0.2,0.3
2026-04-03T1400,1933A,107.1429,34.3549,宝鸡市,监测站,颗粒物(PM10),131,200,77,20,30,118,118,73,73,7,25,5,9,0.3,0.4
2026-04-03T1400,1934A,107.1172,34.3759,宝鸡市,技工学校,颗粒物(PM10),131,200,83,25,30,114,114,89,89,5,18,3,5,0.3,0.5
2026-04-03T1400,1936A,107.2025,34.3518,宝鸡市,文理学院,颗粒物(PM10),124,181,75,25,31,109,109,64,64,4,16,7,6,0.2,0.6
2026-04-03T1400,1937A,107.2396,34.3626,宝鸡市,三迪小学,颗粒物(PM10),135,210,90,29,42,117,117,60,60,5,35,6,6,0.2,0.6
2026-04-03T1400,4155A,107.1721,34.3558,宝鸡市,滨河北路,颗粒物(PM10),110,144,80,37,44,113,113,67,67,8,27,6,7,0.3,0.5
2026-04-03T1400,4308A,107.3898,34.3601,宝鸡市,陈仓区北开路21号,颗粒物(PM10),137,216,94,25,41,107,107,60,60,9,28,6,18,0.3,0.6
2026-04-03T1400,1051A,115.4803,38.8568,保定市,游泳馆,颗粒物(PM10),170,290,169,96,110,107,107,68,68,11,41,11,10,0.3,0.4
2026-04-03T1400,1052A,115.509,38.8895,保定市,华电二区,颗粒物(PM10),158,266,154,66,102,108,108,71,71,11,40,5,5,NA,0.9
2026-04-03T1400,1053A,115.4588,38.9037,保定市,接待中心,颗粒物(PM10),162,273,171,68,101,101,101,73,73,8,35,3,6,0.3,0.6
2026-04-03T1400,1054A,115.4484,38.8344,保定市,地表水厂,颗粒物(PM10),151,251,164,71,97,115,115,69,69,15,43,6,6,0.3,0.5
2026-04-03T1400,3581A,115.3136,38.9511,保定市,满城区生态环境分局,颗粒物(PM10),191,332,198,27,81,105,105,96,96,7,30,3,5,0.3,0.7
2026-04-03T1400,3582A,115.4709,38.7628,保定市,清苑区第二中学,颗粒物(PM10),131,200,191,86,104,118,118,61,61,19,48,13,11,0.7,0.7
2026-04-03T1400,3583A,115.6231,39.0223,保定市,徐水物探局,NA,NA,NA,211,NA,104,NA,NA,124,52,NA,48,NA,5,NA,0.7
2026-04-03T1400,4004A,115.4199,38.8665,保定市,双鹰农机,颗粒物(PM10),166,281,208,77,109,105,105,72,72,11,37,5,7,0.3,0.5
2026-04-03T1400,4034A,115.515,38.8589,保定市,植保所站,NA,NA,NA,181,NA,105,113,113,78,78,10,45,NA,5,0.4,0.6
2026-04-03T1400,2594A,99.1589,25.1137,保山市,市环境监测站,,42,42,45,29,29,115,115,92,92,6,8,6,5,0.3,0.3
2026-04-03T1400,2595A,99.1616,25.1381,保山市,市环保局,颗粒物(PM10),57,59,49,34,32,117,117,96,96,4,6,6,6,0.3,0.3
2026-04-03T1400,1867A,109.1435,21.4085,北海市,海滩公园,颗粒物(PM10),52,52,47,19,24,64,64,59,59,10,10,6,6,0.6,0.7
2026-04-03T1400,1868A,109.0983,21.466,北海市,新市环保局,,42,42,36,14,21,70,70,64,64,3,6,9,9,0.7,0.7
2026-04-03T1400,1869A,109.1775,21.5232,北海市,北海工业园,,47,47,42,20,24,66,66,54,54,3,5,6,5,0.5,0.6
2026-04-03T1400,3400A,109.1844,21.4396,北海市,龙潭自来水厂,,31,31,38,14,21,75,75,56,56,2,6,5,5,0.6,0.6
2026-04-03T1400,1001A,116.3611,39.8786,北京市,万寿西宫,颗粒物(PM10),105,131,171,63,92,95,95,56,56,26,52,4,6,0.4,0.7
2026-04-03T1400,1003A,116.4174,39.9289,北京市,东四,颗粒物(PM10),109,142,172,65,92,101,101,66,66,23,49,8,10,0.5,0.8
2026-04-03T1400,1004A,116.4073,39.8858,北京市,天坛,颗粒物(PM10),109,143,159,68,86,88,88,52,52,33,55,5,6,0.7,0.9
2026-04-03T1400,1005A,116.4622,39.9364,北京市,农展馆,细颗粒物(PM2.5),117,144,164,78,92,96,96,61,61,27,46,5,6,0.8,0.9
2026-04-03T1400,1006A,116.3399,39.9293,北京市,官园,颗粒物(PM10),102,125,162,51,90,88,88,54,54,26,51,3,6,0.5,0.9
2026-04-03T1400,1007A,116.2879,39.9613,北京市,海淀万柳,颗粒物(PM10),87,101,162,33,83,80,80,44,44,15,44,4,6,0.4,0.7
2026-04-03T1400,1008A,116.6635,40.1349,北京市,顺义新城,细颗粒物(PM2.5),153,178,171,117,97,102,102,70,70,36,39,8,9,0.8,0.9
2026-04-03T1400,1009A,116.6275,40.327,北京市,怀柔镇,细颗粒物(PM2.5),128,150,142,90,80,104,104,78,78,20,33,9,9,0.8,0.8
2026-04-03T1400,1010A,116.2295,40.217,北京市,昌平镇,颗粒物(PM10),93,110,146,12,74,75,75,68,68,5,39,2,6,0.1,0.7
2026-04-03T1400,1011A,116.3968,39.982,北京市,奥体中心,颗粒物(PM10),102,123,163,52,87,90,90,55,55,21,48,5,7,0.6,0.8
2026-04-03T1400,3418A,116.8336,40.4095,北京市,密云新城,细颗粒物(PM2.5),169,196,158,128,82,120,120,83,83,19,23,7,6,0.9,0.8
2026-04-03T1400,3671A,116.0879,39.9725,北京市,门头沟三家店,颗粒物(PM10),77,87,164,13,75,84,84,49,49,3,43,2,4,0.2,0.6
2026-04-03T1400,3672A,116.1507,39.8246,北京市,丰台云岗,颗粒物(PM10),64,69,176,14,90,93,93,60,60,1,35,1,4,0.3,0.8
2026-04-03T1400,3674A,115.9578,39.7602,北京市,房山燕山,颗粒物(PM10),64,69,175,11,87,81,81,58,58,2,33,4,6,0.2,0.6
2026-04-03T1400,3675A,116.4669,39.7734,北京市,大兴旧宫,细颗粒物(PM2.5),128,158,167,90,90,97,97,61,61,36,49,7,7,0.8,0.9
2026-04-03T1400,3694A,115.9859,40.4562,北京市,延庆石河营,颗粒物(PM10),63,67,146,9,73,78,78,86,81,6,23,1,3,0.2,0.6
2026-04-03T1400,3695A,116.6151,40.3052,北京市,怀柔新城,细颗粒物(PM2.5),120,140,148,82,83,104,104,77,77,17,29,7,8,0.7,0.9
2026-04-03T1400,3696A,116.2542,39.8764,北京市,丰台小屯,颗粒物(PM10),91,107,170,29,86,81,81,43,43,15,49,2,5,0.3,0.7
2026-04-03T1400,3697A,116.8399,40.3843,北京市,密云镇,细颗粒物(PM2.5),176,199,158,133,85,124,124,80,80,23,32,8,7,0.9,0.8
2026-04-03T1400,4057A,115.9423,40.4431,北京市,延庆百泉,颗粒物(PM10),63,68,144,8,67,71,71,76,69,9,26,1,2,0.2,0.5
2026-04-03T1400,4058A,116.6598,39.9164,北京市,通州新华,细颗粒物(PM2.5),148,183,169,112,91,86,86,53,53,44,46,7,7,0.9,0.8
2026-04-03T1400,4182A,116.1942,39.9158,北京市,石景山八角,颗粒物(PM10),91,107,183,25,82,74,74,44,44,9,46,3,3,0.2,0.7
2026-04-03T1400,4194A,117.078628,40.151726,北京市,平谷新城,细颗粒物(PM2.5),180,180,152,136,93,99,99,99,73,31,23,6,5,0.9,0.8
2026-04-03T1400,1761A,123.8274146,41.31234549,本溪市,大峪,NA,NA,94,92,44,42,132,132,128,128,NA,17,NA,13,0.7,0.9
2026-04-03T1400,1763A,123.7169,41.3094,本溪市,彩屯,细颗粒物(PM2.5),104,114,93,64,50,92,92,105,103,25,26,16,16,2.2,1.7
2026-04-03T1400,1764A,123.7672166,41.28649327,本溪市,东明,细颗粒物(PM2.5),88,NA,77,54,47,119,119,127,123,9,19,7,12,0.6,0.8
2026-04-03T1400,1765A,123.799345,41.266614,本溪市,新立屯,细颗粒物(PM2.5),84,63,70,52,42,118,118,131,124,11,20,8,9,0.7,0.6
2026-04-03T1400,1766A,123.829144,41.336777,本溪市,威宁,"颗粒物(PM10),细颗粒物(PM2.5)",76,86,94,48,45,119,119,115,115,9,21,10,9,0.6,0.6
2026-04-03T1400,2587A,105.287,27.3133,毕节市,八中,,36,NA,30,25,20,70,70,56,56,8,8,10,10,0.5,0.6
2026-04-03T1400,2588A,105.3079,27.2987,毕节市,师专,,27,NA,30,16,20,84,84,66,66,8,9,8,9,0.4,0.5
2026-04-03T1400,4263A,105.3688,27.3598,毕节市,工业大道,,29,18,34,3,20,91,91,68,68,5,8,10,10,/,/
2026-04-03T1400,1629A,117.9961,37.3604,滨州市,第二水厂,颗粒物(PM10),65,70,78,23,47,137,137,122,122,10,25,10,12,0.5,0.6
2026-04-03T1400,1630A,117.9789,37.3931,滨州市,北中新校,颗粒物(PM10),60,63,76,19,47,129,129,120,120,11,29,12,13,0.3,0.6
2026-04-03T1400,3514A,117.9379,37.3959,滨州市,中海酒店,颗粒物(PM10),60,63,71,14,39,142,142,136,136,13,28,10,13,0.4,0.6
2026-04-03T1400,3515A,117.9381509,37.35547456,滨州市,开发区一中,NA,NA,NA,80,NA,50,NA,NA,129,NA,NA,36,NA,14,NA,0.8
2026-04-03T1400,3516A,118.0914,37.6938,滨州市,金海六路,颗粒物(PM10),65,71,97,16,64,134,134,122,122,8,27,10,12,0.3,0.6
2026-04-03T1400,4028A,117.9955,37.3752,滨州市,滨州市西街道办事处,颗粒物(PM10),63,68,83,23,48,143,143,131,131,8,21,10,14,0.3,0.5
2026-04-03T1400,2311A,115.8071,33.8399,亳州市,污水处理厂,,36,19,58,3,34,115,115,81,81,6,17,4,6,0.1,0.3
2026-04-03T1400,2312A,115.7789,33.8519,亳州市,三国揽胜宫,,34,25,53,3,30,108,108,77,77,4,12,5,7,0,0.2
2026-04-03T1400,3332A,115.7631,33.803,亳州市,亳州学院,,34,23,54,7,36,108,108,73,73,2,10,5,7,0.2,0.3
2026-04-03T1400,2693A,82.0482,44.8553,博尔塔拉蒙古自治州,市党校,颗粒物(PM10),68,74,75,12,10,104,104,76,76,2,4,6,3,0.1,0.2
2026-04-03T1400,2694A,82.0805,44.8966,博尔塔拉蒙古自治州,市环保局,颗粒物(PM10),57,59,83,3,24,96,96,54,54,11,17,1,3,0.2,0.3
2026-04-03T1400,1071A,116.8733,38.2922,沧州市,沧县城建局,颗粒物(PM10),66,72,99,18,71,108,108,86,86,12,31,3,7,0.4,0.6
2026-04-03T1400,1072A,116.8462,38.3189,沧州市,电视转播站,颗粒物(PM10),58,61,102,26,71,109,109,88,88,11,27,9,10,0.2,0.5
2026-04-03T1400,1073A,116.8588,38.3161,沧州市,市环保局,颗粒物(PM10),61,65,110,23,64,111,111,86,86,8,26,9,8,0.1,0.5
2026-04-03T1400,3324A,116.8011,38.294,沧州市,河北水利电力学院,颗粒物(PM10),84,97,103,21,70,104,104,85,85,8,24,8,9,0.2,0.5
2026-04-03T1400,2622A,97.1813,31.1289,昌都市,昌都监测站,,32,17,13,3,6,101,101,68,68,5,9,6,7,0.3,0.3
2026-04-03T1400,3719A,97.1707,31.1428,昌都市,昌都会议中心,,34,12,9,7,6,107,107,74,74,4,4,5,5,0.2,0.4
2026-04-03T1400,2692A,87.2722,44.0298,昌吉回族自治州,新区政务中心,,44,44,42,12,21,106,106,59,59,14,22,7,5,0.3,0.3
2026-04-03T1400,3613A,87.3069,44.0093,昌吉回族自治州,亚心广场,,46,46,49,23,21,113,113,62,62,10,18,9,7,0.1,0.2
2026-04-03T1400,4164A,87.2057,43.9289,昌吉回族自治州,财政所,,45,45,54,13,15,102,102,65,65,13,12,10,9,0.5,0.4
2026-04-03T1400,1120A,125.2874,43.9024,长春市,客车厂,细颗粒物(PM2.5),227,NA,257,177,220,40,40,65,50,44,46,6,12,1.0,1.1
2026-04-03T1400,1121A,125.2943,43.8508,长春市,邮电学院,细颗粒物(PM2.5),236,202,275,186,208,57,57,76,67,33,37,8,12,1.1,1.1
2026-04-03T1400,1122A,125.3648,43.8745,长春市,劳动公园,细颗粒物(PM2.5),250,202,280,200,216,55,55,59,59,33,38,7,13,1.1,1.1
2026-04-03T1400,1123A,125.3233,43.8781,长春市,园林处,细颗粒物(PM2.5),231,190,262,181,219,47,47,73,60,33,36,6,12,1.1,1.2
2026-04-03T1400,1124A,125.4604,43.7904,长春市,净月潭,细颗粒物(PM2.5),241,226,229,191,183,67,67,82,81,24,29,9,10,1.1,1
2026-04-03T1400,1126A,125.38,43.8422,长春市,经开区环卫处,细颗粒物(PM2.5),239,213,275,189,206,55,55,61,61,34,43,6,11,1.1,1.2
2026-04-03T1400,1127A,125.234,43.7761,长春市,高新区管委会,细颗粒物(PM2.5),221,206,258,171,199,42,42,55,54,37,42,8,12,1.1,1.2
2026-04-03T1400,1128A,125.1695,43.83,长春市,岱山公园,细颗粒物(PM2.5),216,166,251,166,206,39,39,54,52,53,52,5,9,0.9,1
2026-04-03T1400,4281A,125.334645,43.916281,长春市,北亚泰大街1068号,细颗粒物(PM2.5),247,NA,276,197,222,60,60,58,58,33,45,8,13,0.9,1.1
2026-04-03T1400,1335A,113.082,28.2421,长沙市,经开区环保局,,38,30,22,26,15,83,83,54,54,6,9,4,4,0.4,0.4
2026-04-03T1400,1336A,112.8873,28.2202,长沙市,高开区环保局,NA,NA,28,26,20,18,80,80,60,60,NA,15,5,5,0.5,0.6
2026-04-03T1400,1337A,113.0785,28.2012,长沙市,马坡岭,,43,31,23,30,18,83,83,56,56,11,15,4,5,0.6,0.7
2026-04-03T1400,1338A,112.9448,28.1894,长沙市,湖南师范大学,,33,32,27,23,18,90,90,67,67,6,17,5,4,0.5,0.6
2026-04-03T1400,1339A,113.0177,28.1322,长沙市,雨花区环保局,,30,26,22,20,16,93,93,63,63,2,10,4,4,0.7,0.8
2026-04-03T1400,1340A,112.9795,28.2593,长沙市,伍家岭,,43,32,27,30,20,84,84,59,59,6,15,4,3,0.4,0.4
2026-04-03T1400,1341A,113.002,28.1944,长沙市,火车新站,,39,32,26,27,21,89,89,63,63,6,16,3,4,0.4,0.5
2026-04-03T1400,1342A,112.9846,28.1177,长沙市,天心区环保局,,40,32,24,28,21,90,90,65,65,8,15,5,5,0.5,0.6
2026-04-03T1400,1343A,112.8906,28.1307,长沙市,湖南中医药大学,,27,21,23,15,18,86,86,67,67,7,14,5,5,0.5,0.6
2026-04-03T1400,1727A,113.1146,36.1547,长治市,清华站,颗粒物(PM10),107,138,44,56,26,118,118,101,101,5,7,7,9,0.4,0.5
2026-04-03T1400,1730A,113.0887,36.2126,长治市,审计局,颗粒物(PM10),114,154,47,59,29,119,119,100,100,5,9,8,9,0.4,0.5
2026-04-03T1400,1731A,113.0845,36.1856,长治市,长治八中,颗粒物(PM10),133,205,59,49,30,116,116,97,97,2,9,10,11,0.4,0.5
2026-04-03T1400,2845A,113.1561,36.1912,长治市,德盛苑,颗粒物(PM10),124,180,50,58,29,123,123,108,108,9,11,8,9,0.3,0.4
2026-04-03T1400,3568A,113.0603,36.0464,长治市,向阳小学,颗粒物(PM10),139,220,74,47,27,123,123,102,102,6,10,7,8,0.4,0.6
2026-04-03T1400,3569A,112.8788,36.315,长治市,屯留一中,颗粒物(PM10),118,166,63,50,37,113,113,85,85,11,12,9,10,0.4,0.9
2026-04-03T1400,4189A,113.113092,36.199482,长治市,英华南巷50号,颗粒物(PM10),126,187,52,57,27,121,121,103,103,10,11,6,8,NA,0.8
2026-04-03T1400,4190A,113.23666,36.33435,长治市,学府街1号,颗粒物(PM10),140,224,51,50,28,57,57,41,41,8,16,4,8,0.5,0.8
2026-04-03T1400,1854A,111.696,28.9725,常德市,市二中,NA,NA,6,21,3,15,81,81,71,71,4,8,NA,7,1.0,1
2026-04-03T1400,3138A,111.7152,29.0288,常德市,武陵区永安,,27,19,29,6,17,85,85,80,77,6,10,6,5,0.7,0.8
2026-04-03T1400,3139A,111.6891,28.9881,常德市,鼎城区玉霞,,27,14,18,3,15,84,84,75,73,6,7,7,7,0.7,0.8
2026-04-03T1400,3140A,111.6651,29.0526,常德市,武陵区长庚,,24,12,18,6,17,76,76,74,67,3,6,8,7,0.9,0.9
2026-04-03T1400,1196A,119.9524,31.7586,常州市,市监测站,,38,38,61,12,32,102,102,103,103,19,25,6,7,0.6,0.7
2026-04-03T1400,1200A,119.9351,31.703,常州市,武进监测站,,35,35,51,11,27,103,103,108,108,15,18,2,6,0.4,0.2
2026-04-03T1400,3002A,119.9701,31.813,常州市,行政中心,,30,20,62,12,32,96,96,96,96,17,23,5,7,0.6,0.6
2026-04-03T1400,3003A,120.0434,31.7726,常州市,经开区,,39,39,65,10,31,92,92,101,101,22,23,5,5,0.8,0.8
2026-04-03T1400,3010A,119.8919,31.7892,常州市,钟楼,,35,28,53,8,27,112,112,110,110,16,21,6,7,0.3,0.4
2026-04-03T1400,3429A,119.8595,31.706,常州市,武进经发区,,32,24,47,13,30,102,102,102,102,19,25,4,8,0.7,0.7
2026-04-03T1400,3430A,119.5812,31.7256,常州市,金坛城区,,30,18,44,16,29,94,94,94,94,10,11,7,9,0.6,0.6
2026-04-03T1400,4089A,119.9551,31.863,常州市,崇义南街5-H号,,31,14,60,11,33,98,98,96,96,17,28,5,6,0.5,0.5
2026-04-03T1400,2220A,120.4318,41.588,朝阳市,西梁,细颗粒物(PM2.5),120,NA,88,81,64,79,79,57,57,18,28,12,14,0.9,0.9
2026-04-03T1400,2221A,120.452,41.565,朝阳市,河畔小区,细颗粒物(PM2.5),115,NA,66,76,49,89,89,77,77,15,21,9,11,0.9,0.8
2026-04-03T1400,2222A,120.4176,41.5648,朝阳市,八里堡,细颗粒物(PM2.5),128,NA,75,90,70,75,75,62,62,23,28,10,14,0.9,0.8
2026-04-03T1400,3026A,116.6179,23.6608,潮州市,市政府,颗粒物(PM10),57,59,29,29,21,81,81,85,82,16,12,5,6,0.5,0.4
2026-04-03T1400,4036A,116.646,23.676,潮州市,金山,,43,43,27,29,20,73,73,86,80,21,14,4,5,0.5,0.5
2026-04-03T1400,2473A,113.0116,25.8228,郴州市,市职中,,11,11,20,3,17,32,32,23,23,2,7,5,6,0.7,0.7
2026-04-03T1400,2475A,113.0381,25.8074,郴州市,市审计局,,14,9,24,3,19,43,43,40,40,7,8,3,5,/,/
2026-04-03T1400,2476A,113.0348,25.7757,郴州市,市环保局,,12,12,30,3,23,34,34,32,29,12,19,6,9,0.5,0.5
2026-04-03T1400,4252A,113.0138,25.8011,郴州市,好美居路49号,,14,6,22,3,17,42,42,36,35,11,16,3,6,/,/
2026-04-03T1400,1431A,103.9727,30.7242,成都市,金泉两河,,32,13,43,13,34,101,101,42,42,8,21,1,1,0.3,0.4
2026-04-03T1400,1432A,104.1423,30.6765,成都市,十里店,,40,NA,43,28,30,107,107,51,51,10,23,4,4,0.6,0.6
2026-04-03T1400,1433A,104.0594,30.5765,成都市,三瓦窑,,39,28,46,27,40,105,105,42,42,8,23,2,2,0.5,0.6
2026-04-03T1400,1434A,104.1122,30.6306,成都市,沙河铺,,34,34,44,22,29,96,96,38,38,12,25,3,6,0.5,0.5
2026-04-03T1400,2880A,104.0219,30.6561,成都市,大石西路,NA,NA,20,55,20,39,94,94,42,42,NA,24,4,6,0.5,0.8
2026-04-03T1400,3136A,104.2724,30.559,成都市,龙泉驿区区政府,细颗粒物(PM2.5),56,48,25,38,24,99,99,53,53,13,10,6,6,0.5,0.3
2026-04-03T1400,3357A,104.0028,30.6891,成都市,金博路,,34,NA,42,18,36,106,106,41,41,13,26,7,6,0.4,0.5
2026-04-03T1400,3359A,104.056,30.5228,成都市,华阳,,35,31,40,17,34,112,112,55,55,10,22,4,4,0.3,0.5
2026-04-03T1400,3488A,104.387954,30.746684,成都市,青石路225号,NA,NA,42,29,38,20,NA,NA,35,35,14,18,5,4,0.5,0.5
2026-04-03T1400,3489A,104.0788,30.4054,成都市,科学城,,36,27,39,24,37,113,113,51,51,8,15,8,7,0.5,0.6
2026-04-03T1400,4011A,103.8505,30.6946,成都市,光华大道三段,,34,NA,49,14,33,106,106,47,47,11,24,3,3,0.4,0.5
2026-04-03T1400,4144A,104.3257,30.6406,成都市,八角井街185号,细颗粒物(PM2.5),58,49,32,39,22,100,100,44,44,16,17,5,5,0.5,0.4
2026-04-03T1400,4224A,104.2433276,30.53529463,成都市,鲸龙路1057号,颗粒物(PM10),56,58,45,34,25,106,106,55,55,10,13,6,6,0.5,0.5
2026-04-03T1400,1062A,117.9531,40.908,承德市,铁路,颗粒物(PM10),109,142,99,52,49,109,109,89,87,20,29,14,6,0.6,0.6
2026-04-03T1400,1063A,117.9397,40.9763,承德市,中国银行,颗粒物(PM10),107,137,92,49,40,108,108,76,76,12,23,7,4,0.5,0.6
2026-04-03T1400,4073A,117.9462,40.95,承德市,杏林街1号,颗粒物(PM10),102,124,91,44,52,120,120,91,91,12,18,14,4,0.6,0.6
2026-04-03T1400,4274A,117.7994,40.9605,承德市,滨河大街98号,颗粒物(PM10),106,134,82,64,45,120,120,95,95,14,24,22,12,0.4,0.6
2026-04-03T1400,2314A,117.4698,30.6617,池州市,池州学院,,23,13,41,10,28,72,72,59,59,20,29,3,5,0.6,0.9
2026-04-03T1400,3237A,117.4918,30.6617,池州市,展览馆,,22,11,40,7,22,69,69,56,56,16,24,2,3,0.6,0.9
2026-04-03T1400,3333A,117.5626,30.695,池州市,第八中学,,22,11,40,7,24,68,68,49,49,14,26,3,5,0.6,0.8
2026-04-03T1400,3334A,117.5037,30.6242,池州市,第十二中学,,17,12,38,10,26,52,52,43,43,22,30,2,4,0.8,1
2026-04-03T1400,1744A,118.9229,42.2816,赤峰市,松山一中,细颗粒物(PM2.5),150,154,64,115,38,84,84,61,61,22,35,6,29,0.7,0.7
2026-04-03T1400,1745A,118.9588,42.2733,赤峰市,哈达街,细颗粒物(PM2.5),136,170,77,99,39,66,66,42,42,19,40,9,51,0.7,0.9
2026-04-03T1400,1746A,118.8792,42.2551,赤峰市,天义路,细颗粒物(PM2.5),144,129,49,108,32,73,73,41,41,19,37,5,27,0.6,0.7
2026-04-03T1400,3058A,119.2656,42.0356,赤峰市,银河街,细颗粒物(PM2.5),144,200,87,108,46,66,66,92,84,14,17,8,15,0.7,0.7
2026-04-03T1400,3286A,118.9359,42.3146,赤峰市,桥北物流园区,细颗粒物(PM2.5),156,150,51,119,34,85,85,76,76,14,28,4,7,0.6,0.6
2026-04-03T1400,2521A,107.3473,22.4137,崇左市,市环保局江州分局,细颗粒物(PM2.5),68,64,68,44,48,109,109,68,68,9,11,8,8,0.7,0.7
2026-04-03T1400,4256A,107.375,22.3736,崇左市,石景林东路7号,颗粒物(PM10),55,56,54,37,44,102,102,70,70,6,12,3,3,0.8,0.8
2026-04-03T1400,3207A,118.31131,32.3033,滁州市,市政府原办公楼,细颗粒物(PM2.5),70,NA,54,45,52,74,74,74,63,21,27,5,7,0.5,0.6
2026-04-03T1400,3331A,118.3268,32.2633,滁州市,图书馆,,43,43,65,28,36,79,79,79,66,16,24,10,10,0.5,0.6
2026-04-03T1400,4101A,118.3196,32.3335,滁州市,银山路666号,细颗粒物(PM2.5),54,50,64,37,45,71,71,80,65,24,28,9,10,0.7,0.8
2026-04-03T1400,4102A,118.3426,32.2979,滁州市,黄山路555号,细颗粒物(PM2.5),66,60,81,43,48,73,73,81,64,20,27,6,8,0.6,0.8
2026-04-03T1400,2606A,101.5379,25.0492,楚雄彝族自治州,市经济开发区,,35,33,33,18,20,112,112,87,87,4,8,5,5,0.4,0.4
2026-04-03T1400,4153A,101.5536,25.0343,楚雄彝族自治州,团结路562号,,37,32,30,16,19,116,116,96,96,3,6,2,2,0.3,0.3
2026-04-03T1400,2549A,107.5087,31.2186,达州市,市环境监测站,,31,31,36,8,15,62,62,27,27,13,24,5,5,0.1,0.3
2026-04-03T1400,2550A,107.4988,31.2132,达州市,凤凰小区,,29,29,35,7,17,60,60,29,29,9,27,4,4,0.2,0.3
2026-04-03T1400,2551A,107.5081,31.1987,达州市,达县机关宾馆,,27,27,36,3,22,62,62,28,28,17,32,4,4,0.2,0.4
2026-04-03T1400,2552A,107.4644,31.2124,达州市,市政中心,,42,42,41,3,16,67,67,34,34,8,27,5,5,0.3,0.4
2026-04-03T1400,2614A,100.2168,25.5818,大理白族自治州,大理市环境监测站,,30,27,26,19,22,96,96,83,82,10,10,4,4,0.2,0.2
2026-04-03T1400,2615A,100.1542,25.7055,大理白族自治州,大理古城,,34,21,28,14,20,106,106,82,82,5,9,7,7,0.6,0.6
2026-04-03T1400,1109A,121.6119,38.974,大连市,甘井子,颗粒物(PM10),63,68,102,39,59,157,157,122,122,17,34,8,9,0.3,0.5
2026-04-03T1400,1110A,121.565,38.9509,大连市,周水子,NA,NA,90,127,50,68,144,144,106,106,18,35,NA,8,0.6,0.7
2026-04-03T1400,1111A,121.5637,38.8849,大连市,星海三站,细颗粒物(PM2.5),72,68,80,46,54,147,147,113,113,14,23,6,7,0.4,0.5
2026-04-03T1400,1112A,121.6301,38.9117,大连市,青泥洼桥,颗粒物(PM10),66,72,92,39,60,164,164,126,126,10,22,5,6,0.6,0.7
2026-04-03T1400,1113A,121.6248,38.8643,大连市,傅家庄,细颗粒物(PM2.5),80,73,99,50,58,146,146,115,115,11,22,8,9,0.5,0.6
2026-04-03T1400,1114A,121.5117,38.8636,大连市,七贤岭,颗粒物(PM10),58,61,110,38,56,155,155,115,115,15,29,6,7,0.6,0.6
2026-04-03T1400,1116A,121.7507,39.1339,大连市,金州,细颗粒物(PM2.5),74,75,86,47,54,157,157,122,122,12,21,12,12,0.5,0.6
2026-04-03T1400,1117A,121.7811,39.0495,大连市,开发区,细颗粒物(PM2.5),78,84,89,49,57,158,158,103,103,13,39,8,9,0.5,0.6
2026-04-03T1400,1118A,121.9762,39.0631,大连市,双D港,细颗粒物(PM2.5),94,92,66,57,54,158,158,113,113,14,25,5,6,0.7,0.8
2026-04-03T1400,4082A,121.2548,38.8188,大连市,旅顺,细颗粒物(PM2.5),72,71,90,46,60,142,142,111,111,14,28,6,5,0.6,0.6
2026-04-03T1400,1789A,124.8085,46.0381,大庆市,大同区,,32,26,91,22,62,73,73,66,66,14,28,4,5,0.3,0.4
2026-04-03T1400,1790A,125.1166,46.5255,大庆市,龙凤区,颗粒物(PM10),53,53,83,26,60,84,84,64,64,12,32,4,5,0.2,0.4
2026-04-03T1400,1791A,124.8894,46.4007,大庆市,红岗区,,44,44,92,30,80,83,83,58,58,3,21,9,10,0.4,0.6
2026-04-03T1400,1792A,125.1391,46.578,大庆市,萨尔图区,颗粒物(PM10),57,59,76,32,51,83,83,71,71,9,23,8,12,0.3,0.2
2026-04-03T1400,1793A,124.9026,46.6217,大庆市,让胡路区,细颗粒物(PM2.5),76,75,84,48,63,88,88,55,55,13,31,8,6,0.3,0.5
2026-04-03T1400,3481A,125.127,46.6277,大庆市,萨区政府监测点,细颗粒物(PM2.5),108,72,69,68,48,80,80,65,65,12,18,10,9,0.4,0.5
2026-04-03T1400,1723A,113.2926,40.0759,大同市,云冈宾馆,,39,39,90,12,36,94,94,99,87,7,17,4,9,0.1,0.2
2026-04-03T1400,1724A,113.3437,40.0921,大同市,大同大学,颗粒物(PM10),75,84,121,8,29,93,93,103,87,7,16,5,8,0.3,0.4
2026-04-03T1400,1725A,113.2637,40.129,大同市,安家小村,颗粒物(PM10),61,65,124,11,33,62,62,98,67,12,15,4,8,0.3,0.4
2026-04-03T1400,3282A,113.3399,40.0586,大同市,大同市卫生学校,颗粒物(PM10),58,61,119,6,29,102,102,102,93,4,13,3,7,0.3,0.4
2026-04-03T1400,3565A,113.1371,40.1122,大同市,云冈站,颗粒物(PM10),65,70,112,9,25,95,95,100,88,2,10,5,8,0.3,0.3
2026-04-03T1400,3566A,113.1186,40.2556,大同市,图书馆,颗粒物(PM10),97,115,96,7,27,89,89,96,84,4,11,3,11,0.6,0.7
2026-04-03T1400,3567A,113.5931,40.0459,大同市,区一中,颗粒物(PM10),101,122,98,9,24,102,102,104,93,3,10,8,12,0.6,0.4
2026-04-03T1400,4199A,113.2798248,40.09972476,大同市,魏都大道141号,颗粒物(PM10),66,72,128,10,30,94,94,97,86,4,12,7,11,0.2,0.3
2026-04-03T1400,2269A,124.1068,50.4091,大兴安岭地区,科技局,,26,17,22,3,6,82,82,68,68,2,4,6,6,0.2,0.2
2026-04-03T1400,3663A,124.117,50.4279,大兴安岭地区,红旗社区,,27,7,15,3,7,85,85,68,68,3,9,7,7,0.1,0.2
2026-04-03T1400,1600A,124.33,40.0625,丹东市,江湾东路,颗粒物(PM10),65,71,96,41,49,139,139,114,114,11,16,9,11,0.6,0.7
2026-04-03T1400,1601A,124.4242,40.1513,丹东市,临江后街,颗粒物(PM10),73,81,97,43,51,125,125,93,93,9,16,7,6,0.5,0.6
2026-04-03T1400,1602A,124.3935,40.1461,丹东市,元宝山,颗粒物(PM10),71,79,93,42,51,128,128,95,95,11,17,7,9,0.7,0.8
2026-04-03T1400,1603A,124.3634,40.1093,丹东市,民主桥,颗粒物(PM10),67,73,98,40,53,138,138,107,107,13,21,6,8,0.4,0.7
2026-04-03T1400,3541A,109.5726195,19.51688767,儋州市,第一中学子站,,32,32,37,21,23,86,86,86,86,3,4,6,7,0.6,0.6
2026-04-03T1400,3542A,109.5567,19.5187,儋州市,东坡学校子站,,38,29,38,26,23,99,99,94,94,4,4,6,6,0.6,0.5
2026-04-03T1400,2616A,98.5611,24.4273,德宏傣族景颇族自治州,德宏州监测站,NA,NA,NA,51,0,43,133,133,57,57,NA,17,6,4,NA,0.7
2026-04-03T1400,3677A,98.5887,24.4366,德宏傣族景颇族自治州,芒市人民政府综合楼,细颗粒物(PM2.5),88,80,77,54,44,123,123,62,62,12,16,8,6,0.4,0.6
2026-04-03T1400,1901A,104.424,31.1209,德阳市,东山公园,,43,43,28,29,23,104,104,45,45,13,13,4,3,0.6,0.5
2026-04-03T1400,1902A,104.3827,31.1318,德阳市,西小区,,46,46,46,31,24,103,103,43,43,17,22,3,3,0.6,0.5
2026-04-03T1400,1904A,104.3553,31.1091,德阳市,耐火材料厂,,50,50,45,31,27,113,113,45,45,12,25,2,2,0.5,0.5
2026-04-03T1400,4145A,104.4144,31.1495,德阳市,市林业局,,45,43,33,31,23,117,117,44,44,7,21,3,3,0.5,0.5
2026-04-03T1400,1622A,116.3034,37.4675,德州市,儿童乐园,颗粒物(PM10),100,119,86,11,46,122,122,95,95,8,15,14,15,0.5,0.7
2026-04-03T1400,1624A,116.2992,37.4449,德州市,监理站,颗粒物(PM10),96,114,86,8,39,128,128,101,101,13,20,12,12,0.3,0.6
2026-04-03T1400,3066A,116.2722,37.438,德州市,九衢泉纯净水厂,颗粒物(PM10),96,114,80,8,43,118,118,92,92,7,16,8,6,0.5,0.6
2026-04-03T1400,3371A,116.3693,37.44,德州市,开发区人民医院,颗粒物(PM10),108,139,88,8,45,123,123,93,93,9,20,9,11,0.5,0.6
2026-04-03T1400,3511A,116.5687,37.3331,德州市,陵城艺术中心,颗粒物(PM10),83,95,76,12,47,111,111,90,90,10,14,8,10,0.4,0.7
2026-04-03T1400,4292A,116.352738,37.420875,德州市,新河东路,颗粒物(PM10),102,124,86,8,45,119,119,90,90,6,15,10,11,0.6,0.7
2026-04-03T1400,2621A,99.7054,27.8319,迪庆藏族自治州,迪庆州站,,25,11,16,3,10,79,79,57,57,7,9,5,5,0.4,0.6
2026-04-03T1400,3180A,99.7122,27.8129,迪庆藏族自治州,质量技术监督局,,31,15,17,10,8,99,99,70,70,5,10,6,6,0.5,0.6
2026-04-03T1400,4257A,104.6092,35.5962,定西市,将台街,颗粒物(PM10),113,152,103,39,34,121,121,107,107,4,14,9,10,0.5,0.5
2026-04-03T1400,4309A,104.6159,35.5701,定西市,正龙路62号,颗粒物(PM10),121,174,106,41,27,110,110,99,99,6,10,3,4,0.2,0.3
2026-04-03T1400,4071A,114.9883,38.5232,定州市,交通局,颗粒物(PM10),437,537,201,41,94,100,100,80,80,13,35,8,8,0.5,0.7
2026-04-03T1400,4072A,115.0045,38.5136,定州市,第五中学,颗粒物(PM10),444,544,206,48,90,104,104,79,79,8,33,5,6,0.5,0.7
2026-04-03T1400,1390A,113.7943,23.0132,东莞市,东城石井,,39,39,43,26,22,72,72,73,60,6,19,3,3,0.6,0.6
2026-04-03T1400,1391A,113.7384,22.9659,东莞市,南城西平,,37,37,40,24,20,67,67,67,57,6,17,4,4,0.6,0.6
2026-04-03T1400,3319A,113.7283,23.041,东莞市,万江金泰,,50,45,43,35,24,63,63,73,59,10,16,6,6,0.7,0.7
2026-04-03T1400,4129A,113.8666,23.1062,东莞市,裕兴路,,46,46,48,27,22,65,65,71,50,10,18,5,5,0.7,0.7
2026-04-03T1400,4130A,114.0076,22.9739,东莞市,教育路1号,,41,41,43,20,20,74,74,85,67,4,11,5,6,0.6,0.7
2026-04-03T1400,4131A,113.7981,22.8124,东莞市,长怡路1号,,46,46,47,29,22,62,62,68,54,12,18,4,4,0.7,0.7
2026-04-03T1400,1666A,118.6612,37.4313,东营市,市环保局,颗粒物(PM10),72,80,81,26,57,167,167,132,132,13,22,11,14,0.3,0.4
2026-04-03T1400,3036A,118.6903,37.4337,东营市,开发区管委会,颗粒物(PM10),70,77,78,28,60,170,170,133,133,16,28,10,18,0.6,0.7
2026-04-03T1400,3365A,118.5721,37.5654,东营市,垦利区民丰路,臭氧1小时(O3_1h),83,63,76,33,73,186,186,153,153,15,26,11,10,0.6,0.6
2026-04-03T1400,3498A,118.5063,37.8606,东营市,河口城区,臭氧1小时(O3_1h),79,73,103,28,67,183,183,159,159,11,24,10,16,0.7,0.9
2026-04-03T1400,3646A,118.4979,37.4623,东营市,胜利站,颗粒物(PM10),65,71,81,27,51,159,159,135,135,9,20,13,11,0.9,1
2026-04-03T1400,3734A,118.5753,37.4405,东营市,理想之城,臭氧1小时(O3_1h),63,56,84,17,50,170,170,147,147,18,35,10,8,0.9,1
2026-04-03T1400,1591A,110.0024,39.8127,鄂尔多斯市,综合楼,颗粒物(PM10),83,95,332,14,65,100,100,100,87,8,10,6,7,0.2,0.2
2026-04-03T1400,1592A,109.9485,39.8259,鄂尔多斯市,巴音孟克林场办事处,颗粒物(PM10),63,68,291,7,60,102,102,102,89,4,7,3,4,0.3,0.3
2026-04-03T1400,1593A,109.7734,39.5987,鄂尔多斯市,康泽苑,颗粒物(PM10),68,75,256,10,60,107,107,107,94,4,7,6,6,0.2,0.3
2026-04-03T1400,1594A,109.8121,39.5987,鄂尔多斯市,华泰汽车城,颗粒物(PM10),56,58,318,15,58,95,95,97,83,4,7,6,5,0.2,0.3
2026-04-03T1400,1595A,109.9734,39.7884,鄂尔多斯市,奥林花园,颗粒物(PM10),68,75,302,14,44,103,103,99,88,8,13,6,5,0.2,0.3
2026-04-03T1400,2436A,114.894,30.3989,鄂州市,市政府,,16,16,35,3,19,49,49,69,46,24,19,8,9,0.4,0.5
2026-04-03T1400,2437A,114.8986,30.3714,鄂州市,赵家坝,,23,23,44,7,21,69,69,69,56,13,10,11,6,0.8,0.7
2026-04-03T1400,3654A,114.8093,30.4091,鄂州市,精准医疗中心,,24,14,42,7,24,76,76,60,56,11,21,8,8,0.5,0.9
2026-04-03T1400,2454A,109.4978,30.2979,恩施土家族苗族自治州,湖北民院,,28,22,34,8,19,87,87,44,44,7,12,7,6,0.6,0.7
2026-04-03T1400,3549A,109.5061,30.3771,恩施土家族苗族自治州,龙凤新区,,26,23,27,17,16,82,82,33,33,3,7,8,7,0.3,0.4
2026-04-03T1400,2499A,108.3411,21.6159,防城港市,沙万,,50,50,53,20,29,63,63,58,58,4,11,6,6,0.5,0.6
2026-04-03T1400,2500A,108.3515,21.7733,防城港市,防城档案局,,44,44,42,19,30,72,72,68,68,2,4,6,6,0.5,0.6
2026-04-03T1400,2501A,108.3506,21.6414,防城港市,大海花园,颗粒物(PM10),53,53,46,26,30,73,73,68,68,10,14,7,8,0.5,0.6
2026-04-03T1400,1371A,113.1293,23.0065,佛山市,湾梁,,35,34,41,24,26,74,74,51,51,5,16,/,/,/,/
2026-04-03T1400,1372A,113.1082,23.0477,佛山市,华材职中,,41,41,41,23,29,78,78,54,54,9,19,7,7,0.3,0.4
2026-04-03T1400,1373A,113.1439,23.045,佛山市,南海气象局,,47,47,42,24,26,73,73,48,48,8,19,/,/,/,/
2026-04-03T1400,1374A,113.2879,22.8094,佛山市,顺德苏岗,,40,37,46,28,22,72,72,58,58,7,11,/,/,0.6,0.6
2026-04-03T1400,1376A,112.8384,22.8678,佛山市,高明孔堂,,30,30,37,21,23,78,78,66,66,5,11,/,/,/,/
2026-04-03T1400,1377A,112.8835,23.1584,佛山市,三水监测站,,33,31,40,23,29,73,73,49,49,10,31,4,4,0.5,0.5
2026-04-03T1400,1378A,112.8668,23.185,佛山市,三水云东海,颗粒物(PM10),54,55,60,22,28,74,74,50,50,9,26,/,/,/,/
2026-04-03T1400,3625A,113.2568,22.7629,佛山市,容桂街道办,,36,31,37,25,23,68,68,51,51,12,19,/,/,/,/
2026-04-03T1400,1282A,119.2681,26.0506,福州市,师大,,32,32,29,20,13,59,59,84,70,35,18,3,3,0.5,0.4
2026-04-03T1400,1283A,119.2983,26.1028,福州市,五四北路,,30,NA,20,21,14,52,52,80,61,39,21,4,4,0.6,0.4
2026-04-03T1400,1284A,119.2648,26.0769,福州市,杨桥西路,,43,30,21,30,13,48,48,81,65,40,18,4,4,/,/
2026-04-03T1400,3048A,119.5799,26.0937,福州市,九龙,,40,NA,20,28,16,83,83,80,67,17,15,4,5,0.5,0.4
2026-04-03T1400,3526A,119.5188,25.9666,福州市,吴航,,25,20,24,17,18,72,72,79,75,24,17,5,5,0.7,0.5
2026-04-03T1400,4104A,119.3106,26.0648,福州市,路通桥巷6号,,32,27,23,22,17,58,58,78,62,28,16,/,/,/,/
2026-04-03T1400,1755A,123.7974,41.8494,抚顺市,望花区,细颗粒物(PM2.5),88,90,126,54,64,118,118,107,107,20,33,13,13,0.7,1
2026-04-03T1400,1756A,123.9161,41.8827,抚顺市,顺城区,细颗粒物(PM2.5),88,67,91,54,65,123,123,105,105,14,38,11,14,0.8,1.1
2026-04-03T1400,1757A,124.0437,41.8615,抚顺市,东洲区,细颗粒物(PM2.5),90,85,99,55,60,118,118,122,122,15,22,11,12,1.1,0.9
2026-04-03T1400,1758A,123.9246,41.8638,抚顺市,新抚区,细颗粒物(PM2.5),96,76,115,58,64,123,123,113,113,16,35,12,13,0.8,1.1
2026-04-03T1400,1759A,124.0972,41.8961,抚顺市,大伙房水库,细颗粒物(PM2.5),74,67,83,47,53,136,136,135,135,14,22,8,10,0.7,0.9
2026-04-03T1400,1760A,123.708,41.8386,抚顺市,沈抚新城,细颗粒物(PM2.5),103,90,113,63,61,110,110,119,119,21,32,11,13,1.0,1
2026-04-03T1400,2377A,116.3544,27.9833,抚州市,市站,,19,19,24,9,13,33,33,52,41,11,10,6,5,1.0,0.9
2026-04-03T1400,2378A,116.3562,27.9631,抚州市,血防站,,17,17,23,8,12,37,37,51,41,10,10,6,6,0.8,0.7
2026-04-03T1400,2379A,116.3561,28.0007,抚州市,采茶剧团,,21,21,26,12,13,38,38,52,41,6,8,13,12,0.9,0.8
2026-04-03T1400,2380A,116.3854,27.9648,抚州市,医学分院,,13,13,26,6,8,38,38,54,47,13,11,5,6,1.3,1.1
2026-04-03T1400,2207A,121.6095,41.9978,阜新市,工业园区,细颗粒物(PM2.5),121,NA,81,83,62,115,115,84,84,17,26,14,19,0.9,0.7
2026-04-03T1400,2208A,121.6567,42.0188,阜新市,长青街,细颗粒物(PM2.5),116,NA,76,77,64,123,123,87,87,20,26,10,17,0.8,0.6
2026-04-03T1400,2209A,121.6672,42.07,阜新市,农业园区,细颗粒物(PM2.5),122,90,93,84,62,121,121,93,93,19,22,6,12,0.8,0.6
2026-04-03T1400,2211A,121.6343,42.0455,阜新市,玉龙新城,细颗粒物(PM2.5),115,86,89,76,62,109,109,83,83,19,31,13,15,1.0,0.7
2026-04-03T1400,2301A,115.8276,32.8929,阜阳市,市监测站,,36,36,51,14,29,110,110,92,92,9,18,5,6,0.3,0.7
2026-04-03T1400,2303A,115.8551,32.8606,阜阳市,开发区,,37,37,52,13,24,109,109,95,95,11,14,5,6,0.4,0.4
2026-04-03T1400,2875A,115.783962,32.889217,阜阳市,阜阳职业技术学院,,36,22,45,3,13,114,114,103,103,7,11,6,7,0.4,0.5
2026-04-03T1400,3468A,115.79,32.8614,阜阳市,市规划展馆,,35,30,45,10,26,112,112,103,103,5,12,7,8,0.4,0.5
2026-04-03T1400,3469A,115.835101,32.918568,阜阳市,枣园社区,,35,24,51,10,30,112,112,94,94,8,15,5,6,0.5,0.6
2026-04-03T1400,2669A,102.9097,34.9841,甘南藏族自治州,州政府,颗粒物(PM10),53,53,83,6,34,89,89,66,66,2,15,4,5,0.2,0.4
2026-04-03T1400,3380A,102.8915,34.9618,甘南藏族自治州,甘肃民族师范学院,,50,50,114,8,32,104,104,72,72,2,26,3,2,0.3,0.4
2026-04-03T1400,2570A,101.96,30.048,甘孜藏族自治州,水桥子,,25,10,11,3,4,78,78,46,46,5,17,6,6,0.2,0.2
2026-04-03T1400,3065A,101.9534,29.9976,甘孜藏族自治州,州环保局,,34,10,10,3,5,108,108,83,83,7,12,5,5,0.3,0.3
2026-04-03T1400,2363A,114.9368,25.8663,赣州市,地委,,26,19,25,3,17,83,83,49,49,9,20,1,1,0.8,0.8
2026-04-03T1400,2364A,114.946,25.8483,赣州市,气象台,,29,24,32,3,20,90,90,62,62,9,22,2,4,0.7,0.8
2026-04-03T1400,2365A,114.932,25.8332,赣州市,市图书馆,,26,10,22,3,20,81,81,56,56,7,20,5,4,0.7,0.7
2026-04-03T1400,2366A,114.8905,25.8472,赣州市,华坚鞋城,,25,22,25,11,19,79,79,47,47,11,25,6,7,0.4,0.5
2026-04-03T1400,3109A,115.0094,25.8614,赣州市,赣县区卫计委,NA,NA,NA,26,4,16,74,74,46,46,12,21,1,1,0.4,0.7
2026-04-03T1400,2684A,106.2753,36.0057,固原市,监测站,颗粒物(PM10),150,250,155,43,35,105,105,102,102,3,14,4,5,0.2,0.3
2026-04-03T1400,2685A,106.2384,36.0189,固原市,新区,颗粒物(PM10),144,232,140,40,33,108,108,105,105,1,8,3,4,0.2,0.3
2026-04-03T1400,2544A,106.6307,30.4577,广安市,市委,,28,27,19,17,16,87,87,54,54,5,9,6,6,0.6,0.6
2026-04-03T1400,2545A,106.6266,30.4662,广安市,友谊中学,,27,21,18,12,14,85,85,54,54,7,9,8,7,0.5,0.5
2026-04-03T1400,2547A,106.6386,30.4551,广安市,广电花园,,40,40,26,20,17,81,81,49,49,8,12,5,5,0.6,0.6
2026-04-03T1400,2902A,106.6347,30.4868,广安市,北辰小学,,28,25,19,19,17,86,86,53,53,6,8,8,8,0.6,0.7
2026-04-03T1400,2524A,105.8211,32.4444,广元市,老城,颗粒物(PM10),71,79,47,32,20,76,76,35,35,16,32,16,10,0.7,0.7
2026-04-03T1400,2526A,105.8629,32.429,广元市,监测站,颗粒物(PM10),108,139,44,39,18,77,77,36,36,15,25,7,5,0.6,0.7
2026-04-03T1400,3617A,105.8047,32.4167,广元市,经开区,颗粒物(PM10),86,100,42,30,23,76,76,36,36,16,34,14,9,0.7,0.7
2026-04-03T1400,1345A,113.2346,23.1423,广州市,广雅中学,,40,40,42,26,22,68,68,47,47,11,20,2,2,0.4,0.5
2026-04-03T1400,1346A,113.2611,23.105,广州市,市五中,,48,39,43,33,28,77,77,53,53,13,22,2,3,/,/
2026-04-03T1400,1348A,113.3477,23.0916,广州市,广东商学院,,49,43,41,34,27,58,58,43,43,17,24,5,5,0.7,0.7
2026-04-03T1400,1349A,113.4332,23.105,广州市,市八十六中,,39,39,39,25,21,64,64,40,40,18,37,5,6,/,/
2026-04-03T1400,1350A,113.3506,22.9488,广州市,番禺中学,,46,46,46,26,22,75,75,52,52,11,22,3,4,0.6,0.6
2026-04-03T1400,1351A,113.2147,23.3918,广州市,花都师范,颗粒物(PM10),51,51,49,33,28,47,47,40,37,34,35,6,6,0.9,0.9
2026-04-03T1400,1352A,113.2599,23.1329,广州市,市监测站,,43,43,48,22,18,68,68,45,45,11,22,2,2,/,/
2026-04-03T1400,1353A,113.5618,23.3119,广州市,九龙镇镇龙,,47,47,46,31,25,18,18,54,29,28,25,5,5,0.6,0.6
2026-04-03T1400,1354A,113.2764,23.1544,广州市,麓湖,,44,44,43,29,24,66,66,49,47,9,17,4,4,0.8,0.8
2026-04-03T1400,2846A,113.3209,23.1323,广州市,体育西,NA,NA,NA,45,29,22,65,65,43,42,NA,28,6,5,NA,0.7
2026-04-03T1400,3298A,113.5718,23.5493,广州市,从化街口,细颗粒物(PM2.5),52,50,42,36,26,45,45,68,51,18,15,7,6,0.6,0.6
2026-04-03T1400,3299A,113.3463,23.369,广州市,白云竹料,"颗粒物(PM10),细颗粒物(PM2.5)",58,60,50,39,29,30,30,46,32,37,25,3,3,0.8,0.7
2026-04-03T1400,3300A,113.2981,23.2365,广州市,白云嘉禾,,49,49,52,31,27,62,62,36,36,22,34,8,8,/,/
2026-04-03T1400,3301A,113.4256,23.1716,广州市,黄埔科学城,,48,46,48,33,29,67,67,43,42,21,32,6,7,0.5,0.5
2026-04-03T1400,3302A,113.3942,23.0485,广州市,番禺大学城,NA,NA,47,43,27,22,76,76,56,56,NA,24,2,2,0.7,0.6
2026-04-03T1400,3303A,113.4923,22.8169,广州市,南沙黄阁,,46,46,41,29,22,76,76,57,54,10,18,6,6,/,/
2026-04-03T1400,3304A,113.534,22.7893,广州市,南沙街,,40,40,40,28,22,68,68,53,48,8,19,8,8,0.5,0.5
2026-04-03T1400,3443A,113.2905,23.5541,广州市,花都梯面,细颗粒物(PM2.5),58,55,42,39,26,25,25,52,36,35,22,8,8,/,/
2026-04-03T1400,3445A,113.786,23.7479,广州市,从化良口,细颗粒物(PM2.5),68,50,36,44,26,54,54,80,69,16,10,4,4,/,/
2026-04-03T1400,3446A,113.805,23.2614,广州市,增城荔城,,46,46,46,32,26,61,61,73,55,9,19,4,5,0.5,0.6
2026-04-03T1400,2506A,109.604387,23.066791,贵港市,江南子站,颗粒物(PM10),53,53,70,23,42,88,88,57,57,4,27,8,10,0.6,0.9
2026-04-03T1400,2508A,109.5669,23.1065,贵港市,荷城子站,,44,44,56,25,42,81,81,55,55,9,28,9,11,0.7,0.9
2026-04-03T1400,3405A,109.5886,23.1172,贵港市,新世纪学校,,44,44,60,27,44,89,89,56,56,11,34,/,/,0.5,0.8
2026-04-03T1400,4260A,109.5933,23.095,贵港市,中山路155-3号,,48,48,77,25,51,91,91,55,55,5,26,/,/,0.7,0.9
2026-04-03T1400,1439A,106.6863,26.6035,贵阳市,马鞍山,,31,29,34,9,23,98,98,64,64,6,8,3,3,/,/
2026-04-03T1400,1441A,106.6241,26.6266,贵阳市,鉴湖路,,35,34,42,6,22,109,109,85,85,8,11,5,5,0.4,0.4
2026-04-03T1400,1442A,106.7468,26.6344,贵阳市,燕子冲,,36,36,44,6,25,89,89,66,66,8,10,5,5,0.4,0.6
2026-04-03T1400,1443A,106.6556,26.4362,贵阳市,碧云窝,,33,24,35,14,24,103,103,75,75,7,10,5,7,/,/
2026-04-03T1400,1445A,106.6963,26.6063,贵阳市,红边门,,33,31,45,17,26,103,103,83,83,6,11,6,8,/,/
2026-04-03T1400,1446A,106.7162383,26.56964667,贵阳市,新华路,,36,36,49,10,27,102,102,86,86,11,13,15,5,0.4,0.4
2026-04-03T1400,1447A,106.6742,26.542,贵阳市,太慈桥,,31,22,36,14,27,97,97,65,65,8,11,3,3,/,/
2026-04-03T1400,4230A,106.688212,26.56952,贵阳市,花果园大街66号,,25,NA,30,17,27,80,80,64,64,7,11,2,3,/,/
2026-04-03T1400,4231A,106.687268,26.516892,贵阳市,漓江路57号,,33,17,30,8,25,104,104,78,78,9,12,6,7,0.8,0.9
2026-04-03T1400,1864A,110.3091,25.2705,桂林市,龙隐路小学,颗粒物(PM10),51,51,48,28,34,47,47,15,15,21,25,20,6,0.8,0.9
2026-04-03T1400,1865A,110.2849361,25.22909545,桂林市,八中,,44,44,46,12,24,46,46,19,19,16,30,14,6,0.9,1
2026-04-03T1400,3531A,110.296,25.1254,桂林市,旅游学院,NA,NA,NA,46,NA,42,NA,NA,25,NA,NA,37,NA,6,NA,0.9
2026-04-03T1400,4222A,110.1835,25.2444,桂林市,环湖路276号,,22,17,41,15,31,70,70,33,33,7,26,34,18,0.6,0.8
2026-04-03T1400,4301A,110.2803,25.2773,桂林市,信义路13号,颗粒物(PM10),51,51,46,22,37,40,40,12,12,21,32,21,9,1.1,1.1
2026-04-03T1400,2674A,100.2262,34.4854,果洛藏族自治州,玛沁县大武镇,,50,50,50,27,19,112,112,95,95,1,2,9,15,0.3,0.3
2026-04-03T1400,1130A,126.5557,45.8109,哈尔滨市,松北商大,细颗粒物(PM2.5),56,NA,237,38,180,64,64,50,50,13,35,11,14,0.5,1.1
2026-04-03T1400,1132A,126.6162,45.719,哈尔滨市,南岗学府路,细颗粒物(PM2.5),70,64,193,45,105,69,69,63,63,14,26,2,6,0.7,1
2026-04-03T1400,1133A,126.6894,45.7733,哈尔滨市,太平宏伟公园,细颗粒物(PM2.5),70,48,213,45,137,63,63,50,50,19,36,9,13,0.3,0.8
2026-04-03T1400,1134A,126.6361,45.7672,哈尔滨市,道外承德广场,颗粒物(PM10),100,120,293,47,148,50,50,36,36,27,41,9,16,0.6,1.1
2026-04-03T1400,1136A,126.644,45.7261,哈尔滨市,动力和平路,细颗粒物(PM2.5),88,56,160,54,111,67,67,63,63,13,27,4,8,0.6,1
2026-04-03T1400,1137A,126.5933,45.7479,哈尔滨市,道里建国路,细颗粒物(PM2.5),78,64,186,49,134,64,64,53,53,21,36,12,17,0.5,1
2026-04-03T1400,1138A,126.6127,45.6119,哈尔滨市,平房东轻厂,颗粒物(PM10),64,69,134,37,110,60,60,50,50,42,86,6,11,0.6,1.1
2026-04-03T1400,1139A,126.5875,45.9827,哈尔滨市,呼兰师专,,46,38,267,32,190,57,57,51,51,20,42,9,13,0.5,1.1
2026-04-03T1400,1140A,126.6299,45.6799,哈尔滨市,省农科院,颗粒物(PM10),75,84,221,43,109,67,67,60,60,14,31,6,11,0.8,1.1
2026-04-03T1400,4282A,126.6769,45.7379,哈尔滨市,华山路1号,细颗粒物(PM2.5),72,53,207,46,118,64,64,60,60,14,28,7,10,0.7,1
2026-04-03T1400,4283A,126.9717,45.5356,哈尔滨市,解放大街52号,颗粒物(PM10),118,165,237,71,110,80,80,65,65,18,31,8,11,0.6,1.2
2026-04-03T1400,2688A,93.5124,42.8176,哈密市,地区监测站,,36,23,49,6,12,113,113,86,84,5,9,13,8,0.2,0.1
2026-04-03T1400,2689A,93.5014,42.8312,哈密市,哈密师范学校,,38,25,51,7,11,119,119,86,78,3,9,8,7,0.1,0.1
2026-04-03T1400,2671A,100.9016,36.9464,海北藏族自治州,海晏县西海镇,颗粒物(PM10),58,60,63,21,24,112,112,87,87,1,2,5,6,0.3,0.3
2026-04-03T1400,3867A,102.074,36.5056,海东市,平安区公安局北苑,颗粒物(PM10),62,66,62,22,27,128,128,92,90,3,5,7,9,0.5,0.5
2026-04-03T1400,4163A,102.0984,36.5119,海东市,滨河路,颗粒物(PM10),56,58,56,19,31,105,105,73,73,9,16,5,7,0.5,0.6
2026-04-03T1400,1410A,110.3189,20.0596,海口市,海南大学,,35,29,36,24,24,98,98,82,82,7,5,6,5,0.4,0.4
2026-04-03T1400,1411A,110.2827,20.0051,海口市,秀英海南医院,,35,35,32,24,25,93,93,76,76,5,7,8,8,0.3,0.4
2026-04-03T1400,1412A,110.3391,19.9979,海口市,海南师范大学,,37,37,35,23,24,98,98,80,80,4,6,6,6,0.3,0.4
2026-04-03T1400,1413A,110.3303,20.0359,海口市,龙华路环保局宿舍,,34,34,36,23,24,100,100,81,81,5,8,/,/,0.5,0.6
2026-04-03T1400,3539A,110.5111,19.9737,海口市,桂林洋子站,,31,31,31,19,23,90,90,79,79,5,5,/,/,/,/
2026-04-03T1400,4134A,110.1952,20.0451,海口市,长滨二路9号,,45,45,37,25,27,91,91,82,82,14,7,/,/,/,/
2026-04-03T1400,2673A,100.6158,36.2985,海南藏族自治州,共和县恰卜恰镇,,47,47,74,22,26,114,114,102,102,1,2,11,11,0.3,0.3
2026-04-03T1400,2676A,97.373,37.376,海西蒙古族藏族自治州,德令哈市,颗粒物(PM10),52,52,157,25,27,135,135,123,118,4,3,13,15,0.4,0.4
2026-04-03T1400,1049A,114.492,36.5712,邯郸市,矿院,颗粒物(PM10),55,56,62,23,32,126,126,85,85,1,9,6,5,0.3,0.4
2026-04-03T1400,1050A,114.4839,36.6136,邯郸市,丛台公园,,40,32,53,16,36,125,125,93,93,6,14,9,10,0.3,0.5
2026-04-03T1400,3458A,114.7893,36.5592,邯郸市,香泉濮院小区,颗粒物(PM10),64,69,63,11,33,122,122,87,87,10,13,2,2,0.4,0.4
2026-04-03T1400,3580A,114.1998,36.4439,邯郸市,峰峰矿区临水派出所,颗粒物(PM10),67,73,57,17,36,125,125,98,98,7,12,6,8,0.4,0.5
2026-04-03T1400,4068A,114.5209,36.7697,邯郸市,建安街268号,,46,46,61,21,39,122,122,91,91,7,15,3,4,0.3,0.6
2026-04-03T1400,4069A,114.5488,36.6177,邯郸市,丛台东路558号,,46,46,59,8,36,125,125,77,77,1,11,3,3,0.3,0.5
2026-04-03T1400,2635A,107.0155,33.0707,汉中市,市监测站,颗粒物(PM10),114,156,46,38,26,92,92,42,42,7,20,4,5,0.3,0.6
2026-04-03T1400,2636A,107.0083,33.114,汉中市,鑫源开发区,颗粒物(PM10),111,148,47,36,27,93,93,41,41,7,26,4,7,0.3,0.9
2026-04-03T1400,2637A,107.0072,33.0323,汉中市,南郑大河坎水厂,颗粒物(PM10),117,164,46,36,22,93,93,39,39,5,19,4,4,0.3,0.5
2026-04-03T1400,1223A,120.2073,30.2111,杭州市,滨江,,33,32,57,23,33,63,63,92,80,46,29,7,8,0.7,0.6
2026-04-03T1400,1224A,120.0625,30.2737,杭州市,西溪,,22,13,50,9,28,70,70,79,78,19,16,8,8,0.7,0.7
2026-04-03T1400,1226A,120.3417,30.315,杭州市,下沙,颗粒物(PM10),66,72,68,34,27,55,55,86,76,47,29,7,7,0.6,0.6
2026-04-03T1400,1227A,120.1252,30.2465,杭州市,卧龙桥,,25,23,47,17,28,75,75,84,82,20,18,7,7,0.5,0.5
2026-04-03T1400,1228A,120.1902,30.2691,杭州市,浙江农大,,35,29,53,24,33,63,63,87,77,40,30,6,6,0.4,0.4
2026-04-03T1400,1230A,120.1195,30.3121,杭州市,和睦小学,,38,38,70,21,35,71,71,84,79,26,23,6,6,0.7,0.6
2026-04-03T1400,1231A,120.3076,30.4146,杭州市,临平镇,,49,45,57,34,36,78,78,96,92,34,29,6,7,0.7,0.6
2026-04-03T1400,1232A,120.2753,30.1839,杭州市,城厢镇,NA,NA,42,55,32,38,56,56,83,71,41,37,5,6,NA,0.7
2026-04-03T1400,1233A,120.0883,30.1808,杭州市,云栖,,23,21,52,15,29,71,71,83,81,26,24,6,6,0.6,0.6
2026-04-03T1400,3557A,119.9463,30.0496,杭州市,镇二中,,24,24,40,16,24,76,76,81,76,23,25,4,4,0.5,0.8
2026-04-03T1400,3558A,119.7184,30.2367,杭州市,市府大楼,,26,18,33,18,27,75,75,80,79,22,19,6,6,0.4,0.4
2026-04-03T1400,3656A,120.1554,30.2863,杭州市,消防大队,,40,40,68,25,36,62,62,79,72,31,25,8,8,0.8,0.7
2026-04-03T1400,1270A,117.1957,31.7845,合肥市,明珠广场,NA,NA,70,47,48,23,61,61,70,70,NA,21,4,3,0.8,0.6
2026-04-03T1400,1271A,117.307,31.8765,合肥市,三里街,颗粒物(PM10),68,75,58,42,31,69,69,62,58,33,32,6,6,0.7,0.6
2026-04-03T1400,1272A,117.2587,31.8703,合肥市,琥珀山庄,细颗粒物(PM2.5),70,73,52,45,26,76,76,69,66,32,28,6,7,0.8,0.7
2026-04-03T1400,1275A,117.2593,31.9376,合肥市,庐阳区,颗粒物(PM10),70,78,61,44,31,86,86,68,67,24,29,6,6,0.9,0.8
2026-04-03T1400,1276A,117.345251,31.861615,合肥市,瑶海区,颗粒物(PM10),67,73,62,33,28,82,82,62,62,21,33,8,8,0.8,0.8
2026-04-03T1400,1277A,117.3033,31.7967,合肥市,包河区,颗粒物(PM10),72,80,52,44,23,55,55,55,54,37,35,9,9,0.8,0.7
2026-04-03T1400,1278A,117.278,31.7392,合肥市,滨湖新区,颗粒物(PM10),60,63,45,35,21,56,56,76,75,36,14,6,5,0.7,0.6
2026-04-03T1400,1279A,117.1324,31.8395,合肥市,高新区,颗粒物(PM10),60,63,50,36,24,89,89,77,63,16,21,5,6,0.7,0.7
2026-04-03T1400,3464A,117.3802,31.9148,合肥市,高教基地,颗粒物(PM10),62,66,60,29,30,92,92,69,69,18,23,9,9,0.6,0.6
2026-04-03T1400,4098A,117.2518,31.8404,合肥市,中国科学技术大学,"颗粒物(PM10),细颗粒物(PM2.5)",72,80,48,46,23,71,71,70,67,22,21,6,7,0.8,0.7
2026-04-03T1400,3614A,79.9241,37.0878,和田地区,地区环保局,颗粒物(PM10),190,329,185,31,34,109,109,87,87,2,11,1,2,0.4,0.4
2026-04-03T1400,3615A,79.9132,37.1137,和田地区,市环保局,颗粒物(PM10),112,150,153,32,35,100,100,56,56,4,23,1,2,0.5,0.8
2026-04-03T1400,2517A,108.0496,24.6957,河池市,市环保站,,43,40,71,30,57,60,60,22,22,4,14,5,6,0.8,0.9
2026-04-03T1400,4302A,108.0901,24.6945,河池市,上任中路54号,,28,28,70,6,54,60,60,20,20,5,18,7,7,0.9,1
2026-04-03T1400,1697A,114.6962,23.7538,河源市,东埔,,42,42,34,29,23,64,64,76,62,12,12,5,6,0.5,0.5
2026-04-03T1400,1698A,114.6895,23.7232,河源市,老城,,41,41,33,26,23,64,64,76,62,10,12,6,6,0.5,0.5
2026-04-03T1400,3374A,115.5562,35.089,菏泽市,定陶老年大学,,41,34,70,8,39,129,129,97,97,10,16,5,6,0.3,0.5
2026-04-03T1400,4114A,115.4239,35.2593,菏泽市,黄河路600号,颗粒物(PM10),53,54,80,6,36,122,122,89,89,6,14,1,3,0.3,0.5
2026-04-03T1400,4115A,115.5025,35.2727,菏泽市,菏泽市人社局,,38,38,67,7,43,118,118,91,91,8,15,6,7,0.2,0.3
2026-04-03T1400,4184A,115.479691,35.244011,菏泽市,永昌路1号,,45,45,70,6,36,130,130,98,98,10,16,2,4,0.3,0.3
2026-04-03T1400,4193A,115.471542,35.280012,菏泽市,长城路999号,,41,40,66,6,31,131,131,102,102,5,12,9,19,0.2,0.3
2026-04-03T1400,2514A,111.5264,24.4178,贺州市,环保小区,,47,47,39,32,34,62,62,30,29,20,26,6,5,0.8,0.7
2026-04-03T1400,2515A,111.561,24.4074,贺州市,政协大楼,,48,46,35,33,34,76,76,42,42,13,19,8,8,0.7,0.7
2026-04-03T1400,3534A,111.4744,24.455,贺州市,西湾,,49,43,54,34,35,65,65,25,25,15,25,7,7,0.7,0.8
2026-04-03T1400,2385A,114.17,35.9019,鹤壁市,市监测站,,40,40,53,22,31,121,121,94,94,10,16,5,8,0.5,0.6
2026-04-03T1400,2386A,114.2953,35.7512,鹤壁市,市交警支队,颗粒物(PM10),63,67,61,39,32,119,119,92,92,10,15,11,11,0.7,0.6
2026-04-03T1400,2387A,114.2877,35.7302,鹤壁市,迎宾馆,颗粒物(PM10),73,82,71,30,36,123,123,93,93,8,15,8,8,0.5,0.6
2026-04-03T1400,3474A,114.2616,35.6824,鹤壁市,大新区,NA,NA,NA,54,NA,50,NA,NA,113,NA,NA,22,NA,8,NA,0.6
2026-04-03T1400,3596A,114.1573,35.9607,鹤壁市,南山宾馆,颗粒物(PM10),58,61,64,22,35,118,118,100,100,5,10,10,10,0.4,0.5
2026-04-03T1400,2244A,130.2537,47.3416,鹤岗市,哈啤分公司,,29,20,53,18,47,92,92,86,86,10,13,8,8,0.4,0.5
2026-04-03T1400,2245A,130.2683,47.3087,鹤岗市,斯达机电,,35,35,63,23,48,93,93,87,87,5,13,10,11,0.4,0.5
2026-04-03T1400,2246A,130.3114,47.3388,鹤岗市,东山纸板厂,颗粒物(PM10),68,74,78,21,47,93,93,89,89,11,12,8,9,0.3,0.4
2026-04-03T1400,2263A,127.4832,50.2524,黑河市,交通局,NA,NA,NA,28,NA,11,87,87,68,68,4,6,NA,5,NA,0.3
2026-04-03T1400,2264A,127.5146,50.2339,黑河市,环保局,,25,8,32,3,13,78,78,66,66,8,16,7,7,0.4,0.5
2026-04-03T1400,1074A,115.6839,37.754,衡水市,电机北厂,颗粒物(PM10),98,116,81,18,43,117,117,78,78,14,20,8,7,0.4,0.4
2026-04-03T1400,1075A,115.6303,37.7318,衡水市,市监测站,颗粒物(PM10),76,86,84,13,39,114,114,72,72,10,20,8,8,0.3,0.4
2026-04-03T1400,3188A,115.6684,37.7216,衡水市,市城管局,颗粒物(PM10),93,110,81,20,45,119,119,77,77,9,20,6,8,0.3,0.4
2026-04-03T1400,3459A,115.599,37.5491,衡水市,地表水厂,颗粒物(PM10),84,97,75,12,37,123,123,80,80,6,23,4,6,0.1,0.3
2026-04-03T1400,2457A,112.6209,26.9268,衡阳市,衡阳化工总厂,,26,12,22,3,15,81,81,40,40,6,13,4,4,0.7,0.9
2026-04-03T1400,2458A,112.621,26.8957,衡阳市,珠晖区环保局,,25,11,23,3,15,80,80,39,39,4,15,6,7,0.7,0.8
2026-04-03T1400,2459A,112.628,26.8654,衡阳市,市委党校,,25,8,21,3,17,80,80,40,40,4,9,6,6,0.8,0.9
2026-04-03T1400,2460A,112.6007,26.8977,衡阳市,市监测站,,27,27,27,9,16,74,74,39,39,9,18,7,7,0.7,0.8
2026-04-03T1400,2461A,112.5658,26.9013,衡阳市,真空机电公司,,24,6,21,3,17,76,76,43,43,2,7,6,6,0.9,1
2026-04-03T1400,3399A,112.6703,26.8817,衡阳市,师范学院,,24,17,24,3,15,74,74,38,38,5,7,6,5,0.8,0.9
2026-04-03T1400,3038A,103.3757,23.3679,红河哈尼族彝族自治州,州图书馆,,48,38,49,33,39,124,124,112,112,4,6,7,7,0.3,0.4
2026-04-03T1400,4154A,103.401,23.3561,红河哈尼族彝族自治州,蒙自市朝阳路,,39,NA,36,25,38,124,124,106,106,5,8,15,12,0.4,0.4
2026-04-03T1400,1090A,111.6506,40.7517,呼和浩特市,呼市一监,,31,17,159,3,41,99,99,88,88,2,13,8,17,0.2,0.4
2026-04-03T1400,1094A,111.7516,40.8369,呼和浩特市,如意水处理厂,,30,13,86,3,34,96,96,85,85,4,17,5,8,0.2,0.3
2026-04-03T1400,1095A,111.727798,40.806187,呼和浩特市,二十九中,,32,32,138,6,36,86,86,77,76,2,11,7,11,0.3,0.4
2026-04-03T1400,1097A,111.717,40.7617,呼和浩特市,化肥厂生活区,,30,16,103,13,49,93,93,83,83,3,16,4,9,0.2,0.3
2026-04-03T1400,3699A,111.6519,40.8389,呼和浩特市,海东办,,30,22,119,3,28,93,93,83,83,4,17,3,8,0.3,0.4
2026-04-03T1400,4275A,111.591512,40.827312,呼和浩特市,成吉思汗西街8号,,31,31,127,3,31,90,90,77,77,7,27,4,8,0.2,0.3
2026-04-03T1400,4276A,111.6597,40.8077,呼和浩特市,公园东路75号,,28,19,133,3,30,87,87,79,79,6,15,8,12,0.1,0.3
2026-04-03T1400,4277A,111.5427,40.7846,呼和浩特市,金海路35号,,31,31,168,3,36,87,87,78,78,10,26,3,7,0.3,0.4
2026-04-03T1400,3061A,119.7511,49.1576,呼伦贝尔市,国华电力东,,29,24,23,10,9,91,91,61,61,8,9,7,6,0.3,0.3
2026-04-03T1400,4279A,119.7569,49.2222,呼伦贝尔市,伊敏大街东7号,,27,NA,32,12,12,84,84,49,49,6,12,6,6,0.6,0.4
2026-04-03T1400,1250A,120.075,30.867,湖州市,城西水厂,,43,35,49,30,34,97,97,106,105,23,21,6,7,0.8,0.7
2026-04-03T1400,2873A,120.083,30.8929,湖州市,仁皇山新区,,45,37,49,31,35,94,94,102,102,23,24,5,6,0.7,0.7
2026-04-03T1400,2907A,120.1846,30.8592,湖州市,吴兴区站,,45,40,56,31,33,101,101,106,106,16,18,5,6,0.8,0.7
2026-04-03T1400,3562A,120.4146,30.8538,湖州市,南浔区站,,30,26,48,20,30,93,93,98,98,15,15,4,5,0.9,0.8
2026-04-03T1400,1607A,120.904878,40.721091,葫芦岛市,龙港区,细颗粒物(PM2.5),104,93,75,64,50,138,138,103,103,17,19,9,10,0.7,0.6
2026-04-03T1400,1608A,120.8382,40.7521,葫芦岛市,化工街,细颗粒物(PM2.5),119,107,95,80,68,119,119,86,86,25,27,16,15,0.8,0.6
2026-04-03T1400,1609A,120.8339,40.7078,葫芦岛市,新区,细颗粒物(PM2.5),128,98,74,90,65,130,130,96,96,20,22,9,10,0.9,0.7
2026-04-03T1400,1610A,120.8697,40.7679,葫芦岛市,东城区,细颗粒物(PM2.5),130,NA,67,93,68,125,125,92,92,24,27,9,10,0.9,0.8
2026-04-03T1400,2483A,109.9297,27.5383,怀化市,河西地税局,,22,8,12,6,9,68,68,48,48,6,10,4,4,/,/
2026-04-03T1400,2484A,109.9783,27.5342,怀化市,市四医院,,25,13,17,3,8,80,80,50,49,6,10,7,6,0.3,0.4
2026-04-03T1400,2485A,109.9971,27.5579,怀化市,监测楼,NA,NA,15,13,NA,9,84,84,52,52,6,9,2,2,0.3,0.3
2026-04-03T1400,1210A,119.0566,33.5991,淮安市,钵池山,细颗粒物(PM2.5),64,48,88,42,66,103,103,73,73,20,29,9,11,0.6,0.7
2026-04-03T1400,1211A,119.0083,33.578,淮安市,北京南路,细颗粒物(PM2.5),66,51,84,43,71,95,95,65,65,16,26,8,11,0.7,0.9
2026-04-03T1400,1212A,118.9938,33.6083,淮安市,市监测站,细颗粒物(PM2.5),64,NA,82,42,72,110,110,77,77,19,28,7,9,0.8,0.9
2026-04-03T1400,1213A,119.135,33.5038,淮安市,楚州区监测站,细颗粒物(PM2.5),76,59,96,48,74,104,104,62,62,14,32,7,7,0.6,0.7
2026-04-03T1400,3426A,118.8757,33.2897,淮安市,新华书店,颗粒物(PM10),53,53,102,21,48,107,107,60,60,13,32,8,9,0.6,0.8
2026-04-03T1400,4092A,119.119691,33.550006,淮安市,枚皋中路89号,细颗粒物(PM2.5),62,45,94,41,70,106,106,70,70,15,24,12,13,0.7,0.8
2026-04-03T1400,4206A,119.028838,33.631911,淮安市,承德北路606号,细颗粒物(PM2.5),60,56,102,40,67,103,103,72,72,15,22,10,11,0.5,0.6
2026-04-03T1400,2282A,116.8005,33.9749,淮北市,监测站,,41,32,58,10,29,130,130,101,101,8,18,6,8,0.2,0.4
2026-04-03T1400,2283A,116.8094,33.9008,淮北市,烈山区政府,,37,13,62,3,29,118,118,87,87,6,19,6,8,0.3,0.5
2026-04-03T1400,4017A,116.7926,33.9534,淮北市,市博物馆,,39,20,51,10,30,123,123,94,94,7,16,4,6,0.4,0.6
2026-04-03T1400,4100A,116.8322,33.9884,淮北市,杜集区第一实验学校,,36,27,63,3,27,113,113,84,84,6,16,7,8,0.3,0.5
2026-04-03T1400,2277A,116.8304,32.7726,淮南市,潘集区政府,,35,34,44,16,22,112,112,73,73,8,20,6,7,0.3,0.3
2026-04-03T1400,2279A,116.8569,32.5949,淮南市,谢家集区政府,,35,NA,36,23,22,110,110,74,74,10,21,10,10,0.4,0.5
2026-04-03T1400,2280A,116.8279,32.6333,淮南市,八公山区政府,,35,30,44,20,20,110,110,81,78,8,12,8,10,0.4,0.5
2026-04-03T1400,2894A,117.0561,32.6536,淮南市,经济技术开发区消防队,NA,NA,42,53,28,34,112,112,59,59,NA,22,6,8,0.6,0.5
2026-04-03T1400,3329A,117.011,32.5891,淮南市,山南新区,颗粒物(PM10),53,53,62,33,30,110,110,73,73,14,16,10,8,0.5,0.5
2026-04-03T1400,4209A,117.003137,32.644456,淮南市,国庆中路369号,,46,42,50,32,29,106,106,70,60,12,16,13,13,0.5,0.5
2026-04-03T1400,2446A,114.9021,30.474,黄冈市,职工中心,,21,16,34,12,21,67,67,71,52,6,8,8,7,0.8,0.6
2026-04-03T1400,2929A,114.8858,30.4519,黄冈市,红卫路,,23,15,33,13,26,73,73,78,65,8,11,5,6,0.4,0.3
2026-04-03T1400,3398A,114.9134,30.4446,黄冈市,市林业局,,25,17,35,8,20,77,77,75,65,6,9,4,4,0.5,0.3
2026-04-03T1400,2672A,102.02,35.5101,黄南藏族自治州,同仁县隆务镇,颗粒物(PM10),53,54,48,21,21,118,118,109,108,1,2,9,10,0.2,0.2
2026-04-03T1400,2295A,118.2905,29.6965,黄山市,延安路89号,,23,12,30,8,19,72,72,72,72,16,15,4,5,0.5,0.5
2026-04-03T1400,2297A,118.1369,30.2755,黄山市,黄山区政府5号楼,,29,29,30,9,16,55,55,43,43,6,9,3,3,0.4,0.4
2026-04-03T1400,4210A,118.335445,29.720283,黄山市,滨江东路7-2号,,24,22,40,8,19,76,76,78,78,10,12,/,/,/,/
2026-04-03T1400,2423A,115.0547,30.2332,黄石市,沈家营,,30,30,46,7,23,59,59,47,40,7,18,7,7,1.0,0.6
2026-04-03T1400,2426A,114.899,30.211,黄石市,铁山,NA,NA,25,33,19,20,53,53,61,54,18,13,8,8,NA,0.9
2026-04-03T1400,2427A,115.0259,30.2108,黄石市,团城山,,25,25,37,11,21,57,57,56,41,10,11,4,5,0.5,0.7
2026-04-03T1400,3149A,115.0174,30.1591,黄石市,笔架山北路,,32,32,48,11,21,62,62,68,57,16,9,8,10,0.8,0.9
2026-04-03T1400,4185A,115.078022,30.21118,黄石市,磁湖东路29号,,22,22,37,12,22,61,61,65,48,10,14,4,4,0.7,0.8
2026-04-03T1400,1392A,114.4181,23.0528,惠州市,河南岸金山湖子站,,40,40,36,26,21,68,68,85,75,7,9,6,6,0.6,0.7
2026-04-03T1400,1393A,114.4055,23.0824,惠州市,下埔横江三路子站,,48,48,42,27,21,65,65,87,76,9,10,4,5,0.6,0.6
2026-04-03T1400,1395A,114.4645,22.7832,惠州市,惠阳区承修路船湖子站,,47,47,43,28,20,66,66,91,80,7,10,6,6,0.4,0.4
2026-04-03T1400,1396A,114.5316,22.7423,惠州市,大亚湾管委会子站,,43,43,41,27,18,58,58,86,74,5,9,3,4,0.5,0.5
2026-04-03T1400,3314A,114.4334,22.8134,惠州市,惠阳秋长,,35,34,35,24,19,70,70,94,81,6,11,/,/,/,/
2026-04-03T1400,3452A,114.6521,22.7755,惠州市,大亚湾霞涌,,35,35,27,17,18,69,69,82,74,8,10,/,/,/,/
2026-04-03T1400,4300A,114.4089,23.1147,惠州市,文华一路1号,,43,43,36,27,21,68,68,88,76,9,10,/,/,/,/
2026-04-03T1400,2240A,130.9618,45.2926,鸡西市,环保局,细颗粒物(PM2.5),150,161,219,114,138,114,114,89,89,19,34,9,12,0.4,0.7
2026-04-03T1400,2243A,130.9294,45.2959,鸡西市,第一中学,细颗粒物(PM2.5),148,142,198,112,142,110,110,90,90,19,30,6,11,0.5,0.7
2026-04-03T1400,3707A,131.0069,45.2988,鸡西市,欧美日汽修厂,细颗粒物(PM2.5),160,169,251,122,133,112,112,78,78,17,39,11,15,1.2,1.6
2026-04-03T1400,2367A,114.9753,27.0803,吉安市,红声器材厂,,21,21,28,3,9,21,21,28,22,18,18,6,6,0.9,0.8
2026-04-03T1400,2369A,114.9903,27.1313,吉安市,市环境监测站,,18,18,23,3,12,28,28,33,28,14,16,7,7,/,/
2026-04-03T1400,2370A,115.009527,27.096792,吉安市,青原区法院,,20,20,26,10,12,26,26,28,25,21,19,6,7,0.9,1.1
2026-04-03T1400,1772A,126.54,43.8622,吉林市,哈达湾,细颗粒物(PM2.5),274,338,254,224,185,82,82,74,74,31,39,11,15,1.4,1.4
2026-04-03T1400,1773A,126.5843,43.8358,吉林市,东局子,细颗粒物(PM2.5),250,325,193,200,140,85,85,76,76,29,35,8,8,1.5,1.3
2026-04-03T1400,1774A,126.5051,43.8243,吉林市,电力学院,细颗粒物(PM2.5),254,254,309,204,227,102,102,79,79,28,54,10,15,1.5,1.9
2026-04-03T1400,1775A,126.6133,43.8971,吉林市,江北,细颗粒物(PM2.5),386,357,256,336,226,82,82,97,97,34,33,12,13,1.6,1.4
2026-04-03T1400,1776A,126.5549,43.8304,吉林市,江南公园,细颗粒物(PM2.5),248,270,194,198,145,83,83,74,74,31,32,10,13,1.2,1.1
2026-04-03T1400,2868A,126.4737,43.953,吉林市,九站,细颗粒物(PM2.5),293,295,312,243,251,63,63,79,79,42,57,14,17,1.4,1.5
2026-04-03T1400,1299A,116.9866,36.6118,济南市,科干所,,44,44,59,13,34,134,134,127,122,8,11,7,8,0.5,0.6
2026-04-03T1400,1300A,116.9379,36.6652,济南市,农科所,,49,49,70,12,33,127,127,117,117,10,13,7,8,0.4,0.5
2026-04-03T1400,1301A,117.1265,36.6736,济南市,开发区,NA,NA,54,52,18,30,138,138,132,128,NA,10,7,6,0.6,0.6
2026-04-03T1400,1303A,117.0616,36.6865,济南市,省种子仓库,颗粒物(PM10),53,53,65,8,29,131,131,129,123,8,9,5,6,0.5,0.6
2026-04-03T1400,1304A,116.9495185,36.644937,济南市,机床二厂,,44,44,66,12,34,132,132,120,120,10,12,6,7,0.5,0.6
2026-04-03T1400,1305A,117.0496,36.6629,济南市,市监测站,颗粒物(PM10),57,59,61,10,28,130,130,128,122,9,11,4,5,0.4,0.6
2026-04-03T1400,1306A,116.7674,36.5458,济南市,长清党校,,44,44,71,7,34,132,132,119,119,5,10,5,7,0.4,0.6
2026-04-03T1400,1961A,117.5323,36.6865,济南市,东山小学,,49,49,69,16,36,144,144,137,137,12,19,4,7,0.3,0.4
2026-04-03T1400,3059A,117.7181,36.205,济南市,泰兴公司,颗粒物(PM10),60,63,75,26,37,156,156,131,131,9,21,13,13,0.3,0.4
2026-04-03T1400,3064A,117.6861,36.2172,济南市,莱芜战役纪念馆,颗粒物(PM10),53,53,75,21,37,149,149,132,132,11,19,7,9,0.4,0.6
2026-04-03T1400,3494A,117.1673,36.9782,济南市,济阳区政府,颗粒物(PM10),55,56,75,17,35,117,117,110,110,11,19,10,9,0.6,0.6
2026-04-03T1400,3495A,117.1168,36.6299,济南市,锦屏中学,,44,44,49,19,32,130,130,121,117,13,13,6,6,0.4,0.4
2026-04-03T1400,4108A,117.7107,36.2385,济南市,山财大街5号,NA,NA,53,70,26,41,158,158,132,132,NA,29,6,12,0.5,0.7
2026-04-03T1400,4109A,116.9744,36.6889,济南市,无影山路12号,,39,36,53,15,34,122,122,112,112,9,11,6,6,0.6,0.7
2026-04-03T1400,1653A,116.6229,35.4288,济宁市,火炬城,,42,42,62,18,43,126,126,101,101,6,14,7,7,0.6,0.8
2026-04-03T1400,3500A,116.5808,35.3703,济宁市,北湖一中,颗粒物(PM10),51,51,57,14,37,132,132,106,106,6,15,8,8,0.5,0.7
2026-04-03T1400,3501A,116.8251,35.5592,济宁市,服务中心,颗粒物(PM10),60,63,79,25,46,135,135,111,111,6,15,3,3,0.5,0.6
2026-04-03T1400,3678A,116.5907,35.4054,济宁市,市第七中学,颗粒物(PM10),62,66,67,14,38,137,137,110,110,6,15,4,5,0.5,0.7
2026-04-03T1400,4111A,116.6075,35.4566,济宁市,任和路,,45,45,82,14,40,135,135,110,110,9,18,7,8,0.4,0.6
2026-04-03T1400,4112A,116.5648,35.3921,济宁市,文体南路1号,,42,33,75,7,34,134,134,106,106,4,11,7,7,0.5,0.7
2026-04-03T1400,4122A,112.6071,35.1015,济源市,市委党校,颗粒物(PM10),63,67,132,26,64,119,119,66,66,16,25,14,11,1.0,0.9
2026-04-03T1400,4123A,112.596,35.0702,济源市,沁园中路1号,颗粒物(PM10),53,53,100,18,69,116,116,64,64,11,31,8,9,0.6,0.9
2026-04-03T1400,2255A,130.2749,46.8028,佳木斯市,佳纺,,50,50,100,31,69,93,93,84,84,11,19,6,7,0.3,0.5
2026-04-03T1400,2257A,130.3258,46.7975,佳木斯市,环保局,细颗粒物(PM2.5),60,48,93,40,61,87,87,80,80,18,18,4,5,0.4,0.4
2026-04-03T1400,4285A,130.363,46.806,佳木斯市,顺和街,细颗粒物(PM2.5),52,43,93,36,70,91,91,85,84,11,17,3,4,0.3,0.4
2026-04-03T1400,4286A,130.3952,46.8268,佳木斯市,长安路196号,NA,NA,NA,96,NA,69,87,87,81,81,10,16,9,9,0.4,0.5
2026-04-03T1400,1252A,120.7439,30.778,嘉兴市,清河小学,,32,22,38,12,17,102,102,110,110,26,24,6,7,1.1,0.9
2026-04-03T1400,1253A,120.7261,30.7477,嘉兴市,嘉兴学院,,33,33,45,19,25,104,104,113,113,27,23,5,6,0.6,0.4
2026-04-03T1400,2872A,120.7845,30.7524,嘉兴市,南湖区残联,,32,NA,34,19,27,100,100,104,103,15,16,3,5,0.7,0.6
2026-04-03T1400,3407A,120.6915,30.7741,嘉兴市,秀洲住建,NA,NA,22,37,17,23,98,98,110,109,27,15,4,6,NA,0.5
2026-04-03T1400,1945A,98.291,39.7705,嘉峪关市,气象局,颗粒物(PM10),72,80,129,22,26,119,119,96,94,7,9,13,16,0.4,0.9
2026-04-03T1400,2884A,98.2672,39.7978,嘉峪关市,酒钢宾馆,颗粒物(PM10),75,85,159,18,30,115,115,89,87,8,9,13,17,0.8,0.6
2026-04-03T1400,3248A,98.2644,39.7723,嘉峪关市,雄关区,颗粒物(PM10),65,71,115,19,28,114,114,78,78,10,15,8,10,0.6,0.6
2026-04-03T1400,1383A,113.1063,22.6058,江门市,北街,,35,35,40,20,20,73,73,57,57,6,10,/,/,/,/
2026-04-03T1400,1384A,113.073,22.5835,江门市,西区,,30,21,42,21,22,76,76,60,60,6,11,/,/,/,/
2026-04-03T1400,1385A,113.0218,22.531,江门市,圭峰西,,36,36,40,22,23,74,74,60,60,4,9,/,/,/,/
2026-04-03T1400,1386A,113.0826,22.5947,江门市,东湖,,36,36,41,17,22,75,75,60,60,6,10,5,5,0.4,0.5
2026-04-03T1400,3311A,113.1077,22.5647,江门市,江海富民,,44,44,54,19,23,75,75,62,62,7,11,/,/,0.3,0.4
2026-04-03T1400,3449A,113.0496,22.4669,江门市,新会银湖,,43,43,42,20,22,74,74,61,61,6,11,7,7,0.2,0.3
2026-04-03T1400,3335A,113.3137,35.2643,焦作市,马村街道办,颗粒物(PM10),63,67,75,34,48,108,108,78,78,12,18,12,11,0.5,0.6
2026-04-03T1400,3336A,113.2464,35.2374,焦作市,焦作技师学院,颗粒物(PM10),59,62,76,35,46,110,110,78,78,10,19,12,11,0.9,1.1
2026-04-03T1400,3477A,113.1656,35.2536,焦作市,中站许衡医院,颗粒物(PM10),71,79,69,38,41,115,115,86,86,15,15,19,14,0.7,0.8
2026-04-03T1400,3981A,113.2456,35.18,焦作市,原李万街道办,颗粒物(PM10),72,80,84,32,56,99,99,62,62,9,18,12,12,0.6,0.6
2026-04-03T1400,4264A,113.234,35.219,焦作市,新安路1731号,颗粒物(PM10),69,76,88,34,53,114,114,78,78,12,21,12,12,0.7,0.9
2026-04-03T1400,4295A,113.2722,35.2121,焦作市,人民路3066号,颗粒物(PM10),92,108,93,37,56,115,115,78,78,4,16,9,8,0.6,0.8
2026-04-03T1400,1708A,116.3701,23.5345,揭阳市,新兴,细颗粒物(PM2.5),108,NA,33,68,28,56,56,86,70,36,19,22,8,0.7,0.5
2026-04-03T1400,1709A,116.3261,23.5442,揭阳市,西马,细颗粒物(PM2.5),66,67,38,43,23,64,64,87,73,30,17,6,6,0.9,0.8
2026-04-03T1400,1710A,116.361,23.5627,揭阳市,东兴,颗粒物(PM10),57,59,31,35,22,63,63,85,70,29,18,6,5,/,/
2026-04-03T1400,1711A,116.4151,23.5295,揭阳市,渔湖,细颗粒物(PM2.5),64,64,36,42,23,70,70,97,78,28,17,4,4,/,/
2026-04-03T1400,3320A,116.4028,23.5699,揭阳市,曲溪,,50,48,32,35,22,71,71,90,77,26,15,7,10,0.6,0.5
2026-04-03T1400,1944A,102.1691,38.5166,金昌市,天庆家园,颗粒物(PM10),146,239,369,40,68,108,108,116,104,4,2,13,11,0.3,0.3
2026-04-03T1400,4022A,102.1648,38.5369,金昌市,金川区人防中心,颗粒物(PM10),151,252,385,40,74,107,107,113,102,3,3,4,3,0.2,0.2
2026-04-03T1400,4239A,102.193042,38.531887,金昌市,长春路96号,颗粒物(PM10),147,241,306,48,83,105,105,111,101,2,2,5,5,0.4,0.3
2026-04-03T1400,1262A,119.6478,29.0773,金华市,十五中,,40,40,35,25,18,66,66,105,80,39,21,3,3,0.6,0.5
2026-04-03T1400,1263A,119.6859,29.1032,金华市,监测站,,32,32,33,21,17,69,69,107,81,31,18,3,4,0.5,0.4
2026-04-03T1400,3659A,119.656,29.1132,金华市,气象局,NA,NA,38,33,26,18,60,60,102,77,35,25,3,3,NA,0.3
2026-04-03T1400,1767A,121.1114,41.0879,锦州市,南山,细颗粒物(PM2.5),120,92,70,81,64,127,127,87,87,24,27,10,11,0.8,0.7
2026-04-03T1400,1768A,121.060361,40.842794,锦州市,开发区,细颗粒物(PM2.5),118,92,82,79,65,129,129,94,94,27,30,8,8,0.7,0.5
2026-04-03T1400,1769A,121.1836,41.1118,锦州市,百股街道,细颗粒物(PM2.5),128,93,72,90,71,142,142,96,96,22,26,8,10,0.8,0.6
2026-04-03T1400,1770A,121.1176,41.1224,锦州市,天安街道,细颗粒物(PM2.5),118,89,76,79,66,123,123,83,83,25,28,8,9,0.9,0.7
2026-04-03T1400,1771A,121.1303,41.1385,锦州市,北湖公园,细颗粒物(PM2.5),121,NA,78,83,68,130,130,89,89,22,26,8,7,0.7,0.6
2026-04-03T1400,2160A,112.8496,35.5051,晋城市,自来水公司,颗粒物(PM10),125,184,85,21,30,120,120,75,75,6,17,4,5,0.5,0.6
2026-04-03T1400,2162A,112.8509,35.4886,晋城市,市环保局,颗粒物(PM10),129,194,80,35,36,122,122,74,74,4,15,6,7,0.3,0.5
2026-04-03T1400,3620A,112.8258,35.4804,晋城市,泽州一中,颗粒物(PM10),103,126,73,39,44,120,120,76,76,3,15,4,6,0.9,1.1
2026-04-03T1400,4078A,112.8246,35.5152,晋城市,前书院路,颗粒物(PM10),142,229,85,29,32,92,92,63,63,5,21,7,6,0.3,0.6
2026-04-03T1400,4079A,112.8864,35.4773,晋城市,祥云街666号,颗粒物(PM10),122,177,69,31,37,114,114,66,66,3,15,7,7,0.3,0.5
2026-04-03T1400,2174A,112.6992,37.6984,晋中市,榆次区政府,颗粒物(PM10),196,342,127,56,44,100,100,81,81,6,19,7,13,0.2,0.8
2026-04-03T1400,2865A,112.7195,37.683,晋中市,榆次三中,颗粒物(PM10),279,405,136,54,41,105,105,84,84,1,20,8,12,0.2,0.7
2026-04-03T1400,4080A,112.7375,37.7215,晋中市,广安街188号,颗粒物(PM10),180,310,121,50,43,102,102,86,86,2,18,9,12,0,0.4
2026-04-03T1400,4200A,112.7478,37.6954,晋中市,迎宾街26号,颗粒物(PM10),206,354,126,65,43,104,104,86,86,5,17,7,11,0.3,0.5
2026-04-03T1400,2439A,112.2012,31.048,荆门市,竹园小学,,30,30,27,20,15,92,92,81,81,12,14,1,1,0.2,0.2
2026-04-03T1400,2440A,112.1968,30.9892,荆门市,掇刀,,32,32,25,19,19,95,95,90,90,6,12,11,7,0.5,0.5
2026-04-03T1400,3012A,112.1849,31.0361,荆门市,西山林语,,34,34,20,16,16,89,89,84,84,7,9,5,5,0.3,0.3
2026-04-03T1400,3547A,112.1631,31.0134,荆门市,龙泉中学南校,,31,26,23,3,9,97,97,98,98,11,13,5,4,0.6,0.7
2026-04-03T1400,4124A,112.2213,31.0654,荆门市,新台西路6号,,31,31,36,18,21,96,96,75,75,3,11,7,6,0.4,0.4
2026-04-03T1400,1844A,112.2493,30.3198,荆州市,市图书馆,,33,33,23,21,16,102,102,79,79,11,13,6,6,0.4,0.4
2026-04-03T1400,1845A,112.2009,30.3543,荆州市,市委党校,,29,22,22,16,13,92,92,67,67,22,28,7,7,0.6,0.7
2026-04-03T1400,3194A,112.2749,30.3124,荆州市,管委会,,32,NA,21,22,16,91,91,72,72,10,14,6,6,0.5,0.5
2026-04-03T1400,4268A,112.1722,30.3366,荆州市,学苑路85号,NA,NA,45,26,10,17,113,113,82,82,3,10,15,8,NA,0.1
2026-04-03T1400,2343A,117.2114,29.2931,景德镇市,老干部活动中心,,19,14,30,13,25,49,49,51,43,9,16,4,7,0.6,0.8
2026-04-03T1400,2344A,117.1893,29.2789,景德镇市,兽医站,,17,17,34,3,19,50,50,53,44,11,18,3,4,0.7,0.7
2026-04-03T1400,2346A,117.246,29.2958,景德镇市,陶研所,,15,10,22,7,17,48,48,57,46,23,26,5,4,0.4,0.5
2026-04-03T1400,4289A,117.154766,29.256967,景德镇市,青少年活动中心,,15,10,29,10,24,46,46,52,45,15,22,12,12,/,/
2026-04-03T1400,1803A,115.9873,29.6816,九江市,十里,,21,16,32,6,20,65,65,58,58,21,28,7,7,0.7,0.8
2026-04-03T1400,1804A,115.9583,29.7047,九江市,茅山头,,17,16,31,8,21,54,54,59,57,24,29,4,4,0.5,0.6
2026-04-03T1400,1805A,115.9877,29.7295,九江市,西园,,22,22,30,11,16,62,62,68,59,33,29,3,4,0.6,0.6
2026-04-03T1400,1808A,115.9112,29.6038,九江市,综合工业园,,17,7,26,3,21,47,47,43,30,33,45,8,8,0.5,0.6
2026-04-03T1400,3190A,116.0254,29.6995,九江市,外国语学校,,20,11,22,7,12,61,61,76,56,18,13,5,6,0.7,0.7
2026-04-03T1400,4253A,116.010205,29.659402,九江市,莲花大道8号,,17,14,28,7,18,54,54,61,48,30,23,4,5,0.7,0.6
2026-04-03T1400,4240A,98.495752,39.733935,酒泉市,玉门东路5号,颗粒物(PM10),88,102,208,17,38,100,100,80,80,6,6,6,6,0.2,0.2
2026-04-03T1400,4241A,98.5099,39.7506,酒泉市,北大街108号,颗粒物(PM10),86,100,192,36,36,95,95,82,80,5,6,7,8,0.2,0.2
2026-04-03T1400,2698A,76.0071,39.466,喀什地区,巡警大队,颗粒物(PM10),103,126,152,31,46,102,102,81,81,7,34,4,5,0.2,0.6
2026-04-03T1400,2699A,75.9756,39.4693,喀什地区,吾办,颗粒物(PM10),101,122,162,36,51,92,92,59,59,10,35,1,3,0.3,0.7
2026-04-03T1400,4027A,75.9485,39.4688,喀什地区,老干局,颗粒物(PM10),104,130,163,24,38,100,100,56,56,6,35,3,4,0.4,0.6
2026-04-03T1400,1824A,114.3389,34.778,开封市,肿瘤医院,,42,38,54,13,32,133,133,95,95,8,21,6,7,0.5,0.6
2026-04-03T1400,1826A,114.2884,34.7966,开封市,世纪星幼儿园,,40,37,51,15,30,127,127,87,87,12,22,7,8,0.4,0.5
2026-04-03T1400,3147A,114.3434,34.8101,开封市,龙亭公园,,42,37,52,14,27,134,134,100,100,11,21,9,11,0.7,0.8
2026-04-03T1400,3210A,114.3645,34.7955,开封市,汴京公园,,39,31,51,13,30,123,123,87,87,9,20,5,6,0.5,0.6
2026-04-03T1400,3473A,114.2485,34.8306,开封市,技师学院,,42,30,45,15,26,132,132,95,95,5,14,8,9,0.5,0.6
2026-04-03T1400,3592A,114.4518,34.7503,开封市,祥符区生态环境局,,44,28,45,19,31,138,138,98,98,17,32,6,7,0.5,0.6
2026-04-03T1400,1951A,84.886,45.6029,克拉玛依市,长征新村,,41,41,39,3,10,100,100,72,72,5,10,6,6,0.5,0.5
2026-04-03T1400,1952A,84.8894,45.5827,克拉玛依市,南林小区,,34,33,37,3,3,106,106,73,73,5,10,4,4,0.2,0.3
2026-04-03T1400,1954A,84.896,44.3328,克拉玛依市,独山子区,颗粒物(PM10),95,112,59,31,16,110,110,82,82,10,10,10,6,0.8,0.7
2026-04-03T1400,1955A,85.6888,46.0909,克拉玛依市,乌尔禾区商贸楼,,34,29,38,17,15,107,107,77,77,8,13,2,2,0.3,0.4
2026-04-03T1400,3612A,85.1045,45.6895,克拉玛依市,白碱滩区新站,,37,26,43,3,8,118,118,92,91,3,5,7,11,0.4,0.3
2026-04-03T1400,2697A,76.1457,39.7143,克孜勒苏柯尔克孜自治州,市人民政府,颗粒物(PM10),106,135,105,37,36,110,110,84,84,3,14,5,20,0.2,0.2
2026-04-03T1400,3665A,76.1654,39.7157,克孜勒苏柯尔克孜自治州,克州文化中心,颗粒物(PM10),117,164,109,40,39,100,100,75,75,5,16,NA,20,0.2,0.3
2026-04-03T1400,1450A,102.8203,24.889,昆明市,呈贡新区,,41,30,29,17,19,129,129,112,112,4,11,6,6,0.6,0.6
2026-04-03T1400,1452A,102.7253,25.0904,昆明市,龙泉镇,,32,NA,29,9,15,101,101,91,91,4,8,4,4,0.6,0.6
2026-04-03T1400,1453A,102.7267,25.0378,昆明市,东风东路,,35,26,31,11,17,111,111,97,97,9,14,3,3,0.4,0.5
2026-04-03T1400,1454A,102.6744,25.0671,昆明市,金鼎山,,34,26,32,18,17,108,108,95,95,8,10,2,2,0.4,0.3
2026-04-03T1400,1455A,102.6643,25.0401,昆明市,碧鸡广场,,34,19,28,9,17,106,106,93,93,8,12,4,5,0.4,0.4
2026-04-03T1400,3179A,102.7491,25.012,昆明市,官渡区博物馆,,36,32,33,14,18,113,113,96,96,7,12,3,5,0.3,0.4
2026-04-03T1400,3375A,102.8016,24.8336,昆明市,青年创业园,NA,NA,21,30,13,22,121,121,107,107,NA,7,6,6,0.4,0.4
2026-04-03T1400,3550A,102.8,24.9787,昆明市,昆明学院,,36,29,31,15,16,114,114,96,96,6,8,4,5,0.5,0.5
2026-04-03T1400,3551A,102.5969,24.6738,昆明市,晋宁区生态环境分局,,38,21,29,18,21,120,120,110,110,4,5,2,2,0.4,0.3
2026-04-03T1400,3552A,102.6673,24.9861,昆明市,云天化总部,,37,23,32,8,17,116,116,103,103,6,10,4,6,0.4,0.5
2026-04-03T1400,1456A,91.132,29.6515,拉萨市,八廓街,NA,NA,NA,17,NA,6,107,107,97,97,NA,5,3,4,0.2,0.3
2026-04-03T1400,1457A,91.1221,29.6748,拉萨市,市环保局,,31,11,18,3,6,98,98,87,86,8,8,4,4,0.4,0.3
2026-04-03T1400,1458A,91.0874,29.6476,拉萨市,区监测站,,33,6,12,6,5,104,104,92,92,7,8,4,4,0.0,0.1
2026-04-03T1400,1459A,91.1774,29.6541,拉萨市,西藏大学,,32,9,16,3,6,100,100,90,90,6,7,4,4,0.3,0.3
2026-04-03T1400,1460A,90.9798,29.6586,拉萨市,区辐射站,,30,9,16,6,6,96,96,84,80,6,9,4,5,0.3,0.4
2026-04-03T1400,1461A,91.0831,29.6292,拉萨市,拉萨火车站,,33,12,14,7,6,103,103,92,92,5,6,4,4,0.2,0.2
2026-04-03T1400,2520A,109.2203,23.7252,来宾市,来宾技工学校,细颗粒物(PM2.5),62,60,55,41,39,109,109,73,73,2,8,6,5,0.7,0.7
2026-04-03T1400,3535A,109.1781,23.7293,来宾市,兴宾区政府,,47,47,56,31,38,121,121,74,74,3,13,9,7,0.7,0.8
2026-04-03T1400,4002A,109.2312,23.7428,来宾市,中南小学,颗粒物(PM10),53,53,66,33,50,118,118,78,78,6,16,8,8,0.6,0.8
2026-04-03T1400,1479A,103.8309,36.0467,兰州市,铁路设计院,颗粒物(PM10),117,162,151,68,54,114,114,96,93,11,30,4,6,0.3,0.5
2026-04-03T1400,3241A,103.7439,36.0841,兰州市,百合公园,颗粒物(PM10),105,131,135,48,49,114,114,95,95,2,14,6,8,0.5,0.5
2026-04-03T1400,3242A,103.9613,35.9985,兰州市,和平,颗粒物(PM10),125,185,168,41,45,118,118,102,102,6,11,11,13,0.3,0.4
2026-04-03T1400,4236A,103.629272,36.093822,兰州市,庄浪东路808号,颗粒物(PM10),112,149,156,52,53,121,121,103,99,2,9,9,11,0.3,0.4
2026-04-03T1400,4237A,103.7251,36.104344,兰州市,安宁西路88号,颗粒物(PM10),117,163,163,49,50,131,131,112,112,4,10,9,11,0.3,0.3
2026-04-03T1400,4238A,103.846982,36.067567,兰州市,北滨河东路1号,颗粒物(PM10),108,139,138,50,52,115,115,95,94,12,30,8,11,0.4,0.6
2026-04-03T1400,1067A,116.6712,39.5109,廊坊市,药材公司,细颗粒物(PM2.5),150,195,152,114,101,124,124,58,58,25,46,5,7,0.7,0.9
2026-04-03T1400,1068A,116.7215,39.5592,廊坊市,开发区,细颗粒物(PM2.5),145,200,156,109,98,132,132,63,63,18,48,4,5,0.6,0.8
2026-04-03T1400,1070A,116.7246,39.5273,廊坊市,北华航天学院,细颗粒物(PM2.5),142,178,155,106,94,133,133,62,62,24,55,6,8,0.6,0.9
2026-04-03T1400,2919A,116.7022,39.5454,廊坊市,河北工业大学,细颗粒物(PM2.5),145,188,161,109,101,132,132,62,62,22,50,6,7,0.6,0.9
2026-04-03T1400,2536A,103.7629,29.5844,乐山市,牛耳桥,,35,15,33,6,26,111,111,59,59,10,16,5,5,0.4,0.4
2026-04-03T1400,2537A,103.7501,29.6002,乐山市,市第三水厂,,34,14,30,8,28,108,108,63,63,12,16,4,4,0.4,0.5
2026-04-03T1400,2538A,103.7571,29.5664,乐山市,市监测站,,34,16,33,6,25,108,108,60,60,10,13,3,3,0.6,0.6
2026-04-03T1400,3361A,103.7313,29.563,乐山市,理工大学,,36,18,30,7,28,114,114,63,63,9,12,4,7,0.6,0.5
2026-04-03T1400,2599A,100.2497,26.8802,丽江市,丽江古城,,30,23,17,8,6,96,96,87,84,7,8,7,9,0.5,0.4
2026-04-03T1400,2600A,100.2203,26.8906,丽江市,市中心,,31,22,10,6,5,98,98,88,84,8,10,8,7,0.5,0.5
2026-04-03T1400,1267A,119.9141,28.4513,丽水市,监测站大楼,,26,15,25,14,15,83,83,101,94,18,13,5,4,0.5,0.4
2026-04-03T1400,1268A,119.93,28.4589,丽水市,莲都小学,,26,26,28,15,13,82,82,94,91,18,12,/,/,/,/
2026-04-03T1400,1269A,119.8794,28.4232,丽水市,余庄前,,24,24,26,15,13,59,59,74,71,17,12,4,4,0.5,0.4
2026-04-03T1400,1173A,119.1759,34.5885,连云港市,市环境监测站,细颗粒物(PM2.5),112,85,87,73,70,140,140,90,90,17,25,11,10,0.7,0.6
2026-04-03T1400,3000A,119.3577,34.6971,连云港市,德源药业,细颗粒物(PM2.5),114,100,88,75,65,138,138,93,93,23,28,9,7,0.7,0.6
2026-04-03T1400,3007A,119.178,34.8442,连云港市,新城一中,细颗粒物(PM2.5),127,114,104,89,74,142,142,92,92,22,29,10,9,0.8,0.7
2026-04-03T1400,3008A,119.3607,34.7519,连云港市,胡沟管理处,NA,NA,NA,77,NA,50,152,152,115,115,24,22,13,12,1.2,0.9
2026-04-03T1400,3009A,119.1478,34.5913,连云港市,矿山设计院,细颗粒物(PM2.5),96,92,93,58,65,141,141,92,92,14,24,9,9,0.8,0.7
2026-04-03T1400,3434A,119.2414,34.6539,连云港市,工贸学校,细颗粒物(PM2.5),128,107,89,90,68,153,153,111,111,17,17,15,12,0.8,0.6
2026-04-03T1400,3664A,119.4171,34.734,连云港市,连云街道,细颗粒物(PM2.5),125,120,90,87,63,131,131,114,111,43,32,10,8,0.9,0.8
2026-04-03T1400,2573A,102.2629,27.8981,凉山彝族自治州,西昌市政府,,41,29,37,9,10,129,129,80,80,8,7,17,10,0.8,0.5
2026-04-03T1400,2574A,102.2686,27.885,凉山彝族自治州,凉山州政府,,36,20,18,7,8,114,114,70,70,10,9,12,6,0.7,0.4
2026-04-03T1400,4229A,102.2342,27.8859,凉山彝族自治州,凯乐南路30号,,35,18,21,3,8,111,111,60,60,10,16,10,5,0.9,0.5
2026-04-03T1400,2212A,123.1978,41.2036,辽阳市,宏伟区,细颗粒物(PM2.5),84,54,79,52,48,124,124,124,122,7,12,6,7,0.6,0.6
2026-04-03T1400,2213A,123.1684,41.2497,辽阳市,新华园,细颗粒物(PM2.5),88,65,85,54,52,118,118,121,119,11,18,9,13,0.7,0.8
2026-04-03T1400,2214A,123.2355,41.2663,辽阳市,滨河路,细颗粒物(PM2.5),82,71,73,51,48,109,109,113,111,13,20,6,9,0.6,0.8
2026-04-03T1400,4083A,123.153,41.2874,辽阳市,铁西路150号,细颗粒物(PM2.5),90,74,90,55,50,110,110,107,107,10,19,7,13,0.7,0.9
2026-04-03T1400,2227A,125.1359,42.8845,辽源市,环保局,细颗粒物(PM2.5),82,92,97,51,73,113,113,94,94,9,29,10,9,0.6,0.9
2026-04-03T1400,4085A,125.0998,42.9134,辽源市,安宁大街333号,NA,NA,52,121,52,74,116,116,95,95,8,26,NA,8,NA,0.8
2026-04-03T1400,1625A,115.9789,36.4372,聊城市,区政府,颗粒物(PM10),55,56,72,3,35,138,138,101,101,6,12,9,8,0.6,0.8
2026-04-03T1400,3200A,115.9772,36.4986,聊城市,监控中心,颗粒物(PM10),70,78,76,3,36,138,138,101,101,8,14,10,9,0.4,0.6
2026-04-03T1400,3513A,116.0443,36.436,聊城市,九州社区,颗粒物(PM10),53,54,78,3,43,136,136,101,101,8,14,3,5,0.3,0.5
2026-04-03T1400,4018A,116.0564,36.4609,聊城市,星美广场,,45,45,72,3,36,129,129,93,93,9,18,10,4,0.5,0.6
2026-04-03T1400,4113A,116.0091,36.4495,聊城市,利民路,,44,41,56,3,42,139,139,102,102,7,15,8,8,0.3,0.5
2026-04-03T1400,2632A,94.3683,29.6373,林芝市,林芝监测站,,29,6,8,3,4,91,91,58,58,1,3,5,6,0.4,0.4
2026-04-03T1400,2633A,94.3616,29.6634,林芝市,林芝人民医院,,30,7,14,3,6,93,93,62,62,2,3,5,5,0.4,0.6
2026-04-03T1400,2603A,100.0779,23.8981,临沧市,市环保局,颗粒物(PM10),68,75,49,38,39,126,126,87,87,4,9,6,5,0.5,0.7
2026-04-03T1400,2604A,100.0894,23.882,临沧市,市气象局,细颗粒物(PM2.5),60,56,51,40,41,127,127,86,86,4,11,7,6,0.2,0.4
2026-04-03T1400,1733A,111.5552,36.0791,临汾市,临钢医院,颗粒物(PM10),263,394,104,70,45,114,114,84,84,6,19,4,11,0.3,0.9
2026-04-03T1400,1734A,111.4984,36.0734,临汾市,技工学校,颗粒物(PM10),185,319,91,79,56,107,107,76,76,3,16,4,10,0.3,0.8
2026-04-03T1400,1736A,111.5017,36.0857,临汾市,市委,颗粒物(PM10),212,358,105,63,45,114,114,78,78,4,17,4,10,0.2,0.8
2026-04-03T1400,3018A,111.5048,36.1015,临汾市,唐尧大酒店,颗粒物(PM10),260,392,118,69,46,109,109,73,73,5,18,4,10,0.3,0.8
2026-04-03T1400,4244A,111.4879,36.053,临汾市,启星学校,颗粒物(PM10),169,287,101,54,46,108,108,77,77,8,22,4,11,0.2,0.9
2026-04-03T1400,4271A,103.2464,35.6123,临夏回族自治州,滨河东路1号,颗粒物(PM10),105,131,138,33,44,124,124,92,89,6,20,8,9,0.2,0.3
2026-04-03T1400,4310A,103.207136,35.599807,临夏回族自治州,新华街21号,NA,NA,NA,131,NA,38,95,95,82,80,1,7,6,7,NA,0.7
2026-04-03T1400,1618A,118.3429,35.0532,临沂市,沂河小区,颗粒物(PM10),63,68,98,41,63,129,129,84,84,10,22,13,21,0.4,0.5
2026-04-03T1400,1619A,118.2962,35.0568,临沂市,鲁南制药厂,细颗粒物(PM2.5),52,51,91,36,64,138,138,92,92,11,25,17,25,0.4,0.6
2026-04-03T1400,1620A,118.2793,34.9976,临沂市,新光毛纺厂,,46,46,86,28,66,131,131,86,86,14,32,11,22,0.3,0.5
2026-04-03T1400,1621A,118.3955,35.0889,临沂市,河东保险公司,细颗粒物(PM2.5),68,73,94,44,66,144,144,92,92,7,24,15,17,0.4,0.5
2026-04-03T1400,3370A,118.3563,35.0215,临沂市,十里堡居委,细颗粒物(PM2.5),52,51,83,36,63,135,135,87,87,13,29,15,26,0.5,0.6
2026-04-03T1400,3496A,118.359,35.1067,临沂市,南坊新区,细颗粒物(PM2.5),68,56,84,44,67,134,134,88,88,12,25,14,18,0.4,0.5
2026-04-03T1400,3860A,118.3915,35.0297,临沂市,皇山花园小区,细颗粒物(PM2.5),58,56,92,39,69,137,137,91,91,16,31,14,19,0.5,0.7
2026-04-03T1400,1870A,109.4854,24.3898,柳州市,柳东小学,颗粒物(PM10),53,54,49,27,42,65,65,67,67,5,15,4,4,0.8,0.8
2026-04-03T1400,1871A,109.4109,24.3304,柳州市,环保监测站,颗粒物(PM10),73,82,57,36,48,62,62,55,55,10,24,6,4,0.8,1
2026-04-03T1400,1872A,109.3886,24.3408,柳州市,河西水厂,颗粒物(PM10),65,71,58,36,50,55,55,61,61,15,23,10,3,1.6,0.7
2026-04-03T1400,1873A,109.4263,24.2951,柳州市,市四中,细颗粒物(PM2.5),76,65,64,48,52,69,69,60,60,8,24,8,6,0.8,0.9
2026-04-03T1400,1874A,109.396,24.3658,柳州市,市九中,NA,NA,NA,54,25,43,49,49,48,48,7,18,9,7,0.7,0.8
2026-04-03T1400,1875A,109.4912,24.3164,柳州市,古亭山,颗粒物(PM10),77,87,57,35,48,82,82,57,57,7,22,6,6,0.7,0.9
2026-04-03T1400,3402A,109.5422,24.3994,柳州市,市二中,,41,41,56,20,45,57,57,51,51,8,20,7,7,0.7,0.8
2026-04-03T1400,2307A,116.5078,31.7369,六安市,监测大楼,,33,25,24,23,16,93,93,83,74,10,11,4,4,0.4,0.4
2026-04-03T1400,2308A,116.4738,31.7642,六安市,皖西学院,,33,32,22,23,16,98,98,90,78,6,9,5,5,0.3,0.3
2026-04-03T1400,2309A,116.4997,31.7904,六安市,朝阳厂,,40,35,24,28,16,96,96,87,78,12,13,6,6,0.3,0.3
2026-04-03T1400,2310A,116.5566,31.7885,六安市,开发区,,46,NA,20,32,19,99,99,89,80,13,14,6,5,0.4,0.4
2026-04-03T1400,2577A,104.8293,26.592,六盘水市,黄土坡,,33,19,36,3,21,103,103,80,80,6,12,5,8,0.2,0.4
2026-04-03T1400,2579A,104.8481,26.5898,六盘水市,民中,,30,22,33,9,20,93,93,76,76,10,12,7,5,0.8,0.6
2026-04-03T1400,2580A,104.9541,26.5506,六盘水市,双水,,32,NA,32,11,20,100,100,77,77,5,9,3,5,0.3,0.5
2026-04-03T1400,4151A,104.8899,26.5685,六盘水市,钟山大道中段564号,,31,27,41,9,22,97,97,73,73,4,10,2,8,0.3,0.8
2026-04-03T1400,2336A,117.022,25.1031,龙岩市,龙岩市监测站,,22,12,17,12,16,68,68,67,52,9,16,4,5,0.7,0.8
2026-04-03T1400,2337A,117.0257,25.0662,龙岩市,闽西职业技术学院,,21,NA,16,11,14,66,66,68,57,7,12,5,5,0.6,0.7
2026-04-03T1400,2338A,117.0195,25.0306,龙岩市,龙岩学院,,20,17,18,12,13,62,62,66,53,10,9,4,4,/,/
2026-04-03T1400,2885A,104.9344,33.3827,陇南市,滨江中学,颗粒物(PM10),140,224,70,66,23,102,102,72,72,6,11,8,8,0.5,0.5
2026-04-03T1400,3247A,104.9551,33.3709,陇南市,市总工会,颗粒物(PM10),150,248,55,73,19,106,106,71,71,7,10,7,7,0.4,0.7
2026-04-03T1400,2488A,111.9984,27.7346,娄底市,市监测站,,22,7,22,3,18,68,68,46,45,12,18,8,6,0.6,0.7
2026-04-03T1400,2491A,111.9888,27.7035,娄底市,市政府,,23,14,19,3,12,71,71,51,50,9,13,6,3,0.7,0.8
2026-04-03T1400,4127A,111.9812,27.7591,娄底市,涟钢职大,,24,20,19,3,14,74,74,52,52,8,12,2,1,1.8,0.8
2026-04-03T1400,4128A,112.0303,27.7457,娄底市,娄底体校,,16,13,28,3,19,51,51,38,38,6,8,4,3,0.7,0.8
2026-04-03T1400,1894A,105.4427,28.9063,泸州市,小市上码头,,31,11,23,6,18,97,97,58,58,6,12,5,6,0.6,0.6
2026-04-03T1400,1895A,105.4241,28.8573,泸州市,兰田宪桥,,29,12,26,3,14,91,91,54,54,6,12,7,7,0.6,0.7
2026-04-03T1400,1896A,105.4378,28.8833,泸州市,市环监站,,30,14,30,7,16,94,94,52,52,11,17,3,4,0.6,0.8
2026-04-03T1400,4272A,105.3689,28.7783,泸州市,纳溪中医医院,,31,26,33,11,27,97,97,56,56,7,12,8,7,0.6,0.7
2026-04-03T1400,2183A,111.1447,37.5212,吕梁市,环保局,颗粒物(PM10),374,479,155,26,38,90,90,74,74,5,32,6,8,0.2,0.7
2026-04-03T1400,2185A,111.1285,37.5338,吕梁市,自来水公司,颗粒物(PM10),347,457,165,32,40,90,90,83,83,6,26,6,8,0.3,0.6
2026-04-03T1400,2867A,111.1225,37.5093,吕梁市,马茂庄小学,颗粒物(PM10),407,507,165,30,36,89,89,76,76,6,36,3,6,0.2,0.4
2026-04-03T1400,1812A,112.3934,34.6517,洛阳市,市委党校,颗粒物(PM10),85,99,66,36,43,113,113,79,79,12,22,10,9,0.6,0.7
2026-04-03T1400,1815A,112.494,34.6883,洛阳市,河南林校,颗粒物(PM10),89,104,77,26,46,122,122,80,80,17,30,14,14,0.4,0.5
2026-04-03T1400,1816A,112.3843,34.623,洛阳市,开发区管委会,颗粒物(PM10),88,103,77,31,47,118,118,76,76,10,20,15,13,0.6,0.7
2026-04-03T1400,1817A,112.4263,34.6249,洛阳市,市委新办公区,颗粒物(PM10),83,96,77,33,57,123,123,82,82,11,21,12,10,0.4,0.5
2026-04-03T1400,3340A,112.6005,34.6323,洛阳市,伊滨,颗粒物(PM10),54,55,49,18,34,121,121,85,85,11,18,10,10,0.5,0.6
2026-04-03T1400,3341A,112.495,34.6338,洛阳市,中移产业园,颗粒物(PM10),89,104,76,24,43,119,119,78,78,15,24,13,13,0.6,0.7
2026-04-03T1400,3593A,112.5736,34.8993,洛阳市,吉利监测站,颗粒物(PM10),55,56,75,24,58,116,116,72,72,11,26,11,10,0.4,0.7
2026-04-03T1400,3635A,112.3678,34.6623,洛阳市,河科大西苑校区,颗粒物(PM10),101,121,75,34,53,122,122,84,84,9,22,12,10,0.4,0.5
2026-04-03T1400,3636A,112.4387,34.678,洛阳市,英才小学,颗粒物(PM10),106,135,102,31,57,119,119,76,76,12,31,13,13,0.7,0.8
2026-04-03T1400,4214A,112.460027,34.694929,洛阳市,春都路1号院,颗粒物(PM10),104,128,78,43,54,128,128,80,80,10,25,11,11,0.6,0.8
2026-04-03T1400,2399A,114.051,33.5721,漯河市,三五一五工厂,,39,24,38,18,26,122,122,111,111,10,16,4,5,0.2,0.3
2026-04-03T1400,2400A,114.0055,33.5698,漯河市,漯河大学,,39,17,28,17,26,122,122,108,108,6,12,6,6,0.4,0.5
2026-04-03T1400,2401A,114.0134,33.5826,漯河市,市水利局,,37,24,33,22,22,118,118,109,109,9,13,5,6,0.4,0.5
2026-04-03T1400,2402A,114.0261,33.5697,漯河市,市广电局,NA,NA,NA,31,20,25,125,125,110,110,6,12,5,6,0.4,0.5
2026-04-03T1400,3478A,113.9691,33.568,漯河市,市图书馆,,35,32,37,22,22,112,112,101,101,10,15,5,6,0.5,0.6
2026-04-03T1400,4250A,114.089259,33.588274,漯河市,韶山路11号,,38,38,40,9,25,120,120,110,110,8,14,5,6,0.4,0.5
2026-04-03T1400,1798A,118.5084,31.6838,马鞍山市,湖东路四小,,34,34,54,19,39,81,81,82,76,12,18,7,10,0.5,0.6
2026-04-03T1400,1799A,118.5019,31.6449,马鞍山市,开发区,,26,26,56,15,38,82,82,78,72,15,23,4,8,0.5,0.6
2026-04-03T1400,3633A,118.4914,31.681,马鞍山市,雨山,,26,26,52,13,27,80,80,86,77,14,20,7,10,0.5,0.6
2026-04-03T1400,4191A,118.527362,31.722269,马鞍山市,慈湖高新区,,27,27,62,18,38,72,72,83,75,17,22,7,9,0.3,0.4
2026-04-03T1400,1686A,111.0285,21.469,茂名市,电白南海,,41,41,38,22,20,70,70,61,61,7,6,5,5,0.7,0.8
2026-04-03T1400,1687A,110.9294,21.6533,茂名市,茂石化七小,,41,41,39,22,20,81,81,59,59,8,9,8,5,0.6,0.6
2026-04-03T1400,1688A,110.9108,21.6688,茂名市,健康路,,36,36,30,22,21,86,86,64,64,6,7,7,4,0.6,0.6
2026-04-03T1400,1689A,110.8592,21.6826,茂名市,高岭,颗粒物(PM10),86,100,44,24,23,90,90,66,66,7,8,6,3,/,/
2026-04-03T1400,3450A,111.0101,21.5165,茂名市,电白水东,,31,31,26,19,20,68,68,58,58,6,6,2,2,/,/
2026-04-03T1400,2540A,103.8414,30.0871,眉山市,气象局,,35,34,50,3,26,109,109,59,59,7,15,8,8,0.6,0.6
2026-04-03T1400,3148A,103.829,30.0563,眉山市,区人社局,,35,35,51,7,37,104,104,57,57,10,20,7,8,0.7,0.7
2026-04-03T1400,4148A,103.8836,30.0695,眉山市,眉职院,NA,NA,25,57,8,31,109,109,60,60,NA,18,9,7,0.6,0.7
2026-04-03T1400,1690A,116.1248,24.3307,梅州市,梅江月梅,,22,21,20,15,16,40,40,62,59,21,11,/,/,/,/
2026-04-03T1400,1691A,116.0798,24.2719,梅州市,梅县新城,,39,36,29,27,19,34,34,56,42,27,17,8,8,0.7,0.6
2026-04-03T1400,3315A,116.1234,24.2994,梅州市,梅龙,,29,24,25,20,18,42,42,67,61,21,12,6,9,0.9,0.9
2026-04-03T1400,1878A,104.7775,31.4741,绵阳市,富乐山,,46,46,32,21,17,100,100,34,34,13,19,7,7,0.6,0.6
2026-04-03T1400,1880A,104.6698,31.4668,绵阳市,高新区自来水公司,,36,36,37,17,19,100,100,36,36,7,23,9,9,0.5,0.6
2026-04-03T1400,3491A,104.6899,31.5324,绵阳市,西科大附属小学,,49,49,35,30,20,101,101,40,40,7,22,7,6,0.4,0.5
2026-04-03T1400,3492A,104.5647,31.5343,绵阳市,安州区旅游局,,31,27,39,17,17,98,98,40,40,6,13,8,7,0.4,0.4
2026-04-03T1400,4146A,104.7092,31.4972,绵阳市,科技城新区公安局,颗粒物(PM10),53,54,40,24,18,95,95,37,37,11,22,6,5,0.6,0.6
2026-04-03T1400,4226A,104.765114,31.453094,绵阳市,绵阳市气象局,,35,35,37,23,18,97,97,33,33,10,22,9,9,0.5,0.5
2026-04-03T1400,1784A,129.61,44.561,牡丹江市,环保大楼,细颗粒物(PM2.5),236,258,192,186,147,166,166,86,86,40,43,15,9,1.2,1.1
2026-04-03T1400,1787A,129.6364,44.6075,牡丹江市,机车工厂,细颗粒物(PM2.5),211,230,208,161,146,141,141,78,78,40,46,22,13,1.1,1.1
2026-04-03T1400,1788A,129.6386,44.5462,牡丹江市,第一中学,细颗粒物(PM2.5),209,237,145,159,115,153,153,82,82,37,41,15,9,1.1,0.8
2026-04-03T1400,4287A,129.5992,44.5964,牡丹江市,东晓云街98号,细颗粒物(PM2.5),209,242,187,159,140,154,154,82,82,30,31,16,10,1.1,1.1
2026-04-03T1400,2531A,105.0703,29.61,内江市,市监测站,,34,32,24,12,13,107,107,64,64,10,12,7,7,0.4,0.5
2026-04-03T1400,2533A,105.0657,29.5807,内江市,内江二中,,34,27,28,11,12,106,106,66,66,12,12,8,7,0.2,0.3
2026-04-03T1400,2534A,105.0407,29.5828,内江市,内江日报社,,35,15,24,12,12,112,112,68,68,7,11,6,6,0.4,0.4
2026-04-03T1400,4147A,105.0433,29.6105,内江市,玉峰路西段888号,,36,15,15,11,13,115,115,73,73,9,12,10,10,0.3,0.3
2026-04-03T1400,2628A,92.0653,31.4846,那曲市,那曲监测站,,35,14,41,6,27,111,111,66,66,4,18,4,8,0.6,0.9
2026-04-03T1400,4243A,92.0515,31.4787,那曲市,那曲市委宣传部,NA,NA,NA,19,NA,14,114,114,63,63,2,10,9,8,0.4,0.7
2026-04-03T1400,1291A,115.8887,28.7006,南昌市,省林业公司,,18,6,23,3,21,55,55,42,38,13,19,4,4,0.4,0.5
2026-04-03T1400,1292A,115.813,28.7443,南昌市,林科所,,20,NA,21,3,23,63,63,56,44,11,28,7,7,0.4,0.5
2026-04-03T1400,1294A,115.8518,28.687,南昌市,建工学校,,17,10,36,3,22,52,52,50,37,17,23,8,9,0.8,1
2026-04-03T1400,1295A,115.8926,28.6425,南昌市,象湖,,18,NA,22,3,24,56,56,38,35,13,21,7,8,0.8,1
2026-04-03T1400,3046A,115.9084,28.6062,南昌市,机电学校,,19,10,37,3,26,58,58,36,33,13,21,4,4,0.6,0.7
2026-04-03T1400,3690A,115.9718,28.7032,南昌市,外国语学校,,15,7,27,3,23,48,48,49,46,27,16,7,9,0.5,0.6
2026-04-03T1400,4106A,115.7923,28.6873,南昌市,工业二路,,16,15,38,3,23,51,51,47,34,18,25,4,5,0.7,0.9
2026-04-03T1400,4192A,115.931587,28.686774,南昌市,南京东路235号,,20,15,34,3,22,62,62,47,44,6,11,5,6,0.4,0.4
2026-04-03T1400,1906A,106.0791,30.8022,南充市,南充市委,,24,23,21,12,15,75,75,41,41,6,12,7,6,0.3,0.3
2026-04-03T1400,1907A,106.1038,30.8215,南充市,南充炼油厂,,34,34,27,12,14,72,72,41,41,6,10,4,4,0.1,0.2
2026-04-03T1400,4227A,106.108336,30.788436,南充市,梨树横街98号,,26,26,23,14,15,82,82,49,49,8,12,6,5,0.2,0.3
2026-04-03T1400,4304A,106.1172,30.843,南充市,清泉寺北路188号,,31,31,25,13,14,78,78,44,44,6,8,6,6,0.3,0.3
2026-04-03T1400,4305A,106.067,30.7616,南充市,同庆路1号,,28,28,20,12,14,81,81,44,44,6,14,6,6,0.2,0.4
2026-04-03T1400,1151A,118.8033,32.1085,南京市,迈皋桥,,29,26,49,14,34,90,90,103,77,23,24,5,6,0.7,0.6
2026-04-03T1400,1152A,118.7487,32.057,南京市,草场门,,26,24,53,9,34,83,83,98,70,22,27,9,10,0.3,0.4
2026-04-03T1400,1154A,118.770105,32.004342,南京市,中华门,,25,24,57,11,32,78,78,94,70,19,18,5,5,0.3,0.5
2026-04-03T1400,1155A,118.8059,32.0329,南京市,瑞金路,,29,29,62,16,38,77,77,89,68,4,6,5,4,0.8,0.9
2026-04-03T1400,1156A,118.7946,32.0774,南京市,玄武湖,,27,22,48,8,27,86,86,101,78,9,11,7,9,0.6,0.6
2026-04-03T1400,1157A,118.6415,32.0964,南京市,浦口,,29,29,54,13,36,70,70,75,59,23,22,4,5,0.4,0.8
2026-04-03T1400,1158A,118.730129,32.000956,南京市,奥体中心,,25,25,60,6,30,73,73,83,62,17,19,7,8,0.3,0.4
2026-04-03T1400,1159A,118.9072,32.1047,南京市,仙林大学城,,31,31,56,11,30,90,90,103,82,17,18,9,9,0.5,0.6
2026-04-03T1400,3422A,118.8443,31.919,南京市,江宁彩虹桥,,30,26,49,9,28,94,94,101,82,10,12,3,3,0.6,0.7
2026-04-03T1400,3427A,118.8497,32.3599,南京市,六合雄州,,31,31,58,20,50,83,83,80,60,27,32,4,4,0.7,0.8
2026-04-03T1400,4086A,118.7641,32.0841,南京市,新模范马路66号,,27,22,56,6,30,86,86,101,74,16,15,5,4,0.3,0.4
2026-04-03T1400,4249A,118.8707617,31.34017673,南京市,汶溪路181号,,28,14,40,8,25,88,88,96,89,12,18,3,7,0.2,0.4
2026-04-03T1400,4312A,119.019,31.6512,南京市,中山西路1号,,26,17,47,9,29,81,81,76,74,16,20,4,4,0.5,0.5
2026-04-03T1400,1401A,108.3098,22.788,南宁市,二十一中,"颗粒物(PM10),细颗粒物(PM2.5)",68,75,50,44,41,94,94,41,41,10,18,3,2,0.6,0.7
2026-04-03T1400,1402A,108.3135,22.8529,南宁市,北湖,细颗粒物(PM2.5),72,55,55,46,49,103,103,47,47,11,27,2,3,0.8,0.9
2026-04-03T1400,1403A,108.3205,22.8222,南宁市,市监测站,细颗粒物(PM2.5),66,64,50,43,38,110,110,49,49,10,17,3,3,0.7,0.8
2026-04-03T1400,1404A,108.3828,22.8038,南宁市,大自然花园,细颗粒物(PM2.5),58,58,46,39,38,115,115,53,53,9,14,6,6,0.4,0.5
2026-04-03T1400,1406A,108.2397,22.8462,南宁市,区农职院,NA,NA,71,55,40,38,101,101,46,46,6,26,8,5,NA,0.7
2026-04-03T1400,1407A,108.3285,22.7356,南宁市,英华嘉园,颗粒物(PM10),65,71,65,40,40,109,109,48,48,8,28,5,4,0.6,0.7
2026-04-03T1400,3401A,108.4829,22.762,南宁市,红星社区,颗粒物(PM10),52,52,51,35,35,127,127,55,55,7,18,6,5,0.6,0.7
2026-04-03T1400,4132A,108.2927,23.1477,南宁市,起凤路9号,细颗粒物(PM2.5),76,64,60,48,47,117,117,66,66,8,14,5,4,0.7,0.7
2026-04-03T1400,4221A,108.2177,22.7774,南宁市,乐贤路16号,细颗粒物(PM2.5),72,53,55,46,38,107,107,57,57,7,31,4,4,0.5,0.6
2026-04-03T1400,2332A,118.1682,26.6371,南平市,南平市监测站,,24,12,18,6,10,74,74,100,81,8,8,3,3,0.4,0.3
2026-04-03T1400,2334A,118.1757,26.6276,南平市,南平七中,,20,14,14,9,10,63,63,95,81,11,7,2,2,0.6,0.5
2026-04-03T1400,1168A,120.9056,31.9669,南通市,狼山街道,,38,20,61,13,38,120,120,113,113,18,30,2,5,0.4,0.5
2026-04-03T1400,1170A,120.8635,32.0231,南通市,城中,,36,24,69,12,39,114,114,108,108,14,22,3,5,0.5,0.6
2026-04-03T1400,1171A,120.9376,31.9301,南通市,星湖花园,,36,20,63,18,40,115,115,108,108,16,27,3,5,0.5,0.7
2026-04-03T1400,1172A,120.8053,32.046,南通市,紫琅学院,,37,NA,55,11,35,116,116,112,112,20,28,4,6,0.8,0.8
2026-04-03T1400,3291A,121.0631,32.0644,南通市,通州监测站,,37,17,59,13,44,118,118,114,114,9,16,4,4,0.6,0.6
2026-04-03T1400,3432A,120.9348,31.9874,南通市,环境教育馆,,36,22,61,17,42,114,114,110,110,15,23,4,6,0.5,0.6
2026-04-03T1400,4091A,120.8692,31.9885,南通市,洪江路,,36,24,61,14,39,114,114,105,105,19,31,4,6,0.8,0.8
2026-04-03T1400,2404A,112.5338,33.0086,南阳市,瓦房庄,,34,31,41,3,17,106,106,80,80,5,12,4,5,0.4,0.6
2026-04-03T1400,2405A,112.5002,32.9734,南阳市,汉画馆,,32,31,43,3,23,102,102,75,75,7,15,6,6,0.5,0.6
2026-04-03T1400,2406A,112.5778,33.0144,南阳市,气象站,,35,30,38,10,21,110,110,86,86,8,15,6,5,0.3,0.4
2026-04-03T1400,2407A,112.548,32.9687,南阳市,理工学院,,33,32,45,3,26,104,104,77,77,5,15,5,6,0.4,0.5
2026-04-03T1400,4008A,112.5233,32.9921,南阳市,卧龙区政府,,32,12,37,12,23,101,101,75,75,6,14,6,7,0.4,0.6
2026-04-03T1400,1234A,121.8352,29.9111,宁波市,区环保大楼,,35,11,42,6,25,109,109,140,121,20,20,5,6,0.3,0.3
2026-04-03T1400,1235A,121.5595,29.8208,宁波市,万里学院,,33,12,35,3,23,104,104,134,123,12,12,6,6,0.6,0.6
2026-04-03T1400,1236A,121.713,29.9564,宁波市,龙赛医院,,34,6,38,3,22,108,108,142,121,14,14,5,5,0.5,0.5
2026-04-03T1400,1240A,121.5855,29.8635,宁波市,太古小学,,33,7,37,3,22,104,104,131,117,15,14,3,3,0.5,0.5
2026-04-03T1400,1241A,121.5239,29.8673,宁波市,市环境监测中心,,30,19,40,3,24,94,94,125,110,20,16,4,5,0.6,0.5
2026-04-03T1400,2871A,121.6156,29.9015,宁波市,万里国际学校,,36,6,36,3,22,115,115,147,129,17,13,4,4,0.5,0.5
2026-04-03T1400,3710A,121.5593,29.8976,宁波市,白沙活动中心,,32,16,33,3,22,102,102,127,116,18,16,4,4,0.5,0.5
2026-04-03T1400,4095A,121.8962,29.7529,宁波市,中科路88号,,40,10,37,3,26,126,126,129,126,8,12,6,6,0.4,0.4
2026-04-03T1400,2341A,119.5387,26.6611,宁德市,宁德市监测站,,32,NA,19,22,15,65,65,84,69,29,20,5,5,0.7,0.5
2026-04-03T1400,3209A,119.5231,26.6562,宁德市,宁德一中,,29,20,21,20,18,78,78,88,74,22,14,4,5,0.5,0.4
2026-04-03T1400,2618A,98.859,25.8541,怒江傈僳族自治州,州监测站,,21,18,18,3,7,65,65,68,62,2,2,7,7,0.1,0.1
2026-04-03T1400,2619A,98.8607,25.8168,怒江傈僳族自治州,泸水一中,,20,16,10,7,8,62,62,66,54,10,10,5,5,0.3,0.3
2026-04-03T1400,1888A,101.6891,26.571,攀枝花市,弄弄坪,,40,19,33,9,14,125,125,77,77,9,19,9,17,1.1,1.4
2026-04-03T1400,1889A,101.577,26.5914,攀枝花市,河门口,NA,NA,24,36,NA,14,108,108,69,69,5,13,6,10,0.5,0.6
2026-04-03T1400,1891A,101.7365,26.4986,攀枝花市,仁和,,46,16,26,12,16,146,146,82,82,9,11,16,7,1.1,0.6
2026-04-03T1400,2835A,101.7222,26.567,攀枝花市,四十中小,,47,26,26,10,11,149,149,NA,NA,13,17,24,13,1.7,1.1
2026-04-03T1400,1604A,122.0303,41.1489,盘锦市,开发区,细颗粒物(PM2.5),108,80,61,68,53,143,143,114,114,13,14,10,9,0.5,0.4
2026-04-03T1400,1605A,122.0486,41.0883,盘锦市,兴隆台,细颗粒物(PM2.5),104,67,57,64,52,141,141,112,112,16,21,7,6,0.6,0.5
2026-04-03T1400,1606A,121.8297,41.1026,盘锦市,新生街道,细颗粒物(PM2.5),94,57,53,57,52,137,137,108,108,13,17,5,7,0.6,0.5
2026-04-03T1400,1832A,113.3257,33.7423,平顶山市,新华旅馆,,38,37,49,10,21,121,121,92,92,5,13,4,4,0.2,0.3
2026-04-03T1400,1833A,113.2917,33.737,平顶山市,规划设计院,,37,22,36,10,19,116,116,93,93,5,10,5,5,0.4,0.5
2026-04-03T1400,1834A,113.182,33.7738,平顶山市,平顶山工学院,,39,NA,28,21,22,123,123,95,95,5,10,7,6,0.2,0.3
2026-04-03T1400,3594A,112.8736,33.9068,平顶山市,石龙区,,40,32,48,11,21,126,126,91,91,11,18,8,7,0.4,0.5
2026-04-03T1400,4116A,113.284,33.7139,平顶山市,姚电大道23号,,38,21,41,10,24,120,120,91,91,8,15,5,5,0.3,0.4
2026-04-03T1400,2656A,106.6633,35.5338,平凉市,聚贤嘉苑,颗粒物(PM10),129,194,145,42,42,113,113,105,105,24,22,6,6,0.2,0.4
2026-04-03T1400,2657A,106.7021,35.5307,平凉市,博物馆,颗粒物(PM10),127,190,142,37,41,110,110,99,99,4,14,8,9,0.2,0.4
2026-04-03T1400,2348A,113.8384,27.6436,萍乡市,中医院,,24,13,19,7,11,75,75,52,49,10,13,6,4,0.6,0.9
2026-04-03T1400,2350A,113.8677,27.6438,萍乡市,市环保局,,24,18,14,10,13,75,75,54,42,4,9,7,6,0.7,0.9
2026-04-03T1400,2351A,113.8663,27.6202,萍乡市,安源区政府,,19,13,17,6,15,60,60,43,36,8,13,5,5,0.6,0.7
2026-04-03T1400,4107A,113.8686,27.6668,萍乡市,联洪村委会,,19,10,17,3,10,58,58,50,36,8,8,2,1,0.1,0.2
2026-04-03T1400,2319A,119.0142,25.4324,莆田市,荔城区仓后路,,24,20,20,15,11,75,75,91,70,14,12,/,/,/,/
2026-04-03T1400,2320A,119.0016,25.4553,莆田市,莆田市监测站,,20,20,15,3,3,50,50,99,64,22,9,3,2,0.6,0.5
2026-04-03T1400,2321A,119.112,25.4561,莆田市,涵江区六中,,24,18,17,13,10,76,76,90,76,15,12,/,/,0.6,0.5
2026-04-03T1400,2322A,119.1014,25.3215,莆田市,秀屿区政府,,27,18,21,17,15,84,84,99,78,14,10,3,3,0.7,0.6
2026-04-03T1400,2392A,115.0312,35.7636,濮阳市,环保局,,49,49,46,7,23,123,123,92,92,7,13,3,4,0.4,0.5
2026-04-03T1400,3021A,115,35.7667,濮阳市,濮水河管理处,颗粒物(PM10),54,55,60,15,26,135,135,92,92,16,19,2,3,0.3,0.4
2026-04-03T1400,4118A,115.0552,35.7816,濮阳市,中原东路68号,颗粒物(PM10),54,55,62,10,23,128,128,92,92,8,12,3,3,0.4,0.5
2026-04-03T1400,4216A,115.0923632,35.76857718,濮阳市,任丘路479号,,45,45,62,3,28,126,126,84,84,10,12,3,4,0.2,0.5
2026-04-03T1400,2601A,100.9801,22.7634,普洱市,市环保局,颗粒物(PM10),79,90,92,38,49,147,147,95,95,7,12,8,7,0.7,0.7
2026-04-03T1400,2602A,100.9763,22.8237,普洱市,普洱第二中学,颗粒物(PM10),78,89,85,40,50,139,139,85,85,6,20,6,6,0.5,0.7
2026-04-03T1400,3345A,131.0413,45.7795,七台河市,中波台,细颗粒物(PM2.5),152,165,165,116,123,103,103,90,90,16,27,7,9,NA,0.7
2026-04-03T1400,3637A,131.0136,45.7688,七台河市,人民广场,细颗粒物(PM2.5),133,143,171,96,115,104,104,90,90,22,29,11,12,0.8,0.8
2026-04-03T1400,3684A,130.8639,45.8144,七台河市,新建矿广场,细颗粒物(PM2.5),143,136,170,107,127,103,103,82,82,23,34,13,13,0.7,0.7
2026-04-03T1400,1779A,123.9307,47.3641,齐齐哈尔市,安居小区,细颗粒物(PM2.5),52,46,70,36,52,94,94,66,66,10,18,10,9,0.4,0.6
2026-04-03T1400,1780A,123.9497,47.3389,齐齐哈尔市,中心广场,细颗粒物(PM2.5),54,54,80,37,52,89,89,66,66,10,19,3,5,0.5,0.7
2026-04-03T1400,1781A,123.9483,47.3229,齐齐哈尔市,农牧车辆厂,,45,41,71,31,52,93,93,67,67,6,15,7,8,0.1,0.3
2026-04-03T1400,1783A,123.9442,47.2994,齐齐哈尔市,市环境监测站,,46,35,68,32,50,89,89,67,67,9,16,3,4,0.3,0.5
2026-04-03T1400,3662A,123.6341,47.2079,齐齐哈尔市,富区青少年活动中心,细颗粒物(PM2.5),117,NA,86,78,65,93,93,60,60,8,15,4,6,0.4,0.5
2026-04-03T1400,2591A,107.9765,26.5724,黔东南苗族侗族自治州,市环境监测站,,32,26,33,22,22,76,76,43,43,8,9,3,3,0.5,0.6
2026-04-03T1400,2881A,107.8909,26.531,黔东南苗族侗族自治州,凯里学院,,33,24,32,23,21,87,87,47,47,4,9,2,3,0.5,0.6
2026-04-03T1400,2593A,107.5223,26.2371,黔南布依族苗族自治州,小围寨,NA,NA,17,24,12,20,93,93,49,49,4,6,4,5,NA,0.6
2026-04-03T1400,3538A,107.5175,26.2977,黔南布依族苗族自治州,沙坝,,25,24,30,11,23,78,78,46,46,5,7,4,4,0.7,0.9
2026-04-03T1400,2589A,104.9022,25.0943,黔西南布依族苗族自治州,场坝街,,42,28,36,27,24,134,134,87,87,9,9,15,13,0.6,0.5
2026-04-03T1400,2590A,104.8812,25.0994,黔西南布依族苗族自治州,坪东大道,,48,35,30,33,26,137,137,82,82,9,14,7,5,0.4,0.4
2026-04-03T1400,2502A,108.6238,21.9667,钦州市,市环保站,,44,44,44,22,26,75,75,66,66,3,10,3,4,0.4,0.5
2026-04-03T1400,2503A,108.655,21.9481,钦州市,沙埠小学,颗粒物(PM10),60,63,49,21,30,80,80,72,72,4,9,5,5,0.6,0.6
2026-04-03T1400,2504A,108.5989,21.7435,钦州市,港区一小,颗粒物(PM10),60,64,54,27,31,69,69,62,62,7,15,3,3,0.4,0.8
2026-04-03T1400,3404A,108.5959,21.9634,钦州市,北职校,,45,45,44,23,29,76,76,68,68,3,9,6,6,0.4,0.6
2026-04-03T1400,1046A,119.5247,39.9346,秦皇岛市,建设大厦,细颗粒物(PM2.5),125,113,119,87,68,124,124,77,77,19,45,9,13,0.9,0.9
2026-04-03T1400,3132A,119.5979,39.938,秦皇岛市,文明里,细颗粒物(PM2.5),130,125,116,92,65,108,108,80,80,NA,49,11,14,0.8,0.7
2026-04-03T1400,4066A,119.7458,39.9952,秦皇岛市,南园路157号,细颗粒物(PM2.5),140,109,103,104,70,113,113,83,83,28,41,10,12,0.8,0.7
2026-04-03T1400,4067A,119.5131,39.8858,秦皇岛市,翠岛大街1号,细颗粒物(PM2.5),130,121,105,93,70,114,114,79,79,31,43,12,14,0.8,0.8
2026-04-03T1400,4198A,119.509013,39.825305,秦皇岛市,北戴河轮滑馆,细颗粒物(PM2.5),134,146,104,97,62,133,133,90,90,22,28,9,9,0.8,0.5
2026-04-03T1400,1310A,120.404,36.0625,青岛市,市南区东部子站,颗粒物(PM10),56,58,79,35,60,124,124,127,127,2,5,10,10,0.4,0.6
2026-04-03T1400,1311A,120.362344,36.10282,青岛市,四方区子站,颗粒物(PM10),56,58,82,36,64,137,137,136,136,11,15,6,7,0.7,0.9
2026-04-03T1400,1312A,120.294373,36.054183,青岛市,市南区西部子站,颗粒物(PM10),51,51,72,34,58,120,120,117,117,10,18,4,4,0.6,0.8
2026-04-03T1400,1313A,120.4581,36.0858,青岛市,崂山区子站,颗粒物(PM10),55,56,73,32,53,136,136,139,139,13,16,8,8,0.6,0.7
2026-04-03T1400,1315A,120.3945,36.3083,青岛市,城阳区子站,NA,NA,90,85,56,56,142,142,134,134,NA,15,8,7,0.8,0.8
2026-04-03T1400,3642A,120.3454,36.0735,青岛市,市北区南部,,43,38,71,28,55,137,137,139,139,2,7,2,3,0.6,0.7
2026-04-03T1400,3643A,120.3897,36.18,青岛市,李沧区北部,细颗粒物(PM2.5),68,73,85,44,62,121,121,120,120,14,18,10,10,0.5,0.7
2026-04-03T1400,4110A,120.5222,36.4089,青岛市,盟旺路653号,NA,NA,60,70,38,45,150,150,146,146,NA,6,5,5,0.7,0.9
2026-04-03T1400,4290A,120.196923,35.954556,青岛市,珠江路669号,颗粒物(PM10),63,68,86,28,55,129,129,127,127,15,16,5,5,0.6,0.7
2026-04-03T1400,4291A,120.0424,35.8656,青岛市,黄岛区人民政府广场,,46,46,72,22,47,132,132,129,129,10,15,9,8,0.6,0.7
2026-04-03T1400,1703A,113.0218,23.7086,清远市,凤城街办,NA,NA,57,46,51,37,NA,NA,27,24,41,39,/,/,/,/
2026-04-03T1400,3025A,113.0479,23.6343,清远市,技师学院,,45,45,45,30,28,47,47,37,34,21,31,5,4,0.5,0.6
2026-04-03T1400,3318A,112.9898,23.7403,清远市,清新太和,细颗粒物(PM2.5),56,49,44,38,32,40,40,41,37,21,28,8,6,0.7,0.7
2026-04-03T1400,3455A,113.076,23.72,清远市,清城东城,细颗粒物(PM2.5),62,57,51,41,33,30,30,37,28,24,31,/,/,/,/
2026-04-03T1400,2661A,107.6325,35.7357,庆阳市,庆阳五中,颗粒物(PM10),202,351,132,62,30,106,106,81,76,4,13,2,2,0.1,0.3
2026-04-03T1400,2662A,107.6361,35.7067,庆阳市,市环保局,颗粒物(PM10),178,305,124,51,30,103,103,95,95,6,14,2,4,0.2,0.3
2026-04-03T1400,1916A,103.7897,25.5036,曲靖市,环境监测站,,43,23,36,3,14,135,135,116,116,10,8,6,6,0.5,0.5
2026-04-03T1400,1917A,103.8013,25.5357,曲靖市,烟厂办公区,,34,22,33,6,13,108,108,90,90,9,8,11,12,0.5,0.5
2026-04-03T1400,3376A,103.7926,25.4651,曲靖市,南苑二区,,36,20,28,10,13,114,114,95,95,10,9,4,4,0.5,0.5
2026-04-03T1400,3377A,103.7442,25.5259,曲靖市,曲靖师范学院,,37,9,29,8,16,117,117,101,101,11,7,3,4,0.5,0.5
2026-04-03T1400,1264A,118.8694,28.94,衢州市,环保大楼,,26,24,34,18,23,81,81,80,80,16,22,/,/,/,/
2026-04-03T1400,1266A,118.8622,28.9809,衢州市,衢州学院,,29,20,31,15,20,90,90,76,76,9,20,3,3,0.4,0.5
2026-04-03T1400,4097A,118.9646,28.9832,衢州市,衢州三中,,26,24,34,17,21,82,82,78,78,17,26,6,6,0.4,0.5
2026-04-03T1400,1611A,118.5818,24.9116,泉州市,涂山街,,22,NA,16,15,11,60,60,83,64,21,13,3,3,0.7,0.6
2026-04-03T1400,1612A,118.597,24.8976,泉州市,津头埔,,26,NA,18,18,14,62,62,88,67,21,14,2,2,0.6,0.5
2026-04-03T1400,1613A,118.6669,24.9422,泉州市,万安,,20,NA,19,14,12,55,55,80,55,20,16,3,3,0.6,0.5
2026-04-03T1400,4105A,118.6355,24.9148,泉州市,霞新路6号,,23,19,18,16,13,58,58,80,60,22,13,/,/,0.5,0.4
2026-04-03T1400,2626A,88.8873,29.2723,日喀则市,日喀则监测站,,30,7,15,3,5,93,93,68,63,3,9,9,9,0.3,0.3
2026-04-03T1400,3726A,88.8775,29.2425,日喀则市,林业技术推广中心,,29,6,16,3,3,91,91,73,71,3,5,6,5,0.3,0.3
2026-04-03T1400,1659A,119.4711,35.421,日照市,监测站,细颗粒物(PM2.5),125,144,105,87,73,111,111,96,96,40,37,12,11,0.8,0.8
2026-04-03T1400,1660A,119.523,35.4216,日照市,市政府广场,细颗粒物(PM2.5),117,114,111,78,73,116,116,104,104,28,39,9,9,0.9,0.8
2026-04-03T1400,1661A,119.5511,35.4113,日照市,港务局,细颗粒物(PM2.5),107,107,104,67,67,114,114,117,117,29,37,7,6,0.8,0.8
2026-04-03T1400,3507A,119.5326,35.4627,日照市,职业技术学院,细颗粒物(PM2.5),116,114,102,77,68,123,123,116,116,28,31,9,9,0.9,0.9
2026-04-03T1400,3604A,119.3267,35.1043,日照市,岚山环保分局,细颗粒物(PM2.5),143,149,105,107,73,110,110,92,92,43,31,14,12,1.0,0.8
2026-04-03T1400,1835A,111.1922,34.7752,三门峡市,市政府,颗粒物(PM10),107,136,62,39,41,120,120,56,56,9,22,10,12,0.4,0.5
2026-04-03T1400,1836A,111.1588,34.794,三门峡市,开发区,细颗粒物(PM2.5),82,82,81,51,58,123,123,60,60,10,21,11,12,0.4,0.6
2026-04-03T1400,3039A,111.1911,34.7829,三门峡市,三门峡市第一小学,颗粒物(PM10),126,186,71,42,48,123,123,61,61,10,21,13,15,0.4,0.6
2026-04-03T1400,3598A,111.1031,34.719,三门峡市,富达温泉假日酒店,颗粒物(PM10),123,179,67,28,35,123,123,66,66,12,19,16,16,0.3,0.3
2026-04-03T1400,2324A,117.621,26.2626,三明市,三钢,,45,NA,13,31,12,38,38,77,62,37,14,18,6,3.1,0.6
2026-04-03T1400,2325A,117.6352,26.2714,三明市,三明二中,颗粒物(PM10),55,56,15,23,12,43,43,75,62,31,12,8,4,2.4,0.7
2026-04-03T1400,2326A,117.6028,26.2377,三明市,三元区政府,,43,43,16,25,14,40,40,76,60,35,14,14,7,2.6,1.1
2026-04-03T1400,1877A,109.4962,18.2682,三亚市,河西子站,,23,16,28,15,20,71,71,63,63,1,4,4,4,0.5,0.5
2026-04-03T1400,3540A,109.7348,18.3443,三亚市,君悦子站,,23,NA,27,16,21,72,72,57,57,4,8,4,4,0.5,0.5
2026-04-03T1400,4135A,109.1714,18.3739,三亚市,城东小学站,,32,32,34,14,23,72,72,64,64,6,6,/,/,/,/
2026-04-03T1400,2624A,91.7592,29.234,山南市,山南监测站,,31,11,28,3,5,98,98,85,85,2,2,9,8,0.3,0.3
2026-04-03T1400,2625A,91.7701,29.2436,山南市,山南人民医院,,32,14,35,3,6,100,100,87,87,2,4,11,9,0.2,0.2
2026-04-03T1400,1674A,116.6795,23.3666,汕头市,金平子站,,48,48,25,24,17,86,86,104,86,26,17,5,5,0.7,0.6
2026-04-03T1400,1675A,116.7248,23.3632,汕头市,龙湖子站,,44,44,24,21,17,88,88,99,84,19,14,5,5,/,/
2026-04-03T1400,1676A,116.7257,23.2774,汕头市,濠江子站,,42,42,24,22,15,82,82,96,82,20,13,8,7,/,/
2026-04-03T1400,1677A,116.7518,23.4712,汕头市,澄海子站,,47,47,25,29,17,78,78,96,77,18,13,7,7,0.7,0.6
2026-04-03T1400,1678A,116.6088,23.2539,汕头市,潮阳子站,细颗粒物(PM2.5),56,57,25,38,19,75,75,101,80,21,9,6,5,0.7,0.5
2026-04-03T1400,3444A,116.4539,23.2684,汕头市,潮南峡山,细颗粒物(PM2.5),66,64,37,43,21,70,70,102,80,19,12,5,6,0.7,0.6
2026-04-03T1400,3624A,116.4069,23.2533,汕头市,潮南子站,细颗粒物(PM2.5),76,84,44,48,23,61,61,92,72,22,13,5,6,/,/
2026-04-03T1400,1693A,115.3653,22.7751,汕尾市,市环保局,颗粒物(PM10),55,56,34,17,19,93,93,98,92,6,10,5,5,0.5,0.5
2026-04-03T1400,1695A,115.362,22.7926,汕尾市,新城中学,NA,NA,NA,29,17,18,NA,NA,92,86,10,10,6,6,NA,0.6
2026-04-03T1400,2645A,109.9155,33.8714,商洛市,监测站,颗粒物(PM10),91,107,36,46,17,117,117,70,70,7,13,6,9,0.4,0.5
2026-04-03T1400,3045A,109.9647,33.8486,商洛市,商州区中学,颗粒物(PM10),145,237,55,44,17,121,121,72,72,5,15,4,7,0.3,0.4
2026-04-03T1400,2408A,115.6701,34.4283,商丘市,环境监测站,,37,35,62,16,44,118,118,90,90,3,9,4,4,0.4,0.5
2026-04-03T1400,2409A,115.6458,34.4047,商丘市,粮食局,,44,44,56,19,46,117,117,86,86,8,16,4,4,0.3,0.5
2026-04-03T1400,3171A,115.6069,34.4465,商丘市,梁园区档案局,,39,33,53,13,43,122,122,89,89,5,12,4,4,0.3,0.4
2026-04-03T1400,4119A,115.6701,34.3767,商丘市,北海东路185号,,37,21,72,20,41,118,118,79,79,2,16,5,5,0.3,0.5
2026-04-03T1400,4120A,115.6172,34.3704,商丘市,中山大街3号,,36,27,67,16,43,115,115,73,73,6,18,4,5,0.3,0.5
2026-04-03T1400,1141A,121.401,31.2382,上海市,普陀,,32,16,52,12,38,102,102,133,122,28,23,5,6,0.6,0.6
2026-04-03T1400,1142A,121.4774,31.2043,上海市,十五厂,,31,18,52,16,38,99,99,134,119,24,22,5,6,0.7,0.6
2026-04-03T1400,1143A,121.4673,31.3011,上海市,虹口,NA,NA,18,49,15,37,55,55,74,70,15,15,NA,NA,0.5,0.5
2026-04-03T1400,1147A,121.4253,31.226,上海市,静安监测站,,33,14,44,12,32,104,104,136,124,31,26,7,8,0.7,0.6
2026-04-03T1400,1148A,121.7029,31.1905,上海市,浦东川沙,,35,16,60,13,39,110,110,136,122,20,25,6,7,0.6,0.7
2026-04-03T1400,1149A,121.5339,31.229,上海市,浦东新区监测站,,32,16,52,13,33,100,100,130,115,22,21,5,6,0.5,0.5
2026-04-03T1400,1150A,121.5776,31.2038,上海市,浦东张江,,36,14,52,12,36,114,114,144,128,24,23,6,7,0.4,0.3
2026-04-03T1400,3265A,121.4242,31.3303,上海市,宝山庙行,,33,19,58,3,35,103,103,133,121,22,21,5,6,0.6,0.7
2026-04-03T1400,3266A,121.8789,31.4662,上海市,崇明上实东滩,,40,23,49,18,36,125,125,129,125,16,28,8,9,0.3,0.4
2026-04-03T1400,3268A,121.316,31.2839,上海市,嘉定南翔,,29,14,42,13,32,92,92,119,110,22,19,4,5,0.5,0.6
2026-04-03T1400,3269A,121.3357,30.7455,上海市,金山新城,,34,20,45,17,32,108,108,131,125,19,16,4,5,0.6,0.7
2026-04-03T1400,3270A,121.4996,31.0741,上海市,闵行浦江,,36,12,50,11,38,114,114,136,120,13,19,6,7,0.4,0.4
