timepoint,stationcode,longitude,latitude,area,positionname,primarypollutant,aqi,pm10,pm10_24h,pm2_5,pm2_5_24h,o3,o3_24h,o3_8h,o3_8h_24h,no2,no2_24h,so2,so2_24h,co,co_24h
2026-04-03T1600,2568A,102.2503,31.8896,阿坝藏族羌族自治州,马师校,,34,29,23,9,8,107,107,86,86,6,5,5,5,0.2,0.2
2026-04-03T1600,3994A,102.2174,31.9016,阿坝藏族羌族自治州,马尔康中学西区,,33,31,22,10,8,104,104,86,86,5,6,3,3,0.2,0.2
2026-04-03T1600,2695A,80.2899,41.1684,阿克苏地区,电视台,颗粒物(PM10),91,107,111,43,41,116,116,81,81,4,24,3,4,0.3,0.5
2026-04-03T1600,2696A,80.2592,41.1541,阿克苏地区,艺术中心,颗粒物(PM10),80,91,121,36,42,120,120,83,83,4,39,4,5,0.2,0.6
2026-04-03T1600,2205A,105.699,38.8409,阿拉善盟,蒙二幼,颗粒物(PM10),69,76,364,33,81,100,100,103,89,7,7,8,8,0.5,0.5
2026-04-03T1600,2206A,105.7198,38.8508,阿拉善盟,环保局新楼,颗粒物(PM10),71,79,298,36,84,94,94,99,86,4,4,8,8,0.4,0.5
2026-04-03T1600,2708A,88.1266,47.8515,阿勒泰地区,市站,NA,NA,NA,12,NA,3,NA,NA,108,103,6,5,5,5,0.1,0.3
2026-04-03T1600,4166A,88.1198,47.7931,阿勒泰地区,阿勒泰路33号,,33,10,16,3,2,103,103,101,94,4,6,6,5,0.3,0.3
2026-04-03T1600,2630A,80.1171,32.4999,阿里地区,阿里监测站,,30,6,13,3,4,94,94,74,74,2,6,5,6,0.4,0.4
2026-04-03T1600,3192A,80.0906,32.5029,阿里地区,阿里藏医院,,31,6,11,3,3,97,97,75,75,1,4,6,8,0.2,0.3
2026-04-03T1600,2644A,109.0088,32.6974,安康市,汉滨区检察院,,46,46,44,20,25,101,101,58,58,7,18,5,5,0.5,0.6
2026-04-03T1600,4054A,109.0324,32.6913,安康市,市邮政管理局,,47,47,53,23,28,97,97,60,60,14,22,4,7,0.5,0.7
2026-04-03T1600,2291A,117.0806,30.5181,安庆市,环科院,,28,26,44,19,27,55,55,62,62,20,39,5,6,0.5,0.5
2026-04-03T1600,2292A,117.0331,30.5118,安庆市,马山宾馆,,32,NA,33,22,26,21,21,47,44,51,39,4,6,0.5,0.6
2026-04-03T1600,2294A,116.9897,30.6146,安庆市,安庆大学,,32,30,37,22,23,57,57,56,54,14,19,5,4,0.6,0.7
2026-04-03T1600,3173A,117.0598,30.5351,安庆市,市人大,NA,NA,24,36,21,25,29,29,61,56,48,31,6,8,NA,0.6
2026-04-03T1600,3123A,105.9408,26.2431,安顺市,凤凰山,,37,NA,32,14,26,117,117,99,99,6,10,6,7,0.5,0.5
2026-04-03T1600,3124A,105.9443,26.2567,安顺市,金钟山,,33,NA,32,13,25,105,105,90,90,4,9,8,8,0.5,0.6
2026-04-03T1600,3125A,105.8983,26.248,安顺市,娄家坡,,34,15,32,8,26,108,108,94,94,5,8,14,15,0.5,0.6
2026-04-03T1600,1819A,114.3552,36.1017,安阳市,红庙街,颗粒物(PM10),75,85,59,32,33,127,127,105,105,11,16,6,5,0.2,0.3
2026-04-03T1600,1820A,114.361,36.0681,安阳市,银杏小区,颗粒物(PM10),73,82,64,28,37,126,126,107,107,14,18,6,6,0.3,0.4
2026-04-03T1600,3141A,114.3921,36.0879,安阳市,信访局,颗粒物(PM10),70,78,59,36,34,129,129,114,114,10,12,4,3,0.4,0.5
2026-04-03T1600,3669A,114.4706,36.0634,安阳市,左辅环卫站,颗粒物(PM10),62,66,64,29,35,120,120,101,101,4,8,6,5,0.4,0.4
2026-04-03T1600,4117A,114.2918,36.0769,安阳市,钢三路198号,颗粒物(PM10),63,68,55,38,34,117,117,103,103,9,13,4,4,0.4,0.5
2026-04-03T1600,1748A,123.0441,41.1201,鞍山市,深沟寺,细颗粒物(PM2.5),70,76,87,45,47,138,138,128,128,12,18,9,12,0.7,0.8
2026-04-03T1600,1749A,123.011,41.0931,鞍山市,太阳城,细颗粒物(PM2.5),86,73,94,53,60,133,133,126,126,9,17,6,10,0.7,0.8
2026-04-03T1600,1750A,123.0483,41.1445,鞍山市,太平,NA,NA,85,91,46,48,189,189,114,114,11,18,8,11,NA,1.1
2026-04-03T1600,1751A,122.964,41.0968,鞍山市,铁西三道街,细颗粒物(PM2.5),94,94,103,57,61,128,128,123,123,22,29,6,11,0.8,1
2026-04-03T1600,1753A,123.0219,41.0822,鞍山市,明达新区,细颗粒物(PM2.5),74,74,90,47,54,133,133,125,125,11,17,7,11,0.7,0.9
2026-04-03T1600,4201A,122.944647,41.082639,鞍山市,兴盛南路290号,细颗粒物(PM2.5),90,102,110,55,62,135,135,127,127,14,24,7,13,0.9,1
2026-04-03T1600,2195A,107.4206,40.7609,巴彦淖尔市,附二中,,35,33,381,3,93,112,112,97,97,4,4,12,10,0.3,0.3
2026-04-03T1600,2196A,107.37,40.7372,巴彦淖尔市,市环保大楼,,36,27,356,7,104,114,114,99,99,4,5,8,6,0.3,0.3
2026-04-03T1600,1956A,86.1476,41.7529,巴音郭楞蒙古自治州,孔雀公园,颗粒物(PM10),82,94,78,23,29,119,119,91,91,3,28,10,11,0.2,0.4
2026-04-03T1600,1957A,86.1971,41.7166,巴音郭楞蒙古自治州,棉纺厂,颗粒物(PM10),95,112,105,27,27,121,121,82,82,1,25,/,/,/,/
2026-04-03T1600,1958A,86.236,41.7172,巴音郭楞蒙古自治州,经济开发区,颗粒物(PM10),74,83,67,32,19,110,110,88,88,3,13,8,8,0.2,0.3
2026-04-03T1600,3181A,106.776805,31.852614,巴中市,市五中,,27,27,27,14,13,79,79,48,48,7,15,8,8,0.5,0.6
2026-04-03T1600,3183A,106.7419,31.8654,巴中市,圣泉水务公司,,33,33,24,16,13,80,80,54,54,7,16,9,8,0.5,0.6
2026-04-03T1600,3616A,106.7617,31.8343,巴中市,市中心医院,,30,30,28,18,18,95,95,59,59,4,15,9,8,0.5,0.6
2026-04-03T1600,2235A,122.7909,45.608,白城市,洮北区环保局,,48,NA,71,33,49,92,92,74,74,15,22,7,7,0.2,0.3
2026-04-03T1600,2236A,122.8741,45.5725,白城市,市环保局,细颗粒物(PM2.5),58,NA,67,39,47,82,82,65,65,9,14,6,7,0.4,0.5
2026-04-03T1600,2231A,126.4219,41.9172,白山市,喜丰,颗粒物(PM10),60,63,91,19,42,126,126,109,109,4,33,7,10,0.9,1
2026-04-03T1600,2232A,126.4082,41.9416,白山市,环保局,,50,50,61,27,38,129,129,111,111,9,22,8,10,0.7,0.8
2026-04-03T1600,2647A,104.1727,36.5448,白银市,第三小学,颗粒物(PM10),135,210,214,48,54,107,107,103,103,NA,6,4,5,0.2,0.2
2026-04-03T1600,2648A,104.1467,36.5482,白银市,动力公司,颗粒物(PM10),128,192,199,45,54,100,100,99,99,5,5,5,6,0.2,0.2
2026-04-03T1600,2512A,106.6102,23.901,百色市,市监测站,细颗粒物(PM2.5),64,56,53,42,44,136,136,100,100,8,14,11,11,0.8,0.9
2026-04-03T1600,2513A,106.6524,23.8842,百色市,市中心血站,细颗粒物(PM2.5),118,NA,69,79,59,135,135,102,102,9,16,9,11,0.7,0.9
2026-04-03T1600,4133A,106.6273,23.8798,百色市,龙景西路,颗粒物(PM10),71,79,73,44,52,147,147,103,103,8,16,12,14,0.7,0.7
2026-04-03T1600,2270A,117.396,32.9389,蚌埠市,工人疗养院,颗粒物(PM10),51,51,69,22,40,128,128,88,88,14,26,4,6,0.3,0.5
2026-04-03T1600,2271A,117.3606,32.9428,蚌埠市,百货大楼,,41,38,56,19,33,131,131,94,94,13,23,6,7,0.4,0.6
2026-04-03T1600,2273A,117.4183,32.8909,蚌埠市,蚌埠学院,,41,34,59,27,41,130,130,97,97,12,26,6,7,0.5,0.6
2026-04-03T1600,2274A,117.3534,32.9672,蚌埠市,淮上区政府,,42,34,61,21,40,134,134,94,94,8,22,5,6,0.3,0.5
2026-04-03T1600,2275A,117.3143,32.8977,蚌埠市,高新区,,44,44,59,22,39,129,129,90,90,17,28,8,9,0.6,0.7
2026-04-03T1600,3715A,117.3091,32.9314,蚌埠市,蚌埠田家炳中学,,47,47,66,20,38,131,131,94,94,11,22,6,8,0.3,0.5
2026-04-03T1600,1585A,109.8761,40.6533,包头市,市环境监测站,,32,26,304,6,67,101,101,96,96,6,20,5,12,0.3,0.7
2026-04-03T1600,1587A,109.9992,40.5843,包头市,包头八中,,31,20,294,7,86,99,99,94,94,3,14,6,9,0.3,0.4
2026-04-03T1600,1589A,109.8641,40.6288,包头市,惠龙物流,,31,27,283,3,68,98,98,93,93,4,16,4,10,0.3,0.5
2026-04-03T1600,1590A,110.0376,40.5546,包头市,东河鸿龙湾,,31,19,275,8,69,99,99,92,92,4,13,7,12,0.3,0.4
2026-04-03T1600,3283A,109.9154,40.5684,包头市,滨河大厦,,32,21,307,13,80,100,100,94,94,1,11,7,9,0.3,0.3
2026-04-03T1600,3419A,109.9449,40.6259,包头市,包头市委党校,颗粒物(PM10),75,85,298,3,63,96,96,91,91,4,14,5,11,0.1,0.4
2026-04-03T1600,3683A,109.8332,40.6577,包头市,昆区政府,,32,16,291,3,63,101,101,95,95,7,21,2,11,0.4,0.8
2026-04-03T1600,1931A,107.0802,34.3129,宝鸡市,竹园沟,颗粒物(PM10),108,139,82,15,19,120,120,99,99,10,12,6,7,0.2,0.3
2026-04-03T1600,1933A,107.1429,34.3549,宝鸡市,监测站,颗粒物(PM10),114,156,84,15,27,118,118,92,92,6,24,8,8,0.4,0.4
2026-04-03T1600,1934A,107.1172,34.3759,宝鸡市,技工学校,颗粒物(PM10),114,155,90,20,28,111,111,98,98,6,17,3,5,0.2,0.5
2026-04-03T1600,1936A,107.2025,34.3518,宝鸡市,文理学院,颗粒物(PM10),98,116,80,20,29,108,108,88,88,5,15,5,6,0.2,0.6
2026-04-03T1600,1937A,107.2396,34.3626,宝鸡市,三迪小学,颗粒物(PM10),104,128,96,23,40,114,114,87,87,5,34,4,6,0.2,0.6
2026-04-03T1600,4155A,107.1721,34.3558,宝鸡市,滨河北路,颗粒物(PM10),104,128,84,22,41,110,110,87,87,8,26,6,7,0.2,0.5
2026-04-03T1600,4308A,107.3898,34.3601,宝鸡市,陈仓区北开路21号,颗粒物(PM10),111,148,102,24,39,107,107,81,81,8,27,6,18,0.3,0.6
2026-04-03T1600,1051A,115.4803,38.8568,保定市,游泳馆,颗粒物(PM10),96,114,169,23,107,98,98,90,90,5,39,7,10,0.2,0.4
2026-04-03T1600,1052A,115.509,38.8895,保定市,华电二区,颗粒物(PM10),95,112,154,10,97,99,99,93,93,2,39,3,4,0,0.9
2026-04-03T1600,1053A,115.4588,38.9037,保定市,接待中心,颗粒物(PM10),87,101,170,10,96,97,97,93,93,3,33,2,5,0.0,0.5
2026-04-03T1600,1054A,115.4484,38.8344,保定市,地表水厂,颗粒物(PM10),88,103,166,3,93,101,101,92,92,7,42,3,6,0,0.4
2026-04-03T1600,3581A,115.3136,38.9511,保定市,满城区生态环境分局,颗粒物(PM10),105,132,203,3,77,103,103,107,107,3,29,1,5,0.1,0.7
2026-04-03T1600,3582A,115.4709,38.7628,保定市,清苑区第二中学,颗粒物(PM10),125,183,198,14,100,98,98,83,83,3,46,7,11,0.1,0.6
2026-04-03T1600,3583A,115.6231,39.0223,保定市,徐水物探局,颗粒物(PM10),152,254,215,16,103,98,98,52,NA,3,48,1,5,0.3,0.7
2026-04-03T1600,4004A,115.4199,38.8665,保定市,双鹰农机,颗粒物(PM10),104,128,208,6,104,101,101,94,94,6,36,2,6,0.0,0.5
2026-04-03T1600,4034A,115.515,38.8589,保定市,植保所站,颗粒物(PM10),76,86,179,3,101,99,99,92,92,3,45,3,5,0.2,0.6
2026-04-03T1600,2594A,99.1589,25.1137,保山市,市环境监测站,,48,48,46,29,30,115,115,104,104,6,8,6,5,0.3,0.3
2026-04-03T1600,2595A,99.1616,25.1381,保山市,市环保局,颗粒物(PM10),55,56,49,37,33,114,114,106,106,5,6,6,6,0.3,0.4
2026-04-03T1600,1867A,109.1435,21.4085,北海市,海滩公园,颗粒物(PM10),57,59,48,23,23,65,65,63,63,10,10,6,6,0.6,0.7
2026-04-03T1600,1868A,109.0983,21.466,北海市,新市环保局,,42,42,36,20,21,69,69,68,68,4,6,9,9,0.6,0.7
2026-04-03T1600,1869A,109.1775,21.5232,北海市,北海工业园,,40,40,43,23,24,63,63,59,59,2,5,6,5,0.5,0.6
2026-04-03T1600,3400A,109.1844,21.4396,北海市,龙潭自来水厂,,36,36,38,14,21,78,78,67,67,2,5,6,5,0.5,0.6
2026-04-03T1600,1001A,116.3611,39.8786,北京市,万寿西宫,颗粒物(PM10),58,61,165,7,88,91,91,72,72,5,51,2,6,0.1,0.7
2026-04-03T1600,1003A,116.4174,39.9289,北京市,东四,颗粒物(PM10),73,81,168,8,89,93,93,80,80,3,48,5,10,0.1,0.7
2026-04-03T1600,1004A,116.4073,39.8858,北京市,天坛,颗粒物(PM10),60,64,153,8,82,80,80,68,68,9,54,3,6,0.3,0.9
2026-04-03T1600,1005A,116.4622,39.9364,北京市,农展馆,颗粒物(PM10),59,62,158,7,88,85,85,72,72,6,45,2,6,0.2,0.8
2026-04-03T1600,1006A,116.3399,39.9293,北京市,官园,颗粒物(PM10),68,74,158,8,86,84,84,67,67,9,50,1,6,0.3,0.8
2026-04-03T1600,1007A,116.2879,39.9613,北京市,海淀万柳,颗粒物(PM10),57,59,157,6,79,77,77,61,61,6,43,3,6,0.2,0.7
2026-04-03T1600,1008A,116.6635,40.1349,北京市,顺义新城,颗粒物(PM10),55,57,167,12,94,93,93,81,81,4,38,2,9,0.2,0.9
2026-04-03T1600,1009A,116.6275,40.327,北京市,怀柔镇,,34,34,135,3,76,83,83,83,83,6,31,4,9,0.2,0.8
2026-04-03T1600,1010A,116.2295,40.217,北京市,昌平镇,颗粒物(PM10),86,100,143,8,71,85,85,76,76,7,36,2,5,0.1,0.7
2026-04-03T1600,1011A,116.3968,39.982,北京市,奥体中心,颗粒物(PM10),64,69,159,8,84,84,84,70,70,7,47,3,7,0.3,0.8
2026-04-03T1600,3418A,116.8336,40.4095,北京市,密云新城,,47,47,154,6,81,83,83,88,88,1,22,1,6,0.3,0.7
2026-04-03T1600,3671A,116.0879,39.9725,北京市,门头沟三家店,颗粒物(PM10),77,87,159,9,72,86,86,66,66,4,42,2,4,0.2,0.6
2026-04-03T1600,3672A,116.1507,39.8246,北京市,丰台云岗,颗粒物(PM10),58,61,169,8,85,90,90,74,74,4,33,1,4,0.3,0.8
2026-04-03T1600,3674A,115.9578,39.7602,北京市,房山燕山,颗粒物(PM10),58,60,166,7,83,81,81,74,74,4,32,4,6,0.2,0.6
2026-04-03T1600,3675A,116.4669,39.7734,北京市,大兴旧宫,颗粒物(PM10),60,64,162,8,87,86,86,77,77,4,48,3,6,0.2,0.9
2026-04-03T1600,3694A,115.9859,40.4562,北京市,延庆石河营,,48,48,143,3,72,92,92,88,88,4,21,1,3,0.2,0.6
2026-04-03T1600,3695A,116.6151,40.3052,北京市,怀柔新城,,37,37,142,3,80,75,75,82,82,2,27,4,8,0.2,0.8
2026-04-03T1600,3696A,116.2542,39.8764,北京市,丰台小屯,颗粒物(PM10),63,68,164,8,82,80,80,60,60,8,48,2,5,0.2,0.7
2026-04-03T1600,3697A,116.8399,40.3843,北京市,密云镇,,42,42,155,7,84,87,87,88,88,6,31,3,7,0.2,0.8
2026-04-03T1600,4057A,115.9423,40.4431,北京市,延庆百泉,颗粒物(PM10),52,52,142,3,65,85,85,77,77,8,24,3,2,0.2,0.5
2026-04-03T1600,4058A,116.6598,39.9164,北京市,通州新华,颗粒物(PM10),75,85,167,9,88,72,72,64,64,11,46,4,7,0.3,0.8
2026-04-03T1600,4182A,116.1942,39.9158,北京市,石景山八角,颗粒物(PM10),77,87,176,9,80,78,78,60,60,6,45,3,3,0.2,0.7
2026-04-03T1600,4194A,117.078628,40.151726,北京市,平谷新城,颗粒物(PM10),57,59,150,8,93,78,78,99,77,14,23,1,5,0.3,0.8
2026-04-03T1600,1761A,123.8274146,41.31234549,本溪市,大峪,NA,NA,NA,96,NA,44,140,140,133,133,NA,17,6,12,0.6,0.8
2026-04-03T1600,1763A,123.7169,41.3094,本溪市,彩屯,细颗粒物(PM2.5),94,98,97,57,53,117,117,105,104,16,27,13,16,1.3,1.7
2026-04-03T1600,1764A,123.7672166,41.28649327,本溪市,东明,细颗粒物(PM2.5),74,52,76,47,50,133,133,127,124,10,19,7,11,0.5,0.8
2026-04-03T1600,1765A,123.799345,41.266614,本溪市,新立屯,细颗粒物(PM2.5),70,59,70,45,45,131,131,131,125,12,20,8,8,0.6,0.6
2026-04-03T1600,1766A,123.829144,41.336777,本溪市,威宁,颗粒物(PM10),66,72,96,38,46,135,135,119,119,9,21,10,9,0.5,0.6
2026-04-03T1600,2587A,105.287,27.3133,毕节市,八中,,26,NA,28,18,20,70,70,67,67,9,8,10,10,0.5,0.6
2026-04-03T1600,2588A,105.3079,27.2987,毕节市,师专,,27,17,29,12,20,85,85,78,78,8,9,9,9,0.4,0.5
2026-04-03T1600,4263A,105.3688,27.3598,毕节市,工业大道,,30,17,32,11,19,95,95,87,87,4,7,10,10,/,/
2026-04-03T1600,1629A,117.9961,37.3604,滨州市,第二水厂,颗粒物(PM10),53,53,77,16,44,108,108,127,127,16,25,12,12,0.4,0.6
2026-04-03T1600,1630A,117.9789,37.3931,滨州市,北中新校,NA,NA,46,75,15,44,101,101,122,122,NA,30,14,13,0.3,0.6
2026-04-03T1600,3514A,117.9379,37.3959,滨州市,中海酒店,,46,46,70,17,37,111,111,137,137,22,28,13,13,0.5,0.6
2026-04-03T1600,3515A,117.9381509,37.35547456,滨州市,开发区一中,NA,NA,NA,83,NA,51,NA,NA,129,NA,NA,39,NA,14,NA,0.8
2026-04-03T1600,3516A,118.0914,37.6938,滨州市,金海六路,,44,44,95,18,61,110,110,130,130,13,27,10,12,0.2,0.6
2026-04-03T1600,4028A,117.9955,37.3752,滨州市,滨州市西街道办事处,颗粒物(PM10),51,51,82,16,46,113,113,134,134,11,21,11,14,0.3,0.5
2026-04-03T1600,2311A,115.8071,33.8399,亳州市,污水处理厂,,36,18,56,3,33,113,113,95,95,8,17,4,6,0.2,0.2
2026-04-03T1600,2312A,115.7789,33.8519,亳州市,三国揽胜宫,NA,NA,28,52,6,29,106,106,90,90,5,12,NA,7,0,0.2
2026-04-03T1600,3332A,115.7631,33.803,亳州市,亳州学院,,34,20,53,6,35,108,108,88,88,2,10,5,7,0.2,0.3
2026-04-03T1600,2693A,82.0482,44.8553,博尔塔拉蒙古自治州,市党校,颗粒物(PM10),61,65,75,7,10,116,116,87,87,2,4,5,3,0.1,0.2
2026-04-03T1600,2694A,82.0805,44.8966,博尔塔拉蒙古自治州,市环保局,颗粒物(PM10),60,64,82,6,23,109,109,71,71,10,18,1,3,0.2,0.3
2026-04-03T1600,1071A,116.8733,38.2922,沧州市,沧县城建局,颗粒物(PM10),178,305,107,71,69,119,119,97,97,14,30,3,7,0.5,0.6
2026-04-03T1600,1072A,116.8462,38.3189,沧州市,电视转播站,颗粒物(PM10),164,278,108,82,70,121,121,98,98,15,26,8,10,0.4,0.5
2026-04-03T1600,1073A,116.8588,38.3161,沧州市,市环保局,颗粒物(PM10),192,333,119,68,63,126,126,99,99,11,25,8,9,0.2,0.5
2026-04-03T1600,3324A,116.8011,38.294,沧州市,河北水利电力学院,颗粒物(PM10),196,342,113,70,68,115,115,97,97,11,24,8,9,0.3,0.5
2026-04-03T1600,2622A,97.1813,31.1289,昌都市,昌都监测站,,34,9,12,3,6,106,106,81,81,6,9,6,7,0.2,0.3
2026-04-03T1600,3719A,97.1707,31.1428,昌都市,昌都会议中心,,38,7,9,3,6,119,119,90,90,4,4,5,5,0.2,0.4
2026-04-03T1600,2692A,87.2722,44.0298,昌吉回族自治州,新区政务中心,,41,41,43,17,21,127,127,83,83,13,23,9,5,0.4,0.4
2026-04-03T1600,3613A,87.3069,44.0093,昌吉回族自治州,亚心广场,颗粒物(PM10),55,56,52,19,21,137,137,86,86,6,18,10,7,0.1,0.2
2026-04-03T1600,4164A,87.2057,43.9289,昌吉回族自治州,财政所,颗粒物(PM10),51,51,55,14,15,137,137,87,87,11,13,10,9,0.4,0.4
2026-04-03T1600,1120A,125.2874,43.9024,长春市,客车厂,细颗粒物(PM2.5),216,NA,265,166,233,47,47,65,49,44,48,6,12,1.1,1.2
2026-04-03T1600,1121A,125.2943,43.8508,长春市,邮电学院,细颗粒物(PM2.5),247,197,286,197,222,59,59,76,66,32,39,8,12,1.2,1.2
2026-04-03T1600,1122A,125.3648,43.8745,长春市,劳动公园,细颗粒物(PM2.5),245,201,291,195,230,49,49,61,61,37,40,7,13,1.2,1.2
2026-04-03T1600,1123A,125.3233,43.8781,长春市,园林处,细颗粒物(PM2.5),233,NA,272,183,233,53,53,73,58,35,39,6,12,1.2,1.3
2026-04-03T1600,1124A,125.4604,43.7904,长春市,净月潭,细颗粒物(PM2.5),252,NA,241,202,197,63,63,82,79,22,30,7,10,1.1,1.1
2026-04-03T1600,1126A,125.38,43.8422,长春市,经开区环卫处,细颗粒物(PM2.5),256,209,287,206,220,47,47,62,61,39,45,5,11,1.2,1.2
2026-04-03T1600,1127A,125.234,43.7761,长春市,高新区管委会,细颗粒物(PM2.5),249,NA,268,199,212,40,40,55,53,36,44,8,12,1.2,1.3
2026-04-03T1600,1128A,125.1695,43.83,长春市,岱山公园,细颗粒物(PM2.5),241,NA,258,191,220,35,35,54,50,56,56,5,9,1.1,1.1
2026-04-03T1600,4281A,125.334645,43.916281,长春市,北亚泰大街1068号,细颗粒物(PM2.5),220,NA,285,170,235,62,62,64,64,32,47,7,13,1.0,1.1
2026-04-03T1600,1335A,113.082,28.2421,长沙市,经开区环保局,,30,30,22,21,15,91,91,66,66,5,9,4,4,0.4,0.4
2026-04-03T1600,1336A,112.8873,28.2202,长沙市,高开区环保局,,27,14,26,13,17,86,86,71,71,7,15,5,5,0.5,0.6
2026-04-03T1600,1337A,113.0785,28.2012,长沙市,马坡岭,,30,26,23,21,18,92,92,68,68,10,14,4,5,0.6,0.7
2026-04-03T1600,1338A,112.9448,28.1894,长沙市,湖南师范大学,,29,16,26,14,18,92,92,78,78,6,16,4,4,0.5,0.6
2026-04-03T1600,1339A,113.0177,28.1322,长沙市,雨花区环保局,,30,28,22,15,16,95,95,75,75,4,10,3,4,0.7,0.8
2026-04-03T1600,1340A,112.9795,28.2593,长沙市,伍家岭,,28,28,27,18,20,87,87,72,72,7,14,4,3,0.3,0.4
2026-04-03T1600,1341A,113.002,28.1944,长沙市,火车新站,,29,23,25,18,20,90,90,75,75,6,16,3,4,0.4,0.5
2026-04-03T1600,1342A,112.9846,28.1177,长沙市,天心区环保局,,29,24,23,18,20,92,92,76,76,8,14,5,5,0.5,0.6
2026-04-03T1600,1343A,112.8906,28.1307,长沙市,湖南中医药大学,,31,14,21,10,17,97,97,78,78,6,14,5,5,0.5,0.6
2026-04-03T1600,1727A,113.1146,36.1547,长治市,清华站,颗粒物(PM10),142,227,57,90,30,118,118,108,108,8,7,7,9,0.3,0.5
2026-04-03T1600,1730A,113.0887,36.2126,长治市,审计局,颗粒物(PM10),165,279,63,118,36,120,120,110,110,6,9,7,9,0.3,0.5
2026-04-03T1600,1731A,113.0845,36.1856,长治市,长治八中,颗粒物(PM10),184,317,77,83,33,117,117,107,107,5,9,8,11,0.3,0.5
2026-04-03T1600,2845A,113.1561,36.1912,长治市,德盛苑,颗粒物(PM10),182,314,67,95,34,125,125,115,115,11,11,8,9,0.2,0.4
2026-04-03T1600,3568A,113.0603,36.0464,长治市,向阳小学,颗粒物(PM10),165,279,88,71,31,128,128,114,114,8,10,7,9,0.3,0.6
2026-04-03T1600,3569A,112.8788,36.315,长治市,屯留一中,颗粒物(PM10),347,457,86,85,42,117,117,102,102,13,13,9,10,0.2,0.8
2026-04-03T1600,4189A,113.113092,36.199482,长治市,英华南巷50号,颗粒物(PM10),200,349,72,119,33,120,120,111,111,15,11,6,7,0.1,0.7
2026-04-03T1600,4190A,113.23666,36.33435,长治市,学府街1号,颗粒物(PM10),226,368,76,88,32,59,59,49,49,8,15,3,7,0.5,0.7
2026-04-03T1600,1854A,111.696,28.9725,常德市,市二中,NA,NA,21,21,3,15,90,90,79,79,3,8,8,7,NA,1
2026-04-03T1600,3138A,111.7152,29.0288,常德市,武陵区永安,,30,12,29,3,16,93,93,81,81,7,10,6,5,0.7,0.7
2026-04-03T1600,3139A,111.6891,28.9881,常德市,鼎城区玉霞,,28,8,17,3,14,89,89,79,79,7,7,7,7,0.7,0.8
2026-04-03T1600,3140A,111.6651,29.0526,常德市,武陵区长庚,,27,8,18,3,16,84,84,74,73,3,6,7,7,0.8,0.9
2026-04-03T1600,1196A,119.9524,31.7586,常州市,市监测站,,35,35,57,10,29,96,96,105,105,20,24,7,7,0.7,0.7
2026-04-03T1600,1200A,119.9351,31.703,常州市,武进监测站,,36,36,49,11,25,101,101,109,108,14,18,4,6,0.5,0.2
2026-04-03T1600,3002A,119.9701,31.813,常州市,行政中心,,27,17,56,8,29,86,86,97,97,18,22,5,6,0.6,0.6
2026-04-03T1600,3003A,120.0434,31.7726,常州市,经开区,,31,31,60,6,27,83,83,103,100,28,23,5,5,1.0,0.8
2026-04-03T1600,3010A,119.8919,31.7892,常州市,钟楼,,33,31,50,9,25,105,105,114,113,20,20,6,7,0.4,0.4
2026-04-03T1600,3429A,119.8595,31.706,常州市,武进经发区,,31,28,45,16,28,99,99,104,104,17,24,4,7,0.7,0.7
2026-04-03T1600,3430A,119.5812,31.7256,常州市,金坛城区,,27,19,42,18,29,85,85,96,96,15,11,7,9,0.6,0.6
2026-04-03T1600,4089A,119.9551,31.863,常州市,崇义南街5-H号,,27,9,53,7,30,84,84,99,98,26,28,5,6,0.5,0.5
2026-04-03T1600,2220A,120.4318,41.588,朝阳市,西梁,细颗粒物(PM2.5),201,NA,91,151,73,48,48,69,69,21,29,8,15,1.0,0.9
2026-04-03T1600,2221A,120.452,41.565,朝阳市,河畔小区,细颗粒物(PM2.5),176,NA,67,133,57,56,56,86,86,19,22,6,11,1.0,0.8
2026-04-03T1600,2222A,120.4176,41.5648,朝阳市,八里堡,细颗粒物(PM2.5),198,NA,76,148,79,49,49,72,72,23,29,7,14,1.0,0.8
2026-04-03T1600,3026A,116.6179,23.6608,潮州市,市政府,颗粒物(PM10),51,51,31,30,23,81,81,85,81,19,13,4,6,0.6,0.5
2026-04-03T1600,4036A,116.646,23.676,潮州市,金山,NA,NA,NA,27,NA,20,69,69,86,76,22,15,4,5,0.7,0.5
2026-04-03T1600,2473A,113.0116,25.8228,郴州市,市职中,,10,10,19,3,16,30,30,23,21,1,7,5,6,0.8,0.7
2026-04-03T1600,2475A,113.0381,25.8074,郴州市,市审计局,,14,8,23,3,18,42,42,40,36,7,8,2,5,/,/
2026-04-03T1600,2476A,113.0348,25.7757,郴州市,市环保局,,17,17,29,3,22,37,37,32,25,12,18,7,9,0.5,0.5
2026-04-03T1600,4252A,113.0138,25.8011,郴州市,好美居路49号,,13,6,21,3,16,40,40,36,32,13,16,3,6,/,/
2026-04-03T1600,1431A,103.9727,30.7242,成都市,金泉两河,,35,22,41,12,33,112,112,68,68,8,20,1,1,0.3,0.4
2026-04-03T1600,1432A,104.1423,30.6765,成都市,十里店,,43,43,43,17,29,123,123,77,77,9,22,4,4,0.5,0.6
2026-04-03T1600,1433A,104.0594,30.5765,成都市,三瓦窑,颗粒物(PM10),57,59,46,19,39,114,114,70,70,8,22,3,2,0.4,0.6
2026-04-03T1600,1434A,104.1122,30.6306,成都市,沙河铺,颗粒物(PM10),51,51,44,16,29,106,106,67,67,12,24,3,6,0.4,0.5
2026-04-03T1600,2880A,104.0219,30.6561,成都市,大石西路,颗粒物(PM10),65,71,56,17,38,111,111,70,70,9,23,4,6,0.4,0.8
2026-04-03T1600,3136A,104.2724,30.559,成都市,龙泉驿区区政府,颗粒物(PM10),56,58,27,20,25,121,121,75,75,8,10,6,6,0.4,0.3
2026-04-03T1600,3357A,104.0028,30.6891,成都市,金博路,颗粒物(PM10),52,52,42,13,35,117,117,69,69,12,25,6,6,0.4,0.5
2026-04-03T1600,3359A,104.056,30.5228,成都市,华阳,颗粒物(PM10),56,58,42,13,33,124,124,80,80,10,21,5,4,0.2,0.4
2026-04-03T1600,3488A,104.387954,30.746684,成都市,青石路225号,NA,NA,64,31,24,21,NA,NA,40,NA,11,18,5,5,0.4,0.5
2026-04-03T1600,3489A,104.0788,30.4054,成都市,科学城,,38,20,39,14,37,120,120,78,78,6,14,12,7,0.4,0.6
2026-04-03T1600,4011A,103.8505,30.6946,成都市,光华大道三段,颗粒物(PM10),71,79,50,18,32,115,115,73,73,12,23,3,3,0.4,0.5
2026-04-03T1600,4144A,104.3257,30.6406,成都市,八角井街185号,颗粒物(PM10),67,73,34,26,23,121,121,70,70,13,18,4,5,0.4,0.4
2026-04-03T1600,4224A,104.2433276,30.53529463,成都市,鲸龙路1057号,,39,36,46,16,25,123,123,79,79,6,13,6,6,0.5,0.5
2026-04-03T1600,1062A,117.9531,40.908,承德市,铁路,颗粒物(PM10),122,177,106,19,49,87,87,91,91,10,29,3,6,0.2,0.6
2026-04-03T1600,1063A,117.9397,40.9763,承德市,中国银行,颗粒物(PM10),125,183,100,20,40,88,88,90,90,5,22,2,3,0.2,0.6
2026-04-03T1600,4073A,117.9462,40.95,承德市,杏林街1号,颗粒物(PM10),119,168,97,11,50,93,93,98,98,5,17,2,4,0.2,0.6
2026-04-03T1600,4274A,117.7994,40.9605,承德市,滨河大街98号,颗粒物(PM10),122,177,90,20,44,97,97,107,107,5,23,4,12,0.2,0.6
2026-04-03T1600,2314A,117.4698,30.6617,池州市,池州学院,,22,15,38,11,26,68,68,66,66,27,30,3,4,0.7,0.9
2026-04-03T1600,3237A,117.4918,30.6617,池州市,展览馆,,19,17,37,11,21,58,58,64,64,27,25,2,3,0.7,0.8
2026-04-03T1600,3333A,117.5626,30.695,池州市,第八中学,,19,14,38,9,23,60,60,59,59,20,26,3,5,0.7,0.8
2026-04-03T1600,3334A,117.5037,30.6242,池州市,第十二中学,,18,12,35,10,25,56,56,52,52,23,30,2,4,0.8,1
2026-04-03T1600,1744A,118.9229,42.2816,赤峰市,松山一中,颗粒物(PM10),130,198,77,87,46,81,81,75,75,19,36,5,29,0.7,0.8
2026-04-03T1600,1745A,118.9588,42.2733,赤峰市,哈达街,颗粒物(PM10),134,207,91,83,47,65,65,54,54,16,41,8,51,0.6,0.9
2026-04-03T1600,1746A,118.8792,42.2551,赤峰市,天义路,细颗粒物(PM2.5),127,153,59,89,39,72,72,57,57,15,38,5,27,0.5,0.7
2026-04-03T1600,3058A,119.2656,42.0356,赤峰市,银河街,颗粒物(PM10),142,228,98,98,54,61,61,92,78,12,17,6,15,0.7,0.7
2026-04-03T1600,3286A,118.9359,42.3146,赤峰市,桥北物流园区,细颗粒物(PM2.5),124,174,63,86,40,85,85,91,91,12,28,5,7,0.5,0.6
2026-04-03T1600,2521A,107.3473,22.4137,崇左市,市环保局江州分局,细颗粒物(PM2.5),76,76,69,48,49,127,127,89,89,9,11,8,8,0.7,0.7
2026-04-03T1600,4256A,107.375,22.3736,崇左市,石景林东路7号,细颗粒物(PM2.5),62,59,55,41,44,119,119,86,86,6,11,3,3,0.9,0.8
2026-04-03T1600,3207A,118.31131,32.3033,滁州市,市政府原办公楼,细颗粒物(PM2.5),54,NA,52,37,52,69,69,74,66,25,28,5,6,0.5,0.6
2026-04-03T1600,3331A,118.3268,32.2633,滁州市,图书馆,,36,36,64,22,37,77,77,79,71,18,25,10,10,0.5,0.6
2026-04-03T1600,4101A,118.3196,32.3335,滁州市,银山路666号,,43,43,63,30,45,79,79,80,68,24,29,9,10,0.6,0.8
2026-04-03T1600,4102A,118.3426,32.2979,滁州市,黄山路555号,,49,49,80,30,49,73,73,81,66,21,28,6,8,0.8,0.8
2026-04-03T1600,2606A,101.5379,25.0492,楚雄彝族自治州,市经济开发区,,36,33,34,19,21,113,113,99,99,5,8,5,5,0.4,0.4
2026-04-03T1600,4153A,101.5536,25.0343,楚雄彝族自治州,团结路562号,,37,33,30,20,20,118,118,105,105,4,6,2,2,0.3,0.3
2026-04-03T1600,2549A,107.5087,31.2186,达州市,市环境监测站,,30,30,36,7,15,71,71,43,43,14,24,5,5,0.1,0.3
2026-04-03T1600,2550A,107.4988,31.2132,达州市,凤凰小区,,31,31,36,6,17,73,73,45,45,9,26,4,4,0.2,0.3
2026-04-03T1600,2551A,107.5081,31.1987,达州市,达县机关宾馆,,27,27,38,3,21,76,76,46,46,12,31,3,4,0.2,0.4
2026-04-03T1600,2552A,107.4644,31.2124,达州市,市政中心,,27,27,42,3,16,78,78,51,51,7,26,4,5,0.3,0.4
2026-04-03T1600,2614A,100.2168,25.5818,大理白族自治州,大理市环境监测站,,38,34,26,26,22,100,100,89,89,10,10,4,4,0.2,0.2
2026-04-03T1600,2615A,100.1542,25.7055,大理白族自治州,大理古城,,36,36,28,21,20,100,100,94,94,8,10,7,7,0.6,0.6
2026-04-03T1600,1109A,121.6119,38.974,大连市,甘井子,,50,50,104,26,60,155,155,141,141,17,34,8,9,0.3,0.5
2026-04-03T1600,1110A,121.565,38.9509,大连市,周水子,NA,NA,71,125,32,69,142,142,127,127,17,35,5,8,NA,0.7
2026-04-03T1600,1111A,121.5637,38.8849,大连市,星海三站,颗粒物(PM10),53,54,81,33,56,148,148,130,130,13,23,5,7,0.4,0.5
2026-04-03T1600,1112A,121.6301,38.9117,大连市,青泥洼桥,颗粒物(PM10),55,56,94,28,60,159,159,147,147,13,23,5,6,0.6,0.7
2026-04-03T1600,1113A,121.6248,38.8643,大连市,傅家庄,颗粒物(PM10),55,56,100,32,60,138,138,128,128,18,23,9,9,0.5,0.6
2026-04-03T1600,1114A,121.5117,38.8636,大连市,七贤岭,,48,48,109,26,58,153,153,134,134,12,29,6,7,0.5,0.6
2026-04-03T1600,1116A,121.7507,39.1339,大连市,金州,颗粒物(PM10),57,59,88,34,56,156,156,142,142,13,21,10,12,0.5,0.6
2026-04-03T1600,1117A,121.7811,39.0495,大连市,开发区,颗粒物(PM10),67,73,92,36,60,156,156,128,128,15,40,7,9,0.4,0.6
2026-04-03T1600,1118A,121.9762,39.0631,大连市,双D港,颗粒物(PM10),80,91,68,41,54,165,165,130,130,17,24,6,6,0.5,0.8
2026-04-03T1600,4082A,121.2548,38.8188,大连市,旅顺,颗粒物(PM10),51,51,91,27,61,142,142,121,121,11,27,5,5,0.5,0.6
2026-04-03T1600,1789A,124.8085,46.0381,大庆市,大同区,,38,36,84,26,60,69,69,74,74,13,27,4,5,0.3,0.4
2026-04-03T1600,1790A,125.1166,46.5255,大庆市,龙凤区,颗粒物(PM10),65,71,81,38,58,83,83,72,72,14,31,5,5,0.4,0.4
2026-04-03T1600,1791A,124.8894,46.4007,大庆市,红岗区,细颗粒物(PM2.5),60,48,89,40,79,83,83,73,73,6,21,8,10,0.6,0.6
2026-04-03T1600,1792A,125.1391,46.578,大庆市,萨尔图区,颗粒物(PM10),63,67,75,32,50,83,83,78,78,10,23,8,12,0.3,0.2
2026-04-03T1600,1793A,124.9026,46.6217,大庆市,让胡路区,颗粒物(PM10),51,51,82,31,62,81,81,73,73,14,31,6,6,0.2,0.5
2026-04-03T1600,3481A,125.127,46.6277,大庆市,萨区政府监测点,NA,NA,71,69,NA,49,77,77,70,70,8,18,8,9,0.3,0.5
2026-04-03T1600,1723A,113.2926,40.0759,大同市,云冈宾馆,,30,20,90,3,36,95,95,99,89,7,16,4,9,0.2,0.2
2026-04-03T1600,1724A,113.3437,40.0921,大同市,大同大学,颗粒物(PM10),55,56,123,3,29,93,93,103,87,8,15,2,8,0.4,0.4
2026-04-03T1600,1725A,113.2637,40.129,大同市,安家小村,,37,37,124,3,32,80,80,98,63,6,15,4,8,0.3,0.4
2026-04-03T1600,3282A,113.3399,40.0586,大同市,大同市卫生学校,,40,40,119,3,29,105,105,102,96,4,13,3,7,0.3,0.4
2026-04-03T1600,3565A,113.1371,40.1122,大同市,云冈站,,44,44,116,6,25,95,95,100,89,4,10,5,8,0.3,0.3
2026-04-03T1600,3566A,113.1186,40.2556,大同市,图书馆,颗粒物(PM10),70,78,98,6,27,92,92,96,86,4,11,3,11,0.6,0.7
2026-04-03T1600,3567A,113.5931,40.0459,大同市,区一中,颗粒物(PM10),60,63,102,6,24,106,106,104,97,3,10,7,11,0.6,0.5
2026-04-03T1600,4199A,113.2798248,40.09972476,大同市,魏都大道141号,,50,50,129,3,30,96,96,97,89,4,12,7,11,0.2,0.3
2026-04-03T1600,2269A,124.1068,50.4091,大兴安岭地区,科技局,,26,9,19,3,6,81,81,76,76,2,4,5,6,0.2,0.2
2026-04-03T1600,3663A,124.117,50.4279,大兴安岭地区,红旗社区,,27,NA,15,6,7,86,86,78,78,3,9,6,7,0.1,0.2
2026-04-03T1600,1600A,124.33,40.0625,丹东市,江湾东路,颗粒物(PM10),63,68,97,39,50,145,145,128,128,10,16,8,11,0.6,0.7
2026-04-03T1600,1601A,124.4242,40.1513,丹东市,临江后街,颗粒物(PM10),72,80,98,43,53,131,131,118,118,8,15,5,6,0.5,0.6
2026-04-03T1600,1602A,124.3935,40.1461,丹东市,元宝山,颗粒物(PM10),70,77,94,39,52,132,132,114,114,11,17,7,9,0.7,0.8
2026-04-03T1600,1603A,124.3634,40.1093,丹东市,民主桥,颗粒物(PM10),64,69,99,36,54,145,145,125,125,11,20,6,8,0.4,0.7
2026-04-03T1600,3541A,109.5726195,19.51688767,儋州市,第一中学子站,,39,39,38,23,23,91,91,86,86,4,4,6,7,0.5,0.6
2026-04-03T1600,3542A,109.5567,19.5187,儋州市,东坡学校子站,,35,32,38,24,23,98,98,97,97,4,4,6,6,0.6,0.5
2026-04-03T1600,2616A,98.5611,24.4273,德宏傣族景颇族自治州,德宏州监测站,NA,NA,48,51,43,44,120,120,82,82,NA,18,4,4,NA,0.7
2026-04-03T1600,3677A,98.5887,24.4366,德宏傣族景颇族自治州,芒市人民政府综合楼,颗粒物(PM10),85,98,81,51,46,110,110,80,80,10,16,7,6,0.3,0.6
2026-04-03T1600,1901A,104.424,31.1209,德阳市,东山公园,颗粒物(PM10),54,55,30,19,24,126,126,68,68,13,13,3,3,0.5,0.6
2026-04-03T1600,1902A,104.3827,31.1318,德阳市,西小区,颗粒物(PM10),59,62,47,22,24,125,125,70,70,17,22,3,3,0.5,0.6
2026-04-03T1600,1904A,104.3553,31.1091,德阳市,耐火材料厂,颗粒物(PM10),70,77,46,23,27,136,136,76,76,12,25,2,2,0.5,0.5
2026-04-03T1600,4145A,104.4144,31.1495,德阳市,市林业局,颗粒物(PM10),51,51,34,20,23,137,137,76,76,10,20,4,3,0.4,0.5
2026-04-03T1600,1622A,116.3034,37.4675,德州市,儿童乐园,颗粒物(PM10),123,178,90,13,41,121,121,107,107,9,15,12,14,0.5,0.7
2026-04-03T1600,1624A,116.2992,37.4449,德州市,监理站,颗粒物(PM10),150,249,93,10,35,127,127,113,113,14,20,11,12,0.3,0.6
2026-04-03T1600,3066A,116.2722,37.438,德州市,九衢泉纯净水厂,颗粒物(PM10),93,110,81,8,39,117,117,103,103,8,16,7,6,0.5,0.6
2026-04-03T1600,3371A,116.3693,37.44,德州市,开发区人民医院,颗粒物(PM10),106,134,90,9,40,124,124,107,107,11,19,9,11,0.5,0.6
2026-04-03T1600,3511A,116.5687,37.3331,德州市,陵城艺术中心,颗粒物(PM10),51,51,76,3,43,120,120,103,103,11,14,7,10,0.4,0.7
2026-04-03T1600,4292A,116.352738,37.420875,德州市,新河东路,颗粒物(PM10),90,105,87,9,41,120,120,103,103,8,14,10,11,0.7,0.7
2026-04-03T1600,2621A,99.7054,27.8319,迪庆藏族自治州,迪庆州站,,24,10,16,3,9,76,76,67,67,6,9,5,5,0.5,0.6
2026-04-03T1600,3180A,99.7122,27.8129,迪庆藏族自治州,质量技术监督局,,31,19,17,8,8,98,98,84,84,5,9,6,6,0.5,0.6
2026-04-03T1600,4257A,104.6092,35.5962,定西市,将台街,颗粒物(PM10),82,94,109,27,35,127,127,114,114,4,13,9,10,0.5,0.5
2026-04-03T1600,4309A,104.6159,35.5701,定西市,正龙路62号,颗粒物(PM10),80,91,112,28,29,118,118,106,106,6,10,2,4,0.2,0.2
2026-04-03T1600,4071A,114.9883,38.5232,定州市,交通局,颗粒物(PM10),140,223,209,8,89,100,100,94,94,10,34,7,8,0.5,0.7
2026-04-03T1600,4072A,115.0045,38.5136,定州市,第五中学,颗粒物(PM10),141,226,215,3,86,104,104,95,95,2,31,4,5,0.4,0.7
2026-04-03T1600,1390A,113.7943,23.0132,东莞市,东城石井,,38,38,44,26,23,68,68,73,62,10,19,3,3,0.6,0.6
2026-04-03T1600,1391A,113.7384,22.9659,东莞市,南城西平,,37,37,40,24,21,62,62,67,59,12,16,4,4,0.6,0.6
2026-04-03T1600,3319A,113.7283,23.041,东莞市,万江金泰,,48,43,44,33,26,60,60,73,58,15,16,6,6,0.7,0.7
2026-04-03T1600,4129A,113.8666,23.1062,东莞市,裕兴路,,44,44,48,24,22,65,65,71,52,12,17,5,5,0.7,0.7
2026-04-03T1600,4130A,114.0076,22.9739,东莞市,教育路1号,,43,43,44,21,20,67,67,85,64,7,10,6,6,0.7,0.7
2026-04-03T1600,4131A,113.7981,22.8124,东莞市,长怡路1号,,49,49,48,31,24,51,51,68,54,24,19,5,4,0.7,0.7
2026-04-03T1600,1666A,118.6612,37.4313,东营市,市环保局,颗粒物(PM10),86,100,85,12,56,122,122,145,145,11,22,8,14,0.2,0.4
2026-04-03T1600,3036A,118.6903,37.4337,东营市,开发区管委会,颗粒物(PM10),53,54,78,13,58,133,133,143,143,14,28,9,18,0.4,0.7
2026-04-03T1600,3365A,118.5721,37.5654,东营市,垦利区民丰路,NA,NA,39,74,7,68,130,130,165,165,13,26,NA,10,0.3,0.6
2026-04-03T1600,3498A,118.5063,37.8606,东营市,河口城区,,42,39,97,10,63,132,132,168,168,9,23,8,16,0.6,0.9
2026-04-03T1600,3646A,118.4979,37.4623,东营市,胜利站,颗粒物(PM10),55,56,83,7,49,112,112,142,142,11,20,8,11,0.7,1
2026-04-03T1600,3734A,118.5753,37.4405,东营市,理想之城,,46,46,84,3,47,126,126,159,159,17,35,6,8,0.7,1
2026-04-03T1600,1591A,110.0024,39.8127,鄂尔多斯市,综合楼,颗粒物(PM10),68,75,334,14,65,100,100,100,92,8,10,6,6,0.2,0.2
2026-04-03T1600,1592A,109.9485,39.8259,鄂尔多斯市,巴音孟克林场办事处,颗粒物(PM10),62,66,292,9,60,103,103,102,95,4,7,4,4,0.3,0.3
2026-04-03T1600,1593A,109.7734,39.5987,鄂尔多斯市,康泽苑,颗粒物(PM10),68,75,233,11,60,110,110,107,99,4,7,6,6,0.2,0.3
2026-04-03T1600,1594A,109.8121,39.5987,鄂尔多斯市,华泰汽车城,颗粒物(PM10),79,90,321,18,59,98,98,97,87,4,7,5,5,0.2,0.2
2026-04-03T1600,1595A,109.9734,39.7884,鄂尔多斯市,奥林花园,颗粒物(PM10),65,70,304,10,45,105,105,99,95,9,13,6,5,0.2,0.3
2026-04-03T1600,2436A,114.894,30.3989,鄂州市,市政府,NA,NA,NA,33,NA,18,NA,NA,69,45,32,19,13,9,0.9,0.5
2026-04-03T1600,2437A,114.8986,30.3714,鄂州市,赵家坝,,24,24,38,11,19,75,75,69,61,9,9,6,6,0.6,0.7
2026-04-03T1600,3654A,114.8093,30.4091,鄂州市,精准医疗中心,,25,25,39,15,23,78,78,64,64,16,20,5,8,0.6,0.9
2026-04-03T1600,2454A,109.4978,30.2979,恩施土家族苗族自治州,湖北民院,,34,31,34,16,18,106,106,66,66,7,12,7,6,0.6,0.6
2026-04-03T1600,3549A,109.5061,30.3771,恩施土家族苗族自治州,龙凤新区,,32,21,27,17,17,100,100,56,56,3,6,8,7,0.3,0.4
2026-04-03T1600,2499A,108.3411,21.6159,防城港市,沙万,,47,47,53,21,27,63,63,61,61,6,10,6,6,0.5,0.6
2026-04-03T1600,2500A,108.3515,21.7733,防城港市,防城档案局,,43,43,42,22,29,70,70,70,70,3,4,6,6,0.6,0.6
2026-04-03T1600,2501A,108.3506,21.6414,防城港市,大海花园,,44,44,46,30,30,75,75,71,71,10,13,7,8,0.5,0.6
2026-04-03T1600,1371A,113.1293,23.0065,佛山市,湾梁,,32,31,40,22,26,70,70,60,60,7,15,/,/,/,/
2026-04-03T1600,1372A,113.1082,23.0477,佛山市,华材职中,,41,41,40,24,29,70,70,61,61,13,19,8,7,0.3,0.4
2026-04-03T1600,1373A,113.1439,23.045,佛山市,南海气象局,,42,42,41,20,26,72,72,59,59,8,18,/,/,/,/
2026-04-03T1600,1374A,113.2879,22.8094,佛山市,顺德苏岗,,35,35,45,24,23,65,65,63,63,11,11,/,/,0.6,0.6
2026-04-03T1600,1376A,112.8384,22.8678,佛山市,高明孔堂,,32,25,37,22,24,77,77,71,71,6,10,/,/,/,/
2026-04-03T1600,1377A,112.8835,23.1584,佛山市,三水监测站,,32,31,40,22,28,71,71,61,61,11,29,4,4,0.4,0.5
2026-04-03T1600,1378A,112.8668,23.185,佛山市,三水云东海,,41,41,59,20,27,72,72,60,60,11,24,/,/,/,/
2026-04-03T1600,3625A,113.2568,22.7629,佛山市,容桂街道办,,38,34,36,26,24,61,61,57,57,17,19,/,/,/,/
2026-04-03T1600,1282A,119.2681,26.0506,福州市,师大,,38,38,31,22,14,42,42,84,61,46,20,3,3,0.5,0.4
2026-04-03T1600,1283A,119.2983,26.1028,福州市,五四北路,,25,19,20,16,15,38,38,80,52,50,24,4,4,0.6,0.4
2026-04-03T1600,1284A,119.2648,26.0769,福州市,杨桥西路,,30,30,22,20,15,40,40,81,55,46,20,4,4,/,/
2026-04-03T1600,3048A,119.5799,26.0937,福州市,九龙,,32,NA,21,22,18,72,72,80,69,19,16,4,4,0.5,0.4
2026-04-03T1600,3526A,119.5188,25.9666,福州市,吴航,,29,6,24,3,18,92,92,79,76,15,18,4,5,0.5,0.5
2026-04-03T1600,4104A,119.3106,26.0648,福州市,路通桥巷6号,,35,33,24,24,18,29,29,78,51,46,19,/,/,/,/
2026-04-03T1600,1755A,123.7974,41.8494,抚顺市,望花区,细颗粒物(PM2.5),86,77,123,53,65,130,130,126,126,20,33,12,13,0.7,1
2026-04-03T1600,1756A,123.9161,41.8827,抚顺市,顺城区,细颗粒物(PM2.5),86,64,89,53,66,130,130,125,125,16,37,11,13,0.8,1
2026-04-03T1600,1757A,124.0437,41.8615,抚顺市,东洲区,细颗粒物(PM2.5),80,71,97,50,61,125,125,127,127,15,22,10,12,1.0,0.9
2026-04-03T1600,1758A,123.9246,41.8638,抚顺市,新抚区,细颗粒物(PM2.5),86,66,112,53,65,133,133,127,127,15,34,11,12,0.7,1
2026-04-03T1600,1759A,124.0972,41.8961,抚顺市,大伙房水库,颗粒物(PM10),67,73,83,42,55,142,142,143,143,12,22,9,10,0.5,0.8
2026-04-03T1600,1760A,123.708,41.8386,抚顺市,沈抚新城,细颗粒物(PM2.5),98,75,112,59,62,125,125,120,120,20,32,10,13,0.9,1
2026-04-03T1600,2377A,116.3544,27.9833,抚州市,市站,,20,20,22,8,12,52,52,52,43,12,10,6,5,1.0,0.9
2026-04-03T1600,2378A,116.3562,27.9631,抚州市,血防站,,19,18,21,3,10,60,60,51,44,10,10,8,6,0.9,0.7
2026-04-03T1600,2379A,116.3561,28.0007,抚州市,采茶剧团,,18,15,23,3,11,56,56,52,45,3,7,13,12,0.9,0.8
2026-04-03T1600,2380A,116.3854,27.9648,抚州市,医学分院,,22,22,25,3,7,58,58,54,49,11,11,5,6,1.2,1.1
2026-04-03T1600,2207A,121.6095,41.9978,阜新市,工业园区,细颗粒物(PM2.5),159,NA,80,121,67,38,38,89,84,21,27,8,19,1.0,0.7
2026-04-03T1600,2208A,121.6567,42.0188,阜新市,长青街,细颗粒物(PM2.5),169,130,78,128,70,46,46,93,88,22,26,6,17,1.0,0.7
2026-04-03T1600,2209A,121.6672,42.07,阜新市,农业园区,细颗粒物(PM2.5),173,NA,94,131,68,43,43,96,89,22,22,4,12,1.0,0.7
2026-04-03T1600,2211A,121.6343,42.0455,阜新市,玉龙新城,细颗粒物(PM2.5),165,NA,90,125,67,39,39,85,79,23,31,9,15,1.1,0.7
2026-04-03T1600,2301A,115.8276,32.8929,阜阳市,市监测站,,33,26,49,7,27,105,105,98,98,8,18,5,6,0.3,0.7
2026-04-03T1600,2303A,115.8551,32.8606,阜阳市,开发区,,33,16,48,6,23,104,104,98,98,10,14,5,6,0.3,0.4
2026-04-03T1600,2875A,115.783962,32.889217,阜阳市,阜阳职业技术学院,,34,14,42,3,12,107,107,106,106,4,11,6,6,0.4,0.5
2026-04-03T1600,3468A,115.79,32.8614,阜阳市,市规划展馆,,33,21,43,6,24,105,105,105,105,5,12,7,8,0.3,0.5
2026-04-03T1600,3469A,115.835101,32.918568,阜阳市,枣园社区,,33,25,49,8,28,105,105,100,100,7,14,5,6,0.5,0.6
2026-04-03T1600,2669A,102.9097,34.9841,甘南藏族自治州,州政府,颗粒物(PM10),53,53,85,13,34,91,91,79,79,2,15,5,5,0.2,0.4
2026-04-03T1600,3380A,102.8915,34.9618,甘南藏族自治州,甘肃民族师范学院,,37,37,112,14,31,105,105,91,91,3,26,3,2,0.3,0.4
2026-04-03T1600,2570A,101.96,30.048,甘孜藏族自治州,水桥子,,28,6,11,3,4,88,88,64,64,1,16,6,6,0.2,0.2
2026-04-03T1600,3065A,101.9534,29.9976,甘孜藏族自治州,州环保局,,31,NA,10,7,5,97,97,94,94,6,12,5,5,0.3,0.3
2026-04-03T1600,2363A,114.9368,25.8663,赣州市,地委,,21,12,24,8,16,67,67,63,63,13,19,2,1,0.8,0.8
2026-04-03T1600,2364A,114.946,25.8483,赣州市,气象台,,25,22,31,17,19,60,60,72,72,29,22,2,4,0.8,0.8
2026-04-03T1600,2365A,114.932,25.8332,赣州市,市图书馆,,21,6,20,3,18,66,66,66,66,20,19,5,4,0.8,0.7
2026-04-03T1600,2366A,114.8905,25.8472,赣州市,华坚鞋城,,18,12,24,3,18,57,57,59,59,28,24,6,7,0.5,0.5
2026-04-03T1600,3109A,115.0094,25.8614,赣州市,赣县区卫计委,NA,NA,NA,25,10,15,62,62,59,59,22,20,1,1,0.6,0.7
2026-04-03T1600,2684A,106.2753,36.0057,固原市,监测站,颗粒物(PM10),151,252,175,49,38,106,106,104,104,4,13,4,5,0.2,0.3
2026-04-03T1600,2685A,106.2384,36.0189,固原市,新区,颗粒物(PM10),151,252,158,49,36,110,110,107,107,1,8,4,4,0.2,0.3
2026-04-03T1600,2544A,106.6307,30.4577,广安市,市委,,31,31,20,15,16,96,96,71,71,6,9,6,6,0.6,0.6
2026-04-03T1600,2545A,106.6266,30.4662,广安市,友谊中学,,30,23,18,10,13,94,94,69,69,8,9,8,8,0.5,0.5
2026-04-03T1600,2547A,106.6386,30.4551,广安市,广电花园,,34,34,27,17,17,88,88,66,66,9,12,5,5,0.6,0.6
2026-04-03T1600,2902A,106.6347,30.4868,广安市,北辰小学,,31,31,20,16,17,95,95,71,71,6,8,8,8,0.6,0.7
2026-04-03T1600,2524A,105.8211,32.4444,广元市,老城,颗粒物(PM10),124,181,57,40,21,103,103,56,56,11,31,5,10,0.4,0.7
2026-04-03T1600,2526A,105.8629,32.429,广元市,监测站,颗粒物(PM10),140,224,59,55,21,106,106,57,57,5,24,3,5,0.5,0.7
2026-04-03T1600,3617A,105.8047,32.4167,广元市,经开区,颗粒物(PM10),125,185,52,43,24,102,102,59,59,12,33,12,9,0.6,0.7
2026-04-03T1600,1345A,113.2346,23.1423,广州市,广雅中学,,38,38,42,23,23,65,65,53,53,13,20,2,2,0.4,0.5
2026-04-03T1600,1346A,113.2611,23.105,广州市,市五中,,40,35,43,28,29,76,76,62,62,12,21,2,2,/,/
2026-04-03T1600,1348A,113.3477,23.0916,广州市,广东商学院,,39,34,41,27,28,61,61,50,50,21,24,5,5,0.7,0.7
2026-04-03T1600,1349A,113.4332,23.105,广州市,市八十六中,NA,NA,40,40,25,22,57,57,49,49,NA,39,5,6,/,/
2026-04-03T1600,1350A,113.3506,22.9488,广州市,番禺中学,颗粒物(PM10),52,52,47,32,23,65,65,61,61,16,21,4,4,0.6,0.6
2026-04-03T1600,1351A,113.2147,23.3918,广州市,花都师范,,47,47,48,28,28,45,45,41,41,37,32,6,6,1.0,0.9
2026-04-03T1600,1352A,113.2599,23.1329,广州市,市监测站,,38,38,48,20,18,65,65,53,53,12,21,2,2,/,/
2026-04-03T1600,1353A,113.5618,23.3119,广州市,九龙镇镇龙,颗粒物(PM10),53,54,47,32,26,34,34,54,24,34,25,6,6,0.6,0.6
2026-04-03T1600,1354A,113.2764,23.1544,广州市,麓湖,,38,38,43,24,25,70,70,54,54,7,16,4,4,0.7,0.8
2026-04-03T1600,2846A,113.3209,23.1323,广州市,体育西,NA,NA,44,45,26,23,NA,NA,45,45,11,27,4,5,0.5,0.7
2026-04-03T1600,3298A,113.5718,23.5493,广州市,从化街口,细颗粒物(PM2.5),56,51,43,38,27,44,44,68,47,22,15,7,6,0.7,0.6
2026-04-03T1600,3299A,113.3463,23.369,广州市,白云竹料,,41,41,50,26,30,51,51,46,32,28,25,2,3,0.7,0.7
2026-04-03T1600,3300A,113.2981,23.2365,广州市,白云嘉禾,,36,36,52,23,28,66,66,47,47,19,34,8,8,/,/
2026-04-03T1600,3301A,113.4256,23.1716,广州市,黄埔科学城,,39,38,48,27,29,71,71,52,52,20,32,5,7,0.4,0.5
2026-04-03T1600,3302A,113.3942,23.0485,广州市,番禺大学城,NA,NA,46,44,26,23,70,70,63,63,NA,25,2,2,0.7,0.6
2026-04-03T1600,3303A,113.4923,22.8169,广州市,南沙黄阁,,42,42,42,29,23,67,67,60,60,12,18,6,6,/,/
2026-04-03T1600,3304A,113.534,22.7893,广州市,南沙街,,42,42,40,28,23,60,60,53,53,11,18,7,8,0.5,0.5
2026-04-03T1600,3443A,113.2905,23.5541,广州市,花都梯面,,50,50,43,34,26,38,38,52,33,34,23,8,8,/,/
2026-04-03T1600,3445A,113.786,23.7479,广州市,从化良口,细颗粒物(PM2.5),66,48,37,43,28,54,54,80,61,16,11,4,4,/,/
2026-04-03T1600,3446A,113.805,23.2614,广州市,增城荔城,,45,43,46,31,27,66,66,73,53,12,19,4,5,0.5,0.5
2026-04-03T1600,2506A,109.604387,23.066791,贵港市,江南子站,颗粒物(PM10),51,51,68,28,41,90,90,72,72,5,24,8,10,0.6,0.8
2026-04-03T1600,2508A,109.5669,23.1065,贵港市,荷城子站,,49,44,55,34,41,84,84,69,69,9,25,9,10,0.7,0.9
2026-04-03T1600,3405A,109.5886,23.1172,贵港市,新世纪学校,颗粒物(PM10),51,51,59,31,43,89,89,71,71,10,32,/,/,0.6,0.8
2026-04-03T1600,4260A,109.5933,23.095,贵港市,中山路155-3号,细颗粒物(PM2.5),64,51,74,42,50,93,93,72,72,5,24,/,/,0.7,0.9
2026-04-03T1600,1439A,106.6863,26.6035,贵阳市,马鞍山,,31,24,32,3,21,97,97,80,80,5,8,3,3,/,/
2026-04-03T1600,1441A,106.6241,26.6266,贵阳市,鉴湖路,,36,36,40,3,20,113,113,97,97,10,11,5,5,0.2,0.4
2026-04-03T1600,1442A,106.7468,26.6344,贵阳市,燕子冲,,31,31,43,8,24,88,88,78,78,9,10,4,5,0.4,0.6
2026-04-03T1600,1443A,106.6556,26.4362,贵阳市,碧云窝,,33,27,34,11,23,104,104,90,90,6,10,5,7,/,/
2026-04-03T1600,1445A,106.6963,26.6063,贵阳市,红边门,,32,24,43,6,24,101,101,92,92,7,11,8,8,/,/
2026-04-03T1600,1446A,106.7162383,26.56964667,贵阳市,新华路,,36,36,47,9,26,100,100,92,92,10,13,21,6,0.5,0.4
2026-04-03T1600,1447A,106.6742,26.542,贵阳市,太慈桥,,30,24,35,8,25,96,96,83,83,8,11,3,3,/,/
2026-04-03T1600,4230A,106.688212,26.56952,贵阳市,花果园大街66号,,25,17,28,6,25,80,80,69,69,7,11,2,3,/,/
2026-04-03T1600,4231A,106.687268,26.516892,贵阳市,漓江路57号,NA,NA,NA,29,NA,23,104,104,92,92,9,12,NA,7,NA,0.9
2026-04-03T1600,1864A,110.3091,25.2705,桂林市,龙隐路小学,,45,45,46,27,32,72,72,32,32,10,24,12,6,0.7,0.9
2026-04-03T1600,1865A,110.2849361,25.22909545,桂林市,八中,,46,46,45,16,23,62,62,34,34,10,28,10,6,0.9,1
2026-04-03T1600,3531A,110.296,25.1254,桂林市,旅游学院,NA,NA,NA,46,NA,42,NA,NA,NA,NA,NA,37,NA,6,NA,0.9
2026-04-03T1600,4222A,110.1835,25.2444,桂林市,环湖路276号,,29,29,39,18,29,76,76,47,47,12,25,17,17,0.7,0.8
2026-04-03T1600,4301A,110.2803,25.2773,桂林市,信义路13号,,49,49,46,22,34,68,68,27,27,11,31,11,9,1.0,1.1
2026-04-03T1600,2674A,100.2262,34.4854,果洛藏族自治州,玛沁县大武镇,,46,46,53,24,21,112,112,104,104,2,2,6,15,0.3,0.3
2026-04-03T1600,1130A,126.5557,45.8109,哈尔滨市,松北商大,,43,36,230,30,176,54,54,58,58,14,36,11,14,0.5,1.1
2026-04-03T1600,1132A,126.6162,45.719,哈尔滨市,南岗学府路,,45,40,185,31,102,66,66,67,67,13,26,2,5,0.7,1
2026-04-03T1600,1133A,126.6894,45.7733,哈尔滨市,太平宏伟公园,NA,NA,NA,212,NA,137,58,58,58,58,16,36,NA,13,0.2,0.7
2026-04-03T1600,1134A,126.6361,45.7672,哈尔滨市,道外承德广场,颗粒物(PM10),78,89,284,29,144,46,46,44,44,26,41,9,16,0.7,1.1
2026-04-03T1600,1136A,126.644,45.7261,哈尔滨市,动力和平路,,38,NA,151,26,107,61,61,65,65,14,27,3,8,0.6,1
2026-04-03T1600,1137A,126.5933,45.7479,哈尔滨市,道里建国路,,49,36,178,34,130,60,60,59,59,22,36,13,16,0.4,1
2026-04-03T1600,1138A,126.6127,45.6119,哈尔滨市,平房东轻厂,颗粒物(PM10),67,73,131,43,107,44,44,54,54,52,83,6,11,0.7,1.1
2026-04-03T1600,1139A,126.5875,45.9827,哈尔滨市,呼兰师专,NA,NA,25,260,25,187,58,58,57,57,20,42,8,13,NA,1.2
2026-04-03T1600,1140A,126.6299,45.6799,哈尔滨市,省农科院,,43,42,204,30,103,56,56,63,63,16,31,6,11,0.8,1.1
2026-04-03T1600,4282A,126.6769,45.7379,哈尔滨市,华山路1号,,43,NA,198,30,112,61,61,62,62,14,27,6,10,0.6,1
2026-04-03T1600,4283A,126.9717,45.5356,哈尔滨市,解放大街52号,颗粒物(PM10),84,97,233,43,110,62,62,70,70,18,31,4,11,0.7,1.2
2026-04-03T1600,2688A,93.5124,42.8176,哈密市,地区监测站,,38,19,36,9,10,120,120,94,94,5,9,12,8,0.2,0.1
2026-04-03T1600,2689A,93.5014,42.8312,哈密市,哈密师范学校,,39,25,38,3,10,123,123,92,92,3,9,8,7,0.1,0.1
2026-04-03T1600,2671A,100.9016,36.9464,海北藏族自治州,海晏县西海镇,颗粒物(PM10),63,67,66,23,25,111,111,100,100,3,2,8,6,0.4,0.4
2026-04-03T1600,3867A,102.074,36.5056,海东市,平安区公安局北苑,,42,42,65,21,28,133,133,109,109,5,5,6,9,0.5,0.5
2026-04-03T1600,4163A,102.0984,36.5119,海东市,滨河路,颗粒物(PM10),57,59,60,23,32,112,112,89,89,8,16,5,7,0.6,0.6
2026-04-03T1600,1410A,110.3189,20.0596,海口市,海南大学,,38,34,36,26,24,114,114,90,90,12,7,6,5,0.4,0.4
2026-04-03T1600,1411A,110.2827,20.0051,海口市,秀英海南医院,,38,31,31,26,25,101,101,84,84,23,8,8,8,0.4,0.4
2026-04-03T1600,1412A,110.3391,19.9979,海口市,海南师范大学,,40,38,36,28,24,103,103,89,89,24,7,6,6,0.4,0.4
2026-04-03T1600,1413A,110.3303,20.0359,海口市,龙华路环保局宿舍,,39,32,35,27,25,118,118,92,92,15,9,/,/,0.5,0.6
2026-04-03T1600,3539A,110.5111,19.9737,海口市,桂林洋子站,,33,33,32,22,23,93,93,86,86,5,5,/,/,/,/
2026-04-03T1600,4134A,110.1952,20.0451,海口市,长滨二路9号,,47,47,38,28,27,123,123,94,94,11,7,/,/,/,/
2026-04-03T1600,2673A,100.6158,36.2985,海南藏族自治州,共和县恰卜恰镇,,40,40,72,19,27,117,117,109,109,1,2,11,10,0.3,0.3
2026-04-03T1600,2676A,97.373,37.376,海西蒙古族藏族自治州,德令哈市,,44,37,153,18,28,138,138,124,124,2,3,13,15,0.3,0.4
2026-04-03T1600,1049A,114.492,36.5712,邯郸市,矿院,颗粒物(PM10),60,63,61,37,31,132,132,105,105,4,9,6,5,0.4,0.4
2026-04-03T1600,1050A,114.4839,36.6136,邯郸市,丛台公园,细颗粒物(PM2.5),62,47,52,41,34,130,130,110,110,10,14,10,10,0.4,0.5
2026-04-03T1600,3458A,114.7893,36.5592,邯郸市,香泉濮院小区,颗粒物(PM10),93,109,64,41,31,115,115,99,99,13,13,1,2,0.4,0.4
2026-04-03T1600,3580A,114.1998,36.4439,邯郸市,峰峰矿区临水派出所,颗粒物(PM10),112,150,64,63,36,121,121,107,107,4,11,5,7,0.4,0.5
2026-04-03T1600,4068A,114.5209,36.7697,邯郸市,建安街268号,颗粒物(PM10),71,79,62,35,36,109,109,104,104,15,15,2,4,0.3,0.6
2026-04-03T1600,4069A,114.5488,36.6177,邯郸市,丛台东路558号,颗粒物(PM10),66,72,58,37,35,124,124,100,100,5,11,4,4,0.4,0.4
2026-04-03T1600,2635A,107.0155,33.0707,汉中市,市监测站,颗粒物(PM10),129,193,59,38,26,106,106,65,65,7,19,5,5,0.3,0.6
2026-04-03T1600,2636A,107.0083,33.114,汉中市,鑫源开发区,颗粒物(PM10),130,197,62,30,27,108,108,68,68,6,24,4,6,0.2,0.8
2026-04-03T1600,2637A,107.0072,33.0323,汉中市,南郑大河坎水厂,颗粒物(PM10),133,205,60,37,23,108,108,63,63,4,17,4,4,0.2,0.5
2026-04-03T1600,1223A,120.2073,30.2111,杭州市,滨江,,20,15,55,10,32,60,60,92,72,39,31,6,7,0.7,0.7
2026-04-03T1600,1224A,120.0625,30.2737,杭州市,西溪,,18,16,48,12,28,53,53,79,72,27,17,8,8,0.7,0.7
2026-04-03T1600,1226A,120.3417,30.315,杭州市,下沙,,40,40,68,19,27,43,43,86,66,55,32,6,7,0.7,0.6
2026-04-03T1600,1227A,120.1252,30.2465,杭州市,卧龙桥,,19,12,45,8,27,58,58,84,76,23,18,7,7,0.5,0.5
2026-04-03T1600,1228A,120.1902,30.2691,杭州市,浙江农大,,28,16,52,12,33,41,41,87,66,55,33,6,6,0.4,0.5
2026-04-03T1600,1230A,120.1195,30.3121,杭州市,和睦小学,,25,25,69,13,34,51,51,84,72,37,24,6,6,0.6,0.6
2026-04-03T1600,1231A,120.3076,30.4146,杭州市,临平镇,,22,20,55,15,35,65,65,96,84,39,31,6,7,0.6,0.6
2026-04-03T1600,1232A,120.2753,30.1839,杭州市,城厢镇,,22,22,54,15,38,52,52,83,62,41,39,5,6,0.7,0.7
2026-04-03T1600,1233A,120.0883,30.1808,杭州市,云栖,,17,6,49,3,28,53,53,83,74,28,25,6,6,0.6,0.6
2026-04-03T1600,3557A,119.9463,30.0496,杭州市,镇二中,,24,24,40,16,24,61,61,81,70,36,26,4,4,0.7,0.8
2026-04-03T1600,3558A,119.7184,30.2367,杭州市,市府大楼,,23,12,32,10,27,72,72,80,78,18,19,6,6,0.3,0.4
2026-04-03T1600,3656A,120.1554,30.2863,杭州市,消防大队,,20,20,67,12,35,51,51,79,66,36,26,8,8,0.7,0.8
2026-04-03T1600,1270A,117.1957,31.7845,合肥市,明珠广场,颗粒物(PM10),58,61,47,38,25,85,85,74,74,22,22,4,3,0.7,0.6
2026-04-03T1600,1271A,117.307,31.8765,合肥市,三里街,颗粒物(PM10),68,75,60,42,34,80,80,63,63,28,32,6,6,0.7,0.6
2026-04-03T1600,1272A,117.2587,31.8703,合肥市,琥珀山庄,颗粒物(PM10),63,68,53,36,28,89,89,72,72,25,29,6,7,0.7,0.7
2026-04-03T1600,1275A,117.2593,31.9376,合肥市,庐阳区,颗粒物(PM10),67,73,63,42,33,89,89,75,75,20,29,6,6,0.9,0.8
2026-04-03T1600,1276A,117.345251,31.861615,合肥市,瑶海区,颗粒物(PM10),75,85,64,35,30,81,81,67,67,26,34,8,8,0.8,0.8
2026-04-03T1600,1277A,117.3033,31.7967,合肥市,包河区,颗粒物(PM10),63,68,54,28,24,78,78,64,64,30,37,9,9,0.7,0.7
2026-04-03T1600,1278A,117.278,31.7392,合肥市,滨湖新区,颗粒物(PM10),62,66,46,26,22,80,80,76,76,25,15,5,5,0.6,0.6
2026-04-03T1600,1279A,117.1324,31.8395,合肥市,高新区,颗粒物(PM10),60,63,51,34,25,95,95,77,70,14,21,6,6,0.7,0.7
2026-04-03T1600,3464A,117.3802,31.9148,合肥市,高教基地,颗粒物(PM10),72,80,63,34,32,75,75,74,74,34,25,9,9,0.7,0.6
2026-04-03T1600,4098A,117.2518,31.8404,合肥市,中国科学技术大学,颗粒物(PM10),55,56,49,33,25,88,88,73,73,16,22,6,7,0.7,0.7
2026-04-03T1600,3614A,79.9241,37.0878,和田地区,地区环保局,颗粒物(PM10),454,554,213,82,37,112,112,94,94,2,11,3,2,0.3,0.4
2026-04-03T1600,3615A,79.9132,37.1137,和田地区,市环保局,颗粒物(PM10),200,350,169,65,38,101,101,74,74,2,23,3,2,0.4,0.8
2026-04-03T1600,2517A,108.0496,24.6957,河池市,市环保站,,36,36,69,16,55,81,81,40,40,4,13,5,5,0.7,0.9
2026-04-03T1600,4302A,108.0901,24.6945,河池市,上任中路54号,,32,24,67,22,51,80,80,38,38,4,17,6,7,0.8,1
2026-04-03T1600,1697A,114.6962,23.7538,河源市,东埔,,43,38,33,30,23,60,60,76,61,13,12,5,6,0.4,0.5
2026-04-03T1600,1698A,114.6895,23.7232,河源市,老城,,40,29,31,28,23,58,58,76,62,15,11,6,6,0.5,0.5
2026-04-03T1600,3374A,115.5562,35.089,菏泽市,定陶老年大学,,41,34,68,7,37,130,130,117,117,12,16,6,6,0.3,0.5
2026-04-03T1600,4114A,115.4239,35.2593,菏泽市,黄河路600号,,40,40,77,6,34,121,121,107,107,6,14,1,3,0.3,0.4
2026-04-03T1600,4115A,115.5025,35.2727,菏泽市,菏泽市人社局,,37,36,65,7,40,118,118,108,108,7,15,6,7,0.2,0.3
2026-04-03T1600,4184A,115.479691,35.244011,菏泽市,永昌路1号,,42,30,67,7,34,132,132,117,117,10,16,2,4,0.3,0.3
2026-04-03T1600,4193A,115.471542,35.280012,菏泽市,长城路999号,,42,31,64,6,29,132,132,118,118,6,12,5,18,0.2,0.3
2026-04-03T1600,2514A,111.5264,24.4178,贺州市,环保小区,,46,46,41,30,34,80,80,41,41,16,24,6,5,0.7,0.7
2026-04-03T1600,2515A,111.561,24.4074,贺州市,政协大楼,,48,42,36,33,34,94,94,56,56,17,18,8,8,0.8,0.7
2026-04-03T1600,3534A,111.4744,24.455,贺州市,西湾,,46,46,54,32,36,79,79,40,40,9,24,6,7,0.7,0.8
2026-04-03T1600,2385A,114.17,35.9019,鹤壁市,市监测站,颗粒物(PM10),59,62,52,35,30,118,118,111,111,13,16,7,8,0.5,0.6
2026-04-03T1600,2386A,114.2953,35.7512,鹤壁市,市交警支队,颗粒物(PM10),66,72,60,32,31,119,119,105,105,11,15,8,10,0.5,0.6
2026-04-03T1600,2387A,114.2877,35.7302,鹤壁市,迎宾馆,颗粒物(PM10),67,73,70,32,34,124,124,108,108,9,15,7,8,0.5,0.6
2026-04-03T1600,3474A,114.2616,35.6824,鹤壁市,大新区,NA,NA,NA,51,NA,49,NA,NA,113,NA,NA,23,NA,8,NA,0.6
2026-04-03T1600,3596A,114.1573,35.9607,鹤壁市,南山宾馆,颗粒物(PM10),68,74,63,34,34,116,116,109,109,8,10,11,10,0.4,0.5
2026-04-03T1600,2244A,130.2537,47.3416,鹤岗市,哈啤分公司,,31,31,47,21,39,94,94,90,90,11,12,8,8,0.4,0.5
2026-04-03T1600,2245A,130.2683,47.3087,鹤岗市,斯达机电,,38,36,57,26,41,93,93,91,91,7,12,11,11,0.4,0.4
2026-04-03T1600,2246A,130.3114,47.3388,鹤岗市,东山纸板厂,,48,48,70,22,40,94,94,92,92,11,12,7,9,0.3,0.4
2026-04-03T1600,2263A,127.4832,50.2524,黑河市,交通局,NA,NA,29,28,NA,11,78,78,79,79,7,6,6,5,0.3,0.3
2026-04-03T1600,2264A,127.5146,50.2339,黑河市,环保局,,25,22,32,8,13,78,78,74,74,9,16,6,7,0.4,0.5
2026-04-03T1600,1074A,115.6839,37.754,衡水市,电机北厂,颗粒物(PM10),288,411,97,96,44,105,105,92,92,10,19,5,7,0.3,0.4
2026-04-03T1600,1075A,115.6303,37.7318,衡水市,市监测站,颗粒物(PM10),196,342,97,86,40,103,103,86,86,10,20,7,8,0.3,0.4
2026-04-03T1600,3188A,115.6684,37.7216,衡水市,市城管局,颗粒物(PM10),216,361,94,70,46,107,107,92,92,8,20,3,7,0.3,0.4
2026-04-03T1600,3459A,115.599,37.5491,衡水市,地表水厂,颗粒物(PM10),171,292,87,69,38,106,106,100,100,7,21,4,6,0.2,0.3
2026-04-03T1600,2457A,112.6209,26.9268,衡阳市,衡阳化工总厂,,25,12,22,3,14,79,79,53,53,8,13,3,4,0.7,0.8
2026-04-03T1600,2458A,112.621,26.8957,衡阳市,珠晖区环保局,,24,10,22,3,14,75,75,53,53,7,15,6,7,0.7,0.8
2026-04-03T1600,2459A,112.628,26.8654,衡阳市,市委党校,,26,12,20,3,15,82,82,54,54,4,9,7,6,0.8,0.9
2026-04-03T1600,2460A,112.6007,26.8977,衡阳市,市监测站,,23,10,26,3,15,73,73,54,54,10,17,7,7,0.7,0.8
2026-04-03T1600,2461A,112.5658,26.9013,衡阳市,真空机电公司,,25,13,20,3,16,80,80,56,56,2,7,6,6,0.9,1
2026-04-03T1600,3399A,112.6703,26.8817,衡阳市,师范学院,,27,12,22,6,15,85,85,52,52,4,7,5,5,0.7,0.9
2026-04-03T1600,3038A,103.3757,23.3679,红河哈尼族彝族自治州,州图书馆,,40,39,48,25,38,127,127,120,120,5,6,8,7,0.3,0.4
2026-04-03T1600,4154A,103.401,23.3561,红河哈尼族彝族自治州,蒙自市朝阳路,,40,NA,35,27,37,126,126,116,116,5,8,13,12,0.4,0.4
2026-04-03T1600,1090A,111.6506,40.7517,呼和浩特市,呼市一监,,31,6,155,3,40,98,98,94,94,2,12,8,16,0.2,0.4
2026-04-03T1600,1094A,111.7516,40.8369,呼和浩特市,如意水处理厂,,30,10,82,10,32,95,95,90,90,4,16,5,8,0.2,0.3
2026-04-03T1600,1095A,111.727798,40.806187,呼和浩特市,二十九中,,27,13,135,6,35,85,85,81,81,1,10,7,10,0.3,0.3
2026-04-03T1600,1097A,111.717,40.7617,呼和浩特市,化肥厂生活区,,29,11,97,3,44,91,91,88,88,4,14,5,9,0.2,0.3
2026-04-03T1600,3699A,111.6519,40.8389,呼和浩特市,海东办,,29,9,119,3,26,92,92,88,88,4,16,3,7,0.2,0.4
2026-04-03T1600,4275A,111.591512,40.827312,呼和浩特市,成吉思汗西街8号,,28,17,123,3,28,87,87,83,83,8,26,4,7,0.2,0.3
2026-04-03T1600,4276A,111.6597,40.8077,呼和浩特市,公园东路75号,,28,14,129,3,28,87,87,84,84,6,14,8,12,0.1,0.2
2026-04-03T1600,4277A,111.5427,40.7846,呼和浩特市,金海路35号,,28,10,163,3,33,87,87,82,82,9,25,3,6,0.3,0.4
2026-04-03T1600,3061A,119.7511,49.1576,呼伦贝尔市,国华电力东,,30,25,24,11,9,94,94,74,74,7,9,6,6,0.2,0.3
2026-04-03T1600,4279A,119.7569,49.2222,呼伦贝尔市,伊敏大街东7号,,27,14,32,7,12,84,84,64,64,6,12,6,6,0.6,0.5
2026-04-03T1600,1250A,120.075,30.867,湖州市,城西水厂,,25,16,47,14,33,80,80,106,99,30,22,5,6,0.7,0.7
2026-04-03T1600,2873A,120.083,30.8929,湖州市,仁皇山新区,,26,19,47,18,33,80,80,102,97,33,25,4,6,0.7,0.7
2026-04-03T1600,2907A,120.1846,30.8592,湖州市,吴兴区站,,33,32,55,23,33,84,84,106,102,22,18,5,6,0.8,0.7
2026-04-03T1600,3562A,120.4146,30.8538,湖州市,南浔区站,,29,22,46,17,29,90,90,98,96,16,16,4,5,0.9,0.8
2026-04-03T1600,1607A,120.904878,40.721091,葫芦岛市,龙港区,细颗粒物(PM2.5),109,92,78,69,55,152,152,122,122,16,20,9,10,0.8,0.6
2026-04-03T1600,1608A,120.8382,40.7521,葫芦岛市,化工街,细颗粒物(PM2.5),122,105,99,84,74,140,140,104,104,24,28,17,15,0.8,0.7
2026-04-03T1600,1609A,120.8339,40.7078,葫芦岛市,新区,细颗粒物(PM2.5),118,88,77,79,70,150,150,115,115,19,23,8,10,0.9,0.8
2026-04-03T1600,1610A,120.8697,40.7679,葫芦岛市,东城区,细颗粒物(PM2.5),131,NA,68,94,74,148,148,111,111,24,28,9,10,0.9,0.8
2026-04-03T1600,2483A,109.9297,27.5383,怀化市,河西地税局,,25,18,12,9,8,80,80,59,59,7,9,4,4,/,/
2026-04-03T1600,2484A,109.9783,27.5342,怀化市,市四医院,,27,16,15,3,7,85,85,59,59,6,10,7,6,0.3,0.4
2026-04-03T1600,2485A,109.9971,27.5579,怀化市,监测楼,NA,NA,18,13,NA,8,87,87,64,64,5,9,2,2,0.2,0.3
2026-04-03T1600,1210A,119.0566,33.5991,淮安市,钵池山,细颗粒物(PM2.5),60,51,87,40,66,112,112,90,90,18,29,8,11,0.5,0.7
2026-04-03T1600,1211A,119.0083,33.578,淮安市,北京南路,细颗粒物(PM2.5),70,58,83,45,72,105,105,82,82,14,26,8,11,0.6,0.9
2026-04-03T1600,1212A,118.9938,33.6083,淮安市,市监测站,细颗粒物(PM2.5),60,46,82,40,72,126,126,95,95,16,28,6,9,0.7,0.9
2026-04-03T1600,1213A,119.135,33.5038,淮安市,楚州区监测站,细颗粒物(PM2.5),58,49,95,39,74,98,98,79,79,13,32,6,7,0.5,0.7
2026-04-03T1600,3426A,118.8757,33.2897,淮安市,新华书店,颗粒物(PM10),59,62,102,25,48,103,103,78,78,14,32,8,9,0.5,0.8
2026-04-03T1600,4092A,119.119691,33.550006,淮安市,枚皋中路89号,细颗粒物(PM2.5),54,44,94,37,70,103,103,86,86,14,24,10,13,0.6,0.8
2026-04-03T1600,4206A,119.028838,33.631911,淮安市,承德北路606号,颗粒物(PM10),55,56,102,37,67,114,114,88,88,11,23,8,11,0.4,0.6
2026-04-03T1600,2282A,116.8005,33.9749,淮北市,监测站,,42,20,56,9,28,134,134,114,114,7,18,6,8,0.2,0.4
2026-04-03T1600,2283A,116.8094,33.9008,淮北市,烈山区政府,,39,20,59,3,27,122,122,102,102,7,19,7,8,0.3,0.5
2026-04-03T1600,4017A,116.7926,33.9534,淮北市,市博物馆,,40,24,50,9,28,127,127,108,108,7,16,4,6,0.3,0.6
2026-04-03T1600,4100A,116.8322,33.9884,淮北市,杜集区第一实验学校,,37,24,61,3,26,118,118,99,99,8,16,7,8,0.2,0.5
2026-04-03T1600,2277A,116.8304,32.7726,淮南市,潘集区政府,,34,25,41,12,21,106,106,89,89,10,20,6,7,0.2,0.3
2026-04-03T1600,2279A,116.8569,32.5949,淮南市,谢家集区政府,,32,21,33,16,21,100,100,88,88,10,21,8,9,0.4,0.5
2026-04-03T1600,2280A,116.8279,32.6333,淮南市,八公山区政府,,32,31,42,19,19,102,102,87,87,8,12,8,10,0.4,0.5
2026-04-03T1600,2894A,117.0561,32.6536,淮南市,经济技术开发区消防队,,45,45,51,28,35,119,119,82,82,14,22,9,8,0.4,0.5
2026-04-03T1600,3329A,117.011,32.5891,淮南市,山南新区,颗粒物(PM10),56,58,60,27,30,114,114,89,89,15,16,8,8,0.5,0.5
2026-04-03T1600,4209A,117.003137,32.644456,淮南市,国庆中路369号,,38,38,48,24,28,119,119,80,80,12,17,12,13,0.4,0.5
2026-04-03T1600,2446A,114.9021,30.474,黄冈市,职工中心,,24,24,31,14,19,70,70,71,55,9,7,7,7,0.7,0.6
2026-04-03T1600,2929A,114.8858,30.4519,黄冈市,红卫路,,25,19,30,15,24,79,79,78,68,13,11,5,6,0.3,0.3
2026-04-03T1600,3398A,114.9134,30.4446,黄冈市,市林业局,,26,26,32,15,18,78,78,75,68,8,8,4,4,0.2,0.2
2026-04-03T1600,2672A,102.02,35.5101,黄南藏族自治州,同仁县隆务镇,,39,38,49,11,21,123,123,114,114,1,2,10,10,0.2,0.2
2026-04-03T1600,2295A,118.2905,29.6965,黄山市,延安路89号,,24,9,29,3,18,75,75,74,74,11,15,4,5,0.5,0.5
2026-04-03T1600,2297A,118.1369,30.2755,黄山市,黄山区政府5号楼,,18,15,29,3,16,55,55,50,50,6,10,3,3,0.4,0.4
2026-04-03T1600,4210A,118.335445,29.720283,黄山市,滨江东路7-2号,,23,20,38,3,18,72,72,79,78,11,12,/,/,/,/
2026-04-03T1600,2423A,115.0547,30.2332,黄石市,沈家营,,28,28,43,10,22,64,64,48,48,8,18,28,10,1.0,0.6
2026-04-03T1600,2426A,114.899,30.211,黄石市,铁山,,30,30,32,20,19,72,72,61,56,13,13,8,8,1.0,0.9
2026-04-03T1600,2427A,115.0259,30.2108,黄石市,团城山,,26,24,35,18,20,58,58,56,46,12,11,5,5,0.6,0.6
2026-04-03T1600,3149A,115.0174,30.1591,黄石市,笔架山北路,,38,38,45,23,20,70,70,68,58,16,10,9,9,0.9,0.9
2026-04-03T1600,4185A,115.078022,30.21118,黄石市,磁湖东路29号,,29,28,35,20,21,67,67,65,55,12,14,4,4,0.7,0.8
2026-04-03T1600,1392A,114.4181,23.0528,惠州市,河南岸金山湖子站,NA,NA,43,37,30,22,50,50,85,70,NA,9,NA,7,0.6,0.7
2026-04-03T1600,1393A,114.4055,23.0824,惠州市,下埔横江三路子站,颗粒物(PM10),53,54,44,32,23,45,45,87,68,18,10,4,5,0.6,0.6
2026-04-03T1600,1395A,114.4645,22.7832,惠州市,惠阳区承修路船湖子站,,46,46,44,28,21,60,60,91,74,9,10,5,6,0.4,0.4
2026-04-03T1600,1396A,114.5316,22.7423,惠州市,大亚湾管委会子站,,40,39,41,28,19,57,57,86,69,6,9,2,3,0.5,0.5
2026-04-03T1600,3314A,114.4334,22.8134,惠州市,惠阳秋长,,45,41,37,31,21,58,58,94,74,13,11,/,/,/,/
2026-04-03T1600,3452A,114.6521,22.7755,惠州市,大亚湾霞涌,,30,30,28,20,18,60,60,82,72,10,10,/,/,/,/
2026-04-03T1600,4300A,114.4089,23.1147,惠州市,文华一路1号,,50,50,38,30,22,40,40,88,67,19,11,/,/,/,/
2026-04-03T1600,2240A,130.9618,45.2926,鸡西市,环保局,细颗粒物(PM2.5),140,166,214,104,137,102,102,101,101,18,34,8,12,0.3,0.7
2026-04-03T1600,2243A,130.9294,45.2959,鸡西市,第一中学,细颗粒物(PM2.5),145,155,199,109,142,100,100,100,100,18,30,5,11,0.5,0.7
2026-04-03T1600,3707A,131.0069,45.2988,鸡西市,欧美日汽修厂,细颗粒物(PM2.5),143,157,249,107,130,101,101,98,98,15,38,9,15,1.2,1.6
2026-04-03T1600,2367A,114.9753,27.0803,吉安市,红声器材厂,,19,19,27,3,9,31,31,28,25,17,18,6,6,1.1,0.8
2026-04-03T1600,2369A,114.9903,27.1313,吉安市,市环境监测站,,15,15,22,3,10,40,40,33,30,13,16,7,7,/,/
2026-04-03T1600,2370A,115.009527,27.096792,吉安市,青原区法院,,18,18,25,8,11,38,38,30,30,18,19,6,7,1.0,1.1
2026-04-03T1600,1772A,126.54,43.8622,吉林市,哈达湾,细颗粒物(PM2.5),205,235,268,155,201,53,53,78,78,29,41,6,14,1.3,1.5
2026-04-03T1600,1773A,126.5843,43.8358,吉林市,东局子,细颗粒物(PM2.5),213,247,211,163,149,49,49,81,81,31,37,5,8,1.6,1.3
2026-04-03T1600,1774A,126.5051,43.8243,吉林市,电力学院,细颗粒物(PM2.5),222,220,324,172,238,61,61,86,86,37,56,7,15,1.6,2
2026-04-03T1600,1775A,126.6133,43.8971,吉林市,江北,细颗粒物(PM2.5),273,225,269,223,241,59,59,104,104,20,33,7,13,1.2,1.4
2026-04-03T1600,1776A,126.5549,43.8304,吉林市,江南公园,细颗粒物(PM2.5),219,228,208,169,156,52,52,80,80,38,34,7,12,1.3,1.1
2026-04-03T1600,2868A,126.4737,43.953,吉林市,九站,细颗粒物(PM2.5),211,170,320,161,260,64,64,86,86,29,58,6,18,1.3,1.6
2026-04-03T1600,1299A,116.9866,36.6118,济南市,科干所,,44,41,58,10,33,138,138,127,127,8,11,7,8,0.5,0.6
2026-04-03T1600,1300A,116.9379,36.6652,济南市,农科所,颗粒物(PM10),51,51,69,8,33,136,136,122,122,10,13,7,8,0.4,0.5
2026-04-03T1600,1301A,117.1265,36.6736,济南市,开发区,,44,42,52,8,30,138,138,133,133,8,10,6,6,0.5,0.6
2026-04-03T1600,1303A,117.0616,36.6865,济南市,省种子仓库,NA,NA,NA,65,6,28,136,136,129,127,8,9,6,6,0.5,0.6
2026-04-03T1600,1304A,116.9495185,36.644937,济南市,机床二厂,,49,49,65,8,32,140,140,126,126,10,12,6,7,0.5,0.6
2026-04-03T1600,1305A,117.0496,36.6629,济南市,市监测站,,46,46,60,8,27,134,134,128,126,9,11,5,5,0.5,0.6
2026-04-03T1600,1306A,116.7674,36.5458,济南市,长清党校,,49,49,70,7,32,143,143,127,127,6,10,6,7,0.4,0.6
2026-04-03T1600,1961A,117.5323,36.6865,济南市,东山小学,颗粒物(PM10),55,56,68,13,35,134,134,138,138,14,19,4,7,0.3,0.4
2026-04-03T1600,3059A,117.7181,36.205,济南市,泰兴公司,颗粒物(PM10),55,56,75,19,38,153,153,146,146,9,21,12,13,0.3,0.4
2026-04-03T1600,3064A,117.6861,36.2172,济南市,莱芜战役纪念馆,颗粒物(PM10),51,51,75,17,37,148,148,142,142,11,19,7,9,0.4,0.6
2026-04-03T1600,3494A,117.1673,36.9782,济南市,济阳区政府,颗粒物(PM10),58,61,75,14,34,128,128,115,115,11,20,11,9,0.6,0.6
2026-04-03T1600,3495A,117.1168,36.6299,济南市,锦屏中学,,40,34,49,7,31,126,126,121,121,12,13,6,6,0.3,0.4
2026-04-03T1600,4108A,117.7107,36.2385,济南市,山财大街5号,NA,NA,51,71,NA,42,154,154,149,149,9,30,6,12,NA,0.7
2026-04-03T1600,4109A,116.9744,36.6889,济南市,无影山路12号,,41,39,52,9,33,129,129,118,118,9,11,5,6,0.6,0.7
2026-04-03T1600,1653A,116.6229,35.4288,济宁市,火炬城,NA,NA,37,61,10,42,121,121,113,113,5,14,NA,7,0.5,0.8
2026-04-03T1600,3500A,116.5808,35.3703,济宁市,北湖一中,,40,37,56,8,36,127,127,118,118,7,15,7,8,0.5,0.7
2026-04-03T1600,3501A,116.8251,35.5592,济宁市,服务中心,颗粒物(PM10),55,57,79,12,45,129,129,122,122,5,14,2,3,0.4,0.6
2026-04-03T1600,3678A,116.5907,35.4054,济宁市,市第七中学,,49,49,66,9,38,134,134,125,125,7,15,3,5,0.5,0.7
2026-04-03T1600,4111A,116.6075,35.4566,济宁市,任和路,,42,25,79,9,39,132,132,123,123,10,17,6,8,0.3,0.6
2026-04-03T1600,4112A,116.5648,35.3921,济宁市,文体南路1号,,41,31,74,3,34,130,130,119,119,6,11,6,7,0.2,0.6
2026-04-03T1600,4122A,112.6071,35.1015,济源市,市委党校,颗粒物(PM10),147,242,138,46,64,120,120,91,91,8,24,7,11,0.2,0.9
2026-04-03T1600,4123A,112.596,35.0702,济源市,沁园中路1号,颗粒物(PM10),149,245,109,44,67,120,120,90,90,3,29,3,8,0.4,0.9
2026-04-03T1600,2255A,130.2749,46.8028,佳木斯市,佳纺,细颗粒物(PM2.5),70,54,92,45,66,92,92,91,91,10,20,6,7,0.3,0.5
2026-04-03T1600,2257A,130.3258,46.7975,佳木斯市,环保局,细颗粒物(PM2.5),74,50,84,47,57,90,90,88,88,13,18,4,5,0.4,0.4
2026-04-03T1600,4285A,130.363,46.806,佳木斯市,顺和街,细颗粒物(PM2.5),62,48,84,41,65,94,94,89,89,11,17,3,4,0.3,0.4
2026-04-03T1600,4286A,130.3952,46.8268,佳木斯市,长安路196号,NA,NA,NA,91,NA,68,91,91,87,87,NA,16,9,9,NA,0.5
2026-04-03T1600,1252A,120.7439,30.778,嘉兴市,清河小学,,30,15,36,3,16,93,93,110,107,31,25,6,7,1.1,0.9
2026-04-03T1600,1253A,120.7261,30.7477,嘉兴市,嘉兴学院,,34,17,43,10,24,106,106,113,110,25,23,5,6,0.6,0.5
2026-04-03T1600,2872A,120.7845,30.7524,嘉兴市,南湖区残联,,29,NA,31,13,25,91,91,104,101,21,16,3,5,0.8,0.6
2026-04-03T1600,3407A,120.6915,30.7741,嘉兴市,秀洲住建,,33,10,34,8,22,103,103,110,106,19,16,5,6,0.5,0.5
2026-04-03T1600,1945A,98.291,39.7705,嘉峪关市,气象局,颗粒物(PM10),93,110,126,31,26,126,126,105,105,11,10,27,17,1.0,0.9
2026-04-03T1600,2884A,98.2672,39.7978,嘉峪关市,酒钢宾馆,颗粒物(PM10),100,119,155,28,30,123,123,103,103,6,9,40,19,0.9,0.7
2026-04-03T1600,3248A,98.2644,39.7723,嘉峪关市,雄关区,颗粒物(PM10),87,101,114,32,28,124,124,102,102,9,16,25,10,0.8,0.6
2026-04-03T1600,1383A,113.1063,22.6058,江门市,北街,,32,32,39,21,21,68,68,63,63,7,10,/,/,/,/
2026-04-03T1600,1384A,113.073,22.5835,江门市,西区,,32,32,41,21,23,70,70,66,66,8,10,/,/,/,/
2026-04-03T1600,1385A,113.0218,22.531,江门市,圭峰西,,36,36,40,22,24,70,70,66,66,5,8,/,/,/,/
2026-04-03T1600,1386A,113.0826,22.5947,江门市,东湖,,36,36,42,18,22,71,71,67,67,7,9,5,5,0.4,0.4
2026-04-03T1600,3311A,113.1077,22.5647,江门市,江海富民,,46,46,52,20,23,72,72,68,68,9,10,/,/,0.4,0.4
2026-04-03T1600,3449A,113.0496,22.4669,江门市,新会银湖,,35,35,40,21,23,71,71,66,66,7,10,7,7,0.2,0.3
2026-04-03T1600,3335A,113.3137,35.2643,焦作市,马村街道办,颗粒物(PM10),117,163,78,35,45,109,109,94,94,9,18,8,11,0.2,0.6
2026-04-03T1600,3336A,113.2464,35.2374,焦作市,焦作技师学院,颗粒物(PM10),134,206,81,44,44,111,111,94,94,6,19,7,10,0.5,1.1
2026-04-03T1600,3477A,113.1656,35.2536,焦作市,中站许衡医院,颗粒物(PM10),120,171,76,39,39,119,119,96,96,10,15,8,14,0.3,0.8
2026-04-03T1600,3981A,113.2456,35.18,焦作市,原李万街道办,颗粒物(PM10),68,75,83,35,53,109,109,84,84,7,18,8,12,0.4,0.6
2026-04-03T1600,4264A,113.234,35.219,焦作市,新安路1731号,颗粒物(PM10),134,207,93,26,50,121,121,99,99,9,21,8,12,0.5,0.9
2026-04-03T1600,4295A,113.2722,35.2121,焦作市,人民路3066号,,38,6,87,3,52,119,119,99,99,2,15,5,8,0.4,0.7
2026-04-03T1600,1708A,116.3701,23.5345,揭阳市,新兴,细颗粒物(PM2.5),115,NA,36,76,33,50,50,86,63,42,21,11,8,0.8,0.6
2026-04-03T1600,1709A,116.3261,23.5442,揭阳市,西马,细颗粒物(PM2.5),64,67,41,42,26,61,61,87,67,30,18,6,6,1.1,0.8
2026-04-03T1600,1710A,116.361,23.5627,揭阳市,东兴,NA,NA,NA,35,NA,24,NA,NA,85,66,33,19,4,5,/,/
2026-04-03T1600,1711A,116.4151,23.5295,揭阳市,渔湖,细颗粒物(PM2.5),84,76,40,52,26,62,62,97,71,36,19,4,4,/,/
2026-04-03T1600,3320A,116.4028,23.5699,揭阳市,曲溪,细颗粒物(PM2.5),62,56,34,41,24,54,54,90,71,40,17,18,10,0.7,0.5
2026-04-03T1600,1944A,102.1691,38.5166,金昌市,天庆家园,颗粒物(PM10),144,232,358,48,67,115,115,116,107,4,3,16,11,0.4,0.3
2026-04-03T1600,4022A,102.1648,38.5369,金昌市,金川区人防中心,颗粒物(PM10),144,234,374,46,72,112,112,113,105,5,3,4,3,0.2,0.2
2026-04-03T1600,4239A,102.193042,38.531887,金昌市,长春路96号,颗粒物(PM10),142,227,308,49,82,110,110,111,104,3,2,6,5,0.4,0.3
2026-04-03T1600,1262A,119.6478,29.0773,金华市,十五中,,38,37,35,26,19,60,60,105,72,34,22,3,3,0.6,0.5
2026-04-03T1600,1263A,119.6859,29.1032,金华市,监测站,,27,27,32,17,17,62,62,107,72,30,19,3,4,0.5,0.4
2026-04-03T1600,3659A,119.656,29.1132,金华市,气象局,,24,24,32,16,18,41,41,102,64,42,27,3,3,0.5,0.3
2026-04-03T1600,1767A,121.1114,41.0879,锦州市,南山,细颗粒物(PM2.5),125,NA,71,87,70,145,145,103,103,22,27,11,11,0.8,0.7
2026-04-03T1600,1768A,121.060361,40.842794,锦州市,开发区,细颗粒物(PM2.5),116,78,82,77,69,153,153,114,114,21,30,8,8,0.7,0.6
2026-04-03T1600,1769A,121.1836,41.1118,锦州市,百股街道,细颗粒物(PM2.5),129,NA,72,91,77,155,155,114,114,22,26,9,10,0.7,0.7
2026-04-03T1600,1770A,121.1176,41.1224,锦州市,天安街道,细颗粒物(PM2.5),121,NA,76,83,71,140,140,99,99,23,28,10,9,1.0,0.8
2026-04-03T1600,1771A,121.1303,41.1385,锦州市,北湖公园,细颗粒物(PM2.5),122,NA,79,84,72,148,148,104,104,20,26,9,7,0.8,0.6
2026-04-03T1600,2160A,112.8496,35.5051,晋城市,自来水公司,颗粒物(PM10),149,246,98,48,30,118,118,98,98,7,17,3,5,0.4,0.6
2026-04-03T1600,2162A,112.8509,35.4886,晋城市,市环保局,颗粒物(PM10),163,276,93,57,38,122,122,97,97,6,15,5,7,0.2,0.4
2026-04-03T1600,3620A,112.8258,35.4804,晋城市,泽州一中,颗粒物(PM10),134,207,82,46,44,117,117,96,96,4,14,3,5,NA,1.1
2026-04-03T1600,4078A,112.8246,35.5152,晋城市,前书院路,颗粒物(PM10),293,415,108,49,33,71,71,77,77,5,21,6,6,0.3,0.5
2026-04-03T1600,4079A,112.8864,35.4773,晋城市,祥云街666号,颗粒物(PM10),167,284,84,50,38,108,108,88,88,2,14,6,7,0.2,0.5
2026-04-03T1600,2174A,112.6992,37.6984,晋中市,榆次区政府,颗粒物(PM10),109,141,139,24,44,97,97,89,89,9,19,8,13,0.3,0.8
2026-04-03T1600,2865A,112.7195,37.683,晋中市,榆次三中,颗粒物(PM10),121,173,151,16,42,102,102,94,94,3,20,8,12,0.2,0.7
2026-04-03T1600,4080A,112.7375,37.7215,晋中市,广安街188号,颗粒物(PM10),110,145,133,16,43,99,99,93,93,4,18,10,12,0,0.3
2026-04-03T1600,4200A,112.7478,37.6954,晋中市,迎宾街26号,颗粒物(PM10),122,175,141,30,45,101,101,94,94,6,17,8,11,0.3,0.5
2026-04-03T1600,2439A,112.2012,31.048,荆门市,竹园小学,NA,NA,NA,26,NA,15,98,98,89,89,NA,14,1,1,0.3,0.2
2026-04-03T1600,2440A,112.1968,30.9892,荆门市,掇刀,,32,24,24,17,19,102,102,94,94,6,11,9,7,0.5,0.5
2026-04-03T1600,3012A,112.1849,31.0361,荆门市,西山林语,,31,27,20,16,15,97,97,90,90,8,9,5,5,0.2,0.3
2026-04-03T1600,3547A,112.1631,31.0134,荆门市,龙泉中学南校,,34,26,22,3,8,106,106,100,100,11,13,4,4,0.6,0.7
2026-04-03T1600,4124A,112.2213,31.0654,荆门市,新台西路6号,,32,31,36,17,20,101,101,89,89,5,11,6,6,0.4,0.4
2026-04-03T1600,1844A,112.2493,30.3198,荆州市,市图书馆,,35,23,22,16,15,109,109,89,89,14,13,6,6,0.3,0.4
2026-04-03T1600,1845A,112.2009,30.3543,荆州市,市委党校,,30,23,23,18,14,95,95,76,76,23,27,7,7,0.6,0.7
2026-04-03T1600,3194A,112.2749,30.3124,荆州市,管委会,,32,NA,20,17,16,101,101,81,81,8,13,6,6,0.5,0.5
2026-04-03T1600,4268A,112.1722,30.3366,荆州市,学苑路85号,,36,25,27,10,17,114,114,94,94,4,10,4,8,0.1,0.1
2026-04-03T1600,2343A,117.2114,29.2931,景德镇市,老干部活动中心,,22,NA,28,15,24,54,54,51,46,10,16,6,7,0.5,0.8
2026-04-03T1600,2344A,117.1893,29.2789,景德镇市,兽医站,,18,14,32,6,18,55,55,53,44,12,18,4,4,0.7,0.7
2026-04-03T1600,2346A,117.246,29.2958,景德镇市,陶研所,,17,10,20,3,16,45,45,57,46,33,26,4,4,0.5,0.5
2026-04-03T1600,4289A,117.154766,29.256967,景德镇市,青少年活动中心,,18,17,27,12,22,52,52,52,45,18,22,22,13,/,/
2026-04-03T1600,1803A,115.9873,29.6816,九江市,十里,,20,20,29,6,19,53,53,59,58,25,27,7,7,0.9,0.8
2026-04-03T1600,1804A,115.9583,29.7047,九江市,茅山头,,18,18,29,9,19,52,52,59,54,21,28,4,4,0.6,0.6
2026-04-03T1600,1805A,115.9877,29.7295,九江市,西园,,32,22,28,22,16,34,34,68,50,58,31,3,4,0.8,0.6
2026-04-03T1600,1808A,115.9112,29.6038,九江市,综合工业园,,20,6,23,3,19,63,63,43,39,18,43,8,8,0.6,0.5
2026-04-03T1600,3190A,116.0254,29.6995,九江市,外国语学校,,18,NA,19,12,12,48,48,76,52,24,14,5,6,0.8,0.7
2026-04-03T1600,4253A,116.010205,29.659402,九江市,莲花大道8号,,18,13,25,3,15,56,56,61,49,22,23,4,5,0.7,0.6
2026-04-03T1600,4240A,98.495752,39.733935,酒泉市,玉门东路5号,颗粒物(PM10),98,117,186,23,36,115,115,94,94,5,6,8,7,0.3,0.2
2026-04-03T1600,4241A,98.5099,39.7506,酒泉市,北大街108号,颗粒物(PM10),96,114,178,36,36,106,106,90,90,6,6,10,8,0.3,0.2
2026-04-03T1600,2698A,76.0071,39.466,喀什地区,巡警大队,颗粒物(PM10),111,147,157,35,47,117,117,88,88,4,34,4,5,0.2,0.6
2026-04-03T1600,2699A,75.9756,39.4693,喀什地区,吾办,颗粒物(PM10),114,154,168,49,53,108,108,76,76,8,35,2,2,0.3,0.7
2026-04-03T1600,4027A,75.9485,39.4688,喀什地区,老干局,颗粒物(PM10),109,142,169,28,38,112,112,73,73,6,35,3,4,0.4,0.6
2026-04-03T1600,1824A,114.3389,34.778,开封市,肿瘤医院,,44,44,53,13,30,140,140,119,119,12,21,6,7,0.5,0.6
2026-04-03T1600,1826A,114.2884,34.7966,开封市,世纪星幼儿园,,42,36,50,24,29,134,134,112,112,14,22,8,8,0.4,0.5
2026-04-03T1600,3147A,114.3434,34.8101,开封市,龙亭公园,,45,44,49,22,26,142,142,121,121,14,21,11,11,0.7,0.8
2026-04-03T1600,3210A,114.3645,34.7955,开封市,汴京公园,,40,32,49,24,30,128,128,108,108,11,20,6,6,0.6,0.6
2026-04-03T1600,3473A,114.2485,34.8306,开封市,技师学院,,43,42,44,13,24,136,136,116,116,8,14,9,9,0.5,0.6
2026-04-03T1600,3592A,114.4518,34.7503,开封市,祥符区生态环境局,,45,30,45,24,30,141,141,121,121,19,32,7,7,0.5,0.6
2026-04-03T1600,1951A,84.886,45.6029,克拉玛依市,长征新村,,36,27,38,3,9,114,114,84,84,3,10,7,6,0.5,0.5
2026-04-03T1600,1952A,84.8894,45.5827,克拉玛依市,南林小区,,39,27,36,3,3,122,122,88,88,2,10,4,4,0.2,0.3
2026-04-03T1600,1954A,84.896,44.3328,克拉玛依市,独山子区,颗粒物(PM10),55,56,61,7,16,122,122,93,93,3,10,7,6,0.6,0.7
2026-04-03T1600,1955A,85.6888,46.0909,克拉玛依市,乌尔禾区商贸楼,,35,21,37,8,15,112,112,86,86,8,13,2,2,0.3,0.3
2026-04-03T1600,3612A,85.1045,45.6895,克拉玛依市,白碱滩区新站,,40,18,40,3,8,127,127,101,101,2,5,6,11,0.3,0.3
2026-04-03T1600,2697A,76.1457,39.7143,克孜勒苏柯尔克孜自治州,市人民政府,颗粒物(PM10),104,130,110,31,37,116,116,94,94,1,14,5,20,0.1,0.2
2026-04-03T1600,3665A,76.1654,39.7157,克孜勒苏柯尔克孜自治州,克州文化中心,NA,NA,NA,113,NA,40,110,110,84,84,2,16,8,20,0.2,0.3
2026-04-03T1600,1450A,102.8203,24.889,昆明市,呈贡新区,,41,20,28,14,18,131,131,122,122,4,11,6,6,0.5,0.6
2026-04-03T1600,1452A,102.7253,25.0904,昆明市,龙泉镇,,33,15,29,10,15,105,105,99,99,4,8,4,4,0.6,0.6
2026-04-03T1600,1453A,102.7267,25.0378,昆明市,东风东路,,38,29,31,14,16,119,119,106,106,10,14,3,3,0.5,0.5
2026-04-03T1600,1454A,102.6744,25.0671,昆明市,金鼎山,,34,33,31,13,17,108,108,101,101,9,10,2,2,0.3,0.3
2026-04-03T1600,1455A,102.6643,25.0401,昆明市,碧鸡广场,,35,17,28,14,17,110,110,101,101,7,12,4,5,0.4,0.4
2026-04-03T1600,3179A,102.7491,25.012,昆明市,官渡区博物馆,,38,38,33,15,18,120,120,105,105,8,12,4,5,0.4,0.4
2026-04-03T1600,3375A,102.8016,24.8336,昆明市,青年创业园,NA,NA,22,30,17,20,128,128,116,116,NA,7,6,6,0.4,0.4
2026-04-03T1600,3550A,102.8,24.9787,昆明市,昆明学院,,38,30,31,14,16,120,120,106,106,6,8,5,5,0.5,0.5
2026-04-03T1600,3551A,102.5969,24.6738,昆明市,晋宁区生态环境分局,,37,NA,28,16,21,118,118,116,116,4,5,3,2,0.4,0.3
2026-04-03T1600,3552A,102.6673,24.9861,昆明市,云天化总部,,39,21,31,17,17,123,123,111,111,9,10,5,6,0.4,0.5
2026-04-03T1600,1456A,91.132,29.6515,拉萨市,八廓街,NA,NA,NA,16,5,6,104,104,100,100,4,5,4,4,0.2,0.3
2026-04-03T1600,1457A,91.1221,29.6748,拉萨市,市环保局,,32,14,17,3,6,100,100,90,90,5,8,3,4,0.3,0.3
2026-04-03T1600,1458A,91.0874,29.6476,拉萨市,区监测站,,34,11,11,3,5,106,106,96,96,7,8,4,4,0.0,0.1
2026-04-03T1600,1459A,91.1774,29.6541,拉萨市,西藏大学,,31,10,15,3,6,98,98,92,92,7,7,3,4,0.3,0.3
2026-04-03T1600,1460A,90.9798,29.6586,拉萨市,区辐射站,,30,12,15,12,7,94,94,85,85,8,10,5,5,0.4,0.4
2026-04-03T1600,1461A,91.0831,29.6292,拉萨市,拉萨火车站,,33,12,13,3,6,105,105,95,95,7,6,4,4,0.1,0.2
2026-04-03T1600,2520A,109.2203,23.7252,来宾市,来宾技工学校,细颗粒物(PM2.5),101,68,54,61,38,112,112,89,89,4,7,6,5,0.8,0.7
2026-04-03T1600,3535A,109.1781,23.7293,来宾市,兴宾区政府,NA,NA,50,54,39,36,124,124,94,94,7,11,NA,7,0.8,0.8
2026-04-03T1600,4002A,109.2312,23.7428,来宾市,中南小学,细颗粒物(PM2.5),78,77,66,49,48,119,119,95,95,9,14,8,8,0.7,0.7
2026-04-03T1600,1479A,103.8309,36.0467,兰州市,铁路设计院,颗粒物(PM10),87,101,156,50,57,117,117,102,102,11,28,3,6,0.3,0.4
2026-04-03T1600,3241A,103.7439,36.0841,兰州市,百合公园,颗粒物(PM10),78,88,140,36,50,115,115,102,102,2,14,4,6,0.4,0.5
2026-04-03T1600,3242A,103.9613,35.9985,兰州市,和平,颗粒物(PM10),101,121,175,34,45,124,124,110,110,5,10,11,13,0.3,0.4
2026-04-03T1600,4236A,103.629272,36.093822,兰州市,庄浪东路808号,颗粒物(PM10),94,111,161,39,54,123,123,108,108,2,9,8,10,0.3,0.4
2026-04-03T1600,4237A,103.7251,36.104344,兰州市,安宁西路88号,颗粒物(PM10),107,138,170,39,52,134,134,119,119,4,10,8,10,0.3,0.3
2026-04-03T1600,4238A,103.846982,36.067567,兰州市,北滨河东路1号,颗粒物(PM10),85,98,142,40,53,119,119,102,102,11,29,8,10,0.4,0.5
2026-04-03T1600,1067A,116.6712,39.5109,廊坊市,药材公司,颗粒物(PM10),153,256,163,19,98,85,85,74,74,4,45,2,6,0.3,0.9
2026-04-03T1600,1068A,116.7215,39.5592,廊坊市,开发区,颗粒物(PM10),167,284,168,15,96,88,88,82,82,2,47,3,5,0.2,0.8
2026-04-03T1600,1070A,116.7246,39.5273,廊坊市,北华航天学院,颗粒物(PM10),135,211,163,10,91,88,88,81,81,3,54,3,8,0.2,0.8
2026-04-03T1600,2919A,116.7022,39.5454,廊坊市,河北工业大学,颗粒物(PM10),133,204,167,18,96,87,87,80,80,3,49,3,7,0.2,0.8
2026-04-03T1600,2536A,103.7629,29.5844,乐山市,牛耳桥,,39,18,33,3,26,123,123,79,79,12,16,5,5,0.4,0.4
2026-04-03T1600,2537A,103.7501,29.6002,乐山市,市第三水厂,,39,20,30,3,28,123,123,80,80,11,16,4,4,0.4,0.5
2026-04-03T1600,2538A,103.7571,29.5664,乐山市,市监测站,,39,21,31,3,25,122,122,79,79,10,13,3,3,0.6,0.6
2026-04-03T1600,3361A,103.7313,29.563,乐山市,理工大学,NA,NA,NA,31,NA,29,129,129,89,89,9,12,4,7,0.6,0.5
2026-04-03T1600,2599A,100.2497,26.8802,丽江市,丽江古城,,30,20,17,7,6,96,96,88,88,7,8,8,8,0.4,0.4
2026-04-03T1600,2600A,100.2203,26.8906,丽江市,市中心,,31,23,10,3,5,99,99,89,89,9,10,7,7,0.4,0.5
2026-04-03T1600,1267A,119.9141,28.4513,丽水市,监测站大楼,,27,27,25,10,15,72,72,101,88,20,14,4,4,0.5,0.4
2026-04-03T1600,1268A,119.93,28.4589,丽水市,莲都小学,,23,21,28,12,14,71,71,94,86,18,13,/,/,/,/
2026-04-03T1600,1269A,119.8794,28.4232,丽水市,余庄前,,22,18,26,8,13,69,69,74,71,16,13,4,4,0.5,0.4
2026-04-03T1600,1173A,119.1759,34.5885,连云港市,市环境监测站,细颗粒物(PM2.5),96,70,89,58,75,111,111,100,100,19,26,10,10,0.5,0.6
2026-04-03T1600,3000A,119.3577,34.6971,连云港市,德源药业,"颗粒物(PM10),细颗粒物(PM2.5)",58,61,90,39,66,105,105,100,100,26,29,6,7,0.5,0.6
2026-04-03T1600,3007A,119.178,34.8442,连云港市,新城一中,细颗粒物(PM2.5),109,109,106,69,75,119,119,114,114,30,29,8,9,0.8,0.7
2026-04-03T1600,3008A,119.3607,34.7519,连云港市,胡沟管理处,颗粒物(PM10),62,66,79,39,52,95,95,115,114,41,25,15,12,1.1,1
2026-04-03T1600,3009A,119.1478,34.5913,连云港市,矿山设计院,细颗粒物(PM2.5),101,85,97,61,69,115,115,105,105,19,24,10,9,0.7,0.7
2026-04-03T1600,3434A,119.2414,34.6539,连云港市,工贸学校,细颗粒物(PM2.5),92,63,92,56,71,116,116,117,117,17,18,12,12,0.6,0.7
2026-04-03T1600,3664A,119.4171,34.734,连云港市,连云街道,细颗粒物(PM2.5),68,65,93,44,65,114,114,116,116,38,33,6,8,0.7,0.9
2026-04-03T1600,2573A,102.2629,27.8981,凉山彝族自治州,西昌市政府,,40,25,36,3,10,128,128,98,98,5,7,12,10,0.5,0.5
2026-04-03T1600,2574A,102.2686,27.885,凉山彝族自治州,凉山州政府,,38,18,17,3,8,119,119,87,87,7,9,9,6,0.5,0.5
2026-04-03T1600,4229A,102.2342,27.8859,凉山彝族自治州,凯乐南路30号,,35,16,20,3,7,112,112,81,81,9,17,8,6,0.8,0.5
2026-04-03T1600,2212A,123.1978,41.2036,辽阳市,宏伟区,细颗粒物(PM2.5),90,NA,77,55,50,133,133,125,125,7,12,6,7,0.6,0.6
2026-04-03T1600,2213A,123.1684,41.2497,辽阳市,新华园,细颗粒物(PM2.5),96,61,83,58,55,130,130,122,122,10,17,10,12,0.7,0.8
2026-04-03T1600,2214A,123.2355,41.2663,辽阳市,滨河路,细颗粒物(PM2.5),82,68,72,51,51,122,122,113,113,12,19,6,9,0.6,0.7
2026-04-03T1600,4083A,123.153,41.2874,辽阳市,铁西路150号,细颗粒物(PM2.5),104,78,89,64,53,118,118,111,111,10,19,7,12,0.6,0.9
2026-04-03T1600,2227A,125.1359,42.8845,辽源市,环保局,细颗粒物(PM2.5),72,49,97,46,75,114,114,114,114,11,29,7,9,0.6,0.9
2026-04-03T1600,4085A,125.0998,42.9134,辽源市,安宁大街333号,NA,NA,60,120,53,76,119,119,113,113,8,26,8,8,NA,0.9
2026-04-03T1600,1625A,115.9789,36.4372,聊城市,区政府,,45,45,70,3,33,139,139,117,117,7,12,7,8,0.6,0.8
2026-04-03T1600,3200A,115.9772,36.4986,聊城市,监控中心,颗粒物(PM10),55,56,76,3,34,139,139,117,117,10,14,9,10,0.4,0.6
2026-04-03T1600,3513A,116.0443,36.436,聊城市,九州社区,,50,50,76,3,40,137,137,118,118,8,14,2,4,0.3,0.5
2026-04-03T1600,4018A,116.0564,36.4609,聊城市,星美广场,,42,40,70,3,33,132,132,112,112,11,18,9,4,0.5,0.6
2026-04-03T1600,4113A,116.0091,36.4495,聊城市,利民路,,44,35,55,3,39,140,140,119,119,8,15,8,8,0.3,0.5
2026-04-03T1600,2632A,94.3683,29.6373,林芝市,林芝监测站,,31,6,8,3,4,99,99,72,72,2,3,5,6,0.3,0.4
2026-04-03T1600,2633A,94.3616,29.6634,林芝市,林芝人民医院,,33,14,14,3,5,103,103,77,77,2,3,5,5,0.3,0.6
2026-04-03T1600,2603A,100.0779,23.8981,临沧市,市环保局,颗粒物(PM10),66,72,50,29,39,123,123,104,104,4,9,6,5,0.5,0.7
2026-04-03T1600,2604A,100.0894,23.882,临沧市,市气象局,细颗粒物(PM2.5),56,47,52,38,42,126,126,102,102,4,11,7,6,0.1,0.4
2026-04-03T1600,1733A,111.5552,36.0791,临汾市,临钢医院,颗粒物(PM10),344,455,163,66,52,111,111,103,103,6,19,3,11,0.3,0.8
2026-04-03T1600,1734A,111.4984,36.0734,临汾市,技工学校,颗粒物(PM10),299,419,146,51,63,104,104,91,91,4,16,3,9,0.2,0.7
2026-04-03T1600,1736A,111.5017,36.0857,临汾市,市委,颗粒物(PM10),327,441,160,48,52,110,110,95,95,5,16,3,10,0.2,0.8
2026-04-03T1600,3018A,111.5048,36.1015,临汾市,唐尧大酒店,颗粒物(PM10),248,383,165,44,52,104,104,91,91,8,18,4,10,0.2,0.8
2026-04-03T1600,4244A,111.4879,36.053,临汾市,启星学校,颗粒物(PM10),387,489,155,49,51,104,104,92,92,10,22,3,11,0.1,0.9
2026-04-03T1600,4271A,103.2464,35.6123,临夏回族自治州,滨河东路1号,颗粒物(PM10),91,107,144,26,44,117,117,101,101,10,20,8,9,0.2,0.3
2026-04-03T1600,4310A,103.207136,35.599807,临夏回族自治州,新华街21号,NA,NA,74,137,57,41,97,97,88,88,NA,7,NA,7,0.3,0.7
2026-04-03T1600,1618A,118.3429,35.0532,临沂市,沂河小区,颗粒物(PM10),60,63,99,30,64,142,142,104,104,10,22,12,21,0.4,0.5
2026-04-03T1600,1619A,118.2962,35.0568,临沂市,鲁南制药厂,颗粒物(PM10),55,56,91,32,64,152,152,113,113,11,25,16,25,0.4,0.6
2026-04-03T1600,1620A,118.2793,34.9976,临沂市,新光毛纺厂,细颗粒物(PM2.5),56,53,87,38,67,152,152,109,109,17,32,13,22,0.3,0.5
2026-04-03T1600,1621A,118.3955,35.0889,临沂市,河东保险公司,颗粒物(PM10),53,53,94,29,66,156,156,118,118,5,24,12,17,0.3,0.5
2026-04-03T1600,3370A,118.3563,35.0215,临沂市,十里堡居委,细颗粒物(PM2.5),56,51,83,38,63,153,153,110,110,13,29,12,25,0.5,0.6
2026-04-03T1600,3496A,118.359,35.1067,临沂市,南坊新区,颗粒物(PM10),55,56,85,29,67,142,142,109,109,11,25,13,18,0.4,0.5
2026-04-03T1600,3860A,118.3915,35.0297,临沂市,皇山花园小区,细颗粒物(PM2.5),62,61,92,41,69,158,158,114,114,15,31,11,19,0.5,0.7
2026-04-03T1600,1870A,109.4854,24.3898,柳州市,柳东小学,,38,38,49,6,39,74,74,71,71,4,14,3,4,0.7,0.8
2026-04-03T1600,1871A,109.4109,24.3304,柳州市,环保监测站,颗粒物(PM10),56,58,59,8,44,66,66,62,62,8,22,4,4,0.7,0.9
2026-04-03T1600,1872A,109.3886,24.3408,柳州市,河西水厂,,22,12,54,3,46,70,70,67,67,8,21,6,3,0.8,0.8
2026-04-03T1600,1873A,109.4263,24.2951,柳州市,市四中,,23,23,60,10,49,69,69,65,65,5,21,7,6,0.7,0.9
2026-04-03T1600,1874A,109.396,24.3658,柳州市,市九中,,19,NA,52,3,40,58,58,55,55,8,17,7,7,0.6,0.8
2026-04-03T1600,1875A,109.4912,24.3164,柳州市,古亭山,,24,20,54,8,44,75,75,70,70,3,19,4,5,0.6,0.8
2026-04-03T1600,3402A,109.5422,24.3994,柳州市,市二中,,21,6,51,3,40,65,65,60,60,5,18,7,7,0.6,0.8
2026-04-03T1600,2307A,116.5078,31.7369,六安市,监测大楼,,38,NA,23,26,17,98,98,83,82,9,11,4,4,0.4,0.4
2026-04-03T1600,2308A,116.4738,31.7642,六安市,皖西学院,,34,34,20,23,16,102,102,90,84,7,9,5,5,0.3,0.3
2026-04-03T1600,2309A,116.4997,31.7904,六安市,朝阳厂,,32,22,23,21,17,101,101,87,84,9,13,6,6,0.3,0.3
2026-04-03T1600,2310A,116.5566,31.7885,六安市,开发区,,38,32,20,26,20,97,97,89,87,13,14,6,5,0.4,0.4
2026-04-03T1600,2577A,104.8293,26.592,六盘水市,黄土坡,,33,10,34,3,20,104,104,92,92,6,12,6,8,0.2,0.4
2026-04-03T1600,2579A,104.8481,26.5898,六盘水市,民中,,32,26,33,8,20,100,100,86,86,8,12,4,5,0.4,0.6
2026-04-03T1600,2580A,104.9541,26.5506,六盘水市,双水,,33,19,30,10,19,103,103,88,88,5,9,4,5,0.3,0.5
2026-04-03T1600,4151A,104.8899,26.5685,六盘水市,钟山大道中段564号,,32,28,40,9,21,101,101,86,86,4,10,2,8,0.3,0.8
2026-04-03T1600,2336A,117.022,25.1031,龙岩市,龙岩市监测站,,23,18,16,12,15,71,71,67,55,8,15,4,5,0.7,0.8
2026-04-03T1600,2337A,117.0257,25.0662,龙岩市,闽西职业技术学院,,20,17,15,14,13,62,62,68,58,10,11,5,5,0.6,0.7
2026-04-03T1600,2338A,117.0195,25.0306,龙岩市,龙岩学院,,19,18,18,13,12,56,56,66,54,8,9,4,3,/,/
2026-04-03T1600,2885A,104.9344,33.3827,陇南市,滨江中学,颗粒物(PM10),130,198,83,72,28,102,102,87,87,9,11,7,8,0.5,0.5
2026-04-03T1600,3247A,104.9551,33.3709,陇南市,市总工会,颗粒物(PM10),125,184,70,66,24,106,106,89,89,7,10,6,7,0.4,0.7
2026-04-03T1600,2488A,111.9984,27.7346,娄底市,市监测站,,24,13,21,3,17,76,76,54,54,13,18,13,6,0.9,0.7
2026-04-03T1600,2491A,111.9888,27.7035,娄底市,市政府,,25,6,18,3,11,80,80,57,57,6,12,3,3,0.5,0.7
2026-04-03T1600,4127A,111.9812,27.7591,娄底市,涟钢职大,,27,NA,18,3,12,85,85,60,60,7,11,2,2,0.4,0.8
2026-04-03T1600,4128A,112.0303,27.7457,娄底市,娄底体校,,22,6,26,3,18,70,70,45,45,2,7,4,3,0.6,0.8
2026-04-03T1600,1894A,105.4427,28.9063,泸州市,小市上码头,,32,9,22,3,17,102,102,76,76,7,12,5,5,0.6,0.6
2026-04-03T1600,1895A,105.4241,28.8573,泸州市,兰田宪桥,,31,11,25,3,14,97,97,72,72,7,12,7,7,0.6,0.7
2026-04-03T1600,1896A,105.4378,28.8833,泸州市,市环监站,,32,12,29,6,16,101,101,73,73,15,17,3,4,0.6,0.8
2026-04-03T1600,4272A,105.3689,28.7783,泸州市,纳溪中医医院,,35,24,32,10,26,110,110,78,78,7,12,8,7,0.5,0.7
2026-04-03T1600,2183A,111.1447,37.5212,吕梁市,环保局,颗粒物(PM10),149,245,174,24,39,99,99,90,90,5,32,6,8,0.1,0.7
2026-04-03T1600,2185A,111.1285,37.5338,吕梁市,自来水公司,颗粒物(PM10),147,240,183,26,42,99,99,91,91,5,26,5,8,0.3,0.5
2026-04-03T1600,2867A,111.1225,37.5093,吕梁市,马茂庄小学,颗粒物(PM10),159,267,185,24,37,99,99,87,87,4,35,3,6,0.2,0.4
2026-04-03T1600,1812A,112.3934,34.6517,洛阳市,市委党校,颗粒物(PM10),122,175,75,47,42,121,121,98,98,16,21,8,8,0.5,0.7
2026-04-03T1600,1815A,112.494,34.6883,洛阳市,河南林校,颗粒物(PM10),142,229,91,57,45,128,128,103,103,18,30,11,13,0.4,0.5
2026-04-03T1600,1816A,112.3843,34.623,洛阳市,开发区管委会,颗粒物(PM10),126,186,84,45,45,129,129,99,99,12,20,13,13,0.5,0.6
2026-04-03T1600,1817A,112.4263,34.6249,洛阳市,市委新办公区,颗粒物(PM10),126,187,85,46,55,133,133,104,104,14,20,10,10,0.3,0.5
2026-04-03T1600,3340A,112.6005,34.6323,洛阳市,伊滨,颗粒物(PM10),152,254,59,48,33,125,125,103,103,10,17,8,10,0.4,0.5
2026-04-03T1600,3341A,112.495,34.6338,洛阳市,中移产业园,颗粒物(PM10),149,246,93,58,42,122,122,95,95,16,24,10,13,0.5,0.7
2026-04-03T1600,3593A,112.5736,34.8993,洛阳市,吉利监测站,颗粒物(PM10),134,206,84,39,56,124,124,97,97,13,26,10,10,0.4,0.7
2026-04-03T1600,3635A,112.3678,34.6623,洛阳市,河科大西苑校区,颗粒物(PM10),132,201,86,46,52,127,127,106,106,18,22,10,10,0.4,0.5
2026-04-03T1600,3636A,112.4387,34.678,洛阳市,英才小学,颗粒物(PM10),148,243,116,39,55,128,128,101,101,11,30,11,12,0.6,0.8
2026-04-03T1600,4214A,112.460027,34.694929,洛阳市,春都路1号院,颗粒物(PM10),152,254,96,45,53,136,136,108,108,11,25,9,11,0.6,0.7
2026-04-03T1600,2399A,114.051,33.5721,漯河市,三五一五工厂,,37,20,36,13,24,118,118,115,115,10,15,4,5,0.2,0.3
2026-04-03T1600,2400A,114.0055,33.5698,漯河市,漯河大学,,37,15,25,13,24,118,118,115,115,7,12,6,6,0.4,0.5
2026-04-03T1600,2401A,114.0134,33.5826,漯河市,市水利局,,36,19,30,6,21,114,114,112,112,10,13,5,6,0.4,0.5
2026-04-03T1600,2402A,114.0261,33.5697,漯河市,市广电局,,38,17,29,13,23,120,120,117,117,6,12,4,6,0.4,0.5
2026-04-03T1600,3478A,113.9691,33.568,漯河市,市图书馆,,35,28,35,9,20,109,109,106,106,10,15,6,6,0.5,0.6
2026-04-03T1600,4250A,114.089259,33.588274,漯河市,韶山路11号,,36,24,38,16,23,115,115,113,113,8,14,6,6,0.4,0.5
2026-04-03T1600,1798A,118.5084,31.6838,马鞍山市,湖东路四小,,24,24,52,16,38,71,71,82,79,14,19,7,10,0.5,0.6
2026-04-03T1600,1799A,118.5019,31.6449,马鞍山市,开发区,,25,17,54,12,36,79,79,78,78,13,23,4,8,0.6,0.6
2026-04-03T1600,3633A,118.4914,31.681,马鞍山市,雨山,,25,19,49,11,26,77,77,86,80,13,20,7,10,0.6,0.6
2026-04-03T1600,4191A,118.527362,31.722269,马鞍山市,慈湖高新区,,25,25,60,17,37,59,59,83,74,18,22,7,9,0.3,0.4
2026-04-03T1600,1686A,111.0285,21.469,茂名市,电白南海,颗粒物(PM10),51,51,39,22,20,72,72,64,64,8,6,5,5,0.7,0.7
2026-04-03T1600,1687A,110.9294,21.6533,茂名市,茂石化七小,颗粒物(PM10),51,51,39,27,21,95,95,70,70,10,9,10,6,0.7,0.6
2026-04-03T1600,1688A,110.9108,21.6688,茂名市,健康路,,40,39,31,28,22,101,101,75,75,8,7,9,4,0.7,0.6
2026-04-03T1600,1689A,110.8592,21.6826,茂名市,高岭,颗粒物(PM10),55,56,44,30,24,113,113,82,82,8,7,6,3,/,/
2026-04-03T1600,3450A,111.0101,21.5165,茂名市,电白水东,,44,44,27,20,20,75,75,62,62,8,6,3,2,/,/
2026-04-03T1600,2540A,103.8414,30.0871,眉山市,气象局,,42,42,50,3,26,120,120,84,84,9,15,8,8,0.5,0.6
2026-04-03T1600,3148A,103.829,30.0563,眉山市,区人社局,,42,42,51,6,37,112,112,78,78,9,19,8,8,0.7,0.7
2026-04-03T1600,4148A,103.8836,30.0695,眉山市,眉职院,NA,NA,32,57,3,31,118,118,87,87,NA,19,8,7,NA,0.7
2026-04-03T1600,1690A,116.1248,24.3307,梅州市,梅江月梅,,28,NA,20,19,17,39,39,62,58,25,12,/,/,/,/
2026-04-03T1600,1691A,116.0798,24.2719,梅州市,梅县新城,,23,NA,27,16,19,54,54,56,43,15,17,8,8,0.6,0.6
2026-04-03T1600,3315A,116.1234,24.2994,梅州市,梅龙,,29,NA,24,20,19,40,40,67,54,22,13,6,9,1.0,0.9
2026-04-03T1600,1878A,104.7775,31.4741,绵阳市,富乐山,,43,43,33,20,18,114,114,62,62,13,19,7,7,0.7,0.6
2026-04-03T1600,1880A,104.6698,31.4668,绵阳市,高新区自来水公司,,45,45,38,18,19,120,120,65,65,11,23,9,9,0.5,0.6
2026-04-03T1600,3491A,104.6899,31.5324,绵阳市,西科大附属小学,颗粒物(PM10),52,52,37,29,21,118,118,67,67,11,23,7,6,0.5,0.5
2026-04-03T1600,3492A,104.5647,31.5343,绵阳市,安州区旅游局,,38,38,38,21,17,110,110,66,66,8,13,8,7,0.5,0.4
2026-04-03T1600,4146A,104.7092,31.4972,绵阳市,科技城新区公安局,颗粒物(PM10),52,52,41,20,18,110,110,63,63,12,22,5,6,0.6,0.6
2026-04-03T1600,4226A,104.765114,31.453094,绵阳市,绵阳市气象局,颗粒物(PM10),53,53,38,22,19,112,112,61,61,12,22,9,9,0.5,0.6
2026-04-03T1600,1784A,129.61,44.561,牡丹江市,环保大楼,细颗粒物(PM2.5),262,306,198,212,152,142,142,116,116,46,44,17,9,1.3,1.1
2026-04-03T1600,1787A,129.6364,44.6075,牡丹江市,机车工厂,细颗粒物(PM2.5),218,334,220,168,150,125,125,107,107,43,47,19,14,1.2,1.1
2026-04-03T1600,1788A,129.6386,44.5462,牡丹江市,第一中学,细颗粒物(PM2.5),209,294,150,159,117,124,124,112,112,42,42,15,10,1.2,0.9
2026-04-03T1600,4287A,129.5992,44.5964,牡丹江市,东晓云街98号,细颗粒物(PM2.5),213,230,194,163,144,141,141,114,114,29,32,14,10,1.1,1.1
2026-04-03T1600,2531A,105.0703,29.61,内江市,市监测站,,39,39,26,14,13,114,114,86,86,10,11,7,7,0.4,0.5
2026-04-03T1600,2533A,105.0657,29.5807,内江市,内江二中,NA,NA,31,29,12,12,NA,NA,82,82,11,12,8,7,0.2,0.3
2026-04-03T1600,2534A,105.0407,29.5828,内江市,内江日报社,,39,30,24,14,12,124,124,90,90,7,11,6,6,0.3,0.4
2026-04-03T1600,4147A,105.0433,29.6105,内江市,玉峰路西段888号,,39,31,16,12,14,123,123,94,94,9,12,10,10,0.2,0.3
2026-04-03T1600,2628A,92.0653,31.4846,那曲市,那曲监测站,,35,9,40,3,26,111,111,84,84,4,18,4,8,0.5,0.9
2026-04-03T1600,4243A,92.0515,31.4787,那曲市,那曲市委宣传部,,37,6,19,3,14,117,117,88,88,1,10,8,8,0.3,0.7
2026-04-03T1600,1291A,115.8887,28.7006,南昌市,省林业公司,,18,6,20,3,18,57,57,45,45,12,17,3,4,0.4,0.5
2026-04-03T1600,1292A,115.813,28.7443,南昌市,林科所,,20,NA,17,3,18,64,64,56,48,21,27,7,7,0.4,0.5
2026-04-03T1600,1294A,115.8518,28.687,南昌市,建工学校,,16,6,32,3,19,51,51,50,41,19,21,8,9,0.8,0.9
2026-04-03T1600,1295A,115.8926,28.6425,南昌市,象湖,NA,NA,NA,19,2,20,52,52,41,41,18,20,7,8,0.8,1
2026-04-03T1600,3046A,115.9084,28.6062,南昌市,机电学校,,18,10,31,3,22,55,55,41,41,14,20,4,4,0.6,0.7
2026-04-03T1600,3690A,115.9718,28.7032,南昌市,外国语学校,,17,6,23,3,20,52,52,49,47,25,16,8,8,0.5,0.6
2026-04-03T1600,4106A,115.7923,28.6873,南昌市,工业二路,,15,9,33,3,20,45,45,47,36,21,24,4,4,0.7,0.8
2026-04-03T1600,4192A,115.931587,28.686774,南昌市,南京东路235号,,19,14,30,3,19,60,60,51,51,10,10,4,6,0.4,0.4
2026-04-03T1600,1906A,106.0791,30.8022,南充市,南充市委,,29,28,22,13,16,91,91,59,59,9,12,7,6,0.3,0.3
2026-04-03T1600,1907A,106.1038,30.8215,南充市,南充炼油厂,,43,43,29,12,14,89,89,59,59,8,10,4,4,0.1,0.2
2026-04-03T1600,4227A,106.108336,30.788436,南充市,梨树横街98号,,31,29,24,13,15,99,99,71,71,7,12,6,5,0.1,0.2
2026-04-03T1600,4304A,106.1172,30.843,南充市,清泉寺北路188号,,31,26,26,13,15,97,97,63,63,8,8,6,6,0.4,0.3
2026-04-03T1600,4305A,106.067,30.7616,南充市,同庆路1号,,30,26,21,14,14,93,93,64,64,6,14,7,6,0.2,0.4
2026-04-03T1600,1151A,118.8033,32.1085,南京市,迈皋桥,,26,21,47,11,34,82,82,103,81,20,24,4,6,0.7,0.7
2026-04-03T1600,1152A,118.7487,32.057,南京市,草场门,,24,19,50,10,33,75,75,98,73,25,27,8,10,0.3,0.4
2026-04-03T1600,1154A,118.770105,32.004342,南京市,中华门,,24,17,54,8,31,75,75,94,72,19,19,4,4,0.4,0.5
2026-04-03T1600,1155A,118.8059,32.0329,南京市,瑞金路,,24,22,59,12,36,74,74,89,72,6,6,4,4,0.8,0.9
2026-04-03T1600,1156A,118.7946,32.0774,南京市,玄武湖,,26,20,47,8,26,81,81,101,80,6,11,7,9,0.6,0.6
2026-04-03T1600,1157A,118.6415,32.0964,南京市,浦口,,25,NA,52,9,35,78,78,75,64,14,23,4,5,0.4,0.8
2026-04-03T1600,1158A,118.730129,32.000956,南京市,奥体中心,,23,23,57,3,28,66,66,83,66,18,19,6,8,0.3,0.4
2026-04-03T1600,1159A,118.9072,32.1047,南京市,仙林大学城,,34,34,54,11,29,88,88,103,86,17,18,9,9,0.5,0.6
2026-04-03T1600,3422A,118.8443,31.919,南京市,江宁彩虹桥,,30,23,47,8,27,94,94,101,89,9,12,4,3,0.6,0.7
2026-04-03T1600,3427A,118.8497,32.3599,南京市,六合雄州,,35,35,57,21,48,79,79,80,71,27,32,4,4,0.7,0.8
2026-04-03T1600,4086A,118.7641,32.0841,南京市,新模范马路66号,,31,31,54,6,28,68,68,101,75,21,16,3,4,0.3,0.4
2026-04-03T1600,4249A,118.8707617,31.34017673,南京市,汶溪路181号,,25,19,37,10,25,79,79,96,88,15,18,3,6,0.2,0.3
2026-04-03T1600,4312A,119.019,31.6512,南京市,中山西路1号,,25,12,44,8,28,78,78,80,80,12,20,4,4,0.4,0.5
2026-04-03T1600,1401A,108.3098,22.788,南宁市,二十一中,颗粒物(PM10),63,68,50,40,40,102,102,66,66,10,18,3,2,0.5,0.7
2026-04-03T1600,1402A,108.3135,22.8529,南宁市,北湖,细颗粒物(PM2.5),68,56,56,44,47,120,120,76,76,10,27,2,2,0.7,0.9
2026-04-03T1600,1403A,108.3205,22.8222,南宁市,市监测站,细颗粒物(PM2.5),62,62,50,41,37,125,125,78,78,8,17,2,2,0.7,0.7
2026-04-03T1600,1404A,108.3828,22.8038,南宁市,大自然花园,颗粒物(PM10),52,52,46,34,36,120,120,80,80,9,14,6,6,0.4,0.5
2026-04-03T1600,1406A,108.2397,22.8462,南宁市,区农职院,细颗粒物(PM2.5),64,60,56,42,38,112,112,74,74,9,25,8,5,0.5,0.7
2026-04-03T1600,1407A,108.3285,22.7356,南宁市,英华嘉园,颗粒物(PM10),64,69,65,37,39,111,111,76,76,9,27,4,4,0.6,0.7
2026-04-03T1600,3401A,108.4829,22.762,南宁市,红星社区,,49,44,49,34,34,130,130,84,84,7,18,6,5,0.6,0.6
2026-04-03T1600,4132A,108.2927,23.1477,南宁市,起凤路9号,细颗粒物(PM2.5),80,63,59,50,46,137,137,93,93,7,13,4,4,0.7,0.7
2026-04-03T1600,4221A,108.2177,22.7774,南宁市,乐贤路16号,细颗粒物(PM2.5),66,62,56,43,38,109,109,87,87,13,30,5,4,0.6,0.6
2026-04-03T1600,2332A,118.1682,26.6371,南平市,南平市监测站,,21,12,17,6,9,66,66,100,77,10,8,3,3,0.3,0.3
2026-04-03T1600,2334A,118.1757,26.6276,南平市,南平七中,,21,12,14,6,10,65,65,95,75,7,7,2,2,0.5,0.5
2026-04-03T1600,1168A,120.9056,31.9669,南通市,狼山街道,,34,11,57,3,36,107,107,113,111,14,29,2,4,0.4,0.5
2026-04-03T1600,1170A,120.8635,32.0231,南通市,城中,,33,12,65,3,37,104,104,108,108,12,21,3,5,0.4,0.6
2026-04-03T1600,1171A,120.9376,31.9301,南通市,星湖花园,,32,13,60,6,39,101,101,108,107,17,27,3,5,0.5,0.7
2026-04-03T1600,1172A,120.8053,32.046,南通市,紫琅学院,,34,NA,51,6,34,106,106,112,110,18,28,4,6,0.7,0.8
2026-04-03T1600,3291A,121.0631,32.0644,南通市,通州监测站,,35,7,54,3,41,111,111,115,115,8,15,3,4,0.6,0.6
2026-04-03T1600,3432A,120.9348,31.9874,南通市,环境教育馆,,30,17,58,9,40,96,96,110,107,17,24,4,5,0.5,0.6
2026-04-03T1600,4091A,120.8692,31.9885,南通市,洪江路,,33,17,58,6,38,103,103,106,105,16,31,4,6,0.7,0.8
2026-04-03T1600,2404A,112.5338,33.0086,南阳市,瓦房庄,,32,26,39,3,15,101,101,93,93,5,12,4,5,0.5,0.5
2026-04-03T1600,2405A,112.5002,32.9734,南阳市,汉画馆,,32,25,41,3,21,101,101,89,89,6,15,6,6,0.4,0.6
2026-04-03T1600,2406A,112.5778,33.0144,南阳市,气象站,,35,23,36,8,19,109,109,100,100,7,15,5,5,0.3,0.4
2026-04-03T1600,2407A,112.548,32.9687,南阳市,理工学院,,33,25,42,12,24,103,103,90,90,6,15,5,6,0.3,0.5
2026-04-03T1600,4008A,112.5233,32.9921,南阳市,卧龙区政府,,32,11,34,6,21,100,100,90,90,5,14,6,7,0.4,0.6
2026-04-03T1600,1234A,121.8352,29.9111,宁波市,区环保大楼,,24,8,39,3,24,68,68,140,110,47,22,6,6,0.4,0.3
2026-04-03T1600,1235A,121.5595,29.8208,宁波市,万里学院,,27,14,33,3,23,85,85,134,112,21,13,7,6,0.6,0.6
2026-04-03T1600,1236A,121.713,29.9564,宁波市,龙赛医院,,29,6,35,3,21,92,92,142,113,16,14,5,5,0.5,0.5
2026-04-03T1600,1240A,121.5855,29.8635,宁波市,太古小学,,26,9,36,3,21,81,81,131,108,24,14,3,3,0.5,0.5
2026-04-03T1600,1241A,121.5239,29.8673,宁波市,市环境监测中心,,25,17,38,3,23,80,80,125,101,25,16,5,5,0.6,0.5
2026-04-03T1600,2871A,121.6156,29.9015,宁波市,万里国际学校,,30,6,34,3,21,94,94,147,119,24,14,4,4,0.4,0.5
2026-04-03T1600,3710A,121.5593,29.8976,宁波市,白沙活动中心,,25,15,31,3,21,79,79,127,106,28,17,4,4,0.5,0.5
2026-04-03T1600,4095A,121.8962,29.7529,宁波市,中科路88号,,36,6,35,3,24,113,113,129,126,7,12,6,6,0.3,0.4
2026-04-03T1600,2341A,119.5387,26.6611,宁德市,宁德市监测站,,32,NA,18,22,16,44,44,84,64,40,21,5,4,0.7,0.6
2026-04-03T1600,3209A,119.5231,26.6562,宁德市,宁德一中,,35,25,21,24,18,56,56,88,68,31,16,4,5,0.5,0.4
2026-04-03T1600,2618A,98.859,25.8541,怒江傈僳族自治州,州监测站,,20,16,18,11,7,63,63,68,63,1,2,7,7,0.1,0.1
2026-04-03T1600,2619A,98.8607,25.8168,怒江傈僳族自治州,泸水一中,,20,18,11,9,8,62,62,66,55,9,10,5,5,0.3,0.3
2026-04-03T1600,1888A,101.6891,26.571,攀枝花市,弄弄坪,,45,17,32,9,14,141,141,102,102,13,18,13,16,1.3,1.4
2026-04-03T1600,1889A,101.577,26.5914,攀枝花市,河门口,,33,24,35,16,14,103,103,87,87,7,13,6,10,0.4,0.6
2026-04-03T1600,1891A,101.7365,26.4986,攀枝花市,仁和,,38,13,25,9,16,119,119,103,103,5,11,7,7,0.5,0.6
2026-04-03T1600,2835A,101.7222,26.567,攀枝花市,四十中小,,45,24,26,9,11,141,141,112,112,9,18,14,13,1.2,1.2
2026-04-03T1600,1604A,122.0303,41.1489,盘锦市,开发区,细颗粒物(PM2.5),105,72,62,65,57,130,130,126,126,12,15,10,9,0.5,0.5
2026-04-03T1600,1605A,122.0486,41.0883,盘锦市,兴隆台,细颗粒物(PM2.5),108,NA,59,68,56,125,125,123,123,16,22,5,5,0.6,0.6
2026-04-03T1600,1606A,121.8297,41.1026,盘锦市,新生街道,细颗粒物(PM2.5),92,NA,54,56,55,143,143,124,124,14,17,6,7,0.6,0.5
2026-04-03T1600,1832A,113.3257,33.7423,平顶山市,新华旅馆,,40,30,46,16,20,126,126,111,111,7,13,4,4,0.3,0.3
2026-04-03T1600,1833A,113.2917,33.737,平顶山市,规划设计院,,38,28,35,17,18,119,119,106,106,6,10,5,5,0.5,0.5
2026-04-03T1600,1834A,113.182,33.7738,平顶山市,平顶山工学院,,39,22,27,19,21,122,122,108,108,7,10,6,6,0.3,0.3
2026-04-03T1600,3594A,112.8736,33.9068,平顶山市,石龙区,NA,NA,NA,46,52,21,131,131,113,113,13,19,8,7,NA,0.5
2026-04-03T1600,4116A,113.284,33.7139,平顶山市,姚电大道23号,,38,26,39,14,22,120,120,107,107,11,15,4,5,0.3,0.4
2026-04-03T1600,2656A,106.6633,35.5338,平凉市,聚贤嘉苑,颗粒物(PM10),138,218,159,57,46,112,112,111,111,12,23,5,6,0.2,0.4
2026-04-03T1600,2657A,106.7021,35.5307,平凉市,博物馆,颗粒物(PM10),144,232,151,58,44,105,105,108,108,5,14,8,9,0.2,0.4
2026-04-03T1600,2348A,113.8384,27.6436,萍乡市,中医院,,26,15,18,9,10,82,82,61,61,14,13,10,4,1.2,0.9
2026-04-03T1600,2350A,113.8677,27.6438,萍乡市,市环保局,,23,14,14,8,11,72,72,54,51,9,9,10,7,0.9,0.9
2026-04-03T1600,2351A,113.8663,27.6202,萍乡市,安源区政府,,20,14,17,3,12,63,63,43,43,9,12,8,5,0.3,0.7
2026-04-03T1600,4107A,113.8686,27.6668,萍乡市,联洪村委会,,21,15,16,8,10,65,65,50,42,9,8,3,2,0.6,0.2
2026-04-03T1600,2319A,119.0142,25.4324,莆田市,荔城区仓后路,,35,27,19,24,12,60,60,91,68,25,13,/,/,/,/
2026-04-03T1600,2320A,119.0016,25.4553,莆田市,莆田市监测站,,21,21,14,3,3,54,54,99,58,24,10,2,2,0.6,0.5
2026-04-03T1600,2321A,119.112,25.4561,莆田市,涵江区六中,,32,22,16,22,11,60,60,90,72,26,14,/,/,0.7,0.5
2026-04-03T1600,2322A,119.1014,25.3215,莆田市,秀屿区政府,,46,NA,20,32,16,72,72,99,77,22,11,3,3,0.8,0.7
2026-04-03T1600,2392A,115.0312,35.7636,濮阳市,环保局,,50,50,45,12,20,130,130,107,107,7,13,3,4,0.4,0.5
2026-04-03T1600,3021A,115,35.7667,濮阳市,濮水河管理处,,47,47,57,28,25,143,143,113,113,16,19,2,3,0.3,0.4
2026-04-03T1600,4118A,115.0552,35.7816,濮阳市,中原东路68号,,48,48,60,17,22,135,135,110,110,9,12,2,3,0.4,0.5
2026-04-03T1600,4216A,115.0923632,35.76857718,濮阳市,任丘路479号,,48,48,59,12,26,132,132,107,107,18,13,3,4,0.2,0.4
2026-04-03T1600,2601A,100.9801,22.7634,普洱市,市环保局,颗粒物(PM10),74,83,92,36,49,140,140,118,118,7,12,7,7,0.6,0.7
2026-04-03T1600,2602A,100.9763,22.8237,普洱市,普洱第二中学,颗粒物(PM10),72,80,86,39,50,136,136,111,111,6,19,6,6,0.4,0.7
2026-04-03T1600,3345A,131.0413,45.7795,七台河市,中波台,细颗粒物(PM2.5),108,120,164,68,120,103,103,103,103,10,26,6,9,0.4,0.6
2026-04-03T1600,3637A,131.0136,45.7688,七台河市,人民广场,细颗粒物(PM2.5),106,110,168,66,112,106,106,102,102,13,29,9,12,0.6,0.8
2026-04-03T1600,3684A,130.8639,45.8144,七台河市,新建矿广场,颗粒物(PM10),150,249,175,77,125,97,97,96,96,21,34,14,13,0.6,0.8
2026-04-03T1600,1779A,123.9307,47.3641,齐齐哈尔市,安居小区,,47,47,67,31,50,95,95,81,81,9,18,10,9,0.4,0.6
2026-04-03T1600,1780A,123.9497,47.3389,齐齐哈尔市,中心广场,,49,47,76,34,50,90,90,80,80,13,18,5,5,0.5,0.7
2026-04-03T1600,1781A,123.9483,47.3229,齐齐哈尔市,农牧车辆厂,,42,41,67,29,48,93,93,82,82,9,15,8,8,0.2,0.3
2026-04-03T1600,1783A,123.9442,47.2994,齐齐哈尔市,市环境监测站,,48,48,64,28,48,91,91,80,80,11,16,4,4,0.3,0.5
2026-04-03T1600,3662A,123.6341,47.2079,齐齐哈尔市,富区青少年活动中心,细颗粒物(PM2.5),72,NA,82,46,64,89,89,73,73,6,14,4,6,0.3,0.5
2026-04-03T1600,2591A,107.9765,26.5724,黔东南苗族侗族自治州,市环境监测站,,38,NA,30,26,21,76,76,57,57,9,9,3,3,0.5,0.6
2026-04-03T1600,2881A,107.8909,26.531,黔东南苗族侗族自治州,凯里学院,,32,29,29,22,20,86,86,63,63,6,9,3,3,0.5,0.6
2026-04-03T1600,2593A,107.5223,26.2371,黔南布依族苗族自治州,小围寨,NA,NA,19,21,17,19,90,90,71,71,3,5,NA,5,0.5,0.6
2026-04-03T1600,3538A,107.5175,26.2977,黔南布依族苗族自治州,沙坝,,25,12,26,12,21,77,77,62,62,5,7,3,4,0.7,0.9
2026-04-03T1600,2589A,104.9022,25.0943,黔西南布依族苗族自治州,场坝街,,41,NA,36,28,25,130,130,107,107,9,9,15,13,0.6,0.5
2026-04-03T1600,2590A,104.8812,25.0994,黔西南布依族苗族自治州,坪东大道,,50,NA,31,35,28,127,127,107,107,8,14,6,5,0.4,0.4
2026-04-03T1600,2502A,108.6238,21.9667,钦州市,市环保站,,48,48,41,18,25,76,76,71,71,4,8,4,4,0.5,0.5
2026-04-03T1600,2503A,108.655,21.9481,钦州市,沙埠小学,颗粒物(PM10),58,60,46,27,29,76,76,76,76,7,7,5,5,0.7,0.6
2026-04-03T1600,2504A,108.5989,21.7435,钦州市,港区一小,颗粒物(PM10),65,70,55,30,31,68,68,67,67,8,14,2,3,0.4,0.7
2026-04-03T1600,3404A,108.5959,21.9634,钦州市,北职校,,41,41,42,22,28,75,75,73,73,4,7,6,6,0.4,0.5
2026-04-03T1600,1046A,119.5247,39.9346,秦皇岛市,建设大厦,细颗粒物(PM2.5),130,115,124,93,74,120,120,93,93,24,47,8,14,0.9,1
2026-04-03T1600,3132A,119.5979,39.938,秦皇岛市,文明里,细颗粒物(PM2.5),131,119,119,94,72,119,119,95,95,35,52,12,14,0.8,0.8
2026-04-03T1600,4066A,119.7458,39.9952,秦皇岛市,南园路157号,细颗粒物(PM2.5),142,125,109,106,78,116,116,99,99,33,43,12,12,0.8,0.7
2026-04-03T1600,4067A,119.5131,39.8858,秦皇岛市,翠岛大街1号,细颗粒物(PM2.5),139,113,110,102,77,116,116,96,96,28,44,12,14,0.8,0.8
2026-04-03T1600,4198A,119.509013,39.825305,秦皇岛市,北戴河轮滑馆,细颗粒物(PM2.5),133,135,109,96,69,138,138,106,106,23,29,9,9,0.8,0.6
2026-04-03T1600,1310A,120.404,36.0625,青岛市,市南区东部子站,细颗粒物(PM2.5),78,80,77,49,57,117,117,127,126,2,5,10,10,0.5,0.5
2026-04-03T1600,1311A,120.362344,36.10282,青岛市,四方区子站,细颗粒物(PM2.5),80,88,79,50,59,126,126,136,135,13,15,5,6,0.7,0.8
2026-04-03T1600,1312A,120.294373,36.054183,青岛市,市南区西部子站,NA,NA,NA,72,NA,56,NA,NA,119,119,NA,17,NA,4,NA,0.7
2026-04-03T1600,1313A,120.4581,36.0858,青岛市,崂山区子站,细颗粒物(PM2.5),76,80,74,48,52,130,130,139,138,14,16,8,8,0.6,0.6
2026-04-03T1600,1315A,120.3945,36.3083,青岛市,城阳区子站,细颗粒物(PM2.5),105,95,86,65,57,131,131,137,137,16,14,7,7,0.7,0.8
2026-04-03T1600,3642A,120.3454,36.0735,青岛市,市北区南部,细颗粒物(PM2.5),58,40,66,39,50,131,131,139,136,1,6,2,3,0.6,0.7
2026-04-03T1600,3643A,120.3897,36.18,青岛市,李沧区北部,细颗粒物(PM2.5),96,88,82,58,60,111,111,120,119,16,18,9,9,0.6,0.7
2026-04-03T1600,4110A,120.5222,36.4089,青岛市,盟旺路653号,细颗粒物(PM2.5),76,57,69,48,45,157,157,151,151,5,6,4,4,0.8,0.9
2026-04-03T1600,4290A,120.196923,35.954556,青岛市,珠江路669号,颗粒物(PM10),63,68,83,33,51,130,130,128,128,12,15,5,5,0.6,0.7
2026-04-03T1600,4291A,120.0424,35.8656,青岛市,黄岛区人民政府广场,颗粒物(PM10),60,63,71,25,44,133,133,131,131,9,14,8,8,0.6,0.7
2026-04-03T1600,1703A,113.0218,23.7086,清远市,凤城街办,NA,NA,60,48,49,39,12,12,27,20,NA,40,/,/,/,/
2026-04-03T1600,3025A,113.0479,23.6343,清远市,技师学院,细颗粒物(PM2.5),62,59,45,41,28,11,11,37,34,47,31,6,4,0.7,0.6
2026-04-03T1600,3318A,112.9898,23.7403,清远市,清新太和,,43,41,44,30,32,42,42,41,37,17,26,7,6,0.6,0.7
2026-04-03T1600,3455A,113.076,23.72,清远市,清城东城,细颗粒物(PM2.5),72,68,53,46,35,10,10,37,23,40,31,/,/,/,/
2026-04-03T1600,2661A,107.6325,35.7357,庆阳市,庆阳五中,颗粒物(PM10),198,346,158,72,35,108,108,85,85,6,12,2,2,0.1,0.3
2026-04-03T1600,2662A,107.6361,35.7067,庆阳市,市环保局,颗粒物(PM10),172,294,146,60,33,108,108,101,101,6,13,2,4,0.2,0.3
2026-04-03T1600,1916A,103.7897,25.5036,曲靖市,环境监测站,,48,32,35,13,14,153,153,130,130,9,9,6,6,0.5,0.5
2026-04-03T1600,1917A,103.8013,25.5357,曲靖市,烟厂办公区,,40,23,32,8,13,125,125,101,101,8,8,11,12,0.5,0.6
2026-04-03T1600,3376A,103.7926,25.4651,曲靖市,南苑二区,,41,19,28,11,14,129,129,105,105,9,9,4,4,0.5,0.5
2026-04-03T1600,3377A,103.7442,25.5259,曲靖市,曲靖师范学院,,41,17,29,6,16,129,129,111,111,11,8,3,4,0.5,0.5
2026-04-03T1600,1264A,118.8694,28.94,衢州市,环保大楼,,27,23,33,16,22,86,86,82,82,15,22,/,/,/,/
2026-04-03T1600,1266A,118.8622,28.9809,衢州市,衢州学院,,25,19,30,15,20,79,79,78,78,18,20,3,3,0.4,0.4
2026-04-03T1600,4097A,118.9646,28.9832,衢州市,衢州三中,,27,25,34,18,21,84,84,83,83,18,26,6,6,0.4,0.5
2026-04-03T1600,1611A,118.5818,24.9116,泉州市,涂山街,,43,NA,15,30,12,41,41,83,57,46,15,4,3,0.8,0.6
2026-04-03T1600,1612A,118.597,24.8976,泉州市,津头埔,细颗粒物(PM2.5),56,NA,18,38,16,31,31,88,58,49,17,4,2,0.7,0.6
2026-04-03T1600,1613A,118.6669,24.9422,泉州市,万安,,43,NA,18,30,13,47,47,80,52,35,18,4,3,0.6,0.5
2026-04-03T1600,4105A,118.6355,24.9148,泉州市,霞新路6号,,45,36,18,31,14,32,32,80,54,49,15,/,/,0.6,0.4
2026-04-03T1600,2626A,88.8873,29.2723,日喀则市,日喀则监测站,,30,8,15,3,5,95,95,75,75,3,9,9,9,0.3,0.3
2026-04-03T1600,3726A,88.8775,29.2425,日喀则市,林业技术推广中心,,30,10,16,3,3,94,94,80,80,3,5,5,5,0.3,0.3
2026-04-03T1600,1659A,119.4711,35.421,日照市,监测站,细颗粒物(PM2.5),86,90,105,53,73,112,112,108,108,40,37,11,11,0.7,0.8
2026-04-03T1600,1660A,119.523,35.4216,日照市,市政府广场,颗粒物(PM10),83,95,110,46,72,131,131,117,117,18,39,9,9,0.7,0.8
2026-04-03T1600,1661A,119.5511,35.4113,日照市,港务局,颗粒物(PM10),70,78,100,36,64,136,136,127,127,13,37,5,6,0.6,0.8
2026-04-03T1600,3507A,119.5326,35.4627,日照市,职业技术学院,细颗粒物(PM2.5),68,70,100,44,67,136,136,129,129,16,31,8,9,0.7,0.9
2026-04-03T1600,3604A,119.3267,35.1043,日照市,岚山环保分局,细颗粒物(PM2.5),108,97,104,68,73,126,126,105,105,28,31,13,12,0.8,0.8
2026-04-03T1600,1835A,111.1922,34.7752,三门峡市,市政府,颗粒物(PM10),120,172,72,37,41,127,127,84,84,10,22,9,12,0.3,0.5
2026-04-03T1600,1836A,111.1588,34.794,三门峡市,开发区,颗粒物(PM10),82,94,81,38,56,124,124,87,87,18,21,10,12,0.4,0.5
2026-04-03T1600,3039A,111.1911,34.7829,三门峡市,三门峡市第一小学,颗粒物(PM10),135,209,82,39,47,130,130,88,88,11,21,12,15,0.4,0.5
2026-04-03T1600,3598A,111.1031,34.719,三门峡市,富达温泉假日酒店,颗粒物(PM10),124,180,77,26,32,125,125,89,89,15,19,14,16,0.2,0.3
2026-04-03T1600,2324A,117.621,26.2626,三明市,三钢,,25,NA,13,8,11,80,80,77,62,15,14,18,7,2.0,0.7
2026-04-03T1600,2325A,117.6352,26.2714,三明市,三明二中,NA,NA,NA,14,4,11,81,81,75,62,9,12,2,3,0.9,0.7
2026-04-03T1600,2326A,117.6028,26.2377,三明市,三元区政府,,24,8,15,6,13,76,76,76,61,12,14,5,7,0.6,1.1
2026-04-03T1600,1877A,109.4962,18.2682,三亚市,河西子站,,27,27,28,14,20,69,69,70,70,5,4,4,4,0.5,0.5
2026-04-03T1600,3540A,109.7348,18.3443,三亚市,君悦子站,,25,23,26,17,21,76,76,69,69,5,8,4,4,0.4,0.5
2026-04-03T1600,4135A,109.1714,18.3739,三亚市,城东小学站,,33,33,34,15,22,70,70,70,70,7,7,/,/,/,/
2026-04-03T1600,2624A,91.7592,29.234,山南市,山南监测站,,30,18,27,3,5,96,96,92,92,2,2,8,8,0.3,0.3
2026-04-03T1600,2625A,91.7701,29.2436,山南市,山南人民医院,,44,44,32,3,6,97,97,93,93,2,4,8,9,0.2,0.2
2026-04-03T1600,1674A,116.6795,23.3666,汕头市,金平子站,,47,47,27,20,17,88,88,104,86,25,17,5,5,0.7,0.6
2026-04-03T1600,1675A,116.7248,23.3632,汕头市,龙湖子站,颗粒物(PM10),53,54,26,20,17,81,81,99,84,23,14,5,5,/,/
2026-04-03T1600,1676A,116.7257,23.2774,汕头市,濠江子站,,38,38,25,17,15,91,91,96,82,18,14,7,7,/,/
2026-04-03T1600,1677A,116.7518,23.4712,汕头市,澄海子站,颗粒物(PM10),54,55,28,23,18,67,67,96,76,30,14,7,7,0.8,0.7
2026-04-03T1600,1678A,116.6088,23.2539,汕头市,潮阳子站,颗粒物(PM10),60,63,28,36,21,68,68,101,76,29,10,6,5,0.8,0.5
2026-04-03T1600,3444A,116.4539,23.2684,汕头市,潮南峡山,细颗粒物(PM2.5),60,62,40,40,23,77,77,102,76,23,13,6,6,0.8,0.6
2026-04-03T1600,3624A,116.4069,23.2533,汕头市,潮南子站,细颗粒物(PM2.5),82,90,48,51,26,60,60,92,67,29,14,6,6,/,/
2026-04-03T1600,1693A,115.3653,22.7751,汕尾市,市环保局,,42,42,35,21,20,69,69,98,88,4,10,5,5,0.5,0.5
2026-04-03T1600,1695A,115.362,22.7926,汕尾市,新城中学,NA,NA,59,33,21,18,75,75,92,86,5,9,6,6,NA,0.6
2026-04-03T1600,2645A,109.9155,33.8714,商洛市,监测站,颗粒物(PM10),110,144,44,42,19,122,122,91,91,6,13,5,9,0.3,0.5
2026-04-03T1600,3045A,109.9647,33.8486,商洛市,商州区中学,颗粒物(PM10),142,229,73,44,19,127,127,103,103,5,15,4,7,0.3,0.4
2026-04-03T1600,2408A,115.6701,34.4283,商丘市,环境监测站,,38,32,60,16,43,119,119,104,104,3,9,3,4,0.3,0.5
2026-04-03T1600,2409A,115.6458,34.4047,商丘市,粮食局,,38,26,55,23,46,119,119,100,100,7,15,3,4,0.3,0.5
2026-04-03T1600,3171A,115.6069,34.4465,商丘市,梁园区档案局,,38,26,52,25,43,121,121,105,105,5,12,3,4,0.3,0.4
2026-04-03T1600,4119A,115.6701,34.3767,商丘市,北海东路185号,,38,18,70,14,40,119,119,101,101,2,15,4,5,0.3,0.5
2026-04-03T1600,4120A,115.6172,34.3704,商丘市,中山大街3号,,37,22,66,19,42,117,117,94,94,6,17,4,5,0.3,0.5
2026-04-03T1600,1141A,121.401,31.2382,上海市,普陀,,32,6,48,6,35,102,102,133,114,22,23,5,6,0.5,0.6
2026-04-03T1600,1142A,121.4774,31.2043,上海市,十五厂,,31,7,48,7,35,97,97,134,110,19,22,5,6,0.6,0.6
2026-04-03T1600,1143A,121.4673,31.3011,上海市,虹口,NA,NA,9,41,8,31,50,50,74,65,15,14,NA,NA,0.5,0.5
2026-04-03T1600,1147A,121.4253,31.226,上海市,静安监测站,,33,6,40,6,30,103,103,136,116,25,26,7,8,0.6,0.6
2026-04-03T1600,1148A,121.7029,31.1905,上海市,浦东川沙,,33,6,53,6,36,103,103,136,115,18,24,6,7,0.6,0.7
2026-04-03T1600,1149A,121.5339,31.229,上海市,浦东新区监测站,,30,7,48,7,30,94,94,130,105,22,21,5,6,0.4,0.5
2026-04-03T1600,1150A,121.5776,31.2038,上海市,浦东张江,,34,6,48,6,33,106,106,144,120,24,24,6,7,0.3,0.3
2026-04-03T1600,3265A,121.4242,31.3303,上海市,宝山庙行,,29,9,51,8,30,92,92,133,111,26,20,6,6,0.6,0.7
2026-04-03T1600,3266A,121.8789,31.4662,上海市,崇明上实东滩,,35,6,43,3,32,110,110,129,123,18,27,7,8,0.2,0.4
2026-04-03T1600,3268A,121.316,31.2839,上海市,嘉定南翔,,26,7,38,7,30,82,82,119,101,26,20,4,5,0.5,0.6
2026-04-03T1600,3269A,121.3357,30.7455,上海市,金山新城,,34,NA,42,9,30,106,106,131,118,17,16,4,5,0.9,0.7
2026-04-03T1600,3270A,121.4996,31.0741,上海市,闵行浦江,,32,6,46,3,35,102,102,136,114,14,19,6,7,0.4,0.4
2026-04-03T1600,3271A,121.2886,31.1663,上海市,青浦徐泾,,33,7,45,7,31,104,104,137,120,18,17,4,5,0.5,0.5
2026-04-03T1600,3272A,121.2193,31.0382,上海市,松江图书馆,,31,8,43,8,33,98,98,125,115,22,19,6,7,0.6,0.5
2026-04-03T1600,3273A,121.3904,31.206,上海市,长宁仙霞,NA,NA,NA,48,NA,32,95,95,131,108,21,22,4,9,0.3,0.3
