timepoint,stationcode,longitude,latitude,area,positionname,primarypollutant,aqi,pm10,pm10_24h,pm2_5,pm2_5_24h,o3,o3_24h,o3_8h,o3_8h_24h,no2,no2_24h,so2,so2_24h,co,co_24h
2025-11-03T2200,2566A,102.1879,31.914,阿坝藏族羌族自治州,州农科所,,,,,,,,,,,,,,,,
2025-11-03T2200,2568A,102.2502,31.8896,阿坝藏族羌族自治州,马师校,,28,22,15,19,15,22,,39,37,21,12,8,8,0.6,0.6
2025-11-03T2200,3994A,102.2165,31.9024,阿坝藏族羌族自治州,马尔康中学西区,,28,25,12,19,13,43,,51,50,10,10,5,5,0.5,0.5
2025-11-03T2200,2695A,80.292,41.1694,阿克苏地区,电视台,颗粒物(PM10),160,270,148,87,48,6,,81,68,88,37,9,7,1.8,0.7
2025-11-03T2200,2696A,80.2613,41.1551,阿克苏地区,艺术中心,颗粒物(PM10),125,200,134,55,56,4,,84,72,91,41,5,4,1.6,0.9
2025-11-03T2200,2204A,105.6467,38.8363,阿拉善盟,西城区西花园,,,,,,,,,,,,,,,,
2025-11-03T2200,2205A,105.6985,38.8411,阿拉善盟,蒙二幼,,42,42,43,18,21,99,,111,103,7,10,8,10,0.6,0.6
2025-11-03T2200,2206A,105.724,38.8516,阿拉善盟,环保局新楼,,33,29,36,16,19,104,,104,102,6,7,9,10,0.5,0.5
2025-11-03T2200,2708A,88.1264,47.8517,阿勒泰地区,市站,颗粒物(PM10),58,65,30,3,6,34,,64,46,32,21,4,4,0.3,0.3
2025-11-03T2200,2630A,80.1161,32.5,阿里地区,阿里监测站,,39,6,3,3,3,122,,111,111,2,12,3,3,0.2,0.3
2025-11-03T2200,3192A,80.0903,32.5028,阿里地区,阿里藏医院,,40,9,18,3,7,127,,118,118,1,10,8,9,0.3,0.4
2025-11-03T2200,2642A,109.0318,32.6537,安康市,香溪洞,,,,,,,,,,,,,,,,
2025-11-03T2200,2644A,109.0072,32.6975,安康市,汉滨区检察院,,43,43,43,18,24,17,,73,51,25,17,2,3,0.5,0.5
2025-11-03T2200,4054A,109.0325,32.6913,安康市,市邮政管理局,颗粒物(PM10),53,56,50,18,25,26,,73,51,24,19,6,6,0.7,0.7
2025-11-03T2200,2291A,117.0809,30.5177,安庆市,环科院,"颗粒物(PM10),细颗粒物(PM2.5)",68,86,73,49,47,56,,102,92,28,18,6,6,0.5,0.6
2025-11-03T2200,2292A,117.0331,30.5119,安庆市,马山宾馆,颗粒物(PM10),65,79,73,41,48,61,,105,94,31,20,6,6,0.4,0.5
2025-11-03T2200,2294A,116.9896,30.6145,安庆市,安庆大学,颗粒物(PM10),56,61,70,32,43,72,,106,98,17,14,6,6,0.5,0.5
2025-11-03T2200,3173A,117.0598,30.5351,安庆市,市人大,颗粒物(PM10),65,79,71,44,51,60,,106,92,29,19,6,7,0.5,0.6
2025-11-03T2200,3122A,105.9606,26.2611,安顺市,伍家关,,,,8,6,7,60,,72,69,10,7,10,8,0.6,0.3
2025-11-03T2200,3123A,105.9408,26.2431,安顺市,凤凰山,,17,10,11,6,8,54,,61,59,11,9,15,11,0.4,0.3
2025-11-03T2200,3124A,105.9439,26.2564,安顺市,金钟山,,18,11,10,10,8,55,,68,65,11,7,11,9,0.5,0.3
2025-11-03T2200,3125A,105.8983,26.2481,安顺市,娄家坡,,16,10,10,8,6,50,,58,56,11,9,10,11,0.5,0.5
2025-11-03T2200,1818A,114.4839,36.0621,安阳市,棉研所,,,,,,,,,,,,,,,,
2025-11-03T2200,1819A,114.3551,36.1017,安阳市,红庙街,细颗粒物(PM2.5),119,132,98,90,52,59,,79,77,36,38,4,5,0.7,0.7
2025-11-03T2200,1820A,114.361,36.0681,安阳市,银杏小区,细颗粒物(PM2.5),124,119,90,94,62,62,,84,81,38,38,5,4,0.5,0.5
2025-11-03T2200,3141A,114.3922,36.0878,安阳市,信访局,细颗粒物(PM2.5),120,124,93,91,55,79,,89,88,27,39,4,5,0.4,0.4
2025-11-03T2200,3669A,114.4705,36.0637,安阳市,左辅环卫站,颗粒物(PM10),139,228,137,87,58,35,,68,56,52,48,2,4,0.7,0.6
2025-11-03T2200,3703A,114.2917,36.0949,安阳市,安钢职工学校,细颗粒物(PM2.5),125,120,102,95,70,76,,80,79,23,34,4,4,0.6,0.4
2025-11-03T2200,1748A,123.044,41.1196,鞍山市,深沟寺,,29,29,35,14,15,63,,69,67,14,19,7,9,0.6,0.7
2025-11-03T2200,1749A,123.011,41.0931,鞍山市,太阳城,,31,31,30,14,15,64,,67,66,14,18,9,12,0.3,0.5
2025-11-03T2200,1750A,123.0485,41.1442,鞍山市,太平,,30,30,42,13,16,64,,67,66,12,19,8,10,0.6,0.7
2025-11-03T2200,1751A,122.9642,41.0971,鞍山市,铁西三道街,,47,47,55,17,23,55,,63,60,18,30,10,11,0.5,0.7
2025-11-03T2200,1753A,123.022,41.0821,鞍山市,明达新区,,28,28,32,13,16,64,,68,67,8,13,9,11,0.4,0.7
2025-11-03T2200,1754A,123.1289,41.0228,鞍山市,千山,,,,21,,8,,,46,,,7,,3,,0.2
2025-11-03T2200,4201A,122.9446,41.0826,鞍山市,兴盛南路290号,,48,48,66,19,24,52,,65,58,28,38,16,16,0.8,0.8
2025-11-03T2200,2195A,107.4212,40.761,巴彦淖尔市,附二中,颗粒物(PM10),69,88,69,46,34,22,,87,66,64,29,6,8,1.0,0.6
2025-11-03T2200,2196A,107.37,40.7372,巴彦淖尔市,市环保大楼,细颗粒物(PM2.5),68,76,73,49,35,82,,94,85,20,25,9,10,0.6,0.6
2025-11-03T2200,1956A,86.1472,41.7538,巴音郭楞蒙古自治州,孔雀公园,颗粒物(PM10),132,214,149,44,41,2,,75,60,97,58,9,8,1.2,0.7
2025-11-03T2200,1957A,86.1972,41.7166,巴音郭楞蒙古自治州,棉纺厂,颗粒物(PM10),183,315,181,69,37,2,,80,65,82,35,6,6,1.0,0.5
2025-11-03T2200,1958A,86.2357,41.7173,巴音郭楞蒙古自治州,经济开发区,颗粒物(PM10),250,385,160,80,34,17,,73,58,57,31,6,7,0.6,0.5
2025-11-03T2200,2914A,106.7677,31.8794,巴中市,苏山坪,,,,,,,,,,,,,,,,
2025-11-03T2200,3181A,106.7768,31.8526,巴中市,市五中,,48,44,35,33,27,43,,57,56,14,12,8,8,0.6,0.7
2025-11-03T2200,3183A,106.7418,31.8654,巴中市,圣泉水务公司,,46,42,30,32,24,43,,60,56,12,13,8,8,0.7,0.7
2025-11-03T2200,3616A,106.7616,31.8344,巴中市,市中心医院,,45,45,36,30,29,35,,54,50,15,13,10,10,0.8,0.8
2025-11-03T2200,2235A,122.7911,45.6077,白城市,洮北区环保局,颗粒物(PM10),66,81,40,35,17,44,,57,54,17,9,8,7,0.6,0.4
2025-11-03T2200,2236A,122.8738,45.5725,白城市,市环保局,颗粒物(PM10),78,105,58,36,21,41,,58,52,19,10,7,4,0.5,0.3
2025-11-03T2200,2231A,126.4219,41.9171,白山市,喜丰,颗粒物(PM10),90,130,48,30,14,4,,44,26,40,21,13,11,0.9,0.7
2025-11-03T2200,2232A,126.4077,41.9419,白山市,环保局,,38,33,30,26,20,6,,42,18,30,18,7,10,0.8,0.6
2025-11-03T2200,2647A,104.1724,36.5446,白银市,第三小学,颗粒物(PM10),55,60,63,27,36,20,,73,50,40,36,61,20,0.7,0.6
2025-11-03T2200,2648A,104.1465,36.5482,白银市,动力公司,颗粒物(PM10),56,61,57,34,33,17,,84,66,56,32,24,13,0.7,0.6
2025-11-03T2200,2512A,106.6103,23.9011,百色市,市监测站,,12,12,14,3,5,37,,42,37,8,8,7,8,0.4,0.4
2025-11-03T2200,2513A,106.6538,23.8859,百色市,市中心血站,,21,21,20,14,8,16,,39,32,30,18,6,6,0.7,0.5
2025-11-03T2200,3406A,106.6085,23.8798,百色市,祈福高中,,24,24,18,8,7,28,,35,26,16,15,4,5,0.5,0.5
2025-11-03T2200,2270A,117.396,32.939,蚌埠市,工人疗养院,颗粒物(PM10),66,82,53,25,13,16,,81,50,72,33,6,5,0.2,0.2
2025-11-03T2200,2271A,117.3605,32.9427,蚌埠市,百货大楼,颗粒物(PM10),59,68,46,30,16,7,,79,48,84,34,8,7,0.4,0.3
2025-11-03T2200,2273A,117.4185,32.8911,蚌埠市,蚌埠学院,颗粒物(PM10),67,83,43,38,15,13,,90,52,64,25,4,4,0.4,0.3
2025-11-03T2200,2274A,117.3533,32.9673,蚌埠市,淮上区政府,颗粒物(PM10),62,73,50,34,20,32,,84,69,56,25,7,7,0.3,0.2
2025-11-03T2200,2275A,117.3145,32.8977,蚌埠市,高新区,颗粒物(PM10),60,70,41,36,17,42,,84,66,41,24,6,6,0.3,0.2
2025-11-03T2200,3715A,117.3092,32.9314,蚌埠市,蚌埠田家炳中学,颗粒物(PM10),58,65,45,34,17,43,,87,67,40,24,4,4,0.4,0.2
2025-11-03T2200,1585A,109.8756,40.6532,包头市,市环境监测站,颗粒物(PM10),77,104,71,47,30,3,,58,33,86,61,10,23,1.3,1.4
2025-11-03T2200,1587A,109.9991,40.5842,包头市,包头八中,颗粒物(PM10),89,127,75,53,41,3,,61,37,93,61,16,22,1.6,1.1
2025-11-03T2200,1588A,109.8538,40.6821,包头市,青山宾馆,颗粒物(PM10),101,151,81,59,48,2,,57,32,93,67,12,25,1.5,1.8
2025-11-03T2200,1589A,109.8642,40.6288,包头市,惠龙物流,颗粒物(PM10),75,100,64,51,33,3,,67,45,97,62,16,25,1.8,1.5
2025-11-03T2200,1590A,110.0377,40.5546,包头市,东河鸿龙湾,颗粒物(PM10),106,162,58,59,32,4,,75,48,102,63,16,15,1.8,1
2025-11-03T2200,3283A,109.9154,40.5685,包头市,滨河大厦,颗粒物(PM10),80,110,50,54,28,3,,73,51,101,55,21,18,1.6,0.7
2025-11-03T2200,3419A,109.9447,40.6261,包头市,包头市委党校,颗粒物(PM10),58,65,53,16,27,14,,67,45,83,59,9,20,0.9,1.2
2025-11-03T2200,3683A,109.8331,40.6576,包头市,昆区政府,细颗粒物(PM2.5),88,124,77,65,44,4,,62,41,99,69,14,29,1.8,2
2025-11-03T2200,1930A,107.185,34.3063,宝鸡市,庙沟村,,,,,,,,,,,,,,,,
2025-11-03T2200,1931A,107.0708,34.3017,宝鸡市,竹园沟,,,85,75,74,61,7,,47,37,,28,8,9,0.6,0.5
2025-11-03T2200,1932A,107.1906,34.3672,宝鸡市,三陆医院,细颗粒物(PM2.5),168,155,108,127,91,7,,80,56,74,48,7,8,1.0,0.8
2025-11-03T2200,1933A,107.1431,34.3547,宝鸡市,监测站,细颗粒物(PM2.5),114,121,96,86,68,5,,54,40,37,31,5,6,0.6,0.6
2025-11-03T2200,1934A,107.1186,34.3739,宝鸡市,技工学校,细颗粒物(PM2.5),148,,100,113,90,31,,51,,35,30,5,7,1.5,0.9
2025-11-03T2200,1936A,107.2058,34.3497,宝鸡市,文理学院,细颗粒物(PM2.5),119,115,91,90,66,16,,79,58,47,37,6,7,0.9,0.8
2025-11-03T2200,1937A,107.2386,34.3622,宝鸡市,三迪小学,细颗粒物(PM2.5),153,147,106,117,86,11,,83,56,70,52,6,7,1.0,0.8
2025-11-03T2200,4308A,107.3898,34.3601,宝鸡市,陈仓区北开路21号,细颗粒物(PM2.5),168,187,132,127,91,17,,89,68,68,45,7,9,0.9,0.8
2025-11-03T2200,1051A,115.493,38.8632,保定市,游泳馆,细颗粒物(PM2.5),100,117,71,75,45,4,,62,36,84,51,6,7,0.7,0.2
2025-11-03T2200,1052A,115.5213,38.8959,保定市,华电二区,细颗粒物(PM2.5),90,82,57,67,42,1,,64,38,64,44,4,6,1.1,0.4
2025-11-03T2200,1053A,115.4713,38.9108,保定市,接待中心,细颗粒物(PM2.5),99,113,64,74,44,3,,65,46,68,45,8,9,0.9,0.2
2025-11-03T2200,1054A,115.4612,38.8416,保定市,地表水厂,细颗粒物(PM2.5),102,116,74,76,41,6,,64,33,80,57,14,15,0.6,0.4
2025-11-03T2200,3581A,115.31981,38.95208,保定市,满城区生态环境分局,细颗粒物(PM2.5),83,102,72,61,35,14,,59,37,60,44,2,4,0.6,0.3
2025-11-03T2200,3582A,115.47694,38.76408,保定市,清苑区第二中学,颗粒物(PM10),76,101,77,54,36,29,,67,47,52,39,10,8,0.5,0.4
2025-11-03T2200,3583A,115.62909,39.02311,保定市,徐水物探局,细颗粒物(PM2.5),92,109,86,68,46,3,,59,36,73,50,11,10,0.8,0.6
2025-11-03T2200,4004A,115.4202,38.8656,保定市,双鹰农机,细颗粒物(PM2.5),109,128,81,82,39,20,,63,42,57,48,6,7,0.9,0.6
2025-11-03T2200,4034A,115.5150,38.8590,保定市,植保所站,细颗粒物(PM2.5),105,117,87,79,50,2,,60,35,71,52,8,8,1.6,0.8
2025-11-03T2200,2594A,99.1678,25.1081,保山市,市环境监测站,,16,,9,11,9,24,,38,31,9,8,9,8,0.6,0.5
2025-11-03T2200,2595A,99.1711,25.1328,保山市,市环保局,,20,14,12,14,8,36,,41,35,4,5,6,6,0.7,0.6
2025-11-03T2200,1866A,109.2262,21.588,北海市,牛尾岭水库,,15,15,23,6,16,32,,42,29,8,15,2,25,0,0.8
2025-11-03T2200,1867A,109.1436,21.4086,北海市,海滩公园,,15,,28,10,17,46,,54,50,7,9,6,6,0.4,0.5
2025-11-03T2200,1868A,109.0981,21.4661,北海市,新市环保局,,15,,24,3,20,48,,55,53,8,9,5,6,0.5,0.5
2025-11-03T2200,1869A,109.1778,21.5233,北海市,北海工业园,,14,,28,7,20,42,,50,46,9,11,5,5,0.3,0.4
2025-11-03T2200,3400A,109.1911,21.4415,北海市,龙潭自来水厂,,14,13,28,9,21,42,,52,48,7,8,1,2,0.4,0.5
2025-11-03T2200,1001A,116.3621,39.8784,北京市,万寿西宫,颗粒物(PM10),64,78,69,40,35,10,,56,46,68,49,3,4,0.9,0.7
2025-11-03T2200,1002A,116.2202,40.2915,北京市,定陵,,,,,,,,,,,,,,,,
2025-11-03T2200,1003A,116.4174,39.9289,北京市,东四,颗粒物(PM10),69,87,73,43,37,16,,59,50,63,45,5,5,0.8,0.6
2025-11-03T2200,1004A,116.4072,39.8863,北京市,天坛,颗粒物(PM10),54,57,57,36,32,5,,56,43,40,40,3,3,0.6,0.5
2025-11-03T2200,1005A,116.462,39.9365,北京市,农展馆,颗粒物(PM10),64,78,66,44,38,4,,62,50,69,46,4,6,0.8,0.6
2025-11-03T2200,1006A,116.3392,39.9295,北京市,官园,颗粒物(PM10),66,81,65,44,31,19,,55,49,54,43,3,4,0.6,0.5
2025-11-03T2200,1007A,116.2878,39.9611,北京市,海淀万柳,颗粒物(PM10),70,89,64,45,30,9,,49,42,62,48,4,5,0.7,0.5
2025-11-03T2200,1008A,116.6636,40.135,北京市,顺义新城,颗粒物(PM10),81,111,67,59,29,7,,53,40,69,47,4,6,0.7,0.5
2025-11-03T2200,1009A,116.6275,40.3275,北京市,怀柔镇,细颗粒物(PM2.5),68,75,48,49,29,23,,33,23,38,35,5,6,0.6,0.6
2025-11-03T2200,1010A,116.2296,40.217,北京市,昌平镇,颗粒物(PM10),59,68,52,39,27,33,,34,34,31,39,5,6,0.5,0.4
2025-11-03T2200,1011A,116.3966,39.9821,北京市,奥体中心,颗粒物(PM10),60,70,60,40,32,13,,53,46,65,53,4,6,0.7,0.5
2025-11-03T2200,3281A,115.9718,40.4529,北京市,延庆夏都,颗粒物(PM10),64,78,51,38,26,26,,43,38,43,33,3,3,0.6,0.4
2025-11-03T2200,3418A,116.8336,40.4095,北京市,密云新城,细颗粒物(PM2.5),69,60,33,50,26,31,,52,46,37,22,2,3,0.5,0.5
2025-11-03T2200,3671A,116.088,39.9726,北京市,门头沟三家店,颗粒物(PM10),71,92,62,44,28,4,,44,36,50,37,1,2,0.7,0.5
2025-11-03T2200,3672A,116.1541,39.8204,北京市,丰台云岗,颗粒物(PM10),77,103,83,48,34,6,,54,41,71,46,4,4,0.7,0.5
2025-11-03T2200,3673A,116.6804,39.9081,北京市,通州东关,颗粒物(PM10),78,105,62,52,29,4,,55,35,74,52,5,6,0.6,0.5
2025-11-03T2200,3674A,115.9577,39.7603,北京市,房山燕山,颗粒物(PM10),63,76,58,44,28,28,,48,45,30,29,4,4,0.5,0.4
2025-11-03T2200,3675A,116.4672,39.7733,北京市,大兴旧宫,颗粒物(PM10),64,77,66,39,33,11,,50,41,43,29,2,4,0.7,0.6
2025-11-03T2200,3694A,115.986,40.4563,北京市,延庆石河营,颗粒物(PM10),68,85,54,42,26,5,,41,32,49,32,2,3,0.6,0.4
2025-11-03T2200,3695A,116.6151,40.3053,北京市,怀柔新城,细颗粒物(PM2.5),64,64,48,46,30,27,,38,33,34,31,3,4,0.5,0.4
2025-11-03T2200,3696A,116.2545,39.8768,北京市,丰台小屯,颗粒物(PM10),70,90,73,42,34,3,,43,31,64,45,3,4,0.7,0.6
2025-11-03T2200,3697A,116.84,40.3844,北京市,密云镇,颗粒物(PM10),71,91,58,49,28,9,,56,47,54,36,6,7,0.6,0.5
2025-11-03T2200,4182A,116.1942,39.9158,北京市,八角北路9号,颗粒物(PM10),81,111,80,49,31,2,,48,38,87,52,1,2,0.6,0.4
2025-11-03T2200,4194A,117.0790,40.1518,北京市,洳河巡河路,颗粒物(PM10),59,68,51,34,24,21,,54,35,38,29,4,5,0.5,0.4
2025-11-03T2200,1761A,123.8275,41.3064,本溪市,大峪,,30,30,41,17,13,64,,72,69,11,20,8,8,0.2,0.3
2025-11-03T2200,1762A,123.7567,41.3325,本溪市,溪湖,,40,40,45,21,20,50,,66,62,28,26,19,16,1.2,1.1
2025-11-03T2200,1763A,123.7169,41.3094,本溪市,彩屯,,45,45,50,28,28,38,,53,44,32,35,14,17,2.0,2
2025-11-03T2200,1764A,123.7669,41.2864,本溪市,东明,颗粒物(PM10),51,51,52,20,20,66,,72,69,13,25,7,7,0.7,0.9
2025-11-03T2200,1765A,123.7992,41.2664,本溪市,新立屯,,34,34,26,16,13,65,,70,67,12,20,7,6,0.2,0.3
2025-11-03T2200,1766A,123.8142,41.3472,本溪市,威宁,,39,39,43,17,19,50,,64,60,19,22,6,6,0.5,0.6
2025-11-03T2200,2587A,105.2864,27.3125,毕节市,八中,,14,9,12,8,8,43,,52,45,6,6,7,7,0.5,0.5
2025-11-03T2200,2588A,105.31,27.2944,毕节市,师专,,15,,8,8,6,45,,56,47,7,8,8,9,0.5,0.5
2025-11-03T2200,4263A,105.3688,27.3598,毕节市,工业大道,,16,7,7,7,7,50,,59,53,6,6,11,10,0.5,0.5
2025-11-03T2200,1629A,118.0018,37.3617,滨州市,第二水厂,细颗粒物(PM2.5),139,163,71,106,43,6,,71,47,88,45,16,13,0.6,0.3
2025-11-03T2200,1630A,117.9776,37.393,滨州市,北中新校,细颗粒物(PM2.5),138,151,60,105,38,2,,67,40,88,44,12,10,1.0,0.5
2025-11-03T2200,3514A,117.9378,37.3956,滨州市,中海酒店,细颗粒物(PM2.5),132,139,57,100,39,13,,71,54,72,41,8,11,1.0,0.7
2025-11-03T2200,3515A,117.9378,37.3553,滨州市,开发区一中,细颗粒物(PM2.5),134,163,76,102,45,6,,77,52,88,46,17,13,0.9,0.7
2025-11-03T2200,3516A,118.0917,37.694,滨州市,金海六路,颗粒物(PM10),68,85,52,39,23,18,,83,60,61,37,7,8,0.2,0.1
2025-11-03T2200,4028A,117.9956,37.3753,滨州市,滨州市西街道办事处,细颗粒物(PM2.5),180,190,73,136,49,5,,76,46,75,42,11,12,1.0,0.5
2025-11-03T2200,2311A,115.8072,33.8399,亳州市,污水处理厂,"颗粒物(PM10),细颗粒物(PM2.5)",70,89,77,51,46,35,,76,57,47,35,13,13,0.5,0.5
2025-11-03T2200,2312A,115.7789,33.8518,亳州市,三国揽胜宫,颗粒物(PM10),61,71,80,31,42,58,,77,70,33,33,5,6,0.3,0.3
2025-11-03T2200,3332A,115.7633,33.8034,亳州市,亳州学院,,,56,73,,43,51,,80,68,38,23,7,7,0.4,0.4
2025-11-03T2200,2693A,82.0485,44.8556,博尔塔拉蒙古自治州,市党校,颗粒物(PM10),65,79,43,30,25,44,,57,54,17,15,3,3,0.5,0.5
2025-11-03T2200,2694A,82.0806,44.8969,博尔塔拉蒙古自治州,市环保局,颗粒物(PM10),109,167,69,24,18,17,,45,42,60,30,2,4,0.7,0.4
2025-11-03T2200,1071A,116.8842,38.2991,沧州市,沧县城建局,颗粒物(PM10),70,90,54,49,29,24,,66,45,52,38,5,10,0.6,0.5
2025-11-03T2200,1072A,116.8584,38.3254,沧州市,电视转播站,细颗粒物(PM2.5),73,83,55,53,33,35,,68,48,43,41,8,10,0.6,0.6
2025-11-03T2200,1073A,116.8709,38.3228,沧州市,市环保局,细颗粒物(PM2.5),82,86,57,60,38,11,,71,41,64,40,8,12,0.4,0.4
2025-11-03T2200,3324A,116.8136,38.3004,沧州市,河北水利电力学院,颗粒物(PM10),74,97,59,40,22,25,,63,40,48,35,8,11,0.4,0.5
2025-11-03T2200,2622A,97.1806,31.1273,昌都市,昌都监测站,细颗粒物(PM2.5),62,44,12,44,8,31,,84,73,44,10,4,4,1.0,0.3
2025-11-03T2200,3719A,97.1714,31.1406,昌都市,昌都会议中心,,21,15,8,10,6,67,,88,80,5,4,3,3,0.2,0.1
2025-11-03T2200,2690A,88.1236,43.8886,昌吉回族自治州,天山天池,,,,,,,,,,,,,,,,
2025-11-03T2200,2692A,87.2717,44.0297,昌吉回族自治州,新区政务中心,颗粒物(PM10),80,110,74,30,29,2,,60,46,78,42,7,8,1.2,0.7
2025-11-03T2200,3613A,87.3095,44.0142,昌吉回族自治州,亚心广场,颗粒物(PM10),87,124,83,46,30,10,,63,52,73,39,11,10,0.9,0.7
2025-11-03T2200,1120A,125.2863,43.9027,长春市,客车厂,,50,,34,35,28,54,,71,59,16,21,8,9,0.5,0.4
2025-11-03T2200,1121A,125.2841,43.8463,长春市,邮电学院,,39,36,35,27,25,48,,68,59,20,21,12,12,0.6,0.5
2025-11-03T2200,1122A,125.3716,43.8772,长春市,劳动公园,,29,29,33,19,22,50,,65,58,15,20,9,9,0.4,0.5
2025-11-03T2200,1123A,125.3297,43.8805,长春市,园林处,,35,31,33,24,26,47,,66,57,20,24,6,7,0.5,0.4
2025-11-03T2200,1124A,125.4605,43.79,长春市,净月潭,,20,20,35,11,20,56,,69,62,8,11,6,6,0.4,0.4
2025-11-03T2200,1125A,125.7194,43.515,长春市,甩湾子,,20,20,23,12,18,57,,67,63,11,15,5,5,0.2,0.3
2025-11-03T2200,1126A,125.3863,43.8447,长春市,经开区环卫处,,30,30,33,18,19,44,,60,52,15,22,7,7,0.5,0.5
2025-11-03T2200,1127A,125.245,43.7783,长春市,高新区管委会,,40,,34,28,28,46,,63,52,17,19,6,6,0.4,0.4
2025-11-03T2200,1128A,125.1761,43.8325,长春市,岱山公园,细颗粒物(PM2.5),53,49,43,37,29,26,,56,37,39,30,7,6,0.5,0.4
2025-11-03T2200,4281A,125.3346,43.9164,长春市,北亚泰大街1068号,,36,32,37,25,25,42,,61,52,24,27,7,7,0.4,0.4
2025-11-03T2200,1335A,113.0833,28.2325,长沙市,经开区环保局,细颗粒物(PM2.5),77,,44,56,37,15,,54,41,46,33,4,4,0.5,0.5
2025-11-03T2200,1336A,112.8872,28.2189,长沙市,高开区环保局,细颗粒物(PM2.5),65,54,46,47,34,25,,72,54,35,31,5,5,0.4,0.4
2025-11-03T2200,1337A,113.0792,28.2053,长沙市,马坡岭,细颗粒物(PM2.5),52,42,44,36,33,35,,60,49,23,30,4,4,0.6,0.6
2025-11-03T2200,1338A,112.9394,28.19,长沙市,湖南师范大学,细颗粒物(PM2.5),64,49,42,46,27,36,,68,56,26,24,4,4,0.4,0.4
2025-11-03T2200,1339A,113.0178,28.1322,长沙市,雨花区环保局,细颗粒物(PM2.5),57,41,44,40,38,49,,66,57,22,28,6,6,0.7,0.7
2025-11-03T2200,1340A,112.9792,28.2597,长沙市,伍家岭,细颗粒物(PM2.5),68,64,46,49,35,26,,69,54,34,30,3,4,0.4,0.4
2025-11-03T2200,1341A,113.0014,28.1944,长沙市,火车新站,细颗粒物(PM2.5),58,49,46,41,33,41,,68,56,30,34,8,9,0.7,0.6
2025-11-03T2200,1342A,112.9844,28.1178,长沙市,天心区环保局,,50,44,44,35,30,46,,74,66,29,32,5,5,0.6,0.5
2025-11-03T2200,1343A,112.8908,28.1308,长沙市,湖南中医药大学,,46,46,44,30,26,28,,59,48,24,26,4,4,0.8,0.8
2025-11-03T2200,1344A,112.9581,28.3611,长沙市,沙坪,,,,,,,,,,,,,,,,
2025-11-03T2200,1727A,113.1147,36.1547,长治市,清华站,细颗粒物(PM2.5),104,,53,78,47,107,,116,115,22,25,12,16,0.7,0.6
2025-11-03T2200,1730A,113.0886,36.2125,长治市,审计局,,,,43,73,45,100,,108,107,21,26,8,12,0.7,0.6
2025-11-03T2200,1731A,113.0844,36.1856,长治市,长治八中,细颗粒物(PM2.5),105,89,72,79,52,96,,110,107,20,20,10,15,0.6,0.6
2025-11-03T2200,2845A,113.1569,36.1911,长治市,德盛苑,细颗粒物(PM2.5),89,68,53,66,48,114,,118,117,15,17,7,8,0.7,0.7
2025-11-03T2200,3568A,113.06,36.0464,长治市,向阳小学,细颗粒物(PM2.5),114,121,81,86,48,104,,119,117,34,29,8,19,0.7,0.6
2025-11-03T2200,3569A,112.8792,36.3144,长治市,屯留一中,细颗粒物(PM2.5),100,88,63,75,42,93,,105,104,20,23,9,10,0.7,0.8
2025-11-03T2200,4189A,113.1131,36.19948,长治市,英华南巷50号,细颗粒物(PM2.5),104,83,60,78,46,111,,119,118,17,22,9,10,0.8,0.8
2025-11-03T2200,4190A,113.2367,36.3344,长治市,学府街1号,细颗粒物(PM2.5),84,74,62,62,39,98,,115,106,20,36,7,8,0.7,0.9
2025-11-03T2200,1854A,111.6975,28.9703,常德市,市二中,,36,36,55,13,38,18,,55,49,15,15,4,5,0.6,0.7
2025-11-03T2200,1857A,111.7158,29.1456,常德市,白鹤山,,,,,,,,,,,,,,,,
2025-11-03T2200,3138A,111.7153,29.0289,常德市,武陵区永安,,19,19,60,8,37,47,,58,56,9,13,4,6,0.3,0.6
2025-11-03T2200,3139A,111.6892,28.9881,常德市,鼎城区玉霞,,43,43,71,17,36,8,,50,41,26,18,5,6,0.3,0.4
2025-11-03T2200,3140A,111.6625,29.0531,常德市,武陵区长庚,,21,21,60,10,40,36,,52,50,13,17,2,3,0.2,0.4
2025-11-03T2200,1196A,119.9633,31.762,常州市,市监测站,颗粒物(PM10),58,66,29,34,16,15,,83,58,67,26,15,10,0.7,0.5
2025-11-03T2200,1200A,119.9468,31.7069,常州市,武进监测站,颗粒物(PM10),51,52,26,23,12,41,,84,70,41,23,14,10,0.5,0.4
2025-11-03T2200,1201A,119.9255,31.9087,常州市,安家,颗粒物(PM10),52,54,38,25,14,5,,70,41,57,25,10,12,0.6,0.7
2025-11-03T2200,3002A,119.9805,31.8174,常州市,行政中心,颗粒物(PM10),64,78,45,37,19,9,,74,50,74,29,6,7,0.5,0.5
2025-11-03T2200,3003A,120.0522,31.7748,常州市,经开区,颗粒物(PM10),63,76,35,25,13,8,,80,56,73,30,10,10,0.6,0.5
2025-11-03T2200,3010A,119.9025,31.7964,常州市,钟楼,细颗粒物(PM2.5),53,51,32,37,16,20,,79,60,61,26,9,9,0.8,0.7
2025-11-03T2200,3429A,119.8598,31.7066,常州市,武进经发区,颗粒物(PM10),56,62,30,28,11,6,,86,62,86,31,10,9,0.7,0.6
2025-11-03T2200,3430A,119.5826,31.7245,常州市,金坛城区,颗粒物(PM10),53,55,33,33,13,42,,85,71,34,23,6,7,0.5,0.4
2025-11-03T2200,2220A,120.4318,41.5881,朝阳市,西梁,,50,50,65,28,25,52,,65,60,35,36,15,9,1.5,0.9
2025-11-03T2200,2221A,120.4521,41.5646,朝阳市,河畔小区,,40,36,54,28,26,60,,71,68,27,32,8,10,0.7,0.7
2025-11-03T2200,2222A,120.4176,41.5648,朝阳市,八里堡,,47,47,58,26,25,51,,64,60,36,35,16,10,1.4,0.9
2025-11-03T2200,2223A,120.3806,41.5969,朝阳市,农业园区,,46,32,52,32,25,61,,76,71,26,28,11,12,0.9,0.9
2025-11-03T2200,1705A,116.6367,23.6719,潮州市,西园路,,,,,,,,,,,,,,,,
2025-11-03T2200,3026A,116.6183,23.6608,潮州市,市政府,,34,34,46,18,27,84,,105,96,5,7,3,5,0.4,0.4
2025-11-03T2200,4036A,116.6461,23.6761,潮州市,金山,,33,23,40,23,27,82,,102,93,6,9,3,4,0.5,0.5
2025-11-03T2200,2472A,113.0073,25.9061,郴州市,马头岭,,,,,,,,,,,,,,,,
2025-11-03T2200,2473A,113.0116,25.8226,郴州市,市职中,,17,14,20,11,17,53,,58,53,8,11,2,3,0.5,0.5
2025-11-03T2200,2475A,113.0383,25.8071,郴州市,市审计局,,21,15,21,12,18,65,,66,63,8,10,1,3,0.2,0.2
2025-11-03T2200,2476A,113.0348,25.7759,郴州市,市环保局,,22,22,24,13,16,55,,60,55,12,12,3,3,0.3,0.3
2025-11-03T2200,4252A,113.0138,25.8011,郴州市,好美居路49号,,22,17,19,15,16,64,,69,64,11,13,2,6,0.4,0.5
2025-11-03T2200,1431A,103.9728,30.7236,成都市,金泉两河,,18,18,33,8,22,1,,32,24,31,24,2,3,0.7,0.6
2025-11-03T2200,1432A,104.176,30.6872,成都市,十里店,,50,43,46,35,36,18,,31,25,34,30,3,3,0.6,0.5
2025-11-03T2200,1433A,104.079,30.5706,成都市,三瓦窑,,39,35,48,27,26,19,,35,33,33,24,4,4,0.7,0.6
2025-11-03T2200,1434A,104.1114,30.63,成都市,沙河铺,细颗粒物(PM2.5),67,48,50,48,47,6,,21,17,36,31,4,4,0.7,0.5
2025-11-03T2200,1437A,104.0786,30.6531,成都市,君平街,细颗粒物(PM2.5),54,,46,38,36,18,,30,29,26,21,4,4,0.6,0.5
2025-11-03T2200,1438A,103.613,31.0283,成都市,灵岩寺,,,,,,,,,,,,,,,,
2025-11-03T2200,2880A,104.0239,30.65639,成都市,大石西路,,43,,37,30,38,14,,29,27,22,28,3,3,0.7,0.7
2025-11-03T2200,3136A,104.2725,30.5589,成都市,龙泉驿区区政府,,18,14,18,12,15,25,,39,39,14,16,5,5,0.5,0.5
2025-11-03T2200,3357A,104.0106,30.6931,成都市,金博路,,22,22,40,13,27,7,,28,26,30,25,6,6,0.7,0.6
2025-11-03T2200,3359A,104.0578,30.5225,成都市,华阳,,42,29,30,29,31,17,,40,27,30,21,4,4,0.5,0.4
2025-11-03T2200,3488A,104.3880,30.7467,成都市,青石路225号,,40,,32,28,21,21,,29,29,21,24,6,5,0.5,0.6
2025-11-03T2200,3489A,104.0789,30.4072,成都市,科学城,,,25,28,20,22,,,42,42,13,16,5,5,0.7,0.5
2025-11-03T2200,4011A,103.8506,30.6947,成都市,光华大道三段,,38,38,45,24,33,5,,39,29,34,21,1,1,0.8,0.7
2025-11-03T2200,4224A,104.2433,30.5353,成都市,鲸龙路1057号,,32,26,29,22,24,18,,42,38,34,22,5,5,0.7,0.6
2025-11-03T2200,1062A,117.9531,40.9081,承德市,铁路,颗粒物(PM10),62,74,36,37,16,26,,51,44,42,32,2,3,0.6,0.4
2025-11-03T2200,1063A,117.9392,40.9763,承德市,中国银行,颗粒物(PM10),58,66,42,35,16,6,,56,37,47,29,2,3,0.6,0.5
2025-11-03T2200,1064A,117.9503,40.928,承德市,开发区,颗粒物(PM10),57,63,47,30,23,31,,61,55,29,32,4,5,0.2,0.2
2025-11-03T2200,1066A,117.9268,41.0026,承德市,离宫,,,,,,,,,,,,,,,,
2025-11-03T2200,4274A,117.7994,40.9605,承德市,滨河大街98号,,50,45,40,35,20,28,,51,46,28,25,6,7,0.5,0.5
2025-11-03T2200,2314A,117.47,30.6618,池州市,池州学院,颗粒物(PM10),59,68,62,41,37,62,,89,72,25,25,8,8,0.7,0.7
2025-11-03T2200,3237A,117.4918,30.6617,池州市,展览馆,颗粒物(PM10),54,58,53,34,33,59,,91,75,24,21,7,7,0.9,0.8
2025-11-03T2200,3333A,117.5627,30.695,池州市,第八中学,颗粒物(PM10),57,64,51,32,28,55,,94,81,23,18,8,8,0.8,0.7
2025-11-03T2200,3334A,117.5038,30.6243,池州市,第十二中学,颗粒物(PM10),58,66,52,35,30,60,,94,84,29,24,7,7,0.9,0.8
2025-11-03T2200,1744A,118.9233,42.2816,赤峰市,松山一中,,42,42,56,22,30,67,,67,65,21,35,8,11,0.5,0.8
2025-11-03T2200,1745A,118.9576,42.2728,赤峰市,哈达街,,50,50,58,30,26,60,,61,60,22,34,10,13,0.6,0.8
2025-11-03T2200,1746A,118.8788,42.2554,赤峰市,天义路,,39,31,35,27,27,62,,70,67,20,28,8,8,0.5,0.7
2025-11-03T2200,3058A,119.2658,42.0353,赤峰市,银河街,颗粒物(PM10),53,55,71,24,31,48,,69,61,24,26,15,33,0.5,0.6
2025-11-03T2200,3286A,118.9359,42.3147,赤峰市,桥北物流园区,,40,32,52,28,33,58,,61,59,23,31,10,14,0.6,0.7
2025-11-03T2200,2521A,107.3476,22.4136,崇左市,市环保局江州分局,,16,,13,3,7,49,,51,46,2,6,1,3,0.5,0.6
2025-11-03T2200,4256A,107.3750,22.3736,崇左市,石景林东路7号,,14,,10,3,7,44,,53,47,6,6,6,6,0.5,0.5
2025-11-03T2200,2298A,118.3093,32.3153,滁州市,老年大学,颗粒物(PM10),54,58,47,30,22,11,,84,56,60,23,12,11,0.3,0.2
2025-11-03T2200,2299A,118.3244,32.2786,滁州市,人大宾馆,,49,49,43,23,14,32,,78,62,44,22,6,7,0.3,0.3
2025-11-03T2200,3207A,118.3118,32.3038,滁州市,市政府原办公楼,颗粒物(PM10),53,56,50,29,20,27,,85,63,47,25,6,7,0.6,0.4
2025-11-03T2200,3331A,118.3267,32.2634,滁州市,图书馆,颗粒物(PM10),57,64,43,26,14,29,,83,62,54,26,7,8,0.4,0.3
2025-11-03T2200,2605A,101.5482,25.0441,楚雄彝族自治州,州环境监测站,,10,,6,3,5,30,,28,28,7,9,8,8,0.6,0.7
2025-11-03T2200,2606A,101.538,25.0492,楚雄彝族自治州,市经济开发区,,12,10,8,8,5,30,,30,29,10,11,6,7,1.0,0.9
2025-11-03T2200,2548A,107.5277,31.2827,达州市,达州职业技术学院,,,,,,,,,,,,,,,,
2025-11-03T2200,2549A,107.5086,31.2186,达州市,市环境监测站,,,77,60,51,41,,,27,24,45,27,8,7,0.8,0.6
2025-11-03T2200,2550A,107.4988,31.2132,达州市,凤凰小区,细颗粒物(PM2.5),77,78,60,56,41,8,,29,22,42,25,8,5,0.7,0.6
2025-11-03T2200,2551A,107.5082,31.1986,达州市,达县机关宾馆,颗粒物(PM10),58,66,58,36,38,2,,18,11,42,29,6,5,0.8,0.6
2025-11-03T2200,2552A,107.4644,31.2124,达州市,市政中心,细颗粒物(PM2.5),67,77,66,48,37,12,,34,27,36,25,6,6,0.6,0.6
2025-11-03T2200,2614A,100.1542,25.7054,大理白族自治州,大理市环境监测站,,19,,5,13,10,36,,45,43,14,10,5,5,0.7,0.7
2025-11-03T2200,2615A,100.2171,25.5811,大理白族自治州,大理古城,,9,,7,6,5,26,,43,40,12,7,6,6,0.6,0.6
2025-11-03T2200,1109A,121.612,38.9741,大连市,甘井子,,22,17,22,8,9,70,,74,73,19,24,8,9,0.4,0.4
2025-11-03T2200,1110A,121.565,38.9511,大连市,周水子,,25,20,23,9,11,80,,77,77,16,33,3,4,0.3,0.5
2025-11-03T2200,1111A,121.5637,38.8845,大连市,星海三站,,23,16,20,8,10,72,,75,74,8,15,4,6,0.2,0.4
2025-11-03T2200,1112A,121.6302,38.9117,大连市,青泥洼桥,,23,7,19,3,8,73,,75,75,14,20,10,12,0.0,0.1
2025-11-03T2200,1113A,121.6251,38.8638,大连市,傅家庄,,22,18,19,8,7,68,,71,71,11,14,7,9,0.4,0.4
2025-11-03T2200,1114A,121.5213,38.8661,大连市,七贤岭,,24,20,21,8,7,74,,78,77,14,18,7,7,0.3,0.5
2025-11-03T2200,1115A,121.2529,38.8061,大连市,旅顺,,23,16,16,8,6,72,,76,75,8,11,8,9,0.3,0.3
2025-11-03T2200,1116A,121.7485,39.1311,大连市,金州,,22,13,25,3,12,69,,70,70,21,17,12,12,0.3,0.3
2025-11-03T2200,1117A,121.7811,39.0496,大连市,开发区,,22,16,26,3,12,68,,70,70,12,26,4,6,0.3,0.4
2025-11-03T2200,1118A,121.9762,39.0631,大连市,双D港,,25,16,21,6,8,79,,79,79,11,11,8,8,0.3,0.3
2025-11-03T2200,1789A,124.81117,46.03138,大庆市,大同区,细颗粒物(PM2.5),185,171,157,139,118,34,,90,68,29,22,11,12,1.1,0.8
2025-11-03T2200,1790A,125.129,46.533,大庆市,龙凤区,细颗粒物(PM2.5),152,157,127,116,86,49,,78,70,26,20,8,7,0.9,0.7
2025-11-03T2200,1791A,124.902,46.408,大庆市,红岗区,细颗粒物(PM2.5),139,159,167,106,121,32,,93,62,28,23,8,8,1.0,0.8
2025-11-03T2200,1792A,125.153,46.586,大庆市,萨尔图区,细颗粒物(PM2.5),207,189,142,157,100,41,,79,68,29,23,14,12,0.8,0.6
2025-11-03T2200,1793A,124.9042,46.6215,大庆市,让胡路区,细颗粒物(PM2.5),156,162,155,119,113,40,,108,77,26,22,10,9,0.8,0.7
2025-11-03T2200,3481A,125.141,46.634,大庆市,萨区政府监测点,细颗粒物(PM2.5),168,229,130,127,80,40,,84,71,20,13,12,11,1.2,0.8
2025-11-03T2200,1721A,113.3819,40.1097,大同市,果树场,颗粒物(PM10),64,77,71,36,39,6,,58,38,60,43,10,13,0.8,0.8
2025-11-03T2200,1723A,113.2994,40.0758,大同市,云冈宾馆,颗粒物(PM10),74,98,87,31,35,16,,69,56,72,43,10,10,1.1,1.2
2025-11-03T2200,1724A,113.3444,40.0917,大同市,大同大学,颗粒物(PM10),70,89,83,44,38,6,,72,56,84,50,12,14,1.0,1.1
2025-11-03T2200,1725A,113.2661,40.1269,大同市,安家小村,颗粒物(PM10),74,98,74,44,35,31,,70,64,51,39,13,11,2.2,0.8
2025-11-03T2200,1726A,113.2711,40.0844,大同市,教育学院,颗粒物(PM10),66,82,96,36,43,15,,62,50,68,49,11,11,0.8,1.1
2025-11-03T2200,3282A,113.3397,40.0597,大同市,大同市卫生学校,颗粒物(PM10),93,136,85,60,38,4,,63,44,75,44,8,11,1.5,1
2025-11-03T2200,3565A,113.1367,40.1122,大同市,云冈站,颗粒物(PM10),64,78,93,29,37,3,,64,50,63,35,11,12,0.5,0.6
2025-11-03T2200,3566A,113.1186,40.2556,大同市,图书馆,颗粒物(PM10),71,92,77,29,35,40,,80,73,19,25,5,10,0.5,0.6
2025-11-03T2200,3567A,113.5931,40.0461,大同市,区一中,细颗粒物(PM2.5),75,79,51,55,21,38,,81,68,31,23,11,14,0.9,0.5
2025-11-03T2200,4199A,113.2798,40.0997,大同市,魏都大道141号,颗粒物(PM10),86,121,107,53,42,7,,68,53,79,48,10,10,1.1,1.3
2025-11-03T2200,2269A,124.1069,50.4097,大兴安岭地区,科技局,颗粒物(PM10),52,54,29,25,16,35,,49,45,12,6,6,5,0.4,0.3
2025-11-03T2200,3663A,124.1164,50.4278,大兴安岭地区,红旗社区,,44,44,28,28,11,22,,49,40,20,12,9,7,0.6,0.4
2025-11-03T2200,1600A,124.3303,40.0625,丹东市,江湾东路,颗粒物(PM10),57,63,29,39,18,28,,59,38,22,16,9,8,1.1,0.7
2025-11-03T2200,1601A,124.4256,40.1503,丹东市,临江后街,细颗粒物(PM2.5),80,100,42,59,23,11,,61,41,45,17,8,7,1.4,0.8
2025-11-03T2200,1602A,124.3933,40.1461,丹东市,元宝山,,,116,27,,14,11,,58,44,48,16,11,9,1.5,0.7
2025-11-03T2200,1603A,124.3633,40.1092,丹东市,民主桥,颗粒物(PM10),51,52,27,34,16,11,,63,40,47,18,8,6,0.9,1.1
2025-11-03T2200,3541A,109.5726,19.5167,儋州市,第一中学子站,,26,22,29,15,18,81,,84,78,10,10,6,6,0.3,0.3
2025-11-03T2200,3542A,109.5567,19.5187,儋州市,东坡学校子站,,30,15,30,15,17,96,,99,93,9,11,3,4,0.3,0.3
2025-11-03T2200,2616A,98.5842,24.428,德宏傣族景颇族自治州,德宏州监测站,,20,18,16,14,10,21,,28,28,14,12,7,9,0.8,0.7
2025-11-03T2200,3677A,98.5881,24.4368,德宏傣族景颇族自治州,芒市人民政府综合楼,,26,26,22,3,6,19,,26,26,8,9,6,7,0.7,0.6
2025-11-03T2200,1901A,104.4239,31.1208,德阳市,东山公园,,18,,20,12,19,48,,49,49,9,11,2,1,0.6,0.7
2025-11-03T2200,1902A,104.3826,31.1317,德阳市,西小区,,24,24,43,14,29,46,,43,43,22,27,2,2,0.8,0.8
2025-11-03T2200,1904A,104.3553,31.1091,德阳市,耐火材料厂,,35,29,40,24,26,26,,36,32,36,29,2,2,0.7,0.7
2025-11-03T2200,3639A,104.4019,31.1244,德阳市,市教育局,,22,19,32,14,24,13,,43,40,44,22,3,4,0.6,0.6
2025-11-03T2200,1622A,116.3032,37.4674,德州市,儿童乐园,颗粒物(PM10),76,102,80,48,33,49,,67,61,41,38,13,14,0.7,0.7
2025-11-03T2200,1624A,116.2991,37.4451,德州市,监理站,颗粒物(PM10),73,95,67,44,29,50,,72,64,50,43,16,17,0.7,0.7
2025-11-03T2200,3066A,116.2721,37.4379,德州市,九衢泉纯净水厂,颗粒物(PM10),85,119,79,51,32,23,,63,50,66,46,13,15,0.7,0.7
2025-11-03T2200,3371A,116.3728,37.4403,德州市,开发区人民医院,颗粒物(PM10),75,100,72,46,30,11,,58,44,79,47,14,17,0.8,0.8
2025-11-03T2200,3511A,116.5652,37.3319,德州市,陵城艺术中心,颗粒物(PM10),69,88,69,36,33,36,,58,51,49,44,12,19,0.9,0.8
2025-11-03T2200,4292A,116.3525,37.4209,德州市,新河东路,颗粒物(PM10),76,102,72,53,32,21,,63,49,71,54,10,13,0.8,0.8
2025-11-03T2200,2621A,99.7056,27.8317,迪庆藏族自治州,迪庆州站,,49,43,17,34,13,21,,49,41,23,9,7,6,1.2,0.6
2025-11-03T2200,3180A,99.7136,27.8094,迪庆藏族自治州,质量技术监督局,,36,28,16,25,9,31,,52,45,21,8,7,7,0.8,0.6
2025-11-03T2200,4257A,104.6092,35.5962,定西市,将台街,,36,33,41,25,25,23,,60,48,37,23,31,12,0.6,0.5
2025-11-03T2200,4309A,104.6159,35.5701,定西市,正龙路62号,,47,47,44,24,25,44,,63,59,12,9,6,6,0.3,0.3
2025-11-03T2200,1389A,113.7547,23.0494,东莞市,莞城梨川,,,30,30,19,20,48,,77,63,18,14,5,6,,0.5
2025-11-03T2200,1390A,113.7944,23.0128,东莞市,东城石井,,28,28,29,17,17,61,,79,65,12,13,6,7,0.5,0.5
2025-11-03T2200,1391A,113.7383,22.9658,东莞市,南城西平,,30,30,31,18,16,49,,80,60,24,19,5,7,0.6,0.6
2025-11-03T2200,3319A,113.7338,23.0381,东莞市,万江金泰,,30,30,30,18,17,45,,72,59,14,11,4,5,0.6,0.5
2025-11-03T2200,3626A,113.7533,23.0202,东莞市,南城元岭,,26,26,29,16,18,53,,80,68,14,11,6,7,0.5,0.4
2025-11-03T2200,3627A,113.7875,23.0457,东莞市,东城主山,,31,31,34,17,19,46,,78,64,22,15,4,5,0.5,0.5
2025-11-03T2200,1666A,118.6614,37.4309,东营市,市环保局,颗粒物(PM10),59,68,36,29,13,34,,72,58,44,33,19,24,0.6,0.5
2025-11-03T2200,3036A,118.6904,37.4338,东营市,开发区管委会,颗粒物(PM10),62,73,36,39,13,44,,74,64,41,29,25,14,0.5,0.5
2025-11-03T2200,3365A,118.5719,37.565,东营市,垦利区民丰路,颗粒物(PM10),57,63,33,24,10,28,,78,58,50,31,9,6,0.4,0.3
2025-11-03T2200,3498A,118.5055,37.8612,东营市,河口城区,颗粒物(PM10),57,63,32,29,10,41,,83,69,34,26,8,7,0.3,0.3
2025-11-03T2200,3646A,118.4978,37.4623,东营市,胜利站,颗粒物(PM10),65,80,42,34,14,27,,73,52,59,39,12,11,0.6,0.4
2025-11-03T2200,3734A,118.35,37.26,东营市,理想之城,颗粒物(PM10),59,68,39,31,17,8,,76,45,71,45,10,6,0.5,0.4
2025-11-03T2200,1591A,110.0023,39.8129,鄂尔多斯市,综合楼,颗粒物(PM10),69,88,51,39,18,16,,89,73,66,28,14,13,1.2,0.5
2025-11-03T2200,1592A,109.9486,39.8261,鄂尔多斯市,巴音孟克林场办事处,颗粒物(PM10),71,92,55,36,23,4,,92,62,87,37,14,13,2.0,0.7
2025-11-03T2200,1593A,109.7736,39.5986,鄂尔多斯市,康泽苑,,48,48,42,19,19,46,,95,78,34,28,5,6,0.4,0.4
2025-11-03T2200,1594A,109.8119,39.5989,鄂尔多斯市,华泰汽车城,颗粒物(PM10),56,61,47,22,18,6,,89,64,59,37,4,5,0.6,0.4
2025-11-03T2200,1595A,109.9734,39.7884,鄂尔多斯市,奥林花园,颗粒物(PM10),71,92,62,39,20,12,,89,73,80,45,11,12,1.1,0.6
2025-11-03T2200,2436A,114.8938,30.3994,鄂州市,市政府,细颗粒物(PM2.5),124,106,79,94,55,77,,122,114,34,27,13,12,0.8,0.6
2025-11-03T2200,2437A,114.8989,30.3714,鄂州市,赵家坝,细颗粒物(PM2.5),105,98,73,79,54,78,,118,110,21,17,10,11,1.2,1
2025-11-03T2200,3654A,114.8094,30.4089,鄂州市,精准医疗中心,细颗粒物(PM2.5),114,109,79,86,57,77,,113,98,38,31,6,7,0.7,0.7
2025-11-03T2200,2454A,109.4978,30.2981,恩施土家族苗族自治州,湖北民院,,44,44,38,28,30,40,,58,49,14,15,6,6,0.7,0.7
2025-11-03T2200,2455A,109.4707,30.2798,恩施土家族苗族自治州,州电力总公司,,45,42,37,31,27,20,,49,35,20,17,6,5,0.4,0.4
2025-11-03T2200,3549A,109.5061,30.3772,恩施土家族苗族自治州,龙凤新区,颗粒物(PM10),55,60,39,37,28,6,,54,30,16,10,6,6,0.6,0.5
2025-11-03T2200,2499A,108.3411,21.6158,防城港市,沙万,,15,8,17,8,15,48,,54,50,6,6,4,4,0.3,0.3
2025-11-03T2200,2500A,108.3514,21.7731,防城港市,防城档案局,,15,,21,3,8,46,,49,46,6,7,6,6,0.5,0.5
2025-11-03T2200,2501A,108.3506,21.6414,防城港市,大海花园,,16,,17,6,13,51,,57,53,6,6,4,4,0.4,0.4
2025-11-03T2200,1371A,113.1294,23.0067,佛山市,湾梁,,33,27,34,23,19,35,,59,49,33,28,6,8,0.7,0.6
2025-11-03T2200,1372A,113.1083,23.0478,佛山市,华材职中,,36,,32,25,21,39,,65,56,24,19,5,7,0.6,0.5
2025-11-03T2200,1373A,113.144,23.0453,佛山市,南海气象局,,29,29,34,20,19,38,,63,52,24,20,6,8,0.7,0.6
2025-11-03T2200,1374A,113.2881,22.8094,佛山市,顺德苏岗,,39,31,38,27,18,35,,66,50,25,21,7,8,0.5,0.4
2025-11-03T2200,1376A,112.8383,22.8678,佛山市,高明孔堂,,32,28,32,22,17,49,,72,65,21,20,3,5,0.4,0.4
2025-11-03T2200,1377A,112.8836,23.1588,佛山市,三水监测站,,32,22,27,22,14,49,,69,63,24,22,4,5,0.7,0.6
2025-11-03T2200,1378A,112.867,23.185,佛山市,三水云东海,,32,22,26,22,16,47,,68,60,17,15,5,6,0.7,0.6
2025-11-03T2200,3625A,113.2544,22.7642,佛山市,容桂街道办,,39,,31,27,20,37,,64,54,27,24,5,7,0.5,0.5
2025-11-03T2200,1280A,119.3903,26.0543,福州市,鼓山,,44,44,49,12,27,81,,143,91,9,12,1,2,0.3,0.6
2025-11-03T2200,1282A,119.2681,26.0504,福州市,师大,,25,25,44,16,33,80,,130,92,16,14,6,7,0.5,0.6
2025-11-03T2200,1283A,119.2984,26.1028,福州市,五四北路,,25,21,46,16,34,77,,124,87,15,16,4,6,0.4,0.5
2025-11-03T2200,1284A,119.2648,26.0768,福州市,杨桥西路,,26,26,43,18,33,78,,129,91,13,12,4,5,0.4,0.4
2025-11-03T2200,1285A,119.317,26.0746,福州市,紫阳,,25,25,52,15,35,80,,129,89,11,14,7,8,0.5,0.6
2025-11-03T2200,3048A,119.5799,26.0936,福州市,九龙,,28,12,38,3,27,88,,125,89,11,14,3,5,0.3,0.5
2025-11-03T2200,3526A,119.5189,25.9664,福州市,吴航,,28,11,46,6,28,88,,135,91,8,12,5,7,0.4,0.6
2025-11-03T2200,1755A,123.7977,41.8491,抚顺市,望花区,,36,36,58,17,29,54,,63,59,16,28,10,11,0.6,0.8
2025-11-03T2200,1756A,123.9161,41.8822,抚顺市,顺城区,,23,23,42,12,22,58,,71,67,17,26,9,8,0.5,0.7
2025-11-03T2200,1757A,124.0436,41.8611,抚顺市,东洲区,,21,19,35,12,22,65,,69,67,8,18,8,7,0.5,0.6
2025-11-03T2200,1758A,123.9247,41.8642,抚顺市,新抚区,,,26,54,13,28,,,67,65,15,24,12,9,0.6,0.8
2025-11-03T2200,1759A,124.0972,41.8961,抚顺市,大伙房水库,,22,19,23,12,14,68,,74,72,9,16,10,10,0.8,0.9
2025-11-03T2200,1760A,123.7086,41.8391,抚顺市,沈抚新城,,38,38,59,16,29,52,,62,54,20,31,10,10,0.8,0.8
2025-11-03T2200,2376A,116.2127,28.0814,抚州市,桐源党溪,,,,,,,,,,,,,,,,
2025-11-03T2200,2377A,116.3544,27.9831,抚州市,市站,细颗粒物(PM2.5),73,79,77,53,49,56,,76,71,20,19,9,9,1.0,0.6
2025-11-03T2200,2378A,116.3565,27.963,抚州市,血防站,细颗粒物(PM2.5),77,75,76,56,52,61,,79,74,20,22,3,5,1.1,1.1
2025-11-03T2200,2379A,116.3564,28.0007,抚州市,采茶剧团,细颗粒物(PM2.5),78,74,78,57,53,52,,77,70,18,15,8,8,1.1,1
2025-11-03T2200,2380A,116.385,27.9647,抚州市,医学分院,细颗粒物(PM2.5),72,75,81,52,49,59,,76,73,21,22,7,12,1.4,1.3
2025-11-03T2200,2207A,121.6094,41.998,阜新市,工业园区,颗粒物(PM10),60,69,129,16,41,68,,69,69,21,31,13,14,0.7,0.8
2025-11-03T2200,2208A,121.6697,42.0279,阜新市,长青街,颗粒物(PM10),54,57,71,19,25,66,,63,63,19,33,13,16,0.5,0.8
2025-11-03T2200,2209A,121.6673,42.0705,阜新市,农业园区,颗粒物(PM10),56,61,81,19,29,69,,67,67,16,27,9,18,0.6,0.9
2025-11-03T2200,2210A,121.6717,42.0224,阜新市,东苑,颗粒物(PM10),67,83,92,22,27,67,,64,64,20,34,15,19,0.5,0.9
2025-11-03T2200,2211A,121.6506,42.0498,阜新市,玉龙新城,颗粒物(PM10),58,66,85,16,23,70,,70,70,21,31,14,13,0.6,0.8
2025-11-03T2200,2301A,115.8277,32.8929,阜阳市,市监测站,细颗粒物(PM2.5),73,78,84,53,47,35,,80,62,51,33,5,5,0.4,0.3
2025-11-03T2200,2303A,115.8554,32.8605,阜阳市,开发区,颗粒物(PM10),79,108,105,49,49,58,,78,69,31,31,9,9,0.2,0.3
2025-11-03T2200,2875A,115.784,32.8892,阜阳市,阜阳职业技术学院,,49,46,65,34,44,72,,82,77,20,23,6,6,0.2,0.2
2025-11-03T2200,3468A,115.7901,32.8613,阜阳市,市规划展馆,颗粒物(PM10),52,54,73,24,34,69,,82,75,22,24,6,6,0.5,0.5
2025-11-03T2200,3469A,115.836,32.9183,阜阳市,枣园社区,颗粒物(PM10),61,72,81,36,42,56,,82,69,34,30,8,8,1.2,0.6
2025-11-03T2200,2669A,102.9099,34.9841,甘南藏族自治州,州政府,颗粒物(PM10),53,56,40,36,25,9,,75,63,39,23,7,6,0.5,0.5
2025-11-03T2200,3380A,102.8914,34.9617,甘南藏族自治州,甘肃民族师范学院,颗粒物(PM10),63,76,42,36,22,5,,70,55,50,27,6,5,0.6,0.5
2025-11-03T2200,2570A,101.9603,30.0475,甘孜藏族自治州,水桥子,,11,,5,3,4,33,,44,40,15,15,8,8,0.5,0.4
2025-11-03T2200,3065A,101.9533,29.9972,甘孜藏族自治州,州环保局,,12,,7,7,4,38,,52,46,13,13,5,5,0.5,0.4
2025-11-03T2200,3414A,115.8347,28.932,赣江新区,桑海产业园,细颗粒物(PM2.5),102,119,101,76,65,57,,81,80,32,28,9,10,0.7,0.7
2025-11-03T2200,2362A,114.9017,25.9149,赣州市,通天岩,,33,31,26,23,18,72,,70,63,7,8,14,14,0.8,0.8
2025-11-03T2200,2363A,114.9367,25.8664,赣州市,地委,,36,36,38,18,20,60,,62,59,11,12,4,5,0.7,0.6
2025-11-03T2200,2364A,114.9461,25.8481,赣州市,气象台,,37,37,44,15,16,67,,68,63,12,13,5,5,0.7,0.6
2025-11-03T2200,2365A,114.9322,25.8333,赣州市,市图书馆,,25,22,26,17,19,59,,64,60,12,12,5,4,0.6,0.5
2025-11-03T2200,2366A,114.8905,25.8471,赣州市,华坚鞋城,,24,24,30,16,18,56,,55,54,12,17,4,4,0.4,0.3
2025-11-03T2200,3109A,115.0093,25.8613,赣州市,赣县区卫计委,,42,,27,29,24,61,,63,57,5,7,7,7,0.6,0.6
2025-11-03T2200,2683A,106.2319,36.1417,固原市,马园,,,,,,,,,,,,,,,,
2025-11-03T2200,2684A,106.2792,36.0022,固原市,监测站,细颗粒物(PM2.5),89,70,45,66,28,25,,76,70,54,33,5,4,0.9,0.6
2025-11-03T2200,2685A,106.2375,36.0211,固原市,新区,细颗粒物(PM2.5),89,,39,66,27,24,,73,66,55,28,3,3,0.9,0.6
2025-11-03T2200,3522A,106.2177,35.9959,固原市,原州区十五小,,24,24,32,16,20,44,,74,62,23,14,6,5,0.5,0.5
2025-11-03T2200,2543A,106.6308,30.5278,广安市,小平旧居,,,,,,,,,,,,,,,,
2025-11-03T2200,2544A,106.6303,30.4576,广安市,市委,细颗粒物(PM2.5),84,69,47,62,38,10,,29,15,28,21,4,3,0.8,0.7
2025-11-03T2200,2545A,106.6271,30.4663,广安市,友谊中学,细颗粒物(PM2.5),69,84,45,50,32,17,,33,24,27,18,8,6,1.0,0.8
2025-11-03T2200,2547A,106.6388,30.4551,广安市,广电花园,细颗粒物(PM2.5),70,,33,51,33,7,,25,14,26,19,1,1,0.8,0.6
2025-11-03T2200,2902A,106.6351,30.4865,广安市,北辰小学,细颗粒物(PM2.5),62,63,46,44,30,7,,30,22,26,15,12,11,0.9,0.8
2025-11-03T2200,2523A,105.8945,32.4535,广元市,黑石坡,,,,,,,,,,,,,,,,
2025-11-03T2200,2524A,105.821,32.4444,广元市,老城,,33,24,25,23,24,17,,25,24,32,24,4,7,0.8,0.8
2025-11-03T2200,2526A,105.8628,32.4287,广元市,监测站,,33,,19,23,15,16,,26,23,30,24,2,6,0.9,1
2025-11-03T2200,3617A,105.8047,32.4166,广元市,经开区,,35,29,37,24,27,0,,14,12,41,30,3,6,0.7,0.7
2025-11-03T2200,1345A,113.2347,23.1423,广州市,广雅中学,,,41,42,25,24,,,59,,28,23,5,7,0.5,0.4
2025-11-03T2200,1346A,113.2612,23.105,广州市,市五中,,38,38,33,26,22,45,,77,65,28,22,6,8,0.7,0.6
2025-11-03T2200,1348A,113.3478,23.0916,广州市,广东商学院,,46,40,34,32,21,43,,69,54,19,19,4,5,0.3,0.1
2025-11-03T2200,1349A,113.4332,23.1047,广州市,市八十六中,,30,30,28,21,20,29,,64,51,28,20,5,6,0.6,0.4
2025-11-03T2200,1350A,113.3505,22.9483,广州市,番禺中学,,48,38,35,33,18,41,,70,58,21,18,5,6,0.5,0.4
2025-11-03T2200,1351A,113.2146,23.3916,广州市,花都师范,,27,27,31,16,17,54,,71,62,14,15,6,7,0.6,0.5
2025-11-03T2200,1352A,113.2597,23.1331,广州市,市监测站,,33,32,37,23,21,44,,72,60,20,18,6,8,0.6,0.5
2025-11-03T2200,1353A,113.5618,23.312,广州市,九龙镇镇龙,,40,34,28,28,19,38,,62,53,16,13,5,6,0.6,0.5
2025-11-03T2200,1354A,113.2765,23.1544,广州市,麓湖,,36,29,32,25,21,35,,66,53,21,20,7,9,0.4,0.3
2025-11-03T2200,1355A,113.443,23.3035,广州市,帽峰山森林公园,,,,,,,,,,,,,,,,
2025-11-03T2200,2846A,113.3221,23.1322,广州市,体育西,,42,41,35,29,23,38,,67,57,22,16,6,8,0.9,0.7
2025-11-03T2200,3298A,113.5717,23.5491,广州市,从化街口,,26,21,25,18,17,45,,71,58,11,9,8,8,0.5,0.4
2025-11-03T2200,3299A,113.3472,23.3692,广州市,白云竹料,,23,21,29,16,19,53,,75,65,12,11,6,8,0.6,0.5
2025-11-03T2200,3300A,113.2981,23.237,广州市,白云嘉禾,,30,29,36,21,21,53,,73,64,14,17,6,8,0.5,0.5
2025-11-03T2200,3301A,113.4256,23.1716,广州市,黄埔科学城,,46,46,34,32,21,31,,77,62,21,11,5,6,0.7,0.6
2025-11-03T2200,3302A,113.3942,23.0483,广州市,番禺大学城,颗粒物(PM10),51,51,37,30,20,34,,72,59,28,19,6,6,0.7,0.5
2025-11-03T2200,3303A,113.4922,22.8168,广州市,南沙黄阁,,34,34,44,23,23,42,,71,54,28,26,7,12,0.4,0.4
2025-11-03T2200,3304A,113.5342,22.7896,广州市,南沙街,,33,30,41,23,23,37,,70,52,26,23,11,10,0.6,0.6
2025-11-03T2200,3443A,113.2902,23.5544,广州市,花都梯面,,23,20,24,16,17,48,,68,58,9,9,8,6,0.5,0.4
2025-11-03T2200,3445A,113.7858,23.7478,广州市,从化良口,,23,21,22,16,17,36,,73,56,15,10,6,6,0.5,0.4
2025-11-03T2200,3446A,113.8051,23.2614,广州市,增城荔城,,32,26,25,22,18,50,,74,62,9,9,7,8,0.5,0.4
2025-11-03T2200,2505A,109.568,23.1478,贵港市,德智高中,,,,,,,,,,,,,,,,
2025-11-03T2200,2506A,109.6047,23.0666,贵港市,江南子站,,18,,15,12,16,47,,49,46,9,8,3,3,0.5,0.5
2025-11-03T2200,2508A,109.5669,23.1065,贵港市,荷城子站,,15,9,15,3,7,45,,47,40,10,10,2,2,0.5,0.5
2025-11-03T2200,3405A,109.5886,23.1172,贵港市,新世纪学校,,16,9,17,7,11,51,,48,46,7,7,1,1,0.4,0.4
2025-11-03T2200,4260A,109.5933,23.0951,贵港市,中山路155-3号,,17,,16,9,14,52,,50,47,8,8,2,2,0.3,0.5
2025-11-03T2200,1439A,106.6899,26.5998,贵阳市,马鞍山,,13,,3,3,1,41,,65,52,9,7,2,2,0.3,0.2
2025-11-03T2200,1441A,106.6243,26.6266,贵阳市,鉴湖路,,15,14,15,3,0,48,,61,51,11,8,3,3,0.3,0.3
2025-11-03T2200,1442A,106.7487,26.6343,贵阳市,燕子冲,,16,,5,3,7,50,,72,60,9,8,6,5,0.5,0.4
2025-11-03T2200,1443A,106.6555,26.4365,贵阳市,碧云窝,,,17,17,,2,43,,60,53,13,13,5,5,0.2,0.2
2025-11-03T2200,1445A,106.7109,26.6027,贵阳市,红边门,,13,7,6,3,2,40,,66,55,20,12,4,3,0.5,0.4
2025-11-03T2200,1446A,106.7164,26.5699,贵阳市,新华路,,14,12,12,3,6,42,,70,58,20,10,5,5,0.4,0.3
2025-11-03T2200,1447A,106.674,26.5424,贵阳市,太慈桥,,12,9,8,3,2,37,,65,52,17,12,2,3,0.6,0.5
2025-11-03T2200,1552A,106.805,26.3003,贵阳市,桐木岭,,23,17,18,7,8,72,,73,70,2,2,25,24,0.6,0.6
2025-11-03T2200,4230A,106.6882,26.5695,贵阳市,花果园大街66号,,12,,2,3,5,37,,63,50,21,11,1,1,0.5,0.4
2025-11-03T2200,4231A,106.6873,26.5169,贵阳市,漓江路57号,,12,6,2,3,4,37,,63,51,17,10,8,6,0.4,0.3
2025-11-03T2200,1862A,110.4144,25.3167,桂林市,电子科大尧山校区,,,,,,,,,,,,,,,,
2025-11-03T2200,1864A,110.3089,25.2708,桂林市,龙隐路小学,,22,10,10,10,10,69,,79,67,10,7,5,5,0.3,0.2
2025-11-03T2200,1865A,110.2869,25.2178,桂林市,八中,,22,18,13,14,10,69,,81,69,11,9,6,6,0.4,0.3
2025-11-03T2200,3531A,110.296,25.1253,桂林市,旅游学院,,22,12,6,9,6,70,,83,73,8,7,3,3,0.2,0.2
2025-11-03T2200,4222A,110.1835,25.2444,桂林市,环湖路276号,,24,,13,9,13,75,,79,71,9,10,5,9,0.3,0.2
2025-11-03T2200,4301A,110.2803,25.2773,桂林市,信义路13号,,24,16,14,8,13,74,,83,70,10,9,9,6,0.6,0.5
2025-11-03T2200,2674A,100.2561,34.4714,果洛藏族自治州,玛沁县大武镇,,43,41,33,30,12,46,,90,76,11,5,17,16,0.2,0.3
2025-11-03T2200,1129A,126.5422,45.755,哈尔滨市,岭北,,,,,,,,,,,,,,,,
2025-11-03T2200,1130A,126.561,45.8167,哈尔滨市,松北商大,细颗粒物(PM2.5),79,,43,58,61,47,,54,52,14,16,7,6,0.6,0.6
2025-11-03T2200,1131A,126.979,45.5419,哈尔滨市,阿城会宁,,21,21,41,13,30,63,,106,,9,17,4,6,0.4,0.6
2025-11-03T2200,1132A,126.599,45.7222,哈尔滨市,南岗学府路,,,43,53,19,30,48,,52,48,,21,10,10,0.5,0.5
2025-11-03T2200,1133A,126.689,45.7733,哈尔滨市,太平宏伟公园,,38,38,50,26,34,47,,52,48,15,19,11,11,0.6,0.6
2025-11-03T2200,1134A,126.635,45.7667,哈尔滨市,道外承德广场,颗粒物(PM10),51,52,61,29,31,50,,51,48,20,27,9,12,0.6,0.3
2025-11-03T2200,1135A,126.685,45.7319,哈尔滨市,香坊红旗大街,,46,46,56,20,28,46,,52,48,16,22,5,4,0.6,0.6
2025-11-03T2200,1136A,126.6411,45.7258,哈尔滨市,动力和平路,,38,31,50,26,35,42,,48,44,20,22,4,3,0.5,0.6
2025-11-03T2200,1137A,126.593,45.7478,哈尔滨市,道里建国路,,39,39,44,27,31,47,,46,45,17,23,8,9,0.4,0.5
2025-11-03T2200,1138A,126.615,45.61,哈尔滨市,平房东轻厂,,31,31,42,21,28,45,,55,50,13,20,10,10,0.3,0.4
2025-11-03T2200,1139A,126.595,45.9855,哈尔滨市,呼兰师专,,46,46,46,30,38,47,,50,49,21,19,10,10,0.5,0.5
2025-11-03T2200,1140A,126.6206,45.6842,哈尔滨市,省农科院,颗粒物(PM10),51,51,73,27,37,32,,41,35,33,43,7,8,0.5,0.6
2025-11-03T2200,2688A,93.5128,42.8172,哈密市,地区监测站,颗粒物(PM10),90,130,125,42,44,39,,91,76,56,42,10,11,0.4,0.4
2025-11-03T2200,2689A,93.4961,42.8328,哈密市,哈密师范学校,颗粒物(PM10),86,121,92,42,34,27,,84,66,66,50,4,6,0.9,0.8
2025-11-03T2200,2671A,100.9048,36.9639,海北藏族自治州,海晏县西海镇,,21,21,34,13,27,46,,99,81,15,10,11,12,0.4,0.5
2025-11-03T2200,3867A,102.0738,36.5056,海东市,平安区公安北苑,细颗粒物(PM2.5),59,56,47,42,36,62,,93,85,9,15,12,14,0.7,0.8
2025-11-03T2200,1409A,110.576,19.9507,海口市,东寨港,,,,,,,,,,,,,,,,
2025-11-03T2200,1410A,110.3232,20.0574,海口市,海南大学,,50,50,47,30,28,100,,113,113,11,10,6,7,0.4,0.4
2025-11-03T2200,1411A,110.283,20.0053,海口市,秀英海南医院,,44,44,41,24,19,97,,106,106,11,11,7,7,0.2,0.3
2025-11-03T2200,1412A,110.338,19.9969,海口市,海南师范大学,,43,43,43,28,26,108,,115,115,12,12,6,6,0.6,0.6
2025-11-03T2200,1413A,110.33,20.0356,海口市,龙华路环保局宿舍,,,43,43,32,28,103,,115,115,12,11,,8,0.2,0.3
2025-11-03T2200,3539A,110.5111,19.9736,海口市,桂林洋子站,,48,48,49,28,27,109,,113,113,10,10,6,7,0.4,0.4
2025-11-03T2200,2673A,100.6188,36.2866,海南藏族自治州,共和县恰卜恰镇,,49,49,37,21,21,43,,105,82,31,17,10,11,0.6,0.5
2025-11-03T2200,2676A,97.3731,37.3753,海西蒙古族藏族自治州,德令哈市,,35,24,20,24,14,78,,103,95,7,6,17,15,0.5,0.4
2025-11-03T2200,1048A,114.5302,36.6116,邯郸市,东污水处理厂,细颗粒物(PM2.5),122,116,78,92,66,47,,69,64,37,44,4,8,0.6,0.5
2025-11-03T2200,1049A,114.4918,36.5713,邯郸市,矿院,细颗粒物(PM2.5),125,119,78,95,68,42,,68,64,47,52,6,13,0.6,0.5
2025-11-03T2200,1050A,114.484,36.6133,邯郸市,丛台公园,细颗粒物(PM2.5),119,124,73,90,59,53,,71,69,35,42,7,10,0.5,0.5
2025-11-03T2200,3458A,114.7895,36.5593,邯郸市,香泉濮院小区,细颗粒物(PM2.5),137,181,100,104,61,45,,77,70,41,45,7,12,0.5,0.8
2025-11-03T2200,3579A,114.50634,36.77178,邯郸市,永年区实验高中,细颗粒物(PM2.5),94,127,90,70,40,66,,80,79,35,43,4,6,0.6,0.6
2025-11-03T2200,3580A,114.20016,36.44293,邯郸市,峰峰矿区临水派出所,细颗粒物(PM2.5),128,,59,97,56,58,,82,79,40,36,6,11,0.8,0.6
2025-11-03T2200,2634A,106.9893,33.1842,汉中市,汉川机床厂子校,,,,,,,,,,,,,,,,
2025-11-03T2200,2635A,107.0154,33.0706,汉中市,市监测站,"颗粒物(PM10),细颗粒物(PM2.5)",55,60,43,39,26,9,,52,33,33,16,4,4,0.7,0.6
2025-11-03T2200,2636A,107.0089,33.1138,汉中市,鑫源开发区,颗粒物(PM10),62,73,47,41,27,43,,43,35,42,22,23,6,0.7,0.5
2025-11-03T2200,2637A,107.007,33.0323,汉中市,南郑大河坎水厂,颗粒物(PM10),65,80,43,42,28,4,,45,26,26,18,4,4,0.8,0.6
2025-11-03T2200,1223A,120.2072,30.2111,杭州市,滨江,,32,32,27,10,13,47,,86,73,41,25,7,7,0.5,0.6
2025-11-03T2200,1224A,120.0633,30.2747,杭州市,西溪,,33,33,38,8,7,2,,74,50,41,22,8,8,0.4,0.5
2025-11-03T2200,1226A,120.3417,30.3150,杭州市,下沙,,31,31,33,11,13,36,,83,64,47,27,4,5,0.2,0.2
2025-11-03T2200,1227A,120.1269,30.2456,杭州市,卧龙桥,,25,25,30,7,10,25,,75,51,20,21,8,9,0.5,0.5
2025-11-03T2200,1228A,120.1903,30.2692,杭州市,浙江农大,,33,33,27,10,13,38,,82,72,47,26,7,7,0.5,0.5
2025-11-03T2200,1230A,120.1197,30.3119,杭州市,和睦小学,,26,26,22,9,15,48,,81,74,36,21,7,8,0.6,0.6
2025-11-03T2200,1231A,120.3019,30.4183,杭州市,临平镇,,38,38,30,16,13,20,,80,54,57,25,6,7,0.3,0.3
2025-11-03T2200,1232A,120.2753,30.1839,杭州市,城厢镇,,37,37,40,12,13,38,,83,70,50,31,8,7,0.3,0.4
2025-11-03T2200,1233A,120.0883,30.1808,杭州市,云栖,,27,27,33,8,13,29,,81,58,25,21,6,6,0.4,0.5
2025-11-03T2200,3557A,119.9464,30.0494,杭州市,镇二中,颗粒物(PM10),54,58,35,36,19,18,,73,58,44,24,5,6,0.6,0.6
2025-11-03T2200,3558A,119.7183,30.2367,杭州市,市府大楼,颗粒物(PM10),57,63,39,31,19,31,,77,61,29,21,8,9,0.5,0.4
2025-11-03T2200,3656A,120.1556,30.2864,杭州市,消防大队,,33,33,36,13,13,53,,80,74,35,25,8,8,0.2,0.3
2025-11-03T2200,1270A,117.1959,31.7848,合肥市,明珠广场,颗粒物(PM10),57,63,54,27,21,34,,76,58,56,31,9,8,0.6,0.6
2025-11-03T2200,1271A,117.3072,31.8764,合肥市,三里街,颗粒物(PM10),67,83,48,41,22,26,,70,59,62,32,7,7,0.7,0.6
2025-11-03T2200,1272A,117.2588,31.8707,合肥市,琥珀山庄,颗粒物(PM10),56,61,51,29,20,48,,82,73,42,23,6,7,0.7,0.6
2025-11-03T2200,1273A,117.1604,31.9052,合肥市,董铺水库,,,,,,,,,,,,,,,,
2025-11-03T2200,1274A,117.25,31.8571,合肥市,长江中路,颗粒物(PM10),58,66,56,35,26,58,,78,73,36,24,7,7,0.6,0.5
2025-11-03T2200,1275A,117.266,31.9436,合肥市,庐阳区,颗粒物(PM10),67,83,56,39,24,25,,79,60,65,32,7,20,0.5,0.6
2025-11-03T2200,1276A,117.3453,31.8616,合肥市,瑶海区,颗粒物(PM10),70,90,56,46,22,11,,77,55,85,34,9,9,0.6,0.5
2025-11-03T2200,1277A,117.3027,31.7964,合肥市,包河区,颗粒物(PM10),70,90,56,44,25,7,,78,53,101,47,9,8,0.8,0.6
2025-11-03T2200,1278A,117.2776,31.7385,合肥市,滨湖新区,颗粒物(PM10),58,66,52,39,28,59,,88,80,28,18,6,6,0.8,0.7
2025-11-03T2200,1279A,117.1318,31.8403,合肥市,高新区,颗粒物(PM10),58,66,51,33,24,50,,76,63,44,27,6,6,0.7,0.6
2025-11-03T2200,3464A,117.3803,31.9147,合肥市,高教基地,颗粒物(PM10),68,85,48,46,19,21,,76,50,50,27,7,7,0.6,0.5
2025-11-03T2200,3614A,79.924,37.0877,和田地区,地区环保局,颗粒物(PM10),86,122,128,48,45,64,,93,90,30,20,7,4,0.8,0.7
2025-11-03T2200,3615A,79.9131,37.113,和田地区,市环保局,颗粒物(PM10),85,120,133,30,41,52,,97,88,44,32,6,7,0.7,0.8
2025-11-03T2200,2516A,108.2011,24.715,河池市,东仁乐园,,,,,,,,,,,,,,,,
2025-11-03T2200,2517A,108.0497,24.6947,河池市,市环保站,,17,7,6,3,5,54,,51,50,5,6,7,7,0.4,0.4
2025-11-03T2200,2518A,108.0983,24.6989,河池市,市疾控中心,,16,9,5,3,4,51,,54,54,10,8,4,4,0.5,0.5
2025-11-03T2200,1696A,114.6778,23.7569,河源市,源西,,,,,,,,,,,,,,,,
2025-11-03T2200,1697A,114.6944,23.7586,河源市,东埔,,26,,23,18,21,50,,71,59,11,9,4,5,0.5,0.5
2025-11-03T2200,1698A,114.6892,23.7233,河源市,老城,,18,18,27,9,16,51,,73,61,8,7,5,6,0.6,0.5
2025-11-03T2200,1718A,115.4208,35.2464,菏泽市,气象局,颗粒物(PM10),76,102,89,51,41,44,,81,72,45,39,4,5,0.5,0.5
2025-11-03T2200,3374A,115.5564,35.0891,菏泽市,定陶老年大学,颗粒物(PM10),79,107,73,51,32,32,,78,66,57,43,8,9,0.4,0.4
2025-11-03T2200,4184A,115.4797,35.24401,菏泽市,永昌路1号,颗粒物(PM10),70,90,87,45,41,42,,77,70,50,42,3,5,0.3,0.4
2025-11-03T2200,4193A,115.4715,35.2800,菏泽市,长城路999号,颗粒物(PM10),68,86,84,34,32,53,,80,76,42,43,12,20,0.6,0.7
2025-11-03T2200,2514A,111.5264,24.4172,贺州市,环保小区,,25,17,13,17,11,52,,63,58,9,10,3,4,0.5,0.4
2025-11-03T2200,2515A,111.5608,24.4078,贺州市,政协大楼,,,,12,,10,43,,52,49,11,9,4,4,0.6,0.5
2025-11-03T2200,3534A,111.4744,24.4553,贺州市,西湾,,23,22,16,16,9,48,,58,52,6,7,4,4,0.6,0.6
2025-11-03T2200,2385A,114.17,35.9019,鹤壁市,市监测站,细颗粒物(PM2.5),138,120,77,105,48,97,,93,93,25,35,3,6,0.8,0.6
2025-11-03T2200,2386A,114.2956,35.7511,鹤壁市,市交警支队,细颗粒物(PM2.5),108,157,91,81,44,60,,74,72,48,39,6,6,0.7,0.6
2025-11-03T2200,2387A,114.2878,35.7306,鹤壁市,迎宾馆,细颗粒物(PM2.5),125,178,103,95,45,56,,76,72,52,40,8,8,0.7,0.5
2025-11-03T2200,3474A,114.2617,35.6822,鹤壁市,大新区,细颗粒物(PM2.5),130,142,82,99,52,8,,63,46,86,40,5,6,0.8,0.5
2025-11-03T2200,3596A,114.1572,35.9603,鹤壁市,南山宾馆,细颗粒物(PM2.5),127,118,88,96,54,91,,91,91,28,33,4,10,0.8,0.7
2025-11-03T2200,2244A,130.2537,47.3416,鹤岗市,哈啤分公司,细颗粒物(PM2.5),77,58,53,56,52,46,,67,52,17,13,16,12,0.6,0.6
2025-11-03T2200,2245A,130.2684,47.3086,鹤岗市,斯达机电,细颗粒物(PM2.5),80,,63,59,46,44,,65,54,24,15,16,14,0.7,0.7
2025-11-03T2200,2246A,130.3114,47.3388,鹤岗市,东山纸板厂,细颗粒物(PM2.5),74,64,70,54,50,50,,74,62,17,14,13,12,0.6,0.7
2025-11-03T2200,2247A,130.1097,47.3382,鹤岗市,五号水库,,,,,,,,,,,,,,,,
2025-11-03T2200,2263A,127.4833,50.2524,黑河市,交通局,,45,45,33,27,20,45,,60,53,19,23,4,9,0.6,0.6
2025-11-03T2200,2264A,127.5144,50.2341,黑河市,环保局,,41,41,25,27,20,48,,62,56,16,15,7,10,0.4,0.3
2025-11-03T2200,2265A,127.5291,50.2472,黑河市,大黑河岛,,,,,,,,,,,,,,,,
2025-11-03T2200,1074A,115.6838,37.7541,衡水市,电机北厂,细颗粒物(PM2.5),87,103,77,64,42,39,,68,64,42,34,10,13,0.6,0.5
2025-11-03T2200,1075A,115.6303,37.7316,衡水市,市监测站,细颗粒物(PM2.5),77,92,65,56,38,34,,67,61,48,41,9,11,0.6,0.5
2025-11-03T2200,3188A,115.6683,37.7217,衡水市,市城管局,细颗粒物(PM2.5),78,99,78,57,39,43,,72,65,50,46,10,12,0.7,0.6
2025-11-03T2200,3459A,115.5989,37.5491,衡水市,地表水厂,细颗粒物(PM2.5),85,102,77,63,47,22,,76,66,60,51,6,8,0.6,0.5
2025-11-03T2200,2456A,112.5003,26.9167,衡阳市,原169医院,,,,,,,,,,,,,,,,
2025-11-03T2200,2457A,112.6194,26.9258,衡阳市,衡阳化工总厂,,25,21,25,17,19,49,,64,,22,16,7,7,0.8,0.7
2025-11-03T2200,2458A,112.6211,26.8956,衡阳市,珠晖区环保局,,26,,26,18,19,51,,60,53,22,21,9,9,1.1,1.1
2025-11-03T2200,2459A,112.6197,26.8733,衡阳市,市委党校,,22,21,25,15,16,63,,68,64,10,13,3,3,0.7,0.7
2025-11-03T2200,2460A,112.6006,26.8919,衡阳市,市监测站,,33,30,29,23,20,52,,67,60,18,15,5,5,0.9,0.8
2025-11-03T2200,2461A,112.5664,26.9056,衡阳市,真空机电公司,,24,24,25,14,16,59,,64,61,11,13,6,6,0.8,0.8
2025-11-03T2200,3399A,112.6703,26.882,衡阳市,师范学院,,28,26,27,19,19,61,,69,65,13,15,7,8,0.8,0.8
2025-11-03T2200,2608A,103.3772,23.3993,红河哈尼族彝族自治州,污水处理厂,,19,17,12,13,15,25,,42,38,11,9,4,4,0.3,0.3
2025-11-03T2200,2609A,103.3861,23.35,红河哈尼族彝族自治州,监测站,,,,16,,8,,,38,35,,7,,5,,0.3
2025-11-03T2200,3038A,103.3758,23.368,红河哈尼族彝族自治州,州图书馆,,40,,11,28,18,27,,40,36,10,7,3,4,0.4,0.4
2025-11-03T2200,1090A,111.6507,40.7517,呼和浩特市,呼市一监,颗粒物(PM10),84,117,61,55,30,4,,62,33,74,49,10,10,1.0,0.8
2025-11-03T2200,1091A,111.6572,40.8033,呼和浩特市,小召,"颗粒物(PM10),细颗粒物(PM2.5)",68,85,62,49,31,7,,50,29,82,58,12,11,0.9,0.8
2025-11-03T2200,1094A,111.7516,40.8369,呼和浩特市,如意水处理厂,颗粒物(PM10),65,79,62,37,25,0,,55,30,78,55,13,13,0.7,0.5
2025-11-03T2200,1095A,111.7276,40.8062,呼和浩特市,二十九中,颗粒物(PM10),73,95,54,42,25,3,,58,34,73,47,15,13,0.9,0.8
2025-11-03T2200,1096A,111.5512,40.7866,呼和浩特市,工大金川校区,颗粒物(PM10),73,95,68,29,22,0,,46,21,77,58,8,10,0.4,0.4
2025-11-03T2200,1097A,111.717,40.7612,呼和浩特市,化肥厂生活区,颗粒物(PM10),82,114,61,59,27,4,,60,34,78,53,8,9,0.9,0.7
2025-11-03T2200,3698A,111.5968,40.8178,呼和浩特市,红旗小学,颗粒物(PM10),80,110,64,46,26,3,,47,24,82,58,12,10,0.9,0.6
2025-11-03T2200,3699A,111.6518,40.8389,呼和浩特市,海东办,细颗粒物(PM2.5),103,134,66,77,32,2,,48,27,75,54,9,9,1.3,0.5
2025-11-03T2200,3061A,119.7512,49.1577,呼伦贝尔市,国华电力东,,33,,17,23,10,50,,62,53,11,8,8,8,0.2,0.2
2025-11-03T2200,4279A,119.7569,49.2222,呼伦贝尔市,伊敏大街东7号,,33,,22,23,14,51,,60,52,3,4,5,5,0.5,0.8
2025-11-03T2200,1250A,120.0751,30.8669,湖州市,城西水厂,,43,43,22,21,11,12,,92,74,71,22,8,8,0.5,0.4
2025-11-03T2200,2873A,120.0830,30.8929,湖州市,仁皇山新区,,23,23,20,8,8,46,,84,70,24,18,7,7,0.4,0.3
2025-11-03T2200,2907A,120.1844,30.8596,湖州市,吴兴区站,,33,33,31,8,7,55,,74,66,29,23,7,7,0.5,0.5
2025-11-03T2200,3562A,120.4148,30.8538,湖州市,南浔区站,,44,44,22,17,9,31,,83,64,55,28,9,9,0.4,0.4
2025-11-03T2200,1607A,120.9049,40.7211,葫芦岛市,龙港区,,27,21,55,3,22,84,,88,88,14,31,9,14,0.4,0.7
2025-11-03T2200,1608A,120.8392,40.7514,葫芦岛市,化工街,,22,22,68,9,24,55,,75,71,36,36,9,26,0.4,0.6
2025-11-03T2200,1609A,120.8341,40.7073,葫芦岛市,新区,,22,19,54,6,25,68,,80,79,28,38,13,10,0.5,0.8
2025-11-03T2200,1610A,120.8695,40.7677,葫芦岛市,东城区,,25,25,58,10,24,60,,76,74,35,38,8,34,0.7,0.8
2025-11-03T2200,2482A,109.5981,27.5721,怀化市,林科所,,,,,,,,,,,,,,,,
2025-11-03T2200,2483A,109.9453,27.5444,怀化市,河西地税局,,15,15,14,9,10,45,,51,49,13,12,3,3,0.3,0.3
2025-11-03T2200,2484A,109.9781,27.5342,怀化市,市四医院,,18,16,17,12,13,48,,52,51,7,8,6,8,0.2,0.2
2025-11-03T2200,2485A,109.9972,27.5578,怀化市,监测楼,,18,15,18,12,12,46,,51,46,12,9,2,2,0.1,0.1
2025-11-03T2200,2486A,110.0394,27.583,怀化市,市委党校,,13,10,15,8,11,39,,50,46,9,9,8,10,0.0,0.1
2025-11-03T2200,1210A,119.036,33.5981,淮安市,钵池山,,41,41,31,15,19,20,,78,65,64,34,8,8,0.4,0.2
2025-11-03T2200,1211A,119.007,33.575,淮安市,北京南路,,46,46,33,16,16,16,,76,61,55,22,10,8,0.7,0.6
2025-11-03T2200,1212A,118.989,33.6067,淮安市,市监测站,,31,31,29,17,15,48,,80,70,34,31,8,6,0.4,0.6
2025-11-03T2200,1213A,119.135,33.5039,淮安市,楚州区监测站,颗粒物(PM10),53,56,31,19,13,16,,81,56,67,34,8,9,0.3,0.2
2025-11-03T2200,3426A,118.8755,33.2894,淮安市,新华书店,颗粒物(PM10),51,51,37,16,10,27,,75,53,58,30,8,8,0.4,0.3
2025-11-03T2200,4206A,119.0288,33.6319,淮安市,承德北路606号,颗粒物(PM10),57,63,46,22,23,15,,78,60,63,33,7,7,0.5,0.5
2025-11-03T2200,2282A,116.8004,33.975,淮北市,监测站,颗粒物(PM10),105,160,73,77,36,58,,82,76,36,27,11,10,0.7,0.6
2025-11-03T2200,2283A,116.8091,33.9007,淮北市,烈山区政府,细颗粒物(PM2.5),99,109,75,74,46,55,,88,80,41,29,11,10,0.4,0.4
2025-11-03T2200,3330A,116.8873,33.9836,淮北市,杜集区检察院,细颗粒物(PM2.5),69,80,67,50,32,79,,84,81,22,20,6,5,0.3,0.3
2025-11-03T2200,4017A,116.7923,33.9535,淮北市,市博物馆,细颗粒物(PM2.5),110,150,75,83,41,54,,86,78,37,26,9,9,0.4,0.3
2025-11-03T2200,2277A,116.8305,32.7727,淮南市,潘集区政府,细颗粒物(PM2.5),99,118,66,74,36,31,,86,66,47,21,10,7,0.5,0.4
2025-11-03T2200,2279A,116.8569,32.5951,淮南市,谢家集区政府,颗粒物(PM10),57,63,41,34,15,58,,78,73,28,18,9,8,0.4,0.4
2025-11-03T2200,2280A,116.8281,32.633,淮南市,八公山区政府,颗粒物(PM10),57,64,53,27,24,65,,85,78,24,17,10,9,0.4,0.3
2025-11-03T2200,2281A,116.6325,32.6201,淮南市,焦岗湖风景区管理处,,,,,,,,,,,,,,,,
2025-11-03T2200,2894A,117.0566,32.6531,淮南市,经济技术开发区消防队,颗粒物(PM10),71,92,51,36,21,38,,86,71,48,24,11,11,0.2,0.2
2025-11-03T2200,3329A,117.0108,32.5893,淮南市,山南新区,颗粒物(PM10),57,63,45,27,10,70,,93,88,30,20,5,4,0.2,0.2
2025-11-03T2200,4209A,117.0031,32.6445,淮南市,国庆中路369号,颗粒物(PM10),53,55,40,28,17,66,,90,82,26,20,15,14,0.5,0.4
2025-11-03T2200,2446A,114.9028,30.4742,黄冈市,职工中心,细颗粒物(PM2.5),108,108,64,81,48,75,,120,107,34,23,13,9,1.0,0.8
2025-11-03T2200,2929A,114.8858,30.4519,黄冈市,红卫路,细颗粒物(PM2.5),100,92,60,75,46,72,,122,111,34,23,12,8,0.9,0.6
2025-11-03T2200,3398A,114.9136,30.4445,黄冈市,市林业局,细颗粒物(PM2.5),100,109,68,75,46,74,,119,106,38,25,11,6,1.2,0.8
2025-11-03T2200,2672A,102.0199,35.5102,黄南藏族自治州,同仁县隆务镇,颗粒物(PM10),53,56,45,22,20,52,,77,71,7,7,11,11,0.5,0.4
2025-11-03T2200,2295A,118.2903,29.6963,黄山市,延安路89号,颗粒物(PM10),59,67,54,35,32,39,,94,77,19,11,4,4,0.5,0.5
2025-11-03T2200,2297A,118.1371,30.2756,黄山市,黄山区政府5号楼,细颗粒物(PM2.5),79,71,56,58,39,39,,96,70,6,8,5,5,0.5,0.6
2025-11-03T2200,4210A,118.3354,29.7203,黄山市,滨江东路7-2号,细颗粒物(PM2.5),55,51,67,39,47,56,,93,78,15,13,4,5,0.4,0.5
2025-11-03T2200,2423A,115.0601,30.2313,黄石市,沈家营,颗粒物(PM10),78,106,79,51,48,90,,107,103,9,19,9,10,0.7,0.6
2025-11-03T2200,2426A,114.8988,30.2019,黄石市,铁山,细颗粒物(PM2.5),85,74,65,63,49,84,,110,94,20,21,7,8,0.4,0.4
2025-11-03T2200,2427A,115.0307,30.2092,黄石市,团城山,细颗粒物(PM2.5),97,98,72,72,50,92,,126,117,20,16,10,8,0.7,0.7
2025-11-03T2200,3149A,115.0235,30.1578,黄石市,笔架山北路,细颗粒物(PM2.5),105,145,101,79,54,69,,112,97,25,15,8,10,0.6,0.6
2025-11-03T2200,4185A,115.0780,30.21118,黄石市,磁湖东路29号,细颗粒物(PM2.5),92,98,83,68,57,88,,116,110,19,27,12,12,0.7,0.7
2025-11-03T2200,1392A,114.4183,23.0528,惠州市,河南岸金山湖子站,,36,36,34,22,20,55,,79,68,16,17,12,11,0.6,0.6
2025-11-03T2200,1393A,114.4053,23.0822,惠州市,下埔横江三路子站,,35,35,35,22,21,70,,102,88,9,9,5,6,0.6,0.6
2025-11-03T2200,1394A,114.4103,23.1142,惠州市,江北云山西路子站,,34,34,33,23,21,57,,85,73,13,12,6,7,0.5,0.5
2025-11-03T2200,1395A,114.4645,22.7833,惠州市,惠阳区承修路船湖子站,,35,35,39,22,24,52,,80,70,15,16,9,10,0.7,0.7
2025-11-03T2200,1396A,114.5317,22.7422,惠州市,大亚湾管委会子站,,33,33,36,21,23,55,,76,70,13,13,10,11,0.5,0.5
2025-11-03T2200,3314A,114.4338,22.8134,惠州市,惠阳秋长,,35,27,37,24,23,63,,86,77,10,11,8,10,0.4,0.4
2025-11-03T2200,3452A,114.6517,22.775,惠州市,大亚湾霞涌,,29,26,37,20,24,53,,70,64,11,12,7,8,0.5,0.6
2025-11-03T2200,2240A,130.9762,45.3001,鸡西市,环保局,颗粒物(PM10),85,119,37,62,24,4,,57,30,54,17,13,7,1.5,0.7
2025-11-03T2200,2243A,130.9429,45.3039,鸡西市,第一中学,细颗粒物(PM2.5),57,54,33,40,24,48,,55,48,14,10,8,7,0.4,0.5
2025-11-03T2200,3707A,131.0207,45.3073,鸡西市,欧美日汽修厂,细颗粒物(PM2.5),244,281,63,194,42,17,,59,38,51,18,21,11,1.6,0.6
2025-11-03T2200,3709A,130.9967,45.3106,鸡西市,市政设施管理处,细颗粒物(PM2.5),142,201,50,108,31,8,,66,34,49,18,14,10,1.5,0.5
2025-11-03T2200,2367A,114.9754,27.0803,吉安市,红声器材厂,颗粒物(PM10),55,59,47,37,27,52,,67,62,23,20,12,9,0.8,0.7
2025-11-03T2200,2368A,114.9658,27.0999,吉安市,市森林工业局,细颗粒物(PM2.5),59,54,43,42,30,49,,67,62,21,20,11,10,0.6,0.6
2025-11-03T2200,2369A,114.99,27.1312,吉安市,市环境监测站,颗粒物(PM10),55,60,57,24,26,46,,63,58,17,17,22,12,0.7,0.6
2025-11-03T2200,2370A,115.0093,27.0968,吉安市,青原区法院,细颗粒物(PM2.5),54,52,43,38,31,52,,63,59,19,20,9,10,0.9,0.7
2025-11-03T2200,1772A,126.54,43.8622,吉林市,哈达湾,,23,22,43,16,29,62,,68,67,10,12,8,7,0.2,0.3
2025-11-03T2200,1773A,126.5844,43.8358,吉林市,东局子,,21,,44,7,33,66,,66,66,9,12,7,6,0.5,0.5
2025-11-03T2200,1774A,126.5052,43.8245,吉林市,电力学院,,26,19,41,18,32,52,,62,59,13,15,7,7,0.5,0.6
2025-11-03T2200,1775A,126.6133,43.8972,吉林市,江北,,21,16,50,10,33,65,,63,63,7,12,5,4,0.2,0.3
2025-11-03T2200,1776A,126.555,43.8306,吉林市,江南公园,,23,16,44,16,35,63,,64,62,8,15,6,6,0.3,0.4
2025-11-03T2200,1778A,126.7061,43.7133,吉林市,丰满,,29,,33,13,38,92,,96,96,3,4,9,7,0.7,0.7
2025-11-03T2200,2868A,126.4739,43.953,吉林市,九站,,23,18,39,14,25,71,,69,69,9,14,3,3,0.4,0.5
2025-11-03T2200,1299A,116.9862,36.6114,济南市,科干所,颗粒物(PM10),52,53,44,24,20,95,,93,92,21,23,9,10,0.4,0.4
2025-11-03T2200,1300A,116.9376,36.665,济南市,农科所,颗粒物(PM10),63,76,65,29,23,69,,72,66,35,43,9,9,0.7,0.8
2025-11-03T2200,1301A,117.1265,36.6734,济南市,开发区,颗粒物(PM10),57,63,55,39,26,71,,92,74,36,40,4,5,0.9,0.7
2025-11-03T2200,1303A,117.0624,36.6868,济南市,省种子仓库,颗粒物(PM10),58,66,70,31,27,79,,88,77,33,45,7,8,0.6,0.7
2025-11-03T2200,1304A,116.9489,36.6447,济南市,机床二厂,颗粒物(PM10),63,76,72,39,28,71,,76,73,35,42,10,10,0.2,0.3
2025-11-03T2200,1305A,117.0495,36.663,济南市,市监测站,颗粒物(PM10),52,54,53,32,22,101,,88,87,18,40,5,4,0.7,0.8
2025-11-03T2200,1306A,116.7675,36.5484,济南市,长清党校,颗粒物(PM10),63,76,50,32,19,78,,83,82,28,33,10,9,0.6,0.5
2025-11-03T2200,1616A,117.6795,36.229,济南市,技术学院,细颗粒物(PM2.5),77,97,51,56,27,32,,85,70,69,40,20,12,0.9,0.5
2025-11-03T2200,1961A,117.532,36.6868,济南市,东山小学,颗粒物(PM10),64,78,55,42,25,88,,86,83,26,39,15,10,0.5,0.5
2025-11-03T2200,3059A,117.7161,36.2049,济南市,泰兴公司,细颗粒物(PM2.5),89,107,57,66,29,5,,79,47,90,44,15,13,0.8,0.6
2025-11-03T2200,3064A,117.6867,36.2171,济南市,莱芜战役纪念馆,细颗粒物(PM2.5),92,114,57,68,33,29,,84,68,72,40,15,13,0.7,0.4
2025-11-03T2200,3494A,117.1673,36.9782,济南市,济阳区政府,颗粒物(PM10),75,100,76,46,29,27,,78,62,71,47,9,12,0.6,0.7
2025-11-03T2200,3495A,117.1171,36.63,济南市,锦屏中学,颗粒物(PM10),53,56,38,32,18,90,,94,82,19,21,4,4,0.7,0.7
2025-11-03T2200,3682A,116.9814,36.6819,济南市,济南四建,颗粒物(PM10),60,70,64,34,28,72,,83,79,28,37,7,8,0.7,0.8
2025-11-03T2200,1653A,116.6251,35.4302,济宁市,火炬城,颗粒物(PM10),65,79,69,46,35,50,,84,74,41,39,4,5,0.3,0.3
2025-11-03T2200,1655A,116.5491,35.4042,济宁市,电化厂,颗粒物(PM10),68,85,80,34,33,67,,87,82,28,34,7,6,0.1,0.2
2025-11-03T2200,3500A,116.5814,35.3707,济宁市,北湖一中,细颗粒物(PM2.5),59,52,50,42,33,59,,86,78,27,30,5,6,0.3,0.3
2025-11-03T2200,3501A,116.8249,35.5593,济宁市,服务中心,细颗粒物(PM2.5),77,98,78,56,32,39,,78,67,36,29,9,9,0.5,0.4
2025-11-03T2200,3678A,116.5907,35.4054,济宁市,市第七中学,颗粒物(PM10),52,54,54,31,25,60,,92,82,32,32,9,9,0.4,0.4
2025-11-03T2200,2255A,130.2751,46.8028,佳木斯市,佳纺,细颗粒物(PM2.5),80,70,45,59,33,48,,62,57,10,10,4,4,0.5,0.5
2025-11-03T2200,2256A,130.3995,46.8307,佳木斯市,发电厂,细颗粒物(PM2.5),83,64,44,61,33,44,,62,52,16,14,7,7,0.5,0.5
2025-11-03T2200,2257A,130.3258,46.7975,佳木斯市,环保局,细颗粒物(PM2.5),79,64,42,58,36,53,,63,58,8,10,3,4,0.4,0.4
2025-11-03T2200,2258A,130.3648,46.8032,佳木斯市,十一中,细颗粒物(PM2.5),92,73,45,68,34,46,,57,49,14,13,11,8,0.5,0.5
2025-11-03T2200,2259A,130.3794,46.7588,佳木斯市,四丰,,,,,,,,,,,,,,,,
2025-11-03T2200,1252A,120.7436,30.778,嘉兴市,清河小学,,35,35,23,14,12,49,,76,64,28,20,8,8,0.3,0.3
2025-11-03T2200,1253A,120.726,30.7478,嘉兴市,嘉兴学院,,32,32,21,11,6,41,,68,60,34,22,6,6,0.5,0.5
2025-11-03T2200,2872A,120.7846,30.7525,嘉兴市,南湖区残联,,33,33,18,14,7,42,,76,66,31,18,8,6,0.5,0.5
2025-11-03T2200,3407A,120.6916,30.7739,嘉兴市,秀洲住建,,33,33,24,12,8,50,,72,56,31,26,8,8,0.3,0.4
2025-11-03T2200,1945A,98.2908,39.7711,嘉峪关市,气象局,颗粒物(PM10),80,110,74,31,21,23,,107,82,63,27,4,4,0.9,0.8
2025-11-03T2200,2884A,98.2672,39.7978,嘉峪关市,酒钢宾馆,颗粒物(PM10),102,153,94,34,26,28,,102,80,47,18,14,21,0.7,0.6
2025-11-03T2200,3248A,98.2643,39.7724,嘉峪关市,雄关区,细颗粒物(PM2.5),53,53,55,37,25,43,,104,84,36,29,13,12,0.2,1.3
2025-11-03T2200,1383A,113.1064,22.6058,江门市,北街,,45,38,40,31,24,42,,71,56,29,28,5,7,0.6,0.5
2025-11-03T2200,1384A,113.0731,22.5835,江门市,西区,,48,46,41,33,18,35,,66,54,33,26,5,6,0.3,0.3
2025-11-03T2200,1385A,113.0219,22.5311,江门市,圭峰西,,43,31,37,30,22,43,,70,59,27,23,5,6,0.5,0.4
2025-11-03T2200,1386A,113.0828,22.5947,江门市,东湖,,48,48,40,27,23,34,,65,53,30,25,5,7,0.4,0.4
2025-11-03T2200,3311A,113.1075,22.5647,江门市,江海富民,,42,42,42,18,19,46,,69,56,31,31,8,9,0.7,0.6
2025-11-03T2200,3449A,113.05,22.4667,江门市,新会银湖,,49,37,43,34,26,36,,62,51,30,27,5,6,0.6,0.6
2025-11-03T2200,1830A,113.1992,35.2590,焦作市,影视城,,,,58,,30,,,72,,,22,,11,,0.4
2025-11-03T2200,3335A,113.3137,35.2641,焦作市,马村街道办,细颗粒物(PM2.5),100,112,83,75,45,90,,95,94,20,26,6,7,0.5,0.5
2025-11-03T2200,3336A,113.2465,35.2373,焦作市,焦作技师学院,细颗粒物(PM2.5),104,107,71,78,41,80,,95,91,29,26,6,8,0.5,0.4
2025-11-03T2200,3477A,113.1656,35.2539,焦作市,中站许衡医院,细颗粒物(PM2.5),112,128,79,84,44,84,,104,102,33,20,8,8,0.6,0.4
2025-11-03T2200,3981A,113.2449,35.1803,焦作市,原李万街道办,细颗粒物(PM2.5),110,134,90,83,41,83,,95,94,22,21,13,13,0.9,0.7
2025-11-03T2200,4264A,113.2340,35.2190,焦作市,新安路1731号,细颗粒物(PM2.5),109,103,79,82,45,81,,94,90,26,25,8,9,0.7,0.7
2025-11-03T2200,4295A,113.2722,35.2121,焦作市,人民路3066号,细颗粒物(PM2.5),103,135,85,77,37,53,,88,80,44,33,8,12,0.9,0.7
2025-11-03T2200,1708A,116.3701,23.5345,揭阳市,新兴,,40,37,50,28,33,67,,110,87,17,17,12,10,0.6,0.6
2025-11-03T2200,1709A,116.3264,23.5443,揭阳市,西马,,38,31,51,26,34,62,,103,76,12,17,5,7,0.6,0.7
2025-11-03T2200,1710A,116.3611,23.5626,揭阳市,东兴,,33,33,54,23,29,60,,98,79,13,18,6,9,0.4,0.4
2025-11-03T2200,1711A,116.4151,23.5294,揭阳市,渔湖,,35,32,55,24,33,76,,108,86,11,18,5,8,0.6,0.6
2025-11-03T2200,3320A,116.403,23.5699,揭阳市,曲溪,,42,35,49,29,34,74,,112,90,9,17,2,6,0.5,0.5
2025-11-03T2200,1944A,102.1692,38.5167,金昌市,天庆家园,,,,94,70,45,43,,95,75,38,34,10,27,1.1,0.9
2025-11-03T2200,4022A,102.1647,38.5371,金昌市,金川区人防中心,"颗粒物(PM10),细颗粒物(PM2.5)",92,134,86,68,45,58,,96,78,37,26,14,19,1.0,0.9
2025-11-03T2200,4239A,102.1930,38.5319,金昌市,长春路96号,,,,90,,41,26,,101,80,,33,11,26,1.3,0.9
2025-11-03T2200,1262A,119.647,29.077,金华市,十五中,颗粒物(PM10),56,61,68,29,40,38,,65,57,47,30,6,5,0.5,0.6
2025-11-03T2200,1263A,119.686,29.1029,金华市,监测站,颗粒物(PM10),55,59,46,34,34,32,,64,47,36,28,3,3,0.2,0.3
2025-11-03T2200,3659A,119.656,29.1131,金华市,气象局,颗粒物(PM10),52,54,60,29,37,35,,63,47,50,34,5,5,0.5,0.6
2025-11-03T2200,1767A,121.1115,41.0879,锦州市,南山,,22,17,60,7,32,68,,76,76,26,35,8,14,0.5,1
2025-11-03T2200,1768A,121.0604,40.8428,锦州市,开发区,,49,49,120,26,33,69,,75,75,21,40,55,25,0.5,1
2025-11-03T2200,1769A,121.1836,41.1119,锦州市,百股街道,,22,22,62,7,29,68,,77,76,22,32,9,20,0.6,1
2025-11-03T2200,1770A,121.1178,41.1222,锦州市,天安街道,,24,24,63,12,28,76,,78,78,17,34,8,23,0.6,1
2025-11-03T2200,1771A,121.1303,41.1386,锦州市,北湖公园,,28,28,63,6,26,75,,76,76,21,33,7,17,0.5,0.8
2025-11-03T2200,2160A,112.85,35.5051,晋城市,自来水公司,细颗粒物(PM2.5),113,146,85,85,44,50,,110,100,49,35,6,8,0.8,0.6
2025-11-03T2200,2161A,112.8318,35.4936,晋城市,白云商贸,颗粒物(PM10),101,152,86,75,30,28,,108,95,58,29,2,3,0.6,0.3
2025-11-03T2200,2162A,112.8508,35.4887,晋城市,市环保局,颗粒物(PM10),93,135,90,68,39,38,,111,99,51,27,5,6,1.0,0.6
2025-11-03T2200,2163A,112.8676,35.4897,晋城市,技术学院,细颗粒物(PM2.5),98,129,75,73,40,26,,98,87,75,36,6,6,0.9,0.6
2025-11-03T2200,2165A,112.8453,35.546,晋城市,白马寺,细颗粒物(PM2.5),102,89,65,76,41,112,,128,126,19,18,10,9,0.8,0.7
2025-11-03T2200,3620A,112.8271,35.4828,晋城市,泽州一中,细颗粒物(PM2.5),110,137,94,83,41,84,,118,114,31,28,4,4,0.7,0.5
2025-11-03T2200,2173A,112.7249,37.7067,晋中市,南都小区,细颗粒物(PM2.5),92,127,86,68,43,39,,101,75,59,43,13,13,1.1,0.7
2025-11-03T2200,2174A,112.6991,37.6982,晋中市,榆次区政府,细颗粒物(PM2.5),128,122,84,97,54,41,,109,83,56,44,15,12,1.4,0.9
2025-11-03T2200,2865A,112.7195,37.6828,晋中市,榆次三中,细颗粒物(PM2.5),94,129,93,70,45,28,,98,69,58,43,14,17,0.6,0.5
2025-11-03T2200,4200A,112.7478,37.6954,晋中市,迎宾街26号,细颗粒物(PM2.5),100,124,82,75,46,26,,103,76,67,41,11,13,0.9,0.8
2025-11-03T2200,2439A,112.2014,31.0481,荆门市,竹园小学,细颗粒物(PM2.5),85,101,126,63,77,52,,100,86,38,33,3,2,0.4,0.5
2025-11-03T2200,2440A,112.1969,30.9891,荆门市,掇刀,细颗粒物(PM2.5),113,131,132,85,77,44,,108,92,44,22,2,1,0.8,0.6
2025-11-03T2200,2441A,112.2213,31.0386,荆门市,石化一小,细颗粒物(PM2.5),118,165,156,89,81,23,,95,76,60,32,3,5,1.1,0.7
2025-11-03T2200,3012A,112.1849,31.0362,荆门市,西山林语,细颗粒物(PM2.5),79,82,124,58,74,59,,93,87,18,22,3,6,0.6,0.7
2025-11-03T2200,3547A,112.1632,31.0138,荆门市,龙泉中学南校,颗粒物(PM10),68,86,122,48,68,97,,105,100,20,24,6,8,0.5,0.8
2025-11-03T2200,1844A,112.2494,30.3197,荆州市,市图书馆,细颗粒物(PM2.5),94,123,85,70,55,40,,124,107,30,26,7,8,1.0,0.9
2025-11-03T2200,1845A,112.2008,30.3544,荆州市,市委党校,细颗粒物(PM2.5),94,131,99,70,54,38,,109,95,30,29,8,10,1.0,0.9
2025-11-03T2200,3194A,112.2747,30.3122,荆州市,管委会,细颗粒物(PM2.5),104,139,89,78,55,36,,109,88,25,25,6,8,0.9,0.8
2025-11-03T2200,4268A,112.1722,30.3366,荆州市,学苑路85号,细颗粒物(PM2.5),147,,83,112,71,46,,135,119,27,23,2,3,0.7,0.6
2025-11-03T2200,2342A,117.3102,29.3867,景德镇市,王港中学,,,,,,,,,,,,,,,,
2025-11-03T2200,2343A,117.2117,29.2933,景德镇市,老干部活动中心,,39,37,44,27,30,74,,87,81,5,10,5,5,0.7,0.7
2025-11-03T2200,2344A,117.1894,29.2789,景德镇市,兽医站,颗粒物(PM10),54,57,54,24,29,79,,100,92,12,13,6,7,0.4,0.4
2025-11-03T2200,2346A,117.2461,29.2956,景德镇市,陶研所,,49,,41,34,35,83,,96,89,2,6,7,7,0.7,0.8
2025-11-03T2200,4289A,117.1542,29.2566,景德镇市,青少年活动中心,,41,41,47,27,30,84,,94,89,9,14,3,6,0.4,0.4
2025-11-03T2200,1803A,115.9872,29.6815,九江市,十里,细颗粒物(PM2.5),67,73,82,48,57,76,,95,93,35,27,6,7,0.7,0.9
2025-11-03T2200,1804A,115.9584,29.7046,九江市,茅山头,细颗粒物(PM2.5),72,69,76,52,51,72,,90,90,23,22,7,8,0.7,0.8
2025-11-03T2200,1805A,115.9877,29.7295,九江市,西园,细颗粒物(PM2.5),64,69,72,46,46,77,,107,104,41,34,5,6,0.7,0.7
2025-11-03T2200,1808A,115.9114,29.6038,九江市,综合工业园,细颗粒物(PM2.5),72,81,83,52,69,72,,91,89,44,32,5,6,0.5,0.7
2025-11-03T2200,1809A,116.0721,29.7535,九江市,石化总厂,细颗粒物(PM2.5),83,109,87,61,62,67,,96,92,35,29,5,5,0.7,0.7
2025-11-03T2200,1810A,115.9773,29.5698,九江市,庐山气象台,,,,,,,,,,,,,,,,
2025-11-03T2200,3190A,116.0254,29.6994,九江市,外国语学校,"颗粒物(PM10),细颗粒物(PM2.5)",59,68,74,42,52,71,,90,88,40,33,9,9,0.7,0.9
2025-11-03T2200,4253A,116.0102,29.6594,九江市,莲花大道8号,细颗粒物(PM2.5),67,73,85,48,71,74,,80,80,17,18,9,9,0.5,0.6
2025-11-03T2200,4240A,98.4958,39.7339,酒泉市,玉门东路5号,颗粒物(PM10),74,97,88,40,22,38,,92,74,37,22,9,11,0.6,0.4
2025-11-03T2200,4241A,98.5099,39.7506,酒泉市,北大街108号,颗粒物(PM10),76,102,81,45,22,24,,96,79,53,21,9,10,0.9,0.4
2025-11-03T2200,2698A,76.0072,39.4467,喀什地区,巡警大队,颗粒物(PM10),147,243,261,101,87,5,,89,83,124,64,17,9,3.4,1.3
2025-11-03T2200,2699A,75.9755,39.4694,喀什地区,吾办,颗粒物(PM10),128,206,209,82,82,2,,82,72,96,53,5,7,1.9,1.3
2025-11-03T2200,4027A,75.9483,39.4689,喀什地区,老干局,颗粒物(PM10),155,259,228,109,69,3,,88,77,118,57,4,4,2.2,1.3
2025-11-03T2200,1824A,114.3389,34.7781,开封市,肿瘤医院,颗粒物(PM10),77,103,95,41,44,42,,92,79,48,47,10,11,0.6,0.6
2025-11-03T2200,1826A,114.2885,34.7965,开封市,世纪星幼儿园,颗粒物(PM10),72,94,88,51,55,50,,93,85,40,42,8,9,0.6,0.6
2025-11-03T2200,3147A,114.3438,34.8106,开封市,龙亭公园,颗粒物(PM10),78,106,95,50,56,47,,98,84,41,43,9,11,0.5,0.8
2025-11-03T2200,3210A,114.3644,34.7964,开封市,汴京公园,颗粒物(PM10),88,126,99,46,49,38,,80,69,50,47,9,9,0.6,0.6
2025-11-03T2200,3473A,114.2485,34.8306,开封市,技师学院,颗粒物(PM10),68,85,82,45,47,71,,100,95,27,42,11,11,0.6,0.6
2025-11-03T2200,3592A,114.4644,34.7556,开封市,祥符区生态环境局,颗粒物(PM10),89,128,115,49,52,8,,86,59,89,55,6,7,0.6,0.6
2025-11-03T2200,1951A,84.895,45.6094,克拉玛依市,长征新村,,47,47,22,17,9,48,,57,56,18,13,2,3,0.3,0.2
2025-11-03T2200,1952A,84.8988,45.5893,克拉玛依市,南林小区,,44,44,26,12,6,27,,56,53,32,15,2,3,0.4,0.1
2025-11-03T2200,1954A,84.905,44.3396,克拉玛依市,独山子区,颗粒物(PM10),78,106,73,35,24,10,,67,58,74,23,4,5,1.1,0.5
2025-11-03T2200,1955A,85.6979,46.098,克拉玛依市,乌尔禾区商贸楼,,35,35,24,13,7,41,,72,64,28,16,6,6,0.3,0.2
2025-11-03T2200,3612A,85.1045,45.6899,克拉玛依市,白碱滩区新站,颗粒物(PM10),57,64,26,15,7,44,,67,61,23,11,6,6,0.3,0.2
2025-11-03T2200,2697A,76.1454,39.7142,克孜勒苏柯尔克孜自治州,市人民政府,颗粒物(PM10),101,151,141,56,53,61,,106,99,51,18,7,9,0.2,0.1
2025-11-03T2200,3665A,76.1658,39.7157,克孜勒苏柯尔克孜自治州,克州文化中心,颗粒物(PM10),96,141,143,48,49,78,,107,103,31,18,9,12,0.7,0.4
2025-11-03T2200,1450A,102.8204,24.8886,昆明市,呈贡新区,,15,11,6,3,2,46,,50,44,13,11,4,5,0.6,0.3
2025-11-03T2200,1451A,102.6251,24.9608,昆明市,西山森林公园,,,,,,,,,,,,,,,,
2025-11-03T2200,1452A,102.7252,25.0902,昆明市,龙泉镇,,12,11,5,3,2,37,,44,44,12,11,2,2,0.4,0.5
2025-11-03T2200,1453A,102.7266,25.0375,昆明市,东风东路,,12,9,8,3,3,34,,40,39,24,15,1,1,0.5,0.5
2025-11-03T2200,1454A,102.6742,25.0669,昆明市,金鼎山,,,,9,17,8,36,,45,45,16,11,1,2,0.5,0.5
2025-11-03T2200,1455A,102.6644,25.0401,昆明市,碧鸡广场,,,,5,,4,,,41,41,34,17,8,8,0.6,0.5
2025-11-03T2200,3179A,102.7494,25.0119,昆明市,官渡区博物馆,,18,10,6,3,8,22,,34,32,35,25,2,2,0.5,0.6
2025-11-03T2200,3375A,102.8017,24.8336,昆明市,青年创业园,,12,6,2,3,2,37,,50,46,12,7,1,1,0.5,0.5
2025-11-03T2200,3550A,102.7997,24.9786,昆明市,昆明学院,,15,12,6,9,4,24,,44,39,29,16,8,8,0.4,0.4
2025-11-03T2200,3551A,102.5967,24.6736,昆明市,晋宁区生态环境分局,,16,13,12,3,3,50,,57,57,11,8,2,2,0.3,0.4
2025-11-03T2200,3552A,102.6678,24.9856,昆明市,云天化总部,,12,8,6,6,4,34,,39,38,23,19,4,4,0.6,0.6
2025-11-03T2200,1456A,91.1319,29.6514,拉萨市,八廓街,,29,29,14,17,9,44,,102,94,46,19,6,5,0.6,0.3
2025-11-03T2200,1457A,91.1221,29.6747,拉萨市,市环保局,,45,42,21,31,13,34,,103,88,37,17,9,8,1.0,0.5
2025-11-03T2200,1458A,91.0874,29.6475,拉萨市,区监测站,,37,18,12,10,8,29,,101,90,74,29,4,4,0.5,0.3
2025-11-03T2200,1459A,91.1774,29.6541,拉萨市,西藏大学,,26,26,13,15,8,58,,97,91,36,22,5,4,0.3,0.2
2025-11-03T2200,1460A,90.9798,29.6588,拉萨市,区辐射站,,29,29,19,14,9,56,,92,78,33,20,9,6,0.4,0.4
2025-11-03T2200,1461A,91.0834,29.6292,拉萨市,拉萨火车站,,25,13,15,10,8,78,,98,96,16,19,5,5,0.5,0.5
2025-11-03T2200,2520A,109.2203,23.7256,来宾市,来宾技工学校,,18,14,16,12,7,54,,63,60,8,7,8,8,0.3,0.3
2025-11-03T2200,3535A,109.1781,23.7297,来宾市,兴宾区政府,,20,18,15,14,10,42,,56,52,10,7,8,8,0.5,0.3
2025-11-03T2200,4002A,109.2416,23.7461,来宾市,中南小学,,16,15,17,8,7,49,,60,56,9,8,6,6,0.6,0.6
2025-11-03T2200,1477A,104.1373,35.9454,兰州市,榆中兰大校区,,,,,,,,,,,,,,,,
2025-11-03T2200,1479A,103.831,36.0464,兰州市,铁路设计院,,,,,,,,,,,,,,,,
2025-11-03T2200,3241A,103.7439,36.0842,兰州市,百合公园,细颗粒物(PM2.5),68,78,65,49,38,2,,56,42,68,46,7,8,1.3,1.2
2025-11-03T2200,3242A,103.9611,35.998,兰州市,和平,颗粒物(PM10),55,60,48,38,27,17,,72,50,31,21,3,4,0.5,0.5
2025-11-03T2200,4236A,103.6293,36.0938,兰州市,庄浪东路808号,细颗粒物(PM2.5),64,59,68,46,41,19,,61,44,56,56,8,14,0.4,0.7
2025-11-03T2200,4237A,103.7251,36.1043,兰州市,安宁西路88号,细颗粒物(PM2.5),84,96,84,62,49,3,,71,54,75,56,4,7,0.9,0.7
2025-11-03T2200,4238A,103.8470,36.0676,兰州市,北滨河东路1号,颗粒物(PM10),65,80,68,37,36,1,,62,47,63,52,8,10,1.0,0.9
2025-11-03T2200,3245A,103.6633,36.533,兰州新区,新区管委会,颗粒物(PM10),68,86,68,44,36,30,,99,84,28,19,7,13,0.5,0.5
2025-11-03T2200,3246A,103.6975,36.4789,兰州新区,舟曲中学,,43,43,65,24,34,60,,103,93,14,27,4,12,0.4,0.6
2025-11-03T2200,1067A,116.6708,39.5111,廊坊市,药材公司,细颗粒物(PM2.5),104,134,70,78,39,3,,62,37,80,54,6,7,1.0,0.6
2025-11-03T2200,1068A,116.7214,39.5589,廊坊市,开发区,细颗粒物(PM2.5),90,87,62,67,35,2,,65,43,64,44,2,4,0.7,0.5
2025-11-03T2200,1070A,116.7244,39.5269,廊坊市,北华航天学院,细颗粒物(PM2.5),97,131,74,72,37,3,,66,36,70,53,4,8,0.9,0.6
2025-11-03T2200,2919A,116.7022,39.5453,廊坊市,河北工业大学,细颗粒物(PM2.5),93,112,65,69,38,1,,66,39,78,45,5,7,0.8,0.5
2025-11-03T2200,2535A,103.7723,29.5462,乐山市,花湖湾,,,,,,,,,,,,,,,,
2025-11-03T2200,2536A,103.7627,29.5844,乐山市,牛耳桥,,22,18,17,15,15,21,,35,33,23,19,7,7,0.7,0.7
2025-11-03T2200,2537A,103.7508,29.6006,乐山市,市第三水厂,,22,18,18,15,14,28,,35,34,18,17,6,6,0.7,0.6
2025-11-03T2200,2538A,103.7571,29.5664,乐山市,市监测站,,18,18,18,12,14,26,,34,32,17,13,6,6,0.7,0.7
2025-11-03T2200,3361A,103.7311,29.5628,乐山市,理工大学,,19,,15,13,15,30,,40,39,12,13,7,7,0.6,0.6
2025-11-03T2200,2598A,100.2143,26.8576,丽江市,西南郊,,15,,2,3,3,47,,62,55,4,6,5,5,1.0,0.9
2025-11-03T2200,2599A,100.2497,26.8802,丽江市,丽江古城,,15,12,12,3,4,46,,60,50,10,12,9,9,0.6,0.5
2025-11-03T2200,2600A,100.2203,26.8906,丽江市,市中心,,15,,5,3,6,48,,60,52,10,12,11,11,0.5,0.5
2025-11-03T2200,1267A,119.914,28.4514,丽水市,监测站大楼,,40,31,49,28,32,26,,61,41,20,24,5,5,0.4,0.5
2025-11-03T2200,1268A,119.93,28.4586,丽水市,莲都小学,,43,43,53,19,26,24,,69,42,28,22,4,4,0.4,0.5
2025-11-03T2200,1269A,119.879,28.4231,丽水市,余庄前,,41,41,51,28,40,10,,45,22,14,17,3,3,0.5,0.5
2025-11-03T2200,1173A,119.176,34.5885,连云港市,市环境监测站,,34,34,30,12,11,56,,86,76,20,25,7,7,0.4,0.6
2025-11-03T2200,3000A,119.3581,34.6972,连云港市,德源药业,,36,36,24,12,6,38,,76,57,34,20,6,5,0.3,0.2
2025-11-03T2200,3007A,119.178,34.844,连云港市,新城一中,,32,32,41,11,12,24,,83,57,60,41,8,12,0.8,1.1
2025-11-03T2200,3008A,119.3608,34.7519,连云港市,胡沟管理处,,24,24,18,3,3,69,,73,61,20,24,12,12,0.4,0.2
2025-11-03T2200,3009A,119.1478,34.5911,连云港市,矿山设计院,,39,39,32,12,12,53,,87,77,21,23,4,5,0.5,0.6
2025-11-03T2200,3434A,119.2413,34.6539,连云港市,工贸学校,,24,24,22,7,7,66,,83,79,14,17,9,10,0.5,0.6
2025-11-03T2200,3664A,119.4172,34.7341,连云港市,连云街道,,25,21,15,6,4,77,,90,86,16,18,6,5,0.2,0.1
2025-11-03T2200,2571A,102.3431,27.8099,凉山彝族自治州,青龙寺,,,,,,,,,,,,,,,,
2025-11-03T2200,2572A,102.2721,27.8415,凉山彝族自治州,邛海宾馆,,30,21,9,21,7,13,,35,28,22,11,11,10,1.4,0.7
2025-11-03T2200,2573A,102.2625,27.898,凉山彝族自治州,西昌市政府,,43,,15,30,14,23,,32,30,21,14,8,6,0.9,0.5
2025-11-03T2200,2574A,102.2685,27.8851,凉山彝族自治州,凉山州政府,,37,37,16,24,15,25,,34,32,24,14,10,8,1.3,0.9
2025-11-03T2200,4229A,102.2342,27.8859,凉山彝族自治州,凯乐南路30号,,38,35,17,26,13,14,,37,29,34,21,9,7,1.2,0.8
2025-11-03T2200,2212A,123.2,41.1953,辽阳市,宏伟区,,36,36,65,18,19,58,,64,62,9,14,5,7,0.4,0.5
2025-11-03T2200,2213A,123.1683,41.2495,辽阳市,新华园,颗粒物(PM10),52,54,59,20,24,55,,61,60,12,26,3,8,0.3,0.7
2025-11-03T2200,2214A,123.2354,41.2639,辽阳市,滨河路,,32,32,59,20,24,51,,58,54,14,26,5,8,0.4,0.6
2025-11-03T2200,2215A,123.149,41.2991,辽阳市,铁西工业园,,35,35,62,22,33,52,,58,57,12,28,6,11,0.5,0.9
2025-11-03T2200,2227A,125.1358,42.8845,辽源市,环保局,,44,44,57,14,12,50,,54,45,11,15,5,7,0.7,0.6
2025-11-03T2200,3239A,125.0764,42.9078,辽源市,银鹰制药,,34,34,29,16,17,38,,62,50,44,25,5,6,0.5,0.6
2025-11-03T2200,1625A,115.9848,36.4372,聊城市,区政府,颗粒物(PM10),67,83,74,42,32,61,,77,74,36,49,10,12,0.6,0.6
2025-11-03T2200,2878A,116.0072,36.4343,聊城市,聊大东校,颗粒物(PM10),71,92,82,44,36,61,,78,75,36,45,8,10,0.6,0.6
2025-11-03T2200,3200A,115.9819,36.4978,聊城市,监控中心,颗粒物(PM10),65,80,73,44,32,67,,79,79,30,42,10,13,0.7,0.8
2025-11-03T2200,3513A,116.0445,36.4361,聊城市,九州社区,颗粒物(PM10),71,91,75,39,30,56,,73,69,30,36,2,4,0.6,0.5
2025-11-03T2200,4018A,116.0567,36.4608,聊城市,星美广场,颗粒物(PM10),69,87,76,35,27,62,,73,70,28,45,6,6,0.5,0.5
2025-11-03T2200,2632A,94.3681,29.6376,林芝市,林芝监测站,,22,22,8,11,5,40,,67,59,14,7,5,5,0.5,0.4
2025-11-03T2200,2633A,94.3616,29.6616,林芝市,林芝人民医院,,23,23,13,13,6,36,,61,53,12,7,6,6,0.6,0.5
2025-11-03T2200,2603A,100.0781,23.8982,临沧市,市环保局,,42,32,16,29,24,25,,30,27,5,6,2,4,1.0,0.9
2025-11-03T2200,2604A,100.0894,23.8822,临沧市,市气象局,,16,,13,11,10,28,,28,28,6,9,4,5,0.8,0.7
2025-11-03T2200,1733A,111.5531,36.0783,临汾市,临钢医院,细颗粒物(PM2.5),105,150,104,79,56,5,,87,59,70,36,7,8,1.6,1
2025-11-03T2200,1734A,111.5028,36.0714,临汾市,技工学校,细颗粒物(PM2.5),142,182,105,108,79,2,,92,72,86,41,8,8,1.1,0.6
2025-11-03T2200,1736A,111.5018,36.0855,临汾市,市委,颗粒物(PM10),120,190,117,88,60,5,,97,78,77,39,6,7,1.4,0.8
2025-11-03T2200,3018A,111.505,36.1014,临汾市,唐尧大酒店,细颗粒物(PM2.5),108,161,107,81,56,3,,98,76,64,33,5,4,1.4,1
2025-11-03T2200,4244A,111.4879,36.0530,临汾市,启星学校,细颗粒物(PM2.5),137,166,101,104,61,3,,98,74,93,47,7,7,1.3,0.8
2025-11-03T2200,4271A,103.2464,35.6123,临夏回族自治州,滨河东路1号,细颗粒物(PM2.5),142,196,101,108,57,3,,63,40,40,26,9,8,1.3,0.8
2025-11-03T2200,4310A,103.2093,35.5995,临夏回族自治州,新华街21号,细颗粒物(PM2.5),140,180,96,107,57,6,,74,54,65,31,9,9,1.6,0.8
2025-11-03T2200,1618A,118.3429,35.0532,临沂市,沂河小区,细颗粒物(PM2.5),80,80,54,59,36,39,,81,67,42,34,28,11,0.7,0.5
2025-11-03T2200,1619A,118.295,35.0583,临沂市,鲁南制药厂,颗粒物(PM10),56,61,52,35,29,50,,84,70,44,34,10,11,0.7,0.7
2025-11-03T2200,1620A,118.2794,34.9976,临沂市,新光毛纺厂,细颗粒物(PM2.5),74,80,49,54,30,39,,81,66,40,34,8,11,0.4,0.5
2025-11-03T2200,1621A,118.3956,35.0888,临沂市,河东保险公司,颗粒物(PM10),64,78,51,42,26,19,,84,61,65,45,6,8,0.6,0.7
2025-11-03T2200,3370A,118.3564,35.0215,临沂市,十里堡居委,颗粒物(PM10),58,66,54,39,25,43,,81,67,43,40,11,12,0.8,0.6
2025-11-03T2200,3496A,118.3604,35.1084,临沂市,南坊新区,颗粒物(PM10),60,70,49,31,21,42,,86,69,49,39,10,11,0.7,0.7
2025-11-03T2200,3860A,118.3920,35.0300,临沂市,皇山花园小区,颗粒物(PM10),65,80,56,45,26,42,,86,71,46,38,12,12,0.7,0.5
2025-11-03T2200,1870A,109.4856,24.3895,柳州市,柳东小学,,29,22,12,20,8,62,,72,67,7,5,5,5,0.4,0.3
2025-11-03T2200,1871A,109.4157,24.3277,柳州市,环保监测站,,20,17,12,6,6,61,,69,67,6,5,7,7,0.5,0.4
2025-11-03T2200,1872A,109.389,24.341,柳州市,河西水厂,,18,17,13,8,8,57,,75,71,9,9,6,5,0.4,0.4
2025-11-03T2200,1873A,109.4311,24.2921,柳州市,市四中,,19,16,10,6,7,58,,65,62,9,8,8,8,0.5,0.4
2025-11-03T2200,1874A,109.4006,24.3631,柳州市,市九中,,26,26,14,14,8,48,,70,65,12,8,3,2,0.6,0.4
2025-11-03T2200,1875A,109.4958,24.3134,柳州市,古亭山,,21,18,11,9,7,65,,76,71,6,4,7,6,0.6,0.5
2025-11-03T2200,3402A,109.5422,24.3996,柳州市,市二中,,20,13,10,7,7,64,,77,69,10,8,7,7,0.5,0.4
2025-11-03T2200,2307A,116.5079,31.737,六安市,监测大楼,颗粒物(PM10),54,57,61,34,38,84,,89,88,19,22,7,5,0.4,0.4
2025-11-03T2200,2308A,116.4738,31.7643,六安市,皖西学院,颗粒物(PM10),55,59,70,32,40,90,,95,94,17,22,6,4,0.4,0.5
2025-11-03T2200,2309A,116.4996,31.7905,六安市,朝阳厂,颗粒物(PM10),52,53,61,34,37,86,,92,91,24,27,6,5,0.4,0.4
2025-11-03T2200,2310A,116.5567,31.7886,六安市,开发区,颗粒物(PM10),67,83,70,37,37,54,,94,89,48,22,6,3,0.5,0.4
2025-11-03T2200,2576A,104.8,26.5892,六盘水市,窑上,,25,25,20,17,10,46,,65,52,8,5,2,2,0.4,0.3
2025-11-03T2200,2577A,104.83,26.5917,六盘水市,黄土坡,,13,12,9,8,7,41,,60,48,20,13,7,5,0.6,0.5
2025-11-03T2200,2578A,104.89,26.5939,六盘水市,水钢,,19,19,14,3,4,43,,63,50,14,9,6,5,0.5,0.5
2025-11-03T2200,2579A,104.8475,26.5894,六盘水市,民中,,12,8,11,7,3,36,,59,43,20,13,4,3,0.7,0.5
2025-11-03T2200,2580A,104.9544,26.5506,六盘水市,双水,,16,,8,9,6,50,,67,53,11,8,4,4,0.3,0.4
2025-11-03T2200,2335A,117.0189,25.1181,龙岩市,龙岩师专,,,,,,,,,,,,,,,,
2025-11-03T2200,2336A,117.0217,25.1033,龙岩市,龙岩市监测站,,25,8,24,3,22,78,,93,88,12,11,10,9,0.4,0.4
2025-11-03T2200,2337A,117.0258,25.0661,龙岩市,闽西职业技术学院,,28,11,26,6,21,87,,98,93,5,6,5,6,0.4,0.5
2025-11-03T2200,2338A,117.0196,25.0306,龙岩市,龙岩学院,,27,6,32,3,25,84,,87,84,6,10,6,7,0.4,0.4
2025-11-03T2200,2665A,105.0822,33.3261,陇南市,汉王镇固水子,,,,,,,,,,,,,,,,
2025-11-03T2200,2885A,104.9339,33.3826,陇南市,滨江中学,,35,35,40,21,20,50,,56,51,7,11,7,6,0.4,0.4
2025-11-03T2200,3247A,104.955,33.371,陇南市,市总工会,,32,32,32,10,13,57,,62,58,6,7,9,8,0.4,0.4
2025-11-03T2200,2487A,111.9589,27.8901,娄底市,电视发射台,,,,,,,,,,,,,,,,
2025-11-03T2200,2488A,111.9975,27.725,娄底市,市监测站,,32,28,32,22,21,57,,79,75,30,25,10,10,0.3,0.4
2025-11-03T2200,2489A,112.0194,27.7314,娄底市,市委党校,,33,27,30,23,21,56,,73,71,16,14,6,6,0.5,0.6
2025-11-03T2200,2490A,111.9561,27.7569,娄底市,涟钢,,15,6,31,3,22,46,,67,62,10,10,7,8,0.1,0.1
2025-11-03T2200,2491A,111.9892,27.7044,娄底市,市政府,,32,24,29,22,23,36,,75,71,17,14,7,8,0.9,0.8
2025-11-03T2200,1893A,105.4324,28.9634,泸州市,九狮山,,,,,,,,,,,,,,,,
2025-11-03T2200,1894A,105.4427,28.9063,泸州市,小市上码头,,26,25,26,18,19,22,,26,24,15,18,8,9,0.5,0.6
2025-11-03T2200,1895A,105.4241,28.8573,泸州市,兰田宪桥,,30,28,26,21,18,8,,22,17,17,14,6,6,0.5,0.5
2025-11-03T2200,1896A,105.4379,28.8833,泸州市,市环监站,,27,27,27,18,18,63,,28,28,37,28,4,5,0.5,0.6
2025-11-03T2200,4272A,105.3689,28.7783,泸州市,纳溪中医医院,,26,23,26,18,17,12,,26,21,25,20,5,5,0.6,0.6
2025-11-03T2200,2183A,111.1406,37.5211,吕梁市,环保局,颗粒物(PM10),78,105,81,35,30,5,,80,44,72,50,4,6,0.4,0.5
2025-11-03T2200,2185A,111.1297,37.5136,吕梁市,自来水公司,颗粒物(PM10),91,132,100,40,30,5,,79,57,61,36,4,7,0.7,0.6
2025-11-03T2200,2867A,111.1283,37.51,吕梁市,马茂庄小学,颗粒物(PM10),85,119,105,45,30,6,,78,46,69,48,4,9,0.8,0.6
2025-11-03T2200,1812A,112.3931,34.6516,洛阳市,市委党校,细颗粒物(PM2.5),127,170,103,96,57,3,,65,46,89,54,8,9,1.0,0.6
2025-11-03T2200,1815A,112.494,34.6886,洛阳市,河南林校,细颗粒物(PM2.5),125,157,111,95,52,19,,62,47,63,50,7,9,0.7,0.5
2025-11-03T2200,1816A,112.3844,34.623,洛阳市,开发区管委会,细颗粒物(PM2.5),120,156,103,91,54,18,,71,58,64,46,7,8,0.8,0.6
2025-11-03T2200,1817A,112.4267,34.6258,洛阳市,市委新办公区,颗粒物(PM10),114,178,108,83,47,8,,64,48,71,48,8,9,0.9,0.5
2025-11-03T2200,3340A,112.6005,34.6326,洛阳市,伊滨,细颗粒物(PM2.5),132,186,131,100,56,3,,57,44,75,51,7,8,0.6,0.4
2025-11-03T2200,3341A,112.4951,34.6332,洛阳市,中移产业园,颗粒物(PM10),120,189,126,88,54,2,,62,46,96,56,8,9,0.6,0.4
2025-11-03T2200,3593A,112.5736,34.8993,洛阳市,吉利监测站,细颗粒物(PM2.5),105,120,90,79,51,10,,77,54,64,48,6,8,0.6,0.6
2025-11-03T2200,3635A,112.3677,34.662,洛阳市,河科大西苑校区,细颗粒物(PM2.5),128,177,106,97,55,4,,70,48,90,54,9,11,0.9,0.7
2025-11-03T2200,3636A,112.4388,34.6781,洛阳市,英才小学,细颗粒物(PM2.5),129,190,116,98,56,3,,60,46,86,53,8,9,0.9,0.7
2025-11-03T2200,4214A,112.4600,34.6949,洛阳市,春都路1号院,颗粒物(PM10),100,149,119,67,41,3,,54,40,76,46,8,9,0.8,0.7
2025-11-03T2200,2399A,114.051,33.5699,漯河市,三五一五工厂,颗粒物(PM10),165,280,166,50,68,52,,92,83,32,38,8,8,0.7,0.7
2025-11-03T2200,2400A,114.0055,33.5698,漯河市,漯河大学,颗粒物(PM10),149,248,165,53,66,57,,98,91,34,40,6,7,0.6,0.6
2025-11-03T2200,2401A,114.0138,33.5828,漯河市,市水利局,颗粒物(PM10),145,239,165,53,65,56,,98,89,30,37,7,9,0.9,0.7
2025-11-03T2200,2402A,114.0261,33.5698,漯河市,市广电局,颗粒物(PM10),169,288,176,46,62,48,,103,94,35,38,6,7,,0.6
2025-11-03T2200,3478A,113.9749,33.5664,漯河市,市图书馆,颗粒物(PM10),189,327,169,65,69,43,,84,75,38,37,5,5,0.5,0.6
2025-11-03T2200,4250A,114.0892,33.5882,漯河市,韶山路11号,颗粒物(PM10),184,318,173,49,66,27,,93,68,51,46,6,8,0.5,0.6
2025-11-03T2200,1798A,118.5092,31.6837,马鞍山市,湖东路四小,颗粒物(PM10),53,56,37,18,10,47,,86,72,41,21,7,6,0.4,0.4
2025-11-03T2200,1799A,118.5024,31.6449,马鞍山市,开发区,颗粒物(PM10),64,78,47,43,14,30,,89,65,53,27,8,8,0.5,0.4
2025-11-03T2200,1802A,118.6245,31.7241,马鞍山市,濮塘,,,,,,,,,,,,,,,,
2025-11-03T2200,3633A,118.4918,31.6809,马鞍山市,雨山,颗粒物(PM10),51,52,36,18,9,53,,89,78,38,20,7,6,0.5,0.5
2025-11-03T2200,4191A,118.5274,31.72227,马鞍山市,慈湖高新区,,46,46,31,20,12,63,,87,70,27,22,3,4,0.5,0.5
2025-11-03T2200,1686A,111.0286,21.4688,茂名市,电白南海,,,46,53,31,29,62,,96,81,11,12,,10,0.3,0.4
2025-11-03T2200,1687A,110.9294,21.6533,茂名市,茂石化七小,细颗粒物(PM2.5),52,48,50,36,28,48,,82,68,15,15,11,21,0.7,0.7
2025-11-03T2200,1688A,110.9107,21.6687,茂名市,健康路,细颗粒物(PM2.5),55,39,41,39,29,52,,87,74,15,15,16,18,0.7,0.6
2025-11-03T2200,1689A,110.8592,21.6828,茂名市,高岭,,41,41,61,24,29,43,,75,59,14,16,9,19,0.5,0.8
2025-11-03T2200,3450A,111.01,21.5165,茂名市,电白水东,,32,29,42,22,26,62,,86,76,12,14,8,12,0.7,0.7
2025-11-03T2200,2539A,104.0308,30.0478,眉山市,黑龙滩水库,,,,,,,,,,,,,,,,
2025-11-03T2200,2540A,103.8416,30.0874,眉山市,气象局,,36,36,33,22,15,19,,43,36,21,18,7,8,0.4,0.4
2025-11-03T2200,3137A,103.8578,30.0744,眉山市,市委党校,,28,22,18,19,10,22,,38,33,19,17,5,5,0.7,0.6
2025-11-03T2200,3148A,103.8291,30.0564,眉山市,区人社局,,29,29,33,9,12,34,,38,37,14,17,5,5,0.7,0.7
2025-11-03T2200,1690A,116.1231,24.3284,梅州市,梅江月梅,,40,31,27,28,22,30,,62,52,25,16,5,6,0.7,0.6
2025-11-03T2200,1691A,116.0797,24.2719,梅州市,梅县新城,,39,31,32,27,21,45,,68,57,17,13,8,8,0.7,0.6
2025-11-03T2200,1692A,116.1248,24.2654,梅州市,环境监控中心,,,31,29,26,21,57,,66,58,13,15,6,6,,0.5
2025-11-03T2200,3315A,116.1233,24.2991,梅州市,梅龙,,35,24,28,24,20,45,,56,46,10,12,6,7,0.7,0.6
2025-11-03T2200,1878A,104.7778,31.4741,绵阳市,富乐山,,25,18,29,17,22,32,,42,40,10,12,8,8,0.4,0.5
2025-11-03T2200,1880A,104.6697,31.4668,绵阳市,高新区自来水公司,,25,20,42,17,31,24,,30,29,29,26,8,8,0.5,0.6
2025-11-03T2200,1881A,104.7287,31.5075,绵阳市,三水厂,,29,21,41,20,31,40,,32,32,21,25,7,6,0.4,0.6
2025-11-03T2200,3491A,104.69,31.5322,绵阳市,西科大附属小学,,20,17,39,11,22,25,,34,32,40,26,10,10,0.6,0.7
2025-11-03T2200,3492A,104.5648,31.5343,绵阳市,安州区旅游局,,25,,27,17,28,26,,30,27,26,27,12,7,0.6,0.7
2025-11-03T2200,4226A,104.7651,31.4531,绵阳市,绵阳市气象局,,25,20,30,17,24,32,,42,41,20,15,7,7,0.6,0.7
2025-11-03T2200,1784A,129.61,44.561,牡丹江市,环保大楼,细颗粒物(PM2.5),74,60,44,54,33,10,,50,26,39,19,8,6,0.6,0.4
2025-11-03T2200,1785A,129.6115,44.5782,牡丹江市,文化广场,细颗粒物(PM2.5),65,59,42,47,36,12,,49,29,40,20,8,7,0.7,0.4
2025-11-03T2200,1786A,129.5904,44.5963,牡丹江市,第一医院,细颗粒物(PM2.5),98,77,49,73,41,7,,51,30,41,21,4,4,0.8,0.5
2025-11-03T2200,1787A,129.6364,44.6075,牡丹江市,机车工厂,细颗粒物(PM2.5),89,106,45,66,32,4,,50,24,41,21,129,23,0.9,0.4
2025-11-03T2200,1788A,129.6386,44.5462,牡丹江市,第一中学,细颗粒物(PM2.5),70,,42,51,31,1,,51,20,48,19,5,3,0.7,0.4
2025-11-03T2200,2531A,105.0703,29.61,内江市,市监测站,,29,24,30,20,19,21,,39,31,11,17,3,4,0.6,0.6
2025-11-03T2200,2532A,105.0717,29.5947,内江市,东兴区政府,,22,20,19,15,11,12,,28,25,18,19,5,5,0.3,0.4
2025-11-03T2200,2533A,105.0653,29.5817,内江市,内江二中,,34,34,26,18,15,12,,32,26,23,20,4,4,0.7,0.7
2025-11-03T2200,2534A,105.0406,29.5822,内江市,内江日报社,,32,23,22,22,18,11,,33,27,27,23,4,4,0.5,0.6
2025-11-03T2200,2628A,92.0657,31.4846,那曲市,那曲监测站,颗粒物(PM10),60,69,45,33,27,51,,104,93,53,24,10,9,0.9,0.8
2025-11-03T2200,4243A,92.0515,31.4787,那曲市,那曲市委宣传部,,,13,19,7,11,86,,100,93,,16,7,7,0.1,0.2
2025-11-03T2200,1290A,115.8931,28.6843,南昌市,省外办,细颗粒物(PM2.5),92,100,89,68,61,66,,73,72,20,22,6,7,1.2,1.1
2025-11-03T2200,1291A,115.8886,28.7003,南昌市,省林业公司,细颗粒物(PM2.5),100,107,81,75,59,52,,77,73,31,25,6,6,1.5,1.4
2025-11-03T2200,1292A,115.8126,28.7442,南昌市,林科所,细颗粒物(PM2.5),92,90,76,68,51,52,,81,57,37,24,4,7,0.9,0.8
2025-11-03T2200,1294A,115.8518,28.687,南昌市,建工学校,细颗粒物(PM2.5),102,119,107,76,58,65,,84,77,34,28,11,12,0.9,0.8
2025-11-03T2200,1295A,115.8921,28.6424,南昌市,象湖,颗粒物(PM10),76,101,81,53,57,82,,78,78,21,23,9,10,0.9,0.9
2025-11-03T2200,1296A,115.7423,28.7996,南昌市,武术学校,,,,,,,,,,,,,,,,
2025-11-03T2200,3046A,115.9084,28.6062,南昌市,机电学校,细颗粒物(PM2.5),110,113,95,83,61,33,,78,66,36,26,8,8,0.8,0.7
2025-11-03T2200,3690A,115.9721,28.7031,南昌市,外国语学校,细颗粒物(PM2.5),94,100,88,70,62,75,,85,83,31,31,13,11,0.7,0.6
2025-11-03T2200,4192A,115.9316,28.68677,南昌市,南京东路235号,细颗粒物(PM2.5),107,103,98,80,68,70,,78,77,34,32,7,8,0.8,0.8
2025-11-03T2200,1905A,106.056,30.8064,南充市,西山风景区,,,,,,,,,,,,,,,,
2025-11-03T2200,1906A,106.0789,30.8023,南充市,南充市委,细颗粒物(PM2.5),67,59,47,48,35,1,,21,14,33,26,4,4,0.7,0.5
2025-11-03T2200,1907A,106.1031,30.8217,南充市,南充炼油厂,细颗粒物(PM2.5),63,57,55,45,37,3,,20,16,32,23,6,6,0.9,0.7
2025-11-03T2200,4227A,106.1083,30.7884,南充市,梨树横街98号,细颗粒物(PM2.5),59,60,49,42,34,4,,24,18,34,25,5,4,0.5,0.5
2025-11-03T2200,4304A,106.1172,30.843,南充市,清泉寺北路188号,细颗粒物(PM2.5),57,46,39,40,30,5,,20,16,35,20,7,6,0.6,0.5
2025-11-03T2200,4305A,106.067,30.7616,南充市,同庆路1号,细颗粒物(PM2.5),58,43,44,41,34,2,,21,15,27,25,6,6,0.6,0.6
2025-11-03T2200,1151A,118.8086,32.1065,南京市,迈皋桥,,34,34,27,14,9,36,,75,60,35,17,4,4,0.5,0.4
2025-11-03T2200,1152A,118.7538,32.0551,南京市,草场门,,46,46,34,24,10,53,,77,,37,24,8,9,0.3,0.3
2025-11-03T2200,1153A,118.7794,32.0745,南京市,山西路,,41,41,35,14,4,72,,85,74,14,13,5,4,0.6,0.6
2025-11-03T2200,1154A,118.7752,32.0023,南京市,中华门,,46,46,31,19,10,37,,90,67,48,24,4,4,0.4,0.3
2025-11-03T2200,1155A,118.8109,32.0309,南京市,瑞金路,,41,41,31,19,11,26,,83,63,44,14,4,4,0.8,0.7
2025-11-03T2200,1156A,118.7997,32.0754,南京市,玄武湖,,38,38,28,17,6,64,,73,54,19,18,4,4,0.2,0.2
2025-11-03T2200,1157A,118.6414,32.0931,南京市,浦口,,48,48,34,17,11,25,,73,58,61,29,8,8,0.6,0.5
2025-11-03T2200,1158A,118.7356,31.9996,南京市,奥体中心,,45,45,35,17,11,40,,92,77,60,25,6,6,0.5,0.4
2025-11-03T2200,1159A,118.9125,32.1028,南京市,仙林大学城,,,41,36,22,7,,,75,61,24,18,8,8,0.5,0.4
2025-11-03T2200,3422A,118.8436,31.9198,南京市,江宁彩虹桥,,50,50,31,24,11,24,,90,67,56,25,6,6,0.4,0.4
2025-11-03T2200,3427A,118.8554,32.3578,南京市,六合雄州,"颗粒物(PM10),细颗粒物(PM2.5)",59,67,31,42,12,6,,85,47,46,21,6,6,0.5,0.4
2025-11-03T2200,4249A,118.8708,31.3402,南京市,汶溪路181号,,50,50,37,28,16,58,,83,78,26,20,6,7,0.5,0.5
2025-11-03T2200,4312A,119.019,31.6512,南京市,中山西路1号,,39,39,30,22,15,23,,82,63,41,16,3,4,0.7,0.7
2025-11-03T2200,1401A,108.3103,22.7881,南宁市,二十一中,,12,,13,3,10,36,,46,44,15,13,3,4,0.6,0.6
2025-11-03T2200,1402A,108.3141,22.8528,南宁市,北湖,,,,15,9,10,36,,51,47,17,14,5,8,,0.5
2025-11-03T2200,1403A,108.3206,22.8225,南宁市,市监测站,,13,,16,9,12,29,,45,37,23,19,5,7,0.5,0.5
2025-11-03T2200,1404A,108.3829,22.8037,南宁市,大自然花园,,13,,16,9,12,40,,46,42,12,11,5,6,0.6,0.6
2025-11-03T2200,1405A,108.4394,22.7904,南宁市,仙葫,,,,,,,,,,,,,,,,
2025-11-03T2200,1406A,108.2397,22.8467,南宁市,区农职院,,14,11,17,7,9,43,,48,47,11,11,3,4,0.5,0.6
2025-11-03T2200,1407A,108.3275,22.735,南宁市,英华嘉园,,12,9,15,7,12,37,,39,39,10,13,2,2,0.5,0.5
2025-11-03T2200,3401A,108.4834,22.7618,南宁市,红星社区,,17,8,9,3,8,53,,58,53,8,7,5,4,0.3,0.3
2025-11-03T2200,4221A,108.2177,22.7774,南宁市,乐贤路16号,,13,,18,9,10,40,,43,41,13,12,4,6,0.3,0.3
2025-11-03T2200,2331A,118.0966,26.6761,南平市,茫荡山,,,14,30,,,104,,130,115,,,1,1,,0.3
2025-11-03T2200,2332A,118.1681,26.6369,南平市,南平市监测站,,28,23,39,19,31,72,,90,85,10,13,3,3,0.6,0.6
2025-11-03T2200,2333A,118.1825,26.6489,南平市,南平铝业有限公司,,26,22,34,18,35,78,,90,88,9,15,2,3,0.5,0.6
2025-11-03T2200,2334A,118.1756,26.6272,南平市,南平七中,,26,,34,18,33,75,,87,84,7,12,5,4,0.6,0.5
2025-11-03T2200,1168A,120.9098,31.9663,南通市,狼山街道,,35,34,23,24,9,38,,78,64,36,16,3,3,0.5,0.4
2025-11-03T2200,1169A,120.86,32.0005,南通市,虹桥,,22,21,20,15,8,59,,78,70,18,12,4,4,0.7,0.7
2025-11-03T2200,1170A,120.87,32.02,南通市,城中,,31,31,29,8,7,53,,74,64,25,16,3,4,0.6,0.6
2025-11-03T2200,1171A,120.94,31.93,南通市,星湖花园,,37,37,28,24,12,46,,78,64,32,15,4,4,0.5,0.4
2025-11-03T2200,1172A,120.81,32.0417,南通市,紫琅学院,,28,28,29,8,7,48,,76,62,28,20,4,6,0.1,0.1
2025-11-03T2200,3291A,121.067,32.062,南通市,通州监测站,,24,14,18,9,10,74,,84,77,13,15,2,2,0.3,0.3
2025-11-03T2200,3432A,120.9348,31.9883,南通市,环境教育馆,,39,39,27,21,10,13,,82,56,50,21,3,3,0.4,0.3
2025-11-03T2200,2404A,112.5224,33.0122,南阳市,瓦房庄,细颗粒物(PM2.5),148,177,126,113,80,20,,108,86,66,27,6,7,1.3,0.8
2025-11-03T2200,2405A,112.5003,32.9735,南阳市,汉画馆,细颗粒物(PM2.5),144,156,110,110,69,1,,96,62,84,34,5,7,1.4,0.8
2025-11-03T2200,2406A,112.5573,33.027,南阳市,气象站,细颗粒物(PM2.5),153,229,149,117,71,38,,114,102,65,30,7,7,0.9,0.7
2025-11-03T2200,2407A,112.5481,32.9689,南阳市,理工学院,细颗粒物(PM2.5),128,187,127,97,58,21,,104,84,80,34,6,8,0.9,0.7
2025-11-03T2200,4008A,112.5234,32.9922,南阳市,卧龙区政府,颗粒物(PM10),116,182,126,82,47,22,,100,74,69,31,8,9,1.2,0.7
2025-11-03T2200,1234A,121.8358,29.911,宁波市,区环保大楼,,22,17,14,9,11,70,,78,70,23,21,5,5,0.3,0.3
2025-11-03T2200,1235A,121.56,29.82,宁波市,万里学院,,25,25,21,7,6,65,,87,79,26,18,7,7,0.4,0.4
2025-11-03T2200,1236A,121.713,29.9572,宁波市,龙赛医院,,23,16,14,3,3,71,,84,76,24,20,4,4,0.7,0.7
2025-11-03T2200,1239A,121.633,29.7733,宁波市,钱湖水厂,,40,40,17,13,7,39,,86,,32,17,6,6,0.4,0.5
2025-11-03T2200,1240A,121.5856,29.8635,宁波市,太古小学,,25,25,15,11,6,69,,87,80,22,18,3,3,0.5,0.5
2025-11-03T2200,1241A,121.524,29.8674,宁波市,市环境监测中心,,26,26,24,3,6,57,,88,78,30,19,7,9,0.5,0.5
2025-11-03T2200,2871A,121.6147,29.9017,宁波市,万里国际学校,,24,24,19,14,4,58,,87,76,30,16,5,4,0.4,0.4
2025-11-03T2200,3710A,121.5594,29.8975,宁波市,白沙活动中心,,23,23,23,6,7,50,,80,68,33,20,5,5,0.4,0.4
2025-11-03T2200,2339A,119.5001,26.6946,宁德市,金涵水库,,32,22,36,22,28,39,,64,50,13,9,2,2,0.4,0.4
2025-11-03T2200,2341A,119.5388,26.6612,宁德市,宁德市监测站,,,,43,30,38,,,100,,,14,,6,,0.6
2025-11-03T2200,3209A,119.5231,26.6562,宁德市,宁德一中,,36,,43,25,36,66,,109,79,13,12,6,6,0.3,0.5
2025-11-03T2200,2618A,98.8601,25.8567,怒江傈僳族自治州,州监测站,,26,26,17,15,13,17,,40,29,12,8,8,8,0.5,0.4
2025-11-03T2200,2619A,98.8546,25.8417,怒江傈僳族自治州,泸水一中,,25,21,13,17,9,3,,22,13,15,14,5,6,0.7,0.6
2025-11-03T2200,1888A,101.6891,26.571,攀枝花市,弄弄坪,,33,27,13,23,8,22,,35,28,26,20,7,6,1.2,0.7
2025-11-03T2200,1889A,101.5769,26.5928,攀枝花市,河门口,,26,,15,18,10,16,,32,25,22,18,9,10,0.9,0.8
2025-11-03T2200,1890A,101.7169,26.585,攀枝花市,炳草岗,,28,21,14,19,12,12,,32,26,39,21,18,6,1.0,0.7
2025-11-03T2200,1891A,101.7369,26.5008,攀枝花市,仁和,,23,21,11,16,8,17,,39,33,16,12,6,6,0.7,0.6
2025-11-03T2200,2835A,101.7227,26.567,攀枝花市,四十中小,,18,18,16,10,9,29,,43,26,19,17,15,9,1.2,0.8
2025-11-03T2200,1604A,122.0303,41.1489,盘锦市,开发区,,26,26,36,14,21,56,,67,67,14,22,3,6,0.4,0.4
2025-11-03T2200,1605A,122.0485,41.0883,盘锦市,兴隆台,,23,21,42,16,23,54,,70,66,19,29,5,11,0.2,0.5
2025-11-03T2200,1606A,121.8297,41.1028,盘锦市,新生街道,,26,15,32,3,16,81,,83,83,12,28,8,11,0.3,0.5
2025-11-03T2200,1832A,113.3257,33.742,平顶山市,新华旅馆,细颗粒物(PM2.5),122,177,134,92,75,54,,99,86,38,39,8,10,0.6,0.5
2025-11-03T2200,1833A,113.2919,33.737,平顶山市,规划设计院,"颗粒物(PM10),细颗粒物(PM2.5)",110,169,135,83,79,53,,95,86,37,43,5,9,0.7,0.7
2025-11-03T2200,1834A,113.182,33.774,平顶山市,平顶山工学院,颗粒物(PM10),101,151,126,75,69,70,,100,97,30,39,8,9,0.5,0.5
2025-11-03T2200,3204A,113.3025,33.73,平顶山市,规划局,颗粒物(PM10),133,215,147,85,75,51,,100,93,40,38,8,11,0.8,0.8
2025-11-03T2200,3594A,112.8867,33.9116,平顶山市,石龙区,细颗粒物(PM2.5),149,246,177,114,72,31,,92,83,64,56,8,10,1.0,0.9
2025-11-03T2200,2656A,106.6692,35.5461,平凉市,聚贤嘉苑,细颗粒物(PM2.5),69,86,60,50,35,24,,74,61,42,29,10,9,1.3,1.1
2025-11-03T2200,2657A,106.7021,35.5307,平凉市,博物馆,细颗粒物(PM2.5),87,103,64,64,41,21,,77,62,52,30,13,12,0.8,0.7
2025-11-03T2200,2347A,114.0997,27.5002,萍乡市,武功山,,,,,,,,,,,,,,,,
2025-11-03T2200,2348A,113.8385,27.6434,萍乡市,中医院,细颗粒物(PM2.5),65,49,42,47,30,61,,72,71,19,24,4,6,0.8,0.9
2025-11-03T2200,2349A,113.8493,27.6253,萍乡市,市政府车库,,48,39,38,33,32,59,,70,69,20,22,7,7,0.7,0.7
2025-11-03T2200,2350A,113.8676,27.6435,萍乡市,市环保局,,45,,40,31,32,63,,76,75,15,18,8,5,0.6,0.6
2025-11-03T2200,2351A,113.866,27.6198,萍乡市,安源区政府,细颗粒物(PM2.5),59,42,39,42,34,59,,67,66,20,20,11,8,1.4,0.8
2025-11-03T2200,2319A,119.0141,25.4325,莆田市,荔城区仓后路,,26,18,45,7,28,82,,135,92,9,11,4,5,0.5,0.6
2025-11-03T2200,2320A,119.0015,25.4553,莆田市,莆田市监测站,,28,15,34,11,42,89,,138,101,8,10,5,5,0.5,0.6
2025-11-03T2200,2321A,119.1119,25.4561,莆田市,涵江区六中,,28,13,39,3,28,88,,143,96,8,10,4,5,0.4,0.6
2025-11-03T2200,2322A,119.1013,25.3215,莆田市,秀屿区政府,,27,21,42,3,28,85,,139,93,11,12,4,5,0.4,0.5
2025-11-03T2200,2323A,118.981,25.4792,莆田市,东圳水库,,32,18,30,8,23,100,,147,112,7,7,6,7,0.5,0.4
2025-11-03T2200,2392A,115.0312,35.7636,濮阳市,环保局,颗粒物(PM10),65,80,71,46,43,52,,70,67,46,55,10,37,0.7,0.8
2025-11-03T2200,2394A,115.0574,35.7609,濮阳市,油田运输公司,颗粒物(PM10),75,100,84,50,44,53,,78,72,41,46,11,42,0.7,0.8
2025-11-03T2200,3021A,115,35.7668,濮阳市,濮水河管理处,颗粒物(PM10),71,91,78,51,47,57,,77,75,35,40,9,13,1.0,0.8
2025-11-03T2200,4216A,115.0924,35.7686,濮阳市,任丘路479号,细颗粒物(PM2.5),83,106,85,61,46,32,,67,57,54,50,10,34,0.7,0.8
2025-11-03T2200,2601A,100.98,22.7633,普洱市,市环保局,,19,19,18,12,16,45,,43,43,3,4,4,4,0.6,0.6
2025-11-03T2200,2602A,100.9817,22.8322,普洱市,普洱第二中学,,30,,16,21,12,40,,41,41,4,5,4,4,0.5,0.5
2025-11-03T2200,2262A,131.0518,45.8751,七台河市,新一中,,,,,,,,,,,,,,,,
2025-11-03T2200,3345A,131.0577,45.7879,七台河市,中波台,颗粒物(PM10),55,59,41,31,21,59,,56,56,10,12,10,6,0.5,0.4
2025-11-03T2200,3637A,131.0176,45.7761,七台河市,人民广场,细颗粒物(PM2.5),59,54,44,42,32,67,,63,63,13,15,6,6,0.5,0.6
2025-11-03T2200,3684A,130.8781,45.8222,七台河市,新建矿广场,颗粒物(PM10),54,58,43,36,29,47,,52,49,18,13,6,6,0.6,0.5
2025-11-03T2200,1779A,123.9305,47.3636,齐齐哈尔市,安居小区,颗粒物(PM10),78,106,103,38,48,42,,67,54,20,20,10,8,0.9,0.8
2025-11-03T2200,1780A,123.9488,47.3386,齐齐哈尔市,中心广场,颗粒物(PM10),90,130,117,46,57,42,,71,59,22,22,10,9,0.6,0.5
2025-11-03T2200,1781A,123.9483,47.3227,齐齐哈尔市,农牧车辆厂,颗粒物(PM10),84,117,117,58,55,42,,70,55,21,19,7,7,0.8,0.8
2025-11-03T2200,1783A,123.945,47.2988,齐齐哈尔市,市环境监测站,细颗粒物(PM2.5),94,120,120,70,64,39,,69,54,22,19,11,9,0.9,0.7
2025-11-03T2200,3662A,123.6333,47.2075,齐齐哈尔市,富区青少年活动中心,细颗粒物(PM2.5),195,216,114,146,50,36,,60,45,21,16,9,7,0.9,0.6
2025-11-03T2200,2591A,107.9783,26.5747,黔东南苗族侗族自治州,市环境监测站,,19,8,11,6,8,60,,70,60,5,6,4,4,0.5,0.4
2025-11-03T2200,2881A,107.8908,26.5311,黔东南苗族侗族自治州,凯里学院,,,,4,5,6,62,,70,63,10,11,3,3,0.4,0.3
2025-11-03T2200,2593A,107.5228,26.2403,黔南布依族苗族自治州,小围寨,,15,6,2,3,1,47,,64,53,8,5,4,5,0.4,0.4
2025-11-03T2200,3538A,107.5175,26.2978,黔南布依族苗族自治州,沙坝,,12,7,7,7,6,38,,59,52,14,7,3,3,0.5,0.4
2025-11-03T2200,2589A,104.9022,25.0925,黔西南布依族苗族自治州,场坝街,,20,20,17,3,6,46,,51,46,7,9,2,4,0.3,0.3
2025-11-03T2200,2590A,104.8811,25.0992,黔西南布依族苗族自治州,坪东大道,,15,11,14,3,8,46,,50,48,6,7,2,2,0.3,0.3
2025-11-03T2200,2502A,108.6236,21.9667,钦州市,市环保站,,15,7,18,3,11,45,,53,42,10,10,2,2,0.4,0.6
2025-11-03T2200,2503A,108.6549,21.9481,钦州市,沙埠小学,,14,9,23,8,13,42,,52,46,13,11,3,3,0.8,0.5
2025-11-03T2200,2504A,108.5989,21.7431,钦州市,港区一小,,22,,24,15,17,25,,48,30,32,20,7,5,0.5,0.5
2025-11-03T2200,3404A,108.5959,21.9633,钦州市,北职校,,15,7,16,3,11,47,,50,48,6,5,4,4,0.4,0.4
2025-11-03T2200,1043A,119.7493,40.0116,秦皇岛市,第一关,,49,,36,34,19,6,,85,61,87,45,8,9,0.4,0.6
2025-11-03T2200,1044A,119.5897,39.9499,秦皇岛市,监测站,颗粒物(PM10),51,52,42,26,15,37,,79,67,49,38,8,9,0.5,0.5
2025-11-03T2200,1046A,119.5251,39.9041,秦皇岛市,建设大厦,,43,43,41,22,19,39,,76,62,49,36,8,8,0.5,0.5
2025-11-03T2200,3132A,119.610547,39.943889,秦皇岛市,文明里,,40,33,39,28,17,37,,75,69,37,37,10,11,0.4,0.4
2025-11-03T2200,4198A,119.5090,39.8253,秦皇岛市,北戴河轮滑馆,,38,38,29,11,13,51,,78,70,31,33,8,6,0.4,0.5
2025-11-03T2200,1307A,120.6659,36.2403,青岛市,仰口,,,,,,,,,,,,,,,,
2025-11-03T2200,1310A,120.4134,36.0658,青岛市,市南区东部子站,,30,7,13,3,4,93,,92,92,2,8,6,7,0.3,0.3
2025-11-03T2200,1311A,120.3664,36.1032,青岛市,四方区子站,,27,,12,17,8,86,,84,83,3,10,3,3,0.2,0.2
2025-11-03T2200,1312A,120.2994,36.054,青岛市,市南区西部子站,,27,9,18,3,5,85,,87,87,10,20,7,9,0.3,0.3
2025-11-03T2200,1313A,120.4581,36.0858,青岛市,崂山区子站,,29,7,9,3,1,92,,92,92,6,9,8,8,0.3,0.3
2025-11-03T2200,1315A,120.3999,36.3083,青岛市,城阳区子站,,24,24,27,7,10,58,,82,66,31,20,4,4,0.4,0.4
2025-11-03T2200,3362A,120.5014,36.4034,青岛市,即墨2号,,23,15,22,3,8,72,,79,76,19,20,3,4,0.3,0.3
2025-11-03T2200,3642A,120.3503,36.0736,青岛市,市北区南部,,27,11,19,3,3,84,,85,85,9,15,3,3,0.1,0.1
2025-11-03T2200,3643A,120.3948,36.1805,青岛市,李沧区北部,,24,24,19,9,9,49,,74,64,36,21,5,6,0.4,0.4
2025-11-03T2200,4290A,120.1969,35.9546,青岛市,珠江路669号,,32,7,17,3,7,101,,101,101,3,19,8,9,0.2,0.2
2025-11-03T2200,4291A,120.0424,35.8656,青岛市,黄岛区人民政府广场,,27,14,18,3,3,85,,89,87,8,18,5,5,0.5,0.5
2025-11-03T2200,1702A,113.0426,23.691,清远市,环保大楼,,,,,,,,,,,,,,,,
2025-11-03T2200,1703A,113.0208,23.7106,清远市,凤城街办,,20,16,20,10,14,63,,79,70,12,13,6,7,0.6,0.5
2025-11-03T2200,3025A,113.0477,23.6344,清远市,技师学院,,25,25,24,17,13,47,,70,62,18,18,4,5,0.5,0.4
2025-11-03T2200,3318A,112.9903,23.7403,清远市,清新太和,,24,12,17,8,9,76,,91,83,7,8,7,8,0.6,0.5
2025-11-03T2200,3455A,113.076,23.7198,清远市,清城东城,,20,20,20,12,12,56,,77,68,14,14,6,6,0.6,0.5
2025-11-03T2200,2661A,107.6325,35.7357,庆阳市,庆阳五中,细颗粒物(PM2.5),64,70,70,46,50,67,,85,78,22,21,1,2,0.6,0.5
2025-11-03T2200,2662A,107.6364,35.7067,庆阳市,市环保局,细颗粒物(PM2.5),74,70,69,54,50,82,,95,86,18,19,5,8,0.6,0.6
2025-11-03T2200,1916A,103.7897,25.5035,曲靖市,环境监测站,,15,15,7,8,4,38,,48,43,14,12,3,3,0.5,0.5
2025-11-03T2200,1917A,103.8,25.5364,曲靖市,烟厂办公区,,14,9,6,6,4,42,,50,47,13,12,5,4,0.2,0.3
2025-11-03T2200,3376A,103.7947,25.462,曲靖市,南苑二区,,16,6,6,3,4,49,,55,52,9,11,3,4,0.3,0.5
2025-11-03T2200,3377A,103.7444,25.5261,曲靖市,曲靖师范学院,,14,8,7,3,5,42,,52,47,12,11,1,2,0.2,0.2
2025-11-03T2200,1264A,118.8692,28.9398,衢州市,环保大楼,颗粒物(PM10),64,77,72,37,41,33,,76,60,41,25,5,6,0.5,0.6
2025-11-03T2200,1265A,118.8709,28.9666,衢州市,实验学校,颗粒物(PM10),59,68,66,35,37,34,,76,60,41,24,5,8,0.5,0.5
2025-11-03T2200,1266A,118.8621,28.9808,衢州市,衢州学院,颗粒物(PM10),59,68,68,31,40,31,,74,56,39,20,6,6,0.5,0.5
2025-11-03T2200,1611A,118.5819,24.9117,泉州市,涂山街,,28,22,41,13,26,89,,133,95,8,10,3,4,0.3,0.4
2025-11-03T2200,1612A,118.5972,24.8978,泉州市,津头埔,,28,16,38,11,27,87,,133,94,14,15,2,3,0.4,0.5
2025-11-03T2200,1613A,118.6663,24.9424,泉州市,万安,,28,24,42,10,24,88,,133,94,9,10,3,3,0.5,0.6
2025-11-03T2200,1614A,118.6117,24.9604,泉州市,清源山,,22,,36,15,25,59,,62,62,5,6,1,2,0.4,0.5
2025-11-03T2200,3529A,118.6333,24.9264,泉州市,城华南路,,28,20,40,12,26,88,,132,94,9,9,3,4,0.3,0.4
2025-11-03T2200,2626A,88.8876,29.2718,日喀则市,日喀则监测站,颗粒物(PM10),52,53,20,31,9,63,,97,86,24,15,18,15,0.7,0.5
2025-11-03T2200,3726A,88.8781,29.2426,日喀则市,林业技术推广中心,,24,10,12,3,6,75,,101,97,4,10,6,6,0.3,0.4
2025-11-03T2200,1659A,119.471,35.4209,日照市,监测站,,39,39,21,21,7,12,,77,60,51,24,7,7,0.6,0.4
2025-11-03T2200,1660A,119.523,35.4216,日照市,市政府广场,,41,41,20,3,4,58,,84,75,27,16,8,8,0.6,0.6
2025-11-03T2200,1661A,119.5587,35.4044,日照市,港务局,,39,39,19,9,11,70,,87,85,27,19,8,9,0.5,0.6
2025-11-03T2200,3507A,119.5328,35.4625,日照市,职业技术学院,,21,19,16,3,4,66,,87,82,15,13,4,5,0.6,0.5
2025-11-03T2200,3604A,119.3266,35.1044,日照市,岚山环保分局,,27,17,37,3,14,84,,89,88,11,31,9,35,0.6,2.5
2025-11-03T2200,1835A,111.1922,34.7752,三门峡市,市政府,细颗粒物(PM2.5),103,108,67,77,48,80,,87,87,26,24,13,11,0.6,0.5
2025-11-03T2200,1836A,111.1587,34.7942,三门峡市,开发区,细颗粒物(PM2.5),124,134,92,94,48,69,,88,86,39,32,12,11,0.6,0.3
2025-11-03T2200,1838A,111.143,34.7955,三门峡市,风景区,细颗粒物(PM2.5),105,101,71,79,49,67,,88,87,27,23,14,12,0.6,0.4
2025-11-03T2200,3039A,111.1911,34.7829,三门峡市,三门峡市第一小学,细颗粒物(PM2.5),129,106,74,98,50,77,,92,92,26,23,16,15,0.6,0.5
2025-11-03T2200,3598A,111.1,34.7167,三门峡市,富达温泉假日酒店,细颗粒物(PM2.5),117,132,84,88,56,44,,80,76,61,30,12,13,0.6,0.5
2025-11-03T2200,2324A,117.6211,26.2625,三明市,三钢,,29,20,31,20,34,77,,92,86,10,13,2,2,0.6,0.6
2025-11-03T2200,2325A,117.635,26.2714,三明市,三明二中,,32,,28,22,28,73,,82,79,9,11,3,3,0.5,0.6
2025-11-03T2200,2326A,117.6028,26.2378,三明市,三元区政府,,28,,29,19,27,82,,88,85,9,13,4,5,0.8,1
2025-11-03T2200,2327A,117.7275,26.3108,三明市,洋溪,,28,,21,14,26,88,,89,85,7,9,9,10,1.1,1.2
2025-11-03T2200,1876A,109.5078,18.2489,三亚市,河东子站,,15,,8,6,4,47,,102,68,6,5,3,4,0.4,0.5
2025-11-03T2200,1877A,109.4964,18.2681,三亚市,河西子站,,16,8,10,3,5,50,,102,69,5,4,6,6,0.3,0.4
2025-11-03T2200,3540A,109.7348,18.3443,三亚市,君悦子站,,23,23,11,7,6,42,,100,69,5,5,4,4,0.5,0.6
2025-11-03T2200,2624A,91.7608,29.2313,山南市,山南监测站,,24,17,7,13,3,75,,80,,13,9,5,5,0.3,0.4
2025-11-03T2200,2625A,91.7706,29.2436,山南市,山南人民医院,,30,9,10,6,5,93,,91,91,2,6,4,4,0.1,0.2
