timepoint,stationcode,longitude,latitude,area,positionname,primarypollutant,aqi,pm10,pm10_24h,pm2_5,pm2_5_24h,o3,o3_24h,o3_8h,o3_8h_24h,no2,no2_24h,so2,so2_24h,co,co_24h
2024-02-06T1700,2566A,102.1879,31.914,阿坝藏族羌族自治州,州农科所,,12,9,30,5,10,38,,35,35,9,9,8,6,0.7,0.8
2024-02-06T1700,2568A,102.2502,31.8896,阿坝藏族羌族自治州,马师校,,30,9,13,8,9,96,,73,73,3,7,3,4,0.5,0.5
2024-02-06T1700,3994A,102.2165,31.9024,阿坝藏族羌族自治州,马尔康中学西区,,30,8,14,5,8,95,,76,76,3,5,5,5,0.5,0.5
2024-02-06T1700,2695A,80.292,41.1694,阿克苏地区,电视台,颗粒物(PM10),66,82,55,23,33,80,,56,56,15,25,5,6,0.6,0.8
2024-02-06T1700,2696A,80.2613,41.1551,阿克苏地区,艺术中心,,,91,55,33,33,76,,53,53,15,28,6,6,,0.7
2024-02-06T1700,2204A,105.6467,38.8363,阿拉善盟,西城区西花园,,36,36,54,21,28,86,,78,78,6,10,7,8,0.4,0.6
2024-02-06T1700,2205A,105.6985,38.8411,阿拉善盟,蒙二幼,,38,38,52,15,27,83,,78,77,8,11,9,9,0.7,0.9
2024-02-06T1700,2206A,105.724,38.8516,阿拉善盟,环保局新楼,,28,24,40,15,23,87,,84,80,8,11,6,5,0.5,0.7
2024-02-06T1700,2708A,88.1264,47.8517,阿勒泰地区,市站,,,,16,14,9,60,,72,64,,24,17,5,0.3,0.4
2024-02-06T1700,2630A,80.1161,32.5,阿里地区,阿里监测站,,31,7,7,1,3,98,,87,87,1,5,7,10,0.4,0.4
2024-02-06T1700,3192A,80.0903,32.5028,阿里地区,阿里藏医院,,32,9,10,1,5,102,,83,83,2,6,5,10,0.4,0.5
2024-02-06T1700,2642A,109.0318,32.6537,安康市,香溪洞,细颗粒物(PM2.5),64,54,40,46,37,56,,56,54,10,6,8,7,0.7,0.9
2024-02-06T1700,2643A,109.0281,32.6939,安康市,安康市监测站,细颗粒物(PM2.5),74,55,50,54,44,62,,57,57,16,16,13,36,0.9,0.8
2024-02-06T1700,2644A,109.0072,32.6975,安康市,汉滨区检察院,细颗粒物(PM2.5),64,49,44,46,41,69,,64,64,11,9,14,13,0.7,0.6
2024-02-06T1700,2291A,117.0809,30.5177,安庆市,环科院,细颗粒物(PM2.5),78,76,71,57,61,52,,59,55,15,12,7,7,0.7,0.6
2024-02-06T1700,2292A,117.0331,30.5119,安庆市,马山宾馆,细颗粒物(PM2.5),82,73,76,60,64,53,,61,56,14,11,5,5,0.8,0.7
2024-02-06T1700,2294A,116.9896,30.6145,安庆市,安庆大学,细颗粒物(PM2.5),84,,70,62,64,58,,62,60,14,12,6,7,0.6,0.5
2024-02-06T1700,3173A,117.0598,30.5351,安庆市,市人大,细颗粒物(PM2.5),82,64,72,60,65,51,,58,53,20,18,4,2,0.7,0.7
2024-02-06T1700,3123A,105.9408,26.2431,安顺市,凤凰山,细颗粒物(PM2.5),62,44,15,44,12,34,,31,31,12,12,17,18,0.8,0.9
2024-02-06T1700,3124A,105.9439,26.2564,安顺市,金钟山,细颗粒物(PM2.5),77,,16,56,14,34,,31,31,11,10,17,17,0.8,0.7
2024-02-06T1700,3125A,105.8983,26.2481,安顺市,娄家坡,细颗粒物(PM2.5),54,50,16,38,15,36,,31,31,11,11,15,17,0.9,0.8
2024-02-06T1700,1819A,114.3551,36.1017,安阳市,红庙街,细颗粒物(PM2.5),162,,124,123,123,98,,82,82,15,23,6,6,1.2,1.2
2024-02-06T1700,1820A,114.361,36.0681,安阳市,银杏小区,细颗粒物(PM2.5),176,,114,133,131,99,,75,75,11,21,6,5,1.3,1.3
2024-02-06T1700,3141A,114.3922,36.0878,安阳市,信访局,细颗粒物(PM2.5),190,,123,143,137,104,,86,86,17,23,7,5,1.1,1.2
2024-02-06T1700,3669A,114.4705,36.0637,安阳市,左辅环卫站,细颗粒物(PM2.5),166,131,140,126,130,103,,83,83,22,25,9,5,1.2,1.3
2024-02-06T1700,3703A,114.2917,36.0949,安阳市,安钢职工学校,细颗粒物(PM2.5),178,168,150,134,136,97,,72,72,24,27,8,8,1.2,1.2
2024-02-06T1700,1748A,123.044,41.1196,鞍山市,深沟寺,细颗粒物(PM2.5),73,67,92,53,73,94,,81,81,22,27,8,11,0.6,0.8
2024-02-06T1700,1749A,123.011,41.0931,鞍山市,太阳城,细颗粒物(PM2.5),69,69,90,50,75,94,,80,80,22,28,12,18,0.9,1
2024-02-06T1700,1750A,123.0485,41.1442,鞍山市,太平,细颗粒物(PM2.5),72,66,95,52,73,93,,82,82,24,29,6,11,0.8,1.1
2024-02-06T1700,1751A,122.9642,41.0971,鞍山市,铁西三道街,细颗粒物(PM2.5),65,69,116,47,85,75,,65,65,33,51,12,27,1.5,2.7
2024-02-06T1700,1752A,122.9341,41.0833,鞍山市,铁西工业园区,细颗粒物(PM2.5),58,61,89,41,74,78,,72,72,33,37,18,24,1.1,1.3
2024-02-06T1700,1753A,123.022,41.0821,鞍山市,明达新区,细颗粒物(PM2.5),77,72,83,56,75,86,,76,76,26,29,14,16,0.9,1
2024-02-06T1700,2195A,107.4212,40.761,巴彦淖尔市,附二中,,36,36,46,16,28,80,,79,79,17,19,15,15,0.4,0.5
2024-02-06T1700,2196A,107.37,40.7372,巴彦淖尔市,市环保大楼,,36,36,42,24,25,81,,78,78,14,13,14,8,0.5,0.4
2024-02-06T1700,1956A,86.1472,41.7538,巴音郭楞蒙古自治州,孔雀公园,颗粒物(PM10),65,79,59,41,32,74,,62,50,18,23,6,5,0.7,0.6
2024-02-06T1700,1957A,86.1972,41.7166,巴音郭楞蒙古自治州,棉纺厂,颗粒物(PM10),64,78,72,28,31,79,,47,47,13,47,4,3,0.5,0.7
2024-02-06T1700,1958A,86.2357,41.7173,巴音郭楞蒙古自治州,经济开发区,细颗粒物(PM2.5),64,61,50,46,28,82,,56,54,13,24,4,4,0.5,0.5
2024-02-06T1700,2914A,106.7677,31.8794,巴中市,苏山坪,,36,36,33,25,24,67,,58,58,10,8,4,4,0.6,0.6
2024-02-06T1700,3182A,106.7656,31.8545,巴中市,丽阳花园,,43,40,46,30,35,61,,47,47,17,23,5,4,0.8,0.9
2024-02-06T1700,3183A,106.7418,31.8654,巴中市,圣泉水务公司,,43,35,37,30,33,60,,43,43,17,23,3,3,0.7,0.8
2024-02-06T1700,3616A,106.7616,31.8344,巴中市,市中心医院,,40,37,44,28,34,64,,52,52,11,19,5,5,0.6,0.7
2024-02-06T1700,2235A,122.7911,45.6077,白城市,洮北区环保局,,50,50,68,21,49,66,,61,61,17,17,7,8,0.5,0.6
2024-02-06T1700,2236A,122.8738,45.5725,白城市,市环保局,,,,70,,53,68,,73,73,15,33,5,9,,0.9
2024-02-06T1700,2231A,126.4219,41.9171,白山市,喜丰,颗粒物(PM10),51,52,48,28,27,86,,80,80,18,22,14,28,1.0,1.1
2024-02-06T1700,2232A,126.4077,41.9419,白山市,环保局,颗粒物(PM10),54,57,72,28,34,93,,76,76,13,31,16,21,1.0,1.3
2024-02-06T1700,2647A,104.1724,36.5446,白银市,第三小学,颗粒物(PM10),54,57,52,30,31,106,,94,94,22,17,51,33,1.0,0.9
2024-02-06T1700,2648A,104.1465,36.5482,白银市,动力公司,颗粒物(PM10),57,64,48,35,34,113,,91,91,22,16,51,17,0.8,0.7
2024-02-06T1700,2512A,106.6103,23.9011,百色市,市监测站,,30,30,32,9,14,28,,21,21,11,14,12,11,0.8,0.8
2024-02-06T1700,2513A,106.6538,23.8859,百色市,市中心血站,,29,29,27,8,17,30,,21,21,9,12,10,10,0.9,0.9
2024-02-06T1700,3406A,106.6085,23.8798,百色市,祈福高中,颗粒物(PM10),63,75,38,13,25,28,,,,11,16,10,11,1.1,1
2024-02-06T1700,2270A,117.396,32.939,蚌埠市,工人疗养院,细颗粒物(PM2.5),89,81,72,66,69,126,,105,105,11,10,9,5,0.6,0.4
2024-02-06T1700,2271A,117.3605,32.9427,蚌埠市,百货大楼,细颗粒物(PM2.5),95,82,72,71,65,127,,105,105,19,16,6,2,1.0,0.8
2024-02-06T1700,2273A,117.4185,32.8911,蚌埠市,蚌埠学院,,,70,67,57,64,,,95,95,,10,7,4,0.9,0.6
2024-02-06T1700,2274A,117.3533,32.9673,蚌埠市,淮上区政府,细颗粒物(PM2.5),105,95,74,79,69,133,,108,108,16,14,8,4,0.9,0.7
2024-02-06T1700,2275A,117.3145,32.8977,蚌埠市,高新区,细颗粒物(PM2.5),80,70,66,59,66,122,,101,101,14,14,10,25,0.8,0.6
2024-02-06T1700,3715A,117.3092,32.9314,蚌埠市,蚌埠田家炳中学,细颗粒物(PM2.5),100,90,77,75,68,132,,104,104,17,20,8,5,0.7,0.5
2024-02-06T1700,1585A,109.8756,40.6532,包头市,市环境监测站,,28,15,13,14,9,89,,83,83,13,11,8,7,0.5,0.4
2024-02-06T1700,1587A,109.9991,40.5842,包头市,包头八中,,40,34,22,28,13,92,,81,81,24,18,13,9,0.8,0.6
2024-02-06T1700,1588A,109.8538,40.6821,包头市,青山宾馆,,29,,17,8,9,92,,85,85,14,16,8,8,0.5,0.4
2024-02-06T1700,1589A,109.8642,40.6288,包头市,惠龙物流,,28,10,16,10,11,89,,84,84,12,10,9,8,0.6,0.4
2024-02-06T1700,1590A,110.0377,40.5546,包头市,东河鸿龙湾,,32,24,20,22,13,92,,81,81,21,22,9,7,0.6,0.5
2024-02-06T1700,3283A,109.9154,40.5685,包头市,滨河大厦,,34,33,17,23,10,107,,88,88,15,15,10,5,0.8,0.5
2024-02-06T1700,3419A,109.9447,40.6261,包头市,包头市委党校,,35,35,20,12,12,89,,79,79,21,15,13,9,0.7,0.2
2024-02-06T1700,3683A,109.8331,40.6576,包头市,昆区政府,,28,14,16,9,9,89,,84,84,14,13,8,8,0.6,0.7
2024-02-06T1700,1930A,107.185,34.3063,宝鸡市,庙沟村,,,,67,,70,68,,59,59,2,9,4,4,1.0,1
2024-02-06T1700,1931A,107.0708,34.3017,宝鸡市,竹园沟,细颗粒物(PM2.5),92,76,72,68,71,87,,67,67,13,16,4,4,1.0,1.2
2024-02-06T1700,1932A,107.1906,34.3672,宝鸡市,三陆医院,细颗粒物(PM2.5),95,96,94,71,88,86,,60,60,24,34,5,5,0.9,1.2
2024-02-06T1700,1933A,107.1431,34.3547,宝鸡市,监测站,细颗粒物(PM2.5),95,81,87,71,84,80,,55,55,23,28,3,3,0.9,1
2024-02-06T1700,1934A,107.1186,34.3739,宝鸡市,技工学校,细颗粒物(PM2.5),98,79,87,73,83,82,,62,62,26,25,6,7,0.9,1.1
2024-02-06T1700,1935A,107.3906,34.3528,宝鸡市,陈仓区环保局家属楼,细颗粒物(PM2.5),110,86,102,83,96,74,,57,57,30,36,7,8,1.2,1.3
2024-02-06T1700,1936A,107.2058,34.3497,宝鸡市,文理学院,细颗粒物(PM2.5),95,77,90,71,83,86,,59,59,25,34,6,6,1.1,1.2
2024-02-06T1700,1937A,107.2386,34.3622,宝鸡市,三迪小学,细颗粒物(PM2.5),99,80,89,74,85,71,,54,54,33,31,6,6,1.1,1.2
2024-02-06T1700,1051A,115.493,38.8632,保定市,游泳馆,细颗粒物(PM2.5),119,92,137,90,119,98,,63,63,10,29,3,3,0.8,1.2
2024-02-06T1700,1052A,115.5213,38.8959,保定市,华电二区,细颗粒物(PM2.5),119,,107,90,110,93,,58,58,4,19,5,3,0.6,0.8
2024-02-06T1700,1053A,115.4713,38.9108,保定市,接待中心,细颗粒物(PM2.5),122,,117,92,121,86,,58,58,5,16,6,4,0.8,1.1
2024-02-06T1700,1054A,115.4612,38.8416,保定市,地表水厂,细颗粒物(PM2.5),129,136,144,98,110,94,,63,63,8,34,4,2,1.0,1.4
2024-02-06T1700,3581A,115.31981,38.95208,保定市,满城区生态环境分局,细颗粒物(PM2.5),98,78,117,73,113,82,,61,61,20,23,5,4,0.7,1.3
2024-02-06T1700,3582A,115.47694,38.76408,保定市,清苑区第二中学,细颗粒物(PM2.5),113,107,136,85,110,100,,69,69,8,27,6,3,0.8,1
2024-02-06T1700,3583A,115.62909,39.02311,保定市,徐水物探局,细颗粒物(PM2.5),104,102,123,78,104,89,,56,56,14,30,3,2,0.4,0.9
2024-02-06T1700,4004A,115.4202,38.8656,保定市,双鹰农机,细颗粒物(PM2.5),103,91,119,77,109,92,,61,61,18,29,4,2,0.7,1
2024-02-06T1700,4034A,115.5150,38.8590,保定市,植保所站,细颗粒物(PM2.5),114,105,120,86,123,96,,54,54,12,35,,3,0.9,0.9
2024-02-06T1700,2594A,99.1678,25.1081,保山市,市环境监测站,,39,35,40,27,20,81,,77,77,9,8,5,6,0.5,0.6
2024-02-06T1700,2595A,99.1711,25.1328,保山市,市环保局,,34,34,36,20,23,86,,78,78,3,4,6,6,0.6,0.6
2024-02-06T1700,1867A,109.1436,21.4086,北海市,海滩公园,,27,27,59,17,31,20,,14,14,12,17,6,7,0.8,0.9
2024-02-06T1700,1868A,109.0981,21.4661,北海市,新市环保局,,25,20,42,17,27,22,,18,18,10,14,6,6,0.9,0.8
2024-02-06T1700,1869A,109.1778,21.5233,北海市,北海工业园,,22,15,51,15,29,21,,13,13,12,14,6,7,0.8,0.8
2024-02-06T1700,3400A,109.1911,21.4415,北海市,龙潭自来水厂,,28,22,52,19,32,18,,12,12,10,13,7,8,0.8,0.7
2024-02-06T1700,1001A,116.3621,39.8784,北京市,万寿西宫,,29,28,64,20,50,80,,74,74,13,30,1,2,0.3,0.5
2024-02-06T1700,1002A,116.2202,40.2915,北京市,定陵,,25,19,46,13,39,77,,73,73,5,10,2,2,0.3,0.4
2024-02-06T1700,1003A,116.4174,39.9289,北京市,东四,,29,29,64,19,52,81,,77,77,8,23,4,4,0.3,0.6
2024-02-06T1700,1004A,116.4072,39.8863,北京市,天坛,,29,29,61,19,51,80,,77,77,14,24,2,2,0.3,0.5
2024-02-06T1700,1005A,116.462,39.9365,北京市,农展馆,,27,27,62,18,49,75,,72,72,11,30,3,3,0.3,0.5
2024-02-06T1700,1006A,116.3392,39.9295,北京市,官园,,29,28,61,20,47,87,,82,82,11,27,3,2,0.3,0.7
2024-02-06T1700,1007A,116.2878,39.9611,北京市,海淀万柳,,27,27,58,17,43,77,,74,74,15,33,3,3,0.4,0.6
2024-02-06T1700,1008A,116.6636,40.135,北京市,顺义新城,,26,26,63,15,49,68,,70,70,7,31,1,2,0.3,0.6
2024-02-06T1700,1009A,116.6275,40.3275,北京市,怀柔镇,,25,25,45,17,33,73,,66,66,10,24,4,5,0.4,0.6
2024-02-06T1700,1010A,116.2296,40.217,北京市,昌平镇,,27,22,51,12,37,84,,83,83,5,16,3,3,0.2,0.4
2024-02-06T1700,1011A,116.3966,39.9821,北京市,奥体中心,,26,24,54,17,43,81,,78,78,6,26,4,3,0.3,0.6
2024-02-06T1700,1012A,116.184,39.9136,北京市,古城,,27,25,57,16,43,84,,81,81,4,20,1,2,0.4,0.6
2024-02-06T1700,3281A,115.9718,40.4529,北京市,延庆夏都,,22,19,45,11,36,70,,66,66,6,16,3,2,0.2,0.5
2024-02-06T1700,3417A,117.0709,40.1465,北京市,平谷新城,,35,32,68,24,52,84,,68,68,6,19,2,2,0.3,0.7
2024-02-06T1700,3418A,116.8336,40.4095,北京市,密云新城,,29,27,49,20,32,82,,76,76,5,18,1,2,0.3,0.5
2024-02-06T1700,3672A,116.1541,39.8204,北京市,丰台云岗,,30,24,60,17,46,93,,88,88,7,17,3,3,0.2,0.4
2024-02-06T1700,3673A,116.6804,39.9081,北京市,通州东关,颗粒物(PM10),53,55,85,18,60,75,,63,63,6,27,2,2,0.3,0.7
2024-02-06T1700,3674A,115.9577,39.7603,北京市,房山燕山,细颗粒物(PM2.5),102,85,72,76,67,72,,69,69,27,20,3,3,0.6,0.6
2024-02-06T1700,3675A,116.4672,39.7733,北京市,大兴旧宫,,28,25,71,19,59,75,,69,69,12,22,1,2,0.2,0.6
2024-02-06T1700,3694A,115.986,40.4563,北京市,延庆石河营,,24,21,48,11,34,75,,70,70,6,17,1,2,0.3,0.6
2024-02-06T1700,3695A,116.6151,40.3053,北京市,怀柔新城,,24,24,45,16,31,76,,67,67,6,14,2,2,0.3,0.4
2024-02-06T1700,3696A,116.2545,39.8768,北京市,丰台小屯,,29,29,68,18,50,80,,76,76,14,38,2,2,0.3,0.5
2024-02-06T1700,3697A,116.84,40.3844,北京市,密云镇,,30,30,52,21,38,75,,69,69,7,28,4,4,0.3,0.6
2024-02-06T1700,1761A,123.8275,41.3064,本溪市,大峪,细颗粒物(PM2.5),93,92,119,69,94,92,,84,84,41,41,17,16,0.9,1.3
2024-02-06T1700,1762A,123.7567,41.3325,本溪市,溪湖,细颗粒物(PM2.5),85,88,134,63,100,94,,87,87,26,32,19,17,0.8,1.1
2024-02-06T1700,1763A,123.7169,41.3094,本溪市,彩屯,细颗粒物(PM2.5),100,98,128,75,100,81,,79,79,49,45,17,14,1.0,1.1
2024-02-06T1700,1764A,123.7669,41.2864,本溪市,东明,细颗粒物(PM2.5),99,90,107,74,107,82,,78,78,41,43,16,15,1.0,1.3
2024-02-06T1700,1765A,123.7992,41.2664,本溪市,新立屯,细颗粒物(PM2.5),100,76,112,75,82,89,,84,84,40,48,14,13,0.7,1.5
2024-02-06T1700,1766A,123.8142,41.3472,本溪市,威宁,细颗粒物(PM2.5),104,97,125,78,97,89,,90,90,40,46,12,9,0.7,1.1
2024-02-06T1700,2587A,105.2864,27.3125,毕节市,八中,,33,33,18,23,12,40,,44,44,13,10,7,6,0.9,0.8
2024-02-06T1700,2588A,105.31,27.2944,毕节市,师专,,43,,13,30,13,39,,43,42,13,11,7,7,0.8,0.8
2024-02-06T1700,3537A,105.3631,27.3533,毕节市,长征村,,30,27,16,21,12,47,,44,44,11,9,6,6,0.9,0.8
2024-02-06T1700,1629A,118.0018,37.3617,滨州市,第二水厂,细颗粒物(PM2.5),85,85,88,63,65,96,,78,78,20,38,6,14,0.8,1
2024-02-06T1700,1630A,117.9776,37.393,滨州市,北中新校,细颗粒物(PM2.5),94,94,97,70,66,94,,78,78,21,43,10,14,0.9,1
2024-02-06T1700,3514A,117.9378,37.3956,滨州市,中海酒店,细颗粒物(PM2.5),92,79,83,68,65,97,,82,82,22,37,9,17,0.8,1.1
2024-02-06T1700,3515A,117.9378,37.3553,滨州市,开发区一中,细颗粒物(PM2.5),87,92,99,64,73,94,,77,77,20,43,12,22,0.8,1
2024-02-06T1700,3516A,118.0917,37.694,滨州市,金海六路,细颗粒物(PM2.5),117,109,116,88,83,100,,77,77,18,52,9,12,0.9,1.1
2024-02-06T1700,4028A,117.9956,37.3753,滨州市,滨州市西街道办事处,细颗粒物(PM2.5),92,86,89,68,64,89,,75,75,17,33,12,18,0.9,1.1
2024-02-06T1700,2311A,115.8072,33.8399,亳州市,污水处理厂,细颗粒物(PM2.5),117,94,113,88,108,137,,118,118,13,19,8,6,0.9,0.9
2024-02-06T1700,2312A,115.7789,33.8518,亳州市,三国揽胜宫,细颗粒物(PM2.5),102,96,126,76,91,134,,116,116,16,21,10,8,0.9,1
2024-02-06T1700,3332A,115.7633,33.8034,亳州市,亳州学院,细颗粒物(PM2.5),95,80,110,71,94,130,,115,115,14,18,10,6,0.9,0.9
2024-02-06T1700,2693A,82.0485,44.8556,博尔塔拉蒙古自治州,市党校,细颗粒物(PM2.5),108,129,101,81,73,84,,83,83,39,25,47,21,1.2,1
2024-02-06T1700,2694A,82.0806,44.8969,博尔塔拉蒙古自治州,市环保局,细颗粒物(PM2.5),95,118,125,71,70,90,,71,65,31,36,33,12,1.0,1
2024-02-06T1700,1071A,116.8842,38.2991,沧州市,沧县城建局,细颗粒物(PM2.5),103,81,111,77,97,89,,75,75,24,46,4,5,1.0,1
2024-02-06T1700,1072A,116.8584,38.3254,沧州市,电视转播站,细颗粒物(PM2.5),98,88,102,73,90,92,,81,81,16,29,6,8,0.7,0.7
2024-02-06T1700,1073A,116.8709,38.3228,沧州市,市环保局,细颗粒物(PM2.5),103,96,105,77,88,84,,77,77,20,26,6,5,0.7,0.8
2024-02-06T1700,3324A,116.8136,38.3004,沧州市,河北水利电力学院,细颗粒物(PM2.5),99,90,108,74,93,88,,71,71,12,36,10,9,0.6,0.9
2024-02-06T1700,2622A,97.1806,31.1273,昌都市,昌都监测站,,28,20,25,3,12,87,,70,70,5,17,7,7,0.4,0.5
2024-02-06T1700,3719A,97.1714,31.1406,昌都市,昌都会议中心,,32,13,12,4,8,102,,86,86,3,6,4,4,0.3,0.3
2024-02-06T1700,2690A,88.1236,43.8886,昌吉回族自治州,天山天池,,26,,4,12,7,83,,80,80,6,4,7,6,0.6,0.5
2024-02-06T1700,2692A,87.2717,44.0297,昌吉回族自治州,新区政务中心,,,,270,,206,108,,110,110,28,35,4,6,2.2,2.4
2024-02-06T1700,3613A,87.3095,44.0142,昌吉回族自治州,亚心广场,细颗粒物(PM2.5),274,271,281,224,233,119,,111,111,28,41,1,8,2.1,2.3
2024-02-06T1700,1119A,125.3325,43.9166,长春市,食品厂,细颗粒物(PM2.5),100,,86,75,84,70,,75,75,42,33,10,15,0.7,0.8
2024-02-06T1700,1120A,125.2863,43.9027,长春市,客车厂,细颗粒物(PM2.5),122,,78,92,76,79,,68,68,42,41,12,15,0.8,0.8
2024-02-06T1700,1121A,125.2841,43.8463,长春市,邮电学院,细颗粒物(PM2.5),68,68,89,49,75,56,,64,64,49,38,33,21,0.5,0.7
2024-02-06T1700,1122A,125.3716,43.8772,长春市,劳动公园,细颗粒物(PM2.5),54,49,92,38,76,69,,68,68,34,38,7,10,0.4,0.8
2024-02-06T1700,1123A,125.3297,43.8805,长春市,园林处,细颗粒物(PM2.5),68,53,78,49,69,78,,73,73,27,36,8,18,0.5,0.8
2024-02-06T1700,1124A,125.4605,43.79,长春市,净月潭,细颗粒物(PM2.5),75,60,92,55,81,77,,82,82,23,18,10,15,0.6,0.8
2024-02-06T1700,1126A,125.3863,43.8447,长春市,经开区环卫处,颗粒物(PM10),60,70,101,39,78,75,,68,68,30,38,8,16,0.7,1
2024-02-06T1700,1127A,125.245,43.7783,长春市,高新区管委会,细颗粒物(PM2.5),107,90,109,80,98,70,,60,60,52,57,17,24,1.0,1.2
2024-02-06T1700,1128A,125.1761,43.8325,长春市,岱山公园,细颗粒物(PM2.5),97,75,88,72,80,100,,84,84,29,47,12,19,0.7,0.8
2024-02-06T1700,1335A,113.0833,28.2325,长沙市,经开区环保局,细颗粒物(PM2.5),54,44,38,38,32,70,,75,68,16,13,3,3,0.7,0.6
2024-02-06T1700,1336A,112.8872,28.2189,长沙市,高开区环保局,细颗粒物(PM2.5),69,63,45,50,40,76,,75,70,14,12,2,2,0.8,0.7
2024-02-06T1700,1337A,113.0792,28.2053,长沙市,马坡岭,细颗粒物(PM2.5),58,53,39,41,33,68,,69,64,14,13,5,4,0.8,0.7
2024-02-06T1700,1338A,112.9394,28.19,长沙市,湖南师范大学,颗粒物(PM10),55,60,38,38,28,76,,70,69,13,14,7,7,0.7,0.7
2024-02-06T1700,1339A,113.0178,28.1322,长沙市,雨花区环保局,细颗粒物(PM2.5),57,50,34,40,34,65,,66,61,12,13,2,2,0.9,0.7
2024-02-06T1700,1340A,112.9792,28.2597,长沙市,伍家岭,"颗粒物(PM10),细颗粒物(PM2.5)",52,54,44,36,33,63,,67,62,16,14,3,3,0.8,0.8
2024-02-06T1700,1341A,113.0014,28.1944,长沙市,火车新站,细颗粒物(PM2.5),58,53,37,41,33,73,,73,70,13,11,2,2,0.8,0.7
2024-02-06T1700,1342A,112.9844,28.1178,长沙市,天心区环保局,细颗粒物(PM2.5),67,54,35,48,32,76,,71,68,10,9,3,3,0.5,0.5
2024-02-06T1700,1343A,112.8908,28.1308,长沙市,湖南中医药大学,细颗粒物(PM2.5),63,63,41,45,36,77,,74,71,11,11,3,3,0.7,0.6
2024-02-06T1700,1344A,112.9581,28.3611,长沙市,沙坪,,49,36,32,34,29,49,,47,46,5,4,3,3,0.9,0.8
2024-02-06T1700,1727A,113.1147,36.1547,长治市,清华站,细颗粒物(PM2.5),94,81,94,70,90,101,,82,82,27,39,17,25,0.9,1.1
2024-02-06T1700,1728A,113.1031,36.1989,长治市,监测站,细颗粒物(PM2.5),83,63,90,61,94,102,,80,80,32,47,23,29,0.9,1.1
2024-02-06T1700,1730A,113.0886,36.2125,长治市,审计局,细颗粒物(PM2.5),85,,96,63,95,103,,83,83,23,39,22,30,1.1,1.3
2024-02-06T1700,1731A,113.0844,36.1856,长治市,长治八中,,,71,104,,,105,,83,83,20,53,12,25,1.0,1.4
2024-02-06T1700,2845A,113.1569,36.1911,长治市,德盛苑,细颗粒物(PM2.5),94,73,87,70,85,107,,88,88,25,27,36,25,1.3,1.3
2024-02-06T1700,3568A,113.06,36.0464,长治市,向阳小学,细颗粒物(PM2.5),99,96,106,74,97,113,,100,100,28,37,18,28,0.9,1.3
2024-02-06T1700,3569A,112.8792,36.3144,长治市,屯留一中,颗粒物(PM10),125,200,99,58,90,113,,89,89,11,28,14,21,0.7,1.4
2024-02-06T1700,3570A,113.235,36.3489,长治市,潞城四中,细颗粒物(PM2.5),115,102,122,87,111,108,,90,90,24,45,19,15,1.7,1.4
2024-02-06T1700,1854A,111.6975,28.9703,常德市,市二中,细颗粒物(PM2.5),97,78,89,72,87,86,,81,81,16,15,5,5,0.8,0.9
2024-02-06T1700,1857A,111.7158,29.1456,常德市,白鹤山,细颗粒物(PM2.5),85,85,92,63,75,54,,50,50,5,6,1,2,0.6,0.7
2024-02-06T1700,3138A,111.7153,29.0289,常德市,武陵区永安,细颗粒物(PM2.5),85,71,90,63,78,85,,80,80,16,16,6,6,0.7,0.8
2024-02-06T1700,3139A,111.6892,28.9881,常德市,鼎城区玉霞,细颗粒物(PM2.5),99,,89,74,88,86,,79,79,12,16,6,6,0.9,0.9
2024-02-06T1700,3140A,111.6625,29.0531,常德市,武陵区长庚,细颗粒物(PM2.5),93,,97,69,84,83,,78,78,17,16,3,4,0.8,0.8
2024-02-06T1700,1196A,119.9633,31.762,常州市,市监测站,细颗粒物(PM2.5),73,58,71,53,60,72,,68,68,22,18,13,7,0.7,0.7
2024-02-06T1700,1200A,119.9468,31.7069,常州市,武进监测站,细颗粒物(PM2.5),58,56,65,41,55,66,,64,64,28,21,2,3,0.7,0.7
2024-02-06T1700,1201A,119.9255,31.9087,常州市,安家,细颗粒物(PM2.5),69,53,62,50,55,76,,71,71,20,20,7,6,0.6,0.6
2024-02-06T1700,3002A,119.9805,31.8174,常州市,行政中心,细颗粒物(PM2.5),67,55,64,48,56,72,,65,65,19,18,8,7,0.8,0.9
2024-02-06T1700,3003A,120.0522,31.7748,常州市,经开区,细颗粒物(PM2.5),69,61,66,50,55,73,,75,75,21,19,9,8,0.6,0.6
2024-02-06T1700,3010A,119.9025,31.7964,常州市,钟楼,细颗粒物(PM2.5),69,58,65,50,58,65,,64,64,28,21,9,7,0.9,0.8
2024-02-06T1700,3429A,119.8598,31.7066,常州市,武进经发区,细颗粒物(PM2.5),77,66,68,56,63,65,,68,68,36,21,8,6,1.1,1
2024-02-06T1700,3430A,119.5826,31.7245,常州市,金坛城区,细颗粒物(PM2.5),65,57,72,47,63,77,,73,73,18,16,8,7,0.7,0.7
2024-02-06T1700,2220A,120.4318,41.5881,朝阳市,西梁,,50,50,59,21,34,77,,62,62,14,26,15,16,0.6,1.2
2024-02-06T1700,2221A,120.4521,41.5646,朝阳市,河畔小区,,41,41,41,19,29,83,,69,69,11,20,10,9,0.7,1
2024-02-06T1700,2222A,120.4176,41.5648,朝阳市,八里堡,颗粒物(PM10),54,58,51,25,31,82,,66,66,15,27,13,14,0.8,1.3
2024-02-06T1700,2223A,120.3806,41.5969,朝阳市,农业园区,,,60,49,30,38,76,,60,60,18,25,,11,0.9,1
2024-02-06T1700,1705A,116.6367,23.6719,潮州市,西园路,,39,39,31,27,18,102,,77,77,15,13,5,4,0.7,0.5
2024-02-06T1700,3026A,116.6183,23.6608,潮州市,市政府,,40,40,25,20,18,103,,78,78,12,12,6,5,0.9,0.8
2024-02-06T1700,4036A,116.6461,23.6761,潮州市,金山,,45,43,36,31,24,100,,,,11,10,6,6,0.7,0.7
2024-02-06T1700,2472A,113.0073,25.9061,郴州市,马头岭,,19,16,21,13,16,53,,49,49,5,6,3,3,1.3,1.3
2024-02-06T1700,2473A,113.0116,25.8226,郴州市,市职中,,15,12,20,6,17,48,,43,43,9,10,2,2,0.8,0.7
2024-02-06T1700,2474A,113.0161,25.8001,郴州市,兴隆步行街,,14,10,22,9,20,44,,41,41,12,11,3,2,0.8,0.8
2024-02-06T1700,2475A,113.0383,25.8071,郴州市,市审计局,,14,11,19,3,15,43,,40,40,12,11,3,3,1.0,1
2024-02-06T1700,2476A,113.0348,25.7759,郴州市,市环保局,,12,12,22,7,18,38,,36,36,17,15,2,2,1.0,0.9
2024-02-06T1700,1431A,103.9728,30.7236,成都市,金泉两河,,49,41,34,34,21,64,,44,44,8,13,3,3,0.6,0.7
2024-02-06T1700,1432A,104.176,30.6872,成都市,十里店,细颗粒物(PM2.5),92,,38,68,31,77,,43,43,7,21,3,2,0.5,0.8
2024-02-06T1700,1433A,104.079,30.5706,成都市,三瓦窑,细颗粒物(PM2.5),52,46,49,36,27,66,,35,35,12,29,3,2,0.7,0.8
2024-02-06T1700,1434A,104.1114,30.63,成都市,沙河铺,"颗粒物(PM10),细颗粒物(PM2.5)",54,58,45,38,34,68,,40,40,13,21,2,2,0.5,0.6
2024-02-06T1700,1437A,104.0786,30.6531,成都市,君平街,细颗粒物(PM2.5),57,55,42,40,37,64,,43,43,19,24,4,4,0.6,0.7
2024-02-06T1700,1438A,103.613,31.0283,成都市,灵岩寺,,,8,5,,14,62,,65,55,89,28,7,6,0.9,0.8
2024-02-06T1700,2880A,104.0239,30.65639,成都市,大石西路,细颗粒物(PM2.5),64,53,42,46,33,63,,41,41,19,30,4,5,0.7,0.7
2024-02-06T1700,3136A,104.2725,30.5589,成都市,龙泉驿区区政府,,39,36,46,27,37,69,,45,45,9,21,1,2,0.6,0.7
2024-02-06T1700,3357A,104.0106,30.6931,成都市,金博路,细颗粒物(PM2.5),58,51,44,41,30,57,,38,38,16,22,3,3,0.7,0.8
2024-02-06T1700,3359A,104.0578,30.5225,成都市,华阳,细颗粒物(PM2.5),58,48,46,41,37,63,,34,34,10,21,1,2,0.6,0.7
2024-02-06T1700,3487A,104.2394,30.5319,成都市,车城东七路,,46,40,50,32,40,67,,44,44,11,22,1,1,0.8,0.8
2024-02-06T1700,3488A,104.3853,30.7453,成都市,青白江技师分院,细颗粒物(PM2.5),59,50,50,42,36,69,,50,50,9,23,7,7,0.7,0.8
2024-02-06T1700,3489A,104.0789,30.4072,成都市,科学城,细颗粒物(PM2.5),57,47,44,40,37,77,,43,43,6,18,3,3,0.8,0.8
2024-02-06T1700,4011A,103.8506,30.6947,成都市,光华大道三段,,42,38,38,29,20,52,,35,35,13,16,3,3,0.8,0.8
2024-02-06T1700,1062A,117.9531,40.9081,承德市,铁路,,44,44,52,18,31,81,,66,66,10,35,10,11,0.4,0.8
2024-02-06T1700,1063A,117.9392,40.9763,承德市,中国银行,颗粒物(PM10),52,53,62,27,32,84,,72,72,11,33,9,9,0.5,0.8
2024-02-06T1700,1064A,117.9503,40.928,承德市,开发区,,42,42,51,24,32,88,,71,71,9,32,5,6,0.4,0.7
2024-02-06T1700,1065A,117.8051,40.9655,承德市,文化中心,,46,46,69,27,30,83,,77,77,8,38,6,6,0.4,0.7
2024-02-06T1700,1066A,117.9268,41.0026,承德市,离宫,,38,38,40,24,31,88,,70,70,4,17,6,5,0.4,0.5
2024-02-06T1700,2314A,117.47,30.6618,池州市,池州学院,细颗粒物(PM2.5),129,115,94,98,84,31,,52,38,24,13,5,4,0.8,0.6
2024-02-06T1700,3237A,117.4918,30.6617,池州市,展览馆,细颗粒物(PM2.5),127,115,96,96,79,32,,53,38,24,14,5,12,0.9,0.6
2024-02-06T1700,3333A,117.5627,30.695,池州市,第八中学,细颗粒物(PM2.5),128,108,91,97,78,29,,54,37,27,14,2,2,0.9,0.7
2024-02-06T1700,3334A,117.5038,30.6243,池州市,第十二中学,细颗粒物(PM2.5),120,102,91,91,85,25,,54,37,27,15,2,2,1.1,0.7
2024-02-06T1700,1744A,118.9233,42.2816,赤峰市,松山一中,,36,31,65,25,39,73,,65,65,22,42,8,25,0.6,1.2
2024-02-06T1700,1745A,118.9576,42.2728,赤峰市,哈达街,,26,26,59,16,37,62,,59,59,30,35,12,37,0.7,1.2
2024-02-06T1700,1746A,118.8788,42.2554,赤峰市,天义路,,26,20,54,18,36,71,,66,66,21,30,9,18,0.4,1
2024-02-06T1700,3058A,119.2658,42.0353,赤峰市,银河街,颗粒物(PM10),57,64,58,29,39,74,,63,63,14,23,15,21,0.5,1
2024-02-06T1700,3286A,118.9359,42.3147,赤峰市,桥北物流园区,,30,30,50,21,43,86,,76,76,7,26,9,14,0.6,1
2024-02-06T1700,2521A,107.3476,22.4136,崇左市,市环保局江州分局,,25,25,26,13,17,17,,15,15,9,15,6,6,0.5,0.6
2024-02-06T1700,2522A,107.3702,22.3707,崇左市,城南新区,,14,14,22,8,18,18,,14,14,13,17,6,6,0.6,0.6
2024-02-06T1700,2298A,118.3093,32.3153,滁州市,老年大学,细颗粒物(PM2.5),74,62,65,54,63,101,,92,92,19,16,7,5,0.8,0.7
2024-02-06T1700,2299A,118.3244,32.2786,滁州市,人大宾馆,细颗粒物(PM2.5),68,82,70,49,60,99,,84,84,23,13,6,6,0.7,0.6
2024-02-06T1700,3207A,118.3118,32.3038,滁州市,市政府原办公楼,细颗粒物(PM2.5),70,65,61,51,56,97,,89,89,22,17,5,4,0.6,0.5
2024-02-06T1700,3331A,118.3267,32.2634,滁州市,图书馆,细颗粒物(PM2.5),65,73,71,47,59,100,,89,89,18,18,6,6,0.7,0.7
2024-02-06T1700,2605A,101.5482,25.0441,楚雄彝族自治州,州环境监测站,,29,19,29,11,20,90,,88,88,4,15,5,6,0.5,0.7
2024-02-06T1700,2606A,101.538,25.0492,楚雄彝族自治州,市经济开发区,,29,29,36,13,24,83,,79,79,4,22,6,6,0.4,0.7
2024-02-06T1700,2548A,107.5277,31.2827,达州市,达州职业技术学院,,25,25,45,17,29,48,,45,45,26,23,12,11,0.8,0.8
2024-02-06T1700,2549A,107.5086,31.2186,达州市,市环境监测站,,32,32,50,19,31,46,,34,34,21,30,12,11,0.7,0.8
2024-02-06T1700,2550A,107.4988,31.2132,达州市,凤凰小区,,35,29,47,24,32,46,,35,35,22,29,12,10,0.6,0.8
2024-02-06T1700,2551A,107.5082,31.1986,达州市,达县机关宾馆,,29,29,50,20,35,39,,30,30,27,30,10,9,0.8,0.9
2024-02-06T1700,2552A,107.4644,31.2124,达州市,市政中心,,35,35,53,19,31,44,,32,32,24,33,10,10,1.1,1.1
2024-02-06T1700,2614A,100.1542,25.7054,大理白族自治州,大理市环境监测站,,40,,28,28,25,71,,86,80,6,5,6,6,0.5,0.5
2024-02-06T1700,2615A,100.2171,25.5811,大理白族自治州,大理古城,,23,23,22,14,19,63,,90,,17,5,6,6,0.6,0.6
2024-02-06T1700,1109A,121.612,38.9741,大连市,甘井子,,26,22,37,17,30,83,,83,83,11,12,7,6,0.7,0.7
2024-02-06T1700,1110A,121.565,38.9511,大连市,周水子,,25,24,38,16,31,80,,84,84,15,14,8,7,0.6,0.7
2024-02-06T1700,1111A,121.5637,38.8845,大连市,星海三站,,,33,42,20,32,,,80,80,17,15,9,9,,0.6
2024-02-06T1700,1112A,121.6302,38.9117,大连市,青泥洼桥,,25,24,41,17,29,73,,73,73,18,15,13,12,0.6,0.7
2024-02-06T1700,1113A,121.6251,38.8638,大连市,傅家庄,,25,25,39,17,29,78,,78,78,11,11,14,14,0.9,1
2024-02-06T1700,1114A,121.5213,38.8661,大连市,七贤岭,,25,22,34,12,24,80,,81,81,12,13,12,12,0.5,0.6
2024-02-06T1700,1115A,121.2529,38.8061,大连市,旅顺,,40,30,28,28,24,70,,71,71,17,15,9,10,0.7,0.9
2024-02-06T1700,1116A,121.7485,39.1311,大连市,金州,,28,25,39,19,33,87,,87,87,9,10,5,7,0.5,0.6
2024-02-06T1700,1117A,121.7811,39.0496,大连市,开发区,,26,26,44,15,31,79,,77,77,13,15,6,9,0.6,0.7
2024-02-06T1700,1118A,121.9762,39.0631,大连市,双D港,,28,28,48,15,33,87,,86,86,9,13,7,10,0.7,0.8
2024-02-06T1700,1789A,124.81117,46.03138,大庆市,大同区,细颗粒物(PM2.5),63,56,108,45,90,57,,60,60,30,31,12,11,0.6,0.9
2024-02-06T1700,1790A,125.129,46.533,大庆市,龙凤区,颗粒物(PM10),68,86,79,43,55,56,,57,57,38,46,10,11,0.8,0.9
2024-02-06T1700,1791A,124.902,46.408,大庆市,红岗区,,33,31,56,23,44,69,,68,68,25,27,20,12,0.5,0.8
2024-02-06T1700,1792A,125.153,46.586,大庆市,萨尔图区,细颗粒物(PM2.5),58,61,57,41,39,60,,58,58,37,35,12,11,0.7,0.7
2024-02-06T1700,1793A,124.9042,46.6215,大庆市,让胡路区,颗粒物(PM10),52,53,44,29,24,71,,65,65,21,38,10,11,0.5,0.6
2024-02-06T1700,3481A,125.141,46.634,大庆市,萨区政府监测点,细颗粒物(PM2.5),77,60,44,56,37,73,,68,66,28,25,13,13,0.6,0.6
2024-02-06T1700,1723A,113.2994,40.0758,大同市,云冈宾馆,,30,,44,14,37,96,,92,92,7,17,9,10,0.3,0.7
2024-02-06T1700,1724A,113.3444,40.0917,大同市,大同大学,,29,,53,17,41,90,,84,84,14,24,10,11,0.4,0.9
2024-02-06T1700,1725A,113.2661,40.1269,大同市,安家小村,,29,22,53,16,38,90,,88,88,8,15,11,12,0.5,0.8
2024-02-06T1700,1726A,113.2711,40.0844,大同市,教育学院,,27,18,56,15,42,84,,84,84,17,28,6,9,0.5,0.7
2024-02-06T1700,3282A,113.3397,40.0597,大同市,大同市卫生学校,,30,19,47,15,40,93,,86,86,6,15,6,8,0.5,1
2024-02-06T1700,3565A,113.1367,40.1122,大同市,云冈站,,30,25,55,18,42,95,,85,85,11,18,7,20,0.5,0.8
2024-02-06T1700,3566A,113.1186,40.2556,大同市,图书馆,,,34,59,7,45,83,,73,73,12,17,,18,0.9,1.1
2024-02-06T1700,3567A,113.5931,40.0461,大同市,区一中,,28,22,87,14,61,89,,80,80,8,18,30,32,0.4,0.9
2024-02-06T1700,3676A,113.2802,40.0995,大同市,第二人民医院,,31,31,58,12,38,96,,92,92,6,19,6,6,0.4,0.8
2024-02-06T1700,2269A,124.1069,50.4097,大兴安岭地区,科技局,,24,17,23,15,21,74,,72,72,8,10,7,9,0.3,0.4
2024-02-06T1700,3663A,124.1164,50.4278,大兴安岭地区,红旗社区,,24,12,33,4,25,76,,71,71,5,26,4,13,0.3,0.5
2024-02-06T1700,1600A,124.3303,40.0625,丹东市,江湾东路,细颗粒物(PM2.5),80,63,58,59,53,105,,99,99,19,21,13,17,1.1,1.2
2024-02-06T1700,1601A,124.4256,40.1503,丹东市,临江后街,细颗粒物(PM2.5),72,73,72,52,52,97,,95,95,31,31,13,16,1.2,1.3
2024-02-06T1700,1602A,124.3933,40.1461,丹东市,元宝山,细颗粒物(PM2.5),75,60,62,55,52,96,,92,92,22,24,10,14,1.1,1.3
2024-02-06T1700,1603A,124.3633,40.1092,丹东市,民主桥,细颗粒物(PM2.5),69,71,65,50,50,83,,85,85,37,30,14,16,1.1,1.1
2024-02-06T1700,3541A,109.5726,19.5167,儋州市,第一中学子站,,22,22,19,14,14,55,,53,53,1,2,5,5,0.3,0.3
2024-02-06T1700,3542A,109.5567,19.5187,儋州市,东坡学校子站,,23,23,22,16,14,57,,51,51,2,3,7,6,0.4,0.4
2024-02-06T1700,2616A,98.5842,24.428,德宏傣族景颇族自治州,德宏州监测站,细颗粒物(PM2.5),53,47,57,37,42,85,,53,53,10,29,2,8,0.5,0.7
2024-02-06T1700,3677A,98.5881,24.4368,德宏傣族景颇族自治州,芒市人民政府综合楼,,50,50,56,27,37,80,,51,51,10,23,6,15,0.5,0.7
2024-02-06T1700,1901A,104.4239,31.1208,德阳市,东山公园,,48,37,46,33,39,80,,57,57,6,16,1,3,0.6,0.7
2024-02-06T1700,1902A,104.3826,31.1317,德阳市,西小区,细颗粒物(PM2.5),53,42,57,37,46,77,,51,51,11,27,3,3,0.6,0.8
2024-02-06T1700,1904A,104.3553,31.1091,德阳市,耐火材料厂,,49,46,54,34,44,80,,48,48,7,19,2,3,0.5,0.6
2024-02-06T1700,3639A,104.4019,31.1244,德阳市,市教育局,,46,41,50,32,40,79,,49,49,9,26,1,2,0.6,0.8
2024-02-06T1700,1622A,116.3032,37.4674,德州市,儿童乐园,细颗粒物(PM2.5),119,112,118,90,90,103,,85,85,16,35,10,8,1.2,1.1
2024-02-06T1700,1624A,116.2991,37.4451,德州市,监理站,细颗粒物(PM2.5),122,105,120,92,95,104,,91,91,18,42,10,9,1.1,1.1
2024-02-06T1700,3066A,116.2721,37.4379,德州市,九衢泉纯净水厂,细颗粒物(PM2.5),114,107,129,86,100,98,,83,83,18,43,11,10,1.0,1.1
2024-02-06T1700,3371A,116.3728,37.4403,德州市,开发区人民医院,细颗粒物(PM2.5),98,107,116,73,80,102,,82,82,16,46,10,8,0.9,0.9
2024-02-06T1700,3372A,116.3572,37.4094,德州市,太阳城中学,细颗粒物(PM2.5),113,105,108,85,88,100,,78,78,15,30,9,8,1.2,1
2024-02-06T1700,3511A,116.5652,37.3319,德州市,陵城艺术中心,细颗粒物(PM2.5),113,127,150,85,116,95,,86,86,28,38,9,9,0.9,1.3
2024-02-06T1700,2621A,99.7056,27.8317,迪庆藏族自治州,迪庆州站,,30,14,22,13,15,93,,98,88,7,9,9,9,0.4,0.5
2024-02-06T1700,3180A,99.7136,27.8094,迪庆藏族自治州,质量技术监督局,,29,17,19,6,12,90,,94,85,4,5,8,8,0.4,0.6
2024-02-06T1700,2663A,104.6241,35.5734,定西市,东关小学,,36,36,65,24,48,90,,77,77,5,19,8,13,0.4,0.9
2024-02-06T1700,2664A,104.6194,35.5934,定西市,供电公司,,38,38,63,26,50,92,,76,76,1,16,3,6,0.3,0.7
2024-02-06T1700,1389A,113.7547,23.0494,东莞市,莞城梨川,,40,40,25,27,16,122,,77,77,19,19,7,7,0.7,0.9
2024-02-06T1700,1390A,113.7944,23.0128,东莞市,东城石井,,41,38,24,24,15,131,,83,83,14,17,7,7,0.8,0.8
2024-02-06T1700,1391A,113.7383,22.9658,东莞市,南城西平,,45,45,25,24,14,131,,84,84,23,21,8,7,0.8,0.9
2024-02-06T1700,3319A,113.7338,23.0381,东莞市,万江金泰,,45,44,26,31,15,121,,76,76,16,15,8,8,0.9,0.9
2024-02-06T1700,3626A,113.7533,23.0202,东莞市,南城元岭,,41,41,25,28,14,109,,70,70,16,15,9,8,0.9,0.9
2024-02-06T1700,3627A,113.7875,23.0457,东莞市,东城主山,,38,35,22,22,14,121,,82,82,12,15,8,8,0.8,0.9
2024-02-06T1700,1666A,118.6614,37.4309,东营市,市环保局,细颗粒物(PM2.5),89,75,50,66,34,99,,93,93,21,26,10,19,0.8,0.6
2024-02-06T1700,3036A,118.6904,37.4338,东营市,开发区管委会,细颗粒物(PM2.5),107,94,52,80,38,96,,88,88,27,25,7,9,0.8,0.6
2024-02-06T1700,3365A,118.5719,37.565,东营市,垦利区民丰路,细颗粒物(PM2.5),79,66,68,58,47,108,,88,88,20,36,11,13,0.9,1.1
2024-02-06T1700,3498A,118.5055,37.8612,东营市,河口城区,细颗粒物(PM2.5),122,127,106,92,75,100,,85,85,17,36,5,7,1.1,1
2024-02-06T1700,3646A,118.4978,37.4623,东营市,胜利站,细颗粒物(PM2.5),107,112,75,80,50,97,,84,84,28,41,16,23,0.9,0.6
2024-02-06T1700,3734A,118.35,37.26,东营市,理想之城,细颗粒物(PM2.5),83,88,57,61,37,90,,80,80,30,43,9,12,1.1,0.8
2024-02-06T1700,1591A,110.0023,39.8129,鄂尔多斯市,综合楼,,28,27,34,17,24,88,,84,84,21,19,9,6,0.6,0.6
2024-02-06T1700,1592A,109.9486,39.8261,鄂尔多斯市,巴音孟克林场办事处,,35,34,36,24,27,80,,74,74,18,21,11,8,0.6,0.6
2024-02-06T1700,1593A,109.7736,39.5986,鄂尔多斯市,康泽苑,,32,31,37,22,28,96,,86,86,16,18,11,6,0.9,0.7
2024-02-06T1700,1594A,109.8119,39.5989,鄂尔多斯市,华泰汽车城,,39,31,45,27,33,96,,84,84,18,26,16,6,0.8,0.7
2024-02-06T1700,1595A,109.9734,39.7884,鄂尔多斯市,奥林花园,,31,31,40,19,24,84,,77,77,18,20,10,7,0.5,0.6
2024-02-06T1700,2436A,114.8938,30.3994,鄂州市,市政府,细颗粒物(PM2.5),78,64,59,57,60,60,,54,54,27,24,5,5,1.3,1.2
2024-02-06T1700,2437A,114.8989,30.3714,鄂州市,赵家坝,细颗粒物(PM2.5),85,,53,63,63,58,,57,57,27,19,4,3,1.1,0.9
2024-02-06T1700,3654A,114.8094,30.4089,鄂州市,精准医疗中心,细颗粒物(PM2.5),83,84,71,61,59,82,,76,76,11,9,5,6,1.0,0.9
2024-02-06T1700,2454A,109.4978,30.2981,恩施土家族苗族自治州,湖北民院,,45,45,47,23,29,57,,49,49,9,15,12,11,1.2,1.2
2024-02-06T1700,2455A,109.4707,30.2798,恩施土家族苗族自治州,州电力总公司,,45,34,36,31,28,52,,44,44,19,22,5,5,1.1,1.1
2024-02-06T1700,3549A,109.5061,30.3772,恩施土家族苗族自治州,龙凤新区,,40,,33,28,35,47,,42,42,16,15,6,6,1.1,1.1
2024-02-06T1700,2499A,108.3411,21.6158,防城港市,沙万,,12,12,15,4,8,25,,19,19,8,10,3,2,0.5,0.6
2024-02-06T1700,2500A,108.3514,21.7731,防城港市,防城档案局,,17,17,17,7,10,27,,22,22,13,15,4,4,0.6,0.6
2024-02-06T1700,2501A,108.3506,21.6414,防城港市,大海花园,,14,14,17,2,8,27,,20,20,10,14,3,3,0.7,1
2024-02-06T1700,1371A,113.1294,23.0067,佛山市,湾梁,,34,34,24,13,9,24,,24,24,20,18,9,9,0.9,0.9
2024-02-06T1700,1372A,113.1083,23.0478,佛山市,华材职中,,,22,21,14,12,23,,23,23,25,24,8,8,,0.9
2024-02-06T1700,1373A,113.144,23.0453,佛山市,南海气象局,,28,28,19,13,13,24,,24,24,24,22,7,6,0.8,0.7
2024-02-06T1700,1374A,113.2881,22.8094,佛山市,顺德苏岗,,38,38,18,19,10,33,,26,26,27,24,8,8,0.8,0.8
2024-02-06T1700,1376A,112.8383,22.8678,佛山市,高明孔堂,,42,42,28,28,7,28,,24,24,15,12,5,4,0.8,0.8
2024-02-06T1700,1377A,112.8836,23.1588,佛山市,三水监测站,,19,19,15,10,4,20,,19,19,12,11,6,6,0.9,0.8
2024-02-06T1700,1378A,112.867,23.185,佛山市,三水云东海,,23,23,14,11,9,25,,23,23,18,16,6,6,0.8,0.8
2024-02-06T1700,3625A,113.2544,22.7642,佛山市,容桂街道办,,27,27,18,12,9,31,,24,24,23,21,6,5,0.9,0.8
2024-02-06T1700,1282A,119.2681,26.0504,福州市,师大,,30,30,20,21,13,54,,62,52,17,14,6,5,0.7,0.7
2024-02-06T1700,1283A,119.2984,26.1028,福州市,五四北路,,,,12,,11,48,,64,52,21,13,,2,0.8,0.7
2024-02-06T1700,1284A,119.2648,26.0768,福州市,杨桥西路,,33,33,17,20,10,50,,62,54,17,11,3,3,0.5,0.8
2024-02-06T1700,1285A,119.317,26.0746,福州市,紫阳,,39,39,17,26,10,46,,61,50,19,10,5,5,0.7,0.7
2024-02-06T1700,3048A,119.5799,26.0936,福州市,九龙,,27,27,21,17,15,69,,65,64,10,9,2,2,0.6,0.6
2024-02-06T1700,3526A,119.5189,25.9664,福州市,吴航,,28,28,22,19,15,66,,66,63,10,8,3,3,0.6,0.6
2024-02-06T1700,1755A,123.7977,41.8491,抚顺市,望花区,颗粒物(PM10),52,53,94,31,81,91,,88,88,22,28,13,20,0.7,1
2024-02-06T1700,1756A,123.9161,41.8822,抚顺市,顺城区,细颗粒物(PM2.5),67,69,130,48,113,102,,87,87,19,37,8,10,0.7,1.2
2024-02-06T1700,1757A,124.0436,41.8611,抚顺市,东洲区,颗粒物(PM10),65,80,155,37,122,95,,85,85,17,36,10,12,0.5,1.3
2024-02-06T1700,1758A,123.9247,41.8642,抚顺市,新抚区,"颗粒物(PM10),细颗粒物(PM2.5)",62,74,122,44,102,100,,86,86,26,42,9,10,0.6,1.1
2024-02-06T1700,1759A,124.0972,41.8961,抚顺市,大伙房水库,细颗粒物(PM2.5),67,75,141,48,116,104,,93,93,15,36,12,12,0.6,1.1
2024-02-06T1700,1760A,123.7086,41.8391,抚顺市,沈抚新城,细颗粒物(PM2.5),55,55,94,39,74,116,,107,107,16,22,7,10,0.7,1
2024-02-06T1700,2376A,116.2127,28.0814,抚州市,桐源党溪,,26,25,47,18,35,42,,44,43,11,8,2,3,0.8,0.8
2024-02-06T1700,2377A,116.3544,27.9831,抚州市,市站,,23,22,37,16,27,46,,49,48,15,13,4,5,1.3,1.3
2024-02-06T1700,2378A,116.3565,27.963,抚州市,血防站,,,26,42,10,27,45,,48,46,,8,2,3,0.9,1.3
2024-02-06T1700,2379A,116.3564,28.0007,抚州市,采茶剧团,,18,16,34,12,31,46,,48,47,11,9,4,4,0.9,0.9
2024-02-06T1700,2380A,116.385,27.9647,抚州市,医学分院,,27,27,36,11,23,47,,48,48,11,9,4,4,1.0,1
2024-02-06T1700,2207A,121.6094,41.998,阜新市,工业园区,,38,27,44,26,27,81,,79,79,15,17,5,11,0.4,0.7
2024-02-06T1700,2208A,121.6697,42.0279,阜新市,长青街,,26,14,25,12,21,83,,80,80,9,10,4,7,1.0,0.6
2024-02-06T1700,2209A,121.6673,42.0705,阜新市,农业园区,,28,20,25,12,20,87,,85,85,8,10,8,9,0.5,0.6
2024-02-06T1700,2210A,121.6717,42.0224,阜新市,东苑,,29,21,31,17,22,90,,89,89,14,15,5,6,1.3,0.8
2024-02-06T1700,2211A,121.6506,42.0498,阜新市,玉龙新城,,28,18,30,14,23,89,,84,84,6,16,6,6,0.4,0.6
2024-02-06T1700,2301A,115.8277,32.8929,阜阳市,市监测站,细颗粒物(PM2.5),158,121,91,120,90,142,,118,118,20,21,6,6,0.8,0.7
2024-02-06T1700,2303A,115.8554,32.8605,阜阳市,开发区,细颗粒物(PM2.5),124,137,110,94,82,136,,113,113,25,30,6,5,1.2,1.1
2024-02-06T1700,2875A,115.784,32.8892,阜阳市,阜阳职业技术学院,细颗粒物(PM2.5),134,109,90,102,81,142,,114,114,19,23,4,4,0.9,0.8
2024-02-06T1700,3468A,115.7901,32.8613,阜阳市,市规划展馆,细颗粒物(PM2.5),129,116,94,98,79,138,,115,115,24,25,6,5,0.8,0.7
2024-02-06T1700,3469A,115.836,32.9183,阜阳市,枣园社区,细颗粒物(PM2.5),137,129,105,104,88,143,,114,114,19,29,5,5,0.8,0.8
2024-02-06T1700,2669A,102.9099,34.9841,甘南藏族自治州,州政府,,45,35,59,31,48,89,,100,94,9,9,11,9,0.4,0.6
2024-02-06T1700,3380A,102.8914,34.9617,甘南藏族自治州,甘肃民族师范学院,,38,38,63,26,47,91,,94,88,5,10,11,10,0.8,0.9
2024-02-06T1700,2570A,101.9603,30.0475,甘孜藏族自治州,水桥子,,19,7,6,4,6,58,,54,54,4,6,10,10,0.7,0.7
2024-02-06T1700,3065A,101.9533,29.9972,甘孜藏族自治州,州环保局,,,,12,11,6,61,,55,55,,7,8,8,,0.6
2024-02-06T1700,3414A,115.8347,28.932,赣江新区,桑海产业园,细颗粒物(PM2.5),58,41,53,41,48,56,,58,53,16,17,3,3,0.8,0.8
2024-02-06T1700,2363A,114.9367,25.8664,赣州市,地委,,,,17,12,17,51,,44,44,,5,9,12,1.3,1.2
2024-02-06T1700,2364A,114.9461,25.8481,赣州市,气象台,,20,,17,14,17,48,,43,43,14,8,6,4,1.3,1.3
2024-02-06T1700,2365A,114.9322,25.8333,赣州市,市图书馆,,26,26,18,8,11,44,,38,38,10,9,6,5,1.4,1.4
2024-02-06T1700,2366A,114.8905,25.8471,赣州市,华坚鞋城,,19,19,18,13,13,49,,39,39,10,9,4,3,1.3,1.3
2024-02-06T1700,3109A,115.0093,25.8613,赣州市,赣县区卫计委,,,,16,,12,,,34,34,9,8,5,5,1.2,1.3
2024-02-06T1700,2683A,106.2319,36.1417,固原市,马园,,36,36,64,17,42,91,,87,87,13,17,5,5,0.5,0.8
2024-02-06T1700,2684A,106.2792,36.0022,固原市,监测站,,50,44,62,35,51,92,,83,83,14,19,4,4,0.6,0.7
2024-02-06T1700,2685A,106.2375,36.0211,固原市,新区,,39,35,63,27,48,86,,77,77,15,18,6,5,0.5,0.6
2024-02-06T1700,3522A,106.2177,35.9959,固原市,原州区十五小,,49,48,68,34,52,86,,76,76,11,17,6,6,0.7,0.8
2024-02-06T1700,2544A,106.6303,30.4576,广安市,市委,细颗粒物(PM2.5),72,66,47,52,36,23,,23,23,14,18,5,5,0.9,0.8
2024-02-06T1700,2545A,106.6271,30.4663,广安市,友谊中学,,,,39,,34,,,26,26,13,19,,4,0.8,0.8
2024-02-06T1700,2547A,106.6388,30.4551,广安市,广电花园,细颗粒物(PM2.5),77,,38,56,36,26,,25,25,13,17,3,3,1.0,1
2024-02-06T1700,2902A,106.6351,30.4865,广安市,北辰小学,细颗粒物(PM2.5),63,60,42,45,36,24,,25,25,14,16,5,5,0.9,0.8
2024-02-06T1700,2523A,105.8945,32.4535,广元市,黑石坡,,50,,34,35,27,79,,77,77,8,9,4,4,0.6,0.6
2024-02-06T1700,2524A,105.821,32.4444,广元市,老城,,46,46,43,22,26,66,,62,62,13,12,1,2,0.7,0.7
2024-02-06T1700,2526A,105.8628,32.4287,广元市,监测站,,32,,35,22,26,73,,68,68,6,9,3,3,0.8,0.8
2024-02-06T1700,3617A,105.8047,32.4166,广元市,经开区,,32,29,36,22,25,70,,64,64,11,14,2,3,0.7,0.8
2024-02-06T1700,1345A,113.2347,23.1423,广州市,广雅中学,,30,30,22,20,12,26,,22,22,25,25,6,5,1.0,1
2024-02-06T1700,1346A,113.2612,23.105,广州市,市五中,,40,35,26,28,16,32,,26,26,24,26,6,5,1.0,1
2024-02-06T1700,1348A,113.3478,23.0916,广州市,广东商学院,,37,37,24,25,11,37,,29,29,25,22,5,4,0.9,0.8
2024-02-06T1700,1349A,113.4332,23.1047,广州市,市八十六中,,37,37,26,24,15,57,,43,43,23,20,5,5,0.8,0.8
2024-02-06T1700,1350A,113.3505,22.9483,广州市,番禺中学,,35,35,26,24,12,44,,36,36,28,29,4,4,1.0,1
2024-02-06T1700,1351A,113.2146,23.3916,广州市,花都师范,,23,23,12,15,8,33,,29,29,15,14,4,4,0.8,0.8
2024-02-06T1700,1352A,113.2597,23.1331,广州市,市监测站,,39,39,22,26,15,32,,26,26,28,25,7,4,1.0,0.9
2024-02-06T1700,1353A,113.5618,23.312,广州市,九龙镇镇龙,,32,27,19,22,15,42,,32,32,12,13,5,5,1.0,0.9
2024-02-06T1700,1354A,113.2765,23.1544,广州市,麓湖,,34,34,22,21,13,32,,27,27,22,23,8,4,1.1,1
2024-02-06T1700,1355A,113.443,23.3035,广州市,帽峰山森林公园,,25,21,15,17,9,54,,39,39,9,10,6,5,1.0,0.9
2024-02-06T1700,2846A,113.3221,23.1322,广州市,体育西,,36,33,23,25,14,37,,29,29,20,19,9,7,1.0,0.9
2024-02-06T1700,3298A,113.5717,23.5491,广州市,从化街口,,33,30,20,23,13,17,,20,20,12,14,4,7,0.9,0.9
2024-02-06T1700,3299A,113.3472,23.3692,广州市,白云竹料,,26,25,16,18,12,26,,28,28,17,13,6,5,1.0,0.9
2024-02-06T1700,3300A,113.2981,23.237,广州市,白云嘉禾,,32,28,20,22,13,39,,31,31,25,24,7,6,0.9,0.9
2024-02-06T1700,3301A,113.4256,23.1716,广州市,黄埔科学城,,30,29,18,21,12,50,,42,42,18,17,5,4,1.0,0.9
2024-02-06T1700,3302A,113.3942,23.0483,广州市,番禺大学城,,37,37,21,20,14,45,,38,38,26,23,6,5,0.8,0.8
2024-02-06T1700,3303A,113.4922,22.8168,广州市,南沙黄阁,细颗粒物(PM2.5),64,51,33,46,11,60,,49,49,30,24,6,5,1.0,0.9
2024-02-06T1700,3304A,113.5342,22.7896,广州市,南沙街,,42,42,29,29,16,75,,52,52,28,27,5,5,0.8,0.8
2024-02-06T1700,3443A,113.2902,23.5544,广州市,花都梯面,,25,20,14,17,12,19,,19,19,15,11,6,5,0.9,0.8
2024-02-06T1700,3445A,113.7858,23.7478,广州市,从化良口,,22,20,10,15,7,26,,23,23,7,6,7,6,0.9,0.7
2024-02-06T1700,3446A,113.8051,23.2614,广州市,增城荔城,,33,31,17,23,12,101,,65,65,8,10,6,6,0.6,0.6
2024-02-06T1700,2505A,109.568,23.1478,贵港市,德智高中,,13,9,11,4,9,39,,38,38,6,10,4,4,0.9,0.9
2024-02-06T1700,2506A,109.6047,23.0666,贵港市,江南子站,,16,12,16,11,14,35,,33,33,11,14,5,5,0.9,0.9
2024-02-06T1700,2507A,109.6014,23.0948,贵港市,贵城子站,,23,17,19,16,15,30,,29,29,13,14,7,6,1.0,1
2024-02-06T1700,2508A,109.5669,23.1065,贵港市,荷城子站,,12,12,15,7,8,33,,32,32,8,10,8,8,1.0,1
2024-02-06T1700,3405A,109.5886,23.1172,贵港市,新世纪学校,,19,19,18,10,13,34,,33,33,9,11,4,4,1.0,1
2024-02-06T1700,1439A,106.6899,26.5998,贵阳市,马鞍山,,27,27,13,14,11,35,,31,31,16,11,11,9,0.6,0.6
2024-02-06T1700,1440A,106.6971,26.5694,贵阳市,市环保站,,45,,10,31,14,44,,40,38,17,13,11,8,0.6,0.5
2024-02-06T1700,1441A,106.6243,26.6266,贵阳市,鉴湖路,,39,39,28,27,16,35,,31,26,16,11,5,5,1.0,0.8
2024-02-06T1700,1442A,106.7487,26.6343,贵阳市,燕子冲,,32,24,11,22,9,44,,39,39,9,7,10,7,0.7,0.6
2024-02-06T1700,1443A,106.6555,26.4365,贵阳市,碧云窝,,36,36,22,22,8,49,,40,40,13,11,17,15,0.7,0.6
2024-02-06T1700,1444A,106.694,26.5161,贵阳市,中院村,,45,34,16,31,10,44,,42,42,19,12,14,11,0.9,0.6
2024-02-06T1700,1445A,106.7109,26.6027,贵阳市,红边门,,45,39,16,31,10,35,,34,32,19,10,14,11,0.8,0.7
2024-02-06T1700,1446A,106.7164,26.5699,贵阳市,新华路,,34,34,18,22,10,46,,40,40,13,11,7,6,0.6,0.6
2024-02-06T1700,1447A,106.674,26.5424,贵阳市,太慈桥,,31,31,19,19,9,36,,34,32,20,14,10,8,0.7,0.6
2024-02-06T1700,1862A,110.4144,25.3167,桂林市,电子科大尧山校区,,19,,12,8,11,59,,62,56,6,5,4,4,0.9,0.9
2024-02-06T1700,1863A,110.2819,25.2697,桂林市,监测站,,23,22,18,16,17,47,,56,46,13,11,7,6,0.9,0.8
2024-02-06T1700,1864A,110.3089,25.2708,桂林市,龙隐路小学,,23,,15,16,18,53,,57,51,7,8,4,4,0.9,0.8
2024-02-06T1700,1865A,110.2869,25.2178,桂林市,八中,,18,18,19,12,19,44,,52,44,12,10,4,4,0.9,0.7
2024-02-06T1700,3403A,110.1764,25.2381,桂林市,创业大厦,,16,7,14,7,12,49,,56,49,6,5,6,5,0.8,0.7
2024-02-06T1700,3531A,110.296,25.1253,桂林市,旅游学院,,16,2,9,2,10,50,,51,47,7,8,4,4,1.0,0.9
2024-02-06T1700,2674A,100.2561,34.4714,果洛藏族自治州,玛沁县大武镇,,31,31,33,19,16,93,,84,84,17,15,22,14,0.5,0.5
2024-02-06T1700,1129A,126.5422,45.755,哈尔滨市,岭北,,37,37,96,24,88,89,,91,91,26,41,15,12,0.8,0.4
2024-02-06T1700,1130A,126.561,45.8167,哈尔滨市,松北商大,,36,34,87,25,62,74,,77,77,28,34,10,13,0.6,0.9
2024-02-06T1700,1131A,126.979,45.5419,哈尔滨市,阿城会宁,细颗粒物(PM2.5),144,130,157,110,141,71,,66,66,40,44,20,20,0.9,1.2
2024-02-06T1700,1132A,126.599,45.7222,哈尔滨市,南岗学府路,颗粒物(PM10),53,56,93,24,55,62,,60,60,40,43,57,33,0.5,0.8
2024-02-06T1700,1133A,126.689,45.7733,哈尔滨市,太平宏伟公园,,48,48,93,28,62,81,,72,72,19,25,74,33,0.7,0.8
2024-02-06T1700,1134A,126.635,45.7667,哈尔滨市,道外承德广场,,47,47,91,25,60,70,,68,67,30,31,7,17,0.5,0.8
2024-02-06T1700,1135A,126.685,45.7319,哈尔滨市,香坊红旗大街,颗粒物(PM10),55,60,80,29,67,62,,62,62,36,44,18,20,0.7,1
2024-02-06T1700,1136A,126.6411,45.7258,哈尔滨市,动力和平路,,50,50,80,27,55,74,,67,67,26,37,24,29,0.6,0.9
2024-02-06T1700,1137A,126.593,45.7478,哈尔滨市,道里建国路,细颗粒物(PM2.5),65,,78,47,74,68,,72,72,31,25,13,11,0.1,0.3
2024-02-06T1700,1138A,126.615,45.61,哈尔滨市,平房东轻厂,细颗粒物(PM2.5),90,85,112,67,86,65,,75,75,47,58,17,19,0.8,1
2024-02-06T1700,1139A,126.595,45.9855,哈尔滨市,呼兰师专,,,78,104,36,79,,,,,21,22,10,15,0.5,1.1
2024-02-06T1700,1140A,126.6206,45.6842,哈尔滨市,省农科院,细颗粒物(PM2.5),64,65,96,46,69,75,,72,72,25,44,12,29,0.6,0.9
2024-02-06T1700,2688A,93.5128,42.8172,哈密市,地区监测站,颗粒物(PM10),52,54,65,21,31,79,,62,62,15,32,3,4,0.1,0.4
2024-02-06T1700,2689A,93.4961,42.8328,哈密市,哈密师范学校,颗粒物(PM10),54,58,69,19,30,82,,56,56,16,35,7,6,0.4,0.9
2024-02-06T1700,2671A,100.9048,36.9639,海北藏族自治州,海晏县西海镇,,,,44,,28,106,,98,98,9,12,18,22,0.7,0.7
2024-02-06T1700,3867A,102.0738,36.5056,海东市,平安区公安北苑,细颗粒物(PM2.5),55,44,53,39,40,60,,71,71,15,20,10,22,0.5,0.5
2024-02-06T1700,1410A,110.3232,20.0574,海口市,海南大学,,18,14,20,8,10,55,,56,56,3,5,9,9,0.3,0.3
2024-02-06T1700,1411A,110.283,20.0053,海口市,秀英海南医院,,,19,20,10,11,,,51,51,3,4,8,8,0.3,0.3
2024-02-06T1700,1412A,110.338,19.9969,海口市,海南师范大学,,17,17,20,8,12,54,,53,53,1,3,7,7,0.3,0.4
2024-02-06T1700,1413A,110.33,20.0356,海口市,龙华路环保局宿舍,,28,28,24,10,12,50,,50,50,5,5,7,7,0.2,0.2
2024-02-06T1700,3539A,110.5111,19.9736,海口市,桂林洋子站,,18,15,19,8,13,55,,54,54,2,3,6,6,0.2,0.2
2024-02-06T1700,2673A,100.6188,36.2866,海南藏族自治州,共和县恰卜恰镇,,,,35,25,19,97,,86,86,,16,9,16,0.6,0.5
2024-02-06T1700,2676A,97.3731,37.3753,海西蒙古族藏族自治州,德令哈市,,35,35,27,5,10,106,,100,100,5,5,9,13,0.4,0.4
2024-02-06T1700,1048A,114.5302,36.6116,邯郸市,东污水处理厂,细颗粒物(PM2.5),149,117,130,114,132,101,,80,80,12,23,8,5,0.9,1.1
2024-02-06T1700,1049A,114.4918,36.5713,邯郸市,矿院,细颗粒物(PM2.5),143,122,138,109,128,95,,71,71,10,21,5,4,1.0,1.3
2024-02-06T1700,1050A,114.484,36.6133,邯郸市,丛台公园,细颗粒物(PM2.5),138,126,128,105,111,101,,81,81,28,34,6,5,1.0,1.2
2024-02-06T1700,3458A,114.7895,36.5593,邯郸市,香泉濮院小区,细颗粒物(PM2.5),104,83,122,78,116,118,,104,104,12,18,8,14,0.7,1
2024-02-06T1700,3579A,114.50634,36.77178,邯郸市,永年区实验高中,细颗粒物(PM2.5),144,114,130,110,123,106,,76,76,10,32,9,7,0.9,1
2024-02-06T1700,3580A,114.20016,36.44293,邯郸市,峰峰矿区临水派出所,细颗粒物(PM2.5),173,138,146,131,142,98,,63,63,22,28,9,9,0.9,1.3
2024-02-06T1700,2634A,106.9893,33.1842,汉中市,汉川机床厂子校,细颗粒物(PM2.5),55,,32,39,32,65,,60,60,5,6,3,3,0.8,0.7
2024-02-06T1700,2635A,107.0154,33.0706,汉中市,市监测站,细颗粒物(PM2.5),57,43,47,40,45,62,,52,52,15,19,7,7,0.8,0.9
2024-02-06T1700,2636A,107.0089,33.1138,汉中市,鑫源开发区,细颗粒物(PM2.5),67,,42,48,45,64,,57,57,13,17,7,7,0.8,0.9
2024-02-06T1700,2637A,107.007,33.0323,汉中市,南郑大河坎水厂,细颗粒物(PM2.5),60,44,54,43,49,68,,56,56,13,19,10,10,0.8,1
2024-02-06T1700,1223A,120.2072,30.2111,杭州市,滨江,细颗粒物(PM2.5),60,43,56,43,53,60,,52,48,24,19,6,6,1.0,0.7
2024-02-06T1700,1224A,120.0633,30.2747,杭州市,西溪,细颗粒物(PM2.5),60,49,63,43,50,66,,55,55,17,17,7,7,1.1,0.9
2024-02-06T1700,1226A,120.3461,30.3153,杭州市,下沙,细颗粒物(PM2.5),73,64,74,53,63,65,,50,50,17,14,7,6,0.9,0.7
2024-02-06T1700,1227A,120.1269,30.2456,杭州市,卧龙桥,细颗粒物(PM2.5),62,46,56,44,52,51,,48,45,19,13,4,6,1.1,0.9
2024-02-06T1700,1228A,120.1903,30.2692,杭州市,浙江农大,细颗粒物(PM2.5),55,49,60,39,55,64,,52,52,18,16,9,9,0.8,0.8
2024-02-06T1700,1230A,120.1197,30.3119,杭州市,和睦小学,细颗粒物(PM2.5),62,,52,44,48,61,,50,50,23,18,6,5,0.9,0.8
2024-02-06T1700,1231A,120.3019,30.4183,杭州市,临平镇,细颗粒物(PM2.5),68,63,80,49,60,63,,52,52,13,10,5,5,1.1,0.9
2024-02-06T1700,1232A,120.2697,30.1819,杭州市,城厢镇,细颗粒物(PM2.5),62,54,64,44,61,61,,50,48,23,20,6,6,1.0,0.7
2024-02-06T1700,1233A,120.0883,30.1808,杭州市,云栖,细颗粒物(PM2.5),52,43,56,36,44,60,,53,53,20,16,7,7,1.0,0.8
2024-02-06T1700,3557A,119.9464,30.0494,杭州市,镇二中,,46,,41,32,42,56,,52,44,22,18,6,6,0.9,0.7
2024-02-06T1700,3558A,119.7183,30.2367,杭州市,市府大楼,细颗粒物(PM2.5),60,44,58,43,51,57,,56,51,18,13,4,4,0.8,0.8
2024-02-06T1700,3656A,120.1556,30.2864,杭州市,消防大队,细颗粒物(PM2.5),59,48,59,42,54,64,,54,54,22,18,7,7,0.9,0.8
2024-02-06T1700,1270A,117.1959,31.7848,合肥市,明珠广场,细颗粒物(PM2.5),83,83,70,61,58,78,,72,72,29,22,6,5,0.7,0.6
2024-02-06T1700,1271A,117.3072,31.8764,合肥市,三里街,细颗粒物(PM2.5),100,90,67,75,58,92,,81,81,22,20,5,4,0.7,0.5
2024-02-06T1700,1272A,117.2588,31.8707,合肥市,琥珀山庄,细颗粒物(PM2.5),92,90,66,68,53,96,,86,86,17,14,6,4,0.9,0.7
2024-02-06T1700,1273A,117.1604,31.9052,合肥市,董铺水库,细颗粒物(PM2.5),83,88,71,61,56,108,,91,91,6,5,4,3,0.7,0.4
2024-02-06T1700,1274A,117.25,31.8571,合肥市,长江中路,细颗粒物(PM2.5),103,88,64,77,62,91,,82,82,23,17,7,5,0.8,0.7
2024-02-06T1700,1275A,117.266,31.9436,合肥市,庐阳区,细颗粒物(PM2.5),107,102,67,80,51,105,,87,87,17,15,5,4,0.9,0.7
2024-02-06T1700,1276A,117.336,31.8586,合肥市,瑶海区,细颗粒物(PM2.5),104,90,64,78,60,98,,84,84,18,16,2,1,0.7,0.5
2024-02-06T1700,1277A,117.3027,31.7964,合肥市,包河区,细颗粒物(PM2.5),85,80,66,63,58,85,,76,76,24,23,3,2,0.9,0.8
2024-02-06T1700,1278A,117.2776,31.7385,合肥市,滨湖新区,细颗粒物(PM2.5),77,75,71,56,59,89,,76,76,16,16,5,4,0.7,0.6
2024-02-06T1700,1279A,117.1318,31.8403,合肥市,高新区,细颗粒物(PM2.5),94,80,68,70,58,94,,75,75,20,19,4,4,0.8,0.6
2024-02-06T1700,3464A,117.3803,31.9147,合肥市,高教基地,细颗粒物(PM2.5),94,100,64,70,52,104,,88,88,13,10,5,3,0.7,0.5
2024-02-06T1700,3614A,79.924,37.0877,和田地区,地区环保局,颗粒物(PM10),53,56,83,31,37,82,,77,77,12,17,6,6,0.5,0.6
2024-02-06T1700,3615A,79.9131,37.113,和田地区,市环保局,颗粒物(PM10),54,58,68,29,32,88,,80,80,8,16,5,5,1.3,2.2
2024-02-06T1700,2516A,108.2011,24.715,河池市,东仁乐园,,13,13,9,7,7,34,,35,35,4,4,3,4,0.8,0.7
2024-02-06T1700,2517A,108.0497,24.6947,河池市,市环保站,,,24,7,,5,42,,40,40,8,9,6,6,0.6,0.6
2024-02-06T1700,2518A,108.0983,24.6989,河池市,市疾控中心,,13,13,8,9,4,40,,44,44,14,9,7,7,0.6,0.6
2024-02-06T1700,1696A,114.6778,23.7569,河源市,源西,,,33,15,15,10,67,,45,45,,8,5,4,0.9,0.9
2024-02-06T1700,1697A,114.6944,23.7586,河源市,东埔,,26,20,19,18,14,68,,46,46,8,7,6,6,0.8,0.7
2024-02-06T1700,1698A,114.6892,23.7233,河源市,老城,,31,31,19,20,14,72,,48,48,6,8,5,5,0.8,0.8
2024-02-06T1700,1718A,115.4208,35.2464,菏泽市,气象局,细颗粒物(PM2.5),133,111,127,101,118,123,,99,99,17,26,4,2,0.9,1.1
2024-02-06T1700,1719A,115.4747,35.2375,菏泽市,市政协,细颗粒物(PM2.5),133,121,120,101,102,118,,98,98,20,24,4,4,0.8,0.9
2024-02-06T1700,3374A,115.5564,35.0891,菏泽市,定陶老年大学,细颗粒物(PM2.5),104,90,133,78,119,126,,106,106,16,28,6,4,0.5,0.9
2024-02-06T1700,3647A,115.4702,35.2706,菏泽市,菏泽医专,细颗粒物(PM2.5),134,116,116,102,104,126,,104,104,22,23,6,6,0.8,0.9
2024-02-06T1700,2514A,111.5264,24.4172,贺州市,环保小区,,15,,20,10,16,41,,47,42,10,9,8,8,0.9,0.8
2024-02-06T1700,2515A,111.5608,24.4078,贺州市,政协大楼,,20,,23,14,16,36,,45,38,9,9,7,7,1.0,1
2024-02-06T1700,3534A,111.4744,24.4553,贺州市,西湾,,23,,18,16,18,36,,44,38,8,7,8,7,1.0,1
2024-02-06T1700,2385A,114.17,35.9019,鹤壁市,市监测站,细颗粒物(PM2.5),193,166,165,145,146,90,,59,59,26,32,9,5,1.1,1.2
2024-02-06T1700,2386A,114.2956,35.7511,鹤壁市,市交警支队,细颗粒物(PM2.5),166,141,147,126,130,106,,85,85,34,39,5,4,1.0,1
2024-02-06T1700,2387A,114.2878,35.7306,鹤壁市,迎宾馆,细颗粒物(PM2.5),172,,122,130,134,110,,88,88,26,34,8,7,1.0,1.1
2024-02-06T1700,3474A,114.2617,35.6822,鹤壁市,大新区,细颗粒物(PM2.5),168,,121,127,136,111,,91,91,18,31,9,7,0.9,1
2024-02-06T1700,3596A,114.1572,35.9603,鹤壁市,南山宾馆,细颗粒物(PM2.5),214,174,160,164,150,85,,64,64,25,26,12,10,1.2,1.3
2024-02-06T1700,2244A,130.2537,47.3416,鹤岗市,哈啤分公司,颗粒物(PM10),64,77,34,40,26,12,,59,57,74,17,25,16,1.3,0.9
2024-02-06T1700,2245A,130.2684,47.3086,鹤岗市,斯达机电,颗粒物(PM10),52,54,40,33,24,75,,70,70,23,20,13,11,0.5,0.4
2024-02-06T1700,2246A,130.3114,47.3388,鹤岗市,东山纸板厂,颗粒物(PM10),53,56,154,35,40,47,,65,65,50,46,23,18,0.8,1.3
2024-02-06T1700,2247A,130.1097,47.3382,鹤岗市,五号水库,,48,42,23,33,19,86,,82,82,13,10,16,9,0.7,0.5
2024-02-06T1700,2263A,127.4833,50.2524,黑河市,交通局,,38,26,31,26,20,52,,61,61,23,16,5,8,0.4,0.5
2024-02-06T1700,2264A,127.5144,50.2341,黑河市,环保局,,38,38,35,24,29,52,,61,61,24,24,11,9,0.4,0.5
2024-02-06T1700,2265A,127.5291,50.2472,黑河市,大黑河岛,二氧化氮,107,,29,23,25,,,79,70,268,253,12,15,,
2024-02-06T1700,1074A,115.6838,37.7541,衡水市,电机北厂,细颗粒物(PM2.5),130,,99,99,86,97,,83,83,8,15,4,3,0.8,0.8
2024-02-06T1700,1075A,115.6303,37.7316,衡水市,市监测站,细颗粒物(PM2.5),110,97,91,83,81,94,,82,82,18,24,6,5,0.8,0.8
2024-02-06T1700,3188A,115.6683,37.7217,衡水市,市城管局,细颗粒物(PM2.5),113,96,99,85,90,95,,81,81,13,20,7,6,0.8,0.8
2024-02-06T1700,3459A,115.5989,37.5491,衡水市,地表水厂,细颗粒物(PM2.5),105,82,103,79,102,102,,84,84,11,45,3,4,0.8,1
2024-02-06T1700,2456A,112.5003,26.9167,衡阳市,原169医院,,25,22,22,17,20,67,,64,64,12,14,4,4,0.9,0.9
2024-02-06T1700,2457A,112.6194,26.9258,衡阳市,衡阳化工总厂,,48,43,28,33,26,69,,63,63,10,11,5,7,1.0,1
2024-02-06T1700,2458A,112.6211,26.8956,衡阳市,珠晖区环保局,,43,,27,30,28,58,,56,56,14,13,6,7,1.0,1
2024-02-06T1700,2459A,112.6197,26.8733,衡阳市,市委党校,,48,,23,33,23,71,,65,65,10,13,7,7,0.9,0.9
2024-02-06T1700,2460A,112.6006,26.8919,衡阳市,市监测站,,39,,35,27,32,64,,62,62,18,17,6,7,1.0,0.9
2024-02-06T1700,2461A,112.5664,26.9056,衡阳市,真空机电公司,细颗粒物(PM2.5),104,,25,78,38,58,,59,59,16,15,8,4,1.1,0.9
2024-02-06T1700,3399A,112.6703,26.882,衡阳市,师范学院,,31,31,27,17,25,71,,67,67,8,10,7,7,0.9,0.9
2024-02-06T1700,2608A,103.3772,23.3993,红河哈尼族彝族自治州,污水处理厂,,33,30,41,23,37,94,,88,88,4,7,7,7,0.3,0.4
2024-02-06T1700,2609A,103.3861,23.35,红河哈尼族彝族自治州,监测站,,43,42,53,30,38,93,,86,86,4,9,7,16,0.4,0.4
2024-02-06T1700,3038A,103.3758,23.368,红河哈尼族彝族自治州,州图书馆,,29,20,38,20,33,90,,83,83,3,7,8,8,0.4,0.5
2024-02-06T1700,1090A,111.6507,40.7517,呼和浩特市,呼市一监,细颗粒物(PM2.5),57,53,35,40,28,93,,81,81,15,12,11,6,0.5,0.4
2024-02-06T1700,1091A,111.6572,40.8033,呼和浩特市,小召,,28,17,26,8,17,88,,86,86,16,14,5,5,0.4,0.3
2024-02-06T1700,1094A,111.7516,40.8369,呼和浩特市,如意水处理厂,,25,13,20,10,17,79,,71,45,10,21,9,10,0.3,0.5
2024-02-06T1700,1095A,111.7276,40.8062,呼和浩特市,二十九中,,42,42,37,20,24,77,,73,73,19,17,11,9,0.4,0.5
2024-02-06T1700,1096A,111.5512,40.7866,呼和浩特市,工大金川校区,细颗粒物(PM2.5),53,45,49,37,33,78,,77,77,21,15,10,10,0.5,0.5
2024-02-06T1700,1097A,111.717,40.7612,呼和浩特市,化肥厂生活区,细颗粒物(PM2.5),59,52,36,42,31,83,,78,78,23,21,13,10,0.6,0.7
2024-02-06T1700,3698A,111.5968,40.8178,呼和浩特市,红旗小学,,29,9,18,7,14,91,,87,87,10,11,5,6,0.2,0.3
2024-02-06T1700,3699A,111.6518,40.8389,呼和浩特市,海东办,,29,14,18,7,13,91,,87,87,13,17,6,7,0.2,0.2
2024-02-06T1700,2192A,119.7594,49.2261,呼伦贝尔市,区环保局,,32,32,39,20,31,77,,67,67,15,35,4,5,0.5,0.6
2024-02-06T1700,3061A,119.7512,49.1577,呼伦贝尔市,国华电力东,,32,26,41,22,34,80,,77,77,9,22,6,5,0.2,0.4
2024-02-06T1700,1250A,120.0751,30.8669,湖州市,城西水厂,细颗粒物(PM2.5),70,62,61,51,52,66,,70,70,28,22,3,3,0.8,0.7
2024-02-06T1700,2873A,120.0875,30.8955,湖州市,仁皇山新区,细颗粒物(PM2.5),73,65,60,53,53,74,,68,68,22,19,6,5,0.9,0.7
2024-02-06T1700,2907A,120.1844,30.8596,湖州市,吴兴区站,细颗粒物(PM2.5),82,72,65,60,54,75,,68,68,22,19,5,4,0.8,0.6
2024-02-06T1700,3562A,120.4148,30.8538,湖州市,南浔区站,细颗粒物(PM2.5),79,69,67,58,59,74,,67,67,26,22,6,6,0.8,0.6
2024-02-06T1700,1607A,120.9092,40.7136,葫芦岛市,龙港区,细颗粒物(PM2.5),57,59,46,40,29,86,,73,73,12,13,14,20,0.4,0.6
2024-02-06T1700,1608A,120.8392,40.7514,葫芦岛市,化工街,,46,46,37,29,22,70,,73,73,9,10,15,18,0.9,0.8
2024-02-06T1700,1609A,120.8341,40.7073,葫芦岛市,新区,,50,50,34,35,24,81,,77,77,18,16,16,19,0.7,0.6
2024-02-06T1700,1610A,120.8695,40.7677,葫芦岛市,东城区,细颗粒物(PM2.5),67,59,33,48,24,74,,77,77,21,13,21,22,1.0,0.8
2024-02-06T1700,2482A,109.5981,27.5721,怀化市,林科所,,43,,24,30,27,71,,78,72,4,4,8,9,0.9,0.8
2024-02-06T1700,2483A,109.9453,27.5444,怀化市,河西地税局,细颗粒物(PM2.5),67,55,39,48,36,67,,75,68,4,3,3,3,1.0,0.9
2024-02-06T1700,2484A,109.9781,27.5342,怀化市,市四医院,细颗粒物(PM2.5),69,52,38,50,37,62,,72,63,6,4,2,2,0.8,0.7
2024-02-06T1700,2485A,109.9972,27.5578,怀化市,监测楼,细颗粒物(PM2.5),54,44,36,38,36,59,,67,58,7,7,4,9,0.7,0.7
2024-02-06T1700,2486A,110.0394,27.583,怀化市,市委党校,细颗粒物(PM2.5),67,51,40,48,37,65,,67,64,4,3,4,4,0.8,0.9
2024-02-06T1700,1210A,119.036,33.5981,淮安市,钵池山,细颗粒物(PM2.5),78,75,71,57,61,96,,82,82,22,23,8,7,0.8,0.8
2024-02-06T1700,1211A,119.007,33.575,淮安市,北京南路,细颗粒物(PM2.5),75,73,69,55,61,111,,89,89,20,25,9,7,0.9,0.8
2024-02-06T1700,1212A,118.989,33.6067,淮安市,市监测站,细颗粒物(PM2.5),89,75,75,66,71,108,,89,89,22,25,8,6,1.1,1
2024-02-06T1700,1213A,119.135,33.5039,淮安市,楚州区监测站,细颗粒物(PM2.5),64,73,69,46,58,101,,87,87,23,28,7,6,0.9,0.9
2024-02-06T1700,1214A,119.0186,33.6297,淮安市,淮阴区监测站,细颗粒物(PM2.5),79,85,87,58,66,105,,89,89,26,29,6,4,0.8,0.7
2024-02-06T1700,3426A,118.8755,33.2894,淮安市,新华书店,细颗粒物(PM2.5),59,57,81,42,69,93,,78,78,26,26,8,7,0.7,0.9
2024-02-06T1700,2282A,116.8004,33.975,淮北市,监测站,细颗粒物(PM2.5),143,,71,109,73,116,,113,113,32,25,10,7,1.1,1
2024-02-06T1700,2283A,116.8091,33.9007,淮北市,烈山区政府,细颗粒物(PM2.5),142,132,95,108,87,127,,112,112,27,32,8,5,0.9,0.7
2024-02-06T1700,3330A,116.8873,33.9836,淮北市,杜集区检察院,细颗粒物(PM2.5),156,151,112,119,90,134,,110,110,21,20,11,7,1.1,0.8
2024-02-06T1700,4017A,116.7923,33.9535,淮北市,市博物馆,,,116,106,,90,122,,104,104,,31,10,6,1.0,1
2024-02-06T1700,2277A,116.8305,32.7727,淮南市,潘集区政府,细颗粒物(PM2.5),110,92,84,83,76,131,,108,108,20,22,8,5,0.7,0.5
2024-02-06T1700,2278A,117.0067,32.6524,淮南市,师范学院,细颗粒物(PM2.5),109,114,81,82,64,114,,100,100,32,17,8,4,0.9,0.6
2024-02-06T1700,2279A,116.8569,32.5951,淮南市,谢家集区政府,细颗粒物(PM2.5),142,110,76,108,70,136,,112,112,27,17,9,4,0.8,0.5
2024-02-06T1700,2280A,116.8281,32.633,淮南市,八公山区政府,细颗粒物(PM2.5),127,116,78,96,67,136,,111,111,22,16,6,3,0.8,0.5
2024-02-06T1700,2281A,116.6325,32.6201,淮南市,焦岗湖风景区管理处,细颗粒物(PM2.5),122,116,68,92,57,125,,119,119,20,19,2,3,0.5,0.2
2024-02-06T1700,2894A,117.0566,32.6531,淮南市,经济技术开发区消防队,细颗粒物(PM2.5),93,101,76,69,64,114,,99,99,20,11,6,3,0.7,0.5
2024-02-06T1700,3329A,117.0108,32.5893,淮南市,山南新区,细颗粒物(PM2.5),128,111,81,97,80,115,,99,99,23,10,8,3,0.7,0.4
2024-02-06T1700,2446A,114.9028,30.4742,黄冈市,职工中心,细颗粒物(PM2.5),89,72,66,66,58,77,,72,72,11,8,6,7,0.8,0.7
2024-02-06T1700,2929A,114.8858,30.4519,黄冈市,红卫路,细颗粒物(PM2.5),82,66,66,60,60,69,,63,63,12,9,5,5,1.0,0.9
2024-02-06T1700,3398A,114.9136,30.4445,黄冈市,市林业局,细颗粒物(PM2.5),80,61,63,59,56,73,,67,67,16,10,6,7,0.6,0.5
2024-02-06T1700,2672A,102.0199,35.5102,黄南藏族自治州,同仁县隆务镇,细颗粒物(PM2.5),75,75,62,55,44,107,,101,101,16,13,10,6,0.6,1
2024-02-06T1700,2295A,118.2903,29.6963,黄山市,延安路89号,,25,25,42,7,26,46,,50,45,10,9,4,4,0.5,0.4
2024-02-06T1700,2296A,118.327,29.7178,黄山市,黄山东路89号,,22,22,34,8,25,44,,47,43,11,10,4,4,0.8,0.7
2024-02-06T1700,2297A,118.1371,30.2756,黄山市,黄山区政府5号楼,,,37,50,27,41,42,,43,43,14,14,3,3,,0.8
2024-02-06T1700,2423A,115.0601,30.2313,黄石市,沈家营,细颗粒物(PM2.5),80,65,71,59,61,58,,56,56,22,21,7,6,1.1,1
2024-02-06T1700,2424A,115.0817,30.2006,黄石市,陈家湾,细颗粒物(PM2.5),83,61,70,61,75,55,,54,54,28,27,6,7,0.9,0.8
2024-02-06T1700,2426A,114.8988,30.2019,黄石市,铁山,细颗粒物(PM2.5),93,,58,69,73,69,,64,64,22,22,5,5,0.9,0.8
2024-02-06T1700,2427A,115.0307,30.2092,黄石市,团城山,,,67,72,55,59,60,,59,59,,18,5,5,1.2,0.9
2024-02-06T1700,3149A,115.0235,30.1578,黄石市,笔架山北路,细颗粒物(PM2.5),87,,68,64,66,54,,50,50,27,21,8,5,1.5,1
2024-02-06T1700,1392A,114.4183,23.0528,惠州市,河南岸金山湖子站,,27,20,20,13,13,84,,68,68,4,10,4,4,0.5,0.6
2024-02-06T1700,1393A,114.4053,23.0822,惠州市,下埔横江三路子站,,28,22,20,12,12,87,,72,72,8,11,4,5,0.6,0.7
2024-02-06T1700,1394A,114.4103,23.1142,惠州市,江北云山西路子站,,31,20,19,18,14,98,,74,74,6,8,8,8,0.6,0.7
2024-02-06T1700,1395A,114.4645,22.7833,惠州市,惠阳区承修路船湖子站,,,47,15,11,12,,,78,78,10,13,7,7,,0.5
2024-02-06T1700,1396A,114.5317,22.7422,惠州市,大亚湾管委会子站,,36,25,28,12,13,113,,88,88,11,13,6,6,0.7,0.6
2024-02-06T1700,3314A,114.4338,22.8134,惠州市,惠阳秋长,,32,24,22,10,12,101,,85,85,4,7,7,6,0.7,0.7
2024-02-06T1700,3452A,114.6517,22.775,惠州市,大亚湾霞涌,,34,27,22,13,14,106,,85,85,11,9,7,6,0.8,0.7
2024-02-06T1700,2240A,130.9762,45.3001,鸡西市,环保局,,38,29,74,26,62,62,,67,67,22,32,6,10,0.4,0.7
2024-02-06T1700,2243A,130.9429,45.3039,鸡西市,第一中学,,24,20,51,11,41,76,,78,78,14,19,8,18,0.2,0.5
2024-02-06T1700,3707A,131.0207,45.3073,鸡西市,欧美日汽修厂,,39,,82,27,66,55,,65,65,35,40,11,39,1.2,2.2
2024-02-06T1700,3709A,130.9967,45.3106,鸡西市,市政设施管理处,,33,32,63,23,52,53,,74,74,35,44,3,4,0.6,0.9
2024-02-06T1700,2367A,114.9754,27.0803,吉安市,红声器材厂,,23,23,41,5,23,38,,36,36,17,17,10,10,1.0,1
2024-02-06T1700,2368A,114.9658,27.0999,吉安市,市森林工业局,,19,19,32,13,26,39,,38,38,12,12,6,7,0.5,0.7
2024-02-06T1700,2369A,114.99,27.1312,吉安市,市环境监测站,,,17,32,10,23,,,30,30,18,18,5,5,0.7,0.8
2024-02-06T1700,2370A,115.0093,27.0968,吉安市,青原区法院,,16,16,31,9,23,38,,40,39,16,15,7,8,0.8,0.8
2024-02-06T1700,1772A,126.54,43.8622,吉林市,哈达湾,细颗粒物(PM2.5),103,95,150,77,128,82,,79,79,39,43,69,30,0.8,1.6
2024-02-06T1700,1773A,126.5844,43.8358,吉林市,东局子,细颗粒物(PM2.5),97,82,163,72,143,59,,61,61,52,54,39,24,1.2,1.7
2024-02-06T1700,1774A,126.5052,43.8245,吉林市,电力学院,细颗粒物(PM2.5),105,92,159,79,139,,,72,72,24,41,34,50,,1.7
2024-02-06T1700,1775A,126.6133,43.8972,吉林市,江北,细颗粒物(PM2.5),89,88,160,66,131,69,,72,,53,44,34,21,1.8,1.7
2024-02-06T1700,1776A,126.555,43.8306,吉林市,江南公园,细颗粒物(PM2.5),89,77,155,66,140,68,,64,64,43,48,39,24,2.4,2
2024-02-06T1700,2868A,126.4739,43.953,吉林市,九站,细颗粒物(PM2.5),196,177,154,147,134,117,,91,91,44,46,39,41,1.4,1.3
2024-02-06T1700,1299A,116.9862,36.6114,济南市,科干所,细颗粒物(PM2.5),74,75,86,54,68,82,,68,68,38,42,11,12,0.9,1.2
2024-02-06T1700,1300A,116.9376,36.665,济南市,农科所,细颗粒物(PM2.5),83,78,91,61,70,87,,67,67,27,50,10,9,0.7,1.1
2024-02-06T1700,1301A,117.1265,36.6734,济南市,开发区,细颗粒物(PM2.5),70,73,82,51,66,79,,77,77,24,38,8,7,0.8,1.1
2024-02-06T1700,1303A,117.0624,36.6868,济南市,省种子仓库,细颗粒物(PM2.5),70,75,90,51,69,84,,80,80,56,51,10,8,0.6,0.9
2024-02-06T1700,1304A,116.9489,36.6447,济南市,机床二厂,细颗粒物(PM2.5),80,81,94,59,78,92,,78,78,27,48,12,24,0.9,1.4
2024-02-06T1700,1305A,117.0495,36.663,济南市,市监测站,细颗粒物(PM2.5),77,76,88,56,68,86,,83,83,36,50,14,14,0.7,1
2024-02-06T1700,1306A,116.7675,36.5484,济南市,长清党校,细颗粒物(PM2.5),83,90,92,61,73,100,,91,91,27,41,10,10,0.8,1
2024-02-06T1700,1616A,117.6795,36.229,济南市,技术学院,细颗粒物(PM2.5),64,61,96,46,81,98,,79,79,30,60,12,12,1.2,1.5
2024-02-06T1700,1961A,117.532,36.6868,济南市,东山小学,细颗粒物(PM2.5),77,68,88,56,70,102,,94,94,17,26,8,8,0.4,0.6
2024-02-06T1700,3059A,117.7161,36.2049,济南市,泰兴公司,细颗粒物(PM2.5),64,61,109,46,91,95,,79,79,28,58,16,12,2.0,1.8
2024-02-06T1700,3064A,117.6867,36.2171,济南市,莱芜战役纪念馆,细颗粒物(PM2.5),70,66,105,51,86,87,,73,73,31,56,13,11,1.5,1.3
2024-02-06T1700,3494A,117.1673,36.9782,济南市,济阳区政府,细颗粒物(PM2.5),74,81,120,54,93,98,,83,83,16,41,10,15,0.5,0.9
2024-02-06T1700,3495A,117.1171,36.63,济南市,锦屏中学,细颗粒物(PM2.5),74,71,75,54,65,90,,89,89,36,31,11,7,0.6,0.7
2024-02-06T1700,3682A,116.9814,36.6819,济南市,济南四建,细颗粒物(PM2.5),77,63,82,56,77,82,,65,65,32,54,13,17,0.8,1.2
2024-02-06T1700,1653A,116.6251,35.4302,济宁市,火炬城,细颗粒物(PM2.5),119,,90,90,82,106,,85,85,30,33,8,6,1.0,1.2
2024-02-06T1700,1655A,116.5491,35.4042,济宁市,电化厂,细颗粒物(PM2.5),107,106,115,80,90,109,,80,80,28,34,10,10,1.0,1.3
2024-02-06T1700,3500A,116.5814,35.3707,济宁市,北湖一中,细颗粒物(PM2.5),100,98,91,75,84,100,,81,81,35,29,9,7,1.0,1
2024-02-06T1700,3501A,116.8249,35.5593,济宁市,服务中心,细颗粒物(PM2.5),128,126,135,97,100,106,,89,89,20,33,8,7,1.0,1.2
2024-02-06T1700,3678A,116.5907,35.4054,济宁市,市第七中学,细颗粒物(PM2.5),110,85,89,83,81,101,,85,85,25,29,7,8,0.9,1.1
2024-02-06T1700,2255A,130.2751,46.8028,佳木斯市,佳纺,细颗粒物(PM2.5),72,56,140,52,115,81,,80,80,35,57,12,11,1.0,1.4
2024-02-06T1700,2256A,130.3995,46.8307,佳木斯市,发电厂,细颗粒物(PM2.5),64,62,85,46,72,99,,87,87,28,32,27,11,0.8,0.9
2024-02-06T1700,2257A,130.3258,46.7975,佳木斯市,环保局,细颗粒物(PM2.5),60,46,115,43,110,94,,79,79,25,61,8,12,0.6,1.2
2024-02-06T1700,2258A,130.3648,46.8032,佳木斯市,十一中,细颗粒物(PM2.5),59,51,109,42,105,60,,64,64,56,63,10,10,1.2,1.3
2024-02-06T1700,2259A,130.3794,46.7588,佳木斯市,四丰,细颗粒物(PM2.5),79,82,73,58,46,137,,127,127,7,6,1,1,0.6,0.6
2024-02-06T1700,1252A,120.7436,30.778,嘉兴市,清河小学,细颗粒物(PM2.5),85,79,69,63,57,55,,59,59,24,12,6,6,1.2,0.9
2024-02-06T1700,1253A,120.726,30.7478,嘉兴市,嘉兴学院,细颗粒物(PM2.5),77,75,64,56,51,57,,59,59,32,22,5,4,0.8,0.6
2024-02-06T1700,2872A,120.7846,30.7525,嘉兴市,南湖区残联,细颗粒物(PM2.5),92,89,74,68,58,64,,65,65,25,16,6,5,1.0,0.7
2024-02-06T1700,3407A,120.6916,30.7739,嘉兴市,秀洲住建,细颗粒物(PM2.5),93,72,66,69,62,49,,54,54,30,18,8,8,0.9,0.7
2024-02-06T1700,1945A,98.2908,39.7711,嘉峪关市,气象局,,41,41,63,27,39,92,,80,80,7,25,2,3,0.2,0.4
2024-02-06T1700,2884A,98.2672,39.7978,嘉峪关市,酒钢宾馆,颗粒物(PM10),56,61,69,34,41,74,,69,69,25,20,22,12,0.9,0.7
2024-02-06T1700,3248A,98.2643,39.7724,嘉峪关市,雄关区,,45,45,59,27,34,90,,75,75,9,20,5,5,0.3,0.5
2024-02-06T1700,1383A,113.1064,22.6058,江门市,北街,,42,42,24,26,15,33,,24,24,34,28,8,7,1.0,0.9
2024-02-06T1700,1384A,113.0731,22.5835,江门市,西区,,40,40,31,27,12,25,,20,20,35,27,7,6,1.0,0.7
2024-02-06T1700,1385A,113.0219,22.5311,江门市,圭峰西,细颗粒物(PM2.5),64,50,31,46,22,34,,27,27,35,28,7,6,0.9,1
2024-02-06T1700,1386A,113.0828,22.5947,江门市,东湖,,40,40,26,28,10,30,,23,23,29,23,7,7,0.8,0.8
2024-02-06T1700,3311A,113.1075,22.5647,江门市,江海富民,,40,40,27,16,14,36,,25,25,34,26,8,7,0.9,0.8
2024-02-06T1700,3449A,113.05,22.4667,江门市,新会银湖,,50,48,29,35,18,41,,29,29,25,19,7,6,0.8,0.8
2024-02-06T1700,1828A,113.227,35.2125,焦作市,市环保局,细颗粒物(PM2.5),217,199,181,167,153,89,,72,72,30,38,13,12,1.5,1.6
2024-02-06T1700,3169A,113.2725,35.2067,焦作市,太极体育中心,细颗粒物(PM2.5),224,206,188,174,159,94,,73,73,25,33,8,10,,1.8
2024-02-06T1700,3335A,113.3137,35.2641,焦作市,马村街道办,细颗粒物(PM2.5),222,183,168,172,149,95,,79,79,27,30,13,10,1.3,1.4
2024-02-06T1700,3336A,113.2465,35.2373,焦作市,焦作技师学院,细颗粒物(PM2.5),213,181,167,163,149,95,,76,76,27,32,18,16,1.5,1.5
2024-02-06T1700,3477A,113.1656,35.2539,焦作市,中站许衡医院,细颗粒物(PM2.5),200,164,169,150,138,92,,80,80,32,36,16,13,1.4,1.5
2024-02-06T1700,3981A,113.2449,35.1803,焦作市,原李万街道办,细颗粒物(PM2.5),216,199,179,166,156,97,,85,85,37,41,8,7,1.5,1.6
2024-02-06T1700,1708A,116.3701,23.5345,揭阳市,新兴,,32,28,26,14,20,101,,81,81,13,12,8,8,0.9,0.9
2024-02-06T1700,1709A,116.3264,23.5443,揭阳市,西马,,,26,28,7,19,107,,86,86,9,10,,8,0.7,0.7
2024-02-06T1700,1710A,116.3611,23.5626,揭阳市,东兴,,34,24,27,14,19,106,,84,84,9,8,9,8,0.9,0.8
2024-02-06T1700,1711A,116.4151,23.5294,揭阳市,渔湖,,32,32,24,14,12,102,,82,82,10,10,8,8,0.8,0.7
2024-02-06T1700,3320A,116.403,23.5699,揭阳市,曲溪,,34,34,28,22,16,104,,84,84,12,9,6,3,1.0,0.7
2024-02-06T1700,1944A,102.1692,38.5167,金昌市,天庆家园,细颗粒物(PM2.5),82,93,86,60,48,90,,83,83,25,26,43,8,0.8,1.1
2024-02-06T1700,3170A,102.1864,38.5253,金昌市,市委党校,细颗粒物(PM2.5),69,74,93,50,55,91,,78,78,14,22,6,10,0.8,0.9
2024-02-06T1700,4022A,102.1647,38.5371,金昌市,金川区人防中心,颗粒物(PM10),60,69,82,33,47,92,,86,86,16,18,5,11,0.9,1.1
2024-02-06T1700,1262A,119.647,29.077,金华市,十五中,,29,,36,20,28,46,,52,48,23,20,2,2,0.6,0.7
2024-02-06T1700,1263A,119.686,29.1029,金华市,监测站,,26,21,39,18,32,46,,52,51,22,15,2,2,0.7,0.7
2024-02-06T1700,3659A,119.656,29.1131,金华市,气象局,,22,19,38,15,30,47,,51,51,21,20,2,2,0.9,0.9
2024-02-06T1700,1767A,121.1115,41.0879,锦州市,南山,,43,43,34,26,29,88,,83,83,14,16,16,18,0.6,0.8
2024-02-06T1700,1768A,121.0533,40.8434,锦州市,开发区,,50,50,42,35,33,66,,72,72,30,21,17,20,0.6,0.8
2024-02-06T1700,1769A,121.1836,41.1119,锦州市,百股街道,颗粒物(PM10),52,53,41,17,26,88,,84,84,10,13,13,19,0.5,0.8
2024-02-06T1700,1770A,121.1178,41.1222,锦州市,天安街道,,45,45,35,22,22,72,,74,74,24,13,14,14,0.6,0.6
2024-02-06T1700,1771A,121.1303,41.1386,锦州市,北湖公园,,38,33,30,26,24,82,,82,82,15,11,16,17,0.7,0.8
2024-02-06T1700,2160A,112.85,35.5051,晋城市,自来水公司,细颗粒物(PM2.5),100,92,106,75,95,110,,100,100,29,30,21,11,2.4,1.8
2024-02-06T1700,2161A,112.8318,35.4936,晋城市,白云商贸,,,,105,,84,110,,104,104,,28,16,10,,1.5
2024-02-06T1700,2162A,112.8508,35.4887,晋城市,市环保局,细颗粒物(PM2.5),113,114,122,85,95,105,,98,98,30,31,20,12,2.3,1.8
2024-02-06T1700,2163A,112.8676,35.4897,晋城市,技术学院,细颗粒物(PM2.5),107,136,112,80,96,99,,89,89,35,40,24,11,2.7,1.8
2024-02-06T1700,3620A,112.8271,35.4828,晋城市,泽州一中,细颗粒物(PM2.5),79,81,91,58,75,102,,101,101,37,32,14,9,1.5,1.3
2024-02-06T1700,2171A,112.7532,37.6945,晋中市,锦纶小区,细颗粒物(PM2.5),77,88,138,56,121,95,,70,70,24,38,9,13,0.6,1.1
2024-02-06T1700,2173A,112.7249,37.7067,晋中市,南都小区,颗粒物(PM10),68,86,147,48,113,97,,70,70,22,43,10,14,0.7,1.2
2024-02-06T1700,2174A,112.6991,37.6982,晋中市,榆次区政府,颗粒物(PM10),65,79,134,46,108,98,,67,67,16,38,10,14,0.6,1.3
2024-02-06T1700,2865A,112.7195,37.6828,晋中市,榆次三中,细颗粒物(PM2.5),73,90,137,53,110,94,,68,68,23,37,11,13,1.1,1.3
2024-02-06T1700,2439A,112.2014,31.0481,荆门市,竹园小学,细颗粒物(PM2.5),90,83,99,67,88,92,,86,86,15,17,10,8,0.8,0.9
2024-02-06T1700,2440A,112.1969,30.9891,荆门市,掇刀,细颗粒物(PM2.5),100,,94,75,85,82,,87,87,17,14,7,12,0.7,0.9
2024-02-06T1700,2441A,112.2213,31.0386,荆门市,石化一小,,,,101,,86,94,,89,89,,17,8,13,,0.8
2024-02-06T1700,3012A,112.1849,31.0362,荆门市,西山林语,细颗粒物(PM2.5),88,77,93,65,84,98,,92,92,10,12,9,8,0.7,0.7
2024-02-06T1700,3547A,112.1632,31.0138,荆门市,龙泉中学南校,细颗粒物(PM2.5),87,74,96,64,85,97,,94,94,4,8,10,10,0.7,0.8
2024-02-06T1700,1844A,112.2494,30.3197,荆州市,市图书馆,细颗粒物(PM2.5),112,,80,84,92,87,,82,82,20,23,5,6,1.0,1
2024-02-06T1700,1845A,112.2008,30.3544,荆州市,市委党校,细颗粒物(PM2.5),117,,87,88,90,94,,89,89,15,22,5,5,1.1,1.2
2024-02-06T1700,3194A,112.2747,30.3122,荆州市,管委会,细颗粒物(PM2.5),117,95,77,88,97,90,,86,86,15,21,7,8,1.0,1
2024-02-06T1700,3548A,112.1655,30.3364,荆州市,学苑路,细颗粒物(PM2.5),109,,71,82,84,88,,84,84,18,22,9,7,0.9,1
2024-02-06T1700,2342A,117.3102,29.3867,景德镇市,王港中学,,14,,18,9,18,44,,43,43,3,3,2,2,0.5,0.5
2024-02-06T1700,2343A,117.2117,29.2933,景德镇市,老干部活动中心,,12,12,20,8,18,37,,36,36,10,9,4,4,0.5,0.5
2024-02-06T1700,2344A,117.1894,29.2789,景德镇市,兽医站,,16,16,24,8,18,37,,38,37,6,5,5,4,0.5,0.5
2024-02-06T1700,2345A,117.1547,29.2617,景德镇市,台达陶瓷,,13,10,18,9,16,37,,37,37,11,10,4,4,0.5,0.5
2024-02-06T1700,2346A,117.2461,29.2956,景德镇市,陶研所,,11,10,19,4,13,35,,37,36,9,10,3,4,0.5,0.5
2024-02-06T1700,1803A,115.9872,29.6815,九江市,十里,细颗粒物(PM2.5),54,56,58,38,50,66,,73,63,17,18,8,8,0.6,0.7
2024-02-06T1700,1804A,115.9584,29.7046,九江市,茅山头,细颗粒物(PM2.5),64,52,57,46,52,54,,62,52,22,22,10,8,0.6,0.8
2024-02-06T1700,1805A,115.9877,29.7295,九江市,西园,细颗粒物(PM2.5),77,59,56,56,56,60,,67,59,19,19,6,6,0.6,0.7
2024-02-06T1700,1806A,116.0172,29.6547,九江市,五七二七厂,细颗粒物(PM2.5),70,61,60,51,53,56,,59,54,14,14,8,7,0.7,0.7
2024-02-06T1700,1808A,115.9114,29.6038,九江市,综合工业园,细颗粒物(PM2.5),82,,58,60,61,54,,60,50,24,25,9,9,0.7,0.8
2024-02-06T1700,1809A,116.0721,29.7535,九江市,石化总厂,,,55,56,47,48,,,71,64,,18,,6,,0.6
2024-02-06T1700,1810A,115.9773,29.5698,九江市,庐山气象台,,23,,8,12,10,73,,81,65,4,4,7,11,1.4,1.2
2024-02-06T1700,3190A,116.0254,29.6994,九江市,外国语学校,细颗粒物(PM2.5),74,56,59,54,54,56,,60,54,22,23,9,8,0.5,0.6
2024-02-06T1700,2658A,98.5061,39.7443,酒泉市,仓门街子站,,39,39,79,25,46,81,,65,65,8,18,3,3,0.6,0.8
2024-02-06T1700,2659A,98.4989,39.7256,酒泉市,油田生活基地,细颗粒物(PM2.5),55,41,85,39,49,80,,61,61,9,18,6,5,0.4,0.7
2024-02-06T1700,2698A,76.0072,39.4467,喀什地区,巡警大队,颗粒物(PM10),54,58,73,22,33,80,,54,50,15,27,4,4,0.8,1.2
2024-02-06T1700,2699A,75.9755,39.4694,喀什地区,吾办,颗粒物(PM10),63,76,97,44,69,71,,50,43,22,30,6,6,0.8,1.1
2024-02-06T1700,4027A,75.9483,39.4689,喀什地区,老干局,细颗粒物(PM2.5),59,65,81,42,43,75,,44,43,20,26,5,6,0.9,1.4
2024-02-06T1700,1824A,114.3389,34.7781,开封市,肿瘤医院,细颗粒物(PM2.5),145,141,132,111,131,116,,108,108,22,27,4,3,0.9,1
2024-02-06T1700,1826A,114.2885,34.7965,开封市,世纪星幼儿园,细颗粒物(PM2.5),159,,117,121,135,130,,123,123,26,29,6,5,1.1,1
2024-02-06T1700,3147A,114.3438,34.8106,开封市,龙亭公园,细颗粒物(PM2.5),143,127,124,109,138,121,,113,113,18,26,4,4,0.9,1
2024-02-06T1700,3210A,114.3644,34.7964,开封市,汴京公园,细颗粒物(PM2.5),134,119,128,102,141,124,,117,117,20,28,5,2,0.7,1.1
2024-02-06T1700,3473A,114.2485,34.8306,开封市,技师学院,细颗粒物(PM2.5),175,,120,132,138,125,,118,118,22,21,5,4,1.2,1.2
2024-02-06T1700,1951A,84.895,45.6094,克拉玛依市,长征新村,细颗粒物(PM2.5),102,104,104,76,66,85,,68,68,44,47,9,8,1.0,1
2024-02-06T1700,1952A,84.8988,45.5893,克拉玛依市,南林小区,细颗粒物(PM2.5),90,,107,67,68,83,,68,50,40,49,4,4,2.7,1
2024-02-06T1700,1954A,84.905,44.3396,克拉玛依市,独山子区,细颗粒物(PM2.5),202,201,202,152,164,92,,75,74,84,56,5,5,1.4,1.4
2024-02-06T1700,1955A,85.6979,46.098,克拉玛依市,乌尔禾区商贸楼,细颗粒物(PM2.5),97,86,102,72,84,88,,67,67,44,61,7,6,1.1,1.4
2024-02-06T1700,3612A,85.1045,45.6899,克拉玛依市,白碱滩区新站,细颗粒物(PM2.5),87,118,114,64,63,81,,61,61,42,42,9,9,0.9,0.9
2024-02-06T1700,2697A,76.1454,39.7142,克孜勒苏柯尔克孜自治州,市人民政府,细颗粒物(PM2.5),58,49,52,41,33,79,,59,59,8,13,4,4,0.6,0.6
2024-02-06T1700,3665A,76.1658,39.7157,克孜勒苏柯尔克孜自治州,克州文化中心,颗粒物(PM10),52,54,55,26,34,78,,63,56,11,16,8,8,0.7,0.7
2024-02-06T1700,1450A,102.8204,24.8886,昆明市,呈贡新区,,27,17,26,10,19,84,,84,84,4,8,4,5,0.6,0.6
2024-02-06T1700,1451A,102.6251,24.9608,昆明市,西山森林公园,,29,19,22,0,13,91,,94,92,4,5,6,7,0.6,0.6
2024-02-06T1700,1452A,102.7252,25.0902,昆明市,龙泉镇,,27,23,30,11,19,85,,84,84,6,28,9,9,0.3,0.3
2024-02-06T1700,1453A,102.7266,25.0375,昆明市,东风东路,,26,22,25,17,19,81,,82,82,10,12,9,10,0.5,0.4
2024-02-06T1700,1454A,102.6742,25.0669,昆明市,金鼎山,,27,27,29,6,17,86,,86,86,9,15,15,15,0.5,0.5
2024-02-06T1700,1455A,102.6644,25.0401,昆明市,碧鸡广场,,27,19,30,13,21,85,,86,86,6,18,7,8,0.5,0.6
2024-02-06T1700,3179A,102.7494,25.0119,昆明市,官渡区博物馆,,27,17,25,15,17,84,,84,84,5,7,7,8,0.2,0.4
2024-02-06T1700,3375A,102.8017,24.8336,昆明市,青年创业园,,29,17,26,12,19,91,,90,90,2,6,8,9,0.4,0.4
2024-02-06T1700,3550A,102.7997,24.9786,昆明市,昆明学院,,26,19,26,11,16,83,,83,83,1,4,9,11,0.4,0.4
2024-02-06T1700,3551A,102.5967,24.6736,昆明市,晋宁区生态环境分局,,29,25,29,14,18,91,,89,89,7,10,4,4,0.4,0.5
2024-02-06T1700,3552A,102.6678,24.9856,昆明市,云天化总部,,29,18,22,10,15,90,,90,90,3,7,6,6,0.5,0.6
2024-02-06T1700,1456A,91.1319,29.6514,拉萨市,八廓街,,47,47,33,9,10,106,,92,92,9,15,7,7,0.2,0.4
2024-02-06T1700,1457A,91.1221,29.6747,拉萨市,市环保局,,,50,41,9,14,110,,90,90,,16,8,7,0.5,0.7
2024-02-06T1700,1458A,91.0874,29.6475,拉萨市,区监测站,,40,40,29,8,9,110,,92,92,4,10,4,4,0.4,0.5
2024-02-06T1700,1459A,91.1774,29.6541,拉萨市,西藏大学,,47,47,32,6,10,107,,93,93,4,10,4,4,0.2,0.3
2024-02-06T1700,1460A,90.9798,29.6588,拉萨市,区辐射站,,49,49,39,8,14,105,,90,90,6,12,5,5,0.4,0.5
2024-02-06T1700,1461A,91.0834,29.6292,拉萨市,拉萨火车站,,44,44,36,8,11,110,,85,85,4,12,4,5,0.1,0.3
2024-02-06T1700,2520A,109.2203,23.7256,来宾市,来宾技工学校,,27,27,17,9,9,38,,38,38,12,9,5,5,1.0,0.9
2024-02-06T1700,3535A,109.1781,23.7297,来宾市,兴宾区政府,,26,26,19,16,12,40,,40,40,11,9,6,6,1.1,0.9
2024-02-06T1700,4002A,109.2416,23.7461,来宾市,中南小学,,,33,20,15,10,38,,38,38,,11,3,4,1.2,1.1
2024-02-06T1700,1476A,103.631,36.1031,兰州市,兰炼宾馆,颗粒物(PM10),68,85,56,46,41,110,,82,82,39,26,15,18,0.9,0.6
2024-02-06T1700,1478A,103.8412,36.0726,兰州市,生物制品所,细颗粒物(PM2.5),64,48,60,46,50,83,,83,83,34,25,11,15,0.9,0.8
2024-02-06T1700,1479A,103.831,36.0464,兰州市,铁路设计院,细颗粒物(PM2.5),63,71,58,45,44,67,,72,65,52,39,14,17,0.9,0.7
2024-02-06T1700,3186A,103.7158,36.1058,兰州市,教育港,颗粒物(PM10),69,88,48,39,37,93,,84,84,34,33,11,13,0.9,0.6
2024-02-06T1700,3241A,103.7439,36.0842,兰州市,百合公园,,45,45,48,31,37,85,,74,74,33,28,10,14,1.0,0.8
2024-02-06T1700,3242A,103.9611,35.998,兰州市,和平,细颗粒物(PM2.5),62,,60,44,47,90,,73,73,20,31,12,13,0.8,0.8
2024-02-06T1700,3245A,103.6633,36.533,兰州新区,新区管委会,,39,35,45,27,30,109,,94,94,10,15,9,19,0.5,0.7
2024-02-06T1700,3246A,103.6975,36.4789,兰州新区,舟曲中学,,38,35,41,26,28,108,,101,101,13,16,15,22,0.5,0.5
2024-02-06T1700,1067A,116.6708,39.5111,廊坊市,药材公司,,44,44,96,18,65,81,,66,66,16,28,1,2,0.4,0.8
2024-02-06T1700,1068A,116.7214,39.5589,廊坊市,开发区,,33,33,85,14,69,80,,65,65,14,29,2,2,0.3,0.7
2024-02-06T1700,1070A,116.7244,39.5269,廊坊市,北华航天学院,,31,31,102,13,83,86,,67,67,14,27,2,3,0.3,0.8
2024-02-06T1700,2919A,116.7022,39.5453,廊坊市,河北工业大学,,27,27,89,12,65,83,,68,68,14,27,2,2,0.3,0.7
2024-02-06T1700,2535A,103.7723,29.5462,乐山市,花湖湾,细颗粒物(PM2.5),68,75,55,49,43,47,,28,28,12,14,5,9,0.6,0.6
2024-02-06T1700,2536A,103.7627,29.5844,乐山市,牛耳桥,细颗粒物(PM2.5),65,62,53,47,42,45,,32,32,24,26,4,4,0.7,0.8
2024-02-06T1700,2537A,103.7508,29.6006,乐山市,市第三水厂,细颗粒物(PM2.5),62,59,53,44,36,50,,33,33,21,24,3,3,0.7,1
2024-02-06T1700,2538A,103.7571,29.5664,乐山市,市监测站,细颗粒物(PM2.5),58,56,43,41,31,50,,34,34,11,15,5,6,1.0,1
2024-02-06T1700,3361A,103.7311,29.5628,乐山市,理工大学,细颗粒物(PM2.5),64,55,46,46,39,48,,32,32,16,20,4,5,0.7,0.7
2024-02-06T1700,2599A,100.2497,26.8802,丽江市,丽江古城,,33,33,33,10,21,91,,86,86,15,17,7,7,0.6,0.6
2024-02-06T1700,2600A,100.2203,26.8906,丽江市,市中心,,30,22,22,6,15,94,,83,83,7,11,7,8,0.7,0.7
2024-02-06T1700,1267A,119.914,28.4514,丽水市,监测站大楼,,,,12,6,12,40,,41,41,15,12,3,3,0.6,0.6
2024-02-06T1700,1268A,119.93,28.4586,丽水市,莲都小学,,15,2,13,2,10,45,,45,45,7,6,3,3,0.6,0.6
2024-02-06T1700,1269A,119.879,28.4231,丽水市,余庄前,,13,4,14,3,12,40,,38,38,8,7,4,4,0.5,0.6
2024-02-06T1700,1173A,119.176,34.5885,连云港市,市环境监测站,细颗粒物(PM2.5),70,73,79,51,68,76,,70,70,36,38,17,11,1.5,1
2024-02-06T1700,3000A,119.3581,34.6972,连云港市,德源药业,细颗粒物(PM2.5),62,58,60,44,49,73,,70,70,34,41,12,8,0.8,1.1
2024-02-06T1700,3007A,119.178,34.844,连云港市,新城一中,细颗粒物(PM2.5),69,64,71,50,64,90,,80,80,27,25,18,16,1.0,0.9
2024-02-06T1700,3008A,119.3608,34.7519,连云港市,胡沟管理处,细颗粒物(PM2.5),55,56,55,39,39,80,,74,74,20,18,13,12,0.8,0.9
2024-02-06T1700,3009A,119.1478,34.5911,连云港市,矿山设计院,细颗粒物(PM2.5),70,70,88,51,69,76,,68,68,25,38,16,12,1.1,1
2024-02-06T1700,3434A,119.2413,34.6539,连云港市,工贸学校,细颗粒物(PM2.5),62,71,80,44,63,93,,84,84,24,29,20,13,1.4,0.9
2024-02-06T1700,3664A,119.4172,34.7341,连云港市,连云街道,颗粒物(PM10),58,65,59,38,41,61,,69,69,48,32,14,15,0.9,1
2024-02-06T1700,2571A,102.3431,27.8099,凉山彝族自治州,青龙寺,,38,38,30,4,6,98,,95,95,3,4,4,4,1.1,1.1
2024-02-06T1700,2572A,102.2721,27.8415,凉山彝族自治州,邛海宾馆,,37,37,35,18,25,93,,90,90,5,8,8,12,0.6,0.8
2024-02-06T1700,2573A,102.2625,27.898,凉山彝族自治州,西昌市政府,,29,21,36,14,29,91,,89,89,4,8,7,11,0.7,0.9
2024-02-06T1700,2574A,102.2685,27.8851,凉山彝族自治州,凉山州政府,,28,23,36,19,29,88,,86,86,5,9,7,10,0.6,0.8
2024-02-06T1700,2575A,102.237,27.8914,凉山彝族自治州,长安,,30,21,33,13,22,96,,93,93,5,7,9,11,0.7,0.8
2024-02-06T1700,2212A,123.2,41.1953,辽阳市,宏伟区,细颗粒物(PM2.5),85,67,88,63,80,90,,76,76,22,27,13,16,1.0,1.1
2024-02-06T1700,2213A,123.1683,41.2495,辽阳市,新华园,细颗粒物(PM2.5),82,62,84,60,85,91,,78,78,23,32,11,17,0.8,1.1
2024-02-06T1700,2214A,123.2354,41.2639,辽阳市,滨河路,细颗粒物(PM2.5),85,,80,63,94,88,,77,77,19,25,10,12,0.9,1.1
2024-02-06T1700,2215A,123.149,41.2991,辽阳市,铁西工业园,细颗粒物(PM2.5),69,51,76,50,79,98,,85,85,18,26,11,14,0.7,1
2024-02-06T1700,2227A,125.1358,42.8845,辽源市,环保局,细颗粒物(PM2.5),82,67,83,60,72,99,,94,94,30,30,21,19,0.9,0.9
2024-02-06T1700,3239A,125.0764,42.9078,辽源市,银鹰制药,细颗粒物(PM2.5),85,78,93,63,82,108,,98,98,26,23,17,12,1.0,1
2024-02-06T1700,1625A,115.9848,36.4372,聊城市,区政府,细颗粒物(PM2.5),97,116,91,72,72,82,,80,80,40,43,8,6,1.0,1
2024-02-06T1700,2878A,116.0072,36.4343,聊城市,聊大东校,细颗粒物(PM2.5),119,121,93,90,74,100,,88,88,34,39,10,7,1.2,1
2024-02-06T1700,3200A,115.9819,36.4978,聊城市,监控中心,细颗粒物(PM2.5),119,106,110,90,86,108,,84,84,32,60,10,10,1.3,1.4
2024-02-06T1700,3513A,116.0445,36.4361,聊城市,九州社区,细颗粒物(PM2.5),117,132,93,88,70,102,,89,89,31,35,11,6,1.3,1
2024-02-06T1700,4018A,116.0567,36.4608,聊城市,星美广场,细颗粒物(PM2.5),112,130,94,84,75,102,,83,83,28,46,7,7,1.3,1.1
2024-02-06T1700,2632A,94.3681,29.6376,林芝市,林芝监测站,,32,,7,9,5,102,,94,94,3,3,5,4,0.5,0.5
2024-02-06T1700,2633A,94.3616,29.6616,林芝市,林芝人民医院,,31,7,10,3,5,98,,90,89,4,5,9,9,0.5,0.5
2024-02-06T1700,2603A,100.0781,23.8982,临沧市,市环保局,,38,26,30,26,29,93,,74,74,5,11,7,7,0.2,0.4
2024-02-06T1700,2604A,100.0894,23.8822,临沧市,市气象局,,33,33,34,22,27,86,,69,69,6,13,5,7,0.3,0.5
2024-02-06T1700,1733A,111.5531,36.0783,临汾市,临钢医院,细颗粒物(PM2.5),208,206,176,158,139,103,,82,82,31,30,8,8,1.5,1.6
2024-02-06T1700,1734A,111.5028,36.0714,临汾市,技工学校,细颗粒物(PM2.5),201,185,176,151,147,121,,88,88,25,33,10,11,1.4,1.5
2024-02-06T1700,1736A,111.5018,36.0855,临汾市,市委,细颗粒物(PM2.5),205,186,173,155,142,112,,84,84,26,37,8,8,1.5,1.8
2024-02-06T1700,3018A,111.505,36.1014,临汾市,唐尧大酒店,细颗粒物(PM2.5),202,168,155,152,136,100,,85,85,34,33,11,11,1.4,1.5
2024-02-06T1700,3668A,111.5036,36.0414,临汾市,城南,细颗粒物(PM2.5),199,162,179,149,151,145,,100,100,19,39,10,8,1.4,1.7
2024-02-06T1700,2667A,103.2069,35.5993,临夏回族自治州,环保局,,48,46,46,33,28,82,,78,78,14,17,14,19,0.6,0.7
2024-02-06T1700,2668A,103.2417,35.6057,临夏回族自治州,建设大厦,,38,38,42,21,27,90,,84,84,4,6,13,16,0.7,0.8
2024-02-06T1700,1618A,118.3429,35.0532,临沂市,沂河小区,细颗粒物(PM2.5),104,92,103,78,91,101,,87,87,23,32,12,10,1.0,1.1
2024-02-06T1700,1619A,118.295,35.0583,临沂市,鲁南制药厂,细颗粒物(PM2.5),90,92,103,67,90,112,,95,95,26,31,11,12,1.3,1.3
2024-02-06T1700,1620A,118.2794,34.9976,临沂市,新光毛纺厂,细颗粒物(PM2.5),99,102,102,74,85,99,,86,86,32,39,13,10,1.1,1.1
2024-02-06T1700,1621A,118.3956,35.0888,临沂市,河东保险公司,细颗粒物(PM2.5),117,107,99,88,86,112,,95,95,25,32,14,10,1.2,1.3
2024-02-06T1700,3370A,118.3564,35.0215,临沂市,十里堡居委,细颗粒物(PM2.5),110,97,102,83,87,112,,98,98,31,40,11,10,1.2,1.3
2024-02-06T1700,3496A,118.3604,35.1084,临沂市,南坊新区,细颗粒物(PM2.5),117,107,103,88,89,114,,95,95,30,36,15,12,1.1,1.2
2024-02-06T1700,3860A,118.3920,35.0300,临沂市,皇山花园小区,细颗粒物(PM2.5),109,114,96,82,77,112,,96,96,30,32,15,12,1.1,1.1
2024-02-06T1700,1870A,109.4856,24.3895,柳州市,柳东小学,,38,38,17,14,11,35,,43,42,9,8,6,6,0.6,0.5
2024-02-06T1700,1871A,109.4157,24.3277,柳州市,环保监测站,,19,19,13,5,7,38,,41,41,6,7,6,6,0.6,0.5
2024-02-06T1700,1872A,109.389,24.341,柳州市,河西水厂,,18,13,19,12,13,37,,34,34,8,20,6,10,0.8,1.4
2024-02-06T1700,1873A,109.4311,24.2921,柳州市,市四中,,22,22,14,14,7,36,,41,40,10,8,5,5,0.6,0.8
2024-02-06T1700,1874A,109.4006,24.3631,柳州市,市九中,,16,16,14,6,9,39,,40,40,4,11,2,3,0.7,0.7
2024-02-06T1700,1875A,109.4958,24.3134,柳州市,古亭山,,14,14,12,8,7,32,,36,35,7,6,6,6,0.7,0.7
2024-02-06T1700,3402A,109.5422,24.3996,柳州市,市二中,,18,18,16,8,9,38,,39,37,6,5,6,6,0.9,0.9
2024-02-06T1700,2307A,116.5079,31.737,六安市,监测大楼,细颗粒物(PM2.5),97,82,66,72,65,81,,75,75,23,18,4,3,0.7,0.7
2024-02-06T1700,2308A,116.4738,31.7643,六安市,皖西学院,细颗粒物(PM2.5),92,86,76,68,63,89,,80,80,17,14,2,2,0.6,0.5
2024-02-06T1700,2309A,116.4996,31.7905,六安市,朝阳厂,细颗粒物(PM2.5),97,77,66,72,64,89,,78,78,15,13,3,4,0.5,0.5
2024-02-06T1700,2310A,116.5567,31.7886,六安市,开发区,细颗粒物(PM2.5),100,83,78,75,62,91,,80,80,15,12,3,3,0.5,0.5
2024-02-06T1700,2577A,104.83,26.5917,六盘水市,黄土坡,细颗粒物(PM2.5),59,60,34,42,28,18,,43,21,24,16,13,10,1.5,1.1
2024-02-06T1700,2578A,104.89,26.5939,六盘水市,水钢,细颗粒物(PM2.5),55,,25,39,20,28,,50,29,14,12,7,5,1.2,1.1
2024-02-06T1700,2579A,104.8475,26.5894,六盘水市,民中,,49,45,28,34,20,20,,46,21,21,14,10,8,1.2,1
2024-02-06T1700,2580A,104.9544,26.5506,六盘水市,双水,细颗粒物(PM2.5),53,41,21,37,17,27,,52,32,13,9,8,7,0.8,0.9
2024-02-06T1700,2336A,117.0217,25.1033,龙岩市,龙岩市监测站,,21,21,18,8,13,65,,63,63,5,11,2,5,0.4,0.6
2024-02-06T1700,2337A,117.0258,25.0661,龙岩市,闽西职业技术学院,,20,13,19,10,16,61,,56,56,4,9,2,3,0.5,0.6
2024-02-06T1700,2338A,117.0196,25.0306,龙岩市,龙岩学院,,23,23,19,14,17,61,,56,56,5,8,4,4,0.6,0.6
2024-02-06T1700,2885A,104.9339,33.3826,陇南市,滨江中学,颗粒物(PM10),53,55,57,35,38,73,,69,69,16,22,3,14,0.7,0.9
2024-02-06T1700,3247A,104.955,33.371,陇南市,市总工会,,50,50,55,33,37,79,,70,70,10,17,4,10,0.5,0.7
2024-02-06T1700,2487A,111.9589,27.8901,娄底市,电视发射台,,,61,44,37,26,76,,78,78,6,6,,4,0.8,0.8
2024-02-06T1700,2488A,111.9975,27.725,娄底市,市监测站,细颗粒物(PM2.5),69,71,40,50,32,70,,67,67,13,12,7,7,0.9,0.9
2024-02-06T1700,2489A,112.0194,27.7314,娄底市,市委党校,细颗粒物(PM2.5),73,56,37,53,37,67,,68,66,12,12,4,4,0.7,0.7
2024-02-06T1700,2490A,111.9561,27.7569,娄底市,涟钢,细颗粒物(PM2.5),84,,40,62,35,59,,65,64,19,14,12,11,1.0,0.9
2024-02-06T1700,2491A,111.9892,27.7044,娄底市,市政府,细颗粒物(PM2.5),72,60,36,52,37,61,,67,63,21,15,5,6,0.8,0.8
2024-02-06T1700,1893A,105.4324,28.9634,泸州市,九狮山,细颗粒物(PM2.5),55,46,43,39,34,37,,28,28,17,18,5,5,0.6,0.5
2024-02-06T1700,1894A,105.4427,28.9063,泸州市,小市上码头,,,,40,,36,32,,23,23,16,21,,3,0.8,0.8
2024-02-06T1700,1895A,105.4241,28.8573,泸州市,兰田宪桥,细颗粒物(PM2.5),62,52,44,44,38,29,,26,26,25,22,3,3,0.6,0.6
2024-02-06T1700,1896A,105.4379,28.8833,泸州市,市环监站,细颗粒物(PM2.5),52,42,40,36,33,24,,19,19,20,19,1,5,0.6,0.8
2024-02-06T1700,3490A,105.3617,28.7703,泸州市,纳溪区环保局,"颗粒物(PM10),细颗粒物(PM2.5)",53,55,39,37,33,36,,29,29,16,16,3,3,0.9,0.9
2024-02-06T1700,2183A,111.1406,37.5211,吕梁市,环保局,细颗粒物(PM2.5),79,79,102,58,82,84,,64,64,24,44,7,8,0.6,0.9
2024-02-06T1700,2185A,111.1297,37.5136,吕梁市,自来水公司,细颗粒物(PM2.5),78,80,97,57,79,86,,71,71,28,43,6,9,0.8,1
2024-02-06T1700,2867A,111.1283,37.51,吕梁市,马茂庄小学,细颗粒物(PM2.5),74,81,104,54,79,87,,65,65,23,42,4,4,0.3,0.5
2024-02-06T1700,1812A,112.3931,34.6516,洛阳市,市委党校,细颗粒物(PM2.5),150,129,137,115,127,90,,62,62,30,42,9,6,1.2,1.4
2024-02-06T1700,1814A,112.4657,34.6871,洛阳市,豫西宾馆,细颗粒物(PM2.5),135,132,146,103,112,107,,72,72,27,43,10,8,1.2,1.2
2024-02-06T1700,1815A,112.494,34.6886,洛阳市,河南林校,细颗粒物(PM2.5),135,112,125,103,114,110,,71,71,20,38,10,6,1.3,1.4
2024-02-06T1700,1816A,112.3844,34.623,洛阳市,开发区管委会,细颗粒物(PM2.5),134,123,126,102,114,97,,73,73,25,36,5,8,1.3,1.3
2024-02-06T1700,1817A,112.4267,34.6258,洛阳市,市委新办公区,细颗粒物(PM2.5),152,116,128,116,132,99,,73,73,27,37,8,5,1.2,1.3
2024-02-06T1700,3340A,112.6005,34.6326,洛阳市,伊滨,细颗粒物(PM2.5),148,137,145,113,121,113,,85,85,22,28,10,6,1.5,1.4
2024-02-06T1700,3341A,112.4951,34.6332,洛阳市,中移产业园,细颗粒物(PM2.5),145,,125,111,131,107,,70,70,14,40,10,7,1.2,1.3
2024-02-06T1700,3593A,112.5736,34.8993,洛阳市,吉利监测站,细颗粒物(PM2.5),212,174,133,162,135,107,,93,93,34,38,6,6,1.9,1.5
2024-02-06T1700,3635A,112.3677,34.662,洛阳市,河科大西苑校区,细颗粒物(PM2.5),139,127,118,106,102,90,,72,72,30,40,6,7,1.1,1.4
2024-02-06T1700,3636A,112.4388,34.6781,洛阳市,英才小学,细颗粒物(PM2.5),139,122,139,106,119,105,,70,70,32,44,7,5,1.1,1.2
2024-02-06T1700,2399A,114.051,33.5699,漯河市,三五一五工厂,细颗粒物(PM2.5),134,,125,102,122,137,,129,129,15,25,4,5,0.7,0.9
2024-02-06T1700,2400A,114.0055,33.5698,漯河市,漯河大学,细颗粒物(PM2.5),119,91,118,90,120,136,,132,132,16,26,5,5,0.8,1
2024-02-06T1700,2401A,114.0138,33.5828,漯河市,市水利局,细颗粒物(PM2.5),132,,128,100,130,134,,131,131,12,17,8,8,0.7,0.9
2024-02-06T1700,2402A,114.0261,33.5698,漯河市,市广电局,细颗粒物(PM2.5),132,100,127,100,128,134,,129,129,26,36,3,3,0.8,1
2024-02-06T1700,3478A,113.9749,33.5664,漯河市,市图书馆,细颗粒物(PM2.5),120,95,131,91,124,126,,123,123,17,21,7,7,0.7,1.1
2024-02-06T1700,3479A,114.0967,33.5906,漯河市,召陵区卫健委,细颗粒物(PM2.5),162,124,139,123,126,142,,132,132,14,28,6,6,0.8,0.9
2024-02-06T1700,1798A,118.5092,31.6837,马鞍山市,湖东路四小,细颗粒物(PM2.5),95,92,83,71,62,78,,71,71,29,22,9,7,1.0,0.8
2024-02-06T1700,1799A,118.5024,31.6449,马鞍山市,开发区,细颗粒物(PM2.5),97,82,75,72,69,78,,72,72,25,19,5,4,0.9,0.8
2024-02-06T1700,1800A,118.5228,31.7231,马鞍山市,慈湖,细颗粒物(PM2.5),104,82,68,78,70,73,,64,64,32,26,6,4,0.7,0.5
2024-02-06T1700,1802A,118.6245,31.7241,马鞍山市,濮塘,细颗粒物(PM2.5),87,87,73,64,54,68,,64,64,19,14,6,4,0.8,0.6
2024-02-06T1700,3633A,118.4918,31.6809,马鞍山市,雨山,细颗粒物(PM2.5),99,97,84,74,69,75,,69,69,28,21,10,9,0.9,0.9
2024-02-06T1700,1686A,111.0286,21.4688,茂名市,电白南海,,35,29,33,24,23,48,,44,44,18,17,8,8,0.7,0.6
2024-02-06T1700,1687A,110.9294,21.6533,茂名市,茂石化七小,,49,46,37,34,27,34,,40,40,19,16,11,11,0.8,0.7
2024-02-06T1700,1688A,110.9107,21.6687,茂名市,健康路,,35,34,32,24,25,36,,39,39,14,12,7,7,0.8,0.7
2024-02-06T1700,1689A,110.8592,21.6828,茂名市,高岭,,45,41,39,31,27,33,,40,40,17,20,10,14,0.8,0.9
2024-02-06T1700,3450A,111.01,21.5165,茂名市,电白水东,,28,24,30,19,22,51,,50,48,14,14,5,5,0.9,0.8
2024-02-06T1700,2539A,104.0308,30.0478,眉山市,黑龙滩水库,细颗粒物(PM2.5),54,56,52,38,36,52,,37,37,12,10,3,2,0.7,0.7
2024-02-06T1700,2540A,103.8416,30.0874,眉山市,气象局,,49,49,51,34,38,53,,36,36,20,26,7,10,0.7,0.8
2024-02-06T1700,3137A,103.8578,30.0744,眉山市,市委党校,,46,46,53,31,40,52,,35,35,21,24,4,11,0.7,0.8
2024-02-06T1700,3148A,103.8291,30.0564,眉山市,区人社局,,42,42,48,29,41,50,,33,33,26,28,7,21,0.7,0.9
2024-02-06T1700,1690A,116.1231,24.3284,梅州市,梅江月梅,,,32,17,24,11,89,,54,54,6,10,,6,0.7,0.8
2024-02-06T1700,1691A,116.0797,24.2719,梅州市,梅县新城,,33,30,19,23,13,93,,65,65,11,9,5,5,0.7,0.6
2024-02-06T1700,1692A,116.1248,24.2654,梅州市,环境监控中心,,35,35,21,20,15,92,,60,60,9,12,4,5,0.6,0.7
2024-02-06T1700,3315A,116.1233,24.2991,梅州市,梅龙,,29,,15,16,14,90,,60,60,10,10,6,6,0.7,0.7
2024-02-06T1700,1878A,104.7778,31.4741,绵阳市,富乐山,,38,36,43,26,35,79,,65,65,6,22,6,6,0.6,0.8
2024-02-06T1700,1879A,104.7563,31.4535,绵阳市,市人大,,45,42,53,31,39,72,,58,58,14,32,5,5,0.8,1
2024-02-06T1700,1880A,104.6697,31.4668,绵阳市,高新区自来水公司,,48,33,54,33,45,79,,65,65,19,28,6,6,0.5,0.7
2024-02-06T1700,1881A,104.7287,31.5075,绵阳市,三水厂,,,42,51,39,46,81,,64,64,,22,4,7,,0.7
2024-02-06T1700,3491A,104.69,31.5322,绵阳市,西科大附属小学,,49,41,50,34,40,81,,62,62,10,20,6,6,0.5,0.7
2024-02-06T1700,3492A,104.5648,31.5343,绵阳市,安州区旅游局,细颗粒物(PM2.5),59,49,48,42,40,61,,53,53,16,18,3,5,0.8,0.8
2024-02-06T1700,1784A,129.61,44.561,牡丹江市,环保大楼,细颗粒物(PM2.5),73,86,98,53,71,54,,70,70,59,53,23,19,0.8,1.1
2024-02-06T1700,1785A,129.6115,44.5782,牡丹江市,文化广场,颗粒物(PM10),78,105,107,54,81,39,,60,60,70,59,21,18,1.2,1.3
2024-02-06T1700,1786A,129.5904,44.5963,牡丹江市,第一医院,细颗粒物(PM2.5),93,78,106,69,97,60,,62,62,47,57,16,18,0.8,1.2
2024-02-06T1700,1787A,129.6364,44.6075,牡丹江市,机车工厂,颗粒物(PM10),72,94,114,45,82,25,,52,52,79,63,16,14,0.7,1.1
2024-02-06T1700,1788A,129.6386,44.5462,牡丹江市,第一中学,细颗粒物(PM2.5),73,87,75,53,62,45,,72,72,55,36,23,15,0.7,0.9
2024-02-06T1700,2531A,105.0703,29.61,内江市,市监测站,细颗粒物(PM2.5),62,,46,44,45,52,,36,36,22,20,8,8,0.9,0.8
2024-02-06T1700,2532A,105.0717,29.5947,内江市,东兴区政府,细颗粒物(PM2.5),57,42,44,40,39,50,,33,33,13,15,8,8,0.7,0.7
2024-02-06T1700,2533A,105.0653,29.5817,内江市,内江二中,,,,41,35,36,54,,36,36,25,28,,5,1.0,1
2024-02-06T1700,2534A,105.0406,29.5822,内江市,内江日报社,颗粒物(PM10),61,71,45,39,38,55,,38,38,14,16,5,5,0.8,0.8
2024-02-06T1700,2628A,92.0657,31.4846,那曲市,那曲监测站,,34,14,46,2,26,107,,84,84,6,10,3,7,0.7,1.2
2024-02-06T1700,3128A,92.0506,31.4797,那曲市,那曲会议中心,,35,10,40,0,15,110,,85,85,1,10,5,6,0.4,0.7
2024-02-06T1700,1290A,115.8931,28.6843,南昌市,省外办,细颗粒物(PM2.5),52,39,54,36,51,46,,52,49,17,14,4,4,0.7,0.7
2024-02-06T1700,1291A,115.8886,28.7003,南昌市,省林业公司,细颗粒物(PM2.5),55,,43,39,47,47,,53,50,17,16,4,4,0.8,0.9
2024-02-06T1700,1292A,115.8126,28.7442,南昌市,林科所,,45,,36,31,36,58,,59,56,8,10,2,5,0.5,0.5
2024-02-06T1700,1294A,115.8518,28.687,南昌市,建工学校,,46,46,47,27,42,47,,55,48,23,20,8,9,0.5,0.5
2024-02-06T1700,1295A,115.8921,28.6424,南昌市,象湖,细颗粒物(PM2.5),53,,43,37,47,53,,58,53,18,17,6,6,0.7,0.8
2024-02-06T1700,1296A,115.7423,28.7996,南昌市,武术学校,,,,40,36,40,49,,64,58,,5,10,2,,0.7
2024-02-06T1700,1298A,115.9314,28.6842,南昌市,省站,,46,32,49,32,49,51,,57,53,14,13,5,5,0.6,0.6
2024-02-06T1700,3046A,115.9084,28.6062,南昌市,机电学校,,39,33,49,27,46,51,,55,52,18,17,5,5,0.4,0.5
2024-02-06T1700,3690A,115.9721,28.7031,南昌市,外国语学校,,45,,50,31,48,45,,52,46,15,14,6,7,0.6,0.7
2024-02-06T1700,1905A,106.056,30.8064,南充市,西山风景区,细颗粒物(PM2.5),62,,36,44,43,33,,28,24,9,11,3,3,0.9,0.8
2024-02-06T1700,1906A,106.0789,30.8023,南充市,南充市委,细颗粒物(PM2.5),55,57,51,39,34,31,,21,21,21,21,5,4,0.6,0.6
2024-02-06T1700,1907A,106.1031,30.8217,南充市,南充炼油厂,,,62,54,45,44,36,,23,23,13,15,4,4,,0.5
2024-02-06T1700,1908A,106.1064,30.7856,南充市,高坪区监测站,细颗粒物(PM2.5),63,55,54,45,41,42,,26,26,10,17,6,5,0.5,0.6
2024-02-06T1700,1909A,106.0642,30.7636,南充市,嘉陵区环保局,颗粒物(PM10),54,57,53,36,39,28,,18,18,21,19,3,3,0.7,0.7
2024-02-06T1700,1910A,106.1087,30.8388,南充市,市环境监测站,细颗粒物(PM2.5),60,46,53,43,43,39,,26,26,13,12,6,6,0.7,0.6
2024-02-06T1700,1151A,118.8086,32.1065,南京市,迈皋桥,细颗粒物(PM2.5),58,51,67,41,56,67,,61,61,17,16,4,4,0.5,0.4
2024-02-06T1700,1152A,118.7538,32.0551,南京市,草场门,细颗粒物(PM2.5),73,63,64,53,60,87,,84,84,21,18,3,3,0.6,0.4
2024-02-06T1700,1153A,118.7794,32.0745,南京市,山西路,细颗粒物(PM2.5),67,53,62,48,61,89,,79,79,19,22,6,4,0.8,0.6
2024-02-06T1700,1154A,118.7752,32.0023,南京市,中华门,细颗粒物(PM2.5),77,70,64,56,60,79,,76,76,24,19,8,7,0.3,0.6
2024-02-06T1700,1155A,118.8109,32.0309,南京市,瑞金路,细颗粒物(PM2.5),77,70,70,56,58,78,,70,70,20,19,4,4,0.9,0.8
2024-02-06T1700,1156A,118.7997,32.0754,南京市,玄武湖,颗粒物(PM10),60,70,74,32,55,82,,72,72,13,15,8,7,0.2,0.6
2024-02-06T1700,1157A,118.6414,32.0931,南京市,浦口,细颗粒物(PM2.5),87,97,71,64,56,82,,74,74,20,16,5,4,0.7,0.5
2024-02-06T1700,1158A,118.7356,31.9996,南京市,奥体中心,,,83,72,61,57,85,,80,80,25,21,,5,0.9,0.7
2024-02-06T1700,1159A,118.9125,32.1028,南京市,仙林大学城,细颗粒物(PM2.5),64,53,58,46,52,82,,71,71,14,18,4,3,0.7,0.6
2024-02-06T1700,3422A,118.8436,31.9198,南京市,江宁彩虹桥,细颗粒物(PM2.5),94,101,73,70,57,71,,71,71,29,22,4,4,0.6,0.4
2024-02-06T1700,3423A,119.0138,31.6494,南京市,溧水永阳,细颗粒物(PM2.5),107,,64,80,67,80,,73,73,18,15,4,4,0.9,0.7
2024-02-06T1700,3424A,118.879,31.3302,南京市,高淳老职中,细颗粒物(PM2.5),87,73,75,64,67,77,,69,69,15,15,7,4,0.5,0.4
2024-02-06T1700,3427A,118.8554,32.3578,南京市,六合雄州,细颗粒物(PM2.5),78,,59,57,44,94,,84,84,15,14,2,2,0.6,0.6
2024-02-06T1700,1401A,108.3103,22.7881,南宁市,二十一中,,10,,19,7,12,24,,18,18,16,18,6,6,0.9,1
2024-02-06T1700,1402A,108.3141,22.8528,南宁市,北湖,,47,47,21,8,13,24,,21,21,13,14,4,4,0.9,1
2024-02-06T1700,1403A,108.3206,22.8225,南宁市,市监测站,,15,15,21,10,15,23,,20,20,16,15,5,5,0.9,1
2024-02-06T1700,1404A,108.3829,22.8037,南宁市,大自然花园,,,,16,5,10,29,,23,23,13,16,6,6,0.7,0.8
2024-02-06T1700,1405A,108.4394,22.7904,南宁市,仙葫,,16,,16,11,12,31,,28,28,12,14,5,5,0.9,1
2024-02-06T1700,1406A,108.2397,22.8467,南宁市,区农职院,,31,31,20,5,12,24,,23,23,17,21,7,7,1.0,1
2024-02-06T1700,1407A,108.3275,22.735,南宁市,英华嘉园,,10,10,15,2,11,25,,18,18,13,15,6,5,0.7,0.8
2024-02-06T1700,1408A,108.2257,22.7757,南宁市,沙井镇街道办,,27,27,21,11,14,19,,19,19,15,19,7,7,0.7,0.8
2024-02-06T1700,3401A,108.4834,22.7618,南宁市,红星社区,,35,35,17,6,14,35,,31,31,9,12,7,7,0.8,0.9
2024-02-06T1700,2332A,118.1681,26.6369,南平市,南平市监测站,,12,,10,8,8,16,,22,22,9,11,4,4,0.9,0.8
2024-02-06T1700,2333A,118.1825,26.6489,南平市,南平铝业有限公司,,8,,16,3,10,18,,23,23,7,9,4,5,0.8,0.8
2024-02-06T1700,2334A,118.1756,26.6272,南平市,南平七中,,18,18,12,8,8,17,,24,24,7,6,9,6,1.1,0.9
2024-02-06T1700,1168A,120.9098,31.9663,南通市,狼山街道,细颗粒物(PM2.5),55,48,58,39,54,78,,87,76,13,14,8,8,0.4,0.5
2024-02-06T1700,1169A,120.86,32.0005,南通市,虹桥,细颗粒物(PM2.5),58,56,64,41,56,71,,79,69,15,14,3,3,0.4,0.6
2024-02-06T1700,1170A,120.87,32.02,南通市,城中,细颗粒物(PM2.5),52,52,60,36,50,75,,84,72,13,12,3,3,0.5,0.5
2024-02-06T1700,1171A,120.94,31.93,南通市,星湖花园,,50,50,58,28,47,70,,80,68,14,16,5,5,0.5,0.6
2024-02-06T1700,1172A,120.81,32.0417,南通市,紫琅学院,,50,50,58,35,48,75,,81,73,16,14,6,6,0.6,0.7
2024-02-06T1700,3291A,121.067,32.062,南通市,通州监测站,细颗粒物(PM2.5),55,46,62,39,54,76,,93,74,14,11,7,6,0.6,0.6
2024-02-06T1700,3432A,120.9348,31.9883,南通市,环境教育馆,,49,44,55,34,50,79,,89,75,14,15,6,6,0.6,0.7
2024-02-06T1700,2404A,112.5224,33.0122,南阳市,瓦房庄,细颗粒物(PM2.5),163,,113,124,125,110,,97,97,,24,9,8,1.1,1.1
2024-02-06T1700,2405A,112.5003,32.9735,南阳市,汉画馆,细颗粒物(PM2.5),159,,122,121,124,102,,92,92,24,26,8,7,1.3,1.3
2024-02-06T1700,2406A,112.5573,33.027,南阳市,气象站,细颗粒物(PM2.5),180,,122,136,131,115,,102,102,24,27,9,8,1.1,1.2
2024-02-06T1700,2407A,112.5481,32.9689,南阳市,理工学院,细颗粒物(PM2.5),158,,116,120,118,113,,105,105,21,24,7,6,1.0,1
2024-02-06T1700,4008A,112.5234,32.9922,南阳市,卧龙区政府,细颗粒物(PM2.5),149,,119,114,114,105,,93,93,28,29,8,7,0.9,1
2024-02-06T1700,1234A,121.8358,29.911,宁波市,区环保大楼,,49,36,54,34,48,51,,47,47,38,22,5,6,0.6,0.6
2024-02-06T1700,1235A,121.56,29.82,宁波市,万里学院,细颗粒物(PM2.5),72,57,56,52,43,52,,49,44,25,19,6,6,0.7,0.8
2024-02-06T1700,1236A,121.713,29.9572,宁波市,龙赛医院,细颗粒物(PM2.5),60,48,55,43,42,53,,49,49,41,26,4,4,0.7,0.7
2024-02-06T1700,1239A,121.633,29.7733,宁波市,钱湖水厂,细颗粒物(PM2.5),63,46,52,45,46,55,,47,46,18,11,4,7,0.9,0.7
2024-02-06T1700,1240A,121.5856,29.8635,宁波市,太古小学,,,52,47,50,47,54,,48,47,23,16,,5,1.0,0.8
2024-02-06T1700,1241A,121.524,29.8674,宁波市,市环境监测中心,颗粒物(PM10),52,54,51,29,26,55,,50,50,16,10,4,5,0.8,0.7
2024-02-06T1700,2871A,121.6147,29.9017,宁波市,万里国际学校,细颗粒物(PM2.5),75,58,49,55,52,48,,47,45,30,19,6,6,0.8,0.7
2024-02-06T1700,3710A,121.5594,29.8975,宁波市,白沙活动中心,颗粒物(PM10),51,51,52,29,28,54,,48,48,25,17,6,6,0.9,0.7
2024-02-06T1700,2341A,119.5388,26.6612,宁德市,宁德市监测站,,36,27,17,25,20,52,,62,55,14,10,5,4,0.7,0.7
2024-02-06T1700,3209A,119.5231,26.6562,宁德市,宁德一中,,32,25,20,22,17,58,,65,58,16,12,4,4,0.6,0.6
2024-02-06T1700,2618A,98.8601,25.8567,怒江傈僳族自治州,州监测站,,36,36,39,25,30,63,,45,45,5,9,10,10,0.5,0.5
2024-02-06T1700,2619A,98.8546,25.8417,怒江傈僳族自治州,泸水一中,,,38,44,30,40,,,32,32,10,17,8,8,0.5,0.6
2024-02-06T1700,1888A,101.6891,26.571,攀枝花市,弄弄坪,颗粒物(PM10),66,82,53,18,32,85,,72,72,19,33,40,36,1.5,1.9
2024-02-06T1700,1889A,101.5769,26.5928,攀枝花市,河门口,,30,19,52,12,31,94,,67,67,6,20,5,28,0.4,1.1
2024-02-06T1700,1890A,101.7169,26.585,攀枝花市,炳草岗,,39,39,36,7,20,94,,79,79,9,24,6,14,0.7,0.8
2024-02-06T1700,1891A,101.7369,26.5008,攀枝花市,仁和,,31,15,30,10,22,97,,82,82,6,15,5,7,0.5,0.7
2024-02-06T1700,2835A,101.7227,26.567,攀枝花市,四十中小,,33,17,34,12,21,103,,79,79,4,20,4,10,0.3,0.6
2024-02-06T1700,1604A,122.0303,41.1489,盘锦市,开发区,,35,35,34,17,27,91,,86,86,12,18,5,12,0.5,0.7
2024-02-06T1700,1605A,122.0485,41.0883,盘锦市,兴隆台,,32,,34,22,27,85,,84,84,16,17,8,10,0.5,0.6
2024-02-06T1700,1606A,121.8297,41.1028,盘锦市,新生街道,,25,20,36,14,22,79,,80,80,13,23,8,10,0.5,0.6
2024-02-06T1700,1832A,113.3257,33.742,平顶山市,新华旅馆,细颗粒物(PM2.5),103,101,178,77,146,121,,107,107,11,33,11,8,0.7,1
2024-02-06T1700,1833A,113.2919,33.737,平顶山市,规划设计院,细颗粒物(PM2.5),142,129,172,108,153,117,,103,103,23,30,12,9,1.1,1.3
2024-02-06T1700,1834A,113.182,33.774,平顶山市,平顶山工学院,,,,173,,147,132,,108,108,26,25,8,6,1.1,1.1
2024-02-06T1700,3204A,113.3025,33.73,平顶山市,规划局,细颗粒物(PM2.5),142,122,181,108,172,115,,102,102,16,25,9,7,0.8,1
2024-02-06T1700,3594A,112.8867,33.9116,平顶山市,石龙区,细颗粒物(PM2.5),224,193,145,174,137,124,,121,121,29,22,8,9,1.4,1.3
2024-02-06T1700,2656A,106.6692,35.5461,平凉市,聚贤嘉苑,细颗粒物(PM2.5),65,62,91,47,62,97,,88,88,18,26,5,5,0.6,0.9
2024-02-06T1700,2657A,106.7021,35.5307,平凉市,博物馆,细颗粒物(PM2.5),75,84,93,55,71,98,,88,88,9,20,8,8,0.6,1.1
2024-02-06T1700,2347A,114.0997,27.5002,萍乡市,武功山,,16,12,13,10,15,51,,48,47,11,12,7,7,0.8,0.9
2024-02-06T1700,2348A,113.8385,27.6434,萍乡市,中医院,,38,29,34,26,26,37,,36,36,24,21,6,6,1.1,1.1
2024-02-06T1700,2349A,113.8493,27.6253,萍乡市,市政府车库,,23,22,30,16,31,44,,41,41,17,17,8,8,0.8,1
2024-02-06T1700,2350A,113.8676,27.6435,萍乡市,市环保局,,36,,30,25,28,38,,32,32,23,22,6,6,0.9,1.1
2024-02-06T1700,2351A,113.866,27.6198,萍乡市,安源区政府,,27,27,30,18,24,46,,43,43,16,16,8,8,0.7,0.9
2024-02-06T1700,2319A,119.0141,25.4325,莆田市,荔城区仓后路,,41,41,20,19,10,64,,63,63,14,11,7,7,0.8,0.8
2024-02-06T1700,2320A,119.0015,25.4553,莆田市,莆田市监测站,,40,40,11,18,9,61,,60,60,18,14,8,8,0.5,0.5
2024-02-06T1700,2321A,119.1119,25.4561,莆田市,涵江区六中,,26,26,17,16,9,67,,66,66,13,10,7,7,0.7,0.8
2024-02-06T1700,2322A,119.1013,25.3215,莆田市,秀屿区政府,,32,25,21,22,11,67,,68,67,9,8,5,4,0.8,0.9
2024-02-06T1700,2392A,115.0312,35.7636,濮阳市,环保局,细颗粒物(PM2.5),92,68,91,68,94,98,,93,93,20,22,6,5,0.7,0.9
2024-02-06T1700,2394A,115.0574,35.7609,濮阳市,油田运输公司,细颗粒物(PM2.5),90,89,107,67,94,103,,94,94,24,34,8,7,0.8,1
2024-02-06T1700,2395A,115.0866,35.7754,濮阳市,油田物探公司,细颗粒物(PM2.5),89,82,114,66,99,99,,90,90,21,29,6,5,0.7,0.9
2024-02-06T1700,3021A,115,35.7668,濮阳市,濮水河管理处,细颗粒物(PM2.5),107,,97,80,97,115,,103,103,17,26,9,6,0.8,0.9
2024-02-06T1700,2601A,100.98,22.7633,普洱市,市环保局,,40,,39,28,37,87,,38,,6,11,5,5,0.4,0.5
2024-02-06T1700,2602A,100.9817,22.8322,普洱市,普洱第二中学,,29,22,36,18,25,90,,80,80,6,23,4,4,0.3,0.5
2024-02-06T1700,2262A,131.0518,45.8751,七台河市,新一中,细颗粒物(PM2.5),95,91,72,71,64,131,,118,118,16,16,14,11,1.0,0.9
2024-02-06T1700,3345A,131.0577,45.7879,七台河市,中波台,细颗粒物(PM2.5),97,87,99,72,86,79,,81,81,54,51,16,12,1.2,1.2
2024-02-06T1700,3637A,131.0176,45.7761,七台河市,人民广场,细颗粒物(PM2.5),114,113,128,86,101,64,,73,73,66,56,20,16,1.5,1.4
2024-02-06T1700,3684A,130.8781,45.8222,七台河市,新建矿广场,细颗粒物(PM2.5),117,107,89,88,69,104,,103,103,32,32,14,16,1.1,1
2024-02-06T1700,1779A,123.9305,47.3636,齐齐哈尔市,安居小区,,45,45,102,24,78,55,,67,67,26,32,7,9,0.6,0.9
2024-02-06T1700,1780A,123.9488,47.3386,齐齐哈尔市,中心广场,颗粒物(PM10),52,54,124,28,85,34,,55,55,45,48,11,9,0.7,1.1
2024-02-06T1700,1781A,123.9483,47.3227,齐齐哈尔市,农牧车辆厂,,35,31,110,24,78,56,,58,58,25,49,9,11,0.5,1
2024-02-06T1700,1783A,123.945,47.2988,齐齐哈尔市,市环境监测站,,,47,118,17,82,57,,57,57,28,43,,7,0.2,1
2024-02-06T1700,3662A,123.6333,47.2075,齐齐哈尔市,富区青少年活动中心,颗粒物(PM10),55,60,122,27,82,65,,56,56,13,27,10,16,0.5,1.1
2024-02-06T1700,2591A,107.9783,26.5747,黔东南苗族侗族自治州,市环境监测站,,18,16,12,12,10,54,,63,51,12,8,5,5,0.7,0.7
2024-02-06T1700,2881A,107.8908,26.5311,黔东南苗族侗族自治州,凯里学院,,20,15,11,12,9,62,,67,55,8,6,4,4,0.8,0.7
2024-02-06T1700,2593A,107.5228,26.2403,黔南布依族苗族自治州,小围寨,,18,,5,12,6,39,,46,42,13,8,4,4,0.8,0.8
2024-02-06T1700,3538A,107.5175,26.2978,黔南布依族苗族自治州,沙坝,,28,22,8,19,7,45,,51,46,8,5,4,4,0.7,0.7
2024-02-06T1700,2589A,104.9022,25.0925,黔西南布依族苗族自治州,场坝街,,30,,32,21,24,40,,36,24,9,7,2,2,0.5,0.5
2024-02-06T1700,2590A,104.8811,25.0992,黔西南布依族苗族自治州,坪东大道,,40,,28,28,24,38,,35,23,7,6,3,3,0.6,0.5
2024-02-06T1700,2503A,108.6549,21.9481,钦州市,沙埠小学,,,13,20,5,11,28,,22,22,12,15,,6,1.2,1
2024-02-06T1700,3404A,108.5959,21.9633,钦州市,北职校,,32,32,19,12,15,30,,24,24,10,12,5,6,0.9,1
2024-02-06T1700,1042A,119.5134,39.8207,秦皇岛市,北戴河环保局,,26,21,30,16,16,81,,75,75,15,24,9,10,0.4,0.4
2024-02-06T1700,1043A,119.7493,40.0116,秦皇岛市,第一关,,45,39,44,31,29,73,,66,66,15,43,14,13,0.5,0.6
2024-02-06T1700,1044A,119.5897,39.9499,秦皇岛市,监测站,,38,38,49,23,29,75,,64,64,19,44,10,11,0.4,0.6
2024-02-06T1700,1046A,119.5251,39.9041,秦皇岛市,建设大厦,,38,,46,26,34,74,,63,63,7,32,6,5,0.3,0.6
2024-02-06T1700,3132A,119.610547,39.943889,秦皇岛市,文明里,,35,27,48,24,26,74,,65,65,18,40,9,10,0.5,0.5
2024-02-06T1700,1307A,120.6659,36.2403,青岛市,仰口,细颗粒物(PM2.5),79,70,33,58,25,97,,90,90,20,10,4,4,0.8,0.4
2024-02-06T1700,1310A,120.4134,36.0658,青岛市,市南区东部子站,颗粒物(PM10),57,63,43,39,24,80,,74,74,21,19,10,10,0.9,0.7
2024-02-06T1700,1311A,120.3664,36.1032,青岛市,四方区子站,细颗粒物(PM2.5),64,66,41,46,29,79,,74,74,30,23,8,7,1.0,0.8
2024-02-06T1700,1312A,120.2994,36.054,青岛市,市南区西部子站,颗粒物(PM10),57,63,39,37,21,81,,76,76,21,17,8,8,0.9,0.8
2024-02-06T1700,1313A,120.4581,36.0858,青岛市,崂山区子站,细颗粒物(PM2.5),58,63,38,41,22,87,,81,81,20,16,11,9,0.8,0.6
2024-02-06T1700,1314A,120.1983,35.9608,青岛市,黄岛区子站,颗粒物(PM10),60,70,39,42,24,60,,66,66,49,28,9,9,0.9,0.7
2024-02-06T1700,1315A,120.3999,36.3083,青岛市,城阳区子站,颗粒物(PM10),54,58,44,32,23,89,,80,80,24,28,8,9,0.8,0.8
2024-02-06T1700,1966A,120.0405,35.8735,青岛市,黄岛区4号,细颗粒物(PM2.5),79,73,43,58,28,98,,89,89,18,12,10,10,0.9,0.8
2024-02-06T1700,3362A,120.5014,36.4034,青岛市,即墨2号,细颗粒物(PM2.5),74,75,49,54,33,86,,81,81,16,20,10,13,0.8,0.7
2024-02-06T1700,3642A,120.3503,36.0736,青岛市,市北区南部,颗粒物(PM10),56,61,41,36,23,77,,70,70,32,31,6,8,0.9,0.8
2024-02-06T1700,3643A,120.3948,36.1805,青岛市,李沧区北部,细颗粒物(PM2.5),73,61,44,53,34,89,,84,84,31,30,13,11,0.9,0.8
2024-02-06T1700,1702A,113.0426,23.691,清远市,环保大楼,,16,16,10,11,6,18,,17,17,8,10,2,2,0.4,0.5
2024-02-06T1700,1703A,113.0208,23.7106,清远市,凤城街办,,22,22,16,10,7,9,,10,10,15,13,4,5,0.9,0.8
2024-02-06T1700,3025A,113.0477,23.6344,清远市,技师学院,,21,21,13,11,7,25,,24,24,7,10,4,4,0.7,0.7
2024-02-06T1700,3318A,112.9903,23.7403,清远市,清新太和,,24,24,15,11,8,13,,13,13,20,17,2,2,0.8,0.8
2024-02-06T1700,3455A,113.076,23.7198,清远市,清城东城,,10,9,10,6,7,21,,20,20,11,15,6,6,1.0,0.9
2024-02-06T1700,2661A,107.6325,35.7357,庆阳市,庆阳五中,细颗粒物(PM2.5),85,68,72,63,66,82,,70,70,13,14,16,12,0.8,0.9
2024-02-06T1700,2662A,107.6364,35.7067,庆阳市,市环保局,细颗粒物(PM2.5),77,67,71,56,60,84,,71,71,13,15,4,7,0.9,1
2024-02-06T1700,1916A,103.7897,25.5035,曲靖市,环境监测站,,30,19,27,5,14,94,,90,90,4,8,1,3,0.5,0.5
2024-02-06T1700,1917A,103.8,25.5364,曲靖市,烟厂办公区,,30,19,27,9,14,93,,90,90,5,8,5,4,0.4,0.5
2024-02-06T1700,3376A,103.7947,25.462,曲靖市,南苑二区,,28,18,25,8,14,89,,86,86,6,7,3,4,0.4,0.5
2024-02-06T1700,3377A,103.7444,25.5261,曲靖市,曲靖师范学院,,28,24,33,11,21,89,,86,86,4,14,3,7,0.4,0.4
2024-02-06T1700,1264A,118.8692,28.9398,衢州市,环保大楼,,18,16,24,12,21,38,,40,39,17,15,4,4,0.6,0.6
2024-02-06T1700,1266A,118.8621,28.9808,衢州市,衢州学院,,13,11,21,9,20,37,,42,42,12,11,6,6,0.7,0.7
2024-02-06T1700,1611A,118.5819,24.9117,泉州市,涂山街,,39,,15,27,13,76,,78,78,16,14,2,2,0.7,0.7
2024-02-06T1700,1612A,118.5972,24.8978,泉州市,津头埔,,35,26,15,24,13,73,,73,73,21,18,4,3,0.7,0.7
2024-02-06T1700,1613A,118.6663,24.9424,泉州市,万安,,40,30,19,28,13,82,,79,79,16,14,3,2,0.5,0.6
2024-02-06T1700,3529A,118.6333,24.9264,泉州市,城华南路,,38,35,17,26,12,78,,77,77,12,10,4,3,0.6,0.6
2024-02-06T1700,2626A,88.8876,29.2718,日喀则市,日喀则监测站,,,,52,32,15,102,,103,101,4,6,6,5,0.4,0.4
2024-02-06T1700,3726A,88.8781,29.2426,日喀则市,林业技术推广中心,,,,63,,9,,,99,96,3,3,6,6,,0.4
2024-02-06T1700,1659A,119.471,35.4209,日照市,监测站,细颗粒物(PM2.5),69,66,52,50,39,102,,96,96,28,30,13,12,0.9,0.8
2024-02-06T1700,1660A,119.523,35.4216,日照市,市政府广场,细颗粒物(PM2.5),67,68,51,48,36,98,,91,91,23,19,13,11,0.9,0.7
2024-02-06T1700,1661A,119.5587,35.4044,日照市,港务局,细颗粒物(PM2.5),63,73,54,45,35,103,,96,96,23,19,10,8,0.7,0.6
2024-02-06T1700,3507A,119.5328,35.4625,日照市,职业技术学院,细颗粒物(PM2.5),64,70,50,46,32,97,,92,92,27,24,11,10,1.0,0.9
2024-02-06T1700,3604A,119.3266,35.1044,日照市,岚山环保分局,颗粒物(PM10),63,75,61,42,40,69,,80,80,44,29,20,17,1.3,1
2024-02-06T1700,1835A,111.1922,34.7752,三门峡市,市政府,细颗粒物(PM2.5),117,,84,88,93,96,,67,67,16,30,7,8,1.0,1.2
2024-02-06T1700,1836A,111.1587,34.7942,三门峡市,开发区,细颗粒物(PM2.5),122,100,102,92,97,92,,67,67,17,18,5,6,1.0,1
2024-02-06T1700,3039A,111.1911,34.7829,三门峡市,三门峡市第一小学,细颗粒物(PM2.5),114,100,109,86,129,101,,68,68,14,22,9,11,0.8,0.9
2024-02-06T1700,3598A,111.1,34.7167,三门峡市,富达温泉假日酒店,细颗粒物(PM2.5),118,96,104,89,97,94,,63,63,26,29,8,8,1.1,1.2
2024-02-06T1700,2324A,117.6211,26.2625,三明市,三钢,,15,14,15,10,10,20,,21,20,9,7,4,5,0.9,0.9
2024-02-06T1700,2325A,117.635,26.2714,三明市,三明二中,,18,,12,12,10,21,,23,23,12,10,6,7,0.6,0.5
2024-02-06T1700,2326A,117.6028,26.2378,三明市,三元区政府,,28,28,18,14,10,19,,19,18,14,11,6,7,1.3,1.1
2024-02-06T1700,1876A,109.5078,18.2489,三亚市,河东子站,,18,18,20,10,12,49,,52,52,4,5,4,4,0.4,0.4
2024-02-06T1700,1877A,109.4964,18.2681,三亚市,河西子站,,22,22,19,7,9,44,,50,50,4,4,2,3,0.4,0.4
2024-02-06T1700,3540A,109.7348,18.3443,三亚市,君悦子站,,17,12,16,6,7,54,,58,56,2,4,4,4,0.4,0.4
2024-02-06T1700,2624A,91.7608,29.2313,山南市,山南监测站,颗粒物(PM10),228,369,58,60,12,105,,92,92,2,5,5,5,0.3,0.4
2024-02-06T1700,2625A,91.7706,29.2436,山南市,山南人民医院,颗粒物(PM10),500,610,84,89,16,106,,90,90,4,6,4,5,0.4,0.5
2024-02-06T1700,1674A,116.6794,23.3667,汕头市,金平子站,,32,25,17,16,9,100,,92,92,7,7,6,6,0.7,0.7
2024-02-06T1700,1675A,116.7244,23.3633,汕头市,龙湖子站,,29,28,17,14,8,90,,82,82,13,13,7,8,0.8,0.8
2024-02-06T1700,1676A,116.7258,23.2775,汕头市,濠江子站,,43,35,18,30,10,94,,83,83,12,11,8,8,0.7,0.7
