timepoint,stationcode,longitude,latitude,area,positionname,primarypollutant,aqi,pm10,pm10_24h,pm2_5,pm2_5_24h,o3,o3_24h,o3_8h,o3_8h_24h,no2,no2_24h,so2,so2_24h,co,co_24h
2026-02-01T1700,2568A,102.2503,31.8896,阿坝藏族羌族自治州,马师校,,20,11,16,10,9,64,,54,54,7,9,4,4,0.4,0.4
2026-02-01T1700,3994A,102.2174,31.9016,阿坝藏族羌族自治州,马尔康中学西区,,19,10,22,10,9,58,,53,53,12,9,6,6,0.5,0.6
2026-02-01T1700,2695A,80.2899,41.1684,阿克苏地区,电视台,颗粒物(PM10),107,163,180,63,77,93,,65,65,10,31,10,12,0.8,1.5
2026-02-01T1700,2696A,80.2592,41.1541,阿克苏地区,艺术中心,颗粒物(PM10),102,153,167,66,72,97,,67,67,12,35,6,5,0.5,0.7
2026-02-01T1700,2205A,105.699,38.8409,阿拉善盟,蒙二幼,,39,39,27,7,6,84,,82,82,5,8,9,9,0.4,0.5
2026-02-01T1700,2206A,105.7198,38.8508,阿拉善盟,环保局新楼,,25,23,20,11,5,78,,78,78,4,5,7,8,0.3,0.3
2026-02-01T1700,2708A,88.1266,47.8515,阿勒泰地区,市站,,20,15,5,3,2,61,,92,74,35,12,17,4,0.4,0.2
2026-02-01T1700,4166A,88.1198,47.7931,阿勒泰地区,阿勒泰路33号,,27,6,6,3,2,84,,90,83,8,7,12,5,0.3,0.3
2026-02-01T1700,2630A,80.1171,32.4999,阿里地区,阿里监测站,,30,6,3,3,1,93,,78,78,2,4,6,8,0.2,0.2
2026-02-01T1700,3192A,80.0906,32.5029,阿里地区,阿里藏医院,,30,9,10,3,4,96,,77,77,2,5,8,11,0.2,0.3
2026-02-01T1700,2644A,109.0088,32.6974,安康市,汉滨区检察院,颗粒物(PM10),64,78,72,40,46,105,,68,68,12,21,8,8,1.0,1.2
2026-02-01T1700,4054A,109.0324,32.6913,安康市,市邮政管理局,颗粒物(PM10),68,85,87,40,50,104,,66,66,13,30,4,7,0.7,1
2026-02-01T1700,2291A,117.0806,30.5181,安庆市,环科院,,46,46,41,23,27,54,,56,56,22,13,6,5,0.5,0.5
2026-02-01T1700,2292A,117.0331,30.5118,安庆市,马山宾馆,,41,41,42,24,28,66,,60,60,15,12,4,4,0.7,0.6
2026-02-01T1700,2294A,116.9897,30.6146,安庆市,安庆大学,,29,27,35,20,21,70,,69,69,9,13,4,3,0.5,0.5
2026-02-01T1700,3173A,117.0598,30.5351,安庆市,市人大,,42,42,43,23,27,61,,62,62,15,14,7,5,0.5,0.3
2026-02-01T1700,3123A,105.9408,26.2431,安顺市,凤凰山,,49,34,20,34,19,46,,44,44,15,11,18,12,0.9,0.8
2026-02-01T1700,3124A,105.9443,26.2567,安顺市,金钟山,,43,,20,30,20,45,,44,44,14,10,16,12,0.9,0.8
2026-02-01T1700,3125A,105.8983,26.248,安顺市,娄家坡,,,,19,,18,46,,43,43,15,11,17,12,,0.8
2026-02-01T1700,1819A,114.3552,36.1017,安阳市,红庙街,细颗粒物(PM2.5),75,81,164,55,136,87,,54,54,20,35,2,6,0.6,1.5
2026-02-01T1700,1820A,114.361,36.0681,安阳市,银杏小区,细颗粒物(PM2.5),74,81,158,54,118,93,,53,53,18,33,4,6,0.6,1.5
2026-02-01T1700,3141A,114.3921,36.0879,安阳市,信访局,细颗粒物(PM2.5),77,92,165,56,143,96,,55,55,14,29,5,5,0.6,1.4
2026-02-01T1700,3669A,114.4706,36.0634,安阳市,左辅环卫站,细颗粒物(PM2.5),88,110,166,65,136,93,,54,54,19,33,5,4,0.5,1.2
2026-02-01T1700,4117A,114.2918,36.0769,安阳市,钢三路198号,细颗粒物(PM2.5),84,85,182,62,147,82,,51,51,26,36,4,3,0.5,1.6
2026-02-01T1700,1748A,123.0441,41.1201,鞍山市,深沟寺,细颗粒物(PM2.5),53,54,75,37,55,71,,67,67,22,38,9,20,0.7,1.4
2026-02-01T1700,1749A,123.011,41.0931,鞍山市,太阳城,细颗粒物(PM2.5),60,60,82,43,66,64,,54,54,28,42,18,28,1.2,1.9
2026-02-01T1700,1750A,123.0483,41.1445,鞍山市,太平,颗粒物(PM10),55,59,100,36,63,64,,62,62,28,46,13,21,0.4,1.3
2026-02-01T1700,1751A,122.964,41.0968,鞍山市,铁西三道街,细颗粒物(PM2.5),65,63,95,47,67,58,,58,58,39,53,12,26,0.7,1.6
2026-02-01T1700,1753A,123.0219,41.0822,鞍山市,明达新区,细颗粒物(PM2.5),59,56,84,42,64,57,,55,55,35,38,17,28,1.2,2
2026-02-01T1700,4201A,122.944647,41.082639,鞍山市,兴盛南路290号,,,88,113,54,71,60,,56,56,,54,12,27,0.6,1.8
2026-02-01T1700,2195A,107.4206,40.7609,巴彦淖尔市,附二中,,33,33,34,17,16,80,,65,65,7,12,8,8,0.3,0.3
2026-02-01T1700,2196A,107.37,40.7372,巴彦淖尔市,市环保大楼,,39,39,42,11,15,82,,67,67,6,16,6,5,0.4,0.5
2026-02-01T1700,1956A,86.1476,41.7529,巴音郭楞蒙古自治州,孔雀公园,颗粒物(PM10),77,104,99,44,34,90,,63,63,6,19,9,8,0.5,0.5
2026-02-01T1700,1957A,86.1971,41.7166,巴音郭楞蒙古自治州,棉纺厂,颗粒物(PM10),81,112,136,33,37,90,,56,56,4,39,/,/,/,/
2026-02-01T1700,1958A,86.236,41.7172,巴音郭楞蒙古自治州,经济开发区,颗粒物(PM10),73,96,99,18,19,82,,56,56,3,14,8,5,0.4,0.5
2026-02-01T1700,3181A,106.776805,31.852614,巴中市,市五中,,44,44,50,27,37,64,,40,40,17,24,6,5,0.9,1
2026-02-01T1700,3183A,106.7419,31.8654,巴中市,圣泉水务公司,细颗粒物(PM2.5),78,70,55,57,46,72,,50,50,16,30,6,5,1.1,1.3
2026-02-01T1700,3616A,106.7617,31.8343,巴中市,市中心医院,,37,37,51,25,39,71,,45,45,10,26,6,5,0.8,1
2026-02-01T1700,2235A,122.7909,45.608,白城市,洮北区环保局,,31,31,40,17,28,67,,72,72,21,20,5,4,0.3,0.4
2026-02-01T1700,2236A,122.8741,45.5725,白城市,市环保局,,34,34,47,11,24,70,,70,70,13,27,5,5,0.2,0.4
2026-02-01T1700,2231A,126.4219,41.9172,白山市,喜丰,,44,44,68,16,34,80,,66,66,10,41,4,19,1.0,1.2
2026-02-01T1700,2232A,126.4082,41.9416,白山市,环保局,,27,25,47,12,30,85,,66,66,8,22,12,15,0.8,1
2026-02-01T1700,2647A,104.1727,36.5448,白银市,第三小学,颗粒物(PM10),109,168,178,75,76,94,,66,66,24,32,51,34,0.9,1.1
2026-02-01T1700,2648A,104.1467,36.5482,白银市,动力公司,颗粒物(PM10),121,191,172,75,66,109,,95,95,21,25,45,26,0.7,0.8
2026-02-01T1700,2512A,106.6102,23.901,百色市,市监测站,,,,29,18,15,52,,48,48,11,16,8,14,0.8,0.8
2026-02-01T1700,2513A,106.6524,23.8842,百色市,市中心血站,,40,40,35,27,18,51,,51,49,7,12,8,15,0.8,0.8
2026-02-01T1700,4133A,106.6273,23.8798,百色市,龙景西路,,36,27,34,25,18,48,,43,43,10,15,9,15,0.6,0.7
2026-02-01T1700,2270A,117.396,32.9389,蚌埠市,工人疗养院,细颗粒物(PM2.5),64,74,82,46,57,92,,86,86,18,22,3,3,0.5,0.5
2026-02-01T1700,2271A,117.3606,32.9428,蚌埠市,百货大楼,细颗粒物(PM2.5),58,64,80,41,53,92,,86,86,13,18,7,7,0.5,0.5
2026-02-01T1700,2273A,117.4183,32.8909,蚌埠市,蚌埠学院,细颗粒物(PM2.5),57,51,75,40,57,97,,88,88,16,25,4,3,0.5,0.5
2026-02-01T1700,2274A,117.3534,32.9672,蚌埠市,淮上区政府,细颗粒物(PM2.5),65,58,81,47,60,91,,85,85,16,25,4,4,0.4,0.4
2026-02-01T1700,2275A,117.3143,32.8977,蚌埠市,高新区,细颗粒物(PM2.5),64,56,73,46,58,88,,83,83,13,18,6,5,0.4,0.4
2026-02-01T1700,3715A,117.3091,32.9314,蚌埠市,蚌埠田家炳中学,细颗粒物(PM2.5),63,70,84,45,54,84,,82,82,20,26,3,4,0.4,0.4
2026-02-01T1700,1585A,109.8761,40.6533,包头市,市环境监测站,颗粒物(PM10),52,53,33,14,14,80,,79,79,9,20,4,7,0.3,0.4
2026-02-01T1700,1587A,109.9992,40.5843,包头市,包头八中,颗粒物(PM10),59,68,40,3,16,80,,80,80,9,22,3,6,0.4,0.5
2026-02-01T1700,1589A,109.8641,40.6288,包头市,惠龙物流,,43,43,30,10,11,79,,82,82,12,20,8,9,0.5,0.6
2026-02-01T1700,1590A,110.0376,40.5546,包头市,东河鸿龙湾,,35,35,50,3,24,83,,76,76,6,43,6,12,0.3,0.8
2026-02-01T1700,3283A,109.9154,40.5684,包头市,滨河大厦,,42,42,56,12,29,77,,69,69,11,38,9,19,0.8,1.1
2026-02-01T1700,3419A,109.9449,40.6259,包头市,包头市委党校,,26,7,31,3,12,83,,80,80,7,22,7,9,0.4,0.6
2026-02-01T1700,3683A,109.8332,40.6577,包头市,昆区政府,,38,38,29,6,13,76,,78,78,14,20,6,10,0.4,0.6
2026-02-01T1700,1931A,107.0802,34.3129,宝鸡市,竹园沟,颗粒物(PM10),98,145,126,33,63,94,,64,64,14,22,7,6,0.5,0.7
2026-02-01T1700,1933A,107.1429,34.3549,宝鸡市,监测站,颗粒物(PM10),103,156,152,42,91,89,,56,56,22,28,6,4,0.6,0.8
2026-02-01T1700,1934A,107.1172,34.3759,宝鸡市,技工学校,颗粒物(PM10),110,169,150,44,80,94,,60,60,20,26,4,3,0.5,0.9
2026-02-01T1700,1936A,107.2025,34.3518,宝鸡市,文理学院,颗粒物(PM10),101,151,148,41,81,92,,56,56,17,30,4,3,0.5,0.8
2026-02-01T1700,1937A,107.2396,34.3626,宝鸡市,三迪小学,颗粒物(PM10),117,184,153,42,86,85,,52,52,32,35,5,3,0.5,0.9
2026-02-01T1700,4155A,107.1721,34.3558,宝鸡市,滨河北路,颗粒物(PM10),81,112,142,38,80,92,,55,55,14,22,6,5,0.6,0.9
2026-02-01T1700,4308A,107.3898,34.3601,宝鸡市,陈仓区北开路21号,颗粒物(PM10),121,191,161,50,88,91,,59,59,25,30,6,6,0,0.6
2026-02-01T1700,1051A,115.4803,38.8568,保定市,游泳馆,细颗粒物(PM2.5),128,103,163,97,170,72,,58,58,32,43,5,6,0.6,1.1
2026-02-01T1700,1052A,115.509,38.8895,保定市,华电二区,细颗粒物(PM2.5),104,79,148,78,155,66,,52,52,26,36,,3,0.7,1.3
2026-02-01T1700,1053A,115.4588,38.9037,保定市,接待中心,细颗粒物(PM2.5),117,96,166,88,156,66,,53,53,20,33,2,2,0.4,0.9
2026-02-01T1700,1054A,115.4484,38.8344,保定市,地表水厂,细颗粒物(PM2.5),97,105,189,72,146,74,,57,57,24,40,5,6,0.5,1
2026-02-01T1700,3581A,115.3136,38.9511,保定市,满城区生态环境分局,细颗粒物(PM2.5),119,122,175,90,136,75,,62,62,27,43,4,4,0.6,1
2026-02-01T1700,3582A,115.4709,38.7628,保定市,清苑区第二中学,细颗粒物(PM2.5),113,114,202,85,156,73,,57,57,27,40,7,8,0.6,1.1
2026-02-01T1700,3583A,115.6231,39.0223,保定市,徐水物探局,细颗粒物(PM2.5),107,108,195,80,152,69,,58,58,22,38,7,7,0.6,1.1
2026-02-01T1700,4004A,115.4199,38.8665,保定市,双鹰农机,细颗粒物(PM2.5),113,121,212,85,169,82,,65,65,24,40,7,6,0.6,1.1
2026-02-01T1700,4034A,115.515,38.8589,保定市,植保所站,细颗粒物(PM2.5),114,105,168,86,157,72,,54,54,24,43,2,3,0.7,1.2
2026-02-01T1700,2594A,99.1589,25.1137,保山市,市环境监测站,,29,16,27,10,15,91,,79,79,5,9,6,6,0.2,0.3
2026-02-01T1700,2595A,99.1616,25.1381,保山市,市环保局,,29,29,30,11,14,90,,79,79,3,5,4,3,0.4,0.4
2026-02-01T1700,1867A,109.1435,21.4085,北海市,海滩公园,细颗粒物(PM2.5),54,49,38,38,19,107,,88,88,12,14,7,7,0.9,0.9
2026-02-01T1700,1868A,109.0983,21.466,北海市,新市环保局,,37,37,32,20,18,106,,88,88,13,14,8,8,0.8,0.8
2026-02-01T1700,1869A,109.1775,21.5232,北海市,北海工业园,,49,49,35,22,21,98,,83,83,13,13,6,8,0.7,0.8
2026-02-01T1700,3400A,109.1844,21.4396,北海市,龙潭自来水厂,,46,46,36,26,24,102,,87,87,11,12,9,11,0.9,1
2026-02-01T1700,1001A,116.3611,39.8786,北京市,万寿西宫,,26,12,74,3,48,81,,72,72,13,43,1,2,0.2,0.6
2026-02-01T1700,1003A,116.4174,39.9289,北京市,东四,,22,13,68,3,44,68,,62,62,6,34,4,5,0.2,0.5
2026-02-01T1700,1004A,116.4073,39.8858,北京市,天坛,,24,16,67,3,45,75,,67,67,8,39,2,2,0.3,0.6
2026-02-01T1700,1005A,116.4622,39.9364,北京市,农展馆,,25,12,68,3,45,78,,68,68,6,34,3,4,0.2,0.6
2026-02-01T1700,1006A,116.3399,39.9293,北京市,官园,,23,15,72,3,49,71,,64,64,11,40,2,3,0.3,0.6
2026-02-01T1700,1007A,116.2879,39.9613,北京市,海淀万柳,,21,11,76,3,54,67,,55,55,11,48,2,3,0.2,0.6
2026-02-01T1700,1008A,116.6635,40.1349,北京市,顺义新城,,25,23,44,3,23,79,,70,70,8,35,4,4,0.3,0.5
2026-02-01T1700,1009A,116.6275,40.327,北京市,怀柔镇,,24,9,25,3,16,75,,62,62,2,9,3,4,0.2,0.4
2026-02-01T1700,1010A,116.2295,40.217,北京市,昌平镇,,20,13,47,3,30,61,,64,64,20,31,1,2,0.3,0.6
2026-02-01T1700,1011A,116.3968,39.982,北京市,奥体中心,,23,13,69,3,46,73,,62,62,9,49,4,4,0.1,0.5
2026-02-01T1700,3418A,116.8336,40.4095,北京市,密云新城,,24,10,22,3,12,74,,69,69,8,16,3,3,0.1,0.4
2026-02-01T1700,3671A,116.0879,39.9725,北京市,门头沟三家店,,25,13,79,3,55,77,,73,73,8,31,3,3,0.3,0.7
2026-02-01T1700,3672A,116.1507,39.8246,北京市,丰台云岗,,26,14,95,3,65,83,,60,60,13,45,3,3,0.2,0.6
2026-02-01T1700,3674A,115.9578,39.7602,北京市,房山燕山,细颗粒物(PM2.5),105,111,100,79,80,54,,48,48,37,30,5,5,0.7,0.8
2026-02-01T1700,3675A,116.4669,39.7734,北京市,大兴旧宫,,25,15,84,3,49,77,,66,66,11,43,3,3,0.3,0.7
2026-02-01T1700,3694A,115.9859,40.4562,北京市,延庆石河营,,24,11,27,3,15,76,,70,70,13,36,3,3,0.3,0.6
2026-02-01T1700,3695A,116.6151,40.3052,北京市,怀柔新城,,25,7,26,3,18,78,,62,62,9,14,4,4,0.2,0.4
2026-02-01T1700,3696A,116.2542,39.8764,北京市,丰台小屯,,20,18,84,3,54,61,,53,53,13,49,3,3,0.3,0.7
2026-02-01T1700,3697A,116.8399,40.3843,北京市,密云镇,,24,16,29,3,17,74,,66,66,10,35,3,3,0.2,0.4
2026-02-01T1700,4057A,115.9423,40.4431,北京市,延庆百泉,,25,8,20,3,12,77,,68,68,8,20,2,2,0.2,0.4
2026-02-01T1700,4058A,116.6598,39.9164,北京市,通州新华,,20,18,69,3,40,63,,50,50,23,50,3,4,0.3,0.6
2026-02-01T1700,4182A,116.1942,39.9158,北京市,石景山八角,,21,16,80,3,49,67,,58,58,12,45,3,3,0.1,0.5
2026-02-01T1700,4194A,117.078628,40.151726,北京市,平谷新城,,23,8,42,3,31,71,,60,60,6,23,3,3,0.3,0.6
2026-02-01T1700,1761A,123.8274146,41.31234549,本溪市,大峪,,27,27,141,14,93,68,,48,48,19,42,9,9,0.5,2.3
2026-02-01T1700,1763A,123.7169,41.3094,本溪市,彩屯,,50,50,135,26,90,69,,58,58,23,48,10,10,0.8,2.6
2026-02-01T1700,1764A,123.7672166,41.28649327,本溪市,东明,,38,35,94,26,86,73,,54,54,20,56,10,10,0.6,2
2026-02-01T1700,1765A,123.799345,41.266614,本溪市,新立屯,,,33,70,18,53,74,,58,58,20,52,,14,1.0,1.9
2026-02-01T1700,1766A,123.829144,41.336777,本溪市,威宁,,30,26,107,21,62,63,,48,48,22,46,9,8,0.6,1.8
2026-02-01T1700,2587A,105.287,27.3133,毕节市,八中,,43,43,20,27,18,53,,57,52,18,14,9,9,1.0,0.9
2026-02-01T1700,2588A,105.3079,27.2987,毕节市,师专,,42,42,22,24,16,56,,60,54,19,14,8,8,0.9,0.8
2026-02-01T1700,4263A,105.3688,27.3598,毕节市,工业大道,,46,46,22,27,19,53,,63,58,18,13,10,9,/,/
2026-02-01T1700,1629A,117.9961,37.3604,滨州市,第二水厂,细颗粒物(PM2.5),224,210,164,174,137,45,,30,30,29,46,8,11,1.0,0.9
2026-02-01T1700,1630A,117.9789,37.3931,滨州市,北中新校,细颗粒物(PM2.5),242,227,181,192,147,50,,34,34,27,40,6,6,1.3,1.2
2026-02-01T1700,3514A,117.9379,37.3959,滨州市,中海酒店,细颗粒物(PM2.5),236,219,171,186,143,39,,28,28,30,45,9,8,1.4,1.3
2026-02-01T1700,3515A,117.9381509,37.35547456,滨州市,开发区一中,细颗粒物(PM2.5),224,219,181,174,141,43,,28,28,25,43,10,11,1.3,1.2
2026-02-01T1700,3516A,118.0914,37.6938,滨州市,金海六路,细颗粒物(PM2.5),239,205,190,189,155,36,,28,28,45,55,5,6,1.3,1.2
2026-02-01T1700,4028A,117.9955,37.3752,滨州市,滨州市西街道办事处,细颗粒物(PM2.5),238,217,169,188,140,49,,35,35,26,40,9,10,1.3,1.2
2026-02-01T1700,2311A,115.8071,33.8399,亳州市,污水处理厂,颗粒物(PM10),84,118,80,60,59,96,,76,76,23,19,5,4,0.6,0.5
2026-02-01T1700,2312A,115.7789,33.8519,亳州市,三国揽胜宫,颗粒物(PM10),90,129,95,66,63,93,,72,72,23,19,5,4,0.6,0.5
2026-02-01T1700,3332A,115.7631,33.803,亳州市,亳州学院,颗粒物(PM10),84,117,87,59,61,99,,74,74,18,18,4,3,0.6,0.6
2026-02-01T1700,2693A,82.0482,44.8553,博尔塔拉蒙古自治州,市党校,细颗粒物(PM2.5),82,94,138,60,89,68,,69,69,33,23,5,3,0.8,0.8
2026-02-01T1700,2694A,82.0805,44.8966,博尔塔拉蒙古自治州,市环保局,细颗粒物(PM2.5),122,106,168,92,113,74,,65,65,27,32,5,6,1.1,1.2
2026-02-01T1700,1071A,116.8733,38.2922,沧州市,沧县城建局,细颗粒物(PM2.5),176,149,166,133,142,56,,38,38,39,42,4,3,0.9,0.9
2026-02-01T1700,1072A,116.8462,38.3189,沧州市,电视转播站,细颗粒物(PM2.5),203,154,164,153,161,62,,40,40,32,32,4,3,1.0,1.1
2026-02-01T1700,1073A,116.8588,38.3161,沧州市,市环保局,细颗粒物(PM2.5),160,161,164,122,131,50,,32,32,33,32,5,5,1.1,1.1
2026-02-01T1700,3324A,116.8011,38.294,沧州市,河北水利电力学院,细颗粒物(PM2.5),222,183,180,172,159,48,,32,32,36,40,4,4,1.0,1
2026-02-01T1700,2622A,97.1813,31.1289,昌都市,昌都监测站,,28,14,33,3,18,88,,64,64,3,22,3,3,0.1,0.5
2026-02-01T1700,3719A,97.1707,31.1428,昌都市,昌都会议中心,,24,6,12,3,8,76,,54,54,2,5,4,5,0.1,0.2
2026-02-01T1700,2692A,87.2722,44.0298,昌吉回族自治州,新区政务中心,细颗粒物(PM2.5),100,116,125,75,87,89,,62,62,29,47,18,9,1.3,1.3
2026-02-01T1700,3613A,87.3069,44.0093,昌吉回族自治州,亚心广场,细颗粒物(PM2.5),188,153,149,141,106,86,,66,66,25,29,12,9,1.3,1.2
2026-02-01T1700,4164A,87.2057,43.9289,昌吉回族自治州,财政所,细颗粒物(PM2.5),99,76,73,74,50,117,,97,97,10,12,9,5,0.7,0.8
2026-02-01T1700,1120A,125.2874,43.9024,长春市,客车厂,细颗粒物(PM2.5),63,54,61,45,46,74,,65,65,23,44,8,12,0.5,0.7
2026-02-01T1700,1121A,125.2943,43.8508,长春市,邮电学院,细颗粒物(PM2.5),57,60,56,40,44,71,,65,65,23,37,10,12,0.6,0.8
2026-02-01T1700,1122A,125.3648,43.8745,长春市,劳动公园,颗粒物(PM10),57,64,66,36,42,76,,69,69,19,33,6,6,0.7,1
2026-02-01T1700,1123A,125.3233,43.8781,长春市,园林处,细颗粒物(PM2.5),63,52,59,45,44,73,,67,67,21,33,13,15,0.5,0.7
2026-02-01T1700,1124A,125.4604,43.7904,长春市,净月潭,细颗粒物(PM2.5),57,57,53,40,41,74,,66,66,19,19,6,6,0.5,0.6
2026-02-01T1700,1126A,125.38,43.8422,长春市,经开区环卫处,"颗粒物(PM10),细颗粒物(PM2.5)",54,58,60,38,44,73,,64,64,24,48,6,6,0.6,0.8
2026-02-01T1700,1127A,125.234,43.7761,长春市,高新区管委会,细颗粒物(PM2.5),53,53,69,37,55,82,,76,76,16,44,7,7,0.4,0.8
2026-02-01T1700,1128A,125.1695,43.83,长春市,岱山公园,细颗粒物(PM2.5),55,53,62,39,48,78,,74,74,14,44,6,8,0.3,0.6
2026-02-01T1700,4281A,125.334645,43.916281,长春市,北亚泰大街1068号,细颗粒物(PM2.5),77,73,73,56,54,68,,61,61,25,43,8,11,0.5,0.7
2026-02-01T1700,1335A,113.082,28.2421,长沙市,经开区环保局,,27,27,40,18,28,70,,54,54,16,22,2,2,0.4,0.5
2026-02-01T1700,1336A,112.8873,28.2202,长沙市,高开区环保局,,33,27,40,23,32,80,,59,59,15,23,4,4,0.6,0.7
2026-02-01T1700,1337A,113.0785,28.2012,长沙市,马坡岭,,33,32,41,23,33,80,,65,65,16,23,4,4,0.7,0.8
2026-02-01T1700,1338A,112.9448,28.1894,长沙市,湖南师范大学,,29,29,41,18,25,85,,65,65,18,22,3,3,0.6,0.6
2026-02-01T1700,1339A,113.0177,28.1322,长沙市,雨花区环保局,,29,29,38,20,28,71,,50,50,16,23,9,7,0.6,0.6
2026-02-01T1700,1340A,112.9795,28.2593,长沙市,伍家岭,,32,32,42,22,30,77,,58,58,14,22,4,4,0.7,0.7
2026-02-01T1700,1341A,113.002,28.1944,长沙市,火车新站,,29,27,40,20,32,82,,64,64,13,21,1,1,0.7,0.8
2026-02-01T1700,1342A,112.9846,28.1177,长沙市,天心区环保局,,28,28,36,12,27,82,,61,61,16,25,4,5,0.5,0.5
2026-02-01T1700,1343A,112.8906,28.1307,长沙市,湖南中医药大学,,28,27,40,19,27,85,,63,63,19,26,6,5,0.7,0.7
2026-02-01T1700,1727A,113.1146,36.1547,长治市,清华站,,45,41,85,31,68,84,,66,66,20,31,10,11,0.6,1
2026-02-01T1700,1730A,113.0887,36.2126,长治市,审计局,,40,40,86,25,75,87,,66,66,12,32,8,10,0.4,0.8
2026-02-01T1700,1731A,113.0845,36.1856,长治市,长治八中,,45,45,101,29,78,85,,62,62,9,23,8,11,0.5,1
2026-02-01T1700,2845A,113.1561,36.1912,长治市,德盛苑,,46,38,81,32,73,89,,70,70,11,19,8,8,0.6,1
2026-02-01T1700,3568A,113.0603,36.0464,长治市,向阳小学,颗粒物(PM10),58,65,107,36,69,94,,77,77,22,34,7,9,0.5,0.9
2026-02-01T1700,3569A,112.8788,36.315,长治市,屯留一中,,,41,90,34,80,85,,74,74,15,25,3,5,,1.4
2026-02-01T1700,4189A,113.113092,36.199482,长治市,英华南巷50号,,40,40,91,24,73,89,,68,68,18,24,6,8,0.4,0.9
2026-02-01T1700,4190A,113.23666,36.33435,长治市,学府街1号,,41,41,96,19,74,86,,68,68,13,26,7,9,0.5,1.1
2026-02-01T1700,1854A,111.696,28.9725,常德市,市二中,,,77,58,51,43,98,,79,79,16,19,,4,1.0,0.9
2026-02-01T1700,3138A,111.7152,29.0288,常德市,武陵区永安,细颗粒物(PM2.5),73,78,61,53,42,99,,80,80,17,21,4,4,0.9,0.9
2026-02-01T1700,3139A,111.6891,28.9881,常德市,鼎城区玉霞,细颗粒物(PM2.5),69,67,56,50,42,101,,79,79,19,23,7,6,0.8,0.9
2026-02-01T1700,3140A,111.6651,29.0526,常德市,武陵区长庚,细颗粒物(PM2.5),82,77,56,60,43,98,,80,80,15,17,4,4,0.7,0.7
2026-02-01T1700,1196A,119.9524,31.7586,常州市,市监测站,细颗粒物(PM2.5),68,79,69,49,44,79,,58,58,22,41,8,7,0.7,0.6
2026-02-01T1700,1200A,119.9351,31.703,常州市,武进监测站,细颗粒物(PM2.5),70,78,63,51,43,77,,62,62,22,39,6,5,0.6,0.4
2026-02-01T1700,3002A,119.9701,31.813,常州市,行政中心,细颗粒物(PM2.5),67,78,65,48,44,72,,59,59,24,44,4,5,0.7,0.7
2026-02-01T1700,3003A,120.0434,31.7726,常州市,经开区,颗粒物(PM10),68,85,74,42,39,91,,66,66,16,37,11,11,0.7,0.6
2026-02-01T1700,3010A,119.8919,31.7892,常州市,钟楼,细颗粒物(PM2.5),73,81,71,53,50,70,,56,56,19,40,6,7,0.8,0.8
2026-02-01T1700,3429A,119.8595,31.706,常州市,武进经发区,细颗粒物(PM2.5),78,75,64,57,47,86,,65,65,16,34,5,5,1.0,0.9
2026-02-01T1700,3430A,119.5812,31.7256,常州市,金坛城区,细颗粒物(PM2.5),77,71,61,56,45,76,,57,57,13,30,6,6,0.6,0.6
2026-02-01T1700,4089A,119.9551,31.863,常州市,崇义南街5-H号,细颗粒物(PM2.5),72,75,66,52,48,70,,65,65,22,44,4,5,0.7,0.7
2026-02-01T1700,2220A,120.4318,41.588,朝阳市,西梁,颗粒物(PM10),59,68,92,17,56,76,,60,60,12,46,6,14,0.3,1.2
2026-02-01T1700,2221A,120.452,41.565,朝阳市,河畔小区,颗粒物(PM10),52,53,66,8,41,76,,59,59,11,35,7,13,0.4,1.1
2026-02-01T1700,2222A,120.4176,41.5648,朝阳市,八里堡,颗粒物(PM10),62,73,87,13,60,74,,56,56,11,44,7,15,0.3,1.3
2026-02-01T1700,3026A,116.6179,23.6608,潮州市,市政府,,47,47,18,25,11,36,,35,34,10,5,3,2,0.6,0.5
2026-02-01T1700,4036A,116.646,23.676,潮州市,金山,,36,36,15,18,11,36,,32,31,12,10,3,2,0.7,0.6
2026-02-01T1700,2473A,113.0116,25.8228,郴州市,市职中,,43,38,32,30,32,46,,46,46,11,11,6,4,0.4,0.4
2026-02-01T1700,2475A,113.0381,25.8074,郴州市,市审计局,,41,41,35,26,34,41,,36,36,13,15,3,3,/,/
2026-02-01T1700,2476A,113.0348,25.7757,郴州市,市环保局,,40,40,36,26,31,44,,40,40,16,17,6,3,0.5,0.5
2026-02-01T1700,4252A,113.0138,25.8011,郴州市,好美居路49号,,44,44,37,30,32,51,,50,50,11,10,7,4,/,/
2026-02-01T1700,1431A,103.9727,30.7242,成都市,金泉两河,颗粒物(PM10),69,87,125,42,73,98,,67,67,24,42,2,2,0.2,0.5
2026-02-01T1700,1432A,104.1423,30.6765,成都市,十里店,颗粒物(PM10),74,97,113,39,59,70,,50,50,30,41,4,4,0.7,0.8
2026-02-01T1700,1433A,104.0594,30.5765,成都市,三瓦窑,颗粒物(PM10),78,105,117,37,66,96,,66,66,25,40,3,5,0.7,0.8
2026-02-01T1700,1434A,104.1122,30.6306,成都市,沙河铺,颗粒物(PM10),66,82,107,38,59,85,,62,62,23,38,4,3,0.7,0.8
2026-02-01T1700,2880A,104.0219,30.6561,成都市,大石西路,颗粒物(PM10),79,108,121,49,75,90,,68,68,19,35,4,4,0.5,0.7
2026-02-01T1700,3136A,104.2724,30.559,成都市,龙泉驿区区政府,颗粒物(PM10),56,61,90,34,57,92,,74,74,11,24,6,6,0.7,0.8
2026-02-01T1700,3357A,104.0028,30.6891,成都市,金博路,细颗粒物(PM2.5),84,102,112,62,71,92,,66,66,23,42,4,5,0.7,0.9
2026-02-01T1700,3359A,104.056,30.5228,成都市,华阳,,,92,106,57,64,96,,88,88,18,34,3,3,,0.7
2026-02-01T1700,3488A,104.387954,30.746684,成都市,青石路225号,颗粒物(PM10),66,81,115,36,65,88,,67,67,20,38,4,5,0.8,0.9
2026-02-01T1700,3489A,104.0788,30.4054,成都市,科学城,细颗粒物(PM2.5),94,103,103,70,62,71,,55,55,14,23,6,6,0.7,0.9
2026-02-01T1700,4011A,103.8505,30.6946,成都市,光华大道三段,颗粒物(PM10),79,107,133,36,69,97,,69,69,29,39,3,3,0.7,0.9
2026-02-01T1700,4144A,104.3257,30.6406,成都市,八角井街185号,颗粒物(PM10),70,90,111,34,57,87,,63,63,18,32,4,4,0.8,0.9
2026-02-01T1700,4224A,104.2433276,30.53529463,成都市,鲸龙路1057号,颗粒物(PM10),58,65,100,32,56,94,,76,76,14,29,5,5,0.6,0.7
2026-02-01T1700,1062A,117.9531,40.908,承德市,铁路,,39,39,42,3,23,76,,52,52,3,28,1,4,0.2,0.7
2026-02-01T1700,1063A,117.9397,40.9763,承德市,中国银行,,29,29,42,11,20,77,,61,61,1,24,2,2,0.2,0.6
2026-02-01T1700,4073A,117.9462,40.95,承德市,杏林街1号,,25,20,40,3,26,78,,62,62,3,29,4,4,0.2,0.6
2026-02-01T1700,4274A,117.7994,40.9605,承德市,滨河大街98号,,29,29,41,11,18,77,,60,60,4,29,2,3,0.2,0.4
2026-02-01T1700,2314A,117.4698,30.6617,池州市,池州学院,,33,29,33,23,28,75,,72,72,15,18,3,3,0.7,0.8
2026-02-01T1700,3237A,117.4918,30.6617,池州市,展览馆,,29,29,33,19,25,74,,70,70,18,18,2,2,0.6,0.7
2026-02-01T1700,3333A,117.5626,30.695,池州市,第八中学,,29,26,30,20,24,76,,71,71,17,18,3,2,0.5,0.6
2026-02-01T1700,3334A,117.5037,30.6242,池州市,第十二中学,,36,32,32,25,24,73,,62,62,23,28,3,2,0.8,0.7
2026-02-01T1700,1744A,118.9229,42.2816,赤峰市,松山一中,,22,19,30,7,13,68,,68,68,8,23,2,6,0.6,0.8
2026-02-01T1700,1745A,118.9588,42.2733,赤峰市,哈达街,,30,30,28,3,12,68,,67,67,10,18,6,8,0.5,0.6
2026-02-01T1700,1746A,118.8792,42.2551,赤峰市,天义路,,21,16,17,10,10,67,,66,66,5,16,5,7,0.4,0.5
2026-02-01T1700,3058A,119.2656,42.0356,赤峰市,银河街,,,,66,,39,,,,,,31,,21,,1.3
2026-02-01T1700,3286A,118.9359,42.3146,赤峰市,桥北物流园区,,24,19,20,15,12,76,,76,76,8,17,4,4,0.5,0.6
2026-02-01T1700,2521A,107.3473,22.4137,崇左市,市环保局江州分局,,35,35,48,18,34,78,,60,60,12,17,11,7,0.8,1
2026-02-01T1700,4256A,107.375,22.3736,崇左市,石景林东路7号,,40,34,40,28,25,89,,68,68,14,18,7,7,0.7,0.8
2026-02-01T1700,3207A,118.31131,32.3033,滁州市,市政府原办公楼,细颗粒物(PM2.5),60,54,56,43,41,83,,77,77,14,27,4,4,0.3,0.4
2026-02-01T1700,3331A,118.3268,32.2633,滁州市,图书馆,颗粒物(PM10),55,59,47,32,33,80,,77,77,13,17,6,6,0.4,0.4
2026-02-01T1700,4101A,118.3196,32.3335,滁州市,银山路666号,细颗粒物(PM2.5),62,53,44,44,40,89,,84,84,10,17,7,6,0.4,0.4
2026-02-01T1700,4102A,118.3426,32.2979,滁州市,黄山路555号,细颗粒物(PM2.5),60,68,61,43,44,89,,84,84,12,23,3,4,0.3,0.4
2026-02-01T1700,2606A,101.5379,25.0492,楚雄彝族自治州,市经济开发区,,26,12,30,3,19,81,,63,63,4,20,2,3,0.6,0.8
2026-02-01T1700,4153A,101.5536,25.0343,楚雄彝族自治州,团结路562号,,26,14,25,7,15,81,,63,63,3,12,4,4,0.3,0.5
2026-02-01T1700,2549A,107.5087,31.2186,达州市,市环境监测站,颗粒物(PM10),53,56,56,34,32,21,,17,17,40,33,7,8,0.8,0.8
2026-02-01T1700,2550A,107.4988,31.2132,达州市,凤凰小区,,,48,52,31,29,33,,21,21,29,33,5,7,,0.4
2026-02-01T1700,2551A,107.5081,31.1987,达州市,达县机关宾馆,颗粒物(PM10),52,53,58,31,30,27,,16,16,34,37,5,7,0.8,0.8
2026-02-01T1700,2552A,107.4644,31.2124,达州市,市政中心,,47,47,59,23,27,36,,23,23,32,37,6,7,0.7,0.8
2026-02-01T1700,2614A,100.2168,25.5818,大理白族自治州,大理市环境监测站,,27,17,23,10,15,84,,77,77,6,7,7,7,0.4,0.4
2026-02-01T1700,2615A,100.1542,25.7055,大理白族自治州,大理古城,,26,11,22,6,14,83,,80,80,4,8,8,8,0.5,0.5
2026-02-01T1700,1109A,121.6119,38.974,大连市,甘井子,,35,35,72,19,55,90,,73,73,18,30,7,10,0.4,0.5
2026-02-01T1700,1110A,121.565,38.9509,大连市,周水子,,37,37,76,14,55,83,,66,66,12,33,6,6,0.4,0.8
2026-02-01T1700,1111A,121.5637,38.8849,大连市,星海三站,,40,40,73,11,58,82,,65,65,17,24,8,10,0.5,0.9
2026-02-01T1700,1112A,121.6301,38.9117,大连市,青泥洼桥,,25,22,75,17,59,80,,63,63,19,32,11,13,0.2,0.8
2026-02-01T1700,1113A,121.6248,38.8643,大连市,傅家庄,,26,23,75,18,56,72,,59,59,18,24,8,13,0.8,1.1
2026-02-01T1700,1114A,121.5117,38.8636,大连市,七贤岭,颗粒物(PM10),51,51,69,25,48,85,,72,72,16,17,9,9,0.7,0.9
2026-02-01T1700,1116A,121.7507,39.1339,大连市,金州,细颗粒物(PM2.5),54,52,77,38,63,74,,72,72,23,28,9,12,0.5,0.8
2026-02-01T1700,1117A,121.7811,39.0495,大连市,开发区,颗粒物(PM10),53,56,80,34,65,75,,67,67,19,28,11,12,0.6,0.9
2026-02-01T1700,1118A,121.9762,39.0631,大连市,双D港,,31,31,62,21,49,94,,78,78,15,24,8,12,0.6,0.8
2026-02-01T1700,4082A,121.2548,38.8188,大连市,旅顺,,39,39,97,25,74,81,,61,61,16,24,10,9,0.5,1
2026-02-01T1700,1789A,124.8085,46.0381,大庆市,大同区,,36,35,50,25,31,65,,69,69,8,20,6,10,0.6,0.8
2026-02-01T1700,1790A,125.1166,46.5255,大庆市,龙凤区,,38,38,48,15,28,61,,64,64,18,33,9,10,0.5,0.7
2026-02-01T1700,1791A,124.8894,46.4007,大庆市,红岗区,,30,30,33,17,21,55,,56,56,14,23,4,5,0.6,0.7
2026-02-01T1700,1792A,125.1391,46.578,大庆市,萨尔图区,,25,25,39,9,18,59,,60,60,15,28,8,10,0.4,0.5
2026-02-01T1700,1793A,124.9026,46.6217,大庆市,让胡路区,,21,21,33,13,21,65,,69,69,9,16,7,8,0.3,0.4
2026-02-01T1700,3481A,125.127,46.6277,大庆市,萨区政府监测点,,26,26,29,7,12,67,,67,67,8,24,9,9,0.6,0.7
2026-02-01T1700,1723A,113.2926,40.0759,大同市,云冈宾馆,,24,16,36,7,15,76,,66,66,7,21,4,8,0.2,0.6
2026-02-01T1700,1724A,113.3437,40.0921,大同市,大同大学,,26,26,40,3,16,80,,69,69,7,20,3,13,0.4,0.7
2026-02-01T1700,1725A,113.2637,40.129,大同市,安家小村,,26,26,53,6,20,75,,62,62,6,28,6,11,0.2,1.2
2026-02-01T1700,3282A,113.3399,40.0586,大同市,大同市卫生学校,,26,26,40,14,17,80,,69,69,10,24,2,8,0.3,0.6
2026-02-01T1700,3565A,113.1371,40.1122,大同市,云冈站,,25,13,33,3,15,80,,70,70,6,23,4,7,0.3,0.4
2026-02-01T1700,3566A,113.1186,40.2556,大同市,图书馆,,25,21,33,10,17,78,,71,71,8,12,3,4,0.3,0.5
2026-02-01T1700,3567A,113.5931,40.0459,大同市,区一中,,28,28,48,3,29,84,,67,67,9,23,6,13,0.1,0.6
2026-02-01T1700,4199A,113.2798248,40.09972476,大同市,魏都大道141号,,32,32,55,16,23,82,,72,72,7,30,3,7,0.4,1
2026-02-01T1700,2269A,124.1068,50.4091,大兴安岭地区,科技局,,22,18,22,10,11,68,,67,67,3,3,4,5,0.2,0.2
2026-02-01T1700,3663A,124.117,50.4279,大兴安岭地区,红旗社区,,23,,8,11,7,72,,74,74,8,4,4,4,0.4,0.3
2026-02-01T1700,1600A,124.33,40.0625,丹东市,江湾东路,细颗粒物(PM2.5),74,92,77,54,50,73,,74,74,25,28,25,19,0.8,1.5
2026-02-01T1700,1601A,124.4242,40.1513,丹东市,临江后街,,46,46,54,31,42,78,,71,71,13,30,11,17,0.6,0.9
2026-02-01T1700,1602A,124.3935,40.1461,丹东市,元宝山,,48,48,47,33,36,72,,61,61,17,24,12,16,0.8,1
2026-02-01T1700,1603A,124.3634,40.1093,丹东市,民主桥,细颗粒物(PM2.5),68,78,68,49,46,76,,66,66,20,36,18,17,0.9,1
2026-02-01T1700,3541A,109.5726195,19.51688767,儋州市,第一中学子站,,16,10,45,3,33,51,,50,50,6,8,4,4,0.8,0.9
2026-02-01T1700,3542A,109.5567,19.5187,儋州市,东坡学校子站,,20,11,44,3,31,61,,61,61,8,10,3,4,0.7,0.9
2026-02-01T1700,2616A,98.5611,24.4273,德宏傣族景颇族自治州,德宏州监测站,,36,32,57,25,38,107,,72,72,9,26,6,6,0.6,0.9
2026-02-01T1700,3677A,98.5887,24.4366,德宏傣族景颇族自治州,芒市人民政府综合楼,,44,44,50,18,29,94,,64,64,11,14,4,4,0.5,0.7
2026-02-01T1700,1901A,104.424,31.1209,德阳市,东山公园,细颗粒物(PM2.5),72,82,106,52,78,94,,62,62,11,32,2,2,0.7,0.8
2026-02-01T1700,1902A,104.3827,31.1318,德阳市,西小区,"颗粒物(PM10),细颗粒物(PM2.5)",75,100,133,55,94,96,,58,58,16,38,4,4,1.0,1.1
2026-02-01T1700,1904A,104.3553,31.1091,德阳市,耐火材料厂,细颗粒物(PM2.5),82,88,126,60,97,84,,55,55,19,39,2,3,0.8,1
2026-02-01T1700,4145A,104.4144,31.1495,德阳市,市林业局,细颗粒物(PM2.5),77,92,119,56,81,96,,57,57,16,42,4,4,0.7,0.9
2026-02-01T1700,1622A,116.3034,37.4675,德州市,儿童乐园,细颗粒物(PM2.5),220,197,204,170,166,68,,44,44,38,41,12,10,1.7,1.6
2026-02-01T1700,1624A,116.2992,37.4449,德州市,监理站,细颗粒物(PM2.5),211,202,211,161,164,75,,50,50,40,49,11,8,1.4,1.3
2026-02-01T1700,3066A,116.2722,37.438,德州市,九衢泉纯净水厂,细颗粒物(PM2.5),217,190,202,167,165,69,,42,42,36,51,4,5,1.9,1.8
2026-02-01T1700,3371A,116.3693,37.44,德州市,开发区人民医院,细颗粒物(PM2.5),215,207,205,165,158,68,,48,48,35,32,12,9,1.3,1.3
2026-02-01T1700,3511A,116.5687,37.3331,德州市,陵城艺术中心,细颗粒物(PM2.5),228,207,190,178,160,55,,38,38,44,47,13,12,1.4,1.3
2026-02-01T1700,4292A,116.352738,37.420875,德州市,新河东路,细颗粒物(PM2.5),213,200,202,163,208,66,,42,42,39,44,14,10,1.3,1.4
2026-02-01T1700,2621A,99.7054,27.8319,迪庆藏族自治州,迪庆州站,,24,21,25,3,14,76,,70,70,5,8,5,5,0.4,0.6
2026-02-01T1700,3180A,99.7122,27.8129,迪庆藏族自治州,质量技术监督局,,26,19,23,14,14,81,,73,73,4,9,4,5,0.4,0.4
2026-02-01T1700,4257A,104.6092,35.5962,定西市,将台街,颗粒物(PM10),75,100,121,54,55,97,,74,74,4,22,9,11,1.5,0.8
2026-02-01T1700,4309A,104.6159,35.5701,定西市,正龙路62号,颗粒物(PM10),77,104,123,40,48,92,,67,67,6,11,5,6,0.6,0.8
2026-02-01T1700,1390A,113.7943,23.0132,东莞市,东城石井,,29,22,21,15,14,91,,70,70,17,16,6,6,0.8,0.8
2026-02-01T1700,1391A,113.7384,22.9659,东莞市,南城西平,,32,28,19,20,13,100,,69,69,20,23,6,6,0.8,0.9
2026-02-01T1700,3319A,113.7283,23.041,东莞市,万江金泰,,30,26,23,21,16,88,,59,59,13,12,4,4,0.9,0.9
2026-02-01T1700,4129A,113.8666,23.1062,东莞市,裕兴路,,25,17,20,9,11,79,,61,61,11,14,5,5,0.9,1
2026-02-01T1700,4130A,114.0076,22.9739,东莞市,教育路1号,,30,26,22,16,15,94,,66,66,16,17,4,4,0.7,0.8
2026-02-01T1700,4131A,113.7981,22.8124,东莞市,长怡路1号,,41,41,27,21,14,106,,67,67,21,18,6,6,0.9,0.9
2026-02-01T1700,1666A,118.6612,37.4313,东营市,市环保局,细颗粒物(PM2.5),221,193,167,171,144,43,,31,31,36,52,7,13,1.3,1.3
2026-02-01T1700,3036A,118.6903,37.4337,东营市,开发区管委会,细颗粒物(PM2.5),209,190,165,159,139,42,,30,30,31,52,8,12,1.0,1.1
2026-02-01T1700,3365A,118.5721,37.5654,东营市,垦利区民丰路,细颗粒物(PM2.5),230,183,164,180,160,42,,31,31,36,58,7,10,1.1,1.1
2026-02-01T1700,3498A,118.5063,37.8606,东营市,河口城区,细颗粒物(PM2.5),240,244,191,190,146,46,,37,37,41,54,6,5,1.5,1.4
2026-02-01T1700,3646A,118.4979,37.4623,东营市,胜利站,细颗粒物(PM2.5),210,205,175,160,136,44,,25,25,35,58,6,11,1.4,1.4
2026-02-01T1700,3734A,118.5753,37.4405,东营市,理想之城,细颗粒物(PM2.5),204,188,169,154,127,41,,27,27,41,66,4,7,1.3,1.3
2026-02-01T1700,1591A,110.0024,39.8127,鄂尔多斯市,综合楼,,44,44,28,3,6,82,,79,79,11,11,6,6,0.2,0.3
2026-02-01T1700,1592A,109.9485,39.8259,鄂尔多斯市,巴音孟克林场办事处,,29,29,25,3,8,85,,80,80,7,11,5,5,0.3,0.3
2026-02-01T1700,1593A,109.7734,39.5987,鄂尔多斯市,康泽苑,,31,31,25,6,7,91,,85,85,5,9,2,3,0.2,0.3
2026-02-01T1700,1594A,109.8121,39.5987,鄂尔多斯市,华泰汽车城,,31,19,26,8,11,99,,92,92,6,12,5,5,0.3,0.3
2026-02-01T1700,1595A,109.9734,39.7884,鄂尔多斯市,奥林花园,,41,41,30,3,7,84,,79,79,10,13,6,7,0.3,0.3
2026-02-01T1700,2436A,114.894,30.3989,鄂州市,市政府,,31,31,51,20,39,71,,39,39,15,31,4,6,0.6,0.7
2026-02-01T1700,2437A,114.8986,30.3714,鄂州市,赵家坝,,38,38,55,16,41,79,,44,44,10,26,8,9,0.5,0.7
2026-02-01T1700,3654A,114.8093,30.4091,鄂州市,精准医疗中心,,38,38,54,24,35,69,,49,49,20,29,6,7,0.2,0.4
2026-02-01T1700,2454A,109.4978,30.2979,恩施土家族苗族自治州,湖北民院,,38,30,42,26,33,48,,31,31,16,17,6,6,1.0,1
2026-02-01T1700,3549A,109.5061,30.3771,恩施土家族苗族自治州,龙凤新区,,26,26,37,18,26,46,,26,26,14,13,8,7,0.7,0.8
2026-02-01T1700,2499A,108.3411,21.6159,防城港市,沙万,,47,47,35,29,21,80,,66,66,19,15,7,6,1.0,1
2026-02-01T1700,2500A,108.3515,21.7733,防城港市,防城档案局,,44,44,42,29,24,90,,71,71,13,13,6,5,0.7,0.8
2026-02-01T1700,2501A,108.3506,21.6414,防城港市,大海花园,,46,32,29,32,23,92,,73,73,14,13,7,7,0.9,1
2026-02-01T1700,1371A,113.1293,23.0065,佛山市,湾梁,,39,39,23,16,9,116,,69,69,22,24,/,/,/,/
2026-02-01T1700,1372A,113.1082,23.0477,佛山市,华材职中,,46,46,26,25,20,116,,72,72,20,21,6,6,0.8,0.9
2026-02-01T1700,1373A,113.1439,23.045,佛山市,南海气象局,,37,37,24,20,15,116,,68,68,26,27,/,/,/,/
2026-02-01T1700,1374A,113.2879,22.8094,佛山市,顺德苏岗,,42,42,18,20,13,92,,70,70,31,26,/,/,1.1,1.2
2026-02-01T1700,1376A,112.8384,22.8678,佛山市,高明孔堂,,36,28,28,25,18,104,,73,73,22,19,/,/,/,/
2026-02-01T1700,1377A,112.8835,23.1584,佛山市,三水监测站,,31,31,26,21,18,99,,66,66,18,20,5,4,0.6,0.6
2026-02-01T1700,1378A,112.8668,23.185,佛山市,三水云东海,,33,27,28,20,16,104,,70,70,19,24,/,/,/,/
2026-02-01T1700,3625A,113.2568,22.7629,佛山市,容桂街道办,,39,39,23,21,13,89,,65,65,30,25,/,/,/,/
2026-02-01T1700,1282A,119.2681,26.0506,福州市,师大,,30,30,17,16,10,42,,47,44,22,17,3,2,0.6,0.5
2026-02-01T1700,1283A,119.2983,26.1028,福州市,五四北路,,31,31,14,17,7,45,,49,46,20,15,4,4,0.8,0.4
2026-02-01T1700,1284A,119.2648,26.0769,福州市,杨桥西路,,27,27,15,15,9,48,,47,45,20,16,4,4,/,/
2026-02-01T1700,3048A,119.5799,26.0937,福州市,九龙,,25,14,9,7,3,80,,72,72,11,11,4,4,0.4,0.4
2026-02-01T1700,3526A,119.5188,25.9666,福州市,吴航,,24,12,11,6,5,76,,74,74,14,11,4,4,0.4,0.5
2026-02-01T1700,4104A,119.3106,26.0648,福州市,路通桥巷6号,,26,26,17,16,14,45,,48,45,19,15,/,/,/,/
2026-02-01T1700,1755A,123.7974,41.8494,抚顺市,望花区,,40,37,113,28,76,68,,50,50,22,56,12,12,0.7,1.5
2026-02-01T1700,1756A,123.9161,41.8827,抚顺市,顺城区,,39,34,110,27,90,75,,54,54,20,60,12,14,0.7,1.7
2026-02-01T1700,1757A,124.0437,41.8615,抚顺市,东洲区,,44,44,92,17,71,74,,54,54,19,38,14,20,0.5,1.2
2026-02-01T1700,1758A,123.9246,41.8638,抚顺市,新抚区,,32,32,93,22,75,75,,56,56,24,58,8,8,0.7,1.4
2026-02-01T1700,1759A,124.0972,41.8961,抚顺市,大伙房水库,,37,37,68,19,50,68,,55,55,24,39,12,11,0.6,1.1
2026-02-01T1700,1760A,123.708,41.8386,抚顺市,沈抚新城,,38,38,109,25,76,72,,55,55,29,61,9,11,0.4,1.4
2026-02-01T1700,2377A,116.3544,27.9833,抚州市,市站,,48,41,37,33,33,46,,43,43,16,14,5,6,1.0,1.1
2026-02-01T1700,2378A,116.3562,27.9631,抚州市,血防站,细颗粒物(PM2.5),54,40,42,38,33,39,,36,36,22,21,5,5,1.3,1.2
2026-02-01T1700,2379A,116.3561,28.0007,抚州市,采茶剧团,,49,35,38,34,35,39,,35,35,10,9,5,5,0.9,0.8
2026-02-01T1700,2380A,116.3854,27.9648,抚州市,医学分院,颗粒物(PM10),52,54,45,30,30,40,,38,38,14,13,4,5,1.0,0.9
2026-02-01T1700,2207A,121.6095,41.9978,阜新市,工业园区,,36,36,91,3,52,76,,68,68,8,42,7,21,0.4,1
2026-02-01T1700,2208A,121.6567,42.0188,阜新市,长青街,,25,20,39,3,30,80,,72,72,6,29,5,12,0.2,0.5
2026-02-01T1700,2209A,121.6672,42.07,阜新市,农业园区,,33,33,40,3,14,70,,68,68,7,14,5,12,0.3,0.4
2026-02-01T1700,2211A,121.6343,42.0455,阜新市,玉龙新城,,31,31,64,3,33,76,,70,70,7,38,6,12,0.3,0.8
2026-02-01T1700,2301A,115.8276,32.8929,阜阳市,市监测站,细颗粒物(PM2.5),85,95,76,63,46,85,,76,76,25,18,4,4,0.8,0.6
2026-02-01T1700,2303A,115.8551,32.8606,阜阳市,开发区,细颗粒物(PM2.5),72,92,62,52,45,89,,77,77,24,19,5,5,0.6,0.4
2026-02-01T1700,2875A,115.783962,32.889217,阜阳市,阜阳职业技术学院,细颗粒物(PM2.5),77,95,65,56,45,100,,84,84,12,16,6,5,0.7,0.5
2026-02-01T1700,3468A,115.79,32.8614,阜阳市,市规划展馆,细颗粒物(PM2.5),85,81,66,63,46,101,,84,84,12,14,5,5,0.8,0.6
2026-02-01T1700,3469A,115.835101,32.918568,阜阳市,枣园社区,细颗粒物(PM2.5),92,97,70,68,48,94,,81,81,13,18,5,5,0.8,0.6
2026-02-01T1700,2669A,102.9097,34.9841,甘南藏族自治州,州政府,,,66,73,,57,82,,67,67,6,19,6,6,0.4,0.6
2026-02-01T1700,3380A,102.8915,34.9618,甘南藏族自治州,甘肃民族师范学院,颗粒物(PM10),56,62,78,25,34,90,,72,72,7,23,6,8,0.3,0.6
2026-02-01T1700,2570A,101.96,30.048,甘孜藏族自治州,水桥子,,24,20,13,3,6,76,,54,54,4,10,7,6,0.6,0.7
2026-02-01T1700,3065A,101.9534,29.9976,甘孜藏族自治州,州环保局,,26,23,13,17,9,83,,62,62,7,13,6,6,0.5,0.6
2026-02-01T1700,2363A,114.9368,25.8663,赣州市,地委,,34,34,24,16,9,56,,60,60,13,12,7,7,0.8,0.7
2026-02-01T1700,2364A,114.946,25.8483,赣州市,气象台,,33,33,27,15,9,51,,55,55,19,15,4,5,0.5,0.5
2026-02-01T1700,2365A,114.932,25.8332,赣州市,市图书馆,,26,24,12,18,10,50,,53,53,17,16,4,4,0.8,0.8
2026-02-01T1700,2366A,114.8905,25.8472,赣州市,华坚鞋城,,25,23,20,17,9,48,,53,53,15,15,4,4,0.5,0.5
2026-02-01T1700,3109A,115.0094,25.8614,赣州市,赣县区卫计委,,22,18,12,13,8,68,,71,71,6,7,8,8,0.7,0.7
2026-02-01T1700,2684A,106.2753,36.0057,固原市,监测站,颗粒物(PM10),92,133,161,36,55,94,,79,79,10,25,9,10,0.6,1.2
2026-02-01T1700,2685A,106.2384,36.0189,固原市,新区,颗粒物(PM10),91,131,154,37,48,93,,78,78,9,37,8,8,0.4,1
2026-02-01T1700,2544A,106.6307,30.4577,广安市,市委,细颗粒物(PM2.5),62,62,57,44,44,60,,36,36,20,24,6,5,1.0,1
2026-02-01T1700,2545A,106.6266,30.4662,广安市,友谊中学,,,56,51,37,38,65,,44,44,,23,6,5,1.1,1
2026-02-01T1700,2547A,106.6386,30.4551,广安市,广电花园,细颗粒物(PM2.5),63,,47,45,45,58,,15,15,18,21,6,6,0.9,0.9
2026-02-01T1700,2902A,106.6347,30.4868,广安市,北辰小学,细颗粒物(PM2.5),62,51,52,44,44,63,,40,40,13,16,7,5,0.9,0.9
2026-02-01T1700,2524A,105.8211,32.4444,广元市,老城,颗粒物(PM10),64,78,89,42,49,85,,53,53,24,44,4,5,0.9,1.2
2026-02-01T1700,2526A,105.8629,32.429,广元市,监测站,颗粒物(PM10),68,86,79,38,43,79,,51,51,22,28,7,7,0.9,1
2026-02-01T1700,3617A,105.8047,32.4167,广元市,经开区,颗粒物(PM10),69,87,92,41,49,81,,50,50,17,36,7,9,0.8,1
2026-02-01T1700,1345A,113.2346,23.1423,广州市,广雅中学,,32,29,14,19,11,101,,67,67,24,21,3,3,0.9,0.8
2026-02-01T1700,1346A,113.2611,23.105,广州市,市五中,,37,33,21,19,15,116,,77,77,24,18,7,6,/,/
2026-02-01T1700,1348A,113.3477,23.0916,广州市,广东商学院,,33,27,18,17,9,105,,68,68,21,17,5,4,0.8,1.8
2026-02-01T1700,1349A,113.4332,23.105,广州市,市八十六中,,34,19,16,14,15,106,,71,71,19,20,7,7,/,/
2026-02-01T1700,1350A,113.3506,22.9488,广州市,番禺中学,,35,35,25,21,15,99,,69,69,24,22,2,2,0.8,0.8
2026-02-01T1700,1351A,113.2147,23.3918,广州市,花都师范,,30,24,22,12,11,94,,72,72,22,22,6,6,0.7,0.9
2026-02-01T1700,1352A,113.2599,23.1329,广州市,市监测站,,33,33,26,20,16,104,,71,71,23,15,2,2,/,/
2026-02-01T1700,1353A,113.5618,23.3119,广州市,九龙镇镇龙,,29,18,14,12,9,91,,66,66,11,12,6,4,0.6,0.8
2026-02-01T1700,1354A,113.2764,23.1544,广州市,麓湖,,33,30,22,18,15,103,,71,71,24,21,10,9,0.7,0.8
2026-02-01T1700,2846A,113.3209,23.1323,广州市,体育西,,32,30,24,20,17,100,,67,67,20,17,8,7,0.8,0.9
2026-02-01T1700,3298A,113.5718,23.5493,广州市,从化街口,,28,17,12,13,9,87,,75,75,13,12,8,6,0.6,0.7
2026-02-01T1700,3299A,113.3463,23.369,广州市,白云竹料,,33,21,15,13,11,103,,80,80,15,15,5,4,0.6,0.6
2026-02-01T1700,3300A,113.2981,23.2365,广州市,白云嘉禾,,32,30,22,15,13,101,,74,74,30,22,6,5,/,/
2026-02-01T1700,3301A,113.4256,23.1716,广州市,黄埔科学城,,37,22,17,15,13,117,,74,74,14,14,2,2,0.7,0.9
2026-02-01T1700,3302A,113.3942,23.0485,广州市,番禺大学城,,,26,23,16,11,113,,79,79,17,17,5,5,,0.7
2026-02-01T1700,3303A,113.4923,22.8169,广州市,南沙黄阁,颗粒物(PM10),52,53,29,32,18,82,,63,63,31,26,7,6,/,/
2026-02-01T1700,3304A,113.534,22.7893,广州市,南沙街,颗粒物(PM10),56,62,29,32,16,107,,75,75,36,29,8,6,0.9,0.9
2026-02-01T1700,3443A,113.2905,23.5541,广州市,花都梯面,,28,27,17,12,12,87,,67,67,6,10,7,5,/,/
2026-02-01T1700,3445A,113.786,23.7479,广州市,从化良口,,29,19,10,17,8,90,,71,71,7,9,8,7,/,/
2026-02-01T1700,3446A,113.805,23.2614,广州市,增城荔城,,26,19,13,14,8,83,,65,65,11,11,6,5,0.8,0.9
2026-02-01T1700,2506A,109.604387,23.066791,贵港市,江南子站,,36,36,35,22,19,90,,78,78,8,12,5,5,0.7,0.8
2026-02-01T1700,2508A,109.5669,23.1065,贵港市,荷城子站,,41,41,31,20,17,80,,71,71,13,15,6,5,0.8,0.9
2026-02-01T1700,3405A,109.5886,23.1172,贵港市,新世纪学校,,46,46,36,24,23,90,,78,78,13,16,/,/,0.6,0.6
2026-02-01T1700,4260A,109.5933,23.095,贵港市,中山路155-3号,,30,,30,21,23,96,,84,84,11,15,/,/,0.7,0.7
2026-02-01T1700,1439A,106.6863,26.6035,贵阳市,马鞍山,,25,22,24,17,20,56,,45,45,14,13,8,6,/,/
2026-02-01T1700,1441A,106.6241,26.6266,贵阳市,鉴湖路,,39,39,37,25,23,58,,51,51,20,17,3,4,0.7,0.7
2026-02-01T1700,1442A,106.7468,26.6344,贵阳市,燕子冲,,35,31,26,24,22,69,,60,60,11,11,9,8,0.7,0.7
2026-02-01T1700,1443A,106.6556,26.4362,贵阳市,碧云窝,,44,44,38,22,22,59,,53,53,19,15,11,12,/,/
2026-02-01T1700,1445A,106.6963,26.6063,贵阳市,红边门,,35,34,29,24,23,62,,53,53,13,14,10,10,/,/
2026-02-01T1700,1446A,106.7162383,26.56964667,贵阳市,新华路,,36,36,33,21,20,59,,54,54,19,17,7,8,0.7,0.6
2026-02-01T1700,1447A,106.6742,26.542,贵阳市,太慈桥,,31,31,27,17,19,61,,51,51,18,18,4,4,/,/
2026-02-01T1700,4230A,106.688212,26.56952,贵阳市,花果园大街66号,,33,24,25,23,21,53,,44,44,16,16,3,3,/,/
2026-02-01T1700,4231A,106.687268,26.516892,贵阳市,漓江路57号,,31,31,30,12,21,59,,53,53,18,16,8,8,0.7,0.7
2026-02-01T1700,1864A,110.3091,25.2705,桂林市,龙隐路小学,细颗粒物(PM2.5),68,51,32,49,39,73,,65,65,12,11,3,5,0.6,0.5
2026-02-01T1700,1865A,110.2849361,25.22909545,桂林市,八中,颗粒物(PM10),56,61,31,21,21,66,,60,58,16,13,4,3,0.7,0.7
2026-02-01T1700,3531A,110.296,25.1254,桂林市,旅游学院,颗粒物(PM10),56,62,45,39,30,77,,71,71,14,10,5,4,0.5,0.4
2026-02-01T1700,4222A,110.1835,25.2444,桂林市,环湖路276号,细颗粒物(PM2.5),59,51,37,42,27,70,,64,63,13,11,6,6,1.1,1
2026-02-01T1700,4301A,110.2803,25.2773,桂林市,信义路13号,细颗粒物(PM2.5),53,49,31,37,29,73,,64,63,15,13,5,5,0.9,0.9
2026-02-01T1700,2674A,100.2262,34.4854,果洛藏族自治州,玛沁县大武镇,细颗粒物(PM2.5),73,,47,53,31,92,,72,72,2,4,11,16,0.2,0.4
2026-02-01T1700,1130A,126.5557,45.8109,哈尔滨市,松北商大,细颗粒物(PM2.5),57,,78,40,71,64,,54,54,22,34,11,9,0.6,0.9
2026-02-01T1700,1132A,126.6162,45.719,哈尔滨市,南岗学府路,颗粒物(PM10),55,60,105,31,77,77,,57,57,12,37,7,10,0.7,1.1
2026-02-01T1700,1133A,126.6894,45.7733,哈尔滨市,太平宏伟公园,颗粒物(PM10),55,60,91,37,70,74,,57,57,16,35,19,15,0.5,0.9
2026-02-01T1700,1134A,126.6361,45.7672,哈尔滨市,道外承德广场,颗粒物(PM10),64,78,108,33,69,74,,57,57,21,45,9,14,0.1,0.6
2026-02-01T1700,1136A,126.644,45.7261,哈尔滨市,动力和平路,颗粒物(PM10),57,64,100,32,76,72,,54,54,19,41,13,15,0.9,1.2
2026-02-01T1700,1137A,126.5933,45.7479,哈尔滨市,道里建国路,细颗粒物(PM2.5),52,45,94,36,78,64,,55,55,22,49,20,22,0.2,0.8
2026-02-01T1700,1138A,126.6127,45.6119,哈尔滨市,平房东轻厂,细颗粒物(PM2.5),68,59,102,49,86,56,,54,54,45,46,12,10,0.7,1.1
2026-02-01T1700,1139A,126.5875,45.9827,哈尔滨市,呼兰师专,细颗粒物(PM2.5),77,,71,56,71,63,,53,53,24,37,10,15,0.8,1.1
2026-02-01T1700,1140A,126.6299,45.6799,哈尔滨市,省农科院,细颗粒物(PM2.5),68,66,109,49,90,62,,53,53,20,47,17,15,0.7,1.2
2026-02-01T1700,4282A,126.6769,45.7379,哈尔滨市,华山路1号,细颗粒物(PM2.5),52,46,98,36,66,69,,55,55,25,45,12,19,0.6,0.9
2026-02-01T1700,4283A,126.9717,45.5356,哈尔滨市,解放大街52号,细颗粒物(PM2.5),72,65,110,52,83,60,,61,61,24,31,12,13,0.7,1
2026-02-01T1700,2688A,93.5124,42.8176,哈密市,地区监测站,,38,38,57,19,31,78,,58,58,14,25,9,11,0.1,0.5
2026-02-01T1700,2689A,93.5014,42.8312,哈密市,哈密师范学校,,,41,64,10,23,,,4,,15,24,5,6,0.3,0.8
2026-02-01T1700,2671A,100.9016,36.9464,海北藏族自治州,海晏县西海镇,,30,26,61,10,37,94,,77,77,2,9,6,10,0.3,0.6
2026-02-01T1700,3867A,102.074,36.5056,海东市,平安区公安局北苑,细颗粒物(PM2.5),78,91,117,57,69,87,,62,62,7,16,12,15,0.8,0.9
2026-02-01T1700,4163A,102.0984,36.5119,海东市,滨河路,细颗粒物(PM2.5),80,96,116,59,63,94,,69,69,19,34,10,14,0.7,0.8
2026-02-01T1700,1410A,110.3189,20.0596,海口市,海南大学,,30,21,35,12,24,95,,75,75,10,11,5,6,0.6,0.7
2026-02-01T1700,1411A,110.2827,20.0051,海口市,秀英海南医院,,29,27,35,12,25,91,,73,73,10,12,7,8,0.5,0.6
2026-02-01T1700,1412A,110.3391,19.9979,海口市,海南师范大学,,29,22,34,11,21,91,,75,75,8,7,5,6,0.6,0.7
2026-02-01T1700,1413A,110.3303,20.0359,海口市,龙华路环保局宿舍,,32,25,34,13,23,100,,80,80,9,9,/,/,0.8,0.9
2026-02-01T1700,3539A,110.5111,19.9737,海口市,桂林洋子站,,33,33,32,17,21,91,,80,80,10,10,/,/,/,/
2026-02-01T1700,4134A,110.1952,20.0451,海口市,长滨二路9号,,30,18,36,11,29,96,,74,74,7,10,/,/,/,/
2026-02-01T1700,2673A,100.6158,36.2985,海南藏族自治州,共和县恰卜恰镇,细颗粒物(PM2.5),62,45,44,44,26,95,,83,83,4,18,10,13,0.5,0.5
2026-02-01T1700,2676A,97.373,37.376,海西蒙古族藏族自治州,德令哈市,,34,34,23,14,9,106,,97,97,6,5,13,13,0.4,0.5
2026-02-01T1700,1049A,114.492,36.5712,邯郸市,矿院,细颗粒物(PM2.5),87,81,164,64,159,86,,52,52,14,27,4,2,0.6,1.7
2026-02-01T1700,1050A,114.4839,36.6136,邯郸市,丛台公园,颗粒物(PM10),93,136,198,62,173,85,,53,53,19,35,7,5,0.7,2
2026-02-01T1700,3458A,114.7893,36.5592,邯郸市,香泉濮院小区,细颗粒物(PM2.5),83,107,168,61,127,90,,53,53,21,34,8,3,1.0,1.5
2026-02-01T1700,3580A,114.1998,36.4439,邯郸市,峰峰矿区临水派出所,细颗粒物(PM2.5),89,80,122,66,110,90,,83,83,14,21,10,9,0.9,1.7
2026-02-01T1700,4068A,114.5209,36.7697,邯郸市,建安街268号,细颗粒物(PM2.5),103,84,161,77,167,78,,49,49,24,49,7,4,0.6,1.9
2026-02-01T1700,4069A,114.5488,36.6177,邯郸市,丛台东路558号,细颗粒物(PM2.5),80,81,180,59,179,94,,55,55,11,33,4,3,0.9,2
2026-02-01T1700,2635A,107.0155,33.0707,汉中市,市监测站,颗粒物(PM10),70,90,90,38,64,99,,66,66,18,33,6,6,0.8,1.3
2026-02-01T1700,2636A,107.0083,33.114,汉中市,鑫源开发区,颗粒物(PM10),64,78,92,37,64,104,,70,70,14,40,4,6,0.6,1.1
2026-02-01T1700,2637A,107.0072,33.0323,汉中市,南郑大河坎水厂,颗粒物(PM10),73,96,96,40,60,100,,61,61,21,29,7,7,0.9,1.2
2026-02-01T1700,1223A,120.2073,30.2111,杭州市,滨江,,30,30,42,20,31,64,,54,54,20,28,6,6,0.5,0.6
2026-02-01T1700,1224A,120.0625,30.2737,杭州市,西溪,,37,37,39,11,28,70,,64,64,16,25,8,8,0.9,1
2026-02-01T1700,1226A,120.3417,30.315,杭州市,下沙,细颗粒物(PM2.5),53,53,53,37,39,67,,63,63,25,35,8,7,0.5,1.4
2026-02-01T1700,1227A,120.1252,30.2465,杭州市,卧龙桥,,33,33,37,17,28,64,,63,63,10,13,9,8,0.3,0.4
2026-02-01T1700,1228A,120.1902,30.2691,杭州市,浙江农大,,32,32,41,18,29,69,,58,58,25,37,5,5,0.6,0.8
2026-02-01T1700,1230A,120.1195,30.3121,杭州市,和睦小学,,38,38,45,22,33,69,,60,60,14,22,5,4,0.7,0.8
2026-02-01T1700,1231A,120.3076,30.4146,杭州市,临平镇,细颗粒物(PM2.5),58,62,50,41,38,66,,59,59,20,22,6,6,0.6,0.6
2026-02-01T1700,1232A,120.2753,30.1839,杭州市,城厢镇,,46,46,41,20,31,71,,62,62,15,22,6,7,0.3,0.4
2026-02-01T1700,1233A,120.0883,30.1808,杭州市,云栖,,29,29,29,14,21,60,,63,63,14,18,4,4,0.7,0.8
2026-02-01T1700,3557A,119.9463,30.0496,杭州市,镇二中,,25,21,28,17,25,58,,60,60,21,26,4,4,0.6,0.7
2026-02-01T1700,3558A,119.7184,30.2367,杭州市,市府大楼,,20,16,29,10,29,61,,57,57,9,15,10,10,0.6,0.7
2026-02-01T1700,3656A,120.1554,30.2863,杭州市,消防大队,,36,36,40,21,32,63,,57,57,19,26,6,6,0.4,0.4
2026-02-01T1700,1270A,117.1957,31.7845,合肥市,明珠广场,,31,31,45,14,28,76,,75,75,15,20,5,5,0.5,0.5
2026-02-01T1700,1271A,117.307,31.8765,合肥市,三里街,,31,31,46,18,30,72,,72,72,21,21,5,4,0.5,0.5
2026-02-01T1700,1272A,117.2587,31.8703,合肥市,琥珀山庄,,38,34,48,26,34,83,,81,81,11,14,7,7,0.7,0.6
2026-02-01T1700,1275A,117.2593,31.9376,合肥市,庐阳区,,27,27,48,17,27,79,,80,80,25,25,2,2,0.7,0.7
2026-02-01T1700,1276A,117.345251,31.861615,合肥市,瑶海区,,36,36,55,21,31,70,,62,62,29,38,4,4,0.4,0.5
2026-02-01T1700,1277A,117.3033,31.7967,合肥市,包河区,,41,41,50,21,27,73,,72,72,19,27,6,5,0.6,0.6
2026-02-01T1700,1278A,117.278,31.7392,合肥市,滨湖新区,,39,39,47,22,27,75,,72,72,16,24,2,2,0.5,0.5
2026-02-01T1700,1279A,117.1324,31.8395,合肥市,高新区,,27,27,42,17,25,83,,80,80,20,22,3,3,0.6,0.5
2026-02-01T1700,3464A,117.3802,31.9148,合肥市,高教基地,,31,31,49,15,29,78,,66,66,21,24,6,5,0.5,0.5
2026-02-01T1700,4098A,117.2518,31.8404,合肥市,中国科学技术大学,,27,27,41,17,25,80,,78,78,12,12,7,7,0.6,0.6
2026-02-01T1700,3614A,79.9241,37.0878,和田地区,地区环保局,颗粒物(PM10),394,495,531,241,118,85,,58,58,12,26,1,9,0.1,0.7
2026-02-01T1700,3615A,79.9132,37.1137,和田地区,市环保局,,,,518,99,91,104,,71,71,1,23,1,4,0.1,0.6
2026-02-01T1700,2517A,108.0496,24.6957,河池市,市环保站,,34,34,18,20,14,62,,55,55,10,9,2,4,0.8,0.7
2026-02-01T1700,4302A,108.0901,24.6945,河池市,上任中路54号,,26,26,19,13,14,50,,50,50,17,10,5,6,1.0,0.9
2026-02-01T1700,1697A,114.6962,23.7538,河源市,东埔,,21,14,10,14,12,67,,62,62,15,15,5,5,0.6,0.7
2026-02-01T1700,1698A,114.6895,23.7232,河源市,老城,,22,20,15,13,11,68,,61,61,10,11,6,6,0.9,0.9
2026-02-01T1700,3374A,115.5562,35.089,菏泽市,定陶老年大学,细颗粒物(PM2.5),135,144,96,103,78,88,,65,65,17,16,6,4,0.7,0.6
2026-02-01T1700,4114A,115.4239,35.2593,菏泽市,黄河路600号,细颗粒物(PM2.5),119,135,118,90,94,98,,67,67,24,30,6,3,0.9,0.8
2026-02-01T1700,4115A,115.5025,35.2727,菏泽市,菏泽市人社局,细颗粒物(PM2.5),129,133,116,98,94,90,,62,62,25,28,10,7,0.9,0.8
2026-02-01T1700,4184A,115.479691,35.244011,菏泽市,永昌路1号,细颗粒物(PM2.5),112,150,108,84,81,94,,66,66,38,28,6,3,1.1,0.7
2026-02-01T1700,4193A,115.471542,35.280012,菏泽市,长城路999号,细颗粒物(PM2.5),128,138,115,97,94,90,,62,62,28,27,10,4,1.0,1
2026-02-01T1700,2514A,111.5264,24.4178,贺州市,环保小区,,41,41,31,25,22,91,,80,80,14,13,3,3,0.5,0.5
2026-02-01T1700,2515A,111.561,24.4074,贺州市,政协大楼,,,38,30,25,23,87,,80,80,,11,12,11,0.6,0.6
2026-02-01T1700,3534A,111.4744,24.455,贺州市,西湾,,43,43,30,26,21,78,,72,72,22,16,9,9,0.7,0.7
2026-02-01T1700,2385A,114.17,35.9019,鹤壁市,市监测站,细颗粒物(PM2.5),109,108,170,82,143,83,,58,58,35,32,3,2,0.9,1.6
2026-02-01T1700,2386A,114.2953,35.7512,鹤壁市,市交警支队,细颗粒物(PM2.5),102,105,174,76,131,86,,46,46,25,43,9,4,0.6,1.3
2026-02-01T1700,2387A,114.2877,35.7302,鹤壁市,迎宾馆,细颗粒物(PM2.5),89,108,164,66,142,93,,45,45,26,47,4,4,0.7,1.5
2026-02-01T1700,3474A,114.2616,35.6824,鹤壁市,大新区,细颗粒物(PM2.5),98,93,149,73,140,90,,45,45,22,42,10,6,0.8,1.5
2026-02-01T1700,3596A,114.1573,35.9607,鹤壁市,南山宾馆,细颗粒物(PM2.5),124,123,151,94,116,84,,67,67,38,31,7,5,0.7,1.4
2026-02-01T1700,2244A,130.2537,47.3416,鹤岗市,哈啤分公司,,43,32,26,30,20,78,,80,79,11,6,8,6,0.6,0.5
2026-02-01T1700,2245A,130.2683,47.3087,鹤岗市,斯达机电,,33,33,27,20,16,71,,76,73,11,8,5,5,0.6,0.6
2026-02-01T1700,2246A,130.3114,47.3388,鹤岗市,东山纸板厂,颗粒物(PM10),52,53,23,25,18,46,,77,70,36,8,6,6,0.5,0.5
2026-02-01T1700,2263A,127.4832,50.2524,黑河市,交通局,,29,24,24,20,18,58,,76,74,14,11,8,6,0.4,0.4
2026-02-01T1700,2264A,127.5146,50.2339,黑河市,环保局,,29,26,23,20,17,58,,71,69,20,17,9,7,0.4,0.4
2026-02-01T1700,1074A,115.6839,37.754,衡水市,电机北厂,细颗粒物(PM2.5),202,168,185,152,154,60,,35,35,40,36,8,4,1.3,1.3
2026-02-01T1700,1075A,115.6303,37.7318,衡水市,市监测站,细颗粒物(PM2.5),199,161,168,149,150,60,,37,37,37,37,8,6,1.4,1.3
2026-02-01T1700,3188A,115.6684,37.7216,衡水市,市城管局,细颗粒物(PM2.5),169,160,166,128,131,61,,39,39,41,38,10,7,1.4,1.4
2026-02-01T1700,3459A,115.599,37.5491,衡水市,地表水厂,细颗粒物(PM2.5),207,,166,157,163,49,,38,38,37,40,5,4,1.2,1.2
2026-02-01T1700,2457A,112.6209,26.9268,衡阳市,衡阳化工总厂,,46,46,37,30,35,62,,57,57,13,17,7,8,0.8,0.9
2026-02-01T1700,2458A,112.621,26.8957,衡阳市,珠晖区环保局,,46,46,38,32,35,60,,56,56,18,22,8,6,1.0,1
2026-02-01T1700,2459A,112.628,26.8654,衡阳市,市委党校,,48,48,36,26,32,63,,60,60,10,12,18,11,1.1,1.1
2026-02-01T1700,2460A,112.6007,26.8977,衡阳市,市监测站,颗粒物(PM10),57,64,57,35,32,60,,57,57,14,16,12,7,1.0,1
2026-02-01T1700,2461A,112.5658,26.9013,衡阳市,真空机电公司,细颗粒物(PM2.5),54,53,52,38,38,59,,52,52,19,22,10,9,1.0,1
2026-02-01T1700,3399A,112.6703,26.8817,衡阳市,师范学院,细颗粒物(PM2.5),53,42,43,37,33,70,,61,61,18,21,3,3,0.6,0.6
2026-02-01T1700,3038A,103.3757,23.3679,红河哈尼族彝族自治州,州图书馆,,32,27,28,22,23,67,,65,58,7,6,6,6,0.7,0.6
2026-02-01T1700,4154A,103.401,23.3561,红河哈尼族彝族自治州,蒙自市朝阳路,,35,,22,24,21,78,,67,66,4,4,7,6,0.4,0.4
2026-02-01T1700,1090A,111.6506,40.7517,呼和浩特市,呼市一监,,27,7,72,3,44,84,,63,63,5,38,6,11,0.3,0.8
2026-02-01T1700,1094A,111.7516,40.8369,呼和浩特市,如意水处理厂,,27,10,59,3,33,84,,65,65,5,38,7,10,0.0,0.5
2026-02-01T1700,1095A,111.727798,40.806187,呼和浩特市,二十九中,,26,15,59,3,30,81,,63,63,3,30,9,12,0.2,0.6
2026-02-01T1700,1097A,111.717,40.7617,呼和浩特市,化肥厂生活区,,26,9,66,3,35,83,,64,64,6,35,3,7,0.2,0.6
2026-02-01T1700,3699A,111.6519,40.8389,呼和浩特市,海东办,,27,9,40,3,20,86,,72,72,6,31,2,4,0.3,0.6
2026-02-01T1700,4275A,111.591512,40.827312,呼和浩特市,成吉思汗西街8号,,25,9,44,3,20,79,,56,56,8,33,3,6,0.3,0.5
2026-02-01T1700,4276A,111.6597,40.8077,呼和浩特市,公园东路75号,,24,7,57,3,30,75,,57,57,10,40,4,7,0.2,0.8
2026-02-01T1700,4277A,111.5427,40.7846,呼和浩特市,金海路35号,,26,10,56,3,30,83,,60,60,8,37,5,8,0.4,0.8
2026-02-01T1700,3061A,119.7511,49.1576,呼伦贝尔市,国华电力东,,28,,29,19,24,68,,62,62,21,23,7,6,0.4,0.4
2026-02-01T1700,4279A,119.7569,49.2222,呼伦贝尔市,伊敏大街东7号,,35,31,46,24,36,63,,53,53,11,35,7,7,0.3,0.6
2026-02-01T1700,1250A,120.075,30.867,湖州市,城西水厂,细颗粒物(PM2.5),52,46,48,36,38,83,,70,70,27,34,6,5,0.4,0.5
2026-02-01T1700,2873A,120.083,30.8929,湖州市,仁皇山新区,细颗粒物(PM2.5),58,54,52,41,40,83,,71,71,27,34,7,6,0.6,0.7
2026-02-01T1700,2907A,120.1846,30.8592,湖州市,吴兴区站,细颗粒物(PM2.5),78,58,48,57,46,76,,69,69,22,27,5,5,0.4,0.5
2026-02-01T1700,3562A,120.4146,30.8538,湖州市,南浔区站,细颗粒物(PM2.5),60,62,57,43,42,76,,61,61,24,35,7,6,0.5,0.6
2026-02-01T1700,1607A,120.904878,40.721091,葫芦岛市,龙港区,细颗粒物(PM2.5),70,,81,51,60,66,,62,62,21,45,18,21,0.7,1.1
2026-02-01T1700,1608A,120.8382,40.7521,葫芦岛市,化工街,,39,31,81,27,55,61,,49,49,22,56,20,40,0.3,0.6
2026-02-01T1700,1609A,120.8339,40.7078,葫芦岛市,新区,细颗粒物(PM2.5),60,,62,43,55,65,,58,58,21,53,16,22,0.6,0.9
2026-02-01T1700,1610A,120.8697,40.7679,葫芦岛市,东城区,,49,,75,34,63,64,,50,50,26,57,17,23,0.8,1.2
2026-02-01T1700,2483A,109.9297,27.5383,怀化市,河西地税局,颗粒物(PM10),54,57,56,35,36,71,,65,65,18,20,1,1,/,/
2026-02-01T1700,2484A,109.9783,27.5342,怀化市,市四医院,,,69,62,31,41,71,,62,62,10,14,8,8,,0.7
2026-02-01T1700,2485A,109.9971,27.5579,怀化市,监测楼,,50,50,57,31,42,71,,61,61,16,19,3,3,0.2,0.3
2026-02-01T1700,1210A,119.0566,33.5991,淮安市,钵池山,细颗粒物(PM2.5),73,66,62,53,45,70,,62,62,13,19,8,7,0.6,0.5
2026-02-01T1700,1211A,119.0083,33.578,淮安市,北京南路,细颗粒物(PM2.5),75,75,64,55,42,57,,54,54,23,38,11,7,1.3,0.7
2026-02-01T1700,1212A,118.9938,33.6083,淮安市,市监测站,细颗粒物(PM2.5),77,56,48,56,44,66,,60,60,18,29,8,8,0.7,0.7
2026-02-01T1700,1213A,119.135,33.5038,淮安市,楚州区监测站,细颗粒物(PM2.5),67,66,55,48,40,75,,63,63,11,34,8,8,0.6,0.6
2026-02-01T1700,3426A,118.8757,33.2897,淮安市,新华书店,,,,58,,41,72,,56,56,13,22,7,8,,0.9
2026-02-01T1700,4092A,119.119691,33.550006,淮安市,枚皋中路89号,细颗粒物(PM2.5),93,76,60,69,44,80,,68,68,9,28,8,8,0.8,0.8
2026-02-01T1700,4206A,119.028838,33.631911,淮安市,承德北路606号,细颗粒物(PM2.5),74,80,72,54,45,62,,59,59,14,21,6,6,0.5,0.5
2026-02-01T1700,2282A,116.8005,33.9749,淮北市,监测站,细颗粒物(PM2.5),103,109,92,77,65,93,,76,76,13,20,4,4,0.8,0.7
2026-02-01T1700,2283A,116.8094,33.9008,淮北市,烈山区政府,细颗粒物(PM2.5),100,135,98,75,66,94,,73,73,16,32,3,3,0.6,0.5
2026-02-01T1700,4017A,116.7926,33.9534,淮北市,市博物馆,细颗粒物(PM2.5),124,122,97,94,74,91,,74,74,12,17,5,7,0.7,0.8
2026-02-01T1700,4100A,116.8322,33.9884,淮北市,杜集区第一实验学校,细颗粒物(PM2.5),109,117,90,82,65,94,,74,74,13,19,3,3,0.8,0.6
2026-02-01T1700,2277A,116.8304,32.7726,淮南市,潘集区政府,颗粒物(PM10),56,62,74,37,41,88,,83,83,15,15,4,4,0.5,0.4
2026-02-01T1700,2279A,116.8569,32.5949,淮南市,谢家集区政府,,49,49,60,33,37,83,,79,79,12,21,5,5,0.6,0.5
2026-02-01T1700,2280A,116.8279,32.6333,淮南市,八公山区政府,细颗粒物(PM2.5),58,48,52,41,41,89,,88,88,12,11,3,2,0.6,0.5
2026-02-01T1700,2894A,117.0561,32.6536,淮南市,经济技术开发区消防队,,49,49,66,33,44,84,,82,82,13,18,4,4,0.4,0.3
2026-02-01T1700,3329A,117.011,32.5891,淮南市,山南新区,,,,57,40,43,81,,81,81,19,22,6,6,,0.4
2026-02-01T1700,4209A,117.003137,32.644456,淮南市,国庆中路369号,颗粒物(PM10),63,75,64,32,41,77,,74,74,13,19,8,8,0.5,0.4
2026-02-01T1700,2446A,114.9021,30.474,黄冈市,职工中心,,46,39,46,32,38,68,,50,50,20,26,3,4,0.7,0.8
2026-02-01T1700,2929A,114.8858,30.4519,黄冈市,红卫路,,45,35,43,31,36,70,,56,56,19,26,4,5,0.5,0.6
2026-02-01T1700,3398A,114.9134,30.4446,黄冈市,市林业局,细颗粒物(PM2.5),59,,46,42,40,54,,42,42,16,25,4,4,0.5,0.6
2026-02-01T1700,2672A,102.02,35.5101,黄南藏族自治州,同仁县隆务镇,细颗粒物(PM2.5),60,65,74,43,43,84,,72,72,5,4,7,7,0.5,0.6
2026-02-01T1700,2295A,118.2905,29.6965,黄山市,延安路89号,,20,13,17,6,15,62,,52,52,11,10,4,4,0.6,0.6
2026-02-01T1700,2297A,118.1369,30.2755,黄山市,黄山区政府5号楼,,18,18,24,3,13,57,,58,58,10,10,2,2,0.6,0.6
2026-02-01T1700,4210A,118.335445,29.720283,黄山市,滨江东路7-2号,,31,31,30,10,14,63,,56,56,13,14,/,/,/,/
2026-02-01T1700,2423A,115.0547,30.2332,黄石市,沈家营,细颗粒物(PM2.5),53,52,54,37,37,45,,40,40,13,16,7,6,0.9,0.9
2026-02-01T1700,2426A,114.899,30.211,黄石市,铁山,,,36,45,25,37,71,,50,50,10,24,5,5,,0.9
2026-02-01T1700,2427A,115.0259,30.2108,黄石市,团城山,,48,46,51,33,41,47,,40,40,14,19,6,6,0.8,0.8
2026-02-01T1700,3149A,115.0174,30.1591,黄石市,笔架山北路,细颗粒物(PM2.5),57,59,72,40,48,42,,36,36,17,24,7,7,0.8,0.9
2026-02-01T1700,4185A,115.078022,30.21118,黄石市,磁湖东路29号,细颗粒物(PM2.5),65,,52,47,46,47,,43,43,13,13,7,7,1.0,0.9
2026-02-01T1700,1392A,114.4181,23.0528,惠州市,河南岸金山湖子站,,24,22,15,16,9,76,,62,62,15,13,4,3,0.8,0.9
2026-02-01T1700,1393A,114.4055,23.0824,惠州市,下埔横江三路子站,,26,20,15,13,11,82,,66,66,14,12,7,6,0.8,0.8
2026-02-01T1700,1395A,114.4645,22.7832,惠州市,惠阳区承修路船湖子站,,28,24,18,17,12,89,,61,61,15,14,6,6,0.7,0.8
2026-02-01T1700,1396A,114.5316,22.7423,惠州市,大亚湾管委会子站,,28,28,16,17,11,85,,57,57,16,10,6,5,0.7,0.7
2026-02-01T1700,3314A,114.4334,22.8134,惠州市,惠阳秋长,,32,27,17,15,13,100,,71,71,13,12,/,/,/,/
2026-02-01T1700,3452A,114.6521,22.7755,惠州市,大亚湾霞涌,,32,32,19,12,13,91,,64,64,16,14,/,/,/,/
2026-02-01T1700,4300A,114.4089,23.1147,惠州市,文华一路1号,,26,21,15,14,12,82,,65,65,15,15,/,/,/,/
2026-02-01T1700,2240A,130.9618,45.2926,鸡西市,环保局,,26,26,36,18,25,69,,70,70,10,9,6,6,0.3,0.3
2026-02-01T1700,2243A,130.9294,45.2959,鸡西市,第一中学,,23,20,33,14,25,72,,72,72,7,8,3,3,0.4,0.4
2026-02-01T1700,3707A,131.0069,45.2988,鸡西市,欧美日汽修厂,,28,28,38,17,26,66,,67,64,8,10,6,8,0.5,0.6
2026-02-01T1700,2367A,114.9753,27.0803,吉安市,红声器材厂,,28,26,30,19,20,62,,53,53,17,20,8,8,0.3,0.4
2026-02-01T1700,2369A,114.9903,27.1313,吉安市,市环境监测站,,28,28,26,19,22,59,,56,56,12,15,7,9,/,/
2026-02-01T1700,2370A,115.009527,27.096792,吉安市,青原区法院,,33,33,27,22,20,63,,52,52,16,18,8,9,0.6,0.7
2026-02-01T1700,1772A,126.54,43.8622,吉林市,哈达湾,细颗粒物(PM2.5),55,51,56,39,44,81,,83,83,24,23,8,9,0.9,0.9
2026-02-01T1700,1773A,126.5843,43.8358,吉林市,东局子,,49,48,53,34,40,65,,66,66,21,21,7,6,0.9,1
2026-02-01T1700,1774A,126.5051,43.8243,吉林市,电力学院,细颗粒物(PM2.5),58,49,79,41,63,75,,76,76,24,29,9,8,0.8,1.2
2026-02-01T1700,1775A,126.6133,43.8971,吉林市,江北,细颗粒物(PM2.5),53,50,59,37,48,65,,67,67,24,22,10,10,0.9,1.1
2026-02-01T1700,1776A,126.5549,43.8304,吉林市,江南公园,细颗粒物(PM2.5),52,51,52,36,44,68,,72,72,23,20,8,9,0.5,0.6
2026-02-01T1700,2868A,126.4737,43.953,吉林市,九站,细颗粒物(PM2.5),60,55,71,43,64,74,,66,66,26,41,6,7,0.9,1
2026-02-01T1700,1299A,116.9866,36.6118,济南市,科干所,细颗粒物(PM2.5),119,132,150,90,118,82,,76,76,26,21,11,7,0.9,0.9
2026-02-01T1700,1300A,116.9379,36.6652,济南市,农科所,细颗粒物(PM2.5),142,142,153,108,139,71,,65,65,31,31,10,7,1.0,1.1
2026-02-01T1700,1301A,117.1265,36.6736,济南市,开发区,细颗粒物(PM2.5),130,129,143,99,131,83,,84,84,34,31,7,4,1.1,1.2
2026-02-01T1700,1303A,117.0616,36.6865,济南市,省种子仓库,细颗粒物(PM2.5),132,144,160,100,133,81,,80,80,31,37,8,6,0.9,1
2026-02-01T1700,1304A,116.9495185,36.644937,济南市,机床二厂,细颗粒物(PM2.5),134,137,150,102,138,78,,71,71,28,29,10,8,0.6,0.7
2026-02-01T1700,1305A,117.0496,36.6629,济南市,市监测站,细颗粒物(PM2.5),132,134,149,100,134,80,,79,79,28,27,8,5,1.0,1.1
2026-02-01T1700,1306A,116.7674,36.5458,济南市,长清党校,细颗粒物(PM2.5),122,129,161,92,136,75,,63,63,34,39,7,3,1.1,1.1
2026-02-01T1700,1961A,117.5323,36.6865,济南市,东山小学,细颗粒物(PM2.5),128,142,147,97,116,87,,84,84,31,39,7,4,0.8,0.8
2026-02-01T1700,3059A,117.7181,36.205,济南市,泰兴公司,细颗粒物(PM2.5),152,153,160,116,129,79,,74,74,26,39,5,5,1.2,1.3
2026-02-01T1700,3064A,117.6861,36.2172,济南市,莱芜战役纪念馆,细颗粒物(PM2.5),155,156,153,118,126,70,,66,66,30,33,10,8,1.8,1.3
2026-02-01T1700,3494A,117.1673,36.9782,济南市,济阳区政府,细颗粒物(PM2.5),183,166,169,138,148,64,,55,55,33,42,6,5,1.2,1.2
2026-02-01T1700,3495A,117.1168,36.6299,济南市,锦屏中学,细颗粒物(PM2.5),117,120,137,88,123,86,,88,88,28,24,6,3,0.7,0.8
2026-02-01T1700,4108A,117.7107,36.2385,济南市,山财大街5号,细颗粒物(PM2.5),145,161,145,111,120,75,,71,71,43,47,10,8,1.6,1.5
2026-02-01T1700,4109A,116.9744,36.6889,济南市,无影山路12号,细颗粒物(PM2.5),140,141,155,107,136,66,,64,64,26,25,10,7,1.2,1.2
2026-02-01T1700,1653A,116.6229,35.4288,济宁市,火炬城,细颗粒物(PM2.5),130,128,116,99,106,89,,62,62,18,29,3,3,0.8,0.8
2026-02-01T1700,3500A,116.5808,35.3703,济宁市,北湖一中,细颗粒物(PM2.5),128,117,108,97,98,93,,65,65,18,29,5,4,0.9,0.9
2026-02-01T1700,3501A,116.8251,35.5592,济宁市,服务中心,细颗粒物(PM2.5),120,140,163,91,127,82,,54,54,14,34,3,3,0.7,0.8
2026-02-01T1700,3678A,116.5907,35.4054,济宁市,市第七中学,细颗粒物(PM2.5),130,131,107,99,107,98,,70,70,19,28,10,8,0.8,0.8
2026-02-01T1700,4111A,116.6075,35.4566,济宁市,任和路,细颗粒物(PM2.5),128,163,137,97,101,93,,66,66,20,31,6,5,0.8,0.8
2026-02-01T1700,4112A,116.5648,35.3921,济宁市,文体南路1号,细颗粒物(PM2.5),128,153,134,97,102,98,,68,68,18,34,4,3,0.8,0.8
2026-02-01T1700,2255A,130.2749,46.8028,佳木斯市,佳纺,细颗粒物(PM2.5),78,60,45,57,37,43,,64,62,32,17,13,8,0.6,0.5
2026-02-01T1700,2257A,130.3258,46.7975,佳木斯市,环保局,细颗粒物(PM2.5),60,,35,43,32,59,,68,68,20,16,8,9,0.3,0.3
2026-02-01T1700,4285A,130.363,46.806,佳木斯市,顺和街,细颗粒物(PM2.5),55,,35,39,34,54,,60,60,23,18,9,10,0.5,0.5
2026-02-01T1700,4286A,130.3952,46.8268,佳木斯市,长安路196号,细颗粒物(PM2.5),52,,31,36,28,63,,69,69,18,12,6,6,0.6,0.6
2026-02-01T1700,1252A,120.7439,30.778,嘉兴市,清河小学,细颗粒物(PM2.5),77,80,67,56,46,79,,62,62,21,36,6,5,0.4,0.5
2026-02-01T1700,1253A,120.7261,30.7477,嘉兴市,嘉兴学院,细颗粒物(PM2.5),74,80,63,54,43,86,,68,68,19,33,4,5,0.6,0.7
2026-02-01T1700,2872A,120.7845,30.7524,嘉兴市,南湖区残联,细颗粒物(PM2.5),84,78,53,62,49,88,,72,72,20,35,4,4,0.4,0.5
2026-02-01T1700,3407A,120.6915,30.7741,嘉兴市,秀洲住建,细颗粒物(PM2.5),70,80,61,51,40,90,,69,69,20,33,6,6,0.5,0.6
2026-02-01T1700,1945A,98.291,39.7705,嘉峪关市,气象局,颗粒物(PM10),87,124,109,42,39,90,,71,71,7,29,7,10,0.3,0.6
2026-02-01T1700,2884A,98.2672,39.7978,嘉峪关市,酒钢宾馆,颗粒物(PM10),87,124,118,37,38,91,,75,75,6,22,13,15,0.4,0.6
2026-02-01T1700,3248A,98.2644,39.7723,嘉峪关市,雄关区,颗粒物(PM10),79,107,86,38,31,88,,69,69,12,33,15,13,0.3,0.5
2026-02-01T1700,1383A,113.1063,22.6058,江门市,北街,,44,44,28,30,18,103,,70,70,41,31,/,/,/,/
2026-02-01T1700,1384A,113.073,22.5835,江门市,西区,颗粒物(PM10),51,51,34,28,19,108,,74,74,33,27,/,/,/,/
2026-02-01T1700,1385A,113.0218,22.531,江门市,圭峰西,,40,28,28,28,19,107,,75,75,30,24,/,/,/,/
2026-02-01T1700,1386A,113.0826,22.5947,江门市,东湖,,49,49,28,28,18,112,,76,76,33,28,9,8,0.7,0.7
2026-02-01T1700,3311A,113.1077,22.5647,江门市,江海富民,,42,38,32,29,19,101,,70,70,39,30,/,/,0.8,0.8
2026-02-01T1700,3449A,113.0496,22.4669,江门市,新会银湖,,43,33,29,30,20,97,,70,70,23,22,6,7,0.7,0.8
2026-02-01T1700,3335A,113.3137,35.2643,焦作市,马村街道办,,,86,140,43,103,86,,74,74,,30,4,5,0.6,1.2
2026-02-01T1700,3336A,113.2464,35.2374,焦作市,焦作技师学院,颗粒物(PM10),60,70,128,39,90,83,,71,71,13,31,6,8,0.8,1.4
2026-02-01T1700,3477A,113.1656,35.2536,焦作市,中站许衡医院,细颗粒物(PM2.5),55,,109,39,73,88,,78,78,14,22,4,7,0.6,1
2026-02-01T1700,3981A,113.2456,35.18,焦作市,原李万街道办,颗粒物(PM10),70,90,126,45,87,84,,75,75,12,30,4,6,0.4,0.9
2026-02-01T1700,4264A,113.234,35.219,焦作市,新安路1731号,"颗粒物(PM10),细颗粒物(PM2.5)",58,65,140,41,91,89,,77,77,11,27,6,10,0.7,1.2
2026-02-01T1700,4295A,113.2722,35.2121,焦作市,人民路3066号,颗粒物(PM10),62,73,135,35,97,91,,76,76,10,32,4,6,0.7,1.2
2026-02-01T1700,1708A,116.3701,23.5345,揭阳市,新兴,,43,43,24,22,14,48,,34,34,23,18,12,7,0.8,0.8
2026-02-01T1700,1709A,116.3261,23.5442,揭阳市,西马,,50,50,22,24,13,48,,38,38,18,14,10,4,0.8,0.7
2026-02-01T1700,1710A,116.361,23.5627,揭阳市,东兴,,39,39,25,21,15,45,,33,33,19,19,14,8,/,/
2026-02-01T1700,1711A,116.4151,23.5295,揭阳市,渔湖,,40,40,26,26,16,57,,34,34,20,19,6,4,/,/
2026-02-01T1700,3320A,116.4028,23.5699,揭阳市,曲溪,,30,30,26,20,15,51,,32,32,16,18,13,5,0.8,0.7
2026-02-01T1700,1944A,102.1691,38.5166,金昌市,天庆家园,颗粒物(PM10),98,146,147,43,53,84,,74,74,8,14,26,17,0.8,1
2026-02-01T1700,4022A,102.1648,38.5369,金昌市,金川区人防中心,颗粒物(PM10),99,148,144,45,50,87,,76,76,7,11,9,15,0.5,0.7
2026-02-01T1700,4239A,102.193042,38.531887,金昌市,长春路96号,颗粒物(PM10),93,135,128,36,38,82,,73,73,6,10,8,11,0.6,0.7
2026-02-01T1700,1262A,119.6478,29.0773,金华市,十五中,,33,33,36,20,30,64,,57,57,28,37,3,3,0.3,0.4
2026-02-01T1700,1263A,119.6859,29.1032,金华市,监测站,,36,36,37,23,31,46,,44,44,26,40,2,2,0.3,0.3
2026-02-01T1700,3659A,119.656,29.1132,金华市,气象局,,36,36,37,22,28,50,,48,48,25,40,3,3,0.5,0.6
2026-02-01T1700,1767A,121.1114,41.0879,锦州市,南山,颗粒物(PM10),53,55,67,24,61,64,,71,71,28,35,16,16,0.7,1.2
2026-02-01T1700,1768A,121.060361,40.842794,锦州市,开发区,"颗粒物(PM10),细颗粒物(PM2.5)",58,66,99,41,66,25,,42,42,67,58,20,35,0.6,0.9
2026-02-01T1700,1769A,121.1836,41.1118,锦州市,百股街道,细颗粒物(PM2.5),65,59,73,47,65,56,,67,67,35,37,18,15,0.8,1
2026-02-01T1700,1770A,121.1176,41.1224,锦州市,天安街道,,42,42,73,13,61,91,,79,79,10,33,5,13,0.6,1.2
2026-02-01T1700,1771A,121.1303,41.1385,锦州市,北湖公园,,31,31,65,18,50,81,,72,72,10,28,9,17,0.5,0.9
2026-02-01T1700,2160A,112.8496,35.5051,晋城市,自来水公司,,50,50,120,21,63,81,,74,74,10,19,5,5,0.5,1.1
2026-02-01T1700,2162A,112.8509,35.4886,晋城市,市环保局,颗粒物(PM10),51,51,120,15,72,81,,75,75,14,20,4,4,0.3,0.9
2026-02-01T1700,3620A,112.8258,35.4804,晋城市,泽州一中,颗粒物(PM10),51,51,116,21,65,90,,84,84,10,14,4,3,0.1,0.7
2026-02-01T1700,4078A,112.8246,35.5152,晋城市,前书院路,,40,40,122,16,57,82,,75,75,10,18,5,5,0.3,0.9
2026-02-01T1700,4079A,112.8864,35.4773,晋城市,祥云街666号,,48,48,122,29,84,88,,76,76,9,20,5,5,0.2,0.8
2026-02-01T1700,2174A,112.6992,37.6984,晋中市,榆次区政府,,41,41,128,18,80,80,,55,55,12,44,8,16,0.3,1
2026-02-01T1700,2865A,112.7195,37.683,晋中市,榆次三中,颗粒物(PM10),51,51,127,16,73,82,,56,56,11,43,9,18,0.3,1.2
2026-02-01T1700,4080A,112.7375,37.7215,晋中市,广安街188号,颗粒物(PM10),55,60,141,24,77,84,,56,56,12,50,10,13,0.1,1
2026-02-01T1700,4200A,112.7478,37.6954,晋中市,迎宾街26号,颗粒物(PM10),51,51,127,15,82,81,,58,58,16,45,10,18,0.4,1
2026-02-01T1700,2439A,112.2012,31.048,荆门市,竹园小学,细颗粒物(PM2.5),99,101,86,74,63,90,,64,64,25,31,1,1,0.5,0.6
2026-02-01T1700,2440A,112.1968,30.9892,荆门市,掇刀,细颗粒物(PM2.5),105,106,87,79,70,98,,69,69,15,23,5,4,0.7,0.7
2026-02-01T1700,3012A,112.1849,31.0361,荆门市,西山林语,细颗粒物(PM2.5),98,97,78,73,57,92,,66,66,21,22,2,2,0.9,0.9
2026-02-01T1700,3547A,112.1631,31.0134,荆门市,龙泉中学南校,细颗粒物(PM2.5),97,93,85,72,58,92,,70,70,16,17,4,3,0.2,0.4
2026-02-01T1700,4124A,112.2213,31.0654,荆门市,新台西路6号,细颗粒物(PM2.5),105,110,96,79,72,92,,64,64,25,35,10,8,0.9,1.1
2026-02-01T1700,1844A,112.2493,30.3198,荆州市,市图书馆,细颗粒物(PM2.5),82,64,49,60,50,87,,74,74,22,24,6,7,0.8,0.8
2026-02-01T1700,1845A,112.2009,30.3543,荆州市,市委党校,细颗粒物(PM2.5),88,70,57,65,55,74,,62,62,24,30,6,6,0.9,0.9
2026-02-01T1700,3194A,112.2749,30.3124,荆州市,管委会,细颗粒物(PM2.5),88,,53,65,52,86,,73,73,22,27,6,6,0.7,0.7
2026-02-01T1700,4268A,112.1722,30.3366,荆州市,学苑路85号,细颗粒物(PM2.5),92,76,62,68,53,91,,76,76,15,18,9,8,0.7,0.7
2026-02-01T1700,2343A,117.2114,29.2931,景德镇市,老干部活动中心,,26,22,15,18,8,32,,22,22,13,9,6,4,0.5,0.5
2026-02-01T1700,2344A,117.1893,29.2789,景德镇市,兽医站,,30,30,22,8,8,36,,24,24,17,15,4,9,0.6,0.4
2026-02-01T1700,2346A,117.246,29.2958,景德镇市,陶研所,,28,,13,19,9,29,,24,24,23,12,4,3,0.7,0.6
2026-02-01T1700,4289A,117.154766,29.256967,景德镇市,青少年活动中心,,25,22,13,17,11,42,,29,29,13,13,5,5,/,/
2026-02-01T1700,1803A,115.9873,29.6816,九江市,十里,细颗粒物(PM2.5),52,44,34,36,29,69,,68,68,25,22,4,4,0.9,0.7
2026-02-01T1700,1804A,115.9583,29.7047,九江市,茅山头,,49,49,36,33,27,56,,57,57,21,17,3,4,0.7,0.5
2026-02-01T1700,1805A,115.9877,29.7295,九江市,西园,,45,35,36,31,33,60,,61,61,28,22,3,3,0.7,0.5
2026-02-01T1700,1808A,115.9112,29.6038,九江市,综合工业园,颗粒物(PM10),61,71,36,36,30,48,,52,52,36,27,2,2,0.6,1.4
2026-02-01T1700,3190A,116.0254,29.6995,九江市,外国语学校,,42,38,31,29,28,48,,50,50,27,23,5,5,0.6,0.5
2026-02-01T1700,4253A,116.010205,29.659402,九江市,莲花大道8号,,43,43,39,28,28,51,,51,51,24,13,2,3,0.6,0.5
2026-02-01T1700,4240A,98.495752,39.733935,酒泉市,玉门东路5号,,,,116,,53,84,,64,64,,20,13,11,0.4,0.6
2026-02-01T1700,4241A,98.5099,39.7506,酒泉市,北大街108号,颗粒物(PM10),86,122,128,48,61,77,,59,59,6,23,13,11,0.5,0.8
2026-02-01T1700,2698A,76.0071,39.466,喀什地区,巡警大队,颗粒物(PM10),117,184,249,72,95,81,,41,41,14,39,9,8,0.6,1.6
2026-02-01T1700,2699A,75.9756,39.4693,喀什地区,吾办,颗粒物(PM10),124,198,240,83,95,86,,47,47,15,44,9,13,0.5,1.6
2026-02-01T1700,4027A,75.9485,39.4688,喀什地区,老干局,颗粒物(PM10),115,179,276,47,91,88,,50,50,6,37,5,5,0.3,1.9
2026-02-01T1700,1824A,114.3389,34.778,开封市,肿瘤医院,颗粒物(PM10),94,137,111,58,90,100,,68,68,23,33,11,9,0.9,1.1
2026-02-01T1700,1826A,114.2884,34.7966,开封市,世纪星幼儿园,细颗粒物(PM2.5),89,123,103,66,94,90,,62,62,24,35,7,5,0.7,1
2026-02-01T1700,3147A,114.3434,34.8101,开封市,龙亭公园,颗粒物(PM10),92,134,110,53,91,98,,68,68,23,33,9,7,0.8,1.1
2026-02-01T1700,3210A,114.3645,34.7955,开封市,汴京公园,颗粒物(PM10),94,137,108,58,83,97,,65,65,20,32,6,4,0.6,0.9
2026-02-01T1700,3473A,114.2485,34.8306,开封市,技师学院,颗粒物(PM10),81,111,104,54,94,93,,66,66,21,32,8,7,0.8,1.1
2026-02-01T1700,3592A,114.4518,34.7503,开封市,祥符区生态环境局,细颗粒物(PM2.5),79,105,119,58,80,98,,66,66,18,35,6,5,1.0,1.1
2026-02-01T1700,1951A,84.886,45.6029,克拉玛依市,长征新村,细颗粒物(PM2.5),119,122,102,90,67,55,,42,42,40,38,6,5,1.0,1
2026-02-01T1700,1952A,84.8894,45.5827,克拉玛依市,南林小区,细颗粒物(PM2.5),122,126,112,92,76,50,,34,34,21,26,3,3,1.1,1.1
2026-02-01T1700,1954A,84.896,44.3328,克拉玛依市,独山子区,颗粒物(PM10),109,167,130,78,86,83,,73,73,28,30,3,3,1.1,0.9
2026-02-01T1700,1955A,85.6888,46.0909,克拉玛依市,乌尔禾区商贸楼,细颗粒物(PM2.5),105,88,96,79,73,66,,43,43,21,32,7,7,1.0,1.2
2026-02-01T1700,3612A,85.1045,45.6895,克拉玛依市,白碱滩区新站,细颗粒物(PM2.5),123,121,114,93,86,54,,32,28,36,33,9,8,1.1,1
2026-02-01T1700,2697A,76.1457,39.7143,克孜勒苏柯尔克孜自治州,市人民政府,颗粒物(PM10),135,219,248,76,77,104,,74,74,6,16,6,4,0.3,0.4
2026-02-01T1700,3665A,76.1654,39.7157,克孜勒苏柯尔克孜自治州,克州文化中心,颗粒物(PM10),374,479,242,74,69,98,,64,64,6,15,5,4,0.5,0.7
2026-02-01T1700,1450A,102.8203,24.889,昆明市,呈贡新区,,27,27,39,16,23,84,,72,72,8,21,3,4,0.2,0.3
2026-02-01T1700,1452A,102.7253,25.0904,昆明市,龙泉镇,,27,18,42,11,25,84,,74,74,10,31,4,3,0.3,0.4
2026-02-01T1700,1453A,102.7267,25.0378,昆明市,东风东路,,27,20,40,3,24,86,,80,80,10,23,5,6,0.1,0.3
2026-02-01T1700,1454A,102.6744,25.0671,昆明市,金鼎山,,27,27,59,3,23,85,,,,8,23,4,4,0.5,0.6
2026-02-01T1700,1455A,102.6643,25.0401,昆明市,碧鸡广场,,28,17,40,6,25,87,,77,77,8,32,4,4,0.3,0.4
2026-02-01T1700,3179A,102.7491,25.012,昆明市,官渡区博物馆,,32,32,46,9,27,91,,84,84,7,26,2,4,0.4,0.9
2026-02-01T1700,3375A,102.8016,24.8336,昆明市,青年创业园,,29,13,33,8,21,90,,84,84,2,25,5,7,0.3,0.5
2026-02-01T1700,3550A,102.8,24.9787,昆明市,昆明学院,,30,15,36,3,24,95,,87,87,6,21,2,4,0.4,0.8
2026-02-01T1700,3551A,102.5969,24.6738,昆明市,晋宁区生态环境分局,,29,12,37,8,25,91,,87,87,1,17,2,2,0.2,0.4
2026-02-01T1700,3552A,102.6673,24.9861,昆明市,云天化总部,,28,15,39,3,19,88,,84,84,8,26,6,6,0.2,0.5
2026-02-01T1700,1456A,91.132,29.6515,拉萨市,八廓街,,30,11,24,6,16,94,,81,81,4,22,7,8,0.3,0.7
2026-02-01T1700,1457A,91.1221,29.6748,拉萨市,市环保局,,27,9,36,3,20,85,,68,68,8,29,8,9,0.5,1.1
2026-02-01T1700,1458A,91.0874,29.6476,拉萨市,区监测站,,29,7,18,3,10,91,,75,75,6,27,4,5,0.8,1.1
2026-02-01T1700,1459A,91.1774,29.6541,拉萨市,西藏大学,,28,6,17,3,10,89,,73,73,7,17,4,5,0.5,0.7
2026-02-01T1700,1460A,90.9798,29.6586,拉萨市,区辐射站,,30,6,32,3,22,93,,76,76,4,31,3,4,0.4,0.8
2026-02-01T1700,1461A,91.0831,29.6292,拉萨市,拉萨火车站,,28,6,14,6,10,89,,73,73,5,23,4,4,0.3,0.6
2026-02-01T1700,2520A,109.2203,23.7252,来宾市,来宾技工学校,,47,47,30,24,19,72,,61,61,11,12,11,13,0.8,0.8
2026-02-01T1700,3535A,109.1781,23.7293,来宾市,兴宾区政府,,37,37,29,23,20,76,,65,65,6,7,6,7,0.8,0.8
2026-02-01T1700,4002A,109.2312,23.7428,来宾市,中南小学,,46,46,31,28,22,73,,63,63,13,13,6,7,0.9,1
2026-02-01T1700,1479A,103.8309,36.0467,兰州市,铁路设计院,,,,,,,,,,,,,,,,
2026-02-01T1700,3241A,103.7439,36.0841,兰州市,百合公园,细颗粒物(PM2.5),77,92,140,56,73,80,,50,50,22,47,13,10,0.6,1.2
2026-02-01T1700,3242A,103.9613,35.9985,兰州市,和平,颗粒物(PM10),80,110,138,50,59,93,,64,64,15,30,11,12,0.8,1.2
2026-02-01T1700,4236A,103.629272,36.093822,兰州市,庄浪东路808号,颗粒物(PM10),76,101,148,52,69,88,,66,66,30,49,15,14,0.8,1
2026-02-01T1700,4237A,103.7251,36.104344,兰州市,安宁西路88号,颗粒物(PM10),110,170,163,68,69,81,,58,58,36,42,12,12,0.7,0.8
2026-02-01T1700,4238A,103.846982,36.067567,兰州市,北滨河东路1号,细颗粒物(PM2.5),70,80,148,51,68,97,,53,53,27,55,10,10,0.7,1.3
2026-02-01T1700,1067A,116.6712,39.5109,廊坊市,药材公司,细颗粒物(PM2.5),60,60,126,43,99,61,,55,55,28,38,1,2,0.5,0.8
2026-02-01T1700,1068A,116.7215,39.5592,廊坊市,开发区,颗粒物(PM10),70,89,113,16,83,75,,61,61,14,39,1,2,0.3,0.7
2026-02-01T1700,1070A,116.7246,39.5273,廊坊市,北华航天学院,颗粒物(PM10),52,54,120,30,88,68,,60,60,24,37,3,2,0.4,0.8
2026-02-01T1700,2919A,116.7022,39.5454,廊坊市,河北工业大学,颗粒物(PM10),57,63,124,31,87,72,,61,61,16,32,3,2,0.4,0.7
2026-02-01T1700,2536A,103.7629,29.5844,乐山市,牛耳桥,细颗粒物(PM2.5),73,85,94,53,63,95,,63,63,18,25,5,5,0.8,0.9
2026-02-01T1700,2537A,103.7501,29.6002,乐山市,市第三水厂,颗粒物(PM10),70,89,100,50,66,100,,65,65,18,27,6,6,1.0,1.1
2026-02-01T1700,2538A,103.7571,29.5664,乐山市,市监测站,细颗粒物(PM2.5),74,95,92,54,60,87,,59,59,16,21,7,7,0.7,0.8
2026-02-01T1700,3361A,103.7313,29.563,乐山市,理工大学,细颗粒物(PM2.5),74,96,91,54,58,85,,62,62,17,18,3,2,0.8,0.9
2026-02-01T1700,2599A,100.2497,26.8802,丽江市,丽江古城,,26,22,27,16,18,83,,78,78,8,10,9,10,0.5,0.5
2026-02-01T1700,2600A,100.2203,26.8906,丽江市,市中心,,26,21,19,7,13,82,,77,77,8,11,6,6,0.4,0.4
2026-02-01T1700,1267A,119.9141,28.4513,丽水市,监测站大楼,,39,34,13,27,18,50,,47,47,20,21,4,4,0.5,0.5
2026-02-01T1700,1268A,119.93,28.4589,丽水市,莲都小学,,35,32,20,24,16,55,,51,51,22,24,/,/,/,/
2026-02-01T1700,1269A,119.8794,28.4232,丽水市,余庄前,,30,29,20,21,15,49,,43,43,18,20,4,4,0.3,0.3
2026-02-01T1700,1173A,119.1759,34.5885,连云港市,市环境监测站,细颗粒物(PM2.5),107,97,117,80,98,72,,60,60,15,36,9,11,0.6,0.7
2026-02-01T1700,3000A,119.3577,34.6971,连云港市,德源药业,细颗粒物(PM2.5),107,97,135,80,99,70,,63,63,19,42,5,6,1.0,1.1
2026-02-01T1700,3007A,119.178,34.8442,连云港市,新城一中,细颗粒物(PM2.5),129,124,142,98,121,72,,64,64,26,49,8,10,1.1,1.2
2026-02-01T1700,3008A,119.3607,34.7519,连云港市,胡沟管理处,细颗粒物(PM2.5),107,102,125,80,98,67,,60,60,17,35,6,8,0.9,1
2026-02-01T1700,3009A,119.1478,34.5913,连云港市,矿山设计院,细颗粒物(PM2.5),98,100,123,73,91,77,,64,64,16,36,8,11,0.9,0.9
2026-02-01T1700,3434A,119.2414,34.6539,连云港市,工贸学校,细颗粒物(PM2.5),117,103,138,88,100,77,,65,65,19,27,10,11,0.7,0.7
2026-02-01T1700,3664A,119.4171,34.734,连云港市,连云街道,细颗粒物(PM2.5),110,105,120,83,92,72,,71,71,24,27,9,7,0.9,0.9
2026-02-01T1700,2573A,102.2629,27.8981,凉山彝族自治州,西昌市政府,,33,33,31,17,25,99,,76,76,7,13,8,8,0.5,0.6
2026-02-01T1700,2574A,102.2686,27.885,凉山彝族自治州,凉山州政府,,30,30,39,17,25,92,,69,69,9,18,8,8,0.6,0.8
2026-02-01T1700,4229A,102.2342,27.8859,凉山彝族自治州,凯乐南路30号,,33,33,44,16,23,88,,66,66,12,21,11,9,0.7,0.8
2026-02-01T1700,2212A,123.1978,41.2036,辽阳市,宏伟区,细颗粒物(PM2.5),69,65,80,50,60,54,,61,61,24,28,16,15,0.8,1.3
2026-02-01T1700,2213A,123.1684,41.2497,辽阳市,新华园,细颗粒物(PM2.5),57,56,96,40,76,64,,65,65,28,52,11,17,0.5,1.5
2026-02-01T1700,2214A,123.2355,41.2663,辽阳市,滨河路,细颗粒物(PM2.5),60,52,83,43,60,61,,60,60,27,44,9,24,0.7,1.3
2026-02-01T1700,4083A,123.153,41.2874,辽阳市,铁西路150号,细颗粒物(PM2.5),67,69,95,48,72,56,,62,62,30,48,12,25,0.7,1.8
2026-02-01T1700,2227A,125.1359,42.8845,辽源市,环保局,,31,31,82,16,63,72,,67,67,15,47,7,6,0.6,1.3
2026-02-01T1700,4085A,125.0998,42.9134,辽源市,安宁大街333号,,27,27,84,15,65,72,,69,69,10,35,9,7,0.4,1.1
2026-02-01T1700,1625A,115.9789,36.4372,聊城市,区政府,细颗粒物(PM2.5),149,146,157,114,136,57,,36,36,34,34,12,10,1.2,1.2
2026-02-01T1700,3200A,115.9772,36.4986,聊城市,监控中心,细颗粒物(PM2.5),168,155,156,127,137,55,,39,39,41,39,9,8,1.3,1.3
2026-02-01T1700,3513A,116.0443,36.436,聊城市,九州社区,细颗粒物(PM2.5),150,146,156,115,138,76,,50,50,23,24,4,2,1.1,1.1
2026-02-01T1700,4018A,116.0564,36.4609,聊城市,星美广场,细颗粒物(PM2.5),160,158,163,122,145,64,,51,51,23,23,5,3,1.2,1.3
2026-02-01T1700,4113A,116.0091,36.4495,聊城市,利民路,细颗粒物(PM2.5),144,156,168,110,134,,,30,30,34,33,10,8,1.2,1.2
2026-02-01T1700,2632A,94.3683,29.6373,林芝市,林芝监测站,,27,11,18,9,10,86,,78,74,3,3,5,5,0.4,0.4
2026-02-01T1700,2633A,94.3616,29.6634,林芝市,林芝人民医院,,26,18,20,8,11,81,,73,71,6,4,6,4,0.3,0.3
2026-02-01T1700,2603A,100.0779,23.8981,临沧市,市环保局,,29,27,34,6,19,90,,72,72,3,13,8,8,0.2,0.5
2026-02-01T1700,2604A,100.0894,23.882,临沧市,市气象局,,28,28,50,11,25,85,,64,64,3,12,9,8,0.3,0.5
2026-02-01T1700,1733A,111.5552,36.0791,临汾市,临钢医院,颗粒物(PM10),91,132,193,53,128,72,,44,44,25,37,8,6,1.2,1.8
2026-02-01T1700,1734A,111.4984,36.0734,临汾市,技工学校,颗粒物(PM10),55,60,171,20,139,74,,47,47,25,38,4,7,1.1,2.2
2026-02-01T1700,1736A,111.5017,36.0857,临汾市,市委,颗粒物(PM10),60,70,192,23,130,74,,47,47,15,36,7,8,0.6,1.6
2026-02-01T1700,3018A,111.5048,36.1015,临汾市,唐尧大酒店,颗粒物(PM10),67,84,172,39,119,76,,45,45,18,35,4,4,1.1,2.1
2026-02-01T1700,4244A,111.4879,36.053,临汾市,启星学校,细颗粒物(PM2.5),79,88,167,58,115,76,,48,48,28,47,10,6,0.7,1.6
2026-02-01T1700,4271A,103.2464,35.6123,临夏回族自治州,滨河东路1号,颗粒物(PM10),91,132,195,63,101,87,,62,62,13,29,6,6,0.7,1.4
2026-02-01T1700,4310A,103.207136,35.599807,临夏回族自治州,新华街21号,颗粒物(PM10),85,120,191,54,103,81,,61,61,12,27,6,6,0.4,1.3
2026-02-01T1700,1618A,118.3429,35.0532,临沂市,沂河小区,细颗粒物(PM2.5),125,129,152,95,113,74,,62,62,19,44,12,13,0.9,1.1
2026-02-01T1700,1619A,118.2962,35.0568,临沂市,鲁南制药厂,细颗粒物(PM2.5),137,124,167,104,135,72,,59,59,26,56,12,16,0.7,1
2026-02-01T1700,1620A,118.2793,34.9976,临沂市,新光毛纺厂,细颗粒物(PM2.5),138,117,149,105,119,75,,65,65,25,53,10,14,0.8,1
2026-02-01T1700,1621A,118.3955,35.0889,临沂市,河东保险公司,细颗粒物(PM2.5),128,119,149,97,132,85,,70,70,23,50,11,11,0.8,1
2026-02-01T1700,3370A,118.3563,35.0215,临沂市,十里堡居委,细颗粒物(PM2.5),129,122,144,98,114,74,,68,68,29,48,14,13,0.8,1
2026-02-01T1700,3496A,118.359,35.1067,临沂市,南坊新区,细颗粒物(PM2.5),122,107,144,92,117,82,,67,67,26,52,9,10,1.0,1.1
2026-02-01T1700,3860A,118.3915,35.0297,临沂市,皇山花园小区,细颗粒物(PM2.5),137,112,144,104,127,80,,70,70,25,51,12,13,0.9,1
2026-02-01T1700,1870A,109.4854,24.3898,柳州市,柳东小学,,38,38,25,25,18,61,,58,58,8,7,8,8,0.8,0.7
2026-02-01T1700,1871A,109.4109,24.3304,柳州市,环保监测站,,42,42,24,28,17,55,,55,55,20,13,7,4,1.0,0.8
2026-02-01T1700,1872A,109.3886,24.3408,柳州市,河西水厂,,43,39,25,30,17,61,,59,59,13,10,8,6,0.5,0.9
2026-02-01T1700,1873A,109.4263,24.2951,柳州市,市四中,,47,47,24,27,18,57,,55,55,16,11,8,6,1.0,0.8
2026-02-01T1700,1874A,109.396,24.3658,柳州市,市九中,,47,47,27,28,19,51,,52,52,20,12,13,8,1.6,0.9
2026-02-01T1700,1875A,109.4912,24.3164,柳州市,古亭山,,43,43,25,27,22,62,,63,60,10,9,6,6,0.4,0.5
2026-02-01T1700,3402A,109.5422,24.3994,柳州市,市二中,,39,32,22,27,19,62,,64,61,12,11,9,9,0.8,0.7
2026-02-01T1700,2307A,116.5078,31.7369,六安市,监测大楼,,35,30,36,24,24,89,,74,74,14,17,3,2,0.4,0.3
2026-02-01T1700,2308A,116.4738,31.7642,六安市,皖西学院,,41,41,46,25,28,96,,78,78,12,16,4,4,0.4,0.3
2026-02-01T1700,2309A,116.4997,31.7904,六安市,朝阳厂,,48,48,41,32,30,90,,76,76,10,14,4,4,0.4,0.4
2026-02-01T1700,2310A,116.5566,31.7885,六安市,开发区,细颗粒物(PM2.5),54,46,37,38,38,89,,77,77,27,21,4,4,0.6,0.5
2026-02-01T1700,2577A,104.8293,26.592,六盘水市,黄土坡,,13,9,22,9,16,26,,43,30,22,17,8,8,1.0,1
2026-02-01T1700,2579A,104.8481,26.5898,六盘水市,民中,,15,15,26,6,17,28,,40,30,18,16,4,4,1.0,0.9
2026-02-01T1700,2580A,104.9541,26.5506,六盘水市,双水,,12,7,19,3,12,36,,46,36,13,12,3,5,0.9,0.9
2026-02-01T1700,4151A,104.8899,26.5685,六盘水市,钟山大道中段564号,,22,22,26,12,16,29,,39,30,15,12,9,7,1.2,1.1
2026-02-01T1700,2336A,117.022,25.1031,龙岩市,龙岩市监测站,,28,,18,19,14,50,,53,53,15,14,10,9,0.7,0.7
2026-02-01T1700,2337A,117.0257,25.0662,龙岩市,闽西职业技术学院,,23,23,18,15,12,61,,58,58,12,11,4,7,0.7,0.7
2026-02-01T1700,2338A,117.0195,25.0306,龙岩市,龙岩学院,,26,25,19,18,13,71,,56,56,13,11,5,7,/,/
2026-02-01T1700,2885A,104.9344,33.3827,陇南市,滨江中学,细颗粒物(PM2.5),82,111,114,60,57,67,,48,48,21,22,5,6,1.1,1.1
2026-02-01T1700,3247A,104.9551,33.3709,陇南市,市总工会,颗粒物(PM10),78,105,109,54,53,67,,46,46,13,20,2,3,0.9,1
2026-02-01T1700,2488A,111.9984,27.7346,娄底市,市监测站,颗粒物(PM10),51,51,52,32,47,81,,72,72,8,17,6,8,0.7,1
2026-02-01T1700,2491A,111.9888,27.7035,娄底市,市政府,,34,34,49,22,37,71,,59,59,17,22,3,3,0.3,0.4
2026-02-01T1700,4127A,111.9812,27.7591,娄底市,涟钢职大,,46,39,51,32,38,84,,72,72,12,15,4,4,0.4,0.9
2026-02-01T1700,4128A,112.0303,27.7457,娄底市,娄底体校,,39,39,47,27,43,76,,63,63,6,13,2,2,0.3,0.4
2026-02-01T1700,1894A,105.4427,28.9063,泸州市,小市上码头,细颗粒物(PM2.5),55,58,51,39,35,80,,64,64,9,10,5,5,1.0,1
2026-02-01T1700,1895A,105.4241,28.8573,泸州市,兰田宪桥,颗粒物(PM10),53,56,52,33,31,74,,59,59,12,16,7,7,0.8,0.8
2026-02-01T1700,1896A,105.4378,28.8833,泸州市,市环监站,细颗粒物(PM2.5),67,67,58,48,42,76,,61,61,15,18,9,9,0.7,0.7
2026-02-01T1700,4272A,105.3689,28.7783,泸州市,纳溪中医医院,,,88,66,49,43,,,37,37,21,16,8,8,0.9,0.9
2026-02-01T1700,2183A,111.1447,37.5212,吕梁市,环保局,,31,31,113,15,61,71,,38,38,15,45,4,4,0.3,0.6
2026-02-01T1700,2185A,111.1285,37.5338,吕梁市,自来水公司,颗粒物(PM10),57,63,125,30,67,64,,34,34,13,37,3,5,0.4,0.8
2026-02-01T1700,2867A,111.1225,37.5093,吕梁市,马茂庄小学,,41,41,125,15,58,73,,37,37,15,44,4,6,0.3,0.7
2026-02-01T1700,1812A,112.3934,34.6517,洛阳市,市委党校,细颗粒物(PM2.5),77,81,119,56,91,84,,67,67,19,25,9,8,0.8,1.1
2026-02-01T1700,1815A,112.494,34.6883,洛阳市,河南林校,细颗粒物(PM2.5),92,96,126,68,97,80,,67,67,23,34,10,10,0.8,1.1
2026-02-01T1700,1816A,112.3843,34.623,洛阳市,开发区管委会,细颗粒物(PM2.5),98,100,138,73,101,87,,68,68,15,23,8,8,0.7,1
2026-02-01T1700,1817A,112.4263,34.6249,洛阳市,市委新办公区,细颗粒物(PM2.5),85,92,136,63,105,90,,70,70,21,28,9,8,0.5,0.8
2026-02-01T1700,3340A,112.6005,34.6323,洛阳市,伊滨,颗粒物(PM10),73,95,140,52,92,84,,70,70,25,31,9,8,0.6,0.9
2026-02-01T1700,3341A,112.495,34.6338,洛阳市,中移产业园,细颗粒物(PM2.5),83,104,123,61,98,79,,62,62,20,28,9,8,0.7,1.1
2026-02-01T1700,3593A,112.5736,34.8993,洛阳市,吉利监测站,,45,45,111,26,85,88,,74,74,18,33,8,8,0.5,1
2026-02-01T1700,3635A,112.3678,34.6623,洛阳市,河科大西苑校区,细颗粒物(PM2.5),74,85,127,54,86,85,,69,69,23,28,8,8,0.7,1
2026-02-01T1700,3636A,112.4387,34.678,洛阳市,英才小学,细颗粒物(PM2.5),89,105,141,66,103,86,,71,71,25,33,9,9,0.8,1.1
2026-02-01T1700,4214A,112.460027,34.694929,洛阳市,春都路1号院,细颗粒物(PM2.5),90,110,150,67,102,73,,59,59,16,29,8,9,0.7,1
2026-02-01T1700,2399A,114.051,33.5721,漯河市,三五一五工厂,颗粒物(PM10),97,144,111,63,75,98,,80,80,16,26,6,5,0.6,0.9
2026-02-01T1700,2400A,114.0055,33.5698,漯河市,漯河大学,细颗粒物(PM2.5),85,115,92,63,72,98,,81,81,13,22,6,6,0.7,0.8
2026-02-01T1700,2401A,114.0134,33.5826,漯河市,市水利局,颗粒物(PM10),85,119,97,53,68,87,,71,71,16,22,6,5,0.5,0.8
2026-02-01T1700,2402A,114.0261,33.5697,漯河市,市广电局,,,125,97,,76,93,,76,76,8,18,7,7,0.4,0.6
2026-02-01T1700,3478A,113.9691,33.568,漯河市,市图书馆,颗粒物(PM10),99,148,111,65,70,88,,74,74,36,27,9,7,0.4,0.6
2026-02-01T1700,4250A,114.089259,33.588274,漯河市,韶山路11号,,,144,105,50,68,98,,78,78,,24,7,6,0.3,0.6
2026-02-01T1700,1798A,118.5084,31.6838,马鞍山市,湖东路四小,细颗粒物(PM2.5),82,76,68,60,47,68,,61,61,25,35,3,4,1.1,0.8
2026-02-01T1700,1799A,118.5019,31.6449,马鞍山市,开发区,细颗粒物(PM2.5),75,80,64,55,43,67,,58,58,27,39,4,4,0.9,0.6
2026-02-01T1700,3633A,118.4914,31.681,马鞍山市,雨山,细颗粒物(PM2.5),77,73,67,56,44,71,,66,66,24,35,4,4,0.9,0.6
2026-02-01T1700,4191A,118.527362,31.722269,马鞍山市,慈湖高新区,细颗粒物(PM2.5),78,89,81,57,51,68,,55,55,27,49,5,6,1.0,0.9
2026-02-01T1700,1686A,111.0285,21.469,茂名市,电白南海,,46,46,53,25,27,116,,95,95,14,18,10,12,1.0,1.1
2026-02-01T1700,1687A,110.9294,21.6533,茂名市,茂石化七小,颗粒物(PM10),53,56,49,27,26,133,,109,109,19,19,12,9,0.7,0.7
2026-02-01T1700,1688A,110.9108,21.6688,茂名市,健康路,,46,46,44,25,25,139,,115,115,14,16,15,12,0.9,1
2026-02-01T1700,1689A,110.8592,21.6826,茂名市,高岭,颗粒物(PM10),52,53,57,25,28,124,,100,100,9,15,12,19,/,/
2026-02-01T1700,3450A,111.0101,21.5165,茂名市,电白水东,,41,41,45,22,26,123,,100,100,23,22,9,11,/,/
2026-02-01T1700,2540A,103.8414,30.0871,眉山市,气象局,颗粒物(PM10),86,121,104,52,58,108,,72,72,15,29,9,10,0.7,0.8
2026-02-01T1700,3148A,103.829,30.0563,眉山市,区人社局,"颗粒物(PM10),细颗粒物(PM2.5)",74,97,98,54,59,97,,68,68,15,28,8,8,0.7,0.8
2026-02-01T1700,4148A,103.8836,30.0695,眉山市,眉职院,颗粒物(PM10),81,112,107,59,59,104,,74,74,13,24,4,5,0.7,0.8
2026-02-01T1700,1690A,116.1248,24.3307,梅州市,梅江月梅,,20,14,13,13,8,61,,50,50,16,15,/,/,/,/
2026-02-01T1700,1691A,116.0798,24.2719,梅州市,梅县新城,,27,27,13,11,10,62,,52,52,15,14,7,7,0.6,0.6
2026-02-01T1700,3315A,116.1234,24.2994,梅州市,梅龙,,24,24,14,15,9,57,,48,48,15,12,8,8,0.6,0.6
2026-02-01T1700,1878A,104.7775,31.4741,绵阳市,富乐山,,,,105,42,66,86,,53,53,10,31,8,8,0.7,0.9
2026-02-01T1700,1880A,104.6698,31.4668,绵阳市,高新区自来水公司,颗粒物(PM10),74,98,124,49,76,88,,54,54,17,35,8,9,0.8,1.1
2026-02-01T1700,3491A,104.6899,31.5324,绵阳市,西科大附属小学,细颗粒物(PM2.5),87,102,127,64,78,90,,55,55,19,34,9,9,0.3,0.9
2026-02-01T1700,3492A,104.5647,31.5343,绵阳市,安州区旅游局,颗粒物(PM10),70,90,110,42,63,78,,48,48,15,26,11,12,0.9,1.2
2026-02-01T1700,4146A,104.7092,31.4972,绵阳市,科技城新区公安局,颗粒物(PM10),75,100,120,42,66,93,,59,59,18,39,6,7,0.8,0.9
2026-02-01T1700,4226A,104.765114,31.453094,绵阳市,绵阳市气象局,颗粒物(PM10),73,96,112,47,72,82,,53,53,14,33,7,8,0.6,0.9
2026-02-01T1700,1784A,129.61,44.561,牡丹江市,环保大楼,,32,32,39,14,26,68,,70,70,17,19,2,5,0.3,0.4
2026-02-01T1700,1787A,129.6364,44.6075,牡丹江市,机车工厂,,38,38,47,18,30,77,,70,70,10,20,6,7,0.3,0.5
2026-02-01T1700,1788A,129.6386,44.5462,牡丹江市,第一中学,,23,20,31,15,24,73,,72,72,13,19,4,6,0.3,0.4
2026-02-01T1700,4287A,129.5992,44.5964,牡丹江市,东晓云街98号,,35,35,48,7,27,80,,71,71,9,22,4,6,0.2,0.3
2026-02-01T1700,2531A,105.0703,29.61,内江市,市监测站,,49,45,67,34,48,104,,67,67,16,25,4,4,0.7,0.9
2026-02-01T1700,2533A,105.0657,29.5807,内江市,内江二中,颗粒物(PM10),67,84,73,35,48,93,,60,60,17,25,7,7,0.5,0.6
2026-02-01T1700,2534A,105.0407,29.5828,内江市,内江日报社,颗粒物(PM10),58,65,60,34,45,102,,62,62,19,30,4,4,0.7,0.9
2026-02-01T1700,4147A,105.0433,29.6105,内江市,玉峰路西段888号,颗粒物(PM10),53,55,65,31,46,95,,59,59,17,28,3,3,0.7,0.8
2026-02-01T1700,2628A,92.0653,31.4846,那曲市,那曲监测站,,,15,33,3,28,77,,67,67,4,24,5,8,,1.3
2026-02-01T1700,4243A,92.0515,31.4787,那曲市,那曲市委宣传部,,28,8,16,3,15,87,,69,69,1,11,5,6,0.4,0.7
2026-02-01T1700,1291A,115.8887,28.7006,南昌市,省林业公司,,22,17,29,13,29,69,,58,58,9,15,3,4,0.2,0.4
2026-02-01T1700,1292A,115.813,28.7443,南昌市,林科所,,21,19,29,11,22,66,,62,62,11,17,2,3,0.3,0.3
2026-02-01T1700,1294A,115.8518,28.687,南昌市,建工学校,,37,37,38,12,23,67,,57,57,8,20,7,7,0.7,0.7
2026-02-01T1700,1295A,115.8926,28.6425,南昌市,象湖,,23,20,33,12,31,72,,57,57,11,17,8,8,0.6,0.7
2026-02-01T1700,3046A,115.9084,28.6062,南昌市,机电学校,,28,28,42,14,30,68,,57,57,24,21,5,4,0.4,0.5
2026-02-01T1700,3690A,115.9718,28.7032,南昌市,外国语学校,,24,23,39,15,31,74,,60,60,14,20,11,12,0.6,0.7
2026-02-01T1700,4106A,115.7923,28.6873,南昌市,工业二路,,27,27,39,12,26,73,,68,68,12,16,3,3,0.5,0.5
2026-02-01T1700,4192A,115.931587,28.686774,南昌市,南京东路235号,,28,28,33,11,23,75,,61,61,18,19,6,6,0.1,0.2
2026-02-01T1700,1906A,106.0791,30.8022,南充市,南充市委,细颗粒物(PM2.5),55,57,55,39,39,44,,22,22,22,34,5,5,0.7,0.8
2026-02-01T1700,1907A,106.1038,30.8215,南充市,南充炼油厂,,48,48,60,31,36,51,,23,23,11,27,8,6,0.8,0.8
2026-02-01T1700,4227A,106.108336,30.788436,南充市,梨树横街98号,"颗粒物(PM10),细颗粒物(PM2.5)",53,56,61,37,43,54,,28,28,18,32,7,6,0.6,0.7
2026-02-01T1700,4304A,106.1172,30.843,南充市,清泉寺北路188号,,46,46,44,28,35,63,,35,35,9,19,14,8,0.7,0.6
2026-02-01T1700,4305A,106.067,30.7616,南充市,同庆路1号,细颗粒物(PM2.5),52,46,48,36,37,49,,32,32,21,29,8,7,0.8,0.8
2026-02-01T1700,1151A,118.8033,32.1085,南京市,迈皋桥,,,,43,,29,80,,70,70,25,35,,6,1.0,0.5
2026-02-01T1700,1152A,118.7487,32.057,南京市,草场门,细颗粒物(PM2.5),62,66,49,44,30,70,,65,65,22,43,5,5,0.8,0.8
2026-02-01T1700,1154A,118.770105,32.004342,南京市,中华门,细颗粒物(PM2.5),69,78,55,50,36,83,,70,70,19,35,4,4,1.0,0.6
2026-02-01T1700,1155A,118.8059,32.0329,南京市,瑞金路,颗粒物(PM10),69,88,50,48,33,88,,79,79,12,23,4,4,1.3,1
2026-02-01T1700,1156A,118.7946,32.0774,南京市,玄武湖,细颗粒物(PM2.5),74,91,50,54,29,76,,67,67,22,44,4,4,0.9,0.7
2026-02-01T1700,1157A,118.6415,32.0964,南京市,浦口,细颗粒物(PM2.5),67,79,50,48,26,73,,67,67,17,20,4,4,0.4,0.3
2026-02-01T1700,1158A,118.730129,32.000956,南京市,奥体中心,细颗粒物(PM2.5),65,77,58,47,34,85,,76,76,17,33,7,5,0.6,0.5
2026-02-01T1700,1159A,118.9072,32.1047,南京市,仙林大学城,颗粒物(PM10),75,100,51,54,29,65,,61,61,32,38,8,6,1.4,0.7
2026-02-01T1700,3422A,118.8443,31.919,南京市,江宁彩虹桥,细颗粒物(PM2.5),74,92,61,54,35,75,,64,64,27,55,4,4,1.2,0.9
2026-02-01T1700,3427A,118.8497,32.3599,南京市,六合雄州,细颗粒物(PM2.5),70,81,57,51,31,93,,73,73,13,39,9,9,0.7,0.6
2026-02-01T1700,4086A,118.7641,32.0841,南京市,新模范马路66号,颗粒物(PM10),64,78,55,42,30,105,,94,94,21,47,3,4,0.9,0.9
2026-02-01T1700,4249A,118.8707617,31.34017673,南京市,汶溪路181号,,39,39,41,14,23,78,,69,69,14,24,6,5,0.6,0.7
2026-02-01T1700,4312A,119.019,31.6512,南京市,中山西路1号,,44,44,45,26,32,84,,63,63,14,25,4,4,0.6,0.8
2026-02-01T1700,1401A,108.3098,22.788,南宁市,二十一中,,39,35,24,27,20,73,,58,58,20,20,7,5,0.7,0.7
2026-02-01T1700,1402A,108.3135,22.8529,南宁市,北湖,,,,27,,23,,,62,61,,18,,5,,0.6
2026-02-01T1700,1403A,108.3205,22.8222,南宁市,市监测站,,38,38,27,26,19,73,,58,58,19,20,7,8,0.8,0.8
2026-02-01T1700,1404A,108.3828,22.8038,南宁市,大自然花园,,38,38,30,21,18,80,,68,68,10,11,6,6,0.7,0.7
2026-02-01T1700,1406A,108.2397,22.8462,南宁市,区农职院,,40,30,30,28,23,79,,65,65,13,19,7,7,1.0,1.1
2026-02-01T1700,1407A,108.3285,22.7356,南宁市,英华嘉园,,39,34,27,27,19,83,,65,65,13,13,4,4,0.6,0.6
2026-02-01T1700,3401A,108.4829,22.762,南宁市,红星社区,,37,37,24,22,17,78,,72,72,12,13,6,6,0.8,0.8
2026-02-01T1700,4132A,108.2927,23.1477,南宁市,起凤路9号,细颗粒物(PM2.5),54,44,27,38,21,79,,64,64,12,15,3,2,0.6,0.5
2026-02-01T1700,4221A,108.2177,22.7774,南宁市,乐贤路16号,,42,40,35,29,23,81,,66,66,17,22,6,4,0.9,0.9
2026-02-01T1700,2332A,118.1682,26.6371,南平市,南平市监测站,,12,12,10,8,8,34,,27,27,10,12,3,3,0.4,0.5
2026-02-01T1700,2334A,118.1757,26.6276,南平市,南平七中,,34,34,14,9,8,35,,27,27,9,12,4,6,0.6,0.7
2026-02-01T1700,1168A,120.9056,31.9669,南通市,狼山街道,细颗粒物(PM2.5),94,99,56,70,40,46,,54,54,56,34,7,5,0.8,0.6
2026-02-01T1700,1170A,120.8635,32.0231,南通市,城中,细颗粒物(PM2.5),79,100,63,58,35,61,,65,65,46,40,8,6,0.8,0.5
2026-02-01T1700,1171A,120.9376,31.9301,南通市,星湖花园,细颗粒物(PM2.5),92,95,54,68,40,51,,60,60,62,38,9,5,1.0,0.7
2026-02-01T1700,1172A,120.8053,32.046,南通市,紫琅学院,细颗粒物(PM2.5),93,98,65,69,40,67,,73,73,40,40,4,4,0.9,0.8
2026-02-01T1700,3291A,121.0631,32.0644,南通市,通州监测站,细颗粒物(PM2.5),70,88,49,51,33,81,,81,81,39,39,4,3,0.7,0.5
2026-02-01T1700,3432A,120.9348,31.9874,南通市,环境教育馆,细颗粒物(PM2.5),109,90,52,82,37,55,,58,58,52,43,7,4,1.0,0.7
2026-02-01T1700,4091A,120.8692,31.9885,南通市,洪江路,细颗粒物(PM2.5),88,94,53,65,43,38,,49,49,66,42,6,5,0.5,0.4
2026-02-01T1700,2404A,112.5338,33.0086,南阳市,瓦房庄,细颗粒物(PM2.5),85,114,100,63,67,81,,66,66,16,27,4,4,0.8,1.1
2026-02-01T1700,2405A,112.5002,32.9734,南阳市,汉画馆,细颗粒物(PM2.5),108,112,105,81,95,83,,62,62,19,35,8,7,0.9,1.1
2026-02-01T1700,2406A,112.5778,33.0144,南阳市,气象站,颗粒物(PM10),86,122,112,51,67,84,,66,66,16,29,5,5,0.8,1
2026-02-01T1700,2407A,112.548,32.9687,南阳市,理工学院,颗粒物(PM10),74,98,100,52,74,84,,63,63,15,32,5,5,0.7,0.9
2026-02-01T1700,4008A,112.5233,32.9921,南阳市,卧龙区政府,细颗粒物(PM2.5),82,104,110,60,73,74,,59,59,18,34,6,5,0.8,1
2026-02-01T1700,1234A,121.8352,29.9111,宁波市,区环保大楼,细颗粒物(PM2.5),83,106,59,61,33,86,,78,78,27,32,5,5,0.6,0.5
2026-02-01T1700,1235A,121.5595,29.8208,宁波市,万里学院,细颗粒物(PM2.5),79,86,52,58,42,75,,74,74,33,29,3,3,0.8,0.8
2026-02-01T1700,1236A,121.713,29.9564,宁波市,龙赛医院,细颗粒物(PM2.5),82,84,53,60,34,86,,83,83,29,28,4,4,0.7,0.6
2026-02-01T1700,1240A,121.5855,29.8635,宁波市,太古小学,细颗粒物(PM2.5),98,92,58,73,40,76,,73,73,25,25,4,3,0.6,0.6
2026-02-01T1700,1241A,121.5239,29.8673,宁波市,市环境监测中心,细颗粒物(PM2.5),73,75,60,53,39,73,,67,67,22,25,6,6,0.5,0.5
2026-02-01T1700,2871A,121.6156,29.9015,宁波市,万里国际学校,细颗粒物(PM2.5),84,80,45,62,42,75,,71,71,29,29,4,3,0.5,0.4
2026-02-01T1700,3710A,121.5593,29.8976,宁波市,白沙活动中心,细颗粒物(PM2.5),87,65,40,64,55,73,,70,70,28,27,4,4,0.4,0.4
2026-02-01T1700,4095A,121.8962,29.7529,宁波市,中科路88号,细颗粒物(PM2.5),79,72,40,58,32,84,,80,80,31,28,6,5,0.6,0.5
2026-02-01T1700,2341A,119.5387,26.6611,宁德市,宁德市监测站,,31,31,14,17,10,40,,45,45,26,19,4,3,0.6,0.5
2026-02-01T1700,3209A,119.5231,26.6562,宁德市,宁德一中,,29,28,14,20,13,44,,47,47,22,13,4,3,0.5,0.3
2026-02-01T1700,2618A,98.859,25.8541,怒江傈僳族自治州,州监测站,,34,34,40,19,24,92,,66,66,6,12,6,6,0.3,0.4
2026-02-01T1700,2619A,98.8607,25.8168,怒江傈僳族自治州,泸水一中,,39,39,34,19,26,84,,59,59,8,18,5,4,0.5,0.6
2026-02-01T1700,1888A,101.6891,26.571,攀枝花市,弄弄坪,颗粒物(PM10),52,53,78,17,41,100,,73,73,14,40,12,29,0.6,1.6
2026-02-01T1700,1889A,101.577,26.5914,攀枝花市,河门口,,39,39,53,25,35,106,,78,78,14,23,25,22,1.4,1.2
2026-02-01T1700,1891A,101.7365,26.4986,攀枝花市,仁和,,29,29,51,16,34,92,,73,73,10,23,10,18,0.5,1.2
2026-02-01T1700,2835A,101.7222,26.567,攀枝花市,四十中小,,50,50,70,12,45,94,,69,69,16,51,13,23,0.6,1.4
2026-02-01T1700,1604A,122.0303,41.1489,盘锦市,开发区,细颗粒物(PM2.5),60,,62,43,61,66,,69,69,18,34,9,8,0.9,1
2026-02-01T1700,1605A,122.0486,41.0883,盘锦市,兴隆台,,38,34,59,26,55,65,,61,61,23,45,12,10,0.4,0.7
2026-02-01T1700,1606A,121.8297,41.1026,盘锦市,新生街道,,,37,50,22,42,65,,64,64,24,47,,9,0.5,0.6
2026-02-01T1700,1832A,113.3257,33.7423,平顶山市,新华旅馆,颗粒物(PM10),80,109,111,36,80,101,,78,78,12,23,6,6,0.4,0.8
2026-02-01T1700,1833A,113.2917,33.737,平顶山市,规划设计院,颗粒物(PM10),83,115,137,44,82,97,,72,72,9,25,7,6,0.4,0.9
2026-02-01T1700,1834A,113.182,33.7738,平顶山市,平顶山工学院,颗粒物(PM10),74,98,104,46,82,99,,76,76,8,14,8,7,0.5,0.8
2026-02-01T1700,3594A,112.8736,33.9068,平顶山市,石龙区,颗粒物(PM10),84,118,124,46,78,100,,87,87,14,28,6,6,0.5,0.8
2026-02-01T1700,4116A,113.284,33.7139,平顶山市,姚电大道23号,颗粒物(PM10),63,76,124,40,90,101,,78,78,14,27,8,6,0.4,0.9
2026-02-01T1700,2656A,106.6633,35.5338,平凉市,聚贤嘉苑,颗粒物(PM10),84,118,138,35,41,98,,69,69,6,23,9,9,0.6,0.7
2026-02-01T1700,2657A,106.7021,35.5307,平凉市,博物馆,颗粒物(PM10),87,124,149,51,88,95,,77,77,8,26,8,11,0.4,0.7
2026-02-01T1700,2348A,113.8384,27.6436,萍乡市,中医院,颗粒物(PM10),57,63,68,34,44,41,,34,34,23,23,4,4,0.8,1
2026-02-01T1700,2350A,113.8677,27.6438,萍乡市,市环保局,,45,44,47,31,45,44,,36,36,19,21,10,11,0.6,1.4
2026-02-01T1700,2351A,113.8663,27.6202,萍乡市,安源区政府,,48,47,59,33,43,37,,28,28,20,19,3,4,0.6,0.7
2026-02-01T1700,4107A,113.8686,27.6668,萍乡市,联洪村委会,细颗粒物(PM2.5),52,48,61,36,47,26,,26,26,32,28,1,3,0.6,0.8
2026-02-01T1700,2319A,119.0142,25.4324,莆田市,荔城区仓后路,,28,28,18,8,6,72,,59,59,19,12,/,/,/,/
2026-02-01T1700,2320A,119.0016,25.4553,莆田市,莆田市监测站,,34,34,13,11,6,73,,62,62,17,9,4,2,0.4,0.4
2026-02-01T1700,2321A,119.112,25.4561,莆田市,涵江区六中,,26,26,14,9,5,68,,63,63,15,8,/,/,0.5,0.4
2026-02-01T1700,2322A,119.1014,25.3215,莆田市,秀屿区政府,,26,24,18,3,3,83,,77,77,10,9,3,2,0.6,0.5
2026-02-01T1700,2392A,115.0312,35.7636,濮阳市,环保局,细颗粒物(PM2.5),83,84,104,61,99,92,,51,51,17,29,8,6,0.9,1.3
2026-02-01T1700,3021A,115,35.7667,濮阳市,濮水河管理处,细颗粒物(PM2.5),92,105,128,68,106,94,,48,48,17,31,8,6,0.9,1.2
2026-02-01T1700,4118A,115.0552,35.7816,濮阳市,中原东路68号,细颗粒物(PM2.5),87,111,140,64,98,99,,55,55,23,34,8,5,0.9,1.2
2026-02-01T1700,4216A,115.0923632,35.76857718,濮阳市,任丘路479号,细颗粒物(PM2.5),103,108,139,77,110,97,,52,52,33,41,9,5,0.6,1
2026-02-01T1700,2601A,100.9801,22.7634,普洱市,市环保局,,42,42,60,15,26,95,,80,80,9,12,5,4,0.4,0.5
2026-02-01T1700,2602A,100.9763,22.8237,普洱市,普洱第二中学,,,,55,,29,,,93,78,,29,,5,,0.4
2026-02-01T1700,3345A,131.0413,45.7795,七台河市,中波台,,30,30,43,17,30,73,,70,70,6,12,7,9,0.4,0.5
2026-02-01T1700,3637A,131.0136,45.7688,七台河市,人民广场,,32,32,49,20,30,70,,68,68,14,18,7,8,0.5,0.6
2026-02-01T1700,3684A,130.8639,45.8144,七台河市,新建矿广场,,39,39,49,16,32,62,,64,64,13,14,4,5,0.5,0.5
2026-02-01T1700,1779A,123.9307,47.3641,齐齐哈尔市,安居小区,,29,29,34,8,18,64,,66,66,12,21,8,10,0.4,0.4
2026-02-01T1700,1780A,123.9497,47.3389,齐齐哈尔市,中心广场,,19,16,25,12,14,60,,66,63,16,16,5,7,0.5,0.5
2026-02-01T1700,1781A,123.9483,47.3229,齐齐哈尔市,农牧车辆厂,,20,14,31,6,16,61,,64,64,11,15,4,6,0.3,0.3
2026-02-01T1700,1783A,123.9442,47.2994,齐齐哈尔市,市环境监测站,,20,19,29,6,10,62,,65,65,14,15,4,5,0.4,0.4
2026-02-01T1700,3662A,123.6341,47.2079,齐齐哈尔市,富区青少年活动中心,,23,23,37,9,13,68,,72,72,7,12,5,8,0.4,0.5
2026-02-01T1700,2591A,107.9765,26.5724,黔东南苗族侗族自治州,市环境监测站,细颗粒物(PM2.5),58,46,37,41,32,57,,58,56,15,9,5,4,0.8,0.7
2026-02-01T1700,2881A,107.8909,26.531,黔东南苗族侗族自治州,凯里学院,细颗粒物(PM2.5),53,46,38,37,32,65,,63,63,16,14,3,3,0.8,0.7
2026-02-01T1700,2593A,107.5223,26.2371,黔南布依族苗族自治州,小围寨,,33,29,25,23,24,44,,47,47,10,7,5,3,0.9,0.9
2026-02-01T1700,3538A,107.5175,26.2977,黔南布依族苗族自治州,沙坝,,38,34,32,26,25,51,,54,54,14,9,5,4,0.8,0.8
2026-02-01T1700,2589A,104.9022,25.0943,黔西南布依族苗族自治州,场坝街,,35,35,34,19,18,49,,52,51,9,10,3,3,0.8,0.8
2026-02-01T1700,2590A,104.8812,25.0994,黔西南布依族苗族自治州,坪东大道,,47,47,25,15,18,46,,52,51,9,9,4,5,1.0,1
2026-02-01T1700,2502A,108.6238,21.9667,钦州市,市环保站,,41,41,41,25,20,82,,70,70,12,14,3,4,0.8,0.8
2026-02-01T1700,2503A,108.655,21.9481,钦州市,沙埠小学,,40,40,39,25,15,89,,74,74,13,16,5,5,0.5,0.5
2026-02-01T1700,2504A,108.5989,21.7435,钦州市,港区一小,颗粒物(PM10),54,58,41,22,20,79,,68,68,22,20,4,3,0.7,0.7
2026-02-01T1700,3404A,108.5959,21.9634,钦州市,北职校,,36,34,30,25,16,86,,71,71,10,11,4,3,0.8,0.8
2026-02-01T1700,1046A,119.5247,39.9346,秦皇岛市,建设大厦,,48,48,80,21,56,77,,54,54,9,38,9,11,0.4,0.8
2026-02-01T1700,3132A,119.5979,39.938,秦皇岛市,文明里,颗粒物(PM10),52,54,77,32,50,69,,59,59,20,36,12,13,0.3,0.6
2026-02-01T1700,4066A,119.7458,39.9952,秦皇岛市,南园路157号,,48,45,70,33,51,73,,61,61,19,47,11,12,0.4,0.8
2026-02-01T1700,4067A,119.5131,39.8858,秦皇岛市,翠岛大街1号,,50,50,84,29,60,74,,57,57,19,44,11,13,0.4,0.8
2026-02-01T1700,4198A,119.509013,39.825305,秦皇岛市,北戴河轮滑馆,,49,49,83,26,55,79,,61,61,17,44,9,9,0.4,0.9
2026-02-01T1700,1310A,120.404,36.0625,青岛市,市南区东部子站,细颗粒物(PM2.5),168,156,133,127,107,89,,78,78,33,35,10,10,1.0,0.9
2026-02-01T1700,1311A,120.362344,36.10282,青岛市,四方区子站,细颗粒物(PM2.5),179,141,126,135,110,90,,74,74,38,41,6,7,1.4,1.2
2026-02-01T1700,1312A,120.294373,36.054183,青岛市,市南区西部子站,细颗粒物(PM2.5),178,153,126,134,116,74,,72,72,50,44,5,5,1.2,1
2026-02-01T1700,1313A,120.4581,36.0858,青岛市,崂山区子站,细颗粒物(PM2.5),160,153,134,122,107,95,,82,82,40,39,11,11,1.1,0.9
2026-02-01T1700,1315A,120.3945,36.3083,青岛市,城阳区子站,细颗粒物(PM2.5),186,166,147,140,120,107,,70,70,39,55,10,10,1.2,1.2
2026-02-01T1700,3642A,120.3454,36.0735,青岛市,市北区南部,细颗粒物(PM2.5),166,152,136,126,108,84,,72,72,33,36,3,5,1.1,1
2026-02-01T1700,3643A,120.3897,36.18,青岛市,李沧区北部,细颗粒物(PM2.5),159,144,136,121,116,74,,66,66,54,59,9,11,1.0,1.1
2026-02-01T1700,4110A,120.5222,36.4089,青岛市,盟旺路653号,细颗粒物(PM2.5),176,182,151,133,110,104,,81,81,46,51,7,9,1.5,1.3
2026-02-01T1700,4290A,120.196923,35.954556,青岛市,珠江路669号,细颗粒物(PM2.5),129,117,139,98,116,77,,71,71,34,51,5,6,1.0,1
2026-02-01T1700,4291A,120.0424,35.8656,青岛市,黄岛区人民政府广场,细颗粒物(PM2.5),127,122,191,96,143,73,,60,60,43,55,9,9,1.4,1.7
2026-02-01T1700,1703A,113.0218,23.7086,清远市,凤城街办,,32,23,19,15,12,100,,72,72,18,19,/,/,/,/
2026-02-01T1700,3025A,113.0479,23.6343,清远市,技师学院,,29,19,21,11,12,91,,68,68,23,22,6,6,0.7,0.8
2026-02-01T1700,3318A,112.9898,23.7403,清远市,清新太和,,34,28,20,22,13,106,,75,75,21,17,7,8,0.8,0.8
2026-02-01T1700,3455A,113.076,23.72,清远市,清城东城,,31,21,17,13,10,97,,70,70,13,15,/,/,/,/
2026-02-01T1700,2661A,107.6325,35.7357,庆阳市,庆阳五中,颗粒物(PM10),70,89,155,40,61,97,,89,89,12,18,6,7,0.4,0.6
2026-02-01T1700,2662A,107.6361,35.7067,庆阳市,市环保局,颗粒物(PM10),70,90,152,35,58,97,,88,88,11,17,5,7,0.5,0.6
2026-02-01T1700,1916A,103.7897,25.5036,曲靖市,环境监测站,,35,21,43,14,31,109,,74,74,7,17,5,5,0.3,0.8
2026-02-01T1700,1917A,103.8013,25.5357,曲靖市,烟厂办公区,,35,35,44,12,28,105,,69,69,6,15,4,5,0.2,0.7
2026-02-01T1700,3376A,103.7926,25.4651,曲靖市,南苑二区,,31,18,41,12,30,98,,70,70,4,10,4,4,0.3,0.8
2026-02-01T1700,3377A,103.7442,25.5259,曲靖市,曲靖师范学院,,33,27,44,11,33,105,,76,76,6,16,5,4,0.2,0.5
2026-02-01T1700,1264A,118.8694,28.94,衢州市,环保大楼,,43,32,34,30,29,45,,38,38,26,32,/,/,/,/
2026-02-01T1700,1266A,118.8622,28.9809,衢州市,衢州学院,,42,33,28,29,26,45,,41,41,19,26,4,4,0.4,0.4
2026-02-01T1700,4097A,118.9646,28.9832,衢州市,衢州三中,,32,30,30,22,24,49,,39,39,25,36,4,4,0.3,0.3
2026-02-01T1700,1611A,118.5818,24.9116,泉州市,涂山街,,33,33,15,20,10,72,,57,57,22,13,6,2,0.5,0.4
2026-02-01T1700,1612A,118.597,24.8976,泉州市,津头埔,,30,30,15,18,11,73,,57,57,18,13,4,2,0.5,0.4
2026-02-01T1700,1613A,118.6669,24.9422,泉州市,万安,,33,33,17,14,11,72,,58,58,20,13,6,3,0.7,0.6
2026-02-01T1700,4105A,118.6355,24.9148,泉州市,霞新路6号,,23,22,16,15,11,73,,58,58,19,16,/,/,0.5,0.4
2026-02-01T1700,2626A,88.8873,29.2723,日喀则市,日喀则监测站,,30,6,12,3,7,94,,86,86,1,6,8,7,0.2,0.3
2026-02-01T1700,3726A,88.8775,29.2425,日喀则市,林业技术推广中心,,27,8,11,3,3,84,,84,75,4,5,6,5,0.5,0.5
2026-02-01T1700,1659A,119.4711,35.421,日照市,监测站,细颗粒物(PM2.5),138,141,157,105,126,82,,72,72,36,52,8,10,1.0,1.2
2026-02-01T1700,1660A,119.523,35.4216,日照市,市政府广场,细颗粒物(PM2.5),137,132,154,104,126,83,,73,73,36,47,8,9,0.8,0.9
2026-02-01T1700,1661A,119.5511,35.4113,日照市,港务局,细颗粒物(PM2.5),139,158,168,106,124,70,,67,67,46,54,7,9,1.0,1.1
2026-02-01T1700,3507A,119.5326,35.4627,日照市,职业技术学院,细颗粒物(PM2.5),130,139,146,99,119,89,,78,78,35,44,7,8,1.1,1.3
2026-02-01T1700,3604A,119.3267,35.1043,日照市,岚山环保分局,细颗粒物(PM2.5),137,139,179,104,132,66,,59,59,31,50,12,17,1.1,1.6
2026-02-01T1700,1835A,111.1922,34.7752,三门峡市,市政府,细颗粒物(PM2.5),104,99,117,78,99,76,,46,46,27,41,9,9,0.7,1
2026-02-01T1700,1836A,111.1588,34.794,三门峡市,开发区,细颗粒物(PM2.5),123,144,153,93,114,70,,43,43,30,37,7,6,0.7,1
2026-02-01T1700,3039A,111.1911,34.7829,三门峡市,三门峡市第一小学,细颗粒物(PM2.5),123,111,132,93,106,71,,44,44,26,38,7,7,0.8,1
2026-02-01T1700,3598A,111.1031,34.719,三门峡市,富达温泉假日酒店,细颗粒物(PM2.5),100,116,146,75,107,80,,49,49,29,41,11,8,0.7,1.1
2026-02-01T1700,2324A,117.621,26.2626,三明市,三钢,,26,26,15,16,11,33,,32,31,10,9,4,5,0.8,0.8
2026-02-01T1700,2325A,117.6352,26.2714,三明市,三明二中,,16,11,13,11,8,31,,31,29,11,11,1,2,0.8,0.8
2026-02-01T1700,2326A,117.6028,26.2377,三明市,三元区政府,,16,16,11,8,7,36,,34,30,12,12,4,4,0.8,0.8
2026-02-01T1700,1877A,109.4962,18.2682,三亚市,河西子站,,32,32,20,10,9,99,,84,84,8,9,3,3,0.5,0.5
2026-02-01T1700,3540A,109.7348,18.3443,三亚市,君悦子站,,34,34,16,13,10,89,,81,81,6,7,5,5,0.4,0.4
2026-02-01T1700,4135A,109.1714,18.3739,三亚市,城东小学站,,37,20,20,10,10,118,,101,101,10,10,/,/,/,/
2026-02-01T1700,2624A,91.7592,29.234,山南市,山南监测站,,29,15,22,3,13,90,,77,77,1,7,4,4,0.4,0.6
2026-02-01T1700,2625A,91.7701,29.2436,山南市,山南人民医院,,27,7,23,3,15,85,,71,71,2,12,7,8,0.5,0.6
2026-02-01T1700,1674A,116.6795,23.3666,汕头市,金平子站,,38,32,23,26,18,60,,46,46,17,16,4,5,0.9,1
2026-02-01T1700,1675A,116.7248,23.3632,汕头市,龙湖子站,,39,30,21,27,18,57,,43,43,14,15,9,10,/,/
2026-02-01T1700,1676A,116.7257,23.2774,汕头市,濠江子站,,42,42,22,23,18,70,,45,45,15,18,7,7,/,/
2026-02-01T1700,1677A,116.7518,23.4712,汕头市,澄海子站,,43,43,22,28,17,50,,39,39,13,13,6,6,0.8,0.9
2026-02-01T1700,1678A,116.6088,23.2539,汕头市,潮阳子站,,36,36,22,25,18,68,,42,42,11,16,6,6,0.6,0.8
2026-02-01T1700,3444A,116.4539,23.2684,汕头市,潮南峡山,,45,40,22,31,16,71,,46,46,19,15,6,6,0.9,0.8
2026-02-01T1700,3624A,116.4069,23.2533,汕头市,潮南子站,颗粒物(PM10),53,55,25,29,18,60,,40,40,29,16,6,6,/,/
2026-02-01T1700,1693A,115.3653,22.7751,汕尾市,市环保局,,25,20,18,14,12,78,,53,53,9,9,7,7,0.8,0.8
2026-02-01T1700,1695A,115.362,22.7926,汕尾市,新城中学,,25,13,14,13,11,80,,55,55,8,8,5,5,0.7,0.7
2026-02-01T1700,2645A,109.9155,33.8714,商洛市,监测站,颗粒物(PM10),73,96,97,38,54,95,,75,75,11,18,4,4,0.4,0.8
2026-02-01T1700,3045A,109.9647,33.8486,商洛市,商州区中学,颗粒物(PM10),105,160,113,30,47,98,,74,74,11,28,5,4,0.4,0.7
2026-02-01T1700,2408A,115.6701,34.4283,商丘市,环境监测站,细颗粒物(PM2.5),130,137,77,99,73,102,,76,76,11,11,1,3,0.6,0.5
2026-02-01T1700,2409A,115.6458,34.4047,商丘市,粮食局,细颗粒物(PM2.5),124,123,74,94,70,96,,71,71,16,15,4,2,0.7,0.3
2026-02-01T1700,3171A,115.6069,34.4465,商丘市,梁园区档案局,细颗粒物(PM2.5),114,122,67,86,64,98,,73,73,10,13,1,3,0.7,0.5
2026-02-01T1700,4119A,115.6701,34.3767,商丘市,北海东路185号,细颗粒物(PM2.5),117,126,88,88,68,101,,73,73,13,22,3,2,0.7,0.6
2026-02-01T1700,4120A,115.6172,34.3704,商丘市,中山大街3号,细颗粒物(PM2.5),132,136,93,100,70,99,,73,73,18,24,7,5,0.6,0.5
2026-02-01T1700,1141A,121.401,31.2382,上海市,普陀,细颗粒物(PM2.5),79,90,56,58,36,61,,59,59,44,47,6,6,0.6,0.7
2026-02-01T1700,1142A,121.4774,31.2043,上海市,十五厂,,,,50,,29,,,66,,,39,,6,,0.4
2026-02-01T1700,1143A,121.4673,31.3011,上海市,虹口,,,,55,,35,58,,58,58,,49,,8,0.2,0.2
2026-02-01T1700,1147A,121.4253,31.226,上海市,静安监测站,细颗粒物(PM2.5),87,87,54,64,35,65,,65,65,46,44,7,8,0.8,0.8
2026-02-01T1700,1148A,121.7029,31.1905,上海市,浦东川沙,细颗粒物(PM2.5),104,107,60,78,43,34,,55,55,69,49,12,9,1.1,0.8
2026-02-01T1700,1149A,121.5339,31.229,上海市,浦东新区监测站,细颗粒物(PM2.5),103,91,56,77,40,56,,63,63,49,45,6,7,0.8,0.8
2026-02-01T1700,1150A,121.5776,31.2038,上海市,浦东张江,细颗粒物(PM2.5),85,106,59,63,39,62,,66,66,48,47,6,8,0.5,0.5
2026-02-01T1700,3265A,121.4242,31.3303,上海市,宝山庙行,颗粒物(PM10),71,91,60,50,40,69,,63,63,35,52,8,9,0.6,0.7
2026-02-01T1700,3266A,121.8789,31.4662,上海市,崇明上实东滩,细颗粒物(PM2.5),84,80,44,62,34,92,,91,91,14,10,5,4,0.5,0.1
2026-02-01T1700,3268A,121.316,31.2839,上海市,嘉定南翔,细颗粒物(PM2.5),82,82,60,60,43,70,,62,62,36,51,4,5,0.4,0.4
2026-02-01T1700,3269A,121.3357,30.7455,上海市,金山新城,细颗粒物(PM2.5),93,84,54,69,46,78,,75,75,25,37,8,8,0.8,0.8
2026-02-01T1700,3270A,121.4996,31.0741,上海市,闵行浦江,细颗粒物(PM2.5),89,87,53,66,37,75,,67,67,31,39,6,7,0.6,0.6
2026-02-01T1700,3271A,121.2886,31.1663,上海市,青浦徐泾,细颗粒物(PM2.5),90,97,56,67,40,71,,72,72,35,51,4,5,0.6,0.6
2026-02-01T1700,3272A,121.2193,31.0382,上海市,松江图书馆,细颗粒物(PM2.5),69,76,54,50,38,77,,73,73,24,41,6,6,0.5,0.6
2026-02-01T1700,3273A,121.3904,31.206,上海市,长宁仙霞,细颗粒物(PM2.5),80,87,56,59,37,59,,60,60,45,44,7,8,0.6,0.6
2026-02-01T1700,3274A,121.7964,31.0507,上海市,浦东惠南,细颗粒物(PM2.5),93,111,55,69,40,31,,58,58,83,50,9,5,0.9,0.6
2026-02-01T1700,3544A,121.4891,30.925,上海市,奉贤南桥新城,细颗粒物(PM2.5),83,90,56,61,38,77,,71,71,32,40,2,3,0.7,0.8
2026-02-01T1700,4183A,121.417401,31.16637,上海市,冠生园路458号,细颗粒物(PM2.5),94,91,50,70,39,58,,61,61,50,39,5,5,0.6,0.6
2026-02-01T1700,4205A,121.541914,31.268301,上海市,宁武路151号,颗粒物(PM10),72,93,56,38,28,61,,64,64,46,50,5,6,0.7,0.7
2026-02-01T1700,2382A,117.9758,28.4439,上饶市,市监测站,,26,26,21,14,16,47,,44,44,17,19,13,7,/,/
2026-02-01T1700,2383A,117.9521,28.4637,上饶市,凤凰光学,,25,25,23,14,17,41,,33,33,21,24,10,11,0.8,0.8
2026-02-01T1700,3685A,117.897,28.4316,上饶市,双创科技城,,24,24,20,11,16,53,,44,44,24,26,2,5,0.8,0.9
2026-02-01T1700,4211A,118.190438,28.444845,上饶市,裕丰大道,,46,46,28,21,22,46,,42,42,25,28,11,11,0.7,0.7
2026-02-01T1700,1669A,113.5821,24.7733,韶关市,市八中,,20,16,15,12,10,61,,54,54,14,15,7,7,0.7,0.7
2026-02-01T1700,1671A,113.5916,24.7973,韶关市,园林处,,20,14,13,13,10,63,,56,56,12,14,7,6,/,/
2026-02-01T1700,1673A,113.5971,24.6864,韶关市,曲江监测站,,20,16,14,11,10,64,,56,56,12,16,5,6,0.6,0.7
2026-02-01T1700,2809A,113.6668,24.7756,韶关市,大学路288号,,20,18,12,13,9,63,,55,55,13,16,3,3,/,/
2026-02-01T1700,3622A,113.5556,24.8082,韶关市,碧湖山庄,,20,16,17,10,12,62,,52,52,12,14,7,7,0.7,0.7
2026-02-01T1700,2464A,111.5277,27.2442,邵阳市,市化工厂,细颗粒物(PM2.5),67,66,58,48,51,72,,63,63,13,13,3,3,0.8,0.7
2026-02-01T1700,2466A,111.4327,27.2276,邵阳市,市环保局,细颗粒物(PM2.5),65,63,39,47,47,78,,70,70,17,17,8,7,0.9,0.9
2026-02-01T1700,4218A,111.446,27.2472,邵阳市,北塔二期4-26地块,颗粒物(PM10),65,80,44,45,46,71,,66,66,17,12,6,6,1.0,0.9
2026-02-01T1700,4219A,111.4739,27.2282,邵阳市,邵水西路287号,细颗粒物(PM2.5),63,,41,45,44,76,,69,69,13,13,8,7,1.0,0.9
2026-02-01T1700,1247A,120.6053,29.9927,绍兴市,城东开发委,,48,46,48,33,37,66,,60,60,20,32,7,7,0.5,0.6
2026-02-01T1700,2921A,120.5482,30.0003,绍兴市,树下王站,,43,43,42,29,34,62,,59,59,17,31,6,6,0.3,0.3
2026-02-01T1700,3408A,120.5685,29.936,绍兴市,绍兴中专,,46,45,40,32,34,66,,52,52,12,26,6,7,0.4,0.5
2026-02-01T1700,3409A,120.4905,30.086,绍兴市,柯桥区政府,,49,44,50,34,38,71,,65,65,27,41,5,6,0.5,0.6
2026-02-01T1700,3410A,120.8751,30.0249,绍兴市,重华小学,细颗粒物(PM2.5),74,65,51,54,44,69,,57,57,34,39,6,6,0.5,0.4
2026-02-01T1700,3411A,120.837,30.0137,绍兴市,上虞中学,细颗粒物(PM2.5),69,63,55,50,43,65,,56,56,29,37,7,7,0.6,0.6
2026-02-01T1700,3560A,120.4715,30.0414,绍兴市,柯桥妇保,,40,38,41,28,34,69,,61,61,18,27,5,5,0.4,0.5
2026-02-01T1700,3658A,120.6156,30.0762,绍兴市,袍江中学,细颗粒物(PM2.5),63,66,59,45,43,65,,57,57,23,33,6,6,0.4,0.5
2026-02-01T1700,1356A,114.0948,22.5506,深圳市,通心岭子站,,36,36,22,23,11,93,,61,61,22,14,7,6,0.8,0.9
