timepoint,stationcode,longitude,latitude,area,positionname,primarypollutant,aqi,pm10,pm10_24h,pm2_5,pm2_5_24h,o3,o3_24h,o3_8h,o3_8h_24h,no2,no2_24h,so2,so2_24h,co,co_24h
2025-11-25T1700,2566A,102.1879,31.914,阿坝藏族羌族自治州,州农科所,,,,,,,,,,,,,,,,
2025-11-25T1700,2568A,102.2502,31.8896,阿坝藏族羌族自治州,马师校,,30,30,31,11,16,49,49,61,61,22,11,5,5,0.5,0.5
2025-11-25T1700,3994A,102.2165,31.9024,阿坝藏族羌族自治州,马尔康中学西区,,30,30,26,16,14,72,72,68,68,5,7,4,5,0.4,0.4
2025-11-25T1700,2695A,80.292,41.1694,阿克苏地区,电视台,颗粒物(PM10),104,158,226,59,85,103,103,66,66,22,41,9,10,0.7,1.2
2025-11-25T1700,2696A,80.2613,41.1551,阿克苏地区,艺术中心,颗粒物(PM10),111,172,192,69,81,97,97,60,60,23,45,6,8,0.7,1
2025-11-25T1700,2204A,105.6467,38.8363,阿拉善盟,西城区西花园,,,,,,,,,,,,,,,,
2025-11-25T1700,2205A,105.6985,38.8411,阿拉善盟,蒙二幼,颗粒物(PM10),87,123,60,31,16,85,85,81,80,6,8,6,7,0.8,0.8
2025-11-25T1700,2206A,105.724,38.8516,阿拉善盟,环保局新楼,颗粒物(PM10),86,122,49,37,15,76,76,87,74,5,5,8,8,0.5,0.6
2025-11-25T1700,2708A,88.1264,47.8517,阿勒泰地区,市站,,19,14,14,3,7,58,58,59,51,27,41,4,6,0.4,0.5
2025-11-25T1700,2630A,80.1161,32.5,阿里地区,阿里监测站,,27,6,3,3,3,84,84,66,66,2,12,6,8,0.2,0.3
2025-11-25T1700,3192A,80.0903,32.5028,阿里地区,阿里藏医院,,26,6,12,3,7,81,81,63,63,2,7,7,11,0.5,0.7
2025-11-25T1700,2642A,109.0318,32.6537,安康市,香溪洞,,,,,,,,,,,,,,,,
2025-11-25T1700,2644A,109.0072,32.6975,安康市,汉滨区检察院,颗粒物(PM10),57,64,35,24,15,61,61,43,43,23,15,6,5,0.6,0.5
2025-11-25T1700,4054A,109.0325,32.6913,安康市,市邮政管理局,,,,45,22,17,66,66,44,44,,22,4,4,,0.7
2025-11-25T1700,2291A,117.0809,30.5177,安庆市,环科院,颗粒物(PM10),72,94,138,31,32,83,83,75,75,7,10,4,5,0.3,0.4
2025-11-25T1700,2292A,117.0331,30.5119,安庆市,马山宾馆,颗粒物(PM10),71,91,136,27,30,86,86,74,74,8,15,4,5,0.2,0.3
2025-11-25T1700,2294A,116.9896,30.6145,安庆市,安庆大学,,,98,137,22,24,89,89,80,80,4,13,,7,,0.3
2025-11-25T1700,3173A,117.0598,30.5351,安庆市,市人大,颗粒物(PM10),80,109,153,31,30,86,86,78,78,8,12,5,6,0.2,0.3
2025-11-25T1700,3122A,105.9606,26.2611,安顺市,伍家关,,,,34,24,24,124,124,115,115,,11,,18,0.6,0.8
2025-11-25T1700,3123A,105.9408,26.2431,安顺市,凤凰山,,32,30,37,14,25,102,102,98,98,11,13,12,15,0.3,0.4
2025-11-25T1700,3124A,105.9439,26.2564,安顺市,金钟山,,34,31,39,14,26,108,108,104,104,9,10,13,18,0.4,0.5
2025-11-25T1700,3125A,105.8983,26.2481,安顺市,娄家坡,,32,29,36,17,25,102,102,95,95,9,12,11,14,0.3,0.4
2025-11-25T1700,1818A,114.4839,36.0621,安阳市,棉研所,,,,,,,,,,,,,,,,
2025-11-25T1700,1819A,114.3551,36.1017,安阳市,红庙街,颗粒物(PM10),77,104,66,20,13,57,57,55,55,19,16,4,4,0.4,0.5
2025-11-25T1700,1820A,114.361,36.0681,安阳市,银杏小区,颗粒物(PM10),75,100,65,26,17,62,62,57,57,17,13,3,2,0.3,0.3
2025-11-25T1700,3141A,114.3922,36.0878,安阳市,信访局,颗粒物(PM10),73,96,61,23,21,62,62,58,58,19,16,4,4,0.2,0.2
2025-11-25T1700,3669A,114.4705,36.0637,安阳市,左辅环卫站,颗粒物(PM10),104,157,78,34,18,62,62,60,60,16,15,3,2,0.5,0.5
2025-11-25T1700,3703A,114.2917,36.0949,安阳市,安钢职工学校,颗粒物(PM10),74,98,73,31,20,59,59,55,55,14,12,3,2,0.3,0.5
2025-11-25T1700,1748A,123.044,41.1196,鞍山市,深沟寺,颗粒物(PM10),65,79,83,46,56,40,40,46,46,39,23,16,10,1.3,0.8
2025-11-25T1700,1749A,123.011,41.0931,鞍山市,太阳城,细颗粒物(PM2.5),58,59,75,41,53,47,47,48,48,32,22,16,13,1.1,0.8
2025-11-25T1700,1750A,123.0485,41.1442,鞍山市,太平,颗粒物(PM10),64,77,74,41,52,46,46,52,52,40,22,15,11,1.3,0.8
2025-11-25T1700,1751A,122.9642,41.0971,鞍山市,铁西三道街,颗粒物(PM10),57,63,75,38,48,40,40,42,42,38,33,11,22,1.0,1.9
2025-11-25T1700,1753A,123.022,41.0821,鞍山市,明达新区,细颗粒物(PM2.5),60,61,77,43,59,46,46,48,48,32,20,15,12,0.8,0.6
2025-11-25T1700,1754A,123.1289,41.0228,鞍山市,千山,,,,,,,,,,,,,,,,
2025-11-25T1700,4201A,122.9446,41.0826,鞍山市,兴盛南路290号,细颗粒物(PM2.5),80,90,77,59,53,34,34,42,42,51,31,9,15,0.8,1.1
2025-11-25T1700,2195A,107.4212,40.761,巴彦淖尔市,附二中,颗粒物(PM10),75,100,77,44,24,71,71,62,62,8,8,4,4,0.4,0.4
2025-11-25T1700,2196A,107.37,40.7372,巴彦淖尔市,市环保大楼,颗粒物(PM10),75,100,78,26,23,72,72,66,66,8,6,8,8,0.3,0.4
2025-11-25T1700,1956A,86.1472,41.7538,巴音郭楞蒙古自治州,孔雀公园,颗粒物(PM10),123,195,181,54,48,64,64,48,48,34,47,22,11,0.6,0.7
2025-11-25T1700,1957A,86.1972,41.7166,巴音郭楞蒙古自治州,棉纺厂,颗粒物(PM10),128,206,208,51,44,76,76,59,58,23,25,11,7,,0.7
2025-11-25T1700,1958A,86.2357,41.7173,巴音郭楞蒙古自治州,经济开发区,颗粒物(PM10),111,171,160,43,35,79,79,49,49,17,31,11,7,0.7,0.5
2025-11-25T1700,2914A,106.7677,31.8794,巴中市,苏山坪,,,,,,,,,,,,,,,,
2025-11-25T1700,3181A,106.7768,31.8526,巴中市,市五中,颗粒物(PM10),54,57,44,21,18,77,77,52,52,17,23,9,8,0.5,0.5
2025-11-25T1700,3183A,106.7418,31.8654,巴中市,圣泉水务公司,颗粒物(PM10),56,61,38,27,14,80,80,58,58,13,22,8,8,0.6,0.7
2025-11-25T1700,3616A,106.7616,31.8344,巴中市,市中心医院,颗粒物(PM10),55,60,48,28,24,82,82,57,57,8,25,6,5,0.5,0.7
2025-11-25T1700,2235A,122.7911,45.6077,白城市,洮北区环保局,,25,25,39,8,24,46,46,50,50,9,13,5,6,0.2,0.4
2025-11-25T1700,2236A,122.8738,45.5725,白城市,市环保局,,27,27,31,11,20,36,36,46,46,12,15,3,6,0.2,0.3
2025-11-25T1700,2231A,126.4219,41.9171,白山市,喜丰,细颗粒物(PM2.5),284,306,244,234,196,51,51,61,61,37,28,8,9,1.2,1.2
2025-11-25T1700,2232A,126.4077,41.9419,白山市,环保局,细颗粒物(PM2.5),316,290,228,266,216,38,38,62,62,33,21,10,10,1.6,1.3
2025-11-25T1700,2647A,104.1724,36.5446,白银市,第三小学,颗粒物(PM10),59,68,119,39,71,78,78,56,56,44,48,43,56,0.7,1.6
2025-11-25T1700,2648A,104.1465,36.5482,白银市,动力公司,,,91,89,45,53,,,69,69,,34,23,17,,1.6
2025-11-25T1700,2512A,106.6103,23.9011,百色市,市监测站,,32,32,41,14,25,86,86,74,74,6,15,6,6,0.3,0.5
2025-11-25T1700,2513A,106.6538,23.8859,百色市,市中心血站,,37,37,50,18,34,88,88,74,74,10,29,7,6,0.4,0.5
2025-11-25T1700,3406A,106.6085,23.8798,百色市,祈福高中,颗粒物(PM10),53,56,50,15,31,74,74,64,64,11,17,5,5,0.6,0.5
2025-11-25T1700,2270A,117.396,32.939,蚌埠市,工人疗养院,颗粒物(PM10),68,85,154,19,27,62,62,60,60,25,24,4,5,0.3,0.2
2025-11-25T1700,2271A,117.3605,32.9427,蚌埠市,百货大楼,颗粒物(PM10),58,65,158,20,31,71,71,63,63,14,25,4,8,0.2,0.4
2025-11-25T1700,2273A,117.4185,32.8911,蚌埠市,蚌埠学院,颗粒物(PM10),65,80,182,18,31,61,61,55,55,17,21,5,5,0.3,0.3
2025-11-25T1700,2274A,117.3533,32.9673,蚌埠市,淮上区政府,颗粒物(PM10),67,83,174,24,32,72,72,65,65,17,25,7,7,0.2,0.2
2025-11-25T1700,2275A,117.3145,32.8977,蚌埠市,高新区,颗粒物(PM10),69,88,167,18,31,66,66,59,59,16,22,7,6,0.2,0.2
2025-11-25T1700,3715A,117.3092,32.9314,蚌埠市,蚌埠田家炳中学,颗粒物(PM10),67,84,174,21,32,63,63,61,61,24,22,4,4,0.2,0.3
2025-11-25T1700,1585A,109.8756,40.6532,包头市,市环境监测站,颗粒物(PM10),60,70,68,21,19,32,32,34,34,37,40,13,16,0.6,0.9
2025-11-25T1700,1587A,109.9991,40.5842,包头市,包头八中,颗粒物(PM10),60,69,78,29,32,39,39,41,41,34,35,8,12,0.7,1
2025-11-25T1700,1588A,109.8538,40.6821,包头市,青山宾馆,颗粒物(PM10),57,63,61,27,25,30,30,34,34,43,46,18,13,0.7,0.9
2025-11-25T1700,1589A,109.8642,40.6288,包头市,惠龙物流,颗粒物(PM10),53,55,70,18,23,39,39,43,43,39,39,11,16,0.8,1.2
2025-11-25T1700,1590A,110.0377,40.5546,包头市,东河鸿龙湾,颗粒物(PM10),53,55,57,21,15,44,44,44,44,34,39,9,10,0.7,0.8
2025-11-25T1700,3283A,109.9154,40.5685,包头市,滨河大厦,颗粒物(PM10),54,58,63,21,17,39,39,46,45,32,32,11,9,0.6,0.6
2025-11-25T1700,3419A,109.9447,40.6261,包头市,包头市委党校,,48,48,67,21,19,41,41,42,42,34,43,11,16,0.5,1
2025-11-25T1700,3683A,109.8331,40.6576,包头市,昆区政府,颗粒物(PM10),57,63,64,30,24,33,33,37,37,44,45,21,18,0.7,0.8
2025-11-25T1700,1930A,107.185,34.3063,宝鸡市,庙沟村,,,,,,,,,,,,,,,,
2025-11-25T1700,1931A,107.0708,34.3017,宝鸡市,竹园沟,颗粒物(PM10),58,65,44,27,18,60,60,50,50,30,15,10,8,0.2,0.1
2025-11-25T1700,1932A,107.1906,34.3672,宝鸡市,三陆医院,颗粒物(PM10),60,70,68,24,29,68,68,51,51,28,41,5,7,0.4,0.5
2025-11-25T1700,1933A,107.1431,34.3547,宝鸡市,监测站,颗粒物(PM10),63,76,61,32,27,54,54,44,44,27,22,6,6,0.3,0.4
2025-11-25T1700,1934A,107.1186,34.3739,宝鸡市,技工学校,颗粒物(PM10),61,71,61,25,23,64,64,54,54,28,23,6,6,0.3,0.4
2025-11-25T1700,1936A,107.2058,34.3497,宝鸡市,文理学院,颗粒物(PM10),57,64,59,32,30,70,70,58,58,27,32,6,8,0.4,0.5
2025-11-25T1700,1937A,107.2386,34.3622,宝鸡市,三迪小学,颗粒物(PM10),58,66,74,26,35,62,62,50,50,39,47,5,11,0.4,0.6
2025-11-25T1700,4308A,107.3898,34.3601,宝鸡市,陈仓区北开路21号,颗粒物(PM10),59,68,75,24,34,72,72,61,61,26,36,6,15,0.2,0.4
2025-11-25T1700,1051A,115.493,38.8632,保定市,游泳馆,,47,47,33,22,14,53,53,56,56,14,10,6,4,0.4,0.4
2025-11-25T1700,1052A,115.5213,38.8959,保定市,华电二区,,50,50,26,18,18,59,59,60,60,19,17,4,2,0.2,0.1
2025-11-25T1700,1053A,115.4713,38.9108,保定市,接待中心,,49,49,36,18,12,51,51,54,54,16,15,3,3,0.2,0.1
2025-11-25T1700,1054A,115.4612,38.8416,保定市,地表水厂,颗粒物(PM10),51,52,42,18,10,58,58,62,62,20,24,5,3,0.3,0.1
2025-11-25T1700,3581A,115.31981,38.95208,保定市,满城区生态环境分局,颗粒物(PM10),56,61,30,17,10,58,58,62,62,18,14,6,3,0.3,0.3
2025-11-25T1700,3582A,115.47694,38.76408,保定市,清苑区第二中学,颗粒物(PM10),55,59,36,19,10,53,53,56,56,12,12,11,6,0.3,0.2
2025-11-25T1700,3583A,115.62909,39.02311,保定市,徐水物探局,颗粒物(PM10),55,60,39,18,17,52,52,55,55,13,16,8,5,0.5,0.4
2025-11-25T1700,4004A,115.4202,38.8656,保定市,双鹰农机,颗粒物(PM10),54,57,34,20,17,56,56,62,62,20,17,6,4,0.3,0.2
2025-11-25T1700,4034A,115.5150,38.8590,保定市,植保所站,颗粒物(PM10),53,55,46,20,20,50,50,52,52,19,17,6,4,0.4,0.3
2025-11-25T1700,2594A,99.1678,25.1081,保山市,市环境监测站,,29,23,24,20,17,87,87,68,68,8,13,9,9,0.3,0.4
2025-11-25T1700,2595A,99.1711,25.1328,保山市,市环保局,,29,29,25,15,19,91,91,72,72,6,7,6,6,0.3,0.4
2025-11-25T1700,1866A,109.2262,21.588,北海市,牛尾岭水库,,31,26,33,16,24,99,99,90,90,6,7,5,12,0.1,0.3
2025-11-25T1700,1867A,109.1436,21.4086,北海市,海滩公园,,39,39,43,24,24,119,119,103,103,10,10,8,9,0.5,0.5
2025-11-25T1700,1868A,109.0981,21.4661,北海市,新市环保局,,45,45,41,27,30,127,127,110,110,9,10,7,9,0.4,0.5
2025-11-25T1700,1869A,109.1778,21.5233,北海市,北海工业园,,40,40,45,24,30,117,117,104,104,11,13,8,9,0.3,0.3
2025-11-25T1700,3400A,109.1911,21.4415,北海市,龙潭自来水厂,,39,39,44,22,29,111,111,102,102,8,11,9,5,0.3,0.4
2025-11-25T1700,1001A,116.3621,39.8784,北京市,万寿西宫,,50,47,19,35,8,50,50,51,51,25,17,3,1,0.4,0.4
2025-11-25T1700,1002A,116.2202,40.2915,北京市,定陵,,,,,,,,,,,,,,,,
2025-11-25T1700,1003A,116.4174,39.9289,北京市,东四,颗粒物(PM10),56,62,24,15,5,52,52,52,52,17,14,4,2,0.6,0.5
2025-11-25T1700,1004A,116.4072,39.8863,北京市,天坛,,45,45,20,17,6,46,46,48,48,20,14,3,2,0.4,0.3
2025-11-25T1700,1005A,116.462,39.9365,北京市,农展馆,,44,44,16,18,4,51,51,52,52,15,13,5,3,0.5,0.4
2025-11-25T1700,1006A,116.3392,39.9295,北京市,官园,颗粒物(PM10),51,51,23,24,8,48,48,47,47,18,15,4,3,0.3,0.3
2025-11-25T1700,1007A,116.2878,39.9611,北京市,海淀万柳,颗粒物(PM10),56,61,21,34,9,45,45,44,44,20,23,4,3,0.3,0.4
2025-11-25T1700,1008A,116.6636,40.135,北京市,顺义新城,颗粒物(PM10),56,62,18,12,5,42,42,44,43,24,13,4,4,0.5,0.3
2025-11-25T1700,1009A,116.6275,40.3275,北京市,怀柔镇,,36,36,11,17,4,45,45,47,47,25,9,6,4,0.3,0.4
2025-11-25T1700,1010A,116.2296,40.217,北京市,昌平镇,,40,40,16,19,6,45,45,46,46,21,10,5,4,0.3,0.3
2025-11-25T1700,1011A,116.3966,39.9821,北京市,奥体中心,,39,39,17,15,5,48,48,48,48,22,23,6,4,0.4,0.3
2025-11-25T1700,3281A,115.9718,40.4529,北京市,延庆夏都,,27,27,21,15,8,41,41,48,48,21,13,3,4,0.4,0.4
2025-11-25T1700,3418A,116.8336,40.4095,北京市,密云新城,,42,42,13,15,4,44,44,51,45,24,8,3,2,0.4,0.3
2025-11-25T1700,3671A,116.088,39.9726,北京市,门头沟三家店,颗粒物(PM10),51,52,23,17,5,41,41,46,46,25,13,2,1,0.4,0.4
2025-11-25T1700,3672A,116.1541,39.8204,北京市,丰台云岗,颗粒物(PM10),53,56,25,26,7,50,50,52,52,20,16,3,2,0.4,0.3
2025-11-25T1700,3673A,116.6804,39.9081,北京市,通州东关,颗粒物(PM10),54,57,22,26,6,52,52,50,50,15,12,5,4,0.3,0.3
2025-11-25T1700,3674A,115.9577,39.7603,北京市,房山燕山,,47,47,19,20,7,47,47,51,51,22,10,5,4,0.4,0.3
2025-11-25T1700,3675A,116.4672,39.7733,北京市,大兴旧宫,颗粒物(PM10),54,57,20,20,5,48,48,50,50,19,18,5,2,0.4,0.3
2025-11-25T1700,3694A,115.986,40.4563,北京市,延庆石河营,,32,32,21,10,6,35,35,41,41,24,14,3,3,0.4,0.4
2025-11-25T1700,3695A,116.6151,40.3053,北京市,怀柔新城,,46,46,11,23,5,45,45,48,48,22,7,5,5,0.4,0.3
2025-11-25T1700,3696A,116.2545,39.8768,北京市,丰台小屯,,42,42,16,25,8,42,42,44,44,23,19,3,3,0.3,0.3
2025-11-25T1700,3697A,116.84,40.3844,北京市,密云镇,,36,36,17,14,5,45,45,45,45,22,13,2,1,0.3,0.3
2025-11-25T1700,4182A,116.1942,39.9158,北京市,八角北路9号,颗粒物(PM10),52,54,25,19,7,39,39,38,38,22,20,4,2,0.2,0.1
2025-11-25T1700,4194A,117.0790,40.1518,北京市,洳河巡河路,,36,36,13,15,4,48,48,47,44,17,9,6,4,0.4,0.4
2025-11-25T1700,1761A,123.8275,41.3064,本溪市,大峪,细颗粒物(PM2.5),92,89,123,68,126,55,55,63,63,29,26,9,10,1.1,1.1
2025-11-25T1700,1762A,123.7567,41.3325,本溪市,溪湖,细颗粒物(PM2.5),88,89,158,65,111,50,50,61,61,33,23,10,11,0.7,0.8
2025-11-25T1700,1763A,123.7169,41.3094,本溪市,彩屯,细颗粒物(PM2.5),79,79,141,58,110,42,42,62,62,33,22,9,8,0.7,1
2025-11-25T1700,1764A,123.7669,41.2864,本溪市,东明,,,93,134,,182,51,51,70,70,,22,10,9,1.2,1.1
2025-11-25T1700,1765A,123.7992,41.2664,本溪市,新立屯,细颗粒物(PM2.5),87,85,156,64,122,38,38,65,65,45,28,6,7,0.7,0.7
2025-11-25T1700,1766A,123.8142,41.3472,本溪市,威宁,细颗粒物(PM2.5),92,104,173,68,96,42,42,61,61,35,24,6,6,1.1,1.1
2025-11-25T1700,2587A,105.2864,27.3125,毕节市,八中,,39,38,48,27,37,95,95,81,81,13,9,16,11,0.4,0.5
2025-11-25T1700,2588A,105.31,27.2944,毕节市,师专,,37,37,48,25,34,100,100,72,72,15,14,15,10,0.5,0.5
2025-11-25T1700,4263A,105.3688,27.3598,毕节市,工业大道,,39,39,48,23,35,101,101,77,77,13,14,10,11,0.2,0.6
2025-11-25T1700,1629A,118.0018,37.3617,滨州市,第二水厂,,41,41,66,17,14,60,60,59,59,18,14,9,7,0.2,0.2
2025-11-25T1700,1630A,117.9776,37.393,滨州市,北中新校,,34,34,54,12,11,58,58,58,58,28,15,6,4,0.2,0.1
2025-11-25T1700,3514A,117.9378,37.3956,滨州市,中海酒店,,44,44,53,22,14,69,69,67,67,12,10,8,6,0.5,0.5
2025-11-25T1700,3515A,117.9378,37.3553,滨州市,开发区一中,,41,41,66,7,13,66,66,62,62,16,17,9,8,0.4,0.3
2025-11-25T1700,3516A,118.0917,37.694,滨州市,金海六路,,29,29,36,7,2,61,61,66,66,17,15,6,5,0.4,0.3
2025-11-25T1700,4028A,117.9956,37.3753,滨州市,滨州市西街道办事处,,41,41,59,19,13,60,60,58,58,15,12,8,6,0.3,0.3
2025-11-25T1700,2311A,115.8072,33.8399,亳州市,污水处理厂,颗粒物(PM10),69,87,117,25,34,59,59,53,53,23,16,4,5,0.4,0.4
2025-11-25T1700,2312A,115.7789,33.8518,亳州市,三国揽胜宫,颗粒物(PM10),64,78,124,26,28,66,66,59,59,19,17,4,4,0.3,0.3
2025-11-25T1700,3332A,115.7633,33.8034,亳州市,亳州学院,颗粒物(PM10),67,83,105,25,26,65,65,62,62,26,22,4,3,0.2,0.2
2025-11-25T1700,2693A,82.0485,44.8556,博尔塔拉蒙古自治州,市党校,,37,37,51,10,16,62,62,49,49,20,20,8,3,0.2,0.3
2025-11-25T1700,2694A,82.0806,44.8969,博尔塔拉蒙古自治州,市环保局,,44,44,84,13,21,53,53,34,34,30,26,16,5,0.4,0.7
2025-11-25T1700,1071A,116.8842,38.2991,沧州市,沧县城建局,,39,39,35,24,19,44,44,48,46,24,16,8,3,0.3,0.2
2025-11-25T1700,1072A,116.8584,38.3254,沧州市,电视转播站,,46,46,36,17,14,55,55,57,57,22,18,7,3,0.5,0.4
2025-11-25T1700,1073A,116.8709,38.3228,沧州市,市环保局,颗粒物(PM10),51,52,40,34,28,50,50,56,56,17,10,5,2,0.2,0.2
2025-11-25T1700,3324A,116.8136,38.3004,沧州市,河北水利电力学院,,48,48,29,9,7,49,49,52,52,20,10,7,3,0.1,0.2
2025-11-25T1700,2622A,97.1806,31.1273,昌都市,昌都监测站,,21,20,17,13,11,66,66,63,63,18,12,6,4,0.5,0.5
2025-11-25T1700,3719A,97.1714,31.1406,昌都市,昌都会议中心,,27,27,16,14,7,73,73,72,72,8,2,4,3,0.5,0.3
2025-11-25T1700,2690A,88.1236,43.8886,昌吉回族自治州,天山天池,,,,,,,,,,,,,,,,
2025-11-25T1700,2692A,87.2717,44.0297,昌吉回族自治州,新区政务中心,,40,40,62,24,42,20,20,29,28,63,42,6,5,0.9,0.9
2025-11-25T1700,3613A,87.3095,44.0142,昌吉回族自治州,亚心广场,细颗粒物(PM2.5),55,58,76,39,51,19,19,40,32,61,36,8,8,0.7,0.6
2025-11-25T1700,1120A,125.2863,43.9027,长春市,客车厂,细颗粒物(PM2.5),317,,123,267,139,86,86,60,60,48,37,11,10,1.1,0.8
2025-11-25T1700,1121A,125.2841,43.8463,长春市,邮电学院,细颗粒物(PM2.5),214,197,148,164,123,67,67,55,55,46,36,14,13,0.8,0.7
2025-11-25T1700,1122A,125.3716,43.8772,长春市,劳动公园,细颗粒物(PM2.5),192,,137,144,104,60,60,50,50,,34,,12,0.7,0.9
2025-11-25T1700,1123A,125.3297,43.8805,长春市,园林处,细颗粒物(PM2.5),224,,118,174,114,54,54,42,42,40,31,7,8,0.9,0.7
2025-11-25T1700,1124A,125.4605,43.79,长春市,净月潭,细颗粒物(PM2.5),132,125,156,100,127,72,72,52,52,21,30,7,8,0.6,0.7
2025-11-25T1700,1125A,125.7194,43.515,长春市,甩湾子,细颗粒物(PM2.5),168,,241,127,227,74,74,62,62,21,31,7,6,0.5,0.8
2025-11-25T1700,1126A,125.3863,43.8447,长春市,经开区环卫处,细颗粒物(PM2.5),155,133,137,118,109,58,58,40,40,33,36,8,10,0.6,0.7
2025-11-25T1700,1127A,125.245,43.7783,长春市,高新区管委会,细颗粒物(PM2.5),155,152,133,118,123,52,52,59,58,43,32,7,7,0.6,0.7
2025-11-25T1700,1128A,125.1761,43.8325,长春市,岱山公园,细颗粒物(PM2.5),213,176,136,163,124,38,38,53,53,51,30,7,8,0.7,0.7
2025-11-25T1700,4281A,125.3346,43.9164,长春市,北亚泰大街1068号,细颗粒物(PM2.5),268,,121,218,130,45,45,42,42,54,34,8,9,,0.7
2025-11-25T1700,1335A,113.0833,28.2325,长沙市,经开区环保局,颗粒物(PM10),65,80,78,18,19,88,88,78,78,9,12,4,4,0.3,0.3
2025-11-25T1700,1336A,112.8872,28.2189,长沙市,高开区环保局,颗粒物(PM10),66,82,84,20,21,83,83,71,71,9,13,6,6,0.5,0.5
2025-11-25T1700,1337A,113.0792,28.2053,长沙市,马坡岭,颗粒物(PM10),71,92,80,18,21,82,82,78,78,15,15,5,5,0.4,0.4
2025-11-25T1700,1338A,112.9394,28.19,长沙市,湖南师范大学,颗粒物(PM10),67,83,84,18,22,85,85,74,74,9,15,5,5,0.5,0.5
2025-11-25T1700,1339A,113.0178,28.1322,长沙市,雨花区环保局,颗粒物(PM10),71,92,79,14,20,83,83,74,74,11,14,8,8,0.3,0.4
2025-11-25T1700,1340A,112.9792,28.2597,长沙市,伍家岭,颗粒物(PM10),64,78,81,11,22,84,84,71,71,16,21,6,5,0.2,0.2
2025-11-25T1700,1341A,113.0014,28.1944,长沙市,火车新站,颗粒物(PM10),71,92,84,24,27,85,85,77,77,18,19,5,5,0.3,0.3
2025-11-25T1700,1342A,112.9844,28.1178,长沙市,天心区环保局,颗粒物(PM10),69,87,81,18,22,85,85,80,80,16,16,6,6,0.2,0.2
2025-11-25T1700,1343A,112.8908,28.1308,长沙市,湖南中医药大学,颗粒物(PM10),69,88,86,20,24,78,78,75,75,15,16,6,6,0.7,0.9
2025-11-25T1700,1344A,112.9581,28.3611,长沙市,沙坪,,,,,,,,,,,,,,,,
2025-11-25T1700,1727A,113.1147,36.1547,长治市,清华站,颗粒物(PM10),51,51,65,17,14,72,72,75,75,15,23,11,7,0.4,0.5
2025-11-25T1700,1730A,113.0886,36.2125,长治市,审计局,颗粒物(PM10),52,54,66,17,16,68,68,68,68,20,25,8,9,0.5,0.4
2025-11-25T1700,1731A,113.0844,36.1856,长治市,长治八中,颗粒物(PM10),58,66,82,22,22,65,65,69,69,17,19,9,10,0.5,0.4
2025-11-25T1700,2845A,113.1569,36.1911,长治市,德盛苑,颗粒物(PM10),52,54,62,17,15,73,73,74,74,18,16,9,10,0.5,0.3
2025-11-25T1700,3568A,113.06,36.0464,长治市,向阳小学,颗粒物(PM10),66,82,97,21,20,66,66,74,74,33,23,17,18,0.7,0.5
2025-11-25T1700,3569A,112.8792,36.3144,长治市,屯留一中,,,,76,,15,72,72,66,66,19,25,8,12,0.4,0.7
2025-11-25T1700,4189A,113.1131,36.19948,长治市,英华南巷50号,颗粒物(PM10),53,55,71,22,21,73,73,72,72,14,17,6,8,0.5,0.4
2025-11-25T1700,4190A,113.2367,36.3344,长治市,学府街1号,颗粒物(PM10),54,58,83,19,22,72,72,67,67,14,28,5,11,0.7,1
2025-11-25T1700,1854A,111.6975,28.9703,常德市,市二中,颗粒物(PM10),55,59,94,19,33,87,87,69,69,7,12,6,7,0.2,0.3
2025-11-25T1700,1857A,111.7158,29.1456,常德市,白鹤山,,,,,,,,,,,,,,,,
2025-11-25T1700,3138A,111.7153,29.0289,常德市,武陵区永安,颗粒物(PM10),64,78,95,17,27,86,86,75,75,8,12,8,8,0.2,0.3
2025-11-25T1700,3139A,111.6892,28.9881,常德市,鼎城区玉霞,颗粒物(PM10),55,60,96,19,29,88,88,71,71,3,10,7,7,0.4,0.5
2025-11-25T1700,3140A,111.6625,29.0531,常德市,武陵区长庚,颗粒物(PM10),55,60,91,17,27,91,91,74,74,7,13,4,6,0.0,0.1
2025-11-25T1700,1196A,119.9633,31.762,常州市,市监测站,颗粒物(PM10),51,51,97,15,34,62,62,59,59,21,26,2,4,0.4,0.4
2025-11-25T1700,1200A,119.9468,31.7069,常州市,武进监测站,颗粒物(PM10),52,53,93,17,36,67,67,64,64,20,22,4,5,0.3,0.3
2025-11-25T1700,1201A,119.9255,31.9087,常州市,安家,颗粒物(PM10),59,68,105,11,35,57,57,58,58,26,34,9,10,0.3,0.4
2025-11-25T1700,3002A,119.9805,31.8174,常州市,行政中心,颗粒物(PM10),53,56,155,14,37,60,60,58,58,22,26,5,7,0.4,0.5
2025-11-25T1700,3003A,120.0522,31.7748,常州市,经开区,,50,50,115,14,32,65,65,60,60,13,18,6,7,0.4,0.5
2025-11-25T1700,3010A,119.9025,31.7964,常州市,钟楼,颗粒物(PM10),71,91,102,13,34,58,58,56,56,21,32,8,9,0.4,0.5
2025-11-25T1700,3429A,119.8598,31.7066,常州市,武进经发区,颗粒物(PM10),63,75,138,23,33,72,72,67,67,22,24,10,10,0.3,0.3
2025-11-25T1700,3430A,119.5826,31.7245,常州市,金坛城区,,,63,125,17,31,73,73,65,65,15,18,,8,0.6,0.7
2025-11-25T1700,2220A,120.4318,41.5881,朝阳市,西梁,,23,23,25,9,6,56,56,54,54,15,14,4,8,0.4,0.5
2025-11-25T1700,2221A,120.4521,41.5646,朝阳市,河畔小区,,18,11,18,9,6,56,56,59,59,18,12,5,7,0.4,0.4
2025-11-25T1700,2222A,120.4176,41.5648,朝阳市,八里堡,,30,30,25,16,11,49,49,52,52,23,16,6,10,0.2,0.3
2025-11-25T1700,2223A,120.3806,41.5969,朝阳市,农业园区,,29,29,20,13,10,61,61,63,63,13,12,6,6,0.4,0.4
2025-11-25T1700,1705A,116.6367,23.6719,潮州市,西园路,,,,,,,,,,,,,,,,
2025-11-25T1700,3026A,116.6183,23.6608,潮州市,市政府,,38,38,37,14,20,98,98,98,91,4,7,5,6,0.3,0.4
2025-11-25T1700,4036A,116.6461,23.6761,潮州市,金山,,,37,39,18,25,87,87,90,87,8,13,3,3,,0.4
2025-11-25T1700,2472A,113.0073,25.9061,郴州市,马头岭,,,,,,,,,,,,,,,,
2025-11-25T1700,2473A,113.0116,25.8226,郴州市,市职中,,46,46,41,16,27,89,89,78,78,8,16,4,4,0.2,0.4
2025-11-25T1700,2475A,113.0383,25.8071,郴州市,市审计局,,48,48,50,16,28,94,94,82,82,9,19,5,4,0.3,0.4
2025-11-25T1700,2476A,113.0348,25.7759,郴州市,市环保局,颗粒物(PM10),53,55,53,15,30,90,90,82,82,9,18,8,9,0.4,0.4
2025-11-25T1700,4252A,113.0138,25.8011,郴州市,好美居路49号,,40,40,41,17,29,97,97,85,85,9,16,4,7,0.2,0.3
2025-11-25T1700,1431A,103.9728,30.7236,成都市,金泉两河,细颗粒物(PM2.5),102,110,110,76,60,83,83,57,57,33,40,3,3,0.6,0.9
2025-11-25T1700,1432A,104.176,30.6872,成都市,十里店,细颗粒物(PM2.5),89,102,103,66,50,92,92,70,70,31,47,3,4,0.7,0.8
2025-11-25T1700,1433A,104.079,30.5706,成都市,三瓦窑,颗粒物(PM10),64,78,107,39,46,111,111,78,78,16,49,3,4,0.5,0.6
2025-11-25T1700,1434A,104.1114,30.63,成都市,沙河铺,细颗粒物(PM2.5),92,94,95,68,54,83,83,72,72,36,48,3,3,0.8,0.8
2025-11-25T1700,1437A,104.0786,30.6531,成都市,君平街,细颗粒物(PM2.5),112,107,110,84,62,81,81,65,65,36,43,4,5,0.7,0.7
2025-11-25T1700,1438A,103.613,31.0283,成都市,灵岩寺,,,,,,,,,,,,,,,,
2025-11-25T1700,2880A,104.0239,30.65639,成都市,大石西路,细颗粒物(PM2.5),93,90,88,69,53,85,85,72,72,40,44,4,3,0.7,0.8
2025-11-25T1700,3136A,104.2725,30.5589,成都市,龙泉驿区区政府,细颗粒物(PM2.5),62,63,71,44,32,103,103,88,88,22,14,6,6,0.5,0.5
2025-11-25T1700,3357A,104.0106,30.6931,成都市,金博路,细颗粒物(PM2.5),83,102,108,61,58,79,79,54,54,41,49,5,5,0.7,0.8
2025-11-25T1700,3359A,104.0578,30.5225,成都市,华阳,细颗粒物(PM2.5),67,70,90,48,47,97,97,75,75,26,48,5,5,0.6,0.7
2025-11-25T1700,3488A,104.3880,30.7467,成都市,青石路225号,细颗粒物(PM2.5),62,65,82,44,33,110,110,74,74,15,33,4,5,0.6,0.5
2025-11-25T1700,3489A,104.0789,30.4072,成都市,科学城,细颗粒物(PM2.5),80,74,86,59,51,101,101,77,77,12,24,6,5,0.3,0.5
2025-11-25T1700,4011A,103.8506,30.6947,成都市,光华大道三段,细颗粒物(PM2.5),94,92,112,70,72,99,99,66,66,22,36,3,3,0.5,0.7
2025-11-25T1700,4224A,104.2433,30.5353,成都市,鲸龙路1057号,细颗粒物(PM2.5),65,70,82,47,39,105,105,88,88,17,35,6,6,0.7,0.7
2025-11-25T1700,1062A,117.9531,40.9081,承德市,铁路,,42,42,24,13,5,29,29,47,47,31,8,5,5,0.3,0.3
2025-11-25T1700,1063A,117.9392,40.9763,承德市,中国银行,,37,37,22,9,5,35,35,51,51,27,9,4,3,0.4,0.3
2025-11-25T1700,1064A,117.9503,40.928,承德市,开发区,,33,33,35,18,15,38,38,51,51,22,9,6,6,0.3,0.2
2025-11-25T1700,1066A,117.9268,41.0026,承德市,离宫,,,,,,,,,,,,,,,,
2025-11-25T1700,4274A,117.7994,40.9605,承德市,滨河大街98号,,38,38,27,19,12,46,46,45,45,12,10,26,14,0.3,0.6
2025-11-25T1700,2314A,117.47,30.6618,池州市,池州学院,颗粒物(PM10),103,155,139,45,34,81,81,67,67,20,18,9,7,0.3,0.4
2025-11-25T1700,3237A,117.4918,30.6617,池州市,展览馆,颗粒物(PM10),97,144,133,39,34,80,80,68,68,18,19,9,7,0.4,0.4
2025-11-25T1700,3333A,117.5627,30.695,池州市,第八中学,颗粒物(PM10),108,166,156,58,35,76,76,47,,22,27,8,8,,0.5
2025-11-25T1700,3334A,117.5038,30.6243,池州市,第十二中学,颗粒物(PM10),99,147,151,34,32,81,81,68,68,20,26,7,7,0.5,0.6
2025-11-25T1700,1744A,118.9233,42.2816,赤峰市,松山一中,,,22,17,9,6,58,58,60,60,17,14,,8,,0.5
2025-11-25T1700,1745A,118.9576,42.2728,赤峰市,哈达街,,32,32,18,10,8,58,58,57,57,14,14,10,11,0.4,0.5
2025-11-25T1700,1746A,118.8788,42.2554,赤峰市,天义路,,20,20,15,3,10,63,63,62,62,13,13,6,8,0.6,0.6
2025-11-25T1700,3058A,119.2658,42.0353,赤峰市,银河街,,33,33,30,13,20,50,50,51,51,17,13,7,7,0.5,0.7
2025-11-25T1700,3286A,118.9359,42.3147,赤峰市,桥北物流园区,,26,24,14,18,10,48,48,52,52,22,14,7,9,0.3,0.4
2025-11-25T1700,2521A,107.3476,22.4136,崇左市,市环保局江州分局,,,38,49,20,31,78,78,72,72,14,17,5,5,,0.2
2025-11-25T1700,4256A,107.3750,22.3736,崇左市,石景林东路7号,,38,38,36,19,26,88,88,79,79,6,14,7,7,0.4,0.5
2025-11-25T1700,2298A,118.3093,32.3153,滁州市,老年大学,颗粒物(PM10),51,52,125,25,33,64,64,60,60,10,12,10,10,0.3,0.3
2025-11-25T1700,2299A,118.3244,32.2786,滁州市,人大宾馆,颗粒物(PM10),53,55,159,14,25,67,67,65,65,4,10,6,6,0.2,0.2
2025-11-25T1700,3207A,118.3118,32.3038,滁州市,市政府原办公楼,,50,50,132,16,32,68,68,66,66,13,15,5,5,0.3,0.4
2025-11-25T1700,3331A,118.3267,32.2634,滁州市,图书馆,,46,46,126,12,22,66,66,62,62,8,13,7,8,0.2,0.2
2025-11-25T1700,2605A,101.5482,25.0441,楚雄彝族自治州,州环境监测站,,,25,28,18,18,81,81,75,75,14,22,,11,0.6,0.7
2025-11-25T1700,2606A,101.538,25.0492,楚雄彝族自治州,市经济开发区,颗粒物(PM10),59,67,36,25,22,81,81,78,78,6,14,6,13,0.5,0.6
2025-11-25T1700,2548A,107.5277,31.2827,达州市,达州职业技术学院,,,,,,,,,,,,,,,,
2025-11-25T1700,2549A,107.5086,31.2186,达州市,市环境监测站,颗粒物(PM10),62,73,53,24,20,71,71,46,46,27,33,6,6,0.5,0.5
2025-11-25T1700,2550A,107.4988,31.2132,达州市,凤凰小区,颗粒物(PM10),67,83,59,27,22,82,82,52,52,20,35,5,6,0.3,0.3
2025-11-25T1700,2551A,107.5082,31.1986,达州市,达县机关宾馆,颗粒物(PM10),75,100,62,28,24,33,33,43,43,58,36,5,6,0.9,0.5
2025-11-25T1700,2552A,107.4644,31.2124,达州市,市政中心,颗粒物(PM10),67,83,69,19,21,75,75,49,49,21,36,5,7,0.4,0.5
2025-11-25T1700,2614A,100.1542,25.7054,大理白族自治州,大理市环境监测站,,43,43,25,29,24,52,52,48,48,20,18,7,7,0.8,0.7
2025-11-25T1700,2615A,100.2171,25.5811,大理白族自治州,大理古城,,43,43,23,26,16,67,67,56,56,12,10,8,8,0.6,0.6
2025-11-25T1700,1109A,121.612,38.9741,大连市,甘井子,,20,20,104,3,39,61,61,56,56,16,21,14,11,0.5,0.5
2025-11-25T1700,1110A,121.565,38.9511,大连市,周水子,,21,21,96,3,37,58,58,58,58,16,15,4,3,0.3,0.4
2025-11-25T1700,1111A,121.5637,38.8845,大连市,星海三站,,20,20,83,3,39,62,62,57,57,13,17,6,6,0.3,0.4
2025-11-25T1700,1112A,121.6302,38.9117,大连市,青泥洼桥,,18,6,58,3,40,56,56,53,53,18,20,11,10,0.3,0.4
2025-11-25T1700,1113A,121.6251,38.8638,大连市,傅家庄,,19,17,87,3,38,58,58,55,55,14,17,12,9,0.7,0.8
2025-11-25T1700,1114A,121.5213,38.8661,大连市,七贤岭,,24,24,101,3,37,61,61,58,58,12,14,6,6,0.4,0.6
2025-11-25T1700,1115A,121.2529,38.8061,大连市,旅顺,,21,11,79,3,39,65,65,63,63,7,10,6,6,0.2,0.3
2025-11-25T1700,1116A,121.7485,39.1311,大连市,金州,,18,14,114,3,43,55,55,57,57,12,12,8,7,0.2,0.4
2025-11-25T1700,1117A,121.7811,39.0496,大连市,开发区,,23,23,111,3,43,51,51,52,52,15,15,8,8,0.2,0.2
2025-11-25T1700,1118A,121.9762,39.0631,大连市,双D港,,19,15,79,3,43,60,60,63,63,11,14,10,10,0.4,0.6
2025-11-25T1700,1789A,124.81117,46.03138,大庆市,大同区,细颗粒物(PM2.5),242,229,121,192,90,46,46,45,45,39,25,11,7,1.3,0.9
2025-11-25T1700,1790A,125.129,46.533,大庆市,龙凤区,细颗粒物(PM2.5),165,133,60,125,49,60,60,50,50,33,28,9,7,0.9,0.7
2025-11-25T1700,1791A,124.902,46.408,大庆市,红岗区,细颗粒物(PM2.5),127,105,49,96,25,24,24,46,46,40,20,8,6,0.5,0.4
2025-11-25T1700,1792A,125.153,46.586,大庆市,萨尔图区,细颗粒物(PM2.5),107,112,69,80,52,38,38,36,36,28,28,9,8,0.7,0.6
2025-11-25T1700,1793A,124.9042,46.6215,大庆市,让胡路区,"颗粒物(PM10),细颗粒物(PM2.5)",70,90,42,51,30,45,45,46,46,26,18,9,7,0.6,0.5
2025-11-25T1700,3481A,125.141,46.634,大庆市,萨区政府监测点,细颗粒物(PM2.5),73,72,58,53,30,49,49,40,40,15,20,9,9,0.5,0.6
2025-11-25T1700,1721A,113.3819,40.1097,大同市,果树场,颗粒物(PM10),74,97,61,23,24,105,105,62,62,49,30,19,12,0.8,0.8
2025-11-25T1700,1723A,113.2994,40.0758,大同市,云冈宾馆,颗粒物(PM10),73,95,74,23,20,43,43,45,45,35,26,12,9,0.6,0.7
2025-11-25T1700,1724A,113.3444,40.0917,大同市,大同大学,颗粒物(PM10),59,67,60,29,20,57,57,55,55,33,35,10,9,0.6,0.6
2025-11-25T1700,1725A,113.2661,40.1269,大同市,安家小村,颗粒物(PM10),73,95,64,37,25,44,44,44,44,38,29,15,14,0.6,0.8
2025-11-25T1700,1726A,113.2711,40.0844,大同市,教育学院,,,85,69,33,31,32,32,44,44,50,32,,12,0.5,0.6
2025-11-25T1700,3282A,113.3397,40.0597,大同市,大同市卫生学校,颗粒物(PM10),63,75,56,30,22,58,58,49,49,30,30,12,12,0.6,0.7
2025-11-25T1700,3565A,113.1367,40.1122,大同市,云冈站,,43,43,48,20,14,71,71,56,56,9,19,6,8,0.3,0.4
2025-11-25T1700,3566A,113.1186,40.2556,大同市,图书馆,颗粒物(PM10),51,51,44,9,16,77,77,65,65,9,12,4,5,0.4,0.5
2025-11-25T1700,3567A,113.5931,40.0461,大同市,区一中,颗粒物(PM10),71,91,59,34,26,63,63,67,67,31,19,16,13,0.5,0.6
2025-11-25T1700,4199A,113.2798,40.0997,大同市,魏都大道141号,颗粒物(PM10),68,85,76,31,27,38,38,46,46,45,34,11,10,0.8,1.1
2025-11-25T1700,2269A,124.1069,50.4097,大兴安岭地区,科技局,,28,22,18,19,16,29,29,34,33,16,7,5,5,0.2,0.3
2025-11-25T1700,3663A,124.1164,50.4278,大兴安岭地区,红旗社区,,36,36,35,16,19,7,7,19,18,43,30,6,6,0.5,0.5
2025-11-25T1700,1600A,124.3303,40.0625,丹东市,江湾东路,,45,34,126,31,100,56,56,62,62,29,30,7,8,0.6,1
2025-11-25T1700,1601A,124.4256,40.1503,丹东市,临江后街,,37,37,150,24,100,55,55,60,60,20,25,8,7,0.5,1
2025-11-25T1700,1602A,124.3933,40.1461,丹东市,元宝山,,40,32,129,28,107,58,58,61,60,12,25,7,9,0.5,1.1
2025-11-25T1700,1603A,124.3633,40.1092,丹东市,民主桥,,47,47,142,27,97,43,43,60,60,47,36,6,6,0.8,0.9
2025-11-25T1700,3541A,109.5726,19.5167,儋州市,第一中学子站,,35,35,56,17,33,107,107,99,99,6,8,9,10,0.4,0.5
2025-11-25T1700,3542A,109.5567,19.5187,儋州市,东坡学校子站,,38,36,55,18,34,119,119,111,111,9,12,4,6,0.4,0.6
2025-11-25T1700,2616A,98.5842,24.428,德宏傣族景颇族自治州,德宏州监测站,,30,24,37,21,29,83,83,60,60,7,19,8,8,0.4,0.7
2025-11-25T1700,3677A,98.5881,24.4368,德宏傣族景颇族自治州,芒市人民政府综合楼,,27,27,34,8,18,76,76,55,55,9,14,8,8,0.6,0.7
2025-11-25T1700,1901A,104.4239,31.1208,德阳市,东山公园,细颗粒物(PM2.5),80,81,89,59,42,93,93,71,71,18,22,3,2,0.8,0.7
2025-11-25T1700,1902A,104.3826,31.1317,德阳市,西小区,细颗粒物(PM2.5),83,97,124,61,51,95,95,50,50,22,42,4,5,0.5,0.6
2025-11-25T1700,1904A,104.3553,31.1091,德阳市,耐火材料厂,细颗粒物(PM2.5),102,106,120,76,58,90,90,62,62,34,47,2,11,0.7,0.8
2025-11-25T1700,3639A,104.4019,31.1244,德阳市,市教育局,细颗粒物(PM2.5),87,83,88,64,44,84,84,58,58,17,40,3,2,0.6,0.6
2025-11-25T1700,1622A,116.3032,37.4674,德州市,儿童乐园,颗粒物(PM10),56,61,48,12,7,58,58,61,61,21,19,10,9,0.6,0.5
2025-11-25T1700,1624A,116.2991,37.4451,德州市,监理站,颗粒物(PM10),51,51,36,9,5,64,64,67,67,26,19,11,9,0.4,0.3
2025-11-25T1700,3066A,116.2721,37.4379,德州市,九衢泉纯净水厂,,,,43,,14,42,42,55,55,34,28,10,11,,0.6
2025-11-25T1700,3371A,116.3728,37.4403,德州市,开发区人民医院,颗粒物(PM10),51,51,43,9,12,63,63,64,64,22,21,13,12,0.6,0.5
2025-11-25T1700,3511A,116.5652,37.3319,德州市,陵城艺术中心,颗粒物(PM10),56,61,49,7,13,55,55,59,59,24,23,14,12,0.4,0.5
2025-11-25T1700,4292A,116.3525,37.4209,德州市,新河东路,颗粒物(PM10),52,53,44,19,10,57,57,58,58,34,28,9,9,0.5,0.5
2025-11-25T1700,2621A,99.7056,27.8317,迪庆藏族自治州,迪庆州站,,24,17,21,10,15,74,74,72,72,7,7,6,6,0.7,0.7
2025-11-25T1700,3180A,99.7136,27.8094,迪庆藏族自治州,质量技术监督局,,32,32,19,11,12,71,71,75,75,13,8,7,7,0.5,0.7
2025-11-25T1700,4257A,104.6092,35.5962,定西市,将台街,,38,38,61,7,33,87,87,65,65,5,28,8,13,0.3,0.7
2025-11-25T1700,4309A,104.6159,35.5701,定西市,正龙路62号,颗粒物(PM10),60,69,69,16,33,85,85,68,68,10,18,7,7,0.7,0.6
2025-11-25T1700,1389A,113.7547,23.0494,东莞市,莞城梨川,,40,40,45,22,26,109,109,110,110,13,17,5,7,0.4,0.5
2025-11-25T1700,1390A,113.7944,23.0128,东莞市,东城石井,,40,40,39,21,22,108,108,112,112,13,16,8,10,0.4,0.5
2025-11-25T1700,1391A,113.7383,22.9658,东莞市,南城西平,,,37,40,24,22,110,110,113,113,,23,,10,0.5,0.6
2025-11-25T1700,3319A,113.7338,23.0381,东莞市,万江金泰,,42,42,44,18,23,106,106,106,106,10,16,6,8,0.6,0.7
2025-11-25T1700,3626A,113.7533,23.0202,东莞市,南城元岭,,44,44,42,22,23,115,115,116,116,12,16,8,9,0.2,0.4
2025-11-25T1700,3627A,113.7875,23.0457,东莞市,东城主山,,41,41,41,20,23,116,116,120,120,14,19,7,8,0.3,0.4
2025-11-25T1700,1666A,118.6614,37.4309,东营市,市环保局,,24,24,37,7,3,57,57,59,59,21,19,8,8,0.5,0.5
2025-11-25T1700,3036A,118.6904,37.4338,东营市,开发区管委会,,,,49,,4,60,60,66,66,22,15,3,3,0.2,0.1
2025-11-25T1700,3365A,118.5719,37.565,东营市,垦利区民丰路,,27,27,33,3,2,63,63,63,63,17,13,2,2,0.6,0.6
2025-11-25T1700,3498A,118.5055,37.8612,东营市,河口城区,,22,22,36,3,4,70,70,70,70,16,13,3,6,0.3,0.3
2025-11-25T1700,3646A,118.4978,37.4623,东营市,胜利站,,33,33,39,9,3,51,51,57,57,32,23,10,13,0.5,0.5
2025-11-25T1700,3734A,118.35,37.26,东营市,理想之城,,27,27,42,7,8,53,53,54,54,24,21,5,6,0.4,0.4
2025-11-25T1700,1591A,110.0023,39.8129,鄂尔多斯市,综合楼,,41,41,64,7,12,71,71,51,51,14,23,10,12,0.4,0.5
2025-11-25T1700,1592A,109.9486,39.8261,鄂尔多斯市,巴音孟克林场办事处,,,70,71,19,15,77,77,60,60,14,18,,10,0.4,0.5
2025-11-25T1700,1593A,109.7736,39.5986,鄂尔多斯市,康泽苑,颗粒物(PM10),59,68,83,14,19,83,83,62,62,11,26,8,8,0.3,0.4
2025-11-25T1700,1594A,109.8119,39.5989,鄂尔多斯市,华泰汽车城,颗粒物(PM10),67,83,93,9,19,75,75,56,56,18,29,10,10,0.2,0.3
2025-11-25T1700,1595A,109.9734,39.7884,鄂尔多斯市,奥林花园,颗粒物(PM10),58,66,91,9,15,70,70,51,51,14,31,8,10,0.4,0.5
2025-11-25T1700,2436A,114.8938,30.3994,鄂州市,市政府,颗粒物(PM10),73,95,128,28,34,55,55,56,56,23,22,11,11,0.5,0.4
2025-11-25T1700,2437A,114.8989,30.3714,鄂州市,赵家坝,颗粒物(PM10),81,111,137,29,33,65,65,64,64,17,11,16,10,1.0,0.6
2025-11-25T1700,3654A,114.8094,30.4089,鄂州市,精准医疗中心,颗粒物(PM10),71,92,122,24,35,78,78,63,63,2,6,4,5,0.7,0.7
2025-11-25T1700,2454A,109.4978,30.2981,恩施土家族苗族自治州,湖北民院,,43,43,44,13,30,100,100,72,72,9,10,7,6,0.4,0.4
2025-11-25T1700,2455A,109.4707,30.2798,恩施土家族苗族自治州,州电力总公司,,44,44,48,20,33,75,75,53,53,11,15,7,6,0.4,0.5
2025-11-25T1700,3549A,109.5061,30.3772,恩施土家族苗族自治州,龙凤新区,,,50,46,24,26,91,91,69,69,,7,5,7,0.1,0.2
2025-11-25T1700,2499A,108.3411,21.6158,防城港市,沙万,颗粒物(PM10),54,58,43,14,26,99,99,92,92,7,8,6,7,0.5,0.4
2025-11-25T1700,2500A,108.3514,21.7731,防城港市,防城档案局,,43,43,55,11,25,92,92,85,85,11,13,8,9,0.3,0.4
2025-11-25T1700,2501A,108.3506,21.6414,防城港市,大海花园,,42,42,39,15,26,108,108,97,97,7,9,5,6,0.4,0.4
2025-11-25T1700,1371A,113.1294,23.0067,佛山市,湾梁,,41,41,40,11,20,104,104,97,97,15,20,8,10,0.4,0.5
2025-11-25T1700,1372A,113.1083,23.0478,佛山市,华材职中,,44,44,50,25,29,104,104,96,96,14,22,7,8,0.6,0.7
2025-11-25T1700,1373A,113.144,23.0453,佛山市,南海气象局,颗粒物(PM10),54,57,43,14,23,110,110,103,103,15,20,8,10,0.4,0.5
2025-11-25T1700,1374A,113.2881,22.8094,佛山市,顺德苏岗,,33,,38,17,24,105,105,103,103,19,23,8,10,0.3,0.4
2025-11-25T1700,1376A,112.8383,22.8678,佛山市,高明孔堂,颗粒物(PM10),52,54,49,21,30,104,104,103,103,13,20,6,8,0.2,0.3
2025-11-25T1700,1377A,112.8836,23.1588,佛山市,三水监测站,,41,41,53,20,29,95,95,88,88,17,25,6,8,0.4,0.5
2025-11-25T1700,1378A,112.867,23.185,佛山市,三水云东海,,34,34,41,19,26,105,105,97,97,17,22,6,7,0.5,0.5
2025-11-25T1700,3625A,113.2544,22.7642,佛山市,容桂街道办,,44,44,45,19,25,105,105,104,104,21,27,6,8,0.5,0.5
2025-11-25T1700,1280A,119.3903,26.0543,福州市,鼓山,,,,36,,16,,,91,,,12,,3,,0.7
2025-11-25T1700,1282A,119.2681,26.0504,福州市,师大,,,73,43,26,20,123,123,112,112,14,16,,7,0.5,0.5
2025-11-25T1700,1283A,119.2984,26.1028,福州市,五四北路,颗粒物(PM10),64,77,42,25,22,124,124,108,108,16,24,5,5,0.4,0.5
2025-11-25T1700,1284A,119.2648,26.0768,福州市,杨桥西路,颗粒物(PM10),61,72,43,24,21,122,122,110,110,16,17,5,5,0.4,0.3
2025-11-25T1700,1285A,119.317,26.0746,福州市,紫阳,颗粒物(PM10),65,80,52,25,23,119,119,96,96,17,30,8,8,0.4,0.5
2025-11-25T1700,3048A,119.5799,26.0936,福州市,九龙,颗粒物(PM10),58,65,34,22,19,142,142,121,121,8,13,4,4,0.3,0.4
2025-11-25T1700,3526A,119.5189,25.9664,福州市,吴航,颗粒物(PM10),52,53,37,24,22,140,140,126,126,9,19,7,7,0.4,0.5
2025-11-25T1700,1755A,123.7977,41.8491,抚顺市,望花区,颗粒物(PM10),71,92,95,51,44,47,47,58,58,33,18,9,8,0.7,0.6
2025-11-25T1700,1756A,123.9161,41.8822,抚顺市,顺城区,细颗粒物(PM2.5),83,81,108,61,55,56,56,61,61,31,21,8,7,0.7,0.6
2025-11-25T1700,1757A,124.0436,41.8611,抚顺市,东洲区,细颗粒物(PM2.5),112,94,120,84,90,52,52,63,63,39,23,,7,1.0,0.8
2025-11-25T1700,1758A,123.9247,41.8642,抚顺市,新抚区,细颗粒物(PM2.5),87,111,115,64,67,49,49,57,57,33,20,12,8,1.0,0.7
2025-11-25T1700,1759A,124.0972,41.8961,抚顺市,大伙房水库,细颗粒物(PM2.5),115,100,141,87,97,75,75,76,76,24,20,11,10,0.7,0.8
2025-11-25T1700,1760A,123.7086,41.8391,抚顺市,沈抚新城,颗粒物(PM10),60,70,82,41,34,45,45,60,60,30,14,8,8,0.5,0.5
2025-11-25T1700,2376A,116.2127,28.0814,抚州市,桐源党溪,,,,,,,,,,,,,,,,
2025-11-25T1700,2377A,116.3544,27.9831,抚州市,市站,颗粒物(PM10),89,127,94,21,30,93,93,81,81,5,15,7,8,0.4,0.5
2025-11-25T1700,2378A,116.3565,27.963,抚州市,血防站,颗粒物(PM10),78,106,88,29,33,91,91,81,81,11,22,4,5,0.4,0.5
2025-11-25T1700,2379A,116.3564,28.0007,抚州市,采茶剧团,颗粒物(PM10),88,126,96,30,34,99,99,84,84,2,14,4,7,0.5,0.6
2025-11-25T1700,2380A,116.385,27.9647,抚州市,医学分院,颗粒物(PM10),90,129,101,23,32,98,98,86,86,6,18,4,5,0.6,0.7
2025-11-25T1700,2207A,121.6094,41.998,阜新市,工业园区,,,54,36,50,10,,,71,,19,13,17,8,0.4,0.3
2025-11-25T1700,2208A,121.6697,42.0279,阜新市,长青街,,41,41,20,17,4,52,52,54,54,19,11,18,8,0.5,0.3
2025-11-25T1700,2209A,121.6673,42.0705,阜新市,农业园区,,32,32,17,19,6,54,54,54,54,15,10,12,5,0.3,0.2
2025-11-25T1700,2210A,121.6717,42.0224,阜新市,东苑,,45,45,27,15,8,52,52,54,54,22,13,12,8,0.5,0.4
2025-11-25T1700,2211A,121.6506,42.0498,阜新市,玉龙新城,,37,37,24,20,5,60,60,59,59,13,13,13,8,0.4,0.3
2025-11-25T1700,2301A,115.8277,32.8929,阜阳市,市监测站,,,89,127,27,38,68,68,62,62,14,17,5,6,,0.3
2025-11-25T1700,2303A,115.8554,32.8605,阜阳市,开发区,颗粒物(PM10),86,121,169,18,24,71,71,62,62,16,19,5,5,0.3,0.3
2025-11-25T1700,2875A,115.784,32.8892,阜阳市,阜阳职业技术学院,颗粒物(PM10),67,83,114,20,29,76,76,69,69,12,17,7,8,0.3,0.3
2025-11-25T1700,3468A,115.7901,32.8613,阜阳市,市规划展馆,颗粒物(PM10),67,83,147,24,26,72,72,64,64,11,13,5,6,0.3,0.3
2025-11-25T1700,3469A,115.836,32.9183,阜阳市,枣园社区,颗粒物(PM10),73,95,150,27,26,68,68,62,62,21,22,2,3,0.3,0.3
2025-11-25T1700,2669A,102.9099,34.9841,甘南藏族自治州,州政府,,31,31,64,16,30,86,86,61,61,3,34,5,7,0.2,0.8
2025-11-25T1700,3380A,102.8914,34.9617,甘南藏族自治州,甘肃民族师范学院,,41,41,74,10,19,71,71,58,58,9,31,4,7,0.5,0.8
2025-11-25T1700,2570A,101.9603,30.0475,甘孜藏族自治州,水桥子,,26,13,26,7,8,82,82,66,66,4,28,8,8,0.4,0.5
2025-11-25T1700,3065A,101.9533,29.9972,甘孜藏族自治州,州环保局,,23,19,20,6,4,72,72,69,69,14,12,5,5,0.5,0.4
2025-11-25T1700,3414A,115.8347,28.932,赣江新区,桑海产业园,颗粒物(PM10),90,129,117,23,28,73,73,71,71,11,20,11,8,0.6,0.6
2025-11-25T1700,2362A,114.9017,25.9149,赣州市,通天岩,颗粒物(PM10),56,61,47,26,23,118,118,109,109,6,7,16,16,0.8,0.9
2025-11-25T1700,2363A,114.9367,25.8664,赣州市,地委,颗粒物(PM10),55,60,54,30,35,99,99,93,93,14,18,8,10,0.5,0.5
2025-11-25T1700,2364A,114.9461,25.8481,赣州市,气象台,,,81,65,26,29,103,103,98,98,15,21,,11,0.6,0.7
2025-11-25T1700,2365A,114.9322,25.8333,赣州市,市图书馆,颗粒物(PM10),70,89,56,28,31,107,107,98,98,13,15,6,9,0.6,0.7
2025-11-25T1700,2366A,114.8905,25.8471,赣州市,华坚鞋城,颗粒物(PM10),71,92,61,20,30,90,90,87,87,23,18,5,8,0.3,0.4
2025-11-25T1700,3109A,115.0093,25.8613,赣州市,赣县区卫计委,颗粒物(PM10),62,74,55,30,43,114,114,102,102,5,17,8,8,0.5,0.6
2025-11-25T1700,2683A,106.2319,36.1417,固原市,马园,,,,,,,,,,,,,,,,
2025-11-25T1700,2684A,106.2792,36.0022,固原市,监测站,,27,26,45,10,15,84,84,76,76,8,17,6,5,0.4,0.5
2025-11-25T1700,2685A,106.2375,36.0211,固原市,新区,,28,26,42,8,13,89,89,80,80,4,8,4,5,0.2,0.3
2025-11-25T1700,3522A,106.2177,35.9959,固原市,原州区十五小,,37,37,48,11,13,84,84,79,79,7,8,6,7,0.3,0.3
2025-11-25T1700,2543A,106.6308,30.5278,广安市,小平旧居,,,,,,,,,,,,,,,,
2025-11-25T1700,2544A,106.6303,30.4576,广安市,市委,,,,79,,39,91,91,72,72,21,36,,3,0.5,0.6
2025-11-25T1700,2545A,106.6271,30.4663,广安市,友谊中学,颗粒物(PM10),60,69,66,25,31,95,95,65,65,14,26,7,7,0.6,0.7
2025-11-25T1700,2547A,106.6388,30.4551,广安市,广电花园,颗粒物(PM10),56,62,72,24,34,87,87,62,62,18,27,3,3,0.4,0.6
2025-11-25T1700,2902A,106.6351,30.4865,广安市,北辰小学,颗粒物(PM10),65,79,71,26,30,98,98,68,68,9,17,14,11,0.4,0.6
2025-11-25T1700,2523A,105.8945,32.4535,广元市,黑石坡,,,,,,,,,,,,,,,,
2025-11-25T1700,2524A,105.821,32.4444,广元市,老城,颗粒物(PM10),52,54,52,32,21,49,49,28,28,27,40,7,4,0.6,0.6
2025-11-25T1700,2526A,105.8628,32.4287,广元市,监测站,颗粒物(PM10),53,55,46,34,22,30,30,23,23,39,28,8,7,0.8,0.7
2025-11-25T1700,3617A,105.8047,32.4166,广元市,经开区,颗粒物(PM10),71,92,76,43,30,27,27,16,16,37,40,12,16,0.8,0.8
2025-11-25T1700,1345A,113.2347,23.1423,广州市,广雅中学,,45,45,49,22,29,92,92,94,94,31,34,9,10,0.7,0.7
2025-11-25T1700,1346A,113.2612,23.105,广州市,市五中,,42,42,46,23,30,120,120,114,114,15,25,10,12,0.5,0.6
2025-11-25T1700,1348A,113.3478,23.0916,广州市,广东商学院,,41,41,45,20,26,111,111,108,108,12,18,6,9,0.4,0.6
2025-11-25T1700,1349A,113.4332,23.1047,广州市,市八十六中,,38,38,38,20,26,113,113,107,107,7,12,6,9,0.9,0.3
2025-11-25T1700,1350A,113.3505,22.9483,广州市,番禺中学,,45,45,48,20,26,111,111,108,108,15,20,5,7,0.2,0.3
2025-11-25T1700,1351A,113.2146,23.3916,广州市,花都师范,,44,44,42,19,24,116,116,104,104,16,19,7,9,0.2,0.2
2025-11-25T1700,1352A,113.2597,23.1331,广州市,市监测站,,43,43,49,21,29,112,112,108,108,17,27,8,10,0.3,0.3
2025-11-25T1700,1353A,113.5618,23.312,广州市,九龙镇镇龙,,45,45,45,24,27,97,97,95,94,12,14,6,8,0.3,0.4
2025-11-25T1700,1354A,113.2765,23.1544,广州市,麓湖,,,36,43,20,29,,,98,98,15,27,8,10,,0.6
2025-11-25T1700,1355A,113.443,23.3035,广州市,帽峰山森林公园,,,,,,,,,,,,,,,,
2025-11-25T1700,2846A,113.3221,23.1322,广州市,体育西,,41,41,46,20,29,105,105,103,103,15,22,9,12,0.5,0.6
2025-11-25T1700,3298A,113.5717,23.5491,广州市,从化街口,,43,43,40,23,26,107,107,103,103,10,12,7,9,0.4,0.6
2025-11-25T1700,3299A,113.3472,23.3692,广州市,白云竹料,,49,49,39,24,25,117,117,107,107,10,14,6,7,0.4,0.6
2025-11-25T1700,3300A,113.2981,23.237,广州市,白云嘉禾,,47,47,50,22,30,115,115,108,108,18,26,9,10,0.5,0.6
2025-11-25T1700,3301A,113.4256,23.1716,广州市,黄埔科学城,,42,42,43,23,28,114,114,112,112,10,12,7,9,0.3,0.5
2025-11-25T1700,3302A,113.3942,23.0483,广州市,番禺大学城,,42,42,42,18,26,120,120,122,122,9,17,11,14,0.3,0.4
2025-11-25T1700,3303A,113.4922,22.8168,广州市,南沙黄阁,,,53,54,22,25,118,118,115,115,,31,,11,0.7,0.8
2025-11-25T1700,3304A,113.5342,22.7896,广州市,南沙街,颗粒物(PM10),51,52,53,25,28,117,117,113,113,20,25,7,9,0.4,0.5
2025-11-25T1700,3443A,113.2902,23.5544,广州市,花都梯面,,41,41,37,22,24,110,110,103,103,14,12,7,10,0.4,0.4
2025-11-25T1700,3445A,113.7858,23.7478,广州市,从化良口,,38,38,36,22,22,111,111,104,104,9,11,8,10,0.5,0.6
2025-11-25T1700,3446A,113.8051,23.2614,广州市,增城荔城,,,,36,,23,111,111,109,109,9,13,6,9,,0.6
2025-11-25T1700,2505A,109.568,23.1478,贵港市,德智高中,,,,,,,,,,,,,,,,
2025-11-25T1700,2506A,109.6047,23.0666,贵港市,江南子站,,46,46,39,23,25,116,116,103,103,8,9,6,6,0.4,0.5
2025-11-25T1700,2508A,109.5669,23.1065,贵港市,荷城子站,颗粒物(PM10),52,53,38,22,19,106,106,94,94,13,11,5,5,0.4,0.5
2025-11-25T1700,3405A,109.5886,23.1172,贵港市,新世纪学校,颗粒物(PM10),54,58,42,27,24,116,116,105,105,6,6,6,6,0.3,0.3
2025-11-25T1700,4260A,109.5933,23.0951,贵港市,中山路155-3号,,43,43,37,25,26,116,116,102,102,8,8,6,6,0.3,0.3
2025-11-25T1700,1439A,106.6899,26.5998,贵阳市,马鞍山,,46,46,44,17,24,88,88,76,76,15,13,7,5,0.3,0.4
2025-11-25T1700,1441A,106.6243,26.6266,贵阳市,鉴湖路,颗粒物(PM10),54,58,53,19,21,102,102,88,88,24,17,6,4,0.4,0.4
2025-11-25T1700,1442A,106.7487,26.6343,贵阳市,燕子冲,,39,39,44,27,36,101,101,88,88,19,14,8,8,0.1,0.4
2025-11-25T1700,1443A,106.6555,26.4365,贵阳市,碧云窝,颗粒物(PM10),53,56,58,17,27,88,88,73,73,10,13,4,5,0.3,0.4
2025-11-25T1700,1445A,106.7109,26.6027,贵阳市,红边门,,,58,51,19,29,97,97,89,89,18,12,8,9,,0.5
2025-11-25T1700,1446A,106.7164,26.5699,贵阳市,新华路,颗粒物(PM10),58,66,60,27,31,110,110,98,98,19,16,29,22,0.0,0.1
2025-11-25T1700,1447A,106.674,26.5424,贵阳市,太慈桥,,,51,48,24,25,102,102,89,89,,17,8,6,0.2,0.2
2025-11-25T1700,1552A,106.805,26.3003,贵阳市,桐木岭,,44,44,60,19,36,111,111,96,96,8,6,28,25,0.7,0.8
2025-11-25T1700,4230A,106.6882,26.5695,贵阳市,花果园大街66号,,41,41,41,28,32,100,100,86,86,17,14,6,5,0.4,0.3
2025-11-25T1700,4231A,106.6873,26.5169,贵阳市,漓江路57号,,44,44,40,29,28,98,98,85,85,17,15,14,12,0.4,0.4
2025-11-25T1700,1862A,110.4144,25.3167,桂林市,电子科大尧山校区,,,,,,,,,,,,,,,,
2025-11-25T1700,1864A,110.3089,25.2708,桂林市,龙隐路小学,,41,41,54,19,29,93,93,87,87,8,13,7,9,0.3,0.4
2025-11-25T1700,1865A,110.2869,25.2178,桂林市,八中,,43,43,55,19,28,88,88,83,83,11,14,8,10,0.3,0.2
2025-11-25T1700,3531A,110.296,25.1253,桂林市,旅游学院,,46,46,59,12,25,101,101,97,97,6,12,4,7,0.2,0.2
2025-11-25T1700,4222A,110.1835,25.2444,桂林市,环湖路276号,,44,44,56,22,30,86,86,82,82,6,10,7,15,0.3,0.3
2025-11-25T1700,4301A,110.2803,25.2773,桂林市,信义路13号,颗粒物(PM10),52,54,55,14,25,91,91,85,85,9,12,7,11,0.3,0.4
2025-11-25T1700,2674A,100.2561,34.4714,果洛藏族自治州,玛沁县大武镇,,29,27,66,7,15,90,90,75,75,2,5,5,22,0.2,0.4
2025-11-25T1700,1129A,126.5422,45.755,哈尔滨市,岭北,,,,,,,,,,,,,,,,
2025-11-25T1700,1130A,126.561,45.8167,哈尔滨市,松北商大,细颗粒物(PM2.5),59,57,96,42,83,23,23,35,35,46,33,7,8,0.6,0.7
2025-11-25T1700,1131A,126.979,45.5419,哈尔滨市,阿城会宁,细颗粒物(PM2.5),149,151,106,114,90,54,54,42,42,31,36,12,10,0.9,1.1
2025-11-25T1700,1132A,126.599,45.7222,哈尔滨市,南岗学府路,细颗粒物(PM2.5),127,106,84,96,59,48,48,36,36,30,27,16,13,0.7,0.7
2025-11-25T1700,1133A,126.689,45.7733,哈尔滨市,太平宏伟公园,细颗粒物(PM2.5),62,62,82,44,56,19,19,29,29,49,28,18,11,0.7,0.8
2025-11-25T1700,1134A,126.635,45.7667,哈尔滨市,道外承德广场,颗粒物(PM10),56,62,98,37,54,34,34,38,38,40,28,12,12,0.3,0.4
2025-11-25T1700,1135A,126.685,45.7319,哈尔滨市,香坊红旗大街,细颗粒物(PM2.5),137,153,87,104,55,46,46,38,38,48,29,15,15,0.9,0.8
2025-11-25T1700,1136A,126.6411,45.7258,哈尔滨市,动力和平路,细颗粒物(PM2.5),156,,78,119,54,42,42,22,,,28,13,11,1.0,0.7
2025-11-25T1700,1137A,126.593,45.7478,哈尔滨市,道里建国路,细颗粒物(PM2.5),89,68,82,66,67,40,40,33,33,35,30,21,22,0.7,0.8
2025-11-25T1700,1138A,126.615,45.61,哈尔滨市,平房东轻厂,细颗粒物(PM2.5),155,155,104,118,82,49,49,37,37,30,45,10,15,0.8,0.9
2025-11-25T1700,1139A,126.595,45.9855,哈尔滨市,呼兰师专,细颗粒物(PM2.5),79,61,92,58,81,31,31,42,42,40,25,12,11,0.7,0.8
2025-11-25T1700,1140A,126.6206,45.6842,哈尔滨市,省农科院,细颗粒物(PM2.5),147,143,101,112,65,,,32,32,52,41,14,13,0.7,0.9
2025-11-25T1700,2688A,93.5128,42.8172,哈密市,地区监测站,颗粒物(PM10),77,103,95,50,38,58,58,46,46,18,29,14,10,0.2,0.4
2025-11-25T1700,2689A,93.4961,42.8328,哈密市,哈密师范学校,颗粒物(PM10),55,60,57,35,31,55,55,42,42,17,32,24,20,0.4,0.6
2025-11-25T1700,2671A,100.9048,36.9639,海北藏族自治州,海晏县西海镇,,43,43,20,17,12,87,87,74,74,1,4,9,9,0.4,0.4
2025-11-25T1700,3867A,102.0738,36.5056,海东市,平安区公安北苑,颗粒物(PM10),56,61,42,17,22,77,77,54,54,13,24,17,14,0.7,0.9
2025-11-25T1700,1409A,110.576,19.9507,海口市,东寨港,,,,,,,,,,,,,,,,
2025-11-25T1700,1410A,110.3232,20.0574,海口市,海南大学,,38,33,46,18,30,119,119,109,109,6,11,7,10,0.2,0.4
2025-11-25T1700,1411A,110.283,20.0053,海口市,秀英海南医院,,37,35,52,17,31,118,118,108,108,8,15,9,11,0.2,0.4
2025-11-25T1700,1412A,110.338,19.9969,海口市,海南师范大学,,40,34,50,17,31,127,127,115,115,8,12,7,9,0.3,0.5
2025-11-25T1700,1413A,110.33,20.0356,海口市,龙华路环保局宿舍,,39,35,50,17,31,122,122,112,112,8,13,9,11,0.3,0.6
2025-11-25T1700,3539A,110.5111,19.9736,海口市,桂林洋子站,,41,36,47,20,31,130,130,118,118,8,11,9,10,0.2,0.4
2025-11-25T1700,2673A,100.6188,36.2866,海南藏族自治州,共和县恰卜恰镇,细颗粒物(PM2.5),52,,41,36,26,93,93,81,81,8,24,11,11,0.4,0.5
2025-11-25T1700,2676A,97.3731,37.3753,海西蒙古族藏族自治州,德令哈市,,37,37,27,7,10,88,88,79,79,4,6,14,13,0.4,0.3
2025-11-25T1700,1048A,114.5302,36.6116,邯郸市,东污水处理厂,颗粒物(PM10),57,63,32,25,18,58,58,61,61,16,14,4,3,0.3,0.3
2025-11-25T1700,1049A,114.4918,36.5713,邯郸市,矿院,颗粒物(PM10),52,54,31,31,24,59,59,61,61,18,14,2,2,0.3,0.3
2025-11-25T1700,1050A,114.484,36.6133,邯郸市,丛台公园,颗粒物(PM10),58,66,29,27,13,58,58,60,60,14,14,2,3,0.2,0.2
2025-11-25T1700,3458A,114.7895,36.5593,邯郸市,香泉濮院小区,颗粒物(PM10),54,58,46,20,21,61,61,62,62,13,11,7,7,0.6,0.3
2025-11-25T1700,3579A,114.50634,36.77178,邯郸市,永年区实验高中,颗粒物(PM10),63,76,44,16,11,60,60,61,61,15,16,3,3,0.2,0.3
2025-11-25T1700,3580A,114.20016,36.44293,邯郸市,峰峰矿区临水派出所,颗粒物(PM10),56,61,34,36,18,69,69,70,70,18,15,5,6,0.4,0.4
2025-11-25T1700,2634A,106.9893,33.1842,汉中市,汉川机床厂子校,,,,,,,,,,,,,,,,
2025-11-25T1700,2635A,107.0154,33.0706,汉中市,市监测站,,,,61,,33,,,46,,,28,,6,,0.6
2025-11-25T1700,2636A,107.0089,33.1138,汉中市,鑫源开发区,颗粒物(PM10),56,61,60,32,32,82,82,62,62,14,26,6,7,0.6,0.7
2025-11-25T1700,2637A,107.007,33.0323,汉中市,南郑大河坎水厂,细颗粒物(PM2.5),59,64,53,42,30,75,75,54,54,18,19,11,8,0.5,0.6
2025-11-25T1700,1223A,120.2072,30.2111,杭州市,滨江,颗粒物(PM10),111,171,160,38,42,61,61,62,62,28,31,8,8,0.5,0.5
2025-11-25T1700,1224A,120.0633,30.2747,杭州市,西溪,颗粒物(PM10),101,151,120,31,37,66,66,65,65,15,24,9,9,0.1,0.3
2025-11-25T1700,1226A,120.3417,30.3150,杭州市,下沙,颗粒物(PM10),104,157,133,41,43,69,69,64,64,23,32,8,7,0.4,0.5
2025-11-25T1700,1227A,120.1269,30.2456,杭州市,卧龙桥,颗粒物(PM10),96,141,115,37,37,64,64,62,62,15,21,8,8,0.2,0.3
2025-11-25T1700,1228A,120.1903,30.2692,杭州市,浙江农大,,,141,124,47,43,68,68,61,61,,41,9,9,0.4,0.6
2025-11-25T1700,1230A,120.1197,30.3119,杭州市,和睦小学,颗粒物(PM10),95,140,132,35,42,68,68,63,63,19,32,10,10,0.6,0.7
2025-11-25T1700,1231A,120.3019,30.4183,杭州市,临平镇,颗粒物(PM10),101,152,164,30,32,69,69,64,64,17,27,8,8,0.4,0.5
2025-11-25T1700,1232A,120.2753,30.1839,杭州市,城厢镇,颗粒物(PM10),110,169,134,42,46,70,70,69,69,22,32,8,8,,0.3
2025-11-25T1700,1233A,120.0883,30.1808,杭州市,云栖,颗粒物(PM10),90,130,131,43,47,67,67,64,64,18,25,4,5,0.4,0.5
2025-11-25T1700,3557A,119.9464,30.0494,杭州市,镇二中,颗粒物(PM10),85,120,102,24,48,67,67,60,60,17,42,6,7,0.7,0.9
2025-11-25T1700,3558A,119.7183,30.2367,杭州市,市府大楼,颗粒物(PM10),106,162,129,38,47,71,71,68,68,14,30,10,11,0.4,0.9
2025-11-25T1700,3656A,120.1556,30.2864,杭州市,消防大队,颗粒物(PM10),103,156,130,36,40,67,67,63,63,19,29,10,10,0.2,0.3
2025-11-25T1700,1270A,117.1959,31.7848,合肥市,明珠广场,颗粒物(PM10),67,83,170,27,33,60,60,51,51,26,22,8,8,0.4,0.5
2025-11-25T1700,1271A,117.3072,31.8764,合肥市,三里街,颗粒物(PM10),64,78,164,14,31,64,64,52,52,22,27,5,7,0.4,0.5
2025-11-25T1700,1272A,117.2588,31.8707,合肥市,琥珀山庄,颗粒物(PM10),73,95,181,36,35,71,71,56,56,15,18,7,7,0.3,0.3
2025-11-25T1700,1273A,117.1604,31.9052,合肥市,董铺水库,,,,,,,,,,,,,,,,
2025-11-25T1700,1274A,117.25,31.8571,合肥市,长江中路,颗粒物(PM10),78,105,169,26,29,69,69,55,55,18,18,8,8,0.3,0.4
2025-11-25T1700,1275A,117.266,31.9436,合肥市,庐阳区,颗粒物(PM10),69,88,168,22,34,69,69,56,56,18,21,5,5,0.4,0.4
2025-11-25T1700,1276A,117.3453,31.8616,合肥市,瑶海区,,,90,178,20,29,63,63,54,54,22,24,5,6,,0.2
2025-11-25T1700,1277A,117.3027,31.7964,合肥市,包河区,颗粒物(PM10),65,80,170,22,32,57,57,51,51,23,22,6,6,0.5,0.5
2025-11-25T1700,1278A,117.2776,31.7385,合肥市,滨湖新区,颗粒物(PM10),81,112,196,31,41,64,64,54,54,20,28,5,5,0.5,0.5
2025-11-25T1700,1279A,117.1318,31.8403,合肥市,高新区,颗粒物(PM10),73,95,171,27,30,79,79,62,62,22,24,5,5,0.5,0.6
2025-11-25T1700,3464A,117.3803,31.9147,合肥市,高教基地,颗粒物(PM10),71,92,174,24,26,63,63,59,59,21,22,6,6,0.3,0.3
2025-11-25T1700,3614A,79.924,37.0877,和田地区,地区环保局,颗粒物(PM10),97,144,178,55,53,100,100,69,66,19,26,6,8,1.2,1.3
2025-11-25T1700,3615A,79.9131,37.113,和田地区,市环保局,颗粒物(PM10),94,137,172,62,60,113,113,71,71,17,53,2,5,0.9,1.6
2025-11-25T1700,2516A,108.2011,24.715,河池市,东仁乐园,,,,,,,,,,,,,,,,
2025-11-25T1700,2517A,108.0497,24.6947,河池市,市环保站,,,43,39,21,26,79,79,76,76,8,17,,3,0.4,0.6
2025-11-25T1700,2518A,108.0983,24.6989,河池市,市疾控中心,,31,31,42,21,29,82,82,79,79,10,24,5,5,0.4,0.6
2025-11-25T1700,1696A,114.6778,23.7569,河源市,源西,,,,,,,,,,,,,,,,
2025-11-25T1700,1697A,114.6944,23.7586,河源市,东埔,,,48,43,28,29,106,106,108,108,9,12,,10,,0.3
2025-11-25T1700,1698A,114.6892,23.7233,河源市,老城,颗粒物(PM10),52,54,47,23,25,110,110,106,106,7,10,7,9,0.4,0.5
2025-11-25T1700,1718A,115.4208,35.2464,菏泽市,气象局,颗粒物(PM10),80,110,97,29,22,69,69,66,66,17,17,3,3,0.4,0.4
2025-11-25T1700,3374A,115.5564,35.0891,菏泽市,定陶老年大学,颗粒物(PM10),65,80,80,24,16,66,66,62,62,24,23,3,4,0.1,0.1
2025-11-25T1700,4184A,115.4797,35.24401,菏泽市,永昌路1号,颗粒物(PM10),71,91,94,30,23,54,54,52,52,22,20,2,3,0.3,0.3
2025-11-25T1700,4193A,115.4715,35.2800,菏泽市,长城路999号,颗粒物(PM10),78,106,97,18,18,64,64,60,60,19,19,1,10,0.2,0.5
2025-11-25T1700,2514A,111.5264,24.4172,贺州市,环保小区,颗粒物(PM10),58,65,49,25,33,103,103,99,99,10,17,5,7,0.4,0.6
2025-11-25T1700,2515A,111.5608,24.4078,贺州市,政协大楼,颗粒物(PM10),54,58,52,27,32,92,92,91,91,9,23,7,8,0.8,1
2025-11-25T1700,3534A,111.4744,24.4553,贺州市,西湾,颗粒物(PM10),56,62,49,24,29,90,90,88,88,12,14,6,6,0.3,0.5
2025-11-25T1700,2385A,114.17,35.9019,鹤壁市,市监测站,颗粒物(PM10),68,86,61,30,15,66,66,58,58,19,16,6,5,0.4,0.4
2025-11-25T1700,2386A,114.2956,35.7511,鹤壁市,市交警支队,颗粒物(PM10),70,90,63,17,13,57,57,47,47,19,19,5,4,0.5,0.5
2025-11-25T1700,2387A,114.2878,35.7306,鹤壁市,迎宾馆,颗粒物(PM10),76,102,73,31,16,66,66,57,57,19,18,6,6,0.5,0.5
2025-11-25T1700,3474A,114.2617,35.6822,鹤壁市,大新区,颗粒物(PM10),73,95,71,29,16,62,62,58,58,26,17,5,4,0.4,0.4
2025-11-25T1700,3596A,114.1572,35.9603,鹤壁市,南山宾馆,颗粒物(PM10),75,100,72,20,16,65,65,61,61,19,9,5,4,0.4,0.4
2025-11-25T1700,2244A,130.2537,47.3416,鹤岗市,哈啤分公司,颗粒物(PM10),53,56,26,19,11,42,42,62,51,18,8,12,13,0.6,0.5
2025-11-25T1700,2245A,130.2684,47.3086,鹤岗市,斯达机电,颗粒物(PM10),51,51,28,23,14,44,44,59,54,20,11,16,12,0.8,0.8
2025-11-25T1700,2246A,130.3114,47.3388,鹤岗市,东山纸板厂,,,,51,30,12,18,18,56,50,44,16,13,16,0.9,0.9
2025-11-25T1700,2247A,130.1097,47.3382,鹤岗市,五号水库,,,,,,,,,,,,,,,,
2025-11-25T1700,2263A,127.4833,50.2524,黑河市,交通局,,,37,26,26,18,36,36,42,37,17,18,4,4,,0.6
2025-11-25T1700,2264A,127.5144,50.2341,黑河市,环保局,,35,35,41,19,20,30,30,29,29,22,30,8,12,0.5,0.6
2025-11-25T1700,2265A,127.5291,50.2472,黑河市,大黑河岛,,,,,,,,,,,,,,,,
2025-11-25T1700,1074A,115.6838,37.7541,衡水市,电机北厂,颗粒物(PM10),52,53,39,22,13,54,54,52,52,17,14,3,4,0.3,0.2
2025-11-25T1700,1075A,115.6303,37.7316,衡水市,市监测站,颗粒物(PM10),52,54,30,16,10,51,51,54,54,20,16,9,9,0.3,0.3
2025-11-25T1700,3188A,115.6683,37.7217,衡水市,市城管局,颗粒物(PM10),56,62,35,27,12,54,54,51,51,18,19,4,4,0.4,0.3
2025-11-25T1700,3459A,115.5989,37.5491,衡水市,地表水厂,颗粒物(PM10),52,54,36,17,11,56,56,58,58,17,17,7,7,0.3,0.3
2025-11-25T1700,2456A,112.5003,26.9167,衡阳市,原169医院,,,,,,,,,,,,,,,,
2025-11-25T1700,2457A,112.6194,26.9258,衡阳市,衡阳化工总厂,颗粒物(PM10),58,66,59,14,24,94,94,86,86,15,17,6,8,0.7,0.7
2025-11-25T1700,2458A,112.6211,26.8956,衡阳市,珠晖区环保局,,45,45,53,20,29,84,84,79,79,16,24,4,4,0.7,0.8
2025-11-25T1700,2459A,112.6197,26.8733,衡阳市,市委党校,颗粒物(PM10),56,61,49,16,23,90,90,83,83,10,12,12,12,0.7,0.7
2025-11-25T1700,2460A,112.6006,26.8919,衡阳市,市监测站,颗粒物(PM10),58,65,67,16,28,91,91,84,84,15,19,6,8,0.7,0.8
2025-11-25T1700,2461A,112.5664,26.9056,衡阳市,真空机电公司,,,60,67,15,23,84,84,77,77,14,17,,10,,0.7
2025-11-25T1700,3399A,112.6703,26.882,衡阳市,师范学院,,,57,56,18,22,,,85,85,16,17,10,11,,0.7
2025-11-25T1700,2608A,103.3772,23.3993,红河哈尼族彝族自治州,污水处理厂,颗粒物(PM10),64,78,44,30,34,115,115,103,103,8,9,11,6,0.2,0.3
2025-11-25T1700,2609A,103.3861,23.35,红河哈尼族彝族自治州,监测站,,45,45,47,21,33,118,118,102,102,6,7,9,8,0.2,0.2
2025-11-25T1700,3038A,103.3758,23.368,红河哈尼族彝族自治州,州图书馆,,36,32,32,20,25,114,114,101,101,6,6,10,7,0.3,0.4
2025-11-25T1700,1090A,111.6507,40.7517,呼和浩特市,呼市一监,颗粒物(PM10),71,92,60,30,24,25,25,33,33,45,31,26,10,0.7,0.5
2025-11-25T1700,1091A,111.6572,40.8033,呼和浩特市,小召,颗粒物(PM10),73,95,53,28,16,19,19,29,29,56,34,26,11,0.8,0.5
2025-11-25T1700,1094A,111.7516,40.8369,呼和浩特市,如意水处理厂,颗粒物(PM10),68,85,49,29,18,28,28,34,34,44,32,18,10,0.8,0.6
2025-11-25T1700,1095A,111.7276,40.8062,呼和浩特市,二十九中,细颗粒物(PM2.5),73,87,52,53,20,33,33,36,36,43,29,24,13,0.7,0.6
2025-11-25T1700,1096A,111.5512,40.7866,呼和浩特市,工大金川校区,颗粒物(PM10),66,82,51,25,17,34,34,35,35,43,34,16,12,0.5,0.4
2025-11-25T1700,1097A,111.717,40.7612,呼和浩特市,化肥厂生活区,颗粒物(PM10),73,95,61,30,21,29,29,35,35,49,35,17,9,0.7,0.6
2025-11-25T1700,3698A,111.5968,40.8178,呼和浩特市,红旗小学,颗粒物(PM10),65,80,40,22,15,45,45,35,35,46,45,15,12,0.4,0.3
2025-11-25T1700,3699A,111.6518,40.8389,呼和浩特市,海东办,颗粒物(PM10),67,83,48,28,17,32,32,31,31,41,32,14,9,0.4,0.3
2025-11-25T1700,3061A,119.7512,49.1577,呼伦贝尔市,国华电力东,,33,33,19,16,11,42,42,54,53,19,9,8,8,0.4,0.3
2025-11-25T1700,4279A,119.7569,49.2222,呼伦贝尔市,伊敏大街东7号,,36,36,23,16,13,48,48,54,54,10,4,6,6,0.5,0.5
2025-11-25T1700,1250A,120.0751,30.8669,湖州市,城西水厂,颗粒物(PM10),104,158,161,36,41,62,62,62,62,29,37,10,11,0.4,0.5
2025-11-25T1700,2873A,120.0830,30.8929,湖州市,仁皇山新区,颗粒物(PM10),81,112,146,24,39,76,76,65,65,16,29,9,10,0.2,0.4
2025-11-25T1700,2907A,120.1844,30.8596,湖州市,吴兴区站,颗粒物(PM10),76,102,114,24,38,58,58,58,58,25,24,9,9,0.9,1
2025-11-25T1700,3562A,120.4148,30.8538,湖州市,南浔区站,颗粒物(PM10),72,94,110,24,35,64,64,63,63,30,33,6,7,0.4,0.5
2025-11-25T1700,1607A,120.9049,40.7211,葫芦岛市,龙港区,,20,20,48,8,37,59,59,59,59,13,16,8,9,0.4,0.5
2025-11-25T1700,1608A,120.8392,40.7514,葫芦岛市,化工街,,19,19,35,3,21,49,49,54,54,21,16,12,10,0.3,0.3
2025-11-25T1700,1609A,120.8341,40.7073,葫芦岛市,新区,,34,34,49,9,30,54,54,56,56,19,16,7,7,0.5,0.6
2025-11-25T1700,1610A,120.8695,40.7677,葫芦岛市,东城区,,18,,38,12,29,50,50,58,58,27,15,7,7,0.6,0.6
2025-11-25T1700,2482A,109.5981,27.5721,怀化市,林科所,,,,,,,,,,,,,,,,
2025-11-25T1700,2483A,109.9453,27.5444,怀化市,河西地税局,颗粒物(PM10),53,56,45,14,24,86,86,76,76,9,14,5,5,0.2,0.3
2025-11-25T1700,2484A,109.9781,27.5342,怀化市,市四医院,颗粒物(PM10),51,51,56,6,26,94,94,83,83,6,15,8,10,0.3,0.5
2025-11-25T1700,2485A,109.9972,27.5578,怀化市,监测楼,,45,45,50,27,25,87,87,74,74,8,16,3,3,0.0,0.1
2025-11-25T1700,2486A,110.0394,27.583,怀化市,市委党校,,,94,57,29,32,89,89,80,80,2,17,11,14,,0.3
2025-11-25T1700,1210A,119.036,33.5981,淮安市,钵池山,,39,39,118,23,41,66,66,64,64,12,14,8,9,0.3,0.4
2025-11-25T1700,1211A,119.007,33.575,淮安市,北京南路,,46,46,130,23,35,64,64,30,,18,18,7,8,0.3,0.4
2025-11-25T1700,1212A,118.989,33.6067,淮安市,市监测站,,41,41,124,12,24,65,65,66,66,21,24,8,9,0.4,0.5
2025-11-25T1700,1213A,119.135,33.5039,淮安市,楚州区监测站,,39,39,130,12,22,60,60,60,60,19,21,9,10,0.4,0.5
2025-11-25T1700,3426A,118.8755,33.2894,淮安市,新华书店,,44,44,126,15,23,58,58,53,53,18,18,9,10,0.4,0.4
2025-11-25T1700,4206A,119.0288,33.6319,淮安市,承德北路606号,,44,44,131,20,36,66,66,65,65,12,16,7,8,0.6,0.5
2025-11-25T1700,2282A,116.8004,33.975,淮北市,监测站,颗粒物(PM10),55,60,130,27,25,65,65,64,64,25,22,7,7,0.3,0.2
2025-11-25T1700,2283A,116.8091,33.9007,淮北市,烈山区政府,颗粒物(PM10),60,70,136,22,25,68,68,64,64,26,26,9,10,0.3,0.3
2025-11-25T1700,3330A,116.8873,33.9836,淮北市,杜集区检察院,颗粒物(PM10),61,71,148,25,25,68,68,64,64,19,19,4,4,0.2,0.2
2025-11-25T1700,4017A,116.7923,33.9535,淮北市,市博物馆,颗粒物(PM10),56,61,140,19,24,66,66,62,62,19,19,10,11,0.1,0.1
2025-11-25T1700,2277A,116.8305,32.7727,淮南市,潘集区政府,颗粒物(PM10),75,100,182,31,40,66,66,59,59,17,22,6,5,0.5,0.5
2025-11-25T1700,2279A,116.8569,32.5951,淮南市,谢家集区政府,颗粒物(PM10),78,105,166,17,22,58,58,57,57,22,17,7,7,0.4,0.5
2025-11-25T1700,2280A,116.8281,32.633,淮南市,八公山区政府,颗粒物(PM10),69,88,147,22,23,56,56,58,58,19,15,5,5,0.4,0.4
2025-11-25T1700,2281A,116.6325,32.6201,淮南市,焦岗湖风景区管理处,,,,,,,,,,,,,,,,
2025-11-25T1700,2894A,117.0566,32.6531,淮南市,经济技术开发区消防队,颗粒物(PM10),75,100,189,32,37,63,63,58,58,26,23,9,10,0.3,0.3
2025-11-25T1700,3329A,117.0108,32.5893,淮南市,山南新区,颗粒物(PM10),75,99,204,22,34,64,64,61,61,22,25,3,4,0.3,0.3
2025-11-25T1700,4209A,117.0031,32.6445,淮南市,国庆中路369号,颗粒物(PM10),71,91,134,30,35,61,61,52,52,19,20,3,3,0.5,0.4
2025-11-25T1700,2446A,114.9028,30.4742,黄冈市,职工中心,颗粒物(PM10),58,65,90,23,29,82,82,76,76,15,15,5,5,0.4,0.3
2025-11-25T1700,2929A,114.8858,30.4519,黄冈市,红卫路,颗粒物(PM10),57,63,84,19,31,76,76,73,73,17,14,7,6,0.3,0.2
2025-11-25T1700,3398A,114.9136,30.4445,黄冈市,市林业局,颗粒物(PM10),68,86,115,17,27,84,84,78,78,9,11,4,4,0.7,0.6
2025-11-25T1700,2672A,102.0199,35.5102,黄南藏族自治州,同仁县隆务镇,颗粒物(PM10),71,91,52,21,19,72,72,62,62,11,7,10,10,0.4,0.3
2025-11-25T1700,2295A,118.2903,29.6963,黄山市,延安路89号,颗粒物(PM10),101,152,78,53,46,88,88,78,78,13,14,5,4,0.3,0.5
2025-11-25T1700,2297A,118.1371,30.2756,黄山市,黄山区政府5号楼,颗粒物(PM10),88,125,136,31,45,74,74,74,74,12,9,6,6,0.6,0.6
2025-11-25T1700,4210A,118.3354,29.7203,黄山市,滨江东路7-2号,颗粒物(PM10),107,163,104,55,57,87,87,71,71,,19,4,4,0.3,0.5
2025-11-25T1700,2423A,115.0601,30.2313,黄石市,沈家营,颗粒物(PM10),68,85,112,20,29,72,72,72,72,13,6,25,8,0.7,0.8
2025-11-25T1700,2426A,114.8988,30.2019,黄石市,铁山,颗粒物(PM10),74,98,114,39,51,59,59,62,62,28,19,6,6,0.9,0.7
2025-11-25T1700,2427A,115.0307,30.2092,黄石市,团城山,颗粒物(PM10),60,70,112,12,24,85,85,76,76,8,10,6,6,0.1,0.2
2025-11-25T1700,3149A,115.0235,30.1578,黄石市,笔架山北路,颗粒物(PM10),85,120,168,21,29,69,69,67,67,12,13,9,9,0.6,0.6
2025-11-25T1700,4185A,115.0780,30.21118,黄石市,磁湖东路29号,颗粒物(PM10),65,80,111,26,31,65,65,69,69,13,7,10,9,0.4,0.4
2025-11-25T1700,1392A,114.4183,23.0528,惠州市,河南岸金山湖子站,,50,50,50,26,26,98,98,100,100,22,23,8,8,0.4,0.5
2025-11-25T1700,1393A,114.4053,23.0822,惠州市,下埔横江三路子站,,48,48,51,21,29,118,118,114,114,8,13,7,9,0.5,0.6
2025-11-25T1700,1394A,114.4103,23.1142,惠州市,江北云山西路子站,,47,47,45,22,27,123,123,121,121,12,14,7,7,0.4,0.5
2025-11-25T1700,1395A,114.4645,22.7833,惠州市,惠阳区承修路船湖子站,,47,47,56,22,28,112,112,110,110,12,18,7,8,0.3,0.5
2025-11-25T1700,1396A,114.5317,22.7422,惠州市,大亚湾管委会子站,,44,44,46,21,24,109,109,110,107,10,14,6,8,0.7,0.6
2025-11-25T1700,3314A,114.4338,22.8134,惠州市,惠阳秋长,颗粒物(PM10),58,66,59,23,27,118,118,116,115,12,15,12,13,0.3,0.3
2025-11-25T1700,3452A,114.6517,22.775,惠州市,大亚湾霞涌,,,38,49,21,26,107,107,106,105,,12,7,9,0.5,0.5
2025-11-25T1700,2240A,130.9762,45.3001,鸡西市,环保局,,30,30,39,12,26,38,38,41,41,22,18,9,9,0.5,0.7
2025-11-25T1700,2243A,130.9429,45.3039,鸡西市,第一中学,,29,29,33,12,20,40,40,44,44,22,18,10,9,0.3,0.3
2025-11-25T1700,3707A,131.0207,45.3073,鸡西市,欧美日汽修厂,细颗粒物(PM2.5),59,50,50,42,33,22,22,37,37,35,20,19,13,0.9,0.8
2025-11-25T1700,3709A,130.9967,45.3106,鸡西市,市政设施管理处,,31,31,45,14,24,52,52,59,59,23,20,14,11,1.1,0.9
2025-11-25T1700,2367A,114.9754,27.0803,吉安市,红声器材厂,颗粒物(PM10),80,110,75,25,28,90,90,83,83,12,18,10,12,0.6,0.7
2025-11-25T1700,2368A,114.9658,27.0999,吉安市,市森林工业局,颗粒物(PM10),84,117,76,27,29,85,85,75,75,11,16,8,10,0.2,0.4
2025-11-25T1700,2369A,114.99,27.1312,吉安市,市环境监测站,颗粒物(PM10),76,102,71,24,31,84,84,77,77,10,17,15,19,0.3,0.5
2025-11-25T1700,2370A,115.0093,27.0968,吉安市,青原区法院,颗粒物(PM10),76,102,77,24,35,86,86,76,76,14,23,10,13,0.5,0.7
2025-11-25T1700,1772A,126.54,43.8622,吉林市,哈达湾,"颗粒物(PM10),细颗粒物(PM2.5)",500,631,1315,570,1107,55,55,73,56,64,64,11,14,1.9,2.6
2025-11-25T1700,1773A,126.5844,43.8358,吉林市,东局子,细颗粒物(PM2.5),500,,1136,724,959,46,46,46,46,46,59,10,12,1.9,2.8
2025-11-25T1700,1774A,126.5052,43.8245,吉林市,电力学院,细颗粒物(PM2.5),435,485,1610,402,1258,35,35,53,53,66,62,15,12,1.8,2.4
2025-11-25T1700,1775A,126.6133,43.8972,吉林市,江北,"颗粒物(PM10),细颗粒物(PM2.5)",500,968,1329,842,1175,30,30,39,39,80,67,11,9,2.3,2.4
2025-11-25T1700,1776A,126.555,43.8306,吉林市,江南公园,"颗粒物(PM10),细颗粒物(PM2.5)",500,712,1618,550,1251,71,71,58,58,39,66,7,10,1.3,2.6
2025-11-25T1700,1778A,126.7061,43.7133,吉林市,丰满,细颗粒物(PM2.5),472,,1210,458,1328,64,64,55,55,23,54,10,12,1.2,2.2
2025-11-25T1700,2868A,126.4739,43.953,吉林市,九站,细颗粒物(PM2.5),322,359,1321,272,1090,48,48,60,58,60,63,4,9,1.4,2.4
2025-11-25T1700,1299A,116.9862,36.6114,济南市,科干所,颗粒物(PM10),51,51,50,12,11,62,62,63,63,15,12,12,8,0.5,0.4
2025-11-25T1700,1300A,116.9376,36.665,济南市,农科所,颗粒物(PM10),53,56,54,7,6,55,55,59,59,21,15,12,8,0.6,0.4
2025-11-25T1700,1301A,117.1265,36.6734,济南市,开发区,,46,46,55,15,13,67,67,65,65,11,13,6,4,0.6,0.5
2025-11-25T1700,1303A,117.0624,36.6868,济南市,省种子仓库,颗粒物(PM10),52,53,61,14,9,56,56,60,60,23,14,9,7,0.5,0.4
2025-11-25T1700,1304A,116.9489,36.6447,济南市,机床二厂,颗粒物(PM10),59,68,64,12,13,50,50,56,56,30,20,14,9,0.4,0.2
2025-11-25T1700,1305A,117.0495,36.663,济南市,市监测站,,46,46,58,12,9,59,59,61,61,17,13,6,3,0.3,0.2
2025-11-25T1700,1306A,116.7675,36.5484,济南市,长清党校,,49,49,58,17,8,56,56,60,60,18,16,10,7,0.6,0.5
2025-11-25T1700,1616A,117.6795,36.229,济南市,技术学院,,39,39,74,14,11,63,63,63,63,20,18,11,10,0.6,0.5
2025-11-25T1700,1961A,117.532,36.6868,济南市,东山小学,,49,49,69,7,13,66,66,70,70,17,10,8,8,0.5,0.4
2025-11-25T1700,3059A,117.7161,36.2049,济南市,泰兴公司,,34,34,76,17,13,63,63,61,61,15,13,7,5,0.1,0.1
2025-11-25T1700,3064A,117.6867,36.2171,济南市,莱芜战役纪念馆,,41,41,69,19,16,63,63,65,65,17,15,17,16,0.8,0.7
2025-11-25T1700,3494A,117.1673,36.9782,济南市,济阳区政府,颗粒物(PM10),51,51,59,10,10,55,55,58,58,22,14,7,10,0.4,0.3
2025-11-25T1700,3495A,117.1171,36.63,济南市,锦屏中学,,42,42,54,7,6,64,64,67,67,15,17,7,5,0.5,0.4
2025-11-25T1700,3682A,116.9814,36.6819,济南市,济南四建,,46,46,53,15,10,54,54,57,57,19,17,9,6,0.7,0.5
2025-11-25T1700,1653A,116.6251,35.4302,济宁市,火炬城,颗粒物(PM10),54,58,76,17,18,71,71,63,63,14,13,7,6,0,0
2025-11-25T1700,1655A,116.5491,35.4042,济宁市,电化厂,颗粒物(PM10),63,76,103,19,19,64,64,60,60,23,20,6,4,0,0
2025-11-25T1700,3500A,116.5814,35.3707,济宁市,北湖一中,颗粒物(PM10),51,51,69,21,19,67,67,60,60,16,16,5,4,0.3,0.3
2025-11-25T1700,3501A,116.8249,35.5593,济宁市,服务中心,颗粒物(PM10),71,92,105,16,14,53,53,52,52,21,19,7,7,0.0,0
2025-11-25T1700,3678A,116.5907,35.4054,济宁市,市第七中学,颗粒物(PM10),57,64,81,12,11,72,72,65,65,19,18,5,5,0.2,0.2
2025-11-25T1700,2255A,130.2751,46.8028,佳木斯市,佳纺,,50,50,51,27,24,6,6,27,24,58,27,7,6,0.8,0.5
2025-11-25T1700,2256A,130.3995,46.8307,佳木斯市,发电厂,颗粒物(PM10),58,66,38,14,13,20,20,38,38,34,17,6,5,0.4,0.3
2025-11-25T1700,2257A,130.3258,46.7975,佳木斯市,环保局,,34,34,35,17,18,22,22,30,30,39,23,4,4,0.5,0.5
2025-11-25T1700,2258A,130.3648,46.8032,佳木斯市,十一中,,34,34,27,18,15,20,20,31,31,43,23,8,8,0.6,0.5
2025-11-25T1700,2259A,130.3794,46.7588,佳木斯市,四丰,,,,,,,,,,,,,,,,
2025-11-25T1700,1252A,120.7436,30.778,嘉兴市,清河小学,颗粒物(PM10),88,125,139,27,34,61,61,60,60,17,23,5,5,0.7,0.8
2025-11-25T1700,1253A,120.726,30.7478,嘉兴市,嘉兴学院,颗粒物(PM10),77,103,108,24,32,62,62,62,62,24,34,8,8,0.3,0.3
2025-11-25T1700,2872A,120.7846,30.7525,嘉兴市,南湖区残联,颗粒物(PM10),83,115,113,35,36,69,69,67,67,26,29,8,9,0.2,0.2
2025-11-25T1700,3407A,120.6916,30.7739,嘉兴市,秀洲住建,颗粒物(PM10),84,118,123,31,38,62,62,67,67,25,31,7,8,0.3,0.4
2025-11-25T1700,1945A,98.2908,39.7711,嘉峪关市,气象局,颗粒物(PM10),151,251,125,24,18,90,90,89,89,4,10,3,5,0.5,0.6
2025-11-25T1700,2884A,98.2672,39.7978,嘉峪关市,酒钢宾馆,颗粒物(PM10),100,149,118,19,17,81,81,88,88,12,9,40,13,0.4,0.3
2025-11-25T1700,3248A,98.2643,39.7724,嘉峪关市,雄关区,颗粒物(PM10),103,155,92,28,22,86,86,84,84,9,15,8,11,0.5,0.5
2025-11-25T1700,1383A,113.1064,22.6058,江门市,北街,,37,35,50,22,29,117,117,114,114,20,27,8,10,0.4,0.5
2025-11-25T1700,1384A,113.0731,22.5835,江门市,西区,颗粒物(PM10),72,93,60,19,23,116,116,112,112,21,25,7,9,0.4,0.5
2025-11-25T1700,1385A,113.0219,22.5311,江门市,圭峰西,,38,37,44,20,31,119,119,114,114,17,19,6,8,0.3,0.3
2025-11-25T1700,1386A,113.0828,22.5947,江门市,东湖,,49,49,45,22,28,116,116,113,113,20,24,10,11,0.3,0.5
2025-11-25T1700,3311A,113.1075,22.5647,江门市,江海富民,,45,45,53,25,26,121,121,115,115,22,27,11,14,0.5,0.5
2025-11-25T1700,3449A,113.05,22.4667,江门市,新会银湖,颗粒物(PM10),51,52,49,23,30,105,105,104,104,23,23,7,9,0.2,0.4
2025-11-25T1700,1830A,113.1992,35.2590,焦作市,影视城,,,,73,,18,,,68,,,13,,11,,0.2
2025-11-25T1700,3335A,113.3137,35.2641,焦作市,马村街道办,颗粒物(PM10),69,88,85,31,22,67,67,62,62,11,7,6,6,0.3,0.3
2025-11-25T1700,3336A,113.2465,35.2373,焦作市,焦作技师学院,颗粒物(PM10),64,77,82,19,18,66,66,60,60,18,12,5,5,0.4,0.4
2025-11-25T1700,3477A,113.1656,35.2539,焦作市,中站许衡医院,颗粒物(PM10),70,89,91,31,26,64,64,61,61,26,13,10,6,0.4,0.3
2025-11-25T1700,3981A,113.2449,35.1803,焦作市,原李万街道办,颗粒物(PM10),72,93,107,34,20,60,60,52,52,15,9,6,6,0.4,0.4
2025-11-25T1700,4264A,113.2340,35.2190,焦作市,新安路1731号,颗粒物(PM10),59,67,111,24,24,64,64,58,58,22,16,10,11,0.3,0.4
2025-11-25T1700,4295A,113.2722,35.2121,焦作市,人民路3066号,颗粒物(PM10),69,88,97,18,15,59,59,54,54,14,7,4,6,0.3,0.3
2025-11-25T1700,1708A,116.3701,23.5345,揭阳市,新兴,,29,27,44,20,31,91,91,93,93,9,18,9,11,0.3,0.5
2025-11-25T1700,1709A,116.3264,23.5443,揭阳市,西马,,33,33,49,17,25,75,75,79,75,16,17,4,5,0.3,0.5
2025-11-25T1700,1710A,116.3611,23.5626,揭阳市,东兴,,29,22,47,18,24,90,90,91,91,10,24,7,9,0.2,0.5
2025-11-25T1700,1711A,116.4151,23.5294,揭阳市,渔湖,,40,40,44,13,23,86,86,88,88,14,16,5,7,0.4,0.6
2025-11-25T1700,3320A,116.403,23.5699,揭阳市,曲溪,,38,38,45,15,30,97,97,99,99,12,18,4,3,0.4,0.5
2025-11-25T1700,1944A,102.1692,38.5167,金昌市,天庆家园,,,,108,10,34,77,77,62,62,4,25,,22,0.4,0.8
2025-11-25T1700,4022A,102.1647,38.5371,金昌市,金川区人防中心,颗粒物(PM10),124,197,88,21,39,88,88,72,72,2,14,1,20,0.5,0.6
2025-11-25T1700,4239A,102.1930,38.5319,金昌市,长春路96号,颗粒物(PM10),87,123,106,22,47,82,82,61,61,2,29,4,49,0.4,1.1
2025-11-25T1700,1262A,119.647,29.077,金华市,十五中,颗粒物(PM10),108,165,95,32,35,89,89,81,81,21,34,4,5,0.4,0.5
2025-11-25T1700,1263A,119.686,29.1029,金华市,监测站,颗粒物(PM10),102,153,86,37,37,84,84,72,72,17,35,4,4,0.3,0.4
2025-11-25T1700,3659A,119.656,29.1131,金华市,气象局,颗粒物(PM10),104,158,90,29,36,76,76,69,69,27,48,5,5,0.2,0.3
2025-11-25T1700,1767A,121.1115,41.0879,锦州市,南山,,28,28,37,19,14,55,55,64,64,22,13,9,9,0.6,0.6
2025-11-25T1700,1768A,121.0604,40.8428,锦州市,开发区,,38,38,55,12,16,47,47,57,57,26,16,9,13,0.4,0.6
2025-11-25T1700,1769A,121.1836,41.1119,锦州市,百股街道,,25,24,31,17,10,51,51,60,60,21,10,12,12,0.7,0.6
2025-11-25T1700,1770A,121.1178,41.1222,锦州市,天安街道,,,33,35,,16,54,54,63,63,18,7,11,10,0.7,0.5
2025-11-25T1700,1771A,121.1303,41.1386,锦州市,北湖公园,,32,32,32,10,9,51,51,61,61,21,11,10,10,0.5,0.5
2025-11-25T1700,2160A,112.85,35.5051,晋城市,自来水公司,颗粒物(PM10),72,93,90,19,16,75,75,66,66,23,20,13,7,0.5,0.5
2025-11-25T1700,2161A,112.8318,35.4936,晋城市,白云商贸,颗粒物(PM10),86,122,96,17,13,60,60,57,57,28,19,8,3,0.5,0.5
2025-11-25T1700,2162A,112.8508,35.4887,晋城市,市环保局,颗粒物(PM10),79,107,98,27,17,67,67,64,64,15,14,11,4,0.4,0.6
2025-11-25T1700,2163A,112.8676,35.4897,晋城市,技术学院,颗粒物(PM10),73,96,93,27,18,61,61,56,56,24,21,12,6,0.4,0.4
2025-11-25T1700,2165A,112.8453,35.546,晋城市,白马寺,颗粒物(PM10),56,61,87,18,23,78,78,68,68,14,9,11,8,0.4,0.4
2025-11-25T1700,3620A,112.8271,35.4828,晋城市,泽州一中,颗粒物(PM10),64,78,101,27,20,71,71,62,62,22,16,10,4,0.4,0.4
2025-11-25T1700,2173A,112.7249,37.7067,晋中市,南都小区,颗粒物(PM10),69,88,81,29,21,66,66,64,64,29,23,15,16,0.7,0.7
2025-11-25T1700,2174A,112.6991,37.6982,晋中市,榆次区政府,颗粒物(PM10),79,107,91,39,25,62,62,61,61,30,24,16,17,0.5,1.1
2025-11-25T1700,2865A,112.7195,37.6828,晋中市,榆次三中,,,,95,,18,61,61,60,60,,24,15,15,,0.7
2025-11-25T1700,4200A,112.7478,37.6954,晋中市,迎宾街26号,颗粒物(PM10),82,114,92,39,22,66,66,64,64,28,23,17,16,0.6,0.6
2025-11-25T1700,2439A,112.2014,31.0481,荆门市,竹园小学,颗粒物(PM10),57,64,65,24,20,80,80,73,73,21,22,3,3,0.1,0.1
2025-11-25T1700,2440A,112.1969,30.9891,荆门市,掇刀,颗粒物(PM10),63,76,64,27,21,91,91,83,83,13,14,2,1,0.1,0.3
2025-11-25T1700,2441A,112.2213,31.0386,荆门市,石化一小,颗粒物(PM10),66,82,78,34,21,79,79,70,70,20,26,10,7,0.2,0.2
2025-11-25T1700,3012A,112.1849,31.0362,荆门市,西山林语,颗粒物(PM10),58,66,59,20,18,81,81,74,74,14,11,4,4,0.6,0.5
2025-11-25T1700,3547A,112.1632,31.0138,荆门市,龙泉中学南校,颗粒物(PM10),63,76,70,29,23,82,82,72,72,13,12,6,7,0.0,0.1
2025-11-25T1700,1844A,112.2494,30.3197,荆州市,市图书馆,颗粒物(PM10),58,65,67,21,24,92,92,77,77,14,21,5,6,0.5,0.5
2025-11-25T1700,1845A,112.2008,30.3544,荆州市,市委党校,颗粒物(PM10),56,61,71,22,25,78,78,64,64,22,26,4,5,0.5,0.5
2025-11-25T1700,3194A,112.2747,30.3122,荆州市,管委会,颗粒物(PM10),58,65,68,22,26,88,88,74,74,14,22,7,7,0.5,0.5
2025-11-25T1700,4268A,112.1722,30.3366,荆州市,学苑路85号,,47,47,62,18,20,97,97,82,82,23,24,1,1,0.6,0.6
2025-11-25T1700,2342A,117.3102,29.3867,景德镇市,王港中学,,,,,,,,,,,,,,,,
2025-11-25T1700,2343A,117.2117,29.2933,景德镇市,老干部活动中心,颗粒物(PM10),76,102,95,31,43,73,73,67,67,1,15,5,7,0.3,0.7
2025-11-25T1700,2344A,117.1894,29.2789,景德镇市,兽医站,颗粒物(PM10),90,130,108,27,37,82,82,73,73,7,25,7,9,0.2,0.6
2025-11-25T1700,2346A,117.2461,29.2956,景德镇市,陶研所,颗粒物(PM10),74,98,80,30,43,79,79,69,69,2,16,4,4,0.3,0.6
2025-11-25T1700,4289A,117.1542,29.2566,景德镇市,青少年活动中心,颗粒物(PM10),94,138,104,26,40,77,77,69,69,13,29,6,9,0.3,0.7
2025-11-25T1700,1803A,115.9872,29.6815,九江市,十里,颗粒物(PM10),79,108,118,32,39,85,85,73,73,16,27,5,7,0.3,0.5
2025-11-25T1700,1804A,115.9584,29.7046,九江市,茅山头,颗粒物(PM10),78,106,113,24,33,76,76,61,61,14,22,4,5,0.5,0.6
2025-11-25T1700,1805A,115.9877,29.7295,九江市,西园,颗粒物(PM10),74,98,106,23,36,88,88,77,77,18,28,4,7,0.3,0.5
2025-11-25T1700,1808A,115.9114,29.6038,九江市,综合工业园,颗粒物(PM10),76,101,117,22,37,89,89,76,76,13,30,2,5,0.2,0.4
2025-11-25T1700,1809A,116.0721,29.7535,九江市,石化总厂,颗粒物(PM10),92,134,135,40,32,78,78,75,75,25,25,3,3,0.3,0.3
2025-11-25T1700,1810A,115.9773,29.5698,九江市,庐山气象台,,,,,,,,,,,,,,,,
2025-11-25T1700,3190A,116.0254,29.6994,九江市,外国语学校,颗粒物(PM10),81,112,118,19,31,63,63,64,64,23,25,2,5,0.5,0.6
2025-11-25T1700,4253A,116.0102,29.6594,九江市,莲花大道8号,颗粒物(PM10),84,117,121,22,28,77,77,69,69,16,20,4,5,0.2,0.3
2025-11-25T1700,4240A,98.4958,39.7339,酒泉市,玉门东路5号,颗粒物(PM10),150,249,125,21,21,97,97,70,70,2,12,7,10,0.2,0.3
2025-11-25T1700,4241A,98.5099,39.7506,酒泉市,北大街108号,颗粒物(PM10),195,339,135,26,21,92,92,66,66,1,14,7,11,0.2,0.5
2025-11-25T1700,2698A,76.0072,39.4467,喀什地区,巡警大队,,,102,264,13,97,74,74,42,42,,68,,9,0.4,2.1
2025-11-25T1700,2699A,75.9755,39.4694,喀什地区,吾办,颗粒物(PM10),58,66,224,6,92,74,74,43,43,12,67,11,14,0.3,1.9
2025-11-25T1700,4027A,75.9483,39.4689,喀什地区,老干局,颗粒物(PM10),70,90,238,3,83,77,77,46,46,3,50,2,5,0.3,2.2
2025-11-25T1700,1824A,114.3389,34.7781,开封市,肿瘤医院,颗粒物(PM10),118,185,122,33,21,63,63,67,67,23,22,12,11,,0.4
2025-11-25T1700,1826A,114.2885,34.7965,开封市,世纪星幼儿园,颗粒物(PM10),106,161,116,39,26,65,65,58,58,21,21,10,8,0.6,0.5
2025-11-25T1700,3147A,114.3438,34.8106,开封市,龙亭公园,颗粒物(PM10),107,163,122,38,20,68,68,60,60,,22,11,20,0.9,0.8
2025-11-25T1700,3210A,114.3644,34.7964,开封市,汴京公园,颗粒物(PM10),110,169,125,36,26,61,61,53,53,28,29,11,9,0.3,0.3
2025-11-25T1700,3473A,114.2485,34.8306,开封市,技师学院,颗粒物(PM10),97,144,104,37,24,66,66,58,58,25,28,10,8,0.7,0.6
2025-11-25T1700,3592A,114.4644,34.7556,开封市,祥符区生态环境局,颗粒物(PM10),100,149,137,42,27,61,61,60,60,35,32,7,7,0.3,0.3
2025-11-25T1700,1951A,84.895,45.6094,克拉玛依市,长征新村,,41,41,32,17,16,46,46,34,34,18,24,7,7,0.4,0.4
2025-11-25T1700,1952A,84.8988,45.5893,克拉玛依市,南林小区,颗粒物(PM10),51,52,35,11,11,42,42,31,31,17,19,3,2,0.2,0.2
2025-11-25T1700,1954A,84.905,44.3396,克拉玛依市,独山子区,,22,9,66,7,45,69,69,60,60,9,22,6,6,0.2,0.5
2025-11-25T1700,1955A,85.6979,46.098,克拉玛依市,乌尔禾区商贸楼,,38,38,34,24,11,50,50,30,30,11,21,6,7,0.3,0.4
2025-11-25T1700,3612A,85.1045,45.6899,克拉玛依市,白碱滩区新站,,32,32,30,21,18,48,48,37,37,20,25,6,7,0.3,0.3
2025-11-25T1700,2697A,76.1454,39.7142,克孜勒苏柯尔克孜自治州,市人民政府,颗粒物(PM10),108,166,177,68,67,,,78,78,24,25,7,9,0.4,0.4
2025-11-25T1700,3665A,76.1658,39.7157,克孜勒苏柯尔克孜自治州,克州文化中心,颗粒物(PM10),101,152,179,56,65,101,101,83,83,18,27,9,10,0.6,0.8
2025-11-25T1700,1450A,102.8204,24.8886,昆明市,呈贡新区,,43,43,32,19,26,104,104,88,88,9,22,3,6,0.2,0.4
2025-11-25T1700,1451A,102.6251,24.9608,昆明市,西山森林公园,,,,,,,,,,,,,,,,
2025-11-25T1700,1452A,102.7252,25.0902,昆明市,龙泉镇,,32,31,28,12,11,102,102,86,86,10,13,3,5,0.4,0.3
2025-11-25T1700,1453A,102.7266,25.0375,昆明市,东风东路,,36,36,30,15,17,104,104,85,85,15,17,2,3,0.2,0.2
2025-11-25T1700,1454A,102.6742,25.0669,昆明市,金鼎山,,43,43,36,14,15,112,112,91,91,10,12,3,4,0.3,0.4
2025-11-25T1700,1455A,102.6644,25.0401,昆明市,碧鸡广场,,32,27,23,17,15,100,100,89,89,15,15,3,4,0.2,0.3
2025-11-25T1700,3179A,102.7494,25.0119,昆明市,官渡区博物馆,,35,35,33,14,19,106,106,88,88,10,27,3,4,0,0.2
2025-11-25T1700,3375A,102.8017,24.8336,昆明市,青年创业园,,35,29,34,8,17,109,109,93,93,4,13,4,5,0.3,0.3
2025-11-25T1700,3550A,102.7997,24.9786,昆明市,昆明学院,,34,32,40,11,19,106,106,87,87,11,31,2,3,0.1,0.3
2025-11-25T1700,3551A,102.5967,24.6736,昆明市,晋宁区生态环境分局,,37,28,37,12,23,118,118,104,104,7,13,2,2,0.4,0.4
2025-11-25T1700,3552A,102.6678,24.9856,昆明市,云天化总部,,36,30,28,11,14,114,114,90,90,8,19,6,6,0.4,0.4
2025-11-25T1700,1456A,91.1319,29.6514,拉萨市,八廓街,,32,22,26,9,16,102,102,83,83,9,22,8,10,0.2,0.4
2025-11-25T1700,1457A,91.1221,29.6747,拉萨市,市环保局,,28,15,34,6,17,87,87,64,64,11,23,7,9,0.5,0.8
2025-11-25T1700,1458A,91.0874,29.6475,拉萨市,区监测站,,32,11,19,7,12,100,100,78,78,10,31,5,8,0.4,0.6
2025-11-25T1700,1459A,91.1774,29.6541,拉萨市,西藏大学,,31,19,24,10,12,99,99,77,77,12,21,6,7,0.2,0.2
2025-11-25T1700,1460A,90.9798,29.6588,拉萨市,区辐射站,,,18,28,9,14,,,62,62,17,27,,8,0.3,0.5
2025-11-25T1700,1461A,91.0834,29.6292,拉萨市,拉萨火车站,,29,20,30,8,14,92,92,68,68,11,27,6,7,0.5,0.8
2025-11-25T1700,2520A,109.2203,23.7256,来宾市,来宾技工学校,颗粒物(PM10),53,55,36,24,19,103,103,94,94,8,9,6,5,0.3,0.4
2025-11-25T1700,3535A,109.1781,23.7297,来宾市,兴宾区政府,颗粒物(PM10),55,59,35,26,21,109,109,100,100,6,7,7,6,0.4,0.4
2025-11-25T1700,4002A,109.2416,23.7461,来宾市,中南小学,颗粒物(PM10),55,60,39,22,22,108,108,96,96,7,9,6,6,0.4,0.4
2025-11-25T1700,1477A,104.1373,35.9454,兰州市,榆中兰大校区,,,,,,,,,,,,,,,,
2025-11-25T1700,1479A,103.831,36.0464,兰州市,铁路设计院,,,,,,,,,,,,,,,,
2025-11-25T1700,3241A,103.7439,36.0842,兰州市,百合公园,细颗粒物(PM2.5),88,107,82,65,48,31,31,30,30,72,57,15,11,1.2,1
2025-11-25T1700,3242A,103.9611,35.998,兰州市,和平,细颗粒物(PM2.5),80,88,85,59,48,48,48,45,45,52,49,10,8,1.2,1.2
2025-11-25T1700,4236A,103.6293,36.0938,兰州市,庄浪东路808号,细颗粒物(PM2.5),110,123,82,83,46,35,35,45,45,93,64,19,18,1.4,1
2025-11-25T1700,4237A,103.7251,36.1043,兰州市,安宁西路88号,细颗粒物(PM2.5),107,138,99,80,55,38,38,40,40,88,68,17,10,1.4,0.9
2025-11-25T1700,4238A,103.8470,36.0676,兰州市,北滨河东路1号,颗粒物(PM10),65,80,82,36,41,60,60,44,44,54,60,15,11,1.0,1.2
2025-11-25T1700,3245A,103.6633,36.533,兰州新区,新区管委会,细颗粒物(PM2.5),62,63,70,44,41,80,80,64,64,20,22,11,8,0.5,0.8
2025-11-25T1700,3246A,103.6975,36.4789,兰州新区,舟曲中学,颗粒物(PM10),51,52,75,35,41,88,88,75,75,26,37,10,8,0.4,0.6
2025-11-25T1700,1067A,116.6708,39.5111,廊坊市,药材公司,,,,23,14,7,48,48,50,50,19,19,4,3,0.4,0.3
2025-11-25T1700,1068A,116.7214,39.5589,廊坊市,开发区,,46,46,23,19,6,51,51,51,51,22,21,2,3,0.3,0.3
2025-11-25T1700,1070A,116.7244,39.5269,廊坊市,北华航天学院,,50,50,22,19,8,51,51,53,53,18,18,2,3,0.3,0.2
2025-11-25T1700,2919A,116.7022,39.5453,廊坊市,河北工业大学,,49,49,22,30,9,52,52,54,54,17,16,4,3,0.3,0.3
2025-11-25T1700,2535A,103.7723,29.5462,乐山市,花湖湾,,,,,,,,,,,,,,,,
2025-11-25T1700,2536A,103.7627,29.5844,乐山市,牛耳桥,细颗粒物(PM2.5),95,83,103,71,84,68,68,38,38,26,34,6,6,0.8,1
2025-11-25T1700,2537A,103.7508,29.6006,乐山市,市第三水厂,细颗粒物(PM2.5),77,69,94,56,67,72,72,40,40,23,34,6,6,0.8,1.1
2025-11-25T1700,2538A,103.7571,29.5664,乐山市,市监测站,细颗粒物(PM2.5),88,83,107,65,79,74,74,40,40,20,35,7,6,0.8,1.1
2025-11-25T1700,3361A,103.7311,29.5628,乐山市,理工大学,细颗粒物(PM2.5),82,76,88,60,69,81,81,37,37,18,30,7,7,0.7,0.9
2025-11-25T1700,2598A,100.2143,26.8576,丽江市,西南郊,,28,28,16,15,8,76,76,66,66,5,6,6,6,0.8,0.8
2025-11-25T1700,2599A,100.2497,26.8802,丽江市,丽江古城,,33,33,23,17,11,74,74,65,65,10,10,8,9,0.6,0.5
2025-11-25T1700,2600A,100.2203,26.8906,丽江市,市中心,,33,33,17,16,11,76,76,66,66,10,11,9,8,0.4,0.3
2025-11-25T1700,1267A,119.914,28.4514,丽水市,监测站大楼,颗粒物(PM10),84,117,70,27,32,95,95,84,84,16,32,6,6,0.5,0.7
2025-11-25T1700,1268A,119.93,28.4586,丽水市,莲都小学,颗粒物(PM10),86,122,73,31,30,96,96,85,85,14,37,5,5,0.4,0.6
2025-11-25T1700,1269A,119.879,28.4231,丽水市,余庄前,,,108,65,34,40,92,92,96,96,13,20,5,4,,0.4
2025-11-25T1700,1173A,119.176,34.5885,连云港市,市环境监测站,,39,39,114,17,22,63,63,59,59,22,20,10,9,0.9,0.8
2025-11-25T1700,3000A,119.3581,34.6972,连云港市,德源药业,,48,48,138,14,24,46,46,46,46,34,31,5,6,0.3,0.3
2025-11-25T1700,3007A,119.178,34.844,连云港市,新城一中,颗粒物(PM10),55,60,113,13,21,64,64,61,61,19,17,8,8,0.5,0.5
2025-11-25T1700,3008A,119.3608,34.7519,连云港市,胡沟管理处,,31,31,120,3,20,61,61,56,56,17,16,7,9,0.4,0.4
2025-11-25T1700,3009A,119.1478,34.5911,连云港市,矿山设计院,,36,36,110,17,20,68,68,62,62,13,12,6,5,0.4,0.4
2025-11-25T1700,3434A,119.2413,34.6539,连云港市,工贸学校,,40,40,107,12,21,66,66,60,60,14,12,10,10,0.5,0.5
2025-11-25T1700,3664A,119.4172,34.7341,连云港市,连云街道,,39,39,113,15,22,64,64,56,56,16,20,6,7,0.4,0.4
2025-11-25T1700,2571A,102.3431,27.8099,凉山彝族自治州,青龙寺,,,,,,,,,,,,,,,,
2025-11-25T1700,2572A,102.2721,27.8415,凉山彝族自治州,邛海宾馆,,35,35,31,18,22,79,79,64,64,8,14,10,11,0.5,0.9
2025-11-25T1700,2573A,102.2625,27.898,凉山彝族自治州,西昌市政府,颗粒物(PM10),52,53,47,25,28,66,66,54,54,18,15,11,9,1.0,0.8
2025-11-25T1700,2574A,102.2685,27.8851,凉山彝族自治州,凉山州政府,,39,,48,27,33,71,71,61,61,7,16,12,10,0.4,0.9
2025-11-25T1700,4229A,102.2342,27.8859,凉山彝族自治州,凯乐南路30号,,27,27,50,13,35,74,74,54,54,10,33,7,8,0.5,0.9
2025-11-25T1700,2212A,123.2,41.1953,辽阳市,宏伟区,细颗粒物(PM2.5),62,63,89,44,69,53,53,49,49,21,17,6,8,0.7,0.6
2025-11-25T1700,2213A,123.1683,41.2495,辽阳市,新华园,颗粒物(PM10),55,59,81,36,44,54,54,49,49,19,16,4,5,0.5,0.5
2025-11-25T1700,2214A,123.2354,41.2639,辽阳市,滨河路,"颗粒物(PM10),细颗粒物(PM2.5)",57,64,78,40,53,56,56,46,46,20,17,5,6,0.6,0.6
2025-11-25T1700,2215A,123.149,41.2991,辽阳市,铁西工业园,颗粒物(PM10),63,76,68,44,42,41,41,51,51,34,16,7,8,0.8,0.6
2025-11-25T1700,2227A,125.1358,42.8845,辽源市,环保局,,,,222,,157,44,44,68,68,37,28,4,6,0.8,1
2025-11-25T1700,3239A,125.0764,42.9078,辽源市,银鹰制药,细颗粒物(PM2.5),79,68,160,58,143,23,23,57,57,56,25,5,5,0.7,0.9
2025-11-25T1700,1625A,115.9848,36.4372,聊城市,区政府,颗粒物(PM10),61,72,53,22,10,67,67,63,63,20,19,9,9,0.5,0.4
2025-11-25T1700,2878A,116.0072,36.4343,聊城市,聊大东校,,,83,61,34,14,64,64,63,63,,15,10,8,,0.4
2025-11-25T1700,3200A,115.9819,36.4978,聊城市,监控中心,颗粒物(PM10),67,83,60,27,16,68,68,65,65,20,16,10,9,0.7,0.6
2025-11-25T1700,3513A,116.0445,36.4361,聊城市,九州社区,,,81,63,19,10,75,75,69,69,,3,1,2,0.5,0.5
2025-11-25T1700,4018A,116.0567,36.4608,聊城市,星美广场,颗粒物(PM10),64,78,60,23,11,70,70,64,64,14,14,3,3,0.3,0.2
2025-11-25T1700,2632A,94.3681,29.6376,林芝市,林芝监测站,,28,9,10,3,5,87,87,77,71,3,4,3,3,0.2,0.2
2025-11-25T1700,2633A,94.3616,29.6616,林芝市,林芝人民医院,,26,15,14,3,5,83,83,73,68,3,4,2,2,0.2,0.2
2025-11-25T1700,2603A,100.0781,23.8982,临沧市,市环保局,,30,24,21,21,26,78,78,72,72,4,7,8,6,0.6,0.7
2025-11-25T1700,2604A,100.0894,23.8822,临沧市,市气象局,,26,21,20,15,12,81,81,76,76,5,9,8,9,0.4,0.5
2025-11-25T1700,1733A,111.5531,36.0783,临汾市,临钢医院,颗粒物(PM10),82,114,108,23,20,55,55,47,47,32,28,3,2,0.6,0.4
2025-11-25T1700,1734A,111.5028,36.0714,临汾市,技工学校,颗粒物(PM10),69,87,103,34,21,61,61,50,50,26,24,6,4,0.6,0.5
2025-11-25T1700,1736A,111.5018,36.0855,临汾市,市委,颗粒物(PM10),77,104,112,27,17,64,64,52,52,27,24,9,7,0.7,0.5
2025-11-25T1700,3018A,111.505,36.1014,临汾市,唐尧大酒店,颗粒物(PM10),78,106,107,28,17,70,70,55,55,25,26,4,3,0.6,0.5
2025-11-25T1700,4244A,111.4879,36.0530,临汾市,启星学校,颗粒物(PM10),75,100,102,28,22,68,68,56,56,24,29,8,5,0.6,0.4
2025-11-25T1700,4271A,103.2464,35.6123,临夏回族自治州,滨河东路1号,颗粒物(PM10),56,62,86,19,40,69,69,47,47,5,11,8,6,0.3,0.8
2025-11-25T1700,4310A,103.2093,35.5995,临夏回族自治州,新华街21号,颗粒物(PM10),58,65,68,20,27,68,68,,,9,18,8,7,0.4,0.6
2025-11-25T1700,1618A,118.3429,35.0532,临沂市,沂河小区,,,,302,,43,,,63,,,26,,9,,0.3
2025-11-25T1700,1619A,118.295,35.0583,临沂市,鲁南制药厂,,39,39,127,19,26,65,65,62,62,25,31,11,14,0.3,0.3
2025-11-25T1700,1620A,118.2794,34.9976,临沂市,新光毛纺厂,,29,29,116,18,27,66,66,63,63,16,28,9,11,0.4,0.4
2025-11-25T1700,1621A,118.3956,35.0888,临沂市,河东保险公司,,34,34,96,12,16,66,66,67,67,27,22,9,8,0.3,0.3
2025-11-25T1700,3370A,118.3564,35.0215,临沂市,十里堡居委,,29,29,116,3,15,69,69,63,63,20,25,9,11,0.4,0.4
2025-11-25T1700,3496A,118.3604,35.1084,临沂市,南坊新区,,39,39,113,9,17,63,63,64,64,28,23,12,10,0.5,0.5
2025-11-25T1700,3860A,118.3920,35.0300,临沂市,皇山花园小区,,27,27,109,8,17,69,69,65,65,20,18,11,11,0.2,0.3
2025-11-25T1700,1870A,109.4856,24.3895,柳州市,柳东小学,颗粒物(PM10),55,59,36,25,23,109,109,104,104,5,6,9,8,0.2,0.3
2025-11-25T1700,1871A,109.4157,24.3277,柳州市,环保监测站,颗粒物(PM10),60,69,39,20,22,100,100,92,92,5,7,9,8,0.3,0.4
2025-11-25T1700,1872A,109.389,24.341,柳州市,河西水厂,颗粒物(PM10),61,72,48,27,24,106,106,96,96,6,17,7,14,0.2,1
2025-11-25T1700,1873A,109.4311,24.2921,柳州市,市四中,颗粒物(PM10),54,57,37,20,20,102,102,95,95,9,9,11,10,0.3,0.4
2025-11-25T1700,1874A,109.4006,24.3631,柳州市,市九中,颗粒物(PM10),59,67,45,28,25,105,105,96,96,6,12,9,10,0.3,0.4
2025-11-25T1700,1875A,109.4958,24.3134,柳州市,古亭山,颗粒物(PM10),61,71,39,16,19,101,101,95,95,6,6,10,9,0.4,0.5
2025-11-25T1700,3402A,109.5422,24.3996,柳州市,市二中,颗粒物(PM10),54,57,32,15,14,105,105,98,98,8,9,11,9,0.2,0.4
2025-11-25T1700,2307A,116.5079,31.737,六安市,监测大楼,颗粒物(PM10),64,77,154,23,33,78,78,69,69,10,12,4,4,0.3,0.3
2025-11-25T1700,2308A,116.4738,31.7643,六安市,皖西学院,颗粒物(PM10),65,80,170,22,34,88,88,75,75,6,11,2,2,0.3,0.3
2025-11-25T1700,2309A,116.4996,31.7905,六安市,朝阳厂,颗粒物(PM10),56,62,135,19,31,77,77,67,67,12,15,4,4,0.3,0.3
2025-11-25T1700,2310A,116.5567,31.7886,六安市,开发区,,,94,181,24,40,68,68,66,66,,15,2,2,0.2,0.2
2025-11-25T1700,2576A,104.8,26.5892,六盘水市,窑上,,30,26,36,12,19,94,94,91,91,6,6,7,7,0.4,0.4
2025-11-25T1700,2577A,104.83,26.5917,六盘水市,黄土坡,,28,28,34,8,18,89,89,82,82,14,12,5,7,0.2,0.4
2025-11-25T1700,2578A,104.89,26.5939,六盘水市,水钢,,30,30,43,19,27,93,93,81,81,5,18,3,11,0.3,0.8
2025-11-25T1700,2579A,104.8475,26.5894,六盘水市,民中,,29,21,34,14,20,92,92,81,81,8,14,3,6,0.3,0.4
2025-11-25T1700,2580A,104.9544,26.5506,六盘水市,双水,,30,29,41,21,25,95,95,84,84,9,17,4,8,0.4,1.5
2025-11-25T1700,2335A,117.0189,25.1181,龙岩市,龙岩师专,,,,,,,,,,,,,,,,
2025-11-25T1700,2336A,117.0217,25.1033,龙岩市,龙岩市监测站,,35,35,26,15,15,104,104,102,102,7,13,10,10,0.2,0.3
2025-11-25T1700,2337A,117.0258,25.0661,龙岩市,闽西职业技术学院,,41,41,37,15,18,111,111,107,107,4,15,5,7,0.2,0.3
2025-11-25T1700,2338A,117.0196,25.0306,龙岩市,龙岩学院,,37,37,30,14,17,107,107,104,104,6,11,3,5,0.3,0.3
2025-11-25T1700,2665A,105.0822,33.3261,陇南市,汉王镇固水子,,,,,,,,,,,,,,,,
2025-11-25T1700,2885A,104.9339,33.3826,陇南市,滨江中学,颗粒物(PM10),75,99,79,34,30,38,38,42,42,44,36,10,10,1.5,1.2
2025-11-25T1700,3247A,104.955,33.371,陇南市,市总工会,颗粒物(PM10),70,89,81,30,32,50,50,46,46,26,23,4,5,0.7,0.7
2025-11-25T1700,2487A,111.9589,27.8901,娄底市,电视发射台,,,,,,,,,,,,,,,,
2025-11-25T1700,2488A,111.9975,27.725,娄底市,市监测站,颗粒物(PM10),55,60,75,19,26,95,95,88,88,8,12,9,11,0.4,0.3
2025-11-25T1700,2489A,112.0194,27.7314,娄底市,市委党校,,49,49,78,8,26,87,87,80,80,10,13,7,8,0.3,0.4
2025-11-25T1700,2490A,111.9561,27.7569,娄底市,涟钢,颗粒物(PM10),56,61,74,18,27,88,88,81,81,10,17,4,5,0.4,0.8
2025-11-25T1700,2491A,111.9892,27.7044,娄底市,市政府,,48,48,75,9,26,90,90,78,78,7,11,9,9,4.4,1.6
2025-11-25T1700,1893A,105.4324,28.9634,泸州市,九狮山,,,,,,,,,,,,,,,,
2025-11-25T1700,1894A,105.4427,28.9063,泸州市,小市上码头,"颗粒物(PM10),细颗粒物(PM2.5)",55,60,58,39,48,88,88,74,74,14,27,9,11,0.5,0.6
2025-11-25T1700,1895A,105.4241,28.8573,泸州市,兰田宪桥,颗粒物(PM10),53,55,61,31,53,79,79,62,62,13,19,8,7,0.4,0.5
2025-11-25T1700,1896A,105.4379,28.8833,泸州市,市环监站,,45,45,56,30,42,83,83,64,64,14,28,8,9,0.4,0.6
2025-11-25T1700,4272A,105.3689,28.7783,泸州市,纳溪中医医院,,,,62,,43,77,77,57,57,10,23,,8,0.4,0.6
2025-11-25T1700,2183A,111.1406,37.5211,吕梁市,环保局,,,,102,29,18,53,53,43,43,40,31,5,7,0.4,0.3
2025-11-25T1700,2185A,111.1297,37.5136,吕梁市,自来水公司,,,,122,,24,38,38,45,45,45,31,2,8,0.6,0.5
2025-11-25T1700,2867A,111.1283,37.51,吕梁市,马茂庄小学,颗粒物(PM10),57,63,104,23,19,39,39,44,44,46,31,4,8,0.6,0.4
2025-11-25T1700,1812A,112.3931,34.6516,洛阳市,市委党校,颗粒物(PM10),80,110,135,32,38,62,62,67,67,28,32,18,12,0.5,0.5
2025-11-25T1700,1815A,112.494,34.6886,洛阳市,河南林校,颗粒物(PM10),85,120,151,34,37,49,49,51,51,37,32,14,12,0.6,0.6
2025-11-25T1700,1816A,112.3844,34.623,洛阳市,开发区管委会,颗粒物(PM10),84,118,137,44,42,62,62,58,58,28,23,18,12,0.5,0.5
2025-11-25T1700,1817A,112.4267,34.6258,洛阳市,市委新办公区,颗粒物(PM10),83,115,139,33,35,58,58,57,57,30,25,15,11,0.4,0.3
2025-11-25T1700,3340A,112.6005,34.6326,洛阳市,伊滨,颗粒物(PM10),83,115,158,36,37,60,60,50,50,20,19,12,10,0.4,0.4
2025-11-25T1700,3341A,112.4951,34.6332,洛阳市,中移产业园,颗粒物(PM10),80,110,145,39,35,50,50,50,50,34,27,13,10,0.4,0.4
2025-11-25T1700,3593A,112.5736,34.8993,洛阳市,吉利监测站,颗粒物(PM10),76,101,132,31,31,70,70,63,63,27,34,10,8,0.5,0.5
2025-11-25T1700,3635A,112.3677,34.662,洛阳市,河科大西苑校区,颗粒物(PM10),85,119,152,35,37,62,62,55,55,23,23,24,13,0.7,0.7
2025-11-25T1700,3636A,112.4388,34.6781,洛阳市,英才小学,颗粒物(PM10),80,109,162,42,50,56,56,46,46,31,37,16,14,0.6,0.7
2025-11-25T1700,4214A,112.4600,34.6949,洛阳市,春都路1号院,细颗粒物(PM2.5),99,130,176,74,40,50,50,46,46,31,32,14,13,0.5,0.6
2025-11-25T1700,2399A,114.051,33.5699,漯河市,三五一五工厂,颗粒物(PM10),94,138,190,41,41,54,54,58,58,18,21,6,7,0.3,0.2
2025-11-25T1700,2400A,114.0055,33.5698,漯河市,漯河大学,,,147,180,,40,69,69,68,68,19,22,6,6,0.3,0.3
2025-11-25T1700,2401A,114.0138,33.5828,漯河市,市水利局,颗粒物(PM10),92,134,173,27,38,66,66,64,64,19,21,7,8,0.2,0.2
2025-11-25T1700,2402A,114.0261,33.5698,漯河市,市广电局,颗粒物(PM10),99,147,184,28,35,62,62,63,63,18,21,6,7,0.3,0.4
2025-11-25T1700,3478A,113.9749,33.5664,漯河市,市图书馆,颗粒物(PM10),147,243,201,104,44,59,59,58,58,18,21,4,6,,0.3
2025-11-25T1700,4250A,114.0892,33.5882,漯河市,韶山路11号,颗粒物(PM10),108,165,181,42,37,55,55,56,56,22,22,7,8,0.2,0.2
2025-11-25T1700,1798A,118.5092,31.6837,马鞍山市,湖东路四小,颗粒物(PM10),60,69,167,22,30,69,69,61,61,18,25,9,16,0.6,1.1
2025-11-25T1700,1799A,118.5024,31.6449,马鞍山市,开发区,颗粒物(PM10),58,65,164,24,32,72,72,61,61,18,19,3,5,0.5,0.6
2025-11-25T1700,1802A,118.6245,31.7241,马鞍山市,濮塘,,,,,,,,,,,,,,,,
2025-11-25T1700,3633A,118.4918,31.6809,马鞍山市,雨山,颗粒物(PM10),59,67,166,23,35,76,76,61,61,15,27,9,15,0.5,0.9
2025-11-25T1700,4191A,118.5274,31.72227,马鞍山市,慈湖高新区,颗粒物(PM10),70,89,158,22,32,60,60,57,57,27,30,5,22,0.6,0.9
2025-11-25T1700,1686A,111.0286,21.4688,茂名市,电白南海,颗粒物(PM10),52,53,58,27,29,110,110,104,104,10,16,11,13,0.9,1.2
2025-11-25T1700,1687A,110.9294,21.6533,茂名市,茂石化七小,,33,31,46,19,27,104,104,99,99,7,13,13,13,0.5,0.7
2025-11-25T1700,1688A,110.9107,21.6687,茂名市,健康路,,35,29,45,19,26,112,112,104,104,10,15,10,18,0.3,0.9
2025-11-25T1700,1689A,110.8592,21.6828,茂名市,高岭,颗粒物(PM10),51,51,58,14,26,103,103,103,103,13,17,6,14,0.6,0.7
2025-11-25T1700,3450A,111.01,21.5165,茂名市,电白水东,,34,34,46,17,26,103,103,99,99,10,14,7,12,0.4,0.6
2025-11-25T1700,2539A,104.0308,30.0478,眉山市,黑龙滩水库,,,,,,,,,,,,,,,,
2025-11-25T1700,2540A,103.8416,30.0874,眉山市,气象局,细颗粒物(PM2.5),64,71,107,46,70,103,103,68,68,15,33,11,11,0.5,0.8
2025-11-25T1700,3137A,103.8578,30.0744,眉山市,市委党校,颗粒物(PM10),57,63,101,39,68,97,97,63,63,16,36,6,6,0.5,0.8
2025-11-25T1700,3148A,103.8291,30.0564,眉山市,区人社局,细颗粒物(PM2.5),64,70,107,46,75,99,99,65,65,17,34,9,8,0.8,1.1
2025-11-25T1700,1690A,116.1231,24.3284,梅州市,梅江月梅,颗粒物(PM10),53,55,38,22,24,102,102,102,102,13,16,6,7,0.4,0.5
2025-11-25T1700,1691A,116.0797,24.2719,梅州市,梅县新城,,40,40,41,23,22,103,103,105,105,12,16,8,8,0.3,0.4
2025-11-25T1700,1692A,116.1248,24.2654,梅州市,环境监控中心,,49,49,44,21,26,102,102,97,97,11,22,5,11,0.5,0.6
2025-11-25T1700,3315A,116.1233,24.2991,梅州市,梅龙,,,51,43,21,24,95,95,93,93,9,15,8,11,,0.5
2025-11-25T1700,1878A,104.7778,31.4741,绵阳市,富乐山,颗粒物(PM10),70,89,78,43,34,81,81,51,51,14,14,10,10,0.4,0.4
2025-11-25T1700,1880A,104.6697,31.4668,绵阳市,高新区自来水公司,颗粒物(PM10),85,119,114,56,46,71,71,47,47,22,41,10,10,0.5,0.8
2025-11-25T1700,1881A,104.7287,31.5075,绵阳市,三水厂,细颗粒物(PM2.5),65,77,77,47,40,75,75,47,47,19,37,12,12,0.5,0.6
2025-11-25T1700,3491A,104.69,31.5322,绵阳市,西科大附属小学,细颗粒物(PM2.5),99,134,110,74,45,77,77,42,42,26,40,8,8,0.2,0.4
2025-11-25T1700,3492A,104.5648,31.5343,绵阳市,安州区旅游局,细颗粒物(PM2.5),79,92,96,58,47,70,70,37,37,27,37,15,12,0.6,0.6
2025-11-25T1700,4226A,104.7651,31.4531,绵阳市,绵阳市气象局,颗粒物(PM10),66,82,87,47,34,80,80,52,52,17,36,6,8,0.5,0.6
2025-11-25T1700,1784A,129.61,44.561,牡丹江市,环保大楼,,36,27,51,25,36,36,36,48,47,28,21,7,7,0.4,0.4
2025-11-25T1700,1785A,129.6115,44.5782,牡丹江市,文化广场,,48,44,52,33,39,33,33,49,49,44,26,12,9,0.7,0.5
2025-11-25T1700,1786A,129.5904,44.5963,牡丹江市,第一医院,,50,48,50,35,48,26,26,44,44,40,21,10,7,0.8,0.4
2025-11-25T1700,1787A,129.6364,44.6075,牡丹江市,机车工厂,,42,36,52,29,38,28,28,48,47,34,20,29,7,0.5,0.4
2025-11-25T1700,1788A,129.6386,44.5462,牡丹江市,第一中学,,42,32,43,29,36,12,12,51,49,48,18,5,5,0.4,0.4
2025-11-25T1700,2531A,105.0703,29.61,内江市,市监测站,,39,30,66,27,53,107,107,80,80,15,25,3,3,0.5,0.8
2025-11-25T1700,2532A,105.0717,29.5947,内江市,东兴区政府,,50,50,70,23,54,98,98,67,67,14,31,3,4,0.3,0.6
2025-11-25T1700,2533A,105.0653,29.5817,内江市,内江二中,颗粒物(PM10),53,55,79,22,55,102,102,72,72,12,32,4,4,0.5,0.9
2025-11-25T1700,2534A,105.0406,29.5822,内江市,内江日报社,,44,44,69,24,54,106,106,70,70,17,39,3,4,0.3,0.6
2025-11-25T1700,2628A,92.0657,31.4846,那曲市,那曲监测站,,30,29,70,9,40,96,96,73,73,6,32,8,14,0.7,1.6
2025-11-25T1700,4243A,92.0515,31.4787,那曲市,那曲市委宣传部,,26,10,36,3,25,82,82,61,61,2,23,4,8,0.5,1.2
2025-11-25T1700,1290A,115.8931,28.6843,南昌市,省外办,颗粒物(PM10),70,89,87,27,33,69,69,68,68,22,26,4,4,0.6,0.7
2025-11-25T1700,1291A,115.8886,28.7003,南昌市,省林业公司,颗粒物(PM10),89,127,113,31,31,72,72,72,72,7,16,4,4,0.6,0.7
2025-11-25T1700,1292A,115.8126,28.7442,南昌市,林科所,颗粒物(PM10),81,112,98,22,22,78,78,76,76,10,14,3,4,0.4,0.4
2025-11-25T1700,1294A,115.8518,28.687,南昌市,建工学校,颗粒物(PM10),85,119,114,25,31,76,76,71,71,10,17,11,10,0.5,0.5
2025-11-25T1700,1295A,115.8921,28.6424,南昌市,象湖,颗粒物(PM10),78,106,96,27,34,78,78,70,70,10,26,9,9,0.5,0.7
2025-11-25T1700,1296A,115.7423,28.7996,南昌市,武术学校,,,,,,,,,,,,,,,,
2025-11-25T1700,3046A,115.9084,28.6062,南昌市,机电学校,颗粒物(PM10),86,121,123,27,31,82,82,78,78,12,25,8,9,0.4,0.5
2025-11-25T1700,3690A,115.9721,28.7031,南昌市,外国语学校,颗粒物(PM10),91,132,120,23,33,80,80,76,76,14,27,9,9,0.4,0.5
2025-11-25T1700,4192A,115.9316,28.68677,南昌市,南京东路235号,颗粒物(PM10),90,130,121,22,30,83,83,80,80,20,26,7,6,0.4,0.6
2025-11-25T1700,1905A,106.056,30.8064,南充市,西山风景区,,,,,,,,,,,,,,,,
2025-11-25T1700,1906A,106.0789,30.8023,南充市,南充市委,颗粒物(PM10),77,104,86,49,34,89,89,55,55,16,28,5,5,0.4,0.4
2025-11-25T1700,1907A,106.1031,30.8217,南充市,南充炼油厂,颗粒物(PM10),76,101,97,49,43,78,78,51,51,20,31,8,7,0.5,0.5
2025-11-25T1700,4227A,106.1083,30.7884,南充市,梨树横街98号,颗粒物(PM10),76,102,91,49,34,88,88,56,56,17,34,7,6,0.4,0.5
2025-11-25T1700,4304A,106.1172,30.843,南充市,清泉寺北路188号,,,78,77,25,23,91,91,66,66,,25,7,6,0.4,0.4
2025-11-25T1700,4305A,106.067,30.7616,南充市,同庆路1号,颗粒物(PM10),66,82,88,36,33,88,88,58,58,13,28,7,7,0.4,0.4
2025-11-25T1700,1151A,118.8086,32.1065,南京市,迈皋桥,,40,40,114,12,27,64,64,63,63,17,19,4,4,0.7,0.6
2025-11-25T1700,1152A,118.7538,32.0551,南京市,草场门,颗粒物(PM10),52,53,167,9,29,54,54,52,52,24,23,2,3,0.2,0.3
2025-11-25T1700,1153A,118.7794,32.0745,南京市,山西路,颗粒物(PM10),63,75,185,9,24,65,65,60,60,13,20,5,4,0.4,0.4
2025-11-25T1700,1154A,118.7752,32.0023,南京市,中华门,,48,48,145,17,32,62,62,58,58,12,14,5,4,0.3,0.3
2025-11-25T1700,1155A,118.8109,32.0309,南京市,瑞金路,颗粒物(PM10),51,51,139,19,30,59,59,54,54,5,12,4,4,0.2,0.2
2025-11-25T1700,1156A,118.7997,32.0754,南京市,玄武湖,,44,44,123,10,26,62,62,57,57,2,18,4,4,0.3,0.3
2025-11-25T1700,1157A,118.6414,32.0931,南京市,浦口,颗粒物(PM10),52,54,158,19,31,66,66,61,61,17,20,8,8,0.4,0.5
2025-11-25T1700,1158A,118.7356,31.9996,南京市,奥体中心,颗粒物(PM10),52,54,141,12,28,64,64,60,60,21,24,4,5,0.2,0.2
2025-11-25T1700,1159A,118.9125,32.1028,南京市,仙林大学城,颗粒物(PM10),60,70,171,12,30,55,55,52,52,16,24,6,9,0.4,0.8
2025-11-25T1700,3422A,118.8436,31.9198,南京市,江宁彩虹桥,,50,50,131,12,29,74,74,68,68,7,16,3,4,0.3,0.3
2025-11-25T1700,3427A,118.8554,32.3578,南京市,六合雄州,颗粒物(PM10),51,52,118,3,28,63,63,62,62,23,21,8,8,0.3,0.4
2025-11-25T1700,4249A,118.8708,31.3402,南京市,汶溪路181号,颗粒物(PM10),68,85,151,30,42,64,64,59,59,26,23,4,7,0.4,0.4
2025-11-25T1700,4312A,119.019,31.6512,南京市,中山西路1号,颗粒物(PM10),53,56,131,16,38,60,60,59,59,15,18,4,4,0.5,0.5
2025-11-25T1700,1401A,108.3103,22.7881,南宁市,二十一中,,35,35,38,17,22,89,89,80,80,10,20,5,7,0.3,0.4
2025-11-25T1700,1402A,108.3141,22.8528,南宁市,北湖,,43,43,51,15,29,97,97,91,91,17,34,8,16,0.5,0.6
2025-11-25T1700,1403A,108.3206,22.8225,南宁市,市监测站,,37,37,44,25,30,84,84,75,75,16,29,9,14,0.4,0.5
2025-11-25T1700,1404A,108.3829,22.8037,南宁市,大自然花园,,39,39,35,21,24,99,99,87,87,9,16,6,7,0.3,0.4
2025-11-25T1700,1405A,108.4394,22.7904,南宁市,仙葫,,,,,,,,,,,,,,,,
2025-11-25T1700,1406A,108.2397,22.8467,南宁市,区农职院,,35,35,39,20,27,89,89,83,83,9,18,6,8,0.6,0.7
2025-11-25T1700,1407A,108.3275,22.735,南宁市,英华嘉园,,46,46,42,16,29,94,94,85,85,12,23,4,5,0.6,0.7
2025-11-25T1700,3401A,108.4834,22.7618,南宁市,红星社区,,44,44,33,17,23,102,102,95,95,9,15,6,6,0.4,0.5
2025-11-25T1700,4221A,108.2177,22.7774,南宁市,乐贤路16号,,46,46,52,27,34,91,91,86,86,10,21,5,11,0.3,0.4
2025-11-25T1700,2331A,118.0966,26.6761,南平市,茫荡山,,,,33,,17,,,137,,,,,1,,0.3
2025-11-25T1700,2332A,118.1681,26.6369,南平市,南平市监测站,,35,35,34,20,24,104,104,94,94,10,26,5,4,0.4,0.5
2025-11-25T1700,2333A,118.1825,26.6489,南平市,南平铝业有限公司,颗粒物(PM10),51,51,36,22,26,98,98,95,95,19,28,6,5,0.3,0.5
2025-11-25T1700,2334A,118.1756,26.6272,南平市,南平七中,,50,50,35,23,22,108,108,98,98,8,16,6,6,0.4,0.4
2025-11-25T1700,1168A,120.9098,31.9663,南通市,狼山街道,颗粒物(PM10),58,66,145,12,37,62,62,58,58,17,33,3,6,0.3,0.4
2025-11-25T1700,1169A,120.86,32.0005,南通市,虹桥,颗粒物(PM10),52,54,122,18,38,64,64,61,61,20,32,3,6,0.0,0.6
2025-11-25T1700,1170A,120.87,32.02,南通市,城中,颗粒物(PM10),64,77,159,13,39,60,60,58,58,20,26,5,7,0.5,0.6
2025-11-25T1700,1171A,120.94,31.93,南通市,星湖花园,颗粒物(PM10),59,67,152,18,41,64,64,46,46,22,51,4,7,0.2,0.3
2025-11-25T1700,1172A,120.81,32.0417,南通市,紫琅学院,颗粒物(PM10),57,64,154,12,33,65,65,62,62,20,27,3,6,0.4,0.5
2025-11-25T1700,3291A,121.067,32.062,南通市,通州监测站,,46,46,125,9,40,65,65,63,63,19,31,3,6,0.2,0.4
2025-11-25T1700,3432A,120.9348,31.9883,南通市,环境教育馆,颗粒物(PM10),56,61,140,12,36,67,67,63,63,18,28,5,7,0.3,0.4
2025-11-25T1700,2404A,112.5224,33.0122,南阳市,瓦房庄,颗粒物(PM10),58,66,98,20,28,68,68,60,60,18,24,7,7,0.4,0.4
2025-11-25T1700,2405A,112.5003,32.9735,南阳市,汉画馆,颗粒物(PM10),57,63,84,18,22,68,68,59,59,19,23,7,6,0.3,0.4
2025-11-25T1700,2406A,112.5573,33.027,南阳市,气象站,颗粒物(PM10),62,73,134,14,29,71,71,61,61,21,29,9,8,0.5,0.5
2025-11-25T1700,2407A,112.5481,32.9689,南阳市,理工学院,颗粒物(PM10),61,71,93,17,26,70,70,61,61,15,26,6,6,0.4,0.5
2025-11-25T1700,4008A,112.5234,32.9922,南阳市,卧龙区政府,颗粒物(PM10),57,64,94,23,26,61,61,55,55,22,26,6,6,0.4,0.4
2025-11-25T1700,1234A,121.8358,29.911,宁波市,区环保大楼,颗粒物(PM10),105,159,144,33,45,59,59,59,59,33,38,12,9,0.5,0.6
2025-11-25T1700,1235A,121.56,29.82,宁波市,万里学院,颗粒物(PM10),89,128,120,25,44,72,72,67,67,20,36,5,7,0.3,0.5
2025-11-25T1700,1236A,121.713,29.9572,宁波市,龙赛医院,颗粒物(PM10),111,172,164,24,46,53,53,58,58,31,36,4,6,0.4,0.5
2025-11-25T1700,1239A,121.633,29.7733,宁波市,钱湖水厂,颗粒物(PM10),106,161,138,29,40,71,71,70,70,16,26,6,7,0.5,0.6
2025-11-25T1700,1240A,121.5856,29.8635,宁波市,太古小学,颗粒物(PM10),98,145,142,24,42,74,74,68,68,14,28,3,4,0.5,0.7
2025-11-25T1700,1241A,121.524,29.8674,宁波市,市环境监测中心,颗粒物(PM10),87,124,123,29,48,66,66,61,61,20,38,8,9,0.5,0.7
2025-11-25T1700,2871A,121.6147,29.9017,宁波市,万里国际学校,颗粒物(PM10),90,129,111,28,41,72,72,71,71,17,30,5,6,0.4,0.7
2025-11-25T1700,3710A,121.5594,29.8975,宁波市,白沙活动中心,颗粒物(PM10),85,119,107,24,43,72,72,66,66,17,31,6,6,0.5,0.6
2025-11-25T1700,2339A,119.5001,26.6946,宁德市,金涵水库,,,,31,,19,,,55,,,10,,2,,0.3
2025-11-25T1700,2341A,119.5388,26.6612,宁德市,宁德市监测站,颗粒物(PM10),54,58,35,26,22,123,123,105,105,18,18,8,7,0.5,0.6
2025-11-25T1700,3209A,119.5231,26.6562,宁德市,宁德一中,颗粒物(PM10),57,64,34,32,23,121,121,103,103,14,12,8,8,0.4,0.4
2025-11-25T1700,2618A,98.8601,25.8567,怒江傈僳族自治州,州监测站,,26,21,26,15,17,82,82,54,54,8,12,7,8,0.3,0.3
2025-11-25T1700,2619A,98.8546,25.8417,怒江傈僳族自治州,泸水一中,,17,16,27,10,17,49,49,40,40,33,17,7,7,0.4,0.6
2025-11-25T1700,1888A,101.6891,26.571,攀枝花市,弄弄坪,,35,35,54,14,30,80,80,52,52,12,29,8,31,0.5,0.9
2025-11-25T1700,1889A,101.5769,26.5928,攀枝花市,河门口,,32,32,49,17,27,79,79,55,55,16,23,31,24,1.2,1.2
2025-11-25T1700,1890A,101.7169,26.585,攀枝花市,炳草岗,,26,19,49,11,29,83,83,54,54,10,27,7,25,0.5,0.8
2025-11-25T1700,1891A,101.7369,26.5008,攀枝花市,仁和,,27,24,62,14,43,86,86,56,56,10,19,11,13,0.6,1
2025-11-25T1700,2835A,101.7227,26.567,攀枝花市,四十中小,,39,39,43,23,25,78,78,56,56,13,24,10,42,0.7,1
2025-11-25T1700,1604A,122.0303,41.1489,盘锦市,开发区,,48,48,26,15,7,51,51,58,58,19,7,3,3,0.3,0.3
2025-11-25T1700,1605A,122.0485,41.0883,盘锦市,兴隆台,,40,40,23,19,9,36,36,52,52,35,13,7,7,0.3,0.2
2025-11-25T1700,1606A,121.8297,41.1028,盘锦市,新生街道,,20,20,23,3,5,54,54,57,57,17,21,8,8,0.1,0.1
2025-11-25T1700,1832A,113.3257,33.742,平顶山市,新华旅馆,,,,174,,38,71,71,64,64,,21,8,8,0.4,0.5
2025-11-25T1700,1833A,113.2919,33.737,平顶山市,规划设计院,颗粒物(PM10),54,58,169,23,42,73,73,66,66,16,19,5,6,0.2,0.3
2025-11-25T1700,1834A,113.182,33.774,平顶山市,平顶山工学院,颗粒物(PM10),56,62,152,17,38,72,72,69,69,22,21,7,8,0.4,0.5
2025-11-25T1700,3204A,113.3025,33.73,平顶山市,规划局,颗粒物(PM10),62,73,185,18,40,72,72,64,64,19,21,6,7,0.4,0.4
2025-11-25T1700,3594A,112.8867,33.9116,平顶山市,石龙区,细颗粒物(PM2.5),62,69,175,44,46,85,85,76,76,15,25,6,6,0.2,0.3
2025-11-25T1700,2656A,106.6692,35.5461,平凉市,聚贤嘉苑,,43,43,46,15,21,80,80,68,68,15,31,6,6,0.6,0.7
2025-11-25T1700,2657A,106.7021,35.5307,平凉市,博物馆,,39,39,51,10,26,80,80,63,63,14,31,9,12,0.6,1
2025-11-25T1700,2347A,114.0997,27.5002,萍乡市,武功山,,,,,,,,,,,,,,,,
2025-11-25T1700,2348A,113.8385,27.6434,萍乡市,中医院,颗粒物(PM10),58,66,58,17,23,90,90,75,75,18,28,4,4,0.5,0.7
2025-11-25T1700,2349A,113.8493,27.6253,萍乡市,市政府车库,颗粒物(PM10),56,61,48,20,33,94,94,86,86,14,26,6,7,0.4,0.7
2025-11-25T1700,2350A,113.8676,27.6435,萍乡市,市环保局,颗粒物(PM10),56,62,53,21,30,105,105,85,85,8,18,10,10,0.2,0.5
2025-11-25T1700,2351A,113.866,27.6198,萍乡市,安源区政府,,46,46,52,29,35,94,94,75,75,11,21,8,8,0.5,0.7
2025-11-25T1700,2319A,119.0141,25.4325,莆田市,荔城区仓后路,颗粒物(PM10),70,89,44,43,23,124,124,107,107,13,18,5,5,0.5,0.6
2025-11-25T1700,2320A,119.0015,25.4553,莆田市,莆田市监测站,颗粒物(PM10),60,69,30,33,18,126,126,113,113,14,12,5,5,0.4,0.5
2025-11-25T1700,2321A,119.1119,25.4561,莆田市,涵江区六中,颗粒物(PM10),57,63,40,25,21,126,126,114,114,12,15,5,4,0.6,0.6
2025-11-25T1700,2322A,119.1013,25.3215,莆田市,秀屿区政府,颗粒物(PM10),60,70,40,29,22,124,124,113,113,13,14,8,6,0.3,0.3
2025-11-25T1700,2323A,118.981,25.4792,莆田市,东圳水库,,,,27,,16,,,95,,,11,,5,,0.9
2025-11-25T1700,2392A,115.0312,35.7636,濮阳市,环保局,颗粒物(PM10),67,84,58,16,10,46,46,43,43,20,17,7,8,0.3,0.6
2025-11-25T1700,2394A,115.0574,35.7609,濮阳市,油田运输公司,颗粒物(PM10),62,73,56,11,8,61,61,61,61,22,18,9,10,0.3,0.3
2025-11-25T1700,3021A,115,35.7668,濮阳市,濮水河管理处,颗粒物(PM10),71,92,58,28,19,60,60,58,58,18,18,8,8,0.5,0.1
2025-11-25T1700,4216A,115.0924,35.7686,濮阳市,任丘路479号,颗粒物(PM10),70,90,69,21,15,61,61,42,,26,23,7,8,0.2,0.3
2025-11-25T1700,2601A,100.98,22.7633,普洱市,市环保局,,33,33,40,22,21,86,86,79,79,4,11,7,5,0.2,0.3
2025-11-25T1700,2602A,100.9817,22.8322,普洱市,普洱第二中学,,36,36,32,9,18,85,85,82,82,10,11,6,5,0.2,0.2
2025-11-25T1700,2262A,131.0518,45.8751,七台河市,新一中,,,,,,,,,,,,,,,,
2025-11-25T1700,3345A,131.0577,45.7879,七台河市,中波台,,49,49,25,22,13,14,14,39,34,46,15,12,9,0.7,0.4
2025-11-25T1700,3637A,131.0176,45.7761,七台河市,人民广场,颗粒物(PM10),64,77,31,44,19,4,4,34,32,48,19,11,12,0.7,0.4
2025-11-25T1700,3684A,130.8781,45.8222,七台河市,新建矿广场,颗粒物(PM10),65,80,39,30,18,26,26,40,40,34,15,11,9,0.6,0.4
2025-11-25T1700,1779A,123.9305,47.3636,齐齐哈尔市,安居小区,,41,41,58,16,38,42,42,43,43,17,18,8,8,0.4,0.4
2025-11-25T1700,1780A,123.9488,47.3386,齐齐哈尔市,中心广场,,30,30,42,14,27,41,41,43,43,21,20,7,8,0.4,0.4
2025-11-25T1700,1781A,123.9483,47.3227,齐齐哈尔市,农牧车辆厂,,44,44,51,8,26,42,42,40,40,9,15,6,7,0.5,0.6
2025-11-25T1700,1783A,123.945,47.2988,齐齐哈尔市,市环境监测站,,44,44,46,17,27,47,47,46,46,10,19,7,8,0.5,0.6
2025-11-25T1700,3662A,123.6333,47.2075,齐齐哈尔市,富区青少年活动中心,,49,49,55,22,32,41,41,46,46,16,21,5,8,0.5,0.7
2025-11-25T1700,2591A,107.9783,26.5747,黔东南苗族侗族自治州,市环境监测站,,31,31,31,19,24,87,87,80,80,9,14,5,5,0.4,0.5
2025-11-25T1700,2881A,107.8908,26.5311,黔东南苗族侗族自治州,凯里学院,,41,41,35,20,23,94,94,81,81,11,13,4,4,0.4,0.4
2025-11-25T1700,2593A,107.5228,26.2403,黔南布依族苗族自治州,小围寨,,41,41,38,17,23,104,104,91,91,6,5,7,8,0.5,0.5
2025-11-25T1700,3538A,107.5175,26.2978,黔南布依族苗族自治州,沙坝,,44,44,39,17,24,96,96,86,86,10,11,5,7,0.5,0.6
2025-11-25T1700,2589A,104.9022,25.0925,黔西南布依族苗族自治州,场坝街,,31,20,46,9,30,98,98,79,79,9,18,5,11,0.3,0.5
2025-11-25T1700,2590A,104.8811,25.0992,黔西南布依族苗族自治州,坪东大道,,30,28,36,15,28,95,95,77,77,8,19,6,8,0.3,0.5
2025-11-25T1700,2502A,108.6236,21.9667,钦州市,市环保站,,46,46,48,17,22,104,104,96,96,10,13,4,4,0.3,0.9
2025-11-25T1700,2503A,108.6549,21.9481,钦州市,沙埠小学,,38,38,48,19,25,111,111,101,101,9,14,5,6,0.4,0.7
2025-11-25T1700,2504A,108.5989,21.7431,钦州市,港区一小,颗粒物(PM10),52,54,58,18,31,100,100,90,90,18,25,5,8,0.6,0.7
2025-11-25T1700,3404A,108.5959,21.9633,钦州市,北职校,,34,34,42,21,26,102,102,95,95,7,10,8,8,0.6,0.7
2025-11-25T1700,1043A,119.7493,40.0116,秦皇岛市,第一关,,32,32,27,22,23,50,50,58,58,24,22,9,6,0.6,0.3
2025-11-25T1700,1044A,119.5897,39.9499,秦皇岛市,监测站,,30,30,33,9,16,52,52,57,57,25,18,9,8,0.6,0.4
2025-11-25T1700,1046A,119.5251,39.9041,秦皇岛市,建设大厦,,32,32,33,20,22,54,54,57,57,17,16,6,5,0.3,0.3
2025-11-25T1700,3132A,119.610547,39.943889,秦皇岛市,文明里,,29,29,29,3,19,47,47,53,52,19,9,10,9,0.4,0.3
2025-11-25T1700,4198A,119.5090,39.8253,秦皇岛市,北戴河轮滑馆,,42,42,25,7,14,50,50,56,56,12,7,6,5,0.5,0.4
2025-11-25T1700,1307A,120.6659,36.2403,青岛市,仰口,,,,,,,,,,,,,,,,
2025-11-25T1700,1310A,120.4134,36.0658,青岛市,市南区东部子站,,39,39,75,14,19,57,57,56,56,23,20,11,10,0.6,0.5
2025-11-25T1700,1311A,120.3664,36.1032,青岛市,四方区子站,,39,39,68,22,20,66,66,67,67,14,10,5,4,0.3,0.3
2025-11-25T1700,1312A,120.2994,36.054,青岛市,市南区西部子站,,31,31,90,15,17,64,64,62,62,19,18,9,9,0.5,0.5
2025-11-25T1700,1313A,120.4581,36.0858,青岛市,崂山区子站,,24,24,68,9,14,58,58,58,58,24,21,10,10,0.6,0.5
2025-11-25T1700,1315A,120.3999,36.3083,青岛市,城阳区子站,,46,46,70,17,19,63,63,63,63,20,18,7,6,0.6,0.6
2025-11-25T1700,3362A,120.5014,36.4034,青岛市,即墨2号,,39,39,67,19,23,53,53,52,52,25,20,6,6,0.4,0.4
2025-11-25T1700,3642A,120.3503,36.0736,青岛市,市北区南部,,46,46,77,14,16,55,55,57,57,31,21,5,4,0.5,0.3
2025-11-25T1700,3643A,120.3948,36.1805,青岛市,李沧区北部,,44,44,71,19,22,57,57,57,57,23,20,8,8,0.6,0.5
2025-11-25T1700,4290A,120.1969,35.9546,青岛市,珠江路669号,,31,31,78,17,22,64,64,65,65,19,13,10,10,0.4,0.3
2025-11-25T1700,4291A,120.0424,35.8656,青岛市,黄岛区人民政府广场,,27,27,105,3,17,69,69,65,65,16,15,6,6,0.2,0.2
2025-11-25T1700,1702A,113.0426,23.691,清远市,环保大楼,,,,,,,,,,,,,,,,
2025-11-25T1700,1703A,113.0208,23.7106,清远市,凤城街办,,35,34,33,17,20,112,112,102,102,13,14,7,8,0.4,0.5
2025-11-25T1700,3025A,113.0477,23.6344,清远市,技师学院,,45,45,38,15,21,105,105,100,100,15,15,6,7,0.4,0.4
2025-11-25T1700,3318A,112.9903,23.7403,清远市,清新太和,,37,31,30,15,19,116,116,108,108,6,7,10,11,0.3,0.3
2025-11-25T1700,3455A,113.076,23.7198,清远市,清城东城,,36,36,33,18,21,110,110,105,105,20,15,8,9,0.3,0.4
2025-11-25T1700,2661A,107.6325,35.7357,庆阳市,庆阳五中,,50,50,59,24,26,73,73,65,64,16,19,4,6,0.3,0.4
2025-11-25T1700,2662A,107.6364,35.7067,庆阳市,市环保局,,49,49,61,20,23,74,74,71,71,18,18,8,10,0.5,0.5
2025-11-25T1700,1916A,103.7897,25.5035,曲靖市,环境监测站,,31,22,32,3,15,97,97,83,83,10,13,2,7,0.2,0.4
2025-11-25T1700,1917A,103.8,25.5364,曲靖市,烟厂办公区,,32,21,35,7,18,101,101,78,78,9,14,5,9,0.2,0.4
