timepoint,stationcode,longitude,latitude,area,positionname,primarypollutant,aqi,pm10,pm10_24h,pm2_5,pm2_5_24h,o3,o3_24h,o3_8h,o3_8h_24h,no2,no2_24h,so2,so2_24h,co,co_24h
2024-07-06T1900,2566A,102.1879,31.914,阿坝藏族羌族自治州,州农科所,,31,31,28,7,9,28,,55,52,35,15,7,5,0.2,0.2
2024-07-06T1900,3994A,102.2165,31.9024,阿坝藏族羌族自治州,马尔康中学西区,,23,21,27,16,15,36,,67,65,12,10,5,6,0.4,0.3
2024-07-06T1900,2695A,80.292,41.1694,阿克苏地区,电视台,,46,14,32,6,13,146,,138,138,5,7,7,4,0.2,0.3
2024-07-06T1900,2696A,80.2613,41.1551,阿克苏地区,艺术中心,,45,10,30,3,15,141,,134,134,1,4,3,4,0.2,0.2
2024-07-06T1900,2204A,105.6467,38.8363,阿拉善盟,西城区西花园,,45,45,49,25,20,139,,168,165,18,12,9,8,0.4,0.5
2024-07-06T1900,2205A,105.6985,38.8411,阿拉善盟,蒙二幼,,50,50,46,24,24,133,,151,149,13,8,10,10,0.6,0.5
2024-07-06T1900,2206A,105.724,38.8516,阿拉善盟,环保局新楼,,45,39,41,19,22,142,,154,151,9,7,11,10,0.5,0.5
2024-07-06T1900,2708A,88.1264,47.8517,阿勒泰地区,市站,,36,11,14,7,6,114,,115,115,12,11,6,6,0.4,0.4
2024-07-06T1900,2630A,80.1161,32.5,阿里地区,阿里监测站,,37,15,6,3,3,116,,124,103,3,4,6,8,0.4,0.4
2024-07-06T1900,3192A,80.0903,32.5028,阿里地区,阿里藏医院,,41,27,10,7,3,131,,129,112,3,3,9,9,0.4,0.4
2024-07-06T1900,2642A,109.0318,32.6537,安康市,香溪洞,,29,21,9,10,3,92,,78,78,5,4,6,6,0.7,0.6
2024-07-06T1900,2643A,109.0281,32.6939,安康市,安康市监测站,,29,15,12,3,6,92,,84,84,4,7,6,6,0.5,0.4
2024-07-06T1900,2644A,109.0072,32.6975,安康市,汉滨区检察院,,29,13,13,10,6,92,,82,82,7,7,6,6,0.5,0.5
2024-07-06T1900,2291A,117.0809,30.5177,安庆市,环科院,,30,22,20,16,13,93,,96,96,15,11,5,6,0.4,0.4
2024-07-06T1900,2292A,117.0331,30.5119,安庆市,马山宾馆,,30,22,18,15,12,95,,98,98,14,13,7,9,0.4,0.5
2024-07-06T1900,2294A,116.9896,30.6145,安庆市,安庆大学,,33,30,21,16,12,103,,100,100,8,9,7,8,0.4,0.4
2024-07-06T1900,3173A,117.0598,30.5351,安庆市,市人大,,31,22,18,14,13,97,,97,97,6,7,6,8,0.3,0.3
2024-07-06T1900,3123A,105.9408,26.2431,安顺市,凤凰山,,18,,11,8,7,57,,56,56,5,3,7,7,0.2,0.2
2024-07-06T1900,3124A,105.9439,26.2564,安顺市,金钟山,,20,11,11,7,7,61,,58,58,4,3,4,4,0.4,0.4
2024-07-06T1900,3125A,105.8983,26.2481,安顺市,娄家坡,,20,17,15,10,7,61,,56,56,2,2,5,5,0.4,0.5
2024-07-06T1900,1819A,114.3551,36.1017,安阳市,红庙街,臭氧1小时,64,54,40,34,29,171,,164,164,4,5,1,2,0.7,1
2024-07-06T1900,1820A,114.361,36.0681,安阳市,银杏小区,,,51,37,,24,167,,159,159,1,6,1,2,0.8,1.2
2024-07-06T1900,3141A,114.3922,36.0878,安阳市,信访局,臭氧1小时,69,54,34,28,20,175,,164,164,2,4,5,4,0.8,1.1
2024-07-06T1900,3669A,114.4705,36.0637,安阳市,左辅环卫站,臭氧1小时,54,38,25,27,24,163,,151,151,2,7,4,3,0.8,1
2024-07-06T1900,3703A,114.2917,36.0949,安阳市,安钢职工学校,臭氧1小时,60,65,43,31,32,168,,159,159,6,8,2,2,0.8,1.1
2024-07-06T1900,1748A,123.044,41.1196,鞍山市,深沟寺,,31,17,34,10,21,98,,118,100,13,14,4,4,0.7,0.7
2024-07-06T1900,1749A,123.011,41.0931,鞍山市,太阳城,,30,22,30,15,21,94,,119,99,23,13,12,7,2.1,1.1
2024-07-06T1900,1750A,123.0485,41.1442,鞍山市,太平,,,23,51,12,25,105,,120,106,14,16,4,4,,0.9
2024-07-06T1900,1751A,122.9642,41.0971,鞍山市,铁西三道街,,33,17,36,13,28,103,,121,106,15,17,3,4,1.0,1
2024-07-06T1900,1752A,122.9341,41.0833,鞍山市,铁西工业园区,,33,14,31,9,22,103,,110,107,10,16,4,3,1.0,1
2024-07-06T1900,1753A,123.022,41.0821,鞍山市,明达新区,,28,15,27,11,17,87,,120,97,25,11,9,6,1.9,0.8
2024-07-06T1900,2195A,107.4212,40.761,巴彦淖尔市,附二中,颗粒物(PM10),51,52,48,32,26,139,,154,154,17,15,3,6,0.5,0.6
2024-07-06T1900,2196A,107.37,40.7372,巴彦淖尔市,市环保大楼,颗粒物(PM10),57,64,56,13,19,122,,140,138,15,13,4,6,0.5,0.5
2024-07-06T1900,1956A,86.1472,41.7538,巴音郭楞蒙古自治州,孔雀公园,颗粒物(PM10),78,105,86,31,26,91,,89,89,13,35,4,4,0.3,0.5
2024-07-06T1900,1957A,86.1972,41.7166,巴音郭楞蒙古自治州,棉纺厂,颗粒物(PM10),65,79,85,33,29,100,,100,100,10,20,4,4,0.3,0.4
2024-07-06T1900,1958A,86.2357,41.7173,巴音郭楞蒙古自治州,经济开发区,颗粒物(PM10),66,81,80,29,25,110,,103,103,5,13,3,3,0.2,0.3
2024-07-06T1900,2914A,106.7677,31.8794,巴中市,苏山坪,,28,17,11,10,6,87,,85,85,4,4,3,3,0.5,0.5
2024-07-06T1900,3182A,106.7656,31.8545,巴中市,丽阳花园,,28,22,15,15,8,87,,85,85,8,9,6,6,0.5,0.5
2024-07-06T1900,3183A,106.7418,31.8654,巴中市,圣泉水务公司,,27,19,14,11,8,86,,86,86,8,10,5,4,0.5,0.5
2024-07-06T1900,3616A,106.7616,31.8344,巴中市,市中心医院,,28,16,16,10,9,88,,85,85,4,8,6,6,0.4,0.5
2024-07-06T1900,2235A,122.7911,45.6077,白城市,洮北区环保局,,36,29,26,25,21,107,,108,108,10,15,6,7,0.3,0.3
2024-07-06T1900,2236A,122.8738,45.5725,白城市,市环保局,,38,34,20,26,16,85,,96,94,13,15,5,5,0.3,0.3
2024-07-06T1900,2231A,126.4219,41.9171,白山市,喜丰,,23,10,36,8,18,71,,96,88,18,13,11,10,1.3,1.2
2024-07-06T1900,2232A,126.4077,41.9419,白山市,环保局,,24,18,38,10,21,76,,95,90,6,7,10,8,1.1,1.1
2024-07-06T1900,2647A,104.1724,36.5446,白银市,第三小学,颗粒物(PM10),56,61,63,23,25,111,,114,114,22,18,9,65,0.4,0.6
2024-07-06T1900,2648A,104.1465,36.5482,白银市,动力公司,颗粒物(PM10),53,55,52,22,23,120,,116,116,17,14,7,35,0.3,0.3
2024-07-06T1900,2512A,106.6103,23.9011,百色市,市监测站,,37,37,26,16,12,84,,78,78,9,11,12,12,0.8,0.8
2024-07-06T1900,2513A,106.6538,23.8859,百色市,市中心血站,,42,42,25,11,13,86,,75,75,10,9,10,9,0.7,0.6
2024-07-06T1900,3406A,106.6085,23.8798,百色市,祈福高中,,36,32,32,25,14,83,,78,78,6,12,13,16,0.8,0.9
2024-07-06T1900,2270A,117.396,32.939,蚌埠市,工人疗养院,,26,26,30,7,9,78,,92,92,2,5,8,9,0.3,0.4
2024-07-06T1900,2271A,117.3605,32.9427,蚌埠市,百货大楼,,25,24,32,10,13,79,,90,90,4,7,6,6,0.2,0.2
2024-07-06T1900,2273A,117.4185,32.8911,蚌埠市,蚌埠学院,,27,27,24,7,11,73,,91,91,9,4,6,8,0.4,0.4
2024-07-06T1900,2274A,117.3533,32.9673,蚌埠市,淮上区政府,,,29,26,11,13,78,,96,96,10,5,,4,0.4,0.4
2024-07-06T1900,2275A,117.3145,32.8977,蚌埠市,高新区,,48,48,29,13,12,76,,97,97,10,7,6,7,0.4,0.4
2024-07-06T1900,3715A,117.3092,32.9314,蚌埠市,蚌埠田家炳中学,,36,36,31,8,13,67,,90,90,13,7,8,8,0.4,0.3
2024-07-06T1900,1585A,109.8756,40.6532,包头市,市环境监测站,,46,46,47,10,25,136,,158,158,33,32,21,21,0.8,1
2024-07-06T1900,1587A,109.9991,40.5842,包头市,包头八中,,45,45,42,6,25,131,,158,157,24,21,7,17,0.4,0.6
2024-07-06T1900,1589A,109.8642,40.6288,包头市,惠龙物流,,47,42,42,8,14,148,,163,163,20,24,27,26,0.6,0.7
2024-07-06T1900,1590A,110.0377,40.5546,包头市,东河鸿龙湾,,,39,25,13,16,140,,65,,16,20,8,13,,0.6
2024-07-06T1900,3283A,109.9154,40.5685,包头市,滨河大厦,,47,29,31,11,19,148,,160,160,9,22,9,13,0.4,0.6
2024-07-06T1900,3419A,109.9447,40.6261,包头市,包头市委党校,,50,38,40,13,23,157,,170,170,17,27,12,12,0.5,0.7
2024-07-06T1900,3683A,109.8331,40.6576,包头市,昆区政府,,44,44,44,10,29,137,,163,163,28,26,16,22,0.9,1.2
2024-07-06T1900,1930A,107.185,34.3063,宝鸡市,庙沟村,,35,33,32,24,16,95,,106,106,5,8,9,9,0.4,0.4
2024-07-06T1900,1931A,107.0708,34.3017,宝鸡市,竹园沟,,48,48,33,16,16,100,,135,135,17,13,9,9,0.6,0.5
2024-07-06T1900,1932A,107.1906,34.3672,宝鸡市,三陆医院,,40,33,39,14,17,127,,133,133,14,18,7,8,0.6,0.6
2024-07-06T1900,1933A,107.1431,34.3547,宝鸡市,监测站,,44,44,34,16,15,122,,131,131,15,16,8,9,0.4,0.4
2024-07-06T1900,1934A,107.1186,34.3739,宝鸡市,技工学校,,40,28,35,13,19,125,,138,138,19,16,7,7,0.5,0.4
2024-07-06T1900,1935A,107.3906,34.3528,宝鸡市,陈仓区环保局家属楼,,42,34,32,17,16,133,,136,136,14,18,7,7,0.4,0.4
2024-07-06T1900,1936A,107.2058,34.3497,宝鸡市,文理学院,,41,26,34,17,14,129,,134,134,13,16,8,8,0.5,0.5
2024-07-06T1900,1937A,107.2386,34.3622,宝鸡市,三迪小学,,39,31,35,10,17,123,,132,132,19,18,8,8,0.5,0.5
2024-07-06T1900,1051A,115.493,38.8632,保定市,游泳馆,臭氧1小时,72,48,25,33,15,177,,167,167,1,3,7,7,0.1,0.1
2024-07-06T1900,1052A,115.5213,38.8959,保定市,华电二区,臭氧1小时,104,44,28,19,13,208,,184,184,4,4,12,8,0.4,0.3
2024-07-06T1900,1053A,115.4713,38.9108,保定市,接待中心,臭氧1小时,94,39,30,31,16,195,,171,171,1,3,2,2,0.4,0.3
2024-07-06T1900,1054A,115.4612,38.8416,保定市,地表水厂,臭氧1小时,84,74,38,40,22,187,,173,173,6,4,1,2,0.7,0.6
2024-07-06T1900,3581A,115.31981,38.95208,保定市,满城区生态环境分局,臭氧1小时,82,70,32,24,18,185,,168,168,4,3,2,1,0.3,0.3
2024-07-06T1900,3582A,115.47694,38.76408,保定市,清苑区第二中学,臭氧1小时,68,75,38,39,21,174,,171,171,7,5,4,4,0.5,0.4
2024-07-06T1900,3583A,115.62909,39.02311,保定市,徐水物探局,臭氧1小时,87,43,30,14,13,189,,176,176,12,11,5,4,0.3,0.3
2024-07-06T1900,4004A,115.4202,38.8656,保定市,双鹰农机,臭氧1小时,90,66,23,22,12,192,,176,176,6,7,4,4,0.4,0.2
2024-07-06T1900,4034A,115.5150,38.8590,保定市,植保所站,臭氧1小时,107,42,19,29,20,214,,191,191,3,4,4,3,0.4,0.3
2024-07-06T1900,2594A,99.1678,25.1081,保山市,市环境监测站,,20,20,19,6,12,40,,43,43,9,7,6,5,0.5,0.5
2024-07-06T1900,2595A,99.1711,25.1328,保山市,市环保局,,20,20,25,3,8,45,,50,50,8,5,5,4,0.5,0.5
2024-07-06T1900,1867A,109.1436,21.4086,北海市,海滩公园,,,32,18,,2,72,,60,60,6,4,3,3,0.6,0.6
2024-07-06T1900,1868A,109.0981,21.4661,北海市,新市环保局,,23,22,11,3,3,72,,65,65,5,4,4,4,0.4,0.5
2024-07-06T1900,1869A,109.1778,21.5233,北海市,北海工业园,,24,24,11,7,6,58,,61,61,5,5,4,4,0.3,0.4
2024-07-06T1900,3400A,109.1911,21.4415,北海市,龙潭自来水厂,,21,8,9,3,5,67,,59,59,4,3,5,5,0.4,0.5
2024-07-06T1900,1001A,116.3621,39.8784,北京市,万寿西宫,,,26,37,21,26,163,,159,159,12,19,3,3,,0.6
2024-07-06T1900,1002A,116.2202,40.2915,北京市,定陵,,48,10,30,3,20,152,,158,158,11,20,3,3,0.2,0.4
2024-07-06T1900,1003A,116.4174,39.9289,北京市,东四,臭氧1小时,64,28,35,17,26,171,,170,170,10,13,5,4,0.4,0.5
2024-07-06T1900,1004A,116.4072,39.8863,北京市,天坛,臭氧1小时,55,22,32,16,22,164,,165,165,11,14,3,3,0.5,0.5
2024-07-06T1900,1005A,116.462,39.9365,北京市,农展馆,,50,27,35,14,22,158,,161,161,11,16,3,3,0.4,0.5
2024-07-06T1900,1006A,116.3392,39.9295,北京市,官园,臭氧1小时,80,27,38,19,26,184,,180,180,11,12,5,4,0.2,0.3
2024-07-06T1900,1007A,116.2878,39.9611,北京市,海淀万柳,臭氧1小时,54,29,36,18,27,163,,165,165,11,13,5,5,0.4,0.3
2024-07-06T1900,1008A,116.6636,40.135,北京市,顺义新城,臭氧1小时,52,20,39,18,32,161,,173,173,13,15,3,3,0.4,0.5
2024-07-06T1900,1009A,116.6275,40.3275,北京市,怀柔镇,,47,23,40,18,32,150,,164,164,3,6,1,1,0.3,0.4
2024-07-06T1900,1010A,116.2296,40.217,北京市,昌平镇,,43,16,44,7,29,135,,141,141,7,15,3,2,0.3,0.5
2024-07-06T1900,1011A,116.3966,39.9821,北京市,奥体中心,,45,22,37,13,26,144,,135,135,12,14,3,3,0.5,0.5
2024-07-06T1900,1012A,116.184,39.9136,北京市,古城,,50,25,47,16,26,157,,157,157,17,17,1,1,0.5,0.5
2024-07-06T1900,3281A,115.9718,40.4529,北京市,延庆夏都,,43,11,29,6,18,136,,137,137,6,12,3,3,0.4,0.5
2024-07-06T1900,3417A,117.0709,40.1465,北京市,平谷新城,,44,23,51,16,35,139,,140,140,18,14,3,3,0.4,0.4
2024-07-06T1900,3418A,116.8336,40.4095,北京市,密云新城,臭氧1小时,57,25,55,13,33,165,,163,163,10,10,3,3,0.4,0.5
2024-07-06T1900,3672A,116.1541,39.8204,北京市,丰台云岗,,40,29,36,22,26,128,,147,146,22,15,1,4,0.4,0.5
2024-07-06T1900,3673A,116.6804,39.9081,北京市,通州东关,臭氧1小时,53,23,39,17,28,162,,166,166,8,12,1,2,0.4,0.5
2024-07-06T1900,3674A,115.9577,39.7603,北京市,房山燕山,,50,31,33,17,25,157,,142,142,5,7,3,3,0.4,0.5
2024-07-06T1900,3675A,116.4672,39.7733,北京市,大兴旧宫,臭氧1小时,52,20,29,14,21,161,,159,159,6,11,3,3,0.4,0.5
2024-07-06T1900,3694A,115.986,40.4563,北京市,延庆石河营,,44,10,25,7,18,140,,137,137,6,11,3,3,0.4,0.5
2024-07-06T1900,3695A,116.6151,40.3053,北京市,怀柔新城,,46,22,41,16,31,146,,154,154,5,8,3,3,0.5,0.6
2024-07-06T1900,3696A,116.2545,39.8768,北京市,丰台小屯,,46,29,36,17,23,146,,149,149,9,11,3,3,0.5,0.5
2024-07-06T1900,3697A,116.84,40.3844,北京市,密云镇,臭氧1小时,52,23,47,18,39,161,,162,162,12,9,3,3,0.4,0.5
2024-07-06T1900,1761A,123.8275,41.3064,本溪市,大峪,,30,23,26,9,15,93,,131,102,20,10,9,9,0.7,0.6
2024-07-06T1900,1762A,123.7567,41.3325,本溪市,溪湖,,30,18,28,12,16,96,,111,104,18,12,7,7,0.7,0.7
2024-07-06T1900,1763A,123.7169,41.3094,本溪市,彩屯,,31,16,33,13,25,99,,97,97,15,25,7,10,0.6,1.6
2024-07-06T1900,1764A,123.7669,41.2864,本溪市,东明,,29,20,28,13,16,92,,134,99,26,17,7,7,0.7,0.7
2024-07-06T1900,1765A,123.7992,41.2664,本溪市,新立屯,,29,17,20,7,11,91,,122,102,15,8,4,5,0.7,0.7
2024-07-06T1900,1766A,123.8142,41.3472,本溪市,威宁,,28,20,30,15,19,87,,93,93,19,16,8,8,0.7,0.8
2024-07-06T1900,2587A,105.2864,27.3125,毕节市,八中,,24,20,25,12,18,74,,72,72,9,13,5,6,0.4,0.5
2024-07-06T1900,2588A,105.31,27.2944,毕节市,师专,,22,17,23,14,17,68,,68,68,8,14,4,4,0.4,0.5
2024-07-06T1900,3537A,105.3631,27.3533,毕节市,长征村,,25,17,23,12,16,80,,78,78,5,11,6,8,0.4,0.4
2024-07-06T1900,1629A,118.0018,37.3617,滨州市,第二水厂,,,14,8,12,5,,,131,,4,3,1,2,0.4,0.3
2024-07-06T1900,1630A,117.9776,37.393,滨州市,北中新校,,49,24,10,12,6,155,,148,148,5,3,2,2,0.4,0.3
2024-07-06T1900,3514A,117.9378,37.3956,滨州市,中海酒店,臭氧1小时,59,19,8,17,8,167,,156,156,7,6,3,3,0.3,0.2
2024-07-06T1900,3515A,117.9378,37.3553,滨州市,开发区一中,,48,14,9,14,8,151,,143,143,4,3,4,6,0.6,0.5
2024-07-06T1900,3516A,118.0917,37.694,滨州市,金海六路,,48,24,8,7,4,152,,144,144,12,7,2,2,0.3,0.3
2024-07-06T1900,4028A,117.9956,37.3753,滨州市,滨州市西街道办事处,臭氧1小时,55,17,10,14,7,164,,155,155,4,3,3,3,0.5,0.4
2024-07-06T1900,2311A,115.8072,33.8399,亳州市,污水处理厂,,26,10,8,7,6,83,,82,82,3,2,2,2,0.6,0.5
2024-07-06T1900,2312A,115.7789,33.8518,亳州市,三国揽胜宫,,30,20,11,6,7,93,,83,83,2,3,1,2,0.4,0.3
2024-07-06T1900,3332A,115.7633,33.8034,亳州市,亳州学院,,27,,8,14,8,86,,87,87,2,3,3,3,0.4,0.4
2024-07-06T1900,2693A,82.0485,44.8556,博尔塔拉蒙古自治州,市党校,,40,20,19,3,4,126,,114,114,8,9,9,9,0.3,0.3
2024-07-06T1900,2694A,82.0806,44.8969,博尔塔拉蒙古自治州,市环保局,,40,17,20,14,9,126,,118,118,9,14,9,8,0.3,0.3
2024-07-06T1900,1071A,116.8842,38.2991,沧州市,沧县城建局,,43,28,26,19,14,137,,147,147,8,10,2,2,0.6,0.6
2024-07-06T1900,1072A,116.8584,38.3254,沧州市,电视转播站,,45,33,26,22,15,144,,140,140,7,8,3,2,0.3,0.3
2024-07-06T1900,1073A,116.8709,38.3228,沧州市,市环保局,,45,36,30,22,20,143,,149,149,8,10,3,3,0.3,0.3
2024-07-06T1900,3324A,116.8136,38.3004,沧州市,河北水利电力学院,,44,24,20,24,22,140,,147,147,10,14,4,4,0.3,0.3
2024-07-06T1900,2622A,97.1806,31.1273,昌都市,昌都监测站,,15,9,14,7,6,46,,49,49,6,10,8,7,0.3,0.3
2024-07-06T1900,3719A,97.1714,31.1406,昌都市,昌都会议中心,,15,10,13,3,7,48,,54,54,4,7,6,6,0.4,0.4
2024-07-06T1900,2690A,88.1236,43.8886,昌吉回族自治州,天山天池,,29,12,14,7,4,90,,116,116,8,8,4,4,0.6,0.6
2024-07-06T1900,2692A,87.2717,44.0297,昌吉回族自治州,新区政务中心,,29,29,21,10,8,85,,110,110,17,14,8,7,0.5,0.4
2024-07-06T1900,3613A,87.3095,44.0142,昌吉回族自治州,亚心广场,,25,24,21,9,4,80,,113,112,24,22,5,6,0.3,0.3
2024-07-06T1900,1119A,125.3325,43.9166,长春市,食品厂,,21,21,26,13,19,32,,86,72,42,30,5,5,0.8,0.7
2024-07-06T1900,1120A,125.2863,43.9027,长春市,客车厂,,32,,25,22,21,26,,90,71,49,30,2,2,0.7,0.7
2024-07-06T1900,1121A,125.2841,43.8463,长春市,邮电学院,,25,25,25,11,14,32,,75,61,19,17,6,6,0.6,0.6
2024-07-06T1900,1122A,125.3716,43.8772,长春市,劳动公园,,27,27,26,14,14,42,,83,70,29,21,3,4,0.8,0.7
2024-07-06T1900,1123A,125.3297,43.8805,长春市,园林处,,28,24,23,19,20,51,,92,80,25,20,3,4,0.6,0.5
2024-07-06T1900,1124A,125.4605,43.79,长春市,净月潭,,15,14,18,8,9,48,,66,53,4,5,4,4,0.5,0.5
2024-07-06T1900,1126A,125.3863,43.8447,长春市,经开区环卫处,,20,20,22,10,10,58,,89,75,21,25,3,3,0.6,0.6
2024-07-06T1900,1127A,125.245,43.7783,长春市,高新区管委会,,17,11,27,8,14,53,,91,79,18,23,4,4,0.6,0.6
2024-07-06T1900,1128A,125.1761,43.8325,长春市,岱山公园,,22,22,24,14,18,40,,87,73,35,28,3,3,0.6,0.6
2024-07-06T1900,1335A,113.0833,28.2325,长沙市,经开区环保局,,21,21,24,11,12,66,,87,83,5,7,5,6,0.3,0.3
2024-07-06T1900,1336A,112.8872,28.2189,长沙市,高开区环保局,,26,25,23,11,11,81,,84,83,4,6,6,7,0.6,0.6
2024-07-06T1900,1337A,113.0792,28.2053,长沙市,马坡岭,,26,20,23,10,12,82,,106,101,5,7,8,9,0.4,0.5
2024-07-06T1900,1338A,112.9394,28.19,长沙市,湖南师范大学,,25,14,26,12,13,78,,88,82,7,10,2,5,0.4,0.5
2024-07-06T1900,1339A,113.0178,28.1322,长沙市,雨花区环保局,,24,17,24,10,10,76,,100,94,3,5,3,5,0.4,0.5
2024-07-06T1900,1340A,112.9792,28.2597,长沙市,伍家岭,,25,24,24,6,9,78,,87,82,3,6,2,4,0.4,0.5
2024-07-06T1900,1341A,113.0014,28.1944,长沙市,火车新站,,24,20,26,9,11,75,,97,91,8,8,3,5,0.3,0.3
2024-07-06T1900,1342A,112.9844,28.1178,长沙市,天心区环保局,,22,20,28,10,12,69,,89,83,6,10,4,5,0.4,0.4
2024-07-06T1900,1343A,112.8908,28.1308,长沙市,湖南中医药大学,,25,20,25,11,10,80,,87,84,1,5,6,6,0.4,0.5
2024-07-06T1900,1344A,112.9581,28.3611,长沙市,沙坪,,27,17,16,10,12,85,,87,85,7,9,7,8,0.4,0.4
2024-07-06T1900,1727A,113.1147,36.1547,长治市,清华站,臭氧1小时,77,31,33,17,16,181,,174,174,11,17,10,9,0.6,0.8
2024-07-06T1900,1728A,113.1031,36.1989,长治市,监测站,臭氧1小时,82,31,32,14,16,185,,176,176,12,19,4,4,0.8,1.2
2024-07-06T1900,1730A,113.0886,36.2125,长治市,审计局,臭氧1小时,70,31,30,17,15,176,,169,169,21,28,3,3,0.8,1
2024-07-06T1900,1731A,113.0844,36.1856,长治市,长治八中,臭氧1小时,74,35,35,17,16,179,,173,173,16,18,4,4,0.7,1
2024-07-06T1900,2845A,113.1569,36.1911,长治市,德盛苑,臭氧1小时,90,28,29,22,20,192,,183,183,8,8,8,8,0.9,1.3
2024-07-06T1900,3568A,113.06,36.0464,长治市,向阳小学,臭氧1小时,84,52,45,45,35,187,,184,184,11,13,6,6,1.0,0.9
2024-07-06T1900,3569A,112.8792,36.3144,长治市,屯留一中,臭氧1小时,79,41,38,22,25,183,,172,172,13,13,9,8,0.5,0.4
2024-07-06T1900,3570A,113.235,36.3489,长治市,潞城四中,臭氧1小时,94,32,38,16,25,195,,190,190,5,18,6,7,0.6,0.8
2024-07-06T1900,1854A,111.6975,28.9703,常德市,市二中,,23,20,14,9,7,71,,60,60,6,3,7,6,0.4,0.4
2024-07-06T1900,3138A,111.7153,29.0289,常德市,武陵区永安,,21,15,13,6,6,66,,58,58,5,5,7,7,0.3,0.2
2024-07-06T1900,3139A,111.6892,28.9881,常德市,鼎城区玉霞,,20,19,15,11,7,63,,58,58,4,3,5,5,0.4,0.4
2024-07-06T1900,3140A,111.6625,29.0531,常德市,武陵区长庚,,20,18,13,10,8,64,,57,57,2,2,8,8,0.4,0.4
2024-07-06T1900,1196A,119.9633,31.762,常州市,市监测站,,29,21,19,9,12,92,,102,101,10,12,7,7,0.6,0.6
2024-07-06T1900,1200A,119.9468,31.7069,常州市,武进监测站,,,,22,,11,93,,99,99,2,6,8,5,0.5,0.5
2024-07-06T1900,1201A,119.9255,31.9087,常州市,安家,,26,24,25,7,11,82,,92,92,8,16,6,10,0.4,0.5
2024-07-06T1900,3002A,119.9805,31.8174,常州市,行政中心,,29,19,23,14,14,91,,96,96,7,9,11,11,0.2,0.2
2024-07-06T1900,3003A,120.0522,31.7748,常州市,经开区,,28,24,30,12,13,87,,94,94,20,24,5,6,0.2,0.3
2024-07-06T1900,3010A,119.9025,31.7964,常州市,钟楼,,27,25,23,7,10,84,,91,90,10,10,4,4,0.4,0.5
2024-07-06T1900,3429A,119.8598,31.7066,常州市,武进经发区,,28,22,24,10,12,89,,98,96,2,8,7,9,0.4,0.4
2024-07-06T1900,3430A,119.5826,31.7245,常州市,金坛城区,,27,16,20,9,11,84,,96,94,5,10,6,7,0.3,0.4
2024-07-06T1900,2220A,120.4318,41.5881,朝阳市,西梁,,26,,110,17,38,83,,92,92,9,15,9,9,0.8,1.1
2024-07-06T1900,2221A,120.4521,41.5646,朝阳市,河畔小区,,,,149,9,42,92,,101,101,7,11,7,7,0.5,1
2024-07-06T1900,2222A,120.4176,41.5648,朝阳市,八里堡,,26,19,102,12,39,83,,101,101,12,13,6,6,1.0,1.3
2024-07-06T1900,2223A,120.3806,41.5969,朝阳市,农业园区,,,,121,9,48,77,,97,95,7,15,6,8,0.6,1
2024-07-06T1900,1705A,116.6367,23.6719,潮州市,西园路,,13,,19,3,6,40,,51,50,8,10,2,4,0.4,0.4
2024-07-06T1900,3026A,116.6183,23.6608,潮州市,市政府,,29,29,22,6,9,42,,50,50,4,6,4,5,0.7,0.6
2024-07-06T1900,4036A,116.6461,23.6761,潮州市,金山,,19,19,20,10,6,40,,49,49,4,8,5,6,0.5,0.5
2024-07-06T1900,2472A,113.0073,25.9061,郴州市,马头岭,,23,23,24,7,8,65,,87,70,4,5,11,11,0.5,0.5
2024-07-06T1900,2473A,113.0116,25.8226,郴州市,市职中,,23,9,17,7,13,73,,101,72,6,7,7,11,0.3,0.4
2024-07-06T1900,2474A,113.0161,25.8001,郴州市,兴隆步行街,,23,12,21,3,11,71,,105,70,5,5,7,16,0.4,0.4
2024-07-06T1900,2475A,113.0383,25.8071,郴州市,市审计局,,22,,16,10,14,68,,108,70,8,6,4,17,0.2,0.3
2024-07-06T1900,2476A,113.0348,25.7759,郴州市,市环保局,,24,9,18,7,14,76,,112,73,2,4,5,23,0.4,0.4
2024-07-06T1900,1431A,103.9728,30.7236,成都市,金泉两河,,41,39,44,17,27,131,,142,142,21,17,2,3,0.6,0.6
2024-07-06T1900,1432A,104.176,30.6872,成都市,十里店,,33,33,43,10,23,94,,129,124,7,18,3,4,0.4,0.5
2024-07-06T1900,1433A,104.079,30.5706,成都市,三瓦窑,,35,30,41,10,26,109,,124,121,6,19,1,2,0.4,0.5
2024-07-06T1900,1434A,104.1114,30.63,成都市,沙河铺,,34,34,36,11,20,88,,122,115,10,13,4,3,0.5,0.6
2024-07-06T1900,1437A,104.0786,30.6531,成都市,君平街,,39,39,43,12,22,98,,145,139,31,19,2,4,0.6,0.5
2024-07-06T1900,2880A,104.0239,30.65639,成都市,大石西路,,38,38,46,16,26,97,,144,141,17,17,3,6,0.6,0.6
2024-07-06T1900,3136A,104.2725,30.5589,成都市,龙泉驿区区政府,,29,27,24,12,15,92,,124,117,5,7,4,3,0.5,0.5
2024-07-06T1900,3357A,104.0106,30.6931,成都市,金博路,,27,21,40,12,26,86,,138,135,10,15,1,3,0.5,0.6
2024-07-06T1900,3359A,104.0578,30.5225,成都市,华阳,,32,31,32,22,29,99,,118,114,2,4,3,3,0.6,0.7
2024-07-06T1900,3487A,104.2394,30.5319,成都市,车城东七路,,30,22,31,16,22,94,,122,117,5,10,2,2,0.5,0.5
2024-07-06T1900,3488A,104.3853,30.7453,成都市,青白江技师分院,,29,17,28,3,14,90,,129,115,3,16,4,5,0.6,0.6
2024-07-06T1900,3489A,104.0789,30.4072,成都市,科学城,,34,24,31,15,24,106,,120,117,5,10,3,4,0.5,0.5
2024-07-06T1900,4011A,103.8506,30.6947,成都市,光华大道三段,颗粒物(PM10),55,60,54,32,31,125,,136,136,19,13,4,4,0.8,0.9
2024-07-06T1900,1062A,117.9531,40.9081,承德市,铁路,,43,43,49,23,32,125,,143,143,17,18,9,7,0.4,0.5
2024-07-06T1900,1063A,117.9392,40.9763,承德市,中国银行,,46,46,52,26,32,120,,137,137,14,17,16,6,0.3,0.5
2024-07-06T1900,1064A,117.9503,40.928,承德市,开发区,,42,35,47,20,32,134,,149,149,12,17,16,8,0.5,0.5
2024-07-06T1900,1065A,117.8051,40.9655,承德市,文化中心,,43,43,52,19,29,129,,144,144,14,15,36,14,0.4,0.4
2024-07-06T1900,1066A,117.9268,41.0026,承德市,离宫,颗粒物(PM10),55,60,44,30,32,119,,127,127,4,9,19,4,0.2,0.4
2024-07-06T1900,2314A,117.47,30.6618,池州市,池州学院,,27,27,20,13,9,81,,77,77,5,6,6,6,0.3,0.3
2024-07-06T1900,3237A,117.4918,30.6617,池州市,展览馆,,25,24,19,12,7,80,,78,78,5,4,4,4,0.4,0.3
2024-07-06T1900,3333A,117.5627,30.695,池州市,第八中学,,24,15,14,9,8,76,,78,78,6,7,4,4,0.2,0.1
2024-07-06T1900,3334A,117.5038,30.6243,池州市,第十二中学,,26,26,17,16,10,70,,76,76,10,9,6,6,0.3,0.3
2024-07-06T1900,1744A,118.9233,42.2816,赤峰市,松山一中,,29,16,45,6,15,92,,94,94,12,18,10,13,0.5,0.6
2024-07-06T1900,1745A,118.9576,42.2728,赤峰市,哈达街,,30,,33,11,17,94,,98,95,12,17,10,32,0.6,0.6
2024-07-06T1900,1746A,118.8788,42.2554,赤峰市,天义路,,30,14,29,6,14,96,,98,97,18,23,5,20,0.4,0.4
2024-07-06T1900,3058A,119.2658,42.0353,赤峰市,银河街,,29,10,30,3,22,90,,99,98,14,16,12,13,0.4,0.4
2024-07-06T1900,3286A,118.9359,42.3147,赤峰市,桥北物流园区,,28,15,24,13,13,88,,93,92,13,15,7,7,0.3,0.5
2024-07-06T1900,2521A,107.3476,22.4136,崇左市,市环保局江州分局,,27,27,20,8,8,43,,58,57,4,8,4,5,0.7,0.6
2024-07-06T1900,2522A,107.3702,22.3707,崇左市,城南新区,,13,10,12,6,5,41,,57,56,2,5,2,3,0.6,0.6
2024-07-06T1900,2298A,118.3093,32.3153,滁州市,老年大学,,35,25,23,16,13,110,,107,107,5,5,5,6,0.5,0.5
2024-07-06T1900,2299A,118.3244,32.2786,滁州市,人大宾馆,,35,35,25,20,16,110,,113,113,8,8,5,7,0.5,0.4
2024-07-06T1900,3207A,118.3118,32.3038,滁州市,市政府原办公楼,,34,20,19,18,15,107,,105,105,6,7,6,7,0.6,0.5
2024-07-06T1900,3331A,118.3267,32.2634,滁州市,图书馆,,33,29,22,20,18,105,,111,111,6,5,8,10,0.7,0.7
2024-07-06T1900,2605A,101.5482,25.0441,楚雄彝族自治州,州环境监测站,,12,8,8,3,5,38,,38,38,3,3,4,4,0.4,0.5
2024-07-06T1900,2606A,101.538,25.0492,楚雄彝族自治州,市经济开发区,,12,,9,8,6,34,,35,35,5,4,4,4,0.5,0.5
2024-07-06T1900,2548A,107.5277,31.2827,达州市,达州职业技术学院,,21,12,16,3,5,67,,42,42,8,11,3,3,0.2,0.2
2024-07-06T1900,2549A,107.5086,31.2186,达州市,市环境监测站,,26,25,19,3,3,82,,81,81,14,16,5,6,0.5,0.5
2024-07-06T1900,2550A,107.4988,31.2132,达州市,凤凰小区,,29,14,13,7,6,90,,85,85,10,14,6,6,0.4,0.4
2024-07-06T1900,2551A,107.5082,31.1986,达州市,达县机关宾馆,,27,27,17,8,6,82,,82,82,19,17,4,4,0.2,0.2
2024-07-06T1900,2552A,107.4644,31.2124,达州市,市政中心,,28,27,24,7,5,87,,87,87,11,16,6,7,0.4,0.4
2024-07-06T1900,2614A,100.1542,25.7054,大理白族自治州,大理市环境监测站,,18,18,14,3,9,40,,42,42,6,6,4,4,0.4,0.4
2024-07-06T1900,2615A,100.2171,25.5811,大理白族自治州,大理古城,,,17,20,,11,44,,57,57,8,8,6,5,,0.7
2024-07-06T1900,1109A,121.612,38.9741,大连市,甘井子,,36,20,18,18,9,115,,115,115,13,12,7,8,0.5,0.5
2024-07-06T1900,1110A,121.565,38.9511,大连市,周水子,,38,,17,18,10,119,,117,117,16,14,6,8,0.8,0.7
2024-07-06T1900,1111A,121.5637,38.8845,大连市,星海三站,,38,18,17,12,9,119,,132,132,11,6,7,6,0.5,0.5
2024-07-06T1900,1112A,121.6302,38.9117,大连市,青泥洼桥,,35,28,14,20,11,112,,113,113,11,10,8,8,0.8,0.7
2024-07-06T1900,1113A,121.6251,38.8638,大连市,傅家庄,,42,15,16,7,10,132,,133,133,8,9,7,7,0.4,0.5
2024-07-06T1900,1114A,121.5213,38.8661,大连市,七贤岭,,37,16,17,10,10,116,,120,120,11,10,6,6,0.5,0.4
2024-07-06T1900,1115A,121.2529,38.8061,大连市,旅顺,,40,12,9,7,6,126,,131,131,10,9,9,8,0.4,0.5
2024-07-06T1900,1116A,121.7485,39.1311,大连市,金州,,34,13,14,11,8,106,,116,116,8,6,6,6,0.5,0.5
2024-07-06T1900,1117A,121.7811,39.0496,大连市,开发区,,34,20,22,14,11,106,,119,119,14,10,4,5,0.5,0.6
2024-07-06T1900,1118A,121.9762,39.0631,大连市,双D港,,45,26,20,14,11,143,,135,135,11,11,6,6,0.7,0.7
2024-07-06T1900,1789A,124.81117,46.03138,大庆市,大同区,,48,34,29,33,21,76,,101,,11,10,6,6,0.3,0.3
2024-07-06T1900,1790A,125.129,46.533,大庆市,龙凤区,颗粒物(PM10),59,67,38,26,21,101,,126,126,30,17,6,6,0.5,0.4
2024-07-06T1900,1791A,124.902,46.408,大庆市,红岗区,,37,37,23,20,22,105,,129,128,12,13,7,7,0.6,0.5
2024-07-06T1900,1792A,125.153,46.586,大庆市,萨尔图区,,40,40,40,23,23,103,,120,120,15,16,8,8,0.4,0.4
2024-07-06T1900,1793A,124.9042,46.6215,大庆市,让胡路区,颗粒物(PM10),52,53,49,17,12,112,,122,122,12,14,5,6,0.4,0.3
2024-07-06T1900,3481A,125.141,46.634,大庆市,萨区政府监测点,颗粒物(PM10),57,63,48,24,20,94,,122,122,21,20,6,6,0.3,0.4
2024-07-06T1900,1723A,113.2994,40.0758,大同市,云冈宾馆,,47,24,49,22,45,148,,155,155,16,18,8,9,0.3,0.6
2024-07-06T1900,1724A,113.3444,40.0917,大同市,大同大学,,44,34,38,21,32,139,,146,146,16,19,11,10,0.4,0.6
2024-07-06T1900,1725A,113.2661,40.1269,大同市,安家小村,,45,40,35,13,25,142,,147,147,14,17,14,13,0.4,0.5
2024-07-06T1900,1726A,113.2711,40.0844,大同市,教育学院,颗粒物(PM10),51,52,51,23,33,140,,150,150,26,24,10,11,0.4,0.5
2024-07-06T1900,3282A,113.3397,40.0597,大同市,大同市卫生学校,,47,40,59,21,39,150,,154,154,13,18,11,11,0.6,0.8
2024-07-06T1900,3565A,113.1367,40.1122,大同市,云冈站,,47,47,34,11,20,143,,143,143,12,17,9,9,0.6,0.6
2024-07-06T1900,3566A,113.1186,40.2556,大同市,图书馆,,45,23,27,14,19,142,,144,144,14,15,8,8,0.4,0.7
2024-07-06T1900,3567A,113.5931,40.0461,大同市,区一中,,36,25,36,11,19,113,,148,148,11,14,6,6,0.6,0.7
2024-07-06T1900,3676A,113.2802,40.0995,大同市,第二人民医院,,45,43,49,17,29,143,,156,156,18,18,10,11,0.5,0.7
2024-07-06T1900,2269A,124.1069,50.4097,大兴安岭地区,科技局,细颗粒物(PM2.5),97,129,109,72,66,68,,45,45,8,7,7,7,1.0,0.8
2024-07-06T1900,3663A,124.1164,50.4278,大兴安岭地区,红旗社区,细颗粒物(PM2.5),122,,84,92,89,65,,38,38,5,7,8,8,1.0,0.8
2024-07-06T1900,1600A,124.3303,40.0625,丹东市,江湾东路,,25,14,15,6,7,79,,116,100,16,7,5,4,0.5,0.5
2024-07-06T1900,1601A,124.4256,40.1503,丹东市,临江后街,,28,9,10,6,6,88,,114,102,14,5,9,8,0.8,0.7
2024-07-06T1900,1602A,124.3933,40.1461,丹东市,元宝山,,23,,11,3,8,71,,110,95,6,7,6,6,0.3,0.4
2024-07-06T1900,1603A,124.3633,40.1092,丹东市,民主桥,,20,13,16,6,8,64,,109,91,17,5,5,5,0.6,0.6
2024-07-06T1900,3541A,109.5726,19.5167,儋州市,第一中学子站,,17,17,12,9,6,42,,44,44,4,4,6,6,0.5,0.5
2024-07-06T1900,3542A,109.5567,19.5187,儋州市,东坡学校子站,,12,10,13,8,6,38,,41,40,6,5,4,6,0.5,0.5
2024-07-06T1900,2616A,98.5842,24.428,德宏傣族景颇族自治州,德宏州监测站,,14,14,23,3,9,35,,50,50,8,9,2,2,0.6,0.7
2024-07-06T1900,3677A,98.5881,24.4368,德宏傣族景颇族自治州,芒市人民政府综合楼,,11,7,20,7,12,35,,47,47,6,8,4,6,0.4,0.5
2024-07-06T1900,1901A,104.4239,31.1208,德阳市,东山公园,,40,40,41,20,19,96,,132,126,9,12,2,4,0.5,0.5
2024-07-06T1900,1902A,104.3826,31.1317,德阳市,西小区,,38,36,40,26,22,89,,144,136,20,23,2,4,0.7,0.6
2024-07-06T1900,1904A,104.3553,31.1091,德阳市,耐火材料厂,,35,34,44,24,24,83,,148,138,14,22,2,4,0.6,0.6
2024-07-06T1900,3639A,104.4019,31.1244,德阳市,市教育局,,43,43,42,27,23,125,,160,158,20,19,3,4,0.7,0.6
2024-07-06T1900,1622A,116.3032,37.4674,德州市,儿童乐园,,46,24,14,12,9,145,,141,141,6,5,7,7,0.6,0.6
2024-07-06T1900,1624A,116.2991,37.4451,德州市,监理站,,46,29,9,12,7,147,,144,144,11,9,8,10,0.5,0.5
2024-07-06T1900,3066A,116.2721,37.4379,德州市,九衢泉纯净水厂,,43,31,14,14,10,135,,135,135,12,9,6,5,0.6,0.6
2024-07-06T1900,3371A,116.3728,37.4403,德州市,开发区人民医院,,47,27,15,12,7,148,,141,141,8,7,9,9,0.6,0.6
2024-07-06T1900,3372A,116.3572,37.4094,德州市,太阳城中学,,47,22,12,12,10,150,,144,144,9,8,7,7,0.6,0.6
2024-07-06T1900,3511A,116.5652,37.3319,德州市,陵城艺术中心,,,29,12,9,4,143,,140,140,,4,6,4,0.6,0.5
2024-07-06T1900,2621A,99.7056,27.8317,迪庆藏族自治州,迪庆州站,,18,18,17,7,8,37,,39,38,8,8,10,10,0.2,0.3
2024-07-06T1900,3180A,99.7136,27.8094,迪庆藏族自治州,质量技术监督局,,20,18,14,14,8,40,,40,40,7,7,9,9,0.4,0.4
2024-07-06T1900,2663A,104.6241,35.5734,定西市,东关小学,,40,40,60,23,27,103,,100,100,7,14,5,6,0.2,0.2
2024-07-06T1900,2664A,104.6194,35.5934,定西市,供电公司,,39,39,58,25,28,108,,108,108,8,24,4,4,0.3,0.3
2024-07-06T1900,1389A,113.7547,23.0494,东莞市,莞城梨川,,27,27,19,13,8,78,,120,120,22,19,7,7,0.7,0.7
2024-07-06T1900,1390A,113.7944,23.0128,东莞市,东城石井,,26,21,18,11,8,83,,123,123,20,18,2,2,0.5,0.6
2024-07-06T1900,1391A,113.7383,22.9658,东莞市,南城西平,,28,28,19,12,9,72,,109,109,25,19,1,2,0.6,0.6
2024-07-06T1900,3319A,113.7338,23.0381,东莞市,万江金泰,,25,18,19,9,9,78,,120,120,17,18,6,6,0.6,0.7
2024-07-06T1900,3626A,113.7533,23.0202,东莞市,南城元岭,,24,22,21,8,10,74,,120,120,20,18,8,7,0.6,0.6
2024-07-06T1900,3627A,113.7875,23.0457,东莞市,东城主山,,25,23,17,10,8,79,,123,123,19,16,5,5,0.6,0.6
2024-07-06T1900,1666A,118.6614,37.4309,东营市,市环保局,臭氧1小时,79,36,7,19,5,183,,157,157,9,4,11,9,0.4,0.2
2024-07-06T1900,3036A,118.6904,37.4338,东营市,开发区管委会,臭氧1小时,77,24,10,12,5,181,,159,159,14,7,9,8,0.9,0.7
2024-07-06T1900,3365A,118.5719,37.565,东营市,垦利区民丰路,臭氧1小时,72,22,9,14,6,177,,163,163,10,5,12,9,0.5,0.4
2024-07-06T1900,3498A,118.5055,37.8612,东营市,河口城区,,,17,14,,16,95,,92,92,6,6,6,6,0.3,0.4
2024-07-06T1900,3646A,118.4978,37.4623,东营市,胜利站,臭氧1小时,73,28,13,24,5,178,,155,155,23,8,13,6,0.8,0.6
2024-07-06T1900,3734A,118.35,37.26,东营市,理想之城,臭氧1小时,80,34,10,29,7,184,,156,156,12,4,10,8,0.5,0.3
2024-07-06T1900,1591A,110.0023,39.8129,鄂尔多斯市,综合楼,"颗粒物(PM10),臭氧1小时",54,58,51,17,22,163,,168,168,19,22,9,15,0.5,0.7
2024-07-06T1900,1592A,109.9486,39.8261,鄂尔多斯市,巴音孟克林场办事处,颗粒物(PM10),53,56,46,19,22,146,,150,150,16,21,6,11,0.6,0.8
2024-07-06T1900,1593A,109.7736,39.5986,鄂尔多斯市,康泽苑,,50,44,32,24,17,158,,160,160,16,14,10,9,0.5,0.5
2024-07-06T1900,1594A,109.8119,39.5989,鄂尔多斯市,华泰汽车城,,47,22,33,22,20,148,,149,149,11,21,8,8,0.3,0.4
2024-07-06T1900,1595A,109.9734,39.7884,鄂尔多斯市,奥林花园,,46,46,44,19,25,141,,149,149,17,25,7,8,0.5,0.6
2024-07-06T1900,2436A,114.8938,30.3994,鄂州市,市政府,,22,17,21,3,6,68,,74,73,14,8,7,6,0.2,0.3
2024-07-06T1900,2437A,114.8989,30.3714,鄂州市,赵家坝,,23,11,22,3,6,73,,74,74,5,8,8,8,0.5,0.5
2024-07-06T1900,3654A,114.8094,30.4089,鄂州市,精准医疗中心,,25,14,21,3,6,77,,78,78,6,9,5,7,0.3,0.4
2024-07-06T1900,2454A,109.4978,30.2981,恩施土家族苗族自治州,湖北民院,,19,19,19,9,13,47,,53,53,4,10,6,6,0.6,0.7
2024-07-06T1900,2455A,109.4707,30.2798,恩施土家族苗族自治州,州电力总公司,,15,15,20,7,10,34,,46,46,29,22,8,8,0.7,0.7
2024-07-06T1900,3549A,109.5061,30.3772,恩施土家族苗族自治州,龙凤新区,,14,14,16,3,8,23,,42,42,8,12,6,6,0.6,0.7
2024-07-06T1900,2499A,108.3411,21.6158,防城港市,沙万,,16,12,15,7,6,49,,48,48,4,7,8,10,0.5,0.5
2024-07-06T1900,2500A,108.3514,21.7731,防城港市,防城档案局,,15,8,15,7,5,46,,50,50,6,9,4,5,0.3,0.4
2024-07-06T1900,2501A,108.3506,21.6414,防城港市,大海花园,,22,22,13,7,4,44,,46,46,10,9,6,8,0.5,0.5
2024-07-06T1900,1371A,113.1294,23.0067,佛山市,湾梁,,27,24,20,14,12,85,,130,130,16,16,6,6,0.5,0.5
2024-07-06T1900,1372A,113.1083,23.0478,佛山市,华材职中,,29,22,16,13,12,91,,132,132,16,16,3,4,0.4,0.4
2024-07-06T1900,1373A,113.144,23.0453,佛山市,南海气象局,,31,31,22,13,13,82,,126,126,15,12,7,7,0.4,0.4
2024-07-06T1900,1374A,113.2881,22.8094,佛山市,顺德苏岗,,18,8,15,3,8,55,,85,85,9,14,5,6,0.3,0.4
2024-07-06T1900,1376A,112.8383,22.8678,佛山市,高明孔堂,,26,21,20,15,10,83,,105,105,6,9,6,7,0.5,0.5
2024-07-06T1900,1377A,112.8836,23.1588,佛山市,三水监测站,,32,19,20,3,12,102,,112,112,25,26,3,5,0.3,0.3
2024-07-06T1900,1378A,112.867,23.185,佛山市,三水云东海,,38,22,20,12,13,120,,123,123,20,21,3,5,0.3,0.4
2024-07-06T1900,3625A,113.2544,22.7642,佛山市,容桂街道办,,18,14,11,12,9,56,,86,86,18,18,6,6,0.5,0.4
2024-07-06T1900,1282A,119.2681,26.0504,福州市,师大,,36,36,32,6,13,71,,74,73,10,11,4,4,0.4,0.4
2024-07-06T1900,1283A,119.2984,26.1028,福州市,五四北路,颗粒物(PM10),54,57,31,8,12,77,,85,82,10,12,4,4,0.3,0.3
2024-07-06T1900,1284A,119.2648,26.0768,福州市,杨桥西路,,45,45,33,11,12,77,,77,77,9,11,4,4,0.5,0.5
2024-07-06T1900,1285A,119.317,26.0746,福州市,紫阳,,38,38,31,7,10,68,,77,76,9,14,3,3,0.4,0.5
2024-07-06T1900,3048A,119.5799,26.0936,福州市,九龙,,26,26,24,3,7,58,,86,80,5,8,4,5,0.2,0.3
2024-07-06T1900,3526A,119.5189,25.9664,福州市,吴航,,20,18,23,3,10,61,,79,79,3,9,5,5,0.4,0.4
2024-07-06T1900,1755A,123.7977,41.8491,抚顺市,望花区,,30,15,41,14,26,95,,93,93,11,19,2,2,0.4,0.6
2024-07-06T1900,1756A,123.9161,41.8822,抚顺市,顺城区,,29,23,39,12,25,92,,88,88,13,20,4,5,0.4,0.7
2024-07-06T1900,1757A,124.0436,41.8611,抚顺市,东洲区,,28,24,31,13,22,88,,96,81,10,11,6,8,0.4,0.6
2024-07-06T1900,1758A,123.9247,41.8642,抚顺市,新抚区,,25,18,34,12,24,80,,75,75,10,14,2,3,0.4,0.7
2024-07-06T1900,1759A,124.0972,41.8961,抚顺市,大伙房水库,,23,14,37,11,22,73,,78,70,8,8,6,7,0.6,0.8
2024-07-06T1900,1760A,123.7086,41.8391,抚顺市,沈抚新城,,27,,35,7,37,86,,84,84,16,21,5,5,0.5,0.8
2024-07-06T1900,2376A,116.2127,28.0814,抚州市,桐源党溪,,18,18,20,3,10,49,,63,59,8,4,5,6,0.3,0.3
2024-07-06T1900,2377A,116.3544,27.9831,抚州市,市站,,18,18,19,9,8,52,,57,56,3,4,4,5,0.6,0.6
2024-07-06T1900,2378A,116.3565,27.963,抚州市,血防站,,25,25,31,8,13,45,,52,51,5,5,6,9,0.9,0.8
2024-07-06T1900,2379A,116.3564,28.0007,抚州市,采茶剧团,,19,19,17,9,7,47,,53,52,2,4,4,4,0.6,0.6
2024-07-06T1900,2380A,116.385,27.9647,抚州市,医学分院,,22,22,19,3,7,50,,57,56,5,6,4,4,0.5,0.7
2024-07-06T1900,2207A,121.6094,41.998,阜新市,工业园区,,30,20,60,12,41,96,,117,98,15,18,4,13,0.8,1.1
2024-07-06T1900,2208A,121.6697,42.0279,阜新市,长青街,,30,30,70,17,48,83,,113,93,12,17,4,15,0.9,1.1
2024-07-06T1900,2209A,121.6673,42.0705,阜新市,农业园区,,42,42,116,19,57,70,,90,90,11,17,4,8,0.9,1.2
2024-07-06T1900,2210A,121.6717,42.0224,阜新市,东苑,,30,22,70,20,48,94,,112,95,16,20,6,21,1.1,1.2
2024-07-06T1900,2211A,121.6506,42.0498,阜新市,玉龙新城,,32,32,93,17,43,77,,95,95,13,18,2,7,0.7,1
2024-07-06T1900,2301A,115.8277,32.8929,阜阳市,市监测站,,40,,19,28,10,76,,87,87,10,7,4,4,0.5,0.4
2024-07-06T1900,2303A,115.8554,32.8605,阜阳市,开发区,,43,43,19,9,8,74,,88,88,12,9,6,6,0.2,0.3
2024-07-06T1900,2875A,115.784,32.8892,阜阳市,阜阳职业技术学院,,32,32,15,8,7,76,,87,87,10,8,6,6,0.2,0.3
2024-07-06T1900,3468A,115.7901,32.8613,阜阳市,市规划展馆,,28,28,21,12,13,72,,82,82,8,8,2,2,0.4,0.4
2024-07-06T1900,3469A,115.836,32.9183,阜阳市,枣园社区,,25,25,19,12,13,74,,83,83,13,8,1,1,0.4,0.4
2024-07-06T1900,2669A,102.9099,34.9841,甘南藏族自治州,州政府,颗粒物(PM10),56,61,45,22,18,109,,104,104,9,11,8,8,0.3,0.3
2024-07-06T1900,3380A,102.8914,34.9617,甘南藏族自治州,甘肃民族师范学院,颗粒物(PM10),52,54,42,23,14,98,,98,98,9,16,4,3,0.7,0.7
2024-07-06T1900,2570A,101.9603,30.0475,甘孜藏族自治州,水桥子,,23,15,16,9,7,73,,88,88,3,16,4,4,0.3,0.3
2024-07-06T1900,3065A,101.9533,29.9972,甘孜藏族自治州,州环保局,,22,14,20,6,6,70,,92,90,10,18,2,2,0.3,0.2
2024-07-06T1900,3414A,115.8347,28.932,赣江新区,桑海产业园,,33,22,23,12,12,103,,119,119,18,19,8,12,0.4,0.4
2024-07-06T1900,2363A,114.9367,25.8664,赣州市,地委,,19,12,11,3,7,58,,61,60,3,4,6,8,0.7,0.6
2024-07-06T1900,2364A,114.9461,25.8481,赣州市,气象台,,19,8,11,6,7,59,,59,59,5,7,7,8,0.5,0.5
2024-07-06T1900,2365A,114.9322,25.8333,赣州市,市图书馆,,18,13,11,6,5,56,,61,61,7,5,13,14,0.8,1
2024-07-06T1900,2366A,114.8905,25.8471,赣州市,华坚鞋城,,16,14,15,3,5,50,,55,54,6,5,7,28,0.5,0.5
2024-07-06T1900,3109A,115.0093,25.8613,赣州市,赣县区卫计委,,46,46,29,16,12,66,,,,18,12,7,6,0.5,0.5
2024-07-06T1900,2683A,106.2319,36.1417,固原市,马园,,42,42,59,19,19,126,,142,140,25,35,5,5,0.7,0.7
2024-07-06T1900,2684A,106.2792,36.0022,固原市,监测站,,45,44,51,16,23,141,,150,150,8,20,6,6,0.2,0.2
2024-07-06T1900,2685A,106.2375,36.0211,固原市,新区,,41,41,52,21,23,131,,144,144,13,17,6,5,0.5,0.5
2024-07-06T1900,3522A,106.2177,35.9959,固原市,原州区十五小,,42,37,52,18,24,133,,144,144,8,14,6,6,0.8,0.7
2024-07-06T1900,2544A,106.6303,30.4576,广安市,市委,,34,29,25,20,14,106,,109,109,10,12,8,7,0.4,0.5
2024-07-06T1900,2545A,106.6271,30.4663,广安市,友谊中学,,34,26,19,17,14,107,,113,113,12,13,8,8,0.5,0.5
2024-07-06T1900,2547A,106.6388,30.4551,广安市,广电花园,,35,23,24,18,12,109,,112,112,9,10,7,6,0.5,0.5
2024-07-06T1900,2902A,106.6351,30.4865,广安市,北辰小学,,33,28,23,17,14,104,,110,110,8,10,9,8,0.3,0.4
2024-07-06T1900,2523A,105.8945,32.4535,广元市,黑石坡,,26,15,21,7,9,81,,84,84,9,8,13,13,0.4,0.4
2024-07-06T1900,2524A,105.821,32.4444,广元市,老城,,32,,37,22,13,92,,98,98,8,27,5,7,0.4,0.5
2024-07-06T1900,2526A,105.8628,32.4287,广元市,监测站,,32,11,28,3,14,100,,99,99,6,13,7,7,0.3,0.4
2024-07-06T1900,3617A,105.8047,32.4166,广元市,经开区,,29,29,43,15,21,82,,95,95,9,22,4,8,0.5,0.6
2024-07-06T1900,1345A,113.2347,23.1423,广州市,广雅中学,,29,17,24,3,12,91,,101,101,14,20,4,4,0.6,0.5
2024-07-06T1900,1346A,113.2612,23.105,广州市,市五中,,30,21,19,15,11,93,,102,102,10,14,3,3,0.5,0.6
2024-07-06T1900,1348A,113.3478,23.0916,广州市,广东商学院,,21,16,18,13,10,65,,87,87,12,20,4,4,0.4,0.5
2024-07-06T1900,1349A,113.4332,23.1047,广州市,市八十六中,,20,17,20,6,8,61,,87,87,22,27,4,3,0.5,0.5
2024-07-06T1900,1350A,113.3505,22.9483,广州市,番禺中学,,20,17,18,3,3,62,,83,83,12,15,7,7,0.6,0.6
2024-07-06T1900,1351A,113.2146,23.3916,广州市,花都师范,,34,18,24,12,12,108,,130,130,15,22,6,7,0.4,0.5
2024-07-06T1900,1352A,113.2597,23.1331,广州市,市监测站,,29,29,18,11,9,88,,99,99,13,15,4,5,0.4,0.5
2024-07-06T1900,1353A,113.5618,23.312,广州市,九龙镇镇龙,,47,37,36,17,16,149,,149,149,23,28,7,7,0.5,0.5
2024-07-06T1900,1354A,113.2765,23.1544,广州市,麓湖,,27,25,21,12,10,85,,97,97,14,18,3,3,0.3,0.4
2024-07-06T1900,1355A,113.443,23.3035,广州市,帽峰山森林公园,,38,17,15,6,8,119,,122,122,14,19,6,5,0.4,0.4
2024-07-06T1900,2846A,113.3221,23.1322,广州市,体育西,,22,19,19,12,12,70,,90,90,16,19,4,4,0.5,0.5
2024-07-06T1900,3298A,113.5717,23.5491,广州市,从化街口,臭氧1小时,65,26,23,17,14,172,,142,142,13,16,5,5,0.5,0.6
2024-07-06T1900,3299A,113.3472,23.3692,广州市,白云竹料,,33,24,29,8,13,103,,126,126,19,32,4,5,0.5,0.5
2024-07-06T1900,3300A,113.2981,23.237,广州市,白云嘉禾,,27,25,21,11,9,85,,101,101,22,25,6,5,0.5,0.6
2024-07-06T1900,3301A,113.4256,23.1716,广州市,黄埔科学城,,27,27,20,18,9,68,,98,98,20,20,8,7,0.5,0.5
2024-07-06T1900,3302A,113.3942,23.0483,广州市,番禺大学城,,20,14,17,6,7,61,,82,82,14,15,5,5,0.3,0.4
2024-07-06T1900,3303A,113.4922,22.8168,广州市,南沙黄阁,,20,13,23,8,8,63,,71,71,10,15,5,5,0.6,0.6
2024-07-06T1900,3304A,113.5342,22.7896,广州市,南沙街,,26,26,17,3,6,55,,64,64,12,14,6,5,0.6,0.6
2024-07-06T1900,3443A,113.2902,23.5544,广州市,花都梯面,臭氧1小时,64,24,21,13,12,171,,150,150,17,22,4,4,0.6,0.5
2024-07-06T1900,3445A,113.7858,23.7478,广州市,从化良口,,28,15,16,9,10,87,,67,67,6,12,5,5,0.6,0.5
2024-07-06T1900,3446A,113.8051,23.2614,广州市,增城荔城,,34,20,23,13,21,107,,135,135,16,18,6,6,0.6,0.5
2024-07-06T1900,2506A,109.6047,23.0666,贵港市,江南子站,,26,17,21,15,12,81,,63,63,5,7,7,10,0.5,0.5
2024-07-06T1900,2507A,109.6014,23.0948,贵港市,贵城子站,,29,29,23,16,14,77,,60,60,5,8,7,9,0.5,0.5
2024-07-06T1900,2508A,109.5669,23.1065,贵港市,荷城子站,,24,22,19,9,4,74,,61,61,4,5,10,11,0.4,0.4
2024-07-06T1900,3405A,109.5886,23.1172,贵港市,新世纪学校,,29,29,19,7,9,76,,62,62,5,6,7,8,0.5,0.5
2024-07-06T1900,1439A,106.6899,26.5998,贵阳市,马鞍山,,18,12,10,3,1,56,,57,57,5,5,6,6,0.1,0.2
2024-07-06T1900,1440A,106.6971,26.5694,贵阳市,市环保站,,22,22,18,11,11,51,,50,50,10,13,4,4,0.3,0.2
2024-07-06T1900,1441A,106.6243,26.6266,贵阳市,鉴湖路,,22,22,13,3,4,50,,49,49,6,5,2,3,0.3,0.3
2024-07-06T1900,1442A,106.7487,26.6343,贵阳市,燕子冲,,17,,5,3,4,53,,56,56,6,7,6,6,0.4,0.4
2024-07-06T1900,1443A,106.6555,26.4365,贵阳市,碧云窝,,19,19,18,3,1,56,,56,56,5,7,6,6,0.8,0.4
2024-07-06T1900,1444A,106.694,26.5161,贵阳市,中院村,,16,12,15,3,4,51,,48,48,7,10,4,5,0.4,0.4
2024-07-06T1900,1445A,106.7109,26.6027,贵阳市,红边门,,28,22,17,19,13,51,,52,52,11,12,4,5,0.5,0.5
2024-07-06T1900,1446A,106.7164,26.5699,贵阳市,新华路,,16,9,9,7,9,51,,41,,11,9,5,6,0,0.3
2024-07-06T1900,1447A,106.674,26.5424,贵阳市,太慈桥,,18,9,10,3,6,55,,54,54,4,7,6,6,0.3,0.3
2024-07-06T1900,1862A,110.4144,25.3167,桂林市,电子科大尧山校区,,16,16,20,10,12,48,,54,53,6,6,4,5,0.3,0.3
2024-07-06T1900,1863A,110.2819,25.2697,桂林市,监测站,,17,16,19,8,11,54,,54,52,9,9,5,5,0.5,0.5
2024-07-06T1900,1864A,110.3089,25.2708,桂林市,龙隐路小学,,17,14,20,11,12,52,,54,53,6,9,5,5,0.5,0.5
2024-07-06T1900,1865A,110.2869,25.2178,桂林市,八中,,17,15,20,9,11,53,,52,52,4,10,5,6,0.6,0.5
2024-07-06T1900,3403A,110.1764,25.2381,桂林市,创业大厦,,,,16,,11,53,,53,53,,9,,9,0.3,0.3
2024-07-06T1900,3531A,110.296,25.1253,桂林市,旅游学院,,18,6,9,3,8,56,,53,52,5,8,5,9,0.3,0.4
2024-07-06T1900,2674A,100.2561,34.4714,果洛藏族自治州,玛沁县大武镇,,,21,23,7,8,84,,101,87,,10,11,11,0.4,0.4
2024-07-06T1900,1129A,126.5422,45.755,哈尔滨市,岭北,细颗粒物(PM2.5),58,59,27,41,20,77,,114,112,21,14,5,5,1.2,1
2024-07-06T1900,1130A,126.561,45.8167,哈尔滨市,松北商大,颗粒物(PM10),51,51,33,25,15,71,,103,101,29,18,6,6,0.7,0.6
2024-07-06T1900,1131A,126.979,45.5419,哈尔滨市,阿城会宁,颗粒物(PM10),62,74,45,41,27,104,,108,108,12,17,9,9,0.7,0.7
2024-07-06T1900,1132A,126.599,45.7222,哈尔滨市,南岗学府路,颗粒物(PM10),59,67,50,26,19,91,,122,120,19,20,10,10,0.7,0.7
2024-07-06T1900,1133A,126.689,45.7733,哈尔滨市,太平宏伟公园,颗粒物(PM10),68,86,45,39,21,82,,120,119,37,23,6,6,0.6,0.6
2024-07-06T1900,1134A,126.635,45.7667,哈尔滨市,道外承德广场,颗粒物(PM10),62,74,42,37,20,84,,121,121,37,31,8,8,0.4,0.5
2024-07-06T1900,1135A,126.685,45.7319,哈尔滨市,香坊红旗大街,细颗粒物(PM2.5),64,75,52,46,34,105,,132,132,26,32,8,11,0.7,0.8
2024-07-06T1900,1136A,126.6411,45.7258,哈尔滨市,动力和平路,颗粒物(PM10),66,82,50,37,24,101,,130,130,27,28,6,7,0.6,0.6
2024-07-06T1900,1137A,126.593,45.7478,哈尔滨市,道里建国路,细颗粒物(PM2.5),60,63,42,43,23,101,,124,124,22,24,6,6,0.9,0.9
2024-07-06T1900,1138A,126.615,45.61,哈尔滨市,平房东轻厂,颗粒物(PM10),72,94,48,28,17,101,,119,119,27,35,9,9,0.4,0.3
2024-07-06T1900,1139A,126.595,45.9855,哈尔滨市,呼兰师专,颗粒物(PM10),55,60,36,34,19,86,,108,107,31,16,11,10,0.7,0.6
2024-07-06T1900,1140A,126.6206,45.6842,哈尔滨市,省农科院,细颗粒物(PM2.5),69,86,51,50,31,96,,131,131,29,36,6,8,0.8,0.8
2024-07-06T1900,2688A,93.5128,42.8172,哈密市,地区监测站,,48,22,37,12,16,152,,147,147,2,16,3,5,0.1,0.3
2024-07-06T1900,2689A,93.4961,42.8328,哈密市,哈密师范学校,,43,30,43,8,14,135,,145,145,7,19,4,6,0.2,0.4
2024-07-06T1900,2671A,100.9048,36.9639,海北藏族自治州,海晏县西海镇,,50,50,48,25,25,141,,144,143,8,10,16,15,0.4,0.5
2024-07-06T1900,3867A,102.0738,36.5056,海东市,平安区公安北苑,颗粒物(PM10),59,68,50,27,22,130,,120,120,13,20,16,11,0.5,0.6
2024-07-06T1900,1410A,110.3232,20.0574,海口市,海南大学,,14,9,10,3,4,44,,51,50,6,5,6,5,0.3,0.3
2024-07-06T1900,1411A,110.283,20.0053,海口市,秀英海南医院,,12,7,13,3,4,36,,51,49,10,9,6,6,0.2,0.2
2024-07-06T1900,1412A,110.338,19.9969,海口市,海南师范大学,,14,9,11,3,4,43,,52,51,4,4,7,6,0.3,0.3
2024-07-06T1900,1413A,110.33,20.0356,海口市,龙华路环保局宿舍,,24,24,15,9,5,39,,48,48,9,5,7,7,0.2,0.2
2024-07-06T1900,3539A,110.5111,19.9736,海口市,桂林洋子站,,19,,12,13,6,45,,47,47,5,5,6,6,0.2,0.3
2024-07-06T1900,2673A,100.6188,36.2866,海南藏族自治州,共和县恰卜恰镇,颗粒物(PM10),51,52,42,18,25,114,,122,121,12,12,7,9,0.5,0.5
2024-07-06T1900,2676A,97.3731,37.3753,海西蒙古族藏族自治州,德令哈市,,36,35,43,15,15,114,,120,116,8,9,8,8,0.6,0.6
2024-07-06T1900,1048A,114.5302,36.6116,邯郸市,东污水处理厂,"颗粒物(PM10),细颗粒物(PM2.5)",52,54,36,36,19,155,,143,143,4,6,2,2,0.6,0.5
2024-07-06T1900,1049A,114.4918,36.5713,邯郸市,矿院,臭氧1小时,57,46,33,36,22,165,,151,151,9,9,5,5,0.8,0.7
2024-07-06T1900,1050A,114.484,36.6133,邯郸市,丛台公园,,,50,32,31,21,151,,139,139,8,7,,6,,0.7
2024-07-06T1900,3458A,114.7895,36.5593,邯郸市,香泉濮院小区,,47,47,16,27,10,139,,139,139,4,3,1,1,0.5,0.3
2024-07-06T1900,3579A,114.50634,36.77178,邯郸市,永年区实验高中,颗粒物(PM10),56,62,48,35,29,162,,163,163,3,6,3,2,0.7,1
2024-07-06T1900,3580A,114.20016,36.44293,邯郸市,峰峰矿区临水派出所,臭氧1小时,69,58,49,40,35,175,,160,160,6,5,4,3,0.7,0.8
2024-07-06T1900,2634A,106.9893,33.1842,汉中市,汉川机床厂子校,,30,24,17,12,8,95,,91,91,6,7,4,4,0.5,0.5
2024-07-06T1900,2635A,107.0154,33.0706,汉中市,市监测站,,36,16,22,8,7,114,,103,103,5,8,7,7,0.5,0.5
2024-07-06T1900,2636A,107.0089,33.1138,汉中市,鑫源开发区,,33,23,18,11,6,104,,96,96,6,9,8,9,0.5,0.5
2024-07-06T1900,2637A,107.007,33.0323,汉中市,南郑大河坎水厂,,35,25,20,9,7,109,,98,98,5,8,9,8,0.5,0.5
2024-07-06T1900,1223A,120.2072,30.2111,杭州市,滨江,,26,26,32,14,17,80,,105,94,8,15,3,3,0.6,0.6
2024-07-06T1900,1224A,120.0633,30.2747,杭州市,西溪,,22,16,20,15,15,45,,73,64,9,13,6,5,0.5,0.5
2024-07-06T1900,1226A,120.3461,30.3153,杭州市,下沙,,33,33,40,18,20,79,,110,100,12,22,5,6,0.3,0.4
2024-07-06T1900,1227A,120.1269,30.2456,杭州市,卧龙桥,,22,21,21,15,15,32,,77,66,18,14,5,5,0.7,0.7
2024-07-06T1900,1228A,120.1903,30.2692,杭州市,浙江农大,,46,46,36,12,18,72,,91,83,15,20,8,8,0.3,0.3
2024-07-06T1900,1230A,120.1197,30.3119,杭州市,和睦小学,,23,20,18,16,10,68,,76,70,12,16,5,5,0.4,0.5
2024-07-06T1900,1231A,120.3019,30.4183,杭州市,临平镇,,23,19,38,11,20,73,,93,83,9,19,5,5,0.4,0.5
2024-07-06T1900,1232A,120.2697,30.1819,杭州市,城厢镇,,27,26,34,14,21,84,,113,100,26,29,3,4,0.4,0.5
2024-07-06T1900,1233A,120.0883,30.1808,杭州市,云栖,,20,20,23,12,11,52,,90,78,8,14,7,7,0.5,0.6
2024-07-06T1900,3557A,119.9464,30.0494,杭州市,镇二中,,24,24,25,9,18,60,,95,87,10,24,7,7,0.4,0.6
2024-07-06T1900,3558A,119.7183,30.2367,杭州市,市府大楼,,20,20,22,11,13,60,,66,65,12,13,6,6,0.3,0.4
2024-07-06T1900,3656A,120.1556,30.2864,杭州市,消防大队,,24,18,26,10,14,76,,90,83,6,15,7,8,0.7,0.8
2024-07-06T1900,1270A,117.1959,31.7848,合肥市,明珠广场,,35,31,27,17,13,111,,110,110,9,11,7,7,0.3,0.3
2024-07-06T1900,1271A,117.3072,31.8764,合肥市,三里街,,33,29,22,14,11,103,,106,106,12,14,6,6,0.3,0.3
2024-07-06T1900,1272A,117.2588,31.8707,合肥市,琥珀山庄,,39,39,29,17,12,116,,116,116,7,8,5,5,0.4,0.4
2024-07-06T1900,1273A,117.1604,31.9052,合肥市,董铺水库,,,28,24,,13,100,,93,93,5,7,3,2,0.3,0.2
2024-07-06T1900,1274A,117.25,31.8571,合肥市,长江中路,,39,39,32,16,16,110,,110,110,6,8,6,6,0.4,0.4
2024-07-06T1900,1275A,117.266,31.9436,合肥市,庐阳区,,36,31,28,22,15,114,,108,108,9,9,5,5,0.3,0.3
2024-07-06T1900,1276A,117.336,31.8586,合肥市,瑶海区,,31,31,27,13,12,96,,97,97,8,8,9,9,0.2,0.2
2024-07-06T1900,1277A,117.3027,31.7964,合肥市,包河区,,34,27,22,3,9,108,,108,108,5,5,6,6,0.4,0.4
2024-07-06T1900,1278A,117.2776,31.7385,合肥市,滨湖新区,,32,29,21,7,11,101,,102,102,7,7,9,9,0.4,0.4
2024-07-06T1900,1279A,117.1318,31.8403,合肥市,高新区,,33,29,23,17,12,105,,100,100,6,7,8,8,0.5,0.4
2024-07-06T1900,3464A,117.3803,31.9147,合肥市,高教基地,,33,29,23,16,13,103,,105,105,6,6,7,7,0.4,0.3
2024-07-06T1900,3614A,79.924,37.0877,和田地区,地区环保局,颗粒物(PM10),169,287,224,68,50,143,,135,135,1,3,8,7,0.5,0.5
2024-07-06T1900,3615A,79.9131,37.113,和田地区,市环保局,颗粒物(PM10),183,315,198,77,54,134,,126,126,3,5,6,7,0.4,0.4
2024-07-06T1900,2516A,108.2011,24.715,河池市,东仁乐园,,25,25,23,3,7,60,,57,57,8,10,4,5,0.6,0.6
2024-07-06T1900,2517A,108.0497,24.6947,河池市,市环保站,,19,19,11,3,5,55,,54,54,6,6,7,7,0.4,0.4
2024-07-06T1900,2518A,108.0983,24.6989,河池市,市疾控中心,,19,19,15,3,6,52,,52,52,9,11,7,8,0.5,0.5
2024-07-06T1900,1696A,114.6778,23.7569,河源市,源西,,26,,18,18,20,59,,61,61,7,14,4,4,0.5,0.5
2024-07-06T1900,1697A,114.6944,23.7586,河源市,东埔,,19,,13,11,7,58,,62,62,7,9,6,6,0.4,0.5
2024-07-06T1900,1698A,114.6892,23.7233,河源市,老城,,20,14,20,8,8,62,,64,64,3,6,5,5,0.5,0.6
2024-07-06T1900,1718A,115.4208,35.2464,菏泽市,气象局,,41,28,21,19,18,130,,130,130,3,6,2,2,0.3,0.3
2024-07-06T1900,1719A,115.4747,35.2375,菏泽市,市政协,,40,22,16,17,17,128,,129,129,4,5,2,2,0.4,0.3
2024-07-06T1900,3374A,115.5564,35.0891,菏泽市,定陶老年大学,,34,17,12,3,4,108,,112,112,3,4,3,3,0.4,0.4
2024-07-06T1900,3647A,115.4702,35.2706,菏泽市,菏泽医专,,34,27,17,11,11,108,,108,108,3,5,3,3,0.5,0.4
2024-07-06T1900,2514A,111.5264,24.4172,贺州市,环保小区,,19,12,20,3,10,60,,56,56,7,11,6,7,0.5,0.5
2024-07-06T1900,2515A,111.5608,24.4078,贺州市,政协大楼,,18,13,23,8,12,56,,60,59,11,13,7,7,0.5,0.5
2024-07-06T1900,3534A,111.4744,24.4553,贺州市,西湾,,15,15,27,3,8,46,,62,59,21,15,10,10,0.5,0.6
2024-07-06T1900,2385A,114.17,35.9019,鹤壁市,市监测站,臭氧1小时,55,44,43,33,31,164,,154,154,9,7,5,5,0.8,0.8
2024-07-06T1900,2386A,114.2956,35.7511,鹤壁市,市交警支队,臭氧1小时,53,48,45,36,30,162,,165,165,14,20,4,5,0.8,0.8
2024-07-06T1900,2387A,114.2878,35.7306,鹤壁市,迎宾馆,臭氧1小时,64,,42,44,31,171,,169,169,14,20,4,5,0.7,0.7
2024-07-06T1900,3474A,114.2617,35.6822,鹤壁市,大新区,臭氧1小时,53,31,37,23,27,162,,165,165,11,19,2,3,0.5,0.5
2024-07-06T1900,3596A,114.1572,35.9603,鹤壁市,南山宾馆,细颗粒物(PM2.5),53,42,38,37,36,161,,153,153,8,8,8,9,0.7,0.9
2024-07-06T1900,2244A,130.2537,47.3416,鹤岗市,哈啤分公司,颗粒物(PM10),73,95,54,52,40,69,,89,89,20,10,16,15,0.8,0.6
2024-07-06T1900,2245A,130.2684,47.3086,鹤岗市,斯达机电,"颗粒物(PM10),细颗粒物(PM2.5)",75,99,56,55,38,71,,90,90,20,12,13,13,0.6,0.5
2024-07-06T1900,2246A,130.3114,47.3388,鹤岗市,东山纸板厂,细颗粒物(PM2.5),83,76,50,61,51,32,,74,70,18,15,16,16,0.4,0.4
2024-07-06T1900,2247A,130.1097,47.3382,鹤岗市,五号水库,颗粒物(PM10),59,68,50,39,35,53,,89,85,10,7,10,10,0.6,0.6
2024-07-06T1900,2263A,127.4833,50.2524,黑河市,交通局,细颗粒物(PM2.5),178,202,92,134,55,46,,93,82,9,16,6,8,1.5,0.8
2024-07-06T1900,2264A,127.5144,50.2341,黑河市,环保局,细颗粒物(PM2.5),153,224,99,117,58,54,,104,83,10,17,6,11,1.5,0.7
2024-07-06T1900,2265A,127.5291,50.2472,黑河市,大黑河岛,细颗粒物(PM2.5),250,,75,200,76,,,,,15,18,1,4,,
2024-07-06T1900,1074A,115.6838,37.7541,衡水市,电机北厂,,48,41,35,26,16,151,,156,156,5,5,3,2,0.3,0.3
2024-07-06T1900,1075A,115.6303,37.7316,衡水市,市监测站,,47,30,29,12,13,149,,155,155,7,7,7,6,0.5,0.5
2024-07-06T1900,3188A,115.6683,37.7217,衡水市,市城管局,,48,30,20,18,14,151,,158,158,4,5,3,2,0.4,0.3
2024-07-06T1900,3459A,115.5989,37.5491,衡水市,地表水厂,,42,37,24,3,5,134,,146,146,5,7,8,7,0.3,0.3
2024-07-06T1900,2456A,112.5003,26.9167,衡阳市,原169医院,,20,14,20,9,9,61,,61,58,3,14,6,11,0.6,0.7
2024-07-06T1900,2457A,112.6194,26.9258,衡阳市,衡阳化工总厂,,,23,20,,,66,,73,69,6,6,8,12,0.4,0.4
2024-07-06T1900,2458A,112.6211,26.8956,衡阳市,珠晖区环保局,,,15,19,,,70,,78,72,5,4,7,11,0.5,0.5
2024-07-06T1900,2459A,112.6197,26.8733,衡阳市,市委党校,,22,14,19,8,8,68,,76,70,7,6,8,10,0.5,0.5
2024-07-06T1900,2460A,112.6006,26.8919,衡阳市,市监测站,,21,19,22,3,12,67,,77,72,8,7,7,17,0.4,0.5
2024-07-06T1900,2461A,112.5664,26.9056,衡阳市,真空机电公司,,,38,25,,12,61,,69,66,7,8,8,20,0.5,0.8
2024-07-06T1900,3399A,112.6703,26.882,衡阳市,师范学院,,21,6,18,3,9,66,,75,70,6,6,9,10,0.5,0.5
2024-07-06T1900,2608A,103.3772,23.3993,红河哈尼族彝族自治州,污水处理厂,,13,8,10,6,9,39,,42,42,5,5,4,4,0.4,0.3
2024-07-06T1900,2609A,103.3861,23.35,红河哈尼族彝族自治州,监测站,,14,10,10,3,6,42,,46,45,6,5,8,6,0.4,0.4
2024-07-06T1900,3038A,103.3758,23.368,红河哈尼族彝族自治州,州图书馆,,19,14,12,13,8,40,,44,43,4,4,2,2,0.4,0.3
2024-07-06T1900,1090A,111.6507,40.7517,呼和浩特市,呼市一监,臭氧1小时,72,36,21,17,20,177,,164,164,12,19,10,8,0.5,0.5
2024-07-06T1900,1091A,111.6572,40.8033,呼和浩特市,小召,颗粒物(PM10),51,51,27,20,15,153,,142,142,22,23,10,8,0.6,0.5
2024-07-06T1900,1094A,111.7516,40.8369,呼和浩特市,如意水处理厂,臭氧1小时,55,32,25,17,15,164,,153,153,15,21,8,5,0.6,0.5
2024-07-06T1900,1095A,111.7276,40.8062,呼和浩特市,二十九中,臭氧1小时,64,49,29,24,22,171,,156,156,18,27,8,4,0.6,0.6
2024-07-06T1900,1096A,111.5512,40.7866,呼和浩特市,工大金川校区,臭氧1小时,54,51,26,20,15,163,,150,150,16,21,7,6,0.6,0.5
2024-07-06T1900,1097A,111.717,40.7612,呼和浩特市,化肥厂生活区,,50,40,35,22,29,157,,149,149,33,29,9,8,0.6,0.6
2024-07-06T1900,3698A,111.5968,40.8178,呼和浩特市,红旗小学,臭氧1小时,60,48,23,21,15,168,,156,156,24,20,6,4,0.6,0.4
2024-07-06T1900,3699A,111.6518,40.8389,呼和浩特市,海东办,臭氧1小时,63,46,24,22,16,170,,153,153,15,26,4,4,0.7,0.6
2024-07-06T1900,2192A,119.7594,49.2261,呼伦贝尔市,区环保局,颗粒物(PM10),66,81,65,38,43,98,,109,109,31,26,6,5,0.7,0.6
2024-07-06T1900,3061A,119.7512,49.1577,呼伦贝尔市,国华电力东,颗粒物(PM10),63,76,56,36,38,105,,118,118,16,12,6,4,0.4,0.4
2024-07-06T1900,1250A,120.0751,30.8669,湖州市,城西水厂,,20,20,26,10,14,57,,84,83,26,37,3,4,0.4,0.4
2024-07-06T1900,2873A,120.0875,30.8955,湖州市,仁皇山新区,,22,22,25,10,15,68,,105,102,18,29,5,6,0.5,0.6
2024-07-06T1900,2907A,120.1844,30.8596,湖州市,吴兴区站,,24,24,32,12,19,59,,118,110,22,21,6,6,0.5,0.5
2024-07-06T1900,3562A,120.4148,30.8538,湖州市,南浔区站,,20,20,37,8,22,63,,98,88,9,16,3,2,0.4,0.6
2024-07-06T1900,1607A,120.9092,40.7136,葫芦岛市,龙港区,,37,28,53,3,37,116,,120,120,7,10,5,16,0.5,0.6
2024-07-06T1900,1608A,120.8392,40.7514,葫芦岛市,化工街,,36,19,29,14,18,113,,110,110,13,15,12,12,1.0,1
2024-07-06T1900,1609A,120.8341,40.7073,葫芦岛市,新区,,36,29,32,13,23,114,,112,112,7,10,2,3,0.6,0.7
2024-07-06T1900,1610A,120.8695,40.7677,葫芦岛市,东城区,,40,23,43,18,35,128,,133,133,3,7,8,10,0.7,0.7
2024-07-06T1900,2482A,109.5981,27.5721,怀化市,林科所,,22,9,11,3,5,70,,72,66,4,3,6,6,0.6,0.7
2024-07-06T1900,2483A,109.9453,27.5444,怀化市,河西地税局,,18,13,13,3,7,56,,56,53,3,3,4,4,0.5,0.5
2024-07-06T1900,2484A,109.9781,27.5342,怀化市,市四医院,,17,6,15,3,7,53,,52,52,2,3,2,2,0.4,0.5
2024-07-06T1900,2485A,109.9972,27.5578,怀化市,监测楼,,16,10,14,6,7,51,,50,50,2,3,6,6,0.4,0.5
2024-07-06T1900,2486A,110.0394,27.583,怀化市,市委党校,,16,9,11,9,6,50,,48,48,2,3,4,5,0.4,0.4
2024-07-06T1900,1210A,119.036,33.5981,淮安市,钵池山,,39,29,24,15,14,122,,113,113,12,11,8,9,0.6,0.6
2024-07-06T1900,1211A,119.007,33.575,淮安市,北京南路,,34,34,27,18,15,104,,94,94,18,14,8,10,0.6,0.9
2024-07-06T1900,1212A,118.989,33.6067,淮安市,市监测站,,44,44,28,24,16,111,,103,103,24,13,7,7,1.1,0.7
2024-07-06T1900,1213A,119.135,33.5039,淮安市,楚州区监测站,,37,37,30,22,14,91,,89,89,24,14,5,5,0.5,0.4
2024-07-06T1900,1214A,119.0186,33.6297,淮安市,淮阴区监测站,颗粒物(PM10),52,53,29,20,16,100,,106,106,34,16,12,9,1.3,0.9
2024-07-06T1900,3426A,118.8755,33.2894,淮安市,新华书店,,48,48,24,33,16,110,,104,104,33,13,6,6,0.6,0.5
2024-07-06T1900,2282A,116.8004,33.975,淮北市,监测站,,27,26,19,12,7,86,,85,85,3,3,5,5,0.5,0.4
2024-07-06T1900,2283A,116.8091,33.9007,淮北市,烈山区政府,,27,21,16,14,9,84,,85,85,4,4,4,4,0.6,0.5
2024-07-06T1900,3330A,116.8873,33.9836,淮北市,杜集区检察院,,30,30,20,17,11,96,,97,97,2,4,5,5,0.6,0.5
2024-07-06T1900,4017A,116.7923,33.9535,淮北市,市博物馆,,31,23,15,19,8,98,,96,96,2,2,3,4,0.6,0.6
2024-07-06T1900,2277A,116.8305,32.7727,淮南市,潘集区政府,,32,32,28,10,13,80,,86,86,10,6,3,4,0.1,0.1
2024-07-06T1900,2278A,117.0067,32.6524,淮南市,师范学院,,28,24,26,10,12,88,,88,88,4,4,7,8,0.0,0
2024-07-06T1900,2279A,116.8569,32.5951,淮南市,谢家集区政府,,24,18,19,6,7,74,,81,81,3,3,5,6,0.2,0.1
2024-07-06T1900,2280A,116.8281,32.633,淮南市,八公山区政府,,28,28,26,9,12,85,,84,84,3,3,7,6,0.3,0.2
2024-07-06T1900,2281A,116.6325,32.6201,淮南市,焦岗湖风景区管理处,,15,15,13,3,7,37,,42,42,10,6,4,2,0.3,0.2
2024-07-06T1900,2894A,117.0566,32.6531,淮南市,经济技术开发区消防队,,27,10,20,8,7,86,,85,85,3,4,4,5,0.3,0.3
2024-07-06T1900,3329A,117.0108,32.5893,淮南市,山南新区,,27,23,26,7,5,86,,86,86,4,4,2,1,0.3,0.3
2024-07-06T1900,2446A,114.9028,30.4742,黄冈市,职工中心,,23,17,27,10,12,72,,72,72,9,16,7,11,0.2,0.3
2024-07-06T1900,2929A,114.8858,30.4519,黄冈市,红卫路,,24,18,23,10,13,75,,77,77,10,15,6,9,0.3,0.4
2024-07-06T1900,3398A,114.9136,30.4445,黄冈市,市林业局,,26,13,22,10,11,82,,82,82,5,13,8,10,0.3,0.4
2024-07-06T1900,2672A,102.0199,35.5102,黄南藏族自治州,同仁县隆务镇,颗粒物(PM10),56,61,45,27,23,122,,125,125,7,5,18,8,0.3,0.3
2024-07-06T1900,2295A,118.2903,29.6963,黄山市,延安路89号,,28,28,23,3,6,63,,72,72,2,4,6,6,0.4,0.4
2024-07-06T1900,2296A,118.327,29.7178,黄山市,黄山东路89号,,25,25,21,3,5,61,,70,70,4,5,6,6,0.3,0.3
2024-07-06T1900,2297A,118.1371,30.2756,黄山市,黄山区政府5号楼,,30,29,18,3,9,94,,88,88,6,5,6,6,0.3,0.2
2024-07-06T1900,2423A,115.0601,30.2313,黄石市,沈家营,,22,18,20,3,5,70,,68,67,8,12,7,9,0.3,0.3
2024-07-06T1900,2424A,115.0817,30.2006,黄石市,陈家湾,,24,16,19,8,6,74,,74,74,4,3,4,5,0.3,0.3
2024-07-06T1900,2426A,114.8988,30.2019,黄石市,铁山,,22,16,24,3,6,68,,74,74,6,13,14,15,0.3,0.4
2024-07-06T1900,2427A,115.0307,30.2092,黄石市,团城山,,24,11,17,3,5,75,,75,74,2,3,7,6,0.5,0.5
2024-07-06T1900,3149A,115.0235,30.1578,黄石市,笔架山北路,,20,15,23,3,3,64,,68,67,1,4,6,7,0.5,0.5
2024-07-06T1900,1392A,114.4183,23.0528,惠州市,河南岸金山湖子站,,16,12,14,6,6,49,,64,64,4,5,4,5,0.3,0.4
2024-07-06T1900,1393A,114.4053,23.0822,惠州市,下埔横江三路子站,,20,20,17,3,6,55,,70,70,8,7,7,7,0.5,0.4
2024-07-06T1900,1394A,114.4103,23.1142,惠州市,江北云山西路子站,,20,10,12,3,6,62,,70,70,5,5,8,9,0.3,0.4
2024-07-06T1900,1395A,114.4645,22.7833,惠州市,惠阳区承修路船湖子站,,12,11,10,6,5,37,,41,39,7,10,1,1,0.5,0.5
2024-07-06T1900,1396A,114.5317,22.7422,惠州市,大亚湾管委会子站,,14,10,10,3,4,42,,44,44,8,8,5,5,0.4,0.6
2024-07-06T1900,3314A,114.4338,22.8134,惠州市,惠阳秋长,,14,12,8,7,5,42,,53,52,2,5,4,4,0.3,0.4
2024-07-06T1900,3452A,114.6517,22.775,惠州市,大亚湾霞涌,,13,12,11,8,8,40,,46,46,6,7,4,4,0.4,0.4
2024-07-06T1900,2240A,130.9762,45.3001,鸡西市,环保局,细颗粒物(PM2.5),68,68,39,49,29,55,,61,61,19,11,8,7,0.6,0.5
2024-07-06T1900,2243A,130.9429,45.3039,鸡西市,第一中学,颗粒物(PM10),71,92,49,49,27,54,,63,63,12,5,8,8,0.7,0.5
2024-07-06T1900,3707A,131.0207,45.3073,鸡西市,欧美日汽修厂,颗粒物(PM10),72,94,49,51,34,52,,66,66,13,12,6,7,0.6,0.5
2024-07-06T1900,3709A,130.9967,45.3106,鸡西市,市政设施管理处,细颗粒物(PM2.5),69,79,43,50,30,39,,52,52,21,17,8,8,0.6,0.5
2024-07-06T1900,2367A,114.9754,27.0803,吉安市,红声器材厂,,28,28,27,11,12,77,,91,86,8,10,13,13,0.4,0.4
2024-07-06T1900,2368A,114.9658,27.0999,吉安市,市森林工业局,,26,26,24,13,13,72,,91,86,14,11,10,12,0.4,0.4
2024-07-06T1900,2369A,114.99,27.1312,吉安市,市环境监测站,,26,23,24,11,11,83,,97,93,14,11,10,13,0.6,0.6
2024-07-06T1900,2370A,115.0093,27.0968,吉安市,青原区法院,,24,24,22,11,11,72,,87,82,11,11,13,14,0.5,0.5
2024-07-06T1900,1772A,126.54,43.8622,吉林市,哈达湾,,36,33,18,25,14,36,,86,68,35,13,5,4,0.9,0.7
2024-07-06T1900,1773A,126.5844,43.8358,吉林市,东局子,,27,27,16,14,13,25,,80,57,22,19,4,4,0.8,0.8
2024-07-06T1900,1774A,126.5052,43.8245,吉林市,电力学院,,26,23,19,18,15,34,,84,68,20,12,8,8,0.7,0.6
2024-07-06T1900,1775A,126.6133,43.8972,吉林市,江北,,29,27,21,20,13,29,,71,53,14,12,7,7,0.8,0.8
2024-07-06T1900,1776A,126.555,43.8306,吉林市,江南公园,,26,24,18,18,13,25,,82,63,35,18,2,2,1.0,0.8
2024-07-06T1900,2868A,126.4739,43.953,吉林市,九站,,35,35,27,16,12,41,,100,75,12,18,5,7,0.5,0.6
2024-07-06T1900,1299A,116.9862,36.6114,济南市,科干所,,40,19,7,10,5,126,,137,137,10,11,7,7,0.4,0.4
2024-07-06T1900,1300A,116.9376,36.665,济南市,农科所,,42,24,9,10,3,134,,143,143,16,13,8,7,0.4,0.3
2024-07-06T1900,1301A,117.1265,36.6734,济南市,开发区,,46,10,7,3,4,146,,156,156,10,9,8,8,0.5,0.4
2024-07-06T1900,1303A,117.0624,36.6868,济南市,省种子仓库,,44,24,11,9,4,140,,155,155,13,9,6,6,0.5,0.4
2024-07-06T1900,1304A,116.9489,36.6447,济南市,机床二厂,,44,24,8,12,1,138,,154,154,18,10,9,8,0.2,0.2
2024-07-06T1900,1305A,117.0495,36.663,济南市,市监测站,,44,24,9,10,5,140,,153,152,10,10,9,9,0.4,0.3
2024-07-06T1900,1306A,116.7675,36.5484,济南市,长清党校,,46,,8,20,8,146,,151,151,6,5,8,8,0.4,0.4
2024-07-06T1900,1616A,117.6795,36.229,济南市,技术学院,,45,9,7,9,5,143,,151,151,6,4,8,9,0.7,0.8
2024-07-06T1900,1961A,117.532,36.6868,济南市,东山小学,,45,22,5,7,3,142,,152,152,18,14,5,5,0.5,0.5
2024-07-06T1900,3059A,117.7161,36.2049,济南市,泰兴公司,,42,19,8,14,5,132,,145,145,8,6,8,8,0.4,0.5
2024-07-06T1900,3064A,117.6867,36.2171,济南市,莱芜战役纪念馆,,40,24,10,7,3,125,,134,134,9,8,8,8,0.6,0.6
2024-07-06T1900,3494A,117.1673,36.9782,济南市,济阳区政府,臭氧1小时,58,29,11,17,4,166,,160,160,9,6,6,5,0.4,0.2
2024-07-06T1900,3495A,117.1171,36.63,济南市,锦屏中学,,45,20,8,10,4,142,,156,155,12,10,9,9,0.3,0.1
2024-07-06T1900,3682A,116.9814,36.6819,济南市,济南四建,,43,24,5,17,5,137,,147,147,10,9,8,7,0.6,0.5
2024-07-06T1900,1653A,116.6251,35.4302,济宁市,火炬城,,46,46,15,22,11,102,,116,114,8,6,9,9,0.7,0.6
2024-07-06T1900,1655A,116.5491,35.4042,济宁市,电化厂,,38,28,17,19,12,119,,131,131,5,6,6,5,0.5,0.5
2024-07-06T1900,3500A,116.5814,35.3707,济宁市,北湖一中,,36,34,17,12,8,114,,124,124,5,6,6,6,0.6,0.5
2024-07-06T1900,3501A,116.8249,35.5593,济宁市,服务中心,,39,26,13,19,6,123,,133,133,10,9,2,2,0.5,0.5
2024-07-06T1900,3678A,116.5907,35.4054,济宁市,市第七中学,,38,29,16,14,8,119,,136,136,12,8,4,4,0.6,0.5
2024-07-06T1900,2255A,130.2751,46.8028,佳木斯市,佳纺,细颗粒物(PM2.5),85,83,55,63,35,68,,92,92,31,16,10,9,0.9,0.7
2024-07-06T1900,2256A,130.3995,46.8307,佳木斯市,发电厂,细颗粒物(PM2.5),85,74,47,63,36,79,,92,92,10,13,4,5,0.8,0.7
2024-07-06T1900,2257A,130.3258,46.7975,佳木斯市,环保局,细颗粒物(PM2.5),97,86,54,72,40,76,,94,94,26,16,6,7,1.1,0.8
2024-07-06T1900,2258A,130.3648,46.8032,佳木斯市,十一中,细颗粒物(PM2.5),88,78,51,65,40,85,,99,99,16,19,8,8,0.8,0.7
2024-07-06T1900,2259A,130.3794,46.7588,佳木斯市,四丰,细颗粒物(PM2.5),69,82,41,50,27,45,,71,71,18,9,1,1,1.1,0.9
2024-07-06T1900,1252A,120.7436,30.778,嘉兴市,清河小学,,27,25,37,11,17,85,,121,108,15,13,5,6,0.5,0.8
2024-07-06T1900,1253A,120.726,30.7478,嘉兴市,嘉兴学院,,39,39,36,13,20,74,,112,99,20,17,2,2,0.4,0.5
2024-07-06T1900,2872A,120.7846,30.7525,嘉兴市,南湖区残联,,48,34,35,20,22,153,,147,141,15,15,5,5,0.5,0.5
2024-07-06T1900,3407A,120.6916,30.7739,嘉兴市,秀洲住建,,29,15,38,13,20,90,,126,112,16,19,3,4,0.1,0.3
2024-07-06T1900,1945A,98.2908,39.7711,嘉峪关市,气象局,,45,34,161,9,43,143,,139,139,5,19,2,12,0.3,0.5
2024-07-06T1900,2884A,98.2672,39.7978,嘉峪关市,酒钢宾馆,,46,36,178,7,47,147,,144,144,5,22,11,26,0.3,0.6
2024-07-06T1900,3248A,98.2643,39.7724,嘉峪关市,雄关区,,45,31,133,11,39,141,,137,137,7,25,6,11,0.4,0.5
2024-07-06T1900,1383A,113.1064,22.6058,江门市,北街,,23,22,17,3,6,71,,86,84,9,10,3,3,0.5,0.6
2024-07-06T1900,1384A,113.0731,22.5835,江门市,西区,,24,20,17,14,9,75,,82,82,10,12,6,6,0.4,0.4
2024-07-06T1900,1385A,113.0219,22.5311,江门市,圭峰西,,24,24,16,9,10,72,,84,84,10,11,5,4,0.7,0.6
2024-07-06T1900,1386A,113.0828,22.5947,江门市,东湖,,24,20,16,11,7,76,,82,82,10,11,5,5,0.5,0.4
2024-07-06T1900,3311A,113.1075,22.5647,江门市,江海富民,,24,21,23,3,13,76,,89,89,9,11,5,5,0.6,0.5
2024-07-06T1900,3449A,113.05,22.4667,江门市,新会银湖,,19,10,17,8,8,60,,80,80,8,14,5,4,0.6,0.5
2024-07-06T1900,1828A,113.227,35.2125,焦作市,市环保局,臭氧1小时,54,36,43,20,32,163,,168,168,5,11,3,4,0.5,0.7
2024-07-06T1900,3169A,113.2725,35.2067,焦作市,太极体育中心,,49,38,36,23,28,155,,162,162,7,10,3,2,0.4,0.5
2024-07-06T1900,3335A,113.3137,35.2641,焦作市,马村街道办,,50,39,35,19,31,160,,168,168,7,11,4,5,0.5,0.8
2024-07-06T1900,3336A,113.2465,35.2373,焦作市,焦作技师学院,,46,38,48,22,33,145,,143,143,13,11,3,3,0.6,0.8
2024-07-06T1900,3477A,113.1656,35.2539,焦作市,中站许衡医院,,47,42,33,11,32,150,,159,159,7,16,5,9,0.5,0.8
2024-07-06T1900,3981A,113.2449,35.1803,焦作市,原李万街道办,,48,43,26,24,21,152,,148,148,4,9,6,6,0.5,0.6
2024-07-06T1900,1708A,116.3701,23.5345,揭阳市,新兴,,45,45,28,10,11,43,,52,51,8,13,4,6,0.6,0.6
2024-07-06T1900,1709A,116.3264,23.5443,揭阳市,西马,,34,34,25,9,9,45,,56,54,3,8,3,4,0.7,0.7
2024-07-06T1900,1710A,116.3611,23.5626,揭阳市,东兴,,40,40,30,8,10,46,,56,55,4,11,2,6,0.7,0.7
2024-07-06T1900,1711A,116.4151,23.5294,揭阳市,渔湖,颗粒物(PM10),52,53,28,13,11,42,,49,48,8,13,4,5,0.7,0.6
2024-07-06T1900,3320A,116.403,23.5699,揭阳市,曲溪,,15,14,23,9,12,46,,52,52,5,12,4,9,0.6,0.6
2024-07-06T1900,1944A,102.1692,38.5167,金昌市,天庆家园,,,,45,,18,,,115,115,,26,,13,,0.5
2024-07-06T1900,3170A,102.1864,38.5253,金昌市,市委党校,,44,34,48,10,19,140,,129,129,6,20,9,24,0.5,0.6
2024-07-06T1900,4022A,102.1647,38.5371,金昌市,金川区人防中心,,46,33,53,15,20,146,,132,132,6,21,9,12,0.7,0.6
2024-07-06T1900,1262A,119.647,29.077,金华市,十五中,,26,26,34,12,19,79,,146,132,17,16,3,3,0.4,0.5
2024-07-06T1900,1263A,119.686,29.1029,金华市,监测站,,22,19,34,10,19,69,,142,124,13,14,3,3,0.3,0.5
2024-07-06T1900,3659A,119.656,29.1131,金华市,气象局,,25,25,33,9,14,59,,136,119,22,13,7,6,0.2,0.4
2024-07-06T1900,1767A,121.1115,41.0879,锦州市,南山,,41,39,53,13,27,129,,116,116,16,12,6,5,0.6,0.8
2024-07-06T1900,1768A,121.0533,40.8434,锦州市,开发区,,37,32,56,9,18,117,,123,123,15,22,6,7,0.6,0.7
2024-07-06T1900,1769A,121.1836,41.1119,锦州市,百股街道,,40,28,37,14,22,125,,120,120,16,12,9,8,0.7,0.8
2024-07-06T1900,1770A,121.1178,41.1222,锦州市,天安街道,,41,41,63,15,32,118,,108,108,18,14,5,5,0.7,0.9
2024-07-06T1900,1771A,121.1303,41.1386,锦州市,北湖公园,,37,27,53,15,34,118,,107,103,13,8,6,6,0.7,0.8
2024-07-06T1900,2160A,112.85,35.5051,晋城市,自来水公司,臭氧1小时,59,39,36,19,25,167,,176,176,12,21,11,6,0.7,1
2024-07-06T1900,2161A,112.8318,35.4936,晋城市,白云商贸,臭氧1小时,53,42,44,22,21,162,,172,172,11,21,8,7,0.6,1
2024-07-06T1900,2162A,112.8508,35.4887,晋城市,市环保局,臭氧1小时,57,30,40,22,24,165,,174,174,12,23,10,7,0.7,1
2024-07-06T1900,2163A,112.8676,35.4897,晋城市,技术学院,臭氧1小时,69,23,35,17,23,175,,186,186,14,20,8,6,0.6,0.7
2024-07-06T1900,3620A,112.8271,35.4828,晋城市,泽州一中,臭氧1小时,54,30,35,14,20,163,,170,170,11,19,9,8,0.7,1.1
2024-07-06T1900,2171A,112.7532,37.6945,晋中市,锦纶小区,臭氧1小时,104,61,69,27,43,208,,201,201,16,19,12,10,0.6,0.7
2024-07-06T1900,2173A,112.7249,37.7067,晋中市,南都小区,臭氧1小时,108,58,71,33,48,216,,209,209,14,19,10,9,0.5,0.8
2024-07-06T1900,2174A,112.6991,37.6982,晋中市,榆次区政府,臭氧1小时,100,53,68,34,48,200,,201,201,18,20,10,9,0.5,0.6
2024-07-06T1900,2865A,112.7195,37.6828,晋中市,榆次三中,臭氧1小时,107,58,69,22,38,214,,206,206,13,18,11,9,0.6,0.8
2024-07-06T1900,2439A,112.2014,31.0481,荆门市,竹园小学,,24,24,23,9,12,65,,75,75,8,8,8,9,0.4,0.4
2024-07-06T1900,2440A,112.1969,30.9891,荆门市,掇刀,,30,30,28,12,14,61,,75,74,16,14,8,8,0.5,0.5
2024-07-06T1900,2441A,112.2213,31.0386,荆门市,石化一小,,23,19,23,8,10,71,,81,81,6,9,15,16,0.4,0.4
2024-07-06T1900,3012A,112.1849,31.0362,荆门市,西山林语,,22,20,20,7,10,68,,77,77,4,6,10,10,0.5,0.5
2024-07-06T1900,3547A,112.1632,31.0138,荆门市,龙泉中学南校,,21,18,20,14,11,66,,76,75,3,10,8,8,0.4,0.5
2024-07-06T1900,1844A,112.2494,30.3197,荆州市,市图书馆,,21,12,15,10,12,65,,75,74,8,6,6,6,0.5,0.5
2024-07-06T1900,1845A,112.2008,30.3544,荆州市,市委党校,,36,,15,25,14,66,,74,73,11,7,5,6,0.4,0.4
2024-07-06T1900,3194A,112.2747,30.3122,荆州市,管委会,,23,13,15,3,10,73,,78,78,11,7,7,6,0.4,0.3
2024-07-06T1900,3548A,112.1655,30.3364,荆州市,学苑路,,22,22,21,12,13,66,,72,72,9,7,6,7,0.4,0.4
2024-07-06T1900,2343A,117.2117,29.2933,景德镇市,老干部活动中心,,23,15,14,10,8,73,,84,84,6,7,8,8,0.2,0.2
2024-07-06T1900,2344A,117.1894,29.2789,景德镇市,兽医站,,25,18,22,12,15,80,,90,90,6,24,8,26,0.2,0.4
2024-07-06T1900,2345A,117.1547,29.2617,景德镇市,台达陶瓷,,30,,27,21,15,56,,62,62,11,20,12,34,0.2,0.2
2024-07-06T1900,2346A,117.2461,29.2956,景德镇市,陶研所,,22,22,14,9,8,70,,84,84,4,3,3,4,0.2,0.2
2024-07-06T1900,1803A,115.9872,29.6815,九江市,十里,,38,36,21,26,12,106,,93,93,9,10,10,11,0.6,0.5
2024-07-06T1900,1804A,115.9584,29.7046,九江市,茅山头,,38,28,19,16,11,120,,108,108,9,9,12,11,0.5,0.4
2024-07-06T1900,1805A,115.9877,29.7295,九江市,西园,,38,24,17,10,10,119,,107,107,19,15,11,11,0.7,0.7
2024-07-06T1900,1806A,116.0172,29.6547,九江市,五七二七厂,,38,,12,24,12,121,,100,100,9,9,10,10,0.6,0.6
2024-07-06T1900,1808A,115.9114,29.6038,九江市,综合工业园,,44,26,19,15,13,138,,124,124,6,11,7,11,0.8,0.8
2024-07-06T1900,1809A,116.0721,29.7535,九江市,石化总厂,,40,33,29,16,15,128,,126,126,11,13,10,13,0.7,0.7
2024-07-06T1900,1810A,115.9773,29.5698,九江市,庐山气象台,,40,24,15,21,12,125,,105,105,2,1,16,11,1.1,0.8
2024-07-06T1900,3190A,116.0254,29.6994,九江市,外国语学校,,44,32,23,16,11,139,,119,119,11,13,11,10,0.5,0.5
2024-07-06T1900,2658A,98.5061,39.7443,酒泉市,仓门街子站,颗粒物(PM10),54,58,166,17,44,129,,131,131,11,14,6,10,0.2,0.3
2024-07-06T1900,2659A,98.4989,39.7256,酒泉市,油田生活基地,,46,46,167,13,55,141,,139,139,5,14,7,13,0.2,0.2
2024-07-06T1900,2698A,76.0072,39.4467,喀什地区,巡警大队,颗粒物(PM10),87,123,81,19,12,152,,143,143,9,18,4,4,0.3,0.3
2024-07-06T1900,2699A,75.9755,39.4694,喀什地区,吾办,颗粒物(PM10),89,128,84,30,22,148,,137,137,11,14,3,2,0.3,0.3
2024-07-06T1900,4027A,75.9483,39.4689,喀什地区,老干局,颗粒物(PM10),88,125,95,17,11,154,,142,142,6,12,5,4,0.2,0.3
2024-07-06T1900,1824A,114.3389,34.7781,开封市,肿瘤医院,,31,25,25,11,11,98,,113,113,3,6,3,3,0.5,0.7
2024-07-06T1900,1826A,114.2885,34.7965,开封市,世纪星幼儿园,颗粒物(PM10),67,83,26,7,18,115,,132,131,2,6,1,2,0.5,0.5
2024-07-06T1900,3147A,114.3438,34.8106,开封市,龙亭公园,,35,29,24,10,13,110,,126,125,4,8,2,2,0.5,0.5
2024-07-06T1900,3210A,114.3644,34.7964,开封市,汴京公园,,32,31,25,9,22,102,,113,113,4,7,3,3,0.6,0.7
2024-07-06T1900,3473A,114.2485,34.8306,开封市,技师学院,,35,28,25,8,13,110,,130,129,6,10,2,3,0.4,0.7
2024-07-06T1900,3592A,114.4644,34.7556,开封市,祥符区生态环境局,,33,15,25,10,16,103,,116,116,10,10,2,3,0.6,0.7
2024-07-06T1900,1951A,84.895,45.6094,克拉玛依市,长征新村,,37,6,17,3,7,116,,98,98,4,15,9,9,0.2,0.3
2024-07-06T1900,1952A,84.8988,45.5893,克拉玛依市,南林小区,,38,9,20,8,14,119,,88,88,2,20,4,3,0.1,0.2
2024-07-06T1900,1954A,84.905,44.3396,克拉玛依市,独山子区,,37,12,30,3,10,116,,111,111,6,12,5,6,0.3,0.4
2024-07-06T1900,1955A,85.6979,46.098,克拉玛依市,乌尔禾区商贸楼,,35,12,19,3,5,109,,88,88,3,16,4,4,0.3,0.4
2024-07-06T1900,3612A,85.1045,45.6899,克拉玛依市,白碱滩区新站,,39,,17,11,14,123,,103,103,3,12,5,6,0.1,0.2
2024-07-06T1900,2697A,76.1454,39.7142,克孜勒苏柯尔克孜自治州,市人民政府,颗粒物(PM10),80,110,69,29,23,155,,139,139,2,7,8,11,0.3,0.3
2024-07-06T1900,3665A,76.1658,39.7157,克孜勒苏柯尔克孜自治州,克州文化中心,颗粒物(PM10),73,96,74,32,24,161,,146,146,4,8,11,13,0.3,0.3
2024-07-06T1900,1450A,102.8204,24.8886,昆明市,呈贡新区,,24,24,17,6,7,52,,52,52,5,9,8,7,0.2,0.4
2024-07-06T1900,1452A,102.7252,25.0902,昆明市,龙泉镇,,18,18,15,9,10,50,,52,52,9,12,7,6,0.5,0.6
2024-07-06T1900,1453A,102.7266,25.0375,昆明市,东风东路,,14,10,13,7,8,44,,48,48,10,12,2,2,0.2,0.4
2024-07-06T1900,1454A,102.6742,25.0669,昆明市,金鼎山,,20,20,17,3,6,47,,48,48,8,12,8,8,0.3,0.3
2024-07-06T1900,1455A,102.6644,25.0401,昆明市,碧鸡广场,,,8,13,3,5,47,,49,49,,13,3,3,0.4,0.4
2024-07-06T1900,3179A,102.7494,25.0119,昆明市,官渡区博物馆,,16,11,12,7,5,50,,52,52,7,7,6,6,0.4,0.5
2024-07-06T1900,3375A,102.8017,24.8336,昆明市,青年创业园,,16,6,12,6,8,51,,50,50,4,8,7,9,0.3,0.4
2024-07-06T1900,3550A,102.7997,24.9786,昆明市,昆明学院,,16,7,11,3,6,51,,52,52,6,9,4,4,0.3,0.4
2024-07-06T1900,3551A,102.5967,24.6736,昆明市,晋宁区生态环境分局,,14,13,12,3,7,43,,42,42,3,8,6,6,0.3,0.4
2024-07-06T1900,3552A,102.6678,24.9856,昆明市,云天化总部,,15,9,12,3,7,47,,49,49,5,7,2,2,0.4,0.4
2024-07-06T1900,1456A,91.1319,29.6514,拉萨市,八廓街,,25,6,10,3,8,77,,84,84,11,14,6,7,0.2,0.3
2024-07-06T1900,1457A,91.1221,29.6747,拉萨市,市环保局,,25,8,12,6,7,79,,81,81,10,15,6,9,0.3,0.3
2024-07-06T1900,1458A,91.0874,29.6475,拉萨市,区监测站,,25,,9,7,7,80,,77,77,6,18,6,7,0.4,0.4
2024-07-06T1900,1459A,91.1774,29.6541,拉萨市,西藏大学,,23,12,8,12,8,73,,86,86,10,7,8,11,0.1,0.1
2024-07-06T1900,1460A,90.9798,29.6588,拉萨市,区辐射站,,23,13,11,6,7,72,,74,74,15,15,7,7,0.3,0.3
2024-07-06T1900,1461A,91.0834,29.6292,拉萨市,拉萨火车站,,24,12,9,6,6,76,,76,76,9,13,9,9,0.2,0.2
2024-07-06T1900,2520A,109.2203,23.7256,来宾市,来宾技工学校,,26,26,23,8,10,62,,62,62,5,8,5,7,0.6,0.6
2024-07-06T1900,3535A,109.1781,23.7297,来宾市,兴宾区政府,,18,13,17,9,8,57,,59,59,4,8,4,4,0.4,0.6
2024-07-06T1900,4002A,109.2416,23.7461,来宾市,中南小学,,24,24,21,14,11,64,,62,62,6,8,6,8,0.6,0.6
2024-07-06T1900,1476A,103.631,36.1031,兰州市,兰炼宾馆,,43,43,70,26,37,111,,133,128,9,43,8,21,0.2,0.5
2024-07-06T1900,1478A,103.8412,36.0726,兰州市,生物制品所,,47,47,62,26,29,102,,97,97,18,47,9,11,0.3,0.4
2024-07-06T1900,1479A,103.831,36.0464,兰州市,铁路设计院,,49,49,64,24,28,107,,94,94,19,68,5,7,0.4,0.7
2024-07-06T1900,3186A,103.7158,36.1058,兰州市,教育港,,48,48,80,21,29,113,,118,118,10,49,9,15,0.3,0.5
2024-07-06T1900,3241A,103.7439,36.0842,兰州市,百合公园,颗粒物(PM10),51,51,59,26,28,105,,104,104,14,47,5,9,0.5,0.8
2024-07-06T1900,3242A,103.9611,35.998,兰州市,和平,颗粒物(PM10),54,57,62,21,23,118,,120,120,10,18,4,5,0.4,0.3
2024-07-06T1900,3245A,103.6633,36.533,兰州新区,新区管委会,,41,41,49,25,25,130,,136,135,9,10,13,21,0.3,0.4
2024-07-06T1900,3246A,103.6975,36.4789,兰州新区,舟曲中学,颗粒物(PM10),58,65,65,22,26,121,,129,128,10,15,9,31,0.4,0.4
2024-07-06T1900,1067A,116.6708,39.5111,廊坊市,药材公司,,48,31,31,17,17,153,,156,156,2,2,3,3,0.6,0.5
2024-07-06T1900,1068A,116.7214,39.5589,廊坊市,开发区,臭氧1小时,53,34,31,22,20,162,,162,162,8,8,3,3,0.4,0.4
2024-07-06T1900,1070A,116.7244,39.5269,廊坊市,北华航天学院,,47,46,40,17,17,148,,149,149,8,6,3,3,0.4,0.3
2024-07-06T1900,2919A,116.7022,39.5453,廊坊市,河北工业大学,,50,48,39,15,17,157,,160,160,9,9,3,3,0.4,0.3
2024-07-06T1900,2535A,103.7723,29.5462,乐山市,花湖湾,,36,,23,25,25,99,,97,97,11,14,3,3,0.4,0.5
2024-07-06T1900,2536A,103.7627,29.5844,乐山市,牛耳桥,,35,21,26,15,19,110,,110,110,11,20,3,3,0.8,0.8
2024-07-06T1900,2537A,103.7508,29.6006,乐山市,市第三水厂,,35,31,31,18,20,112,,113,113,11,19,2,4,0.5,0.6
2024-07-06T1900,2538A,103.7571,29.5664,乐山市,市监测站,,35,29,28,24,21,110,,111,111,12,16,2,3,0.6,0.6
2024-07-06T1900,3361A,103.7311,29.5628,乐山市,理工大学,,35,34,27,23,22,112,,124,124,14,14,3,4,0.7,0.6
2024-07-06T1900,2599A,100.2497,26.8802,丽江市,丽江古城,,19,19,19,10,11,32,,46,46,12,11,7,7,0.6,0.6
2024-07-06T1900,2600A,100.2203,26.8906,丽江市,市中心,,10,7,12,6,9,32,,44,44,12,9,10,10,0.6,0.5
2024-07-06T1900,1267A,119.914,28.4514,丽水市,监测站大楼,,42,42,27,28,21,125,,97,97,11,8,3,3,0.5,0.5
2024-07-06T1900,1268A,119.93,28.4586,丽水市,莲都小学,,47,47,30,21,14,135,,105,105,9,8,4,4,0.6,0.5
2024-07-06T1900,1269A,119.879,28.4231,丽水市,余庄前,,39,37,28,24,17,124,,88,88,8,7,2,2,0.5,0.5
2024-07-06T1900,1173A,119.176,34.5885,连云港市,市环境监测站,,25,19,18,12,11,78,,74,74,10,10,4,5,0.3,0.3
2024-07-06T1900,3000A,119.3581,34.6972,连云港市,德源药业,,30,14,14,3,7,95,,92,92,5,5,4,4,0.4,0.4
2024-07-06T1900,3007A,119.178,34.844,连云港市,新城一中,颗粒物(PM10),68,86,38,12,9,92,,91,91,7,9,4,4,0.7,0.6
2024-07-06T1900,3008A,119.3608,34.7519,连云港市,胡沟管理处,,25,14,14,7,6,78,,78,78,6,5,5,5,0.5,0.5
2024-07-06T1900,3009A,119.1478,34.5911,连云港市,矿山设计院,,24,19,20,7,8,76,,76,76,10,8,3,2,0.2,0.3
2024-07-06T1900,3434A,119.2413,34.6539,连云港市,工贸学校,,26,15,15,11,9,82,,86,86,11,7,6,6,0.7,0.7
2024-07-06T1900,3664A,119.4172,34.7341,连云港市,连云街道,,27,16,16,10,7,86,,87,87,4,5,2,2,0.7,0.7
2024-07-06T1900,2571A,102.3431,27.8099,凉山彝族自治州,青龙寺,,18,6,12,3,6,55,,54,54,2,4,3,3,0.4,0.4
2024-07-06T1900,2572A,102.2721,27.8415,凉山彝族自治州,邛海宾馆,,18,12,13,9,10,57,,54,54,6,8,11,12,0.6,0.6
2024-07-06T1900,2573A,102.2625,27.898,凉山彝族自治州,西昌市政府,,19,13,15,6,8,59,,52,52,4,8,10,11,0.5,0.7
2024-07-06T1900,2574A,102.2685,27.8851,凉山彝族自治州,凉山州政府,,19,14,19,9,9,60,,54,54,5,9,9,10,0.6,0.7
2024-07-06T1900,2575A,102.237,27.8914,凉山彝族自治州,长安,,23,23,19,10,9,64,,55,55,7,8,15,14,0.7,0.7
2024-07-06T1900,2212A,123.2,41.1953,辽阳市,宏伟区,,28,12,36,3,18,87,,110,87,9,14,9,8,1.1,1.2
2024-07-06T1900,2213A,123.1683,41.2495,辽阳市,新华园,,32,,45,8,20,100,,122,100,8,15,7,8,0.7,0.8
2024-07-06T1900,2214A,123.2354,41.2639,辽阳市,滨河路,,28,12,27,6,17,87,,115,91,9,12,8,8,0.7,0.7
2024-07-06T1900,2215A,123.149,41.2991,辽阳市,铁西工业园,,,,63,8,20,91,,106,89,6,17,9,10,0.9,1.3
2024-07-06T1900,2227A,125.1358,42.8845,辽源市,环保局,,27,16,28,14,22,86,,87,85,10,14,8,7,0.8,0.8
2024-07-06T1900,3239A,125.0764,42.9078,辽源市,银鹰制药,,27,14,27,12,22,85,,85,85,4,15,4,7,0.9,1
2024-07-06T1900,1625A,115.9848,36.4372,聊城市,区政府,,42,27,9,8,5,132,,122,122,9,8,9,8,0.5,0.5
2024-07-06T1900,2878A,116.0072,36.4343,聊城市,聊大东校,,46,,5,17,11,147,,134,134,10,6,5,5,0.5,0.4
2024-07-06T1900,3200A,115.9819,36.4978,聊城市,监控中心,,41,20,9,3,4,130,,127,127,10,11,7,8,0.7,0.6
2024-07-06T1900,3513A,116.0445,36.4361,聊城市,九州社区,,40,29,13,8,3,127,,119,119,8,6,4,8,0.5,0.5
2024-07-06T1900,4018A,116.0567,36.4608,聊城市,星美广场,,40,37,17,13,6,128,,121,121,9,10,6,5,0.8,0.5
2024-07-06T1900,2632A,94.3681,29.6376,林芝市,林芝监测站,,,,3,,4,43,,42,42,,3,8,8,0.3,0.3
2024-07-06T1900,2633A,94.3616,29.6616,林芝市,林芝人民医院,,14,6,5,3,5,42,,42,42,5,5,8,9,0.1,0.1
2024-07-06T1900,2603A,100.0781,23.8982,临沧市,市环保局,,26,26,21,18,14,35,,39,39,9,9,4,5,0.4,0.4
2024-07-06T1900,2604A,100.0894,23.8822,临沧市,市气象局,,20,16,17,14,16,35,,42,42,8,9,5,5,0.4,0.4
2024-07-06T1900,1733A,111.5531,36.0783,临汾市,临钢医院,臭氧1小时,87,57,59,20,32,189,,180,180,12,11,8,7,0.9,1.1
2024-07-06T1900,1734A,111.5028,36.0714,临汾市,技工学校,臭氧1小时,102,40,59,17,38,204,,190,190,12,15,8,8,0.9,1
2024-07-06T1900,1736A,111.5018,36.0855,临汾市,市委,臭氧1小时,106,42,66,21,34,211,,201,201,11,13,9,9,1.0,1.2
2024-07-06T1900,3018A,111.505,36.1014,临汾市,唐尧大酒店,臭氧1小时,92,42,49,16,30,193,,189,189,12,13,6,5,0.9,1.2
2024-07-06T1900,2667A,103.2069,35.5993,临夏回族自治州,环保局,,43,,25,30,26,100,,108,108,7,14,10,9,0.4,0.4
2024-07-06T1900,2668A,103.2417,35.6057,临夏回族自治州,建设大厦,,38,38,36,22,17,79,,105,105,25,16,15,12,0.5,0.4
2024-07-06T1900,1618A,118.3429,35.0532,临沂市,沂河小区,,32,17,15,12,11,102,,109,109,18,12,9,9,0.4,0.3
2024-07-06T1900,1619A,118.295,35.0583,临沂市,鲁南制药厂,,,24,15,13,10,106,,108,108,5,4,,9,0.5,0.4
2024-07-06T1900,1620A,118.2794,34.9976,临沂市,新光毛纺厂,,35,12,13,10,10,110,,110,110,7,6,5,5,0.6,0.6
2024-07-06T1900,1621A,118.3956,35.0888,临沂市,河东保险公司,,33,17,12,8,7,104,,102,102,9,6,6,5,0.5,0.4
2024-07-06T1900,3370A,118.3564,35.0215,临沂市,十里堡居委,,34,,10,12,10,106,,107,107,11,8,9,8,0.5,0.4
2024-07-06T1900,3496A,118.3604,35.1084,临沂市,南坊新区,,36,17,16,9,7,114,,112,112,11,8,8,7,0.7,0.6
2024-07-06T1900,1870A,109.4856,24.3895,柳州市,柳东小学,,23,19,17,7,11,73,,68,68,8,10,7,7,0.5,0.5
2024-07-06T1900,1871A,109.4157,24.3277,柳州市,环保监测站,,20,7,20,3,10,63,,65,65,9,9,8,7,0.6,0.5
2024-07-06T1900,1872A,109.389,24.341,柳州市,河西水厂,,20,19,18,7,11,64,,65,65,8,8,7,6,0.5,0.4
2024-07-06T1900,1873A,109.4311,24.2921,柳州市,市四中,,26,26,20,14,16,69,,71,71,7,10,5,5,0.3,0.3
2024-07-06T1900,1874A,109.4006,24.3631,柳州市,市九中,,40,40,25,10,11,63,,66,66,13,11,4,4,0.5,0.5
2024-07-06T1900,1875A,109.4958,24.3134,柳州市,古亭山,,25,25,20,9,11,67,,70,70,15,14,6,6,0.4,0.4
2024-07-06T1900,3402A,109.5422,24.3996,柳州市,市二中,,,18,17,8,9,74,,67,67,12,11,6,7,,0.5
2024-07-06T1900,2307A,116.5079,31.737,六安市,监测大楼,,25,19,15,13,10,80,,83,83,8,7,5,6,0.3,0.3
2024-07-06T1900,2308A,116.4738,31.7643,六安市,皖西学院,,26,18,19,9,9,82,,84,84,2,3,4,4,0.2,0.2
2024-07-06T1900,2309A,116.4996,31.7905,六安市,朝阳厂,,26,,12,10,11,82,,79,79,2,2,8,8,0.2,0.2
2024-07-06T1900,2310A,116.5567,31.7886,六安市,开发区,,25,,17,11,16,80,,81,81,2,4,5,6,0.5,0.5
2024-07-06T1900,2577A,104.83,26.5917,六盘水市,黄土坡,,21,16,16,3,11,66,,65,65,7,8,5,6,0.4,0.3
2024-07-06T1900,2578A,104.89,26.5939,六盘水市,水钢,,23,14,19,7,8,71,,67,67,2,5,11,9,0.3,0.3
2024-07-06T1900,2579A,104.8475,26.5894,六盘水市,民中,,21,20,17,7,9,66,,64,64,7,9,6,6,0.4,0.4
2024-07-06T1900,2580A,104.9544,26.5506,六盘水市,双水,,22,12,16,8,10,69,,66,66,5,5,6,6,0.1,0.2
2024-07-06T1900,2336A,117.0217,25.1033,龙岩市,龙岩市监测站,,,,18,10,9,49,,52,52,12,10,4,8,0.4,0.4
2024-07-06T1900,2337A,117.0258,25.0661,龙岩市,闽西职业技术学院,,20,20,22,12,10,52,,53,53,8,10,7,13,0.4,0.4
2024-07-06T1900,2338A,117.0196,25.0306,龙岩市,龙岩学院,,33,,12,23,6,49,,50,50,5,4,3,4,0.4,0.3
2024-07-06T1900,2885A,104.9339,33.3826,陇南市,滨江中学,,35,35,55,17,18,100,,97,97,5,11,3,6,0.6,0.7
2024-07-06T1900,3247A,104.955,33.371,陇南市,市总工会,,34,29,43,15,24,106,,106,106,3,7,5,6,0.2,0.2
2024-07-06T1900,2487A,111.9589,27.8901,娄底市,电视发射台,,39,37,23,27,11,42,,68,64,6,5,7,6,1.1,0.9
2024-07-06T1900,2488A,111.9975,27.725,娄底市,市监测站,,19,19,21,12,11,58,,68,67,3,3,5,6,0.3,0.3
2024-07-06T1900,2489A,112.0194,27.7314,娄底市,市委党校,,22,22,18,15,11,51,,59,58,4,4,7,6,0.5,0.5
2024-07-06T1900,2490A,111.9561,27.7569,娄底市,涟钢,颗粒物(PM10),53,55,46,24,21,34,,49,48,29,23,17,16,0.7,1
2024-07-06T1900,2491A,111.9892,27.7044,娄底市,市政府,,19,18,13,3,11,60,,66,66,4,4,10,10,0.3,0.1
2024-07-06T1900,1893A,105.4324,28.9634,泸州市,九狮山,,41,20,30,20,17,129,,116,116,19,16,6,5,0.5,0.5
2024-07-06T1900,1894A,105.4427,28.9063,泸州市,小市上码头,,40,32,36,24,24,126,,110,110,8,14,6,6,0.4,0.4
2024-07-06T1900,1895A,105.4241,28.8573,泸州市,兰田宪桥,,43,27,21,23,26,136,,132,132,11,17,5,5,0.4,0.5
2024-07-06T1900,1896A,105.4379,28.8833,泸州市,市环监站,,43,29,32,19,23,135,,119,119,5,13,5,5,0.5,0.5
2024-07-06T1900,3490A,105.3617,28.7703,泸州市,纳溪区环保局,,42,41,33,19,22,134,,144,144,9,19,3,4,0.4,0.5
2024-07-06T1900,2183A,111.1406,37.5211,吕梁市,环保局,,50,28,35,12,15,160,,172,172,9,26,3,3,0.4,0.5
2024-07-06T1900,2185A,111.1297,37.5136,吕梁市,自来水公司,,49,32,42,11,15,154,,166,166,13,22,2,3,0.3,0.4
2024-07-06T1900,2867A,111.1283,37.51,吕梁市,马茂庄小学,臭氧1小时,58,35,40,11,15,166,,180,180,10,28,2,2,0.3,0.5
2024-07-06T1900,1812A,112.3931,34.6516,洛阳市,市委党校,,45,35,21,22,17,143,,146,146,7,6,8,2,0.9,0.7
2024-07-06T1900,1814A,112.4657,34.6871,洛阳市,豫西宾馆,,47,34,30,21,20,148,,155,155,10,14,1,3,0.5,0.5
2024-07-06T1900,1815A,112.494,34.6886,洛阳市,河南林校,,45,22,18,22,15,142,,145,145,7,11,3,2,0.5,0.5
2024-07-06T1900,1816A,112.3844,34.623,洛阳市,开发区管委会,,44,37,18,23,12,139,,144,144,8,7,12,5,0.6,0.4
2024-07-06T1900,1817A,112.4267,34.6258,洛阳市,市委新办公区,,48,33,16,23,14,152,,149,149,6,5,10,6,0.5,0.4
2024-07-06T1900,3340A,112.6005,34.6326,洛阳市,伊滨,,42,24,18,20,13,134,,138,138,5,7,5,5,0.5,0.4
2024-07-06T1900,3341A,112.4951,34.6332,洛阳市,中移产业园,,44,27,16,19,15,139,,146,146,2,5,6,7,0.8,0.7
2024-07-06T1900,3593A,112.5736,34.8993,洛阳市,吉利监测站,,45,22,22,12,13,142,,148,148,1,8,3,3,0.6,0.6
2024-07-06T1900,3635A,112.3677,34.662,洛阳市,河科大西苑校区,,46,35,19,10,12,146,,149,149,5,6,13,5,0.6,0.5
2024-07-06T1900,3636A,112.4388,34.6781,洛阳市,英才小学,,43,20,27,19,21,135,,146,146,5,8,3,4,0.6,0.6
2024-07-06T1900,2399A,114.051,33.5699,漯河市,三五一五工厂,,32,,8,15,7,102,,102,102,10,8,6,6,0.5,0.5
2024-07-06T1900,2400A,114.0055,33.5698,漯河市,漯河大学,,35,27,12,12,7,112,,112,112,7,6,7,6,0.6,0.6
2024-07-06T1900,2401A,114.0138,33.5828,漯河市,市水利局,,35,24,7,12,5,109,,108,108,7,7,7,7,0.3,0.3
2024-07-06T1900,2402A,114.0261,33.5698,漯河市,市广电局,,33,20,8,15,7,104,,107,107,6,5,3,4,0.6,0.6
2024-07-06T1900,3478A,113.9749,33.5664,漯河市,市图书馆,,34,,10,20,8,108,,110,110,6,5,5,5,0.5,0.4
2024-07-06T1900,3479A,114.0967,33.5906,漯河市,召陵区卫健委,,,,10,16,7,98,,104,104,8,6,4,4,0.1,0.5
2024-07-06T1900,1798A,118.5092,31.6837,马鞍山市,湖东路四小,,31,22,28,14,15,97,,112,109,11,10,9,9,0.5,0.7
2024-07-06T1900,1799A,118.5024,31.6449,马鞍山市,开发区,,30,30,28,16,14,86,,112,107,26,20,10,10,0.6,0.8
2024-07-06T1900,1800A,118.5228,31.7231,马鞍山市,慈湖,,30,23,23,12,14,93,,106,103,18,15,10,11,0.5,0.7
2024-07-06T1900,1802A,118.6245,31.7241,马鞍山市,濮塘,,28,23,22,19,15,67,,116,109,12,10,3,4,0.8,0.7
2024-07-06T1900,3633A,118.4918,31.6809,马鞍山市,雨山,,27,25,26,14,13,86,,105,101,17,12,6,7,0.6,0.7
2024-07-06T1900,1686A,111.0286,21.4688,茂名市,电白南海,,17,12,8,7,6,54,,51,51,4,4,5,5,0.4,0.4
2024-07-06T1900,1687A,110.9294,21.6533,茂名市,茂石化七小,,15,14,10,9,8,48,,49,49,4,5,10,9,0.6,0.6
2024-07-06T1900,1688A,110.9107,21.6687,茂名市,健康路,,17,9,10,3,3,54,,56,56,7,8,9,9,0.4,0.4
2024-07-06T1900,1689A,110.8592,21.6828,茂名市,高岭,,31,31,20,12,8,45,,44,44,8,10,8,9,0.5,0.5
2024-07-06T1900,3450A,111.01,21.5165,茂名市,电白水东,,16,,5,7,5,51,,47,47,9,7,3,3,0.6,0.9
2024-07-06T1900,2539A,104.0308,30.0478,眉山市,黑龙滩水库,,38,24,32,21,25,121,,114,114,3,7,7,6,0.5,0.5
2024-07-06T1900,2540A,103.8416,30.0874,眉山市,气象局,,36,22,26,17,29,114,,121,121,8,26,7,8,0.5,0.5
2024-07-06T1900,3137A,103.8578,30.0744,眉山市,市委党校,,37,27,38,14,24,116,,118,118,12,24,8,8,0.5,0.6
2024-07-06T1900,3148A,103.8291,30.0564,眉山市,区人社局,,37,29,35,9,27,116,,120,120,18,26,9,10,0.5,0.6
2024-07-06T1900,1690A,116.1231,24.3284,梅州市,梅江月梅,,23,20,19,15,8,71,,72,72,3,6,8,9,0.4,0.4
2024-07-06T1900,1691A,116.0797,24.2719,梅州市,梅县新城,,30,,18,21,12,65,,69,69,8,9,4,4,0.5,0.4
2024-07-06T1900,1692A,116.1248,24.2654,梅州市,环境监控中心,,20,20,23,14,10,61,,69,69,10,13,4,5,0.4,0.4
2024-07-06T1900,3315A,116.1233,24.2991,梅州市,梅龙,,22,19,20,9,10,69,,73,73,7,8,8,11,0.5,0.5
2024-07-06T1900,1878A,104.7778,31.4741,绵阳市,富乐山,,40,40,33,24,22,83,,115,114,18,9,8,8,0.6,0.5
2024-07-06T1900,1879A,104.7563,31.4535,绵阳市,市人大,,,51,38,33,24,96,,115,115,33,16,8,8,,0.5
2024-07-06T1900,1880A,104.6697,31.4668,绵阳市,高新区自来水公司,,48,48,43,27,24,105,,134,134,21,18,5,5,0.7,0.6
2024-07-06T1900,1881A,104.7287,31.5075,绵阳市,三水厂,,44,44,38,28,25,84,,104,104,26,22,7,7,0.6,0.6
2024-07-06T1900,3491A,104.69,31.5322,绵阳市,西科大附属小学,颗粒物(PM10),51,51,48,30,28,75,,103,103,16,25,6,5,0.6,0.7
2024-07-06T1900,3492A,104.5648,31.5343,绵阳市,安州区旅游局,,42,36,45,29,29,91,,112,112,16,20,8,7,0.5,0.5
2024-07-06T1900,1784A,129.61,44.561,牡丹江市,环保大楼,颗粒物(PM10),60,69,29,39,19,64,,85,84,18,11,8,7,0.7,0.5
2024-07-06T1900,1785A,129.6115,44.5782,牡丹江市,文化广场,细颗粒物(PM2.5),70,70,28,51,30,60,,79,78,28,15,8,6,0.8,0.6
2024-07-06T1900,1786A,129.5904,44.5963,牡丹江市,第一医院,颗粒物(PM10),61,71,27,35,23,46,,74,72,23,13,4,4,0.8,0.6
2024-07-06T1900,1787A,129.6364,44.6075,牡丹江市,机车工厂,颗粒物(PM10),58,66,28,40,20,34,,79,75,14,11,6,3,1.2,0.6
2024-07-06T1900,1788A,129.6386,44.5462,牡丹江市,第一中学,颗粒物(PM10),63,76,25,25,11,31,,80,72,30,14,4,4,0.6,0.5
2024-07-06T1900,2531A,105.0703,29.61,内江市,市监测站,,35,,18,24,20,102,,100,100,10,19,7,7,0.3,0.4
2024-07-06T1900,2532A,105.0717,29.5947,内江市,东兴区政府,,34,25,21,15,10,106,,105,105,9,16,10,9,0.5,0.5
2024-07-06T1900,2533A,105.0653,29.5817,内江市,内江二中,,34,26,18,8,11,107,,108,108,10,18,12,11,0.6,0.6
2024-07-06T1900,2534A,105.0406,29.5822,内江市,内江日报社,,36,,17,25,17,76,,84,84,12,19,9,6,0.6,0.6
2024-07-06T1900,2628A,92.0657,31.4846,那曲市,那曲监测站,,21,14,14,12,8,66,,89,68,5,6,6,6,0.6,0.5
2024-07-06T1900,3128A,92.0506,31.4797,那曲市,那曲会议中心,,24,17,11,14,7,74,,95,75,12,7,4,3,0.5,0.4
2024-07-06T1900,1290A,115.8931,28.6843,南昌市,省外办,,40,40,42,17,16,98,,117,117,9,15,7,9,0.3,0.3
2024-07-06T1900,1291A,115.8886,28.7003,南昌市,省林业公司,,31,24,24,9,11,99,,120,120,8,14,6,9,0.6,0.5
2024-07-06T1900,1292A,115.8126,28.7442,南昌市,林科所,,32,22,25,9,12,102,,129,128,15,25,3,12,0.6,0.6
2024-07-06T1900,1294A,115.8518,28.687,南昌市,建工学校,,32,,20,18,11,102,,123,123,7,11,7,11,0.3,0.3
2024-07-06T1900,1295A,115.8921,28.6424,南昌市,象湖,,26,,20,12,13,83,,132,128,7,10,5,8,0.5,0.5
2024-07-06T1900,1296A,115.7423,28.7996,南昌市,武术学校,,33,,16,20,14,104,,119,119,5,6,7,8,0.4,0.4
2024-07-06T1900,1298A,115.9314,28.6842,南昌市,省站,,24,,24,13,13,74,,115,112,10,14,4,8,0.5,0.5
2024-07-06T1900,3046A,115.9084,28.6062,南昌市,机电学校,,22,21,28,7,10,69,,116,112,2,10,7,10,0.6,0.6
2024-07-06T1900,3690A,115.9721,28.7031,南昌市,外国语学校,,25,22,26,16,12,79,,118,115,6,10,4,6,0.4,0.4
2024-07-06T1900,1905A,106.056,30.8064,南充市,西山风景区,,27,,26,16,15,59,,61,61,54,60,4,4,0.5,0.5
2024-07-06T1900,1906A,106.0789,30.8023,南充市,南充市委,,37,25,28,14,15,117,,112,112,7,12,5,5,0.3,0.4
2024-07-06T1900,1907A,106.1031,30.8217,南充市,南充炼油厂,,33,27,26,10,16,104,,106,106,8,12,4,4,0.1,0.2
2024-07-06T1900,1908A,106.1064,30.7856,南充市,高坪区监测站,,28,25,25,10,11,88,,92,92,13,13,5,5,0.4,0.4
2024-07-06T1900,1909A,106.0642,30.7636,南充市,嘉陵区环保局,,29,16,21,14,14,92,,99,99,10,12,4,4,0.3,0.3
2024-07-06T1900,1910A,106.1087,30.8388,南充市,市环境监测站,,30,25,28,14,16,93,,97,97,10,13,3,3,0.4,0.5
2024-07-06T1900,1151A,118.8086,32.1065,南京市,迈皋桥,,25,22,18,3,7,80,,103,101,20,10,8,6,0.6,0.3
2024-07-06T1900,1152A,118.7538,32.0551,南京市,草场门,,22,22,19,3,10,68,,89,87,17,10,9,6,0.9,0.7
2024-07-06T1900,1153A,118.7794,32.0745,南京市,山西路,,26,24,21,3,3,83,,105,103,7,4,4,4,0.6,0.4
2024-07-06T1900,1154A,118.7752,32.0023,南京市,中华门,,24,19,18,12,7,75,,87,86,22,14,6,6,0.5,0.5
2024-07-06T1900,1155A,118.8109,32.0309,南京市,瑞金路,,29,24,20,9,8,90,,101,101,12,6,4,4,0.4,0.3
2024-07-06T1900,1156A,118.7997,32.0754,南京市,玄武湖,,24,19,23,7,7,75,,88,86,8,6,4,4,0.6,0.5
2024-07-06T1900,1157A,118.6414,32.0931,南京市,浦口,,27,24,24,3,10,85,,92,92,7,13,5,7,0.7,0.7
2024-07-06T1900,1158A,118.7356,31.9996,南京市,奥体中心,,29,29,23,12,12,76,,93,91,21,13,8,8,0.4,0.3
2024-07-06T1900,1159A,118.9125,32.1028,南京市,仙林大学城,,32,29,22,7,8,101,,113,113,18,14,8,8,0.5,0.5
2024-07-06T1900,3422A,118.8436,31.9198,南京市,江宁彩虹桥,,23,23,25,9,8,71,,112,106,12,7,4,4,0.5,0.5
2024-07-06T1900,3423A,119.0138,31.6494,南京市,溧水永阳,,24,9,12,8,8,75,,87,86,8,10,4,4,0.2,0.2
2024-07-06T1900,3424A,118.879,31.3302,南京市,高淳老职中,,23,20,17,13,9,72,,71,71,4,6,3,4,0.6,0.6
2024-07-06T1900,3427A,118.8554,32.3578,南京市,六合雄州,,28,,22,14,14,87,,99,99,11,12,9,10,0.8,1
2024-07-06T1900,1401A,108.3103,22.7881,南宁市,二十一中,,29,29,14,11,7,86,,69,69,12,11,4,4,0.8,0.7
2024-07-06T1900,1402A,108.3141,22.8528,南宁市,北湖,,23,23,15,9,8,69,,68,68,12,11,3,4,0.7,0.7
2024-07-06T1900,1403A,108.3206,22.8225,南宁市,市监测站,,23,20,16,11,9,73,,67,67,16,12,4,5,0.7,0.6
2024-07-06T1900,1404A,108.3829,22.8037,南宁市,大自然花园,,,21,12,8,8,77,,62,62,7,8,5,5,,0.5
2024-07-06T1900,1405A,108.4394,22.7904,南宁市,仙葫,,24,24,12,8,8,76,,64,64,11,13,4,6,0.3,0.2
2024-07-06T1900,1406A,108.2397,22.8467,南宁市,区农职院,,39,39,19,9,6,33,,68,65,18,11,13,6,0.6,0.7
2024-07-06T1900,1407A,108.3275,22.735,南宁市,英华嘉园,,24,22,17,10,9,74,,57,57,20,18,6,6,0.7,0.5
2024-07-06T1900,1408A,108.2257,22.7757,南宁市,沙井镇街道办,,21,21,28,6,7,50,,57,57,10,16,2,2,0.4,0.5
2024-07-06T1900,3401A,108.4834,22.7618,南宁市,红星社区,,24,19,13,12,7,75,,60,60,5,7,5,5,0.7,0.7
2024-07-06T1900,2332A,118.1681,26.6369,南平市,南平市监测站,,24,24,16,3,12,48,,60,59,12,14,5,4,0.7,0.7
2024-07-06T1900,2333A,118.1825,26.6489,南平市,南平铝业有限公司,,19,19,20,9,12,41,,62,59,12,12,9,6,0.6,0.6
2024-07-06T1900,2334A,118.1756,26.6272,南平市,南平七中,,27,27,19,3,12,57,,67,64,7,8,5,5,0.6,0.5
2024-07-06T1900,1168A,120.9098,31.9663,南通市,狼山街道,,25,16,32,3,14,77,,108,93,24,28,6,8,0.3,0.4
2024-07-06T1900,1169A,120.86,32.0005,南通市,虹桥,,25,25,35,7,16,78,,110,101,35,36,7,6,0.8,0.7
2024-07-06T1900,1170A,120.87,32.02,南通市,城中,,34,34,42,9,16,90,,122,114,33,28,8,6,1.1,0.8
2024-07-06T1900,1171A,120.94,31.93,南通市,星湖花园,,23,20,32,9,16,71,,124,106,46,32,8,7,0.3,0.4
2024-07-06T1900,1172A,120.81,32.0417,南通市,紫琅学院,,25,25,34,7,13,76,,106,99,50,50,7,8,0.3,0.4
2024-07-06T1900,3291A,121.067,32.062,南通市,通州监测站,,29,29,45,9,19,92,,144,129,27,22,6,5,0.8,0.9
2024-07-06T1900,3432A,120.9348,31.9883,南通市,环境教育馆,,31,29,41,10,20,97,,133,119,24,29,8,10,0.5,0.6
2024-07-06T1900,2404A,112.5224,33.0122,南阳市,瓦房庄,,29,21,16,20,14,85,,95,95,8,13,2,2,0.4,0.4
2024-07-06T1900,2405A,112.5003,32.9735,南阳市,汉画馆,,27,22,22,9,8,84,,90,90,9,16,2,3,0.4,0.5
2024-07-06T1900,2406A,112.5573,33.027,南阳市,气象站,,27,17,12,14,7,85,,95,95,9,10,4,4,0.3,0.3
2024-07-06T1900,2407A,112.5481,32.9689,南阳市,理工学院,,29,26,20,20,13,88,,94,94,7,14,4,4,0.3,0.4
2024-07-06T1900,4008A,112.5234,32.9922,南阳市,卧龙区政府,,28,21,15,19,10,88,,96,96,8,13,4,4,0.5,0.6
2024-07-06T1900,1234A,121.8358,29.911,宁波市,区环保大楼,颗粒物(PM10),53,55,27,16,13,92,,107,107,25,11,6,6,0.5,0.4
2024-07-06T1900,1235A,121.56,29.82,宁波市,万里学院,,42,32,26,29,11,121,,118,118,12,10,6,7,0.5,0.5
2024-07-06T1900,1236A,121.713,29.9572,宁波市,龙赛医院,,37,26,22,14,9,116,,118,118,14,9,5,6,0.3,0.2
2024-07-06T1900,1239A,121.633,29.7733,宁波市,钱湖水厂,,40,31,19,18,11,126,,118,118,6,5,5,5,0.6,0.6
2024-07-06T1900,1240A,121.5856,29.8635,宁波市,太古小学,,39,34,24,20,12,122,,118,118,7,8,6,6,0.6,0.6
2024-07-06T1900,1241A,121.524,29.8674,宁波市,市环境监测中心,,39,38,24,23,13,124,,126,126,16,13,4,6,0.5,0.5
2024-07-06T1900,2871A,121.6147,29.9017,宁波市,万里国际学校,,40,27,21,15,12,125,,125,125,10,9,5,5,0.2,0.2
2024-07-06T1900,3710A,121.5594,29.8975,宁波市,白沙活动中心,,39,24,23,14,9,124,,123,123,8,7,7,9,0.3,0.3
2024-07-06T1900,2341A,119.5388,26.6612,宁德市,宁德市监测站,,28,28,35,16,17,74,,133,124,17,13,11,6,2.0,0.9
2024-07-06T1900,3209A,119.5231,26.6562,宁德市,宁德一中,,45,45,39,23,19,84,,136,131,12,10,9,7,1.5,1
2024-07-06T1900,2618A,98.8601,25.8567,怒江傈僳族自治州,州监测站,,20,20,24,8,13,54,,54,54,13,10,9,9,0.6,0.6
2024-07-06T1900,2619A,98.8546,25.8417,怒江傈僳族自治州,泸水一中,,29,29,25,12,9,44,,44,44,15,14,5,5,0.4,0.4
2024-07-06T1900,1888A,101.6891,26.571,攀枝花市,弄弄坪,,42,42,43,14,13,72,,77,77,20,24,16,17,0.6,0.7
2024-07-06T1900,1889A,101.5769,26.5928,攀枝花市,河门口,,27,25,25,12,12,85,,81,81,13,17,16,21,0.8,1.1
2024-07-06T1900,1890A,101.7169,26.585,攀枝花市,炳草岗,,36,36,38,7,13,80,,80,80,11,21,17,19,0.5,0.7
2024-07-06T1900,1891A,101.7369,26.5008,攀枝花市,仁和,,19,17,17,8,9,59,,69,69,16,11,12,9,0.5,0.4
2024-07-06T1900,2835A,101.7227,26.567,攀枝花市,四十中小,,29,29,27,16,10,84,,87,87,13,16,12,15,0.6,0.7
2024-07-06T1900,1604A,122.0303,41.1489,盘锦市,开发区,,,,29,30,40,107,,116,116,14,12,6,6,0.4,0.4
2024-07-06T1900,1605A,122.0485,41.0883,盘锦市,兴隆台,,35,26,32,14,20,111,,117,117,16,16,8,8,0.3,0.5
2024-07-06T1900,1606A,121.8297,41.1028,盘锦市,新生街道,,33,30,23,11,16,103,,110,110,10,12,2,2,0.3,0.4
2024-07-06T1900,1832A,113.3257,33.742,平顶山市,新华旅馆,,30,15,18,11,21,94,,113,113,6,8,3,4,0.6,0.5
2024-07-06T1900,1833A,113.2919,33.737,平顶山市,规划设计院,,29,,12,20,8,90,,113,113,9,10,4,4,0.7,0.7
2024-07-06T1900,1834A,113.182,33.774,平顶山市,平顶山工学院,,25,16,14,7,6,80,,114,112,5,8,5,6,0.7,0.7
2024-07-06T1900,3204A,113.3025,33.73,平顶山市,规划局,,,,6,17,17,58,,97,94,11,12,2,2,0.3,0.4
2024-07-06T1900,3594A,112.8867,33.9116,平顶山市,石龙区,,30,13,15,12,11,93,,117,117,2,10,5,6,0.3,0.3
2024-07-06T1900,2656A,106.6692,35.5461,平凉市,聚贤嘉苑,,42,42,52,15,20,121,,141,141,17,23,9,8,0.3,0.3
2024-07-06T1900,2657A,106.7021,35.5307,平凉市,博物馆,,46,46,57,20,21,125,,141,141,23,25,5,5,0.5,0.5
2024-07-06T1900,2347A,114.0997,27.5002,萍乡市,武功山,,26,,6,3,4,83,,93,78,4,4,9,9,0.7,0.5
2024-07-06T1900,2348A,113.8385,27.6434,萍乡市,中医院,,25,19,19,15,11,78,,76,76,7,12,2,8,0.5,0.7
2024-07-06T1900,2349A,113.8493,27.6253,萍乡市,市政府车库,,23,22,17,12,14,71,,72,71,4,6,9,11,0.4,0.5
2024-07-06T1900,2350A,113.8676,27.6435,萍乡市,市环保局,,24,12,23,3,14,75,,75,74,2,8,10,12,0.3,0.5
2024-07-06T1900,2351A,113.866,27.6198,萍乡市,安源区政府,,24,8,19,7,6,74,,73,72,5,6,2,7,0.3,0.3
2024-07-06T1900,2319A,119.0141,25.4325,莆田市,荔城区仓后路,,35,35,29,14,9,42,,70,67,14,13,7,8,0.6,0.6
2024-07-06T1900,2320A,119.0015,25.4553,莆田市,莆田市监测站,,26,26,24,8,9,53,,72,71,8,6,11,10,0.5,0.5
2024-07-06T1900,2321A,119.1119,25.4561,莆田市,涵江区六中,,25,25,28,8,8,38,,73,67,12,15,12,12,0.7,0.5
2024-07-06T1900,2322A,119.1013,25.3215,莆田市,秀屿区政府,,30,30,21,3,4,43,,66,60,2,10,10,13,0.5,0.6
2024-07-06T1900,2392A,115.0312,35.7636,濮阳市,环保局,,45,32,21,21,17,142,,126,126,6,8,6,6,0.8,0.6
2024-07-06T1900,2394A,115.0574,35.7609,濮阳市,油田运输公司,,,38,23,26,24,127,,123,123,,8,4,4,0.8,0.6
2024-07-06T1900,3021A,115,35.7668,濮阳市,濮水河管理处,,48,38,21,33,23,118,,109,109,7,9,5,5,0.8,0.7
2024-07-06T1900,2601A,100.98,22.7633,普洱市,市环保局,,12,11,12,8,11,30,,32,32,5,5,4,4,0.5,0.4
2024-07-06T1900,2602A,100.9817,22.8322,普洱市,普洱第二中学,,19,19,16,13,11,32,,40,40,5,7,8,9,0.5,0.5
2024-07-06T1900,2262A,131.0518,45.8751,七台河市,新一中,细颗粒物(PM2.5),90,74,40,67,40,87,,98,98,10,9,12,10,0.9,1
2024-07-06T1900,3345A,131.0577,45.7879,七台河市,中波台,细颗粒物(PM2.5),60,54,42,43,27,73,,78,78,11,22,11,10,0.2,0.3
2024-07-06T1900,3637A,131.0176,45.7761,七台河市,人民广场,颗粒物(PM10),68,86,44,47,29,45,,64,63,16,19,13,12,0.6,0.5
2024-07-06T1900,3684A,130.8781,45.8222,七台河市,新建矿广场,颗粒物(PM10),93,136,59,67,30,68,,78,78,22,21,6,7,0.4,0.3
2024-07-06T1900,1779A,123.9305,47.3636,齐齐哈尔市,安居小区,,41,41,50,23,37,92,,105,104,20,18,16,11,0.5,0.6
2024-07-06T1900,1780A,123.9488,47.3386,齐齐哈尔市,中心广场,,44,44,66,13,37,97,,111,110,12,13,10,11,0.4,0.5
2024-07-06T1900,1781A,123.9483,47.3227,齐齐哈尔市,农牧车辆厂,,46,46,59,12,28,96,,110,109,14,13,8,9,0.2,0.3
2024-07-06T1900,1783A,123.945,47.2988,齐齐哈尔市,市环境监测站,,42,42,50,24,35,99,,116,115,12,11,6,6,0.3,0.3
2024-07-06T1900,3662A,123.6333,47.2075,齐齐哈尔市,富区青少年活动中心,,31,31,58,12,31,98,,112,112,14,27,6,10,0.5,1.2
2024-07-06T1900,2591A,107.9783,26.5747,黔东南苗族侗族自治州,市环境监测站,,15,10,8,3,6,46,,52,48,4,3,3,3,0.3,0.3
2024-07-06T1900,2881A,107.8908,26.5311,黔东南苗族侗族自治州,凯里学院,,19,,4,13,6,44,,47,44,3,3,4,4,0.3,0.3
2024-07-06T1900,2593A,107.5228,26.2403,黔南布依族苗族自治州,小围寨,,17,6,5,3,0,52,,51,51,1,2,4,4,0.4,0.4
2024-07-06T1900,3538A,107.5175,26.2978,黔南布依族苗族自治州,沙坝,,15,7,4,3,0,46,,44,44,3,3,4,3,0.4,0.4
2024-07-06T1900,2589A,104.9022,25.0925,黔西南布依族苗族自治州,场坝街,,17,14,12,3,6,52,,49,49,5,4,3,3,0.3,0.2
2024-07-06T1900,2590A,104.8811,25.0992,黔西南布依族苗族自治州,坪东大道,,16,12,11,8,7,49,,46,46,3,2,4,4,0.3,0.3
2024-07-06T1900,2502A,108.6236,21.9667,钦州市,市环保站,,19,14,10,3,3,60,,65,65,12,12,7,5,0.7,0.6
2024-07-06T1900,2503A,108.6549,21.9481,钦州市,沙埠小学,,20,13,15,11,7,62,,70,70,10,14,5,6,0.5,0.6
2024-07-06T1900,2504A,108.5989,21.7431,钦州市,港区一小,,22,22,21,6,4,54,,62,62,8,12,7,9,0.5,0.5
2024-07-06T1900,3404A,108.5959,21.9633,钦州市,北职校,,24,24,14,3,5,56,,59,59,6,10,6,5,0.5,0.6
2024-07-06T1900,1042A,119.5134,39.8207,秦皇岛市,北戴河环保局,颗粒物(PM10),68,86,46,20,16,173,,142,142,9,6,3,3,0.6,0.4
2024-07-06T1900,1043A,119.7493,40.0116,秦皇岛市,第一关,细颗粒物(PM2.5),60,61,47,43,36,144,,131,131,9,8,1,2,0.5,0.4
2024-07-06T1900,1044A,119.5897,39.9499,秦皇岛市,监测站,颗粒物(PM10),56,61,50,30,24,152,,139,139,24,15,4,5,0.6,0.5
2024-07-06T1900,1046A,119.5251,39.9041,秦皇岛市,建设大厦,,49,43,41,23,16,156,,138,138,6,4,3,3,0.2,0.3
2024-07-06T1900,3132A,119.610547,39.943889,秦皇岛市,文明里,颗粒物(PM10),53,55,37,34,30,156,,136,136,19,14,2,3,0.6,0.5
2024-07-06T1900,1307A,120.6659,36.2403,青岛市,仰口,,29,24,14,14,14,90,,113,113,7,4,4,4,0.5,0.5
2024-07-06T1900,1310A,120.4134,36.0658,青岛市,市南区东部子站,,36,17,18,3,8,115,,126,126,14,11,7,7,0.6,0.5
2024-07-06T1900,1311A,120.3664,36.1032,青岛市,四方区子站,,38,17,17,9,10,119,,136,136,14,14,10,10,0.6,0.5
2024-07-06T1900,1312A,120.2994,36.054,青岛市,市南区西部子站,,33,19,20,12,8,104,,113,113,22,17,8,7,0.6,0.6
2024-07-06T1900,1313A,120.4581,36.0858,青岛市,崂山区子站,,39,14,20,12,9,122,,131,131,21,16,8,8,0.6,0.5
2024-07-06T1900,1314A,120.1983,35.9608,青岛市,黄岛区子站,,40,,15,10,9,125,,125,125,13,13,6,6,0.5,0.5
2024-07-06T1900,1315A,120.3999,36.3083,青岛市,城阳区子站,,38,24,13,7,10,120,,121,121,28,12,7,6,0.6,0.6
2024-07-06T1900,1966A,120.0405,35.8735,青岛市,黄岛区4号,,38,7,13,3,4,120,,115,115,9,10,8,9,0.5,0.5
2024-07-06T1900,3362A,120.5014,36.4034,青岛市,即墨2号,,43,18,15,12,9,136,,130,130,16,11,5,5,0.5,0.4
2024-07-06T1900,3642A,120.3503,36.0736,青岛市,市北区南部,,39,18,18,9,10,124,,132,132,12,13,6,6,0.5,0.5
2024-07-06T1900,3643A,120.3948,36.1805,青岛市,李沧区北部,,34,14,15,12,13,106,,121,121,24,17,10,10,0.4,0.4
2024-07-06T1900,1702A,113.0426,23.691,清远市,环保大楼,臭氧1小时,64,23,25,14,15,171,,16,,18,23,5,6,0.7,0.8
2024-07-06T1900,1703A,113.0208,23.7106,清远市,凤城街办,臭氧1小时,59,34,30,24,19,167,,131,131,14,19,3,4,0.5,0.4
2024-07-06T1900,3025A,113.0477,23.6344,清远市,技师学院,臭氧1小时,82,33,33,17,15,185,,147,147,12,22,6,6,0.3,0.4
2024-07-06T1900,3318A,112.9903,23.7403,清远市,清新太和,,40,36,34,24,16,127,,118,118,10,12,7,7,0.6,0.6
2024-07-06T1900,3455A,113.076,23.7198,清远市,清城东城,,50,45,38,22,13,158,,128,128,9,15,4,4,0.5,0.5
2024-07-06T1900,2661A,107.6325,35.7357,庆阳市,庆阳五中,,46,32,39,17,19,147,,151,151,11,11,3,4,0.4,0.3
2024-07-06T1900,2662A,107.6364,35.7067,庆阳市,市环保局,,45,33,38,12,15,144,,148,148,10,10,2,4,0.3,0.3
2024-07-06T1900,1916A,103.7897,25.5035,曲靖市,环境监测站,,21,21,13,10,5,57,,55,55,7,6,3,3,0.4,0.4
2024-07-06T1900,1917A,103.8,25.5364,曲靖市,烟厂办公区,,20,9,10,3,6,62,,59,59,6,7,4,4,0.3,0.3
2024-07-06T1900,3376A,103.7947,25.462,曲靖市,南苑二区,,20,11,9,7,5,62,,57,57,6,5,4,4,0.6,0.5
2024-07-06T1900,3377A,103.7444,25.5261,曲靖市,曲靖师范学院,,20,12,9,6,6,64,,63,63,5,5,4,4,0.4,0.4
2024-07-06T1900,1264A,118.8692,28.9398,衢州市,环保大楼,,25,21,26,11,16,79,,82,81,9,12,7,8,0.3,0.3
2024-07-06T1900,1265A,118.8709,28.9666,衢州市,实验学校,,25,22,31,14,16,79,,89,87,9,16,9,9,0.3,0.4
2024-07-06T1900,1266A,118.8621,28.9808,衢州市,衢州学院,,25,21,30,12,16,78,,92,89,10,20,4,5,0.3,0.4
2024-07-06T1900,1611A,118.5819,24.9117,泉州市,涂山街,,25,25,27,8,9,43,,49,49,7,13,3,7,0.5,0.5
2024-07-06T1900,1612A,118.5972,24.8978,泉州市,津头埔,,,29,26,10,7,,,16,,10,15,2,6,0.7,0.6
2024-07-06T1900,1613A,118.6663,24.9424,泉州市,万安,,19,19,23,3,5,36,,49,47,4,10,2,4,0.5,0.6
2024-07-06T1900,3529A,118.6333,24.9264,泉州市,城华南路,,23,23,22,8,7,33,,46,44,9,12,2,5,0.4,0.4
2024-07-06T1900,2626A,88.8876,29.2718,日喀则市,日喀则监测站,,24,10,8,3,4,75,,82,82,5,6,6,4,0.4,0.4
2024-07-06T1900,3726A,88.8781,29.2426,日喀则市,林业技术推广中心,,26,6,4,3,4,81,,84,84,8,8,6,6,0.5,0.5
2024-07-06T1900,1659A,119.471,35.4209,日照市,监测站,,35,22,15,20,11,109,,109,109,24,14,9,9,0.4,0.3
2024-07-06T1900,1660A,119.523,35.4216,日照市,市政府广场,,36,36,19,20,9,78,,99,99,29,11,9,9,0.7,0.6
2024-07-06T1900,1661A,119.5587,35.4044,日照市,港务局,,30,24,20,7,7,95,,114,114,20,12,8,9,0.6,0.6
2024-07-06T1900,3507A,119.5328,35.4625,日照市,职业技术学院,,36,17,17,14,10,114,,110,110,14,11,8,8,0.7,0.6
2024-07-06T1900,3604A,119.3266,35.1044,日照市,岚山环保分局,,31,17,19,7,8,98,,99,99,6,10,8,8,0.5,0.7
2024-07-06T1900,1835A,111.1922,34.7752,三门峡市,市政府,,48,26,24,12,12,152,,148,148,15,23,6,7,0.5,0.5
2024-07-06T1900,1836A,111.1587,34.7942,三门峡市,开发区,,47,36,28,14,15,150,,149,149,21,23,9,9,0.4,0.4
2024-07-06T1900,3039A,111.1911,34.7829,三门峡市,三门峡市第一小学,颗粒物(PM10),82,113,32,13,10,150,,148,148,14,20,8,7,0.6,0.6
2024-07-06T1900,3598A,111.1,34.7167,三门峡市,富达温泉假日酒店,,46,37,39,7,23,146,,142,142,14,19,12,13,0.5,0.6
2024-07-06T1900,2324A,117.6211,26.2625,三明市,三钢,,24,24,23,12,13,46,,51,50,20,17,21,11,1.2,0.9
2024-07-06T1900,2325A,117.635,26.2714,三明市,三明二中,,22,22,20,7,11,57,,56,55,13,14,5,6,0.6,0.7
2024-07-06T1900,2326A,117.6028,26.2378,三明市,三元区政府,,26,26,23,3,12,47,,51,50,18,14,7,10,0.4,0.3
2024-07-06T1900,1876A,109.5078,18.2489,三亚市,河东子站,,16,16,12,8,6,45,,52,51,6,6,3,3,0.1,0.2
2024-07-06T1900,1877A,109.4964,18.2681,三亚市,河西子站,,15,10,10,3,2,47,,51,51,2,5,2,2,0.4,0.4
2024-07-06T1900,3540A,109.7348,18.3443,三亚市,君悦子站,,16,13,15,3,4,49,,52,52,4,9,3,3,0.3,0.4
2024-07-06T1900,2624A,91.7608,29.2313,山南市,山南监测站,,21,16,10,3,5,66,,68,68,8,9,5,6,0.3,0.3
2024-07-06T1900,2625A,91.7706,29.2436,山南市,山南人民医院,,32,32,14,3,5,70,,68,68,7,12,5,6,0.3,0.4
2024-07-06T1900,1674A,116.6794,23.3667,汕头市,金平子站,,16,14,15,9,5,51,,52,52,9,8,7,6,0.8,0.7
2024-07-06T1900,1675A,116.7244,23.3633,汕头市,龙湖子站,,25,25,14,14,5,43,,45,45,9,8,5,5,0.6,0.6
2024-07-06T1900,1676A,116.7258,23.2775,汕头市,濠江子站,,15,12,15,8,7,47,,54,54,7,9,4,5,0.5,0.5
2024-07-06T1900,1677A,116.7519,23.4714,汕头市,澄海子站,,25,25,15,7,8,42,,40,40,8,8,4,5,0.7,0.7
2024-07-06T1900,1678A,116.6092,23.2539,汕头市,潮阳子站,,19,19,13,13,6,38,,44,44,5,5,4,5,0.8,0.6
2024-07-06T1900,3444A,116.454,23.2684,汕头市,潮南峡山,,19,19,12,10,3,39,,43,43,1,5,4,4,0.6,0.6
2024-07-06T1900,3624A,116.4069,23.2533,汕头市,潮南子站,,21,21,12,6,5,40,,45,45,4,5,7,7,0.5,0.5
2024-07-06T1900,1693A,115.3653,22.775,汕尾市,市环保局,,11,11,12,3,5,34,,35,35,6,10,5,5,0.5,0.5
2024-07-06T1900,1694A,115.3706,22.7898,汕尾市,市政府,,12,6,13,3,8,38,,40,40,3,6,6,6,0.5,0.5
2024-07-06T1900,1695A,115.3622,22.7925,汕尾市,新城中学,,23,23,16,6,4,40,,40,40,3,6,4,4,0.4,0.7
2024-07-06T1900,2645A,109.9154,33.8715,商洛市,监测站,,27,19,19,10,8,85,,117,116,13,9,8,6,0.7,0.6
2024-07-06T1900,3045A,109.9643,33.8471,商洛市,商州区中学,,31,31,25,16,6,77,,113,112,11,12,7,5,0.7,0.6
2024-07-06T1900,2408A,115.6702,34.4285,商丘市,环境监测站,,,25,11,9,7,86,,112,105,2,2,,8,0.5,0.5
2024-07-06T1900,2409A,115.6458,34.4045,商丘市,粮食局,,27,26,12,10,6,86,,111,105,2,2,4,5,0.4,0.3
2024-07-06T1900,2410A,115.6293,34.3948,商丘市,睢阳区环保局,,30,25,14,13,8,94,,113,108,2,3,5,4,0.3,0.3
2024-07-06T1900,3171A,115.6071,34.4465,商丘市,梁园区档案局,,27,21,20,18,10,86,,107,102,3,4,6,6,0.4,0.2
2024-07-06T1900,1141A,121.4,31.238,上海市,普陀,,,56,42,22,20,162,,170,170,24,18,,7,0.6,0.5
2024-07-06T1900,1142A,121.478,31.2036,上海市,十五厂,,,,41,,23,160,,191,191,,22,,13,0.6,0.5
2024-07-06T1900,1143A,121.467,31.3008,上海市,虹口,细颗粒物(PM2.5),63,54,40,45,27,157,,153,153,23,20,8,10,0.7,0.7
2024-07-06T1900,1144A,121.412,31.1654,上海市,徐汇上师大,,49,49,39,26,24,140,,185,184,34,24,5,5,0.8,0.7
2024-07-06T1900,1145A,121.536,31.2659,上海市,杨浦四漂,臭氧1小时,65,51,41,28,24,172,,187,187,19,22,8,9,0.6,0.7
2024-07-06T1900,1147A,121.425,31.2261,上海市,静安监测站,,,54,43,38,27,151,,171,171,,23,18,10,,0.7
2024-07-06T1900,1148A,121.703,31.1907,上海市,浦东川沙,细颗粒物(PM2.5),69,,37,50,33,159,,179,179,28,18,6,6,0.7,0.7
2024-07-06T1900,1149A,121.533,31.2284,上海市,浦东新区监测站,臭氧1小时,52,43,36,23,23,161,,176,176,19,21,5,5,0.7,0.7
2024-07-06T1900,1150A,121.577,31.2071,上海市,浦东张江,臭氧1小时,54,43,38,24,24,163,,173,173,21,21,5,5,0.8,0.7
2024-07-06T1900,3265A,121.4316,31.3322,上海市,宝山庙行,臭氧1小时,68,43,36,28,21,174,,152,152,20,18,11,11,0.7,0.7
2024-07-06T1900,3266A,121.8791,31.4662,上海市,崇明上实东滩,,47,36,29,16,15,149,,178,178,18,21,9,9,0.5,0.6
2024-07-06T1900,3268A,121.3162,31.2838,上海市,嘉定南翔,颗粒物(PM10),58,65,42,33,23,148,,138,138,36,25,6,8,0.6,0.5
2024-07-06T1900,3269A,121.3359,30.7456,上海市,金山新城,臭氧1小时,67,39,31,31,26,173,,187,187,13,13,8,8,0.4,0.4
2024-07-06T1900,3270A,121.4996,31.0739,上海市,闵行浦江,,49,38,32,24,22,156,,174,174,14,16,5,6,0.4,0.5
2024-07-06T1900,3271A,121.2886,31.1663,上海市,青浦徐泾,臭氧1小时,53,44,39,29,25,162,,172,172,30,21,6,6,0.6,0.5
2024-07-06T1900,3272A,121.2186,31.0378,上海市,松江图书馆,臭氧1小时,62,48,42,39,28,169,,194,194,22,20,6,6,0.6,0.6
2024-07-06T1900,3273A,121.3902,31.2059,上海市,长宁仙霞,,50,50,37,27,20,151,,170,170,35,25,7,7,0.9,0.8
2024-07-06T1900,3274A,121.7965,31.0507,上海市,浦东惠南,,45,40,32,21,19,142,,168,168,20,20,7,8,0.5,0.5
2024-07-06T1900,3544A,121.4891,30.925,上海市,奉贤南桥新城,,45,40,32,19,18,142,,168,168,19,19,5,5,0.6,0.7
2024-07-06T1900,2381A,118.005,28.4572,上饶市,百草园,,50,,29,35,17,70,,73,72,2,6,9,14,0.5,0.7
2024-07-06T1900,2382A,117.9756,28.4436,上饶市,市监测站,,24,20,31,8,17,76,,80,80,7,11,9,12,0.6,0.6
2024-07-06T1900,2383A,117.9519,28.4628,上饶市,凤凰光学,,24,16,26,3,15,76,,85,84,2,10,11,14,0.6,0.7
2024-07-06T1900,3413A,118.1953,28.4401,上饶市,广丰区教体局,,27,22,22,14,13,85,,86,84,6,6,8,11,0.5,0.4
2024-07-06T1900,3685A,117.897,28.4315,上饶市,双创科技城,,20,16,25,10,12,64,,76,74,6,14,6,7,0.6,0.6
2024-07-06T1900,1669A,113.5824,24.7733,韶关市,市八中,,33,27,28,12,17,104,,106,106,5,11,10,12,0.4,0.6
2024-07-06T1900,1671A,113.5917,24.7972,韶关市,园林处,,37,11,25,8,16,117,,114,114,4,10,8,8,0.4,0.4
2024-07-06T1900,1672A,113.6735,24.7791,韶关市,韶关学院,,35,16,24,6,15,112,,114,114,11,12,11,10,0.3,0.3
2024-07-06T1900,1673A,113.5971,24.6863,韶关市,曲江监测站,,35,25,28,14,14,109,,111,111,9,12,7,9,0.4,0.5
2024-07-06T1900,3622A,113.5556,24.8082,韶关市,碧湖山庄,,36,18,28,9,17,114,,114,114,6,10,9,12,0.3,0.4
2024-07-06T1900,2462A,111.5239,27.3033,邵阳市,市水土所,,18,17,18,12,11,56,,70,67,3,4,5,5,0.4,0.4
2024-07-06T1900,2463A,111.4733,27.2317,邵阳市,市一中,,26,26,21,3,13,60,,75,73,6,8,8,9,0.3,0.3
2024-07-06T1900,2464A,111.5283,27.2442,邵阳市,市化工厂,,19,10,17,3,11,58,,72,69,3,7,7,9,0.3,0.3
2024-07-06T1900,2465A,111.4503,27.2537,邵阳市,市罐头厂,,22,16,23,15,13,56,,71,68,5,7,5,10,0.3,0.3
2024-07-06T1900,2466A,111.4328,27.2272,邵阳市,市环保局,,18,13,19,9,12,56,,69,66,4,7,5,8,0.3,0.3
2024-07-06T1900,1247A,120.6053,29.9928,绍兴市,城东开发委,,27,11,23,8,14,84,,103,101,6,7,5,5,0.5,0.6
2024-07-06T1900,2921A,120.5483,30.0003,绍兴市,树下王站,,26,17,25,13,17,82,,102,99,8,7,4,4,0.4,0.5
2024-07-06T1900,3408A,120.5683,29.9361,绍兴市,绍兴中专,,38,38,24,22,18,78,,106,103,9,7,2,2,0.6,0.6
2024-07-06T1900,3409A,120.4906,30.0861,绍兴市,柯桥区政府,,31,31,36,14,18,83,,117,111,16,15,5,5,0.3,0.4
2024-07-06T1900,3410A,120.8752,30.0249,绍兴市,重华小学,,30,19,25,14,15,95,,123,117,9,8,9,9,0.3,0.5
2024-07-06T1900,3411A,120.8369,30.0137,绍兴市,上虞中学,,28,25,31,16,17,88,,114,107,13,17,7,12,0.4,0.5
2024-07-06T1900,3560A,120.4722,30.0415,绍兴市,柯桥妇保,,35,35,41,15,21,68,,118,105,22,18,6,6,0.6,0.6
2024-07-06T1900,3658A,120.6153,30.0764,绍兴市,袍江中学,,30,19,29,10,16,93,,117,114,8,10,9,9,0.6,0.7
2024-07-06T1900,1356A,114.1063,22.5545,深圳市,通心岭子站,,12,7,10,3,5,36,,46,46,6,6,5,5,0.5,0.4
2024-07-06T1900,1357A,114.117,22.5625,深圳市,洪湖,,13,13,10,3,3,37,,40,40,7,9,6,6,0.3,0.3
2024-07-06T1900,1358A,113.987,22.5417,深圳市,华侨城,,12,12,10,6,3,28,,50,49,15,7,4,4,0.5,0.4
2024-07-06T1900,1359A,113.9181,22.5171,深圳市,南海子站,,32,32,15,16,6,32,,38,38,18,19,5,5,0.5,0.4
