timepoint,stationcode,longitude,latitude,area,positionname,primarypollutant,aqi,pm10,pm10_24h,pm2_5,pm2_5_24h,o3,o3_24h,o3_8h,o3_8h_24h,no2,no2_24h,so2,so2_24h,co,co_24h
2026-02-21T2200,2568A,102.2503,31.8896,阿坝藏族羌族自治州,马师校,,,31,14,17,9,,,79,79,4,3,4,4,0.2,0.4
2026-02-21T2200,3994A,102.2174,31.9016,阿坝藏族羌族自治州,马尔康中学西区,,37,37,16,8,9,59,,79,74,5,5,5,4,0.5,0.4
2026-02-21T2200,2695A,80.2899,41.1684,阿克苏地区,电视台,细颗粒物(PM2.5),202,316,214,152,85,72,,110,108,46,23,13,13,1.6,1.1
2026-02-21T2200,2696A,80.2592,41.1541,阿克苏地区,艺术中心,细颗粒物(PM2.5),192,294,202,144,84,31,,113,104,99,30,3,4,1.2,0.9
2026-02-21T2200,2205A,105.699,38.8409,阿拉善盟,蒙二幼,颗粒物(PM10),500,1862,649,345,136,91,,92,92,7,4,9,9,0.5,0.5
2026-02-21T2200,2206A,105.7198,38.8508,阿拉善盟,环保局新楼,颗粒物(PM10),500,1361,587,345,147,87,,88,88,2,3,9,9,0.4,0.5
2026-02-21T2200,2708A,88.1266,47.8515,阿勒泰地区,市站,,33,33,43,14,8,62,,81,73,29,14,2,5,0.3,0.3
2026-02-21T2200,4166A,88.1198,47.7931,阿勒泰地区,阿勒泰路33号,,38,38,46,13,6,54,,85,80,32,8,7,5,0.4,0.3
2026-02-21T2200,2630A,80.1171,32.4999,阿里地区,阿里监测站,,32,,12,20,5,101,,106,106,2,4,7,4,0.4,0.4
2026-02-21T2200,3192A,80.0906,32.5029,阿里地区,阿里藏医院,,35,9,12,3,5,109,,109,109,1,5,7,11,0.2,0.3
2026-02-21T2200,2644A,109.0088,32.6974,安康市,汉滨区检察院,细颗粒物(PM2.5),59,66,49,42,35,45,,94,84,18,12,4,3,0.6,0.5
2026-02-21T2200,4054A,109.0324,32.6913,安康市,市邮政管理局,细颗粒物(PM2.5),83,90,55,61,38,14,,89,66,46,17,7,5,1.5,0.8
2026-02-21T2200,2291A,117.0806,30.5181,安庆市,环科院,细颗粒物(PM2.5),60,60,41,43,27,67,,80,76,17,13,9,7,0.8,0.7
2026-02-21T2200,2292A,117.0331,30.5118,安庆市,马山宾馆,细颗粒物(PM2.5),62,69,43,44,29,69,,87,80,14,9,8,6,0.8,0.7
2026-02-21T2200,2294A,116.9897,30.6146,安庆市,安庆大学,,35,35,35,22,20,83,,93,92,6,3,5,5,0.6,0.5
2026-02-21T2200,3173A,117.0598,30.5351,安庆市,市人大,颗粒物(PM10),53,56,42,34,27,74,,87,84,13,8,20,11,0.7,0.6
2026-02-21T2200,3123A,105.9408,26.2431,安顺市,凤凰山,,50,41,30,35,27,59,,96,90,9,10,15,15,0.5,0.5
2026-02-21T2200,3124A,105.9443,26.2567,安顺市,金钟山,,46,,29,32,27,56,,93,88,7,7,15,15,0.6,0.6
2026-02-21T2200,3125A,105.8983,26.248,安顺市,娄家坡,,41,41,27,22,23,54,,92,86,10,6,18,12,0.6,0.6
2026-02-21T2200,1819A,114.3552,36.1017,安阳市,红庙街,颗粒物(PM10),194,337,140,56,45,64,,81,78,16,16,4,5,0.6,0.6
2026-02-21T2200,1820A,114.361,36.0681,安阳市,银杏小区,颗粒物(PM10),155,259,135,67,49,56,,86,80,19,15,7,7,0.8,0.5
2026-02-21T2200,3141A,114.3921,36.0879,安阳市,信访局,颗粒物(PM10),169,288,132,69,46,61,,91,87,18,10,10,8,0.7,0.6
2026-02-21T2200,3669A,114.4706,36.0634,安阳市,左辅环卫站,颗粒物(PM10),196,341,158,61,48,72,,92,88,13,10,10,7,0.5,0.4
2026-02-21T2200,4117A,114.2918,36.0769,安阳市,钢三路198号,颗粒物(PM10),161,271,145,73,46,56,,79,75,18,18,6,6,0.6,0.5
2026-02-21T2200,1748A,123.0441,41.1201,鞍山市,深沟寺,细颗粒物(PM2.5),72,80,78,52,53,92,,98,97,12,11,9,8,0.8,0.8
2026-02-21T2200,1749A,123.011,41.0931,鞍山市,太阳城,细颗粒物(PM2.5),79,88,75,58,52,95,,97,96,11,10,14,13,0.8,0.8
2026-02-21T2200,1750A,123.0483,41.1445,鞍山市,太平,细颗粒物(PM2.5),70,81,82,51,54,89,,95,94,14,10,10,10,0.6,0.6
2026-02-21T2200,1751A,122.964,41.0968,鞍山市,铁西三道街,细颗粒物(PM2.5),84,91,81,62,54,77,,78,74,27,40,33,38,0.9,0.8
2026-02-21T2200,1753A,123.0219,41.0822,鞍山市,明达新区,细颗粒物(PM2.5),82,90,78,60,54,97,,100,97,13,10,16,13,0.7,0.6
2026-02-21T2200,4201A,122.944647,41.082639,鞍山市,兴盛南路290号,颗粒物(PM10),75,100,99,49,51,94,,98,96,16,13,10,10,1.0,0.9
2026-02-21T2200,2195A,107.4206,40.7609,巴彦淖尔市,附二中,颗粒物(PM10),64,78,1125,22,234,62,,88,76,5,3,6,6,0.5,0.5
2026-02-21T2200,2196A,107.37,40.7372,巴彦淖尔市,市环保大楼,,45,45,1024,22,231,62,,88,76,6,3,4,4,0.4,0.4
2026-02-21T2200,1956A,86.1476,41.7529,巴音郭楞蒙古自治州,孔雀公园,,,480,258,,95,8,,83,73,77,49,20,24,,0.8
2026-02-21T2200,1957A,86.1971,41.7166,巴音郭楞蒙古自治州,棉纺厂,颗粒物(PM10),150,250,250,79,73,41,,85,80,35,29,/,/,/,/
2026-02-21T2200,1958A,86.236,41.7172,巴音郭楞蒙古自治州,经济开发区,颗粒物(PM10),124,197,162,31,28,60,,76,75,11,11,7,7,0.4,0.4
2026-02-21T2200,3181A,106.776805,31.852614,巴中市,市五中,细颗粒物(PM2.5),70,59,58,51,49,42,,96,85,16,16,8,7,0.9,0.9
2026-02-21T2200,3183A,106.7419,31.8654,巴中市,圣泉水务公司,细颗粒物(PM2.5),78,67,51,57,43,35,,93,77,34,15,7,7,0.9,0.8
2026-02-21T2200,3616A,106.7617,31.8343,巴中市,市中心医院,细颗粒物(PM2.5),84,76,63,62,56,14,,92,66,47,23,8,7,1.3,1.1
2026-02-21T2200,2235A,122.7909,45.608,白城市,洮北区环保局,细颗粒物(PM2.5),163,136,179,124,149,56,,81,76,14,21,4,8,0.8,1
2026-02-21T2200,2236A,122.8741,45.5725,白城市,市环保局,细颗粒物(PM2.5),150,166,160,115,103,68,,93,90,13,16,5,7,0.9,0.9
2026-02-21T2200,2231A,126.4219,41.9172,白山市,喜丰,颗粒物(PM10),54,58,80,30,52,92,,104,101,7,15,12,16,1.1,1.2
2026-02-21T2200,2232A,126.4082,41.9416,白山市,环保局,颗粒物(PM10),105,160,97,,80,55,,96,85,22,20,22,18,1.4,1.2
2026-02-21T2200,2647A,104.1727,36.5448,白银市,第三小学,颗粒物(PM10),500,678,552,229,169,79,,81,80,1,18,2,30,0.3,0.3
2026-02-21T2200,2648A,104.1467,36.5482,白银市,动力公司,颗粒物(PM10),500,707,529,214,152,75,,78,76,6,9,3,17,0.3,0.3
2026-02-21T2200,2512A,106.6102,23.901,百色市,市监测站,细颗粒物(PM2.5),63,,45,45,33,56,,82,73,10,13,8,13,0.5,0.7
2026-02-21T2200,2513A,106.6524,23.8842,百色市,市中心血站,细颗粒物(PM2.5),59,44,50,42,40,58,,83,76,10,12,8,14,0.7,0.8
2026-02-21T2200,4133A,106.6273,23.8798,百色市,龙景西路,细颗粒物(PM2.5),63,47,54,45,41,59,,88,81,9,12,9,14,0.5,0.5
2026-02-21T2200,2270A,117.396,32.9389,蚌埠市,工人疗养院,细颗粒物(PM2.5),67,80,48,48,29,68,,100,94,23,13,7,5,0.9,0.7
2026-02-21T2200,2271A,117.3606,32.9428,蚌埠市,百货大楼,细颗粒物(PM2.5),65,64,46,47,27,68,,99,94,17,10,9,7,0.8,0.6
2026-02-21T2200,2273A,117.4183,32.8909,蚌埠市,蚌埠学院,细颗粒物(PM2.5),64,61,40,46,28,70,,103,96,14,8,6,5,0.6,0.6
2026-02-21T2200,2274A,117.3534,32.9672,蚌埠市,淮上区政府,"颗粒物(PM10),细颗粒物(PM2.5)",64,78,45,46,27,67,,104,98,23,10,8,6,0.8,0.6
2026-02-21T2200,2275A,117.3143,32.8977,蚌埠市,高新区,细颗粒物(PM2.5),64,63,45,46,32,58,,85,81,11,10,8,7,0.7,0.6
2026-02-21T2200,3715A,117.3091,32.9314,蚌埠市,蚌埠田家炳中学,细颗粒物(PM2.5),65,64,48,47,33,54,,99,91,24,10,10,7,0.7,0.6
2026-02-21T2200,1585A,109.8761,40.6533,包头市,市环境监测站,,32,32,614,9,160,75,,94,84,7,19,4,7,0.4,1.1
2026-02-21T2200,1587A,109.9992,40.5843,包头市,包头八中,,39,39,840,17,174,74,,88,82,4,14,5,8,0.5,0.7
2026-02-21T2200,1589A,109.8641,40.6288,包头市,惠龙物流,,36,36,627,13,124,76,,94,86,6,16,7,11,0.5,1.1
2026-02-21T2200,1590A,110.0376,40.5546,包头市,东河鸿龙湾,,49,49,584,13,110,67,,89,80,9,17,7,8,0.4,0.6
2026-02-21T2200,3283A,109.9154,40.5684,包头市,滨河大厦,,33,33,827,13,142,71,,88,80,6,10,5,7,0.7,0.6
2026-02-21T2200,3419A,109.9449,40.6259,包头市,包头市委党校,,47,47,764,3,151,72,,87,80,4,11,6,10,0.6,0.8
2026-02-21T2200,3683A,109.8332,40.6577,包头市,昆区政府,,,31,430,12,133,72,,91,82,9,29,6,11,,1.1
2026-02-21T2200,1931A,107.0802,34.3129,宝鸡市,竹园沟,颗粒物(PM10),171,292,188,55,37,56,,86,76,18,14,6,7,0.2,0.3
2026-02-21T2200,1933A,107.1429,34.3549,宝鸡市,监测站,颗粒物(PM10),192,333,197,69,40,33,,73,64,21,13,6,5,0.5,0.4
2026-02-21T2200,1934A,107.1172,34.3759,宝鸡市,技工学校,颗粒物(PM10),260,392,209,125,68,42,,81,71,21,20,8,6,0.4,0.6
2026-02-21T2200,1936A,107.2025,34.3518,宝鸡市,文理学院,颗粒物(PM10),270,399,187,137,63,41,,74,64,21,16,9,6,0.5,0.4
2026-02-21T2200,1937A,107.2396,34.3626,宝鸡市,三迪小学,颗粒物(PM10),286,410,199,122,67,32,,82,67,34,22,10,5,0.6,0.5
2026-02-21T2200,4155A,107.1721,34.3558,宝鸡市,滨河北路,颗粒物(PM10),314,431,188,131,62,38,,78,68,23,14,9,6,0.5,0.4
2026-02-21T2200,4308A,107.3898,34.3601,宝鸡市,陈仓区北开路21号,颗粒物(PM10),372,477,215,150,69,28,,83,73,33,10,10,38,0.6,0.5
2026-02-21T2200,1051A,115.4803,38.8568,保定市,游泳馆,颗粒物(PM10),500,695,273,140,90,88,,102,95,8,22,6,13,0.3,0.6
2026-02-21T2200,1052A,115.509,38.8895,保定市,华电二区,颗粒物(PM10),500,626,257,123,85,87,,103,97,9,16,1,6,0.7,0.9
2026-02-21T2200,1053A,115.4588,38.9037,保定市,接待中心,颗粒物(PM10),466,566,253,119,92,85,,98,92,2,13,3,6,0.1,0.5
2026-02-21T2200,1054A,115.4484,38.8344,保定市,地表水厂,颗粒物(PM10),500,766,315,96,79,88,,105,97,10,23,2,7,0.2,0.6
2026-02-21T2200,3581A,115.3136,38.9511,保定市,满城区生态环境分局,细颗粒物(PM2.5),125,,306,95,77,90,,103,98,3,23,3,6,0.4,0.9
2026-02-21T2200,3582A,115.4709,38.7628,保定市,清苑区第二中学,颗粒物(PM10),500,1123,352,119,87,87,,106,95,4,17,5,13,0.2,0.6
2026-02-21T2200,3583A,115.6231,39.0223,保定市,徐水物探局,,,,470,,91,,,102,97,,18,,16,,0.6
2026-02-21T2200,4004A,115.4199,38.8665,保定市,双鹰农机,颗粒物(PM10),500,798,340,114,91,95,,109,103,2,16,1,7,0.3,0.6
2026-02-21T2200,4034A,115.515,38.8589,保定市,植保所站,颗粒物(PM10),500,651,263,135,90,89,,102,95,4,19,3,3,0.5,0.7
2026-02-21T2200,2594A,99.1589,25.1137,保山市,市环境监测站,,31,30,25,20,15,97,,100,99,6,7,5,4,0.3,0.3
2026-02-21T2200,2595A,99.1616,25.1381,保山市,市环保局,,,,29,,15,,,100,99,3,4,4,4,0.5,0.6
2026-02-21T2200,1867A,109.1435,21.4085,北海市,海滩公园,,40,40,45,18,22,75,,105,93,20,15,3,3,0.6,0.9
2026-02-21T2200,1868A,109.0983,21.466,北海市,新市环保局,,40,36,34,28,22,77,,96,94,12,13,4,4,0.6,0.6
2026-02-21T2200,1869A,109.1775,21.5232,北海市,北海工业园,,38,38,53,24,37,68,,89,84,9,11,6,6,0.6,0.8
2026-02-21T2200,3400A,109.1844,21.4396,北海市,龙潭自来水厂,,36,36,46,15,38,80,,96,90,4,10,3,3,0.8,1
2026-02-21T2200,1001A,116.3611,39.8786,北京市,万寿西宫,颗粒物(PM10),102,154,200,24,80,81,,107,102,4,32,1,6,0.3,0.8
2026-02-21T2200,1003A,116.4174,39.9289,北京市,东四,,,,104,,67,,,94,,,41,,9,,1.1
2026-02-21T2200,1004A,116.4073,39.8858,北京市,天坛,颗粒物(PM10),118,186,195,16,72,75,,98,92,3,31,1,4,0.4,0.9
2026-02-21T2200,1005A,116.4622,39.9364,北京市,农展馆,颗粒物(PM10),105,160,194,13,72,79,,103,96,1,29,4,8,0.4,0.9
2026-02-21T2200,1006A,116.3399,39.9293,北京市,官园,颗粒物(PM10),136,222,208,18,74,73,,93,89,3,29,2,6,0.2,0.7
2026-02-21T2200,1007A,116.2879,39.9613,北京市,海淀万柳,颗粒物(PM10),119,188,181,14,65,64,,82,78,9,37,1,5,0.3,0.7
2026-02-21T2200,1008A,116.6635,40.1349,北京市,顺义新城,颗粒物(PM10),93,135,252,9,76,80,,97,89,2,15,5,9,0.4,0.8
2026-02-21T2200,1009A,116.6275,40.327,北京市,怀柔镇,颗粒物(PM10),81,111,256,11,73,73,,90,80,2,15,4,6,0.5,0.7
2026-02-21T2200,1010A,116.2295,40.217,北京市,昌平镇,颗粒物(PM10),88,126,261,38,79,75,,93,84,3,22,2,4,0.4,0.7
2026-02-21T2200,1011A,116.3968,39.982,北京市,奥体中心,颗粒物(PM10),115,180,186,14,70,69,,89,83,5,33,4,7,0.3,0.7
2026-02-21T2200,3418A,116.8336,40.4095,北京市,密云新城,颗粒物(PM10),109,167,256,13,78,75,,98,86,5,16,3,6,0.2,0.5
2026-02-21T2200,3671A,116.0879,39.9725,北京市,门头沟三家店,颗粒物(PM10),128,206,249,17,69,75,,101,93,2,14,2,5,0.3,0.5
2026-02-21T2200,3672A,116.1507,39.8246,北京市,丰台云岗,颗粒物(PM10),96,142,201,11,74,84,,115,104,4,20,2,6,0.3,0.6
2026-02-21T2200,3674A,115.9578,39.7602,北京市,房山燕山,颗粒物(PM10),98,146,215,15,68,76,,105,91,5,15,4,7,0.3,0.7
2026-02-21T2200,3675A,116.4669,39.7734,北京市,大兴旧宫,颗粒物(PM10),141,232,230,14,80,78,,106,98,5,32,3,8,0.3,0.8
2026-02-21T2200,3694A,115.9859,40.4562,北京市,延庆石河营,颗粒物(PM10),69,88,257,10,86,78,,87,83,1,12,1,2,0.3,0.6
2026-02-21T2200,3695A,116.6151,40.3052,北京市,怀柔新城,颗粒物(PM10),86,121,251,21,71,78,,96,87,3,14,2,5,0.1,0.5
2026-02-21T2200,3696A,116.2542,39.8764,北京市,丰台小屯,颗粒物(PM10),121,191,216,14,71,65,,94,86,3,35,3,6,0.3,0.7
2026-02-21T2200,3697A,116.8399,40.3843,北京市,密云镇,颗粒物(PM10),89,127,235,14,84,75,,97,86,6,18,1,4,0.3,0.6
2026-02-21T2200,4057A,115.9423,40.4431,北京市,延庆百泉,颗粒物(PM10),68,85,251,9,78,76,,83,80,1,12,3,3,0.2,0.5
2026-02-21T2200,4058A,116.6598,39.9164,北京市,通州新华,颗粒物(PM10),120,190,219,18,91,71,,92,86,9,43,1,7,0.4,1
2026-02-21T2200,4182A,116.1942,39.9158,北京市,石景山八角,颗粒物(PM10),131,212,228,16,73,62,,91,82,10,27,2,5,0.2,0.5
2026-02-21T2200,4194A,117.078628,40.151726,北京市,平谷新城,颗粒物(PM10),107,164,230,11,82,76,,98,88,2,13,3,7,0.4,0.9
2026-02-21T2200,1761A,123.8274146,41.31234549,本溪市,大峪,颗粒物(PM10),79,107,94,39,50,95,,96,96,13,12,12,11,0.9,0.9
2026-02-21T2200,1763A,123.7169,41.3094,本溪市,彩屯,颗粒物(PM10),62,74,88,43,60,79,,82,82,27,27,14,22,2.2,2.5
2026-02-21T2200,1764A,123.7672166,41.28649327,本溪市,东明,颗粒物(PM10),59,67,75,39,50,94,,94,94,9,9,10,11,0.5,0.6
2026-02-21T2200,1765A,123.799345,41.266614,本溪市,新立屯,颗粒物(PM10),57,64,69,39,47,99,,97,94,8,8,8,8,0.6,0.7
2026-02-21T2200,1766A,123.829144,41.336777,本溪市,威宁,颗粒物(PM10),66,82,97,34,48,96,,96,96,8,10,10,11,0.7,0.8
2026-02-21T2200,2587A,105.287,27.3133,毕节市,八中,细颗粒物(PM2.5),79,78,54,58,43,49,,85,77,16,10,12,11,1.0,0.9
2026-02-21T2200,2588A,105.3079,27.2987,毕节市,师专,细颗粒物(PM2.5),77,84,65,56,47,36,,95,88,31,14,13,11,1.2,0.8
2026-02-21T2200,4263A,105.3688,27.3598,毕节市,工业大道,细颗粒物(PM2.5),138,112,67,105,50,35,,89,79,31,14,16,13,/,/
2026-02-21T2200,1629A,117.9961,37.3604,滨州市,第二水厂,颗粒物(PM10),415,515,150,48,46,69,,98,87,13,14,17,15,0.8,0.9
2026-02-21T2200,1630A,117.9789,37.3931,滨州市,北中新校,颗粒物(PM10),230,371,130,46,43,67,,89,82,12,17,9,14,0.3,0.6
2026-02-21T2200,3514A,117.9379,37.3959,滨州市,中海酒店,颗粒物(PM10),330,444,145,49,45,75,,104,94,13,17,14,18,0.5,0.8
2026-02-21T2200,3515A,117.9381509,37.35547456,滨州市,开发区一中,颗粒物(PM10),434,534,163,48,47,68,,94,85,13,12,26,25,0.8,0.9
2026-02-21T2200,3516A,118.0914,37.6938,滨州市,金海六路,颗粒物(PM10),500,774,175,60,57,79,,94,87,14,18,5,14,0.5,0.9
2026-02-21T2200,4028A,117.9955,37.3752,滨州市,滨州市西街道办事处,颗粒物(PM10),337,449,142,70,49,70,,103,91,9,10,14,14,0.4,0.5
2026-02-21T2200,2311A,115.8071,33.8399,亳州市,污水处理厂,"颗粒物(PM10),细颗粒物(PM2.5)",69,88,49,50,31,75,,100,95,14,9,14,7,0.6,0.5
2026-02-21T2200,2312A,115.7789,33.8519,亳州市,三国揽胜宫,细颗粒物(PM2.5),84,80,58,62,34,70,,94,90,12,7,14,6,0.6,0.5
2026-02-21T2200,3332A,115.7631,33.803,亳州市,亳州学院,细颗粒物(PM2.5),104,136,54,78,34,66,,97,92,17,9,21,6,0.3,0.3
2026-02-21T2200,2693A,82.0482,44.8553,博尔塔拉蒙古自治州,市党校,颗粒物(PM10),67,84,72,24,14,71,,85,81,15,13,2,2,0.2,0.2
2026-02-21T2200,2694A,82.0805,44.8966,博尔塔拉蒙古自治州,市环保局,颗粒物(PM10),59,67,62,19,14,65,,77,73,10,14,2,3,0.4,0.4
2026-02-21T2200,1071A,116.8733,38.2922,沧州市,沧县城建局,颗粒物(PM10),500,603,226,88,58,84,,89,89,7,12,3,8,0.2,0.5
2026-02-21T2200,1072A,116.8462,38.3189,沧州市,电视转播站,颗粒物(PM10),449,549,205,106,67,82,,90,90,8,13,1,5,0.4,0.4
2026-02-21T2200,1073A,116.8588,38.3161,沧州市,市环保局,颗粒物(PM10),500,655,238,82,57,75,,82,82,6,12,1,6,0.3,0.5
2026-02-21T2200,3324A,116.8011,38.294,沧州市,河北水利电力学院,颗粒物(PM10),500,796,280,107,67,77,,84,84,6,11,7,12,0.1,0.4
2026-02-21T2200,2622A,97.1813,31.1289,昌都市,昌都监测站,,35,35,13,18,6,71,,99,95,10,3,4,3,0.6,0.4
2026-02-21T2200,3719A,97.1707,31.1428,昌都市,昌都会议中心,,26,11,9,11,9,82,,98,96,1,2,5,5,0.4,0.4
2026-02-21T2200,2692A,87.2722,44.0298,昌吉回族自治州,新区政务中心,,26,16,55,3,32,82,,85,85,13,18,5,5,0.3,0.6
2026-02-21T2200,3613A,87.3069,44.0093,昌吉回族自治州,亚心广场,,31,31,62,12,39,86,,87,87,12,16,8,9,0.2,0.4
2026-02-21T2200,4164A,87.2057,43.9289,昌吉回族自治州,财政所,,,,58,15,27,73,,80,80,12,10,6,6,0.3,0.6
2026-02-21T2200,1120A,125.2874,43.9024,长春市,客车厂,细颗粒物(PM2.5),78,83,78,57,57,76,,104,94,15,12,16,13,0.6,0.6
2026-02-21T2200,1121A,125.2943,43.8508,长春市,邮电学院,细颗粒物(PM2.5),80,94,84,59,57,70,,93,87,24,20,15,14,0.8,0.8
2026-02-21T2200,1122A,125.3648,43.8745,长春市,劳动公园,细颗粒物(PM2.5),77,89,89,56,56,80,,103,92,12,15,11,13,0.6,0.8
2026-02-21T2200,1123A,125.3233,43.8781,长春市,园林处,细颗粒物(PM2.5),83,85,77,61,58,80,,104,94,6,6,11,10,0.3,0.3
2026-02-21T2200,1124A,125.4604,43.7904,长春市,净月潭,细颗粒物(PM2.5),68,67,71,49,52,83,,103,94,8,9,9,9,0.6,0.6
2026-02-21T2200,1126A,125.38,43.8422,长春市,经开区环卫处,细颗粒物(PM2.5),74,81,81,54,55,80,,104,94,8,9,9,8,0.6,0.6
2026-02-21T2200,1127A,125.234,43.7761,长春市,高新区管委会,细颗粒物(PM2.5),82,96,83,60,57,73,,103,89,10,9,12,11,0.8,0.6
2026-02-21T2200,1128A,125.1695,43.83,长春市,岱山公园,细颗粒物(PM2.5),73,69,82,53,57,82,,105,94,11,12,8,8,0.6,0.7
2026-02-21T2200,4281A,125.334645,43.916281,长春市,北亚泰大街1068号,细颗粒物(PM2.5),88,88,84,65,60,75,,96,88,13,15,12,11,0.7,0.7
2026-02-21T2200,1335A,113.082,28.2421,长沙市,经开区环保局,,50,46,36,35,26,38,,55,52,12,8,5,3,1.1,0.7
2026-02-21T2200,1336A,112.8873,28.2202,长沙市,高开区环保局,,49,45,35,34,31,41,,60,57,11,9,7,7,1.3,1.1
2026-02-21T2200,1337A,113.0785,28.2012,长沙市,马坡岭,细颗粒物(PM2.5),57,60,37,40,29,36,,56,54,14,8,7,5,1.3,0.9
2026-02-21T2200,1338A,112.9448,28.1894,长沙市,湖南师范大学,,38,38,38,26,24,40,,61,57,10,9,6,5,1.0,0.9
2026-02-21T2200,1339A,113.0177,28.1322,长沙市,雨花区环保局,,48,38,34,33,23,57,,71,68,13,12,8,8,1.1,1.1
2026-02-21T2200,1340A,112.9795,28.2593,长沙市,伍家岭,,49,49,40,22,20,24,,54,50,20,12,6,6,1.1,0.9
2026-02-21T2200,1341A,113.002,28.1944,长沙市,火车新站,细颗粒物(PM2.5),57,54,39,40,27,20,,58,47,34,17,3,3,1.2,0.9
2026-02-21T2200,1342A,112.9846,28.1177,长沙市,天心区环保局,,43,43,36,30,24,44,,61,57,14,12,7,6,1.1,1
2026-02-21T2200,1343A,112.8906,28.1307,长沙市,湖南中医药大学,,46,41,37,32,26,32,,61,55,15,10,7,7,1.1,1
2026-02-21T2200,1727A,113.1146,36.1547,长治市,清华站,细颗粒物(PM2.5),198,282,131,148,52,72,,93,88,16,9,31,15,0.4,0.4
2026-02-21T2200,1730A,113.0887,36.2126,长治市,审计局,颗粒物(PM10),141,231,117,66,37,77,,94,91,19,15,11,10,0.4,0.5
2026-02-21T2200,1731A,113.0845,36.1856,长治市,长治八中,颗粒物(PM10),160,269,131,72,40,77,,94,90,10,8,13,12,0.4,0.5
2026-02-21T2200,2845A,113.1561,36.1912,长治市,德盛苑,颗粒物(PM10),154,258,136,84,43,86,,98,95,13,10,10,9,0.4,0.4
2026-02-21T2200,3568A,113.0603,36.0464,长治市,向阳小学,颗粒物(PM10),146,242,149,70,44,74,,103,94,14,13,18,18,0.3,0.3
2026-02-21T2200,3569A,112.8788,36.315,长治市,屯留一中,颗粒物(PM10),143,236,132,60,43,88,,97,92,6,14,7,12,0.4,0.7
2026-02-21T2200,4189A,113.113092,36.199482,长治市,英华南巷50号,颗粒物(PM10),162,274,145,103,52,76,,93,89,14,11,10,11,0.3,0.4
2026-02-21T2200,4190A,113.23666,36.33435,长治市,学府街1号,颗粒物(PM10),162,273,136,67,44,78,,88,85,12,20,10,13,0.5,1
2026-02-21T2200,1854A,111.696,28.9725,常德市,市二中,,49,37,35,34,26,56,,77,72,9,5,6,6,1.1,1
2026-02-21T2200,3138A,111.7152,29.0288,常德市,武陵区永安,细颗粒物(PM2.5),59,45,41,42,28,48,,76,70,14,8,7,6,1.0,0.9
2026-02-21T2200,3139A,111.6891,28.9881,常德市,鼎城区玉霞,细颗粒物(PM2.5),55,45,38,39,29,43,,76,69,18,9,6,6,0.9,0.8
2026-02-21T2200,3140A,111.6651,29.0526,常德市,武陵区长庚,细颗粒物(PM2.5),59,47,38,42,32,55,,73,68,10,7,6,6,0.9,0.8
2026-02-21T2200,1196A,119.9524,31.7586,常州市,市监测站,细颗粒物(PM2.5),57,62,44,40,26,84,,101,96,19,12,13,11,1.0,0.5
2026-02-21T2200,1200A,119.9351,31.703,常州市,武进监测站,,,41,35,26,20,,,97,97,7,6,9,8,0.6,0.6
2026-02-21T2200,3002A,119.9701,31.813,常州市,行政中心,颗粒物(PM10),53,55,46,30,24,80,,92,89,16,11,6,6,0.6,0.5
2026-02-21T2200,3003A,120.0434,31.7726,常州市,经开区,,47,47,44,23,23,79,,98,94,14,7,13,14,1.4,1.1
2026-02-21T2200,3010A,119.8919,31.7892,常州市,钟楼,细颗粒物(PM2.5),53,47,39,37,24,84,,101,95,19,12,8,7,0.7,0.6
2026-02-21T2200,3429A,119.8595,31.706,常州市,武进经发区,细颗粒物(PM2.5),52,52,48,36,34,82,,102,98,13,10,7,7,0.7,0.7
2026-02-21T2200,3430A,119.5812,31.7256,常州市,金坛城区,细颗粒物(PM2.5),63,66,61,45,47,85,,99,96,10,10,10,10,0.7,0.8
2026-02-21T2200,4089A,119.9551,31.863,常州市,崇义南街5-H号,,42,42,35,26,21,81,,97,92,17,13,6,5,0.6,0.6
2026-02-21T2200,2220A,120.4318,41.588,朝阳市,西梁,颗粒物(PM10),500,736,209,70,101,87,,108,96,8,29,6,20,0.5,1.2
2026-02-21T2200,2221A,120.452,41.565,朝阳市,河畔小区,颗粒物(PM10),500,606,161,42,82,90,,113,99,5,19,7,18,0.4,1.1
2026-02-21T2200,2222A,120.4176,41.5648,朝阳市,八里堡,颗粒物(PM10),500,685,197,58,97,82,,106,90,3,21,7,19,0.5,1.3
2026-02-21T2200,3026A,116.6179,23.6608,潮州市,市政府,细颗粒物(PM2.5),58,50,54,41,41,88,,107,99,7,5,4,4,0.6,0.5
2026-02-21T2200,4036A,116.646,23.676,潮州市,金山,细颗粒物(PM2.5),82,60,55,60,43,67,,112,100,17,8,4,3,0.8,0.6
2026-02-21T2200,2473A,113.0116,25.8228,郴州市,市职中,细颗粒物(PM2.5),73,75,39,53,31,0,,27,19,26,17,7,6,1.0,0.8
2026-02-21T2200,2475A,113.0381,25.8074,郴州市,市审计局,细颗粒物(PM2.5),112,119,53,84,41,0,,18,7,28,21,6,5,/,/
2026-02-21T2200,2476A,113.0348,25.7757,郴州市,市环保局,细颗粒物(PM2.5),59,63,44,42,32,0,,36,26,35,19,4,4,0.8,0.6
2026-02-21T2200,4252A,113.0138,25.8011,郴州市,好美居路49号,细颗粒物(PM2.5),67,55,39,48,26,14,,41,33,27,18,4,4,/,/
2026-02-21T2200,1431A,103.9727,30.7242,成都市,金泉两河,,,83,71,,,2,,128,99,89,38,3,4,2.3,1.2
2026-02-21T2200,1432A,104.1423,30.6765,成都市,十里店,细颗粒物(PM2.5),80,94,79,59,59,68,,136,128,42,20,7,7,0.8,0.7
2026-02-21T2200,1433A,104.0594,30.5765,成都市,三瓦窑,细颗粒物(PM2.5),72,77,64,52,61,38,,130,113,50,32,3,4,1.0,0.8
2026-02-21T2200,1434A,104.1122,30.6306,成都市,沙河铺,细颗粒物(PM2.5),83,80,71,61,62,17,,117,95,77,39,4,5,1.0,0.8
2026-02-21T2200,2880A,104.0219,30.6561,成都市,大石西路,细颗粒物(PM2.5),88,99,84,65,66,22,,123,102,68,35,4,5,1.0,0.8
2026-02-21T2200,3136A,104.2724,30.559,成都市,龙泉驿区区政府,细颗粒物(PM2.5),74,58,56,54,52,90,,129,122,12,11,7,7,0.6,0.6
2026-02-21T2200,3357A,104.0028,30.6891,成都市,金博路,细颗粒物(PM2.5),87,98,70,64,54,1,,126,101,95,40,6,6,1.4,0.9
2026-02-21T2200,3359A,104.056,30.5228,成都市,华阳,细颗粒物(PM2.5),89,83,74,66,64,27,,127,106,64,38,3,3,1.0,0.8
2026-02-21T2200,3488A,104.387954,30.746684,成都市,青石路225号,细颗粒物(PM2.5),83,84,66,61,55,54,,129,114,54,27,3,4,0.8,0.6
2026-02-21T2200,3489A,104.0788,30.4054,成都市,科学城,细颗粒物(PM2.5),77,69,61,56,50,61,,106,102,17,13,7,7,0.7,0.7
2026-02-21T2200,4011A,103.8505,30.6946,成都市,光华大道三段,细颗粒物(PM2.5),82,110,87,60,58,12,,129,98,64,28,4,5,1.0,0.6
2026-02-21T2200,4144A,104.3257,30.6406,成都市,八角井街185号,细颗粒物(PM2.5),68,82,70,49,49,84,,127,121,24,22,5,5,0.7,0.7
2026-02-21T2200,4224A,104.2433276,30.53529463,成都市,鲸龙路1057号,细颗粒物(PM2.5),90,92,71,67,57,70,,130,117,34,21,8,7,0.9,0.8
2026-02-21T2200,1062A,117.9531,40.908,承德市,铁路,颗粒物(PM10),161,272,345,23,79,80,,88,87,1,20,2,7,0.2,0.6
2026-02-21T2200,1063A,117.9397,40.9763,承德市,中国银行,颗粒物(PM10),178,305,396,19,75,77,,83,82,2,13,1,4,0.2,0.6
2026-02-21T2200,4073A,117.9462,40.95,承德市,杏林街1号,颗粒物(PM10),242,379,336,34,76,84,,93,92,1,12,3,6,0.2,0.6
2026-02-21T2200,4274A,117.7994,40.9605,承德市,滨河大街98号,颗粒物(PM10),165,280,384,22,70,82,,94,92,1,14,3,9,0.2,1
2026-02-21T2200,2314A,117.4698,30.6617,池州市,池州学院,,49,45,39,34,29,64,,82,77,23,16,9,11,1.2,1.3
2026-02-21T2200,3237A,117.4918,30.6617,池州市,展览馆,,50,49,40,35,28,62,,83,77,18,13,11,9,1.2,1
2026-02-21T2200,3333A,117.5626,30.695,池州市,第八中学,,46,46,35,28,25,59,,86,80,18,14,18,9,1.3,0.9
2026-02-21T2200,3334A,117.5037,30.6242,池州市,第十二中学,,43,41,38,30,26,50,,83,74,14,12,5,7,0.8,0.8
2026-02-21T2200,1744A,118.9229,42.2816,赤峰市,松山一中,颗粒物(PM10),383,486,411,25,86,57,,63,62,9,37,4,14,0.4,1.1
2026-02-21T2200,1745A,118.9588,42.2733,赤峰市,哈达街,颗粒物(PM10),362,469,396,23,82,60,,72,68,5,29,8,27,0.6,1
2026-02-21T2200,1746A,118.8792,42.2551,赤峰市,天义路,颗粒物(PM10),328,442,355,21,75,65,,83,76,2,19,5,11,0.4,0.7
2026-02-21T2200,3058A,119.2656,42.0356,赤峰市,银河街,颗粒物(PM10),500,723,410,34,90,82,,107,92,2,6,5,12,0.3,0.7
2026-02-21T2200,3286A,118.9359,42.3146,赤峰市,桥北物流园区,颗粒物(PM10),191,332,298,25,83,72,,88,83,2,12,5,23,0.4,0.8
2026-02-21T2200,2521A,107.3473,22.4137,崇左市,市环保局江州分局,细颗粒物(PM2.5),118,108,86,89,69,49,,67,64,25,23,8,5,1.2,1.1
2026-02-21T2200,4256A,107.375,22.3736,崇左市,石景林东路7号,细颗粒物(PM2.5),120,,75,91,70,45,,66,60,24,20,5,3,1.3,1.2
2026-02-21T2200,3207A,118.31131,32.3033,滁州市,市政府原办公楼,,40,34,39,28,29,82,,90,88,6,7,6,6,0.4,0.4
2026-02-21T2200,3331A,118.3268,32.2633,滁州市,图书馆,,32,32,32,21,21,81,,97,92,8,7,10,9,0.5,0.6
2026-02-21T2200,4101A,118.3196,32.3335,滁州市,银山路666号,细颗粒物(PM2.5),54,,35,38,38,93,,101,100,4,5,10,8,0.5,0.6
2026-02-21T2200,4102A,118.3426,32.2979,滁州市,黄山路555号,,49,48,49,34,36,84,,100,96,3,3,8,8,0.5,0.5
2026-02-21T2200,2606A,101.5379,25.0492,楚雄彝族自治州,市经济开发区,,39,38,29,27,16,80,,99,95,11,8,3,3,0.5,0.5
2026-02-21T2200,4153A,101.5536,25.0343,楚雄彝族自治州,团结路562号,,29,23,24,13,14,90,,98,98,5,6,3,3,0.4,0.4
2026-02-21T2200,2549A,107.5087,31.2186,达州市,市环境监测站,细颗粒物(PM2.5),89,96,70,66,48,14,,88,64,59,29,7,7,0.7,0.4
2026-02-21T2200,2550A,107.4988,31.2132,达州市,凤凰小区,,,92,71,65,51,10,,80,54,66,33,,9,0.8,0.5
2026-02-21T2200,2551A,107.5081,31.1987,达州市,达县机关宾馆,细颗粒物(PM2.5),84,88,68,62,49,2,,76,39,66,39,5,6,1.1,1
2026-02-21T2200,2552A,107.4644,31.2124,达州市,市政中心,细颗粒物(PM2.5),97,113,75,72,50,5,,87,56,85,42,8,7,1.4,0.8
2026-02-21T2200,2614A,100.2168,25.5818,大理白族自治州,大理市环境监测站,,33,30,20,23,14,86,,95,94,8,6,6,7,0.7,0.6
2026-02-21T2200,2615A,100.1542,25.7055,大理白族自治州,大理古城,,33,33,28,20,18,94,,103,102,7,6,8,8,0.6,0.6
2026-02-21T2200,1109A,121.6119,38.974,大连市,甘井子,细颗粒物(PM2.5),89,91,73,66,59,72,,80,66,38,27,21,10,0.7,0.5
2026-02-21T2200,1110A,121.565,38.9509,大连市,周水子,细颗粒物(PM2.5),84,84,81,62,60,69,,72,56,32,26,12,9,0.7,0.7
2026-02-21T2200,1111A,121.5637,38.8849,大连市,星海三站,细颗粒物(PM2.5),84,74,73,62,59,68,,73,63,22,18,7,6,0.8,0.8
2026-02-21T2200,1112A,121.6301,38.9117,大连市,青泥洼桥,细颗粒物(PM2.5),74,79,79,54,59,80,,74,74,24,25,11,11,1.0,1.1
2026-02-21T2200,1113A,121.6248,38.8643,大连市,傅家庄,细颗粒物(PM2.5),69,79,81,50,56,76,,82,69,22,20,10,9,0.6,0.6
2026-02-21T2200,1114A,121.5117,38.8636,大连市,七贤岭,细颗粒物(PM2.5),69,75,77,50,57,86,,77,73,19,22,14,11,0.8,0.7
2026-02-21T2200,1116A,121.7507,39.1339,大连市,金州,细颗粒物(PM2.5),80,68,65,59,54,75,,88,84,22,14,16,12,0.6,0.8
2026-02-21T2200,1117A,121.7811,39.0495,大连市,开发区,细颗粒物(PM2.5),82,78,73,60,59,59,,74,66,28,21,6,3,0.7,0.8
2026-02-21T2200,1118A,121.9762,39.0631,大连市,双D港,细颗粒物(PM2.5),74,75,65,54,49,58,,85,69,23,17,8,8,0.9,1
2026-02-21T2200,4082A,121.2548,38.8188,大连市,旅顺,细颗粒物(PM2.5),68,81,78,49,59,76,,72,64,18,18,14,12,0.6,0.6
2026-02-21T2200,1789A,124.8085,46.0381,大庆市,大同区,细颗粒物(PM2.5),163,204,164,124,86,62,,96,86,28,17,17,17,1.1,0.9
2026-02-21T2200,1790A,125.1166,46.5255,大庆市,龙凤区,细颗粒物(PM2.5),163,139,160,124,106,31,,81,59,34,30,3,3,0.7,0.7
2026-02-21T2200,1791A,124.8894,46.4007,大庆市,红岗区,,,106,124,,76,51,,74,62,24,20,10,12,0.8,0.8
2026-02-21T2200,1792A,125.1391,46.578,大庆市,萨尔图区,细颗粒物(PM2.5),125,162,169,95,94,36,,80,66,25,24,12,12,0.9,0.9
2026-02-21T2200,1793A,124.9026,46.6217,大庆市,让胡路区,细颗粒物(PM2.5),183,152,130,138,99,62,,47,,50,36,25,26,1.1,1.3
2026-02-21T2200,3481A,125.127,46.6277,大庆市,萨区政府监测点,细颗粒物(PM2.5),156,182,166,119,91,45,,86,73,13,12,15,14,0.8,0.8
2026-02-21T2200,1723A,113.2926,40.0759,大同市,云冈宾馆,,48,48,589,10,119,64,,83,75,5,12,5,8,0.6,0.7
2026-02-21T2200,1724A,113.3437,40.0921,大同市,大同大学,,46,46,629,15,104,67,,91,81,6,7,4,8,0.5,0.3
2026-02-21T2200,1725A,113.2637,40.129,大同市,安家小村,,40,40,742,7,130,66,,71,55,6,11,10,9,0.4,0.3
2026-02-21T2200,3282A,113.3399,40.0586,大同市,大同市卫生学校,颗粒物(PM10),53,55,612,23,109,72,,98,87,8,11,4,7,0.4,0.3
2026-02-21T2200,3565A,113.1371,40.1122,大同市,云冈站,,32,32,625,14,107,66,,89,79,5,7,4,8,0.3,0.3
2026-02-21T2200,3566A,113.1186,40.2556,大同市,图书馆,颗粒物(PM10),121,191,734,11,135,70,,88,78,3,4,2,3,0.5,0.6
2026-02-21T2200,3567A,113.5931,40.0459,大同市,区一中,,34,34,652,3,115,76,,98,89,2,8,5,15,0.3,0.5
2026-02-21T2200,4199A,113.2798248,40.09972476,大同市,魏都大道141号,,47,47,705,14,115,69,,90,81,6,12,7,9,0.4,0.4
2026-02-21T2200,2269A,124.1068,50.4091,大兴安岭地区,科技局,,30,30,41,11,27,69,,66,66,3,6,4,6,0.4,0.5
2026-02-21T2200,3663A,124.117,50.4279,大兴安岭地区,红旗社区,,42,,40,29,38,77,,75,75,2,18,5,17,0.2,0.4
2026-02-21T2200,1600A,124.33,40.0625,丹东市,江湾东路,,48,48,68,21,46,109,,104,104,7,9,6,8,0.6,0.8
2026-02-21T2200,1601A,124.4242,40.1513,丹东市,临江后街,,50,50,72,22,48,104,,98,98,5,8,9,11,0.4,0.6
2026-02-21T2200,1602A,124.3935,40.1461,丹东市,元宝山,,47,47,68,22,45,106,,100,100,6,8,11,13,0.6,0.8
2026-02-21T2200,1603A,124.3634,40.1093,丹东市,民主桥,颗粒物(PM10),52,54,76,25,50,106,,100,100,3,5,9,13,0.5,0.8
2026-02-21T2200,3541A,109.5726195,19.51688767,儋州市,第一中学子站,,43,43,40,28,29,77,,76,76,4,3,5,5,0.6,0.6
2026-02-21T2200,3542A,109.5567,19.5187,儋州市,东坡学校子站,,38,36,40,26,28,90,,88,88,5,5,3,5,0.5,0.5
2026-02-21T2200,2616A,98.5611,24.4273,德宏傣族景颇族自治州,德宏州监测站,细颗粒物(PM2.5),69,,27,50,28,49,,94,87,23,21,7,7,0.7,0.6
2026-02-21T2200,3677A,98.5887,24.4366,德宏傣族景颇族自治州,芒市人民政府综合楼,颗粒物(PM10),55,60,49,28,25,61,,93,85,11,13,5,5,0.5,0.5
2026-02-21T2200,1901A,104.424,31.1209,德阳市,东山公园,细颗粒物(PM2.5),87,,64,64,60,118,,121,121,8,10,6,4,0.6,0.6
2026-02-21T2200,1902A,104.3827,31.1318,德阳市,西小区,细颗粒物(PM2.5),99,89,82,74,66,54,,121,106,56,25,6,5,1.1,0.8
2026-02-21T2200,1904A,104.3553,31.1091,德阳市,耐火材料厂,细颗粒物(PM2.5),103,85,71,77,66,59,,120,108,44,21,4,4,1.0,0.8
2026-02-21T2200,4145A,104.4144,31.1495,德阳市,市林业局,细颗粒物(PM2.5),85,82,73,63,60,79,,125,111,24,16,8,7,0.8,0.8
2026-02-21T2200,1622A,116.3034,37.4675,德州市,儿童乐园,颗粒物(PM10),454,554,224,48,52,76,,84,82,14,14,10,15,0.3,0.6
2026-02-21T2200,1624A,116.2992,37.4449,德州市,监理站,颗粒物(PM10),498,598,245,60,57,67,,103,83,17,17,12,17,1.2,0.8
2026-02-21T2200,3066A,116.2722,37.438,德州市,九衢泉纯净水厂,颗粒物(PM10),432,532,222,55,55,84,,90,89,11,15,4,7,0.4,0.7
2026-02-21T2200,3371A,116.3693,37.44,德州市,开发区人民医院,颗粒物(PM10),500,603,228,41,49,74,,84,82,18,16,10,14,0.4,0.6
2026-02-21T2200,3511A,116.5687,37.3331,德州市,陵城艺术中心,颗粒物(PM10),434,534,195,40,49,76,,81,79,5,10,6,14,0.4,0.9
2026-02-21T2200,4292A,116.352738,37.420875,德州市,新河东路,颗粒物(PM10),370,476,201,40,47,76,,84,82,11,13,14,17,0.6,0.8
2026-02-21T2200,2621A,99.7054,27.8319,迪庆藏族自治州,迪庆州站,,32,32,30,18,19,100,,102,102,9,7,5,5,0.9,0.8
2026-02-21T2200,3180A,99.7122,27.8129,迪庆藏族自治州,质量技术监督局,,31,26,25,18,15,98,,103,102,10,14,5,6,0.6,0.6
2026-02-21T2200,4257A,104.6092,35.5962,定西市,将台街,颗粒物(PM10),285,409,168,104,59,85,,90,90,2,13,8,14,0.3,0.7
2026-02-21T2200,4309A,104.6159,35.5701,定西市,正龙路62号,颗粒物(PM10),345,456,183,96,55,82,,87,86,2,6,4,10,0.4,0.7
2026-02-21T2200,1390A,113.7943,23.0132,东莞市,东城石井,,32,31,40,22,30,91,,120,112,17,14,5,5,0.6,0.7
2026-02-21T2200,1391A,113.7384,22.9659,东莞市,南城西平,,32,31,42,22,34,85,,115,107,21,13,7,6,0.6,0.6
2026-02-21T2200,3319A,113.7283,23.041,东莞市,万江金泰,,38,38,53,26,40,90,,114,107,16,10,6,6,0.8,0.8
2026-02-21T2200,4129A,113.8666,23.1062,东莞市,裕兴路,,42,42,52,26,36,87,,110,101,15,13,6,6,0.8,0.8
2026-02-21T2200,4130A,114.0076,22.9739,东莞市,教育路1号,,43,43,47,28,35,108,,124,120,10,13,4,5,0.6,0.6
2026-02-21T2200,4131A,113.7981,22.8124,东莞市,长怡路1号,,33,33,43,18,29,94,,107,101,13,15,8,8,0.7,0.7
2026-02-21T2200,1666A,118.6612,37.4313,东营市,市环保局,颗粒物(PM10),206,354,135,59,50,73,,104,94,24,24,13,20,0.8,0.9
2026-02-21T2200,3036A,118.6903,37.4337,东营市,开发区管委会,颗粒物(PM10),245,381,138,54,48,73,,101,92,21,21,14,18,0.8,0.9
2026-02-21T2200,3365A,118.5721,37.5654,东营市,垦利区民丰路,颗粒物(PM10),456,556,149,55,47,76,,109,99,20,21,12,12,0.7,0.9
2026-02-21T2200,3498A,118.5063,37.8606,东营市,河口城区,颗粒物(PM10),500,859,170,66,59,95,,118,108,20,27,8,15,0.4,0.6
2026-02-21T2200,3646A,118.4979,37.4623,东营市,胜利站,颗粒物(PM10),141,232,110,59,48,64,,96,86,17,20,11,13,0.8,0.9
2026-02-21T2200,3734A,118.5753,37.4405,东营市,理想之城,颗粒物(PM10),190,329,133,43,44,71,,107,96,20,19,12,14,0.9,0.9
2026-02-21T2200,1591A,110.0024,39.8127,鄂尔多斯市,综合楼,颗粒物(PM10),97,144,783,19,117,79,,96,88,5,4,4,5,0.2,0.2
2026-02-21T2200,1592A,109.9485,39.8259,鄂尔多斯市,巴音孟克林场办事处,颗粒物(PM10),85,119,780,22,115,81,,97,89,4,3,4,4,0.2,0.2
2026-02-21T2200,1593A,109.7734,39.5987,鄂尔多斯市,康泽苑,颗粒物(PM10),101,151,427,55,132,83,,101,94,4,4,5,5,0.3,0.2
2026-02-21T2200,1594A,109.8121,39.5987,鄂尔多斯市,华泰汽车城,颗粒物(PM10),107,163,754,33,119,87,,105,98,3,4,7,8,0.3,0.3
2026-02-21T2200,1595A,109.9734,39.7884,鄂尔多斯市,奥林花园,颗粒物(PM10),98,146,868,22,111,83,,95,90,7,12,3,4,0.2,0.2
2026-02-21T2200,2436A,114.894,30.3989,鄂州市,市政府,,37,37,36,25,27,62,,90,85,18,13,8,8,1.0,0.9
2026-02-21T2200,2437A,114.8986,30.3714,鄂州市,赵家坝,细颗粒物(PM2.5),52,39,37,36,28,65,,91,86,5,4,13,11,1.1,1
2026-02-21T2200,3654A,114.8093,30.4091,鄂州市,精准医疗中心,细颗粒物(PM2.5),57,57,49,40,36,52,,86,80,22,22,57,46,1.6,2.5
2026-02-21T2200,2454A,109.4978,30.2979,恩施土家族苗族自治州,湖北民院,细颗粒物(PM2.5),94,70,48,70,39,30,,85,73,25,13,6,6,1.1,0.9
2026-02-21T2200,3549A,109.5061,30.3771,恩施土家族苗族自治州,龙凤新区,细颗粒物(PM2.5),68,57,45,49,33,29,,77,65,12,7,7,7,0.6,0.4
2026-02-21T2200,2499A,108.3411,21.6159,防城港市,沙万,,,28,40,27,30,60,,74,72,9,18,,6,0.7,0.7
2026-02-21T2200,2500A,108.3515,21.7733,防城港市,防城档案局,,43,,39,30,33,49,,80,74,8,8,5,5,0.7,0.7
2026-02-21T2200,2501A,108.3506,21.6414,防城港市,大海花园,细颗粒物(PM2.5),54,,35,38,35,63,,83,80,9,12,6,6,0.7,0.7
2026-02-21T2200,1371A,113.1293,23.0065,佛山市,湾梁,,34,34,44,19,37,98,,116,110,5,8,/,/,/,/
2026-02-21T2200,1372A,113.1082,23.0477,佛山市,华材职中,,41,41,44,27,40,101,,118,112,6,9,6,6,0.4,0.5
2026-02-21T2200,1373A,113.1439,23.045,佛山市,南海气象局,,35,33,48,24,41,91,,114,106,9,9,/,/,/,/
2026-02-21T2200,1374A,113.2879,22.8094,佛山市,顺德苏岗,颗粒物(PM10),61,72,52,35,38,96,,113,109,10,10,/,/,0.7,0.8
2026-02-21T2200,1376A,112.8384,22.8678,佛山市,高明孔堂,,35,35,40,22,32,87,,103,98,5,7,/,/,/,/
2026-02-21T2200,1377A,112.8835,23.1584,佛山市,三水监测站,,31,31,43,21,42,90,,111,103,6,12,2,3,0.5,0.6
2026-02-21T2200,1378A,112.8668,23.185,佛山市,三水云东海,,34,34,44,23,38,97,,120,112,10,13,/,/,/,/
2026-02-21T2200,3625A,113.2568,22.7629,佛山市,容桂街道办,,31,31,37,21,34,82,,88,86,5,7,/,/,/,/
2026-02-21T2200,1282A,119.2681,26.0506,福州市,师大,细颗粒物(PM2.5),59,62,44,42,32,88,,110,104,14,11,5,4,0.6,0.6
2026-02-21T2200,1283A,119.2983,26.1028,福州市,五四北路,细颗粒物(PM2.5),74,66,41,54,36,88,,110,106,17,12,8,6,0.6,0.6
2026-02-21T2200,1284A,119.2648,26.0769,福州市,杨桥西路,细颗粒物(PM2.5),62,65,43,44,33,87,,112,107,18,12,6,5,/,/
2026-02-21T2200,3048A,119.5799,26.0937,福州市,九龙,细颗粒物(PM2.5),65,59,32,47,24,60,,103,93,12,11,4,4,0.6,0.6
2026-02-21T2200,3526A,119.5188,25.9666,福州市,吴航,细颗粒物(PM2.5),55,54,40,39,29,61,,101,92,21,15,5,5,0.7,0.6
2026-02-21T2200,4104A,119.3106,26.0648,福州市,路通桥巷6号,细颗粒物(PM2.5),58,49,44,41,36,82,,106,101,18,12,/,/,/,/
2026-02-21T2200,1755A,123.7974,41.8494,抚顺市,望花区,颗粒物(PM10),87,123,97,58,56,74,,96,86,29,20,24,33,1.0,0.9
2026-02-21T2200,1756A,123.9161,41.8827,抚顺市,顺城区,颗粒物(PM10),128,205,84,87,59,73,,99,90,26,15,24,17,1.0,0.8
2026-02-21T2200,1757A,124.0437,41.8615,抚顺市,东洲区,颗粒物(PM10),70,89,85,41,50,93,,98,93,13,12,17,14,0.7,0.7
2026-02-21T2200,1758A,123.9246,41.8638,抚顺市,新抚区,细颗粒物(PM2.5),99,139,91,74,55,68,,99,90,26,15,16,12,1.0,0.8
2026-02-21T2200,1759A,124.0972,41.8961,抚顺市,大伙房水库,颗粒物(PM10),60,69,71,35,47,100,,106,102,11,8,13,10,0.8,0.7
2026-02-21T2200,1760A,123.708,41.8386,抚顺市,沈抚新城,颗粒物(PM10),71,92,85,47,51,86,,98,91,15,12,16,12,0.8,0.8
2026-02-21T2200,2377A,116.3544,27.9833,抚州市,市站,细颗粒物(PM2.5),84,76,42,62,27,41,,73,62,8,8,9,6,1.3,1.1
2026-02-21T2200,2378A,116.3562,27.9631,抚州市,血防站,细颗粒物(PM2.5),78,60,36,57,22,32,,68,61,28,12,14,7,1.7,1.4
2026-02-21T2200,2379A,116.3561,28.0007,抚州市,采茶剧团,细颗粒物(PM2.5),67,65,36,48,24,52,,71,66,6,5,10,10,1.4,1.3
2026-02-21T2200,2380A,116.3854,27.9648,抚州市,医学分院,细颗粒物(PM2.5),57,54,30,40,14,40,,71,66,17,6,5,5,1.4,1.2
2026-02-21T2200,2207A,121.6095,41.9978,阜新市,工业园区,细颗粒物(PM2.5),124,138,147,94,82,68,,89,84,17,16,12,17,1.0,0.9
2026-02-21T2200,2208A,121.6567,42.0188,阜新市,长青街,细颗粒物(PM2.5),152,151,122,116,87,74,,100,92,22,20,13,16,1.0,0.9
2026-02-21T2200,2209A,121.6672,42.07,阜新市,农业园区,细颗粒物(PM2.5),139,154,138,106,78,62,,91,83,19,15,11,14,1.2,1
2026-02-21T2200,2211A,121.6343,42.0455,阜新市,玉龙新城,细颗粒物(PM2.5),196,332,136,147,81,60,,92,82,26,20,24,20,1.1,1
2026-02-21T2200,2301A,115.8276,32.8929,阜阳市,市监测站,细颗粒物(PM2.5),53,51,46,37,24,94,,94,94,11,7,7,6,0.8,0.6
2026-02-21T2200,2303A,115.8551,32.8606,阜阳市,开发区,细颗粒物(PM2.5),57,42,32,40,26,88,,94,89,6,3,8,6,0.6,0.5
2026-02-21T2200,2875A,115.783962,32.889217,阜阳市,阜阳职业技术学院,细颗粒物(PM2.5),59,62,41,42,26,95,,101,99,12,7,10,7,0.9,0.7
2026-02-21T2200,3468A,115.79,32.8614,阜阳市,市规划展馆,细颗粒物(PM2.5),57,62,48,40,25,94,,102,100,10,5,10,7,1.1,0.9
2026-02-21T2200,3469A,115.835101,32.918568,阜阳市,枣园社区,颗粒物(PM10),55,60,44,37,25,86,,88,86,11,6,10,8,0.7,0.6
2026-02-21T2200,2669A,102.9097,34.9841,甘南藏族自治州,州政府,颗粒物(PM10),87,123,65,43,27,54,,91,82,15,12,7,9,0.4,0.5
2026-02-21T2200,3380A,102.8915,34.9618,甘南藏族自治州,甘肃民族师范学院,颗粒物(PM10),89,127,71,29,19,58,,92,85,16,14,7,10,0.3,0.3
2026-02-21T2200,2570A,101.96,30.048,甘孜藏族自治州,水桥子,,20,,7,14,5,50,,96,78,12,6,7,6,0.3,0.7
2026-02-21T2200,3065A,101.9534,29.9976,甘孜藏族自治州,州环保局,,30,,8,11,4,93,,105,102,2,4,7,6,0.4,0.4
2026-02-21T2200,2363A,114.9368,25.8663,赣州市,地委,细颗粒物(PM2.5),72,60,38,52,25,47,,75,72,36,14,8,8,1.5,1.2
2026-02-21T2200,2364A,114.946,25.8483,赣州市,气象台,细颗粒物(PM2.5),62,58,41,44,28,66,,77,77,20,14,6,7,0.6,0.6
2026-02-21T2200,2365A,114.932,25.8332,赣州市,市图书馆,颗粒物(PM10),61,72,33,39,22,44,,60,55,25,14,4,5,1.3,1.1
2026-02-21T2200,2366A,114.8905,25.8472,赣州市,华坚鞋城,细颗粒物(PM2.5),63,61,39,45,29,45,,70,68,30,16,6,6,0.8,0.6
2026-02-21T2200,3109A,115.0094,25.8614,赣州市,赣县区卫计委,细颗粒物(PM2.5),84,88,32,62,22,27,,72,69,40,11,8,8,0.9,0.6
2026-02-21T2200,2684A,106.2753,36.0057,固原市,监测站,颗粒物(PM10),500,640,368,131,98,76,,82,81,6,10,7,9,0.3,0.5
2026-02-21T2200,2685A,106.2384,36.0189,固原市,新区,颗粒物(PM10),495,595,347,134,95,78,,82,81,4,15,6,6,0.4,0.5
2026-02-21T2200,2544A,106.6307,30.4577,广安市,市委,细颗粒物(PM2.5),147,142,87,112,75,18,,111,90,82,30,8,8,1.9,1
2026-02-21T2200,2545A,106.6266,30.4662,广安市,友谊中学,细颗粒物(PM2.5),99,121,83,74,58,37,,115,90,48,23,8,7,1.4,1
2026-02-21T2200,2547A,106.6386,30.4551,广安市,广电花园,细颗粒物(PM2.5),163,,85,124,81,13,,104,82,66,26,8,7,1.7,1
2026-02-21T2200,2902A,106.6347,30.4868,广安市,北辰小学,细颗粒物(PM2.5),120,101,74,91,70,59,,110,100,26,16,14,12,1.1,0.8
2026-02-21T2200,2524A,105.8211,32.4444,广元市,老城,细颗粒物(PM2.5),88,86,75,65,56,44,,103,91,43,24,1,12,0.9,0.9
2026-02-21T2200,2526A,105.8629,32.429,广元市,监测站,细颗粒物(PM2.5),57,62,63,40,52,66,,103,96,18,17,7,14,0.6,0.8
2026-02-21T2200,3617A,105.8047,32.4167,广元市,经开区,细颗粒物(PM2.5),82,76,78,60,63,31,,98,79,48,26,6,17,1.0,1.1
2026-02-21T2200,1345A,113.2346,23.1423,广州市,广雅中学,,40,39,46,28,34,89,,107,100,11,14,3,4,0.5,0.7
2026-02-21T2200,1346A,113.2611,23.105,广州市,市五中,,40,40,49,24,36,103,,125,116,11,13,7,8,/,/
2026-02-21T2200,1348A,113.3477,23.0916,广州市,广东商学院,,46,38,48,32,43,102,,115,109,9,13,6,6,0.8,0.9
2026-02-21T2200,1349A,113.4332,23.105,广州市,市八十六中,颗粒物(PM10),60,70,63,19,30,114,,125,121,10,19,4,5,/,/
2026-02-21T2200,1350A,113.3506,22.9488,广州市,番禺中学,颗粒物(PM10),53,56,63,25,35,94,,112,107,9,10,3,4,0.8,0.9
2026-02-21T2200,1351A,113.2147,23.3918,广州市,花都师范,,49,37,61,34,52,94,,116,110,12,36,5,6,0.7,0.9
2026-02-21T2200,1352A,113.2599,23.1329,广州市,市监测站,,39,39,49,27,38,89,,108,100,13,15,1,2,/,/
2026-02-21T2200,1353A,113.5618,23.3119,广州市,九龙镇镇龙,,36,31,54,25,47,90,,111,103,10,14,6,5,0.5,0.7
2026-02-21T2200,1354A,113.2764,23.1544,广州市,麓湖,,42,36,44,29,36,97,,115,109,10,17,4,4,0.5,0.7
2026-02-21T2200,2846A,113.3209,23.1323,广州市,体育西,,38,38,48,26,35,97,,112,106,13,16,6,6,0.8,0.9
2026-02-21T2200,3298A,113.5718,23.5493,广州市,从化街口,,39,36,57,27,47,87,,112,106,11,15,9,8,0.6,0.8
2026-02-21T2200,3299A,113.3463,23.369,广州市,白云竹料,细颗粒物(PM2.5),55,50,62,39,51,98,,92,92,12,20,4,3,0.6,0.7
2026-02-21T2200,3300A,113.2981,23.2365,广州市,白云嘉禾,,42,40,50,29,38,104,,122,116,12,16,6,6,/,/
2026-02-21T2200,3301A,113.4256,23.1716,广州市,黄埔科学城,,42,37,49,29,44,111,,128,120,8,13,5,5,0.6,0.7
2026-02-21T2200,3302A,113.3942,23.0485,广州市,番禺大学城,,47,47,63,28,39,105,,116,112,6,9,9,9,0.5,0.7
2026-02-21T2200,3303A,113.4923,22.8169,广州市,南沙黄阁,,40,40,44,22,38,99,,113,111,9,12,6,6,/,/
2026-02-21T2200,3304A,113.534,22.7893,广州市,南沙街,,35,35,45,20,37,96,,114,112,5,9,4,5,0.6,0.7
2026-02-21T2200,3443A,113.2905,23.5541,广州市,花都梯面,,36,34,45,25,35,90,,110,106,8,10,6,5,/,/
2026-02-21T2200,3445A,113.786,23.7479,广州市,从化良口,,46,40,34,32,28,98,,104,102,8,7,4,7,/,/
2026-02-21T2200,3446A,113.805,23.2614,广州市,增城荔城,,38,37,53,26,41,93,,121,111,16,14,7,6,0.5,0.6
2026-02-21T2200,2506A,109.604387,23.066791,贵港市,江南子站,细颗粒物(PM2.5),156,153,115,119,85,40,,73,65,30,25,9,9,1.1,1
2026-02-21T2200,2508A,109.5669,23.1065,贵港市,荷城子站,细颗粒物(PM2.5),163,136,87,124,69,48,,60,56,27,27,9,8,1.1,1
2026-02-21T2200,3405A,109.5886,23.1172,贵港市,新世纪学校,细颗粒物(PM2.5),189,,92,142,83,48,,67,62,27,26,/,/,1.2,1
2026-02-21T2200,4260A,109.5933,23.095,贵港市,中山路155-3号,细颗粒物(PM2.5),166,161,103,126,87,48,,66,60,22,25,/,/,1.1,1
2026-02-21T2200,1439A,106.6863,26.6035,贵阳市,马鞍山,,40,36,31,28,26,23,,73,62,17,10,5,6,/,/
2026-02-21T2200,1441A,106.6241,26.6266,贵阳市,鉴湖路,颗粒物(PM10),51,51,35,18,20,41,,83,78,23,10,9,7,0.5,0.6
2026-02-21T2200,1442A,106.7468,26.6344,贵阳市,燕子冲,,48,48,32,20,25,44,,80,74,17,13,6,7,0.4,0.4
2026-02-21T2200,1443A,106.6556,26.4362,贵阳市,碧云窝,,44,44,32,29,21,54,,76,73,9,6,15,11,/,/
2026-02-21T2200,1445A,106.6963,26.6063,贵阳市,红边门,细颗粒物(PM2.5),103,100,42,77,34,4,,74,60,58,23,43,15,/,/
2026-02-21T2200,1446A,106.7162383,26.56964667,贵阳市,新华路,颗粒物(PM10),56,61,44,38,25,40,,78,67,24,18,14,14,0.5,0.5
2026-02-21T2200,1447A,106.6742,26.542,贵阳市,太慈桥,,39,39,27,17,22,22,,61,54,27,13,5,4,/,/
2026-02-21T2200,4230A,106.688212,26.56952,贵阳市,花果园大街66号,,42,31,25,29,23,40,,71,66,25,12,6,4,/,/
2026-02-21T2200,4231A,106.687268,26.516892,贵阳市,漓江路57号,细颗粒物(PM2.5),54,48,34,38,24,36,,73,68,20,10,13,11,0.7,0.6
2026-02-21T2200,1864A,110.3091,25.2705,桂林市,龙隐路小学,细颗粒物(PM2.5),123,107,60,93,53,2,,22,17,34,24,4,4,1.5,1.1
2026-02-21T2200,1865A,110.2849361,25.22909545,桂林市,八中,颗粒物(PM10),70,90,59,46,31,5,,21,18,37,25,5,5,1.2,1
2026-02-21T2200,3531A,110.296,25.1254,桂林市,旅游学院,细颗粒物(PM2.5),98,79,56,73,50,6,,35,30,26,15,6,5,1.0,0.9
2026-02-21T2200,4222A,110.1835,25.2444,桂林市,环湖路276号,细颗粒物(PM2.5),144,124,64,110,57,2,,17,14,32,21,5,10,1.2,1.1
2026-02-21T2200,4301A,110.2803,25.2773,桂林市,信义路13号,细颗粒物(PM2.5),104,133,77,78,59,1,,20,16,34,24,5,5,1.5,1.3
2026-02-21T2200,2674A,100.2262,34.4854,果洛藏族自治州,玛沁县大武镇,,35,35,33,13,10,87,,89,88,2,3,10,11,0.3,0.4
2026-02-21T2200,1130A,126.5557,45.8109,哈尔滨市,松北商大,细颗粒物(PM2.5),89,86,67,66,61,82,,95,90,7,14,13,13,0.8,0.7
2026-02-21T2200,1132A,126.6162,45.719,哈尔滨市,南岗学府路,细颗粒物(PM2.5),82,96,84,60,52,84,,98,90,12,17,13,13,0.8,0.8
2026-02-21T2200,1133A,126.6894,45.7733,哈尔滨市,太平宏伟公园,,,89,80,69,53,81,,97,90,,,12,12,0.7,0.7
2026-02-21T2200,1134A,126.6361,45.7672,哈尔滨市,道外承德广场,颗粒物(PM10),81,112,98,59,55,82,,96,90,12,20,16,15,0.2,0.4
2026-02-21T2200,1136A,126.644,45.7261,哈尔滨市,动力和平路,细颗粒物(PM2.5),89,97,77,66,54,75,,97,89,21,20,18,14,0.9,0.8
2026-02-21T2200,1137A,126.5933,45.7479,哈尔滨市,道里建国路,细颗粒物(PM2.5),84,82,77,62,54,79,,92,88,16,25,22,25,0.4,0.6
2026-02-21T2200,1138A,126.6127,45.6119,哈尔滨市,平房东轻厂,细颗粒物(PM2.5),80,75,73,59,52,53,,63,57,23,28,11,10,0.8,0.7
2026-02-21T2200,1139A,126.5875,45.9827,哈尔滨市,呼兰师专,细颗粒物(PM2.5),93,94,97,69,60,76,,88,83,16,19,18,17,0.6,0.7
2026-02-21T2200,1140A,126.6299,45.6799,哈尔滨市,省农科院,,,101,86,64,54,70,,79,72,16,27,,,0.6,0.7
2026-02-21T2200,4282A,126.6769,45.7379,哈尔滨市,华山路1号,,,90,78,62,53,,,97,93,18,20,18,18,0.9,0.8
2026-02-21T2200,4283A,126.9717,45.5356,哈尔滨市,解放大街52号,颗粒物(PM10),66,81,69,39,38,84,,108,102,10,10,17,14,0.6,0.6
2026-02-21T2200,2688A,93.5124,42.8176,哈密市,地区监测站,颗粒物(PM10),79,108,492,35,60,68,,82,78,7,4,6,5,0.0,0
2026-02-21T2200,2689A,93.5014,42.8312,哈密市,哈密师范学校,,,,571,,40,,,88,,,6,,8,,0.4
2026-02-21T2200,2671A,100.9016,36.9464,海北藏族自治州,海晏县西海镇,,31,31,39,16,10,88,,98,96,1,1,5,7,0.0,0.3
2026-02-21T2200,3867A,102.074,36.5056,海东市,平安区公安局北苑,颗粒物(PM10),500,620,90,209,33,62,,87,84,10,12,18,12,0.6,0.6
2026-02-21T2200,4163A,102.0984,36.5119,海东市,滨河路,颗粒物(PM10),500,691,111,185,30,64,,97,92,12,16,14,8,0.5,0.5
2026-02-21T2200,1410A,110.3189,20.0596,海口市,海南大学,,24,24,29,14,19,70,,90,80,3,5,6,6,0.3,0.4
2026-02-21T2200,1411A,110.2827,20.0051,海口市,秀英海南医院,,30,30,30,17,22,55,,84,71,10,9,8,8,0.3,0.4
2026-02-21T2200,1412A,110.3391,19.9979,海口市,海南师范大学,,36,36,33,16,23,66,,90,80,4,5,6,6,0.5,0.5
2026-02-21T2200,1413A,110.3303,20.0359,海口市,龙华路环保局宿舍,,28,28,28,15,20,69,,91,81,5,6,/,/,0.6,0.7
2026-02-21T2200,3539A,110.5111,19.9737,海口市,桂林洋子站,,28,28,30,18,23,63,,86,77,6,5,/,/,/,/
2026-02-21T2200,4134A,110.1952,20.0451,海口市,长滨二路9号,,22,22,29,14,23,64,,88,78,2,5,/,/,/,/
2026-02-21T2200,2673A,100.6158,36.2985,海南藏族自治州,共和县恰卜恰镇,颗粒物(PM10),55,60,93,20,26,64,,102,96,14,5,12,12,0.3,0.3
2026-02-21T2200,2676A,97.373,37.376,海西蒙古族藏族自治州,德令哈市,,35,30,22,11,12,110,,109,109,2,4,12,16,0.3,0.4
2026-02-21T2200,1049A,114.492,36.5712,邯郸市,矿院,颗粒物(PM10),175,299,160,120,57,88,,96,95,1,9,1,3,0.5,0.5
2026-02-21T2200,1050A,114.4839,36.6136,邯郸市,丛台公园,颗粒物(PM10),177,303,157,81,52,84,,94,93,11,14,2,7,0.5,0.6
2026-02-21T2200,3458A,114.7893,36.5592,邯郸市,香泉濮院小区,颗粒物(PM10),344,455,197,36,37,83,,92,91,2,7,4,6,0.3,0.5
2026-02-21T2200,3580A,114.1998,36.4439,邯郸市,峰峰矿区临水派出所,颗粒物(PM10),173,296,145,41,31,87,,95,92,2,2,2,10,0.3,0.4
2026-02-21T2200,4068A,114.5209,36.7697,邯郸市,建安街268号,颗粒物(PM10),195,340,170,86,46,83,,91,88,2,9,2,12,0.2,0.7
2026-02-21T2200,4069A,114.5488,36.6177,邯郸市,丛台东路558号,颗粒物(PM10),159,268,160,71,58,84,,101,97,13,18,4,6,0.5,0.5
2026-02-21T2200,2635A,107.0155,33.0707,汉中市,市监测站,细颗粒物(PM2.5),122,120,81,92,73,54,,104,87,31,22,8,8,1.3,1.2
2026-02-21T2200,2636A,107.0083,33.114,汉中市,鑫源开发区,细颗粒物(PM2.5),100,102,82,75,64,49,,108,95,32,22,8,9,1.1,1
2026-02-21T2200,2637A,107.0072,33.0323,汉中市,南郑大河坎水厂,细颗粒物(PM2.5),114,103,68,86,53,60,,102,89,19,16,8,8,1.0,0.9
2026-02-21T2200,1223A,120.2073,30.2111,杭州市,滨江,,34,34,28,22,18,70,,88,83,16,12,7,7,0.6,0.5
2026-02-21T2200,1224A,120.0625,30.2737,杭州市,西溪,细颗粒物(PM2.5),52,40,29,36,17,20,,87,67,12,5,8,8,1.0,0.7
2026-02-21T2200,1226A,120.3417,30.315,杭州市,下沙,,31,31,29,20,18,72,,89,84,16,13,10,10,0.2,0.2
2026-02-21T2200,1227A,120.1252,30.2465,杭州市,卧龙桥,,30,30,27,18,16,16,,87,65,32,11,8,7,0.4,0.3
2026-02-21T2200,1228A,120.1902,30.2691,杭州市,浙江农大,,35,35,34,22,16,61,,93,81,17,9,6,6,0.6,0.6
2026-02-21T2200,1230A,120.1195,30.3121,杭州市,和睦小学,,40,40,29,28,18,56,,88,76,20,9,5,5,0.6,0.5
2026-02-21T2200,1231A,120.3076,30.4146,杭州市,临平镇,,46,46,29,26,16,59,,91,83,21,11,7,6,0.5,0.4
2026-02-21T2200,1232A,120.2753,30.1839,杭州市,城厢镇,,35,35,35,23,21,70,,93,87,13,9,8,8,0.6,0.5
2026-02-21T2200,1233A,120.0883,30.1808,杭州市,云栖,,30,30,27,18,15,27,,84,58,24,19,4,4,0.6,0.7
2026-02-21T2200,3557A,119.9463,30.0496,杭州市,镇二中,,40,35,26,28,18,42,,87,74,22,11,4,4,0.7,0.6
2026-02-21T2200,3558A,119.7184,30.2367,杭州市,市府大楼,,40,36,28,28,22,44,,82,68,12,9,7,6,0.4,0.4
2026-02-21T2200,3656A,120.1554,30.2863,杭州市,消防大队,,30,30,28,20,17,63,,81,75,15,10,7,7,0.5,0.5
2026-02-21T2200,1270A,117.1957,31.7845,合肥市,明珠广场,,35,34,34,24,23,74,,89,86,11,7,7,7,0.7,0.8
2026-02-21T2200,1271A,117.307,31.8765,合肥市,三里街,,46,46,36,25,25,54,,79,75,27,13,6,6,0.8,0.9
2026-02-21T2200,1272A,117.2587,31.8703,合肥市,琥珀山庄,,46,46,37,30,28,58,,85,82,32,18,7,6,0.9,0.8
2026-02-21T2200,1275A,117.2593,31.9376,合肥市,庐阳区,,36,36,35,20,24,76,,86,85,13,11,6,5,1.1,1.1
2026-02-21T2200,1276A,117.345251,31.861615,合肥市,瑶海区,,31,31,32,17,21,72,,88,86,21,15,6,6,0.6,0.7
2026-02-21T2200,1277A,117.3033,31.7967,合肥市,包河区,,34,34,32,18,21,75,,88,87,16,10,11,10,0.8,0.9
2026-02-21T2200,1278A,117.278,31.7392,合肥市,滨湖新区,,31,31,32,17,22,73,,84,83,8,4,5,5,0.8,0.8
2026-02-21T2200,1279A,117.1324,31.8395,合肥市,高新区,,34,34,35,20,23,79,,88,87,6,6,5,5,0.7,0.7
2026-02-21T2200,3464A,117.3802,31.9148,合肥市,高教基地,,31,31,33,19,21,77,,94,92,13,10,10,9,0.6,0.7
2026-02-21T2200,4098A,117.2518,31.8404,合肥市,中国科学技术大学,,36,36,33,20,21,74,,91,89,12,6,10,8,0.9,0.9
2026-02-21T2200,3614A,79.9241,37.0878,和田地区,地区环保局,,,,407,,57,66,,93,89,36,11,9,3,,1
2026-02-21T2200,3615A,79.9132,37.1137,和田地区,市环保局,颗粒物(PM10),442,542,391,127,71,45,,105,96,65,33,15,4,1.5,1
2026-02-21T2200,2517A,108.0496,24.6957,河池市,市环保站,细颗粒物(PM2.5),128,131,73,97,62,15,,42,32,12,10,4,4,1.3,1
2026-02-21T2200,4302A,108.0901,24.6945,河池市,上任中路54号,细颗粒物(PM2.5),137,128,69,104,56,9,,44,32,29,19,6,6,1.1,0.8
2026-02-21T2200,1697A,114.6962,23.7538,河源市,东埔,,45,43,48,31,41,111,,112,107,9,13,6,6,0.8,0.8
2026-02-21T2200,1698A,114.6895,23.7232,河源市,老城,颗粒物(PM10),53,55,44,34,38,112,,110,107,7,9,6,6,0.6,0.7
2026-02-21T2200,3374A,115.5562,35.089,菏泽市,定陶老年大学,细颗粒物(PM2.5),83,100,70,61,43,83,,105,102,20,14,7,6,0.6,0.5
2026-02-21T2200,4114A,115.4239,35.2593,菏泽市,黄河路600号,细颗粒物(PM2.5),87,116,87,64,47,70,,99,93,14,9,8,6,0.6,0.5
2026-02-21T2200,4115A,115.5025,35.2727,菏泽市,菏泽市人社局,细颗粒物(PM2.5),82,96,76,60,45,85,,109,106,21,14,6,6,0.7,0.6
2026-02-21T2200,4184A,115.479691,35.244011,菏泽市,永昌路1号,细颗粒物(PM2.5),84,103,78,62,46,90,,116,111,12,8,7,5,0.6,0.5
2026-02-21T2200,4193A,115.471542,35.280012,菏泽市,长城路999号,细颗粒物(PM2.5),79,88,78,58,47,87,,109,106,12,9,24,13,0.6,0.5
2026-02-21T2200,2514A,111.5264,24.4178,贺州市,环保小区,细颗粒物(PM2.5),114,,58,86,55,50,,61,59,15,11,5,4,1.0,0.9
2026-02-21T2200,2515A,111.561,24.4074,贺州市,政协大楼,细颗粒物(PM2.5),109,,57,82,51,51,,49,48,20,23,6,6,0.8,0.7
2026-02-21T2200,3534A,111.4744,24.455,贺州市,西湾,细颗粒物(PM2.5),113,123,67,85,51,29,,51,46,35,20,6,6,1.1,1
2026-02-21T2200,2385A,114.17,35.9019,鹤壁市,市监测站,颗粒物(PM10),136,222,110,49,33,91,,94,92,2,3,2,4,0.4,0.4
2026-02-21T2200,2386A,114.2953,35.7512,鹤壁市,市交警支队,颗粒物(PM10),124,198,112,39,44,78,,84,82,6,14,3,6,0.3,0.5
2026-02-21T2200,2387A,114.2877,35.7302,鹤壁市,迎宾馆,颗粒物(PM10),157,264,127,48,48,83,,87,86,8,12,3,6,0.4,0.7
2026-02-21T2200,3474A,114.2616,35.6824,鹤壁市,大新区,颗粒物(PM10),134,217,124,46,51,88,,90,90,6,16,7,10,0.4,0.8
2026-02-21T2200,3596A,114.1573,35.9607,鹤壁市,南山宾馆,颗粒物(PM10),168,286,154,52,35,91,,96,95,2,2,3,5,0.5,0.5
2026-02-21T2200,2244A,130.2537,47.3416,鹤岗市,哈啤分公司,,37,37,42,24,38,93,,91,91,7,10,12,19,0.6,0.6
2026-02-21T2200,2245A,130.2683,47.3087,鹤岗市,斯达机电,,46,46,54,29,37,87,,88,88,11,12,11,16,0.4,0.4
2026-02-21T2200,2246A,130.3114,47.3388,鹤岗市,东山纸板厂,,39,35,40,27,51,87,,87,87,7,11,14,25,0.6,0.9
2026-02-21T2200,2263A,127.4832,50.2524,黑河市,交通局,,32,31,74,22,47,82,,87,81,7,15,6,9,0.4,0.7
2026-02-21T2200,2264A,127.5146,50.2339,黑河市,环保局,,40,37,73,28,66,78,,83,76,8,11,9,10,0.3,0.6
2026-02-21T2200,1074A,115.6839,37.754,衡水市,电机北厂,颗粒物(PM10),398,498,227,85,66,78,,92,89,11,17,3,9,0.4,0.7
2026-02-21T2200,1075A,115.6303,37.7318,衡水市,市监测站,颗粒物(PM10),253,387,200,71,54,74,,87,84,6,12,6,9,0.3,0.6
2026-02-21T2200,3188A,115.6684,37.7216,衡水市,市城管局,颗粒物(PM10),426,526,234,67,56,78,,91,88,6,14,5,10,0.3,0.6
2026-02-21T2200,3459A,115.599,37.5491,衡水市,地表水厂,颗粒物(PM10),319,435,228,65,58,81,,93,90,2,10,7,12,0.3,0.6
2026-02-21T2200,2457A,112.6209,26.9268,衡阳市,衡阳化工总厂,细颗粒物(PM2.5),105,82,62,79,46,17,,32,30,36,22,12,12,1.4,1.3
2026-02-21T2200,2458A,112.621,26.8957,衡阳市,珠晖区环保局,细颗粒物(PM2.5),104,99,71,78,51,1,,26,17,51,29,11,8,2.6,1.6
2026-02-21T2200,2459A,112.628,26.8654,衡阳市,市委党校,细颗粒物(PM2.5),63,60,61,45,46,26,,34,33,23,18,14,12,1.4,1.3
2026-02-21T2200,2460A,112.6007,26.8977,衡阳市,市监测站,细颗粒物(PM2.5),139,139,92,106,64,0,,25,14,39,28,9,9,2.5,2
2026-02-21T2200,2461A,112.5658,26.9013,衡阳市,真空机电公司,细颗粒物(PM2.5),77,72,76,56,58,17,,26,21,31,30,10,10,1.7,1.7
2026-02-21T2200,3399A,112.6703,26.8817,衡阳市,师范学院,细颗粒物(PM2.5),67,75,56,48,39,11,,38,32,22,17,5,5,1.6,1.3
2026-02-21T2200,3038A,103.3757,23.3679,红河哈尼族彝族自治州,州图书馆,,35,25,21,24,20,78,,89,87,4,4,5,4,0.3,0.5
2026-02-21T2200,4154A,103.401,23.3561,红河哈尼族彝族自治州,蒙自市朝阳路,,43,33,18,30,17,71,,83,79,7,4,10,8,0.5,0.4
2026-02-21T2200,1090A,111.6506,40.7517,呼和浩特市,呼市一监,,31,31,328,13,131,82,,82,78,7,19,6,8,0.3,0.5
2026-02-21T2200,1094A,111.7516,40.8369,呼和浩特市,如意水处理厂,,34,34,479,6,108,76,,86,79,4,14,8,10,0.2,0.3
2026-02-21T2200,1095A,111.727798,40.806187,呼和浩特市,二十九中,颗粒物(PM10),51,51,588,10,119,71,,80,72,1,14,11,14,0.4,0.5
2026-02-21T2200,1097A,111.717,40.7617,呼和浩特市,化肥厂生活区,,43,43,589,9,136,76,,86,80,3,15,4,7,0.3,0.5
2026-02-21T2200,3699A,111.6519,40.8389,呼和浩特市,海东办,,27,27,328,3,112,75,,86,78,3,20,3,8,0.3,0.5
2026-02-21T2200,4275A,111.591512,40.827312,呼和浩特市,成吉思汗西街8号,,29,29,289,7,109,72,,83,76,2,12,4,7,0.4,0.5
2026-02-21T2200,4276A,111.6597,40.8077,呼和浩特市,公园东路75号,,29,29,317,6,112,72,,78,74,6,21,5,8,0.4,0.5
2026-02-21T2200,4277A,111.5427,40.7846,呼和浩特市,金海路35号,,40,40,595,3,111,76,,88,80,3,11,5,7,0.5,0.5
2026-02-21T2200,3061A,119.7511,49.1576,呼伦贝尔市,国华电力东,颗粒物(PM10),58,65,41,14,15,81,,74,74,13,15,5,7,0.4,0.5
2026-02-21T2200,4279A,119.7569,49.2222,呼伦贝尔市,伊敏大街东7号,,37,37,31,13,16,72,,66,66,6,12,6,7,0.3,0.4
2026-02-21T2200,1250A,120.075,30.867,湖州市,城西水厂,,42,42,35,28,25,60,,95,87,23,17,6,6,0.4,0.3
2026-02-21T2200,2873A,120.083,30.8929,湖州市,仁皇山新区,,35,35,34,21,23,56,,91,82,22,13,5,5,0.6,0.4
2026-02-21T2200,2907A,120.1846,30.8592,湖州市,吴兴区站,,42,37,37,29,26,66,,85,81,11,7,6,6,0.7,0.6
2026-02-21T2200,3562A,120.4146,30.8538,湖州市,南浔区站,,42,33,34,29,25,71,,96,90,17,11,8,8,0.6,0.5
2026-02-21T2200,1607A,120.904878,40.721091,葫芦岛市,龙港区,细颗粒物(PM2.5),193,,82,145,79,28,,80,69,45,17,11,10,1.2,0.8
2026-02-21T2200,1608A,120.8382,40.7521,葫芦岛市,化工街,细颗粒物(PM2.5),175,178,106,132,84,13,,71,54,63,26,32,27,1.3,0.8
2026-02-21T2200,1609A,120.8339,40.7078,葫芦岛市,新区,细颗粒物(PM2.5),183,156,84,138,81,29,,78,65,50,23,12,11,1.2,0.9
2026-02-21T2200,1610A,120.8697,40.7679,葫芦岛市,东城区,细颗粒物(PM2.5),166,207,95,126,88,24,,78,61,53,27,20,16,1.4,1.2
2026-02-21T2200,2483A,109.9297,27.5383,怀化市,河西地税局,细颗粒物(PM2.5),60,56,43,43,33,39,,67,61,12,10,2,2,/,/
2026-02-21T2200,2484A,109.9783,27.5342,怀化市,市四医院,细颗粒物(PM2.5),57,50,50,40,35,43,,62,60,13,17,8,8,0.6,0.7
2026-02-21T2200,2485A,109.9971,27.5579,怀化市,监测楼,细颗粒物(PM2.5),54,44,55,38,42,51,,63,61,11,14,4,4,0.2,0.3
2026-02-21T2200,1210A,119.0566,33.5991,淮安市,钵池山,颗粒物(PM10),54,58,43,35,27,65,,93,86,22,11,12,12,0.5,0.5
2026-02-21T2200,1211A,119.0083,33.578,淮安市,北京南路,细颗粒物(PM2.5),65,78,50,47,28,36,,82,69,37,13,10,9,0.6,0.5
2026-02-21T2200,1212A,118.9938,33.6083,淮安市,市监测站,"颗粒物(PM10),细颗粒物(PM2.5)",54,58,42,38,30,66,,92,86,16,12,13,14,0.8,1
2026-02-21T2200,1213A,119.135,33.5038,淮安市,楚州区监测站,细颗粒物(PM2.5),65,63,46,47,31,62,,88,78,19,11,7,7,0.7,0.6
2026-02-21T2200,3426A,118.8757,33.2897,淮安市,新华书店,细颗粒物(PM2.5),59,65,47,42,32,62,,84,77,21,12,8,7,0.6,0.6
2026-02-21T2200,4092A,119.119691,33.550006,淮安市,枚皋中路89号,细颗粒物(PM2.5),64,62,53,46,34,62,,87,82,17,11,13,12,0.5,0.7
2026-02-21T2200,4206A,119.028838,33.631911,淮安市,承德北路606号,颗粒物(PM10),67,83,49,43,27,48,,86,76,32,12,25,13,2.5,0.9
2026-02-21T2200,2282A,116.8005,33.9749,淮北市,监测站,细颗粒物(PM2.5),65,70,63,47,38,74,,107,100,21,13,8,6,0.7,0.6
2026-02-21T2200,2283A,116.8094,33.9008,淮北市,烈山区政府,"颗粒物(PM10),细颗粒物(PM2.5)",70,89,68,51,38,57,,98,86,25,12,9,7,0.6,0.5
2026-02-21T2200,4017A,116.7926,33.9534,淮北市,市博物馆,颗粒物(PM10),70,90,63,50,40,63,,99,90,24,14,8,5,0.8,0.7
2026-02-21T2200,4100A,116.8322,33.9884,淮北市,杜集区第一实验学校,颗粒物(PM10),72,93,65,50,38,58,,104,93,23,12,10,8,0.8,0.7
2026-02-21T2200,2277A,116.8304,32.7726,淮南市,潘集区政府,细颗粒物(PM2.5),58,63,49,41,30,61,,93,84,19,11,7,7,0.4,0.5
2026-02-21T2200,2279A,116.8569,32.5949,淮南市,谢家集区政府,颗粒物(PM10),53,55,33,34,27,66,,92,86,16,9,10,8,0.6,0.5
2026-02-21T2200,2280A,116.8279,32.6333,淮南市,八公山区政府,颗粒物(PM10),51,52,40,32,29,78,,96,92,9,8,7,4,0.5,0.5
2026-02-21T2200,2894A,117.0561,32.6536,淮南市,经济技术开发区消防队,颗粒物(PM10),51,52,47,28,27,71,,93,88,21,13,7,6,0.6,0.5
2026-02-21T2200,3329A,117.011,32.5891,淮南市,山南新区,颗粒物(PM10),53,55,40,33,28,71,,97,92,15,12,8,7,0.5,0.5
2026-02-21T2200,4209A,117.003137,32.644456,淮南市,国庆中路369号,,49,49,38,33,25,63,,85,80,14,8,12,10,0.5,0.5
2026-02-21T2200,2446A,114.9021,30.474,黄冈市,职工中心,细颗粒物(PM2.5),54,,37,38,32,67,,93,86,10,13,5,5,0.7,0.9
2026-02-21T2200,2929A,114.8858,30.4519,黄冈市,红卫路,,42,35,34,29,30,70,,95,90,15,9,4,4,0.6,0.6
2026-02-21T2200,3398A,114.9134,30.4446,黄冈市,市林业局,,42,40,39,29,32,63,,82,78,16,11,5,4,0.5,0.5
2026-02-21T2200,2672A,102.02,35.5101,黄南藏族自治州,同仁县隆务镇,,49,49,62,27,21,75,,90,88,4,4,10,9,0.3,0.3
2026-02-21T2200,2295A,118.2905,29.6965,黄山市,延安路89号,,29,27,25,20,17,44,,84,76,8,4,5,4,0.5,0.5
2026-02-21T2200,2297A,118.1369,30.2755,黄山市,黄山区政府5号楼,,39,36,34,27,23,36,,89,73,7,4,3,2,0.5,0.5
2026-02-21T2200,4210A,118.335445,29.720283,黄山市,滨江东路7-2号,,39,39,37,24,17,37,,88,77,12,6,/,/,/,/
2026-02-21T2200,2423A,115.0547,30.2332,黄石市,沈家营,,45,45,46,18,29,70,,95,88,10,12,48,26,1.4,1.3
2026-02-21T2200,2426A,114.899,30.211,黄石市,铁山,,43,39,41,30,30,59,,83,78,18,12,10,10,0.6,1
2026-02-21T2200,2427A,115.0259,30.2108,黄石市,团城山,细颗粒物(PM2.5),52,50,49,36,33,45,,66,62,24,23,10,9,1.4,1.4
2026-02-21T2200,3149A,115.0174,30.1591,黄石市,笔架山北路,细颗粒物(PM2.5),60,55,52,43,32,59,,79,77,9,13,18,13,1.2,1.1
2026-02-21T2200,4185A,115.078022,30.21118,黄石市,磁湖东路29号,细颗粒物(PM2.5),58,49,46,41,37,31,,72,62,37,20,6,10,1.6,1.7
2026-02-21T2200,1392A,114.4181,23.0528,惠州市,河南岸金山湖子站,细颗粒物(PM2.5),52,50,46,36,35,100,,112,111,8,7,6,6,0.6,0.7
2026-02-21T2200,1393A,114.4055,23.0824,惠州市,下埔横江三路子站,细颗粒物(PM2.5),52,52,50,36,35,108,,120,118,11,9,7,7,0.7,0.7
2026-02-21T2200,1395A,114.4645,22.7832,惠州市,惠阳区承修路船湖子站,,47,47,45,32,33,104,,118,116,8,10,6,6,0.6,0.6
2026-02-21T2200,1396A,114.5316,22.7423,惠州市,大亚湾管委会子站,,42,41,44,29,33,98,,117,114,11,9,8,7,0.6,0.6
2026-02-21T2200,3314A,114.4334,22.8134,惠州市,惠阳秋长,,44,44,45,30,31,120,,132,130,9,10,/,/,/,/
2026-02-21T2200,3452A,114.6521,22.7755,惠州市,大亚湾霞涌,,46,46,42,32,27,121,,128,127,8,10,/,/,/,/
2026-02-21T2200,4300A,114.4089,23.1147,惠州市,文华一路1号,细颗粒物(PM2.5),53,49,44,37,36,106,,120,116,12,10,/,/,/,/
2026-02-21T2200,2240A,130.9618,45.2926,鸡西市,环保局,细颗粒物(PM2.5),67,77,116,48,69,59,,75,66,18,27,10,20,0.6,0.9
2026-02-21T2200,2243A,130.9294,45.2959,鸡西市,第一中学,细颗粒物(PM2.5),77,78,105,56,75,67,,73,67,13,29,9,17,0.5,0.7
2026-02-21T2200,3707A,131.0069,45.2988,鸡西市,欧美日汽修厂,颗粒物(PM10),71,91,111,44,63,59,,79,66,13,21,10,20,0.6,0.9
2026-02-21T2200,2367A,114.9753,27.0803,吉安市,红声器材厂,细颗粒物(PM2.5),127,,38,96,23,20,,50,46,35,14,13,7,0.9,0.7
2026-02-21T2200,2369A,114.9903,27.1313,吉安市,市环境监测站,细颗粒物(PM2.5),73,60,32,53,23,31,,54,51,29,11,8,7,/,/
2026-02-21T2200,2370A,115.009527,27.096792,吉安市,青原区法院,细颗粒物(PM2.5),80,73,32,59,23,6,,54,43,45,14,7,8,1.0,0.8
2026-02-21T2200,1772A,126.54,43.8622,吉林市,哈达湾,细颗粒物(PM2.5),68,74,73,49,50,100,,115,108,9,10,11,10,0.9,0.9
2026-02-21T2200,1773A,126.5843,43.8358,吉林市,东局子,细颗粒物(PM2.5),73,74,70,53,49,93,,109,101,8,9,11,8,0.6,0.6
2026-02-21T2200,1774A,126.5051,43.8243,吉林市,电力学院,细颗粒物(PM2.5),68,68,74,49,51,96,,114,106,9,10,10,9,0.6,0.7
2026-02-21T2200,1775A,126.6133,43.8971,吉林市,江北,颗粒物(PM10),67,83,78,47,54,94,,113,103,8,9,13,10,0.4,0.6
2026-02-21T2200,1776A,126.5549,43.8304,吉林市,江南公园,细颗粒物(PM2.5),73,70,74,53,53,89,,103,96,6,8,12,11,0.7,0.7
2026-02-21T2200,2868A,126.4737,43.953,吉林市,九站,细颗粒物(PM2.5),64,66,71,46,49,94,,110,104,8,9,11,10,0.6,0.6
2026-02-21T2200,1299A,116.9866,36.6118,济南市,科干所,颗粒物(PM10),80,110,97,56,39,94,,106,106,15,10,13,9,0.7,0.6
2026-02-21T2200,1300A,116.9379,36.6652,济南市,农科所,细颗粒物(PM2.5),90,112,96,67,48,86,,95,94,16,12,9,9,0.7,0.7
2026-02-21T2200,1301A,117.1265,36.6736,济南市,开发区,颗粒物(PM10),86,122,112,57,39,105,,110,110,16,11,8,6,0.6,0.5
2026-02-21T2200,1303A,117.0616,36.6865,济南市,省种子仓库,颗粒物(PM10),98,146,113,63,38,88,,102,100,23,11,14,7,1.0,0.7
2026-02-21T2200,1304A,116.9495185,36.644937,济南市,机床二厂,细颗粒物(PM2.5),82,105,93,60,41,89,,101,100,18,10,11,10,0.7,0.6
2026-02-21T2200,1305A,117.0496,36.6629,济南市,市监测站,细颗粒物(PM2.5),99,142,111,74,47,89,,108,107,26,13,8,6,0.7,0.6
2026-02-21T2200,1306A,116.7674,36.5458,济南市,长清党校,,,147,100,75,43,82,,104,102,19,18,12,7,,0.7
2026-02-21T2200,1961A,117.5323,36.6865,济南市,东山小学,颗粒物(PM10),81,112,106,50,39,104,,103,103,17,14,6,6,0.5,0.5
2026-02-21T2200,3059A,117.7181,36.205,济南市,泰兴公司,细颗粒物(PM2.5),114,163,88,86,53,20,,106,86,58,23,15,15,1.1,0.7
2026-02-21T2200,3064A,117.6861,36.2172,济南市,莱芜战役纪念馆,细颗粒物(PM2.5),77,95,78,56,45,88,,74,,13,13,12,11,0.8,0.7
2026-02-21T2200,3494A,117.1673,36.9782,济南市,济阳区政府,颗粒物(PM10),195,339,131,56,44,73,,89,87,13,10,12,11,0.4,0.4
2026-02-21T2200,3495A,117.1168,36.6299,济南市,锦屏中学,细颗粒物(PM2.5),79,105,114,58,40,101,,104,104,13,10,9,8,0.7,0.6
2026-02-21T2200,4108A,117.7107,36.2385,济南市,山财大街5号,细颗粒物(PM2.5),83,100,81,61,47,92,,109,106,22,17,18,16,1.0,0.9
2026-02-21T2200,4109A,116.9744,36.6889,济南市,无影山路12号,颗粒物(PM10),82,114,93,59,41,86,,96,95,18,12,10,8,0.8,0.6
2026-02-21T2200,1653A,116.6229,35.4288,济宁市,火炬城,细颗粒物(PM2.5),82,102,69,60,42,74,,100,97,14,9,9,7,0.8,0.7
2026-02-21T2200,3500A,116.5808,35.3703,济宁市,北湖一中,颗粒物(PM10),84,118,66,56,40,72,,102,98,15,8,18,12,0.8,0.7
2026-02-21T2200,3501A,116.8251,35.5592,济宁市,服务中心,细颗粒物(PM2.5),75,90,72,55,47,66,,93,88,20,12,10,6,0.5,0.5
2026-02-21T2200,3678A,116.5907,35.4054,济宁市,市第七中学,细颗粒物(PM2.5),84,112,71,62,44,82,,112,108,16,10,15,9,0.7,0.6
2026-02-21T2200,4111A,116.6075,35.4566,济宁市,任和路,颗粒物(PM10),77,104,71,53,41,90,,112,110,13,10,11,7,0.9,0.9
2026-02-21T2200,4112A,116.5648,35.3921,济宁市,文体南路1号,细颗粒物(PM2.5),104,139,76,78,43,70,,110,101,18,8,14,8,0.6,0.6
2026-02-21T2200,2255A,130.2749,46.8028,佳木斯市,佳纺,颗粒物(PM10),53,56,51,33,39,60,,75,68,20,15,8,9,0.6,0.6
2026-02-21T2200,2257A,130.3258,46.7975,佳木斯市,环保局,细颗粒物(PM2.5),63,68,53,45,40,59,,66,64,24,23,11,10,0.5,0.8
2026-02-21T2200,4285A,130.363,46.806,佳木斯市,顺和街,,45,44,39,31,32,75,,75,75,11,16,9,11,0.4,0.5
2026-02-21T2200,4286A,130.3952,46.8268,佳木斯市,长安路196号,,38,38,36,22,26,73,,78,75,6,11,8,7,0.4,0.4
2026-02-21T2200,1252A,120.7439,30.778,嘉兴市,清河小学,细颗粒物(PM2.5),83,86,45,61,24,53,,94,81,31,14,7,6,0.6,0.4
2026-02-21T2200,1253A,120.7261,30.7477,嘉兴市,嘉兴学院,,47,47,36,31,22,66,,97,89,25,12,6,6,0.7,0.5
2026-02-21T2200,2872A,120.7845,30.7524,嘉兴市,南湖区残联,,49,49,39,31,24,74,,97,91,24,12,6,5,0.5,0.4
2026-02-21T2200,3407A,120.6915,30.7741,嘉兴市,秀洲住建,,38,38,37,20,20,76,,101,95,24,14,9,8,0.7,0.6
2026-02-21T2200,1945A,98.291,39.7705,嘉峪关市,气象局,颗粒物(PM10),265,395,438,66,94,81,,86,86,7,4,6,10,0.4,0.4
2026-02-21T2200,2884A,98.2672,39.7978,嘉峪关市,酒钢宾馆,颗粒物(PM10),282,407,438,68,89,80,,91,85,6,4,9,17,0.4,0.5
2026-02-21T2200,3248A,98.2644,39.7723,嘉峪关市,雄关区,颗粒物(PM10),159,267,341,58,99,80,,86,86,11,9,8,10,0.5,0.5
2026-02-21T2200,1383A,113.1063,22.6058,江门市,北街,,36,27,40,25,34,89,,106,100,5,7,/,/,/,/
2026-02-21T2200,1384A,113.073,22.5835,江门市,西区,,45,45,44,27,33,94,,106,99,10,12,/,/,/,/
2026-02-21T2200,1385A,113.0218,22.531,江门市,圭峰西,,32,27,36,22,30,95,,102,96,4,8,/,/,/,/
2026-02-21T2200,1386A,113.0826,22.5947,江门市,东湖,,40,37,43,28,36,89,,106,100,8,9,6,7,0.5,0.6
2026-02-21T2200,3311A,113.1077,22.5647,江门市,江海富民,颗粒物(PM10),52,53,56,25,35,96,,112,106,13,14,/,/,0.4,0.5
2026-02-21T2200,3449A,113.0496,22.4669,江门市,新会银湖,,32,30,38,22,31,85,,106,99,11,12,7,7,0.5,0.5
2026-02-21T2200,3335A,113.3137,35.2643,焦作市,马村街道办,颗粒物(PM10),136,222,120,36,34,81,,90,89,6,14,7,12,0.4,0.5
2026-02-21T2200,3336A,113.2464,35.2374,焦作市,焦作技师学院,颗粒物(PM10),156,261,127,66,48,76,,85,84,10,21,6,12,0.3,0.6
2026-02-21T2200,3477A,113.1656,35.2536,焦作市,中站许衡医院,颗粒物(PM10),134,218,111,50,30,,,98,98,7,10,8,11,0.4,0.6
2026-02-21T2200,3981A,113.2456,35.18,焦作市,原李万街道办,颗粒物(PM10),142,234,124,50,42,84,,92,91,6,12,11,18,0.3,0.5
2026-02-21T2200,4264A,113.234,35.219,焦作市,新安路1731号,颗粒物(PM10),135,220,123,50,40,84,,94,93,8,15,8,13,0.6,0.8
2026-02-21T2200,4295A,113.2722,35.2121,焦作市,人民路3066号,颗粒物(PM10),137,224,124,54,40,90,,100,100,7,16,6,11,0.5,0.7
2026-02-21T2200,1708A,116.3701,23.5345,揭阳市,新兴,细颗粒物(PM2.5),55,53,59,39,45,83,,105,96,15,15,9,8,1.1,0.8
2026-02-21T2200,1709A,116.3261,23.5442,揭阳市,西马,细颗粒物(PM2.5),54,51,63,38,43,79,,109,97,12,10,6,6,1.0,0.8
2026-02-21T2200,1710A,116.361,23.5627,揭阳市,东兴,细颗粒物(PM2.5),52,37,54,36,42,83,,109,98,13,12,6,4,/,/
2026-02-21T2200,1711A,116.4151,23.5295,揭阳市,渔湖,细颗粒物(PM2.5),59,,58,42,44,96,,120,110,12,13,6,5,/,/
2026-02-21T2200,3320A,116.4028,23.5699,揭阳市,曲溪,细颗粒物(PM2.5),59,58,54,42,41,90,,124,111,13,13,4,3,1.2,0.9
2026-02-21T2200,1944A,102.1691,38.5166,金昌市,天庆家园,颗粒物(PM10),496,596,719,126,150,100,,98,98,4,6,5,14,0.5,0.5
2026-02-21T2200,4022A,102.1648,38.5369,金昌市,金川区人防中心,颗粒物(PM10),438,538,707,121,149,95,,94,94,2,3,6,13,0.3,0.4
2026-02-21T2200,4239A,102.193042,38.531887,金昌市,长春路96号,颗粒物(PM10),426,526,658,106,138,89,,88,88,4,6,5,11,0.4,0.4
2026-02-21T2200,1262A,119.6478,29.0773,金华市,十五中,细颗粒物(PM2.5),68,62,30,49,21,38,,100,81,27,8,4,3,0.9,0.7
2026-02-21T2200,1263A,119.6859,29.1032,金华市,监测站,,26,26,28,15,17,49,,78,71,10,10,2,2,0.5,0.6
2026-02-21T2200,3659A,119.656,29.1132,金华市,气象局,,47,47,34,32,24,36,,80,64,22,16,2,2,0.8,0.8
2026-02-21T2200,1767A,121.1114,41.0879,锦州市,南山,细颗粒物(PM2.5),127,114,85,96,72,46,,91,77,32,19,13,18,1.6,1
2026-02-21T2200,1768A,121.060361,40.842794,锦州市,开发区,细颗粒物(PM2.5),125,118,94,95,72,45,,84,77,41,21,14,9,1.2,0.9
2026-02-21T2200,1769A,121.1836,41.1118,锦州市,百股街道,细颗粒物(PM2.5),178,153,90,134,82,49,,90,79,37,22,13,11,1.5,1.1
2026-02-21T2200,1770A,121.1176,41.1224,锦州市,天安街道,细颗粒物(PM2.5),160,150,93,122,79,42,,87,73,36,21,18,14,1.8,1.3
2026-02-21T2200,1771A,121.1303,41.1385,锦州市,北湖公园,细颗粒物(PM2.5),137,125,91,104,75,51,,91,79,30,20,12,14,1.1,0.9
2026-02-21T2200,2160A,112.8496,35.5051,晋城市,自来水公司,细颗粒物(PM2.5),200,347,162,150,53,48,,82,75,24,19,20,14,0.5,0.9
2026-02-21T2200,2162A,112.8509,35.4886,晋城市,市环保局,颗粒物(PM10),145,239,149,101,67,31,,94,81,41,24,10,13,0.5,0.7
2026-02-21T2200,3620A,112.8258,35.4804,晋城市,泽州一中,颗粒物(PM10),143,235,144,51,44,70,,95,92,15,13,4,8,0.5,0.9
2026-02-21T2200,4078A,112.8246,35.5152,晋城市,前书院路,颗粒物(PM10),155,260,150,47,36,52,,83,74,17,15,8,12,0.3,0.7
2026-02-21T2200,4079A,112.8864,35.4773,晋城市,祥云街666号,细颗粒物(PM2.5),165,278,150,125,52,62,,94,88,19,12,14,17,0.3,0.7
2026-02-21T2200,2174A,112.6992,37.6984,晋中市,榆次区政府,颗粒物(PM10),500,649,349,106,88,85,,90,89,7,20,8,27,0.2,0.7
2026-02-21T2200,2865A,112.7195,37.683,晋中市,榆次三中,颗粒物(PM10),500,940,424,77,66,91,,94,93,2,15,8,27,0.0,0.6
2026-02-21T2200,4080A,112.7375,37.7215,晋中市,广安街188号,颗粒物(PM10),500,785,341,94,74,95,,96,95,3,15,8,26,0.0,0.6
2026-02-21T2200,4200A,112.7478,37.6954,晋中市,迎宾街26号,颗粒物(PM10),500,620,374,85,91,86,,89,88,6,16,8,32,0.3,0.7
2026-02-21T2200,2439A,112.2012,31.048,荆门市,竹园小学,细颗粒物(PM2.5),74,92,56,54,42,53,,88,80,33,15,2,2,2.6,1.7
2026-02-21T2200,2440A,112.1968,30.9892,荆门市,掇刀,细颗粒物(PM2.5),80,93,57,59,46,31,,91,80,36,13,6,5,1.2,0.8
2026-02-21T2200,3012A,112.1849,31.0361,荆门市,西山林语,细颗粒物(PM2.5),64,67,51,46,38,55,,88,82,16,10,4,3,0.9,0.8
2026-02-21T2200,3547A,112.1631,31.0134,荆门市,龙泉中学南校,,,,,,,,,,,,,,,,
2026-02-21T2200,4124A,112.2213,31.0654,荆门市,新台西路6号,细颗粒物(PM2.5),93,87,60,69,48,46,,92,83,40,14,11,10,1.0,0.8
2026-02-21T2200,1844A,112.2493,30.3198,荆州市,市图书馆,细颗粒物(PM2.5),64,60,41,46,34,41,,88,81,34,11,8,7,1.1,0.9
2026-02-21T2200,1845A,112.2009,30.3543,荆州市,市委党校,颗粒物(PM10),58,65,46,36,35,35,,74,68,38,20,8,6,0.9,0.7
2026-02-21T2200,3194A,112.2749,30.3124,荆州市,管委会,细颗粒物(PM2.5),58,48,41,41,32,41,,80,72,28,12,10,9,0.9,0.8
2026-02-21T2200,4268A,112.1722,30.3366,荆州市,学苑路85号,细颗粒物(PM2.5),64,52,42,46,36,64,,88,84,15,10,1,2,0.4,0.3
2026-02-21T2200,2343A,117.2114,29.2931,景德镇市,老干部活动中心,细颗粒物(PM2.5),75,91,38,55,31,23,,79,61,21,12,5,6,1.0,0.9
2026-02-21T2200,2344A,117.1893,29.2789,景德镇市,兽医站,细颗粒物(PM2.5),120,108,46,91,30,16,,81,66,33,14,5,4,1.1,0.7
2026-02-21T2200,2346A,117.246,29.2958,景德镇市,陶研所,细颗粒物(PM2.5),57,48,30,40,25,23,,82,65,17,9,4,4,0.8,0.7
2026-02-21T2200,4289A,117.154766,29.256967,景德镇市,青少年活动中心,颗粒物(PM10),65,80,42,46,30,22,,80,62,23,14,5,5,/,/
2026-02-21T2200,1803A,115.9873,29.6816,九江市,十里,细颗粒物(PM2.5),83,91,38,61,32,16,,70,56,40,15,9,7,1.3,1
2026-02-21T2200,1804A,115.9583,29.7047,九江市,茅山头,细颗粒物(PM2.5),63,47,35,45,30,39,,79,68,34,18,6,5,0.9,0.7
2026-02-21T2200,1805A,115.9877,29.7295,九江市,西园,颗粒物(PM10),64,78,38,39,26,28,,73,65,67,24,4,4,0.9,0.7
2026-02-21T2200,1808A,115.9112,29.6038,九江市,综合工业园,,42,42,27,15,20,60,,82,79,25,19,6,6,0.6,0.7
2026-02-21T2200,3190A,116.0254,29.6995,九江市,外国语学校,细颗粒物(PM2.5),58,54,31,41,27,36,,64,59,30,13,8,6,0.5,0.8
2026-02-21T2200,4253A,116.010205,29.659402,九江市,莲花大道8号,颗粒物(PM10),51,52,32,24,23,32,,64,57,21,11,4,4,0.6,0.6
2026-02-21T2200,4240A,98.495752,39.733935,酒泉市,玉门东路5号,颗粒物(PM10),500,674,511,104,108,76,,81,80,4,3,9,10,0.4,0.3
2026-02-21T2200,4241A,98.5099,39.7506,酒泉市,北大街108号,颗粒物(PM10),500,671,551,108,122,74,,79,78,3,3,9,10,0.3,0.3
2026-02-21T2200,2698A,76.0071,39.466,喀什地区,巡警大队,颗粒物(PM10),238,376,294,35,85,85,,104,103,5,23,3,8,0.3,1
2026-02-21T2200,2699A,75.9756,39.4693,喀什地区,吾办,颗粒物(PM10),215,360,268,46,90,91,,102,102,5,31,6,8,0.3,1.1
2026-02-21T2200,4027A,75.9485,39.4688,喀什地区,老干局,颗粒物(PM10),272,400,248,28,72,91,,105,104,4,18,2,7,0.2,0.9
2026-02-21T2200,1824A,114.3389,34.778,开封市,肿瘤医院,颗粒物(PM10),129,208,100,45,50,83,,104,99,17,13,8,9,0.4,0.6
2026-02-21T2200,1826A,114.2884,34.7966,开封市,世纪星幼儿园,颗粒物(PM10),119,188,101,42,47,74,,96,90,21,14,8,8,0.5,0.6
2026-02-21T2200,3147A,114.3434,34.8101,开封市,龙亭公园,颗粒物(PM10),128,205,107,32,42,80,,99,94,21,17,8,11,0.4,0.6
2026-02-21T2200,3210A,114.3645,34.7955,开封市,汴京公园,颗粒物(PM10),123,196,101,31,40,80,,97,93,19,15,5,7,0.1,0.4
2026-02-21T2200,3473A,114.2485,34.8306,开封市,技师学院,颗粒物(PM10),109,168,96,48,42,56,,77,72,17,12,8,8,0.4,0.6
2026-02-21T2200,3592A,114.4518,34.7503,开封市,祥符区生态环境局,颗粒物(PM10),112,173,86,43,46,79,,102,97,13,11,5,7,0.4,0.6
2026-02-21T2200,1951A,84.886,45.6029,克拉玛依市,长征新村,,25,18,35,13,12,79,,84,80,3,3,5,5,0.4,0.4
2026-02-21T2200,1952A,84.8894,45.5827,克拉玛依市,南林小区,,27,19,41,7,6,85,,88,85,2,2,2,2,0.5,0.5
2026-02-21T2200,1954A,84.896,44.3328,克拉玛依市,独山子区,颗粒物(PM10),69,87,74,32,34,64,,85,67,11,11,3,4,0.7,0.7
2026-02-21T2200,1955A,85.6888,46.0909,克拉玛依市,乌尔禾区商贸楼,,26,26,37,6,8,65,,78,75,11,7,9,7,0.6,0.5
2026-02-21T2200,3612A,85.1045,45.6895,克拉玛依市,白碱滩区新站,,26,22,40,6,5,82,,85,82,9,10,8,9,0.2,0.2
2026-02-21T2200,2697A,76.1457,39.7143,克孜勒苏柯尔克孜自治州,市人民政府,颗粒物(PM10),500,732,304,26,73,101,,117,117,2,8,3,4,0.1,0.4
2026-02-21T2200,3665A,76.1654,39.7157,克孜勒苏柯尔克孜自治州,克州文化中心,颗粒物(PM10),139,228,268,20,69,98,,110,106,2,8,4,6,0.2,0.5
2026-02-21T2200,1450A,102.8203,24.889,昆明市,呈贡新区,,,39,28,30,14,,,108,108,9,5,7,8,0.5,0.5
2026-02-21T2200,1452A,102.7253,25.0904,昆明市,龙泉镇,颗粒物(PM10),53,56,24,36,15,55,,100,94,22,6,5,5,0.4,0.3
2026-02-21T2200,1453A,102.7267,25.0378,昆明市,东风东路,,38,32,20,26,13,79,,103,99,15,8,10,8,0.4,0.4
2026-02-21T2200,1454A,102.6744,25.0671,昆明市,金鼎山,,49,46,24,34,12,79,,104,100,14,4,17,5,0.7,0.5
2026-02-21T2200,1455A,102.6643,25.0401,昆明市,碧鸡广场,,45,,16,31,14,78,,105,100,16,7,9,6,0.5,0.4
2026-02-21T2200,3179A,102.7491,25.012,昆明市,官渡区博物馆,,36,30,21,25,11,86,,101,98,12,7,6,4,0.2,0.2
2026-02-21T2200,3375A,102.8016,24.8336,昆明市,青年创业园,,34,34,21,21,15,91,,100,99,4,4,6,6,0.5,0.5
2026-02-21T2200,3550A,102.8,24.9787,昆明市,昆明学院,,32,26,18,22,10,92,,106,105,6,4,6,5,0.4,0.3
2026-02-21T2200,3551A,102.5969,24.6738,昆明市,晋宁区生态环境分局,细颗粒物(PM2.5),79,60,20,58,13,73,,98,95,12,2,4,2,0.4,0.3
2026-02-21T2200,3552A,102.6673,24.9861,昆明市,云天化总部,,,21,17,18,12,95,,104,103,6,6,7,8,,0.3
2026-02-21T2200,1456A,91.132,29.6515,拉萨市,八廓街,,38,16,15,7,8,120,,133,133,12,7,9,7,0.6,0.5
2026-02-21T2200,1457A,91.1221,29.6748,拉萨市,市环保局,,32,29,19,22,8,80,,124,120,31,11,9,7,1.0,0.5
2026-02-21T2200,1458A,91.0874,29.6476,拉萨市,区监测站,,35,13,11,7,7,111,,125,124,15,9,5,4,0.6,0.5
2026-02-21T2200,1459A,91.1774,29.6541,拉萨市,西藏大学,,36,21,14,19,8,113,,129,128,18,8,6,4,1.0,0.5
2026-02-21T2200,1460A,90.9798,29.6586,拉萨市,区辐射站,,36,28,16,25,9,88,,122,119,29,9,5,4,0.6,0.3
2026-02-21T2200,1461A,91.0831,29.6292,拉萨市,拉萨火车站,,36,16,12,7,7,114,,125,125,9,11,5,4,0.4,0.4
2026-02-21T2200,2520A,109.2203,23.7252,来宾市,来宾技工学校,细颗粒物(PM2.5),99,82,89,74,72,46,,72,63,15,17,8,10,0.8,0.8
2026-02-21T2200,3535A,109.1781,23.7293,来宾市,兴宾区政府,细颗粒物(PM2.5),92,68,90,68,71,55,,84,74,14,11,6,9,0.9,0.9
2026-02-21T2200,4002A,109.2312,23.7428,来宾市,中南小学,细颗粒物(PM2.5),118,,103,89,92,36,,66,56,21,21,5,6,1.0,1
2026-02-21T2200,1479A,103.8309,36.0467,兰州市,铁路设计院,,,,,,,,,,,,,,,,
2026-02-21T2200,3241A,103.7439,36.0841,兰州市,百合公园,颗粒物(PM10),476,576,222,155,75,71,,81,80,7,31,5,9,0.4,0.8
2026-02-21T2200,3242A,103.9613,35.9985,兰州市,和平,颗粒物(PM10),497,597,240,134,70,77,,88,87,6,9,8,12,0.4,0.7
2026-02-21T2200,4236A,103.629272,36.093822,兰州市,庄浪东路808号,颗粒物(PM10),498,598,250,170,81,66,,85,82,14,22,10,20,0.4,0.6
2026-02-21T2200,4237A,103.7251,36.104344,兰州市,安宁西路88号,颗粒物(PM10),500,627,269,157,74,79,,91,90,6,25,5,13,0.3,0.5
2026-02-21T2200,4238A,103.846982,36.067567,兰州市,北滨河东路1号,颗粒物(PM10),466,566,244,159,78,77,,88,87,13,32,7,12,0.5,1.1
2026-02-21T2200,1067A,116.6712,39.5109,廊坊市,药材公司,颗粒物(PM10),218,362,267,28,111,81,,109,100,2,28,3,10,0.3,1
2026-02-21T2200,1068A,116.7215,39.5592,廊坊市,开发区,颗粒物(PM10),174,298,276,31,108,86,,118,109,1,27,3,9,0.2,0.9
2026-02-21T2200,1070A,116.7246,39.5273,廊坊市,北华航天学院,颗粒物(PM10),215,360,253,19,109,83,,114,105,2,28,3,13,0.2,0.9
2026-02-21T2200,2919A,116.7022,39.5454,廊坊市,河北工业大学,颗粒物(PM10),220,364,265,28,109,82,,112,103,2,24,3,11,0.2,1
2026-02-21T2200,2536A,103.7629,29.5844,乐山市,牛耳桥,细颗粒物(PM2.5),90,97,74,67,52,17,,103,78,58,27,6,6,1.1,0.9
2026-02-21T2200,2537A,103.7501,29.6002,乐山市,市第三水厂,细颗粒物(PM2.5),89,85,67,66,51,20,,107,86,60,27,5,5,1.4,0.9
2026-02-21T2200,2538A,103.7571,29.5664,乐山市,市监测站,细颗粒物(PM2.5),75,72,67,55,52,60,,106,100,38,22,7,7,0.9,1
2026-02-21T2200,3361A,103.7313,29.563,乐山市,理工大学,细颗粒物(PM2.5),74,64,64,54,50,87,,111,109,14,16,5,5,0.9,0.9
2026-02-21T2200,2599A,100.2497,26.8802,丽江市,丽江古城,细颗粒物(PM2.5),57,42,29,40,17,111,,107,107,17,11,7,6,0.7,0.6
2026-02-21T2200,2600A,100.2203,26.8906,丽江市,市中心,,50,,20,35,17,115,,112,112,21,10,6,5,0.5,0.5
2026-02-21T2200,1267A,119.9141,28.4513,丽水市,监测站大楼,颗粒物(PM10),52,53,27,32,18,15,,71,46,30,13,5,4,0.7,0.4
2026-02-21T2200,1268A,119.93,28.4589,丽水市,莲都小学,,37,37,22,23,14,32,,76,60,18,11,/,/,/,/
2026-02-21T2200,1269A,119.8794,28.4232,丽水市,余庄前,,29,29,16,20,9,22,,73,54,8,6,4,4,0.6,0.4
2026-02-21T2200,1173A,119.1759,34.5885,连云港市,市环境监测站,颗粒物(PM10),58,66,49,39,33,73,,95,90,21,15,8,8,0.4,0.4
2026-02-21T2200,3000A,119.3577,34.6971,连云港市,德源药业,颗粒物(PM10),51,51,51,31,30,83,,98,95,10,8,6,6,0.7,0.7
2026-02-21T2200,3007A,119.178,34.8442,连云港市,新城一中,细颗粒物(PM2.5),83,76,64,61,42,71,,108,103,28,18,12,10,0.7,0.7
2026-02-21T2200,3008A,119.3607,34.7519,连云港市,胡沟管理处,,44,44,43,27,25,96,,103,103,14,10,13,11,0.9,0.8
2026-02-21T2200,3009A,119.1478,34.5913,连云港市,矿山设计院,颗粒物(PM10),52,53,48,27,26,85,,95,94,18,16,7,7,0.5,0.7
2026-02-21T2200,3434A,119.2414,34.6539,连云港市,工贸学校,细颗粒物(PM2.5),63,65,54,45,37,84,,99,96,18,16,12,11,0.6,0.4
2026-02-21T2200,3664A,119.4171,34.734,连云港市,连云街道,颗粒物(PM10),54,57,60,28,31,106,,106,106,10,12,7,6,0.7,0.7
2026-02-21T2200,2573A,102.2629,27.8981,凉山彝族自治州,西昌市政府,,32,26,30,22,33,84,,112,106,5,8,8,11,0.4,0.6
2026-02-21T2200,2574A,102.2686,27.885,凉山彝族自治州,凉山州政府,,28,28,32,18,27,65,,99,90,10,10,10,12,0.4,0.6
2026-02-21T2200,4229A,102.2342,27.8859,凉山彝族自治州,凯乐南路30号,,48,48,39,32,26,66,,104,95,21,19,11,13,0.6,0.6
2026-02-21T2200,2212A,123.1978,41.2036,辽阳市,宏伟区,细颗粒物(PM2.5),59,60,70,42,52,98,,99,98,7,8,7,7,0.6,0.8
2026-02-21T2200,2213A,123.1684,41.2497,辽阳市,新华园,"颗粒物(PM10),细颗粒物(PM2.5)",58,66,71,41,51,95,,98,96,10,9,9,8,0.7,0.7
2026-02-21T2200,2214A,123.2355,41.2663,辽阳市,滨河路,"颗粒物(PM10),细颗粒物(PM2.5)",55,59,67,39,50,86,,94,92,10,6,6,11,0.8,0.8
2026-02-21T2200,4083A,123.153,41.2874,辽阳市,铁西路150号,细颗粒物(PM2.5),58,64,69,41,51,79,,84,81,9,9,9,9,0.8,0.8
2026-02-21T2200,2227A,125.1359,42.8845,辽源市,环保局,细颗粒物(PM2.5),77,71,59,56,48,82,,105,96,14,7,9,6,0.8,0.7
2026-02-21T2200,4085A,125.0998,42.9134,辽源市,安宁大街333号,细颗粒物(PM2.5),74,62,79,54,51,86,,102,93,9,9,5,10,0.6,0.6
2026-02-21T2200,1625A,115.9789,36.4372,聊城市,区政府,颗粒物(PM10),184,318,116,31,45,70,,92,89,8,10,14,17,0.6,0.8
2026-02-21T2200,3200A,115.9772,36.4986,聊城市,监控中心,颗粒物(PM10),329,443,138,42,47,76,,102,99,12,14,12,14,0.5,0.6
2026-02-21T2200,3513A,116.0443,36.436,聊城市,九州社区,颗粒物(PM10),270,399,124,39,47,83,,106,103,5,6,2,5,0.6,0.6
2026-02-21T2200,4018A,116.0564,36.4609,聊城市,星美广场,颗粒物(PM10),219,363,123,43,49,71,,96,93,6,7,4,6,0.6,0.7
2026-02-21T2200,4113A,116.0091,36.4495,聊城市,利民路,颗粒物(PM10),199,348,116,42,46,74,,102,98,11,12,11,11,0.6,0.7
2026-02-21T2200,2632A,94.3683,29.6373,林芝市,林芝监测站,,38,16,13,16,13,119,,115,115,1,1,5,4,0.3,0.4
2026-02-21T2200,2633A,94.3616,29.6634,林芝市,林芝人民医院,,37,,16,17,13,118,,114,114,1,1,5,5,0.1,0.3
2026-02-21T2200,2603A,100.0779,23.8981,临沧市,市环保局,细颗粒物(PM2.5),82,,31,60,24,68,,97,91,10,6,7,6,0.8,0.7
2026-02-21T2200,2604A,100.0894,23.882,临沧市,市气象局,细颗粒物(PM2.5),57,49,35,40,23,73,,95,93,10,6,8,7,0.6,0.5
2026-02-21T2200,1733A,111.5552,36.0791,临汾市,临钢医院,颗粒物(PM10),215,360,184,59,61,90,,93,91,11,17,6,7,0.5,0.8
2026-02-21T2200,1734A,111.4984,36.0734,临汾市,技工学校,颗粒物(PM10),200,350,195,81,80,88,,87,86,11,20,4,10,0.0,0.6
2026-02-21T2200,1736A,111.5017,36.0857,临汾市,市委,颗粒物(PM10),218,362,197,44,66,89,,89,88,6,19,4,9,0.3,0.8
2026-02-21T2200,3018A,111.5048,36.1015,临汾市,唐尧大酒店,颗粒物(PM10),196,341,188,53,68,90,,92,91,7,18,4,9,0.4,0.9
2026-02-21T2200,4244A,111.4879,36.053,临汾市,启星学校,颗粒物(PM10),194,337,188,70,76,76,,86,82,14,24,6,10,0.4,0.9
2026-02-21T2200,4271A,103.2464,35.6123,临夏回族自治州,滨河东路1号,颗粒物(PM10),296,417,132,156,59,53,,88,80,8,13,11,12,0.4,1
2026-02-21T2200,4310A,103.207136,35.599807,临夏回族自治州,新华街21号,颗粒物(PM10),500,633,144,108,54,59,,78,72,2,13,10,13,0.3,1
2026-02-21T2200,1618A,118.3429,35.0532,临沂市,沂河小区,细颗粒物(PM2.5),85,107,68,63,42,71,,98,94,23,13,20,14,0.6,0.5
2026-02-21T2200,1619A,118.2962,35.0568,临沂市,鲁南制药厂,细颗粒物(PM2.5),100,107,65,75,45,69,,99,95,28,20,28,16,0.7,0.5
2026-02-21T2200,1620A,118.2793,34.9976,临沂市,新光毛纺厂,细颗粒物(PM2.5),84,102,60,62,48,69,,102,98,28,17,22,12,0.8,0.7
2026-02-21T2200,1621A,118.3955,35.0889,临沂市,河东保险公司,细颗粒物(PM2.5),80,100,65,59,43,79,,108,105,31,18,20,14,0.8,0.6
2026-02-21T2200,3370A,118.3563,35.0215,临沂市,十里堡居委,细颗粒物(PM2.5),79,100,62,58,41,64,,102,96,32,18,28,14,1.0,0.8
2026-02-21T2200,3496A,118.359,35.1067,临沂市,南坊新区,细颗粒物(PM2.5),70,85,66,51,43,89,,112,110,26,16,18,12,0.8,0.6
2026-02-21T2200,3860A,118.3915,35.0297,临沂市,皇山花园小区,细颗粒物(PM2.5),79,97,62,58,44,76,,109,106,25,17,24,17,0.9,0.8
2026-02-21T2200,1870A,109.4854,24.3898,柳州市,柳东小学,细颗粒物(PM2.5),226,,72,176,72,37,,52,50,27,16,12,6,1.3,0.9
2026-02-21T2200,1871A,109.4109,24.3304,柳州市,环保监测站,细颗粒物(PM2.5),166,144,97,126,82,10,,50,40,47,33,5,5,1.6,1.3
2026-02-21T2200,1872A,109.3886,24.3408,柳州市,河西水厂,细颗粒物(PM2.5),166,163,115,126,98,18,,57,49,32,26,9,8,1.3,1.1
2026-02-21T2200,1873A,109.4263,24.2951,柳州市,市四中,细颗粒物(PM2.5),166,137,100,126,94,2,,50,39,64,31,10,8,2.1,1.5
2026-02-21T2200,1874A,109.396,24.3658,柳州市,市九中,细颗粒物(PM2.5),169,182,100,128,82,3,,54,40,46,24,8,7,1.6,1
2026-02-21T2200,1875A,109.4912,24.3164,柳州市,古亭山,细颗粒物(PM2.5),152,143,72,116,72,14,,52,42,23,22,7,7,1.3,1
2026-02-21T2200,3402A,109.5422,24.3994,柳州市,市二中,细颗粒物(PM2.5),209,186,85,159,78,23,,50,45,29,20,7,6,1.1,0.8
2026-02-21T2200,2307A,116.5078,31.7369,六安市,监测大楼,,50,43,34,35,26,64,,86,81,14,10,5,4,0.7,0.5
2026-02-21T2200,2308A,116.4738,31.7642,六安市,皖西学院,颗粒物(PM10),61,72,31,41,23,55,,94,86,22,9,6,5,0.6,0.4
2026-02-21T2200,2309A,116.4997,31.7904,六安市,朝阳厂,细颗粒物(PM2.5),54,48,32,38,28,59,,86,80,24,13,6,5,0.6,0.5
2026-02-21T2200,2310A,116.5566,31.7885,六安市,开发区,细颗粒物(PM2.5),58,50,28,41,28,59,,96,88,11,6,6,5,0.7,0.6
2026-02-21T2200,2577A,104.8293,26.592,六盘水市,黄土坡,,45,33,32,31,25,84,,100,98,14,12,12,10,0.6,0.7
2026-02-21T2200,2579A,104.8481,26.5898,六盘水市,民中,细颗粒物(PM2.5),53,46,39,37,30,78,,97,92,14,12,8,7,0.6,0.7
2026-02-21T2200,2580A,104.9541,26.5506,六盘水市,双水,,44,44,34,24,21,81,,99,97,9,8,7,6,0.6,0.6
2026-02-21T2200,4151A,104.8899,26.5685,六盘水市,钟山大道中段564号,,38,38,40,26,25,83,,96,94,9,9,9,10,0.5,0.7
2026-02-21T2200,2336A,117.022,25.1031,龙岩市,龙岩市监测站,颗粒物(PM10),59,67,29,32,22,90,,96,93,7,7,8,7,0.7,0.7
2026-02-21T2200,2337A,117.0257,25.0662,龙岩市,闽西职业技术学院,,39,35,29,27,23,90,,96,94,4,4,5,5,0.6,0.5
2026-02-21T2200,2338A,117.0195,25.0306,龙岩市,龙岩学院,,40,,28,28,20,68,,98,90,8,5,4,4,/,/
2026-02-21T2200,2885A,104.9344,33.3827,陇南市,滨江中学,颗粒物(PM10),90,129,73,61,36,29,,84,74,47,22,14,8,2.1,1.1
2026-02-21T2200,3247A,104.9551,33.3709,陇南市,市总工会,颗粒物(PM10),80,110,62,47,29,61,,86,83,15,13,4,4,0.7,0.7
2026-02-21T2200,2488A,111.9984,27.7346,娄底市,市监测站,颗粒物(PM10),53,56,49,36,36,50,,69,66,17,18,4,4,0.6,0.7
2026-02-21T2200,2491A,111.9888,27.7035,娄底市,市政府,颗粒物(PM10),51,52,38,35,28,47,,68,65,15,12,3,3,0.4,0.5
2026-02-21T2200,4127A,111.9812,27.7591,娄底市,涟钢职大,细颗粒物(PM2.5),72,55,48,52,33,49,,73,68,15,16,2,6,0.8,1
2026-02-21T2200,4128A,112.0303,27.7457,娄底市,娄底体校,细颗粒物(PM2.5),63,61,40,45,33,21,,60,53,19,4,2,2,1.3,0.7
2026-02-21T2200,1894A,105.4427,28.9063,泸州市,小市上码头,细颗粒物(PM2.5),69,65,66,50,49,80,,128,123,27,15,7,5,0.6,0.8
2026-02-21T2200,1895A,105.4241,28.8573,泸州市,兰田宪桥,细颗粒物(PM2.5),88,83,78,65,55,40,,115,104,36,14,12,11,0.7,0.6
2026-02-21T2200,1896A,105.4378,28.8833,泸州市,市环监站,细颗粒物(PM2.5),77,76,76,56,56,67,,123,118,39,16,11,11,0.7,0.6
2026-02-21T2200,4272A,105.3689,28.7783,泸州市,纳溪中医医院,细颗粒物(PM2.5),95,103,76,71,54,33,,118,102,33,15,7,8,1.1,0.7
2026-02-21T2200,2183A,111.1447,37.5212,吕梁市,环保局,颗粒物(PM10),461,561,320,120,65,84,,88,88,2,9,2,4,0.1,0
2026-02-21T2200,2185A,111.1285,37.5338,吕梁市,自来水公司,颗粒物(PM10),479,579,343,78,60,92,,96,96,2,15,3,9,0.2,0.3
2026-02-21T2200,2867A,111.1225,37.5093,吕梁市,马茂庄小学,颗粒物(PM10),500,646,353,114,67,82,,87,87,3,16,2,7,0.1,0.2
2026-02-21T2200,1812A,112.3934,34.6517,洛阳市,市委党校,颗粒物(PM10),148,245,121,102,52,31,,93,80,52,21,13,11,1.1,0.8
2026-02-21T2200,1815A,112.494,34.6883,洛阳市,河南林校,颗粒物(PM10),154,257,137,83,49,41,,102,92,51,24,16,17,0.7,0.6
2026-02-21T2200,1816A,112.3843,34.623,洛阳市,开发区管委会,颗粒物(PM10),170,290,145,87,47,60,,96,89,25,15,14,14,0.6,0.5
2026-02-21T2200,1817A,112.4263,34.6249,洛阳市,市委新办公区,颗粒物(PM10),161,272,130,78,49,69,,102,95,22,15,13,12,0.6,0.5
2026-02-21T2200,3340A,112.6005,34.6323,洛阳市,伊滨,颗粒物(PM10),153,256,128,78,50,69,,100,94,18,14,11,12,0.8,0.7
2026-02-21T2200,3341A,112.495,34.6338,洛阳市,中移产业园,颗粒物(PM10),155,260,131,88,54,63,,98,91,31,15,19,13,0.9,0.8
2026-02-21T2200,3593A,112.5736,34.8993,洛阳市,吉利监测站,颗粒物(PM10),153,256,114,85,38,73,,99,94,21,12,12,10,0.8,0.6
2026-02-21T2200,3635A,112.3678,34.6623,洛阳市,河科大西苑校区,颗粒物(PM10),163,275,143,119,65,45,,102,90,41,25,14,14,0.9,0.9
2026-02-21T2200,3636A,112.4387,34.678,洛阳市,英才小学,颗粒物(PM10),170,289,150,122,62,42,,102,92,55,30,20,17,0.9,0.9
2026-02-21T2200,4214A,112.460027,34.694929,洛阳市,春都路1号院,颗粒物(PM10),176,302,158,95,57,47,,94,86,40,27,15,16,0.9,0.8
2026-02-21T2200,2399A,114.051,33.5721,漯河市,三五一五工厂,细颗粒物(PM2.5),87,102,61,64,46,71,,93,85,17,14,6,6,0.9,0.8
2026-02-21T2200,2400A,114.0055,33.5698,漯河市,漯河大学,细颗粒物(PM2.5),78,70,53,57,46,72,,92,85,17,14,7,7,0.7,0.6
2026-02-21T2200,2401A,114.0134,33.5826,漯河市,市水利局,细颗粒物(PM2.5),89,70,55,66,43,80,,96,90,14,12,7,7,0.7,0.6
2026-02-21T2200,2402A,114.0261,33.5697,漯河市,市广电局,细颗粒物(PM2.5),112,,50,84,42,68,,86,81,13,10,8,8,0.7,0.6
2026-02-21T2200,3478A,113.9691,33.568,漯河市,市图书馆,细颗粒物(PM2.5),77,86,59,56,39,68,,86,82,14,10,8,8,0.7,0.6
2026-02-21T2200,4250A,114.089259,33.588274,漯河市,韶山路11号,细颗粒物(PM2.5),69,66,62,50,37,77,,96,90,17,14,9,8,0.7,0.7
2026-02-21T2200,1798A,118.5084,31.6838,马鞍山市,湖东路四小,,50,50,48,26,27,55,,93,82,26,20,15,9,0.9,0.8
2026-02-21T2200,1799A,118.5019,31.6449,马鞍山市,开发区,,42,42,51,26,29,51,,97,85,33,22,12,8,1.1,0.8
2026-02-21T2200,3633A,118.4914,31.681,马鞍山市,雨山,颗粒物(PM10),52,54,54,30,29,48,,95,80,32,21,15,7,1.0,0.9
2026-02-21T2200,4191A,118.527362,31.722269,马鞍山市,慈湖高新区,,44,44,46,26,26,64,,97,87,22,20,13,9,0.5,0.7
2026-02-21T2200,1686A,111.0285,21.469,茂名市,电白南海,,46,46,45,21,28,70,,90,84,8,9,6,5,0.7,0.8
2026-02-21T2200,1687A,110.9294,21.6533,茂名市,茂石化七小,,34,34,49,21,37,68,,93,84,13,13,5,8,0.6,0.7
2026-02-21T2200,1688A,110.9108,21.6688,茂名市,健康路,,28,27,40,19,33,78,,104,95,9,10,4,6,0.7,0.8
2026-02-21T2200,1689A,110.8592,21.6826,茂名市,高岭,,36,36,52,17,33,74,,99,91,11,13,5,3,/,/
2026-02-21T2200,3450A,111.0101,21.5165,茂名市,电白水东,,27,27,37,16,28,78,,98,91,16,15,3,4,/,/
2026-02-21T2200,2540A,103.8414,30.0871,眉山市,气象局,细颗粒物(PM2.5),78,91,67,57,55,64,,130,120,22,18,6,6,0.6,0.5
2026-02-21T2200,3148A,103.829,30.0563,眉山市,区人社局,细颗粒物(PM2.5),90,94,74,67,54,40,,115,99,76,32,10,13,1.4,0.9
2026-02-21T2200,4148A,103.8836,30.0695,眉山市,眉职院,细颗粒物(PM2.5),68,80,77,49,52,55,,116,103,25,17,6,6,0.8,0.7
2026-02-21T2200,1690A,116.1248,24.3307,梅州市,梅江月梅,细颗粒物(PM2.5),64,47,39,46,34,95,,100,99,17,11,/,/,/,/
2026-02-21T2200,1691A,116.0798,24.2719,梅州市,梅县新城,细颗粒物(PM2.5),67,66,46,48,35,84,,97,92,14,12,9,8,0.7,0.8
2026-02-21T2200,3315A,116.1234,24.2994,梅州市,梅龙,细颗粒物(PM2.5),64,61,43,46,37,86,,93,91,14,10,9,8,1.0,0.7
2026-02-21T2200,1878A,104.7775,31.4741,绵阳市,富乐山,细颗粒物(PM2.5),63,55,64,45,49,100,,125,121,11,11,9,9,0.6,0.8
2026-02-21T2200,1880A,104.6698,31.4668,绵阳市,高新区自来水公司,细颗粒物(PM2.5),79,75,68,58,50,32,,116,95,52,21,8,8,1.0,0.8
2026-02-21T2200,3491A,104.6899,31.5324,绵阳市,西科大附属小学,细颗粒物(PM2.5),80,77,68,59,52,93,,129,121,23,16,10,8,0.7,0.7
2026-02-21T2200,3492A,104.5647,31.5343,绵阳市,安州区旅游局,细颗粒物(PM2.5),89,115,62,66,52,43,,122,95,54,27,4,6,0.9,0.7
2026-02-21T2200,4146A,104.7092,31.4972,绵阳市,科技城新区公安局,细颗粒物(PM2.5),70,71,68,51,50,84,,129,121,34,20,7,6,0.9,0.9
2026-02-21T2200,4226A,104.765114,31.453094,绵阳市,绵阳市气象局,细颗粒物(PM2.5),70,79,69,51,53,23,,116,99,70,25,9,9,1.2,0.9
2026-02-21T2200,1784A,129.61,44.561,牡丹江市,环保大楼,细颗粒物(PM2.5),78,86,97,57,71,86,,107,95,15,19,9,23,0.4,0.6
2026-02-21T2200,1787A,129.6364,44.6075,牡丹江市,机车工厂,细颗粒物(PM2.5),129,134,105,98,82,4,,90,54,61,39,14,23,1.2,0.8
2026-02-21T2200,1788A,129.6386,44.5462,牡丹江市,第一中学,细颗粒物(PM2.5),100,,110,75,76,76,,101,76,19,20,11,33,0.6,0.7
2026-02-21T2200,4287A,129.5992,44.5964,牡丹江市,东晓云街98号,细颗粒物(PM2.5),142,111,124,108,87,58,,90,66,29,32,21,33,0.8,0.9
2026-02-21T2200,2531A,105.0703,29.61,内江市,市监测站,细颗粒物(PM2.5),117,131,75,88,71,16,,132,99,60,23,8,8,1.3,0.7
2026-02-21T2200,2533A,105.0657,29.5807,内江市,内江二中,细颗粒物(PM2.5),89,115,84,66,67,6,,120,94,82,38,8,8,1.2,0.7
2026-02-21T2200,2534A,105.0407,29.5828,内江市,内江日报社,细颗粒物(PM2.5),88,82,69,65,67,5,,132,96,111,35,11,13,0.9,0.5
2026-02-21T2200,4147A,105.0433,29.6105,内江市,玉峰路西段888号,细颗粒物(PM2.5),99,104,70,74,68,31,,130,99,58,28,10,9,1.3,0.8
2026-02-21T2200,2628A,92.0653,31.4846,那曲市,那曲监测站,颗粒物(PM10),66,81,32,43,24,48,,100,91,38,15,16,9,1.1,0.7
2026-02-21T2200,4243A,92.0515,31.4787,那曲市,那曲市委宣传部,,45,37,22,31,19,63,,106,99,26,8,10,4,1.3,0.6
2026-02-21T2200,1291A,115.8887,28.7006,南昌市,省林业公司,,,,32,27,32,48,,61,58,18,14,4,3,0.7,1.2
2026-02-21T2200,1292A,115.813,28.7443,南昌市,林科所,,40,29,22,28,20,28,,67,60,24,12,7,7,0.9,0.9
2026-02-21T2200,1294A,115.8518,28.687,南昌市,建工学校,颗粒物(PM10),60,69,42,34,26,43,,60,58,23,12,7,6,0.6,0.4
2026-02-21T2200,1295A,115.8926,28.6425,南昌市,象湖,细颗粒物(PM2.5),69,67,36,50,31,12,,60,50,39,16,8,7,1.2,1
2026-02-21T2200,3046A,115.9084,28.6062,南昌市,机电学校,细颗粒物(PM2.5),80,99,44,59,33,28,,63,59,33,14,6,4,0.8,0.6
2026-02-21T2200,3690A,115.9718,28.7032,南昌市,外国语学校,细颗粒物(PM2.5),72,69,43,52,31,27,,62,57,37,18,8,7,1.1,0.9
2026-02-21T2200,4106A,115.7923,28.6873,南昌市,工业二路,细颗粒物(PM2.5),89,103,44,66,29,8,,58,47,47,18,4,4,1.0,0.8
2026-02-21T2200,4192A,115.931587,28.686774,南昌市,南京东路235号,细颗粒物(PM2.5),75,86,50,55,34,11,,64,54,52,21,6,5,0.8,0.6
2026-02-21T2200,1906A,106.0791,30.8022,南充市,南充市委,细颗粒物(PM2.5),78,76,70,57,54,32,,100,81,56,26,7,7,1.1,0.8
2026-02-21T2200,1907A,106.1038,30.8215,南充市,南充炼油厂,细颗粒物(PM2.5),75,90,74,55,56,3,,99,80,95,32,6,6,1.1,0.7
2026-02-21T2200,4227A,106.108336,30.788436,南充市,梨树横街98号,细颗粒物(PM2.5),107,99,79,80,67,9,,111,95,95,29,6,6,1.5,0.7
2026-02-21T2200,4304A,106.1172,30.843,南充市,清泉寺北路188号,细颗粒物(PM2.5),69,63,59,50,52,92,,117,115,16,10,6,7,0.5,0.5
2026-02-21T2200,4305A,106.067,30.7616,南充市,同庆路1号,细颗粒物(PM2.5),83,102,72,61,57,0,,99,68,98,43,7,7,1.7,0.9
2026-02-21T2200,1151A,118.8033,32.1085,南京市,迈皋桥,,40,40,38,27,23,73,,108,100,24,18,15,14,1.0,0.8
2026-02-21T2200,1152A,118.7487,32.057,南京市,草场门,,35,31,50,24,23,52,,67,64,25,25,18,16,1.9,1.4
2026-02-21T2200,1154A,118.770105,32.004342,南京市,中华门,,39,39,37,21,21,59,,94,86,20,12,10,6,1.1,0.8
2026-02-21T2200,1155A,118.8059,32.0329,南京市,瑞金路,颗粒物(PM10),51,51,40,28,24,62,,106,92,31,21,6,5,3.6,2.6
2026-02-21T2200,1156A,118.7946,32.0774,南京市,玄武湖,,41,41,45,22,21,66,,99,90,34,27,15,12,1.2,1
2026-02-21T2200,1157A,118.6415,32.0964,南京市,浦口,,49,49,43,24,21,66,,92,87,17,17,6,6,0.4,0.4
2026-02-21T2200,1158A,118.730129,32.000956,南京市,奥体中心,,40,40,42,19,20,58,,85,79,25,20,17,13,1.3,0.9
2026-02-21T2200,1159A,118.9072,32.1047,南京市,仙林大学城,,39,39,46,22,20,72,,102,95,22,15,9,8,0.9,0.8
2026-02-21T2200,3422A,118.8443,31.919,南京市,江宁彩虹桥,,45,45,57,25,30,80,,112,104,12,8,4,4,0.5,0.6
2026-02-21T2200,3427A,118.8497,32.3599,南京市,六合雄州,,36,36,47,14,20,86,,94,92,13,24,4,8,0.9,1.6
2026-02-21T2200,4086A,118.7641,32.0841,南京市,新模范马路66号,,46,46,48,17,17,89,,115,110,3,7,6,5,1.8,1.4
2026-02-21T2200,4249A,118.8707617,31.34017673,南京市,汶溪路181号,颗粒物(PM10),58,65,43,35,24,66,,92,82,19,14,6,6,0.6,0.6
2026-02-21T2200,4312A,119.019,31.6512,南京市,中山西路1号,颗粒物(PM10),56,61,35,35,19,35,,95,76,35,13,4,4,0.9,0.6
2026-02-21T2200,1401A,108.3098,22.788,南宁市,二十一中,,40,,45,28,39,69,,77,71,9,13,4,5,0.7,0.7
2026-02-21T2200,1402A,108.3135,22.8529,南宁市,北湖,,50,41,50,35,47,61,,75,67,10,16,2,4,0.8,0.8
2026-02-21T2200,1403A,108.3205,22.8222,南宁市,市监测站,,41,41,50,26,38,66,,80,72,10,14,6,7,0.8,0.8
2026-02-21T2200,1404A,108.3828,22.8038,南宁市,大自然花园,,36,32,45,25,37,75,,85,79,7,10,5,6,0.7,0.7
2026-02-21T2200,1406A,108.2397,22.8462,南宁市,区农职院,,49,44,52,34,37,59,,72,65,12,16,4,5,0.6,0.6
2026-02-21T2200,1407A,108.3285,22.7356,南宁市,英华嘉园,,39,38,52,27,40,71,,79,73,8,10,3,4,0.7,0.8
2026-02-21T2200,3401A,108.4829,22.762,南宁市,红星社区,,33,33,51,22,41,80,,88,81,6,10,4,5,0.7,0.7
2026-02-21T2200,4132A,108.2927,23.1477,南宁市,起凤路9号,细颗粒物(PM2.5),99,86,56,74,49,45,,78,67,18,11,4,4,0.9,0.8
2026-02-21T2200,4221A,108.2177,22.7774,南宁市,乐贤路16号,,42,42,44,28,36,62,,74,68,11,15,2,3,0.7,0.7
2026-02-21T2200,2332A,118.1682,26.6371,南平市,南平市监测站,细颗粒物(PM2.5),73,65,38,53,23,23,,80,60,27,10,6,6,0.9,0.6
2026-02-21T2200,2334A,118.1757,26.6276,南平市,南平七中,细颗粒物(PM2.5),69,79,34,50,23,33,,80,65,16,8,6,3,0.8,0.6
2026-02-21T2200,1168A,120.9056,31.9669,南通市,狼山街道,,50,50,53,32,32,56,,93,80,26,20,4,5,0.6,0.6
2026-02-21T2200,1170A,120.8635,32.0231,南通市,城中,,50,50,54,26,29,85,,102,98,23,22,6,7,0.5,0.6
2026-02-21T2200,1171A,120.9376,31.9301,南通市,星湖花园,,49,49,46,32,33,63,,99,92,38,20,6,6,0.5,0.4
2026-02-21T2200,1172A,120.8053,32.046,南通市,紫琅学院,二氧化氮(NO2),53,48,52,32,30,2,,91,68,105,35,11,7,0.4,0.5
2026-02-21T2200,3291A,121.0631,32.0644,南通市,通州监测站,,44,44,42,27,28,78,,109,103,31,20,6,6,0.6,0.6
2026-02-21T2200,3432A,120.9348,31.9874,南通市,环境教育馆,细颗粒物(PM2.5),57,51,47,40,30,36,,92,70,66,29,6,7,0.4,0.4
2026-02-21T2200,4091A,120.8692,31.9885,南通市,洪江路,颗粒物(PM10),53,55,52,36,37,65,,90,84,33,29,8,8,0.7,0.7
2026-02-21T2200,2404A,112.5338,33.0086,南阳市,瓦房庄,细颗粒物(PM2.5),100,106,62,75,37,27,,84,70,40,12,6,6,1.4,0.9
2026-02-21T2200,2405A,112.5002,32.9734,南阳市,汉画馆,,,,72,,46,18,,84,66,40,14,8,7,1.7,1
2026-02-21T2200,2406A,112.5778,33.0144,南阳市,气象站,细颗粒物(PM2.5),107,129,64,80,38,30,,90,81,47,12,6,7,1.5,0.8
2026-02-21T2200,2407A,112.548,32.9687,南阳市,理工学院,细颗粒物(PM2.5),69,85,58,50,39,50,,84,79,26,9,8,7,1.2,0.9
2026-02-21T2200,4008A,112.5233,32.9921,南阳市,卧龙区政府,细颗粒物(PM2.5),92,100,65,68,42,22,,77,66,47,12,7,7,1.3,0.9
2026-02-21T2200,1234A,121.8352,29.9111,宁波市,区环保大楼,,30,30,31,15,17,80,,103,95,11,7,6,6,0.5,0.4
2026-02-21T2200,1235A,121.5595,29.8208,宁波市,万里学院,,28,28,29,13,16,83,,99,94,9,9,3,3,0.5,0.4
2026-02-21T2200,1236A,121.713,29.9564,宁波市,龙赛医院,,44,44,31,26,17,75,,95,90,10,6,4,4,0.6,0.5
2026-02-21T2200,1240A,121.5855,29.8635,宁波市,太古小学,,28,26,28,14,15,88,,100,97,7,7,3,3,0.5,0.4
2026-02-21T2200,1241A,121.5239,29.8673,宁波市,市环境监测中心,,34,34,32,18,17,73,,93,85,20,12,4,3,0.5,0.4
2026-02-21T2200,2871A,121.6156,29.9015,宁波市,万里国际学校,,29,28,29,14,16,91,,100,99,8,8,3,3,0.5,0.5
2026-02-21T2200,3710A,121.5593,29.8976,宁波市,白沙活动中心,,,,32,,18,,,92,,,8,,4,,0.5
2026-02-21T2200,4095A,121.8962,29.7529,宁波市,中科路88号,,49,49,32,29,24,85,,114,103,11,8,6,5,0.4,0.4
2026-02-21T2200,2341A,119.5387,26.6611,宁德市,宁德市监测站,细颗粒物(PM2.5),62,62,46,44,34,52,,104,92,25,13,5,6,0.9,0.9
2026-02-21T2200,3209A,119.5231,26.6562,宁德市,宁德一中,细颗粒物(PM2.5),53,51,49,37,42,63,,97,91,13,11,6,7,1.3,0.8
2026-02-21T2200,2618A,98.859,25.8541,怒江傈僳族自治州,州监测站,细颗粒物(PM2.5),93,70,50,69,41,98,,111,111,8,7,9,6,0.7,0.5
2026-02-21T2200,2619A,98.8607,25.8168,怒江傈僳族自治州,泸水一中,细颗粒物(PM2.5),103,,51,77,47,72,,93,92,16,10,8,6,1.1,0.9
2026-02-21T2200,1888A,101.6891,26.571,攀枝花市,弄弄坪,,35,35,59,22,32,73,,98,88,13,33,8,42,0.5,1.9
2026-02-21T2200,1889A,101.577,26.5914,攀枝花市,河门口,细颗粒物(PM2.5),52,42,41,36,31,59,,99,92,19,15,30,37,1.0,0.9
2026-02-21T2200,1891A,101.7365,26.4986,攀枝花市,仁和,,31,31,36,20,27,60,,98,86,11,13,8,10,0.6,0.7
2026-02-21T2200,2835A,101.7222,26.567,攀枝花市,四十中小,细颗粒物(PM2.5),92,,40,68,29,38,,99,82,52,28,31,20,1.4,1
2026-02-21T2200,1604A,122.0303,41.1489,盘锦市,开发区,细颗粒物(PM2.5),90,69,83,67,67,74,,102,90,13,14,6,8,0.7,0.8
2026-02-21T2200,1605A,122.0486,41.0883,盘锦市,兴隆台,细颗粒物(PM2.5),92,78,83,68,72,72,,98,87,15,16,7,10,0.7,0.7
2026-02-21T2200,1606A,121.8297,41.1026,盘锦市,新生街道,细颗粒物(PM2.5),75,67,65,55,62,52,,97,80,23,18,6,6,0.7,0.7
2026-02-21T2200,1832A,113.3257,33.7423,平顶山市,新华旅馆,细颗粒物(PM2.5),132,129,71,100,51,54,,90,82,33,13,8,6,0.9,0.6
2026-02-21T2200,1833A,113.2917,33.737,平顶山市,规划设计院,细颗粒物(PM2.5),114,139,73,86,47,32,,87,75,47,12,9,7,1.0,0.7
2026-02-21T2200,1834A,113.182,33.7738,平顶山市,平顶山工学院,颗粒物(PM10),116,181,66,53,48,80,,98,96,11,10,11,9,0.3,0.4
2026-02-21T2200,3594A,112.8736,33.9068,平顶山市,石龙区,颗粒物(PM10),158,266,108,64,46,89,,98,96,6,17,8,10,0.4,0.4
2026-02-21T2200,4116A,113.284,33.7139,平顶山市,姚电大道23号,细颗粒物(PM2.5),105,120,78,79,51,61,,90,85,25,11,9,6,0.7,0.6
2026-02-21T2200,2656A,106.6633,35.5338,平凉市,聚贤嘉苑,颗粒物(PM10),220,364,260,98,82,82,,86,85,6,6,10,7,0.5,0.5
2026-02-21T2200,2657A,106.7021,35.5307,平凉市,博物馆,颗粒物(PM10),197,344,246,100,75,82,,87,86,7,7,8,8,0.6,0.6
2026-02-21T2200,2348A,113.8384,27.6436,萍乡市,中医院,细颗粒物(PM2.5),160,149,57,122,34,0,,27,13,28,15,6,4,1.8,0.9
2026-02-21T2200,2350A,113.8677,27.6438,萍乡市,市环保局,细颗粒物(PM2.5),148,129,43,113,31,2,,28,14,33,16,11,7,2.1,0.8
2026-02-21T2200,2351A,113.8663,27.6202,萍乡市,安源区政府,细颗粒物(PM2.5),84,90,43,62,28,0,,21,12,27,19,6,8,1.8,1.7
2026-02-21T2200,4107A,113.8686,27.6668,萍乡市,联洪村委会,细颗粒物(PM2.5),119,118,44,90,28,8,,25,19,28,9,2,2,1.4,0.4
2026-02-21T2200,2319A,119.0142,25.4324,莆田市,荔城区仓后路,细颗粒物(PM2.5),74,55,70,54,70,73,,110,97,19,14,/,/,/,/
2026-02-21T2200,2320A,119.0016,25.4553,莆田市,莆田市监测站,细颗粒物(PM2.5),65,,60,47,56,66,,117,99,11,9,3,3,0.4,0.7
2026-02-21T2200,2321A,119.112,25.4561,莆田市,涵江区六中,细颗粒物(PM2.5),67,,53,48,47,75,,110,99,15,10,/,/,0.7,0.8
2026-02-21T2200,2322A,119.1014,25.3215,莆田市,秀屿区政府,细颗粒物(PM2.5),124,,69,94,68,64,,116,101,20,9,6,5,0.5,0.6
2026-02-21T2200,2392A,115.0312,35.7636,濮阳市,环保局,,,148,86,34,35,69,,85,80,,7,6,7,0.3,0.4
2026-02-21T2200,3021A,115,35.7667,濮阳市,濮水河管理处,颗粒物(PM10),141,232,99,36,40,62,,90,79,19,14,6,8,0.4,0.5
2026-02-21T2200,4118A,115.0552,35.7816,濮阳市,中原东路68号,,,,107,,35,,,92,88,14,16,,7,0.5,0.6
2026-02-21T2200,4216A,115.0923632,35.76857718,濮阳市,任丘路479号,颗粒物(PM10),154,257,103,34,40,73,,90,85,14,14,5,7,0.2,0.6
2026-02-21T2200,2601A,100.9801,22.7634,普洱市,市环保局,颗粒物(PM10),54,58,49,28,22,58,,91,82,7,6,5,5,0.6,0.6
2026-02-21T2200,2602A,100.9763,22.8237,普洱市,普洱第二中学,,,,43,,21,50,,94,85,18,17,6,6,0.7,0.6
2026-02-21T2200,3345A,131.0413,45.7795,七台河市,中波台,,42,36,41,29,28,72,,93,79,8,10,9,10,0.4,0.4
2026-02-21T2200,3637A,131.0136,45.7688,七台河市,人民广场,细颗粒物(PM2.5),69,75,74,50,48,66,,90,74,16,18,10,14,0.6,0.6
2026-02-21T2200,3684A,130.8639,45.8144,七台河市,新建矿广场,细颗粒物(PM2.5),54,46,85,38,55,52,,94,73,21,30,9,76,0.8,1.1
2026-02-21T2200,1779A,123.9307,47.3641,齐齐哈尔市,安居小区,,,,119,,96,,,31,,,24,,18,,1.1
2026-02-21T2200,1780A,123.9497,47.3389,齐齐哈尔市,中心广场,细颗粒物(PM2.5),100,110,149,75,105,79,,77,77,15,30,11,14,0.9,1.1
2026-02-21T2200,1781A,123.9483,47.3229,齐齐哈尔市,农牧车辆厂,细颗粒物(PM2.5),100,85,122,75,98,86,,82,82,11,23,8,10,0.4,0.6
2026-02-21T2200,1783A,123.9442,47.2994,齐齐哈尔市,市环境监测站,细颗粒物(PM2.5),88,83,119,65,90,84,,82,82,13,28,6,10,0.6,0.8
2026-02-21T2200,3662A,123.6341,47.2079,齐齐哈尔市,富区青少年活动中心,细颗粒物(PM2.5),65,64,144,47,112,81,,82,82,6,15,6,9,0.6,1
2026-02-21T2200,2591A,107.9765,26.5724,黔东南苗族侗族自治州,市环境监测站,细颗粒物(PM2.5),57,43,35,40,29,36,,66,57,16,8,4,4,0.5,0.5
2026-02-21T2200,2881A,107.8909,26.531,黔东南苗族侗族自治州,凯里学院,,50,41,36,35,32,50,,65,64,9,9,3,6,0.6,0.6
2026-02-21T2200,2593A,107.5223,26.2371,黔南布依族苗族自治州,小围寨,,50,41,32,35,28,46,,61,59,4,4,5,5,0.7,0.7
2026-02-21T2200,3538A,107.5175,26.2977,黔南布依族苗族自治州,沙坝,,42,34,36,29,29,49,,62,60,6,5,4,4,0.7,0.7
2026-02-21T2200,2589A,104.9022,25.0943,黔西南布依族苗族自治州,场坝街,"颗粒物(PM10),细颗粒物(PM2.5)",60,70,36,43,26,55,,72,71,14,8,4,4,0.8,0.7
2026-02-21T2200,2590A,104.8812,25.0994,黔西南布依族苗族自治州,坪东大道,细颗粒物(PM2.5),98,,32,73,30,38,,74,70,23,9,6,5,0.9,0.7
2026-02-21T2200,2502A,108.6238,21.9667,钦州市,市环保站,细颗粒物(PM2.5),65,48,44,47,26,48,,85,75,19,12,2,5,0.8,0.7
2026-02-21T2200,2503A,108.655,21.9481,钦州市,沙埠小学,,49,39,46,34,28,64,,92,83,12,13,4,6,0.6,0.6
2026-02-21T2200,2504A,108.5989,21.7435,钦州市,港区一小,,,,46,33,23,54,,88,82,19,18,3,3,0.9,0.9
2026-02-21T2200,3404A,108.5959,21.9634,钦州市,北职校,,35,28,41,24,29,62,,83,77,10,13,2,5,0.8,0.9
2026-02-21T2200,1046A,119.5247,39.9346,秦皇岛市,建设大厦,颗粒物(PM10),500,1472,213,263,99,77,,64,64,11,39,6,11,0.4,1.1
2026-02-21T2200,3132A,119.5979,39.938,秦皇岛市,文明里,颗粒物(PM10),500,1405,201,186,86,75,,58,54,18,42,11,14,0.5,0.9
2026-02-21T2200,4066A,119.7458,39.9952,秦皇岛市,南园路157号,颗粒物(PM10),500,651,149,155,88,27,,54,42,58,42,23,13,1.2,1
2026-02-21T2200,4067A,119.5131,39.8858,秦皇岛市,翠岛大街1号,颗粒物(PM10),500,1299,179,245,87,73,,68,67,10,27,10,14,0.4,0.8
2026-02-21T2200,4198A,119.509013,39.825305,秦皇岛市,北戴河轮滑馆,颗粒物(PM10),500,1762,217,234,78,80,,73,73,11,30,8,9,0.3,0.7
2026-02-21T2200,1310A,120.404,36.0625,青岛市,市南区东部子站,细颗粒物(PM2.5),69,75,72,50,41,77,,86,86,22,16,11,11,0.8,0.7
2026-02-21T2200,1311A,120.362344,36.10282,青岛市,四方区子站,细颗粒物(PM2.5),87,85,67,64,44,82,,93,93,27,17,11,8,0.9,0.7
2026-02-21T2200,1312A,120.294373,36.054183,青岛市,市南区西部子站,细颗粒物(PM2.5),60,66,59,43,41,84,,93,93,28,20,6,5,0.8,0.8
2026-02-21T2200,1313A,120.4581,36.0858,青岛市,崂山区子站,细颗粒物(PM2.5),67,68,74,48,40,84,,88,88,15,14,8,8,0.5,0.6
2026-02-21T2200,1315A,120.3945,36.3083,青岛市,城阳区子站,"颗粒物(PM10),细颗粒物(PM2.5)",68,85,65,49,42,86,,96,96,27,19,11,10,1.0,1
2026-02-21T2200,3642A,120.3454,36.0735,青岛市,市北区南部,细颗粒物(PM2.5),67,71,63,48,40,85,,92,92,20,16,5,4,0.9,0.8
2026-02-21T2200,3643A,120.3897,36.18,青岛市,李沧区北部,细颗粒物(PM2.5),72,83,67,52,42,81,,90,90,23,17,13,11,0.8,0.7
2026-02-21T2200,4110A,120.5222,36.4089,青岛市,盟旺路653号,细颗粒物(PM2.5),67,74,67,48,40,107,,110,110,11,10,6,4,0.9,0.9
2026-02-21T2200,4290A,120.196923,35.954556,青岛市,珠江路669号,细颗粒物(PM2.5),64,68,53,46,40,93,,98,98,17,16,9,8,0.7,0.6
2026-02-21T2200,4291A,120.0424,35.8656,青岛市,黄岛区人民政府广场,颗粒物(PM10),71,92,72,47,37,86,,88,88,25,19,13,11,0.9,0.9
2026-02-21T2200,1703A,113.0218,23.7086,清远市,凤城街办,,46,43,52,32,43,88,,108,105,16,16,/,/,/,/
2026-02-21T2200,3025A,113.0479,23.6343,清远市,技师学院,,42,42,58,28,39,99,,117,115,11,14,5,6,0.5,0.6
2026-02-21T2200,3318A,112.9898,23.7403,清远市,清新太和,细颗粒物(PM2.5),53,53,49,37,40,95,,121,117,21,17,9,12,0.8,0.7
2026-02-21T2200,3455A,113.076,23.72,清远市,清城东城,,48,48,53,32,37,93,,109,104,18,22,/,/,/,/
2026-02-21T2200,2661A,107.6325,35.7357,庆阳市,庆阳五中,颗粒物(PM10),282,407,280,110,81,82,,88,87,6,5,6,4,0.3,0.3
2026-02-21T2200,2662A,107.6361,35.7067,庆阳市,市环保局,颗粒物(PM10),278,404,283,89,79,84,,88,87,6,6,3,3,0.3,0.3
2026-02-21T2200,1916A,103.7897,25.5036,曲靖市,环境监测站,,48,47,26,33,16,48,,102,92,33,10,16,8,0.7,0.4
2026-02-21T2200,1917A,103.8013,25.5357,曲靖市,烟厂办公区,,40,40,28,26,14,61,,97,92,23,14,35,9,0.4,0.4
2026-02-21T2200,3376A,103.7926,25.4651,曲靖市,南苑二区,,35,32,22,24,12,77,,91,89,11,9,8,4,0.5,0.5
2026-02-21T2200,3377A,103.7442,25.5259,曲靖市,曲靖师范学院,,47,47,28,29,19,74,,99,95,13,8,26,8,0.5,0.4
2026-02-21T2200,1264A,118.8694,28.94,衢州市,环保大楼,,48,45,36,33,28,46,,88,74,18,10,/,/,/,/
2026-02-21T2200,1266A,118.8622,28.9809,衢州市,衢州学院,,42,38,34,29,25,15,,86,74,43,14,5,5,0.7,0.6
2026-02-21T2200,4097A,118.9646,28.9832,衢州市,衢州三中,,42,42,34,28,23,41,,81,73,21,14,5,6,0.7,0.6
2026-02-21T2200,1611A,118.5818,24.9116,泉州市,涂山街,细颗粒物(PM2.5),58,55,51,41,41,56,,96,81,24,13,4,4,0.7,0.6
2026-02-21T2200,1612A,118.597,24.8976,泉州市,津头埔,细颗粒物(PM2.5),60,59,52,43,42,58,,100,86,20,12,3,4,0.7,0.6
2026-02-21T2200,1613A,118.6669,24.9422,泉州市,万安,细颗粒物(PM2.5),54,45,51,38,37,41,,90,76,22,11,3,4,0.6,0.6
2026-02-21T2200,4105A,118.6355,24.9148,泉州市,霞新路6号,,50,41,48,35,39,56,,94,81,10,9,/,/,0.5,0.5
2026-02-21T2200,2626A,88.8873,29.2723,日喀则市,日喀则监测站,,48,39,20,33,15,97,,129,127,33,9,20,10,1.0,0.6
2026-02-21T2200,3726A,88.8775,29.2425,日喀则市,林业技术推广中心,,36,36,18,18,10,97,,126,124,24,7,18,12,0.7,0.4
2026-02-21T2200,1659A,119.4711,35.421,日照市,监测站,细颗粒物(PM2.5),67,75,66,48,41,77,,100,96,28,23,28,14,1.6,1
2026-02-21T2200,1660A,119.523,35.4216,日照市,市政府广场,细颗粒物(PM2.5),67,73,60,48,39,78,,103,100,24,16,20,12,1.0,0.7
2026-02-21T2200,1661A,119.5511,35.4113,日照市,港务局,颗粒物(PM10),65,80,74,44,39,82,,94,94,27,25,13,10,1.0,0.9
2026-02-21T2200,3507A,119.5326,35.4627,日照市,职业技术学院,颗粒物(PM10),64,78,64,45,40,85,,104,102,24,19,24,13,1.8,1.1
2026-02-21T2200,3604A,119.3267,35.1043,日照市,岚山环保分局,细颗粒物(PM2.5),92,105,66,68,43,77,,103,100,22,15,17,13,0.9,0.9
2026-02-21T2200,1835A,111.1922,34.7752,三门峡市,市政府,颗粒物(PM10),192,333,121,105,42,21,,80,61,41,21,14,16,1.1,0.6
2026-02-21T2200,1836A,111.1588,34.794,三门峡市,开发区,颗粒物(PM10),174,298,112,104,48,31,,86,76,44,16,14,10,1.0,0.5
2026-02-21T2200,3039A,111.1911,34.7829,三门峡市,三门峡市第一小学,颗粒物(PM10),196,342,142,110,46,32,,85,74,46,21,13,11,1.1,0.7
2026-02-21T2200,3598A,111.1031,34.719,三门峡市,富达温泉假日酒店,颗粒物(PM10),283,408,170,88,54,52,,88,80,18,22,13,20,0.4,0.8
2026-02-21T2200,2324A,117.621,26.2626,三明市,三钢,,50,44,32,35,27,40,,70,61,13,14,5,10,0.4,1.6
2026-02-21T2200,2325A,117.6352,26.2714,三明市,三明二中,细颗粒物(PM2.5),60,51,36,43,27,28,,68,57,19,14,11,9,0.4,1
2026-02-21T2200,2326A,117.6028,26.2377,三明市,三元区政府,,38,38,28,26,21,35,,74,61,14,10,4,6,0.7,1
2026-02-21T2200,1877A,109.4962,18.2682,三亚市,河西子站,,36,35,25,25,19,66,,81,72,4,4,1,1,0.3,0.4
2026-02-21T2200,3540A,109.7348,18.3443,三亚市,君悦子站,,,41,38,15,23,,,78,69,4,8,2,3,0.4,0.5
2026-02-21T2200,4135A,109.1714,18.3739,三亚市,城东小学站,,27,27,30,16,22,64,,90,78,9,7,/,/,/,/
2026-02-21T2200,2624A,91.7592,29.234,山南市,山南监测站,,35,10,13,3,4,110,,114,114,1,2,9,9,0.3,0.4
2026-02-21T2200,2625A,91.7701,29.2436,山南市,山南人民医院,,35,17,15,11,7,111,,118,118,2,3,10,10,0.4,0.4
2026-02-21T2200,1674A,116.6795,23.3666,汕头市,金平子站,细颗粒物(PM2.5),69,52,57,50,43,104,,113,111,11,10,5,5,0.6,0.7
2026-02-21T2200,1675A,116.7248,23.3632,汕头市,龙湖子站,细颗粒物(PM2.5),70,57,49,51,38,100,,112,110,18,13,10,10,/,/
2026-02-21T2200,1676A,116.7257,23.2774,汕头市,濠江子站,细颗粒物(PM2.5),67,57,51,48,39,95,,110,107,16,14,8,8,/,/
2026-02-21T2200,1677A,116.7518,23.4712,汕头市,澄海子站,细颗粒物(PM2.5),62,59,51,44,37,104,,107,106,9,7,6,7,0.8,0.7
2026-02-21T2200,1678A,116.6088,23.2539,汕头市,潮阳子站,细颗粒物(PM2.5),87,73,55,64,49,93,,113,110,16,11,7,6,0.7,0.6
2026-02-21T2200,3444A,116.4539,23.2684,汕头市,潮南峡山,细颗粒物(PM2.5),63,60,62,45,47,113,,117,114,5,8,6,6,0.6,0.8
2026-02-21T2200,3624A,116.4069,23.2533,汕头市,潮南子站,细颗粒物(PM2.5),78,78,73,57,53,87,,105,100,10,7,7,6,/,/
2026-02-21T2200,1693A,115.3653,22.7751,汕尾市,市环保局,细颗粒物(PM2.5),62,,48,44,42,104,,122,120,10,9,5,6,0.8,0.8
2026-02-21T2200,1695A,115.362,22.7926,汕尾市,新城中学,细颗粒物(PM2.5),55,,50,39,41,91,,120,116,11,8,6,6,0.7,0.7
2026-02-21T2200,2645A,109.9155,33.8714,商洛市,监测站,颗粒物(PM10),167,283,97,106,51,52,,88,78,16,10,6,6,0.5,0.5
2026-02-21T2200,3045A,109.9647,33.8486,商洛市,商州区中学,颗粒物(PM10),178,305,121,93,46,60,,94,86,8,9,7,6,0.6,0.6
2026-02-21T2200,2408A,115.6701,34.4283,商丘市,环境监测站,颗粒物(PM10),69,87,63,48,39,78,,105,102,15,9,4,3,0.6,0.6
2026-02-21T2200,2409A,115.6458,34.4047,商丘市,粮食局,细颗粒物(PM2.5),79,76,58,58,40,68,,99,94,14,6,3,2,0.6,0.5
2026-02-21T2200,3171A,115.6069,34.4465,商丘市,梁园区档案局,细颗粒物(PM2.5),67,71,60,48,40,76,,107,103,12,5,3,2,0.6,0.5
2026-02-21T2200,4119A,115.6701,34.3767,商丘市,北海东路185号,细颗粒物(PM2.5),69,75,61,50,36,82,,104,102,10,7,4,4,0.5,0.6
2026-02-21T2200,4120A,115.6172,34.3704,商丘市,中山大街3号,细颗粒物(PM2.5),89,105,70,66,42,62,,97,90,22,11,6,4,0.6,0.5
2026-02-21T2200,1141A,121.401,31.2382,上海市,普陀,细颗粒物(PM2.5),53,46,38,37,30,85,,105,102,22,16,7,7,0.6,0.5
2026-02-21T2200,1142A,121.4774,31.2043,上海市,十五厂,细颗粒物(PM2.5),57,50,42,40,31,83,,107,102,23,17,9,9,0.6,0.5
2026-02-21T2200,1143A,121.4673,31.3011,上海市,虹口,,49,49,40,33,28,73,,96,91,26,14,6,6,0.6,0.3
2026-02-21T2200,1147A,121.4253,31.226,上海市,静安监测站,,49,47,41,34,30,84,,108,103,24,16,8,8,0.6,0.6
2026-02-21T2200,1148A,121.7029,31.1905,上海市,浦东川沙,细颗粒物(PM2.5),59,56,46,42,34,76,,108,99,20,16,4,4,0.7,0.3
2026-02-21T2200,1149A,121.5339,31.229,上海市,浦东新区监测站,细颗粒物(PM2.5),57,48,38,40,32,89,,107,104,13,11,6,6,0.5,0.5
2026-02-21T2200,1150A,121.5776,31.2038,上海市,浦东张江,,47,47,39,31,30,89,,114,108,24,18,7,7,0.4,0.3
2026-02-21T2200,3265A,121.4242,31.3303,上海市,宝山庙行,颗粒物(PM10),51,51,39,34,28,81,,105,99,23,14,10,10,0.5,0.5
2026-02-21T2200,3266A,121.8789,31.4662,上海市,崇明上实东滩,,32,32,33,21,24,84,,105,96,13,21,5,6,0.1,0.2
2026-02-21T2200,3268A,121.316,31.2839,上海市,嘉定南翔,细颗粒物(PM2.5),54,55,47,38,35,67,,100,91,44,30,6,6,0.5,0.5
2026-02-21T2200,3269A,121.3357,30.7455,上海市,金山新城,,49,44,31,34,26,85,,102,97,11,7,6,5,0.7,0.7
2026-02-21T2200,3270A,121.4996,31.0741,上海市,闵行浦江,,49,47,40,34,31,84,,107,100,16,14,7,7,0.1,0.2
2026-02-21T2200,3271A,121.2886,31.1663,上海市,青浦徐泾,细颗粒物(PM2.5),69,67,46,50,36,74,,101,97,19,13,7,7,0.6,0.6
