timepoint,stationcode,longitude,latitude,area,positionname,primarypollutant,aqi,pm10,pm10_24h,pm2_5,pm2_5_24h,o3,o3_24h,o3_8h,o3_8h_24h,no2,no2_24h,so2,so2_24h,co,co_24h
2022-07-27T23:00:00,1001A,116.3621,39.8784,北京市,万寿西宫,,28,5,35,5,21,108,88,97,97,11,12,3,3,0.5,0.7
2022-07-27T23:00:00,1002A,116.2202,40.2915,北京市,定陵(对照点),,20,3,17,3,10,133,61,133,70,2,4,3,3,0.3,0.5
2022-07-27T23:00:00,1003A,116.4174,39.9289,北京市,东四,,32,6,29,4,19,129,101,118,112,12,18,3,2,0.3,0.5
2022-07-27T23:00:00,1004A,116.4072,39.8863,北京市,天坛,,26,6,34,4,23,101,82,88,88,13,15,3,3,0.4,0.6
2022-07-27T23:00:00,1005A,116.462,39.9365,北京市,农展馆,,30,6,33,4,24,118,93,106,99,11,16,3,3,0.5,0.8
2022-07-27T23:00:00,1006A,116.3392,39.9295,北京市,官园,,30,9,27,6,22,143,93,124,111,13,15,1,2,0.5,0.7
2022-07-27T23:00:00,1007A,116.2878,39.9611,北京市,海淀万柳,,23,13,26,10,18,119,73,104,88,19,18,3,2,0.3,0.5
2022-07-27T23:00:00,1008A,116.6636,40.135,北京市,顺义新城,,27,7,33,3,19,97,84,84,83,3,7,3,2,0.3,0.6
2022-07-27T23:00:00,1009A,116.6275,40.3275,北京市,怀柔镇,,27,7,22,4,16,125,84,125,91,5,6,3,3,0.4,0.5
2022-07-27T23:00:00,1010A,116.2296,40.217,北京市,昌平镇,,25,6,25,4,21,127,77,122,69,6,10,1,1,0.3,0.5
2022-07-27T23:00:00,1011A,116.3966,39.9821,北京市,奥体中心,,27,12,37,6,20,124,84,110,94,15,18,3,3,0.5,0.6
2022-07-27T23:00:00,1012A,116.184,39.9136,北京市,古城,,23,13,23,11,17,125,71,125,85,16,18,3,3,0.4,0.5
2022-07-27T23:00:00,1015A,117.1444,39.1661,天津市,勤俭道,,47,47,36,30,25,160,87,138,89,12,17,8,8,0.7,0.6
2022-07-27T23:00:00,1017A,117.237,39.1082,天津市,大直沽八号路,,29,29,29,16,17,144,66,123,87,10,12,8,8,0.5,0.6
2022-07-27T23:00:00,1018A,117.202,39.0927,天津市,前进道,,23,23,31,12,18,162,70,134,93,15,15,6,6,0.7,0.9
2022-07-27T23:00:00,1019A,117.1837,39.2133,天津市,淮河道,颗粒物(PM10),54,58,37,34,23,158,80,145,100,19,16,7,7,0.8,0.7
2022-07-27T23:00:00,1021A,117.307,39.0877,天津市,跃进路,,31,31,31,14,17,158,66,134,88,20,18,8,7,0.4,0.5
2022-07-27T23:00:00,1023A,117.707,39.0343,天津市,第四大街,,27,27,25,12,14,105,79,94,76,13,17,5,5,0.6,0.6
2022-07-27T23:00:00,1024A,117.457,38.8394,天津市,永明路,,29,12,23,10,16,124,90,111,90,6,3,6,6,0.5,0.5
2022-07-27T23:00:00,1026A,117.764,39.1587,天津市,汉北路,,29,20,21,12,14,118,92,111,95,3,4,6,6,0.8,0.7
2022-07-27T23:00:00,1027A,117.157,38.9194,天津市,团泊洼(对照点),,23,23,39,15,22,139,62,122,88,23,15,8,8,0.8,0.8
2022-07-27T23:00:00,1029A,114.4422,38.0444,石家庄市,职工医院,,21,19,40,9,32,114,50,107,94,42,30,5,5,0.4,0.4
2022-07-27T23:00:00,1030A,114.6063,38.0266,石家庄市,高新区,,24,24,58,16,33,122,68,100,94,29,36,3,2,0.4,0.6
2022-07-27T23:00:00,1031A,114.4898,38.1328,石家庄市,西北水源,,25,19,55,17,36,116,56,102,94,24,26,3,3,0.6,0.6
2022-07-27T23:00:00,1032A,114.4586,38.0058,石家庄市,西南高教,,20,11,44,7,25,107,61,95,89,16,29,3,3,0.6,0.7
2022-07-27T23:00:00,1033A,114.5331,38.0178,石家庄市,世纪公园,,22,21,53,15,38,109,59,94,87,14,17,3,3,0.4,0.5
2022-07-27T23:00:00,1034A,114.509,38.0457,石家庄市,人民会堂,,23,15,43,13,32,120,72,110,102,26,23,4,5,0.6,0.7
2022-07-27T23:00:00,1035A,114.3524,37.8911,石家庄市,封龙山(对照点),,37,15,38,17,22,159,118,158,117,6,9,5,5,0.5,0.6
2022-07-27T23:00:00,1037A,118.131,39.6363,唐山市,雷达站,,33,33,42,14,16,136,86,121,96,6,8,3,3,0.3,0.6
2022-07-27T23:00:00,1038A,118.1725,39.6334,唐山市,物资局,,41,41,38,28,26,132,79,114,89,8,8,3,6,0.3,0.6
2022-07-27T23:00:00,1040A,118.1705,39.6506,唐山市,十二中,,38,38,34,9,17,130,69,111,84,16,15,3,4,0.7,0.7
2022-07-27T23:00:00,1041A,118.1869,39.622,唐山市,小山,,40,19,28,28,24,129,75,110,85,7,9,2,5,0.3,0.5
2022-07-27T23:00:00,1042A,119.5134,39.8207,秦皇岛市,北戴河环保局,,37,37,32,7,7,124,104,109,108,7,9,1,2,0.3,0.3
2022-07-27T23:00:00,1043A,119.7493,40.0116,秦皇岛市,第一关,,40,40,26,24,12,125,65,108,93,49,25,3,3,0.8,0.6
2022-07-27T23:00:00,1044A,119.5897,39.9499,秦皇岛市,监测站,,46,34,21,32,16,115,96,102,102,17,9,4,5,0.3,0.1
2022-07-27T23:00:00,1046A,119.5251,39.9041,秦皇岛市,建设大厦,,28,25,22,10,10,126,89,109,109,22,15,1,2,0.6,0.5
2022-07-27T23:00:00,1047A,114.5129,36.61763,邯郸市,环保局,,,,,,,,,,,,,,,,
2022-07-27T23:00:00,1048A,114.5302,36.6116,邯郸市,东污水处理厂,,32,24,50,6,35,175,102,164,132,3,14,3,5,0.7,0.8
2022-07-27T23:00:00,1049A,114.4918,36.5713,邯郸市,矿院,,31,23,49,0,28,182,99,171,141,8,17,1,3,0.7,0.9
2022-07-27T23:00:00,1050A,114.484,36.6133,邯郸市,丛台公园,,31,23,59,7,30,173,98,162,130,7,13,3,4,0.5,0.7
2022-07-27T23:00:00,1051A,115.493,38.8632,保定市,游泳馆,,30,14,46,6,37,106,93,94,94,10,22,3,3,0.3,0.4
2022-07-27T23:00:00,1052A,115.5213,38.8959,保定市,华电二区,,28,17,62,7,31,101,87,85,85,3,24,4,5,0.4,0.5
2022-07-27T23:00:00,1053A,115.4713,38.9108,保定市,接待中心,,31,10,51,7,28,104,98,98,98,9,24,5,5,0.6,0.8
2022-07-27T23:00:00,1054A,115.4612,38.8416,保定市,地表水厂,,32,20,73,9,34,111,101,99,99,4,23,4,5,0.4,0.5
2022-07-27T23:00:00,1055A,115.4323,38.8697,保定市,胶片厂,,33,5,48,2,41,110,104,97,97,9,21,4,5,0.4,0.5
2022-07-27T23:00:00,1056A,115.5086,38.8639,保定市,监测站,,29,12,52,10,36,107,92,99,98,7,20,6,8,0.3,0.4
2022-07-27T23:00:00,1057A,114.8883,40.8336,张家口市,人民公园,,25,21,32,8,13,127,78,120,96,15,14,5,6,0.4,0.5
2022-07-27T23:00:00,1059A,114.8687,40.8042,张家口市,五金库,,22,19,27,12,18,123,70,115,91,24,18,7,7,0.3,0.4
2022-07-27T23:00:00,1060A,114.8902,40.762,张家口市,世纪豪园,,28,9,28,6,19,131,88,125,101,15,15,5,6,0.1,0.3
2022-07-27T23:00:00,1061A,114.8916,40.8661,张家口市,北泵房(对照点),,38,26,34,26,21,126,63,119,93,10,9,5,5,0.6,0.6
2022-07-27T23:00:00,1062A,117.9531,40.9081,承德市,铁路,,23,19,38,14,31,122,60,107,71,46,23,5,3,0.6,0.6
2022-07-27T23:00:00,1063A,117.9392,40.9763,承德市,中国银行,,28,2,25,2,26,132,88,118,95,13,12,6,5,0.3,0.5
2022-07-27T23:00:00,1064A,117.9503,40.928,承德市,开发区,,30,28,47,13,28,134,93,120,100,15,14,4,4,0.5,0.6
2022-07-27T23:00:00,1065A,117.8051,40.9655,承德市,文化中心,,25,17,29,11,27,131,79,114,96,17,11,10,6,0.6,0.6
2022-07-27T23:00:00,1066A,117.9268,41.0026,承德市,离宫(对照点),,28,9,33,19,25,131,68,115,82,6,10,1,1,0.3,0.5
2022-07-27T23:00:00,1067A,116.6708,39.5111,廊坊市,药材公司,,32,15,27,7,20,131,100,104,101,15,18,5,5,0.4,0.5
2022-07-27T23:00:00,1068A,116.7214,39.5589,廊坊市,开发区,,30,9,26,6,18,118,93,102,94,16,19,7,8,0.4,0.5
2022-07-27T23:00:00,1070A,116.7244,39.5269,廊坊市,北华航天学院,,30,14,37,9,28,129,93,111,100,15,16,5,6,0.4,0.5
2022-07-27T23:00:00,1071A,116.8842,38.2991,沧州市,沧县城建局,,36,36,45,18,23,159,60,139,104,14,15,6,7,0.2,0.3
2022-07-27T23:00:00,1072A,116.8584,38.3254,沧州市,电视转播站,,35,35,41,11,23,162,68,149,118,18,13,8,8,0.4,0.4
2022-07-27T23:00:00,1073A,116.8709,38.3228,沧州市,市环保局,,32,29,43,22,23,160,63,143,109,11,11,5,6,0.1,0.3
2022-07-27T23:00:00,1074A,115.6838,37.7541,衡水市,电机北厂,,43,39,48,30,34,170,75,156,122,12,23,4,6,0.5,0.6
2022-07-27T23:00:00,1075A,115.6303,37.7316,衡水市,市监测站,,49,49,69,24,28,182,76,165,123,10,19,5,6,0.6,0.7
2022-07-27T23:00:00,1077A,114.4704,37.0886,邢台市,达活泉,,36,6,39,7,23,155,113,146,123,2,6,6,7,0.3,0.5
2022-07-27T23:00:00,1078A,114.5062,37.0349,邢台市,邢师高专,,35,9,42,1,26,141,111,133,116,3,10,6,6,0.2,0.5
2022-07-27T23:00:00,1079A,114.5237,37.0851,邢台市,路桥公司,,34,13,43,20,20,152,108,144,115,1,6,4,3,0.3,0.5
2022-07-27T23:00:00,1080A,114.4725,37.0719,邢台市,市环保局,,35,10,51,5,26,153,109,142,119,2,8,5,6,0.3,0.5
2022-07-27T23:00:00,1081A,112.5139,37.8873,太原市,尖草坪,,26,26,36,13,20,99,47,93,77,38,25,5,5,0.5,0.6
2022-07-27T23:00:00,1083A,112.434,38.0108,太原市,上兰(对照点),,,,,,,,,,,,,,,,
2022-07-27T23:00:00,1084A,112.469,37.7124,太原市,晋源,,19,16,30,13,19,111,22,91,65,35,24,10,10,0.4,0.6
2022-07-27T23:00:00,1085A,112.5583,37.7394,太原市,小店,,36,25,38,13,23,115,11,114,72,72,32,6,7,0.6,0.8
2022-07-27T23:00:00,1086A,112.5369,37.8692,太原市,桃园,,30,30,38,12,22,109,45,93,83,42,29,6,8,0.6,0.9
2022-07-27T23:00:00,1087A,112.57,37.8195,太原市,坞城,,25,19,36,11,27,114,77,104,96,19,23,6,7,0.4,0.7
2022-07-27T23:00:00,1088A,112.549,37.9854,太原市,南寨,,28,28,33,11,17,104,6,84,53,37,24,4,4,0.4,0.5
2022-07-27T23:00:00,1089A,112.4701,37.782,太原市,金胜,,,,,,,,,,,,,,,,
2022-07-27T23:00:00,1090A,111.6507,40.7517,呼和浩特市,呼市一监,,34,17,26,6,13,141,107,130,128,17,17,4,6,0.3,0.4
2022-07-27T23:00:00,1091A,111.6572,40.8033,呼和浩特市,小召,,33,19,28,6,13,143,105,131,129,24,19,4,6,0.3,0.4
2022-07-27T23:00:00,1094A,111.7516,40.8369,呼和浩特市,如意水处理厂,,35,15,31,5,16,149,112,134,132,14,25,6,8,0.3,0.4
2022-07-27T23:00:00,1095A,111.7276,40.8062,呼和浩特市,二十九中,,33,13,29,5,16,134,103,124,122,17,22,8,9,0.4,0.5
2022-07-27T23:00:00,1096A,111.5512,40.7866,呼和浩特市,工大金川校区,,32,18,30,5,14,142,102,128,126,20,17,5,6,0.3,0.4
2022-07-27T23:00:00,1097A,111.717,40.7612,呼和浩特市,化肥厂生活区,,33,14,33,6,16,132,105,123,122,14,19,5,7,0.4,0.5
2022-07-27T23:00:00,1098A,123.6836,41.9339,沈阳市,森林路(对照点),,,,,,,,,,,,,,,,
2022-07-27T23:00:00,1099A,123.505,41.7406,沈阳市,浑南东路,颗粒物(PM10),54,58,54,32,33,184,24,168,97,58,29,25,9,0.8,0.9
2022-07-27T23:00:00,1100A,123.4231,41.6989,沈阳市,新秀街,,50,50,53,24,29,173,54,152,104,42,35,22,9,0.7,0.9
2022-07-27T23:00:00,1102A,123.5903,41.8411,沈阳市,东陵路,颗粒物(PM10),60,69,60,32,33,167,25,153,99,46,19,8,10,0.9,1
2022-07-27T23:00:00,1103A,123.4264,41.8467,沈阳市,陵东街,,36,36,52,21,30,170,83,143,100,17,27,5,7,0.7,1
2022-07-27T23:00:00,1104A,123.4114,41.7653,沈阳市,文化路,,42,40,57,29,38,186,79,172,128,25,30,9,16,0.6,0.9
2022-07-27T23:00:00,1105A,123.4678,41.7867,沈阳市,小河沿,,34,34,50,19,29,165,78,142,88,15,27,6,7,0.7,1
2022-07-27T23:00:00,1106A,123.4017,41.7972,沈阳市,太原街,,37,37,53,25,33,184,74,163,122,33,30,5,14,0.6,0.7
2022-07-27T23:00:00,1108A,123.3783,41.9228,沈阳市,京沈街,,49,49,66,28,38,204,94,194,156,26,37,9,11,0.7,0.9
2022-07-27T23:00:00,1109A,121.612,38.9741,大连市,甘井子,,33,33,21,19,10,107,98,97,84,10,11,4,4,0.7,0.6
2022-07-27T23:00:00,1110A,121.565,38.9511,大连市,周水子,,28,27,22,16,8,89,89,72,72,6,7,8,6,0.5,0.5
2022-07-27T23:00:00,1111A,121.5637,38.8845,大连市,星海三站,,,,,,,,,120,,,,,,,
2022-07-27T23:00:00,1112A,121.6302,38.9117,大连市,青泥洼桥,,35,29,15,22,12,112,112,100,94,5,4,6,6,0.6,0.6
2022-07-27T23:00:00,1113A,121.6251,38.8638,大连市,傅家庄,,,19,16,15,10,120,120,100,99,1,2,7,10,,0.5
2022-07-27T23:00:00,1114A,121.5213,38.8661,大连市,七贤岭,,50,20,19,24,11,159,159,140,140,3,4,7,7,0.9,0.8
2022-07-27T23:00:00,1115A,121.2529,38.8061,大连市,旅顺,,31,14,15,19,13,100,98,93,88,4,4,6,6,0.7,0.6
2022-07-27T23:00:00,1116A,121.7485,39.1311,大连市,金州,,34,27,19,16,16,107,106,98,93,6,6,6,5,0.5,0.5
2022-07-27T23:00:00,1117A,121.7811,39.0496,大连市,开发区,,39,19,20,27,12,113,103,108,96,10,10,9,8,0.8,0.8
2022-07-27T23:00:00,1118A,121.9762,39.0631,大连市,双D港,,28,16,15,14,12,128,88,104,79,10,11,8,8,0.5,0.5
2022-07-27T23:00:00,1119A,125.3325,43.9166,长春市,食品厂,,45,45,56,21,30,126,37,118,71,37,32,2,3,0.6,0.5
2022-07-27T23:00:00,1120A,125.2863,43.9027,长春市,客车厂,颗粒物(PM10),56,61,50,27,22,134,45,123,76,33,34,2,3,0.8,0.7
2022-07-27T23:00:00,1121A,125.2841,43.8463,长春市,邮电学院,颗粒物(PM10),51,51,44,26,24,124,24,117,83,27,18,4,4,0.5,0.5
2022-07-27T23:00:00,1122A,125.3716,43.8772,长春市,劳动公园,,47,47,59,27,33,114,59,114,77,14,34,1,2,0.5,0.6
2022-07-27T23:00:00,1123A,125.3297,43.8805,长春市,园林处,颗粒物(PM10),51,51,46,24,22,128,49,120,94,27,23,3,3,0.6,0.6
2022-07-27T23:00:00,1124A,125.4605,43.79,长春市,净月潭,,37,37,35,18,19,123,34,105,54,6,5,3,4,0.3,0.3
2022-07-27T23:00:00,1125A,125.7194,43.515,长春市,甩湾子(对照点),,,,,,,,,,,,,,,,
2022-07-27T23:00:00,1126A,125.3863,43.8447,长春市,经开区环卫处,,40,40,44,23,21,120,56,116,88,17,20,3,3,0.5,0.6
2022-07-27T23:00:00,1127A,125.245,43.7783,长春市,高新区管委会,颗粒物(PM10),63,76,45,30,24,104,18,99,62,48,23,3,4,0.5,0.4
2022-07-27T23:00:00,1128A,125.1761,43.8325,长春市,岱山公园,颗粒物(PM10),77,104,62,26,24,112,4,104,54,78,38,4,5,0.6,0.5
2022-07-27T23:00:00,1129A,126.5422,45.755,哈尔滨市,岭北(对照点),细颗粒物(PM2.5),53,46,38,37,27,168,73,155,120,39,16,5,7,0.9,0.7
2022-07-27T23:00:00,1130A,126.561,45.8167,哈尔滨市,松北商大,颗粒物(PM10),75,100,52,24,22,159,31,144,94,57,21,5,5,1.0,0.9
2022-07-27T23:00:00,1131A,126.979,45.5419,哈尔滨市,阿城会宁,,29,29,57,18,24,157,39,134,86,16,14,10,10,0.5,0.6
2022-07-27T23:00:00,1132A,126.599,45.7222,哈尔滨市,南岗学府路,颗粒物(PM10),55,59,50,32,27,168,61,158,113,33,17,7,11,0.7,0.6
2022-07-27T23:00:00,1133A,126.689,45.7733,哈尔滨市,太平宏伟公园,颗粒物(PM10),102,154,91,20,24,178,50,159,102,41,24,5,9,,0.6
2022-07-27T23:00:00,1134A,126.635,45.7667,哈尔滨市,道外承德广场,细颗粒物(PM2.5),67,64,65,48,29,164,54,150,103,36,28,8,9,0.7,0.6
2022-07-27T23:00:00,1135A,126.685,45.7319,哈尔滨市,香坊红旗大街,颗粒物(PM10),67,83,65,20,22,170,47,152,103,42,29,9,11,0.6,0.7
2022-07-27T23:00:00,1136A,126.6411,45.7258,哈尔滨市,动力和平路,,,85,68,,,165,53,149,104,39,25,7,8,0.7,0.9
2022-07-27T23:00:00,1137A,126.593,45.7478,哈尔滨市,道里建国路,颗粒物(PM10),67,83,53,28,25,168,67,158,114,43,25,12,12,2.4,1.4
2022-07-27T23:00:00,1138A,126.615,45.61,哈尔滨市,平房东轻厂,颗粒物(PM10),72,93,53,26,22,149,44,136,92,31,12,2,3,0.6,0.7
2022-07-27T23:00:00,1139A,126.595,45.9855,哈尔滨市,呼兰师专,颗粒物(PM10),58,65,68,20,26,221,82,188,135,20,20,6,7,0.8,0.8
2022-07-27T23:00:00,1140A,126.6206,45.6842,哈尔滨市,省农科院,颗粒物(PM10),65,80,53,23,21,163,44,148,94,34,20,7,19,0.6,0.7
2022-07-27T23:00:00,1141A,121.4,31.238,上海市,普陀,颗粒物(PM10),53,56,37,27,19,306,134,239,181,19,25,5,4,0.5,0.5
2022-07-27T23:00:00,1142A,121.478,31.2036,上海市,十五厂,"颗粒物(PM10),细颗粒物(PM2.5)",52,53,49,36,27,257,109,201,151,24,40,1,1,0.9,0.7
2022-07-27T23:00:00,1143A,121.467,31.3008,上海市,虹口,,46,46,39,28,18,262,121,214,175,20,31,4,4,0.4,0.4
2022-07-27T23:00:00,1144A,121.412,31.1654,上海市,徐汇上师大,颗粒物(PM10),56,62,38,38,23,290,125,218,151,21,35,3,2,0.6,0.5
2022-07-27T23:00:00,1145A,121.536,31.2659,上海市,杨浦四漂,,,39,38,32,26,249,125,211,173,,46,3,5,0.6,0.6
2022-07-27T23:00:00,1146A,120.978,31.0935,上海市,青浦淀山湖(对照点),,,,,,,,,,,,,,,,
2022-07-27T23:00:00,1147A,121.425,31.2261,上海市,静安监测站,颗粒物(PM10),54,58,40,33,23,272,120,214,167,26,33,3,3,0.4,0.4
2022-07-27T23:00:00,1148A,121.703,31.1907,上海市,浦东川沙,,42,37,48,29,28,205,102,172,139,19,31,4,3,0.3,0.4
2022-07-27T23:00:00,1149A,121.533,31.2284,上海市,浦东新区监测站,细颗粒物(PM2.5),58,54,48,41,29,270,129,211,168,18,39,5,5,0.6,0.7
2022-07-27T23:00:00,1150A,121.577,31.2071,上海市,浦东张江,,45,37,39,31,27,229,112,173,136,19,41,4,5,0.8,0.9
2022-07-27T23:00:00,1151A,118.8086,32.1065,南京市,迈皋桥,颗粒物(PM10),52,53,38,14,17,262,76,220,153,31,23,2,2,0.4,0.5
2022-07-27T23:00:00,1152A,118.7538,32.0551,南京市,草场门,,29,29,34,17,18,272,91,251,185,31,27,4,6,0.6,0.7
2022-07-27T23:00:00,1153A,118.7794,32.0745,南京市,山西路,,44,44,41,29,26,290,66,260,183,36,21,4,5,0.3,0.5
2022-07-27T23:00:00,1154A,118.7752,32.0023,南京市,中华门,,36,36,40,14,16,273,111,265,194,24,26,5,6,0.7,1.2
2022-07-27T23:00:00,1155A,118.8109,32.0309,南京市,瑞金路,,38,38,32,24,21,280,109,244,193,13,18,4,6,0.4,0.5
2022-07-27T23:00:00,1156A,118.7997,32.0754,南京市,玄武湖,,48,48,33,20,20,280,52,246,168,50,28,3,4,0.7,0.8
2022-07-27T23:00:00,1157A,118.6414,32.0931,南京市,浦口,,27,27,32,12,16,273,62,199,139,21,12,4,5,0.5,0.6
2022-07-27T23:00:00,1158A,118.7356,31.9996,南京市,奥体中心,,39,39,42,19,19,295,120,268,207,24,29,4,7,0.4,0.7
2022-07-27T23:00:00,1159A,118.9125,32.1028,南京市,仙林大学城,,41,41,25,22,14,241,67,212,161,30,18,6,6,0.6,0.6
2022-07-27T23:00:00,1160A,120.561,31.2472,苏州市,上方山(对照点),,39,29,45,27,21,266,121,234,185,12,20,6,8,0.5,0.6
2022-07-27T23:00:00,1161A,120.628,31.2864,苏州市,南门,,,,,,,,,,,,,,,,
2022-07-27T23:00:00,1162A,120.591,31.3019,苏州市,彩香,,35,21,31,17,25,270,109,242,194,12,12,5,5,0.5,0.6
2022-07-27T23:00:00,1163A,120.596,31.3264,苏州市,轧钢厂,,33,29,38,16,18,263,105,240,193,16,18,6,6,0.4,0.5
2022-07-27T23:00:00,1164A,120.613,31.2703,苏州市,吴中区,,40,40,32,16,22,280,109,251,198,22,20,5,5,0.5,0.6
2022-07-27T23:00:00,1165A,120.543,31.2994,苏州市,苏州新区,,38,23,31,18,27,278,120,255,199,13,19,6,7,0.6,0.8
2022-07-27T23:00:00,1166A,120.669,31.3097,苏州市,苏州工业园区,,34,29,33,17,18,244,106,225,189,15,17,4,6,0.6,0.8
2022-07-27T23:00:00,1167A,120.641,31.3708,苏州市,相城区,,36,27,34,25,24,266,99,243,205,20,16,4,5,0.4,0.7
2022-07-27T23:00:00,1168A,120.9098,31.9663,南通市,狼山街道,颗粒物(PM10),59,67,35,24,17,245,133,204,171,16,21,8,11,0.8,0.9
2022-07-27T23:00:00,1169A,120.86,32.0005,南通市,虹桥,细颗粒物(PM2.5),58,40,36,41,29,252,129,213,170,17,24,9,12,0.7,0.8
2022-07-27T23:00:00,1170A,120.87,32.02,南通市,城中,细颗粒物(PM2.5),54,32,33,38,29,190,112,166,139,18,19,6,8,0.8,0.8
2022-07-27T23:00:00,1171A,120.94,31.93,南通市,星湖花园,,43,39,32,24,21,251,135,203,175,12,20,7,10,0.8,1
2022-07-27T23:00:00,1172A,120.81,32.0417,南通市,紫琅学院,,40,35,35,22,20,188,127,162,148,6,13,3,5,1.0,0.9
2022-07-27T23:00:00,1173A,119.176,34.5885,连云港市,市环境监测站,,46,46,38,29,22,148,122,143,138,9,11,1,1,0.8,0.7
2022-07-27T23:00:00,1177A,117.179,34.2761,徐州市,黄河新村,颗粒物(PM10),54,58,48,37,30,192,111,176,153,18,19,6,7,0.8,0.7
2022-07-27T23:00:00,1178A,117.1918,34.2384,徐州市,淮塔,细颗粒物(PM2.5),70,68,54,51,34,191,93,171,134,21,17,5,5,0.6,0.5
2022-07-27T23:00:00,1180A,117.256,34.2153,徐州市,新城区,细颗粒物(PM2.5),67,76,59,48,32,184,77,170,134,34,17,5,6,0.7,0.7
2022-07-27T23:00:00,1181A,117.244,34.2911,徐州市,桃园路,颗粒物(PM10),60,70,59,39,25,188,99,177,150,18,16,10,11,0.9,0.9
2022-07-27T23:00:00,1182A,117.2933,34.2778,徐州市,农科院,,46,46,47,31,24,159,88,152,129,26,25,3,3,0.5,0.6
2022-07-27T23:00:00,1186A,119.389,32.3761,扬州市,邗江监测站,,39,36,26,27,15,159,88,138,113,10,6,9,5,0.7,0.7
2022-07-27T23:00:00,1188A,120.269,31.4867,无锡市,雪浪,,35,14,24,12,16,188,112,180,157,2,4,10,12,0.6,0.8
2022-07-27T23:00:00,1189A,120.275,31.6219,无锡市,黄巷,,41,22,41,12,22,296,129,254,221,9,27,7,11,0.5,1
2022-07-27T23:00:00,1190A,120.294,31.56,无锡市,曹张,,37,24,31,5,18,233,116,220,188,7,16,4,7,0.7,0.9
2022-07-27T23:00:00,1191A,120.242,31.5031,无锡市,漆塘,,37,14,25,8,16,210,118,198,174,5,10,5,7,0.6,1
2022-07-27T23:00:00,1192A,120.3489,31.5863,无锡市,东亭,,34,19,40,7,24,290,108,261,221,11,20,7,10,0.5,0.9
2022-07-27T23:00:00,1193A,120.354,31.5475,无锡市,旺庄,,37,18,34,9,19,290,116,265,224,12,20,10,13,0.7,1
2022-07-27T23:00:00,1194A,120.245,31.5631,无锡市,荣巷,,36,28,26,9,20,208,114,198,168,2,7,12,13,0.6,0.8
2022-07-27T23:00:00,1195A,120.299,31.6817,无锡市,堰桥,,47,47,43,28,25,296,110,270,230,18,16,6,9,0.7,1.1
2022-07-27T23:00:00,1196A,119.9633,31.762,常州市,市监测站,,,46,38,19,16,289,117,252,193,,18,12,9,0.8,0.7
2022-07-27T23:00:00,1200A,119.9468,31.7069,常州市,武进监测站,,39,23,35,16,25,296,122,256,218,9,16,10,9,0.7,0.9
2022-07-27T23:00:00,1201A,119.9255,31.9087,常州市,安家,细颗粒物(PM2.5),52,30,36,36,33,256,64,218,162,30,19,8,8,0.7,0.7
2022-07-27T23:00:00,1203A,119.6707,32.1875,镇江市,新区办事处,,39,39,28,27,18,186,72,166,130,30,27,6,6,0.7,0.7
2022-07-27T23:00:00,1204A,119.4974,32.1968,镇江市,职教中心,,41,41,29,25,16,201,47,184,135,40,21,3,2,0.7,0.6
2022-07-27T23:00:00,1205A,119.4303,32.1328,镇江市,丹徒区监测站,,45,45,34,26,20,220,71,208,163,28,22,3,7,0.7,0.7
2022-07-27T23:00:00,1206A,119.905,32.4878,泰州市,公园路,,48,48,28,29,22,118,78,112,105,15,9,7,7,0.7,0.6
2022-07-27T23:00:00,1207A,119.9189,32.4625,泰州市,莲花,,45,42,27,31,27,125,78,121,111,17,12,8,10,0.8,0.7
2022-07-27T23:00:00,1209A,119.888,32.4639,泰州市,留学生创业园,细颗粒物(PM2.5),58,51,32,41,24,131,90,128,121,16,12,7,8,0.7,0.7
2022-07-27T23:00:00,1210A,119.036,33.5981,淮安市,钵池山,,39,36,33,27,18,140,73,133,118,21,12,8,8,0.8,0.8
2022-07-27T23:00:00,1211A,119.007,33.575,淮安市,北京南路,,44,44,36,25,21,149,65,139,117,32,15,7,6,0.5,0.5
2022-07-27T23:00:00,1212A,118.989,33.6067,淮安市,市监测站,颗粒物(PM10),53,56,40,21,18,137,84,131,118,26,20,6,6,0.8,0.8
2022-07-27T23:00:00,1213A,119.135,33.5039,淮安市,楚州区监测站,,46,46,38,27,21,143,62,135,109,29,17,7,7,0.6,0.6
2022-07-27T23:00:00,1214A,119.0186,33.6297,淮安市,淮阴区监测站,,49,49,37,29,21,131,82,128,115,19,14,8,7,0.7,0.6
2022-07-27T23:00:00,1215A,120.118,33.4022,盐城市,盐城电厂,,36,36,32,24,18,143,96,130,115,10,11,4,5,0.3,0.4
2022-07-27T23:00:00,1216A,120.156,33.3942,盐城市,市监测站,,30,30,27,19,15,145,94,131,114,9,9,3,3,0.4,0.5
2022-07-27T23:00:00,1218A,120.2144,33.38,盐城市,开发区管委会,,38,28,19,26,19,144,83,128,107,17,13,7,7,0.4,0.4
2022-07-27T23:00:00,1220A,118.293,33.9528,宿迁市,宿迁学院,颗粒物(PM10),55,59,38,36,27,157,84,154,128,32,12,4,5,0.7,0.7
2022-07-27T23:00:00,1221A,118.2442,33.9592,宿迁市,宿迁中学,,45,44,37,31,23,144,111,140,127,12,9,2,2,0.7,0.8
2022-07-27T23:00:00,1223A,120.2072,30.2111,杭州市,滨江,,39,26,43,11,23,269,122,243,188,11,26,4,5,0.4,0.5
2022-07-27T23:00:00,1224A,120.0633,30.2747,杭州市,西溪,,26,18,41,6,23,244,83,193,151,10,19,8,8,0.5,0.6
2022-07-27T23:00:00,1225A,119.026,29.635,杭州市,千岛湖(对照点),,,,,,,,,,,,,,,,
2022-07-27T23:00:00,1226A,120.3461,30.3153,杭州市,下沙,,34,26,54,12,26,302,106,246,171,20,29,4,6,0.4,0.5
2022-07-27T23:00:00,1227A,120.1269,30.2456,杭州市,卧龙桥,,,16,40,,22,280,90,228,173,8,19,4,5,,0.7
2022-07-27T23:00:00,1228A,120.1903,30.2692,杭州市,浙江农大,,35,17,41,12,23,285,112,248,176,11,24,3,4,0.6,0.8
2022-07-27T23:00:00,1229A,120.157,30.2897,杭州市,朝晖五区,,,,,,,,,,,,,,,,
2022-07-27T23:00:00,1230A,120.1197,30.3119,杭州市,和睦小学,,,23,50,15,27,303,,255,224,13,28,5,6,0.5,0.7
2022-07-27T23:00:00,1231A,120.3019,30.4183,杭州市,临平镇,,33,27,51,13,24,294,105,238,168,19,27,3,4,0.6,0.7
2022-07-27T23:00:00,1232A,120.2697,30.1819,杭州市,城厢镇,,36,30,49,13,31,273,114,225,172,12,28,6,6,0.5,0.7
2022-07-27T23:00:00,1233A,120.0883,30.1808,杭州市,云栖,,26,16,40,7,21,246,83,217,158,8,19,6,7,0.4,0.6
2022-07-27T23:00:00,1234A,121.8358,29.911,宁波市,区环保大楼,,22,22,26,13,17,161,37,136,78,22,20,8,8,0.6,0.7
2022-07-27T23:00:00,1235A,121.56,29.82,宁波市,万里学院,,39,39,40,21,24,177,58,138,69,21,25,13,12,0.8,0.8
2022-07-27T23:00:00,1236A,121.713,29.9572,宁波市,龙赛医院,,26,26,33,16,20,215,54,180,98,16,23,5,7,0.5,0.6
2022-07-27T23:00:00,1239A,121.633,29.7733,宁波市,钱湖水厂,,18,18,25,11,20,136,49,117,78,14,12,6,7,0.6,0.6
2022-07-27T23:00:00,1240A,121.5856,29.8635,宁波市,太古小学,,36,33,29,25,24,180,48,140,89,22,20,10,9,0.8,0.8
2022-07-27T23:00:00,1241A,121.524,29.8674,宁波市,市环境监测中心,颗粒物(PM10),51,52,37,27,20,195,39,128,63,36,25,18,8,0.7,0.7
2022-07-27T23:00:00,1242A,120.634,28.0089,温州市,瓯海,,36,36,40,18,22,164,76,132,91,13,15,5,6,0.5,0.5
2022-07-27T23:00:00,1243A,120.6748,27.9939,温州市,南浦,,40,40,43,19,22,149,78,125,88,10,9,4,5,0.5,0.5
2022-07-27T23:00:00,1244A,120.76,27.9747,温州市,龙湾,,32,32,37,11,16,113,77,100,84,8,11,6,6,0.4,0.4
2022-07-27T23:00:00,1245A,120.6709,28.0167,温州市,市站,,28,27,34,19,20,156,82,119,89,12,16,5,5,0.5,0.5
2022-07-27T23:00:00,1246A,120.598,30.0911,绍兴市,袍江站,,,,,,,,,,,,,,,,
2022-07-27T23:00:00,1247A,120.6053,29.9928,绍兴市,城东开发委,,34,23,48,10,28,243,106,193,135,4,19,5,5,0.4,0.6
2022-07-27T23:00:00,1250A,120.0751,30.8669,湖州市,城西水厂,,29,15,34,8,12,240,92,213,154,25,24,4,5,0.4,0.5
2022-07-27T23:00:00,1252A,120.7436,30.778,嘉兴市,清河小学,,,32,36,24,19,266,,253,250,15,21,4,6,0.4,0.7
2022-07-27T23:00:00,1253A,120.726,30.7478,嘉兴市,嘉兴学院,,37,37,35,23,22,262,115,246,199,12,24,3,4,0.4,0.5
2022-07-27T23:00:00,1255A,121.273,28.6459,台州市,黄岩环保大楼,,18,18,25,6,13,123,52,104,65,13,10,6,6,0.3,0.3
2022-07-27T23:00:00,1256A,121.419,28.6542,台州市,台州环保大楼,,27,27,32,9,17,136,45,106,58,11,11,4,4,0.4,0.4
2022-07-27T23:00:00,1257A,121.377,28.5773,台州市,路桥田洋王,,25,25,32,10,16,114,47,103,65,14,13,6,5,0.4,0.4
2022-07-27T23:00:00,1258A,122.122,30.0203,舟山市,定海檀枫,,20,19,24,14,14,100,56,92,73,13,11,2,2,0.2,0.3
2022-07-27T23:00:00,1259A,122.3094,29.9558,舟山市,普陀东港,,26,24,27,18,16,83,58,76,74,16,15,3,3,0.3,0.4
2022-07-27T23:00:00,1260A,122.19,29.9944,舟山市,临城新区,,20,17,26,10,13,100,63,92,81,17,14,3,3,0.3,0.3
2022-07-27T23:00:00,1261A,119.649,29.1131,金华市,四中(停运161031),,,,,,,,,,,,,,,,
2022-07-27T23:00:00,1262A,119.647,29.077,金华市,十五中,,35,31,48,24,31,201,96,163,130,17,18,4,7,0.4,0.5
2022-07-27T23:00:00,1263A,119.686,29.1029,金华市,监测站,,37,37,52,8,30,193,96,176,138,17,18,35,8,0.5,0.6
2022-07-27T23:00:00,1264A,118.8692,28.9398,衢州市,环保大楼,,48,48,53,24,31,169,53,134,92,23,21,4,7,0.4,0.5
2022-07-27T23:00:00,1265A,118.8709,28.9666,衢州市,实验学校,,32,32,39,14,21,159,59,124,89,24,22,6,7,0.3,0.3
2022-07-27T23:00:00,1266A,118.8621,28.9808,衢州市,衢州学院,,36,36,45,24,29,174,54,135,91,29,22,2,3,0.4,0.4
2022-07-27T23:00:00,1267A,119.914,28.4514,丽水市,监测站大楼,,28,23,40,19,23,135,58,121,84,12,15,5,7,0.4,0.5
2022-07-27T23:00:00,1268A,119.93,28.4586,丽水市,莲都小学,,27,27,45,11,23,144,65,126,90,8,12,5,6,0.4,0.4
2022-07-27T23:00:00,1269A,119.879,28.4231,丽水市,余庄前,,31,31,37,15,20,171,7,134,65,18,12,5,5,0.4,0.4
2022-07-27T23:00:00,1270A,117.1959,31.7848,合肥市,明珠广场,颗粒物(PM10),58,66,38,29,19,202,67,181,136,57,34,6,6,0.7,0.6
2022-07-27T23:00:00,1271A,117.3072,31.8764,合肥市,三里街,,40,40,34,9,9,148,58,134,104,46,25,10,10,0.6,0.6
2022-07-27T23:00:00,1272A,117.2588,31.8707,合肥市,琥珀山庄,,31,31,29,17,16,189,92,164,130,24,17,7,7,0.7,0.7
2022-07-27T23:00:00,1273A,117.1604,31.9052,合肥市,董铺水库(对照点),,34,34,34,12,13,179,47,159,113,23,16,5,6,0.6,0.6
2022-07-27T23:00:00,1274A,117.25,31.8571,合肥市,长江中路,,41,41,38,24,20,192,87,167,129,28,17,7,6,0.6,0.6
2022-07-27T23:00:00,1275A,117.266,31.9436,合肥市,庐阳区,,36,36,36,19,19,159,48,149,53,30,24,3,6,0.8,0.7
2022-07-27T23:00:00,1276A,117.336,31.8586,合肥市,瑶海区,,46,46,41,11,14,156,69,133,104,40,30,9,9,0.5,0.4
2022-07-27T23:00:00,1277A,117.3027,31.7964,合肥市,包河区,,44,44,34,17,15,171,62,156,107,53,28,13,12,0.7,0.5
2022-07-27T23:00:00,1278A,117.2776,31.7385,合肥市,滨湖新区,颗粒物(PM10),51,51,35,24,14,166,74,154,122,38,19,8,8,0.5,0.6
2022-07-27T23:00:00,1279A,117.1318,31.8403,合肥市,高新区,颗粒物(PM10),53,56,35,24,19,218,59,196,142,37,20,2,3,0.8,0.7
2022-07-27T23:00:00,1280A,119.3903,26.0543,福州市,鼓山(对照点),,,,,,,,,,,,,,,,
2022-07-27T23:00:00,1282A,119.2681,26.0504,福州市,师大,,49,49,57,22,23,198,62,177,123,22,20,3,4,0.3,0.3
2022-07-27T23:00:00,1283A,119.2984,26.1028,福州市,五四北路,,42,35,48,29,35,208,60,176,115,27,21,3,4,0.3,0.4
2022-07-27T23:00:00,1284A,119.2648,26.0768,福州市,杨桥西路,颗粒物(PM10),51,52,59,21,25,198,50,174,103,25,19,3,4,0.3,0.3
2022-07-27T23:00:00,1285A,119.317,26.0746,福州市,紫阳,颗粒物(PM10),53,56,61,21,25,196,51,169,113,28,21,4,5,0.4,0.5
2022-07-27T23:00:00,1286A,118.1608,24.8169,厦门市,溪东(对照点),,,,,,,,,,,,,,,,
2022-07-27T23:00:00,1287A,118.1514,24.4767,厦门市,洪文,颗粒物(PM10),66,81,34,34,16,114,25,101,72,67,21,5,4,0.6,0.3
2022-07-27T23:00:00,1288A,118.0661,24.4444,厦门市,鼓浪屿,颗粒物(PM10),58,65,35,38,21,123,48,90,74,29,25,4,6,0.8,0.7
2022-07-27T23:00:00,1290A,115.8931,28.6843,南昌市,省外办,颗粒物(PM10),54,57,57,24,23,182,119,156,150,17,15,8,8,0.6,0.5
2022-07-27T23:00:00,1291A,115.8886,28.7003,南昌市,省林业公司,颗粒物(PM10),67,83,55,36,24,188,76,163,145,56,23,7,6,0.8,0.7
2022-07-27T23:00:00,1292A,115.8126,28.7442,南昌市,林科所,细颗粒物(PM2.5),52,41,44,36,27,155,98,144,114,21,9,7,5,0.8,0.7
2022-07-27T23:00:00,1294A,115.8518,28.687,南昌市,建工学校,细颗粒物(PM2.5),63,54,62,45,27,174,101,153,140,21,14,5,5,0.7,0.6
2022-07-27T23:00:00,1295A,115.8921,28.6424,南昌市,象湖,颗粒物(PM10),52,54,62,20,23,176,102,157,141,15,13,4,4,0.7,0.7
2022-07-27T23:00:00,1296A,115.7423,28.7996,南昌市,武术学校(对照点),,42,42,34,28,24,68,38,59,45,5,5,7,13,0.6,0.7
2022-07-27T23:00:00,1298A,115.9314,28.6842,南昌市,省站,颗粒物(PM10),52,54,56,31,30,174,115,158,144,10,8,7,8,0.7,0.7
2022-07-27T23:00:00,1299A,116.9862,36.6114,济南市,科干所,颗粒物(PM10),53,56,38,27,18,199,115,177,159,23,22,12,4,1.1,0.8
2022-07-27T23:00:00,1300A,116.9376,36.665,济南市,农科所,颗粒物(PM10),51,51,43,22,17,208,93,194,162,34,29,11,6,0.6,0.6
2022-07-27T23:00:00,1301A,117.1265,36.6734,济南市,开发区,颗粒物(PM10),61,71,40,29,17,217,70,186,150,45,29,13,5,1.3,0.8
2022-07-27T23:00:00,1303A,117.0624,36.6868,济南市,省种子仓库,颗粒物(PM10),53,56,48,30,19,210,84,190,156,30,32,13,4,0.9,0.6
2022-07-27T23:00:00,1304A,116.9489,36.6447,济南市,机床二厂,颗粒物(PM10),61,71,53,24,17,219,96,192,161,31,26,13,6,0.7,0.7
2022-07-27T23:00:00,1305A,117.0495,36.663,济南市,市监测站,颗粒物(PM10),55,59,42,24,18,219,91,188,158,30,29,17,7,1.1,0.8
2022-07-27T23:00:00,1306A,116.7675,36.5484,济南市,长清党校,颗粒物(PM10),56,61,43,29,23,244,132,216,183,27,24,9,7,0.8,0.7
2022-07-27T23:00:00,1307A,120.6659,36.2403,青岛市,仰口(对照点),,,,,,,,,,,,,,,,
2022-07-27T23:00:00,1308A,120.3905,36.1851,青岛市,李沧区子站,,,,,,,,,,,,,,,,
2022-07-27T23:00:00,1309A,120.3471,36.0699,青岛市,市北区子站,,,,,,,,,,,,,,,,
2022-07-27T23:00:00,1310A,120.4134,36.0658,青岛市,市南区东部子站,,33,9,10,2,5,109,104,91,91,5,9,6,6,0.4,0.4
2022-07-27T23:00:00,1311A,120.3664,36.1032,青岛市,四方区子站,,30,9,10,5,4,96,95,90,71,7,17,4,5,0.5,0.5
2022-07-27T23:00:00,1312A,120.2994,36.054,青岛市,市南区西部子站,,36,12,11,2,4,146,114,110,99,4,13,5,6,0.3,0.4
2022-07-27T23:00:00,1313A,120.4581,36.0858,青岛市,崂山区子站,,36,22,13,2,2,117,115,103,103,8,11,5,5,0.2,0.2
2022-07-27T23:00:00,1314A,120.1983,35.9608,青岛市,黄岛区子站,,34,7,10,5,7,123,106,112,102,12,22,4,4,0.4,0.5
2022-07-27T23:00:00,1315A,120.3999,36.3083,青岛市,城阳区子站,,29,8,10,2,6,107,90,94,93,6,6,4,4,0.5,0.5
2022-07-27T23:00:00,1316A,113.69031,34.76122,郑州市,烟厂,,26,8,49,18,41,161,78,142,108,19,15,4,4,0.5,0.6
2022-07-27T23:00:00,1317A,113.65724,34.77134,郑州市,郑纺机,,,,53,,,163,74,143,107,21,14,5,6,0.4,0.4
2022-07-27T23:00:00,1318A,113.67526,34.80246,郑州市,银行学校,,26,12,47,4,30,143,81,132,109,18,14,3,3,0.4,0.5
2022-07-27T23:00:00,1319A,113.56746,34.81334,郑州市,供水公司,,25,6,49,3,28,156,77,146,113,8,8,5,5,0.2,0.4
2022-07-27T23:00:00,1320A,113.7329,34.7178,郑州市,经开区管委,,23,16,47,7,31,148,72,128,95,25,17,2,2,0.5,0.6
2022-07-27T23:00:00,1321A,113.73961,34.77172,郑州市,四十七中,,23,11,50,3,20,152,72,136,101,26,20,4,4,0.1,0.2
2022-07-27T23:00:00,1322A,113.60532,34.74838,郑州市,市监测站,,27,22,52,5,30,166,84,142,104,19,21,4,3,0.4,0.6
2022-07-27T23:00:00,1323A,113.64164,34.7525,郑州市,河医大,,24,10,51,12,27,160,76,145,105,23,19,3,3,0.5,0.7
2022-07-27T23:00:00,1324A,113.51488,34.91089,郑州市,岗李水库(对照点),,,,,,,,,,,,,,,,
2022-07-27T23:00:00,1325A,114.3677,30.5584,武汉市,东湖梨园,,34,34,39,20,21,203,81,166,131,12,15,7,8,0.7,0.9
2022-07-27T23:00:00,1326A,114.2529,30.558,武汉市,汉阳月湖,,44,44,40,17,18,166,50,158,122,47,27,6,6,0.7,0.8
2022-07-27T23:00:00,1327A,114.282,30.6189,武汉市,汉口花桥,颗粒物(PM10),51,52,43,24,25,182,86,163,140,20,24,7,8,0.6,0.8
2022-07-27T23:00:00,1328A,114.3025,30.5332,武汉市,武昌紫阳,,34,34,38,12,19,164,72,156,128,20,23,4,4,0.6,0.8
2022-07-27T23:00:00,1329A,114.3646,30.6217,武汉市,青山钢花,颗粒物(PM10),51,52,47,22,27,214,55,176,133,46,29,6,7,0.8,1
2022-07-27T23:00:00,1330A,114.1566,30.4825,武汉市,沌口新区,,46,46,46,22,21,173,49,158,125,46,29,6,8,0.8,0.9
2022-07-27T23:00:00,1331A,114.3014,30.5944,武汉市,汉口江滩,,48,48,43,11,20,207,78,161,113,26,34,7,7,0.6,0.8
2022-07-27T23:00:00,1333A,114.135,30.6319,武汉市,吴家山,颗粒物(PM10),51,51,44,27,21,188,71,162,121,39,21,4,4,0.8,0.9
2022-07-27T23:00:00,1334A,113.8454,30.2917,武汉市,沉湖七壕(对照点),,37,37,40,2,25,142,46,129,101,21,17,7,10,0.7,1.1
2022-07-27T23:00:00,1335A,113.0833,28.2325,长沙市,经开区环保局,细颗粒物(PM2.5),55,44,33,39,28,146,65,127,94,36,13,5,7,0.6,0.6
2022-07-27T23:00:00,1336A,112.8872,28.2189,长沙市,高开区环保局,,34,34,23,17,18,150,95,137,132,20,14,9,11,0.3,0.2
2022-07-27T23:00:00,1337A,113.0792,28.2053,长沙市,马坡岭,颗粒物(PM10),64,77,42,34,27,171,29,142,98,56,17,10,12,0.8,0.7
2022-07-27T23:00:00,1338A,112.9394,28.19,长沙市,湖南师范大学,,42,42,38,22,18,156,71,138,118,12,10,4,6,0.4,0.4
2022-07-27T23:00:00,1339A,113.0178,28.1322,长沙市,雨花区环保局,,46,25,27,32,24,156,108,146,134,13,12,7,9,0.4,0.4
2022-07-27T23:00:00,1340A,112.9792,28.2597,长沙市,伍家岭,,34,30,37,20,22,163,108,147,136,15,19,4,5,0.6,0.7
2022-07-27T23:00:00,1341A,113.0014,28.1944,长沙市,火车新站,,36,31,32,25,26,143,98,133,120,11,15,6,9,0.4,0.3
2022-07-27T23:00:00,1342A,112.9844,28.1178,长沙市,天心区环保局,,39,36,34,27,15,148,98,133,129,11,10,4,4,0.5,0.5
2022-07-27T23:00:00,1343A,112.8908,28.1308,长沙市,湖南中医药大学,颗粒物(PM10),59,68,45,21,22,145,6,133,93,73,29,4,5,0.6,0.3
2022-07-27T23:00:00,1344A,112.9581,28.3611,长沙市,沙坪(对照点),,26,18,16,18,19,156,61,133,105,16,14,5,6,0.6,0.6
2022-07-27T23:00:00,1345A,113.2347,23.1423,广州市,广雅中学,,30,30,44,10,23,243,62,220,179,29,21,5,5,0.8,0.7
2022-07-27T23:00:00,1346A,113.2612,23.105,广州市,市五中,,33,33,41,16,25,255,63,226,184,26,18,6,5,0.7,0.7
2022-07-27T23:00:00,1348A,113.3478,23.0916,广州市,广东商学院,,27,27,37,13,21,243,42,209,165,40,23,6,4,0.7,0.6
2022-07-27T23:00:00,1349A,113.4332,23.1047,广州市,市八十六中,,33,33,40,13,19,250,36,215,162,53,27,5,5,0.6,0.5
2022-07-27T23:00:00,1350A,113.3505,22.9483,广州市,番禺中学,,27,27,33,13,18,229,44,186,139,27,16,10,9,0.8,0.7
2022-07-27T23:00:00,1351A,113.2146,23.3916,广州市,花都师范,,44,44,46,22,28,218,121,193,172,32,24,6,6,0.8,0.7
2022-07-27T23:00:00,1352A,113.2597,23.1331,广州市,市监测站,,33,33,37,14,23,246,70,222,184,19,14,5,4,0.8,0.7
2022-07-27T23:00:00,1353A,113.5618,23.312,广州市,九龙镇镇龙,颗粒物(PM10),72,94,58,39,25,248,28,203,160,87,34,7,7,0.9,0.8
2022-07-27T23:00:00,1354A,113.2765,23.1544,广州市,麓湖,,23,12,38,10,24,242,73,212,176,23,16,5,4,0.7,0.7
2022-07-27T23:00:00,1355A,113.443,23.3035,广州市,帽峰山森林公园(对照点),,35,35,37,16,20,254,83,222,195,37,24,15,6,1.1,0.8
2022-07-27T23:00:00,1356A,114.1063,22.5545,深圳市,通心岭子站,,20,20,16,12,8,132,49,114,90,25,16,3,3,0.6,0.6
2022-07-27T23:00:00,1357A,114.117,22.5625,深圳市,洪湖,,31,31,20,13,12,149,48,124,99,26,16,8,9,0.6,0.5
2022-07-27T23:00:00,1358A,113.987,22.5417,深圳市,华侨城,,20,20,19,2,7,118,56,93,79,13,16,5,5,0.6,0.6
2022-07-27T23:00:00,1359A,113.9181,22.5171,深圳市,南海子站,,27,20,22,12,10,133,8,96,66,53,22,5,4,0.6,0.6
2022-07-27T23:00:00,1360A,114.2458,22.5689,深圳市,盐田,,28,19,11,12,11,132,17,112,57,56,30,4,4,0.7,0.6
2022-07-27T23:00:00,1361A,114.2283,22.7244,深圳市,龙岗,,33,33,27,14,11,203,34,162,112,45,27,6,5,0.4,0.4
2022-07-27T23:00:00,1362A,113.8953,22.5861,深圳市,西乡,,,,,,,,,,,,,,,,
2022-07-27T23:00:00,1363A,114.494,22.5422,深圳市,南澳,,16,11,17,2,5,115,51,96,76,10,10,7,8,0.7,0.7
2022-07-27T23:00:00,1364A,114.41,22.6342,深圳市,葵涌,,22,22,12,7,5,94,28,84,61,26,12,8,8,0.4,0.4
2022-07-27T23:00:00,1365A,114.297,22.5978,深圳市,梅沙,,15,15,13,6,7,115,20,99,67,27,15,6,6,0.3,0.3
2022-07-27T23:00:00,1366A,114.0678,22.738,深圳市,观澜,,45,45,38,12,15,192,36,176,128,25,21,7,7,0.5,0.4
2022-07-27T23:00:00,1367A,113.5814,22.2618,珠海市,吉大,,16,10,10,10,7,72,51,68,61,5,3,7,7,0.4,0.4
2022-07-27T23:00:00,1368A,113.4881,22.2335,珠海市,前山,,15,15,15,9,11,103,43,88,64,12,10,8,9,0.2,0.2
2022-07-27T23:00:00,1369A,113.628,22.4251,珠海市,唐家,,18,9,10,9,7,99,56,88,73,6,4,6,6,0.4,0.3
2022-07-27T23:00:00,1370A,113.299,22.2281,珠海市,斗门,,17,15,13,6,6,121,54,97,73,4,5,4,5,0.4,0.4
2022-07-27T23:00:00,1371A,113.1294,23.0067,佛山市,湾梁,颗粒物(PM10),51,51,36,17,20,196,58,185,143,19,13,5,5,0.5,0.4
2022-07-27T23:00:00,1372A,113.1083,23.0478,佛山市,华材职中,,48,48,37,17,22,181,57,169,134,19,13,6,5,0.4,0.3
2022-07-27T23:00:00,1373A,113.144,23.0453,佛山市,南海气象局,,46,46,37,22,24,198,58,182,144,25,14,6,5,0.8,0.6
2022-07-27T23:00:00,1374A,113.2881,22.8094,佛山市,顺德苏岗,,20,16,19,14,14,180,48,156,118,20,12,7,5,0.7,0.6
2022-07-27T23:00:00,1375A,113.2544,22.7642,佛山市,容桂街道办,,,,,,,,,,,,,,,,
2022-07-27T23:00:00,1376A,112.8383,22.8678,佛山市,高明孔堂,,38,38,24,4,10,124,69,110,104,12,9,6,5,0.5,0.5
2022-07-27T23:00:00,1377A,112.8836,23.1588,佛山市,三水监测站,颗粒物(PM10),52,53,43,34,29,153,26,138,99,58,25,13,9,0.6,0.5
2022-07-27T23:00:00,1378A,112.867,23.185,佛山市,三水云东海,颗粒物(PM10),51,52,40,31,27,156,38,144,104,38,18,6,6,0.5,0.4
2022-07-27T23:00:00,1379A,113.3769,22.5211,中山市,华柏园,,19,5,23,11,13,141,59,114,88,4,5,2,3,0.5,0.5
2022-07-27T23:00:00,1380A,113.3881,22.5497,中山市,张溪,,22,22,29,10,10,143,62,113,87,7,7,2,3,0.6,0.6
2022-07-27T23:00:00,1381A,113.4075,22.5111,中山市,紫马岭,,18,17,23,11,12,134,56,112,86,10,8,6,6,0.7,0.6
2022-07-27T23:00:00,1382A,113.4411,22.4853,中山市,长江旅游区(对照点),,23,15,18,16,17,100,51,77,77,7,6,3,3,0.4,0.4
2022-07-27T23:00:00,1383A,113.1064,22.6058,江门市,北街,,19,19,28,12,15,173,42,134,105,14,9,5,5,0.8,0.6
2022-07-27T23:00:00,1384A,113.0731,22.5835,江门市,西区,,29,26,28,20,16,133,44,123,95,15,11,6,6,0.4,0.4
2022-07-27T23:00:00,1385A,113.0219,22.5311,江门市,圭峰西,,15,15,26,8,16,128,43,111,84,15,9,4,4,0.5,0.4
2022-07-27T23:00:00,1386A,113.0828,22.5947,江门市,东湖,,25,25,29,12,16,151,46,128,101,14,10,8,6,0.6,0.5
2022-07-27T23:00:00,1387A,113.7875,23.0457,东莞市,东城主山,,,,,,,,,,,,,,,,
2022-07-27T23:00:00,1388A,113.7533,23.0202,东莞市,南城元岭,,,,,,,,,,,,,,,,
2022-07-27T23:00:00,1389A,113.7547,23.0494,东莞市,莞城梨川,,,,30,,17,275,83,216,175,25,18,8,8,,0.8
2022-07-27T23:00:00,1390A,113.7944,23.0128,东莞市,东城石井,,25,23,25,10,16,279,77,238,194,21,19,7,6,0.5,0.5
2022-07-27T23:00:00,1391A,113.7383,22.9658,东莞市,南城西平,,25,19,26,11,17,232,79,201,151,14,18,7,4,0.8,0.6
2022-07-27T23:00:00,1392A,114.4183,23.0528,惠州市,河南岸金山湖子站,,44,44,40,15,11,227,58,192,149,25,19,4,3,0.5,0.4
2022-07-27T23:00:00,1393A,114.4053,23.0822,惠州市,下埔横江三路子站,,,32,36,,16,222,69,198,158,25,18,4,3,0.4,0.4
2022-07-27T23:00:00,1394A,114.4103,23.1142,惠州市,江北云山西路子站,,,,42,21,20,252,74,226,175,22,16,8,5,0.3,0.3
2022-07-27T23:00:00,1395A,114.4645,22.7833,惠州市,惠阳区承修路船湖子站,,24,24,22,12,10,188,68,156,112,19,12,5,5,0.4,0.4
2022-07-27T23:00:00,1396A,114.5317,22.7422,惠州市,大亚湾管委会子站,,20,20,17,10,9,118,47,102,89,26,14,6,6,0.3,0.3
2022-07-27T23:00:00,1397A,112.4267,23.0706,肇庆市,睦岗子站,颗粒物(PM10),58,66,44,38,29,136,28,117,103,56,15,11,11,0.6,0.5
2022-07-27T23:00:00,1398A,112.4645,23.0475,肇庆市,城中子站,颗粒物(PM10),51,51,41,30,26,130,64,122,110,47,19,15,13,0.6,0.6
2022-07-27T23:00:00,1399A,112.5544,23.1522,肇庆市,坑口子站,,45,37,41,31,30,140,80,129,109,9,7,10,10,0.4,0.4
2022-07-27T23:00:00,1400A,112.4753,23.1,肇庆市,七星岩子站(对照点),,,,,,,,,,,,,,,,
2022-07-27T23:00:00,1401A,108.3103,22.7881,南宁市,二十一中,,30,28,30,21,17,99,29,85,66,17,13,7,6,0.6,0.6
2022-07-27T23:00:00,1402A,108.3141,22.8528,南宁市,北湖,,29,29,29,13,15,109,39,99,75,12,12,5,5,0.6,0.5
2022-07-27T23:00:00,1403A,108.3206,22.8225,南宁市,市监测站,,19,19,29,13,16,106,33,87,65,16,18,7,7,0.6,0.6
2022-07-27T23:00:00,1404A,108.3829,22.8037,南宁市,大自然花园,,21,21,25,14,14,117,34,100,72,14,11,8,8,0.7,0.6
2022-07-27T23:00:00,1405A,108.4394,22.7904,南宁市,仙葫(对照点),,23,18,23,16,15,92,28,80,66,14,8,8,7,0.7,0.5
2022-07-27T23:00:00,1406A,108.2397,22.8467,南宁市,区农职院,,30,30,29,14,15,124,38,109,77,18,16,10,8,0.6,0.5
2022-07-27T23:00:00,1407A,108.3275,22.735,南宁市,英华嘉园,,38,38,40,22,16,82,12,70,47,33,23,9,7,0.6,0.5
2022-07-27T23:00:00,1408A,108.2257,22.7757,南宁市,沙井镇街道办,,35,35,34,17,16,106,30,94,62,26,17,8,8,0.7,0.6
2022-07-27T23:00:00,1409A,110.576,19.9507,海口市,东寨港(对照点),,,5,19,10,9,89,18,82,55,,,6,5,0.3,0.3
2022-07-27T23:00:00,1410A,110.3232,20.0574,海口市,海南大学,,38,11,18,26,15,101,45,88,68,1,4,5,6,0.4,0.4
2022-07-27T23:00:00,1411A,110.283,20.0053,海口市,秀英海南医院,,,,,,,,,,,,,,,,
2022-07-27T23:00:00,1412A,110.338,19.9969,海口市,海南师范大学,,26,26,26,13,11,113,20,97,68,10,9,2,3,0.4,0.5
2022-07-27T23:00:00,1413A,110.33,20.0356,海口市,龙华路环保局宿舍,,10,7,23,5,9,123,31,107,79,5,7,2,3,0.4,0.4
2022-07-27T23:00:00,1414A,106.3787,29.8279,重庆市,缙云山(对照点),,36,16,15,9,8,128,113,104,104,8,10,6,4,0.2,0.2
2022-07-27T23:00:00,1416A,106.4213,29.8253,重庆市,天生,,28,27,28,19,16,115,38,98,86,39,18,5,5,0.7,0.6
2022-07-27T23:00:00,1417A,106.6263,29.7228,重庆市,两路,,27,27,28,8,14,100,54,79,70,47,28,7,6,0.6,0.7
2022-07-27T23:00:00,1418A,106.2953,29.5983,重庆市,虎溪,,35,31,31,12,13,120,32,103,85,69,29,5,5,0.5,0.5
2022-07-27T23:00:00,1419A,106.5777,29.5102,重庆市,南坪,,39,39,33,12,12,118,64,103,98,34,18,4,4,0.7,0.6
2022-07-27T23:00:00,1420A,106.6556,29.6277,重庆市,唐家沱,,32,32,21,11,9,110,52,103,87,40,25,6,7,0.7,0.7
2022-07-27T23:00:00,1421A,106.6349,29.4906,重庆市,茶园,颗粒物(PM10),75,99,36,18,13,122,20,107,83,93,34,6,6,0.6,0.5
2022-07-27T23:00:00,1422A,106.3754,29.4572,重庆市,白市驿,,25,25,25,11,12,113,61,105,98,32,17,4,4,0.7,0.8
2022-07-27T23:00:00,1425A,106.6205,29.7166,重庆市,空港,,24,10,28,11,14,100,74,90,84,22,17,6,6,0.6,0.7
2022-07-27T23:00:00,1426A,106.4782,29.4875,重庆市,新山村,,28,27,30,12,14,107,50,90,79,55,36,5,5,0.6,0.6
2022-07-27T23:00:00,1427A,106.5616,29.6453,重庆市,礼嘉,,40,39,20,16,9,95,14,82,65,80,33,6,6,0.5,0.4
2022-07-27T23:00:00,1428A,106.4522,29.7091,重庆市,蔡家,,26,26,27,10,14,97,55,86,78,26,18,4,4,0.6,0.6
2022-07-27T23:00:00,1429A,106.5093,29.3917,重庆市,鱼新街,,40,40,32,17,15,90,30,83,73,40,26,6,5,0.9,0.8
2022-07-27T23:00:00,1431A,103.9728,30.7236,成都市,金泉两河,,28,28,37,16,25,120,27,91,55,23,17,2,3,0.4,0.5
2022-07-27T23:00:00,1432A,104.1419,30.6764,成都市,十里店,,20,20,36,11,21,108,57,96,85,31,19,2,2,0.5,0.5
2022-07-27T23:00:00,1433A,104.0594,30.5767,成都市,三瓦窑,,32,32,36,21,22,114,24,99,76,55,29,1,2,0.5,0.5
2022-07-27T23:00:00,1434A,104.1122,30.6306,成都市,沙河铺,,18,18,33,11,22,114,44,100,74,23,20,2,2,0.5,0.6
2022-07-27T23:00:00,1437A,104.0431,30.6556,成都市,君平街,,26,25,34,18,24,120,37,116,80,34,19,5,6,0.6,0.5
2022-07-27T23:00:00,1438A,103.6202,31.0201,成都市,灵岩寺(对照点),,19,16,28,9,22,132,60,124,76,4,3,16,13,0.7,0.6
2022-07-27T23:00:00,1439A,106.6899,26.5998,贵阳市,马鞍山,,15,9,21,2,9,89,47,81,68,11,8,4,5,0.6,0.6
2022-07-27T23:00:00,1440A,106.6971,26.5694,贵阳市,市环保站,,16,7,25,10,13,78,49,71,57,19,14,3,4,0.4,0.4
2022-07-27T23:00:00,1441A,106.6243,26.6266,贵阳市,鉴湖路,,16,9,25,7,12,80,51,75,66,10,7,4,4,0.4,0.5
2022-07-27T23:00:00,1442A,106.7487,26.6343,贵阳市,燕子冲,,20,12,28,14,18,80,40,72,57,8,7,6,6,0.6,0.6
2022-07-27T23:00:00,1443A,106.6555,26.4365,贵阳市,碧云窝,,24,24,32,2,9,78,45,73,68,12,6,3,4,0.4,0.4
2022-07-27T23:00:00,1444A,106.694,26.5161,贵阳市,中院村,,24,24,27,2,9,73,44,69,59,20,9,1,1,0.6,0.5
2022-07-27T23:00:00,1445A,106.7109,26.6027,贵阳市,红边门,,20,7,29,14,19,81,55,70,59,15,18,6,4,0.3,0.4
2022-07-27T23:00:00,1446A,106.7164,26.5699,贵阳市,新华路,,17,5,21,5,14,82,54,76,62,10,7,4,4,0.2,0.3
2022-07-27T23:00:00,1447A,106.674,26.5424,贵阳市,太慈桥,,12,12,27,0,9,80,34,76,63,18,6,5,6,0.4,0.4
2022-07-27T23:00:00,1450A,102.8204,24.8886,昆明市,呈贡新区,,32,32,18,9,9,84,32,78,59,23,11,9,10,0.4,0.5
2022-07-27T23:00:00,1451A,102.6251,24.9608,昆明市,西山森林公园(对照点),,14,14,14,3,9,79,38,71,57,17,10,9,8,0.4,0.4
2022-07-27T23:00:00,1452A,102.7252,25.0902,昆明市,龙泉镇,,23,23,20,9,8,78,26,69,51,31,20,7,8,0.2,0.3
2022-07-27T23:00:00,1453A,102.7266,25.0375,昆明市,东风东路,,24,24,21,12,11,85,31,73,57,21,16,5,6,0.3,0.3
2022-07-27T23:00:00,1454A,102.6742,25.0669,昆明市,金鼎山,,25,25,24,13,13,76,37,64,52,13,17,6,9,0.3,0.4
2022-07-27T23:00:00,1455A,102.6644,25.0401,昆明市,碧鸡广场,,35,35,26,14,11,76,27,68,54,27,22,6,10,0.4,0.5
2022-07-27T23:00:00,1456A,91.1319,29.6514,拉萨市,八廓街,,,,11,6,7,149,112,145,133,14,9,8,7,0.1,0.1
2022-07-27T23:00:00,1457A,91.1221,29.6747,拉萨市,市环保局,,34,14,11,7,6,152,106,146,128,21,11,9,7,0.2,0.1
2022-07-27T23:00:00,1458A,91.0874,29.6475,拉萨市,区监测站,,35,10,8,3,1,160,112,154,140,19,11,8,8,0.2,0.2
2022-07-27T23:00:00,1459A,91.1774,29.6541,拉萨市,西藏大学,,39,15,11,6,7,160,123,150,141,13,11,11,8,0.3,0.4
2022-07-27T23:00:00,1460A,90.9798,29.6588,拉萨市,区辐射站,,32,16,12,8,6,140,102,129,116,20,14,8,8,0.2,0.2
2022-07-27T23:00:00,1461A,91.0834,29.6292,拉萨市,拉萨火车站,,35,15,13,5,5,148,109,144,133,11,10,9,9,0.3,0.2
2022-07-27T23:00:00,1462A,108.882,34.2749,西安市,高压开关厂,,32,32,32,14,15,139,75,127,117,27,17,6,5,0.5,0.4
2022-07-27T23:00:00,1463A,108.993,34.2629,西安市,兴庆小区,,24,24,29,10,20,136,76,121,113,23,17,4,4,0.5,0.6
2022-07-27T23:00:00,1464A,109.06,34.2572,西安市,纺织城,,21,21,32,14,20,139,52,109,100,42,18,5,5,0.4,0.4
2022-07-27T23:00:00,1465A,108.9356,34.2173,西安市,小寨,,25,25,30,11,14,135,63,121,112,35,17,3,2,0.5,0.5
2022-07-27T23:00:00,1466A,108.954,34.2713,西安市,市人民体育场,,30,30,29,12,15,136,74,121,114,25,14,4,4,0.2,0.2
2022-07-27T23:00:00,1467A,108.8922,34.2322,西安市,高新西区,,24,24,29,14,19,133,66,122,113,34,14,6,6,0.6,0.6
2022-07-27T23:00:00,1468A,108.935,34.3474,西安市,经开区,,41,41,27,14,16,139,73,123,111,26,12,2,2,0.3,0.3
2022-07-27T23:00:00,1469A,108.906,34.1546,西安市,长安区,,22,22,31,12,18,137,59,117,108,19,12,5,5,0.4,0.4
2022-07-27T23:00:00,1470A,109.2,34.6575,西安市,阎良区,,,,,,,,,,,,,,,,
2022-07-27T23:00:00,1471A,109.2186,34.3731,西安市,临潼区,,28,26,32,14,18,145,89,123,119,25,13,2,2,0.4,0.3
2022-07-27T23:00:00,1472A,108.869,34.378,西安市,草滩(对照点),,27,27,25,13,12,121,23,100,82,32,16,7,10,0.8,0.6
2022-07-27T23:00:00,1473A,108.985,34.1978,西安市,曲江文化产业集团,,27,27,32,9,17,134,52,120,108,40,16,6,5,0.7,0.6
2022-07-27T23:00:00,1474A,109.051,34.3213,西安市,广运潭,,27,27,29,11,14,135,57,114,104,27,14,5,5,0.6,0.6
2022-07-27T23:00:00,1476A,103.631,36.1031,兰州市,兰炼宾馆,,44,44,28,28,18,153,86,140,124,22,10,4,5,0.3,0.2
2022-07-27T23:00:00,1477A,104.1373,35.9454,兰州市,榆中兰大校区(对照点),,,,,,,,,,,,,,,,
2022-07-27T23:00:00,1478A,103.8412,36.0726,兰州市,生物制品所,颗粒物(PM10),61,72,31,27,19,158,31,145,108,42,10,5,6,0.7,0.7
2022-07-27T23:00:00,1479A,103.831,36.0464,兰州市,铁路设计院,颗粒物(PM10),64,77,31,34,14,168,56,145,112,44,13,5,5,0.3,0.4
2022-07-27T23:00:00,1480A,101.748,36.6428,西宁市,市环境监测站,,,,,,,,,,,,,,,,
2022-07-27T23:00:00,1482A,101.834,36.5819,西宁市,四陆医院,,,,,,,,,,,,,,,,
2022-07-27T23:00:00,1483A,101.524,36.6867,西宁市,第五水厂(对照点),,,,,,,,,,,,,,,,
2022-07-27T23:00:00,1484A,105.9512,38.6016,银川市,贺兰山马莲口(对照点),,40,17,22,13,13,161,128,161,134,6,10,9,8,0.2,0.2
2022-07-27T23:00:00,1488A,106.2328,38.4975,银川市,贺兰山东路,,32,32,20,15,10,144,75,139,122,47,14,10,9,0.6,0.4
2022-07-27T23:00:00,1489A,106.1358,38.5036,银川市,学院路,颗粒物(PM10),60,70,35,30,13,146,12,134,107,110,19,12,9,0.7,0.5
2022-07-27T23:00:00,1490A,87.5801,43.8303,乌鲁木齐市,监测站,,32,32,55,10,16,139,62,123,113,53,47,5,6,0.4,0.5
2022-07-27T23:00:00,1491A,87.6046,43.768,乌鲁木齐市,收费所,,40,40,69,18,22,136,51,121,110,52,46,7,8,0.5,0.5
2022-07-27T23:00:00,1492A,87.4754,43.9469,乌鲁木齐市,新疆农科院农场(对照点),颗粒物(PM10),66,82,127,14,34,130,29,116,94,60,44,6,8,0.7,0.7
2022-07-27T23:00:00,1493A,87.5525,43.8711,乌鲁木齐市,铁路局,颗粒物(PM10),60,69,61,20,20,156,56,136,119,49,49,2,5,0.6,0.8
2022-07-27T23:00:00,1494A,87.6432,43.831,乌鲁木齐市,三十一中学,,,45,64,,16,146,91,124,114,17,26,5,6,0.3,0.4
2022-07-27T23:00:00,1496A,87.7216,44.1747,乌鲁木齐市,米东区环保局,颗粒物(PM10),60,70,89,16,25,165,52,138,101,27,32,4,7,0.5,0.5
2022-07-27T23:00:00,1508A,112.9433,27.8614,湘潭市,板塘,颗粒物(PM10),53,56,44,25,24,131,75,122,109,28,18,8,9,0.5,0.7
2022-07-27T23:00:00,1511A,112.9118,27.8403,湘潭市,市监测站,,42,39,33,29,26,137,88,124,116,21,16,8,14,0.6,0.6
2022-07-27T23:00:00,1512A,112.8937,27.8728,湘潭市,江麓,,48,48,44,19,19,114,55,104,97,35,19,28,38,1.3,1.4
2022-07-27T23:00:00,1513A,112.9227,27.8159,湘潭市,岳塘,,41,41,40,23,24,137,81,129,120,16,9,20,23,0.8,0.7
2022-07-27T23:00:00,1514A,112.9074,27.9119,湘潭市,科大,颗粒物(PM10),53,56,45,25,16,124,48,112,103,42,17,6,14,0.6,0.6
2022-07-27T23:00:00,1515A,113.135,27.8244,株洲市,天台山庄,,39,30,25,27,27,135,79,125,113,24,11,5,7,0.6,0.5
2022-07-27T23:00:00,1518A,113.095,27.8867,株洲市,株冶医院,颗粒物(PM10),51,51,29,20,15,150,48,140,111,36,14,8,8,0.8,0.5
2022-07-27T23:00:00,1519A,113.167,27.8667,株洲市,市四中,,,58,32,,23,134,,127,112,53,17,,6,,0.6
2022-07-27T23:00:00,1520A,113.143,27.8381,株洲市,火车站,,46,46,34,19,20,143,68,133,108,29,18,5,8,0.6,0.5
2022-07-27T23:00:00,1524A,113.13,27.8528,株洲市,市监测站,,46,46,36,24,27,140,80,132,119,30,13,2,4,0.8,0.6
2022-07-27T23:00:00,1552A,106.805,26.3003,贵阳市,桐木岭(对照点),,,,,,,,,,,,,,,,
2022-07-27T23:00:00,1559A,113.251,27.8336,株洲市,大京风景区(对照点),,28,22,19,19,20,106,37,98,66,6,7,3,5,0.5,0.6
2022-07-27T23:00:00,1562A,113.0048,27.9153,湘潭市,昭山,颗粒物(PM10),60,70,35,30,22,132,10,123,89,67,21,6,8,0.5,0.4
2022-07-27T23:00:00,1564A,112.4876,27.9164,湘潭市,韶山(对照点),,34,34,29,15,12,104,44,97,73,15,13,6,8,0.7,0.6
2022-07-27T23:00:00,1585A,109.8756,40.6532,包头市,市环境监测站,,38,38,36,11,16,151,115,131,119,12,18,20,11,0.6,0.7
2022-07-27T23:00:00,1587A,109.9991,40.5842,包头市,包头八中,,42,42,39,14,19,168,114,135,130,18,20,42,17,0.9,0.6
2022-07-27T23:00:00,1588A,109.8538,40.6821,包头市,青山宾馆,,40,40,35,10,17,149,117,128,115,14,25,12,11,0.5,0.7
2022-07-27T23:00:00,1589A,109.8642,40.6288,包头市,惠龙物流,,44,44,38,18,17,170,121,140,130,14,18,27,13,0.7,0.6
2022-07-27T23:00:00,1590A,110.0377,40.5546,包头市,东河鸿龙湾,,41,41,35,16,15,164,114,134,129,11,13,8,8,0.4,0.5
2022-07-27T23:00:00,1591A,110.0023,39.8129,鄂尔多斯市,综合楼,,40,40,39,9,15,152,98,131,123,18,21,6,10,0.5,0.8
2022-07-27T23:00:00,1592A,109.9486,39.8261,鄂尔多斯市,巴音孟克林场办事处,颗粒物(PM10),52,53,39,14,16,118,85,104,101,16,17,7,7,0.7,0.7
2022-07-27T23:00:00,1593A,109.7736,39.5986,鄂尔多斯市,康泽苑,,31,31,28,9,11,165,93,149,137,19,15,8,5,0.7,0.6
2022-07-27T23:00:00,1594A,109.8119,39.5989,鄂尔多斯市,华泰汽车城,,39,39,34,22,15,154,88,146,134,17,19,10,7,0.8,0.7
2022-07-27T23:00:00,1595A,109.9734,39.7884,鄂尔多斯市,奥林花园,颗粒物(PM10),53,56,47,19,19,145,92,130,113,17,26,5,6,1.0,1.1
2022-07-27T23:00:00,1596A,122.2414,40.6592,营口市,学府南路,,,,,,,,,,,,,,,,
2022-07-27T23:00:00,1597A,122.2703,40.7094,营口市,大庆路,,35,35,54,11,33,189,107,153,118,9,20,4,8,0.5,1.3
2022-07-27T23:00:00,1598A,122.215,40.6511,营口市,镜湖西路,,32,32,41,10,24,156,92,147,127,18,21,3,4,0.2,1
2022-07-27T23:00:00,1599A,122.167,40.6655,营口市,西炮台,,30,21,40,11,21,205,94,172,130,12,16,23,13,0.9,1.4
2022-07-27T23:00:00,1600A,124.3303,40.0625,丹东市,江湾东路,颗粒物(PM10),53,56,41,29,26,135,48,116,80,13,12,8,10,0.7,0.7
2022-07-27T23:00:00,1601A,124.4256,40.1503,丹东市,临江后街,,32,32,31,18,20,134,52,121,92,10,8,12,12,0.8,0.7
2022-07-27T23:00:00,1602A,124.3933,40.1461,丹东市,元宝山,,33,33,35,18,23,125,47,109,82,20,11,5,4,0.7,0.7
2022-07-27T23:00:00,1603A,124.3633,40.1092,丹东市,民主桥,,26,26,38,15,22,130,42,117,79,19,14,4,9,0.7,0.8
2022-07-27T23:00:00,1604A,122.0303,41.1489,盘锦市,开发区,颗粒物(PM10),56,62,46,26,29,166,59,156,112,51,21,4,5,0.8,0.9
2022-07-27T23:00:00,1605A,122.0485,41.0883,盘锦市,兴隆台,颗粒物(PM10),51,52,43,24,27,168,83,153,119,39,25,4,4,0.7,0.8
2022-07-27T23:00:00,1606A,121.8297,41.1028,盘锦市,新生街道,,28,28,28,18,19,137,50,128,101,16,11,5,5,0.7,0.6
2022-07-27T23:00:00,1607A,120.9092,40.7136,葫芦岛市,龙港区,细颗粒物(PM2.5),55,30,29,39,25,128,94,117,110,6,11,4,5,0.6,0.5
2022-07-27T23:00:00,1608A,120.8392,40.7514,葫芦岛市,化工街,,45,37,36,31,24,131,127,128,128,4,19,5,5,0.5,0.5
2022-07-27T23:00:00,1609A,120.8341,40.7073,葫芦岛市,新区,,40,31,35,25,27,137,127,128,128,4,16,3,4,0.6,0.6
2022-07-27T23:00:00,1610A,120.8695,40.7677,葫芦岛市,东城区,,40,27,43,28,30,123,120,120,120,5,20,6,10,0.4,0.4
2022-07-27T23:00:00,1611A,118.5819,24.9117,泉州市,涂山街,颗粒物(PM10),61,71,37,18,17,162,22,136,84,55,23,15,10,0.6,0.5
2022-07-27T23:00:00,1612A,118.5972,24.8978,泉州市,津头埔,颗粒物(PM10),59,67,36,17,17,146,23,124,74,43,29,8,8,0.4,0.3
2022-07-27T23:00:00,1613A,118.6663,24.9424,泉州市,万安,,49,49,40,16,18,154,35,126,82,20,16,7,8,0.5,0.5
2022-07-27T23:00:00,1614A,118.6117,24.9604,泉州市,清源山(对照点),,,,,,,,,,,,,,,,
2022-07-27T23:00:00,1616A,117.6795,36.229,济南市,技术学院,,39,39,27,21,15,175,91,161,142,32,18,4,4,0.8,0.6
2022-07-27T23:00:00,1618A,118.3429,35.0532,临沂市,沂河小区,,31,31,25,17,13,164,90,144,118,22,15,6,6,0.4,0.4
2022-07-27T23:00:00,1619A,118.295,35.0583,临沂市,鲁南制药厂,,33,24,18,17,14,168,103,151,124,20,16,4,5,0.5,0.5
2022-07-27T23:00:00,1620A,118.2794,34.9976,临沂市,新光毛纺厂,,31,31,24,16,13,196,86,163,123,30,20,27,5,0.5,0.5
2022-07-27T23:00:00,1621A,118.3956,35.0888,临沂市,河东保险公司,,34,34,19,12,12,146,69,133,110,34,16,4,5,0.4,0.4
2022-07-27T23:00:00,1622A,116.3032,37.4674,德州市,儿童乐园,,50,50,42,35,28,163,111,153,141,18,16,7,8,0.4,0.5
2022-07-27T23:00:00,1624A,116.2991,37.4451,德州市,监理站,,49,46,40,34,22,169,128,163,156,17,17,6,8,0.4,0.4
2022-07-27T23:00:00,1625A,115.9848,36.4372,聊城市,区政府,颗粒物(PM10),56,62,52,39,32,185,138,171,154,17,18,13,11,1.1,1.1
2022-07-27T23:00:00,1628A,118.0062,37.3803,滨州市,市环保局,,29,22,29,20,22,167,85,153,119,11,10,3,6,0.1,0.2
2022-07-27T23:00:00,1629A,118.0018,37.3617,滨州市,第二水厂,,31,31,28,17,19,160,74,146,113,13,12,6,8,0.6,0.7
2022-07-27T23:00:00,1630A,117.9776,37.393,滨州市,北中新校,,26,26,27,14,18,159,79,149,117,11,10,9,10,0.2,0.3
2022-07-27T23:00:00,1631A,118.0414,36.8103,淄博市,人民公园,,31,31,37,17,22,176,77,159,120,18,19,8,9,0.3,0.5
2022-07-27T23:00:00,1632A,118.0253,36.8406,淄博市,东风化工厂,,,,,,,,,,,,,,,,
2022-07-27T23:00:00,1633A,117.8525,36.4847,淄博市,双山,颗粒物(PM10),56,61,31,33,15,167,49,151,122,34,20,11,9,0.6,0.4
2022-07-27T23:00:00,1634A,117.9592,36.6331,淄博市,气象站,颗粒物(PM10),53,55,40,19,21,190,74,166,134,28,21,17,15,0.8,0.3
2022-07-27T23:00:00,1635A,118.3092,36.8194,淄博市,莆田园,,32,29,27,22,23,158,80,142,109,25,17,7,7,0.5,0.4
2022-07-27T23:00:00,1636A,117.8661,36.805,淄博市,三金集团,,,,,,,,,,,,,,,,
2022-07-27T23:00:00,1637A,117.558,34.8438,枣庄市,市中区政府,颗粒物(PM10),58,66,52,39,26,180,120,170,156,24,20,10,12,0.6,0.5
2022-07-27T23:00:00,1638A,117.2852,34.7837,枣庄市,薛城环保局,,,59,56,36,32,188,,179,151,23,13,9,16,0.5,0.5
2022-07-27T23:00:00,1639A,117.5852,34.7745,枣庄市,峄城区政府,细颗粒物(PM2.5),67,73,62,48,38,190,112,176,153,18,17,6,10,0.6,0.6
2022-07-27T23:00:00,1640A,117.7276,34.5578,枣庄市,台儿庄区环保局,颗粒物(PM10),70,90,50,41,29,155,107,145,133,17,12,11,10,0.7,0.8
2022-07-27T23:00:00,1641A,117.4518,35.0992,枣庄市,山亭区环保局,颗粒物(PM10),53,56,35,34,23,156,138,154,143,12,11,10,10,0.6,0.6
2022-07-27T23:00:00,1642A,121.2514,37.5639,烟台市,开发区,,22,9,18,5,9,104,70,88,76,5,6,5,7,0.4,0.5
2022-07-27T23:00:00,1643A,121.3719,37.5433,烟台市,轴承厂,,27,9,16,7,9,109,84,100,88,3,4,5,5,0.1,0.2
2022-07-27T23:00:00,1644A,121.3181,37.5436,烟台市,西郊化工站,,27,7,16,5,6,99,86,92,87,2,8,6,8,0.3,0.3
2022-07-27T23:00:00,1645A,121.4478,37.4822,烟台市,莱山环保局,,24,7,11,0,7,110,75,99,87,1,3,4,6,0.4,0.4
2022-07-27T23:00:00,1646A,121.2611,37.4967,烟台市,福山环保局,,20,14,24,5,9,91,61,79,71,11,15,8,9,0.5,0.5
2022-07-27T23:00:00,1648A,119.12,36.7019,潍坊市,仲裁委,,,,,,,,,,,,,,,,
2022-07-27T23:00:00,1650A,119.1437,36.7023,潍坊市,环保局,,20,12,23,10,16,129,63,114,97,7,7,6,5,0.4,0.4
2022-07-27T23:00:00,1652A,119.1936,36.7729,潍坊市,寒亭监测站,,,,,,,,,,,,,,,,
2022-07-27T23:00:00,1653A,116.6251,35.4302,济宁市,火炬城,颗粒物(PM10),59,68,45,36,26,197,112,189,169,24,11,6,9,0.7,0.6
2022-07-27T23:00:00,1655A,116.5491,35.4042,济宁市,电化厂,,,50,43,36,28,206,109,193,177,16,7,7,10,,0.9
2022-07-27T23:00:00,1656A,117.1437,36.1937,泰安市,监测站,,41,41,34,28,19,164,124,155,139,14,10,7,7,0.4,0.5
2022-07-27T23:00:00,1657A,117.0885,36.2017,泰安市,人口学校,,46,46,33,23,15,179,144,166,147,12,12,12,9,0.6,0.5
2022-07-27T23:00:00,1658A,117.1089,36.1758,泰安市,电力学校,颗粒物(PM10),51,51,32,19,18,165,117,156,137,13,8,9,8,0.4,0.4
2022-07-27T23:00:00,1659A,119.471,35.4209,日照市,监测站,,35,34,24,24,16,145,84,107,93,32,18,4,4,0.7,0.6
2022-07-27T23:00:00,1660A,119.523,35.4216,日照市,市政府广场,,39,24,27,22,15,122,122,107,107,11,22,5,6,0.6,0.6
2022-07-27T23:00:00,1661A,119.5587,35.4044,日照市,港务局,,42,17,26,14,12,147,133,123,123,11,19,4,4,0.7,0.7
2022-07-27T23:00:00,1662A,122.1214,37.4236,威海市,华夏技校,,27,7,14,7,12,93,86,86,81,5,9,5,4,0.3,0.3
2022-07-27T23:00:00,1663A,122.0508,37.5236,威海市,山大分校,,31,10,17,7,11,106,98,100,97,7,12,3,3,0.3,0.4
2022-07-27T23:00:00,1664A,122.1067,37.5072,威海市,市监测站,,28,10,18,15,17,94,87,88,82,10,17,4,4,0.3,0.3
2022-07-27T23:00:00,1665A,118.5019,37.4658,东营市,西城阳光环保公司,,,,,,,,,,,,,,,,
2022-07-27T23:00:00,1666A,118.6614,37.4309,东营市,市环保局,,34,24,17,14,11,110,106,105,104,5,5,6,8,0.4,0.3
2022-07-27T23:00:00,1669A,113.5824,24.7733,韶关市,市八中,,,71,66,,34,167,107,162,147,20,22,8,10,0.5,0.7
2022-07-27T23:00:00,1670A,113.5556,24.8082,韶关市,碧湖山庄,,,,,,,,,,,,,,,,
2022-07-27T23:00:00,1671A,113.5917,24.7972,韶关市,园林处,细颗粒物(PM2.5),55,35,57,39,41,155,101,150,134,14,15,6,6,0.5,0.5
2022-07-27T23:00:00,1672A,113.6735,24.7791,韶关市,韶关学院,颗粒物(PM10),60,69,64,32,39,171,93,164,145,18,14,9,12,0.7,0.7
2022-07-27T23:00:00,1673A,113.5971,24.6863,韶关市,曲江监测站,颗粒物(PM10),52,53,59,34,36,169,102,156,140,16,18,10,11,0.6,0.6
2022-07-27T23:00:00,1674A,116.6794,23.3667,汕头市,金平子站,,22,22,20,11,10,107,49,94,70,14,10,6,7,0.6,0.6
2022-07-27T23:00:00,1675A,116.7244,23.3633,汕头市,龙湖子站,,24,24,23,3,6,100,50,87,67,13,11,8,9,0.6,0.6
2022-07-27T23:00:00,1676A,116.7258,23.2775,汕头市,濠江子站,,20,20,15,8,5,78,45,73,65,8,8,10,10,0.5,0.5
2022-07-27T23:00:00,1677A,116.7519,23.4714,汕头市,澄海子站,,32,32,32,17,16,126,45,99,62,18,17,6,8,0.8,0.7
2022-07-27T23:00:00,1678A,116.6092,23.2539,汕头市,潮阳子站,,20,18,18,11,8,94,62,82,72,6,5,10,10,0.4,0.4
2022-07-27T23:00:00,1679A,116.4069,23.2533,汕头市,潮南子站,,,,,,,,,,,,,,,,
2022-07-27T23:00:00,1680A,110.3539,21.2706,湛江市,湛江影剧院,,24,24,34,14,17,154,76,126,102,10,10,6,11,0.6,0.5
2022-07-27T23:00:00,1681A,110.3928,21.2228,湛江市,市环境监测站,,31,31,32,18,17,133,67,118,93,19,12,6,8,0.6,0.5
2022-07-27T23:00:00,1682A,110.4019,21.1997,湛江市,环保局宿舍,,40,40,29,19,16,116,59,102,85,20,11,4,6,0.5,0.5
2022-07-27T23:00:00,1683A,110.4111,21.2028,湛江市,霞山游泳场,,27,27,28,15,18,114,75,104,86,10,13,5,6,0.5,0.5
2022-07-27T23:00:00,1684A,110.3316,21.2679,湛江市,麻章区环保局,,35,30,32,24,19,105,74,91,80,8,10,4,8,0.5,0.5
2022-07-27T23:00:00,1685A,110.4558,21.2567,湛江市,坡头区环保局,,28,25,29,19,20,138,63,118,89,14,11,10,7,0.5,0.5
2022-07-27T23:00:00,1686A,111.0286,21.4688,茂名市,电白南海,,27,27,28,17,15,100,72,91,85,7,6,4,4,0.5,0.5
2022-07-27T23:00:00,1687A,110.9294,21.6533,茂名市,茂石化七小,,,,34,22,19,108,79,100,92,10,8,4,5,0.6,0.5
2022-07-27T23:00:00,1688A,110.9107,21.6687,茂名市,健康路,,27,27,32,15,17,128,86,116,105,4,4,11,8,0.6,0.6
2022-07-27T23:00:00,1689A,110.8592,21.6828,茂名市,高岭,,42,36,33,29,25,120,83,108,101,8,7,8,10,0.6,0.6
2022-07-27T23:00:00,1690A,116.1231,24.3284,梅州市,梅江月梅,,39,39,39,17,21,119,90,113,96,10,11,6,4,0.7,0.6
2022-07-27T23:00:00,1691A,116.0797,24.2719,梅州市,梅县新城,,32,32,39,12,25,121,88,115,94,12,14,5,6,0.7,0.6
2022-07-27T23:00:00,1692A,116.1248,24.2654,梅州市,环境监控中心,,45,45,36,10,19,115,70,108,87,20,13,5,5,0.8,0.6
2022-07-27T23:00:00,1693A,115.3653,22.775,汕尾市,市环保局,,19,10,11,6,6,75,58,69,67,5,6,6,6,0.5,0.5
2022-07-27T23:00:00,1694A,115.3706,22.7898,汕尾市,市政府,,20,8,9,3,6,83,61,79,73,5,4,6,6,0.6,0.6
2022-07-27T23:00:00,1695A,115.3622,22.7925,汕尾市,新城中学,,20,7,14,6,6,84,64,78,75,4,2,6,6,0.5,0.5
2022-07-27T23:00:00,1696A,114.6778,23.7569,河源市,源西(对照点),颗粒物(PM10),54,58,36,24,20,185,78,168,135,28,10,3,4,0.6,0.5
2022-07-27T23:00:00,1697A,114.6944,23.7586,河源市,东埔,颗粒物(PM10),64,77,37,31,19,194,99,178,154,22,13,4,5,0.6,0.5
2022-07-27T23:00:00,1698A,114.6892,23.7233,河源市,老城,颗粒物(PM10),65,80,37,21,17,204,88,178,146,25,13,2,2,0.7,0.5
2022-07-27T23:00:00,1699A,111.9797,21.8593,阳江市,鸳鸯湖(对照点),,,,,,,,,,,,,,,,
2022-07-27T23:00:00,1700A,111.9508,21.8536,阳江市,南恩路,,,,,,,,,,,,,,,,
2022-07-27T23:00:00,1701A,111.9491,21.8658,阳江市,马南垌,,18,14,25,8,15,112,57,93,72,2,5,4,5,0.5,0.5
2022-07-27T23:00:00,1702A,113.0426,23.691,清远市,环保大楼(对照点),细颗粒物(PM2.5),59,66,51,42,33,188,104,170,155,20,14,4,5,0.7,0.6
2022-07-27T23:00:00,1703A,113.0208,23.7106,清远市,凤城街办,颗粒物(PM10),56,61,47,39,32,150,92,134,125,19,15,3,4,0.9,0.8
2022-07-27T23:00:00,1705A,116.6367,23.6719,潮州市,西园路(对照点),,32,32,35,17,17,138,61,124,90,17,14,10,8,0.9,0.8
2022-07-27T23:00:00,1706A,116.6447,23.6706,潮州市,档案局,,27,27,36,14,15,160,55,140,94,18,15,14,10,0.8,0.7
2022-07-27T23:00:00,1708A,116.3701,23.5345,揭阳市,新兴,,41,41,32,24,18,126,39,115,83,20,5,9,6,0.9,0.6
2022-07-27T23:00:00,1709A,116.3264,23.5443,揭阳市,西马,,49,49,31,22,16,117,50,105,82,10,5,8,7,0.6,0.5
2022-07-27T23:00:00,1710A,116.3611,23.5626,揭阳市,东兴,颗粒物(PM10),64,78,35,26,16,120,33,111,80,29,9,12,5,1.0,0.7
2022-07-27T23:00:00,1711A,116.4151,23.5294,揭阳市,渔湖,颗粒物(PM10),59,68,37,22,20,123,28,113,77,28,10,11,6,0.9,0.6
2022-07-27T23:00:00,1712A,112.0392,22.9169,云浮市,新市府(对照点),,,,,,,,,,,,,,,,
2022-07-27T23:00:00,1713A,112.0369,22.9394,云浮市,市监测站,,,,,,,,,,,,,,,,
2022-07-27T23:00:00,1714A,112.0539,22.9539,云浮市,牧羊,颗粒物(PM10),61,71,53,19,27,123,39,112,80,24,13,11,11,0.6,0.5
2022-07-27T23:00:00,1715A,102.575,24.3711,玉溪市,东风水库,,27,27,16,10,8,69,28,61,47,16,13,4,4,0.5,0.7
2022-07-27T23:00:00,1718A,115.4208,35.2464,菏泽市,气象局,,34,2,59,1,38,198,108,172,136,5,14,4,4,0.3,0.5
2022-07-27T23:00:00,1719A,115.4747,35.2375,菏泽市,市政协,,35,9,59,5,31,209,109,178,143,6,12,5,8,0.1,0.3
2022-07-27T23:00:00,1720A,115.455,35.27,菏泽市,菏泽学院,,,,,,,,,,,,,,,,
2022-07-27T23:00:00,1721A,113.3819,40.1097,大同市,果树场(对照点),,,,,,,,,,,,,,,,
2022-07-27T23:00:00,1723A,113.2994,40.0758,大同市,云冈宾馆,,34,18,69,5,25,115,106,98,98,12,34,12,13,0.3,0.9
2022-07-27T23:00:00,1724A,113.3444,40.0917,大同市,大同大学,,30,20,47,12,24,125,95,106,106,18,25,8,20,0.3,0.6
2022-07-27T23:00:00,1725A,113.2661,40.1269,大同市,安家小村,,36,18,47,6,22,128,114,110,110,10,28,9,19,0.4,0.7
2022-07-27T23:00:00,1726A,113.2711,40.0844,大同市,教育学院,,32,24,68,7,27,108,100,98,98,13,33,13,19,0.3,1
2022-07-27T23:00:00,1727A,113.1147,36.1547,长治市,清华站,,21,21,40,7,27,125,64,112,80,15,12,9,9,0.6,0.9
2022-07-27T23:00:00,1728A,113.1031,36.1989,长治市,监测站,,20,19,45,7,25,133,63,112,86,19,14,9,9,0.7,0.9
2022-07-27T23:00:00,1730A,113.0886,36.2125,长治市,审计局,,25,17,36,9,31,159,79,136,94,18,17,10,9,0.7,0.9
2022-07-27T23:00:00,1731A,113.0844,36.1856,长治市,长治八中,,22,14,40,8,30,138,70,121,86,14,15,10,10,0.8,1.1
2022-07-27T23:00:00,1733A,111.5531,36.0783,临汾市,临钢医院,,24,16,19,6,16,129,74,113,97,21,15,2,2,0.2,0.5
2022-07-27T23:00:00,1734A,111.5028,36.0714,临汾市,技工学校,,19,14,17,12,18,124,60,111,94,21,12,3,2,0.6,0.7
2022-07-27T23:00:00,1735A,111.5169,36.0822,临汾市,工商学校,,,,,,,,,,,,,,,,
2022-07-27T23:00:00,1736A,111.5018,36.0855,临汾市,市委,,23,13,25,16,23,127,49,113,93,24,12,2,2,0.7,0.6
2022-07-27T23:00:00,1738A,113.5758,37.8572,阳泉市,市中心,,28,28,57,7,25,112,45,107,76,28,28,7,21,0.7,0.9
2022-07-27T23:00:00,1739A,113.4894,37.8731,阳泉市,赛鱼,,25,14,43,10,18,97,8,88,48,50,22,20,10,0.9,0.7
2022-07-27T23:00:00,1740A,113.5819,37.8486,阳泉市,南庄,,20,12,55,14,29,113,51,102,80,19,23,8,23,0.7,0.9
2022-07-27T23:00:00,1741A,113.6292,37.8531,阳泉市,白羊墅,,,,,,,,,,,,,,,,
2022-07-27T23:00:00,1742A,113.5614,37.8703,阳泉市,平坦,,30,30,54,6,19,120,30,116,85,53,28,11,17,0.8,1
2022-07-27T23:00:00,1743A,113.5158,37.8392,阳泉市,大阳泉,,20,6,31,7,20,115,64,109,80,25,14,6,7,0.6,0.7
2022-07-27T23:00:00,1744A,118.9233,42.2816,赤峰市,松山一中,,32,13,30,2,12,124,100,117,104,10,18,8,10,0.6,0.7
2022-07-27T23:00:00,1745A,118.9576,42.2728,赤峰市,哈达街,,32,6,28,2,12,134,102,123,107,12,18,10,11,0.3,0.5
2022-07-27T23:00:00,1746A,118.8788,42.2554,赤峰市,天义路,,31,5,25,4,13,117,97,111,98,12,17,10,10,0.3,0.4
2022-07-27T23:00:00,1748A,123.044,41.1196,鞍山市,深沟寺,,26,26,33,15,22,139,58,118,86,10,9,6,6,0.6,0.7
2022-07-27T23:00:00,1749A,123.011,41.0931,鞍山市,太阳城,,24,21,35,15,22,131,75,118,93,10,13,6,6,0.7,1
2022-07-27T23:00:00,1750A,123.0485,41.1442,鞍山市,太平,,26,25,37,18,22,142,75,130,96,9,14,5,5,0.7,0.8
2022-07-27T23:00:00,1751A,122.9642,41.0971,鞍山市,铁西三道街,,29,29,54,12,26,149,87,135,106,17,24,5,7,0.8,1.1
2022-07-27T23:00:00,1752A,122.9341,41.0833,鞍山市,铁西工业园区,,44,44,51,18,27,146,53,134,93,29,21,6,7,1.0,1.2
2022-07-27T23:00:00,1753A,123.022,41.0821,鞍山市,明达新区,,26,26,37,17,24,134,78,124,101,11,13,3,4,0.4,0.7
2022-07-27T23:00:00,1754A,123.1289,41.0228,鞍山市,千山(对照点),,,,,,,,,,,,,,,,
2022-07-27T23:00:00,1755A,123.7977,41.8491,抚顺市,望花区,颗粒物(PM10),57,64,60,21,32,172,54,157,115,22,23,5,5,0.6,0.8
2022-07-27T23:00:00,1756A,123.9161,41.8822,抚顺市,顺城区,,27,27,47,9,30,168,71,150,111,20,23,8,8,0.5,0.8
2022-07-27T23:00:00,1757A,124.0436,41.8611,抚顺市,东洲区,,24,16,32,10,20,141,76,119,92,4,7,7,8,0.3,0.5
2022-07-27T23:00:00,1758A,123.9247,41.8642,抚顺市,新抚区,,26,26,48,16,23,169,68,139,111,17,19,4,4,0.5,0.8
2022-07-27T23:00:00,1759A,124.0972,41.8961,抚顺市,大伙房水库,,26,15,30,10,21,125,83,115,99,5,7,5,5,0.3,0.6
2022-07-27T23:00:00,1760A,123.7086,41.8391,抚顺市,沈抚新城,颗粒物(PM10),60,70,59,36,37,192,29,170,110,40,24,3,5,0.9,1
2022-07-27T23:00:00,1761A,123.8275,41.3064,本溪市,大峪,,45,45,37,25,21,117,32,110,75,21,14,5,5,0.8,0.7
2022-07-27T23:00:00,1762A,123.7567,41.3325,本溪市,溪湖,颗粒物(PM10),69,87,53,34,25,119,21,115,79,35,20,5,6,1.1,1.1
2022-07-27T23:00:00,1763A,123.7169,41.3094,本溪市,彩屯,,48,48,52,33,31,111,24,102,57,17,22,4,5,1.0,1.1
2022-07-27T23:00:00,1764A,123.7669,41.2864,本溪市,东明,颗粒物(PM10),58,66,50,30,23,121,48,112,84,27,22,5,5,0.7,0.7
2022-07-27T23:00:00,1765A,123.7992,41.2664,本溪市,新立屯,颗粒物(PM10),51,51,44,27,23,122,45,100,65,26,16,2,3,0.7,0.9
2022-07-27T23:00:00,1766A,123.8142,41.3472,本溪市,威宁,颗粒物(PM10),53,56,45,24,20,114,18,101,58,17,14,8,8,0.6,0.6
2022-07-27T23:00:00,1767A,121.1115,41.0879,锦州市,南山,,45,38,33,31,24,116,63,111,99,32,18,6,14,0.7,0.8
2022-07-27T23:00:00,1768A,121.0533,40.8434,锦州市,开发区,,49,36,45,34,31,136,120,130,128,14,26,2,12,0.8,0.8
2022-07-27T23:00:00,1769A,121.1836,41.1119,锦州市,百股街道,,42,25,30,29,26,126,106,119,109,6,12,5,22,0.6,0.7
2022-07-27T23:00:00,1770A,121.1178,41.1222,锦州市,天安街道,,43,38,38,30,25,123,90,116,110,18,18,5,13,0.7,0.8
2022-07-27T23:00:00,1771A,121.1303,41.1386,锦州市,北湖公园,,38,26,34,26,27,114,103,111,109,13,17,4,16,0.6,0.7
2022-07-27T23:00:00,1772A,126.54,43.8622,吉林市,哈达湾,,25,25,29,11,17,130,72,123,95,11,9,5,5,0.6,0.7
2022-07-27T23:00:00,1773A,126.5844,43.8358,吉林市,东局子,,25,21,29,12,19,123,77,105,82,6,11,7,8,0.6,0.7
2022-07-27T23:00:00,1774A,126.5052,43.8245,吉林市,电力学院,,29,29,35,18,20,118,65,109,88,12,12,7,7,0.5,0.6
2022-07-27T23:00:00,1775A,126.6133,43.8972,吉林市,江北,,22,22,30,12,19,113,39,106,75,32,9,6,6,0.7,0.8
2022-07-27T23:00:00,1776A,126.555,43.8306,吉林市,江南公园,,23,22,28,13,19,120,71,109,82,10,13,4,4,0.5,0.7
2022-07-27T23:00:00,1778A,126.7061,43.7133,吉林市,丰满(对照点),,,,,,,,,,,,,,,,
2022-07-27T23:00:00,1779A,123.9305,47.3636,齐齐哈尔市,安居小区,,48,48,50,21,20,120,97,104,95,14,17,5,5,0.6,0.6
2022-07-27T23:00:00,1780A,123.9488,47.3386,齐齐哈尔市,中心广场,,42,42,37,20,17,114,92,106,93,9,12,4,4,0.5,0.4
2022-07-27T23:00:00,1781A,123.9483,47.3227,齐齐哈尔市,农牧车辆厂,颗粒物(PM10),53,56,45,20,15,118,101,105,104,4,4,3,3,0.5,0.5
2022-07-27T23:00:00,1783A,123.945,47.2988,齐齐哈尔市,市环境监测站,,41,41,40,24,16,121,98,111,106,9,8,6,6,0.5,0.4
2022-07-27T23:00:00,1784A,129.61,44.561,牡丹江市,环保大楼,,29,29,28,11,14,137,52,128,84,24,12,5,5,0.7,0.7
2022-07-27T23:00:00,1785A,129.6115,44.5782,牡丹江市,文化广场,,22,22,36,12,16,126,58,115,79,19,19,2,3,0.5,0.6
2022-07-27T23:00:00,1786A,129.5904,44.5963,牡丹江市,第一医院,,14,14,23,9,10,114,31,97,63,15,15,3,4,0.8,0.8
2022-07-27T23:00:00,1787A,129.6364,44.6075,牡丹江市,机车工厂,,35,35,36,14,12,122,40,114,74,9,13,3,3,0.4,0.5
2022-07-27T23:00:00,1788A,129.6386,44.5462,牡丹江市,第一中学,,25,25,34,12,12,127,25,120,65,20,13,3,4,0.5,0.5
2022-07-27T23:00:00,1789A,124.81117,46.03138,大庆市,大同区,,47,47,43,24,23,135,86,127,108,10,8,4,4,0.5,0.5
2022-07-27T23:00:00,1790A,125.129,46.533,大庆市,龙凤区,,34,34,32,10,13,127,97,122,108,8,10,5,4,0.2,0.2
2022-07-27T23:00:00,1791A,124.902,46.408,大庆市,红岗区,,29,15,25,10,14,124,91,118,106,5,7,3,3,0.4,0.5
2022-07-27T23:00:00,1792A,125.153,46.586,大庆市,萨尔图区,,50,50,46,24,27,122,92,118,108,15,10,5,5,0.5,0.5
2022-07-27T23:00:00,1793A,124.9042,46.6215,大庆市,让胡路区,,32,30,32,9,12,126,101,121,110,6,8,5,4,0.3,0.3
2022-07-27T23:00:00,1794A,118.3606,31.3519,芜湖市,监测站,,,,32,,20,197,108,183,158,19,28,10,11,,0.6
2022-07-27T23:00:00,1795A,118.3714,31.4134,芜湖市,科创中心,,45,45,36,28,18,236,83,196,163,39,25,7,8,0.7,0.7
2022-07-27T23:00:00,1796A,118.3673,31.3131,芜湖市,四水厂,,50,50,33,29,19,202,108,179,162,17,19,7,8,0.6,0.6
2022-07-27T23:00:00,1797A,118.4022,31.3839,芜湖市,济民医院(对照点),,,,,,,,,,,,,,,,
2022-07-27T23:00:00,1798A,118.5092,31.6837,马鞍山市,湖东路四小,,46,36,40,32,21,308,114,254,184,16,25,2,8,0.9,1.3
2022-07-27T23:00:00,1799A,118.5024,31.6449,马鞍山市,开发区,,44,44,31,24,24,235,66,200,157,47,25,8,11,0.9,1
2022-07-27T23:00:00,1800A,118.5228,31.7231,马鞍山市,慈湖,,45,43,54,31,32,272,108,226,191,18,23,12,12,0.8,1.3
2022-07-27T23:00:00,1801A,118.48,31.6928,马鞍山市,马钢动力厂,,,,,,,,,,,,,,,,
2022-07-27T23:00:00,1802A,118.6245,31.7241,马鞍山市,濮塘(对照点),,32,32,25,19,16,258,96,193,166,10,7,2,4,0.6,0.7
2022-07-27T23:00:00,1803A,115.9872,29.6815,九江市,十里,,44,44,34,24,22,233,8,194,87,63,23,6,13,0.8,0.9
2022-07-27T23:00:00,1804A,115.9584,29.7046,九江市,茅山头,,47,47,33,24,20,238,24,179,87,60,22,7,10,0.8,0.8
2022-07-27T23:00:00,1805A,115.9877,29.7295,九江市,西园,颗粒物(PM10),58,65,40,26,19,231,54,190,97,56,28,10,12,1.0,1.1
2022-07-27T23:00:00,1806A,116.0172,29.6547,九江市,五七二七厂,,33,29,34,23,21,188,69,161,121,8,11,4,6,0.8,0.9
2022-07-27T23:00:00,1808A,115.9114,29.6038,九江市,综合工业园,颗粒物(PM10),56,61,31,24,18,178,10,144,66,47,21,5,7,0.6,0.6
2022-07-27T23:00:00,1809A,116.0721,29.7535,九江市,石化总厂,颗粒物(PM10),60,70,37,39,20,185,65,171,130,34,26,4,8,0.8,0.8
2022-07-27T23:00:00,1810A,115.9773,29.5698,九江市,庐山气象台(对照点),,42,29,29,26,26,140,134,129,126,3,5,13,8,0.6,0.6
2022-07-27T23:00:00,1811A,112.3628,34.6692,洛阳市,中信二小,,,,,,,,,,,,,,,,
2022-07-27T23:00:00,1812A,112.3931,34.6516,洛阳市,市委党校,,,20,38,11,31,122,,112,102,29,14,3,4,0.5,0.6
2022-07-27T23:00:00,1814A,112.4657,34.6871,洛阳市,豫西宾馆,,24,24,53,12,28,114,53,96,85,20,13,3,2,0.5,0.6
2022-07-27T23:00:00,1815A,112.494,34.6886,洛阳市,河南林校,,16,12,34,7,19,108,50,94,82,14,8,2,2,0.2,0.3
2022-07-27T23:00:00,1816A,112.3844,34.623,洛阳市,开发区管委会,颗粒物(PM10),53,55,47,9,29,119,37,98,81,18,10,4,5,0.7,0.5
2022-07-27T23:00:00,1817A,112.4267,34.6258,洛阳市,市委新办公区,,17,17,42,9,25,111,41,97,82,18,11,4,4,0.4,0.5
2022-07-27T23:00:00,1818A,114.4839,36.0621,安阳市,棉研所(对照点),,,,,,,,,,,,,,,,
2022-07-27T23:00:00,1819A,114.3551,36.1017,安阳市,红庙街,,33,14,51,8,27,167,105,154,126,12,22,2,5,0.3,0.6
2022-07-27T23:00:00,1820A,114.361,36.0681,安阳市,银杏小区,,36,2,51,16,27,172,113,163,135,5,13,3,4,0.4,0.6
2022-07-27T23:00:00,1824A,114.3389,34.7781,开封市,肿瘤医院,,29,3,50,6,28,145,90,138,116,10,9,2,3,0.4,0.6
2022-07-27T23:00:00,1826A,114.2885,34.7965,开封市,世纪星幼儿园,,26,4,48,3,26,135,83,127,105,10,10,4,4,0.6,0.7
2022-07-27T23:00:00,1828A,113.227,35.2125,焦作市,市环保局,,25,25,55,14,27,143,72,134,99,9,9,2,4,0.4,0.6
2022-07-27T23:00:00,1829A,113.2464,35.1764,焦作市,高新区政府（停运20220628）,,,,,,,,,,,,,,,,
2022-07-27T23:00:00,1830A,113.1992,35.2590,焦作市,影视城(对照点),,,,,,,,,,,,,,,,
2022-07-27T23:00:00,1832A,113.3257,33.742,平顶山市,新华旅馆,,25,16,31,12,13,130,78,123,101,10,14,2,10,0.2,0.3
2022-07-27T23:00:00,1833A,113.2919,33.737,平顶山市,规划设计院,,,20,32,,12,126,76,113,98,7,12,3,3,0.5,0.5
2022-07-27T23:00:00,1834A,113.182,33.774,平顶山市,平顶山工学院,,26,17,38,9,19,125,83,116,98,12,18,4,6,0.4,0.4
2022-07-27T23:00:00,1835A,111.1922,34.7752,三门峡市,市政府,,39,27,28,27,30,128,50,121,67,26,16,5,5,0.6,0.6
2022-07-27T23:00:00,1836A,111.1587,34.7942,三门峡市,开发区,,37,37,46,12,30,126,52,123,77,30,12,3,4,0.6,0.6
2022-07-27T23:00:00,1838A,111.143,34.7955,三门峡市,风景区(对照点),,,,,,,,,,,,,,,,
2022-07-27T23:00:00,1839A,111.3009,30.7157,宜昌市,四零三,,,,,,,,,,,,,,,,
2022-07-27T23:00:00,1840A,111.2992,30.6981,宜昌市,白龙岗,,14,14,15,2,4,133,30,93,55,15,14,8,8,0.4,0.4
2022-07-27T23:00:00,1841A,111.3549,30.6465,宜昌市,伍家岗,,18,18,17,7,6,138,31,97,53,24,18,1,1,0.4,0.4
2022-07-27T23:00:00,1842A,111.2628,30.6961,宜昌市,点军区,,22,22,20,2,4,119,27,84,51,8,10,4,4,0.4,0.4
2022-07-27T23:00:00,1843A,111.3275,30.7819,宜昌市,夷陵区,,13,13,16,0,2,132,31,93,52,10,11,3,4,0.4,0.4
2022-07-27T23:00:00,1844A,112.2494,30.3197,荆州市,市图书馆,,33,33,27,16,14,201,48,170,135,18,13,9,8,0.5,0.5
2022-07-27T23:00:00,1845A,112.2008,30.3544,荆州市,市委党校,,25,25,26,8,13,187,50,163,126,14,9,8,7,0.5,0.5
2022-07-27T23:00:00,1847A,113.1094,29.3578,岳阳市,南湖风景区,,45,45,34,31,27,153,56,144,119,34,13,7,8,0.7,0.6
2022-07-27T23:00:00,1848A,113.1493,29.4251,岳阳市,城陵矶,,42,42,37,25,25,150,49,139,92,39,14,14,11,0.7,0.6
2022-07-27T23:00:00,1849A,113.1497,29.3575,岳阳市,开发区,细颗粒物(PM2.5),102,52,34,76,29,147,28,141,110,47,15,5,7,0.6,0.7
2022-07-27T23:00:00,1850A,113.2621,29.4758,岳阳市,云溪区,细颗粒物(PM2.5),57,57,36,40,23,151,64,145,107,18,14,13,14,0.8,0.6
2022-07-27T23:00:00,1851A,112.9943,29.4402,岳阳市,君山区,,50,42,32,35,26,151,80,138,112,18,9,5,6,0.6,0.6
2022-07-27T23:00:00,1852A,113.2117,29.355,岳阳市,金凤水库(对照点),颗粒物(PM10),51,52,33,28,21,142,60,136,113,27,10,5,4,0.7,0.8
2022-07-27T23:00:00,1854A,111.6975,28.9703,常德市,市二中,,26,4,27,18,21,146,56,144,107,7,14,16,6,0.4,0.4
2022-07-27T23:00:00,1857A,111.7158,29.1456,常德市,白鹤山(对照点),,25,25,37,17,22,159,72,144,110,3,6,4,5,0.4,0.5
2022-07-27T23:00:00,1858A,110.5319,29.1217,张家界市,永定新区,,23,13,25,16,28,110,37,97,64,10,10,3,3,0.0,0.2
2022-07-27T23:00:00,1859A,110.4697,29.1242,张家界市,电业局,,12,11,25,4,13,124,36,107,61,11,8,3,4,0.1,0.2
2022-07-27T23:00:00,1860A,110.5594,29.3547,张家界市,未央路,,9,9,26,5,14,90,20,83,47,6,6,2,2,0.2,0.2
2022-07-27T23:00:00,1861A,110.4417,29.315,张家界市,袁家界(对照点),,16,12,21,10,14,107,51,96,71,4,5,5,5,0.6,0.7
2022-07-27T23:00:00,1862A,110.4144,25.3167,桂林市,电子科大尧山校区(对照点),细颗粒物(PM2.5),85,47,34,63,26,109,37,102,68,10,7,18,12,0.6,0.6
2022-07-27T23:00:00,1863A,110.2819,25.2697,桂林市,监测站,,44,44,35,15,18,101,99,89,84,16,14,6,9,0.6,0.5
2022-07-27T23:00:00,1864A,110.3089,25.2708,桂林市,龙隐路小学,,32,32,35,20,18,99,99,90,83,13,14,6,13,0.3,0.3
2022-07-27T23:00:00,1865A,110.2869,25.2178,桂林市,八中,,29,29,28,20,17,100,91,82,82,11,14,6,8,0.4,0.5
2022-07-27T23:00:00,1866A,109.2262,21.588,北海市,牛尾岭水库(对照点),,13,10,16,9,12,60,20,55,38,7,8,4,4,0.4,0.4
2022-07-27T23:00:00,1867A,109.1436,21.4086,北海市,海滩公园,,13,12,15,5,4,68,41,60,42,2,2,4,4,0.5,0.5
2022-07-27T23:00:00,1868A,109.0981,21.4661,北海市,新市环保局,,13,0,10,2,5,66,40,58,43,2,2,3,3,0.3,0.4
2022-07-27T23:00:00,1869A,109.1778,21.5233,北海市,北海工业园,,,12,13,2,7,63,38,58,43,,2,4,4,0.4,0.3
2022-07-27T23:00:00,1870A,109.4856,24.3895,柳州市,柳东小学,,36,36,34,24,25,125,91,119,112,11,8,5,6,0.6,0.6
2022-07-27T23:00:00,1871A,109.4157,24.3277,柳州市,环保监测站,,43,43,33,26,17,116,65,107,96,29,12,6,6,0.7,0.6
2022-07-27T23:00:00,1872A,109.389,24.341,柳州市,河西水厂,,48,48,36,25,21,119,71,107,96,22,12,7,8,0.6,0.5
2022-07-27T23:00:00,1873A,109.4311,24.2921,柳州市,市四中,颗粒物(PM10),53,55,41,26,24,118,69,108,92,22,11,8,7,1.4,0.9
2022-07-27T23:00:00,1874A,109.4006,24.3631,柳州市,市九中,颗粒物(PM10),53,56,40,29,20,119,74,108,98,16,9,7,7,0.7,0.6
2022-07-27T23:00:00,1875A,109.4958,24.3134,柳州市,古亭山,,35,35,34,18,18,109,65,106,93,19,12,5,5,0.6,0.6
2022-07-27T23:00:00,1876A,109.5078,18.2489,三亚市,河东子站,,17,17,10,8,4,36,22,31,29,9,7,2,3,0.4,0.4
2022-07-27T23:00:00,1877A,109.4964,18.2681,三亚市,河西子站,,10,10,12,4,4,36,28,33,31,6,8,4,6,0.2,0.3
2022-07-27T23:00:00,1878A,104.7778,31.4741,绵阳市,富乐山,,22,22,27,10,16,126,45,97,68,15,12,14,10,0.5,0.5
2022-07-27T23:00:00,1879A,104.7563,31.4535,绵阳市,市人大,,27,27,34,15,18,106,53,86,81,25,17,6,3,0.5,0.5
2022-07-27T23:00:00,1880A,104.6697,31.4668,绵阳市,高新区自来水公司,,39,39,30,17,20,129,53,103,90,29,17,19,7,0.6,0.5
2022-07-27T23:00:00,1881A,104.7287,31.5075,绵阳市,三水厂,,25,19,39,17,24,124,42,96,75,32,23,6,4,0.6,0.6
2022-07-27T23:00:00,1882A,104.563,28.793,宜宾市,石马中学(对照点),,28,28,28,17,11,113,74,99,93,11,8,4,5,0.5,0.5
2022-07-27T23:00:00,1883A,104.6201,28.7728,宜宾市,市委,,30,27,27,17,14,112,93,102,94,16,15,6,8,0.5,0.5
2022-07-27T23:00:00,1884A,104.6055,28.793,宜宾市,宜宾四中,,33,32,39,23,18,123,101,113,105,13,13,8,10,0.6,0.5
2022-07-27T23:00:00,1885A,104.639,28.7562,宜宾市,市政府,,31,24,27,20,16,123,98,110,102,13,14,7,8,0.7,0.6
2022-07-27T23:00:00,1886A,104.5742,28.7199,宜宾市,黄金嘴,,31,31,24,20,14,123,86,109,98,10,10,6,7,0.5,0.4
2022-07-27T23:00:00,1888A,101.6891,26.571,攀枝花市,弄弄坪,,36,36,23,17,15,93,38,75,66,23,17,12,13,1.7,1.2
2022-07-27T23:00:00,1889A,101.5769,26.5928,攀枝花市,河门口,,17,6,15,2,7,96,53,81,75,7,14,6,11,0.6,1
2022-07-27T23:00:00,1890A,101.7169,26.585,攀枝花市,炳草岗,,18,18,24,8,10,94,35,77,68,25,23,9,19,0.8,1.1
2022-07-27T23:00:00,1891A,101.7369,26.5008,攀枝花市,仁和,,20,20,27,10,15,78,37,63,56,16,17,12,20,0.5,1
2022-07-27T23:00:00,1893A,105.4324,28.9634,泸州市,九狮山(对照点),,26,20,23,18,18,100,26,83,70,33,21,7,8,0.8,0.6
2022-07-27T23:00:00,1894A,105.4427,28.9063,泸州市,小市上码头,,50,50,39,30,21,138,65,113,101,20,15,15,10,0.7,0.6
2022-07-27T23:00:00,1895A,105.4241,28.8573,泸州市,兰田宪桥,,39,38,30,27,17,137,56,109,89,15,16,5,7,0.4,0.3
2022-07-27T23:00:00,1896A,105.4379,28.8833,泸州市,市环监站,,46,39,30,32,20,136,71,114,97,15,17,3,4,0.5,0.5
2022-07-27T23:00:00,1897A,104.7547,29.3628,自贡市,大塘山(对照点),,,,,,,,,,,,,,,,
2022-07-27T23:00:00,1900A,104.7692,29.3411,自贡市,春华路,,,,,,,,,,,,,,,,
2022-07-27T23:00:00,1901A,104.4239,31.1208,德阳市,东山公园,,22,21,29,8,15,114,70,110,90,19,13,13,12,0.6,0.6
2022-07-27T23:00:00,1902A,104.3826,31.1317,德阳市,西小区,,36,36,38,5,13,103,67,95,90,21,15,8,5,0.3,0.4
2022-07-27T23:00:00,1903A,104.4053,31.1167,德阳市,市检察院,,,,,,,,,,,,,,,,
2022-07-27T23:00:00,1904A,104.3553,31.1091,德阳市,耐火材料厂,,26,26,32,7,15,102,47,96,85,36,18,8,7,0.6,0.6
2022-07-27T23:00:00,1905A,106.056,30.8064,南充市,西山风景区(对照点),,27,19,27,7,14,102,86,96,96,10,15,3,4,0.6,0.8
2022-07-27T23:00:00,1906A,106.0789,30.8023,南充市,南充市委,,28,19,30,6,14,108,88,102,98,13,9,3,3,0.7,0.4
2022-07-27T23:00:00,1907A,106.1031,30.8217,南充市,南充炼油厂,,25,25,28,6,12,113,78,102,100,11,9,5,6,0.3,0.3
2022-07-27T23:00:00,1908A,106.1064,30.7856,南充市,高坪区监测站,,21,3,22,2,15,106,66,97,95,19,10,1,4,0.4,0.4
2022-07-27T23:00:00,1909A,106.0642,30.7636,南充市,嘉陵区环保局,,24,11,22,15,15,106,74,98,94,16,8,5,4,0.3,0.3
2022-07-27T23:00:00,1910A,106.1087,30.8388,南充市,市环境监测站,,25,17,29,4,17,101,80,91,90,16,18,3,4,0.3,0.3
2022-07-27T23:00:00,1911A,106.9222,27.6869,遵义市,丁字口,,23,20,21,16,17,118,41,103,69,12,8,7,7,0.6,0.6
2022-07-27T23:00:00,1912A,106.9242,27.7019,遵义市,凤凰山,,30,23,24,21,17,112,51,100,72,12,9,6,5,0.6,0.7
2022-07-27T23:00:00,1913A,106.8906,27.6486,遵义市,忠庄,,23,23,17,8,8,101,24,87,51,19,12,2,2,0.3,0.4
2022-07-27T23:00:00,1914A,106.9231,27.6506,遵义市,舟水桥,,24,24,31,11,12,112,23,97,52,25,15,3,2,0.5,0.5
2022-07-27T23:00:00,1915A,106.9178,27.72,遵义市,干田坝,,21,21,23,11,13,119,42,102,64,11,9,4,5,0.6,0.6
2022-07-27T23:00:00,1916A,103.7897,25.5035,曲靖市,环境监测站,,44,44,23,25,13,97,24,79,44,29,20,8,6,0.7,0.5
2022-07-27T23:00:00,1917A,103.8,25.5364,曲靖市,烟厂办公区,,32,8,26,22,11,64,29,47,20,18,12,7,5,0.7,0.5
2022-07-27T23:00:00,1918A,108.7197,34.3956,咸阳市,气象站(对照点),颗粒物(PM10),52,54,31,17,12,136,29,122,105,66,9,5,5,0.9,0.8
2022-07-27T23:00:00,1919A,108.673,34.3155,咸阳市,实验中学,,35,35,24,13,14,134,69,122,114,32,14,4,3,0.4,0.3
2022-07-27T23:00:00,1920A,108.7233,34.3617,咸阳市,师范学院,,39,39,28,14,14,134,48,124,110,34,11,4,4,0.6,0.5
2022-07-27T23:00:00,1922A,109.0656,35.0994,铜川市,党校(对照点),,37,37,20,11,11,81,2,78,39,35,18,4,4,0.7,0.7
2022-07-27T23:00:00,1923A,109.0697,35.0697,铜川市,王益区政府,,32,32,24,12,11,111,9,108,64,37,17,4,4,0.6,0.6
2022-07-27T23:00:00,1924A,108.9344,34.9058,铜川市,新区管委会,,42,42,27,17,14,125,58,110,99,35,16,5,5,0.6,0.5
2022-07-27T23:00:00,1925A,108.9589,34.8731,铜川市,新区兰芝公司,,,,,,,,,,,,,,,,
2022-07-27T23:00:00,1926A,109.4131,36.6275,延安市,枣园(对照点),,33,33,16,8,7,136,11,119,80,31,12,3,3,0.5,0.5
2022-07-27T23:00:00,1927A,109.4761,36.6028,延安市,延大医附院,,35,35,18,13,12,127,10,108,73,41,16,3,3,0.4,0.4
2022-07-27T23:00:00,1928A,109.4824,36.5767,延安市,市监测站,,,,,,,,,,,,,,,,
2022-07-27T23:00:00,1929A,109.5056,36.6106,延安市,百米大道,颗粒物(PM10),53,55,23,14,10,119,8,106,75,40,18,5,5,0.8,0.6
2022-07-27T23:00:00,1930A,107.185,34.3063,宝鸡市,庙沟村(对照点),,27,9,20,5,12,105,84,102,92,11,8,4,4,0.2,0.3
2022-07-27T23:00:00,1931A,107.0708,34.3017,宝鸡市,竹园沟,,20,20,23,9,12,117,59,107,80,17,10,4,4,0.3,0.4
2022-07-27T23:00:00,1932A,107.1906,34.3672,宝鸡市,三陆医院,,19,19,27,6,13,126,41,120,92,24,12,5,6,0.3,0.3
2022-07-27T23:00:00,1933A,107.1431,34.3547,宝鸡市,监测站,,19,19,26,9,14,123,46,112,84,22,16,5,6,0.3,0.4
2022-07-27T23:00:00,1934A,107.1186,34.3739,宝鸡市,技工学校,,20,20,28,10,14,124,43,114,89,17,13,5,4,0.2,0.3
2022-07-27T23:00:00,1935A,107.3906,34.3528,宝鸡市,陈仓区环保局家属楼,,27,27,28,12,15,139,44,126,97,31,12,5,5,0.3,0.4
2022-07-27T23:00:00,1936A,107.2058,34.3497,宝鸡市,文理学院,,25,25,28,11,16,129,58,124,92,26,17,7,7,0.2,0.3
2022-07-27T23:00:00,1937A,107.2386,34.3622,宝鸡市,三迪小学,,30,30,27,7,11,126,46,120,90,34,18,5,5,0.3,0.3
2022-07-27T23:00:00,1938A,109.5293,34.5101,渭南市,农科所(对照点),,,,,,,,,,,,,,,,
2022-07-27T23:00:00,1939A,109.4974,34.4877,渭南市,日报社,,27,27,26,17,20,112,52,104,82,41,18,11,6,0.5,0.4
2022-07-27T23:00:00,1940A,109.4636,34.493,渭南市,体育馆,,21,17,22,14,19,148,65,118,102,20,14,3,5,0.3,0.4
2022-07-27T23:00:00,1941A,109.4259,34.5023,渭南市,高新一小,,29,29,32,17,18,137,63,112,102,32,14,4,5,0.3,0.4
2022-07-27T23:00:00,1943A,102.1725,38.5339,金昌市,新川苑,,37,37,25,10,9,129,52,125,111,44,20,10,12,0.8,0.6
2022-07-27T23:00:00,1944A,102.1692,38.5167,金昌市,天庆家园,颗粒物(PM10),52,54,31,15,7,132,30,125,96,47,19,13,10,1.0,0.5
2022-07-27T23:00:00,1945A,98.2908,39.7711,嘉峪关市,气象局,,36,36,58,7,12,152,102,144,132,34,14,1,6,0.5,0.4
2022-07-27T23:00:00,1947A,106.3394,38.817,石嘴山市,沙湖旅游区(对照点),颗粒物(PM10),54,58,37,17,9,174,114,158,131,13,13,28,27,0.3,0.3
2022-07-27T23:00:00,1948A,106.3668,39.0145,石嘴山市,大武口朝阳西街,颗粒物(PM10),58,65,41,21,13,158,59,145,118,44,19,26,11,1.2,0.7
2022-07-27T23:00:00,1949A,106.7704,39.2282,石嘴山市,惠农南大街,,44,44,41,12,13,151,77,135,113,28,20,8,14,0.4,0.5
2022-07-27T23:00:00,1950A,106.7099,39.1325,石嘴山市,红果子镇惠新街,颗粒物(PM10),58,66,52,21,12,155,69,142,118,30,15,16,15,0.4,0.4
2022-07-27T23:00:00,1951A,84.895,45.6094,克拉玛依市,长征新村,,30,22,18,3,5,133,94,117,116,12,10,7,8,0.2,0.2
2022-07-27T23:00:00,1952A,84.8988,45.5893,克拉玛依市,南林小区,,22,18,26,9,12,123,59,107,100,44,26,9,9,0.6,0.6
2022-07-27T23:00:00,1953A,85.1186,45.6886,克拉玛依市,白碱滩区,,,,,,,,,,,,,,,,
2022-07-27T23:00:00,1954A,84.905,44.3396,克拉玛依市,独山子区,颗粒物(PM10),51,51,37,15,21,162,90,139,128,14,13,9,10,0.6,0.5
2022-07-27T23:00:00,1955A,85.6979,46.098,克拉玛依市,乌尔禾区商贸楼,,32,17,21,6,8,118,101,107,107,3,8,12,12,0.2,0.2
2022-07-27T23:00:00,1956A,86.1472,41.7538,巴音郭楞州,孔雀公园,颗粒物(PM10),62,74,108,20,30,120,33,114,93,69,45,3,4,0.5,0.4
2022-07-27T23:00:00,1957A,86.1972,41.7166,巴音郭楞州,棉纺厂,颗粒物(PM10),71,92,138,25,34,130,31,123,96,63,30,4,4,0.5,0.3
2022-07-27T23:00:00,1958A,86.2357,41.7173,巴音郭楞州,经济开发区,颗粒物(PM10),51,52,173,17,36,128,47,122,105,36,15,4,5,0.3,0.2
2022-07-27T23:00:00,1959A,118.746,36.881,寿光市,监测站,,,,,,,,,,,,,,,,
2022-07-27T23:00:00,1960A,118.780,36.864,寿光市,世纪学校,,,,,,,,,,,,,,,,
2022-07-27T23:00:00,1961A,117.532,36.6868,济南市,东山小学,颗粒物(PM10),63,76,47,27,14,199,63,182,138,39,27,6,4,0.6,0.5
2022-07-27T23:00:00,1962A,117.541,36.710,章丘市,明水开发区,,,,,,,,,,,,,,,,
2022-07-27T23:00:00,1963A,120.610,36.440,即墨市,环保局子站,,,,,,,,,,,,,,,,
2022-07-27T23:00:00,1964A,120.470,36.390,即墨市,开发区子站,,,,,,,,,,,,,,,,
2022-07-27T23:00:00,1965A,120.005,35.878,胶南市,JN子站,,,,,,,,,,,,,,,,
2022-07-27T23:00:00,1966A,120.0405,35.8735,青岛市,黄岛区4号,,32,12,12,2,5,136,102,129,108,5,12,4,4,0.5,0.5
2022-07-27T23:00:00,1967A,120.008,36.283,胶州市,胶州环保局,,,,,,,,,,,,,,,,
2022-07-27T23:00:00,1968A,120.014,36.253,胶州市,胶州一中,,,,,,,,,,,,,,,,
2022-07-27T23:00:00,1969A,120.537,36.865,莱西市,环保局子站,,,,,,,,,,,,,,,,
2022-07-27T23:00:00,1970A,120.515,36.885,莱西市,人民广场子站,,,,,,,,,,,,,,,,
2022-07-27T23:00:00,1971A,119.952,36.792,平度市,1号,,,,,,,,,,,,,,,,
2022-07-27T23:00:00,1972A,119.976,36.799,平度市,2号,,,,,,,,,,,,,,,,
2022-07-27T23:00:00,1973A,120.747,37.825,蓬莱市,蓬莱环保局,,,,,,,,,,,,,,,,
2022-07-27T23:00:00,1974A,120.773,37.809,蓬莱市,蓬莱博物馆,,,,,,,,,,,,,,,,
2022-07-27T23:00:00,1975A,120.399,37.374,招远市,招远环保局,,,,,,,,,,,,,,,,
2022-07-27T23:00:00,1976A,120.394,37.364,招远市,招远教育局,,,,,,,,,,,,,,,,
2022-07-27T23:00:00,1977A,119.941,37.177,莱州市,莱州环保局,,,,,,,,,,,,,,,,
2022-07-27T23:00:00,1978A,119.959,37.180,莱州市,莱州外经委,,,,,,,,,,,,,,,,
2022-07-27T23:00:00,1979A,122.471,37.154,荣成市,荣成市环保局办公楼,,,,,,,,,,,,,,,,
2022-07-27T23:00:00,1980A,122.410,37.161,荣成市,山东成山轮胎公司,,,,,,,,,,,,,,,,
2022-07-27T23:00:00,1981A,122.038,37.197,文登市,文登市环保局,,,,,,,,,,,,,,,,
2022-07-27T23:00:00,1982A,122.0693,37.2174,威海市,文登开发区,,30,7,12,2,6,96,96,86,86,7,10,4,4,0.0,0.1
2022-07-27T23:00:00,1983A,121.531,36.913,乳山市,乳山市环保局,,,,,,,,,,,,,,,,
2022-07-27T23:00:00,1984A,121.544,36.907,乳山市,乳山市气象局,,,,,,,,,,,,,,,,
2022-07-27T23:00:00,1985A,120.636,31.155,吴江市,吴江市环保局,,,,,,,,,,,,,,,,
2022-07-27T23:00:00,1986A,120.635,31.170,吴江市,教师进修学校,,,,,,,,,,,,,,,,
2022-07-27T23:00:00,1987A,120.658,31.172,吴江市,吴江开发区,,,,,,,,,,,,,,,,
2022-07-27T23:00:00,1988A,120.953,31.388,昆山市,昆山实验小学,,,,,,,,,,,,,,,,
2022-07-27T23:00:00,1989A,120.999,31.381,昆山市,震川中学,,,,,,,,,,,,,,,,
2022-07-27T23:00:00,1990A,120.758,31.670,常熟市,海虞子站,,,,,,,,,,,,,,,,
2022-07-27T23:00:00,1991A,120.721,31.671,常熟市,兴福子站,,,,,,,,,,,,,,,,
2022-07-27T23:00:00,1992A,120.734,31.656,常熟市,菱塘子站,,,,,,,,,,,,,,,,
2022-07-27T23:00:00,1993A,120.526,31.874,张家港市,张家港市监测站,,,,,,,,,,,,,,,,
2022-07-27T23:00:00,1994A,120.550,31.882,张家港市,城北小学,,,,,,,,,,,,,,,,
2022-07-27T23:00:00,1995A,121.115,31.453,太仓市,太仓市监测站,,,,,,,,,,,,,,,,
2022-07-27T23:00:00,1996A,121.140,31.422,太仓市,科教新城实小,,,,,,,,,,,,,,,,
2022-07-27T23:00:00,1997A,119.146,31.955,句容市,消防指挥中心,,,,,,,,,,,,,,,,
2022-07-27T23:00:00,1998A,119.180,31.955,句容市,房家坝,,,,,,,,,,,,,,,,
2022-07-27T23:00:00,1999A,120.268,31.920,江阴市,虹桥邮政,,,,,,,,,,,,,,,,
2022-07-27T23:00:00,2000A,120.237,31.909,江阴市,五星公园,,,,,,,,,,,,,,,,
2022-07-27T23:00:00,2001A,120.302,31.920,江阴市,第二实验小学,,,,,,,,,,,,,,,,
2022-07-27T23:00:00,2002A,119.818,31.354,宜兴市,宜兴市环保局,,,,,,,,,,,,,,,,
2022-07-27T23:00:00,2003A,119.794,31.371,宜兴市,宜园,,,,,,,,,,,,,,,,
2022-07-27T23:00:00,2004A,119.579,31.751,金坛市,金坛市环境监测站,,,,,,,,,,,,,,,,
2022-07-27T23:00:00,2005A,119.579,31.737,金坛市,金坛市自来水公司,,,,,,,,,,,,,,,,
2022-07-27T23:00:00,2006A,119.460,31.400,溧阳市,溧阳市东门子站,,,,,,,,,,,,,,,,
2022-07-27T23:00:00,2007A,119.438,31.317,溧阳市,燕山子站,,,,,,,,,,,,,,,,
2022-07-27T23:00:00,2008A,121.173,31.896,海门市,海门市监测站,,,,,,,,,,,,,,,,
2022-07-27T23:00:00,2009A,121.1518,31.89708,海门市,社会福利院,,,,,,,,,,,,,,,,
2022-07-27T23:00:00,2010A,119.7183,30.2366,临安市,市政府,,,,,,,,,,,,,,,,
2022-07-27T23:00:00,2011A,119.6942,30.2311,临安市,四中,,,,,,,,,,,,,,,,
2022-07-27T23:00:00,2012A,119.954,30.054,富阳市,监测站,,,,,,,,,,,,,,,,
2022-07-27T23:00:00,2013A,119.946,30.049,富阳市,富春二小,,,,,,,,,,,,,,,,
2022-07-27T23:00:00,2014A,120.091,29.305,义乌市,江东,,,,,,,,,,,,,,,,
2022-07-27T23:00:00,2015A,120.040,29.334,义乌市,北苑,,,,,,,,,,,,,,,,
2022-07-27T23:00:00,2016A,120.251,29.719,诸暨市,图书馆,,,,,,,,,,,,,,,,
2022-07-27T23:00:00,2017A,120.209,29.732,诸暨市,富林印务,,,,,,,,,,,,,,,,
2022-07-27T23:00:00,2018A,121.989,39.625,瓦房店市,抱龙山庄,,,,,,,,,,,,,,,,
2022-07-27T23:00:00,2019A,122.011,39.617,瓦房店市,东山公园,,,,,,,,,,,,,,,,
2022-07-27T23:00:00,2031A,113.1817,27.9958,株洲市,云田中学,颗粒物(PM10),63,75,34,4,26,144,49,136,104,25,10,3,5,0.6,0.4
2022-07-27T23:00:00,2054A,114.1099,32.1059,信阳市,平桥分局,,,31,30,19,11,119,,98,72,23,11,6,9,0.6,0.6
2022-07-27T23:00:00,2064A,113.9956,32.1271,信阳市,南湾水厂,,27,27,24,13,10,134,42,106,71,7,7,6,5,0.5,0.5
2022-07-27T23:00:00,2065A,114.0775,32.1195,信阳市,市酿酒公司,,24,24,17,14,9,131,42,105,66,18,9,8,8,0.5,0.5
2022-07-27T23:00:00,2066A,114.0609,32.1399,信阳市,审计局,,28,28,22,12,11,127,36,104,62,19,11,7,7,0.6,0.6
2022-07-27T23:00:00,2067A,114.6613,33.6128,周口市,市环境监测站,,30,26,26,9,11,139,93,131,118,9,13,4,7,0.4,0.4
2022-07-27T23:00:00,2068A,114.6758,33.6347,周口市,周口师范,,34,34,29,8,11,140,92,133,117,8,9,3,4,0.4,0.4
2022-07-27T23:00:00,2069A,114.6546,33.5979,周口市,市运管处,,29,26,26,10,12,135,91,126,114,8,15,2,5,0.6,0.5
2022-07-27T23:00:00,2070A,114.6369,33.6406,周口市,川汇区环保局,颗粒物(PM10),53,55,31,10,13,144,96,135,118,6,11,3,6,0.4,0.4
2022-07-27T23:00:00,2075A,117.6336,24.4674,漳州市,九湖(对照点),,,,,,,,,,,,,,,,
2022-07-27T23:00:00,2160A,112.85,35.5051,晋城市,自来水公司,,35,35,51,14,26,131,50,120,88,23,13,3,3,1.0,0.6
2022-07-27T23:00:00,2161A,112.8318,35.4936,晋城市,白云商贸,,20,18,39,14,22,139,58,128,94,22,12,3,2,1.0,0.7
2022-07-27T23:00:00,2162A,112.8508,35.4887,晋城市,市环保局,,32,27,41,22,29,136,58,126,95,25,14,2,2,1.4,0.6
2022-07-27T23:00:00,2163A,112.8676,35.4897,晋城市,技术学院,,25,11,32,17,22,130,75,119,94,16,13,3,3,0.8,0.5
2022-07-27T23:00:00,2164A,112.8271,35.4828,晋城市,泽州一中,,,,,,,,,,,,,,,,
2022-07-27T23:00:00,2165A,112.8453,35.546,晋城市,白马寺 (对照点),,,,,,,,,,,,,,,,
2022-07-27T23:00:00,2166A,112.4397,39.3522,朔州市,平朔,,36,36,38,8,23,124,113,109,101,10,21,7,7,0.2,0.6
2022-07-27T23:00:00,2167A,112.4575,39.3617,朔州市,朔唯,,39,39,43,8,24,125,103,110,97,20,26,5,6,0.4,0.7
2022-07-27T23:00:00,2168A,112.4258,39.3197,朔州市,区政府,颗粒物(PM10),57,63,42,6,21,120,106,100,94,16,21,8,10,0.2,0.6
2022-07-27T23:00:00,2169A,112.4072,39.3278,朔州市,市环保局,颗粒物(PM10),55,60,39,9,18,130,107,112,101,14,22,6,7,0.3,0.5
2022-07-27T23:00:00,2170A,112.4272,39.3681,朔州市,市二中,颗粒物(PM10),55,60,49,8,28,125,117,109,101,9,23,3,4,0.5,0.7
2022-07-27T23:00:00,2171A,112.7532,37.6945,晋中市,锦纶小区,,23,21,37,10,23,124,24,121,81,46,20,6,7,0.3,0.5
2022-07-27T23:00:00,2173A,112.7249,37.7067,晋中市,南都小区,,23,23,38,13,24,118,58,115,92,27,19,6,7,0.5,0.5
2022-07-27T23:00:00,2174A,112.6991,37.6982,晋中市,榆次区政府,,29,29,40,20,25,115,37,113,74,23,16,4,9,0.6,0.7
2022-07-27T23:00:00,2175A,110.9956,35.0147,运城市,运城中学,,43,22,32,30,22,109,70,109,77,11,7,5,5,0.7,0.6
2022-07-27T23:00:00,2176A,111.0233,35.0611,运城市,禹都开发区,,,,,,,,,,,,,,,,
2022-07-27T23:00:00,2178A,110.9686,35.0303,运城市,地区技校,,20,19,27,14,13,123,61,123,84,16,6,5,5,0.6,0.5
2022-07-27T23:00:00,2179A,111.0414,35.1147,运城市,空港新区,,25,22,35,8,15,126,77,118,93,11,8,7,7,0.4,0.4
2022-07-27T23:00:00,2181A,112.7383,38.4519,忻州市,开发区,,45,43,26,31,28,127,58,109,94,23,15,6,8,0.6,0.6
2022-07-27T23:00:00,2182A,112.7003,38.4928,忻州市,会展中心,,35,35,28,14,18,108,32,100,77,38,20,6,7,0.5,0.5
2022-07-27T23:00:00,2183A,111.1406,37.5211,吕梁市,环保局,,34,34,20,11,11,109,2,100,62,54,18,3,2,0.3,0.4
2022-07-27T23:00:00,2185A,111.1297,37.5136,吕梁市,自来水公司,,29,29,23,20,74,107,16,101,68,39,16,3,2,0.4,0.5
2022-07-27T23:00:00,2186A,106.8288,39.6778,乌海市,聚英学校,,,,,,,,,,,,,,,,
2022-07-27T23:00:00,2187A,106.8174,39.6973,乌海市,市林业局,颗粒物(PM10),51,51,43,20,20,184,99,144,109,27,11,37,10,0.7,0.6
2022-07-27T23:00:00,2188A,106.7907,39.6667,乌海市,中海勃湾学校,,43,43,40,18,16,206,68,153,116,58,15,27,16,0.6,0.4
2022-07-27T23:00:00,2191A,122.2532,43.6801,通辽市,艺术职业学校,颗粒物(PM10),52,53,39,24,20,119,112,117,112,14,12,5,7,0.2,0.3
2022-07-27T23:00:00,2192A,119.7594,49.2261,呼伦贝尔市,区环保局,,33,10,24,8,17,114,104,100,100,9,9,4,5,0.3,0.3
2022-07-27T23:00:00,2194A,107.5936,40.916,巴彦淖尔市,秋林养殖基地(对照点),,,,,,,,,,,,,,,,
2022-07-27T23:00:00,2195A,107.4212,40.761,巴彦淖尔市,附二中,颗粒物(PM10),65,79,115,17,29,122,111,119,111,10,8,25,4,0.4,0.5
2022-07-27T23:00:00,2196A,107.37,40.7372,巴彦淖尔市,市环保大楼,,,,105,30,33,127,123,121,113,12,8,4,3,0.4,0.4
2022-07-27T23:00:00,2197A,113.1306,40.9923,乌兰察布市,集宁新区,,37,37,48,22,26,125,108,108,108,14,18,9,11,0.3,0.5
2022-07-27T23:00:00,2200A,122.0392,46.0656,兴安盟,胜华新制药厂,,32,32,28,22,17,105,85,97,84,7,8,2,3,0.2,0.3
2022-07-27T23:00:00,2201A,121.9504,46.0741,兴安盟,科右前旗环保局,,25,25,24,17,20,114,71,101,83,8,9,3,4,0.2,0.3
2022-07-27T23:00:00,2202A,116.1042,43.9317,锡林郭勒盟,市环保监测站,,32,10,18,7,7,126,101,120,114,4,6,14,11,0.2,0.2
2022-07-27T23:00:00,2203A,116.0781,43.9311,锡林郭勒盟,市政府,,38,17,15,3,6,132,120,125,121,5,6,9,8,0.3,0.3
2022-07-27T23:00:00,2204A,105.6467,38.8363,阿拉善盟,西城区西花园(对照点),,30,27,25,12,12,137,93,131,116,12,8,3,3,0.4,0.4
2022-07-27T23:00:00,2205A,105.6985,38.8411,阿拉善盟,蒙二幼,,33,23,23,14,18,137,104,137,120,5,6,7,7,0.2,0.2
2022-07-27T23:00:00,2206A,105.724,38.8516,阿拉善盟,环保局新楼,,35,24,20,18,13,140,111,140,118,5,7,6,6,0.3,0.3
2022-07-27T23:00:00,2207A,121.6094,41.998,阜新市,工业园区,颗粒物(PM10),84,118,47,31,22,115,69,107,96,25,17,38,12,0.8,0.6
2022-07-27T23:00:00,2208A,121.6697,42.0279,阜新市,长青街,,41,41,36,27,23,125,82,116,110,20,11,8,11,0.7,0.5
2022-07-27T23:00:00,2209A,121.6673,42.0705,阜新市,农业园区,,45,45,34,25,18,126,74,118,102,15,9,11,11,0.8,0.7
2022-07-27T23:00:00,2210A,121.6717,42.0224,阜新市,东苑,颗粒物(PM10),55,59,46,19,27,130,85,114,108,15,11,11,14,0.7,0.6
2022-07-27T23:00:00,2211A,121.6506,42.0498,阜新市,玉龙新城,,,,35,,14,87,,84,,,12,,7,,0.6
2022-07-27T23:00:00,2212A,123.2,41.1953,辽阳市,宏伟区,,28,19,29,10,18,122,89,117,102,5,8,6,5,0.4,0.5
2022-07-27T23:00:00,2213A,123.1683,41.2495,辽阳市,新华园,,34,34,47,16,25,138,82,125,103,13,16,6,6,0.6,0.6
2022-07-27T23:00:00,2214A,123.2354,41.2639,辽阳市,滨河路,,29,19,43,20,30,122,65,118,91,11,13,8,9,0.5,0.6
2022-07-27T23:00:00,2215A,123.149,41.2991,辽阳市,铁西工业园,,32,24,46,22,33,148,92,132,107,10,19,5,5,0.6,0.8
2022-07-27T23:00:00,2216A,123.8139,42.3022,铁岭市,汇工街西,颗粒物(PM10),60,70,60,29,32,187,49,187,134,37,16,6,8,0.8,0.7
2022-07-27T23:00:00,2217A,123.8649,42.2923,铁岭市,水上乐园,颗粒物(PM10),53,55,49,30,27,171,46,154,112,27,20,5,5,0.5,0.5
2022-07-27T23:00:00,2218A,123.8486,42.2867,铁岭市,银州路东段,细颗粒物(PM2.5),52,51,46,36,30,145,30,137,100,42,20,4,4,0.6,0.6
2022-07-27T23:00:00,2219A,123.7153,42.2217,铁岭市,金沙江路北,,44,44,51,29,28,179,46,166,110,27,28,5,7,0.8,0.9
2022-07-27T23:00:00,2220A,120.4318,41.5881,朝阳市,西梁,,31,31,30,16,13,114,95,103,103,9,11,5,7,0.7,0.7
2022-07-27T23:00:00,2221A,120.4521,41.5646,朝阳市,河畔小区,,39,39,25,16,12,120,105,110,110,6,6,6,7,0.5,0.5
2022-07-27T23:00:00,2222A,120.4176,41.5648,朝阳市,八里堡,,33,33,32,15,14,116,85,102,99,13,12,5,5,0.7,0.7
2022-07-27T23:00:00,2223A,120.3806,41.5969,朝阳市,农业园区,,50,50,31,20,12,111,39,100,87,24,13,6,8,0.6,0.6
2022-07-27T23:00:00,2225A,124.4002,43.1713,四平市,一商场,颗粒物(PM10),58,66,48,34,29,140,60,136,100,33,22,2,4,0.6,0.7
2022-07-27T23:00:00,2226A,124.388,43.193,四平市,境园,颗粒物(PM10),60,70,39,39,26,130,14,124,85,33,14,6,7,0.8,0.7
2022-07-27T23:00:00,2227A,125.1358,42.8845,辽源市,环保局,,38,38,37,22,25,104,62,98,78,13,14,6,7,0.5,0.6
2022-07-27T23:00:00,2229A,125.9358,41.7173,通化市,光明,,27,27,36,16,20,95,38,89,62,12,14,9,10,0.5,0.7
2022-07-27T23:00:00,2230A,125.9446,41.7325,通化市,铁路,,23,23,40,6,22,106,46,94,69,16,20,12,11,0.6,0.8
2022-07-27T23:00:00,2231A,126.4219,41.9171,白山市,喜丰,颗粒物(PM10),52,53,49,12,20,116,28,96,60,12,15,9,12,0.7,0.8
2022-07-27T23:00:00,2232A,126.4077,41.9419,白山市,环保局,,27,27,39,9,19,122,16,105,51,13,12,9,14,0.5,0.6
2022-07-27T23:00:00,2233A,124.8006,45.1214,松原市,江南,,,27,28,30,21,144,,123,110,18,10,10,4,0.7,0.5
2022-07-27T23:00:00,2234A,124.7965,45.1722,松原市,江北,,38,38,33,19,14,152,80,142,122,14,9,1,2,0.6,0.5
2022-07-27T23:00:00,2235A,122.7911,45.6077,白城市,洮北区环保局,,40,40,35,27,16,129,78,116,101,8,8,6,6,0.3,0.2
2022-07-27T23:00:00,2236A,122.8738,45.5725,白城市,市环保局,,50,50,40,14,12,120,76,108,85,13,9,5,5,0.3,0.3
2022-07-27T23:00:00,2237A,129.47,42.8883,延边朝鲜族自治州,妇幼医院,,18,18,38,5,22,92,41,85,66,12,13,10,9,0.4,0.5
2022-07-27T23:00:00,2238A,129.5055,42.9108,延边朝鲜族自治州,延边医院,,,,,,,,,,,,,,,,
2022-07-27T23:00:00,2239A,129.3964,42.8881,延边朝鲜族自治州,朝阳川镇医院,,28,28,39,8,17,100,22,84,57,25,14,10,8,0.3,0.4
2022-07-27T23:00:00,2240A,130.9762,45.3001,鸡西市,环保局,,32,32,39,14,20,113,20,103,62,19,19,3,3,0.2,0.3
2022-07-27T23:00:00,2243A,130.9429,45.3039,鸡西市,第一中学,,41,41,40,16,19,125,21,111,66,23,15,4,3,0.4,0.4
2022-07-27T23:00:00,2244A,130.2537,47.3416,鹤岗市,哈啤分公司,,22,22,12,5,6,126,65,110,100,17,12,6,5,0.3,0.3
2022-07-27T23:00:00,2245A,130.2684,47.3086,鹤岗市,斯达机电,,22,22,23,10,7,134,69,116,109,16,10,7,6,0.2,0.3
2022-07-27T23:00:00,2246A,130.3114,47.3388,鹤岗市,东山纸板厂,,28,28,44,16,15,111,40,103,72,21,13,7,8,0.3,0.4
2022-07-27T23:00:00,2247A,130.1097,47.3382,鹤岗市,五号水库(对照点),,12,12,8,6,5,106,14,98,46,10,12,3,4,0.1,0.1
2022-07-27T23:00:00,2248A,131.1511,46.6937,双鸭山市,双合村,颗粒物(PM10),64,77,43,20,19,136,6,127,69,36,22,15,10,2.7,1.5
2022-07-27T23:00:00,2249A,131.1652,46.6191,双鸭山市,南小市,,41,41,27,12,13,137,28,128,76,28,19,3,5,0.2,0.1
2022-07-27T23:00:00,2250A,131.1524,46.6554,双鸭山市,环保局,,33,25,22,23,9,141,21,132,79,24,16,9,4,0.8,0.6
2022-07-27T23:00:00,2251A,131.12,46.5656,双鸭山市,苗圃(对照点),,37,37,24,25,11,142,24,132,76,8,6,3,4,0.5,0.5
2022-07-27T23:00:00,2252A,128.5159,47.4311,伊春市,环保局,,40,27,21,28,16,104,32,96,64,18,17,6,6,0.4,0.5
2022-07-27T23:00:00,2253A,128.9102,47.7412,伊春市,电力嘉园,,16,15,13,11,7,112,43,102,58,5,9,5,6,0.5,0.6
2022-07-27T23:00:00,2254A,129.5029,48.471,伊春市,汤旺河国家公园(对照点),,32,20,15,22,12,105,0,92,36,2,2,6,6,0.4,0.4
2022-07-27T23:00:00,2255A,130.2751,46.8028,佳木斯市,佳纺,,,34,33,19,14,172,21,150,79,43,20,,7,0.3,0.4
2022-07-27T23:00:00,2256A,130.3995,46.8307,佳木斯市,发电厂,颗粒物(PM10),53,56,41,24,17,154,24,137,80,34,19,1,4,0.5,0.4
2022-07-27T23:00:00,2257A,130.3258,46.7975,佳木斯市,环保局,颗粒物(PM10),55,60,39,29,16,158,31,152,90,38,23,1,3,0.5,0.5
2022-07-27T23:00:00,2258A,130.3648,46.8032,佳木斯市,十一中,,49,49,43,28,20,149,6,134,82,62,28,5,5,0.6,0.5
2022-07-27T23:00:00,2259A,130.3794,46.7588,佳木斯市,四丰(对照点),,31,31,26,20,16,148,50,139,90,23,19,1,1,0.3,0.3
2022-07-27T23:00:00,2262A,131.0518,45.8751,七台河市,新一中(对照点),,25,20,15,17,11,130,15,123,77,38,17,7,7,0.8,0.7
2022-07-27T23:00:00,2263A,127.4833,50.2524,黑河市,交通局,,40,40,42,9,8,84,40,68,64,13,17,5,6,1.3,0.5
2022-07-27T23:00:00,2264A,127.5144,50.2341,黑河市,环保局,,,,19,,10,102,55,82,76,5,13,4,5,0.4,0.4
2022-07-27T23:00:00,2265A,127.5291,50.2472,黑河市,大黑河岛(对照点),,16,2,8,9,10,105,49,86,73,4,7,8,10,0.6,0.7
2022-07-27T23:00:00,2266A,126.9785,46.6365,绥化市,人和东街,,29,26,44,20,27,212,91,179,148,16,15,6,8,0.4,0.5
2022-07-27T23:00:00,2267A,126.964,46.6528,绥化市,党政办公中心,,32,32,42,20,27,213,102,177,154,12,13,6,9,0.4,0.5
2022-07-27T23:00:00,2269A,124.1069,50.4097,大兴安岭地区,科技局,,33,3,9,23,10,94,90,89,70,4,7,4,3,0.3,0.3
2022-07-27T23:00:00,2270A,117.396,32.939,蚌埠市,工人疗养院,,39,34,26,15,19,139,24,128,99,78,12,16,10,0.3,0.4
2022-07-27T23:00:00,2271A,117.3605,32.9427,蚌埠市,百货大楼,,38,16,28,12,16,148,26,132,103,76,15,13,10,0.4,0.5
2022-07-27T23:00:00,2273A,117.4185,32.8911,蚌埠市,蚌埠学院,,31,31,25,17,15,154,76,126,98,11,13,9,11,0.3,0.4
2022-07-27T23:00:00,2274A,117.3533,32.9673,蚌埠市,淮上区政府,,34,34,30,12,15,145,64,127,110,25,8,8,10,0.3,0.3
2022-07-27T23:00:00,2275A,117.3145,32.8977,蚌埠市,高新区,,28,27,29,19,21,168,78,147,113,14,14,6,9,0.5,0.6
2022-07-27T23:00:00,2277A,116.8305,32.7727,淮南市,潘集区政府,,24,23,29,14,15,159,76,142,122,8,11,8,8,0.2,0.3
2022-07-27T23:00:00,2278A,117.0067,32.6524,淮南市,师范学院,,37,37,33,14,18,159,80,144,108,6,5,19,9,0.9,0.3
2022-07-27T23:00:00,2279A,116.8569,32.5951,淮南市,谢家集区政府,,29,22,23,20,11,159,66,144,109,19,12,9,11,0.3,0.2
2022-07-27T23:00:00,2280A,116.8281,32.633,淮南市,八公山区政府,,27,27,24,16,17,181,70,152,116,15,11,4,8,0.3,0.3
2022-07-27T23:00:00,2281A,116.6325,32.6201,淮南市,焦岗湖风景区管理处(对照点),,40,40,23,14,8,163,47,139,106,34,14,9,9,0.2,0.3
2022-07-27T23:00:00,2282A,116.8004,33.975,淮北市,监测站,,45,45,36,25,22,169,96,158,131,16,11,5,6,0.5,0.6
2022-07-27T23:00:00,2283A,116.8091,33.9007,淮北市,烈山区政府,颗粒物(PM10),57,63,34,38,28,184,89,168,130,20,15,5,6,0.6,0.6
2022-07-27T23:00:00,2284A,116.7856,33.9477,淮北市,职业技术学院,颗粒物(PM10),51,51,36,28,22,170,87,154,126,16,10,4,7,0.5,0.6
2022-07-27T23:00:00,2285A,117.8177,30.9412,铜陵市,市第四中学,颗粒物(PM10),56,61,36,32,19,207,122,184,155,8,21,2,10,0.5,0.6
2022-07-27T23:00:00,2286A,117.8059,30.9273,铜陵市,市公路局,颗粒物(PM10),54,58,44,34,19,183,122,168,147,10,21,3,8,0.7,0.8
2022-07-27T23:00:00,2287A,117.7807,30.9413,铜陵市,市新民污水厂,颗粒物(PM10),53,55,39,29,19,192,98,175,142,15,24,7,15,0.6,0.5
2022-07-27T23:00:00,2288A,117.7439,30.8792,铜陵市,市第九中学,"二氧化氮,颗粒物(PM10)",58,65,50,36,20,197,8,173,118,116,39,7,10,0.9,0.8
2022-07-27T23:00:00,2289A,117.846,30.9413,铜陵市,车站新区,,,,30,,11,46,,27,,,27,,8,,0.6
2022-07-27T23:00:00,2290A,117.8483,30.97,铜陵市,市职教基地,颗粒物(PM10),53,55,39,30,13,191,72,168,134,18,15,4,8,1.1,1
2022-07-27T23:00:00,2291A,117.0809,30.5177,安庆市,环科院,,33,33,32,21,17,221,96,167,128,13,15,5,6,0.6,0.7
2022-07-27T23:00:00,2292A,117.0331,30.5119,安庆市,马山宾馆,,44,44,29,25,16,182,81,149,101,19,17,5,7,0.7,0.7
2022-07-27T23:00:00,2294A,116.9896,30.6145,安庆市,安庆大学,,41,41,27,20,14,173,42,144,71,28,17,5,5,0.4,0.5
2022-07-27T23:00:00,2295A,118.2903,29.6963,黄山市,延安路89号,,40,40,32,14,14,132,24,100,53,6,5,5,6,0.3,0.3
2022-07-27T23:00:00,2296A,118.327,29.7178,黄山市,黄山东路89号,,34,34,24,12,10,133,43,98,63,7,6,5,5,0.5,0.4
2022-07-27T23:00:00,2297A,118.1371,30.2756,黄山市,黄山区政府5号楼,,32,32,26,17,8,110,36,92,69,5,4,5,5,0.4,0.3
2022-07-27T23:00:00,2298A,118.3093,32.3153,滁州市,老年大学,,29,19,21,20,12,169,86,151,126,17,13,3,4,0.2,0.2
2022-07-27T23:00:00,2299A,118.3244,32.2786,滁州市,人大宾馆,,26,21,15,13,9,166,82,146,120,17,14,5,6,0.3,0.3
2022-07-27T23:00:00,2301A,115.8277,32.8929,阜阳市,市监测站,,30,13,13,6,5,154,96,140,124,10,8,8,8,0.5,0.5
2022-07-27T23:00:00,2303A,115.8554,32.8605,阜阳市,开发区,,31,31,14,16,8,157,88,136,119,17,12,7,8,0.5,0.4
2022-07-27T23:00:00,2306A,116.989,33.6306,宿州市,火车站,,,,,,,,,,,,,,,,
2022-07-27T23:00:00,2307A,116.5079,31.737,六安市,监测大楼,,21,17,20,13,10,147,67,126,93,10,8,5,7,0.4,0.4
2022-07-27T23:00:00,2308A,116.4738,31.7643,六安市,皖西学院,,32,32,16,11,10,165,66,140,102,15,8,12,13,0.2,0.2
2022-07-27T23:00:00,2309A,116.4996,31.7905,六安市,朝阳厂,,,,21,10,12,170,60,132,93,9,8,8,10,0.4,0.4
2022-07-27T23:00:00,2310A,116.5567,31.7886,六安市,开发区,,17,10,17,10,11,136,53,124,93,10,8,6,10,0.3,0.3
2022-07-27T23:00:00,2311A,115.8072,33.8399,亳州市,污水处理厂,,31,28,13,15,9,124,98,121,114,11,9,8,7,0.5,0.4
2022-07-27T23:00:00,2312A,115.7789,33.8518,亳州市,三国揽胜宫,,35,32,22,16,5,121,112,118,115,7,5,7,7,0.5,0.5
2022-07-27T23:00:00,2314A,117.47,30.6618,池州市,池州学院,细颗粒物(PM2.5),69,70,41,50,23,217,72,180,150,28,13,7,8,0.7,0.7
2022-07-27T23:00:00,2315A,117.4974,30.6539,池州市,平天湖(对照点),,,,,,,,,,,,,,,,
2022-07-27T23:00:00,2316A,118.7581,30.9454,宣城市,鳌峰子站,,27,19,28,11,14,145,86,129,118,15,15,8,6,0.3,0.4
2022-07-27T23:00:00,2317A,118.7385,30.9743,宣城市,敬亭山子站,,24,17,29,14,14,149,75,137,118,19,17,10,10,0.2,0.3
2022-07-27T23:00:00,2318A,118.7173,30.9427,宣城市,开发区子站,,22,15,29,15,16,140,67,130,108,27,16,16,8,0.3,0.3
2022-07-27T23:00:00,2319A,119.0141,25.4325,莆田市,荔城区仓后路,颗粒物(PM10),57,63,57,31,36,167,32,134,74,29,24,5,5,0.8,0.7
2022-07-27T23:00:00,2320A,119.0015,25.4553,莆田市,莆田市监测站,细颗粒物(PM2.5),55,54,49,39,30,180,40,150,82,17,18,6,6,0.7,0.8
2022-07-27T23:00:00,2321A,119.1119,25.4561,莆田市,涵江区六中,颗粒物(PM10),53,56,44,17,21,151,36,122,70,26,21,8,8,0.6,0.5
2022-07-27T23:00:00,2322A,119.1013,25.3215,莆田市,秀屿区政府,,41,41,29,9,13,107,41,94,64,14,10,5,6,0.6,0.6
2022-07-27T23:00:00,2323A,118.981,25.4792,莆田市,东圳水库(对照点),,,,,,,,,,,,,,,,
2022-07-27T23:00:00,2324A,117.6211,26.2625,三明市,三钢,颗粒物(PM10),51,52,59,28,33,153,37,137,76,28,21,5,7,0.9,0.6
2022-07-27T23:00:00,2325A,117.635,26.2714,三明市,三明二中,,46,46,52,32,36,161,32,141,74,41,26,11,12,1.4,1.2
2022-07-27T23:00:00,2326A,117.6028,26.2378,三明市,三元区政府,颗粒物(PM10),53,55,52,22,30,151,15,136,68,34,21,6,8,0.9,0.7
2022-07-27T23:00:00,2327A,117.7275,26.3108,三明市,洋溪(对照点),,,,,,,,,,,,,,,,
2022-07-27T23:00:00,2331A,118.0966,26.6761,南平市,茫荡山(对照点),,,,,,,,,,,,,,,,
2022-07-27T23:00:00,2332A,118.1681,26.6369,南平市,南平市监测站,,32,32,39,20,28,144,97,131,105,7,7,6,7,0.3,0.3
2022-07-27T23:00:00,2333A,118.1825,26.6489,南平市,南平铝业有限公司,,33,33,43,23,30,136,68,125,93,13,8,7,5,0.6,0.5
2022-07-27T23:00:00,2334A,118.1756,26.6272,南平市,南平七中,,,,40,28,32,137,98,123,104,5,6,5,6,0.4,0.4
2022-07-27T23:00:00,2335A,117.0189,25.1181,龙岩市,龙岩师专(对照点),,,,,,,,,,,,,,,,
2022-07-27T23:00:00,2336A,117.0217,25.1033,龙岩市,龙岩市监测站,,43,43,51,19,27,135,15,108,42,27,24,6,10,0.6,0.6
2022-07-27T23:00:00,2337A,117.0258,25.0661,龙岩市,闽西职业技术学院,,46,46,55,18,28,120,6,98,40,40,22,6,7,0.7,0.6
2022-07-27T23:00:00,2338A,117.0196,25.0306,龙岩市,龙岩学院,,43,43,39,16,24,116,20,98,51,27,14,4,5,0.6,0.5
2022-07-27T23:00:00,2339A,119.5001,26.6946,宁德市,金涵水库(对照点),,42,42,49,23,19,190,43,146,90,14,12,4,5,0.6,0.6
2022-07-27T23:00:00,2341A,119.5388,26.6612,宁德市,宁德市监测站,,32,26,44,18,24,169,100,149,123,9,13,6,8,0.5,0.8
2022-07-27T23:00:00,2342A,117.3102,29.3867,景德镇市,王港中学(对照点),"颗粒物(PM10),细颗粒物(PM2.5)",65,79,44,47,25,170,64,141,98,8,12,5,5,0.6,0.4
2022-07-27T23:00:00,2343A,117.2117,29.2933,景德镇市,老干部活动中心,颗粒物(PM10),60,70,44,42,24,189,68,144,105,16,11,7,9,0.6,0.5
2022-07-27T23:00:00,2344A,117.1894,29.2789,景德镇市,兽医站,"颗粒物(PM10),细颗粒物(PM2.5)",55,59,37,39,23,177,80,146,107,13,9,5,6,0.7,0.5
2022-07-27T23:00:00,2345A,117.1547,29.2617,景德镇市,台达陶瓷,,,,,,,,,,,,,,,,
2022-07-27T23:00:00,2346A,117.2461,29.2956,景德镇市,陶研所,细颗粒物(PM2.5),60,60,35,43,21,160,57,136,96,17,7,7,7,0.6,0.5
2022-07-27T23:00:00,2347A,114.0997,27.5002,萍乡市,武功山(对照点),,18,2,10,12,9,48,22,44,31,7,6,15,19,0.3,0.3
2022-07-27T23:00:00,2348A,113.8385,27.6434,萍乡市,中医院,,26,19,25,18,19,103,65,99,83,12,17,7,10,0.4,0.5
2022-07-27T23:00:00,2349A,113.8493,27.6253,萍乡市,市政府车库,,39,38,33,27,24,108,48,104,78,16,21,7,11,0.4,0.6
2022-07-27T23:00:00,2350A,113.8676,27.6435,萍乡市,市环保局,,43,33,33,30,24,107,12,103,78,47,18,19,14,0.4,0.7
2022-07-27T23:00:00,2351A,113.866,27.6198,萍乡市,安源区政府,细颗粒物(PM2.5),52,34,32,36,23,107,22,103,74,39,16,13,10,0.2,0.5
2022-07-27T23:00:00,2352A,115.0861,27.9317,新余市,北岗(对照点),颗粒物(PM10),60,70,44,31,29,185,22,146,83,8,10,7,10,1.0,0.8
2022-07-27T23:00:00,2353A,114.9886,27.8431,新余市,飞宇,,50,50,51,29,26,132,15,115,70,56,18,15,11,1.0,0.9
2022-07-27T23:00:00,2354A,114.9231,27.8246,新余市,第二水厂,颗粒物(PM10),51,52,51,24,24,143,23,121,81,43,18,8,8,1.5,1.3
2022-07-27T23:00:00,2355A,114.9308,27.8036,新余市,市气象局,颗粒物(PM10),61,72,53,32,28,132,14,114,76,41,18,9,11,1.6,0.6
2022-07-27T23:00:00,2357A,116.9822,28.1136,鹰潭市,龙虎山(对照点),,29,25,40,20,24,144,49,127,83,7,6,1,2,0.4,0.5
2022-07-27T23:00:00,2358A,117.0564,28.2642,鹰潭市,新监测站,颗粒物(PM10),55,59,56,38,28,157,50,139,93,1,7,1,11,0.4,0.5
2022-07-27T23:00:00,2359A,117.0311,28.2475,鹰潭市,财苑宾馆,,,57,57,,24,143,49,130,95,12,10,1,11,0.5,0.6
2022-07-27T23:00:00,2360A,117.0222,28.2264,鹰潭市,体育馆,颗粒物(PM10),52,53,54,23,29,140,52,131,94,8,8,2,7,0,0.3
2022-07-27T23:00:00,2361A,117.0017,28.2131,鹰潭市,三川水表,颗粒物(PM10),55,60,53,31,26,137,44,122,83,2,3,1,3,0.6,0.6
2022-07-27T23:00:00,2362A,114.9017,25.9149,赣州市,通天岩(对照点),"颗粒物(PM10),细颗粒物(PM2.5)",58,66,55,41,38,185,56,168,117,26,13,6,8,0.6,0.5
2022-07-27T23:00:00,2363A,114.9367,25.8664,赣州市,地委,颗粒物(PM10),55,59,55,31,36,189,110,169,133,15,12,12,12,1.0,1
