timepoint,stationcode,longitude,latitude,area,positionname,primarypollutant,aqi,pm10,pm10_24h,pm2_5,pm2_5_24h,o3,o3_24h,o3_8h,o3_8h_24h,no2,no2_24h,so2,so2_24h,co,co_24h
2026-01-19T1000,2568A,102.2503,31.8896,阿坝藏族羌族自治州,马师校,,32,30,25,22,17,24,,33,30,23,20,4,4,0.8,0.6
2026-01-19T1000,3994A,102.2174,31.9016,阿坝藏族羌族自治州,马尔康中学西区,,15,11,14,10,13,34,,36,36,15,15,6,5,0.5,0.4
2026-01-19T1000,2695A,80.2899,41.1684,阿克苏地区,电视台,颗粒物(PM10),210,357,546,49,86,38,,47,46,19,24,8,6,1.1,1
2026-01-19T1000,2696A,80.2592,41.1541,阿克苏地区,艺术中心,颗粒物(PM10),193,336,516,54,97,43,,60,56,15,15,4,4,0.6,0.6
2026-01-19T1000,2205A,105.699,38.8409,阿拉善盟,蒙二幼,,50,50,36,14,10,42,,58,54,17,8,10,9,0.3,0.4
2026-01-19T1000,2206A,105.7198,38.8508,阿拉善盟,环保局新楼,颗粒物(PM10),52,54,34,23,12,34,,53,48,16,6,9,8,0.7,0.5
2026-01-19T1000,2708A,88.1266,47.8515,阿勒泰地区,市站,,22,7,10,3,5,40,,74,69,43,14,4,3,0.8,0.4
2026-01-19T1000,4166A,88.1198,47.7931,阿勒泰地区,阿勒泰路33号,,21,10,9,3,3,65,,75,74,18,13,4,5,0.4,0.4
2026-01-19T1000,2630A,80.1171,32.4999,阿里地区,阿里监测站,,19,6,3,3,3,59,,60,60,16,5,5,7,0.6,0.5
2026-01-19T1000,3192A,80.0906,32.5029,阿里地区,阿里藏医院,,33,33,14,21,8,49,,71,61,14,6,14,12,0.8,0.5
2026-01-19T1000,2644A,109.0088,32.6974,安康市,汉滨区检察院,细颗粒物(PM2.5),67,66,108,48,85,41,,40,40,22,26,5,4,0.7,0.9
2026-01-19T1000,4054A,109.0324,32.6913,安康市,市邮政管理局,,,,154,,104,,,49,,,23,,5,,1.0
2026-01-19T1000,2291A,117.0806,30.5181,安庆市,环科院,,13,13,114,3,76,15,,11,10,16,19,4,5,0.5,0.7
2026-01-19T1000,2292A,117.0331,30.5118,安庆市,马山宾馆,,17,17,108,3,74,20,,14,13,17,21,3,4,0.8,1
2026-01-19T1000,2294A,116.9897,30.6146,安庆市,安庆大学,,10,10,101,3,68,19,,11,11,19,22,3,3,0.6,0.7
2026-01-19T1000,3173A,117.0598,30.5351,安庆市,市人大,,20,20,116,3,75,17,,11,10,19,24,4,5,0.6,0.7
2026-01-19T1000,3123A,105.9408,26.2431,安顺市,凤凰山,,46,39,39,32,29,67,,77,74,17,13,18,12,0.5,0.4
2026-01-19T1000,3124A,105.9443,26.2567,安顺市,金钟山,,43,36,40,30,30,64,,73,70,11,9,15,14,0.5,0.4
2026-01-19T1000,3125A,105.8983,26.248,安顺市,娄家坡,,42,34,36,29,31,69,,76,71,11,10,12,11,0.6,0.6
2026-01-19T1000,1819A,114.3552,36.1017,安阳市,红庙街,细颗粒物(PM2.5),63,58,56,45,41,27,,28,28,19,21,4,3,0.9,0.7
2026-01-19T1000,1820A,114.361,36.0681,安阳市,银杏小区,细颗粒物(PM2.5),64,67,59,46,47,26,,26,26,23,24,5,2,0.6,0.5
2026-01-19T1000,3141A,114.3921,36.0879,安阳市,信访局,细颗粒物(PM2.5),62,65,56,44,44,30,,28,28,24,26,7,3,0.8,0.7
2026-01-19T1000,3669A,114.4706,36.0634,安阳市,左辅环卫站,,,60,64,39,44,,,33,33,14,16,6,2,0.6,0.5
2026-01-19T1000,4117A,114.2918,36.0769,安阳市,钢三路198号,,,,66,,52,,,30,30,20,23,5,2,0.9,0.8
2026-01-19T1000,1748A,123.0441,41.1201,鞍山市,深沟寺,,23,23,34,13,24,56,,41,41,11,24,9,10,0.7,0.9
2026-01-19T1000,1749A,123.011,41.0931,鞍山市,太阳城,,22,21,32,12,21,68,,52,52,9,20,12,14,0.7,0.8
2026-01-19T1000,1750A,123.0483,41.1445,鞍山市,太平,,,25,43,,25,56,,39,39,11,24,12,14,0.6,0.8
2026-01-19T1000,1751A,122.964,41.0968,鞍山市,铁西三道街,,40,40,45,26,29,48,,39,39,24,34,32,30,2.0,1.7
2026-01-19T1000,1753A,123.0219,41.0822,鞍山市,明达新区,,19,17,30,10,21,59,,44,44,13,19,13,14,0.5,0.6
2026-01-19T1000,4201A,122.944647,41.082639,鞍山市,兴盛南路290号,,42,42,50,29,33,52,,44,44,18,30,18,26,1.5,1.8
2026-01-19T1000,2195A,107.4206,40.7609,巴彦淖尔市,附二中,,36,36,37,21,20,46,,51,49,8,5,5,3,0.5,0.4
2026-01-19T1000,2196A,107.37,40.7372,巴彦淖尔市,市环保大楼,,38,27,35,26,18,46,,52,49,13,8,5,5,0.5,0.4
2026-01-19T1000,1956A,86.1476,41.7529,巴音郭楞蒙古自治州,孔雀公园,颗粒物(PM10),57,64,68,30,23,50,,67,64,13,6,7,8,0.4,0.3
2026-01-19T1000,1957A,86.1971,41.7166,巴音郭楞蒙古自治州,棉纺厂,颗粒物(PM10),54,57,75,13,16,48,,40,38,14,19,/,/,/,/
2026-01-19T1000,1958A,86.236,41.7172,巴音郭楞蒙古自治州,经济开发区,颗粒物(PM10),52,53,55,9,13,55,,59,58,6,6,5,5,0.3,0.3
2026-01-19T1000,3181A,106.776805,31.852614,巴中市,市五中,细颗粒物(PM2.5),63,60,138,45,101,31,,48,45,17,27,5,6,0.8,1.5
2026-01-19T1000,3183A,106.7419,31.8654,巴中市,圣泉水务公司,,40,37,94,28,78,41,,53,50,13,29,5,6,0.7,1.1
2026-01-19T1000,3616A,106.7617,31.8343,巴中市,市中心医院,,,,156,,133,,,4,,,44,,8,,1.6
2026-01-19T1000,2235A,122.7909,45.608,白城市,洮北区环保局,,31,31,30,20,22,52,,48,46,14,19,6,6,0.4,0.4
2026-01-19T1000,2236A,122.8741,45.5725,白城市,市环保局,,32,24,25,22,15,51,,45,44,7,15,6,6,0.4,0.4
2026-01-19T1000,2231A,126.4219,41.9172,白山市,喜丰,颗粒物(PM10),59,67,42,36,21,48,,46,43,18,20,19,14,0.7,0.6
2026-01-19T1000,2232A,126.4082,41.9416,白山市,环保局,细颗粒物(PM2.5),95,75,33,71,28,34,,40,34,28,24,12,12,0.9,0.5
2026-01-19T1000,2647A,104.1727,36.5448,白银市,第三小学,颗粒物(PM10),55,60,58,20,17,46,,55,52,26,13,35,13,0.9,0.4
2026-01-19T1000,2648A,104.1467,36.5482,白银市,动力公司,,40,40,46,16,16,56,,53,50,12,8,7,3,0.8,0.6
2026-01-19T1000,2512A,106.6102,23.901,百色市,市监测站,细颗粒物(PM2.5),75,86,68,55,44,20,,27,23,27,21,12,14,1.1,0.9
2026-01-19T1000,2513A,106.6524,23.8842,百色市,市中心血站,细颗粒物(PM2.5),78,87,68,57,51,18,,42,23,26,19,9,17,0.9,0.9
2026-01-19T1000,4133A,106.6273,23.8798,百色市,龙景西路,细颗粒物(PM2.5),97,96,86,72,52,3,,22,17,38,25,10,16,0.8,0.7
2026-01-19T1000,2270A,117.396,32.9389,蚌埠市,工人疗养院,,43,37,61,30,34,50,,42,42,9,18,3,4,0.3,0.4
2026-01-19T1000,2271A,117.3606,32.9428,蚌埠市,百货大楼,,36,36,57,24,28,48,,42,42,9,18,3,4,0.4,0.5
2026-01-19T1000,2273A,117.4183,32.8909,蚌埠市,蚌埠学院,,43,,51,30,30,51,,42,42,14,21,2,3,0.5,0.5
2026-01-19T1000,2274A,117.3534,32.9672,蚌埠市,淮上区政府,,43,31,56,30,34,54,,46,46,8,18,3,2,0.4,0.4
2026-01-19T1000,2275A,117.3143,32.8977,蚌埠市,高新区,,35,24,51,24,33,50,,42,42,10,19,5,5,0.2,0.2
2026-01-19T1000,3715A,117.3091,32.9314,蚌埠市,蚌埠田家炳中学,,45,31,58,31,35,53,,44,44,10,22,2,3,0.5,0.5
2026-01-19T1000,1585A,109.8761,40.6533,包头市,市环境监测站,,,14,29,8,7,,,62,62,8,7,4,4,0.4,0.2
2026-01-19T1000,1587A,109.9992,40.5843,包头市,包头八中,,19,16,30,11,10,60,,58,57,5,5,5,6,0.7,0.6
2026-01-19T1000,1589A,109.8641,40.6288,包头市,惠龙物流,,21,10,20,9,7,66,,66,65,8,5,7,7,0.6,0.5
2026-01-19T1000,1590A,110.0376,40.5546,包头市,东河鸿龙湾,,18,7,25,3,3,55,,54,52,14,9,8,8,0.6,0.5
2026-01-19T1000,3283A,109.9154,40.5684,包头市,滨河大厦,,19,12,16,7,8,59,,60,59,5,3,5,6,0.7,0.5
2026-01-19T1000,3419A,109.9449,40.6259,包头市,包头市委党校,,34,34,38,13,9,63,,61,61,7,6,7,7,0.5,0.5
2026-01-19T1000,3683A,109.8332,40.6577,包头市,昆区政府,,20,15,19,7,7,63,,60,60,8,7,5,6,0.6,0.5
2026-01-19T1000,1931A,107.0802,34.3129,宝鸡市,竹园沟,颗粒物(PM10),63,76,74,23,23,47,,47,44,16,11,11,6,0.4,0.3
2026-01-19T1000,1933A,107.1429,34.3549,宝鸡市,监测站,细颗粒物(PM2.5),70,82,86,51,21,33,,51,48,24,17,8,5,0.8,0.6
2026-01-19T1000,1934A,107.1172,34.3759,宝鸡市,技工学校,颗粒物(PM10),69,88,87,26,29,41,,56,53,20,16,6,6,0.9,0.8
2026-01-19T1000,1936A,107.2025,34.3518,宝鸡市,文理学院,细颗粒物(PM2.5),69,84,95,50,40,33,,53,49,28,25,4,5,0.6,0.5
2026-01-19T1000,1937A,107.2396,34.3626,宝鸡市,三迪小学,颗粒物(PM10),72,93,105,50,48,28,,54,49,32,27,4,7,0.6,0.6
2026-01-19T1000,4155A,107.1721,34.3558,宝鸡市,滨河北路,颗粒物(PM10),91,131,77,40,25,31,,50,47,24,17,5,5,0.6,0.4
2026-01-19T1000,4308A,107.3898,34.3601,宝鸡市,陈仓区北开路21号,"颗粒物(PM10),细颗粒物(PM2.5)",82,113,134,60,76,28,,43,38,35,41,6,10,0.8,0.8
2026-01-19T1000,1051A,115.4803,38.8568,保定市,游泳馆,,33,33,44,3,21,62,,60,60,3,15,3,2,0.4,0.5
2026-01-19T1000,1052A,115.509,38.8895,保定市,华电二区,,28,24,41,19,34,66,,62,62,6,15,2,3,0.2,0.5
2026-01-19T1000,1053A,115.4588,38.9037,保定市,接待中心,,27,27,42,7,24,57,,56,56,8,15,3,2,0.1,0.3
2026-01-19T1000,1054A,115.4484,38.8344,保定市,地表水厂,,38,38,57,3,24,62,,59,59,12,23,4,5,0.2,0.4
2026-01-19T1000,3581A,115.3136,38.9511,保定市,满城区生态环境分局,,36,36,42,3,26,60,,56,56,16,33,2,2,0.3,0.6
2026-01-19T1000,3582A,115.4709,38.7628,保定市,清苑区第二中学,,33,33,51,8,24,60,,55,55,5,21,3,2,0.3,0.5
2026-01-19T1000,3583A,115.6231,39.0223,保定市,徐水物探局,,33,33,41,14,29,59,,57,57,8,22,3,3,0.4,0.5
2026-01-19T1000,4004A,115.4199,38.8665,保定市,双鹰农机,,27,27,46,9,30,67,,67,67,1,11,4,4,0.2,0.4
2026-01-19T1000,4034A,115.515,38.8589,保定市,植保所站,,33,33,46,12,33,58,,54,54,6,17,3,2,0.5,0.6
2026-01-19T1000,2594A,99.1589,25.1137,保山市,市环境监测站,细颗粒物(PM2.5),55,,30,39,21,28,,54,46,26,10,9,8,0.7,0.4
2026-01-19T1000,2595A,99.1616,25.1381,保山市,市环保局,,34,34,33,20,24,34,,65,58,22,6,4,4,0.6,0.5
2026-01-19T1000,1867A,109.1435,21.4085,北海市,海滩公园,,48,48,56,20,34,78,,103,95,12,14,8,12,0.7,0.9
2026-01-19T1000,1868A,109.0983,21.466,北海市,新市环保局,,,48,49,34,36,,,101,98,21,23,6,8,0.7,0.6
2026-01-19T1000,1869A,109.1775,21.5232,北海市,北海工业园,颗粒物(PM10),66,82,61,46,39,39,,88,76,28,18,13,10,1.0,0.9
2026-01-19T1000,3400A,109.1844,21.4396,北海市,龙潭自来水厂,,44,44,49,29,37,74,,94,88,9,10,4,14,1.0,1
2026-01-19T1000,1001A,116.3611,39.8786,北京市,万寿西宫,,25,25,29,8,18,54,,62,60,8,19,3,3,0.5,0.6
2026-01-19T1000,1003A,116.4174,39.9289,北京市,东四,,21,21,27,7,17,48,,57,54,9,17,4,5,0.4,0.5
2026-01-19T1000,1004A,116.4073,39.8858,北京市,天坛,,22,22,28,6,17,55,,61,59,5,15,4,4,0.5,0.6
2026-01-19T1000,1005A,116.4622,39.9364,北京市,农展馆,,18,18,25,3,15,50,,64,60,2,10,5,5,0.6,0.6
2026-01-19T1000,1006A,116.3399,39.9293,北京市,官园,,22,22,31,3,17,50,,57,56,5,15,7,6,0.6,0.6
2026-01-19T1000,1007A,116.2879,39.9613,北京市,海淀万柳,,19,19,25,7,16,45,,52,50,13,20,4,3,0.5,0.5
2026-01-19T1000,1008A,116.6635,40.1349,北京市,顺义新城,,20,11,24,3,13,62,,69,67,4,9,4,5,0.4,0.4
2026-01-19T1000,1009A,116.6275,40.327,北京市,怀柔镇,,18,11,18,3,12,56,,66,63,5,7,4,4,0.4,0.5
2026-01-19T1000,1010A,116.2295,40.217,北京市,昌平镇,,24,24,24,8,14,55,,63,60,5,11,3,2,0.6,0.5
2026-01-19T1000,1011A,116.3968,39.982,北京市,奥体中心,,21,21,25,7,16,56,,61,59,6,16,5,4,0.7,0.7
2026-01-19T1000,3418A,116.8336,40.4095,北京市,密云新城,,19,11,21,3,12,59,,65,63,1,6,6,6,0.5,0.5
2026-01-19T1000,3671A,116.0879,39.9725,北京市,门头沟三家店,,20,9,21,3,16,62,,65,64,2,13,4,3,0.4,0.4
2026-01-19T1000,3672A,116.1507,39.8246,北京市,丰台云岗,,21,9,24,3,18,66,,72,71,4,14,2,3,0.3,0.5
2026-01-19T1000,3674A,115.9578,39.7602,北京市,房山燕山,,20,8,25,3,18,63,,64,63,2,14,4,4,0.3,0.4
2026-01-19T1000,3675A,116.4669,39.7734,北京市,大兴旧宫,,21,21,29,6,14,56,,62,60,7,17,3,4,0.4,0.6
2026-01-19T1000,3694A,115.9859,40.4562,北京市,延庆石河营,,19,16,21,7,12,58,,64,61,3,7,3,3,0.5,0.4
2026-01-19T1000,3695A,116.6151,40.3052,北京市,怀柔新城,,20,11,18,7,13,61,,70,68,1,5,6,5,0.4,0.4
2026-01-19T1000,3696A,116.2542,39.8764,北京市,丰台小屯,,17,17,26,6,17,48,,52,52,7,19,4,3,0.5,0.5
2026-01-19T1000,3697A,116.8399,40.3843,北京市,密云镇,,19,12,21,3,12,60,,65,64,3,8,2,2,0.5,0.5
2026-01-19T1000,4057A,115.9423,40.4431,北京市,延庆百泉,,17,15,22,6,13,52,,57,54,3,6,3,2,0.3,0.3
2026-01-19T1000,4058A,116.6598,39.9164,北京市,通州新华,,20,20,30,6,15,48,,57,55,7,14,2,3,0.5,0.6
2026-01-19T1000,4182A,116.1942,39.9158,北京市,石景山八角,,18,18,26,6,15,52,,57,56,2,11,1,3,0.1,0.2
2026-01-19T1000,4194A,117.078628,40.151726,北京市,平谷新城,,17,10,21,6,13,54,,61,59,2,4,2,2,0.0,0.2
2026-01-19T1000,1761A,123.8274146,41.31234549,本溪市,大峪,,40,40,43,25,24,40,,32,28,26,22,10,9,1.0,1
2026-01-19T1000,1763A,123.7169,41.3094,本溪市,彩屯,,27,27,42,13,27,56,,42,42,18,26,13,10,0.7,0.9
2026-01-19T1000,1764A,123.7672166,41.28649327,本溪市,东明,,24,24,36,10,21,53,,43,43,15,20,12,8,0.8,1
2026-01-19T1000,1765A,123.799345,41.266614,本溪市,新立屯,,19,15,34,13,21,54,,46,46,12,16,13,11,0.5,0.8
2026-01-19T1000,1766A,123.829144,41.336777,本溪市,威宁,颗粒物(PM10),68,86,51,39,30,31,,12,12,28,34,6,6,1.1,0.9
2026-01-19T1000,2587A,105.287,27.3133,毕节市,八中,,46,36,76,32,63,68,,68,68,14,24,10,13,0.9,1
2026-01-19T1000,2588A,105.3079,27.2987,毕节市,师专,,,40,70,30,56,,,78,78,17,19,8,12,1.0,0.9
2026-01-19T1000,4263A,105.3688,27.3598,毕节市,工业大道,细颗粒物(PM2.5),53,51,81,37,58,82,,84,84,15,14,9,11,/,/
2026-01-19T1000,1629A,117.9961,37.3604,滨州市,第二水厂,颗粒物(PM10),54,58,27,36,17,28,,44,39,21,12,11,8,0.9,0.6
2026-01-19T1000,1630A,117.9789,37.3931,滨州市,北中新校,颗粒物(PM10),53,56,31,31,17,29,,47,41,26,16,8,6,0.8,0.4
2026-01-19T1000,3514A,117.9379,37.3959,滨州市,中海酒店,细颗粒物(PM2.5),52,51,27,36,22,31,,46,41,23,13,9,6,0.9,0.5
2026-01-19T1000,3515A,117.9381509,37.35547456,滨州市,开发区一中,颗粒物(PM10),52,53,29,34,17,33,,52,46,22,10,12,9,0.8,0.4
2026-01-19T1000,3516A,118.0914,37.6938,滨州市,金海六路,颗粒物(PM10),53,56,28,19,14,56,,52,50,12,7,6,3,0.5,0.3
2026-01-19T1000,4028A,117.9955,37.3752,滨州市,滨州市西街道办事处,"颗粒物(PM10),细颗粒物(PM2.5)",52,53,24,36,21,33,,52,46,20,11,10,7,0.9,0.5
2026-01-19T1000,2311A,115.8071,33.8399,亳州市,污水处理厂,,38,30,28,26,22,45,,37,37,11,18,2,2,0.3,0.3
2026-01-19T1000,2312A,115.7789,33.8519,亳州市,三国揽胜宫,细颗粒物(PM2.5),52,42,35,36,30,42,,37,37,8,16,1,1,0.3,0.5
2026-01-19T1000,3332A,115.7631,33.803,亳州市,亳州学院,,43,36,34,30,25,44,,37,37,14,20,2,2,0.4,0.6
2026-01-19T1000,2693A,82.0482,44.8553,博尔塔拉蒙古自治州,市党校,颗粒物(PM10),58,66,62,18,19,44,,49,49,18,18,3,3,2.3,2
2026-01-19T1000,2694A,82.0805,44.8966,博尔塔拉蒙古自治州,市环保局,颗粒物(PM10),61,71,68,41,37,35,,40,39,17,17,4,5,1.4,1.3
2026-01-19T1000,1071A,116.8733,38.2922,沧州市,沧县城建局,,44,44,50,18,26,62,,55,55,13,24,6,7,0.3,0.4
2026-01-19T1000,1072A,116.8462,38.3189,沧州市,电视转播站,,38,38,49,3,22,61,,53,53,15,28,4,3,0.4,0.5
2026-01-19T1000,1073A,116.8588,38.3161,沧州市,市环保局,,,33,48,16,30,,,50,50,13,25,4,6,0.3,0.5
2026-01-19T1000,3324A,116.8011,38.294,沧州市,河北水利电力学院,,34,34,37,6,20,59,,53,53,11,23,3,3,0.2,0.4
2026-01-19T1000,2622A,97.1813,31.1289,昌都市,昌都监测站,,,,62,,25,,,72,42,,28,,5,,0.9
2026-01-19T1000,3719A,97.1707,31.1428,昌都市,昌都会议中心,,25,18,15,17,11,35,,45,42,10,7,1,2,0.5,0.4
2026-01-19T1000,2692A,87.2722,44.0298,昌吉回族自治州,新区政务中心,细颗粒物(PM2.5),94,121,83,70,60,2,,25,20,56,31,3,6,1.3,0.6
2026-01-19T1000,3613A,87.3069,44.0093,昌吉回族自治州,亚心广场,细颗粒物(PM2.5),104,102,81,78,63,25,,35,32,32,21,9,8,1.1,0.7
2026-01-19T1000,4164A,87.2057,43.9289,昌吉回族自治州,财政所,细颗粒物(PM2.5),69,75,70,50,55,35,,30,30,18,23,4,4,1.2,0.8
2026-01-19T1000,1120A,125.2874,43.9024,长春市,客车厂,,,,45,,40,,,56,,,27,,10,,0.6
2026-01-19T1000,1121A,125.2943,43.8508,长春市,邮电学院,,35,,37,24,31,46,,38,38,15,26,11,11,0.6,0.6
2026-01-19T1000,1122A,125.3648,43.8745,长春市,劳动公园,,35,,42,24,27,48,,43,43,13,24,10,11,0.6,0.6
2026-01-19T1000,1123A,125.3233,43.8781,长春市,园林处,,40,31,40,28,31,47,,41,41,12,20,11,11,0.5,0.5
2026-01-19T1000,1124A,125.4604,43.7904,长春市,净月潭,,28,22,44,19,31,46,,32,32,12,24,7,6,0.4,0.6
2026-01-19T1000,1126A,125.38,43.8422,长春市,经开区环卫处,,30,30,41,17,25,46,,38,38,17,31,11,13,0.5,0.5
2026-01-19T1000,1127A,125.234,43.7761,长春市,高新区管委会,,35,32,45,24,39,61,,52,52,8,27,8,8,0.4,0.4
2026-01-19T1000,1128A,125.1695,43.83,长春市,岱山公园,,49,,47,34,41,53,,43,43,11,25,7,8,0.5,0.5
2026-01-19T1000,4281A,125.334645,43.916281,长春市,北亚泰大街1068号,,,,46,,35,,,48,,,32,,13,,0.6
2026-01-19T1000,1335A,113.082,28.2421,长沙市,经开区环保局,,14,14,92,7,74,7,,6,6,18,24,2,3,0.5,0.7
2026-01-19T1000,1336A,112.8873,28.2202,长沙市,高开区环保局,,13,13,93,3,83,14,,13,13,12,19,3,4,0.5,0.7
2026-01-19T1000,1337A,113.0785,28.2012,长沙市,马坡岭,,27,27,94,8,71,5,,7,7,18,23,3,4,0.7,0.8
2026-01-19T1000,1338A,112.9448,28.1894,长沙市,湖南师范大学,,9,9,98,3,66,14,,14,14,15,25,3,3,0.6,0.9
2026-01-19T1000,1339A,113.0177,28.1322,长沙市,雨花区环保局,,19,19,85,8,72,9,,10,10,18,27,6,6,0.8,1
2026-01-19T1000,1340A,112.9795,28.2593,长沙市,伍家岭,,18,16,108,12,78,11,,12,12,20,26,4,4,0.6,0.8
2026-01-19T1000,1341A,113.002,28.1944,长沙市,火车新站,,18,17,95,12,73,14,,14,14,15,26,1,2,0.7,1
2026-01-19T1000,1342A,112.9846,28.1177,长沙市,天心区环保局,,16,16,93,8,70,12,,13,13,20,28,4,4,0.5,0.7
2026-01-19T1000,1343A,112.8906,28.1307,长沙市,湖南中医药大学,,10,10,100,6,71,14,,14,14,17,26,4,4,0.6,0.9
2026-01-19T1000,1727A,113.1146,36.1547,长治市,清华站,细颗粒物(PM2.5),73,60,57,53,55,38,,31,31,15,18,7,7,0.9,0.9
2026-01-19T1000,1730A,113.0887,36.2126,长治市,审计局,细颗粒物(PM2.5),79,60,58,58,59,36,,29,29,14,18,7,5,0.9,0.9
2026-01-19T1000,1731A,113.0845,36.1856,长治市,长治八中,,,,63,,56,,,33,,,15,,7,,1.0
2026-01-19T1000,2845A,113.1561,36.1912,长治市,德盛苑,细颗粒物(PM2.5),73,,55,53,57,40,,33,33,14,16,7,6,0.9,1
2026-01-19T1000,3568A,113.0603,36.0464,长治市,向阳小学,细颗粒物(PM2.5),89,84,89,66,66,38,,30,30,22,24,8,5,0.8,1
2026-01-19T1000,3569A,112.8788,36.315,长治市,屯留一中,细颗粒物(PM2.5),92,76,95,68,83,20,,8,8,35,50,5,10,1.4,1.7
2026-01-19T1000,4189A,113.113092,36.199482,长治市,英华南巷50号,细颗粒物(PM2.5),64,61,58,46,53,36,,31,31,15,16,5,5,0.9,0.9
2026-01-19T1000,4190A,113.23666,36.33435,长治市,学府街1号,细颗粒物(PM2.5),63,56,68,45,62,38,,25,25,16,24,12,8,1.0,1.1
2026-01-19T1000,1854A,111.696,28.9725,常德市,市二中,,39,39,122,27,87,39,,35,35,14,22,4,5,0.6,0.9
2026-01-19T1000,3138A,111.7152,29.0288,常德市,武陵区永安,,43,40,128,30,86,38,,35,35,15,21,4,4,0.6,0.9
2026-01-19T1000,3139A,111.6891,28.9881,常德市,鼎城区玉霞,,40,37,118,28,86,41,,37,37,14,22,6,7,0.6,0.8
2026-01-19T1000,3140A,111.6651,29.0526,常德市,武陵区长庚,,46,41,120,32,89,40,,36,36,14,22,4,4,0.7,0.9
2026-01-19T1000,1196A,119.9524,31.7586,常州市,市监测站,,18,10,46,7,25,56,,68,65,12,25,5,7,1.0,0.9
2026-01-19T1000,1200A,119.9351,31.703,常州市,武进监测站,,16,14,52,7,28,51,,64,63,13,26,9,11,0.9,0.9
2026-01-19T1000,3002A,119.9701,31.813,常州市,行政中心,,18,10,50,3,23,55,,67,63,13,23,3,5,0.5,0.5
2026-01-19T1000,3003A,120.0434,31.7726,常州市,经开区,,16,9,50,3,21,51,,64,62,14,24,2,4,0.5,0.5
2026-01-19T1000,3010A,119.8919,31.7892,常州市,钟楼,,18,17,48,3,22,55,,66,63,8,19,5,6,0.4,0.4
2026-01-19T1000,3429A,119.8595,31.706,常州市,武进经发区,,17,10,49,7,26,54,,67,64,15,27,3,3,0.7,0.7
2026-01-19T1000,3430A,119.5812,31.7256,常州市,金坛城区,,17,9,52,3,28,53,,66,62,9,18,6,7,0.6,0.7
2026-01-19T1000,4089A,119.9551,31.863,常州市,崇义南街5-H号,,17,10,42,3,17,54,,67,63,11,18,4,5,0.7,0.7
2026-01-19T1000,2220A,120.4318,41.588,朝阳市,西梁,,47,47,25,8,9,64,,64,64,8,9,6,7,0.4,0.4
2026-01-19T1000,2221A,120.452,41.565,朝阳市,河畔小区,,,51,22,9,9,63,,66,65,10,10,8,8,,0.5
2026-01-19T1000,2222A,120.4176,41.5648,朝阳市,八里堡,颗粒物(PM10),93,136,29,10,12,62,,62,62,8,12,8,8,0.3,0.4
2026-01-19T1000,3026A,116.6179,23.6608,潮州市,市政府,细颗粒物(PM2.5),115,119,88,87,72,42,,36,36,37,29,9,13,0.9,0.7
2026-01-19T1000,4036A,116.646,23.676,潮州市,金山,细颗粒物(PM2.5),84,84,70,62,59,30,,24,22,19,22,4,6,0.7,0.6
2026-01-19T1000,2473A,113.0116,25.8228,郴州市,市职中,,37,37,92,24,77,0,,10,5,19,23,3,6,0.7,1
2026-01-19T1000,2475A,113.0381,25.8074,郴州市,市审计局,,40,36,97,28,81,0,,13,6,16,23,3,4,/,/
2026-01-19T1000,2476A,113.0348,25.7757,郴州市,市环保局,颗粒物(PM10),51,52,105,20,75,1,,13,6,18,27,3,7,0.6,0.8
2026-01-19T1000,4252A,113.0138,25.8011,郴州市,好美居路49号,,29,,77,20,72,8,,24,14,21,28,2,6,/,/
2026-01-19T1000,1431A,103.9727,30.7242,成都市,金泉两河,,35,35,102,11,84,44,,55,53,23,28,2,3,0.8,1
2026-01-19T1000,1432A,104.1423,30.6765,成都市,十里店,,44,44,106,19,84,40,,60,57,24,26,3,4,0.6,0.8
2026-01-19T1000,1433A,104.0594,30.5765,成都市,三瓦窑,,35,34,107,24,92,50,,65,62,20,26,2,3,0.9,0.9
2026-01-19T1000,1434A,104.1122,30.6306,成都市,沙河铺,细颗粒物(PM2.5),55,55,109,39,96,37,,54,50,25,34,3,3,0.8,1
2026-01-19T1000,2880A,104.0219,30.6561,成都市,大石西路,,50,50,112,20,83,43,,51,51,11,21,5,5,0.6,0.8
2026-01-19T1000,3136A,104.2724,30.559,成都市,龙泉驿区区政府,,22,22,99,14,84,50,,56,55,15,21,5,6,0.7,0.9
2026-01-19T1000,3357A,104.0028,30.6891,成都市,金博路,,28,26,100,19,81,41,,57,55,23,31,5,6,0.9,1.1
2026-01-19T1000,3359A,104.056,30.5228,成都市,华阳,,34,34,98,19,77,46,,54,53,22,35,2,3,0.6,0.8
2026-01-19T1000,3488A,104.387954,30.746684,成都市,青石路225号,,43,,112,30,90,45,,57,57,19,29,3,4,0.7,1
2026-01-19T1000,3489A,104.0788,30.4054,成都市,科学城,,20,19,114,14,99,52,,52,52,14,32,6,7,0.8,0.9
2026-01-19T1000,4011A,103.8505,30.6946,成都市,光华大道三段,颗粒物(PM10),53,56,118,30,90,54,,70,66,21,29,2,4,0.3,0.6
2026-01-19T1000,4144A,104.3257,30.6406,成都市,八角井街185号,,44,44,121,14,86,44,,50,50,15,26,2,3,0.8,0.9
2026-01-19T1000,4224A,104.2433276,30.53529463,成都市,鲸龙路1057号,,19,19,102,13,83,48,,51,51,16,30,4,5,0.6,0.9
2026-01-19T1000,1062A,117.9531,40.908,承德市,铁路,,26,26,43,3,12,56,,65,62,5,7,4,6,0.2,0.3
2026-01-19T1000,1063A,117.9397,40.9763,承德市,中国银行,,27,27,41,3,10,57,,64,62,2,6,3,4,0.2,0.4
2026-01-19T1000,4073A,117.9462,40.95,承德市,杏林街1号,,25,25,36,8,15,57,,64,62,2,5,4,5,0.2,0.3
2026-01-19T1000,4274A,117.7994,40.9605,承德市,滨河大街98号,,,,41,75,17,,,63,62,3,8,3,6,0.2,0.3
2026-01-19T1000,2314A,117.4698,30.6617,池州市,池州学院,,14,8,90,6,63,9,,8,6,28,37,3,5,0.6,0.8
2026-01-19T1000,3237A,117.4918,30.6617,池州市,展览馆,,15,8,106,3,72,9,,7,5,30,36,1,3,0.9,1
2026-01-19T1000,3333A,117.5626,30.695,池州市,第八中学,,,,95,,63,,,58,3,,36,,4,,1.1
2026-01-19T1000,3334A,117.5037,30.6242,池州市,第十二中学,,15,9,86,3,62,6,,7,4,30,37,2,4,0.9,1
2026-01-19T1000,1744A,118.9229,42.2816,赤峰市,松山一中,,32,32,25,14,9,50,,58,55,14,12,6,6,0.6,0.6
2026-01-19T1000,1745A,118.9588,42.2733,赤峰市,哈达街,,33,33,23,10,11,54,,62,59,14,11,5,5,0.6,0.6
2026-01-19T1000,1746A,118.8792,42.2551,赤峰市,天义路,,19,15,13,8,11,58,,62,60,8,9,7,7,0.7,0.6
2026-01-19T1000,3058A,119.2656,42.0356,赤峰市,银河街,,36,36,27,10,13,69,,73,71,1,5,8,10,0.5,0.5
2026-01-19T1000,3286A,118.9359,42.3146,赤峰市,桥北物流园区,,32,32,15,7,10,62,,67,65,9,8,6,6,0.3,0.4
2026-01-19T1000,2521A,107.3473,22.4137,崇左市,市环保局江州分局,细颗粒物(PM2.5),92,95,74,68,48,92,,61,61,23,23,15,11,1.1,0.9
2026-01-19T1000,4256A,107.375,22.3736,崇左市,石景林东路7号,细颗粒物(PM2.5),80,73,52,59,41,105,,67,67,21,19,13,8,0.8,0.6
2026-01-19T1000,3207A,118.31131,32.3033,滁州市,市政府原办公楼,,20,20,67,13,34,47,,59,54,15,21,4,4,0.4,0.3
2026-01-19T1000,3331A,118.3268,32.2633,滁州市,图书馆,,15,12,59,9,29,45,,56,51,9,19,7,8,0.4,0.4
2026-01-19T1000,4101A,118.3196,32.3335,滁州市,银山路666号,,25,17,56,17,40,44,,55,49,10,17,3,3,0.4,0.4
2026-01-19T1000,4102A,118.3426,32.2979,滁州市,黄山路555号,,20,16,67,14,39,47,,59,51,7,18,13,15,0.6,0.6
2026-01-19T1000,2606A,101.5379,25.0492,楚雄彝族自治州,市经济开发区,,38,38,27,26,18,18,,13,12,23,20,4,3,0.7,0.6
2026-01-19T1000,4153A,101.5536,25.0343,楚雄彝族自治州,团结路562号,,34,34,26,18,16,17,,11,11,25,18,4,4,0.7,0.4
2026-01-19T1000,2549A,107.5087,31.2186,达州市,市环境监测站,细颗粒物(PM2.5),58,59,112,41,77,41,,55,50,17,31,6,10,0.6,0.8
2026-01-19T1000,2550A,107.4988,31.2132,达州市,凤凰小区,细颗粒物(PM2.5),62,66,125,44,86,40,,51,48,17,37,5,9,0.6,1.1
2026-01-19T1000,2551A,107.5081,31.1987,达州市,达县机关宾馆,细颗粒物(PM2.5),68,66,133,49,89,32,,46,42,27,40,3,7,0.8,1.6
2026-01-19T1000,2552A,107.4644,31.2124,达州市,市政中心,细颗粒物(PM2.5),62,70,129,44,84,35,,53,47,29,46,7,9,0.6,1
2026-01-19T1000,2614A,100.2168,25.5818,大理白族自治州,大理市环境监测站,,30,30,25,20,18,67,,74,72,9,7,6,6,0.7,0.6
2026-01-19T1000,2615A,100.1542,25.7055,大理白族自治州,大理古城,,26,26,28,14,17,64,,65,61,11,11,8,8,0.8,0.7
2026-01-19T1000,1109A,121.6119,38.974,大连市,甘井子,,21,21,33,14,18,62,,60,60,9,16,8,8,0.6,0.6
2026-01-19T1000,1110A,121.565,38.9509,大连市,周水子,,30,30,36,12,17,59,,60,60,8,14,13,12,0.3,0.5
2026-01-19T1000,1111A,121.5637,38.8849,大连市,星海三站,,21,21,30,12,15,56,,58,58,13,17,10,10,0.5,0.6
2026-01-19T1000,1112A,121.6301,38.9117,大连市,青泥洼桥,,25,25,35,10,18,58,,58,58,8,16,10,11,0.5,0.7
2026-01-19T1000,1113A,121.6248,38.8643,大连市,傅家庄,,19,19,32,11,17,54,,53,53,10,19,8,10,0.3,0.5
2026-01-19T1000,1114A,121.5117,38.8636,大连市,七贤岭,,24,24,32,11,15,56,,55,55,7,9,7,7,0.5,0.5
2026-01-19T1000,1116A,121.7507,39.1339,大连市,金州,,24,24,36,12,19,64,,61,61,13,20,8,9,0.4,0.6
2026-01-19T1000,1117A,121.7811,39.0495,大连市,开发区,,20,19,31,14,18,62,,60,60,9,16,6,6,0.4,0.5
2026-01-19T1000,1118A,121.9762,39.0631,大连市,双D港,,22,16,31,12,17,69,,67,67,9,14,8,9,0.3,0.4
2026-01-19T1000,4082A,121.2548,38.8188,大连市,旅顺,,20,15,23,6,9,61,,60,60,5,7,7,6,0.5,0.6
2026-01-19T1000,1789A,124.8085,46.0381,大庆市,大同区,,35,35,38,12,24,42,,36,36,12,21,6,6,0.7,0.7
2026-01-19T1000,1790A,125.1166,46.5255,大庆市,龙凤区,,38,38,38,18,26,35,,38,37,26,29,11,11,0.4,0.4
2026-01-19T1000,1791A,124.8894,46.4007,大庆市,红岗区,,22,22,28,7,18,40,,38,38,9,16,5,5,0.2,0.3
2026-01-19T1000,1792A,125.1391,46.578,大庆市,萨尔图区,,31,31,35,17,18,42,,44,43,16,18,8,8,0.5,0.5
2026-01-19T1000,1793A,124.9026,46.6217,大庆市,让胡路区,,35,31,31,24,29,52,,54,52,10,12,9,7,0.6,0.6
2026-01-19T1000,3481A,125.127,46.6277,大庆市,萨区政府监测点,,32,32,35,17,17,44,,35,35,12,23,9,9,0.4,0.6
2026-01-19T1000,1723A,113.2926,40.0759,大同市,云冈宾馆,,18,18,17,10,11,53,,56,55,9,7,7,6,0.7,0.6
2026-01-19T1000,1724A,113.3437,40.0921,大同市,大同大学,,26,26,23,6,15,52,,62,59,13,7,2,2,1.1,0.7
2026-01-19T1000,1725A,113.2637,40.129,大同市,安家小村,,19,,16,6,9,58,,59,58,7,7,9,7,0.4,0.4
2026-01-19T1000,3282A,113.3399,40.0586,大同市,大同市卫生学校,,17,17,25,8,14,54,,63,59,14,9,4,4,0.9,0.6
2026-01-19T1000,3565A,113.1371,40.1122,大同市,云冈站,,16,12,22,6,10,49,,54,51,9,7,8,6,0.4,0.4
2026-01-19T1000,3566A,113.1186,40.2556,大同市,图书馆,,22,,21,15,10,43,,55,52,18,9,8,6,0.6,0.5
2026-01-19T1000,3567A,113.5931,40.0459,大同市,区一中,,29,29,30,16,17,55,,65,63,8,8,1,1,0.3,0.4
2026-01-19T1000,4199A,113.2798248,40.09972476,大同市,魏都大道141号,,23,23,24,9,10,56,,60,59,9,7,6,4,0.6,0.6
2026-01-19T1000,2269A,124.1068,50.4091,大兴安岭地区,科技局,,16,14,19,11,9,44,,9,9,5,5,4,3,0.3,0.2
2026-01-19T1000,3663A,124.117,50.4279,大兴安岭地区,红旗社区,,15,7,16,3,12,47,,46,46,7,10,5,6,0.3,0.4
2026-01-19T1000,1600A,124.33,40.0625,丹东市,江湾东路,,27,27,28,8,11,61,,58,58,9,13,8,6,0.3,0.5
2026-01-19T1000,1601A,124.4242,40.1513,丹东市,临江后街,,,22,20,9,11,,,62,62,6,8,,4,0.5,0.5
2026-01-19T1000,1602A,124.3935,40.1461,丹东市,元宝山,,21,21,20,8,13,62,,62,62,9,10,8,7,0.4,0.5
2026-01-19T1000,1603A,124.3634,40.1093,丹东市,民主桥,,20,17,27,7,14,61,,61,61,8,12,8,8,0.3,0.5
2026-01-19T1000,3541A,109.5726195,19.51688767,儋州市,第一中学子站,,37,37,34,25,26,46,,57,53,7,5,8,5,0.6,0.6
2026-01-19T1000,3542A,109.5567,19.5187,儋州市,东坡学校子站,,33,33,33,19,20,47,,63,58,6,3,6,6,0.5,0.5
2026-01-19T1000,2616A,98.5611,24.4273,德宏傣族景颇族自治州,德宏州监测站,细颗粒物(PM2.5),89,91,66,66,47,9,,14,8,32,26,7,7,1.1,0.9
2026-01-19T1000,3677A,98.5887,24.4366,德宏傣族景颇族自治州,芒市人民政府综合楼,细颗粒物(PM2.5),60,48,52,43,33,11,,24,18,24,16,4,5,1.2,0.8
2026-01-19T1000,1901A,104.424,31.1209,德阳市,东山公园,,32,29,75,22,66,50,,62,57,8,12,5,7,0.6,0.8
2026-01-19T1000,1902A,104.3827,31.1318,德阳市,西小区,,43,43,91,21,68,48,,61,56,13,17,2,5,0.9,1
2026-01-19T1000,1904A,104.3553,31.1091,德阳市,耐火材料厂,,37,37,77,21,69,44,,46,43,21,26,2,4,0.7,0.9
2026-01-19T1000,4145A,104.4144,31.1495,德阳市,市林业局,,32,32,84,14,70,45,,59,54,18,23,3,5,0.4,0.6
2026-01-19T1000,1622A,116.3034,37.4675,德州市,儿童乐园,,48,48,43,3,20,63,,42,42,14,23,10,11,0.5,0.7
2026-01-19T1000,1624A,116.2992,37.4449,德州市,监理站,,31,31,34,3,18,73,,50,50,10,21,8,10,0.5,0.7
2026-01-19T1000,3066A,116.2722,37.438,德州市,九衢泉纯净水厂,,44,44,36,3,20,66,,44,44,14,25,3,9,0.5,0.7
2026-01-19T1000,3371A,116.3693,37.44,德州市,开发区人民医院,颗粒物(PM10),51,51,38,3,19,67,,43,43,18,27,10,11,0.3,0.5
2026-01-19T1000,3511A,116.5687,37.3331,德州市,陵城艺术中心,,27,27,31,7,17,61,,39,39,14,22,15,14,0.4,0.5
2026-01-19T1000,4292A,116.352738,37.420875,德州市,新河东路,,34,34,37,3,20,66,,44,44,9,20,10,10,0.7,0.8
2026-01-19T1000,2621A,99.7054,27.8319,迪庆藏族自治州,迪庆州站,颗粒物(PM10),74,98,32,47,19,46,,49,44,35,12,7,5,1.2,0.5
2026-01-19T1000,3180A,99.7122,27.8129,迪庆藏族自治州,质量技术监督局,颗粒物(PM10),56,61,29,29,16,45,,55,51,34,13,5,4,0.9,0.5
2026-01-19T1000,4257A,104.6092,35.5962,定西市,将台街,颗粒物(PM10),58,65,70,18,25,60,,68,64,12,7,8,8,0.2,0.2
2026-01-19T1000,4309A,104.6159,35.5701,定西市,正龙路62号,颗粒物(PM10),54,58,73,29,24,57,,64,62,8,5,4,5,0.4,0.4
2026-01-19T1000,1390A,113.7943,23.0132,东莞市,东城石井,细颗粒物(PM2.5),94,115,71,70,39,53,,21,18,75,47,11,7,0.8,0.6
2026-01-19T1000,1391A,113.7384,22.9659,东莞市,南城西平,细颗粒物(PM2.5),94,118,70,70,40,38,,20,12,87,53,9,7,1.0,0.8
2026-01-19T1000,3319A,113.7283,23.041,东莞市,万江金泰,细颗粒物(PM2.5),99,120,85,74,48,73,,21,21,59,56,10,7,1.2,1.1
2026-01-19T1000,4129A,113.8666,23.1062,东莞市,裕兴路,"颗粒物(PM10),细颗粒物(PM2.5)",92,133,109,68,52,55,,19,19,54,57,57,11,1.0,0.8
2026-01-19T1000,4130A,114.0076,22.9739,东莞市,教育路1号,细颗粒物(PM2.5),79,104,102,58,49,63,,28,26,56,65,8,6,0.8,0.8
2026-01-19T1000,4131A,113.7981,22.8124,东莞市,长怡路1号,"颗粒物(PM10),细颗粒物(PM2.5)",69,88,74,50,37,61,,16,16,60,54,7,6,1.0,0.9
2026-01-19T1000,1666A,118.6612,37.4313,东营市,市环保局,,48,48,25,24,13,52,,57,54,21,19,13,7,0.9,0.5
2026-01-19T1000,3036A,118.6903,37.4337,东营市,开发区管委会,颗粒物(PM10),53,55,30,22,13,53,,59,56,15,11,13,6,0.6,0.3
2026-01-19T1000,3365A,118.5721,37.5654,东营市,垦利区民丰路,,41,41,28,19,14,49,,56,52,14,10,10,6,0.7,0.4
2026-01-19T1000,3498A,118.5063,37.8606,东营市,河口城区,,41,41,34,20,15,56,,51,50,19,15,7,4,1.1,0.9
2026-01-19T1000,3646A,118.4979,37.4623,东营市,胜利站,颗粒物(PM10),53,55,27,34,14,45,,54,50,22,16,18,11,0.9,0.5
2026-01-19T1000,3734A,118.5753,37.4405,东营市,理想之城,颗粒物(PM10),52,53,30,29,19,40,,45,42,16,12,9,3,0.8,0.5
2026-01-19T1000,1591A,110.0024,39.8127,鄂尔多斯市,综合楼,,19,17,46,3,9,59,,59,59,9,13,6,7,0.3,0.3
2026-01-19T1000,1592A,109.9485,39.8259,鄂尔多斯市,巴音孟克林场办事处,,18,17,33,7,8,55,,58,58,13,12,7,9,0.4,0.4
2026-01-19T1000,1593A,109.7734,39.5987,鄂尔多斯市,康泽苑,,22,,34,14,14,69,,67,67,7,8,5,7,0.4,0.5
2026-01-19T1000,1594A,109.8121,39.5987,鄂尔多斯市,华泰汽车城,,20,14,39,7,12,63,,60,60,8,9,8,8,0.1,0.3
2026-01-19T1000,1595A,109.9734,39.7884,鄂尔多斯市,奥林花园,,,24,43,,8,53,,55,55,17,14,4,5,0.4,0.5
2026-01-19T1000,2436A,114.894,30.3989,鄂州市,市政府,,19,19,65,3,46,7,,6,6,26,29,4,5,0.5,0.5
2026-01-19T1000,2437A,114.8986,30.3714,鄂州市,赵家坝,,18,18,78,3,49,6,,6,6,15,18,6,8,0.6,0.7
2026-01-19T1000,3654A,114.8093,30.4091,鄂州市,精准医疗中心,,20,20,68,3,45,9,,9,9,19,23,8,11,1.0,1
2026-01-19T1000,2454A,109.4978,30.2979,恩施土家族苗族自治州,湖北民院,细颗粒物(PM2.5),52,52,134,36,136,44,,41,41,9,27,6,6,0.7,1.5
2026-01-19T1000,3549A,109.5061,30.3771,恩施土家族苗族自治州,龙凤新区,细颗粒物(PM2.5),78,58,161,57,142,39,,37,37,10,23,6,7,0.8,1.2
2026-01-19T1000,2499A,108.3411,21.6159,防城港市,沙万,颗粒物(PM10),53,55,85,28,43,63,,53,53,35,41,6,10,0.8,1.1
2026-01-19T1000,2500A,108.3515,21.7733,防城港市,防城档案局,颗粒物(PM10),100,149,93,67,47,7,,16,12,26,25,5,8,0.9,0.8
2026-01-19T1000,2501A,108.3506,21.6414,防城港市,大海花园,细颗粒物(PM2.5),53,51,65,37,45,82,,63,63,14,27,6,14,0.5,0.9
2026-01-19T1000,1371A,113.1293,23.0065,佛山市,湾梁,细颗粒物(PM2.5),77,100,68,56,29,41,,45,34,68,49,/,/,/,/
2026-01-19T1000,1372A,113.1082,23.0477,佛山市,华材职中,细颗粒物(PM2.5),77,95,68,56,44,62,,57,52,53,38,8,6,0.7,0.6
2026-01-19T1000,1373A,113.1439,23.045,佛山市,南海气象局,颗粒物(PM10),71,92,64,47,40,48,,45,38,61,50,/,/,/,/
2026-01-19T1000,1374A,113.2879,22.8094,佛山市,顺德苏岗,细颗粒物(PM2.5),70,83,61,51,37,28,,12,9,73,50,/,/,1.0,0.9
2026-01-19T1000,1376A,112.8384,22.8678,佛山市,高明孔堂,细颗粒物(PM2.5),79,81,60,58,41,26,,51,48,89,38,/,/,/,/
2026-01-19T1000,1377A,112.8835,23.1584,佛山市,三水监测站,细颗粒物(PM2.5),195,229,141,146,72,53,,14,14,92,110,15,7,1.2,0.9
2026-01-19T1000,1378A,112.8668,23.185,佛山市,三水云东海,细颗粒物(PM2.5),201,191,128,151,84,56,,9,9,93,82,/,/,/,/
2026-01-19T1000,3625A,113.2568,22.7629,佛山市,容桂街道办,细颗粒物(PM2.5),70,80,65,51,40,66,,51,48,49,45,/,/,/,/
2026-01-19T1000,1282A,119.2681,26.0506,福州市,师大,颗粒物(PM10),54,57,36,32,21,52,,52,48,28,26,3,3,0.8,0.6
2026-01-19T1000,1283A,119.2983,26.1028,福州市,五四北路,颗粒物(PM10),54,58,34,34,24,58,,55,50,26,23,5,5,0.9,0.8
2026-01-19T1000,1284A,119.2648,26.0769,福州市,杨桥西路,,49,49,34,33,24,52,,47,43,19,18,4,4,/,/
2026-01-19T1000,3048A,119.5799,26.0937,福州市,九龙,,40,,25,28,15,64,,37,35,23,17,7,5,0.9,0.7
2026-01-19T1000,3526A,119.5188,25.9666,福州市,吴航,,37,37,26,24,16,73,,44,44,21,18,8,5,0.6,0.6
2026-01-19T1000,4104A,119.3106,26.0648,福州市,路通桥巷6号,细颗粒物(PM2.5),58,61,40,41,27,44,,46,41,28,20,/,/,/,/
2026-01-19T1000,1755A,123.7974,41.8494,抚顺市,望花区,,26,24,45,18,33,54,,18,18,13,30,2,3,0.8,0.9
2026-01-19T1000,1756A,123.9161,41.8827,抚顺市,顺城区,,26,26,55,12,35,59,,16,16,10,36,9,9,0.7,1
2026-01-19T1000,1757A,124.0437,41.8615,抚顺市,东洲区,颗粒物(PM10),81,112,67,49,43,36,,16,16,24,25,17,27,1.0,0.9
2026-01-19T1000,1758A,123.9246,41.8638,抚顺市,新抚区,颗粒物(PM10),67,84,57,27,34,48,,11,11,21,31,10,8,0.8,0.8
2026-01-19T1000,1759A,124.0972,41.8961,抚顺市,大伙房水库,细颗粒物(PM2.5),80,62,41,59,32,40,,36,36,13,17,9,11,1.0,0.9
2026-01-19T1000,1760A,123.708,41.8386,抚顺市,沈抚新城,,39,39,52,12,42,58,,16,16,4,32,8,10,1.1,1.2
2026-01-19T1000,2377A,116.3544,27.9833,抚州市,市站,细颗粒物(PM2.5),90,116,116,67,86,21,,39,25,20,22,7,9,1.0,1.2
2026-01-19T1000,2378A,116.3562,27.9631,抚州市,血防站,细颗粒物(PM2.5),103,126,119,77,88,20,,41,28,24,23,4,7,1.5,1.8
2026-01-19T1000,2379A,116.3561,28.0007,抚州市,采茶剧团,细颗粒物(PM2.5),92,109,119,68,92,21,,38,26,16,17,4,6,1.2,1.5
2026-01-19T1000,2380A,116.3854,27.9648,抚州市,医学分院,细颗粒物(PM2.5),88,122,126,65,82,21,,37,24,13,14,6,10,0.8,1.1
2026-01-19T1000,2207A,121.6095,41.9978,阜新市,工业园区,颗粒物(PM10),68,85,33,9,12,63,,55,55,5,11,8,9,0.3,0.4
2026-01-19T1000,2208A,121.6567,42.0188,阜新市,长青街,颗粒物(PM10),61,72,16,7,6,63,,61,61,4,6,7,7,0.3,0.3
2026-01-19T1000,2209A,121.6672,42.07,阜新市,农业园区,颗粒物(PM10),60,70,17,6,5,61,,62,62,5,7,7,6,0.2,0.2
2026-01-19T1000,2211A,121.6343,42.0455,阜新市,玉龙新城,颗粒物(PM10),59,68,27,3,9,62,,55,55,4,14,3,4,0.4,0.4
2026-01-19T1000,2301A,115.8276,32.8929,阜阳市,市监测站,,30,30,37,18,22,48,,23,23,12,25,4,4,0.4,0.6
2026-01-19T1000,2303A,115.8551,32.8606,阜阳市,开发区,,25,,20,17,25,50,,25,25,12,25,4,4,0.4,0.5
2026-01-19T1000,2875A,115.783962,32.889217,阜阳市,阜阳职业技术学院,,29,,27,20,19,49,,27,27,6,16,5,5,0.4,0.6
2026-01-19T1000,3468A,115.79,32.8614,阜阳市,市规划展馆,,25,,34,17,20,56,,26,26,8,21,4,4,0.6,0.8
2026-01-19T1000,3469A,115.835101,32.918568,阜阳市,枣园社区,,30,,36,21,20,46,,23,23,14,22,3,3,0.7,0.8
2026-01-19T1000,2669A,102.9097,34.9841,甘南藏族自治州,州政府,颗粒物(PM10),68,85,99,42,39,34,,44,39,19,16,8,10,0.6,0.6
2026-01-19T1000,3380A,102.8915,34.9618,甘南藏族自治州,甘肃民族师范学院,颗粒物(PM10),77,103,115,38,37,39,,39,34,22,23,10,13,0.2,0.2
2026-01-19T1000,2570A,101.96,30.048,甘孜藏族自治州,水桥子,,49,49,25,19,11,16,,32,26,42,26,7,7,0.7,0.5
2026-01-19T1000,3065A,101.9534,29.9976,甘孜藏族自治州,州环保局,,46,46,25,13,8,41,,61,53,27,14,5,6,0.4,0.3
2026-01-19T1000,2363A,114.9368,25.8663,赣州市,地委,细颗粒物(PM2.5),88,92,74,65,53,78,,55,55,20,33,10,9,1.2,1.1
2026-01-19T1000,2364A,114.946,25.8483,赣州市,气象台,细颗粒物(PM2.5),92,113,90,68,52,79,,58,58,36,53,4,4,0.8,0.6
2026-01-19T1000,2365A,114.932,25.8332,赣州市,市图书馆,细颗粒物(PM2.5),109,126,92,82,59,71,,56,56,22,39,7,6,1.2,1.1
2026-01-19T1000,2366A,114.8905,25.8472,赣州市,华坚鞋城,细颗粒物(PM2.5),112,113,89,84,57,65,,72,72,25,38,8,11,0.7,0.7
2026-01-19T1000,3109A,115.0094,25.8614,赣州市,赣县区卫计委,细颗粒物(PM2.5),122,,77,92,64,18,,19,16,50,37,7,7,0.8,0.8
2026-01-19T1000,2684A,106.2753,36.0057,固原市,监测站,,47,47,58,13,17,48,,68,63,14,10,5,5,0.6,0.5
2026-01-19T1000,2685A,106.2384,36.0189,固原市,新区,,45,45,54,18,12,49,,67,63,12,8,7,6,0.6,0.5
2026-01-19T1000,2544A,106.6307,30.4577,广安市,市委,,,,194,73,177,46,,28,28,12,28,9,10,0.8,1.3
2026-01-19T1000,2545A,106.6266,30.4662,广安市,友谊中学,细颗粒物(PM2.5),90,91,178,67,154,48,,25,25,12,25,7,8,1.2,1.6
2026-01-19T1000,2547A,106.6386,30.4551,广安市,广电花园,细颗粒物(PM2.5),98,88,160,73,175,42,,19,19,14,25,8,9,0.7,1.1
2026-01-19T1000,2902A,106.6347,30.4868,广安市,北辰小学,细颗粒物(PM2.5),97,91,174,72,157,44,,24,24,12,25,7,9,0.9,1.4
2026-01-19T1000,2524A,105.8211,32.4444,广元市,老城,,44,44,89,15,45,50,,62,59,18,24,1,6,0.5,0.8
2026-01-19T1000,2526A,105.8629,32.429,广元市,监测站,,33,33,79,13,43,44,,58,53,17,23,8,9,0.5,0.8
2026-01-19T1000,3617A,105.8047,32.4167,广元市,经开区,,48,48,76,12,43,42,,57,52,16,22,1,3,0.5,0.7
2026-01-19T1000,1345A,113.2346,23.1423,广州市,广雅中学,细颗粒物(PM2.5),87,116,92,64,52,34,,8,8,73,77,3,3,0.4,0.4
2026-01-19T1000,1346A,113.2611,23.105,广州市,市五中,颗粒物(PM10),66,82,79,47,49,65,,31,31,55,72,9,8,/,/
2026-01-19T1000,1348A,113.3477,23.0916,广州市,广东商学院,细颗粒物(PM2.5),85,91,83,63,51,13,,4,4,97,82,8,8,0.9,0.7
2026-01-19T1000,1349A,113.4332,23.105,广州市,市八十六中,细颗粒物(PM2.5),89,102,114,66,48,15,,5,5,110,92,12,10,/,/
2026-01-19T1000,1350A,113.3506,22.9488,广州市,番禺中学,细颗粒物(PM2.5),69,81,68,50,40,53,,37,36,61,53,6,4,1.0,0.9
2026-01-19T1000,1351A,113.2147,23.3918,广州市,花都师范,细颗粒物(PM2.5),100,131,114,75,65,24,,14,14,129,112,8,7,1.0,0.9
2026-01-19T1000,1352A,113.2599,23.1329,广州市,市监测站,细颗粒物(PM2.5),79,93,88,58,52,53,,9,9,62,79,4,3,/,/
2026-01-19T1000,1353A,113.5618,23.3119,广州市,九龙镇镇龙,细颗粒物(PM2.5),80,95,101,59,56,21,,4,4,58,62,5,5,0.6,0.6
2026-01-19T1000,1354A,113.2764,23.1544,广州市,麓湖,细颗粒物(PM2.5),85,88,82,63,51,21,,4,4,95,85,10,10,0.7,0.6
2026-01-19T1000,2846A,113.3209,23.1323,广州市,体育西,细颗粒物(PM2.5),82,104,93,60,54,22,,4,4,92,85,8,7,0.9,0.9
2026-01-19T1000,3298A,113.5718,23.5493,广州市,从化街口,细颗粒物(PM2.5),80,86,98,59,65,59,,13,13,42,56,9,9,1.0,1
2026-01-19T1000,3299A,113.3463,23.369,广州市,白云竹料,细颗粒物(PM2.5),95,116,106,71,64,21,,6,6,83,80,4,4,1.1,1
2026-01-19T1000,3300A,113.2981,23.2365,广州市,白云嘉禾,细颗粒物(PM2.5),82,109,84,60,47,15,,10,9,92,84,7,7,/,/
2026-01-19T1000,3301A,113.4256,23.1716,广州市,黄埔科学城,细颗粒物(PM2.5),112,127,94,84,55,38,,6,6,71,70,8,6,1.1,0.9
2026-01-19T1000,3302A,113.3942,23.0485,广州市,番禺大学城,颗粒物(PM10),91,131,90,65,42,21,,22,21,105,63,13,10,0.8,0.6
2026-01-19T1000,3303A,113.4923,22.8169,广州市,南沙黄阁,细颗粒物(PM2.5),80,,58,59,36,32,,53,47,79,38,10,6,/,/
2026-01-19T1000,3304A,113.534,22.7893,广州市,南沙街,细颗粒物(PM2.5),70,88,58,51,36,39,,56,45,66,35,9,4,0.7,0.6
2026-01-19T1000,3443A,113.2905,23.5541,广州市,花都梯面,细颗粒物(PM2.5),99,127,83,74,46,35,,6,6,56,62,5,5,/,/
2026-01-19T1000,3445A,113.786,23.7479,广州市,从化良口,细颗粒物(PM2.5),58,51,63,41,48,45,,53,46,29,28,7,8,/,/
2026-01-19T1000,3446A,113.805,23.2614,广州市,增城荔城,细颗粒物(PM2.5),75,73,72,55,50,60,,44,44,34,30,16,7,0.7,0.6
2026-01-19T1000,2506A,109.604387,23.066791,贵港市,江南子站,细颗粒物(PM2.5),105,119,125,79,73,45,,42,37,34,34,11,11,1.1,1.1
2026-01-19T1000,2508A,109.5669,23.1065,贵港市,荷城子站,细颗粒物(PM2.5),107,105,100,80,76,52,,58,57,35,31,14,12,1.1,1.2
2026-01-19T1000,3405A,109.5886,23.1172,贵港市,新世纪学校,细颗粒物(PM2.5),119,132,115,90,84,46,,57,56,38,28,/,/,0.7,0.7
2026-01-19T1000,4260A,109.5933,23.095,贵港市,中山路155-3号,细颗粒物(PM2.5),110,107,107,83,75,49,,55,52,36,31,/,/,0.9,0.9
2026-01-19T1000,1439A,106.6863,26.6035,贵阳市,马鞍山,,,48,38,34,31,,,49,36,23,13,5,6,/,/
2026-01-19T1000,1441A,106.6241,26.6266,贵阳市,鉴湖路,颗粒物(PM10),56,61,49,31,31,60,,70,65,20,14,8,7,0.7,0.5
2026-01-19T1000,1442A,106.7468,26.6344,贵阳市,燕子冲,细颗粒物(PM2.5),55,53,40,39,35,18,,54,42,48,18,9,7,0.9,0.4
2026-01-19T1000,1443A,106.6556,26.4362,贵阳市,碧云窝,颗粒物(PM10),51,51,50,34,29,130,,126,126,15,12,6,6,/,/
2026-01-19T1000,1445A,106.6963,26.6063,贵阳市,红边门,"颗粒物(PM10),细颗粒物(PM2.5)",58,66,52,41,36,11,,48,35,63,25,29,15,/,/
2026-01-19T1000,1446A,106.7162383,26.56964667,贵阳市,新华路,颗粒物(PM10),62,73,57,36,31,14,,32,23,66,34,21,14,1.1,0.6
2026-01-19T1000,1447A,106.6742,26.542,贵阳市,太慈桥,颗粒物(PM10),53,56,43,31,28,50,,55,47,25,20,3,4,/,/
2026-01-19T1000,4230A,106.688212,26.56952,贵阳市,花果园大街66号,细颗粒物(PM2.5),62,46,35,44,36,33,,56,48,40,22,7,6,/,/
2026-01-19T1000,4231A,106.687268,26.516892,贵阳市,漓江路57号,细颗粒物(PM2.5),58,63,45,41,32,36,,51,41,39,20,21,12,0.7,0.4
2026-01-19T1000,1864A,110.3091,25.2705,桂林市,龙隐路小学,细颗粒物(PM2.5),53,39,93,37,76,40,,45,45,15,28,6,8,0.9,0.8
2026-01-19T1000,1865A,110.2849361,25.22909545,桂林市,八中,细颗粒物(PM2.5),54,54,90,38,71,35,,33,33,21,29,7,8,1.1,1
2026-01-19T1000,3531A,110.296,25.1254,桂林市,旅游学院,细颗粒物(PM2.5),70,61,72,51,59,43,,40,40,18,17,4,7,0.6,0.4
2026-01-19T1000,4222A,110.1835,25.2444,桂林市,环湖路276号,细颗粒物(PM2.5),58,46,83,41,68,45,,39,39,12,27,7,11,0.9,0.8
2026-01-19T1000,4301A,110.2803,25.2773,桂林市,信义路13号,,49,49,90,26,66,40,,45,45,17,25,4,6,1.5,1.4
2026-01-19T1000,2674A,100.2262,34.4854,果洛藏族自治州,玛沁县大武镇,颗粒物(PM10),103,155,130,11,27,,,42,38,15,5,20,15,0.7,0.4
2026-01-19T1000,1130A,126.5557,45.8109,哈尔滨市,松北商大,颗粒物(PM10),51,52,55,35,41,30,,31,28,26,35,8,8,0.7,0.7
2026-01-19T1000,1132A,126.6162,45.719,哈尔滨市,南岗学府路,细颗粒物(PM2.5),95,85,66,71,45,23,,22,21,32,28,14,10,0.9,0.6
2026-01-19T1000,1133A,126.6894,45.7733,哈尔滨市,太平宏伟公园,颗粒物(PM10),55,60,70,31,50,44,,26,25,16,28,11,14,0.8,1
2026-01-19T1000,1134A,126.6361,45.7672,哈尔滨市,道外承德广场,颗粒物(PM10),55,59,70,38,39,36,,29,29,25,31,13,12,0.7,0.7
2026-01-19T1000,1136A,126.644,45.7261,哈尔滨市,动力和平路,颗粒物(PM10),71,92,64,43,38,30,,23,22,29,31,14,16,0.9,0.8
2026-01-19T1000,1137A,126.5933,45.7479,哈尔滨市,道里建国路,细颗粒物(PM2.5),67,48,59,48,50,29,,23,23,26,34,16,15,0.6,0.6
2026-01-19T1000,1138A,126.6127,45.6119,哈尔滨市,平房东轻厂,细颗粒物(PM2.5),135,113,94,103,77,18,,10,10,40,50,,13,1.7,1.3
2026-01-19T1000,1139A,126.5875,45.9827,哈尔滨市,呼兰师专,细颗粒物(PM2.5),138,,85,105,86,33,,25,25,21,34,12,13,1.0,1
2026-01-19T1000,1140A,126.6299,45.6799,哈尔滨市,省农科院,细颗粒物(PM2.5),189,150,84,142,72,15,,11,11,52,49,21,15,1.4,0.9
2026-01-19T1000,4282A,126.6769,45.7379,哈尔滨市,华山路1号,细颗粒物(PM2.5),55,56,58,39,41,32,,22,22,27,34,18,19,0.9,0.8
2026-01-19T1000,4283A,126.9717,45.5356,哈尔滨市,解放大街52号,细颗粒物(PM2.5),155,122,100,118,94,33,,27,27,24,33,13,14,1.3,1
2026-01-19T1000,2688A,93.5124,42.8176,哈密市,地区监测站,颗粒物(PM10),125,199,179,31,27,22,,51,49,26,13,3,3,0.6,0.2
2026-01-19T1000,2689A,93.5014,42.8312,哈密市,哈密师范学校,颗粒物(PM10),117,184,152,25,26,39,,50,50,25,15,3,3,0.4,0.3
2026-01-19T1000,2671A,100.9016,36.9464,海北藏族自治州,海晏县西海镇,颗粒物(PM10),70,89,91,32,33,47,,54,48,11,11,11,17,0.7,0.7
2026-01-19T1000,3867A,102.074,36.5056,海东市,平安区公安局北苑,细颗粒物(PM2.5),89,,92,66,31,14,,45,35,33,11,13,18,1.0,0.6
2026-01-19T1000,4163A,102.0984,36.5119,海东市,滨河路,颗粒物(PM10),60,70,97,34,32,4,,40,24,46,25,18,20,1.0,0.7
2026-01-19T1000,1410A,110.3189,20.0596,海口市,海南大学,,30,30,34,16,19,89,,92,88,7,7,5,6,0.3,0.3
2026-01-19T1000,1411A,110.2827,20.0051,海口市,秀英海南医院,,30,30,37,14,15,82,,88,85,9,8,7,7,0.3,0.3
2026-01-19T1000,1412A,110.3391,19.9979,海口市,海南师范大学,,32,32,38,16,18,81,,89,85,11,11,6,6,0.6,0.6
2026-01-19T1000,1413A,110.3303,20.0359,海口市,龙华路环保局宿舍,,31,31,40,16,19,85,,89,85,9,9,/,/,0.8,0.8
2026-01-19T1000,3539A,110.5111,19.9737,海口市,桂林洋子站,,40,40,31,21,18,71,,72,69,11,8,/,/,/,/
2026-01-19T1000,4134A,110.1952,20.0451,海口市,长滨二路9号,,30,30,29,17,18,83,,84,82,7,8,/,/,/,/
2026-01-19T1000,2673A,100.6158,36.2985,海南藏族自治州,共和县恰卜恰镇,颗粒物(PM10),98,145,85,50,31,13,,38,26,44,24,16,14,1.2,0.8
2026-01-19T1000,2676A,97.373,37.376,海西蒙古族藏族自治州,德令哈市,颗粒物(PM10),63,76,56,16,15,77,,78,78,12,11,8,11,0.6,0.8
2026-01-19T1000,1049A,114.492,36.5712,邯郸市,矿院,细颗粒物(PM2.5),70,65,57,51,54,31,,28,28,23,24,4,2,0.6,0.5
2026-01-19T1000,1050A,114.4839,36.6136,邯郸市,丛台公园,细颗粒物(PM2.5),67,62,57,48,50,34,,29,29,26,26,6,3,0.6,0.5
2026-01-19T1000,3458A,114.7893,36.5592,邯郸市,香泉濮院小区,,46,,54,32,46,37,,28,27,22,22,4,2,0.5,0.6
2026-01-19T1000,3580A,114.1998,36.4439,邯郸市,峰峰矿区临水派出所,细颗粒物(PM2.5),77,,44,56,53,35,,36,36,18,15,8,3,0.8,0.7
2026-01-19T1000,4068A,114.5209,36.7697,邯郸市,建安街268号,,40,40,56,23,46,38,,23,23,14,19,4,2,0.5,0.5
2026-01-19T1000,4069A,114.5488,36.6177,邯郸市,丛台东路558号,细颗粒物(PM2.5),52,52,49,36,50,35,,27,27,15,18,3,2,0.6,0.5
2026-01-19T1000,2635A,107.0155,33.0707,汉中市,市监测站,,48,46,114,33,78,27,,42,38,24,33,5,6,0.7,1.1
2026-01-19T1000,2636A,107.0083,33.114,汉中市,鑫源开发区,,,48,103,37,70,,,45,43,,32,,7,,0.9
2026-01-19T1000,2637A,107.0072,33.0323,汉中市,南郑大河坎水厂,颗粒物(PM10),56,62,150,32,104,15,,40,33,30,35,5,6,0.9,1.4
2026-01-19T1000,1223A,120.2073,30.2111,杭州市,滨江,,14,13,82,8,40,43,,25,25,23,44,5,6,0.4,0.5
2026-01-19T1000,1224A,120.0625,30.2737,杭州市,西溪,,33,33,97,7,39,46,,31,31,20,36,8,8,0.8,1
2026-01-19T1000,1226A,120.3417,30.315,杭州市,下沙,,,36,96,17,45,45,,27,27,24,42,,7,0.7,0.7
2026-01-19T1000,1227A,120.1252,30.2465,杭州市,卧龙桥,,22,22,84,7,44,46,,30,30,24,46,7,8,0.2,0.4
2026-01-19T1000,1228A,120.1902,30.2691,杭州市,浙江农大,,14,12,70,7,38,42,,28,28,27,51,4,5,0.5,0.6
2026-01-19T1000,1230A,120.1195,30.3121,杭州市,和睦小学,,26,19,100,18,43,49,,33,33,17,43,4,4,0.6,0.7
2026-01-19T1000,1231A,120.3076,30.4146,杭州市,临平镇,,19,12,76,11,43,58,,40,40,10,31,6,7,0.5,0.6
2026-01-19T1000,1232A,120.2753,30.1839,杭州市,城厢镇,,47,47,91,9,42,46,,26,26,22,44,7,8,0.5,0.6
2026-01-19T1000,1233A,120.0883,30.1808,杭州市,云栖,,28,28,93,6,50,48,,27,27,19,41,4,4,0.6,0.7
2026-01-19T1000,3557A,119.9463,30.0496,杭州市,镇二中,,14,8,82,6,51,34,,18,18,28,48,4,5,0.6,0.8
2026-01-19T1000,3558A,119.7184,30.2367,杭州市,市府大楼,,15,15,126,3,59,40,,18,18,17,31,9,10,0.9,1
2026-01-19T1000,3656A,120.1554,30.2863,杭州市,消防大队,,32,32,97,14,54,47,,29,29,16,48,6,6,0.6,0.7
2026-01-19T1000,1270A,117.1957,31.7845,合肥市,明珠广场,,12,7,77,7,46,37,,19,19,11,27,5,6,0.7,0.9
2026-01-19T1000,1271A,117.307,31.8765,合肥市,三里街,,11,7,77,3,43,35,,20,20,15,28,4,4,0.6,0.8
2026-01-19T1000,1272A,117.2587,31.8703,合肥市,琥珀山庄,,13,12,75,7,44,39,,23,23,13,27,7,7,0.5,0.7
2026-01-19T1000,1275A,117.2593,31.9376,合肥市,庐阳区,,13,7,77,3,39,40,,25,25,20,32,3,4,0.7,0.8
2026-01-19T1000,1276A,117.345251,31.861615,合肥市,瑶海区,,12,,76,3,42,38,,22,21,14,31,4,4,0.7,0.7
2026-01-19T1000,1277A,117.3033,31.7967,合肥市,包河区,,13,,79,9,48,32,,17,17,20,36,6,7,0.7,0.9
2026-01-19T1000,1278A,117.278,31.7392,合肥市,滨湖新区,,12,6,83,3,54,36,,17,17,16,34,3,4,0.5,0.7
2026-01-19T1000,1279A,117.1324,31.8395,合肥市,高新区,,13,7,71,3,43,39,,23,23,15,27,3,4,0.6,0.8
2026-01-19T1000,3464A,117.3802,31.9148,合肥市,高教基地,,13,,71,6,46,40,,27,26,6,21,6,8,0.5,0.6
2026-01-19T1000,4098A,117.2518,31.8404,合肥市,中国科学技术大学,,13,6,73,3,39,40,,22,22,12,29,6,7,0.5,0.8
2026-01-19T1000,3614A,79.9241,37.0878,和田地区,地区环保局,细颗粒物(PM2.5),273,,748,223,123,33,,38,37,26,17,3,3,1.1,0.6
2026-01-19T1000,3615A,79.9132,37.1137,和田地区,市环保局,颗粒物(PM10),500,1328,889,173,115,30,,41,36,27,15,1,2,2.8,1.2
2026-01-19T1000,2517A,108.0496,24.6957,河池市,市环保站,细颗粒物(PM2.5),80,93,69,59,50,32,,58,54,38,18,7,6,1.1,0.8
2026-01-19T1000,4302A,108.0901,24.6945,河池市,上任中路54号,"颗粒物(PM10),细颗粒物(PM2.5)",78,105,73,57,54,77,,72,67,35,21,11,7,0.9,0.8
2026-01-19T1000,1697A,114.6962,23.7538,河源市,东埔,细颗粒物(PM2.5),60,68,67,43,49,52,,26,26,38,47,6,6,1.3,1.3
2026-01-19T1000,1698A,114.6895,23.7232,河源市,老城,颗粒物(PM10),55,60,55,37,35,37,,34,32,34,27,6,6,1.0,0.7
2026-01-19T1000,3374A,115.5562,35.089,菏泽市,定陶老年大学,颗粒物(PM10),51,51,37,31,30,44,,50,49,11,15,3,2,0.1,0.2
2026-01-19T1000,4114A,115.4239,35.2593,菏泽市,黄河路600号,颗粒物(PM10),51,51,45,34,33,48,,50,49,15,19,2,2,0.5,0.5
2026-01-19T1000,4115A,115.5025,35.2727,菏泽市,菏泽市人社局,颗粒物(PM10),51,51,42,29,31,44,,49,47,13,13,2,2,0.2,0.3
2026-01-19T1000,4184A,115.479691,35.244011,菏泽市,永昌路1号,,,,42,38,39,46,,51,49,10,13,3,2,0.2,0.2
2026-01-19T1000,4193A,115.471542,35.280012,菏泽市,长城路999号,,49,45,42,34,31,44,,48,46,11,15,10,9,0.7,0.6
2026-01-19T1000,2514A,111.5264,24.4178,贺州市,环保小区,细颗粒物(PM2.5),74,94,83,54,57,40,,43,39,42,31,8,9,0.7,0.7
2026-01-19T1000,2515A,111.561,24.4074,贺州市,政协大楼,细颗粒物(PM2.5),110,116,81,83,57,42,,44,32,40,32,15,18,0.8,0.7
2026-01-19T1000,3534A,111.4744,24.455,贺州市,西湾,细颗粒物(PM2.5),79,72,89,58,61,20,,13,13,33,40,9,8,1.0,1.3
2026-01-19T1000,2385A,114.17,35.9019,鹤壁市,市监测站,细颗粒物(PM2.5),65,51,63,47,51,33,,27,27,19,19,5,3,0.8,0.7
2026-01-19T1000,2386A,114.2953,35.7512,鹤壁市,市交警支队,"颗粒物(PM10),细颗粒物(PM2.5)",60,70,64,43,49,29,,26,26,16,20,6,3,0.6,0.6
2026-01-19T1000,2387A,114.2877,35.7302,鹤壁市,迎宾馆,细颗粒物(PM2.5),63,55,61,45,47,33,,29,29,22,26,5,3,0.8,0.8
2026-01-19T1000,3474A,114.2616,35.6824,鹤壁市,大新区,,,,60,,45,,,31,31,20,23,6,4,,0.9
2026-01-19T1000,3596A,114.1573,35.9607,鹤壁市,南山宾馆,颗粒物(PM10),53,56,62,33,49,40,,32,32,11,15,5,2,0.6,0.6
2026-01-19T1000,2244A,130.2537,47.3416,鹤岗市,哈啤分公司,,29,29,37,17,33,70,,58,58,7,17,7,7,0.4,0.5
2026-01-19T1000,2245A,130.2683,47.3087,鹤岗市,斯达机电,,48,41,46,33,33,58,,50,50,13,18,7,7,0.6,0.6
2026-01-19T1000,2246A,130.3114,47.3388,鹤岗市,东山纸板厂,,32,,58,22,48,62,,35,35,9,34,11,12,1.2,1.6
2026-01-19T1000,2263A,127.4832,50.2524,黑河市,交通局,,26,26,49,16,33,41,,32,32,18,28,6,13,0.3,0.5
2026-01-19T1000,2264A,127.5146,50.2339,黑河市,环保局,,19,14,40,13,32,46,,32,32,13,27,4,11,0.4,0.6
2026-01-19T1000,1074A,115.6839,37.754,衡水市,电机北厂,,36,36,55,17,35,55,,34,34,10,26,1,5,0.3,0.5
2026-01-19T1000,1075A,115.6303,37.7318,衡水市,市监测站,,41,41,55,3,35,56,,36,36,10,28,6,6,0.3,0.6
2026-01-19T1000,3188A,115.6684,37.7216,衡水市,市城管局,,34,34,56,8,37,57,,42,42,8,24,6,7,0.3,0.6
2026-01-19T1000,3459A,115.599,37.5491,衡水市,地表水厂,,28,28,43,3,28,62,,45,45,2,17,2,3,0.3,0.5
2026-01-19T1000,2457A,112.6209,26.9268,衡阳市,衡阳化工总厂,,26,26,88,12,77,11,,8,8,14,20,6,8,0.9,1.1
2026-01-19T1000,2458A,112.621,26.8957,衡阳市,珠晖区环保局,,45,,88,31,80,9,,8,7,18,23,3,4,1.0,1.3
2026-01-19T1000,2459A,112.628,26.8654,衡阳市,市委党校,,18,16,87,12,57,9,,7,6,18,23,6,6,1.0,1.3
2026-01-19T1000,2460A,112.6007,26.8977,衡阳市,市监测站,,28,28,90,16,65,9,,8,7,11,18,4,6,1.1,1.3
2026-01-19T1000,2461A,112.5658,26.9013,衡阳市,真空机电公司,,32,32,94,8,68,12,,8,7,16,24,5,8,1.0,1.4
2026-01-19T1000,3399A,112.6703,26.8817,衡阳市,师范学院,,29,,90,20,65,11,,8,8,17,24,1,2,1.1,1.3
2026-01-19T1000,3038A,103.3757,23.3679,红河哈尼族彝族自治州,州图书馆,细颗粒物(PM2.5),58,62,35,41,23,25,,41,32,29,11,9,8,1.0,0.6
2026-01-19T1000,4154A,103.401,23.3561,红河哈尼族彝族自治州,蒙自市朝阳路,,43,38,26,30,22,30,,37,29,28,11,8,9,0.7,0.5
2026-01-19T1000,1090A,111.6506,40.7517,呼和浩特市,呼市一监,,,,18,,6,,,64,64,4,4,4,5,0.3,0.3
2026-01-19T1000,1094A,111.7516,40.8369,呼和浩特市,如意水处理厂,,20,11,14,3,6,62,,62,61,4,4,6,8,0.3,0.2
2026-01-19T1000,1095A,111.727798,40.806187,呼和浩特市,二十九中,,23,23,16,7,7,60,,62,60,7,4,10,10,0.5,0.4
2026-01-19T1000,1097A,111.717,40.7617,呼和浩特市,化肥厂生活区,,18,14,17,6,6,56,,60,57,10,7,4,5,0.4,0.3
2026-01-19T1000,3699A,111.6519,40.8389,呼和浩特市,海东办,,,7,9,7,6,,,63,62,6,5,3,4,0.3,0.3
2026-01-19T1000,4275A,111.591512,40.827312,呼和浩特市,成吉思汗西街8号,,16,12,18,7,6,51,,54,52,7,5,6,5,0.3,0.3
2026-01-19T1000,4276A,111.6597,40.8077,呼和浩特市,公园东路75号,,18,12,13,8,6,56,,56,56,8,7,4,5,0.4,0.3
2026-01-19T1000,4277A,111.5427,40.7846,呼和浩特市,金海路35号,,17,11,18,3,5,52,,55,53,10,7,8,8,0.5,0.5
2026-01-19T1000,3061A,119.7511,49.1576,呼伦贝尔市,国华电力东,细颗粒物(PM2.5),53,47,26,37,20,42,,41,41,22,17,7,7,0.5,0.4
2026-01-19T1000,4279A,119.7569,49.2222,呼伦贝尔市,伊敏大街东7号,,33,33,23,21,19,40,,48,45,14,8,8,8,0.4,0.3
2026-01-19T1000,1250A,120.075,30.867,湖州市,城西水厂,,23,16,59,10,37,72,,66,66,12,28,4,5,0.4,0.5
2026-01-19T1000,2873A,120.083,30.8929,湖州市,仁皇山新区,,24,15,65,9,32,74,,68,68,14,33,4,5,0.5,0.7
2026-01-19T1000,2907A,120.1846,30.8592,湖州市,吴兴区站,,28,28,66,8,29,61,,56,56,15,38,4,5,0.2,0.4
2026-01-19T1000,3562A,120.4146,30.8538,湖州市,南浔区站,,20,17,56,9,29,61,,60,60,17,31,5,6,0.7,0.8
2026-01-19T1000,1607A,120.904878,40.721091,葫芦岛市,龙港区,,40,40,31,13,15,60,,46,46,12,16,14,16,0.6,0.6
2026-01-19T1000,1608A,120.8382,40.7521,葫芦岛市,化工街,,29,29,26,14,11,53,,49,48,14,11,12,13,0.5,0.5
2026-01-19T1000,1609A,120.8339,40.7078,葫芦岛市,新区,,20,20,22,14,14,55,,48,48,16,13,14,15,0.6,0.6
2026-01-19T1000,1610A,120.8697,40.7679,葫芦岛市,东城区,,22,20,24,15,14,58,,48,48,13,16,15,17,0.5,0.6
2026-01-19T1000,2483A,109.9297,27.5383,怀化市,河西地税局,,22,18,118,15,90,23,,18,18,16,22,3,4,/,/
2026-01-19T1000,2484A,109.9783,27.5342,怀化市,市四医院,,25,25,131,15,85,15,,14,12,15,24,4,7,0.6,0.9
2026-01-19T1000,2485A,109.9971,27.5579,怀化市,监测楼,,25,,114,17,86,24,,21,20,12,18,2,5,0.1,0.4
2026-01-19T1000,1210A,119.0566,33.5991,淮安市,钵池山,,34,34,31,21,21,46,,47,47,11,12,6,6,0.3,0.3
2026-01-19T1000,1211A,119.0083,33.578,淮安市,北京南路,,39,39,34,21,19,42,,45,45,10,10,6,6,0.6,0.5
2026-01-19T1000,1212A,118.9938,33.6083,淮安市,市监测站,,42,31,25,29,19,44,,48,48,14,13,7,8,0.4,0.3
2026-01-19T1000,1213A,119.135,33.5038,淮安市,楚州区监测站,,40,34,28,28,17,48,,49,48,8,8,8,8,0.6,0.6
2026-01-19T1000,3426A,118.8757,33.2897,淮安市,新华书店,,40,33,38,28,21,34,,43,38,21,16,7,7,0.5,0.4
2026-01-19T1000,4092A,119.119691,33.550006,淮安市,枚皋中路89号,,43,,30,30,19,51,,53,51,9,10,8,8,0.2,0.3
2026-01-19T1000,4206A,119.028838,33.631911,淮安市,承德北路606号,,44,44,37,23,20,46,,50,50,11,11,6,6,0.5,0.4
2026-01-19T1000,2282A,116.8005,33.9749,淮北市,监测站,,35,32,44,24,27,46,,49,49,16,23,3,4,0.4,0.6
2026-01-19T1000,2283A,116.8094,33.9008,淮北市,烈山区政府,,42,31,33,29,27,44,,46,46,8,19,2,3,0.3,0.4
2026-01-19T1000,4017A,116.7926,33.9534,淮北市,市博物馆,,43,41,40,30,28,49,,50,50,17,27,2,3,0.7,0.7
2026-01-19T1000,4100A,116.8322,33.9884,淮北市,杜集区第一实验学校,,39,39,48,26,26,49,,49,49,8,21,12,10,0.8,0.9
2026-01-19T1000,2277A,116.8304,32.7726,淮南市,潘集区政府,,26,20,52,18,36,50,,32,32,9,22,4,4,0.6,0.7
2026-01-19T1000,2279A,116.8569,32.5949,淮南市,谢家集区政府,,16,12,49,10,30,49,,35,35,13,26,5,7,0.4,0.6
2026-01-19T1000,2280A,116.8279,32.6333,淮南市,八公山区政府,,20,,50,14,28,46,,36,36,11,21,8,8,0.4,0.6
2026-01-19T1000,2894A,117.0561,32.6536,淮南市,经济技术开发区消防队,,27,27,58,14,33,45,,34,34,15,24,3,4,0.6,0.6
2026-01-19T1000,3329A,117.011,32.5891,淮南市,山南新区,,19,19,67,8,30,52,,37,37,10,22,3,2,0.5,0.6
2026-01-19T1000,4209A,117.003137,32.644456,淮南市,国庆中路369号,,13,,56,9,32,39,,27,27,12,23,6,8,0.6,0.7
2026-01-19T1000,2446A,114.9021,30.474,黄冈市,职工中心,,15,14,55,10,40,10,,10,10,21,20,6,6,0.9,0.9
2026-01-19T1000,2929A,114.8858,30.4519,黄冈市,红卫路,,12,8,56,8,42,9,,9,9,20,20,6,7,0.4,0.5
2026-01-19T1000,3398A,114.9134,30.4446,黄冈市,市林业局,,16,15,57,11,47,21,,19,19,26,27,5,4,0.9,0.9
2026-01-19T1000,2672A,102.02,35.5101,黄南藏族自治州,同仁县隆务镇,颗粒物(PM10),67,83,96,27,35,44,,48,47,9,6,12,13,0.5,0.5
2026-01-19T1000,2295A,118.2905,29.6965,黄山市,延安路89号,细颗粒物(PM2.5),64,,64,46,53,30,,38,26,23,18,4,4,0.8,0.8
2026-01-19T1000,2297A,118.1369,30.2755,黄山市,黄山区政府5号楼,,20,19,86,14,62,34,,36,31,20,21,2,3,0.5,0.8
2026-01-19T1000,4210A,118.335445,29.720283,黄山市,滨江东路7-2号,细颗粒物(PM2.5),63,58,82,45,64,27,,44,33,25,19,/,/,/,/
2026-01-19T1000,2423A,115.0547,30.2332,黄石市,沈家营,,24,24,91,11,47,1,,2,2,28,28,6,6,1.3,1.4
2026-01-19T1000,2426A,114.899,30.211,黄石市,铁山,,,,69,,62,,,56,6,,26,,6,,0.7
2026-01-19T1000,2427A,115.0259,30.2108,黄石市,团城山,,42,42,93,9,55,3,,2,2,26,32,6,7,1.0,1.1
2026-01-19T1000,3149A,115.0174,30.1591,黄石市,笔架山北路,,48,48,105,12,57,4,,3,3,30,27,7,9,1.2,1.3
2026-01-19T1000,4185A,115.078022,30.21118,黄石市,磁湖东路29号,,28,28,83,13,63,2,,2,2,23,30,6,8,1.2,1.3
2026-01-19T1000,1392A,114.4181,23.0528,惠州市,河南岸金山湖子站,细颗粒物(PM2.5),65,75,77,47,44,66,,47,47,32,29,13,6,0.8,0.7
2026-01-19T1000,1393A,114.4055,23.0824,惠州市,下埔横江三路子站,细颗粒物(PM2.5),64,74,78,46,45,81,,69,66,33,32,10,8,0.9,0.8
2026-01-19T1000,1395A,114.4645,22.7832,惠州市,惠阳区承修路船湖子站,细颗粒物(PM2.5),77,92,64,56,39,50,,58,40,53,29,8,7,0.8,0.6
2026-01-19T1000,1396A,114.5316,22.7423,惠州市,大亚湾管委会子站,颗粒物(PM10),58,65,60,34,32,90,,44,44,33,28,8,6,0.7,0.6
2026-01-19T1000,3314A,114.4334,22.8134,惠州市,惠阳秋长,细颗粒物(PM2.5),84,95,65,62,38,78,,42,41,41,32,/,/,/,/
2026-01-19T1000,3452A,114.6521,22.7755,惠州市,大亚湾霞涌,颗粒物(PM10),63,76,51,30,25,101,,66,66,20,24,/,/,/,/
2026-01-19T1000,4300A,114.4089,23.1147,惠州市,文华一路1号,细颗粒物(PM2.5),75,84,79,55,47,61,,36,27,50,42,/,/,/,/
2026-01-19T1000,2240A,130.9618,45.2926,鸡西市,环保局,细颗粒物(PM2.5),59,51,55,42,40,52,,39,39,10,21,8,10,0.3,0.4
2026-01-19T1000,2243A,130.9294,45.2959,鸡西市,第一中学,,49,44,43,34,34,52,,38,38,10,20,5,6,0.6,0.6
2026-01-19T1000,3707A,131.0069,45.2988,鸡西市,欧美日汽修厂,,,,76,,66,,,54,,,37,,22,,1.0
2026-01-19T1000,2367A,114.9753,27.0803,吉安市,红声器材厂,细颗粒物(PM2.5),120,121,114,91,85,41,,65,51,27,21,11,14,1.2,1.2
2026-01-19T1000,2369A,114.9903,27.1313,吉安市,市环境监测站,细颗粒物(PM2.5),112,121,114,84,86,42,,69,56,29,30,13,17,/,/
2026-01-19T1000,2370A,115.009527,27.096792,吉安市,青原区法院,细颗粒物(PM2.5),127,126,117,96,90,36,,68,55,25,22,14,14,1.2,1.1
2026-01-19T1000,1772A,126.54,43.8622,吉林市,哈达湾,,34,34,45,20,33,58,,49,49,8,21,21,9,0.7,0.8
2026-01-19T1000,1773A,126.5843,43.8358,吉林市,东局子,,32,32,43,12,33,49,,43,43,11,22,4,7,0.9,1.1
2026-01-19T1000,1774A,126.5051,43.8243,吉林市,电力学院,,26,22,59,18,49,56,,40,40,7,29,11,13,0.6,1
2026-01-19T1000,1775A,126.6133,43.8971,吉林市,江北,,23,23,54,14,42,52,,42,42,7,25,9,9,0.9,1.1
2026-01-19T1000,1776A,126.5549,43.8304,吉林市,江南公园,,29,22,43,20,38,55,,48,48,8,21,7,12,0.6,0.8
2026-01-19T1000,2868A,126.4737,43.953,吉林市,九站,,32,23,52,22,45,53,,36,36,11,35,6,7,0.7,0.9
2026-01-19T1000,1299A,116.9866,36.6118,济南市,科干所,,41,41,41,24,28,44,,50,48,15,19,7,5,0.5,0.5
2026-01-19T1000,1300A,116.9379,36.6652,济南市,农科所,,49,49,33,22,22,38,,49,47,23,20,6,5,0.7,0.6
2026-01-19T1000,1301A,117.1265,36.6736,济南市,开发区,,46,46,36,22,32,46,,48,46,24,27,6,4,0.6,0.7
2026-01-19T1000,1303A,117.0616,36.6865,济南市,省种子仓库,,39,39,39,24,29,48,,53,51,18,20,6,4,0.5,0.6
2026-01-19T1000,1304A,116.9495185,36.644937,济南市,机床二厂,,39,39,34,27,29,42,,49,47,19,22,4,3,0.4,0.4
2026-01-19T1000,1305A,117.0496,36.6629,济南市,市监测站,,42,42,38,24,28,47,,52,50,17,19,5,4,0.5,0.6
2026-01-19T1000,1306A,116.7674,36.5458,济南市,长清党校,,49,49,38,32,27,43,,49,48,14,18,6,5,0.6,0.6
2026-01-19T1000,1961A,117.5323,36.6865,济南市,东山小学,,39,39,32,20,21,59,,62,61,14,18,3,2,0.3,0.2
2026-01-19T1000,3059A,117.7181,36.205,济南市,泰兴公司,,45,34,26,31,24,57,,61,60,16,23,4,3,0.7,0.7
2026-01-19T1000,3064A,117.6861,36.2172,济南市,莱芜战役纪念馆,,42,39,32,29,29,54,,58,57,19,24,10,9,0.6,0.7
2026-01-19T1000,3494A,117.1673,36.9782,济南市,济阳区政府,,37,37,32,17,20,41,,49,45,26,19,6,4,0.6,0.5
2026-01-19T1000,3495A,117.1168,36.6299,济南市,锦屏中学,,37,37,32,24,25,48,,52,51,19,21,8,12,0.8,0.8
2026-01-19T1000,4108A,117.7107,36.2385,济南市,山财大街5号,,29,27,22,20,20,54,,57,56,14,18,8,8,0.7,0.7
2026-01-19T1000,4109A,116.9744,36.6889,济南市,无影山路12号,,48,48,32,26,26,39,,50,48,18,16,4,4,0.8,0.6
2026-01-19T1000,1653A,116.6229,35.4288,济宁市,火炬城,,49,49,43,31,35,52,,53,53,8,20,2,2,0.4,0.5
2026-01-19T1000,3500A,116.5808,35.3703,济宁市,北湖一中,,49,45,37,34,36,49,,50,50,15,26,3,3,0.6,0.7
2026-01-19T1000,3501A,116.8251,35.5592,济宁市,服务中心,,38,38,36,24,26,49,,50,50,10,24,10,8,0.7,0.8
2026-01-19T1000,3678A,116.5907,35.4054,济宁市,市第七中学,,49,49,48,24,30,53,,54,54,9,22,6,6,0.5,0.7
2026-01-19T1000,4111A,116.6075,35.4566,济宁市,任和路,,46,46,45,26,29,49,,50,50,10,22,4,2,0.7,0.8
2026-01-19T1000,4112A,116.5648,35.3921,济宁市,文体南路1号,,45,45,44,31,32,50,,51,51,7,21,1,2,0.5,0.6
2026-01-19T1000,2255A,130.2749,46.8028,佳木斯市,佳纺,细颗粒物(PM2.5),87,81,85,64,69,49,,28,28,16,37,13,10,0.6,0.9
2026-01-19T1000,2257A,130.3258,46.7975,佳木斯市,环保局,细颗粒物(PM2.5),97,73,75,72,79,57,,35,35,15,41,9,11,0.6,0.8
2026-01-19T1000,4285A,130.363,46.806,佳木斯市,顺和街,细颗粒物(PM2.5),70,66,68,51,54,52,,,,19,40,13,13,0.5,0.7
2026-01-19T1000,4286A,130.3952,46.8268,佳木斯市,长安路196号,,,57,71,47,61,53,,33,33,15,39,,9,0.5,0.7
2026-01-19T1000,1252A,120.7439,30.778,嘉兴市,清河小学,,26,20,50,18,26,62,,61,61,14,23,4,6,0.4,0.3
2026-01-19T1000,1253A,120.7261,30.7477,嘉兴市,嘉兴学院,,26,26,53,10,23,65,,62,62,19,25,4,5,0.6,0.6
2026-01-19T1000,2872A,120.7845,30.7524,嘉兴市,南湖区残联,,21,20,43,9,24,65,,61,61,15,23,3,4,0.6,0.6
2026-01-19T1000,3407A,120.6915,30.7741,嘉兴市,秀洲住建,,22,22,50,13,27,57,,58,58,21,25,5,6,0.6,0.5
2026-01-19T1000,1945A,98.291,39.7705,嘉峪关市,气象局,,48,48,49,12,14,49,,59,57,9,4,14,9,0.4,0.3
2026-01-19T1000,2884A,98.2672,39.7978,嘉峪关市,酒钢宾馆,颗粒物(PM10),52,53,52,17,13,47,,56,53,12,6,12,13,0.5,0.7
2026-01-19T1000,3248A,98.2644,39.7723,嘉峪关市,雄关区,,45,45,41,20,14,50,,60,58,11,26,9,12,0.5,0.4
2026-01-19T1000,1383A,113.1063,22.6058,江门市,北街,细颗粒物(PM2.5),87,81,55,64,35,74,,73,67,40,24,/,/,/,/
2026-01-19T1000,1384A,113.073,22.5835,江门市,西区,细颗粒物(PM2.5),77,92,63,56,34,74,,70,60,40,38,/,/,/,/
2026-01-19T1000,1385A,113.0218,22.531,江门市,圭峰西,细颗粒物(PM2.5),69,68,53,50,35,91,,81,76,27,21,/,/,/,/
2026-01-19T1000,1386A,113.0826,22.5947,江门市,东湖,,,91,58,39,34,,,74,61,45,29,12,9,0.8,0.6
2026-01-19T1000,3311A,113.1077,22.5647,江门市,江海富民,颗粒物(PM10),74,97,63,38,34,84,,85,76,50,30,/,/,0.8,0.7
2026-01-19T1000,3449A,113.0496,22.4669,江门市,新会银湖,细颗粒物(PM2.5),80,70,56,59,39,72,,22,19,40,33,9,8,0.6,0.4
2026-01-19T1000,3335A,113.3137,35.2643,焦作市,马村街道办,颗粒物(PM10),92,133,70,32,47,43,,38,38,13,18,4,4,0.5,0.5
2026-01-19T1000,3336A,113.2464,35.2374,焦作市,焦作技师学院,颗粒物(PM10),108,166,77,36,46,39,,35,35,12,17,7,7,0.9,0.9
2026-01-19T1000,3477A,113.1656,35.2536,焦作市,中站许衡医院,颗粒物(PM10),93,135,82,47,55,42,,36,36,14,20,3,3,0.7,0.8
2026-01-19T1000,3981A,113.2456,35.18,焦作市,原李万街道办,颗粒物(PM10),53,56,62,34,37,41,,39,39,15,17,4,4,0.5,0.5
2026-01-19T1000,4264A,113.234,35.219,焦作市,新安路1731号,颗粒物(PM10),94,138,82,43,50,39,,36,36,8,12,6,5,0.5,0.6
2026-01-19T1000,4295A,113.2722,35.2121,焦作市,人民路3066号,颗粒物(PM10),66,81,65,38,42,35,,34,34,18,16,4,4,0.8,0.9
2026-01-19T1000,1708A,116.3701,23.5345,揭阳市,新兴,细颗粒物(PM2.5),138,131,98,105,76,45,,34,26,53,47,11,12,0.9,0.9
2026-01-19T1000,1709A,116.3261,23.5442,揭阳市,西马,细颗粒物(PM2.5),130,159,98,99,70,42,,32,22,43,34,9,7,1.0,0.8
2026-01-19T1000,1710A,116.361,23.5627,揭阳市,东兴,细颗粒物(PM2.5),129,137,94,98,70,39,,22,19,49,38,19,14,/,/
2026-01-19T1000,1711A,116.4151,23.5295,揭阳市,渔湖,颗粒物(PM10),91,132,84,58,42,26,,22,13,59,39,8,8,/,/
2026-01-19T1000,3320A,116.4028,23.5699,揭阳市,曲溪,细颗粒物(PM2.5),89,121,90,66,54,21,,33,26,81,43,65,16,1.1,1
2026-01-19T1000,1944A,102.1691,38.5166,金昌市,天庆家园,颗粒物(PM10),64,78,43,23,11,42,,58,53,18,7,116,8,0.6,0.5
2026-01-19T1000,4022A,102.1648,38.5369,金昌市,金川区人防中心,颗粒物(PM10),57,63,46,27,20,51,,60,57,11,6,23,5,0.8,0.5
2026-01-19T1000,4239A,102.193042,38.531887,金昌市,长春路96号,颗粒物(PM10),57,63,42,14,9,49,,56,54,8,4,6,5,0.8,0.6
2026-01-19T1000,1262A,119.6478,29.0773,金华市,十五中,细颗粒物(PM2.5),103,120,120,77,74,16,,29,22,54,41,4,4,0.9,0.8
2026-01-19T1000,1263A,119.6859,29.1032,金华市,监测站,细颗粒物(PM2.5),88,106,120,65,62,5,,18,11,63,52,3,3,0.8,0.7
2026-01-19T1000,3659A,119.656,29.1132,金华市,气象局,颗粒物(PM10),96,141,121,58,50,2,,8,3,60,56,4,4,0.8,0.5
2026-01-19T1000,1767A,121.1114,41.0879,锦州市,南山,,21,12,19,7,10,67,,68,67,8,8,17,10,0.6,0.5
2026-01-19T1000,1768A,121.060361,40.842794,锦州市,开发区,颗粒物(PM10),53,55,30,20,16,52,,44,44,18,18,14,10,0.5,0.4
2026-01-19T1000,1769A,121.1836,41.1118,锦州市,百股街道,,35,35,29,9,14,59,,54,54,11,14,10,11,0.6,0.7
2026-01-19T1000,1770A,121.1176,41.1224,锦州市,天安街道,,,15,25,6,9,,,72,72,8,10,13,8,0.7,0.6
2026-01-19T1000,1771A,121.1303,41.1385,锦州市,北湖公园,,21,19,22,10,12,65,,63,63,5,7,12,10,0.5,0.6
2026-01-19T1000,2160A,112.8496,35.5051,晋城市,自来水公司,细颗粒物(PM2.5),74,60,71,54,52,26,,17,17,15,23,3,3,0.8,0.9
2026-01-19T1000,2162A,112.8509,35.4886,晋城市,市环保局,细颗粒物(PM2.5),77,77,65,56,48,30,,21,21,15,21,3,3,0.9,0.9
2026-01-19T1000,3620A,112.8258,35.4804,晋城市,泽州一中,细颗粒物(PM2.5),64,72,66,46,47,30,,21,21,15,22,2,2,0.7,0.8
2026-01-19T1000,4078A,112.8246,35.5152,晋城市,前书院路,颗粒物(PM10),62,74,74,43,43,25,,17,17,15,22,2,3,0.5,0.8
2026-01-19T1000,4079A,112.8864,35.4773,晋城市,祥云街666号,细颗粒物(PM2.5),77,59,68,56,58,26,,18,18,9,13,2,2,0.6,0.7
2026-01-19T1000,2174A,112.6992,37.6984,晋中市,榆次区政府,颗粒物(PM10),56,61,98,20,63,42,,12,12,25,43,9,8,0.2,0.4
2026-01-19T1000,2865A,112.7195,37.683,晋中市,榆次三中,,,66,98,14,58,,,2,2,23,36,10,8,0.3,0.5
2026-01-19T1000,4080A,112.7375,37.7215,晋中市,广安街188号,,44,44,106,21,66,43,,11,11,21,40,12,8,0.3,0.6
2026-01-19T1000,4200A,112.7478,37.6954,晋中市,迎宾街26号,颗粒物(PM10),60,70,99,19,64,40,,9,9,22,34,11,8,0.5,0.6
2026-01-19T1000,2439A,112.2012,31.048,荆门市,竹园小学,细颗粒物(PM2.5),64,62,71,46,51,47,,50,50,21,24,1,2,0.4,0.6
2026-01-19T1000,2440A,112.1968,30.9892,荆门市,掇刀,细颗粒物(PM2.5),65,64,71,47,55,42,,43,43,15,20,1,3,0.5,0.7
2026-01-19T1000,3012A,112.1849,31.0361,荆门市,西山林语,细颗粒物(PM2.5),59,52,71,42,50,40,,43,43,16,21,6,6,0.6,0.6
2026-01-19T1000,3547A,112.1631,31.0134,荆门市,龙泉中学南校,细颗粒物(PM2.5),75,60,75,55,56,45,,46,46,3,12,2,2,1.0,1
2026-01-19T1000,4124A,112.2213,31.0654,荆门市,新台西路6号,细颗粒物(PM2.5),69,57,67,50,57,39,,42,42,11,15,7,7,0.6,0.7
2026-01-19T1000,1844A,112.2493,30.3198,荆州市,市图书馆,细颗粒物(PM2.5),54,39,69,38,74,36,,37,37,15,20,4,4,0.8,0.9
2026-01-19T1000,1845A,112.2009,30.3543,荆州市,市委党校,细颗粒物(PM2.5),54,43,77,38,72,34,,34,34,16,23,2,2,0.7,0.8
2026-01-19T1000,3194A,112.2749,30.3124,荆州市,管委会,细颗粒物(PM2.5),53,37,76,37,76,34,,35,35,16,21,4,5,0.7,0.9
2026-01-19T1000,4268A,112.1722,30.3366,荆州市,学苑路85号,,46,37,76,32,58,40,,41,41,11,18,4,4,0.8,0.9
2026-01-19T1000,2343A,117.2114,29.2931,景德镇市,老干部活动中心,细颗粒物(PM2.5),98,85,82,73,70,33,,49,43,16,29,4,6,0.9,1.1
2026-01-19T1000,2344A,117.1893,29.2789,景德镇市,兽医站,细颗粒物(PM2.5),67,82,84,48,53,50,,57,53,18,27,3,4,0.8,0.9
2026-01-19T1000,2346A,117.246,29.2958,景德镇市,陶研所,细颗粒物(PM2.5),92,,66,68,60,40,,30,24,18,22,3,4,0.8,0.8
2026-01-19T1000,4289A,117.154766,29.256967,景德镇市,青少年活动中心,细颗粒物(PM2.5),77,86,101,56,63,47,,53,51,20,42,4,13,/,/
2026-01-19T1000,1803A,115.9873,29.6816,九江市,十里,,33,32,118,23,90,36,,48,42,26,32,4,6,1.0,1.2
2026-01-19T1000,1804A,115.9583,29.7047,九江市,茅山头,,38,,117,26,82,17,,26,19,21,24,7,9,0.8,1
2026-01-19T1000,1805A,115.9877,29.7295,九江市,西园,,22,22,106,3,78,24,,36,30,38,47,3,3,0.8,1
2026-01-19T1000,1808A,115.9112,29.6038,九江市,综合工业园,,29,27,122,20,104,25,,30,25,31,50,2,4,1.4,1.1
2026-01-19T1000,3190A,116.0254,29.6995,九江市,外国语学校,,40,40,136,16,84,17,,28,22,28,33,8,9,0.9,1.1
2026-01-19T1000,4253A,116.010205,29.659402,九江市,莲花大道8号,,45,45,132,8,99,20,,31,25,17,19,2,4,0.6,0.9
2026-01-19T1000,4240A,98.495752,39.733935,酒泉市,玉门东路5号,,46,46,53,17,15,53,,62,60,6,2,8,8,0.4,0.3
2026-01-19T1000,4241A,98.5099,39.7506,酒泉市,北大街108号,,39,39,44,13,13,53,,58,56,7,5,8,8,0.3,0.3
2026-01-19T1000,2698A,76.0071,39.466,喀什地区,巡警大队,颗粒物(PM10),500,908,511,179,89,45,,50,50,20,18,3,4,0.7,0.7
2026-01-19T1000,2699A,75.9756,39.4693,喀什地区,吾办,颗粒物(PM10),500,751,432,166,87,55,,58,58,9,13,5,7,0.5,0.6
2026-01-19T1000,4027A,75.9485,39.4688,喀什地区,老干局,颗粒物(PM10),500,948,527,150,82,55,,58,58,8,10,2,3,0.4,0.4
2026-01-19T1000,1824A,114.3389,34.778,开封市,肿瘤医院,,50,50,52,33,40,40,,34,34,17,21,4,3,0.6,0.6
2026-01-19T1000,1826A,114.2884,34.7966,开封市,世纪星幼儿园,,49,49,50,33,44,43,,34,34,15,19,4,5,0.6,0.6
2026-01-19T1000,3147A,114.3434,34.8101,开封市,龙亭公园,颗粒物(PM10),51,51,49,25,42,39,,34,34,14,17,6,5,0.6,0.5
2026-01-19T1000,3210A,114.3645,34.7955,开封市,汴京公园,,43,41,48,30,42,38,,34,34,10,15,4,3,1.1,1
2026-01-19T1000,3473A,114.2485,34.8306,开封市,技师学院,,48,43,50,33,42,39,,32,32,13,17,5,4,0.8,0.8
2026-01-19T1000,3592A,114.4518,34.7503,开封市,祥符区生态环境局,颗粒物(PM10),52,53,59,32,42,36,,32,32,23,25,3,3,0.6,0.5
2026-01-19T1000,1951A,84.886,45.6029,克拉玛依市,长征新村,,29,29,24,18,16,18,,29,28,34,17,5,6,0.8,0.5
2026-01-19T1000,1952A,84.8894,45.5827,克拉玛依市,南林小区,,39,32,25,27,14,6,,23,17,45,15,6,4,0.8,0.6
2026-01-19T1000,1954A,84.896,44.3328,克拉玛依市,独山子区,颗粒物(PM10),69,88,92,42,59,5,,42,37,74,43,6,5,1.5,0.7
2026-01-19T1000,1955A,85.6888,46.0909,克拉玛依市,乌尔禾区商贸楼,,21,21,19,14,14,38,,33,32,25,18,6,6,0.6,0.5
2026-01-19T1000,3612A,85.1045,45.6895,克拉玛依市,白碱滩区新站,,40,40,30,21,16,13,,17,14,36,25,7,8,0.5,0.2
2026-01-19T1000,2697A,76.1457,39.7143,克孜勒苏柯尔克孜自治州,市人民政府,颗粒物(PM10),500,1010,697,201,114,61,,67,66,7,7,3,3,0.4,0.3
2026-01-19T1000,3665A,76.1654,39.7157,克孜勒苏柯尔克孜自治州,克州文化中心,颗粒物(PM10),500,1234,751,195,105,58,,64,63,8,7,2,3,0.5,0.4
2026-01-19T1000,1450A,102.8203,24.889,昆明市,呈贡新区,,41,41,35,28,19,48,,47,47,25,20,8,6,0.8,0.7
2026-01-19T1000,1452A,102.7253,25.0904,昆明市,龙泉镇,颗粒物(PM10),57,64,35,38,20,12,,24,14,56,26,4,4,1.0,0.5
2026-01-19T1000,1453A,102.7267,25.0378,昆明市,东风东路,颗粒物(PM10),78,106,40,40,23,12,,48,34,68,24,9,8,1.0,0.4
2026-01-19T1000,1454A,102.6744,25.0671,昆明市,金鼎山,颗粒物(PM10),58,65,37,30,21,29,,41,33,45,23,7,6,1.1,0.8
2026-01-19T1000,1455A,102.6643,25.0401,昆明市,碧鸡广场,颗粒物(PM10),55,60,39,28,21,25,,33,26,43,26,8,7,0.9,0.5
2026-01-19T1000,3179A,102.7491,25.012,昆明市,官渡区博物馆,颗粒物(PM10),66,81,42,43,24,11,,31,18,67,28,8,6,1.1,0.6
2026-01-19T1000,3375A,102.8016,24.8336,昆明市,青年创业园,颗粒物(PM10),52,53,34,30,22,36,,25,18,40,23,6,7,0.8,0.6
2026-01-19T1000,3550A,102.8,24.9787,昆明市,昆明学院,,47,47,38,27,21,48,,36,32,29,22,7,5,0.6,0.5
2026-01-19T1000,3551A,102.5969,24.6738,昆明市,晋宁区生态环境分局,,32,30,37,22,20,32,,18,16,22,15,2,2,0.8,0.6
2026-01-19T1000,3552A,102.6673,24.9861,昆明市,云天化总部,颗粒物(PM10),53,55,32,36,19,17,,42,28,52,21,10,9,0.6,0.3
2026-01-19T1000,1456A,91.132,29.6515,拉萨市,八廓街,,,,30,,17,,,91,,,21,,8,,0.6
2026-01-19T1000,1457A,91.1221,29.6748,拉萨市,市环保局,颗粒物(PM10),78,105,47,53,24,13,,63,55,74,32,17,10,2.8,1.3
2026-01-19T1000,1458A,91.0874,29.6476,拉萨市,区监测站,,45,45,20,10,11,22,,83,71,72,25,7,4,1.4,0.9
2026-01-19T1000,1459A,91.1774,29.6541,拉萨市,西藏大学,,20,20,24,11,13,46,,74,70,23,23,5,6,0.7,0.8
2026-01-19T1000,1460A,90.9798,29.6586,拉萨市,区辐射站,颗粒物(PM10),66,81,50,38,23,19,,51,46,69,37,10,6,1.4,1
2026-01-19T1000,1461A,91.0831,29.6292,拉萨市,拉萨火车站,,21,21,22,11,12,62,,91,85,26,18,4,4,0.9,0.7
2026-01-19T1000,2520A,109.2203,23.7252,来宾市,来宾技工学校,细颗粒物(PM2.5),128,151,114,97,83,16,,10,9,37,31,21,10,1.2,1.1
2026-01-19T1000,3535A,109.1781,23.7293,来宾市,兴宾区政府,细颗粒物(PM2.5),132,127,116,100,92,27,,26,19,23,23,10,13,1.1,1
2026-01-19T1000,4002A,109.2312,23.7428,来宾市,中南小学,细颗粒物(PM2.5),137,156,112,104,85,17,,5,5,38,38,12,6,1.2,1
2026-01-19T1000,1479A,103.8309,36.0467,兰州市,铁路设计院,,,,,,,,,,,,,,,,
2026-01-19T1000,3241A,103.7439,36.0841,兰州市,百合公园,颗粒物(PM10),59,67,73,22,22,29,,50,44,29,11,4,7,0.8,0.5
2026-01-19T1000,3242A,103.9613,35.9985,兰州市,和平,颗粒物(PM10),57,63,83,19,22,43,,50,46,21,13,6,6,0.8,0.6
2026-01-19T1000,4236A,103.629272,36.093822,兰州市,庄浪东路808号,颗粒物(PM10),62,73,81,28,30,39,,52,48,24,12,20,14,0.5,0.4
2026-01-19T1000,4237A,103.7251,36.104344,兰州市,安宁西路88号,颗粒物(PM10),60,70,86,23,26,48,,54,51,17,11,8,11,0.3,0.2
2026-01-19T1000,4238A,103.846982,36.067567,兰州市,北滨河东路1号,颗粒物(PM10),55,59,76,22,30,47,,55,52,19,13,7,6,0.6,0.5
2026-01-19T1000,1067A,116.6712,39.5109,廊坊市,药材公司,,46,46,41,3,17,58,,63,61,5,16,1,5,0.3,0.6
2026-01-19T1000,1068A,116.7215,39.5592,廊坊市,开发区,,43,43,40,3,17,59,,65,63,7,17,1,4,0.2,0.5
2026-01-19T1000,1070A,116.7246,39.5273,廊坊市,北华航天学院,,,33,47,7,19,,,65,63,6,15,1,5,,0.6
2026-01-19T1000,2919A,116.7022,39.5454,廊坊市,河北工业大学,,38,38,39,8,19,58,,63,61,3,13,3,4,0.3,0.5
2026-01-19T1000,2536A,103.7629,29.5844,乐山市,牛耳桥,,42,34,153,29,138,43,,29,29,18,43,4,6,0.7,1.2
2026-01-19T1000,2537A,103.7501,29.6002,乐山市,市第三水厂,,39,33,152,27,137,39,,27,27,24,43,6,7,0.7,1.2
2026-01-19T1000,2538A,103.7571,29.5664,乐山市,市监测站,,49,,164,34,142,44,,37,37,13,30,5,7,0.7,1.1
2026-01-19T1000,3361A,103.7313,29.563,乐山市,理工大学,,39,30,164,27,147,49,,33,33,9,30,5,7,0.4,0.9
2026-01-19T1000,2599A,100.2497,26.8802,丽江市,丽江古城,颗粒物(PM10),81,112,36,33,17,31,,68,59,46,16,11,10,1.0,0.5
2026-01-19T1000,2600A,100.2203,26.8906,丽江市,市中心,,25,15,24,7,10,77,,77,75,14,14,6,6,0.4,0.5
2026-01-19T1000,1267A,119.9141,28.4513,丽水市,监测站大楼,细颗粒物(PM2.5),75,64,67,55,50,12,,19,19,38,43,6,6,0.8,0.8
2026-01-19T1000,1268A,119.93,28.4589,丽水市,莲都小学,颗粒物(PM10),69,88,64,44,31,18,,19,14,42,41,/,/,/,/
2026-01-19T1000,1269A,119.8794,28.4232,丽水市,余庄前,细颗粒物(PM2.5),85,109,62,63,40,3,,2,1,53,30,6,4,0.9,0.5
2026-01-19T1000,1173A,119.1759,34.5885,连云港市,市环境监测站,,27,27,27,17,18,52,,54,54,13,14,9,9,0.4,0.3
2026-01-19T1000,3000A,119.3577,34.6971,连云港市,德源药业,,44,44,38,17,17,57,,56,56,9,14,5,5,0.7,0.6
2026-01-19T1000,3007A,119.178,34.8442,连云港市,新城一中,,37,37,34,24,28,51,,54,53,15,20,13,12,1.2,1
2026-01-19T1000,3008A,119.3607,34.7519,连云港市,胡沟管理处,,22,22,22,12,15,60,,60,60,10,16,7,7,0.8,0.5
2026-01-19T1000,3009A,119.1478,34.5913,连云港市,矿山设计院,,31,31,30,14,17,53,,52,52,9,14,7,7,0.5,0.6
2026-01-19T1000,3434A,119.2414,34.6539,连云港市,工贸学校,,27,27,31,17,20,51,,46,46,8,12,10,9,0.5,0.5
2026-01-19T1000,3664A,119.4171,34.734,连云港市,连云街道,,22,22,32,13,18,54,,55,55,20,23,4,3,0.5,0.5
2026-01-19T1000,2573A,102.2629,27.8981,凉山彝族自治州,西昌市政府,细颗粒物(PM2.5),80,75,65,59,49,16,,39,30,46,24,12,10,1.3,0.8
2026-01-19T1000,2574A,102.2686,27.885,凉山彝族自治州,凉山州政府,细颗粒物(PM2.5),69,74,72,50,51,14,,21,18,47,30,9,10,1.0,0.8
2026-01-19T1000,4229A,102.2342,27.8859,凉山彝族自治州,凯乐南路30号,细颗粒物(PM2.5),87,111,81,64,49,6,,11,6,56,42,10,10,1.1,0.8
2026-01-19T1000,2212A,123.1978,41.2036,辽阳市,宏伟区,,32,,38,22,35,65,,46,46,4,18,7,10,0.2,0.5
2026-01-19T1000,2213A,123.1684,41.2497,辽阳市,新华园,,20,20,35,12,25,59,,41,41,9,24,5,10,0.2,0.3
2026-01-19T1000,2214A,123.2355,41.2663,辽阳市,滨河路,,25,,43,17,32,57,,30,30,6,29,7,10,0.3,0.6
2026-01-19T1000,4083A,123.153,41.2874,辽阳市,铁西路150号,,20,17,37,12,31,63,,28,28,9,31,9,12,0.5,0.8
2026-01-19T1000,2227A,125.1359,42.8845,辽源市,环保局,,23,23,53,6,34,64,,50,50,6,28,5,6,0.3,0.8
2026-01-19T1000,4085A,125.0998,42.9134,辽源市,安宁大街333号,,40,40,49,14,34,62,,51,51,8,17,8,9,0.4,0.6
2026-01-19T1000,1625A,115.9789,36.4372,聊城市,区政府,,46,46,36,22,21,39,,45,40,34,24,13,11,0.9,0.8
2026-01-19T1000,3200A,115.9772,36.4986,聊城市,监控中心,,33,33,30,12,26,50,,45,42,22,18,8,7,0.8,0.8
2026-01-19T1000,3513A,116.0443,36.436,聊城市,九州社区,颗粒物(PM10),55,60,42,24,28,46,,51,46,18,8,8,3,0.8,0.6
2026-01-19T1000,4018A,116.0564,36.4609,聊城市,星美广场,颗粒物(PM10),55,60,43,20,26,36,,40,36,21,14,8,4,0.6,0.6
2026-01-19T1000,4113A,116.0091,36.4495,聊城市,利民路,,42,42,37,20,25,35,,39,34,30,23,10,8,0.9,0.8
2026-01-19T1000,2632A,94.3683,29.6373,林芝市,林芝监测站,,20,15,17,14,8,42,,67,57,18,6,3,3,0.6,0.4
2026-01-19T1000,2633A,94.3616,29.6634,林芝市,林芝人民医院,,31,31,21,17,8,41,,68,61,22,8,1,2,0.5,0.3
2026-01-19T1000,2603A,100.0779,23.8981,临沧市,市环保局,,43,31,42,30,39,24,,33,27,12,11,5,5,0.8,0.7
2026-01-19T1000,2604A,100.0894,23.882,临沧市,市气象局,,50,50,42,28,24,19,,36,29,15,11,3,4,0.6,0.4
2026-01-19T1000,1733A,111.5552,36.0791,临汾市,临钢医院,颗粒物(PM10),70,90,105,17,53,44,,38,38,17,29,4,10,0.6,1.1
2026-01-19T1000,1734A,111.4984,36.0734,临汾市,技工学校,,45,45,93,21,52,44,,40,40,16,32,2,8,0.3,0.7
2026-01-19T1000,1736A,111.5017,36.0857,临汾市,市委,,38,38,89,3,42,52,,46,46,16,28,5,10,0.6,1
2026-01-19T1000,3018A,111.5048,36.1015,临汾市,唐尧大酒店,颗粒物(PM10),55,60,98,6,45,49,,44,44,19,31,1,6,0.5,0.9
2026-01-19T1000,4244A,111.4879,36.053,临汾市,启星学校,颗粒物(PM10),51,51,94,24,56,44,,43,43,20,37,5,10,0.6,1.1
2026-01-19T1000,4271A,103.2464,35.6123,临夏回族自治州,滨河东路1号,颗粒物(PM10),64,78,103,20,25,40,,44,43,19,14,10,10,0.4,0.4
2026-01-19T1000,4310A,103.207136,35.599807,临夏回族自治州,新华街21号,颗粒物(PM10),56,61,96,22,23,37,,48,45,9,12,14,12,0.5,0.4
2026-01-19T1000,1618A,118.3429,35.0532,临沂市,沂河小区,,,34,34,26,32,54,,56,55,16,20,,8,0.5,0.6
2026-01-19T1000,1619A,118.2962,35.0568,临沂市,鲁南制药厂,,36,34,27,25,27,52,,56,54,12,17,8,8,0.6,0.6
2026-01-19T1000,1620A,118.2793,34.9976,临沂市,新光毛纺厂,,36,36,26,22,27,52,,50,50,15,25,7,7,0.6,0.6
2026-01-19T1000,1621A,118.3955,35.0889,临沂市,河东保险公司,,31,31,33,21,27,58,,58,58,10,17,8,7,0.6,0.6
2026-01-19T1000,3370A,118.3563,35.0215,临沂市,十里堡居委,,27,27,26,14,18,63,,64,63,16,21,8,8,0.5,0.6
2026-01-19T1000,3496A,118.359,35.1067,临沂市,南坊新区,,35,31,29,24,24,56,,59,58,11,18,8,7,0.8,0.6
2026-01-19T1000,3860A,118.3915,35.0297,临沂市,皇山花园小区,,35,29,30,24,26,58,,58,57,13,22,10,10,0.6,0.7
2026-01-19T1000,1870A,109.4854,24.3898,柳州市,柳东小学,细颗粒物(PM2.5),82,69,74,60,62,29,,40,34,41,24,42,32,0.8,0.7
2026-01-19T1000,1871A,109.4109,24.3304,柳州市,环保监测站,细颗粒物(PM2.5),83,79,88,61,66,23,,14,14,44,38,7,6,1.2,1.2
2026-01-19T1000,1872A,109.3886,24.3408,柳州市,河西水厂,"颗粒物(PM10),细颗粒物(PM2.5)",77,103,115,56,71,18,,3,3,45,45,7,8,1.1,1.2
2026-01-19T1000,1873A,109.4263,24.2951,柳州市,市四中,细颗粒物(PM2.5),92,96,101,68,65,19,,7,7,53,47,11,10,1.2,1
2026-01-19T1000,1874A,109.396,24.3658,柳州市,市九中,细颗粒物(PM2.5),90,88,88,67,75,36,,27,27,30,35,20,16,0.8,1
2026-01-19T1000,1875A,109.4912,24.3164,柳州市,古亭山,细颗粒物(PM2.5),119,101,74,90,51,19,,8,8,59,40,9,8,0.9,0.8
2026-01-19T1000,3402A,109.5422,24.3994,柳州市,市二中,细颗粒物(PM2.5),95,,74,71,54,19,,11,11,42,32,51,21,0.9,0.8
2026-01-19T1000,2307A,116.5078,31.7369,六安市,监测大楼,,14,14,73,9,44,25,,12,12,18,28,2,3,0.4,0.5
2026-01-19T1000,2308A,116.4738,31.7642,六安市,皖西学院,,12,12,71,8,39,28,,15,15,19,28,3,4,0.4,0.5
2026-01-19T1000,2309A,116.4997,31.7904,六安市,朝阳厂,,15,,66,10,39,25,,14,14,16,27,3,5,0.5,0.6
2026-01-19T1000,2310A,116.5566,31.7885,六安市,开发区,,18,,71,12,44,24,,14,14,22,30,3,4,0.5,0.6
2026-01-19T1000,2577A,104.8293,26.592,六盘水市,黄土坡,"颗粒物(PM10),细颗粒物(PM2.5)",60,69,55,43,41,16,,30,25,36,22,18,11,1.3,0.8
2026-01-19T1000,2579A,104.8481,26.5898,六盘水市,民中,"颗粒物(PM10),细颗粒物(PM2.5)",70,90,59,51,47,24,,39,31,40,24,13,9,1.1,0.8
2026-01-19T1000,2580A,104.9541,26.5506,六盘水市,双水,细颗粒物(PM2.5),54,51,54,38,38,53,,44,36,15,15,6,6,0.5,0.6
2026-01-19T1000,4151A,104.8899,26.5685,六盘水市,钟山大道中段564号,颗粒物(PM10),75,99,79,51,48,13,,21,13,33,22,11,11,1.1,1
2026-01-19T1000,2336A,117.022,25.1031,龙岩市,龙岩市监测站,细颗粒物(PM2.5),68,64,57,49,42,40,,25,25,36,36,22,29,1.0,0.8
2026-01-19T1000,2337A,117.0257,25.0662,龙岩市,闽西职业技术学院,细颗粒物(PM2.5),73,92,64,53,39,28,,42,33,41,28,12,14,1.1,0.8
2026-01-19T1000,2338A,117.0195,25.0306,龙岩市,龙岩学院,细颗粒物(PM2.5),70,67,48,51,37,49,,50,45,27,17,18,10,/,/
2026-01-19T1000,2885A,104.9344,33.3827,陇南市,滨江中学,,,100,92,41,40,48,,52,51,9,21,3,6,,1
2026-01-19T1000,3247A,104.9551,33.3709,陇南市,市总工会,颗粒物(PM10),65,79,87,21,42,50,,50,50,10,21,7,9,0.4,0.7
2026-01-19T1000,2488A,111.9984,27.7346,娄底市,市监测站,,25,,99,17,62,21,,14,14,18,26,7,7,0.5,0.8
2026-01-19T1000,2491A,111.9888,27.7035,娄底市,市政府,,19,13,93,13,75,19,,12,12,17,28,4,5,0.7,0.9
2026-01-19T1000,4127A,111.9812,27.7591,娄底市,涟钢职大,,27,27,111,10,79,19,,10,10,15,21,3,4,0.3,0.7
2026-01-19T1000,4128A,112.0303,27.7457,娄底市,娄底体校,,33,33,110,6,76,16,,10,10,14,20,2,2,0.4,0.8
2026-01-19T1000,1894A,105.4427,28.9063,泸州市,小市上码头,细颗粒物(PM2.5),122,108,152,92,125,25,,58,49,22,23,6,7,1.2,1.4
2026-01-19T1000,1895A,105.4241,28.8573,泸州市,兰田宪桥,细颗粒物(PM2.5),122,138,204,92,136,32,,59,49,10,11,7,8,1.3,1.4
2026-01-19T1000,1896A,105.4378,28.8833,泸州市,市环监站,细颗粒物(PM2.5),112,118,164,84,121,24,,72,59,27,21,9,10,1.4,1.3
2026-01-19T1000,4272A,105.3689,28.7783,泸州市,纳溪中医医院,细颗粒物(PM2.5),127,104,142,96,151,32,,60,47,12,15,7,8,1.1,1.3
2026-01-19T1000,2183A,111.1447,37.5212,吕梁市,环保局,,30,30,90,12,28,51,,46,46,9,20,4,7,0.2,0.4
2026-01-19T1000,2185A,111.1285,37.5338,吕梁市,自来水公司,,,31,83,3,28,,,46,46,10,21,3,7,0.4,0.6
2026-01-19T1000,2867A,111.1225,37.5093,吕梁市,马茂庄小学,,40,40,89,8,29,46,,41,41,13,25,4,7,0.2,0.5
2026-01-19T1000,1812A,112.3934,34.6517,洛阳市,市委党校,细颗粒物(PM2.5),54,39,54,38,54,41,,35,35,18,28,7,7,0.7,0.8
2026-01-19T1000,1815A,112.494,34.6883,洛阳市,河南林校,,45,45,58,30,45,43,,34,34,14,25,7,7,0.6,0.7
2026-01-19T1000,1816A,112.3843,34.623,洛阳市,开发区管委会,细颗粒物(PM2.5),54,,60,38,49,44,,37,37,16,27,5,5,0.7,0.8
2026-01-19T1000,1817A,112.4263,34.6249,洛阳市,市委新办公区,细颗粒物(PM2.5),53,42,61,37,50,45,,38,38,16,26,7,7,0.4,0.6
2026-01-19T1000,3340A,112.6005,34.6323,洛阳市,伊滨,细颗粒物(PM2.5),55,44,61,39,53,45,,41,41,11,23,6,6,0.6,0.6
2026-01-19T1000,3341A,112.495,34.6338,洛阳市,中移产业园,细颗粒物(PM2.5),58,44,57,41,52,40,,32,32,12,25,6,7,0.5,0.7
2026-01-19T1000,3593A,112.5736,34.8993,洛阳市,吉利监测站,颗粒物(PM10),53,56,58,36,49,41,,36,36,13,24,6,7,0.7,0.8
2026-01-19T1000,3635A,112.3678,34.6623,洛阳市,河科大西苑校区,,48,41,56,33,44,42,,37,37,22,28,7,6,0.8,0.9
2026-01-19T1000,3636A,112.4387,34.678,洛阳市,英才小学,细颗粒物(PM2.5),60,46,61,43,54,39,,32,32,19,29,8,7,0.5,0.7
2026-01-19T1000,4214A,112.460027,34.694929,洛阳市,春都路1号院,颗粒物(PM10),51,52,66,33,41,38,,32,32,12,22,7,6,0.7,0.9
2026-01-19T1000,2399A,114.051,33.5721,漯河市,三五一五工厂,细颗粒物(PM2.5),62,49,47,44,43,33,,32,32,10,15,5,6,0.7,0.8
2026-01-19T1000,2400A,114.0055,33.5698,漯河市,漯河大学,细颗粒物(PM2.5),58,49,51,41,40,31,,29,29,7,12,4,4,0.6,0.6
2026-01-19T1000,2401A,114.0134,33.5826,漯河市,市水利局,细颗粒物(PM2.5),64,53,49,46,44,32,,30,30,13,17,3,3,0.6,0.6
2026-01-19T1000,2402A,114.0261,33.5697,漯河市,市广电局,细颗粒物(PM2.5),60,49,46,43,42,33,,31,31,9,14,5,5,0.6,0.7
2026-01-19T1000,3478A,113.9691,33.568,漯河市,市图书馆,细颗粒物(PM2.5),68,64,58,49,43,30,,28,28,10,16,3,4,0.9,0.8
2026-01-19T1000,4250A,114.089259,33.588274,漯河市,韶山路11号,细颗粒物(PM2.5),65,54,54,47,45,29,,28,28,7,12,5,5,0.7,0.8
2026-01-19T1000,1798A,118.5084,31.6838,马鞍山市,湖东路四小,,14,,65,3,39,42,,50,50,15,25,2,4,0.5,0.6
2026-01-19T1000,1799A,118.5019,31.6449,马鞍山市,开发区,,15,6,66,3,34,46,,52,52,13,24,3,4,0.5,0.6
2026-01-19T1000,3633A,118.4914,31.681,马鞍山市,雨山,,,,68,3,36,,,52,52,16,29,5,7,0.6,0.7
2026-01-19T1000,4191A,118.527362,31.722269,马鞍山市,慈湖高新区,,14,7,68,3,39,43,,51,51,14,26,4,5,0.6,0.6
2026-01-19T1000,1686A,111.0285,21.469,茂名市,电白南海,颗粒物(PM10),54,58,50,36,28,85,,89,85,17,14,11,9,0.8,0.7
2026-01-19T1000,1687A,110.9294,21.6533,茂名市,茂石化七小,颗粒物(PM10),63,75,50,36,25,66,,67,63,20,17,7,8,0.4,0.3
2026-01-19T1000,1688A,110.9108,21.6688,茂名市,健康路,颗粒物(PM10),51,51,39,29,22,77,,76,72,22,17,9,10,0.8,0.7
2026-01-19T1000,1689A,110.8592,21.6826,茂名市,高岭,颗粒物(PM10),85,119,64,41,22,39,,67,52,51,21,18,14,/,/
2026-01-19T1000,3450A,111.0101,21.5165,茂名市,电白水东,颗粒物(PM10),59,68,42,34,25,67,,82,76,23,12,17,10,/,/
2026-01-19T1000,2540A,103.8414,30.0871,眉山市,气象局,,48,48,153,19,131,39,,42,40,20,34,12,14,0.6,1
2026-01-19T1000,3148A,103.829,30.0563,眉山市,区人社局,,38,38,140,19,121,37,,40,39,21,37,10,14,0.6,0.9
2026-01-19T1000,4148A,103.8836,30.0695,眉山市,眉职院,,27,27,153,15,117,42,,42,41,16,30,1,2,0.7,1
2026-01-19T1000,1690A,116.1248,24.3307,梅州市,梅江月梅,细颗粒物(PM2.5),87,71,69,64,74,42,,18,18,31,38,/,/,/,/
2026-01-19T1000,1691A,116.0798,24.2719,梅州市,梅县新城,细颗粒物(PM2.5),68,79,72,49,53,31,,26,26,44,45,9,9,1.0,0.8
2026-01-19T1000,3315A,116.1234,24.2994,梅州市,梅龙,细颗粒物(PM2.5),62,61,65,44,44,47,,36,33,22,30,9,10,0.9,1
2026-01-19T1000,1878A,104.7775,31.4741,绵阳市,富乐山,,42,42,79,23,59,53,,61,58,13,15,8,8,0.3,0.5
2026-01-19T1000,1880A,104.6698,31.4668,绵阳市,高新区自来水公司,,30,30,72,17,53,43,,55,51,21,18,8,8,0.5,0.7
2026-01-19T1000,3491A,104.6899,31.5324,绵阳市,西科大附属小学,,32,32,76,13,55,40,,60,55,26,20,8,8,0.4,0.5
2026-01-19T1000,3492A,104.5647,31.5343,绵阳市,安州区旅游局,,46,46,81,17,57,37,,57,52,34,25,8,10,0.5,0.6
2026-01-19T1000,4146A,104.7092,31.4972,绵阳市,科技城新区公安局,颗粒物(PM10),51,51,84,12,48,53,,65,61,15,17,8,8,0.7,0.7
2026-01-19T1000,4226A,104.765114,31.453094,绵阳市,绵阳市气象局,,37,37,72,20,54,51,,60,56,16,19,7,4,0.4,0.6
2026-01-19T1000,1784A,129.61,44.561,牡丹江市,环保大楼,,48,45,53,33,36,42,,30,30,21,31,6,6,0.5,0.5
2026-01-19T1000,1787A,129.6364,44.6075,牡丹江市,机车工厂,,,,73,,49,,,48,5,,39,,7,,0.8
2026-01-19T1000,1788A,129.6386,44.5462,牡丹江市,第一中学,,49,,33,34,29,36,,27,27,20,27,8,7,0.8,0.7
2026-01-19T1000,4287A,129.5992,44.5964,牡丹江市,东晓云街98号,,,,71,,64,,,46,10,,34,,9,,1.0
2026-01-19T1000,2531A,105.0703,29.61,内江市,市监测站,颗粒物(PM10),53,55,109,34,108,53,,50,49,14,18,6,7,0.7,1
2026-01-19T1000,2533A,105.0657,29.5807,内江市,内江二中,颗粒物(PM10),57,64,123,28,103,44,,40,39,21,27,4,5,0.8,1.1
2026-01-19T1000,2534A,105.0407,29.5828,内江市,内江日报社,,44,44,97,25,98,46,,42,41,22,28,2,2,0.7,0.9
2026-01-19T1000,4147A,105.0433,29.6105,内江市,玉峰路西段888号,颗粒物(PM10),54,58,104,26,104,47,,43,42,19,25,1,2,0.7,1
2026-01-19T1000,2628A,92.0653,31.4846,那曲市,那曲监测站,细颗粒物(PM2.5),84,88,70,62,49,26,,24,24,56,36,24,14,1.8,1.7
2026-01-19T1000,4243A,92.0515,31.4787,那曲市,那曲市委宣传部,,23,23,27,13,18,50,,29,29,19,24,6,7,0.6,1
2026-01-19T1000,1291A,115.8887,28.7006,南昌市,省林业公司,颗粒物(PM10),64,78,124,44,106,25,,37,31,24,30,4,6,0.3,0.7
2026-01-19T1000,1292A,115.813,28.7443,南昌市,林科所,细颗粒物(PM2.5),64,58,129,46,104,19,,40,30,26,28,7,11,0.7,0.9
2026-01-19T1000,1294A,115.8518,28.687,南昌市,建工学校,颗粒物(PM10),66,81,159,45,113,17,,32,23,31,35,12,16,1.1,1.4
2026-01-19T1000,1295A,115.8926,28.6425,南昌市,象湖,细颗粒物(PM2.5),64,76,129,46,106,17,,32,25,21,28,8,11,0.7,1
2026-01-19T1000,3046A,115.9084,28.6062,南昌市,机电学校,颗粒物(PM10),77,103,156,46,113,21,,35,28,22,28,4,7,0.7,0.9
2026-01-19T1000,3690A,115.9718,28.7032,南昌市,外国语学校,颗粒物(PM10),136,222,157,66,118,20,,28,23,23,28,12,14,0.7,0.9
2026-01-19T1000,4106A,115.7923,28.6873,南昌市,工业二路,细颗粒物(PM2.5),62,66,136,44,111,18,,40,30,18,23,4,7,0.4,0.7
2026-01-19T1000,4192A,115.931587,28.686774,南昌市,南京东路235号,细颗粒物(PM2.5),77,101,151,56,109,17,,31,25,23,30,4,8,0.6,1.3
2026-01-19T1000,1906A,106.0791,30.8022,南充市,南充市委,,29,25,97,20,86,30,,40,38,22,29,4,4,0.7,0.9
2026-01-19T1000,1907A,106.1038,30.8215,南充市,南充炼油厂,,46,36,103,32,89,32,,45,42,15,18,5,6,0.9,1.1
2026-01-19T1000,4227A,106.108336,30.788436,南充市,梨树横街98号,,36,28,108,25,79,34,,48,45,21,26,5,6,0.6,0.8
2026-01-19T1000,4304A,106.1172,30.843,南充市,清泉寺北路188号,,24,24,89,16,78,37,,50,48,17,18,6,6,0.5,0.7
2026-01-19T1000,4305A,106.067,30.7616,南充市,同庆路1号,,,27,97,,86,32,,46,43,15,27,6,7,0.7,1
2026-01-19T1000,1151A,118.8033,32.1085,南京市,迈皋桥,,15,10,51,3,25,48,,66,61,14,15,3,3,0.7,0.6
2026-01-19T1000,1152A,118.7487,32.057,南京市,草场门,,10,6,52,3,26,30,,41,38,20,26,5,5,0.5,0.5
2026-01-19T1000,1154A,118.770105,32.004342,南京市,中华门,,17,17,53,3,25,38,,53,49,12,19,3,4,0.5,0.5
2026-01-19T1000,1155A,118.8059,32.0329,南京市,瑞金路,,12,,56,3,28,38,,54,51,8,16,4,4,0.9,0.8
2026-01-19T1000,1156A,118.7946,32.0774,南京市,玄武湖,,13,8,46,3,24,39,,57,53,16,22,4,4,0.8,0.8
2026-01-19T1000,1157A,118.6415,32.0964,南京市,浦口,,17,17,65,9,34,37,,49,47,16,25,7,8,1.2,1.2
2026-01-19T1000,1158A,118.730129,32.000956,南京市,奥体中心,,15,6,58,3,29,46,,64,60,11,21,6,7,0.5,0.5
2026-01-19T1000,1159A,118.9072,32.1047,南京市,仙林大学城,,14,6,53,3,24,42,,57,54,12,22,6,6,0.7,0.7
2026-01-19T1000,3422A,118.8443,31.919,南京市,江宁彩虹桥,,16,7,54,3,27,49,,65,63,12,22,3,4,0.5,0.6
2026-01-19T1000,3427A,118.8497,32.3599,南京市,六合雄州,,15,8,46,3,25,47,,57,52,9,15,2,3,0.4,0.5
2026-01-19T1000,4086A,118.7641,32.0841,南京市,新模范马路66号,,20,6,54,3,20,61,,81,75,1,12,4,4,1.0,0.9
2026-01-19T1000,4249A,118.8707617,31.34017673,南京市,汶溪路181号,,26,26,63,12,39,51,,56,55,15,27,3,7,0.7,0.8
2026-01-19T1000,4312A,119.019,31.6512,南京市,中山西路1号,,27,27,49,10,35,50,,56,55,13,21,4,4,0.6,0.6
2026-01-19T1000,1401A,108.3098,22.788,南宁市,二十一中,,,61,49,45,39,,,99,91,,18,,7,,0.8
2026-01-19T1000,1402A,108.3135,22.8529,南宁市,北湖,细颗粒物(PM2.5),67,63,59,48,45,59,,75,75,27,33,3,6,0.7,0.8
2026-01-19T1000,1403A,108.3205,22.8222,南宁市,市监测站,细颗粒物(PM2.5),55,53,53,39,42,65,,100,85,19,23,5,10,0.7,0.8
2026-01-19T1000,1404A,108.3828,22.8038,南宁市,大自然花园,细颗粒物(PM2.5),57,57,57,40,38,71,,111,96,17,19,5,8,0.8,0.8
2026-01-19T1000,1406A,108.2397,22.8462,南宁市,区农职院,颗粒物(PM10),60,70,60,42,39,56,,77,72,31,29,7,11,0.9,0.9
2026-01-19T1000,1407A,108.3285,22.7356,南宁市,英华嘉园,细颗粒物(PM2.5),60,55,60,43,42,56,,85,74,18,26,3,8,0.8,0.8
2026-01-19T1000,3401A,108.4829,22.762,南宁市,红星社区,细颗粒物(PM2.5),63,56,63,45,41,72,,70,66,8,20,4,6,0.6,0.6
2026-01-19T1000,4132A,108.2927,23.1477,南宁市,起凤路9号,细颗粒物(PM2.5),57,53,62,40,45,87,,131,116,12,16,2,4,0.6,0.7
2026-01-19T1000,4221A,108.2177,22.7774,南宁市,乐贤路16号,细颗粒物(PM2.5),65,66,62,47,40,52,,83,77,27,31,4,7,0.9,0.8
2026-01-19T1000,2332A,118.1682,26.6371,南平市,南平市监测站,细颗粒物(PM2.5),82,74,50,60,36,21,,12,12,28,28,21,6,1.0,0.7
2026-01-19T1000,2334A,118.1757,26.6276,南平市,南平七中,细颗粒物(PM2.5),74,68,45,54,33,23,,8,8,27,29,10,4,0.9,0.7
2026-01-19T1000,1168A,120.9056,31.9669,南通市,狼山街道,,18,6,28,3,13,56,,70,67,9,10,2,3,0.4,0.2
2026-01-19T1000,1170A,120.8635,32.0231,南通市,城中,,,,36,5,13,51,,68,65,14,14,4,5,0.7,0.6
2026-01-19T1000,1171A,120.9376,31.9301,南通市,星湖花园,,19,7,31,3,15,60,,76,73,16,16,3,4,0.3,0.2
2026-01-19T1000,1172A,120.8053,32.046,南通市,紫琅学院,,18,6,34,3,11,55,,74,70,13,14,2,3,0.5,0.4
2026-01-19T1000,3291A,121.0631,32.0644,南通市,通州监测站,,19,,28,3,11,59,,77,74,14,13,2,3,0.7,0.6
2026-01-19T1000,3432A,120.9348,31.9874,南通市,环境教育馆,,18,7,31,3,12,56,,72,69,9,11,3,4,0.5,0.4
2026-01-19T1000,4091A,120.8692,31.9885,南通市,洪江路,,18,6,26,3,13,55,,69,66,10,12,2,3,0.3,0.3
2026-01-19T1000,2404A,112.5338,33.0086,南阳市,瓦房庄,细颗粒物(PM2.5),53,45,56,37,49,43,,45,44,11,15,5,5,0.7,0.8
2026-01-19T1000,2405A,112.5002,32.9734,南阳市,汉画馆,,46,42,57,32,44,43,,46,45,11,15,5,5,0.8,0.8
2026-01-19T1000,2406A,112.5778,33.0144,南阳市,气象站,,46,46,60,31,41,42,,45,45,13,16,3,4,0.5,0.6
2026-01-19T1000,2407A,112.548,32.9687,南阳市,理工学院,,,47,53,28,37,44,,45,45,14,19,,4,0.6,0.7
2026-01-19T1000,4008A,112.5233,32.9921,南阳市,卧龙区政府,,49,42,56,34,45,42,,45,44,17,21,4,4,0.6,0.6
2026-01-19T1000,1234A,121.8352,29.9111,宁波市,区环保大楼,,39,39,78,23,36,57,,50,50,30,59,4,6,0.6,0.8
2026-01-19T1000,1235A,121.5595,29.8208,宁波市,万里学院,,30,30,73,10,40,66,,60,60,16,45,4,5,0.5,0.7
2026-01-19T1000,1236A,121.713,29.9564,宁波市,龙赛医院,,30,30,54,10,20,63,,62,62,22,45,3,4,0.5,0.6
2026-01-19T1000,1240A,121.5855,29.8635,宁波市,太古小学,,23,20,78,9,31,71,,65,65,11,37,2,4,0.4,0.6
2026-01-19T1000,1241A,121.5239,29.8673,宁波市,市环境监测中心,,32,32,69,7,31,62,,60,60,14,43,6,8,0.5,0.7
2026-01-19T1000,2871A,121.6156,29.9015,宁波市,万里国际学校,,,39,71,8,29,,,64,64,19,51,3,5,0.4,0.6
2026-01-19T1000,3710A,121.5593,29.8976,宁波市,白沙活动中心,,41,41,76,7,27,67,,62,62,18,45,3,6,0.2,0.3
2026-01-19T1000,4095A,121.8962,29.7529,宁波市,中科路88号,,34,34,63,14,28,67,,64,64,23,38,5,6,0.3,0.4
2026-01-19T1000,2341A,119.5387,26.6611,宁德市,宁德市监测站,,50,39,27,35,20,33,,32,27,29,21,3,4,0.9,0.5
2026-01-19T1000,3209A,119.5231,26.6562,宁德市,宁德一中,细颗粒物(PM2.5),62,54,29,44,22,48,,44,40,24,15,8,7,0.7,0.4
2026-01-19T1000,2618A,98.859,25.8541,怒江傈僳族自治州,州监测站,,46,46,37,29,26,29,,36,35,14,13,5,5,0.5,0.5
2026-01-19T1000,2619A,98.8607,25.8168,怒江傈僳族自治州,泸水一中,,32,26,39,22,27,15,,25,22,22,18,6,6,0.6,0.5
2026-01-19T1000,1888A,101.6891,26.571,攀枝花市,弄弄坪,细颗粒物(PM2.5),82,101,83,60,60,10,,17,16,46,35,23,29,2.8,1.9
2026-01-19T1000,1889A,101.577,26.5914,攀枝花市,河门口,细颗粒物(PM2.5),67,80,75,48,52,17,,27,25,27,27,11,20,1.4,1.5
2026-01-19T1000,1891A,101.7365,26.4986,攀枝花市,仁和,,49,49,72,34,47,19,,24,19,30,28,9,19,1.2,1.3
2026-01-19T1000,2835A,101.7222,26.567,攀枝花市,四十中小,细颗粒物(PM2.5),85,102,99,63,67,9,,5,4,44,47,17,24,2.4,2.3
2026-01-19T1000,1604A,122.0303,41.1489,盘锦市,开发区,,19,17,31,12,16,58,,51,50,7,8,3,2,0.5,0.5
2026-01-19T1000,1605A,122.0486,41.0883,盘锦市,兴隆台,,28,28,39,15,20,54,,49,48,10,13,18,7,0.5,0.6
2026-01-19T1000,1606A,121.8297,41.1026,盘锦市,新生街道,,20,12,25,3,12,64,,53,53,8,12,8,6,0.3,0.4
2026-01-19T1000,1832A,113.3257,33.7423,平顶山市,新华旅馆,颗粒物(PM10),65,80,66,40,42,38,,38,38,14,18,4,4,0.5,0.6
2026-01-19T1000,1833A,113.2917,33.737,平顶山市,规划设计院,细颗粒物(PM2.5),58,51,56,41,43,40,,42,42,11,14,5,5,0.6,0.7
2026-01-19T1000,1834A,113.182,33.7738,平顶山市,平顶山工学院,细颗粒物(PM2.5),55,48,52,39,42,45,,43,43,14,19,6,6,0.5,0.5
2026-01-19T1000,3594A,112.8736,33.9068,平顶山市,石龙区,细颗粒物(PM2.5),54,47,56,38,47,45,,48,46,6,11,4,4,0.5,0.6
2026-01-19T1000,4116A,113.284,33.7139,平顶山市,姚电大道23号,细颗粒物(PM2.5),67,59,60,48,46,41,,41,41,14,19,6,5,0.8,0.7
2026-01-19T1000,2656A,106.6633,35.5338,平凉市,聚贤嘉苑,,43,43,62,15,20,56,,68,65,5,6,13,13,0.4,0.4
2026-01-19T1000,2657A,106.7021,35.5307,平凉市,博物馆,颗粒物(PM10),51,51,62,19,21,58,,73,71,9,8,10,10,0.4,0.4
2026-01-19T1000,2348A,113.8384,27.6436,萍乡市,中医院,,45,45,123,28,81,5,,2,2,23,34,3,7,0.8,1.2
2026-01-19T1000,2350A,113.8677,27.6438,萍乡市,市环保局,,35,26,87,24,69,6,,3,3,24,32,11,17,0.9,1.2
2026-01-19T1000,2351A,113.8663,27.6202,萍乡市,安源区政府,,42,42,117,27,108,4,,1,1,23,34,9,14,0.9,1.4
2026-01-19T1000,4107A,113.8686,27.6668,萍乡市,联洪村委会,,50,50,119,33,86,11,,10,10,25,28,1,6,1.1,1.1
2026-01-19T1000,2319A,119.0142,25.4324,莆田市,荔城区仓后路,颗粒物(PM10),51,52,43,29,26,65,,45,45,23,23,/,/,/,/
2026-01-19T1000,2320A,119.0016,25.4553,莆田市,莆田市监测站,,40,40,33,22,23,78,,54,54,11,13,3,3,0.8,0.7
2026-01-19T1000,2321A,119.112,25.4561,莆田市,涵江区六中,,,31,35,10,21,,,58,55,,18,/,/,,0.4
2026-01-19T1000,2322A,119.1014,25.3215,莆田市,秀屿区政府,颗粒物(PM10),51,52,34,15,17,81,,81,80,12,12,3,3,0.6,0.7
2026-01-19T1000,2392A,115.0312,35.7636,濮阳市,环保局,,48,38,45,33,35,40,,39,39,15,20,8,5,0.9,0.6
2026-01-19T1000,3021A,115,35.7667,濮阳市,濮水河管理处,,47,47,57,23,32,45,,42,42,19,22,8,4,0.9,0.8
2026-01-19T1000,4118A,115.0552,35.7816,濮阳市,中原东路68号,颗粒物(PM10),55,60,55,32,34,41,,40,40,20,24,6,4,0.5,0.3
2026-01-19T1000,4216A,115.0923632,35.76857718,濮阳市,任丘路479号,"颗粒物(PM10),细颗粒物(PM2.5)",53,55,55,37,36,38,,38,38,17,22,8,4,0.9,0.6
2026-01-19T1000,2601A,100.9801,22.7634,普洱市,市环保局,颗粒物(PM10),57,64,49,13,18,12,,29,24,26,10,5,5,0.6,0.4
2026-01-19T1000,2602A,100.9763,22.8237,普洱市,普洱第二中学,颗粒物(PM10),57,64,43,18,22,19,,10,10,24,20,5,5,0.6,0.3
2026-01-19T1000,3345A,131.0413,45.7795,七台河市,中波台,细颗粒物(PM2.5),70,63,55,51,40,47,,32,32,22,27,12,9,0.5,0.6
2026-01-19T1000,3637A,131.0136,45.7688,七台河市,人民广场,细颗粒物(PM2.5),62,68,65,44,50,47,,30,30,24,36,9,9,0.6,0.7
2026-01-19T1000,3684A,130.8639,45.8144,七台河市,新建矿广场,,46,46,56,31,35,51,,30,30,10,24,10,5,0.3,0.4
2026-01-19T1000,1779A,123.9307,47.3641,齐齐哈尔市,安居小区,,25,25,22,8,12,48,,48,47,10,11,4,3,0.4,0.4
2026-01-19T1000,1780A,123.9497,47.3389,齐齐哈尔市,中心广场,,25,,17,17,10,45,,48,46,11,11,5,5,0.8,0.7
2026-01-19T1000,1781A,123.9483,47.3229,齐齐哈尔市,农牧车辆厂,,31,31,23,14,13,46,,48,46,8,9,5,5,0.3,0.3
2026-01-19T1000,1783A,123.9442,47.2994,齐齐哈尔市,市环境监测站,,24,24,25,13,13,49,,51,50,7,10,4,4,0.7,0.7
2026-01-19T1000,3662A,123.6341,47.2079,齐齐哈尔市,富区青少年活动中心,,,34,31,7,15,,,50,49,10,13,7,6,0.6,0.6
2026-01-19T1000,2591A,107.9765,26.5724,黔东南苗族侗族自治州,市环境监测站,细颗粒物(PM2.5),178,154,49,134,42,33,,68,56,16,10,5,4,0.8,0.4
2026-01-19T1000,2881A,107.8909,26.531,黔东南苗族侗族自治州,凯里学院,细颗粒物(PM2.5),156,161,47,119,35,40,,80,70,19,10,2,1,0.7,0.3
2026-01-19T1000,2593A,107.5223,26.2371,黔南布依族苗族自治州,小围寨,细颗粒物(PM2.5),55,51,37,39,31,86,,69,69,5,4,5,6,0.8,0.8
2026-01-19T1000,3538A,107.5175,26.2977,黔南布依族苗族自治州,沙坝,细颗粒物(PM2.5),62,56,41,44,31,59,,64,60,14,8,5,4,1.0,0.8
2026-01-19T1000,2589A,104.9022,25.0943,黔西南布依族苗族自治州,场坝街,细颗粒物(PM2.5),59,55,47,42,33,54,,50,50,10,10,4,3,0.5,0.6
2026-01-19T1000,2590A,104.8812,25.0994,黔西南布依族苗族自治州,坪东大道,,49,46,45,34,39,54,,50,50,10,17,6,6,0.6,0.7
2026-01-19T1000,2502A,108.6238,21.9667,钦州市,市环保站,颗粒物(PM10),58,66,83,39,44,62,,72,69,22,26,3,6,0.7,0.6
2026-01-19T1000,2503A,108.655,21.9481,钦州市,沙埠小学,颗粒物(PM10),65,79,88,43,43,52,,49,49,22,39,4,7,0.6,0.6
2026-01-19T1000,2504A,108.5989,21.7435,钦州市,港区一小,颗粒物(PM10),55,60,86,29,40,51,,64,64,34,48,6,9,0.6,0.8
2026-01-19T1000,3404A,108.5959,21.9634,钦州市,北职校,细颗粒物(PM2.5),57,49,76,40,48,62,,46,46,21,36,8,9,0.8,0.9
2026-01-19T1000,1046A,119.5247,39.9346,秦皇岛市,建设大厦,,23,18,35,16,31,62,,50,50,5,12,4,8,0.2,0.4
2026-01-19T1000,3132A,119.5979,39.938,秦皇岛市,文明里,,21,19,38,11,24,67,,49,49,5,20,8,12,0.2,0.4
2026-01-19T1000,4066A,119.7458,39.9952,秦皇岛市,南园路157号,,23,23,40,3,16,68,,41,41,6,25,5,10,0.3,0.4
2026-01-19T1000,4067A,119.5131,39.8858,秦皇岛市,翠岛大街1号,,,24,44,3,16,64,,54,54,1,11,,11,0.2,0.4
2026-01-19T1000,4198A,119.509013,39.825305,秦皇岛市,北戴河轮滑馆,,26,26,37,11,24,69,,58,58,4,14,4,8,0.2,0.3
2026-01-19T1000,1310A,120.404,36.0625,青岛市,市南区东部子站,,31,31,28,14,18,59,,59,59,7,19,8,8,0.5,0.5
2026-01-19T1000,1311A,120.362344,36.10282,青岛市,四方区子站,,,27,28,14,20,53,,58,57,,8,3,2,0.5,0.6
2026-01-19T1000,1312A,120.294373,36.054183,青岛市,市南区西部子站,,29,29,27,12,15,56,,59,57,10,19,8,7,0.7,0.8
2026-01-19T1000,1313A,120.4581,36.0858,青岛市,崂山区子站,,22,22,20,9,14,60,,60,60,9,16,9,9,0.2,0.2
2026-01-19T1000,1315A,120.3945,36.3083,青岛市,城阳区子站,,22,19,27,15,15,69,,68,68,8,13,6,5,0.6,0.7
2026-01-19T1000,3642A,120.3454,36.0735,青岛市,市北区南部,,29,29,35,17,17,52,,54,52,11,21,2,2,0.6,0.7
2026-01-19T1000,3643A,120.3897,36.18,青岛市,李沧区北部,,29,29,24,19,22,60,,60,60,6,12,9,8,0.5,0.6
2026-01-19T1000,4110A,120.5222,36.4089,青岛市,盟旺路653号,,32,32,33,13,16,65,,62,62,15,18,2,2,0.5,0.5
2026-01-19T1000,4290A,120.196923,35.954556,青岛市,珠江路669号,,,,25,20,22,,,60,60,,30,,10,0.2,0.4
2026-01-19T1000,4291A,120.0424,35.8656,青岛市,黄岛区人民政府广场,,22,19,29,9,17,69,,65,65,9,19,6,6,0.6,0.7
2026-01-19T1000,1703A,113.0218,23.7086,清远市,凤城街办,细颗粒物(PM2.5),108,116,102,81,69,87,,98,89,58,55,/,/,/,/
2026-01-19T1000,3025A,113.0479,23.6343,清远市,技师学院,细颗粒物(PM2.5),98,109,105,73,66,60,,31,29,60,74,24,16,0.6,0.6
2026-01-19T1000,3318A,112.9898,23.7403,清远市,清新太和,细颗粒物(PM2.5),104,112,98,78,63,68,,128,102,85,44,3,3,1.0,0.7
2026-01-19T1000,3455A,113.076,23.72,清远市,清城东城,细颗粒物(PM2.5),88,91,89,65,54,66,,86,75,45,44,/,/,/,/
2026-01-19T1000,2661A,107.6325,35.7357,庆阳市,庆阳五中,颗粒物(PM10),53,56,74,20,26,59,,54,54,10,11,5,5,0.4,0.4
2026-01-19T1000,2662A,107.6361,35.7067,庆阳市,市环保局,颗粒物(PM10),54,57,76,24,19,56,,54,54,12,11,8,7,0.5,0.5
2026-01-19T1000,1916A,103.7897,25.5036,曲靖市,环境监测站,,32,32,29,18,13,50,,64,57,25,13,7,5,0.7,0.5
2026-01-19T1000,1917A,103.8013,25.5357,曲靖市,烟厂办公区,颗粒物(PM10),54,57,29,21,13,48,,64,55,27,13,6,4,0.5,0.2
2026-01-19T1000,3376A,103.7926,25.4651,曲靖市,南苑二区,,44,44,26,13,11,51,,68,61,19,8,7,5,0.5,0.4
2026-01-19T1000,3377A,103.7442,25.5259,曲靖市,曲靖师范学院,,48,48,36,29,17,57,,62,56,18,13,9,6,0.3,0.1
2026-01-19T1000,1264A,118.8694,28.94,衢州市,环保大楼,细颗粒物(PM2.5),113,116,126,85,88,37,,44,42,29,40,/,/,/,/
2026-01-19T1000,1266A,118.8622,28.9809,衢州市,衢州学院,细颗粒物(PM2.5),94,104,116,70,78,34,,26,25,31,39,5,5,0.6,0.7
2026-01-19T1000,4097A,118.9646,28.9832,衢州市,衢州三中,细颗粒物(PM2.5),117,114,124,88,88,23,,29,29,40,49,5,5,0.9,0.9
2026-01-19T1000,1611A,118.5818,24.9116,泉州市,涂山街,,35,32,40,24,29,75,,55,48,17,20,4,4,0.6,0.6
2026-01-19T1000,1612A,118.597,24.8976,泉州市,津头埔,,35,35,38,21,27,77,,60,58,18,21,5,5,0.5,0.6
2026-01-19T1000,1613A,118.6669,24.9422,泉州市,万安,,40,34,38,28,23,75,,50,50,14,19,4,4,0.6,0.6
2026-01-19T1000,4105A,118.6355,24.9148,泉州市,霞新路6号,,32,31,37,22,26,81,,57,57,16,21,/,/,0.4,0.5
2026-01-19T1000,2626A,88.8873,29.2723,日喀则市,日喀则监测站,,31,31,25,19,11,41,,77,65,21,6,16,12,0.7,0.4
2026-01-19T1000,3726A,88.8775,29.2425,日喀则市,林业技术推广中心,,32,31,27,22,9,38,,76,62,12,5,11,10,0.4,0.3
2026-01-19T1000,1659A,119.4711,35.421,日照市,监测站,,34,34,31,16,25,59,,59,58,10,17,7,6,0.6,0.6
2026-01-19T1000,1660A,119.523,35.4216,日照市,市政府广场,,30,24,30,21,23,62,,61,60,12,20,8,8,0.3,0.3
2026-01-19T1000,1661A,119.5511,35.4113,日照市,港务局,,46,34,34,32,31,62,,60,59,10,19,6,6,0.6,0.5
2026-01-19T1000,3507A,119.5326,35.4627,日照市,职业技术学院,,34,34,33,22,20,61,,59,58,10,19,7,6,0.6,0.7
2026-01-19T1000,3604A,119.3267,35.1043,日照市,岚山环保分局,,46,44,59,32,42,51,,49,48,14,24,22,20,1.8,2.1
2026-01-19T1000,1835A,111.1922,34.7752,三门峡市,市政府,,50,50,59,34,49,30,,32,32,20,30,10,10,0.6,0.7
2026-01-19T1000,1836A,111.1588,34.794,三门峡市,开发区,,33,33,59,14,42,40,,31,31,19,28,9,6,0.6,0.7
2026-01-19T1000,3039A,111.1911,34.7829,三门峡市,三门峡市第一小学,颗粒物(PM10),55,60,67,25,43,30,,31,31,22,32,11,9,0.6,0.7
2026-01-19T1000,3598A,111.1031,34.719,三门峡市,富达温泉假日酒店,颗粒物(PM10),54,58,75,20,51,18,,13,13,20,30,8,9,0.6,0.8
2026-01-19T1000,2324A,117.621,26.2626,三明市,三钢,细颗粒物(PM2.5),74,60,52,54,44,27,,18,15,33,32,8,7,1.0,1
2026-01-19T1000,2325A,117.6352,26.2714,三明市,三明二中,细颗粒物(PM2.5),64,57,50,46,38,32,,16,16,28,27,6,3,0.9,0.8
2026-01-19T1000,2326A,117.6028,26.2377,三明市,三元区政府,细颗粒物(PM2.5),58,47,59,41,43,29,,17,17,28,38,6,10,1.2,1.5
2026-01-19T1000,1877A,109.4962,18.2682,三亚市,河西子站,,34,34,38,15,17,72,,56,56,13,17,3,3,0.4,0.4
2026-01-19T1000,3540A,109.7348,18.3443,三亚市,君悦子站,,50,50,35,16,16,55,,35,35,15,14,4,4,0.5,0.4
2026-01-19T1000,4135A,109.1714,18.3739,三亚市,城东小学站,,32,32,40,20,26,56,,39,39,8,11,/,/,/,/
2026-01-19T1000,2624A,91.7592,29.234,山南市,山南监测站,,,31,21,16,13,,,65,53,36,11,6,5,0.8,0.5
2026-01-19T1000,2625A,91.7701,29.2436,山南市,山南人民医院,颗粒物(PM10),52,53,23,32,12,22,,66,52,40,11,11,8,0.9,0.4
2026-01-19T1000,1674A,116.6795,23.3666,汕头市,金平子站,细颗粒物(PM2.5),69,61,46,50,38,63,,51,47,29,21,10,6,0.8,0.7
2026-01-19T1000,1675A,116.7248,23.3632,汕头市,龙湖子站,,49,49,46,32,29,68,,65,60,23,16,13,11,/,/
2026-01-19T1000,1676A,116.7257,23.2774,汕头市,濠江子站,,50,50,44,35,33,78,,63,63,16,18,10,8,/,/
2026-01-19T1000,1677A,116.7518,23.4712,汕头市,澄海子站,细颗粒物(PM2.5),78,59,59,57,46,60,,53,46,27,20,11,8,0.7,0.6
2026-01-19T1000,1678A,116.6088,23.2539,汕头市,潮阳子站,细颗粒物(PM2.5),54,43,43,38,29,75,,70,68,11,12,8,7,0.7,0.6
2026-01-19T1000,3444A,116.4539,23.2684,汕头市,潮南峡山,细颗粒物(PM2.5),74,78,59,54,39,68,,47,47,19,18,11,10,0.7,0.6
2026-01-19T1000,3624A,116.4069,23.2533,汕头市,潮南子站,细颗粒物(PM2.5),74,85,77,54,44,63,,58,52,21,20,8,8,/,/
2026-01-19T1000,1693A,115.3653,22.7751,汕尾市,市环保局,细颗粒物(PM2.5),83,63,47,61,40,67,,75,67,31,18,9,7,1.0,0.8
2026-01-19T1000,1695A,115.362,22.7926,汕尾市,新城中学,细颗粒物(PM2.5),87,,53,64,41,75,,73,68,20,17,6,6,0.6,0.5
2026-01-19T1000,2645A,109.9155,33.8714,商洛市,监测站,颗粒物(PM10),56,62,116,37,77,45,,33,33,17,25,4,6,0.6,0.8
2026-01-19T1000,3045A,109.9647,33.8486,商洛市,商州区中学,细颗粒物(PM2.5),87,95,111,64,84,29,,22,22,28,31,10,7,1.0,1
2026-01-19T1000,2408A,115.6701,34.4283,商丘市,环境监测站,细颗粒物(PM2.5),54,41,32,38,33,44,,44,44,12,18,3,2,0.5,0.6
2026-01-19T1000,2409A,115.6458,34.4047,商丘市,粮食局,细颗粒物(PM2.5),52,52,30,36,32,40,,40,40,10,15,2,1,0.7,0.7
2026-01-19T1000,3171A,115.6069,34.4465,商丘市,梁园区档案局,,50,40,26,35,31,42,,42,42,11,16,4,3,0.4,0.5
2026-01-19T1000,4119A,115.6701,34.3767,商丘市,北海东路185号,细颗粒物(PM2.5),55,46,37,39,32,40,,40,40,11,17,1,1,0.5,0.5
2026-01-19T1000,4120A,115.6172,34.3704,商丘市,中山大街3号,细颗粒物(PM2.5),64,46,38,46,35,46,,44,44,9,17,3,3,0.5,0.5
2026-01-19T1000,1141A,121.401,31.2382,上海市,普陀,,31,31,46,15,23,69,,75,74,21,30,5,5,0.6,0.6
2026-01-19T1000,1142A,121.4774,31.2043,上海市,十五厂,,32,32,52,12,21,66,,72,72,19,26,5,6,0.6,0.5
2026-01-19T1000,1143A,121.4673,31.3011,上海市,虹口,,45,45,51,17,20,57,,64,61,23,29,6,7,0.5,0.5
2026-01-19T1000,1147A,121.4253,31.226,上海市,静安监测站,,32,32,49,15,22,70,,75,74,22,30,6,6,0.6,0.6
2026-01-19T1000,1148A,121.7029,31.1905,上海市,浦东川沙,,43,43,43,11,14,59,,66,64,20,23,6,7,0.3,0.3
2026-01-19T1000,1149A,121.5339,31.229,上海市,浦东新区监测站,,39,39,45,26,22,54,,67,66,31,27,5,6,0.7,0.5
2026-01-19T1000,1150A,121.5776,31.2038,上海市,浦东张江,,36,36,46,17,18,70,,76,75,22,30,5,6,0.2,0.2
2026-01-19T1000,3265A,121.4242,31.3303,上海市,宝山庙行,,37,37,46,18,18,57,,67,64,20,29,6,7,0.4,0.3
2026-01-19T1000,3266A,121.8789,31.4662,上海市,崇明上实东滩,,24,23,30,11,12,75,,82,79,11,13,3,4,0.5,0.5
2026-01-19T1000,3268A,121.316,31.2839,上海市,嘉定南翔,,35,35,46,16,20,61,,64,63,23,29,3,4,0.7,0.4
2026-01-19T1000,3269A,121.3357,30.7455,上海市,金山新城,,23,,51,16,29,69,,65,65,21,25,6,7,0.6,0.6
2026-01-19T1000,3270A,121.4996,31.0741,上海市,闵行浦江,,26,26,50,10,20,70,,71,71,16,24,5,6,0.4,0.4
2026-01-19T1000,3271A,121.2886,31.1663,上海市,青浦徐泾,,29,29,50,18,22,56,,66,62,33,34,3,4,0.7,0.5
2026-01-19T1000,3272A,121.2193,31.0382,上海市,松江图书馆,,27,27,52,16,24,56,,68,66,33,32,5,6,0.6,0.5
2026-01-19T1000,3273A,121.3904,31.206,上海市,长宁仙霞,,30,30,49,14,20,69,,74,73,13,19,6,6,0.3,0.3
2026-01-19T1000,3274A,121.7964,31.0507,上海市,浦东惠南,,33,33,41,12,18,72,,71,71,16,24,3,3,0.5,0.5
2026-01-19T1000,3544A,121.4891,30.925,上海市,奉贤南桥新城,,23,23,53,8,21,73,,74,72,23,24,1,2,0.4,0.4
2026-01-19T1000,4183A,121.417401,31.16637,上海市,冠生园路458号,,,,52,17,24,71,,73,73,19,29,4,5,0.5,0.5
2026-01-19T1000,4205A,121.541914,31.268301,上海市,宁武路151号,,38,38,49,11,19,54,,66,62,29,33,5,5,0.6,0.6
2026-01-19T1000,2382A,117.9758,28.4439,上饶市,市监测站,细颗粒物(PM2.5),73,85,99,53,61,60,,56,53,30,30,6,10,/,/
2026-01-19T1000,2383A,117.9521,28.4637,上饶市,凤凰光学,颗粒物(PM10),69,87,106,42,61,54,,45,45,28,36,10,11,0.8,0.9
2026-01-19T1000,3685A,117.897,28.4316,上饶市,双创科技城,细颗粒物(PM2.5),73,83,102,53,63,66,,61,58,30,37,5,8,0.8,1
2026-01-19T1000,4211A,118.190438,28.444845,上饶市,裕丰大道,细颗粒物(PM2.5),90,90,114,67,76,52,,49,47,32,36,12,14,0.9,1.1
2026-01-19T1000,1669A,113.5821,24.7733,韶关市,市八中,细颗粒物(PM2.5),115,112,117,87,77,34,,27,26,40,46,13,14,1.1,1
2026-01-19T1000,1671A,113.5916,24.7973,韶关市,园林处,细颗粒物(PM2.5),113,,85,85,79,24,,8,8,51,52,12,12,/,/
2026-01-19T1000,1673A,113.5971,24.6864,韶关市,曲江监测站,细颗粒物(PM2.5),134,139,105,102,76,37,,43,38,44,37,38,21,2.1,1.1
2026-01-19T1000,2809A,113.6668,24.7756,韶关市,大学路288号,细颗粒物(PM2.5),114,,84,86,69,36,,23,14,32,24,16,12,/,/
2026-01-19T1000,3622A,113.5556,24.8082,韶关市,碧湖山庄,细颗粒物(PM2.5),115,114,104,87,69,27,,43,27,34,31,10,10,1.0,0.8
2026-01-19T1000,2464A,111.5277,27.2442,邵阳市,市化工厂,,20,20,89,13,68,10,,14,11,23,24,7,7,0.6,0.9
2026-01-19T1000,2466A,111.4327,27.2276,邵阳市,市环保局,,14,14,69,9,65,14,,18,16,16,18,2,2,1.0,1.2
2026-01-19T1000,4218A,111.446,27.2472,邵阳市,北塔二期4-26地块,,18,,69,12,82,14,,16,14,16,19,6,7,1.1,1.3
2026-01-19T1000,4219A,111.4739,27.2282,邵阳市,邵水西路287号,,20,15,75,14,68,12,,15,12,20,20,7,7,1.0,1.2
2026-01-19T1000,1247A,120.6053,29.9927,绍兴市,城东开发委,,22,17,65,15,43,39,,47,41,27,29,6,8,0.5,0.5
2026-01-19T1000,2921A,120.5482,30.0003,绍兴市,树下王站,,16,16,65,8,39,48,,45,42,14,28,6,6,0.6,0.7
2026-01-19T1000,3408A,120.5685,29.936,绍兴市,绍兴中专,,14,14,68,9,40,44,,40,40,21,33,6,6,0.4,0.5
2026-01-19T1000,3409A,120.4905,30.086,绍兴市,柯桥区政府,,17,9,54,3,26,52,,29,29,17,35,4,8,0.5,0.6
2026-01-19T1000,3410A,120.8751,30.0249,绍兴市,重华小学,,,23,66,14,39,,,45,45,22,38,,6,0.3,0.4
2026-01-19T1000,3411A,120.837,30.0137,绍兴市,上虞中学,,20,18,67,14,38,56,,44,44,16,38,5,7,0.4,0.5
2026-01-19T1000,3560A,120.4715,30.0414,绍兴市,柯桥妇保,,17,11,74,8,42,54,,36,36,18,33,5,6,0.3,0.4
2026-01-19T1000,3658A,120.6156,30.0762,绍兴市,袍江中学,,15,10,59,6,28,45,,47,43,22,29,2,3,1.3,1.1
2026-01-19T1000,1356A,114.0948,22.5506,深圳市,通心岭子站,细颗粒物(PM2.5),52,50,47,36,31,90,,62,59,27,18,9,8,0.6,0.5
2026-01-19T1000,1357A,114.1153,22.5713,深圳市,洪湖,细颗粒物(PM2.5),57,62,58,40,33,93,,42,42,30,32,10,8,0.7,0.7
2026-01-19T1000,1358A,113.9823,22.5398,深圳市,华侨城,细颗粒物(PM2.5),59,63,50,42,33,92,,62,62,26,28,/,/,/,/
2026-01-19T1000,1359A,113.9181,22.517,深圳市,南海子站,颗粒物(PM10),56,62,56,38,36,95,,69,69,23,34,8,7,0.9,0.8
2026-01-19T1000,1360A,114.2345,22.565,深圳市,盐田,细颗粒物(PM2.5),60,68,47,43,29,63,,74,65,56,32,9,8,0.8,0.7
2026-01-19T1000,1363A,114.4911,22.5381,深圳市,南澳,,42,42,40,29,26,92,,64,62,17,11,/,/,/,/
2026-01-19T1000,1364A,114.41,22.6346,深圳市,葵涌,颗粒物(PM10),52,53,46,32,28,81,,34,34,29,26,11,8,0.8,0.7
2026-01-19T1000,1365A,114.2967,22.5978,深圳市,梅沙,颗粒物(PM10),54,57,44,36,26,100,,103,97,17,14,/,/,/,/
2026-01-19T1000,1366A,114.0563,22.7353,深圳市,观澜,细颗粒物(PM2.5),89,108,92,66,49,63,,19,19,54,58,9,8,0.8,0.7
2026-01-19T1000,3305A,114.0614,22.556,深圳市,莲花,细颗粒物(PM2.5),57,57,50,40,32,95,,53,53,29,29,/,/,/,/
2026-01-19T1000,3306A,114.0144,22.6163,深圳市,民治,细颗粒物(PM2.5),73,83,62,53,36,77,,56,48,38,42,/,/,/,/
2026-01-19T1000,3307A,114.1756,22.6421,深圳市,横岗,"颗粒物(PM10),细颗粒物(PM2.5)",59,68,63,42,38,104,,41,41,18,64,/,/,/,/
2026-01-19T1000,3447A,114.344,22.7115,深圳市,坪山,"颗粒物(PM10),细颗粒物(PM2.5)",59,68,60,42,33,94,,39,36,25,32,11,9,0.8,0.7
2026-01-19T1000,3623A,113.8952,22.586,深圳市,西乡,"颗粒物(PM10),细颗粒物(PM2.5)",63,76,63,45,35,67,,55,,60,54,7,6,1.0,0.8
2026-01-19T1000,4220A,114.214113,22.713717,深圳市,黄阁路,细颗粒物(PM2.5),62,68,60,44,37,80,,41,41,29,32,8,7,0.9,0.8
2026-01-19T1000,1099A,123.5058,41.7084,沈阳市,浑南东路,,22,19,33,15,26,59,,48,48,12,31,8,15,0.4,0.5
2026-01-19T1000,1100A,123.4238,41.6992,沈阳市,新秀街,,26,26,25,13,23,60,,53,53,9,19,15,12,0.5,0.5
