timepoint,stationcode,longitude,latitude,area,positionname,primarypollutant,aqi,pm10,pm10_24h,pm2_5,pm2_5_24h,o3,o3_24h,o3_8h,o3_8h_24h,no2,no2_24h,so2,so2_24h,co,co_24h
2026-01-19T1900,2568A,102.2503,31.8896,阿坝藏族羌族自治州,马师校,,36,36,26,21,17,24,,62,60,42,19,5,4,0.8,0.6
2026-01-19T1900,3994A,102.2174,31.9016,阿坝藏族羌族自治州,马尔康中学西区,,,,15,27,13,52,,62,62,22,15,6,6,,0.4
2026-01-19T1900,2695A,80.2899,41.1684,阿克苏地区,电视台,颗粒物(PM10),334,447,537,52,82,70,,58,58,15,25,6,8,0.9,1.1
2026-01-19T1900,2696A,80.2592,41.1541,阿克苏地区,艺术中心,颗粒物(PM10),275,402,491,57,89,77,,64,64,10,15,5,4,0.6,0.6
2026-01-19T1900,2205A,105.699,38.8409,阿拉善盟,蒙二幼,,38,38,39,18,11,48,,58,55,18,10,14,10,0.7,0.4
2026-01-19T1900,2206A,105.7198,38.8508,阿拉善盟,环保局新楼,,,44,37,19,15,,,53,50,,7,,8,,0.6
2026-01-19T1900,2708A,88.1266,47.8515,阿勒泰地区,市站,,21,12,9,3,5,66,,74,71,18,14,2,3,0.4,0.4
2026-01-19T1900,4166A,88.1198,47.7931,阿勒泰地区,阿勒泰路33号,,19,13,10,3,2,58,,75,69,27,12,5,3,0.4,0.4
2026-01-19T1900,2630A,80.1171,32.4999,阿里地区,阿里监测站,,16,6,3,3,3,51,,70,66,1,6,2,6,0.4,0.5
2026-01-19T1900,3192A,80.0906,32.5029,阿里地区,阿里藏医院,,27,21,20,3,11,84,,84,84,2,6,9,13,0.5,0.6
2026-01-19T1900,2644A,109.0088,32.6974,安康市,汉滨区检察院,,29,25,73,20,56,32,,40,37,19,23,5,5,0.8,0.8
2026-01-19T1900,4054A,109.0324,32.6913,安康市,市邮政管理局,,23,23,64,16,54,25,,,,21,22,4,4,0.6,1.1
2026-01-19T1900,2291A,117.0806,30.5181,安庆市,环科院,,13,11,58,6,32,40,,38,38,8,15,4,4,0.4,0.5
2026-01-19T1900,2292A,117.0331,30.5118,安庆市,马山宾馆,,14,14,54,3,31,42,,42,42,13,18,4,4,0.4,0.7
2026-01-19T1900,2294A,116.9897,30.6146,安庆市,安庆大学,,15,8,43,3,26,45,,42,42,9,19,3,3,0.4,0.6
2026-01-19T1900,3173A,117.0598,30.5351,安庆市,市人大,,14,14,59,6,31,39,,38,38,11,20,4,4,0.6,0.6
2026-01-19T1900,3123A,105.9408,26.2431,安顺市,凤凰山,,39,33,35,27,28,93,,91,91,14,14,11,12,0.4,0.4
2026-01-19T1900,3124A,105.9443,26.2567,安顺市,金钟山,,40,32,36,28,28,87,,86,86,12,9,16,14,0.4,0.4
2026-01-19T1900,3125A,105.8983,26.248,安顺市,娄家坡,,43,35,33,30,29,86,,87,87,14,10,12,11,0.6,0.6
2026-01-19T1900,1819A,114.3552,36.1017,安阳市,红庙街,,34,34,52,18,36,52,,50,50,11,18,2,3,0.7,0.8
2026-01-19T1900,1820A,114.361,36.0681,安阳市,银杏小区,,44,44,56,21,41,53,,50,50,15,21,3,3,0.3,0.5
2026-01-19T1900,3141A,114.3921,36.0879,安阳市,信访局,,35,35,52,24,40,54,,53,53,17,23,5,4,0.5,0.7
2026-01-19T1900,3669A,114.4706,36.0634,安阳市,左辅环卫站,,48,48,59,19,38,54,,53,53,15,16,4,3,0.4,0.5
2026-01-19T1900,4117A,114.2918,36.0769,安阳市,钢三路198号,,34,34,58,14,44,46,,42,42,12,20,3,3,0.3,0.7
2026-01-19T1900,1748A,123.0441,41.1201,鞍山市,深沟寺,,49,49,31,17,18,38,,58,54,24,19,6,9,0.7,0.8
2026-01-19T1900,1749A,123.011,41.0931,鞍山市,太阳城,,47,47,30,15,16,48,,68,64,20,16,10,13,0.7,0.8
2026-01-19T1900,1750A,123.0483,41.1445,鞍山市,太平,颗粒物(PM10),78,105,45,30,21,35,,56,52,28,21,11,13,0.7,0.8
2026-01-19T1900,1751A,122.964,41.0968,鞍山市,铁西三道街,颗粒物(PM10),62,74,47,23,25,40,,54,51,29,28,13,26,0.6,1.4
2026-01-19T1900,1753A,123.0219,41.0822,鞍山市,明达新区,颗粒物(PM10),52,53,28,15,16,43,,61,57,20,17,14,14,0.5,0.6
2026-01-19T1900,4201A,122.944647,41.082639,鞍山市,兴盛南路290号,颗粒物(PM10),59,68,48,19,26,38,,57,52,28,24,13,21,0.6,1.5
2026-01-19T1900,2195A,107.4206,40.7609,巴彦淖尔市,附二中,,42,42,30,23,17,52,,56,56,9,6,2,3,0.5,0.4
2026-01-19T1900,2196A,107.37,40.7372,巴彦淖尔市,市环保大楼,,38,38,28,23,17,54,,59,59,12,9,4,5,0.5,0.5
2026-01-19T1900,1956A,86.1476,41.7529,巴音郭楞蒙古自治州,孔雀公园,颗粒物(PM10),142,234,93,42,23,65,,67,61,10,8,8,8,0.4,0.4
2026-01-19T1900,1957A,86.1971,41.7166,巴音郭楞蒙古自治州,棉纺厂,颗粒物(PM10),172,293,110,27,17,70,,63,63,5,18,/,/,/,/
2026-01-19T1900,1958A,86.236,41.7172,巴音郭楞蒙古自治州,经济开发区,颗粒物(PM10),145,239,93,29,15,64,,63,63,11,7,4,5,0.4,0.3
2026-01-19T1900,3181A,106.776805,31.852614,巴中市,市五中,,22,16,87,15,64,30,,48,30,12,17,5,6,0.8,1.1
2026-01-19T1900,3183A,106.7419,31.8654,巴中市,圣泉水务公司,,18,18,59,12,46,38,,53,37,13,18,5,5,0.7,0.9
2026-01-19T1900,3616A,106.7617,31.8343,巴中市,市中心医院,,15,,91,10,78,28,,28,28,18,32,7,9,0.8,1.3
2026-01-19T1900,2235A,122.7909,45.608,白城市,洮北区环保局,,45,45,33,17,17,44,,53,50,15,16,7,5,0.3,0.3
2026-01-19T1900,2236A,122.8741,45.5725,白城市,市环保局,颗粒物(PM10),52,53,32,18,15,44,,55,52,10,11,6,6,0.4,0.4
2026-01-19T1900,2231A,126.4219,41.9172,白山市,喜丰,,29,29,38,14,19,59,,66,66,13,14,16,13,0.5,0.6
2026-01-19T1900,2232A,126.4082,41.9416,白山市,环保局,,24,24,29,3,23,62,,66,66,8,17,17,11,0.3,0.4
2026-01-19T1900,2647A,104.1727,36.5448,白银市,第三小学,颗粒物(PM10),54,58,55,18,18,56,,64,64,12,16,6,28,0.4,0.5
2026-01-19T1900,2648A,104.1467,36.5482,白银市,动力公司,颗粒物(PM10),54,58,44,18,15,54,,68,67,11,10,2,11,0.7,0.7
2026-01-19T1900,2512A,106.6102,23.901,百色市,市监测站,颗粒物(PM10),55,60,66,35,42,83,,102,102,18,21,17,15,0.7,0.8
2026-01-19T1900,2513A,106.6524,23.8842,百色市,市中心血站,颗粒物(PM10),60,69,69,41,48,85,,108,108,18,20,19,18,0.7,0.9
2026-01-19T1900,4133A,106.6273,23.8798,百色市,龙景西路,颗粒物(PM10),59,67,86,40,51,92,,112,112,18,26,16,16,0.5,0.6
2026-01-19T1900,2270A,117.396,32.9389,蚌埠市,工人疗养院,,46,46,38,29,27,54,,52,52,10,14,5,4,0.3,0.4
2026-01-19T1900,2271A,117.3606,32.9428,蚌埠市,百货大楼,,37,37,32,25,21,53,,50,50,11,14,4,4,0.5,0.5
2026-01-19T1900,2273A,117.4183,32.8909,蚌埠市,蚌埠学院,,36,31,25,25,24,54,,52,52,15,18,3,3,0.5,0.5
2026-01-19T1900,2274A,117.3534,32.9672,蚌埠市,淮上区政府,,46,36,30,32,27,55,,55,55,10,14,1,2,0.4,0.4
2026-01-19T1900,2275A,117.3143,32.8977,蚌埠市,高新区,,48,,26,33,26,53,,50,50,12,16,5,5,0.2,0.2
2026-01-19T1900,3715A,117.3091,32.9314,蚌埠市,蚌埠田家炳中学,,39,38,31,27,27,53,,53,53,14,17,3,3,0.5,0.5
2026-01-19T1900,1585A,109.8761,40.6533,包头市,市环境监测站,,27,27,31,9,6,57,,68,66,15,7,3,4,0.5,0.3
2026-01-19T1900,1587A,109.9992,40.5843,包头市,包头八中,,31,31,20,8,9,53,,65,64,15,6,2,5,0.6,0.6
2026-01-19T1900,1589A,109.8641,40.6288,包头市,惠龙物流,,20,20,14,11,7,55,,71,69,19,6,7,7,0.6,0.5
2026-01-19T1900,1590A,110.0376,40.5546,包头市,东河鸿龙湾,,22,22,17,8,3,52,,64,64,18,8,6,7,0.7,0.6
2026-01-19T1900,3283A,109.9154,40.5684,包头市,滨河大厦,,21,21,12,12,7,49,,66,64,15,3,10,5,0.7,0.5
2026-01-19T1900,3419A,109.9449,40.6259,包头市,包头市委党校,,20,20,32,3,7,56,,67,66,14,6,5,7,0.5,0.5
2026-01-19T1900,3683A,109.8332,40.6577,包头市,昆区政府,,25,25,15,9,6,45,,66,64,29,8,6,5,0.6,0.5
2026-01-19T1900,1931A,107.0802,34.3129,宝鸡市,竹园沟,,41,41,61,21,23,33,,47,39,20,14,5,6,0.4,0.4
2026-01-19T1900,1933A,107.1429,34.3549,宝鸡市,监测站,,45,45,68,27,26,32,,51,37,24,17,4,5,0.4,0.6
2026-01-19T1900,1934A,107.1172,34.3759,宝鸡市,技工学校,,39,38,64,27,27,28,,56,39,26,16,2,4,1.1,0.9
2026-01-19T1900,1936A,107.2025,34.3518,宝鸡市,文理学院,,42,42,70,25,30,35,,53,41,24,22,3,5,0.5,0.5
2026-01-19T1900,1937A,107.2396,34.3626,宝鸡市,三迪小学,,50,50,77,30,34,29,,54,38,29,22,2,6,0.6,0.5
2026-01-19T1900,4155A,107.1721,34.3558,宝鸡市,滨河北路,,49,49,66,22,23,32,,50,38,20,16,3,5,0.5,0.5
2026-01-19T1900,4308A,107.3898,34.3601,宝鸡市,陈仓区北开路21号,颗粒物(PM10),52,53,87,34,43,31,,43,40,28,30,4,6,0.7,0.6
2026-01-19T1900,1051A,115.4803,38.8568,保定市,游泳馆,,40,40,35,10,12,46,,62,57,19,11,3,3,0.4,0.4
2026-01-19T1900,1052A,115.509,38.8895,保定市,华电二区,,42,34,33,29,28,49,,65,61,19,13,2,2,0.3,0.4
2026-01-19T1900,1053A,115.4588,38.9037,保定市,接待中心,,42,42,35,14,15,46,,57,54,18,13,3,2,0.2,0.2
2026-01-19T1900,1054A,115.4484,38.8344,保定市,地表水厂,,47,47,48,13,16,38,,60,54,32,21,4,4,0.2,0.3
2026-01-19T1900,3581A,115.3136,38.9511,保定市,满城区生态环境分局,,41,41,37,14,17,30,,62,54,45,31,2,2,0.5,0.5
2026-01-19T1900,3582A,115.4709,38.7628,保定市,清苑区第二中学,,30,30,43,11,17,41,,59,54,22,17,3,3,0.3,0.4
2026-01-19T1900,3583A,115.6231,39.0223,保定市,徐水物探局,,37,37,35,19,20,40,,61,56,26,19,3,3,0.4,0.4
2026-01-19T1900,4004A,115.4199,38.8665,保定市,双鹰农机,,36,36,33,24,21,52,,67,62,25,9,4,4,0.2,0.3
2026-01-19T1900,4034A,115.515,38.8589,保定市,植保所站,,41,41,38,27,25,43,,58,53,20,13,2,2,0.5,0.5
2026-01-19T1900,2594A,99.1589,25.1137,保山市,市环境监测站,,29,29,29,3,20,75,,54,,8,10,5,7,0.3,0.4
2026-01-19T1900,2595A,99.1616,25.1381,保山市,市环保局,,44,44,35,28,23,83,,89,89,4,7,4,4,0.4,0.5
2026-01-19T1900,1867A,109.1435,21.4085,北海市,海滩公园,,37,37,45,12,24,97,,111,111,10,10,6,8,0.8,0.8
2026-01-19T1900,1868A,109.0983,21.466,北海市,新市环保局,,35,32,41,24,30,99,,106,106,13,13,5,6,0.6,0.6
2026-01-19T1900,1869A,109.1775,21.5232,北海市,北海工业园,,42,42,51,20,33,95,,100,100,10,14,6,7,0.8,0.8
2026-01-19T1900,3400A,109.1844,21.4396,北海市,龙潭自来水厂,,30,29,40,17,29,93,,105,105,10,8,4,5,1.0,1
2026-01-19T1900,1001A,116.3611,39.8786,北京市,万寿西宫,,22,22,18,10,8,52,,62,58,13,9,2,2,0.5,0.5
2026-01-19T1900,1003A,116.4174,39.9289,北京市,东四,,24,24,17,10,8,44,,57,46,14,9,4,4,0.4,0.4
2026-01-19T1900,1004A,116.4073,39.8858,北京市,天坛,,20,20,17,7,7,53,,61,58,10,6,3,3,0.5,0.5
2026-01-19T1900,1005A,116.4622,39.9364,北京市,农展馆,,21,21,14,3,3,53,,64,56,8,4,4,4,0.5,0.5
2026-01-19T1900,1006A,116.3399,39.9293,北京市,官园,,26,26,18,7,6,45,,57,49,11,7,4,6,0.1,0.4
2026-01-19T1900,1007A,116.2879,39.9613,北京市,海淀万柳,,22,22,15,9,7,41,,52,48,19,13,3,3,0.5,0.4
2026-01-19T1900,1008A,116.6635,40.1349,北京市,顺义新城,,27,27,17,7,5,50,,69,57,15,6,4,4,0.4,0.3
2026-01-19T1900,1009A,116.6275,40.327,北京市,怀柔镇,,25,25,9,14,5,51,,66,58,9,4,4,4,0.5,0.4
2026-01-19T1900,1010A,116.2295,40.217,北京市,昌平镇,,31,31,19,10,7,54,,63,56,9,4,2,2,0.5,0.4
2026-01-19T1900,1011A,116.3968,39.982,北京市,奥体中心,,20,20,15,10,7,56,,61,58,14,9,4,4,0.3,0.5
2026-01-19T1900,3418A,116.8336,40.4095,北京市,密云新城,,20,11,10,7,5,62,,65,59,3,2,1,5,0.3,0.4
2026-01-19T1900,3671A,116.0879,39.9725,北京市,门头沟三家店,,28,28,13,10,6,23,,65,52,35,6,3,3,0.3,0.3
2026-01-19T1900,3672A,116.1507,39.8246,北京市,丰台云岗,,21,21,14,8,7,51,,72,66,16,7,1,2,0.3,0.3
2026-01-19T1900,3674A,115.9578,39.7602,北京市,房山燕山,,16,16,15,8,9,51,,64,60,11,6,4,4,0.4,0.4
2026-01-19T1900,3675A,116.4669,39.7734,北京市,大兴旧宫,,19,19,19,7,7,55,,62,60,10,10,3,3,0.5,0.4
2026-01-19T1900,3694A,115.9859,40.4562,北京市,延庆石河营,,20,20,13,9,6,57,,64,60,8,3,4,3,0.5,0.4
2026-01-19T1900,3695A,116.6151,40.3052,北京市,怀柔新城,,26,26,10,16,6,53,,70,59,5,2,4,4,0.4,0.3
2026-01-19T1900,3696A,116.2542,39.8764,北京市,丰台小屯,,20,20,15,7,7,46,,54,53,14,9,3,3,0.5,0.4
2026-01-19T1900,3697A,116.8399,40.3843,北京市,密云镇,,21,15,11,3,5,65,,65,63,4,4,3,2,0.5,0.4
2026-01-19T1900,4057A,115.9423,40.4431,北京市,延庆百泉,,23,23,15,10,6,51,,57,53,7,3,3,2,0.3,0.3
2026-01-19T1900,4058A,116.6598,39.9164,北京市,通州新华,,29,29,22,8,8,43,,57,47,13,9,2,2,0.6,0.5
2026-01-19T1900,4182A,116.1942,39.9158,北京市,石景山八角,,24,24,16,8,6,41,,57,52,17,4,3,2,0.3,0.1
2026-01-19T1900,4194A,117.078628,40.151726,北京市,平谷新城,,19,15,10,6,6,59,,61,56,2,2,1,1,0.2,0.2
2026-01-19T1900,1761A,123.8274146,41.31234549,本溪市,大峪,,38,38,33,14,18,48,,58,57,15,18,8,9,0.6,0.9
2026-01-19T1900,1763A,123.7169,41.3094,本溪市,彩屯,细颗粒物(PM2.5),87,79,36,64,21,23,,59,53,44,22,11,10,1.0,0.8
2026-01-19T1900,1764A,123.7672166,41.28649327,本溪市,东明,颗粒物(PM10),51,52,30,18,14,49,,55,54,14,16,7,9,0.7,0.9
2026-01-19T1900,1765A,123.799345,41.266614,本溪市,新立屯,颗粒物(PM10),51,51,30,21,16,48,,55,53,11,13,10,11,0.5,0.7
2026-01-19T1900,1766A,123.829144,41.336777,本溪市,威宁,颗粒物(PM10),53,56,45,14,22,35,,55,52,24,28,4,6,0.5,0.8
2026-01-19T1900,2587A,105.287,27.3133,毕节市,八中,细颗粒物(PM2.5),138,126,85,105,68,67,,72,72,15,23,9,11,0.9,1.1
2026-01-19T1900,2588A,105.3079,27.2987,毕节市,师专,细颗粒物(PM2.5),133,127,80,101,63,73,,78,77,13,18,8,10,1.0,1
2026-01-19T1900,4263A,105.3688,27.3598,毕节市,工业大道,细颗粒物(PM2.5),109,115,87,82,63,71,,84,79,17,15,10,11,/,/
2026-01-19T1900,1629A,117.9961,37.3604,滨州市,第二水厂,,34,34,34,3,15,46,,55,55,14,11,11,9,0.6,0.6
2026-01-19T1900,1630A,117.9789,37.3931,滨州市,北中新校,,34,34,33,7,14,46,,55,55,14,15,5,6,0.5,0.4
2026-01-19T1900,3514A,117.9379,37.3959,滨州市,中海酒店,,31,31,31,3,18,44,,54,54,16,12,7,6,0.6,0.5
2026-01-19T1900,3515A,117.9381509,37.35547456,滨州市,开发区一中,,36,36,35,3,15,51,,62,62,12,8,10,10,0.5,0.4
2026-01-19T1900,3516A,118.0914,37.6938,滨州市,金海六路,,27,27,34,3,10,59,,71,69,7,7,3,3,0.2,0.3
2026-01-19T1900,4028A,117.9955,37.3752,滨州市,滨州市西街道办事处,,31,31,29,9,18,53,,63,63,14,10,10,8,0.5,0.5
2026-01-19T1900,2311A,115.8071,33.8399,亳州市,污水处理厂,,48,41,31,33,26,51,,52,52,15,15,3,2,0.3,0.3
2026-01-19T1900,2312A,115.7789,33.8519,亳州市,三国揽胜宫,颗粒物(PM10),61,71,40,39,34,49,,49,49,9,10,2,1,0.5,0.4
2026-01-19T1900,3332A,115.7631,33.803,亳州市,亳州学院,细颗粒物(PM2.5),58,46,35,41,29,49,,50,50,17,16,4,2,0.6,0.5
2026-01-19T1900,2693A,82.0482,44.8553,博尔塔拉蒙古自治州,市党校,,,73,66,21,23,44,,49,47,24,18,4,3,,2.2
2026-01-19T1900,2694A,82.0805,44.8966,博尔塔拉蒙古自治州,市环保局,颗粒物(PM10),74,97,70,45,40,39,,45,45,30,19,8,6,1.3,1.3
2026-01-19T1900,1071A,116.8733,38.2922,沧州市,沧县城建局,,42,42,46,19,22,53,,62,59,20,22,5,6,0.4,0.4
2026-01-19T1900,1072A,116.8462,38.3189,沧州市,电视转播站,,37,37,44,9,16,47,,60,56,25,26,1,3,0.6,0.5
2026-01-19T1900,1073A,116.8588,38.3161,沧州市,市环保局,,40,40,44,24,25,41,,55,49,20,23,4,5,0.4,0.4
2026-01-19T1900,3324A,116.8011,38.294,沧州市,河北水利电力学院,,29,29,35,10,14,48,,59,54,21,20,3,3,0.3,0.3
2026-01-19T1900,2622A,97.1813,31.1289,昌都市,昌都监测站,,24,22,55,9,25,76,,78,77,18,26,4,5,0.4,0.9
2026-01-19T1900,3719A,97.1707,31.1428,昌都市,昌都会议中心,,26,17,17,8,16,83,,73,73,1,7,3,2,0.3,0.4
2026-01-19T1900,2692A,87.2722,44.0298,昌吉回族自治州,新区政务中心,颗粒物(PM10),65,79,91,46,63,54,,56,56,17,31,6,5,0.6,0.7
2026-01-19T1900,3613A,87.3069,44.0093,昌吉回族自治州,亚心广场,细颗粒物(PM2.5),83,78,93,61,74,54,,54,54,14,21,7,8,0.7,0.8
2026-01-19T1900,4164A,87.2057,43.9289,昌吉回族自治州,财政所,细颗粒物(PM2.5),59,51,69,42,55,59,,57,57,15,22,5,4,0.4,0.8
2026-01-19T1900,1120A,125.2874,43.9024,长春市,客车厂,,49,49,41,25,30,29,,53,46,33,25,15,11,0.6,0.5
2026-01-19T1900,1121A,125.2943,43.8508,长春市,邮电学院,,40,40,38,26,28,23,,50,45,37,26,12,11,0.6,0.6
2026-01-19T1900,1122A,125.3648,43.8745,长春市,劳动公园,,38,38,37,25,22,31,,52,48,29,22,11,10,0.6,0.6
2026-01-19T1900,1123A,125.3233,43.8781,长春市,园林处,,36,36,36,22,26,30,,52,48,28,19,10,11,0.6,0.5
2026-01-19T1900,1124A,125.4604,43.7904,长春市,净月潭,,43,43,41,17,27,42,,50,50,17,22,9,6,0.4,0.5
2026-01-19T1900,1126A,125.38,43.8422,长春市,经开区环卫处,,36,36,38,19,23,35,,52,49,26,26,6,8,0.5,0.5
2026-01-19T1900,1127A,125.234,43.7761,长春市,高新区管委会,细颗粒物(PM2.5),53,37,43,37,33,38,,63,58,29,25,13,7,0.4,0.4
2026-01-19T1900,1128A,125.1695,43.83,长春市,岱山公园,颗粒物(PM10),51,51,46,34,37,41,,55,52,20,23,6,6,0.5,0.5
2026-01-19T1900,4281A,125.334645,43.916281,长春市,北亚泰大街1068号,,41,41,38,26,25,27,,50,46,33,25,16,12,0.4,0.4
2026-01-19T1900,1335A,113.082,28.2421,长沙市,经开区环保局,,19,19,50,8,31,5,,7,6,22,20,2,2,0.5,0.6
2026-01-19T1900,1336A,112.8873,28.2202,长沙市,高开区环保局,,22,22,36,3,22,10,,14,9,18,16,4,4,0.5,0.6
2026-01-19T1900,1337A,113.0785,28.2012,长沙市,马坡岭,,19,19,49,7,30,2,,7,5,23,20,3,3,0.7,0.7
2026-01-19T1900,1338A,112.9448,28.1894,长沙市,湖南师范大学,,25,25,42,6,24,10,,14,10,22,19,3,3,0.6,0.7
2026-01-19T1900,1339A,113.0177,28.1322,长沙市,雨花区环保局,细颗粒物(PM2.5),67,,42,48,33,4,,10,7,24,21,6,6,0.8,0.9
2026-01-19T1900,1340A,112.9795,28.2593,长沙市,伍家岭,,18,18,45,9,31,7,,12,8,25,22,4,4,0.6,0.7
2026-01-19T1900,1341A,113.002,28.1944,长沙市,火车新站,,20,,44,14,33,8,,15,10,22,19,1,1,0.8,0.8
2026-01-19T1900,1342A,112.9846,28.1177,长沙市,天心区环保局,,15,15,43,9,29,9,,13,10,26,23,4,4,0.5,0.6
2026-01-19T1900,1343A,112.8906,28.1307,长沙市,湖南中医药大学,,12,12,42,6,25,10,,14,10,24,21,4,4,0.6,0.7
2026-01-19T1900,1727A,113.1146,36.1547,长治市,清华站,细颗粒物(PM2.5),73,64,58,53,55,29,,38,35,25,18,7,8,1.1,0.9
2026-01-19T1900,1730A,113.0887,36.2126,长治市,审计局,细颗粒物(PM2.5),79,76,62,58,62,29,,36,34,24,17,7,6,1.1,1
2026-01-19T1900,1731A,113.0845,36.1856,长治市,长治八中,细颗粒物(PM2.5),82,74,68,60,60,28,,35,35,22,16,8,8,1.1,1
2026-01-19T1900,2845A,113.1561,36.1912,长治市,德盛苑,细颗粒物(PM2.5),83,,57,61,58,34,,40,38,22,16,7,7,1.0,0.9
2026-01-19T1900,3568A,113.0603,36.0464,长治市,向阳小学,细颗粒物(PM2.5),83,103,92,61,66,28,,35,31,28,25,8,7,1.2,1
2026-01-19T1900,3569A,112.8788,36.315,长治市,屯留一中,细颗粒物(PM2.5),87,95,90,64,75,19,,26,26,51,45,9,9,2.0,1.7
2026-01-19T1900,4189A,113.113092,36.199482,长治市,英华南巷50号,,,,61,53,53,27,,38,35,,16,6,6,1.0,0.9
2026-01-19T1900,4190A,113.23666,36.33435,长治市,学府街1号,细颗粒物(PM2.5),63,61,66,45,58,27,,37,34,34,24,10,9,1.1,1.1
2026-01-19T1900,1854A,111.696,28.9725,常德市,市二中,,,26,49,17,33,27,,38,32,15,18,4,4,,0.7
2026-01-19T1900,3138A,111.7152,29.0288,常德市,武陵区永安,,23,21,52,16,34,28,,38,32,21,18,4,4,0.6,0.6
2026-01-19T1900,3139A,111.6891,28.9881,常德市,鼎城区玉霞,,24,24,45,15,33,28,,40,33,18,18,6,6,0.6,0.7
2026-01-19T1900,3140A,111.6651,29.0526,常德市,武陵区长庚,,29,29,48,18,35,27,,38,32,18,18,3,4,0.7,0.7
2026-01-19T1900,1196A,119.9524,31.7586,常州市,市监测站,,21,21,30,13,15,62,,68,55,12,16,4,6,0.9,1
2026-01-19T1900,1200A,119.9351,31.703,常州市,武进监测站,,22,20,32,15,18,59,,64,51,12,17,8,10,0.8,0.9
2026-01-19T1900,3002A,119.9701,31.813,常州市,行政中心,,31,31,31,8,14,63,,67,53,13,14,3,4,0.4,0.4
2026-01-19T1900,3003A,120.0434,31.7726,常州市,经开区,,26,26,33,9,12,61,,64,52,12,16,2,3,0.3,0.4
2026-01-19T1900,3010A,119.8919,31.7892,常州市,钟楼,,20,15,31,10,13,61,,66,52,6,10,5,5,0.3,0.3
2026-01-19T1900,3429A,119.8595,31.706,常州市,武进经发区,,20,19,29,12,16,64,,67,53,14,18,3,3,0.5,0.7
2026-01-19T1900,3430A,119.5812,31.7256,常州市,金坛城区,,22,22,30,12,16,61,,66,53,9,11,6,6,0.5,0.6
2026-01-19T1900,4089A,119.9551,31.863,常州市,崇义南街5-H号,,26,26,24,7,8,63,,67,53,9,11,3,4,0.5,0.6
2026-01-19T1900,2220A,120.4318,41.588,朝阳市,西梁,,32,32,32,21,9,53,,66,63,12,9,5,6,0.5,0.4
2026-01-19T1900,2221A,120.452,41.565,朝阳市,河畔小区,,28,28,31,10,8,56,,66,64,13,9,8,7,0.9,0.5
2026-01-19T1900,2222A,120.4176,41.5648,朝阳市,八里堡,,38,38,40,14,11,54,,63,61,13,10,8,8,0.4,0.4
2026-01-19T1900,3026A,116.6179,23.6608,潮州市,市政府,颗粒物(PM10),53,56,86,34,74,99,,125,125,17,27,4,12,0.5,0.7
2026-01-19T1900,4036A,116.646,23.676,潮州市,金山,,50,50,70,31,60,113,,135,135,15,21,4,5,0.5,0.6
2026-01-19T1900,2473A,113.0116,25.8228,郴州市,市职中,,38,38,69,16,55,4,,10,3,20,22,3,4,0.6,0.8
2026-01-19T1900,2475A,113.0381,25.8074,郴州市,市审计局,,37,37,71,19,56,4,,13,4,18,21,3,3,/,/
2026-01-19T1900,2476A,113.0348,25.7757,郴州市,市环保局,,37,37,77,18,54,4,,13,4,19,24,2,4,0.5,0.7
2026-01-19T1900,4252A,113.0138,25.8011,郴州市,好美居路49号,,32,29,56,22,54,14,,24,12,20,25,2,4,/,/
2026-01-19T1900,1431A,103.9727,30.7242,成都市,金泉两河,,44,44,66,17,44,32,,55,34,34,28,2,2,0.8,0.9
2026-01-19T1900,1432A,104.1423,30.6765,成都市,十里店,,36,36,65,17,44,46,,60,48,20,21,3,3,0.6,0.7
2026-01-19T1900,1433A,104.0594,30.5765,成都市,三瓦窑,,39,39,63,22,49,50,,65,50,21,20,2,2,0.7,0.8
2026-01-19T1900,1434A,104.1122,30.6306,成都市,沙河铺,,38,38,69,16,52,44,,54,42,23,25,3,3,0.6,0.8
2026-01-19T1900,2880A,104.0219,30.6561,成都市,大石西路,,35,35,75,17,53,38,,51,41,14,16,4,5,0.6,0.7
2026-01-19T1900,3136A,104.2724,30.559,成都市,龙泉驿区区政府,,22,22,56,14,44,47,,56,49,16,17,6,6,0.7,0.8
2026-01-19T1900,3357A,104.0028,30.6891,成都市,金博路,,32,32,61,8,44,44,,57,42,24,27,5,6,0.9,1
2026-01-19T1900,3359A,104.056,30.5228,成都市,华阳,,22,22,57,14,45,44,,54,,26,28,2,2,0.5,0.6
2026-01-19T1900,3488A,104.387954,30.746684,成都市,青石路225号,,40,36,64,28,49,44,,57,49,18,23,4,4,0.5,0.8
2026-01-19T1900,3489A,104.0788,30.4054,成都市,科学城,,14,12,64,8,52,44,,55,46,17,26,6,6,0.8,0.9
2026-01-19T1900,4011A,103.8505,30.6946,成都市,光华大道三段,颗粒物(PM10),58,66,81,36,54,40,,70,45,30,27,3,3,0.4,0.4
2026-01-19T1900,4144A,104.3257,30.6406,成都市,八角井街185号,,38,38,73,8,42,45,,52,48,13,20,2,2,0.8,0.8
2026-01-19T1900,4224A,104.2433276,30.53529463,成都市,鲸龙路1057号,,15,14,57,8,44,45,,52,46,17,26,4,5,0.6,0.7
2026-01-19T1900,1062A,117.9531,40.908,承德市,铁路,,36,36,37,8,7,61,,65,62,4,3,3,4,0.2,0.2
2026-01-19T1900,1063A,117.9397,40.9763,承德市,中国银行,,44,44,35,3,5,57,,64,61,5,2,2,3,0.3,0.2
2026-01-19T1900,4073A,117.9462,40.95,承德市,杏林街1号,,22,22,28,10,8,59,,64,61,3,2,3,4,0.2,0.2
2026-01-19T1900,4274A,117.7994,40.9605,承德市,滨河大街98号,,19,18,31,9,12,60,,63,62,6,3,2,3,0.2,0.2
2026-01-19T1900,2314A,117.4698,30.6617,池州市,池州学院,,15,13,43,10,28,32,,34,34,23,29,2,3,0.5,0.6
2026-01-19T1900,3237A,117.4918,30.6617,池州市,展览馆,,16,16,51,10,32,29,,33,33,32,31,2,1,0.8,0.8
2026-01-19T1900,3333A,117.5626,30.695,池州市,第八中学,,13,13,47,8,28,36,,33,33,21,29,3,3,0.9,0.9
2026-01-19T1900,3334A,117.5037,30.6242,池州市,第十二中学,,12,10,40,6,26,37,,32,32,21,30,2,3,0.7,0.8
2026-01-19T1900,1744A,118.9229,42.2816,赤峰市,松山一中,,33,33,25,6,8,49,,58,55,14,11,5,5,0.6,0.5
2026-01-19T1900,1745A,118.9588,42.2733,赤峰市,哈达街,,29,29,28,9,10,52,,62,60,14,10,5,4,0.7,0.6
2026-01-19T1900,1746A,118.8792,42.2551,赤峰市,天义路,,29,24,14,20,9,51,,63,62,15,8,6,6,0.8,0.6
2026-01-19T1900,3058A,119.2656,42.0356,赤峰市,银河街,,39,39,29,16,10,52,,73,66,12,4,11,10,0.6,0.5
2026-01-19T1900,3286A,118.9359,42.3146,赤峰市,桥北物流园区,,28,,16,19,10,57,,67,65,11,7,8,6,0.4,0.3
2026-01-19T1900,2521A,107.3473,22.4137,崇左市,市环保局江州分局,,,47,76,30,51,86,,115,112,19,24,,12,0.9,1
2026-01-19T1900,4256A,107.375,22.3736,崇左市,石景林东路7号,,38,38,60,20,45,81,,116,114,13,21,7,9,0.5,0.7
2026-01-19T1900,3207A,118.31131,32.3033,滁州市,市政府原办公楼,,30,30,36,19,22,57,,59,55,15,14,3,4,0.3,0.2
2026-01-19T1900,3331A,118.3268,32.2633,滁州市,图书馆,,30,22,29,21,18,54,,56,51,7,10,8,7,0.3,0.4
2026-01-19T1900,4101A,118.3196,32.3335,滁州市,银山路666号,,36,29,30,25,26,51,,55,49,11,11,3,3,0.2,0.3
2026-01-19T1900,4102A,118.3426,32.2979,滁州市,黄山路555号,,34,34,36,23,24,54,,59,54,3,8,12,14,0.4,0.5
2026-01-19T1900,2606A,101.5379,25.0492,楚雄彝族自治州,市经济开发区,,26,26,28,15,18,66,,72,72,13,21,3,3,0.7,0.6
2026-01-19T1900,4153A,101.5536,25.0343,楚雄彝族自治州,团结路562号,,23,22,25,14,16,72,,74,74,6,17,5,4,0.4,0.4
2026-01-19T1900,2549A,107.5087,31.2186,达州市,市环境监测站,,12,12,69,7,44,33,,55,32,13,19,6,8,0.6,0.6
2026-01-19T1900,2550A,107.4988,31.2132,达州市,凤凰小区,,10,7,73,7,48,32,,51,33,15,21,5,7,0.6,0.7
2026-01-19T1900,2551A,107.5081,31.1987,达州市,达县机关宾馆,,30,,81,21,55,24,,46,26,23,28,3,5,0.8,1.2
2026-01-19T1900,2552A,107.4644,31.2124,达州市,市政中心,,23,23,79,7,45,26,,53,28,27,30,7,8,0.6,0.6
2026-01-19T1900,2614A,100.2168,25.5818,大理白族自治州,大理市环境监测站,,30,30,25,21,18,72,,78,78,13,8,6,6,0.6,0.6
2026-01-19T1900,2615A,100.1542,25.7055,大理白族自治州,大理古城,,29,24,27,20,17,81,,84,84,9,10,8,8,0.8,0.7
2026-01-19T1900,1109A,121.6119,38.974,大连市,甘井子,,29,29,26,12,13,59,,66,65,10,9,6,7,0.4,0.6
2026-01-19T1900,1110A,121.565,38.9509,大连市,周水子,,32,32,32,10,13,57,,63,63,10,8,10,11,0.3,0.4
2026-01-19T1900,1111A,121.5637,38.8849,大连市,星海三站,颗粒物(PM10),61,72,36,18,12,55,,62,61,15,13,9,9,0.5,0.5
2026-01-19T1900,1112A,121.6301,38.9117,大连市,青泥洼桥,,36,36,27,10,11,53,,62,61,10,8,8,9,0.4,0.5
2026-01-19T1900,1113A,121.6248,38.8643,大连市,傅家庄,,24,24,25,10,11,48,,56,55,16,12,6,8,0.2,0.3
2026-01-19T1900,1114A,121.5117,38.8636,大连市,七贤岭,,30,30,29,12,11,56,,60,60,7,6,7,7,0.4,0.5
2026-01-19T1900,1116A,121.7507,39.1339,大连市,金州,,39,39,29,13,13,66,,70,70,11,14,6,8,0.3,0.4
2026-01-19T1900,1117A,121.7811,39.0495,大连市,开发区,,28,28,25,13,12,61,,66,65,8,9,5,5,0.3,0.4
2026-01-19T1900,1118A,121.9762,39.0631,大连市,双D港,颗粒物(PM10),53,55,29,11,10,65,,70,69,8,8,7,7,0.2,0.3
2026-01-19T1900,4082A,121.2548,38.8188,大连市,旅顺,,29,29,21,6,6,60,,64,64,6,5,6,6,0.5,0.5
2026-01-19T1900,1789A,124.8085,46.0381,大庆市,大同区,,,58,39,34,22,36,,51,47,25,21,7,6,,0.7
2026-01-19T1900,1790A,125.1166,46.5255,大庆市,龙凤区,,48,48,39,29,24,27,,46,44,41,28,10,10,0.5,0.4
2026-01-19T1900,1791A,124.8894,46.4007,大庆市,红岗区,,40,40,30,19,18,29,,44,40,26,17,5,5,0.6,0.3
2026-01-19T1900,1792A,125.1391,46.578,大庆市,萨尔图区,颗粒物(PM10),56,62,35,20,18,28,,48,44,31,17,9,8,0.6,0.5
2026-01-19T1900,1793A,124.9026,46.6217,大庆市,让胡路区,,42,33,31,29,27,46,,58,55,21,12,8,8,0.7,0.6
2026-01-19T1900,3481A,125.127,46.6277,大庆市,萨区政府监测点,,32,32,35,9,17,28,,50,45,31,23,8,9,0.6,0.6
2026-01-19T1900,1723A,113.2926,40.0759,大同市,云冈宾馆,,,40,17,18,13,,,56,51,23,9,8,7,0.8,0.7
2026-01-19T1900,1724A,113.3437,40.0921,大同市,大同大学,,29,29,21,16,13,35,,62,54,31,8,5,3,0.9,0.7
2026-01-19T1900,1725A,113.2637,40.129,大同市,安家小村,,40,31,16,28,10,24,,59,47,36,9,9,8,0.8,0.4
2026-01-19T1900,3282A,113.3399,40.0586,大同市,大同市卫生学校,,30,30,21,12,9,46,,63,54,23,10,6,4,0.9,0.7
2026-01-19T1900,3565A,113.1371,40.1122,大同市,云冈站,,36,36,19,16,9,32,,54,47,22,9,6,8,0.7,0.5
2026-01-19T1900,3566A,113.1186,40.2556,大同市,图书馆,,41,41,23,20,13,31,,55,46,23,13,8,8,0.8,0.6
2026-01-19T1900,3567A,113.5931,40.0459,大同市,区一中,,45,,17,31,11,57,,71,70,16,6,11,3,0.8,0.3
2026-01-19T1900,4199A,113.2798248,40.09972476,大同市,魏都大道141号,,32,32,21,16,10,40,,60,52,28,9,7,5,1.1,0.7
2026-01-19T1900,2269A,124.1068,50.4091,大兴安岭地区,科技局,,,,16,16,9,52,,52,52,2,3,4,3,,0.2
2026-01-19T1900,3663A,124.117,50.4279,大兴安岭地区,红旗社区,,17,6,15,3,10,52,,52,52,4,9,5,6,0.3,0.3
2026-01-19T1900,1600A,124.33,40.0625,丹东市,江湾东路,,42,42,34,15,12,51,,60,56,14,13,8,7,0.5,0.5
2026-01-19T1900,1601A,124.4242,40.1513,丹东市,临江后街,,36,36,26,12,10,53,,63,58,10,8,6,5,0.4,0.5
2026-01-19T1900,1602A,124.3935,40.1461,丹东市,元宝山,,29,29,23,13,13,49,,64,59,16,10,10,8,0.6,0.5
2026-01-19T1900,1603A,124.3634,40.1093,丹东市,民主桥,,45,45,32,16,12,49,,62,55,15,11,10,8,0.5,0.4
2026-01-19T1900,3541A,109.5726195,19.51688767,儋州市,第一中学子站,,37,37,34,19,25,70,,74,74,5,4,4,5,0.6,0.6
2026-01-19T1900,3542A,109.5567,19.5187,儋州市,东坡学校子站,,31,31,32,19,19,80,,82,82,4,3,5,6,0.5,0.5
2026-01-19T1900,2616A,98.5611,24.4273,德宏傣族景颇族自治州,德宏州监测站,,42,42,66,23,47,81,,87,86,17,27,6,7,0.5,0.8
2026-01-19T1900,3677A,98.5887,24.4366,德宏傣族景颇族自治州,芒市人民政府综合楼,颗粒物(PM10),51,51,52,16,32,76,,75,75,14,15,4,5,0.7,0.8
2026-01-19T1900,1901A,104.424,31.1209,德阳市,东山公园,,26,26,49,13,38,51,,62,49,10,9,5,5,0.6,0.7
2026-01-19T1900,1902A,104.3827,31.1318,德阳市,西小区,,,40,64,16,41,,,61,48,15,14,3,3,0.5,0.9
2026-01-19T1900,1904A,104.3553,31.1091,德阳市,耐火材料厂,,36,36,55,20,40,44,,46,44,22,25,1,2,0.7,0.8
2026-01-19T1900,4145A,104.4144,31.1495,德阳市,市林业局,,31,31,53,12,35,45,,59,45,18,18,2,3,0.4,0.5
2026-01-19T1900,1622A,116.3034,37.4675,德州市,儿童乐园,,46,46,45,12,16,49,,61,57,18,20,10,11,0.6,0.7
2026-01-19T1900,1624A,116.2992,37.4449,德州市,监理站,,39,39,37,3,12,59,,70,67,17,19,8,10,0.6,0.7
2026-01-19T1900,3066A,116.2722,37.438,德州市,九衢泉纯净水厂,,41,41,38,9,15,54,,64,62,18,23,4,9,0.6,0.6
2026-01-19T1900,3371A,116.3693,37.44,德州市,开发区人民医院,颗粒物(PM10),56,61,41,12,14,48,,67,63,30,26,12,12,0.5,0.5
2026-01-19T1900,3511A,116.5687,37.3331,德州市,陵城艺术中心,颗粒物(PM10),60,70,36,12,13,42,,61,53,15,19,13,15,0.4,0.5
2026-01-19T1900,4292A,116.352738,37.420875,德州市,新河东路,颗粒物(PM10),52,53,41,9,16,50,,64,61,18,18,11,11,0.8,0.8
2026-01-19T1900,2621A,99.7054,27.8319,迪庆藏族自治州,迪庆州站,,,24,34,17,21,80,,84,84,5,12,4,5,,0.5
2026-01-19T1900,3180A,99.7122,27.8129,迪庆藏族自治州,质量技术监督局,,26,26,31,14,16,83,,90,90,7,12,4,4,0.3,0.5
2026-01-19T1900,4257A,104.6092,35.5962,定西市,将台街,,46,46,60,25,21,71,,74,74,8,7,8,8,0.3,0.3
2026-01-19T1900,4309A,104.6159,35.5701,定西市,正龙路62号,颗粒物(PM10),59,68,61,28,22,67,,70,70,6,5,6,4,0.4,0.3
2026-01-19T1900,1390A,113.7943,23.0132,东莞市,东城石井,颗粒物(PM10),64,77,84,41,48,144,,238,238,52,53,8,8,0.6,0.6
2026-01-19T1900,1391A,113.7384,22.9659,东莞市,南城西平,细颗粒物(PM2.5),62,65,83,44,50,123,,211,211,45,58,7,7,0.7,0.8
2026-01-19T1900,3319A,113.7283,23.041,东莞市,万江金泰,颗粒物(PM10),66,82,100,43,59,152,,238,238,49,61,7,7,1.1,1.1
2026-01-19T1900,4129A,113.8666,23.1062,东莞市,裕兴路,臭氧1小时(O3_1h),118,118,126,54,63,236,,267,267,54,61,7,11,0.8,0.9
2026-01-19T1900,4130A,114.0076,22.9739,东莞市,教育路1号,颗粒物(PM10),99,148,118,65,56,144,,202,202,68,68,6,6,0.9,0.8
2026-01-19T1900,4131A,113.7981,22.8124,东莞市,长怡路1号,颗粒物(PM10),65,79,86,39,44,87,,144,142,62,58,7,7,1.0,0.9
2026-01-19T1900,1666A,118.6612,37.4313,东营市,市环保局,,27,27,28,3,12,57,,66,66,20,18,6,8,0.5,0.5
2026-01-19T1900,3036A,118.6903,37.4337,东营市,开发区管委会,,37,37,34,3,11,59,,66,66,14,11,6,7,0.2,0.3
2026-01-19T1900,3365A,118.5721,37.5654,东营市,垦利区民丰路,,,,32,,17,,,56,,,9,,6,,0.5
2026-01-19T1900,3498A,118.5063,37.8606,东营市,河口城区,,,31,37,,14,,,65,65,16,15,3,4,0.7,0.9
2026-01-19T1900,3646A,118.4979,37.4623,东营市,胜利站,,28,28,29,3,12,55,,63,63,17,15,11,12,0.4,0.5
2026-01-19T1900,3734A,118.5753,37.4405,东营市,理想之城,,41,41,33,9,18,47,,57,57,14,11,2,4,0.4,0.5
2026-01-19T1900,1591A,110.0024,39.8127,鄂尔多斯市,综合楼,,39,39,32,9,7,47,,60,54,20,13,8,8,0.5,0.4
2026-01-19T1900,1592A,109.9485,39.8259,鄂尔多斯市,巴音孟克林场办事处,,27,27,30,9,7,48,,59,58,21,13,8,9,0.6,0.5
2026-01-19T1900,1593A,109.7734,39.5987,鄂尔多斯市,康泽苑,,22,22,24,12,13,67,,74,72,9,8,4,6,0.4,0.5
2026-01-19T1900,1594A,109.8121,39.5987,鄂尔多斯市,华泰汽车城,,19,19,25,9,11,57,,68,66,14,9,6,8,0.2,0.3
2026-01-19T1900,1595A,109.9734,39.7884,鄂尔多斯市,奥林花园,,36,36,38,3,7,42,,56,53,7,13,6,5,0.5,0.5
2026-01-19T1900,2436A,114.894,30.3989,鄂州市,市政府,,12,,21,8,6,23,,15,15,22,25,4,4,0.4,0.4
2026-01-19T1900,2437A,114.8986,30.3714,鄂州市,赵家坝,,12,9,26,8,9,22,,14,14,11,13,7,7,0.6,0.6
2026-01-19T1900,3654A,114.8093,30.4091,鄂州市,精准医疗中心,,11,10,19,3,5,34,,22,22,10,18,4,8,0.9,1
2026-01-19T1900,2454A,109.4978,30.2979,恩施土家族苗族自治州,湖北民院,,30,22,89,21,87,31,,45,36,12,19,6,6,0.8,1.2
2026-01-19T1900,3549A,109.5061,30.3771,恩施土家族苗族自治州,龙凤新区,,29,20,114,20,102,26,,40,32,14,18,6,7,0.8,1.1
2026-01-19T1900,2499A,108.3411,21.6159,防城港市,沙万,颗粒物(PM10),75,99,79,32,40,71,,78,78,38,38,11,10,0.8,0.9
2026-01-19T1900,2500A,108.3515,21.7733,防城港市,防城档案局,颗粒物(PM10),60,70,91,34,47,65,,53,53,20,24,5,5,0.7,0.8
2026-01-19T1900,2501A,108.3506,21.6414,防城港市,大海花园,颗粒物(PM10),56,62,57,28,41,93,,94,94,22,21,7,11,0.5,0.6
2026-01-19T1900,1371A,113.1293,23.0065,佛山市,湾梁,臭氧1小时(O3_1h),110,92,80,43,40,219,,199,199,36,52,/,/,/,/
2026-01-19T1900,1372A,113.1082,23.0477,佛山市,华材职中,臭氧1小时(O3_1h),105,117,83,65,53,210,,200,200,41,42,7,6,0.7,0.6
2026-01-19T1900,1373A,113.1439,23.045,佛山市,南海气象局,臭氧1小时(O3_1h),107,79,73,48,43,213,,192,192,40,53,/,/,/,/
2026-01-19T1900,1374A,113.2879,22.8094,佛山市,顺德苏岗,细颗粒物(PM2.5),83,103,74,61,46,178,,179,179,42,55,/,/,1.0,0.9
2026-01-19T1900,1376A,112.8384,22.8678,佛山市,高明孔堂,臭氧1小时(O3_1h),77,73,61,38,42,181,,185,185,20,35,/,/,/,/
2026-01-19T1900,1377A,112.8835,23.1584,佛山市,三水监测站,颗粒物(PM10),95,139,148,63,79,159,,182,182,86,110,2,7,0.9,1
2026-01-19T1900,1378A,112.8668,23.185,佛山市,三水云东海,颗粒物(PM10),71,92,131,42,87,154,,193,193,47,81,/,/,/,/
2026-01-19T1900,3625A,113.2568,22.7629,佛山市,容桂街道办,细颗粒物(PM2.5),73,90,77,53,49,142,,160,160,44,48,/,/,/,/
2026-01-19T1900,1282A,119.2681,26.0506,福州市,师大,,40,40,37,13,21,104,,102,102,26,26,4,3,0.5,0.6
2026-01-19T1900,1283A,119.2983,26.1028,福州市,五四北路,,33,20,33,10,22,104,,101,101,19,22,5,5,0.5,0.8
2026-01-19T1900,1284A,119.2648,26.0769,福州市,杨桥西路,,34,33,36,11,23,107,,103,103,13,18,5,4,/,/
2026-01-19T1900,3048A,119.5799,26.0937,福州市,九龙,,44,44,29,22,16,125,,117,117,14,17,4,5,0.6,0.7
2026-01-19T1900,3526A,119.5188,25.9666,福州市,吴航,,50,50,30,24,17,125,,116,116,14,18,4,5,0.5,0.6
2026-01-19T1900,4104A,119.3106,26.0648,福州市,路通桥巷6号,,32,26,40,14,26,101,,98,98,16,20,/,/,/,/
2026-01-19T1900,1755A,123.7974,41.8494,抚顺市,望花区,,46,46,42,18,28,48,,59,57,17,27,9,3,0.7,0.9
2026-01-19T1900,1756A,123.9161,41.8827,抚顺市,顺城区,细颗粒物(PM2.5),63,48,48,45,31,26,,63,57,42,32,10,9,1.0,1
2026-01-19T1900,1757A,124.0437,41.8615,抚顺市,东洲区,,45,44,64,31,39,41,,54,52,18,22,11,26,0.7,0.9
2026-01-19T1900,1758A,123.9246,41.8638,抚顺市,新抚区,,39,39,50,14,27,35,,63,60,32,26,7,8,0.7,0.8
2026-01-19T1900,1759A,124.0972,41.8961,抚顺市,大伙房水库,,33,33,36,20,26,47,,57,56,14,13,11,10,0.6,0.7
2026-01-19T1900,1760A,123.708,41.8386,抚顺市,沈抚新城,,,43,47,17,33,35,,60,55,28,29,9,9,,1.4
2026-01-19T1900,2377A,116.3544,27.9833,抚州市,市站,颗粒物(PM10),57,64,99,17,66,28,,39,36,19,20,6,8,0.9,1.1
2026-01-19T1900,2378A,116.3562,27.9631,抚州市,血防站,,49,49,101,18,68,26,,41,34,25,22,4,5,1.0,1.6
2026-01-19T1900,2379A,116.3561,28.0007,抚州市,采茶剧团,颗粒物(PM10),53,56,98,20,70,28,,38,37,14,15,4,5,1.0,1.3
2026-01-19T1900,2380A,116.3854,27.9648,抚州市,医学分院,颗粒物(PM10),57,64,106,17,63,25,,37,36,14,13,4,8,0.7,1
2026-01-19T1900,2207A,121.6095,41.9978,阜新市,工业园区,颗粒物(PM10),55,59,53,10,11,58,,64,62,6,10,7,8,0.3,0.4
2026-01-19T1900,2208A,121.6567,42.0188,阜新市,长青街,,42,42,33,8,6,56,,63,62,6,5,6,7,0.3,0.3
2026-01-19T1900,2209A,121.6672,42.07,阜新市,农业园区,颗粒物(PM10),51,52,36,17,5,54,,62,59,8,6,10,6,0.2,0.2
2026-01-19T1900,2211A,121.6343,42.0455,阜新市,玉龙新城,颗粒物(PM10),56,62,45,8,7,53,,60,58,9,12,3,4,0.4,0.4
2026-01-19T1900,2301A,115.8276,32.8929,阜阳市,市监测站,,45,45,30,29,21,47,,46,46,18,20,4,4,0.4,0.5
2026-01-19T1900,2303A,115.8551,32.8606,阜阳市,开发区,,36,36,10,23,24,52,,50,50,15,20,4,4,0.4,0.5
2026-01-19T1900,2875A,115.783962,32.889217,阜阳市,阜阳职业技术学院,,,43,20,33,19,55,,54,54,,11,6,5,0.4,0.5
2026-01-19T1900,3468A,115.79,32.8614,阜阳市,市规划展馆,颗粒物(PM10),52,53,25,35,21,57,,54,54,14,17,5,4,0.6,0.7
2026-01-19T1900,3469A,115.835101,32.918568,阜阳市,枣园社区,颗粒物(PM10),51,51,27,34,20,50,,51,51,14,17,2,3,0.8,0.9
2026-01-19T1900,2669A,102.9097,34.9841,甘南藏族自治州,州政府,颗粒物(PM10),74,97,93,38,38,65,,70,70,15,14,9,9,0.6,0.6
2026-01-19T1900,3380A,102.8915,34.9618,甘南藏族自治州,甘肃民族师范学院,颗粒物(PM10),77,104,110,38,37,67,,70,70,16,20,7,11,0.1,0.2
2026-01-19T1900,2570A,101.96,30.048,甘孜藏族自治州,水桥子,,39,36,32,27,16,89,,86,86,7,25,6,6,0.6,0.6
2026-01-19T1900,3065A,101.9534,29.9976,甘孜藏族自治州,州环保局,,43,37,28,30,12,86,,89,89,13,12,5,6,0.6,0.4
2026-01-19T1900,2363A,114.9368,25.8663,赣州市,地委,,,91,83,,59,,,123,123,15,28,9,9,1.0,1.1
2026-01-19T1900,2364A,114.946,25.8483,赣州市,气象台,颗粒物(PM10),82,114,98,58,58,128,,129,129,22,44,5,4,0.7,0.6
2026-01-19T1900,2365A,114.932,25.8332,赣州市,市图书馆,细颗粒物(PM2.5),89,106,97,66,64,102,,103,103,18,34,4,6,1.2,1.2
2026-01-19T1900,2366A,114.8905,25.8472,赣州市,华坚鞋城,细颗粒物(PM2.5),89,105,95,66,61,98,,102,102,20,32,8,10,0.7,0.7
2026-01-19T1900,3109A,115.0094,25.8614,赣州市,赣县区卫计委,细颗粒物(PM2.5),104,,77,78,68,118,,117,117,13,31,7,7,1.0,0.9
2026-01-19T1900,2684A,106.2753,36.0057,固原市,监测站,颗粒物(PM10),54,57,53,21,15,47,,68,44,13,11,5,5,0.6,0.5
2026-01-19T1900,2685A,106.2384,36.0189,固原市,新区,颗粒物(PM10),55,59,52,24,17,47,,67,42,12,9,7,7,0.7,0.6
2026-01-19T1900,2544A,106.6307,30.4577,广安市,市委,,15,15,134,3,120,29,,40,34,10,19,9,10,0.8,1
2026-01-19T1900,2545A,106.6266,30.4662,广安市,友谊中学,,18,,128,12,110,32,,42,37,13,18,7,7,1.3,1.5
2026-01-19T1900,2547A,106.6386,30.4551,广安市,广电花园,,18,,114,12,124,27,,34,30,15,20,8,8,0.7,0.9
2026-01-19T1900,2902A,106.6347,30.4868,广安市,北辰小学,,18,12,125,12,112,32,,40,35,11,20,6,8,1.0,1.2
2026-01-19T1900,2524A,105.8211,32.4444,广元市,老城,,35,35,55,15,18,51,,62,50,16,15,3,2,0.5,0.5
2026-01-19T1900,2526A,105.8629,32.429,广元市,监测站,,30,30,50,14,16,48,,58,46,14,13,7,7,0.6,0.5
2026-01-19T1900,3617A,105.8047,32.4167,广元市,经开区,,37,37,49,15,16,46,,57,44,12,13,1,1,0.5,0.5
2026-01-19T1900,1345A,113.2346,23.1423,广州市,广雅中学,臭氧1小时(O3_1h),101,137,109,74,60,202,,170,170,46,81,5,4,0.5,0.4
2026-01-19T1900,1346A,113.2611,23.105,广州市,市五中,臭氧1小时(O3_1h),109,103,89,54,52,218,,196,196,56,77,9,8,/,/
2026-01-19T1900,1348A,113.3477,23.0916,广州市,广东商学院,细颗粒物(PM2.5),73,79,92,53,60,155,,175,175,30,88,8,8,0.9,0.8
2026-01-19T1900,1349A,113.4332,23.105,广州市,市八十六中,臭氧1小时(O3_1h),59,62,94,39,50,167,,212,212,48,92,9,10,/,/
2026-01-19T1900,1350A,113.3506,22.9488,广州市,番禺中学,颗粒物(PM10),60,69,77,38,45,133,,173,173,46,56,5,5,1.0,0.9
2026-01-19T1900,1351A,113.2147,23.3918,广州市,花都师范,细颗粒物(PM2.5),149,192,138,114,79,207,,189,189,70,117,8,7,0.9,1
2026-01-19T1900,1352A,113.2599,23.1329,广州市,市监测站,臭氧1小时(O3_1h),99,122,103,63,59,199,,175,175,54,84,4,3,/,/
2026-01-19T1900,1353A,113.5618,23.3119,广州市,九龙镇镇龙,细颗粒物(PM2.5),99,128,113,74,64,151,,180,180,93,67,7,5,0.8,0.7
2026-01-19T1900,1354A,113.2764,23.1544,广州市,麓湖,臭氧1小时(O3_1h),83,86,94,53,58,186,,169,169,37,90,10,10,0.5,0.7
2026-01-19T1900,2846A,113.3209,23.1323,广州市,体育西,,,95,107,53,62,164,,170,170,48,97,8,7,,1
2026-01-19T1900,3298A,113.5718,23.5493,广州市,从化街口,细颗粒物(PM2.5),108,136,108,81,71,166,,194,194,73,59,11,10,1.2,1
2026-01-19T1900,3299A,113.3463,23.369,广州市,白云竹料,细颗粒物(PM2.5),90,120,120,67,70,168,,182,182,74,85,6,4,1.0,1
2026-01-19T1900,3300A,113.2981,23.2365,广州市,白云嘉禾,细颗粒物(PM2.5),87,107,98,64,55,150,,178,178,90,87,8,7,/,/
2026-01-19T1900,3301A,113.4256,23.1716,广州市,黄埔科学城,臭氧1小时(O3_1h),74,92,105,50,62,179,,210,210,56,75,5,5,0.8,0.9
2026-01-19T1900,3302A,113.3942,23.0485,广州市,番禺大学城,颗粒物(PM10),68,85,107,38,51,173,,214,214,35,69,11,11,0.6,0.6
2026-01-19T1900,3303A,113.4923,22.8169,广州市,南沙黄阁,,43,38,50,30,40,131,,160,160,34,41,5,6,/,/
2026-01-19T1900,3304A,113.534,22.7893,广州市,南沙街,颗粒物(PM10),63,75,66,27,38,114,,144,144,28,37,5,5,0.6,0.6
2026-01-19T1900,3443A,113.2905,23.5541,广州市,花都梯面,颗粒物(PM10),92,133,97,65,52,67,,169,168,113,67,5,5,/,/
2026-01-19T1900,3445A,113.786,23.7479,广州市,从化良口,细颗粒物(PM2.5),74,69,61,54,47,133,,169,169,27,26,8,8,/,/
2026-01-19T1900,3446A,113.805,23.2614,广州市,增城荔城,细颗粒物(PM2.5),74,92,83,54,56,166,,191,191,32,32,8,8,0.8,0.7
2026-01-19T1900,2506A,109.604387,23.066791,贵港市,江南子站,颗粒物(PM10),73,95,110,30,62,62,,95,95,34,32,6,9,0.8,1
2026-01-19T1900,2508A,109.5669,23.1065,贵港市,荷城子站,颗粒物(PM10),64,78,93,44,66,54,,86,84,40,29,7,10,1.0,1.1
2026-01-19T1900,3405A,109.5886,23.1172,贵港市,新世纪学校,颗粒物(PM10),59,68,100,37,71,70,,92,92,24,25,/,/,0.5,0.6
2026-01-19T1900,4260A,109.5933,23.095,贵港市,中山路155-3号,颗粒物(PM10),52,54,103,28,68,83,,101,101,19,29,/,/,0.4,0.8
2026-01-19T1900,1439A,106.6863,26.6035,贵阳市,马鞍山,,41,41,35,24,28,75,,76,76,15,12,6,5,/,/
2026-01-19T1900,1441A,106.6241,26.6266,贵阳市,鉴湖路,颗粒物(PM10),51,51,48,31,29,80,,84,84,14,14,7,7,0.4,0.5
2026-01-19T1900,1442A,106.7468,26.6344,贵阳市,燕子冲,,42,41,39,29,33,80,,84,84,19,19,5,7,0.4,0.4
2026-01-19T1900,1443A,106.6556,26.4362,贵阳市,碧云窝,,,44,47,31,28,,,133,127,13,12,5,6,/,/
2026-01-19T1900,1445A,106.6963,26.6063,贵阳市,红边门,,49,46,49,34,34,71,,80,80,20,27,6,14,/,/
2026-01-19T1900,1446A,106.7162383,26.56964667,贵阳市,新华路,,45,44,54,31,30,77,,79,79,16,34,11,14,0.5,0.6
2026-01-19T1900,1447A,106.6742,26.542,贵阳市,太慈桥,,48,48,40,27,26,71,,72,72,15,19,4,4,/,/
2026-01-19T1900,4230A,106.688212,26.56952,贵阳市,花果园大街66号,细颗粒物(PM2.5),55,39,33,39,36,62,,69,68,25,22,5,6,/,/
2026-01-19T1900,4231A,106.687268,26.516892,贵阳市,漓江路57号,,46,46,43,31,30,76,,80,80,17,20,12,12,0.4,0.4
2026-01-19T1900,1864A,110.3091,25.2705,桂林市,龙隐路小学,,38,38,72,25,59,42,,56,56,22,27,6,7,0.7,0.9
2026-01-19T1900,1865A,110.2849361,25.22909545,桂林市,八中,,40,38,70,28,55,40,,50,50,23,29,6,8,0.9,1
2026-01-19T1900,3531A,110.296,25.1254,桂林市,旅游学院,,39,31,59,27,49,46,,65,64,19,20,4,6,0.5,0.5
2026-01-19T1900,4222A,110.1835,25.2444,桂林市,环湖路276号,,49,34,68,34,55,32,,56,54,18,26,6,10,0.8,0.9
2026-01-19T1900,4301A,110.2803,25.2773,桂林市,信义路13号,细颗粒物(PM2.5),64,,77,46,60,30,,50,,22,28,4,5,1.0,1.4
2026-01-19T1900,2674A,100.2262,34.4854,果洛藏族自治州,玛沁县大武镇,,,,121,,19,93,,80,80,2,7,14,17,0.3,0.4
2026-01-19T1900,1130A,126.5557,45.8109,哈尔滨市,松北商大,,23,18,44,16,34,37,,47,46,21,28,4,7,0.4,0.6
2026-01-19T1900,1132A,126.6162,45.719,哈尔滨市,南岗学府路,细颗粒物(PM2.5),60,45,52,43,35,16,,47,43,36,26,15,9,0.7,0.6
2026-01-19T1900,1133A,126.6894,45.7733,哈尔滨市,太平宏伟公园,,40,40,52,19,37,51,,55,55,11,22,13,12,0.6,0.9
2026-01-19T1900,1134A,126.6361,45.7672,哈尔滨市,道外承德广场,,35,35,52,20,28,48,,51,51,16,25,8,10,0.3,0.5
2026-01-19T1900,1136A,126.644,45.7261,哈尔滨市,动力和平路,细颗粒物(PM2.5),52,48,49,36,31,23,,45,42,34,28,14,15,0.7,0.7
2026-01-19T1900,1137A,126.5933,45.7479,哈尔滨市,道里建国路,,28,28,43,19,38,42,,44,44,16,29,10,12,0.5,0.6
2026-01-19T1900,1138A,126.6127,45.6119,哈尔滨市,平房东轻厂,细颗粒物(PM2.5),54,50,75,38,61,14,,39,37,47,44,14,11,1.0,1.2
2026-01-19T1900,1139A,126.5875,45.9827,哈尔滨市,呼兰师专,细颗粒物(PM2.5),55,40,66,39,64,34,,42,42,20,28,10,11,0.6,0.9
2026-01-19T1900,1140A,126.6299,45.6799,哈尔滨市,省农科院,细颗粒物(PM2.5),67,52,74,48,64,18,,39,39,42,46,16,15,0.7,0.9
2026-01-19T1900,4282A,126.6769,45.7379,哈尔滨市,华山路1号,,44,44,40,28,28,26,,43,42,34,30,20,16,0.6,0.7
2026-01-19T1900,4283A,126.9717,45.5356,哈尔滨市,解放大街52号,,49,39,93,34,88,38,,49,49,23,29,13,13,0.5,1
2026-01-19T1900,2688A,93.5124,42.8176,哈密市,地区监测站,颗粒物(PM10),89,128,168,19,27,58,,56,56,11,14,2,2,0.1,0.3
2026-01-19T1900,2689A,93.5014,42.8312,哈密市,哈密师范学校,颗粒物(PM10),78,106,146,22,26,57,,54,54,11,16,3,3,0.1,0.2
2026-01-19T1900,2671A,100.9016,36.9464,海北藏族自治州,海晏县西海镇,颗粒物(PM10),65,80,87,32,33,66,,75,75,18,12,11,14,0.7,0.7
2026-01-19T1900,3867A,102.074,36.5056,海东市,平安区公安局北苑,颗粒物(PM10),73,95,74,26,30,44,,46,46,23,14,45,26,0.8,0.7
2026-01-19T1900,4163A,102.0984,36.5119,海东市,滨河路,,,96,80,42,33,,,54,54,32,28,56,26,0.8,0.7
2026-01-19T1900,1410A,110.3189,20.0596,海口市,海南大学,,44,44,37,25,19,124,,112,112,8,7,6,6,0.3,0.3
2026-01-19T1900,1411A,110.2827,20.0051,海口市,秀英海南医院,,41,41,36,23,15,111,,101,101,10,8,7,7,0.4,0.3
2026-01-19T1900,1412A,110.3391,19.9979,海口市,海南师范大学,,40,40,36,26,18,115,,106,106,10,9,6,6,0.6,0.6
2026-01-19T1900,1413A,110.3303,20.0359,海口市,龙华路环保局宿舍,,39,39,37,26,19,116,,109,109,14,8,/,/,0.9,0.8
2026-01-19T1900,3539A,110.5111,19.9737,海口市,桂林洋子站,,,,32,28,18,,,93,93,,8,/,/,/,/
2026-01-19T1900,4134A,110.1952,20.0451,海口市,长滨二路9号,,41,41,32,24,18,119,,105,105,7,7,/,/,/,/
2026-01-19T1900,2673A,100.6158,36.2985,海南藏族自治州,共和县恰卜恰镇,颗粒物(PM10),75,100,103,43,40,80,,86,86,15,24,14,14,1.0,0.8
2026-01-19T1900,2676A,97.373,37.376,海西蒙古族藏族自治州,德令哈市,颗粒物(PM10),60,70,61,8,15,90,,96,96,18,11,10,11,0.7,0.7
2026-01-19T1900,1049A,114.492,36.5712,邯郸市,矿院,,34,34,49,19,45,56,,61,61,14,20,2,2,0.3,0.5
2026-01-19T1900,1050A,114.4839,36.6136,邯郸市,丛台公园,,32,30,46,22,41,59,,64,64,16,22,1,3,0.3,0.5
2026-01-19T1900,3458A,114.7893,36.5592,邯郸市,香泉濮院小区,,26,24,41,18,35,52,,60,60,14,18,1,2,0.3,0.5
2026-01-19T1900,3580A,114.1998,36.4439,邯郸市,峰峰矿区临水派出所,,25,23,38,17,43,63,,64,64,8,14,3,4,0.5,0.7
2026-01-19T1900,4068A,114.5209,36.7697,邯郸市,建安街268号,,33,33,45,10,34,48,,59,58,12,14,2,2,0.3,0.5
2026-01-19T1900,4069A,114.5488,36.6177,邯郸市,丛台东路558号,,29,21,41,20,37,61,,68,68,6,13,1,2,0.3,0.5
2026-01-19T1900,2635A,107.0155,33.0707,汉中市,市监测站,细颗粒物(PM2.5),55,,69,39,43,35,,42,37,22,20,4,5,0.6,0.7
2026-01-19T1900,2636A,107.0083,33.114,汉中市,鑫源开发区,颗粒物(PM10),68,85,67,23,40,27,,45,35,24,20,4,5,0.6,0.6
2026-01-19T1900,2637A,107.0072,33.0323,汉中市,南郑大河坎水厂,细颗粒物(PM2.5),54,50,95,38,54,37,,40,37,21,22,5,5,0.7,0.9
2026-01-19T1900,1223A,120.2073,30.2111,杭州市,滨江,,13,10,48,9,23,39,,46,43,20,37,5,6,0.4,0.4
2026-01-19T1900,1224A,120.0625,30.2737,杭州市,西溪,,,,70,,27,,,46,,,34,,8,,0.9
2026-01-19T1900,1226A,120.3417,30.315,杭州市,下沙,,36,36,71,19,33,34,,45,39,26,39,6,7,0.6,0.7
2026-01-19T1900,1227A,120.1252,30.2465,杭州市,卧龙桥,,15,15,51,3,27,39,,49,44,23,41,7,8,0.3,0.3
2026-01-19T1900,1228A,120.1902,30.2691,杭州市,浙江农大,,16,13,40,11,22,40,,46,43,24,43,4,4,0.6,0.6
2026-01-19T1900,1230A,120.1195,30.3121,杭州市,和睦小学,,19,16,60,13,30,43,,47,44,16,34,4,4,0.6,0.7
2026-01-19T1900,1231A,120.3076,30.4146,杭州市,临平镇,,15,14,46,10,28,43,,53,45,12,26,6,6,0.6,0.6
2026-01-19T1900,1232A,120.2753,30.1839,杭州市,城厢镇,,,,64,,27,36,,46,42,21,38,7,7,0.6,0.5
2026-01-19T1900,1233A,120.0883,30.1808,杭州市,云栖,,19,19,60,6,30,41,,50,48,19,35,4,4,0.7,0.7
2026-01-19T1900,3557A,119.9463,30.0496,杭州市,镇二中,,13,6,51,3,33,38,,44,43,25,44,4,5,0.7,0.7
2026-01-19T1900,3558A,119.7184,30.2367,杭州市,市府大楼,,13,9,79,3,37,39,,47,45,16,28,9,10,0.9,1
2026-01-19T1900,3656A,120.1554,30.2863,杭州市,消防大队,,20,20,63,11,33,38,,47,42,19,38,5,6,0.6,0.7
2026-01-19T1900,1270A,117.1957,31.7845,合肥市,明珠广场,,22,22,31,14,18,48,,44,44,11,19,4,5,0.7,0.8
2026-01-19T1900,1271A,117.307,31.8765,合肥市,三里街,,25,,35,17,17,49,,44,44,16,22,4,4,0.5,0.7
2026-01-19T1900,1272A,117.2587,31.8703,合肥市,琥珀山庄,,20,19,34,14,19,54,,47,47,12,21,7,7,0.5,0.6
2026-01-19T1900,1275A,117.2593,31.9376,合肥市,庐阳区,,19,19,36,12,18,49,,47,47,18,25,3,3,0.5,0.7
2026-01-19T1900,1276A,117.345251,31.861615,合肥市,瑶海区,,18,,33,12,17,55,,47,47,12,22,4,4,0.7,0.7
2026-01-19T1900,1277A,117.3033,31.7967,合肥市,包河区,,28,,34,19,22,44,,37,37,23,28,5,6,0.6,0.8
2026-01-19T1900,1278A,117.278,31.7392,合肥市,滨湖新区,,28,,33,19,23,48,,42,42,17,25,2,3,0.5,0.6
2026-01-19T1900,1279A,117.1324,31.8395,合肥市,高新区,,23,22,30,16,18,50,,47,47,17,22,3,3,0.6,0.7
2026-01-19T1900,3464A,117.3802,31.9148,合肥市,高教基地,,19,19,35,10,21,55,,49,49,2,13,6,7,0.3,0.5
2026-01-19T1900,4098A,117.2518,31.8404,合肥市,中国科学技术大学,,17,17,29,10,12,54,,48,48,12,21,6,6,0.4,0.6
2026-01-19T1900,3614A,79.9241,37.0878,和田地区,地区环保局,颗粒物(PM10),500,1084,1065,197,175,60,,60,60,16,17,2,3,0.3,0.6
2026-01-19T1900,3615A,79.9132,37.1137,和田地区,市环保局,颗粒物(PM10),500,1044,1173,193,169,66,,63,63,4,14,1,2,0.6,1.2
2026-01-19T1900,2517A,108.0496,24.6957,河池市,市环保站,细颗粒物(PM2.5),58,54,67,41,48,85,,107,107,16,18,3,7,0.7,0.8
2026-01-19T1900,4302A,108.0901,24.6945,河池市,上任中路54号,细颗粒物(PM2.5),63,53,69,45,53,85,,107,105,11,20,5,9,0.7,0.8
2026-01-19T1900,1697A,114.6962,23.7538,河源市,东埔,细颗粒物(PM2.5),78,80,67,57,49,68,,133,132,52,47,6,6,1.7,1.3
2026-01-19T1900,1698A,114.6895,23.7232,河源市,老城,细颗粒物(PM2.5),60,49,54,43,34,94,,133,133,16,27,6,6,0.6,0.7
2026-01-19T1900,3374A,115.5562,35.089,菏泽市,定陶老年大学,细颗粒物(PM2.5),58,53,45,41,33,37,,50,40,21,13,4,3,0.3,0.2
2026-01-19T1900,4114A,115.4239,35.2593,菏泽市,黄河路600号,细颗粒物(PM2.5),63,68,49,45,35,46,,50,46,25,18,3,2,0.7,0.5
2026-01-19T1900,4115A,115.5025,35.2727,菏泽市,菏泽市人社局,"颗粒物(PM10),细颗粒物(PM2.5)",57,64,47,40,32,44,,49,43,21,15,3,2,0.5,0.3
2026-01-19T1900,4184A,115.479691,35.244011,菏泽市,永昌路1号,,,,48,55,41,44,,51,45,19,12,5,3,0.4,0.2
2026-01-19T1900,4193A,115.471542,35.280012,菏泽市,长城路999号,细颗粒物(PM2.5),63,64,50,45,34,43,,48,43,20,14,11,9,0.8,0.7
2026-01-19T1900,2514A,111.5264,24.4178,贺州市,环保小区,细颗粒物(PM2.5),67,79,87,48,63,53,,88,83,23,29,7,8,0.9,0.7
2026-01-19T1900,2515A,111.561,24.4074,贺州市,政协大楼,细颗粒物(PM2.5),75,86,86,55,62,52,,82,81,18,31,10,17,1.0,0.8
2026-01-19T1900,3534A,111.4744,24.455,贺州市,西湾,细颗粒物(PM2.5),68,75,92,49,65,42,,66,66,21,37,7,8,1.1,1.4
2026-01-19T1900,2385A,114.17,35.9019,鹤壁市,市监测站,,49,49,59,27,46,48,,41,41,15,20,2,4,0.5,0.7
2026-01-19T1900,2386A,114.2953,35.7512,鹤壁市,市交警支队,颗粒物(PM10),52,54,61,26,42,45,,39,39,16,19,3,4,0.5,0.6
2026-01-19T1900,2387A,114.2877,35.7302,鹤壁市,迎宾馆,,46,45,60,32,43,50,,43,43,20,25,7,4,0.6,0.7
2026-01-19T1900,3474A,114.2616,35.6824,鹤壁市,大新区,,48,48,63,20,38,52,,44,44,16,22,6,5,0.4,0.8
2026-01-19T1900,3596A,114.1573,35.9607,鹤壁市,南山宾馆,,45,45,60,31,44,56,,49,49,8,14,4,4,0.4,0.6
2026-01-19T1900,2244A,130.2537,47.3416,鹤岗市,哈啤分公司,,39,27,33,27,28,65,,72,71,7,10,7,5,0.4,0.5
2026-01-19T1900,2245A,130.2683,47.3087,鹤岗市,斯达机电,,46,34,41,32,31,59,,64,64,9,14,6,7,0.5,0.6
2026-01-19T1900,2246A,130.3114,47.3388,鹤岗市,东山纸板厂,,43,,45,30,42,63,,67,66,6,27,8,11,0.5,1.6
2026-01-19T1900,2263A,127.4832,50.2524,黑河市,交通局,,26,18,36,18,28,46,,52,52,15,21,6,8,0.3,0.4
2026-01-19T1900,2264A,127.5146,50.2339,黑河市,环保局,,23,23,35,16,28,39,,49,47,25,25,5,10,0.5,0.6
2026-01-19T1900,1074A,115.6839,37.754,衡水市,电机北厂,颗粒物(PM10),52,53,44,22,25,42,,55,52,18,21,3,4,0.4,0.4
2026-01-19T1900,1075A,115.6303,37.7318,衡水市,市监测站,,,41,44,14,23,,,56,56,16,23,6,6,0.4,0.5
2026-01-19T1900,3188A,115.6684,37.7216,衡水市,市城管局,,46,46,46,23,26,48,,58,56,13,18,5,7,0.4,0.4
2026-01-19T1900,3459A,115.599,37.5491,衡水市,地表水厂,,41,41,34,14,17,49,,60,58,11,12,2,3,0.4,0.4
2026-01-19T1900,2457A,112.6209,26.9268,衡阳市,衡阳化工总厂,,16,14,49,11,41,7,,14,13,21,17,5,6,0.9,1
2026-01-19T1900,2458A,112.621,26.8957,衡阳市,珠晖区环保局,,32,,52,22,52,7,,13,12,24,21,3,3,1.0,1.1
2026-01-19T1900,2459A,112.628,26.8654,衡阳市,市委党校,,25,25,53,11,33,7,,13,13,23,21,6,6,1.0,1.1
2026-01-19T1900,2460A,112.6007,26.8977,衡阳市,市监测站,,24,24,62,16,42,8,,14,13,16,14,4,5,1.2,1.2
2026-01-19T1900,2461A,112.5658,26.9013,衡阳市,真空机电公司,,36,36,57,7,32,11,,16,16,22,20,5,7,1.1,1.2
2026-01-19T1900,3399A,112.6703,26.8817,衡阳市,师范学院,,23,16,54,16,39,8,,15,15,22,22,1,2,1.1,1.2
2026-01-19T1900,3038A,103.3757,23.3679,红河哈尼族彝族自治州,州图书馆,,38,38,37,22,24,77,,81,81,7,11,8,8,0.5,0.6
2026-01-19T1900,4154A,103.401,23.3561,红河哈尼族彝族自治州,蒙自市朝阳路,,,,26,,22,76,,81,81,4,12,7,9,,0.5
2026-01-19T1900,1090A,111.6506,40.7517,呼和浩特市,呼市一监,,29,29,18,20,9,48,,64,59,14,6,10,8,0.3,0.3
2026-01-19T1900,1094A,111.7516,40.8369,呼和浩特市,如意水处理厂,,26,26,13,14,6,48,,62,59,18,5,17,8,0.4,0.3
2026-01-19T1900,1095A,111.727798,40.806187,呼和浩特市,二十九中,,28,28,13,14,7,47,,62,59,18,6,15,11,0.5,0.4
2026-01-19T1900,1097A,111.717,40.7617,呼和浩特市,化肥厂生活区,,31,31,16,15,7,49,,62,60,17,8,4,5,0.4,0.3
2026-01-19T1900,3699A,111.6519,40.8389,呼和浩特市,海东办,,36,36,11,15,8,50,,66,62,16,6,4,4,0.5,0.3
2026-01-19T1900,4275A,111.591512,40.827312,呼和浩特市,成吉思汗西街8号,,48,48,18,15,7,34,,57,54,26,6,7,6,0.4,0.3
2026-01-19T1900,4276A,111.6597,40.8077,呼和浩特市,公园东路75号,,41,41,13,28,9,41,,57,53,19,8,11,6,0.4,0.3
2026-01-19T1900,4277A,111.5427,40.7846,呼和浩特市,金海路35号,,46,46,18,17,7,41,,57,54,18,9,10,10,0.6,0.5
2026-01-19T1900,3061A,119.7511,49.1576,呼伦贝尔市,国华电力东,,28,28,28,18,22,49,,48,48,17,18,9,8,0.4,0.4
2026-01-19T1900,4279A,119.7569,49.2222,呼伦贝尔市,伊敏大街东7号,,32,26,25,22,21,47,,48,47,9,8,10,8,0.2,0.2
2026-01-19T1900,1250A,120.075,30.867,湖州市,城西水厂,,20,10,34,7,21,63,,69,59,11,20,4,5,0.5,0.5
2026-01-19T1900,2873A,120.083,30.8929,湖州市,仁皇山新区,,20,9,37,6,18,64,,70,60,15,24,4,4,0.5,0.6
2026-01-19T1900,2907A,120.1846,30.8592,湖州市,吴兴区站,颗粒物(PM10),54,57,54,6,19,59,,59,52,11,30,4,4,0.2,0.3
2026-01-19T1900,3562A,120.4146,30.8538,湖州市,南浔区站,,18,15,38,8,19,56,,60,51,17,26,5,6,0.7,0.8
2026-01-19T1900,1607A,120.904878,40.721091,葫芦岛市,龙港区,,42,42,36,17,15,51,,66,63,17,16,9,15,0.5,0.6
2026-01-19T1900,1608A,120.8382,40.7521,葫芦岛市,化工街,,48,48,31,14,10,45,,60,57,18,11,14,12,0.5,0.5
2026-01-19T1900,1609A,120.8339,40.7078,葫芦岛市,新区,,43,43,28,19,14,41,,62,58,25,13,20,15,0.7,0.6
2026-01-19T1900,1610A,120.8697,40.7679,葫芦岛市,东城区,,45,40,29,31,15,35,,64,57,34,17,33,18,0.7,0.6
2026-01-19T1900,2483A,109.9297,27.5383,怀化市,河西地税局,,39,32,80,27,61,21,,26,26,18,18,2,3,/,/
2026-01-19T1900,2484A,109.9783,27.5342,怀化市,市四医院,,36,36,86,10,55,18,,22,22,13,19,3,4,0.6,0.7
2026-01-19T1900,2485A,109.9971,27.5579,怀化市,监测楼,,32,32,72,22,56,25,,28,27,15,15,2,2,0.1,0.3
2026-01-19T1900,1210A,119.0566,33.5991,淮安市,钵池山,,29,29,25,19,19,49,,53,53,14,12,6,6,0.3,0.3
2026-01-19T1900,1211A,119.0083,33.578,淮安市,北京南路,,34,34,29,18,17,48,,51,51,12,9,6,6,0.7,0.6
2026-01-19T1900,1212A,118.9938,33.6083,淮安市,市监测站,,,,19,22,18,,,53,53,18,13,7,7,,0.3
2026-01-19T1900,1213A,119.135,33.5038,淮安市,楚州区监测站,,25,20,22,17,15,57,,56,56,10,7,8,8,0.5,0.5
2026-01-19T1900,3426A,118.8757,33.2897,淮安市,新华书店,,30,29,28,21,18,42,,44,44,23,17,7,7,0.4,0.4
2026-01-19T1900,4092A,119.119691,33.550006,淮安市,枚皋中路89号,,32,25,26,22,17,59,,60,60,10,9,8,8,0.1,0.2
2026-01-19T1900,4206A,119.028838,33.631911,淮安市,承德北路606号,,30,29,30,21,20,54,,57,57,12,9,6,6,0.5,0.4
2026-01-19T1900,2282A,116.8005,33.9749,淮北市,监测站,细颗粒物(PM2.5),58,57,36,41,27,44,,50,47,21,18,4,4,0.5,0.5
2026-01-19T1900,2283A,116.8094,33.9008,淮北市,烈山区政府,细颗粒物(PM2.5),58,47,29,41,27,50,,50,50,12,14,2,3,0.4,0.4
2026-01-19T1900,4017A,116.7926,33.9534,淮北市,市博物馆,颗粒物(PM10),86,122,55,46,29,44,,51,48,26,23,3,2,0.7,0.7
2026-01-19T1900,4100A,116.8322,33.9884,淮北市,杜集区第一实验学校,,,53,38,51,28,41,,51,46,,14,12,11,0.9,0.9
2026-01-19T1900,2277A,116.8304,32.7726,淮南市,潘集区政府,,46,43,26,32,26,51,,52,52,13,18,4,4,0.6,0.7
2026-01-19T1900,2279A,116.8569,32.5949,淮南市,谢家集区政府,,35,28,19,24,19,51,,47,47,14,21,6,6,0.4,0.6
2026-01-19T1900,2280A,116.8279,32.6333,淮南市,八公山区政府,,33,32,21,23,19,54,,50,50,8,16,6,8,0.4,0.5
2026-01-19T1900,2894A,117.0561,32.6536,淮南市,经济技术开发区消防队,,46,40,33,32,24,48,,44,44,17,20,3,3,0.5,0.6
2026-01-19T1900,3329A,117.011,32.5891,淮南市,山南新区,,48,,30,33,18,54,,50,50,12,17,3,2,0.4,0.6
2026-01-19T1900,4209A,117.003137,32.644456,淮南市,国庆中路369号,,36,31,28,25,19,41,,38,38,17,19,5,7,0.7,0.7
2026-01-19T1900,2446A,114.9021,30.474,黄冈市,职工中心,,10,10,13,6,10,28,,20,20,11,17,6,6,0.9,0.9
2026-01-19T1900,2929A,114.8858,30.4519,黄冈市,红卫路,,13,13,15,3,9,28,,19,19,11,17,6,7,0.4,0.4
2026-01-19T1900,3398A,114.9134,30.4446,黄冈市,市林业局,,15,11,15,10,11,35,,28,28,19,24,5,4,0.8,0.9
2026-01-19T1900,2672A,102.02,35.5101,黄南藏族自治州,同仁县隆务镇,颗粒物(PM10),76,102,91,43,36,60,,63,63,11,7,13,12,0.6,0.5
2026-01-19T1900,2295A,118.2905,29.6965,黄山市,延安路89号,,22,,46,15,40,43,,42,42,17,19,3,4,0.6,0.7
2026-01-19T1900,2297A,118.1369,30.2755,黄山市,黄山区政府5号楼,,,,57,12,39,,,46,46,19,21,2,2,0.6,0.6
2026-01-19T1900,4210A,118.335445,29.720283,黄山市,滨江东路7-2号,,19,19,63,12,52,43,,44,42,15,18,/,/,/,/
2026-01-19T1900,2423A,115.0547,30.2332,黄石市,沈家营,,15,15,39,3,12,20,,7,7,14,23,7,6,1.3,1.2
2026-01-19T1900,2426A,114.899,30.211,黄石市,铁山,,22,22,28,9,15,17,,6,,14,20,5,5,0.5,0.6
2026-01-19T1900,2427A,115.0259,30.2108,黄石市,团城山,,17,17,44,3,11,20,,8,8,16,26,6,6,0.7,0.9
2026-01-19T1900,3149A,115.0174,30.1591,黄石市,笔架山北路,,14,14,45,3,13,18,,7,7,14,24,6,7,1.0,1.2
2026-01-19T1900,4185A,115.078022,30.21118,黄石市,磁湖东路29号,,,,35,4,17,20,,8,8,13,22,6,6,1.1,1.2
2026-01-19T1900,1392A,114.4181,23.0528,惠州市,河南岸金山湖子站,颗粒物(PM10),59,68,80,40,46,117,,154,154,25,30,4,7,0.7,0.8
2026-01-19T1900,1393A,114.4055,23.0824,惠州市,下埔横江三路子站,颗粒物(PM10),58,66,81,35,46,131,,175,169,25,31,6,9,0.7,0.8
2026-01-19T1900,1395A,114.4645,22.7832,惠州市,惠阳区承修路船湖子站,颗粒物(PM10),56,62,69,34,42,134,,151,151,20,30,6,7,0.6,0.6
2026-01-19T1900,1396A,114.5316,22.7423,惠州市,大亚湾管委会子站,颗粒物(PM10),55,60,64,27,35,123,,140,140,20,30,6,7,0.6,0.7
2026-01-19T1900,3314A,114.4334,22.8134,惠州市,惠阳秋长,颗粒物(PM10),60,70,74,37,42,144,,169,169,25,35,/,/,/,/
2026-01-19T1900,3452A,114.6521,22.7755,惠州市,大亚湾霞涌,颗粒物(PM10),51,52,52,21,25,144,,151,151,13,23,/,/,/,/
2026-01-19T1900,4300A,114.4089,23.1147,惠州市,文华一路1号,颗粒物(PM10),57,63,80,35,47,139,,174,174,30,43,/,/,/,/
2026-01-19T1900,2240A,130.9618,45.2926,鸡西市,环保局,,38,38,56,16,39,55,,57,57,7,18,6,9,0.2,0.4
2026-01-19T1900,2243A,130.9294,45.2959,鸡西市,第一中学,,33,24,45,23,34,59,,59,59,8,18,3,5,0.4,0.6
2026-01-19T1900,3707A,131.0069,45.2988,鸡西市,欧美日汽修厂,,26,26,70,12,53,55,,62,61,13,29,7,18,0.5,0.9
2026-01-19T1900,2367A,114.9753,27.0803,吉安市,红声器材厂,细颗粒物(PM2.5),74,92,120,54,84,42,,70,69,30,23,8,12,0.9,1.1
2026-01-19T1900,2369A,114.9903,27.1313,吉安市,市环境监测站,细颗粒物(PM2.5),67,81,115,48,82,39,,70,69,33,28,10,15,/,/
2026-01-19T1900,2370A,115.009527,27.096792,吉安市,青原区法院,细颗粒物(PM2.5),77,88,117,56,87,47,,68,64,27,21,12,13,0.8,1
2026-01-19T1900,1772A,126.54,43.8622,吉林市,哈达湾,,35,35,40,24,27,52,,61,59,16,16,44,13,0.7,0.7
2026-01-19T1900,1773A,126.5843,43.8358,吉林市,东局子,,32,32,39,14,24,51,,53,53,15,18,3,5,0.9,1
2026-01-19T1900,1774A,126.5051,43.8243,吉林市,电力学院,,30,30,45,21,38,54,,59,58,12,23,11,12,0.7,0.9
2026-01-19T1900,1775A,126.6133,43.8971,吉林市,江北,,34,34,45,22,34,46,,54,52,16,20,21,9,0.9,1.1
2026-01-19T1900,1776A,126.5549,43.8304,吉林市,江南公园,,28,28,34,19,30,52,,57,56,12,16,7,9,0.5,0.7
2026-01-19T1900,2868A,126.4737,43.953,吉林市,九站,,33,31,37,23,32,44,,56,53,22,28,7,7,0.7,0.8
2026-01-19T1900,1299A,116.9866,36.6118,济南市,科干所,,27,27,38,10,22,51,,53,53,17,15,6,6,0.3,0.4
2026-01-19T1900,1300A,116.9379,36.6652,济南市,农科所,,32,32,33,12,16,49,,55,55,21,18,8,6,0.5,0.6
2026-01-19T1900,1301A,117.1265,36.6736,济南市,开发区,,27,27,33,12,24,54,,56,56,24,24,3,4,0.5,0.6
2026-01-19T1900,1303A,117.0616,36.6865,济南市,省种子仓库,,39,39,36,3,19,58,,61,61,18,17,6,5,0.5,0.5
2026-01-19T1900,1304A,116.9495185,36.644937,济南市,机床二厂,,29,29,33,3,21,53,,57,57,18,18,5,4,0.3,0.4
2026-01-19T1900,1305A,117.0496,36.6629,济南市,市监测站,,32,32,34,10,20,56,,56,56,18,17,6,5,0.4,0.5
2026-01-19T1900,1306A,116.7674,36.5458,济南市,长清党校,,32,32,37,7,21,55,,54,54,14,15,7,6,0.4,0.6
2026-01-19T1900,1961A,117.5323,36.6865,济南市,东山小学,,32,32,37,3,18,66,,65,65,11,13,4,3,0.2,0.2
2026-01-19T1900,3059A,117.7181,36.205,济南市,泰兴公司,,39,39,35,19,27,65,,61,60,22,18,7,4,0.7,0.7
2026-01-19T1900,3064A,117.6861,36.2172,济南市,莱芜战役纪念馆,,,36,37,16,30,59,,58,,,19,,8,0.6,0.6
2026-01-19T1900,3494A,117.1673,36.9782,济南市,济阳区政府,,49,49,33,7,13,51,,58,58,15,16,5,5,0.4,0.5
2026-01-19T1900,3495A,117.1168,36.6299,济南市,锦屏中学,,24,24,31,3,20,58,,58,58,18,19,4,4,0.6,0.7
2026-01-19T1900,4108A,117.7107,36.2385,济南市,山财大街5号,,27,27,30,3,20,60,,57,55,20,17,12,8,0.6,0.7
2026-01-19T1900,4109A,116.9744,36.6889,济南市,无影山路12号,,24,24,29,6,17,53,,58,58,13,12,6,5,0.5,0.6
2026-01-19T1900,1653A,116.6229,35.4288,济宁市,火炬城,细颗粒物(PM2.5),77,100,48,56,37,43,,54,50,18,13,3,2,0.5,0.4
2026-01-19T1900,3500A,116.5808,35.3703,济宁市,北湖一中,细颗粒物(PM2.5),83,78,44,61,38,36,,50,46,28,20,2,2,0.7,0.6
2026-01-19T1900,3501A,116.8251,35.5592,济宁市,服务中心,颗粒物(PM10),56,61,42,34,29,45,,50,48,21,16,10,8,0.7,0.7
2026-01-19T1900,3678A,116.5907,35.4054,济宁市,市第七中学,细颗粒物(PM2.5),70,67,49,51,30,40,,55,50,22,15,6,6,0.7,0.5
2026-01-19T1900,4111A,116.6075,35.4566,济宁市,任和路,颗粒物(PM10),68,86,52,46,29,40,,51,46,21,15,4,3,0.8,0.7
2026-01-19T1900,4112A,116.5648,35.3921,济宁市,文体南路1号,细颗粒物(PM2.5),72,84,47,52,32,40,,52,48,20,13,2,2,0.6,0.5
2026-01-19T1900,2255A,130.2749,46.8028,佳木斯市,佳纺,,42,39,79,29,64,52,,52,51,9,33,7,8,0.5,0.9
2026-01-19T1900,2257A,130.3258,46.7975,佳木斯市,环保局,,43,30,71,30,75,58,,61,60,12,37,9,11,0.4,0.8
2026-01-19T1900,4285A,130.363,46.806,佳木斯市,顺和街,,29,28,65,20,52,50,,56,53,16,36,7,13,0.4,0.7
2026-01-19T1900,4286A,130.3952,46.8268,佳木斯市,长安路196号,,30,30,63,20,54,60,,58,58,6,34,5,8,0.4,0.7
2026-01-19T1900,1252A,120.7439,30.778,嘉兴市,清河小学,颗粒物(PM10),58,65,47,11,22,58,,62,51,11,20,4,5,0.5,0.4
2026-01-19T1900,1253A,120.7261,30.7477,嘉兴市,嘉兴学院,,,,43,7,17,56,,63,52,13,23,4,4,0.9,0.7
2026-01-19T1900,2872A,120.7845,30.7524,嘉兴市,南湖区残联,,18,18,36,7,18,55,,64,52,14,20,3,3,0.7,0.7
2026-01-19T1900,3407A,120.6915,30.7741,嘉兴市,秀洲住建,,17,16,37,10,20,53,,59,44,15,25,5,6,0.6,0.6
2026-01-19T1900,1945A,98.291,39.7705,嘉峪关市,气象局,颗粒物(PM10),59,68,53,24,17,44,,59,53,18,6,12,11,0.5,0.4
2026-01-19T1900,2884A,98.2672,39.7978,嘉峪关市,酒钢宾馆,颗粒物(PM10),60,70,56,29,15,44,,56,54,18,8,14,13,0.9,0.6
2026-01-19T1900,3248A,98.2644,39.7723,嘉峪关市,雄关区,,46,46,42,29,17,48,,60,53,19,9,6,11,0.5,0.4
2026-01-19T1900,1383A,113.1063,22.6058,江门市,北街,颗粒物(PM10),51,52,59,28,40,130,,178,178,22,23,/,/,/,/
2026-01-19T1900,1384A,113.073,22.5835,江门市,西区,颗粒物(PM10),60,70,67,30,43,123,,164,164,26,35,/,/,/,/
2026-01-19T1900,1385A,113.0218,22.531,江门市,圭峰西,颗粒物(PM10),56,62,55,28,37,118,,160,160,24,19,/,/,/,/
2026-01-19T1900,1386A,113.0826,22.5947,江门市,东湖,细颗粒物(PM2.5),55,56,66,39,36,139,,183,183,21,27,7,9,0.5,0.6
2026-01-19T1900,3311A,113.1077,22.5647,江门市,江海富民,颗粒物(PM10),61,71,76,29,38,133,,176,176,24,29,/,/,0.6,0.7
2026-01-19T1900,3449A,113.0496,22.4669,江门市,新会银湖,颗粒物(PM10),57,64,56,30,42,115,,153,153,25,33,8,7,0.3,0.4
2026-01-19T1900,3335A,113.3137,35.2643,焦作市,马村街道办,颗粒物(PM10),110,170,93,41,41,29,,42,36,28,17,7,5,0.6,0.5
2026-01-19T1900,3336A,113.2464,35.2374,焦作市,焦作技师学院,颗粒物(PM10),93,136,90,53,46,22,,38,33,27,16,9,8,1.2,1
2026-01-19T1900,3477A,113.1656,35.2536,焦作市,中站许衡医院,颗粒物(PM10),86,121,91,60,54,26,,43,38,33,19,4,4,0.9,0.8
2026-01-19T1900,3981A,113.2456,35.18,焦作市,原李万街道办,颗粒物(PM10),69,87,64,41,36,29,,42,38,26,17,3,4,0.6,0.5
2026-01-19T1900,4264A,113.234,35.219,焦作市,新安路1731号,,,,102,,48,,,39,35,28,10,4,5,0.7,0.6
2026-01-19T1900,4295A,113.2722,35.2121,焦作市,人民路3066号,颗粒物(PM10),70,89,69,48,40,24,,37,32,31,19,4,5,1.0,0.9
2026-01-19T1900,1708A,116.3701,23.5345,揭阳市,新兴,颗粒物(PM10),55,59,92,32,74,103,,138,138,35,43,11,10,0.7,0.9
2026-01-19T1900,1709A,116.3261,23.5442,揭阳市,西马,颗粒物(PM10),62,74,94,30,73,104,,138,138,21,32,5,6,0.5,0.8
2026-01-19T1900,1710A,116.361,23.5627,揭阳市,东兴,颗粒物(PM10),54,58,89,33,70,99,,127,127,21,35,8,12,/,/
2026-01-19T1900,1711A,116.4151,23.5295,揭阳市,渔湖,颗粒物(PM10),55,60,79,23,41,103,,137,137,25,36,6,6,/,/
2026-01-19T1900,3320A,116.4028,23.5699,揭阳市,曲溪,颗粒物(PM10),66,81,86,39,51,103,,151,144,26,41,5,12,1.3,0.9
2026-01-19T1900,1944A,102.1691,38.5166,金昌市,天庆家园,颗粒物(PM10),68,85,63,35,18,50,,58,55,17,10,13,25,0.7,0.6
2026-01-19T1900,4022A,102.1648,38.5369,金昌市,金川区人防中心,颗粒物(PM10),62,74,63,28,29,56,,60,60,12,8,7,12,0.7,0.6
2026-01-19T1900,4239A,102.193042,38.531887,金昌市,长春路96号,颗粒物(PM10),55,60,54,16,13,55,,56,56,10,5,8,6,0.8,0.6
2026-01-19T1900,1262A,119.6478,29.0773,金华市,十五中,,19,16,86,13,53,42,,45,45,28,38,3,4,0.5,0.7
2026-01-19T1900,1263A,119.6859,29.1032,金华市,监测站,,18,15,80,8,43,34,,36,36,35,48,1,2,0.6,0.7
2026-01-19T1900,3659A,119.656,29.1132,金华市,气象局,,16,16,86,7,36,33,,34,34,31,52,2,3,0.5,0.6
2026-01-19T1900,1767A,121.1114,41.0879,锦州市,南山,颗粒物(PM10),55,59,26,15,9,59,,69,66,9,7,8,9,0.6,0.5
2026-01-19T1900,1768A,121.060361,40.842794,锦州市,开发区,颗粒物(PM10),51,52,36,24,14,40,,62,59,24,16,8,9,0.4,0.4
2026-01-19T1900,1769A,121.1836,41.1118,锦州市,百股街道,,47,47,34,14,13,51,,64,61,14,12,8,10,0.7,0.6
2026-01-19T1900,1770A,121.1176,41.1224,锦州市,天安街道,颗粒物(PM10),51,52,29,17,7,60,,73,69,14,10,6,6,0.7,0.6
2026-01-19T1900,1771A,121.1303,41.1385,锦州市,北湖公园,,40,40,27,19,11,55,,66,64,9,6,10,9,0.6,0.6
2026-01-19T1900,2160A,112.8496,35.5051,晋城市,自来水公司,颗粒物(PM10),145,239,96,44,56,30,,35,35,22,20,3,3,0.8,0.9
2026-01-19T1900,2162A,112.8509,35.4886,晋城市,市环保局,颗粒物(PM10),81,111,83,41,51,33,,40,40,22,19,3,3,0.9,0.9
2026-01-19T1900,3620A,112.8258,35.4804,晋城市,泽州一中,颗粒物(PM10),70,90,78,31,50,35,,40,40,22,20,2,2,0.7,0.7
2026-01-19T1900,4078A,112.8246,35.5152,晋城市,前书院路,,,,90,38,46,31,,34,34,20,20,3,3,0.5,0.6
2026-01-19T1900,4079A,112.8864,35.4773,晋城市,祥云街666号,细颗粒物(PM2.5),92,85,72,68,60,33,,36,36,12,11,2,2,0.7,0.6
2026-01-19T1900,2174A,112.6992,37.6984,晋中市,榆次区政府,颗粒物(PM10),54,58,79,24,42,34,,51,48,35,38,9,9,0.2,0.4
2026-01-19T1900,2865A,112.7195,37.683,晋中市,榆次三中,颗粒物(PM10),59,68,84,17,40,31,,54,48,28,33,9,9,0.2,0.4
2026-01-19T1900,4080A,112.7375,37.7215,晋中市,广安街188号,颗粒物(PM10),51,51,83,23,46,43,,57,55,24,34,10,9,0.3,0.5
2026-01-19T1900,4200A,112.7478,37.6954,晋中市,迎宾街26号,颗粒物(PM10),56,61,82,17,45,39,,55,53,27,34,10,8,0.5,0.6
2026-01-19T1900,2439A,112.2012,31.048,荆门市,竹园小学,颗粒物(PM10),55,60,55,36,40,44,,50,42,22,21,1,2,0.3,0.4
2026-01-19T1900,2440A,112.1968,30.9892,荆门市,掇刀,,50,41,51,35,43,36,,44,36,15,16,2,3,0.4,0.6
2026-01-19T1900,3012A,112.1849,31.0361,荆门市,西山林语,细颗粒物(PM2.5),52,,53,36,38,35,,43,33,17,17,3,4,0.7,0.6
2026-01-19T1900,3547A,112.1631,31.0134,荆门市,龙泉中学南校,细颗粒物(PM2.5),60,52,53,43,45,40,,46,38,6,8,2,2,1.1,1
2026-01-19T1900,4124A,112.2213,31.0654,荆门市,新台西路6号,细颗粒物(PM2.5),69,62,56,50,49,36,,42,34,11,12,7,7,0.6,0.6
2026-01-19T1900,1844A,112.2493,30.3198,荆州市,市图书馆,细颗粒物(PM2.5),54,41,42,38,42,26,,38,31,18,16,4,4,0.8,0.8
2026-01-19T1900,1845A,112.2009,30.3543,荆州市,市委党校,细颗粒物(PM2.5),53,,44,37,42,22,,34,26,19,18,2,2,0.8,0.8
2026-01-19T1900,3194A,112.2749,30.3124,荆州市,管委会,颗粒物(PM10),68,85,45,35,42,26,,35,29,18,17,4,4,0.7,0.7
2026-01-19T1900,4268A,112.1722,30.3366,荆州市,学苑路85号,,29,,40,20,34,29,,42,33,14,14,2,4,0.8,0.8
2026-01-19T1900,2343A,117.2114,29.2931,景德镇市,老干部活动中心,,18,15,71,12,59,36,,49,45,11,23,4,5,0.7,1
2026-01-19T1900,2344A,117.1893,29.2789,景德镇市,兽医站,,26,26,72,7,45,45,,57,53,13,23,4,4,0.5,0.8
2026-01-19T1900,2346A,117.246,29.2958,景德镇市,陶研所,,19,17,57,13,51,43,,52,51,12,20,3,3,0.4,0.8
2026-01-19T1900,4289A,117.154766,29.256967,景德镇市,青少年活动中心,,25,25,87,12,52,43,,58,56,14,32,3,6,/,/
2026-01-19T1900,1803A,115.9873,29.6816,九江市,十里,,19,19,74,13,53,55,,49,49,19,25,4,4,0.8,1
2026-01-19T1900,1804A,115.9583,29.7047,九江市,茅山头,,25,24,69,17,47,37,,30,30,12,19,6,7,0.6,0.8
2026-01-19T1900,1805A,115.9877,29.7295,九江市,西园,,26,26,65,7,42,42,,36,36,26,39,3,3,0.7,0.9
2026-01-19T1900,1808A,115.9112,29.6038,九江市,综合工业园,,13,9,73,3,55,41,,35,35,22,34,1,2,0.5,1.2
2026-01-19T1900,3190A,116.0254,29.6995,九江市,外国语学校,,19,14,92,13,49,33,,28,28,19,26,8,8,0.8,0.9
2026-01-19T1900,4253A,116.010205,29.659402,九江市,莲花大道8号,,19,19,82,3,51,34,,31,30,11,14,3,3,0.4,0.6
2026-01-19T1900,4240A,98.495752,39.733935,酒泉市,玉门东路5号,颗粒物(PM10),57,63,50,21,17,56,,62,59,6,3,8,8,0.5,0.3
2026-01-19T1900,4241A,98.5099,39.7506,酒泉市,北大街108号,颗粒物(PM10),51,51,44,17,14,55,,58,57,7,6,7,8,0.4,0.3
2026-01-19T1900,2698A,76.0071,39.466,喀什地区,巡警大队,颗粒物(PM10),500,807,753,162,140,60,,52,52,13,17,4,4,0.5,0.7
2026-01-19T1900,2699A,75.9756,39.4693,喀什地区,吾办,颗粒物(PM10),500,662,621,169,139,65,,63,63,10,12,7,6,0.5,0.6
2026-01-19T1900,4027A,75.9485,39.4688,喀什地区,老干局,颗粒物(PM10),500,853,759,145,124,58,,60,60,8,10,3,3,0.3,0.4
2026-01-19T1900,1824A,114.3389,34.778,开封市,肿瘤医院,颗粒物(PM10),58,66,71,39,39,41,,41,41,25,22,4,4,0.8,0.7
2026-01-19T1900,1826A,114.2884,34.7966,开封市,世纪星幼儿园,细颗粒物(PM2.5),55,52,54,39,42,43,,43,41,20,20,5,5,0.6,0.6
2026-01-19T1900,3147A,114.3434,34.8101,开封市,龙亭公园,细颗粒物(PM2.5),59,,62,42,39,48,,45,45,21,19,6,6,0.7,0.6
2026-01-19T1900,3210A,114.3645,34.7955,开封市,汴京公园,细颗粒物(PM2.5),53,46,56,37,40,41,,40,40,16,14,3,3,0.7,1
2026-01-19T1900,3473A,114.2485,34.8306,开封市,技师学院,细颗粒物(PM2.5),59,62,58,42,41,37,,40,37,21,18,6,5,1.0,0.9
2026-01-19T1900,3592A,114.4518,34.7503,开封市,祥符区生态环境局,颗粒物(PM10),105,160,76,36,40,38,,39,39,30,25,4,4,0.7,0.7
2026-01-19T1900,1951A,84.886,45.6029,克拉玛依市,长征新村,,29,29,29,18,22,49,,42,42,18,21,6,5,0.4,0.5
2026-01-19T1900,1952A,84.8894,45.5827,克拉玛依市,南林小区,,17,17,27,6,17,54,,44,44,8,21,3,4,0.6,0.7
2026-01-19T1900,1954A,84.896,44.3328,克拉玛依市,独山子区,细颗粒物(PM2.5),125,,110,95,66,65,,54,54,30,44,5,5,0.4,0.7
2026-01-19T1900,1955A,85.6888,46.0909,克拉玛依市,乌尔禾区商贸楼,,21,14,22,3,13,65,,57,57,15,20,7,6,0.5,0.5
2026-01-19T1900,3612A,85.1045,45.6895,克拉玛依市,白碱滩区新站,,46,46,36,25,19,37,,37,37,35,30,8,8,0.3,0.2
2026-01-19T1900,2697A,76.1457,39.7143,克孜勒苏柯尔克孜自治州,市人民政府,颗粒物(PM10),500,1079,925,233,181,74,,73,73,3,7,3,3,0.3,0.3
2026-01-19T1900,3665A,76.1654,39.7157,克孜勒苏柯尔克孜自治州,克州文化中心,细颗粒物(PM2.5),267,,964,217,163,72,,72,72,2,6,2,3,0.3,0.4
2026-01-19T1900,1450A,102.8203,24.889,昆明市,呈贡新区,,39,39,33,10,17,76,,83,83,12,20,6,6,0.6,0.7
2026-01-19T1900,1452A,102.7253,25.0904,昆明市,龙泉镇,,28,28,36,9,20,70,,82,82,37,31,4,4,0.4,0.5
2026-01-19T1900,1453A,102.7267,25.0378,昆明市,东风东路,,25,23,41,13,22,79,,89,89,15,25,4,7,0.3,0.4
2026-01-19T1900,1454A,102.6744,25.0671,昆明市,金鼎山,,48,48,40,9,22,74,,82,82,14,23,4,6,0.6,0.8
2026-01-19T1900,1455A,102.6643,25.0401,昆明市,碧鸡广场,,25,20,38,10,20,77,,88,87,16,27,4,6,0.3,0.5
2026-01-19T1900,3179A,102.7491,25.012,昆明市,官渡区博物馆,,32,32,42,7,23,83,,93,91,13,28,3,5,0.2,0.6
2026-01-19T1900,3375A,102.8016,24.8336,昆明市,青年创业园,,29,17,32,10,19,90,,94,94,4,22,4,6,0.5,0.6
2026-01-19T1900,3550A,102.8,24.9787,昆明市,昆明学院,,27,23,35,10,20,84,,93,93,10,21,3,5,0.3,0.4
2026-01-19T1900,3551A,102.5969,24.6738,昆明市,晋宁区生态环境分局,,31,31,37,14,21,55,,57,57,7,15,3,2,0.5,0.6
2026-01-19T1900,3552A,102.6673,24.9861,昆明市,云天化总部,,27,14,31,3,19,86,,91,91,9,20,5,8,0,0.2
2026-01-19T1900,1456A,91.132,29.6515,拉萨市,八廓街,,32,28,32,6,16,101,,99,99,6,21,6,8,0.3,0.6
2026-01-19T1900,1457A,91.1221,29.6748,拉萨市,市环保局,,29,22,49,14,23,92,,88,88,11,34,8,11,0.5,1.4
2026-01-19T1900,1458A,91.0874,29.6476,拉萨市,区监测站,,30,13,21,3,10,93,,88,88,9,26,4,5,0.7,0.9
2026-01-19T1900,1459A,91.1774,29.6541,拉萨市,西藏大学,,31,21,27,7,13,98,,91,91,9,24,6,6,0.6,0.8
2026-01-19T1900,1460A,90.9798,29.6586,拉萨市,区辐射站,,29,20,48,10,23,90,,87,87,14,35,3,6,0.4,0.9
2026-01-19T1900,1461A,91.0831,29.6292,拉萨市,拉萨火车站,,,7,19,6,10,90,,91,86,6,15,,4,0.1,0.6
2026-01-19T1900,2520A,109.2203,23.7252,来宾市,来宾技工学校,颗粒物(PM10),61,72,102,37,70,75,,87,87,12,27,8,12,0.8,1
2026-01-19T1900,3535A,109.1781,23.7293,来宾市,兴宾区政府,细颗粒物(PM2.5),53,50,106,37,83,94,,100,100,8,20,6,10,0.6,0.9
2026-01-19T1900,4002A,109.2312,23.7428,来宾市,中南小学,颗粒物(PM10),58,66,100,34,73,85,,92,92,15,35,6,8,0.7,1
2026-01-19T1900,1479A,103.8309,36.0467,兰州市,铁路设计院,,,,,,,,,,,,,,,,
2026-01-19T1900,3241A,103.7439,36.0841,兰州市,百合公园,颗粒物(PM10),61,72,65,25,21,58,,58,58,11,13,4,4,0.7,0.6
2026-01-19T1900,3242A,103.9613,35.9985,兰州市,和平,颗粒物(PM10),60,69,67,32,22,71,,68,68,12,14,6,6,0.6,0.6
2026-01-19T1900,4236A,103.629272,36.093822,兰州市,庄浪东路808号,颗粒物(PM10),64,78,73,34,30,56,,56,56,23,15,11,13,0.5,0.4
2026-01-19T1900,4237A,103.7251,36.104344,兰州市,安宁西路88号,颗粒物(PM10),71,91,72,30,23,68,,66,66,12,13,8,9,0.4,0.3
2026-01-19T1900,4238A,103.846982,36.067567,兰州市,北滨河东路1号,颗粒物(PM10),59,68,62,27,25,68,,69,69,16,14,6,6,0.5,0.6
2026-01-19T1900,1067A,116.6712,39.5109,廊坊市,药材公司,,22,22,29,8,8,42,,63,57,21,10,2,2,0.4,0.4
2026-01-19T1900,1068A,116.7215,39.5592,廊坊市,开发区,,29,29,30,9,8,42,,65,58,21,11,1,2,0.3,0.3
2026-01-19T1900,1070A,116.7246,39.5273,廊坊市,北华航天学院,,,,39,11,10,43,,65,56,19,10,1,2,0.3,0.3
2026-01-19T1900,2919A,116.7022,39.5454,廊坊市,河北工业大学,,28,28,29,12,10,44,,63,57,14,7,1,3,0.4,0.3
2026-01-19T1900,2536A,103.7629,29.5844,乐山市,牛耳桥,,28,26,108,19,95,36,,42,37,20,37,4,4,0.7,1
2026-01-19T1900,2537A,103.7501,29.6002,乐山市,市第三水厂,,25,25,106,16,94,39,,42,40,18,38,5,6,0.7,1
2026-01-19T1900,2538A,103.7571,29.5664,乐山市,市监测站,,29,25,113,20,99,37,,44,38,16,25,5,6,0.6,0.9
2026-01-19T1900,3361A,103.7313,29.563,乐山市,理工大学,,23,23,118,16,103,37,,46,38,14,25,5,6,0.4,0.7
2026-01-19T1900,2599A,100.2497,26.8802,丽江市,丽江古城,,36,36,39,3,21,87,,89,89,10,16,9,10,0.4,0.5
2026-01-19T1900,2600A,100.2203,26.8906,丽江市,市中心,,29,20,22,9,10,90,,95,95,12,13,5,6,0.4,0.5
2026-01-19T1900,1267A,119.9141,28.4513,丽水市,监测站大楼,,19,19,54,12,41,48,,50,50,20,38,4,5,0.5,0.7
2026-01-19T1900,1268A,119.93,28.4589,丽水市,莲都小学,,17,17,53,9,25,47,,52,52,21,37,/,/,/,/
2026-01-19T1900,1269A,119.8794,28.4232,丽水市,余庄前,,16,16,55,9,34,44,,48,48,20,29,4,4,0.5,0.5
2026-01-19T1900,1173A,119.1759,34.5885,连云港市,市环境监测站,,39,34,28,27,20,46,,55,53,23,15,12,9,0.7,0.4
2026-01-19T1900,3000A,119.3577,34.6971,连云港市,德源药业,,41,41,44,19,20,60,,61,61,11,12,6,5,0.8,0.7
2026-01-19T1900,3007A,119.178,34.8442,连云港市,新城一中,,46,45,36,32,29,48,,54,52,26,20,12,14,0.9,1.1
2026-01-19T1900,3008A,119.3607,34.7519,连云港市,胡沟管理处,,22,22,24,14,17,64,,64,64,13,12,9,7,0.9,0.7
2026-01-19T1900,3009A,119.1478,34.5913,连云港市,矿山设计院,,34,34,29,19,18,53,,56,56,12,13,9,8,0.6,0.6
2026-01-19T1900,3434A,119.2414,34.6539,连云港市,工贸学校,颗粒物(PM10),51,51,34,24,21,56,,54,54,12,11,11,10,0.8,0.5
2026-01-19T1900,3664A,119.4171,34.734,连云港市,连云街道,,31,31,30,15,18,53,,58,58,26,22,5,3,0.6,0.6
2026-01-19T1900,2573A,102.2629,27.8981,凉山彝族自治州,西昌市政府,颗粒物(PM10),51,52,59,28,41,90,,90,90,15,22,15,10,0.9,0.8
2026-01-19T1900,2574A,102.2686,27.885,凉山彝族自治州,凉山州政府,细颗粒物(PM2.5),53,45,64,37,48,85,,89,89,20,29,17,11,0.9,0.8
2026-01-19T1900,4229A,102.2342,27.8859,凉山彝族自治州,凯乐南路30号,,47,47,72,24,43,97,,87,87,11,41,10,10,0.5,0.8
2026-01-19T1900,2212A,123.1978,41.2036,辽阳市,宏伟区,颗粒物(PM10),61,72,36,18,27,52,,65,62,10,13,13,9,0.3,0.4
2026-01-19T1900,2213A,123.1684,41.2497,辽阳市,新华园,颗粒物(PM10),74,97,38,18,18,39,,61,56,25,19,8,7,0.3,0.3
2026-01-19T1900,2214A,123.2355,41.2663,辽阳市,滨河路,颗粒物(PM10),68,85,41,26,26,40,,58,54,18,23,9,9,0.4,0.5
2026-01-19T1900,4083A,123.153,41.2874,辽阳市,铁西路150号,颗粒物(PM10),69,88,39,34,24,33,,66,60,30,26,17,11,0.8,0.7
2026-01-19T1900,2227A,125.1359,42.8845,辽源市,环保局,,46,46,45,20,23,49,,65,63,20,22,5,5,0.6,0.7
2026-01-19T1900,4085A,125.0998,42.9134,辽源市,安宁大街333号,,43,40,40,30,24,48,,63,59,19,15,9,9,0.6,0.6
2026-01-19T1900,1625A,115.9789,36.4372,聊城市,区政府,,31,31,39,11,17,49,,57,57,17,22,13,12,0.5,0.8
2026-01-19T1900,3200A,115.9772,36.4986,聊城市,监控中心,,27,27,30,12,20,55,,60,60,19,17,7,7,0.7,0.8
2026-01-19T1900,3513A,116.0443,36.436,聊城市,九州社区,,44,44,45,16,23,62,,65,65,7,8,3,5,0.4,0.6
2026-01-19T1900,4018A,116.0564,36.4609,聊城市,星美广场,,50,50,47,8,21,48,,52,52,15,14,4,6,0.3,0.6
2026-01-19T1900,4113A,116.0091,36.4495,聊城市,利民路,,31,31,37,7,17,50,,54,54,20,21,8,10,0.6,0.8
2026-01-19T1900,2632A,94.3683,29.6373,林芝市,林芝监测站,,49,49,19,15,8,82,,80,80,2,5,4,3,0.4,0.4
2026-01-19T1900,2633A,94.3616,29.6634,林芝市,林芝人民医院,颗粒物(PM10),70,90,25,15,9,83,,79,79,3,8,3,2,0.2,0.3
2026-01-19T1900,2603A,100.0779,23.8981,临沧市,市环保局,,,124,46,,41,65,,84,84,29,12,10,5,1.5,0.7
2026-01-19T1900,2604A,100.0894,23.882,临沧市,市气象局,颗粒物(PM10),61,71,44,32,24,68,,82,82,22,11,8,4,0.7,0.5
2026-01-19T1900,1733A,111.5552,36.0791,临汾市,临钢医院,,48,48,69,7,22,54,,51,51,16,22,3,6,0.7,0.8
2026-01-19T1900,1734A,111.4984,36.0734,临汾市,技工学校,,46,46,61,14,25,49,,50,50,18,24,3,5,0.3,0.4
2026-01-19T1900,1736A,111.5017,36.0857,临汾市,市委,颗粒物(PM10),54,58,58,3,13,56,,56,56,16,21,4,7,0.7,0.7
2026-01-19T1900,3018A,111.5048,36.1015,临汾市,唐尧大酒店,颗粒物(PM10),60,70,70,3,15,54,,54,54,18,24,3,3,0.5,0.6
2026-01-19T1900,4244A,111.4879,36.053,临汾市,启星学校,颗粒物(PM10),53,56,66,18,31,50,,53,53,18,28,4,7,0.6,0.8
2026-01-19T1900,4271A,103.2464,35.6123,临夏回族自治州,滨河东路1号,颗粒物(PM10),76,102,89,42,25,59,,56,56,21,14,10,10,0.6,0.5
2026-01-19T1900,4310A,103.207136,35.599807,临夏回族自治州,新华街21号,颗粒物(PM10),83,115,81,39,24,49,,59,59,18,11,13,11,0.6,0.5
2026-01-19T1900,1618A,118.3429,35.0532,临沂市,沂河小区,细颗粒物(PM2.5),65,63,39,47,31,46,,56,50,24,18,11,9,0.8,0.6
2026-01-19T1900,1619A,118.2962,35.0568,临沂市,鲁南制药厂,细颗粒物(PM2.5),64,66,34,46,28,50,,56,52,22,13,11,8,0.8,0.6
2026-01-19T1900,1620A,118.2793,34.9976,临沂市,新光毛纺厂,"颗粒物(PM10),细颗粒物(PM2.5)",53,56,34,37,25,48,,51,50,28,21,11,8,0.8,0.6
2026-01-19T1900,1621A,118.3955,35.0889,临沂市,河东保险公司,细颗粒物(PM2.5),59,53,35,42,27,49,,58,55,25,14,10,8,0.9,0.6
2026-01-19T1900,3370A,118.3563,35.0215,临沂市,十里堡居委,颗粒物(PM10),58,66,34,39,17,52,,64,59,32,18,11,8,0.8,0.6
2026-01-19T1900,3496A,118.359,35.1067,临沂市,南坊新区,细颗粒物(PM2.5),70,63,34,51,26,48,,59,54,25,15,12,8,1.1,0.7
2026-01-19T1900,3860A,118.3915,35.0297,临沂市,皇山花园小区,颗粒物(PM10),57,63,34,38,25,49,,58,55,30,17,13,10,0.9,0.7
2026-01-19T1900,1870A,109.4854,24.3898,柳州市,柳东小学,细颗粒物(PM2.5),77,77,72,56,59,106,,110,110,15,27,9,33,0.7,0.7
2026-01-19T1900,1871A,109.4109,24.3304,柳州市,环保监测站,"颗粒物(PM10),细颗粒物(PM2.5)",58,65,84,41,59,96,,100,100,17,37,5,6,0.9,1.2
2026-01-19T1900,1872A,109.3886,24.3408,柳州市,河西水厂,颗粒物(PM10),64,77,105,43,63,97,,106,106,19,46,6,7,0.8,1.1
2026-01-19T1900,1873A,109.4263,24.2951,柳州市,市四中,"颗粒物(PM10),细颗粒物(PM2.5)",64,78,91,46,58,94,,103,103,27,46,11,11,0.9,1
2026-01-19T1900,1874A,109.396,24.3658,柳州市,市九中,细颗粒物(PM2.5),73,83,83,53,66,84,,100,100,29,33,12,16,0.7,0.8
2026-01-19T1900,1875A,109.4912,24.3164,柳州市,古亭山,颗粒物(PM10),71,92,76,51,48,74,,99,99,24,39,9,8,0.8,0.8
2026-01-19T1900,3402A,109.5422,24.3994,柳州市,市二中,颗粒物(PM10),59,67,76,41,57,82,,103,103,21,35,10,22,0.8,0.8
2026-01-19T1900,2307A,116.5078,31.7369,六安市,监测大楼,,46,,19,32,15,35,,37,37,22,24,3,2,0.4,0.5
2026-01-19T1900,2308A,116.4738,31.7642,六安市,皖西学院,,38,35,18,26,15,41,,42,42,20,24,3,4,0.4,0.5
2026-01-19T1900,2309A,116.4997,31.7904,六安市,朝阳厂,,46,46,19,27,15,40,,39,39,19,21,6,4,0.5,0.6
2026-01-19T1900,2310A,116.5566,31.7885,六安市,开发区,,43,,14,30,19,39,,39,39,18,24,3,3,0.4,0.5
2026-01-19T1900,2577A,104.8293,26.592,六盘水市,黄土坡,,50,50,50,33,37,88,,84,84,19,20,10,10,0.6,0.8
2026-01-19T1900,2579A,104.8481,26.5898,六盘水市,民中,细颗粒物(PM2.5),52,52,55,36,42,86,,84,84,18,23,6,8,0.6,0.8
2026-01-19T1900,2580A,104.9541,26.5506,六盘水市,双水,细颗粒物(PM2.5),52,46,49,36,34,92,,85,85,14,15,5,6,0.5,0.6
2026-01-19T1900,4151A,104.8899,26.5685,六盘水市,钟山大道中段564号,颗粒物(PM10),53,56,71,35,44,93,,85,85,10,21,6,10,0.6,0.9
2026-01-19T1900,2336A,117.022,25.1031,龙岩市,龙岩市监测站,,36,34,51,25,37,94,,114,114,29,33,12,28,0.7,0.8
2026-01-19T1900,2337A,117.0257,25.0662,龙岩市,闽西职业技术学院,,36,36,60,25,36,102,,112,112,22,27,11,13,0.7,0.7
2026-01-19T1900,2338A,117.0195,25.0306,龙岩市,龙岩学院,,30,29,46,20,34,94,,112,112,12,16,8,10,/,/
2026-01-19T1900,2885A,104.9344,33.3827,陇南市,滨江中学,颗粒物(PM10),61,71,79,38,32,46,,52,51,14,9,4,3,0.7,0.5
2026-01-19T1900,3247A,104.9551,33.3709,陇南市,市总工会,颗粒物(PM10),63,76,73,26,28,44,,50,49,14,10,7,7,0.5,0.5
2026-01-19T1900,2488A,111.9984,27.7346,娄底市,市监测站,,19,14,36,13,32,20,,24,24,19,21,6,6,0.5,0.6
2026-01-19T1900,2491A,111.9888,27.7035,娄底市,市政府,,15,12,36,10,33,19,,21,21,16,22,5,5,0.7,0.8
2026-01-19T1900,4127A,111.9812,27.7591,娄底市,涟钢职大,,29,,45,20,31,17,,20,20,14,18,3,3,0.6,0.6
2026-01-19T1900,4128A,112.0303,27.7457,娄底市,娄底体校,,7,6,41,3,26,15,,18,18,14,18,2,2,0.4,0.5
2026-01-19T1900,1894A,105.4427,28.9063,泸州市,小市上码头,细颗粒物(PM2.5),105,101,137,79,116,22,,58,26,19,22,6,7,1.1,1.3
2026-01-19T1900,1895A,105.4241,28.8573,泸州市,兰田宪桥,细颗粒物(PM2.5),109,,181,82,125,22,,59,27,11,11,8,8,1.2,1.3
2026-01-19T1900,1896A,105.4378,28.8833,泸州市,市环监站,细颗粒物(PM2.5),92,110,148,68,101,21,,72,27,20,20,9,9,1.1,1.2
2026-01-19T1900,4272A,105.3689,28.7783,泸州市,纳溪中医医院,颗粒物(PM10),98,146,134,71,127,26,,60,29,14,14,7,7,1.0,1.2
2026-01-19T1900,2183A,111.1447,37.5212,吕梁市,环保局,,,,53,,18,,,48,,,16,,6,,0.3
2026-01-19T1900,2185A,111.1285,37.5338,吕梁市,自来水公司,,,,51,,16,50,,64,61,13,13,,5,0.5,0.5
2026-01-19T1900,2867A,111.1225,37.5093,吕梁市,马茂庄小学,,29,26,53,20,17,48,,57,56,15,16,4,5,0.3,0.3
2026-01-19T1900,1812A,112.3934,34.6517,洛阳市,市委党校,细颗粒物(PM2.5),75,,53,55,53,31,,41,38,26,24,7,7,0.8,0.7
2026-01-19T1900,1815A,112.494,34.6883,洛阳市,河南林校,细颗粒物(PM2.5),58,50,56,41,45,37,,46,44,22,22,7,7,0.7,0.7
2026-01-19T1900,1816A,112.3843,34.623,洛阳市,开发区管委会,,,82,60,50,46,,,46,45,22,23,11,6,0.7,0.7
2026-01-19T1900,1817A,112.4263,34.6249,洛阳市,市委新办公区,细颗粒物(PM2.5),73,57,58,53,47,36,,48,45,26,22,7,7,0.6,0.5
2026-01-19T1900,3340A,112.6005,34.6323,洛阳市,伊滨,细颗粒物(PM2.5),70,56,58,51,50,40,,47,45,19,19,6,6,0.7,0.6
2026-01-19T1900,3341A,112.495,34.6338,洛阳市,中移产业园,细颗粒物(PM2.5),69,53,56,50,49,29,,42,39,23,20,8,7,0.7,0.6
2026-01-19T1900,3593A,112.5736,34.8993,洛阳市,吉利监测站,颗粒物(PM10),71,92,66,44,46,38,,43,42,21,20,7,7,0.8,0.7
2026-01-19T1900,3635A,112.3678,34.6623,洛阳市,河科大西苑校区,细颗粒物(PM2.5),59,50,55,42,43,37,,46,44,29,25,7,7,0.9,0.8
2026-01-19T1900,3636A,112.4387,34.678,洛阳市,英才小学,细颗粒物(PM2.5),72,55,60,52,52,34,,43,42,26,25,8,8,0.8,0.7
2026-01-19T1900,4214A,112.460027,34.694929,洛阳市,春都路1号院,细颗粒物(PM2.5),57,55,66,40,40,36,,43,43,18,18,7,6,0.8,0.8
2026-01-19T1900,2399A,114.051,33.5721,漯河市,三五一五工厂,细颗粒物(PM2.5),78,82,55,57,45,39,,43,43,15,13,6,6,1.0,0.8
2026-01-19T1900,2400A,114.0055,33.5698,漯河市,漯河大学,细颗粒物(PM2.5),85,,53,63,43,37,,40,40,12,10,5,4,0.9,0.7
2026-01-19T1900,2401A,114.0134,33.5826,漯河市,市水利局,细颗粒物(PM2.5),83,,52,61,47,36,,39,39,18,16,4,3,1.0,0.6
2026-01-19T1900,2402A,114.0261,33.5697,漯河市,市广电局,细颗粒物(PM2.5),80,63,50,59,44,39,,42,42,15,12,5,5,0.9,0.7
2026-01-19T1900,3478A,113.9691,33.568,漯河市,市图书馆,细颗粒物(PM2.5),104,111,82,78,47,34,,38,38,15,14,4,3,1.2,0.9
2026-01-19T1900,4250A,114.089259,33.588274,漯河市,韶山路11号,细颗粒物(PM2.5),84,74,58,62,48,34,,38,38,14,10,5,5,1.1,0.8
2026-01-19T1900,1798A,118.5084,31.6838,马鞍山市,湖东路四小,,18,18,35,9,21,49,,50,44,16,22,2,3,0.4,0.6
2026-01-19T1900,1799A,118.5019,31.6449,马鞍山市,开发区,,17,16,36,9,18,54,,52,47,14,20,2,4,0.4,0.5
2026-01-19T1900,3633A,118.4914,31.681,马鞍山市,雨山,,17,17,41,8,20,51,,52,46,14,24,4,6,0.4,0.6
2026-01-19T1900,4191A,118.527362,31.722269,马鞍山市,慈湖高新区,,16,14,37,7,20,51,,51,45,15,23,4,4,0.4,0.5
2026-01-19T1900,1686A,111.0285,21.469,茂名市,电白南海,,48,48,52,27,29,119,,132,132,15,14,8,9,0.8,0.8
2026-01-19T1900,1687A,110.9294,21.6533,茂名市,茂石化七小,颗粒物(PM10),60,70,57,29,28,118,,127,127,22,17,5,7,0.8,0.3
2026-01-19T1900,1688A,110.9108,21.6688,茂名市,健康路,颗粒物(PM10),53,56,45,24,25,133,,138,138,20,18,8,10,0.8,0.8
2026-01-19T1900,1689A,110.8592,21.6826,茂名市,高岭,颗粒物(PM10),65,80,71,27,27,134,,134,134,18,21,6,13,/,/
2026-01-19T1900,3450A,111.0101,21.5165,茂名市,电白水东,,44,44,46,24,26,121,,131,131,10,11,7,9,/,/
2026-01-19T1900,2540A,103.8414,30.0871,眉山市,气象局,,47,47,111,14,87,46,,42,42,18,29,12,13,0.6,0.8
2026-01-19T1900,3148A,103.829,30.0563,眉山市,区人社局,,45,45,98,9,77,41,,40,36,18,29,9,11,0.5,0.7
2026-01-19T1900,4148A,103.8836,30.0695,眉山市,眉职院,,18,18,99,3,73,37,,43,39,17,25,1,2,0.7,0.9
2026-01-19T1900,1690A,116.1248,24.3307,梅州市,梅江月梅,,,,61,55,71,117,,118,118,,38,/,/,/,/
2026-01-19T1900,1691A,116.0798,24.2719,梅州市,梅县新城,细颗粒物(PM2.5),102,,68,76,49,68,,110,110,52,43,8,8,1.0,0.8
2026-01-19T1900,3315A,116.1234,24.2994,梅州市,梅龙,细颗粒物(PM2.5),62,63,58,44,42,87,,106,106,31,27,9,10,1.0,1
2026-01-19T1900,1878A,104.7775,31.4741,绵阳市,富乐山,,28,28,50,17,33,52,,61,52,11,12,7,8,0.4,0.4
2026-01-19T1900,1880A,104.6698,31.4668,绵阳市,高新区自来水公司,,28,26,40,19,29,43,,55,44,21,16,8,8,0.6,0.6
2026-01-19T1900,3491A,104.6899,31.5324,绵阳市,西科大附属小学,,27,27,43,10,26,52,,60,51,15,17,8,8,0.5,0.4
2026-01-19T1900,3492A,104.5647,31.5343,绵阳市,安州区旅游局,,,27,56,17,34,,,57,47,15,24,11,10,,0.5
2026-01-19T1900,4146A,104.7092,31.4972,绵阳市,科技城新区公安局,,35,35,58,9,23,54,,65,54,13,14,8,8,0.7,0.7
2026-01-19T1900,4226A,104.765114,31.453094,绵阳市,绵阳市气象局,,27,27,46,12,27,49,,60,50,16,14,7,6,0.4,0.5
2026-01-19T1900,1784A,129.61,44.561,牡丹江市,环保大楼,,45,45,50,26,34,52,,54,54,14,26,3,5,0.3,0.5
2026-01-19T1900,1787A,129.6364,44.6075,牡丹江市,机车工厂,颗粒物(PM10),51,51,74,25,48,57,,57,57,10,35,2,6,0.3,0.8
2026-01-19T1900,1788A,129.6386,44.5462,牡丹江市,第一中学,,42,42,37,28,31,55,,55,55,7,20,4,5,0.5,0.6
2026-01-19T1900,4287A,129.5992,44.5964,牡丹江市,东晓云街98号,,50,49,70,35,61,56,,54,54,8,28,4,8,0.6,1
2026-01-19T1900,2531A,105.0703,29.61,内江市,市监测站,,40,40,84,24,76,41,,52,47,13,15,6,6,0.8,0.9
2026-01-19T1900,2533A,105.0657,29.5807,内江市,内江二中,颗粒物(PM10),62,73,96,18,70,31,,41,37,21,24,4,4,0.8,0.9
2026-01-19T1900,2534A,105.0407,29.5828,内江市,内江日报社,,,28,72,17,65,34,,44,40,18,25,,2,0.7,0.8
2026-01-19T1900,4147A,105.0433,29.6105,内江市,玉峰路西段888号,,46,46,80,19,70,32,,45,39,18,22,2,2,0.8,0.9
2026-01-19T1900,2628A,92.0653,31.4846,那曲市,那曲监测站,,,25,62,11,39,74,,77,77,9,32,,14,0.8,1.6
2026-01-19T1900,4243A,92.0515,31.4787,那曲市,那曲市委宣传部,,27,8,24,3,14,85,,86,86,1,20,4,6,0.4,0.9
2026-01-19T1900,1291A,115.8887,28.7006,南昌市,省林业公司,,20,19,88,14,67,38,,37,36,14,25,2,4,0.0,0.4
2026-01-19T1900,1292A,115.813,28.7443,南昌市,林科所,,12,12,90,3,69,29,,40,27,17,24,5,8,0.5,0.7
2026-01-19T1900,1294A,115.8518,28.687,南昌市,建工学校,,32,32,109,13,72,25,,32,26,27,31,11,13,0.9,1.2
2026-01-19T1900,1295A,115.8926,28.6425,南昌市,象湖,,31,31,98,14,70,24,,32,26,21,23,7,9,0.4,0.7
2026-01-19T1900,3046A,115.9084,28.6062,南昌市,机电学校,,,38,129,3,75,26,,35,30,,25,4,5,0.5,0.8
2026-01-19T1900,3690A,115.9718,28.7032,南昌市,外国语学校,颗粒物(PM10),84,118,158,22,79,27,,28,26,22,27,10,12,0.6,0.8
2026-01-19T1900,4106A,115.7923,28.6873,南昌市,工业二路,颗粒物(PM10),54,57,103,3,68,29,,40,28,13,19,4,5,0.1,0.4
2026-01-19T1900,4192A,115.931587,28.686774,南昌市,南京东路235号,颗粒物(PM10),56,61,127,9,68,27,,31,25,19,25,4,5,0.2,0.9
2026-01-19T1900,1906A,106.0791,30.8022,南充市,南充市委,,16,14,48,11,42,16,,40,21,29,24,4,4,0.8,0.8
2026-01-19T1900,1907A,106.1038,30.8215,南充市,南充炼油厂,,30,30,61,20,48,21,,45,24,18,15,5,6,1.0,1
2026-01-19T1900,4227A,106.108336,30.788436,南充市,梨树横街98号,,12,11,55,8,40,25,,48,25,21,22,4,6,0.7,0.7
2026-01-19T1900,4304A,106.1172,30.843,南充市,清泉寺北路188号,,10,10,47,7,38,27,,50,27,18,17,6,6,0.6,0.6
2026-01-19T1900,4305A,106.067,30.7616,南充市,同庆路1号,,13,13,50,9,43,17,,46,23,26,20,6,11,0.7,0.8
2026-01-19T1900,1151A,118.8033,32.1085,南京市,迈皋桥,,24,24,26,14,11,63,,66,57,2,9,3,3,0.6,0.6
2026-01-19T1900,1152A,118.7487,32.057,南京市,草场门,,25,17,23,17,14,40,,41,36,18,20,4,5,0.3,0.4
2026-01-19T1900,1154A,118.770105,32.004342,南京市,中华门,,,12,26,,13,52,,53,46,,13,,4,0.3,0.4
2026-01-19T1900,1155A,118.8059,32.0329,南京市,瑞金路,,18,17,22,12,16,54,,54,47,8,12,4,4,0.9,0.8
2026-01-19T1900,1156A,118.7946,32.0774,南京市,玄武湖,,23,23,25,12,9,56,,57,50,14,18,4,4,0.7,0.7
2026-01-19T1900,1157A,118.6415,32.0964,南京市,浦口,,27,27,35,13,20,48,,49,45,17,18,7,8,1.3,1.2
2026-01-19T1900,1158A,118.730129,32.000956,南京市,奥体中心,,23,17,26,9,15,72,,64,56,11,13,6,6,0.4,0.4
2026-01-19T1900,1159A,118.9072,32.1047,南京市,仙林大学城,,17,17,23,9,10,53,,57,45,7,14,6,6,0.5,0.6
2026-01-19T1900,3422A,118.8443,31.919,南京市,江宁彩虹桥,,21,10,27,7,13,65,,65,57,8,15,3,4,0.4,0.5
2026-01-19T1900,3427A,118.8497,32.3599,南京市,六合雄州,,21,21,23,9,13,56,,57,51,8,9,2,3,0.2,0.4
2026-01-19T1900,4086A,118.7641,32.0841,南京市,新模范马路66号,,25,24,22,11,8,78,,81,74,2,4,5,4,1.0,0.9
2026-01-19T1900,4249A,118.8707617,31.34017673,南京市,汶溪路181号,,28,,40,19,23,49,,56,46,17,21,4,5,0.7,0.8
2026-01-19T1900,4312A,119.019,31.6512,南京市,中山西路1号,,36,36,28,17,21,54,,56,48,13,17,4,4,0.6,0.6
2026-01-19T1900,1401A,108.3098,22.788,南宁市,二十一中,,,76,53,42,40,61,,99,59,,18,4,6,0.7,0.8
2026-01-19T1900,1402A,108.3135,22.8529,南宁市,北湖,颗粒物(PM10),56,61,61,38,45,71,,77,69,22,34,2,4,0.7,0.8
2026-01-19T1900,1403A,108.3205,22.8222,南宁市,市监测站,颗粒物(PM10),55,59,53,32,40,74,,100,70,19,23,5,8,0.7,0.8
2026-01-19T1900,1404A,108.3828,22.8038,南宁市,大自然花园,细颗粒物(PM2.5),53,52,58,37,39,83,,111,77,14,19,6,7,0.8,0.8
2026-01-19T1900,1406A,108.2397,22.8462,南宁市,区农职院,,48,43,61,33,39,71,,77,66,24,32,8,10,0.8,0.9
2026-01-19T1900,1407A,108.3285,22.7356,南宁市,英华嘉园,颗粒物(PM10),61,71,72,42,44,49,,85,62,38,27,4,6,0.8,0.8
2026-01-19T1900,3401A,108.4829,22.762,南宁市,红星社区,,,56,62,42,44,70,,77,77,16,21,4,5,,0.6
2026-01-19T1900,4132A,108.2927,23.1477,南宁市,起凤路9号,细颗粒物(PM2.5),55,54,63,39,45,65,,131,77,17,16,3,4,0.6,0.6
2026-01-19T1900,4221A,108.2177,22.7774,南宁市,乐贤路16号,颗粒物(PM10),59,68,64,31,40,66,,83,63,21,32,3,6,0.6,0.8
2026-01-19T1900,2332A,118.1682,26.6371,南平市,南平市监测站,细颗粒物(PM2.5),58,52,52,41,39,68,,105,105,32,29,4,7,0.9,0.7
2026-01-19T1900,2334A,118.1757,26.6276,南平市,南平七中,,46,38,46,32,34,79,,104,104,22,26,3,4,0.7,0.7
2026-01-19T1900,1168A,120.9056,31.9669,南通市,狼山街道,,21,21,21,10,10,67,,70,60,7,9,2,2,0.2,0.3
2026-01-19T1900,1170A,120.8635,32.0231,南通市,城中,,29,29,27,9,9,66,,68,58,8,12,3,4,0.6,0.6
2026-01-19T1900,1171A,120.9376,31.9301,南通市,星湖花园,,29,29,23,8,12,74,,76,65,12,14,3,4,0.1,0.2
2026-01-19T1900,1172A,120.8053,32.046,南通市,紫琅学院,,23,21,21,6,6,72,,74,62,9,11,3,3,0.3,0.4
2026-01-19T1900,3291A,121.0631,32.0644,南通市,通州监测站,,24,24,23,7,10,73,,77,66,11,12,2,2,0.4,0.6
2026-01-19T1900,3432A,120.9348,31.9874,南通市,环境教育馆,,29,29,25,8,9,70,,72,61,7,9,3,4,0.4,0.4
2026-01-19T1900,4091A,120.8692,31.9885,南通市,洪江路,,23,23,19,7,10,66,,69,57,10,10,2,2,0.1,0.2
2026-01-19T1900,2404A,112.5338,33.0086,南阳市,瓦房庄,细颗粒物(PM2.5),63,51,55,45,49,49,,50,50,14,13,6,5,0.8,0.7
2026-01-19T1900,2405A,112.5002,32.9734,南阳市,汉画馆,细颗粒物(PM2.5),62,54,56,44,44,49,,50,50,14,12,5,5,0.9,0.8
2026-01-19T1900,2406A,112.5778,33.0144,南阳市,气象站,细颗粒物(PM2.5),55,52,59,39,41,50,,50,50,15,14,4,4,0.6,0.5
2026-01-19T1900,2407A,112.548,32.9687,南阳市,理工学院,,50,46,53,35,37,49,,49,49,11,15,4,4,0.6,0.7
2026-01-19T1900,4008A,112.5233,32.9921,南阳市,卧龙区政府,"颗粒物(PM10),细颗粒物(PM2.5)",58,65,65,41,45,48,,49,49,20,18,5,4,0.6,0.6
2026-01-19T1900,1234A,121.8352,29.9111,宁波市,区环保大楼,,25,21,59,17,30,40,,56,50,33,44,4,5,0.7,0.7
2026-01-19T1900,1235A,121.5595,29.8208,宁波市,万里学院,,19,19,51,6,25,53,,66,61,15,32,3,4,0.6,0.6
2026-01-19T1900,1236A,121.713,29.9564,宁波市,龙赛医院,,21,21,44,8,16,56,,64,59,16,33,2,4,0.3,0.5
2026-01-19T1900,1240A,121.5855,29.8635,宁波市,太古小学,,18,12,49,7,19,55,,69,64,14,24,3,3,0.5,0.5
2026-01-19T1900,1241A,121.5239,29.8673,宁波市,市环境监测中心,,22,22,49,3,18,48,,63,56,16,29,5,6,0.6,0.6
2026-01-19T1900,2871A,121.6156,29.9015,宁波市,万里国际学校,,20,20,50,3,18,60,,69,62,15,36,2,4,0.6,0.6
2026-01-19T1900,3710A,121.5593,29.8976,宁波市,白沙活动中心,,22,22,57,7,18,53,,66,58,17,32,3,4,0.3,0.3
2026-01-19T1900,4095A,121.8962,29.7529,宁波市,中科路88号,,19,10,47,3,20,58,,70,64,16,33,4,5,0.3,0.4
2026-01-19T1900,2341A,119.5387,26.6611,宁德市,宁德市监测站,,42,,28,29,20,121,,112,112,14,20,3,4,0.4,0.5
2026-01-19T1900,3209A,119.5231,26.6562,宁德市,宁德一中,,50,44,31,35,23,119,,113,113,14,15,3,6,0.3,0.3
2026-01-19T1900,2618A,98.859,25.8541,怒江傈僳族自治州,州监测站,,44,44,39,24,27,69,,86,84,18,13,6,5,0.5,0.5
2026-01-19T1900,2619A,98.8607,25.8168,怒江傈僳族自治州,泸水一中,颗粒物(PM10),51,52,39,13,27,57,,71,71,26,18,6,6,0.7,0.5
2026-01-19T1900,1888A,101.6891,26.571,攀枝花市,弄弄坪,颗粒物(PM10),62,73,80,41,56,90,,94,94,40,35,34,27,4.1,2.1
2026-01-19T1900,1889A,101.577,26.5914,攀枝花市,河门口,颗粒物(PM10),53,55,72,31,48,98,,94,94,29,27,36,20,1.7,1.5
2026-01-19T1900,1891A,101.7365,26.4986,攀枝花市,仁和,,,83,69,44,44,52,,98,98,,27,16,18,,1.5
2026-01-19T1900,2835A,101.7222,26.567,攀枝花市,四十中小,细颗粒物(PM2.5),70,80,96,51,64,42,,82,82,54,46,17,23,1.8,2.2
2026-01-19T1900,1604A,122.0303,41.1489,盘锦市,开发区,颗粒物(PM10),54,58,36,20,13,45,,61,58,11,7,3,2,0.5,0.5
2026-01-19T1900,1605A,122.0486,41.0883,盘锦市,兴隆台,颗粒物(PM10),52,54,41,16,14,39,,58,55,21,10,14,8,0.6,0.5
2026-01-19T1900,1606A,121.8297,41.1026,盘锦市,新生街道,颗粒物(PM10),52,53,31,13,11,35,,66,59,25,12,7,7,0.5,0.4
2026-01-19T1900,1832A,113.3257,33.7423,平顶山市,新华旅馆,细颗粒物(PM2.5),75,91,68,55,41,36,,42,42,18,16,5,4,0.8,0.6
2026-01-19T1900,1833A,113.2917,33.737,平顶山市,规划设计院,细颗粒物(PM2.5),72,64,56,52,42,36,,45,44,17,12,5,5,0.9,0.7
2026-01-19T1900,1834A,113.182,33.7738,平顶山市,平顶山工学院,细颗粒物(PM2.5),73,,50,53,42,41,,47,47,18,17,6,6,0.6,0.5
2026-01-19T1900,3594A,112.8736,33.9068,平顶山市,石龙区,细颗粒物(PM2.5),63,50,54,45,46,48,,51,51,10,8,5,4,0.6,0.5
2026-01-19T1900,4116A,113.284,33.7139,平顶山市,姚电大道23号,细颗粒物(PM2.5),74,90,62,54,46,36,,45,44,21,16,6,6,1.0,0.8
2026-01-19T1900,2656A,106.6633,35.5338,平凉市,聚贤嘉苑,颗粒物(PM10),52,54,55,22,20,48,,68,47,13,8,11,12,0.5,0.5
2026-01-19T1900,2657A,106.7021,35.5307,平凉市,博物馆,,49,49,56,22,20,59,,73,54,10,9,8,10,0.4,0.5
2026-01-19T1900,2348A,113.8384,27.6436,萍乡市,中医院,,25,25,91,15,59,2,,6,6,28,32,4,5,1.0,1
2026-01-19T1900,2350A,113.8677,27.6438,萍乡市,市环保局,,35,29,65,24,52,2,,8,7,28,31,12,14,0.9,1
2026-01-19T1900,2351A,113.8663,27.6202,萍乡市,安源区政府,,47,47,91,28,76,1,,6,5,27,31,10,11,1.0,1.1
2026-01-19T1900,4107A,113.8686,27.6668,萍乡市,联洪村委会,,34,34,102,20,62,4,,11,10,27,30,2,4,1.1,1.1
2026-01-19T1900,2319A,119.0142,25.4324,莆田市,荔城区仓后路,,36,36,40,10,21,99,,96,96,15,21,/,/,/,/
2026-01-19T1900,2320A,119.0016,25.4553,莆田市,莆田市监测站,,34,15,28,7,17,108,,101,101,8,11,2,2,0.5,0.6
2026-01-19T1900,2321A,119.112,25.4561,莆田市,涵江区六中,,49,49,34,10,16,108,,98,98,11,16,/,/,0.3,0.4
2026-01-19T1900,2322A,119.1014,25.3215,莆田市,秀屿区政府,颗粒物(PM10),52,53,34,18,15,113,,106,106,10,11,2,3,0.6,0.6
2026-01-19T1900,2392A,115.0312,35.7636,濮阳市,环保局,,40,40,46,14,31,50,,46,46,19,19,8,7,1.0,0.8
2026-01-19T1900,3021A,115,35.7667,濮阳市,濮水河管理处,,40,40,58,11,28,55,,50,50,19,22,8,6,0.9,0.9
2026-01-19T1900,4118A,115.0552,35.7816,濮阳市,中原东路68号,,32,,54,22,34,52,,48,48,22,23,7,5,0.4,0.3
2026-01-19T1900,4216A,115.0923632,35.76857718,濮阳市,任丘路479号,,47,47,56,20,35,50,,46,46,20,20,9,6,0.7,0.7
2026-01-19T1900,2601A,100.9801,22.7634,普洱市,市环保局,颗粒物(PM10),54,57,51,26,18,60,,80,80,23,12,5,5,0.5,0.4
2026-01-19T1900,2602A,100.9763,22.8237,普洱市,普洱第二中学,,47,47,44,20,21,76,,87,87,16,20,6,5,0.3,0.3
2026-01-19T1900,3345A,131.0413,45.7795,七台河市,中波台,,45,45,54,28,39,46,,56,55,19,26,7,8,0.5,0.6
2026-01-19T1900,3637A,131.0136,45.7688,七台河市,人民广场,颗粒物(PM10),54,58,68,30,47,53,,56,56,16,33,6,8,0.6,0.7
2026-01-19T1900,3684A,130.8639,45.8144,七台河市,新建矿广场,,39,39,48,26,33,50,,55,55,11,19,4,5,0.3,0.4
2026-01-19T1900,1779A,123.9307,47.3641,齐齐哈尔市,安居小区,,49,49,23,32,13,43,,52,50,17,11,6,4,0.5,0.4
2026-01-19T1900,1780A,123.9497,47.3389,齐齐哈尔市,中心广场,,28,28,16,14,9,44,,49,47,14,11,6,5,1.0,0.7
2026-01-19T1900,1781A,123.9483,47.3229,齐齐哈尔市,农牧车辆厂,,36,36,23,16,11,46,,50,49,10,8,6,5,0.4,0.3
2026-01-19T1900,1783A,123.9442,47.2994,齐齐哈尔市,市环境监测站,颗粒物(PM10),53,55,26,25,12,39,,52,47,18,10,6,4,0.9,0.7
2026-01-19T1900,3662A,123.6341,47.2079,齐齐哈尔市,富区青少年活动中心,细颗粒物(PM2.5),53,53,34,37,16,36,,52,47,25,14,11,6,0.9,0.6
2026-01-19T1900,2591A,107.9765,26.5724,黔东南苗族侗族自治州,市环境监测站,,19,16,47,13,40,19,,68,21,17,11,4,4,0.6,0.5
2026-01-19T1900,2881A,107.8909,26.531,黔东南苗族侗族自治州,凯里学院,,19,17,51,13,37,23,,80,26,15,12,1,2,0.7,0.5
2026-01-19T1900,2593A,107.5223,26.2371,黔南布依族苗族自治州,小围寨,,,41,40,39,33,20,,85,66,,5,2,5,1.3,0.9
2026-01-19T1900,3538A,107.5175,26.2977,黔南布依族苗族自治州,沙坝,细颗粒物(PM2.5),55,56,47,39,37,20,,76,63,18,10,5,4,1.2,0.9
2026-01-19T1900,2589A,104.9022,25.0943,黔西南布依族苗族自治州,场坝街,细颗粒物(PM2.5),62,55,50,44,33,85,,78,78,7,10,4,3,0.6,0.6
2026-01-19T1900,2590A,104.8812,25.0994,黔西南布依族苗族自治州,坪东大道,细颗粒物(PM2.5),60,50,45,43,40,77,,76,76,12,16,7,6,0.8,0.7
2026-01-19T1900,2502A,108.6238,21.9667,钦州市,市环保站,颗粒物(PM10),56,61,71,22,39,84,,85,85,17,23,4,5,0.5,0.6
2026-01-19T1900,2503A,108.655,21.9481,钦州市,沙埠小学,颗粒物(PM10),52,53,77,25,40,90,,87,87,15,35,3,5,0.4,0.5
2026-01-19T1900,2504A,108.5989,21.7435,钦州市,港区一小,颗粒物(PM10),68,86,77,19,37,71,,82,82,33,43,5,6,0.7,0.7
2026-01-19T1900,3404A,108.5959,21.9634,钦州市,北职校,,41,41,66,21,45,80,,81,81,19,32,7,8,0.7,0.8
2026-01-19T1900,1046A,119.5247,39.9346,秦皇岛市,建设大厦,,40,40,29,27,25,18,,64,56,43,12,6,6,0.6,0.4
2026-01-19T1900,3132A,119.5979,39.938,秦皇岛市,文明里,,,43,29,20,20,,,68,67,12,17,8,9,0.3,0.3
2026-01-19T1900,4066A,119.7458,39.9952,秦皇岛市,南园路157号,,29,29,31,12,12,51,,68,64,22,23,6,7,0.4,0.4
2026-01-19T1900,4067A,119.5131,39.8858,秦皇岛市,翠岛大街1号,,34,34,38,8,12,41,,63,57,22,11,7,9,0.4,0.4
2026-01-19T1900,4198A,119.509013,39.825305,秦皇岛市,北戴河轮滑馆,,33,27,30,23,20,49,,67,63,17,13,4,6,0.4,0.3
2026-01-19T1900,1310A,120.404,36.0625,青岛市,市南区东部子站,,24,24,26,7,17,66,,65,65,8,10,9,8,0.5,0.5
2026-01-19T1900,1311A,120.362344,36.10282,青岛市,四方区子站,,31,31,26,12,18,65,,65,65,6,4,1,2,0.5,0.6
2026-01-19T1900,1312A,120.294373,36.054183,青岛市,市南区西部子站,,36,36,28,10,13,68,,67,67,8,11,4,7,0.2,0.7
2026-01-19T1900,1313A,120.4581,36.0858,青岛市,崂山区子站,,22,22,20,3,12,66,,67,67,9,10,10,9,0.2,0.2
2026-01-19T1900,1315A,120.3945,36.3083,青岛市,城阳区子站,,24,24,25,12,14,75,,76,76,9,10,6,6,0.6,0.7
2026-01-19T1900,3642A,120.3454,36.0735,青岛市,市北区南部,,29,29,33,3,14,62,,58,58,9,12,2,2,0.6,0.7
2026-01-19T1900,3643A,120.3897,36.18,青岛市,李沧区北部,,27,27,24,9,20,68,,68,68,4,6,9,8,0.5,0.6
2026-01-19T1900,4110A,120.5222,36.4089,青岛市,盟旺路653号,,28,28,35,9,14,67,,70,70,17,16,2,2,0.3,0.5
2026-01-19T1900,4290A,120.196923,35.954556,青岛市,珠江路669号,,48,48,24,10,19,63,,71,68,21,17,12,11,0.5,0.3
2026-01-19T1900,4291A,120.0424,35.8656,青岛市,黄岛区人民政府广场,,24,24,28,3,14,73,,74,74,11,12,7,7,0.7,0.7
2026-01-19T1900,1703A,113.0218,23.7086,清远市,凤城街办,细颗粒物(PM2.5),105,123,109,79,74,186,,212,212,62,54,/,/,/,/
2026-01-19T1900,3025A,113.0479,23.6343,清远市,技师学院,"细颗粒物(PM2.5),臭氧1小时(O3_1h)",102,131,106,76,66,204,,213,213,55,66,9,13,0.6,0.6
2026-01-19T1900,3318A,112.9898,23.7403,清远市,清新太和,臭氧1小时(O3_1h),116,96,101,56,65,231,,241,241,34,43,5,4,0.7,0.7
2026-01-19T1900,3455A,113.076,23.72,清远市,清城东城,臭氧1小时(O3_1h),92,112,92,67,59,193,,225,225,59,42,/,/,/,/
2026-01-19T1900,2661A,107.6325,35.7357,庆阳市,庆阳五中,,33,33,60,17,21,57,,58,57,10,10,4,5,0.4,0.4
2026-01-19T1900,2662A,107.6361,35.7067,庆阳市,市环保局,,35,35,62,16,16,52,,54,51,14,12,6,7,0.5,0.5
2026-01-19T1900,1916A,103.7897,25.5036,曲靖市,环境监测站,,37,37,29,11,12,93,,102,102,14,13,4,5,0.3,0.5
2026-01-19T1900,1917A,103.8013,25.5357,曲靖市,烟厂办公区,,40,40,30,15,11,95,,100,100,11,13,4,4,0.1,0.2
2026-01-19T1900,3376A,103.7926,25.4651,曲靖市,南苑二区,,30,22,27,7,11,96,,106,106,8,8,5,6,0.3,0.4
2026-01-19T1900,3377A,103.7442,25.5259,曲靖市,曲靖师范学院,,46,46,35,10,18,92,,99,99,11,13,3,5,0.1,0.1
2026-01-19T1900,1264A,118.8694,28.94,衢州市,环保大楼,,23,21,95,16,68,41,,44,38,23,36,/,/,/,/
2026-01-19T1900,1266A,118.8622,28.9809,衢州市,衢州学院,,17,17,87,11,59,40,,39,39,23,37,4,4,0.5,0.6
2026-01-19T1900,4097A,118.9646,28.9832,衢州市,衢州三中,,23,19,93,16,68,40,,35,35,26,47,4,5,0.7,0.8
2026-01-19T1900,1611A,118.5818,24.9116,泉州市,涂山街,颗粒物(PM10),55,60,39,20,24,98,,103,103,20,18,4,4,0.6,0.6
2026-01-19T1900,1612A,118.597,24.8976,泉州市,津头埔,,,62,39,22,23,100,,101,101,,19,5,5,,0.6
2026-01-19T1900,1613A,118.6669,24.9422,泉州市,万安,颗粒物(PM10),59,67,39,26,21,96,,96,96,17,17,4,4,0.6,0.6
2026-01-19T1900,4105A,118.6355,24.9148,泉州市,霞新路6号,,49,49,34,22,21,102,,103,103,20,19,/,/,0.5,0.5
2026-01-19T1900,2626A,88.8873,29.2723,日喀则市,日喀则监测站,,31,18,26,3,11,98,,94,94,1,6,11,11,0.3,0.4
2026-01-19T1900,3726A,88.8775,29.2425,日喀则市,林业技术推广中心,,29,17,26,3,9,90,,86,86,2,5,10,10,0.2,0.3
2026-01-19T1900,1659A,119.4711,35.421,日照市,监测站,,27,27,30,17,21,62,,65,65,16,12,9,6,0.7,0.6
2026-01-19T1900,1660A,119.523,35.4216,日照市,市政府广场,,,36,31,21,20,,,68,68,13,14,11,8,0.4,0.3
2026-01-19T1900,1661A,119.5511,35.4113,日照市,港务局,,38,36,34,26,29,65,,67,67,15,14,8,6,0.7,0.6
2026-01-19T1900,3507A,119.5326,35.4627,日照市,职业技术学院,,27,27,32,9,18,64,,67,67,16,13,9,7,0.7,0.6
2026-01-19T1900,3604A,119.3267,35.1043,日照市,岚山环保分局,,50,48,64,35,46,56,,58,58,17,18,18,23,1.2,2
2026-01-19T1900,1835A,111.1922,34.7752,三门峡市,市政府,细颗粒物(PM2.5),64,47,58,46,45,36,,38,37,20,26,7,10,0.7,0.7
2026-01-19T1900,1836A,111.1588,34.794,三门峡市,开发区,颗粒物(PM10),51,51,58,34,38,32,,37,33,21,25,5,6,0.6,0.7
2026-01-19T1900,3039A,111.1911,34.7829,三门峡市,三门峡市第一小学,细颗粒物(PM2.5),60,56,65,43,39,35,,36,35,21,28,5,9,0.7,0.7
2026-01-19T1900,3598A,111.1031,34.719,三门峡市,富达温泉假日酒店,颗粒物(PM10),56,61,74,37,43,34,,31,31,17,25,4,9,0.6,0.7
2026-01-19T1900,2324A,117.621,26.2626,三明市,三钢,细颗粒物(PM2.5),59,62,50,42,44,52,,103,102,51,30,9,6,1.0,0.8
2026-01-19T1900,2325A,117.6352,26.2714,三明市,三明二中,细颗粒物(PM2.5),59,49,49,42,37,67,,100,100,18,28,5,3,1.0,0.8
2026-01-19T1900,2326A,117.6028,26.2377,三明市,三元区政府,细颗粒物(PM2.5),69,69,55,50,41,49,,103,102,57,32,8,6,1.5,1
2026-01-19T1900,1877A,109.4962,18.2682,三亚市,河西子站,,33,33,38,14,16,73,,82,80,14,15,3,3,0.3,0.4
2026-01-19T1900,3540A,109.7348,18.3443,三亚市,君悦子站,,32,32,37,16,16,75,,82,81,6,13,4,4,0.2,0.4
2026-01-19T1900,4135A,109.1714,18.3739,三亚市,城东小学站,,,,38,,25,,,74,,,12,/,/,/,/
2026-01-19T1900,2624A,91.7592,29.234,山南市,山南监测站,颗粒物(PM10),52,54,30,6,10,94,,88,88,2,10,4,6,0.1,0.4
2026-01-19T1900,2625A,91.7701,29.2436,山南市,山南人民医院,,,48,37,13,13,,,74,,,11,6,8,0.4,0.4
2026-01-19T1900,1674A,116.6795,23.3666,汕头市,金平子站,,48,48,46,19,36,109,,122,122,16,21,4,6,0.7,0.7
2026-01-19T1900,1675A,116.7248,23.3632,汕头市,龙湖子站,,44,44,44,22,28,102,,118,118,16,16,9,11,/,/
2026-01-19T1900,1676A,116.7257,23.2774,汕头市,濠江子站,,,35,42,20,32,,,112,112,13,16,7,8,/,/
2026-01-19T1900,1677A,116.7518,23.4712,汕头市,澄海子站,,44,44,58,16,45,104,,124,124,15,20,6,8,0.4,0.6
2026-01-19T1900,1678A,116.6088,23.2539,汕头市,潮阳子站,,36,36,41,13,27,109,,121,121,8,11,6,7,0.5,0.6
2026-01-19T1900,3444A,116.4539,23.2684,汕头市,潮南峡山,,38,38,52,19,33,116,,129,129,15,16,8,9,0.6,0.6
2026-01-19T1900,3624A,116.4069,23.2533,汕头市,潮南子站,,42,42,69,17,39,111,,118,118,15,18,6,7,/,/
2026-01-19T1900,1693A,115.3653,22.7751,汕尾市,市环保局,,,41,48,27,42,121,,125,125,12,16,,7,0.7,0.8
2026-01-19T1900,1695A,115.362,22.7926,汕尾市,新城中学,,40,,54,26,44,126,,127,127,12,16,5,5,0.4,0.5
2026-01-19T1900,2645A,109.9155,33.8714,商洛市,监测站,,29,29,79,16,51,49,,48,48,17,21,3,4,0.5,0.6
2026-01-19T1900,3045A,109.9647,33.8486,商洛市,商州区中学,,40,30,77,28,62,49,,39,39,15,27,5,7,0.7,0.9
2026-01-19T1900,2408A,115.6701,34.4283,商丘市,环境监测站,颗粒物(PM10),71,91,49,44,37,48,,50,50,16,14,1,2,0.6,0.5
2026-01-19T1900,2409A,115.6458,34.4047,商丘市,粮食局,颗粒物(PM10),101,151,52,40,37,43,,44,44,14,12,3,2,0.8,0.7
2026-01-19T1900,3171A,115.6069,34.4465,商丘市,梁园区档案局,细颗粒物(PM2.5),67,70,38,48,35,42,,46,46,20,14,5,4,0.5,0.4
2026-01-19T1900,4119A,115.6701,34.3767,商丘市,北海东路185号,细颗粒物(PM2.5),63,62,45,45,37,45,,48,48,13,13,1,1,0.6,0.5
2026-01-19T1900,4120A,115.6172,34.3704,商丘市,中山大街3号,颗粒物(PM10),71,91,54,49,39,49,,50,50,16,13,1,3,0.5,0.5
2026-01-19T1900,1141A,121.401,31.2382,上海市,普陀,,21,21,34,14,18,65,,75,56,14,23,5,5,0.6,0.6
2026-01-19T1900,1142A,121.4774,31.2043,上海市,十五厂,,,,38,,17,63,,72,56,,22,5,6,,0.6
2026-01-19T1900,1143A,121.4673,31.3011,上海市,虹口,,23,23,38,10,16,62,,64,51,9,20,6,6,0.4,0.5
2026-01-19T1900,1147A,121.4253,31.226,上海市,静安监测站,,21,20,35,12,17,66,,75,58,17,24,6,6,0.4,0.5
2026-01-19T1900,1148A,121.7029,31.1905,上海市,浦东川沙,,20,20,34,11,13,55,,66,49,17,20,6,6,0.3,0.3
2026-01-19T1900,1149A,121.5339,31.229,上海市,浦东新区监测站,,25,20,34,17,19,60,,67,51,16,24,5,6,0.5,0.5
2026-01-19T1900,1150A,121.5776,31.2038,上海市,浦东张江,,22,19,33,7,14,68,,76,60,13,25,5,6,0.1,0.2
2026-01-19T1900,3265A,121.4242,31.3303,上海市,宝山庙行,,23,23,33,11,14,58,,67,49,14,19,6,6,0.4,0.4
2026-01-19T1900,3266A,121.8789,31.4662,上海市,崇明上实东滩,,,,26,,12,,,82,65,8,11,3,3,0.4,0.5
2026-01-19T1900,3268A,121.316,31.2839,上海市,嘉定南翔,,20,20,33,11,17,60,,64,52,15,22,3,3,1.0,0.5
2026-01-19T1900,3269A,121.3357,30.7455,上海市,金山新城,,18,,37,12,25,52,,66,52,24,24,7,6,0.6,0.6
2026-01-19T1900,3270A,121.4996,31.0741,上海市,闵行浦江,,19,17,35,9,16,59,,71,54,16,21,5,5,0.3,0.4
2026-01-19T1900,3271A,121.2886,31.1663,上海市,青浦徐泾,,19,17,36,12,19,60,,66,50,20,30,4,4,0.4,0.5
2026-01-19T1900,3272A,121.2193,31.0382,上海市,松江图书馆,,21,21,40,11,20,58,,68,48,20,29,5,5,0.5,0.6
2026-01-19T1900,3273A,121.3904,31.206,上海市,长宁仙霞,,21,19,35,11,16,65,,74,56,7,14,6,6,0.2,0.3
2026-01-19T1900,3274A,121.7964,31.0507,上海市,浦东惠南,,20,19,30,11,15,62,,71,59,22,23,3,3,0.5,0.5
2026-01-19T1900,3544A,121.4891,30.925,上海市,奉贤南桥新城,,21,15,39,11,17,66,,74,59,17,24,2,2,0.4,0.4
2026-01-19T1900,4183A,121.417401,31.16637,上海市,冠生园路458号,,22,20,46,12,20,69,,73,61,13,22,4,5,0.6,0.5
2026-01-19T1900,4205A,121.541914,31.268301,上海市,宁武路151号,,25,22,35,17,17,59,,66,49,18,26,5,5,0.5,0.6
2026-01-19T1900,2382A,117.9758,28.4439,上饶市,市监测站,,37,37,86,22,48,54,,88,85,23,29,4,8,/,/
2026-01-19T1900,2383A,117.9521,28.4637,上饶市,凤凰光学,,40,40,91,19,44,43,,83,80,26,34,5,10,0.7,0.8
2026-01-19T1900,3685A,117.897,28.4316,上饶市,双创科技城,,45,45,90,24,56,52,,94,90,30,35,4,7,0.8,0.9
2026-01-19T1900,4211A,118.190438,28.444845,上饶市,裕丰大道,,42,42,100,27,66,35,,72,66,36,36,8,12,0.8,1
2026-01-19T1900,1669A,113.5821,24.7733,韶关市,市八中,细颗粒物(PM2.5),67,72,110,48,73,85,,109,109,22,42,8,11,0.8,0.9
2026-01-19T1900,1671A,113.5916,24.7973,韶关市,园林处,细颗粒物(PM2.5),68,54,83,49,77,79,,108,108,25,50,9,11,/,/
2026-01-19T1900,1673A,113.5971,24.6864,韶关市,曲江监测站,细颗粒物(PM2.5),80,85,96,59,68,60,,120,116,49,33,14,19,1.3,1
2026-01-19T1900,2809A,113.6668,24.7756,韶关市,大学路288号,细颗粒物(PM2.5),67,64,73,48,62,84,,112,112,19,21,6,9,/,/
2026-01-19T1900,3622A,113.5556,24.8082,韶关市,碧湖山庄,细颗粒物(PM2.5),67,67,105,48,69,78,,111,111,20,28,7,9,0.9,0.8
2026-01-19T1900,2464A,111.5277,27.2442,邵阳市,市化工厂,,19,18,53,13,40,17,,18,18,22,23,7,7,0.6,0.8
2026-01-19T1900,2466A,111.4327,27.2276,邵阳市,市环保局,,14,14,41,6,34,24,,23,23,14,16,1,2,0.9,1.1
2026-01-19T1900,4218A,111.446,27.2472,邵阳市,北塔二期4-26地块,,20,,34,14,33,23,,23,23,13,16,5,6,1.1,1.2
2026-01-19T1900,4219A,111.4739,27.2282,邵阳市,邵水西路287号,,20,18,43,14,40,22,,21,21,18,19,6,6,0.8,1.1
2026-01-19T1900,1247A,120.6053,29.9927,绍兴市,城东开发委,,15,12,42,10,29,37,,47,39,23,28,7,7,0.6,0.5
2026-01-19T1900,2921A,120.5482,30.0003,绍兴市,树下王站,,13,11,40,7,25,39,,45,42,16,25,6,6,0.7,0.6
2026-01-19T1900,3408A,120.5685,29.936,绍兴市,绍兴中专,,12,9,43,6,25,36,,46,41,21,31,6,6,0.5,0.5
2026-01-19T1900,3409A,120.4905,30.086,绍兴市,柯桥区政府,,13,13,33,7,16,40,,50,46,23,30,4,7,0.5,0.6
2026-01-19T1900,3410A,120.8751,30.0249,绍兴市,重华小学,,12,10,45,6,25,37,,55,46,24,36,5,5,0.5,0.4
2026-01-19T1900,3411A,120.837,30.0137,绍兴市,上虞中学,,13,11,46,6,25,39,,58,48,19,34,5,6,0.5,0.5
2026-01-19T1900,3560A,120.4715,30.0414,绍兴市,柯桥妇保,,14,8,47,3,26,42,,52,47,19,28,5,5,0.4,0.4
2026-01-19T1900,3658A,120.6156,30.0762,绍兴市,袍江中学,,15,6,34,3,16,39,,47,41,17,23,2,2,1.5,1.2
2026-01-19T1900,1356A,114.0948,22.5506,深圳市,通心岭子站,,46,46,49,31,32,124,,135,135,23,21,8,8,0.5,0.5
2026-01-19T1900,1357A,114.1153,22.5713,深圳市,洪湖,颗粒物(PM10),58,66,58,40,35,123,,138,138,30,36,8,8,0.7,0.7
2026-01-19T1900,1358A,113.9823,22.5398,深圳市,华侨城,颗粒物(PM10),56,62,55,39,36,116,,119,119,42,34,/,/,/,/
2026-01-19T1900,1359A,113.9181,22.517,深圳市,南海子站,细颗粒物(PM2.5),64,68,62,46,41,102,,109,108,50,39,9,8,0.9,0.9
2026-01-19T1900,1360A,114.2345,22.565,深圳市,盐田,,47,47,51,29,32,117,,124,124,33,33,8,8,0.7,0.8
2026-01-19T1900,1363A,114.4911,22.5381,深圳市,南澳,,41,39,43,23,28,131,,144,144,10,12,/,/,/,/
2026-01-19T1900,1364A,114.41,22.6346,深圳市,葵涌,,42,41,49,29,31,123,,133,133,14,27,8,8,0.7,0.7
2026-01-19T1900,1365A,114.2967,22.5978,深圳市,梅沙,,41,41,47,22,27,117,,132,132,13,14,/,/,/,/
2026-01-19T1900,1366A,114.0563,22.7353,深圳市,观澜,颗粒物(PM10),66,81,98,42,54,98,,138,138,63,62,10,9,0.8,0.8
2026-01-19T1900,3305A,114.0614,22.556,深圳市,莲花,颗粒物(PM10),54,57,51,36,34,99,,124,122,42,34,/,/,/,/
2026-01-19T1900,3306A,114.0144,22.6163,深圳市,民治,"颗粒物(PM10),细颗粒物(PM2.5)",60,70,69,43,40,82,,122,121,64,47,/,/,/,/
2026-01-19T1900,3307A,114.1756,22.6421,深圳市,横岗,颗粒物(PM10),59,68,64,40,39,112,,134,134,40,63,/,/,/,/
2026-01-19T1900,3447A,114.344,22.7115,深圳市,坪山,颗粒物(PM10),53,56,62,30,35,126,,144,144,24,33,9,9,0.7,0.7
2026-01-19T1900,3623A,113.8952,22.586,深圳市,西乡,颗粒物(PM10),60,69,69,34,38,68,,115,112,91,58,7,7,1.1,0.9
2026-01-19T1900,4220A,114.214113,22.713717,深圳市,黄阁路,,43,43,61,27,38,115,,149,149,17,32,7,7,0.7,0.8
2026-01-19T1900,1099A,123.5058,41.7084,沈阳市,浑南东路,,37,37,27,16,19,32,,59,53,36,24,8,12,0.5,0.5
2026-01-19T1900,1100A,123.4238,41.6992,沈阳市,新秀街,,50,50,31,16,16,21,,61,54,41,14,9,12,0.8,0.5
2026-01-19T1900,1102A,123.5903,41.8412,沈阳市,东陵路,,37,37,36,17,25,43,,59,56,19,31,6,7,0.5,0.6
2026-01-19T1900,1103A,123.4267,41.8466,沈阳市,陵东街,颗粒物(PM10),52,54,33,32,19,6,,58,42,55,18,12,12,0.7,0.5
2026-01-19T1900,1104A,123.4116,41.7654,沈阳市,文化路,,48,48,28,14,16,38,,58,53,24,19,26,27,0.6,0.5
2026-01-19T1900,1105A,123.4673,41.787,沈阳市,小河沿,,39,39,25,14,15,28,,59,52,27,11,16,12,0.6,0.6
2026-01-19T1900,1106A,123.4019,41.7978,沈阳市,太原街,,30,30,26,12,17,40,,58,54,27,20,12,12,0.5,0.4
2026-01-19T1900,1108A,123.3778,41.9233,沈阳市,京沈街,,32,32,31,12,21,56,,65,63,13,23,4,6,0.3,0.4
2026-01-19T1900,2897A,123.2429,41.7341,沈阳市,沈辽西路,颗粒物(PM10),56,62,46,25,17,32,,59,53,36,16,15,12,0.7,0.6
2026-01-19T1900,2900A,123.5951,41.9085,沈阳市,裕农路,,33,33,33,17,22,53,,71,66,20,34,8,6,0.5,0.5
