timepoint,stationcode,longitude,latitude,area,positionname,primarypollutant,aqi,pm10,pm10_24h,pm2_5,pm2_5_24h,o3,o3_24h,o3_8h,o3_8h_24h,no2,no2_24h,so2,so2_24h,co,co_24h
2026-01-19T0200,2568A,102.2503,31.8896,阿坝藏族羌族自治州,马师校,,22,,25,15,18,38,,,,11,19,3,4,0.5,0.6
2026-01-19T0200,3994A,102.2174,31.9016,阿坝藏族羌族自治州,马尔康中学西区,,20,20,14,8,12,35,,,,15,15,5,5,0.4,0.4
2026-01-19T0200,2695A,80.2899,41.1684,阿克苏地区,电视台,颗粒物(PM10),500,658,420,108,76,47,,,,26,27,8,6,1.3,1.2
2026-01-19T0200,2696A,80.2592,41.1541,阿克苏地区,艺术中心,颗粒物(PM10),500,655,431,125,87,71,,,,11,19,3,5,0.6,0.7
2026-01-19T0200,2205A,105.699,38.8409,阿拉善盟,蒙二幼,,39,39,45,7,11,61,,,,7,7,9,10,0.3,0.4
2026-01-19T0200,2206A,105.7198,38.8508,阿拉善盟,环保局新楼,,32,32,43,10,12,53,,,,4,5,8,8,0.5,0.5
2026-01-19T0200,2708A,88.1266,47.8515,阿勒泰地区,市站,,23,8,16,7,8,73,,,,4,18,2,6,0.3,0.5
2026-01-19T0200,4166A,88.1198,47.7931,阿勒泰地区,阿勒泰路33号,,24,6,14,3,5,74,,,,5,17,2,9,0.3,0.4
2026-01-19T0200,2630A,80.1171,32.4999,阿里地区,阿里监测站,,18,6,3,3,3,56,,,,11,3,9,6,0.5,0.4
2026-01-19T0200,3192A,80.0906,32.5029,阿里地区,阿里藏医院,,29,10,9,7,4,91,,,,1,2,12,10,0.5,0.4
2026-01-19T0200,2644A,109.0088,32.6974,安康市,汉滨区检察院,细颗粒物(PM2.5),105,100,113,79,88,41,,,,25,25,4,4,0.9,0.9
2026-01-19T0200,4054A,109.0324,32.6913,安康市,市邮政管理局,,,,144,,102,,,49,,,29,,6,,1.0
2026-01-19T0200,2291A,117.0806,30.5181,安庆市,环科院,颗粒物(PM10),73,96,155,47,114,15,,,,16,20,5,6,0.5,0.7
2026-01-19T0200,2292A,117.0331,30.5118,安庆市,马山宾馆,颗粒物(PM10),68,86,148,45,111,18,,,,19,23,4,5,0.8,1.1
2026-01-19T0200,2294A,116.9897,30.6146,安庆市,安庆大学,颗粒物(PM10),53,56,149,32,106,15,,,,21,21,3,3,0.5,0.8
2026-01-19T0200,3173A,117.0598,30.5351,安庆市,市人大,颗粒物(PM10),67,83,161,42,114,14,,,,22,26,4,6,0.5,0.7
2026-01-19T0200,3123A,105.9408,26.2431,安顺市,凤凰山,,43,36,46,30,34,75,,,,17,13,14,12,0.4,0.5
2026-01-19T0200,3124A,105.9443,26.2567,安顺市,金钟山,,42,38,48,29,35,74,,,,9,9,14,15,0.4,0.5
2026-01-19T0200,3125A,105.8983,26.248,安顺市,娄家坡,,46,35,41,32,35,84,,,,8,10,10,10,0.6,0.6
2026-01-19T0200,1819A,114.3552,36.1017,安阳市,红庙街,细颗粒物(PM2.5),77,,59,56,43,18,,,,25,23,3,3,0.8,0.7
2026-01-19T0200,1820A,114.361,36.0681,安阳市,银杏小区,细颗粒物(PM2.5),78,68,62,57,48,20,,,,26,25,1,1,0.5,0.5
2026-01-19T0200,3141A,114.3921,36.0879,安阳市,信访局,细颗粒物(PM2.5),67,66,59,48,45,26,,,,26,27,2,2,0.7,0.7
2026-01-19T0200,3669A,114.4706,36.0634,安阳市,左辅环卫站,细颗粒物(PM2.5),65,60,66,47,46,30,,,,17,17,2,2,0.5,0.5
2026-01-19T0200,4117A,114.2918,36.0769,安阳市,钢三路198号,细颗粒物(PM2.5),79,74,70,58,53,28,,,,23,24,1,2,0.9,0.7
2026-01-19T0200,1748A,123.0441,41.1201,鞍山市,深沟寺,,46,37,40,32,29,36,,,,24,24,8,9,1.0,1
2026-01-19T0200,1749A,123.011,41.0931,鞍山市,太阳城,,35,34,36,24,25,40,,,,28,19,16,12,0.8,0.9
2026-01-19T0200,1750A,123.0483,41.1445,鞍山市,太平,,48,48,50,30,31,36,,,,30,24,14,12,0.8,0.9
2026-01-19T0200,1751A,122.964,41.0968,鞍山市,铁西三道街,,40,40,43,24,26,26,,,,47,34,29,26,1.3,1.4
2026-01-19T0200,1753A,123.0219,41.0822,鞍山市,明达新区,,36,35,34,25,24,44,,,,19,19,16,14,0.6,0.6
2026-01-19T0200,4201A,122.944647,41.082639,鞍山市,兴盛南路290号,细颗粒物(PM2.5),55,54,49,39,31,23,,,,46,31,43,25,3.3,1.7
2026-01-19T0200,2195A,107.4206,40.7609,巴彦淖尔市,附二中,,30,30,41,18,20,53,,,,5,5,2,3,0.4,0.4
2026-01-19T0200,2196A,107.37,40.7372,巴彦淖尔市,市环保大楼,,40,40,38,8,18,57,,,,7,6,7,5,0.5,0.4
2026-01-19T0200,1956A,86.1476,41.7529,巴音郭楞蒙古自治州,孔雀公园,颗粒物(PM10),51,51,84,21,25,67,,,,3,6,7,8,0.3,0.3
2026-01-19T0200,1957A,86.1971,41.7166,巴音郭楞蒙古自治州,棉纺厂,颗粒物(PM10),56,62,104,21,18,48,,,,19,13,/,/,/,/
2026-01-19T0200,1958A,86.236,41.7172,巴音郭楞蒙古自治州,经济开发区,,42,42,87,3,17,58,,,,7,7,5,5,0.3,0.4
2026-01-19T0200,3181A,106.776805,31.852614,巴中市,市五中,细颗粒物(PM2.5),63,58,160,45,117,52,,,,8,29,6,6,0.7,1.7
2026-01-19T0200,3183A,106.7419,31.8654,巴中市,圣泉水务公司,细颗粒物(PM2.5),59,53,110,42,94,56,,,,10,35,5,6,0.7,1.2
2026-01-19T0200,3616A,106.7617,31.8343,巴中市,市中心医院,,,,145,,126,,,4,,,38,,7,,1.4
2026-01-19T0200,2235A,122.7909,45.608,白城市,洮北区环保局,,22,22,30,12,24,53,,,,9,21,2,7,0.2,0.4
2026-01-19T0200,2236A,122.8741,45.5725,白城市,市环保局,,17,14,26,9,17,53,,,,7,18,5,6,0.3,0.4
2026-01-19T0200,2231A,126.4219,41.9172,白山市,喜丰,颗粒物(PM10),51,52,43,27,22,56,,,,14,25,10,16,0.6,0.7
2026-01-19T0200,2232A,126.4082,41.9416,白山市,环保局,,50,35,28,35,24,55,,,,13,23,10,13,0.4,0.5
2026-01-19T0200,2647A,104.1727,36.5448,白银市,第三小学,,49,49,67,15,19,55,,,,17,10,10,5,0.4,0.3
2026-01-19T0200,2648A,104.1467,36.5482,白银市,动力公司,,35,35,58,13,19,64,,,,6,7,3,2,0.6,0.5
2026-01-19T0200,2512A,106.6102,23.901,百色市,市监测站,"颗粒物(PM10),细颗粒物(PM2.5)",55,60,77,39,54,32,,,,20,24,11,16,0.8,0.9
2026-01-19T0200,2513A,106.6524,23.8842,百色市,市中心血站,细颗粒物(PM2.5),73,68,75,53,62,78,,,,25,20,17,18,0.9,0.8
2026-01-19T0200,4133A,106.6273,23.8798,百色市,龙景西路,细颗粒物(PM2.5),74,95,104,54,61,30,,,,35,25,16,18,0.7,0.7
2026-01-19T0200,2270A,117.396,32.9389,蚌埠市,工人疗养院,,17,17,73,10,36,27,,,,17,19,3,4,0.4,0.3
2026-01-19T0200,2271A,117.3606,32.9428,蚌埠市,百货大楼,,15,15,70,7,31,27,,,,16,19,4,4,0.5,0.4
2026-01-19T0200,2273A,117.4183,32.8909,蚌埠市,蚌埠学院,,15,,66,10,33,29,,,,19,24,3,4,0.4,0.4
2026-01-19T0200,2274A,117.3534,32.9672,蚌埠市,淮上区政府,,19,,68,13,37,29,,,,16,20,3,1,0.5,0.4
2026-01-19T0200,2275A,117.3143,32.8977,蚌埠市,高新区,,13,9,68,9,38,26,,,,17,21,5,6,0.3,0.2
2026-01-19T0200,3715A,117.3091,32.9314,蚌埠市,蚌埠田家炳中学,,19,14,72,13,38,27,,,,19,23,3,4,0.6,0.5
2026-01-19T0200,1585A,109.8761,40.6533,包头市,市环境监测站,,23,23,43,3,8,65,,,,7,6,4,4,0.2,0.2
2026-01-19T0200,1587A,109.9992,40.5843,包头市,包头八中,,21,21,39,8,10,62,,,,6,6,12,5,0.7,0.5
2026-01-19T0200,1589A,109.8641,40.6288,包头市,惠龙物流,,22,7,30,7,8,69,,,,4,5,7,7,0.4,0.4
2026-01-19T0200,1590A,110.0376,40.5546,包头市,东河鸿龙湾,,20,10,34,3,4,62,,,,6,9,13,8,0.5,0.5
2026-01-19T0200,3283A,109.9154,40.5684,包头市,滨河大厦,,20,13,22,7,9,64,,,,1,3,6,6,0.5,0.5
2026-01-19T0200,3419A,109.9449,40.6259,包头市,包头市委党校,,32,32,43,9,12,62,,,,6,6,8,7,0.4,0.5
2026-01-19T0200,3683A,109.8332,40.6577,包头市,昆区政府,,20,14,29,9,7,62,,,,7,7,6,5,0.5,0.5
2026-01-19T0200,1931A,107.0802,34.3129,宝鸡市,竹园沟,颗粒物(PM10),52,53,97,16,42,52,,,,9,17,6,6,0.3,0.4
2026-01-19T0200,1933A,107.1429,34.3549,宝鸡市,监测站,颗粒物(PM10),56,62,111,14,41,54,,,,11,27,4,5,0.6,0.7
2026-01-19T0200,1934A,107.1172,34.3759,宝鸡市,技工学校,颗粒物(PM10),51,52,112,20,52,57,,,,12,21,7,6,0.8,0.9
2026-01-19T0200,1936A,107.2025,34.3518,宝鸡市,文理学院,颗粒物(PM10),54,58,118,11,61,59,,,,12,32,4,5,0.3,0.6
2026-01-19T0200,1937A,107.2396,34.3626,宝鸡市,三迪小学,颗粒物(PM10),54,57,129,13,74,58,,,,9,36,3,5,0.3,0.8
2026-01-19T0200,4155A,107.1721,34.3558,宝鸡市,滨河北路,,41,41,103,13,46,53,,,,8,25,4,6,0.3,0.6
2026-01-19T0200,4308A,107.3898,34.3601,宝鸡市,陈仓区北开路21号,颗粒物(PM10),60,70,165,15,102,47,,,,20,49,5,18,0.4,0.9
2026-01-19T0200,1051A,115.4803,38.8568,保定市,游泳馆,,42,42,53,16,26,47,,,,19,19,3,2,0.4,0.5
2026-01-19T0200,1052A,115.509,38.8895,保定市,华电二区,细颗粒物(PM2.5),59,47,48,42,36,34,,,,26,17,3,3,0.5,0.5
2026-01-19T0200,1053A,115.4588,38.9037,保定市,接待中心,,43,43,48,20,29,44,,,,19,18,1,2,0.2,0.3
2026-01-19T0200,1054A,115.4484,38.8344,保定市,地表水厂,颗粒物(PM10),54,58,64,25,30,48,,,,20,25,5,5,0.3,0.4
2026-01-19T0200,3581A,115.3136,38.9511,保定市,满城区生态环境分局,细颗粒物(PM2.5),55,56,43,39,32,16,,,,55,34,2,3,0.7,0.6
2026-01-19T0200,3582A,115.4709,38.7628,保定市,清苑区第二中学,,42,42,60,25,27,43,,,,21,24,3,2,0.4,0.6
2026-01-19T0200,3583A,115.6231,39.0223,保定市,徐水物探局,,33,33,44,20,34,47,,,,18,24,3,3,0.4,0.6
2026-01-19T0200,4004A,115.4199,38.8665,保定市,双鹰农机,,49,49,55,31,34,56,,,,11,14,5,4,0.3,0.5
2026-01-19T0200,4034A,115.515,38.8589,保定市,植保所站,细颗粒物(PM2.5),54,50,50,38,38,37,,,,23,20,1,2,0.5,0.6
2026-01-19T0200,2594A,99.1589,25.1137,保山市,市环境监测站,,28,28,29,18,21,64,,,,6,9,9,9,0.3,0.4
2026-01-19T0200,2595A,99.1616,25.1381,保山市,市环保局,,40,34,32,28,23,71,,,,4,7,4,4,0.5,0.4
2026-01-19T0200,1867A,109.1435,21.4085,北海市,海滩公园,颗粒物(PM10),51,52,79,22,55,112,,,,8,21,8,15,0.8,1
2026-01-19T0200,1868A,109.0983,21.466,北海市,新市环保局,颗粒物(PM10),53,55,70,34,57,108,,,,10,30,5,12,0.6,0.8
2026-01-19T0200,1869A,109.1775,21.5232,北海市,北海工业园,颗粒物(PM10),61,71,88,37,61,96,,,,10,27,6,16,0.9,1
2026-01-19T0200,3400A,109.1844,21.4396,北海市,龙潭自来水厂,细颗粒物(PM2.5),62,49,70,44,58,106,,,,5,19,4,21,1.0,1.1
2026-01-19T0200,1001A,116.3611,39.8786,北京市,万寿西宫,,20,14,37,7,23,61,,,,8,23,2,3,0.4,0.7
2026-01-19T0200,1003A,116.4174,39.9289,北京市,东四,,19,11,36,7,22,60,,,,7,21,4,6,0.3,0.7
2026-01-19T0200,1004A,116.4073,39.8858,北京市,天坛,,20,13,35,6,21,63,,,,5,20,3,4,0.4,0.7
2026-01-19T0200,1005A,116.4622,39.9364,北京市,农展馆,,21,8,34,3,21,65,,,,5,13,4,6,0.4,0.7
2026-01-19T0200,1006A,116.3399,39.9293,北京市,官园,,18,14,41,8,22,56,,,,7,20,5,6,0.5,0.7
2026-01-19T0200,1007A,116.2879,39.9613,北京市,海淀万柳,,15,12,32,7,21,48,,,,17,26,3,3,0.4,0.6
2026-01-19T0200,1008A,116.6635,40.1349,北京市,顺义新城,,22,10,31,3,18,70,,,,4,12,4,5,0.3,0.5
2026-01-19T0200,1009A,116.6275,40.327,北京市,怀柔镇,,22,6,26,3,17,68,,,,1,11,4,5,0.3,0.5
2026-01-19T0200,1010A,116.2295,40.217,北京市,昌平镇,,21,12,31,6,19,65,,,,3,17,2,2,0.4,0.5
2026-01-19T0200,1011A,116.3968,39.982,北京市,奥体中心,,20,10,32,6,20,61,,,,11,22,4,4,0.6,0.8
2026-01-19T0200,3418A,116.8336,40.4095,北京市,密云新城,,21,8,32,3,17,66,,,,2,10,6,6,0.4,0.6
2026-01-19T0200,3671A,116.0879,39.9725,北京市,门头沟三家店,,21,9,30,6,23,66,,,,5,22,4,3,0.4,0.5
2026-01-19T0200,3672A,116.1507,39.8246,北京市,丰台云岗,,23,11,32,6,23,71,,,,5,21,3,3,0.3,0.6
2026-01-19T0200,3674A,115.9578,39.7602,北京市,房山燕山,,21,15,32,6,24,65,,,,3,22,4,3,0.3,0.5
2026-01-19T0200,3675A,116.4669,39.7734,北京市,大兴旧宫,,19,13,37,3,19,60,,,,11,22,3,4,0.4,0.7
2026-01-19T0200,3694A,115.9859,40.4562,北京市,延庆石河营,,21,8,31,3,18,67,,,,2,13,3,3,0.4,0.5
2026-01-19T0200,3695A,116.6151,40.3052,北京市,怀柔新城,,23,6,27,3,18,73,,,,2,8,4,5,0.3,0.5
2026-01-19T0200,3696A,116.2542,39.8764,北京市,丰台小屯,,15,11,34,7,22,46,,,,12,26,3,3,0.3,0.6
2026-01-19T0200,3697A,116.8399,40.3843,北京市,密云镇,,21,9,30,3,18,67,,,,4,12,2,2,0.4,0.5
2026-01-19T0200,4057A,115.9423,40.4431,北京市,延庆百泉,,20,9,32,3,19,64,,,,1,11,2,2,0.2,0.4
2026-01-19T0200,4058A,116.6598,39.9164,北京市,通州新华,,19,11,40,6,20,59,,,,5,19,2,5,0.4,0.7
2026-01-19T0200,4182A,116.1942,39.9158,北京市,石景山八角,,18,14,33,3,20,57,,,,2,17,2,3,0.1,0.3
2026-01-19T0200,4194A,117.078628,40.151726,北京市,平谷新城,,20,7,31,3,18,62,,,,2,7,2,2,0.1,0.4
2026-01-19T0200,1761A,123.8274146,41.31234549,本溪市,大峪,,28,28,57,17,28,45,,,,15,29,8,9,1.0,1
2026-01-19T0200,1763A,123.7169,41.3094,本溪市,彩屯,颗粒物(PM10),51,51,48,29,32,32,,,,30,32,8,10,1.0,1
2026-01-19T0200,1764A,123.7672166,41.28649327,本溪市,东明,,24,24,48,15,28,48,,,,14,28,10,8,1.1,1.1
2026-01-19T0200,1765A,123.799345,41.266614,本溪市,新立屯,,28,28,40,13,27,48,,,,10,22,9,11,0.9,0.8
2026-01-19T0200,1766A,123.829144,41.336777,本溪市,威宁,颗粒物(PM10),51,51,55,30,32,6,,,,51,35,5,6,1.0,1
2026-01-19T0200,2587A,105.287,27.3133,毕节市,八中,细颗粒物(PM2.5),198,193,92,148,75,49,,,,13,25,9,13,1.1,1
2026-01-19T0200,2588A,105.3079,27.2987,毕节市,师专,细颗粒物(PM2.5),192,174,105,144,84,60,,,,11,28,8,12,1.1,1.2
2026-01-19T0200,4263A,105.3688,27.3598,毕节市,工业大道,细颗粒物(PM2.5),135,133,122,103,87,66,,,,10,21,10,12,/,/
2026-01-19T0200,1629A,117.9961,37.3604,滨州市,第二水厂,,29,29,25,13,17,48,,,,8,13,8,8,0.6,0.5
2026-01-19T0200,1630A,117.9789,37.3931,滨州市,北中新校,,31,31,32,19,18,51,,,,12,17,6,6,0.4,0.4
2026-01-19T0200,3514A,117.9379,37.3959,滨州市,中海酒店,,28,27,26,19,22,49,,,,9,13,5,6,0.5,0.5
2026-01-19T0200,3515A,117.9381509,37.35547456,滨州市,开发区一中,,,36,28,22,18,,,,,5,11,9,10,0.4,0.4
2026-01-19T0200,3516A,118.0914,37.6938,滨州市,金海六路,,,29,24,12,12,,,,,6,7,3,3,0.3,0.3
2026-01-19T0200,4028A,117.9955,37.3752,滨州市,滨州市西街道办事处,,32,27,23,22,22,56,,,,6,12,6,7,0.5,0.5
2026-01-19T0200,2311A,115.8071,33.8399,亳州市,污水处理厂,,28,23,41,19,24,23,,,,17,20,2,2,0.3,0.3
2026-01-19T0200,2312A,115.7789,33.8519,亳州市,三国揽胜宫,,42,,48,29,30,23,,,,13,19,1,1,0.4,0.4
2026-01-19T0200,3332A,115.7631,33.803,亳州市,亳州学院,,32,24,50,22,27,23,,,,18,21,2,2,0.6,0.6
2026-01-19T0200,2693A,82.0482,44.8553,博尔塔拉蒙古自治州,市党校,颗粒物(PM10),56,62,59,27,16,48,,,,17,20,2,3,2.0,1.8
2026-01-19T0200,2694A,82.0805,44.8966,博尔塔拉蒙古自治州,市环保局,颗粒物(PM10),64,77,62,45,30,38,,,,17,17,4,5,1.3,1.2
2026-01-19T0200,1071A,116.8733,38.2922,沧州市,沧县城建局,颗粒物(PM10),53,56,47,32,28,17,,,,48,24,9,6,0.6,0.5
2026-01-19T0200,1072A,116.8462,38.3189,沧州市,电视转播站,颗粒物(PM10),58,65,50,34,24,8,,,,55,29,6,3,0.7,0.5
2026-01-19T0200,1073A,116.8588,38.3161,沧州市,市环保局,颗粒物(PM10),55,59,50,37,31,7,,,,49,24,9,6,0.7,0.5
2026-01-19T0200,3324A,116.8011,38.294,沧州市,河北水利电力学院,,48,48,40,28,22,17,,,,47,23,4,3,0.6,0.4
2026-01-19T0200,2622A,97.1813,31.1289,昌都市,昌都监测站,颗粒物(PM10),51,51,60,11,24,30,,,,17,28,4,5,0.6,0.9
2026-01-19T0200,3719A,97.1707,31.1428,昌都市,昌都会议中心,,15,13,15,9,11,46,,,,2,7,1,2,0.4,0.4
2026-01-19T0200,2692A,87.2722,44.0298,昌吉回族自治州,新区政务中心,细颗粒物(PM2.5),99,96,60,74,43,25,,,,40,29,5,8,0.8,0.5
2026-01-19T0200,3613A,87.3069,44.0093,昌吉回族自治州,亚心广场,细颗粒物(PM2.5),122,112,59,92,43,34,,,,27,20,7,7,0.9,0.7
2026-01-19T0200,4164A,87.2057,43.9289,昌吉回族自治州,财政所,细颗粒物(PM2.5),87,80,58,64,42,28,,,,24,21,4,4,1.0,0.7
2026-01-19T0200,1120A,125.2874,43.9024,长春市,客车厂,细颗粒物(PM2.5),75,56,43,55,40,32,,,,27,31,8,12,0.7,0.6
2026-01-19T0200,1121A,125.2943,43.8508,长春市,邮电学院,细颗粒物(PM2.5),70,64,43,51,38,24,,,,36,32,11,12,0.8,0.7
2026-01-19T0200,1122A,125.3648,43.8745,长春市,劳动公园,细颗粒物(PM2.5),67,68,48,48,34,29,,,,32,29,10,11,0.7,0.6
2026-01-19T0200,1123A,125.3233,43.8781,长春市,园林处,细颗粒物(PM2.5),59,57,44,42,37,31,,,,25,26,9,12,0.7,0.6
2026-01-19T0200,1124A,125.4604,43.7904,长春市,净月潭,细颗粒物(PM2.5),59,53,48,42,36,20,,,,32,23,6,6,0.7,0.6
2026-01-19T0200,1126A,125.38,43.8422,长春市,经开区环卫处,细颗粒物(PM2.5),65,66,48,47,32,14,,,,43,38,8,12,0.7,0.6
2026-01-19T0200,1127A,125.234,43.7761,长春市,高新区管委会,,45,44,55,31,51,41,,,,19,39,7,8,0.4,0.6
2026-01-19T0200,1128A,125.1695,43.83,长春市,岱山公园,细颗粒物(PM2.5),59,64,55,42,50,29,,,,25,36,5,8,0.6,0.6
2026-01-19T0200,4281A,125.334645,43.916281,长春市,北亚泰大街1068号,,,,43,,35,,,48,,,34,,15,,0.5
2026-01-19T0200,1335A,113.082,28.2421,长沙市,经开区环保局,,47,47,120,25,101,2,,,,22,25,2,3,0.6,0.8
2026-01-19T0200,1336A,112.8873,28.2202,长沙市,高开区环保局,,34,34,136,17,131,7,,,,14,26,3,4,0.5,0.9
2026-01-19T0200,1337A,113.0785,28.2012,长沙市,马坡岭,,50,50,125,25,90,3,,,,20,26,3,4,0.7,0.9
2026-01-19T0200,1338A,112.9448,28.1894,长沙市,湖南师范大学,,33,33,150,20,100,9,,,,19,33,3,3,0.6,1.1
2026-01-19T0200,1339A,113.0177,28.1322,长沙市,雨花区环保局,,38,38,131,23,116,6,,,,21,32,6,6,0.8,1.1
2026-01-19T0200,1340A,112.9795,28.2593,长沙市,伍家岭,,40,39,149,28,107,5,,,,23,31,4,4,0.6,0.9
2026-01-19T0200,1341A,113.002,28.1944,长沙市,火车新站,,42,30,145,29,111,10,,,,20,32,1,2,0.8,1.2
2026-01-19T0200,1342A,112.9846,28.1177,长沙市,天心区环保局,,45,45,146,26,114,8,,,,23,34,4,5,0.5,0.9
2026-01-19T0200,1343A,112.8906,28.1307,长沙市,湖南中医药大学,,40,40,153,24,111,10,,,,20,34,4,4,0.7,1.1
2026-01-19T0200,1727A,113.1146,36.1547,长治市,清华站,细颗粒物(PM2.5),83,62,62,61,56,23,,,,18,19,8,7,0.9,1
2026-01-19T0200,1730A,113.0887,36.2126,长治市,审计局,细颗粒物(PM2.5),92,74,62,68,58,24,,,,17,18,5,5,0.9,0.9
2026-01-19T0200,1731A,113.0845,36.1856,长治市,长治八中,,,,71,,59,,,38,,,16,,7,,1.0
2026-01-19T0200,2845A,113.1561,36.1912,长治市,德盛苑,细颗粒物(PM2.5),83,64,61,61,59,26,,,,16,17,6,6,0.8,1
2026-01-19T0200,3568A,113.0603,36.0464,长治市,向阳小学,细颗粒物(PM2.5),110,91,100,83,70,27,,,,24,25,5,5,0.9,1.3
2026-01-19T0200,3569A,112.8788,36.315,长治市,屯留一中,细颗粒物(PM2.5),119,99,95,90,80,6,,,,50,51,8,10,1.8,1.6
2026-01-19T0200,4189A,113.113092,36.199482,长治市,英华南巷50号,细颗粒物(PM2.5),79,67,63,58,54,28,,,,14,16,5,5,0.8,0.9
2026-01-19T0200,4190A,113.23666,36.33435,长治市,学府街1号,细颗粒物(PM2.5),89,78,66,66,62,20,,,,24,24,7,7,1.1,1.1
2026-01-19T0200,1854A,111.696,28.9725,常德市,市二中,,35,31,181,24,129,19,,,,18,25,4,6,0.7,1
2026-01-19T0200,3138A,111.7152,29.0288,常德市,武陵区永安,,40,38,188,28,128,20,,,,17,23,4,5,0.7,1.1
2026-01-19T0200,3139A,111.6891,28.9881,常德市,鼎城区玉霞,,38,30,176,26,129,21,,,,18,25,6,8,0.6,0.9
2026-01-19T0200,3140A,111.6651,29.0526,常德市,武陵区长庚,,39,30,179,27,133,21,,,,17,26,4,5,0.7,1
2026-01-19T0200,1196A,119.9524,31.7586,常州市,市监测站,,44,44,54,21,31,69,,,,11,28,6,6,0.9,0.9
2026-01-19T0200,1200A,119.9351,31.703,常州市,武进监测站,颗粒物(PM10),53,56,62,23,34,63,,,,12,32,10,13,0.9,0.9
2026-01-19T0200,3002A,119.9701,31.813,常州市,行政中心,颗粒物(PM10),55,60,61,22,28,68,,,,12,27,4,6,0.4,0.5
2026-01-19T0200,3003A,120.0434,31.7726,常州市,经开区,颗粒物(PM10),53,56,59,21,26,63,,,,13,28,3,5,0.4,0.5
2026-01-19T0200,3010A,119.8919,31.7892,常州市,钟楼,颗粒物(PM10),52,53,57,21,27,66,,,,7,23,5,7,0.3,0.4
2026-01-19T0200,3429A,119.8595,31.706,常州市,武进经发区,颗粒物(PM10),52,53,60,26,33,68,,,,12,32,3,2,0.6,0.8
2026-01-19T0200,3430A,119.5812,31.7256,常州市,金坛城区,颗粒物(PM10),52,53,66,24,36,69,,,,7,22,6,7,0.5,0.8
2026-01-19T0200,4089A,119.9551,31.863,常州市,崇义南街5-H号,颗粒物(PM10),53,55,55,16,24,69,,,,8,24,4,6,0.6,0.7
2026-01-19T0200,2220A,120.4318,41.588,朝阳市,西梁,,20,18,29,6,15,63,,,,9,12,6,8,0.4,0.5
2026-01-19T0200,2221A,120.452,41.565,朝阳市,河畔小区,,21,11,25,3,15,66,,,,8,13,6,11,0.4,0.6
2026-01-19T0200,2222A,120.4176,41.5648,朝阳市,八里堡,,19,19,28,9,16,59,,,,12,15,7,9,0.4,0.5
2026-01-19T0200,3026A,116.6179,23.6608,潮州市,市政府,细颗粒物(PM2.5),192,,85,144,62,28,,,,57,29,73,12,1.0,0.6
2026-01-19T0200,4036A,116.646,23.676,潮州市,金山,细颗粒物(PM2.5),82,65,68,60,54,29,,,,22,21,2,6,0.6,0.6
2026-01-19T0200,2473A,113.0116,25.8228,郴州市,市职中,细颗粒物(PM2.5),128,121,95,97,76,22,,,,18,25,5,6,1.0,1
2026-01-19T0200,2475A,113.0381,25.8074,郴州市,市审计局,细颗粒物(PM2.5),129,118,104,98,85,38,,,,12,25,1,4,/,/
2026-01-19T0200,2476A,113.0348,25.7757,郴州市,市环保局,细颗粒物(PM2.5),145,120,108,111,73,33,,,,15,29,4,7,0.7,0.7
2026-01-19T0200,4252A,113.0138,25.8011,郴州市,好美居路49号,细颗粒物(PM2.5),137,112,85,104,77,44,,,,19,30,7,7,/,/
2026-01-19T0200,1431A,103.9727,30.7242,成都市,金泉两河,细颗粒物(PM2.5),105,99,135,79,114,,,,,21,43,2,3,0.9,1.2
2026-01-19T0200,1432A,104.1423,30.6765,成都市,十里店,细颗粒物(PM2.5),74,78,155,54,126,62,,,,19,43,4,5,0.8,1
2026-01-19T0200,1433A,104.0594,30.5765,成都市,三瓦窑,细颗粒物(PM2.5),99,85,154,74,137,65,,,,15,47,3,4,0.8,1.1
2026-01-19T0200,1434A,104.1122,30.6306,成都市,沙河铺,细颗粒物(PM2.5),92,86,153,68,140,58,,,,23,55,3,3,0.9,1.2
2026-01-19T0200,2880A,104.0219,30.6561,成都市,大石西路,细颗粒物(PM2.5),90,101,150,67,115,42,,,,21,33,5,5,0.8,0.9
2026-01-19T0200,3136A,104.2724,30.559,成都市,龙泉驿区区政府,细颗粒物(PM2.5),117,107,128,88,110,,,,,20,23,6,6,0.9,1
2026-01-19T0200,3357A,104.0028,30.6891,成都市,金博路,细颗粒物(PM2.5),113,102,135,85,112,,,,,31,46,6,7,1.1,1.2
2026-01-19T0200,3359A,104.056,30.5228,成都市,华阳,细颗粒物(PM2.5),94,80,136,70,109,54,,,,24,54,3,3,0.7,1
2026-01-19T0200,3488A,104.387954,30.746684,成都市,青石路225号,细颗粒物(PM2.5),127,112,154,96,125,14,,,,47,40,4,4,1.0,1.1
2026-01-19T0200,3489A,104.0788,30.4054,成都市,科学城,细颗粒物(PM2.5),182,160,138,137,120,,,,,61,39,6,6,1.1,1
2026-01-19T0200,4011A,103.8505,30.6946,成都市,光华大道三段,细颗粒物(PM2.5),100,95,148,75,120,73,,,,16,40,3,5,0.4,0.7
2026-01-19T0200,4144A,104.3257,30.6406,成都市,八角井街185号,细颗粒物(PM2.5),119,129,157,90,117,8,,,,36,32,3,4,0.9,1
2026-01-19T0200,4224A,104.2433276,30.53529463,成都市,鲸龙路1057号,细颗粒物(PM2.5),122,117,133,92,113,11,,,,48,41,5,5,0.9,1
2026-01-19T0200,1062A,117.9531,40.908,承德市,铁路,,21,14,46,3,18,66,,,,3,18,5,7,0.2,0.6
2026-01-19T0200,1063A,117.9397,40.9763,承德市,中国银行,,21,17,46,3,19,66,,,,2,16,3,4,0.2,0.6
2026-01-19T0200,4073A,117.9462,40.95,承德市,杏林街1号,,20,17,38,11,21,64,,,,2,16,4,5,0.2,0.6
2026-01-19T0200,4274A,117.7994,40.9605,承德市,滨河大街98号,,48,48,41,3,20,67,,,,2,16,3,6,0.2,0.5
2026-01-19T0200,2314A,117.4698,30.6617,池州市,池州学院,"颗粒物(PM10),细颗粒物(PM2.5)",74,97,127,54,95,12,,,,32,35,3,5,0.5,0.9
2026-01-19T0200,3237A,117.4918,30.6617,池州市,展览馆,颗粒物(PM10),81,112,145,59,99,12,,,,31,34,1,3,0.7,1.1
2026-01-19T0200,3333A,117.5626,30.695,池州市,第八中学,颗粒物(PM10),75,99,125,49,87,10,,,,32,34,3,4,0.8,1.2
2026-01-19T0200,3334A,117.5037,30.6242,池州市,第十二中学,颗粒物(PM10),73,96,125,51,91,12,,,,33,40,2,4,0.7,1.1
2026-01-19T0200,1744A,118.9229,42.2816,赤峰市,松山一中,,19,19,24,3,10,60,,,,6,14,5,6,0.5,0.6
2026-01-19T0200,1745A,118.9588,42.2733,赤峰市,哈达街,,23,23,21,10,13,66,,,,6,11,4,5,0.5,0.6
2026-01-19T0200,1746A,118.8792,42.2551,赤峰市,天义路,,21,9,14,9,12,67,,,,2,10,6,7,0.6,0.6
2026-01-19T0200,3058A,119.2656,42.0356,赤峰市,银河街,,28,28,28,12,15,76,,,,2,7,8,11,0.5,0.6
2026-01-19T0200,3286A,118.9359,42.3146,赤峰市,桥北物流园区,,22,12,13,12,13,70,,,,3,10,3,6,0.3,0.4
2026-01-19T0200,2521A,107.3473,22.4137,崇左市,市环保局江州分局,细颗粒物(PM2.5),70,79,72,51,45,21,,,,40,22,9,9,0.9,0.9
2026-01-19T0200,4256A,107.375,22.3736,崇左市,石景林东路7号,细颗粒物(PM2.5),63,56,53,45,41,66,,,,22,20,6,6,0.6,0.6
2026-01-19T0200,3207A,118.31131,32.3033,滁州市,市政府原办公楼,,47,47,84,23,43,64,,,,13,27,4,4,0.1,0.3
2026-01-19T0200,3331A,118.3268,32.2633,滁州市,图书馆,,46,46,78,19,40,63,,,,11,24,7,8,0.3,0.5
2026-01-19T0200,4101A,118.3196,32.3335,滁州市,银山路666号,,39,35,70,27,51,65,,,,9,20,1,3,0.2,0.4
2026-01-19T0200,4102A,118.3426,32.2979,滁州市,黄山路555号,,48,48,85,26,51,71,,,,7,24,14,15,0.5,0.7
2026-01-19T0200,2606A,101.5379,25.0492,楚雄彝族自治州,市经济开发区,,30,30,29,18,20,18,,,,30,19,6,3,0.7,0.6
2026-01-19T0200,4153A,101.5536,25.0343,楚雄彝族自治州,团结路562号,,42,42,26,25,17,6,,,,44,16,4,4,0.5,0.4
2026-01-19T0200,2549A,107.5087,31.2186,达州市,市环境监测站,细颗粒物(PM2.5),79,97,128,58,97,60,,,,10,35,9,10,0.5,0.9
2026-01-19T0200,2550A,107.4988,31.2132,达州市,凤凰小区,细颗粒物(PM2.5),83,95,143,61,106,56,,,,11,42,8,9,0.5,1.2
2026-01-19T0200,2551A,107.5081,31.1987,达州市,达县机关宾馆,细颗粒物(PM2.5),84,102,158,62,112,50,,,,14,42,6,7,0.7,1.7
2026-01-19T0200,2552A,107.4644,31.2124,达州市,市政中心,细颗粒物(PM2.5),79,103,151,58,106,57,,,,16,49,9,9,0.4,1.2
2026-01-19T0200,2614A,100.2168,25.5818,大理白族自治州,大理市环境监测站,,28,21,27,19,20,73,,,,8,8,6,6,0.5,0.6
2026-01-19T0200,2615A,100.1542,25.7055,大理白族自治州,大理古城,,28,19,31,19,17,72,,,,6,13,8,8,0.6,0.7
2026-01-19T0200,1109A,121.6119,38.974,大连市,甘井子,,32,32,38,17,23,55,,,,11,23,8,10,0.8,0.5
2026-01-19T0200,1110A,121.565,38.9509,大连市,周水子,,39,39,38,16,21,55,,,,8,20,11,13,0.4,0.6
2026-01-19T0200,1111A,121.5637,38.8849,大连市,星海三站,,28,28,34,12,21,55,,,,13,22,8,12,0.6,0.6
2026-01-19T0200,1112A,121.6301,38.9117,大连市,青泥洼桥,,34,34,39,15,23,52,,,,9,25,10,13,0.6,0.7
2026-01-19T0200,1113A,121.6248,38.8643,大连市,傅家庄,,30,30,37,14,22,48,,,,13,27,8,13,0.4,0.5
2026-01-19T0200,1114A,121.5117,38.8636,大连市,七贤岭,,33,33,35,12,18,53,,,,6,13,6,8,0.5,0.6
2026-01-19T0200,1116A,121.7507,39.1339,大连市,金州,,29,29,41,12,25,62,,,,14,25,7,11,0.4,0.7
2026-01-19T0200,1117A,121.7811,39.0495,大连市,开发区,,28,28,35,12,25,58,,,,9,22,5,6,0.4,0.6
2026-01-19T0200,1118A,121.9762,39.0631,大连市,双D港,,22,21,38,8,23,68,,,,8,19,7,11,0.2,0.5
2026-01-19T0200,4082A,121.2548,38.8188,大连市,旅顺,,22,22,27,8,12,58,,,,5,11,6,8,0.5,0.6
2026-01-19T0200,1789A,124.8085,46.0381,大庆市,大同区,,46,40,40,32,27,36,,,,23,20,6,7,0.7,0.7
2026-01-19T0200,1790A,125.1166,46.5255,大庆市,龙凤区,颗粒物(PM10),52,53,42,24,29,39,,,,27,34,14,12,0.4,0.4
2026-01-19T0200,1791A,124.8894,46.4007,大庆市,红岗区,,43,30,30,30,20,39,,,,13,19,4,5,0.3,0.3
2026-01-19T0200,1792A,125.1391,46.578,大庆市,萨尔图区,,37,37,37,22,20,47,,,,12,23,8,8,0.5,0.6
2026-01-19T0200,1793A,124.9026,46.6217,大庆市,让胡路区,,42,34,31,29,31,57,,,,8,13,8,7,0.6,0.6
2026-01-19T0200,3481A,125.127,46.6277,大庆市,萨区政府监测点,,50,50,38,34,18,22,,,,35,26,8,9,0.8,0.7
2026-01-19T0200,1723A,113.2926,40.0759,大同市,云冈宾馆,,19,11,30,7,18,59,,,,5,11,6,6,0.6,0.7
2026-01-19T0200,1724A,113.3437,40.0921,大同市,大同大学,,21,14,39,14,21,66,,,,2,10,2,3,0.5,0.7
2026-01-19T0200,1725A,113.2637,40.129,大同市,安家小村,,19,,32,6,16,60,,,,4,11,7,7,0.3,0.5
2026-01-19T0200,3282A,113.3399,40.0586,大同市,大同市卫生学校,,22,22,39,7,22,66,,,,4,13,3,4,0.4,0.7
2026-01-19T0200,3565A,113.1371,40.1122,大同市,云冈站,,18,6,38,3,19,57,,,,4,11,6,6,0.3,0.7
2026-01-19T0200,3566A,113.1186,40.2556,大同市,图书馆,,18,11,39,9,17,56,,,,7,13,6,6,0.3,0.7
2026-01-19T0200,3567A,113.5931,40.0459,大同市,区一中,,21,13,47,7,26,66,,,,5,13,1,2,0.3,0.5
2026-01-19T0200,4199A,113.2798248,40.09972476,大同市,魏都大道141号,,20,12,43,3,17,61,,,,4,11,4,5,0.5,0.7
2026-01-19T0200,2269A,124.1068,50.4091,大兴安岭地区,科技局,,34,34,34,9,9,3,,,,4,4,3,3,0.2,0.2
2026-01-19T0200,3663A,124.117,50.4279,大兴安岭地区,红旗社区,,32,24,16,22,12,31,,,,16,10,5,6,0.4,0.3
2026-01-19T0200,1600A,124.33,40.0625,丹东市,江湾东路,,32,32,29,12,16,51,,,,14,14,8,7,0.5,0.6
2026-01-19T0200,1601A,124.4242,40.1513,丹东市,临江后街,,25,25,19,12,12,59,,,,7,8,4,4,0.6,0.6
2026-01-19T0200,1602A,124.3935,40.1461,丹东市,元宝山,,23,23,19,15,14,53,,,,14,10,6,8,0.5,0.5
2026-01-19T0200,1603A,124.3634,40.1093,丹东市,民主桥,,24,24,29,12,17,54,,,,8,13,7,9,0.4,0.5
2026-01-19T0200,3541A,109.5726195,19.51688767,儋州市,第一中学子站,,30,29,41,21,31,61,,,,2,6,4,5,0.5,0.6
2026-01-19T0200,3542A,109.5567,19.5187,儋州市,东坡学校子站,,41,41,41,15,26,66,,,,2,5,6,6,0.5,0.6
2026-01-19T0200,2616A,98.5611,24.4273,德宏傣族景颇族自治州,德宏州监测站,细颗粒物(PM2.5),55,56,64,39,45,21,,,,32,27,6,7,0.8,0.9
2026-01-19T0200,3677A,98.5887,24.4366,德宏傣族景颇族自治州,芒市人民政府综合楼,颗粒物(PM10),51,52,53,29,33,37,,,,10,15,4,5,0.7,0.7
2026-01-19T0200,1901A,104.424,31.1209,德阳市,东山公园,细颗粒物(PM2.5),63,60,108,45,100,68,,,,7,18,5,8,0.7,0.9
2026-01-19T0200,1902A,104.3827,31.1318,德阳市,西小区,细颗粒物(PM2.5),65,71,124,47,98,67,,,,8,29,4,6,0.9,1.2
2026-01-19T0200,1904A,104.3553,31.1091,德阳市,耐火材料厂,细颗粒物(PM2.5),62,66,106,44,101,53,,,,25,30,2,7,0.8,1
2026-01-19T0200,4145A,104.4144,31.1495,德阳市,市林业局,"颗粒物(PM10),细颗粒物(PM2.5)",53,55,119,37,112,65,,,,11,40,3,5,0.5,0.8
2026-01-19T0200,1622A,116.3034,37.4675,德州市,儿童乐园,颗粒物(PM10),57,63,37,29,21,27,,,,30,23,13,11,0.8,0.7
2026-01-19T0200,1624A,116.2992,37.4449,德州市,监理站,颗粒物(PM10),51,51,29,22,16,36,,,,29,21,12,10,0.9,0.7
2026-01-19T0200,3066A,116.2722,37.438,德州市,九衢泉纯净水厂,,41,41,30,24,20,32,,,,31,23,122,10,0.8,0.7
2026-01-19T0200,3371A,116.3693,37.44,德州市,开发区人民医院,,41,41,32,24,19,36,,,,41,27,13,11,0.7,0.5
2026-01-19T0200,3511A,116.5687,37.3331,德州市,陵城艺术中心,,46,46,33,27,19,32,,,,26,23,18,14,0.7,0.5
2026-01-19T0200,4292A,116.352738,37.420875,德州市,新河东路,,48,48,33,22,20,31,,,,30,19,12,11,1.0,0.8
2026-01-19T0200,2621A,99.7054,27.8319,迪庆藏族自治州,迪庆州站,,31,31,28,16,18,56,,,,10,10,4,4,0.5,0.5
2026-01-19T0200,3180A,99.7122,27.8129,迪庆藏族自治州,质量技术监督局,,27,27,28,17,18,54,,,,14,13,4,4,0.6,0.4
2026-01-19T0200,4257A,104.6092,35.5962,定西市,将台街,颗粒物(PM10),56,61,94,19,30,74,,,,4,9,8,10,0.2,0.3
2026-01-19T0200,4309A,104.6159,35.5701,定西市,正龙路62号,颗粒物(PM10),53,56,101,17,27,69,,,,2,5,3,6,0.3,0.5
2026-01-19T0200,1390A,113.7943,23.0132,东莞市,东城石井,颗粒物(PM10),56,62,70,31,39,46,,,,37,46,6,7,0.5,0.6
2026-01-19T0200,1391A,113.7384,22.9659,东莞市,南城西平,颗粒物(PM10),57,63,69,34,38,47,,,,51,59,6,7,0.7,0.7
2026-01-19T0200,3319A,113.7283,23.041,东莞市,万江金泰,颗粒物(PM10),67,83,84,44,50,30,,,,78,54,6,7,1.1,1
2026-01-19T0200,4129A,113.8666,23.1062,东莞市,裕兴路,细颗粒物(PM2.5),145,208,106,111,49,8,,,,82,56,5,10,1.1,0.8
2026-01-19T0200,4130A,114.0076,22.9739,东莞市,教育路1号,颗粒物(PM10),89,127,112,56,54,69,,,,50,70,5,7,0.7,0.8
2026-01-19T0200,4131A,113.7981,22.8124,东莞市,长怡路1号,颗粒物(PM10),62,73,64,37,30,37,,,,48,49,6,6,0.9,0.8
2026-01-19T0200,1666A,118.6612,37.4313,东营市,市环保局,,27,27,24,12,13,59,,,,17,20,8,7,0.5,0.5
2026-01-19T0200,3036A,118.6903,37.4337,东营市,开发区管委会,,33,33,28,17,14,62,,,,8,12,6,6,0.2,0.2
2026-01-19T0200,3365A,118.5721,37.5654,东营市,垦利区民丰路,,29,29,24,12,13,60,,,,6,11,8,5,0.4,0.3
2026-01-19T0200,3498A,118.5063,37.8606,东营市,河口城区,,36,36,28,17,11,58,,,,12,15,3,3,0.9,0.8
2026-01-19T0200,3646A,118.4979,37.4623,东营市,胜利站,,29,29,26,17,15,57,,,,12,17,12,10,0.5,0.4
2026-01-19T0200,3734A,118.5753,37.4405,东营市,理想之城,,32,31,29,22,18,47,,,,9,14,3,3,0.4,0.5
2026-01-19T0200,1591A,110.0024,39.8127,鄂尔多斯市,综合楼,,44,44,85,7,11,49,,,,18,17,9,7,0.5,0.4
2026-01-19T0200,1592A,109.9485,39.8259,鄂尔多斯市,巴音孟克林场办事处,,27,27,64,7,10,58,,,,10,14,10,8,0.7,0.4
2026-01-19T0200,1593A,109.7734,39.5987,鄂尔多斯市,康泽苑,,39,39,53,14,14,62,,,,8,9,5,6,0.4,0.4
2026-01-19T0200,1594A,109.8121,39.5987,鄂尔多斯市,华泰汽车城,颗粒物(PM10),52,53,57,14,14,55,,,,9,10,8,7,0.3,0.3
2026-01-19T0200,1595A,109.9734,39.7884,鄂尔多斯市,奥林花园,,34,34,74,9,9,54,,,,11,16,7,5,0.7,0.5
2026-01-19T0200,2436A,114.894,30.3989,鄂州市,市政府,,23,23,109,3,90,5,,,,27,31,4,5,0.4,0.7
2026-01-19T0200,2437A,114.8986,30.3714,鄂州市,赵家坝,,32,32,125,7,90,5,,,,16,22,7,8,0.6,0.9
2026-01-19T0200,3654A,114.8093,30.4091,鄂州市,精准医疗中心,,20,20,129,9,91,9,,,,21,29,7,11,1.0,1
2026-01-19T0200,2454A,109.4978,30.2979,恩施土家族苗族自治州,湖北民院,细颗粒物(PM2.5),246,,153,196,163,4,,,,30,30,6,6,2.1,1.7
2026-01-19T0200,3549A,109.5061,30.3771,恩施土家族苗族自治州,龙凤新区,细颗粒物(PM2.5),260,228,169,210,151,4,,,,26,25,8,7,1.7,1.3
2026-01-19T0200,2499A,108.3411,21.6159,防城港市,沙万,颗粒物(PM10),64,78,82,44,40,34,,,,44,37,14,10,1.0,1.1
2026-01-19T0200,2500A,108.3515,21.7733,防城港市,防城档案局,颗粒物(PM10),66,81,73,40,38,15,,,,28,20,5,8,0.6,0.8
2026-01-19T0200,2501A,108.3506,21.6414,防城港市,大海花园,细颗粒物(PM2.5),73,63,60,53,45,36,,,,28,26,13,14,0.7,0.9
2026-01-19T0200,1371A,113.1293,23.0065,佛山市,湾梁,颗粒物(PM10),53,56,76,25,31,74,,,,31,67,/,/,/,/
2026-01-19T0200,1372A,113.1082,23.0477,佛山市,华材职中,细颗粒物(PM2.5),58,61,107,41,70,61,,,,33,72,5,7,0.6,0.8
2026-01-19T0200,1373A,113.1439,23.045,佛山市,南海气象局,颗粒物(PM10),53,56,77,35,48,65,,,,35,68,/,/,/,/
2026-01-19T0200,1374A,113.2879,22.8094,佛山市,顺德苏岗,"颗粒物(PM10),细颗粒物(PM2.5)",55,59,59,39,36,30,,,,55,50,/,/,0.8,0.8
2026-01-19T0200,1376A,112.8384,22.8678,佛山市,高明孔堂,颗粒物(PM10),54,58,77,34,56,48,,,,37,48,/,/,/,/
2026-01-19T0200,1377A,112.8835,23.1584,佛山市,三水监测站,颗粒物(PM10),87,124,172,55,85,1,,,,146,112,2,8,0.9,1
2026-01-19T0200,1378A,112.8668,23.185,佛山市,三水云东海,细颗粒物(PM2.5),89,107,138,66,98,0,,,,140,76,/,/,/,/
2026-01-19T0200,3625A,113.2568,22.7629,佛山市,容桂街道办,"颗粒物(PM10),细颗粒物(PM2.5)",52,53,64,36,40,60,,,,41,53,/,/,/,/
2026-01-19T0200,1282A,119.2681,26.0506,福州市,师大,,38,36,36,26,20,63,,,,26,26,3,4,0.7,0.6
2026-01-19T0200,1283A,119.2983,26.1028,福州市,五四北路,,42,32,35,29,24,70,,,,19,23,5,5,0.8,0.7
2026-01-19T0200,1284A,119.2648,26.0769,福州市,杨桥西路,,40,38,34,28,23,51,,,,26,17,4,4,/,/
2026-01-19T0200,3048A,119.5799,26.0937,福州市,九龙,,22,17,23,15,13,60,,,,17,17,4,5,0.7,0.7
2026-01-19T0200,3526A,119.5188,25.9666,福州市,吴航,,21,21,23,12,14,59,,,,17,15,4,5,0.6,0.6
2026-01-19T0200,4104A,119.3106,26.0648,福州市,路通桥巷6号,,49,49,39,34,26,59,,,,22,19,/,/,/,/
2026-01-19T0200,1755A,123.7974,41.8494,抚顺市,望花区,颗粒物(PM10),51,52,53,34,37,29,,,,33,33,2,2,0.9,0.9
2026-01-19T0200,1756A,123.9161,41.8827,抚顺市,顺城区,细颗粒物(PM2.5),67,68,53,48,35,4,,,,55,40,8,9,1.3,1
2026-01-19T0200,1757A,124.0437,41.8615,抚顺市,东洲区,颗粒物(PM10),59,67,51,39,31,19,,,,30,23,12,19,0.9,0.8
2026-01-19T0200,1758A,123.9246,41.8638,抚顺市,新抚区,颗粒物(PM10),62,73,52,39,31,10,,,,49,33,6,9,0.9,0.8
2026-01-19T0200,1759A,124.0972,41.8961,抚顺市,大伙房水库,细颗粒物(PM2.5),67,52,41,48,25,35,,,,18,22,10,12,0.9,0.9
2026-01-19T0200,1760A,123.708,41.8386,抚顺市,沈抚新城,细颗粒物(PM2.5),75,65,49,55,41,7,,,,48,35,8,9,1.6,1.5
2026-01-19T0200,2377A,116.3544,27.9833,抚州市,市站,细颗粒物(PM2.5),124,114,132,94,104,66,,,,18,22,6,9,1.3,1.4
2026-01-19T0200,2378A,116.3562,27.9631,抚州市,血防站,细颗粒物(PM2.5),115,111,137,87,106,67,,,,19,24,6,8,1.9,1.9
2026-01-19T0200,2379A,116.3561,28.0007,抚州市,采茶剧团,细颗粒物(PM2.5),133,119,136,101,112,61,,,,14,18,5,6,1.6,1.6
2026-01-19T0200,2380A,116.3854,27.9648,抚州市,医学分院,细颗粒物(PM2.5),117,116,143,88,97,62,,,,12,15,6,11,1.2,1.2
2026-01-19T0200,2207A,121.6095,41.9978,阜新市,工业园区,,38,38,29,16,12,48,,,,13,10,12,9,0.5,0.5
2026-01-19T0200,2208A,121.6567,42.0188,阜新市,长青街,,20,11,14,6,8,61,,,,5,9,7,8,0.3,0.5
2026-01-19T0200,2209A,121.6672,42.07,阜新市,农业园区,,20,12,17,6,7,61,,,,6,9,5,7,0.2,0.4
2026-01-19T0200,2211A,121.6343,42.0455,阜新市,玉龙新城,,30,30,26,3,11,39,,,,21,16,4,5,0.4,0.5
2026-01-19T0200,2301A,115.8276,32.8929,阜阳市,市监测站,,25,24,60,17,28,13,,,,23,25,4,4,0.6,0.5
2026-01-19T0200,2303A,115.8551,32.8606,阜阳市,开发区,,32,,47,22,29,12,,,,24,24,4,4,0.6,0.5
2026-01-19T0200,2875A,115.783962,32.889217,阜阳市,阜阳职业技术学院,,20,,52,14,23,17,,,,15,16,5,6,0.6,0.6
2026-01-19T0200,3468A,115.79,32.8614,阜阳市,市规划展馆,,26,23,59,18,25,13,,,,20,20,4,4,0.8,0.7
2026-01-19T0200,3469A,115.835101,32.918568,阜阳市,枣园社区,,27,27,60,17,25,12,,,,20,22,2,3,0.9,0.7
2026-01-19T0200,2669A,102.9097,34.9841,甘南藏族自治州,州政府,颗粒物(PM10),65,80,90,35,39,52,,,,13,23,8,12,0.5,0.9
2026-01-19T0200,3380A,102.8915,34.9618,甘南藏族自治州,甘肃民族师范学院,颗粒物(PM10),77,104,102,29,31,55,,,,16,28,9,12,0.2,0.3
2026-01-19T0200,2570A,101.96,30.048,甘孜藏族自治州,水桥子,,27,27,21,13,9,39,,,,22,26,6,6,0.5,0.4
2026-01-19T0200,3065A,101.9534,29.9976,甘孜藏族自治州,州环保局,,28,28,20,3,7,70,,,,4,11,6,6,0.3,0.3
2026-01-19T0200,2363A,114.9368,25.8663,赣州市,地委,细颗粒物(PM2.5),75,77,71,55,51,24,,,,39,35,7,9,1.0,1.1
2026-01-19T0200,2364A,114.946,25.8483,赣州市,气象台,细颗粒物(PM2.5),69,77,85,50,49,40,,,,40,54,4,4,0.5,0.6
2026-01-19T0200,2365A,114.932,25.8332,赣州市,市图书馆,细颗粒物(PM2.5),63,72,85,45,54,36,,,,36,45,4,6,1.0,1.1
2026-01-19T0200,2366A,114.8905,25.8472,赣州市,华坚鞋城,细颗粒物(PM2.5),67,74,87,48,54,38,,,,38,46,7,11,0.5,0.6
2026-01-19T0200,3109A,115.0094,25.8614,赣州市,赣县区卫计委,细颗粒物(PM2.5),88,66,72,65,61,22,,,,33,37,7,7,0.8,0.8
2026-01-19T0200,2684A,106.2753,36.0057,固原市,监测站,,45,45,94,12,27,73,,,,7,11,4,5,0.4,0.4
2026-01-19T0200,2685A,106.2384,36.0189,固原市,新区,,38,38,87,3,19,69,,,,6,8,7,5,0.5,0.4
2026-01-19T0200,2544A,106.6307,30.4577,广安市,市委,细颗粒物(PM2.5),255,225,182,205,180,23,,,,26,30,10,10,1.3,1.3
2026-01-19T0200,2545A,106.6266,30.4662,广安市,友谊中学,细颗粒物(PM2.5),235,224,171,185,153,21,,,,22,27,7,7,1.7,1.6
2026-01-19T0200,2547A,106.6386,30.4551,广安市,广电花园,细颗粒物(PM2.5),272,,154,222,172,16,,,,23,25,9,9,1.1,1.1
2026-01-19T0200,2902A,106.6347,30.4868,广安市,北辰小学,细颗粒物(PM2.5),219,194,166,169,150,12,,,,28,24,8,9,1.5,1.4
2026-01-19T0200,2524A,105.8211,32.4444,广元市,老城,颗粒物(PM10),62,74,105,18,68,64,,,,12,35,1,9,0.5,1
2026-01-19T0200,2526A,105.8629,32.429,广元市,监测站,颗粒物(PM10),59,67,102,19,69,61,,,,10,31,6,10,0.5,1.1
2026-01-19T0200,3617A,105.8047,32.4167,广元市,经开区,颗粒物(PM10),57,63,102,17,77,59,,,,10,33,2,5,0.5,0.9
2026-01-19T0200,1345A,113.2346,23.1423,广州市,广雅中学,细颗粒物(PM2.5),83,110,94,61,56,5,,,,106,82,3,4,0.4,0.4
2026-01-19T0200,1346A,113.2611,23.105,广州市,市五中,细颗粒物(PM2.5),78,92,75,57,49,6,,,,115,75,8,8,/,/
2026-01-19T0200,1348A,113.3477,23.0916,广州市,广东商学院,细颗粒物(PM2.5),74,87,95,54,59,1,,,,112,92,6,8,0.7,0.8
2026-01-19T0200,1349A,113.4332,23.105,广州市,市八十六中,颗粒物(PM10),66,82,125,39,55,10,,,,111,100,8,10,/,/
2026-01-19T0200,1350A,113.3506,22.9488,广州市,番禺中学,"颗粒物(PM10),细颗粒物(PM2.5)",60,69,74,43,43,37,,,,59,61,3,5,0.9,0.9
2026-01-19T0200,1351A,113.2147,23.3918,广州市,花都师范,细颗粒物(PM2.5),109,146,116,82,68,5,,,,168,116,6,7,1.2,0.9
2026-01-19T0200,1352A,113.2599,23.1329,广州市,市监测站,细颗粒物(PM2.5),89,119,93,66,54,2,,,,134,87,1,3,/,/
2026-01-19T0200,1353A,113.5618,23.3119,广州市,九龙镇镇龙,细颗粒物(PM2.5),90,122,103,67,60,3,,,,77,63,4,5,0.7,0.6
2026-01-19T0200,1354A,113.2764,23.1544,广州市,麓湖,,,110,83,67,52,2,,,,131,92,10,10,,0.6
2026-01-19T0200,2846A,113.3209,23.1323,广州市,体育西,细颗粒物(PM2.5),85,109,99,63,58,0,,,,140,92,6,7,1.1,1
2026-01-19T0200,3298A,113.5718,23.5493,广州市,从化街口,细颗粒物(PM2.5),110,127,98,83,64,1,,,,84,54,8,9,1.1,1
2026-01-19T0200,3299A,113.3463,23.369,广州市,白云竹料,细颗粒物(PM2.5),102,141,105,76,66,14,,,,114,77,3,4,1.0,1
2026-01-19T0200,3300A,113.2981,23.2365,广州市,白云嘉禾,颗粒物(PM10),58,66,90,37,53,24,,,,88,86,6,7,/,/
2026-01-19T0200,3301A,113.4256,23.1716,广州市,黄埔科学城,细颗粒物(PM2.5),75,96,98,55,59,0,,,,94,72,4,6,0.9,0.9
2026-01-19T0200,3302A,113.3942,23.0485,广州市,番禺大学城,颗粒物(PM10),75,99,95,48,46,21,,,,84,81,10,11,0.6,0.7
2026-01-19T0200,3303A,113.4923,22.8169,广州市,南沙黄阁,颗粒物(PM10),51,51,71,35,36,48,,,,62,57,5,7,/,/
2026-01-19T0200,3304A,113.534,22.7893,广州市,南沙街,颗粒物(PM10),54,57,64,37,35,71,,,,29,43,3,4,0.6,0.6
2026-01-19T0200,3443A,113.2905,23.5541,广州市,花都梯面,颗粒物(PM10),66,81,84,45,47,4,,,,79,62,4,5,/,/
2026-01-19T0200,3445A,113.786,23.7479,广州市,从化良口,细颗粒物(PM2.5),62,59,61,44,46,62,,,,33,27,7,8,/,/
2026-01-19T0200,3446A,113.805,23.2614,广州市,增城荔城,细颗粒物(PM2.5),82,82,74,60,51,48,,,,38,29,5,7,0.7,0.6
2026-01-19T0200,2506A,109.604387,23.066791,贵港市,江南子站,细颗粒物(PM2.5),127,151,145,96,87,42,,,,44,37,10,11,1.1,1.2
2026-01-19T0200,2508A,109.5669,23.1065,贵港市,荷城子站,细颗粒物(PM2.5),122,117,124,92,94,47,,,,39,40,10,11,1.2,1.3
2026-01-19T0200,3405A,109.5886,23.1172,贵港市,新世纪学校,细颗粒物(PM2.5),132,134,130,100,98,47,,,,37,32,/,/,0.7,0.8
2026-01-19T0200,4260A,109.5933,23.095,贵港市,中山路155-3号,细颗粒物(PM2.5),127,138,132,96,90,60,,,,34,38,/,/,0.9,1
2026-01-19T0200,1439A,106.6863,26.6035,贵阳市,马鞍山,,42,29,46,29,39,79,,,,9,12,6,7,/,/
2026-01-19T0200,1441A,106.6241,26.6266,贵阳市,鉴湖路,,44,44,55,27,38,79,,,,10,13,7,7,0.5,0.5
2026-01-19T0200,1442A,106.7468,26.6344,贵阳市,燕子冲,,45,31,49,31,44,66,,,,16,15,6,8,0.4,0.5
2026-01-19T0200,1443A,106.6556,26.4362,贵阳市,碧云窝,,44,44,55,27,35,104,,,,10,11,6,6,/,/
2026-01-19T0200,1445A,106.6963,26.6063,贵阳市,红边门,,44,44,55,29,42,59,,,,22,18,11,9,/,/
2026-01-19T0200,1446A,106.7162383,26.56964667,贵阳市,新华路,颗粒物(PM10),51,51,61,34,37,45,,,,38,22,15,12,0.6,0.5
2026-01-19T0200,1447A,106.6742,26.542,贵阳市,太慈桥,,29,29,50,19,36,70,,,,12,15,4,4,/,/
2026-01-19T0200,4230A,106.688212,26.56952,贵阳市,花果园大街66号,,46,,42,32,44,74,,,,14,17,3,5,/,/
2026-01-19T0200,4231A,106.687268,26.516892,贵阳市,漓江路57号,,35,34,51,24,37,75,,,,14,15,10,12,0.4,0.4
2026-01-19T0200,1864A,110.3091,25.2705,桂林市,龙隐路小学,细颗粒物(PM2.5),107,108,101,80,80,16,,,,41,31,14,8,0.8,0.8
2026-01-19T0200,1865A,110.2849361,25.22909545,桂林市,八中,细颗粒物(PM2.5),99,92,97,74,77,20,,,,35,31,8,9,1.1,0.9
2026-01-19T0200,3531A,110.296,25.1254,桂林市,旅游学院,细颗粒物(PM2.5),83,61,74,61,58,18,,,,25,22,5,7,0.4,0.4
2026-01-19T0200,4222A,110.1835,25.2444,桂林市,环湖路276号,细颗粒物(PM2.5),113,102,92,85,77,1,,,,55,33,27,14,1.0,0.8
2026-01-19T0200,4301A,110.2803,25.2773,桂林市,信义路13号,细颗粒物(PM2.5),117,120,100,88,73,3,,,,48,28,9,7,1.6,1.5
2026-01-19T0200,2674A,100.2262,34.4854,果洛藏族自治州,玛沁县大武镇,颗粒物(PM10),85,119,111,22,26,48,,,,7,5,17,15,0.4,0.4
2026-01-19T0200,1130A,126.5557,45.8109,哈尔滨市,松北商大,,48,36,65,33,48,43,,,,20,38,7,8,0.6,0.7
2026-01-19T0200,1132A,126.6162,45.719,哈尔滨市,南岗学府路,颗粒物(PM10),55,59,72,34,52,24,,,,40,34,9,10,0.6,0.7
2026-01-19T0200,1133A,126.6894,45.7733,哈尔滨市,太平宏伟公园,,36,30,66,25,47,39,,,,27,28,22,14,0.7,0.9
2026-01-19T0200,1134A,126.6361,45.7672,哈尔滨市,道外承德广场,,46,46,81,30,44,31,,,,38,37,12,13,0.6,0.8
2026-01-19T0200,1136A,126.644,45.7261,哈尔滨市,动力和平路,,47,47,71,28,42,28,,,,34,35,13,15,0.7,0.9
2026-01-19T0200,1137A,126.5933,45.7479,哈尔滨市,道里建国路,细颗粒物(PM2.5),57,51,66,40,55,26,,,,38,39,13,16,0.7,0.8
2026-01-19T0200,1138A,126.6127,45.6119,哈尔滨市,平房东轻厂,细颗粒物(PM2.5),74,74,82,54,65,11,,,,55,43,18,12,1.2,1.2
2026-01-19T0200,1139A,126.5875,45.9827,哈尔滨市,呼兰师专,细颗粒物(PM2.5),72,,97,52,89,31,,,,24,43,11,14,0.9,1.1
2026-01-19T0200,1140A,126.6299,45.6799,哈尔滨市,省农科院,细颗粒物(PM2.5),72,55,85,52,68,11,,,,61,50,15,14,0.9,0.9
2026-01-19T0200,4282A,126.6769,45.7379,哈尔滨市,华山路1号,,49,48,68,34,48,22,,,,42,35,12,17,0.8,0.8
2026-01-19T0200,4283A,126.9717,45.5356,哈尔滨市,解放大街52号,细颗粒物(PM2.5),140,111,85,107,78,30,,,,33,30,13,14,1.2,0.9
2026-01-19T0200,2688A,93.5124,42.8176,哈密市,地区监测站,颗粒物(PM10),113,175,138,30,23,34,,,,25,12,3,3,0.4,0.1
2026-01-19T0200,2689A,93.5014,42.8312,哈密市,哈密师范学校,颗粒物(PM10),99,148,120,26,20,38,,,,22,14,3,3,0.3,0.2
2026-01-19T0200,2671A,100.9016,36.9464,海北藏族自治州,海晏县西海镇,颗粒物(PM10),78,105,79,34,27,63,,,,10,11,22,16,0.7,0.6
2026-01-19T0200,3867A,102.074,36.5056,海东市,平安区公安局北苑,颗粒物(PM10),61,71,108,26,30,58,,,,8,11,16,28,0.5,0.7
2026-01-19T0200,4163A,102.0984,36.5119,海东市,滨河路,颗粒物(PM10),54,58,117,26,36,67,,,,15,22,11,31,0.6,0.7
2026-01-19T0200,1410A,110.3189,20.0596,海口市,海南大学,,40,40,38,19,23,100,,,,5,9,5,6,0.3,0.3
2026-01-19T0200,1411A,110.2827,20.0051,海口市,秀英海南医院,,37,37,41,15,22,95,,,,6,13,7,8,0.3,0.4
2026-01-19T0200,1412A,110.3391,19.9979,海口市,海南师范大学,,36,36,40,18,23,96,,,,9,14,6,6,0.6,0.7
2026-01-19T0200,1413A,110.3303,20.0359,海口市,龙华路环保局宿舍,,47,47,43,18,24,98,,,,6,10,/,/,0.8,0.8
2026-01-19T0200,3539A,110.5111,19.9737,海口市,桂林洋子站,,34,34,39,18,25,77,,,,7,13,/,/,/,/
2026-01-19T0200,4134A,110.1952,20.0451,海口市,长滨二路9号,,32,32,35,18,27,90,,,,6,13,/,/,/,/
2026-01-19T0200,2673A,100.6158,36.2985,海南藏族自治州,共和县恰卜恰镇,颗粒物(PM10),96,142,64,30,25,72,,,,9,23,12,13,0.7,0.7
2026-01-19T0200,2676A,97.373,37.376,海西蒙古族藏族自治州,德令哈市,,46,46,49,24,12,84,,,,7,11,10,11,0.6,0.8
2026-01-19T0200,1049A,114.492,36.5712,邯郸市,矿院,细颗粒物(PM2.5),89,,56,66,51,24,,,,23,24,1,2,0.5,0.5
2026-01-19T0200,1050A,114.4839,36.6136,邯郸市,丛台公园,细颗粒物(PM2.5),85,69,57,63,47,28,,,,25,25,1,3,0.5,0.5
2026-01-19T0200,3458A,114.7893,36.5592,邯郸市,香泉濮院小区,细颗粒物(PM2.5),60,54,60,43,45,33,,,,18,21,3,2,0.5,0.5
2026-01-19T0200,3580A,114.1998,36.4439,邯郸市,峰峰矿区临水派出所,细颗粒物(PM2.5),92,,45,68,52,28,,,,20,16,2,3,0.9,0.6
2026-01-19T0200,4068A,114.5209,36.7697,邯郸市,建安街268号,细颗粒物(PM2.5),62,53,55,44,42,22,,,,19,17,3,1,0.6,0.5
2026-01-19T0200,4069A,114.5488,36.6177,邯郸市,丛台东路558号,细颗粒物(PM2.5),65,48,49,47,47,28,,,,15,18,3,3,0.6,0.5
2026-01-19T0200,2635A,107.0155,33.0707,汉中市,市监测站,颗粒物(PM10),66,81,143,34,113,45,,,,16,41,4,6,0.5,1.5
2026-01-19T0200,2636A,107.0083,33.114,汉中市,鑫源开发区,颗粒物(PM10),56,61,124,25,94,44,,,,14,40,4,7,0.4,1.1
2026-01-19T0200,2637A,107.0072,33.0323,汉中市,南郑大河坎水厂,颗粒物(PM10),66,82,180,43,134,48,,,,14,40,5,6,0.6,1.6
2026-01-19T0200,1223A,120.2073,30.2111,杭州市,滨江,颗粒物(PM10),65,79,104,41,49,2,,,,66,40,6,6,0.4,0.5
2026-01-19T0200,1224A,120.0625,30.2737,杭州市,西溪,颗粒物(PM10),90,129,112,65,45,0,,,,55,33,8,8,1.1,1
2026-01-19T0200,1226A,120.3417,30.315,杭州市,下沙,颗粒物(PM10),74,98,103,47,46,5,,,,60,40,7,7,0.8,0.7
2026-01-19T0200,1227A,120.1252,30.2465,杭州市,卧龙桥,颗粒物(PM10),68,86,103,48,53,5,,,,66,43,9,8,0.3,0.4
2026-01-19T0200,1228A,120.1902,30.2691,杭州市,浙江农大,颗粒物(PM10),58,65,84,39,43,1,,,,72,49,5,5,0.6,0.6
2026-01-19T0200,1230A,120.1195,30.3121,杭州市,和睦小学,颗粒物(PM10),74,98,119,42,48,4,,,,57,40,5,4,0.8,0.7
2026-01-19T0200,1231A,120.3076,30.4146,杭州市,临平镇,颗粒物(PM10),63,76,84,43,44,5,,,,53,31,7,7,0.6,0.6
2026-01-19T0200,1232A,120.2753,30.1839,杭州市,城厢镇,颗粒物(PM10),72,93,105,45,51,13,,,,53,42,8,8,0.6,0.6
2026-01-19T0200,1233A,120.0883,30.1808,杭州市,云栖,"颗粒物(PM10),细颗粒物(PM2.5)",72,94,116,52,61,14,,,,51,37,5,4,0.7,0.7
2026-01-19T0200,3557A,119.9463,30.0496,杭州市,镇二中,细颗粒物(PM2.5),89,97,104,66,60,15,,,,52,42,5,5,0.8,0.8
2026-01-19T0200,3558A,119.7184,30.2367,杭州市,市府大楼,颗粒物(PM10),103,156,153,76,74,8,,,,33,33,10,10,1.2,1
2026-01-19T0200,3656A,120.1554,30.2863,杭州市,消防大队,颗粒物(PM10),73,96,111,51,62,1,,,,65,45,6,6,0.8,0.7
2026-01-19T0200,1270A,117.1957,31.7845,合肥市,明珠广场,,20,14,116,14,70,0,,,,31,36,5,6,1.0,1
2026-01-19T0200,1271A,117.307,31.8765,合肥市,三里街,,28,,110,19,62,9,,,,29,33,4,5,0.7,0.8
2026-01-19T0200,1272A,117.2587,31.8703,合肥市,琥珀山庄,,19,14,106,13,61,2,,,,33,30,7,7,0.8,0.7
2026-01-19T0200,1275A,117.2593,31.9376,合肥市,庐阳区,,32,24,109,22,56,5,,,,39,36,3,5,0.9,0.8
2026-01-19T0200,1276A,117.345251,31.861615,合肥市,瑶海区,,29,24,110,20,61,42,,,,19,35,4,5,0.5,0.8
2026-01-19T0200,1277A,117.3033,31.7967,合肥市,包河区,,20,,117,14,70,3,,,,34,47,6,8,1.0,1
2026-01-19T0200,1278A,117.278,31.7392,合肥市,滨湖新区,,25,,125,17,81,0,,,,34,41,3,4,0.8,0.8
2026-01-19T0200,1279A,117.1324,31.8395,合肥市,高新区,,19,19,106,11,64,2,,,,34,34,5,4,0.9,0.8
2026-01-19T0200,3464A,117.3802,31.9148,合肥市,高教基地,,49,39,103,34,62,42,,,,10,24,7,8,0.4,0.7
2026-01-19T0200,4098A,117.2518,31.8404,合肥市,中国科学技术大学,,18,6,110,3,60,0,,,,35,35,7,7,0.9,0.9
2026-01-19T0200,3614A,79.9241,37.0878,和田地区,地区环保局,颗粒物(PM10),500,884,598,128,86,35,,,,28,14,9,3,0.8,0.4
2026-01-19T0200,3615A,79.9132,37.1137,和田地区,市环保局,颗粒物(PM10),500,906,611,116,79,44,,,,25,11,5,2,2.4,1.1
2026-01-19T0200,2517A,108.0496,24.6957,河池市,市环保站,细颗粒物(PM2.5),70,78,72,51,53,54,,,,18,21,4,5,0.8,0.8
2026-01-19T0200,4302A,108.0901,24.6945,河池市,上任中路54号,细颗粒物(PM2.5),84,66,75,62,58,79,,,,15,22,6,6,0.9,0.9
2026-01-19T0200,1697A,114.6962,23.7538,河源市,东埔,细颗粒物(PM2.5),73,65,66,53,48,31,,,,51,48,5,6,1.2,1.2
2026-01-19T0200,1698A,114.6895,23.7232,河源市,老城,,45,45,53,29,33,37,,,,47,26,6,6,0.6,0.7
2026-01-19T0200,3374A,115.5562,35.089,菏泽市,定陶老年大学,,39,29,39,27,36,48,,,,10,19,2,1,0.1,0.3
2026-01-19T0200,4114A,115.4239,35.2593,菏泽市,黄河路600号,,28,28,51,15,40,54,,,,13,22,2,2,0.4,0.5
2026-01-19T0200,4115A,115.5025,35.2727,菏泽市,菏泽市人社局,,26,24,48,18,39,50,,,,11,14,2,2,0.2,0.3
2026-01-19T0200,4184A,115.479691,35.244011,菏泽市,永昌路1号,,45,31,46,31,46,54,,,,8,17,3,2,0.1,0.2
2026-01-19T0200,4193A,115.471542,35.280012,菏泽市,长城路999号,,30,30,47,19,38,51,,,,9,19,9,9,0.5,0.6
2026-01-19T0200,2514A,111.5264,24.4178,贺州市,环保小区,细颗粒物(PM2.5),92,83,81,68,57,54,,,,34,30,14,9,0.6,0.7
2026-01-19T0200,2515A,111.561,24.4074,贺州市,政协大楼,细颗粒物(PM2.5),89,81,76,66,53,88,,,,19,31,33,17,0.6,0.7
2026-01-19T0200,3534A,111.4744,24.455,贺州市,西湾,细颗粒物(PM2.5),84,87,85,62,59,7,,,,81,37,8,9,1.1,1.2
2026-01-19T0200,2385A,114.17,35.9019,鹤壁市,市监测站,细颗粒物(PM2.5),79,65,65,58,51,23,,,,19,19,1,3,0.7,0.6
2026-01-19T0200,2386A,114.2953,35.7512,鹤壁市,市交警支队,细颗粒物(PM2.5),74,71,68,54,50,22,,,,19,22,2,2,0.6,0.6
2026-01-19T0200,2387A,114.2877,35.7302,鹤壁市,迎宾馆,细颗粒物(PM2.5),69,67,65,50,50,25,,,,24,27,1,3,0.7,0.8
2026-01-19T0200,3474A,114.2616,35.6824,鹤壁市,大新区,细颗粒物(PM2.5),75,,63,55,45,26,,,,24,24,4,4,0.9,0.9
2026-01-19T0200,3596A,114.1573,35.9607,鹤壁市,南山宾馆,细颗粒物(PM2.5),79,67,66,58,50,30,,,,16,16,2,2,0.6,0.6
2026-01-19T0200,2244A,130.2537,47.3416,鹤岗市,哈啤分公司,,35,28,37,24,34,59,,,,10,17,4,7,0.5,0.5
2026-01-19T0200,2245A,130.2683,47.3087,鹤岗市,斯达机电,,46,45,43,32,31,43,,,,26,17,8,6,0.7,0.6
2026-01-19T0200,2246A,130.3114,47.3388,鹤岗市,东山纸板厂,细颗粒物(PM2.5),85,,61,63,48,15,,,,48,31,10,12,2.1,1.3
2026-01-19T0200,2263A,127.4832,50.2524,黑河市,交通局,细颗粒物(PM2.5),52,43,45,36,31,35,,,,24,27,11,13,0.4,0.4
2026-01-19T0200,2264A,127.5146,50.2339,黑河市,环保局,细颗粒物(PM2.5),62,59,40,44,32,33,,,,26,28,13,13,0.7,0.6
2026-01-19T0200,1074A,115.6839,37.754,衡水市,电机北厂,细颗粒物(PM2.5),64,67,55,46,34,4,,,,39,24,4,6,0.7,0.5
2026-01-19T0200,1075A,115.6303,37.7318,衡水市,市监测站,细颗粒物(PM2.5),62,63,52,44,35,5,,,,46,28,7,5,0.8,0.5
2026-01-19T0200,3188A,115.6684,37.7216,衡水市,市城管局,细颗粒物(PM2.5),59,60,54,42,39,12,,,,39,23,8,6,0.7,0.5
2026-01-19T0200,3459A,115.599,37.5491,衡水市,地表水厂,,46,46,42,31,29,29,,,,23,16,6,3,0.6,0.5
2026-01-19T0200,2457A,112.6209,26.9268,衡阳市,衡阳化工总厂,,,49,110,46,95,9,,,,19,23,,8,1.2,1.2
2026-01-19T0200,2458A,112.621,26.8957,衡阳市,珠晖区环保局,细颗粒物(PM2.5),83,66,118,61,100,9,,,,22,27,3,5,1.3,1.4
2026-01-19T0200,2459A,112.628,26.8654,衡阳市,市委党校,颗粒物(PM10),59,68,121,36,80,8,,,,22,25,5,7,1.3,1.4
2026-01-19T0200,2460A,112.6007,26.8977,衡阳市,市监测站,细颗粒物(PM2.5),77,78,113,56,81,9,,,,16,23,4,7,1.3,1.4
2026-01-19T0200,2461A,112.5658,26.9013,衡阳市,真空机电公司,颗粒物(PM10),64,77,115,38,90,11,,,,21,28,6,9,1.3,1.5
2026-01-19T0200,3399A,112.6703,26.8817,衡阳市,师范学院,细颗粒物(PM2.5),79,63,126,58,90,7,,,,25,27,1,4,1.3,1.3
2026-01-19T0200,3038A,103.3757,23.3679,红河哈尼族彝族自治州,州图书馆,,34,34,32,17,22,52,,,,13,9,9,8,0.5,0.5
2026-01-19T0200,4154A,103.401,23.3561,红河哈尼族彝族自治州,蒙自市朝阳路,,26,26,24,18,22,45,,,,16,8,16,8,0.5,0.5
2026-01-19T0200,1090A,111.6506,40.7517,呼和浩特市,呼市一监,,21,19,24,7,7,65,,,,4,5,7,5,0.3,0.3
2026-01-19T0200,1094A,111.7516,40.8369,呼和浩特市,如意水处理厂,,20,12,19,6,7,64,,,,2,5,10,8,0.2,0.2
2026-01-19T0200,1095A,111.727798,40.806187,呼和浩特市,二十九中,,21,,23,7,7,65,,,,1,4,10,11,0.4,0.4
2026-01-19T0200,1097A,111.717,40.7617,呼和浩特市,化肥厂生活区,,20,14,22,3,7,64,,,,4,7,5,5,0.3,0.3
2026-01-19T0200,3699A,111.6519,40.8389,呼和浩特市,海东办,,21,7,13,7,6,66,,,,4,5,5,4,0.3,0.3
2026-01-19T0200,4275A,111.591512,40.827312,呼和浩特市,成吉思汗西街8号,,18,17,28,7,6,55,,,,3,5,7,5,0.3,0.3
2026-01-19T0200,4276A,111.6597,40.8077,呼和浩特市,公园东路75号,,19,9,18,6,7,59,,,,6,8,6,5,0.4,0.3
2026-01-19T0200,4277A,111.5427,40.7846,呼和浩特市,金海路35号,,19,12,25,3,6,59,,,,5,7,8,8,0.5,0.5
2026-01-19T0200,3061A,119.7511,49.1576,呼伦贝尔市,国华电力东,,33,25,24,23,18,41,,,,22,14,7,6,0.3,0.3
2026-01-19T0200,4279A,119.7569,49.2222,呼伦贝尔市,伊敏大街东7号,,33,26,23,23,22,50,,,,6,7,8,7,0.2,0.3
2026-01-19T0200,1250A,120.075,30.867,湖州市,城西水厂,颗粒物(PM10),51,52,73,35,45,51,,,,23,32,5,6,0.5,0.5
2026-01-19T0200,2873A,120.083,30.8929,湖州市,仁皇山新区,颗粒物(PM10),56,61,77,27,38,55,,,,26,38,5,6,0.7,0.7
2026-01-19T0200,2907A,120.1846,30.8592,湖州市,吴兴区站,颗粒物(PM10),61,72,73,31,33,36,,,,34,41,5,6,0.4,0.4
2026-01-19T0200,3562A,120.4146,30.8538,湖州市,南浔区站,颗粒物(PM10),55,60,64,29,34,49,,,,23,35,6,7,0.7,0.8
2026-01-19T0200,1607A,120.904878,40.721091,葫芦岛市,龙港区,,26,26,37,12,22,47,,,,16,21,18,18,0.5,0.7
2026-01-19T0200,1608A,120.8382,40.7521,葫芦岛市,化工街,,19,19,34,9,17,50,,,,10,14,18,16,0.6,0.5
2026-01-19T0200,1609A,120.8339,40.7078,葫芦岛市,新区,,20,19,29,14,19,53,,,,10,16,15,15,0.7,0.6
2026-01-19T0200,1610A,120.8697,40.7679,葫芦岛市,东城区,,22,22,32,14,21,48,,,,14,20,16,20,0.8,0.7
2026-01-19T0200,2483A,109.9297,27.5383,怀化市,河西地税局,细颗粒物(PM2.5),206,180,141,156,108,20,,,,22,23,3,4,/,/
2026-01-19T0200,2484A,109.9783,27.5342,怀化市,市四医院,细颗粒物(PM2.5),176,175,164,133,105,16,,,,27,28,4,10,1.0,1
2026-01-19T0200,2485A,109.9971,27.5579,怀化市,监测楼,细颗粒物(PM2.5),172,175,145,130,110,24,,,,21,22,2,6,0.5,0.4
2026-01-19T0200,1210A,119.0566,33.5991,淮安市,钵池山,,28,,36,19,22,36,,,,14,12,6,6,0.4,0.2
2026-01-19T0200,1211A,119.0083,33.578,淮安市,北京南路,,23,,40,16,20,34,,,,11,10,6,6,0.6,0.5
2026-01-19T0200,1212A,118.9938,33.6083,淮安市,市监测站,,13,,30,9,19,37,,,,14,13,7,8,0.4,0.5
2026-01-19T0200,1213A,119.135,33.5038,淮安市,楚州区监测站,,16,,33,6,19,49,,,,6,9,7,8,0.6,0.5
2026-01-19T0200,3426A,118.8757,33.2897,淮安市,新华书店,,16,9,44,7,22,50,,,,11,14,7,7,0.4,0.3
2026-01-19T0200,4092A,119.119691,33.550006,淮安市,枚皋中路89号,,16,8,39,8,18,51,,,,10,10,8,9,0.3,0.2
2026-01-19T0200,4206A,119.028838,33.631911,淮安市,承德北路606号,,25,,41,17,21,39,,,,12,12,6,6,0.5,0.4
2026-01-19T0200,2282A,116.8005,33.9749,淮北市,监测站,,39,39,58,22,30,34,,,,17,24,4,4,0.5,0.6
2026-01-19T0200,2283A,116.8094,33.9008,淮北市,烈山区政府,,29,,46,20,28,30,,,,16,19,3,4,0.4,0.4
2026-01-19T0200,4017A,116.7926,33.9534,淮北市,市博物馆,,32,25,54,22,29,36,,,,22,27,2,3,0.7,0.8
2026-01-19T0200,4100A,116.8322,33.9884,淮北市,杜集区第一实验学校,,30,27,63,21,28,32,,,,14,22,11,8,0.9,0.9
2026-01-19T0200,2277A,116.8304,32.7726,淮南市,潘集区政府,,25,,70,17,43,17,,,,20,23,4,5,0.8,0.7
2026-01-19T0200,2279A,116.8569,32.5949,淮南市,谢家集区政府,,27,27,69,18,37,8,,,,29,29,6,7,0.7,0.6
2026-01-19T0200,2280A,116.8279,32.6333,淮南市,八公山区政府,,18,16,72,12,35,10,,,,25,23,8,7,0.6,0.6
2026-01-19T0200,2894A,117.0561,32.6536,淮南市,经济技术开发区消防队,,35,27,79,24,43,11,,,,26,27,3,4,0.7,0.6
2026-01-19T0200,3329A,117.011,32.5891,淮南市,山南新区,,15,15,97,9,40,10,,,,26,25,1,2,0.7,0.6
2026-01-19T0200,4209A,117.003137,32.644456,淮南市,国庆中路369号,,18,,77,12,43,2,,,,26,26,7,9,0.8,0.6
2026-01-19T0200,2446A,114.9021,30.474,黄冈市,职工中心,,12,12,106,8,75,10,,,,16,24,6,6,0.9,1.1
2026-01-19T0200,2929A,114.8858,30.4519,黄冈市,红卫路,,18,18,101,12,79,7,,,,17,23,7,8,0.4,0.6
2026-01-19T0200,3398A,114.9134,30.4446,黄冈市,市林业局,,16,13,105,11,85,20,,,,24,30,4,4,0.9,1
2026-01-19T0200,2672A,102.02,35.5101,黄南藏族自治州,同仁县隆务镇,,,,86,,31,52,,,,,7,,13,,0.6
2026-01-19T0200,2295A,118.2905,29.6965,黄山市,延安路89号,细颗粒物(PM2.5),85,96,67,63,55,73,,,,16,19,4,4,0.8,0.8
2026-01-19T0200,2297A,118.1369,30.2755,黄山市,黄山区政府5号楼,细颗粒物(PM2.5),90,103,103,67,72,45,,,,18,18,2,3,0.7,0.9
2026-01-19T0200,4210A,118.335445,29.720283,黄山市,滨江东路7-2号,细颗粒物(PM2.5),117,112,82,88,64,71,,,,14,19,/,/,/,/
2026-01-19T0200,2423A,115.0547,30.2332,黄石市,沈家营,,42,42,134,12,79,0,,,,26,33,6,6,1.4,1.5
2026-01-19T0200,2426A,114.899,30.211,黄石市,铁山,,18,17,98,12,98,6,,,,20,28,5,7,0.7,0.7
2026-01-19T0200,2427A,115.0259,30.2108,黄石市,团城山,,42,42,130,10,93,1,,,,28,34,7,7,0.9,1.2
2026-01-19T0200,3149A,115.0174,30.1591,黄石市,笔架山北路,,43,43,152,10,95,2,,,,23,26,6,10,1.2,1.4
2026-01-19T0200,4185A,115.078022,30.21118,黄石市,磁湖东路29号,,42,42,125,18,103,0,,,,28,36,8,10,1.3,1.5
2026-01-19T0200,1392A,114.4181,23.0528,惠州市,河南岸金山湖子站,颗粒物(PM10),68,85,77,44,44,60,,,,27,32,4,6,0.7,0.7
2026-01-19T0200,1393A,114.4055,23.0824,惠州市,下埔横江三路子站,颗粒物(PM10),68,85,84,46,48,93,,,,24,42,10,8,0.8,0.9
2026-01-19T0200,1395A,114.4645,22.7832,惠州市,惠阳区承修路船湖子站,颗粒物(PM10),53,56,56,33,32,109,,,,18,24,6,8,0.5,0.5
2026-01-19T0200,1396A,114.5316,22.7423,惠州市,大亚湾管委会子站,颗粒物(PM10),58,66,62,37,30,37,,,,59,24,6,7,0.7,0.6
2026-01-19T0200,3314A,114.4334,22.8134,惠州市,惠阳秋长,细颗粒物(PM2.5),65,78,60,47,34,62,,,,47,31,/,/,/,/
2026-01-19T0200,3452A,114.6521,22.7755,惠州市,大亚湾霞涌,,45,45,49,23,26,57,,,,36,21,/,/,/,/
2026-01-19T0200,4300A,114.4089,23.1147,惠州市,文华一路1号,细颗粒物(PM2.5),73,92,83,53,48,82,,,,30,43,/,/,/,/
2026-01-19T0200,2240A,130.9618,45.2926,鸡西市,环保局,细颗粒物(PM2.5),63,59,48,45,35,41,,,,14,20,8,10,0.3,0.4
2026-01-19T0200,2243A,130.9294,45.2959,鸡西市,第一中学,细颗粒物(PM2.5),62,46,36,44,28,36,,,,19,17,5,5,0.7,0.6
2026-01-19T0200,3707A,131.0069,45.2988,鸡西市,欧美日汽修厂,细颗粒物(PM2.5),74,65,76,54,63,22,,,,37,36,14,22,0.9,0.9
2026-01-19T0200,2367A,114.9753,27.0803,吉安市,红声器材厂,细颗粒物(PM2.5),130,135,103,99,74,91,,,,19,17,13,12,1.3,1.1
2026-01-19T0200,2369A,114.9903,27.1313,吉安市,市环境监测站,细颗粒物(PM2.5),137,131,107,104,81,95,,,,27,31,16,15,/,/
2026-01-19T0200,2370A,115.009527,27.096792,吉安市,青原区法院,细颗粒物(PM2.5),143,131,109,109,82,83,,,,18,25,17,13,1.1,1
2026-01-19T0200,1772A,126.54,43.8622,吉林市,哈达湾,,50,50,46,34,35,42,,,,28,26,6,8,0.9,0.9
2026-01-19T0200,1773A,126.5843,43.8358,吉林市,东局子,细颗粒物(PM2.5),59,52,42,42,36,36,,,,24,24,3,7,1.2,1.1
2026-01-19T0200,1774A,126.5051,43.8243,吉林市,电力学院,细颗粒物(PM2.5),67,52,68,48,55,34,,,,33,34,10,13,0.9,1.1
2026-01-19T0200,1775A,126.6133,43.8971,吉林市,江北,细颗粒物(PM2.5),62,55,60,44,49,32,,,,25,26,7,9,1.2,1.2
2026-01-19T0200,1776A,126.5549,43.8304,吉林市,江南公园,细颗粒物(PM2.5),60,49,45,43,40,41,,,,24,24,7,12,0.8,0.8
2026-01-19T0200,2868A,126.4737,43.953,吉林市,九站,,50,36,64,35,54,26,,,,40,44,7,11,0.7,1
2026-01-19T0200,1299A,116.9866,36.6118,济南市,科干所,,34,34,47,22,33,54,,,,11,30,4,4,0.4,0.6
2026-01-19T0200,1300A,116.9379,36.6652,济南市,农科所,,29,29,42,15,29,50,,,,14,31,3,5,0.5,0.7
2026-01-19T0200,1301A,117.1265,36.6736,济南市,开发区,,35,29,45,24,39,49,,,,23,36,3,3,0.5,0.7
2026-01-19T0200,1303A,117.0616,36.6865,济南市,省种子仓库,,36,36,50,19,38,57,,,,13,29,4,3,0.4,0.7
2026-01-19T0200,1304A,116.9495185,36.644937,济南市,机床二厂,,32,27,44,22,37,53,,,,15,33,2,3,0.3,0.5
2026-01-19T0200,1305A,117.0496,36.6629,济南市,市监测站,,37,37,46,17,36,55,,,,13,28,3,3,0.4,0.6
2026-01-19T0200,1306A,116.7674,36.5458,济南市,长清党校,,32,32,45,20,32,51,,,,12,30,4,5,0.5,0.7
2026-01-19T0200,1961A,117.5323,36.6865,济南市,东山小学,,37,37,45,17,30,66,,,,10,29,2,2,0.2,0.3
2026-01-19T0200,3059A,117.7181,36.205,济南市,泰兴公司,,42,34,30,29,29,61,,,,16,28,2,3,0.6,0.8
2026-01-19T0200,3064A,117.6861,36.2172,济南市,莱芜战役纪念馆,,48,39,35,33,32,58,,,,18,30,8,11,0.5,0.7
2026-01-19T0200,3494A,117.1673,36.9782,济南市,济阳区政府,,27,27,37,17,25,51,,,,16,22,3,5,0.4,0.5
2026-01-19T0200,3495A,117.1168,36.6299,济南市,锦屏中学,,25,24,38,17,31,53,,,,17,33,4,11,0.7,0.8
2026-01-19T0200,4108A,117.7107,36.2385,济南市,山财大街5号,,29,29,24,20,24,58,,,,14,25,7,8,0.6,0.8
2026-01-19T0200,4109A,116.9744,36.6889,济南市,无影山路12号,,31,31,41,17,37,50,,,,12,26,3,4,0.5,0.7
2026-01-19T0200,1653A,116.6229,35.4288,济宁市,火炬城,,35,34,46,24,40,52,,,,10,25,2,2,0.4,0.6
2026-01-19T0200,3500A,116.5808,35.3703,济宁市,北湖一中,,38,27,40,26,41,46,,,,15,29,2,3,0.6,0.8
2026-01-19T0200,3501A,116.8251,35.5592,济宁市,服务中心,,39,27,44,27,30,51,,,,13,29,7,7,0.7,0.9
2026-01-19T0200,3678A,116.5907,35.4054,济宁市,市第七中学,,34,34,49,19,34,52,,,,11,27,6,6,0.5,0.7
2026-01-19T0200,4111A,116.6075,35.4566,济宁市,任和路,,36,36,52,17,37,49,,,,11,26,3,2,0.6,0.9
2026-01-19T0200,4112A,116.5648,35.3921,济宁市,文体南路1号,,29,29,50,19,38,48,,,,9,27,1,1,0.5,0.7
2026-01-19T0200,2255A,130.2749,46.8028,佳木斯市,佳纺,细颗粒物(PM2.5),132,114,68,100,54,10,,,,55,35,7,12,1.4,0.9
2026-01-19T0200,2257A,130.3258,46.7975,佳木斯市,环保局,细颗粒物(PM2.5),180,,57,136,57,10,,,,64,37,14,12,1.5,0.7
2026-01-19T0200,4285A,130.363,46.806,佳木斯市,顺和街,细颗粒物(PM2.5),123,113,50,93,38,,,,,62,38,13,13,1.0,0.7
2026-01-19T0200,4286A,130.3952,46.8268,佳木斯市,长安路196号,细颗粒物(PM2.5),104,90,58,78,46,6,,,,60,37,9,9,1.0,0.7
2026-01-19T0200,1252A,120.7439,30.778,嘉兴市,清河小学,颗粒物(PM10),58,65,54,36,27,52,,,,18,25,5,6,0.3,0.3
2026-01-19T0200,1253A,120.7261,30.7477,嘉兴市,嘉兴学院,颗粒物(PM10),62,73,56,31,24,46,,,,24,30,4,5,0.6,0.6
2026-01-19T0200,2872A,120.7845,30.7524,嘉兴市,南湖区残联,颗粒物(PM10),59,67,45,36,25,47,,,,20,27,3,4,0.7,0.6
2026-01-19T0200,3407A,120.6915,30.7741,嘉兴市,秀洲住建,颗粒物(PM10),61,72,54,38,28,52,,,,19,28,6,7,0.6,0.5
2026-01-19T0200,1945A,98.291,39.7705,嘉峪关市,气象局,,39,39,43,12,13,59,,,,3,4,12,6,0.3,0.3
2026-01-19T0200,2884A,98.2672,39.7978,嘉峪关市,酒钢宾馆,,34,34,46,7,13,60,,,,3,6,12,15,0.6,0.8
2026-01-19T0200,3248A,98.2644,39.7723,嘉峪关市,雄关区,,32,32,40,18,14,62,,,,5,26,13,12,0.4,0.4
2026-01-19T0200,1383A,113.1063,22.6058,江门市,北街,,48,45,66,33,40,81,,,,16,36,/,/,/,/
2026-01-19T0200,1384A,113.073,22.5835,江门市,西区,,48,48,70,33,32,93,,,,26,49,/,/,/,/
2026-01-19T0200,1385A,113.0218,22.531,江门市,圭峰西,,49,48,54,34,35,96,,,,16,24,/,/,/,/
2026-01-19T0200,1386A,113.0826,22.5947,江门市,东湖,,49,49,63,31,42,92,,,,21,40,8,9,0.6,0.6
2026-01-19T0200,3311A,113.1077,22.5647,江门市,江海富民,颗粒物(PM10),58,65,69,34,37,103,,,,20,43,/,/,0.5,0.7
2026-01-19T0200,3449A,113.0496,22.4669,江门市,新会银湖,细颗粒物(PM2.5),58,54,64,41,46,57,,,,31,35,6,8,0.4,0.4
2026-01-19T0200,3335A,113.3137,35.2643,焦作市,马村街道办,细颗粒物(PM2.5),58,64,72,41,50,37,,,,16,20,4,5,0.5,0.6
2026-01-19T0200,3336A,113.2464,35.2374,焦作市,焦作技师学院,颗粒物(PM10),61,72,74,36,50,34,,,,15,19,7,7,0.9,1
2026-01-19T0200,3477A,113.1656,35.2536,焦作市,中站许衡医院,细颗粒物(PM2.5),78,67,85,57,60,34,,,,17,23,4,3,0.8,0.9
2026-01-19T0200,3981A,113.2456,35.18,焦作市,原李万街道办,颗粒物(PM10),53,56,72,29,43,44,,,,13,18,3,4,0.4,0.6
2026-01-19T0200,4264A,113.234,35.219,焦作市,新安路1731号,细颗粒物(PM2.5),67,79,86,48,54,37,,,,9,15,5,4,0.5,0.6
2026-01-19T0200,4295A,113.2722,35.2121,焦作市,人民路3066号,颗粒物(PM10),59,68,73,37,46,38,,,,15,16,5,5,0.9,0.9
2026-01-19T0200,1708A,116.3701,23.5345,揭阳市,新兴,细颗粒物(PM2.5),90,71,96,67,69,62,,,,32,52,8,12,0.8,0.9
2026-01-19T0200,1709A,116.3261,23.5442,揭阳市,西马,细颗粒物(PM2.5),104,78,96,78,62,59,,,,26,38,6,8,0.9,0.8
2026-01-19T0200,1710A,116.361,23.5627,揭阳市,东兴,细颗粒物(PM2.5),93,74,93,69,61,32,,,,47,45,10,13,/,/
2026-01-19T0200,1711A,116.4151,23.5295,揭阳市,渔湖,颗粒物(PM10),61,71,85,28,46,50,,,,29,43,4,9,/,/
2026-01-19T0200,3320A,116.4028,23.5699,揭阳市,曲溪,颗粒物(PM10),63,76,92,39,54,55,,,,37,44,10,16,0.7,1
2026-01-19T0200,1944A,102.1691,38.5166,金昌市,天庆家园,,46,46,35,9,9,61,,,,5,6,3,3,0.5,0.5
2026-01-19T0200,4022A,102.1648,38.5369,金昌市,金川区人防中心,颗粒物(PM10),54,57,37,25,16,64,,,,5,6,4,3,0.5,0.5
2026-01-19T0200,4239A,102.193042,38.531887,金昌市,长春路96号,,45,45,35,9,8,58,,,,3,4,4,5,0.6,0.6
2026-01-19T0200,1262A,119.6478,29.0773,金华市,十五中,细颗粒物(PM2.5),107,132,123,80,75,45,,,,33,36,4,4,0.6,0.8
2026-01-19T0200,1263A,119.6859,29.1032,金华市,监测站,细颗粒物(PM2.5),95,121,130,71,65,32,,,,42,50,3,3,0.6,0.7
2026-01-19T0200,3659A,119.656,29.1132,金华市,气象局,颗粒物(PM10),88,126,122,51,52,24,,,,52,52,4,4,0.7,0.5
2026-01-19T0200,1767A,121.1114,41.0879,锦州市,南山,,22,19,28,11,19,68,,,,4,12,10,13,0.5,0.6
2026-01-19T0200,1768A,121.060361,40.842794,锦州市,开发区,,19,19,35,13,19,44,,,,19,17,7,18,0.4,0.4
2026-01-19T0200,1769A,121.1836,41.1118,锦州市,百股街道,,20,20,38,12,22,51,,,,11,19,14,13,0.6,0.8
2026-01-19T0200,1770A,121.1176,41.1224,锦州市,天安街道,,22,17,30,6,11,68,,,,8,10,6,10,0.6,0.7
2026-01-19T0200,1771A,121.1303,41.1385,锦州市,北湖公园,,22,22,30,10,18,58,,,,6,11,9,12,0.6,0.6
2026-01-19T0200,2160A,112.8496,35.5051,晋城市,自来水公司,细颗粒物(PM2.5),90,94,58,67,42,7,,,,26,22,3,3,0.9,0.8
2026-01-19T0200,2162A,112.8509,35.4886,晋城市,市环保局,细颗粒物(PM2.5),79,101,53,58,39,12,,,,24,20,3,2,0.9,0.9
2026-01-19T0200,3620A,112.8258,35.4804,晋城市,泽州一中,细颗粒物(PM2.5),83,91,50,61,37,10,,,,26,22,3,2,0.8,0.7
2026-01-19T0200,4078A,112.8246,35.5152,晋城市,前书院路,颗粒物(PM10),78,105,56,54,34,8,,,,27,21,3,3,0.9,0.7
2026-01-19T0200,4079A,112.8864,35.4773,晋城市,祥云街666号,细颗粒物(PM2.5),84,96,54,62,47,8,,,,13,12,2,2,0.7,0.6
2026-01-19T0200,2174A,112.6992,37.6984,晋中市,榆次区政府,细颗粒物(PM2.5),88,102,101,65,68,2,,,,52,41,10,7,0.5,0.4
2026-01-19T0200,2865A,112.7195,37.683,晋中市,榆次三中,细颗粒物(PM2.5),83,107,98,61,58,3,,,,43,31,7,7,0.5,0.4
2026-01-19T0200,4080A,112.7375,37.7215,晋中市,广安街188号,细颗粒物(PM2.5),92,111,108,68,69,0,,,,48,38,10,8,0.6,0.5
2026-01-19T0200,4200A,112.7478,37.6954,晋中市,迎宾街26号,细颗粒物(PM2.5),83,114,98,61,65,6,,,,37,29,7,7,0.6,0.5
2026-01-19T0200,2439A,112.2012,31.048,荆门市,竹园小学,,,57,118,42,78,,,,,20,28,1,1,0.4,0.8
2026-01-19T0200,2440A,112.1968,30.9892,荆门市,掇刀,细颗粒物(PM2.5),63,55,119,45,81,37,,,,14,24,3,2,0.4,0.8
2026-01-19T0200,3012A,112.1849,31.0361,荆门市,西山林语,颗粒物(PM10),56,62,115,39,76,35,,,,15,25,2,6,0.6,0.6
2026-01-19T0200,3547A,112.1631,31.0134,荆门市,龙泉中学南校,,,62,123,51,84,,,,,8,15,2,2,1.0,1
2026-01-19T0200,4124A,112.2213,31.0654,荆门市,新台西路6号,细颗粒物(PM2.5),68,60,111,49,85,33,,,,12,20,7,7,0.6,0.8
2026-01-19T0200,1844A,112.2493,30.3198,荆州市,市图书馆,,,48,112,36,109,31,,,,14,24,,5,0.8,1
2026-01-19T0200,1845A,112.2009,30.3543,荆州市,市委党校,,,42,124,40,105,29,,,,17,29,,2,0.7,0.9
2026-01-19T0200,3194A,112.2749,30.3124,荆州市,管委会,细颗粒物(PM2.5),57,46,117,40,111,28,,,,15,26,4,5,0.7,1
2026-01-19T0200,4268A,112.1722,30.3366,荆州市,学苑路85号,,49,42,119,34,90,35,,,,12,22,5,4,0.9,1
2026-01-19T0200,2343A,117.2114,29.2931,景德镇市,老干部活动中心,细颗粒物(PM2.5),82,62,79,60,66,51,,,,15,34,5,6,1.0,1.1
2026-01-19T0200,2344A,117.1893,29.2789,景德镇市,兽医站,细颗粒物(PM2.5),72,72,82,52,54,63,,,,16,33,4,5,0.8,0.9
2026-01-19T0200,2346A,117.246,29.2958,景德镇市,陶研所,细颗粒物(PM2.5),69,59,69,50,61,42,,,,17,25,4,4,0.7,0.7
2026-01-19T0200,4289A,117.154766,29.256967,景德镇市,青少年活动中心,细颗粒物(PM2.5),75,80,107,55,66,61,,,,17,50,4,21,/,/
2026-01-19T0200,1803A,115.9873,29.6816,九江市,十里,细颗粒物(PM2.5),108,133,140,81,106,56,,,,24,36,5,6,1.1,1.4
2026-01-19T0200,1804A,115.9583,29.7047,九江市,茅山头,细颗粒物(PM2.5),107,130,148,80,98,40,,,,18,28,8,10,0.9,1.1
2026-01-19T0200,1805A,115.9877,29.7295,九江市,西园,细颗粒物(PM2.5),104,117,127,78,96,43,,,,44,51,3,2,0.9,1.2
2026-01-19T0200,1808A,115.9112,29.6038,九江市,综合工业园,细颗粒物(PM2.5),138,135,161,105,135,44,,,,30,55,2,4,1.3,0.9
2026-01-19T0200,3190A,116.0254,29.6995,九江市,外国语学校,细颗粒物(PM2.5),103,120,134,77,98,34,,,,24,38,9,9,1.0,1.3
2026-01-19T0200,4253A,116.010205,29.659402,九江市,莲花大道8号,细颗粒物(PM2.5),128,136,158,97,123,38,,,,12,19,2,5,0.7,1.1
2026-01-19T0200,4240A,98.495752,39.733935,酒泉市,玉门东路5号,,39,39,47,12,16,65,,,,2,2,8,8,0.2,0.3
2026-01-19T0200,4241A,98.5099,39.7506,酒泉市,北大街108号,,36,36,41,13,13,59,,,,8,5,7,8,0.2,0.3
2026-01-19T0200,2698A,76.0071,39.466,喀什地区,巡警大队,颗粒物(PM10),500,683,432,99,72,46,,,,20,19,4,4,0.8,0.7
2026-01-19T0200,2699A,75.9756,39.4693,喀什地区,吾办,颗粒物(PM10),460,560,369,105,70,52,,,,18,13,6,7,0.7,0.6
2026-01-19T0200,4027A,75.9485,39.4688,喀什地区,老干局,颗粒物(PM10),500,691,446,98,66,53,,,,16,10,4,3,0.6,0.4
2026-01-19T0200,1824A,114.3389,34.778,开封市,肿瘤医院,细颗粒物(PM2.5),64,68,55,46,43,25,,,,23,23,4,3,0.6,0.6
2026-01-19T0200,1826A,114.2884,34.7966,开封市,世纪星幼儿园,细颗粒物(PM2.5),72,61,53,52,51,22,,,,23,21,4,4,0.6,0.6
2026-01-19T0200,3147A,114.3434,34.8101,开封市,龙亭公园,细颗粒物(PM2.5),70,54,52,51,50,24,,,,20,16,5,5,0.6,0.5
2026-01-19T0200,3210A,114.3645,34.7955,开封市,汴京公园,细颗粒物(PM2.5),69,60,51,50,48,26,,,,16,18,3,3,1.1,1
2026-01-19T0200,3473A,114.2485,34.8306,开封市,技师学院,细颗粒物(PM2.5),67,58,55,48,48,22,,,,19,19,5,4,0.9,0.8
2026-01-19T0200,3592A,114.4518,34.7503,开封市,祥符区生态环境局,细颗粒物(PM2.5),68,70,67,49,48,23,,,,26,26,2,3,0.6,0.6
2026-01-19T0200,1951A,84.886,45.6029,克拉玛依市,长征新村,,20,20,21,7,14,22,,,,32,11,6,6,0.4,0.4
2026-01-19T0200,1952A,84.8894,45.5827,克拉玛依市,南林小区,,27,27,21,16,12,32,,,,18,8,3,4,0.7,0.6
2026-01-19T0200,1954A,84.896,44.3328,克拉玛依市,独山子区,细颗粒物(PM2.5),85,105,77,63,56,39,,,,40,38,4,5,0.6,0.6
2026-01-19T0200,1955A,85.6888,46.0909,克拉玛依市,乌尔禾区商贸楼,,36,31,16,25,11,31,,,,31,15,6,6,0.9,0.5
2026-01-19T0200,3612A,85.1045,45.6895,克拉玛依市,白碱滩区新站,,34,34,27,21,14,25,,,,26,16,7,8,0.2,0.1
2026-01-19T0200,2697A,76.1457,39.7143,克孜勒苏柯尔克孜自治州,市人民政府,颗粒物(PM10),500,725,539,140,84,68,,,,6,8,3,3,0.3,0.3
2026-01-19T0200,3665A,76.1654,39.7157,克孜勒苏柯尔克孜自治州,克州文化中心,颗粒物(PM10),500,694,565,104,76,64,,,,6,7,3,3,0.4,0.4
2026-01-19T0200,1450A,102.8203,24.889,昆明市,呈贡新区,,29,29,39,18,21,25,,,,35,23,5,7,0.8,0.8
2026-01-19T0200,1452A,102.7253,25.0904,昆明市,龙泉镇,,35,35,38,19,22,41,,,,24,24,2,4,0.4,0.5
2026-01-19T0200,1453A,102.7267,25.0378,昆明市,东风东路,,37,37,43,23,24,59,,,,16,23,5,7,0.3,0.4
2026-01-19T0200,1454A,102.6744,25.0671,昆明市,金鼎山,,42,42,46,26,23,52,,,,16,26,3,4,0.6,0.8
2026-01-19T0200,1455A,102.6643,25.0401,昆明市,碧鸡广场,,45,45,42,22,22,45,,,,24,28,4,6,0.4,0.5
2026-01-19T0200,3179A,102.7491,25.012,昆明市,官渡区博物馆,,,,49,,26,,,85,,,30,,6,,0.7
2026-01-19T0200,3375A,102.8016,24.8336,昆明市,青年创业园,,35,35,35,20,23,35,,,,26,21,8,12,0.7,0.7
2026-01-19T0200,3550A,102.8,24.9787,昆明市,昆明学院,,35,35,48,20,26,57,,,,21,25,4,5,0.5,0.5
2026-01-19T0200,3551A,102.5969,24.6738,昆明市,晋宁区生态环境分局,颗粒物(PM10),56,62,36,27,18,30,,,,18,15,2,2,0.7,0.6
2026-01-19T0200,3552A,102.6673,24.9861,昆明市,云天化总部,,34,34,35,22,21,64,,,,10,24,6,8,0.2,0.3
2026-01-19T0200,1456A,91.132,29.6515,拉萨市,八廓街,,27,21,29,11,17,85,,,,8,22,7,8,0.3,0.6
2026-01-19T0200,1457A,91.1221,29.6748,拉萨市,市环保局,,33,33,52,22,32,72,,,,12,36,8,10,0.7,1.5
2026-01-19T0200,1458A,91.0874,29.6476,拉萨市,区监测站,,35,35,22,9,13,93,,,,4,32,4,5,0.7,1
2026-01-19T0200,1459A,91.1774,29.6541,拉萨市,西藏大学,,34,34,22,19,12,76,,,,20,22,5,5,0.8,0.8
2026-01-19T0200,1460A,90.9798,29.6586,拉萨市,区辐射站,,42,42,48,21,21,50,,,,28,38,4,6,0.8,1
2026-01-19T0200,1461A,91.0831,29.6292,拉萨市,拉萨火车站,,34,34,27,8,16,95,,,,4,30,4,5,0.5,1
2026-01-19T0200,2520A,109.2203,23.7252,来宾市,来宾技工学校,细颗粒物(PM2.5),130,128,109,99,76,24,,,,54,26,10,12,1.1,1.1
2026-01-19T0200,3535A,109.1781,23.7293,来宾市,兴宾区政府,细颗粒物(PM2.5),143,137,108,109,86,45,,,,29,18,10,13,1.0,1
2026-01-19T0200,4002A,109.2312,23.7428,来宾市,中南小学,细颗粒物(PM2.5),137,122,101,104,75,2,,,,76,36,6,5,1.1,1
2026-01-19T0200,1479A,103.8309,36.0467,兰州市,铁路设计院,,,,,,,,,,,,,,,,
2026-01-19T0200,3241A,103.7439,36.0841,兰州市,百合公园,颗粒物(PM10),53,55,84,19,25,52,,,,10,9,5,9,0.5,0.5
2026-01-19T0200,3242A,103.9613,35.9985,兰州市,和平,颗粒物(PM10),60,69,105,11,28,51,,,,18,11,5,8,0.6,0.5
2026-01-19T0200,4236A,103.629272,36.093822,兰州市,庄浪东路808号,颗粒物(PM10),59,68,97,26,35,59,,,,10,10,11,15,0.3,0.3
2026-01-19T0200,4237A,103.7251,36.104344,兰州市,安宁西路88号,颗粒物(PM10),63,76,102,23,30,60,,,,10,10,8,11,0.2,0.3
2026-01-19T0200,4238A,103.846982,36.067567,兰州市,北滨河东路1号,颗粒物(PM10),54,57,94,27,34,56,,,,14,13,6,7,0.5,0.5
2026-01-19T0200,1067A,116.6712,39.5109,廊坊市,药材公司,,31,31,48,3,22,64,,,,4,20,3,6,0.2,0.7
2026-01-19T0200,1068A,116.7215,39.5592,廊坊市,开发区,,21,16,45,8,23,66,,,,7,22,1,6,0.2,0.7
2026-01-19T0200,1070A,116.7246,39.5273,廊坊市,北华航天学院,,48,48,56,3,23,67,,,,4,20,3,6,0.2,0.7
2026-01-19T0200,2919A,116.7022,39.5454,廊坊市,河北工业大学,,21,16,44,3,24,65,,,,2,16,3,5,0.2,0.7
2026-01-19T0200,2536A,103.7629,29.5844,乐山市,牛耳桥,细颗粒物(PM2.5),226,197,164,176,144,5,,,,57,43,4,6,1.3,1.2
2026-01-19T0200,2537A,103.7501,29.6002,乐山市,市第三水厂,细颗粒物(PM2.5),222,189,165,172,145,2,,,,70,43,6,7,1.5,1.2
2026-01-19T0200,2538A,103.7571,29.5664,乐山市,市监测站,细颗粒物(PM2.5),231,211,181,181,154,18,,,,50,33,6,7,1.3,1.2
2026-01-19T0200,3361A,103.7313,29.563,乐山市,理工大学,细颗粒物(PM2.5),244,225,183,194,157,34,,,,34,34,6,7,1.1,1.1
2026-01-19T0200,2599A,100.2497,26.8802,丽江市,丽江古城,,30,30,31,20,16,64,,,,16,13,10,10,0.5,0.4
2026-01-19T0200,2600A,100.2203,26.8906,丽江市,市中心,,26,17,24,13,11,82,,,,8,15,6,6,0.4,0.5
2026-01-19T0200,1267A,119.9141,28.4513,丽水市,监测站大楼,细颗粒物(PM2.5),68,69,72,49,58,14,,,,47,44,6,8,0.7,0.9
2026-01-19T0200,1268A,119.93,28.4589,丽水市,莲都小学,,48,48,69,22,36,36,,,,36,41,/,/,/,/
2026-01-19T0200,1269A,119.8794,28.4232,丽水市,余庄前,"颗粒物(PM10),细颗粒物(PM2.5)",55,59,67,39,46,4,,,,27,29,4,4,0.5,0.5
2026-01-19T0200,1173A,119.1759,34.5885,连云港市,市环境监测站,,35,31,28,24,15,55,,,,12,13,8,9,0.4,0.3
2026-01-19T0200,3000A,119.3577,34.6971,连云港市,德源药业,,36,36,33,22,14,56,,,,11,17,5,5,0.7,0.5
2026-01-19T0200,3007A,119.178,34.8442,连云港市,新城一中,,43,33,35,30,24,61,,,,15,20,15,10,1.1,0.9
2026-01-19T0200,3008A,119.3607,34.7519,连云港市,胡沟管理处,,28,27,24,19,13,62,,,,12,22,6,8,0.5,0.4
2026-01-19T0200,3009A,119.1478,34.5913,连云港市,矿山设计院,,42,34,30,29,14,50,,,,15,14,6,7,0.6,0.5
2026-01-19T0200,3434A,119.2414,34.6539,连云港市,工贸学校,,39,39,33,27,19,45,,,,11,10,8,9,0.5,0.5
2026-01-19T0200,3664A,119.4171,34.734,连云港市,连云街道,,30,30,32,19,15,56,,,,20,21,2,2,0.6,0.5
2026-01-19T0200,2573A,102.2629,27.8981,凉山彝族自治州,西昌市政府,细颗粒物(PM2.5),52,52,65,36,52,53,,,,14,22,9,10,0.6,0.8
2026-01-19T0200,2574A,102.2686,27.885,凉山彝族自治州,凉山州政府,细颗粒物(PM2.5),74,72,74,54,50,27,,,,31,28,9,10,0.9,0.8
2026-01-19T0200,4229A,102.2342,27.8859,凉山彝族自治州,凯乐南路30号,颗粒物(PM10),55,59,92,34,57,17,,,,55,44,7,10,0.6,0.9
2026-01-19T0200,2212A,123.1978,41.2036,辽阳市,宏伟区,,48,33,47,33,41,37,,,,18,19,16,10,0.6,0.6
2026-01-19T0200,2213A,123.1684,41.2497,辽阳市,新华园,,43,42,42,30,31,21,,,,41,25,11,11,0.4,0.5
2026-01-19T0200,2214A,123.2355,41.2663,辽阳市,滨河路,,45,39,56,31,43,20,,,,33,32,17,9,0.7,0.8
2026-01-19T0200,4083A,123.153,41.2874,辽阳市,铁西路150号,细颗粒物(PM2.5),63,56,47,45,38,5,,,,56,34,23,13,1.1,1
2026-01-19T0200,2227A,125.1359,42.8845,辽源市,环保局,细颗粒物(PM2.5),70,73,60,51,44,14,,,,52,38,3,6,1.0,0.9
2026-01-19T0200,4085A,125.0998,42.9134,辽源市,安宁大街333号,,50,49,53,35,43,34,,,,26,25,9,8,0.7,0.8
2026-01-19T0200,1625A,115.9789,36.4372,聊城市,区政府,,30,30,37,14,23,52,,,,18,26,10,11,0.7,0.8
2026-01-19T0200,3200A,115.9772,36.4986,聊城市,监控中心,,35,29,31,24,28,51,,,,14,20,6,7,0.7,0.8
2026-01-19T0200,3513A,116.0443,36.436,聊城市,九州社区,,38,38,43,25,29,61,,,,2,10,2,3,0.4,0.5
2026-01-19T0200,4018A,116.0564,36.4609,聊城市,星美广场,,38,38,43,22,27,50,,,,9,15,2,4,0.5,0.5
2026-01-19T0200,4113A,116.0091,36.4495,聊城市,利民路,,39,39,38,22,27,46,,,,18,24,8,8,0.6,0.7
2026-01-19T0200,2632A,94.3683,29.6373,林芝市,林芝监测站,,23,12,17,9,7,73,,,,5,5,3,3,0.4,0.4
2026-01-19T0200,2633A,94.3616,29.6634,林芝市,林芝人民医院,,23,14,19,7,7,73,,,,6,9,1,2,0.3,0.3
2026-01-19T0200,2603A,100.0779,23.8981,临沧市,市环保局,,45,41,42,31,40,42,,,,9,11,5,5,0.6,0.7
2026-01-19T0200,2604A,100.0894,23.882,临沧市,市气象局,,35,35,43,24,25,44,,,,7,11,4,4,0.4,0.4
2026-01-19T0200,1733A,111.5552,36.0791,临汾市,临钢医院,颗粒物(PM10),86,122,127,56,72,12,,,,38,32,17,12,1.2,1.3
2026-01-19T0200,1734A,111.4984,36.0734,临汾市,技工学校,,49,49,119,13,71,33,,,,23,37,6,11,0.4,0.9
2026-01-19T0200,1736A,111.5017,36.0857,临汾市,市委,,48,48,114,11,63,38,,,,22,33,8,13,0.7,1.2
2026-01-19T0200,3018A,111.5048,36.1015,临汾市,唐尧大酒店,颗粒物(PM10),57,64,120,6,66,37,,,,25,36,4,9,0.6,1.1
2026-01-19T0200,4244A,111.4879,36.053,临汾市,启星学校,,41,41,118,15,76,37,,,,26,41,8,11,0.7,1.3
2026-01-19T0200,4271A,103.2464,35.6123,临夏回族自治州,滨河东路1号,颗粒物(PM10),59,68,142,18,27,44,,,,10,15,8,12,0.4,0.5
2026-01-19T0200,4310A,103.207136,35.599807,临夏回族自治州,新华街21号,颗粒物(PM10),56,61,134,20,29,52,,,,9,14,9,14,0.4,0.5
2026-01-19T0200,1618A,118.3429,35.0532,临沂市,沂河小区,,38,27,42,26,40,58,,,,15,26,8,8,0.4,0.6
2026-01-19T0200,1619A,118.2962,35.0568,临沂市,鲁南制药厂,,32,22,35,22,35,57,,,,10,24,8,8,0.5,0.7
2026-01-19T0200,1620A,118.2793,34.9976,临沂市,新光毛纺厂,,,24,31,21,32,,,,,18,31,7,7,0.5,0.7
2026-01-19T0200,1621A,118.3955,35.0889,临沂市,河东保险公司,,28,27,43,19,34,59,,,,11,26,7,7,0.5,0.7
2026-01-19T0200,3370A,118.3563,35.0215,临沂市,十里堡居委,,27,27,35,12,24,66,,,,15,28,8,8,0.5,0.7
2026-01-19T0200,3496A,118.359,35.1067,临沂市,南坊新区,,27,27,37,17,29,60,,,,11,25,7,7,0.4,0.7
2026-01-19T0200,3860A,118.3915,35.0297,临沂市,皇山花园小区,,29,27,40,20,32,60,,,,14,30,9,10,0.7,0.8
2026-01-19T0200,1870A,109.4854,24.3898,柳州市,柳东小学,细颗粒物(PM2.5),79,76,83,58,70,48,,,,27,28,94,34,0.7,0.8
2026-01-19T0200,1871A,109.4109,24.3304,柳州市,环保监测站,细颗粒物(PM2.5),89,88,99,66,73,12,,,,51,37,5,6,1.3,1.3
2026-01-19T0200,1872A,109.3886,24.3408,柳州市,河西水厂,细颗粒物(PM2.5),139,153,124,106,76,0,,,,60,42,7,8,1.4,1.2
2026-01-19T0200,1873A,109.4263,24.2951,柳州市,市四中,细颗粒物(PM2.5),82,107,107,60,71,11,,,,54,45,9,10,1.1,1
2026-01-19T0200,1874A,109.396,24.3658,柳州市,市九中,细颗粒物(PM2.5),98,73,101,73,83,32,,,,30,40,12,13,0.8,1.2
2026-01-19T0200,1875A,109.4912,24.3164,柳州市,古亭山,,50,50,81,34,53,2,,,,64,36,7,8,0.7,0.8
2026-01-19T0200,3402A,109.5422,24.3994,柳州市,市二中,细颗粒物(PM2.5),82,69,78,60,60,4,,,,54,32,20,17,0.8,0.8
2026-01-19T0200,2307A,116.5078,31.7369,六安市,监测大楼,,20,15,107,14,68,2,,,,31,31,3,3,0.6,0.6
2026-01-19T0200,2308A,116.4738,31.7642,六安市,皖西学院,,17,12,107,11,59,4,,,,33,29,4,4,0.7,0.6
2026-01-19T0200,2309A,116.4997,31.7904,六安市,朝阳厂,,18,,94,12,57,2,,,,29,30,3,5,0.7,0.6
2026-01-19T0200,2310A,116.5566,31.7885,六安市,开发区,,18,,104,12,62,3,,,,31,31,3,4,0.6,0.6
2026-01-19T0200,2577A,104.8293,26.592,六盘水市,黄土坡,细颗粒物(PM2.5),54,46,65,38,50,32,,,,16,24,6,13,0.7,1
2026-01-19T0200,2579A,104.8481,26.5898,六盘水市,民中,细颗粒物(PM2.5),67,64,62,48,53,42,,,,27,23,8,9,1.0,0.8
2026-01-19T0200,2580A,104.9541,26.5506,六盘水市,双水,,43,41,58,30,43,65,,,,11,14,5,6,0.5,0.5
2026-01-19T0200,4151A,104.8899,26.5685,六盘水市,钟山大道中段564号,颗粒物(PM10),71,91,79,51,49,40,,,,21,17,13,10,1.3,0.9
2026-01-19T0200,2336A,117.022,25.1031,龙岩市,龙岩市监测站,细颗粒物(PM2.5),63,52,57,45,42,27,,,,41,35,50,29,0.7,0.8
2026-01-19T0200,2337A,117.0257,25.0662,龙岩市,闽西职业技术学院,颗粒物(PM10),60,69,63,42,38,55,,,,32,28,17,16,0.7,0.8
2026-01-19T0200,2338A,117.0195,25.0306,龙岩市,龙岩学院,细颗粒物(PM2.5),54,48,46,38,35,62,,,,17,16,9,10,/,/
2026-01-19T0200,2885A,104.9344,33.3827,陇南市,滨江中学,颗粒物(PM10),63,76,98,35,47,52,,,,8,31,3,8,0.7,1.3
2026-01-19T0200,3247A,104.9551,33.3709,陇南市,市总工会,颗粒物(PM10),59,67,90,31,52,50,,,,9,28,7,10,0.5,0.8
2026-01-19T0200,2488A,111.9984,27.7346,娄底市,市监测站,,36,,145,25,89,10,,,,26,28,6,8,0.7,1
2026-01-19T0200,2491A,111.9888,27.7035,娄底市,市政府,,30,24,134,21,111,9,,,,27,29,4,6,0.9,0.9
2026-01-19T0200,4127A,111.9812,27.7591,娄底市,涟钢职大,,36,36,167,18,122,6,,,,22,29,3,7,0.6,0.8
2026-01-19T0200,4128A,112.0303,27.7457,娄底市,娄底体校,,29,29,157,17,118,4,,,,25,20,2,2,0.7,0.9
2026-01-19T0200,1894A,105.4427,28.9063,泸州市,小市上码头,细颗粒物(PM2.5),115,123,178,87,149,76,,,,12,30,6,8,1.2,1.5
2026-01-19T0200,1895A,105.4241,28.8573,泸州市,兰田宪桥,细颗粒物(PM2.5),127,150,234,96,155,81,,,,,11,8,8,1.2,1.5
2026-01-19T0200,1896A,105.4378,28.8833,泸州市,市环监站,细颗粒物(PM2.5),119,135,187,90,149,91,,,,10,23,9,10,1.1,1.3
2026-01-19T0200,4272A,105.3689,28.7783,泸州市,纳溪中医医院,细颗粒物(PM2.5),140,130,151,107,153,81,,,,12,16,7,8,1.1,1.4
2026-01-19T0200,2183A,111.1447,37.5212,吕梁市,环保局,,46,46,131,22,55,44,,,,18,34,8,8,0.4,0.6
2026-01-19T0200,2185A,111.1285,37.5338,吕梁市,自来水公司,颗粒物(PM10),56,62,119,15,53,44,,,,17,34,6,9,0.6,0.8
2026-01-19T0200,2867A,111.1225,37.5093,吕梁市,马茂庄小学,颗粒物(PM10),60,70,121,19,51,41,,,,19,38,7,9,0.4,0.6
2026-01-19T0200,1812A,112.3934,34.6517,洛阳市,市委党校,细颗粒物(PM2.5),84,63,52,62,55,24,,,,26,30,6,7,0.7,0.8
2026-01-19T0200,1815A,112.494,34.6883,洛阳市,河南林校,细颗粒物(PM2.5),78,66,58,57,46,19,,,,28,27,6,7,0.7,0.7
2026-01-19T0200,1816A,112.3843,34.623,洛阳市,开发区管委会,细颗粒物(PM2.5),77,73,59,56,49,26,,,,24,29,5,5,0.7,0.8
2026-01-19T0200,1817A,112.4263,34.6249,洛阳市,市委新办公区,细颗粒物(PM2.5),75,72,62,55,51,22,,,,26,29,7,7,0.5,0.6
2026-01-19T0200,3340A,112.6005,34.6323,洛阳市,伊滨,细颗粒物(PM2.5),78,66,62,57,54,26,,,,22,27,6,6,0.6,0.6
2026-01-19T0200,3341A,112.495,34.6338,洛阳市,中移产业园,细颗粒物(PM2.5),80,69,57,59,53,13,,,,26,28,6,8,0.6,0.8
2026-01-19T0200,3593A,112.5736,34.8993,洛阳市,吉利监测站,细颗粒物(PM2.5),74,67,56,54,52,23,,,,23,25,7,7,0.7,0.8
2026-01-19T0200,3635A,112.3678,34.6623,洛阳市,河科大西苑校区,细颗粒物(PM2.5),70,64,53,51,43,26,,,,27,30,6,6,0.9,0.9
2026-01-19T0200,3636A,112.4387,34.678,洛阳市,英才小学,细颗粒物(PM2.5),80,76,60,59,55,17,,,,29,31,7,7,0.7,0.7
2026-01-19T0200,4214A,112.460027,34.694929,洛阳市,春都路1号院,"颗粒物(PM10),细颗粒物(PM2.5)",65,80,64,47,42,18,,,,22,23,5,6,0.8,0.9
2026-01-19T0200,2399A,114.051,33.5721,漯河市,三五一五工厂,细颗粒物(PM2.5),59,45,53,42,46,20,,,,16,17,6,6,0.8,0.8
2026-01-19T0200,2400A,114.0055,33.5698,漯河市,漯河大学,细颗粒物(PM2.5),52,46,54,36,43,20,,,,13,14,4,4,0.6,0.6
2026-01-19T0200,2401A,114.0134,33.5826,漯河市,市水利局,,,44,53,41,47,,,,,18,19,3,3,0.6,0.7
2026-01-19T0200,2402A,114.0261,33.5697,漯河市,市广电局,,,44,50,38,45,,,,,15,16,5,5,0.6,0.7
2026-01-19T0200,3478A,113.9691,33.568,漯河市,市图书馆,细颗粒物(PM2.5),59,57,64,42,46,21,,,,16,19,3,4,0.8,0.8
2026-01-19T0200,4250A,114.089259,33.588274,漯河市,韶山路11号,细颗粒物(PM2.5),63,56,61,45,47,19,,,,13,15,5,5,0.8,0.8
2026-01-19T0200,1798A,118.5084,31.6838,马鞍山市,湖东路四小,颗粒物(PM10),51,51,90,31,58,39,,,,23,29,4,4,0.5,0.7
2026-01-19T0200,1799A,118.5019,31.6449,马鞍山市,开发区,颗粒物(PM10),51,51,96,27,53,42,,,,21,32,4,5,0.5,0.7
2026-01-19T0200,3633A,118.4914,31.681,马鞍山市,雨山,颗粒物(PM10),58,66,99,30,55,40,,,,26,34,7,7,0.7,0.8
2026-01-19T0200,4191A,118.527362,31.722269,马鞍山市,慈湖高新区,颗粒物(PM10),57,64,94,31,56,41,,,,24,29,5,5,0.5,0.7
2026-01-19T0200,1686A,111.0285,21.469,茂名市,电白南海,,41,41,58,27,33,94,,,,11,19,8,14,0.7,0.7
2026-01-19T0200,1687A,110.9294,21.6533,茂名市,茂石化七小,颗粒物(PM10),51,51,56,24,28,70,,,,16,21,9,10,0.2,0.3
2026-01-19T0200,1688A,110.9108,21.6688,茂名市,健康路,,41,41,49,22,29,81,,,,16,22,13,19,0.7,0.8
2026-01-19T0200,1689A,110.8592,21.6826,茂名市,高岭,颗粒物(PM10),51,51,78,17,32,88,,,,11,26,7,21,/,/
2026-01-19T0200,3450A,111.0101,21.5165,茂名市,电白水东,,39,34,50,27,28,92,,,,8,15,10,12,/,/
2026-01-19T0200,2540A,103.8414,30.0871,眉山市,气象局,细颗粒物(PM2.5),218,177,174,168,159,48,,,,38,40,14,15,1.1,1.1
2026-01-19T0200,3148A,103.829,30.0563,眉山市,区人社局,细颗粒物(PM2.5),206,182,162,156,145,43,,,,36,46,11,15,0.9,1
2026-01-19T0200,4148A,103.8836,30.0695,眉山市,眉职院,细颗粒物(PM2.5),208,196,175,158,131,46,,,,28,34,2,2,1.1,1.1
2026-01-19T0200,1690A,116.1248,24.3307,梅州市,梅江月梅,细颗粒物(PM2.5),110,,69,83,68,22,,,,55,37,/,/,/,/
2026-01-19T0200,1691A,116.0798,24.2719,梅州市,梅县新城,细颗粒物(PM2.5),63,69,70,45,52,9,,,,61,44,7,9,0.7,0.8
2026-01-19T0200,3315A,116.1234,24.2994,梅州市,梅龙,细颗粒物(PM2.5),59,61,67,42,44,44,,,,27,31,10,10,0.9,1
2026-01-19T0200,1878A,104.7775,31.4741,绵阳市,富乐山,细颗粒物(PM2.5),62,55,107,44,84,64,,,,12,25,8,8,0.5,0.7
2026-01-19T0200,1880A,104.6698,31.4668,绵阳市,高新区自来水公司,,45,39,114,31,83,57,,,,11,28,8,8,0.6,0.9
2026-01-19T0200,3491A,104.6899,31.5324,绵阳市,西科大附属小学,,40,40,113,28,81,63,,,,14,28,8,8,0.4,0.7
2026-01-19T0200,3492A,104.5647,31.5343,绵阳市,安州区旅游局,细颗粒物(PM2.5),52,41,105,36,83,59,,,,17,29,12,10,0.6,0.8
2026-01-19T0200,4146A,104.7092,31.4972,绵阳市,科技城新区公安局,颗粒物(PM10),56,62,119,25,79,67,,,,12,23,8,8,0.6,0.9
2026-01-19T0200,4226A,104.765114,31.453094,绵阳市,绵阳市气象局,细颗粒物(PM2.5),53,53,107,37,86,63,,,,12,30,6,4,0.5,0.8
2026-01-19T0200,1784A,129.61,44.561,牡丹江市,环保大楼,细颗粒物(PM2.5),54,55,51,38,33,19,,,,41,31,7,6,0.6,0.5
2026-01-19T0200,1787A,129.6364,44.6075,牡丹江市,机车工厂,细颗粒物(PM2.5),98,85,76,73,48,3,,,,51,39,8,6,1.1,0.8
2026-01-19T0200,1788A,129.6386,44.5462,牡丹江市,第一中学,,42,,31,29,26,22,,,,26,28,6,8,0.6,0.7
2026-01-19T0200,4287A,129.5992,44.5964,牡丹江市,东晓云街98号,细颗粒物(PM2.5),88,66,60,65,58,19,,,,31,31,6,9,1.0,0.9
2026-01-19T0200,2531A,105.0703,29.61,内江市,市监测站,细颗粒物(PM2.5),147,,128,112,132,54,,,,14,21,7,7,1.0,1.1
2026-01-19T0200,2533A,105.0657,29.5807,内江市,内江二中,细颗粒物(PM2.5),144,116,145,110,123,43,,,,21,34,5,5,1.0,1.2
2026-01-19T0200,2534A,105.0407,29.5828,内江市,内江日报社,细颗粒物(PM2.5),134,,119,102,121,49,,,,20,33,3,3,0.9,1
2026-01-19T0200,4147A,105.0433,29.6105,内江市,玉峰路西段888号,细颗粒物(PM2.5),147,,123,112,129,46,,,,21,29,2,3,1.0,1.1
2026-01-19T0200,2628A,92.0653,31.4846,那曲市,那曲监测站,细颗粒物(PM2.5),63,66,72,45,47,9,,,,38,34,10,14,1.8,1.8
2026-01-19T0200,4243A,92.0515,31.4787,那曲市,那曲市委宣传部,,36,36,34,23,21,14,,,,39,24,9,8,2.1,1.2
2026-01-19T0200,1291A,115.8887,28.7006,南昌市,省林业公司,细颗粒物(PM2.5),140,122,154,107,137,46,,,,22,35,4,7,0.5,0.9
2026-01-19T0200,1292A,115.813,28.7443,南昌市,林科所,细颗粒物(PM2.5),140,144,151,107,118,53,,,,23,36,8,11,0.8,1
2026-01-19T0200,1294A,115.8518,28.687,南昌市,建工学校,细颗粒物(PM2.5),149,168,198,114,142,43,,,,32,40,13,16,1.2,1.6
2026-01-19T0200,1295A,115.8926,28.6425,南昌市,象湖,细颗粒物(PM2.5),147,142,153,112,134,41,,,,23,32,8,12,0.8,1.2
2026-01-19T0200,3046A,115.9084,28.6062,南昌市,机电学校,细颗粒物(PM2.5),163,166,186,124,146,43,,,,27,32,5,8,0.9,1.1
2026-01-19T0200,3690A,115.9718,28.7032,南昌市,外国语学校,细颗粒物(PM2.5),163,194,175,124,142,35,,,,28,33,12,14,0.9,1.1
2026-01-19T0200,4106A,115.7923,28.6873,南昌市,工业二路,细颗粒物(PM2.5),144,145,170,110,146,52,,,,16,29,5,7,0.5,0.8
2026-01-19T0200,4192A,115.931587,28.686774,南昌市,南京东路235号,细颗粒物(PM2.5),159,170,178,121,139,39,,,,27,33,6,8,1.3,1.6
2026-01-19T0200,1906A,106.0791,30.8022,南充市,南充市委,细颗粒物(PM2.5),75,62,128,55,116,41,,,,17,34,4,4,0.8,1
2026-01-19T0200,1907A,106.1038,30.8215,南充市,南充炼油厂,细颗粒物(PM2.5),87,81,131,64,118,45,,,,11,24,6,6,1.0,1.2
2026-01-19T0200,4227A,106.108336,30.788436,南充市,梨树横街98号,细颗粒物(PM2.5),75,84,144,55,107,48,,,,19,33,6,6,0.7,0.9
2026-01-19T0200,4304A,106.1172,30.843,南充市,清泉寺北路188号,细颗粒物(PM2.5),68,64,114,49,108,51,,,,15,20,7,6,0.6,0.8
2026-01-19T0200,4305A,106.067,30.7616,南充市,同庆路1号,细颗粒物(PM2.5),70,69,125,51,111,47,,,,17,35,7,7,0.9,1.2
2026-01-19T0200,1151A,118.8033,32.1085,南京市,迈皋桥,,40,40,70,17,36,67,,,,1,16,3,4,0.5,0.6
2026-01-19T0200,1152A,118.7487,32.057,南京市,草场门,,48,48,75,19,37,42,,,,19,30,5,6,0.3,0.6
2026-01-19T0200,1154A,118.770105,32.004342,南京市,中华门,,48,48,76,17,37,57,,,,10,22,4,4,0.4,0.6
2026-01-19T0200,1155A,118.8059,32.0329,南京市,瑞金路,颗粒物(PM10),52,53,81,19,40,55,,,,5,19,4,4,0.6,0.8
2026-01-19T0200,1156A,118.7946,32.0774,南京市,玄武湖,,48,48,71,16,36,59,,,,19,23,4,4,0.7,0.9
2026-01-19T0200,1157A,118.6415,32.0964,南京市,浦口,颗粒物(PM10),60,70,91,26,47,49,,,,18,30,8,8,1.2,1.2
2026-01-19T0200,1158A,118.730129,32.000956,南京市,奥体中心,颗粒物(PM10),53,56,83,29,43,67,,,,9,25,7,7,0.4,0.6
2026-01-19T0200,1159A,118.9072,32.1047,南京市,仙林大学城,,41,41,76,14,36,60,,,,13,26,5,7,0.6,0.8
2026-01-19T0200,3422A,118.8443,31.919,南京市,江宁彩虹桥,颗粒物(PM10),57,63,74,24,38,63,,,,11,26,4,4,0.5,0.6
2026-01-19T0200,3427A,118.8497,32.3599,南京市,六合雄州,,31,31,63,13,34,67,,,,8,19,4,3,0.4,0.6
2026-01-19T0200,4086A,118.7641,32.0841,南京市,新模范马路66号,,46,46,80,3,32,85,,,,2,12,4,4,0.8,1
2026-01-19T0200,4249A,118.8707617,31.34017673,南京市,汶溪路181号,颗粒物(PM10),60,70,86,28,55,53,,,,19,33,4,8,0.6,0.9
2026-01-19T0200,4312A,119.019,31.6512,南京市,中山西路1号,颗粒物(PM10),52,53,69,33,45,54,,,,17,24,4,4,0.5,0.7
2026-01-19T0200,1401A,108.3098,22.788,南宁市,二十一中,,48,47,60,33,45,99,,,,26,24,8,7,0.9,0.8
2026-01-19T0200,1402A,108.3135,22.8529,南宁市,北湖,细颗粒物(PM2.5),70,81,78,51,58,33,,,,100,39,5,7,0.9,0.9
2026-01-19T0200,1403A,108.3205,22.8222,南宁市,市监测站,细颗粒物(PM2.5),59,56,64,42,55,118,,,,26,27,12,11,0.9,0.9
2026-01-19T0200,1404A,108.3828,22.8038,南宁市,大自然花园,颗粒物(PM10),55,59,69,33,49,124,,,,24,24,10,7,1.0,0.9
2026-01-19T0200,1406A,108.2397,22.8462,南宁市,区农职院,颗粒物(PM10),61,71,69,43,49,56,,,,61,31,10,11,1.0,1
2026-01-19T0200,1407A,108.3285,22.7356,南宁市,英华嘉园,细颗粒物(PM2.5),59,57,69,42,51,96,,,,30,32,8,8,0.9,0.9
2026-01-19T0200,3401A,108.4829,22.762,南宁市,红星社区,颗粒物(PM10),58,66,72,40,51,65,,,,46,25,5,6,0.6,0.7
2026-01-19T0200,4132A,108.2927,23.1477,南宁市,起凤路9号,细颗粒物(PM2.5),64,73,73,46,59,151,,,,20,22,4,3,0.7,0.7
2026-01-19T0200,4221A,108.2177,22.7774,南宁市,乐贤路16号,颗粒物(PM10),59,67,70,39,47,84,,,,62,35,8,6,1.0,0.9
2026-01-19T0200,2332A,118.1682,26.6371,南平市,南平市监测站,,49,46,48,34,34,9,,,,44,28,4,5,0.6,0.7
2026-01-19T0200,2334A,118.1757,26.6276,南平市,南平七中,,46,41,44,32,34,8,,,,46,27,3,4,0.7,0.7
2026-01-19T0200,1168A,120.9056,31.9669,南通市,狼山街道,,32,32,35,18,17,70,,,,8,13,2,3,0.2,0.3
2026-01-19T0200,1170A,120.8635,32.0231,南通市,城中,,36,36,41,13,16,65,,,,11,18,5,5,0.5,0.6
2026-01-19T0200,1171A,120.9376,31.9301,南通市,星湖花园,,37,37,36,16,17,74,,,,13,17,4,4,0.2,0.2
2026-01-19T0200,1172A,120.8053,32.046,南通市,紫琅学院,,35,35,45,9,14,72,,,,10,17,3,3,0.3,0.4
2026-01-19T0200,3291A,121.0631,32.0644,南通市,通州监测站,颗粒物(PM10),53,56,30,12,13,74,,,,12,14,3,3,0.5,0.6
2026-01-19T0200,3432A,120.9348,31.9874,南通市,环境教育馆,,36,36,36,19,15,72,,,,7,15,4,4,0.3,0.4
2026-01-19T0200,4091A,120.8692,31.9885,南通市,洪江路,,29,29,32,14,16,66,,,,9,14,3,3,0.2,0.3
2026-01-19T0200,2404A,112.5338,33.0086,南阳市,瓦房庄,,,56,60,55,55,,,,,10,18,5,5,0.7,0.8
2026-01-19T0200,2405A,112.5002,32.9734,南阳市,汉画馆,细颗粒物(PM2.5),65,58,62,47,50,50,,,,10,19,5,5,0.7,0.8
2026-01-19T0200,2406A,112.5778,33.0144,南阳市,气象站,,,59,64,44,43,,,,,12,20,4,4,0.5,0.6
2026-01-19T0200,2407A,112.548,32.9687,南阳市,理工学院,颗粒物(PM10),53,56,57,35,42,46,,,,15,23,4,4,0.7,0.8
2026-01-19T0200,4008A,112.5233,32.9921,南阳市,卧龙区政府,细颗粒物(PM2.5),73,60,65,53,50,49,,,,16,24,5,4,0.6,0.7
2026-01-19T0200,1234A,121.8352,29.9111,宁波市,区环保大楼,颗粒物(PM10),68,85,92,36,39,35,,,,37,67,5,7,0.6,0.8
2026-01-19T0200,1235A,121.5595,29.8208,宁波市,万里学院,颗粒物(PM10),61,72,85,40,48,47,,,,26,52,5,5,0.5,0.7
2026-01-19T0200,1236A,121.713,29.9564,宁波市,龙赛医院,,45,45,69,16,31,50,,,,23,53,4,4,0.6,0.7
2026-01-19T0200,1240A,121.5855,29.8635,宁波市,太古小学,,,69,88,23,37,,,,,15,43,4,5,0.4,0.7
2026-01-19T0200,1241A,121.5239,29.8673,宁波市,市环境监测中心,颗粒物(PM10),56,61,78,25,39,55,,,,16,48,6,8,0.6,0.8
2026-01-19T0200,2871A,121.6156,29.9015,宁波市,万里国际学校,,,52,83,19,35,58,,,,,61,5,6,0.5,0.7
2026-01-19T0200,3710A,121.5593,29.8976,宁波市,白沙活动中心,颗粒物(PM10),62,74,84,22,33,53,,,,21,50,4,6,0.2,0.4
2026-01-19T0200,4095A,121.8962,29.7529,宁波市,中科路88号,颗粒物(PM10),64,77,73,39,32,42,,,,41,42,6,6,0.4,0.4
2026-01-19T0200,2341A,119.5387,26.6611,宁德市,宁德市监测站,,20,,30,14,22,38,,,,30,19,2,4,0.4,0.5
2026-01-19T0200,3209A,119.5231,26.6562,宁德市,宁德一中,,18,18,29,11,23,54,,,,11,15,6,7,0.2,0.3
2026-01-19T0200,2618A,98.859,25.8541,怒江傈僳族自治州,州监测站,,46,46,36,32,26,31,,,,17,13,5,5,0.5,0.5
2026-01-19T0200,2619A,98.8607,25.8168,怒江傈僳族自治州,泸水一中,,33,28,38,23,26,26,,,,16,18,6,6,0.5,0.5
2026-01-19T0200,1888A,101.6891,26.571,攀枝花市,弄弄坪,细颗粒物(PM2.5),90,86,81,67,59,7,,,,57,33,16,25,1.6,1.7
2026-01-19T0200,1889A,101.577,26.5914,攀枝花市,河门口,细颗粒物(PM2.5),88,87,82,65,58,25,,,,35,28,14,21,1.3,1.5
2026-01-19T0200,1891A,101.7365,26.4986,攀枝花市,仁和,细颗粒物(PM2.5),63,69,72,45,48,33,,,,20,27,8,18,1.0,1.3
2026-01-19T0200,2835A,101.7222,26.567,攀枝花市,四十中小,细颗粒物(PM2.5),92,102,99,68,66,6,,,,62,45,31,22,3.4,2
2026-01-19T0200,1604A,122.0303,41.1489,盘锦市,开发区,,19,16,35,10,21,58,,,,6,9,1,2,0.5,0.5
2026-01-19T0200,1605A,122.0486,41.0883,盘锦市,兴隆台,,28,28,39,12,22,57,,,,6,16,5,6,0.5,0.6
2026-01-19T0200,1606A,121.8297,41.1026,盘锦市,新生街道,,23,19,31,16,17,29,,,,23,14,6,6,0.4,0.4
2026-01-19T0200,1832A,113.3257,33.7423,平顶山市,新华旅馆,,,47,68,35,45,,,,,15,21,4,4,0.5,0.6
2026-01-19T0200,1833A,113.2917,33.737,平顶山市,规划设计院,,,45,58,34,45,,,,,10,17,5,4,0.6,0.7
2026-01-19T0200,1834A,113.182,33.7738,平顶山市,平顶山工学院,,,55,55,39,44,,,,,18,22,7,6,0.5,0.5
2026-01-19T0200,3594A,112.8736,33.9068,平顶山市,石龙区,,,65,55,47,47,,,,,7,16,4,4,0.4,0.6
2026-01-19T0200,4116A,113.284,33.7139,平顶山市,姚电大道23号,,,51,62,41,49,,,,,15,22,6,5,0.7,0.7
2026-01-19T0200,2656A,106.6633,35.5338,平凉市,聚贤嘉苑,,36,36,93,17,27,70,,,,4,7,8,14,0.4,0.4
2026-01-19T0200,2657A,106.7021,35.5307,平凉市,博物馆,,42,42,92,14,28,72,,,,6,8,9,10,0.4,0.4
2026-01-19T0200,2348A,113.8384,27.6436,萍乡市,中医院,细颗粒物(PM2.5),127,139,131,96,90,1,,,,42,33,6,10,1.2,1.2
2026-01-19T0200,2350A,113.8677,27.6438,萍乡市,市环保局,细颗粒物(PM2.5),125,123,95,95,76,2,,,,40,32,16,19,1.3,1.2
2026-01-19T0200,2351A,113.8663,27.6202,萍乡市,安源区政府,细颗粒物(PM2.5),189,169,121,142,121,0,,,,37,36,12,15,1.3,1.4
2026-01-19T0200,4107A,113.8686,27.6668,萍乡市,联洪村委会,细颗粒物(PM2.5),148,151,124,113,92,9,,,,38,24,7,8,1.4,1
2026-01-19T0200,2319A,119.0142,25.4324,莆田市,荔城区仓后路,,40,40,40,28,23,55,,,,15,18,/,/,/,/
2026-01-19T0200,2320A,119.0016,25.4553,莆田市,莆田市监测站,,32,28,34,22,22,49,,,,9,12,2,3,0.7,0.7
2026-01-19T0200,2321A,119.112,25.4561,莆田市,涵江区六中,,30,30,34,20,21,79,,,,12,20,/,/,0.4,0.4
2026-01-19T0200,2322A,119.1014,25.3215,莆田市,秀屿区政府,,26,23,34,11,16,83,,,,10,11,2,3,0.6,0.7
2026-01-19T0200,2392A,115.0312,35.7636,濮阳市,环保局,,49,40,51,34,39,29,,,,18,23,5,5,0.6,0.6
2026-01-19T0200,3021A,115,35.7667,濮阳市,濮水河管理处,细颗粒物(PM2.5),53,46,63,37,37,32,,,,20,25,4,4,0.7,0.8
2026-01-19T0200,4118A,115.0552,35.7816,濮阳市,中原东路68号,,46,46,61,32,38,30,,,,22,26,3,4,0.2,0.3
2026-01-19T0200,4216A,115.0923632,35.76857718,濮阳市,任丘路479号,,50,44,61,35,40,33,,,,17,25,4,4,0.5,0.6
2026-01-19T0200,2601A,100.9801,22.7634,普洱市,市环保局,,47,47,49,18,19,32,,,,8,11,5,5,0.4,0.4
2026-01-19T0200,2602A,100.9763,22.8237,普洱市,普洱第二中学,,34,34,42,16,24,2,,,,36,19,5,5,0.3,0.3
2026-01-19T0200,3345A,131.0413,45.7795,七台河市,中波台,"颗粒物(PM10),细颗粒物(PM2.5)",53,55,47,37,32,25,,,,26,26,6,8,0.8,0.6
2026-01-19T0200,3637A,131.0136,45.7688,七台河市,人民广场,细颗粒物(PM2.5),63,74,53,45,41,19,,,,37,35,5,7,0.8,0.7
2026-01-19T0200,3684A,130.8639,45.8144,七台河市,新建矿广场,颗粒物(PM10),54,58,45,37,32,14,,,,35,22,3,4,0.4,0.3
2026-01-19T0200,1779A,123.9307,47.3641,齐齐哈尔市,安居小区,,18,18,23,3,15,52,,,,6,12,1,3,0.3,0.5
2026-01-19T0200,1780A,123.9497,47.3389,齐齐哈尔市,中心广场,,18,18,18,9,11,52,,,,5,12,5,6,0.6,0.7
2026-01-19T0200,1781A,123.9483,47.3229,齐齐哈尔市,农牧车辆厂,,19,19,24,10,13,51,,,,4,9,4,6,0.3,0.3
2026-01-19T0200,1783A,123.9442,47.2994,齐齐哈尔市,市环境监测站,,17,17,26,3,14,54,,,,3,12,3,4,0.6,0.7
2026-01-19T0200,3662A,123.6341,47.2079,齐齐哈尔市,富区青少年活动中心,,17,14,33,7,18,54,,,,4,15,4,7,0.5,0.6
2026-01-19T0200,2591A,107.9765,26.5724,黔东南苗族侗族自治州,市环境监测站,,35,29,53,24,46,88,,,,4,16,3,5,0.2,0.6
2026-01-19T0200,2881A,107.8909,26.531,黔东南苗族侗族自治州,凯里学院,,39,39,49,25,37,89,,,,8,10,1,1,0.2,0.3
2026-01-19T0200,2593A,107.5223,26.2371,黔南布依族苗族自治州,小围寨,,42,31,42,29,35,74,,,,4,5,6,6,0.8,0.8
2026-01-19T0200,3538A,107.5175,26.2977,黔南布依族苗族自治州,沙坝,,45,36,45,31,36,73,,,,7,8,4,4,0.8,0.8
2026-01-19T0200,2589A,104.9022,25.0943,黔西南布依族苗族自治州,场坝街,细颗粒物(PM2.5),64,65,50,46,36,26,,,,22,10,4,4,0.7,0.6
2026-01-19T0200,2590A,104.8812,25.0994,黔西南布依族苗族自治州,坪东大道,细颗粒物(PM2.5),69,52,50,50,43,11,,,,23,18,5,6,0.8,0.8
2026-01-19T0200,2502A,108.6238,21.9667,钦州市,市环保站,细颗粒物(PM2.5),70,78,93,51,54,78,,,,36,32,6,7,0.6,0.7
2026-01-19T0200,2503A,108.655,21.9481,钦州市,沙埠小学,细颗粒物(PM2.5),63,71,89,45,46,40,,,,68,42,4,9,0.6,0.6
2026-01-19T0200,2504A,108.5989,21.7435,钦州市,港区一小,颗粒物(PM10),96,142,97,56,46,23,,,,91,52,10,10,1.2,0.9
2026-01-19T0200,3404A,108.5959,21.9634,钦州市,北职校,颗粒物(PM10),85,120,78,60,52,6,,,,62,37,8,9,1.0,0.9
2026-01-19T0200,1046A,119.5247,39.9346,秦皇岛市,建设大厦,,43,,39,30,34,48,,,,10,13,8,9,0.4,0.4
2026-01-19T0200,3132A,119.5979,39.938,秦皇岛市,文明里,,50,42,45,35,27,26,,,,32,21,10,14,0.4,0.4
2026-01-19T0200,4066A,119.7458,39.9952,秦皇岛市,南园路157号,,38,38,51,11,24,23,,,,36,24,8,11,0.4,0.4
2026-01-19T0200,4067A,119.5131,39.8858,秦皇岛市,翠岛大街1号,,38,38,50,23,21,45,,,,10,14,10,13,0.4,0.4
2026-01-19T0200,4198A,119.509013,39.825305,秦皇岛市,北戴河轮滑馆,,48,48,45,30,29,35,,,,26,15,7,9,0.4,0.4
2026-01-19T0200,1310A,120.404,36.0625,青岛市,市南区东部子站,,34,34,25,22,17,62,,,,9,21,7,8,0.5,0.5
2026-01-19T0200,1311A,120.362344,36.10282,青岛市,四方区子站,,31,31,29,19,18,58,,,,2,10,3,2,0.6,0.7
2026-01-19T0200,1312A,120.294373,36.054183,青岛市,市南区西部子站,,31,31,26,10,14,63,,,,10,20,6,7,0.8,0.8
2026-01-19T0200,1313A,120.4581,36.0858,青岛市,崂山区子站,,27,27,19,17,13,62,,,,9,18,9,9,0.2,0.2
2026-01-19T0200,1315A,120.3945,36.3083,青岛市,城阳区子站,,39,39,25,17,15,68,,,,9,14,5,6,0.7,0.7
2026-01-19T0200,3642A,120.3454,36.0735,青岛市,市北区南部,,43,43,36,22,15,57,,,,10,22,1,2,0.6,0.7
2026-01-19T0200,3643A,120.3897,36.18,青岛市,李沧区北部,,42,34,24,29,21,60,,,,6,17,8,8,0.6,0.7
2026-01-19T0200,4110A,120.5222,36.4089,青岛市,盟旺路653号,颗粒物(PM10),56,62,28,18,14,60,,,,16,19,2,2,0.4,0.5
2026-01-19T0200,4290A,120.196923,35.954556,青岛市,珠江路669号,,39,36,20,27,19,53,,,,17,25,8,9,0.3,0.5
2026-01-19T0200,4291A,120.0424,35.8656,青岛市,黄岛区人民政府广场,,36,36,26,17,13,67,,,,12,19,7,6,0.7,0.7
2026-01-19T0200,1703A,113.0218,23.7086,清远市,凤城街办,细颗粒物(PM2.5),89,98,103,66,73,97,,,,50,50,/,/,/,/
2026-01-19T0200,3025A,113.0479,23.6343,清远市,技师学院,细颗粒物(PM2.5),82,94,116,60,68,44,,,,68,78,6,15,0.6,0.6
2026-01-19T0200,3318A,112.9898,23.7403,清远市,清新太和,细颗粒物(PM2.5),85,103,104,63,67,133,,,,46,44,3,3,0.7,0.8
2026-01-19T0200,3455A,113.076,23.72,清远市,清城东城,细颗粒物(PM2.5),69,83,94,50,59,104,,,,28,45,/,/,/,/
2026-01-19T0200,2661A,107.6325,35.7357,庆阳市,庆阳五中,颗粒物(PM10),66,82,89,25,31,54,,,,10,13,5,6,0.4,0.4
2026-01-19T0200,2662A,107.6361,35.7067,庆阳市,市环保局,颗粒物(PM10),69,87,91,21,20,56,,,,10,12,7,8,0.5,0.5
2026-01-19T0200,1916A,103.7897,25.5036,曲靖市,环境监测站,,26,26,31,12,14,71,,,,10,14,4,4,0.5,0.5
2026-01-19T0200,1917A,103.8013,25.5357,曲靖市,烟厂办公区,,27,27,34,12,16,74,,,,8,16,4,5,0.2,0.3
2026-01-19T0200,3376A,103.7926,25.4651,曲靖市,南苑二区,,28,28,26,7,13,76,,,,4,7,3,4,0.4,0.4
2026-01-19T0200,3377A,103.7442,25.5259,曲靖市,曲靖师范学院,,36,36,35,18,18,67,,,,14,15,5,5,0.2,0.1
2026-01-19T0200,1264A,118.8694,28.94,衢州市,环保大楼,细颗粒物(PM2.5),112,118,128,84,91,40,,,,36,42,/,/,/,/
2026-01-19T0200,1266A,118.8622,28.9809,衢州市,衢州学院,细颗粒物(PM2.5),122,133,117,92,83,32,,,,41,37,4,5,0.8,0.7
2026-01-19T0200,4097A,118.9646,28.9832,衢州市,衢州三中,细颗粒物(PM2.5),117,123,127,88,90,20,,,,48,51,5,5,0.9,0.9
2026-01-19T0200,1611A,118.5818,24.9116,泉州市,涂山街,,28,,40,19,28,83,,,,11,20,3,4,0.5,0.6
2026-01-19T0200,1612A,118.597,24.8976,泉州市,津头埔,,28,,38,19,27,75,,,,15,21,4,5,0.5,0.6
2026-01-19T0200,1613A,118.6669,24.9422,泉州市,万安,,22,20,38,3,26,68,,,,13,20,3,4,0.5,0.6
2026-01-19T0200,4105A,118.6355,24.9148,泉州市,霞新路6号,,29,29,36,18,25,73,,,,16,21,/,/,0.4,0.5
2026-01-19T0200,2626A,88.8873,29.2723,日喀则市,日喀则监测站,,25,16,30,9,13,80,,,,6,7,10,11,0.5,0.5
2026-01-19T0200,3726A,88.8775,29.2425,日喀则市,林业技术推广中心,,29,9,31,3,11,92,,,,2,6,9,10,0.2,0.3
2026-01-19T0200,1659A,119.4711,35.421,日照市,监测站,,30,27,31,21,24,64,,,,10,20,6,6,0.5,0.6
2026-01-19T0200,1660A,119.523,35.4216,日照市,市政府广场,,24,24,29,16,20,66,,,,14,19,7,8,0.3,0.3
2026-01-19T0200,1661A,119.5511,35.4113,日照市,港务局,,38,29,32,26,27,65,,,,14,21,5,6,0.5,0.5
2026-01-19T0200,3507A,119.5326,35.4627,日照市,职业技术学院,,29,29,32,12,17,64,,,,12,20,6,6,0.6,0.7
2026-01-19T0200,3604A,119.3267,35.1043,日照市,岚山环保分局,细颗粒物(PM2.5),74,58,48,54,30,56,,,,18,24,28,15,2.4,1.5
2026-01-19T0200,1835A,111.1922,34.7752,三门峡市,市政府,细颗粒物(PM2.5),94,82,55,70,56,0,,,,42,32,11,8,1.0,0.8
2026-01-19T0200,1836A,111.1588,34.794,三门峡市,开发区,细颗粒物(PM2.5),85,82,68,63,50,3,,,,40,29,6,4,0.9,0.8
2026-01-19T0200,3039A,111.1911,34.7829,三门峡市,三门峡市第一小学,细颗粒物(PM2.5),84,80,62,62,50,2,,,,45,32,8,8,0.9,0.7
2026-01-19T0200,3598A,111.1031,34.719,三门峡市,富达温泉假日酒店,细颗粒物(PM2.5),107,105,71,80,56,2,,,,40,32,12,7,1.4,0.8
2026-01-19T0200,2324A,117.621,26.2626,三明市,三钢,细颗粒物(PM2.5),63,,50,45,41,29,,,,34,31,4,7,0.7,0.9
2026-01-19T0200,2325A,117.6352,26.2714,三明市,三明二中,细颗粒物(PM2.5),52,47,49,36,37,18,,,,41,26,2,2,0.7,0.8
2026-01-19T0200,2326A,117.6028,26.2377,三明市,三元区政府,细颗粒物(PM2.5),69,59,60,50,44,21,,,,34,37,5,10,0.9,1.4
2026-01-19T0200,1877A,109.4962,18.2682,三亚市,河西子站,,45,45,45,20,21,49,,,,19,20,3,2,0.4,0.4
2026-01-19T0200,3540A,109.7348,18.3443,三亚市,君悦子站,,23,19,39,16,19,32,,,,20,15,4,4,0.5,0.4
2026-01-19T0200,4135A,109.1714,18.3739,三亚市,城东小学站,,48,38,39,33,27,46,,,,12,11,/,/,/,/
2026-01-19T0200,2624A,91.7592,29.234,山南市,山南监测站,,28,12,21,6,14,89,,,,1,8,5,5,0.4,0.5
2026-01-19T0200,2625A,91.7701,29.2436,山南市,山南人民医院,,25,12,23,6,12,78,,,,4,12,6,8,0.3,0.4
2026-01-19T0200,1674A,116.6795,23.3666,汕头市,金平子站,,49,43,44,34,33,67,,,,21,19,5,6,0.7,0.7
2026-01-19T0200,1675A,116.7248,23.3632,汕头市,龙湖子站,,38,36,45,26,26,72,,,,16,15,10,11,/,/
2026-01-19T0200,1676A,116.7257,23.2774,汕头市,濠江子站,,49,49,42,30,28,64,,,,18,17,8,8,/,/
2026-01-19T0200,1677A,116.7518,23.4712,汕头市,澄海子站,细颗粒物(PM2.5),57,46,59,40,42,76,,,,18,22,6,9,0.6,0.6
2026-01-19T0200,1678A,116.6088,23.2539,汕头市,潮阳子站,,45,37,43,31,26,64,,,,14,13,6,7,0.8,0.7
2026-01-19T0200,3444A,116.4539,23.2684,汕头市,潮南峡山,颗粒物(PM10),51,51,60,34,41,63,,,,17,20,8,10,0.6,0.6
2026-01-19T0200,3624A,116.4069,23.2533,汕头市,潮南子站,颗粒物(PM10),65,79,74,42,42,71,,,,18,22,6,9,/,/
2026-01-19T0200,1693A,115.3653,22.7751,汕尾市,市环保局,,46,43,47,32,34,90,,,,11,16,7,8,0.8,0.7
2026-01-19T0200,1695A,115.362,22.7926,汕尾市,新城中学,"颗粒物(PM10),细颗粒物(PM2.5)",55,59,53,39,36,82,,,,13,16,5,6,0.5,0.5
2026-01-19T0200,2645A,109.9155,33.8714,商洛市,监测站,细颗粒物(PM2.5),97,106,141,72,94,22,,,,24,30,4,7,0.8,0.8
2026-01-19T0200,3045A,109.9647,33.8486,商洛市,商州区中学,细颗粒物(PM2.5),100,94,125,75,98,15,,,,30,33,4,6,0.9,1
2026-01-19T0200,2408A,115.6701,34.4283,商丘市,环境监测站,,46,36,39,32,35,34,,,,15,20,3,1,0.5,0.6
2026-01-19T0200,2409A,115.6458,34.4047,商丘市,粮食局,,,,37,36,33,,,,,11,16,1,1,0.6,0.7
2026-01-19T0200,3171A,115.6069,34.4465,商丘市,梁园区档案局,细颗粒物(PM2.5),54,,32,38,32,33,,,,13,18,3,3,0.4,0.5
2026-01-19T0200,4119A,115.6701,34.3767,商丘市,北海东路185号,,48,36,47,33,32,31,,,,14,19,1,1,0.5,0.6
2026-01-19T0200,4120A,115.6172,34.3704,商丘市,中山大街3号,细颗粒物(PM2.5),52,38,49,36,39,33,,,,14,19,3,3,0.5,0.5
2026-01-19T0200,1141A,121.401,31.2382,上海市,普陀,,50,50,47,23,23,79,,,,16,36,5,6,0.6,0.6
2026-01-19T0200,1142A,121.4774,31.2043,上海市,十五厂,颗粒物(PM10),53,56,53,26,21,72,,,,20,33,6,6,0.5,0.5
2026-01-19T0200,1143A,121.4673,31.3011,上海市,虹口,颗粒物(PM10),53,56,52,19,21,71,,,,12,38,6,7,0.5,0.5
2026-01-19T0200,1147A,121.4253,31.226,上海市,静安监测站,颗粒物(PM10),52,53,49,24,22,80,,,,17,35,6,6,0.5,0.6
2026-01-19T0200,1148A,121.7029,31.1905,上海市,浦东川沙,颗粒物(PM10),52,53,41,19,14,69,,,,22,28,7,7,0.4,0.3
2026-01-19T0200,1149A,121.5339,31.229,上海市,浦东新区监测站,,50,50,44,23,22,66,,,,28,33,6,6,0.5,0.5
2026-01-19T0200,1150A,121.5776,31.2038,上海市,浦东张江,颗粒物(PM10),51,51,45,23,19,81,,,,28,36,6,6,0.2,0.2
2026-01-19T0200,3265A,121.4242,31.3303,上海市,宝山庙行,,49,49,47,19,19,70,,,,12,37,6,7,0.3,0.3
2026-01-19T0200,3266A,121.8789,31.4662,上海市,崇明上实东滩,,39,39,29,18,11,84,,,,12,13,3,4,0.6,0.4
2026-01-19T0200,3268A,121.316,31.2839,上海市,嘉定南翔,颗粒物(PM10),57,63,47,27,22,64,,,,18,37,4,4,0.8,0.4
2026-01-19T0200,3269A,121.3357,30.7455,上海市,金山新城,颗粒物(PM10),58,66,51,32,28,63,,,,20,29,6,7,0.6,0.6
2026-01-19T0200,3270A,121.4996,31.0741,上海市,闵行浦江,颗粒物(PM10),57,64,51,25,20,65,,,,23,28,6,6,0.4,0.4
2026-01-19T0200,3271A,121.2886,31.1663,上海市,青浦徐泾,颗粒物(PM10),58,65,51,25,23,70,,,,24,43,4,4,0.5,0.5
2026-01-19T0200,3272A,121.2193,31.0382,上海市,松江图书馆,颗粒物(PM10),57,64,56,26,26,70,,,,21,38,5,6,0.4,0.5
2026-01-19T0200,3273A,121.3904,31.206,上海市,长宁仙霞,颗粒物(PM10),52,54,49,25,21,77,,,,10,25,6,6,0.2,0.3
2026-01-19T0200,3274A,121.7964,31.0507,上海市,浦东惠南,,50,50,42,21,19,70,,,,30,31,3,3,0.6,0.4
2026-01-19T0200,3544A,121.4891,30.925,上海市,奉贤南桥新城,颗粒物(PM10),62,74,54,30,21,75,,,,21,28,2,2,0.4,0.4
2026-01-19T0200,4183A,121.417401,31.16637,上海市,冠生园路458号,,,,47,34,24,72,,,,22,39,6,5,0.5,0.5
2026-01-19T0200,4205A,121.541914,31.268301,上海市,宁武路151号,,47,47,49,23,20,68,,,,24,42,5,5,0.6,0.6
2026-01-19T0200,2382A,117.9758,28.4439,上饶市,市监测站,颗粒物(PM10),84,117,98,55,60,57,,,,43,27,13,9,/,/
2026-01-19T0200,2383A,117.9521,28.4637,上饶市,凤凰光学,颗粒物(PM10),80,110,106,43,67,47,,,,50,32,12,11,0.9,0.9
2026-01-19T0200,3685A,117.897,28.4316,上饶市,双创科技城,细颗粒物(PM2.5),92,119,98,68,62,71,,,,44,34,10,8,1.0,1
2026-01-19T0200,4211A,118.190438,28.444845,上饶市,裕丰大道,细颗粒物(PM2.5),125,146,117,95,79,47,,,,52,34,18,14,1.4,1.1
2026-01-19T0200,1669A,113.5821,24.7733,韶关市,市八中,细颗粒物(PM2.5),109,134,108,82,70,28,,,,49,48,8,13,1.0,0.9
2026-01-19T0200,1671A,113.5916,24.7973,韶关市,园林处,细颗粒物(PM2.5),124,106,77,94,71,6,,,,83,50,9,12,/,/
2026-01-19T0200,1673A,113.5971,24.6864,韶关市,曲江监测站,细颗粒物(PM2.5),89,98,100,66,71,58,,,,39,36,11,20,0.8,1.1
2026-01-19T0200,2809A,113.6668,24.7756,韶关市,大学路288号,细颗粒物(PM2.5),98,82,78,73,64,47,,,,17,24,8,14,/,/
2026-01-19T0200,3622A,113.5556,24.8082,韶关市,碧湖山庄,细颗粒物(PM2.5),90,107,96,67,64,77,,,,23,30,6,10,0.7,0.7
2026-01-19T0200,2464A,111.5277,27.2442,邵阳市,市化工厂,,,79,124,72,97,18,,,,27,25,,8,1.0,0.9
2026-01-19T0200,2466A,111.4327,27.2276,邵阳市,市环保局,细颗粒物(PM2.5),77,62,100,56,101,17,,,,20,19,2,3,1.5,1.3
2026-01-19T0200,4218A,111.446,27.2472,邵阳市,北塔二期4-26地块,,,26,102,,129,15,,,,20,20,,7,1.6,1.3
2026-01-19T0200,4219A,111.4739,27.2282,邵阳市,邵水西路287号,细颗粒物(PM2.5),97,,106,72,97,14,,,,23,20,6,8,1.5,1.2
2026-01-19T0200,1247A,120.6053,29.9927,绍兴市,城东开发委,颗粒物(PM10),55,59,76,37,48,61,,,,15,28,8,8,0.4,0.5
2026-01-19T0200,2921A,120.5482,30.0003,绍兴市,树下王站,颗粒物(PM10),52,53,78,30,45,63,,,,14,27,6,6,0.6,0.7
2026-01-19T0200,3408A,120.5685,29.936,绍兴市,绍兴中专,颗粒物(PM10),65,80,83,43,44,34,,,,28,32,6,6,0.4,0.5
2026-01-19T0200,3409A,120.4905,30.086,绍兴市,柯桥区政府,,50,50,61,22,29,44,,,,28,31,5,6,0.5,0.6
2026-01-19T0200,3410A,120.8751,30.0249,绍兴市,重华小学,"颗粒物(PM10),细颗粒物(PM2.5)",68,86,80,49,47,28,,,,37,38,5,6,0.3,0.4
2026-01-19T0200,3411A,120.837,30.0137,绍兴市,上虞中学,颗粒物(PM10),61,71,85,37,47,1,,,,50,40,6,7,0.5,0.6
2026-01-19T0200,3560A,120.4715,30.0414,绍兴市,柯桥妇保,颗粒物(PM10),63,76,78,38,45,47,,,,23,32,6,6,0.3,0.5
2026-01-19T0200,3658A,120.6156,30.0762,绍兴市,袍江中学,颗粒物(PM10),54,58,70,26,32,57,,,,21,30,3,3,1.1,1.1
2026-01-19T0200,1356A,114.0948,22.5506,深圳市,通心岭子站,,48,48,43,28,27,93,,,,13,14,7,9,0.5,0.4
2026-01-19T0200,1357A,114.1153,22.5713,深圳市,洪湖,,,58,56,33,29,,,,,25,28,8,9,0.7,0.7
2026-01-19T0200,1358A,113.9823,22.5398,深圳市,华侨城,"颗粒物(PM10),细颗粒物(PM2.5)",52,54,44,36,29,78,,,,30,26,/,/,/,/
2026-01-19T0200,1359A,113.9181,22.517,深圳市,南海子站,颗粒物(PM10),56,62,48,37,30,83,,,,25,30,6,7,0.8,0.7
2026-01-19T0200,1360A,114.2345,22.565,深圳市,盐田,,43,43,42,26,26,101,,,,11,28,7,9,0.7,0.7
2026-01-19T0200,1363A,114.4911,22.5381,深圳市,南澳,,35,35,40,24,24,72,,,,8,10,/,/,/,/
2026-01-19T0200,1364A,114.41,22.6346,深圳市,葵涌,,50,50,43,31,26,34,,,,27,24,6,8,0.7,0.7
2026-01-19T0200,1365A,114.2967,22.5978,深圳市,梅沙,,39,39,42,23,25,118,,,,8,13,/,/,/,/
2026-01-19T0200,1366A,114.0563,22.7353,深圳市,观澜,细颗粒物(PM2.5),108,144,87,81,44,20,,,,74,58,8,8,0.9,0.7
2026-01-19T0200,3305A,114.0614,22.556,深圳市,莲花,,,50,44,31,27,,,,,24,22,/,/,/,/
2026-01-19T0200,3306A,114.0144,22.6163,深圳市,民治,颗粒物(PM10),55,60,50,30,31,89,,,,33,34,/,/,/,/
2026-01-19T0200,3307A,114.1756,22.6421,深圳市,横岗,二氧化氮(NO2),59,66,52,40,31,2,,,,118,49,/,/,/,/
2026-01-19T0200,3447A,114.344,22.7115,深圳市,坪山,颗粒物(PM10),52,53,63,31,32,82,,,,24,37,8,9,0.7,0.7
2026-01-19T0200,3623A,113.8952,22.586,深圳市,西乡,颗粒物(PM10),59,68,53,35,28,61,,,,45,47,5,6,0.9,0.8
2026-01-19T0200,4220A,114.214113,22.713717,深圳市,黄阁路,细颗粒物(PM2.5),63,71,55,45,32,46,,,,54,30,6,7,0.8,0.7
2026-01-19T0200,1099A,123.5058,41.7084,沈阳市,浑南东路,,32,29,42,22,32,54,,,,18,43,9,13,0.6,0.7
2026-01-19T0200,1100A,123.4238,41.6992,沈阳市,新秀街,,28,,34,19,28,58,,,,11,32,7,11,0.4,0.6
2026-01-19T0200,1102A,123.5903,41.8412,沈阳市,东陵路,,50,50,43,33,32,13,,,,50,36,6,7,0.7,0.7
2026-01-19T0200,1103A,123.4267,41.8466,沈阳市,陵东街,,31,31,51,19,35,36,,,,27,38,10,13,0.5,0.7
2026-01-19T0200,1104A,123.4116,41.7654,沈阳市,文化路,,26,24,39,18,27,49,,,,20,32,47,28,0.5,0.6
2026-01-19T0200,1105A,123.4673,41.787,沈阳市,小河沿,,25,25,37,17,30,45,,,,14,26,19,15,0.6,0.7
2026-01-19T0200,1106A,123.4019,41.7978,沈阳市,太原街,,28,24,41,19,37,54,,,,15,34,14,17,0.3,0.5
2026-01-19T0200,1108A,123.3778,41.9233,沈阳市,京沈街,,29,21,34,20,31,43,,,,29,29,6,8,0.5,0.5
2026-01-19T0200,2897A,123.2429,41.7341,沈阳市,沈辽西路,,,,67,,42,,,12,,,65,,15,,0.9
2026-01-19T0200,2900A,123.5951,41.9085,沈阳市,裕农路,细颗粒物(PM2.5),57,46,44,40,35,7,,,,59,38,7,8,0.7,0.6
2026-01-19T0200,2429A,110.78,32.6494,十堰市,滨河新村,,,65,86,54,78,,,,,20,22,/,/,0.9,1.1
2026-01-19T0200,2430A,110.7305,32.6408,十堰市,刘家沟,,,55,107,46,79,,,,,27,28,/,/,/,/
2026-01-19T0200,2431A,110.8843,32.5712,十堰市,铁二处,细颗粒物(PM2.5),75,71,90,55,70,14,,,,23,27,7,8,1.0,1.1
2026-01-19T0200,3545A,110.8053,32.8401,十堰市,郧阳区金沙路,,,46,81,42,60,,,,,27,28,4,6,1.0,1.1
2026-01-19T0200,2709A,86.0391,44.298,石河子市,艾青诗歌馆,细颗粒物(PM2.5),89,67,53,66,46,41,,,,31,28,5,7,0.7,0.5
2026-01-19T0200,3442A,86.047,44.2331,石河子市,南区管委会,,,84,73,62,55,,,,,33,30,6,6,0.9,0.8
2026-01-19T0200,4051A,86.0791,44.3018,石河子市,世纪广场,细颗粒物(PM2.5),87,,53,64,46,44,,,,21,27,6,10,0.6,0.6
2026-01-19T0200,4167A,86.0126,44.2349,石河子市,城南景苑小区,细颗粒物(PM2.5),75,89,75,55,42,44,,,,18,18,3,3,0.7,0.6
2026-01-19T0200,1030A,114.5919,38.0328,石家庄市,高新区,细颗粒物(PM2.5),59,64,59,42,43,29,,,,24,23,4,3,0.7,0.5
2026-01-19T0200,1032A,114.4556,38.0136,石家庄市,西南高教,细颗粒物(PM2.5),67,66,66,48,40,26,,,,25,23,3,3,0.6,0.5
2026-01-19T0200,1033A,114.533,38.0177,石家庄市,世纪公园,细颗粒物(PM2.5),59,55,62,42,43,27,,,,14,11,5,4,0.6,0.5
2026-01-19T0200,1034A,114.5105,38.0489,石家庄市,人民会堂,细颗粒物(PM2.5),62,63,62,44,40,28,,,,22,20,3,3,0.6,0.5
2026-01-19T0200,3456A,114.2887,38.0905,石家庄市,鹿泉一中,细颗粒物(PM2.5),73,69,66,53,48,22,,,,29,23,1,1,0.6,0.5
2026-01-19T0200,4024A,114.6491,37.9014,石家庄市,栾城区星河路,细颗粒物(PM2.5),64,58,53,46,41,29,,,,22,18,5,3,0.6,0.5
2026-01-19T0200,4059A,114.4563,38.0365,石家庄市,裕华西路63号,细颗粒物(PM2.5),73,,50,53,47,26,,,,23,22,1,3,0.7,0.6
2026-01-19T0200,4060A,114.5586,38.0581,石家庄市,和平路363号,细颗粒物(PM2.5),58,58,51,41,41,26,,,,27,24,2,3,0.6,0.5
2026-01-19T0200,4061A,114.8347,38.0213,石家庄市,廉州西路160号,细颗粒物(PM2.5),69,64,54,50,42,22,,,,14,12,1,1,0.7,0.6
2026-01-19T0200,4062A,114.4498,38.0729,石家庄市,北城路41号,"颗粒物(PM10),细颗粒物(PM2.5)",60,70,59,43,36,29,,,,24,21,1,3,0.5,0.5
2026-01-19T0200,4314A,114.0494,38.059,石家庄市,矿区区委大楼,"颗粒物(PM10),细颗粒物(PM2.5)",60,70,59,43,37,13,,,,31,21,3,3,0.6,0.5
