timepoint,stationcode,longitude,latitude,area,positionname,primarypollutant,aqi,pm10,pm10_24h,pm2_5,pm2_5_24h,o3,o3_24h,o3_8h,o3_8h_24h,no2,no2_24h,so2,so2_24h,co,co_24h
2026-01-19T0100,2568A,102.2503,31.8896,阿坝藏族羌族自治州,马师校,,32,,26,22,19,23,,,,24,20,3,4,0.6,0.6
2026-01-19T0100,3994A,102.2174,31.9016,阿坝藏族羌族自治州,马尔康中学西区,,30,30,14,10,12,26,,,,24,15,6,5,0.5,0.5
2026-01-19T0100,2695A,80.2899,41.1684,阿克苏地区,电视台,颗粒物(PM10),500,666,397,126,73,38,,,,33,27,9,6,1.4,1.2
2026-01-19T0100,2696A,80.2592,41.1541,阿克苏地区,艺术中心,颗粒物(PM10),500,669,408,134,83,51,,,,29,19,5,5,0.7,0.7
2026-01-19T0100,2205A,105.699,38.8409,阿拉善盟,蒙二幼,,46,46,48,9,12,61,,,,8,7,9,10,0.3,0.5
2026-01-19T0100,2206A,105.7198,38.8508,阿拉善盟,环保局新楼,,36,36,46,12,13,55,,,,4,5,8,8,0.5,0.5
2026-01-19T0100,2708A,88.1266,47.8515,阿勒泰地区,市站,,23,9,17,3,9,72,,,,5,19,2,6,0.3,0.5
2026-01-19T0100,4166A,88.1198,47.7931,阿勒泰地区,阿勒泰路33号,,24,6,16,3,6,74,,,,6,18,2,10,0.3,0.4
2026-01-19T0100,2630A,80.1171,32.4999,阿里地区,阿里监测站,,18,6,3,3,3,56,,,,13,2,11,6,0.6,0.4
2026-01-19T0100,3192A,80.0906,32.5029,阿里地区,阿里藏医院,,28,10,9,8,4,87,,,,1,2,10,10,0.5,0.4
2026-01-19T0100,2644A,109.0088,32.6974,安康市,汉滨区检察院,细颗粒物(PM2.5),105,103,113,79,87,42,,,,26,25,4,4,0.9,0.9
2026-01-19T0100,4054A,109.0324,32.6913,安康市,市邮政管理局,,,,144,,102,,,49,,,30,,6,,1.0
2026-01-19T0100,2291A,117.0806,30.5181,安庆市,环科院,颗粒物(PM10),102,154,156,58,117,18,,,,16,20,5,6,0.4,0.8
2026-01-19T0100,2292A,117.0331,30.5118,安庆市,马山宾馆,颗粒物(PM10),86,122,150,63,114,24,,,,18,22,4,5,0.8,1.1
2026-01-19T0100,2294A,116.9897,30.6146,安庆市,安庆大学,颗粒物(PM10),71,91,154,42,110,15,,,,21,21,3,3,0.5,0.8
2026-01-19T0100,3173A,117.0598,30.5351,安庆市,市人大,颗粒物(PM10),90,130,163,59,116,19,,,,21,26,4,6,0.4,0.7
2026-01-19T0100,3123A,105.9408,26.2431,安顺市,凤凰山,,40,36,48,28,36,84,,,,14,13,13,13,0.4,0.5
2026-01-19T0100,3124A,105.9443,26.2567,安顺市,金钟山,,40,37,49,28,37,80,,,,9,10,14,15,0.4,0.5
2026-01-19T0100,3125A,105.8983,26.248,安顺市,娄家坡,,43,34,42,30,35,86,,,,8,10,9,10,0.6,0.6
2026-01-19T0100,1819A,114.3552,36.1017,安阳市,红庙街,细颗粒物(PM2.5),67,51,59,48,43,18,,,,25,23,3,3,0.7,0.7
2026-01-19T0100,1820A,114.361,36.0681,安阳市,银杏小区,细颗粒物(PM2.5),79,,62,58,48,20,,,,26,25,1,1,0.5,0.5
2026-01-19T0100,3141A,114.3921,36.0879,安阳市,信访局,细颗粒物(PM2.5),67,79,59,48,45,26,,,,26,27,2,2,0.7,0.7
2026-01-19T0100,3669A,114.4706,36.0634,安阳市,左辅环卫站,细颗粒物(PM2.5),67,58,67,48,47,30,,,,17,17,1,2,0.5,0.5
2026-01-19T0100,4117A,114.2918,36.0769,安阳市,钢三路198号,细颗粒物(PM2.5),84,77,70,62,53,25,,,,24,24,1,2,0.8,0.7
2026-01-19T0100,1748A,123.0441,41.1201,鞍山市,深沟寺,,39,34,41,27,29,36,,,,26,25,9,9,0.9,1
2026-01-19T0100,1749A,123.011,41.0931,鞍山市,太阳城,,30,30,37,19,25,51,,,,19,20,14,12,0.8,0.9
2026-01-19T0100,1750A,123.0483,41.1445,鞍山市,太平,,48,48,51,31,31,36,,,,29,25,17,12,0.8,0.9
2026-01-19T0100,1751A,122.964,41.0968,鞍山市,铁西三道街,,31,31,44,16,27,37,,,,35,33,25,26,1.1,1.4
2026-01-19T0100,1753A,123.0219,41.0822,鞍山市,明达新区,,28,28,35,19,24,49,,,,17,20,15,14,0.6,0.6
2026-01-19T0100,4201A,122.944647,41.082639,鞍山市,兴盛南路290号,,37,37,49,19,31,30,,,,39,31,34,24,2.3,1.6
2026-01-19T0100,2195A,107.4206,40.7609,巴彦淖尔市,附二中,,28,28,42,19,20,55,,,,5,5,2,3,0.4,0.4
2026-01-19T0100,2196A,107.37,40.7372,巴彦淖尔市,市环保大楼,,22,22,38,13,18,62,,,,5,6,6,5,0.4,0.4
2026-01-19T0100,1956A,86.1476,41.7529,巴音郭楞蒙古自治州,孔雀公园,颗粒物(PM10),52,53,85,17,26,66,,,,4,6,7,8,0.3,0.3
2026-01-19T0100,1957A,86.1971,41.7166,巴音郭楞蒙古自治州,棉纺厂,颗粒物(PM10),58,66,105,17,18,49,,,,20,14,/,/,/,/
2026-01-19T0100,1958A,86.236,41.7172,巴音郭楞蒙古自治州,经济开发区,,40,40,88,15,18,64,,,,5,7,4,5,0.3,0.4
2026-01-19T0100,3181A,106.776805,31.852614,巴中市,市五中,细颗粒物(PM2.5),87,84,164,64,120,35,,,,15,30,6,6,0.8,1.7
2026-01-19T0100,3183A,106.7419,31.8654,巴中市,圣泉水务公司,细颗粒物(PM2.5),62,56,113,44,96,58,,,,10,36,6,6,0.7,1.2
2026-01-19T0100,3616A,106.7617,31.8343,巴中市,市中心医院,,,,145,,126,,,4,,,37,,7,,1.4
2026-01-19T0100,2235A,122.7909,45.608,白城市,洮北区环保局,,27,27,30,10,24,53,,,,10,22,4,7,0.2,0.4
2026-01-19T0100,2236A,122.8741,45.5725,白城市,市环保局,,17,14,27,10,17,53,,,,7,18,6,6,0.3,0.4
2026-01-19T0100,2231A,126.4219,41.9172,白山市,喜丰,,43,43,44,20,22,55,,,,17,26,10,16,0.6,0.7
2026-01-19T0100,2232A,126.4082,41.9416,白山市,环保局,,43,40,28,30,23,56,,,,14,23,10,13,0.4,0.4
2026-01-19T0100,2647A,104.1727,36.5448,白银市,第三小学,,44,44,68,14,19,54,,,,14,10,10,4,0.3,0.3
2026-01-19T0100,2648A,104.1467,36.5482,白银市,动力公司,,33,33,60,12,20,61,,,,7,7,5,2,0.6,0.5
2026-01-19T0100,2512A,106.6102,23.901,百色市,市监测站,颗粒物(PM10),57,63,78,39,54,37,,,,22,24,12,15,0.8,0.9
2026-01-19T0100,2513A,106.6524,23.8842,百色市,市中心血站,细颗粒物(PM2.5),75,73,76,55,63,98,,,,17,20,28,18,1.0,0.8
2026-01-19T0100,4133A,106.6273,23.8798,百色市,龙景西路,细颗粒物(PM2.5),78,86,106,57,63,17,,,,42,25,14,18,0.7,0.7
2026-01-19T0100,2270A,117.396,32.9389,蚌埠市,工人疗养院,,19,18,75,13,37,19,,,,21,19,3,4,0.5,0.3
2026-01-19T0100,2271A,117.3606,32.9428,蚌埠市,百货大楼,,16,12,72,11,32,19,,,,22,19,4,4,0.6,0.4
2026-01-19T0100,2273A,117.4183,32.8909,蚌埠市,蚌埠学院,,20,,68,14,34,20,,,,24,25,2,4,0.5,0.4
2026-01-19T0100,2274A,117.3534,32.9672,蚌埠市,淮上区政府,,25,,70,17,38,20,,,,22,20,3,1,0.5,0.4
2026-01-19T0100,2275A,117.3143,32.8977,蚌埠市,高新区,,20,,70,14,39,14,,,,24,21,5,6,0.4,0.2
2026-01-19T0100,3715A,117.3091,32.9314,蚌埠市,蚌埠田家炳中学,,36,,74,25,39,12,,,,28,23,3,4,0.7,0.5
2026-01-19T0100,1585A,109.8761,40.6533,包头市,市环境监测站,,21,17,45,3,8,67,,,,6,6,5,4,0.2,0.2
2026-01-19T0100,1587A,109.9992,40.5843,包头市,包头八中,,22,22,41,11,10,63,,,,5,6,11,5,0.7,0.5
2026-01-19T0100,1589A,109.8641,40.6288,包头市,惠龙物流,,22,13,33,6,8,70,,,,4,5,8,7,0.5,0.4
2026-01-19T0100,1590A,110.0376,40.5546,包头市,东河鸿龙湾,,19,16,36,3,4,60,,,,8,9,12,8,0.5,0.5
2026-01-19T0100,3283A,109.9154,40.5684,包头市,滨河大厦,,20,11,23,10,9,62,,,,3,3,7,5,0.5,0.5
2026-01-19T0100,3419A,109.9449,40.6259,包头市,包头市委党校,,24,24,45,8,12,65,,,,6,6,8,7,0.4,0.5
2026-01-19T0100,3683A,109.8332,40.6577,包头市,昆区政府,,21,16,32,8,7,65,,,,6,7,7,5,0.5,0.5
2026-01-19T0100,1931A,107.0802,34.3129,宝鸡市,竹园沟,颗粒物(PM10),60,70,100,18,45,52,,,,8,18,6,6,0.3,0.5
2026-01-19T0100,1933A,107.1429,34.3549,宝鸡市,监测站,颗粒物(PM10),72,93,114,15,44,52,,,,12,29,4,5,0.6,0.7
2026-01-19T0100,1934A,107.1172,34.3759,宝鸡市,技工学校,颗粒物(PM10),54,58,116,28,56,59,,,,9,22,3,6,0.7,0.9
2026-01-19T0100,1936A,107.2025,34.3518,宝鸡市,文理学院,颗粒物(PM10),59,67,122,13,65,56,,,,13,33,4,5,0.4,0.7
2026-01-19T0100,1937A,107.2396,34.3626,宝鸡市,三迪小学,颗粒物(PM10),60,69,133,16,78,54,,,,11,38,4,5,0.4,0.8
2026-01-19T0100,4155A,107.1721,34.3558,宝鸡市,滨河北路,,47,47,109,14,50,51,,,,10,26,4,6,0.4,0.6
2026-01-19T0100,4308A,107.3898,34.3601,宝鸡市,陈仓区北开路21号,颗粒物(PM10),63,75,170,16,106,42,,,,26,52,6,18,0.4,0.9
2026-01-19T0100,1051A,115.4803,38.8568,保定市,游泳馆,,46,45,54,32,27,42,,,,20,19,3,2,0.5,0.5
2026-01-19T0100,1052A,115.509,38.8895,保定市,华电二区,细颗粒物(PM2.5),67,51,48,48,35,36,,,,24,17,3,3,0.6,0.5
2026-01-19T0100,1053A,115.4588,38.9037,保定市,接待中心,"颗粒物(PM10),细颗粒物(PM2.5)",52,53,48,36,30,40,,,,20,18,1,2,0.3,0.3
2026-01-19T0100,1054A,115.4484,38.8344,保定市,地表水厂,颗粒物(PM10),58,65,63,36,30,35,,,,28,26,5,5,0.4,0.4
2026-01-19T0100,3581A,115.3136,38.9511,保定市,满城区生态环境分局,细颗粒物(PM2.5),67,56,42,48,31,10,,,,61,33,2,2,0.7,0.6
2026-01-19T0100,3582A,115.4709,38.7628,保定市,清苑区第二中学,颗粒物(PM10),54,57,60,31,27,34,,,,24,24,1,2,0.5,0.6
2026-01-19T0100,3583A,115.6231,39.0223,保定市,徐水物探局,细颗粒物(PM2.5),63,55,44,45,35,20,,,,40,25,3,2,0.6,0.6
2026-01-19T0100,4004A,115.4199,38.8665,保定市,双鹰农机,颗粒物(PM10),56,62,55,39,34,39,,,,21,14,4,4,0.5,0.5
2026-01-19T0100,4034A,115.515,38.8589,保定市,植保所站,细颗粒物(PM2.5),58,53,49,41,38,33,,,,23,20,2,2,0.7,0.6
2026-01-19T0100,2594A,99.1589,25.1137,保山市,市环境监测站,,36,27,29,25,21,68,,,,6,9,8,9,0.3,0.4
2026-01-19T0100,2595A,99.1616,25.1381,保山市,市环保局,,33,31,32,23,22,73,,,,5,7,3,4,0.5,0.4
2026-01-19T0100,1867A,109.1435,21.4085,北海市,海滩公园,颗粒物(PM10),51,51,79,29,56,99,,,,12,21,7,15,0.9,1
2026-01-19T0100,1868A,109.0983,21.466,北海市,新市环保局,细颗粒物(PM2.5),55,46,70,39,59,88,,,,15,32,7,12,0.6,0.8
2026-01-19T0100,1869A,109.1775,21.5232,北海市,北海工业园,细颗粒物(PM2.5),68,70,90,49,62,74,,,,16,27,7,16,0.9,1
2026-01-19T0100,3400A,109.1844,21.4396,北海市,龙潭自来水厂,细颗粒物(PM2.5),60,50,71,43,60,86,,,,11,19,4,21,1.2,1.1
2026-01-19T0100,1001A,116.3611,39.8786,北京市,万寿西宫,,21,12,38,6,23,65,,,,5,23,2,3,0.4,0.7
2026-01-19T0100,1003A,116.4174,39.9289,北京市,东四,,20,9,37,3,22,62,,,,6,22,4,6,0.3,0.7
2026-01-19T0100,1004A,116.4073,39.8858,北京市,天坛,,21,11,36,6,22,65,,,,4,20,3,4,0.4,0.7
2026-01-19T0100,1005A,116.4622,39.9364,北京市,农展馆,,21,7,35,3,22,67,,,,3,14,4,6,0.4,0.7
2026-01-19T0100,1006A,116.3399,39.9293,北京市,官园,,19,12,43,7,22,59,,,,6,20,5,6,0.5,0.7
2026-01-19T0100,1007A,116.2879,39.9613,北京市,海淀万柳,,17,9,32,3,22,54,,,,12,27,3,3,0.4,0.6
2026-01-19T0100,1008A,116.6635,40.1349,北京市,顺义新城,,22,9,32,3,18,69,,,,4,13,3,6,0.3,0.5
2026-01-19T0100,1009A,116.6275,40.327,北京市,怀柔镇,,21,7,27,3,17,66,,,,3,12,4,5,0.4,0.5
2026-01-19T0100,1010A,116.2295,40.217,北京市,昌平镇,,21,10,32,6,20,66,,,,2,18,1,2,0.4,0.5
2026-01-19T0100,1011A,116.3968,39.982,北京市,奥体中心,,20,8,33,3,21,64,,,,10,23,4,4,0.5,0.8
2026-01-19T0100,3418A,116.8336,40.4095,北京市,密云新城,,21,8,33,3,17,67,,,,2,11,6,6,0.4,0.6
2026-01-19T0100,3671A,116.0879,39.9725,北京市,门头沟三家店,,21,10,32,6,24,65,,,,6,22,3,3,0.3,0.5
2026-01-19T0100,3672A,116.1507,39.8246,北京市,丰台云岗,,22,10,33,6,23,70,,,,6,22,3,3,0.3,0.6
2026-01-19T0100,3674A,115.9578,39.7602,北京市,房山燕山,,20,14,33,7,24,64,,,,4,23,4,3,0.3,0.5
2026-01-19T0100,3675A,116.4669,39.7734,北京市,大兴旧宫,,20,13,39,3,19,64,,,,8,22,3,4,0.4,0.7
2026-01-19T0100,3694A,115.9859,40.4562,北京市,延庆石河营,,20,9,32,3,19,63,,,,5,14,3,3,0.4,0.5
2026-01-19T0100,3695A,116.6151,40.3052,北京市,怀柔新城,,23,6,28,6,19,71,,,,1,8,4,5,0.3,0.5
2026-01-19T0100,3696A,116.2542,39.8764,北京市,丰台小屯,,16,10,35,6,22,51,,,,9,26,3,3,0.4,0.6
2026-01-19T0100,3697A,116.8399,40.3843,北京市,密云镇,,22,9,32,3,18,68,,,,4,13,2,2,0.3,0.5
2026-01-19T0100,4057A,115.9423,40.4431,北京市,延庆百泉,,19,10,34,6,20,59,,,,2,11,2,2,0.2,0.4
2026-01-19T0100,4058A,116.6598,39.9164,北京市,通州新华,,18,10,41,10,21,57,,,,8,20,2,5,0.4,0.7
2026-01-19T0100,4182A,116.1942,39.9158,北京市,石景山八角,,18,12,34,3,21,56,,,,1,18,2,3,0.1,0.3
2026-01-19T0100,4194A,117.078628,40.151726,北京市,平谷新城,,20,7,33,3,19,63,,,,2,7,1,3,0.2,0.4
2026-01-19T0100,1761A,123.8274146,41.31234549,本溪市,大峪,,27,27,58,16,29,48,,,,13,30,8,9,1.0,1
2026-01-19T0100,1763A,123.7169,41.3094,本溪市,彩屯,,48,48,48,33,32,37,,,,27,32,10,10,1.1,1
2026-01-19T0100,1764A,123.7672166,41.28649327,本溪市,东明,,26,26,49,13,28,50,,,,13,29,9,8,1.0,1.1
2026-01-19T0100,1765A,123.799345,41.266614,本溪市,新立屯,,31,31,40,14,27,48,,,,11,22,10,11,1.1,0.8
2026-01-19T0100,1766A,123.829144,41.336777,本溪市,威宁,颗粒物(PM10),53,55,56,30,33,4,,,,58,35,6,5,1.0,1
2026-01-19T0100,2587A,105.287,27.3133,毕节市,八中,细颗粒物(PM2.5),228,247,89,178,72,53,,,,13,25,9,13,1.0,1
2026-01-19T0100,2588A,105.3079,27.2987,毕节市,师专,细颗粒物(PM2.5),222,209,105,172,84,63,,,,12,29,9,12,1.1,1.2
2026-01-19T0100,4263A,105.3688,27.3598,毕节市,工业大道,细颗粒物(PM2.5),198,194,125,148,88,68,,,,11,23,10,12,/,/
2026-01-19T0100,1629A,117.9961,37.3604,滨州市,第二水厂,,29,29,26,13,18,51,,,,7,13,8,8,0.6,0.5
2026-01-19T0100,1630A,117.9789,37.3931,滨州市,北中新校,,32,31,35,22,18,53,,,,12,17,7,6,0.3,0.4
2026-01-19T0100,3514A,117.9379,37.3959,滨州市,中海酒店,,31,31,27,19,23,50,,,,9,13,6,6,0.5,0.5
2026-01-19T0100,3515A,117.9381509,37.35547456,滨州市,开发区一中,,27,27,29,17,18,58,,,,5,11,10,10,0.4,0.4
2026-01-19T0100,3516A,118.0914,37.6938,滨州市,金海六路,,27,27,24,7,12,61,,,,5,8,3,3,0.3,0.3
2026-01-19T0100,4028A,117.9955,37.3752,滨州市,滨州市西街道办事处,,35,24,24,24,23,59,,,,7,12,6,7,0.4,0.5
2026-01-19T0100,2311A,115.8071,33.8399,亳州市,污水处理厂,,26,22,42,18,24,21,,,,18,21,2,2,0.3,0.3
2026-01-19T0100,2312A,115.7789,33.8519,亳州市,三国揽胜宫,,33,23,50,23,30,21,,,,15,19,1,1,0.5,0.4
2026-01-19T0100,3332A,115.7631,33.803,亳州市,亳州学院,,35,27,52,24,28,20,,,,20,21,2,2,0.6,0.6
2026-01-19T0100,2693A,82.0482,44.8553,博尔塔拉蒙古自治州,市党校,颗粒物(PM10),60,70,58,29,15,46,,,,17,19,2,3,1.9,1.8
2026-01-19T0100,2694A,82.0805,44.8966,博尔塔拉蒙古自治州,市环保局,细颗粒物(PM2.5),60,65,61,43,29,33,,,,26,17,4,5,1.4,1.2
2026-01-19T0100,1071A,116.8733,38.2922,沧州市,沧县城建局,颗粒物(PM10),52,53,46,26,27,21,,,,44,23,7,6,0.5,0.5
2026-01-19T0100,1072A,116.8462,38.3189,沧州市,电视转播站,颗粒物(PM10),56,62,49,36,24,14,,,,46,27,4,3,0.6,0.4
2026-01-19T0100,1073A,116.8588,38.3161,沧州市,市环保局,细颗粒物(PM2.5),57,61,49,40,31,9,,,,46,22,7,5,0.6,0.5
2026-01-19T0100,3324A,116.8011,38.294,沧州市,河北水利电力学院,颗粒物(PM10),51,51,38,27,22,22,,,,39,22,2,3,0.4,0.4
2026-01-19T0100,2622A,97.1813,31.1289,昌都市,昌都监测站,颗粒物(PM10),62,74,62,27,24,17,,,,32,28,5,5,1.1,0.9
2026-01-19T0100,3719A,97.1707,31.1428,昌都市,昌都会议中心,,15,14,15,10,11,47,,,,4,7,1,2,0.5,0.4
2026-01-19T0100,2692A,87.2722,44.0298,昌吉回族自治州,新区政务中心,细颗粒物(PM2.5),83,82,58,61,42,19,,,,46,29,6,8,0.7,0.5
2026-01-19T0100,3613A,87.3069,44.0093,昌吉回族自治州,亚心广场,细颗粒物(PM2.5),104,100,56,78,40,42,,,,21,20,9,7,0.8,0.7
2026-01-19T0100,4164A,87.2057,43.9289,昌吉回族自治州,财政所,细颗粒物(PM2.5),82,85,56,60,41,28,,,,26,20,4,4,0.8,0.7
2026-01-19T0100,1120A,125.2874,43.9024,长春市,客车厂,细颗粒物(PM2.5),84,65,42,62,39,30,,,,34,31,10,12,0.8,0.6
2026-01-19T0100,1121A,125.2943,43.8508,长春市,邮电学院,细颗粒物(PM2.5),87,64,42,64,37,13,,,,53,32,14,12,0.9,0.7
2026-01-19T0100,1122A,125.3648,43.8745,长春市,劳动公园,细颗粒物(PM2.5),80,62,48,59,34,12,,,,55,29,13,11,0.8,0.6
2026-01-19T0100,1123A,125.3233,43.8781,长春市,园林处,细颗粒物(PM2.5),72,58,44,52,37,18,,,,43,26,11,12,0.8,0.6
2026-01-19T0100,1124A,125.4604,43.7904,长春市,净月潭,细颗粒物(PM2.5),60,66,47,43,35,24,,,,30,22,6,6,0.7,0.6
2026-01-19T0100,1126A,125.38,43.8422,长春市,经开区环卫处,细颗粒物(PM2.5),67,81,47,48,31,5,,,,58,37,6,12,0.8,0.6
2026-01-19T0100,1127A,125.234,43.7761,长春市,高新区管委会,细颗粒物(PM2.5),74,54,55,54,51,23,,,,44,39,7,8,0.6,0.6
2026-01-19T0100,1128A,125.1695,43.83,长春市,岱山公园,细颗粒物(PM2.5),88,65,55,65,50,18,,,,39,38,6,8,0.8,0.6
2026-01-19T0100,4281A,125.334645,43.916281,长春市,北亚泰大街1068号,细颗粒物(PM2.5),58,56,44,41,35,23,,,,36,34,13,14,0.6,0.6
2026-01-19T0100,1335A,113.082,28.2421,长沙市,经开区环保局,颗粒物(PM10),57,63,126,34,106,1,,,,22,26,3,3,0.6,0.9
2026-01-19T0100,1336A,112.8873,28.2202,长沙市,高开区环保局,,32,27,143,22,137,5,,,,15,28,3,4,0.5,1
2026-01-19T0100,1337A,113.0785,28.2012,长沙市,马坡岭,颗粒物(PM10),55,59,132,30,94,1,,,,20,27,3,4,0.8,0.9
2026-01-19T0100,1338A,112.9448,28.1894,长沙市,湖南师范大学,,36,36,157,25,104,7,,,,19,34,3,4,0.7,1.1
2026-01-19T0100,1339A,113.0177,28.1322,长沙市,雨花区环保局,,43,43,138,29,123,3,,,,21,33,6,7,0.9,1.2
2026-01-19T0100,1340A,112.9795,28.2593,长沙市,伍家岭,,40,39,156,28,112,6,,,,21,32,4,4,0.6,0.9
2026-01-19T0100,1341A,113.002,28.1944,长沙市,火车新站,,42,40,152,29,116,8,,,,19,34,1,2,0.8,1.2
2026-01-19T0100,1342A,112.9846,28.1177,长沙市,天心区环保局,颗粒物(PM10),54,58,154,32,120,6,,,,24,35,4,5,0.6,0.9
2026-01-19T0100,1343A,112.8906,28.1307,长沙市,湖南中医药大学,,43,37,160,30,116,4,,,,22,35,4,4,0.8,1.1
2026-01-19T0100,1727A,113.1146,36.1547,长治市,清华站,细颗粒物(PM2.5),85,,62,63,56,27,,,,17,19,7,7,0.8,1
2026-01-19T0100,1730A,113.0887,36.2126,长治市,审计局,细颗粒物(PM2.5),92,,62,68,58,26,,,,16,18,5,5,0.8,0.9
2026-01-19T0100,1731A,113.0845,36.1856,长治市,长治八中,细颗粒物(PM2.5),88,79,71,65,59,29,,,,14,16,7,7,0.9,1
2026-01-19T0100,2845A,113.1561,36.1912,长治市,德盛苑,细颗粒物(PM2.5),100,,61,75,60,27,,,,18,18,6,6,0.8,1.1
2026-01-19T0100,3568A,113.0603,36.0464,长治市,向阳小学,细颗粒物(PM2.5),92,93,101,68,70,31,,,,21,26,5,6,0.9,1.3
2026-01-19T0100,3569A,112.8788,36.315,长治市,屯留一中,细颗粒物(PM2.5),129,100,94,98,79,4,,,,52,51,8,10,1.9,1.6
2026-01-19T0100,4189A,113.113092,36.199482,长治市,英华南巷50号,细颗粒物(PM2.5),83,70,63,61,54,28,,,,15,16,5,5,0.8,1
2026-01-19T0100,4190A,113.23666,36.33435,长治市,学府街1号,细颗粒物(PM2.5),82,87,66,60,63,25,,,,22,25,8,7,1.0,1.1
2026-01-19T0100,1854A,111.696,28.9725,常德市,市二中,,32,24,189,22,135,17,,,,19,25,4,6,0.7,1.1
2026-01-19T0100,3138A,111.7152,29.0288,常德市,武陵区永安,,41,41,196,23,134,17,,,,18,23,4,5,0.7,1.1
2026-01-19T0100,3139A,111.6891,28.9881,常德市,鼎城区玉霞,,47,47,184,22,135,18,,,,18,25,6,9,0.7,1
2026-01-19T0100,3140A,111.6651,29.0526,常德市,武陵区长庚,,33,31,187,23,139,18,,,,17,27,4,5,0.7,1.1
2026-01-19T0100,1196A,119.9524,31.7586,常州市,市监测站,,42,42,55,20,32,68,,,,13,28,6,6,0.9,0.9
2026-01-19T0100,1200A,119.9351,31.703,常州市,武进监测站,颗粒物(PM10),55,60,62,33,35,58,,,,18,32,10,13,0.9,0.9
2026-01-19T0100,3002A,119.9701,31.813,常州市,行政中心,颗粒物(PM10),52,54,61,23,28,70,,,,12,27,4,6,0.4,0.5
2026-01-19T0100,3003A,120.0434,31.7726,常州市,经开区,颗粒物(PM10),55,59,59,21,27,64,,,,14,28,3,5,0.4,0.5
2026-01-19T0100,3010A,119.8919,31.7892,常州市,钟楼,,,51,58,18,28,,,,,9,23,5,7,0.2,0.4
2026-01-19T0100,3429A,119.8595,31.706,常州市,武进经发区,,50,50,61,24,34,66,,,,15,32,3,2,0.6,0.8
2026-01-19T0100,3430A,119.5812,31.7256,常州市,金坛城区,,46,46,68,22,37,67,,,,9,23,6,7,0.5,0.8
2026-01-19T0100,4089A,119.9551,31.863,常州市,崇义南街5-H号,,47,47,56,13,25,72,,,,8,25,4,6,0.6,0.8
2026-01-19T0100,2220A,120.4318,41.588,朝阳市,西梁,,21,21,30,3,16,66,,,,7,12,5,9,0.4,0.5
2026-01-19T0100,2221A,120.452,41.565,朝阳市,河畔小区,,24,24,27,3,16,69,,,,7,15,6,11,0.4,0.6
2026-01-19T0100,2222A,120.4176,41.5648,朝阳市,八里堡,,23,23,29,10,17,56,,,,14,16,8,10,0.4,0.5
2026-01-19T0100,3026A,116.6179,23.6608,潮州市,市政府,细颗粒物(PM2.5),142,121,83,108,59,8,,,,80,29,30,10,0.9,0.6
2026-01-19T0100,4036A,116.646,23.676,潮州市,金山,细颗粒物(PM2.5),83,71,68,61,53,29,,,,23,21,2,6,0.7,0.6
2026-01-19T0100,2473A,113.0116,25.8228,郴州市,市职中,细颗粒物(PM2.5),117,124,94,88,75,11,,,,,25,5,6,1.0,1
2026-01-19T0100,2475A,113.0381,25.8074,郴州市,市审计局,细颗粒物(PM2.5),120,102,103,91,84,22,,,,19,26,1,4,/,/
2026-01-19T0100,2476A,113.0348,25.7757,郴州市,市环保局,细颗粒物(PM2.5),125,114,108,95,71,22,,,,23,30,4,7,0.8,0.7
2026-01-19T0100,4252A,113.0138,25.8011,郴州市,好美居路49号,细颗粒物(PM2.5),123,98,84,93,76,47,,,,19,30,6,7,/,/
2026-01-19T0100,1431A,103.9727,30.7242,成都市,金泉两河,细颗粒物(PM2.5),115,98,138,87,117,48,,,,27,46,2,3,1.0,1.3
2026-01-19T0100,1432A,104.1423,30.6765,成都市,十里店,细颗粒物(PM2.5),105,104,160,79,131,54,,,,24,45,4,5,0.9,1.1
2026-01-19T0100,1433A,104.0594,30.5765,成都市,三瓦窑,细颗粒物(PM2.5),109,104,158,82,139,58,,,,20,51,3,4,0.9,1.1
2026-01-19T0100,1434A,104.1122,30.6306,成都市,沙河铺,细颗粒物(PM2.5),115,101,157,87,145,51,,,,30,57,3,3,0.9,1.2
2026-01-19T0100,2880A,104.0219,30.6561,成都市,大石西路,细颗粒物(PM2.5),105,112,155,79,119,43,,,,23,36,5,5,0.8,1
2026-01-19T0100,3136A,104.2724,30.559,成都市,龙泉驿区区政府,细颗粒物(PM2.5),122,107,129,92,111,45,,,,21,23,6,6,0.8,1
2026-01-19T0100,3357A,104.0028,30.6891,成都市,金博路,细颗粒物(PM2.5),119,108,139,90,115,34,,,,35,47,6,7,1.1,1.3
2026-01-19T0100,3359A,104.056,30.5228,成都市,华阳,细颗粒物(PM2.5),113,97,139,85,111,47,,,,30,56,3,3,0.8,1.1
2026-01-19T0100,3488A,104.387954,30.746684,成都市,青石路225号,细颗粒物(PM2.5),133,111,157,101,127,5,,,,54,40,3,4,1.4,1.2
2026-01-19T0100,3489A,104.0788,30.4054,成都市,科学城,细颗粒物(PM2.5),152,138,137,116,118,18,,,,59,39,6,6,1.1,1
2026-01-19T0100,4011A,103.8505,30.6946,成都市,光华大道三段,细颗粒物(PM2.5),108,98,152,81,123,73,,,,18,41,4,5,0.4,0.7
2026-01-19T0100,4144A,104.3257,30.6406,成都市,八角井街185号,细颗粒物(PM2.5),118,124,159,89,118,17,,,,29,31,3,4,0.8,1
2026-01-19T0100,4224A,104.2433276,30.53529463,成都市,鲸龙路1057号,细颗粒物(PM2.5),122,115,134,92,113,22,,,,42,41,5,5,0.9,1
2026-01-19T0100,1062A,117.9531,40.908,承德市,铁路,,35,35,47,10,19,67,,,,2,19,5,7,0.2,0.6
2026-01-19T0100,1063A,117.9397,40.9763,承德市,中国银行,,24,24,48,3,20,66,,,,2,16,3,4,0.2,0.6
2026-01-19T0100,4073A,117.9462,40.95,承德市,杏林街1号,,21,17,39,6,22,67,,,,1,17,4,5,0.2,0.6
2026-01-19T0100,4274A,117.7994,40.9605,承德市,滨河大街98号,,20,16,41,9,20,64,,,,4,16,3,6,0.2,0.5
2026-01-19T0100,2314A,117.4698,30.6617,池州市,池州学院,细颗粒物(PM2.5),87,119,128,64,97,15,,,,32,35,3,5,0.5,0.9
2026-01-19T0100,3237A,117.4918,30.6617,池州市,展览馆,"颗粒物(PM10),细颗粒物(PM2.5)",97,144,146,72,102,16,,,,32,34,1,3,0.7,1.1
2026-01-19T0100,3333A,117.5626,30.695,池州市,第八中学,颗粒物(PM10),84,117,125,60,89,9,,,,38,33,3,4,0.8,1.2
2026-01-19T0100,3334A,117.5037,30.6242,池州市,第十二中学,细颗粒物(PM2.5),82,110,127,60,93,15,,,,34,40,3,4,0.7,1.1
2026-01-19T0100,1744A,118.9229,42.2816,赤峰市,松山一中,,20,20,24,3,10,62,,,,4,14,5,6,0.5,0.6
2026-01-19T0100,1745A,118.9588,42.2733,赤峰市,哈达街,,21,21,21,10,13,66,,,,6,11,4,5,0.5,0.6
2026-01-19T0100,1746A,118.8792,42.2551,赤峰市,天义路,,21,7,14,3,13,67,,,,3,10,6,7,0.5,0.6
2026-01-19T0100,3058A,119.2656,42.0356,赤峰市,银河街,,29,29,29,13,16,75,,,,2,7,9,11,0.5,0.6
2026-01-19T0100,3286A,118.9359,42.3146,赤峰市,桥北物流园区,,23,14,13,9,13,72,,,,2,10,4,6,0.3,0.4
2026-01-19T0100,2521A,107.3473,22.4137,崇左市,市环保局江州分局,细颗粒物(PM2.5),73,87,73,53,46,26,,,,35,22,9,9,1.0,0.9
2026-01-19T0100,4256A,107.375,22.3736,崇左市,石景林东路7号,细颗粒物(PM2.5),65,63,54,47,42,65,,,,26,20,7,6,0.6,0.6
2026-01-19T0100,3207A,118.31131,32.3033,滁州市,市政府原办公楼,颗粒物(PM10),54,57,85,24,44,69,,,,10,28,4,4,0.1,0.4
2026-01-19T0100,3331A,118.3268,32.2633,滁州市,图书馆,,50,50,79,20,41,64,,,,11,25,7,8,0.3,0.5
2026-01-19T0100,4101A,118.3196,32.3335,滁州市,银山路666号,,47,47,71,30,52,66,,,,10,21,2,3,0.2,0.4
2026-01-19T0100,4102A,118.3426,32.2979,滁州市,黄山路555号,颗粒物(PM10),53,55,86,28,52,71,,,,8,26,14,15,0.5,0.7
2026-01-19T0100,2606A,101.5379,25.0492,楚雄彝族自治州,市经济开发区,,35,35,29,21,21,8,,,,44,20,6,3,0.8,0.6
2026-01-19T0100,4153A,101.5536,25.0343,楚雄彝族自治州,团结路562号,,35,27,27,24,17,10,,,,46,16,5,4,0.7,0.4
2026-01-19T0100,2549A,107.5087,31.2186,达州市,市环境监测站,细颗粒物(PM2.5),89,97,131,66,100,60,,,,10,36,9,10,0.5,0.9
2026-01-19T0100,2550A,107.4988,31.2132,达州市,凤凰小区,细颗粒物(PM2.5),77,90,146,56,109,54,,,,12,44,8,8,0.5,1.2
2026-01-19T0100,2551A,107.5081,31.1987,达州市,达县机关宾馆,细颗粒物(PM2.5),82,88,161,60,116,48,,,,15,42,6,7,0.7,1.8
2026-01-19T0100,2552A,107.4644,31.2124,达州市,市政中心,细颗粒物(PM2.5),83,101,155,61,110,57,,,,16,50,8,9,0.4,1.2
2026-01-19T0100,2614A,100.2168,25.5818,大理白族自治州,大理市环境监测站,,23,22,28,13,21,72,,,,10,8,6,6,0.5,0.6
2026-01-19T0100,2615A,100.1542,25.7055,大理白族自治州,大理古城,,22,18,31,13,17,70,,,,8,13,8,8,0.7,0.7
2026-01-19T0100,1109A,121.6119,38.974,大连市,甘井子,,36,36,38,18,23,55,,,,11,24,7,11,0.7,0.5
2026-01-19T0100,1110A,121.565,38.9509,大连市,周水子,,41,41,39,16,22,55,,,,8,21,10,13,0.4,0.6
2026-01-19T0100,1111A,121.5637,38.8849,大连市,星海三站,,29,29,34,12,22,54,,,,12,23,7,13,0.5,0.6
2026-01-19T0100,1112A,121.6301,38.9117,大连市,青泥洼桥,,41,41,40,16,24,53,,,,8,26,9,13,0.6,0.7
2026-01-19T0100,1113A,121.6248,38.8643,大连市,傅家庄,,32,32,37,15,23,49,,,,12,28,7,13,0.4,0.5
2026-01-19T0100,1114A,121.5117,38.8636,大连市,七贤岭,,35,35,35,14,19,52,,,,6,15,6,8,0.5,0.6
2026-01-19T0100,1116A,121.7507,39.1339,大连市,金州,,37,37,42,15,25,58,,,,16,26,8,12,0.5,0.7
2026-01-19T0100,1117A,121.7811,39.0495,大连市,开发区,,31,31,35,14,25,57,,,,10,22,5,6,0.4,0.6
2026-01-19T0100,1118A,121.9762,39.0631,大连市,双D港,,31,31,39,11,23,65,,,,10,19,7,11,0.3,0.5
2026-01-19T0100,4082A,121.2548,38.8188,大连市,旅顺,,22,22,28,7,13,59,,,,4,11,6,8,0.5,0.6
2026-01-19T0100,1789A,124.8085,46.0381,大庆市,大同区,,48,48,41,32,27,36,,,,24,20,6,7,0.7,0.7
2026-01-19T0100,1790A,125.1166,46.5255,大庆市,龙凤区,细颗粒物(PM2.5),57,53,42,40,30,27,,,,36,35,11,12,0.5,0.4
2026-01-19T0100,1791A,124.8894,46.4007,大庆市,红岗区,,39,30,31,27,21,33,,,,20,19,4,6,0.3,0.3
2026-01-19T0100,1792A,125.1391,46.578,大庆市,萨尔图区,,42,42,38,24,20,39,,,,24,24,8,9,0.6,0.6
2026-01-19T0100,1793A,124.9026,46.6217,大庆市,让胡路区,,49,,31,34,31,58,,,,8,13,8,7,0.6,0.6
2026-01-19T0100,3481A,125.127,46.6277,大庆市,萨区政府监测点,颗粒物(PM10),54,58,39,14,19,18,,,,42,27,9,10,0.9,0.7
2026-01-19T0100,1723A,113.2926,40.0759,大同市,云冈宾馆,,19,12,33,3,20,59,,,,5,12,5,6,0.6,0.8
2026-01-19T0100,1724A,113.3437,40.0921,大同市,大同大学,,21,15,41,7,23,66,,,,2,11,1,3,0.5,0.7
2026-01-19T0100,1725A,113.2637,40.129,大同市,安家小村,,19,,36,10,18,60,,,,6,12,6,7,0.3,0.5
2026-01-19T0100,3282A,113.3399,40.0586,大同市,大同市卫生学校,,21,20,41,3,24,67,,,,4,14,3,4,0.4,0.7
2026-01-19T0100,3565A,113.1371,40.1122,大同市,云冈站,,19,,41,3,21,58,,,,4,12,6,6,0.3,0.7
2026-01-19T0100,3566A,113.1186,40.2556,大同市,图书馆,,18,13,42,3,19,55,,,,10,13,7,6,0.4,0.7
2026-01-19T0100,3567A,113.5931,40.0459,大同市,区一中,,21,10,49,10,28,66,,,,6,13,1,2,0.3,0.5
2026-01-19T0100,4199A,113.2798248,40.09972476,大同市,魏都大道141号,,20,8,46,3,19,62,,,,4,12,4,5,0.5,0.7
2026-01-19T0100,2269A,124.1068,50.4091,大兴安岭地区,科技局,,,,,,,,,,,,,,,,
2026-01-19T0100,3663A,124.117,50.4279,大兴安岭地区,红旗社区,颗粒物(PM10),63,75,15,10,12,34,,,,15,9,5,6,0.4,0.3
2026-01-19T0100,1600A,124.33,40.0625,丹东市,江湾东路,,47,47,28,17,17,48,,,,16,14,7,6,0.6,0.6
2026-01-19T0100,1601A,124.4242,40.1513,丹东市,临江后街,,30,30,19,17,12,55,,,,11,8,4,4,0.6,0.6
2026-01-19T0100,1602A,124.3935,40.1461,丹东市,元宝山,,29,27,19,20,14,48,,,,17,9,8,8,0.7,0.5
2026-01-19T0100,1603A,124.3634,40.1093,丹东市,民主桥,,35,35,29,20,16,47,,,,15,13,8,9,0.6,0.5
2026-01-19T0100,3541A,109.5726195,19.51688767,儋州市,第一中学子站,,45,39,42,31,32,53,,,,5,6,4,5,0.6,0.6
2026-01-19T0100,3542A,109.5567,19.5187,儋州市,东坡学校子站,,44,44,41,19,26,64,,,,3,5,5,6,0.5,0.6
2026-01-19T0100,2616A,98.5611,24.4273,德宏傣族景颇族自治州,德宏州监测站,细颗粒物(PM2.5),55,58,64,39,45,37,,,,21,27,6,7,0.8,0.8
2026-01-19T0100,3677A,98.5887,24.4366,德宏傣族景颇族自治州,芒市人民政府综合楼,,44,44,52,30,33,34,,,,13,15,4,5,0.8,0.7
2026-01-19T0100,1901A,104.424,31.1209,德阳市,东山公园,细颗粒物(PM2.5),74,68,112,54,104,71,,,,7,20,6,8,0.8,0.9
2026-01-19T0100,1902A,104.3827,31.1318,德阳市,西小区,细颗粒物(PM2.5),78,81,129,57,103,67,,,,10,31,4,7,0.9,1.2
2026-01-19T0100,1904A,104.3553,31.1091,德阳市,耐火材料厂,细颗粒物(PM2.5),84,69,110,62,106,55,,,,25,30,2,7,0.8,1
2026-01-19T0100,4145A,104.4144,31.1495,德阳市,市林业局,细颗粒物(PM2.5),68,61,123,49,117,66,,,,12,43,3,5,0.5,0.8
2026-01-19T0100,1622A,116.3034,37.4675,德州市,儿童乐园,,41,41,36,24,20,31,,,,28,22,12,11,0.8,0.7
2026-01-19T0100,1624A,116.2992,37.4449,德州市,监理站,,46,46,27,29,16,42,,,,26,20,13,10,0.8,0.7
2026-01-19T0100,3066A,116.2722,37.438,德州市,九衢泉纯净水厂,,39,36,30,27,20,36,,,,28,23,6,5,0.8,0.7
2026-01-19T0100,3371A,116.3693,37.44,德州市,开发区人民医院,,41,41,32,22,19,40,,,,32,26,13,11,0.6,0.5
2026-01-19T0100,3511A,116.5687,37.3331,德州市,陵城艺术中心,,41,41,32,22,18,36,,,,24,23,19,14,0.6,0.4
2026-01-19T0100,4292A,116.352738,37.420875,德州市,新河东路,,46,46,32,27,19,39,,,,22,18,12,11,1.0,0.8
2026-01-19T0100,2621A,99.7054,27.8319,迪庆藏族自治州,迪庆州站,,30,25,28,21,18,57,,,,11,10,4,4,0.5,0.5
2026-01-19T0100,3180A,99.7122,27.8129,迪庆藏族自治州,质量技术监督局,,38,29,28,26,18,55,,,,15,13,4,4,0.6,0.4
2026-01-19T0100,4257A,104.6092,35.5962,定西市,将台街,颗粒物(PM10),56,61,100,24,31,72,,,,6,9,8,10,0.2,0.3
2026-01-19T0100,4309A,104.6159,35.5701,定西市,正龙路62号,颗粒物(PM10),55,59,106,26,27,67,,,,4,6,3,6,0.2,0.5
2026-01-19T0100,1390A,113.7943,23.0132,东莞市,东城石井,颗粒物(PM10),57,63,70,31,39,42,,,,46,46,6,7,0.6,0.6
2026-01-19T0100,1391A,113.7384,22.9659,东莞市,南城西平,颗粒物(PM10),57,63,70,31,38,60,,,,45,61,6,7,0.7,0.7
2026-01-19T0100,3319A,113.7283,23.041,东莞市,万江金泰,颗粒物(PM10),63,76,84,40,50,61,,,,51,53,6,7,1.0,1
2026-01-19T0100,4129A,113.8666,23.1062,东莞市,裕兴路,颗粒物(PM10),99,148,105,70,48,5,,,,92,57,5,10,1.0,0.8
2026-01-19T0100,4130A,114.0076,22.9739,东莞市,教育路1号,颗粒物(PM10),88,125,111,51,54,40,,,,76,70,5,7,0.8,0.8
2026-01-19T0100,4131A,113.7981,22.8124,东莞市,长怡路1号,颗粒物(PM10),61,71,64,36,30,38,,,,52,49,6,6,0.9,0.8
2026-01-19T0100,1666A,118.6612,37.4313,东营市,市环保局,,31,31,24,19,14,60,,,,16,20,7,7,0.5,0.5
2026-01-19T0100,3036A,118.6903,37.4337,东营市,开发区管委会,,38,38,28,12,14,62,,,,8,12,6,6,0.2,0.2
2026-01-19T0100,3365A,118.5721,37.5654,东营市,垦利区民丰路,,36,36,24,19,13,60,,,,7,11,7,5,0.5,0.3
2026-01-19T0100,3498A,118.5063,37.8606,东营市,河口城区,,44,44,27,10,10,57,,,,12,16,3,3,0.9,0.8
2026-01-19T0100,3646A,118.4979,37.4623,东营市,胜利站,,25,25,26,17,14,57,,,,12,17,11,10,0.5,0.4
2026-01-19T0100,3734A,118.5753,37.4405,东营市,理想之城,,39,34,29,27,18,49,,,,8,15,3,3,0.5,0.5
2026-01-19T0100,1591A,110.0024,39.8127,鄂尔多斯市,综合楼,,34,34,92,7,11,57,,,,10,17,8,7,0.4,0.4
2026-01-19T0100,1592A,109.9485,39.8259,鄂尔多斯市,巴音孟克林场办事处,,29,29,70,7,11,59,,,,9,14,10,8,0.6,0.4
2026-01-19T0100,1593A,109.7734,39.5987,鄂尔多斯市,康泽苑,,48,48,57,22,15,60,,,,11,10,10,7,0.8,0.4
2026-01-19T0100,1594A,109.8121,39.5987,鄂尔多斯市,华泰汽车城,,46,46,61,14,14,56,,,,10,11,10,7,0.6,0.3
2026-01-19T0100,1595A,109.9734,39.7884,鄂尔多斯市,奥林花园,,36,36,80,7,9,56,,,,11,16,6,4,0.7,0.5
2026-01-19T0100,2436A,114.894,30.3989,鄂州市,市政府,,23,23,114,3,96,4,,,,28,32,4,5,0.5,0.7
2026-01-19T0100,2437A,114.8986,30.3714,鄂州市,赵家坝,,35,35,131,11,95,4,,,,14,22,7,8,0.6,0.9
2026-01-19T0100,3654A,114.8093,30.4091,鄂州市,精准医疗中心,,18,18,136,9,97,8,,,,22,29,6,11,1.1,1
2026-01-19T0100,2454A,109.4978,30.2979,恩施土家族苗族自治州,湖北民院,细颗粒物(PM2.5),234,,153,184,163,4,,,,34,31,6,6,2.2,1.7
2026-01-19T0100,3549A,109.5061,30.3771,恩施土家族苗族自治州,龙凤新区,细颗粒物(PM2.5),258,232,167,208,149,1,,,,28,25,8,7,1.7,1.3
2026-01-19T0100,2499A,108.3411,21.6159,防城港市,沙万,细颗粒物(PM2.5),65,78,82,47,40,44,,,,34,36,15,10,1.0,1.1
2026-01-19T0100,2500A,108.3515,21.7733,防城港市,防城档案局,颗粒物(PM10),61,72,72,37,38,31,,,,18,19,5,8,0.6,0.8
2026-01-19T0100,2501A,108.3506,21.6414,防城港市,大海花园,细颗粒物(PM2.5),74,,60,54,45,41,,,,24,25,14,14,0.7,0.9
2026-01-19T0100,1371A,113.1293,23.0065,佛山市,湾梁,颗粒物(PM10),54,58,81,25,32,71,,,,38,73,/,/,/,/
2026-01-19T0100,1372A,113.1082,23.0477,佛山市,华材职中,"颗粒物(PM10),细颗粒物(PM2.5)",59,68,112,42,73,75,,,,32,77,5,7,0.6,0.9
2026-01-19T0100,1373A,113.1439,23.045,佛山市,南海气象局,颗粒物(PM10),58,66,80,35,50,58,,,,45,73,/,/,/,/
2026-01-19T0100,1374A,113.2879,22.8094,佛山市,顺德苏岗,颗粒物(PM10),61,71,59,41,36,31,,,,57,50,/,/,1.0,0.8
2026-01-19T0100,1376A,112.8384,22.8678,佛山市,高明孔堂,细颗粒物(PM2.5),55,58,78,39,57,30,,,,72,48,/,/,/,/
2026-01-19T0100,1377A,112.8835,23.1584,佛山市,三水监测站,颗粒物(PM10),84,117,182,53,90,2,,,,155,113,4,8,0.8,1
2026-01-19T0100,1378A,112.8668,23.185,佛山市,三水云东海,细颗粒物(PM2.5),74,90,145,54,104,22,,,,94,77,/,/,/,/
2026-01-19T0100,3625A,113.2568,22.7629,佛山市,容桂街道办,细颗粒物(PM2.5),55,58,65,39,40,61,,,,43,54,/,/,/,/
2026-01-19T0100,1282A,119.2681,26.0506,福州市,师大,,35,35,36,23,21,64,,,,28,26,3,4,0.7,0.6
2026-01-19T0100,1283A,119.2983,26.1028,福州市,五四北路,,45,32,36,31,24,73,,,,21,23,5,5,1.0,0.7
2026-01-19T0100,1284A,119.2648,26.0769,福州市,杨桥西路,,38,33,34,26,24,66,,,,18,16,4,4,/,/
2026-01-19T0100,3048A,119.5799,26.0937,福州市,九龙,,20,14,24,7,13,64,,,,16,17,4,5,0.6,0.7
2026-01-19T0100,3526A,119.5188,25.9666,福州市,吴航,,21,18,24,10,14,66,,,,15,15,4,5,0.5,0.6
2026-01-19T0100,4104A,119.3106,26.0648,福州市,路通桥巷6号,,40,38,39,28,25,61,,,,19,19,/,/,/,/
2026-01-19T0100,1755A,123.7974,41.8494,抚顺市,望花区,颗粒物(PM10),59,68,54,40,38,16,,,,44,34,2,2,1.0,0.9
2026-01-19T0100,1756A,123.9161,41.8827,抚顺市,顺城区,细颗粒物(PM2.5),68,54,53,49,35,5,,,,58,40,10,9,1.3,1
2026-01-19T0100,1757A,124.0437,41.8615,抚顺市,东洲区,颗粒物(PM10),60,70,50,39,31,20,,,,33,23,72,19,0.9,0.8
2026-01-19T0100,1758A,123.9246,41.8638,抚顺市,新抚区,,35,34,52,24,32,30,,,,30,33,6,9,0.7,0.8
2026-01-19T0100,1759A,124.0972,41.8961,抚顺市,大伙房水库,细颗粒物(PM2.5),70,,40,51,24,35,,,,20,22,10,12,1.0,0.9
2026-01-19T0100,1760A,123.708,41.8386,抚顺市,沈抚新城,细颗粒物(PM2.5),65,58,49,47,41,6,,,,51,35,14,9,1.5,1.5
2026-01-19T0100,2377A,116.3544,27.9833,抚州市,市站,细颗粒物(PM2.5),114,110,134,86,106,75,,,,19,22,7,9,1.2,1.4
2026-01-19T0100,2378A,116.3562,27.9631,抚州市,血防站,细颗粒物(PM2.5),117,105,139,88,108,81,,,,18,24,6,8,1.8,1.9
2026-01-19T0100,2379A,116.3561,28.0007,抚州市,采茶剧团,细颗粒物(PM2.5),125,114,138,95,114,76,,,,13,18,5,6,1.6,1.6
2026-01-19T0100,2380A,116.3854,27.9648,抚州市,医学分院,细颗粒物(PM2.5),114,116,146,86,99,74,,,,12,15,8,11,1.1,1.2
2026-01-19T0100,2207A,121.6095,41.9978,阜新市,工业园区,,47,47,29,12,13,50,,,,12,11,9,9,0.4,0.5
2026-01-19T0100,2208A,121.6567,42.0188,阜新市,长青街,,18,10,15,8,10,57,,,,8,9,8,8,0.3,0.5
2026-01-19T0100,2209A,121.6672,42.07,阜新市,农业园区,,19,13,18,6,7,60,,,,7,9,6,8,0.2,0.5
2026-01-19T0100,2211A,121.6343,42.0455,阜新市,玉龙新城,,29,29,27,6,12,35,,,,25,17,5,5,0.5,0.6
2026-01-19T0100,2301A,115.8276,32.8929,阜阳市,市监测站,,,,63,25,29,,,,,24,25,4,4,0.6,0.5
2026-01-19T0100,2303A,115.8551,32.8606,阜阳市,开发区,,36,,51,25,30,12,,,,25,24,3,4,0.6,0.5
2026-01-19T0100,2875A,115.783962,32.889217,阜阳市,阜阳职业技术学院,,26,,56,18,24,16,,,,15,16,5,6,0.6,0.6
2026-01-19T0100,3468A,115.79,32.8614,阜阳市,市规划展馆,,28,21,62,19,26,11,,,,21,20,4,5,0.8,0.7
2026-01-19T0100,3469A,115.835101,32.918568,阜阳市,枣园社区,,30,30,63,18,26,12,,,,21,22,3,4,0.9,0.7
2026-01-19T0100,2669A,102.9097,34.9841,甘南藏族自治州,州政府,颗粒物(PM10),80,110,89,38,40,56,,,,14,25,7,13,0.5,0.9
2026-01-19T0100,3380A,102.8915,34.9618,甘南藏族自治州,甘肃民族师范学院,颗粒物(PM10),79,108,100,26,31,55,,,,19,30,9,12,0.2,0.3
2026-01-19T0100,2570A,101.96,30.048,甘孜藏族自治州,水桥子,,23,23,21,12,9,38,,,,24,26,6,6,0.5,0.4
2026-01-19T0100,3065A,101.9534,29.9976,甘孜藏族自治州,州环保局,,24,14,19,3,7,74,,,,4,11,6,6,0.3,0.3
2026-01-19T0100,2363A,114.9368,25.8663,赣州市,地委,细颗粒物(PM2.5),77,86,70,56,51,29,,,,42,35,7,9,1.0,1.1
2026-01-19T0100,2364A,114.946,25.8483,赣州市,气象台,细颗粒物(PM2.5),74,87,85,54,49,59,,,,33,56,3,4,0.5,0.6
2026-01-19T0100,2365A,114.932,25.8332,赣州市,市图书馆,细颗粒物(PM2.5),63,72,86,45,54,46,,,,33,46,5,6,1.0,1.1
2026-01-19T0100,2366A,114.8905,25.8472,赣州市,华坚鞋城,颗粒物(PM10),65,80,87,44,54,48,,,,33,46,8,11,0.5,0.6
2026-01-19T0100,3109A,115.0094,25.8614,赣州市,赣县区卫计委,细颗粒物(PM2.5),79,71,72,58,60,22,,,,37,37,7,7,0.9,0.8
2026-01-19T0100,2684A,106.2753,36.0057,固原市,监测站,颗粒物(PM10),51,52,98,13,28,74,,,,7,12,4,5,0.4,0.4
2026-01-19T0100,2685A,106.2384,36.0189,固原市,新区,,45,45,91,3,20,71,,,,5,8,6,5,0.5,0.4
2026-01-19T0100,2544A,106.6307,30.4577,广安市,市委,细颗粒物(PM2.5),256,,179,206,179,27,,,,26,30,10,10,1.3,1.3
2026-01-19T0100,2545A,106.6266,30.4662,广安市,友谊中学,细颗粒物(PM2.5),215,195,169,165,152,28,,,,21,27,7,7,1.6,1.6
2026-01-19T0100,2547A,106.6386,30.4551,广安市,广电花园,细颗粒物(PM2.5),241,,152,191,169,20,,,,22,26,9,9,1.1,1.1
2026-01-19T0100,2902A,106.6347,30.4868,广安市,北辰小学,细颗粒物(PM2.5),215,188,165,165,150,14,,,,28,24,8,9,1.4,1.4
2026-01-19T0100,2524A,105.8211,32.4444,广元市,老城,颗粒物(PM10),58,65,106,19,71,65,,,,14,37,3,9,0.5,1
2026-01-19T0100,2526A,105.8629,32.429,广元市,监测站,颗粒物(PM10),58,65,104,20,72,63,,,,10,32,6,10,0.5,1.1
2026-01-19T0100,3617A,105.8047,32.4167,广元市,经开区,颗粒物(PM10),55,60,105,18,81,61,,,,10,35,2,5,0.5,1
2026-01-19T0100,1345A,113.2346,23.1423,广州市,广雅中学,细颗粒物(PM2.5),87,113,93,64,55,1,,,,132,80,4,4,0.5,0.4
2026-01-19T0100,1346A,113.2611,23.105,广州市,市五中,细颗粒物(PM2.5),79,95,74,58,49,5,,,,130,72,8,8,/,/
2026-01-19T0100,1348A,113.3477,23.0916,广州市,广东商学院,"颗粒物(PM10),细颗粒物(PM2.5)",67,83,97,48,60,0,,,,119,94,6,8,0.7,0.8
2026-01-19T0100,1349A,113.4332,23.105,广州市,市八十六中,颗粒物(PM10),71,91,127,40,56,8,,,,117,102,8,10,/,/
2026-01-19T0100,1350A,113.3506,22.9488,广州市,番禺中学,颗粒物(PM10),58,65,73,39,42,46,,,,57,60,3,5,0.9,0.9
2026-01-19T0100,1351A,113.2147,23.3918,广州市,花都师范,细颗粒物(PM2.5),105,153,116,79,68,3,,,,166,115,6,7,1.2,0.9
2026-01-19T0100,1352A,113.2599,23.1329,广州市,市监测站,细颗粒物(PM2.5),82,105,91,60,52,12,,,,115,83,2,3,/,/
2026-01-19T0100,1353A,113.5618,23.3119,广州市,九龙镇镇龙,细颗粒物(PM2.5),95,135,103,71,60,16,,,,73,63,4,5,0.7,0.6
2026-01-19T0100,1354A,113.2764,23.1544,广州市,麓湖,,,109,82,64,52,2,,,,139,92,9,10,,0.7
2026-01-19T0100,2846A,113.3209,23.1323,广州市,体育西,细颗粒物(PM2.5),80,103,101,59,59,1,,,,138,93,6,7,1.0,1
2026-01-19T0100,3298A,113.5718,23.5493,广州市,从化街口,细颗粒物(PM2.5),110,123,99,83,65,22,,,,73,54,8,9,1.1,1
2026-01-19T0100,3299A,113.3463,23.369,广州市,白云竹料,细颗粒物(PM2.5),97,116,106,72,66,10,,,,123,77,3,4,1.0,1
2026-01-19T0100,3300A,113.2981,23.2365,广州市,白云嘉禾,颗粒物(PM10),66,81,94,44,55,12,,,,116,89,6,7,/,/
2026-01-19T0100,3301A,113.4256,23.1716,广州市,黄埔科学城,细颗粒物(PM2.5),82,108,99,60,60,1,,,,106,73,3,6,0.9,0.9
2026-01-19T0100,3302A,113.3942,23.0485,广州市,番禺大学城,颗粒物(PM10),75,99,96,46,47,12,,,,102,82,10,11,0.6,0.7
2026-01-19T0100,3303A,113.4923,22.8169,广州市,南沙黄阁,,,46,71,32,36,,,,,31,58,5,7,/,/
2026-01-19T0100,3304A,113.534,22.7893,广州市,南沙街,颗粒物(PM10),56,61,64,33,35,75,,,,32,46,3,5,0.6,0.6
2026-01-19T0100,3443A,113.2905,23.5541,广州市,花都梯面,颗粒物(PM10),68,85,84,44,47,5,,,,86,62,4,5,/,/
2026-01-19T0100,3445A,113.786,23.7479,广州市,从化良口,细颗粒物(PM2.5),63,60,61,45,46,76,,,,24,27,8,8,/,/
2026-01-19T0100,3446A,113.805,23.2614,广州市,增城荔城,细颗粒物(PM2.5),73,78,75,53,51,46,,,,42,29,5,7,0.7,0.6
2026-01-19T0100,2506A,109.604387,23.066791,贵港市,江南子站,细颗粒物(PM2.5),114,129,147,86,88,61,,,,40,39,9,11,1.0,1.2
2026-01-19T0100,2508A,109.5669,23.1065,贵港市,荷城子站,细颗粒物(PM2.5),128,124,125,97,94,60,,,,33,41,11,11,1.2,1.3
2026-01-19T0100,3405A,109.5886,23.1172,贵港市,新世纪学校,细颗粒物(PM2.5),137,132,130,104,98,62,,,,30,33,/,/,0.7,0.8
2026-01-19T0100,4260A,109.5933,23.095,贵港市,中山路155-3号,细颗粒物(PM2.5),134,140,133,102,90,60,,,,35,38,/,/,0.9,1.1
2026-01-19T0100,1439A,106.6863,26.6035,贵阳市,马鞍山,,42,36,47,29,39,78,,,,9,12,6,7,/,/
2026-01-19T0100,1441A,106.6241,26.6266,贵阳市,鉴湖路,,41,41,56,24,39,78,,,,12,13,6,7,0.5,0.5
2026-01-19T0100,1442A,106.7468,26.6344,贵阳市,燕子冲,细颗粒物(PM2.5),52,36,50,36,45,74,,,,14,15,8,9,0.4,0.5
2026-01-19T0100,1443A,106.6556,26.4362,贵阳市,碧云窝,,44,44,56,27,36,117,,,,11,11,6,6,/,/
2026-01-19T0100,1445A,106.6963,26.6063,贵阳市,红边门,,49,36,55,34,43,64,,,,16,17,9,9,/,/
2026-01-19T0100,1446A,106.7162383,26.56964667,贵阳市,新华路,颗粒物(PM10),53,56,62,36,38,51,,,,33,21,13,12,0.5,0.5
2026-01-19T0100,1447A,106.6742,26.542,贵阳市,太慈桥,,42,34,51,29,37,71,,,,12,15,4,4,/,/
2026-01-19T0100,4230A,106.688212,26.56952,贵阳市,花果园大街66号,,48,,43,33,45,74,,,,13,17,4,5,/,/
2026-01-19T0100,4231A,106.687268,26.516892,贵阳市,漓江路57号,,39,34,52,27,38,77,,,,12,15,10,12,0.4,0.4
2026-01-19T0100,1864A,110.3091,25.2705,桂林市,龙隐路小学,细颗粒物(PM2.5),115,110,100,87,80,8,,,,44,30,10,8,1.0,0.8
2026-01-19T0100,1865A,110.2849361,25.22909545,桂林市,八中,细颗粒物(PM2.5),109,102,97,82,78,19,,,,43,31,8,9,1.2,0.9
2026-01-19T0100,3531A,110.296,25.1254,桂林市,旅游学院,细颗粒物(PM2.5),94,85,76,70,58,25,,,,35,23,6,7,0.6,0.4
2026-01-19T0100,4222A,110.1835,25.2444,桂林市,环湖路276号,细颗粒物(PM2.5),104,97,92,78,77,1,,,,57,33,17,14,0.9,0.8
2026-01-19T0100,4301A,110.2803,25.2773,桂林市,信义路13号,细颗粒物(PM2.5),119,120,99,90,73,4,,,,50,26,6,7,1.7,1.4
2026-01-19T0100,2674A,100.2262,34.4854,果洛藏族自治州,玛沁县大武镇,颗粒物(PM10),87,124,110,20,26,48,,,,9,4,17,15,0.5,0.4
2026-01-19T0100,1130A,126.5557,45.8109,哈尔滨市,松北商大,细颗粒物(PM2.5),54,47,66,38,49,34,,,,32,39,8,8,0.7,0.7
2026-01-19T0100,1132A,126.6162,45.719,哈尔滨市,南岗学府路,颗粒物(PM10),51,52,73,34,53,20,,,,38,34,10,10,0.6,0.7
2026-01-19T0100,1133A,126.6894,45.7733,哈尔滨市,太平宏伟公园,,39,,69,27,49,45,,,,21,29,12,13,0.7,0.9
2026-01-19T0100,1134A,126.6361,45.7672,哈尔滨市,道外承德广场,,46,43,83,32,45,29,,,,42,38,12,13,0.7,0.8
2026-01-19T0100,1136A,126.644,45.7261,哈尔滨市,动力和平路,颗粒物(PM10),51,51,72,32,43,24,,,,37,36,14,15,0.7,0.9
2026-01-19T0100,1137A,126.5933,45.7479,哈尔滨市,道里建国路,细颗粒物(PM2.5),67,62,67,48,56,18,,,,47,39,13,16,0.8,0.8
2026-01-19T0100,1138A,126.6127,45.6119,哈尔滨市,平房东轻厂,细颗粒物(PM2.5),87,90,82,64,65,12,,,,55,42,11,12,1.3,1.2
2026-01-19T0100,1139A,126.5875,45.9827,哈尔滨市,呼兰师专,细颗粒物(PM2.5),79,,98,58,89,30,,,,29,44,13,14,0.9,1.1
2026-01-19T0100,1140A,126.6299,45.6799,哈尔滨市,省农科院,细颗粒物(PM2.5),63,49,86,45,69,10,,,,57,50,14,13,0.8,0.9
2026-01-19T0100,4282A,126.6769,45.7379,哈尔滨市,华山路1号,细颗粒物(PM2.5),52,51,69,36,49,22,,,,41,36,14,17,0.8,0.9
2026-01-19T0100,4283A,126.9717,45.5356,哈尔滨市,解放大街52号,细颗粒物(PM2.5),147,115,84,112,76,28,,,,36,29,12,14,1.2,0.9
2026-01-19T0100,2688A,93.5124,42.8176,哈密市,地区监测站,颗粒物(PM10),113,175,132,21,22,43,,,,16,11,3,3,0.4,0.1
2026-01-19T0100,2689A,93.5014,42.8312,哈密市,哈密师范学校,颗粒物(PM10),104,157,116,28,20,48,,,,15,13,3,3,0.2,0.2
2026-01-19T0100,2671A,100.9016,36.9464,海北藏族自治州,海晏县西海镇,颗粒物(PM10),73,95,76,30,26,68,,,,9,10,19,16,0.8,0.6
2026-01-19T0100,3867A,102.074,36.5056,海东市,平安区公安局北苑,颗粒物(PM10),57,64,112,26,30,59,,,,7,11,16,29,0.5,0.7
2026-01-19T0100,4163A,102.0984,36.5119,海东市,滨河路,细颗粒物(PM2.5),62,58,122,44,37,66,,,,18,22,15,32,0.6,0.7
2026-01-19T0100,1410A,110.3189,20.0596,海口市,海南大学,,40,40,38,20,24,105,,,,5,9,5,6,0.3,0.3
2026-01-19T0100,1411A,110.2827,20.0051,海口市,秀英海南医院,,38,38,41,15,24,96,,,,6,14,7,8,0.3,0.4
2026-01-19T0100,1412A,110.3391,19.9979,海口市,海南师范大学,,39,39,40,19,24,103,,,,8,14,5,6,0.6,0.7
2026-01-19T0100,1413A,110.3303,20.0359,海口市,龙华路环保局宿舍,,47,47,43,19,24,101,,,,7,10,/,/,0.8,0.8
2026-01-19T0100,3539A,110.5111,19.9737,海口市,桂林洋子站,,36,36,40,20,26,83,,,,7,14,/,/,/,/
2026-01-19T0100,4134A,110.1952,20.0451,海口市,长滨二路9号,,32,32,36,18,28,89,,,,6,14,/,/,/,/
2026-01-19T0100,2673A,100.6158,36.2985,海南藏族自治州,共和县恰卜恰镇,颗粒物(PM10),87,124,60,32,25,63,,,,12,24,15,13,0.7,0.7
2026-01-19T0100,2676A,97.373,37.376,海西蒙古族藏族自治州,德令哈市,颗粒物(PM10),51,51,48,23,11,79,,,,8,11,11,11,0.8,0.8
2026-01-19T0100,1049A,114.492,36.5712,邯郸市,矿院,细颗粒物(PM2.5),85,,56,63,51,20,,,,27,24,1,2,0.6,0.5
2026-01-19T0100,1050A,114.4839,36.6136,邯郸市,丛台公园,细颗粒物(PM2.5),83,64,57,61,47,23,,,,30,26,1,3,0.6,0.5
2026-01-19T0100,3458A,114.7893,36.5592,邯郸市,香泉濮院小区,细颗粒物(PM2.5),59,44,61,42,46,32,,,,18,21,3,2,0.5,0.5
2026-01-19T0100,3580A,114.1998,36.4439,邯郸市,峰峰矿区临水派出所,细颗粒物(PM2.5),94,,44,70,51,25,,,,23,15,2,3,0.9,0.6
2026-01-19T0100,4068A,114.5209,36.7697,邯郸市,建安街268号,细颗粒物(PM2.5),72,62,56,52,43,18,,,,23,18,1,1,0.6,0.5
2026-01-19T0100,4069A,114.5488,36.6177,邯郸市,丛台东路558号,细颗粒物(PM2.5),80,60,50,59,47,18,,,,23,19,1,3,0.6,0.5
2026-01-19T0100,2635A,107.0155,33.0707,汉中市,市监测站,颗粒物(PM10),60,70,146,40,117,48,,,,15,42,5,6,0.6,1.5
2026-01-19T0100,2636A,107.0083,33.114,汉中市,鑫源开发区,颗粒物(PM10),59,67,127,22,97,47,,,,14,42,4,7,0.4,1.1
2026-01-19T0100,2637A,107.0072,33.0323,汉中市,南郑大河坎水厂,颗粒物(PM10),66,81,185,37,139,45,,,,14,40,5,6,0.6,1.7
2026-01-19T0100,1223A,120.2073,30.2111,杭州市,滨江,颗粒物(PM10),70,90,106,44,50,6,,,,65,39,6,6,0.5,0.5
2026-01-19T0100,1224A,120.0625,30.2737,杭州市,西溪,颗粒物(PM10),90,130,111,62,44,0,,,,57,32,8,8,1.1,1
2026-01-19T0100,1226A,120.3417,30.315,杭州市,下沙,颗粒物(PM10),78,106,103,52,46,6,,,,62,39,7,7,0.8,0.7
2026-01-19T0100,1227A,120.1252,30.2465,杭州市,卧龙桥,颗粒物(PM10),67,84,104,46,53,13,,,,60,41,9,8,0.3,0.4
2026-01-19T0100,1228A,120.1902,30.2691,杭州市,浙江农大,颗粒物(PM10),58,66,85,38,44,7,,,,66,46,5,5,0.6,0.6
2026-01-19T0100,1230A,120.1195,30.3121,杭州市,和睦小学,颗粒物(PM10),79,108,119,45,48,7,,,,56,38,5,4,0.7,0.7
2026-01-19T0100,1231A,120.3076,30.4146,杭州市,临平镇,颗粒物(PM10),65,80,85,45,43,11,,,,46,30,7,7,0.6,0.6
2026-01-19T0100,1232A,120.2753,30.1839,杭州市,城厢镇,颗粒物(PM10),73,96,106,50,51,15,,,,56,41,8,8,0.6,0.6
2026-01-19T0100,1233A,120.0883,30.1808,杭州市,云栖,细颗粒物(PM2.5),74,95,118,54,62,13,,,,51,36,5,4,0.7,0.7
2026-01-19T0100,3557A,119.9463,30.0496,杭州市,镇二中,细颗粒物(PM2.5),90,103,104,67,60,10,,,,63,41,5,5,0.8,0.8
2026-01-19T0100,3558A,119.7184,30.2367,杭州市,市府大楼,颗粒物(PM10),99,147,154,69,75,7,,,,35,33,10,10,1.0,1.1
2026-01-19T0100,3656A,120.1554,30.2863,杭州市,消防大队,颗粒物(PM10),73,96,111,51,62,1,,,,72,43,7,6,0.7,0.7
2026-01-19T0100,1270A,117.1957,31.7845,合肥市,明珠广场,,25,17,122,17,74,3,,,,29,37,5,6,0.9,1
2026-01-19T0100,1271A,117.307,31.8765,合肥市,三里街,,35,24,114,24,64,25,,,,21,34,4,5,0.6,0.8
2026-01-19T0100,1272A,117.2587,31.8703,合肥市,琥珀山庄,,26,,112,18,64,11,,,,27,29,7,7,0.6,0.7
2026-01-19T0100,1275A,117.2593,31.9376,合肥市,庐阳区,,28,24,114,19,58,19,,,,28,36,3,5,0.7,0.8
2026-01-19T0100,1276A,117.345251,31.861615,合肥市,瑶海区,,35,34,115,24,64,33,,,,25,36,4,5,0.5,0.8
2026-01-19T0100,1277A,117.3033,31.7967,合肥市,包河区,,28,22,122,19,73,18,,,,29,49,7,9,0.8,1
2026-01-19T0100,1278A,117.278,31.7392,合肥市,滨湖新区,,32,24,132,22,85,9,,,,30,41,3,4,0.6,0.8
2026-01-19T0100,1279A,117.1324,31.8395,合肥市,高新区,,19,19,111,13,67,3,,,,34,34,4,4,0.9,0.8
2026-01-19T0100,3464A,117.3802,31.9148,合肥市,高教基地,,48,36,106,33,64,45,,,,13,25,7,8,0.4,0.7
2026-01-19T0100,4098A,117.2518,31.8404,合肥市,中国科学技术大学,,17,17,115,10,64,8,,,,29,36,7,8,0.8,0.9
2026-01-19T0100,3614A,79.9241,37.0878,和田地区,地区环保局,颗粒物(PM10),500,876,573,134,82,42,,,,26,13,11,2,0.6,0.4
2026-01-19T0100,3615A,79.9132,37.1137,和田地区,市环保局,颗粒物(PM10),500,867,585,118,76,50,,,,23,10,4,2,1.2,1
2026-01-19T0100,2517A,108.0496,24.6957,河池市,市环保站,细颗粒物(PM2.5),74,70,73,54,54,45,,,,22,22,4,5,0.9,0.8
2026-01-19T0100,4302A,108.0901,24.6945,河池市,上任中路54号,细颗粒物(PM2.5),77,64,76,56,59,65,,,,22,22,6,6,0.8,0.9
2026-01-19T0100,1697A,114.6962,23.7538,河源市,东埔,细颗粒物(PM2.5),77,71,67,56,48,26,,,,63,50,6,6,1.2,1.3
2026-01-19T0100,1698A,114.6895,23.7232,河源市,老城,,48,48,54,28,34,47,,,,42,26,6,6,0.6,0.7
2026-01-19T0100,3374A,115.5562,35.089,菏泽市,定陶老年大学,,45,31,41,31,37,42,,,,12,20,2,1,0.1,0.3
2026-01-19T0100,4114A,115.4239,35.2593,菏泽市,黄河路600号,,37,37,53,20,43,50,,,,14,23,2,2,0.4,0.5
2026-01-19T0100,4115A,115.5025,35.2727,菏泽市,菏泽市人社局,,35,33,51,24,41,47,,,,13,15,2,2,0.1,0.3
2026-01-19T0100,4184A,115.479691,35.244011,菏泽市,永昌路1号,,49,,48,34,48,48,,,,9,17,3,2,0.1,0.2
2026-01-19T0100,4193A,115.471542,35.280012,菏泽市,长城路999号,,36,29,49,25,40,46,,,,11,20,9,8,0.5,0.7
2026-01-19T0100,2514A,111.5264,24.4178,贺州市,环保小区,细颗粒物(PM2.5),102,86,80,76,57,56,,,,31,30,11,8,0.7,0.7
2026-01-19T0100,2515A,111.561,24.4074,贺州市,政协大楼,细颗粒物(PM2.5),87,90,76,64,53,78,,,,31,33,28,17,0.7,0.7
2026-01-19T0100,3534A,111.4744,24.455,贺州市,西湾,细颗粒物(PM2.5),90,97,85,67,58,22,,,,60,35,8,9,1.0,1.2
2026-01-19T0100,2385A,114.17,35.9019,鹤壁市,市监测站,细颗粒物(PM2.5),94,,66,70,51,24,,,,20,19,3,3,0.7,0.6
2026-01-19T0100,2386A,114.2953,35.7512,鹤壁市,市交警支队,细颗粒物(PM2.5),64,54,68,46,50,29,,,,16,22,3,3,0.5,0.6
2026-01-19T0100,2387A,114.2877,35.7302,鹤壁市,迎宾馆,细颗粒物(PM2.5),62,,65,44,50,31,,,,23,27,1,3,0.6,0.8
2026-01-19T0100,3474A,114.2616,35.6824,鹤壁市,大新区,细颗粒物(PM2.5),57,55,64,40,46,32,,,,20,24,4,4,0.8,0.9
2026-01-19T0100,3596A,114.1573,35.9607,鹤壁市,南山宾馆,细颗粒物(PM2.5),69,61,66,50,50,30,,,,15,16,2,2,0.6,0.6
2026-01-19T0100,2244A,130.2537,47.3416,鹤岗市,哈啤分公司,,28,28,37,17,34,66,,,,6,16,4,7,0.4,0.5
2026-01-19T0100,2245A,130.2683,47.3087,鹤岗市,斯达机电,,35,31,43,24,31,55,,,,13,16,5,6,0.5,0.5
2026-01-19T0100,2246A,130.3114,47.3388,鹤岗市,东山纸板厂,细颗粒物(PM2.5),85,,60,63,47,16,,,,52,30,11,12,2.2,1.3
2026-01-19T0100,2263A,127.4832,50.2524,黑河市,交通局,细颗粒物(PM2.5),63,53,44,45,30,30,,,,28,26,11,13,0.4,0.4
2026-01-19T0100,2264A,127.5146,50.2339,黑河市,环保局,细颗粒物(PM2.5),70,75,38,51,31,24,,,,36,28,14,13,0.8,0.6
2026-01-19T0100,1074A,115.6839,37.754,衡水市,电机北厂,细颗粒物(PM2.5),55,55,54,39,33,0,,,,44,24,4,6,0.7,0.5
2026-01-19T0100,1075A,115.6303,37.7318,衡水市,市监测站,细颗粒物(PM2.5),58,58,51,41,34,6,,,,45,26,7,5,0.7,0.5
2026-01-19T0100,3188A,115.6684,37.7216,衡水市,市城管局,细颗粒物(PM2.5),62,49,53,44,38,13,,,,38,22,8,6,0.7,0.5
2026-01-19T0100,3459A,115.599,37.5491,衡水市,地表水厂,,49,38,41,34,29,32,,,,20,16,5,3,0.5,0.4
2026-01-19T0100,2457A,112.6209,26.9268,衡阳市,衡阳化工总厂,细颗粒物(PM2.5),102,81,114,76,98,13,,,,20,23,7,8,1.2,1.2
2026-01-19T0100,2458A,112.621,26.8957,衡阳市,珠晖区环保局,细颗粒物(PM2.5),107,99,122,80,102,14,,,,23,28,3,5,1.3,1.4
2026-01-19T0100,2459A,112.628,26.8654,衡阳市,市委党校,细颗粒物(PM2.5),82,92,124,60,82,13,,,,23,26,5,7,1.4,1.4
2026-01-19T0100,2460A,112.6007,26.8977,衡阳市,市监测站,细颗粒物(PM2.5),99,97,115,74,83,14,,,,18,23,5,7,1.3,1.4
2026-01-19T0100,2461A,112.5658,26.9013,衡阳市,真空机电公司,细颗粒物(PM2.5),92,92,117,68,93,19,,,,22,28,7,9,1.4,1.5
2026-01-19T0100,3399A,112.6703,26.8817,衡阳市,师范学院,细颗粒物(PM2.5),100,102,130,75,92,10,,,,27,27,1,4,1.4,1.3
2026-01-19T0100,3038A,103.3757,23.3679,红河哈尼族彝族自治州,州图书馆,,32,30,33,22,22,62,,,,9,9,7,8,0.5,0.5
2026-01-19T0100,4154A,103.401,23.3561,红河哈尼族彝族自治州,蒙自市朝阳路,,21,15,24,13,22,65,,,,7,8,7,8,0.4,0.5
2026-01-19T0100,1090A,111.6506,40.7517,呼和浩特市,呼市一监,,21,9,25,7,7,65,,,,4,5,6,5,0.3,0.3
2026-01-19T0100,1094A,111.7516,40.8369,呼和浩特市,如意水处理厂,,21,12,20,6,7,65,,,,2,5,9,8,0.2,0.2
2026-01-19T0100,1095A,111.727798,40.806187,呼和浩特市,二十九中,,21,6,25,6,8,66,,,,2,4,10,11,0.4,0.4
2026-01-19T0100,1097A,111.717,40.7617,呼和浩特市,化肥厂生活区,,21,14,22,6,8,65,,,,4,8,4,5,0.3,0.3
2026-01-19T0100,3699A,111.6519,40.8389,呼和浩特市,海东办,,22,7,14,7,6,68,,,,4,5,4,4,0.3,0.3
2026-01-19T0100,4275A,111.591512,40.827312,呼和浩特市,成吉思汗西街8号,,18,14,29,7,6,57,,,,3,5,6,5,0.3,0.3
2026-01-19T0100,4276A,111.6597,40.8077,呼和浩特市,公园东路75号,,19,17,18,6,7,58,,,,5,8,5,5,0.3,0.3
2026-01-19T0100,4277A,111.5427,40.7846,呼和浩特市,金海路35号,,19,9,26,3,6,58,,,,5,7,8,8,0.5,0.5
2026-01-19T0100,3061A,119.7511,49.1576,呼伦贝尔市,国华电力东,,33,27,24,23,18,42,,,,17,14,7,6,0.3,0.3
2026-01-19T0100,4279A,119.7569,49.2222,呼伦贝尔市,伊敏大街东7号,,32,,24,22,22,51,,,,6,7,8,7,0.2,0.3
2026-01-19T0100,1250A,120.075,30.867,湖州市,城西水厂,,50,50,75,33,46,47,,,,28,32,5,6,0.6,0.5
2026-01-19T0100,2873A,120.083,30.8929,湖州市,仁皇山新区,颗粒物(PM10),53,56,79,25,39,51,,,,30,38,5,6,0.7,0.7
2026-01-19T0100,2907A,120.1846,30.8592,湖州市,吴兴区站,颗粒物(PM10),61,72,74,31,34,19,,,,55,40,5,6,0.5,0.4
2026-01-19T0100,3562A,120.4146,30.8538,湖州市,南浔区站,颗粒物(PM10),54,57,64,27,34,31,,,,36,35,6,7,0.7,0.8
2026-01-19T0100,1607A,120.904878,40.721091,葫芦岛市,龙港区,,23,23,38,11,22,50,,,,13,22,14,18,0.5,0.7
2026-01-19T0100,1608A,120.8382,40.7521,葫芦岛市,化工街,,20,19,35,14,18,53,,,,8,15,14,17,0.5,0.5
2026-01-19T0100,1609A,120.8339,40.7078,葫芦岛市,新区,,20,,30,14,20,52,,,,11,17,14,16,0.6,0.6
2026-01-19T0100,1610A,120.8697,40.7679,葫芦岛市,东城区,,37,37,33,15,22,45,,,,20,22,15,21,0.8,0.7
2026-01-19T0100,2483A,109.9297,27.5383,怀化市,河西地税局,细颗粒物(PM2.5),219,220,138,169,106,25,,,,23,23,2,4,/,/
2026-01-19T0100,2484A,109.9783,27.5342,怀化市,市四医院,细颗粒物(PM2.5),203,212,162,153,103,22,,,,29,29,5,10,1.0,1
2026-01-19T0100,2485A,109.9971,27.5579,怀化市,监测楼,细颗粒物(PM2.5),192,210,143,144,110,29,,,,21,23,2,6,0.5,0.4
2026-01-19T0100,1210A,119.0566,33.5991,淮安市,钵池山,,28,,37,19,22,55,,,,10,12,6,6,0.3,0.2
2026-01-19T0100,1211A,119.0083,33.578,淮安市,北京南路,,20,,41,14,20,53,,,,6,10,6,6,0.5,0.5
2026-01-19T0100,1212A,118.9938,33.6083,淮安市,市监测站,,15,7,31,7,19,47,,,,12,13,8,8,0.4,0.5
2026-01-19T0100,1213A,119.135,33.5038,淮安市,楚州区监测站,,19,,34,6,19,60,,,,4,9,8,8,0.5,0.5
2026-01-19T0100,3426A,118.8757,33.2897,淮安市,新华书店,,33,33,46,14,23,55,,,,11,14,7,7,0.4,0.3
2026-01-19T0100,4092A,119.119691,33.550006,淮安市,枚皋中路89号,,27,27,41,3,18,63,,,,8,10,8,9,0.2,0.2
2026-01-19T0100,4206A,119.028838,33.631911,淮安市,承德北路606号,,23,,42,16,21,50,,,,9,11,6,6,0.4,0.4
2026-01-19T0100,2282A,116.8005,33.9749,淮北市,监测站,,39,38,60,27,30,28,,,,20,24,4,4,0.5,0.6
2026-01-19T0100,2283A,116.8094,33.9008,淮北市,烈山区政府,,40,35,48,28,28,31,,,,16,19,3,4,0.5,0.4
2026-01-19T0100,4017A,116.7926,33.9534,淮北市,市博物馆,,40,34,55,28,29,30,,,,24,27,2,3,0.7,0.8
2026-01-19T0100,4100A,116.8322,33.9884,淮北市,杜集区第一实验学校,,40,31,65,28,28,26,,,,18,22,12,8,0.9,0.9
2026-01-19T0100,2277A,116.8304,32.7726,淮南市,潘集区政府,,33,,73,23,44,12,,,,24,23,4,5,0.8,0.7
2026-01-19T0100,2279A,116.8569,32.5949,淮南市,谢家集区政府,,18,17,72,12,37,4,,,,32,29,6,7,0.7,0.6
2026-01-19T0100,2280A,116.8279,32.6333,淮南市,八公山区政府,,18,12,75,12,36,6,,,,28,22,8,7,0.7,0.6
2026-01-19T0100,2894A,117.0561,32.6536,淮南市,经济技术开发区消防队,,28,28,82,15,44,8,,,,29,27,3,4,0.7,0.6
2026-01-19T0100,3329A,117.011,32.5891,淮南市,山南新区,,21,21,101,3,41,8,,,,28,24,1,2,0.7,0.6
2026-01-19T0100,4209A,117.003137,32.644456,淮南市,国庆中路369号,,14,,80,9,45,0,,,,27,26,7,9,0.8,0.6
2026-01-19T0100,2446A,114.9021,30.474,黄冈市,职工中心,,13,13,112,9,80,8,,,,19,24,6,6,0.9,1.1
2026-01-19T0100,2929A,114.8858,30.4519,黄冈市,红卫路,,17,17,107,11,84,6,,,,20,23,7,8,0.4,0.6
2026-01-19T0100,3398A,114.9134,30.4446,黄冈市,市林业局,,16,15,111,11,90,18,,,,26,30,4,4,0.9,1
2026-01-19T0100,2672A,102.02,35.5101,黄南藏族自治州,同仁县隆务镇,,,,84,,30,,,,,3,7,12,13,0.4,0.6
2026-01-19T0100,2295A,118.2905,29.6965,黄山市,延安路89号,细颗粒物(PM2.5),104,91,65,78,54,77,,,,16,20,4,4,0.8,0.8
2026-01-19T0100,2297A,118.1369,30.2755,黄山市,黄山区政府5号楼,细颗粒物(PM2.5),92,114,107,68,74,62,,,,21,18,3,3,0.6,1
2026-01-19T0100,4210A,118.335445,29.720283,黄山市,滨江东路7-2号,细颗粒物(PM2.5),115,92,81,87,64,77,,,,14,19,/,/,/,/
2026-01-19T0100,2423A,115.0547,30.2332,黄石市,沈家营,,48,48,139,16,83,0,,,,26,33,7,6,1.5,1.5
2026-01-19T0100,2426A,114.899,30.211,黄石市,铁山,,23,23,103,13,103,4,,,,23,28,5,7,0.6,0.7
2026-01-19T0100,2427A,115.0259,30.2108,黄石市,团城山,,50,50,135,9,97,0,,,,31,33,7,7,1.0,1.2
2026-01-19T0100,3149A,115.0174,30.1591,黄石市,笔架山北路,颗粒物(PM10),54,57,159,13,100,2,,,,26,26,7,10,1.2,1.4
2026-01-19T0100,4185A,115.078022,30.21118,黄石市,磁湖东路29号,,41,41,129,17,107,0,,,,21,35,8,10,1.4,1.5
2026-01-19T0100,1392A,114.4181,23.0528,惠州市,河南岸金山湖子站,颗粒物(PM10),68,85,77,45,43,57,,,,31,33,4,6,0.8,0.7
2026-01-19T0100,1393A,114.4055,23.0824,惠州市,下埔横江三路子站,颗粒物(PM10),70,90,85,46,48,91,,,,27,44,8,8,0.8,0.9
2026-01-19T0100,1395A,114.4645,22.7832,惠州市,惠阳区承修路船湖子站,颗粒物(PM10),53,55,56,32,32,115,,,,16,25,6,8,0.5,0.5
2026-01-19T0100,1396A,114.5316,22.7423,惠州市,大亚湾管委会子站,颗粒物(PM10),56,61,62,34,30,64,,,,43,23,5,7,0.7,0.6
2026-01-19T0100,3314A,114.4334,22.8134,惠州市,惠阳秋长,颗粒物(PM10),62,73,60,43,34,70,,,,49,32,/,/,/,/
2026-01-19T0100,3452A,114.6521,22.7755,惠州市,大亚湾霞涌,,50,50,50,27,26,70,,,,32,21,/,/,/,/
2026-01-19T0100,4300A,114.4089,23.1147,惠州市,文华一路1号,细颗粒物(PM2.5),75,97,84,55,49,82,,,,34,46,/,/,/,/
2026-01-19T0100,2240A,130.9618,45.2926,鸡西市,环保局,细颗粒物(PM2.5),72,68,47,52,33,42,,,,15,20,8,10,0.3,0.4
2026-01-19T0100,2243A,130.9294,45.2959,鸡西市,第一中学,细颗粒物(PM2.5),59,44,35,42,26,38,,,,18,17,5,5,0.7,0.6
2026-01-19T0100,3707A,131.0069,45.2988,鸡西市,欧美日汽修厂,细颗粒物(PM2.5),70,71,74,51,62,12,,,,49,36,18,22,0.9,0.9
2026-01-19T0100,2367A,114.9753,27.0803,吉安市,红声器材厂,细颗粒物(PM2.5),133,134,101,101,72,88,,,,22,17,20,12,1.3,1.1
2026-01-19T0100,2369A,114.9903,27.1313,吉安市,市环境监测站,细颗粒物(PM2.5),133,130,105,101,79,93,,,,31,30,18,15,/,/
2026-01-19T0100,2370A,115.009527,27.096792,吉安市,青原区法院,细颗粒物(PM2.5),139,130,107,106,80,90,,,,20,25,16,13,1.1,1
2026-01-19T0100,1772A,126.54,43.8622,吉林市,哈达湾,,50,50,46,33,34,42,,,,28,26,7,8,0.8,0.9
2026-01-19T0100,1773A,126.5843,43.8358,吉林市,东局子,细颗粒物(PM2.5),62,54,41,44,35,35,,,,27,23,3,7,1.2,1.1
2026-01-19T0100,1774A,126.5051,43.8243,吉林市,电力学院,细颗粒物(PM2.5),70,57,68,51,55,30,,,,37,34,10,13,1.0,1.1
2026-01-19T0100,1775A,126.6133,43.8971,吉林市,江北,细颗粒物(PM2.5),67,60,59,48,48,26,,,,32,26,7,9,1.2,1.2
2026-01-19T0100,1776A,126.5549,43.8304,吉林市,江南公园,细颗粒物(PM2.5),63,51,44,45,39,40,,,,25,23,7,12,0.8,0.8
2026-01-19T0100,2868A,126.4737,43.953,吉林市,九站,,48,34,64,33,54,22,,,,46,44,6,11,0.7,1
2026-01-19T0100,1299A,116.9866,36.6118,济南市,科干所,,39,39,48,27,34,50,,,,14,31,3,4,0.4,0.6
2026-01-19T0100,1300A,116.9379,36.6652,济南市,农科所,,29,24,44,20,29,48,,,,16,34,4,5,0.5,0.7
2026-01-19T0100,1301A,117.1265,36.6736,济南市,开发区,,35,27,47,24,40,47,,,,24,37,3,3,0.5,0.7
2026-01-19T0100,1303A,117.0616,36.6865,济南市,省种子仓库,,35,29,51,24,39,55,,,,14,31,3,4,0.4,0.7
2026-01-19T0100,1304A,116.9495185,36.644937,济南市,机床二厂,,34,34,46,22,38,51,,,,16,35,3,3,0.3,0.5
2026-01-19T0100,1305A,117.0496,36.6629,济南市,市监测站,,32,27,48,22,37,54,,,,14,30,3,3,0.4,0.7
2026-01-19T0100,1306A,116.7674,36.5458,济南市,长清党校,,39,34,46,27,32,47,,,,14,31,3,5,0.5,0.7
2026-01-19T0100,1961A,117.5323,36.6865,济南市,东山小学,,29,27,47,20,31,66,,,,10,31,2,2,0.2,0.3
2026-01-19T0100,3059A,117.7181,36.205,济南市,泰兴公司,,29,29,31,19,29,62,,,,16,29,2,3,0.6,0.8
2026-01-19T0100,3064A,117.6861,36.2172,济南市,莱芜战役纪念馆,细颗粒物(PM2.5),52,36,36,36,33,57,,,,18,30,8,11,0.5,0.7
2026-01-19T0100,3494A,117.1673,36.9782,济南市,济阳区政府,,32,32,38,15,26,51,,,,15,23,3,5,0.5,0.5
2026-01-19T0100,3495A,117.1168,36.6299,济南市,锦屏中学,,39,32,40,27,31,50,,,,18,34,4,11,0.7,0.8
2026-01-19T0100,4108A,117.7107,36.2385,济南市,山财大街5号,,32,29,26,22,25,56,,,,16,26,7,8,0.6,0.8
2026-01-19T0100,4109A,116.9744,36.6889,济南市,无影山路12号,,25,24,42,17,38,48,,,,13,28,3,4,0.5,0.7
2026-01-19T0100,1653A,116.6229,35.4288,济宁市,火炬城,,34,34,47,19,41,39,,,,14,26,2,2,0.5,0.6
2026-01-19T0100,3500A,116.5808,35.3703,济宁市,北湖一中,,33,27,42,23,42,34,,,,20,29,2,3,0.6,0.8
2026-01-19T0100,3501A,116.8251,35.5592,济宁市,服务中心,,26,26,47,16,31,46,,,,17,30,7,7,0.8,0.9
2026-01-19T0100,3678A,116.5907,35.4054,济宁市,市第七中学,,28,,51,19,35,40,,,,16,28,6,6,0.6,0.7
2026-01-19T0100,4111A,116.6075,35.4566,济宁市,任和路,,24,24,53,15,38,41,,,,15,27,3,2,0.7,0.9
2026-01-19T0100,4112A,116.5648,35.3921,济宁市,文体南路1号,,27,27,52,14,40,39,,,,14,27,1,1,0.5,0.7
2026-01-19T0100,2255A,130.2749,46.8028,佳木斯市,佳纺,细颗粒物(PM2.5),125,114,65,95,51,10,,,,56,34,7,12,1.4,0.8
2026-01-19T0100,2257A,130.3258,46.7975,佳木斯市,环保局,细颗粒物(PM2.5),150,,53,115,51,10,,,,64,35,16,11,1.4,0.7
2026-01-19T0100,4285A,130.363,46.806,佳木斯市,顺和街,细颗粒物(PM2.5),109,105,47,82,35,,,,,73,35,14,13,1.1,0.6
2026-01-19T0100,4286A,130.3952,46.8268,佳木斯市,长安路196号,细颗粒物(PM2.5),99,85,55,74,44,10,,,,56,34,8,9,0.9,0.6
2026-01-19T0100,1252A,120.7439,30.778,嘉兴市,清河小学,颗粒物(PM10),57,64,54,35,27,38,,,,31,25,5,6,0.3,0.3
2026-01-19T0100,1253A,120.7261,30.7477,嘉兴市,嘉兴学院,颗粒物(PM10),59,68,56,29,24,34,,,,38,30,4,5,0.7,0.6
2026-01-19T0100,2872A,120.7845,30.7524,嘉兴市,南湖区残联,颗粒物(PM10),57,64,44,34,25,33,,,,38,27,4,4,0.7,0.6
2026-01-19T0100,3407A,120.6915,30.7741,嘉兴市,秀洲住建,颗粒物(PM10),59,68,53,35,28,40,,,,29,28,6,7,0.6,0.5
2026-01-19T0100,1945A,98.291,39.7705,嘉峪关市,气象局,,36,36,44,12,13,60,,,,3,4,10,6,0.3,0.4
2026-01-19T0100,2884A,98.2672,39.7978,嘉峪关市,酒钢宾馆,,39,39,48,7,14,58,,,,8,7,13,17,0.7,0.9
2026-01-19T0100,3248A,98.2644,39.7723,嘉峪关市,雄关区,,40,40,40,12,14,64,,,,6,26,12,12,0.4,0.4
2026-01-19T0100,1383A,113.1063,22.6058,江门市,北街,,49,41,67,34,40,81,,,,18,37,/,/,/,/
2026-01-19T0100,1384A,113.073,22.5835,江门市,西区,,45,38,71,31,32,79,,,,33,50,/,/,/,/
2026-01-19T0100,1385A,113.0218,22.531,江门市,圭峰西,,49,35,54,34,35,95,,,,21,25,/,/,/,/
2026-01-19T0100,1386A,113.0826,22.5947,江门市,东湖,,50,50,64,32,42,85,,,,25,41,9,9,0.6,0.6
2026-01-19T0100,3311A,113.1077,22.5647,江门市,江海富民,颗粒物(PM10),55,59,70,34,38,99,,,,22,44,/,/,0.5,0.7
2026-01-19T0100,3449A,113.0496,22.4669,江门市,新会银湖,细颗粒物(PM2.5),55,54,65,39,47,59,,,,40,38,7,8,0.4,0.4
2026-01-19T0100,3335A,113.3137,35.2643,焦作市,马村街道办,细颗粒物(PM2.5),59,63,72,42,51,38,,,,15,20,4,5,0.5,0.6
2026-01-19T0100,3336A,113.2464,35.2374,焦作市,焦作技师学院,颗粒物(PM10),58,65,74,39,51,33,,,,15,19,7,7,0.9,1
2026-01-19T0100,3477A,113.1656,35.2536,焦作市,中站许衡医院,细颗粒物(PM2.5),79,69,86,58,61,34,,,,18,24,5,3,0.8,0.9
2026-01-19T0100,3981A,113.2456,35.18,焦作市,原李万街道办,"颗粒物(PM10),细颗粒物(PM2.5)",55,60,73,39,43,40,,,,14,18,3,4,0.5,0.6
2026-01-19T0100,4264A,113.234,35.219,焦作市,新安路1731号,颗粒物(PM10),66,82,88,46,55,33,,,,10,16,5,4,0.6,0.6
2026-01-19T0100,4295A,113.2722,35.2121,焦作市,人民路3066号,细颗粒物(PM2.5),58,63,74,41,47,33,,,,18,18,10,5,1.1,0.9
2026-01-19T0100,1708A,116.3701,23.5345,揭阳市,新兴,细颗粒物(PM2.5),97,80,97,72,69,64,,,,35,53,8,12,0.7,0.9
2026-01-19T0100,1709A,116.3261,23.5442,揭阳市,西马,细颗粒物(PM2.5),84,72,98,62,63,74,,,,18,40,5,8,0.7,0.8
2026-01-19T0100,1710A,116.361,23.5627,揭阳市,东兴,细颗粒物(PM2.5),85,66,94,63,60,51,,,,33,47,10,13,/,/
2026-01-19T0100,1711A,116.4151,23.5295,揭阳市,渔湖,颗粒物(PM10),65,79,86,21,47,56,,,,30,43,4,10,/,/
2026-01-19T0100,3320A,116.4028,23.5699,揭阳市,曲溪,颗粒物(PM10),54,58,92,35,55,42,,,,54,44,8,15,0.8,1
2026-01-19T0100,1944A,102.1691,38.5166,金昌市,天庆家园,,41,41,34,7,9,65,,,,5,7,3,3,0.4,0.5
2026-01-19T0100,4022A,102.1648,38.5369,金昌市,金川区人防中心,,43,43,36,26,16,66,,,,5,6,3,3,0.5,0.5
2026-01-19T0100,4239A,102.193042,38.531887,金昌市,长春路96号,,34,34,34,7,8,60,,,,3,4,4,5,0.5,0.6
2026-01-19T0100,1262A,119.6478,29.0773,金华市,十五中,细颗粒物(PM2.5),113,139,122,85,74,46,,,,38,36,5,4,0.7,0.8
2026-01-19T0100,1263A,119.6859,29.1032,金华市,监测站,细颗粒物(PM2.5),102,134,131,76,65,31,,,,49,50,3,3,0.7,0.7
2026-01-19T0100,3659A,119.656,29.1132,金华市,气象局,颗粒物(PM10),93,135,122,57,52,18,,,,61,51,4,4,0.7,0.5
2026-01-19T0100,1767A,121.1114,41.0879,锦州市,南山,,21,21,29,10,19,67,,,,5,13,9,13,0.5,0.6
2026-01-19T0100,1768A,121.060361,40.842794,锦州市,开发区,,25,25,35,14,20,38,,,,22,18,8,19,0.5,0.4
2026-01-19T0100,1769A,121.1836,41.1118,锦州市,百股街道,,27,27,39,12,23,45,,,,17,21,11,13,0.8,0.8
2026-01-19T0100,1770A,121.1176,41.1224,锦州市,天安街道,,26,26,31,6,12,72,,,,5,10,5,11,0.5,0.7
2026-01-19T0100,1771A,121.1303,41.1385,锦州市,北湖公园,,24,24,31,10,19,59,,,,6,12,8,12,0.6,0.7
2026-01-19T0100,2160A,112.8496,35.5051,晋城市,自来水公司,细颗粒物(PM2.5),80,102,56,59,41,7,,,,28,21,3,3,1.0,0.8
2026-01-19T0100,2162A,112.8509,35.4886,晋城市,市环保局,细颗粒物(PM2.5),85,84,52,63,38,10,,,,25,20,3,2,0.9,0.9
2026-01-19T0100,3620A,112.8258,35.4804,晋城市,泽州一中,细颗粒物(PM2.5),85,89,49,63,36,12,,,,27,22,2,2,0.8,0.7
2026-01-19T0100,4078A,112.8246,35.5152,晋城市,前书院路,颗粒物(PM10),74,98,54,52,33,7,,,,26,21,3,3,0.8,0.7
2026-01-19T0100,4079A,112.8864,35.4773,晋城市,祥云街666号,细颗粒物(PM2.5),98,85,52,73,47,10,,,,13,12,2,2,0.7,0.6
2026-01-19T0100,2174A,112.6992,37.6984,晋中市,榆次区政府,细颗粒物(PM2.5),92,102,100,68,68,2,,,,52,40,8,7,0.5,0.4
2026-01-19T0100,2865A,112.7195,37.683,晋中市,榆次三中,细颗粒物(PM2.5),79,100,97,58,57,4,,,,40,30,8,7,0.5,0.4
2026-01-19T0100,4080A,112.7375,37.7215,晋中市,广安街188号,细颗粒物(PM2.5),92,111,107,68,68,0,,,,48,37,9,7,0.6,0.5
2026-01-19T0100,4200A,112.7478,37.6954,晋中市,迎宾街26号,细颗粒物(PM2.5),98,110,97,73,64,7,,,,38,29,7,6,0.6,0.5
2026-01-19T0100,2439A,112.2012,31.048,荆门市,竹园小学,细颗粒物(PM2.5),63,58,124,45,82,40,,,,20,28,1,1,0.4,0.8
2026-01-19T0100,2440A,112.1968,30.9892,荆门市,掇刀,细颗粒物(PM2.5),67,58,125,48,85,32,,,,16,25,1,2,0.4,0.8
2026-01-19T0100,3012A,112.1849,31.0361,荆门市,西山林语,细颗粒物(PM2.5),58,53,121,41,80,33,,,,16,26,2,6,0.6,0.6
2026-01-19T0100,3547A,112.1631,31.0134,荆门市,龙泉中学南校,细颗粒物(PM2.5),64,55,129,46,88,37,,,,12,16,2,2,1.0,1
2026-01-19T0100,4124A,112.2213,31.0654,荆门市,新台西路6号,细颗粒物(PM2.5),73,63,117,53,88,31,,,,13,21,7,7,0.6,0.8
2026-01-19T0100,1844A,112.2493,30.3198,荆州市,市图书馆,,,38,116,35,113,,,,,16,24,4,5,0.8,1.1
2026-01-19T0100,1845A,112.2009,30.3543,荆州市,市委党校,,,44,130,40,109,,,,,20,29,2,2,0.8,0.9
2026-01-19T0100,3194A,112.2749,30.3124,荆州市,管委会,,,42,122,39,116,,,,,18,26,4,6,0.8,1
2026-01-19T0100,4268A,112.1722,30.3366,荆州市,学苑路85号,,,41,124,35,95,,,,,14,23,4,4,0.8,1
2026-01-19T0100,2343A,117.2114,29.2931,景德镇市,老干部活动中心,细颗粒物(PM2.5),78,61,80,57,66,47,,,,20,35,4,6,1.0,1.1
2026-01-19T0100,2344A,117.1893,29.2789,景德镇市,兽医站,细颗粒物(PM2.5),77,78,84,56,55,64,,,,18,35,4,6,0.8,0.9
2026-01-19T0100,2346A,117.246,29.2958,景德镇市,陶研所,细颗粒物(PM2.5),74,60,70,54,62,56,,,,17,26,3,4,0.6,0.7
2026-01-19T0100,4289A,117.154766,29.256967,景德镇市,青少年活动中心,细颗粒物(PM2.5),82,96,109,60,67,43,,,,34,52,4,22,/,/
2026-01-19T0100,1803A,115.9873,29.6816,九江市,十里,细颗粒物(PM2.5),127,131,142,96,107,61,,,,24,36,5,6,1.2,1.4
2026-01-19T0100,1804A,115.9583,29.7047,九江市,茅山头,细颗粒物(PM2.5),115,130,148,87,100,44,,,,19,28,7,10,0.9,1.1
2026-01-19T0100,1805A,115.9877,29.7295,九江市,西园,细颗粒物(PM2.5),110,118,128,83,97,49,,,,44,51,3,2,1.0,1.2
2026-01-19T0100,1808A,115.9112,29.6038,九江市,综合工业园,细颗粒物(PM2.5),139,138,163,106,137,48,,,,33,56,3,4,1.4,0.9
2026-01-19T0100,3190A,116.0254,29.6995,九江市,外国语学校,细颗粒物(PM2.5),107,119,135,80,99,41,,,,25,38,9,9,1.1,1.3
2026-01-19T0100,4253A,116.010205,29.659402,九江市,莲花大道8号,细颗粒物(PM2.5),137,146,161,104,124,44,,,,13,19,4,5,0.7,1.1
2026-01-19T0100,4240A,98.495752,39.733935,酒泉市,玉门东路5号,,31,31,47,14,16,65,,,,2,2,8,8,0.2,0.3
2026-01-19T0100,4241A,98.5099,39.7506,酒泉市,北大街108号,,34,34,40,12,13,60,,,,2,5,7,8,0.2,0.3
2026-01-19T0100,2698A,76.0071,39.466,喀什地区,巡警大队,颗粒物(PM10),418,518,425,87,71,42,,,,28,19,5,4,0.8,0.6
2026-01-19T0100,2699A,75.9756,39.4693,喀什地区,吾办,颗粒物(PM10),249,384,363,82,69,54,,,,18,13,6,8,0.7,0.6
2026-01-19T0100,4027A,75.9485,39.4688,喀什地区,老干局,颗粒物(PM10),350,460,438,81,65,54,,,,15,10,4,3,0.6,0.4
2026-01-19T0100,1824A,114.3389,34.778,开封市,肿瘤医院,细颗粒物(PM2.5),63,50,56,45,44,19,,,,26,24,3,3,0.7,0.6
2026-01-19T0100,1826A,114.2884,34.7966,开封市,世纪星幼儿园,细颗粒物(PM2.5),73,56,54,53,51,22,,,,24,21,3,4,0.6,0.6
2026-01-19T0100,3147A,114.3434,34.8101,开封市,龙亭公园,细颗粒物(PM2.5),74,66,53,54,51,18,,,,23,15,5,5,0.6,0.5
2026-01-19T0100,3210A,114.3645,34.7955,开封市,汴京公园,细颗粒物(PM2.5),69,,52,50,49,23,,,,17,18,3,3,1.1,1
2026-01-19T0100,3473A,114.2485,34.8306,开封市,技师学院,细颗粒物(PM2.5),68,53,56,49,49,21,,,,19,19,4,4,0.9,0.8
2026-01-19T0100,3592A,114.4518,34.7503,开封市,祥符区生态环境局,细颗粒物(PM2.5),72,74,69,52,49,21,,,,27,26,2,3,0.6,0.6
2026-01-19T0100,1951A,84.886,45.6029,克拉玛依市,长征新村,,32,27,21,22,14,30,,,,22,10,5,6,0.4,0.4
2026-01-19T0100,1952A,84.8894,45.5827,克拉玛依市,南林小区,,35,35,21,12,12,33,,,,16,8,3,4,0.7,0.6
2026-01-19T0100,1954A,84.896,44.3328,克拉玛依市,独山子区,细颗粒物(PM2.5),73,94,75,53,55,27,,,,53,38,5,5,0.7,0.6
2026-01-19T0100,1955A,85.6888,46.0909,克拉玛依市,乌尔禾区商贸楼,,16,,15,11,11,45,,,,16,14,5,6,0.5,0.5
2026-01-19T0100,3612A,85.1045,45.6895,克拉玛依市,白碱滩区新站,,39,39,27,22,14,28,,,,27,16,8,8,0.2,0.1
2026-01-19T0100,2697A,76.1457,39.7143,克孜勒苏柯尔克孜自治州,市人民政府,颗粒物(PM10),500,769,530,113,81,67,,,,9,8,3,3,0.3,0.3
2026-01-19T0100,3665A,76.1654,39.7157,克孜勒苏柯尔克孜自治州,克州文化中心,颗粒物(PM10),500,799,557,108,75,62,,,,9,7,3,3,0.3,0.4
2026-01-19T0100,1450A,102.8203,24.889,昆明市,呈贡新区,,31,31,39,18,21,45,,,,26,23,6,7,0.8,0.8
2026-01-19T0100,1452A,102.7253,25.0904,昆明市,龙泉镇,,35,35,39,21,23,57,,,,16,25,3,4,0.4,0.5
2026-01-19T0100,1453A,102.7267,25.0378,昆明市,东风东路,,38,38,43,24,24,61,,,,16,24,6,7,0.3,0.4
2026-01-19T0100,1454A,102.6744,25.0671,昆明市,金鼎山,,39,,50,27,24,44,,,,26,28,4,4,0.7,0.8
2026-01-19T0100,1455A,102.6643,25.0401,昆明市,碧鸡广场,,47,47,42,22,23,42,,,,30,30,5,6,0.4,0.5
2026-01-19T0100,3179A,102.7491,25.012,昆明市,官渡区博物馆,,,,50,,27,,,85,,,30,,6,,0.7
2026-01-19T0100,3375A,102.8016,24.8336,昆明市,青年创业园,,30,30,35,18,24,67,,,,12,22,7,12,0.7,0.7
2026-01-19T0100,3550A,102.8,24.9787,昆明市,昆明学院,,37,37,48,21,26,57,,,,21,25,4,5,0.5,0.6
2026-01-19T0100,3551A,102.5969,24.6738,昆明市,晋宁区生态环境分局,颗粒物(PM10),65,80,35,29,18,32,,,,18,16,2,2,0.7,0.6
2026-01-19T0100,3552A,102.6673,24.9861,昆明市,云天化总部,,36,36,35,22,21,66,,,,12,25,7,9,0.2,0.3
2026-01-19T0100,1456A,91.132,29.6515,拉萨市,八廓街,颗粒物(PM10),51,51,30,35,18,23,,,,55,24,9,8,1.5,0.7
2026-01-19T0100,1457A,91.1221,29.6748,拉萨市,市环保局,细颗粒物(PM2.5),83,75,56,61,35,19,,,,54,38,13,10,2.5,1.7
2026-01-19T0100,1458A,91.0874,29.6476,拉萨市,区监测站,,37,37,23,24,14,64,,,,30,34,5,5,1.1,1.1
2026-01-19T0100,1459A,91.1774,29.6541,拉萨市,西藏大学,细颗粒物(PM2.5),55,48,22,39,12,42,,,,54,22,7,5,1.7,0.7
2026-01-19T0100,1460A,90.9798,29.6586,拉萨市,区辐射站,颗粒物(PM10),55,59,48,31,22,28,,,,44,39,4,6,1.1,1
2026-01-19T0100,1461A,91.0831,29.6292,拉萨市,拉萨火车站,,33,33,27,19,17,88,,,,9,32,4,5,0.6,1
2026-01-19T0100,2520A,109.2203,23.7252,来宾市,来宾技工学校,细颗粒物(PM2.5),105,102,109,79,75,8,,,,40,25,7,12,1.1,1.1
2026-01-19T0100,3535A,109.1781,23.7293,来宾市,兴宾区政府,细颗粒物(PM2.5),139,135,107,106,86,52,,,,26,18,10,12,1.1,1
2026-01-19T0100,4002A,109.2312,23.7428,来宾市,中南小学,细颗粒物(PM2.5),102,109,100,76,74,0,,,,65,35,4,5,1.0,1
2026-01-19T0100,1479A,103.8309,36.0467,兰州市,铁路设计院,,,,,,,,,,,,,,,,
2026-01-19T0100,3241A,103.7439,36.0841,兰州市,百合公园,颗粒物(PM10),53,56,88,20,25,55,,,,8,9,5,10,0.5,0.5
2026-01-19T0100,3242A,103.9613,35.9985,兰州市,和平,颗粒物(PM10),60,69,109,14,29,62,,,,11,11,5,8,0.5,0.5
2026-01-19T0100,4236A,103.629272,36.093822,兰州市,庄浪东路808号,颗粒物(PM10),60,69,101,22,35,60,,,,10,11,10,15,0.3,0.4
2026-01-19T0100,4237A,103.7251,36.104344,兰州市,安宁西路88号,颗粒物(PM10),64,77,106,24,31,64,,,,7,10,8,11,0.2,0.3
2026-01-19T0100,4238A,103.846982,36.067567,兰州市,北滨河东路1号,颗粒物(PM10),63,75,98,29,35,59,,,,14,13,6,7,0.5,0.5
2026-01-19T0100,1067A,116.6712,39.5109,廊坊市,药材公司,,21,15,48,3,23,66,,,,4,21,3,6,0.2,0.7
2026-01-19T0100,1068A,116.7215,39.5592,廊坊市,开发区,,21,21,45,3,23,66,,,,8,22,3,6,0.2,0.7
2026-01-19T0100,1070A,116.7246,39.5273,廊坊市,北华航天学院,,46,46,55,3,24,65,,,,6,20,3,6,0.2,0.7
2026-01-19T0100,2919A,116.7022,39.5454,廊坊市,河北工业大学,,23,23,45,7,24,65,,,,2,17,3,5,0.2,0.7
2026-01-19T0100,2536A,103.7629,29.5844,乐山市,牛耳桥,细颗粒物(PM2.5),226,201,162,176,142,3,,,,65,42,5,6,1.4,1.2
2026-01-19T0100,2537A,103.7501,29.6002,乐山市,市第三水厂,细颗粒物(PM2.5),229,196,164,179,143,2,,,,73,42,6,7,1.6,1.2
2026-01-19T0100,2538A,103.7571,29.5664,乐山市,市监测站,细颗粒物(PM2.5),231,218,178,181,151,50,,,,33,33,7,7,1.2,1.2
2026-01-19T0100,3361A,103.7313,29.563,乐山市,理工大学,细颗粒物(PM2.5),254,238,180,204,154,39,,,,36,34,7,7,1.1,1.1
2026-01-19T0100,2599A,100.2497,26.8802,丽江市,丽江古城,,35,27,31,24,16,78,,,,9,13,9,10,0.4,0.4
2026-01-19T0100,2600A,100.2203,26.8906,丽江市,市中心,,26,19,25,9,11,83,,,,8,15,6,6,0.4,0.5
2026-01-19T0100,1267A,119.9141,28.4513,丽水市,监测站大楼,细颗粒物(PM2.5),77,71,72,56,60,11,,,,56,43,6,8,0.8,0.9
2026-01-19T0100,1268A,119.93,28.4589,丽水市,莲都小学,颗粒物(PM10),52,54,71,22,37,32,,,,45,41,/,/,/,/
2026-01-19T0100,1269A,119.8794,28.4232,丽水市,余庄前,颗粒物(PM10),54,57,69,37,48,8,,,,27,29,4,4,0.5,0.5
2026-01-19T0100,1173A,119.1759,34.5885,连云港市,市环境监测站,,32,27,28,22,14,47,,,,14,13,8,9,0.4,0.3
2026-01-19T0100,3000A,119.3577,34.6971,连云港市,德源药业,,42,39,32,29,14,47,,,,16,17,5,5,0.7,0.5
2026-01-19T0100,3007A,119.178,34.8442,连云港市,新城一中,细颗粒物(PM2.5),54,,36,38,23,50,,,,20,20,16,10,1.2,0.9
2026-01-19T0100,3008A,119.3607,34.7519,连云港市,胡沟管理处,,39,27,25,27,13,57,,,,13,22,6,8,0.5,0.3
2026-01-19T0100,3009A,119.1478,34.5913,连云港市,矿山设计院,,34,34,29,22,13,42,,,,16,14,7,7,0.5,0.5
2026-01-19T0100,3434A,119.2414,34.6539,连云港市,工贸学校,,39,39,33,27,18,36,,,,13,10,9,9,0.5,0.5
2026-01-19T0100,3664A,119.4171,34.734,连云港市,连云街道,,38,36,32,26,15,46,,,,24,21,2,2,0.6,0.5
2026-01-19T0100,2573A,102.2629,27.8981,凉山彝族自治州,西昌市政府,细颗粒物(PM2.5),62,61,65,44,52,48,,,,20,22,8,10,0.7,0.8
2026-01-19T0100,2574A,102.2686,27.885,凉山彝族自治州,凉山州政府,细颗粒物(PM2.5),78,87,73,57,50,20,,,,37,27,8,10,1.1,0.7
2026-01-19T0100,4229A,102.2342,27.8859,凉山彝族自治州,凯乐南路30号,颗粒物(PM10),55,59,93,35,58,24,,,,54,43,7,10,0.6,0.9
2026-01-19T0100,2212A,123.1978,41.2036,辽阳市,宏伟区,,46,38,48,32,41,34,,,,23,19,12,11,0.5,0.6
2026-01-19T0100,2213A,123.1684,41.2497,辽阳市,新华园,,40,38,43,28,32,32,,,,32,25,9,11,0.3,0.5
2026-01-19T0100,2214A,123.2355,41.2663,辽阳市,滨河路,,46,46,58,30,44,23,,,,30,32,9,9,0.6,0.8
2026-01-19T0100,4083A,123.153,41.2874,辽阳市,铁西路150号,细颗粒物(PM2.5),60,47,48,43,38,20,,,,40,33,16,13,1.0,1.1
2026-01-19T0100,2227A,125.1359,42.8845,辽源市,环保局,细颗粒物(PM2.5),70,74,59,51,43,15,,,,54,38,4,6,1.1,0.9
2026-01-19T0100,4085A,125.0998,42.9134,辽源市,安宁大街333号,,38,29,53,26,44,49,,,,14,25,7,8,0.6,0.8
2026-01-19T0100,1625A,115.9789,36.4372,聊城市,区政府,,33,33,39,13,23,55,,,,17,27,12,11,0.6,0.8
2026-01-19T0100,3200A,115.9772,36.4986,聊城市,监控中心,,25,23,31,17,28,56,,,,12,20,7,7,0.7,0.8
2026-01-19T0100,3513A,116.0443,36.436,聊城市,九州社区,,31,31,44,17,29,63,,,,2,11,2,3,0.5,0.5
2026-01-19T0100,4018A,116.0564,36.4609,聊城市,星美广场,,31,31,45,20,27,51,,,,11,16,2,5,0.5,0.5
2026-01-19T0100,4113A,116.0091,36.4495,聊城市,利民路,,25,25,40,14,27,49,,,,18,25,8,8,0.6,0.7
2026-01-19T0100,2632A,94.3683,29.6373,林芝市,林芝监测站,,25,15,17,7,7,78,,,,2,5,3,3,0.4,0.4
2026-01-19T0100,2633A,94.3616,29.6634,林芝市,林芝人民医院,,25,16,19,6,7,77,,,,5,9,2,2,0.2,0.3
2026-01-19T0100,2603A,100.0779,23.8981,临沧市,市环保局,细颗粒物(PM2.5),99,,42,74,41,44,,,,10,11,5,5,0.6,0.7
2026-01-19T0100,2604A,100.0894,23.882,临沧市,市气象局,,39,39,43,26,25,49,,,,6,11,4,4,0.4,0.5
2026-01-19T0100,1733A,111.5552,36.0791,临汾市,临钢医院,颗粒物(PM10),75,99,126,47,73,17,,,,33,31,12,11,1.1,1.2
2026-01-19T0100,1734A,111.4984,36.0734,临汾市,技工学校,颗粒物(PM10),56,61,121,17,73,33,,,,25,37,6,11,0.4,0.9
2026-01-19T0100,1736A,111.5017,36.0857,临汾市,市委,颗粒物(PM10),52,53,116,10,65,38,,,,23,33,9,12,0.7,1.2
2026-01-19T0100,3018A,111.5048,36.1015,临汾市,唐尧大酒店,颗粒物(PM10),62,73,122,17,69,36,,,,26,36,6,8,0.6,1.1
2026-01-19T0100,4244A,111.4879,36.053,临汾市,启星学校,,46,46,120,19,78,39,,,,26,40,8,11,0.7,1.3
2026-01-19T0100,4271A,103.2464,35.6123,临夏回族自治州,滨河东路1号,颗粒物(PM10),69,87,151,20,27,46,,,,11,15,8,12,0.4,0.5
2026-01-19T0100,4310A,103.207136,35.599807,临夏回族自治州,新华街21号,颗粒物(PM10),60,69,144,24,30,49,,,,10,14,10,14,0.4,0.5
2026-01-19T0100,1618A,118.3429,35.0532,临沂市,沂河小区,,38,29,43,26,40,58,,,,15,26,8,8,0.5,0.6
2026-01-19T0100,1619A,118.2962,35.0568,临沂市,鲁南制药厂,,32,24,36,22,35,56,,,,11,24,7,8,0.5,0.7
2026-01-19T0100,1620A,118.2793,34.9976,临沂市,新光毛纺厂,,33,24,32,23,32,52,,,,18,32,7,7,0.6,0.7
2026-01-19T0100,1621A,118.3955,35.0889,临沂市,河东保险公司,,32,31,44,22,34,59,,,,11,26,7,7,0.5,0.7
2026-01-19T0100,3370A,118.3563,35.0215,临沂市,十里堡居委,,21,19,35,9,24,67,,,,13,29,8,8,0.5,0.7
2026-01-19T0100,3496A,118.359,35.1067,临沂市,南坊新区,,27,27,38,12,29,61,,,,12,26,7,7,0.5,0.7
2026-01-19T0100,3860A,118.3915,35.0297,临沂市,皇山花园小区,,34,34,40,22,32,60,,,,15,31,9,10,0.7,0.8
2026-01-19T0100,1870A,109.4854,24.3898,柳州市,柳东小学,细颗粒物(PM2.5),77,72,85,56,71,62,,,,22,29,46,33,0.7,0.8
2026-01-19T0100,1871A,109.4109,24.3304,柳州市,环保监测站,细颗粒物(PM2.5),102,104,100,76,75,10,,,,41,37,5,6,1.3,1.3
2026-01-19T0100,1872A,109.3886,24.3408,柳州市,河西水厂,细颗粒物(PM2.5),127,141,128,96,78,0,,,,66,42,7,8,1.6,1.2
2026-01-19T0100,1873A,109.4263,24.2951,柳州市,市四中,细颗粒物(PM2.5),100,132,108,75,72,2,,,,70,45,9,10,1.6,1
2026-01-19T0100,1874A,109.396,24.3658,柳州市,市九中,,,,106,,84,12,,,,,41,,13,0.9,1.2
2026-01-19T0100,1875A,109.4912,24.3164,柳州市,古亭山,颗粒物(PM10),53,56,81,34,54,9,,,,57,35,7,8,0.7,0.8
2026-01-19T0100,3402A,109.5422,24.3994,柳州市,市二中,细颗粒物(PM2.5),72,67,80,52,62,23,,,,34,31,15,17,0.8,0.8
2026-01-19T0100,2307A,116.5078,31.7369,六安市,监测大楼,,16,14,114,11,74,3,,,,32,31,3,3,0.6,0.6
2026-01-19T0100,2308A,116.4738,31.7642,六安市,皖西学院,,18,18,116,11,65,4,,,,32,29,4,4,0.7,0.6
2026-01-19T0100,2309A,116.4997,31.7904,六安市,朝阳厂,,17,11,101,11,63,3,,,,33,31,6,5,0.8,0.6
2026-01-19T0100,2310A,116.5566,31.7885,六安市,开发区,,22,,111,15,66,4,,,,31,32,4,4,0.7,0.6
2026-01-19T0100,2577A,104.8293,26.592,六盘水市,黄土坡,细颗粒物(PM2.5),65,47,67,47,51,39,,,,18,25,8,13,0.8,1
2026-01-19T0100,2579A,104.8481,26.5898,六盘水市,民中,细颗粒物(PM2.5),64,56,63,46,54,54,,,,24,23,8,9,0.9,0.8
2026-01-19T0100,2580A,104.9541,26.5506,六盘水市,双水,,46,46,60,27,45,69,,,,12,14,4,6,0.5,0.4
2026-01-19T0100,4151A,104.8899,26.5685,六盘水市,钟山大道中段564号,颗粒物(PM10),67,83,80,44,51,46,,,,20,18,11,10,1.0,0.9
2026-01-19T0100,2336A,117.022,25.1031,龙岩市,龙岩市监测站,细颗粒物(PM2.5),59,52,57,42,42,28,,,,42,35,26,29,0.7,0.8
2026-01-19T0100,2337A,117.0257,25.0662,龙岩市,闽西职业技术学院,颗粒物(PM10),59,68,62,41,37,56,,,,35,28,18,16,0.7,0.8
2026-01-19T0100,2338A,117.0195,25.0306,龙岩市,龙岩学院,细颗粒物(PM2.5),53,48,46,37,34,64,,,,18,16,10,10,/,/
2026-01-19T0100,2885A,104.9344,33.3827,陇南市,滨江中学,颗粒物(PM10),64,77,100,38,48,56,,,,8,33,3,8,0.6,1.4
2026-01-19T0100,3247A,104.9551,33.3709,陇南市,市总工会,颗粒物(PM10),60,69,90,32,52,53,,,,9,28,7,10,0.5,0.8
2026-01-19T0100,2488A,111.9984,27.7346,娄底市,市监测站,,49,,153,34,93,13,,,,24,29,6,8,0.8,1
2026-01-19T0100,2491A,111.9888,27.7035,娄底市,市政府,,50,37,140,35,116,13,,,,26,29,4,6,0.9,0.9
2026-01-19T0100,4127A,111.9812,27.7591,娄底市,涟钢职大,,48,36,174,33,127,9,,,,21,29,3,7,0.6,0.8
2026-01-19T0100,4128A,112.0303,27.7457,娄底市,娄底体校,,38,38,163,24,123,6,,,,26,20,2,2,0.8,0.9
2026-01-19T0100,1894A,105.4427,28.9063,泸州市,小市上码头,细颗粒物(PM2.5),192,167,182,144,152,53,,,,19,32,7,8,1.4,1.5
2026-01-19T0100,1895A,105.4241,28.8573,泸州市,兰田宪桥,细颗粒物(PM2.5),172,195,239,130,159,69,,,,,11,7,8,1.4,1.5
2026-01-19T0100,1896A,105.4378,28.8833,泸州市,市环监站,细颗粒物(PM2.5),163,170,192,124,153,71,,,,13,24,9,10,1.3,1.4
2026-01-19T0100,4272A,105.3689,28.7783,泸州市,纳溪中医医院,细颗粒物(PM2.5),172,167,152,130,155,83,,,,10,16,7,8,1.2,1.4
2026-01-19T0100,2183A,111.1447,37.5212,吕梁市,环保局,颗粒物(PM10),52,53,137,22,59,40,,,,22,36,8,8,0.3,0.7
2026-01-19T0100,2185A,111.1285,37.5338,吕梁市,自来水公司,颗粒物(PM10),59,67,123,17,56,41,,,,20,36,6,10,0.5,0.8
2026-01-19T0100,2867A,111.1225,37.5093,吕梁市,马茂庄小学,颗粒物(PM10),60,70,127,22,54,36,,,,22,40,7,9,0.4,0.7
2026-01-19T0100,1812A,112.3934,34.6517,洛阳市,市委党校,细颗粒物(PM2.5),82,62,52,60,55,23,,,,26,30,6,7,0.7,0.8
2026-01-19T0100,1815A,112.494,34.6883,洛阳市,河南林校,细颗粒物(PM2.5),75,71,58,55,46,19,,,,28,27,7,7,0.7,0.7
2026-01-19T0100,1816A,112.3843,34.623,洛阳市,开发区管委会,细颗粒物(PM2.5),75,73,59,55,49,25,,,,26,30,6,5,0.8,0.8
2026-01-19T0100,1817A,112.4263,34.6249,洛阳市,市委新办公区,细颗粒物(PM2.5),73,74,62,53,51,22,,,,26,29,7,7,0.5,0.6
2026-01-19T0100,3340A,112.6005,34.6323,洛阳市,伊滨,细颗粒物(PM2.5),87,,62,64,54,25,,,,24,27,7,6,0.6,0.7
2026-01-19T0100,3341A,112.495,34.6338,洛阳市,中移产业园,细颗粒物(PM2.5),77,64,57,56,53,11,,,,28,28,7,8,0.6,0.8
2026-01-19T0100,3593A,112.5736,34.8993,洛阳市,吉利监测站,细颗粒物(PM2.5),72,66,56,52,52,32,,,,18,25,7,7,0.7,0.8
2026-01-19T0100,3635A,112.3678,34.6623,洛阳市,河科大西苑校区,细颗粒物(PM2.5),69,71,53,50,43,27,,,,26,30,6,6,0.8,0.9
2026-01-19T0100,3636A,112.4387,34.678,洛阳市,英才小学,细颗粒物(PM2.5),82,73,59,60,55,16,,,,30,31,8,7,0.7,0.7
2026-01-19T0100,4214A,112.460027,34.694929,洛阳市,春都路1号院,细颗粒物(PM2.5),69,81,64,50,42,18,,,,23,24,6,6,0.8,0.9
2026-01-19T0100,2399A,114.051,33.5721,漯河市,三五一五工厂,细颗粒物(PM2.5),58,47,54,41,47,22,,,,16,18,6,6,0.8,0.8
2026-01-19T0100,2400A,114.0055,33.5698,漯河市,漯河大学,细颗粒物(PM2.5),67,50,55,48,44,18,,,,14,14,4,4,0.7,0.6
2026-01-19T0100,2401A,114.0134,33.5826,漯河市,市水利局,细颗粒物(PM2.5),67,,54,48,48,20,,,,20,19,3,3,0.6,0.7
2026-01-19T0100,2402A,114.0261,33.5697,漯河市,市广电局,细颗粒物(PM2.5),54,42,51,38,46,21,,,,15,16,5,5,0.7,0.7
2026-01-19T0100,3478A,113.9691,33.568,漯河市,市图书馆,细颗粒物(PM2.5),59,61,65,42,47,17,,,,19,19,4,4,0.8,0.8
2026-01-19T0100,4250A,114.089259,33.588274,漯河市,韶山路11号,细颗粒物(PM2.5),63,48,62,45,48,19,,,,13,15,5,5,0.8,0.8
2026-01-19T0100,1798A,118.5084,31.6838,马鞍山市,湖东路四小,,47,47,93,28,60,40,,,,24,30,4,4,0.5,0.7
2026-01-19T0100,1799A,118.5019,31.6449,马鞍山市,开发区,颗粒物(PM10),51,51,99,25,55,39,,,,26,33,5,5,0.5,0.7
2026-01-19T0100,3633A,118.4914,31.681,马鞍山市,雨山,颗粒物(PM10),57,63,102,29,57,38,,,,30,34,9,7,0.7,0.8
2026-01-19T0100,4191A,118.527362,31.722269,马鞍山市,慈湖高新区,颗粒物(PM10),52,53,97,27,58,42,,,,22,29,5,5,0.5,0.7
2026-01-19T0100,1686A,111.0285,21.469,茂名市,电白南海,,48,48,59,22,34,95,,,,13,20,8,14,0.7,0.7
2026-01-19T0100,1687A,110.9294,21.6533,茂名市,茂石化七小,,41,41,57,22,28,79,,,,17,21,5,10,0.2,0.3
2026-01-19T0100,1688A,110.9108,21.6688,茂名市,健康路,,34,34,50,12,30,93,,,,14,22,7,19,0.7,0.8
2026-01-19T0100,1689A,110.8592,21.6826,茂名市,高岭,,44,44,82,14,34,92,,,,14,28,7,23,/,/
2026-01-19T0100,3450A,111.0101,21.5165,茂名市,电白水东,,39,39,51,24,29,94,,,,9,16,8,12,/,/
2026-01-19T0100,2540A,103.8414,30.0871,眉山市,气象局,细颗粒物(PM2.5),213,183,173,163,158,55,,,,37,40,14,15,1.1,1.1
2026-01-19T0100,3148A,103.829,30.0563,眉山市,区人社局,细颗粒物(PM2.5),199,167,161,149,144,41,,,,39,47,11,15,1.0,1.1
2026-01-19T0100,4148A,103.8836,30.0695,眉山市,眉职院,细颗粒物(PM2.5),208,200,173,158,129,53,,,,29,34,2,2,1.1,1.1
2026-01-19T0100,1690A,116.1248,24.3307,梅州市,梅江月梅,细颗粒物(PM2.5),114,,70,86,66,14,,,,67,37,/,/,/,/
2026-01-19T0100,1691A,116.0798,24.2719,梅州市,梅县新城,细颗粒物(PM2.5),67,59,70,48,52,13,,,,62,44,7,9,0.8,0.8
2026-01-19T0100,3315A,116.1234,24.2994,梅州市,梅龙,细颗粒物(PM2.5),64,70,68,46,44,50,,,,28,32,10,10,1.0,1
2026-01-19T0100,1878A,104.7775,31.4741,绵阳市,富乐山,细颗粒物(PM2.5),65,60,110,47,87,64,,,,12,26,8,8,0.5,0.7
2026-01-19T0100,1880A,104.6698,31.4668,绵阳市,高新区自来水公司,,49,44,120,34,88,60,,,,11,30,8,9,0.7,0.9
2026-01-19T0100,3491A,104.6899,31.5324,绵阳市,西科大附属小学,,49,47,118,34,85,66,,,,14,30,8,8,0.4,0.8
2026-01-19T0100,3492A,104.5647,31.5343,绵阳市,安州区旅游局,细颗粒物(PM2.5),58,56,109,41,87,61,,,,20,30,10,10,0.6,0.8
2026-01-19T0100,4146A,104.7092,31.4972,绵阳市,科技城新区公安局,颗粒物(PM10),60,69,123,30,84,70,,,,12,25,8,8,0.6,0.9
2026-01-19T0100,4226A,104.765114,31.453094,绵阳市,绵阳市气象局,,45,39,112,31,90,64,,,,12,33,4,4,0.5,0.8
2026-01-19T0100,1784A,129.61,44.561,牡丹江市,环保大楼,细颗粒物(PM2.5),59,61,50,42,33,30,,,,30,30,4,5,0.6,0.5
2026-01-19T0100,1787A,129.6364,44.6075,牡丹江市,机车工厂,细颗粒物(PM2.5),100,95,75,75,47,4,,,,50,39,7,6,1.1,0.8
2026-01-19T0100,1788A,129.6386,44.5462,牡丹江市,第一中学,,43,42,31,30,25,16,,,,33,28,5,8,0.7,0.7
2026-01-19T0100,4287A,129.5992,44.5964,牡丹江市,东晓云街98号,细颗粒物(PM2.5),87,65,59,64,56,17,,,,33,31,7,9,1.1,0.9
2026-01-19T0100,2531A,105.0703,29.61,内江市,市监测站,细颗粒物(PM2.5),147,,131,112,134,58,,,,14,22,7,7,1.0,1.1
2026-01-19T0100,2533A,105.0657,29.5807,内江市,内江二中,细颗粒物(PM2.5),147,134,147,112,123,47,,,,24,35,4,5,1.1,1.2
2026-01-19T0100,2534A,105.0407,29.5828,内江市,内江日报社,细颗粒物(PM2.5),138,113,121,105,122,53,,,,22,34,2,3,0.9,1
2026-01-19T0100,4147A,105.0433,29.6105,内江市,玉峰路西段888号,细颗粒物(PM2.5),158,,125,120,130,49,,,,22,30,2,3,1.0,1.1
2026-01-19T0100,2628A,92.0653,31.4846,那曲市,那曲监测站,细颗粒物(PM2.5),117,117,73,88,47,7,,,,66,35,20,14,3.8,1.8
2026-01-19T0100,4243A,92.0515,31.4787,那曲市,那曲市委宣传部,,36,36,36,25,21,14,,,,42,23,9,8,1.6,1.2
2026-01-19T0100,1291A,115.8887,28.7006,南昌市,省林业公司,细颗粒物(PM2.5),149,136,157,114,139,48,,,,26,36,4,7,0.6,0.9
2026-01-19T0100,1292A,115.813,28.7443,南昌市,林科所,细颗粒物(PM2.5),168,146,152,127,119,59,,,,24,38,8,12,0.9,1
2026-01-19T0100,1294A,115.8518,28.687,南昌市,建工学校,细颗粒物(PM2.5),172,177,201,130,144,49,,,,35,41,14,16,1.3,1.6
2026-01-19T0100,1295A,115.8926,28.6425,南昌市,象湖,细颗粒物(PM2.5),160,138,155,122,136,47,,,,27,32,9,12,0.9,1.2
2026-01-19T0100,3046A,115.9084,28.6062,南昌市,机电学校,细颗粒物(PM2.5),185,182,188,139,148,51,,,,30,32,6,8,1.0,1.1
2026-01-19T0100,3690A,115.9718,28.7032,南昌市,外国语学校,细颗粒物(PM2.5),175,175,176,132,144,37,,,,32,33,13,14,1.0,1.1
2026-01-19T0100,4106A,115.7923,28.6873,南昌市,工业二路,细颗粒物(PM2.5),155,167,172,118,148,62,,,,19,29,6,7,0.6,0.9
2026-01-19T0100,4192A,115.931587,28.686774,南昌市,南京东路235号,细颗粒物(PM2.5),158,169,180,120,142,42,,,,31,34,6,8,1.5,1.6
2026-01-19T0100,1906A,106.0791,30.8022,南充市,南充市委,细颗粒物(PM2.5),90,76,131,67,119,36,,,,21,35,4,4,0.8,1.1
2026-01-19T0100,1907A,106.1038,30.8215,南充市,南充炼油厂,细颗粒物(PM2.5),97,89,133,72,120,41,,,,13,24,6,6,1.0,1.2
2026-01-19T0100,4227A,106.108336,30.788436,南充市,梨树横街98号,细颗粒物(PM2.5),88,103,147,65,110,43,,,,21,34,6,6,0.7,1
2026-01-19T0100,4304A,106.1172,30.843,南充市,清泉寺北路188号,细颗粒物(PM2.5),83,78,117,61,111,49,,,,16,21,7,6,0.7,0.8
2026-01-19T0100,4305A,106.067,30.7616,南充市,同庆路1号,细颗粒物(PM2.5),85,82,128,63,115,42,,,,18,37,7,7,0.9,1.2
2026-01-19T0100,1151A,118.8033,32.1085,南京市,迈皋桥,,47,47,72,19,38,69,,,,1,17,3,4,0.4,0.6
2026-01-19T0100,1152A,118.7487,32.057,南京市,草场门,颗粒物(PM10),53,56,76,19,38,43,,,,19,30,5,6,0.4,0.6
2026-01-19T0100,1154A,118.770105,32.004342,南京市,中华门,颗粒物(PM10),54,58,78,22,38,51,,,,12,22,4,4,0.5,0.6
2026-01-19T0100,1155A,118.8059,32.0329,南京市,瑞金路,颗粒物(PM10),58,66,82,29,41,52,,,,13,20,4,4,0.7,0.9
2026-01-19T0100,1156A,118.7946,32.0774,南京市,玄武湖,,49,49,73,11,37,59,,,,18,23,4,4,0.7,0.9
2026-01-19T0100,1157A,118.6415,32.0964,南京市,浦口,颗粒物(PM10),59,67,93,24,49,52,,,,18,31,9,8,1.3,1.2
2026-01-19T0100,1158A,118.730129,32.000956,南京市,奥体中心,颗粒物(PM10),56,62,85,22,45,63,,,,13,25,7,7,0.4,0.6
2026-01-19T0100,1159A,118.9072,32.1047,南京市,仙林大学城,颗粒物(PM10),51,51,78,17,38,56,,,,18,26,6,7,0.7,0.8
2026-01-19T0100,3422A,118.8443,31.919,南京市,江宁彩虹桥,颗粒物(PM10),55,59,76,24,39,58,,,,15,27,4,4,0.5,0.7
2026-01-19T0100,3427A,118.8497,32.3599,南京市,六合雄州,,38,38,65,25,34,67,,,,8,19,3,3,0.4,0.6
2026-01-19T0100,4086A,118.7641,32.0841,南京市,新模范马路66号,颗粒物(PM10),52,53,83,3,34,85,,,,1,12,4,4,0.8,1
2026-01-19T0100,4249A,118.8707617,31.34017673,南京市,汶溪路181号,颗粒物(PM10),63,75,89,36,57,48,,,,24,33,7,8,0.7,0.9
2026-01-19T0100,4312A,119.019,31.6512,南京市,中山西路1号,,44,44,71,30,46,50,,,,19,25,4,4,0.5,0.7
2026-01-19T0100,1401A,108.3098,22.788,南宁市,二十一中,,50,50,62,30,46,118,,,,24,24,11,7,0.9,0.9
2026-01-19T0100,1402A,108.3135,22.8529,南宁市,北湖,细颗粒物(PM2.5),68,67,80,49,60,78,,,,69,38,7,7,1.0,0.9
2026-01-19T0100,1403A,108.3205,22.8222,南宁市,市监测站,细颗粒物(PM2.5),59,54,66,42,57,122,,,,29,29,16,10,0.9,0.9
2026-01-19T0100,1404A,108.3828,22.8038,南宁市,大自然花园,颗粒物(PM10),57,64,71,31,51,142,,,,23,25,9,7,0.9,0.9
2026-01-19T0100,1406A,108.2397,22.8462,南宁市,区农职院,细颗粒物(PM2.5),58,58,71,41,51,102,,,,44,31,12,11,1.1,1
2026-01-19T0100,1407A,108.3285,22.7356,南宁市,英华嘉园,细颗粒物(PM2.5),60,55,70,43,52,107,,,,32,32,10,7,1.0,0.9
2026-01-19T0100,3401A,108.4829,22.762,南宁市,红星社区,颗粒物(PM10),56,62,73,39,53,113,,,,21,25,8,6,0.7,0.8
2026-01-19T0100,4132A,108.2927,23.1477,南宁市,起凤路9号,细颗粒物(PM2.5),64,73,75,46,61,151,,,,26,22,4,3,0.7,0.7
2026-01-19T0100,4221A,108.2177,22.7774,南宁市,乐贤路16号,颗粒物(PM10),58,66,72,37,49,80,,,,69,35,8,6,0.9,0.9
2026-01-19T0100,2332A,118.1682,26.6371,南平市,南平市监测站,细颗粒物(PM2.5),52,49,49,36,35,13,,,,44,28,4,5,0.7,0.7
2026-01-19T0100,2334A,118.1757,26.6276,南平市,南平七中,,50,35,45,35,35,16,,,,41,27,3,4,0.8,0.8
2026-01-19T0100,1168A,120.9056,31.9669,南通市,狼山街道,,31,31,35,17,17,69,,,,9,13,2,3,0.2,0.3
2026-01-19T0100,1170A,120.8635,32.0231,南通市,城中,,37,37,41,12,16,66,,,,12,18,5,5,0.5,0.6
2026-01-19T0100,1171A,120.9376,31.9301,南通市,星湖花园,,38,38,36,14,17,77,,,,14,17,4,4,0.2,0.2
2026-01-19T0100,1172A,120.8053,32.046,南通市,紫琅学院,,32,32,45,10,15,73,,,,10,17,3,3,0.3,0.4
2026-01-19T0100,3291A,121.0631,32.0644,南通市,通州监测站,,31,31,29,14,13,75,,,,12,14,4,3,0.6,0.6
2026-01-19T0100,3432A,120.9348,31.9874,南通市,环境教育馆,,39,39,36,13,15,71,,,,10,15,4,4,0.3,0.4
2026-01-19T0100,4091A,120.8692,31.9885,南通市,洪江路,,36,36,32,14,16,70,,,,9,14,2,3,0.2,0.3
2026-01-19T0100,2404A,112.5338,33.0086,南阳市,瓦房庄,细颗粒物(PM2.5),75,64,60,55,55,41,,,,12,18,6,5,0.7,0.8
2026-01-19T0100,2405A,112.5002,32.9734,南阳市,汉画馆,细颗粒物(PM2.5),69,57,62,50,50,42,,,,12,20,5,5,0.8,0.8
2026-01-19T0100,2406A,112.5778,33.0144,南阳市,气象站,细颗粒物(PM2.5),64,65,65,46,43,42,,,,14,20,4,4,0.6,0.6
2026-01-19T0100,2407A,112.548,32.9687,南阳市,理工学院,细颗粒物(PM2.5),57,54,58,40,44,39,,,,16,24,4,4,0.7,0.8
2026-01-19T0100,4008A,112.5233,32.9921,南阳市,卧龙区政府,细颗粒物(PM2.5),70,62,66,51,51,41,,,,18,25,5,4,0.6,0.7
2026-01-19T0100,1234A,121.8352,29.9111,宁波市,区环保大楼,颗粒物(PM10),72,93,92,43,39,7,,,,63,67,6,7,0.7,0.8
2026-01-19T0100,1235A,121.5595,29.8208,宁波市,万里学院,颗粒物(PM10),71,92,86,49,48,22,,,,47,52,5,5,0.6,0.7
2026-01-19T0100,1236A,121.713,29.9564,宁波市,龙赛医院,颗粒物(PM10),52,54,71,20,32,33,,,,41,54,4,4,0.6,0.7
2026-01-19T0100,1240A,121.5855,29.8635,宁波市,太古小学,,,86,90,30,38,35,,,,,44,4,5,0.5,0.7
2026-01-19T0100,1241A,121.5239,29.8673,宁波市,市环境监测中心,颗粒物(PM10),68,86,79,37,39,31,,,,32,48,7,8,0.7,0.8
2026-01-19T0100,2871A,121.6156,29.9015,宁波市,万里国际学校,,,62,84,24,36,,,,,37,60,4,5,0.5,0.7
2026-01-19T0100,3710A,121.5593,29.8976,宁波市,白沙活动中心,颗粒物(PM10),70,89,85,30,33,32,,,,38,50,4,6,0.4,0.4
2026-01-19T0100,4095A,121.8962,29.7529,宁波市,中科路88号,颗粒物(PM10),61,71,74,31,33,36,,,,47,41,7,6,0.4,0.4
2026-01-19T0100,2341A,119.5387,26.6611,宁德市,宁德市监测站,,21,21,31,12,22,60,,,,11,19,3,4,0.4,0.5
2026-01-19T0100,3209A,119.5231,26.6562,宁德市,宁德一中,,19,12,29,11,24,60,,,,12,15,6,7,0.2,0.3
2026-01-19T0100,2618A,98.859,25.8541,怒江傈僳族自治州,州监测站,颗粒物(PM10),51,52,36,34,26,31,,,,20,13,5,5,0.5,0.5
2026-01-19T0100,2619A,98.8607,25.8168,怒江傈僳族自治州,泸水一中,,46,,38,32,26,23,,,,22,18,6,6,0.6,0.5
2026-01-19T0100,1888A,101.6891,26.571,攀枝花市,弄弄坪,细颗粒物(PM2.5),93,82,80,69,59,21,,,,45,32,15,25,1.4,1.6
2026-01-19T0100,1889A,101.577,26.5914,攀枝花市,河门口,细颗粒物(PM2.5),85,85,83,63,59,25,,,,39,28,16,21,1.3,1.5
2026-01-19T0100,1891A,101.7365,26.4986,攀枝花市,仁和,细颗粒物(PM2.5),64,71,72,46,49,36,,,,20,27,9,18,1.0,1.3
2026-01-19T0100,2835A,101.7222,26.567,攀枝花市,四十中小,细颗粒物(PM2.5),98,109,99,73,67,11,,,,69,45,24,21,3.0,1.9
2026-01-19T0100,1604A,122.0303,41.1489,盘锦市,开发区,,20,20,36,12,22,55,,,,7,9,1,2,0.5,0.5
2026-01-19T0100,1605A,122.0486,41.0883,盘锦市,兴隆台,,32,32,40,14,23,55,,,,8,17,6,7,0.6,0.6
2026-01-19T0100,1606A,121.8297,41.1026,盘锦市,新生街道,,28,28,32,18,18,34,,,,20,14,7,6,0.4,0.4
2026-01-19T0100,1832A,113.3257,33.7423,平顶山市,新华旅馆,细颗粒物(PM2.5),54,48,78,38,46,35,,,,17,22,4,4,0.5,0.6
2026-01-19T0100,1833A,113.2917,33.737,平顶山市,规划设计院,细颗粒物(PM2.5),59,63,60,42,46,39,,,,14,17,5,4,0.6,0.7
2026-01-19T0100,1834A,113.182,33.7738,平顶山市,平顶山工学院,细颗粒物(PM2.5),64,56,56,46,45,42,,,,18,22,7,6,0.5,0.5
2026-01-19T0100,3594A,112.8736,33.9068,平顶山市,石龙区,细颗粒物(PM2.5),65,59,55,47,47,52,,,,6,17,4,4,0.5,0.6
2026-01-19T0100,4116A,113.284,33.7139,平顶山市,姚电大道23号,细颗粒物(PM2.5),64,61,64,46,50,39,,,,18,22,6,5,0.7,0.7
2026-01-19T0100,2656A,106.6633,35.5338,平凉市,聚贤嘉苑,,40,40,97,22,28,66,,,,6,7,10,14,0.4,0.5
2026-01-19T0100,2657A,106.7021,35.5307,平凉市,博物馆,,49,49,96,20,29,68,,,,7,8,9,10,0.4,0.4
2026-01-19T0100,2348A,113.8384,27.6436,萍乡市,中医院,细颗粒物(PM2.5),152,188,131,116,91,1,,,,46,33,8,10,1.7,1.2
2026-01-19T0100,2350A,113.8677,27.6438,萍乡市,市环保局,细颗粒物(PM2.5),130,126,95,99,76,2,,,,47,32,19,19,1.7,1.2
2026-01-19T0100,2351A,113.8663,27.6202,萍乡市,安源区政府,细颗粒物(PM2.5),225,,120,175,121,0,,,,44,35,14,16,1.5,1.4
2026-01-19T0100,4107A,113.8686,27.6668,萍乡市,联洪村委会,细颗粒物(PM2.5),162,195,121,123,90,9,,,,43,24,4,8,1.3,1
2026-01-19T0100,2319A,119.0142,25.4324,莆田市,荔城区仓后路,颗粒物(PM10),51,52,40,28,22,49,,,,20,18,/,/,/,/
2026-01-19T0100,2320A,119.0016,25.4553,莆田市,莆田市监测站,,33,,33,23,22,44,,,,12,12,2,3,0.7,0.6
2026-01-19T0100,2321A,119.112,25.4561,莆田市,涵江区六中,,29,28,34,20,20,77,,,,14,20,/,/,0.4,0.4
2026-01-19T0100,2322A,119.1014,25.3215,莆田市,秀屿区政府,,27,18,35,10,17,84,,,,12,11,2,3,0.6,0.7
2026-01-19T0100,2392A,115.0312,35.7636,濮阳市,环保局,细颗粒物(PM2.5),57,50,53,40,39,24,,,,22,23,5,5,0.6,0.6
2026-01-19T0100,3021A,115,35.7667,濮阳市,濮水河管理处,颗粒物(PM10),121,191,65,41,38,26,,,,25,25,4,4,0.8,0.8
2026-01-19T0100,4118A,115.0552,35.7816,濮阳市,中原东路68号,细颗粒物(PM2.5),58,52,62,41,39,25,,,,25,26,3,4,0.3,0.3
2026-01-19T0100,4216A,115.0923632,35.76857718,濮阳市,任丘路479号,细颗粒物(PM2.5),54,49,63,38,41,29,,,,21,25,4,4,0.6,0.6
2026-01-19T0100,2601A,100.9801,22.7634,普洱市,市环保局,颗粒物(PM10),52,53,49,30,20,30,,,,10,11,5,5,0.4,0.4
2026-01-19T0100,2602A,100.9763,22.8237,普洱市,普洱第二中学,,42,40,42,29,24,2,,,,39,19,5,5,0.4,0.3
2026-01-19T0100,3345A,131.0413,45.7795,七台河市,中波台,颗粒物(PM10),51,52,46,35,32,21,,,,33,26,6,8,0.7,0.6
2026-01-19T0100,3637A,131.0136,45.7688,七台河市,人民广场,细颗粒物(PM2.5),84,89,51,62,40,13,,,,46,35,5,7,1.2,0.7
2026-01-19T0100,3684A,130.8639,45.8144,七台河市,新建矿广场,细颗粒物(PM2.5),58,53,44,41,32,19,,,,33,22,2,4,0.3,0.3
2026-01-19T0100,1779A,123.9307,47.3641,齐齐哈尔市,安居小区,,19,19,23,11,15,51,,,,7,12,2,3,0.3,0.5
2026-01-19T0100,1780A,123.9497,47.3389,齐齐哈尔市,中心广场,,16,15,18,7,11,50,,,,7,12,4,6,0.6,0.7
2026-01-19T0100,1781A,123.9483,47.3229,齐齐哈尔市,农牧车辆厂,,29,29,24,16,12,49,,,,5,9,5,6,0.3,0.3
2026-01-19T0100,1783A,123.9442,47.2994,齐齐哈尔市,市环境监测站,,35,35,26,6,14,53,,,,4,12,3,4,0.6,0.7
2026-01-19T0100,3662A,123.6341,47.2079,齐齐哈尔市,富区青少年活动中心,,20,20,34,7,18,54,,,,5,15,4,7,0.5,0.6
2026-01-19T0100,2591A,107.9765,26.5724,黔东南苗族侗族自治州,市环境监测站,,35,29,55,24,48,88,,,,4,17,4,5,0.3,0.6
2026-01-19T0100,2881A,107.8909,26.531,黔东南苗族侗族自治州,凯里学院,,39,39,51,25,39,90,,,,8,11,1,1,0.2,0.3
2026-01-19T0100,2593A,107.5223,26.2371,黔南布依族苗族自治州,小围寨,,39,29,44,27,36,75,,,,4,5,6,6,0.8,0.8
2026-01-19T0100,3538A,107.5175,26.2977,黔南布依族苗族自治州,沙坝,,45,34,46,31,37,71,,,,7,8,4,4,0.8,0.8
2026-01-19T0100,2589A,104.9022,25.0943,黔西南布依族苗族自治州,场坝街,细颗粒物(PM2.5),79,73,50,58,36,22,,,,23,10,2,4,0.9,0.6
2026-01-19T0100,2590A,104.8812,25.0994,黔西南布依族苗族自治州,坪东大道,细颗粒物(PM2.5),82,73,51,60,44,8,,,,29,18,5,6,0.8,0.8
2026-01-19T0100,2502A,108.6238,21.9667,钦州市,市环保站,细颗粒物(PM2.5),83,100,94,61,54,70,,,,41,32,11,7,0.9,0.7
2026-01-19T0100,2503A,108.655,21.9481,钦州市,沙埠小学,颗粒物(PM10),85,120,90,45,47,30,,,,78,42,5,9,0.6,0.6
2026-01-19T0100,2504A,108.5989,21.7435,钦州市,港区一小,颗粒物(PM10),132,214,93,55,45,6,,,,110,48,7,9,0.9,0.9
2026-01-19T0100,3404A,108.5959,21.9634,钦州市,北职校,颗粒物(PM10),84,117,77,60,53,7,,,,63,36,7,9,1.0,0.9
2026-01-19T0100,1046A,119.5247,39.9346,秦皇岛市,建设大厦,,45,,39,31,35,46,,,,12,13,8,9,0.4,0.4
2026-01-19T0100,3132A,119.5979,39.938,秦皇岛市,文明里,,46,42,45,32,27,17,,,,43,20,11,14,0.4,0.4
2026-01-19T0100,4066A,119.7458,39.9952,秦皇岛市,南园路157号,,49,49,52,23,24,17,,,,42,24,10,11,0.5,0.4
2026-01-19T0100,4067A,119.5131,39.8858,秦皇岛市,翠岛大街1号,,41,41,50,19,21,35,,,,16,14,10,13,0.4,0.4
2026-01-19T0100,4198A,119.509013,39.825305,秦皇岛市,北戴河轮滑馆,,46,40,45,32,29,33,,,,27,15,7,10,0.4,0.3
2026-01-19T0100,1310A,120.404,36.0625,青岛市,市南区东部子站,,28,27,24,19,16,59,,,,11,21,8,8,0.5,0.5
2026-01-19T0100,1311A,120.362344,36.10282,青岛市,四方区子站,,35,29,30,24,18,59,,,,2,10,3,2,0.6,0.7
2026-01-19T0100,1312A,120.294373,36.054183,青岛市,市南区西部子站,,31,31,25,10,14,64,,,,11,20,6,7,0.8,0.8
2026-01-19T0100,1313A,120.4581,36.0858,青岛市,崂山区子站,,32,24,19,22,12,60,,,,11,18,9,9,0.2,0.2
2026-01-19T0100,1315A,120.3945,36.3083,青岛市,城阳区子站,,34,34,24,17,14,72,,,,8,14,5,6,0.7,0.7
2026-01-19T0100,3642A,120.3454,36.0735,青岛市,市北区南部,,29,29,36,12,15,57,,,,10,22,1,2,0.6,0.7
2026-01-19T0100,3643A,120.3897,36.18,青岛市,李沧区北部,,32,27,23,22,21,63,,,,5,17,8,8,0.6,0.7
2026-01-19T0100,4110A,120.5222,36.4089,青岛市,盟旺路653号,,45,45,26,17,14,63,,,,16,19,2,2,0.4,0.5
2026-01-19T0100,4290A,120.196923,35.954556,青岛市,珠江路669号,,29,27,19,20,18,58,,,,16,25,9,9,0.5,0.5
2026-01-19T0100,4291A,120.0424,35.8656,青岛市,黄岛区人民政府广场,,24,24,26,9,13,71,,,,12,19,6,6,0.7,0.7
2026-01-19T0100,1703A,113.0218,23.7086,清远市,凤城街办,细颗粒物(PM2.5),84,92,104,62,74,125,,,,42,50,/,/,/,/
2026-01-19T0100,3025A,113.0479,23.6343,清远市,技师学院,细颗粒物(PM2.5),83,99,119,61,70,44,,,,78,78,6,15,0.7,0.6
2026-01-19T0100,3318A,112.9898,23.7403,清远市,清新太和,细颗粒物(PM2.5),83,103,104,61,68,173,,,,36,44,3,3,0.7,0.8
2026-01-19T0100,3455A,113.076,23.72,清远市,清城东城,细颗粒物(PM2.5),74,89,95,54,60,102,,,,31,45,/,/,/,/
2026-01-19T0100,2661A,107.6325,35.7357,庆阳市,庆阳五中,颗粒物(PM10),71,92,97,26,31,55,,,,10,13,5,6,0.4,0.4
2026-01-19T0100,2662A,107.6361,35.7067,庆阳市,市环保局,颗粒物(PM10),71,92,98,18,21,57,,,,10,12,7,8,0.5,0.5
2026-01-19T0100,1916A,103.7897,25.5036,曲靖市,环境监测站,,30,30,31,12,14,73,,,,10,14,4,4,0.6,0.5
2026-01-19T0100,1917A,103.8013,25.5357,曲靖市,烟厂办公区,,28,28,35,11,16,76,,,,9,17,5,5,0.2,0.3
2026-01-19T0100,3376A,103.7926,25.4651,曲靖市,南苑二区,,26,26,26,6,13,78,,,,4,7,4,4,0.4,0.4
2026-01-19T0100,3377A,103.7442,25.5259,曲靖市,曲靖师范学院,,44,44,35,18,19,71,,,,12,16,5,5,0.2,0.2
2026-01-19T0100,1264A,118.8694,28.94,衢州市,环保大楼,细颗粒物(PM2.5),109,114,128,82,92,42,,,,42,42,/,/,/,/
2026-01-19T0100,1266A,118.8622,28.9809,衢州市,衢州学院,细颗粒物(PM2.5),104,115,116,78,82,36,,,,45,36,5,5,0.7,0.7
2026-01-19T0100,4097A,118.9646,28.9832,衢州市,衢州三中,细颗粒物(PM2.5),119,124,127,90,90,15,,,,64,50,5,5,0.9,0.9
2026-01-19T0100,1611A,118.5818,24.9116,泉州市,涂山街,,26,,40,17,28,81,,,,12,20,3,4,0.5,0.6
2026-01-19T0100,1612A,118.597,24.8976,泉州市,津头埔,,28,20,39,19,27,73,,,,17,21,5,5,0.5,0.6
2026-01-19T0100,1613A,118.6669,24.9422,泉州市,万安,,23,23,39,3,28,68,,,,15,20,4,4,0.5,0.6
2026-01-19T0100,4105A,118.6355,24.9148,泉州市,霞新路6号,,27,27,36,18,25,72,,,,16,21,/,/,0.4,0.5
2026-01-19T0100,2626A,88.8873,29.2723,日喀则市,日喀则监测站,,31,13,35,7,16,98,,,,2,8,9,12,0.4,0.5
2026-01-19T0100,3726A,88.8775,29.2425,日喀则市,林业技术推广中心,,30,12,34,6,15,94,,,,2,7,9,10,0.2,0.4
2026-01-19T0100,1659A,119.4711,35.421,日照市,监测站,,22,22,31,13,24,67,,,,9,20,6,6,0.5,0.6
2026-01-19T0100,1660A,119.523,35.4216,日照市,市政府广场,,31,31,29,16,20,67,,,,14,19,8,8,0.3,0.3
2026-01-19T0100,1661A,119.5511,35.4113,日照市,港务局,,38,29,33,26,26,64,,,,15,21,6,6,0.5,0.4
2026-01-19T0100,3507A,119.5326,35.4627,日照市,职业技术学院,,24,24,32,14,17,65,,,,13,20,6,6,0.6,0.7
2026-01-19T0100,3604A,119.3267,35.1043,日照市,岚山环保分局,,,117,47,,28,49,,,,23,24,30,14,2.8,1.5
2026-01-19T0100,1835A,111.1922,34.7752,三门峡市,市政府,细颗粒物(PM2.5),92,,55,68,56,0,,,,42,31,10,8,0.9,0.8
2026-01-19T0100,1836A,111.1588,34.794,三门峡市,开发区,细颗粒物(PM2.5),84,80,69,62,50,5,,,,35,29,5,4,0.9,0.8
2026-01-19T0100,3039A,111.1911,34.7829,三门峡市,三门峡市第一小学,细颗粒物(PM2.5),87,84,62,64,51,1,,,,43,31,7,8,0.9,0.7
2026-01-19T0100,3598A,111.1031,34.719,三门峡市,富达温泉假日酒店,细颗粒物(PM2.5),99,99,71,74,56,2,,,,39,31,13,7,1.3,0.8
2026-01-19T0100,2324A,117.621,26.2626,三明市,三钢,细颗粒物(PM2.5),63,51,50,45,40,34,,,,33,31,4,7,0.7,0.9
2026-01-19T0100,2325A,117.6352,26.2714,三明市,三明二中,细颗粒物(PM2.5),54,53,48,38,37,21,,,,43,26,2,2,0.8,0.8
2026-01-19T0100,2326A,117.6028,26.2377,三明市,三元区政府,细颗粒物(PM2.5),67,62,59,48,44,22,,,,39,37,5,10,1.0,1.4
2026-01-19T0100,1877A,109.4962,18.2682,三亚市,河西子站,,50,50,46,22,22,43,,,,24,20,3,2,0.4,0.4
2026-01-19T0100,3540A,109.7348,18.3443,三亚市,君悦子站,,25,23,39,17,19,32,,,,24,15,4,4,0.5,0.4
2026-01-19T0100,4135A,109.1714,18.3739,三亚市,城东小学站,,46,43,38,32,26,48,,,,14,11,/,/,/,/
2026-01-19T0100,2624A,91.7592,29.234,山南市,山南监测站,,29,12,21,3,14,90,,,,2,9,5,5,0.4,0.5
2026-01-19T0100,2625A,91.7701,29.2436,山南市,山南人民医院,,27,13,23,6,12,86,,,,1,12,7,8,0.3,0.4
2026-01-19T0100,1674A,116.6795,23.3666,汕头市,金平子站,,46,40,44,32,33,76,,,,21,18,5,6,0.8,0.7
2026-01-19T0100,1675A,116.7248,23.3632,汕头市,龙湖子站,,37,37,46,24,26,80,,,,14,15,10,11,/,/
2026-01-19T0100,1676A,116.7257,23.2774,汕头市,濠江子站,细颗粒物(PM2.5),55,53,41,39,28,57,,,,23,16,9,8,/,/
2026-01-19T0100,1677A,116.7518,23.4712,汕头市,澄海子站,细颗粒物(PM2.5),52,52,60,36,42,83,,,,17,22,6,9,0.6,0.6
2026-01-19T0100,1678A,116.6088,23.2539,汕头市,潮阳子站,,46,46,43,27,26,84,,,,12,13,6,7,0.7,0.6
2026-01-19T0100,3444A,116.4539,23.2684,汕头市,潮南峡山,颗粒物(PM10),53,55,61,36,42,70,,,,20,21,8,10,0.7,0.6
2026-01-19T0100,3624A,116.4069,23.2533,汕头市,潮南子站,颗粒物(PM10),61,71,73,38,42,84,,,,14,22,6,9,/,/
2026-01-19T0100,1693A,115.3653,22.7751,汕尾市,市环保局,,46,34,47,32,34,94,,,,11,16,7,8,0.8,0.7
2026-01-19T0100,1695A,115.362,22.7926,汕尾市,新城中学,,50,50,52,35,36,100,,,,11,16,5,6,0.5,0.5
2026-01-19T0100,2645A,109.9155,33.8714,商洛市,监测站,细颗粒物(PM2.5),102,111,143,76,95,21,,,,26,30,5,7,0.8,0.8
2026-01-19T0100,3045A,109.9647,33.8486,商洛市,商州区中学,细颗粒物(PM2.5),104,102,127,78,98,9,,,,38,33,5,6,1.0,1
2026-01-19T0100,2408A,115.6701,34.4283,商丘市,环境监测站,,45,,40,31,35,30,,,,15,20,3,1,0.6,0.6
2026-01-19T0100,2409A,115.6458,34.4047,商丘市,粮食局,细颗粒物(PM2.5),54,,38,38,33,28,,,,12,16,1,1,0.6,0.7
2026-01-19T0100,3171A,115.6069,34.4465,商丘市,梁园区档案局,,40,,33,28,32,28,,,,14,18,4,3,0.5,0.5
2026-01-19T0100,4119A,115.6701,34.3767,商丘市,北海东路185号,,42,36,49,29,33,27,,,,14,19,1,1,0.5,0.6
2026-01-19T0100,4120A,115.6172,34.3704,商丘市,中山大街3号,细颗粒物(PM2.5),53,,51,37,39,32,,,,14,19,3,3,0.5,0.5
2026-01-19T0100,1141A,121.401,31.2382,上海市,普陀,颗粒物(PM10),53,56,46,23,24,76,,,,18,36,5,6,0.6,0.6
2026-01-19T0100,1142A,121.4774,31.2043,上海市,十五厂,颗粒物(PM10),57,64,52,26,21,63,,,,25,34,6,6,0.5,0.5
2026-01-19T0100,1143A,121.4673,31.3011,上海市,虹口,颗粒物(PM10),52,54,51,18,21,68,,,,17,39,6,7,0.5,0.5
2026-01-19T0100,1147A,121.4253,31.226,上海市,静安监测站,颗粒物(PM10),55,60,48,24,22,72,,,,22,36,6,6,0.5,0.6
2026-01-19T0100,1148A,121.7029,31.1905,上海市,浦东川沙,颗粒物(PM10),51,52,41,18,14,66,,,,21,28,7,7,0.3,0.3
2026-01-19T0100,1149A,121.5339,31.229,上海市,浦东新区监测站,,50,50,44,17,22,66,,,,28,33,6,6,0.5,0.4
2026-01-19T0100,1150A,121.5776,31.2038,上海市,浦东张江,颗粒物(PM10),53,55,45,20,18,66,,,,36,36,6,6,0.2,0.2
2026-01-19T0100,3265A,121.4242,31.3303,上海市,宝山庙行,,48,48,46,16,19,72,,,,12,39,6,7,0.3,0.3
2026-01-19T0100,3266A,121.8789,31.4662,上海市,崇明上实东滩,,38,38,29,17,11,87,,,,13,13,3,4,0.6,0.3
2026-01-19T0100,3268A,121.316,31.2839,上海市,嘉定南翔,颗粒物(PM10),54,58,46,21,23,67,,,,18,38,3,4,0.5,0.4
2026-01-19T0100,3269A,121.3357,30.7455,上海市,金山新城,颗粒物(PM10),56,61,50,32,28,60,,,,22,29,7,7,0.6,0.6
2026-01-19T0100,3270A,121.4996,31.0741,上海市,闵行浦江,颗粒物(PM10),58,66,50,26,20,61,,,,25,28,6,6,0.4,0.4
2026-01-19T0100,3271A,121.2886,31.1663,上海市,青浦徐泾,颗粒物(PM10),56,61,50,24,23,69,,,,24,44,4,4,0.4,0.5
2026-01-19T0100,3272A,121.2193,31.0382,上海市,松江图书馆,颗粒物(PM10),57,64,55,26,26,60,,,,27,39,6,6,0.4,0.5
2026-01-19T0100,3273A,121.3904,31.206,上海市,长宁仙霞,颗粒物(PM10),55,60,48,26,20,70,,,,13,26,6,6,0.2,0.3
2026-01-19T0100,3274A,121.7964,31.0507,上海市,浦东惠南,,45,45,41,26,19,71,,,,25,31,3,3,0.5,0.4
2026-01-19T0100,3544A,121.4891,30.925,上海市,奉贤南桥新城,颗粒物(PM10),61,72,53,23,21,76,,,,20,29,2,2,0.4,0.4
2026-01-19T0100,4183A,121.417401,31.16637,上海市,冠生园路458号,,,,47,32,24,63,,,,28,40,5,5,0.5,0.5
2026-01-19T0100,4205A,121.541914,31.268301,上海市,宁武路151号,颗粒物(PM10),51,51,49,27,20,70,,,,22,42,5,5,0.6,0.6
2026-01-19T0100,2382A,117.9758,28.4439,上饶市,市监测站,细颗粒物(PM2.5),97,119,97,72,60,71,,,,35,26,14,9,/,/
2026-01-19T0100,2383A,117.9521,28.4637,上饶市,凤凰光学,颗粒物(PM10),82,113,106,55,68,48,,,,53,31,14,11,0.9,0.9
2026-01-19T0100,3685A,117.897,28.4316,上饶市,双创科技城,细颗粒物(PM2.5),90,114,98,67,61,72,,,,44,33,11,8,1.0,1
2026-01-19T0100,4211A,118.190438,28.444845,上饶市,裕丰大道,细颗粒物(PM2.5),129,145,116,98,78,62,,,,47,33,18,14,1.3,1.1
2026-01-19T0100,1669A,113.5821,24.7733,韶关市,市八中,细颗粒物(PM2.5),104,129,106,78,69,43,,,,48,48,8,13,1.0,0.9
2026-01-19T0100,1671A,113.5916,24.7973,韶关市,园林处,细颗粒物(PM2.5),122,106,76,92,69,16,,,,78,49,9,12,/,/
2026-01-19T0100,1673A,113.5971,24.6864,韶关市,曲江监测站,细颗粒物(PM2.5),88,102,99,65,70,59,,,,45,36,11,20,0.8,1.1
2026-01-19T0100,2809A,113.6668,24.7756,韶关市,大学路288号,细颗粒物(PM2.5),89,76,77,66,63,71,,,,18,24,10,14,/,/
2026-01-19T0100,3622A,113.5556,24.8082,韶关市,碧湖山庄,细颗粒物(PM2.5),110,126,95,83,64,88,,,,25,30,7,10,0.7,0.7
2026-01-19T0100,2464A,111.5277,27.2442,邵阳市,市化工厂,细颗粒物(PM2.5),99,104,128,74,99,31,,,,25,25,8,8,0.9,0.9
2026-01-19T0100,2466A,111.4327,27.2276,邵阳市,市环保局,细颗粒物(PM2.5),89,,102,66,105,31,,,,17,19,2,4,1.4,1.3
2026-01-19T0100,4218A,111.446,27.2472,邵阳市,北塔二期4-26地块,,,23,106,,129,24,,,,19,20,6,8,1.5,1.3
2026-01-19T0100,4219A,111.4739,27.2282,邵阳市,邵水西路287号,细颗粒物(PM2.5),102,,108,76,99,31,,,,19,20,7,8,1.3,1.2
2026-01-19T0100,1247A,120.6053,29.9927,绍兴市,城东开发委,"颗粒物(PM10),细颗粒物(PM2.5)",57,64,78,40,49,57,,,,17,28,8,8,0.4,0.5
2026-01-19T0100,2921A,120.5482,30.0003,绍兴市,树下王站,颗粒物(PM10),58,65,80,36,46,54,,,,18,27,6,6,0.6,0.7
2026-01-19T0100,3408A,120.5685,29.936,绍兴市,绍兴中专,颗粒物(PM10),63,75,84,41,45,21,,,,39,32,6,6,0.4,0.5
2026-01-19T0100,3409A,120.4905,30.086,绍兴市,柯桥区政府,,46,46,62,19,29,53,,,,24,30,6,6,0.5,0.6
2026-01-19T0100,3410A,120.8751,30.0249,绍兴市,重华小学,颗粒物(PM10),62,74,80,40,47,5,,,,58,37,5,6,0.4,0.4
2026-01-19T0100,3411A,120.837,30.0137,绍兴市,上虞中学,颗粒物(PM10),61,71,86,37,47,0,,,,56,38,6,7,0.5,0.6
2026-01-19T0100,3560A,120.4715,30.0414,绍兴市,柯桥妇保,颗粒物(PM10),64,78,78,39,45,46,,,,26,31,6,6,0.4,0.5
2026-01-19T0100,3658A,120.6156,30.0762,绍兴市,袍江中学,颗粒物(PM10),52,53,71,22,33,66,,,,18,30,4,3,1.1,1.1
2026-01-19T0100,1356A,114.0948,22.5506,深圳市,通心岭子站,颗粒物(PM10),51,51,43,30,27,106,,,,16,14,8,9,0.5,0.4
2026-01-19T0100,1357A,114.1153,22.5713,深圳市,洪湖,颗粒物(PM10),55,59,55,34,29,91,,,,24,28,8,9,0.7,0.7
2026-01-19T0100,1358A,113.9823,22.5398,深圳市,华侨城,细颗粒物(PM2.5),54,55,43,38,29,75,,,,36,26,/,/,/,/
2026-01-19T0100,1359A,113.9181,22.517,深圳市,南海子站,颗粒物(PM10),57,64,48,39,29,86,,,,30,30,6,7,0.8,0.7
2026-01-19T0100,1360A,114.2345,22.565,深圳市,盐田,,44,44,42,27,26,111,,,,11,29,7,9,0.7,0.7
2026-01-19T0100,1363A,114.4911,22.5381,深圳市,南澳,,37,37,40,25,24,83,,,,8,10,/,/,/,/
2026-01-19T0100,1364A,114.41,22.6346,深圳市,葵涌,,49,49,43,30,26,40,,,,30,24,7,8,0.7,0.6
2026-01-19T0100,1365A,114.2967,22.5978,深圳市,梅沙,,42,42,42,26,25,124,,,,9,14,/,/,/,/
2026-01-19T0100,1366A,114.0563,22.7353,深圳市,观澜,细颗粒物(PM2.5),102,148,85,76,43,10,,,,100,59,8,8,0.8,0.7
2026-01-19T0100,3305A,114.0614,22.556,深圳市,莲花,颗粒物(PM10),51,51,43,33,26,85,,,,31,21,/,/,/,/
2026-01-19T0100,3306A,114.0144,22.6163,深圳市,民治,颗粒物(PM10),54,57,49,30,31,106,,,,18,35,/,/,/,/
2026-01-19T0100,3307A,114.1756,22.6421,深圳市,横岗,二氧化氮(NO2),63,67,51,41,30,3,,,,126,45,/,/,/,/
2026-01-19T0100,3447A,114.344,22.7115,深圳市,坪山,颗粒物(PM10),52,54,64,30,33,98,,,,23,39,9,9,0.7,0.7
2026-01-19T0100,3623A,113.8952,22.586,深圳市,西乡,颗粒物(PM10),57,64,52,34,28,71,,,,48,46,6,6,0.8,0.8
2026-01-19T0100,4220A,114.214113,22.713717,深圳市,黄阁路,细颗粒物(PM2.5),60,66,55,43,32,54,,,,38,30,6,8,0.8,0.7
2026-01-19T0100,1099A,123.5058,41.7084,沈阳市,浑南东路,,33,29,43,23,33,50,,,,22,45,14,13,0.4,0.7
2026-01-19T0100,1100A,123.4238,41.6992,沈阳市,新秀街,,28,,36,19,29,59,,,,10,34,9,12,0.5,0.6
2026-01-19T0100,1102A,123.5903,41.8412,沈阳市,东陵路,颗粒物(PM10),54,57,43,34,32,10,,,,54,35,6,7,0.8,0.7
2026-01-19T0100,1103A,123.4267,41.8466,沈阳市,陵东街,,32,32,52,19,36,55,,,,10,39,10,13,0.5,0.7
2026-01-19T0100,1104A,123.4116,41.7654,沈阳市,文化路,,24,24,40,16,28,53,,,,16,33,37,26,0.5,0.6
2026-01-19T0100,1105A,123.4673,41.787,沈阳市,小河沿,,26,26,38,17,30,53,,,,8,27,13,15,0.6,0.7
2026-01-19T0100,1106A,123.4019,41.7978,沈阳市,太原街,,39,,42,27,37,55,,,,15,36,14,18,0.3,0.5
2026-01-19T0100,1108A,123.3778,41.9233,沈阳市,京沈街,,32,32,36,17,33,59,,,,15,30,5,8,0.4,0.5
2026-01-19T0100,2897A,123.2429,41.7341,沈阳市,沈辽西路,,,,66,,42,,,12,,,66,,16,,0.9
2026-01-19T0100,2900A,123.5951,41.9085,沈阳市,裕农路,细颗粒物(PM2.5),53,42,44,37,36,17,,,,50,36,6,8,0.7,0.6
2026-01-19T0100,2429A,110.78,32.6494,十堰市,滨河新村,细颗粒物(PM2.5),69,,90,50,82,12,,,,21,22,/,/,0.9,1.1
2026-01-19T0100,2430A,110.7305,32.6408,十堰市,刘家沟,细颗粒物(PM2.5),62,56,112,44,83,13,,,,28,28,/,/,/,/
2026-01-19T0100,2431A,110.8843,32.5712,十堰市,铁二处,细颗粒物(PM2.5),63,49,94,45,74,12,,,,24,27,8,8,1.0,1.1
2026-01-19T0100,3545A,110.8053,32.8401,十堰市,郧阳区金沙路,颗粒物(PM10),52,53,86,34,63,12,,,,30,28,6,6,1.0,1.1
2026-01-19T0100,2709A,86.0391,44.298,石河子市,艾青诗歌馆,细颗粒物(PM2.5),92,,53,68,45,42,,,,30,28,5,7,0.6,0.5
2026-01-19T0100,3442A,86.047,44.2331,石河子市,南区管委会,,,92,71,72,54,,,,,34,30,6,6,0.9,0.8
2026-01-19T0100,4051A,86.0791,44.3018,石河子市,世纪广场,细颗粒物(PM2.5),77,57,53,56,45,45,,,,19,27,6,10,0.5,0.6
2026-01-19T0100,4167A,86.0126,44.2349,石河子市,城南景苑小区,细颗粒物(PM2.5),78,87,74,57,41,40,,,,21,18,3,3,0.6,0.6
2026-01-19T0100,1030A,114.5919,38.0328,石家庄市,高新区,细颗粒物(PM2.5),59,59,59,42,43,25,,,,26,23,4,3,0.7,0.5
2026-01-19T0100,1032A,114.4556,38.0136,石家庄市,西南高教,细颗粒物(PM2.5),62,63,65,44,39,23,,,,28,23,1,3,0.6,0.5
2026-01-19T0100,1033A,114.533,38.0177,石家庄市,世纪公园,细颗粒物(PM2.5),62,54,62,44,43,28,,,,14,11,6,4,0.6,0.5
2026-01-19T0100,1034A,114.5105,38.0489,石家庄市,人民会堂,颗粒物(PM10),57,63,62,39,39,29,,,,20,20,3,3,0.6,0.5
2026-01-19T0100,3456A,114.2887,38.0905,石家庄市,鹿泉一中,细颗粒物(PM2.5),74,89,66,54,48,20,,,,31,23,1,1,0.6,0.5
2026-01-19T0100,4024A,114.6491,37.9014,石家庄市,栾城区星河路,细颗粒物(PM2.5),59,50,52,42,40,30,,,,22,18,5,3,0.6,0.5
