timepoint,stationcode,longitude,latitude,area,positionname,primarypollutant,aqi,pm10,pm10_24h,pm2_5,pm2_5_24h,o3,o3_24h,o3_8h,o3_8h_24h,no2,no2_24h,so2,so2_24h,co,co_24h
2023-05-27T16:00:00,1001A,116.3621,39.8784,北京市,万寿西宫,细颗粒物(PM2.5),70,54,92,51,69,164,106,93,77,23,28,3,2,0.7,0.7
2023-05-27T16:00:00,1002A,116.2202,40.2915,北京市,定陵,,40,22,91,16,53,171,125,102,102,6,12,3,3,0.4,0.6
2023-05-27T16:00:00,1003A,116.4174,39.9289,北京市,东四,细颗粒物(PM2.5),104,82,103,78,68,183,106,107,88,24,20,3,2,0.8,0.7
2023-05-27T16:00:00,1004A,116.4072,39.8863,北京市,天坛,细颗粒物(PM2.5),75,67,97,55,65,181,109,90,76,20,24,3,2,0.7,0.7
2023-05-27T16:00:00,1005A,116.462,39.9365,北京市,农展馆,细颗粒物(PM2.5),93,77,99,69,67,176,109,97,76,21,27,3,2,0.9,0.8
2023-05-27T16:00:00,1006A,116.3392,39.9295,北京市,官园,细颗粒物(PM2.5),58,41,85,41,60,160,99,107,74,18,21,4,5,0.4,0.6
2023-05-27T16:00:00,1007A,116.2878,39.9611,北京市,海淀万柳,,48,41,92,33,59,159,101,104,78,13,22,3,3,0.5,0.6
2023-05-27T16:00:00,1008A,116.6636,40.135,北京市,顺义新城,细颗粒物(PM2.5),80,71,111,59,76,174,126,97,97,20,20,3,2,0.8,0.8
2023-05-27T16:00:00,1009A,116.6275,40.3275,北京市,怀柔镇,细颗粒物(PM2.5),78,71,114,57,77,181,134,117,117,11,17,3,2,0.6,0.8
2023-05-27T16:00:00,1010A,116.2296,40.217,北京市,昌平镇,,38,25,96,18,57,166,121,103,103,5,7,3,3,0.4,0.6
2023-05-27T16:00:00,1011A,116.3966,39.9821,北京市,奥体中心,,,,80,40,61,167,105,118,73,19,24,3,3,0.5,0.7
2023-05-27T16:00:00,1012A,116.184,39.9136,北京市,古城,,32,27,99,17,56,163,101,88,78,11,25,3,3,0.4,0.6
2023-05-27T16:00:00,1015A,117.1444,39.1661,天津市,勤俭道,,40,39,85,28,56,196,92,105,99,20,23,8,10,0.6,0.8
2023-05-27T16:00:00,1017A,117.237,39.1082,天津市,大直沽八号路,细颗粒物(PM2.5),54,25,81,38,64,191,90,88,88,25,26,5,6,0.6,0.7
2023-05-27T16:00:00,1018A,117.202,39.0927,天津市,前进道,,43,43,81,29,50,174,115,104,104,27,28,8,7,0.8,0.8
2023-05-27T16:00:00,1019A,117.1837,39.2133,天津市,淮河道,,37,33,87,23,54,206,116,106,106,11,20,6,9,0.5,0.7
2023-05-27T16:00:00,1021A,117.307,39.0877,天津市,跃进路,,42,42,84,24,57,202,97,96,86,23,29,7,8,0.8,0.8
2023-05-27T16:00:00,1023A,117.707,39.0343,天津市,第四大街,,23,23,81,12,48,138,36,97,35,42,46,4,5,0.2,0.4
2023-05-27T16:00:00,1024A,117.457,38.8394,天津市,永明路,,24,23,66,14,46,189,76,128,61,14,28,6,7,0.4,0.6
2023-05-27T16:00:00,1026A,117.764,39.1587,天津市,汉北路,,25,25,69,14,43,161,67,136,56,18,23,7,6,1.0,0.7
2023-05-27T16:00:00,1027A,117.157,38.9194,天津市,团泊洼,,,,,,,,,,,,,,,,
2023-05-27T16:00:00,1029A,114.4422,38.0444,石家庄市,职工医院,,32,19,80,18,45,107,100,89,89,8,19,4,6,0.5,0.5
2023-05-27T16:00:00,1030A,114.6063,38.0266,石家庄市,高新区,,,,,,,,,,,,,,,,
2023-05-27T16:00:00,1031A,114.4898,38.1328,石家庄市,西北水源,细颗粒物(PM2.5),52,28,70,36,65,159,103,94,94,6,18,3,2,0.5,0.7
2023-05-27T16:00:00,1032A,114.4586,38.0058,石家庄市,西南高教,,36,33,67,18,60,152,113,98,98,3,13,1,5,0.6,0.8
2023-05-27T16:00:00,1033A,114.5331,38.0178,石家庄市,世纪公园,,30,27,68,13,43,132,93,82,82,11,17,7,8,0.6,0.7
2023-05-27T16:00:00,1034A,114.509,38.0457,石家庄市,人民会堂,,35,26,64,14,65,149,110,100,100,13,16,3,3,0.8,1
2023-05-27T16:00:00,1035A,114.3524,37.8911,石家庄市,封龙山,,37,8,48,7,28,144,117,128,119,12,13,4,4,0.5,0.6
2023-05-27T16:00:00,1037A,118.131,39.6363,唐山市,雷达站,,,45,87,,66,182,122,122,93,10,20,3,5,0.4,1.1
2023-05-27T16:00:00,1038A,118.1725,39.6334,唐山市,物资局,细颗粒物(PM2.5),64,61,87,46,58,163,125,118,90,11,21,3,6,0.8,0.9
2023-05-27T16:00:00,1040A,118.1705,39.6506,唐山市,十二中,细颗粒物(PM2.5),62,44,73,44,54,168,126,110,91,16,25,2,6,0.7,0.9
2023-05-27T16:00:00,1041A,118.1869,39.622,唐山市,小山,颗粒物(PM10),57,63,84,30,46,179,125,115,101,2,15,2,5,0.7,0.8
2023-05-27T16:00:00,1042A,119.5134,39.8207,秦皇岛市,北戴河环保局,,,44,57,17,40,184,95,112,75,4,13,,2,0.4,0.6
2023-05-27T16:00:00,1043A,119.7493,40.0116,秦皇岛市,第一关,,32,31,71,14,47,170,102,100,76,9,33,3,3,0.2,0.4
2023-05-27T16:00:00,1044A,119.5897,39.9499,秦皇岛市,监测站,,43,43,80,13,45,173,100,102,76,10,24,1,2,0.3,0.4
2023-05-27T16:00:00,1046A,119.5251,39.9041,秦皇岛市,建设大厦,颗粒物(PM10),77,103,80,15,35,179,109,105,85,1,16,3,3,0.2,0.4
2023-05-27T16:00:00,1048A,114.5302,36.6116,邯郸市,东污水处理厂,,27,26,47,5,28,125,86,92,87,15,17,1,2,0.2,0.5
2023-05-27T16:00:00,1049A,114.4918,36.5713,邯郸市,矿院,,29,21,38,9,35,111,90,95,91,12,12,3,3,0.4,0.7
2023-05-27T16:00:00,1050A,114.484,36.6133,邯郸市,丛台公园,,28,18,44,10,31,130,88,93,88,12,13,5,6,0.4,0.7
2023-05-27T16:00:00,1051A,115.493,38.8632,保定市,游泳馆,,49,22,52,34,50,143,115,102,102,8,16,4,5,0.2,0.3
2023-05-27T16:00:00,1052A,115.5213,38.8959,保定市,华电二区,,37,37,60,21,39,141,112,96,96,4,16,3,6,0.5,0.6
2023-05-27T16:00:00,1053A,115.4713,38.9108,保定市,接待中心,,40,40,75,22,38,139,108,96,96,2,10,7,8,0.4,0.5
2023-05-27T16:00:00,1054A,115.4612,38.8416,保定市,地表水厂,颗粒物(PM10),51,52,84,19,35,137,113,96,96,6,25,10,10,0.5,0.7
2023-05-27T16:00:00,1056A,115.5086,38.8639,保定市,监测站,,36,29,62,18,43,148,115,101,101,6,18,5,8,0.3,0.4
2023-05-27T16:00:00,1057A,114.8883,40.8336,张家口市,人民公园,,50,50,71,18,25,159,140,136,133,7,9,4,5,0.4,0.5
2023-05-27T16:00:00,1059A,114.8687,40.8042,张家口市,五金库,颗粒物(PM10),54,58,77,31,37,151,133,131,126,18,18,6,4,0.5,0.5
2023-05-27T16:00:00,1060A,114.8902,40.762,张家口市,世纪豪园,颗粒物(PM10),53,56,79,35,41,155,134,124,124,6,10,3,4,0.3,0.3
2023-05-27T16:00:00,1061A,114.8916,40.8661,张家口市,北泵房,颗粒物(PM10),51,52,67,25,29,166,150,142,142,6,8,9,10,0.5,0.5
2023-05-27T16:00:00,1062A,117.9531,40.9081,承德市,铁路,颗粒物(PM10),54,57,78,26,38,149,125,136,124,17,18,9,10,0.4,0.5
2023-05-27T16:00:00,1063A,117.9392,40.9763,承德市,中国银行,颗粒物(PM10),53,56,75,23,36,165,124,127,127,15,18,23,8,0.5,0.4
2023-05-27T16:00:00,1064A,117.9503,40.928,承德市,开发区,颗粒物(PM10),54,57,71,28,37,171,136,160,135,15,20,15,8,0.6,0.6
2023-05-27T16:00:00,1065A,117.8051,40.9655,承德市,文化中心,,48,48,81,14,35,144,116,121,121,17,24,49,11,0.6,0.4
2023-05-27T16:00:00,1066A,117.9268,41.0026,承德市,离宫,,41,37,77,28,41,148,131,130,130,7,13,11,5,0.3,0.4
2023-05-27T16:00:00,1067A,116.6708,39.5111,廊坊市,药材公司,颗粒物(PM10),51,51,87,35,54,172,138,97,97,17,26,3,4,0.8,0.7
2023-05-27T16:00:00,1068A,116.7214,39.5589,廊坊市,开发区,细颗粒物(PM2.5),73,68,86,53,74,188,134,97,97,19,22,6,6,0.9,0.8
2023-05-27T16:00:00,1070A,116.7244,39.5269,廊坊市,北华航天学院,细颗粒物(PM2.5),62,47,100,44,70,178,139,98,98,14,27,2,2,0.6,0.7
2023-05-27T16:00:00,1071A,116.8842,38.2991,沧州市,沧县城建局,细颗粒物(PM2.5),97,85,79,72,55,146,71,90,90,35,39,8,9,0.7,0.5
2023-05-27T16:00:00,1072A,116.8584,38.3254,沧州市,电视转播站,细颗粒物(PM2.5),98,86,77,73,54,153,86,91,91,27,32,4,8,0.5,0.3
2023-05-27T16:00:00,1073A,116.8709,38.3228,沧州市,市环保局,细颗粒物(PM2.5),98,103,73,73,47,145,75,92,92,36,41,7,8,0.5,0.4
2023-05-27T16:00:00,1074A,115.6838,37.7541,衡水市,电机北厂,,30,27,49,10,28,138,94,103,103,9,10,1,2,0.5,0.6
2023-05-27T16:00:00,1075A,115.6303,37.7316,衡水市,市监测站,细颗粒物(PM2.5),59,45,71,42,39,140,99,106,106,9,13,2,3,0.6,0.7
2023-05-27T16:00:00,1077A,114.4704,37.0886,邢台市,达活泉,,34,34,43,4,34,116,103,105,103,2,14,5,6,0.4,0.6
2023-05-27T16:00:00,1078A,114.5062,37.0349,邢台市,邢师高专,,,,47,6,33,114,100,102,99,,24,3,4,0.3,0.5
2023-05-27T16:00:00,1079A,114.5237,37.0851,邢台市,路桥公司,,29,22,48,10,37,103,92,93,90,7,16,2,4,0.0,0.3
2023-05-27T16:00:00,1080A,114.4725,37.0719,邢台市,市环保局,,,,38,7,44,118,107,109,105,6,17,5,6,0.3,0.6
2023-05-27T16:00:00,1081A,112.522,37.8873,太原市,尖草坪,,30,11,66,8,36,158,96,103,86,14,18,3,5,0.6,0.6
2023-05-27T16:00:00,1083A,112.434,38.0108,太原市,上兰,,23,16,70,13,35,140,72,75,75,6,10,4,4,0.6,0.6
2023-05-27T16:00:00,1084A,112.469,37.7124,太原市,晋源,,32,32,65,20,33,145,83,93,81,22,23,5,6,0.8,0.6
2023-05-27T16:00:00,1085A,112.5583,37.7394,太原市,小店,,30,29,70,21,29,148,77,98,71,26,22,2,3,0.7,0.5
2023-05-27T16:00:00,1086A,112.5369,37.8692,太原市,桃园,,28,14,61,5,34,155,87,90,78,17,21,3,5,0.7,0.7
2023-05-27T16:00:00,1087A,112.57,37.8195,太原市,坞城,,30,30,68,17,35,153,79,101,74,23,21,3,4,0.7,0.6
2023-05-27T16:00:00,1088A,112.549,37.9854,太原市,南寨,,25,11,59,10,34,144,79,80,76,11,22,4,6,0.5,0.6
2023-05-27T16:00:00,1090A,111.6507,40.7517,呼和浩特市,呼市一监,颗粒物(PM10),59,68,84,28,31,154,154,129,129,7,17,7,8,0.5,0.5
2023-05-27T16:00:00,1091A,111.6572,40.8033,呼和浩特市,小召,颗粒物(PM10),60,70,73,37,33,147,147,117,117,13,30,9,11,0.4,0.5
2023-05-27T16:00:00,1094A,111.7516,40.8369,呼和浩特市,如意水处理厂,颗粒物(PM10),62,74,82,29,29,157,157,130,130,10,27,9,10,0.5,0.5
2023-05-27T16:00:00,1095A,111.7276,40.8062,呼和浩特市,二十九中,颗粒物(PM10),62,73,82,31,32,158,158,129,129,12,28,7,9,0.5,0.5
2023-05-27T16:00:00,1096A,111.5512,40.7866,呼和浩特市,工大金川校区,颗粒物(PM10),63,76,83,34,33,153,153,127,127,13,27,13,9,0.5,0.5
2023-05-27T16:00:00,1097A,111.717,40.7612,呼和浩特市,化肥厂生活区,颗粒物(PM10),93,135,102,34,30,134,87,92,92,99,39,10,10,0.4,0.4
2023-05-27T16:00:00,1098A,123.6836,41.9339,沈阳市,森林路,,,,,,,,,,,,,,,,
2023-05-27T16:00:00,1099A,123.505,41.7406,沈阳市,浑南东路,,45,45,57,18,20,144,116,112,112,18,36,14,14,0.7,0.7
2023-05-27T16:00:00,1100A,123.4231,41.6989,沈阳市,新秀街,,42,42,48,15,17,136,108,106,106,12,15,8,18,0.6,0.7
2023-05-27T16:00:00,1102A,123.5903,41.8411,沈阳市,东陵路,颗粒物(PM10),51,52,54,22,23,151,112,105,105,13,19,13,15,0.7,0.9
2023-05-27T16:00:00,1103A,123.4264,41.8467,沈阳市,陵东街,,41,41,45,19,19,191,111,108,108,16,20,10,12,0.7,0.7
2023-05-27T16:00:00,1104A,123.4114,41.7653,沈阳市,文化路,,47,47,51,24,24,154,113,111,111,15,18,10,17,0.7,0.7
2023-05-27T16:00:00,1105A,123.4678,41.7867,沈阳市,小河沿,颗粒物(PM10),51,52,51,24,23,153,110,107,107,20,26,10,10,0.7,0.6
2023-05-27T16:00:00,1106A,123.4017,41.7972,沈阳市,太原街,,46,43,46,32,23,179,112,111,111,22,23,11,19,0.7,0.7
2023-05-27T16:00:00,1108A,123.3783,41.9228,沈阳市,京沈街,颗粒物(PM10),53,56,56,25,25,191,116,116,116,13,15,11,17,0.7,0.7
2023-05-27T16:00:00,1109A,121.612,38.9741,大连市,甘井子,,22,19,52,8,18,91,69,68,64,11,19,4,4,0.3,0.4
2023-05-27T16:00:00,1110A,121.565,38.9511,大连市,周水子,,21,20,48,7,23,106,65,65,60,16,25,13,13,0.6,0.6
2023-05-27T16:00:00,1111A,121.5637,38.8845,大连市,星海三站,,22,22,47,10,19,120,64,68,67,10,12,3,3,0.6,0.5
2023-05-27T16:00:00,1112A,121.6302,38.9117,大连市,青泥洼桥,,22,7,34,7,17,114,69,70,69,10,11,5,5,0.6,0.5
2023-05-27T16:00:00,1113A,121.6251,38.8638,大连市,傅家庄,,26,17,31,5,12,121,81,83,83,11,14,6,7,0.6,0.5
2023-05-27T16:00:00,1114A,121.5213,38.8661,大连市,七贤岭,,24,22,37,10,22,116,74,77,76,9,11,5,5,0.3,0.2
2023-05-27T16:00:00,1115A,121.2529,38.8061,大连市,旅顺,,22,1,25,5,13,150,70,73,69,14,16,6,7,0.5,0.4
2023-05-27T16:00:00,1116A,121.7485,39.1311,大连市,金州,,25,17,30,9,16,146,77,89,75,9,10,8,8,0.6,0.6
2023-05-27T16:00:00,1117A,121.7811,39.0496,大连市,开发区,,32,32,46,11,16,103,56,80,60,17,14,4,4,0.6,0.5
2023-05-27T16:00:00,1118A,121.9762,39.0631,大连市,双D港,,25,24,22,13,14,102,80,82,80,8,9,6,6,0.5,0.4
2023-05-27T16:00:00,1119A,125.3325,43.9166,长春市,食品厂,颗粒物(PM10),60,70,51,28,29,148,144,118,118,27,32,10,8,0.6,0.6
2023-05-27T16:00:00,1120A,125.2863,43.9027,长春市,客车厂,颗粒物(PM10),60,69,54,34,31,149,148,121,121,20,28,7,5,0.5,0.4
2023-05-27T16:00:00,1121A,125.2841,43.8463,长春市,邮电学院,颗粒物(PM10),58,66,47,20,21,150,150,122,122,15,18,7,5,0.6,0.5
2023-05-27T16:00:00,1122A,125.3716,43.8772,长春市,劳动公园,颗粒物(PM10),56,62,46,21,25,163,163,127,127,16,22,8,7,0.5,0.5
2023-05-27T16:00:00,1123A,125.3297,43.8805,长春市,园林处,颗粒物(PM10),65,80,50,39,31,147,147,118,118,21,23,8,6,0.5,0.4
2023-05-27T16:00:00,1124A,125.4605,43.79,长春市,净月潭,臭氧1小时,52,45,36,21,16,161,161,126,126,7,9,4,4,0.5,0.5
2023-05-27T16:00:00,1125A,125.7194,43.515,长春市,甩湾子,,,,,,,,,,,,,,,,
2023-05-27T16:00:00,1126A,125.3863,43.8447,长春市,经开区环卫处,颗粒物(PM10),53,55,42,16,17,159,156,125,125,16,23,8,7,0.5,0.4
2023-05-27T16:00:00,1127A,125.245,43.7783,长春市,高新区管委会,颗粒物(PM10),55,59,41,22,20,156,152,129,129,13,15,7,6,0.5,0.4
2023-05-27T16:00:00,1128A,125.1761,43.8325,长春市,岱山公园,,50,50,41,28,34,151,151,128,128,17,27,7,5,0.5,0.4
2023-05-27T16:00:00,1129A,126.5422,45.755,哈尔滨市,岭北,,36,21,17,7,6,114,114,105,105,7,11,9,10,0.2,0.2
2023-05-27T16:00:00,1130A,126.561,45.8167,哈尔滨市,松北商大,,,,21,11,10,106,103,96,96,9,16,5,5,0.4,0.4
2023-05-27T16:00:00,1131A,126.979,45.5419,哈尔滨市,阿城会宁,,42,42,27,24,14,115,115,102,102,13,21,8,8,0.6,0.5
2023-05-27T16:00:00,1132A,126.599,45.7222,哈尔滨市,南岗学府路,,35,21,24,22,18,109,109,100,100,6,12,5,5,0.5,0.5
2023-05-27T16:00:00,1133A,126.689,45.7733,哈尔滨市,太平宏伟公园,,33,20,24,7,8,105,105,96,96,14,18,5,5,0.2,0.2
2023-05-27T16:00:00,1134A,126.635,45.7667,哈尔滨市,道外承德广场,,,,29,9,8,109,109,95,95,13,22,6,6,0.4,0.4
2023-05-27T16:00:00,1135A,126.685,45.7319,哈尔滨市,香坊红旗大街,,35,18,24,7,8,112,112,100,100,11,20,5,7,0.4,0.4
2023-05-27T16:00:00,1136A,126.6411,45.7258,哈尔滨市,动力和平路,,34,19,23,10,8,107,106,97,97,16,22,5,5,0.5,0.5
2023-05-27T16:00:00,1137A,126.593,45.7478,哈尔滨市,道里建国路,,32,18,19,8,9,102,102,94,94,19,24,3,3,0.2,0.3
2023-05-27T16:00:00,1138A,126.615,45.61,哈尔滨市,平房东轻厂,,37,36,23,21,10,118,118,105,105,8,19,5,5,0.2,0.3
2023-05-27T16:00:00,1139A,126.595,45.9855,哈尔滨市,呼兰师专,,37,20,21,8,12,116,116,102,102,12,19,5,5,0.3,0.3
2023-05-27T16:00:00,1140A,126.6206,45.6842,哈尔滨市,省农科院,,37,18,27,6,10,117,117,106,106,8,22,7,8,0.3,0.4
2023-05-27T16:00:00,1141A,121.4,31.238,上海市,普陀,,35,35,32,2,20,132,105,89,89,15,19,4,4,0.4,0.4
2023-05-27T16:00:00,1142A,121.478,31.2036,上海市,十五厂,,41,41,37,20,23,120,99,83,83,17,25,7,7,0.4,0.5
2023-05-27T16:00:00,1143A,121.467,31.3008,上海市,虹口,,41,41,35,18,23,118,102,86,86,11,17,6,5,0.4,0.5
2023-05-27T16:00:00,1144A,121.412,31.1654,上海市,徐汇上师大,,43,43,42,20,20,118,97,83,83,23,24,12,9,0.3,0.3
2023-05-27T16:00:00,1145A,121.536,31.2659,上海市,杨浦四漂,,36,36,37,21,22,98,98,84,84,17,28,6,6,0.6,0.6
2023-05-27T16:00:00,1147A,121.425,31.2261,上海市,静安监测站,,37,37,38,14,17,119,101,87,87,14,19,5,5,0.6,0.6
2023-05-27T16:00:00,1148A,121.703,31.1907,上海市,浦东川沙,,34,34,41,18,20,92,92,80,80,13,21,6,6,0.4,0.4
2023-05-27T16:00:00,1149A,121.533,31.2284,上海市,浦东新区监测站,,34,34,40,16,18,119,107,99,99,8,16,6,6,0.4,0.4
2023-05-27T16:00:00,1150A,121.577,31.2071,上海市,浦东张江,,35,35,42,16,21,121,97,81,81,10,18,5,5,0.5,0.5
2023-05-27T16:00:00,1151A,118.8086,32.1065,南京市,迈皋桥,,38,24,45,9,35,143,119,119,113,11,20,4,4,0.5,0.5
2023-05-27T16:00:00,1152A,118.7538,32.0551,南京市,草场门,,38,14,44,7,32,146,119,128,108,12,19,5,3,0.7,0.7
2023-05-27T16:00:00,1153A,118.7794,32.0745,南京市,山西路,,38,17,44,5,32,144,121,126,111,12,16,7,4,0.5,0.5
2023-05-27T16:00:00,1154A,118.7752,32.0023,南京市,中华门,,35,12,36,2,27,118,109,105,94,11,20,4,4,0.9,1
2023-05-27T16:00:00,1155A,118.8109,32.0309,南京市,瑞金路,,40,12,48,9,33,133,125,125,108,2,7,3,4,0.3,0.4
2023-05-27T16:00:00,1156A,118.7997,32.0754,南京市,玄武湖,,40,29,42,4,28,146,125,124,106,10,12,4,4,0.8,0.9
2023-05-27T16:00:00,1157A,118.6414,32.0931,南京市,浦口,,32,9,36,9,32,137,101,130,101,19,26,11,6,1.1,0.7
2023-05-27T16:00:00,1158A,118.7356,31.9996,南京市,奥体中心,,35,26,47,9,38,136,109,124,83,12,21,6,4,0.7,0.7
2023-05-27T16:00:00,1159A,118.9125,32.1028,南京市,仙林大学城,,40,14,42,7,32,137,128,117,117,8,14,4,3,0.7,0.8
2023-05-27T16:00:00,1160A,120.561,31.2472,苏州市,上方山,,40,36,48,28,29,181,116,81,81,11,16,7,7,0.3,0.3
2023-05-27T16:00:00,1162A,120.591,31.3019,苏州市,彩香,,38,27,47,19,28,206,121,93,93,8,12,5,5,0.6,0.7
2023-05-27T16:00:00,1163A,120.596,31.3264,苏州市,轧钢厂,,38,37,49,21,29,191,120,94,94,9,14,5,6,0.8,0.8
2023-05-27T16:00:00,1164A,120.613,31.2703,苏州市,吴中区,,44,44,48,26,28,207,140,94,94,18,19,9,8,0.8,0.7
2023-05-27T16:00:00,1165A,120.543,31.2994,苏州市,苏州新区,,32,26,47,17,33,211,102,82,82,8,12,5,5,0.7,0.6
2023-05-27T16:00:00,1166A,120.669,31.3097,苏州市,苏州工业园区,,40,40,57,19,28,185,120,79,79,17,14,8,8,0.5,0.5
2023-05-27T16:00:00,1167A,120.641,31.3708,苏州市,相城区,,46,46,43,26,30,148,106,77,77,26,25,7,7,0.8,0.8
2023-05-27T16:00:00,1168A,120.9098,31.9663,南通市,狼山街道,,44,44,35,23,15,142,130,77,77,14,17,8,7,0.7,0.5
2023-05-27T16:00:00,1169A,120.86,32.0005,南通市,虹桥,,44,44,32,24,20,151,134,80,80,18,23,8,7,0.5,0.5
2023-05-27T16:00:00,1170A,120.87,32.02,南通市,城中,,45,45,35,27,24,134,125,86,86,11,14,7,6,0.5,0.3
2023-05-27T16:00:00,1171A,120.94,31.93,南通市,星湖花园,,46,46,31,22,18,114,114,68,68,22,22,7,4,1.3,0.6
2023-05-27T16:00:00,1172A,120.81,32.0417,南通市,紫琅学院,,50,50,38,22,19,136,105,58,58,32,27,9,7,0.5,0.6
2023-05-27T16:00:00,1173A,119.176,34.5885,连云港市,市环境监测站,,48,48,60,19,23,136,75,66,64,16,12,6,7,0.1,0.2
2023-05-27T16:00:00,1177A,117.179,34.2761,徐州市,黄河新村,细颗粒物(PM2.5),55,53,80,39,47,134,82,78,57,11,17,7,8,0.7,0.7
2023-05-27T16:00:00,1178A,117.1918,34.2384,徐州市,淮塔,细颗粒物(PM2.5),65,56,74,47,43,175,78,81,59,14,15,9,10,0.7,0.7
2023-05-27T16:00:00,1180A,117.256,34.2153,徐州市,新城区,细颗粒物(PM2.5),62,61,80,44,43,168,81,79,61,9,12,6,8,0.6,0.6
2023-05-27T16:00:00,1181A,117.244,34.2911,徐州市,桃园路,细颗粒物(PM2.5),62,61,80,44,50,135,83,72,61,10,14,7,9,0.7,0.7
2023-05-27T16:00:00,1182A,117.2933,34.2778,徐州市,农科院,细颗粒物(PM2.5),70,48,67,51,51,144,91,74,66,12,19,6,7,0.6,0.6
2023-05-27T16:00:00,1186A,119.389,32.3761,扬州市,邗江监测站,,46,34,67,14,69,172,147,109,109,11,28,7,8,0.8,1.2
2023-05-27T16:00:00,1188A,120.269,31.4867,无锡市,雪浪,臭氧1小时,75,53,48,41,33,185,180,119,119,11,23,10,10,0.9,0.9
2023-05-27T16:00:00,1189A,120.275,31.6219,无锡市,黄巷,臭氧1小时,58,47,58,27,35,176,166,110,110,11,34,5,5,1.0,1.1
2023-05-27T16:00:00,1190A,120.294,31.56,无锡市,曹张,细颗粒物(PM2.5),52,46,42,36,30,181,144,94,94,6,22,6,5,0.8,0.9
2023-05-27T16:00:00,1191A,120.242,31.5031,无锡市,漆塘,细颗粒物(PM2.5),55,53,49,39,33,180,160,109,109,8,20,5,5,0.4,0.5
2023-05-27T16:00:00,1192A,120.3489,31.5863,无锡市,东亭,臭氧1小时,62,41,50,24,34,193,169,109,109,7,27,9,9,0.8,0.9
2023-05-27T16:00:00,1193A,120.354,31.5475,无锡市,旺庄,,48,48,46,31,30,177,152,102,102,13,32,6,6,0.6,0.7
2023-05-27T16:00:00,1194A,120.245,31.5631,无锡市,荣巷,臭氧1小时,58,51,48,36,34,179,166,109,109,12,23,7,7,0.7,0.8
2023-05-27T16:00:00,1195A,120.299,31.6817,无锡市,堰桥,臭氧1小时,52,46,47,29,31,172,161,102,102,14,30,6,6,0.7,0.8
2023-05-27T16:00:00,1196A,119.9633,31.762,常州市,市监测站,,35,17,65,18,42,147,110,91,91,10,34,6,6,0.5,0.8
2023-05-27T16:00:00,1200A,119.9468,31.7069,常州市,武进监测站,,42,25,79,27,41,168,133,106,106,8,26,9,10,0.6,0.7
2023-05-27T16:00:00,1201A,119.9255,31.9087,常州市,安家,,44,40,81,19,46,152,138,129,129,14,26,6,6,0.7,0.9
2023-05-27T16:00:00,1203A,119.6707,32.1875,镇江市,新区办事处,,44,19,60,16,55,156,138,100,100,11,32,2,4,1.2,1.5
2023-05-27T16:00:00,1204A,119.4974,32.1968,镇江市,职教中心,,38,5,61,7,51,171,119,94,94,7,28,3,3,0.6,1.1
2023-05-27T16:00:00,1205A,119.4303,32.1328,镇江市,丹徒区监测站,,37,6,48,2,57,167,118,94,94,3,22,3,4,0.5,0.8
2023-05-27T16:00:00,1206A,119.905,32.4878,泰州市,公园路,,49,36,49,34,44,165,142,115,115,13,19,6,7,0.8,0.8
2023-05-27T16:00:00,1207A,119.9189,32.4625,泰州市,莲花,细颗粒物(PM2.5),55,39,57,39,43,177,138,98,98,15,21,8,8,0.6,0.7
2023-05-27T16:00:00,1209A,119.888,32.4639,泰州市,留学生创业园,,47,35,50,28,34,177,148,104,104,17,19,6,6,1.0,0.9
2023-05-27T16:00:00,1210A,119.036,33.5981,淮安市,钵池山,细颗粒物(PM2.5),85,75,43,63,34,166,82,60,55,15,12,5,6,1.1,0.8
2023-05-27T16:00:00,1211A,119.007,33.575,淮安市,北京南路,细颗粒物(PM2.5),92,78,47,68,37,165,76,58,52,24,17,7,7,1.0,0.7
2023-05-27T16:00:00,1212A,118.989,33.6067,淮安市,市监测站,细颗粒物(PM2.5),79,80,52,58,31,178,80,68,55,22,14,6,7,1.1,0.8
2023-05-27T16:00:00,1213A,119.135,33.5039,淮安市,楚州区监测站,细颗粒物(PM2.5),82,83,50,60,36,166,75,57,51,20,14,8,8,1.0,0.7
2023-05-27T16:00:00,1214A,119.0186,33.6297,淮安市,淮阴区监测站,细颗粒物(PM2.5),65,66,51,47,29,170,76,66,55,31,17,7,8,0.8,0.5
2023-05-27T16:00:00,1215A,120.118,33.4022,盐城市,盐城电厂,颗粒物(PM10),57,63,36,33,18,106,106,84,44,14,10,7,7,0.7,0.5
2023-05-27T16:00:00,1216A,120.156,33.3942,盐城市,市监测站,颗粒物(PM10),63,76,34,42,23,83,82,78,37,17,11,6,8,0.5,0.3
2023-05-27T16:00:00,1218A,120.2144,33.38,盐城市,开发区管委会,细颗粒物(PM2.5),77,53,30,56,26,87,87,77,37,16,11,6,6,0.7,0.4
2023-05-27T16:00:00,1220A,118.293,33.9528,宿迁市,宿迁学院,细颗粒物(PM2.5),77,62,57,56,42,140,66,58,52,13,11,6,8,0.8,0.7
2023-05-27T16:00:00,1221A,118.2442,33.9592,宿迁市,宿迁中学,细颗粒物(PM2.5),69,50,51,50,39,156,79,68,59,13,12,3,4,0.7,0.5
2023-05-27T16:00:00,1223A,120.2072,30.2111,杭州市,滨江,,37,35,68,20,36,174,116,88,88,24,30,7,7,0.7,0.8
2023-05-27T16:00:00,1224A,120.0633,30.2747,杭州市,西溪,,33,33,66,17,38,168,63,72,61,15,22,8,8,0.6,0.6
2023-05-27T16:00:00,1226A,120.3461,30.3153,杭州市,下沙,,44,44,61,22,32,207,123,100,100,40,32,5,6,0.6,0.6
2023-05-27T16:00:00,1227A,120.1269,30.2456,杭州市,卧龙桥,,32,32,60,19,44,194,84,75,75,11,21,5,6,0.8,0.8
2023-05-27T16:00:00,1228A,120.1903,30.2692,杭州市,浙江农大,,40,28,53,17,37,215,126,89,89,18,26,6,7,0.6,0.5
2023-05-27T16:00:00,1230A,120.1197,30.3119,杭州市,和睦小学,,40,33,61,24,40,203,125,95,95,22,27,5,5,0.7,0.7
2023-05-27T16:00:00,1231A,120.3019,30.4183,杭州市,临平镇,颗粒物(PM10),56,62,116,16,33,224,138,87,87,28,27,4,4,0.7,0.7
2023-05-27T16:00:00,1232A,120.2697,30.1819,杭州市,城厢镇,"颗粒物(PM10),细颗粒物(PM2.5)",57,64,72,40,49,187,101,86,86,48,37,4,4,0.8,0.7
2023-05-27T16:00:00,1233A,120.0883,30.1808,杭州市,云栖,,30,28,54,21,46,154,57,49,49,19,24,7,7,0.7,0.7
2023-05-27T16:00:00,1234A,121.8358,29.911,宁波市,区环保大楼,,30,29,30,14,16,95,95,80,80,4,7,4,4,0.5,0.6
2023-05-27T16:00:00,1235A,121.56,29.82,宁波市,万里学院,,44,44,38,27,19,127,110,93,93,4,7,4,4,0.5,0.5
2023-05-27T16:00:00,1236A,121.713,29.9572,宁波市,龙赛医院,,32,32,31,14,14,102,102,87,87,8,7,4,4,0.3,0.3
2023-05-27T16:00:00,1239A,121.633,29.7733,宁波市,钱湖水厂,,31,31,26,20,15,113,95,83,83,4,5,4,4,0.5,0.5
2023-05-27T16:00:00,1240A,121.5856,29.8635,宁波市,太古小学,,32,32,31,18,17,117,98,84,84,6,9,6,6,0.5,0.5
2023-05-27T16:00:00,1241A,121.524,29.8674,宁波市,市环境监测中心,,38,32,38,26,17,117,97,86,86,8,10,4,3,0.4,0.4
2023-05-27T16:00:00,1242A,120.634,28.0089,温州市,瓯海,,32,32,44,12,18,74,72,59,59,12,19,6,6,0.4,0.5
2023-05-27T16:00:00,1243A,120.6748,27.9939,温州市,南浦,,41,41,43,13,16,83,83,65,65,8,14,4,4,0.3,0.3
2023-05-27T16:00:00,1244A,120.76,27.9747,温州市,龙湾,,32,32,46,12,15,86,81,75,75,8,17,6,5,0.4,0.4
2023-05-27T16:00:00,1245A,120.6709,28.0167,温州市,市站,颗粒物(PM10),53,56,60,18,19,73,73,57,57,24,25,4,4,0.5,0.5
2023-05-27T16:00:00,1247A,120.6053,29.9928,绍兴市,城东开发委,,28,16,56,9,30,162,87,75,75,6,21,5,6,0.5,0.7
2023-05-27T16:00:00,1250A,120.0751,30.8669,湖州市,城西水厂,颗粒物(PM10),53,55,52,22,38,221,113,88,86,16,28,5,5,0.6,0.7
2023-05-27T16:00:00,1252A,120.7436,30.778,嘉兴市,清河小学,,42,42,44,20,21,168,86,74,74,28,23,5,5,0.4,0.4
2023-05-27T16:00:00,1253A,120.726,30.7478,嘉兴市,嘉兴学院,,43,43,44,23,28,179,101,73,73,29,23,3,4,0.5,0.5
2023-05-27T16:00:00,1255A,121.273,28.6459,台州市,黄岩环保大楼,,32,32,33,15,16,97,85,85,85,6,4,5,4,0.1,0.1
2023-05-27T16:00:00,1256A,121.419,28.6542,台州市,台州环保大楼,,,30,36,18,17,83,79,81,80,2,3,4,4,,0.4
2023-05-27T16:00:00,1257A,121.377,28.5773,台州市,路桥田洋王,,34,34,37,19,20,84,75,76,76,9,9,7,8,0.1,0.2
2023-05-27T16:00:00,1258A,122.122,30.0203,舟山市,定海檀枫,,31,31,29,13,12,74,68,65,65,16,13,6,5,0.4,0.4
2023-05-27T16:00:00,1259A,122.3094,29.9558,舟山市,普陀东港,,41,41,36,14,18,87,79,76,76,10,9,5,5,0.3,0.3
2023-05-27T16:00:00,1260A,122.19,29.9944,舟山市,临城新区,,,,,,,,,,,,,,,,
2023-05-27T16:00:00,1262A,119.647,29.077,金华市,十五中,,28,24,38,16,24,108,87,88,88,10,14,5,5,0.5,0.6
2023-05-27T16:00:00,1263A,119.686,29.1029,金华市,监测站,,34,34,36,18,23,119,96,98,98,8,15,4,4,0.6,0.7
2023-05-27T16:00:00,1264A,118.8692,28.9398,衢州市,环保大楼,,39,26,35,18,22,142,122,98,98,15,23,7,8,0.4,0.6
2023-05-27T16:00:00,1265A,118.8709,28.9666,衢州市,实验学校,,40,25,33,21,17,154,127,106,106,11,19,9,5,0.4,0.4
2023-05-27T16:00:00,1266A,118.8621,28.9808,衢州市,衢州学院,,35,27,31,14,20,147,111,98,98,8,15,4,5,0.4,0.4
2023-05-27T16:00:00,1267A,119.914,28.4514,丽水市,监测站大楼,,36,30,31,25,19,130,78,71,71,6,10,4,4,0.4,0.5
2023-05-27T16:00:00,1268A,119.93,28.4586,丽水市,莲都小学,,37,37,34,15,16,130,80,74,74,7,9,4,4,0.3,0.4
2023-05-27T16:00:00,1269A,119.879,28.4231,丽水市,余庄前,,25,19,29,13,16,128,80,72,72,6,10,4,4,0.5,0.6
2023-05-27T16:00:00,1270A,117.1959,31.7848,合肥市,明珠广场,,24,14,22,7,15,81,76,66,66,10,17,4,4,0.5,0.7
2023-05-27T16:00:00,1271A,117.3072,31.8764,合肥市,三里街,,21,12,31,2,20,80,66,66,66,16,24,4,4,0.2,0.4
2023-05-27T16:00:00,1272A,117.2588,31.8707,合肥市,琥珀山庄,,24,17,24,9,21,86,76,74,74,8,15,3,4,0.6,0.8
2023-05-27T16:00:00,1273A,117.1604,31.9052,合肥市,董铺水库,,25,7,16,0,12,88,78,74,74,6,11,2,2,0.2,0.4
2023-05-27T16:00:00,1274A,117.25,31.8571,合肥市,长江中路,,24,19,31,8,22,84,76,72,72,8,13,9,9,0.5,0.7
2023-05-27T16:00:00,1275A,117.266,31.9436,合肥市,庐阳区,,23,19,33,5,23,84,72,75,75,13,21,2,2,0.3,0.5
2023-05-27T16:00:00,1276A,117.336,31.8586,合肥市,瑶海区,,22,9,35,2,19,80,68,69,69,8,18,7,7,0.7,0.9
2023-05-27T16:00:00,1277A,117.3027,31.7964,合肥市,包河区,,24,9,22,5,17,86,76,71,71,4,12,5,5,0.4,0.6
2023-05-27T16:00:00,1278A,117.2776,31.7385,合肥市,滨湖新区,,24,7,19,0,11,89,76,69,69,5,10,6,5,0.4,0.6
2023-05-27T16:00:00,1279A,117.1318,31.8403,合肥市,高新区,,27,12,20,3,15,87,84,74,74,8,14,7,7,0.3,0.6
2023-05-27T16:00:00,1280A,119.3903,26.0543,福州市,鼓山,,,,,,,,,,,,,,,,
2023-05-27T16:00:00,1282A,119.2681,26.0504,福州市,师大,,25,24,56,10,30,123,79,69,69,10,16,4,5,0.4,0.5
2023-05-27T16:00:00,1283A,119.2984,26.1028,福州市,五四北路,,30,30,49,8,27,132,79,72,72,8,14,2,3,0.3,0.5
2023-05-27T16:00:00,1284A,119.2648,26.0768,福州市,杨桥西路,,30,30,53,7,28,120,74,63,63,8,15,3,4,0.3,0.5
2023-05-27T16:00:00,1285A,119.317,26.0746,福州市,紫阳,,34,34,51,6,22,108,70,61,61,10,16,2,3,0.4,0.5
2023-05-27T16:00:00,1286A,118.1608,24.8169,厦门市,溪东,,,,,,,,,,,,,,,,
2023-05-27T16:00:00,1287A,118.1514,24.4767,厦门市,洪文,颗粒物(PM10),51,51,52,30,32,137,137,109,109,1,4,3,2,0.4,0.3
2023-05-27T16:00:00,1288A,118.0661,24.4444,厦门市,鼓浪屿,,45,44,48,31,31,136,129,100,100,6,7,3,2,0.5,0.3
2023-05-27T16:00:00,1290A,115.8931,28.6843,南昌市,省外办,,37,28,44,14,24,132,117,95,95,4,23,6,8,0.3,0.5
2023-05-27T16:00:00,1291A,115.8886,28.7003,南昌市,省林业公司,,38,29,46,14,24,135,121,96,96,8,36,7,9,0.5,0.4
2023-05-27T16:00:00,1292A,115.8126,28.7442,南昌市,林科所,,36,22,32,14,19,138,115,91,91,8,27,10,10,0.3,0.4
2023-05-27T16:00:00,1294A,115.8518,28.687,南昌市,建工学校,,34,34,53,7,18,135,106,84,84,4,26,7,7,0.3,0.5
2023-05-27T16:00:00,1295A,115.8921,28.6424,南昌市,象湖,,37,12,40,13,20,135,116,94,94,6,26,5,6,0.3,0.6
2023-05-27T16:00:00,1296A,115.7423,28.7996,南昌市,武术学校,,48,48,28,13,21,113,104,85,85,2,4,17,16,0.2,0.3
2023-05-27T16:00:00,1298A,115.9314,28.6842,南昌市,省站,,37,19,55,15,21,137,117,100,100,2,22,8,10,0.6,0.8
2023-05-27T16:00:00,1299A,116.9862,36.6114,济南市,科干所,,18,12,52,10,33,149,31,75,63,36,29,8,9,0.7,0.8
2023-05-27T16:00:00,1300A,116.9376,36.665,济南市,农科所,,25,24,51,17,31,142,38,70,60,33,33,3,3,0.3,0.4
2023-05-27T16:00:00,1301A,117.1265,36.6734,济南市,开发区,,18,15,60,12,31,156,34,77,63,32,35,4,6,0.8,0.8
2023-05-27T16:00:00,1303A,117.0624,36.6868,济南市,省种子仓库,,34,34,58,17,31,163,38,80,67,24,26,1,3,0.6,0.6
2023-05-27T16:00:00,1304A,116.9489,36.6447,济南市,机床二厂,,27,27,65,15,32,148,38,72,61,32,33,3,4,0.5,0.5
2023-05-27T16:00:00,1305A,117.0495,36.663,济南市,市监测站,,22,22,61,15,34,174,36,85,70,41,36,8,10,0.6,0.6
2023-05-27T16:00:00,1306A,116.7675,36.5484,济南市,长清党校,,29,24,65,20,40,150,49,76,72,34,38,7,8,0.6,0.7
2023-05-27T16:00:00,1307A,120.6659,36.2403,青岛市,仰口,,25,12,24,17,14,72,61,70,58,9,9,3,3,0.2,0.2
2023-05-27T16:00:00,1310A,120.4134,36.0658,青岛市,市南区东部子站,,22,12,28,9,10,87,70,78,65,10,9,6,6,0.2,0.2
2023-05-27T16:00:00,1311A,120.3664,36.1032,青岛市,四方区子站,,22,22,32,7,14,86,69,82,68,16,13,8,7,0.5,0.5
2023-05-27T16:00:00,1312A,120.2994,36.054,青岛市,市南区西部子站,,24,19,34,15,12,95,74,86,68,8,10,4,5,0.5,0.5
2023-05-27T16:00:00,1313A,120.4581,36.0858,青岛市,崂山区子站,,26,14,29,14,15,95,81,84,75,7,8,7,7,0.2,0.2
2023-05-27T16:00:00,1314A,120.1983,35.9608,青岛市,黄岛区子站,,24,12,30,12,16,84,75,73,70,8,11,5,5,0.2,0.3
2023-05-27T16:00:00,1315A,120.3999,36.3083,青岛市,城阳区子站,,27,27,39,10,14,148,71,72,71,11,13,5,5,0.3,0.3
2023-05-27T16:00:00,1316A,113.69031,34.76122,郑州市,烟厂,,25,7,24,11,23,109,78,107,68,16,16,2,2,0.6,0.7
2023-05-27T16:00:00,1317A,113.65724,34.77134,郑州市,郑纺机,,24,13,24,6,14,113,74,103,67,16,13,2,2,0.6,0.7
2023-05-27T16:00:00,1318A,113.67526,34.80246,郑州市,银行学校,,21,11,30,9,23,87,66,84,56,15,14,3,3,0.6,0.7
2023-05-27T16:00:00,1319A,113.56746,34.81334,郑州市,供水公司,,26,9,24,6,17,109,81,105,71,15,15,6,6,0.6,0.7
2023-05-27T16:00:00,1320A,113.7329,34.7178,郑州市,经开区管委,,22,6,26,6,18,98,69,88,60,14,14,3,3,0.9,0.9
2023-05-27T16:00:00,1321A,113.73961,34.77172,郑州市,四十七中,,25,4,25,10,29,102,78,97,64,12,12,4,5,0.6,0.6
2023-05-27T16:00:00,1322A,113.60532,34.74838,郑州市,市监测站,,24,9,23,9,19,111,74,104,68,13,14,4,8,0.8,0.8
2023-05-27T16:00:00,1323A,113.64164,34.7525,郑州市,河医大,,20,16,25,6,15,97,64,93,56,19,18,4,4,0.6,0.7
2023-05-27T16:00:00,1324A,113.51488,34.91089,郑州市,岗李水库,,33,33,35,7,19,95,82,86,76,13,12,6,6,0.7,0.7
2023-05-27T16:00:00,1325A,114.3677,30.5584,武汉市,东湖梨园,颗粒物(PM10),54,57,29,12,11,127,119,101,101,8,19,6,6,0.6,0.8
2023-05-27T16:00:00,1326A,114.2529,30.558,武汉市,汉阳月湖,,38,21,28,12,12,127,119,97,97,13,27,6,6,0.5,0.8
2023-05-27T16:00:00,1327A,114.282,30.6189,武汉市,汉口花桥,,37,31,28,22,17,130,116,99,99,18,23,3,3,0.4,0.7
2023-05-27T16:00:00,1328A,114.3025,30.5332,武汉市,武昌紫阳,,41,29,31,19,15,159,129,108,108,9,22,3,5,0.6,1
2023-05-27T16:00:00,1329A,114.3646,30.6217,武汉市,青山钢花,,,,37,29,23,182,170,131,131,10,20,8,9,0.6,0.9
2023-05-27T16:00:00,1330A,114.1566,30.4825,武汉市,沌口新区,,42,29,40,17,24,132,132,94,94,10,23,6,6,0.5,0.8
2023-05-27T16:00:00,1331A,114.3014,30.5944,武汉市,汉口江滩,,41,28,20,15,15,142,130,107,107,9,22,6,6,0.5,0.8
2023-05-27T16:00:00,1333A,114.135,30.6319,武汉市,吴家山,,39,29,30,20,15,122,122,96,96,7,20,6,6,0.6,0.8
2023-05-27T16:00:00,1334A,113.8454,30.2917,武汉市,沉湖七壕,,30,28,32,21,20,91,91,69,69,5,19,5,6,0.6,0.7
2023-05-27T16:00:00,1335A,113.0833,28.2325,长沙市,经开区环保局,,24,24,51,6,30,102,71,82,82,4,21,2,2,0.4,0.7
2023-05-27T16:00:00,1336A,112.8872,28.2189,长沙市,高开区环保局,,,19,50,17,34,109,81,82,82,2,15,,7,0,0.5
2023-05-27T16:00:00,1337A,113.0792,28.2053,长沙市,马坡岭,,38,38,54,5,34,98,71,84,84,8,25,3,3,0.3,0.5
2023-05-27T16:00:00,1338A,112.9394,28.19,长沙市,湖南师范大学,,28,28,48,3,33,114,82,94,94,4,18,1,2,0.4,0.7
2023-05-27T16:00:00,1339A,113.0178,28.1322,长沙市,雨花区环保局,,23,14,31,16,21,101,73,87,87,4,24,5,7,0.3,0.4
2023-05-27T16:00:00,1340A,112.9792,28.2597,长沙市,伍家岭,,32,32,57,5,40,116,77,88,88,10,18,3,3,0.1,0.4
2023-05-27T16:00:00,1341A,113.0014,28.1944,长沙市,火车新站,,24,18,38,5,27,100,75,87,87,4,19,6,7,0.4,0.7
2023-05-27T16:00:00,1342A,112.9844,28.1178,长沙市,天心区环保局,,24,24,44,6,22,103,70,88,88,2,24,2,3,0.3,0.5
2023-05-27T16:00:00,1343A,112.8908,28.1308,长沙市,湖南中医药大学,,35,35,46,9,31,114,89,92,92,1,14,3,3,0.5,0.8
2023-05-27T16:00:00,1344A,112.9581,28.3611,长沙市,沙坪,,26,25,68,10,28,116,83,85,85,2,5,5,5,0.1,0.4
2023-05-27T16:00:00,1345A,113.2347,23.1423,广州市,广雅中学,,36,25,28,13,15,119,115,88,88,9,20,3,4,0.6,0.6
2023-05-27T16:00:00,1346A,113.2612,23.105,广州市,市五中,,40,26,29,16,15,127,127,95,95,6,17,5,6,0.3,0.4
2023-05-27T16:00:00,1348A,113.3478,23.0916,广州市,广东商学院,颗粒物(PM10),64,78,43,27,17,111,101,85,85,14,21,4,4,0.5,0.6
2023-05-27T16:00:00,1349A,113.4332,23.1047,广州市,市八十六中,,35,31,38,13,15,119,109,93,93,10,24,3,4,0.4,0.5
2023-05-27T16:00:00,1350A,113.3505,22.9483,广州市,番禺中学,,,26,26,11,12,117,116,91,91,,18,,5,0.6,0.7
2023-05-27T16:00:00,1351A,113.2146,23.3916,广州市,花都师范,,,27,30,14,17,165,150,109,109,9,22,6,6,,0.6
2023-05-27T16:00:00,1352A,113.2597,23.1331,广州市,市监测站,,40,40,43,23,22,125,116,93,93,8,19,5,6,0.6,0.5
2023-05-27T16:00:00,1353A,113.5618,23.312,广州市,九龙镇镇龙,臭氧1小时,80,67,41,35,20,184,184,122,122,26,25,5,5,0.4,0.4
2023-05-27T16:00:00,1354A,113.2765,23.1544,广州市,麓湖,,36,26,27,11,15,133,114,98,98,7,19,4,5,0.5,0.6
2023-05-27T16:00:00,1355A,113.443,23.3035,广州市,帽峰山森林公园,臭氧1小时,100,47,32,23,15,200,200,119,119,18,23,6,6,0.5,0.5
2023-05-27T16:00:00,1356A,114.1063,22.5545,深圳市,通心岭子站,,20,20,24,12,12,66,54,60,59,4,4,4,4,0.6,0.6
2023-05-27T16:00:00,1357A,114.117,22.5625,深圳市,洪湖,,25,23,27,17,12,71,62,65,65,6,8,5,5,0.4,0.4
2023-05-27T16:00:00,1358A,113.987,22.5417,深圳市,华侨城,,,28,24,26,13,89,56,74,73,10,9,6,6,,0.7
2023-05-27T16:00:00,1359A,113.9181,22.5171,深圳市,南海子站,,29,29,28,14,14,82,66,71,71,12,13,4,4,0.6,0.6
2023-05-27T16:00:00,1360A,114.2458,22.5689,深圳市,盐田,,24,24,28,14,13,68,60,61,61,10,17,4,4,0.5,0.5
2023-05-27T16:00:00,1361A,114.2283,22.7244,深圳市,龙岗,,31,31,26,12,12,82,66,67,67,4,10,3,2,0.4,0.4
2023-05-27T16:00:00,1363A,114.494,22.5422,深圳市,南澳,,24,24,26,13,14,70,70,63,63,6,6,3,3,0.7,0.6
2023-05-27T16:00:00,1364A,114.41,22.6342,深圳市,葵涌,,24,24,24,11,13,71,64,60,60,4,8,6,6,0.6,0.5
2023-05-27T16:00:00,1365A,114.297,22.5978,深圳市,梅沙,,36,36,32,20,17,82,71,72,72,4,2,5,4,0.8,0.7
2023-05-27T16:00:00,1366A,114.0678,22.738,深圳市,观澜,,41,41,34,18,17,79,64,67,67,17,15,6,6,0.4,0.6
2023-05-27T16:00:00,1367A,113.5814,22.2618,珠海市,吉大,,35,35,31,23,14,93,93,82,82,5,8,7,7,0.3,0.3
2023-05-27T16:00:00,1368A,113.4881,22.2335,珠海市,前山,,,,,,,,,,,,,,,,
2023-05-27T16:00:00,1369A,113.628,22.4251,珠海市,唐家,,23,23,24,16,11,86,71,72,72,4,9,4,5,0.2,0.2
2023-05-27T16:00:00,1370A,113.299,22.2281,珠海市,斗门,,23,18,18,16,15,85,73,75,75,4,6,6,6,0.5,0.5
2023-05-27T16:00:00,1371A,113.1294,23.0067,佛山市,湾梁,,48,29,25,20,14,157,152,111,111,5,13,7,6,0.5,0.5
2023-05-27T16:00:00,1372A,113.1083,23.0478,佛山市,华材职中,臭氧1小时,54,29,23,11,11,163,163,115,115,9,14,6,5,0.5,0.5
2023-05-27T16:00:00,1373A,113.144,23.0453,佛山市,南海气象局,,38,38,28,15,14,121,112,78,78,12,18,5,5,0.4,0.4
2023-05-27T16:00:00,1374A,113.2881,22.8094,佛山市,顺德苏岗,,27,16,18,17,12,98,84,72,72,6,11,4,4,0.4,0.4
2023-05-27T16:00:00,1376A,112.8383,22.8678,佛山市,高明孔堂,,41,33,29,13,11,134,131,101,101,6,8,4,4,0.5,0.5
2023-05-27T16:00:00,1377A,112.8836,23.1588,佛山市,三水监测站,臭氧1小时,60,39,28,22,16,168,168,112,112,18,21,4,4,0.5,0.4
2023-05-27T16:00:00,1378A,112.867,23.185,佛山市,三水云东海,臭氧1小时,74,37,29,22,15,179,179,117,117,12,17,3,4,0.4,0.4
2023-05-27T16:00:00,1379A,113.3769,22.5211,中山市,华柏园,,30,30,23,15,12,86,68,75,75,8,9,4,3,0.4,0.5
2023-05-27T16:00:00,1380A,113.3881,22.5497,中山市,张溪,,34,34,26,11,11,91,71,78,78,4,6,3,3,0.3,0.3
2023-05-27T16:00:00,1381A,113.4075,22.5111,中山市,紫马岭,,28,28,24,11,12,87,72,77,77,2,4,3,2,0.2,0.3
2023-05-27T16:00:00,1382A,113.4411,22.4853,中山市,长江旅游区,,23,19,20,10,12,87,71,76,76,3,5,8,8,0.3,0.3
2023-05-27T16:00:00,1383A,113.1064,22.6058,江门市,北街,,32,24,28,13,10,104,101,89,89,6,10,5,5,0.4,0.3
2023-05-27T16:00:00,1384A,113.0731,22.5835,江门市,西区,,33,33,26,17,13,111,101,94,94,5,8,6,6,0.4,0.4
2023-05-27T16:00:00,1385A,113.0219,22.5311,江门市,圭峰西,,35,35,27,10,11,106,98,91,91,4,6,3,4,0.4,0.4
2023-05-27T16:00:00,1386A,113.0828,22.5947,江门市,东湖,,33,31,26,15,10,115,104,96,96,7,9,4,4,0.4,0.4
2023-05-27T16:00:00,1389A,113.7547,23.0494,东莞市,莞城梨川,臭氧1小时,79,35,30,21,14,183,183,128,128,14,19,8,8,0.7,0.6
2023-05-27T16:00:00,1390A,113.7944,23.0128,东莞市,东城石井,臭氧1小时,72,31,30,20,14,177,177,126,126,10,19,8,8,0.5,0.5
2023-05-27T16:00:00,1391A,113.7383,22.9658,东莞市,南城西平,臭氧1小时,55,45,31,21,14,175,164,120,120,17,23,13,11,0.8,0.8
2023-05-27T16:00:00,1392A,114.4183,23.0528,惠州市,河南岸金山湖子站,,36,36,30,13,13,93,91,74,74,6,8,3,3,0.4,0.5
2023-05-27T16:00:00,1393A,114.4053,23.0822,惠州市,下埔横江三路子站,,28,28,28,12,12,103,89,81,81,5,7,5,5,0.7,0.6
2023-05-27T16:00:00,1394A,114.4103,23.1142,惠州市,江北云山西路子站,,44,44,30,19,15,114,91,84,84,2,5,6,7,0.4,0.5
2023-05-27T16:00:00,1395A,114.4645,22.7833,惠州市,惠阳区承修路船湖子站,,38,38,32,12,12,77,56,62,62,8,10,4,4,0.4,0.4
2023-05-27T16:00:00,1396A,114.5317,22.7422,惠州市,大亚湾管委会子站,,38,38,32,13,15,66,62,58,58,10,10,12,12,0.4,0.4
2023-05-27T16:00:00,1397A,112.4267,23.0706,肇庆市,睦岗子站,,39,39,24,20,10,108,82,79,79,19,14,5,8,0.3,0.3
2023-05-27T16:00:00,1398A,112.4645,23.0475,肇庆市,城中子站,,,12,19,23,10,124,,84,84,18,15,9,9,0.5,0.5
2023-05-27T16:00:00,1399A,112.5544,23.1522,肇庆市,坑口子站,,45,44,24,23,12,143,143,88,88,16,18,6,5,0.4,0.4
2023-05-27T16:00:00,1400A,112.4753,23.1,肇庆市,七星岩子站,,34,34,20,14,8,102,102,64,64,10,12,6,6,0.5,0.5
2023-05-27T16:00:00,1401A,108.3103,22.7881,南宁市,二十一中,,31,26,27,10,13,100,98,79,79,6,12,5,6,0.5,0.6
2023-05-27T16:00:00,1402A,108.3141,22.8528,南宁市,北湖,,31,22,27,11,14,105,98,81,81,5,8,6,7,0.6,0.6
2023-05-27T16:00:00,1403A,108.3206,22.8225,南宁市,市监测站,,30,24,25,12,16,100,94,90,90,12,14,6,7,0.7,0.8
2023-05-27T16:00:00,1404A,108.3829,22.8037,南宁市,大自然花园,,26,19,23,13,14,83,82,67,67,5,7,6,6,0.6,0.6
2023-05-27T16:00:00,1405A,108.4394,22.7904,南宁市,仙葫,,27,21,24,14,15,90,86,69,69,6,8,4,4,0.2,0.3
2023-05-27T16:00:00,1406A,108.2397,22.8467,南宁市,区农职院,,29,18,29,11,12,96,91,78,78,2,8,7,8,0.7,0.7
2023-05-27T16:00:00,1407A,108.3275,22.735,南宁市,英华嘉园,,39,39,31,16,16,84,82,66,66,12,19,6,7,0.5,0.6
2023-05-27T16:00:00,1408A,108.2257,22.7757,南宁市,沙井镇街道办,,26,22,29,11,11,86,83,74,74,7,18,2,3,0.5,0.6
2023-05-27T16:00:00,1409A,110.576,19.9507,海口市,东寨港,,,,,,,,,,,,,,,,
2023-05-27T16:00:00,1410A,110.3232,20.0574,海口市,海南大学,,16,13,14,5,6,60,49,54,54,7,8,7,7,0.3,0.3
2023-05-27T16:00:00,1411A,110.283,20.0053,海口市,秀英海南医院,,19,16,17,1,1,71,60,57,57,7,16,5,4,0.4,0.4
2023-05-27T16:00:00,1412A,110.338,19.9969,海口市,海南师范大学,,16,13,16,10,5,60,51,50,50,5,8,4,5,0.3,0.3
2023-05-27T16:00:00,1413A,110.33,20.0356,海口市,龙华路环保局宿舍,,16,10,17,6,8,60,49,53,53,5,8,6,5,0.2,0.3
2023-05-27T16:00:00,1414A,106.3787,29.8279,重庆市,缙云山,细颗粒物(PM2.5),57,54,69,40,38,111,70,90,59,12,12,8,8,0.3,0.3
2023-05-27T16:00:00,1416A,106.4213,29.8253,重庆市,天生,细颗粒物(PM2.5),63,44,64,45,50,114,76,49,49,13,24,6,6,0.8,0.9
2023-05-27T16:00:00,1417A,106.6263,29.7228,重庆市,两路,细颗粒物(PM2.5),59,59,61,42,39,82,82,55,55,21,41,7,7,1.0,1.1
2023-05-27T16:00:00,1418A,106.2953,29.5983,重庆市,虎溪,细颗粒物(PM2.5),73,74,68,53,61,108,63,40,39,21,30,5,7,0.7,0.8
2023-05-27T16:00:00,1419A,106.5777,29.5102,重庆市,南坪,细颗粒物(PM2.5),88,103,89,65,66,106,76,55,53,48,35,7,10,0.8,0.8
2023-05-27T16:00:00,1420A,106.6556,29.6277,重庆市,唐家沱,细颗粒物(PM2.5),69,79,68,50,53,107,71,34,34,43,40,7,7,1.0,1
2023-05-27T16:00:00,1421A,106.6349,29.4906,重庆市,茶园,细颗粒物(PM2.5),79,91,84,58,61,108,78,58,58,55,46,5,6,0.9,0.9
2023-05-27T16:00:00,1422A,106.3754,29.4572,重庆市,白市驿,细颗粒物(PM2.5),62,60,78,44,59,110,102,56,56,18,39,8,9,0.8,1
2023-05-27T16:00:00,1425A,106.6205,29.7166,重庆市,空港,细颗粒物(PM2.5),68,59,64,49,55,95,83,54,54,21,38,8,7,0.8,1
2023-05-27T16:00:00,1426A,106.4782,29.4875,重庆市,新山村,细颗粒物(PM2.5),65,69,100,47,61,97,97,47,47,27,56,5,7,0.7,0.9
2023-05-27T16:00:00,1427A,106.5616,29.6453,重庆市,礼嘉,细颗粒物(PM2.5),60,55,74,43,47,98,79,52,52,26,45,5,6,0.8,0.9
2023-05-27T16:00:00,1428A,106.4522,29.7091,重庆市,蔡家,颗粒物(PM10),58,65,72,34,44,104,84,58,58,15,28,6,6,0.6,0.7
2023-05-27T16:00:00,1429A,106.5093,29.3917,重庆市,鱼新街,细颗粒物(PM2.5),70,88,95,51,64,107,78,46,46,46,47,4,4,1.1,1.1
2023-05-27T16:00:00,1431A,103.9728,30.7236,成都市,金泉两河,,47,47,54,17,25,124,104,73,52,11,28,2,3,0.3,0.4
2023-05-27T16:00:00,1432A,104.176,30.6872,成都市,十里店,,30,28,44,7,20,125,93,58,58,12,22,2,2,0.5,0.6
2023-05-27T16:00:00,1433A,104.079,30.5706,成都市,三瓦窑,,27,25,67,8,39,101,84,49,49,10,41,3,2,0.4,0.5
2023-05-27T16:00:00,1434A,104.1114,30.63,成都市,沙河铺,,32,32,43,11,21,124,88,52,52,8,19,2,2,0.5,0.5
2023-05-27T16:00:00,1437A,104.0786,30.6531,成都市,君平街,,33,33,62,20,37,128,100,81,61,12,31,1,2,0.4,0.5
2023-05-27T16:00:00,1438A,103.613,31.0283,成都市,灵岩寺,,43,39,30,30,20,127,77,118,49,15,12,3,3,0.6,0.6
2023-05-27T16:00:00,1439A,106.6899,26.5998,贵阳市,马鞍山,,29,29,23,14,15,99,92,90,89,8,8,4,5,0.3,0.4
2023-05-27T16:00:00,1440A,106.6971,26.5694,贵阳市,市环保站,,41,41,35,19,22,98,92,92,90,14,13,3,3,0.3,0.3
2023-05-27T16:00:00,1441A,106.6243,26.6266,贵阳市,鉴湖路,,39,39,29,17,16,100,93,88,88,5,6,4,4,0.4,0.4
2023-05-27T16:00:00,1442A,106.7487,26.6343,贵阳市,燕子冲,,39,29,31,27,25,110,106,101,101,6,7,5,5,0.5,0.5
2023-05-27T16:00:00,1443A,106.6555,26.4365,贵阳市,碧云窝,颗粒物(PM10),65,80,45,12,14,99,92,92,91,10,6,5,5,0.4,0.4
2023-05-27T16:00:00,1444A,106.694,26.5161,贵阳市,中院村,,41,41,35,12,16,94,92,87,87,8,10,6,6,0.4,0.4
2023-05-27T16:00:00,1445A,106.7109,26.6027,贵阳市,红边门,,39,39,33,12,21,93,88,86,85,14,15,3,4,0.5,0.6
2023-05-27T16:00:00,1446A,106.7164,26.5699,贵阳市,新华路,,34,34,32,22,19,100,95,92,92,10,11,4,4,0.4,0.3
2023-05-27T16:00:00,1447A,106.674,26.5424,贵阳市,太慈桥,,31,31,34,9,12,106,99,96,96,6,6,5,5,0.3,0.3
2023-05-27T16:00:00,1450A,102.8204,24.8886,昆明市,呈贡新区,,42,23,25,10,14,134,134,124,124,6,8,7,7,0.4,0.6
2023-05-27T16:00:00,1451A,102.6251,24.9608,昆明市,西山森林公园,,42,17,18,19,14,135,132,129,129,3,5,6,6,0.6,0.7
2023-05-27T16:00:00,1452A,102.7252,25.0902,昆明市,龙泉镇,,42,21,24,6,10,136,133,124,124,10,13,9,9,0.4,0.5
2023-05-27T16:00:00,1453A,102.7266,25.0375,昆明市,东风东路,,37,19,22,2,12,121,117,110,110,9,9,7,7,0.4,0.5
2023-05-27T16:00:00,1454A,102.6742,25.0669,昆明市,金鼎山,,40,25,29,8,14,130,126,119,119,12,13,9,9,0.4,0.5
2023-05-27T16:00:00,1455A,102.6644,25.0401,昆明市,碧鸡广场,,42,26,26,4,16,133,132,124,124,10,15,6,7,0.4,0.5
2023-05-27T16:00:00,1456A,91.1319,29.6514,拉萨市,八廓街,,43,18,17,7,6,138,135,116,116,5,8,7,6,0.2,0.2
2023-05-27T16:00:00,1457A,91.1221,29.6747,拉萨市,市环保局,,42,14,17,12,9,139,134,115,115,12,16,6,5,0.2,0.2
2023-05-27T16:00:00,1458A,91.0874,29.6475,拉萨市,区监测站,,,,15,7,9,135,130,110,110,3,10,7,7,0.2,0.3
2023-05-27T16:00:00,1459A,91.1774,29.6541,拉萨市,西藏大学,,45,12,11,8,5,143,143,122,118,6,8,8,8,0.3,0.3
2023-05-27T16:00:00,1460A,90.9798,29.6588,拉萨市,区辐射站,,39,18,21,5,8,134,123,105,105,8,20,8,8,0.2,0.2
2023-05-27T16:00:00,1461A,91.0834,29.6292,拉萨市,拉萨火车站,,42,16,17,2,6,135,132,106,106,7,15,8,8,0.2,0.5
2023-05-27T16:00:00,1462A,108.882,34.2749,西安市,高压开关厂,,15,15,41,9,18,55,39,46,39,20,23,6,7,0.4,0.4
2023-05-27T16:00:00,1463A,108.993,34.2629,西安市,兴庆小区,,14,14,34,6,16,55,30,50,34,20,25,4,4,0.6,0.8
2023-05-27T16:00:00,1464A,109.06,34.2572,西安市,纺织城,,18,6,38,12,20,60,39,43,34,26,34,4,4,0.4,0.4
2023-05-27T16:00:00,1465A,108.9356,34.2173,西安市,小寨,,19,19,34,6,15,54,45,46,41,17,20,7,7,0.6,0.6
2023-05-27T16:00:00,1466A,108.954,34.2713,西安市,市人民体育场,,12,11,34,8,19,49,32,43,30,24,26,6,6,0.5,0.4
2023-05-27T16:00:00,1467A,108.8922,34.2322,西安市,高新西区,,19,19,34,8,18,64,47,50,47,17,19,5,6,0.5,0.5
2023-05-27T16:00:00,1468A,108.935,34.3474,西安市,经开区,,16,16,39,6,19,49,33,46,33,20,24,2,2,0.4,0.4
2023-05-27T16:00:00,1469A,108.906,34.1546,西安市,长安区,,20,14,39,7,17,69,63,59,59,15,21,8,8,0.4,0.4
2023-05-27T16:00:00,1471A,109.2186,34.3731,西安市,临潼区,,,,52,5,25,84,49,70,61,17,19,1,1,0.6,0.6
2023-05-27T16:00:00,1472A,108.869,34.378,西安市,草滩,,14,10,55,9,28,63,21,20,19,28,39,9,8,0.4,0.5
2023-05-27T16:00:00,1473A,108.985,34.1978,西安市,曲江文化产业集团,,18,2,43,6,18,68,56,57,53,21,25,4,4,0.4,0.4
2023-05-27T16:00:00,1474A,109.051,34.3213,西安市,广运潭,,12,12,35,7,22,56,30,46,31,21,26,6,6,0.6,0.5
2023-05-27T16:00:00,1476A,103.631,36.1031,兰州市,兰炼宾馆,颗粒物(PM10),66,81,49,25,29,144,144,102,102,10,23,6,6,0.5,0.4
2023-05-27T16:00:00,1477A,104.1373,35.9454,兰州市,榆中兰大校区,,,,,,,,,,,,,,,,
2023-05-27T16:00:00,1478A,103.8412,36.0726,兰州市,生物制品所,,,80,48,27,25,137,137,80,80,,23,11,9,0.5,0.7
2023-05-27T16:00:00,1479A,103.831,36.0464,兰州市,铁路设计院,颗粒物(PM10),56,62,54,24,27,135,131,79,74,17,26,6,6,0.4,0.6
2023-05-27T16:00:00,1483A,101.524,36.6867,西宁市,第五水厂,,,,,,,,,,,,,,,,
2023-05-27T16:00:00,1484A,105.9512,38.6016,银川市,贺兰山马莲口,臭氧1小时,77,45,46,23,18,185,181,140,140,17,9,20,13,0.7,0.6
2023-05-27T16:00:00,1488A,106.2328,38.4975,银川市,贺兰山东路,臭氧1小时,60,37,59,12,23,168,168,137,137,12,13,7,11,0.3,0.3
2023-05-27T16:00:00,1489A,106.1358,38.5036,银川市,学院路,"颗粒物(PM10),臭氧1小时",52,53,64,20,24,164,161,132,132,10,15,10,12,0.3,0.3
2023-05-27T16:00:00,1490A,87.5801,43.8303,乌鲁木齐市,监测站,,,34,43,13,11,115,114,77,77,12,24,5,5,,0.4
2023-05-27T16:00:00,1491A,87.6046,43.768,乌鲁木齐市,收费所,颗粒物(PM10),51,51,54,13,15,114,113,79,77,11,23,6,10,0.3,0.4
2023-05-27T16:00:00,1492A,87.4754,43.9469,乌鲁木齐市,新疆农科院农场,,39,24,57,27,25,105,105,78,78,18,32,8,8,0.1,0.1
2023-05-27T16:00:00,1493A,87.5525,43.8711,乌鲁木齐市,铁路局,,37,30,34,10,12,117,116,79,79,4,20,5,5,0.4,0.5
2023-05-27T16:00:00,1494A,87.6432,43.831,乌鲁木齐市,三十一中学,,37,28,36,8,10,117,117,89,89,4,14,10,10,0.4,0.4
2023-05-27T16:00:00,1496A,87.7216,44.1747,乌鲁木齐市,米东区环保局,,39,24,58,21,23,124,124,86,86,2,22,4,4,0.2,0.3
2023-05-27T16:00:00,1508A,112.9433,27.8614,湘潭市,板塘,,25,6,29,14,18,90,78,81,81,12,18,4,6,0.2,0.2
2023-05-27T16:00:00,1511A,112.9118,27.8403,湘潭市,市监测站,,30,17,26,16,18,103,93,95,95,21,18,25,8,0.9,0.6
2023-05-27T16:00:00,1512A,112.8937,27.8728,湘潭市,江麓,,25,20,32,12,17,97,77,82,82,6,12,19,22,0.4,0.5
2023-05-27T16:00:00,1513A,112.9227,27.8159,湘潭市,岳塘,,25,10,28,15,17,101,80,92,92,3,8,4,5,0.1,0.2
2023-05-27T16:00:00,1514A,112.9074,27.9119,湘潭市,科大,,25,18,33,11,14,103,78,88,88,15,19,12,7,0.9,0.6
2023-05-27T16:00:00,1515A,113.135,27.8244,株洲市,天台山庄,,29,16,24,14,15,99,92,90,90,1,8,7,8,0.4,0.5
2023-05-27T16:00:00,1518A,113.095,27.8867,株洲市,株冶医院,,,20,29,10,16,92,83,82,82,6,13,,3,0.5,0.6
2023-05-27T16:00:00,1519A,113.167,27.8667,株洲市,市四中,,27,16,24,9,13,91,86,84,84,1,6,8,8,0.4,0.5
2023-05-27T16:00:00,1520A,113.143,27.8381,株洲市,火车站,,29,19,25,15,14,94,90,86,86,5,10,4,5,0.2,0.3
2023-05-27T16:00:00,1524A,113.13,27.8528,株洲市,市监测站,,29,18,23,15,15,99,91,90,90,4,8,3,3,0.5,0.6
2023-05-27T16:00:00,1552A,106.805,26.3003,贵阳市,桐木岭,,,,,,,,,,,,,,,,
2023-05-27T16:00:00,1559A,113.251,27.8336,株洲市,大京风景区,,22,12,24,9,14,80,70,71,71,2,2,3,5,0.3,0.4
2023-05-27T16:00:00,1562A,113.0048,27.9153,湘潭市,昭山,,27,24,29,15,16,98,86,90,90,4,11,5,6,0.3,0.4
2023-05-27T16:00:00,1564A,112.4876,27.9164,湘潭市,韶山,,24,24,26,10,9,77,51,54,54,1,2,4,4,0.1,0.3
2023-05-27T16:00:00,1585A,109.8756,40.6532,包头市,市环境监测站,臭氧1小时,59,43,65,31,26,168,167,150,150,8,16,11,12,0.4,0.4
2023-05-27T16:00:00,1587A,109.9991,40.5842,包头市,包头八中,臭氧1小时,55,42,68,25,32,170,164,148,148,12,19,12,14,0.6,0.6
2023-05-27T16:00:00,1588A,109.8538,40.6821,包头市,青山宾馆,臭氧1小时,65,40,56,24,32,172,172,154,154,8,13,9,12,0.7,0.6
2023-05-27T16:00:00,1589A,109.8642,40.6288,包头市,惠龙物流,臭氧1小时,59,44,66,27,27,167,167,146,146,10,16,8,9,0.4,0.4
2023-05-27T16:00:00,1590A,110.0377,40.5546,包头市,东河鸿龙湾,臭氧1小时,59,43,65,19,18,167,167,149,149,7,14,14,15,0.6,0.4
2023-05-27T16:00:00,1591A,110.0023,39.8129,鄂尔多斯市,综合楼,颗粒物(PM10),54,58,83,17,25,144,135,126,126,18,17,7,7,0.6,0.5
2023-05-27T16:00:00,1592A,109.9486,39.8261,鄂尔多斯市,巴音孟克林场办事处,颗粒物(PM10),59,68,75,31,28,162,148,136,136,16,13,7,8,0.6,0.4
2023-05-27T16:00:00,1593A,109.7736,39.5986,鄂尔多斯市,康泽苑,颗粒物(PM10),70,90,76,41,30,149,149,126,126,12,12,11,8,0.6,0.4
2023-05-27T16:00:00,1594A,109.8119,39.5989,鄂尔多斯市,华泰汽车城,颗粒物(PM10),65,80,69,39,31,142,142,118,118,13,11,12,8,0.7,0.5
2023-05-27T16:00:00,1595A,109.9734,39.7884,鄂尔多斯市,奥林花园,颗粒物(PM10),57,63,85,27,30,152,136,135,135,15,13,6,7,0.9,0.8
2023-05-27T16:00:00,1597A,122.2703,40.7094,营口市,大庆路,,31,20,43,10,23,158,98,104,99,12,18,9,8,0.5,0.7
2023-05-27T16:00:00,1598A,122.2150,40.6511,营口市,镜湖西路,,33,25,44,8,20,183,103,112,103,12,15,6,8,0.4,0.4
2023-05-27T16:00:00,1599A,122.1658,40.6789,营口市,西炮台,,34,30,39,10,20,166,107,100,100,12,17,8,5,0.5,0.5
2023-05-27T16:00:00,1600A,124.3303,40.0625,丹东市,江湾东路,,45,45,54,22,27,92,74,65,65,10,17,7,11,0.6,0.6
2023-05-27T16:00:00,1601A,124.4256,40.1503,丹东市,临江后街,,42,42,42,22,22,101,72,67,67,7,14,7,8,0.6,0.6
2023-05-27T16:00:00,1602A,124.3933,40.1461,丹东市,元宝山,颗粒物(PM10),52,53,49,31,24,92,59,53,53,20,20,8,8,0.8,0.6
2023-05-27T16:00:00,1603A,124.3633,40.1092,丹东市,民主桥,,50,50,45,23,23,91,67,59,59,16,21,8,9,0.7,0.6
2023-05-27T16:00:00,1604A,122.0303,41.1489,盘锦市,开发区,,31,31,49,13,36,183,93,97,97,13,19,5,7,0.5,0.7
2023-05-27T16:00:00,1605A,122.0485,41.0883,盘锦市,兴隆台,,31,31,64,11,31,179,98,97,97,12,22,5,7,0.6,0.7
2023-05-27T16:00:00,1606A,121.8297,41.1028,盘锦市,新生街道,,30,30,40,8,22,178,92,105,92,11,14,6,7,0.6,0.7
2023-05-27T16:00:00,1607A,120.9092,40.7136,葫芦岛市,龙港区,,47,47,47,14,36,180,96,111,88,8,10,8,8,0.4,0.5
2023-05-27T16:00:00,1608A,120.8392,40.7514,葫芦岛市,化工街,,34,34,62,12,38,174,100,111,88,8,12,5,6,0.2,0.3
2023-05-27T16:00:00,1609A,120.8341,40.7073,葫芦岛市,新区,,32,28,49,22,46,181,97,111,88,8,11,10,10,0.5,0.6
2023-05-27T16:00:00,1610A,120.8695,40.7677,葫芦岛市,东城区,,31,28,52,14,41,167,98,109,83,9,13,7,8,0.5,0.6
2023-05-27T16:00:00,1611A,118.5819,24.9117,泉州市,涂山街,颗粒物(PM10),56,62,61,25,38,173,143,138,138,14,16,9,9,0.7,0.7
2023-05-27T16:00:00,1612A,118.5972,24.8978,泉州市,津头埔,颗粒物(PM10),54,58,58,23,33,171,131,136,136,17,20,8,8,0.7,0.7
2023-05-27T16:00:00,1613A,118.6663,24.9424,泉州市,万安,,,,59,16,35,168,120,136,136,4,8,,11,0.6,0.6
2023-05-27T16:00:00,1614A,118.6117,24.9604,泉州市,清源山,,,,,,,,,,,,,,,,
2023-05-27T16:00:00,1616A,117.6795,36.229,济南市,技术学院,,48,48,46,24,25,163,69,112,67,16,23,6,8,0.5,0.7
2023-05-27T16:00:00,1618A,118.3429,35.0532,临沂市,沂河小区,细颗粒物(PM2.5),62,66,69,44,34,145,75,54,54,18,19,7,8,0.7,0.7
2023-05-27T16:00:00,1619A,118.295,35.0583,临沂市,鲁南制药厂,颗粒物(PM10),56,61,63,38,33,152,78,56,56,16,16,9,10,0.7,0.7
2023-05-27T16:00:00,1620A,118.2794,34.9976,临沂市,新光毛纺厂,细颗粒物(PM2.5),68,75,64,49,32,135,74,55,55,20,18,6,5,1.1,0.9
2023-05-27T16:00:00,1621A,118.3956,35.0888,临沂市,河东保险公司,"颗粒物(PM10),细颗粒物(PM2.5)",53,56,64,37,22,143,71,51,51,16,17,8,9,0.6,0.7
2023-05-27T16:00:00,1622A,116.3032,37.4674,德州市,儿童乐园,,33,27,52,19,34,153,104,116,110,7,18,3,5,0.5,0.7
2023-05-27T16:00:00,1624A,116.2991,37.4451,德州市,监理站,,32,28,57,12,30,150,101,122,113,11,17,6,8,0.3,0.5
2023-05-27T16:00:00,1625A,115.9848,36.4372,聊城市,区政府,细颗粒物(PM2.5),57,58,55,40,38,128,78,98,90,13,17,6,7,0.7,0.8
2023-05-27T16:00:00,1628A,118.0062,37.3803,滨州市,市环保局,,33,33,62,22,38,174,64,81,66,10,20,3,6,0.3,0.5
2023-05-27T16:00:00,1629A,118.0018,37.3617,滨州市,第二水厂,,24,24,59,14,34,179,69,84,70,11,24,2,6,0.5,0.8
2023-05-27T16:00:00,1630A,117.9776,37.393,滨州市,北中新校,,,,,,,,,,,,,,,,
2023-05-27T16:00:00,1631A,118.0414,36.8103,淄博市,人民公园,,36,36,75,24,39,172,45,110,34,26,27,8,10,0.3,0.5
2023-05-27T16:00:00,1633A,117.8525,36.4847,淄博市,双山,颗粒物(PM10),52,53,65,35,37,150,23,131,30,35,26,8,9,0.7,0.5
2023-05-27T16:00:00,1634A,117.9592,36.6331,淄博市,气象站,,45,44,63,31,37,155,26,105,22,28,27,2,5,0.5,0.5
2023-05-27T16:00:00,1635A,118.3092,36.8194,淄博市,莆田园,,41,41,66,27,36,170,40,110,31,21,23,8,9,0.3,0.3
2023-05-27T16:00:00,1637A,117.558,34.8438,枣庄市,市中区政府,细颗粒物(PM2.5),70,80,71,51,36,140,110,74,72,22,23,7,8,0.9,0.5
2023-05-27T16:00:00,1638A,117.2852,34.7837,枣庄市,薛城环保局,,46,46,63,29,38,160,110,86,86,14,18,5,9,0.4,0.5
2023-05-27T16:00:00,1639A,117.5852,34.7745,枣庄市,峄城区政府,颗粒物(PM10),54,58,65,34,34,152,99,70,70,15,17,12,16,0.6,0.5
2023-05-27T16:00:00,1640A,117.7276,34.5578,枣庄市,台儿庄区环保局,,,73,62,,32,142,91,63,63,20,20,10,11,0.6,0.6
2023-05-27T16:00:00,1641A,117.4518,35.0992,枣庄市,山亭区环保局,,49,48,58,34,36,167,114,92,81,18,17,7,7,0.7,0.5
2023-05-27T16:00:00,1642A,121.2514,37.5639,烟台市,开发区,,20,7,33,14,19,137,47,72,46,30,21,2,3,0.5,0.6
2023-05-27T16:00:00,1643A,121.3719,37.5433,烟台市,轴承厂,,38,29,43,26,25,145,47,86,55,27,11,2,2,0.3,0.4
2023-05-27T16:00:00,1644A,121.3181,37.5436,烟台市,西郊化工站,,36,29,42,25,21,140,46,80,52,33,15,2,2,0.4,0.3
2023-05-27T16:00:00,1645A,121.4478,37.4822,烟台市,莱山环保局,,20,17,35,14,18,141,47,80,54,24,12,3,3,0.3,0.3
2023-05-27T16:00:00,1646A,121.2611,37.4967,烟台市,福山环保局,,28,27,39,19,19,133,55,70,53,29,18,5,6,0.2,0.2
2023-05-27T16:00:00,1650A,119.1437,36.7023,潍坊市,环保局,,29,29,57,19,29,188,53,53,53,12,17,7,8,0.5,0.6
2023-05-27T16:00:00,1653A,116.6251,35.4302,济宁市,火炬城,,,87,74,,41,122,57,73,48,15,23,14,13,0.9,1.1
2023-05-27T16:00:00,1655A,116.5491,35.4042,济宁市,电化厂,颗粒物(PM10),78,106,97,41,43,129,59,94,55,16,22,9,9,0.8,1
2023-05-27T16:00:00,1656A,117.1437,36.1937,泰安市,监测站,,34,34,60,17,28,141,68,116,75,12,16,5,8,0.6,0.7
2023-05-27T16:00:00,1657A,117.0885,36.2017,泰安市,人口学校,,41,41,57,25,28,145,66,145,68,19,17,6,10,0.7,0.6
2023-05-27T16:00:00,1658A,117.1089,36.1758,泰安市,电力学校,,,36,48,21,24,141,69,74,72,12,15,,11,0.4,0.3
2023-05-27T16:00:00,1659A,119.471,35.4209,日照市,监测站,,,14,33,13,17,80,66,79,63,,9,4,3,0.2,0.1
2023-05-27T16:00:00,1660A,119.523,35.4216,日照市,市政府广场,,24,24,38,16,18,80,68,76,62,5,4,4,4,0.2,0.2
2023-05-27T16:00:00,1661A,119.5587,35.4044,日照市,港务局,,23,19,36,13,10,83,73,80,70,4,5,4,5,0.2,0.2
2023-05-27T16:00:00,1662A,122.1214,37.4236,威海市,华夏技校,,22,19,35,15,22,146,33,70,35,34,21,4,4,0.3,0.3
2023-05-27T16:00:00,1663A,122.0508,37.5236,威海市,山大分校,,20,12,33,5,15,147,63,80,57,14,14,5,5,0.2,0.3
2023-05-27T16:00:00,1664A,122.1067,37.5072,威海市,市监测站,,35,17,37,24,22,145,44,77,46,26,18,8,8,0.5,0.4
2023-05-27T16:00:00,1666A,118.6614,37.4309,东营市,市环保局,,27,27,49,17,30,178,61,117,61,11,15,7,10,0.1,0.3
2023-05-27T16:00:00,1669A,113.5824,24.7733,韶关市,市八中,,32,23,26,16,12,103,100,84,84,6,14,6,7,0.3,0.4
2023-05-27T16:00:00,1671A,113.5917,24.7972,韶关市,园林处,,,42,28,18,14,101,97,81,81,,12,8,8,0.3,0.4
2023-05-27T16:00:00,1672A,113.6735,24.7791,韶关市,韶关学院,,30,27,25,10,13,103,94,84,84,7,12,7,8,0.3,0.4
2023-05-27T16:00:00,1673A,113.5971,24.6863,韶关市,曲江监测站,,32,22,22,12,14,102,102,86,86,4,12,8,8,0.4,0.5
2023-05-27T16:00:00,1674A,116.6794,23.3667,汕头市,金平子站,,36,36,31,15,21,97,92,72,72,8,13,5,5,0.6,0.6
2023-05-27T16:00:00,1675A,116.7244,23.3633,汕头市,龙湖子站,,30,30,39,14,18,109,85,80,80,4,12,3,3,0.5,0.5
2023-05-27T16:00:00,1676A,116.7258,23.2775,汕头市,濠江子站,,38,38,34,21,21,102,97,73,73,9,12,8,8,0.6,0.7
2023-05-27T16:00:00,1677A,116.7519,23.4714,汕头市,澄海子站,,40,40,38,18,22,107,92,80,80,8,15,4,6,0.6,0.6
2023-05-27T16:00:00,1678A,116.6092,23.2539,汕头市,潮阳子站,,32,32,36,19,20,97,72,70,70,6,11,9,9,0.6,0.6
2023-05-27T16:00:00,1680A,110.3539,21.2706,湛江市,湛江影剧院,,23,23,17,4,6,62,46,53,53,3,4,5,5,0.5,0.5
2023-05-27T16:00:00,1681A,110.3928,21.2228,湛江市,市环境监测站,,15,14,12,9,3,60,46,53,53,3,4,6,6,0.3,0.3
2023-05-27T16:00:00,1682A,110.4019,21.1997,湛江市,环保局宿舍,,15,10,14,4,8,60,48,52,52,2,4,3,4,0.3,0.3
2023-05-27T16:00:00,1683A,110.4111,21.2028,湛江市,霞山游泳场,,15,12,13,7,8,62,48,54,53,4,5,6,6,0.5,0.5
2023-05-27T16:00:00,1684A,110.3316,21.2679,湛江市,麻章区环保局,,15,12,19,2,7,60,46,54,54,4,8,3,4,0.4,0.6
2023-05-27T16:00:00,1685A,110.4558,21.2567,湛江市,坡头区环保局,,15,10,12,4,7,64,46,55,55,3,4,6,6,0.4,0.4
2023-05-27T16:00:00,1686A,111.0286,21.4688,茂名市,电白南海,,27,27,16,17,10,64,64,51,51,3,4,4,4,0.5,0.5
2023-05-27T16:00:00,1687A,110.9294,21.6533,茂名市,茂石化七小,,18,12,15,6,8,59,56,53,53,4,7,6,6,0.4,0.5
2023-05-27T16:00:00,1688A,110.9107,21.6687,茂名市,健康路,,18,14,9,6,1,59,57,54,54,4,6,4,4,0.4,0.5
2023-05-27T16:00:00,1689A,110.8592,21.6828,茂名市,高岭,,20,14,18,7,11,66,63,56,56,5,8,3,5,0.5,0.5
2023-05-27T16:00:00,1690A,116.1231,24.3284,梅州市,梅江月梅,,33,21,31,12,19,103,103,72,72,5,10,3,4,0.4,0.5
2023-05-27T16:00:00,1691A,116.0797,24.2719,梅州市,梅县新城,,33,28,36,16,21,107,104,83,83,7,16,6,7,0.4,0.6
2023-05-27T16:00:00,1692A,116.1248,24.2654,梅州市,环境监控中心,,33,24,36,19,21,103,103,78,78,10,20,2,3,0.5,0.6
2023-05-27T16:00:00,1693A,115.3653,22.775,汕尾市,市环保局,,25,25,32,11,15,66,65,60,60,1,4,6,6,0.4,0.4
2023-05-27T16:00:00,1694A,115.3706,22.7898,汕尾市,市政府,,23,18,28,16,15,71,70,63,63,4,6,4,4,0.6,0.6
2023-05-27T16:00:00,1695A,115.3622,22.7925,汕尾市,新城中学,,22,20,28,11,12,72,69,63,63,2,4,6,6,0.6,0.6
2023-05-27T16:00:00,1696A,114.6778,23.7569,河源市,源西,,28,28,33,11,12,91,75,68,68,5,10,4,4,0.5,0.6
2023-05-27T16:00:00,1697A,114.6944,23.7586,河源市,东埔,,23,10,27,10,14,84,73,68,68,5,8,5,5,0.4,0.4
2023-05-27T16:00:00,1698A,114.6892,23.7233,河源市,老城,,25,25,36,11,11,86,71,68,68,3,7,4,4,0.4,0.5
2023-05-27T16:00:00,1699A,111.9797,21.8593,阳江市,鸳鸯湖,,29,29,16,8,6,66,66,56,56,3,3,7,6,0.5,0.5
2023-05-27T16:00:00,1701A,111.9491,21.8658,阳江市,马南垌,,25,21,17,17,10,59,59,50,50,6,3,4,4,0.5,0.5
2023-05-27T16:00:00,1702A,113.0426,23.691,清远市,环保大楼,臭氧1小时,89,39,31,24,15,191,191,108,108,8,15,5,5,0.4,0.4
2023-05-27T16:00:00,1703A,113.0208,23.7106,清远市,凤城街办,臭氧1小时,70,50,34,27,15,176,176,103,103,12,17,7,7,0.4,0.4
2023-05-27T16:00:00,1705A,116.6367,23.6719,潮州市,西园路,,40,40,41,21,24,108,94,71,71,4,8,5,6,0.4,0.5
2023-05-27T16:00:00,1706A,116.6447,23.6706,潮州市,档案局,,49,49,41,19,24,120,109,89,89,2,9,6,8,0.4,0.5
2023-05-27T16:00:00,1708A,116.3701,23.5345,揭阳市,新兴,颗粒物(PM10),57,63,52,27,26,152,149,107,107,8,17,11,12,1.0,0.6
2023-05-27T16:00:00,1709A,116.3264,23.5443,揭阳市,西马,颗粒物(PM10),52,53,50,21,23,157,157,105,105,6,14,9,12,1.1,0.8
2023-05-27T16:00:00,1710A,116.3611,23.5626,揭阳市,东兴,,50,49,57,20,24,160,160,107,107,10,20,6,13,1.2,0.8
2023-05-27T16:00:00,1711A,116.4151,23.5294,揭阳市,渔湖,细颗粒物(PM2.5),59,66,51,42,26,150,132,101,101,6,14,8,8,1.0,0.6
2023-05-27T16:00:00,1712A,112.0392,22.9169,云浮市,新市府,,29,29,18,12,9,76,61,60,60,6,3,3,3,0.7,0.7
2023-05-27T16:00:00,1714A,112.0539,22.9539,云浮市,牧羊,,42,42,30,12,12,71,71,52,52,12,14,9,9,0.4,0.5
2023-05-27T16:00:00,1715A,102.575,24.3711,玉溪市,东风水库,,37,24,26,14,16,117,116,106,106,7,10,8,9,0.5,0.7
2023-05-27T16:00:00,1718A,115.4208,35.2464,菏泽市,气象局,,29,29,72,16,43,134,58,118,51,18,22,4,5,0.6,0.6
2023-05-27T16:00:00,1719A,115.4747,35.2375,菏泽市,市政协,,32,19,67,22,54,138,52,118,49,14,19,3,5,0.5,0.5
2023-05-27T16:00:00,1721A,113.3819,40.1097,大同市,果树场,细颗粒物(PM2.5),68,84,71,49,42,144,131,128,128,9,17,8,9,0.6,0.7
2023-05-27T16:00:00,1723A,113.2994,40.0758,大同市,云冈宾馆,,40,39,71,26,33,144,128,126,126,17,18,6,7,0.5,0.5
2023-05-27T16:00:00,1724A,113.3444,40.0917,大同市,大同大学,,44,44,64,18,27,146,136,134,134,7,12,7,9,0.4,0.4
2023-05-27T16:00:00,1725A,113.2661,40.1269,大同市,安家小村,颗粒物(PM10),51,52,86,30,40,148,139,135,135,7,16,8,8,0.3,0.4
2023-05-27T16:00:00,1726A,113.2711,40.0844,大同市,教育学院,,50,50,72,15,31,143,135,130,130,9,17,8,9,0.5,0.6
2023-05-27T16:00:00,1727A,113.1147,36.1547,长治市,清华站,,34,11,42,0,38,118,107,83,83,10,16,7,9,0.7,1
2023-05-27T16:00:00,1728A,113.1031,36.1989,长治市,监测站,,35,13,51,0,40,117,109,94,94,8,15,6,8,0.9,1.2
2023-05-27T16:00:00,1730A,113.0886,36.2125,长治市,审计局,,37,3,39,2,39,120,117,98,98,7,14,8,11,0.7,1
2023-05-27T16:00:00,1731A,113.0844,36.1856,长治市,长治八中,,37,7,46,3,29,125,118,96,96,7,13,4,6,0.7,0.9
2023-05-27T16:00:00,1733A,111.5531,36.0783,临汾市,临钢医院,,26,8,32,18,29,96,60,60,59,26,19,2,2,0.8,0.7
2023-05-27T16:00:00,1734A,111.5028,36.0714,临汾市,技工学校,,32,19,42,22,22,109,78,99,72,15,15,1,3,0.7,0.6
2023-05-27T16:00:00,1736A,111.5018,36.0855,临汾市,市委,,33,13,38,23,27,111,80,85,75,14,13,2,3,0.8,0.8
2023-05-27T16:00:00,1738A,113.5758,37.8572,阳泉市,市中心,,33,6,48,10,21,181,104,102,88,13,21,8,10,0.7,0.8
2023-05-27T16:00:00,1739A,113.4894,37.8731,阳泉市,赛鱼,,32,7,53,5,24,179,100,90,90,14,20,6,8,0.6,0.6
2023-05-27T16:00:00,1740A,113.5819,37.8486,阳泉市,南庄,,34,8,56,11,29,180,107,94,94,12,17,9,11,0.7,0.7
2023-05-27T16:00:00,1742A,113.5614,37.8703,阳泉市,平坦,,32,8,53,8,25,176,102,116,94,13,22,8,10,0.4,0.5
2023-05-27T16:00:00,1743A,113.5158,37.8392,阳泉市,大阳泉,,34,19,44,10,29,176,106,113,92,10,14,7,11,0.6,0.6
2023-05-27T16:00:00,1744A,118.9233,42.2816,赤峰市,松山一中,,,,,,,,,,,,,,,,
2023-05-27T16:00:00,1745A,118.9576,42.2728,赤峰市,哈达街,颗粒物(PM10),57,64,58,23,21,141,141,135,135,16,24,12,14,0.5,0.5
2023-05-27T16:00:00,1746A,118.8788,42.2554,赤峰市,天义路,颗粒物(PM10),53,55,44,24,20,147,147,142,142,13,20,12,13,0.5,0.5
2023-05-27T16:00:00,1748A,123.044,41.1196,鞍山市,深沟寺,,33,30,37,17,21,139,103,99,98,6,7,7,7,0.4,0.4
2023-05-27T16:00:00,1749A,123.011,41.0931,鞍山市,太阳城,,32,32,41,14,17,139,101,99,99,11,11,8,8,0.7,0.7
2023-05-27T16:00:00,1750A,123.0485,41.1442,鞍山市,太平,,35,35,45,18,22,123,96,106,96,11,11,8,8,0.6,0.6
2023-05-27T16:00:00,1751A,122.9642,41.0971,鞍山市,铁西三道街,,43,43,50,22,25,144,109,108,100,15,17,5,4,0.8,0.6
2023-05-27T16:00:00,1752A,122.9341,41.0833,鞍山市,铁西工业园区,,43,43,60,17,21,142,109,101,101,8,18,7,8,0.6,0.7
2023-05-27T16:00:00,1753A,123.022,41.0821,鞍山市,明达新区,,37,37,43,16,19,140,103,109,104,10,11,6,6,0.4,0.4
2023-05-27T16:00:00,1754A,123.1289,41.0228,鞍山市,千山,,,,,,,,,,,,,,,,
2023-05-27T16:00:00,1755A,123.7977,41.8491,抚顺市,望花区,颗粒物(PM10),56,62,57,28,27,150,127,128,128,20,20,10,11,0.6,0.7
2023-05-27T16:00:00,1756A,123.9161,41.8822,抚顺市,顺城区,颗粒物(PM10),52,54,48,27,24,142,128,124,124,16,19,10,7,0.6,0.5
2023-05-27T16:00:00,1757A,124.0436,41.8611,抚顺市,东洲区,,48,48,44,18,19,143,124,126,126,7,8,6,6,0.5,0.5
2023-05-27T16:00:00,1758A,123.9247,41.8642,抚顺市,新抚区,颗粒物(PM10),51,52,55,28,27,143,127,122,122,15,21,9,9,0.5,0.6
2023-05-27T16:00:00,1759A,124.0972,41.8961,抚顺市,大伙房水库,,,39,37,18,17,143,127,126,126,4,5,5,5,,0.1
2023-05-27T16:00:00,1760A,123.7086,41.8391,抚顺市,沈抚新城,颗粒物(PM10),55,59,49,26,24,172,125,124,124,14,18,10,10,0.6,0.7
2023-05-27T16:00:00,1761A,123.8275,41.3064,本溪市,大峪,,38,38,42,19,18,110,110,106,106,6,12,6,5,0.5,0.5
2023-05-27T16:00:00,1762A,123.7567,41.3325,本溪市,溪湖,,38,38,40,16,19,113,101,102,99,11,14,10,14,0.6,0.7
2023-05-27T16:00:00,1763A,123.7169,41.3094,本溪市,彩屯,颗粒物(PM10),56,61,70,29,35,92,64,67,66,40,42,40,64,2.1,2.5
2023-05-27T16:00:00,1764A,123.7669,41.2864,本溪市,东明,,45,45,39,16,15,121,101,115,102,17,13,7,6,0.6,0.6
2023-05-27T16:00:00,1765A,123.7992,41.2664,本溪市,新立屯,,,,42,15,17,114,99,103,96,10,9,6,7,0.5,0.4
2023-05-27T16:00:00,1766A,123.8142,41.3472,本溪市,威宁,,33,33,47,16,20,105,100,93,93,8,15,6,5,0.3,0.3
2023-05-27T16:00:00,1767A,121.1115,41.0879,锦州市,南山,细颗粒物(PM2.5),60,25,60,43,63,164,90,108,81,19,18,28,24,0.5,0.6
2023-05-27T16:00:00,1768A,121.0533,40.8434,锦州市,开发区,颗粒物(PM10),52,53,54,18,46,160,86,101,79,15,18,8,8,0.4,0.5
2023-05-27T16:00:00,1769A,121.1836,41.1119,锦州市,百股街道,,32,31,46,22,39,177,92,113,87,13,13,10,8,0.4,0.5
2023-05-27T16:00:00,1770A,121.1178,41.1222,锦州市,天安街道,,46,46,69,27,41,160,93,108,84,17,15,28,23,0.9,0.9
2023-05-27T16:00:00,1771A,121.1303,41.1386,锦州市,北湖公园,细颗粒物(PM2.5),57,41,57,40,54,168,92,111,84,17,15,22,20,0.7,0.7
2023-05-27T16:00:00,1772A,126.54,43.8622,吉林市,哈达湾,,47,36,46,16,20,167,148,127,127,7,12,4,4,0.6,0.6
2023-05-27T16:00:00,1773A,126.5844,43.8358,吉林市,东局子,,46,40,42,18,21,163,145,129,129,13,13,6,5,0.6,0.6
2023-05-27T16:00:00,1774A,126.5052,43.8245,吉林市,电力学院,,49,43,48,22,26,168,154,130,130,9,15,8,7,0.4,0.4
2023-05-27T16:00:00,1775A,126.6133,43.8972,吉林市,江北,,50,50,53,18,27,162,147,125,125,15,14,8,7,0.6,0.6
2023-05-27T16:00:00,1776A,126.555,43.8306,吉林市,江南公园,,46,44,44,26,25,160,146,128,128,13,14,6,5,0.6,0.6
2023-05-27T16:00:00,1778A,126.7061,43.7133,吉林市,丰满,,39,31,27,20,18,158,124,106,106,9,7,5,5,0.6,0.5
2023-05-27T16:00:00,1779A,123.9305,47.3636,齐齐哈尔市,安居小区,,28,17,23,2,6,87,87,79,79,5,9,3,3,0.3,0.3
2023-05-27T16:00:00,1780A,123.9488,47.3386,齐齐哈尔市,中心广场,,26,10,15,3,4,81,81,71,71,9,10,6,6,0.3,0.3
2023-05-27T16:00:00,1781A,123.9483,47.3227,齐齐哈尔市,农牧车辆厂,,34,34,29,6,6,84,84,74,74,14,10,5,5,0.2,0.2
2023-05-27T16:00:00,1783A,123.945,47.2988,齐齐哈尔市,市环境监测站,,30,23,24,5,10,94,94,77,77,5,9,5,6,0.3,0.3
2023-05-27T16:00:00,1784A,129.61,44.561,牡丹江市,环保大楼,,32,32,26,22,16,118,90,81,81,16,18,5,4,0.4,0.4
2023-05-27T16:00:00,1785A,129.6115,44.5782,牡丹江市,文化广场,细颗粒物(PM2.5),52,32,26,36,32,111,70,73,73,28,22,6,3,0.6,0.5
2023-05-27T16:00:00,1786A,129.5904,44.5963,牡丹江市,第一医院,,39,39,31,17,23,122,79,83,83,17,20,6,3,0.4,0.4
2023-05-27T16:00:00,1787A,129.6364,44.6075,牡丹江市,机车工厂,,25,16,26,7,10,114,78,76,76,8,18,4,4,0.4,0.4
2023-05-27T16:00:00,1788A,129.6386,44.5462,牡丹江市,第一中学,,36,36,29,13,14,120,96,83,83,13,16,4,3,0.5,0.4
2023-05-27T16:00:00,1789A,124.81117,46.03138,大庆市,大同区,,32,24,21,7,5,100,100,89,89,8,8,4,4,0.3,0.3
2023-05-27T16:00:00,1790A,125.129,46.533,大庆市,龙凤区,,31,18,30,8,9,99,98,91,91,8,16,2,5,0.1,0.3
2023-05-27T16:00:00,1791A,124.902,46.408,大庆市,红岗区,,30,7,22,5,13,96,95,90,90,10,11,3,5,0.3,0.3
2023-05-27T16:00:00,1792A,125.153,46.586,大庆市,萨尔图区,,28,22,24,6,10,88,88,81,81,10,17,4,4,0.3,0.2
2023-05-27T16:00:00,1793A,124.9042,46.6215,大庆市,让胡路区,,43,43,37,5,11,96,96,90,90,7,12,5,5,0.2,0.3
2023-05-27T16:00:00,1794A,118.3606,31.3519,芜湖市,监测站,颗粒物(PM10),52,53,19,4,13,132,80,128,75,16,25,6,6,0.5,0.6
2023-05-27T16:00:00,1795A,118.3714,31.4134,芜湖市,科创中心,,26,12,23,4,13,116,83,116,74,14,25,4,4,0.3,0.7
2023-05-27T16:00:00,1796A,118.3673,31.3131,芜湖市,四水厂,,,,18,4,14,131,84,126,78,11,19,6,7,0.6,0.7
2023-05-27T16:00:00,1798A,118.5092,31.6837,马鞍山市,湖东路四小,,33,17,27,7,28,127,105,118,97,12,18,6,6,0.7,0.7
2023-05-27T16:00:00,1799A,118.5024,31.6449,马鞍山市,开发区,,31,23,32,3,19,114,97,102,88,10,20,5,5,0.7,0.9
2023-05-27T16:00:00,1800A,118.5228,31.7231,马鞍山市,慈湖,,34,30,38,7,24,130,107,116,98,13,21,8,8,0.7,0.7
2023-05-27T16:00:00,1802A,118.6245,31.7241,马鞍山市,濮塘,,30,7,23,7,24,120,94,120,98,5,10,5,5,1.2,1.3
2023-05-27T16:00:00,1803A,115.9872,29.6815,九江市,十里,,35,29,55,16,38,127,110,72,72,15,28,13,14,0.6,1.1
2023-05-27T16:00:00,1804A,115.9584,29.7046,九江市,茅山头,,32,23,48,16,30,107,102,68,68,10,25,8,9,0.6,1
2023-05-27T16:00:00,1805A,115.9877,29.7295,九江市,西园,,31,7,31,4,25,104,97,72,72,11,22,7,8,0.6,0.9
2023-05-27T16:00:00,1806A,116.0172,29.6547,九江市,五七二七厂,,40,40,59,11,36,108,99,59,59,7,22,8,9,0.4,1.1
2023-05-27T16:00:00,1808A,115.9114,29.6038,九江市,综合工业园,,45,45,71,20,47,137,114,66,66,34,36,9,11,1.1,1.5
2023-05-27T16:00:00,1809A,116.0721,29.7535,九江市,石化总厂,,26,10,47,17,23,95,81,59,59,14,23,8,9,0.6,0.9
2023-05-27T16:00:00,1810A,115.9773,29.5698,九江市,庐山气象台,,36,23,31,24,18,124,113,94,94,6,3,6,7,0.9,1
2023-05-27T16:00:00,1812A,112.3931,34.6516,洛阳市,市委党校,,24,8,35,9,33,87,75,78,68,13,15,3,3,0.9,0.8
2023-05-27T16:00:00,1814A,112.4657,34.6871,洛阳市,豫西宾馆,,27,9,33,9,32,90,84,83,76,9,13,3,3,0.8,0.8
2023-05-27T16:00:00,1815A,112.494,34.6886,洛阳市,河南林校,,26,8,31,7,30,91,81,76,73,9,13,7,7,0.7,0.7
2023-05-27T16:00:00,1816A,112.3844,34.623,洛阳市,开发区管委会,,28,14,35,11,27,101,87,83,78,6,8,3,4,0.5,0.4
2023-05-27T16:00:00,1817A,112.4267,34.6258,洛阳市,市委新办公区,,25,14,24,9,27,86,79,74,71,11,11,3,2,0.6,0.9
2023-05-27T16:00:00,1818A,114.4839,36.0621,安阳市,棉研所,,28,8,62,13,29,98,88,89,88,6,11,6,8,0.3,0.5
2023-05-27T16:00:00,1819A,114.3551,36.1017,安阳市,红庙街,,28,13,60,5,47,111,88,98,92,10,16,2,3,0.3,0.4
2023-05-27T16:00:00,1820A,114.361,36.0681,安阳市,银杏小区,,28,4,44,13,36,124,89,102,92,6,12,6,7,0.5,0.6
2023-05-27T16:00:00,1824A,114.3389,34.7781,开封市,肿瘤医院,,18,6,33,10,26,98,55,97,57,6,8,5,5,0.6,0.7
2023-05-27T16:00:00,1826A,114.2885,34.7965,开封市,世纪星幼儿园,,16,10,35,11,23,102,51,100,56,10,12,4,4,0.8,0.9
2023-05-27T16:00:00,1828A,113.227,35.2125,焦作市,市环保局,,28,16,58,10,29,98,87,91,84,15,16,5,6,0.6,0.7
2023-05-27T16:00:00,1830A,113.1992,35.2590,焦作市,影视城,,25,19,37,11,30,129,78,124,96,9,12,10,11,0.6,0.8
2023-05-27T16:00:00,1832A,113.3257,33.742,平顶山市,新华旅馆,,25,25,38,11,28,94,48,69,47,15,18,2,2,0.8,0.7
2023-05-27T16:00:00,1833A,113.2919,33.737,平顶山市,规划设计院,,18,17,35,12,28,97,46,77,49,17,15,6,6,0.9,0.8
2023-05-27T16:00:00,1834A,113.182,33.774,平顶山市,平顶山工学院,,17,13,39,7,22,97,52,78,53,12,11,3,3,0.7,0.6
2023-05-27T16:00:00,1835A,111.1922,34.7752,三门峡市,市政府,,17,11,23,6,16,100,46,95,78,19,8,7,7,1.7,0.8
2023-05-27T16:00:00,1836A,111.1587,34.7942,三门峡市,开发区,,20,9,39,10,28,98,36,94,74,27,15,4,4,2.0,0.8
2023-05-27T16:00:00,1838A,111.143,34.7955,三门峡市,风景区,,19,12,23,8,17,103,41,97,80,25,14,8,7,1.9,0.8
2023-05-27T16:00:00,1840A,111.2992,30.6981,宜昌市,白龙岗,,39,34,26,27,18,73,60,49,47,29,24,8,8,0.8,0.6
2023-05-27T16:00:00,1841A,111.3549,30.6465,宜昌市,伍家岗,,45,38,32,31,26,86,64,49,49,18,30,5,6,0.9,0.7
2023-05-27T16:00:00,1842A,111.2628,30.6961,宜昌市,点军区,,42,39,35,29,19,74,56,54,54,30,17,6,6,0.8,0.6
2023-05-27T16:00:00,1843A,111.3275,30.7819,宜昌市,夷陵区,,28,20,24,19,19,80,70,60,60,15,17,5,6,0.6,0.6
2023-05-27T16:00:00,1844A,112.2494,30.3197,荆州市,市图书馆,,41,41,38,12,23,103,103,59,59,6,13,5,5,0.8,0.9
2023-05-27T16:00:00,1845A,112.2008,30.3544,荆州市,市委党校,,35,35,42,18,25,105,105,62,62,7,14,6,6,0.7,0.8
2023-05-27T16:00:00,1847A,113.1094,29.3578,岳阳市,南湖风景区,,36,23,58,21,34,126,114,89,89,3,11,7,7,0.5,0.8
2023-05-27T16:00:00,1848A,113.1493,29.4251,岳阳市,城陵矶,,37,24,48,11,30,127,116,88,88,7,16,6,4,0.7,1
2023-05-27T16:00:00,1849A,113.1497,29.3575,岳阳市,开发区,,37,24,59,12,30,128,118,90,90,2,10,6,7,0.5,0.9
2023-05-27T16:00:00,1850A,113.2621,29.4758,岳阳市,云溪区,,40,19,45,11,31,130,126,76,76,4,12,8,8,0.6,0.9
2023-05-27T16:00:00,1851A,112.9943,29.4402,岳阳市,君山区,,36,23,58,14,42,128,113,88,88,5,13,6,5,0.4,0.8
2023-05-27T16:00:00,1852A,113.2117,29.355,岳阳市,金凤水库,,37,31,53,10,33,118,118,84,84,2,8,1,3,0.7,1
2023-05-27T16:00:00,1854A,111.6975,28.9703,常德市,市二中,,38,34,35,25,27,121,121,84,84,2,6,6,5,0.6,0.6
2023-05-27T16:00:00,1857A,111.7158,29.1456,常德市,白鹤山,,44,44,32,24,24,115,115,79,79,1,4,4,2,0.6,0.6
2023-05-27T16:00:00,1858A,110.5319,29.1217,张家界市,永定新区,,28,17,19,10,13,92,89,71,71,5,10,3,3,0.0,0.2
2023-05-27T16:00:00,1859A,110.4697,29.1242,张家界市,电业局,,32,21,22,22,17,107,94,75,75,4,10,3,3,0.3,0.5
2023-05-27T16:00:00,1860A,110.5594,29.3547,张家界市,未央路,,21,21,16,13,8,96,64,48,48,4,8,4,3,0.4,0.4
2023-05-27T16:00:00,1861A,110.4417,29.315,张家界市,袁家界,,29,29,9,19,7,64,61,56,44,6,5,7,7,0.7,0.8
2023-05-27T16:00:00,1862A,110.4144,25.3167,桂林市,电子科大尧山校区,,22,15,19,12,14,75,69,61,61,4,5,5,7,0.6,0.6
2023-05-27T16:00:00,1863A,110.2819,25.2697,桂林市,监测站,,20,8,26,9,12,64,63,53,53,6,12,5,8,0.6,0.7
2023-05-27T16:00:00,1864A,110.3089,25.2708,桂林市,龙隐路小学,,21,13,24,12,15,66,66,54,54,7,11,4,9,0.5,0.5
2023-05-27T16:00:00,1865A,110.2869,25.2178,桂林市,八中,,17,12,21,8,11,56,52,47,47,10,16,3,5,0.2,0.3
2023-05-27T16:00:00,1866A,109.2262,21.588,北海市,牛尾岭水库,,,5,12,,5,73,58,51,51,3,4,8,7,0.4,0.4
2023-05-27T16:00:00,1867A,109.1436,21.4086,北海市,海滩公园,,22,6,23,2,4,84,68,61,61,3,5,3,3,0.5,0.6
2023-05-27T16:00:00,1868A,109.0981,21.4661,北海市,新市环保局,,18,16,17,5,4,79,55,56,56,4,5,1,2,0.3,0.4
2023-05-27T16:00:00,1869A,109.1778,21.5233,北海市,北海工业园,,19,19,22,7,10,73,58,54,54,3,4,4,4,0.4,0.4
2023-05-27T16:00:00,1870A,109.4856,24.3895,柳州市,柳东小学,,26,18,19,18,12,92,83,62,62,3,6,5,5,0.4,0.5
2023-05-27T16:00:00,1871A,109.4157,24.3277,柳州市,环保监测站,,27,18,22,11,10,84,84,57,57,7,10,4,4,0.3,0.3
2023-05-27T16:00:00,1872A,109.389,24.341,柳州市,河西水厂,,23,14,21,12,12,71,71,44,44,6,11,5,5,0.6,0.7
2023-05-27T16:00:00,1873A,109.4311,24.2921,柳州市,市四中,,24,12,20,7,12,77,75,53,53,6,10,6,7,0.7,0.6
2023-05-27T16:00:00,1874A,109.4006,24.3631,柳州市,市九中,,48,22,24,33,16,80,80,48,48,8,12,7,8,0.5,0.5
2023-05-27T16:00:00,1875A,109.4958,24.3134,柳州市,古亭山,,22,13,17,15,9,75,70,52,52,8,7,1,1,0.4,0.4
2023-05-27T16:00:00,1876A,109.5078,18.2489,三亚市,河东子站,,14,13,14,6,7,60,44,47,46,2,4,1,2,0.4,0.4
2023-05-27T16:00:00,1877A,109.4964,18.2681,三亚市,河西子站,,15,9,13,5,6,61,45,46,46,4,7,3,3,0.2,0.4
2023-05-27T16:00:00,1878A,104.7778,31.4741,绵阳市,富乐山,,30,24,23,16,14,122,96,78,78,6,9,3,3,0.4,0.4
2023-05-27T16:00:00,1879A,104.7563,31.4535,绵阳市,市人大,,45,25,24,31,16,114,85,68,68,13,15,10,6,0.4,0.4
2023-05-27T16:00:00,1880A,104.6697,31.4668,绵阳市,高新区自来水公司,,33,19,32,20,19,133,103,68,68,5,13,5,6,0.4,0.4
2023-05-27T16:00:00,1881A,104.7287,31.5075,绵阳市,三水厂,,35,35,30,16,18,129,97,70,70,5,13,4,5,0.5,0.5
2023-05-27T16:00:00,1882A,104.563,28.793,宜宾市,石马中学,,38,35,48,26,27,116,113,73,73,8,14,4,3,0.6,0.6
2023-05-27T16:00:00,1883A,104.6201,28.7728,宜宾市,市委,,48,48,62,30,44,114,113,76,73,14,22,8,7,0.5,0.6
2023-05-27T16:00:00,1884A,104.6055,28.793,宜宾市,宜宾四中,,49,49,60,32,44,109,108,74,73,18,21,6,8,0.4,0.5
2023-05-27T16:00:00,1885A,104.639,28.7562,宜宾市,市政府,颗粒物(PM10),55,60,64,34,46,118,104,77,62,23,23,7,7,0.6,0.6
2023-05-27T16:00:00,1886A,104.5742,28.7199,宜宾市,黄金嘴,,41,41,55,28,39,114,111,77,77,14,19,8,7,0.5,0.5
2023-05-27T16:00:00,1888A,101.6891,26.571,攀枝花市,弄弄坪,,34,22,26,13,11,121,108,104,104,11,10,10,9,0.6,0.6
2023-05-27T16:00:00,1889A,101.5769,26.5928,攀枝花市,河门口,,36,14,24,7,12,126,115,104,104,7,15,5,16,0.2,0.7
2023-05-27T16:00:00,1890A,101.7169,26.585,攀枝花市,炳草岗,,37,13,23,10,12,124,116,108,108,7,11,6,8,0.5,0.6
2023-05-27T16:00:00,1891A,101.7369,26.5008,攀枝花市,仁和,,37,11,21,9,12,124,117,105,105,4,6,7,7,0.6,0.7
2023-05-27T16:00:00,1893A,105.4324,28.9634,泸州市,九狮山,细颗粒物(PM2.5),59,48,54,42,39,107,85,67,64,27,19,7,7,0.5,0.5
2023-05-27T16:00:00,1894A,105.4427,28.9063,泸州市,小市上码头,颗粒物(PM10),70,90,82,47,54,117,85,67,58,24,18,9,8,0.6,0.6
2023-05-27T16:00:00,1895A,105.4241,28.8573,泸州市,兰田宪桥,细颗粒物(PM2.5),73,86,78,53,54,127,93,69,66,20,14,8,9,0.7,0.7
2023-05-27T16:00:00,1896A,105.4379,28.8833,泸州市,市环监站,颗粒物(PM10),66,82,75,39,44,126,96,76,66,27,20,5,6,0.7,0.7
2023-05-27T16:00:00,1901A,104.4239,31.1208,德阳市,东山公园,,35,35,28,20,16,122,111,68,68,18,15,2,2,0.5,0.4
2023-05-27T16:00:00,1902A,104.3826,31.1317,德阳市,西小区,,41,41,37,19,18,122,110,70,70,13,12,2,2,0.4,0.3
2023-05-27T16:00:00,1904A,104.3553,31.1091,德阳市,耐火材料厂,,,37,33,28,18,138,119,78,78,10,10,1,2,,0.4
2023-05-27T16:00:00,1905A,106.056,30.8064,南充市,西山风景区,,25,15,20,16,21,77,77,39,39,4,7,4,4,0.4,0.4
2023-05-27T16:00:00,1906A,106.0789,30.8023,南充市,南充市委,,28,23,33,12,22,88,88,47,47,6,13,8,8,0.5,0.5
2023-05-27T16:00:00,1907A,106.1031,30.8217,南充市,南充炼油厂,,29,29,33,9,17,86,86,47,47,7,11,8,8,0.4,0.3
2023-05-27T16:00:00,1908A,106.1064,30.7856,南充市,高坪区监测站,,29,19,28,20,19,86,86,50,50,6,11,8,8,0.5,0.5
2023-05-27T16:00:00,1909A,106.0642,30.7636,南充市,嘉陵区环保局,,30,26,30,17,19,93,93,48,48,8,16,7,7,0.5,0.5
2023-05-27T16:00:00,1910A,106.1087,30.8388,南充市,市环境监测站,,36,25,28,25,21,87,87,46,46,8,12,7,7,0.3,0.2
2023-05-27T16:00:00,1911A,106.9222,27.6869,遵义市,丁字口,,34,23,27,8,12,108,107,93,93,10,17,6,6,0.5,0.6
2023-05-27T16:00:00,1912A,106.9242,27.7019,遵义市,凤凰山,,38,20,23,8,16,127,120,106,106,8,9,8,8,0.3,0.3
2023-05-27T16:00:00,1913A,106.8906,27.6486,遵义市,忠庄,,36,22,30,13,15,118,114,100,100,7,10,2,2,0.4,0.4
2023-05-27T16:00:00,1914A,106.9231,27.6506,遵义市,舟水桥,,38,24,23,12,13,121,121,105,105,5,9,2,2,0.3,0.3
2023-05-27T16:00:00,1915A,106.9178,27.72,遵义市,干田坝,,38,26,24,16,13,123,120,110,110,8,11,5,6,0.5,0.8
2023-05-27T16:00:00,1916A,103.7897,25.5035,曲靖市,环境监测站,,45,37,27,4,9,141,141,122,122,5,8,4,6,0.2,0.4
2023-05-27T16:00:00,1917A,103.8,25.5364,曲靖市,烟厂办公区,,46,25,26,2,11,146,145,126,126,4,6,4,4,0.2,0.3
2023-05-27T16:00:00,1918A,108.7197,34.3956,咸阳市,气象站,,17,17,39,9,22,73,32,31,25,17,24,4,4,0.6,0.5
2023-05-27T16:00:00,1919A,108.673,34.3155,咸阳市,实验中学,,24,24,36,10,18,72,32,41,27,21,24,3,3,0.7,0.6
2023-05-27T16:00:00,1920A,108.7233,34.3617,咸阳市,师范学院,,15,15,38,7,16,70,25,41,24,28,26,6,6,0.8,0.7
2023-05-27T16:00:00,1922A,109.0656,35.0994,铜川市,党校,,23,3,20,0,9,93,72,73,67,14,16,10,10,1.0,0.9
2023-05-27T16:00:00,1923A,109.0697,35.0697,铜川市,王益区政府,,25,6,21,5,15,99,78,69,69,5,5,5,5,0.7,0.7
2023-05-27T16:00:00,1924A,108.9344,34.9058,铜川市,新区管委会,,20,11,37,6,17,79,61,64,59,17,21,6,7,0.7,0.6
2023-05-27T16:00:00,1926A,109.4131,36.6275,延安市,枣园,,20,14,29,9,17,124,64,80,76,17,15,5,6,0.8,0.6
2023-05-27T16:00:00,1927A,109.4761,36.6028,延安市,延大医附院,,16,13,30,7,16,117,49,81,64,29,16,4,4,0.7,0.5
2023-05-27T16:00:00,1929A,109.5056,36.6106,延安市,百米大道,,17,14,32,10,19,113,54,72,62,27,23,4,4,0.7,0.6
2023-05-27T16:00:00,1930A,107.185,34.3063,宝鸡市,庙沟村,,15,9,18,5,10,82,45,72,57,6,8,7,6,0.3,0.3
2023-05-27T16:00:00,1931A,107.0708,34.3017,宝鸡市,竹园沟,,22,10,19,5,11,91,68,53,53,8,13,4,4,0.4,0.4
2023-05-27T16:00:00,1932A,107.1906,34.3672,宝鸡市,三陆医院,,18,14,31,1,14,91,55,56,46,15,18,5,6,0.4,0.4
2023-05-27T16:00:00,1933A,107.1431,34.3547,宝鸡市,监测站,,20,9,29,9,20,87,61,64,48,14,19,6,6,0.4,0.4
2023-05-27T16:00:00,1934A,107.1186,34.3739,宝鸡市,技工学校,,20,10,26,4,15,89,62,79,55,9,12,5,4,0.4,0.4
2023-05-27T16:00:00,1935A,107.3906,34.3528,宝鸡市,陈仓区环保局家属楼,,20,19,33,8,21,79,63,54,54,18,24,4,6,0.5,0.5
2023-05-27T16:00:00,1936A,107.2058,34.3497,宝鸡市,文理学院,,20,13,29,8,17,92,61,76,48,15,17,6,6,0.3,0.3
2023-05-27T16:00:00,1937A,107.2386,34.3622,宝鸡市,三迪小学,,20,10,33,5,18,89,63,70,48,15,20,5,5,0.3,0.3
2023-05-27T16:00:00,1938A,109.5293,34.5101,渭南市,农科所,,39,39,66,24,41,60,42,34,34,30,38,8,8,0.7,0.6
2023-05-27T16:00:00,1939A,109.4974,34.4877,渭南市,日报社,,24,22,59,13,39,70,26,27,26,47,46,6,6,0.6,0.6
2023-05-27T16:00:00,1940A,109.4636,34.493,渭南市,体育馆,,21,9,53,13,46,86,34,32,32,42,52,7,7,0.5,0.5
2023-05-27T16:00:00,1941A,109.4259,34.5023,渭南市,高新一小,,17,12,63,9,37,69,32,38,37,34,37,2,3,0.5,0.5
2023-05-27T16:00:00,1943A,102.1725,38.5339,金昌市,新川苑,,48,48,116,18,30,142,122,117,117,8,11,9,14,0.5,0.5
2023-05-27T16:00:00,1944A,102.1692,38.5167,金昌市,天庆家园,,40,38,98,12,29,149,126,122,122,8,9,9,18,0.4,0.5
2023-05-27T16:00:00,1945A,98.2908,39.7711,嘉峪关市,气象局,,43,31,43,12,19,145,137,130,130,5,10,2,5,0.2,0.3
2023-05-27T16:00:00,1947A,106.3394,38.817,石嘴山市,沙湖旅游区,臭氧1小时,68,62,82,20,25,174,174,138,138,5,6,10,15,0.4,0.4
2023-05-27T16:00:00,1948A,106.3668,39.0145,石嘴山市,大武口朝阳西街,臭氧1小时,70,69,77,20,28,176,176,129,129,7,11,17,19,0.5,0.6
2023-05-27T16:00:00,1949A,106.7704,39.2282,石嘴山市,惠农南大街,颗粒物(PM10),53,55,84,23,25,172,155,124,124,10,14,12,12,0.4,0.3
2023-05-27T16:00:00,1950A,106.7099,39.1325,石嘴山市,红果子镇惠新街,颗粒物(PM10),57,64,84,18,30,178,158,133,133,7,12,7,12,0.3,0.3
2023-05-27T16:00:00,1951A,84.895,45.6094,克拉玛依市,长征新村,,32,22,27,10,6,114,101,91,81,4,6,7,7,0.2,0.2
2023-05-27T16:00:00,1952A,84.8988,45.5893,克拉玛依市,南林小区,,32,25,26,8,10,115,100,88,78,9,11,3,4,0.2,0.2
2023-05-27T16:00:00,1954A,84.905,44.3396,克拉玛依市,独山子区,,39,23,25,12,12,123,123,107,107,4,6,10,8,0.4,0.3
2023-05-27T16:00:00,1955A,85.6979,46.098,克拉玛依市,乌尔禾区商贸楼,,33,19,24,10,10,104,104,98,86,1,2,9,9,0.3,0.3
2023-05-27T16:00:00,1956A,86.1472,41.7538,巴音郭楞州,孔雀公园,,48,48,48,19,15,123,123,114,114,7,8,4,4,0.4,0.3
2023-05-27T16:00:00,1957A,86.1972,41.7166,巴音郭楞州,棉纺厂,颗粒物(PM10),53,56,58,29,19,122,122,111,111,2,8,3,3,0.2,0.3
2023-05-27T16:00:00,1958A,86.2357,41.7173,巴音郭楞州,经济开发区,,48,48,48,21,19,125,125,116,116,2,4,2,3,0.2,0.3
2023-05-27T16:00:00,1961A,117.532,36.6868,济南市,东山小学,,46,46,59,29,32,168,36,100,34,28,30,4,6,0.4,0.6
2023-05-27T16:00:00,1966A,120.0405,35.8735,青岛市,黄岛区4号,,25,24,34,7,13,81,77,78,69,5,10,5,5,0.5,0.5
2023-05-27T16:00:00,1982A,122.0693,37.2174,威海市,文登开发区,,20,14,33,12,15,120,63,64,58,11,12,5,5,0.4,0.5
2023-05-27T16:00:00,2031A,113.1817,27.9958,株洲市,云田中学,,29,21,24,18,15,124,90,102,102,9,11,5,6,0.2,0.3
2023-05-27T16:00:00,2054A,114.1099,32.1059,信阳市,平桥分局,,28,16,38,14,33,87,87,62,62,11,17,7,6,0.4,0.7
2023-05-27T16:00:00,2064A,113.9956,32.1271,信阳市,南湾水厂,,28,26,40,19,26,85,85,53,53,2,8,6,6,0.7,0.9
2023-05-27T16:00:00,2065A,114.0775,32.1195,信阳市,市酿酒公司,,34,34,41,22,41,83,83,60,60,7,14,7,7,0.6,0.8
2023-05-27T16:00:00,2066A,114.0609,32.1399,信阳市,审计局,,35,14,38,24,39,86,86,62,62,6,15,8,8,0.6,0.9
2023-05-27T16:00:00,2067A,114.6613,33.6128,周口市,市环境监测站,颗粒物(PM10),53,56,71,33,56,107,61,103,57,10,10,3,4,0.8,0.9
2023-05-27T16:00:00,2068A,114.6758,33.6347,周口市,周口师范,颗粒物(PM10),53,56,47,22,45,98,55,90,52,7,9,2,3,0.6,0.7
2023-05-27T16:00:00,2069A,114.6546,33.5979,周口市,市运管处,颗粒物(PM10),52,53,71,31,46,105,64,99,57,9,9,6,7,0.9,0.9
2023-05-27T16:00:00,2070A,114.6369,33.6406,周口市,川汇区环保局,颗粒物(PM10),79,107,59,27,43,98,62,93,58,7,10,6,7,0.8,0.9
2023-05-27T16:00:00,2075A,117.6336,24.4674,漳州市,九湖,,,,,,,,,,,,,,,,
2023-05-27T16:00:00,2160A,112.85,35.5051,晋城市,自来水公司,,30,30,47,12,30,121,49,106,48,27,18,6,6,2.1,1.3
2023-05-27T16:00:00,2161A,112.8318,35.4936,晋城市,白云商贸,,25,13,51,17,28,114,45,98,47,31,20,5,5,2.2,1.4
2023-05-27T16:00:00,2162A,112.8508,35.4887,晋城市,市环保局,,32,32,53,19,37,116,46,99,47,30,20,8,8,2.0,1.2
2023-05-27T16:00:00,2163A,112.8676,35.4897,晋城市,技术学院,,32,26,56,22,36,114,48,94,47,27,18,5,6,1.9,1.1
2023-05-27T16:00:00,2165A,112.8453,35.546,晋城市,白马寺,,29,15,42,20,45,106,54,74,48,23,19,4,5,1.9,1.7
2023-05-27T16:00:00,2166A,112.4397,39.3522,朔州市,平朔,,35,9,60,15,37,128,112,117,108,5,10,8,7,0.4,0.5
2023-05-27T16:00:00,2167A,112.4575,39.3617,朔州市,朔唯,,35,17,65,18,37,126,110,117,103,8,14,15,7,0.5,0.5
2023-05-27T16:00:00,2168A,112.4258,39.3197,朔州市,区政府,,37,20,70,21,39,136,118,122,112,2,6,4,5,0.5,0.5
2023-05-27T16:00:00,2169A,112.4072,39.3278,朔州市,市环保局,,37,16,69,14,36,135,118,118,113,9,13,3,5,0.4,0.5
2023-05-27T16:00:00,2170A,112.4272,39.3681,朔州市,市二中,,,30,76,15,38,137,124,128,117,2,9,6,6,,0.4
2023-05-27T16:00:00,2171A,112.7532,37.6945,晋中市,锦纶小区,,33,12,41,7,22,151,105,116,100,14,18,7,8,0.4,0.4
2023-05-27T16:00:00,2173A,112.7249,37.7067,晋中市,南都小区,,32,11,47,11,24,148,101,118,90,12,16,6,7,0.5,0.5
2023-05-27T16:00:00,2174A,112.6991,37.6982,晋中市,榆次区政府,,30,11,49,14,22,145,96,104,86,18,21,8,8,0.5,0.5
2023-05-27T16:00:00,2175A,110.9956,35.0147,运城市,运城中学,,22,22,47,10,32,108,54,95,51,15,11,4,5,1.4,1.2
2023-05-27T16:00:00,2178A,110.9686,35.0303,运城市,地区技校,,23,23,52,10,28,100,54,96,52,20,14,4,4,1.6,1.2
2023-05-27T16:00:00,2179A,111.0414,35.1147,运城市,空港新区,,22,22,59,14,35,96,58,57,56,19,18,6,7,1.6,1.2
2023-05-27T16:00:00,2181A,112.7383,38.4519,忻州市,开发区,,33,24,62,11,27,152,104,111,111,15,16,6,8,0.5,0.6
2023-05-27T16:00:00,2182A,112.7003,38.4928,忻州市,会展中心,,,30,68,19,31,144,93,91,91,,15,,7,0.5,0.3
2023-05-27T16:00:00,2183A,111.1406,37.5211,吕梁市,环保局,,17,15,49,4,16,116,53,85,57,34,25,8,9,0.7,0.5
2023-05-27T16:00:00,2185A,111.1297,37.5136,吕梁市,自来水公司,,18,14,33,2,13,116,57,95,60,30,20,6,7,1.1,0.6
2023-05-27T16:00:00,2187A,106.8174,39.6973,乌海市,市林业局,臭氧1小时,100,65,89,25,28,200,200,133,133,13,15,21,24,0.7,0.7
2023-05-27T16:00:00,2188A,106.7907,39.6667,乌海市,中海勃湾学校,臭氧1小时,102,78,92,24,26,203,203,142,142,13,14,20,24,0.5,0.5
2023-05-27T16:00:00,2191A,122.2532,43.6801,通辽市,艺术职业学校,颗粒物(PM10),77,104,87,41,33,167,167,137,137,16,18,5,7,0.4,0.4
2023-05-27T16:00:00,2192A,119.7594,49.2261,呼伦贝尔市,区环保局,,37,37,28,9,14,79,79,66,66,3,2,5,5,0.2,0.2
2023-05-27T16:00:00,2195A,107.4212,40.761,巴彦淖尔市,附二中,颗粒物(PM10),52,54,91,19,22,159,159,136,136,8,10,7,5,0.5,0.5
2023-05-27T16:00:00,2196A,107.37,40.7372,巴彦淖尔市,市环保大楼,颗粒物(PM10),62,74,99,32,34,157,154,134,134,7,9,5,6,0.4,0.4
2023-05-27T16:00:00,2197A,113.1306,40.9923,乌兰察布市,集宁新区,颗粒物(PM10),59,67,74,22,24,163,163,126,126,10,14,15,15,0.6,0.6
2023-05-27T16:00:00,2200A,122.0392,46.0656,兴安盟,胜华新制药厂,,32,15,23,15,18,101,101,95,95,8,12,2,2,0.3,0.3
2023-05-27T16:00:00,2201A,121.9504,46.0741,兴安盟,科右前旗环保局,,30,11,19,14,14,98,95,92,92,4,8,2,3,0.3,0.3
2023-05-27T16:00:00,2202A,116.1042,43.9317,锡林郭勒盟,市环保监测站,颗粒物(PM10),55,60,37,21,9,138,135,129,129,7,7,7,7,0.3,0.2
2023-05-27T16:00:00,2203A,116.0781,43.9311,锡林郭勒盟,市政府,颗粒物(PM10),57,64,39,24,14,139,138,126,126,9,13,7,7,0.2,0.2
2023-05-27T16:00:00,2204A,105.6467,38.8363,阿拉善盟,西城区西花园,颗粒物(PM10),63,75,79,23,28,145,145,122,122,9,11,11,10,0.5,0.5
2023-05-27T16:00:00,2205A,105.6985,38.8411,阿拉善盟,蒙二幼,颗粒物(PM10),66,82,85,37,32,154,154,131,131,7,8,9,8,0.2,0.3
2023-05-27T16:00:00,2206A,105.724,38.8516,阿拉善盟,环保局新楼,,49,42,61,21,31,162,155,135,135,6,7,10,9,0.3,0.3
2023-05-27T16:00:00,2207A,121.6094,41.998,阜新市,工业园区,颗粒物(PM10),57,63,70,17,36,168,119,123,108,12,13,8,9,0.8,0.8
2023-05-27T16:00:00,2208A,121.6697,42.0279,阜新市,长青街,,48,48,70,13,36,167,126,128,112,12,12,8,10,0.7,0.7
2023-05-27T16:00:00,2209A,121.6673,42.0705,阜新市,农业园区,,41,38,59,14,42,169,130,130,113,12,13,9,10,0.6,0.6
2023-05-27T16:00:00,2210A,121.6717,42.0224,阜新市,东苑,颗粒物(PM10),53,55,68,20,36,155,127,131,113,15,14,10,12,0.8,0.8
2023-05-27T16:00:00,2211A,121.6506,42.0498,阜新市,玉龙新城,,43,43,69,19,39,173,121,124,108,10,11,7,8,0.4,0.5
2023-05-27T16:00:00,2212A,123.2,41.1953,辽阳市,宏伟区,,35,35,35,15,17,112,86,102,84,6,6,10,10,0.5,0.5
2023-05-27T16:00:00,2213A,123.1683,41.2495,辽阳市,新华园,,42,42,37,15,18,107,82,94,80,4,4,12,12,0.5,0.5
2023-05-27T16:00:00,2214A,123.2354,41.2639,辽阳市,滨河路,,30,30,37,13,19,105,82,100,81,12,12,6,7,0.4,0.4
2023-05-27T16:00:00,2215A,123.149,41.2991,辽阳市,铁西工业园,颗粒物(PM10),71,92,46,29,22,113,80,106,83,16,11,7,7,0.7,0.4
2023-05-27T16:00:00,2216A,123.8139,42.3022,铁岭市,汇工街西,颗粒物(PM10),56,61,49,30,27,191,143,130,130,14,16,10,9,0.5,0.6
2023-05-27T16:00:00,2217A,123.8649,42.2923,铁岭市,水上乐园,,47,47,46,27,25,188,129,123,123,17,23,11,8,0.5,0.5
2023-05-27T16:00:00,2218A,123.8486,42.2867,铁岭市,银州路东段,颗粒物(PM10),55,60,57,25,26,183,127,125,125,19,21,12,10,0.6,0.6
2023-05-27T16:00:00,2219A,123.7153,42.2217,铁岭市,金沙江路北,颗粒物(PM10),51,52,52,22,22,189,137,121,121,19,23,11,11,0.7,0.7
2023-05-27T16:00:00,2220A,120.4318,41.5881,朝阳市,西梁,,42,23,71,8,43,176,134,146,129,8,12,6,9,0.6,0.9
2023-05-27T16:00:00,2221A,120.4521,41.5646,朝阳市,河畔小区,,48,18,74,15,56,204,152,168,147,5,9,11,12,0.6,0.8
2023-05-27T16:00:00,2222A,120.4176,41.5648,朝阳市,八里堡,,46,37,77,14,54,192,146,153,139,10,16,8,9,0.6,0.9
2023-05-27T16:00:00,2223A,120.3806,41.5969,朝阳市,农业园区,,45,22,73,13,57,190,142,143,138,10,14,7,9,0.6,0.8
2023-05-27T16:00:00,2225A,124.4002,43.1713,四平市,一商场,臭氧1小时,63,60,59,30,27,183,170,146,146,12,19,9,9,0.5,0.4
2023-05-27T16:00:00,2226A,124.388,43.193,四平市,境园,颗粒物(PM10),52,54,53,21,22,178,160,138,138,15,20,10,9,0.2,0.3
2023-05-27T16:00:00,2227A,125.1358,42.8845,辽源市,环保局,,50,26,31,14,21,173,158,145,145,4,11,7,8,0.6,0.5
2023-05-27T16:00:00,2229A,125.9358,41.7173,通化市,光明,,28,25,31,12,15,113,88,92,92,7,13,6,11,0.1,0.3
2023-05-27T16:00:00,2230A,125.9446,41.7325,通化市,铁路,,27,27,34,15,18,102,78,81,81,16,21,7,17,0.2,0.5
2023-05-27T16:00:00,2231A,126.4219,41.9171,白山市,喜丰,颗粒物(PM10),52,54,52,12,16,110,92,84,84,10,18,10,11,0.4,0.4
2023-05-27T16:00:00,2232A,126.4077,41.9419,白山市,环保局,,48,48,51,2,18,109,89,88,88,5,12,8,9,0.5,0.5
2023-05-27T16:00:00,2233A,124.8006,45.1214,松原市,江南,,50,50,46,29,17,140,140,108,108,8,16,4,6,0.4,0.3
2023-05-27T16:00:00,2234A,124.7965,45.1722,松原市,江北,,40,31,25,24,13,127,127,101,101,10,14,2,4,0.4,0.3
2023-05-27T16:00:00,2235A,122.7911,45.6077,白城市,洮北区环保局,,43,24,14,10,8,136,136,104,104,7,18,5,5,0.3,0.3
2023-05-27T16:00:00,2236A,122.8738,45.5725,白城市,市环保局,,,24,26,11,9,127,127,99,99,,20,3,4,0.3,0.3
2023-05-27T16:00:00,2237A,129.47,42.8883,延边朝鲜族自治州,妇幼医院,,38,38,27,17,14,122,89,99,99,14,24,8,8,0.6,0.6
2023-05-27T16:00:00,2238A,129.5055,42.9108,延边朝鲜族自治州,延边医院,,31,31,38,14,14,122,94,100,100,12,22,7,7,0.6,0.6
2023-05-27T16:00:00,2239A,129.3964,42.8881,延边朝鲜族自治州,朝阳川镇医院,颗粒物(PM10),51,52,30,14,12,129,99,105,105,9,20,6,7,0.5,0.5
2023-05-27T16:00:00,2240A,130.9762,45.3001,鸡西市,环保局,,35,24,19,6,11,109,109,96,96,10,16,4,4,0.3,0.3
2023-05-27T16:00:00,2243A,130.9429,45.3039,鸡西市,第一中学,,36,22,23,7,13,115,115,101,101,4,9,4,5,0.2,0.2
2023-05-27T16:00:00,2244A,130.2537,47.3416,鹤岗市,哈啤分公司,,28,16,19,8,10,93,89,78,78,5,10,12,12,0.1,0.2
2023-05-27T16:00:00,2245A,130.2684,47.3086,鹤岗市,斯达机电,,28,22,25,7,12,91,89,78,78,7,12,7,8,0.2,0.3
2023-05-27T16:00:00,2246A,130.3114,47.3388,鹤岗市,东山纸板厂,,30,20,28,6,15,96,95,82,82,6,18,10,11,0.2,0.5
2023-05-27T16:00:00,2247A,130.1097,47.3382,鹤岗市,五号水库,,30,14,14,7,9,104,95,85,85,4,6,7,6,0.1,0.3
2023-05-27T16:00:00,2248A,131.1511,46.6937,双鸭山市,双合村,,33,18,30,7,14,112,103,94,94,5,10,6,10,0.1,0.3
2023-05-27T16:00:00,2249A,131.1652,46.6191,双鸭山市,南小市,,33,29,32,9,15,111,104,96,96,4,7,4,5,0.1,0.1
2023-05-27T16:00:00,2250A,131.1524,46.6554,双鸭山市,环保局,,27,22,26,6,12,87,85,77,77,14,15,8,8,0.2,0.3
2023-05-27T16:00:00,2251A,131.12,46.5656,双鸭山市,苗圃,,21,0,16,0,8,120,65,100,98,6,6,1,3,0.2,0.2
2023-05-27T16:00:00,2252A,128.5159,47.4311,伊春市,环保局,,26,24,22,5,8,91,83,77,77,4,9,8,5,0.4,0.4
2023-05-27T16:00:00,2253A,128.9102,47.7412,伊春市,电力嘉园,,,,,,,,,,,,,,,,
2023-05-27T16:00:00,2254A,129.5029,48.471,伊春市,汤旺河国家公园,,44,44,30,18,16,94,94,86,86,2,2,29,27,0.6,0.6
2023-05-27T16:00:00,2255A,130.2751,46.8028,佳木斯市,佳纺,,30,26,26,12,20,96,94,83,83,5,13,5,4,0.2,0.3
2023-05-27T16:00:00,2256A,130.3995,46.8307,佳木斯市,发电厂,,31,18,22,5,11,97,97,85,85,7,12,7,7,0.2,0.3
2023-05-27T16:00:00,2257A,130.3258,46.7975,佳木斯市,环保局,,30,22,22,12,15,95,95,84,84,6,12,4,4,0.4,0.4
2023-05-27T16:00:00,2258A,130.3648,46.8032,佳木斯市,十一中,,30,25,30,16,16,94,94,83,83,6,15,6,7,0.3,0.3
2023-05-27T16:00:00,2259A,130.3794,46.7588,佳木斯市,四丰,,34,11,17,3,10,106,106,93,93,4,7,1,1,0.0,0.1
2023-05-27T16:00:00,2262A,131.0518,45.8751,七台河市,新一中,,34,25,26,7,13,116,106,93,93,6,11,7,8,0.6,0.8
2023-05-27T16:00:00,2263A,127.4833,50.2524,黑河市,交通局,,18,11,9,12,9,76,48,59,56,8,7,5,6,0.4,0.3
2023-05-27T16:00:00,2264A,127.5144,50.2341,黑河市,环保局,,22,12,15,15,10,81,52,63,60,4,7,3,6,0.4,0.3
2023-05-27T16:00:00,2265A,127.5291,50.2472,黑河市,大黑河岛,,17,10,11,7,6,99,53,74,68,3,2,18,9,0.2,0.2
2023-05-27T16:00:00,2266A,126.9785,46.6365,绥化市,人和东街,,34,17,25,7,11,109,108,95,95,9,18,3,4,0.3,0.3
2023-05-27T16:00:00,2267A,126.964,46.6528,绥化市,党政办公中心,,37,30,28,9,9,118,116,104,104,6,13,6,7,0.3,0.3
2023-05-27T16:00:00,2269A,124.1069,50.4097,大兴安岭地区,科技局,,22,18,14,9,10,88,69,70,70,4,4,2,3,0.3,0.3
2023-05-27T16:00:00,2270A,117.396,32.939,蚌埠市,工人疗养院,,35,32,62,19,42,162,110,92,92,12,14,7,7,0.4,0.5
2023-05-27T16:00:00,2271A,117.3605,32.9427,蚌埠市,百货大楼,,35,35,63,16,35,154,104,87,87,8,13,3,4,0.5,0.6
2023-05-27T16:00:00,2273A,117.4185,32.8911,蚌埠市,蚌埠学院,,31,31,51,21,37,151,63,87,85,36,13,13,6,0.6,0.6
2023-05-27T16:00:00,2274A,117.3533,32.9673,蚌埠市,淮上区政府,,35,31,57,18,45,162,112,87,87,7,14,6,6,0.5,0.6
2023-05-27T16:00:00,2275A,117.3145,32.8977,蚌埠市,高新区,,34,34,49,20,36,143,84,92,92,10,10,5,6,0.5,0.6
2023-05-27T16:00:00,2277A,116.8305,32.7727,淮南市,潘集区政府,,32,7,37,8,31,124,100,86,86,1,8,4,6,0.1,0.4
2023-05-27T16:00:00,2278A,117.0067,32.6524,淮南市,师范学院,,27,15,40,1,26,133,85,80,80,3,8,6,6,0.1,0.4
2023-05-27T16:00:00,2279A,116.8569,32.5951,淮南市,谢家集区政府,,27,13,31,6,18,126,86,81,81,6,15,4,5,0.1,0.4
2023-05-27T16:00:00,2280A,116.8281,32.633,淮南市,八公山区政府,,29,23,44,6,32,137,90,81,81,4,12,5,7,0.1,0.4
2023-05-27T16:00:00,2281A,116.6325,32.6201,淮南市,焦岗湖风景区管理处,,23,12,30,3,20,118,72,65,65,3,12,10,10,0.1,0.3
2023-05-27T16:00:00,2282A,116.8004,33.975,淮北市,监测站,,49,49,54,31,29,153,69,85,69,9,9,2,3,0.6,0.6
2023-05-27T16:00:00,2283A,116.8091,33.9007,淮北市,烈山区政府,细颗粒物(PM2.5),52,38,49,36,37,169,71,93,67,9,12,4,5,0.4,0.4
2023-05-27T16:00:00,2284A,116.7856,33.9477,淮北市,职业技术学院,,42,40,49,29,30,167,78,96,72,10,12,4,5,0.7,0.7
2023-05-27T16:00:00,2285A,117.8177,30.9412,铜陵市,市第四中学,,22,22,19,7,11,84,39,79,58,36,21,13,5,0.5,0.4
2023-05-27T16:00:00,2286A,117.8059,30.9273,铜陵市,市公路局,,20,20,18,8,11,83,40,78,61,28,16,9,6,0.6,0.5
2023-05-27T16:00:00,2287A,117.7807,30.9413,铜陵市,市新民污水厂,,18,18,23,8,15,89,47,80,52,22,23,10,10,0.5,0.8
2023-05-27T16:00:00,2288A,117.7439,30.8792,铜陵市,市第九中学,,17,17,21,10,10,60,47,56,52,17,43,5,6,0.7,0.7
2023-05-27T16:00:00,2289A,117.846,30.9413,铜陵市,车站新区,,13,12,17,8,9,71,34,66,54,25,16,5,4,0.4,0.4
2023-05-27T16:00:00,2290A,117.8483,30.97,铜陵市,市职教基地,,20,20,18,13,9,76,27,70,54,28,14,3,2,0.7,0.6
2023-05-27T16:00:00,2291A,117.0809,30.5177,安庆市,环科院,,42,41,14,29,9,89,86,77,77,5,11,10,7,0.5,0.8
2023-05-27T16:00:00,2292A,117.0331,30.5119,安庆市,马山宾馆,,28,11,12,13,9,97,87,80,80,11,16,10,8,0.5,0.8
2023-05-27T16:00:00,2294A,116.9896,30.6145,安庆市,安庆大学,,31,11,10,2,4,97,97,80,80,9,12,21,9,1.2,0.7
2023-05-27T16:00:00,2295A,118.2903,29.6963,黄山市,延安路89号,颗粒物(PM10),52,53,41,24,12,68,68,40,40,6,10,5,5,0.3,0.3
2023-05-27T16:00:00,2296A,118.327,29.7178,黄山市,黄山东路89号,,29,29,27,18,10,68,62,38,38,6,10,4,4,0.4,0.4
2023-05-27T16:00:00,2297A,118.1371,30.2756,黄山市,黄山区政府5号楼,,18,14,33,8,17,71,57,40,28,6,12,6,6,0.5,0.7
2023-05-27T16:00:00,2298A,118.3093,32.3153,滁州市,老年大学,,33,18,43,5,26,120,104,116,100,7,17,7,6,0.1,0.4
2023-05-27T16:00:00,2299A,118.3244,32.2786,滁州市,人大宾馆,,33,10,39,6,35,125,104,112,104,10,21,7,6,0.3,0.6
2023-05-27T16:00:00,2301A,115.8277,32.8929,阜阳市,市监测站,,28,5,31,3,20,96,88,78,78,6,15,6,6,0.3,0.6
2023-05-27T16:00:00,2303A,115.8554,32.8605,阜阳市,开发区,,30,6,32,8,19,95,95,81,81,7,15,6,7,0.3,0.5
2023-05-27T16:00:00,2307A,116.5079,31.737,六安市,监测大楼,,24,10,13,1,4,84,76,76,64,5,7,4,3,0.2,0.3
2023-05-27T16:00:00,2308A,116.4738,31.7643,六安市,皖西学院,,27,2,11,2,6,86,84,76,70,5,9,5,4,0.3,0.3
2023-05-27T16:00:00,2309A,116.4996,31.7905,六安市,朝阳厂,,22,1,7,4,8,76,68,62,59,2,6,5,4,0.5,0.6
2023-05-27T16:00:00,2310A,116.5567,31.7886,六安市,开发区,,23,7,18,6,18,84,73,63,63,2,8,8,7,0.4,0.6
2023-05-27T16:00:00,2311A,115.8072,33.8399,亳州市,污水处理厂,,,66,64,35,38,128,54,64,51,8,9,,5,0.7,0.7
2023-05-27T16:00:00,2312A,115.7789,33.8518,亳州市,三国揽胜宫,颗粒物(PM10),57,63,54,38,38,122,48,66,48,11,11,4,4,0.7,0.8
2023-05-27T16:00:00,2314A,117.47,30.6618,池州市,池州学院,,23,3,14,1,11,96,71,85,73,1,12,4,4,0.5,0.7
2023-05-27T16:00:00,2316A,118.7581,30.9454,宣城市,鳌峰子站,,,,24,,12,102,,74,,,16,,8,,0.7
2023-05-27T16:00:00,2317A,118.7385,30.9743,宣城市,敬亭山子站,,22,22,22,11,10,154,49,154,51,19,24,9,7,0.6,0.6
2023-05-27T16:00:00,2318A,118.7173,30.9427,宣城市,开发区子站,,19,18,22,11,10,106,59,91,57,14,18,5,5,0.5,0.6
2023-05-27T16:00:00,2319A,119.0141,25.4325,莆田市,荔城区仓后路,,37,37,56,8,24,112,97,88,88,6,11,6,6,0.7,0.8
2023-05-27T16:00:00,2320A,119.0015,25.4553,莆田市,莆田市监测站,,30,28,49,12,24,124,95,83,83,4,7,5,6,0.4,0.5
2023-05-27T16:00:00,2321A,119.1119,25.4561,莆田市,涵江区六中,,29,27,55,7,27,103,92,86,86,5,14,6,7,0.6,0.8
2023-05-27T16:00:00,2322A,119.1013,25.3215,莆田市,秀屿区政府,,46,46,55,8,29,122,89,90,90,6,8,8,8,0.8,0.8
2023-05-27T16:00:00,2323A,118.981,25.4792,莆田市,东圳水库,,,,,,,,,,,,,,,,
2023-05-27T16:00:00,2324A,117.6211,26.2625,三明市,三钢,,45,44,47,31,28,152,121,114,114,7,18,7,9,0.5,0.7
2023-05-27T16:00:00,2325A,117.635,26.2714,三明市,三明二中,,48,48,42,33,27,150,114,110,110,15,19,5,6,0.6,0.8
2023-05-27T16:00:00,2326A,117.6028,26.2378,三明市,三元区政府,颗粒物(PM10),51,51,55,34,29,170,129,113,113,10,23,8,11,0.7,1.1
2023-05-27T16:00:00,2327A,117.7275,26.3108,三明市,洋溪,,,,,,,,,,,,,,,,
2023-05-27T16:00:00,2331A,118.0966,26.6761,南平市,茫荡山,,,,,,,,,,,,,,,,
2023-05-27T16:00:00,2332A,118.1681,26.6369,南平市,南平市监测站,,35,34,40,24,27,109,98,98,98,4,13,3,5,0.6,0.9
2023-05-27T16:00:00,2333A,118.1825,26.6489,南平市,南平铝业有限公司,,31,31,42,14,17,107,97,96,96,6,17,5,8,0.6,0.8
2023-05-27T16:00:00,2334A,118.1756,26.6272,南平市,南平七中,,39,39,45,20,25,109,101,99,99,2,11,3,4,0.6,0.7
2023-05-27T16:00:00,2335A,117.0189,25.1181,龙岩市,龙岩师专,,,,,,,,,,,,,,,,
2023-05-27T16:00:00,2336A,117.0217,25.1033,龙岩市,龙岩市监测站,,46,46,34,13,20,111,99,82,82,5,17,6,9,0.2,0.4
2023-05-27T16:00:00,2337A,117.0258,25.0661,龙岩市,闽西职业技术学院,,28,20,42,16,22,102,89,74,74,5,19,5,15,0.2,0.4
2023-05-27T16:00:00,2338A,117.0196,25.0306,龙岩市,龙岩学院,,27,26,27,11,18,97,86,76,76,3,8,4,4,0.5,0.5
2023-05-27T16:00:00,2339A,119.5001,26.6946,宁德市,金涵水库,,,,,,,,,,,,,,,,
2023-05-27T16:00:00,2341A,119.5388,26.6612,宁德市,宁德市监测站,,27,22,39,10,21,105,86,71,71,1,5,7,6,0.4,0.5
2023-05-27T16:00:00,2342A,117.3102,29.3867,景德镇市,王港中学,,43,29,30,19,21,149,137,111,111,8,6,18,16,0.1,0.5
2023-05-27T16:00:00,2343A,117.2117,29.2933,景德镇市,老干部活动中心,,40,40,47,20,24,102,92,76,76,7,10,6,5,0.3,0.3
2023-05-27T16:00:00,2344A,117.1894,29.2789,景德镇市,兽医站,,35,29,33,20,25,110,110,82,82,8,11,11,9,0.3,0.4
2023-05-27T16:00:00,2345A,117.1547,29.2617,景德镇市,台达陶瓷,,37,37,43,24,23,98,98,70,70,7,19,16,24,0.3,0.4
2023-05-27T16:00:00,2346A,117.2461,29.2956,景德镇市,陶研所,,29,19,37,14,16,104,90,80,80,5,7,9,7,0.3,0.3
2023-05-27T16:00:00,2347A,114.0997,27.5002,萍乡市,武功山,,20,1,9,4,6,68,64,62,62,4,7,10,12,0.6,0.5
2023-05-27T16:00:00,2348A,113.8385,27.6434,萍乡市,中医院,,25,1,24,8,15,106,77,80,80,7,12,3,9,0.6,0.8
2023-05-27T16:00:00,2349A,113.8493,27.6253,萍乡市,市政府车库,,21,12,29,2,14,98,67,70,70,1,12,11,16,0.3,0.5
2023-05-27T16:00:00,2350A,113.8676,27.6435,萍乡市,市环保局,,22,10,29,7,15,97,70,72,72,1,12,10,18,0.3,0.5
2023-05-27T16:00:00,2351A,113.866,27.6198,萍乡市,安源区政府,,20,15,25,7,12,86,62,64,64,8,14,14,17,0.2,0.6
2023-05-27T16:00:00,2352A,115.0861,27.9317,新余市,北岗,,25,19,33,12,16,85,79,70,70,2,16,8,7,0.4,0.5
2023-05-27T16:00:00,2353A,114.9886,27.8431,新余市,飞宇,,31,31,38,17,17,102,98,86,86,7,16,4,4,0.4,0.3
2023-05-27T16:00:00,2354A,114.9231,27.8246,新余市,第二水厂,,49,49,45,12,14,98,92,78,78,10,11,13,10,0.9,0.5
2023-05-27T16:00:00,2355A,114.9308,27.8036,新余市,市气象局,,31,29,68,11,28,97,97,62,62,3,20,10,23,0.4,1.9
2023-05-27T16:00:00,2357A,116.9822,28.1136,鹰潭市,龙虎山,,29,27,35,6,14,91,91,74,74,2,2,1,2,0.7,0.8
2023-05-27T16:00:00,2358A,117.0564,28.2642,鹰潭市,新监测站,,30,22,33,13,17,95,95,80,80,2,8,3,13,0.1,0.4
2023-05-27T16:00:00,2359A,117.0311,28.2475,鹰潭市,财苑宾馆,,31,28,33,5,16,97,97,81,81,2,10,4,10,0.3,0.5
2023-05-27T16:00:00,2360A,117.0222,28.2264,鹰潭市,体育馆,,38,38,34,11,16,94,93,80,80,2,12,3,6,0.2,0.4
2023-05-27T16:00:00,2361A,117.0017,28.2131,鹰潭市,三川水表,,28,28,32,5,10,88,88,76,76,2,9,2,3,0.3,0.7
2023-05-27T16:00:00,2362A,114.9017,25.9149,赣州市,通天岩,,,,,,,,,,,,,,,,
2023-05-27T16:00:00,2363A,114.9367,25.8664,赣州市,地委,,27,12,19,2,11,86,85,77,77,5,7,3,4,1.0,1
2023-05-27T16:00:00,2364A,114.9461,25.8481,赣州市,气象台,,27,11,19,3,9,87,86,79,79,3,4,5,5,0.4,0.4
2023-05-27T16:00:00,2365A,114.9322,25.8333,赣州市,市图书馆,,23,21,21,6,9,77,71,65,65,11,10,5,5,0.9,1
2023-05-27T16:00:00,2366A,114.8905,25.8471,赣州市,华坚鞋城,,27,22,31,4,14,85,84,73,73,3,4,4,5,1.0,1
2023-05-27T16:00:00,2367A,114.9754,27.0803,吉安市,红声器材厂,,31,18,33,11,18,98,98,77,77,5,8,14,17,0.4,0.5
2023-05-27T16:00:00,2368A,114.9658,27.0999,吉安市,市森林工业局,,28,24,30,7,17,89,89,75,75,5,9,6,11,0.4,0.5
2023-05-27T16:00:00,2369A,114.99,27.1312,吉安市,市环境监测站,,32,22,30,9,16,100,100,81,81,6,10,8,14,0.6,0.5
2023-05-27T16:00:00,2370A,115.0093,27.0968,吉安市,青原区法院,,32,20,30,8,19,101,101,82,82,7,12,12,18,0.5,0.6
2023-05-27T16:00:00,2371A,114.3408,27.8064,宜春市,槟榔水业,,24,17,28,8,13,94,76,73,73,3,9,2,2,0.5,0.6
2023-05-27T16:00:00,2373A,114.3956,27.7844,宜春市,市石油公司,,29,18,28,14,14,98,92,76,76,11,12,1,2,0.2,0.4
2023-05-27T16:00:00,2374A,114.3703,27.7914,宜春市,市气象局,,31,19,32,5,18,102,99,79,79,6,12,5,4,0.4,0.6
2023-05-27T16:00:00,2375A,114.4013,27.8074,宜春市,市广电局,,27,24,30,6,14,94,86,75,75,7,12,3,3,0.5,0.6
2023-05-27T16:00:00,2376A,116.2127,28.0814,抚州市,桐源党溪,,,,33,7,14,123,111,94,94,3,4,2,2,0.5,0.6
2023-05-27T16:00:00,2377A,116.3544,27.9831,抚州市,市站,,29,27,35,12,18,91,91,74,74,5,10,5,5,0.5,0.5
2023-05-27T16:00:00,2378A,116.3565,27.963,抚州市,血防站,,27,27,33,14,16,88,76,67,67,5,8,5,6,0.7,0.7
2023-05-27T16:00:00,2379A,116.3564,28.0007,抚州市,采茶剧团,,32,32,33,9,17,92,92,74,74,6,11,6,5,0.7,0.8
2023-05-27T16:00:00,2380A,116.385,27.9647,抚州市,医学分院,,32,32,30,12,12,94,94,76,76,8,11,4,5,0.3,0.5
2023-05-27T16:00:00,2381A,118.005,28.4572,上饶市,百草园,细颗粒物(PM2.5),59,28,29,42,15,106,72,82,82,3,3,1,2,0.7,0.6
2023-05-27T16:00:00,2382A,117.9756,28.4436,上饶市,市监测站,,31,31,35,19,19,113,78,87,87,7,11,4,6,0.4,0.5
2023-05-27T16:00:00,2383A,117.9519,28.4628,上饶市,凤凰光学,,31,31,38,11,18,123,81,90,90,7,19,4,8,0.5,0.7
2023-05-27T16:00:00,2385A,114.17,35.9019,鹤壁市,市监测站,,30,21,64,3,48,110,95,97,90,17,27,4,7,0.8,0.9
2023-05-27T16:00:00,2386A,114.2956,35.7511,鹤壁市,市交警支队,,26,9,56,5,40,115,81,95,84,14,16,4,4,0.6,0.6
2023-05-27T16:00:00,2387A,114.2878,35.7306,鹤壁市,迎宾馆,,26,9,52,13,43,123,83,103,87,16,16,8,8,0.7,0.9
2023-05-27T16:00:00,2389A,113.836,35.311,新乡市,环保西院,,26,12,56,13,53,102,83,91,77,17,18,3,4,0.7,0.6
2023-05-27T16:00:00,2390A,113.884,35.272,新乡市,开发区,,29,20,57,2,34,98,90,98,80,11,14,3,2,0.7,0.7
2023-05-27T16:00:00,2391A,113.883,35.303,新乡市,环保东院,,27,22,64,10,30,100,85,86,75,15,19,3,3,0.6,0.7
2023-05-27T16:00:00,2392A,115.0312,35.7636,濮阳市,环保局,,30,24,63,21,42,149,88,93,80,14,20,3,6,0.6,0.8
2023-05-27T16:00:00,2394A,115.0574,35.7609,濮阳市,油田运输公司,,,23,52,29,54,134,80,84,75,13,17,,7,0.5,0.6
2023-05-27T16:00:00,2395A,115.0866,35.7754,濮阳市,油田物探公司,,46,18,51,32,57,152,88,82,79,8,15,2,3,0.4,0.6
2023-05-27T16:00:00,2396A,113.8276,34.0159,许昌市,监测站,,16,1,43,11,38,100,46,90,49,16,11,1,1,0.7,0.7
2023-05-27T16:00:00,2398A,113.7906,33.9953,许昌市,开发区,,15,9,37,9,29,110,47,99,53,17,11,2,2,0.7,0.7
2023-05-27T16:00:00,2399A,114.051,33.5699,漯河市,三五一五工厂,,42,34,66,29,47,95,44,72,45,10,10,7,7,0.7,0.7
2023-05-27T16:00:00,2400A,114.0055,33.5698,漯河市,漯河大学,细颗粒物(PM2.5),52,35,65,36,56,105,53,82,52,11,12,9,8,0.6,0.7
2023-05-27T16:00:00,2401A,114.0138,33.5828,漯河市,市水利局,,29,29,66,17,46,96,49,73,46,8,10,8,8,0.7,0.7
2023-05-27T16:00:00,2402A,114.0261,33.5698,漯河市,市广电局,,40,22,65,28,50,99,49,81,48,10,10,8,8,0.6,0.7
2023-05-27T16:00:00,2404A,112.5224,33.0122,南阳市,瓦房庄,,26,26,25,14,9,79,51,69,45,14,11,6,5,0.9,0.7
2023-05-27T16:00:00,2405A,112.5003,32.9735,南阳市,汉画馆,,17,16,18,11,12,84,53,73,46,13,9,2,1,1.0,0.7
2023-05-27T16:00:00,2406A,112.5573,33.027,南阳市,气象站,,16,4,7,5,10,79,50,66,47,10,8,4,3,0.9,0.7
2023-05-27T16:00:00,2407A,112.5481,32.9689,南阳市,理工学院,,20,9,14,9,12,90,62,83,53,13,11,5,5,0.8,0.7
2023-05-27T16:00:00,2408A,115.6702,34.4285,商丘市,环境监测站,颗粒物(PM10),51,51,65,35,33,124,85,106,67,10,12,8,8,0.4,0.5
2023-05-27T16:00:00,2409A,115.6458,34.4045,商丘市,粮食局,颗粒物(PM10),55,60,69,37,34,127,81,115,67,9,11,6,6,0.6,0.8
2023-05-27T16:00:00,2410A,115.6293,34.3948,商丘市,睢阳区环保局,细颗粒物(PM2.5),62,59,65,44,35,126,79,115,68,14,14,3,3,0.6,0.7
2023-05-27T16:00:00,2420A,114.0189,32.9656,驻马店市,市一纸厂,,32,32,47,19,28,85,47,57,34,6,9,2,2,0.4,0.5
2023-05-27T16:00:00,2421A,114.0114,33.015,驻马店市,市彩印厂,,24,24,40,14,25,88,48,56,38,4,7,3,3,0.4,0.5
2023-05-27T16:00:00,2422A,113.9976,32.9771,驻马店市,天方二分厂,,25,25,55,16,32,90,48,59,37,5,7,6,6,0.3,0.4
2023-05-27T16:00:00,2423A,115.0601,30.2313,黄石市,沈家营,颗粒物(PM10),65,80,70,25,28,103,82,74,74,16,22,8,15,0.6,0.9
2023-05-27T16:00:00,2424A,115.0817,30.2006,黄石市,陈家湾,,50,50,70,5,28,124,90,89,89,1,11,4,6,0.2,0.5
2023-05-27T16:00:00,2426A,114.8988,30.2019,黄石市,铁山,颗粒物(PM10),51,51,44,22,32,133,99,93,93,4,10,3,4,0.6,0.8
2023-05-27T16:00:00,2427A,115.0307,30.2092,黄石市,团城山,颗粒物(PM10),52,53,58,10,22,127,94,86,86,7,13,7,10,0.5,0.8
2023-05-27T16:00:00,2428A,111.0419,32.395,十堰市,武当山,,14,2,5,2,3,73,43,48,47,8,7,9,9,0.8,0.7
2023-05-27T16:00:00,2429A,110.78,32.6494,十堰市,滨河新村,,23,23,19,11,14,76,51,72,46,9,8,3,3,1.0,0.9
2023-05-27T16:00:00,2430A,110.7258,32.6389,十堰市,刘家沟,,19,13,13,6,14,84,59,72,55,9,8,7,8,0.7,0.5
2023-05-27T16:00:00,2431A,110.8839,32.5714,十堰市,铁二处,,,8,14,6,11,81,72,68,61,7,9,,6,0.8,0.7
2023-05-27T16:00:00,2432A,112.155,32.0197,襄阳市,襄城运动路,,37,37,42,20,25,78,59,59,45,12,18,7,7,0.8,0.7
2023-05-27T16:00:00,2433A,112.1392,32.0564,襄阳市,樊城新华路,,31,31,35,15,19,72,51,55,42,13,13,6,6,0.9,0.8
2023-05-27T16:00:00,2434A,112.1825,32.1142,襄阳市,高新管委会,,36,30,32,25,26,80,47,51,38,11,10,8,8,0.9,0.9
2023-05-27T16:00:00,2435A,112.2106,32.0903,襄阳市,襄州航空路,,37,37,44,19,21,74,47,54,39,15,14,5,5,0.8,0.8
2023-05-27T16:00:00,2436A,114.8938,30.3994,鄂州市,市政府,,38,38,38,10,14,131,110,99,99,7,16,8,9,0.5,0.5
2023-05-27T16:00:00,2437A,114.8989,30.3714,鄂州市,赵家坝,,40,40,35,12,14,126,104,94,94,7,12,4,4,0.5,0.6
2023-05-27T16:00:00,2439A,112.2014,31.0481,荆门市,竹园小学,细颗粒物(PM2.5),84,69,40,62,33,68,52,58,33,22,17,6,6,0.8,0.8
2023-05-27T16:00:00,2440A,112.1969,30.9891,荆门市,掇刀,细颗粒物(PM2.5),62,67,34,44,31,68,52,64,39,23,15,9,7,0.7,0.7
2023-05-27T16:00:00,2441A,112.2213,31.0386,荆门市,石化一小,细颗粒物(PM2.5),55,55,37,39,27,73,45,64,34,25,14,8,7,0.7,0.5
2023-05-27T16:00:00,2443A,113.9153,30.9285,孝感市,文化路,,38,30,13,24,11,121,121,98,98,3,9,7,8,0.7,0.7
2023-05-27T16:00:00,2444A,113.942,30.9075,孝感市,东城区,,41,17,11,20,9,131,131,103,103,12,13,6,10,0.7,0.7
2023-05-27T16:00:00,2446A,114.9028,30.4742,黄冈市,职工中心,,50,50,27,18,14,125,108,97,97,4,3,4,3,0.4,0.4
2023-05-27T16:00:00,2447A,114.3175,29.8142,咸宁市,森林公园,,25,4,22,14,13,79,79,66,66,2,2,4,3,0.6,0.7
2023-05-27T16:00:00,2448A,114.3107,29.8454,咸宁市,市发改委,,29,16,33,20,24,83,79,73,73,3,6,5,5,0.3,0.4
2023-05-27T16:00:00,2449A,114.2936,29.8566,咸宁市,咸安区政府,,25,15,26,9,18,82,79,71,71,4,8,6,4,0.3,0.5
2023-05-27T16:00:00,2451A,113.3583,31.7275,随州市,市委党校,,45,37,39,31,31,87,87,57,57,1,8,5,5,0.6,0.7
2023-05-27T16:00:00,2452A,113.3833,31.6908,随州市,市林业局,,46,36,34,32,28,96,96,64,64,5,12,5,5,0.6,0.6
2023-05-27T16:00:00,2453A,113.3983,31.7308,随州市,市立交桥水厂,,43,38,34,30,30,95,95,62,62,2,7,5,5,0.8,0.8
2023-05-27T16:00:00,2454A,109.4978,30.2981,恩施土家族苗族自治州,湖北民院,,32,32,27,21,19,79,79,41,41,11,13,11,11,1.0,1.1
2023-05-27T16:00:00,2455A,109.4707,30.2798,恩施土家族苗族自治州,州电力总公司,,23,20,17,2,13,72,72,38,38,19,19,11,10,1.1,1
2023-05-27T16:00:00,2456A,112.5003,26.9167,衡阳市,原169医院,,18,18,30,11,14,52,52,48,48,9,17,5,11,0.4,0.5
2023-05-27T16:00:00,2457A,112.6194,26.9258,衡阳市,衡阳化工总厂,,24,15,24,11,13,82,75,77,77,2,5,8,8,0.4,0.5
2023-05-27T16:00:00,2458A,112.6211,26.8956,衡阳市,珠晖区环保局,,,17,24,,,84,77,80,80,1,5,9,8,0.4,0.5
2023-05-27T16:00:00,2459A,112.6197,26.8733,衡阳市,市委党校,,24,16,28,6,10,82,75,78,78,2,5,9,8,0.6,0.6
2023-05-27T16:00:00,2460A,112.6006,26.8919,衡阳市,市监测站,,24,13,25,4,12,84,75,78,78,5,9,10,11,0.5,0.6
2023-05-27T16:00:00,2461A,112.5664,26.9056,衡阳市,真空机电公司,,24,16,31,12,17,79,76,74,74,6,14,14,22,0.8,1.2
2023-05-27T16:00:00,2462A,111.5239,27.3033,邵阳市,市水土所,,20,19,25,13,9,73,64,58,58,4,7,5,5,0.7,0.7
2023-05-27T16:00:00,2463A,111.4733,27.2317,邵阳市,市一中,,22,22,31,12,15,73,67,60,60,4,11,7,10,0.3,0.4
2023-05-27T16:00:00,2464A,111.5283,27.2442,邵阳市,市化工厂,,20,19,26,12,15,69,64,58,58,3,12,7,8,0.5,0.5
2023-05-27T16:00:00,2465A,111.4503,27.2537,邵阳市,市罐头厂,,24,24,34,10,16,73,71,61,61,4,11,3,5,0.2,0.3
2023-05-27T16:00:00,2466A,111.4328,27.2272,邵阳市,市环保局,,21,20,25,8,13,72,66,58,58,3,7,5,7,0.3,0.3
2023-05-27T16:00:00,2467A,112.4067,28.6428,益阳市,甘溪港,,25,25,44,8,12,87,74,68,68,2,2,1,3,0.2,0.5
2023-05-27T16:00:00,2468A,112.3458,28.5808,益阳市,市环保局,,25,13,92,7,50,89,80,74,74,4,6,6,5,0.3,0.7
