timepoint,stationcode,longitude,latitude,area,positionname,primarypollutant,aqi,pm10,pm10_24h,pm2_5,pm2_5_24h,o3,o3_24h,o3_8h,o3_8h_24h,no2,no2_24h,so2,so2_24h,co,co_24h
2024-06-20T0700,2566A,102.1879,31.914,阿坝藏族羌族自治州,州农科所,,,8,23,3,8,9,,,,6,14,3,5,,1.1
2024-06-20T0700,2568A,102.2502,31.8896,阿坝藏族羌族自治州,马师校,,23,,11,16,12,6,,,,9,11,5,5,0.4,0.4
2024-06-20T0700,3994A,102.2165,31.9024,阿坝藏族羌族自治州,马尔康中学西区,,15,15,15,6,9,10,,,,4,4,5,6,0.4,0.4
2024-06-20T0700,2695A,80.292,41.1694,阿克苏地区,电视台,颗粒物(PM10),52,54,65,18,20,90,,,,12,13,3,4,0.3,0.4
2024-06-20T0700,2696A,80.2613,41.1551,阿克苏地区,艺术中心,颗粒物(PM10),56,61,67,27,22,85,,,,15,17,3,4,0.4,0.5
2024-06-20T0700,2204A,105.6467,38.8363,阿拉善盟,西城区西花园,,46,46,78,24,24,124,,,,10,10,10,8,0.6,0.5
2024-06-20T0700,2205A,105.6985,38.8411,阿拉善盟,蒙二幼,颗粒物(PM10),51,51,76,18,26,126,,,,6,7,12,12,0.5,0.5
2024-06-20T0700,2206A,105.724,38.8516,阿拉善盟,环保局新楼,颗粒物(PM10),52,54,69,18,25,134,,,,5,6,11,10,0.4,0.4
2024-06-20T0700,2708A,88.1264,47.8517,阿勒泰地区,市站,,28,28,92,8,20,56,,,,6,7,6,6,0.2,0.3
2024-06-20T0700,2630A,80.1161,32.5,阿里地区,阿里监测站,,48,9,15,7,8,153,,,,3,8,6,5,0.4,0.4
2024-06-20T0700,3192A,80.0903,32.5028,阿里地区,阿里藏医院,,48,17,21,8,7,151,,,,3,4,6,6,0.4,0.4
2024-06-20T0700,2642A,109.0318,32.6537,安康市,香溪洞,,16,15,20,11,13,15,,,,8,5,6,6,0.6,0.6
2024-06-20T0700,2643A,109.0281,32.6939,安康市,安康市监测站,,23,23,25,13,13,11,,,,9,7,11,8,0.6,0.6
2024-06-20T0700,2644A,109.0072,32.6975,安康市,汉滨区检察院,,27,27,23,13,14,11,,,,12,7,6,6,0.5,0.6
2024-06-20T0700,2291A,117.0809,30.5177,安庆市,环科院,,15,,11,10,7,27,,,,19,13,4,4,0.6,0.5
2024-06-20T0700,2292A,117.0331,30.5119,安庆市,马山宾馆,,15,,13,10,8,20,,,,30,22,5,6,0.8,0.7
2024-06-20T0700,2294A,116.9896,30.6145,安庆市,安庆大学,,14,14,19,7,10,43,,,,9,13,7,8,0.4,0.3
2024-06-20T0700,3173A,117.0598,30.5351,安庆市,市人大,,13,8,9,8,7,23,,,,25,15,6,5,0.5,0.4
2024-06-20T0700,3122A,105.9606,26.2611,安顺市,伍家关,,,,,,,,,,,,,,,,
2024-06-20T0700,3123A,105.9408,26.2431,安顺市,凤凰山,,,,15,,10,,,59,,,5,,5,,1.0
2024-06-20T0700,3124A,105.9439,26.2564,安顺市,金钟山,,22,15,14,12,9,70,,,,4,5,4,4,0.8,0.6
2024-06-20T0700,3125A,105.8983,26.2481,安顺市,娄家坡,,21,14,19,10,11,66,,,,3,5,4,4,0.8,0.9
2024-06-20T0700,1818A,114.4839,36.0621,安阳市,棉研所,,,,,,,,,,,,,,,,
2024-06-20T0700,1819A,114.3551,36.1017,安阳市,红庙街,颗粒物(PM10),63,75,56,44,25,98,,,,23,9,7,5,0.7,0.6
2024-06-20T0700,1820A,114.361,36.0681,安阳市,银杏小区,颗粒物(PM10),56,62,50,36,22,82,,,,37,22,11,10,0.9,0.8
2024-06-20T0700,3141A,114.3922,36.0878,安阳市,信访局,,,80,62,49,23,104,,,,,4,9,8,0.7,0.6
2024-06-20T0700,3669A,114.4705,36.0637,安阳市,左辅环卫站,细颗粒物(PM2.5),72,79,58,52,31,67,,,,32,17,2,3,0.4,0.4
2024-06-20T0700,3703A,114.2917,36.0949,安阳市,安钢职工学校,细颗粒物(PM2.5),84,76,58,62,27,89,,,,29,13,12,8,0.8,0.5
2024-06-20T0700,1748A,123.044,41.1196,鞍山市,深沟寺,,35,22,24,11,8,111,,,,13,12,9,9,0.4,0.3
2024-06-20T0700,1749A,123.011,41.0931,鞍山市,太阳城,,40,24,27,12,11,125,,,,18,12,7,7,0.6,0.5
2024-06-20T0700,1750A,123.0485,41.1442,鞍山市,太平,,35,25,26,11,10,111,,,,19,12,5,6,0.5,0.5
2024-06-20T0700,1751A,122.9642,41.0971,鞍山市,铁西三道街,颗粒物(PM10),65,80,40,31,16,84,,,,48,18,9,5,1.1,0.4
2024-06-20T0700,1752A,122.9341,41.0833,鞍山市,铁西工业园区,颗粒物(PM10),67,83,37,37,14,67,,,,54,23,7,9,1.0,0.6
2024-06-20T0700,1753A,123.022,41.0821,鞍山市,明达新区,,41,20,28,10,11,129,,,,13,9,7,8,0.4,0.4
2024-06-20T0700,1754A,123.1289,41.0228,鞍山市,千山,,,,,,,,,,,,,,,,
2024-06-20T0700,2195A,107.4212,40.761,巴彦淖尔市,附二中,颗粒物(PM10),66,82,72,34,30,92,,,,12,11,3,3,0.5,0.5
2024-06-20T0700,2196A,107.37,40.7372,巴彦淖尔市,市环保大楼,颗粒物(PM10),68,85,71,27,20,83,,,,13,11,3,4,0.4,0.4
2024-06-20T0700,1956A,86.1472,41.7538,巴音郭楞蒙古自治州,孔雀公园,颗粒物(PM10),57,63,129,25,30,88,,,,12,9,3,3,0.2,0.2
2024-06-20T0700,1957A,86.1972,41.7166,巴音郭楞蒙古自治州,棉纺厂,,48,48,139,14,33,88,,,,8,10,4,4,0.1,0.2
2024-06-20T0700,1958A,86.2357,41.7173,巴音郭楞蒙古自治州,经济开发区,,42,42,121,12,32,94,,,,9,6,2,2,0.2,0.2
2024-06-20T0700,2914A,106.7677,31.8794,巴中市,苏山坪,,23,23,19,14,17,32,,,,9,9,4,4,0.6,0.7
2024-06-20T0700,3182A,106.7656,31.8545,巴中市,丽阳花园,,19,18,19,13,14,14,,,,17,16,5,6,0.6,0.6
2024-06-20T0700,3183A,106.7418,31.8654,巴中市,圣泉水务公司,,19,19,19,10,14,12,,,,20,18,4,4,0.7,0.6
2024-06-20T0700,3616A,106.7616,31.8344,巴中市,市中心医院,,21,21,18,14,12,7,,,,19,14,5,5,0.6,0.5
2024-06-20T0700,2235A,122.7911,45.6077,白城市,洮北区环保局,细颗粒物(PM2.5),52,,47,36,41,42,,,,13,13,2,3,0.2,0.3
2024-06-20T0700,2236A,122.8738,45.5725,白城市,市环保局,,35,29,46,24,28,46,,,,14,15,3,4,0.4,0.5
2024-06-20T0700,2231A,126.4219,41.9171,白山市,喜丰,颗粒物(PM10),54,57,46,21,16,32,,,,35,22,16,12,0.9,0.8
2024-06-20T0700,2232A,126.4077,41.9419,白山市,环保局,颗粒物(PM10),51,51,47,16,20,49,,,,24,17,10,10,0.7,0.7
2024-06-20T0700,2647A,104.1724,36.5446,白银市,第三小学,颗粒物(PM10),57,64,81,20,27,120,,,,7,14,7,49,0.3,0.6
2024-06-20T0700,2648A,104.1465,36.5482,白银市,动力公司,颗粒物(PM10),54,58,68,19,23,115,,,,5,10,8,33,0.2,0.4
2024-06-20T0700,2512A,106.6103,23.9011,百色市,市监测站,,26,26,30,11,17,20,,,,11,10,6,8,0.8,0.8
2024-06-20T0700,2513A,106.6538,23.8859,百色市,市中心血站,,34,34,36,16,22,39,,,,15,12,12,8,0.8,0.7
2024-06-20T0700,3406A,106.6085,23.8798,百色市,祈福高中,,35,35,38,10,19,19,,,,18,12,12,12,0.8,0.8
2024-06-20T0700,2270A,117.396,32.939,蚌埠市,工人疗养院,颗粒物(PM10),59,68,58,30,26,38,,,,18,10,6,8,0.5,0.5
2024-06-20T0700,2271A,117.3605,32.9427,蚌埠市,百货大楼,细颗粒物(PM2.5),64,64,60,46,35,58,,,,12,11,5,5,0.5,0.5
2024-06-20T0700,2273A,117.4185,32.8911,蚌埠市,蚌埠学院,,39,36,40,27,27,48,,,,20,13,10,7,0.6,0.5
2024-06-20T0700,2274A,117.3533,32.9673,蚌埠市,淮上区政府,细颗粒物(PM2.5),53,53,50,37,35,49,,,,12,10,5,6,0.5,0.5
2024-06-20T0700,2275A,117.3145,32.8977,蚌埠市,高新区,细颗粒物(PM2.5),60,56,46,43,29,61,,,,12,11,6,7,0.6,0.5
2024-06-20T0700,3715A,117.3092,32.9314,蚌埠市,蚌埠田家炳中学,颗粒物(PM10),60,70,56,35,30,55,,,,10,8,6,6,0.5,0.4
2024-06-20T0700,1585A,109.8756,40.6532,包头市,市环境监测站,,37,37,35,20,18,64,,,,34,32,14,14,0.6,0.6
2024-06-20T0700,1587A,109.9991,40.5842,包头市,包头八中,细颗粒物(PM2.5),64,47,38,46,20,61,,,,39,26,32,20,0.7,0.7
2024-06-20T0700,1588A,109.8538,40.6821,包头市,青山宾馆,,42,30,30,29,15,66,,,,29,28,12,19,0.6,0.7
2024-06-20T0700,1589A,109.8642,40.6288,包头市,惠龙物流,,43,43,32,21,18,73,,,,28,26,18,17,0.6,0.7
2024-06-20T0700,1590A,110.0377,40.5546,包头市,东河鸿龙湾,,48,37,36,33,18,50,,,,35,26,15,22,0.6,0.6
2024-06-20T0700,3283A,109.9154,40.5685,包头市,滨河大厦,,45,45,34,23,20,60,,,,32,30,14,17,0.7,0.7
2024-06-20T0700,3419A,109.9447,40.6261,包头市,包头市委党校,,48,36,35,33,17,62,,,,39,31,20,16,0.9,0.6
2024-06-20T0700,3683A,109.8331,40.6576,包头市,昆区政府,,50,,31,35,18,73,,,,33,28,15,15,0.8,0.8
2024-06-20T0700,1930A,107.185,34.3063,宝鸡市,庙沟村,,18,18,42,11,15,36,,,,18,13,8,9,0.4,0.4
2024-06-20T0700,1931A,107.0708,34.3017,宝鸡市,竹园沟,,15,12,24,10,14,31,,,,16,16,7,8,0.6,0.6
2024-06-20T0700,1932A,107.1906,34.3672,宝鸡市,三陆医院,,47,47,47,31,25,36,,,,36,28,12,10,0.7,0.6
2024-06-20T0700,1933A,107.1431,34.3547,宝鸡市,监测站,,22,17,32,15,18,40,,,,21,23,8,9,0.5,0.5
2024-06-20T0700,1934A,107.1186,34.3739,宝鸡市,技工学校,,27,27,36,18,20,52,,,,16,17,8,8,0.6,0.6
2024-06-20T0700,1935A,107.3906,34.3528,宝鸡市,陈仓区环保局家属楼,,40,40,39,24,16,49,,,,30,27,15,7,0.9,0.4
2024-06-20T0700,1936A,107.2058,34.3497,宝鸡市,文理学院,,33,33,38,13,14,45,,,,18,23,8,8,0.5,0.5
2024-06-20T0700,1937A,107.2386,34.3622,宝鸡市,三迪小学,,49,49,44,25,29,43,,,,31,27,10,8,0.5,0.5
2024-06-20T0700,1051A,115.493,38.8632,保定市,游泳馆,颗粒物(PM10),89,127,78,56,29,66,,,,29,12,9,9,0.3,0.2
2024-06-20T0700,1052A,115.5213,38.8959,保定市,华电二区,颗粒物(PM10),66,81,60,40,30,53,,,,36,18,4,4,0.5,0.4
2024-06-20T0700,1053A,115.4713,38.9108,保定市,接待中心,颗粒物(PM10),66,81,55,47,36,59,,,,33,16,5,5,0.6,0.4
2024-06-20T0700,1054A,115.4612,38.8416,保定市,地表水厂,颗粒物(PM10),86,122,70,51,36,71,,,,37,18,4,3,0.5,0.6
2024-06-20T0700,3581A,115.31981,38.95208,保定市,满城区生态环境分局,颗粒物(PM10),80,110,87,7,29,88,,,,24,14,5,4,0.4,0.3
2024-06-20T0700,3582A,115.47694,38.76408,保定市,清苑区第二中学,颗粒物(PM10),73,95,86,38,39,81,,,,45,24,6,6,0.5,0.4
2024-06-20T0700,3583A,115.62909,39.02311,保定市,徐水物探局,颗粒物(PM10),64,78,80,19,23,57,,,,31,16,5,3,0.3,0.3
2024-06-20T0700,4004A,115.4202,38.8656,保定市,双鹰农机,颗粒物(PM10),73,95,68,34,32,76,,,,27,14,2,2,0.3,0.2
2024-06-20T0700,4034A,115.5150,38.8590,保定市,植保所站,颗粒物(PM10),80,110,73,52,34,60,,,,36,20,6,6,0.9,0.6
2024-06-20T0700,2594A,99.1678,25.1081,保山市,市环境监测站,,38,38,39,16,15,45,,,,6,7,5,6,0.6,0.6
2024-06-20T0700,2595A,99.1711,25.1328,保山市,市环保局,,49,49,49,17,16,60,,,,4,5,6,6,0.5,0.5
2024-06-20T0700,1866A,109.2262,21.588,北海市,牛尾岭水库,,,,,,,,,,,,,,,,
2024-06-20T0700,1867A,109.1436,21.4086,北海市,海滩公园,,41,41,38,7,7,51,,,,5,3,3,3,0.6,0.7
2024-06-20T0700,1868A,109.0981,21.4661,北海市,新市环保局,,18,14,22,9,8,55,,,,6,5,5,4,0.7,0.6
2024-06-20T0700,1869A,109.1778,21.5233,北海市,北海工业园,,26,26,24,12,13,48,,,,7,5,4,4,0.6,0.5
2024-06-20T0700,3400A,109.1911,21.4415,北海市,龙潭自来水厂,,19,19,21,7,13,47,,,,5,4,5,5,0.5,0.5
2024-06-20T0700,1001A,116.3621,39.8784,北京市,万寿西宫,颗粒物(PM10),55,59,90,30,46,72,,,,22,24,2,3,0.8,0.6
2024-06-20T0700,1002A,116.2202,40.2915,北京市,定陵,细颗粒物(PM2.5),87,92,84,64,43,62,,,,18,19,3,3,0.7,0.6
2024-06-20T0700,1003A,116.4174,39.9289,北京市,东四,颗粒物(PM10),51,51,86,29,44,67,,,,23,23,5,6,0.7,0.6
2024-06-20T0700,1004A,116.4072,39.8863,北京市,天坛,颗粒物(PM10),58,65,81,31,38,68,,,,17,17,3,3,0.7,0.5
2024-06-20T0700,1005A,116.462,39.9365,北京市,农展馆,颗粒物(PM10),53,56,86,27,39,71,,,,20,25,7,16,0.9,0.7
2024-06-20T0700,1006A,116.3392,39.9295,北京市,官园,颗粒物(PM10),54,58,89,31,42,75,,,,20,20,6,7,0.7,0.6
2024-06-20T0700,1007A,116.2878,39.9611,北京市,海淀万柳,颗粒物(PM10),54,57,81,30,43,76,,,,22,21,6,6,0.6,0.5
2024-06-20T0700,1008A,116.6636,40.135,北京市,顺义新城,颗粒物(PM10),53,55,82,29,50,79,,,,14,18,5,5,0.6,0.5
2024-06-20T0700,1009A,116.6275,40.3275,北京市,怀柔镇,,41,41,91,23,53,101,,,,11,13,7,7,0.8,0.7
2024-06-20T0700,1010A,116.2296,40.217,北京市,昌平镇,颗粒物(PM10),52,54,88,28,43,77,,,,22,27,5,3,0.6,0.6
2024-06-20T0700,1011A,116.3966,39.9821,北京市,奥体中心,,48,48,83,30,42,67,,,,20,22,2,3,0.7,0.6
2024-06-20T0700,1012A,116.184,39.9136,北京市,古城,颗粒物(PM10),61,71,86,39,38,69,,,,36,25,4,4,0.5,0.4
2024-06-20T0700,3281A,115.9718,40.4529,北京市,延庆夏都,细颗粒物(PM2.5),79,91,78,58,40,109,,,,15,12,3,2,0.6,0.5
2024-06-20T0700,3417A,117.0709,40.1465,北京市,平谷新城,颗粒物(PM10),54,58,79,30,48,84,,,,16,16,4,3,1.0,0.7
2024-06-20T0700,3418A,116.8336,40.4095,北京市,密云新城,颗粒物(PM10),57,64,90,36,53,106,,,,19,15,3,4,0.6,0.6
2024-06-20T0700,3671A,116.088,39.9726,北京市,门头沟三家店,,,,,,,,,,,,,,,,
2024-06-20T0700,3672A,116.1541,39.8204,北京市,丰台云岗,颗粒物(PM10),64,78,79,37,36,40,,,,29,20,3,3,0.7,0.5
2024-06-20T0700,3673A,116.6804,39.9081,北京市,通州东关,颗粒物(PM10),58,65,97,29,44,61,,,,15,19,4,5,0.8,0.7
2024-06-20T0700,3674A,115.9577,39.7603,北京市,房山燕山,细颗粒物(PM2.5),77,100,76,56,32,75,,,,26,15,1,2,0.6,0.5
2024-06-20T0700,3675A,116.4672,39.7733,北京市,大兴旧宫,颗粒物(PM10),52,54,94,35,51,55,,,,21,20,1,3,0.9,0.7
2024-06-20T0700,3694A,115.986,40.4563,北京市,延庆石河营,细颗粒物(PM2.5),85,91,76,63,41,80,,,,15,13,1,2,0.6,0.5
2024-06-20T0700,3695A,116.6151,40.3053,北京市,怀柔新城,,39,39,86,22,53,98,,,,15,16,5,4,0.9,0.8
2024-06-20T0700,3696A,116.2545,39.8768,北京市,丰台小屯,颗粒物(PM10),53,56,77,28,38,58,,,,17,17,1,2,0.6,0.5
2024-06-20T0700,3697A,116.84,40.3844,北京市,密云镇,颗粒物(PM10),56,62,85,31,49,102,,,,18,15,3,4,0.6,0.6
2024-06-20T0700,1761A,123.8275,41.3064,本溪市,大峪,颗粒物(PM10),60,69,31,6,8,60,,,,46,13,10,10,0.4,0.4
2024-06-20T0700,1762A,123.7567,41.3325,本溪市,溪湖,,36,36,29,10,12,100,,,,30,17,16,17,1.0,1
2024-06-20T0700,1763A,123.7169,41.3094,本溪市,彩屯,颗粒物(PM10),55,60,44,20,18,94,,,,37,29,23,21,3.0,2.1
2024-06-20T0700,1764A,123.7669,41.2864,本溪市,东明,颗粒物(PM10),54,57,37,14,11,84,,,,39,15,8,8,0.7,0.5
2024-06-20T0700,1765A,123.7992,41.2664,本溪市,新立屯,,43,19,33,12,14,136,,,,9,10,6,7,0.6,0.5
2024-06-20T0700,1766A,123.8142,41.3472,本溪市,威宁,颗粒物(PM10),61,71,45,23,13,73,,,,27,17,8,8,0.6,0.4
2024-06-20T0700,2587A,105.2864,27.3125,毕节市,八中,,15,,17,10,15,25,,,,11,8,5,5,0.6,0.5
2024-06-20T0700,2588A,105.31,27.2944,毕节市,师专,,12,9,17,8,14,35,,,,7,9,4,5,0.6,0.6
2024-06-20T0700,3537A,105.3631,27.3533,毕节市,长征村,,25,25,36,17,26,36,,,,8,8,6,6,0.6,0.7
2024-06-20T0700,1629A,118.0018,37.3617,滨州市,第二水厂,,34,34,49,19,16,49,,,,21,16,10,7,0.6,0.5
2024-06-20T0700,1630A,117.9776,37.393,滨州市,北中新校,,31,31,47,12,14,55,,,,17,16,10,6,0.7,0.6
2024-06-20T0700,3514A,117.9378,37.3956,滨州市,中海酒店,,28,27,38,19,16,57,,,,20,15,9,7,0.5,0.4
2024-06-20T0700,3515A,117.9378,37.3553,滨州市,开发区一中,,41,41,45,14,16,45,,,,26,16,13,8,0.6,0.5
2024-06-20T0700,3516A,118.0917,37.694,滨州市,金海六路,,41,41,42,12,9,66,,,,12,12,6,9,0.6,0.6
2024-06-20T0700,4028A,117.9956,37.3753,滨州市,滨州市西街道办事处,,28,24,42,19,18,52,,,,18,17,11,7,0.8,0.7
2024-06-20T0700,2311A,115.8072,33.8399,亳州市,污水处理厂,细颗粒物(PM2.5),52,42,45,36,31,67,,,,18,14,5,5,0.6,0.6
2024-06-20T0700,2312A,115.7789,33.8518,亳州市,三国揽胜宫,,42,34,45,29,27,114,,,,8,11,3,4,0.6,0.6
2024-06-20T0700,3332A,115.7633,33.8034,亳州市,亳州学院,细颗粒物(PM2.5),64,,46,46,30,122,,,,9,11,7,6,0.5,0.5
2024-06-20T0700,2693A,82.0485,44.8556,博尔塔拉蒙古自治州,市党校,,45,45,33,16,11,34,,,,12,9,10,8,0.4,0.4
2024-06-20T0700,2694A,82.0806,44.8969,博尔塔拉蒙古自治州,市环保局,,34,34,32,13,11,42,,,,18,13,10,8,0.5,0.4
2024-06-20T0700,1071A,116.8842,38.2991,沧州市,沧县城建局,颗粒物(PM10),53,55,49,23,19,37,,,,44,19,5,4,0.6,0.5
2024-06-20T0700,1072A,116.8584,38.3254,沧州市,电视转播站,颗粒物(PM10),54,57,48,29,21,90,,,,24,12,3,3,0.4,0.3
2024-06-20T0700,1073A,116.8709,38.3228,沧州市,市环保局,颗粒物(PM10),53,56,53,30,24,38,,,,45,19,9,9,0.4,0.3
2024-06-20T0700,3324A,116.8136,38.3004,沧州市,河北水利电力学院,颗粒物(PM10),53,56,52,21,24,89,,,,28,16,10,9,0.4,0.4
2024-06-20T0700,2622A,97.1806,31.1273,昌都市,昌都监测站,,18,7,8,3,6,57,,,,4,8,9,9,0.4,0.5
2024-06-20T0700,3719A,97.1714,31.1406,昌都市,昌都会议中心,,20,6,9,3,5,64,,,,3,8,5,5,0.4,0.5
2024-06-20T0700,2690A,88.1236,43.8886,昌吉回族自治州,天山天池,,16,10,11,3,5,49,,,,5,5,5,10,0.5,0.5
2024-06-20T0700,2692A,87.2717,44.0297,昌吉回族自治州,新区政务中心,,49,49,27,14,8,47,,,,13,7,10,9,0.3,0.3
2024-06-20T0700,3613A,87.3095,44.0142,昌吉回族自治州,亚心广场,颗粒物(PM10),56,61,29,19,5,61,,,,17,12,9,7,0.2,0.2
2024-06-20T0700,1119A,125.3325,43.9166,长春市,食品厂,,35,35,62,15,19,111,,,,32,30,8,8,0.4,0.3
2024-06-20T0700,1120A,125.2863,43.9027,长春市,客车厂,,33,32,54,12,19,105,,,,36,25,5,5,0.4,0.4
2024-06-20T0700,1121A,125.2841,43.8463,长春市,邮电学院,,36,24,58,10,18,114,,,,28,27,8,9,0.3,0.4
2024-06-20T0700,1122A,125.3716,43.8772,长春市,劳动公园,,33,33,53,11,14,90,,,,48,33,5,6,0.5,0.5
2024-06-20T0700,1123A,125.3297,43.8805,长春市,园林处,,38,24,48,14,20,119,,,,23,25,6,7,0.4,0.4
2024-06-20T0700,1124A,125.4605,43.79,长春市,净月潭,,27,21,39,10,14,86,,,,33,25,5,6,0.3,0.4
2024-06-20T0700,1125A,125.7194,43.515,长春市,甩湾子,,,,,,,,,,,,,,,,
2024-06-20T0700,1126A,125.3863,43.8447,长春市,经开区环卫处,,32,32,52,13,15,85,,,,46,31,5,6,0.4,0.4
2024-06-20T0700,1127A,125.245,43.7783,长春市,高新区管委会,,38,18,44,10,15,119,,,,19,24,8,9,0.4,0.4
2024-06-20T0700,1128A,125.1761,43.8325,长春市,岱山公园,,31,23,49,13,17,98,,,,33,30,7,7,0.4,0.4
2024-06-20T0700,1335A,113.0833,28.2325,长沙市,经开区环保局,,24,24,22,12,12,14,,,,14,18,3,3,0.4,0.5
2024-06-20T0700,1336A,112.8872,28.2189,长沙市,高开区环保局,,20,20,20,12,12,23,,,,16,13,4,4,0.6,0.7
2024-06-20T0700,1337A,113.0792,28.2053,长沙市,马坡岭,,26,26,20,12,13,17,,,,13,16,7,7,0.6,0.6
2024-06-20T0700,1338A,112.9394,28.19,长沙市,湖南师范大学,,28,28,22,15,15,24,,,,10,10,3,3,0.8,0.8
2024-06-20T0700,1339A,113.0178,28.1322,长沙市,雨花区环保局,,25,25,21,12,10,29,,,,6,10,2,3,0.5,0.5
2024-06-20T0700,1340A,112.9792,28.2597,长沙市,伍家岭,,,,,,,,,,,,,,,,
2024-06-20T0700,1341A,113.0014,28.1944,长沙市,火车新站,,24,24,24,12,11,14,,,,18,16,2,2,0.6,0.7
2024-06-20T0700,1342A,112.9844,28.1178,长沙市,天心区环保局,,25,25,22,13,13,21,,,,7,10,1,2,0.9,1
2024-06-20T0700,1343A,112.8908,28.1308,长沙市,湖南中医药大学,,21,21,19,10,12,21,,,,10,10,7,7,0.8,0.8
2024-06-20T0700,1344A,112.9581,28.3611,长沙市,沙坪,,14,14,16,3,8,21,,,,10,8,7,7,0.4,0.5
2024-06-20T0700,1727A,113.1147,36.1547,长治市,清华站,颗粒物(PM10),57,64,40,29,20,101,,,,28,15,11,10,0.8,0.5
2024-06-20T0700,1728A,113.1031,36.1989,长治市,监测站,颗粒物(PM10),58,65,53,24,19,124,,,,28,19,6,5,2.5,0.8
2024-06-20T0700,1730A,113.0886,36.2125,长治市,审计局,颗粒物(PM10),53,55,37,29,20,99,,,,49,25,6,4,1.1,0.5
2024-06-20T0700,1731A,113.0844,36.1856,长治市,长治八中,颗粒物(PM10),68,86,47,30,20,105,,,,29,17,5,4,1.0,0.6
2024-06-20T0700,2845A,113.1569,36.1911,长治市,德盛苑,颗粒物(PM10),59,68,37,31,20,152,,,,15,11,11,8,2.7,0.9
2024-06-20T0700,3568A,113.06,36.0464,长治市,向阳小学,细颗粒物(PM2.5),68,49,65,49,40,121,,,,18,17,4,4,0.7,0.7
2024-06-20T0700,3569A,112.8792,36.3144,长治市,屯留一中,细颗粒物(PM2.5),58,47,43,41,33,60,,,,34,18,7,9,0.5,0.6
2024-06-20T0700,3570A,113.235,36.3489,长治市,潞城四中,细颗粒物(PM2.5),63,65,45,45,25,105,,,,23,14,7,7,1.3,0.8
2024-06-20T0700,1854A,111.6975,28.9703,常德市,市二中,,16,9,21,8,11,51,,,,5,5,6,6,0.6,0.6
2024-06-20T0700,1857A,111.7158,29.1456,常德市,白鹤山,,,,,,,,,,,,,,,,
2024-06-20T0700,3138A,111.7153,29.0289,常德市,武陵区永安,,22,10,22,8,14,70,,,,1,4,6,6,0.4,0.4
2024-06-20T0700,3139A,111.6892,28.9881,常德市,鼎城区玉霞,,15,14,22,10,11,47,,,,7,4,4,4,0.5,0.5
2024-06-20T0700,3140A,111.6625,29.0531,常德市,武陵区长庚,,18,14,22,9,13,57,,,,5,6,8,8,0.4,0.4
2024-06-20T0700,1196A,119.9633,31.762,常州市,市监测站,,22,22,26,10,15,14,,,,22,23,8,7,0.5,0.5
2024-06-20T0700,1200A,119.9468,31.7069,常州市,武进监测站,,14,14,18,9,11,23,,,,11,14,11,11,0.8,0.7
2024-06-20T0700,1201A,119.9255,31.9087,常州市,安家,,24,24,24,15,17,5,,,,23,22,7,7,0.6,0.5
2024-06-20T0700,3002A,119.9805,31.8174,常州市,行政中心,,12,12,15,8,9,11,,,,18,20,10,10,0.5,0.5
2024-06-20T0700,3003A,120.0522,31.7748,常州市,经开区,,16,14,15,11,11,16,,,,21,23,4,4,0.6,0.7
2024-06-20T0700,3010A,119.9025,31.7964,常州市,钟楼,,22,16,29,15,12,10,,,,17,17,5,5,0.8,0.8
2024-06-20T0700,3429A,119.8598,31.7066,常州市,武进经发区,,7,7,20,3,10,18,,,,13,19,8,7,0.5,0.6
2024-06-20T0700,3430A,119.5826,31.7245,常州市,金坛城区,,20,15,13,14,7,16,,,,15,13,6,5,0.8,0.8
2024-06-20T0700,2220A,120.4318,41.5881,朝阳市,西梁,,37,27,41,15,18,117,,,,15,10,8,11,0.5,0.6
2024-06-20T0700,2221A,120.4521,41.5646,朝阳市,河畔小区,,41,24,39,12,18,130,,,,11,8,9,10,0.5,0.6
2024-06-20T0700,2222A,120.4176,41.5648,朝阳市,八里堡,,32,32,44,15,19,100,,,,26,13,9,10,0.7,0.7
2024-06-20T0700,2223A,120.3806,41.5969,朝阳市,农业园区,,33,33,41,21,22,82,,,,32,16,13,12,0.7,0.7
2024-06-20T0700,1705A,116.6367,23.6719,潮州市,西园路,,22,22,20,7,9,6,,,,9,12,3,3,0.3,0.3
2024-06-20T0700,3026A,116.6183,23.6608,潮州市,市政府,,27,27,23,11,9,7,,,,12,12,6,5,0.8,0.8
2024-06-20T0700,4036A,116.6461,23.6761,潮州市,金山,,14,14,17,7,7,6,,,,9,11,5,5,0.6,0.6
2024-06-20T0700,2472A,113.0073,25.9061,郴州市,马头岭,,18,18,22,8,7,51,,,,4,4,7,7,0.5,0.5
2024-06-20T0700,2473A,113.0116,25.8226,郴州市,市职中,,22,18,17,15,13,49,,,,4,5,11,12,0.5,0.5
2024-06-20T0700,2474A,113.0161,25.8001,郴州市,兴隆步行街,,23,,19,16,13,50,,,,4,4,11,13,0.5,0.5
2024-06-20T0700,2475A,113.0383,25.8071,郴州市,市审计局,,18,16,16,12,12,48,,,,5,7,8,14,0.3,0.3
2024-06-20T0700,2476A,113.0348,25.7759,郴州市,市环保局,,16,12,13,10,11,49,,,,9,10,10,17,0.4,0.4
2024-06-20T0700,1431A,103.9728,30.7236,成都市,金泉两河,,39,,28,27,17,54,,,,2,9,1,1,0.5,0.5
2024-06-20T0700,1432A,104.176,30.6872,成都市,十里店,,28,28,27,3,13,34,,,,31,18,3,3,0.6,0.6
2024-06-20T0700,1433A,104.079,30.5706,成都市,三瓦窑,,46,35,32,32,24,43,,,,24,14,2,2,0.5,0.4
2024-06-20T0700,1434A,104.1114,30.63,成都市,沙河铺,,30,30,29,7,13,25,,,,8,11,1,3,0.4,0.4
2024-06-20T0700,1437A,104.0786,30.6531,成都市,君平街,,27,27,30,15,17,79,,,,11,17,1,1,0.6,0.5
2024-06-20T0700,1438A,103.613,31.0283,成都市,灵岩寺,,,,,,,,,,,,,,,,
2024-06-20T0700,2880A,104.0239,30.65639,成都市,大石西路,,40,29,30,28,15,65,,,,11,14,3,3,0.6,0.6
2024-06-20T0700,3136A,104.2725,30.5589,成都市,龙泉驿区区政府,,20,14,16,14,14,49,,,,10,7,1,2,0.5,0.4
2024-06-20T0700,3357A,104.0106,30.6931,成都市,金博路,,20,15,22,13,15,63,,,,6,9,2,2,0.5,0.5
2024-06-20T0700,3359A,104.0578,30.5225,成都市,华阳,,39,29,25,27,23,66,,,,6,9,2,2,0.5,0.5
2024-06-20T0700,3487A,104.2394,30.5319,成都市,车城东七路,,26,23,23,18,20,72,,,,9,6,2,2,0.5,0.4
2024-06-20T0700,3488A,104.3853,30.7453,成都市,青白江技师分院,,13,9,18,3,10,41,,,,17,7,4,4,0.5,0.5
2024-06-20T0700,3489A,104.0789,30.4072,成都市,科学城,,50,,24,35,18,51,,,,11,8,2,2,0.6,0.5
2024-06-20T0700,4011A,103.8506,30.6947,成都市,光华大道三段,,30,30,34,19,17,58,,,,3,8,2,3,0.6,0.6
2024-06-20T0700,1062A,117.9531,40.9081,承德市,铁路,,46,46,59,10,27,109,,,,18,17,12,9,0.8,0.6
2024-06-20T0700,1063A,117.9392,40.9763,承德市,中国银行,,41,41,63,22,30,94,,,,20,14,6,8,0.7,0.6
2024-06-20T0700,1064A,117.9503,40.928,承德市,开发区,颗粒物(PM10),52,53,65,24,32,118,,,,20,19,13,10,0.9,0.7
2024-06-20T0700,1065A,117.8051,40.9655,承德市,文化中心,颗粒物(PM10),55,60,61,26,30,127,,,,15,11,14,13,0.7,0.5
2024-06-20T0700,1066A,117.9268,41.0026,承德市,离宫,,43,37,50,30,34,106,,,,9,7,3,4,0.6,0.5
2024-06-20T0700,2314A,117.47,30.6618,池州市,池州学院,,19,6,10,3,5,59,,,,4,3,4,5,0.5,0.5
2024-06-20T0700,3237A,117.4918,30.6617,池州市,展览馆,,16,6,9,3,3,49,,,,9,6,3,3,0.5,0.5
2024-06-20T0700,3333A,117.5627,30.695,池州市,第八中学,,14,6,7,3,3,42,,,,20,9,3,3,0.5,0.4
2024-06-20T0700,3334A,117.5038,30.6243,池州市,第十二中学,,15,6,9,3,6,48,,,,7,11,4,4,0.7,0.6
2024-06-20T0700,1744A,118.9233,42.2816,赤峰市,松山一中,,50,48,39,35,25,159,,,,23,20,12,11,1.0,0.8
2024-06-20T0700,1745A,118.9576,42.2728,赤峰市,哈达街,颗粒物(PM10),55,60,45,34,20,155,,,,19,18,14,12,0.8,0.7
2024-06-20T0700,1746A,118.8788,42.2554,赤峰市,天义路,颗粒物(PM10),58,66,45,37,22,164,,,,20,17,9,7,0.7,0.5
2024-06-20T0700,3058A,119.2658,42.0353,赤峰市,银河街,,38,38,63,25,33,111,,,,22,16,20,14,0.8,0.6
2024-06-20T0700,3286A,118.9359,42.3147,赤峰市,桥北物流园区,臭氧1小时,52,45,44,26,29,161,,,,16,17,6,7,1.2,1
2024-06-20T0700,2521A,107.3476,22.4136,崇左市,市环保局江州分局,,27,27,27,9,13,16,,,,7,7,5,5,0.7,0.6
2024-06-20T0700,2522A,107.3702,22.3707,崇左市,城南新区,,31,31,24,12,11,8,,,,12,8,3,3,0.6,0.6
2024-06-20T0700,2298A,118.3093,32.3153,滁州市,老年大学,,40,,31,28,24,47,,,,10,17,7,8,0.6,0.6
2024-06-20T0700,2299A,118.3244,32.2786,滁州市,人大宾馆,细颗粒物(PM2.5),54,,21,38,35,64,,,,10,20,7,7,0.6,0.7
2024-06-20T0700,3207A,118.3118,32.3038,滁州市,市政府原办公楼,,38,,27,26,24,50,,,,13,16,6,7,0.7,0.7
2024-06-20T0700,3331A,118.3267,32.2634,滁州市,图书馆,细颗粒物(PM2.5),64,,29,46,35,59,,,,9,15,10,9,0.7,0.8
2024-06-20T0700,2605A,101.5482,25.0441,楚雄彝族自治州,州环境监测站,,36,,21,25,16,76,,,,6,4,3,4,0.5,0.5
2024-06-20T0700,2606A,101.538,25.0492,楚雄彝族自治州,市经济开发区,,24,24,23,16,15,76,,,,8,6,4,4,0.5,0.5
2024-06-20T0700,2548A,107.5277,31.2827,达州市,达州职业技术学院,,19,19,19,3,7,2,,,,26,20,4,4,0.2,0.2
2024-06-20T0700,2549A,107.5086,31.2186,达州市,市环境监测站,,21,21,21,3,3,14,,,,27,23,6,5,0.6,0.6
2024-06-20T0700,2550A,107.4988,31.2132,达州市,凤凰小区,,12,12,15,3,8,22,,,,21,20,8,6,0.5,0.5
2024-06-20T0700,2551A,107.5082,31.1986,达州市,达县机关宾馆,,29,29,21,11,9,6,,,,32,27,6,5,0.4,0.4
2024-06-20T0700,2552A,107.4644,31.2124,达州市,市政中心,,19,19,23,3,6,22,,,,20,18,6,6,0.6,0.5
2024-06-20T0700,2614A,100.1542,25.7054,大理白族自治州,大理市环境监测站,,33,32,34,23,18,76,,,,6,8,5,5,0.6,0.6
2024-06-20T0700,2615A,100.2171,25.5811,大理白族自治州,大理古城,,29,26,24,20,15,62,,,,12,9,6,6,0.8,0.8
2024-06-20T0700,1109A,121.612,38.9741,大连市,甘井子,,26,26,27,14,12,74,,,,25,24,8,7,0.5,0.5
2024-06-20T0700,1110A,121.565,38.9511,大连市,周水子,,23,23,30,10,11,64,,,,29,22,10,9,0.5,0.5
2024-06-20T0700,1111A,121.5637,38.8845,大连市,星海三站,,26,26,23,12,10,75,,,,14,14,7,7,0.4,0.5
2024-06-20T0700,1112A,121.6302,38.9117,大连市,青泥洼桥,,24,24,23,14,11,66,,,,18,15,9,9,0.5,0.4
2024-06-20T0700,1113A,121.6251,38.8638,大连市,傅家庄,,25,15,24,8,9,79,,,,12,13,10,9,0.3,0.4
2024-06-20T0700,1114A,121.5213,38.8661,大连市,七贤岭,,18,15,32,11,17,57,,,,22,20,4,6,0.4,0.4
2024-06-20T0700,1115A,121.2529,38.8061,大连市,旅顺,,21,9,16,8,9,65,,,,25,16,10,9,0.4,0.4
2024-06-20T0700,1116A,121.7485,39.1311,大连市,金州,,28,24,22,11,11,89,,,,15,12,9,9,0.4,0.5
2024-06-20T0700,1117A,121.7811,39.0496,大连市,开发区,,29,29,30,14,13,85,,,,35,30,7,7,0.4,0.4
2024-06-20T0700,1118A,121.9762,39.0631,大连市,双D港,,28,16,17,7,8,89,,,,10,15,6,7,0.4,0.4
2024-06-20T0700,1789A,124.81117,46.03138,大庆市,大同区,,38,,55,26,37,65,,,,17,15,5,7,0.4,0.5
2024-06-20T0700,1790A,125.129,46.533,大庆市,龙凤区,,28,27,49,19,25,63,,,,13,19,7,8,0.4,0.6
2024-06-20T0700,1791A,124.902,46.408,大庆市,红岗区,,32,,42,22,29,52,,,,11,17,7,7,0.4,0.5
2024-06-20T0700,1792A,125.153,46.586,大庆市,萨尔图区,,25,,39,17,26,73,,,,8,17,6,8,0.3,0.4
2024-06-20T0700,1793A,124.9042,46.6215,大庆市,让胡路区,,32,32,47,3,15,42,,,,22,17,4,6,0.2,0.2
2024-06-20T0700,3481A,125.141,46.634,大庆市,萨区政府监测点,,34,34,55,11,16,75,,,,26,20,5,7,0.3,0.3
2024-06-20T0700,1721A,113.3819,40.1097,大同市,果树场,,,,,,,,,,,,,,,,
2024-06-20T0700,1723A,113.2994,40.0758,大同市,云冈宾馆,细颗粒物(PM2.5),57,52,49,40,26,72,,,,28,20,12,9,1.5,0.7
2024-06-20T0700,1724A,113.3444,40.0917,大同市,大同大学,,50,50,36,33,24,77,,,,27,19,16,12,0.9,0.6
2024-06-20T0700,1725A,113.2661,40.1269,大同市,安家小村,,,68,52,33,21,,,,,31,20,14,14,1.5,0.7
2024-06-20T0700,1726A,113.2711,40.0844,大同市,教育学院,颗粒物(PM10),61,72,54,37,26,50,,,,49,28,12,11,1.7,0.7
2024-06-20T0700,3282A,113.3397,40.0597,大同市,大同市卫生学校,"颗粒物(PM10),细颗粒物(PM2.5)",58,66,47,41,25,86,,,,31,18,20,12,2.2,0.8
2024-06-20T0700,3565A,113.1367,40.1122,大同市,云冈站,颗粒物(PM10),52,53,48,27,30,21,,,,28,18,12,11,0.6,0.5
2024-06-20T0700,3566A,113.1186,40.2556,大同市,图书馆,,40,34,35,28,21,44,,,,27,17,8,10,0.7,0.6
2024-06-20T0700,3567A,113.5931,40.0461,大同市,区一中,颗粒物(PM10),51,51,44,19,16,135,,,,14,13,5,6,0.7,0.6
2024-06-20T0700,3676A,113.2802,40.0995,大同市,第二人民医院,细颗粒物(PM2.5),55,49,40,39,27,70,,,,31,22,16,11,2.4,0.8
2024-06-20T0700,2269A,124.1069,50.4097,大兴安岭地区,科技局,,22,,17,15,12,28,,,,4,4,8,8,0.3,0.3
2024-06-20T0700,3663A,124.1164,50.4278,大兴安岭地区,红旗社区,,19,14,6,13,4,21,,,,10,6,6,6,0.5,0.4
2024-06-20T0700,1600A,124.3303,40.0625,丹东市,江湾东路,,36,36,30,17,16,44,,,,24,20,9,9,0.5,0.5
2024-06-20T0700,1601A,124.4256,40.1503,丹东市,临江后街,,28,26,23,19,13,37,,,,26,17,10,11,0.6,0.6
2024-06-20T0700,1602A,124.3933,40.1461,丹东市,元宝山,,35,35,27,18,13,35,,,,30,18,8,8,0.7,0.8
2024-06-20T0700,1603A,124.3633,40.1092,丹东市,民主桥,,26,26,28,12,12,56,,,,28,19,8,7,0.5,0.5
2024-06-20T0700,3541A,109.5726,19.5167,儋州市,第一中学子站,,19,19,19,10,10,43,,,,4,4,6,5,0.6,0.5
2024-06-20T0700,3542A,109.5567,19.5187,儋州市,东坡学校子站,,20,20,18,8,10,38,,,,4,4,5,5,0.5,0.5
2024-06-20T0700,2616A,98.5842,24.428,德宏傣族景颇族自治州,德宏州监测站,,49,49,38,25,19,11,,,,12,11,3,4,0.9,0.9
2024-06-20T0700,3677A,98.5881,24.4368,德宏傣族景颇族自治州,芒市人民政府综合楼,,45,45,40,18,19,15,,,,9,9,6,8,0.7,0.7
2024-06-20T0700,1901A,104.4239,31.1208,德阳市,东山公园,,22,22,28,14,19,42,,,,6,7,2,2,0.5,0.5
2024-06-20T0700,1902A,104.3826,31.1317,德阳市,西小区,,28,22,29,19,21,35,,,,24,15,2,2,0.7,0.6
2024-06-20T0700,1904A,104.3553,31.1091,德阳市,耐火材料厂,,23,23,27,15,19,46,,,,23,13,5,4,0.6,0.6
2024-06-20T0700,3639A,104.4019,31.1244,德阳市,市教育局,,20,20,28,12,18,39,,,,19,12,3,2,0.7,0.6
2024-06-20T0700,1622A,116.3032,37.4674,德州市,儿童乐园,颗粒物(PM10),60,70,61,41,27,136,,,,20,15,11,10,0.8,0.6
2024-06-20T0700,1624A,116.2991,37.4451,德州市,监理站,细颗粒物(PM2.5),67,80,64,48,26,130,,,,26,20,15,14,0.7,0.6
2024-06-20T0700,3066A,116.2721,37.4379,德州市,九衢泉纯净水厂,颗粒物(PM10),69,88,69,39,28,104,,,,36,27,9,9,0.7,0.7
2024-06-20T0700,3371A,116.3728,37.4403,德州市,开发区人民医院,颗粒物(PM10),60,70,67,36,25,133,,,,21,16,13,12,0.7,0.5
2024-06-20T0700,3372A,116.3572,37.4094,德州市,太阳城中学,颗粒物(PM10),71,92,73,41,28,90,,,,40,28,13,11,0.8,0.7
2024-06-20T0700,3511A,116.5652,37.3319,德州市,陵城艺术中心,颗粒物(PM10),64,78,63,34,21,84,,,,32,22,22,11,0.7,0.6
2024-06-20T0700,2621A,99.7056,27.8317,迪庆藏族自治州,迪庆州站,,28,14,15,7,7,87,,,,9,9,8,8,0.4,0.4
2024-06-20T0700,3180A,99.7136,27.8094,迪庆藏族自治州,质量技术监督局,,27,12,15,7,7,86,,,,8,9,8,8,0.3,0.3
2024-06-20T0700,2663A,104.6241,35.5734,定西市,东关小学,,32,30,40,22,21,45,,,,19,10,6,6,0.4,0.3
2024-06-20T0700,2664A,104.6194,35.5934,定西市,供电公司,,39,29,39,27,23,58,,,,13,10,3,5,0.3,0.2
2024-06-20T0700,1389A,113.7547,23.0494,东莞市,莞城梨川,,17,17,21,7,9,31,,,,12,14,7,7,0.6,0.6
2024-06-20T0700,1390A,113.7944,23.0128,东莞市,东城石井,,21,21,22,10,10,8,,,,21,15,3,3,0.5,0.5
2024-06-20T0700,1391A,113.7383,22.9658,东莞市,南城西平,,15,15,21,3,7,34,,,,3,7,3,4,0.5,0.5
2024-06-20T0700,3319A,113.7338,23.0381,东莞市,万江金泰,,26,26,21,12,8,32,,,,8,10,4,4,0.6,0.6
2024-06-20T0700,3626A,113.7533,23.0202,东莞市,南城元岭,,16,16,21,6,8,26,,,,12,11,6,6,0.6,0.6
2024-06-20T0700,3627A,113.7875,23.0457,东莞市,东城主山,,19,19,22,9,9,16,,,,18,12,8,8,0.6,0.6
2024-06-20T0700,1666A,118.6614,37.4309,东营市,市环保局,,30,14,28,7,9,96,,,,11,12,11,10,0.2,0.2
2024-06-20T0700,3036A,118.6904,37.4338,东营市,开发区管委会,,30,16,37,12,9,96,,,,9,11,9,7,0.3,0.4
2024-06-20T0700,3365A,118.5719,37.565,东营市,垦利区民丰路,,29,22,33,3,9,90,,,,10,13,11,12,0.5,0.5
2024-06-20T0700,3498A,118.5055,37.8612,东营市,河口城区,,29,19,35,7,11,91,,,,10,9,9,8,0.5,0.5
2024-06-20T0700,3646A,118.4978,37.4623,东营市,胜利站,,28,12,33,7,8,89,,,,11,15,8,8,0.6,0.4
2024-06-20T0700,3734A,118.35,37.26,东营市,理想之城,,25,22,33,12,10,78,,,,11,11,8,8,0.5,0.4
2024-06-20T0700,1591A,110.0023,39.8129,鄂尔多斯市,综合楼,颗粒物(PM10),60,70,56,27,20,100,,,,37,24,40,16,0.8,0.7
2024-06-20T0700,1592A,109.9486,39.8261,鄂尔多斯市,巴音孟克林场办事处,颗粒物(PM10),57,63,51,27,20,83,,,,31,18,18,12,0.9,0.8
2024-06-20T0700,1593A,109.7736,39.5986,鄂尔多斯市,康泽苑,颗粒物(PM10),53,56,46,36,28,30,,,,45,22,14,13,0.7,0.6
2024-06-20T0700,1594A,109.8119,39.5989,鄂尔多斯市,华泰汽车城,颗粒物(PM10),53,56,45,29,23,24,,,,40,33,10,10,0.7,0.6
2024-06-20T0700,1595A,109.9734,39.7884,鄂尔多斯市,奥林花园,颗粒物(PM10),54,58,48,29,23,52,,,,47,30,9,9,0.8,0.7
2024-06-20T0700,2436A,114.8938,30.3994,鄂州市,市政府,,30,30,30,3,8,43,,,,12,12,1,2,0.5,0.7
2024-06-20T0700,2437A,114.8989,30.3714,鄂州市,赵家坝,,25,25,24,8,9,51,,,,6,11,5,6,0.4,0.8
2024-06-20T0700,3654A,114.8094,30.4089,鄂州市,精准医疗中心,,21,21,14,8,5,48,,,,10,11,9,6,0.3,0.3
2024-06-20T0700,2454A,109.4978,30.2981,恩施土家族苗族自治州,湖北民院,,27,27,28,9,15,20,,,,11,12,5,6,0.7,0.8
2024-06-20T0700,2455A,109.4707,30.2798,恩施土家族苗族自治州,州电力总公司,,18,18,24,12,16,18,,,,17,20,6,7,0.6,0.7
2024-06-20T0700,3549A,109.5061,30.3772,恩施土家族苗族自治州,龙凤新区,,19,19,24,10,15,8,,,,11,13,7,6,0.8,0.8
2024-06-20T0700,2499A,108.3411,21.6158,防城港市,沙万,,20,12,33,8,12,62,,,,7,18,5,7,0.6,0.7
2024-06-20T0700,2500A,108.3514,21.7731,防城港市,防城档案局,,19,10,25,6,12,58,,,,8,7,4,4,0.6,0.7
2024-06-20T0700,2501A,108.3506,21.6414,防城港市,大海花园,,,,29,1,9,62,,,,6,10,5,6,0.5,0.6
2024-06-20T0700,1371A,113.1294,23.0067,佛山市,湾梁,,22,22,26,14,20,34,,,,15,11,8,8,0.5,0.6
2024-06-20T0700,1372A,113.1083,23.0478,佛山市,华材职中,,19,19,20,12,12,38,,,,11,10,7,6,0.4,0.4
2024-06-20T0700,1373A,113.144,23.0453,佛山市,南海气象局,,18,,28,12,14,34,,,,9,11,6,6,0.3,0.3
2024-06-20T0700,1374A,113.2881,22.8094,佛山市,顺德苏岗,,13,13,14,9,10,36,,,,6,6,5,5,0.6,0.6
2024-06-20T0700,1376A,112.8383,22.8678,佛山市,高明孔堂,,18,18,22,9,10,45,,,,6,7,6,6,0.4,0.5
2024-06-20T0700,1377A,112.8836,23.1588,佛山市,三水监测站,,31,31,23,8,14,23,,,,22,16,4,3,0.7,0.7
2024-06-20T0700,1378A,112.867,23.185,佛山市,三水云东海,,25,25,22,16,13,26,,,,25,18,4,4,0.6,0.5
2024-06-20T0700,3625A,113.2544,22.7642,佛山市,容桂街道办,,25,,15,17,11,34,,,,16,13,6,6,0.5,0.4
2024-06-20T0700,1280A,119.3903,26.0543,福州市,鼓山,,,,,,,,,,,,,,,,
2024-06-20T0700,1282A,119.2681,26.0504,福州市,师大,,23,23,27,9,9,14,,,,11,18,4,3,0.4,0.5
2024-06-20T0700,1283A,119.2984,26.1028,福州市,五四北路,,27,27,23,11,12,13,,,,12,14,3,3,0.4,0.4
2024-06-20T0700,1284A,119.2648,26.0768,福州市,杨桥西路,,20,20,27,14,11,15,,,,11,18,4,3,0.4,0.4
2024-06-20T0700,1285A,119.317,26.0746,福州市,紫阳,,27,27,23,15,10,13,,,,8,12,2,2,0.5,0.4
2024-06-20T0700,3048A,119.5799,26.0936,福州市,九龙,,34,34,22,15,7,16,,,,12,7,6,4,0.3,0.3
2024-06-20T0700,3526A,119.5189,25.9664,福州市,吴航,,25,25,15,12,9,14,,,,9,7,4,4,0.4,0.4
2024-06-20T0700,1755A,123.7977,41.8491,抚顺市,望花区,,40,26,41,14,15,127,,,,16,20,8,9,0.4,0.5
2024-06-20T0700,1756A,123.9161,41.8822,抚顺市,顺城区,,32,28,44,14,12,100,,,,32,16,8,9,0.3,0.4
2024-06-20T0700,1757A,124.0436,41.8611,抚顺市,东洲区,,,45,49,22,15,100,,,,29,12,10,9,,0.4
2024-06-20T0700,1758A,123.9247,41.8642,抚顺市,新抚区,,47,47,41,17,18,101,,,,24,15,5,7,0.4,0.4
2024-06-20T0700,1759A,124.0972,41.8961,抚顺市,大伙房水库,,28,22,34,17,12,88,,,,15,8,8,9,0.3,0.3
2024-06-20T0700,1760A,123.7086,41.8391,抚顺市,沈抚新城,,38,38,38,17,16,114,,,,23,19,12,10,0.9,0.5
2024-06-20T0700,2376A,116.2127,28.0814,抚州市,桐源党溪,,44,44,30,19,14,13,,,,2,4,4,5,0.2,0.2
2024-06-20T0700,2377A,116.3544,27.9831,抚州市,市站,,28,28,29,12,14,30,,,,6,9,4,5,0.6,0.5
2024-06-20T0700,2378A,116.3565,27.963,抚州市,血防站,,22,22,29,11,13,29,,,,6,12,4,2,0.5,0.6
2024-06-20T0700,2379A,116.3564,28.0007,抚州市,采茶剧团,,20,20,25,12,13,30,,,,2,7,3,3,0.6,0.7
2024-06-20T0700,2380A,116.385,27.9647,抚州市,医学分院,,30,30,32,13,14,28,,,,6,10,4,4,0.9,0.9
2024-06-20T0700,2207A,121.6094,41.998,阜新市,工业园区,,35,31,53,14,12,110,,,,21,13,14,10,0.6,0.5
2024-06-20T0700,2208A,121.6697,42.0279,阜新市,长青街,,33,24,57,13,17,105,,,,13,13,9,10,0.6,0.6
2024-06-20T0700,2209A,121.6673,42.0705,阜新市,农业园区,,33,28,47,17,15,103,,,,18,16,11,9,0.5,0.4
2024-06-20T0700,2210A,121.6717,42.0224,阜新市,东苑,,32,24,54,13,12,100,,,,18,16,12,11,0.5,0.5
2024-06-20T0700,2211A,121.6506,42.0498,阜新市,玉龙新城,,31,30,36,19,16,98,,,,17,13,13,10,0.3,0.4
2024-06-20T0700,2301A,115.8277,32.8929,阜阳市,市监测站,,43,34,31,30,21,93,,,,17,16,7,8,0.5,0.5
2024-06-20T0700,2303A,115.8554,32.8605,阜阳市,开发区,,36,36,25,23,18,67,,,,20,18,4,5,0.4,0.3
2024-06-20T0700,2875A,115.784,32.8892,阜阳市,阜阳职业技术学院,,41,41,34,24,17,65,,,,29,18,5,6,0.4,0.4
2024-06-20T0700,3468A,115.7901,32.8613,阜阳市,市规划展馆,细颗粒物(PM2.5),67,,40,48,34,72,,,,24,18,3,4,0.4,0.5
2024-06-20T0700,3469A,115.836,32.9183,阜阳市,枣园社区,细颗粒物(PM2.5),53,,38,37,28,60,,,,22,22,2,3,0.7,0.6
2024-06-20T0700,2669A,102.9099,34.9841,甘南藏族自治州,州政府,,30,,20,21,18,45,,,,15,8,7,6,0.8,0.8
2024-06-20T0700,3380A,102.8914,34.9617,甘南藏族自治州,甘肃民族师范学院,,33,26,22,23,14,29,,,,22,13,3,4,0.6,0.6
2024-06-20T0700,2570A,101.9603,30.0475,甘孜藏族自治州,水桥子,,10,,8,7,5,27,,,,15,14,4,3,0.3,0.3
2024-06-20T0700,3065A,101.9533,29.9972,甘孜藏族自治州,州环保局,,13,,10,9,6,36,,,,20,20,2,2,0.2,0.3
2024-06-20T0700,3414A,115.8347,28.932,赣江新区,桑海产业园,,27,27,14,15,11,10,,,,33,21,15,11,0.5,0.4
2024-06-20T0700,2362A,114.9017,25.9149,赣州市,通天岩,,,,,,,,,,,,,,,,
2024-06-20T0700,2363A,114.9367,25.8664,赣州市,地委,,13,13,19,9,9,34,,,,8,8,13,11,0.7,0.8
2024-06-20T0700,2364A,114.9461,25.8481,赣州市,气象台,,11,11,20,7,11,31,,,,6,6,5,6,0.6,0.6
2024-06-20T0700,2365A,114.9322,25.8333,赣州市,市图书馆,,16,16,20,6,9,32,,,,4,6,4,8,0.8,0.8
2024-06-20T0700,2366A,114.8905,25.8471,赣州市,华坚鞋城,,19,19,24,9,9,30,,,,5,7,2,6,0.5,0.5
2024-06-20T0700,3109A,115.0093,25.8613,赣州市,赣县区卫计委,,15,15,22,3,9,35,,,,10,13,7,7,0.5,0.5
2024-06-20T0700,2683A,106.2319,36.1417,固原市,马园,,37,37,33,14,10,25,,,,64,30,5,5,0.9,0.7
2024-06-20T0700,2684A,106.2792,36.0022,固原市,监测站,,35,35,28,19,14,58,,,,26,16,5,5,0.2,0.2
2024-06-20T0700,2685A,106.2375,36.0211,固原市,新区,,26,26,27,14,12,51,,,,15,11,5,5,0.4,0.4
2024-06-20T0700,3522A,106.2177,35.9959,固原市,原州区十五小,,29,29,30,18,16,81,,,,14,11,7,6,0.6,0.5
2024-06-20T0700,2543A,106.6308,30.5278,广安市,小平旧居,,,,,,,,,,,,,,,,
2024-06-20T0700,2544A,106.6303,30.4576,广安市,市委,,32,32,26,19,16,19,,,,16,14,8,8,0.6,0.6
2024-06-20T0700,2545A,106.6271,30.4663,广安市,友谊中学,,20,20,17,13,13,28,,,,18,15,6,6,0.7,0.6
2024-06-20T0700,2547A,106.6388,30.4551,广安市,广电花园,,32,32,26,14,14,20,,,,15,12,10,10,0.6,0.6
2024-06-20T0700,2902A,106.6351,30.4865,广安市,北辰小学,,22,22,23,12,13,16,,,,18,12,11,10,0.6,0.5
2024-06-20T0700,2523A,105.8945,32.4535,广元市,黑石坡,,15,15,14,8,8,12,,,,11,7,16,15,0.6,0.4
2024-06-20T0700,2524A,105.821,32.4444,广元市,老城,,28,28,22,10,9,17,,,,20,20,7,6,0.5,0.5
2024-06-20T0700,2526A,105.8628,32.4287,广元市,监测站,,41,41,22,10,10,25,,,,10,7,5,6,0.6,0.6
2024-06-20T0700,3617A,105.8047,32.4166,广元市,经开区,,30,30,24,19,14,18,,,,20,12,4,4,0.7,0.6
2024-06-20T0700,1345A,113.2347,23.1423,广州市,广雅中学,,23,23,27,9,11,32,,,,21,21,4,4,0.5,0.5
2024-06-20T0700,1346A,113.2612,23.105,广州市,市五中,,22,22,28,9,15,33,,,,20,15,4,4,0.6,0.6
2024-06-20T0700,1348A,113.3478,23.0916,广州市,广东商学院,,21,21,26,8,14,16,,,,35,22,3,3,0.5,0.4
2024-06-20T0700,1349A,113.4332,23.1047,广州市,市八十六中,,23,23,24,11,10,15,,,,36,32,3,3,0.6,0.6
2024-06-20T0700,1350A,113.3505,22.9483,广州市,番禺中学,,24,24,26,8,10,14,,,,32,17,5,6,0.6,0.5
2024-06-20T0700,1351A,113.2146,23.3916,广州市,花都师范,,27,27,30,9,14,22,,,,23,18,5,5,0.5,0.5
2024-06-20T0700,1352A,113.2597,23.1331,广州市,市监测站,,26,26,26,12,12,20,,,,27,18,4,4,0.6,0.5
2024-06-20T0700,1353A,113.5618,23.312,广州市,九龙镇镇龙,,27,27,30,10,13,8,,,,26,24,6,7,0.4,0.4
2024-06-20T0700,1354A,113.2765,23.1544,广州市,麓湖,,27,27,27,11,14,22,,,,21,16,3,3,0.6,0.5
2024-06-20T0700,1355A,113.443,23.3035,广州市,帽峰山森林公园,,16,16,21,8,10,26,,,,21,19,3,2,0.6,0.6
2024-06-20T0700,2846A,113.3221,23.1322,广州市,体育西,,23,23,25,8,14,15,,,,27,19,4,4,0.5,0.5
2024-06-20T0700,3298A,113.5717,23.5491,广州市,从化街口,,30,30,30,18,15,27,,,,17,16,7,7,0.5,0.5
2024-06-20T0700,3299A,113.3472,23.3692,广州市,白云竹料,,24,24,30,10,12,29,,,,20,22,4,4,0.7,0.6
2024-06-20T0700,3300A,113.2981,23.237,广州市,白云嘉禾,,24,24,28,8,11,14,,,,37,26,5,5,0.7,0.7
2024-06-20T0700,3301A,113.4256,23.1716,广州市,黄埔科学城,,22,22,28,7,10,16,,,,29,28,6,7,0.6,0.6
2024-06-20T0700,3302A,113.3942,23.0483,广州市,番禺大学城,,21,21,20,9,9,10,,,,27,18,4,4,0.9,0.9
2024-06-20T0700,3303A,113.4922,22.8168,广州市,南沙黄阁,,17,17,25,7,11,33,,,,8,9,5,5,0.6,0.6
2024-06-20T0700,3304A,113.5342,22.7896,广州市,南沙街,,11,11,22,7,9,23,,,,10,11,6,6,0.5,0.5
2024-06-20T0700,3443A,113.2902,23.5544,广州市,花都梯面,,31,31,29,10,12,33,,,,13,16,4,4,0.6,0.6
2024-06-20T0700,3445A,113.7858,23.7478,广州市,从化良口,,23,23,20,9,9,8,,,,14,12,4,4,0.6,0.6
2024-06-20T0700,3446A,113.8051,23.2614,广州市,增城荔城,,34,34,30,13,12,6,,,,23,19,5,5,0.5,0.5
2024-06-20T0700,2505A,109.568,23.1478,贵港市,德智高中,,,,,,,,,,,,,,,,
2024-06-20T0700,2506A,109.6047,23.0666,贵港市,江南子站,颗粒物(PM10),51,51,46,26,23,24,,,,15,17,9,9,0.8,0.8
2024-06-20T0700,2507A,109.6014,23.0948,贵港市,贵城子站,,29,29,45,17,24,25,,,,12,19,7,9,0.6,0.7
2024-06-20T0700,2508A,109.5669,23.1065,贵港市,荷城子站,,17,17,32,7,12,37,,,,8,16,10,12,0.5,0.6
2024-06-20T0700,3405A,109.5886,23.1172,贵港市,新世纪学校,,27,27,32,13,16,36,,,,8,14,12,13,0.6,0.8
2024-06-20T0700,1439A,106.6899,26.5998,贵阳市,马鞍山,,24,7,12,3,4,75,,,,17,14,5,4,0.4,0.5
2024-06-20T0700,1440A,106.6971,26.5694,贵阳市,市环保站,,25,,20,8,14,78,,,,14,22,4,4,0.3,0.4
2024-06-20T0700,1441A,106.6243,26.6266,贵阳市,鉴湖路,,25,9,14,3,7,80,,,,4,11,3,3,0.4,0.5
2024-06-20T0700,1442A,106.7487,26.6343,贵阳市,燕子冲,,25,6,10,3,7,78,,,,6,10,5,6,0.6,0.7
2024-06-20T0700,1443A,106.6555,26.4365,贵阳市,碧云窝,,29,7,22,3,6,91,,,,5,7,4,4,0.5,0.6
2024-06-20T0700,1444A,106.694,26.5161,贵阳市,中院村,,26,6,18,3,7,82,,,,11,13,4,4,0.4,0.5
2024-06-20T0700,1445A,106.7109,26.6027,贵阳市,红边门,,25,,18,7,18,79,,,,11,19,4,4,0.7,0.7
2024-06-20T0700,1446A,106.7164,26.5699,贵阳市,新华路,,,,16,7,14,,,,,9,15,,4,0.5,0.5
2024-06-20T0700,1447A,106.674,26.5424,贵阳市,太慈桥,,24,6,11,3,7,74,,,,5,10,4,4,0.4,0.5
2024-06-20T0700,1552A,106.805,26.3003,贵阳市,桐木岭,,,,,,,,,,,,,,,,
2024-06-20T0700,1862A,110.4144,25.3167,桂林市,电子科大尧山校区,,25,25,25,7,12,28,,,,5,5,4,6,0.4,0.4
2024-06-20T0700,1863A,110.2819,25.2697,桂林市,监测站,,,,19,,10,,,37,,,14,,5,,1.0
2024-06-20T0700,1864A,110.3089,25.2708,桂林市,龙隐路小学,,26,26,22,14,12,36,,,,6,11,4,4,0.7,0.8
2024-06-20T0700,1865A,110.2869,25.2178,桂林市,八中,,,,21,,7,,,32,,,15,,4,,0.7
2024-06-20T0700,3403A,110.1764,25.2381,桂林市,创业大厦,,17,17,15,9,10,46,,,,6,10,6,6,0.5,0.6
2024-06-20T0700,3531A,110.296,25.1253,桂林市,旅游学院,,11,9,9,7,7,35,,,,6,9,5,6,0.3,0.5
2024-06-20T0700,2674A,100.2561,34.4714,果洛藏族自治州,玛沁县大武镇,,28,17,16,12,11,87,,,,12,13,7,7,0.4,0.4
2024-06-20T0700,1129A,126.5422,45.755,哈尔滨市,岭北,细颗粒物(PM2.5),60,52,63,43,30,23,,,,33,26,9,13,0.4,0.6
2024-06-20T0700,1130A,126.561,45.8167,哈尔滨市,松北商大,,42,42,61,19,28,9,,,,27,30,6,7,0.6,0.6
2024-06-20T0700,1131A,126.979,45.5419,哈尔滨市,阿城会宁,,30,30,53,21,22,54,,,,44,32,7,10,0.5,0.6
2024-06-20T0700,1132A,126.599,45.7222,哈尔滨市,南岗学府路,颗粒物(PM10),58,65,75,26,23,8,,,,42,27,9,10,0.5,0.5
2024-06-20T0700,1133A,126.689,45.7733,哈尔滨市,太平宏伟公园,颗粒物(PM10),55,59,73,32,28,7,,,,43,30,6,7,0.5,0.6
2024-06-20T0700,1134A,126.635,45.7667,哈尔滨市,道外承德广场,颗粒物(PM10),64,77,77,3,31,11,,,,45,36,7,8,0.6,0.6
2024-06-20T0700,1135A,126.685,45.7319,哈尔滨市,香坊红旗大街,,,53,82,48,35,,,,,30,30,2,7,0.7,0.6
2024-06-20T0700,1136A,126.6411,45.7258,哈尔滨市,动力和平路,颗粒物(PM10),61,71,76,21,32,8,,,,48,31,6,9,0.6,0.6
2024-06-20T0700,1137A,126.593,45.7478,哈尔滨市,道里建国路,颗粒物(PM10),59,67,73,29,33,10,,,,58,35,10,13,3.8,1
2024-06-20T0700,1138A,126.615,45.61,哈尔滨市,平房东轻厂,,,,59,11,20,58,,,,42,22,9,10,0.4,0.5
2024-06-20T0700,1139A,126.595,45.9855,哈尔滨市,呼兰师专,,27,27,67,12,32,48,,,,27,28,7,8,0.5,0.7
2024-06-20T0700,1140A,126.6206,45.6842,哈尔滨市,省农科院,颗粒物(PM10),62,74,95,34,37,8,,,,56,36,4,7,0.5,0.5
2024-06-20T0700,2688A,93.5128,42.8172,哈密市,地区监测站,,34,25,39,9,12,106,,,,6,8,3,4,0.2,0.3
2024-06-20T0700,2689A,93.4961,42.8328,哈密市,哈密师范学校,,37,37,35,14,10,110,,,,11,8,4,5,0.2,0.3
2024-06-20T0700,2671A,100.9048,36.9639,海北藏族自治州,海晏县西海镇,,38,33,47,26,24,109,,,,11,9,12,15,0.5,0.5
2024-06-20T0700,3867A,102.0738,36.5056,海东市,平安区公安北苑,,36,36,52,24,26,92,,,,17,13,18,14,0.4,0.5
2024-06-20T0700,1409A,110.576,19.9507,海口市,东寨港,,,,,,,,,,,,,,,,
2024-06-20T0700,1410A,110.3232,20.0574,海口市,海南大学,,28,28,24,13,14,61,,,,6,6,5,5,0.4,0.4
2024-06-20T0700,1411A,110.283,20.0053,海口市,秀英海南医院,,20,20,25,8,15,45,,,,12,8,6,6,0.3,0.3
2024-06-20T0700,1412A,110.338,19.9969,海口市,海南师范大学,,22,22,22,13,13,50,,,,6,5,7,6,0.4,0.4
2024-06-20T0700,1413A,110.33,20.0356,海口市,龙华路环保局宿舍,,22,18,27,15,16,55,,,,6,7,7,7,0.2,0.3
2024-06-20T0700,3539A,110.5111,19.9736,海口市,桂林洋子站,,22,22,22,10,13,48,,,,4,3,6,6,0.3,0.3
2024-06-20T0700,2673A,100.6188,36.2866,海南藏族自治州,共和县恰卜恰镇,,35,19,26,16,16,112,,,,15,9,12,14,0.6,0.5
2024-06-20T0700,2676A,97.3731,37.3753,海西蒙古族藏族自治州,德令哈市,,36,27,81,21,22,113,,,,6,7,11,11,0.5,0.5
2024-06-20T0700,1048A,114.5302,36.6116,邯郸市,东污水处理厂,细颗粒物(PM2.5),64,76,57,46,29,108,,,,22,15,3,3,0.5,0.4
2024-06-20T0700,1049A,114.4918,36.5713,邯郸市,矿院,细颗粒物(PM2.5),67,66,42,48,23,83,,,,29,16,6,5,0.5,0.5
2024-06-20T0700,1050A,114.484,36.6133,邯郸市,丛台公园,颗粒物(PM10),59,68,44,39,24,105,,,,14,7,5,4,0.4,0.4
2024-06-20T0700,3458A,114.7895,36.5593,邯郸市,香泉濮院小区,颗粒物(PM10),75,100,61,42,23,107,,,,21,12,5,4,0.4,0.3
2024-06-20T0700,3579A,114.50634,36.77178,邯郸市,永年区实验高中,颗粒物(PM10),76,101,64,55,31,91,,,,30,10,4,4,0.9,0.6
2024-06-20T0700,3580A,114.20016,36.44293,邯郸市,峰峰矿区临水派出所,颗粒物(PM10),55,60,51,21,19,136,,,,11,8,8,6,0.9,0.4
2024-06-20T0700,2634A,106.9893,33.1842,汉中市,汉川机床厂子校,,16,13,22,11,22,26,,,,14,10,3,4,0.4,0.4
2024-06-20T0700,2635A,107.0154,33.0706,汉中市,市监测站,,18,,30,11,15,57,,,,6,10,7,7,0.6,0.8
2024-06-20T0700,2636A,107.0089,33.1138,汉中市,鑫源开发区,,21,21,26,10,13,46,,,,13,10,10,8,0.6,0.5
2024-06-20T0700,2637A,107.007,33.0323,汉中市,南郑大河坎水厂,,25,25,31,14,17,24,,,,14,10,8,8,0.7,0.7
2024-06-20T0700,1223A,120.2072,30.2111,杭州市,滨江,,11,,17,6,10,6,,,,21,22,3,4,0.8,0.6
2024-06-20T0700,1224A,120.0633,30.2747,杭州市,西溪,,10,10,14,6,8,4,,,,19,21,6,6,0.6,0.6
2024-06-20T0700,1226A,120.3461,30.3153,杭州市,下沙,,17,17,23,3,11,17,,,,17,34,5,5,0.6,0.5
2024-06-20T0700,1227A,120.1269,30.2456,杭州市,卧龙桥,,11,11,14,3,10,11,,,,13,19,4,4,0.7,0.6
2024-06-20T0700,1228A,120.1903,30.2692,杭州市,浙江农大,,10,8,12,6,10,12,,,,19,24,6,6,0.7,0.6
2024-06-20T0700,1230A,120.1197,30.3119,杭州市,和睦小学,,10,6,13,3,8,10,,,,20,21,3,4,0.6,0.6
2024-06-20T0700,1231A,120.3019,30.4183,杭州市,临平镇,,11,6,24,3,15,12,,,,21,34,4,4,0.6,0.6
2024-06-20T0700,1232A,120.2697,30.1819,杭州市,城厢镇,,10,9,17,6,10,9,,,,20,23,4,5,0.8,0.7
2024-06-20T0700,1233A,120.0883,30.1808,杭州市,云栖,,8,7,17,3,8,3,,,,13,25,6,6,0.7,0.6
2024-06-20T0700,3557A,119.9464,30.0494,杭州市,镇二中,,20,14,12,14,8,12,,,,22,28,6,6,0.9,0.8
2024-06-20T0700,3558A,119.7183,30.2367,杭州市,市府大楼,,11,11,10,6,9,12,,,,19,23,6,6,0.6,0.7
2024-06-20T0700,3656A,120.1556,30.2864,杭州市,消防大队,,9,,16,6,12,14,,,,17,21,5,6,0.9,0.8
2024-06-20T0700,1270A,117.1959,31.7848,合肥市,明珠广场,,36,36,21,24,17,45,,,,24,28,6,6,0.5,0.5
2024-06-20T0700,1271A,117.3072,31.8764,合肥市,三里街,,42,36,23,29,14,76,,,,18,22,4,6,0.4,0.5
2024-06-20T0700,1272A,117.2588,31.8707,合肥市,琥珀山庄,,36,36,22,24,10,72,,,,14,16,4,4,0.8,0.8
2024-06-20T0700,1273A,117.1604,31.9052,合肥市,董铺水库,,42,39,16,29,11,69,,,,12,14,3,3,0.4,0.5
2024-06-20T0700,1274A,117.25,31.8571,合肥市,长江中路,,40,39,24,28,18,72,,,,14,18,5,5,0.8,0.7
2024-06-20T0700,1275A,117.266,31.9436,合肥市,庐阳区,,42,34,25,29,19,84,,,,20,21,8,8,0.4,0.4
2024-06-20T0700,1276A,117.336,31.8586,合肥市,瑶海区,,39,39,21,27,14,78,,,,24,20,9,8,0.5,0.5
2024-06-20T0700,1277A,117.3027,31.7964,合肥市,包河区,,39,31,15,27,11,55,,,,40,35,6,5,0.6,0.6
2024-06-20T0700,1278A,117.2776,31.7385,合肥市,滨湖新区,,36,36,16,22,14,47,,,,33,18,7,7,0.6,0.6
2024-06-20T0700,1279A,117.1318,31.8403,合肥市,高新区,,30,24,17,21,13,84,,,,12,17,7,7,0.6,0.7
2024-06-20T0700,3464A,117.3803,31.9147,合肥市,高教基地,,42,37,18,29,16,49,,,,11,11,6,6,0.5,0.5
2024-06-20T0700,3614A,79.924,37.0877,和田地区,地区环保局,颗粒物(PM10),77,104,120,20,26,106,,,,5,4,6,6,0.4,0.5
2024-06-20T0700,3615A,79.9131,37.113,和田地区,市环保局,颗粒物(PM10),57,64,109,14,29,100,,,,9,9,6,6,0.4,0.4
2024-06-20T0700,2516A,108.2011,24.715,河池市,东仁乐园,细颗粒物(PM2.5),55,,37,39,19,40,,,,5,5,15,7,0.7,0.7
2024-06-20T0700,2517A,108.0497,24.6947,河池市,市环保站,,25,25,23,12,13,40,,,,6,8,15,9,0.5,0.5
2024-06-20T0700,2518A,108.0983,24.6989,河池市,市疾控中心,,23,23,23,16,14,34,,,,14,10,9,8,0.5,0.5
2024-06-20T0700,1696A,114.6778,23.7569,河源市,源西,,29,29,18,8,17,14,,,,16,15,4,4,0.5,0.5
2024-06-20T0700,1697A,114.6944,23.7586,河源市,东埔,,20,20,29,6,9,17,,,,14,14,6,6,0.5,0.6
2024-06-20T0700,1698A,114.6892,23.7233,河源市,老城,,22,22,19,6,6,12,,,,12,11,5,5,0.5,0.4
2024-06-20T0700,1718A,115.4208,35.2464,菏泽市,气象局,颗粒物(PM10),69,88,66,42,29,102,,,,25,19,6,6,0.4,0.3
2024-06-20T0700,1719A,115.4747,35.2375,菏泽市,市政协,颗粒物(PM10),71,91,62,50,32,90,,,,23,14,6,6,0.3,0.2
2024-06-20T0700,3374A,115.5564,35.0891,菏泽市,定陶老年大学,颗粒物(PM10),67,83,54,46,24,76,,,,29,18,7,6,0.3,0.2
2024-06-20T0700,3647A,115.4702,35.2706,菏泽市,菏泽医专,细颗粒物(PM2.5),72,86,67,52,26,81,,,,28,19,6,4,0.4,0.2
2024-06-20T0700,2514A,111.5264,24.4172,贺州市,环保小区,,32,32,23,12,12,12,,,,18,13,8,8,0.7,0.7
2024-06-20T0700,2515A,111.5608,24.4078,贺州市,政协大楼,,30,30,27,14,13,19,,,,17,15,9,8,0.6,0.5
2024-06-20T0700,3534A,111.4744,24.4553,贺州市,西湾,,22,22,20,12,9,16,,,,17,16,9,8,0.6,0.6
2024-06-20T0700,2385A,114.17,35.9019,鹤壁市,市监测站,颗粒物(PM10),68,86,49,41,24,71,,,,24,12,9,8,0.9,0.6
2024-06-20T0700,2386A,114.2956,35.7511,鹤壁市,市交警支队,颗粒物(PM10),75,99,59,52,32,88,,,,28,19,13,9,0.6,0.5
2024-06-20T0700,2387A,114.2878,35.7306,鹤壁市,迎宾馆,颗粒物(PM10),75,99,57,49,33,82,,,,37,26,11,9,0.6,0.5
2024-06-20T0700,3474A,114.2617,35.6822,鹤壁市,大新区,细颗粒物(PM2.5),65,73,54,47,26,59,,,,41,28,6,7,0.7,0.6
2024-06-20T0700,3596A,114.1572,35.9603,鹤壁市,南山宾馆,颗粒物(PM10),55,60,44,35,29,98,,,,15,7,7,8,0.6,0.6
2024-06-20T0700,2244A,130.2537,47.3416,鹤岗市,哈啤分公司,,13,13,24,3,11,25,,,,3,13,13,14,0.4,0.4
2024-06-20T0700,2245A,130.2684,47.3086,鹤岗市,斯达机电,,15,12,15,10,8,22,,,,12,14,12,12,0.3,0.3
2024-06-20T0700,2246A,130.3114,47.3388,鹤岗市,东山纸板厂,,7,6,10,3,6,21,,,,6,14,17,16,0.4,0.4
2024-06-20T0700,2247A,130.1097,47.3382,鹤岗市,五号水库,,11,10,15,6,6,33,,,,4,8,9,9,0.4,0.4
2024-06-20T0700,2263A,127.4833,50.2524,黑河市,交通局,,18,18,24,11,14,29,,,,8,6,8,7,0.3,0.3
2024-06-20T0700,2264A,127.5144,50.2341,黑河市,环保局,,20,,17,14,17,30,,,,4,5,3,5,0.2,0.2
2024-06-20T0700,2265A,127.5291,50.2472,黑河市,大黑河岛,,,,18,10,11,55,,,,7,9,4,7,,
2024-06-20T0700,1074A,115.6838,37.7541,衡水市,电机北厂,颗粒物(PM10),71,92,69,31,25,151,,,,14,11,12,7,0.5,0.4
2024-06-20T0700,1075A,115.6303,37.7316,衡水市,市监测站,颗粒物(PM10),64,77,56,23,22,136,,,,18,14,8,5,0.8,0.6
2024-06-20T0700,3188A,115.6683,37.7217,衡水市,市城管局,颗粒物(PM10),61,72,59,40,25,142,,,,18,15,12,8,0.5,0.5
2024-06-20T0700,3459A,115.5989,37.5491,衡水市,地表水厂,颗粒物(PM10),72,93,69,36,23,114,,,,25,18,10,8,0.5,0.4
2024-06-20T0700,2456A,112.5003,26.9167,衡阳市,原169医院,,32,32,19,12,10,22,,,,18,13,10,6,1.0,0.8
2024-06-20T0700,2457A,112.6194,26.9258,衡阳市,衡阳化工总厂,,,27,22,,8,38,,,,8,7,8,7,0.6,0.5
2024-06-20T0700,2458A,112.6211,26.8956,衡阳市,珠晖区环保局,,25,25,19,12,9,48,,,,5,4,8,6,0.7,0.7
2024-06-20T0700,2459A,112.6197,26.8733,衡阳市,市委党校,,25,25,20,12,12,46,,,,9,8,10,8,0.6,0.5
2024-06-20T0700,2460A,112.6006,26.8919,衡阳市,市监测站,,21,21,18,12,11,45,,,,6,6,9,9,0.6,0.5
2024-06-20T0700,2461A,112.5664,26.9056,衡阳市,真空机电公司,,32,32,28,16,10,33,,,,12,8,9,11,0.9,0.9
2024-06-20T0700,3399A,112.6703,26.882,衡阳市,师范学院,,25,25,21,11,11,44,,,,9,8,11,10,0.7,0.6
2024-06-20T0700,2608A,103.3772,23.3993,红河哈尼族彝族自治州,污水处理厂,,32,23,29,22,17,50,,,,10,6,8,5,0.4,0.4
2024-06-20T0700,2609A,103.3861,23.35,红河哈尼族彝族自治州,监测站,,23,23,25,13,15,48,,,,10,7,12,8,0.5,0.5
2024-06-20T0700,3038A,103.3758,23.368,红河哈尼族彝族自治州,州图书馆,,19,19,27,6,11,54,,,,5,5,2,3,0.4,0.4
2024-06-20T0700,1090A,111.6507,40.7517,呼和浩特市,呼市一监,,39,39,36,20,19,78,,,,21,23,8,7,0.6,0.6
2024-06-20T0700,1091A,111.6572,40.8033,呼和浩特市,小召,,29,29,37,20,19,91,,,,19,28,7,8,0.4,0.5
2024-06-20T0700,1094A,111.7516,40.8369,呼和浩特市,如意水处理厂,,46,46,38,21,17,72,,,,21,28,8,6,0.6,0.5
2024-06-20T0700,1095A,111.7276,40.8062,呼和浩特市,二十九中,,39,39,42,26,20,80,,,,23,33,4,4,0.5,0.4
2024-06-20T0700,1096A,111.5512,40.7866,呼和浩特市,工大金川校区,,26,26,44,12,22,83,,,,32,37,5,8,0.4,0.5
2024-06-20T0700,1097A,111.717,40.7612,呼和浩特市,化肥厂生活区,,50,50,46,22,18,69,,,,28,29,12,11,0.7,0.7
2024-06-20T0700,3698A,111.5968,40.8178,呼和浩特市,红旗小学,,32,17,37,12,21,100,,,,22,30,4,5,0.3,0.4
2024-06-20T0700,3699A,111.6518,40.8389,呼和浩特市,海东办,,27,27,37,18,20,76,,,,25,31,6,8,0.4,0.4
2024-06-20T0700,2192A,119.7594,49.2261,呼伦贝尔市,区环保局,,29,24,29,20,16,54,,,,9,10,4,6,0.4,0.4
2024-06-20T0700,3061A,119.7512,49.1577,呼伦贝尔市,国华电力东,,19,18,18,11,11,59,,,,5,5,3,4,0.3,0.4
2024-06-20T0700,1250A,120.0751,30.8669,湖州市,城西水厂,,15,6,22,3,12,10,,,,29,26,3,3,0.5,0.5
2024-06-20T0700,2873A,120.0875,30.8955,湖州市,仁皇山新区,,15,6,20,3,16,4,,,,29,29,5,5,0.7,0.7
2024-06-20T0700,2907A,120.1844,30.8596,湖州市,吴兴区站,,13,8,21,3,18,4,,,,25,28,6,6,0.6,0.6
2024-06-20T0700,3562A,120.4148,30.8538,湖州市,南浔区站,,9,6,16,3,15,11,,,,18,20,2,2,0.6,0.5
2024-06-20T0700,1607A,120.9092,40.7136,葫芦岛市,龙港区,,31,21,24,12,11,99,,,,12,12,6,6,0.3,0.3
2024-06-20T0700,1608A,120.8392,40.7514,葫芦岛市,化工街,,29,24,28,9,8,92,,,,13,11,12,13,0.6,0.6
2024-06-20T0700,1609A,120.8341,40.7073,葫芦岛市,新区,,30,23,27,16,11,95,,,,18,12,5,6,0.5,0.4
2024-06-20T0700,1610A,120.8695,40.7677,葫芦岛市,东城区,,30,27,39,13,11,96,,,,18,11,8,7,0.6,0.5
2024-06-20T0700,2482A,109.5981,27.5721,怀化市,林科所,,28,28,18,13,9,26,,,,5,4,6,12,0.7,0.7
2024-06-20T0700,2483A,109.9453,27.5444,怀化市,河西地税局,,28,28,21,14,12,3,,,,14,11,10,12,0.8,0.8
2024-06-20T0700,2484A,109.9781,27.5342,怀化市,市四医院,,23,16,21,16,16,12,,,,8,8,5,7,1.0,0.9
2024-06-20T0700,2485A,109.9972,27.5578,怀化市,监测楼,,28,28,21,16,13,11,,,,8,6,5,5,0.7,0.7
2024-06-20T0700,2486A,110.0394,27.583,怀化市,市委党校,,23,23,16,9,12,12,,,,5,7,6,8,0.6,0.6
2024-06-20T0700,1210A,119.036,33.5981,淮安市,钵池山,,30,27,26,21,21,87,,,,12,13,6,6,0.7,0.5
2024-06-20T0700,1211A,119.007,33.575,淮安市,北京南路,,38,36,29,26,23,84,,,,8,10,6,6,0.6,0.5
2024-06-20T0700,1212A,118.989,33.6067,淮安市,市监测站,,35,,31,24,18,89,,,,7,11,6,6,0.7,0.6
2024-06-20T0700,1213A,119.135,33.5039,淮安市,楚州区监测站,,28,22,35,19,28,84,,,,14,15,4,5,0.5,0.5
2024-06-20T0700,1214A,119.0186,33.6297,淮安市,淮阴区监测站,,30,29,31,21,24,85,,,,12,14,6,6,0.6,0.4
2024-06-20T0700,3426A,118.8755,33.2894,淮安市,新华书店,,27,19,30,15,21,85,,,,8,12,6,6,0.4,0.5
2024-06-20T0700,2282A,116.8004,33.975,淮北市,监测站,颗粒物(PM10),53,56,61,26,34,52,,,,12,10,5,6,0.7,0.5
2024-06-20T0700,2283A,116.8091,33.9007,淮北市,烈山区政府,,48,48,59,23,26,45,,,,11,11,4,5,0.6,0.6
2024-06-20T0700,3330A,116.8873,33.9836,淮北市,杜集区检察院,颗粒物(PM10),57,64,63,38,37,47,,,,14,10,5,7,0.4,0.4
2024-06-20T0700,4017A,116.7923,33.9535,淮北市,市博物馆,,47,47,54,28,33,55,,,,9,8,3,5,0.6,0.6
2024-06-20T0700,2277A,116.8305,32.7727,淮南市,潘集区政府,细颗粒物(PM2.5),67,52,40,48,28,53,,,,23,14,10,8,0.5,0.4
2024-06-20T0700,2278A,117.0067,32.6524,淮南市,师范学院,细颗粒物(PM2.5),60,68,40,43,29,35,,,,21,12,10,10,0.3,0.3
2024-06-20T0700,2279A,116.8569,32.5951,淮南市,谢家集区政府,颗粒物(PM10),54,57,25,23,10,54,,,,14,13,6,6,0.3,0.3
2024-06-20T0700,2280A,116.8281,32.633,淮南市,八公山区政府,,,,35,56,24,41,,,,12,9,3,2,0.5,0.4
2024-06-20T0700,2281A,116.6325,32.6201,淮南市,焦岗湖风景区管理处,,49,49,25,8,9,11,,,,29,15,6,8,0.4,0.3
2024-06-20T0700,2894A,117.0566,32.6531,淮南市,经济技术开发区消防队,,38,38,31,23,14,54,,,,31,14,4,4,0.4,0.4
2024-06-20T0700,3329A,117.0108,32.5893,淮南市,山南新区,,40,40,29,20,16,50,,,,16,11,8,7,0.6,0.5
2024-06-20T0700,2446A,114.9028,30.4742,黄冈市,职工中心,,29,20,17,20,12,54,,,,3,9,6,6,0.3,0.5
2024-06-20T0700,2929A,114.8858,30.4519,黄冈市,红卫路,,27,27,20,17,13,64,,,,12,12,7,7,0.4,0.6
2024-06-20T0700,3398A,114.9136,30.4445,黄冈市,市林业局,,28,21,19,19,17,58,,,,8,10,5,12,0.4,0.6
2024-06-20T0700,2672A,102.0199,35.5102,黄南藏族自治州,同仁县隆务镇,,19,19,35,9,11,55,,,,1,2,13,12,0.7,0.7
2024-06-20T0700,2295A,118.2903,29.6963,黄山市,延安路89号,,,,25,,5,,,28,,,8,,5,,0.6
2024-06-20T0700,2296A,118.327,29.7178,黄山市,黄山东路89号,,15,,5,3,5,46,,,,6,6,5,5,0.4,0.4
2024-06-20T0700,2297A,118.1371,30.2756,黄山市,黄山区政府5号楼,,15,15,8,9,6,19,,,,5,6,6,6,0.4,0.4
2024-06-20T0700,2423A,115.0601,30.2313,黄石市,沈家营,,44,44,35,8,8,23,,,,10,14,6,7,0.6,0.5
2024-06-20T0700,2424A,115.0817,30.2006,黄石市,陈家湾,,40,40,40,14,9,32,,,,7,7,4,5,0.9,0.6
2024-06-20T0700,2426A,114.8988,30.2019,黄石市,铁山,,30,30,21,17,8,22,,,,26,15,8,9,0.4,0.4
2024-06-20T0700,2427A,115.0307,30.2092,黄石市,团城山,,41,41,27,13,5,31,,,,8,6,7,6,0.7,0.6
2024-06-20T0700,3149A,115.0235,30.1578,黄石市,笔架山北路,,40,40,40,6,4,98,,,,4,7,6,5,0.8,0.8
2024-06-20T0700,1392A,114.4183,23.0528,惠州市,河南岸金山湖子站,,13,13,16,6,8,17,,,,7,6,4,4,0.4,0.3
2024-06-20T0700,1393A,114.4053,23.0822,惠州市,下埔横江三路子站,,20,20,17,10,8,19,,,,14,9,5,6,0.6,0.5
2024-06-20T0700,1394A,114.4103,23.1142,惠州市,江北云山西路子站,,19,19,17,7,6,13,,,,15,6,8,8,0.6,0.5
2024-06-20T0700,1395A,114.4645,22.7833,惠州市,惠阳区承修路船湖子站,,12,12,13,6,8,27,,,,10,8,1,1,0.5,0.5
2024-06-20T0700,1396A,114.5317,22.7422,惠州市,大亚湾管委会子站,,15,15,14,6,6,18,,,,24,8,4,4,0.9,0.7
2024-06-20T0700,3314A,114.4338,22.8134,惠州市,惠阳秋长,,17,17,24,10,6,15,,,,14,8,4,4,0.7,0.5
2024-06-20T0700,3452A,114.6517,22.775,惠州市,大亚湾霞涌,,28,,13,19,5,27,,,,7,5,3,3,0.4,0.5
2024-06-20T0700,2240A,130.9762,45.3001,鸡西市,环保局,,25,25,30,16,11,52,,,,9,9,7,8,0.4,0.4
2024-06-20T0700,2243A,130.9429,45.3039,鸡西市,第一中学,,28,28,28,18,13,56,,,,4,5,8,8,0.4,0.3
2024-06-20T0700,3707A,131.0207,45.3073,鸡西市,欧美日汽修厂,,37,37,32,21,12,46,,,,16,9,6,6,0.6,0.5
2024-06-20T0700,3709A,130.9967,45.3106,鸡西市,市政设施管理处,,26,26,32,18,10,48,,,,12,13,7,7,0.4,0.4
2024-06-20T0700,2367A,114.9754,27.0803,吉安市,红声器材厂,,26,26,30,16,14,58,,,,17,14,11,10,0.4,0.4
2024-06-20T0700,2368A,114.9658,27.0999,吉安市,市森林工业局,,26,26,30,13,16,57,,,,10,12,14,11,0.3,0.5
2024-06-20T0700,2369A,114.99,27.1312,吉安市,市环境监测站,,30,30,32,14,14,58,,,,9,9,11,11,0.5,0.6
2024-06-20T0700,2370A,115.0093,27.0968,吉安市,青原区法院,,23,23,28,14,14,57,,,,10,12,16,15,0.4,0.4
2024-06-20T0700,1772A,126.54,43.8622,吉林市,哈达湾,,43,23,34,10,21,135,,,,16,21,5,5,0.5,0.6
2024-06-20T0700,1773A,126.5844,43.8358,吉林市,东局子,,40,31,40,14,22,128,,,,22,26,5,5,0.5,0.6
2024-06-20T0700,1774A,126.5052,43.8245,吉林市,电力学院,,36,36,50,13,21,101,,,,40,34,10,10,0.5,0.6
2024-06-20T0700,1775A,126.6133,43.8972,吉林市,江北,,42,28,48,12,21,132,,,,15,23,7,8,0.6,0.6
2024-06-20T0700,1776A,126.555,43.8306,吉林市,江南公园,颗粒物(PM10),55,59,42,38,24,131,,,,21,24,5,4,0.5,0.6
2024-06-20T0700,1778A,126.7061,43.7133,吉林市,丰满,,,,,,,,,,,,,,,,
2024-06-20T0700,2868A,126.4739,43.953,吉林市,九站,,45,30,43,12,18,143,,,,17,24,7,8,0.6,0.6
2024-06-20T0700,1299A,116.9862,36.6114,济南市,科干所,,34,34,42,20,20,100,,,,13,15,8,9,0.4,0.4
2024-06-20T0700,1300A,116.9376,36.665,济南市,农科所,颗粒物(PM10),51,51,49,12,15,82,,,,26,20,8,9,0.5,0.5
2024-06-20T0700,1301A,117.1265,36.6734,济南市,开发区,,40,39,42,10,15,128,,,,17,15,8,9,0.5,0.5
2024-06-20T0700,1303A,117.0624,36.6868,济南市,省种子仓库,颗粒物(PM10),51,51,51,14,24,116,,,,14,20,7,8,0.6,0.6
2024-06-20T0700,1304A,116.9489,36.6447,济南市,机床二厂,,49,49,50,10,15,93,,,,17,18,10,10,0.4,0.4
2024-06-20T0700,1305A,117.0495,36.663,济南市,市监测站,,40,39,46,20,26,125,,,,19,20,12,13,0.5,0.4
2024-06-20T0700,1306A,116.7675,36.5484,济南市,长清党校,,32,32,46,10,22,93,,,,11,13,8,10,0.6,0.6
2024-06-20T0700,1616A,117.6795,36.229,济南市,技术学院,,19,19,37,7,15,58,,,,18,18,8,11,0.7,0.7
2024-06-20T0700,1961A,117.532,36.6868,济南市,东山小学,,32,32,43,12,14,82,,,,23,17,9,9,0.7,0.6
2024-06-20T0700,3059A,117.7161,36.2049,济南市,泰兴公司,,22,22,36,3,15,39,,,,27,14,8,11,0.5,0.6
2024-06-20T0700,3064A,117.6867,36.2171,济南市,莱芜战役纪念馆,,22,22,39,7,12,50,,,,21,18,9,11,0.6,0.7
2024-06-20T0700,3494A,117.1673,36.9782,济南市,济阳区政府,颗粒物(PM10),57,63,71,17,20,73,,,,35,24,8,9,0.4,0.4
2024-06-20T0700,3495A,117.1171,36.63,济南市,锦屏中学,,43,39,41,20,17,137,,,,15,15,10,11,0.6,0.6
2024-06-20T0700,3682A,116.9814,36.6819,济南市,济南四建,,,34,40,17,21,,,,,,12,,9,,0.6
2024-06-20T0700,1653A,116.6251,35.4302,济宁市,火炬城,,32,32,54,14,24,55,,,,16,17,10,12,0.6,0.7
2024-06-20T0700,1655A,116.5491,35.4042,济宁市,电化厂,,37,37,53,22,25,63,,,,13,15,9,9,0.5,0.5
2024-06-20T0700,3500A,116.5814,35.3707,济宁市,北湖一中,,26,26,45,9,23,48,,,,21,18,9,10,0.5,0.6
2024-06-20T0700,3501A,116.8249,35.5593,济宁市,服务中心,,26,22,49,18,22,45,,,,19,16,4,6,0.4,0.4
2024-06-20T0700,3678A,116.5907,35.4054,济宁市,市第七中学,,28,28,48,17,21,55,,,,16,16,7,8,0.6,0.6
2024-06-20T0700,2255A,130.2751,46.8028,佳木斯市,佳纺,,29,24,29,20,20,47,,,,18,20,5,5,0.5,0.5
2024-06-20T0700,2256A,130.3995,46.8307,佳木斯市,发电厂,,,17,24,16,16,,,,,11,13,5,4,0.5,0.5
2024-06-20T0700,2257A,130.3258,46.7975,佳木斯市,环保局,,40,28,28,28,18,43,,,,26,23,5,6,0.6,0.6
2024-06-20T0700,2258A,130.3648,46.8032,佳木斯市,十一中,,39,,23,27,19,64,,,,12,21,6,6,0.5,0.5
2024-06-20T0700,2259A,130.3794,46.7588,佳木斯市,四丰,,25,21,18,17,14,28,,,,26,16,1,1,0.8,0.7
2024-06-20T0700,1252A,120.7436,30.778,嘉兴市,清河小学,,11,6,18,3,8,33,,,,19,19,4,4,1.0,0.9
2024-06-20T0700,1253A,120.726,30.7478,嘉兴市,嘉兴学院,,11,10,15,6,11,12,,,,22,19,3,3,0.6,0.5
2024-06-20T0700,2872A,120.7846,30.7525,嘉兴市,南湖区残联,,9,7,16,3,12,22,,,,18,15,5,5,0.5,0.5
2024-06-20T0700,3407A,120.6916,30.7739,嘉兴市,秀洲住建,,13,13,18,3,8,12,,,,17,17,5,4,0.8,0.7
2024-06-20T0700,1945A,98.2908,39.7711,嘉峪关市,气象局,,37,6,25,3,6,116,,,,5,9,2,11,0.1,0.1
2024-06-20T0700,2884A,98.2672,39.7978,嘉峪关市,酒钢宾馆,,37,12,27,9,8,118,,,,6,9,22,19,0.3,0.3
2024-06-20T0700,3248A,98.2643,39.7724,嘉峪关市,雄关区,,35,13,25,13,12,109,,,,12,11,8,9,0.5,0.4
2024-06-20T0700,1383A,113.1064,22.6058,江门市,北街,,19,19,22,10,9,34,,,,8,7,2,2,0.5,0.5
2024-06-20T0700,1384A,113.0731,22.5835,江门市,西区,,18,18,29,6,10,39,,,,11,8,6,6,0.5,0.4
2024-06-20T0700,1385A,113.0219,22.5311,江门市,圭峰西,,16,16,22,3,9,34,,,,9,5,2,2,0.6,0.4
2024-06-20T0700,1386A,113.0828,22.5947,江门市,东湖,,21,21,22,8,11,40,,,,10,8,6,6,0.4,0.4
2024-06-20T0700,3311A,113.1075,22.5647,江门市,江海富民,,30,30,38,19,13,32,,,,17,8,5,5,0.6,0.5
2024-06-20T0700,3449A,113.05,22.4667,江门市,新会银湖,,31,31,24,3,5,27,,,,9,4,3,4,0.5,0.5
2024-06-20T0700,1828A,113.227,35.2125,焦作市,市环保局,颗粒物(PM10),62,74,57,36,30,84,,,,24,12,10,3,0.5,0.3
2024-06-20T0700,1830A,113.1992,35.2590,焦作市,影视城,,,,,,,,,,,,,,,,
2024-06-20T0700,3169A,113.2725,35.2067,焦作市,太极体育中心,颗粒物(PM10),63,76,68,35,29,85,,,,28,14,6,5,0.5,0.4
2024-06-20T0700,3335A,113.3137,35.2641,焦作市,马村街道办,颗粒物(PM10),58,66,55,28,29,100,,,,22,13,4,3,0.8,0.5
2024-06-20T0700,3336A,113.2465,35.2373,焦作市,焦作技师学院,颗粒物(PM10),59,68,53,34,27,88,,,,24,12,3,2,0.8,0.6
2024-06-20T0700,3477A,113.1656,35.2539,焦作市,中站许衡医院,细颗粒物(PM2.5),57,45,45,40,30,109,,,,24,14,7,6,0.5,0.5
2024-06-20T0700,3981A,113.2449,35.1803,焦作市,原李万街道办,细颗粒物(PM2.5),55,56,57,39,30,88,,,,27,17,8,7,0.8,0.6
2024-06-20T0700,1708A,116.3701,23.5345,揭阳市,新兴,,26,18,30,18,13,5,,,,24,28,6,10,0.9,0.8
2024-06-20T0700,1709A,116.3264,23.5443,揭阳市,西马,,23,23,30,15,16,7,,,,21,27,2,4,1.0,1
2024-06-20T0700,1710A,116.3611,23.5626,揭阳市,东兴,,27,27,31,13,10,9,,,,19,22,2,7,0.9,0.8
2024-06-20T0700,1711A,116.4151,23.5294,揭阳市,渔湖,,34,34,33,12,9,4,,,,30,29,4,6,1.0,0.8
2024-06-20T0700,3320A,116.403,23.5699,揭阳市,曲溪,,27,27,21,16,13,10,,,,21,21,6,9,0.7,0.7
2024-06-20T0700,1944A,102.1692,38.5167,金昌市,天庆家园,,38,13,35,3,15,119,,,,1,3,24,22,0.6,0.5
2024-06-20T0700,3170A,102.1864,38.5253,金昌市,市委党校,,39,14,42,6,13,122,,,,1,4,8,16,0.4,0.5
2024-06-20T0700,4022A,102.1647,38.5371,金昌市,金川区人防中心,,43,8,50,7,25,136,,,,4,5,8,14,0.6,0.5
2024-06-20T0700,1262A,119.647,29.077,金华市,十五中,,26,26,39,14,24,3,,,,25,43,3,3,0.8,0.7
2024-06-20T0700,1263A,119.686,29.1029,金华市,监测站,,35,35,38,22,23,0,,,,38,45,3,3,0.9,0.7
2024-06-20T0700,3659A,119.656,29.1131,金华市,气象局,,30,30,38,10,18,0,,,,35,44,5,6,0.8,0.6
2024-06-20T0700,1767A,121.1115,41.0879,锦州市,南山,,30,26,38,20,16,94,,,,21,18,13,14,0.6,0.5
2024-06-20T0700,1768A,121.0533,40.8434,锦州市,开发区,,48,48,56,11,12,100,,,,17,19,8,10,0.6,0.6
2024-06-20T0700,1769A,121.1836,41.1119,锦州市,百股街道,,32,26,33,3,8,102,,,,20,14,12,13,0.7,0.6
2024-06-20T0700,1770A,121.1178,41.1222,锦州市,天安街道,,34,34,43,13,15,85,,,,22,18,12,12,0.7,0.7
2024-06-20T0700,1771A,121.1303,41.1386,锦州市,北湖公园,,31,28,41,18,17,97,,,,19,16,13,14,0.6,0.6
2024-06-20T0700,2160A,112.85,35.5051,晋城市,自来水公司,,49,49,44,27,22,127,,,,18,17,6,7,0.8,0.6
2024-06-20T0700,2161A,112.8318,35.4936,晋城市,白云商贸,颗粒物(PM10),55,59,49,36,22,108,,,,24,18,7,7,1.0,0.6
2024-06-20T0700,2162A,112.8508,35.4887,晋城市,市环保局,,50,50,50,24,23,103,,,,30,19,6,6,0.6,0.5
2024-06-20T0700,2163A,112.8676,35.4897,晋城市,技术学院,颗粒物(PM10),54,57,47,31,24,102,,,,30,22,6,6,0.8,0.7
2024-06-20T0700,2165A,112.8453,35.546,晋城市,白马寺,,,,,,,,,,,,,,,,
2024-06-20T0700,3620A,112.8271,35.4828,晋城市,泽州一中,颗粒物(PM10),59,67,51,36,24,114,,,,22,18,8,7,0.9,0.7
2024-06-20T0700,2171A,112.7532,37.6945,晋中市,锦纶小区,颗粒物(PM10),57,63,54,27,24,94,,,,25,17,10,12,0.6,0.6
2024-06-20T0700,2173A,112.7249,37.7067,晋中市,南都小区,颗粒物(PM10),64,78,51,26,30,121,,,,23,15,9,11,0.5,0.5
2024-06-20T0700,2174A,112.6991,37.6982,晋中市,榆次区政府,颗粒物(PM10),54,58,51,23,28,111,,,,24,17,8,10,0.4,0.5
2024-06-20T0700,2865A,112.7195,37.6828,晋中市,榆次三中,颗粒物(PM10),71,92,45,22,24,87,,,,34,19,10,11,0.7,0.7
2024-06-20T0700,2439A,112.2014,31.0481,荆门市,竹园小学,,48,40,51,33,34,86,,,,20,17,9,10,0.6,0.6
2024-06-20T0700,2440A,112.1969,30.9891,荆门市,掇刀,,49,36,40,34,32,91,,,,18,14,6,8,0.8,0.7
2024-06-20T0700,2441A,112.2213,31.0386,荆门市,石化一小,,46,46,44,23,29,97,,,,12,14,12,17,0.5,0.5
2024-06-20T0700,3012A,112.1849,31.0362,荆门市,西山林语,细颗粒物(PM2.5),57,,45,40,36,111,,,,6,11,7,9,0.4,0.4
2024-06-20T0700,3547A,112.1632,31.0138,荆门市,龙泉中学南校,,35,33,39,18,24,110,,,,8,12,10,10,0.6,0.6
2024-06-20T0700,1844A,112.2494,30.3197,荆州市,市图书馆,,38,38,33,26,22,65,,,,14,14,6,6,0.7,0.7
2024-06-20T0700,1845A,112.2008,30.3544,荆州市,市委党校,,37,37,36,20,24,80,,,,13,15,6,5,0.6,0.6
2024-06-20T0700,3194A,112.2747,30.3122,荆州市,管委会,,43,43,40,25,24,60,,,,16,14,5,4,0.7,0.6
2024-06-20T0700,3548A,112.1655,30.3364,荆州市,学苑路,,49,,40,34,35,87,,,,10,15,7,7,0.6,0.6
2024-06-20T0700,2342A,117.3102,29.3867,景德镇市,王港中学,,,,,,,,,,,,,,,,
2024-06-20T0700,2343A,117.2117,29.2933,景德镇市,老干部活动中心,,32,30,22,22,17,8,,,,20,15,10,11,0.6,0.5
2024-06-20T0700,2344A,117.1894,29.2789,景德镇市,兽医站,,38,38,25,23,15,13,,,,24,14,12,11,0.5,0.4
2024-06-20T0700,2345A,117.1547,29.2617,景德镇市,台达陶瓷,,29,26,26,20,16,11,,,,30,21,15,28,0.5,0.3
2024-06-20T0700,2346A,117.2461,29.2956,景德镇市,陶研所,,28,28,23,10,9,16,,,,13,10,4,4,0.5,0.4
2024-06-20T0700,1803A,115.9872,29.6815,九江市,十里,,12,12,29,3,7,14,,,,24,19,10,10,0.7,0.6
2024-06-20T0700,1804A,115.9584,29.7046,九江市,茅山头,,30,30,10,3,8,13,,,,18,13,10,10,0.6,0.6
2024-06-20T0700,1805A,115.9877,29.7295,九江市,西园,,17,,10,10,7,16,,,,33,25,13,12,0.8,0.8
2024-06-20T0700,1806A,116.0172,29.6547,九江市,五七二七厂,,9,6,6,3,8,7,,,,17,10,8,8,0.6,0.6
2024-06-20T0700,1808A,115.9114,29.6038,九江市,综合工业园,,18,18,9,3,6,6,,,,32,26,13,11,0.7,0.8
2024-06-20T0700,1809A,116.0721,29.7535,九江市,石化总厂,,19,19,14,8,11,14,,,,14,13,12,11,0.7,0.7
2024-06-20T0700,1810A,115.9773,29.5698,九江市,庐山气象台,,18,,4,6,4,56,,,,2,2,21,10,0.9,0.9
2024-06-20T0700,3190A,116.0254,29.6994,九江市,外国语学校,,10,6,8,3,7,11,,,,20,18,12,15,0.7,0.7
2024-06-20T0700,2658A,98.5061,39.7443,酒泉市,仓门街子站,,36,7,29,7,6,114,,,,14,19,4,9,0.2,0.2
2024-06-20T0700,2659A,98.4989,39.7256,酒泉市,油田生活基地,,37,12,27,3,6,117,,,,13,17,4,10,0.1,0.2
2024-06-20T0700,2698A,76.0072,39.4467,喀什地区,巡警大队,,32,19,43,8,6,100,,,,11,16,3,3,0.2,0.2
2024-06-20T0700,2699A,75.9755,39.4694,喀什地区,吾办,,35,25,42,7,13,109,,,,6,11,3,3,0.2,0.3
2024-06-20T0700,4027A,75.9483,39.4689,喀什地区,老干局,,33,31,58,3,4,103,,,,15,13,3,3,0.2,0.2
2024-06-20T0700,1824A,114.3389,34.7781,开封市,肿瘤医院,颗粒物(PM10),72,94,69,42,24,48,,,,30,17,4,5,0.7,0.5
2024-06-20T0700,1826A,114.2885,34.7965,开封市,世纪星幼儿园,细颗粒物(PM2.5),89,92,67,66,32,56,,,,28,16,3,2,0.6,0.6
2024-06-20T0700,3147A,114.3438,34.8106,开封市,龙亭公园,,,,,,,,,,,,,,,,
2024-06-20T0700,3210A,114.3644,34.7964,开封市,汴京公园,细颗粒物(PM2.5),84,99,82,62,40,52,,,,30,22,8,5,0.5,0.8
2024-06-20T0700,3473A,114.2485,34.8306,开封市,技师学院,颗粒物(PM10),73,96,63,47,29,65,,,,24,16,6,6,0.8,0.6
2024-06-20T0700,3592A,114.4644,34.7556,开封市,祥符区生态环境局,颗粒物(PM10),74,98,72,46,32,49,,,,34,37,3,4,0.6,0.5
2024-06-20T0700,1951A,84.895,45.6094,克拉玛依市,长征新村,,37,37,18,3,4,60,,,,8,3,9,9,0.1,0.1
2024-06-20T0700,1952A,84.8988,45.5893,克拉玛依市,南林小区,,25,24,17,17,11,62,,,,8,3,12,11,0.3,0.2
2024-06-20T0700,1954A,84.905,44.3396,克拉玛依市,独山子区,,24,11,25,3,8,75,,,,4,7,9,9,0.2,0.2
2024-06-20T0700,1955A,85.6979,46.098,克拉玛依市,乌尔禾区商贸楼,,20,6,19,3,4,63,,,,3,3,6,7,0.3,0.2
2024-06-20T0700,3612A,85.1045,45.6899,克拉玛依市,白碱滩区新站,,41,41,27,26,18,72,,,,5,2,9,9,0,0
2024-06-20T0700,2697A,76.1454,39.7142,克孜勒苏柯尔克孜自治州,市人民政府,颗粒物(PM10),51,51,48,14,18,91,,,,4,9,8,11,0.4,0.4
2024-06-20T0700,3665A,76.1658,39.7157,克孜勒苏柯尔克孜自治州,克州文化中心,,32,25,42,12,18,101,,,,4,5,9,11,0.3,0.3
2024-06-20T0700,1450A,102.8204,24.8886,昆明市,呈贡新区,,42,42,36,23,18,61,,,,10,9,4,6,0.7,0.6
2024-06-20T0700,1451A,102.6251,24.9608,昆明市,西山森林公园,,,,,,,,,,,,,,,,
2024-06-20T0700,1452A,102.7252,25.0902,昆明市,龙泉镇,,37,37,28,12,10,56,,,,14,14,7,7,0.6,0.6
2024-06-20T0700,1453A,102.7266,25.0375,昆明市,东风东路,,45,45,29,17,14,52,,,,14,13,3,2,0.7,0.6
2024-06-20T0700,1454A,102.6742,25.0669,昆明市,金鼎山,,50,50,30,14,11,56,,,,17,13,11,11,0.5,0.4
2024-06-20T0700,1455A,102.6644,25.0401,昆明市,碧鸡广场,,50,50,32,26,16,57,,,,12,13,3,4,0.5,0.5
2024-06-20T0700,3179A,102.7494,25.0119,昆明市,官渡区博物馆,,37,37,25,9,11,65,,,,8,8,11,9,0.6,0.4
2024-06-20T0700,3375A,102.8017,24.8336,昆明市,青年创业园,,41,41,34,23,19,60,,,,9,8,7,9,0.4,0.4
2024-06-20T0700,3550A,102.7997,24.9786,昆明市,昆明学院,,41,41,32,22,18,62,,,,10,10,9,9,0.7,0.6
2024-06-20T0700,3551A,102.5967,24.6736,昆明市,晋宁区生态环境分局,,44,44,31,24,19,57,,,,9,8,2,2,0.8,0.7
2024-06-20T0700,3552A,102.6678,24.9856,昆明市,云天化总部,,40,40,25,26,14,73,,,,6,6,4,3,0.5,0.5
2024-06-20T0700,1456A,91.1319,29.6514,拉萨市,八廓街,,31,15,15,7,9,97,,,,10,15,8,9,0.3,0.3
2024-06-20T0700,1457A,91.1221,29.6747,拉萨市,市环保局,,31,13,15,6,8,99,,,,11,14,8,8,0.5,0.5
2024-06-20T0700,1458A,91.0874,29.6475,拉萨市,区监测站,,31,10,11,3,7,98,,,,8,13,6,7,0.4,0.4
2024-06-20T0700,1459A,91.1774,29.6541,拉萨市,西藏大学,,31,11,12,3,8,98,,,,7,10,6,7,0.3,0.4
2024-06-20T0700,1460A,90.9798,29.6588,拉萨市,区辐射站,,34,8,14,6,10,107,,,,9,13,7,7,0.3,0.4
2024-06-20T0700,1461A,91.0834,29.6292,拉萨市,拉萨火车站,,34,8,11,3,7,106,,,,5,12,7,7,0.2,0.2
2024-06-20T0700,2520A,109.2203,23.7256,来宾市,来宾技工学校,,31,31,28,17,17,14,,,,18,10,5,5,1.0,0.8
2024-06-20T0700,3535A,109.1781,23.7297,来宾市,兴宾区政府,,31,31,24,19,11,38,,,,10,9,12,4,0.9,0.9
2024-06-20T0700,4002A,109.2416,23.7461,来宾市,中南小学,,,26,24,12,13,,,,,18,16,3,3,1.1,1.1
2024-06-20T0700,1476A,103.631,36.1031,兰州市,兰炼宾馆,,40,40,60,28,38,85,,,,22,17,21,21,0.4,0.4
2024-06-20T0700,1477A,104.1373,35.9454,兰州市,榆中兰大校区,,,,,,,,,,,,,,,,
2024-06-20T0700,1478A,103.8412,36.0726,兰州市,生物制品所,,50,49,64,35,31,52,,,,33,24,13,17,0.4,0.4
2024-06-20T0700,1479A,103.831,36.0464,兰州市,铁路设计院,,43,43,58,24,25,54,,,,38,33,10,17,0.5,0.4
2024-06-20T0700,3186A,103.7158,36.1058,兰州市,教育港,颗粒物(PM10),55,59,71,23,28,73,,,,23,17,13,21,0.4,0.4
2024-06-20T0700,3241A,103.7439,36.0842,兰州市,百合公园,,39,39,57,25,25,53,,,,27,22,4,14,0.2,0.2
2024-06-20T0700,3242A,103.9611,35.998,兰州市,和平,,39,39,56,15,23,69,,,,19,17,10,12,0.5,0.4
2024-06-20T0700,3245A,103.6633,36.533,兰州新区,新区管委会,,40,38,54,25,25,125,,,,4,9,12,14,0.4,0.4
2024-06-20T0700,3246A,103.6975,36.4789,兰州新区,舟曲中学,颗粒物(PM10),53,55,78,20,27,123,,,,6,10,14,15,0.4,0.5
2024-06-20T0700,1067A,116.6708,39.5111,廊坊市,药材公司,,45,45,75,29,34,45,,,,18,18,1,3,0.6,0.6
2024-06-20T0700,1068A,116.7214,39.5589,廊坊市,开发区,颗粒物(PM10),60,70,91,35,44,42,,,,25,26,4,5,0.7,0.6
2024-06-20T0700,1070A,116.7244,39.5269,廊坊市,北华航天学院,颗粒物(PM10),59,67,87,29,36,41,,,,21,22,1,3,0.6,0.5
2024-06-20T0700,2919A,116.7022,39.5453,廊坊市,河北工业大学,颗粒物(PM10),65,80,86,25,38,44,,,,20,19,2,3,0.6,0.5
2024-06-20T0700,2535A,103.7723,29.5462,乐山市,花湖湾,,31,31,22,20,19,26,,,,13,10,4,3,0.3,0.4
2024-06-20T0700,2536A,103.7627,29.5844,乐山市,牛耳桥,,29,23,23,20,21,38,,,,15,14,3,3,0.4,0.4
2024-06-20T0700,2537A,103.7508,29.6006,乐山市,市第三水厂,,24,24,23,13,14,48,,,,14,14,3,3,0.5,0.5
2024-06-20T0700,2538A,103.7571,29.5664,乐山市,市监测站,,28,26,24,19,19,46,,,,13,12,2,2,0.5,0.5
2024-06-20T0700,3361A,103.7311,29.5628,乐山市,理工大学,,33,26,24,23,18,48,,,,11,10,8,7,0.5,0.6
2024-06-20T0700,2598A,100.2143,26.8576,丽江市,西南郊,,,,,,,,,,,,,,,,
2024-06-20T0700,2599A,100.2497,26.8802,丽江市,丽江古城,,22,19,20,14,10,70,,,,16,11,6,6,0.5,0.6
2024-06-20T0700,2600A,100.2203,26.8906,丽江市,市中心,,,,18,,6,,,80,,,8,,8,,0.6
2024-06-20T0700,1267A,119.914,28.4514,丽水市,监测站大楼,,34,34,31,11,15,4,,,,22,20,3,3,0.6,0.5
2024-06-20T0700,1268A,119.93,28.4586,丽水市,莲都小学,,41,41,33,14,12,4,,,,16,16,3,4,0.6,0.5
2024-06-20T0700,1269A,119.879,28.4231,丽水市,余庄前,,37,37,25,21,13,3,,,,12,10,3,2,0.6,0.5
2024-06-20T0700,1173A,119.176,34.5885,连云港市,市环境监测站,,30,7,20,7,11,95,,,,12,10,6,6,0.3,0.3
2024-06-20T0700,3000A,119.3581,34.6972,连云港市,德源药业,,29,6,9,3,4,90,,,,11,8,4,4,0.3,0.4
2024-06-20T0700,3007A,119.178,34.844,连云港市,新城一中,,32,10,28,3,5,102,,,,9,8,4,5,0.6,0.6
2024-06-20T0700,3008A,119.3608,34.7519,连云港市,胡沟管理处,,,2,12,,7,102,,,,2,13,6,8,0.5,0.5
2024-06-20T0700,3009A,119.1478,34.5911,连云港市,矿山设计院,,30,6,17,3,10,94,,,,14,10,3,2,0.3,0.3
2024-06-20T0700,3434A,119.2413,34.6539,连云港市,工贸学校,,30,6,17,3,7,96,,,,13,6,6,6,0.5,0.6
2024-06-20T0700,3664A,119.4172,34.7341,连云港市,连云街道,,30,6,11,3,5,95,,,,20,7,4,3,0.5,0.5
2024-06-20T0700,2571A,102.3431,27.8099,凉山彝族自治州,青龙寺,,,,6,,4,,,45,,,4,,9,,0.6
2024-06-20T0700,2572A,102.2721,27.8415,凉山彝族自治州,邛海宾馆,,13,13,12,7,7,17,,,,14,12,10,8,0.8,0.7
2024-06-20T0700,2573A,102.2625,27.898,凉山彝族自治州,西昌市政府,,18,14,13,12,8,18,,,,22,17,9,8,0.7,0.7
2024-06-20T0700,2574A,102.2685,27.8851,凉山彝族自治州,凉山州政府,,16,16,14,8,8,26,,,,22,16,9,8,0.8,0.8
2024-06-20T0700,2575A,102.237,27.8914,凉山彝族自治州,长安,,15,12,13,8,9,15,,,,30,21,10,9,0.9,0.9
2024-06-20T0700,2212A,123.2,41.1953,辽阳市,宏伟区,,39,13,25,7,6,124,,,,6,9,10,10,0.4,0.4
2024-06-20T0700,2213A,123.1683,41.2495,辽阳市,新华园,,38,15,30,8,9,119,,,,10,16,10,10,0.4,0.5
2024-06-20T0700,2214A,123.2354,41.2639,辽阳市,滨河路,,36,20,34,13,11,115,,,,13,12,9,9,0.5,0.6
2024-06-20T0700,2215A,123.149,41.2991,辽阳市,铁西工业园,,37,15,41,9,17,116,,,,10,16,11,13,0.4,0.6
2024-06-20T0700,2227A,125.1358,42.8845,辽源市,环保局,,39,28,28,15,14,124,,,,26,16,8,8,0.5,0.6
2024-06-20T0700,3239A,125.0764,42.9078,辽源市,银鹰制药,,41,27,34,23,15,131,,,,28,33,5,15,0.5,0.6
2024-06-20T0700,1625A,115.9848,36.4372,聊城市,区政府,颗粒物(PM10),53,55,63,14,23,61,,,,23,19,10,10,0.6,0.5
2024-06-20T0700,2878A,116.0072,36.4343,聊城市,聊大东校,颗粒物(PM10),53,55,55,29,27,64,,,,22,20,10,9,0.5,0.5
2024-06-20T0700,3200A,115.9819,36.4978,聊城市,监控中心,颗粒物(PM10),54,57,59,12,19,65,,,,11,22,9,10,0.5,0.5
2024-06-20T0700,3513A,116.0445,36.4361,聊城市,九州社区,颗粒物(PM10),58,66,67,25,23,51,,,,25,20,12,10,0.4,0.4
2024-06-20T0700,4018A,116.0567,36.4608,聊城市,星美广场,颗粒物(PM10),61,71,63,27,22,62,,,,22,21,11,12,0.5,0.5
2024-06-20T0700,2632A,94.3681,29.6376,林芝市,林芝监测站,,21,,3,3,3,66,,,,1,3,7,7,0.3,0.3
2024-06-20T0700,2633A,94.3616,29.6616,林芝市,林芝人民医院,,22,6,6,3,4,68,,,,4,5,8,8,0.3,0.3
2024-06-20T0700,2603A,100.0781,23.8982,临沧市,市环保局,,37,37,43,23,25,25,,,,7,8,4,4,0.5,0.5
2024-06-20T0700,2604A,100.0894,23.8822,临沧市,市气象局,,35,35,44,23,28,21,,,,12,11,4,4,0.6,0.6
2024-06-20T0700,1733A,111.5531,36.0783,临汾市,临钢医院,颗粒物(PM10),55,60,56,33,25,94,,,,15,11,8,7,0.8,0.7
2024-06-20T0700,1734A,111.5028,36.0714,临汾市,技工学校,颗粒物(PM10),54,58,56,36,32,101,,,,22,18,6,7,0.6,0.6
2024-06-20T0700,1736A,111.5018,36.0855,临汾市,市委,颗粒物(PM10),69,88,64,36,27,106,,,,20,16,5,6,0.8,0.7
2024-06-20T0700,3018A,111.505,36.1014,临汾市,唐尧大酒店,颗粒物(PM10),56,61,50,33,25,103,,,,19,14,8,8,0.8,0.7
2024-06-20T0700,3668A,111.5036,36.0414,临汾市,城南,颗粒物(PM10),63,75,64,39,35,77,,,,24,18,5,6,0.7,0.6
2024-06-20T0700,2667A,103.2069,35.5993,临夏回族自治州,环保局,,36,27,31,25,24,52,,,,19,7,7,7,0.4,0.4
2024-06-20T0700,2668A,103.2417,35.6057,临夏回族自治州,建设大厦,,39,39,33,15,20,52,,,,10,10,9,9,0.3,0.3
2024-06-20T0700,1618A,118.3429,35.0532,临沂市,沂河小区,细颗粒物(PM2.5),53,44,28,37,16,69,,,,17,13,7,8,1.0,0.3
2024-06-20T0700,1619A,118.295,35.0583,临沂市,鲁南制药厂,,48,48,27,26,16,76,,,,7,4,6,7,1.2,0.5
2024-06-20T0700,1620A,118.2794,34.9976,临沂市,新光毛纺厂,,32,27,22,22,14,82,,,,10,8,3,5,1.1,0.6
2024-06-20T0700,1621A,118.3956,35.0888,临沂市,河东保险公司,,43,41,25,30,11,72,,,,8,6,4,4,0.9,0.4
2024-06-20T0700,3370A,118.3564,35.0215,临沂市,十里堡居委,,42,36,22,29,12,78,,,,9,8,6,7,1.3,0.6
2024-06-20T0700,3496A,118.3604,35.1084,临沂市,南坊新区,,46,46,40,22,12,77,,,,11,10,6,6,1.3,0.7
2024-06-20T0700,3860A,118.3920,35.0300,临沂市,皇山花园小区,,49,41,26,34,16,78,,,,14,13,8,8,1.5,0.8
2024-06-20T0700,1870A,109.4856,24.3895,柳州市,柳东小学,,,,,,,,,,,,,,,,
2024-06-20T0700,1871A,109.4157,24.3277,柳州市,环保监测站,,28,28,23,17,15,30,,,,11,13,7,6,0.6,0.6
2024-06-20T0700,1872A,109.389,24.341,柳州市,河西水厂,,23,23,23,13,17,36,,,,9,11,6,6,0.5,0.4
2024-06-20T0700,1873A,109.4311,24.2921,柳州市,市四中,,34,34,26,12,13,39,,,,10,14,5,5,0.5,0.5
2024-06-20T0700,1874A,109.4006,24.3631,柳州市,市九中,,33,33,29,14,13,31,,,,16,15,4,5,0.7,0.6
2024-06-20T0700,1875A,109.4958,24.3134,柳州市,古亭山,,26,26,26,12,14,48,,,,10,17,6,6,0.4,0.4
2024-06-20T0700,3402A,109.5422,24.3996,柳州市,市二中,,26,26,23,11,11,26,,,,18,16,6,7,0.5,0.4
2024-06-20T0700,2307A,116.5079,31.737,六安市,监测大楼,,39,,7,27,14,86,,,,9,8,4,4,0.5,0.5
2024-06-20T0700,2308A,116.4738,31.7643,六安市,皖西学院,,38,,10,26,10,97,,,,6,9,3,3,0.5,0.5
2024-06-20T0700,2309A,116.4996,31.7905,六安市,朝阳厂,,42,,9,29,12,94,,,,9,10,7,7,0.4,0.4
2024-06-20T0700,2310A,116.5567,31.7886,六安市,开发区,,26,,7,17,9,82,,,,10,11,4,4,0.7,0.7
2024-06-20T0700,2576A,104.8,26.5892,六盘水市,窑上,,,,,,,,,,,,,,,,
2024-06-20T0700,2577A,104.83,26.5917,六盘水市,黄土坡,,19,19,20,6,12,25,,,,17,12,8,9,0.7,0.6
2024-06-20T0700,2578A,104.89,26.5939,六盘水市,水钢,,19,19,20,9,13,52,,,,8,9,8,9,0.4,0.5
2024-06-20T0700,2579A,104.8475,26.5894,六盘水市,民中,,13,13,19,9,13,40,,,,13,12,6,6,0.8,0.7
2024-06-20T0700,2580A,104.9544,26.5506,六盘水市,双水,,22,17,19,3,12,69,,,,4,7,7,7,0.3,0.3
2024-06-20T0700,2335A,117.0189,25.1181,龙岩市,龙岩师专,,,,,,,,,,,,,,,,
2024-06-20T0700,2336A,117.0217,25.1033,龙岩市,龙岩市监测站,,17,17,19,8,7,17,,,,11,12,6,6,0.4,0.4
2024-06-20T0700,2337A,117.0258,25.0661,龙岩市,闽西职业技术学院,,40,40,27,11,8,7,,,,13,11,22,14,0.5,0.4
2024-06-20T0700,2338A,117.0196,25.0306,龙岩市,龙岩学院,,8,8,15,3,5,15,,,,4,3,2,4,0.4,0.3
2024-06-20T0700,2665A,105.0822,33.3261,陇南市,汉王镇固水子,,,,,,,,,,,,,,,,
2024-06-20T0700,2885A,104.9339,33.3826,陇南市,滨江中学,,48,48,42,8,8,47,,,,13,8,16,8,0.5,0.4
2024-06-20T0700,3247A,104.955,33.371,陇南市,市总工会,,31,31,26,11,10,53,,,,8,4,6,4,0.3,0.3
2024-06-20T0700,2487A,111.9589,27.8901,娄底市,电视发射台,,37,37,24,12,8,4,,,,10,8,5,6,1.1,1
2024-06-20T0700,2488A,111.9975,27.725,娄底市,市监测站,,36,36,21,9,12,7,,,,23,8,6,6,0.6,0.5
2024-06-20T0700,2489A,112.0194,27.7314,娄底市,市委党校,,23,,20,16,11,19,,,,6,7,7,9,0.3,0.6
2024-06-20T0700,2490A,111.9561,27.7569,娄底市,涟钢,,24,24,25,13,14,12,,,,13,18,12,16,0.4,0.7
2024-06-20T0700,2491A,111.9892,27.7044,娄底市,市政府,,24,24,16,15,13,29,,,,5,5,6,6,0.8,0.9
2024-06-20T0700,1893A,105.4324,28.9634,泸州市,九狮山,,19,19,20,8,13,14,,,,20,17,5,5,0.4,0.4
2024-06-20T0700,1894A,105.4427,28.9063,泸州市,小市上码头,,24,24,26,15,20,10,,,,16,14,6,6,0.6,0.4
2024-06-20T0700,1895A,105.4241,28.8573,泸州市,兰田宪桥,,30,25,25,21,23,5,,,,18,14,4,4,0.4,0.3
2024-06-20T0700,1896A,105.4379,28.8833,泸州市,市环监站,,45,38,32,31,24,24,,,,14,16,6,6,0.6,0.6
2024-06-20T0700,3490A,105.3617,28.7703,泸州市,纳溪区环保局,,25,23,24,17,18,12,,,,24,19,3,3,0.7,0.6
2024-06-20T0700,2183A,111.1406,37.5211,吕梁市,环保局,,50,50,68,27,27,83,,,,29,32,4,6,0.6,0.6
2024-06-20T0700,2185A,111.1297,37.5136,吕梁市,自来水公司,颗粒物(PM10),54,58,74,24,26,84,,,,26,31,5,6,0.6,0.7
2024-06-20T0700,2867A,111.1283,37.51,吕梁市,马茂庄小学,颗粒物(PM10),60,69,77,32,28,71,,,,45,41,4,6,0.6,0.7
2024-06-20T0700,1812A,112.3931,34.6516,洛阳市,市委党校,细颗粒物(PM2.5),84,101,61,62,37,29,,,,56,18,5,5,0.9,0.7
2024-06-20T0700,1814A,112.4657,34.6871,洛阳市,豫西宾馆,颗粒物(PM10),75,99,69,44,33,85,,,,33,23,9,6,0.7,0.6
2024-06-20T0700,1815A,112.494,34.6886,洛阳市,河南林校,细颗粒物(PM2.5),72,73,55,52,34,68,,,,44,24,9,6,0.6,0.5
2024-06-20T0700,1816A,112.3844,34.623,洛阳市,开发区管委会,细颗粒物(PM2.5),69,78,52,50,34,55,,,,18,14,7,7,0.7,0.5
2024-06-20T0700,1817A,112.4267,34.6258,洛阳市,市委新办公区,细颗粒物(PM2.5),72,61,49,52,37,74,,,,16,10,7,7,0.7,0.6
2024-06-20T0700,3340A,112.6005,34.6326,洛阳市,伊滨,"颗粒物(PM10),细颗粒物(PM2.5)",63,76,63,45,36,40,,,,38,24,6,7,0.6,0.5
2024-06-20T0700,3341A,112.4951,34.6332,洛阳市,中移产业园,细颗粒物(PM2.5),67,74,59,48,38,54,,,,43,21,7,7,0.8,0.8
2024-06-20T0700,3593A,112.5736,34.8993,洛阳市,吉利监测站,细颗粒物(PM2.5),57,53,63,40,34,54,,,,32,27,3,4,0.4,0.3
2024-06-20T0700,3635A,112.3677,34.662,洛阳市,河科大西苑校区,颗粒物(PM10),68,85,62,44,30,26,,,,44,19,8,7,0.7,0.6
2024-06-20T0700,3636A,112.4388,34.6781,洛阳市,英才小学,颗粒物(PM10),75,100,63,41,31,86,,,,24,13,9,5,0.7,0.6
2024-06-20T0700,2399A,114.051,33.5699,漯河市,三五一五工厂,颗粒物(PM10),55,59,61,36,31,79,,,,22,21,6,8,0.7,0.7
2024-06-20T0700,2400A,114.0055,33.5698,漯河市,漯河大学,细颗粒物(PM2.5),55,50,62,39,41,90,,,,15,23,5,8,0.6,0.5
2024-06-20T0700,2401A,114.0138,33.5828,漯河市,市水利局,细颗粒物(PM2.5),55,53,61,39,35,87,,,,14,18,7,9,0.7,0.7
2024-06-20T0700,2402A,114.0261,33.5698,漯河市,市广电局,,46,46,59,32,31,96,,,,11,18,2,5,0.6,0.6
2024-06-20T0700,3478A,113.9749,33.5664,漯河市,市图书馆,细颗粒物(PM2.5),77,61,63,56,42,85,,,,12,17,3,4,0.5,0.5
2024-06-20T0700,3479A,114.0967,33.5906,漯河市,召陵区卫健委,颗粒物(PM10),61,71,66,32,36,50,,,,29,20,4,7,0.6,0.5
2024-06-20T0700,1798A,118.5092,31.6837,马鞍山市,湖东路四小,细颗粒物(PM2.5),64,,13,46,10,36,,,,19,13,6,6,1.0,0.8
2024-06-20T0700,1799A,118.5024,31.6449,马鞍山市,开发区,,42,,12,29,10,41,,,,18,14,9,8,0.8,0.6
2024-06-20T0700,1800A,118.5228,31.7231,马鞍山市,慈湖,,46,36,20,32,12,42,,,,25,21,6,6,0.9,0.8
2024-06-20T0700,1802A,118.6245,31.7241,马鞍山市,濮塘,,33,,8,23,9,30,,,,17,9,2,2,1.0,0.7
2024-06-20T0700,3633A,118.4918,31.6809,马鞍山市,雨山,,39,35,16,27,8,44,,,,21,15,4,4,1.1,0.8
2024-06-20T0700,1686A,111.0286,21.4688,茂名市,电白南海,,22,22,26,14,15,65,,,,3,4,4,4,0.4,0.5
2024-06-20T0700,1687A,110.9294,21.6533,茂名市,茂石化七小,,28,24,27,19,18,57,,,,9,8,9,7,0.5,0.5
2024-06-20T0700,1688A,110.9107,21.6687,茂名市,健康路,,25,24,25,17,12,63,,,,6,6,10,9,0.4,0.4
2024-06-20T0700,1689A,110.8592,21.6828,茂名市,高岭,,25,24,36,17,18,55,,,,8,8,6,6,0.5,0.5
2024-06-20T0700,3450A,111.01,21.5165,茂名市,电白水东,,20,19,22,12,13,63,,,,3,6,3,3,0.5,0.5
2024-06-20T0700,2539A,104.0308,30.0478,眉山市,黑龙滩水库,,36,32,27,25,26,40,,,,5,7,5,5,0.4,0.4
2024-06-20T0700,2540A,103.8416,30.0874,眉山市,气象局,,25,,21,17,22,42,,,,16,15,7,8,0.4,0.4
2024-06-20T0700,3137A,103.8578,30.0744,眉山市,市委党校,,29,29,24,19,14,49,,,,14,15,6,7,0.5,0.4
2024-06-20T0700,3148A,103.8291,30.0564,眉山市,区人社局,,25,,24,17,14,60,,,,11,17,8,8,0.5,0.4
2024-06-20T0700,1690A,116.1231,24.3284,梅州市,梅江月梅,,39,30,24,27,9,6,,,,5,6,5,5,0.4,0.4
2024-06-20T0700,1691A,116.0797,24.2719,梅州市,梅县新城,,26,26,20,7,8,4,,,,8,9,4,3,0.4,0.4
2024-06-20T0700,1692A,116.1248,24.2654,梅州市,环境监控中心,,36,36,26,9,8,5,,,,14,13,8,4,0.7,0.7
2024-06-20T0700,3315A,116.1233,24.2991,梅州市,梅龙,,33,31,17,23,9,7,,,,11,9,12,9,0.6,0.6
2024-06-20T0700,1878A,104.7778,31.4741,绵阳市,富乐山,,20,19,31,14,24,50,,,,6,8,7,8,0.5,0.6
2024-06-20T0700,1879A,104.7563,31.4535,绵阳市,市人大,,21,21,32,13,21,55,,,,11,13,7,7,0.4,0.4
2024-06-20T0700,1880A,104.6697,31.4668,绵阳市,高新区自来水公司,,20,19,26,7,14,62,,,,8,10,5,6,0.6,0.6
2024-06-20T0700,1881A,104.7287,31.5075,绵阳市,三水厂,,22,22,36,15,25,63,,,,8,13,6,7,0.4,0.5
2024-06-20T0700,3491A,104.69,31.5322,绵阳市,西科大附属小学,,20,20,30,12,20,49,,,,18,16,5,6,0.6,0.7
2024-06-20T0700,3492A,104.5648,31.5343,绵阳市,安州区旅游局,,18,14,22,12,19,48,,,,14,14,8,7,0.6,0.7
2024-06-20T0700,1784A,129.61,44.561,牡丹江市,环保大楼,,35,35,31,18,17,96,,,,18,15,8,8,0.5,0.4
2024-06-20T0700,1785A,129.6115,44.5782,牡丹江市,文化广场,,43,43,54,22,27,92,,,,18,20,6,7,0.5,0.5
2024-06-20T0700,1786A,129.5904,44.5963,牡丹江市,第一医院,,34,34,38,23,25,83,,,,22,21,5,5,0.5,0.6
2024-06-20T0700,1787A,129.6364,44.6075,牡丹江市,机车工厂,,35,35,37,14,17,86,,,,18,21,5,10,0.4,0.5
2024-06-20T0700,1788A,129.6386,44.5462,牡丹江市,第一中学,,33,23,39,16,17,104,,,,15,18,5,4,0.4,0.5
2024-06-20T0700,2531A,105.0703,29.61,内江市,市监测站,,32,,16,22,24,38,,,,22,17,4,5,0.7,0.6
2024-06-20T0700,2532A,105.0717,29.5947,内江市,东兴区政府,,27,27,27,9,14,30,,,,19,17,10,10,0.9,0.8
2024-06-20T0700,2533A,105.0653,29.5817,内江市,内江二中,,26,,27,18,17,42,,,,19,18,8,8,0.6,0.6
2024-06-20T0700,2534A,105.0406,29.5822,内江市,内江日报社,,29,20,23,20,21,37,,,,26,22,8,8,0.8,0.6
2024-06-20T0700,2628A,92.0657,31.4846,那曲市,那曲监测站,,43,6,15,3,10,135,,,,4,7,7,7,0.3,0.6
2024-06-20T0700,3128A,92.0506,31.4797,那曲市,那曲会议中心,,45,6,14,6,9,144,,,,1,7,3,3,0.4,0.5
2024-06-20T0700,1290A,115.8931,28.6843,南昌市,省外办,,25,25,21,17,19,11,,,,23,16,8,6,0.5,0.4
2024-06-20T0700,1291A,115.8886,28.7003,南昌市,省林业公司,,24,24,20,14,14,20,,,,27,16,15,7,0.3,0.4
2024-06-20T0700,1292A,115.8126,28.7442,南昌市,林科所,,19,19,15,12,10,18,,,,26,17,18,9,0.4,0.5
2024-06-20T0700,1294A,115.8518,28.687,南昌市,建工学校,,43,33,23,30,14,15,,,,27,16,11,8,0.5,0.5
2024-06-20T0700,1295A,115.8921,28.6424,南昌市,象湖,,30,30,22,18,15,8,,,,26,20,11,7,0.6,0.5
2024-06-20T0700,1296A,115.7423,28.7996,南昌市,武术学校,,,21,17,8,14,8,,,,3,3,,108,0.5,0.4
2024-06-20T0700,1298A,115.9314,28.6842,南昌市,省站,,25,24,20,17,16,20,,,,28,17,13,7,0.8,0.7
2024-06-20T0700,3046A,115.9084,28.6062,南昌市,机电学校,,46,46,34,22,17,10,,,,24,17,16,11,0.7,0.7
2024-06-20T0700,3690A,115.9721,28.7031,南昌市,外国语学校,,35,35,28,17,16,15,,,,26,21,10,7,0.5,0.4
2024-06-20T0700,1905A,106.056,30.8064,南充市,西山风景区,,25,19,16,17,13,32,,,,12,11,14,5,0.6,0.5
2024-06-20T0700,1906A,106.0789,30.8023,南充市,南充市委,,27,27,19,15,13,15,,,,16,15,7,5,0.5,0.4
2024-06-20T0700,1907A,106.1031,30.8217,南充市,南充炼油厂,,25,25,21,16,12,16,,,,18,11,7,6,0.3,0.3
2024-06-20T0700,1908A,106.1064,30.7856,南充市,高坪区监测站,,27,27,19,3,10,21,,,,16,15,5,6,0.4,0.3
2024-06-20T0700,1909A,106.0642,30.7636,南充市,嘉陵区环保局,,26,26,19,17,16,20,,,,16,17,6,5,0.4,0.4
2024-06-20T0700,1910A,106.1087,30.8388,南充市,市环境监测站,,30,30,20,8,12,16,,,,12,12,7,6,0.5,0.5
2024-06-20T0700,1151A,118.8086,32.1065,南京市,迈皋桥,,30,30,18,19,15,36,,,,19,19,5,4,0.5,0.5
2024-06-20T0700,1152A,118.7538,32.0551,南京市,草场门,,45,36,16,31,14,38,,,,22,23,4,3,0.8,0.7
2024-06-20T0700,1153A,118.7794,32.0745,南京市,山西路,,35,31,16,24,13,43,,,,23,21,4,4,0.6,0.4
2024-06-20T0700,1154A,118.7752,32.0023,南京市,中华门,,39,29,10,27,10,37,,,,17,18,7,6,0.7,0.6
2024-06-20T0700,1155A,118.8109,32.0309,南京市,瑞金路,,40,40,19,27,12,33,,,,12,12,7,6,0.4,0.3
2024-06-20T0700,1156A,118.7997,32.0754,南京市,玄武湖,,29,26,21,20,12,32,,,,22,20,2,3,0.6,0.5
2024-06-20T0700,1157A,118.6414,32.0931,南京市,浦口,,30,,21,21,13,46,,,,8,23,5,5,0.3,0.4
2024-06-20T0700,1158A,118.7356,31.9996,南京市,奥体中心,细颗粒物(PM2.5),52,40,15,36,14,43,,,,15,17,6,5,0.6,0.4
2024-06-20T0700,1159A,118.9125,32.1028,南京市,仙林大学城,,39,29,18,27,15,39,,,,19,21,7,6,0.7,0.6
2024-06-20T0700,3422A,118.8436,31.9198,南京市,江宁彩虹桥,,32,,15,22,12,36,,,,16,20,4,4,0.7,0.6
2024-06-20T0700,3423A,119.0138,31.6494,南京市,溧水永阳,,13,,5,9,7,14,,,,17,10,5,4,0.6,0.5
2024-06-20T0700,3424A,118.879,31.3302,南京市,高淳老职中,,10,6,4,3,5,29,,,,11,9,4,5,0.5,0.5
2024-06-20T0700,3427A,118.8554,32.3578,南京市,六合雄州,,27,27,31,17,25,54,,,,9,22,5,4,0.6,0.7
2024-06-20T0700,1401A,108.3103,22.7881,南宁市,二十一中,,23,23,25,15,13,47,,,,10,8,2,2,0.8,0.8
2024-06-20T0700,1402A,108.3141,22.8528,南宁市,北湖,,32,32,28,14,13,35,,,,13,9,3,3,0.7,0.7
2024-06-20T0700,1403A,108.3206,22.8225,南宁市,市监测站,,26,18,19,18,14,51,,,,8,11,2,2,0.7,0.7
2024-06-20T0700,1404A,108.3829,22.8037,南宁市,大自然花园,,25,22,25,17,14,43,,,,10,7,5,4,0.5,0.6
2024-06-20T0700,1405A,108.4394,22.7904,南宁市,仙葫,,27,27,25,18,18,44,,,,10,10,8,7,0.6,0.5
2024-06-20T0700,1406A,108.2397,22.8467,南宁市,区农职院,,30,30,26,14,12,50,,,,10,12,6,5,0.6,0.6
2024-06-20T0700,1407A,108.3275,22.735,南宁市,英华嘉园,,22,22,26,11,14,41,,,,11,15,5,5,0.5,0.6
2024-06-20T0700,1408A,108.2257,22.7757,南宁市,沙井镇街道办,,39,39,28,21,17,29,,,,27,17,3,2,0.8,0.7
2024-06-20T0700,3401A,108.4834,22.7618,南宁市,红星社区,,27,27,27,18,13,39,,,,12,10,6,5,0.6,0.6
2024-06-20T0700,2331A,118.0966,26.6761,南平市,茫荡山,,,,,,,,,,,,,,,,
2024-06-20T0700,2332A,118.1681,26.6369,南平市,南平市监测站,,21,21,17,6,6,10,,,,8,10,4,4,0.6,0.6
2024-06-20T0700,2333A,118.1825,26.6489,南平市,南平铝业有限公司,,18,18,17,6,8,8,,,,8,10,4,5,0.6,0.5
2024-06-20T0700,2334A,118.1756,26.6272,南平市,南平七中,,28,28,20,8,8,8,,,,6,7,4,4,0.6,0.6
2024-06-20T0700,1168A,120.9098,31.9663,南通市,狼山街道,,8,6,7,3,3,16,,,,15,27,10,10,0.5,0.5
2024-06-20T0700,1169A,120.86,32.0005,南通市,虹桥,,11,11,25,3,2,13,,,,21,25,5,5,0.6,0.6
2024-06-20T0700,1170A,120.87,32.02,南通市,城中,,15,15,15,8,8,17,,,,24,24,6,6,0.5,0.5
2024-06-20T0700,1171A,120.94,31.93,南通市,星湖花园,,12,6,3,3,3,15,,,,24,29,4,4,0.6,0.6
2024-06-20T0700,1172A,120.81,32.0417,南通市,紫琅学院,,14,6,4,3,1,10,,,,28,38,6,6,0.7,0.7
2024-06-20T0700,3291A,121.067,32.062,南通市,通州监测站,,13,9,14,9,7,19,,,,16,16,10,10,0.6,0.6
2024-06-20T0700,3432A,120.9348,31.9883,南通市,环境教育馆,,17,17,13,3,6,14,,,,30,32,8,8,0.5,0.5
2024-06-20T0700,2404A,112.5224,33.0122,南阳市,瓦房庄,,28,23,38,19,27,58,,,,16,21,7,6,0.3,0.3
2024-06-20T0700,2405A,112.5003,32.9735,南阳市,汉画馆,,32,32,46,21,31,42,,,,23,27,2,3,0.5,0.6
2024-06-20T0700,2406A,112.5573,33.027,南阳市,气象站,,28,,39,19,27,63,,,,14,21,4,4,0.7,0.8
2024-06-20T0700,2407A,112.5481,32.9689,南阳市,理工学院,,33,33,47,23,33,58,,,,16,20,6,6,0.5,0.5
2024-06-20T0700,4008A,112.5234,32.9922,南阳市,卧龙区政府,,42,,41,29,31,52,,,,18,23,2,2,0.7,0.8
2024-06-20T0700,1234A,121.8358,29.911,宁波市,区环保大楼,,33,33,33,17,14,4,,,,49,35,5,5,0.9,0.8
2024-06-20T0700,1235A,121.56,29.82,宁波市,万里学院,,27,27,22,16,15,34,,,,19,19,6,4,0.7,0.7
2024-06-20T0700,1236A,121.713,29.9572,宁波市,龙赛医院,,31,31,40,7,21,2,,,,48,35,5,4,0.7,0.6
2024-06-20T0700,1239A,121.633,29.7733,宁波市,钱湖水厂,,17,17,20,11,13,33,,,,6,8,4,4,0.5,0.5
2024-06-20T0700,1240A,121.5856,29.8635,宁波市,太古小学,,23,20,16,16,12,20,,,,26,16,5,5,1.6,0.8
2024-06-20T0700,1241A,121.524,29.8674,宁波市,市环境监测中心,,26,26,24,12,9,25,,,,22,20,3,3,0.8,0.8
2024-06-20T0700,2871A,121.6147,29.9017,宁波市,万里国际学校,,26,23,15,18,12,9,,,,40,14,4,4,0.5,0.4
2024-06-20T0700,3710A,121.5594,29.8975,宁波市,白沙活动中心,,25,25,20,16,12,16,,,,25,17,7,8,0.5,0.5
2024-06-20T0700,2339A,119.5001,26.6946,宁德市,金涵水库,,,,,,,,,,,,,,,,
2024-06-20T0700,2341A,119.5388,26.6612,宁德市,宁德市监测站,,30,30,31,13,17,8,,,,13,21,5,5,0.7,0.9
2024-06-20T0700,3209A,119.5231,26.6562,宁德市,宁德一中,,35,35,34,16,21,11,,,,12,12,5,5,0.9,1
2024-06-20T0700,2618A,98.8601,25.8567,怒江傈僳族自治州,州监测站,,35,35,34,22,24,20,,,,22,15,9,9,0.6,0.5
2024-06-20T0700,2619A,98.8546,25.8417,怒江傈僳族自治州,泸水一中,,28,26,33,19,22,14,,,,17,14,5,5,0.3,0.3
2024-06-20T0700,1888A,101.6891,26.571,攀枝花市,弄弄坪,颗粒物(PM10),58,65,62,20,22,34,,,,27,31,18,23,0.7,0.6
2024-06-20T0700,1889A,101.5769,26.5928,攀枝花市,河门口,,28,28,37,13,20,18,,,,23,22,7,12,1.1,1.1
2024-06-20T0700,1890A,101.7169,26.585,攀枝花市,炳草岗,,39,39,44,18,22,31,,,,28,24,17,22,0.7,0.6
2024-06-20T0700,1891A,101.7369,26.5008,攀枝花市,仁和,,27,27,28,13,16,34,,,,16,13,7,8,0.4,0.4
2024-06-20T0700,2835A,101.7227,26.567,攀枝花市,四十中小,,30,30,36,15,19,59,,,,10,15,22,32,0.4,0.4
2024-06-20T0700,1604A,122.0303,41.1489,盘锦市,开发区,,38,,35,15,11,120,,,,13,13,5,5,0.3,0.2
2024-06-20T0700,1605A,122.0485,41.0883,盘锦市,兴隆台,,35,22,25,14,11,111,,,,22,17,5,6,0.3,0.2
2024-06-20T0700,1606A,121.8297,41.1028,盘锦市,新生街道,,36,16,23,11,10,113,,,,12,12,5,5,0.2,0.2
2024-06-20T0700,1832A,113.3257,33.742,平顶山市,新华旅馆,细颗粒物(PM2.5),82,67,62,60,41,70,,,,17,18,5,8,0.5,0.5
2024-06-20T0700,1833A,113.2919,33.737,平顶山市,规划设计院,细颗粒物(PM2.5),58,,48,41,34,68,,,,17,20,5,7,0.7,0.7
2024-06-20T0700,1834A,113.182,33.774,平顶山市,平顶山工学院,颗粒物(PM10),55,60,61,34,32,70,,,,18,17,5,7,0.6,0.6
2024-06-20T0700,3204A,113.3025,33.73,平顶山市,规划局,细颗粒物(PM2.5),57,53,58,40,36,61,,,,17,20,4,7,0.5,0.5
2024-06-20T0700,3594A,112.8867,33.9116,平顶山市,石龙区,细颗粒物(PM2.5),62,71,70,44,40,34,,,,41,16,6,7,0.5,0.6
2024-06-20T0700,2656A,106.6692,35.5461,平凉市,聚贤嘉苑,,44,44,40,21,18,45,,,,47,21,12,11,0.6,0.5
2024-06-20T0700,2657A,106.7021,35.5307,平凉市,博物馆,,46,46,44,27,20,57,,,,53,38,19,23,0.4,0.6
2024-06-20T0700,2347A,114.0997,27.5002,萍乡市,武功山,,21,,4,3,3,65,,,,2,2,9,9,0.4,0.4
2024-06-20T0700,2348A,113.8385,27.6434,萍乡市,中医院,,28,27,22,19,13,2,,,,14,9,8,8,1.0,0.9
2024-06-20T0700,2349A,113.8493,27.6253,萍乡市,市政府车库,,32,27,16,22,17,6,,,,13,10,13,12,1.1,0.9
2024-06-20T0700,2350A,113.8676,27.6435,萍乡市,市环保局,,41,41,22,27,15,9,,,,16,11,15,10,0.7,0.6
2024-06-20T0700,2351A,113.866,27.6198,萍乡市,安源区政府,,30,30,23,15,10,0,,,,11,10,13,14,1.1,0.7
2024-06-20T0700,2319A,119.0141,25.4325,莆田市,荔城区仓后路,,24,24,30,13,7,15,,,,14,13,7,7,0.8,0.6
2024-06-20T0700,2320A,119.0015,25.4553,莆田市,莆田市监测站,,24,24,32,8,2,12,,,,8,9,8,8,0.6,0.6
2024-06-20T0700,2321A,119.1119,25.4561,莆田市,涵江区六中,,20,20,23,13,5,10,,,,22,18,8,8,0.6,0.6
2024-06-20T0700,2322A,119.1013,25.3215,莆田市,秀屿区政府,,,,20,9,7,20,,,,18,13,12,10,0.5,0.5
2024-06-20T0700,2323A,118.981,25.4792,莆田市,东圳水库,,,,,,,,,,,,,,,,
2024-06-20T0700,2392A,115.0312,35.7636,濮阳市,环保局,细颗粒物(PM2.5),65,56,52,47,28,110,,,,20,16,10,9,0.5,0.4
2024-06-20T0700,2394A,115.0574,35.7609,濮阳市,油田运输公司,颗粒物(PM10),70,89,55,42,25,104,,,,22,17,10,11,0.6,0.5
2024-06-20T0700,2395A,115.0866,35.7754,濮阳市,油田物探公司,细颗粒物(PM2.5),77,100,56,56,29,104,,,,24,14,9,9,0.6,0.5
2024-06-20T0700,3021A,115,35.7668,濮阳市,濮水河管理处,颗粒物(PM10),53,56,53,36,30,102,,,,14,14,8,8,0.6,0.4
2024-06-20T0700,2601A,100.98,22.7633,普洱市,市环保局,,32,23,24,22,17,28,,,,7,6,11,9,0.4,0.4
2024-06-20T0700,2602A,100.9817,22.8322,普洱市,普洱第二中学,,23,23,27,12,13,29,,,,8,6,10,10,0.2,0.3
2024-06-20T0700,2262A,131.0518,45.8751,七台河市,新一中,,25,18,17,17,12,79,,,,7,8,9,10,0.8,0.7
2024-06-20T0700,3345A,131.0577,45.7879,七台河市,中波台,,20,,13,6,6,63,,,,10,14,7,8,0.4,0.3
2024-06-20T0700,3637A,131.0176,45.7761,七台河市,人民广场,,20,18,19,14,9,62,,,,10,13,9,10,0.4,0.4
2024-06-20T0700,3684A,130.8781,45.8222,七台河市,新建矿广场,,25,,20,17,16,30,,,,41,27,15,15,0.4,0.3
2024-06-20T0700,1779A,123.9305,47.3636,齐齐哈尔市,安居小区,,23,23,25,3,15,40,,,,9,16,6,7,0.3,0.4
2024-06-20T0700,1780A,123.9488,47.3386,齐齐哈尔市,中心广场,,26,,32,18,17,37,,,,12,16,9,9,0.2,0.3
2024-06-20T0700,1781A,123.9483,47.3227,齐齐哈尔市,农牧车辆厂,,17,17,35,6,11,42,,,,10,14,8,8,0.1,0.2
2024-06-20T0700,1783A,123.945,47.2988,齐齐哈尔市,市环境监测站,,28,28,29,6,17,41,,,,9,13,5,5,0.2,0.3
2024-06-20T0700,3662A,123.6333,47.2075,齐齐哈尔市,富区青少年活动中心,,21,21,21,3,8,44,,,,10,12,5,5,0.3,0.3
2024-06-20T0700,2591A,107.9783,26.5747,黔东南苗族侗族自治州,市环境监测站,,21,21,24,13,16,16,,,,10,15,3,3,0.6,0.7
2024-06-20T0700,2881A,107.8908,26.5311,黔东南苗族侗族自治州,凯里学院,,17,,16,10,11,53,,,,3,7,3,3,0.3,0.4
2024-06-20T0700,2593A,107.5228,26.2403,黔南布依族苗族自治州,小围寨,,17,14,12,7,10,54,,,,3,3,4,4,0.4,0.4
2024-06-20T0700,3538A,107.5175,26.2978,黔南布依族苗族自治州,沙坝,,20,7,12,3,6,63,,,,3,4,4,4,0.4,0.5
2024-06-20T0700,2589A,104.9022,25.0925,黔西南布依族苗族自治州,场坝街,,13,10,12,3,6,40,,,,5,7,3,2,0.4,0.4
2024-06-20T0700,2590A,104.8811,25.0992,黔西南布依族苗族自治州,坪东大道,,18,18,18,8,6,32,,,,7,4,3,3,0.2,0.1
2024-06-20T0700,2502A,108.6236,21.9667,钦州市,市环保站,,19,19,30,9,8,50,,,,10,13,6,6,0.6,0.6
2024-06-20T0700,2503A,108.6549,21.9481,钦州市,沙埠小学,,39,38,33,27,17,31,,,,14,12,11,5,0.5,0.6
2024-06-20T0700,2504A,108.5989,21.7431,钦州市,港区一小,,26,26,41,9,13,60,,,,18,11,8,7,0.9,0.6
2024-06-20T0700,3404A,108.5959,21.9633,钦州市,北职校,,22,22,27,12,13,57,,,,8,11,6,6,0.5,0.5
2024-06-20T0700,1042A,119.5134,39.8207,秦皇岛市,北戴河环保局,,38,38,42,11,9,80,,,,10,11,3,3,0.2,0.2
2024-06-20T0700,1043A,119.7493,40.0116,秦皇岛市,第一关,,31,31,44,16,17,74,,,,12,38,3,2,0.2,0.2
2024-06-20T0700,1044A,119.5897,39.9499,秦皇岛市,监测站,,46,46,50,10,14,74,,,,15,17,2,2,0.3,0.4
2024-06-20T0700,1046A,119.5251,39.9041,秦皇岛市,建设大厦,颗粒物(PM10),56,62,49,14,12,4,,,,67,33,1,3,0.2,0.2
2024-06-20T0700,3132A,119.610547,39.943889,秦皇岛市,文明里,,30,30,49,18,20,84,,,,6,12,3,3,0.3,0.4
2024-06-20T0700,1307A,120.6659,36.2403,青岛市,仰口,,34,,22,9,11,108,,,,1,2,4,4,0.3,0.2
2024-06-20T0700,1310A,120.4134,36.0658,青岛市,市南区东部子站,,34,6,14,3,3,106,,,,3,6,7,8,0.4,0.4
2024-06-20T0700,1311A,120.3664,36.1032,青岛市,四方区子站,,33,6,19,3,8,103,,,,9,11,9,10,0.4,0.4
2024-06-20T0700,1312A,120.2994,36.054,青岛市,市南区西部子站,,36,12,16,3,6,114,,,,1,6,6,7,0.4,0.4
2024-06-20T0700,1313A,120.4581,36.0858,青岛市,崂山区子站,,37,9,17,3,7,116,,,,6,7,8,9,0.4,0.4
2024-06-20T0700,1314A,120.1983,35.9608,青岛市,黄岛区子站,,34,7,16,3,8,108,,,,9,7,6,6,0.5,0.4
2024-06-20T0700,1315A,120.3999,36.3083,青岛市,城阳区子站,,32,7,17,7,10,102,,,,9,11,7,7,0.4,0.4
2024-06-20T0700,1966A,120.0405,35.8735,青岛市,黄岛区4号,,35,7,15,3,5,110,,,,12,7,8,8,0.4,0.4
2024-06-20T0700,3362A,120.5014,36.4034,青岛市,即墨2号,,38,10,14,3,7,120,,,,6,7,6,6,0.4,0.4
2024-06-20T0700,3642A,120.3503,36.0736,青岛市,市北区南部,,35,14,19,3,5,112,,,,6,8,6,7,0.6,0.6
2024-06-20T0700,3643A,120.3948,36.1805,青岛市,李沧区北部,,27,17,15,7,10,85,,,,25,14,9,9,0.3,0.3
2024-06-20T0700,1702A,113.0426,23.691,清远市,环保大楼,,27,27,25,14,13,22,,,,15,16,5,5,0.5,0.6
2024-06-20T0700,1703A,113.0208,23.7106,清远市,凤城街办,,34,34,32,12,14,21,,,,12,14,3,4,0.4,0.5
2024-06-20T0700,3025A,113.0477,23.6344,清远市,技师学院,,39,39,34,18,14,27,,,,24,19,4,4,0.6,0.5
2024-06-20T0700,3318A,112.9903,23.7403,清远市,清新太和,,34,34,34,12,12,18,,,,16,16,6,6,0.6,0.5
2024-06-20T0700,3455A,113.076,23.7198,清远市,清城东城,,34,34,35,15,15,11,,,,9,12,5,5,0.6,0.6
2024-06-20T0700,2661A,107.6325,35.7357,庆阳市,庆阳五中,,39,39,36,25,18,118,,,,11,10,4,4,0.4,0.4
2024-06-20T0700,2662A,107.6364,35.7067,庆阳市,市环保局,,39,39,35,27,16,120,,,,8,8,6,6,0.5,0.4
2024-06-20T0700,1916A,103.7897,25.5035,曲靖市,环境监测站,,39,39,31,16,13,50,,,,8,9,2,2,0.7,0.7
2024-06-20T0700,1917A,103.8,25.5364,曲靖市,烟厂办公区,,38,38,30,23,14,52,,,,10,9,4,4,0.5,0.5
2024-06-20T0700,3376A,103.7947,25.462,曲靖市,南苑二区,,37,37,25,18,14,58,,,,6,8,4,4,0.5,0.5
2024-06-20T0700,3377A,103.7444,25.5261,曲靖市,曲靖师范学院,,42,42,29,24,16,60,,,,9,8,4,4,0.6,0.6
2024-06-20T0700,1264A,118.8692,28.9398,衢州市,环保大楼,,40,40,36,28,25,11,,,,38,33,4,4,0.7,0.6
2024-06-20T0700,1265A,118.8709,28.9666,衢州市,实验学校,,50,50,43,33,29,9,,,,32,30,4,3,0.7,0.5
2024-06-20T0700,1266A,118.8621,28.9808,衢州市,衢州学院,,49,43,35,34,34,4,,,,36,30,3,3,0.8,0.6
2024-06-20T0700,1611A,118.5819,24.9117,泉州市,涂山街,,25,25,20,13,9,17,,,,14,16,5,3,0.5,0.5
2024-06-20T0700,1612A,118.5972,24.8978,泉州市,津头埔,,18,18,18,10,8,20,,,,14,16,3,2,0.4,0.5
2024-06-20T0700,1613A,118.6663,24.9424,泉州市,万安,,16,16,15,8,8,18,,,,10,12,2,2,0.3,0.3
2024-06-20T0700,1614A,118.6117,24.9604,泉州市,清源山,,,,,,,,,,,,,,,,
2024-06-20T0700,3529A,118.6333,24.9264,泉州市,城华南路,,16,16,14,7,6,19,,,,11,14,3,2,0.4,0.4
2024-06-20T0700,2626A,88.8876,29.2718,日喀则市,日喀则监测站,,29,12,15,6,5,90,,,,10,7,6,6,0.5,0.5
2024-06-20T0700,3726A,88.8781,29.2426,日喀则市,林业技术推广中心,,32,7,16,3,3,100,,,,6,7,6,5,0.5,0.5
2024-06-20T0700,1659A,119.471,35.4209,日照市,监测站,,31,9,14,3,8,98,,,,11,9,9,9,0.2,0.2
2024-06-20T0700,1660A,119.523,35.4216,日照市,市政府广场,,32,7,15,3,5,100,,,,4,4,9,9,0.4,0.4
2024-06-20T0700,1661A,119.5587,35.4044,日照市,港务局,,36,6,15,3,3,113,,,,3,4,5,7,0.4,0.4
2024-06-20T0700,3507A,119.5328,35.4625,日照市,职业技术学院,,32,7,15,7,6,101,,,,8,7,7,8,0.5,0.5
2024-06-20T0700,3604A,119.3266,35.1044,日照市,岚山环保分局,,35,7,18,3,5,110,,,,5,10,6,6,0.4,0.4
2024-06-20T0700,1835A,111.1922,34.7752,三门峡市,市政府,颗粒物(PM10),55,60,45,36,18,85,,,,24,19,11,10,0.8,0.6
2024-06-20T0700,1836A,111.1587,34.7942,三门峡市,开发区,颗粒物(PM10),61,71,54,41,30,94,,,,23,21,12,12,1.0,0.8
2024-06-20T0700,1838A,111.143,34.7955,三门峡市,风景区,,,,,,,,,,,,,,,,
2024-06-20T0700,3039A,111.1911,34.7829,三门峡市,三门峡市第一小学,颗粒物(PM10),51,52,46,35,25,102,,,,22,13,11,9,0.8,0.7
2024-06-20T0700,3598A,111.1,34.7167,三门峡市,富达温泉假日酒店,细颗粒物(PM2.5),55,41,45,39,29,106,,,,16,15,12,11,0.6,0.5
2024-06-20T0700,2324A,117.6211,26.2625,三明市,三钢,,23,23,25,9,10,11,,,,12,16,10,12,0.9,1.3
2024-06-20T0700,2325A,117.635,26.2714,三明市,三明二中,,13,13,23,8,10,13,,,,8,12,4,7,0.5,0.7
2024-06-20T0700,2326A,117.6028,26.2378,三明市,三元区政府,,17,17,22,8,9,8,,,,9,12,2,3,0.4,0.4
2024-06-20T0700,2327A,117.7275,26.3108,三明市,洋溪,,,,,,,,,,,,,,,,
2024-06-20T0700,1876A,109.5078,18.2489,三亚市,河东子站,,25,17,22,11,12,78,,,,2,3,3,3,0.4,0.4
2024-06-20T0700,1877A,109.4964,18.2681,三亚市,河西子站,,23,20,21,10,13,73,,,,4,4,1,1,0.2,0.2
2024-06-20T0700,3540A,109.7348,18.3443,三亚市,君悦子站,,15,15,23,9,10,28,,,,11,5,2,2,0.4,0.3
2024-06-20T0700,2624A,91.7608,29.2313,山南市,山南监测站,,23,6,11,3,4,71,,,,8,6,5,4,0.3,0.3
2024-06-20T0700,2625A,91.7706,29.2436,山南市,山南人民医院,,21,10,29,6,11,66,,,,11,11,6,6,0.5,0.4
2024-06-20T0700,1674A,116.6794,23.3667,汕头市,金平子站,,9,,11,3,5,28,,,,6,7,1,2,0.6,0.7
2024-06-20T0700,1675A,116.7244,23.3633,汕头市,龙湖子站,,8,7,11,3,5,25,,,,4,7,5,5,0.5,0.6
2024-06-20T0700,1676A,116.7258,23.2775,汕头市,濠江子站,,,,13,7,6,25,,,,6,5,4,4,0.8,0.8
2024-06-20T0700,1677A,116.7519,23.4714,汕头市,澄海子站,,,,15,8,9,24,,,,6,13,6,6,0.6,0.7
2024-06-20T0700,1678A,116.6092,23.2539,汕头市,潮阳子站,,10,,12,3,5,30,,,,4,6,4,4,0.5,0.4
2024-06-20T0700,3444A,116.454,23.2684,汕头市,潮南峡山,,8,8,18,3,7,24,,,,7,10,4,4,0.5,0.5
2024-06-20T0700,3624A,116.4069,23.2533,汕头市,潮南子站,,33,33,18,22,10,12,,,,12,10,6,6,0.9,0.8
2024-06-20T0700,1693A,115.3653,22.775,汕尾市,市环保局,,13,,9,9,5,27,,,,3,3,4,4,0.5,0.5
2024-06-20T0700,1694A,115.3706,22.7898,汕尾市,市政府,,10,6,11,3,5,30,,,,2,2,5,6,0.5,0.5
2024-06-20T0700,1695A,115.3622,22.7925,汕尾市,新城中学,,10,,14,7,4,30,,,,4,4,4,4,0.5,0.4
2024-06-20T0700,2645A,109.9154,33.8715,商洛市,监测站,,50,50,43,25,23,69,,,,9,10,9,9,0.7,0.6
2024-06-20T0700,3045A,109.9643,33.8471,商洛市,商州区中学,,48,48,46,24,25,56,,,,13,14,16,15,0.9,0.9
2024-06-20T0700,2408A,115.6702,34.4285,商丘市,环境监测站,,43,37,63,30,31,117,,,,14,14,11,10,0.4,0.4
2024-06-20T0700,2409A,115.6458,34.4045,商丘市,粮食局,颗粒物(PM10),53,56,64,31,27,111,,,,15,14,4,6,0.5,0.5
2024-06-20T0700,2410A,115.6293,34.3948,商丘市,睢阳区环保局,细颗粒物(PM2.5),67,66,66,48,33,106,,,,18,15,6,7,0.5,0.4
2024-06-20T0700,3171A,115.6071,34.4465,商丘市,梁园区档案局,细颗粒物(PM2.5),52,44,57,36,32,106,,,,17,13,8,9,0.6,0.6
2024-06-20T0700,1141A,121.4,31.238,上海市,普陀,,19,,19,13,16,36,,,,17,23,4,5,0.4,0.4
2024-06-20T0700,1142A,121.478,31.2036,上海市,十五厂,,23,,20,16,16,25,,,,28,28,7,6,0.6,0.6
2024-06-20T0700,1143A,121.467,31.3008,上海市,虹口,,26,,20,18,16,27,,,,26,24,5,4,0.6,0.5
2024-06-20T0700,1144A,121.412,31.1654,上海市,徐汇上师大,,20,,20,14,16,28,,,,26,28,7,7,0.7,0.7
2024-06-20T0700,1145A,121.536,31.2659,上海市,杨浦四漂,,19,,20,13,14,25,,,,30,25,7,6,0.8,0.7
2024-06-20T0700,1147A,121.425,31.2261,上海市,静安监测站,,23,,21,16,16,32,,,,21,26,7,8,0.6,0.6
2024-06-20T0700,1148A,121.703,31.1907,上海市,浦东川沙,,32,,19,22,17,39,,,,22,24,6,6,0.7,0.6
2024-06-20T0700,1149A,121.533,31.2284,上海市,浦东新区监测站,,15,11,17,10,14,29,,,,28,25,4,4,0.6,0.5
2024-06-20T0700,1150A,121.577,31.2071,上海市,浦东张江,,19,,19,13,14,30,,,,28,24,5,5,0.8,0.8
2024-06-20T0700,3265A,121.4316,31.3322,上海市,宝山庙行,,,17,21,,14,,,,,,27,7,7,0.4,0.6
2024-06-20T0700,3266A,121.8791,31.4662,上海市,崇明上实东滩,,29,24,13,20,9,46,,,,17,16,8,8,0.6,0.6
2024-06-20T0700,3268A,121.3162,31.2838,上海市,嘉定南翔,,26,,20,18,14,18,,,,33,36,4,5,0.7,0.6
2024-06-20T0700,3269A,121.3359,30.7456,上海市,金山新城,,28,,23,19,17,35,,,,19,21,6,6,0.6,0.5
2024-06-20T0700,3270A,121.4996,31.0739,上海市,闵行浦江,,32,,18,22,18,22,,,,26,20,5,5,0.6,0.6
2024-06-20T0700,3271A,121.2886,31.1663,上海市,青浦徐泾,,20,,21,14,15,20,,,,31,28,5,5,0.5,0.5
2024-06-20T0700,3272A,121.2186,31.0378,上海市,松江图书馆,,16,,17,11,15,27,,,,22,25,6,6,0.7,0.7
2024-06-20T0700,3273A,121.3902,31.2059,上海市,长宁仙霞,,22,,20,15,16,24,,,,25,27,4,5,0.9,0.9
2024-06-20T0700,3274A,121.7965,31.0507,上海市,浦东惠南,,35,,17,24,14,34,,,,21,24,6,6,0.6,0.6
2024-06-20T0700,3544A,121.4891,30.925,上海市,奉贤南桥新城,,25,,20,17,13,40,,,,20,29,4,4,0.5,0.5
2024-06-20T0700,2381A,118.005,28.4572,上饶市,百草园,细颗粒物(PM2.5),54,52,36,38,20,5,,,,11,15,5,5,1.0,0.9
2024-06-20T0700,2382A,117.9756,28.4436,上饶市,市监测站,颗粒物(PM10),53,56,41,31,21,8,,,,25,20,5,3,1.0,0.9
2024-06-20T0700,2383A,117.9519,28.4628,上饶市,凤凰光学,颗粒物(PM10),51,51,38,29,22,6,,,,32,27,28,19,0.9,0.7
2024-06-20T0700,3413A,118.1953,28.4401,上饶市,广丰区教体局,,45,45,42,20,24,4,,,,15,14,6,10,1.0,0.9
2024-06-20T0700,3685A,117.897,28.4315,上饶市,双创科技城,细颗粒物(PM2.5),54,53,44,38,27,10,,,,29,24,61,22,1.2,1
2024-06-20T0700,1669A,113.5824,24.7733,韶关市,市八中,,19,19,31,10,14,38,,,,10,12,10,9,0.7,0.7
2024-06-20T0700,1671A,113.5917,24.7972,韶关市,园林处,,21,21,28,14,21,36,,,,12,14,8,8,0.6,0.6
2024-06-20T0700,1672A,113.6735,24.7791,韶关市,韶关学院,,25,25,27,15,17,30,,,,12,6,12,8,0.7,0.4
2024-06-20T0700,1673A,113.5971,24.6863,韶关市,曲江监测站,,24,24,32,13,15,30,,,,11,13,8,9,0.6,0.6
2024-06-20T0700,3622A,113.5556,24.8082,韶关市,碧湖山庄,,23,23,30,13,17,34,,,,9,12,9,11,0.3,0.4
2024-06-20T0700,2462A,111.5239,27.3033,邵阳市,市水土所,,22,22,18,8,8,7,,,,4,4,5,5,0.3,0.3
2024-06-20T0700,2463A,111.4733,27.2317,邵阳市,市一中,,16,13,15,11,10,9,,,,13,7,6,6,0.5,0.5
2024-06-20T0700,2464A,111.5283,27.2442,邵阳市,市化工厂,,19,19,16,13,10,9,,,,13,10,5,6,0.5,0.5
2024-06-20T0700,2465A,111.4503,27.2537,邵阳市,市罐头厂,,26,26,19,15,11,12,,,,13,9,4,5,0.4,0.4
2024-06-20T0700,2466A,111.4328,27.2272,邵阳市,市环保局,,23,,17,16,12,14,,,,9,7,5,5,0.7,0.7
2024-06-20T0700,1247A,120.6053,29.9928,绍兴市,城东开发委,,18,17,15,12,10,8,,,,21,17,5,5,0.8,0.7
2024-06-20T0700,2921A,120.5483,30.0003,绍兴市,树下王站,,16,16,16,10,8,8,,,,17,14,4,4,0.7,0.6
2024-06-20T0700,3408A,120.5683,29.9361,绍兴市,绍兴中专,,22,22,17,11,6,13,,,,19,15,3,4,0.8,0.7
2024-06-20T0700,3409A,120.4906,30.0861,绍兴市,柯桥区政府,,16,16,16,9,10,17,,,,17,19,5,5,0.5,0.4
2024-06-20T0700,3410A,120.8752,30.0249,绍兴市,重华小学,,24,24,16,15,8,23,,,,16,11,7,7,0.8,0.7
2024-06-20T0700,3411A,120.8369,30.0137,绍兴市,上虞中学,,18,13,11,12,11,12,,,,18,21,7,8,0.6,0.6
2024-06-20T0700,3560A,120.4722,30.0415,绍兴市,柯桥妇保,,16,12,19,11,14,29,,,,12,22,6,6,0.8,0.8
2024-06-20T0700,3658A,120.6153,30.0764,绍兴市,袍江中学,,20,18,16,14,10,13,,,,21,22,9,9,0.7,0.6
2024-06-20T0700,1356A,114.1063,22.5545,深圳市,通心岭子站,,11,11,14,6,5,16,,,,8,7,4,4,0.7,0.6
2024-06-20T0700,1357A,114.117,22.5625,深圳市,洪湖,,15,15,16,6,7,16,,,,15,9,5,5,0.4,0.4
2024-06-20T0700,1358A,113.987,22.5417,深圳市,华侨城,,11,11,15,3,9,24,,,,3,7,4,4,0.4,0.4
2024-06-20T0700,1359A,113.9181,22.5171,深圳市,南海子站,,13,13,21,6,10,28,,,,13,12,5,5,0.5,0.5
2024-06-20T0700,1360A,114.2458,22.5689,深圳市,盐田,,20,20,20,3,6,2,,,,21,20,5,5,0.4,0.4
2024-06-20T0700,1361A,114.2283,22.7244,深圳市,龙岗,,15,15,15,6,5,8,,,,19,10,4,4,0.5,0.4
2024-06-20T0700,1363A,114.494,22.5422,深圳市,南澳,,17,17,13,3,0,9,,,,5,2,6,6,0.4,0.4
2024-06-20T0700,1364A,114.41,22.6342,深圳市,葵涌,,13,13,12,3,4,26,,,,10,16,5,4,0.4,0.4
2024-06-20T0700,1365A,114.297,22.5978,深圳市,梅沙,,15,15,16,3,5,14,,,,4,6,3,4,0.3,0.3
2024-06-20T0700,1366A,114.0678,22.738,深圳市,观澜,,28,28,25,7,9,16,,,,19,16,7,7,0.6,0.6
2024-06-20T0700,3305A,114.0731,22.559,深圳市,莲花,,16,16,19,7,8,15,,,,4,7,5,4,0.6,0.5
2024-06-20T0700,3306A,114.0261,22.6198,深圳市,民治,,10,10,14,6,8,28,,,,6,8,4,4,0.4,0.5
2024-06-20T0700,3307A,114.1871,22.6451,深圳市,横岗,,16,16,15,8,7,9,,,,30,21,6,5,0.5,0.4
2024-06-20T0700,3447A,114.3551,22.7151,深圳市,坪山,,10,10,15,3,3,25,,,,6,6,3,3,0.4,0.4
2024-06-20T0700,3623A,113.8953,22.5861,深圳市,西乡,,16,16,23,6,6,12,,,,25,14,5,6,0.5,0.5
2024-06-20T0700,1098A,123.6836,41.9339,沈阳市,森林路,,,,,,,,,,,,,,,,
2024-06-20T0700,1099A,123.505,41.7406,沈阳市,浑南东路,,33,33,32,12,14,92,,,,42,30,10,12,0.9,0.6
2024-06-20T0700,1100A,123.4231,41.6989,沈阳市,新秀街,,42,42,36,16,15,95,,,,38,28,46,34,0.8,0.7
2024-06-20T0700,1102A,123.5903,41.8411,沈阳市,东陵路,,36,36,39,12,12,82,,,,41,26,14,13,1.7,0.9
2024-06-20T0700,1103A,123.4264,41.8467,沈阳市,陵东街,,36,28,25,12,10,115,,,,28,20,9,10,0.8,0.7
2024-06-20T0700,1104A,123.4114,41.7653,沈阳市,文化路,,44,44,34,12,9,115,,,,28,21,9,12,0.5,0.4
2024-06-20T0700,1105A,123.4678,41.7867,沈阳市,小河沿,,34,26,26,8,9,106,,,,31,23,15,11,0.7,0.6
2024-06-20T0700,1106A,123.4017,41.7972,沈阳市,太原街,,35,34,37,17,12,111,,,,28,20,9,11,0.6,0.6
2024-06-20T0700,1108A,123.3783,41.9228,沈阳市,京沈街,,36,35,46,17,12,114,,,,25,17,25,16,0.7,0.6
2024-06-20T0700,2897A,123.2444,41.7347,沈阳市,沈辽西路,,47,47,37,14,13,87,,,,36,24,10,10,0.6,0.6
2024-06-20T0700,2900A,123.5953,41.9086,沈阳市,裕农路,,39,39,29,16,14,86,,,,42,26,12,11,1.5,0.9
