timepoint,stationcode,longitude,latitude,area,positionname,primarypollutant,aqi,pm10,pm10_24h,pm2_5,pm2_5_24h,o3,o3_24h,o3_8h,o3_8h_24h,no2,no2_24h,so2,so2_24h,co,co_24h
2022-03-15T18:00:00,1001A,116.3621,39.8784,北京市,万寿西宫,颗粒物(PM10),85,120,71,51,42,101,73,68,68,34,25,1,2,0.7,0.6
2022-03-15T18:00:00,1002A,116.2202,40.2915,北京市,定陵(对照点),颗粒物(PM10),75,99,82,43,49,99,81,79,79,32,21,3,2,0.6,0.6
2022-03-15T18:00:00,1003A,116.4174,39.9289,北京市,东四,颗粒物(PM10),84,117,73,45,40,103,67,68,68,35,23,1,2,0.7,0.6
2022-03-15T18:00:00,1004A,116.4072,39.8863,北京市,天坛,颗粒物(PM10),80,110,72,45,41,102,74,71,71,29,22,2,2,0.6,0.6
2022-03-15T18:00:00,1005A,116.462,39.9365,北京市,农展馆,颗粒物(PM10),81,112,73,45,41,103,68,70,70,35,22,2,2,0.6,0.6
2022-03-15T18:00:00,1006A,116.3392,39.9295,北京市,官园,颗粒物(PM10),87,124,74,50,42,101,80,69,69,29,22,4,4,0.7,0.6
2022-03-15T18:00:00,1007A,116.2878,39.9611,北京市,海淀万柳,颗粒物(PM10),86,121,75,55,45,97,65,64,64,45,30,1,2,0.7,0.6
2022-03-15T18:00:00,1008A,116.6636,40.135,北京市,顺义新城,颗粒物(PM10),70,89,62,37,34,88,68,76,76,36,19,2,2,0.7,0.6
2022-03-15T18:00:00,1009A,116.6275,40.3275,北京市,怀柔镇,颗粒物(PM10),64,78,62,41,34,99,90,83,83,25,19,1,2,0.6,0.6
2022-03-15T18:00:00,1010A,116.2296,40.217,北京市,昌平镇,颗粒物(PM10),79,107,77,47,43,108,70,75,75,41,22,2,2,0.7,0.6
2022-03-15T18:00:00,1011A,116.3966,39.9821,北京市,奥体中心,颗粒物(PM10),81,112,74,41,41,110,69,72,72,37,26,2,2,0.6,0.6
2022-03-15T18:00:00,1012A,116.184,39.9136,北京市,古城,颗粒物(PM10),88,126,82,61,49,98,72,63,63,31,25,1,2,0.6,0.6
2022-03-15T18:00:00,1015A,117.1444,39.1661,天津市,勤俭道,颗粒物(PM10),107,163,83,78,49,97,84,79,76,42,28,8,9,0.9,0.9
2022-03-15T18:00:00,1017A,117.237,39.1082,天津市,大直沽八号路,细颗粒物(PM2.5),123,184,88,93,57,98,86,78,73,53,34,11,12,1.2,1
2022-03-15T18:00:00,1018A,117.202,39.0927,天津市,前进道,细颗粒物(PM2.5),129,192,96,98,59,90,82,79,72,48,31,9,9,1.1,0.9
2022-03-15T18:00:00,1019A,117.1837,39.2133,天津市,淮河道,细颗粒物(PM2.5),109,140,83,82,52,93,83,81,81,45,31,9,8,,1
2022-03-15T18:00:00,1021A,117.307,39.0877,天津市,跃进路,细颗粒物(PM2.5),134,192,95,102,63,94,76,72,70,52,36,8,12,0.9,0.7
2022-03-15T18:00:00,1023A,117.707,39.0343,天津市,第四大街,颗粒物(PM10),144,237,117,97,63,73,43,59,54,76,47,11,8,1.7,1
2022-03-15T18:00:00,1024A,117.457,38.8394,天津市,永明路,细颗粒物(PM2.5),128,196,108,97,69,98,26,87,65,81,36,12,10,1.1,0.8
2022-03-15T18:00:00,1026A,117.764,39.1587,天津市,汉北路,细颗粒物(PM2.5),94,128,76,70,52,75,28,74,55,64,33,9,8,1.1,0.8
2022-03-15T18:00:00,1027A,117.157,38.9194,天津市,团泊洼(对照点),细颗粒物(PM2.5),117,147,86,88,62,96,87,84,75,42,35,9,8,1.0,0.9
2022-03-15T18:00:00,1029A,114.4422,38.0444,石家庄市,职工医院,颗粒物(PM10),159,268,189,110,69,126,124,104,104,36,37,9,6,0.8,0.7
2022-03-15T18:00:00,1030A,114.6063,38.0266,石家庄市,高新区,颗粒物(PM10),171,291,191,100,74,139,137,110,110,24,31,12,9,1.0,0.9
2022-03-15T18:00:00,1031A,114.4898,38.1328,石家庄市,西北水源,颗粒物(PM10),171,292,210,91,66,129,117,100,100,28,27,10,6,0.8,0.7
2022-03-15T18:00:00,1032A,114.4586,38.0058,石家庄市,西南高教,颗粒物(PM10),153,256,195,96,64,121,121,100,100,,,9,6,1.0,0.9
2022-03-15T18:00:00,1033A,114.5331,38.0178,石家庄市,世纪公园,颗粒物(PM10),144,237,173,86,68,134,134,107,107,27,30,14,10,0.8,0.8
2022-03-15T18:00:00,1034A,114.509,38.0457,石家庄市,人民会堂,细颗粒物(PM2.5),159,263,230,121,76,136,134,112,112,32,29,15,10,0.9,0.8
2022-03-15T18:00:00,1035A,114.3524,37.8911,石家庄市,封龙山(对照点),颗粒物(PM10),179,308,331,92,76,132,132,98,98,20,25,16,15,0.9,1
2022-03-15T18:00:00,1037A,118.131,39.6363,唐山市,雷达站,颗粒物(PM10),107,163,82,70,52,97,85,82,82,40,19,6,6,1.1,0.9
2022-03-15T18:00:00,1038A,118.1725,39.6334,唐山市,物资局,颗粒物(PM10),109,168,81,52,48,87,70,74,74,49,20,8,11,1.0,0.9
2022-03-15T18:00:00,1040A,118.1705,39.6506,唐山市,十二中,颗粒物(PM10),134,217,101,77,51,89,74,76,76,36,22,7,6,0.9,0.9
2022-03-15T18:00:00,1041A,118.1869,39.622,唐山市,小山,颗粒物(PM10),115,180,83,56,41,95,87,81,81,35,25,6,6,0.8,0.8
2022-03-15T18:00:00,1042A,119.5134,39.8207,秦皇岛市,北戴河环保局,细颗粒物(PM2.5),72,86,37,52,26,86,83,80,80,38,19,7,6,0.7,0.3
2022-03-15T18:00:00,1043A,119.7493,40.0116,秦皇岛市,第一关,细颗粒物(PM2.5),100,124,52,75,32,87,81,81,81,45,38,12,9,0.8,0.3
2022-03-15T18:00:00,1044A,119.5897,39.9499,秦皇岛市,监测站,颗粒物(PM10),81,111,55,58,32,112,71,88,88,47,26,4,5,0.7,0.4
2022-03-15T18:00:00,1046A,119.5251,39.9041,秦皇岛市,建设大厦,,,120,55,61,33,113,80,95,95,,24,5,5,,0.5
2022-03-15T18:00:00,1048A,114.5302,36.6116,邯郸市,东污水处理厂,颗粒物(PM10),219,363,291,102,93,98,94,72,72,22,26,10,6,0.8,0.8
2022-03-15T18:00:00,1049A,114.4918,36.5713,邯郸市,矿院,颗粒物(PM10),343,454,331,111,98,107,98,80,80,17,23,8,7,0.6,0.7
2022-03-15T18:00:00,1050A,114.484,36.6133,邯郸市,丛台公园,颗粒物(PM10),339,451,351,101,90,113,104,80,79,14,17,8,8,0.9,0.9
2022-03-15T18:00:00,1051A,115.493,38.8632,保定市,游泳馆,颗粒物(PM10),101,152,118,72,66,106,95,78,78,39,35,12,10,0.4,0.4
2022-03-15T18:00:00,1052A,115.5213,38.8959,保定市,华电二区,颗粒物(PM10),120,190,147,79,57,107,81,74,74,36,31,14,9,0.6,0.6
2022-03-15T18:00:00,1053A,115.4713,38.9108,保定市,接待中心,细颗粒物(PM2.5),115,134,106,87,57,113,83,80,80,40,36,,7,0.8,0.7
2022-03-15T18:00:00,1054A,115.4612,38.8416,保定市,地表水厂,颗粒物(PM10),104,158,120,74,49,106,96,81,81,42,38,11,10,0.3,0.2
2022-03-15T18:00:00,1055A,115.4323,38.8697,保定市,胶片厂,颗粒物(PM10),99,148,123,73,56,106,79,82,82,46,33,9,7,1.0,0.8
2022-03-15T18:00:00,1056A,115.5086,38.8639,保定市,监测站,颗粒物(PM10),106,162,105,54,52,94,79,74,74,45,34,9,6,0.6,0.5
2022-03-15T18:00:00,1057A,114.8883,40.8336,张家口市,人民公园,颗粒物(PM10),85,119,140,4,30,112,104,108,108,9,14,5,5,0.5,0.6
2022-03-15T18:00:00,1059A,114.8687,40.8042,张家口市,五金库,颗粒物(PM10),91,132,156,17,43,111,97,104,104,13,17,6,7,0.4,0.5
2022-03-15T18:00:00,1060A,114.8902,40.762,张家口市,世纪豪园,颗粒物(PM10),84,117,159,9,57,109,94,102,102,14,18,2,3,0.3,0.5
2022-03-15T18:00:00,1061A,114.8916,40.8661,张家口市,北泵房(对照点),颗粒物(PM10),74,97,160,12,33,114,106,110,110,5,12,7,9,0.3,0.5
2022-03-15T18:00:00,1062A,117.9531,40.9081,承德市,铁路,,30,22,62,8,30,100,93,93,93,12,22,4,7,0.2,0.5
2022-03-15T18:00:00,1063A,117.9392,40.9763,承德市,中国银行,,27,27,74,8,27,94,84,88,88,10,18,3,6,0.3,0.6
2022-03-15T18:00:00,1064A,117.9503,40.928,承德市,开发区,,33,33,55,10,29,106,96,98,98,12,24,7,10,0.4,0.8
2022-03-15T18:00:00,1065A,117.8051,40.9655,承德市,文化中心,,30,24,65,11,28,102,95,94,94,10,23,2,8,0.3,0.7
2022-03-15T18:00:00,1067A,116.6708,39.5111,廊坊市,药材公司,颗粒物(PM10),83,115,65,60,43,117,101,91,91,26,24,6,5,0.8,0.6
2022-03-15T18:00:00,1068A,116.7214,39.5589,廊坊市,开发区,颗粒物(PM10),87,123,71,59,42,118,107,95,95,23,19,6,5,0.8,0.6
2022-03-15T18:00:00,1070A,116.7244,39.5269,廊坊市,北华航天学院,颗粒物(PM10),87,123,81,61,43,117,100,88,88,26,27,7,6,0.8,0.6
2022-03-15T18:00:00,1071A,116.8842,38.2991,沧州市,沧县城建局,颗粒物(PM10),176,302,133,94,63,140,133,106,106,23,24,8,9,1.0,0.9
2022-03-15T18:00:00,1072A,116.8584,38.3254,沧州市,电视转播站,颗粒物(PM10),205,353,142,90,58,134,134,102,102,23,24,13,12,0.6,0.6
2022-03-15T18:00:00,1073A,116.8709,38.3228,沧州市,市环保局,颗粒物(PM10),158,265,116,101,63,139,138,107,107,18,23,10,9,0.8,0.7
2022-03-15T18:00:00,1074A,115.6838,37.7541,衡水市,电机北厂,颗粒物(PM10),187,324,232,92,71,140,126,107,107,22,18,8,7,0.6,0.5
2022-03-15T18:00:00,1075A,115.6303,37.7316,衡水市,市监测站,颗粒物(PM10),349,459,312,102,77,140,123,108,108,17,16,12,11,0.6,0.4
2022-03-15T18:00:00,1077A,114.4704,37.0886,邢台市,达活泉,颗粒物(PM10),408,508,347,110,89,124,87,88,88,41,34,16,14,1.0,0.9
2022-03-15T18:00:00,1078A,114.5062,37.0349,邢台市,邢师高专,颗粒物(PM10),418,518,348,119,95,117,89,86,86,34,34,12,10,1.3,1.3
2022-03-15T18:00:00,1079A,114.5237,37.0851,邢台市,路桥公司,颗粒物(PM10),285,409,270,107,85,121,91,90,90,37,36,12,10,1.2,1.2
2022-03-15T18:00:00,1080A,114.4725,37.0719,邢台市,市环保局,颗粒物(PM10),312,429,286,107,89,116,83,84,84,43,36,11,8,1.1,1.1
2022-03-15T18:00:00,1081A,112.5139,37.8873,太原市,尖草坪,颗粒物(PM10),59,67,455,17,139,111,111,93,93,12,46,5,13,0.2,0.6
2022-03-15T18:00:00,1083A,112.434,38.0108,太原市,上兰(对照点),颗粒物(PM10),52,54,354,13,102,118,118,106,106,6,19,8,12,0.3,0.5
2022-03-15T18:00:00,1084A,112.469,37.7124,太原市,晋源,颗粒物(PM10),58,65,457,30,130,126,105,107,107,18,53,13,24,0.2,0.7
2022-03-15T18:00:00,1085A,112.5583,37.7394,太原市,小店,颗粒物(PM10),66,81,444,18,111,126,109,107,107,17,44,6,18,0.8,1.2
2022-03-15T18:00:00,1086A,112.5369,37.8692,太原市,桃园,颗粒物(PM10),51,51,441,17,105,109,109,94,94,11,40,5,14,0.3,0.7
2022-03-15T18:00:00,1087A,112.57,37.8195,太原市,坞城,颗粒物(PM10),65,80,446,24,144,118,108,96,96,14,37,5,15,0.4,0.7
2022-03-15T18:00:00,1088A,112.549,37.9854,太原市,南寨,颗粒物(PM10),60,70,419,19,107,109,109,92,92,14,32,6,10,0.3,0.7
2022-03-15T18:00:00,1090A,111.6507,40.7517,呼和浩特市,呼市一监,颗粒物(PM10),108,166,350,28,77,112,107,105,105,11,17,4,8,0.3,0.5
2022-03-15T18:00:00,1091A,111.6572,40.8033,呼和浩特市,小召,颗粒物(PM10),98,146,339,19,69,105,99,98,98,12,22,4,7,0.3,0.5
2022-03-15T18:00:00,1094A,111.7516,40.8369,呼和浩特市,如意水处理厂,颗粒物(PM10),105,159,270,15,65,109,104,101,101,8,28,7,9,0.3,0.4
2022-03-15T18:00:00,1095A,111.7276,40.8062,呼和浩特市,二十九中,颗粒物(PM10),101,151,325,19,63,111,106,103,103,7,22,3,5,0.3,0.5
2022-03-15T18:00:00,1096A,111.5512,40.7866,呼和浩特市,工大金川校区,颗粒物(PM10),119,187,324,21,67,110,110,105,105,5,17,8,11,,0.6
2022-03-15T18:00:00,1097A,111.717,40.7612,呼和浩特市,化肥厂生活区,颗粒物(PM10),111,172,280,24,70,103,99,96,96,6,15,7,10,0.3,0.4
2022-03-15T18:00:00,1098A,123.6836,41.9339,沈阳市,森林路(对照点),,49,47,38,34,30,92,77,59,59,12,19,9,10,0.6,0.7
2022-03-15T18:00:00,1099A,123.505,41.7406,沈阳市,浑南东路,细颗粒物(PM2.5),57,62,41,40,32,104,88,71,71,17,32,14,17,0.6,0.7
2022-03-15T18:00:00,1100A,123.4231,41.6989,沈阳市,新秀街,颗粒物(PM10),61,72,47,40,31,105,84,73,73,26,43,11,19,0.7,0.8
2022-03-15T18:00:00,1102A,123.5903,41.8411,沈阳市,东陵路,颗粒物(PM10),61,72,44,33,31,100,83,63,63,16,28,13,14,0.4,0.6
2022-03-15T18:00:00,1103A,123.4264,41.8467,沈阳市,陵东街,,49,49,38,33,28,98,82,72,72,20,39,8,9,0.5,0.7
2022-03-15T18:00:00,1104A,123.4114,41.7653,沈阳市,文化路,细颗粒物(PM2.5),67,72,47,48,38,106,84,74,74,21,34,8,16,0.5,0.9
2022-03-15T18:00:00,1105A,123.4678,41.7867,沈阳市,小河沿,颗粒物(PM10),57,63,42,37,29,93,72,65,65,25,35,11,12,0.6,0.7
2022-03-15T18:00:00,1106A,123.4017,41.7972,沈阳市,太原街,细颗粒物(PM2.5),60,60,45,43,36,97,73,64,64,27,39,10,28,0.6,0.8
2022-03-15T18:00:00,1108A,123.3783,41.9228,沈阳市,京沈街,,46,46,42,32,34,102,80,72,72,13,32,9,13,0.5,0.7
2022-03-15T18:00:00,1109A,121.612,38.9741,大连市,甘井子,细颗粒物(PM2.5),129,182,57,98,37,110,110,93,93,44,33,17,7,,0.4
2022-03-15T18:00:00,1110A,121.565,38.9511,大连市,周水子,颗粒物(PM10),93,135,46,62,28,145,145,98,98,24,28,13,12,0.9,0.6
2022-03-15T18:00:00,1111A,121.5637,38.8845,大连市,星海三站,细颗粒物(PM2.5),72,48,34,52,31,77,69,70,70,47,27,5,5,0.6,0.5
2022-03-15T18:00:00,1112A,121.6302,38.9117,大连市,青泥洼桥,颗粒物(PM10),63,76,38,40,24,100,71,87,87,74,31,14,10,0.9,0.6
2022-03-15T18:00:00,1113A,121.6251,38.8638,大连市,傅家庄,,50,47,32,35,23,82,78,72,72,37,25,4,6,0.6,0.4
2022-03-15T18:00:00,1114A,121.5213,38.8661,大连市,七贤岭,细颗粒物(PM2.5),82,91,40,60,26,104,99,87,87,43,23,13,12,0.9,0.6
2022-03-15T18:00:00,1115A,121.2529,38.8061,大连市,旅顺,细颗粒物(PM2.5),73,63,30,53,31,123,119,97,97,40,22,12,9,0.9,0.6
2022-03-15T18:00:00,1116A,121.7485,39.1311,大连市,金州,细颗粒物(PM2.5),87,102,35,64,29,119,119,84,84,34,28,11,6,1.0,0.6
2022-03-15T18:00:00,1117A,121.7811,39.0496,大连市,开发区,细颗粒物(PM2.5),54,47,34,38,26,82,50,73,72,64,32,9,6,0.7,0.5
2022-03-15T18:00:00,1118A,121.9762,39.0631,大连市,双D港,颗粒物(PM10),53,55,30,35,30,84,66,76,75,39,25,4,6,0.7,1
2022-03-15T18:00:00,1119A,125.3325,43.9166,长春市,食品厂,细颗粒物(PM2.5),53,29,32,37,30,86,59,79,77,25,21,8,12,0.5,0.5
2022-03-15T18:00:00,1120A,125.2863,43.9027,长春市,客车厂,,39,25,34,27,28,82,54,75,72,31,24,12,11,0.6,0.5
2022-03-15T18:00:00,1121A,125.2841,43.8463,长春市,邮电学院,,36,30,45,25,27,82,47,75,72,31,16,5,6,1.1,0.7
2022-03-15T18:00:00,1122A,125.3716,43.8772,长春市,劳动公园,,35,23,31,24,27,93,64,84,82,23,19,4,6,0.6,0.6
2022-03-15T18:00:00,1123A,125.3297,43.8805,长春市,园林处,,33,24,29,23,23,89,48,79,76,38,18,16,7,0.6,0.5
2022-03-15T18:00:00,1124A,125.4605,43.79,长春市,净月潭,,26,18,26,18,20,94,75,88,87,10,13,6,7,0.4,0.4
2022-03-15T18:00:00,1125A,125.7194,43.515,长春市,甩湾子(对照点),,36,26,31,25,24,89,64,84,83,8,9,7,8,0.8,0.7
2022-03-15T18:00:00,1126A,125.3863,43.8447,长春市,经开区环卫处,,36,25,30,25,31,81,55,76,74,23,18,8,8,0.5,0.5
2022-03-15T18:00:00,1127A,125.245,43.7783,长春市,高新区管委会,,43,22,30,30,29,93,78,87,87,13,21,5,5,0.5,0.5
2022-03-15T18:00:00,1128A,125.1761,43.8325,长春市,岱山公园,,36,21,34,25,26,85,64,78,77,20,19,6,7,0.5,0.5
2022-03-15T18:00:00,1129A,126.5422,45.755,哈尔滨市,岭北(对照点),,46,46,44,20,23,98,98,93,93,10,15,6,5,0.2,0.3
2022-03-15T18:00:00,1130A,126.561,45.8167,哈尔滨市,松北商大,,32,18,27,16,24,103,101,94,94,8,24,6,5,0.5,0.6
2022-03-15T18:00:00,1131A,126.979,45.5419,哈尔滨市,阿城会宁,,43,26,28,30,23,94,86,87,87,14,14,10,10,0.6,1
2022-03-15T18:00:00,1132A,126.599,45.7222,哈尔滨市,南岗学府路,,38,27,38,26,39,81,80,78,78,18,36,16,20,0.6,0.7
2022-03-15T18:00:00,1133A,126.689,45.7733,哈尔滨市,太平宏伟公园,,33,32,36,23,29,90,84,85,85,20,24,16,21,0.7,0.7
2022-03-15T18:00:00,1134A,126.635,45.7667,哈尔滨市,道外承德广场,,,,35,,26,83,68,76,76,34,27,,13,0.5,0.5
2022-03-15T18:00:00,1135A,126.685,45.7319,哈尔滨市,香坊红旗大街,,30,30,35,18,28,84,77,80,80,23,27,9,9,0.6,0.7
2022-03-15T18:00:00,1136A,126.6411,45.7258,哈尔滨市,动力和平路,,26,24,34,18,29,81,80,79,79,19,28,13,15,0.4,0.6
2022-03-15T18:00:00,1137A,126.593,45.7478,哈尔滨市,道里建国路,,32,32,38,22,28,88,82,81,81,21,29,10,13,0.6,0.7
2022-03-15T18:00:00,1138A,126.615,45.61,哈尔滨市,平房东轻厂,细颗粒物(PM2.5),54,42,33,38,30,90,63,82,81,36,22,15,16,0.9,0.7
2022-03-15T18:00:00,1139A,126.595,45.9855,哈尔滨市,呼兰师专,细颗粒物(PM2.5),52,41,42,36,36,80,77,73,73,19,22,10,10,0.7,0.8
2022-03-15T18:00:00,1140A,126.6206,45.6842,哈尔滨市,省农科院,,,,53,26,39,83,66,78,78,,29,12,13,0.4,0.5
2022-03-15T18:00:00,1141A,121.4,31.238,上海市,普陀,颗粒物(PM10),73,95,69,17,29,117,102,104,104,44,29,30,5,1.1,1.1
2022-03-15T18:00:00,1142A,121.478,31.2036,上海市,十五厂,颗粒物(PM10),69,88,70,23,34,111,111,101,101,40,28,5,4,0.8,0.8
2022-03-15T18:00:00,1143A,121.467,31.3008,上海市,虹口,颗粒物(PM10),81,112,70,24,33,104,97,98,94,27,27,3,3,0.7,0.8
2022-03-15T18:00:00,1144A,121.412,31.1654,上海市,徐汇上师大,颗粒物(PM10),68,86,69,23,32,116,116,99,99,40,26,13,10,1.0,1.1
2022-03-15T18:00:00,1145A,121.536,31.2659,上海市,杨浦四漂,颗粒物(PM10),75,100,62,18,32,111,111,104,96,32,25,7,6,0.5,0.6
2022-03-15T18:00:00,1147A,121.425,31.2261,上海市,静安监测站,颗粒物(PM10),76,101,67,24,32,111,103,100,100,45,22,31,6,0.7,0.4
2022-03-15T18:00:00,1148A,121.703,31.1907,上海市,浦东川沙,颗粒物(PM10),70,90,55,28,31,121,121,117,99,44,28,5,4,0.6,0.6
2022-03-15T18:00:00,1149A,121.533,31.2284,上海市,浦东新区监测站,颗粒物(PM10),69,87,62,18,31,140,140,109,108,28,24,5,4,0.6,0.7
2022-03-15T18:00:00,1150A,121.577,31.2071,上海市,浦东张江,颗粒物(PM10),67,83,63,22,34,108,108,94,90,39,28,4,4,0.7,0.8
2022-03-15T18:00:00,1151A,118.8086,32.1065,南京市,迈皋桥,颗粒物(PM10),60,69,79,24,22,166,135,134,134,42,34,6,4,1.2,0.6
2022-03-15T18:00:00,1152A,118.7538,32.0551,南京市,草场门,颗粒物(PM10),63,75,76,39,24,159,132,130,130,38,29,26,9,1.4,0.6
2022-03-15T18:00:00,1153A,118.7794,32.0745,南京市,山西路,颗粒物(PM10),67,83,88,41,28,161,139,136,136,42,28,11,3,1.0,0.4
2022-03-15T18:00:00,1154A,118.7752,32.0023,南京市,中华门,颗粒物(PM10),72,94,93,31,24,157,134,134,134,25,17,4,5,1.0,0.4
2022-03-15T18:00:00,1155A,118.8109,32.0309,南京市,瑞金路,颗粒物(PM10),64,78,75,39,27,155,125,131,130,32,21,8,4,0.8,0.6
2022-03-15T18:00:00,1156A,118.7997,32.0754,南京市,玄武湖,颗粒物(PM10),61,71,74,31,23,163,141,138,138,30,29,4,4,1.6,1
2022-03-15T18:00:00,1157A,118.6414,32.0931,南京市,浦口,颗粒物(PM10),69,88,91,31,20,158,143,129,129,45,40,7,5,1.2,1
2022-03-15T18:00:00,1158A,118.7356,31.9996,南京市,奥体中心,颗粒物(PM10),67,83,85,36,27,156,128,132,132,41,23,29,9,1.5,0.7
2022-03-15T18:00:00,1159A,118.9125,32.1028,南京市,仙林大学城,臭氧1小时,58,63,80,34,28,180,166,153,153,24,22,5,6,0.8,0.7
2022-03-15T18:00:00,1160A,120.561,31.2472,苏州市,上方山(对照点),颗粒物(PM10),57,64,65,27,32,163,131,142,142,17,17,5,5,0.8,0.8
2022-03-15T18:00:00,1162A,120.591,31.3019,苏州市,彩香,颗粒物(PM10),54,58,55,19,28,159,134,132,132,27,19,6,6,0.7,0.8
2022-03-15T18:00:00,1163A,120.596,31.3264,苏州市,轧钢厂,颗粒物(PM10),67,83,76,31,33,154,128,127,127,33,24,9,6,0.6,0.6
2022-03-15T18:00:00,1164A,120.613,31.2703,苏州市,吴中区,颗粒物(PM10),58,65,56,20,30,165,131,135,135,29,20,6,4,0.5,0.5
2022-03-15T18:00:00,1165A,120.543,31.2994,苏州市,苏州新区,颗粒物(PM10),51,52,69,19,29,168,145,137,137,19,16,7,7,0.5,0.6
2022-03-15T18:00:00,1166A,120.669,31.3097,苏州市,苏州工业园区,,,59,52,17,33,154,129,126,126,24,20,,7,0.6,0.7
2022-03-15T18:00:00,1167A,120.641,31.3708,苏州市,相城区,,48,48,63,17,32,147,120,119,119,39,27,5,5,0.7,0.8
2022-03-15T18:00:00,1168A,120.9098,31.9663,南通市,狼山街道,,,103,68,39,36,132,71,111,105,59,22,9,6,,0.7
2022-03-15T18:00:00,1169A,120.86,32.0005,南通市,虹桥,颗粒物(PM10),80,110,75,33,37,115,70,96,93,69,24,9,7,0.7,0.8
2022-03-15T18:00:00,1170A,120.87,32.02,南通市,城中,颗粒物(PM10),91,131,80,35,34,115,74,101,99,34,17,12,10,0.8,0.7
2022-03-15T18:00:00,1171A,120.94,31.93,南通市,星湖花园,颗粒物(PM10),73,95,70,31,37,112,56,108,95,74,27,9,4,1.0,0.8
2022-03-15T18:00:00,1172A,120.81,32.0417,南通市,紫琅学院,颗粒物(PM10),58,66,53,39,38,110,74,101,95,75,27,12,8,0.7,0.6
2022-03-15T18:00:00,1173A,119.176,34.5885,连云港市,市环境监测站,颗粒物(PM10),60,70,94,41,56,125,116,115,115,14,15,5,6,0.5,0.7
2022-03-15T18:00:00,1177A,117.179,34.2761,徐州市,黄河新村,颗粒物(PM10),101,151,211,47,54,106,81,93,93,40,27,10,8,0.9,0.8
2022-03-15T18:00:00,1178A,117.1918,34.2384,徐州市,淮塔,颗粒物(PM10),100,150,208,44,52,99,89,90,90,37,33,12,9,1.0,1
2022-03-15T18:00:00,1180A,117.256,34.2153,徐州市,新城区,颗粒物(PM10),92,134,203,40,54,96,90,88,88,31,32,9,8,0.8,0.9
2022-03-15T18:00:00,1181A,117.244,34.2911,徐州市,桃园路,颗粒物(PM10),100,149,209,47,62,102,91,92,92,25,26,13,11,1.1,1.1
2022-03-15T18:00:00,1182A,117.2933,34.2778,徐州市,农科院,颗粒物(PM10),90,129,199,36,50,98,92,90,90,24,27,13,10,0.9,0.9
2022-03-15T18:00:00,1186A,119.389,32.3761,扬州市,邗江监测站,颗粒物(PM10),80,110,89,31,41,152,146,131,131,30,25,14,13,0.8,0.8
2022-03-15T18:00:00,1188A,120.269,31.4867,无锡市,雪浪,臭氧1小时,85,88,73,29,25,194,188,150,150,16,19,8,6,1.1,1.2
2022-03-15T18:00:00,1189A,120.275,31.6219,无锡市,黄巷,颗粒物(PM10),67,84,82,29,31,168,163,130,130,27,32,6,7,0.7,0.7
2022-03-15T18:00:00,1190A,120.294,31.56,无锡市,曹张,臭氧1小时,67,75,64,29,29,174,173,134,134,22,21,7,6,0.7,0.9
2022-03-15T18:00:00,1191A,120.242,31.5031,无锡市,漆塘,,,83,77,39,33,188,184,148,148,18,23,,6,0.4,0.8
2022-03-15T18:00:00,1192A,120.3489,31.5863,无锡市,东亭,颗粒物(PM10),67,83,75,22,29,173,158,127,127,30,26,7,7,1.1,1.1
2022-03-15T18:00:00,1193A,120.354,31.5475,无锡市,旺庄,颗粒物(PM10),67,83,76,29,34,170,170,131,131,22,22,6,6,1.0,1.1
2022-03-15T18:00:00,1194A,120.245,31.5631,无锡市,荣巷,臭氧1小时,72,75,72,34,31,179,177,140,140,22,26,8,8,0.7,0.7
2022-03-15T18:00:00,1195A,120.299,31.6817,无锡市,堰桥,颗粒物(PM10),71,92,85,29,36,163,163,131,131,27,27,6,7,0.9,1
2022-03-15T18:00:00,1196A,119.9633,31.762,常州市,市监测站,颗粒物(PM10),86,122,74,46,35,166,163,135,135,30,32,8,9,0.9,1
2022-03-15T18:00:00,1200A,119.9468,31.7069,常州市,武进监测站,臭氧1小时,79,95,69,49,37,186,183,151,151,20,22,12,11,0.9,0.9
2022-03-15T18:00:00,1201A,119.9255,31.9087,常州市,安家,颗粒物(PM10),70,90,70,38,36,168,165,136,136,29,26,7,7,0.7,0.6
2022-03-15T18:00:00,1203A,119.6707,32.1875,镇江市,新区办事处,颗粒物(PM10),62,73,78,32,36,161,152,133,133,35,40,6,6,0.5,0.6
2022-03-15T18:00:00,1204A,119.4974,32.1968,镇江市,职教中心,细颗粒物(PM2.5),77,81,75,56,39,177,168,145,145,24,33,6,17,0.9,0.7
2022-03-15T18:00:00,1205A,119.4303,32.1328,镇江市,丹徒区监测站,细颗粒物(PM2.5),75,96,80,55,44,176,171,145,145,22,27,3,5,0.6,0.5
2022-03-15T18:00:00,1206A,119.905,32.4878,泰州市,公园路,颗粒物(PM10),91,132,80,61,44,170,146,137,137,43,24,5,3,1.1,1
2022-03-15T18:00:00,1207A,119.9189,32.4625,泰州市,莲花,颗粒物(PM10),84,117,81,53,46,164,143,134,134,43,24,6,5,0.9,0.9
2022-03-15T18:00:00,1209A,119.888,32.4639,泰州市,留学生创业园,颗粒物(PM10),85,120,93,53,44,165,144,135,135,43,25,9,7,1.0,0.9
2022-03-15T18:00:00,1210A,119.036,33.5981,淮安市,钵池山,细颗粒物(PM2.5),88,90,89,65,49,125,125,111,111,33,27,9,8,1.4,1.1
2022-03-15T18:00:00,1211A,119.007,33.575,淮安市,北京南路,细颗粒物(PM2.5),85,110,102,63,47,141,137,125,125,33,26,9,7,1.0,0.9
2022-03-15T18:00:00,1212A,118.989,33.6067,淮安市,市监测站,,,,118,,43,133,,117,117,,24,,10,,0.8
2022-03-15T18:00:00,1213A,119.135,33.5039,淮安市,楚州区监测站,细颗粒物(PM2.5),93,107,100,69,50,124,109,109,109,52,25,14,10,0.8,0.6
2022-03-15T18:00:00,1214A,119.0186,33.6297,淮安市,淮阴区监测站,细颗粒物(PM2.5),92,94,87,68,48,122,116,111,111,43,28,10,9,1.0,0.8
2022-03-15T18:00:00,1215A,120.118,33.4022,盐城市,盐城电厂,颗粒物(PM10),70,90,82,42,49,136,127,123,123,21,15,6,6,0.9,0.7
2022-03-15T18:00:00,1216A,120.156,33.3942,盐城市,市监测站,细颗粒物(PM2.5),72,69,71,52,55,131,126,119,119,26,25,9,4,0.8,0.6
2022-03-15T18:00:00,1218A,120.2144,33.38,盐城市,开发区管委会,颗粒物(PM10),54,57,56,37,40,113,110,107,107,26,20,7,6,0.8,0.7
2022-03-15T18:00:00,1220A,118.293,33.9528,宿迁市,宿迁学院,细颗粒物(PM2.5),78,84,99,57,56,124,117,113,113,32,36,6,6,1.4,1.3
2022-03-15T18:00:00,1221A,118.2442,33.9592,宿迁市,宿迁中学,颗粒物(PM10),85,119,124,54,54,121,108,112,112,30,25,7,7,0.9,0.9
2022-03-15T18:00:00,1223A,120.2072,30.2111,杭州市,滨江,颗粒物(PM10),93,135,97,60,48,200,176,150,150,64,36,8,7,1.0,0.9
2022-03-15T18:00:00,1224A,120.0633,30.2747,杭州市,西溪,臭氧1小时,102,126,73,62,36,204,204,166,166,52,35,6,4,0.6,0.6
2022-03-15T18:00:00,1226A,120.3461,30.3153,杭州市,下沙,,,,88,,34,208,168,165,165,36,34,,6,0.8,0.8
2022-03-15T18:00:00,1227A,120.1269,30.2456,杭州市,卧龙桥,细颗粒物(PM2.5),113,129,84,85,51,199,190,164,164,46,28,10,7,0.8,0.8
2022-03-15T18:00:00,1228A,120.1903,30.2692,杭州市,浙江农大,细颗粒物(PM2.5),102,117,92,76,52,219,194,165,165,46,31,7,5,0.7,0.7
2022-03-15T18:00:00,1230A,120.1197,30.3119,杭州市,和睦小学,颗粒物(PM10),85,120,102,56,41,184,180,150,150,52,37,7,5,1.2,1.1
2022-03-15T18:00:00,1231A,120.3019,30.4183,杭州市,临平镇,臭氧1小时,77,98,96,51,43,205,181,167,167,29,24,4,4,1.0,1
2022-03-15T18:00:00,1232A,120.2697,30.1819,杭州市,城厢镇,细颗粒物(PM2.5),79,102,86,58,46,192,168,152,152,50,34,7,6,1.0,0.9
2022-03-15T18:00:00,1233A,120.0883,30.1808,杭州市,云栖,颗粒物(PM10),99,148,92,55,32,194,183,159,159,56,31,10,7,0.9,0.8
2022-03-15T18:00:00,1234A,121.8358,29.911,宁波市,区环保大楼,,41,41,46,14,23,122,111,87,87,23,34,5,6,0.7,0.8
2022-03-15T18:00:00,1235A,121.56,29.82,宁波市,万里学院,,43,43,49,10,21,150,132,138,138,15,19,8,9,0.5,0.8
2022-03-15T18:00:00,1236A,121.713,29.9572,宁波市,龙赛医院,,48,48,44,14,18,120,106,105,105,35,30,8,9,0.7,0.8
2022-03-15T18:00:00,1239A,121.633,29.7733,宁波市,钱湖水厂,,44,36,41,11,15,151,138,139,139,7,7,7,7,0.5,0.7
2022-03-15T18:00:00,1240A,121.5856,29.8635,宁波市,太古小学,,40,40,48,9,18,123,118,116,116,22,25,7,8,0.7,0.9
2022-03-15T18:00:00,1241A,121.524,29.8674,宁波市,市环境监测中心,,39,39,49,14,19,143,119,130,130,28,22,9,10,0.5,0.7
2022-03-15T18:00:00,1242A,120.634,28.0089,温州市,瓯海,"颗粒物(PM10),细颗粒物(PM2.5)",62,74,56,44,35,128,112,98,98,43,35,6,5,0.7,0.6
2022-03-15T18:00:00,1243A,120.6748,27.9939,温州市,南浦,颗粒物(PM10),64,78,68,41,37,119,102,102,93,41,28,5,6,0.8,0.6
2022-03-15T18:00:00,1244A,120.76,27.9747,温州市,龙湾,颗粒物(PM10),72,93,68,37,30,120,79,104,100,73,42,4,4,0.7,0.6
2022-03-15T18:00:00,1245A,120.6709,28.0167,温州市,市站,颗粒物(PM10),65,79,67,40,36,132,113,99,99,39,31,8,5,1.0,0.8
2022-03-15T18:00:00,1247A,120.6053,29.9928,绍兴市,城东开发委,颗粒物(PM10),60,70,64,31,35,177,154,149,149,33,19,6,6,0.9,1
2022-03-15T18:00:00,1250A,120.0751,30.8669,湖州市,城西水厂,臭氧1小时,78,92,64,43,24,192,182,160,160,30,25,5,5,0.7,0.7
2022-03-15T18:00:00,1252A,120.7436,30.778,嘉兴市,清河小学,,,65,54,18,24,138,120,117,117,32,26,14,9,,0.7
2022-03-15T18:00:00,1253A,120.726,30.7478,嘉兴市,嘉兴学院,颗粒物(PM10),55,59,50,29,20,165,149,140,140,34,25,16,11,0.7,0.6
2022-03-15T18:00:00,1255A,121.273,28.6459,台州市,黄岩环保大楼,,46,46,68,13,26,156,114,105,105,23,18,6,5,0.4,0.6
2022-03-15T18:00:00,1256A,121.419,28.6542,台州市,台州环保大楼,,44,44,66,10,27,139,117,121,121,20,21,5,5,0.5,0.6
2022-03-15T18:00:00,1257A,121.377,28.5773,台州市,路桥田洋王,,35,33,53,13,35,147,111,122,122,17,18,5,5,0.4,0.5
2022-03-15T18:00:00,1258A,122.122,30.0203,舟山市,定海檀枫,,33,33,34,11,17,120,88,105,104,41,17,7,5,0.3,0.4
2022-03-15T18:00:00,1259A,122.3094,29.9558,舟山市,普陀东港,,30,30,32,12,16,123,96,113,112,37,19,4,3,0.4,0.5
2022-03-15T18:00:00,1260A,122.19,29.9944,舟山市,临城新区,,32,31,30,12,13,125,101,114,114,26,12,4,2,0.4,0.4
2022-03-15T18:00:00,1262A,119.647,29.077,金华市,十五中,,43,36,57,11,36,151,135,140,140,17,16,5,5,0.4,0.5
2022-03-15T18:00:00,1263A,119.686,29.1029,金华市,监测站,,42,39,54,14,33,142,133,126,126,11,15,5,4,0.5,0.7
2022-03-15T18:00:00,1264A,118.8692,28.9398,衢州市,环保大楼,,50,50,46,21,31,141,136,128,128,12,13,5,5,0.9,0.9
2022-03-15T18:00:00,1265A,118.8709,28.9666,衢州市,实验学校,,49,37,47,23,26,156,156,138,138,11,11,5,4,0.8,0.8
2022-03-15T18:00:00,1266A,118.8621,28.9808,衢州市,衢州学院,,47,37,51,22,28,149,148,132,132,10,10,4,5,0.6,0.6
2022-03-15T18:00:00,1267A,119.914,28.4514,丽水市,监测站大楼,,29,29,31,18,13,109,90,100,100,8,10,4,6,0.5,0.5
2022-03-15T18:00:00,1268A,119.93,28.4586,丽水市,莲都小学,,26,21,28,14,13,102,83,93,93,6,9,5,5,0.3,0.3
2022-03-15T18:00:00,1269A,119.879,28.4231,丽水市,余庄前,,31,24,34,11,14,119,98,108,108,10,13,8,8,0.4,0.4
2022-03-15T18:00:00,1270A,117.1959,31.7848,合肥市,明珠广场,颗粒物(PM10),102,154,155,44,34,136,128,114,114,34,35,5,7,0.7,0.5
2022-03-15T18:00:00,1271A,117.3072,31.8764,合肥市,三里街,颗粒物(PM10),113,175,150,39,31,122,118,103,103,31,35,7,9,0.7,0.6
2022-03-15T18:00:00,1272A,117.2588,31.8707,合肥市,琥珀山庄,颗粒物(PM10),118,185,148,51,31,138,127,117,117,20,24,5,7,0.7,0.7
2022-03-15T18:00:00,1273A,117.1604,31.9052,合肥市,董铺水库(对照点),颗粒物(PM10),123,195,161,41,28,112,104,95,95,27,23,8,8,0.9,0.9
2022-03-15T18:00:00,1274A,117.25,31.8571,合肥市,长江中路,颗粒物(PM10),116,182,151,44,29,146,144,126,126,33,29,7,9,0.6,0.5
2022-03-15T18:00:00,1275A,117.266,31.9436,合肥市,庐阳区,颗粒物(PM10),113,175,163,36,29,112,98,93,93,31,26,7,9,,0.8
2022-03-15T18:00:00,1276A,117.336,31.8586,合肥市,瑶海区,颗粒物(PM10),97,144,146,44,34,141,115,124,124,41,28,7,9,0.7,0.8
2022-03-15T18:00:00,1277A,117.3027,31.7964,合肥市,包河区,颗粒物(PM10),85,120,150,41,36,155,146,130,130,16,30,5,6,0.7,0.6
2022-03-15T18:00:00,1278A,117.2776,31.7385,合肥市,滨湖新区,颗粒物(PM10),85,119,153,39,33,161,153,137,137,17,23,8,9,0.4,0.4
2022-03-15T18:00:00,1279A,117.1318,31.8403,合肥市,高新区,颗粒物(PM10),120,190,160,46,32,131,115,113,113,36,31,10,10,1.0,1
2022-03-15T18:00:00,1280A,119.3903,26.0543,福州市,鼓山(对照点),,36,36,44,23,36,156,112,110,105,23,17,4,5,0.5,0.4
2022-03-15T18:00:00,1282A,119.2681,26.0504,福州市,师大,,48,48,64,26,40,125,115,112,112,24,33,4,4,0.7,0.7
2022-03-15T18:00:00,1284A,119.2648,26.0768,福州市,杨桥西路,颗粒物(PM10),54,57,66,29,46,118,105,104,104,26,33,4,4,0.8,0.8
2022-03-15T18:00:00,1285A,119.317,26.0746,福州市,紫阳,,48,48,64,26,39,125,111,114,114,24,33,5,6,0.7,0.7
2022-03-15T18:00:00,1286A,118.1608,24.8169,厦门市,溪东(对照点),细颗粒物(PM2.5),65,78,47,47,35,166,121,132,132,8,5,3,2,0.4,0.3
2022-03-15T18:00:00,1287A,118.1514,24.4767,厦门市,洪文,,46,46,48,26,28,120,99,103,103,16,28,4,4,0.5,0.4
2022-03-15T18:00:00,1288A,118.0661,24.4444,厦门市,鼓浪屿,,42,32,37,29,22,104,101,90,90,23,39,3,5,0.5,0.5
2022-03-15T18:00:00,1290A,115.8931,28.6843,南昌市,省外办,颗粒物(PM10),59,68,145,31,46,176,120,130,130,24,23,8,6,0.6,0.8
2022-03-15T18:00:00,1291A,115.8886,28.7003,南昌市,省林业公司,颗粒物(PM10),62,74,161,38,49,164,114,118,118,34,31,14,9,1.1,1.1
2022-03-15T18:00:00,1292A,115.8126,28.7442,南昌市,林科所,颗粒物(PM10),62,73,111,36,48,179,139,139,139,18,12,12,10,0.7,0.7
2022-03-15T18:00:00,1294A,115.8518,28.687,南昌市,建工学校,颗粒物(PM10),55,59,145,37,54,164,137,139,139,26,25,7,8,0.7,0.9
2022-03-15T18:00:00,1295A,115.8921,28.6424,南昌市,象湖,颗粒物(PM10),56,62,116,27,51,166,123,125,125,25,20,5,3,0.7,1
2022-03-15T18:00:00,1296A,115.7423,28.7996,南昌市,武术学校(对照点),颗粒物(PM10),61,71,60,33,32,156,144,134,134,27,12,10,12,0.8,0.8
2022-03-15T18:00:00,1298A,115.9314,28.6842,南昌市,省站,颗粒物(PM10),53,55,139,28,45,154,107,118,118,18,17,7,5,0.8,0.8
2022-03-15T18:00:00,1299A,116.9862,36.6114,济南市,科干所,颗粒物(PM10),136,222,168,44,37,131,124,122,122,11,10,12,12,0.9,0.9
2022-03-15T18:00:00,1300A,116.9376,36.665,济南市,农科所,颗粒物(PM10),147,244,198,46,40,120,118,115,115,25,33,12,10,0.8,0.9
2022-03-15T18:00:00,1301A,117.1265,36.6734,济南市,开发区,颗粒物(PM10),158,266,180,58,42,125,117,121,121,29,20,11,10,0.7,0.6
2022-03-15T18:00:00,1303A,117.0624,36.6868,济南市,省种子仓库,颗粒物(PM10),155,259,195,63,51,135,125,125,125,21,39,12,11,1.0,1
2022-03-15T18:00:00,1304A,116.9489,36.6447,济南市,机床二厂,颗粒物(PM10),161,271,210,49,42,130,123,120,120,15,20,10,8,0.6,0.6
2022-03-15T18:00:00,1305A,117.0495,36.663,济南市,市监测站,颗粒物(PM10),153,256,183,49,42,131,124,122,122,24,30,12,12,0.5,0.5
2022-03-15T18:00:00,1306A,116.7675,36.5484,济南市,长清党校,颗粒物(PM10),133,215,192,46,41,126,115,115,115,27,23,13,9,0.8,0.8
2022-03-15T18:00:00,1307A,120.6659,36.2403,青岛市,仰口(对照点),,31,31,39,7,24,111,90,102,102,10,3,3,4,0.5,0.6
2022-03-15T18:00:00,1310A,120.4134,36.0658,青岛市,市南区东部子站,,46,46,43,24,25,118,104,107,107,30,24,5,5,0.5,0.5
2022-03-15T18:00:00,1311A,120.3664,36.1032,青岛市,四方区子站,,44,44,47,24,30,112,100,105,105,29,26,4,4,0.6,0.6
2022-03-15T18:00:00,1312A,120.2994,36.054,青岛市,市南区西部子站,颗粒物(PM10),51,51,48,32,26,120,95,108,106,41,23,6,6,0.6,0.6
2022-03-15T18:00:00,1313A,120.4581,36.0858,青岛市,崂山区子站,,46,46,47,27,27,131,120,118,118,19,21,7,7,0.5,0.5
2022-03-15T18:00:00,1314A,120.1983,35.9608,青岛市,黄岛区子站,颗粒物(PM10),57,63,52,39,33,128,110,116,116,27,36,4,5,0.8,0.8
2022-03-15T18:00:00,1315A,120.3999,36.3083,青岛市,城阳区子站,,48,48,55,17,22,105,96,100,100,25,23,6,5,0.5,0.6
2022-03-15T18:00:00,1316A,113.69031,34.76122,郑州市,烟厂,颗粒物(PM10),225,367,492,78,77,122,106,99,99,39,27,11,8,0.8,0.9
2022-03-15T18:00:00,1317A,113.65724,34.77134,郑州市,郑纺机,颗粒物(PM10),249,384,513,86,78,120,100,97,97,46,40,13,10,0.9,0.9
2022-03-15T18:00:00,1318A,113.67526,34.80246,郑州市,银行学校,颗粒物(PM10),230,371,464,80,72,127,98,105,105,39,27,14,11,1.0,0.9
2022-03-15T18:00:00,1319A,113.56746,34.81334,郑州市,供水公司,颗粒物(PM10),270,399,488,83,79,133,107,110,110,45,33,8,8,0.8,0.8
2022-03-15T18:00:00,1320A,113.7329,34.7178,郑州市,经开区管委,颗粒物(PM10),308,426,443,104,73,142,94,105,105,46,32,9,8,1.0,0.9
2022-03-15T18:00:00,1321A,113.73961,34.77172,郑州市,四十七中,颗粒物(PM10),293,415,464,89,80,132,85,101,101,63,30,11,8,0.9,0.8
2022-03-15T18:00:00,1322A,113.60532,34.74838,郑州市,市监测站,颗粒物(PM10),209,356,490,75,68,118,81,91,91,69,38,12,9,1.0,1
2022-03-15T18:00:00,1323A,113.64164,34.7525,郑州市,河医大,颗粒物(PM10),249,384,509,86,78,119,57,90,90,90,36,7,6,1.1,1
2022-03-15T18:00:00,1324A,113.51488,34.91089,郑州市,岗李水库(对照点),颗粒物(PM10),310,428,507,84,81,104,67,85,85,60,37,11,9,1.1,1
2022-03-15T18:00:00,1325A,114.3677,30.5584,武汉市,东湖梨园,颗粒物(PM10),73,96,285,46,75,156,152,132,132,17,30,8,10,1.0,1.2
2022-03-15T18:00:00,1326A,114.2529,30.558,武汉市,汉阳月湖,颗粒物(PM10),73,96,297,50,58,162,133,131,131,30,35,6,7,0.8,1
2022-03-15T18:00:00,1327A,114.282,30.6189,武汉市,汉口花桥,颗粒物(PM10),79,107,276,44,77,161,139,131,131,24,28,8,10,1.0,1.1
2022-03-15T18:00:00,1328A,114.3025,30.5332,武汉市,武昌紫阳,颗粒物(PM10),79,107,263,46,64,156,147,131,131,10,28,10,12,0.9,1.3
2022-03-15T18:00:00,1329A,114.3646,30.6217,武汉市,青山钢花,颗粒物(PM10),68,86,303,46,77,152,144,131,131,21,32,9,10,1.0,1.2
2022-03-15T18:00:00,1330A,114.1566,30.4825,武汉市,沌口新区,颗粒物(PM10),67,83,281,47,72,147,129,130,130,18,38,7,11,0.8,1.4
2022-03-15T18:00:00,1331A,114.3014,30.5944,武汉市,汉口江滩,颗粒物(PM10),84,118,294,47,64,147,141,127,127,31,39,8,8,1.0,1.1
2022-03-15T18:00:00,1333A,114.135,30.6319,武汉市,吴家山,颗粒物(PM10),81,111,355,42,78,149,134,124,124,13,30,9,9,1.2,1.4
2022-03-15T18:00:00,1335A,113.0833,28.2325,长沙市,经开区环保局,细颗粒物(PM2.5),57,59,55,40,57,161,156,121,121,15,23,7,7,0.6,0.7
2022-03-15T18:00:00,1336A,112.8872,28.2189,长沙市,高开区环保局,臭氧1小时,54,51,104,36,66,185,163,152,152,10,19,6,6,0.5,0.7
2022-03-15T18:00:00,1337A,113.0792,28.2053,长沙市,马坡岭,颗粒物(PM10),54,57,71,29,46,160,157,125,125,9,17,6,6,0.5,0.6
2022-03-15T18:00:00,1338A,112.9394,28.19,长沙市,湖南师范大学,细颗粒物(PM2.5),63,55,97,45,50,164,164,140,140,13,17,6,7,0.6,0.7
2022-03-15T18:00:00,1339A,113.0178,28.1322,长沙市,雨花区环保局,臭氧1小时,54,52,69,34,45,169,163,129,129,14,18,5,5,0.5,0.6
2022-03-15T18:00:00,1340A,112.9792,28.2597,长沙市,伍家岭,臭氧1小时,70,67,83,46,52,176,176,133,133,16,18,5,5,0.7,0.7
2022-03-15T18:00:00,1341A,113.0014,28.1944,长沙市,火车新站,细颗粒物(PM2.5),63,63,81,45,56,165,165,125,125,16,17,6,6,0.8,0.8
2022-03-15T18:00:00,1342A,112.9844,28.1178,长沙市,天心区环保局,细颗粒物(PM2.5),55,42,65,39,56,162,155,128,128,20,19,5,5,0.6,0.7
2022-03-15T18:00:00,1343A,112.8908,28.1308,长沙市,湖南中医药大学,,,45,78,35,53,163,163,132,132,,16,4,3,0.7,0.8
2022-03-15T18:00:00,1344A,112.9581,28.3611,长沙市,沙坪(对照点),细颗粒物(PM2.5),68,70,64,49,46,174,163,118,118,21,13,5,4,0.8,1
2022-03-15T18:00:00,1345A,113.2347,23.1423,广州市,广雅中学,臭氧1小时,100,67,98,33,48,233,200,169,169,25,82,8,8,0.9,1.1
2022-03-15T18:00:00,1346A,113.2612,23.105,广州市,市五中,臭氧1小时,109,70,86,33,48,251,217,197,197,25,69,6,6,0.7,1
2022-03-15T18:00:00,1348A,113.3478,23.0916,广州市,广东商学院,臭氧1小时,102,61,96,33,50,243,204,181,181,26,82,6,7,0.8,1
2022-03-15T18:00:00,1349A,113.4332,23.1047,广州市,市八十六中,臭氧1小时,99,90,94,39,38,232,199,167,167,41,73,10,12,0.7,0.9
2022-03-15T18:00:00,1350A,113.3505,22.9483,广州市,番禺中学,臭氧1小时,94,67,74,33,37,232,195,171,171,20,52,11,10,0.7,0.9
2022-03-15T18:00:00,1351A,113.2146,23.3916,广州市,花都师范,臭氧1小时,112,73,97,41,51,250,224,178,178,36,66,5,5,0.8,0.8
2022-03-15T18:00:00,1352A,113.2597,23.1331,广州市,市监测站,臭氧1小时,109,78,85,41,44,244,218,192,192,28,79,7,7,0.8,1.1
2022-03-15T18:00:00,1353A,113.5618,23.312,广州市,九龙镇镇龙,臭氧1小时,90,91,103,44,42,203,192,147,147,51,58,8,6,0.7,0.7
2022-03-15T18:00:00,1354A,113.2765,23.1544,广州市,麓湖,臭氧1小时,101,71,83,32,38,216,202,167,167,26,72,8,8,0.9,1
2022-03-15T18:00:00,1355A,113.443,23.3035,广州市,帽峰山森林公园(对照点),臭氧1小时,104,64,56,37,34,220,208,159,159,23,30,11,9,0.8,0.8
2022-03-15T18:00:00,1356A,114.1063,22.5545,深圳市,通心岭子站,,33,33,30,16,15,129,66,88,88,28,33,4,3,0.7,0.6
2022-03-15T18:00:00,1357A,114.117,22.5625,深圳市,洪湖,,32,24,30,15,17,170,100,115,115,14,37,5,6,0.6,0.6
2022-03-15T18:00:00,1358A,113.987,22.5417,深圳市,华侨城,,32,29,25,14,15,66,41,49,49,64,55,13,10,0.7,0.6
2022-03-15T18:00:00,1359A,113.9181,22.5171,深圳市,南海子站,,35,35,35,17,19,80,80,66,66,55,60,7,5,0.4,0.4
2022-03-15T18:00:00,1360A,114.2458,22.5689,深圳市,盐田,,17,14,18,7,10,61,44,45,45,33,39,4,3,0.6,0.8
2022-03-15T18:00:00,1361A,114.2283,22.7244,深圳市,龙岗,,30,24,30,10,14,176,96,138,138,16,28,3,3,0.3,0.3
2022-03-15T18:00:00,1363A,114.494,22.5422,深圳市,南澳,,22,15,14,8,6,73,69,59,59,6,10,4,4,0.8,0.7
2022-03-15T18:00:00,1364A,114.41,22.6342,深圳市,葵涌,,22,15,16,7,7,81,69,64,64,10,18,4,4,0.3,0.3
2022-03-15T18:00:00,1365A,114.297,22.5978,深圳市,梅沙,,25,14,17,7,7,81,78,65,65,7,13,8,8,0.4,0.4
2022-03-15T18:00:00,1366A,114.0678,22.738,深圳市,观澜,,44,44,48,21,25,210,103,145,145,15,35,5,6,0.5,0.7
2022-03-15T18:00:00,1367A,113.5814,22.2618,珠海市,吉大,,20,19,23,11,11,65,64,54,54,9,16,8,8,0.4,0.4
2022-03-15T18:00:00,1368A,113.4881,22.2335,珠海市,前山,颗粒物(PM10),55,60,45,23,16,119,81,76,76,50,48,12,11,0.3,0.3
2022-03-15T18:00:00,1369A,113.628,22.4251,珠海市,唐家,,27,23,24,12,13,116,84,86,86,12,11,8,9,0.3,0.3
2022-03-15T18:00:00,1370A,113.299,22.2281,珠海市,斗门,,,39,43,28,25,169,105,133,129,25,19,,11,0.5,0.6
2022-03-15T18:00:00,1371A,113.1294,23.0067,佛山市,湾梁,臭氧1小时,146,119,90,46,41,306,292,232,232,37,60,8,9,0.7,0.8
2022-03-15T18:00:00,1372A,113.1083,23.0478,佛山市,华材职中,臭氧1小时,145,102,95,62,58,290,290,228,228,28,70,3,10,0.6,0.7
2022-03-15T18:00:00,1373A,113.144,23.0453,佛山市,南海气象局,臭氧1小时,130,87,85,56,51,263,260,198,198,34,68,6,7,0.7,0.7
2022-03-15T18:00:00,1374A,113.2881,22.8094,佛山市,顺德苏岗,颗粒物(PM10),65,80,60,41,36,252,164,186,186,20,44,4,4,0.7,0.9
2022-03-15T18:00:00,1376A,112.8383,22.8678,佛山市,高明孔堂,臭氧1小时,105,71,54,38,30,225,209,182,182,21,24,7,8,0.8,0.7
2022-03-15T18:00:00,1377A,112.8836,23.1588,佛山市,三水监测站,臭氧1小时,107,153,104,66,64,237,214,184,184,62,79,17,13,0.7,0.6
2022-03-15T18:00:00,1378A,112.867,23.185,佛山市,三水云东海,臭氧1小时,113,133,100,73,48,258,226,195,195,54,57,19,12,0.8,0.7
2022-03-15T18:00:00,1379A,113.3769,22.5211,中山市,华柏园,颗粒物(PM10),54,58,52,26,27,206,145,157,157,19,25,6,6,0.7,0.8
2022-03-15T18:00:00,1380A,113.3881,22.5497,中山市,张溪,,46,46,62,25,25,189,123,151,151,24,34,5,5,0.6,0.6
2022-03-15T18:00:00,1381A,113.4075,22.5111,中山市,紫马岭,颗粒物(PM10),53,55,52,27,20,193,141,154,154,10,22,7,8,0.5,0.6
2022-03-15T18:00:00,1382A,113.4411,22.4853,中山市,长江旅游区(对照点),,46,46,29,32,18,158,136,140,140,14,13,4,4,0.5,0.5
2022-03-15T18:00:00,1383A,113.1064,22.6058,江门市,北街,臭氧1小时,118,89,55,38,26,284,236,212,212,30,34,11,10,0.8,0.7
2022-03-15T18:00:00,1384A,113.0731,22.5835,江门市,西区,臭氧1小时,100,86,61,36,29,254,200,186,186,22,39,9,8,0.8,0.7
2022-03-15T18:00:00,1385A,113.0219,22.5311,江门市,圭峰西,臭氧1小时,73,61,49,29,32,212,178,179,179,16,27,6,6,0.4,0.3
2022-03-15T18:00:00,1386A,113.0828,22.5947,江门市,东湖,臭氧1小时,114,74,63,44,32,265,228,204,204,20,33,10,8,0.6,0.6
2022-03-15T18:00:00,1389A,113.7547,23.0494,东莞市,莞城梨川,臭氧1小时,139,59,66,37,36,312,277,246,246,33,48,11,11,0.8,0.7
2022-03-15T18:00:00,1390A,113.7944,23.0128,东莞市,东城石井,臭氧1小时,143,66,51,37,30,303,285,251,251,37,40,10,8,0.4,0.4
2022-03-15T18:00:00,1391A,113.7383,22.9658,东莞市,南城西平,臭氧1小时,99,58,49,39,34,312,199,219,219,37,37,11,9,0.7,0.7
2022-03-15T18:00:00,1392A,114.4183,23.0528,惠州市,河南岸金山湖子站,,49,49,49,12,20,157,95,130,130,20,29,5,5,0.6,0.6
2022-03-15T18:00:00,1393A,114.4053,23.0822,惠州市,下埔横江三路子站,,40,40,44,13,19,174,101,135,135,26,27,6,6,0.5,0.5
2022-03-15T18:00:00,1394A,114.4103,23.1142,惠州市,江北云山西路子站,,36,34,42,20,22,182,113,146,146,20,23,8,7,0.6,0.6
2022-03-15T18:00:00,1395A,114.4645,22.7833,惠州市,惠阳区承修路船湖子站,,21,19,29,7,9,163,67,113,113,11,28,3,5,0.5,0.4
2022-03-15T18:00:00,1396A,114.5317,22.7422,惠州市,大亚湾管委会子站,,26,19,34,15,14,129,83,88,88,11,25,5,8,0.7,0.7
2022-03-15T18:00:00,1397A,112.4267,23.0706,肇庆市,睦岗子站,臭氧1小时,85,77,56,50,33,189,188,141,141,25,52,19,11,0.8,0.8
2022-03-15T18:00:00,1398A,112.4645,23.0475,肇庆市,城中子站,臭氧1小时,87,78,58,48,33,193,189,141,141,22,51,19,14,0.6,0.7
2022-03-15T18:00:00,1399A,112.5544,23.1522,肇庆市,坑口子站,臭氧1小时,107,83,49,51,31,213,213,143,143,17,19,20,12,0.5,0.5
2022-03-15T18:00:00,1400A,112.4753,23.1,肇庆市,七星岩子站(对照点),臭氧1小时,80,81,53,57,36,187,184,143,143,18,30,20,14,1.0,0.9
2022-03-15T18:00:00,1401A,108.3103,22.7881,南宁市,二十一中,细颗粒物(PM2.5),60,63,83,43,56,125,107,93,93,18,38,6,9,0.8,1
2022-03-15T18:00:00,1402A,108.3141,22.8528,南宁市,北湖,颗粒物(PM10),57,64,77,38,47,133,102,101,101,16,32,9,12,0.7,0.9
2022-03-15T18:00:00,1403A,108.3206,22.8225,南宁市,市监测站,颗粒物(PM10),56,62,77,37,47,129,95,97,97,33,48,9,12,0.7,0.9
2022-03-15T18:00:00,1404A,108.3829,22.8037,南宁市,大自然花园,细颗粒物(PM2.5),60,56,63,43,45,112,88,88,88,18,39,7,8,0.8,0.9
2022-03-15T18:00:00,1405A,108.4394,22.7904,南宁市,仙葫(对照点),"颗粒物(PM10),细颗粒物(PM2.5)",60,69,71,43,44,115,89,89,89,23,34,6,10,0.6,0.7
2022-03-15T18:00:00,1406A,108.2397,22.8467,南宁市,区农职院,颗粒物(PM10),60,70,63,41,42,139,117,100,100,27,36,8,11,0.6,0.7
2022-03-15T18:00:00,1407A,108.3275,22.735,南宁市,英华嘉园,颗粒物(PM10),65,80,79,45,51,112,89,80,80,31,41,8,8,0.8,1
2022-03-15T18:00:00,1408A,108.2257,22.7757,南宁市,沙井镇街道办,"颗粒物(PM10),细颗粒物(PM2.5)",54,57,96,38,55,115,110,84,84,16,44,7,15,0.7,0.9
2022-03-15T18:00:00,1409A,110.576,19.9507,海口市,东寨港(对照点),颗粒物(PM10),52,54,28,16,14,67,45,56,55,13,6,5,4,0.3,0.4
2022-03-15T18:00:00,1410A,110.3232,20.0574,海口市,海南大学,,19,19,25,11,13,58,32,41,41,5,12,2,4,0.4,0.5
2022-03-15T18:00:00,1411A,110.283,20.0053,海口市,秀英海南医院,,24,24,30,11,16,69,50,59,59,2,13,3,3,0.4,0.4
2022-03-15T18:00:00,1412A,110.338,19.9969,海口市,海南师范大学,,34,34,29,13,12,65,45,54,54,3,8,2,3,0.2,0.3
2022-03-15T18:00:00,1413A,110.33,20.0356,海口市,龙华路环保局宿舍,,22,22,27,7,13,69,52,59,59,3,12,4,4,0.3,0.4
2022-03-15T18:00:00,1414A,106.3787,29.8279,重庆市,缙云山(对照点),臭氧1小时,54,33,52,20,36,172,163,148,138,15,19,10,13,0.7,0.8
2022-03-15T18:00:00,1416A,106.4213,29.8253,重庆市,天生,,50,42,92,22,54,162,157,137,137,12,38,8,10,0.7,1
2022-03-15T18:00:00,1417A,106.6263,29.7228,重庆市,两路,,50,50,95,19,57,140,124,121,121,41,66,12,16,0.9,1.1
2022-03-15T18:00:00,1418A,106.2953,29.5983,重庆市,虎溪,臭氧1小时,52,42,66,20,46,176,161,143,143,17,35,6,10,1.0,1.3
2022-03-15T18:00:00,1419A,106.5777,29.5102,重庆市,南坪,,40,37,76,27,52,177,127,137,137,17,29,5,17,0.6,0.9
2022-03-15T18:00:00,1420A,106.6556,29.6277,重庆市,唐家沱,,,45,89,22,53,163,147,136,136,,47,7,9,1.1,1.1
2022-03-15T18:00:00,1421A,106.6349,29.4906,重庆市,茶园,,,34,93,15,59,173,,132,132,17,37,6,14,0.4,0.9
2022-03-15T18:00:00,1422A,106.3754,29.4572,重庆市,白市驿,,50,50,68,23,36,186,152,148,148,15,22,10,9,0.7,0.9
2022-03-15T18:00:00,1425A,106.6205,29.7166,重庆市,空港,,49,49,85,20,53,166,146,140,140,24,45,12,17,0.7,0.9
2022-03-15T18:00:00,1426A,106.4782,29.4875,重庆市,新山村,,39,35,78,27,51,180,124,138,138,40,57,8,19,0.3,0.7
2022-03-15T18:00:00,1427A,106.5616,29.6453,重庆市,礼嘉,,47,37,90,11,49,156,149,128,128,30,62,11,15,0.7,1
2022-03-15T18:00:00,1428A,106.4522,29.7091,重庆市,蔡家,,47,40,84,25,59,165,150,135,135,18,39,8,9,0.7,1.3
2022-03-15T18:00:00,1429A,106.5093,29.3917,重庆市,鱼新街,,40,38,81,17,47,160,128,122,122,12,49,6,16,0.8,1.2
2022-03-15T18:00:00,1431A,103.9728,30.7236,成都市,金泉两河,臭氧1小时,93,90,110,59,71,211,194,166,166,12,47,6,7,0.7,1
2022-03-15T18:00:00,1432A,104.1419,30.6764,成都市,十里店,颗粒物(PM10),67,83,148,47,68,184,149,144,144,10,77,4,5,0.6,0.8
2022-03-15T18:00:00,1433A,104.0594,30.5767,成都市,三瓦窑,"颗粒物(PM10),细颗粒物(PM2.5)",62,73,134,44,66,196,157,152,152,11,79,5,6,0.5,0.8
2022-03-15T18:00:00,1434A,104.1122,30.6306,成都市,沙河铺,细颗粒物(PM2.5),75,83,135,55,74,202,159,154,154,14,68,6,6,0.6,0.9
2022-03-15T18:00:00,1437A,104.0431,30.6556,成都市,君平街,细颗粒物(PM2.5),85,90,138,63,86,202,177,157,157,11,69,7,8,0.6,0.9
2022-03-15T18:00:00,1438A,103.6202,31.0201,成都市,灵岩寺(对照点),细颗粒物(PM2.5),74,70,53,54,42,177,177,158,158,11,11,6,12,0.7,0.7
2022-03-15T18:00:00,1439A,106.6899,26.5998,贵阳市,马鞍山,,32,29,30,22,25,94,86,86,86,12,14,6,5,0.2,0.4
2022-03-15T18:00:00,1440A,106.6971,26.5694,贵阳市,市环保站,,39,39,36,24,28,95,85,88,88,23,22,16,6,0.5,0.4
2022-03-15T18:00:00,1441A,106.6243,26.6266,贵阳市,鉴湖路,,,67,40,22,22,101,96,96,96,,10,,2,0.4,0.7
2022-03-15T18:00:00,1442A,106.7487,26.6343,贵阳市,燕子冲,,42,29,38,29,31,116,104,106,106,10,12,7,7,0.3,0.3
2022-03-15T18:00:00,1443A,106.6555,26.4365,贵阳市,碧云窝,,34,34,38,17,22,115,105,98,98,5,10,7,7,0.5,0.6
2022-03-15T18:00:00,1444A,106.694,26.5161,贵阳市,中院村,,34,34,41,17,23,105,91,89,89,15,23,5,6,0.6,0.5
2022-03-15T18:00:00,1445A,106.7109,26.6027,贵阳市,红边门,,36,36,37,24,31,104,90,96,96,24,26,5,4,0.3,0.3
2022-03-15T18:00:00,1446A,106.7164,26.5699,贵阳市,新华路,,32,31,35,22,26,106,94,98,98,12,14,5,5,0.4,0.3
2022-03-15T18:00:00,1447A,106.674,26.5424,贵阳市,太慈桥,,44,44,40,12,15,110,96,100,100,17,18,2,2,0.5,0.5
2022-03-15T18:00:00,1450A,102.8204,24.8886,昆明市,呈贡新区,,30,17,57,9,38,147,96,118,118,13,25,8,15,0.3,0.5
2022-03-15T18:00:00,1451A,102.6251,24.9608,昆明市,西山森林公园(对照点),,,,41,12,30,128,102,110,110,11,11,9,8,0.5,0.5
2022-03-15T18:00:00,1452A,102.7252,25.0902,昆明市,龙泉镇,,32,18,56,14,33,141,100,113,110,9,22,9,11,0.6,0.7
2022-03-15T18:00:00,1453A,102.7266,25.0375,昆明市,东风东路,,29,19,56,12,35,134,90,104,104,17,26,7,10,0.4,0.7
2022-03-15T18:00:00,1454A,102.6742,25.0669,昆明市,金鼎山,,30,23,54,14,41,136,93,117,108,18,19,10,10,0.4,0.5
2022-03-15T18:00:00,1455A,102.6644,25.0401,昆明市,碧鸡广场,,27,22,58,6,32,134,86,113,105,21,26,10,11,0.6,0.6
2022-03-15T18:00:00,1456A,91.1319,29.6514,拉萨市,八廓街,,28,5,17,1,13,90,88,74,74,14,12,10,11,0.3,0.4
2022-03-15T18:00:00,1457A,91.1221,29.6747,拉萨市,市环保局,,26,9,21,4,11,82,81,68,68,7,17,4,4,0.4,0.6
2022-03-15T18:00:00,1458A,91.0874,29.6475,拉萨市,区监测站,,25,7,19,3,8,86,80,71,71,6,19,6,6,0.2,0.4
2022-03-15T18:00:00,1459A,91.1774,29.6541,拉萨市,西藏大学,,28,3,13,3,6,91,88,73,73,9,10,4,3,0.5,0.5
2022-03-15T18:00:00,1460A,90.9798,29.6588,拉萨市,区辐射站,,29,17,18,7,11,93,91,80,80,8,16,6,7,0.3,0.5
2022-03-15T18:00:00,1461A,91.0834,29.6292,拉萨市,拉萨火车站,,30,19,24,5,6,97,94,78,78,9,16,5,5,0.4,0.5
2022-03-15T18:00:00,1462A,108.882,34.2749,西安市,高压开关厂,颗粒物(PM10),393,494,635,132,131,112,108,94,94,32,41,6,12,0.5,0.6
2022-03-15T18:00:00,1463A,108.993,34.2629,西安市,兴庆小区,颗粒物(PM10),343,454,587,101,111,104,94,79,79,39,52,8,9,0.6,0.9
2022-03-15T18:00:00,1464A,109.06,34.2572,西安市,纺织城,颗粒物(PM10),357,465,554,107,120,91,83,72,72,51,57,8,8,0.8,0.8
2022-03-15T18:00:00,1465A,108.9356,34.2173,西安市,小寨,颗粒物(PM10),369,475,536,125,130,94,90,77,77,42,52,10,9,0.7,0.8
2022-03-15T18:00:00,1466A,108.954,34.2713,西安市,市人民体育场,颗粒物(PM10),360,468,592,108,126,109,97,84,84,34,43,6,7,0.6,0.6
2022-03-15T18:00:00,1468A,108.935,34.3474,西安市,经开区,颗粒物(PM10),379,483,609,131,141,97,88,84,84,38,48,4,4,0.5,0.6
2022-03-15T18:00:00,1469A,108.906,34.1546,西安市,长安区,颗粒物(PM10),469,569,667,132,132,93,78,76,76,47,51,10,10,0.8,0.8
2022-03-15T18:00:00,1471A,109.2186,34.3731,西安市,临潼区,颗粒物(PM10),445,545,588,130,138,112,83,97,97,44,37,5,6,0.8,0.7
2022-03-15T18:00:00,1472A,108.869,34.378,西安市,草滩(对照点),颗粒物(PM10),342,453,674,92,144,83,74,51,51,,54,,13,0.9,0.8
2022-03-15T18:00:00,1473A,108.985,34.1978,西安市,曲江文化产业集团,颗粒物(PM10),409,509,559,115,116,90,73,73,73,48,55,6,6,0.7,0.8
2022-03-15T18:00:00,1474A,109.051,34.3213,西安市,广运潭,颗粒物(PM10),430,530,621,103,116,100,96,78,78,38,58,6,6,0.5,0.6
2022-03-15T18:00:00,1476A,103.631,36.1031,兰州市,兰炼宾馆,颗粒物(PM10),90,129,195,40,62,108,103,94,94,19,48,6,9,1.0,1.2
2022-03-15T18:00:00,1477A,104.1373,35.9454,兰州市,榆中兰大校区(对照点),颗粒物(PM10),84,117,155,26,35,120,120,110,110,10,13,3,5,0.5,0.6
2022-03-15T18:00:00,1478A,103.8412,36.0726,兰州市,生物制品所,颗粒物(PM10),89,127,186,23,42,121,115,105,105,22,64,8,10,1.0,0.8
2022-03-15T18:00:00,1479A,103.831,36.0464,兰州市,铁路设计院,颗粒物(PM10),86,121,190,39,59,93,84,80,80,31,65,5,11,0.6,1
2022-03-15T18:00:00,1483A,101.524,36.6867,西宁市,第五水厂(对照点),颗粒物(PM10),91,132,181,27,24,103,97,97,97,16,8,13,8,1.0,1
2022-03-15T18:00:00,1484A,105.9512,38.6016,银川市,贺兰山马莲口(对照点),,35,26,55,5,14,112,112,99,99,8,5,8,8,0.2,0.2
2022-03-15T18:00:00,1488A,106.2328,38.4975,银川市,贺兰山东路,,31,11,89,5,22,103,98,94,94,19,23,4,9,0.5,0.6
2022-03-15T18:00:00,1489A,106.1358,38.5036,银川市,学院路,,36,26,91,9,19,117,113,106,106,16,18,6,8,0.5,0.5
2022-03-15T18:00:00,1490A,87.5801,43.8303,乌鲁木齐市,监测站,,47,47,32,12,12,85,70,58,58,20,37,5,6,0.5,0.7
2022-03-15T18:00:00,1491A,87.6046,43.768,乌鲁木齐市,收费所,颗粒物(PM10),54,57,44,17,17,77,58,54,54,26,37,5,5,0.3,0.5
2022-03-15T18:00:00,1492A,87.4754,43.9469,乌鲁木齐市,新疆农科院农场(对照点),,26,26,36,15,15,92,82,71,71,12,26,8,8,0.3,0.3
2022-03-15T18:00:00,1493A,87.5525,43.8711,乌鲁木齐市,铁路局,,42,42,39,15,15,85,75,64,64,18,36,4,5,0.7,0.8
2022-03-15T18:00:00,1494A,87.6432,43.831,乌鲁木齐市,三十一中学,颗粒物(PM10),53,55,48,16,9,70,63,37,37,17,30,5,6,0.3,0.6
2022-03-15T18:00:00,1508A,112.9433,27.8614,湘潭市,板塘,颗粒物(PM10),69,88,93,42,49,153,142,120,120,19,17,16,7,1.3,0.7
2022-03-15T18:00:00,1511A,112.9118,27.8403,湘潭市,市监测站,细颗粒物(PM2.5),63,61,74,45,58,152,142,126,126,44,42,24,13,0.6,0.4
2022-03-15T18:00:00,1512A,112.8937,27.8728,湘潭市,江麓,,,,118,44,55,145,116,110,110,30,23,46,20,1.2,0.8
2022-03-15T18:00:00,1513A,112.9227,27.8159,湘潭市,岳塘,颗粒物(PM10),63,76,94,44,52,156,152,133,133,11,17,14,11,0.8,0.7
2022-03-15T18:00:00,1514A,112.9074,27.9119,湘潭市,科大,细颗粒物(PM2.5),100,96,87,75,50,171,134,131,131,58,27,80,13,2.4,1
2022-03-15T18:00:00,1515A,113.135,27.8244,株洲市,天台山庄,,49,46,47,34,41,142,142,114,114,14,22,8,6,0.3,0.3
2022-03-15T18:00:00,1518A,113.095,27.8867,株洲市,株冶医院,臭氧1小时,52,48,51,31,42,166,161,135,135,15,24,8,6,0.5,0.6
2022-03-15T18:00:00,1519A,113.167,27.8667,株洲市,市四中,细颗粒物(PM2.5),65,36,43,47,46,141,141,115,115,9,17,6,6,0.5,0.5
2022-03-15T18:00:00,1520A,113.143,27.8381,株洲市,火车站,细颗粒物(PM2.5),53,51,56,37,39,153,143,123,123,17,22,8,8,0.5,0.4
2022-03-15T18:00:00,1524A,113.13,27.8528,株洲市,市监测站,细颗粒物(PM2.5),53,51,54,37,42,145,144,119,119,11,22,6,7,0.8,0.7
2022-03-15T18:00:00,1552A,106.805,26.3003,贵阳市,桐木岭(对照点),,35,27,32,24,25,115,106,109,106,4,5,4,6,0.4,0.4
2022-03-15T18:00:00,1559A,113.251,27.8336,株洲市,大京风景区(对照点),,40,36,38,22,82,136,125,108,108,4,8,6,6,0.7,0.4
2022-03-15T18:00:00,1562A,113.0048,27.9153,湘潭市,昭山,细颗粒物(PM2.5),57,58,66,40,57,155,145,125,125,15,26,14,7,1.0,0.8
2022-03-15T18:00:00,1564A,112.4876,27.9164,湘潭市,韶山(对照点),颗粒物(PM10),71,92,109,37,42,145,136,125,125,10,10,5,5,0.9,1
2022-03-15T18:00:00,1585A,109.8756,40.6532,包头市,市环境监测站,颗粒物(PM10),171,291,249,42,56,101,92,91,91,11,26,4,13,0.2,0.8
2022-03-15T18:00:00,1587A,109.9991,40.5842,包头市,包头八中,颗粒物(PM10),168,285,304,38,69,105,100,99,99,10,32,6,12,1.0,1.4
2022-03-15T18:00:00,1588A,109.8538,40.6821,包头市,青山宾馆,颗粒物(PM10),169,288,251,53,69,136,95,99,99,8,18,7,12,0.4,0.7
2022-03-15T18:00:00,1589A,109.8642,40.6288,包头市,惠龙物流,颗粒物(PM10),160,270,244,27,47,97,90,90,90,12,25,6,15,0.7,0.8
2022-03-15T18:00:00,1590A,110.0377,40.5546,包头市,东河鸿龙湾,颗粒物(PM10),151,251,234,98,82,101,97,96,96,5,23,10,12,0.5,0.6
2022-03-15T18:00:00,1591A,110.0023,39.8129,鄂尔多斯市,综合楼,颗粒物(PM10),122,194,219,51,68,103,98,99,99,12,14,5,6,0.2,0.3
2022-03-15T18:00:00,1592A,109.9486,39.8261,鄂尔多斯市,巴音孟克林场办事处,颗粒物(PM10),117,184,186,24,34,99,95,95,95,6,9,7,7,0.3,0.4
2022-03-15T18:00:00,1593A,109.7736,39.5986,鄂尔多斯市,康泽苑,颗粒物(PM10),95,140,186,23,39,109,107,106,106,5,9,3,4,0.3,0.3
2022-03-15T18:00:00,1594A,109.8119,39.5989,鄂尔多斯市,华泰汽车城,颗粒物(PM10),101,151,189,31,44,109,107,107,107,6,10,5,6,0.3,0.3
2022-03-15T18:00:00,1595A,109.9734,39.7884,鄂尔多斯市,奥林花园,颗粒物(PM10),112,174,207,27,40,98,86,91,91,22,17,17,10,0.4,0.4
2022-03-15T18:00:00,1597A,122.2703,40.7094,营口市,大庆路,"颗粒物(PM10),细颗粒物(PM2.5)",72,93,45,52,27,127,117,100,100,24,25,7,7,1.0,0.8
2022-03-15T18:00:00,1598A,122.215,40.6511,营口市,镜湖西路,颗粒物(PM10),69,88,42,39,26,132,125,105,105,18,18,4,5,0.6,0.4
2022-03-15T18:00:00,1599A,122.167,40.6655,营口市,西炮台,细颗粒物(PM2.5),78,84,39,57,29,116,111,93,93,24,23,5,4,0.7,0.6
2022-03-15T18:00:00,1600A,124.3303,40.0625,丹东市,江湾东路,,40,34,25,28,22,86,77,80,80,18,15,6,10,0.5,0.5
2022-03-15T18:00:00,1601A,124.4256,40.1503,丹东市,临江后街,,34,34,25,22,18,86,82,82,82,8,17,7,8,0.7,0.6
2022-03-15T18:00:00,1602A,124.3933,40.1461,丹东市,元宝山,,35,30,21,24,21,82,72,78,77,19,11,19,10,0.7,0.4
2022-03-15T18:00:00,1603A,124.3633,40.1092,丹东市,民主桥,,32,31,25,22,17,81,77,77,77,11,14,8,10,0.6,0.5
2022-03-15T18:00:00,1604A,122.0303,41.1489,盘锦市,开发区,细颗粒物(PM2.5),89,80,43,66,35,95,83,83,83,26,25,6,8,0.9,0.9
2022-03-15T18:00:00,1605A,122.0485,41.0883,盘锦市,兴隆台,细颗粒物(PM2.5),77,86,47,56,31,94,81,81,81,30,31,6,8,0.9,0.8
2022-03-15T18:00:00,1606A,121.8297,41.1028,盘锦市,新生街道,细颗粒物(PM2.5),70,73,37,51,27,94,86,86,86,23,32,6,7,0.9,0.8
2022-03-15T18:00:00,1607A,120.9092,40.7136,葫芦岛市,龙港区,细颗粒物(PM2.5),84,94,44,62,29,91,78,81,81,22,15,18,23,0.7,0.6
2022-03-15T18:00:00,1608A,120.8392,40.7514,葫芦岛市,化工街,颗粒物(PM10),74,97,56,38,27,89,60,80,79,40,23,16,12,1.0,0.7
2022-03-15T18:00:00,1609A,120.8341,40.7073,葫芦岛市,新区,细颗粒物(PM2.5),89,102,43,66,30,93,66,84,83,40,21,17,12,0.9,0.6
2022-03-15T18:00:00,1610A,120.8695,40.7677,葫芦岛市,东城区,细颗粒物(PM2.5),115,109,55,87,36,83,50,73,72,50,32,15,13,1.0,0.7
2022-03-15T18:00:00,1611A,118.5819,24.9117,泉州市,涂山街,,49,49,48,29,26,147,124,130,130,20,34,6,8,0.8,0.6
2022-03-15T18:00:00,1612A,118.5972,24.8978,泉州市,津头埔,,47,47,53,31,30,150,128,135,135,20,37,7,10,0.6,0.4
2022-03-15T18:00:00,1613A,118.6663,24.9424,泉州市,万安,细颗粒物(PM2.5),57,55,54,40,32,144,127,127,127,17,32,8,10,0.8,0.6
2022-03-15T18:00:00,1614A,118.6117,24.9604,泉州市,清源山(对照点),颗粒物(PM10),53,55,40,34,24,164,133,138,138,19,21,8,8,0.6,0.5
2022-03-15T18:00:00,1616A,117.6795,36.229,济南市,技术学院,颗粒物(PM10),155,259,162,41,55,143,138,131,131,15,30,15,13,1.0,1.1
2022-03-15T18:00:00,1618A,118.3429,35.0532,临沂市,沂河小区,,,,148,45,72,117,117,108,108,22,28,12,13,0.8,0.8
2022-03-15T18:00:00,1619A,118.295,35.0583,临沂市,鲁南制药厂,颗粒物(PM10),85,119,155,51,77,122,119,111,111,38,38,12,12,0.8,1
2022-03-15T18:00:00,1620A,118.2794,34.9976,临沂市,新光毛纺厂,颗粒物(PM10),90,129,148,37,72,114,113,103,103,37,38,10,10,0.7,1
2022-03-15T18:00:00,1621A,118.3956,35.0888,临沂市,河东保险公司,颗粒物(PM10),80,110,127,40,63,121,116,110,110,29,33,9,8,1.0,0.9
2022-03-15T18:00:00,1622A,116.3032,37.4674,德州市,儿童乐园,颗粒物(PM10),218,362,238,83,60,135,123,109,109,27,21,10,8,0.8,0.7
2022-03-15T18:00:00,1624A,116.2991,37.4451,德州市,监理站,颗粒物(PM10),250,385,251,97,64,125,113,101,101,,17,14,11,,0.6
2022-03-15T18:00:00,1625A,115.9848,36.4372,聊城市,区政府,颗粒物(PM10),134,218,218,46,49,117,111,99,99,24,28,13,10,0.8,0.8
2022-03-15T18:00:00,1628A,118.0062,37.3803,滨州市,市环保局,颗粒物(PM10),158,266,160,50,53,150,141,138,138,22,28,10,18,0.8,0.9
2022-03-15T18:00:00,1629A,118.0018,37.3617,滨州市,第二水厂,颗粒物(PM10),148,245,143,47,49,126,120,118,118,17,29,10,17,0.6,0.7
2022-03-15T18:00:00,1630A,117.9776,37.393,滨州市,北中新校,颗粒物(PM10),141,232,138,55,48,130,121,120,120,23,29,17,23,0.7,0.8
2022-03-15T18:00:00,1631A,118.0414,36.8103,淄博市,人民公园,颗粒物(PM10),118,185,153,47,49,147,141,133,133,22,25,7,8,0.5,0.6
2022-03-15T18:00:00,1633A,117.8525,36.4847,淄博市,双山,颗粒物(PM10),126,202,173,62,63,144,142,129,129,16,18,8,6,0.6,0.6
2022-03-15T18:00:00,1634A,117.9592,36.6331,淄博市,气象站,颗粒物(PM10),134,218,159,51,47,149,146,136,136,17,17,13,12,0.7,0.8
2022-03-15T18:00:00,1635A,118.3092,36.8194,淄博市,莆田园,,,,130,48,47,155,150,138,138,15,19,10,8,0.5,0.5
2022-03-15T18:00:00,1637A,117.558,34.8438,枣庄市,市中区政府,颗粒物(PM10),106,161,234,44,66,114,96,103,103,34,41,17,17,0.7,0.9
2022-03-15T18:00:00,1638A,117.2852,34.7837,枣庄市,薛城环保局,颗粒物(PM10),112,173,225,44,60,120,107,106,106,25,29,10,8,0.6,0.8
2022-03-15T18:00:00,1639A,117.5852,34.7745,枣庄市,峄城区政府,颗粒物(PM10),97,144,239,36,70,119,105,106,106,21,34,12,12,0.5,0.8
2022-03-15T18:00:00,1640A,117.7276,34.5578,枣庄市,台儿庄区环保局,颗粒物(PM10),78,105,175,34,56,120,103,106,106,22,30,12,9,0.6,0.8
2022-03-15T18:00:00,1641A,117.4518,35.0992,枣庄市,山亭区环保局,颗粒物(PM10),128,205,212,59,60,129,125,120,120,30,20,23,20,1.0,1
2022-03-15T18:00:00,1642A,121.2514,37.5639,烟台市,开发区,颗粒物(PM10),69,88,69,24,37,122,109,109,109,28,25,8,8,0.4,0.4
2022-03-15T18:00:00,1643A,121.3719,37.5433,烟台市,轴承厂,颗粒物(PM10),51,51,56,34,40,125,106,111,111,18,18,7,6,0.7,0.8
2022-03-15T18:00:00,1644A,121.3181,37.5436,烟台市,西郊化工站,颗粒物(PM10),62,73,62,27,37,124,112,113,113,23,21,9,8,0.5,0.4
2022-03-15T18:00:00,1645A,121.4478,37.4822,烟台市,莱山环保局,颗粒物(PM10),58,66,55,24,34,121,104,110,110,15,19,5,5,0.4,0.5
2022-03-15T18:00:00,1646A,121.2611,37.4967,烟台市,福山环保局,颗粒物(PM10),70,90,69,19,42,131,114,120,120,21,23,5,6,1.1,1.1
2022-03-15T18:00:00,1650A,119.1437,36.7023,潍坊市,环保局,颗粒物(PM10),81,112,95,41,44,123,105,115,115,30,24,6,6,0.7,0.8
2022-03-15T18:00:00,1653A,116.6251,35.4302,济宁市,火炬城,颗粒物(PM10),120,189,161,39,45,114,110,103,103,12,17,10,8,0.7,0.8
2022-03-15T18:00:00,1655A,116.5491,35.4042,济宁市,电化厂,颗粒物(PM10),122,194,169,46,48,117,112,106,106,25,31,9,8,0.8,0.7
2022-03-15T18:00:00,1656A,117.1437,36.1937,泰安市,监测站,颗粒物(PM10),137,224,187,53,60,127,118,118,118,21,27,10,12,0.7,0.8
2022-03-15T18:00:00,1657A,117.0885,36.2017,泰安市,人口学校,颗粒物(PM10),122,193,172,44,50,117,110,113,113,21,18,11,11,0.6,0.6
2022-03-15T18:00:00,1658A,117.1089,36.1758,泰安市,电力学校,颗粒物(PM10),119,188,169,47,55,123,113,117,117,21,23,10,12,0.9,1
2022-03-15T18:00:00,1659A,119.471,35.4209,日照市,监测站,,,,91,,47,96,70,86,83,47,48,5,6,0.6,0.9
2022-03-15T18:00:00,1660A,119.523,35.4216,日照市,市政府广场,颗粒物(PM10),52,53,91,26,47,102,85,95,95,35,41,6,8,0.6,1
2022-03-15T18:00:00,1661A,119.5587,35.4044,日照市,港务局,,41,41,91,23,45,111,86,99,98,26,37,4,6,0.6,0.9
2022-03-15T18:00:00,1662A,122.1214,37.4236,威海市,华夏技校,,39,24,42,27,42,101,98,97,97,9,16,2,2,0.4,0.6
2022-03-15T18:00:00,1663A,122.0508,37.5236,威海市,山大分校,,32,17,39,15,33,106,101,101,101,6,15,4,4,0.1,0.3
2022-03-15T18:00:00,1664A,122.1067,37.5072,威海市,市监测站,,,,48,23,33,107,104,101,101,6,14,4,5,0.3,0.5
2022-03-15T18:00:00,1666A,118.6614,37.4309,东营市,市环保局,颗粒物(PM10),152,254,127,53,52,147,136,132,132,17,19,10,12,0.6,0.8
2022-03-15T18:00:00,1669A,113.5824,24.7733,韶关市,市八中,,,65,82,43,49,181,146,148,148,,29,13,13,,0.8
2022-03-15T18:00:00,1671A,113.5917,24.7972,韶关市,园林处,细颗粒物(PM2.5),57,61,71,40,46,186,150,148,148,10,24,13,13,0.7,0.8
2022-03-15T18:00:00,1672A,113.6735,24.7791,韶关市,韶关学院,细颗粒物(PM2.5),67,64,64,48,51,194,164,152,152,14,20,15,10,0.6,0.6
2022-03-15T18:00:00,1673A,113.5971,24.6863,韶关市,曲江监测站,细颗粒物(PM2.5),63,59,63,45,42,166,140,138,138,21,31,14,14,0.7,0.6
2022-03-15T18:00:00,1674A,116.6794,23.3667,汕头市,金平子站,,45,45,44,11,22,117,95,92,92,16,25,6,9,0.6,0.7
2022-03-15T18:00:00,1675A,116.7244,23.3633,汕头市,龙湖子站,,35,35,34,14,19,107,95,90,90,17,28,6,8,0.4,0.4
2022-03-15T18:00:00,1676A,116.7258,23.2775,汕头市,濠江子站,,32,32,31,13,19,116,102,90,90,13,20,8,10,0.5,0.6
2022-03-15T18:00:00,1677A,116.7519,23.4714,汕头市,澄海子站,,44,44,48,22,24,125,98,98,98,18,28,7,11,0.6,0.7
2022-03-15T18:00:00,1678A,116.6092,23.2539,汕头市,潮阳子站,,43,43,36,11,17,122,95,94,94,10,17,9,10,0.5,0.6
2022-03-15T18:00:00,1680A,110.3539,21.2706,湛江市,湛江影剧院,,37,37,43,20,28,99,71,70,70,16,25,6,7,0.5,0.6
2022-03-15T18:00:00,1681A,110.3928,21.2228,湛江市,市环境监测站,,25,24,34,17,20,105,68,72,72,11,18,6,6,0.5,0.5
2022-03-15T18:00:00,1682A,110.4019,21.1997,湛江市,环保局宿舍,,29,29,34,17,19,99,54,64,64,12,22,5,6,0.4,0.5
2022-03-15T18:00:00,1683A,110.4111,21.2028,湛江市,霞山游泳场,,19,19,23,12,17,83,39,52,52,24,15,5,5,0.4,0.4
2022-03-15T18:00:00,1684A,110.3316,21.2679,湛江市,麻章区环保局,颗粒物(PM10),56,62,54,18,29,104,62,77,77,21,25,6,8,0.6,0.7
2022-03-15T18:00:00,1685A,110.4558,21.2567,湛江市,坡头区环保局,,40,40,29,22,18,92,70,66,66,7,11,7,6,0.4,0.4
2022-03-15T18:00:00,1686A,111.0286,21.4688,茂名市,电白南海,,24,24,10,7,6,62,44,58,48,15,11,6,7,0.5,0.5
2022-03-15T18:00:00,1687A,110.9294,21.6533,茂名市,茂石化七小,,48,48,50,24,28,130,89,105,105,20,17,14,12,0.7,0.6
2022-03-15T18:00:00,1688A,110.9107,21.6687,茂名市,健康路,,41,41,45,13,17,156,98,112,112,10,17,19,14,0.8,0.8
2022-03-15T18:00:00,1689A,110.8592,21.6828,茂名市,高岭,颗粒物(PM10),53,56,42,18,17,118,92,93,93,13,15,12,20,0.6,0.7
2022-03-15T18:00:00,1690A,116.1231,24.3284,梅州市,梅江月梅,,45,40,46,22,28,148,144,122,122,9,23,8,9,0.4,0.5
2022-03-15T18:00:00,1691A,116.0797,24.2719,梅州市,梅县新城,,46,46,51,26,33,145,140,129,129,12,35,6,7,0.5,0.7
2022-03-15T18:00:00,1692A,116.1248,24.2654,梅州市,环境监控中心,,50,50,44,30,30,148,136,131,131,18,29,6,9,0.6,0.6
2022-03-15T18:00:00,1693A,115.3653,22.775,汕尾市,市环保局,,26,26,27,15,13,92,69,76,76,9,12,7,7,0.4,0.5
2022-03-15T18:00:00,1694A,115.3706,22.7898,汕尾市,市政府,,,,28,,19,91,62,80,80,9,14,6,7,0.5,0.5
2022-03-15T18:00:00,1695A,115.3622,22.7925,汕尾市,新城中学,,23,21,36,16,20,92,70,80,80,8,13,6,6,0.4,0.5
2022-03-15T18:00:00,1696A,114.6778,23.7569,河源市,源西(对照点),颗粒物(PM10),59,67,65,41,31,137,121,120,120,16,36,4,4,0.7,0.8
2022-03-15T18:00:00,1697A,114.6944,23.7586,河源市,东埔,细颗粒物(PM2.5),52,52,59,36,35,144,137,135,135,16,32,4,5,0.7,0.9
2022-03-15T18:00:00,1698A,114.6892,23.7233,河源市,老城,,,52,59,42,37,153,129,130,130,,29,4,5,0.8,0.7
2022-03-15T18:00:00,1699A,111.9797,21.8593,阳江市,鸳鸯湖(对照点),,17,12,24,9,16,90,52,65,65,2,5,3,4,0.3,0.4
2022-03-15T18:00:00,1701A,111.9491,21.8658,阳江市,马南垌,,,,46,12,42,110,60,80,80,8,21,4,7,,1
2022-03-15T18:00:00,1702A,113.0426,23.691,清远市,环保大楼(对照点),臭氧1小时,142,100,77,94,67,293,283,180,180,32,28,10,8,0.9,0.8
2022-03-15T18:00:00,1703A,113.0208,23.7106,清远市,凤城街办,臭氧1小时,130,81,59,56,41,287,259,177,177,36,27,10,8,0.9,0.9
2022-03-15T18:00:00,1705A,116.6367,23.6719,潮州市,西园路(对照点),细颗粒物(PM2.5),64,63,42,46,26,115,109,88,88,17,17,12,15,0.8,0.6
2022-03-15T18:00:00,1706A,116.6447,23.6706,潮州市,档案局,细颗粒物(PM2.5),53,54,42,37,28,115,108,89,89,18,17,11,12,0.8,0.6
2022-03-15T18:00:00,1708A,116.3701,23.5345,揭阳市,新兴,颗粒物(PM10),56,62,52,24,26,132,95,115,115,16,25,9,14,0.7,0.8
2022-03-15T18:00:00,1709A,116.3264,23.5443,揭阳市,西马,颗粒物(PM10),57,64,53,24,22,160,105,128,128,7,18,6,10,0.7,0.9
2022-03-15T18:00:00,1710A,116.3611,23.5626,揭阳市,东兴,颗粒物(PM10),56,62,59,22,22,134,99,114,114,15,22,6,11,0.7,0.8
2022-03-15T18:00:00,1711A,116.4151,23.5294,揭阳市,渔湖,颗粒物(PM10),52,53,33,29,20,124,93,107,107,13,23,9,18,0.5,0.6
2022-03-15T18:00:00,1712A,112.0392,22.9169,云浮市,新市府(对照点),,48,48,41,28,26,155,145,130,130,6,12,7,8,0.5,0.5
2022-03-15T18:00:00,1714A,112.0539,22.9539,云浮市,牧羊,,,51,63,32,31,134,120,101,101,16,39,,17,0.6,0.6
2022-03-15T18:00:00,1715A,102.575,24.3711,玉溪市,东风水库,,33,5,41,6,26,148,103,113,113,14,19,6,6,0.9,0.8
2022-03-15T18:00:00,1718A,115.4208,35.2464,菏泽市,气象局,颗粒物(PM10),328,442,319,90,71,116,108,98,98,18,27,9,12,0.7,0.7
2022-03-15T18:00:00,1719A,115.4747,35.2375,菏泽市,市政协,颗粒物(PM10),384,487,346,88,67,122,113,105,105,23,25,11,14,0.7,0.7
2022-03-15T18:00:00,1721A,113.3819,40.1097,大同市,果树场(对照点),颗粒物(PM10),111,171,251,20,49,109,106,104,104,4,20,6,11,0.2,0.4
2022-03-15T18:00:00,1723A,113.2994,40.0758,大同市,云冈宾馆,颗粒物(PM10),116,181,375,23,76,103,102,98,98,10,20,5,12,0.4,0.4
2022-03-15T18:00:00,1724A,113.3444,40.0917,大同市,大同大学,颗粒物(PM10),106,162,332,19,53,102,102,97,97,8,18,8,14,0.3,0.4
2022-03-15T18:00:00,1725A,113.2661,40.1269,大同市,安家小村,颗粒物(PM10),120,189,394,19,53,108,107,103,103,4,11,9,14,0.2,0.2
2022-03-15T18:00:00,1726A,113.2711,40.0844,大同市,教育学院,颗粒物(PM10),115,179,366,18,45,100,96,94,94,14,24,8,16,0.3,0.3
2022-03-15T18:00:00,1727A,113.1147,36.1547,长治市,清华站,颗粒物(PM10),131,212,355,58,96,125,114,102,102,23,27,9,9,0.4,0.6
2022-03-15T18:00:00,1728A,113.1031,36.1989,长治市,监测站,颗粒物(PM10),110,170,333,58,100,123,113,103,103,13,18,8,9,0.5,0.6
2022-03-15T18:00:00,1730A,113.0886,36.2125,长治市,审计局,颗粒物(PM10),112,174,372,56,96,125,106,102,102,25,34,10,9,0.6,0.7
2022-03-15T18:00:00,1731A,113.0844,36.1856,长治市,长治八中,颗粒物(PM10),136,222,438,46,102,125,112,102,102,21,28,9,10,0.6,0.7
2022-03-15T18:00:00,1733A,111.5531,36.0783,临汾市,临钢医院,颗粒物(PM10),154,258,367,75,103,132,122,97,97,28,50,17,15,1.2,1.4
2022-03-15T18:00:00,1734A,111.5028,36.0714,临汾市,技工学校,颗粒物(PM10),168,286,501,83,126,135,126,99,99,23,45,19,17,0.6,1.3
2022-03-15T18:00:00,1736A,111.5018,36.0855,临汾市,市委,颗粒物(PM10),147,243,435,68,118,130,120,93,93,22,45,16,15,1.0,1.3
2022-03-15T18:00:00,1738A,113.5758,37.8572,阳泉市,市中心,颗粒物(PM10),73,96,379,20,90,106,98,97,97,20,52,5,14,0.4,0.7
2022-03-15T18:00:00,1739A,113.4894,37.8731,阳泉市,赛鱼,颗粒物(PM10),60,69,289,16,72,99,97,93,93,23,52,8,17,0.4,0.7
2022-03-15T18:00:00,1740A,113.5819,37.8486,阳泉市,南庄,颗粒物(PM10),73,96,375,32,71,110,98,97,97,20,44,12,19,0.4,0.7
2022-03-15T18:00:00,1742A,113.5614,37.8703,阳泉市,平坦,颗粒物(PM10),67,83,389,17,95,107,97,97,97,19,53,4,14,0.3,0.6
2022-03-15T18:00:00,1743A,113.5158,37.8392,阳泉市,大阳泉,颗粒物(PM10),65,80,366,29,87,114,108,106,106,10,22,6,14,0.3,0.6
2022-03-15T18:00:00,1744A,118.9233,42.2816,赤峰市,松山一中,,25,21,58,4,24,90,79,83,83,15,23,9,19,0.4,0.6
2022-03-15T18:00:00,1745A,118.9576,42.2728,赤峰市,哈达街,,24,22,61,2,24,90,75,82,82,11,17,5,14,0.5,0.7
2022-03-15T18:00:00,1746A,118.8788,42.2554,赤峰市,天义路,,30,30,58,7,22,85,75,81,81,13,18,6,7,0.4,0.7
2022-03-15T18:00:00,1748A,123.044,41.1196,鞍山市,深沟寺,细颗粒物(PM2.5),104,113,46,78,30,116,58,87,83,78,26,33,7,3.0,1
2022-03-15T18:00:00,1749A,123.011,41.0931,鞍山市,太阳城,细颗粒物(PM2.5),92,107,49,68,33,109,97,81,81,30,25,9,8,1.3,1.1
2022-03-15T18:00:00,1750A,123.0485,41.1442,鞍山市,太平,细颗粒物(PM2.5),103,136,53,77,34,108,59,77,77,76,34,32,13,3.9,1
2022-03-15T18:00:00,1751A,122.9642,41.0971,鞍山市,铁西三道街,细颗粒物(PM2.5),104,140,57,78,35,108,85,80,80,39,36,14,14,1.3,1.5
2022-03-15T18:00:00,1752A,122.9341,41.0833,鞍山市,铁西工业园区,细颗粒物(PM2.5),87,116,58,64,40,110,102,89,89,32,33,13,12,1.3,1.3
2022-03-15T18:00:00,1753A,123.022,41.0821,鞍山市,明达新区,细颗粒物(PM2.5),98,133,47,73,32,109,84,83,83,39,25,13,9,1.1,1
2022-03-15T18:00:00,1754A,123.1289,41.0228,鞍山市,千山(对照点),细颗粒物(PM2.5),68,75,33,49,25,99,59,80,80,11,13,7,7,0.6,0.6
2022-03-15T18:00:00,1755A,123.7977,41.8491,抚顺市,望花区,颗粒物(PM10),89,127,62,40,47,90,86,63,63,18,25,16,18,0.8,0.7
2022-03-15T18:00:00,1756A,123.9161,41.8822,抚顺市,顺城区,颗粒物(PM10),87,123,50,41,31,81,81,58,58,19,28,6,6,0.8,0.8
2022-03-15T18:00:00,1757A,124.0436,41.8611,抚顺市,东洲区,颗粒物(PM10),79,107,40,47,27,82,82,66,64,22,17,10,6,0.8,0.6
2022-03-15T18:00:00,1758A,123.9247,41.8642,抚顺市,新抚区,颗粒物(PM10),81,111,50,46,37,80,80,58,58,21,25,9,6,0.6,0.6
2022-03-15T18:00:00,1759A,124.0972,41.8961,抚顺市,大伙房水库,颗粒物(PM10),71,91,27,37,19,89,89,75,72,16,9,9,7,0.9,0.6
2022-03-15T18:00:00,1760A,123.7086,41.8391,抚顺市,沈抚新城,颗粒物(PM10),76,101,60,38,38,100,85,59,59,15,31,8,10,0.7,1
2022-03-15T18:00:00,1761A,123.8275,41.3064,本溪市,大峪,颗粒物(PM10),54,58,34,28,19,93,88,83,83,13,22,13,13,0.4,0.5
2022-03-15T18:00:00,1762A,123.7567,41.3325,本溪市,溪湖,细颗粒物(PM2.5),84,103,42,62,27,76,31,51,50,70,34,51,23,3.3,1.2
2022-03-15T18:00:00,1763A,123.7169,41.3094,本溪市,彩屯,细颗粒物(PM2.5),73,90,50,53,33,67,52,57,57,45,35,16,19,1.7,1.3
2022-03-15T18:00:00,1764A,123.7669,41.2864,本溪市,东明,颗粒物(PM10),54,58,33,27,21,87,75,83,83,26,24,10,6,0.6,0.7
2022-03-15T18:00:00,1765A,123.7992,41.2664,本溪市,新立屯,颗粒物(PM10),52,54,25,24,18,90,83,85,85,14,13,7,7,0.7,0.7
2022-03-15T18:00:00,1766A,123.8142,41.3472,本溪市,威宁,颗粒物(PM10),52,54,37,19,26,78,74,76,76,16,25,8,6,0.7,0.9
2022-03-15T18:00:00,1767A,121.1115,41.0879,锦州市,南山,细颗粒物(PM2.5),104,113,52,78,41,78,53,69,69,,30,50,16,0.9,0.6
2022-03-15T18:00:00,1768A,121.0533,40.8434,锦州市,开发区,细颗粒物(PM2.5),108,132,63,81,36,76,48,66,65,52,31,64,19,1.0,0.8
2022-03-15T18:00:00,1769A,121.1836,41.1119,锦州市,百股街道,细颗粒物(PM2.5),92,90,49,68,37,86,68,78,78,35,25,165,23,0.8,0.6
2022-03-15T18:00:00,1770A,121.1178,41.1222,锦州市,天安街道,细颗粒物(PM2.5),94,120,55,70,35,77,35,66,64,70,35,24,17,1.2,0.8
2022-03-15T18:00:00,1771A,121.1303,41.1386,锦州市,北湖公园,细颗粒物(PM2.5),122,120,55,92,37,85,53,74,74,48,28,22,16,1.3,0.7
2022-03-15T18:00:00,1772A,126.54,43.8622,吉林市,哈达湾,,24,16,20,14,17,88,76,84,83,15,13,5,6,0.5,0.5
2022-03-15T18:00:00,1773A,126.5844,43.8358,吉林市,东局子,,26,20,25,14,18,88,82,85,85,10,16,4,6,0.6,0.6
2022-03-15T18:00:00,1774A,126.5052,43.8245,吉林市,电力学院,,32,26,26,22,21,92,76,88,87,17,13,6,7,0.6,0.6
2022-03-15T18:00:00,1775A,126.6133,43.8972,吉林市,江北,细颗粒物(PM2.5),90,81,30,67,22,91,60,87,82,29,13,6,5,1.1,0.7
2022-03-15T18:00:00,1776A,126.555,43.8306,吉林市,江南公园,,25,18,21,17,20,82,75,80,79,12,14,5,6,0.5,0.5
2022-03-15T18:00:00,1778A,126.7061,43.7133,吉林市,丰满(对照点),,27,14,19,15,20,90,86,88,88,4,7,5,5,0.6,0.6
2022-03-15T18:00:00,1779A,123.9305,47.3636,齐齐哈尔市,安居小区,,40,40,37,18,15,81,81,78,78,17,32,5,9,0.5,0.5
2022-03-15T18:00:00,1780A,123.9488,47.3386,齐齐哈尔市,中心广场,,37,37,32,12,17,83,71,73,73,18,24,7,66,0.5,0.5
2022-03-15T18:00:00,1781A,123.9483,47.3227,齐齐哈尔市,农牧车辆厂,,29,29,34,20,17,80,70,73,73,21,27,41,30,0.5,0.5
2022-03-15T18:00:00,1783A,123.945,47.2988,齐齐哈尔市,市环境监测站,,44,44,30,15,20,81,63,72,72,24,20,28,12,0.4,0.4
2022-03-15T18:00:00,1784A,129.61,44.561,牡丹江市,环保大楼,,28,21,24,19,15,93,82,89,89,16,14,4,4,0.5,0.5
2022-03-15T18:00:00,1785A,129.6115,44.5782,牡丹江市,文化广场,,32,31,24,22,21,89,64,82,80,34,17,7,6,0.7,0.6
2022-03-15T18:00:00,1787A,129.6364,44.6075,牡丹江市,机车工厂,,38,38,25,23,17,92,80,86,86,14,12,5,10,0.4,0.4
2022-03-15T18:00:00,1788A,129.6386,44.5462,牡丹江市,第一中学,,37,37,23,16,17,94,80,90,90,20,15,5,4,0.7,0.6
2022-03-15T18:00:00,1789A,124.81117,46.03138,大庆市,大同区,细颗粒物(PM2.5),57,48,40,40,35,81,72,77,77,13,16,5,4,0.4,0.7
2022-03-15T18:00:00,1790A,125.129,46.533,大庆市,龙凤区,,45,45,37,28,24,82,73,78,78,16,30,6,8,0.5,0.5
2022-03-15T18:00:00,1791A,124.902,46.408,大庆市,红岗区,,48,37,31,33,20,81,69,76,76,11,15,2,3,0.6,0.5
2022-03-15T18:00:00,1792A,125.153,46.586,大庆市,萨尔图区,,49,34,32,34,33,81,71,77,77,19,24,5,6,0.4,0.4
2022-03-15T18:00:00,1793A,124.9042,46.6215,大庆市,让胡路区,,41,41,40,12,28,86,72,80,80,20,30,14,6,0.3,0.4
2022-03-15T18:00:00,1794A,118.3606,31.3519,芜湖市,监测站,颗粒物(PM10),68,86,107,38,28,172,148,138,138,38,31,7,7,0.8,0.7
2022-03-15T18:00:00,1795A,118.3714,31.4134,芜湖市,科创中心,颗粒物(PM10),68,86,101,36,30,165,138,129,129,25,24,8,8,1.0,0.9
2022-03-15T18:00:00,1796A,118.3673,31.3131,芜湖市,四水厂,颗粒物(PM10),62,74,104,33,32,160,152,136,136,18,20,8,7,1.0,0.8
2022-03-15T18:00:00,1798A,118.5092,31.6837,马鞍山市,湖东路四小,颗粒物(PM10),65,79,87,40,43,172,148,136,136,31,20,10,9,1.2,0.8
2022-03-15T18:00:00,1799A,118.5024,31.6449,马鞍山市,开发区,颗粒物(PM10),79,107,91,51,22,159,138,129,129,40,25,10,8,1.0,0.9
2022-03-15T18:00:00,1800A,118.5228,31.7231,马鞍山市,慈湖,颗粒物(PM10),68,86,95,34,32,160,146,132,132,35,26,10,15,1.0,0.8
2022-03-15T18:00:00,1802A,118.6245,31.7241,马鞍山市,濮塘(对照点),颗粒物(PM10),61,72,71,37,35,147,139,126,126,13,16,7,7,0.9,0.7
2022-03-15T18:00:00,1803A,115.9872,29.6815,九江市,十里,颗粒物(PM10),68,85,153,45,59,159,122,119,119,18,25,7,9,0.6,0.9
2022-03-15T18:00:00,1804A,115.9584,29.7046,九江市,茅山头,颗粒物(PM10),70,89,192,47,57,169,118,120,120,18,24,5,7,0.7,0.7
2022-03-15T18:00:00,1805A,115.9877,29.7295,九江市,西园,颗粒物(PM10),70,90,163,40,60,176,115,117,117,17,25,5,7,0.7,0.9
2022-03-15T18:00:00,1806A,116.0172,29.6547,九江市,五七二七厂,颗粒物(PM10),76,101,186,34,49,133,107,98,98,12,23,6,7,0.9,0.9
2022-03-15T18:00:00,1808A,115.9114,29.6038,九江市,综合工业园,颗粒物(PM10),59,67,186,27,56,148,128,118,118,19,27,8,8,1.1,0.7
2022-03-15T18:00:00,1809A,116.0721,29.7535,九江市,石化总厂,颗粒物(PM10),67,84,193,32,54,159,113,121,121,34,33,7,5,0.4,0.5
2022-03-15T18:00:00,1810A,115.9773,29.5698,九江市,庐山气象台(对照点),,42,42,37,20,26,134,130,126,123,5,7,3,3,0.2,0.3
2022-03-15T18:00:00,1812A,112.3931,34.6516,洛阳市,市委党校,颗粒物(PM10),167,283,481,72,99,114,75,80,80,53,37,6,5,0.8,0.9
2022-03-15T18:00:00,1814A,112.4657,34.6871,洛阳市,豫西宾馆,颗粒物(PM10),181,312,537,75,104,120,114,101,101,22,43,8,8,0.5,0.8
2022-03-15T18:00:00,1815A,112.494,34.6886,洛阳市,河南林校,颗粒物(PM10),198,345,538,73,100,127,97,98,98,44,42,6,5,0.7,0.9
2022-03-15T18:00:00,1816A,112.3844,34.623,洛阳市,开发区管委会,颗粒物(PM10),146,242,445,63,92,113,94,85,85,22,22,4,5,0.4,0.6
2022-03-15T18:00:00,1817A,112.4267,34.6258,洛阳市,市委新办公区,颗粒物(PM10),167,284,502,67,94,124,99,89,89,21,26,4,4,0.6,0.6
2022-03-15T18:00:00,1818A,114.4839,36.0621,安阳市,棉研所(对照点),颗粒物(PM10),460,560,415,93,85,94,80,67,67,29,27,9,6,1.1,1.1
2022-03-15T18:00:00,1819A,114.3551,36.1017,安阳市,红庙街,颗粒物(PM10),412,512,439,102,91,100,89,79,65,36,32,13,10,1.2,1.2
2022-03-15T18:00:00,1820A,114.361,36.0681,安阳市,银杏小区,颗粒物(PM10),431,531,447,112,94,95,89,75,64,32,29,9,6,0.8,0.7
2022-03-15T18:00:00,1824A,114.3389,34.7781,开封市,肿瘤医院,颗粒物(PM10),453,553,362,119,118,113,99,92,92,29,30,9,8,0.8,0.9
2022-03-15T18:00:00,1826A,114.2885,34.7965,开封市,世纪星幼儿园,颗粒物(PM10),479,579,366,89,96,123,103,97,97,33,34,9,9,1.2,1.2
2022-03-15T18:00:00,1828A,113.2269,35.2127,焦作市,市环保局,颗粒物(PM10),260,392,368,112,101,110,108,88,88,33,37,12,11,1.1,1
2022-03-15T18:00:00,1829A,113.2467,35.176,焦作市,高新区政府,颗粒物(PM10),325,440,421,97,94,116,108,92,92,33,42,13,15,0.9,0.9
2022-03-15T18:00:00,1830A,113.1987,35.2703,焦作市,影视城(对照点),颗粒物(PM10),192,333,399,89,84,118,110,87,87,30,20,29,20,2.4,1.2
2022-03-15T18:00:00,1832A,113.3257,33.742,平顶山市,新华旅馆,颗粒物(PM10),423,523,412,129,119,127,107,105,105,18,39,3,3,0.5,0.8
2022-03-15T18:00:00,1833A,113.2919,33.737,平顶山市,规划设计院,颗粒物(PM10),425,525,440,140,116,119,102,97,97,21,34,3,4,0.4,0.7
2022-03-15T18:00:00,1834A,113.182,33.774,平顶山市,平顶山工学院,颗粒物(PM10),375,480,456,79,100,127,116,106,106,11,27,4,5,0.6,0.8
2022-03-15T18:00:00,1835A,111.1922,34.7752,三门峡市,市政府,颗粒物(PM10),158,265,454,74,106,106,92,77,77,38,33,6,10,0.5,0.7
2022-03-15T18:00:00,1836A,111.1587,34.7942,三门峡市,开发区,颗粒物(PM10),163,275,525,70,100,105,94,79,79,26,31,7,11,0.3,0.6
2022-03-15T18:00:00,1838A,111.143,34.7955,三门峡市,风景区(对照点),颗粒物(PM10),170,290,517,67,96,111,106,87,87,18,24,8,11,0.4,0.7
2022-03-15T18:00:00,1840A,111.2992,30.6981,宜昌市,白龙岗,颗粒物(PM10),170,290,250,75,64,155,149,124,124,29,34,11,7,0.5,0.5
2022-03-15T18:00:00,1841A,111.3549,30.6465,宜昌市,伍家岗,颗粒物(PM10),155,260,222,70,64,139,132,107,107,22,42,12,9,0.7,0.7
2022-03-15T18:00:00,1842A,111.2628,30.6961,宜昌市,点军区,颗粒物(PM10),188,326,273,78,65,162,160,125,125,21,27,12,8,0.8,0.7
2022-03-15T18:00:00,1843A,111.3275,30.7819,宜昌市,夷陵区,颗粒物(PM10),138,226,215,66,58,173,145,122,122,35,39,9,6,0.6,0.5
2022-03-15T18:00:00,1844A,112.2494,30.3197,荆州市,市图书馆,颗粒物(PM10),188,326,503,65,76,142,126,120,120,18,25,12,16,1.0,1
2022-03-15T18:00:00,1845A,112.2008,30.3544,荆州市,市委党校,颗粒物(PM10),192,333,499,65,83,142,131,119,119,17,26,8,10,0.8,0.8
2022-03-15T18:00:00,1847A,113.1094,29.3578,岳阳市,南湖风景区,颗粒物(PM10),74,98,200,46,58,146,143,121,121,16,24,9,11,0.9,1
2022-03-15T18:00:00,1848A,113.1493,29.4251,岳阳市,城陵矶,,,,202,,57,151,124,119,119,41,33,9,8,0.9,0.8
2022-03-15T18:00:00,1849A,113.1497,29.3575,岳阳市,开发区,颗粒物(PM10),70,90,150,37,46,153,147,125,125,17,25,9,10,0.9,0.9
2022-03-15T18:00:00,1850A,113.2621,29.4758,岳阳市,云溪区,细颗粒物(PM2.5),74,72,128,54,55,173,159,139,139,10,19,11,8,0.9,1.1
2022-03-15T18:00:00,1851A,112.9943,29.4402,岳阳市,君山区,颗粒物(PM10),77,104,278,33,65,142,131,118,118,13,20,4,5,0.8,1
2022-03-15T18:00:00,1852A,113.2117,29.355,岳阳市,金凤水库(对照点),颗粒物(PM10),74,98,129,41,46,158,149,127,127,14,20,16,10,0.8,1
2022-03-15T18:00:00,1854A,111.6975,28.9703,常德市,市二中,颗粒物(PM10),101,151,166,54,56,158,141,138,138,12,17,12,11,,1.1
2022-03-15T18:00:00,1857A,111.7158,29.1456,常德市,白鹤山(对照点),颗粒物(PM10),109,167,201,68,58,192,146,161,161,11,14,12,9,0.8,0.7
2022-03-15T18:00:00,1858A,110.5319,29.1217,张家界市,永定新区,颗粒物(PM10),71,92,154,39,52,136,102,120,120,10,14,3,1,0.6,0.6
2022-03-15T18:00:00,1859A,110.4697,29.1242,张家界市,电业局,颗粒物(PM10),55,59,135,31,38,132,107,118,118,10,11,4,5,0.3,0.3
2022-03-15T18:00:00,1860A,110.5594,29.3547,张家界市,未央路,颗粒物(PM10),64,78,151,22,34,113,111,107,107,8,7,3,3,0.5,0.5
2022-03-15T18:00:00,1861A,110.4417,29.315,张家界市,袁家界(对照点),颗粒物(PM10),68,85,138,32,44,130,128,124,124,4,4,4,4,0.2,0.2
2022-03-15T18:00:00,1862A,110.4144,25.3167,桂林市,电子科大尧山校区(对照点),细颗粒物(PM2.5),62,61,49,44,45,123,120,103,103,7,7,8,9,0.5,0.5
2022-03-15T18:00:00,1863A,110.2819,25.2697,桂林市,监测站,细颗粒物(PM2.5),74,64,109,54,78,111,108,92,92,12,32,9,21,0.6,1
2022-03-15T18:00:00,1864A,110.3089,25.2708,桂林市,龙隐路小学,细颗粒物(PM2.5),60,53,91,43,71,116,113,96,96,9,25,7,19,0.6,0.8
2022-03-15T18:00:00,1865A,110.2869,25.2178,桂林市,八中,颗粒物(PM10),59,68,105,36,81,113,108,90,90,17,27,8,21,0.5,0.8
2022-03-15T18:00:00,1866A,109.2262,21.588,北海市,牛尾岭水库(对照点),颗粒物(PM10),57,64,53,39,40,84,70,70,70,6,12,21,8,0.4,0.5
2022-03-15T18:00:00,1867A,109.1436,21.4086,北海市,海滩公园,,46,46,37,24,16,86,66,73,73,26,23,5,4,0.6,0.4
2022-03-15T18:00:00,1868A,109.0981,21.4661,北海市,新市环保局,颗粒物(PM10),51,52,47,29,34,79,71,69,69,9,12,5,8,0.5,0.5
2022-03-15T18:00:00,1869A,109.1778,21.5233,北海市,北海工业园,,49,43,53,34,38,94,83,79,79,13,17,8,7,0.6,0.6
2022-03-15T18:00:00,1870A,109.4856,24.3895,柳州市,柳东小学,,,,119,,126,160,142,127,127,,15,6,22,1.0,1.3
2022-03-15T18:00:00,1871A,109.4157,24.3277,柳州市,环保监测站,颗粒物(PM10),51,51,100,16,94,160,139,124,124,15,28,6,16,1.0,1.3
2022-03-15T18:00:00,1872A,109.389,24.341,柳州市,河西水厂,细颗粒物(PM2.5),67,66,131,48,103,157,142,123,123,16,32,7,19,1.1,1.5
2022-03-15T18:00:00,1873A,109.4311,24.2921,柳州市,市四中,细颗粒物(PM2.5),73,89,123,53,74,145,135,121,121,14,29,7,12,0.7,1
2022-03-15T18:00:00,1874A,109.4006,24.3631,柳州市,市九中,,,73,118,,117,167,135,120,120,16,30,7,16,1.2,1.6
2022-03-15T18:00:00,1875A,109.4958,24.3134,柳州市,古亭山,细颗粒物(PM2.5),64,71,91,46,68,167,141,133,133,13,23,5,7,0.7,0.9
2022-03-15T18:00:00,1876A,109.5078,18.2489,三亚市,河东子站,,24,24,26,10,12,63,57,59,59,9,8,3,3,0.4,0.4
2022-03-15T18:00:00,1877A,109.4964,18.2681,三亚市,河西子站,,22,22,25,13,13,65,60,59,59,4,7,4,4,0.2,0.3
2022-03-15T18:00:00,1878A,104.7778,31.4741,绵阳市,富乐山,细颗粒物(PM2.5),72,78,113,52,49,159,140,134,134,9,32,8,9,1.0,0.9
2022-03-15T18:00:00,1879A,104.7563,31.4535,绵阳市,市人大,细颗粒物(PM2.5),68,84,132,49,54,164,135,132,132,16,52,10,11,0.7,0.8
2022-03-15T18:00:00,1880A,104.6697,31.4668,绵阳市,高新区自来水公司,细颗粒物(PM2.5),79,95,169,58,58,176,152,143,143,14,47,9,10,0.8,0.9
2022-03-15T18:00:00,1881A,104.7287,31.5075,绵阳市,三水厂,细颗粒物(PM2.5),74,88,141,54,53,164,146,133,133,10,48,5,5,1.2,1.3
2022-03-15T18:00:00,1882A,104.563,28.793,宜宾市,石马中学(对照点),细颗粒物(PM2.5),52,45,66,36,51,153,147,129,129,12,19,9,12,0.7,0.8
2022-03-15T18:00:00,1883A,104.6201,28.7728,宜宾市,市委,"颗粒物(PM10),细颗粒物(PM2.5)",55,59,70,39,48,169,157,132,132,22,34,8,16,0.8,0.8
2022-03-15T18:00:00,1884A,104.6055,28.793,宜宾市,宜宾四中,细颗粒物(PM2.5),54,53,68,38,48,163,153,131,131,14,27,10,15,0.6,0.8
2022-03-15T18:00:00,1885A,104.639,28.7562,宜宾市,市政府,臭氧1小时,69,62,75,34,48,180,175,151,151,26,41,16,16,0.5,0.8
2022-03-15T18:00:00,1886A,104.5742,28.7199,宜宾市,黄金嘴,细颗粒物(PM2.5),59,58,62,42,45,166,166,136,136,15,20,10,13,0.6,0.6
2022-03-15T18:00:00,1888A,101.6891,26.571,攀枝花市,弄弄坪,细颗粒物(PM2.5),52,48,54,36,40,145,141,97,97,16,38,21,27,0.6,1.8
2022-03-15T18:00:00,1889A,101.5769,26.5928,攀枝花市,河门口,,,106,65,,28,159,159,121,121,24,36,39,42,1.9,2
2022-03-15T18:00:00,1890A,101.7169,26.585,攀枝花市,炳草岗,颗粒物(PM10),53,55,75,34,43,144,135,101,101,26,74,27,31,0.9,1.7
2022-03-15T18:00:00,1891A,101.7369,26.5008,攀枝花市,仁和,颗粒物(PM10),55,60,53,38,36,142,129,119,119,15,29,15,20,0.7,1.2
2022-03-15T18:00:00,1893A,105.4324,28.9634,泸州市,九狮山(对照点),臭氧1小时,52,32,52,22,28,164,161,133,133,15,18,10,9,0.4,0.4
2022-03-15T18:00:00,1894A,105.4427,28.9063,泸州市,小市上码头,臭氧1小时,59,35,57,15,33,172,167,141,141,25,25,14,15,0.5,0.7
2022-03-15T18:00:00,1895A,105.4241,28.8573,泸州市,兰田宪桥,,50,32,61,14,29,164,160,134,134,19,21,7,8,0.6,0.7
2022-03-15T18:00:00,1896A,105.4379,28.8833,泸州市,市环监站,,45,34,54,22,28,150,141,117,117,26,27,9,13,0.6,0.7
2022-03-15T18:00:00,1901A,104.4239,31.1208,德阳市,东山公园,"颗粒物(PM10),细颗粒物(PM2.5)",64,78,123,46,52,154,154,134,134,12,29,6,8,0.7,0.7
2022-03-15T18:00:00,1902A,104.3826,31.1317,德阳市,西小区,细颗粒物(PM2.5),75,84,124,55,56,157,143,134,134,15,59,8,9,0.7,0.9
2022-03-15T18:00:00,1904A,104.3553,31.1091,德阳市,耐火材料厂,细颗粒物(PM2.5),75,87,154,55,63,143,135,125,125,17,57,6,10,0.6,0.8
2022-03-15T18:00:00,1905A,106.056,30.8064,南充市,西山风景区(对照点),细颗粒物(PM2.5),59,37,75,42,75,145,136,132,132,11,11,1,11,0.7,1
2022-03-15T18:00:00,1906A,106.0789,30.8023,南充市,南充市委,细颗粒物(PM2.5),77,62,106,56,80,135,121,123,123,8,24,1,8,0.8,1
2022-03-15T18:00:00,1907A,106.1031,30.8217,南充市,南充炼油厂,颗粒物(PM10),58,66,104,34,64,141,129,124,124,7,16,1,12,0.7,1
2022-03-15T18:00:00,1908A,106.1064,30.7856,南充市,高坪区监测站,,50,46,91,35,70,145,132,129,129,7,14,2,23,0.6,0.8
2022-03-15T18:00:00,1909A,106.0642,30.7636,南充市,嘉陵区环保局,细颗粒物(PM2.5),59,50,106,42,72,139,131,130,130,7,19,5,13,0.7,1
2022-03-15T18:00:00,1910A,106.1087,30.8388,南充市,市环境监测站,颗粒物(PM10),54,57,96,36,66,127,122,119,119,14,24,2,9,0.4,0.6
2022-03-15T18:00:00,1911A,106.9222,27.6869,遵义市,丁字口,,37,17,30,19,20,119,117,112,112,13,21,7,9,0.5,0.5
2022-03-15T18:00:00,1912A,106.9242,27.7019,遵义市,凤凰山,,40,20,29,19,23,126,125,113,113,8,17,5,7,0.5,0.4
2022-03-15T18:00:00,1913A,106.8906,27.6486,遵义市,忠庄,,37,29,30,17,16,119,116,107,107,12,22,2,3,0.4,0.4
2022-03-15T18:00:00,1914A,106.9231,27.6506,遵义市,舟水桥,,39,24,38,22,21,122,122,110,110,11,22,2,3,0.3,0.3
2022-03-15T18:00:00,1915A,106.9178,27.72,遵义市,干田坝,,38,27,30,23,19,125,120,111,111,9,17,5,6,0.4,0.4
2022-03-15T18:00:00,1916A,103.7897,25.5035,曲靖市,环境监测站,颗粒物(PM10),58,66,61,19,31,146,126,128,128,11,22,5,8,0.4,0.7
2022-03-15T18:00:00,1917A,103.8,25.5364,曲靖市,烟厂办公区,,41,35,57,19,32,150,131,131,131,12,18,5,7,0.4,0.6
2022-03-15T18:00:00,1918A,108.7197,34.3956,咸阳市,气象站(对照点),颗粒物(PM10),219,363,572,94,128,98,96,76,76,32,53,7,6,0.6,0.7
2022-03-15T18:00:00,1919A,108.673,34.3155,咸阳市,实验中学,颗粒物(PM10),248,383,524,109,130,101,97,76,76,39,49,11,9,0.5,0.5
2022-03-15T18:00:00,1920A,108.7233,34.3617,咸阳市,师范学院,颗粒物(PM10),310,428,598,107,134,103,94,77,77,37,46,10,8,0.6,0.7
2022-03-15T18:00:00,1922A,109.0656,35.0994,铜川市,党校(对照点),颗粒物(PM10),161,272,357,64,90,107,80,88,88,36,36,19,17,0.7,0.6
2022-03-15T18:00:00,1923A,109.0697,35.0697,铜川市,王益区政府,颗粒物(PM10),162,273,366,64,90,105,90,88,88,27,30,6,5,0.2,0.3
2022-03-15T18:00:00,1924A,108.9344,34.9058,铜川市,新区管委会,颗粒物(PM10),191,331,432,86,108,105,105,92,92,18,24,8,15,0.6,0.6
2022-03-15T18:00:00,1926A,109.4131,36.6275,延安市,枣园(对照点),,,43,260,,78,122,108,98,98,14,39,3,3,0.4,0.8
2022-03-15T18:00:00,1927A,109.4761,36.6028,延安市,延大医附院,,43,39,270,30,88,116,95,90,90,20,40,4,5,0.7,1
2022-03-15T18:00:00,1929A,109.5056,36.6106,延安市,百米大道,颗粒物(PM10),51,51,313,22,113,115,107,85,85,15,50,3,7,0.5,0.8
2022-03-15T18:00:00,1930A,107.185,34.3063,宝鸡市,庙沟村(对照点),颗粒物(PM10),180,309,416,90,101,129,129,100,100,14,19,7,5,0.5,0.5
2022-03-15T18:00:00,1931A,107.0708,34.3017,宝鸡市,竹园沟,颗粒物(PM10),184,318,384,79,93,129,129,101,101,18,22,6,4,0.5,0.6
2022-03-15T18:00:00,1932A,107.1906,34.3672,宝鸡市,三陆医院,细颗粒物(PM2.5),201,335,461,151,210,136,136,99,99,17,30,7,8,0.7,0.7
2022-03-15T18:00:00,1933A,107.1431,34.3547,宝鸡市,监测站,颗粒物(PM10),191,331,406,94,114,135,135,102,102,17,22,5,5,0.4,0.5
2022-03-15T18:00:00,1934A,107.1186,34.3739,宝鸡市,技工学校,颗粒物(PM10),183,316,427,76,95,124,124,95,95,17,20,6,5,0.5,0.5
2022-03-15T18:00:00,1935A,107.3906,34.3528,宝鸡市,陈仓区环保局家属楼,颗粒物(PM10),193,336,481,79,121,126,124,92,92,15,25,6,19,0.6,1.1
2022-03-15T18:00:00,1936A,107.2058,34.3497,宝鸡市,文理学院,颗粒物(PM10),198,346,442,90,107,138,138,102,102,18,24,8,7,0.9,0.8
2022-03-15T18:00:00,1937A,107.2386,34.3622,宝鸡市,三迪小学,颗粒物(PM10),196,342,450,93,118,133,133,99,99,16,22,9,8,0.5,0.5
2022-03-15T18:00:00,1938A,109.5293,34.5101,渭南市,农科所(对照点),颗粒物(PM10),488,588,638,117,127,111,79,87,87,42,42,9,10,0.6,0.6
2022-03-15T18:00:00,1939A,109.4974,34.4877,渭南市,日报社,颗粒物(PM10),496,596,635,136,148,106,95,94,94,35,49,10,14,0.6,0.6
2022-03-15T18:00:00,1940A,109.4636,34.493,渭南市,体育馆,颗粒物(PM10),456,556,642,107,128,115,93,94,94,34,47,7,16,0.6,0.6
2022-03-15T18:00:00,1941A,109.4259,34.5023,渭南市,高新一小,颗粒物(PM10),448,548,602,129,137,98,85,84,84,38,48,6,8,0.7,0.6
2022-03-15T18:00:00,1943A,102.1725,38.5339,金昌市,新川苑,颗粒物(PM10),82,113,108,23,26,126,118,114,114,8,10,6,22,0.5,0.5
2022-03-15T18:00:00,1944A,102.1692,38.5167,金昌市,天庆家园,颗粒物(PM10),84,117,118,27,25,125,120,113,113,6,10,34,23,0.6,0.7
2022-03-15T18:00:00,1945A,98.2908,39.7711,嘉峪关市,气象局,颗粒物(PM10),67,83,108,19,24,113,109,100,100,7,27,5,8,0.3,0.4
2022-03-15T18:00:00,1947A,106.3394,38.817,石嘴山市,沙湖旅游区(对照点),,46,46,162,14,30,125,124,116,116,6,14,16,13,0.2,0.3
2022-03-15T18:00:00,1948A,106.3668,39.0145,石嘴山市,大武口朝阳西街,,43,43,83,14,26,120,119,110,110,13,14,5,6,0.4,0.4
2022-03-15T18:00:00,1949A,106.7704,39.2282,石嘴山市,惠农南大街,,,,120,,62,124,120,105,105,18,24,27,23,0.9,0.8
2022-03-15T18:00:00,1950A,106.7099,39.1325,石嘴山市,红果子镇惠新街,颗粒物(PM10),52,53,127,21,34,131,131,115,115,12,12,10,13,0.5,0.5
2022-03-15T18:00:00,1951A,84.895,45.6094,克拉玛依市,长征新村,,18,12,19,4,6,90,56,86,50,14,10,8,6,0.2,0.2
2022-03-15T18:00:00,1952A,84.8988,45.5893,克拉玛依市,南林小区,,15,6,21,5,6,89,47,83,48,20,14,4,3,0.4,0.3
2022-03-15T18:00:00,1954A,84.905,44.3396,克拉玛依市,独山子区,,21,21,22,8,11,84,64,73,71,14,10,4,4,0.5,0.5
2022-03-15T18:00:00,1955A,85.6979,46.098,克拉玛依市,乌尔禾区商贸楼,,25,10,13,1,7,89,77,78,71,1,3,10,9,0.2,0.2
2022-03-15T18:00:00,1956A,86.1472,41.7538,巴音郭楞州,孔雀公园,颗粒物(PM10),400,500,325,95,73,118,93,82,82,4,55,2,5,0.4,0.8
2022-03-15T18:00:00,1957A,86.1972,41.7166,巴音郭楞州,棉纺厂,颗粒物(PM10),448,548,310,113,67,108,96,79,79,8,41,2,3,0.4,0.6
2022-03-15T18:00:00,1958A,86.2357,41.7173,巴音郭楞州,经济开发区,颗粒物(PM10),493,593,353,98,61,107,94,79,79,7,24,3,3,0.2,0.3
2022-03-15T18:00:00,1961A,117.532,36.6868,济南市,东山小学,颗粒物(PM10),160,269,187,46,47,149,140,138,138,16,21,11,11,0.5,0.7
2022-03-15T18:00:00,1966A,120.0405,35.8735,青岛市,黄岛区4号,,46,46,49,29,26,133,109,124,122,32,25,5,6,0.8,0.8
2022-03-15T18:00:00,1982A,122.0693,37.2174,威海市,文登开发区,,34,22,53,12,39,109,107,104,104,2,7,3,3,0.4,0.6
2022-03-15T18:00:00,2054A,114.1099,32.1059,信阳市,平桥分局,颗粒物(PM10),131,211,309,72,84,151,151,133,133,21,22,9,8,0.8,0.9
2022-03-15T18:00:00,2064A,113.9956,32.1271,信阳市,南湾水厂,颗粒物(PM10),150,249,342,69,73,163,163,142,142,14,18,11,10,1.0,1
2022-03-15T18:00:00,2065A,114.0775,32.1195,信阳市,市酿酒公司,颗粒物(PM10),121,192,290,64,70,147,146,130,130,11,18,8,7,0.8,0.9
2022-03-15T18:00:00,2066A,114.0609,32.1399,信阳市,审计局,,,,347,,92,146,137,128,128,,32,8,7,,0.6
2022-03-15T18:00:00,2067A,114.6613,33.6128,周口市,市环境监测站,颗粒物(PM10),408,508,373,88,70,114,106,100,100,20,26,6,10,1.0,1.3
2022-03-15T18:00:00,2068A,114.6758,33.6347,周口市,周口师范,颗粒物(PM10),458,558,408,76,70,107,100,91,91,20,24,9,13,0.9,1
2022-03-15T18:00:00,2069A,114.6546,33.5979,周口市,市运管处,颗粒物(PM10),409,509,380,74,67,113,101,92,92,21,27,7,10,0.9,1.1
2022-03-15T18:00:00,2070A,114.6369,33.6406,周口市,川汇区环保局,颗粒物(PM10),409,509,389,85,74,112,101,94,94,22,23,14,13,1.0,1.1
2022-03-15T18:00:00,2075A,117.6336,24.4674,漳州市,九湖(对照点),"颗粒物(PM10),细颗粒物(PM2.5)",73,96,61,53,28,192,156,141,141,17,21,8,9,0.6,0.5
2022-03-15T18:00:00,2160A,112.85,35.5051,晋城市,自来水公司,颗粒物(PM10),104,158,349,27,70,109,108,98,98,20,34,9,17,0.8,1.1
2022-03-15T18:00:00,2161A,112.8318,35.4936,晋城市,白云商贸,颗粒物(PM10),99,147,413,44,88,118,118,110,110,9,22,5,13,0.6,0.8
2022-03-15T18:00:00,2162A,112.8508,35.4887,晋城市,市环保局,颗粒物(PM10),88,125,392,31,85,112,111,100,100,10,25,8,16,0.7,1
2022-03-15T18:00:00,2163A,112.8676,35.4897,晋城市,技术学院,颗粒物(PM10),86,121,381,41,85,108,108,98,98,11,30,5,12,0.5,0.8
2022-03-15T18:00:00,2165A,112.8453,35.546,晋城市,白马寺 (对照点),颗粒物(PM10),83,116,399,34,73,107,96,94,94,28,20,5,18,0.6,0.7
2022-03-15T18:00:00,2166A,112.4397,39.3522,朔州市,平朔,颗粒物(PM10),91,132,205,9,47,104,100,100,100,11,14,3,3,0.3,0.4
2022-03-15T18:00:00,2167A,112.4575,39.3617,朔州市,朔唯,颗粒物(PM10),90,129,208,7,40,114,110,109,109,8,12,3,2,0.3,0.4
2022-03-15T18:00:00,2168A,112.4258,39.3197,朔州市,区政府,,,110,196,9,37,104,100,98,98,,12,,7,0.4,0.5
2022-03-15T18:00:00,2169A,112.4072,39.3278,朔州市,市环保局,颗粒物(PM10),84,118,211,12,41,98,94,95,95,10,15,3,5,0.3,0.7
2022-03-15T18:00:00,2170A,112.4272,39.3681,朔州市,市二中,颗粒物(PM10),82,114,204,12,47,110,104,103,103,5,10,2,4,0.2,0.3
2022-03-15T18:00:00,2171A,112.7532,37.6945,晋中市,锦纶小区,颗粒物(PM10),80,110,453,31,106,123,115,104,104,15,30,8,12,0.2,0.5
2022-03-15T18:00:00,2173A,112.7249,37.7067,晋中市,南都小区,颗粒物(PM10),79,108,479,39,124,130,122,108,108,11,29,8,14,0.3,0.6
2022-03-15T18:00:00,2174A,112.6991,37.6982,晋中市,榆次区政府,颗粒物(PM10),75,99,467,29,129,126,116,104,104,18,39,11,17,0.4,0.8
2022-03-15T18:00:00,2175A,110.9956,35.0147,运城市,运城中学,颗粒物(PM10),146,241,477,62,111,126,118,101,101,19,20,10,12,0.5,0.6
2022-03-15T18:00:00,2178A,110.9686,35.0303,运城市,地区技校,颗粒物(PM10),164,277,476,56,88,129,122,104,104,21,22,6,8,0.5,0.6
2022-03-15T18:00:00,2179A,111.0414,35.1147,运城市,空港新区,颗粒物(PM10),170,290,472,66,111,128,119,104,104,18,25,11,11,0.7,0.8
2022-03-15T18:00:00,2181A,112.7383,38.4519,忻州市,开发区,颗粒物(PM10),93,136,411,20,103,107,104,97,97,7,29,6,11,0.3,0.5
2022-03-15T18:00:00,2182A,112.7003,38.4928,忻州市,会展中心,颗粒物(PM10),87,123,400,12,98,104,102,91,91,12,38,5,8,0.2,0.5
2022-03-15T18:00:00,2183A,111.1406,37.5211,吕梁市,环保局,颗粒物(PM10),57,64,308,16,62,110,108,92,92,8,47,10,12,0.2,0.4
2022-03-15T18:00:00,2185A,111.1297,37.5136,吕梁市,自来水公司,颗粒物(PM10),51,51,266,12,49,108,105,90,90,13,45,7,10,0.1,0.3
2022-03-15T18:00:00,2187A,106.8174,39.6973,乌海市,市林业局,,34,33,100,5,29,109,106,105,105,5,18,5,9,0.5,0.6
2022-03-15T18:00:00,2188A,106.7907,39.6667,乌海市,中海勃湾学校,,36,32,99,9,29,114,113,110,110,6,15,6,8,0.3,0.4
2022-03-15T18:00:00,2191A,122.2532,43.6801,通辽市,艺术职业学校,颗粒物(PM10),60,70,53,39,33,86,80,81,73,17,23,5,9,0.6,0.6
2022-03-15T18:00:00,2192A,119.7594,49.2261,呼伦贝尔市,区环保局,,25,21,42,17,24,100,80,82,82,9,16,8,6,0.3,0.5
2022-03-15T18:00:00,2195A,107.4212,40.761,巴彦淖尔市,附二中,颗粒物(PM10),77,103,169,24,39,100,97,98,98,6,7,4,4,0.4,0.4
2022-03-15T18:00:00,2196A,107.37,40.7372,巴彦淖尔市,市环保大楼,颗粒物(PM10),66,81,154,25,42,103,99,100,100,5,6,4,4,0.4,0.4
2022-03-15T18:00:00,2197A,113.1306,40.9923,乌兰察布市,集宁新区,颗粒物(PM10),118,185,219,39,43,113,105,109,109,4,6,9,8,0.4,0.4
2022-03-15T18:00:00,2200A,122.0392,46.0656,兴安盟,胜华新制药厂,,43,30,55,30,38,71,67,58,58,22,25,3,6,0.4,1.1
2022-03-15T18:00:00,2201A,121.9504,46.0741,兴安盟,科右前旗环保局,,36,35,49,25,39,74,70,61,61,16,23,4,5,0.3,0.5
2022-03-15T18:00:00,2202A,116.1042,43.9317,锡林郭勒盟,市环保监测站,,26,19,76,7,8,94,82,82,82,9,4,9,8,0.6,0.6
2022-03-15T18:00:00,2203A,116.0781,43.9311,锡林郭勒盟,市政府,,25,20,55,2,6,89,77,78,78,7,4,8,8,0.6,0.5
2022-03-15T18:00:00,2204A,105.6467,38.8363,阿拉善盟,西城区西花园(对照点),,35,28,86,13,27,111,110,110,110,6,12,5,3,0.1,0.2
2022-03-15T18:00:00,2205A,105.6985,38.8411,阿拉善盟,蒙二幼,,35,33,97,13,34,110,109,109,109,5,7,7,7,0.2,0.2
2022-03-15T18:00:00,2206A,105.724,38.8516,阿拉善盟,环保局新楼,,33,25,57,16,30,111,103,110,106,6,7,5,5,0.0,0
2022-03-15T18:00:00,2207A,121.6094,41.998,阜新市,工业园区,颗粒物(PM10),60,70,62,16,36,89,79,84,83,21,33,7,15,0.3,0.7
2022-03-15T18:00:00,2208A,121.6697,42.0279,阜新市,长青街,,37,37,58,13,32,82,73,77,77,9,22,7,17,0.3,0.5
2022-03-15T18:00:00,2209A,121.6673,42.0705,阜新市,农业园区,,49,49,48,21,35,85,75,80,80,15,22,8,23,0.4,0.6
2022-03-15T18:00:00,2210A,121.6717,42.0224,阜新市,东苑,颗粒物(PM10),67,84,70,22,40,156,69,80,79,22,26,14,21,0.4,0.6
2022-03-15T18:00:00,2211A,121.6506,42.0498,阜新市,玉龙新城,颗粒物(PM10),53,55,45,15,30,88,78,82,82,8,22,10,14,0.2,0.5
2022-03-15T18:00:00,2212A,123.2,41.1953,辽阳市,宏伟区,细颗粒物(PM2.5),102,143,50,76,28,108,101,90,90,28,18,18,11,1.2,0.7
2022-03-15T18:00:00,2213A,123.1683,41.2495,辽阳市,新华园,细颗粒物(PM2.5),100,137,57,75,39,107,103,83,83,26,30,13,20,0.7,0.6
2022-03-15T18:00:00,2214A,123.2354,41.2639,辽阳市,滨河路,细颗粒物(PM2.5),97,137,54,72,36,109,104,87,87,23,25,12,9,1.0,0.6
2022-03-15T18:00:00,2215A,123.149,41.2991,辽阳市,铁西工业园,颗粒物(PM10),84,118,70,49,36,94,93,71,71,20,30,17,15,0.9,1.2
2022-03-15T18:00:00,2216A,123.8139,42.3022,铁岭市,汇工街西,颗粒物(PM10),58,65,49,38,36,76,76,64,64,16,31,10,12,0.5,0.7
2022-03-15T18:00:00,2217A,123.8649,42.2923,铁岭市,水上乐园,细颗粒物(PM2.5),59,62,39,42,27,75,74,65,65,18,27,6,6,0.3,0.4
2022-03-15T18:00:00,2218A,123.8486,42.2867,铁岭市,银州路东段,颗粒物(PM10),68,85,41,45,30,74,73,65,65,18,25,5,5,0.5,0.5
2022-03-15T18:00:00,2219A,123.7153,42.2217,铁岭市,金沙江路北,细颗粒物(PM2.5),52,52,43,36,29,74,74,59,59,17,36,9,6,0.4,0.6
2022-03-15T18:00:00,2220A,120.4318,41.5881,朝阳市,西梁,颗粒物(PM10),63,75,49,9,20,100,74,88,88,16,17,9,11,0.6,0.7
2022-03-15T18:00:00,2221A,120.4521,41.5646,朝阳市,河畔小区,颗粒物(PM10),62,74,46,10,19,93,70,82,82,11,10,4,6,0.5,0.7
2022-03-15T18:00:00,2222A,120.4176,41.5648,朝阳市,八里堡,颗粒物(PM10),65,80,43,5,18,95,78,82,82,11,17,6,9,0.5,0.7
2022-03-15T18:00:00,2223A,120.3806,41.5969,朝阳市,农业园区,颗粒物(PM10),59,68,49,7,22,101,80,92,92,7,19,4,7,0.6,0.8
2022-03-15T18:00:00,2225A,124.4002,43.1713,四平市,一商场,,40,40,38,18,24,73,51,70,66,23,17,7,7,0.5,0.5
2022-03-15T18:00:00,2226A,124.388,43.193,四平市,境园,,32,32,37,22,28,73,51,67,64,41,42,5,5,0.6,0.7
2022-03-15T18:00:00,2227A,125.1358,42.8845,辽源市,环保局,,43,40,78,30,55,84,46,78,72,28,16,6,11,0.8,0.5
2022-03-15T18:00:00,2229A,125.9358,41.7173,通化市,光明,,29,19,20,10,14,91,91,85,64,8,15,13,12,0.5,0.6
2022-03-15T18:00:00,2230A,125.9446,41.7325,通化市,铁路,,28,21,22,19,16,81,81,79,61,11,16,9,10,0.6,0.5
2022-03-15T18:00:00,2231A,126.4219,41.9171,白山市,喜丰,颗粒物(PM10),56,61,43,26,18,88,30,81,57,52,20,20,12,1.4,1
2022-03-15T18:00:00,2232A,126.4077,41.9419,白山市,环保局,,44,44,42,25,19,83,36,79,59,42,22,9,9,1.2,1
2022-03-15T18:00:00,2233A,124.8006,45.1214,松原市,江南,,28,26,33,19,20,80,79,78,78,19,20,1,3,0.4,0.3
2022-03-15T18:00:00,2234A,124.7965,45.1722,松原市,江北,,34,34,27,21,17,83,76,77,76,14,19,4,2,0.4,0.3
2022-03-15T18:00:00,2235A,122.7911,45.6077,白城市,洮北区环保局,,38,38,53,14,32,71,68,68,68,16,23,3,4,0.4,0.6
2022-03-15T18:00:00,2236A,122.8738,45.5725,白城市,市环保局,,43,43,42,28,27,72,68,65,65,19,26,5,7,0.3,0.4
2022-03-15T18:00:00,2237A,129.47,42.8883,延边朝鲜族自治州,妇幼医院,,29,15,14,15,12,95,90,93,93,8,10,6,10,0.6,0.5
2022-03-15T18:00:00,2238A,129.5055,42.9108,延边朝鲜族自治州,延边医院,,29,25,16,20,14,95,89,92,92,9,7,9,8,0.5,0.6
2022-03-15T18:00:00,2239A,129.3964,42.8881,延边朝鲜族自治州,朝阳川镇医院,,26,18,15,18,11,94,82,90,88,12,8,10,8,0.5,0.5
2022-03-15T18:00:00,2240A,130.9762,45.3001,鸡西市,环保局,,29,25,23,20,20,89,82,86,86,25,24,3,4,0.2,0.2
2022-03-15T18:00:00,2243A,130.9429,45.3039,鸡西市,第一中学,,29,21,24,20,20,91,82,87,87,27,26,5,7,0.2,0.2
2022-03-15T18:00:00,2244A,130.2537,47.3416,鹤岗市,哈啤分公司,,32,21,22,18,18,104,102,100,100,12,8,9,10,0.4,0.4
2022-03-15T18:00:00,2245A,130.2684,47.3086,鹤岗市,斯达机电,,39,26,26,27,19,103,101,99,99,7,9,5,5,0.4,0.4
2022-03-15T18:00:00,2246A,130.3114,47.3388,鹤岗市,东山纸板厂,,32,32,27,19,14,98,86,94,93,20,12,9,11,0.3,0.4
2022-03-15T18:00:00,2248A,131.1511,46.6937,双鸭山市,双合村,,50,33,28,35,21,98,91,89,89,13,11,7,7,0.6,0.6
2022-03-15T18:00:00,2249A,131.1652,46.6191,双鸭山市,南小市,,32,31,21,22,17,103,96,96,96,9,10,1,3,0.5,0.4
2022-03-15T18:00:00,2250A,131.1524,46.6554,双鸭山市,环保局,,49,36,25,34,21,112,99,104,104,14,10,2,2,0.4,0.3
2022-03-15T18:00:00,2251A,131.12,46.5656,双鸭山市,苗圃(对照点),细颗粒物(PM2.5),54,42,35,38,34,111,106,103,103,12,13,3,8,0.5,0.8
2022-03-15T18:00:00,2252A,128.5159,47.4311,伊春市,环保局,,29,17,17,6,11,94,92,92,92,11,9,10,8,0.5,0.4
2022-03-15T18:00:00,2253A,128.9102,47.7412,伊春市,电力嘉园,,41,41,20,27,14,95,88,90,90,15,12,6,6,0.5,0.6
2022-03-15T18:00:00,2254A,129.5029,48.471,伊春市,汤旺河国家公园(对照点),,30,6,8,3,7,101,96,99,99,2,2,5,6,0.1,0.3
2022-03-15T18:00:00,2255A,130.2751,46.8028,佳木斯市,佳纺,,33,27,35,23,23,95,64,89,86,38,17,5,8,0.5,0.5
2022-03-15T18:00:00,2256A,130.3995,46.8307,佳木斯市,发电厂,,32,28,24,15,16,106,100,101,101,13,6,4,3,0.4,0.4
2022-03-15T18:00:00,2257A,130.3258,46.7975,佳木斯市,环保局,,26,26,26,17,19,95,82,90,86,32,20,1,3,0.5,0.5
2022-03-15T18:00:00,2258A,130.3648,46.8032,佳木斯市,十一中,,32,27,22,22,20,93,80,93,82,31,18,6,8,0.5,0.4
2022-03-15T18:00:00,2259A,130.3794,46.7588,佳木斯市,四丰(对照点),,28,20,26,16,22,101,87,91,91,21,15,4,6,0.4,0.4
2022-03-15T18:00:00,2262A,131.0518,45.8751,七台河市,新一中(对照点),细颗粒物(PM2.5),52,37,22,36,18,101,86,94,93,23,11,16,4,0.6,0.5
2022-03-15T18:00:00,2263A,127.4833,50.2524,黑河市,交通局,,26,13,28,13,16,89,82,83,83,6,10,4,7,0.5,0.6
2022-03-15T18:00:00,2264A,127.5144,50.2341,黑河市,环保局,,28,18,28,7,18,95,87,88,88,6,11,6,8,0.4,0.5
2022-03-15T18:00:00,2265A,127.5291,50.2472,黑河市,大黑河岛(对照点),,27,9,31,2,13,93,85,87,87,5,13,4,7,0.3,0.4
2022-03-15T18:00:00,2266A,126.9785,46.6365,绥化市,人和东街,,29,26,33,20,25,84,73,78,78,15,15,6,7,0.5,0.4
2022-03-15T18:00:00,2267A,126.964,46.6528,绥化市,党政办公中心,,36,31,34,25,29,80,66,74,74,19,19,9,5,0.4,0.4
2022-03-15T18:00:00,2269A,124.1069,50.4097,大兴安岭地区,科技局,,28,16,16,19,12,80,76,78,78,5,5,3,4,0.5,0.5
2022-03-15T18:00:00,2270A,117.396,32.939,蚌埠市,工人疗养院,颗粒物(PM10),115,179,159,47,41,138,99,116,116,49,29,12,9,0.8,0.6
2022-03-15T18:00:00,2271A,117.3605,32.9427,蚌埠市,百货大楼,颗粒物(PM10),142,233,196,47,36,135,106,116,116,47,33,12,8,0.5,0.4
2022-03-15T18:00:00,2273A,117.4185,32.8911,蚌埠市,蚌埠学院,颗粒物(PM10),117,183,147,46,36,144,132,127,127,20,27,12,11,0.8,0.6
2022-03-15T18:00:00,2274A,117.3533,32.9673,蚌埠市,淮上区政府,颗粒物(PM10),118,185,157,53,41,127,123,112,112,29,31,14,11,0.7,0.6
2022-03-15T18:00:00,2275A,117.3145,32.8977,蚌埠市,高新区,颗粒物(PM10),113,175,145,44,35,135,116,117,117,39,26,11,9,0.8,0.7
2022-03-15T18:00:00,2277A,116.8305,32.7727,淮南市,潘集区政府,颗粒物(PM10),126,202,205,65,58,134,128,114,114,22,17,7,8,0.6,0.6
2022-03-15T18:00:00,2278A,117.0067,32.6524,淮南市,师范学院,颗粒物(PM10),117,184,164,65,56,133,109,113,113,34,21,8,10,0.5,0.5
2022-03-15T18:00:00,2279A,116.8569,32.5951,淮南市,谢家集区政府,颗粒物(PM10),105,159,184,54,47,161,148,124,124,18,22,8,12,0.5,0.4
2022-03-15T18:00:00,2280A,116.8281,32.633,淮南市,八公山区政府,颗粒物(PM10),99,148,166,49,49,147,146,113,113,20,18,9,10,0.6,0.6
2022-03-15T18:00:00,2281A,116.6325,32.6201,淮南市,焦岗湖风景区管理处(对照点),颗粒物(PM10),114,177,200,50,49,148,138,120,120,12,15,11,11,0.6,0.5
2022-03-15T18:00:00,2282A,116.8004,33.975,淮北市,监测站,颗粒物(PM10),135,220,197,45,39,104,88,87,87,26,21,7,7,0.9,0.8
2022-03-15T18:00:00,2283A,116.8091,33.9007,淮北市,烈山区政府,颗粒物(PM10),131,211,231,38,43,111,106,97,97,19,27,12,10,0.8,0.7
2022-03-15T18:00:00,2284A,116.7856,33.9477,淮北市,职业技术学院,颗粒物(PM10),131,212,209,46,49,102,97,87,87,19,23,6,6,0.8,0.8
2022-03-15T18:00:00,2285A,117.8177,30.9412,铜陵市,市第四中学,颗粒物(PM10),63,75,173,42,50,159,144,120,120,24,23,23,15,1.2,0.8
2022-03-15T18:00:00,2286A,117.8059,30.9273,铜陵市,市公路局,细颗粒物(PM2.5),72,92,166,52,49,157,151,118,118,30,30,31,17,1.6,1.3
2022-03-15T18:00:00,2287A,117.7807,30.9413,铜陵市,市新民污水厂,颗粒物(PM10),74,98,148,49,47,161,148,128,128,23,36,17,13,0.8,0.9
2022-03-15T18:00:00,2288A,117.7439,30.8792,铜陵市,市第九中学,颗粒物(PM10),77,104,181,48,54,153,153,129,129,20,41,10,11,1.1,1.1
2022-03-15T18:00:00,2289A,117.846,30.9413,铜陵市,车站新区,颗粒物(PM10),70,90,171,46,42,143,131,110,110,26,29,21,12,1.2,0.8
2022-03-15T18:00:00,2290A,117.8483,30.97,铜陵市,市职教基地,颗粒物(PM10),65,79,145,34,43,147,132,113,113,21,23,15,12,1.2,1
2022-03-15T18:00:00,2291A,117.0809,30.5177,安庆市,环科院,颗粒物(PM10),55,60,199,29,41,130,119,116,116,17,17,9,10,0.8,0.9
2022-03-15T18:00:00,2292A,117.0331,30.5119,安庆市,马山宾馆,颗粒物(PM10),55,60,197,27,36,126,123,114,114,26,25,7,7,1.0,1
2022-03-15T18:00:00,2294A,116.9896,30.6145,安庆市,安庆大学,颗粒物(PM10),57,64,212,33,49,129,126,119,119,15,16,8,6,0.8,0.8
2022-03-15T18:00:00,2295A,118.2903,29.6963,黄山市,延安路89号,,42,42,60,14,43,128,118,120,120,5,10,9,9,0.3,0.6
2022-03-15T18:00:00,2296A,118.327,29.7178,黄山市,黄山东路89号,,33,25,56,20,45,122,105,110,110,8,11,8,8,0.5,0.8
2022-03-15T18:00:00,2297A,118.1371,30.2756,黄山市,黄山区政府5号楼,,40,40,100,14,41,126,110,114,114,12,12,8,8,0.7,0.9
2022-03-15T18:00:00,2298A,118.3093,32.3153,滁州市,老年大学,颗粒物(PM10),78,106,100,40,35,157,146,124,124,23,27,11,11,0.6,0.5
2022-03-15T18:00:00,2299A,118.3244,32.2786,滁州市,人大宾馆,颗粒物(PM10),80,110,103,41,36,154,141,128,128,36,39,8,8,0.7,0.7
2022-03-15T18:00:00,2301A,115.8277,32.8929,阜阳市,市监测站,颗粒物(PM10),175,299,278,84,72,123,110,105,105,19,22,7,9,0.7,0.8
2022-03-15T18:00:00,2303A,115.8554,32.8605,阜阳市,开发区,颗粒物(PM10),202,351,300,76,66,120,114,102,102,22,26,7,8,0.6,0.6
2022-03-15T18:00:00,2307A,116.5079,31.737,六安市,监测大楼,颗粒物(PM10),110,170,222,56,59,132,127,110,110,18,23,6,6,0.5,0.5
2022-03-15T18:00:00,2308A,116.4738,31.7643,六安市,皖西学院,颗粒物(PM10),123,195,230,47,48,145,137,118,118,17,23,8,8,0.6,0.6
2022-03-15T18:00:00,2309A,116.4996,31.7905,六安市,朝阳厂,颗粒物(PM10),123,195,234,64,55,129,123,108,108,19,25,6,7,0.5,0.5
2022-03-15T18:00:00,2310A,116.5567,31.7886,六安市,开发区,颗粒物(PM10),128,205,257,50,54,139,129,117,117,21,31,7,10,0.5,0.6
2022-03-15T18:00:00,2311A,115.8072,33.8399,亳州市,污水处理厂,颗粒物(PM10),355,464,319,76,59,109,98,95,95,15,15,8,8,1.0,0.6
2022-03-15T18:00:00,2312A,115.7789,33.8518,亳州市,三国揽胜宫,颗粒物(PM10),328,442,286,101,66,106,101,95,95,14,20,5,5,0.5,0.4
2022-03-15T18:00:00,2314A,117.47,30.6618,池州市,池州学院,颗粒物(PM10),60,70,170,34,46,157,126,130,130,16,22,15,9,1.3,0.9
2022-03-15T18:00:00,2316A,118.7581,30.9454,宣城市,鳌峰子站,颗粒物(PM10),59,68,91,33,33,163,149,143,143,14,20,6,6,0.7,0.7
2022-03-15T18:00:00,2317A,118.7385,30.9743,宣城市,敬亭山子站,颗粒物(PM10),64,77,88,31,34,156,131,128,128,25,22,6,7,0.6,0.6
2022-03-15T18:00:00,2318A,118.7173,30.9427,宣城市,开发区子站,颗粒物(PM10),60,70,91,31,33,157,145,130,130,12,15,5,6,0.7,0.7
2022-03-15T18:00:00,2319A,119.0141,25.4325,莆田市,荔城区仓后路,颗粒物(PM10),59,68,65,28,34,136,121,124,124,18,31,5,5,0.7,0.6
2022-03-15T18:00:00,2320A,119.0015,25.4553,莆田市,莆田市监测站,颗粒物(PM10),56,62,59,38,42,141,123,127,127,19,27,7,6,0.6,0.5
2022-03-15T18:00:00,2321A,119.1119,25.4561,莆田市,涵江区六中,颗粒物(PM10),56,62,61,36,44,133,117,122,122,25,38,8,8,0.8,0.5
2022-03-15T18:00:00,2322A,119.1013,25.3215,莆田市,秀屿区政府,,45,38,43,31,39,129,129,121,121,12,28,8,9,0.6,0.6
2022-03-15T18:00:00,2323A,118.981,25.4792,莆田市,东圳水库(对照点),颗粒物(PM10),51,52,49,33,33,148,128,132,132,15,14,5,4,0.7,0.5
2022-03-15T18:00:00,2324A,117.6211,26.2625,三明市,三钢,细颗粒物(PM2.5),55,52,49,39,35,143,118,121,121,18,27,9,11,0.6,0.8
2022-03-15T18:00:00,2325A,117.635,26.2714,三明市,三明二中,颗粒物(PM10),53,55,47,36,30,146,116,122,122,18,26,7,8,1.4,1.5
2022-03-15T18:00:00,2326A,117.6028,26.2378,三明市,三元区政府,细颗粒物(PM2.5),60,65,53,43,35,135,113,116,116,23,26,10,10,0.8,1.1
2022-03-15T18:00:00,2327A,117.7275,26.3108,三明市,洋溪(对照点),细颗粒物(PM2.5),58,55,39,41,30,131,117,125,125,13,13,14,10,1.0,1
2022-03-15T18:00:00,2331A,118.0966,26.6761,南平市,茫荡山(对照点),细颗粒物(PM2.5),53,35,22,37,23,98,97,93,93,5,4,4,4,0.5,1
2022-03-15T18:00:00,2332A,118.1681,26.6369,南平市,南平市监测站,细颗粒物(PM2.5),52,48,46,36,33,142,110,120,120,19,17,5,6,1.0,0.9
2022-03-15T18:00:00,2333A,118.1825,26.6489,南平市,南平铝业有限公司,细颗粒物(PM2.5),52,48,40,36,34,127,120,113,113,10,16,5,7,0.7,0.7
2022-03-15T18:00:00,2334A,118.1756,26.6272,南平市,南平七中,,,,49,30,36,117,107,102,102,16,14,3,4,0.8,0.7
2022-03-15T18:00:00,2335A,117.0189,25.1181,龙岩市,龙岩师专(对照点),颗粒物(PM10),59,68,56,39,43,160,107,135,135,22,27,7,9,0.6,0.7
2022-03-15T18:00:00,2336A,117.0217,25.1033,龙岩市,龙岩市监测站,细颗粒物(PM2.5),70,59,53,51,35,153,136,134,134,25,29,7,8,0.4,0.5
2022-03-15T18:00:00,2337A,117.0258,25.0661,龙岩市,闽西职业技术学院,细颗粒物(PM2.5),75,68,60,55,35,147,147,125,125,24,34,11,12,0.5,0.6
2022-03-15T18:00:00,2338A,117.0196,25.0306,龙岩市,龙岩学院,细颗粒物(PM2.5),68,74,50,49,35,160,160,127,127,19,20,8,6,0.4,0.5
2022-03-15T18:00:00,2339A,119.5001,26.6946,宁德市,金涵水库(对照点),,41,41,42,23,34,111,86,93,93,12,14,6,6,0.7,0.8
2022-03-15T18:00:00,2341A,119.5388,26.6612,宁德市,宁德市监测站,,45,45,50,28,36,112,107,98,98,18,21,7,8,0.9,0.8
2022-03-15T18:00:00,2342A,117.3102,29.3867,景德镇市,王港中学(对照点),颗粒物(PM10),51,51,28,32,18,171,133,125,125,10,5,15,9,0.2,0.2
2022-03-15T18:00:00,2343A,117.2117,29.2933,景德镇市,老干部活动中心,,45,37,49,31,31,136,117,119,119,16,17,8,5,0.7,0.8
2022-03-15T18:00:00,2344A,117.1894,29.2789,景德镇市,兽医站,,36,28,42,10,27,134,115,114,114,10,24,8,9,0.6,0.8
2022-03-15T18:00:00,2345A,117.1547,29.2617,景德镇市,台达陶瓷,,42,42,48,22,31,123,112,108,108,16,27,15,23,0.5,0.6
2022-03-15T18:00:00,2346A,117.2461,29.2956,景德镇市,陶研所,颗粒物(PM10),63,75,49,24,24,132,101,109,109,21,14,13,6,0.6,0.6
2022-03-15T18:00:00,2347A,114.0997,27.5002,萍乡市,武功山(对照点),,40,38,16,26,22,130,127,102,102,12,9,9,10,0.7,0.6
2022-03-15T18:00:00,2348A,113.8385,27.6434,萍乡市,中医院,,46,43,45,32,39,136,123,107,107,20,14,5,7,1.0,0.9
2022-03-15T18:00:00,2349A,113.8493,27.6253,萍乡市,市政府车库,,44,44,44,29,32,136,129,102,102,14,14,6,10,1.5,1.2
2022-03-15T18:00:00,2350A,113.8676,27.6435,萍乡市,市环保局,细颗粒物(PM2.5),57,50,46,40,39,152,152,117,117,12,10,5,10,0.8,0.9
2022-03-15T18:00:00,2351A,113.866,27.6198,萍乡市,安源区政府,颗粒物(PM10),54,57,53,34,34,140,134,104,104,14,15,22,24,1.5,1.2
2022-03-15T18:00:00,2352A,115.0861,27.9317,新余市,北岗(对照点),,45,42,46,31,43,124,124,95,95,12,17,3,11,0.4,0.5
2022-03-15T18:00:00,2353A,114.9886,27.8431,新余市,飞宇,,46,46,56,24,33,122,122,92,92,16,22,4,17,0.4,0.3
2022-03-15T18:00:00,2354A,114.9231,27.8246,新余市,第二水厂,颗粒物(PM10),52,54,64,20,29,125,122,101,101,15,16,5,12,0.5,0.6
2022-03-15T18:00:00,2355A,114.9308,27.8036,新余市,市气象局,,39,39,57,14,36,121,117,97,97,15,24,4,17,0.5,0.7
2022-03-15T18:00:00,2357A,116.9822,28.1136,鹰潭市,龙虎山(对照点),,44,44,26,13,14,135,135,107,107,3,3,8,4,0.4,0.4
2022-03-15T18:00:00,2358A,117.0564,28.2642,鹰潭市,新监测站,,43,35,33,17,21,137,136,128,128,7,10,11,17,0.3,0.3
2022-03-15T18:00:00,2359A,117.0311,28.2475,鹰潭市,财苑宾馆,,46,46,30,14,18,135,131,125,125,5,8,8,20,0.3,0.5
2022-03-15T18:00:00,2360A,117.0222,28.2264,鹰潭市,体育馆,,43,41,36,14,19,136,135,126,126,7,10,4,15,0.4,0.4
2022-03-15T18:00:00,2361A,117.0017,28.2131,鹰潭市,三川水表,,45,45,36,27,19,134,127,120,120,3,8,9,18,0.6,0.6
2022-03-15T18:00:00,2362A,114.9017,25.9149,赣州市,通天岩(对照点),颗粒物(PM10),51,51,46,29,29,153,149,134,134,13,10,11,7,0.9,0.8
2022-03-15T18:00:00,2363A,114.9367,25.8664,赣州市,地委,"颗粒物(PM10),臭氧1小时",54,57,57,33,34,166,163,138,138,14,15,6,10,0.8,0.8
2022-03-15T18:00:00,2364A,114.9461,25.8481,赣州市,气象台,臭氧1小时,79,42,55,32,31,188,183,156,156,16,16,8,11,0.8,0.7
2022-03-15T18:00:00,2365A,114.9322,25.8333,赣州市,市图书馆,臭氧1小时,77,47,52,33,34,181,181,150,150,14,15,11,17,1.0,1
2022-03-15T18:00:00,2366A,114.8905,25.8471,赣州市,华坚鞋城,颗粒物(PM10),52,54,58,28,37,167,149,135,135,30,20,11,15,1.0,0.9
2022-03-15T18:00:00,2367A,114.9754,27.0803,吉安市,红声器材厂,颗粒物(PM10),52,53,50,30,29,146,141,114,114,15,13,7,9,0.4,0.4
2022-03-15T18:00:00,2368A,114.9658,27.0999,吉安市,市森林工业局,颗粒物(PM10),54,58,50,32,33,129,115,102,102,22,16,5,6,0.5,0.5
2022-03-15T18:00:00,2369A,114.99,27.1312,吉安市,市环境监测站,颗粒物(PM10),51,51,52,29,32,134,117,113,113,18,16,6,11,0.8,0.6
2022-03-15T18:00:00,2370A,115.0093,27.0968,吉安市,青原区法院,颗粒物(PM10),54,58,52,34,34,149,137,119,119,14,14,12,15,0.5,0.5
2022-03-15T18:00:00,2371A,114.3408,27.8064,宜春市,槟榔水业(对照点),颗粒物(PM10),52,54,51,34,33,144,139,119,119,11,12,7,5,0.7,0.7
2022-03-15T18:00:00,2373A,114.3956,27.7844,宜春市,市石油公司,细颗粒物(PM2.5),58,60,57,41,40,152,152,126,126,8,11,14,11,0.7,0.6
2022-03-15T18:00:00,2374A,114.3703,27.7914,宜春市,市气象局,颗粒物(PM10),54,57,56,34,37,142,140,120,120,17,18,15,11,1.2,0.9
