timepoint,stationcode,longitude,latitude,area,positionname,primarypollutant,aqi,pm10,pm10_24h,pm2_5,pm2_5_24h,o3,o3_24h,o3_8h,o3_8h_24h,no2,no2_24h,so2,so2_24h,co,co_24h
2026-04-02T0000,2568A,102.2503,31.8896,阿坝藏族羌族自治州,马师校,,28,24,20,8,9,89,89,106,98,4,7,5,5,0.2,0.2
2026-04-02T0000,3994A,102.2174,31.9016,阿坝藏族羌族自治州,马尔康中学西区,,28,27,14,8,9,87,87,103,94,4,7,3,2,0.2,0.2
2026-04-02T0000,2695A,80.2899,41.1684,阿克苏地区,电视台,颗粒物(PM10),138,217,167,76,60,47,47,105,92,49,23,4,3,0.6,0.4
2026-04-02T0000,2696A,80.2592,41.1541,阿克苏地区,艺术中心,颗粒物(PM10),129,194,167,64,51,37,37,105,83,62,27,5,5,0.5,0.3
2026-04-02T0000,2205A,105.699,38.8409,阿拉善盟,蒙二幼,,32,27,42,9,8,100,100,112,103,4,7,8,9,0.4,0.5
2026-04-02T0000,2206A,105.7198,38.8508,阿拉善盟,环保局新楼,,33,29,40,6,8,105,105,105,104,3,4,8,8,0.5,0.5
2026-04-02T0000,2708A,88.1266,47.8515,阿勒泰地区,市站,,24,16,13,3,3,74,74,95,87,9,5,6,5,0.3,0.3
2026-04-02T0000,4166A,88.1198,47.7931,阿勒泰地区,阿勒泰路33号,,24,19,13,3,2,74,74,93,87,10,7,5,5,0.3,0.2
2026-04-02T0000,2630A,80.1171,32.4999,阿里地区,阿里监测站,,33,9,8,3,2,105,105,119,116,1,1,6,6,0.3,0.3
2026-04-02T0000,3192A,80.0906,32.5029,阿里地区,阿里藏医院,,33,12,8,3,3,105,105,120,117,1,1,7,6,0.2,0.2
2026-04-02T0000,2644A,109.0088,32.6974,安康市,汉滨区检察院,,44,44,35,18,16,38,38,102,64,16,13,5,8,0.4,0.4
2026-04-02T0000,4054A,109.0324,32.6913,安康市,市邮政管理局,颗粒物(PM10),52,52,45,22,20,31,31,95,55,22,19,56,32,0.5,0.6
2026-04-02T0000,2291A,117.0806,30.5181,安庆市,环科院,细颗粒物(PM2.5),88,62,59,54,53,2,2,123,70,105,36,6,7,0.7,0.6
2026-04-02T0000,2292A,117.0331,30.5118,安庆市,马山宾馆,细颗粒物(PM2.5),64,52,56,42,50,11,11,124,79,93,34,5,5,0.6,0.6
2026-04-02T0000,2294A,116.9897,30.6146,安庆市,安庆大学,颗粒物(PM10),53,53,70,33,44,64,64,121,96,16,21,3,4,0.6,0.7
2026-04-02T0000,3173A,117.0598,30.5351,安庆市,市人大,细颗粒物(PM2.5),64,58,61,42,44,16,16,128,89,85,27,7,7,0.6,0.6
2026-04-02T0000,3123A,105.9408,26.2431,安顺市,凤凰山,,22,19,21,12,16,69,69,85,76,5,10,6,14,0.5,0.5
2026-04-02T0000,3124A,105.9443,26.2567,安顺市,金钟山,,20,14,19,14,15,64,64,78,71,4,8,9,17,0.6,0.6
2026-04-02T0000,3125A,105.8983,26.248,安顺市,娄家坡,,20,18,20,10,16,62,62,81,70,5,7,12,20,0.7,0.7
2026-04-02T0000,1819A,114.3552,36.1017,安阳市,红庙街,细颗粒物(PM2.5),117,78,88,78,65,99,99,141,121,21,23,5,6,0.5,0.6
2026-04-02T0000,1820A,114.361,36.0681,安阳市,银杏小区,细颗粒物(PM2.5),128,NA,77,90,66,107,107,145,127,20,26,6,7,0.7,0.6
2026-04-02T0000,3141A,114.3921,36.0879,安阳市,信访局,细颗粒物(PM2.5),119,80,73,80,64,106,106,147,128,20,19,6,5,0.9,0.6
2026-04-02T0000,3669A,114.4706,36.0634,安阳市,左辅环卫站,细颗粒物(PM2.5),117,120,102,78,68,94,94,144,122,16,19,6,6,0.9,0.7
2026-04-02T0000,4117A,114.2918,36.0769,安阳市,钢三路198号,细颗粒物(PM2.5),130,133,103,92,65,104,104,137,122,19,18,12,7,1.0,0.8
2026-04-02T0000,1748A,123.0441,41.1201,鞍山市,深沟寺,颗粒物(PM10),135,209,108,96,36,48,48,97,77,30,20,10,14,0.7,0.9
2026-04-02T0000,1749A,123.011,41.0931,鞍山市,太阳城,细颗粒物(PM2.5),113,138,100,74,37,58,58,98,83,24,17,10,12,0.6,0.8
2026-04-02T0000,1750A,123.0483,41.1445,鞍山市,太平,细颗粒物(PM2.5),110,140,110,70,37,47,47,89,70,33,20,14,13,1.0,1
2026-04-02T0000,1751A,122.964,41.0968,鞍山市,铁西三道街,细颗粒物(PM2.5),96,106,110,58,38,48,48,92,71,42,29,18,22,1.3,1.5
2026-04-02T0000,1753A,123.0219,41.0822,鞍山市,明达新区,细颗粒物(PM2.5),98,113,94,59,34,56,56,96,81,25,18,11,13,0.7,0.8
2026-04-02T0000,4201A,122.944647,41.082639,鞍山市,兴盛南路290号,细颗粒物(PM2.5),112,148,107,73,40,33,33,96,72,54,26,43,19,2.1,1.2
2026-04-02T0000,2195A,107.4206,40.7609,巴彦淖尔市,附二中,颗粒物(PM10),63,67,54,28,17,57,57,107,87,25,12,10,11,0.5,0.4
2026-04-02T0000,2196A,107.37,40.7372,巴彦淖尔市,市环保大楼,颗粒物(PM10),68,75,50,27,16,52,52,110,88,23,11,6,7,0.5,0.4
2026-04-02T0000,1956A,86.1476,41.7529,巴音郭楞蒙古自治州,孔雀公园,颗粒物(PM10),135,211,181,66,48,16,16,94,80,72,22,11,12,0.8,0.4
2026-04-02T0000,1957A,86.1971,41.7166,巴音郭楞蒙古自治州,棉纺厂,颗粒物(PM10),149,245,216,69,48,7,7,100,84,84,24,/,/,/,/
2026-04-02T0000,1958A,86.236,41.7172,巴音郭楞蒙古自治州,经济开发区,颗粒物(PM10),127,188,176,60,42,37,37,93,70,33,13,8,8,0.4,0.4
2026-04-02T0000,3181A,106.776805,31.852614,巴中市,市五中,,37,37,27,24,15,37,37,104,69,24,18,8,8,0.6,0.6
2026-04-02T0000,3183A,106.7419,31.8654,巴中市,圣泉水务公司,,33,31,26,23,16,46,46,111,71,25,19,10,10,0.8,0.7
2026-04-02T0000,3616A,106.7617,31.8343,巴中市,市中心医院,,50,50,28,31,17,28,28,128,78,36,18,8,8,0.7,0.6
2026-04-02T0000,2235A,122.7909,45.608,白城市,洮北区环保局,,30,30,41,14,18,70,70,104,81,12,15,4,5,0.2,0.3
2026-04-02T0000,2236A,122.8741,45.5725,白城市,市环保局,,27,27,40,10,18,43,43,85,56,14,8,5,5,0.4,0.4
2026-04-02T0000,2231A,126.4219,41.9172,白山市,喜丰,细颗粒物(PM2.5),115,138,103,76,48,42,42,120,81,43,31,9,10,1.0,1
2026-04-02T0000,2232A,126.4082,41.9416,白山市,环保局,细颗粒物(PM2.5),117,96,74,78,42,62,62,124,97,17,17,9,10,0.9,0.9
2026-04-02T0000,2647A,104.1727,36.5448,白银市,第三小学,颗粒物(PM10),110,146,76,36,29,21,21,115,88,65,29,20,21,0.6,0.5
2026-04-02T0000,2648A,104.1467,36.5482,白银市,动力公司,颗粒物(PM10),105,133,69,44,25,21,21,110,79,60,32,6,10,0.6,0.7
2026-04-02T0000,2512A,106.6102,23.901,百色市,市监测站,,39,39,25,19,11,96,96,104,100,17,15,19,15,0.6,0.5
2026-04-02T0000,2513A,106.6524,23.8842,百色市,市中心血站,,37,37,32,16,16,100,100,106,102,15,14,16,17,0.6,0.6
2026-04-02T0000,4133A,106.6273,23.8798,百色市,龙景西路,,42,42,37,21,17,99,99,112,105,16,16,25,19,0.6,0.5
2026-04-02T0000,2270A,117.396,32.9389,蚌埠市,工人疗养院,细颗粒物(PM2.5),88,88,98,54,63,106,106,133,99,17,24,4,5,0.4,0.5
2026-04-02T0000,2271A,117.3606,32.9428,蚌埠市,百货大楼,细颗粒物(PM2.5),74,62,79,47,55,109,109,137,98,17,23,5,6,0.5,0.6
2026-04-02T0000,2273A,117.4183,32.8909,蚌埠市,蚌埠学院,细颗粒物(PM2.5),92,73,81,56,67,90,90,137,100,16,22,4,5,0.5,0.6
2026-04-02T0000,2274A,117.3534,32.9672,蚌埠市,淮上区政府,细颗粒物(PM2.5),74,70,85,47,66,113,113,140,108,18,23,5,5,0.4,0.5
2026-04-02T0000,2275A,117.3143,32.8977,蚌埠市,高新区,细颗粒物(PM2.5),68,66,81,44,63,96,96,131,107,22,21,8,7,0.6,0.6
2026-04-02T0000,3715A,117.3091,32.9314,蚌埠市,蚌埠田家炳中学,细颗粒物(PM2.5),86,76,97,53,63,112,112,137,108,16,23,5,9,0.4,0.5
2026-04-02T0000,1585A,109.8761,40.6533,包头市,市环境监测站,颗粒物(PM10),77,87,46,35,19,12,12,109,70,89,36,7,11,0.5,0.5
2026-04-02T0000,1587A,109.9992,40.5843,包头市,包头八中,细颗粒物(PM2.5),104,126,51,64,25,7,7,105,64,86,33,10,12,0.7,0.8
2026-04-02T0000,1589A,109.8641,40.6288,包头市,惠龙物流,细颗粒物(PM2.5),84,80,40,52,19,6,6,105,82,94,26,9,9,0.8,0.5
2026-04-02T0000,1590A,110.0376,40.5546,包头市,东河鸿龙湾,颗粒物(PM10),66,72,38,24,22,70,70,111,78,36,30,10,12,0.6,0.6
2026-04-02T0000,3283A,109.9154,40.5684,包头市,滨河大厦,细颗粒物(PM2.5),86,66,33,53,18,7,7,108,73,94,32,10,10,0.7,0.5
2026-04-02T0000,3419A,109.9449,40.6259,包头市,包头市委党校,颗粒物(PM10),64,69,38,34,15,19,19,110,79,77,33,7,10,0.5,0.6
2026-04-02T0000,3683A,109.8332,40.6577,包头市,昆区政府,细颗粒物(PM2.5),98,94,40,59,23,2,2,106,70,114,36,6,8,0.9,0.7
2026-04-02T0000,1931A,107.0802,34.3129,宝鸡市,竹园沟,,33,33,43,21,21,45,45,116,82,22,17,7,7,0.3,0.3
2026-04-02T0000,1933A,107.1429,34.3549,宝鸡市,监测站,,42,42,54,25,22,40,40,118,84,30,19,6,7,0.3,0.4
2026-04-02T0000,1934A,107.1172,34.3759,宝鸡市,技工学校,颗粒物(PM10),58,60,60,34,28,52,52,116,90,21,14,7,6,0.6,0.5
2026-04-02T0000,1936A,107.2025,34.3518,宝鸡市,文理学院,颗粒物(PM10),54,55,55,27,24,48,48,115,81,17,13,5,6,0.5,0.4
2026-04-02T0000,1937A,107.2396,34.3626,宝鸡市,三迪小学,颗粒物(PM10),61,65,60,30,27,35,35,119,77,40,25,4,5,0.5,0.5
2026-04-02T0000,4155A,107.1721,34.3558,宝鸡市,滨河北路,颗粒物(PM10),61,65,54,36,28,36,36,116,82,32,20,7,7,0.5,0.5
2026-04-02T0000,4308A,107.3898,34.3601,宝鸡市,陈仓区北开路21号,颗粒物(PM10),68,75,66,41,31,37,37,116,92,39,22,9,29,0.5,0.6
2026-04-02T0000,1051A,115.4803,38.8568,保定市,游泳馆,颗粒物(PM10),84,97,99,25,38,57,57,104,78,29,26,3,4,0.3,0.3
2026-04-02T0000,1052A,115.509,38.8895,保定市,华电二区,颗粒物(PM10),83,95,86,20,35,51,51,98,74,20,23,3,4,0.5,0.5
2026-04-02T0000,1053A,115.4588,38.9037,保定市,接待中心,颗粒物(PM10),78,89,88,22,36,59,59,103,82,21,23,4,4,0.4,0.5
2026-04-02T0000,1054A,115.4484,38.8344,保定市,地表水厂,,28,NA,98,19,30,47,47,107,77,41,27,4,4,0.1,0.1
2026-04-02T0000,3581A,115.3136,38.9511,保定市,满城区生态环境分局,颗粒物(PM10),101,122,120,19,33,61,61,110,87,22,28,2,3,0.4,0.4
2026-04-02T0000,3582A,115.4709,38.7628,保定市,清苑区第二中学,颗粒物(PM10),95,113,125,29,39,56,56,102,71,24,29,8,9,0.4,0.4
2026-04-02T0000,3583A,115.6231,39.0223,保定市,徐水物探局,颗粒物(PM10),103,126,125,18,37,59,59,102,82,24,26,3,3,0.6,0.5
2026-04-02T0000,4004A,115.4199,38.8665,保定市,双鹰农机,颗粒物(PM10),104,128,120,32,40,55,55,105,81,27,25,5,5,0.2,0.3
2026-04-02T0000,4034A,115.515,38.8589,保定市,植保所站,颗粒物(PM10),80,92,103,22,33,60,60,104,77,24,32,1,3,0.5,0.4
2026-04-02T0000,2594A,99.1589,25.1137,保山市,市环境监测站,,43,42,40,30,28,76,76,104,91,9,9,5,6,0.3,0.3
2026-04-02T0000,2595A,99.1616,25.1381,保山市,市环保局,,50,37,42,35,30,77,77,102,88,5,6,6,6,0.3,0.3
2026-04-02T0000,1867A,109.1435,21.4085,北海市,海滩公园,颗粒物(PM10),52,52,29,35,19,32,32,88,68,29,15,16,9,0.9,0.7
2026-04-02T0000,1868A,109.0983,21.466,北海市,新市环保局,,46,41,23,32,13,41,41,91,74,27,12,16,10,1.2,0.8
2026-04-02T0000,1869A,109.1775,21.5232,北海市,北海工业园,细颗粒物(PM2.5),104,92,30,64,17,33,33,77,58,23,12,11,9,0.8,0.8
2026-04-02T0000,3400A,109.1844,21.4396,北海市,龙潭自来水厂,细颗粒物(PM2.5),68,48,27,44,19,22,22,82,58,24,12,10,7,0.9,0.8
2026-04-02T0000,1001A,116.3611,39.8786,北京市,万寿西宫,颗粒物(PM10),58,60,56,16,18,54,54,101,86,28,19,3,3,0.2,0.3
2026-04-02T0000,1003A,116.4174,39.9289,北京市,东四,颗粒物(PM10),70,77,57,16,18,56,56,106,90,26,18,6,6,0.3,0.3
2026-04-02T0000,1004A,116.4073,39.8858,北京市,天坛,颗粒物(PM10),61,65,51,15,17,45,45,91,75,30,22,4,4,0.3,0.4
2026-04-02T0000,1005A,116.4622,39.9364,北京市,农展馆,颗粒物(PM10),65,70,55,13,17,54,54,100,86,25,18,7,6,0.3,0.4
2026-04-02T0000,1006A,116.3399,39.9293,北京市,官园,颗粒物(PM10),54,55,52,12,18,64,64,92,82,20,20,2,3,0.4,0.4
2026-04-02T0000,1007A,116.2879,39.9613,北京市,海淀万柳,颗粒物(PM10),60,63,52,11,17,58,58,91,78,21,21,4,4,0.3,0.3
2026-04-02T0000,1008A,116.6635,40.1349,北京市,顺义新城,颗粒物(PM10),73,82,53,16,19,60,60,96,83,24,17,5,4,0.4,0.3
2026-04-02T0000,1009A,116.6275,40.327,北京市,怀柔镇,颗粒物(PM10),70,77,40,17,13,50,50,93,82,28,13,8,5,0.5,0.3
2026-04-02T0000,1010A,116.2295,40.217,北京市,昌平镇,颗粒物(PM10),61,65,39,15,11,66,66,100,90,17,9,3,3,0.3,0.2
2026-04-02T0000,1011A,116.3968,39.982,北京市,奥体中心,颗粒物(PM10),63,68,52,17,19,51,51,94,83,27,19,4,4,0.4,0.4
2026-04-02T0000,3418A,116.8336,40.4095,北京市,密云新城,颗粒物(PM10),76,86,38,16,12,48,48,91,78,22,8,5,2,0.6,0.4
2026-04-02T0000,3671A,116.0879,39.9725,北京市,门头沟三家店,颗粒物(PM10),83,95,59,21,17,49,49,93,78,31,18,3,3,0.3,0.3
2026-04-02T0000,3672A,116.1507,39.8246,北京市,丰台云岗,颗粒物(PM10),60,64,57,9,17,59,59,100,85,18,14,1,2,0.4,0.5
2026-04-02T0000,3674A,115.9578,39.7602,北京市,房山燕山,颗粒物(PM10),70,77,52,17,12,55,55,93,80,16,10,5,4,0.3,0.3
2026-04-02T0000,3675A,116.4669,39.7734,北京市,大兴旧宫,颗粒物(PM10),60,64,60,13,18,61,61,96,81,18,20,4,5,0.4,0.5
2026-04-02T0000,3694A,115.9859,40.4562,北京市,延庆石河营,颗粒物(PM10),77,87,36,27,10,72,72,95,91,19,10,2,2,0.4,0.3
2026-04-02T0000,3695A,116.6151,40.3052,北京市,怀柔新城,颗粒物(PM10),75,84,43,23,16,49,49,92,80,28,10,7,4,0.6,0.4
2026-04-02T0000,3696A,116.2542,39.8764,北京市,丰台小屯,颗粒物(PM10),65,71,60,13,17,46,46,91,74,32,23,2,3,0.3,0.3
2026-04-02T0000,3697A,116.8399,40.3843,北京市,密云镇,颗粒物(PM10),77,87,43,16,13,52,52,96,83,25,14,6,3,0.6,0.4
2026-04-02T0000,4057A,115.9423,40.4431,北京市,延庆百泉,颗粒物(PM10),80,92,41,24,10,69,69,89,86,19,14,1,1,0.3,0.3
2026-04-02T0000,4058A,116.6598,39.9164,北京市,通州新华,颗粒物(PM10),62,66,60,12,20,63,63,92,79,19,22,4,5,0.4,0.4
2026-04-02T0000,4182A,116.1942,39.9158,北京市,石景山八角,颗粒物(PM10),61,65,56,11,15,57,57,88,75,22,16,3,3,0.2,0.2
2026-04-02T0000,4194A,117.078628,40.151726,北京市,平谷新城,颗粒物(PM10),70,77,49,15,17,46,46,91,69,26,11,3,2,0.5,0.5
2026-04-02T0000,1761A,123.8274146,41.31234549,本溪市,大峪,颗粒物(PM10),77,87,122,42,40,60,60,96,80,16,21,10,11,0.7,1
2026-04-02T0000,1763A,123.7169,41.3094,本溪市,彩屯,颗粒物(PM10),86,100,120,47,52,54,54,96,84,24,24,8,10,0.8,0.9
2026-04-02T0000,1764A,123.7672166,41.28649327,本溪市,东明,细颗粒物(PM2.5),78,79,127,49,42,37,37,101,84,43,30,9,10,0.5,0.7
2026-04-02T0000,1765A,123.799345,41.266614,本溪市,新立屯,颗粒物(PM10),56,58,114,34,40,44,44,99,56,32,34,6,8,0.5,0.9
2026-04-02T0000,1766A,123.829144,41.336777,本溪市,威宁,细颗粒物(PM2.5),86,96,151,53,43,23,23,96,62,48,29,6,7,0.6,0.7
2026-04-02T0000,2587A,105.287,27.3133,毕节市,八中,,46,46,37,30,26,60,60,80,69,8,11,12,11,0.6,0.6
2026-04-02T0000,2588A,105.3079,27.2987,毕节市,师专,,46,41,37,32,23,61,61,84,72,12,14,14,12,0.6,0.5
2026-04-02T0000,4263A,105.3688,27.3598,毕节市,工业大道,,41,41,37,24,19,69,69,94,84,9,11,11,12,/,/
2026-04-02T0000,1629A,117.9961,37.3604,滨州市,第二水厂,颗粒物(PM10),88,102,120,12,38,73,73,101,82,20,36,15,17,0.1,0.3
2026-04-02T0000,1630A,117.9789,37.3931,滨州市,北中新校,颗粒物(PM10),83,95,109,16,40,77,77,97,79,18,35,37,13,0.3,0.6
2026-04-02T0000,3514A,117.9379,37.3959,滨州市,中海酒店,颗粒物(PM10),86,100,109,16,39,87,87,103,89,19,35,39,14,0.5,0.7
2026-04-02T0000,3515A,117.9381509,37.35547456,滨州市,开发区一中,颗粒物(PM10),95,112,135,14,41,71,71,97,77,18,37,11,19,0.5,0.8
2026-04-02T0000,3516A,118.0914,37.6938,滨州市,金海六路,颗粒物(PM10),93,110,126,14,33,66,66,93,76,18,28,8,12,0.1,0.4
2026-04-02T0000,4028A,117.9955,37.3752,滨州市,滨州市西街道办事处,颗粒物(PM10),96,114,131,13,39,77,77,104,84,14,28,30,15,0.0,0.5
2026-04-02T0000,2311A,115.8071,33.8399,亳州市,污水处理厂,颗粒物(PM10),57,59,49,36,27,84,84,129,96,18,13,7,5,0.2,0.2
2026-04-02T0000,2312A,115.7789,33.8519,亳州市,三国揽胜宫,颗粒物(PM10),58,61,51,36,27,96,96,118,101,11,9,6,6,0.1,0.1
2026-04-02T0000,3332A,115.7631,33.803,亳州市,亳州学院,细颗粒物(PM2.5),58,55,47,39,30,94,94,120,102,9,8,7,6,0.2,0.2
2026-04-02T0000,2693A,82.0482,44.8553,博尔塔拉蒙古自治州,市党校,NA,NA,NA,85,NA,18,77,77,136,122,7,6,3,4,0.3,0.3
2026-04-02T0000,2694A,82.0805,44.8966,博尔塔拉蒙古自治州,市环保局,颗粒物(PM10),115,159,92,51,30,37,37,124,103,80,23,7,4,0.7,0.4
2026-04-02T0000,1071A,116.8733,38.2922,沧州市,沧县城建局,颗粒物(PM10),77,87,124,22,44,59,59,85,72,30,35,4,9,0.2,0.4
2026-04-02T0000,1072A,116.8462,38.3189,沧州市,电视转播站,颗粒物(PM10),85,99,117,29,51,70,70,90,79,23,29,10,12,0.3,0.5
2026-04-02T0000,1073A,116.8588,38.3161,沧州市,市环保局,颗粒物(PM10),82,94,126,19,51,64,64,87,75,24,32,3,5,0.3,0.4
2026-04-02T0000,3324A,116.8011,38.294,沧州市,河北水利电力学院,颗粒物(PM10),98,117,129,22,52,65,65,88,76,23,26,5,8,0.3,0.5
2026-04-02T0000,2622A,97.1813,31.1289,昌都市,昌都监测站,,20,10,18,3,6,62,62,87,70,8,10,6,5,0.7,0.6
2026-04-02T0000,3719A,97.1707,31.1428,昌都市,昌都会议中心,,20,7,12,3,7,62,62,89,76,4,5,5,5,0.4,0.4
2026-04-02T0000,2692A,87.2722,44.0298,昌吉回族自治州,新区政务中心,细颗粒物(PM2.5),82,80,48,51,29,54,54,131,109,50,22,5,6,0.8,0.7
2026-04-02T0000,3613A,87.3069,44.0093,昌吉回族自治州,亚心广场,细颗粒物(PM2.5),82,85,60,51,26,58,58,139,113,46,24,7,10,0.4,0.5
2026-04-02T0000,4164A,87.2057,43.9289,昌吉回族自治州,财政所,颗粒物(PM10),56,58,52,30,20,61,61,120,104,7,11,8,9,0.3,0.4
2026-04-02T0000,1120A,125.2874,43.9024,长春市,客车厂,细颗粒物(PM2.5),124,110,85,86,48,12,12,103,46,87,33,11,9,0.9,0.5
2026-04-02T0000,1121A,125.2943,43.8508,长春市,邮电学院,细颗粒物(PM2.5),114,94,84,75,40,29,29,112,73,58,19,10,10,0.8,0.4
2026-04-02T0000,1122A,125.3648,43.8745,长春市,劳动公园,细颗粒物(PM2.5),149,139,94,113,44,10,10,112,62,82,23,13,9,1.3,0.4
2026-04-02T0000,1123A,125.3233,43.8781,长春市,园林处,细颗粒物(PM2.5),140,NA,74,104,44,29,29,116,70,66,20,13,8,1.0,0.6
2026-04-02T0000,1124A,125.4604,43.7904,长春市,净月潭,细颗粒物(PM2.5),116,86,90,77,46,62,62,114,88,20,15,7,6,0.5,0.4
2026-04-02T0000,1126A,125.38,43.8422,长春市,经开区环卫处,细颗粒物(PM2.5),140,169,100,104,48,4,4,112,54,84,29,8,6,1.1,0.5
2026-04-02T0000,1127A,125.234,43.7761,长春市,高新区管委会,细颗粒物(PM2.5),124,86,86,86,38,5,5,102,48,71,26,8,8,0.9,0.5
2026-04-02T0000,1128A,125.1695,43.83,长春市,岱山公园,NA,NA,94,88,NA,36,5,5,99,47,122,34,11,6,1.1,0.6
2026-04-02T0000,4281A,125.334645,43.916281,长春市,北亚泰大街1068号,细颗粒物(PM2.5),134,119,83,97,46,7,7,102,45,83,28,12,9,1.1,0.4
2026-04-02T0000,1335A,113.082,28.2421,长沙市,经开区环保局,颗粒物(PM10),64,69,50,24,30,62,62,142,94,44,34,4,29,0.5,0.6
2026-04-02T0000,1336A,112.8873,28.2202,长沙市,高开区环保局,,43,43,49,20,34,104,104,141,116,17,28,7,6,0.7,0.8
2026-04-02T0000,1337A,113.0785,28.2012,长沙市,马坡岭,颗粒物(PM10),62,66,46,30,28,68,68,137,79,36,35,6,4,0.6,0.7
2026-04-02T0000,1338A,112.9448,28.1894,长沙市,湖南师范大学,,47,47,43,24,29,95,95,137,102,21,20,6,5,0.7,0.8
2026-04-02T0000,1339A,113.0177,28.1322,长沙市,雨花区环保局,,48,48,44,19,27,101,101,137,110,14,21,5,4,0.8,0.9
2026-04-02T0000,1340A,112.9795,28.2593,长沙市,伍家岭,颗粒物(PM10),88,102,57,38,34,28,28,131,61,64,37,5,4,0.9,0.9
2026-04-02T0000,1341A,113.002,28.1944,长沙市,火车新站,颗粒物(PM10),55,57,55,24,38,95,95,135,88,22,39,6,4,0.6,0.8
2026-04-02T0000,1342A,112.9846,28.1177,长沙市,天心区环保局,颗粒物(PM10),53,53,48,27,39,101,101,139,109,22,28,7,7,0.6,0.8
2026-04-02T0000,1343A,112.8906,28.1307,长沙市,湖南中医药大学,颗粒物(PM10),85,99,48,42,26,2,2,138,64,70,34,6,6,1.0,0.8
2026-04-02T0000,1727A,113.1146,36.1547,长治市,清华站,细颗粒物(PM2.5),114,NA,48,75,22,103,103,120,114,11,19,8,8,0.9,0.5
2026-04-02T0000,1730A,113.0887,36.2126,长治市,审计局,细颗粒物(PM2.5),119,NA,45,80,27,102,102,121,116,16,21,10,12,0.9,0.6
2026-04-02T0000,1731A,113.0845,36.1856,长治市,长治八中,细颗粒物(PM2.5),107,78,60,67,24,95,95,118,113,17,22,10,10,0.8,0.6
2026-04-02T0000,2845A,113.1561,36.1912,长治市,德盛苑,细颗粒物(PM2.5),74,NA,32,47,19,123,123,124,120,11,13,8,9,0.7,0.6
2026-04-02T0000,3568A,113.0603,36.0464,长治市,向阳小学,颗粒物(PM10),57,59,56,35,21,104,104,126,121,14,14,8,9,1.4,0.5
2026-04-02T0000,3569A,112.8788,36.315,长治市,屯留一中,细颗粒物(PM2.5),68,51,40,44,18,82,82,116,104,21,24,20,10,1.4,0.3
2026-04-02T0000,4189A,113.113092,36.199482,长治市,英华南巷50号,细颗粒物(PM2.5),116,NA,48,77,27,102,102,122,115,14,18,8,8,1.1,0.7
2026-04-02T0000,4190A,113.23666,36.33435,长治市,学府街1号,细颗粒物(PM2.5),102,71,56,62,30,80,80,119,111,24,25,7,8,1.4,0.9
2026-04-02T0000,1854A,111.696,28.9725,常德市,市二中,,50,50,29,21,13,105,105,118,104,16,16,16,9,0.9,0.9
2026-04-02T0000,3138A,111.7152,29.0288,常德市,武陵区永安,,50,47,29,35,16,105,105,130,127,16,12,6,6,0.8,0.7
2026-04-02T0000,3139A,111.6891,28.9881,常德市,鼎城区玉霞,,47,47,28,32,16,71,71,125,116,39,14,12,8,1.0,0.9
2026-04-02T0000,3140A,111.6651,29.0526,常德市,武陵区长庚,,46,46,29,25,15,105,105,125,124,15,9,9,8,0.9,0.8
2026-04-02T0000,1196A,119.9524,31.7586,常州市,市监测站,细颗粒物(PM2.5),88,98,92,54,59,3,3,141,75,96,39,7,7,1.2,0.9
2026-04-02T0000,1200A,119.9351,31.703,常州市,武进监测站,颗粒物(PM10),73,81,83,46,48,56,56,142,103,44,24,9,9,0.5,0.4
2026-04-02T0000,3002A,119.9701,31.813,常州市,行政中心,颗粒物(PM10),79,90,86,46,57,23,23,134,89,71,30,5,6,0.7,0.6
2026-04-02T0000,3003A,120.0434,31.7726,常州市,经开区,颗粒物(PM10),99,118,91,53,49,47,47,145,102,58,24,7,5,0.9,0.8
2026-04-02T0000,3010A,119.8919,31.7892,常州市,钟楼,细颗粒物(PM2.5),76,81,88,48,53,13,13,143,88,97,42,7,7,0.7,0.6
2026-04-02T0000,3429A,119.8595,31.706,常州市,武进经发区,颗粒物(PM10),60,63,66,35,41,25,25,135,82,91,37,11,11,0.8,0.8
2026-04-02T0000,3430A,119.5812,31.7256,常州市,金坛城区,细颗粒物(PM2.5),88,71,52,54,48,95,95,132,124,24,17,9,9,1.1,0.9
2026-04-02T0000,4089A,119.9551,31.863,常州市,崇义南街5-H号,颗粒物(PM10),75,84,90,39,57,0,0,150,71,89,41,6,8,0.8,0.9
2026-04-02T0000,2220A,120.4318,41.588,朝阳市,西梁,颗粒物(PM10),71,79,58,34,14,11,11,93,54,52,16,6,5,0.7,0.5
2026-04-02T0000,2221A,120.452,41.565,朝阳市,河畔小区,,38,38,51,25,10,28,28,96,63,38,12,6,6,0.7,0.5
2026-04-02T0000,2222A,120.4176,41.5648,朝阳市,八里堡,颗粒物(PM10),60,63,60,29,12,6,6,94,53,64,19,8,7,0.6,0.4
2026-04-02T0000,3026A,116.6179,23.6608,潮州市,市政府,,32,NA,19,8,10,101,101,116,116,7,6,4,3,0.5,0.5
2026-04-02T0000,4036A,116.646,23.676,潮州市,金山,,31,10,15,6,9,99,99,114,114,9,8,3,2,0.5,0.5
2026-04-02T0000,2473A,113.0116,25.8228,郴州市,市职中,,39,39,24,27,17,4,4,116,56,34,13,6,6,0.6,0.5
2026-04-02T0000,2475A,113.0381,25.8074,郴州市,市审计局,,44,44,26,26,19,29,29,123,82,26,47,4,5,/,/
2026-04-02T0000,2476A,113.0348,25.7757,郴州市,市环保局,,48,48,31,27,20,24,24,121,72,45,19,6,7,0.4,0.4
2026-04-02T0000,4252A,113.0138,25.8011,郴州市,好美居路49号,,43,42,23,30,16,8,8,128,63,52,18,3,4,/,/
2026-04-02T0000,1431A,103.9727,30.7242,成都市,金泉两河,颗粒物(PM10),53,53,41,21,22,79,79,124,100,13,30,1,2,0.4,0.4
2026-04-02T0000,1432A,104.1423,30.6765,成都市,十里店,,42,42,34,21,20,66,66,122,99,23,20,4,4,0.5,0.5
2026-04-02T0000,1433A,104.0594,30.5765,成都市,三瓦窑,,43,43,35,24,22,44,44,120,83,36,29,2,3,0.6,0.6
2026-04-02T0000,1434A,104.1122,30.6306,成都市,沙河铺,,43,43,38,25,20,36,36,109,80,33,26,6,6,0.5,0.4
2026-04-02T0000,2880A,104.0219,30.6561,成都市,大石西路,,40,38,37,28,26,61,61,119,95,25,31,6,7,0.7,0.8
2026-04-02T0000,3136A,104.2724,30.559,成都市,龙泉驿区区政府,,20,17,23,14,15,61,61,112,95,14,10,6,7,0.3,0.3
2026-04-02T0000,3357A,104.0028,30.6891,成都市,金博路,,40,37,32,28,26,77,77,128,104,21,38,6,6,0.5,0.6
2026-04-02T0000,3359A,104.056,30.5228,成都市,华阳,,31,31,32,20,20,68,68,126,100,23,24,4,4,0.6,0.7
2026-04-02T0000,3488A,104.387954,30.746684,成都市,青石路225号,,45,45,30,20,17,68,68,122,101,20,21,4,5,0.4,0.4
2026-04-02T0000,3489A,104.0788,30.4054,成都市,科学城,,29,29,25,14,15,70,70,121,103,20,15,7,8,0.6,0.6
2026-04-02T0000,4011A,103.8505,30.6946,成都市,光华大道三段,,33,30,47,23,28,90,90,136,115,17,32,3,4,0.4,0.5
2026-04-02T0000,4144A,104.3257,30.6406,成都市,八角井街185号,NA,NA,24,29,12,14,55,55,109,92,17,14,NA,4,0.4,0.4
2026-04-02T0000,4224A,104.2433276,30.53529463,成都市,鲸龙路1057号,,35,35,31,19,16,60,60,118,97,16,19,6,6,0.5,0.5
2026-04-02T0000,1062A,117.9531,40.908,承德市,铁路,颗粒物(PM10),78,88,32,26,10,57,57,85,69,26,15,4,3,0.3,0.3
2026-04-02T0000,1063A,117.9397,40.9763,承德市,中国银行,,46,46,25,8,6,34,34,86,58,17,13,1,2,0.4,0.3
2026-04-02T0000,4073A,117.9462,40.95,承德市,杏林街1号,,50,50,23,20,11,64,64,91,84,16,10,2,2,0.3,0.2
2026-04-02T0000,4274A,117.7994,40.9605,承德市,滨河大街98号,,43,43,24,8,9,27,27,88,58,31,15,4,5,0.3,0.3
2026-04-02T0000,2314A,117.4698,30.6617,池州市,池州学院,颗粒物(PM10),61,65,37,38,27,82,82,147,115,29,20,4,4,1.0,0.8
2026-04-02T0000,3237A,117.4918,30.6617,池州市,展览馆,颗粒物(PM10),53,54,38,28,25,54,54,138,92,25,21,2,2,1.0,0.9
2026-04-02T0000,3333A,117.5626,30.695,池州市,第八中学,,48,48,37,27,24,62,62,130,99,28,23,4,4,1.0,0.8
2026-04-02T0000,3334A,117.5037,30.6242,池州市,第十二中学,,50,50,41,31,24,47,47,139,84,36,24,4,4,1.3,1.1
2026-04-02T0000,1744A,118.9229,42.2816,赤峰市,松山一中,颗粒物(PM10),67,73,32,28,15,34,34,112,85,56,17,42,14,0.8,0.5
2026-04-02T0000,1745A,118.9588,42.2733,赤峰市,哈达街,颗粒物(PM10),63,68,32,35,14,26,26,91,67,58,18,66,17,1.3,0.6
2026-04-02T0000,1746A,118.8792,42.2551,赤峰市,天义路,,50,42,24,35,13,21,21,101,78,44,13,6,6,0.8,0.5
2026-04-02T0000,3058A,119.2656,42.0356,赤峰市,银河街,颗粒物(PM10),83,96,50,48,17,40,40,105,63,20,8,20,9,0.7,0.4
2026-04-02T0000,3286A,118.9359,42.3146,赤峰市,桥北物流园区,细颗粒物(PM2.5),58,59,29,39,15,25,25,94,59,60,21,28,9,0.7,0.4
2026-04-02T0000,2521A,107.3473,22.4137,崇左市,市环保局江州分局,,34,34,34,23,17,93,93,122,111,7,8,8,8,0.6,0.6
2026-04-02T0000,4256A,107.375,22.3736,崇左市,石景林东路7号,,39,33,23,27,14,86,86,120,107,12,12,6,5,0.7,0.7
2026-04-02T0000,3207A,118.31131,32.3033,滁州市,市政府原办公楼,细颗粒物(PM2.5),115,85,79,76,75,42,42,126,99,41,15,4,5,0.8,0.7
2026-04-02T0000,3331A,118.3268,32.2633,滁州市,图书馆,细颗粒物(PM2.5),102,95,103,62,63,60,60,121,98,32,14,9,9,0.7,0.6
2026-04-02T0000,4101A,118.3196,32.3335,滁州市,银山路666号,细颗粒物(PM2.5),110,104,79,70,65,24,24,126,93,58,17,7,8,0.8,0.8
2026-04-02T0000,4102A,118.3426,32.2979,滁州市,黄山路555号,细颗粒物(PM2.5),114,132,116,75,74,23,23,137,95,65,18,5,6,0.8,0.8
2026-04-02T0000,2606A,101.5379,25.0492,楚雄彝族自治州,市经济开发区,,45,44,35,31,24,104,104,103,103,5,12,4,4,0.4,0.4
2026-04-02T0000,4153A,101.5536,25.0343,楚雄彝族自治州,团结路562号,,38,32,32,26,23,107,107,108,106,3,8,1,2,0.3,0.3
2026-04-02T0000,2549A,107.5087,31.2186,达州市,市环境监测站,颗粒物(PM10),54,55,40,23,14,4,4,88,32,59,37,6,5,0.6,0.4
2026-04-02T0000,2550A,107.4988,31.2132,达州市,凤凰小区,颗粒物(PM10),53,53,42,24,16,2,2,83,26,62,36,5,5,0.7,0.5
2026-04-02T0000,2551A,107.5081,31.1987,达州市,达县机关宾馆,颗粒物(PM10),55,56,44,21,14,1,1,80,19,59,40,5,4,0.6,0.6
2026-04-02T0000,2552A,107.4644,31.2124,达州市,市政中心,颗粒物(PM10),71,79,45,26,15,5,5,96,39,68,38,6,5,1.0,0.6
2026-04-02T0000,2614A,100.2168,25.5818,大理白族自治州,大理市环境监测站,,33,30,27,23,22,81,81,90,88,13,10,3,3,0.3,0.3
2026-04-02T0000,2615A,100.1542,25.7055,大理白族自治州,大理古城,,30,30,27,20,19,85,85,99,95,8,7,7,7,0.6,0.6
2026-04-02T0000,1109A,121.6119,38.974,大连市,甘井子,颗粒物(PM10),67,73,87,23,30,87,87,104,98,16,24,8,9,0.5,0.6
2026-04-02T0000,1110A,121.565,38.9509,大连市,周水子,颗粒物(PM10),73,82,80,20,29,81,81,94,90,24,28,7,7,0.4,0.4
2026-04-02T0000,1111A,121.5637,38.8849,大连市,星海三站,颗粒物(PM10),70,77,75,25,29,85,85,96,93,12,17,6,8,0.4,0.4
2026-04-02T0000,1112A,121.6301,38.9117,大连市,青泥洼桥,颗粒物(PM10),77,87,101,21,29,84,84,91,86,18,26,6,7,0.4,0.5
2026-04-02T0000,1113A,121.6248,38.8643,大连市,傅家庄,颗粒物(PM10),69,76,81,19,25,74,74,91,86,16,18,9,10,0.4,0.6
2026-04-02T0000,1114A,121.5117,38.8636,大连市,七贤岭,颗粒物(PM10),57,59,83,19,24,91,91,102,99,11,14,6,6,0.4,0.6
2026-04-02T0000,1116A,121.7507,39.1339,大连市,金州,颗粒物(PM10),76,86,91,26,29,85,85,97,93,16,19,10,10,0.6,0.5
2026-04-02T0000,1117A,121.7811,39.0495,大连市,开发区,颗粒物(PM10),70,77,70,27,31,84,84,96,93,14,24,8,11,0.5,0.5
2026-04-02T0000,1118A,121.9762,39.0631,大连市,双D港,颗粒物(PM10),73,82,93,25,36,86,86,102,96,16,24,8,9,0.7,0.8
2026-04-02T0000,4082A,121.2548,38.8188,大连市,旅顺,颗粒物(PM10),80,92,91,26,29,79,79,92,87,14,18,5,5,0.5,0.5
2026-04-02T0000,1789A,124.8085,46.0381,大庆市,大同区,细颗粒物(PM2.5),108,107,60,68,26,68,68,96,84,23,12,7,5,0.4,0.2
2026-04-02T0000,1790A,125.1166,46.5255,大庆市,龙凤区,细颗粒物(PM2.5),72,73,55,46,25,73,73,97,86,16,14,7,7,0.1,0
2026-04-02T0000,1791A,124.8894,46.4007,大庆市,红岗区,细颗粒物(PM2.5),74,63,45,47,23,65,65,80,79,13,7,6,6,0,0.2
2026-04-02T0000,1792A,125.1391,46.578,大庆市,萨尔图区,"颗粒物(PM10),细颗粒物(PM2.5)",60,64,53,40,23,89,89,106,98,13,11,21,8,0.7,0.6
2026-04-02T0000,1793A,124.9026,46.6217,大庆市,让胡路区,细颗粒物(PM2.5),72,62,50,46,24,77,77,96,86,15,9,6,5,0.3,0.2
2026-04-02T0000,3481A,125.127,46.6277,大庆市,萨区政府监测点,颗粒物(PM10),60,63,59,39,23,87,87,97,93,8,5,13,9,0.4,0.3
2026-04-02T0000,1723A,113.2926,40.0759,大同市,云冈宾馆,颗粒物(PM10),83,95,42,48,14,39,39,85,69,40,24,15,14,0.5,0.6
2026-04-02T0000,1724A,113.3437,40.0921,大同市,大同大学,颗粒物(PM10),76,86,40,38,13,33,33,93,66,49,21,15,10,0.7,0.6
2026-04-02T0000,1725A,113.2637,40.129,大同市,安家小村,颗粒物(PM10),100,119,60,49,17,30,30,87,64,51,23,13,14,0.7,0.7
2026-04-02T0000,3282A,113.3399,40.0586,大同市,大同市卫生学校,颗粒物(PM10),81,93,44,39,14,43,43,95,70,36,20,17,10,0.6,0.6
2026-04-02T0000,3565A,113.1371,40.1122,大同市,云冈站,颗粒物(PM10),84,97,45,28,14,7,7,84,54,50,19,14,12,0.6,0.6
2026-04-02T0000,3566A,113.1186,40.2556,大同市,图书馆,颗粒物(PM10),63,67,35,30,12,33,33,90,63,15,11,6,8,0.7,0.8
2026-04-02T0000,3567A,113.5931,40.0459,大同市,区一中,颗粒物(PM10),51,51,35,30,10,40,40,96,67,15,11,10,10,0.6,0.5
2026-04-02T0000,4199A,113.2798248,40.09972476,大同市,魏都大道141号,颗粒物(PM10),115,159,54,66,20,10,10,87,59,65,23,14,14,0.8,0.7
2026-04-02T0000,2269A,124.1068,50.4091,大兴安岭地区,科技局,,28,28,18,6,5,58,58,79,71,2,2,7,7,0.3,0.2
2026-04-02T0000,3663A,124.117,50.4279,大兴安岭地区,红旗社区,,15,14,10,10,8,38,38,78,64,13,3,7,12,0.2,0.3
2026-04-02T0000,1600A,124.33,40.0625,丹东市,江湾东路,,49,49,58,25,36,94,94,126,94,16,23,10,10,0.5,0.6
2026-04-02T0000,1601A,124.4242,40.1513,丹东市,临江后街,颗粒物(PM10),55,56,61,26,36,78,78,119,94,19,20,9,9,0.5,0.6
2026-04-02T0000,1602A,124.3935,40.1461,丹东市,元宝山,颗粒物(PM10),60,63,59,25,32,79,79,117,94,17,18,8,9,0.6,0.6
2026-04-02T0000,1603A,124.3634,40.1093,丹东市,民主桥,颗粒物(PM10),59,62,62,27,34,90,90,128,104,20,25,8,8,0.5,0.5
2026-04-02T0000,3541A,109.5726195,19.51688767,儋州市,第一中学子站,,42,42,50,26,32,44,44,74,63,6,8,6,6,0.6,0.6
2026-04-02T0000,3542A,109.5567,19.5187,儋州市,东坡学校子站,,44,44,50,23,31,45,45,77,65,5,7,6,7,0.8,0.9
2026-04-02T0000,2616A,98.5611,24.4273,德宏傣族景颇族自治州,德宏州监测站,细颗粒物(PM2.5),102,NA,48,62,47,44,44,93,72,16,19,3,4,0.9,0.7
2026-04-02T0000,3677A,98.5887,24.4366,德宏傣族景颇族自治州,芒市人民政府综合楼,颗粒物(PM10),73,81,78,31,44,46,46,88,72,12,15,6,6,0.6,0.6
2026-04-02T0000,1901A,104.424,31.1209,德阳市,东山公园,,33,33,33,20,19,76,76,117,98,19,15,3,4,0.4,0.5
2026-04-02T0000,1902A,104.3827,31.1318,德阳市,西小区,细颗粒物(PM2.5),74,68,53,47,28,27,27,116,80,66,38,5,3,0.7,0.6
2026-04-02T0000,1904A,104.3553,31.1091,德阳市,耐火材料厂,细颗粒物(PM2.5),111,98,58,72,29,35,35,127,89,44,36,6,4,0.6,0.5
2026-04-02T0000,4145A,104.4144,31.1495,德阳市,市林业局,,47,47,40,32,23,38,38,117,65,45,33,3,3,0.6,0.5
2026-04-02T0000,1622A,116.3034,37.4675,德州市,儿童乐园,颗粒物(PM10),101,122,157,16,78,70,70,133,94,21,32,14,17,0.4,0.7
2026-04-02T0000,1624A,116.2992,37.4449,德州市,监理站,颗粒物(PM10),96,114,158,16,76,79,79,140,102,25,32,9,11,0.4,0.7
2026-04-02T0000,3066A,116.2722,37.438,德州市,九衢泉纯净水厂,颗粒物(PM10),96,114,151,17,78,77,77,135,98,16,30,9,10,0.5,0.7
2026-04-02T0000,3371A,116.3693,37.44,德州市,开发区人民医院,颗粒物(PM10),96,114,156,16,81,65,65,127,88,25,34,11,14,0.5,0.7
2026-04-02T0000,3511A,116.5687,37.3331,德州市,陵城艺术中心,颗粒物(PM10),100,119,154,22,82,54,54,119,78,19,31,6,10,0.4,0.7
2026-04-02T0000,4292A,116.352738,37.420875,德州市,新河东路,颗粒物(PM10),101,122,152,12,78,65,65,79,79,20,42,11,11,0,0.6
2026-04-02T0000,2621A,99.7054,27.8319,迪庆藏族自治州,迪庆州站,,25,20,18,10,11,79,79,90,86,10,9,5,5,0.7,0.6
2026-04-02T0000,3180A,99.7122,27.8129,迪庆藏族自治州,质量技术监督局,,30,13,21,7,10,96,96,97,97,7,10,6,6,0.5,0.5
2026-04-02T0000,4257A,104.6092,35.5962,定西市,将台街,颗粒物(PM10),58,61,53,25,22,16,16,120,92,70,25,12,10,0.7,0.6
2026-04-02T0000,4309A,104.6159,35.5701,定西市,正龙路62号,,48,48,53,20,22,70,70,110,94,14,14,3,6,0.3,0.5
2026-04-02T0000,4071A,114.9883,38.5232,定州市,交通局,颗粒物(PM10),88,102,102,20,34,66,66,109,88,29,30,4,4,0.4,0.5
2026-04-02T0000,4072A,115.0045,38.5136,定州市,第五中学,颗粒物(PM10),99,118,120,21,36,52,52,108,82,34,28,3,4,0.4,0.4
2026-04-02T0000,1390A,113.7943,23.0132,东莞市,东城石井,,37,37,14,20,7,42,42,128,88,32,17,4,4,0.7,0.7
2026-04-02T0000,1391A,113.7384,22.9659,东莞市,南城西平,,40,39,15,21,6,13,13,116,82,80,23,5,5,0.8,0.7
2026-04-02T0000,3319A,113.7283,23.041,东莞市,万江金泰,,42,42,14,21,9,55,55,111,92,33,16,8,7,0.8,0.7
2026-04-02T0000,4129A,113.8666,23.1062,东莞市,裕兴路,,26,24,18,10,6,82,82,127,101,13,14,6,6,0.7,0.8
2026-04-02T0000,4130A,114.0076,22.9739,东莞市,教育路1号,,35,35,20,15,8,61,61,120,86,40,19,8,6,0.7,0.7
2026-04-02T0000,4131A,113.7981,22.8124,东莞市,长怡路1号,颗粒物(PM10),71,79,27,43,12,21,21,103,75,60,24,6,6,0.9,0.8
2026-04-02T0000,1666A,118.6612,37.4313,东营市,市环保局,颗粒物(PM10),95,112,99,20,23,86,86,93,92,17,23,16,17,0.3,0.4
2026-04-02T0000,3036A,118.6903,37.4337,东营市,开发区管委会,颗粒物(PM10),95,113,105,17,25,94,94,100,100,19,29,12,13,0.5,0.6
2026-04-02T0000,3365A,118.5721,37.5654,东营市,垦利区民丰路,颗粒物(PM10),90,105,104,18,25,95,95,104,99,17,25,6,6,0.5,0.6
2026-04-02T0000,3498A,118.5063,37.8606,东营市,河口城区,颗粒物(PM10),65,70,108,6,20,96,96,99,98,13,20,6,10,0.4,0.5
2026-04-02T0000,3646A,118.4979,37.4623,东营市,胜利站,颗粒物(PM10),75,84,88,14,23,97,97,94,94,10,20,7,9,0.5,0.6
2026-04-02T0000,3734A,118.5753,37.4405,东营市,理想之城,颗粒物(PM10),88,102,100,14,19,94,94,105,104,24,34,4,8,0.7,0.8
2026-04-02T0000,1591A,110.0024,39.8127,鄂尔多斯市,综合楼,颗粒物(PM10),60,63,45,17,16,69,69,106,91,33,23,8,7,0.4,0.4
2026-04-02T0000,1592A,109.9485,39.8259,鄂尔多斯市,巴音孟克林场办事处,,39,39,40,14,12,85,85,111,101,23,20,6,6,0.3,0.4
2026-04-02T0000,1593A,109.7734,39.5987,鄂尔多斯市,康泽苑,,36,36,39,19,14,67,67,121,94,19,20,6,7,0.4,0.3
2026-04-02T0000,1594A,109.8121,39.5987,鄂尔多斯市,华泰汽车城,,39,39,41,24,14,22,22,128,NA,55,29,5,7,0.4,0.4
2026-04-02T0000,1595A,109.9734,39.7884,鄂尔多斯市,奥林花园,颗粒物(PM10),58,61,44,9,12,39,39,108,74,61,32,5,5,0.4,0.3
2026-04-02T0000,2436A,114.894,30.3989,鄂州市,市政府,颗粒物(PM10),64,69,47,31,26,93,93,122,108,23,19,11,11,0.6,0.6
2026-04-02T0000,2437A,114.8986,30.3714,鄂州市,赵家坝,颗粒物(PM10),70,78,47,36,28,81,81,145,116,22,14,11,8,0.7,0.6
2026-04-02T0000,3654A,114.8093,30.4091,鄂州市,精准医疗中心,NA,NA,93,39,55,27,70,70,146,118,46,10,24,10,NA,0.6
2026-04-02T0000,2454A,109.4978,30.2979,恩施土家族苗族自治州,湖北民院,,30,30,27,12,13,63,63,98,84,12,10,7,7,0.6,0.6
2026-04-02T0000,3549A,109.5061,30.3771,恩施土家族苗族自治州,龙凤新区,,31,31,19,11,12,34,34,83,59,10,7,8,7,0.4,0.4
2026-04-02T0000,2499A,108.3411,21.6159,防城港市,沙万,,50,47,27,35,14,53,53,88,74,29,14,8,6,0.9,0.6
2026-04-02T0000,2500A,108.3515,21.7733,防城港市,防城档案局,颗粒物(PM10),62,66,33,36,14,48,48,93,74,24,11,7,7,0.7,0.6
2026-04-02T0000,2501A,108.3506,21.6414,防城港市,大海花园,细颗粒物(PM2.5),56,43,20,38,16,68,68,95,85,19,14,10,8,0.8,0.6
2026-04-02T0000,1371A,113.1293,23.0065,佛山市,湾梁,细颗粒物(PM2.5),60,61,21,40,12,40,40,149,114,66,19,/,/,/,/
2026-04-02T0000,1372A,113.1082,23.0477,佛山市,华材职中,颗粒物(PM10),51,51,22,31,14,40,40,139,89,74,31,8,8,0.6,0.5
2026-04-02T0000,1373A,113.1439,23.045,佛山市,南海气象局,颗粒物(PM10),55,57,22,35,12,53,53,144,113,56,22,/,/,/,/
2026-04-02T0000,1374A,113.2879,22.8094,佛山市,顺德苏岗,细颗粒物(PM2.5),90,NA,23,55,17,83,83,160,139,54,21,/,/,0.9,0.7
2026-04-02T0000,1376A,112.8384,22.8678,佛山市,高明孔堂,,45,45,22,17,12,79,79,144,118,33,21,/,/,/,/
2026-04-02T0000,1377A,112.8835,23.1584,佛山市,三水监测站,细颗粒物(PM2.5),54,NA,15,37,10,23,23,118,74,86,31,4,4,0.7,0.6
2026-04-02T0000,1378A,112.8668,23.185,佛山市,三水云东海,,46,46,27,22,9,40,40,122,75,21,20,/,/,/,/
2026-04-02T0000,3625A,113.2568,22.7629,佛山市,容桂街道办,细颗粒物(PM2.5),100,63,24,60,18,96,96,164,142,50,27,/,/,/,/
2026-04-02T0000,1282A,119.2681,26.0506,福州市,师大,,35,29,20,3,3,112,112,115,111,13,14,3,3,0.3,0.3
2026-04-02T0000,1283A,119.2983,26.1028,福州市,五四北路,,33,10,13,3,3,105,105,111,106,11,14,4,4,0.4,0.5
2026-04-02T0000,1284A,119.2648,26.0769,福州市,杨桥西路,,29,10,10,3,2,92,92,113,105,11,11,4,4,/,/
2026-04-02T0000,3048A,119.5799,26.0937,福州市,九龙,,20,15,10,6,2,61,61,128,115,17,11,4,4,0.3,0.3
2026-04-02T0000,3526A,119.5188,25.9666,福州市,吴航,,37,8,8,3,5,118,118,124,122,13,12,5,5,0.4,0.5
2026-04-02T0000,4104A,119.3106,26.0648,福州市,路通桥巷6号,,32,6,9,6,6,102,102,112,103,10,10,/,/,/,/
2026-04-02T0000,1755A,123.7974,41.8494,抚顺市,望花区,细颗粒物(PM2.5),109,102,127,69,37,38,38,103,85,43,20,6,8,0.8,0.7
2026-04-02T0000,1756A,123.9161,41.8827,抚顺市,顺城区,细颗粒物(PM2.5),112,109,94,73,41,20,20,100,74,61,32,10,10,0.8,0.7
2026-04-02T0000,1757A,124.0437,41.8615,抚顺市,东洲区,细颗粒物(PM2.5),168,NA,109,127,36,54,54,98,84,29,18,6,7,0.7,0.5
2026-04-02T0000,1758A,123.9246,41.8638,抚顺市,新抚区,细颗粒物(PM2.5),98,93,136,59,37,17,17,100,76,63,29,9,10,0.8,0.6
2026-04-02T0000,1759A,124.0972,41.8961,抚顺市,大伙房水库,颗粒物(PM10),53,53,96,35,33,81,81,106,98,12,14,8,8,0.3,0.4
2026-04-02T0000,1760A,123.708,41.8386,抚顺市,沈抚新城,细颗粒物(PM2.5),109,106,131,69,38,60,60,102,81,30,22,10,9,0.7,0.7
2026-04-02T0000,2377A,116.3544,27.9833,抚州市,市站,颗粒物(PM10),52,52,33,32,24,70,70,130,97,19,10,9,8,0.8,0.8
2026-04-02T0000,2378A,116.3562,27.9631,抚州市,血防站,细颗粒物(PM2.5),68,55,33,44,22,76,76,132,108,22,9,9,7,0.9,0.7
2026-04-02T0000,2379A,116.3561,28.0007,抚州市,采茶剧团,细颗粒物(PM2.5),60,60,34,40,22,42,42,134,106,44,7,12,11,0.8,0.7
2026-04-02T0000,2380A,116.3854,27.9648,抚州市,医学分院,NA,NA,NA,33,33,20,82,82,133,111,20,8,7,7,0.9,0.9
2026-04-02T0000,2207A,121.6095,41.9978,阜新市,工业园区,细颗粒物(PM2.5),92,83,70,56,17,22,22,96,55,34,16,8,8,0.7,0.4
2026-04-02T0000,2208A,121.6567,42.0188,阜新市,长青街,细颗粒物(PM2.5),60,61,53,40,14,25,25,96,62,41,16,17,8,0.8,0.5
2026-04-02T0000,2209A,121.6672,42.07,阜新市,农业园区,,40,40,63,19,9,79,79,94,86,14,9,49,8,0.5,0.3
2026-04-02T0000,2211A,121.6343,42.0455,阜新市,玉龙新城,颗粒物(PM10),64,69,66,41,14,4,4,93,50,63,19,9,7,0.8,0.5
2026-04-02T0000,2301A,115.8276,32.8929,阜阳市,市监测站,细颗粒物(PM2.5),64,65,75,42,46,93,93,119,101,16,15,5,6,0.8,0.8
2026-04-02T0000,2303A,115.8551,32.8606,阜阳市,开发区,颗粒物(PM10),68,75,82,39,46,105,105,120,110,17,16,5,5,0.4,0.5
2026-04-02T0000,2875A,115.783962,32.889217,阜阳市,阜阳职业技术学院,颗粒物(PM10),56,58,70,31,42,108,108,126,118,9,10,7,7,0.6,0.5
2026-04-02T0000,3468A,115.79,32.8614,阜阳市,市规划展馆,细颗粒物(PM2.5),72,74,75,46,49,86,86,124,111,14,10,8,8,0.8,0.7
2026-04-02T0000,3469A,115.835101,32.918568,阜阳市,枣园社区,细颗粒物(PM2.5),82,74,75,51,53,97,97,123,104,13,15,6,6,0.6,0.6
2026-04-02T0000,2669A,102.9097,34.9841,甘南藏族自治州,州政府,,38,38,45,22,20,60,60,104,87,21,14,5,5,0.5,0.5
2026-04-02T0000,3380A,102.8915,34.9618,甘南藏族自治州,甘肃民族师范学院,颗粒物(PM10),68,74,53,20,19,54,54,117,100,30,19,1,4,0.5,0.4
2026-04-02T0000,2570A,101.96,30.048,甘孜藏族自治州,水桥子,,13,NA,13,8,4,41,41,71,62,17,12,6,6,0.3,0.3
2026-04-02T0000,3065A,101.9534,29.9976,甘孜藏族自治州,州环保局,,18,14,14,3,4,55,55,79,69,12,13,5,5,0.4,0.3
2026-04-02T0000,2363A,114.9368,25.8663,赣州市,地委,,31,31,18,11,7,51,51,116,84,18,9,2,2,0.6,0.5
2026-04-02T0000,2364A,114.946,25.8483,赣州市,气象台,,37,37,21,12,9,49,49,114,84,31,15,5,5,0.6,0.6
2026-04-02T0000,2365A,114.932,25.8332,赣州市,市图书馆,,42,42,16,6,10,63,63,112,90,22,12,4,4,0.5,0.5
2026-04-02T0000,2366A,114.8905,25.8472,赣州市,华坚鞋城,,32,32,19,13,9,76,76,111,82,19,14,6,5,0.3,0.3
2026-04-02T0000,3109A,115.0094,25.8614,赣州市,赣县区卫计委,,34,34,18,17,8,41,41,98,65,25,17,2,2,0.6,0.6
2026-04-02T0000,2684A,106.2753,36.0057,固原市,监测站,颗粒物(PM10),70,78,46,34,18,48,48,114,87,36,22,8,8,0.7,0.4
2026-04-02T0000,2685A,106.2384,36.0189,固原市,新区,颗粒物(PM10),92,108,62,39,18,14,14,114,61,71,29,9,9,0.7,0.6
2026-04-02T0000,2544A,106.6307,30.4577,广安市,市委,细颗粒物(PM2.5),56,53,40,38,24,30,30,105,64,46,24,7,6,0.9,0.8
2026-04-02T0000,2545A,106.6266,30.4662,广安市,友谊中学,,41,41,36,23,20,23,23,102,59,33,20,8,7,0.8,0.6
2026-04-02T0000,2547A,106.6386,30.4551,广安市,广电花园,颗粒物(PM10),72,80,46,42,26,5,5,94,50,57,26,5,5,1.3,0.8
2026-04-02T0000,2902A,106.6347,30.4868,广安市,北辰小学,,50,50,39,29,23,48,48,103,72,18,16,8,7,0.8,0.8
2026-04-02T0000,2524A,105.8211,32.4444,广元市,老城,,36,36,33,15,18,4,4,108,57,70,32,3,6,0.5,0.7
2026-04-02T0000,2526A,105.8629,32.429,广元市,监测站,,35,35,40,11,15,56,56,102,79,17,18,2,5,0.5,0.6
2026-04-02T0000,3617A,105.8047,32.4167,广元市,经开区,,39,39,43,21,24,35,35,106,70,37,24,5,17,0.5,0.7
2026-04-02T0000,1345A,113.2346,23.1423,广州市,广雅中学,,50,50,24,32,14,10,10,124,78,93,31,3,3,0.7,0.6
2026-04-02T0000,1346A,113.2611,23.105,广州市,市五中,颗粒物(PM10),53,54,19,33,12,27,27,144,100,84,26,8,8,/,/
2026-04-02T0000,1348A,113.3477,23.0916,广州市,广东商学院,颗粒物(PM10),55,56,19,32,9,10,10,134,97,100,25,6,6,1.0,0.8
2026-04-02T0000,1349A,113.4332,23.105,广州市,市八十六中,,48,39,19,20,10,8,8,125,80,95,33,6,6,/,/
2026-04-02T0000,1350A,113.3506,22.9488,广州市,番禺中学,颗粒物(PM10),58,60,25,35,12,67,67,158,132,57,24,5,5,0.9,0.7
2026-04-02T0000,1351A,113.2147,23.3918,广州市,花都师范,,36,36,15,18,8,52,52,107,89,35,16,6,7,1.0,0.9
2026-04-02T0000,1352A,113.2599,23.1329,广州市,市监测站,颗粒物(PM10),55,56,24,25,13,4,4,123,72,104,29,2,3,/,/
2026-04-02T0000,1353A,113.5618,23.3119,广州市,九龙镇镇龙,,19,16,13,9,8,59,59,91,64,14,17,7,6,0.6,0.6
2026-04-02T0000,1354A,113.2764,23.1544,广州市,麓湖,,43,32,17,17,9,4,4,118,65,86,23,4,5,0.9,0.8
2026-04-02T0000,2846A,113.3209,23.1323,广州市,体育西,,44,30,20,24,13,8,8,130,86,87,25,5,6,0.9,0.7
2026-04-02T0000,3298A,113.5718,23.5493,广州市,从化街口,,32,32,16,21,10,16,16,90,55,36,18,6,8,0.8,0.8
2026-04-02T0000,3299A,113.3463,23.369,广州市,白云竹料,,32,32,16,19,10,31,31,106,73,35,14,3,3,0.8,0.7
2026-04-02T0000,3300A,113.2981,23.2365,广州市,白云嘉禾,,43,43,18,20,9,18,18,118,76,68,25,9,9,/,/
2026-04-02T0000,3301A,113.4256,23.1716,广州市,黄埔科学城,,31,31,15,17,8,21,21,124,68,53,23,4,4,0.6,0.6
2026-04-02T0000,3302A,113.3942,23.0485,广州市,番禺大学城,,48,48,19,26,8,24,24,154,114,80,22,4,3,0.8,0.7
2026-04-02T0000,3303A,113.4923,22.8169,广州市,南沙黄阁,颗粒物(PM10),60,63,27,35,15,45,45,153,113,83,34,7,8,/,/
2026-04-02T0000,3304A,113.534,22.7893,广州市,南沙街,颗粒物(PM10),57,59,24,34,12,50,50,153,118,63,24,9,10,0.8,0.7
2026-04-02T0000,3443A,113.2905,23.5541,广州市,花都梯面,,13,6,10,3,8,25,25,79,48,26,16,9,10,/,/
2026-04-02T0000,3445A,113.786,23.7479,广州市,从化良口,,12,9,8,3,5,38,38,88,63,19,10,4,4,/,/
2026-04-02T0000,3446A,113.805,23.2614,广州市,增城荔城,,22,14,9,8,5,69,69,95,78,14,12,7,5,0.6,0.6
2026-04-02T0000,2506A,109.604387,23.066791,贵港市,江南子站,,41,41,28,28,16,53,53,98,75,23,17,8,8,0.7,0.7
2026-04-02T0000,2508A,109.5669,23.1065,贵港市,荷城子站,,45,41,23,31,14,59,59,97,73,24,17,11,9,0.8,0.7
2026-04-02T0000,3405A,109.5886,23.1172,贵港市,新世纪学校,颗粒物(PM10),53,53,25,31,14,44,44,100,70,38,19,/,/,0.7,0.6
2026-04-02T0000,4260A,109.5933,23.095,贵港市,中山路155-3号,"颗粒物(PM10),细颗粒物(PM2.5)",56,58,27,38,14,56,56,106,79,26,15,/,/,1.0,0.8
2026-04-02T0000,1439A,106.6863,26.6035,贵阳市,马鞍山,,24,24,17,13,11,56,56,74,66,10,12,4,4,/,/
2026-04-02T0000,1441A,106.6241,26.6266,贵阳市,鉴湖路,,24,24,29,8,11,71,71,86,80,11,20,7,7,0.3,0.4
2026-04-02T0000,1442A,106.7468,26.6344,贵阳市,燕子冲,,19,19,28,6,10,53,53,66,60,12,15,6,7,0.5,0.7
2026-04-02T0000,1443A,106.6556,26.4362,贵阳市,碧云窝,,22,19,23,11,12,69,69,82,78,8,13,8,7,/,/
2026-04-02T0000,1445A,106.6963,26.6063,贵阳市,红边门,细颗粒物(PM2.5),64,NA,28,42,13,56,56,70,62,21,21,10,9,/,/
2026-04-02T0000,1446A,106.7162383,26.56964667,贵阳市,新华路,,31,31,33,10,12,56,56,73,65,20,22,9,8,0.6,0.7
2026-04-02T0000,1447A,106.6742,26.542,贵阳市,太慈桥,,22,22,24,7,12,64,64,72,68,8,14,3,4,/,/
2026-04-02T0000,4230A,106.688212,26.56952,贵阳市,花果园大街66号,,16,NA,12,11,11,51,51,55,52,10,18,4,4,/,/
2026-04-02T0000,4231A,106.687268,26.516892,贵阳市,漓江路57号,,20,12,17,9,12,61,61,76,69,12,19,10,10,0.8,0.8
2026-04-02T0000,1864A,110.3091,25.2705,桂林市,龙隐路小学,,48,48,28,25,17,59,59,107,78,18,13,5,4,0.7,0.6
2026-04-02T0000,1865A,110.2849361,25.22909545,桂林市,八中,,49,49,34,28,15,18,18,94,50,42,21,4,4,1.0,0.8
2026-04-02T0000,3531A,110.296,25.1254,桂林市,旅游学院,颗粒物(PM10),53,53,36,36,22,4,4,109,67,51,18,5,6,0.8,0.7
2026-04-02T0000,4222A,110.1835,25.2444,桂林市,环湖路276号,颗粒物(PM10),53,53,37,34,24,24,24,103,66,57,23,9,23,0.6,0.7
2026-04-02T0000,4301A,110.2803,25.2773,桂林市,信义路13号,细颗粒物(PM2.5),64,55,29,42,18,8,8,105,63,67,21,5,5,1.1,0.8
2026-04-02T0000,2674A,100.2262,34.4854,果洛藏族自治州,玛沁县大武镇,,40,26,32,6,15,125,125,131,127,1,4,14,15,0.3,0.4
2026-04-02T0000,1130A,126.5557,45.8109,哈尔滨市,松北商大,细颗粒物(PM2.5),122,87,78,84,58,42,42,101,65,44,17,11,10,0.8,0.5
2026-04-02T0000,1132A,126.6162,45.719,哈尔滨市,南岗学府路,细颗粒物(PM2.5),133,179,91,96,52,7,7,110,64,90,18,16,6,1.3,0.6
2026-04-02T0000,1133A,126.6894,45.7733,哈尔滨市,太平宏伟公园,细颗粒物(PM2.5),132,153,83,95,49,3,3,111,74,92,20,16,10,1.0,0.4
2026-04-02T0000,1134A,126.6361,45.7672,哈尔滨市,道外承德广场,颗粒物(PM10),114,156,132,67,48,40,40,90,70,58,20,12,10,1.1,0.9
2026-04-02T0000,1136A,126.644,45.7261,哈尔滨市,动力和平路,细颗粒物(PM2.5),120,110,89,81,50,44,44,105,68,49,19,17,5,0.9,0.6
2026-04-02T0000,1137A,126.5933,45.7479,哈尔滨市,道里建国路,细颗粒物(PM2.5),112,101,75,73,49,18,18,101,68,90,26,16,13,1.8,0.5
2026-04-02T0000,1138A,126.6127,45.6119,哈尔滨市,平房东轻厂,细颗粒物(PM2.5),137,109,74,100,65,35,35,96,48,99,53,11,8,1.1,0.7
2026-04-02T0000,1139A,126.5875,45.9827,哈尔滨市,呼兰师专,细颗粒物(PM2.5),123,97,100,85,57,39,39,95,64,56,21,11,9,0.6,0.3
2026-04-02T0000,1140A,126.6299,45.6799,哈尔滨市,省农科院,颗粒物(PM10),147,240,139,97,60,4,4,98,46,89,25,12,9,1.4,0.8
2026-04-02T0000,4282A,126.6769,45.7379,哈尔滨市,华山路1号,颗粒物(PM10),127,190,94,86,50,20,20,107,73,84,18,10,10,1.3,0.8
2026-04-02T0000,4283A,126.9717,45.5356,哈尔滨市,解放大街52号,细颗粒物(PM2.5),271,273,127,221,72,29,29,118,68,58,25,9,11,1.4,0.7
2026-04-02T0000,2688A,93.5124,42.8176,哈密市,地区监测站,,35,35,49,17,16,69,69,108,84,26,11,10,7,0.3,0.1
2026-04-02T0000,2689A,93.5014,42.8312,哈密市,哈密师范学校,颗粒物(PM10),53,53,61,28,15,36,36,113,86,46,11,10,8,0.1,0
2026-04-02T0000,2671A,100.9016,36.9464,海北藏族自治州,海晏县西海镇,,38,38,22,17,11,110,110,120,114,2,2,9,7,0.5,0.4
2026-04-02T0000,3867A,102.074,36.5056,海东市,平安区公安局北苑,NA,NA,51,46,25,19,NA,NA,134,NA,17,11,32,12,0.6,0.7
2026-04-02T0000,4163A,102.0984,36.5119,海东市,滨河路,颗粒物(PM10),51,51,38,32,25,63,63,108,86,46,29,25,11,0.8,0.9
2026-04-02T0000,1410A,110.3189,20.0596,海口市,海南大学,,38,38,45,25,24,77,77,80,80,7,7,5,6,0.5,0.5
2026-04-02T0000,1411A,110.2827,20.0051,海口市,秀英海南医院,,35,31,36,24,25,64,64,67,66,9,10,7,8,0.4,0.4
2026-04-02T0000,1412A,110.3391,19.9979,海口市,海南师范大学,,42,42,46,26,25,75,75,74,74,8,9,5,6,0.5,0.5
2026-04-02T0000,1413A,110.3303,20.0359,海口市,龙华路环保局宿舍,,42,42,42,22,24,74,74,76,76,9,9,/,/,0.9,0.7
2026-04-02T0000,3539A,110.5111,19.9737,海口市,桂林洋子站,,39,39,43,20,22,89,89,86,86,6,8,/,/,/,/
2026-04-02T0000,4134A,110.1952,20.0451,海口市,长滨二路9号,,32,32,34,21,22,62,62,74,73,8,11,/,/,/,/
2026-04-02T0000,2673A,100.6158,36.2985,海南藏族自治州,共和县恰卜恰镇,,35,32,34,24,14,96,96,133,117,15,13,16,12,0.5,0.4
2026-04-02T0000,2676A,97.373,37.376,海西蒙古族藏族自治州,德令哈市,,36,25,23,13,13,114,114,158,133,4,4,15,15,0.4,0.3
2026-04-02T0000,1049A,114.492,36.5712,邯郸市,矿院,细颗粒物(PM2.5),84,81,94,52,64,90,90,145,121,14,27,4,7,0.6,0.7
2026-04-02T0000,1050A,114.4839,36.6136,邯郸市,丛台公园,细颗粒物(PM2.5),96,75,97,58,70,88,88,142,116,17,23,6,9,0.5,0.8
2026-04-02T0000,3458A,114.7893,36.5592,邯郸市,香泉濮院小区,细颗粒物(PM2.5),115,142,121,76,83,64,64,146,110,28,26,1,5,0.5,0.7
2026-04-02T0000,3580A,114.1998,36.4439,邯郸市,峰峰矿区临水派出所,细颗粒物(PM2.5),127,NA,70,89,60,87,87,149,122,21,17,4,8,0.7,0.7
2026-04-02T0000,4068A,114.5209,36.7697,邯郸市,建安街268号,细颗粒物(PM2.5),108,122,94,68,72,65,65,128,95,30,26,2,4,0.5,0.7
2026-04-02T0000,4069A,114.5488,36.6177,邯郸市,丛台东路558号,细颗粒物(PM2.5),121,107,98,83,86,44,44,135,98,49,31,4,6,0.7,0.8
2026-04-02T0000,2635A,107.0155,33.0707,汉中市,市监测站,"颗粒物(PM10),细颗粒物(PM2.5)",54,55,46,37,24,43,43,109,80,29,20,8,8,0.7,0.6
2026-04-02T0000,2636A,107.0083,33.114,汉中市,鑫源开发区,颗粒物(PM10),53,54,44,35,21,25,25,111,70,46,21,6,6,0.7,0.6
2026-04-02T0000,2637A,107.0072,33.0323,汉中市,南郑大河坎水厂,细颗粒物(PM2.5),52,51,46,36,23,26,26,109,72,41,18,4,4,0.5,0.4
2026-04-02T0000,1223A,120.2073,30.2111,杭州市,滨江,NA,NA,53,26,22,13,NA,NA,122,NA,62,26,7,7,0.7,0.6
2026-04-02T0000,1224A,120.0625,30.2737,杭州市,西溪,,28,28,15,10,9,0,0,120,58,47,15,8,8,0.7,0.6
2026-04-02T0000,1226A,120.3417,30.315,杭州市,下沙,二氧化氮(NO2),61,52,37,17,18,6,6,114,58,121,34,7,6,0.6,0.5
2026-04-02T0000,1227A,120.1252,30.2465,杭州市,卧龙桥,,19,19,16,8,9,21,21,117,54,18,13,6,7,0.4,0.3
2026-04-02T0000,1228A,120.1902,30.2691,杭州市,浙江农大,颗粒物(PM10),58,60,27,32,15,7,7,115,52,88,39,6,6,0.7,0.4
2026-04-02T0000,1230A,120.1195,30.3121,杭州市,和睦小学,颗粒物(PM10),60,63,30,34,15,14,14,128,70,67,23,7,6,1.1,0.7
2026-04-02T0000,1231A,120.3076,30.4146,杭州市,临平镇,颗粒物(PM10),65,70,29,38,18,2,2,125,72,113,30,6,6,0.9,0.5
2026-04-02T0000,1232A,120.2753,30.1839,杭州市,城厢镇,,37,37,19,17,14,25,25,117,72,63,32,5,5,0.8,0.6
2026-04-02T0000,1233A,120.0883,30.1808,杭州市,云栖,,34,34,15,9,7,28,28,117,66,23,17,6,6,0.5,0.6
2026-04-02T0000,3557A,119.9463,30.0496,杭州市,镇二中,,28,18,14,12,10,6,6,110,54,55,27,4,4,1.0,0.8
2026-04-02T0000,3558A,119.7184,30.2367,杭州市,市府大楼,,26,25,13,18,10,32,32,113,76,27,13,6,6,0.5,0.4
2026-04-02T0000,3656A,120.1554,30.2863,杭州市,消防大队,,39,39,23,22,14,39,39,120,86,48,18,8,8,1.0,0.8
2026-04-02T0000,1270A,117.1957,31.7845,合肥市,明珠广场,细颗粒物(PM2.5),88,92,88,54,52,49,49,134,96,52,24,3,3,0.7,0.7
2026-04-02T0000,1271A,117.307,31.8765,合肥市,三里街,细颗粒物(PM2.5),106,117,96,66,57,46,46,120,84,65,36,6,6,0.7,0.7
2026-04-02T0000,1272A,117.2587,31.8703,合肥市,琥珀山庄,细颗粒物(PM2.5),94,95,86,57,48,66,66,127,98,43,29,6,7,0.6,0.5
2026-04-02T0000,1275A,117.2593,31.9376,合肥市,庐阳区,细颗粒物(PM2.5),105,124,100,65,54,50,50,126,80,64,32,5,5,0.9,0.8
2026-04-02T0000,1276A,117.345251,31.861615,合肥市,瑶海区,细颗粒物(PM2.5),100,114,106,60,55,55,55,128,83,58,38,6,6,0.9,0.8
2026-04-02T0000,1277A,117.3033,31.7967,合肥市,包河区,颗粒物(PM10),90,105,97,50,50,8,8,128,74,116,45,9,8,0.9,0.8
2026-04-02T0000,1278A,117.278,31.7392,合肥市,滨湖新区,颗粒物(PM10),83,95,97,48,55,90,90,130,112,16,30,5,5,0.7,0.6
2026-04-02T0000,1279A,117.1324,31.8395,合肥市,高新区,颗粒物(PM10),79,90,85,47,45,71,71,129,98,39,18,5,5,0.7,0.7
2026-04-02T0000,3464A,117.3802,31.9148,合肥市,高教基地,颗粒物(PM10),84,97,97,50,53,72,72,130,93,30,28,8,8,0.8,0.7
2026-04-02T0000,4098A,117.2518,31.8404,合肥市,中国科学技术大学,细颗粒物(PM2.5),84,90,90,52,51,82,82,136,105,27,21,6,6,0.8,0.7
2026-04-02T0000,3614A,79.9241,37.0878,和田地区,地区环保局,颗粒物(PM10),119,168,215,54,52,72,72,118,106,27,10,1,2,0.6,0.4
2026-04-02T0000,3615A,79.9132,37.1137,和田地区,市环保局,颗粒物(PM10),143,231,222,76,51,NA,NA,111,NA,83,24,2,4,1.7,0.6
2026-04-02T0000,2517A,108.0496,24.6957,河池市,市环保站,,31,31,17,18,10,14,14,80,52,26,8,5,7,0.7,0.6
2026-04-02T0000,4302A,108.0901,24.6945,河池市,上任中路54号,,44,44,24,19,11,10,10,74,42,40,16,7,9,0.8,0.8
2026-04-02T0000,1697A,114.6962,23.7538,河源市,东埔,,17,17,9,11,8,44,44,97,75,34,10,6,5,0.5,0.5
2026-04-02T0000,1698A,114.6895,23.7232,河源市,老城,,16,16,11,10,7,43,43,98,67,26,9,6,6,0.5,0.5
2026-04-02T0000,3374A,115.5562,35.089,菏泽市,定陶老年大学,颗粒物(PM10),56,58,51,32,31,89,89,134,110,18,16,5,5,0.4,0.4
2026-04-02T0000,4114A,115.4239,35.2593,菏泽市,黄河路600号,颗粒物(PM10),69,76,67,31,33,81,81,125,106,20,16,3,4,0.4,0.4
2026-04-02T0000,4115A,115.5025,35.2727,菏泽市,菏泽市人社局,颗粒物(PM10),56,58,54,32,34,87,87,125,101,19,18,5,5,0.3,0.3
2026-04-02T0000,4184A,115.479691,35.244011,菏泽市,永昌路1号,颗粒物(PM10),55,57,58,29,31,96,96,139,114,20,20,2,3,0.2,0.3
2026-04-02T0000,4193A,115.471542,35.280012,菏泽市,长城路999号,颗粒物(PM10),56,58,54,29,32,104,104,138,120,15,15,6,12,0.3,0.2
2026-04-02T0000,2514A,111.5264,24.4178,贺州市,环保小区,,33,30,21,23,13,44,44,117,82,16,13,5,4,1.5,1.3
2026-04-02T0000,2515A,111.561,24.4074,贺州市,政协大楼,,40,40,21,24,13,32,32,125,77,37,18,6,6,0.7,0.6
2026-04-02T0000,3534A,111.4744,24.455,贺州市,西湾,颗粒物(PM10),54,55,24,31,13,33,33,104,63,26,19,6,7,0.8,0.6
2026-04-02T0000,2385A,114.17,35.9019,鹤壁市,市监测站,细颗粒物(PM2.5),136,134,85,99,62,91,91,140,122,22,18,13,8,1.3,0.8
2026-04-02T0000,2386A,114.2953,35.7512,鹤壁市,市交警支队,细颗粒物(PM2.5),159,160,82,121,55,85,85,133,116,22,16,12,11,1.0,0.8
2026-04-02T0000,2387A,114.2877,35.7302,鹤壁市,迎宾馆,细颗粒物(PM2.5),159,162,85,121,54,84,84,138,120,25,16,14,13,1.0,0.8
2026-04-02T0000,3474A,114.2616,35.6824,鹤壁市,大新区,细颗粒物(PM2.5),137,128,64,100,55,93,93,133,119,19,14,11,9,1.1,0.7
2026-04-02T0000,3596A,114.1573,35.9607,鹤壁市,南山宾馆,细颗粒物(PM2.5),133,140,98,96,65,89,89,139,121,17,11,11,13,1.2,0.8
2026-04-02T0000,2244A,130.2537,47.3416,鹤岗市,哈啤分公司,,22,22,59,9,51,68,68,86,76,8,14,7,8,0.4,0.5
2026-04-02T0000,2245A,130.2683,47.3087,鹤岗市,斯达机电,,25,25,64,10,54,76,76,87,75,11,14,10,11,0.3,0.4
2026-04-02T0000,2246A,130.3114,47.3388,鹤岗市,东山纸板厂,颗粒物(PM10),100,119,118,22,55,56,56,92,78,15,19,9,10,0.6,1
2026-04-02T0000,2263A,127.4832,50.2524,黑河市,交通局,,43,43,37,20,18,40,40,81,58,16,7,8,6,0.4,0.3
2026-04-02T0000,2264A,127.5146,50.2339,黑河市,环保局,,21,21,33,3,15,57,57,84,65,12,10,11,7,0.4,0.4
2026-04-02T0000,1074A,115.6839,37.754,衡水市,电机北厂,颗粒物(PM10),95,113,122,30,59,60,60,114,84,25,30,4,4,0.2,0.4
2026-04-02T0000,1075A,115.6303,37.7318,衡水市,市监测站,颗粒物(PM10),98,117,118,18,54,65,65,115,85,22,27,10,9,0.4,0.5
2026-04-02T0000,3188A,115.6684,37.7216,衡水市,市城管局,颗粒物(PM10),83,95,120,30,57,63,63,113,84,23,27,8,8,0.3,0.5
2026-04-02T0000,3459A,115.599,37.5491,衡水市,地表水厂,颗粒物(PM10),90,106,120,20,62,46,46,122,78,35,33,5,5,0.4,0.5
2026-04-02T0000,2457A,112.6209,26.9268,衡阳市,衡阳化工总厂,细颗粒物(PM2.5),66,59,39,43,26,4,4,117,70,55,27,4,4,1.0,0.9
2026-04-02T0000,2458A,112.621,26.8957,衡阳市,珠晖区环保局,细颗粒物(PM2.5),64,57,39,42,26,7,7,111,64,70,32,7,7,0.9,1
2026-04-02T0000,2459A,112.628,26.8654,衡阳市,市委党校,细颗粒物(PM2.5),74,67,34,47,25,16,16,112,75,48,18,7,7,1.1,0.9
2026-04-02T0000,2460A,112.6007,26.8977,衡阳市,市监测站,细颗粒物(PM2.5),101,89,46,61,29,2,2,102,55,70,33,8,8,1.7,1.2
2026-04-02T0000,2461A,112.5658,26.9013,衡阳市,真空机电公司,细颗粒物(PM2.5),92,78,40,56,29,18,18,124,NA,53,20,7,9,1.8,1.5
2026-04-02T0000,3399A,112.6703,26.8817,衡阳市,师范学院,细颗粒物(PM2.5),86,79,33,53,21,22,22,118,80,25,14,5,5,1.0,0.8
2026-04-02T0000,3038A,103.3757,23.3679,红河哈尼族彝族自治州,州图书馆,颗粒物(PM10),58,61,63,28,48,70,70,109,101,10,8,5,5,0.5,0.5
2026-04-02T0000,4154A,103.401,23.3561,红河哈尼族彝族自治州,蒙自市朝阳路,细颗粒物(PM2.5),58,48,50,39,46,76,76,111,94,8,8,9,10,0.4,0.4
2026-04-02T0000,1090A,111.6506,40.7517,呼和浩特市,呼市一监,细颗粒物(PM2.5),103,88,34,63,18,56,56,102,81,34,13,10,10,0.7,0.4
2026-04-02T0000,1094A,111.7516,40.8369,呼和浩特市,如意水处理厂,细颗粒物(PM2.5),86,95,26,53,10,5,5,103,63,85,24,12,9,0.8,0.3
2026-04-02T0000,1095A,111.727798,40.806187,呼和浩特市,二十九中,NA,NA,173,34,NA,14,11,11,92,65,80,16,15,9,1.1,0.4
2026-04-02T0000,1097A,111.717,40.7617,呼和浩特市,化肥厂生活区,细颗粒物(PM2.5),56,57,36,38,26,59,59,95,75,31,16,8,7,0.4,0.4
2026-04-02T0000,3699A,111.6519,40.8389,呼和浩特市,海东办,,41,41,26,18,8,21,21,93,61,65,23,4,5,0.5,0.4
2026-04-02T0000,4275A,111.591512,40.827312,呼和浩特市,成吉思汗西街8号,,46,46,30,16,9,2,2,92,45,82,33,7,6,0.5,0.3
2026-04-02T0000,4276A,111.6597,40.8077,呼和浩特市,公园东路75号,颗粒物(PM10),74,83,32,40,10,46,46,93,77,45,17,23,14,0.6,0.5
2026-04-02T0000,4277A,111.5427,40.7846,呼和浩特市,金海路35号,颗粒物(PM10),62,66,41,31,12,52,52,91,53,41,26,7,6,0.4,0.4
2026-04-02T0000,3061A,119.7511,49.1576,呼伦贝尔市,国华电力东,,23,22,20,10,9,71,71,87,79,6,6,5,5,0.2,0.2
2026-04-02T0000,4279A,119.7569,49.2222,呼伦贝尔市,伊敏大街东7号,,23,19,20,3,8,71,71,88,81,9,7,7,7,0.6,0.5
2026-04-02T0000,1250A,120.075,30.867,湖州市,城西水厂,,45,45,29,29,21,12,12,142,90,82,29,6,5,0.8,0.7
2026-04-02T0000,2873A,120.083,30.8929,湖州市,仁皇山新区,,35,35,29,23,24,55,55,140,103,30,23,5,5,0.7,0.6
2026-04-02T0000,2907A,120.1846,30.8592,湖州市,吴兴区站,细颗粒物(PM2.5),74,64,42,47,26,30,30,151,106,78,18,8,6,0.8,0.7
2026-04-02T0000,3562A,120.4146,30.8538,湖州市,南浔区站,细颗粒物(PM2.5),66,63,48,43,31,70,70,139,110,28,15,5,4,0.8,0.7
2026-04-02T0000,1607A,120.904878,40.721091,葫芦岛市,龙港区,,48,48,66,28,16,41,41,93,52,28,24,9,11,0.5,0.5
2026-04-02T0000,1608A,120.8382,40.7521,葫芦岛市,化工街,颗粒物(PM10),84,97,85,48,26,2,2,85,46,68,29,26,18,0.9,0.4
2026-04-02T0000,1609A,120.8339,40.7078,葫芦岛市,新区,颗粒物(PM10),55,56,63,34,15,18,18,88,46,65,25,9,10,0.5,0.4
2026-04-02T0000,1610A,120.8697,40.7679,葫芦岛市,东城区,颗粒物(PM10),98,117,71,58,22,5,5,91,47,65,29,185,22,0.9,0.6
2026-04-02T0000,2483A,109.9297,27.5383,怀化市,河西地税局,,35,35,26,23,16,4,4,71,28,25,17,4,4,/,/
2026-04-02T0000,2484A,109.9783,27.5342,怀化市,市四医院,颗粒物(PM10),57,59,35,33,16,14,14,80,53,32,18,8,7,0.6,0.5
2026-04-02T0000,2485A,109.9971,27.5579,怀化市,监测楼,细颗粒物(PM2.5),82,59,28,51,24,7,7,82,44,31,20,3,2,0.5,0.3
2026-04-02T0000,1210A,119.0566,33.5991,淮安市,钵池山,细颗粒物(PM2.5),105,92,108,65,80,98,98,118,107,25,23,7,8,0.6,0.7
2026-04-02T0000,1211A,119.0083,33.578,淮安市,北京南路,细颗粒物(PM2.5),119,80,101,80,89,51,51,96,73,38,29,6,9,0.7,0.8
2026-04-02T0000,1212A,118.9938,33.6083,淮安市,市监测站,细颗粒物(PM2.5),116,88,102,77,89,97,97,120,112,26,25,6,6,0.9,0.8
2026-04-02T0000,1213A,119.135,33.5038,淮安市,楚州区监测站,细颗粒物(PM2.5),115,93,115,76,92,0,0,115,73,94,37,5,6,0.6,0.6
2026-04-02T0000,3426A,118.8757,33.2897,淮安市,新华书店,颗粒物(PM10),89,104,118,44,45,52,52,122,98,44,16,6,7,0.5,0.6
2026-04-02T0000,4092A,119.119691,33.550006,淮安市,枚皋中路89号,细颗粒物(PM2.5),96,71,110,58,80,49,49,114,85,18,21,9,11,0.7,0.7
2026-04-02T0000,4206A,119.028838,33.631911,淮安市,承德北路606号,细颗粒物(PM2.5),111,110,126,72,83,97,97,113,104,22,20,8,9,0.4,0.6
2026-04-02T0000,2282A,116.8005,33.9749,淮北市,监测站,颗粒物(PM10),64,69,65,36,36,93,93,136,116,20,17,7,7,0.4,0.5
2026-04-02T0000,2283A,116.8094,33.9008,淮北市,烈山区政府,颗粒物(PM10),67,73,79,42,52,77,77,129,102,26,20,6,6,0.5,0.5
2026-04-02T0000,4017A,116.7926,33.9534,淮北市,市博物馆,细颗粒物(PM2.5),60,54,59,40,37,79,79,131,106,22,16,4,4,0.5,0.6
2026-04-02T0000,4100A,116.8322,33.9884,淮北市,杜集区第一实验学校,颗粒物(PM10),73,81,82,40,50,76,76,118,97,18,15,6,6,0.5,0.5
2026-04-02T0000,2277A,116.8304,32.7726,淮南市,潘集区政府,细颗粒物(PM2.5),78,73,81,49,55,63,63,122,95,33,16,8,7,0.6,0.6
2026-04-02T0000,2279A,116.8569,32.5949,淮南市,谢家集区政府,细颗粒物(PM2.5),94,77,77,57,60,94,94,122,106,28,19,9,8,0.6,0.6
2026-04-02T0000,2280A,116.8279,32.6333,淮南市,八公山区政府,细颗粒物(PM2.5),86,74,79,53,57,103,103,121,106,15,12,10,9,0.5,0.6
2026-04-02T0000,2894A,117.0561,32.6536,淮南市,经济技术开发区消防队,细颗粒物(PM2.5),102,76,80,62,61,65,65,122,92,32,22,8,8,0.5,0.5
2026-04-02T0000,3329A,117.011,32.5891,淮南市,山南新区,细颗粒物(PM2.5),96,90,89,58,57,101,101,129,116,17,14,7,8,0.5,0.5
2026-04-02T0000,4209A,117.003137,32.644456,淮南市,国庆中路369号,NA,NA,92,89,58,58,NA,NA,118,110,14,15,NA,10,0.5,0.6
2026-04-02T0000,2446A,114.9021,30.474,黄冈市,职工中心,细颗粒物(PM2.5),86,74,43,53,29,94,94,148,120,19,11,20,8,0.9,0.7
2026-04-02T0000,2929A,114.8858,30.4519,黄冈市,红卫路,NA,NA,NA,38,NA,28,102,102,148,120,19,12,7,6,0.5,0.5
2026-04-02T0000,3398A,114.9134,30.4446,黄冈市,市林业局,细颗粒物(PM2.5),76,77,52,48,32,92,92,148,114,19,15,4,4,0.3,0.3
2026-04-02T0000,2672A,102.02,35.5101,黄南藏族自治州,同仁县隆务镇,,33,33,30,17,12,95,95,128,118,2,2,10,10,0.3,0.3
2026-04-02T0000,2295A,118.2905,29.6965,黄山市,延安路89号,,30,30,18,21,14,42,42,116,88,16,9,6,4,0.5,0.4
2026-04-02T0000,2297A,118.1369,30.2755,黄山市,黄山区政府5号楼,,36,36,30,23,13,22,22,121,63,11,7,3,3,0.4,0.5
2026-04-02T0000,4210A,118.335445,29.720283,黄山市,滨江东路7-2号,颗粒物(PM10),53,54,32,22,9,40,40,122,87,9,7,/,/,/,/
2026-04-02T0000,2423A,115.0547,30.2332,黄石市,沈家营,颗粒物(PM10),71,79,57,41,33,49,49,135,90,41,18,9,9,0.5,1.1
2026-04-02T0000,2426A,114.899,30.211,黄石市,铁山,细颗粒物(PM2.5),68,63,45,44,31,79,79,141,111,24,13,15,10,1.1,0.9
2026-04-02T0000,2427A,115.0259,30.2108,黄石市,团城山,颗粒物(PM10),63,67,54,37,35,64,64,134,116,25,13,8,7,0.9,0.9
2026-04-02T0000,3149A,115.0174,30.1591,黄石市,笔架山北路,颗粒物(PM10),97,115,60,43,29,75,75,150,123,23,14,16,11,1.1,1
2026-04-02T0000,4185A,115.078022,30.21118,黄石市,磁湖东路29号,颗粒物(PM10),72,80,63,35,38,50,50,143,108,54,19,23,7,1.8,1.1
2026-04-02T0000,1392A,114.4181,23.0528,惠州市,河南岸金山湖子站,,37,37,13,18,7,61,61,102,83,24,14,7,7,0.7,0.7
2026-04-02T0000,1393A,114.4055,23.0824,惠州市,下埔横江三路子站,,35,35,13,18,7,73,73,113,97,18,9,7,6,0.7,0.6
2026-04-02T0000,1395A,114.4645,22.7832,惠州市,惠阳区承修路船湖子站,NA,NA,32,15,15,8,NA,NA,108,101,13,12,6,6,0.5,0.3
2026-04-02T0000,1396A,114.5316,22.7423,惠州市,大亚湾管委会子站,,27,20,17,8,7,86,86,99,94,7,10,4,4,0.6,0.5
2026-04-02T0000,3314A,114.4334,22.8134,惠州市,惠阳秋长,,32,24,16,13,9,100,100,119,104,13,12,/,/,/,/
2026-04-02T0000,3452A,114.6521,22.7755,惠州市,大亚湾霞涌,,30,24,16,12,8,93,93,101,97,10,11,/,/,/,/
2026-04-02T0000,4300A,114.4089,23.1147,惠州市,文华一路1号,,25,25,10,14,6,66,66,113,96,21,11,/,/,/,/
2026-04-02T0000,2240A,130.9618,45.2926,鸡西市,环保局,细颗粒物(PM2.5),139,111,96,102,68,98,98,113,100,22,19,9,8,0.5,0.4
2026-04-02T0000,2243A,130.9294,45.2959,鸡西市,第一中学,细颗粒物(PM2.5),150,137,86,115,65,115,115,110,101,19,18,6,6,0.6,0.4
2026-04-02T0000,3707A,131.0069,45.2988,鸡西市,欧美日汽修厂,细颗粒物(PM2.5),146,162,115,110,71,83,83,110,87,20,24,12,11,1.3,1.1
2026-04-02T0000,2367A,114.9753,27.0803,吉安市,红声器材厂,,46,46,31,22,14,45,45,136,95,32,19,7,7,1.0,0.9
2026-04-02T0000,2369A,114.9903,27.1313,吉安市,市环境监测站,,39,39,26,21,15,97,97,131,99,17,16,10,7,/,/
2026-04-02T0000,2370A,115.009527,27.096792,吉安市,青原区法院,,44,44,28,24,15,41,41,128,76,35,18,8,7,1.1,1
2026-04-02T0000,1772A,126.54,43.8622,吉林市,哈达湾,细颗粒物(PM2.5),275,282,131,225,103,33,33,127,84,75,29,16,13,1.8,1.1
2026-04-02T0000,1773A,126.5843,43.8358,吉林市,东局子,细颗粒物(PM2.5),216,214,121,166,87,58,58,130,83,37,24,4,6,1.4,1.2
2026-04-02T0000,1774A,126.5051,43.8243,吉林市,电力学院,细颗粒物(PM2.5),222,239,136,172,90,36,36,148,80,56,32,10,11,1.8,1.2
2026-04-02T0000,1775A,126.6133,43.8971,吉林市,江北,细颗粒物(PM2.5),208,263,133,158,71,29,29,140,86,56,22,11,11,1.6,1.1
2026-04-02T0000,1776A,126.5549,43.8304,吉林市,江南公园,细颗粒物(PM2.5),204,NA,119,154,90,73,73,125,79,29,28,8,11,1.0,0.9
2026-04-02T0000,2868A,126.4737,43.953,吉林市,九站,细颗粒物(PM2.5),265,299,168,215,118,7,7,122,60,90,48,11,20,1.6,1
2026-04-02T0000,1299A,116.9866,36.6118,济南市,科干所,颗粒物(PM10),107,136,118,34,59,14,14,141,73,76,37,9,9,1.0,0.9
2026-04-02T0000,1300A,116.9379,36.6652,济南市,农科所,颗粒物(PM10),102,125,129,30,62,25,25,140,76,54,36,8,8,0.7,0.7
2026-04-02T0000,1301A,117.1265,36.6736,济南市,开发区,颗粒物(PM10),109,142,125,28,58,15,15,148,71,74,41,8,7,0.9,0.9
2026-04-02T0000,1303A,117.0616,36.6865,济南市,省种子仓库,颗粒物(PM10),112,149,148,31,62,25,25,144,71,54,46,9,8,0.8,0.9
2026-04-02T0000,1304A,116.9495185,36.644937,济南市,机床二厂,颗粒物(PM10),112,149,137,32,65,28,28,143,73,57,37,9,8,0.8,0.8
2026-04-02T0000,1305A,117.0496,36.6629,济南市,市监测站,颗粒物(PM10),112,149,137,33,58,14,14,144,66,69,40,8,6,0.8,0.8
2026-04-02T0000,1306A,116.7674,36.5458,济南市,长清党校,颗粒物(PM10),115,159,128,36,62,24,24,143,84,64,32,7,7,0.7,0.7
2026-04-02T0000,1961A,117.5323,36.6865,济南市,东山小学,颗粒物(PM10),111,147,134,22,57,36,36,146,86,50,40,5,6,0.6,0.8
2026-04-02T0000,3059A,117.7181,36.205,济南市,泰兴公司,颗粒物(PM10),67,73,97,33,61,66,66,139,83,50,43,10,10,0.4,0.6
2026-04-02T0000,3064A,117.6861,36.2172,济南市,莱芜战役纪念馆,颗粒物(PM10),63,68,101,34,63,85,85,134,99,34,44,6,6,0.7,0.8
2026-04-02T0000,3494A,117.1673,36.9782,济南市,济阳区政府,颗粒物(PM10),100,120,137,27,63,54,54,124,79,25,39,18,11,0.8,0.7
2026-04-02T0000,3495A,117.1168,36.6299,济南市,锦屏中学,颗粒物(PM10),109,142,110,40,57,20,20,141,75,66,27,8,8,0.7,0.6
2026-04-02T0000,4108A,117.7107,36.2385,济南市,山财大街5号,颗粒物(PM10),51,51,93,28,63,71,71,137,98,51,47,8,9,0.6,0.8
2026-04-02T0000,4109A,116.9744,36.6889,济南市,无影山路12号,颗粒物(PM10),101,122,121,28,64,22,22,132,71,57,38,9,8,1.0,1
2026-04-02T0000,1653A,116.6229,35.4288,济宁市,火炬城,,49,49,69,34,55,72,72,134,105,24,17,6,6,0.6,0.7
2026-04-02T0000,3500A,116.5808,35.3703,济宁市,北湖一中,,44,44,70,28,51,84,84,134,110,21,17,5,8,0.5,0.6
2026-04-02T0000,3501A,116.8251,35.5592,济宁市,服务中心,细颗粒物(PM2.5),80,78,93,50,73,77,77,138,104,24,24,3,3,0.5,0.6
2026-04-02T0000,3678A,116.5907,35.4054,济宁市,市第七中学,颗粒物(PM10),51,51,74,33,52,74,74,140,108,27,20,9,9,0.6,0.6
2026-04-02T0000,4111A,116.6075,35.4566,济宁市,任和路,颗粒物(PM10),63,68,93,32,56,85,85,141,114,20,19,8,7,0.6,0.7
2026-04-02T0000,4112A,116.5648,35.3921,济宁市,文体南路1号,颗粒物(PM10),55,57,92,31,46,85,85,139,111,22,20,6,7,0.5,0.5
2026-04-02T0000,4122A,112.6071,35.1015,济源市,市委党校,颗粒物(PM10),97,115,102,55,46,84,84,140,122,20,25,9,13,0.5,0.6
2026-04-02T0000,4123A,112.596,35.0702,济源市,沁园中路1号,细颗粒物(PM2.5),106,95,90,66,56,93,93,137,122,16,23,6,9,0.6,0.8
2026-04-02T0000,2255A,130.2749,46.8028,佳木斯市,佳纺,细颗粒物(PM2.5),168,NA,96,127,74,119,119,98,98,16,19,8,7,0.6,0.5
2026-04-02T0000,2257A,130.3258,46.7975,佳木斯市,环保局,细颗粒物(PM2.5),152,NA,67,116,57,118,118,105,105,23,15,7,5,0.5,0.3
2026-04-02T0000,4285A,130.363,46.806,佳木斯市,顺和街,细颗粒物(PM2.5),173,NA,65,131,59,108,108,100,100,27,16,7,4,0.7,0.4
2026-04-02T0000,4286A,130.3952,46.8268,佳木斯市,长安路196号,细颗粒物(PM2.5),160,NA,78,122,67,105,105,98,98,29,17,12,8,0.7,0.5
2026-04-02T0000,1252A,120.7439,30.778,嘉兴市,清河小学,细颗粒物(PM2.5),86,67,36,53,25,27,27,142,86,62,28,6,6,1.3,1
2026-04-02T0000,1253A,120.7261,30.7477,嘉兴市,嘉兴学院,颗粒物(PM10),60,64,43,38,27,28,28,151,101,56,28,6,5,0.8,0.3
2026-04-02T0000,2872A,120.7845,30.7524,嘉兴市,南湖区残联,,50,48,32,35,29,50,50,137,96,42,16,4,4,0.7,0.7
2026-04-02T0000,3407A,120.6915,30.7741,嘉兴市,秀洲住建,,44,44,35,28,25,1,1,150,62,72,29,5,5,0.6,0.4
2026-04-02T0000,1945A,98.291,39.7705,嘉峪关市,气象局,颗粒物(PM10),68,75,68,25,21,62,62,116,101,30,10,11,18,0.9,1
2026-04-02T0000,2884A,98.2672,39.7978,嘉峪关市,酒钢宾馆,颗粒物(PM10),75,85,86,24,25,67,67,110,98,26,12,13,27,0.7,0.9
2026-04-02T0000,3248A,98.2644,39.7723,嘉峪关市,雄关区,颗粒物(PM10),68,75,69,23,21,38,38,108,94,54,15,8,11,0.7,0.8
2026-04-02T0000,1383A,113.1063,22.6058,江门市,北街,细颗粒物(PM2.5),68,44,28,44,18,85,85,170,141,38,27,/,/,/,/
2026-04-02T0000,1384A,113.073,22.5835,江门市,西区,细颗粒物(PM2.5),62,52,37,41,18,66,66,164,123,57,27,/,/,/,/
2026-04-02T0000,1385A,113.0218,22.531,江门市,圭峰西,细颗粒物(PM2.5),86,NA,27,53,18,68,68,153,114,31,39,/,/,/,/
2026-04-02T0000,1386A,113.0826,22.5947,江门市,东湖,细颗粒物(PM2.5),72,53,27,46,18,72,72,165,130,43,22,6,6,0.9,0.6
2026-04-02T0000,3311A,113.1077,22.5647,江门市,江海富民,细颗粒物(PM2.5),88,70,30,54,19,62,62,168,128,42,25,/,/,0.9,0.7
2026-04-02T0000,3449A,113.0496,22.4669,江门市,新会银湖,,50,NA,28,35,19,40,40,138,94,34,26,6,7,0.5,0.4
2026-04-02T0000,3335A,113.3137,35.2643,焦作市,马村街道办,细颗粒物(PM2.5),110,86,74,70,50,102,102,124,116,15,16,9,9,0.6,0.5
2026-04-02T0000,3336A,113.2464,35.2374,焦作市,焦作技师学院,细颗粒物(PM2.5),102,83,69,62,46,106,106,130,120,13,15,8,9,1.0,0.9
2026-04-02T0000,3477A,113.1656,35.2536,焦作市,中站许衡医院,细颗粒物(PM2.5),78,84,81,49,45,117,117,138,132,9,15,10,11,0.5,0.6
2026-04-02T0000,3981A,113.2456,35.18,焦作市,原李万街道办,细颗粒物(PM2.5),105,113,90,65,49,92,92,132,117,14,13,20,9,1.0,0.6
2026-04-02T0000,4264A,113.234,35.219,焦作市,新安路1731号,细颗粒物(PM2.5),94,101,83,57,49,111,111,140,129,16,18,10,10,0.7,0.7
2026-04-02T0000,4295A,113.2722,35.2121,焦作市,人民路3066号,细颗粒物(PM2.5),106,103,80,66,48,106,106,140,127,12,13,6,6,0.7,0.7
2026-04-02T0000,1708A,116.3701,23.5345,揭阳市,新兴,,28,9,20,6,8,89,89,112,106,13,11,8,6,0.7,0.7
2026-04-02T0000,1709A,116.3261,23.5442,揭阳市,西马,,28,18,20,8,9,89,89,112,106,12,10,6,5,0.8,0.8
2026-04-02T0000,1710A,116.361,23.5627,揭阳市,东兴,,28,12,21,10,9,89,89,112,104,14,12,6,4,/,/
2026-04-02T0000,1711A,116.4151,23.5295,揭阳市,渔湖,,29,11,34,6,10,92,92,137,117,15,11,5,4,/,/
2026-04-02T0000,3320A,116.4028,23.5699,揭阳市,曲溪,,30,23,20,13,9,94,94,125,110,11,12,12,7,0.6,0.6
2026-04-02T0000,1944A,102.1691,38.5166,金昌市,天庆家园,颗粒物(PM10),65,70,89,30,29,41,41,120,88,29,20,14,17,0.5,0.5
2026-04-02T0000,4022A,102.1648,38.5369,金昌市,金川区人防中心,颗粒物(PM10),61,65,87,28,25,62,62,116,94,10,14,3,9,0.3,0.3
2026-04-02T0000,4239A,102.193042,38.531887,金昌市,长春路96号,颗粒物(PM10),87,101,91,38,39,36,36,114,87,32,18,8,26,0.9,0.7
2026-04-02T0000,1262A,119.6478,29.0773,金华市,十五中,,27,27,18,15,11,48,48,114,75,21,18,3,3,0.6,0.6
2026-04-02T0000,1263A,119.6859,29.1032,金华市,监测站,,29,29,15,15,10,17,17,115,71,51,23,3,3,0.7,0.5
2026-04-02T0000,3659A,119.656,29.1132,金华市,气象局,,35,35,18,17,11,36,36,112,69,32,26,3,2,0.6,0.5
2026-04-02T0000,1767A,121.1114,41.0879,锦州市,南山,细颗粒物(PM2.5),120,84,65,82,19,6,6,92,66,63,18,18,11,1.5,0.5
2026-04-02T0000,1768A,121.060361,40.842794,锦州市,开发区,"颗粒物(PM10),细颗粒物(PM2.5)",109,141,73,69,20,2,2,92,48,75,24,11,7,1.0,0.5
2026-04-02T0000,1769A,121.1836,41.1118,锦州市,百股街道,细颗粒物(PM2.5),92,85,72,56,25,19,19,92,53,49,22,9,22,1.0,0.5
2026-04-02T0000,1770A,121.1176,41.1224,锦州市,天安街道,细颗粒物(PM2.5),107,102,70,67,24,5,5,87,53,69,22,9,7,1.0,0.5
2026-04-02T0000,1771A,121.1303,41.1385,锦州市,北湖公园,"颗粒物(PM10),细颗粒物(PM2.5)",56,58,60,38,21,50,50,94,66,23,14,6,5,1.0,0.5
2026-04-02T0000,2160A,112.8496,35.5051,晋城市,自来水公司,颗粒物(PM10),70,78,55,43,18,126,126,140,139,9,22,5,5,0.4,0.5
2026-04-02T0000,2162A,112.8509,35.4886,晋城市,市环保局,颗粒物(PM10),71,79,56,32,21,113,113,136,134,8,16,6,7,0.5,0.6
2026-04-02T0000,3620A,112.8258,35.4804,晋城市,泽州一中,细颗粒物(PM2.5),60,62,57,40,19,121,121,142,141,13,21,4,5,0.7,0.8
2026-04-02T0000,4078A,112.8246,35.5152,晋城市,前书院路,颗粒物(PM10),54,55,54,36,18,118,118,131,131,9,18,7,7,0.4,0.6
2026-04-02T0000,4079A,112.8864,35.4773,晋城市,祥云街666号,细颗粒物(PM2.5),60,58,44,40,22,117,117,132,132,10,15,7,8,0.4,0.5
2026-04-02T0000,2174A,112.6992,37.6984,晋中市,榆次区政府,颗粒物(PM10),72,80,56,35,22,70,70,108,91,26,23,9,10,0.5,0.4
2026-04-02T0000,2865A,112.7195,37.683,晋中市,榆次三中,颗粒物(PM10),67,73,56,34,19,79,79,113,94,22,24,10,10,0.4,0.2
2026-04-02T0000,4080A,112.7375,37.7215,晋中市,广安街188号,颗粒物(PM10),69,76,67,37,25,59,59,105,91,30,28,10,11,0.3,0.4
2026-04-02T0000,4200A,112.7478,37.6954,晋中市,迎宾街26号,颗粒物(PM10),70,78,58,41,22,79,79,112,95,22,21,9,10,0.4,0.4
2026-04-02T0000,2439A,112.2012,31.048,荆门市,竹园小学,,42,42,54,19,33,100,100,121,111,15,14,1,2,0.3,0.4
2026-04-02T0000,2440A,112.1968,30.9892,荆门市,掇刀,,42,42,55,25,36,100,100,124,109,14,12,10,8,0.5,0.6
2026-04-02T0000,3012A,112.1849,31.0361,荆门市,西山林语,,32,32,48,20,32,96,96,123,113,13,12,6,5,0.3,0.3
2026-04-02T0000,3547A,112.1631,31.0134,荆门市,龙泉中学南校,,40,40,54,16,30,90,90,127,116,15,15,5,5,0.8,0.8
2026-04-02T0000,4124A,112.2213,31.0654,荆门市,新台西路6号,,38,37,51,26,34,102,102,121,106,11,11,7,7,0.4,0.5
2026-04-02T0000,1844A,112.2493,30.3198,荆州市,市图书馆,,38,32,34,26,27,108,108,106,102,15,16,8,8,0.5,0.3
2026-04-02T0000,1845A,112.2009,30.3543,荆州市,市委党校,NA,NA,38,38,33,34,92,92,91,91,NA,21,9,8,0.9,0.8
2026-04-02T0000,3194A,112.2749,30.3124,荆州市,管委会,,48,42,38,33,32,104,104,101,98,18,12,7,7,0.7,0.6
2026-04-02T0000,4268A,112.1722,30.3366,荆州市,学苑路85号,,36,31,40,25,33,83,83,112,100,23,10,4,5,0,0
2026-04-02T0000,2343A,117.2114,29.2931,景德镇市,老干部活动中心,颗粒物(PM10),51,51,36,34,28,32,32,121,79,19,10,6,9,0.9,0.8
2026-04-02T0000,2344A,117.1893,29.2789,景德镇市,兽医站,颗粒物(PM10),60,63,43,31,29,49,49,117,83,17,14,4,4,0.8,0.7
2026-04-02T0000,2346A,117.246,29.2958,景德镇市,陶研所,细颗粒物(PM2.5),52,42,29,36,30,29,29,116,76,23,20,4,5,0.6,0.6
2026-04-02T0000,4289A,117.154766,29.256967,景德镇市,青少年活动中心,细颗粒物(PM2.5),62,56,40,41,37,26,26,111,67,36,19,11,19,/,/
2026-04-02T0000,1803A,115.9873,29.6816,九江市,十里,颗粒物(PM10),58,61,44,27,22,14,14,134,65,67,34,6,6,1.0,0.8
2026-04-02T0000,1804A,115.9583,29.7047,九江市,茅山头,,41,41,40,25,23,81,81,141,93,41,26,4,4,0.5,0.6
2026-04-02T0000,1805A,115.9877,29.7295,九江市,西园,,45,45,42,23,23,68,68,148,101,53,30,4,5,0.7,0.7
2026-04-02T0000,1808A,115.9112,29.6038,九江市,综合工业园,,39,39,35,16,18,70,70,129,95,33,29,8,8,0.6,0.6
2026-04-02T0000,3190A,116.0254,29.6995,九江市,外国语学校,,39,39,32,16,20,76,76,131,103,36,20,8,6,0.7,0.7
2026-04-02T0000,4253A,116.010205,29.659402,九江市,莲花大道8号,,44,44,38,15,19,54,54,126,85,22,17,4,5,0.5,0.6
2026-04-02T0000,4240A,98.495752,39.733935,酒泉市,玉门东路5号,颗粒物(PM10),86,100,82,46,26,62,62,109,76,16,10,6,7,0.4,0.3
2026-04-02T0000,4241A,98.5099,39.7506,酒泉市,北大街108号,颗粒物(PM10),86,100,76,43,26,50,50,100,70,25,14,9,9,0.5,0.3
2026-04-02T0000,2698A,76.0071,39.466,喀什地区,巡警大队,细颗粒物(PM2.5),158,178,166,120,48,3,3,118,95,95,36,10,5,2.3,0.6
2026-04-02T0000,2699A,75.9756,39.4693,喀什地区,吾办,细颗粒物(PM2.5),140,220,178,104,49,4,4,112,84,81,38,4,4,1.4,0.8
2026-04-02T0000,4027A,75.9485,39.4688,喀什地区,老干局,颗粒物(PM10),130,198,165,55,38,3,3,116,94,97,37,5,4,1.2,0.6
2026-04-02T0000,1824A,114.3389,34.778,开封市,肿瘤医院,细颗粒物(PM2.5),64,54,52,42,40,69,69,139,107,31,20,8,7,0.7,0.6
2026-04-02T0000,1826A,114.2884,34.7966,开封市,世纪星幼儿园,颗粒物(PM10),54,55,56,35,34,77,77,132,108,26,20,9,9,0.5,0.5
2026-04-02T0000,3147A,114.3434,34.8101,开封市,龙亭公园,细颗粒物(PM2.5),60,54,50,40,37,80,80,143,115,25,20,12,11,0.8,0.7
2026-04-02T0000,3210A,114.3645,34.7955,开封市,汴京公园,细颗粒物(PM2.5),66,56,52,43,39,66,66,127,99,28,21,6,6,0.6,0.6
2026-04-02T0000,3473A,114.2485,34.8306,开封市,技师学院,,47,47,46,30,33,93,93,141,122,15,14,10,8,0.6,0.6
2026-04-02T0000,3592A,114.4518,34.7503,开封市,祥符区生态环境局,细颗粒物(PM2.5),64,56,57,42,44,56,56,134,93,46,31,8,8,0.6,0.6
2026-04-02T0000,1951A,84.886,45.6029,克拉玛依市,长征新村,,29,21,31,7,8,90,90,107,101,7,7,5,6,0.6,0.4
2026-04-02T0000,1952A,84.8894,45.5827,克拉玛依市,南林小区,,45,45,32,19,4,62,62,118,106,34,11,3,4,0.6,0.2
2026-04-02T0000,1954A,84.896,44.3328,克拉玛依市,独山子区,颗粒物(PM10),100,120,94,46,35,106,106,162,139,18,18,7,9,0.8,0.9
2026-04-02T0000,1955A,85.6888,46.0909,克拉玛依市,乌尔禾区商贸楼,,39,39,32,21,12,73,73,99,93,12,6,2,2,0.4,0.3
2026-04-02T0000,3612A,85.1045,45.6895,克拉玛依市,白碱滩区新站,,35,27,28,3,4,111,111,120,120,2,2,6,7,0.1,0.1
2026-04-02T0000,2697A,76.1457,39.7143,克孜勒苏柯尔克孜自治州,市人民政府,颗粒物(PM10),95,112,177,39,52,45,45,118,97,57,17,5,11,0.3,0.2
2026-04-02T0000,3665A,76.1654,39.7157,克孜勒苏柯尔克孜自治州,克州文化中心,颗粒物(PM10),99,118,182,42,54,86,86,114,105,23,16,8,10,0.3,0.3
2026-04-02T0000,1450A,102.8203,24.889,昆明市,呈贡新区,细颗粒物(PM2.5),103,NA,36,63,25,91,91,114,95,14,19,4,4,0.6,0.6
2026-04-02T0000,1452A,102.7253,25.0904,昆明市,龙泉镇,,47,47,33,28,20,80,80,96,89,10,13,5,4,0.6,0.7
2026-04-02T0000,1453A,102.7267,25.0378,昆明市,东风东路,,43,43,38,23,22,97,97,105,99,10,20,3,3,0.5,0.5
2026-04-02T0000,1454A,102.6744,25.0671,昆明市,金鼎山,,46,43,36,32,22,88,88,101,96,12,15,4,3,0.3,0.4
2026-04-02T0000,1455A,102.6643,25.0401,昆明市,碧鸡广场,颗粒物(PM10),53,54,41,25,23,84,84,99,92,14,19,5,5,0.4,0.5
2026-04-02T0000,3179A,102.7491,25.012,昆明市,官渡区博物馆,,39,37,40,27,22,94,94,105,97,9,21,3,4,0.4,0.5
2026-04-02T0000,3375A,102.8016,24.8336,昆明市,青年创业园,,49,49,37,31,22,99,99,109,104,5,17,4,5,0.5,0.5
2026-04-02T0000,3550A,102.8,24.9787,昆明市,昆明学院,,46,46,45,26,20,88,88,98,90,8,19,4,5,0.5,0.6
2026-04-02T0000,3551A,102.5969,24.6738,昆明市,晋宁区生态环境分局,,50,50,34,33,25,100,100,107,105,4,5,3,2,0.4,0.4
2026-04-02T0000,3552A,102.6673,24.9861,昆明市,云天化总部,,44,44,39,24,22,98,98,108,102,9,21,4,5,0.4,0.5
2026-04-02T0000,1456A,91.132,29.6515,拉萨市,八廓街,,31,14,15,3,8,97,97,118,111,10,6,4,5,0.4,0.4
2026-04-02T0000,1457A,91.1221,29.6748,拉萨市,市环保局,,25,17,14,3,7,80,80,108,98,13,7,4,4,0.4,0.4
2026-04-02T0000,1458A,91.0874,29.6476,拉萨市,区监测站,,30,10,9,3,6,96,96,110,104,13,9,4,4,0.5,0.5
2026-04-02T0000,1459A,91.1774,29.6541,拉萨市,西藏大学,,29,14,16,6,7,91,91,106,102,10,8,3,4,0.3,0.4
2026-04-02T0000,1460A,90.9798,29.6586,拉萨市,区辐射站,,22,22,15,7,6,68,68,100,91,29,10,6,4,0.4,0.4
2026-04-02T0000,1461A,91.0831,29.6292,拉萨市,拉萨火车站,,29,24,20,10,7,92,92,108,102,14,7,4,4,0.7,0.5
2026-04-02T0000,2520A,109.2203,23.7252,来宾市,来宾技工学校,,43,41,26,30,16,69,69,119,98,20,8,8,7,0.6,0.8
2026-04-02T0000,3535A,109.1781,23.7293,来宾市,兴宾区政府,,41,41,27,28,14,66,66,129,103,23,12,10,10,0.7,0.7
2026-04-02T0000,4002A,109.2312,23.7428,来宾市,中南小学,,45,45,27,30,15,52,52,123,98,35,13,8,9,0.6,0.6
2026-04-02T0000,1479A,103.8309,36.0467,兰州市,铁路设计院,颗粒物(PM10),86,100,71,51,35,2,2,110,60,100,54,6,9,1.2,0.8
2026-04-02T0000,3241A,103.7439,36.0841,兰州市,百合公园,颗粒物(PM10),83,96,66,42,31,2,2,112,59,87,42,7,10,1.0,0.8
2026-04-02T0000,3242A,103.9613,35.9985,兰州市,和平,,47,47,53,13,24,64,64,120,102,30,20,11,15,0.5,0.6
2026-04-02T0000,4236A,103.629272,36.093822,兰州市,庄浪东路808号,,49,49,63,27,29,41,41,120,75,46,32,7,16,0.3,0.5
2026-04-02T0000,4237A,103.7251,36.104344,兰州市,安宁西路88号,颗粒物(PM10),78,89,74,39,30,17,17,134,96,87,38,10,14,0.6,0.5
2026-04-02T0000,4238A,103.846982,36.067567,兰州市,北滨河东路1号,颗粒物(PM10),83,96,62,37,30,3,3,117,75,94,49,10,12,0.8,0.8
2026-04-02T0000,1067A,116.6712,39.5109,廊坊市,药材公司,颗粒物(PM10),51,51,79,13,32,69,69,94,78,13,22,1,4,0.4,0.5
2026-04-02T0000,1068A,116.7215,39.5592,廊坊市,开发区,,40,40,83,11,30,64,64,98,80,10,20,1,4,0.3,0.4
2026-04-02T0000,1070A,116.7246,39.5273,廊坊市,北华航天学院,颗粒物(PM10),55,57,83,9,28,69,69,97,80,16,23,3,6,0.3,0.4
2026-04-02T0000,2919A,116.7022,39.5454,廊坊市,河北工业大学,颗粒物(PM10),53,54,80,11,32,71,71,93,78,13,21,3,5,0.3,0.4
2026-04-02T0000,2536A,103.7629,29.5844,乐山市,牛耳桥,颗粒物(PM10),55,57,41,34,21,8,8,92,69,52,29,5,6,0.6,0.5
2026-04-02T0000,2537A,103.7501,29.6002,乐山市,市第三水厂,颗粒物(PM10),53,53,38,36,21,30,30,97,67,41,34,4,4,0.6,0.6
2026-04-02T0000,2538A,103.7571,29.5664,乐山市,市监测站,颗粒物(PM10),59,62,39,35,18,38,38,93,76,31,25,4,4,0.8,0.7
2026-04-02T0000,3361A,103.7313,29.563,乐山市,理工大学,细颗粒物(PM2.5),60,54,44,40,26,32,32,95,69,35,34,8,9,0.6,0.6
2026-04-02T0000,2599A,100.2497,26.8802,丽江市,丽江古城,,30,16,21,7,8,96,96,94,94,5,7,10,11,0.5,0.6
2026-04-02T0000,2600A,100.2203,26.8906,丽江市,市中心,,30,NA,11,8,8,94,94,97,95,8,9,6,7,0.4,0.5
2026-04-02T0000,1267A,119.9141,28.4513,丽水市,监测站大楼,,14,14,11,9,5,43,43,96,78,15,10,4,4,0.4,0.4
2026-04-02T0000,1268A,119.93,28.4589,丽水市,莲都小学,,20,20,12,8,4,43,43,98,81,18,12,/,/,/,/
2026-04-02T0000,1269A,119.8794,28.4232,丽水市,余庄前,,22,22,13,10,5,4,4,91,46,13,10,4,4,0.4,0.5
2026-04-02T0000,1173A,119.1759,34.5885,连云港市,市环境监测站,细颗粒物(PM2.5),201,171,135,151,115,48,48,151,120,46,27,9,10,1.1,0.9
2026-04-02T0000,3000A,119.3577,34.6971,连云港市,德源药业,细颗粒物(PM2.5),150,132,135,114,101,57,57,154,106,52,33,6,8,1.2,1
2026-04-02T0000,3007A,119.178,34.8442,连云港市,新城一中,细颗粒物(PM2.5),200,157,150,150,125,63,63,167,108,51,36,23,13,1.9,1.1
2026-04-02T0000,3008A,119.3607,34.7519,连云港市,胡沟管理处,细颗粒物(PM2.5),137,117,187,100,97,107,107,160,78,27,41,10,14,1.4,1.1
2026-04-02T0000,3009A,119.1478,34.5913,连云港市,矿山设计院,细颗粒物(PM2.5),156,146,143,119,105,60,60,152,118,35,28,8,11,1.3,1.1
2026-04-02T0000,3434A,119.2414,34.6539,连云港市,工贸学校,细颗粒物(PM2.5),172,159,120,130,101,82,82,154,137,24,21,10,13,1.2,0.9
2026-04-02T0000,3664A,119.4171,34.734,连云港市,连云街道,细颗粒物(PM2.5),96,77,126,58,89,137,137,147,100,49,40,6,9,0.7,0.9
2026-04-02T0000,2573A,102.2629,27.8981,凉山彝族自治州,西昌市政府,,32,26,18,22,16,73,73,99,88,10,8,15,9,0.8,0.5
2026-04-02T0000,2574A,102.2686,27.885,凉山彝族自治州,凉山州政府,,25,22,18,15,13,77,77,87,79,11,10,15,5,0.7,0.5
2026-04-02T0000,4229A,102.2342,27.8859,凉山彝族自治州,凯乐南路30号,,35,35,30,18,13,64,64,90,67,28,22,9,6,0.9,0.7
2026-04-02T0000,2212A,123.1978,41.2036,辽阳市,宏伟区,细颗粒物(PM2.5),105,88,127,65,40,50,50,111,86,26,16,11,11,0.8,0.8
2026-04-02T0000,2213A,123.1684,41.2497,辽阳市,新华园,细颗粒物(PM2.5),129,107,128,91,41,24,24,108,77,50,21,11,10,0.9,0.7
2026-04-02T0000,2214A,123.2355,41.2663,辽阳市,滨河路,细颗粒物(PM2.5),113,90,132,74,41,30,30,99,67,44,23,10,8,0.7,0.6
2026-04-02T0000,4083A,123.153,41.2874,辽阳市,铁西路150号,细颗粒物(PM2.5),111,89,123,72,38,27,27,89,61,48,22,12,11,0.7,0.7
2026-04-02T0000,2227A,125.1359,42.8845,辽源市,环保局,细颗粒物(PM2.5),142,134,87,106,44,17,17,109,68,43,22,7,7,1.0,0.6
2026-04-02T0000,4085A,125.0998,42.9134,辽源市,安宁大街333号,细颗粒物(PM2.5),163,147,117,124,47,30,30,104,78,39,16,5,6,1.0,0.6
2026-04-02T0000,1625A,115.9789,36.4372,聊城市,区政府,颗粒物(PM10),114,155,121,34,70,64,64,147,110,36,25,9,7,0.8,0.8
2026-04-02T0000,3200A,115.9772,36.4986,聊城市,监控中心,颗粒物(PM10),112,149,122,40,71,54,54,154,109,40,30,18,11,0.8,0.7
2026-04-02T0000,3513A,116.0443,36.436,聊城市,九州社区,颗粒物(PM10),114,156,127,39,79,60,60,149,109,42,27,7,5,0.7,0.6
2026-04-02T0000,4018A,116.0564,36.4609,聊城市,星美广场,颗粒物(PM10),120,171,136,41,76,59,59,142,101,50,34,9,5,0.6,0.6
2026-04-02T0000,4113A,116.0091,36.4495,聊城市,利民路,颗粒物(PM10),100,120,116,36,75,64,64,151,112,38,24,8,8,0.6,0.6
2026-04-02T0000,2632A,94.3683,29.6373,林芝市,林芝监测站,,19,6,8,3,4,58,58,84,68,2,3,7,6,0.5,0.5
2026-04-02T0000,2633A,94.3616,29.6634,林芝市,林芝人民医院,,19,11,11,3,5,60,60,87,71,6,4,5,5,0.6,0.6
2026-04-02T0000,2603A,100.0779,23.8981,临沧市,市环保局,细颗粒物(PM2.5),68,52,54,44,40,51,51,101,88,12,11,4,5,0.8,0.7
2026-04-02T0000,2604A,100.0894,23.882,临沧市,市气象局,NA,NA,NA,50,NA,38,NA,NA,103,NA,NA,11,NA,6,NA,0.5
2026-04-02T0000,1733A,111.5552,36.0791,临汾市,临钢医院,颗粒物(PM10),58,60,45,23,16,89,89,123,108,20,21,8,10,0.6,0.6
2026-04-02T0000,1734A,111.4984,36.0734,临汾市,技工学校,颗粒物(PM10),51,51,51,23,21,92,92,122,107,17,23,4,5,0.5,0.5
2026-04-02T0000,1736A,111.5017,36.0857,临汾市,市委,颗粒物(PM10),58,61,50,17,16,100,100,128,114,16,22,5,6,0.5,0.5
2026-04-02T0000,3018A,111.5048,36.1015,临汾市,唐尧大酒店,颗粒物(PM10),59,62,65,18,16,94,94,122,106,18,25,8,9,0.5,0.6
2026-04-02T0000,4244A,111.4879,36.053,临汾市,启星学校,颗粒物(PM10),52,52,52,21,18,96,96,123,110,21,30,6,6,0.5,0.5
2026-04-02T0000,4271A,103.2464,35.6123,临夏回族自治州,滨河东路1号,颗粒物(PM10),146,238,108,75,38,3,3,112,56,62,34,8,9,0.9,0.6
2026-04-02T0000,4310A,103.207136,35.599807,临夏回族自治州,新华街21号,颗粒物(PM10),95,112,77,53,40,49,49,104,72,20,17,7,7,0.9,1
2026-04-02T0000,1618A,118.3429,35.0532,临沂市,沂河小区,细颗粒物(PM2.5),156,168,125,119,89,113,113,140,120,25,22,17,11,1.3,0.7
2026-04-02T0000,1619A,118.2962,35.0568,临沂市,鲁南制药厂,细颗粒物(PM2.5),160,163,122,122,89,118,118,145,127,28,27,20,16,1.4,0.7
2026-04-02T0000,1620A,118.2793,34.9976,临沂市,新光毛纺厂,细颗粒物(PM2.5),163,161,109,124,91,107,107,145,121,34,32,16,13,1.2,0.6
2026-04-02T0000,1621A,118.3955,35.0889,临沂市,河东保险公司,细颗粒物(PM2.5),159,151,121,121,92,114,114,148,126,28,21,23,13,1.6,0.7
2026-04-02T0000,3370A,118.3563,35.0215,临沂市,十里堡居委,细颗粒物(PM2.5),163,153,114,124,92,115,115,148,123,35,32,18,14,1.5,0.8
2026-04-02T0000,3496A,118.359,35.1067,临沂市,南坊新区,细颗粒物(PM2.5),163,141,116,124,98,121,121,144,131,27,25,20,13,1.4,0.7
2026-04-02T0000,3860A,118.3915,35.0297,临沂市,皇山花园小区,细颗粒物(PM2.5),172,161,118,130,94,113,113,146,127,34,28,19,13,1.7,0.9
2026-04-02T0000,1870A,109.4854,24.3898,柳州市,柳东小学,,42,42,15,25,12,62,62,108,91,18,9,5,4,0.7,0.6
2026-04-02T0000,1871A,109.4109,24.3304,柳州市,环保监测站,细颗粒物(PM2.5),66,64,29,43,18,40,40,104,81,38,17,17,12,1.1,0.8
2026-04-02T0000,1872A,109.3886,24.3408,柳州市,河西水厂,细颗粒物(PM2.5),103,106,42,63,22,22,22,113,81,56,20,11,10,0.6,0.5
2026-04-02T0000,1873A,109.4263,24.2951,柳州市,市四中,细颗粒物(PM2.5),68,63,29,44,16,30,30,107,70,42,16,9,10,0.8,0.6
2026-04-02T0000,1874A,109.396,24.3658,柳州市,市九中,NA,NA,NA,24,NA,15,NA,NA,103,NA,NA,13,NA,16,NA,0.6
2026-04-02T0000,1875A,109.4912,24.3164,柳州市,古亭山,,42,NA,19,29,12,26,26,110,72,49,15,6,6,0.7,0.6
2026-04-02T0000,3402A,109.5422,24.3994,柳州市,市二中,细颗粒物(PM2.5),60,56,22,40,13,26,26,104,73,50,14,8,7,0.7,0.6
2026-04-02T0000,2307A,116.5078,31.7369,六安市,监测大楼,细颗粒物(PM2.5),60,43,49,40,36,83,83,126,108,13,12,4,4,0.5,0.5
2026-04-02T0000,2308A,116.4738,31.7642,六安市,皖西学院,颗粒物(PM10),54,55,56,34,35,92,92,134,116,12,10,5,5,0.5,0.4
2026-04-02T0000,2309A,116.4997,31.7904,六安市,朝阳厂,,49,48,56,34,38,92,92,130,110,15,16,5,6,0.4,0.4
2026-04-02T0000,2310A,116.5566,31.7885,六安市,开发区,细颗粒物(PM2.5),70,50,56,45,43,76,76,135,111,18,15,6,5,0.5,0.5
2026-04-02T0000,2577A,104.8293,26.592,六盘水市,黄土坡,,44,44,35,29,23,75,75,81,80,9,12,6,5,0.3,0.3
2026-04-02T0000,2579A,104.8481,26.5898,六盘水市,民中,,35,35,36,24,23,74,74,80,78,7,13,4,5,0.5,0.5
2026-04-02T0000,2580A,104.9541,26.5506,六盘水市,双水,,31,31,33,21,17,74,74,79,77,8,10,4,5,0.4,0.4
2026-04-02T0000,4151A,104.8899,26.5685,六盘水市,钟山大道中段564号,,39,39,42,25,23,73,73,82,80,7,11,8,8,0.7,0.7
2026-04-02T0000,2336A,117.022,25.1031,龙岩市,龙岩市监测站,,19,16,12,13,6,52,52,108,84,22,8,10,8,0.7,0.6
2026-04-02T0000,2337A,117.0257,25.0662,龙岩市,闽西职业技术学院,,28,25,12,19,6,67,67,105,75,17,7,5,5,0.6,0.6
2026-04-02T0000,2338A,117.0195,25.0306,龙岩市,龙岩学院,,20,NA,10,14,5,45,45,110,73,13,6,4,4,/,/
2026-04-02T0000,2885A,104.9344,33.3827,陇南市,滨江中学,,50,50,51,20,18,78,78,100,92,10,13,7,8,0.8,0.8
2026-04-02T0000,3247A,104.9551,33.3709,陇南市,市总工会,,42,42,46,18,15,91,91,96,95,7,11,6,6,0.7,0.7
2026-04-02T0000,2488A,111.9984,27.7346,娄底市,市监测站,颗粒物(PM10),60,64,51,32,33,43,43,109,89,50,30,8,5,0.8,0.9
2026-04-02T0000,2491A,111.9888,27.7035,娄底市,市政府,,35,32,30,24,14,51,51,119,100,32,15,4,3,0.9,0.6
2026-04-02T0000,4127A,111.9812,27.7591,娄底市,涟钢职大,颗粒物(PM10),60,64,61,38,40,49,49,120,92,49,24,18,6,0.6,1.8
2026-04-02T0000,4128A,112.0303,27.7457,娄底市,娄底体校,颗粒物(PM10),55,56,42,27,23,47,47,108,81,12,9,3,4,0.4,0.5
2026-04-02T0000,1894A,105.4427,28.9063,泸州市,小市上码头,,32,29,14,22,9,44,44,91,77,28,15,11,12,0.9,0.7
2026-04-02T0000,1895A,105.4241,28.8573,泸州市,兰田宪桥,,32,32,15,18,6,31,31,81,65,28,16,10,11,0.9,0.7
2026-04-02T0000,1896A,105.4378,28.8833,泸州市,市环监站,,35,35,18,19,8,37,37,84,74,39,23,6,9,0.9,0.7
2026-04-02T0000,4272A,105.3689,28.7783,泸州市,纳溪中医医院,细颗粒物(PM2.5),58,59,28,39,17,24,24,86,64,30,18,8,8,0.8,0.7
2026-04-02T0000,2183A,111.1447,37.5212,吕梁市,环保局,颗粒物(PM10),61,65,60,19,15,30,30,110,73,55,29,7,9,0.2,0.2
2026-04-02T0000,2185A,111.1285,37.5338,吕梁市,自来水公司,颗粒物(PM10),98,117,67,29,19,31,31,111,79,44,28,18,10,0.4,0.4
2026-04-02T0000,2867A,111.1225,37.5093,吕梁市,马茂庄小学,颗粒物(PM10),75,84,71,21,17,28,28,112,72,50,31,6,7,0.3,0.4
2026-04-02T0000,1812A,112.3934,34.6517,洛阳市,市委党校,颗粒物(PM10),51,51,63,24,38,75,75,124,104,24,32,10,11,0.6,0.7
2026-04-02T0000,1815A,112.494,34.6883,洛阳市,河南林校,颗粒物(PM10),58,61,74,34,45,61,61,130,101,43,34,13,13,0.6,0.6
2026-04-02T0000,1816A,112.3843,34.623,洛阳市,开发区管委会,颗粒物(PM10),61,65,72,30,40,72,72,123,105,22,23,11,14,0.6,0.7
2026-04-02T0000,1817A,112.4263,34.6249,洛阳市,市委新办公区,颗粒物(PM10),60,63,62,31,36,71,71,126,105,22,25,9,10,0.4,0.4
2026-04-02T0000,3340A,112.6005,34.6323,洛阳市,伊滨,颗粒物(PM10),57,59,67,30,38,68,68,125,102,19,22,8,8,0.5,0.6
2026-04-02T0000,3341A,112.495,34.6338,洛阳市,中移产业园,颗粒物(PM10),56,58,66,34,41,62,62,125,100,34,29,11,11,0.6,0.6
2026-04-02T0000,3593A,112.5736,34.8993,洛阳市,吉利监测站,细颗粒物(PM2.5),82,77,69,51,48,79,79,139,117,26,23,10,11,0.8,0.7
2026-04-02T0000,3635A,112.3678,34.6623,洛阳市,河科大西苑校区,颗粒物(PM10),55,56,67,35,41,81,81,134,113,23,29,10,13,0.5,0.6
2026-04-02T0000,3636A,112.4387,34.678,洛阳市,英才小学,颗粒物(PM10),58,61,76,30,42,60,60,130,102,39,37,11,13,0.7,0.8
2026-04-02T0000,4214A,112.460027,34.694929,洛阳市,春都路1号院,颗粒物(PM10),59,62,76,31,45,60,60,136,104,37,26,10,10,0.6,0.7
2026-04-02T0000,2399A,114.051,33.5721,漯河市,三五一五工厂,细颗粒物(PM2.5),60,57,70,40,51,93,93,126,104,19,23,5,5,0.3,0.4
2026-04-02T0000,2400A,114.0055,33.5698,漯河市,漯河大学,细颗粒物(PM2.5),64,NA,53,42,53,93,93,124,108,15,20,6,6,0.5,0.5
2026-04-02T0000,2401A,114.0134,33.5826,漯河市,市水利局,,41,41,60,20,43,94,94,124,107,14,17,6,6,0.5,0.5
2026-04-02T0000,2402A,114.0261,33.5697,漯河市,市广电局,,49,49,63,31,47,90,90,126,104,15,21,5,6,0.5,0.6
2026-04-02T0000,3478A,113.9691,33.568,漯河市,市图书馆,,50,48,64,35,42,84,84,116,98,18,20,9,7,0.6,0.6
2026-04-02T0000,4250A,114.089259,33.588274,漯河市,韶山路11号,颗粒物(PM10),55,57,73,31,46,73,73,119,87,22,23,7,8,0.2,0.3
2026-04-02T0000,1798A,118.5084,31.6838,马鞍山市,湖东路四小,细颗粒物(PM2.5),105,117,99,65,69,1,1,129,61,76,42,7,9,0.8,0.9
2026-04-02T0000,1799A,118.5019,31.6449,马鞍山市,开发区,细颗粒物(PM2.5),92,101,77,56,52,15,15,130,61,76,47,5,6,0.8,0.8
2026-04-02T0000,3633A,118.4914,31.681,马鞍山市,雨山,颗粒物(PM10),73,81,74,46,43,15,15,132,84,72,39,8,9,0.9,0.7
2026-04-02T0000,4191A,118.527362,31.722269,马鞍山市,慈湖高新区,细颗粒物(PM2.5),98,110,95,59,65,16,16,125,71,59,39,7,9,0.6,0.8
2026-04-02T0000,1686A,111.0285,21.469,茂名市,电白南海,NA,NA,44,34,24,21,NA,NA,52,50,NA,19,9,9,0.8,1
2026-04-02T0000,1687A,110.9294,21.6533,茂名市,茂石化七小,,34,34,32,23,22,35,35,48,41,18,16,17,13,0.7,0.7
2026-04-02T0000,1688A,110.9108,21.6688,茂名市,健康路,,27,27,27,18,18,44,44,51,49,15,16,11,14,0.9,0.9
2026-04-02T0000,1689A,110.8592,21.6826,茂名市,高岭,,29,29,36,17,20,38,38,52,47,16,17,6,14,/,/
2026-04-02T0000,3450A,111.0101,21.5165,茂名市,电白水东,,38,36,28,26,25,45,45,55,54,21,17,15,9,/,/
2026-04-02T0000,2540A,103.8414,30.0871,眉山市,气象局,颗粒物(PM10),51,51,44,19,12,68,68,109,82,30,28,8,9,0.6,0.6
2026-04-02T0000,3148A,103.829,30.0563,眉山市,区人社局,颗粒物(PM10),53,53,47,29,17,60,60,104,80,38,36,9,12,0.0,0.5
2026-04-02T0000,4148A,103.8836,30.0695,眉山市,眉职院,,42,42,31,19,10,56,56,109,82,26,28,6,7,0.7,0.7
2026-04-02T0000,1690A,116.1248,24.3307,梅州市,梅江月梅,,35,35,12,8,4,29,29,96,61,27,12,/,/,/,/
2026-04-02T0000,1691A,116.0798,24.2719,梅州市,梅县新城,,18,16,13,12,6,24,24,95,55,29,17,8,8,0.6,0.6
2026-04-02T0000,3315A,116.1234,24.2994,梅州市,梅龙,,20,19,11,14,5,32,32,98,68,22,10,6,7,0.9,0.8
2026-04-02T0000,1878A,104.7775,31.4741,绵阳市,富乐山,,29,29,36,15,20,82,82,118,95,12,13,6,7,0.6,0.6
2026-04-02T0000,1880A,104.6698,31.4668,绵阳市,高新区自来水公司,颗粒物(PM10),83,95,58,42,24,2,2,111,62,73,33,9,9,0.9,0.7
2026-04-02T0000,3491A,104.6899,31.5324,绵阳市,西科大附属小学,颗粒物(PM10),66,72,58,37,27,7,7,122,75,68,31,6,7,0.5,0.4
2026-04-02T0000,3492A,104.5647,31.5343,绵阳市,安州区旅游局,颗粒物(PM10),75,85,52,44,26,13,13,110,70,54,22,6,5,0.6,0.5
2026-04-02T0000,4146A,104.7092,31.4972,绵阳市,科技城新区公安局,颗粒物(PM10),62,66,52,29,23,33,33,110,78,62,28,9,8,0.8,0.7
2026-04-02T0000,4226A,104.765114,31.453094,绵阳市,绵阳市气象局,,36,36,45,20,24,67,67,112,93,30,22,10,12,0.6,0.5
2026-04-02T0000,1784A,129.61,44.561,牡丹江市,环保大楼,细颗粒物(PM2.5),132,103,79,95,54,42,42,104,91,44,24,8,4,0.9,0.6
2026-04-02T0000,1787A,129.6364,44.6075,牡丹江市,机车工厂,细颗粒物(PM2.5),136,158,82,99,55,40,40,97,81,49,29,6,8,0.8,0.6
2026-04-02T0000,1788A,129.6386,44.5462,牡丹江市,第一中学,细颗粒物(PM2.5),108,79,56,68,45,24,24,101,70,42,22,5,5,0.6,0.5
2026-04-02T0000,4287A,129.5992,44.5964,牡丹江市,东晓云街98号,细颗粒物(PM2.5),110,82,76,71,55,88,88,101,97,12,15,4,3,0.7,0.7
2026-04-02T0000,2531A,105.0703,29.61,内江市,市监测站,,43,43,24,28,16,59,59,99,84,18,16,8,8,0.6,0.5
2026-04-02T0000,2533A,105.0657,29.5807,内江市,内江二中,颗粒物(PM10),51,51,37,27,16,73,73,99,90,21,20,8,8,0.4,0.3
2026-04-02T0000,2534A,105.0407,29.5828,内江市,内江日报社,,39,38,27,27,15,62,62,107,92,26,21,7,7,0.5,0.4
2026-04-02T0000,4147A,105.0433,29.6105,内江市,玉峰路西段888号,,46,38,25,32,17,66,66,108,91,21,18,11,10,0.5,0.4
2026-04-02T0000,2628A,92.0653,31.4846,那曲市,那曲监测站,,28,26,18,19,14,82,82,98,94,12,8,11,12,0.8,0.5
2026-04-02T0000,4243A,92.0515,31.4787,那曲市,那曲市委宣传部,,30,22,11,15,9,94,94,104,100,3,4,7,8,0.4,0.4
2026-04-02T0000,1291A,115.8887,28.7006,南昌市,省林业公司,颗粒物(PM10),67,73,34,35,25,16,16,121,83,71,21,4,5,0.7,0.4
2026-04-02T0000,1292A,115.813,28.7443,南昌市,林科所,二氧化氮(NO2),51,41,30,28,22,5,5,116,76,101,33,10,8,0.4,0.9
2026-04-02T0000,1294A,115.8518,28.687,南昌市,建工学校,颗粒物(PM10),93,109,48,50,27,8,8,124,87,82,26,9,10,1.3,0.8
2026-04-02T0000,1295A,115.8926,28.6425,南昌市,象湖,颗粒物(PM10),77,87,33,43,24,6,6,123,84,95,31,9,9,1.1,0.8
2026-04-02T0000,3046A,115.9084,28.6062,南昌市,机电学校,颗粒物(PM10),65,71,50,38,22,20,20,130,83,81,27,4,5,0.7,0.5
2026-04-02T0000,3690A,115.9718,28.7032,南昌市,外国语学校,NA,NA,58,38,33,26,NA,NA,128,112,63,26,7,9,0.7,0.6
2026-04-02T0000,4106A,115.7923,28.6873,南昌市,工业二路,颗粒物(PM10),63,67,45,30,24,2,2,122,74,85,26,4,5,0.7,0.6
2026-04-02T0000,4192A,115.931587,28.686774,南昌市,南京东路235号,细颗粒物(PM2.5),90,94,51,55,27,28,28,132,91,46,18,5,6,1.1,0.5
2026-04-02T0000,1906A,106.0791,30.8022,南充市,南充市委,,50,50,30,24,19,19,19,97,57,49,25,7,7,0.6,0.5
2026-04-02T0000,1907A,106.1038,30.8215,南充市,南充炼油厂,颗粒物(PM10),53,53,42,27,19,9,9,93,56,59,25,5,6,0.5,0.3
2026-04-02T0000,4227A,106.108336,30.788436,南充市,梨树横街98号,颗粒物(PM10),56,58,34,32,19,6,6,108,69,68,24,6,6,0.7,0.3
2026-04-02T0000,4304A,106.1172,30.843,南充市,清泉寺北路188号,,40,40,32,23,18,63,63,104,79,24,16,6,6,0.3,0.3
2026-04-02T0000,4305A,106.067,30.7616,南充市,同庆路1号,颗粒物(PM10),55,56,37,21,18,12,12,103,51,63,27,6,6,0.5,0.4
2026-04-02T0000,1151A,118.8033,32.1085,南京市,迈皋桥,细颗粒物(PM2.5),106,87,92,66,74,13,13,146,89,80,29,6,6,0.8,0.7
2026-04-02T0000,1152A,118.7487,32.057,南京市,草场门,细颗粒物(PM2.5),107,90,92,67,76,44,44,138,95,60,46,8,10,0.8,0.7
2026-04-02T0000,1154A,118.770105,32.004342,南京市,中华门,细颗粒物(PM2.5),104,112,92,64,61,20,20,137,91,62,29,5,5,1.1,0.9
2026-04-02T0000,1155A,118.8059,32.0329,南京市,瑞金路,细颗粒物(PM2.5),105,95,103,65,72,16,16,144,81,32,14,5,6,1.5,1.2
2026-04-02T0000,1156A,118.7946,32.0774,南京市,玄武湖,细颗粒物(PM2.5),74,79,86,47,59,40,40,143,98,39,22,8,9,0.9,0.8
2026-04-02T0000,1157A,118.6415,32.0964,南京市,浦口,细颗粒物(PM2.5),68,46,76,44,65,106,106,130,110,19,23,4,5,0.6,0.8
2026-04-02T0000,1158A,118.730129,32.000956,南京市,奥体中心,颗粒物(PM10),104,128,103,60,61,0,0,120,70,86,32,7,8,1.2,0.8
2026-04-02T0000,1159A,118.9072,32.1047,南京市,仙林大学城,颗粒物(PM10),74,83,64,44,60,7,7,140,89,80,33,7,9,0.9,0.8
2026-04-02T0000,3422A,118.8443,31.919,南京市,江宁彩虹桥,颗粒物(PM10),68,74,60,43,40,4,4,145,75,98,46,4,4,1.3,1
2026-04-02T0000,3427A,118.8497,32.3599,南京市,六合雄州,细颗粒物(PM2.5),103,71,93,63,84,27,27,133,87,45,29,4,4,0.8,0.9
2026-04-02T0000,4086A,118.7641,32.0841,南京市,新模范马路66号,颗粒物(PM10),90,105,105,54,74,5,5,150,94,83,35,4,4,0.9,0.8
2026-04-02T0000,4249A,118.8707617,31.34017673,南京市,汶溪路181号,细颗粒物(PM2.5),68,NA,48,44,27,91,91,153,125,28,20,5,6,0.7,0.6
2026-04-02T0000,4312A,119.019,31.6512,南京市,中山西路1号,细颗粒物(PM2.5),84,85,58,52,41,6,6,131,77,58,23,4,4,0.9,0.7
2026-04-02T0000,1401A,108.3098,22.788,南宁市,二十一中,细颗粒物(PM2.5),60,NA,19,40,13,68,68,94,84,17,13,3,4,0.6,0.6
2026-04-02T0000,1402A,108.3135,22.8529,南宁市,北湖,细颗粒物(PM2.5),76,58,23,48,16,69,69,100,91,22,15,4,5,0.9,0.8
2026-04-02T0000,1403A,108.3205,22.8222,南宁市,市监测站,细颗粒物(PM2.5),56,53,22,38,13,81,81,99,91,14,13,4,4,0.8,0.6
2026-04-02T0000,1404A,108.3828,22.8038,南宁市,大自然花园,NA,NA,NA,20,40,13,78,78,101,94,18,15,6,6,0.5,0.4
2026-04-02T0000,1406A,108.2397,22.8462,南宁市,区农职院,细颗粒物(PM2.5),64,52,22,42,15,74,74,99,90,18,15,6,8,0.6,0.5
2026-04-02T0000,1407A,108.3285,22.7356,南宁市,英华嘉园,细颗粒物(PM2.5),60,54,20,40,12,75,75,102,92,16,11,5,4,0.6,0.5
2026-04-02T0000,3401A,108.4829,22.762,南宁市,红星社区,,46,46,21,30,13,74,74,110,NA,23,12,6,6,0.6,0.6
2026-04-02T0000,4132A,108.2927,23.1477,南宁市,起凤路9号,细颗粒物(PM2.5),58,53,26,39,17,83,83,106,97,12,13,6,8,0.6,0.5
2026-04-02T0000,4221A,108.2177,22.7774,南宁市,乐贤路16号,"颗粒物(PM10),细颗粒物(PM2.5)",52,52,28,36,13,55,55,97,83,33,24,5,6,0.7,0.6
2026-04-02T0000,2332A,118.1682,26.6371,南平市,南平市监测站,,16,16,9,10,4,28,28,111,63,21,10,3,3,0.8,0.7
2026-04-02T0000,2334A,118.1757,26.6276,南平市,南平七中,,16,16,11,9,3,32,32,113,70,17,9,2,2,0.5,0.5
2026-04-02T0000,1168A,120.9056,31.9669,南通市,狼山街道,细颗粒物(PM2.5),130,112,96,92,65,64,64,154,88,34,53,4,6,0.8,0.7
2026-04-02T0000,1170A,120.8635,32.0231,南通市,城中,细颗粒物(PM2.5),122,137,122,84,73,96,96,147,120,21,43,5,8,0.9,0.9
2026-04-02T0000,1171A,120.9376,31.9301,南通市,星湖花园,细颗粒物(PM2.5),142,133,105,106,79,76,76,138,89,25,46,4,7,1.0,1
2026-04-02T0000,1172A,120.8053,32.046,南通市,紫琅学院,细颗粒物(PM2.5),130,114,104,92,73,80,80,165,128,33,38,5,8,1.0,1.1
2026-04-02T0000,3291A,121.0631,32.0644,南通市,通州监测站,细颗粒物(PM2.5),129,119,107,91,82,86,86,144,116,21,27,3,4,1.0,0.9
2026-04-02T0000,3432A,120.9348,31.9874,南通市,环境教育馆,细颗粒物(PM2.5),134,132,102,97,70,62,62,156,108,36,39,4,7,0.9,0.9
2026-04-02T0000,4091A,120.8692,31.9885,南通市,洪江路,细颗粒物(PM2.5),146,138,107,110,81,83,83,139,102,27,49,4,7,1.2,1.1
2026-04-02T0000,2404A,112.5338,33.0086,南阳市,瓦房庄,,45,45,65,24,36,79,79,110,92,13,15,6,5,0.6,0.7
2026-04-02T0000,2405A,112.5002,32.9734,南阳市,汉画馆,,44,44,63,20,35,80,80,108,87,16,22,6,6,0.6,0.6
2026-04-02T0000,2406A,112.5778,33.0144,南阳市,气象站,,47,47,68,23,36,89,89,120,99,15,21,9,6,0.5,0.5
2026-04-02T0000,2407A,112.548,32.9687,南阳市,理工学院,,48,48,67,24,40,81,81,111,85,15,24,7,6,0.5,0.5
2026-04-02T0000,4008A,112.5233,32.9921,南阳市,卧龙区政府,,35,35,62,23,43,83,83,110,91,14,18,7,7,0.5,0.6
2026-04-02T0000,1234A,121.8352,29.9111,宁波市,区环保大楼,,49,49,33,29,22,30,30,125,76,65,39,6,7,0.4,0.3
2026-04-02T0000,1235A,121.5595,29.8208,宁波市,万里学院,细颗粒物(PM2.5),60,46,27,40,20,26,26,140,83,76,24,7,7,0.6,0.5
2026-04-02T0000,1236A,121.713,29.9564,宁波市,龙赛医院,颗粒物(PM10),65,71,39,39,22,60,60,125,63,43,31,6,6,0.6,0.5
2026-04-02T0000,1240A,121.5855,29.8635,宁波市,太古小学,颗粒物(PM10),59,62,32,36,22,23,23,107,64,67,28,3,3,0.5,0.5
2026-04-02T0000,1241A,121.5239,29.8673,宁波市,市环境监测中心,细颗粒物(PM2.5),52,46,30,36,22,39,39,131,80,59,26,6,8,0.5,0.5
2026-04-02T0000,2871A,121.6156,29.9015,宁波市,万里国际学校,颗粒物(PM10),58,60,37,36,21,56,56,140,94,51,26,5,6,0.5,0.4
2026-04-02T0000,3710A,121.5593,29.8976,宁波市,白沙活动中心,,46,41,30,32,20,63,63,133,83,47,24,5,4,0.6,0.5
2026-04-02T0000,4095A,121.8962,29.7529,宁波市,中科路88号,,48,48,26,31,21,26,26,142,82,51,24,6,6,0.5,0.5
2026-04-02T0000,2341A,119.5387,26.6611,宁德市,宁德市监测站,,38,11,14,3,9,120,120,117,114,12,18,4,5,0.5,0.6
2026-04-02T0000,3209A,119.5231,26.6562,宁德市,宁德一中,,36,10,13,3,9,114,114,116,114,8,12,5,5,0.3,0.3
2026-04-02T0000,2618A,98.859,25.8541,怒江傈僳族自治州,州监测站,,49,41,43,34,31,56,56,65,64,3,9,7,7,0.2,0.5
2026-04-02T0000,2619A,98.8607,25.8168,怒江傈僳族自治州,泸水一中,细颗粒物(PM2.5),60,41,44,40,34,32,32,35,31,19,25,5,6,0.8,0.8
2026-04-02T0000,1888A,101.6891,26.571,攀枝花市,弄弄坪,,39,35,34,27,19,92,92,104,89,7,16,3,13,0.5,1.2
2026-04-02T0000,1889A,101.577,26.5914,攀枝花市,河门口,,32,32,34,18,21,96,96,107,102,5,12,6,10,0.4,0.8
2026-04-02T0000,1891A,101.7365,26.4986,攀枝花市,仁和,,37,37,31,22,22,87,87,103,98,7,8,5,6,0.5,0.5
2026-04-02T0000,2835A,101.7222,26.567,攀枝花市,四十中小,,31,26,27,18,16,97,97,104,99,5,9,5,8,0.5,0.6
2026-04-02T0000,1604A,122.0303,41.1489,盘锦市,开发区,细颗粒物(PM2.5),56,53,73,38,19,42,42,96,75,25,9,6,6,0.5,0.3
2026-04-02T0000,1605A,122.0486,41.0883,盘锦市,兴隆台,"颗粒物(PM10),细颗粒物(PM2.5)",52,52,76,36,19,38,38,96,76,42,16,4,5,0.5,0.4
2026-04-02T0000,1606A,121.8297,41.1026,盘锦市,新生街道,,37,37,68,24,18,0,0,88,56,49,12,9,5,0.7,0.3
2026-04-02T0000,1832A,113.3257,33.7423,平顶山市,新华旅馆,颗粒物(PM10),57,59,65,37,33,74,74,122,100,20,18,5,5,0.4,0.4
2026-04-02T0000,1833A,113.2917,33.737,平顶山市,规划设计院,颗粒物(PM10),63,67,62,34,33,75,75,117,98,17,15,5,5,0.6,0.5
2026-04-02T0000,1834A,113.182,33.7738,平顶山市,平顶山工学院,,47,47,55,31,36,79,79,120,102,17,15,2,4,0.4,0.4
2026-04-02T0000,3594A,112.8736,33.9068,平顶山市,石龙区,颗粒物(PM10),77,87,70,36,30,56,56,127,NA,38,27,9,8,0.8,0.7
2026-04-02T0000,4116A,113.284,33.7139,平顶山市,姚电大道23号,颗粒物(PM10),66,72,59,39,34,79,79,116,99,18,21,6,5,0.5,0.4
2026-04-02T0000,2656A,106.6633,35.5338,平凉市,聚贤嘉苑,颗粒物(PM10),55,57,50,20,17,48,48,110,82,33,24,6,7,0.3,0.3
2026-04-02T0000,2657A,106.7021,35.5307,平凉市,博物馆,颗粒物(PM10),52,52,53,21,18,49,49,108,78,25,20,7,8,0.5,0.5
2026-04-02T0000,2348A,113.8384,27.6436,萍乡市,中医院,颗粒物(PM10),51,51,44,24,29,92,92,126,106,16,20,4,6,1.0,1
2026-04-02T0000,2350A,113.8677,27.6438,萍乡市,市环保局,,34,34,33,19,28,95,95,149,120,9,10,6,7,1.0,0.9
2026-04-02T0000,2351A,113.8663,27.6202,萍乡市,安源区政府,,31,31,34,18,28,74,74,116,97,14,12,8,5,0.4,0.5
2026-04-02T0000,4107A,113.8686,27.6668,萍乡市,联洪村委会,,33,33,48,23,31,94,94,128,115,8,16,2,5,0.4,0.5
2026-04-02T0000,2319A,119.0142,25.4324,莆田市,荔城区仓后路,,33,14,16,3,6,103,103,127,111,10,14,/,/,/,/
2026-04-02T0000,2320A,119.0016,25.4553,莆田市,莆田市监测站,,34,10,16,3,6,106,106,131,112,6,11,2,3,0.5,0.7
2026-04-02T0000,2321A,119.112,25.4561,莆田市,涵江区六中,,34,10,13,3,3,106,106,128,115,8,16,/,/,0.5,0.6
2026-04-02T0000,2322A,119.1014,25.3215,莆田市,秀屿区政府,,35,12,14,3,4,109,109,130,120,7,8,3,3,0.6,0.7
2026-04-02T0000,2392A,115.0312,35.7636,濮阳市,环保局,细颗粒物(PM2.5),134,110,54,97,41,88,88,130,114,34,22,6,4,0.9,0.6
2026-04-02T0000,3021A,115,35.7667,濮阳市,濮水河管理处,细颗粒物(PM2.5),136,138,70,99,42,81,81,140,112,30,20,3,3,0.7,0.5
2026-04-02T0000,4118A,115.0552,35.7816,濮阳市,中原东路68号,细颗粒物(PM2.5),133,151,75,96,39,84,84,137,111,29,19,4,6,0.8,0.6
2026-04-02T0000,4216A,115.0923632,35.76857718,濮阳市,任丘路479号,细颗粒物(PM2.5),138,145,77,101,44,88,88,130,106,25,23,6,6,0.9,0.5
2026-04-02T0000,2601A,100.9801,22.7634,普洱市,市环保局,颗粒物(PM10),83,95,88,48,41,51,51,114,76,8,13,7,7,0.8,0.7
2026-04-02T0000,2602A,100.9763,22.8237,普洱市,普洱第二中学,细颗粒物(PM2.5),88,85,77,54,44,49,49,113,91,25,22,10,10,0.8,0.6
2026-04-02T0000,3345A,131.0413,45.7795,七台河市,中波台,细颗粒物(PM2.5),264,257,109,214,66,148,148,129,129,32,16,15,7,1.0,0.4
2026-04-02T0000,3637A,131.0136,45.7688,七台河市,人民广场,细颗粒物(PM2.5),219,294,101,169,58,122,122,105,105,41,20,17,11,1.2,0.7
2026-04-02T0000,3684A,130.8639,45.8144,七台河市,新建矿广场,细颗粒物(PM2.5),266,295,126,216,82,122,122,114,114,27,24,14,13,1.0,0.7
2026-04-02T0000,1779A,123.9307,47.3641,齐齐哈尔市,安居小区,颗粒物(PM10),52,52,40,34,14,74,74,93,84,7,5,8,10,0.4,0.3
2026-04-02T0000,1780A,123.9497,47.3389,齐齐哈尔市,中心广场,NA,NA,NA,35,NA,8,NA,NA,87,NA,NA,9,NA,4,NA,0.6
2026-04-02T0000,1781A,123.9483,47.3229,齐齐哈尔市,农牧车辆厂,颗粒物(PM10),55,56,37,29,13,72,72,90,84,8,6,7,7,0.2,0.2
2026-04-02T0000,1783A,123.9442,47.2994,齐齐哈尔市,市环境监测站,颗粒物(PM10),52,52,40,34,14,73,73,92,85,9,6,3,3,0.5,0.4
2026-04-02T0000,3662A,123.6341,47.2079,齐齐哈尔市,富区青少年活动中心,,45,45,40,23,16,55,55,84,67,8,7,3,4,0.4,0.3
2026-04-02T0000,2591A,107.9765,26.5724,黔东南苗族侗族自治州,市环境监测站,,29,29,32,18,20,57,57,67,49,8,14,4,3,0.5,0.6
2026-04-02T0000,2881A,107.8909,26.531,黔东南苗族侗族自治州,凯里学院,,41,41,30,28,22,32,32,74,55,17,12,3,3,0.7,0.7
2026-04-02T0000,2593A,107.5223,26.2371,黔南布依族苗族自治州,小围寨,,27,7,13,6,11,84,84,83,82,6,7,6,5,0.4,0.5
2026-04-02T0000,3538A,107.5175,26.2977,黔南布依族苗族自治州,沙坝,,21,6,13,3,9,66,66,67,65,5,6,4,4,0.7,0.7
2026-04-02T0000,2589A,104.9022,25.0943,黔西南布依族苗族自治州,场坝街,,28,28,21,18,17,85,85,84,84,6,6,6,6,0.4,0.4
2026-04-02T0000,2590A,104.8812,25.0994,黔西南布依族苗族自治州,坪东大道,NA,NA,32,26,18,17,85,85,83,83,NA,6,6,6,0.6,0.6
2026-04-02T0000,2502A,108.6238,21.9667,钦州市,市环保站,颗粒物(PM10),51,51,32,35,13,62,62,88,76,18,14,11,5,0.7,0.8
2026-04-02T0000,2503A,108.655,21.9481,钦州市,沙埠小学,细颗粒物(PM2.5),58,56,30,39,17,40,40,95,79,31,11,6,6,0.8,0.7
2026-04-02T0000,2504A,108.5989,21.7435,钦州市,港区一小,细颗粒物(PM2.5),64,56,35,42,17,55,55,91,79,29,20,4,4,0.8,0.7
2026-04-02T0000,3404A,108.5959,21.9634,钦州市,北职校,,46,46,26,32,14,56,56,92,81,21,11,7,5,0.7,0.7
2026-04-02T0000,1046A,119.5247,39.9346,秦皇岛市,建设大厦,颗粒物(PM10),86,100,73,24,16,15,15,90,59,58,22,9,8,0.5,0.5
2026-04-02T0000,3132A,119.5979,39.938,秦皇岛市,文明里,颗粒物(PM10),73,81,83,29,18,31,31,82,65,51,22,13,12,0.5,0.5
2026-04-02T0000,4066A,119.7458,39.9952,秦皇岛市,南园路157号,颗粒物(PM10),52,52,71,12,16,6,6,85,46,81,33,8,8,0.4,0.4
2026-04-02T0000,4067A,119.5131,39.8858,秦皇岛市,翠岛大街1号,颗粒物(PM10),58,61,60,29,16,23,23,87,70,66,23,10,10,0.5,0.4
2026-04-02T0000,4198A,119.509013,39.825305,秦皇岛市,北戴河轮滑馆,颗粒物(PM10),68,74,79,26,17,6,6,89,67,84,24,8,9,0.5,0.4
2026-04-02T0000,1310A,120.404,36.0625,青岛市,市南区东部子站,颗粒物(PM10),51,51,75,27,59,106,106,106,96,1,18,9,11,1.1,0.7
2026-04-02T0000,1311A,120.362344,36.10282,青岛市,四方区子站,细颗粒物(PM2.5),137,119,101,100,82,67,67,130,100,31,31,5,8,1.3,1
2026-04-02T0000,1312A,120.294373,36.054183,青岛市,市南区西部子站,颗粒物(PM10),56,58,75,28,60,99,99,96,91,11,29,3,5,1.3,0.9
2026-04-02T0000,1313A,120.4581,36.0858,青岛市,崂山区子站,颗粒物(PM10),55,56,73,36,55,100,100,108,102,20,33,7,9,1.0,0.6
2026-04-02T0000,1315A,120.3945,36.3083,青岛市,城阳区子站,细颗粒物(PM2.5),142,136,95,106,64,90,90,150,108,24,26,6,8,1.1,0.9
2026-04-02T0000,3642A,120.3454,36.0735,青岛市,市北区南部,颗粒物(PM10),62,66,82,23,61,92,92,125,103,6,17,2,5,1.1,0.8
2026-04-02T0000,3643A,120.3897,36.18,青岛市,李沧区北部,细颗粒物(PM2.5),140,129,96,104,74,69,69,137,98,30,30,8,10,1.0,0.8
2026-04-02T0000,4110A,120.5222,36.4089,青岛市,盟旺路653号,细颗粒物(PM2.5),140,113,68,103,48,105,105,144,120,17,16,3,4,1.1,0.8
2026-04-02T0000,4290A,120.196923,35.954556,青岛市,珠江路669号,颗粒物(PM10),101,122,93,32,58,85,85,122,105,20,23,4,6,1.4,0.9
2026-04-02T0000,4291A,120.0424,35.8656,青岛市,黄岛区人民政府广场,细颗粒物(PM2.5),114,146,84,75,56,88,88,126,98,20,23,8,9,1.5,1
2026-04-02T0000,1703A,113.0218,23.7086,清远市,凤城街办,,24,22,11,14,7,74,74,117,92,18,16,/,/,/,/
2026-04-02T0000,3025A,113.0479,23.6343,清远市,技师学院,,29,29,11,18,7,39,39,114,80,41,17,7,6,0.7,0.5
2026-04-02T0000,3318A,112.9898,23.7403,清远市,清新太和,,24,16,10,9,6,75,75,134,107,12,11,6,7,0.6,0.6
2026-04-02T0000,3455A,113.076,23.72,清远市,清城东城,,25,21,10,10,5,78,78,119,96,15,14,/,/,/,/
2026-04-02T0000,2661A,107.6325,35.7357,庆阳市,庆阳五中,,44,44,55,24,22,87,87,116,99,17,15,3,2,0.4,0.3
2026-04-02T0000,2662A,107.6361,35.7067,庆阳市,市环保局,,44,44,52,15,21,101,101,115,108,16,14,10,8,0.6,0.5
2026-04-02T0000,1916A,103.7897,25.5036,曲靖市,环境监测站,,42,42,33,22,18,98,98,119,110,7,10,4,6,0.4,0.6
2026-04-02T0000,1917A,103.8013,25.5357,曲靖市,烟厂办公区,,38,38,31,21,16,88,88,110,99,5,7,8,9,0.5,0.6
2026-04-02T0000,3376A,103.7926,25.4651,曲靖市,南苑二区,,40,40,31,25,17,89,89,105,98,8,11,4,4,0.5,0.6
2026-04-02T0000,3377A,103.7442,25.5259,曲靖市,曲靖师范学院,,45,36,28,31,19,91,91,119,106,9,8,2,4,0.5,0.5
2026-04-02T0000,1264A,118.8694,28.94,衢州市,环保大楼,,32,32,19,20,12,58,58,110,89,16,13,/,/,/,/
2026-04-02T0000,1266A,118.8622,28.9809,衢州市,衢州学院,,40,40,18,24,12,8,8,114,78,65,15,3,3,0.5,0.5
2026-04-02T0000,4097A,118.9646,28.9832,衢州市,衢州三中,,36,36,17,19,10,62,62,113,92,18,16,6,6,0.5,0.7
2026-04-02T0000,1611A,118.5818,24.9116,泉州市,涂山街,,25,12,17,6,11,77,77,103,92,16,15,5,4,0.6,0.6
2026-04-02T0000,1612A,118.597,24.8976,泉州市,津头埔,,28,12,17,3,12,87,87,112,101,13,14,4,3,0.6,0.6
2026-04-02T0000,1613A,118.6669,24.9422,泉州市,万安,,25,13,19,3,13,78,78,104,94,12,13,4,4,0.6,0.6
2026-04-02T0000,4105A,118.6355,24.9148,泉州市,霞新路6号,,25,9,14,3,12,77,77,102,91,15,14,/,/,0.5,0.5
2026-04-02T0000,2626A,88.8873,29.2723,日喀则市,日喀则监测站,,27,20,17,6,4,86,86,107,97,7,5,9,9,0.3,0.3
2026-04-02T0000,3726A,88.8775,29.2425,日喀则市,林业技术推广中心,,30,23,12,3,2,95,95,109,102,3,3,5,6,0.3,0.3
2026-04-02T0000,1659A,119.4711,35.421,日照市,监测站,细颗粒物(PM2.5),134,144,112,97,83,14,14,143,59,63,48,7,10,1.2,1.1
2026-04-02T0000,1660A,119.523,35.4216,日照市,市政府广场,细颗粒物(PM2.5),110,83,111,70,94,37,37,132,72,38,35,5,8,1.2,1.1
2026-04-02T0000,1661A,119.5511,35.4113,日照市,港务局,,48,48,108,18,79,42,42,120,82,51,41,4,7,1.1,1.1
2026-04-02T0000,3507A,119.5326,35.4627,日照市,职业技术学院,细颗粒物(PM2.5),101,68,109,61,85,59,59,136,88,25,38,6,9,1.3,1.3
2026-04-02T0000,3604A,119.3267,35.1043,日照市,岚山环保分局,细颗粒物(PM2.5),121,105,148,83,108,66,66,144,88,48,46,20,22,2.0,1.7
2026-04-02T0000,1835A,111.1922,34.7752,三门峡市,市政府,颗粒物(PM10),52,52,42,32,19,100,100,116,105,14,18,12,11,0.4,0.4
2026-04-02T0000,1836A,111.1588,34.794,三门峡市,开发区,颗粒物(PM10),62,66,41,32,21,105,105,120,108,19,17,14,11,0.5,0.4
2026-04-02T0000,3039A,111.1911,34.7829,三门峡市,三门峡市第一小学,细颗粒物(PM2.5),58,51,43,39,19,108,108,119,110,13,14,17,13,0.4,0.4
2026-04-02T0000,3598A,111.1031,34.719,三门峡市,富达温泉假日酒店,颗粒物(PM10),63,67,53,26,23,97,97,125,110,18,22,17,15,0.3,0.3
2026-04-02T0000,2324A,117.621,26.2626,三明市,三钢,,30,NA,13,21,7,28,28,106,59,24,16,4,11,0.6,1.1
2026-04-02T0000,2325A,117.6352,26.2714,三明市,三明二中,,24,24,15,15,5,31,31,100,62,21,11,3,4,0.6,0.6
2026-04-02T0000,2326A,117.6028,26.2377,三明市,三元区政府,,33,33,13,20,7,21,21,103,54,24,12,6,5,0.8,0.6
2026-04-02T0000,1877A,109.4962,18.2682,三亚市,河西子站,,35,29,34,24,22,58,58,71,60,4,8,4,4,0.5,0.5
2026-04-02T0000,3540A,109.7348,18.3443,三亚市,君悦子站,,35,34,34,24,21,62,62,66,62,4,9,3,4,0.5,0.5
2026-04-02T0000,4135A,109.1714,18.3739,三亚市,城东小学站,,37,37,38,24,25,48,48,72,57,9,7,/,/,/,/
2026-04-02T0000,2624A,91.7592,29.234,山南市,山南监测站,,32,8,14,3,4,101,101,108,107,1,3,8,8,0.3,0.3
2026-04-02T0000,2625A,91.7701,29.2436,山南市,山南人民医院,,32,13,19,3,6,100,100,106,105,1,3,8,9,0.3,0.3
2026-04-02T0000,1674A,116.6795,23.3666,汕头市,金平子站,,35,16,22,7,13,109,109,140,127,13,15,5,6,0.7,0.8
2026-04-02T0000,1675A,116.7248,23.3632,汕头市,龙湖子站,,32,19,24,9,13,100,100,128,119,13,14,5,6,/,/
2026-04-02T0000,1676A,116.7257,23.2774,汕头市,濠江子站,,31,14,20,3,10,99,99,125,117,11,15,8,8,/,/
2026-04-02T0000,1677A,116.7518,23.4712,汕头市,澄海子站,,36,36,23,7,12,90,90,119,110,12,10,8,7,0.7,0.8
2026-04-02T0000,1678A,116.6088,23.2539,汕头市,潮阳子站,,34,10,18,6,11,106,106,132,122,4,7,6,6,0.6,0.6
2026-04-02T0000,3444A,116.4539,23.2684,汕头市,潮南峡山,,33,18,18,6,10,105,105,132,126,8,8,6,7,0.8,0.8
2026-04-02T0000,3624A,116.4069,23.2533,汕头市,潮南子站,,30,14,21,8,12,96,96,113,111,7,8,7,6,/,/
2026-04-02T0000,1693A,115.3653,22.7751,汕尾市,市环保局,,35,24,20,24,12,97,97,100,98,7,9,5,5,0.6,0.6
2026-04-02T0000,1695A,115.362,22.7926,汕尾市,新城中学,,33,NA,19,23,10,87,87,102,96,10,11,6,6,0.6,0.6
