timepoint,stationcode,longitude,latitude,area,positionname,primarypollutant,aqi,pm10,pm10_24h,pm2_5,pm2_5_24h,o3,o3_24h,o3_8h,o3_8h_24h,no2,no2_24h,so2,so2_24h,co,co_24h
2026-04-02T0600,2568A,102.2503,31.8896,阿坝藏族羌族自治州,马师校,,15,15,19,6,9,31,31,NA,NA,2,6,5,5,0.3,0.2
2026-04-02T0600,3994A,102.2174,31.9016,阿坝藏族羌族自治州,马尔康中学西区,,12,9,14,3,8,37,37,NA,NA,4,6,3,3,0.3,0.2
2026-04-02T0600,2695A,80.2899,41.1684,阿克苏地区,电视台,颗粒物(PM10),111,147,170,65,63,19,19,NA,NA,42,31,3,3,0.8,0.5
2026-04-02T0600,2696A,80.2592,41.1541,阿克苏地区,艺术中心,颗粒物(PM10),123,179,172,73,54,2,2,NA,NA,68,38,5,5,0.9,0.4
2026-04-02T0600,2205A,105.699,38.8409,阿拉善盟,蒙二幼,,39,39,42,7,8,106,106,NA,NA,4,7,9,9,0.4,0.5
2026-04-02T0600,2206A,105.7198,38.8508,阿拉善盟,环保局新楼,,40,40,38,13,9,106,106,NA,NA,3,4,8,8,0.5,0.5
2026-04-02T0600,2708A,88.1266,47.8515,阿勒泰地区,市站,,26,8,13,3,3,82,82,NA,NA,2,6,5,5,0.3,0.3
2026-04-02T0600,4166A,88.1198,47.7931,阿勒泰地区,阿勒泰路33号,,26,7,13,3,2,83,83,NA,NA,3,7,5,5,0.2,0.2
2026-04-02T0600,2630A,80.1171,32.4999,阿里地区,阿里监测站,,28,7,8,3,2,88,88,NA,NA,2,2,5,6,0.3,0.3
2026-04-02T0600,3192A,80.0906,32.5029,阿里地区,阿里藏医院,,27,9,8,3,3,86,86,NA,NA,2,1,9,6,0.3,0.2
2026-04-02T0600,2644A,109.0088,32.6974,安康市,汉滨区检察院,,29,29,37,13,16,22,22,NA,NA,9,13,6,8,0.4,0.4
2026-04-02T0600,4054A,109.0324,32.6913,安康市,市邮政管理局,,41,41,42,19,19,24,24,NA,NA,12,19,55,28,0.5,0.6
2026-04-02T0600,2291A,117.0806,30.5181,安庆市,环科院,颗粒物(PM10),70,78,61,39,45,0,0,NA,NA,73,41,6,6,0.6,0.6
2026-04-02T0600,2292A,117.0331,30.5118,安庆市,马山宾馆,细颗粒物(PM2.5),56,38,49,38,41,17,17,NA,NA,52,35,5,5,0.6,0.6
2026-04-02T0600,2294A,116.9897,30.6146,安庆市,安庆大学,,44,44,56,23,35,26,26,NA,NA,22,21,3,4,0.7,0.6
2026-04-02T0600,3173A,117.0598,30.5351,安庆市,市人大,细颗粒物(PM2.5),58,45,51,39,36,13,13,NA,NA,50,26,7,7,0.6,0.6
2026-04-02T0600,3123A,105.9408,26.2431,安顺市,凤凰山,,26,26,20,14,15,57,57,NA,NA,9,9,6,9,0.5,0.5
2026-04-02T0600,3124A,105.9443,26.2567,安顺市,金钟山,,28,NA,16,19,14,56,56,NA,NA,5,7,7,11,0.6,0.6
2026-04-02T0600,3125A,105.8983,26.248,安顺市,娄家坡,,23,19,18,16,14,63,63,NA,NA,4,6,12,14,0.8,0.7
2026-04-02T0600,1819A,114.3552,36.1017,安阳市,红庙街,细颗粒物(PM2.5),123,NA,94,85,74,54,54,NA,NA,23,22,4,7,0.6,0.6
2026-04-02T0600,1820A,114.361,36.0681,安阳市,银杏小区,细颗粒物(PM2.5),118,81,83,79,76,57,57,NA,NA,26,23,4,7,0.8,0.7
2026-04-02T0600,3141A,114.3921,36.0879,安阳市,信访局,细颗粒物(PM2.5),123,NA,83,85,75,48,48,NA,NA,28,19,NA,6,0.8,0.7
2026-04-02T0600,3669A,114.4706,36.0634,安阳市,左辅环卫站,细颗粒物(PM2.5),124,124,115,86,78,55,55,NA,NA,17,16,5,7,0.7,0.7
2026-04-02T0600,4117A,114.2918,36.0769,安阳市,钢三路198号,细颗粒物(PM2.5),120,111,114,82,73,37,37,NA,NA,21,18,NA,7,0.9,0.9
2026-04-02T0600,1748A,123.0441,41.1201,鞍山市,深沟寺,细颗粒物(PM2.5),88,86,115,54,41,31,31,NA,NA,32,21,9,10,1.0,0.7
2026-04-02T0600,1749A,123.011,41.0931,鞍山市,太阳城,细颗粒物(PM2.5),82,71,105,51,42,47,47,NA,NA,22,17,9,10,0.6,0.6
2026-04-02T0600,1750A,123.0483,41.1445,鞍山市,太平,细颗粒物(PM2.5),90,93,120,55,43,24,24,NA,NA,36,22,10,10,1.2,0.9
2026-04-02T0600,1751A,122.964,41.0968,鞍山市,铁西三道街,细颗粒物(PM2.5),112,129,122,73,47,4,4,NA,NA,66,35,9,20,0.8,1.4
2026-04-02T0600,1753A,123.0219,41.0822,鞍山市,明达新区,细颗粒物(PM2.5),86,82,102,53,38,38,38,NA,NA,29,20,9,10,0.8,0.7
2026-04-02T0600,4201A,122.944647,41.082639,鞍山市,兴盛南路290号,细颗粒物(PM2.5),108,132,123,68,49,3,3,NA,NA,61,34,9,17,0.8,1.1
2026-04-02T0600,2195A,107.4206,40.7609,巴彦淖尔市,附二中,颗粒物(PM10),53,54,55,18,17,37,37,NA,NA,20,12,11,11,0.4,0.4
2026-04-02T0600,2196A,107.37,40.7372,巴彦淖尔市,市环保大楼,NA,NA,34,50,16,17,35,35,NA,NA,19,13,NA,7,0.4,0.4
2026-04-02T0600,1956A,86.1476,41.7529,巴音郭楞蒙古自治州,孔雀公园,颗粒物(PM10),95,112,171,36,47,96,96,NA,NA,6,20,10,11,0.4,0.4
2026-04-02T0600,1957A,86.1971,41.7166,巴音郭楞蒙古自治州,棉纺厂,颗粒物(PM10),141,226,215,37,47,77,77,NA,NA,20,27,/,/,/,/
2026-04-02T0600,1958A,86.236,41.7172,巴音郭楞蒙古自治州,经济开发区,颗粒物(PM10),69,76,170,32,43,85,85,NA,NA,11,15,10,8,0.3,0.4
2026-04-02T0600,3181A,106.776805,31.852614,巴中市,市五中,,32,32,30,14,17,40,40,NA,NA,10,20,7,8,0.6,0.6
2026-04-02T0600,3183A,106.7419,31.8654,巴中市,圣泉水务公司,,19,19,25,13,16,46,46,NA,NA,10,16,9,10,0.7,0.7
2026-04-02T0600,3616A,106.7617,31.8343,巴中市,市中心医院,,28,26,29,19,19,55,55,NA,NA,10,18,8,8,0.6,0.6
2026-04-02T0600,2235A,122.7909,45.608,白城市,洮北区环保局,NA,NA,45,38,23,21,58,58,NA,NA,15,16,NA,6,0.2,0.3
2026-04-02T0600,2236A,122.8741,45.5725,白城市,市环保局,颗粒物(PM10),53,53,41,24,21,31,31,NA,NA,26,11,3,4,0.4,0.4
2026-04-02T0600,2231A,126.4219,41.9172,白山市,喜丰,细颗粒物(PM2.5),129,148,117,91,60,24,24,NA,NA,40,30,8,9,1.0,1
2026-04-02T0600,2232A,126.4082,41.9416,白山市,环保局,细颗粒物(PM2.5),124,98,88,86,57,47,47,NA,NA,19,18,11,10,0.9,0.9
2026-04-02T0600,2647A,104.1727,36.5448,白银市,第三小学,颗粒物(PM10),78,88,83,28,26,28,28,NA,NA,37,32,42,21,0.6,0.5
2026-04-02T0600,2648A,104.1467,36.5482,白银市,动力公司,NA,NA,NA,72,26,25,18,18,NA,NA,41,32,10,10,1.0,0.6
2026-04-02T0600,2512A,106.6102,23.901,百色市,市监测站,,50,50,33,26,14,80,80,NA,NA,15,16,20,19,0.6,0.6
2026-04-02T0600,2513A,106.6524,23.8842,百色市,市中心血站,,45,44,36,31,19,83,83,NA,NA,12,13,16,19,0.7,0.6
2026-04-02T0600,4133A,106.6273,23.8798,百色市,龙景西路,细颗粒物(PM2.5),62,53,45,41,21,82,82,NA,NA,13,14,27,23,0.6,0.5
2026-04-02T0600,2270A,117.396,32.9389,蚌埠市,工人疗养院,细颗粒物(PM2.5),102,97,91,62,55,108,108,NA,NA,12,23,5,5,0.4,0.4
2026-04-02T0600,2271A,117.3606,32.9428,蚌埠市,百货大楼,细颗粒物(PM2.5),82,78,72,51,48,86,86,NA,NA,15,22,5,6,0.6,0.5
2026-04-02T0600,2273A,117.4183,32.8909,蚌埠市,蚌埠学院,细颗粒物(PM2.5),108,75,73,68,60,82,82,NA,NA,14,18,4,5,0.6,0.6
2026-04-02T0600,2274A,117.3534,32.9672,蚌埠市,淮上区政府,细颗粒物(PM2.5),108,88,76,68,56,94,94,NA,NA,15,21,6,5,0.5,0.5
2026-04-02T0600,2275A,117.3143,32.8977,蚌埠市,高新区,细颗粒物(PM2.5),102,80,73,62,54,77,77,NA,NA,17,18,7,7,0.6,0.6
2026-04-02T0600,3715A,117.3091,32.9314,蚌埠市,蚌埠田家炳中学,细颗粒物(PM2.5),96,92,87,58,54,99,99,NA,NA,12,20,7,7,0.6,0.5
2026-04-02T0600,1585A,109.8761,40.6533,包头市,市环境监测站,颗粒物(PM10),53,53,52,24,24,44,44,NA,NA,43,42,9,11,0.7,0.6
2026-04-02T0600,1587A,109.9992,40.5843,包头市,包头八中,细颗粒物(PM2.5),84,78,67,52,33,20,20,NA,NA,63,42,17,12,1.8,0.8
2026-04-02T0600,1589A,109.8641,40.6288,包头市,惠龙物流,细颗粒物(PM2.5),72,58,49,46,26,37,37,NA,NA,42,35,10,10,0.5,0.5
2026-04-02T0600,1590A,110.0376,40.5546,包头市,东河鸿龙湾,细颗粒物(PM2.5),64,68,44,42,27,2,2,NA,NA,87,42,17,12,1.2,0.7
2026-04-02T0600,3283A,109.9154,40.5684,包头市,滨河大厦,,47,47,43,31,25,10,10,NA,NA,71,44,11,10,0.6,0.6
2026-04-02T0600,3419A,109.9449,40.6259,包头市,包头市委党校,颗粒物(PM10),54,55,43,31,20,33,33,NA,NA,46,37,11,10,0.7,0.6
2026-04-02T0600,3683A,109.8332,40.6577,包头市,昆区政府,颗粒物(PM10),65,70,54,42,32,20,20,NA,NA,69,53,4,9,0.8,0.7
2026-04-02T0600,1931A,107.0802,34.3129,宝鸡市,竹园沟,,32,32,42,16,22,26,26,NA,NA,17,18,6,7,0.3,0.3
2026-04-02T0600,1933A,107.1429,34.3549,宝鸡市,监测站,,37,37,54,20,24,25,25,NA,NA,19,21,6,6,0.3,0.4
2026-04-02T0600,1934A,107.1172,34.3759,宝鸡市,技工学校,,49,49,63,29,31,33,33,NA,NA,12,15,9,6,0.5,0.5
2026-04-02T0600,1936A,107.2025,34.3518,宝鸡市,文理学院,,44,44,55,24,26,33,33,NA,NA,11,13,5,6,0.5,0.5
2026-04-02T0600,1937A,107.2396,34.3626,宝鸡市,三迪小学,颗粒物(PM10),59,62,60,33,30,19,19,NA,NA,29,27,5,5,0.5,0.5
2026-04-02T0600,4155A,107.1721,34.3558,宝鸡市,滨河北路,颗粒物(PM10),55,57,59,32,32,31,31,NA,NA,15,21,6,7,0.5,0.5
2026-04-02T0600,4308A,107.3898,34.3601,宝鸡市,陈仓区北开路21号,NA,NA,54,65,30,33,NA,NA,NA,NA,31,23,13,18,0.6,0.6
2026-04-02T0600,1051A,115.4803,38.8568,保定市,游泳馆,颗粒物(PM10),102,124,104,41,30,17,17,NA,NA,59,28,3,4,0.3,0.3
2026-04-02T0600,1052A,115.509,38.8895,保定市,华电二区,颗粒物(PM10),93,110,88,33,26,12,12,NA,NA,42,22,4,4,0.5,0.5
2026-04-02T0600,1053A,115.4588,38.9037,保定市,接待中心,颗粒物(PM10),96,114,88,34,29,35,35,NA,NA,35,23,4,4,0.4,0.4
2026-04-02T0600,1054A,115.4484,38.8344,保定市,地表水厂,颗粒物(PM10),110,146,104,41,25,19,19,NA,NA,58,27,4,4,0.1,0.1
2026-04-02T0600,3581A,115.3136,38.9511,保定市,满城区生态环境分局,颗粒物(PM10),107,136,121,36,26,22,22,NA,NA,47,24,3,3,0.5,0.4
2026-04-02T0600,3582A,115.4709,38.7628,保定市,清苑区第二中学,颗粒物(PM10),106,134,133,32,33,11,11,NA,NA,55,32,8,8,0.4,0.4
2026-04-02T0600,3583A,115.6231,39.0223,保定市,徐水物探局,颗粒物(PM10),107,136,128,32,27,41,41,NA,NA,29,19,2,3,0.5,0.5
2026-04-02T0600,4004A,115.4199,38.8665,保定市,双鹰农机,颗粒物(PM10),122,176,125,59,34,11,11,NA,NA,66,28,5,5,0.3,0.2
2026-04-02T0600,4034A,115.515,38.8589,保定市,植保所站,颗粒物(PM10),102,125,106,36,26,11,11,NA,NA,66,32,3,3,0.5,0.4
2026-04-02T0600,2594A,99.1589,25.1137,保山市,市环境监测站,,43,34,42,30,28,72,72,NA,NA,6,9,5,6,0.3,0.3
2026-04-02T0600,2595A,99.1616,25.1381,保山市,市环保局,,39,30,42,27,30,71,71,NA,NA,3,6,6,6,0.3,0.3
2026-04-02T0600,1867A,109.1435,21.4085,北海市,海滩公园,,40,40,37,21,22,60,60,NA,NA,12,17,11,11,0.7,0.7
2026-04-02T0600,1868A,109.0983,21.466,北海市,新市环保局,,38,38,30,18,18,49,49,NA,NA,16,15,16,13,0.9,0.9
2026-04-02T0600,1869A,109.1775,21.5232,北海市,北海工业园,,50,50,44,23,21,27,27,NA,NA,24,15,14,11,0.9,0.8
2026-04-02T0600,3400A,109.1844,21.4396,北海市,龙潭自来水厂,,40,32,32,28,25,48,48,NA,NA,12,15,9,8,0.8,0.8
2026-04-02T0600,1001A,116.3611,39.8786,北京市,万寿西宫,颗粒物(PM10),64,69,58,18,17,18,18,NA,NA,56,23,4,3,0.5,0.3
2026-04-02T0600,1003A,116.4174,39.9289,北京市,东四,颗粒物(PM10),63,67,60,17,16,23,23,NA,NA,54,20,8,7,0.4,0.3
2026-04-02T0600,1004A,116.4073,39.8858,北京市,天坛,颗粒物(PM10),53,53,54,15,15,14,14,NA,NA,43,25,3,4,0.6,0.4
2026-04-02T0600,1005A,116.4622,39.9364,北京市,农展馆,颗粒物(PM10),61,65,59,15,15,13,13,NA,NA,55,21,6,6,0.6,0.4
2026-04-02T0600,1006A,116.3399,39.9293,北京市,官园,颗粒物(PM10),60,64,54,12,15,31,31,NA,NA,44,22,4,3,0.6,0.4
2026-04-02T0600,1007A,116.2879,39.9613,北京市,海淀万柳,颗粒物(PM10),65,70,56,13,15,19,19,NA,NA,44,18,3,4,0.3,0.3
2026-04-02T0600,1008A,116.6635,40.1349,北京市,顺义新城,颗粒物(PM10),58,60,56,10,15,36,36,NA,NA,36,20,10,5,0.5,0.4
2026-04-02T0600,1009A,116.6275,40.327,北京市,怀柔镇,颗粒物(PM10),60,63,47,15,12,29,29,NA,NA,23,18,5,5,0.5,0.4
2026-04-02T0600,1010A,116.2295,40.217,北京市,昌平镇,颗粒物(PM10),60,64,50,16,13,36,36,NA,NA,24,14,3,3,0.4,0.3
2026-04-02T0600,1011A,116.3968,39.982,北京市,奥体中心,颗粒物(PM10),62,66,55,18,18,9,9,NA,NA,65,21,5,4,0.6,0.4
2026-04-02T0600,3418A,116.8336,40.4095,北京市,密云新城,颗粒物(PM10),64,69,49,15,11,20,20,NA,NA,24,12,2,3,0.5,0.4
2026-04-02T0600,3671A,116.0879,39.9725,北京市,门头沟三家店,颗粒物(PM10),80,91,67,16,16,2,2,NA,NA,53,22,2,3,0.3,0.3
2026-04-02T0600,3672A,116.1507,39.8246,北京市,丰台云岗,颗粒物(PM10),65,71,60,12,14,15,15,NA,NA,55,17,5,2,0.5,0.5
2026-04-02T0600,3674A,115.9578,39.7602,北京市,房山燕山,颗粒物(PM10),73,82,65,19,15,35,35,NA,NA,20,13,4,5,0.3,0.3
2026-04-02T0600,3675A,116.4669,39.7734,北京市,大兴旧宫,颗粒物(PM10),63,67,63,17,16,11,11,NA,NA,61,21,4,5,0.6,0.5
2026-04-02T0600,3694A,115.9859,40.4562,北京市,延庆石河营,颗粒物(PM10),66,72,49,19,14,54,54,NA,NA,14,14,1,2,0.4,0.3
2026-04-02T0600,3695A,116.6151,40.3052,北京市,怀柔新城,颗粒物(PM10),63,67,50,18,15,27,27,NA,NA,24,16,4,5,0.6,0.5
2026-04-02T0600,3696A,116.2542,39.8764,北京市,丰台小屯,颗粒物(PM10),64,69,61,16,16,32,32,NA,NA,39,22,3,3,0.4,0.3
2026-04-02T0600,3697A,116.8399,40.3843,北京市,密云镇,颗粒物(PM10),69,76,52,15,12,4,4,NA,NA,53,17,3,4,0.5,0.4
2026-04-02T0600,4057A,115.9423,40.4431,北京市,延庆百泉,颗粒物(PM10),60,64,52,14,13,51,51,NA,NA,20,17,1,1,0.3,0.3
2026-04-02T0600,4058A,116.6598,39.9164,北京市,通州新华,颗粒物(PM10),56,58,59,13,15,39,39,NA,NA,32,18,5,5,0.6,0.5
2026-04-02T0600,4182A,116.1942,39.9158,北京市,石景山八角,颗粒物(PM10),76,86,63,16,14,14,14,NA,NA,56,23,3,2,0.2,0.2
2026-04-02T0600,4194A,117.078628,40.151726,北京市,平谷新城,颗粒物(PM10),59,62,53,14,13,38,38,NA,NA,11,12,1,2,0.5,0.5
2026-04-02T0600,1761A,123.8274146,41.31234549,本溪市,大峪,颗粒物(PM10),83,96,121,46,38,18,18,NA,NA,36,20,10,11,0.8,0.8
2026-04-02T0600,1763A,123.7169,41.3094,本溪市,彩屯,细颗粒物(PM2.5),104,98,118,64,45,31,31,NA,NA,27,22,8,10,0.9,0.7
2026-04-02T0600,1764A,123.7672166,41.28649327,本溪市,东明,细颗粒物(PM2.5),92,87,126,56,42,14,14,NA,NA,47,27,10,10,0.7,0.6
2026-04-02T0600,1765A,123.799345,41.266614,本溪市,新立屯,细颗粒物(PM2.5),80,71,118,50,40,19,19,NA,NA,46,31,7,8,0.8,0.8
2026-04-02T0600,1766A,123.829144,41.336777,本溪市,威宁,颗粒物(PM10),90,106,153,52,43,16,16,NA,NA,34,29,6,7,0.9,0.6
2026-04-02T0600,2587A,105.287,27.3133,毕节市,八中,,16,NA,36,3,25,50,50,NA,NA,4,10,10,11,0.6,0.6
2026-04-02T0600,2588A,105.3079,27.2987,毕节市,师专,,18,6,37,3,23,56,56,NA,NA,5,12,9,11,0.5,0.5
2026-04-02T0600,4263A,105.3688,27.3598,毕节市,工业大道,,21,NA,34,3,19,66,66,NA,NA,4,10,9,11,/,/
2026-04-02T0600,1629A,117.9961,37.3604,滨州市,第二水厂,颗粒物(PM10),80,92,123,44,32,34,34,NA,NA,35,25,12,17,0.7,0.3
2026-04-02T0600,1630A,117.9789,37.3931,滨州市,北中新校,颗粒物(PM10),75,85,112,41,34,28,28,NA,NA,32,26,7,14,0.8,0.5
2026-04-02T0600,3514A,117.9379,37.3959,滨州市,中海酒店,颗粒物(PM10),75,85,111,37,33,40,40,NA,NA,34,26,11,14,0.9,0.6
2026-04-02T0600,3515A,117.9381509,37.35547456,滨州市,开发区一中,颗粒物(PM10),78,88,137,43,35,28,28,NA,NA,38,27,10,16,1.0,0.7
2026-04-02T0600,3516A,118.0914,37.6938,滨州市,金海六路,颗粒物(PM10),91,107,133,30,25,50,50,NA,NA,19,19,7,10,0.2,0.3
2026-04-02T0600,4028A,117.9955,37.3752,滨州市,滨州市西街道办事处,颗粒物(PM10),79,90,136,40,34,31,31,NA,NA,27,19,12,16,0.2,0.3
2026-04-02T0600,2311A,115.8071,33.8399,亳州市,污水处理厂,细颗粒物(PM2.5),90,72,52,55,31,65,65,NA,NA,17,14,10,6,0.2,0.2
2026-04-02T0600,2312A,115.7789,33.8519,亳州市,三国揽胜宫,NA,NA,60,55,51,31,65,65,NA,NA,NA,10,6,6,0.2,0.1
2026-04-02T0600,3332A,115.7631,33.803,亳州市,亳州学院,细颗粒物(PM2.5),88,62,50,54,33,85,85,NA,NA,9,8,7,6,0.3,0.2
2026-04-02T0600,2693A,82.0482,44.8553,博尔塔拉蒙古自治州,市党校,颗粒物(PM10),58,60,81,9,18,81,81,NA,NA,2,5,3,4,0.2,0.3
2026-04-02T0600,2694A,82.0805,44.8966,博尔塔拉蒙古自治州,市环保局,颗粒物(PM10),72,80,93,22,28,46,46,NA,NA,12,23,1,3,0.4,0.4
2026-04-02T0600,1071A,116.8733,38.2922,沧州市,沧县城建局,颗粒物(PM10),76,86,118,18,30,20,20,NA,NA,65,32,3,6,0.2,0.3
2026-04-02T0600,1072A,116.8462,38.3189,沧州市,电视转播站,颗粒物(PM10),78,88,111,22,35,8,8,NA,NA,54,30,8,10,0.3,0.4
2026-04-02T0600,1073A,116.8588,38.3161,沧州市,市环保局,颗粒物(PM10),86,100,122,20,37,16,16,NA,NA,58,30,3,3,0.3,0.4
2026-04-02T0600,3324A,116.8011,38.294,沧州市,河北水利电力学院,颗粒物(PM10),80,92,125,20,34,54,54,NA,NA,28,22,4,5,0.3,0.4
2026-04-02T0600,2622A,97.1813,31.1289,昌都市,昌都监测站,,21,NA,16,3,5,66,66,NA,NA,4,9,7,6,0.6,0.6
2026-04-02T0600,3719A,97.1707,31.1428,昌都市,昌都会议中心,,20,6,11,3,6,64,64,NA,NA,3,5,5,5,0.4,0.4
2026-04-02T0600,2692A,87.2722,44.0298,昌吉回族自治州,新区政务中心,,45,40,47,31,29,91,91,NA,NA,11,20,5,6,0.6,0.7
2026-04-02T0600,3613A,87.3069,44.0093,昌吉回族自治州,亚心广场,颗粒物(PM10),51,51,61,30,27,91,91,NA,NA,8,23,7,9,0.1,0.4
2026-04-02T0600,4164A,87.2057,43.9289,昌吉回族自治州,财政所,颗粒物(PM10),86,100,55,41,21,68,68,NA,NA,7,11,8,9,0.4,0.4
2026-04-02T0600,1120A,125.2874,43.9024,长春市,客车厂,细颗粒物(PM2.5),170,141,83,129,64,31,31,NA,NA,70,43,45,11,0.9,0.6
2026-04-02T0600,1121A,125.2943,43.8508,长春市,邮电学院,细颗粒物(PM2.5),158,141,82,120,55,47,47,NA,NA,33,27,NA,10,0.8,0.5
2026-04-02T0600,1122A,125.3648,43.8745,长春市,劳动公园,细颗粒物(PM2.5),137,145,96,100,60,4,4,NA,NA,61,36,NA,9,0.8,0.5
2026-04-02T0600,1123A,125.3233,43.8781,长春市,园林处,细颗粒物(PM2.5),165,136,81,125,61,22,22,NA,NA,60,32,9,9,0.8,0.6
2026-04-02T0600,1124A,125.4604,43.7904,长春市,净月潭,细颗粒物(PM2.5),186,156,82,140,60,74,74,NA,NA,20,14,8,7,0.7,0.4
2026-04-02T0600,1126A,125.38,43.8422,长春市,经开区环卫处,细颗粒物(PM2.5),144,152,99,108,62,3,3,NA,NA,72,42,NA,6,0.8,0.6
2026-04-02T0600,1127A,125.234,43.7761,长春市,高新区管委会,细颗粒物(PM2.5),139,132,80,102,53,3,3,NA,NA,56,36,8,8,0.9,0.6
2026-04-02T0600,1128A,125.1695,43.83,长春市,岱山公园,细颗粒物(PM2.5),149,133,86,113,55,18,18,NA,NA,76,49,9,7,1.0,0.7
2026-04-02T0600,4281A,125.334645,43.916281,长春市,北亚泰大街1068号,细颗粒物(PM2.5),159,148,89,121,64,16,16,NA,NA,69,43,NA,10,0.7,0.5
2026-04-02T0600,1335A,113.082,28.2421,长沙市,经开区环保局,,36,36,44,18,24,71,71,NA,NA,20,29,6,15,0.5,0.6
2026-04-02T0600,1336A,112.8873,28.2202,长沙市,高开区环保局,,35,35,40,19,26,90,90,NA,NA,17,19,7,7,0.7,0.8
2026-04-02T0600,1337A,113.0785,28.2012,长沙市,马坡岭,,40,40,44,22,25,77,77,NA,NA,18,29,5,5,0.8,0.7
2026-04-02T0600,1338A,112.9448,28.1894,长沙市,湖南师范大学,,40,40,42,21,26,98,98,NA,NA,11,19,6,6,0.6,0.8
2026-04-02T0600,1339A,113.0177,28.1322,长沙市,雨花区环保局,,36,36,40,17,21,108,108,NA,NA,4,16,6,5,0.7,0.9
2026-04-02T0600,1340A,112.9795,28.2593,长沙市,伍家岭,颗粒物(PM10),58,61,57,33,32,15,15,NA,NA,53,38,5,4,0.7,0.8
2026-04-02T0600,1341A,113.002,28.1944,长沙市,火车新站,,38,38,46,23,28,83,83,NA,NA,20,29,5,5,0.6,0.7
2026-04-02T0600,1342A,112.9846,28.1177,长沙市,天心区环保局,,37,37,44,24,32,111,111,NA,NA,11,24,8,7,0.6,0.8
2026-04-02T0600,1343A,112.8906,28.1307,长沙市,湖南中医药大学,,38,38,48,20,26,105,105,NA,NA,11,32,8,6,0.6,0.8
2026-04-02T0600,1727A,113.1146,36.1547,长治市,清华站,细颗粒物(PM2.5),68,NA,42,44,27,31,31,NA,NA,20,13,7,8,0.7,0.6
2026-04-02T0600,1730A,113.0887,36.2126,长治市,审计局,细颗粒物(PM2.5),120,NA,46,81,38,40,40,NA,NA,27,17,11,11,1.5,0.7
2026-04-02T0600,1731A,113.0845,36.1856,长治市,长治八中,细颗粒物(PM2.5),102,68,59,62,34,24,24,NA,NA,29,18,10,11,0.9,0.6
2026-04-02T0600,2845A,113.1561,36.1912,长治市,德盛苑,细颗粒物(PM2.5),70,46,36,45,24,71,71,NA,NA,11,12,8,8,0.8,0.7
2026-04-02T0600,3568A,113.0603,36.0464,长治市,向阳小学,细颗粒物(PM2.5),78,76,62,49,27,55,55,NA,NA,19,14,8,8,0.8,0.6
2026-04-02T0600,3569A,112.8788,36.315,长治市,屯留一中,,46,40,43,32,25,19,19,NA,NA,40,22,8,10,0.9,0.6
2026-04-02T0600,4189A,113.113092,36.199482,长治市,英华南巷50号,细颗粒物(PM2.5),114,NA,52,75,38,38,38,NA,NA,24,16,8,8,1.3,0.9
2026-04-02T0600,4190A,113.23666,36.33435,长治市,学府街1号,细颗粒物(PM2.5),96,58,57,58,39,26,26,NA,NA,23,20,3,8,1.0,1
2026-04-02T0600,1854A,111.696,28.9725,常德市,市二中,,43,43,32,18,16,101,101,NA,NA,6,17,8,9,0.9,0.9
2026-04-02T0600,3138A,111.7152,29.0288,常德市,武陵区永安,,45,45,35,28,20,88,88,NA,NA,12,12,9,6,0.9,0.7
2026-04-02T0600,3139A,111.6891,28.9881,常德市,鼎城区玉霞,NA,NA,NA,30,NA,19,NA,NA,125,NA,NA,18,NA,11,NA,0.9
2026-04-02T0600,3140A,111.6651,29.0526,常德市,武陵区长庚,,43,43,33,21,17,95,95,NA,NA,10,9,12,9,1.0,0.9
2026-04-02T0600,1196A,119.9524,31.7586,常州市,市监测站,细颗粒物(PM2.5),112,123,86,73,52,3,3,NA,NA,70,48,7,7,1.1,0.9
2026-04-02T0600,1200A,119.9351,31.703,常州市,武进监测站,细颗粒物(PM2.5),108,120,77,68,44,26,26,NA,NA,41,27,13,10,0.5,0.4
2026-04-02T0600,3002A,119.9701,31.813,常州市,行政中心,细颗粒物(PM2.5),117,96,82,78,52,9,9,NA,NA,70,38,6,6,0.7,0.6
2026-04-02T0600,3003A,120.0434,31.7726,常州市,经开区,颗粒物(PM10),125,184,96,82,48,11,11,NA,NA,75,33,8,5,1.2,0.9
2026-04-02T0600,3010A,119.8919,31.7892,常州市,钟楼,细颗粒物(PM2.5),100,105,81,60,47,5,5,NA,NA,68,47,7,7,0.8,0.6
2026-04-02T0600,3429A,119.8595,31.706,常州市,武进经发区,颗粒物(PM10),86,100,62,50,36,3,3,NA,NA,87,47,14,11,1.1,0.8
2026-04-02T0600,3430A,119.5812,31.7256,常州市,金坛城区,细颗粒物(PM2.5),66,50,52,43,45,48,48,NA,NA,24,17,8,9,0.8,0.8
2026-04-02T0600,4089A,119.9551,31.863,常州市,崇义南街5-H号,NA,NA,NA,80,NA,47,NA,NA,150,NA,NA,40,NA,8,NA,0.8
2026-04-02T0600,2220A,120.4318,41.588,朝阳市,西梁,细颗粒物(PM2.5),60,57,43,40,17,12,12,NA,NA,40,24,8,5,0.8,0.5
2026-04-02T0600,2221A,120.452,41.565,朝阳市,河畔小区,细颗粒物(PM2.5),60,48,33,40,14,25,25,NA,NA,27,21,8,6,0.6,0.5
2026-04-02T0600,2222A,120.4176,41.5648,朝阳市,八里堡,细颗粒物(PM2.5),66,50,40,43,17,14,14,NA,NA,34,28,10,8,0.6,0.4
2026-04-02T0600,3026A,116.6179,23.6608,潮州市,市政府,,21,16,18,10,10,65,65,NA,NA,13,7,7,3,0.5,0.5
2026-04-02T0600,4036A,116.646,23.676,潮州市,金山,,20,19,14,11,8,63,63,NA,NA,18,10,4,3,0.5,0.5
2026-04-02T0600,2473A,113.0116,25.8228,郴州市,市职中,,43,34,28,30,22,4,4,NA,NA,14,15,5,6,0.6,0.6
2026-04-02T0600,2475A,113.0381,25.8074,郴州市,市审计局,,46,34,32,32,22,14,14,NA,NA,17,44,5,5,/,/
2026-04-02T0600,2476A,113.0348,25.7757,郴州市,市环保局,,43,43,37,27,22,15,15,NA,NA,29,26,7,8,0.4,0.4
2026-04-02T0600,4252A,113.0138,25.8011,郴州市,好美居路49号,,39,39,30,23,21,4,4,NA,NA,33,25,3,4,/,/
2026-04-02T0600,1431A,103.9727,30.7242,成都市,金泉两河,,32,24,39,22,20,71,71,NA,NA,8,20,3,2,0.4,0.4
2026-04-02T0600,1432A,104.1423,30.6765,成都市,十里店,,48,39,34,33,21,66,66,NA,NA,12,18,4,4,0.5,0.5
2026-04-02T0600,1433A,104.0594,30.5765,成都市,三瓦窑,,50,NA,31,35,24,53,53,NA,NA,15,19,2,3,0.6,0.6
2026-04-02T0600,1434A,104.1122,30.6306,成都市,沙河铺,,38,NA,38,26,21,34,34,NA,NA,16,24,6,6,0.4,0.4
2026-04-02T0600,2880A,104.0219,30.6561,成都市,大石西路,细颗粒物(PM2.5),54,44,36,37,26,67,67,NA,NA,12,20,6,7,0.7,0.7
2026-04-02T0600,3136A,104.2724,30.559,成都市,龙泉驿区区政府,,22,NA,22,15,16,67,67,NA,NA,6,10,6,7,0.2,0.3
2026-04-02T0600,3357A,104.0028,30.6891,成都市,金博路,,42,NA,29,29,26,74,74,NA,NA,12,26,5,6,0.5,0.5
2026-04-02T0600,3359A,104.056,30.5228,成都市,华阳,,40,NA,30,28,20,73,73,NA,NA,10,19,4,4,0.6,0.6
2026-04-02T0600,3488A,104.387954,30.746684,成都市,青石路225号,细颗粒物(PM2.5),60,NA,31,40,19,48,48,NA,NA,23,20,4,5,0.5,0.4
2026-04-02T0600,3489A,104.0788,30.4054,成都市,科学城,,25,24,28,17,16,74,74,NA,NA,8,12,7,8,0.6,0.6
2026-04-02T0600,4011A,103.8505,30.6946,成都市,光华大道三段,,35,NA,42,24,26,55,55,NA,NA,13,23,2,4,0.4,0.5
2026-04-02T0600,4144A,104.3257,30.6406,成都市,八角井街185号,NA,NA,20,29,16,15,56,56,NA,NA,9,14,NA,4,0.3,0.4
2026-04-02T0600,4224A,104.2433276,30.53529463,成都市,鲸龙路1057号,,32,32,34,17,17,76,76,NA,NA,8,15,6,6,0.4,0.5
2026-04-02T0600,1062A,117.9531,40.908,承德市,铁路,颗粒物(PM10),75,85,45,27,12,25,25,NA,NA,26,19,2,3,0.4,0.3
2026-04-02T0600,1063A,117.9397,40.9763,承德市,中国银行,,50,50,30,7,7,12,12,NA,NA,28,14,1,2,0.4,0.3
2026-04-02T0600,4073A,117.9462,40.95,承德市,杏林街1号,颗粒物(PM10),55,56,28,28,13,24,24,NA,NA,22,12,1,2,0.4,0.2
2026-04-02T0600,4274A,117.7994,40.9605,承德市,滨河大街98号,颗粒物(PM10),59,62,30,22,11,26,26,NA,NA,21,15,4,5,0.5,0.4
2026-04-02T0600,2314A,117.4698,30.6617,池州市,池州学院,,50,50,45,33,30,24,24,NA,NA,37,22,3,4,1.0,0.8
2026-04-02T0600,3237A,117.4918,30.6617,池州市,展览馆,,43,43,41,27,26,12,12,NA,NA,30,22,1,2,1.1,0.9
2026-04-02T0600,3333A,117.5626,30.695,池州市,第八中学,,42,42,41,27,26,42,42,NA,NA,22,24,3,4,0.8,0.8
2026-04-02T0600,3334A,117.5037,30.6242,池州市,第十二中学,,44,44,44,29,27,11,11,NA,NA,32,25,3,4,1.5,1.2
2026-04-02T0600,1744A,118.9229,42.2816,赤峰市,松山一中,,49,49,38,26,20,23,23,NA,NA,42,24,11,14,0.6,0.6
2026-04-02T0600,1745A,118.9588,42.2733,赤峰市,哈达街,,50,50,38,31,21,18,18,NA,NA,46,27,10,18,0.7,0.6
2026-04-02T0600,1746A,118.8792,42.2551,赤峰市,天义路,,36,36,26,23,18,13,13,NA,NA,29,18,5,6,0.6,0.6
2026-04-02T0600,3058A,119.2656,42.0356,赤峰市,银河街,细颗粒物(PM2.5),108,93,56,68,29,23,23,NA,NA,26,13,48,14,0.9,0.5
2026-04-02T0600,3286A,118.9359,42.3146,赤峰市,桥北物流园区,,42,42,36,25,21,14,14,NA,NA,50,30,3,9,0.5,0.4
2026-04-02T0600,2521A,107.3473,22.4137,崇左市,市环保局江州分局,,48,45,37,33,20,76,76,NA,NA,9,8,10,8,0.7,0.6
2026-04-02T0600,4256A,107.375,22.3736,崇左市,石景林东路7号,,48,35,26,33,17,76,76,NA,NA,13,12,6,5,0.8,0.7
2026-04-02T0600,3207A,118.31131,32.3033,滁州市,市政府原办公楼,细颗粒物(PM2.5),111,NA,72,72,69,27,27,NA,NA,28,18,4,5,0.7,0.7
2026-04-02T0600,3331A,118.3268,32.2633,滁州市,图书馆,细颗粒物(PM2.5),98,101,98,59,58,56,56,NA,NA,15,18,9,9,0.7,0.6
2026-04-02T0600,4101A,118.3196,32.3335,滁州市,银山路666号,细颗粒物(PM2.5),56,50,71,38,56,11,11,NA,NA,29,21,7,8,0.7,0.7
2026-04-02T0600,4102A,118.3426,32.2979,滁州市,黄山路555号,细颗粒物(PM2.5),112,113,110,73,68,22,22,NA,NA,26,27,6,6,0.9,0.8
2026-04-02T0600,2606A,101.5379,25.0492,楚雄彝族自治州,市经济开发区,,40,38,36,28,25,85,85,NA,NA,10,8,4,4,0.4,0.4
2026-04-02T0600,4153A,101.5536,25.0343,楚雄彝族自治州,团结路562号,,38,31,33,26,24,98,98,NA,NA,3,6,1,2,0.3,0.3
2026-04-02T0600,2549A,107.5087,31.2186,达州市,市环境监测站,,40,40,44,21,18,8,8,NA,NA,33,39,5,6,0.4,0.5
2026-04-02T0600,2550A,107.4988,31.2132,达州市,凤凰小区,,36,36,47,22,20,9,9,NA,NA,34,38,5,6,0.5,0.6
2026-04-02T0600,2551A,107.5081,31.1987,达州市,达县机关宾馆,,36,34,49,25,17,8,8,NA,NA,37,44,4,5,0.5,0.6
2026-04-02T0600,2552A,107.4644,31.2124,达州市,市政中心,颗粒物(PM10),58,61,49,20,18,4,4,NA,NA,41,41,5,6,0.6,0.7
2026-04-02T0600,2614A,100.2168,25.5818,大理白族自治州,大理市环境监测站,,32,28,28,22,23,83,83,NA,NA,9,10,3,3,0.3,0.3
2026-04-02T0600,2615A,100.1542,25.7055,大理白族自治州,大理古城,,30,30,28,19,20,91,91,NA,NA,5,7,7,7,0.5,0.6
2026-04-02T0600,1109A,121.6119,38.974,大连市,甘井子,颗粒物(PM10),70,77,93,28,29,49,49,NA,NA,36,20,10,9,0.5,0.6
2026-04-02T0600,1110A,121.565,38.9509,大连市,周水子,颗粒物(PM10),68,74,90,29,29,39,39,NA,NA,45,26,9,6,0.4,0.4
2026-04-02T0600,1111A,121.5637,38.8849,大连市,星海三站,颗粒物(PM10),63,67,83,29,29,54,54,NA,NA,31,17,23,9,0.4,0.4
2026-04-02T0600,1112A,121.6301,38.9117,大连市,青泥洼桥,颗粒物(PM10),73,81,110,26,29,57,57,NA,NA,34,27,12,8,0.7,0.5
2026-04-02T0600,1113A,121.6248,38.8643,大连市,傅家庄,颗粒物(PM10),62,66,90,22,25,65,65,NA,NA,16,18,11,10,0.5,0.5
2026-04-02T0600,1114A,121.5117,38.8636,大连市,七贤岭,,48,48,89,21,25,81,81,NA,NA,15,13,7,7,0.5,0.5
2026-04-02T0600,1116A,121.7507,39.1339,大连市,金州,颗粒物(PM10),80,91,102,32,31,62,62,NA,NA,22,19,9,10,0.5,0.5
2026-04-02T0600,1117A,121.7811,39.0495,大连市,开发区,颗粒物(PM10),68,75,74,31,29,43,43,NA,NA,35,22,8,10,0.4,0.5
2026-04-02T0600,1118A,121.9762,39.0631,大连市,双D港,颗粒物(PM10),58,61,97,25,35,84,84,NA,NA,14,20,9,9,0.7,0.8
2026-04-02T0600,4082A,121.2548,38.8188,大连市,旅顺,颗粒物(PM10),68,74,104,34,29,48,48,NA,NA,19,15,2,5,0.7,0.5
2026-04-02T0600,1789A,124.8085,46.0381,大庆市,大同区,细颗粒物(PM2.5),122,116,71,84,43,72,72,NA,NA,18,16,6,5,0.4,0.3
2026-04-02T0600,1790A,125.1166,46.5255,大庆市,龙凤区,细颗粒物(PM2.5),117,103,68,78,41,66,66,NA,NA,23,16,5,7,0.2,0.1
2026-04-02T0600,1791A,124.8894,46.4007,大庆市,红岗区,细颗粒物(PM2.5),115,86,58,76,39,64,64,NA,NA,16,10,6,6,0.3,0.3
2026-04-02T0600,1792A,125.1391,46.578,大庆市,萨尔图区,细颗粒物(PM2.5),112,106,70,73,38,81,81,NA,NA,17,13,10,9,0.9,0.7
2026-04-02T0600,1793A,124.9026,46.6217,大庆市,让胡路区,细颗粒物(PM2.5),119,110,58,80,37,77,77,NA,NA,15,12,6,5,0.4,0.3
2026-04-02T0600,3481A,125.127,46.6277,大庆市,萨区政府监测点,细颗粒物(PM2.5),117,120,65,78,40,76,76,NA,NA,12,8,10,10,0.5,0.4
2026-04-02T0600,1723A,113.2926,40.0759,大同市,云冈宾馆,颗粒物(PM10),94,111,59,28,20,6,6,NA,NA,48,30,8,13,0.6,0.6
2026-04-02T0600,1724A,113.3437,40.0921,大同市,大同大学,颗粒物(PM10),93,109,55,37,20,9,9,NA,NA,48,29,11,11,0.8,0.6
2026-04-02T0600,1725A,113.2637,40.129,大同市,安家小村,颗粒物(PM10),89,104,80,41,27,17,17,NA,NA,46,32,18,14,2.4,1
2026-04-02T0600,3282A,113.3399,40.0586,大同市,大同市卫生学校,颗粒物(PM10),79,90,60,36,22,15,15,NA,NA,41,27,17,12,0.6,0.6
2026-04-02T0600,3565A,113.1371,40.1122,大同市,云冈站,颗粒物(PM10),63,67,57,12,17,15,15,NA,NA,34,26,29,14,0.5,0.5
2026-04-02T0600,3566A,113.1186,40.2556,大同市,图书馆,,48,48,41,20,15,23,23,NA,NA,16,14,6,10,0.6,0.7
2026-04-02T0600,3567A,113.5931,40.0459,大同市,区一中,颗粒物(PM10),55,56,41,30,16,55,55,NA,NA,17,14,28,13,0.6,0.5
2026-04-02T0600,4199A,113.2798248,40.09972476,大同市,魏都大道141号,颗粒物(PM10),93,110,69,42,27,8,8,NA,NA,48,31,15,16,1.6,0.8
2026-04-02T0600,2269A,124.1068,50.4091,大兴安岭地区,科技局,,21,21,19,7,5,48,48,NA,NA,4,2,7,7,0.3,0.2
2026-04-02T0600,3663A,124.117,50.4279,大兴安岭地区,红旗社区,NA,NA,14,12,6,8,43,43,NA,NA,9,7,NA,12,0.1,0.2
2026-04-02T0600,1600A,124.33,40.0625,丹东市,江湾东路,"颗粒物(PM10),细颗粒物(PM2.5)",84,97,65,52,38,28,28,NA,NA,38,24,21,11,1.0,0.7
2026-04-02T0600,1601A,124.4242,40.1513,丹东市,临江后街,颗粒物(PM10),56,58,61,34,36,62,62,NA,NA,21,21,8,9,0.5,0.5
2026-04-02T0600,1602A,124.3935,40.1461,丹东市,元宝山,NA,NA,71,63,37,33,54,54,NA,NA,26,19,NA,9,0.7,0.6
2026-04-02T0600,1603A,124.3634,40.1093,丹东市,民主桥,颗粒物(PM10),65,70,65,36,34,75,75,NA,NA,26,24,8,8,0.5,0.5
2026-04-02T0600,3541A,109.5726195,19.51688767,儋州市,第一中学子站,细颗粒物(PM2.5),58,57,48,39,31,42,42,NA,NA,8,7,6,6,0.7,0.6
2026-04-02T0600,3542A,109.5567,19.5187,儋州市,东坡学校子站,细颗粒物(PM2.5),52,41,48,36,29,40,40,NA,NA,8,7,6,7,0.9,0.9
2026-04-02T0600,2616A,98.5611,24.4273,德宏傣族景颇族自治州,德宏州监测站,细颗粒物(PM2.5),82,NA,51,51,50,3,3,NA,NA,35,22,5,4,0.8,0.8
2026-04-02T0600,3677A,98.5887,24.4366,德宏傣族景颇族自治州,芒市人民政府综合楼,颗粒物(PM10),65,71,79,42,47,34,34,NA,NA,10,15,5,6,0.6,0.6
2026-04-02T0600,1901A,104.424,31.1209,德阳市,东山公园,,50,NA,33,35,22,59,59,NA,NA,11,16,3,4,0.5,0.5
2026-04-02T0600,1902A,104.3827,31.1318,德阳市,西小区,,45,43,53,31,30,58,58,NA,NA,15,28,2,3,0.5,0.6
2026-04-02T0600,1904A,104.3553,31.1091,德阳市,耐火材料厂,细颗粒物(PM2.5),56,45,55,38,33,50,50,NA,NA,23,27,2,4,0.6,0.5
2026-04-02T0600,4145A,104.4144,31.1495,德阳市,市林业局,,46,NA,41,32,27,62,62,NA,NA,13,28,2,3,0.5,0.5
2026-04-02T0600,1622A,116.3034,37.4675,德州市,儿童乐园,颗粒物(PM10),100,119,148,28,54,30,30,NA,NA,35,28,15,17,0.5,0.6
2026-04-02T0600,1624A,116.2992,37.4449,德州市,监理站,颗粒物(PM10),95,112,149,23,52,42,42,NA,NA,31,29,8,11,0.5,0.6
2026-04-02T0600,3066A,116.2722,37.438,德州市,九衢泉纯净水厂,颗粒物(PM10),90,105,141,22,54,35,35,NA,NA,34,22,7,10,0.6,0.6
2026-04-02T0600,3371A,116.3693,37.44,德州市,开发区人民医院,颗粒物(PM10),93,110,145,24,55,30,30,NA,NA,32,28,9,14,0.5,0.6
2026-04-02T0600,3511A,116.5687,37.3331,德州市,陵城艺术中心,颗粒物(PM10),93,110,144,26,58,21,21,NA,NA,26,24,7,10,0.6,0.6
2026-04-02T0600,4292A,116.352738,37.420875,德州市,新河东路,颗粒物(PM10),88,102,133,24,40,31,31,NA,NA,26,27,9,11,0.4,0.4
2026-04-02T0600,2621A,99.7054,27.8319,迪庆藏族自治州,迪庆州站,,25,NA,18,11,11,79,79,NA,NA,6,9,5,5,0.5,0.6
2026-04-02T0600,3180A,99.7122,27.8129,迪庆藏族自治州,质量技术监督局,NA,NA,NA,23,NA,12,NA,NA,97,NA,NA,10,NA,6,NA,0.5
2026-04-02T0600,4257A,104.6092,35.5962,定西市,将台街,,40,40,55,15,21,22,22,NA,NA,38,26,10,10,0.7,0.6
2026-04-02T0600,4309A,104.6159,35.5701,定西市,正龙路62号,,47,47,52,22,21,46,46,NA,NA,12,15,2,6,0.3,0.5
2026-04-02T0600,4071A,114.9883,38.5232,定州市,交通局,颗粒物(PM10),102,123,107,23,25,39,39,NA,NA,37,29,8,4,0.5,0.4
2026-04-02T0600,4072A,115.0045,38.5136,定州市,第五中学,颗粒物(PM10),106,134,124,28,27,23,23,NA,NA,42,28,6,4,0.4,0.4
2026-04-02T0600,1390A,113.7943,23.0132,东莞市,东城石井,,39,39,21,23,11,74,74,NA,NA,18,19,3,4,0.7,0.7
2026-04-02T0600,1391A,113.7384,22.9659,东莞市,南城西平,,40,40,23,25,11,65,65,NA,NA,18,25,4,5,0.7,0.7
2026-04-02T0600,3319A,113.7283,23.041,东莞市,万江金泰,,42,42,22,24,14,75,75,NA,NA,14,19,6,7,0.7,0.7
2026-04-02T0600,4129A,113.8666,23.1062,东莞市,裕兴路,,46,46,25,26,10,59,59,NA,NA,19,17,6,6,0.8,0.8
2026-04-02T0600,4130A,114.0076,22.9739,东莞市,教育路1号,NA,NA,46,28,24,12,55,55,NA,NA,NA,22,8,7,0.8,0.7
2026-04-02T0600,4131A,113.7981,22.8124,东莞市,长怡路1号,颗粒物(PM10),54,55,38,24,17,24,24,NA,NA,25,29,5,5,0.8,0.8
2026-04-02T0600,1666A,118.6612,37.4313,东营市,市环保局,颗粒物(PM10),75,85,109,34,21,56,56,NA,NA,24,18,21,11,0.5,0.3
2026-04-02T0600,3036A,118.6903,37.4337,东营市,开发区管委会,颗粒物(PM10),72,80,117,32,23,73,73,NA,NA,22,22,10,9,0.7,0.5
2026-04-02T0600,3365A,118.5721,37.5654,东营市,垦利区民丰路,颗粒物(PM10),72,80,117,25,22,78,78,NA,NA,21,18,6,6,0.5,0.5
2026-04-02T0600,3498A,118.5063,37.8606,东营市,河口城区,颗粒物(PM10),86,100,115,16,14,87,87,NA,NA,14,14,9,8,0.5,0.5
2026-04-02T0600,3646A,118.4979,37.4623,东营市,胜利站,颗粒物(PM10),71,79,93,35,20,67,67,NA,NA,18,16,12,9,1.0,0.6
2026-04-02T0600,3734A,118.5753,37.4405,东营市,理想之城,NA,NA,NA,113,NA,17,NA,NA,105,NA,NA,28,NA,6,NA,0.7
2026-04-02T0600,1591A,110.0024,39.8127,鄂尔多斯市,综合楼,,48,48,47,20,20,74,74,NA,NA,22,23,8,8,0.5,0.4
2026-04-02T0600,1592A,109.9485,39.8259,鄂尔多斯市,巴音孟克林场办事处,,46,46,44,25,14,84,84,NA,NA,15,18,10,7,0.5,0.4
2026-04-02T0600,1593A,109.7734,39.5987,鄂尔多斯市,康泽苑,,39,39,39,18,15,44,44,NA,NA,17,18,6,7,0.4,0.4
2026-04-02T0600,1594A,109.8121,39.5987,鄂尔多斯市,华泰汽车城,,34,34,42,20,16,8,8,NA,NA,43,32,6,7,0.3,0.3
2026-04-02T0600,1595A,109.9734,39.7884,鄂尔多斯市,奥林花园,颗粒物(PM10),53,53,48,20,15,19,19,NA,NA,68,36,3,5,0.5,0.4
2026-04-02T0600,2436A,114.894,30.3989,鄂州市,市政府,NA,NA,49,48,23,28,NA,NA,NA,NA,19,20,10,11,0.4,0.5
2026-04-02T0600,2437A,114.8986,30.3714,鄂州市,赵家坝,,42,42,49,25,30,92,92,NA,NA,11,14,9,8,0.5,0.5
2026-04-02T0600,3654A,114.8093,30.4091,鄂州市,精准医疗中心,,50,50,50,35,34,82,82,NA,NA,25,17,11,12,1.4,0.9
2026-04-02T0600,2454A,109.4978,30.2979,恩施土家族苗族自治州,湖北民院,,31,31,27,19,13,28,28,NA,NA,13,10,6,7,0.6,0.6
2026-04-02T0600,3549A,109.5061,30.3771,恩施土家族苗族自治州,龙凤新区,,28,21,22,19,13,20,20,NA,NA,5,8,7,7,0.3,0.3
2026-04-02T0600,2499A,108.3411,21.6159,防城港市,沙万,细颗粒物(PM2.5),58,54,37,39,22,46,46,NA,NA,16,16,7,7,0.8,0.7
2026-04-02T0600,2500A,108.3515,21.7733,防城港市,防城档案局,颗粒物(PM10),56,58,45,37,22,43,43,NA,NA,13,14,7,7,0.8,0.7
2026-04-02T0600,2501A,108.3506,21.6414,防城港市,大海花园,细颗粒物(PM2.5),70,47,29,45,25,49,49,NA,NA,17,16,11,9,0.8,0.7
2026-04-02T0600,1371A,113.1293,23.0065,佛山市,湾梁,细颗粒物(PM2.5),101,68,32,61,22,26,26,NA,NA,63,31,/,/,/,/
2026-04-02T0600,1372A,113.1082,23.0477,佛山市,华材职中,细颗粒物(PM2.5),109,NA,30,69,22,22,22,NA,NA,60,39,8,8,0.7,0.6
2026-04-02T0600,1373A,113.1439,23.045,佛山市,南海气象局,细颗粒物(PM2.5),84,65,30,52,19,20,20,NA,NA,68,32,/,/,/,/
2026-04-02T0600,1374A,113.2879,22.8094,佛山市,顺德苏岗,细颗粒物(PM2.5),54,45,35,37,29,48,48,NA,NA,28,29,/,/,0.8,0.8
2026-04-02T0600,1376A,112.8384,22.8678,佛山市,高明孔堂,,45,38,28,31,17,36,36,NA,NA,35,24,/,/,/,/
2026-04-02T0600,1377A,112.8835,23.1584,佛山市,三水监测站,,43,39,24,30,18,15,15,NA,NA,49,44,7,5,0.7,0.6
2026-04-02T0600,1378A,112.8668,23.185,佛山市,三水云东海,,40,40,32,27,15,6,6,NA,NA,31,26,/,/,/,/
2026-04-02T0600,3625A,113.2568,22.7629,佛山市,容桂街道办,细颗粒物(PM2.5),56,NA,39,38,31,58,58,NA,NA,30,37,/,/,/,/
2026-04-02T0600,1282A,119.2681,26.0506,福州市,师大,,29,29,23,16,6,85,85,NA,NA,13,14,3,3,0.3,0.3
2026-04-02T0600,1283A,119.2983,26.1028,福州市,五四北路,,29,20,16,12,5,90,90,NA,NA,13,13,5,4,0.5,0.5
2026-04-02T0600,1284A,119.2648,26.0769,福州市,杨桥西路,,27,20,14,13,5,85,85,NA,NA,11,10,4,4,/,/
2026-04-02T0600,3048A,119.5799,26.0937,福州市,九龙,,22,17,13,9,3,69,69,NA,NA,11,12,4,4,0.6,0.4
2026-04-02T0600,3526A,119.5188,25.9666,福州市,吴航,,23,17,10,12,7,72,72,NA,NA,23,13,5,5,0.6,0.5
2026-04-02T0600,4104A,119.3106,26.0648,福州市,路通桥巷6号,,29,NA,12,20,10,87,87,NA,NA,10,10,/,/,/,/
2026-04-02T0600,1755A,123.7974,41.8494,抚顺市,望花区,细颗粒物(PM2.5),111,129,128,72,39,21,21,NA,NA,36,21,10,7,0.9,0.6
2026-04-02T0600,1756A,123.9161,41.8827,抚顺市,顺城区,细颗粒物(PM2.5),119,93,94,80,41,5,5,NA,NA,53,33,11,10,0.9,0.7
2026-04-02T0600,1757A,124.0437,41.8615,抚顺市,东洲区,细颗粒物(PM2.5),78,72,112,49,34,18,18,NA,NA,39,17,7,7,0.6,0.5
2026-04-02T0600,1758A,123.9246,41.8638,抚顺市,新抚区,细颗粒物(PM2.5),108,95,134,68,36,8,8,NA,NA,53,30,9,9,0.7,0.5
2026-04-02T0600,1759A,124.0972,41.8961,抚顺市,大伙房水库,细颗粒物(PM2.5),98,76,96,59,33,39,39,NA,NA,34,13,8,8,0.6,0.3
2026-04-02T0600,1760A,123.708,41.8386,抚顺市,沈抚新城,细颗粒物(PM2.5),122,116,128,84,42,19,19,NA,NA,39,24,9,9,1.0,0.6
2026-04-02T0600,2377A,116.3544,27.9833,抚州市,市站,细颗粒物(PM2.5),60,50,40,40,30,55,55,NA,NA,16,12,11,9,0.8,0.8
2026-04-02T0600,2378A,116.3562,27.9631,抚州市,血防站,,49,47,39,34,28,60,60,NA,NA,12,10,20,10,0.7,0.7
2026-04-02T0600,2379A,116.3561,28.0007,抚州市,采茶剧团,细颗粒物(PM2.5),66,50,41,43,29,47,47,NA,NA,18,11,13,12,0.7,0.7
2026-04-02T0600,2380A,116.3854,27.9648,抚州市,医学分院,,49,49,34,30,25,55,55,NA,NA,13,10,14,10,0.9,0.9
2026-04-02T0600,2207A,121.6095,41.9978,阜新市,工业园区,颗粒物(PM10),58,61,51,36,22,4,4,NA,NA,39,21,8,8,0.7,0.5
2026-04-02T0600,2208A,121.6567,42.0188,阜新市,长青街,细颗粒物(PM2.5),68,54,36,44,19,10,10,NA,NA,47,23,22,10,0.9,0.6
2026-04-02T0600,2209A,121.6672,42.07,阜新市,农业园区,细颗粒物(PM2.5),58,59,41,39,15,46,46,NA,NA,31,14,25,14,0.5,0.4
2026-04-02T0600,2211A,121.6343,42.0455,阜新市,玉龙新城,细颗粒物(PM2.5),72,68,47,46,19,2,2,NA,NA,48,30,11,8,0.7,0.6
2026-04-02T0600,2301A,115.8276,32.8929,阜阳市,市监测站,细颗粒物(PM2.5),109,88,68,69,41,48,48,NA,NA,23,17,5,6,0.9,0.8
2026-04-02T0600,2303A,115.8551,32.8606,阜阳市,开发区,细颗粒物(PM2.5),107,107,77,67,43,46,46,NA,NA,20,16,6,6,0.5,0.5
2026-04-02T0600,2875A,115.783962,32.889217,阜阳市,阜阳职业技术学院,细颗粒物(PM2.5),64,68,62,42,31,62,62,NA,NA,13,10,6,7,0.5,0.5
2026-04-02T0600,3468A,115.79,32.8614,阜阳市,市规划展馆,细颗粒物(PM2.5),101,86,68,61,43,65,65,NA,NA,14,10,8,8,0.8,0.7
2026-04-02T0600,3469A,115.835101,32.918568,阜阳市,枣园社区,细颗粒物(PM2.5),107,86,67,67,46,61,61,NA,NA,15,14,5,6,0.7,0.6
2026-04-02T0600,2669A,102.9097,34.9841,甘南藏族自治州,州政府,,32,32,40,22,21,75,75,NA,NA,6,12,5,5,0.3,0.5
2026-04-02T0600,3380A,102.8915,34.9618,甘南藏族自治州,甘肃民族师范学院,,39,39,50,14,18,87,87,NA,NA,11,17,1,3,0.3,0.4
2026-04-02T0600,2570A,101.96,30.048,甘孜藏族自治州,水桥子,,7,6,13,3,4,17,17,NA,NA,14,11,6,6,0.2,0.3
2026-04-02T0600,3065A,101.9534,29.9976,甘孜藏族自治州,州环保局,,10,6,13,3,4,31,31,NA,NA,6,11,4,5,0.3,0.3
2026-04-02T0600,2363A,114.9368,25.8663,赣州市,地委,,28,28,21,11,8,27,27,NA,NA,18,11,3,2,0.6,0.6
2026-04-02T0600,2364A,114.946,25.8483,赣州市,气象台,,29,29,25,17,12,47,47,NA,NA,18,18,6,5,0.6,0.6
2026-04-02T0600,2365A,114.932,25.8332,赣州市,市图书馆,,30,30,21,15,13,54,54,NA,NA,15,14,8,4,0.5,0.5
2026-04-02T0600,2366A,114.8905,25.8472,赣州市,华坚鞋城,,25,25,22,15,11,45,45,NA,NA,16,17,21,6,0.3,0.3
2026-04-02T0600,3109A,115.0094,25.8614,赣州市,赣县区卫计委,NA,NA,20,20,12,9,37,37,NA,NA,13,17,NA,2,0.6,0.6
2026-04-02T0600,2684A,106.2753,36.0057,固原市,监测站,颗粒物(PM10),51,51,51,18,19,49,49,NA,NA,28,23,5,7,0.5,0.4
2026-04-02T0600,2685A,106.2384,36.0189,固原市,新区,,48,48,63,17,18,60,60,NA,NA,16,27,8,9,0.4,0.5
2026-04-02T0600,2544A,106.6307,30.4577,广安市,市委,,50,NA,40,35,26,61,61,NA,NA,11,24,6,6,0.6,0.7
2026-04-02T0600,2545A,106.6266,30.4662,广安市,友谊中学,,39,NA,35,27,20,61,61,NA,NA,8,20,8,8,0.5,0.6
2026-04-02T0600,2547A,106.6386,30.4551,广安市,广电花园,,48,34,49,33,28,60,60,NA,NA,11,26,5,5,0.6,0.8
2026-04-02T0600,2902A,106.6347,30.4868,广安市,北辰小学,,46,NA,40,32,24,58,58,NA,NA,9,16,8,8,0.7,0.8
2026-04-02T0600,2524A,105.8211,32.4444,广元市,老城,,37,37,35,15,17,9,9,NA,NA,46,36,2,5,0.5,0.6
2026-04-02T0600,2526A,105.8629,32.429,广元市,监测站,,33,33,37,12,14,37,37,NA,NA,18,16,2,4,0.6,0.6
2026-04-02T0600,3617A,105.8047,32.4167,广元市,经开区,颗粒物(PM10),51,51,45,30,27,8,8,NA,NA,43,27,9,17,0.7,0.7
2026-04-02T0600,1345A,113.2346,23.1423,广州市,广雅中学,颗粒物(PM10),55,57,32,33,20,5,5,NA,NA,78,47,5,4,0.7,0.7
2026-04-02T0600,1346A,113.2611,23.105,广州市,市五中,细颗粒物(PM2.5),60,61,31,40,20,11,11,NA,NA,77,44,10,8,/,/
2026-04-02T0600,1348A,113.3477,23.0916,广州市,广东商学院,,42,42,28,26,16,1,1,NA,NA,64,40,10,6,0.9,0.9
2026-04-02T0600,1349A,113.4332,23.105,广州市,市八十六中,,34,34,25,21,13,14,14,NA,NA,58,45,8,6,/,/
2026-04-02T0600,1350A,113.3506,22.9488,广州市,番禺中学,颗粒物(PM10),58,60,40,38,21,42,42,NA,NA,40,31,5,5,0.8,0.8
2026-04-02T0600,1351A,113.2147,23.3918,广州市,花都师范,,28,28,22,17,12,36,36,NA,NA,42,24,7,7,0.9,0.9
2026-04-02T0600,1352A,113.2599,23.1329,广州市,市监测站,颗粒物(PM10),64,69,36,28,17,16,16,NA,NA,65,46,5,3,/,/
2026-04-02T0600,1353A,113.5618,23.3119,广州市,九龙镇镇龙,,20,20,15,10,9,54,54,NA,NA,16,18,8,6,0.6,0.6
2026-04-02T0600,1354A,113.2764,23.1544,广州市,麓湖,NA,NA,NA,23,NA,12,NA,NA,118,NA,NA,34,NA,5,NA,0.9
2026-04-02T0600,2846A,113.3209,23.1323,广州市,体育西,,34,32,25,19,17,5,5,NA,NA,68,39,10,6,0.8,0.7
2026-04-02T0600,3298A,113.5718,23.5493,广州市,从化街口,,26,26,19,15,12,5,5,NA,NA,39,22,8,7,0.7,0.8
2026-04-02T0600,3299A,113.3463,23.369,广州市,白云竹料,,23,23,22,15,14,13,13,NA,NA,32,21,3,3,0.7,0.7
2026-04-02T0600,3300A,113.2981,23.2365,广州市,白云嘉禾,,30,30,23,16,12,22,22,NA,NA,45,32,9,9,/,/
2026-04-02T0600,3301A,113.4256,23.1716,广州市,黄埔科学城,,36,36,21,24,12,35,35,NA,NA,35,28,5,4,0.6,0.6
2026-04-02T0600,3302A,113.3942,23.0485,广州市,番禺大学城,细颗粒物(PM2.5),110,79,31,71,18,34,34,NA,NA,58,37,4,4,0.8,0.8
2026-04-02T0600,3303A,113.4923,22.8169,广州市,南沙黄阁,,25,12,39,12,22,80,80,NA,NA,13,40,6,8,/,/
2026-04-02T0600,3304A,113.534,22.7893,广州市,南沙街,,23,NA,35,15,21,71,71,NA,NA,12,29,7,10,0.6,0.7
2026-04-02T0600,3443A,113.2905,23.5541,广州市,花都梯面,,11,9,11,7,8,24,24,NA,NA,21,19,11,10,/,/
2026-04-02T0600,3445A,113.786,23.7479,广州市,从化良口,,17,14,9,8,5,54,54,NA,NA,14,12,5,4,/,/
2026-04-02T0600,3446A,113.805,23.2614,广州市,增城荔城,,19,18,12,10,7,60,60,NA,NA,13,13,7,6,0.6,0.6
2026-04-02T0600,2506A,109.604387,23.066791,贵港市,江南子站,,39,39,39,21,23,41,41,NA,NA,22,23,12,12,0.8,0.7
2026-04-02T0600,2508A,109.5669,23.1065,贵港市,荷城子站,,36,36,31,24,20,47,47,NA,NA,18,20,10,9,0.8,0.7
2026-04-02T0600,3405A,109.5886,23.1172,贵港市,新世纪学校,,36,31,32,25,20,49,49,NA,NA,23,23,/,/,0.7,0.6
2026-04-02T0600,4260A,109.5933,23.095,贵港市,中山路155-3号,细颗粒物(PM2.5),52,48,35,36,19,43,43,NA,NA,20,18,/,/,0.9,0.8
2026-04-02T0600,1439A,106.6863,26.6035,贵阳市,马鞍山,,23,22,17,7,10,72,72,NA,NA,4,10,2,4,/,/
2026-04-02T0600,1441A,106.6241,26.6266,贵阳市,鉴湖路,,31,31,29,9,9,74,74,NA,NA,8,14,6,7,0.3,0.4
2026-04-02T0600,1442A,106.7468,26.6344,贵阳市,燕子冲,,34,34,29,10,10,63,63,NA,NA,9,14,6,7,0.6,0.6
2026-04-02T0600,1443A,106.6556,26.4362,贵阳市,碧云窝,,27,27,21,6,11,74,74,NA,NA,4,9,8,8,/,/
2026-04-02T0600,1445A,106.6963,26.6063,贵阳市,红边门,,29,29,28,10,13,72,72,NA,NA,7,18,7,9,/,/
2026-04-02T0600,1446A,106.7162383,26.56964667,贵阳市,新华路,,31,31,31,10,11,71,71,NA,NA,8,18,7,8,0.8,0.7
2026-04-02T0600,1447A,106.6742,26.542,贵阳市,太慈桥,,27,27,24,3,11,67,67,NA,NA,6,11,3,4,/,/
2026-04-02T0600,4230A,106.688212,26.56952,贵阳市,花果园大街66号,,18,17,10,3,9,56,56,NA,NA,6,14,3,4,/,/
2026-04-02T0600,4231A,106.687268,26.516892,贵阳市,漓江路57号,,23,17,15,3,11,72,72,NA,NA,6,14,8,10,0.8,0.8
2026-04-02T0600,1864A,110.3091,25.2705,桂林市,龙隐路小学,,40,37,34,28,20,47,47,NA,NA,17,15,9,4,0.7,0.6
2026-04-02T0600,1865A,110.2849361,25.22909545,桂林市,八中,,39,39,42,17,17,36,36,NA,NA,22,24,7,5,0.8,0.8
2026-04-02T0600,3531A,110.296,25.1254,桂林市,旅游学院,,48,48,38,33,26,13,13,NA,NA,34,23,8,6,0.7,0.7
2026-04-02T0600,4222A,110.1835,25.2444,桂林市,环湖路276号,颗粒物(PM10),58,61,41,33,25,34,34,NA,NA,30,25,41,16,0.8,0.7
2026-04-02T0600,4301A,110.2803,25.2773,桂林市,信义路13号,,35,35,36,20,20,49,49,NA,NA,18,24,9,6,0.8,0.8
2026-04-02T0600,2674A,100.2262,34.4854,果洛藏族自治州,玛沁县大武镇,,28,24,28,3,14,87,87,NA,NA,2,3,23,15,0.3,0.4
2026-04-02T0600,1130A,126.5557,45.8109,哈尔滨市,松北商大,细颗粒物(PM2.5),145,131,77,109,63,66,66,NA,NA,26,20,11,11,0.7,0.6
2026-04-02T0600,1132A,126.6162,45.719,哈尔滨市,南岗学府路,细颗粒物(PM2.5),179,208,107,135,63,35,35,NA,NA,46,33,11,7,1.2,0.8
2026-04-02T0600,1133A,126.6894,45.7733,哈尔滨市,太平宏伟公园,细颗粒物(PM2.5),178,177,93,134,60,64,64,NA,NA,26,28,15,11,0.8,0.5
2026-04-02T0600,1134A,126.6361,45.7672,哈尔滨市,道外承德广场,细颗粒物(PM2.5),166,246,134,126,54,61,61,NA,NA,40,27,26,11,1.3,0.9
2026-04-02T0600,1136A,126.644,45.7261,哈尔滨市,动力和平路,细颗粒物(PM2.5),205,194,94,155,62,53,53,NA,NA,31,26,9,6,1.2,0.7
2026-04-02T0600,1137A,126.5933,45.7479,哈尔滨市,道里建国路,细颗粒物(PM2.5),149,162,78,113,54,56,56,NA,NA,46,34,17,15,1.3,0.8
2026-04-02T0600,1138A,126.6127,45.6119,哈尔滨市,平房东轻厂,细颗粒物(PM2.5),182,171,97,137,78,43,43,NA,NA,55,61,12,9,1.2,0.8
2026-04-02T0600,1139A,126.5875,45.9827,哈尔滨市,呼兰师专,细颗粒物(PM2.5),131,141,99,94,65,52,52,NA,NA,46,32,12,10,0.7,0.4
2026-04-02T0600,1140A,126.6299,45.6799,哈尔滨市,省农科院,细颗粒物(PM2.5),204,272,154,154,73,15,15,NA,NA,63,40,15,10,1.5,0.9
2026-04-02T0600,4282A,126.6769,45.7379,哈尔滨市,华山路1号,细颗粒物(PM2.5),180,212,105,136,63,61,61,NA,NA,26,24,7,9,1.4,0.9
2026-04-02T0600,4283A,126.9717,45.5356,哈尔滨市,解放大街52号,细颗粒物(PM2.5),158,199,144,120,83,55,55,NA,NA,25,27,3,8,1.2,0.8
2026-04-02T0600,2688A,93.5124,42.8176,哈密市,地区监测站,,36,33,49,25,17,45,45,NA,NA,38,23,6,7,0.3,0.2
2026-04-02T0600,2689A,93.5014,42.8312,哈密市,哈密师范学校,颗粒物(PM10),56,58,67,24,17,4,4,NA,NA,57,22,8,8,0.4,0.1
2026-04-02T0600,2671A,100.9016,36.9464,海北藏族自治州,海晏县西海镇,,32,32,26,19,14,76,76,NA,NA,2,2,8,8,0.5,0.4
2026-04-02T0600,3867A,102.074,36.5056,海东市,平安区公安局北苑,NA,NA,52,47,21,19,NA,NA,NA,NA,4,11,7,13,0.2,0.6
2026-04-02T0600,4163A,102.0984,36.5119,海东市,滨河路,,46,46,38,25,25,31,31,NA,NA,36,30,8,12,0.7,0.7
2026-04-02T0600,1410A,110.3189,20.0596,海口市,海南大学,,35,31,41,24,24,49,49,NA,NA,4,7,5,6,0.4,0.5
2026-04-02T0600,1411A,110.2827,20.0051,海口市,秀英海南医院,,38,29,34,26,24,19,19,NA,NA,25,8,7,8,0.4,0.4
2026-04-02T0600,1412A,110.3391,19.9979,海口市,海南师范大学,,36,34,44,25,25,40,40,NA,NA,6,8,5,6,0.4,0.5
2026-04-02T0600,1413A,110.3303,20.0359,海口市,龙华路环保局宿舍,,36,36,42,23,23,46,46,NA,NA,6,9,/,/,0.6,0.8
2026-04-02T0600,3539A,110.5111,19.9737,海口市,桂林洋子站,,39,39,42,21,21,38,38,NA,NA,8,7,/,/,/,/
2026-04-02T0600,4134A,110.1952,20.0451,海口市,长滨二路9号,,33,31,33,23,22,36,36,NA,NA,5,8,/,/,/,/
2026-04-02T0600,2673A,100.6158,36.2985,海南藏族自治州,共和县恰卜恰镇,颗粒物(PM10),56,58,36,23,16,56,56,NA,NA,21,12,12,13,0.5,0.4
2026-04-02T0600,2676A,97.373,37.376,海西蒙古族藏族自治州,德令哈市,,30,20,23,8,13,96,96,NA,NA,2,5,15,15,0.4,0.4
2026-04-02T0600,1049A,114.492,36.5712,邯郸市,矿院,颗粒物(PM10),85,98,98,50,63,33,33,NA,NA,27,19,2,6,0.4,0.7
2026-04-02T0600,1050A,114.4839,36.6136,邯郸市,丛台公园,细颗粒物(PM2.5),94,107,104,57,70,43,43,NA,NA,29,22,6,8,0.4,0.7
2026-04-02T0600,3458A,114.7893,36.5592,邯郸市,香泉濮院小区,细颗粒物(PM2.5),109,104,125,69,81,37,37,NA,NA,25,24,1,4,0.5,0.7
2026-04-02T0600,3580A,114.1998,36.4439,邯郸市,峰峰矿区临水派出所,细颗粒物(PM2.5),140,NA,79,104,71,46,46,NA,NA,24,18,5,8,0.8,0.8
2026-04-02T0600,4068A,114.5209,36.7697,邯郸市,建安街268号,颗粒物(PM10),87,101,101,43,70,12,12,NA,NA,42,27,1,4,0.4,0.6
2026-04-02T0600,4069A,114.5488,36.6177,邯郸市,丛台东路558号,细颗粒物(PM2.5),109,98,102,69,83,23,23,NA,NA,32,27,2,5,0.5,0.7
2026-04-02T0600,2635A,107.0155,33.0707,汉中市,市监测站,,28,26,45,19,24,33,33,NA,NA,16,19,6,7,0.6,0.6
2026-04-02T0600,2636A,107.0083,33.114,汉中市,鑫源开发区,,46,46,44,26,22,14,14,NA,NA,34,22,6,6,0.8,0.6
2026-04-02T0600,2637A,107.0072,33.0323,汉中市,南郑大河坎水厂,,27,27,43,16,22,27,27,NA,NA,16,17,3,4,0.4,0.4
2026-04-02T0600,1223A,120.2073,30.2111,杭州市,滨江,,28,28,26,14,13,16,16,NA,NA,38,36,7,7,0.7,0.6
2026-04-02T0600,1224A,120.0625,30.2737,杭州市,西溪,,16,16,15,8,8,4,4,NA,NA,28,22,8,8,0.7,0.7
2026-04-02T0600,1226A,120.3417,30.315,杭州市,下沙,NA,NA,50,37,14,15,18,18,NA,NA,33,49,NA,6,0.7,0.5
2026-04-02T0600,1227A,120.1252,30.2465,杭州市,卧龙桥,,15,15,14,7,6,3,3,NA,NA,14,15,7,7,0.5,0.4
2026-04-02T0600,1228A,120.1902,30.2691,杭州市,浙江农大,,29,29,30,20,16,11,11,NA,NA,37,47,6,6,0.4,0.4
2026-04-02T0600,1230A,120.1195,30.3121,杭州市,和睦小学,,30,30,32,18,16,10,10,NA,NA,34,33,6,6,0.8,0.8
2026-04-02T0600,1231A,120.3076,30.4146,杭州市,临平镇,颗粒物(PM10),56,58,36,32,20,1,1,NA,NA,65,47,6,6,0.8,0.6
2026-04-02T0600,1232A,120.2753,30.1839,杭州市,城厢镇,,34,34,21,18,12,18,18,NA,NA,42,38,5,5,0.8,0.7
2026-04-02T0600,1233A,120.0883,30.1808,杭州市,云栖,,24,24,16,10,6,2,2,NA,NA,23,20,6,6,0.5,0.5
2026-04-02T0600,3557A,119.9463,30.0496,杭州市,镇二中,,16,16,15,10,10,10,10,NA,NA,27,32,5,4,1.0,0.9
2026-04-02T0600,3558A,119.7184,30.2367,杭州市,市府大楼,,23,17,13,16,11,17,17,NA,NA,20,16,6,6,0.5,0.4
2026-04-02T0600,3656A,120.1554,30.2863,杭州市,消防大队,,33,33,24,20,14,18,18,NA,NA,35,27,8,8,0.9,0.8
2026-04-02T0600,1270A,117.1957,31.7845,合肥市,明珠广场,细颗粒物(PM2.5),66,68,80,43,47,81,81,NA,NA,16,24,3,3,0.7,0.7
2026-04-02T0600,1271A,117.307,31.8765,合肥市,三里街,细颗粒物(PM2.5),101,92,90,61,51,61,61,NA,NA,30,34,6,6,0.7,0.7
2026-04-02T0600,1272A,117.2587,31.8703,合肥市,琥珀山庄,细颗粒物(PM2.5),82,75,82,51,43,74,74,NA,NA,24,27,6,7,0.5,0.5
2026-04-02T0600,1275A,117.2593,31.9376,合肥市,庐阳区,细颗粒物(PM2.5),82,85,93,51,49,85,85,NA,NA,18,31,5,5,0.8,0.8
2026-04-02T0600,1276A,117.345251,31.861615,合肥市,瑶海区,细颗粒物(PM2.5),88,85,96,54,49,74,74,NA,NA,20,34,7,6,0.8,0.8
2026-04-02T0600,1277A,117.3033,31.7967,合肥市,包河区,颗粒物(PM10),74,83,88,44,45,41,41,NA,NA,55,44,7,7,0.8,0.8
2026-04-02T0600,1278A,117.278,31.7392,合肥市,滨湖新区,颗粒物(PM10),65,70,87,39,47,89,89,NA,NA,9,15,5,5,0.6,0.6
2026-04-02T0600,1279A,117.1324,31.8395,合肥市,高新区,颗粒物(PM10),67,73,77,38,40,90,90,NA,NA,12,19,4,5,0.7,0.7
2026-04-02T0600,3464A,117.3802,31.9148,合肥市,高教基地,细颗粒物(PM2.5),72,75,91,46,49,81,81,NA,NA,24,26,8,8,0.7,0.7
2026-04-02T0600,4098A,117.2518,31.8404,合肥市,中国科学技术大学,细颗粒物(PM2.5),68,73,81,44,45,86,86,NA,NA,11,19,7,6,0.7,0.7
2026-04-02T0600,3614A,79.9241,37.0878,和田地区,地区环保局,颗粒物(PM10),123,178,212,36,49,87,87,NA,NA,1,10,2,2,0.3,0.4
2026-04-02T0600,3615A,79.9132,37.1137,和田地区,市环保局,颗粒物(PM10),108,140,229,40,52,49,49,NA,NA,40,30,1,4,1.0,0.9
2026-04-02T0600,2517A,108.0496,24.6957,河池市,市环保站,,33,32,24,23,12,10,10,NA,NA,21,14,5,6,0.7,0.6
2026-04-02T0600,4302A,108.0901,24.6945,河池市,上任中路54号,,38,38,30,25,14,18,18,NA,NA,29,22,8,8,0.8,0.8
2026-04-02T0600,1697A,114.6962,23.7538,河源市,东埔,,27,27,14,15,10,53,53,NA,NA,15,14,7,6,0.4,0.5
2026-04-02T0600,1698A,114.6895,23.7232,河源市,老城,,20,17,13,14,9,48,48,NA,NA,16,12,7,6,0.5,0.5
2026-04-02T0600,3374A,115.5562,35.089,菏泽市,定陶老年大学,细颗粒物(PM2.5),84,68,57,52,35,84,84,NA,NA,18,17,6,5,0.4,0.4
2026-04-02T0600,4114A,115.4239,35.2593,菏泽市,黄河路600号,"颗粒物(PM10),细颗粒物(PM2.5)",68,74,73,44,36,66,66,NA,NA,13,15,2,4,0.4,0.4
2026-04-02T0600,4115A,115.5025,35.2727,菏泽市,菏泽市人社局,细颗粒物(PM2.5),86,58,59,53,37,66,66,NA,NA,19,17,5,6,0.3,0.3
2026-04-02T0600,4184A,115.479691,35.244011,菏泽市,永昌路1号,NA,NA,NA,60,46,33,88,88,NA,NA,15,18,2,3,0.4,0.3
2026-04-02T0600,4193A,115.471542,35.280012,菏泽市,长城路999号,细颗粒物(PM2.5),74,68,59,47,35,85,85,NA,NA,15,14,12,10,0.3,0.3
2026-04-02T0600,2514A,111.5264,24.4178,贺州市,环保小区,,41,41,25,21,16,16,16,NA,NA,23,15,4,4,1.5,1.4
2026-04-02T0600,2515A,111.561,24.4074,贺州市,政协大楼,,37,37,26,25,19,3,3,NA,NA,45,25,7,6,0.7,0.7
2026-04-02T0600,3534A,111.4744,24.455,贺州市,西湾,,44,44,32,22,16,11,11,NA,NA,24,22,7,7,0.7,0.7
2026-04-02T0600,2385A,114.17,35.9019,鹤壁市,市监测站,细颗粒物(PM2.5),146,132,107,110,81,53,53,NA,NA,26,21,7,9,1.2,1
2026-04-02T0600,2386A,114.2953,35.7512,鹤壁市,市交警支队,细颗粒物(PM2.5),128,130,106,90,71,58,58,NA,NA,19,19,10,11,1.1,0.9
2026-04-02T0600,2387A,114.2877,35.7302,鹤壁市,迎宾馆,细颗粒物(PM2.5),127,130,110,89,71,64,64,NA,NA,20,19,11,14,1.0,0.9
2026-04-02T0600,3474A,114.2616,35.6824,鹤壁市,大新区,细颗粒物(PM2.5),137,NA,83,100,72,60,60,NA,NA,17,16,7,9,1.0,0.9
2026-04-02T0600,3596A,114.1573,35.9607,鹤壁市,南山宾馆,细颗粒物(PM2.5),146,142,113,110,78,74,74,NA,NA,11,13,11,12,1.2,0.9
2026-04-02T0600,2244A,130.2537,47.3416,鹤岗市,哈啤分公司,细颗粒物(PM2.5),54,37,34,37,24,39,39,NA,NA,21,10,7,8,0.6,0.5
2026-04-02T0600,2245A,130.2683,47.3087,鹤岗市,斯达机电,细颗粒物(PM2.5),119,113,46,80,30,80,80,NA,NA,20,13,13,10,0.6,0.4
2026-04-02T0600,2246A,130.3114,47.3388,鹤岗市,东山纸板厂,颗粒物(PM10),163,276,106,37,31,16,16,NA,NA,36,17,11,10,1.8,0.7
2026-04-02T0600,2263A,127.4832,50.2524,黑河市,交通局,,19,19,30,7,13,50,50,NA,NA,5,7,5,6,0.3,0.3
2026-04-02T0600,2264A,127.5146,50.2339,黑河市,环保局,,17,17,24,11,8,49,49,NA,NA,9,10,6,7,0.4,0.4
2026-04-02T0600,1074A,115.6839,37.754,衡水市,电机北厂,颗粒物(PM10),101,122,118,36,43,20,20,NA,NA,42,29,4,4,0.3,0.3
2026-04-02T0600,1075A,115.6303,37.7318,衡水市,市监测站,颗粒物(PM10),93,109,116,27,37,12,12,NA,NA,50,26,7,9,0.3,0.4
2026-04-02T0600,3188A,115.6684,37.7216,衡水市,市城管局,颗粒物(PM10),98,117,120,23,41,24,24,NA,NA,43,25,10,8,0.4,0.4
2026-04-02T0600,3459A,115.599,37.5491,衡水市,地表水厂,颗粒物(PM10),80,92,117,27,48,19,19,NA,NA,42,27,4,5,0.3,0.4
2026-04-02T0600,2457A,112.6209,26.9268,衡阳市,衡阳化工总厂,,40,40,43,25,30,39,39,NA,NA,13,24,4,4,0.7,0.9
2026-04-02T0600,2458A,112.621,26.8957,衡阳市,珠晖区环保局,细颗粒物(PM2.5),54,52,47,37,32,0,0,NA,NA,45,35,9,7,0.8,0.9
2026-04-02T0600,2459A,112.628,26.8654,衡阳市,市委党校,,47,47,45,32,32,25,25,NA,NA,18,22,7,7,0.9,1
2026-04-02T0600,2460A,112.6007,26.8977,衡阳市,市监测站,细颗粒物(PM2.5),62,50,57,41,40,10,10,NA,NA,40,39,10,8,0.8,1.3
2026-04-02T0600,2461A,112.5658,26.9013,衡阳市,真空机电公司,细颗粒物(PM2.5),54,46,50,37,37,20,20,NA,NA,23,26,9,9,1.0,1.6
2026-04-02T0600,3399A,112.6703,26.8817,衡阳市,师范学院,颗粒物(PM10),58,61,41,37,27,12,12,NA,NA,18,12,5,5,0.9,0.8
2026-04-02T0600,3038A,103.3757,23.3679,红河哈尼族彝族自治州,州图书馆,细颗粒物(PM2.5),52,49,58,36,46,82,82,NA,NA,6,7,4,4,0.5,0.5
2026-04-02T0600,4154A,103.401,23.3561,红河哈尼族彝族自治州,蒙自市朝阳路,,48,NA,46,33,43,81,81,NA,NA,6,8,9,9,0.4,0.4
2026-04-02T0600,1090A,111.6506,40.7517,呼和浩特市,呼市一监,细颗粒物(PM2.5),127,112,55,89,37,29,29,NA,NA,39,20,10,10,0.9,0.5
2026-04-02T0600,1094A,111.7516,40.8369,呼和浩特市,如意水处理厂,颗粒物(PM10),58,60,40,32,17,28,28,NA,NA,37,31,9,10,0.4,0.4
2026-04-02T0600,1095A,111.727798,40.806187,呼和浩特市,二十九中,NA,NA,93,63,57,27,16,16,NA,NA,NA,28,10,10,0.6,0.5
2026-04-02T0600,1097A,111.717,40.7617,呼和浩特市,化肥厂生活区,细颗粒物(PM2.5),107,74,53,67,35,15,15,NA,NA,36,24,8,7,0.6,0.5
2026-04-02T0600,3699A,111.6519,40.8389,呼和浩特市,海东办,颗粒物(PM10),58,61,38,35,17,17,17,NA,NA,46,29,4,5,0.5,0.4
2026-04-02T0600,4275A,111.591512,40.827312,呼和浩特市,成吉思汗西街8号,颗粒物(PM10),55,56,38,31,14,38,38,NA,NA,34,39,5,6,0.4,0.3
2026-04-02T0600,4276A,111.6597,40.8077,呼和浩特市,公园东路75号,"颗粒物(PM10),细颗粒物(PM2.5)",72,80,52,46,25,30,30,NA,NA,34,28,11,14,0.7,0.6
2026-04-02T0600,4277A,111.5427,40.7846,呼和浩特市,金海路35号,细颗粒物(PM2.5),70,74,53,45,21,45,45,NA,NA,25,30,5,6,0.4,0.4
2026-04-02T0600,3061A,119.7511,49.1576,呼伦贝尔市,国华电力东,,22,22,20,10,10,54,54,NA,NA,7,6,5,5,0.2,0.2
2026-04-02T0600,4279A,119.7569,49.2222,呼伦贝尔市,伊敏大街东7号,,36,36,22,16,9,34,34,NA,NA,22,8,5,7,0.5,0.5
2026-04-02T0600,1250A,120.075,30.867,湖州市,城西水厂,,46,45,32,32,22,12,12,NA,NA,54,39,6,6,0.7,0.7
2026-04-02T0600,2873A,120.083,30.8929,湖州市,仁皇山新区,细颗粒物(PM2.5),54,52,33,37,26,7,7,NA,NA,68,35,6,5,0.8,0.6
2026-04-02T0600,2907A,120.1846,30.8592,湖州市,吴兴区站,颗粒物(PM10),54,55,42,34,27,4,4,NA,NA,60,31,5,6,0.8,0.7
2026-04-02T0600,3562A,120.4146,30.8538,湖州市,南浔区站,细颗粒物(PM2.5),102,93,52,62,34,0,0,NA,NA,66,24,6,4,0.9,0.7
2026-04-02T0600,1607A,120.904878,40.721091,葫芦岛市,龙港区,颗粒物(PM10),59,62,55,25,14,13,13,NA,NA,50,24,10,11,0.6,0.4
2026-04-02T0600,1608A,120.8382,40.7521,葫芦岛市,化工街,颗粒物(PM10),65,70,66,38,22,1,1,NA,NA,66,34,23,22,0.6,0.5
2026-04-02T0600,1609A,120.8339,40.7078,葫芦岛市,新区,细颗粒物(PM2.5),72,74,55,46,17,1,1,NA,NA,72,36,10,9,0.9,0.4
2026-04-02T0600,1610A,120.8697,40.7679,葫芦岛市,东城区,细颗粒物(PM2.5),82,93,63,51,25,3,3,NA,NA,58,33,159,50,0.7,0.6
2026-04-02T0600,2483A,109.9297,27.5383,怀化市,河西地税局,,43,43,36,23,20,6,6,NA,NA,18,20,4,4,/,/
2026-04-02T0600,2484A,109.9783,27.5342,怀化市,市四医院,,40,40,40,19,20,40,40,NA,NA,11,19,8,8,0.4,0.5
2026-04-02T0600,2485A,109.9971,27.5579,怀化市,监测楼,,36,36,36,24,31,15,15,NA,NA,20,20,4,2,0.4,0.3
2026-04-02T0600,1210A,119.0566,33.5991,淮安市,钵池山,细颗粒物(PM2.5),112,97,98,73,73,80,80,NA,NA,18,22,8,8,0.6,0.6
2026-04-02T0600,1211A,119.0083,33.578,淮安市,北京南路,细颗粒物(PM2.5),133,97,92,96,84,50,50,NA,NA,23,26,7,8,0.9,0.8
2026-04-02T0600,1212A,118.9938,33.6083,淮安市,市监测站,细颗粒物(PM2.5),115,80,92,76,81,90,90,NA,NA,19,24,6,7,0.8,0.9
2026-04-02T0600,1213A,119.135,33.5038,淮安市,楚州区监测站,细颗粒物(PM2.5),92,88,103,56,82,0,0,NA,NA,77,43,6,6,0.7,0.6
2026-04-02T0600,3426A,118.8757,33.2897,淮安市,新华书店,颗粒物(PM10),92,108,109,42,41,62,62,NA,NA,21,18,8,7,0.6,0.6
2026-04-02T0600,4092A,119.119691,33.550006,淮安市,枚皋中路89号,细颗粒物(PM2.5),82,89,96,51,70,11,11,NA,NA,53,23,9,10,0.8,0.8
2026-04-02T0600,4206A,119.028838,33.631911,淮安市,承德北路606号,细颗粒物(PM2.5),110,97,115,70,76,83,83,NA,NA,12,18,8,9,0.4,0.5
2026-04-02T0600,2282A,116.8005,33.9749,淮北市,监测站,细颗粒物(PM2.5),90,87,62,55,35,75,75,NA,NA,22,18,7,7,0.5,0.4
2026-04-02T0600,2283A,116.8094,33.9008,淮北市,烈山区政府,细颗粒物(PM2.5),101,79,68,61,44,76,76,NA,NA,18,19,6,6,0.6,0.5
2026-04-02T0600,4017A,116.7926,33.9534,淮北市,市博物馆,细颗粒物(PM2.5),96,64,56,58,36,73,73,NA,NA,22,17,4,4,0.6,0.6
2026-04-02T0600,4100A,116.8322,33.9884,淮北市,杜集区第一实验学校,细颗粒物(PM2.5),94,88,75,57,42,65,65,NA,NA,22,16,8,6,0.6,0.5
2026-04-02T0600,2277A,116.8304,32.7726,淮南市,潘集区政府,细颗粒物(PM2.5),109,95,77,69,51,53,53,NA,NA,19,18,7,7,0.7,0.6
2026-04-02T0600,2279A,116.8569,32.5949,淮南市,谢家集区政府,细颗粒物(PM2.5),114,89,74,75,57,75,75,NA,NA,16,21,9,9,0.6,0.6
2026-04-02T0600,2280A,116.8279,32.6333,淮南市,八公山区政府,细颗粒物(PM2.5),109,83,75,69,54,70,70,NA,NA,15,13,11,9,0.7,0.6
2026-04-02T0600,2894A,117.0561,32.6536,淮南市,经济技术开发区消防队,细颗粒物(PM2.5),110,82,74,70,59,64,64,NA,NA,19,22,8,8,0.5,0.5
2026-04-02T0600,3329A,117.011,32.5891,淮南市,山南新区,细颗粒物(PM2.5),108,88,85,68,54,78,78,NA,NA,12,15,8,8,0.6,0.5
2026-04-02T0600,4209A,117.003137,32.644456,淮南市,国庆中路369号,细颗粒物(PM2.5),103,90,82,63,54,77,77,NA,NA,11,15,11,11,0.6,0.5
2026-04-02T0600,2446A,114.9021,30.474,黄冈市,职工中心,,45,43,48,31,35,107,107,NA,NA,5,13,11,10,0.7,0.7
2026-04-02T0600,2929A,114.8858,30.4519,黄冈市,红卫路,,50,43,44,35,34,101,101,NA,NA,14,14,11,7,0.4,0.5
2026-04-02T0600,3398A,114.9134,30.4446,黄冈市,市林业局,细颗粒物(PM2.5),58,53,57,39,37,96,96,NA,NA,12,17,4,4,0.2,0.3
2026-04-02T0600,2672A,102.02,35.5101,黄南藏族自治州,同仁县隆务镇,,26,21,27,17,12,82,82,NA,NA,2,2,9,10,0.2,0.2
2026-04-02T0600,2295A,118.2905,29.6965,黄山市,延安路89号,,32,27,22,22,18,11,11,NA,NA,14,10,5,5,0.5,0.4
2026-04-02T0600,2297A,118.1369,30.2755,黄山市,黄山区政府5号楼,,32,25,32,22,17,8,8,NA,NA,6,8,3,3,0.3,0.4
2026-04-02T0600,4210A,118.335445,29.720283,黄山市,滨江东路7-2号,,32,32,36,19,13,14,14,NA,NA,10,8,/,/,/,/
2026-04-02T0600,2423A,115.0547,30.2332,黄石市,沈家营,颗粒物(PM10),53,54,61,26,35,79,79,NA,NA,22,24,8,7,0.6,0.8
2026-04-02T0600,2426A,114.899,30.211,黄石市,铁山,,43,43,48,30,34,94,94,NA,NA,15,16,12,12,0.6,0.8
2026-04-02T0600,2427A,115.0259,30.2108,黄石市,团城山,,48,44,56,33,36,97,97,NA,NA,8,16,5,6,0.6,0.9
2026-04-02T0600,3149A,115.0174,30.1591,黄石市,笔架山北路,NA,NA,65,67,33,32,NA,NA,NA,NA,8,12,15,12,1.0,0.9
2026-04-02T0600,4185A,115.078022,30.21118,黄石市,磁湖东路29号,,46,46,65,29,41,90,90,NA,NA,18,23,8,10,1.3,1.2
2026-04-02T0600,1392A,114.4181,23.0528,惠州市,河南岸金山湖子站,,29,29,19,17,11,91,91,NA,NA,6,14,7,7,0.7,0.7
2026-04-02T0600,1393A,114.4055,23.0824,惠州市,下埔横江三路子站,,35,35,20,18,11,89,89,NA,NA,8,10,4,6,0.6,0.6
2026-04-02T0600,1395A,114.4645,22.7832,惠州市,惠阳区承修路船湖子站,,30,28,19,14,10,94,94,NA,NA,8,12,6,6,0.5,0.4
2026-04-02T0600,1396A,114.5316,22.7423,惠州市,大亚湾管委会子站,,31,31,19,13,8,88,88,NA,NA,9,9,4,4,0.6,0.5
2026-04-02T0600,3314A,114.4334,22.8134,惠州市,惠阳秋长,,30,19,18,13,10,94,94,NA,NA,10,12,/,/,/,/
2026-04-02T0600,3452A,114.6521,22.7755,惠州市,大亚湾霞涌,,31,27,17,19,10,97,97,NA,NA,9,11,/,/,/,/
2026-04-02T0600,4300A,114.4089,23.1147,惠州市,文华一路1号,,33,33,16,20,9,77,77,NA,NA,10,12,/,/,/,/
2026-04-02T0600,2240A,130.9618,45.2926,鸡西市,环保局,细颗粒物(PM2.5),228,228,118,178,88,46,46,NA,NA,43,18,10,8,0.9,0.4
2026-04-02T0600,2243A,130.9294,45.2959,鸡西市,第一中学,细颗粒物(PM2.5),234,251,126,184,93,107,107,NA,NA,26,16,7,6,0.8,0.5
2026-04-02T0600,3707A,131.0069,45.2988,鸡西市,欧美日汽修厂,细颗粒物(PM2.5),169,257,139,128,83,38,38,NA,NA,60,26,11,11,1.7,1.2
2026-04-02T0600,2367A,114.9753,27.0803,吉安市,红声器材厂,,39,39,35,23,18,10,10,NA,NA,30,25,6,7,0.9,0.9
2026-04-02T0600,2369A,114.9903,27.1313,吉安市,市环境监测站,,40,40,31,28,18,44,44,NA,NA,20,18,9,8,/,/
2026-04-02T0600,2370A,115.009527,27.096792,吉安市,青原区法院,,37,37,32,23,18,23,23,NA,NA,24,21,8,7,1.0,1
2026-04-02T0600,1772A,126.54,43.8622,吉林市,哈达湾,细颗粒物(PM2.5),210,204,163,160,132,53,53,NA,NA,28,33,8,13,1.2,1.2
2026-04-02T0600,1773A,126.5843,43.8358,吉林市,东局子,细颗粒物(PM2.5),192,163,148,144,111,67,67,NA,NA,27,26,4,6,1.1,1.2
2026-04-02T0600,1774A,126.5051,43.8243,吉林市,电力学院,细颗粒物(PM2.5),255,247,176,205,123,30,30,NA,NA,36,35,7,11,1.6,1.4
2026-04-02T0600,1775A,126.6133,43.8971,吉林市,江北,细颗粒物(PM2.5),163,188,158,124,88,64,64,NA,NA,17,23,8,11,1.2,1.1
2026-04-02T0600,1776A,126.5549,43.8304,吉林市,江南公园,细颗粒物(PM2.5),189,167,144,142,114,72,72,NA,NA,20,29,7,11,0.9,0.9
2026-04-02T0600,2868A,126.4737,43.953,吉林市,九站,细颗粒物(PM2.5),225,227,203,175,144,6,6,NA,NA,64,52,14,18,1.3,1.1
2026-04-02T0600,1299A,116.9866,36.6118,济南市,科干所,,31,17,95,7,40,99,99,NA,NA,6,33,5,8,0.4,0.8
2026-04-02T0600,1300A,116.9379,36.6652,济南市,农科所,,21,12,112,11,45,66,66,NA,NA,11,34,5,8,0.3,0.6
2026-04-02T0600,1301A,117.1265,36.6736,济南市,开发区,,30,17,109,9,40,96,96,NA,NA,8,34,4,8,0.5,0.8
2026-04-02T0600,1303A,117.0616,36.6865,济南市,省种子仓库,,34,34,128,19,44,47,47,NA,NA,37,35,5,8,0.6,0.8
2026-04-02T0600,1304A,116.9495185,36.644937,济南市,机床二厂,,29,24,114,12,44,90,90,NA,NA,12,34,5,8,0.5,0.7
2026-04-02T0600,1305A,117.0496,36.6629,济南市,市监测站,,20,20,119,14,41,64,64,NA,NA,20,37,3,6,0.5,0.7
2026-04-02T0600,1306A,116.7674,36.5458,济南市,长清党校,NA,NA,22,109,NA,52,95,95,NA,NA,10,29,1,6,0.4,0.7
2026-04-02T0600,1961A,117.5323,36.6865,济南市,东山小学,,32,22,122,9,41,100,100,NA,NA,15,34,3,6,0.5,0.7
2026-04-02T0600,3059A,117.7181,36.205,济南市,泰兴公司,,34,34,79,18,46,76,76,NA,NA,14,33,10,10,0.5,0.5
2026-04-02T0600,3064A,117.6861,36.2172,济南市,莱芜战役纪念馆,,34,34,81,14,47,71,71,NA,NA,16,30,4,6,0.7,0.7
2026-04-02T0600,3494A,117.1673,36.9782,济南市,济阳区政府,颗粒物(PM10),67,73,125,38,48,20,20,NA,NA,33,26,7,12,0.8,0.7
2026-04-02T0600,3495A,117.1168,36.6299,济南市,锦屏中学,,29,10,94,8,40,92,92,NA,NA,8,26,5,8,0.3,0.5
2026-04-02T0600,4108A,117.7107,36.2385,济南市,山财大街5号,,29,19,68,19,45,90,90,NA,NA,16,33,7,9,0.4,0.7
2026-04-02T0600,4109A,116.9744,36.6889,济南市,无影山路12号,,24,NA,105,14,45,76,76,NA,NA,14,35,4,8,0.6,0.9
2026-04-02T0600,1653A,116.6229,35.4288,济宁市,火炬城,NA,NA,57,57,55,44,NA,NA,NA,NA,24,16,6,6,0.8,0.6
2026-04-02T0600,3500A,116.5808,35.3703,济宁市,北湖一中,细颗粒物(PM2.5),68,44,57,44,41,59,59,NA,NA,21,15,4,7,0.7,0.6
2026-04-02T0600,3501A,116.8251,35.5592,济宁市,服务中心,细颗粒物(PM2.5),78,72,81,49,59,35,35,NA,NA,33,22,3,3,0.7,0.6
2026-04-02T0600,3678A,116.5907,35.4054,济宁市,市第七中学,细颗粒物(PM2.5),66,52,63,43,41,64,64,NA,NA,20,17,8,9,0.7,0.6
2026-04-02T0600,4111A,116.6075,35.4566,济宁市,任和路,细颗粒物(PM2.5),92,93,76,56,43,46,46,NA,NA,24,16,7,7,0.8,0.6
2026-04-02T0600,4112A,116.5648,35.3921,济宁市,文体南路1号,颗粒物(PM10),55,56,72,32,35,70,70,NA,NA,16,16,4,6,0.6,0.5
2026-04-02T0600,4122A,112.6071,35.1015,济源市,市委党校,细颗粒物(PM2.5),111,128,96,72,43,64,64,NA,NA,19,22,13,12,0.8,0.6
2026-04-02T0600,4123A,112.596,35.0702,济源市,沁园中路1号,细颗粒物(PM2.5),130,106,83,93,51,77,77,NA,NA,18,19,5,9,0.7,0.7
2026-04-02T0600,2255A,130.2749,46.8028,佳木斯市,佳纺,细颗粒物(PM2.5),229,186,105,179,83,32,32,NA,NA,57,22,7,7,1.0,0.5
2026-04-02T0600,2257A,130.3258,46.7975,佳木斯市,环保局,细颗粒物(PM2.5),229,NA,86,179,78,50,50,NA,NA,48,19,NA,5,0.7,0.4
2026-04-02T0600,4285A,130.363,46.806,佳木斯市,顺和街,细颗粒物(PM2.5),260,NA,88,210,89,102,102,NA,NA,40,21,8,5,0.9,0.5
2026-04-02T0600,4286A,130.3952,46.8268,佳木斯市,长安路196号,细颗粒物(PM2.5),241,NA,91,191,81,49,49,NA,NA,60,21,NA,8,1.1,0.5
2026-04-02T0600,1252A,120.7439,30.778,嘉兴市,清河小学,细颗粒物(PM2.5),113,87,43,74,31,22,22,NA,NA,50,35,7,6,1.0,1
2026-04-02T0600,1253A,120.7261,30.7477,嘉兴市,嘉兴学院,细颗粒物(PM2.5),104,113,51,64,31,17,17,NA,NA,60,33,6,6,0.4,0.4
2026-04-02T0600,2872A,120.7845,30.7524,嘉兴市,南湖区残联,细颗粒物(PM2.5),106,79,38,66,33,35,35,NA,NA,39,25,5,4,0.6,0.6
2026-04-02T0600,3407A,120.6915,30.7741,嘉兴市,秀洲住建,细颗粒物(PM2.5),103,74,36,63,26,2,2,NA,NA,62,38,5,5,0.6,0.4
2026-04-02T0600,1945A,98.291,39.7705,嘉峪关市,气象局,颗粒物(PM10),67,73,75,28,22,87,87,NA,NA,10,12,15,18,0.9,1
2026-04-02T0600,2884A,98.2672,39.7978,嘉峪关市,酒钢宾馆,颗粒物(PM10),78,88,84,32,25,50,50,NA,NA,24,13,14,27,0.5,0.9
2026-04-02T0600,3248A,98.2644,39.7723,嘉峪关市,雄关区,颗粒物(PM10),78,88,77,28,22,75,75,NA,NA,20,16,9,12,0.6,0.8
2026-04-02T0600,1383A,113.1063,22.6058,江门市,北街,细颗粒物(PM2.5),98,NA,39,59,30,81,81,NA,NA,28,31,/,/,/,/
2026-04-02T0600,1384A,113.073,22.5835,江门市,西区,细颗粒物(PM2.5),100,68,44,60,30,80,80,NA,NA,32,32,/,/,/,/
2026-04-02T0600,1385A,113.0218,22.531,江门市,圭峰西,细颗粒物(PM2.5),88,59,37,54,28,84,84,NA,NA,25,42,/,/,/,/
2026-04-02T0600,1386A,113.0826,22.5947,江门市,东湖,细颗粒物(PM2.5),110,83,42,70,30,90,90,NA,NA,23,26,8,6,0.7,0.7
2026-04-02T0600,3311A,113.1077,22.5647,江门市,江海富民,细颗粒物(PM2.5),104,92,47,64,31,85,85,NA,NA,28,28,/,/,0.8,0.8
2026-04-02T0600,3449A,113.0496,22.4669,江门市,新会银湖,NA,NA,NA,32,56,29,7,7,NA,NA,57,33,6,7,0.7,0.5
2026-04-02T0600,3335A,113.3137,35.2643,焦作市,马村街道办,细颗粒物(PM2.5),173,143,86,131,64,71,71,NA,NA,21,16,15,10,0.9,0.5
2026-04-02T0600,3336A,113.2464,35.2374,焦作市,焦作技师学院,细颗粒物(PM2.5),158,163,84,120,58,73,73,NA,NA,19,16,13,10,1.4,1
2026-04-02T0600,3477A,113.1656,35.2536,焦作市,中站许衡医院,细颗粒物(PM2.5),96,112,82,58,47,95,95,NA,NA,9,14,9,11,0.6,0.6
2026-04-02T0600,3981A,113.2456,35.18,焦作市,原李万街道办,细颗粒物(PM2.5),165,130,106,125,63,69,69,NA,NA,19,14,28,12,1.3,0.7
2026-04-02T0600,4264A,113.234,35.219,焦作市,新安路1731号,细颗粒物(PM2.5),176,186,99,133,62,78,78,NA,NA,26,19,17,11,1.2,0.8
2026-04-02T0600,4295A,113.2722,35.2121,焦作市,人民路3066号,细颗粒物(PM2.5),170,167,101,129,62,81,81,NA,NA,17,13,13,7,1.2,0.8
2026-04-02T0600,1708A,116.3701,23.5345,揭阳市,新兴,,22,11,20,3,8,68,68,NA,NA,14,12,8,7,0.7,0.7
2026-04-02T0600,1709A,116.3261,23.5442,揭阳市,西马,,23,12,22,3,9,71,71,NA,NA,11,11,6,5,0.8,0.8
2026-04-02T0600,1710A,116.361,23.5627,揭阳市,东兴,,22,10,21,3,10,70,70,NA,NA,11,13,4,5,/,/
2026-04-02T0600,1711A,116.4151,23.5295,揭阳市,渔湖,,25,11,34,3,10,80,80,NA,NA,13,12,4,4,/,/
2026-04-02T0600,3320A,116.4028,23.5699,揭阳市,曲溪,,23,14,21,3,10,72,72,NA,NA,12,13,29,10,0.6,0.6
2026-04-02T0600,1944A,102.1691,38.5166,金昌市,天庆家园,颗粒物(PM10),53,53,81,26,27,23,23,NA,NA,34,20,15,16,0.4,0.5
2026-04-02T0600,4022A,102.1648,38.5369,金昌市,金川区人防中心,颗粒物(PM10),53,53,79,24,23,52,52,NA,NA,9,12,8,6,0.4,0.3
2026-04-02T0600,4239A,102.193042,38.531887,金昌市,长春路96号,颗粒物(PM10),55,57,78,31,33,44,44,NA,NA,15,15,14,10,0.6,0.6
2026-04-02T0600,1262A,119.6478,29.0773,金华市,十五中,,40,40,20,22,10,9,9,NA,NA,34,20,4,3,0.6,0.6
2026-04-02T0600,1263A,119.6859,29.1032,金华市,监测站,,34,34,17,17,9,0,0,NA,NA,41,24,3,3,0.5,0.5
2026-04-02T0600,3659A,119.656,29.1132,金华市,气象局,,40,40,20,22,10,2,2,NA,NA,48,27,3,3,0.6,0.5
2026-04-02T0600,1767A,121.1114,41.0879,锦州市,南山,细颗粒物(PM2.5),101,62,61,61,28,2,2,NA,NA,47,26,10,11,0.9,0.6
2026-04-02T0600,1768A,121.060361,40.842794,锦州市,开发区,细颗粒物(PM2.5),108,112,77,68,30,1,1,NA,NA,52,32,78,14,1.2,0.6
2026-04-02T0600,1769A,121.1836,41.1118,锦州市,百股街道,细颗粒物(PM2.5),72,59,60,46,30,4,4,NA,NA,47,26,9,14,0.8,0.6
2026-04-02T0600,1770A,121.1176,41.1224,锦州市,天安街道,细颗粒物(PM2.5),121,87,58,83,30,12,12,NA,NA,41,25,13,7,0.7,0.5
2026-04-02T0600,1771A,121.1303,41.1385,锦州市,北湖公园,细颗粒物(PM2.5),94,66,51,57,26,6,6,NA,NA,44,20,6,5,0.8,0.6
2026-04-02T0600,2160A,112.8496,35.5051,晋城市,自来水公司,细颗粒物(PM2.5),76,74,56,48,24,86,86,NA,NA,13,16,4,6,0.4,0.5
2026-04-02T0600,2162A,112.8509,35.4886,晋城市,市环保局,颗粒物(PM10),56,58,63,32,27,59,59,NA,NA,20,13,5,7,0.6,0.6
2026-04-02T0600,3620A,112.8258,35.4804,晋城市,泽州一中,细颗粒物(PM2.5),120,NA,57,81,26,67,67,NA,NA,17,15,3,5,0.8,0.8
2026-04-02T0600,4078A,112.8246,35.5152,晋城市,前书院路,颗粒物(PM10),83,96,60,38,22,54,54,NA,NA,15,16,4,8,0.6,0.6
2026-04-02T0600,4079A,112.8864,35.4773,晋城市,祥云街666号,细颗粒物(PM2.5),72,73,51,46,27,74,74,NA,NA,15,12,6,8,0.5,0.5
2026-04-02T0600,2174A,112.6992,37.6984,晋中市,榆次区政府,颗粒物(PM10),53,53,62,34,26,44,44,NA,NA,23,23,8,10,0.5,0.5
2026-04-02T0600,2865A,112.7195,37.683,晋中市,榆次三中,颗粒物(PM10),70,78,66,36,24,22,22,NA,NA,38,22,8,10,0.4,0.3
2026-04-02T0600,4080A,112.7375,37.7215,晋中市,广安街188号,颗粒物(PM10),60,63,67,38,29,28,28,NA,NA,34,24,8,11,0.4,0.4
2026-04-02T0600,4200A,112.7478,37.6954,晋中市,迎宾街26号,颗粒物(PM10),62,66,64,37,27,38,38,NA,NA,26,21,7,10,0.4,0.4
2026-04-02T0600,2439A,112.2012,31.048,荆门市,竹园小学,颗粒物(PM10),53,53,49,34,32,84,84,NA,NA,21,15,1,1,0.4,0.4
2026-04-02T0600,2440A,112.1968,30.9892,荆门市,掇刀,颗粒物(PM10),55,56,51,28,34,96,96,NA,NA,14,13,9,8,0.6,0.6
2026-04-02T0600,3012A,112.1849,31.0361,荆门市,西山林语,,44,44,44,25,30,88,88,NA,NA,14,12,5,5,0.4,0.3
2026-04-02T0600,3547A,112.1631,31.0134,荆门市,龙泉中学南校,颗粒物(PM10),58,60,50,31,26,86,86,NA,NA,18,15,5,5,0.8,0.8
2026-04-02T0600,4124A,112.2213,31.0654,荆门市,新台西路6号,颗粒物(PM10),58,60,50,38,33,49,49,NA,NA,26,14,10,8,0.6,0.6
2026-04-02T0600,1844A,112.2493,30.3198,荆州市,市图书馆,细颗粒物(PM2.5),62,44,35,41,29,93,93,NA,NA,18,17,13,9,0.5,0.4
2026-04-02T0600,1845A,112.2009,30.3543,荆州市,市委党校,细颗粒物(PM2.5),54,49,39,37,35,86,86,NA,NA,36,24,10,9,0.9,0.8
2026-04-02T0600,3194A,112.2749,30.3124,荆州市,管委会,细颗粒物(PM2.5),62,50,38,41,31,82,82,NA,NA,15,17,12,9,0.6,0.6
2026-04-02T0600,4268A,112.1722,30.3366,荆州市,学苑路85号,细颗粒物(PM2.5),72,57,42,46,33,71,71,NA,NA,20,12,9,6,0,0
2026-04-02T0600,2343A,117.2114,29.2931,景德镇市,老干部活动中心,,40,35,44,28,35,41,41,NA,NA,6,12,6,8,0.8,0.8
2026-04-02T0600,2344A,117.1893,29.2789,景德镇市,兽医站,,39,39,52,24,35,46,46,NA,NA,9,15,4,4,0.7,0.7
2026-04-02T0600,2346A,117.246,29.2958,景德镇市,陶研所,,42,38,37,29,35,23,23,NA,NA,19,22,5,5,0.5,0.6
2026-04-02T0600,4289A,117.154766,29.256967,景德镇市,青少年活动中心,,46,37,48,32,42,44,44,NA,NA,10,20,4,18,/,/
2026-04-02T0600,1803A,115.9873,29.6816,九江市,十里,,43,43,47,28,23,19,19,NA,NA,49,38,6,6,0.8,0.8
2026-04-02T0600,1804A,115.9583,29.7047,九江市,茅山头,,46,46,43,28,25,20,20,NA,NA,48,31,3,4,0.6,0.6
2026-04-02T0600,1805A,115.9877,29.7295,九江市,西园,,49,49,44,28,25,78,78,NA,NA,29,32,4,5,0.6,0.7
2026-04-02T0600,1808A,115.9112,29.6038,九江市,综合工业园,,38,37,34,26,18,76,76,NA,NA,23,29,7,8,0.6,0.6
2026-04-02T0600,3190A,116.0254,29.6995,九江市,外国语学校,,40,40,35,18,19,45,45,NA,NA,31,20,5,6,0.7,0.7
2026-04-02T0600,4253A,116.010205,29.659402,九江市,莲花大道8号,,40,40,39,18,19,60,60,NA,NA,16,19,4,5,0.5,0.6
2026-04-02T0600,4240A,98.495752,39.733935,酒泉市,玉门东路5号,颗粒物(PM10),79,90,92,27,28,56,56,NA,NA,23,12,6,7,0.3,0.3
2026-04-02T0600,4241A,98.5099,39.7506,酒泉市,北大街108号,颗粒物(PM10),75,85,83,29,29,54,54,NA,NA,22,15,9,9,0.3,0.3
2026-04-02T0600,2698A,76.0071,39.466,喀什地区,巡警大队,颗粒物(PM10),118,165,174,48,50,26,26,NA,NA,53,39,5,5,0.6,0.6
2026-04-02T0600,2699A,75.9756,39.4693,喀什地区,吾办,颗粒物(PM10),133,205,190,51,53,36,36,NA,NA,37,40,2,4,0.6,0.8
2026-04-02T0600,4027A,75.9485,39.4688,喀什地区,老干局,颗粒物(PM10),180,310,178,55,42,48,48,NA,NA,31,39,3,4,0.5,0.6
2026-04-02T0600,1824A,114.3389,34.778,开封市,肿瘤医院,细颗粒物(PM2.5),86,NA,58,53,43,68,68,NA,NA,17,20,6,8,0.6,0.6
2026-04-02T0600,1826A,114.2884,34.7966,开封市,世纪星幼儿园,细颗粒物(PM2.5),52,48,61,36,36,69,69,NA,NA,19,20,7,8,0.5,0.5
2026-04-02T0600,3147A,114.3434,34.8101,开封市,龙亭公园,细颗粒物(PM2.5),70,52,57,45,40,71,71,NA,NA,19,19,11,11,0.8,0.8
2026-04-02T0600,3210A,114.3645,34.7955,开封市,汴京公园,细颗粒物(PM2.5),92,58,58,56,42,58,58,NA,NA,22,21,6,6,0.7,0.6
2026-04-02T0600,3473A,114.2485,34.8306,开封市,技师学院,细颗粒物(PM2.5),60,51,52,40,35,78,78,NA,NA,12,13,9,8,0.7,0.6
2026-04-02T0600,3592A,114.4518,34.7503,开封市,祥符区生态环境局,细颗粒物(PM2.5),92,68,66,56,48,53,53,NA,NA,32,31,7,7,0.6,0.6
2026-04-02T0600,1951A,84.886,45.6029,克拉玛依市,长征新村,,27,13,26,3,7,84,84,NA,NA,2,6,6,6,0.5,0.4
2026-04-02T0600,1952A,84.8894,45.5827,克拉玛依市,南林小区,,28,14,29,3,4,89,89,NA,NA,3,8,4,4,0.2,0.2
2026-04-02T0600,1954A,84.896,44.3328,克拉玛依市,独山子区,,44,44,96,10,34,106,106,NA,NA,2,18,5,9,0.5,0.8
2026-04-02T0600,1955A,85.6888,46.0909,克拉玛依市,乌尔禾区商贸楼,,17,17,30,3,13,52,52,NA,NA,4,7,2,2,0.3,0.4
2026-04-02T0600,3612A,85.1045,45.6895,克拉玛依市,白碱滩区新站,,34,34,29,15,5,86,86,NA,NA,2,2,6,7,0.1,0.1
2026-04-02T0600,2697A,76.1457,39.7143,克孜勒苏柯尔克孜自治州,市人民政府,,36,36,143,15,42,89,89,NA,NA,2,15,5,13,0.1,0.2
2026-04-02T0600,3665A,76.1654,39.7157,克孜勒苏柯尔克孜自治州,克州文化中心,,43,43,145,19,46,81,81,NA,NA,4,13,10,12,0.1,0.2
2026-04-02T0600,1450A,102.8203,24.889,昆明市,呈贡新区,,45,34,35,31,29,102,102,NA,NA,8,11,4,4,0.6,0.6
2026-04-02T0600,1452A,102.7253,25.0904,昆明市,龙泉镇,颗粒物(PM10),55,56,37,34,22,80,80,NA,NA,9,12,6,4,0.6,0.6
2026-04-02T0600,1453A,102.7267,25.0378,昆明市,东风东路,,45,43,39,31,24,93,93,NA,NA,11,16,5,3,0.5,0.5
2026-04-02T0600,1454A,102.6744,25.0671,昆明市,金鼎山,,50,45,39,35,24,83,83,NA,NA,11,14,4,3,0.4,0.4
2026-04-02T0600,1455A,102.6643,25.0401,昆明市,碧鸡广场,颗粒物(PM10),53,54,42,35,24,72,72,NA,NA,19,16,6,5,0.5,0.5
2026-04-02T0600,3179A,102.7491,25.012,昆明市,官渡区博物馆,,44,44,39,28,23,94,94,NA,NA,8,15,4,4,0.5,0.5
2026-04-02T0600,3375A,102.8016,24.8336,昆明市,青年创业园,,46,46,39,28,24,101,101,NA,NA,5,8,4,4,0.5,0.5
2026-04-02T0600,3550A,102.8,24.9787,昆明市,昆明学院,颗粒物(PM10),51,51,46,30,22,86,86,NA,NA,7,13,6,5,0.6,0.6
2026-04-02T0600,3551A,102.5969,24.6738,昆明市,晋宁区生态环境分局,颗粒物(PM10),51,51,35,33,25,98,98,NA,NA,6,5,3,2,0.4,0.4
2026-04-02T0600,3552A,102.6673,24.9861,昆明市,云天化总部,,46,46,39,27,22,96,96,NA,NA,7,13,4,4,0.4,0.4
2026-04-02T0600,1456A,91.132,29.6515,拉萨市,八廓街,,38,23,16,6,8,119,119,NA,NA,2,6,5,5,0.3,0.4
2026-04-02T0600,1457A,91.1221,29.6748,拉萨市,市环保局,,35,24,14,8,7,109,109,NA,NA,4,8,4,4,0.3,0.4
2026-04-02T0600,1458A,91.0874,29.6476,拉萨市,区监测站,,36,21,11,6,6,114,114,NA,NA,4,10,4,5,0.5,0.5
2026-04-02T0600,1459A,91.1774,29.6541,拉萨市,西藏大学,,36,36,16,10,8,111,111,NA,NA,5,9,4,4,0.3,0.3
2026-04-02T0600,1460A,90.9798,29.6586,拉萨市,区辐射站,,33,30,18,14,7,105,105,NA,NA,4,11,4,5,0.3,0.4
2026-04-02T0600,1461A,91.0831,29.6292,拉萨市,拉萨火车站,,36,26,24,3,8,114,114,NA,NA,3,8,3,4,0.2,0.4
2026-04-02T0600,2520A,109.2203,23.7252,来宾市,来宾技工学校,细颗粒物(PM2.5),68,61,36,44,24,40,40,NA,NA,19,13,28,13,0.7,0.7
2026-04-02T0600,3535A,109.1781,23.7293,来宾市,兴宾区政府,,48,44,36,33,22,54,54,NA,NA,19,16,9,10,0.7,0.7
2026-04-02T0600,4002A,109.2312,23.7428,来宾市,中南小学,细颗粒物(PM2.5),68,55,36,44,23,39,39,NA,NA,22,16,38,13,0.7,0.6
2026-04-02T0600,1479A,103.8309,36.0467,兰州市,铁路设计院,颗粒物(PM10),64,69,72,22,33,5,5,NA,NA,68,58,4,8,0.8,0.8
2026-04-02T0600,3241A,103.7439,36.0841,兰州市,百合公园,颗粒物(PM10),67,73,74,30,34,3,3,NA,NA,52,45,8,11,0.9,0.8
2026-04-02T0600,3242A,103.9613,35.9985,兰州市,和平,,33,33,50,15,22,67,67,NA,NA,17,19,9,15,0.4,0.6
2026-04-02T0600,4236A,103.629272,36.093822,兰州市,庄浪东路808号,颗粒物(PM10),60,64,62,26,28,33,33,NA,NA,28,28,8,17,0.5,0.5
2026-04-02T0600,4237A,103.7251,36.104344,兰州市,安宁西路88号,颗粒物(PM10),64,69,76,24,31,10,10,NA,NA,59,41,8,14,0.5,0.5
2026-04-02T0600,4238A,103.846982,36.067567,兰州市,北滨河东路1号,颗粒物(PM10),57,59,64,25,30,4,4,NA,NA,64,52,8,12,0.8,0.8
2026-04-02T0600,1067A,116.6712,39.5109,廊坊市,药材公司,颗粒物(PM10),58,61,70,22,22,3,3,NA,NA,72,22,2,4,0.5,0.5
2026-04-02T0600,1068A,116.7215,39.5592,廊坊市,开发区,颗粒物(PM10),54,55,74,23,21,7,7,NA,NA,58,17,1,3,0.4,0.4
2026-04-02T0600,1070A,116.7246,39.5273,廊坊市,北华航天学院,颗粒物(PM10),60,63,70,18,17,3,3,NA,NA,69,23,4,5,0.4,0.4
2026-04-02T0600,2919A,116.7022,39.5454,廊坊市,河北工业大学,颗粒物(PM10),60,63,68,19,22,8,8,NA,NA,59,20,3,4,0.4,0.4
2026-04-02T0600,2536A,103.7629,29.5844,乐山市,牛耳桥,,39,38,44,27,24,74,74,NA,NA,12,26,9,7,0.5,0.5
2026-04-02T0600,2537A,103.7501,29.6002,乐山市,市第三水厂,,45,36,40,31,25,74,74,NA,NA,14,29,7,5,0.6,0.6
2026-04-02T0600,2538A,103.7571,29.5664,乐山市,市监测站,,39,39,44,26,22,71,71,NA,NA,12,24,6,4,0.7,0.8
2026-04-02T0600,3361A,103.7313,29.563,乐山市,理工大学,,45,35,45,31,29,64,64,NA,NA,14,29,11,9,0.5,0.6
2026-04-02T0600,2599A,100.2497,26.8802,丽江市,丽江古城,,30,16,21,3,7,93,93,NA,NA,7,7,12,11,0.5,0.6
2026-04-02T0600,2600A,100.2203,26.8906,丽江市,市中心,,30,NA,10,15,8,93,93,NA,NA,7,9,6,6,0.4,0.4
2026-04-02T0600,1267A,119.9141,28.4513,丽水市,监测站大楼,,26,NA,14,18,7,8,8,NA,NA,23,14,5,4,0.4,0.4
2026-04-02T0600,1268A,119.93,28.4589,丽水市,莲都小学,,23,23,15,12,5,10,10,NA,NA,27,14,/,/,/,/
2026-04-02T0600,1269A,119.8794,28.4232,丽水市,余庄前,,23,22,15,16,7,5,5,NA,NA,18,11,4,4,0.4,0.5
2026-04-02T0600,1173A,119.1759,34.5885,连云港市,市环境监测站,细颗粒物(PM2.5),180,158,142,136,124,24,24,NA,NA,44,28,8,11,0.8,0.9
2026-04-02T0600,3000A,119.3577,34.6971,连云港市,德源药业,细颗粒物(PM2.5),170,161,142,129,106,20,20,NA,NA,50,37,6,8,0.9,1
2026-04-02T0600,3007A,119.178,34.8442,连云港市,新城一中,细颗粒物(PM2.5),207,169,155,157,133,21,21,NA,NA,59,42,8,13,1.3,1.3
2026-04-02T0600,3008A,119.3607,34.7519,连云港市,胡沟管理处,细颗粒物(PM2.5),117,105,182,78,94,95,95,NA,NA,19,39,10,14,1.0,1.2
2026-04-02T0600,3009A,119.1478,34.5913,连云港市,矿山设计院,细颗粒物(PM2.5),163,158,147,124,112,24,24,NA,NA,43,30,8,11,1.1,1.1
2026-04-02T0600,3434A,119.2414,34.6539,连云港市,工贸学校,细颗粒物(PM2.5),114,81,114,75,98,82,82,NA,NA,11,19,9,13,0.6,0.8
2026-04-02T0600,3664A,119.4171,34.734,连云港市,连云街道,细颗粒物(PM2.5),140,137,123,103,88,48,48,NA,NA,42,42,5,8,0.9,0.9
2026-04-02T0600,2573A,102.2629,27.8981,凉山彝族自治州,西昌市政府,,35,27,22,24,19,55,55,NA,NA,11,9,9,10,0.5,0.6
2026-04-02T0600,2574A,102.2686,27.885,凉山彝族自治州,凉山州政府,,22,22,22,14,15,38,38,NA,NA,15,11,3,6,0.4,0.5
2026-04-02T0600,4229A,102.2342,27.8859,凉山彝族自治州,凯乐南路30号,,24,24,32,12,15,38,38,NA,NA,20,22,3,6,0.4,0.6
2026-04-02T0600,2212A,123.1978,41.2036,辽阳市,宏伟区,细颗粒物(PM2.5),106,113,136,66,48,30,30,NA,NA,27,18,10,10,0.9,0.7
2026-04-02T0600,2213A,123.1684,41.2497,辽阳市,新华园,细颗粒物(PM2.5),114,96,139,75,50,13,13,NA,NA,39,26,10,9,1.0,0.7
2026-04-02T0600,2214A,123.2355,41.2663,辽阳市,滨河路,细颗粒物(PM2.5),108,86,141,68,50,16,16,NA,NA,45,30,7,8,0.8,0.6
2026-04-02T0600,4083A,123.153,41.2874,辽阳市,铁西路150号,细颗粒物(PM2.5),106,109,132,66,51,12,12,NA,NA,45,30,13,10,0.9,0.7
2026-04-02T0600,2227A,125.1359,42.8845,辽源市,环保局,细颗粒物(PM2.5),135,114,94,98,57,8,8,NA,NA,35,24,6,7,0.8,0.7
2026-04-02T0600,4085A,125.0998,42.9134,辽源市,安宁大街333号,细颗粒物(PM2.5),143,125,112,107,63,12,12,NA,NA,36,21,4,5,1.0,0.7
2026-04-02T0600,1625A,115.9789,36.4372,聊城市,区政府,细颗粒物(PM2.5),58,57,107,39,55,62,62,NA,NA,19,23,7,7,0.9,0.8
2026-04-02T0600,3200A,115.9772,36.4986,聊城市,监控中心,细颗粒物(PM2.5),72,61,106,46,58,71,71,NA,NA,26,28,10,11,0.8,0.7
2026-04-02T0600,3513A,116.0443,36.436,聊城市,九州社区,细颗粒物(PM2.5),66,66,112,43,62,60,60,NA,NA,24,26,4,5,0.7,0.6
2026-04-02T0600,4018A,116.0564,36.4609,聊城市,星美广场,细颗粒物(PM2.5),96,81,121,58,62,51,51,NA,NA,38,34,4,5,0.7,0.6
2026-04-02T0600,4113A,116.0091,36.4495,聊城市,利民路,细颗粒物(PM2.5),66,60,99,43,58,67,67,NA,NA,22,24,8,8,0.7,0.6
2026-04-02T0600,2632A,94.3683,29.6373,林芝市,林芝监测站,,34,6,8,3,4,108,108,NA,NA,1,3,7,6,0.4,0.5
2026-04-02T0600,2633A,94.3616,29.6634,林芝市,林芝人民医院,,33,NA,11,13,6,103,103,NA,NA,1,4,6,5,0.5,0.6
2026-04-02T0600,2603A,100.0779,23.8981,临沧市,市环保局,细颗粒物(PM2.5),64,47,53,42,42,24,24,NA,NA,9,11,4,5,0.7,0.7
2026-04-02T0600,2604A,100.0894,23.882,临沧市,市气象局,NA,NA,NA,54,NA,40,NA,NA,103,NA,NA,12,NA,6,NA,0.5
2026-04-02T0600,1733A,111.5552,36.0791,临汾市,临钢医院,颗粒物(PM10),65,70,49,24,19,52,52,NA,NA,21,17,17,10,0.9,0.7
2026-04-02T0600,1734A,111.4984,36.0734,临汾市,技工学校,颗粒物(PM10),51,51,52,21,23,43,43,NA,NA,22,17,12,6,0.7,0.6
2026-04-02T0600,1736A,111.5017,36.0857,临汾市,市委,颗粒物(PM10),65,70,52,18,17,44,44,NA,NA,23,17,13,7,0.7,0.5
2026-04-02T0600,3018A,111.5048,36.1015,临汾市,唐尧大酒店,颗粒物(PM10),63,68,66,23,17,38,38,NA,NA,26,19,14,9,0.7,0.6
2026-04-02T0600,4244A,111.4879,36.053,临汾市,启星学校,颗粒物(PM10),55,56,53,22,19,47,47,NA,NA,28,22,14,7,0.7,0.6
2026-04-02T0600,4271A,103.2464,35.6123,临夏回族自治州,滨河东路1号,颗粒物(PM10),109,142,112,48,40,5,5,NA,NA,42,37,9,9,0.8,0.6
2026-04-02T0600,4310A,103.207136,35.599807,临夏回族自治州,新华街21号,细颗粒物(PM2.5),84,82,76,52,40,30,30,NA,NA,18,18,7,8,1.4,1.1
2026-04-02T0600,1618A,118.3429,35.0532,临沂市,沂河小区,细颗粒物(PM2.5),188,178,130,141,95,32,32,NA,NA,36,23,15,13,0.8,0.7
2026-04-02T0600,1619A,118.2962,35.0568,临沂市,鲁南制药厂,细颗粒物(PM2.5),213,193,130,163,98,31,31,NA,NA,45,28,18,16,1.0,0.8
2026-04-02T0600,1620A,118.2793,34.9976,临沂市,新光毛纺厂,细颗粒物(PM2.5),223,190,120,173,101,12,12,NA,NA,63,33,19,14,0.9,0.7
2026-04-02T0600,1621A,118.3955,35.0889,临沂市,河东保险公司,细颗粒物(PM2.5),200,200,127,150,97,15,15,NA,NA,53,23,12,14,0.9,0.8
2026-04-02T0600,3370A,118.3563,35.0215,临沂市,十里堡居委,细颗粒物(PM2.5),200,185,122,150,101,23,23,NA,NA,52,32,23,16,1.0,0.9
2026-04-02T0600,3496A,118.359,35.1067,临沂市,南坊新区,细颗粒物(PM2.5),212,185,118,162,103,26,26,NA,NA,55,26,11,13,1.1,0.8
2026-04-02T0600,3860A,118.3915,35.0297,临沂市,皇山花园小区,细颗粒物(PM2.5),216,188,126,166,103,25,25,NA,NA,46,29,20,14,1.1,1
2026-04-02T0600,1870A,109.4854,24.3898,柳州市,柳东小学,细颗粒物(PM2.5),58,53,25,39,19,43,43,NA,NA,20,15,5,5,0.7,0.7
2026-04-02T0600,1871A,109.4109,24.3304,柳州市,环保监测站,细颗粒物(PM2.5),94,76,40,57,27,15,15,NA,NA,33,22,16,13,1.0,0.9
2026-04-02T0600,1872A,109.3886,24.3408,柳州市,河西水厂,细颗粒物(PM2.5),124,113,63,86,37,16,16,NA,NA,35,24,24,13,0.7,0.5
2026-04-02T0600,1873A,109.4263,24.2951,柳州市,市四中,,43,43,37,30,22,22,22,NA,NA,32,24,7,9,0.7,0.6
2026-04-02T0600,1874A,109.396,24.3658,柳州市,市九中,NA,NA,NA,22,NA,11,NA,NA,103,NA,NA,12,NA,15,NA,0.7
2026-04-02T0600,1875A,109.4912,24.3164,柳州市,古亭山,,38,30,25,26,18,15,15,NA,NA,36,24,5,6,0.7,0.6
2026-04-02T0600,3402A,109.5422,24.3994,柳州市,市二中,细颗粒物(PM2.5),62,60,33,41,22,16,16,NA,NA,36,21,8,8,0.7,0.6
2026-04-02T0600,2307A,116.5078,31.7369,六安市,监测大楼,细颗粒物(PM2.5),98,64,43,59,33,59,59,NA,NA,15,12,4,4,0.5,0.5
2026-04-02T0600,2308A,116.4738,31.7642,六安市,皖西学院,细颗粒物(PM2.5),74,55,49,47,29,66,66,NA,NA,11,10,5,5,0.5,0.4
2026-04-02T0600,2309A,116.4997,31.7904,六安市,朝阳厂,细颗粒物(PM2.5),78,63,48,49,32,64,64,NA,NA,17,15,6,6,0.4,0.4
2026-04-02T0600,2310A,116.5566,31.7885,六安市,开发区,细颗粒物(PM2.5),72,64,50,46,36,55,55,NA,NA,16,16,5,6,0.5,0.5
2026-04-02T0600,2577A,104.8293,26.592,六盘水市,黄土坡,,37,37,38,24,25,65,65,NA,NA,8,11,4,5,0.3,0.3
2026-04-02T0600,2579A,104.8481,26.5898,六盘水市,民中,,38,31,35,26,24,63,63,NA,NA,6,8,3,4,0.5,0.5
2026-04-02T0600,2580A,104.9541,26.5506,六盘水市,双水,NA,NA,NA,37,19,18,66,66,NA,NA,6,9,4,5,0.4,0.4
2026-04-02T0600,4151A,104.8899,26.5685,六盘水市,钟山大道中段564号,,40,40,40,27,23,64,64,NA,NA,6,8,8,8,0.7,0.7
2026-04-02T0600,2336A,117.022,25.1031,龙岩市,龙岩市监测站,,19,14,15,13,8,45,45,NA,NA,13,11,8,8,0.6,0.6
2026-04-02T0600,2337A,117.0257,25.0662,龙岩市,闽西职业技术学院,,20,NA,17,14,10,49,49,NA,NA,10,9,8,6,0.6,0.6
2026-04-02T0600,2338A,117.0195,25.0306,龙岩市,龙岩学院,,35,29,15,24,10,33,33,NA,NA,11,8,4,4,/,/
2026-04-02T0600,2885A,104.9344,33.3827,陇南市,滨江中学,,38,38,47,22,18,68,68,NA,NA,11,11,8,8,0.8,0.8
2026-04-02T0600,3247A,104.9551,33.3709,陇南市,市总工会,,38,38,44,20,16,67,67,NA,NA,7,10,6,6,0.7,0.7
2026-04-02T0600,2488A,111.9984,27.7346,娄底市,市监测站,,50,50,57,32,35,55,55,NA,NA,14,28,5,6,0.6,0.9
2026-04-02T0600,2491A,111.9888,27.7035,娄底市,市政府,,39,39,35,21,18,32,32,NA,NA,12,16,2,3,0.6,0.6
2026-04-02T0600,4127A,111.9812,27.7591,娄底市,涟钢职大,细颗粒物(PM2.5),58,53,65,39,39,16,16,NA,NA,41,29,8,8,0.6,1.1
2026-04-02T0600,4128A,112.0303,27.7457,娄底市,娄底体校,,46,46,48,30,28,22,22,NA,NA,6,10,3,4,0.3,0.5
2026-04-02T0600,1894A,105.4427,28.9063,泸州市,小市上码头,,24,20,18,15,13,74,74,NA,NA,12,17,11,12,0.7,0.8
2026-04-02T0600,1895A,105.4241,28.8573,泸州市,兰田宪桥,NA,NA,24,19,13,9,61,61,NA,NA,9,17,NA,11,0.7,0.7
2026-04-02T0600,1896A,105.4378,28.8833,泸州市,市环监站,,24,24,22,12,11,73,73,NA,NA,15,22,4,7,0.7,0.8
2026-04-02T0600,4272A,105.3689,28.7783,泸州市,纳溪中医医院,细颗粒物(PM2.5),52,NA,33,36,23,58,58,NA,NA,12,18,7,8,0.7,0.7
2026-04-02T0600,2183A,111.1447,37.5212,吕梁市,环保局,颗粒物(PM10),76,86,62,21,14,36,36,NA,NA,28,27,8,10,0.2,0.2
2026-04-02T0600,2185A,111.1285,37.5338,吕梁市,自来水公司,颗粒物(PM10),83,95,79,30,20,5,5,NA,NA,47,30,15,12,0.5,0.4
2026-04-02T0600,2867A,111.1225,37.5093,吕梁市,马茂庄小学,颗粒物(PM10),78,88,79,18,17,15,15,NA,NA,42,31,23,12,0.3,0.4
2026-04-02T0600,1812A,112.3934,34.6517,洛阳市,市委党校,细颗粒物(PM2.5),105,80,62,65,37,51,51,NA,NA,28,25,8,10,0.8,0.7
2026-04-02T0600,1815A,112.494,34.6883,洛阳市,河南林校,细颗粒物(PM2.5),112,88,69,73,42,65,65,NA,NA,27,31,15,14,0.9,0.7
2026-04-02T0600,1816A,112.3843,34.623,洛阳市,开发区管委会,细颗粒物(PM2.5),101,83,69,61,37,50,50,NA,NA,22,20,12,13,0.7,0.6
2026-04-02T0600,1817A,112.4263,34.6249,洛阳市,市委新办公区,细颗粒物(PM2.5),113,91,63,74,38,61,61,NA,NA,21,20,10,10,0.5,0.4
2026-04-02T0600,3340A,112.6005,34.6323,洛阳市,伊滨,细颗粒物(PM2.5),103,NA,64,63,38,33,33,NA,NA,24,20,8,8,0.6,0.6
2026-04-02T0600,3341A,112.495,34.6338,洛阳市,中移产业园,细颗粒物(PM2.5),110,88,64,71,39,51,51,NA,NA,24,26,12,11,0.8,0.6
2026-04-02T0600,3593A,112.5736,34.8993,洛阳市,吉利监测站,细颗粒物(PM2.5),137,101,68,100,46,77,77,NA,NA,27,23,11,11,0.9,0.7
2026-04-02T0600,3635A,112.3678,34.6623,洛阳市,河科大西苑校区,细颗粒物(PM2.5),100,75,66,60,43,43,43,NA,NA,37,22,10,12,0.7,0.6
2026-04-02T0600,3636A,112.4387,34.678,洛阳市,英才小学,细颗粒物(PM2.5),109,106,77,69,42,63,63,NA,NA,23,30,NA,13,0.9,0.8
2026-04-02T0600,4214A,112.460027,34.694929,洛阳市,春都路1号院,细颗粒物(PM2.5),110,81,73,71,42,70,70,NA,NA,20,24,13,10,0.8,0.7
2026-04-02T0600,2399A,114.051,33.5721,漯河市,三五一五工厂,细颗粒物(PM2.5),64,65,59,42,37,69,69,NA,NA,22,20,5,5,0.4,0.4
2026-04-02T0600,2400A,114.0055,33.5698,漯河市,漯河大学,细颗粒物(PM2.5),84,NA,43,52,42,72,72,NA,NA,18,17,6,6,0.6,0.5
2026-04-02T0600,2401A,114.0134,33.5826,漯河市,市水利局,细颗粒物(PM2.5),76,53,50,48,33,76,76,NA,NA,15,15,6,6,0.6,0.5
2026-04-02T0600,2402A,114.0261,33.5697,漯河市,市广电局,细颗粒物(PM2.5),88,54,51,54,36,67,67,NA,NA,15,16,5,6,0.6,0.5
2026-04-02T0600,3478A,113.9691,33.568,漯河市,市图书馆,细颗粒物(PM2.5),60,58,54,40,34,75,75,NA,NA,18,18,6,7,0.6,0.6
2026-04-02T0600,4250A,114.089259,33.588274,漯河市,韶山路11号,细颗粒物(PM2.5),80,57,59,50,37,51,51,NA,NA,23,20,6,8,0.3,0.3
2026-04-02T0600,1798A,118.5084,31.6838,马鞍山市,湖东路四小,细颗粒物(PM2.5),115,99,96,76,62,48,48,NA,NA,33,42,10,9,1.3,0.9
2026-04-02T0600,1799A,118.5019,31.6449,马鞍山市,开发区,细颗粒物(PM2.5),121,121,84,83,53,54,54,NA,NA,27,46,7,6,1.7,0.9
2026-04-02T0600,3633A,118.4914,31.681,马鞍山市,雨山,细颗粒物(PM2.5),78,66,72,49,41,51,51,NA,NA,29,37,9,9,1.8,0.8
2026-04-02T0600,4191A,118.527362,31.722269,马鞍山市,慈湖高新区,细颗粒物(PM2.5),112,115,97,73,61,71,71,NA,NA,27,37,10,10,0.7,0.8
2026-04-02T0600,1686A,111.0285,21.469,茂名市,电白南海,,46,44,37,32,23,70,70,NA,NA,18,19,8,9,1.0,1
2026-04-02T0600,1687A,110.9294,21.6533,茂名市,茂石化七小,,38,31,35,26,23,54,54,NA,NA,14,17,15,14,0.6,0.7
2026-04-02T0600,1688A,110.9108,21.6688,茂名市,健康路,,35,24,28,24,19,65,65,NA,NA,13,16,11,13,0.8,0.9
2026-04-02T0600,1689A,110.8592,21.6826,茂名市,高岭,,39,34,41,27,24,71,71,NA,NA,17,18,10,13,/,/
2026-04-02T0600,3450A,111.0101,21.5165,茂名市,电白水东,,46,34,31,32,27,83,83,NA,NA,16,17,6,9,/,/
2026-04-02T0600,2540A,103.8414,30.0871,眉山市,气象局,颗粒物(PM10),51,51,46,26,13,52,52,NA,NA,15,20,8,10,0.7,0.6
2026-04-02T0600,3148A,103.829,30.0563,眉山市,区人社局,,43,40,45,30,18,61,61,NA,NA,20,28,14,13,0.4,0.4
2026-04-02T0600,4148A,103.8836,30.0695,眉山市,眉职院,,36,36,34,17,13,60,60,NA,NA,13,22,6,7,0.6,0.7
2026-04-02T0600,1690A,116.1248,24.3307,梅州市,梅江月梅,,36,25,16,25,8,32,32,NA,NA,20,16,/,/,/,/
2026-04-02T0600,1691A,116.0798,24.2719,梅州市,梅县新城,,20,20,16,14,9,37,37,NA,NA,23,21,9,8,0.6,0.6
2026-04-02T0600,3315A,116.1234,24.2994,梅州市,梅龙,,32,22,14,22,8,40,40,NA,NA,14,13,6,7,0.8,0.9
2026-04-02T0600,1878A,104.7775,31.4741,绵阳市,富乐山,细颗粒物(PM2.5),52,47,35,36,23,38,38,NA,NA,18,15,6,6,0.7,0.6
2026-04-02T0600,1880A,104.6698,31.4668,绵阳市,高新区自来水公司,颗粒物(PM10),60,63,65,36,29,42,42,NA,NA,16,34,9,10,0.6,0.7
2026-04-02T0600,3491A,104.6899,31.5324,绵阳市,西科大附属小学,细颗粒物(PM2.5),76,74,65,48,33,33,33,NA,NA,27,32,7,7,0.5,0.4
2026-04-02T0600,3492A,104.5647,31.5343,绵阳市,安州区旅游局,细颗粒物(PM2.5),78,67,56,49,32,43,43,NA,NA,17,20,8,6,0.5,0.5
2026-04-02T0600,4146A,104.7092,31.4972,绵阳市,科技城新区公安局,颗粒物(PM10),67,73,58,39,28,53,53,NA,NA,17,32,8,9,0.7,0.7
2026-04-02T0600,4226A,104.765114,31.453094,绵阳市,绵阳市气象局,颗粒物(PM10),52,52,41,32,23,46,46,NA,NA,21,23,9,10,0.6,0.5
2026-04-02T0600,1784A,129.61,44.561,牡丹江市,环保大楼,细颗粒物(PM2.5),182,164,91,137,69,33,33,NA,NA,36,25,5,4,1.0,0.6
2026-04-02T0600,1787A,129.6364,44.6075,牡丹江市,机车工厂,细颗粒物(PM2.5),195,178,100,146,72,36,36,NA,NA,36,28,6,7,0.9,0.7
2026-04-02T0600,1788A,129.6386,44.5462,牡丹江市,第一中学,细颗粒物(PM2.5),120,88,65,82,55,16,16,NA,NA,34,24,6,5,0.6,0.5
2026-04-02T0600,4287A,129.5992,44.5964,牡丹江市,东晓云街98号,细颗粒物(PM2.5),193,162,89,145,65,74,74,NA,NA,18,14,4,4,1.0,0.7
2026-04-02T0600,2531A,105.0703,29.61,内江市,市监测站,,36,NA,28,25,19,54,54,NA,NA,12,15,8,8,0.6,0.5
2026-04-02T0600,2533A,105.0657,29.5807,内江市,内江二中,,32,31,37,22,18,70,70,NA,NA,12,18,7,8,0.3,0.3
2026-04-02T0600,2534A,105.0407,29.5828,内江市,内江日报社,,30,NA,29,21,17,65,65,NA,NA,11,17,8,7,0.5,0.4
2026-04-02T0600,4147A,105.0433,29.6105,内江市,玉峰路西段888号,,36,29,27,25,20,61,61,NA,NA,11,16,11,11,0.4,0.4
2026-04-02T0600,2628A,92.0653,31.4846,那曲市,那曲监测站,,18,18,19,10,14,54,54,NA,NA,8,9,9,11,0.6,0.6
2026-04-02T0600,4243A,92.0515,31.4787,那曲市,那曲市委宣传部,,23,10,13,3,9,72,72,NA,NA,2,4,7,8,0.5,0.4
2026-04-02T0600,1291A,115.8887,28.7006,南昌市,省林业公司,颗粒物(PM10),53,53,45,35,29,10,10,NA,NA,67,35,4,5,0.5,0.5
2026-04-02T0600,1292A,115.813,28.7443,南昌市,林科所,细颗粒物(PM2.5),54,39,32,37,25,74,74,NA,NA,22,29,7,8,0.4,0.7
2026-04-02T0600,1294A,115.8518,28.687,南昌市,建工学校,颗粒物(PM10),58,60,56,29,29,20,20,NA,NA,63,36,9,10,0.8,0.8
2026-04-02T0600,1295A,115.8926,28.6425,南昌市,象湖,细颗粒物(PM2.5),80,63,44,50,30,1,1,NA,NA,70,43,8,9,1.2,0.9
2026-04-02T0600,3046A,115.9084,28.6062,南昌市,机电学校,细颗粒物(PM2.5),72,74,58,46,28,11,11,NA,NA,65,38,5,5,0.8,0.6
2026-04-02T0600,3690A,115.9718,28.7032,南昌市,外国语学校,细颗粒物(PM2.5),66,60,46,43,30,12,12,NA,NA,72,37,8,9,0.6,0.6
2026-04-02T0600,4106A,115.7923,28.6873,南昌市,工业二路,,42,42,51,24,27,36,36,NA,NA,33,34,5,5,0.6,0.7
2026-04-02T0600,4192A,115.931587,28.686774,南昌市,南京东路235号,细颗粒物(PM2.5),72,76,61,46,33,2,2,NA,NA,72,30,6,7,0.6,0.6
2026-04-02T0600,1906A,106.0791,30.8022,南充市,南充市委,,32,32,32,19,18,60,60,NA,NA,10,24,6,7,0.5,0.5
2026-04-02T0600,1907A,106.1038,30.8215,南充市,南充炼油厂,,36,29,42,25,18,64,64,NA,NA,8,24,4,6,0.2,0.3
2026-04-02T0600,4227A,106.108336,30.788436,南充市,梨树横街98号,,31,31,35,20,19,78,78,NA,NA,8,25,6,6,0.3,0.3
2026-04-02T0600,4304A,106.1172,30.843,南充市,清泉寺北路188号,NA,NA,NA,34,NA,18,NA,NA,104,NA,NA,18,NA,6,NA,0.3
2026-04-02T0600,4305A,106.067,30.7616,南充市,同庆路1号,,24,20,38,15,17,76,76,NA,NA,9,27,6,6,0.3,0.4
2026-04-02T0600,1151A,118.8033,32.1085,南京市,迈皋桥,细颗粒物(PM2.5),112,77,84,73,65,29,29,NA,NA,32,35,8,6,0.8,0.8
2026-04-02T0600,1152A,118.7487,32.057,南京市,草场门,细颗粒物(PM2.5),116,88,86,77,68,26,26,NA,NA,64,49,9,10,0.7,0.7
2026-04-02T0600,1154A,118.770105,32.004342,南京市,中华门,细颗粒物(PM2.5),112,97,93,73,60,33,33,NA,NA,34,37,5,5,0.9,0.9
2026-04-02T0600,1155A,118.8059,32.0329,南京市,瑞金路,细颗粒物(PM2.5),110,100,97,70,68,NA,NA,NA,NA,26,18,6,6,1.3,1.3
2026-04-02T0600,1156A,118.7946,32.0774,南京市,玄武湖,细颗粒物(PM2.5),102,79,78,62,51,37,37,NA,NA,38,23,9,9,0.9,0.8
2026-04-02T0600,1157A,118.6415,32.0964,南京市,浦口,细颗粒物(PM2.5),110,NA,70,71,56,58,58,NA,NA,27,24,4,5,0.9,0.8
2026-04-02T0600,1158A,118.730129,32.000956,南京市,奥体中心,细颗粒物(PM2.5),107,98,99,67,58,0,0,NA,NA,63,44,7,8,0.8,0.9
2026-04-02T0600,1159A,118.9072,32.1047,南京市,仙林大学城,细颗粒物(PM2.5),84,78,68,52,51,0,0,NA,NA,62,37,8,9,1.0,0.9
2026-04-02T0600,3422A,118.8443,31.919,南京市,江宁彩虹桥,细颗粒物(PM2.5),72,58,63,46,38,26,26,NA,NA,55,53,4,4,1.0,1.1
2026-04-02T0600,3427A,118.8497,32.3599,南京市,六合雄州,细颗粒物(PM2.5),54,50,73,37,64,4,4,NA,NA,53,35,3,4,0.7,0.8
2026-04-02T0600,4086A,118.7641,32.0841,南京市,新模范马路66号,细颗粒物(PM2.5),112,100,95,73,65,18,18,NA,NA,56,36,3,4,0.9,0.8
2026-04-02T0600,4249A,118.8707617,31.34017673,南京市,汶溪路181号,细颗粒物(PM2.5),56,47,47,38,30,34,34,NA,NA,32,20,9,6,0.5,0.6
2026-04-02T0600,4312A,119.019,31.6512,南京市,中山西路1号,细颗粒物(PM2.5),60,56,59,40,41,20,20,NA,NA,31,29,4,4,0.8,0.7
2026-04-02T0600,1401A,108.3098,22.788,南宁市,二十一中,细颗粒物(PM2.5),58,NA,27,39,20,52,52,NA,NA,12,14,3,3,0.6,0.6
2026-04-02T0600,1402A,108.3135,22.8529,南宁市,北湖,细颗粒物(PM2.5),52,39,29,36,23,48,48,NA,NA,19,16,4,5,0.9,0.8
2026-04-02T0600,1403A,108.3205,22.8222,南宁市,市监测站,,50,38,30,35,19,62,62,NA,NA,10,14,4,4,0.7,0.7
2026-04-02T0600,1404A,108.3828,22.8038,南宁市,大自然花园,细颗粒物(PM2.5),52,38,32,36,20,60,60,NA,NA,14,16,6,6,0.5,0.4
2026-04-02T0600,1406A,108.2397,22.8462,南宁市,区农职院,,46,40,29,32,20,63,63,NA,NA,11,15,6,7,0.6,0.5
2026-04-02T0600,1407A,108.3285,22.7356,南宁市,英华嘉园,,48,NA,27,33,18,55,55,NA,NA,11,12,5,5,0.6,0.5
2026-04-02T0600,3401A,108.4829,22.762,南宁市,红星社区,NA,NA,NA,24,28,19,62,62,NA,NA,14,14,7,6,0.6,0.6
2026-04-02T0600,4132A,108.2927,23.1477,南宁市,起凤路9号,细颗粒物(PM2.5),78,63,35,49,24,63,63,NA,NA,10,11,7,8,0.6,0.5
2026-04-02T0600,4221A,108.2177,22.7774,南宁市,乐贤路16号,,48,42,34,33,19,43,43,NA,NA,24,24,6,6,0.7,0.6
2026-04-02T0600,2332A,118.1682,26.6371,南平市,南平市监测站,,38,38,14,26,8,18,18,NA,NA,14,13,8,4,0.7,0.7
2026-04-02T0600,2334A,118.1757,26.6276,南平市,南平七中,,26,18,13,18,7,25,25,NA,NA,10,10,3,2,0.5,0.5
2026-04-02T0600,1168A,120.9056,31.9669,南通市,狼山街道,细颗粒物(PM2.5),109,102,107,69,73,10,10,NA,NA,37,48,3,6,0.8,0.8
2026-04-02T0600,1170A,120.8635,32.0231,南通市,城中,细颗粒物(PM2.5),138,161,136,101,82,21,21,NA,NA,38,34,4,7,1.0,0.9
2026-04-02T0600,1171A,120.9376,31.9301,南通市,星湖花园,细颗粒物(PM2.5),140,129,116,104,90,16,16,NA,NA,31,42,4,7,1.0,1
2026-04-02T0600,1172A,120.8053,32.046,南通市,紫琅学院,细颗粒物(PM2.5),135,146,116,98,82,3,3,NA,NA,76,37,7,7,1.1,1
2026-04-02T0600,3291A,121.0631,32.0644,南通市,通州监测站,细颗粒物(PM2.5),109,117,117,69,88,25,25,NA,NA,17,21,3,4,1.0,0.9
2026-04-02T0600,3432A,120.9348,31.9874,南通市,环境教育馆,细颗粒物(PM2.5),102,105,113,62,78,1,1,NA,NA,58,38,5,7,0.9,0.9
2026-04-02T0600,4091A,120.8692,31.9885,南通市,洪江路,细颗粒物(PM2.5),146,135,119,110,92,23,23,NA,NA,34,40,4,6,1.2,1.1
2026-04-02T0600,2404A,112.5338,33.0086,南阳市,瓦房庄,,43,43,53,20,27,72,72,NA,NA,9,12,4,5,0.6,0.7
2026-04-02T0600,2405A,112.5002,32.9734,南阳市,汉画馆,,45,45,56,27,30,50,50,NA,NA,13,18,5,6,0.6,0.6
2026-04-02T0600,2406A,112.5778,33.0144,南阳市,气象站,,50,48,57,35,29,69,69,NA,NA,15,17,5,7,0.5,0.5
2026-04-02T0600,2407A,112.548,32.9687,南阳市,理工学院,细颗粒物(PM2.5),56,51,59,38,33,62,62,NA,NA,15,19,5,6,0.5,0.5
2026-04-02T0600,4008A,112.5233,32.9921,南阳市,卧龙区政府,细颗粒物(PM2.5),58,53,50,39,33,65,65,NA,NA,14,14,6,7,0.6,0.6
2026-04-02T0600,1234A,121.8352,29.9111,宁波市,区环保大楼,细颗粒物(PM2.5),76,77,44,48,28,2,2,NA,NA,67,46,8,7,0.5,0.4
2026-04-02T0600,1235A,121.5595,29.8208,宁波市,万里学院,细颗粒物(PM2.5),52,42,33,36,25,42,42,NA,NA,30,33,8,7,0.6,0.5
2026-04-02T0600,1236A,121.713,29.9564,宁波市,龙赛医院,细颗粒物(PM2.5),62,65,50,41,28,53,53,NA,NA,29,36,6,6,0.6,0.5
2026-04-02T0600,1240A,121.5855,29.8635,宁波市,太古小学,颗粒物(PM10),54,55,40,36,26,23,23,NA,NA,45,38,3,3,0.5,0.5
2026-04-02T0600,1241A,121.5239,29.8673,宁波市,市环境监测中心,,48,48,35,30,25,40,40,NA,NA,32,32,6,7,0.5,0.5
2026-04-02T0600,2871A,121.6156,29.9015,宁波市,万里国际学校,细颗粒物(PM2.5),62,60,45,41,28,49,49,NA,NA,36,32,5,5,0.5,0.4
2026-04-02T0600,3710A,121.5593,29.8976,宁波市,白沙活动中心,,42,39,33,29,25,59,59,NA,NA,28,31,5,5,0.5,0.5
2026-04-02T0600,4095A,121.8962,29.7529,宁波市,中科路88号,,50,50,36,31,28,31,31,NA,NA,32,29,6,6,0.5,0.5
2026-04-02T0600,2341A,119.5387,26.6611,宁德市,宁德市监测站,,25,14,15,9,8,77,77,NA,NA,12,16,4,5,0.5,0.5
2026-04-02T0600,3209A,119.5231,26.6562,宁德市,宁德一中,,24,14,14,10,8,75,75,NA,NA,8,11,5,5,0.4,0.4
2026-04-02T0600,2618A,98.859,25.8541,怒江傈僳族自治州,州监测站,,35,35,42,23,29,47,47,NA,NA,2,7,7,7,0.2,0.4
2026-04-02T0600,2619A,98.8607,25.8168,怒江傈僳族自治州,泸水一中,,45,31,44,31,33,23,23,NA,NA,11,24,5,5,0.7,0.8
2026-04-02T0600,1888A,101.6891,26.571,攀枝花市,弄弄坪,,39,37,35,27,20,65,65,NA,NA,15,15,2,12,0.6,1.2
2026-04-02T0600,1889A,101.577,26.5914,攀枝花市,河门口,颗粒物(PM10),58,60,37,26,22,44,44,NA,NA,25,12,8,9,0.7,0.7
2026-04-02T0600,1891A,101.7365,26.4986,攀枝花市,仁和,,47,47,31,30,21,62,62,NA,NA,9,8,6,6,0.5,0.5
2026-04-02T0600,2835A,101.7222,26.567,攀枝花市,四十中小,,36,30,27,25,16,63,63,NA,NA,18,9,21,8,0.8,0.6
2026-04-02T0600,1604A,122.0303,41.1489,盘锦市,开发区,细颗粒物(PM2.5),114,86,69,75,29,4,4,NA,NA,42,18,12,7,0.7,0.4
2026-04-02T0600,1605A,122.0486,41.0883,盘锦市,兴隆台,细颗粒物(PM2.5),115,78,72,76,28,1,1,NA,NA,55,28,5,5,0.8,0.4
2026-04-02T0600,1606A,121.8297,41.1026,盘锦市,新生街道,细颗粒物(PM2.5),92,NA,64,56,25,0,0,NA,NA,32,19,8,7,0.8,0.4
2026-04-02T0600,1832A,113.3257,33.7423,平顶山市,新华旅馆,颗粒物(PM10),73,81,68,43,35,38,38,NA,NA,33,21,4,5,0.4,0.4
2026-04-02T0600,1833A,113.2917,33.737,平顶山市,规划设计院,细颗粒物(PM2.5),92,81,67,56,36,31,31,NA,NA,37,17,6,5,0.6,0.6
2026-04-02T0600,1834A,113.182,33.7738,平顶山市,平顶山工学院,细颗粒物(PM2.5),80,77,57,50,38,32,32,NA,NA,34,17,3,3,0.4,0.4
2026-04-02T0600,3594A,112.8736,33.9068,平顶山市,石龙区,细颗粒物(PM2.5),175,NA,74,132,36,37,37,NA,NA,31,27,10,8,0.8,0.6
2026-04-02T0600,4116A,113.284,33.7139,平顶山市,姚电大道23号,细颗粒物(PM2.5),92,100,70,56,38,47,47,NA,NA,21,20,9,6,0.6,0.4
2026-04-02T0600,2656A,106.6633,35.5338,平凉市,聚贤嘉苑,,49,49,52,16,17,58,58,NA,NA,20,22,6,7,0.3,0.3
2026-04-02T0600,2657A,106.7021,35.5307,平凉市,博物馆,,47,47,54,15,18,56,56,NA,NA,15,19,10,9,0.5,0.5
2026-04-02T0600,2348A,113.8384,27.6436,萍乡市,中医院,,39,37,41,27,28,89,89,NA,NA,10,19,9,6,0.7,0.9
2026-04-02T0600,2350A,113.8677,27.6438,萍乡市,市环保局,,40,35,36,28,28,89,89,NA,NA,5,10,11,8,0.8,0.9
2026-04-02T0600,2351A,113.8663,27.6202,萍乡市,安源区政府,,48,40,36,33,27,68,68,NA,NA,14,14,10,6,0.5,0.6
2026-04-02T0600,4107A,113.8686,27.6668,萍乡市,联洪村委会,,47,47,45,30,28,84,84,NA,NA,5,11,7,4,0.3,0.4
2026-04-02T0600,2319A,119.0142,25.4324,莆田市,荔城区仓后路,,26,10,16,3,5,83,83,NA,NA,12,13,/,/,/,/
2026-04-02T0600,2320A,119.0016,25.4553,莆田市,莆田市监测站,,29,6,14,3,4,90,90,NA,NA,5,9,2,3,0.5,0.6
2026-04-02T0600,2321A,119.112,25.4561,莆田市,涵江区六中,,32,11,14,3,3,102,102,NA,NA,10,14,/,/,0.5,0.5
2026-04-02T0600,2322A,119.1014,25.3215,莆田市,秀屿区政府,,31,19,15,10,5,97,97,NA,NA,10,8,3,3,0.6,0.6
2026-04-02T0600,2392A,115.0312,35.7636,濮阳市,环保局,细颗粒物(PM2.5),137,120,71,100,51,27,27,NA,NA,39,22,19,7,0.7,0.6
2026-04-02T0600,3021A,115,35.7667,濮阳市,濮水河管理处,细颗粒物(PM2.5),130,127,85,92,51,22,22,NA,NA,24,19,6,4,0.6,0.5
2026-04-02T0600,4118A,115.0552,35.7816,濮阳市,中原东路68号,细颗粒物(PM2.5),135,155,96,98,51,27,27,NA,NA,31,20,13,6,0.7,0.6
2026-04-02T0600,4216A,115.0923632,35.76857718,濮阳市,任丘路479号,细颗粒物(PM2.5),144,150,94,108,53,22,22,NA,NA,32,23,18,8,0.9,0.6
2026-04-02T0600,2601A,100.9801,22.7634,普洱市,市环保局,颗粒物(PM10),69,76,90,37,41,30,30,NA,NA,6,12,7,7,0.7,0.7
2026-04-02T0600,2602A,100.9763,22.8237,普洱市,普洱第二中学,细颗粒物(PM2.5),74,65,80,47,46,24,24,NA,NA,20,19,10,10,0.7,0.6
2026-04-02T0600,3345A,131.0413,45.7795,七台河市,中波台,细颗粒物(PM2.5),307,281,171,257,118,80,80,NA,NA,40,22,7,8,1.1,0.6
2026-04-02T0600,3637A,131.0136,45.7688,七台河市,人民广场,细颗粒物(PM2.5),306,334,171,256,109,75,75,NA,NA,44,26,11,12,1.4,0.8
2026-04-02T0600,3684A,130.8639,45.8144,七台河市,新建矿广场,细颗粒物(PM2.5),318,334,187,268,129,92,92,NA,NA,33,24,11,11,1.0,0.8
2026-04-02T0600,1779A,123.9307,47.3641,齐齐哈尔市,安居小区,颗粒物(PM10),60,63,47,31,19,39,39,NA,NA,16,7,7,9,0.5,0.4
2026-04-02T0600,1780A,123.9497,47.3389,齐齐哈尔市,中心广场,NA,NA,NA,35,NA,8,NA,NA,87,NA,NA,9,NA,4,NA,0.6
2026-04-02T0600,1781A,123.9483,47.3229,齐齐哈尔市,农牧车辆厂,颗粒物(PM10),63,68,46,28,19,24,24,NA,NA,27,8,7,7,0.7,0.3
2026-04-02T0600,1783A,123.9442,47.2994,齐齐哈尔市,市环境监测站,颗粒物(PM10),62,66,46,31,20,31,31,NA,NA,22,8,2,3,0.5,0.4
2026-04-02T0600,3662A,123.6341,47.2079,齐齐哈尔市,富区青少年活动中心,NA,NA,176,57,NA,22,26,26,NA,NA,27,11,8,4,0.9,0.4
2026-04-02T0600,2591A,107.9765,26.5724,黔东南苗族侗族自治州,市环境监测站,,25,25,32,14,21,24,24,NA,NA,15,15,3,3,0.5,0.6
2026-04-02T0600,2881A,107.8909,26.531,黔东南苗族侗族自治州,凯里学院,,32,22,31,22,24,65,65,NA,NA,7,13,4,3,0.6,0.7
2026-04-02T0600,2593A,107.5223,26.2371,黔南布依族苗族自治州,小围寨,,26,12,12,7,9,83,83,NA,NA,4,5,7,5,0.4,0.5
2026-04-02T0600,3538A,107.5175,26.2977,黔南布依族苗族自治州,沙坝,,20,17,12,7,7,62,62,NA,NA,4,5,4,4,0.7,0.7
2026-04-02T0600,2589A,104.9022,25.0943,黔西南布依族苗族自治州,场坝街,,19,19,22,13,18,58,58,NA,NA,6,6,5,5,0.5,0.4
2026-04-02T0600,2590A,104.8812,25.0994,黔西南布依族苗族自治州,坪东大道,,26,NA,27,18,18,26,26,NA,NA,18,7,7,6,0.6,0.6
2026-04-02T0600,2502A,108.6238,21.9667,钦州市,市环保站,,44,44,40,25,17,27,27,NA,NA,22,17,3,6,0.6,0.7
2026-04-02T0600,2503A,108.655,21.9481,钦州市,沙埠小学,细颗粒物(PM2.5),60,42,39,40,23,26,26,NA,NA,21,16,5,7,0.7,0.7
2026-04-02T0600,2504A,108.5989,21.7435,钦州市,港区一小,细颗粒物(PM2.5),60,58,45,40,23,29,29,NA,NA,28,22,4,5,0.9,0.8
2026-04-02T0600,3404A,108.5959,21.9634,钦州市,北职校,细颗粒物(PM2.5),52,40,34,36,21,38,38,NA,NA,15,14,5,6,0.8,0.7
2026-04-02T0600,1046A,119.5247,39.9346,秦皇岛市,建设大厦,颗粒物(PM10),58,61,74,18,13,18,18,NA,NA,36,24,7,6,0.4,0.3
2026-04-02T0600,3132A,119.5979,39.938,秦皇岛市,文明里,颗粒物(PM10),63,68,83,14,14,13,13,NA,NA,42,26,9,10,0.4,0.3
2026-04-02T0600,4066A,119.7458,39.9952,秦皇岛市,南园路157号,,50,50,66,15,11,6,6,NA,NA,64,38,7,7,0.4,0.3
2026-04-02T0600,4067A,119.5131,39.8858,秦皇岛市,翠岛大街1号,颗粒物(PM10),56,58,59,21,12,15,15,NA,NA,50,26,14,9,0.5,0.3
2026-04-02T0600,4198A,119.509013,39.825305,秦皇岛市,北戴河轮滑馆,颗粒物(PM10),60,64,76,24,12,13,13,NA,NA,67,32,13,9,0.6,0.3
2026-04-02T0600,1310A,120.404,36.0625,青岛市,市南区东部子站,,39,39,69,23,52,66,66,NA,NA,8,17,9,10,1.2,0.9
2026-04-02T0600,1311A,120.362344,36.10282,青岛市,四方区子站,细颗粒物(PM2.5),120,100,107,81,87,2,2,NA,NA,78,36,8,8,1.4,1.1
2026-04-02T0600,1312A,120.294373,36.054183,青岛市,市南区西部子站,颗粒物(PM10),53,53,71,33,51,54,54,NA,NA,22,28,4,5,1.5,1.1
2026-04-02T0600,1313A,120.4581,36.0858,青岛市,崂山区子站,,43,39,69,30,50,67,67,NA,NA,25,31,7,8,1.2,0.8
2026-04-02T0600,1315A,120.3945,36.3083,青岛市,城阳区子站,细颗粒物(PM2.5),155,151,115,118,82,12,12,NA,NA,54,34,6,7,1.3,1
2026-04-02T0600,3642A,120.3454,36.0735,青岛市,市北区南部,颗粒物(PM10),58,61,82,28,56,52,52,NA,NA,17,18,1,4,1.3,1
2026-04-02T0600,3643A,120.3897,36.18,青岛市,李沧区北部,细颗粒物(PM2.5),108,85,104,68,79,3,3,NA,NA,70,34,8,10,1.2,0.9
2026-04-02T0600,4110A,120.5222,36.4089,青岛市,盟旺路653号,细颗粒物(PM2.5),166,165,95,126,69,23,23,NA,NA,39,20,3,4,2.0,1
2026-04-02T0600,4290A,120.196923,35.954556,青岛市,珠江路669号,颗粒物(PM10),80,92,103,37,50,58,58,NA,NA,24,23,4,6,1.5,1.1
2026-04-02T0600,4291A,120.0424,35.8656,青岛市,黄岛区人民政府广场,颗粒物(PM10),67,73,99,26,56,67,67,NA,NA,18,23,7,8,1.4,1.2
2026-04-02T0600,1703A,113.0218,23.7086,清远市,凤城街办,,15,15,14,8,9,43,43,NA,NA,21,18,/,/,/,/
2026-04-02T0600,3025A,113.0479,23.6343,清远市,技师学院,,19,19,15,12,9,41,41,NA,NA,21,20,7,7,0.6,0.6
2026-04-02T0600,3318A,112.9898,23.7403,清远市,清新太和,,16,16,13,10,7,30,30,NA,NA,19,13,6,7,0.6,0.6
2026-04-02T0600,3455A,113.076,23.72,清远市,清城东城,,19,19,14,10,7,52,52,NA,NA,18,16,/,/,/,/
2026-04-02T0600,2661A,107.6325,35.7357,庆阳市,庆阳五中,,45,45,53,23,21,91,91,NA,NA,12,15,3,2,0.3,0.3
2026-04-02T0600,2662A,107.6361,35.7067,庆阳市,市环保局,,44,44,50,19,20,93,93,NA,NA,14,14,22,11,0.6,0.5
2026-04-02T0600,1916A,103.7897,25.5036,曲靖市,环境监测站,,48,39,37,33,22,96,96,NA,NA,8,9,5,5,0.5,0.5
2026-04-02T0600,1917A,103.8013,25.5357,曲靖市,烟厂办公区,,45,43,35,31,19,84,84,NA,NA,6,7,9,9,0.6,0.6
2026-04-02T0600,3376A,103.7926,25.4651,曲靖市,南苑二区,,45,44,36,31,20,89,89,NA,NA,8,9,4,4,0.6,0.6
2026-04-02T0600,3377A,103.7442,25.5259,曲靖市,曲靖师范学院,细颗粒物(PM2.5),52,46,33,36,24,93,93,NA,NA,9,9,15,8,0.6,0.5
2026-04-02T0600,1264A,118.8694,28.94,衢州市,环保大楼,,33,33,25,21,15,2,2,NA,NA,43,17,/,/,/,/
2026-04-02T0600,1266A,118.8622,28.9809,衢州市,衢州学院,,32,32,23,20,14,2,2,NA,NA,39,24,3,3,0.4,0.5
2026-04-02T0600,4097A,118.9646,28.9832,衢州市,衢州三中,,33,33,22,19,13,0,0,NA,NA,34,22,6,6,0.5,0.6
2026-04-02T0600,1611A,118.5818,24.9116,泉州市,涂山街,,20,13,17,7,9,61,61,NA,NA,11,14,3,4,0.6,0.6
2026-04-02T0600,1612A,118.597,24.8976,泉州市,津头埔,,21,13,16,9,10,67,67,NA,NA,11,13,2,3,0.6,0.6
2026-04-02T0600,1613A,118.6669,24.9422,泉州市,万安,,18,18,19,10,10,48,48,NA,NA,19,13,3,4,0.5,0.5
2026-04-02T0600,4105A,118.6355,24.9148,泉州市,霞新路6号,,15,15,13,10,10,46,46,NA,NA,20,14,/,/,0.5,0.5
2026-04-02T0600,2626A,88.8873,29.2723,日喀则市,日喀则监测站,,25,11,19,3,3,80,80,NA,NA,3,5,9,9,0.3,0.3
2026-04-02T0600,3726A,88.8775,29.2425,日喀则市,林业技术推广中心,,28,13,14,3,3,89,89,NA,NA,3,3,5,6,0.3,0.3
2026-04-02T0600,1659A,119.4711,35.421,日照市,监测站,细颗粒物(PM2.5),128,119,121,90,88,0,0,NA,NA,74,54,10,10,1.4,1.1
2026-04-02T0600,1660A,119.523,35.4216,日照市,市政府广场,细颗粒物(PM2.5),84,70,101,52,85,13,13,NA,NA,44,34,6,8,1.6,1.1
2026-04-02T0600,1661A,119.5511,35.4113,日照市,港务局,,39,39,87,26,64,47,47,NA,NA,25,34,4,6,1.1,1.1
2026-04-02T0600,3507A,119.5326,35.4627,日照市,职业技术学院,细颗粒物(PM2.5),92,63,101,56,81,21,21,NA,NA,34,34,7,9,1.5,1.3
2026-04-02T0600,3604A,119.3267,35.1043,日照市,岚山环保分局,细颗粒物(PM2.5),202,183,153,152,114,37,37,NA,NA,48,45,17,24,1.4,1.9
2026-04-02T0600,1835A,111.1922,34.7752,三门峡市,市政府,细颗粒物(PM2.5),66,57,46,43,23,78,78,NA,NA,13,13,12,11,0.5,0.4
2026-04-02T0600,1836A,111.1588,34.794,三门峡市,开发区,颗粒物(PM10),70,77,48,44,25,81,81,NA,NA,16,16,12,12,0.5,0.4
2026-04-02T0600,3039A,111.1911,34.7829,三门峡市,三门峡市第一小学,细颗粒物(PM2.5),62,55,47,41,22,83,83,NA,NA,12,12,16,14,0.5,0.4
2026-04-02T0600,3598A,111.1031,34.719,三门峡市,富达温泉假日酒店,细颗粒物(PM2.5),62,60,51,41,23,80,80,NA,NA,12,18,18,15,0.3,0.3
2026-04-02T0600,2324A,117.621,26.2626,三明市,三钢,,32,28,17,22,12,26,26,NA,NA,18,18,8,9,0.4,1
2026-04-02T0600,2325A,117.6352,26.2714,三明市,三明二中,颗粒物(PM10),61,65,23,16,9,20,20,NA,NA,18,14,6,4,0.5,0.6
2026-04-02T0600,2326A,117.6028,26.2377,三明市,三元区政府,,38,30,19,26,12,8,8,NA,NA,18,16,6,5,0.9,0.7
2026-04-02T0600,1877A,109.4962,18.2682,三亚市,河西子站,,35,28,33,24,23,38,38,NA,NA,7,5,4,4,0.5,0.5
2026-04-02T0600,3540A,109.7348,18.3443,三亚市,君悦子站,,33,30,35,23,22,21,21,NA,NA,13,6,3,4,0.5,0.5
2026-04-02T0600,4135A,109.1714,18.3739,三亚市,城东小学站,,38,28,37,26,24,43,43,NA,NA,9,6,/,/,/,/
2026-04-02T0600,2624A,91.7592,29.234,山南市,山南监测站,,33,22,16,8,4,103,103,NA,NA,1,3,9,8,0.3,0.3
2026-04-02T0600,2625A,91.7701,29.2436,山南市,山南人民医院,颗粒物(PM10),75,84,23,9,6,105,105,NA,NA,2,3,10,8,0.2,0.3
2026-04-02T0600,1674A,116.6795,23.3666,汕头市,金平子站,,32,7,17,3,8,100,100,NA,NA,9,12,5,6,0.6,0.7
2026-04-02T0600,1675A,116.7248,23.3632,汕头市,龙湖子站,,29,10,19,3,8,92,92,NA,NA,10,12,5,6,/,/
2026-04-02T0600,1676A,116.7257,23.2774,汕头市,濠江子站,,31,11,18,7,7,98,98,NA,NA,10,13,7,8,/,/
2026-04-02T0600,1677A,116.7518,23.4712,汕头市,澄海子站,,29,10,19,7,7,92,92,NA,NA,9,9,7,7,0.6,0.7
2026-04-02T0600,1678A,116.6088,23.2539,汕头市,潮阳子站,,31,13,17,6,9,99,99,NA,NA,5,7,6,6,0.5,0.6
2026-04-02T0600,3444A,116.4539,23.2684,汕头市,潮南峡山,,29,9,15,3,7,90,90,NA,NA,8,8,6,7,0.7,0.8
2026-04-02T0600,3624A,116.4069,23.2533,汕头市,潮南子站,,25,9,15,3,8,79,79,NA,NA,6,8,6,6,/,/
2026-04-02T0600,1693A,115.3653,22.7751,汕尾市,市环保局,,30,13,19,9,11,93,93,NA,NA,6,8,5,5,0.5,0.6
2026-04-02T0600,1695A,115.362,22.7926,汕尾市,新城中学,,30,NA,17,6,8,96,96,NA,NA,6,10,6,6,0.6,0.6
2026-04-02T0600,2645A,109.9155,33.8714,商洛市,监测站,,37,37,40,19,18,30,30,NA,NA,20,16,7,8,0.4,0.5
2026-04-02T0600,3045A,109.9647,33.8486,商洛市,商州区中学,,50,50,45,17,18,29,29,NA,NA,22,19,4,8,0.4,0.5
2026-04-02T0600,2408A,115.6701,34.4283,商丘市,环境监测站,细颗粒物(PM2.5),86,66,51,53,34,88,88,NA,NA,9,9,3,3,0.5,0.4
2026-04-02T0600,2409A,115.6458,34.4047,商丘市,粮食局,细颗粒物(PM2.5),106,NA,46,66,36,87,87,NA,NA,14,14,3,3,0.4,0.4
2026-04-02T0600,3171A,115.6069,34.4465,商丘市,梁园区档案局,细颗粒物(PM2.5),100,NA,44,60,35,92,92,NA,NA,11,11,4,3,0.4,0.4
2026-04-02T0600,4119A,115.6701,34.3767,商丘市,北海东路185号,细颗粒物(PM2.5),80,84,60,50,32,74,74,NA,NA,14,12,4,4,0.4,0.4
2026-04-02T0600,4120A,115.6172,34.3704,商丘市,中山大街3号,细颗粒物(PM2.5),96,84,58,58,38,89,89,NA,NA,12,13,4,4,0.4,0.4
2026-04-02T0600,1141A,121.401,31.2382,上海市,普陀,细颗粒物(PM2.5),100,82,59,60,43,28,28,NA,NA,69,54,6,6,0.7,0.7
2026-04-02T0600,1142A,121.4774,31.2043,上海市,十五厂,NA,NA,55,71,NA,55,2,2,NA,NA,98,45,7,6,0.9,0.9
2026-04-02T0600,1143A,121.4673,31.3011,上海市,虹口,NA,NA,64,73,48,59,6,6,NA,NA,73,47,NA,NA,0.9,0.7
2026-04-02T0600,1147A,121.4253,31.226,上海市,静安监测站,细颗粒物(PM2.5),62,60,49,41,37,39,39,NA,NA,68,52,8,8,0.8,0.8
2026-04-02T0600,1148A,121.7029,31.1905,上海市,浦东川沙,细颗粒物(PM2.5),102,85,89,62,64,10,10,NA,NA,73,65,7,8,1.0,1.2
2026-04-02T0600,1149A,121.5339,31.229,上海市,浦东新区监测站,细颗粒物(PM2.5),105,82,79,65,58,15,15,NA,NA,77,44,6,6,0.9,0.8
2026-04-02T0600,1150A,121.5776,31.2038,上海市,浦东张江,细颗粒物(PM2.5),84,70,82,52,60,8,8,NA,NA,93,54,6,7,0.6,0.6
