timepoint,stationcode,longitude,latitude,area,positionname,primarypollutant,aqi,pm10,pm10_24h,pm2_5,pm2_5_24h,o3,o3_24h,o3_8h,o3_8h_24h,no2,no2_24h,so2,so2_24h,co,co_24h
2026-04-02T1400,2568A,102.2503,31.8896,阿坝藏族羌族自治州,马师校,,26,23,24,6,8,81,81,41,37,4,5,5,5,0.3,0.3
2026-04-02T1400,3994A,102.2174,31.9016,阿坝藏族羌族自治州,马尔康中学西区,,25,NA,13,3,7,77,77,46,40,5,6,3,3,0.2,0.3
2026-04-02T1400,2695A,80.2899,41.1684,阿克苏地区,电视台,颗粒物(PM10),106,134,164,46,61,106,106,51,51,12,29,4,3,0.3,0.5
2026-04-02T1400,2696A,80.2592,41.1541,阿克苏地区,艺术中心,颗粒物(PM10),97,115,164,32,52,109,109,53,53,7,36,6,5,0.1,0.4
2026-04-02T1400,2205A,105.699,38.8409,阿拉善盟,蒙二幼,颗粒物(PM10),53,53,40,18,9,119,119,109,109,6,7,10,9,0.5,0.4
2026-04-02T1400,2206A,105.7198,38.8508,阿拉善盟,环保局新楼,颗粒物(PM10),53,54,37,15,10,118,118,113,113,6,5,9,8,0.5,0.5
2026-04-02T1400,2708A,88.1266,47.8515,阿勒泰地区,市站,NA,NA,24,15,3,3,77,77,80,67,NA,7,6,6,0.4,0.3
2026-04-02T1400,4166A,88.1198,47.7931,阿勒泰地区,阿勒泰路33号,,26,25,14,3,2,81,81,83,66,6,7,5,5,0.3,0.2
2026-04-02T1400,2630A,80.1171,32.4999,阿里地区,阿里监测站,,29,6,10,3,2,90,90,92,77,1,3,5,6,0.3,0.3
2026-04-02T1400,3192A,80.0906,32.5029,阿里地区,阿里藏医院,,31,6,10,3,3,99,99,95,83,1,3,6,7,0.2,0.2
2026-04-02T1400,2644A,109.0088,32.6974,安康市,汉滨区检察院,,46,46,38,25,17,37,37,25,22,17,14,8,7,0.6,0.5
2026-04-02T1400,4054A,109.0324,32.6913,安康市,市邮政管理局,颗粒物(PM10),63,68,46,38,22,28,28,25,22,29,22,10,24,0.8,0.7
2026-04-02T1400,2291A,117.0806,30.5181,安庆市,环科院,,40,40,66,19,38,102,102,54,54,33,51,7,7,0.6,0.7
2026-04-02T1400,2292A,117.0331,30.5118,安庆市,马山宾馆,颗粒物(PM10),56,58,49,23,36,95,95,53,53,37,46,7,6,0.5,0.6
2026-04-02T1400,2294A,116.9897,30.6146,安庆市,安庆大学,,46,46,50,18,28,142,142,85,85,16,22,12,5,0.5,0.7
2026-04-02T1400,3173A,117.0598,30.5351,安庆市,市人大,颗粒物(PM10),54,55,52,18,32,112,112,61,61,28,36,10,8,0.5,0.6
2026-04-02T1400,3123A,105.9408,26.2431,安顺市,凤凰山,,43,40,29,30,20,114,114,85,85,5,7,5,7,0.6,0.5
2026-04-02T1400,3124A,105.9443,26.2567,安顺市,金钟山,,45,37,24,31,20,104,104,77,77,4,6,7,9,0.7,0.6
2026-04-02T1400,3125A,105.8983,26.248,安顺市,娄家坡,NA,NA,NA,24,42,19,100,100,79,79,4,5,NA,12,0.7,0.8
2026-04-02T1400,1819A,114.3552,36.1017,安阳市,红庙街,细颗粒物(PM2.5),101,72,103,61,83,131,131,80,80,11,22,5,5,0.3,0.5
2026-04-02T1400,1820A,114.361,36.0681,安阳市,银杏小区,细颗粒物(PM2.5),107,92,92,67,85,128,128,84,84,14,23,5,5,0.4,0.6
2026-04-02T1400,3141A,114.3921,36.0879,安阳市,信访局,细颗粒物(PM2.5),105,80,93,65,83,136,136,84,84,11,20,3,4,0.5,0.7
2026-04-02T1400,3669A,114.4706,36.0634,安阳市,左辅环卫站,细颗粒物(PM2.5),125,106,126,87,86,129,129,84,84,5,14,6,6,0.5,0.7
2026-04-02T1400,4117A,114.2918,36.0769,安阳市,钢三路198号,细颗粒物(PM2.5),88,94,130,54,85,126,126,76,76,9,19,4,6,0.6,0.8
2026-04-02T1400,1748A,123.0441,41.1201,鞍山市,深沟寺,颗粒物(PM10),66,72,98,36,48,117,117,85,85,21,26,18,12,1.0,0.8
2026-04-02T1400,1749A,123.011,41.0931,鞍山市,太阳城,"颗粒物(PM10),细颗粒物(PM2.5)",58,60,89,39,51,112,112,82,82,18,23,16,11,1.0,0.7
2026-04-02T1400,1750A,123.0483,41.1445,鞍山市,太平,颗粒物(PM10),63,67,103,34,50,106,106,76,76,18,28,16,12,1.2,1
2026-04-02T1400,1751A,122.964,41.0968,鞍山市,铁西三道街,颗粒物(PM10),67,73,111,41,60,115,115,72,72,20,42,14,17,0.9,1.2
2026-04-02T1400,1753A,123.0219,41.0822,鞍山市,明达新区,颗粒物(PM10),61,65,88,34,46,112,112,85,85,18,23,16,11,1.0,0.8
2026-04-02T1400,4201A,122.944647,41.082639,鞍山市,兴盛南路290号,颗粒物(PM10),65,71,117,41,60,109,109,76,76,22,41,15,17,1.0,1.2
2026-04-02T1400,2195A,107.4206,40.7609,巴彦淖尔市,附二中,颗粒物(PM10),77,87,62,29,20,125,125,70,70,10,16,20,13,0.7,0.5
2026-04-02T1400,2196A,107.37,40.7372,巴彦淖尔市,市环保大楼,颗粒物(PM10),68,74,61,41,24,132,132,64,64,10,18,15,10,0.6,0.5
2026-04-02T1400,1956A,86.1476,41.7529,巴音郭楞蒙古自治州,孔雀公园,颗粒物(PM10),74,83,151,20,43,113,113,83,66,7,22,10,11,0.4,0.5
2026-04-02T1400,1957A,86.1971,41.7166,巴音郭楞蒙古自治州,棉纺厂,颗粒物(PM10),98,117,176,24,39,117,117,88,88,6,20,/,/,/,/
2026-04-02T1400,1958A,86.236,41.7172,巴音郭楞蒙古自治州,经济开发区,,38,38,129,17,36,106,106,94,94,5,14,8,8,0.3,0.3
2026-04-02T1400,3181A,106.776805,31.852614,巴中市,市五中,,24,24,32,8,17,74,74,42,42,8,19,8,8,0.5,0.6
2026-04-02T1400,3183A,106.7419,31.8654,巴中市,圣泉水务公司,,25,20,25,9,17,79,79,45,34,7,18,8,10,0.5,0.7
2026-04-02T1400,3616A,106.7617,31.8343,巴中市,市中心医院,,29,18,30,11,20,92,92,56,56,5,19,7,8,0.5,0.6
2026-04-02T1400,2235A,122.7909,45.608,白城市,洮北区环保局,颗粒物(PM10),69,76,44,44,24,120,120,91,91,17,16,8,7,0.3,0.3
2026-04-02T1400,2236A,122.8741,45.5725,白城市,市环保局,颗粒物(PM10),74,83,53,40,23,104,104,79,79,9,12,6,4,0.5,0.4
2026-04-02T1400,2231A,126.4219,41.9172,白山市,喜丰,,40,40,126,17,68,106,106,78,78,7,29,7,9,0.7,0.9
2026-04-02T1400,2232A,126.4082,41.9416,白山市,环保局,,36,30,97,20,66,113,113,82,82,9,18,9,11,0.6,0.9
2026-04-02T1400,2647A,104.1727,36.5448,白银市,第三小学,,36,36,90,12,27,110,110,70,70,10,34,8,36,0.2,0.6
2026-04-02T1400,2648A,104.1467,36.5482,白银市,动力公司,,36,36,76,16,26,115,115,84,84,7,31,9,18,0.3,0.6
2026-04-02T1400,2512A,106.6102,23.901,百色市,市监测站,颗粒物(PM10),65,70,41,35,22,143,143,94,94,16,16,22,20,0.8,0.6
2026-04-02T1400,2513A,106.6524,23.8842,百色市,市中心血站,细颗粒物(PM2.5),101,67,41,61,28,141,141,95,95,13,13,21,18,0.9,0.7
2026-04-02T1400,4133A,106.6273,23.8798,百色市,龙景西路,细颗粒物(PM2.5),82,77,49,51,29,151,151,93,93,16,15,24,23,0.7,0.6
2026-04-02T1400,2270A,117.396,32.9389,蚌埠市,工人疗养院,臭氧1小时(O3_1h),60,52,77,17,42,168,168,124,124,10,20,5,5,0.4,0.4
2026-04-02T1400,2271A,117.3606,32.9428,蚌埠市,百货大楼,,48,48,62,17,36,146,146,124,124,8,19,6,6,0.5,0.5
2026-04-02T1400,2273A,117.4183,32.8909,蚌埠市,蚌埠学院,,45,44,65,18,47,144,144,114,114,8,16,5,5,0.5,0.5
2026-04-02T1400,2274A,117.3534,32.9672,蚌埠市,淮上区政府,,47,41,66,20,43,150,150,121,121,8,18,6,5,0.4,0.5
2026-04-02T1400,2275A,117.3143,32.8977,蚌埠市,高新区,,44,41,64,21,42,138,138,114,114,9,16,8,8,0.6,0.6
2026-04-02T1400,3715A,117.3091,32.9314,蚌埠市,蚌埠田家炳中学,,50,50,73,20,41,150,150,124,124,8,16,8,6,0.4,0.5
2026-04-02T1400,1585A,109.8761,40.6533,包头市,市环境监测站,颗粒物(PM10),55,57,54,25,26,129,129,83,83,18,42,9,11,0.5,0.6
2026-04-02T1400,1587A,109.9992,40.5843,包头市,包头八中,颗粒物(PM10),68,74,76,39,38,134,134,72,72,20,46,16,12,0.5,0.7
2026-04-02T1400,1589A,109.8641,40.6288,包头市,惠龙物流,颗粒物(PM10),54,55,54,28,31,126,126,80,80,15,35,9,10,0.5,0.5
2026-04-02T1400,1590A,110.0376,40.5546,包头市,东河鸿龙湾,细颗粒物(PM2.5),56,51,52,38,33,137,137,75,75,24,51,17,18,0.6,0.8
2026-04-02T1400,3283A,109.9154,40.5684,包头市,滨河大厦,颗粒物(PM10),57,59,53,29,31,134,134,73,73,18,49,15,14,0.5,0.6
2026-04-02T1400,3419A,109.9449,40.6259,包头市,包头市委党校,,47,47,49,20,23,130,130,75,75,20,39,11,10,0.5,0.5
2026-04-02T1400,3683A,109.8332,40.6577,包头市,昆区政府,,49,49,63,34,36,124,124,72,72,22,57,8,10,0.6,0.8
2026-04-02T1400,1931A,107.0802,34.3129,宝鸡市,竹园沟,细颗粒物(PM2.5),66,62,40,43,23,97,97,47,47,20,20,11,7,0.5,0.3
2026-04-02T1400,1933A,107.1429,34.3549,宝鸡市,监测站,颗粒物(PM10),70,77,54,44,27,88,88,43,43,24,23,13,7,0.5,0.4
2026-04-02T1400,1934A,107.1172,34.3759,宝鸡市,技工学校,细颗粒物(PM2.5),68,68,64,44,33,96,96,47,47,20,18,8,7,0.6,0.6
2026-04-02T1400,1936A,107.2025,34.3518,宝鸡市,文理学院,颗粒物(PM10),70,77,56,44,28,88,88,39,39,15,15,9,6,0.7,0.6
2026-04-02T1400,1937A,107.2396,34.3626,宝鸡市,三迪小学,细颗粒物(PM2.5),70,74,62,45,33,102,102,43,43,20,29,10,6,0.6,0.5
2026-04-02T1400,4155A,107.1721,34.3558,宝鸡市,滨河北路,细颗粒物(PM2.5),98,88,66,59,37,82,82,38,38,24,23,10,7,0.6,0.5
2026-04-02T1400,4308A,107.3898,34.3601,宝鸡市,陈仓区北开路21号,细颗粒物(PM2.5),70,67,67,45,36,109,109,48,48,16,26,13,12,0.6,0.6
2026-04-02T1400,1051A,115.4803,38.8568,保定市,游泳馆,细颗粒物(PM2.5),145,143,122,109,38,98,98,60,60,32,34,8,5,0.3,0.3
2026-04-02T1400,1052A,115.509,38.8895,保定市,华电二区,颗粒物(PM10),103,127,103,61,31,99,99,52,52,26,27,6,5,NA,0.5
2026-04-02T1400,1053A,115.4588,38.9037,保定市,接待中心,颗粒物(PM10),108,139,107,62,37,107,107,53,53,29,30,8,5,0.5,0.4
2026-04-02T1400,1054A,115.4484,38.8344,保定市,地表水厂,颗粒物(PM10),109,143,126,56,33,112,112,62,62,29,35,6,5,0.2,0.2
2026-04-02T1400,3581A,115.3136,38.9511,保定市,满城区生态环境分局,颗粒物(PM10),110,144,135,52,31,128,128,76,76,17,26,5,3,0.5,0.5
2026-04-02T1400,3582A,115.4709,38.7628,保定市,清苑区第二中学,颗粒物(PM10),115,159,153,50,37,125,125,57,57,19,38,10,9,0.5,0.4
2026-04-02T1400,3583A,115.6231,39.0223,保定市,徐水物探局,颗粒物(PM10),121,174,146,54,31,118,118,65,65,20,22,5,4,0.5,0.5
2026-04-02T1400,4004A,115.4199,38.8665,保定市,双鹰农机,颗粒物(PM10),124,181,153,61,43,115,115,56,56,28,36,7,5,0.4,0.3
2026-04-02T1400,4034A,115.515,38.8589,保定市,植保所站,颗粒物(PM10),107,138,122,55,32,104,104,59,59,31,38,5,3,0.5,0.5
2026-04-02T1400,2594A,99.1589,25.1137,保山市,市环境监测站,NA,NA,43,41,26,29,104,104,84,84,5,9,6,5,NA,0.3
2026-04-02T1400,2595A,99.1616,25.1381,保山市,市环保局,,50,50,41,26,30,104,104,83,83,4,6,6,6,0.3,0.3
2026-04-02T1400,1867A,109.1435,21.4085,北海市,海滩公园,NA,NA,48,45,27,26,63,63,60,60,9,17,6,11,NA,0.8
2026-04-02T1400,1868A,109.0983,21.466,北海市,新市环保局,,46,46,37,22,23,77,77,63,63,9,16,9,13,0.7,0.9
2026-04-02T1400,1869A,109.1775,21.5232,北海市,北海工业园,,43,43,51,22,27,66,66,46,46,4,15,6,11,0.6,0.7
2026-04-02T1400,3400A,109.1844,21.4396,北海市,龙潭自来水厂,,33,33,36,20,30,67,67,54,54,6,14,5,8,0.6,0.8
2026-04-02T1400,1001A,116.3611,39.8786,北京市,万寿西宫,颗粒物(PM10),103,126,83,54,26,112,112,65,65,23,32,6,5,0.4,0.4
2026-04-02T1400,1003A,116.4174,39.9289,北京市,东四,颗粒物(PM10),103,127,83,45,23,114,114,74,74,25,28,9,8,0.4,0.4
2026-04-02T1400,1004A,116.4073,39.8858,北京市,天坛,颗粒物(PM10),102,125,75,45,22,102,102,58,58,27,32,6,5,0.5,0.4
2026-04-02T1400,1005A,116.4622,39.9364,北京市,农展馆,颗粒物(PM10),107,138,82,45,22,108,108,64,64,21,28,6,7,0.6,0.5
2026-04-02T1400,1006A,116.3399,39.9293,北京市,官园,颗粒物(PM10),104,130,79,51,22,97,97,62,62,31,30,6,4,0.5,0.5
2026-04-02T1400,1007A,116.2879,39.9613,北京市,海淀万柳,颗粒物(PM10),105,133,84,46,22,93,93,45,45,29,29,6,4,0.5,0.4
2026-04-02T1400,1008A,116.6635,40.1349,北京市,顺义新城,颗粒物(PM10),101,121,81,51,23,97,97,66,66,24,27,8,7,0.5,0.5
2026-04-02T1400,1009A,116.6275,40.327,北京市,怀柔镇,颗粒物(PM10),97,115,70,37,19,92,92,66,66,22,22,8,7,0.5,0.5
2026-04-02T1400,1010A,116.2295,40.217,北京市,昌平镇,颗粒物(PM10),98,116,73,37,21,74,74,54,54,31,22,5,4,0.4,0.3
2026-04-02T1400,1011A,116.3968,39.982,北京市,奥体中心,颗粒物(PM10),101,121,76,44,25,99,99,60,60,25,30,7,5,0.6,0.5
2026-04-02T1400,3418A,116.8336,40.4095,北京市,密云新城,颗粒物(PM10),95,113,75,41,20,104,104,64,64,12,18,6,4,0.5,0.5
2026-04-02T1400,3671A,116.0879,39.9725,北京市,门头沟三家店,颗粒物(PM10),106,134,96,44,24,86,86,53,53,27,29,5,3,0.4,0.4
2026-04-02T1400,3672A,116.1507,39.8246,北京市,丰台云岗,颗粒物(PM10),105,131,83,54,22,102,102,67,67,22,24,4,3,0.6,0.5
2026-04-02T1400,3674A,115.9578,39.7602,北京市,房山燕山,颗粒物(PM10),108,139,92,45,23,92,92,60,60,25,19,7,6,0.4,0.4
2026-04-02T1400,3675A,116.4669,39.7734,北京市,大兴旧宫,颗粒物(PM10),107,137,82,52,23,114,114,67,67,18,28,7,6,0.5,0.5
2026-04-02T1400,3694A,115.9859,40.4562,北京市,延庆石河营,颗粒物(PM10),72,80,73,27,22,83,83,69,69,20,17,3,2,0.4,0.4
2026-04-02T1400,3695A,116.6151,40.3052,北京市,怀柔新城,颗粒物(PM10),92,108,73,37,22,92,92,65,65,21,22,7,6,0.6,0.5
2026-04-02T1400,3696A,116.2542,39.8764,北京市,丰台小屯,颗粒物(PM10),104,128,85,47,24,92,92,56,56,28,30,5,4,0.4,0.4
2026-04-02T1400,3697A,116.8399,40.3843,北京市,密云镇,颗粒物(PM10),98,117,77,45,20,106,106,65,65,17,24,6,5,0.5,0.5
2026-04-02T1400,4057A,115.9423,40.4431,北京市,延庆百泉,颗粒物(PM10),74,83,76,30,21,77,77,66,66,24,19,3,1,0.3,0.3
2026-04-02T1400,4058A,116.6598,39.9164,北京市,通州新华,颗粒物(PM10),107,137,81,49,22,107,107,71,71,20,24,7,6,0.5,0.6
2026-04-02T1400,4182A,116.1942,39.9158,北京市,石景山八角,颗粒物(PM10),115,157,91,45,23,94,94,55,55,26,31,NA,3,0.5,0.3
2026-04-02T1400,4194A,117.078628,40.151726,北京市,平谷新城,颗粒物(PM10),104,130,75,51,20,118,118,70,70,19,17,7,3,0.6,0.6
2026-04-02T1400,1761A,123.8274146,41.31234549,本溪市,大峪,,33,33,99,14,42,104,104,67,67,10,25,14,14,1.0,1.1
2026-04-02T1400,1763A,123.7169,41.3094,本溪市,彩屯,颗粒物(PM10),52,52,103,19,50,110,110,69,69,9,28,8,15,0.6,1.2
2026-04-02T1400,1764A,123.7672166,41.28649327,本溪市,东明,,46,46,91,14,45,106,106,63,63,14,34,15,14,1.1,1
2026-04-02T1400,1765A,123.799345,41.266614,本溪市,新立屯,,46,46,84,15,41,106,106,70,70,7,34,7,10,0.4,0.9
2026-04-02T1400,1766A,123.829144,41.336777,本溪市,威宁,NA,NA,NA,109,NA,45,107,107,67,67,9,31,9,8,0.6,0.6
2026-04-02T1400,2587A,105.287,27.3133,毕节市,八中,,36,36,31,16,20,64,64,54,54,7,8,10,11,0.5,0.6
2026-04-02T1400,2588A,105.3079,27.2987,毕节市,师专,,26,26,31,11,19,71,71,64,64,8,10,9,11,0.5,0.5
2026-04-02T1400,4263A,105.3688,27.3598,毕节市,工业大道,,31,31,29,16,18,76,76,72,72,7,9,10,10,/,/
2026-04-02T1400,1629A,117.9961,37.3604,滨州市,第二水厂,NA,NA,61,99,53,27,130,130,78,78,NA,22,10,15,0.4,0.3
2026-04-02T1400,1630A,117.9789,37.3931,滨州市,北中新校,细颗粒物(PM2.5),82,63,89,51,27,132,132,76,76,15,22,12,13,0.4,0.4
2026-04-02T1400,3514A,117.9379,37.3959,滨州市,中海酒店,细颗粒物(PM2.5),76,58,89,48,26,137,137,90,90,18,22,13,13,0.6,0.6
2026-04-02T1400,3515A,117.9381509,37.35547456,滨州市,开发区一中,细颗粒物(PM2.5),82,66,104,51,29,124,124,77,77,14,23,11,13,0.6,0.6
2026-04-02T1400,3516A,118.0914,37.6938,滨州市,金海六路,细颗粒物(PM2.5),88,63,105,54,27,146,146,89,89,8,16,14,10,0.4,0.2
2026-04-02T1400,4028A,117.9955,37.3752,滨州市,滨州市西街道办事处,细颗粒物(PM2.5),80,63,102,50,27,137,137,82,82,10,17,14,15,0,0.1
2026-04-02T1400,2311A,115.8071,33.8399,亳州市,污水处理厂,,44,44,60,16,36,128,128,94,94,10,15,5,7,0.2,0.2
2026-04-02T1400,2312A,115.7789,33.8519,亳州市,三国揽胜宫,颗粒物(PM10),53,53,63,16,34,122,122,89,89,6,11,6,6,0.1,0.1
2026-04-02T1400,3332A,115.7631,33.803,亳州市,亳州学院,,45,45,54,21,36,120,120,93,93,4,8,6,7,0.2,0.2
2026-04-02T1400,2693A,82.0482,44.8553,博尔塔拉蒙古自治州,市党校,颗粒物(PM10),68,75,83,12,20,114,114,81,81,5,5,3,3,0.3,0.3
2026-04-02T1400,2694A,82.0805,44.8966,博尔塔拉蒙古自治州,市环保局,颗粒物(PM10),60,64,96,9,27,112,112,63,63,11,23,2,3,0.4,0.5
2026-04-02T1400,1071A,116.8733,38.2922,沧州市,沧县城建局,细颗粒物(PM2.5),107,113,108,67,26,144,144,76,76,24,34,9,6,0.5,0.3
2026-04-02T1400,1072A,116.8462,38.3189,沧州市,电视转播站,细颗粒物(PM2.5),94,104,100,57,28,140,140,72,72,22,31,10,10,0.5,0.4
2026-04-02T1400,1073A,116.8588,38.3161,沧州市,市环保局,颗粒物(PM10),90,105,112,54,27,140,140,74,74,21,31,8,4,0.3,0.3
2026-04-02T1400,3324A,116.8011,38.294,沧州市,河北水利电力学院,颗粒物(PM10),105,132,119,61,27,126,126,77,77,17,21,10,6,0.5,0.3
2026-04-02T1400,2622A,97.1813,31.1289,昌都市,昌都监测站,,26,12,13,3,5,83,83,63,63,7,8,7,6,0.3,0.7
2026-04-02T1400,3719A,97.1707,31.1428,昌都市,昌都会议中心,,30,6,9,3,5,95,95,68,68,4,4,6,5,0.4,0.4
2026-04-02T1400,2692A,87.2722,44.0298,昌吉回族自治州,新区政务中心,,44,44,48,16,28,110,110,96,96,8,17,6,6,0.5,0.6
2026-04-02T1400,3613A,87.3069,44.0093,昌吉回族自治州,亚心广场,,44,44,59,19,27,112,112,96,96,8,18,8,8,0.0,0.2
2026-04-02T1400,4164A,87.2057,43.9289,昌吉回族自治州,财政所,,44,44,61,13,24,110,110,91,91,6,11,10,9,0.3,0.4
2026-04-02T1400,1120A,125.2874,43.9024,长春市,客车厂,"颗粒物(PM10),细颗粒物(PM2.5)",66,72,99,43,84,118,118,101,101,12,48,7,14,0.4,0.7
2026-04-02T1400,1121A,125.2943,43.8508,长春市,邮电学院,颗粒物(PM10),74,83,104,38,79,123,123,109,109,8,32,8,10,0.4,0.7
2026-04-02T1400,1122A,125.3648,43.8745,长春市,劳动公园,颗粒物(PM10),71,79,117,45,82,128,128,99,99,11,44,8,11,0.3,0.7
2026-04-02T1400,1123A,125.3233,43.8781,长春市,园林处,细颗粒物(PM2.5),78,76,103,49,85,129,129,111,111,13,36,7,10,0.4,0.6
2026-04-02T1400,1124A,125.4604,43.7904,长春市,净月潭,细颗粒物(PM2.5),107,73,98,67,83,133,133,114,114,11,16,7,7,0.4,0.5
2026-04-02T1400,1126A,125.38,43.8422,长春市,经开区环卫处,细颗粒物(PM2.5),68,67,122,44,86,125,125,100,100,12,48,6,7,0.4,0.7
2026-04-02T1400,1127A,125.234,43.7761,长春市,高新区管委会,颗粒物(PM10),53,54,93,27,68,108,108,86,86,5,40,6,8,0.4,0.7
2026-04-02T1400,1128A,125.1695,43.83,长春市,岱山公园,颗粒物(PM10),56,58,104,30,75,107,107,83,83,9,56,5,8,0.3,0.8
2026-04-02T1400,4281A,125.334645,43.916281,长春市,北亚泰大街1068号,细颗粒物(PM2.5),82,80,112,51,83,126,126,97,97,15,51,8,11,0.3,0.6
2026-04-02T1400,1335A,113.082,28.2421,长沙市,经开区环保局,,33,31,44,23,23,81,81,71,51,18,33,15,14,0.5,0.6
2026-04-02T1400,1336A,112.8873,28.2202,长沙市,高开区环保局,,36,34,41,25,23,84,84,100,80,17,19,5,6,0.7,0.8
2026-04-02T1400,1337A,113.0785,28.2012,长沙市,马坡岭,,38,31,48,26,27,82,82,75,53,18,33,4,5,0.7,0.7
2026-04-02T1400,1338A,112.9448,28.1894,长沙市,湖南师范大学,NA,NA,38,39,23,22,90,90,100,84,NA,17,4,5,0.6,0.7
2026-04-02T1400,1339A,113.0177,28.1322,长沙市,雨花区环保局,,38,32,38,26,21,89,89,105,97,7,13,4,5,0.8,0.8
2026-04-02T1400,1340A,112.9795,28.2593,长沙市,伍家岭,,38,33,58,26,30,71,71,40,40,26,44,4,4,0.5,0.8
2026-04-02T1400,1341A,113.002,28.1944,长沙市,火车新站,,43,34,46,30,26,83,83,92,70,16,29,4,4,0.5,0.6
2026-04-02T1400,1342A,112.9846,28.1177,长沙市,天心区环保局,,49,39,44,34,30,91,91,107,97,14,21,5,7,0.6,0.7
2026-04-02T1400,1343A,112.8906,28.1307,长沙市,湖南中医药大学,,38,32,49,26,27,93,93,91,84,12,31,5,6,0.7,0.8
2026-04-02T1400,1727A,113.1146,36.1547,长治市,清华站,,48,48,45,25,39,127,127,64,64,9,16,10,8,0.5,0.7
2026-04-02T1400,1730A,113.0887,36.2126,长治市,审计局,,46,44,52,32,53,135,135,75,75,10,19,10,10,0.5,0.9
2026-04-02T1400,1731A,113.0845,36.1856,长治市,长治八中,颗粒物(PM10),60,64,66,28,50,129,129,67,67,6,19,12,12,0.5,0.8
2026-04-02T1400,2845A,113.1561,36.1912,长治市,德盛苑,NA,NA,NA,51,NA,41,134,134,85,82,14,14,11,9,0.4,0.9
2026-04-02T1400,3568A,113.0603,36.0464,长治市,向阳小学,颗粒物(PM10),60,63,75,14,37,134,134,74,74,5,18,7,8,0.5,0.7
2026-04-02T1400,3569A,112.8788,36.315,长治市,屯留一中,,46,41,51,32,36,143,143,79,79,9,22,10,11,1.0,0.9
2026-04-02T1400,4189A,113.113092,36.199482,长治市,英华南巷50号,颗粒物(PM10),55,57,61,29,54,136,136,75,75,12,19,9,9,0.8,1.2
2026-04-02T1400,4190A,113.23666,36.33435,长治市,学府街1号,NA,NA,NA,59,NA,51,NA,NA,119,NA,NA,22,NA,5,NA,1.0
2026-04-02T1400,1854A,111.696,28.9725,常德市,市二中,,28,18,34,14,20,89,89,91,80,9,18,7,10,1.1,1
2026-04-02T1400,3138A,111.7152,29.0288,常德市,武陵区永安,,31,20,38,16,24,99,99,94,94,10,12,5,7,0.9,0.8
2026-04-02T1400,3139A,111.6891,28.9881,常德市,鼎城区玉霞,NA,NA,NA,35,14,24,94,94,NA,NA,6,21,9,12,1.5,1.1
2026-04-02T1400,3140A,111.6651,29.0526,常德市,武陵区长庚,,31,22,36,13,18,97,97,98,92,6,9,7,9,1.0,0.9
2026-04-02T1400,1196A,119.9524,31.7586,常州市,市监测站,臭氧1小时(O3_1h),87,77,89,52,54,189,189,103,103,21,53,7,8,0.7,1
2026-04-02T1400,1200A,119.9351,31.703,常州市,武进监测站,臭氧1小时(O3_1h),101,69,78,40,43,201,201,120,120,17,28,3,8,0.2,0.4
2026-04-02T1400,3002A,119.9701,31.813,常州市,行政中心,细颗粒物(PM2.5),84,90,84,52,53,176,176,103,103,24,44,8,6,0.6,0.7
2026-04-02T1400,3003A,120.0434,31.7726,常州市,经开区,臭氧1小时(O3_1h),84,83,105,48,51,187,187,100,100,19,43,5,6,0.9,0.9
2026-04-02T1400,3010A,119.8919,31.7892,常州市,钟楼,臭氧1小时(O3_1h),88,68,80,40,46,190,190,113,113,20,49,7,8,0.4,0.7
2026-04-02T1400,3429A,119.8595,31.706,常州市,武进经发区,臭氧1小时(O3_1h),70,54,63,35,36,176,176,108,108,19,50,11,10,0.6,0.8
2026-04-02T1400,3430A,119.5812,31.7256,常州市,金坛城区,,50,46,52,32,41,160,160,115,115,6,18,11,10,0.7,0.8
2026-04-02T1400,4089A,119.9551,31.863,常州市,崇义南街5-H号,颗粒物(PM10),68,75,74,43,38,173,173,NA,NA,34,47,8,6,0.5,0.7
2026-04-02T1400,2220A,120.4318,41.588,朝阳市,西梁,颗粒物(PM10),72,80,61,18,25,123,123,76,76,14,30,8,7,0.9,0.7
2026-04-02T1400,2221A,120.452,41.565,朝阳市,河畔小区,颗粒物(PM10),72,80,47,19,22,125,125,85,85,11,24,7,8,0.6,0.6
2026-04-02T1400,2222A,120.4176,41.5648,朝阳市,八里堡,颗粒物(PM10),66,72,56,15,25,121,121,75,75,15,33,10,10,0.8,0.6
2026-04-02T1400,3026A,116.6179,23.6608,潮州市,市政府,,35,35,21,13,13,109,109,91,91,10,10,4,4,0.5,0.5
2026-04-02T1400,4036A,116.646,23.676,潮州市,金山,,32,23,17,17,12,102,102,82,82,12,13,4,3,0.5,0.5
2026-04-02T1400,2473A,113.0116,25.8228,郴州市,市职中,,25,12,30,10,22,78,78,42,42,1,16,6,6,0.5,0.6
2026-04-02T1400,2475A,113.0381,25.8074,郴州市,市审计局,,28,18,33,10,20,88,88,58,58,2,15,4,6,/,/
2026-04-02T1400,2476A,113.0348,25.7757,郴州市,市环保局,,26,26,38,11,18,81,81,55,55,11,27,8,8,0.3,0.4
2026-04-02T1400,4252A,113.0138,25.8011,郴州市,好美居路49号,,26,14,30,3,20,83,83,62,62,10,27,4,4,/,/
2026-04-02T1400,1431A,103.9727,30.7242,成都市,金泉两河,,36,28,33,25,18,81,81,76,76,27,15,1,1,0.5,0.4
2026-04-02T1400,1432A,104.1423,30.6765,成都市,十里店,,36,NA,33,25,23,104,104,77,77,17,15,4,4,0.6,0.5
2026-04-02T1400,1433A,104.0594,30.5765,成都市,三瓦窑,,39,32,32,27,26,90,90,65,65,13,16,3,3,0.5,0.5
2026-04-02T1400,1434A,104.1122,30.6306,成都市,沙河铺,,33,30,39,23,22,56,56,48,48,30,22,6,6,0.5,0.4
2026-04-02T1400,2880A,104.0219,30.6561,成都市,大石西路,,34,34,37,23,27,88,88,68,68,18,18,7,7,0.7,0.7
2026-04-02T1400,3136A,104.2724,30.559,成都市,龙泉驿区区政府,,32,24,20,19,16,101,101,77,77,6,9,6,6,0.3,0.3
2026-04-02T1400,3357A,104.0028,30.6891,成都市,金博路,,32,22,27,22,24,89,89,74,74,24,19,6,6,0.5,0.5
2026-04-02T1400,3359A,104.056,30.5228,成都市,华阳,,34,34,30,21,21,99,99,81,81,16,15,4,4,0.5,0.6
2026-04-02T1400,3488A,104.387954,30.746684,成都市,青石路225号,,38,38,31,15,22,108,108,71,71,8,16,5,5,0.4,0.4
2026-04-02T1400,3489A,104.0788,30.4054,成都市,科学城,NA,NA,NA,27,NA,17,110,110,81,81,NA,11,NA,7,0.6,0.6
2026-04-02T1400,4011A,103.8505,30.6946,成都市,光华大道三段,颗粒物(PM10),53,54,41,25,25,107,107,83,83,17,18,3,3,0.4,0.4
2026-04-02T1400,4144A,104.3257,30.6406,成都市,八角井街185号,,44,44,28,21,16,89,89,70,70,11,12,5,4,0.4,0.4
2026-04-02T1400,4224A,104.2433276,30.53529463,成都市,鲸龙路1057号,,34,34,34,20,18,105,105,81,81,7,11,6,6,0.4,0.5
2026-04-02T1400,1062A,117.9531,40.908,承德市,铁路,颗粒物(PM10),73,82,60,34,16,130,130,73,73,17,22,6,4,0.4,0.3
2026-04-02T1400,1063A,117.9397,40.9763,承德市,中国银行,颗粒物(PM10),64,69,49,21,10,123,123,68,68,9,17,5,3,0.5,0.4
2026-04-02T1400,4073A,117.9462,40.95,承德市,杏林街1号,颗粒物(PM10),82,94,47,36,21,135,135,74,74,10,15,4,2,0.4,0.4
2026-04-02T1400,4274A,117.7994,40.9605,承德市,滨河大街98号,颗粒物(PM10),60,64,52,18,15,134,134,81,81,11,18,7,9,0.5,0.5
2026-04-02T1400,2314A,117.4698,30.6617,池州市,池州学院,颗粒物(PM10),52,52,52,34,34,130,130,84,84,20,25,5,4,0.6,0.8
2026-04-02T1400,3237A,117.4918,30.6617,池州市,展览馆,,44,44,45,22,26,128,128,89,89,16,22,3,2,0.6,0.9
2026-04-02T1400,3333A,117.5626,30.695,池州市,第八中学,,37,36,43,25,27,116,116,87,87,23,24,7,5,0.6,0.8
2026-04-02T1400,3334A,117.5037,30.6242,池州市,第十二中学,,42,42,50,23,29,130,130,73,73,12,27,4,4,0.7,1.1
2026-04-02T1400,1744A,118.9229,42.2816,赤峰市,松山一中,,38,38,53,10,27,118,118,76,76,12,29,5,16,0.4,0.6
2026-04-02T1400,1745A,118.9588,42.2733,赤峰市,哈达街,颗粒物(PM10),54,55,56,14,27,90,90,62,62,12,32,7,19,0.5,0.7
2026-04-02T1400,1746A,118.8792,42.2551,赤峰市,天义路,,36,36,39,15,22,104,104,67,67,8,21,5,6,0.4,0.6
2026-04-02T1400,3058A,119.2656,42.0356,赤峰市,银河街,颗粒物(PM10),98,117,85,19,41,105,105,76,76,4,17,6,21,0.4,0.6
2026-04-02T1400,3286A,118.9359,42.3146,赤峰市,桥北物流园区,NA,NA,23,51,3,28,107,107,66,66,NA,38,4,9,0.5,0.5
2026-04-02T1400,2521A,107.3473,22.4137,崇左市,市环保局江州分局,"颗粒物(PM10),细颗粒物(PM2.5)",68,74,46,44,28,80,80,81,69,11,10,6,9,0.8,0.7
2026-04-02T1400,4256A,107.375,22.3736,崇左市,石景林东路7号,颗粒物(PM10),60,64,35,39,25,76,76,79,69,10,12,3,5,0.8,0.7
2026-04-02T1400,3207A,118.31131,32.3033,滁州市,市政府原办公楼,颗粒物(PM10),51,51,69,32,64,152,152,99,99,10,21,8,6,0.6,0.7
2026-04-02T1400,3331A,118.3268,32.2633,滁州市,图书馆,颗粒物(PM10),53,53,87,22,51,153,153,103,103,10,19,13,10,0.6,0.7
2026-04-02T1400,4101A,118.3196,32.3335,滁州市,银山路666号,臭氧1小时(O3_1h),54,52,68,33,51,163,163,98,98,12,23,10,9,0.7,0.8
2026-04-02T1400,4102A,118.3426,32.2979,滁州市,黄山路555号,颗粒物(PM10),60,63,105,30,63,165,165,103,103,8,29,9,7,0.7,0.9
2026-04-02T1400,2606A,101.5379,25.0492,楚雄彝族自治州,市经济开发区,NA,NA,22,35,20,25,93,93,85,76,5,7,4,4,NA,0.4
2026-04-02T1400,4153A,101.5536,25.0343,楚雄彝族自治州,团结路562号,,31,28,30,8,22,98,98,97,96,3,4,2,2,0.2,0.3
2026-04-02T1400,2549A,107.5087,31.2186,达州市,市环境监测站,,27,27,42,10,19,50,50,31,31,18,40,5,6,0.2,0.4
2026-04-02T1400,2550A,107.4988,31.2132,达州市,凤凰小区,NA,NA,24,47,11,21,57,57,36,36,13,42,4,5,NA,0.6
2026-04-02T1400,2551A,107.5081,31.1987,达州市,达县机关宾馆,,29,29,48,18,20,44,44,29,29,23,47,4,4,0.3,0.6
2026-04-02T1400,2552A,107.4644,31.2124,达州市,市政中心,,33,33,49,8,19,61,61,34,34,14,43,4,5,0.3,0.7
2026-04-02T1400,2614A,100.2168,25.5818,大理白族自治州,大理市环境监测站,,39,27,29,27,23,84,84,86,82,10,10,3,3,0.3,0.3
2026-04-02T1400,2615A,100.1542,25.7055,大理白族自治州,大理古城,,31,26,28,13,20,97,97,88,88,4,7,7,7,0.5,0.6
2026-04-02T1400,1109A,121.6119,38.974,大连市,甘井子,,31,23,72,10,24,98,98,77,77,23,23,7,9,0.4,0.5
2026-04-02T1400,1110A,121.565,38.9509,大连市,周水子,颗粒物(PM10),77,87,81,15,23,77,77,54,54,14,27,9,7,0.2,0.4
2026-04-02T1400,1111A,121.5637,38.8849,大连市,星海三站,,46,46,73,22,24,109,109,86,86,12,15,7,8,0.3,0.3
2026-04-02T1400,1112A,121.6301,38.9117,大连市,青泥洼桥,NA,NA,18,85,8,22,111,111,83,83,6,24,4,7,NA,0.4
2026-04-02T1400,1113A,121.6248,38.8643,大连市,傅家庄,,48,48,74,26,20,108,108,92,92,10,14,8,9,0.4,0.4
2026-04-02T1400,1114A,121.5117,38.8636,大连市,七贤岭,,33,NA,54,7,18,105,105,90,90,7,12,6,6,0.3,0.4
2026-04-02T1400,1116A,121.7507,39.1339,大连市,金州,,34,33,91,10,27,107,107,75,75,10,20,8,10,0.3,0.5
2026-04-02T1400,1117A,121.7811,39.0495,大连市,开发区,,39,39,73,7,24,105,105,75,75,8,21,7,9,0.3,0.4
2026-04-02T1400,1118A,121.9762,39.0631,大连市,双D港,NA,NA,48,91,28,28,98,98,84,84,NA,20,7,9,NA,0.7
2026-04-02T1400,4082A,121.2548,38.8188,大连市,旅顺,,38,38,88,11,26,98,98,76,76,10,16,3,4,0.4,0.5
2026-04-02T1400,1789A,124.8085,46.0381,大庆市,大同区,颗粒物(PM10),104,129,109,52,63,122,122,108,108,15,19,6,6,0.2,0.3
2026-04-02T1400,1790A,125.1166,46.5255,大庆市,龙凤区,细颗粒物(PM2.5),82,81,89,51,59,108,108,95,95,16,20,6,8,0.1,0.2
2026-04-02T1400,1791A,124.8894,46.4007,大庆市,红岗区,细颗粒物(PM2.5),68,59,74,44,52,102,102,92,92,6,13,5,6,0.0,0.2
2026-04-02T1400,1792A,125.1391,46.578,大庆市,萨尔图区,颗粒物(PM10),81,93,94,49,54,110,110,98,98,15,18,8,10,0.2,0.7
2026-04-02T1400,1793A,124.9026,46.6217,大庆市,让胡路区,细颗粒物(PM2.5),100,92,76,60,53,100,100,86,86,12,15,6,6,0.3,0.3
2026-04-02T1400,3481A,125.127,46.6277,大庆市,萨区政府监测点,细颗粒物(PM2.5),92,78,92,56,57,95,95,82,82,8,12,10,10,0.4,0.4
2026-04-02T1400,1723A,113.2926,40.0759,大同市,云冈宾馆,颗粒物(PM10),53,53,75,10,27,109,109,65,65,19,35,11,14,0.2,0.5
2026-04-02T1400,1724A,113.3437,40.0921,大同市,大同大学,颗粒物(PM10),57,59,69,12,26,116,116,74,74,18,34,12,13,0.5,0.6
2026-04-02T1400,1725A,113.2637,40.129,大同市,安家小村,颗粒物(PM10),65,70,85,24,33,115,115,70,70,17,35,12,16,0.4,1
2026-04-02T1400,3282A,113.3399,40.0586,大同市,大同市卫生学校,颗粒物(PM10),53,54,76,18,29,124,124,71,71,16,31,10,13,0.4,0.6
2026-04-02T1400,3565A,113.1371,40.1122,大同市,云冈站,,37,23,68,11,19,116,116,66,66,7,29,7,19,0.3,0.5
2026-04-02T1400,3566A,113.1186,40.2556,大同市,图书馆,,36,30,47,7,18,114,114,78,78,6,15,4,10,0.5,0.6
2026-04-02T1400,3567A,113.5931,40.0459,大同市,区一中,颗粒物(PM10),52,52,52,10,22,126,126,91,91,8,18,19,22,0.3,0.6
2026-04-02T1400,4199A,113.2798248,40.09972476,大同市,魏都大道141号,颗粒物(PM10),68,74,84,21,33,112,112,64,64,14,36,14,18,0.3,0.8
2026-04-02T1400,2269A,124.1068,50.4091,大兴安岭地区,科技局,,26,16,19,3,4,82,82,71,71,2,2,7,7,0.2,0.2
2026-04-02T1400,3663A,124.117,50.4279,大兴安岭地区,红旗社区,,26,12,14,8,8,82,82,71,71,2,8,7,10,0.1,0.1
2026-04-02T1400,1600A,124.33,40.0625,丹东市,江湾东路,NA,NA,NA,86,NA,46,126,126,87,87,15,25,10,13,NA,0.9
2026-04-02T1400,1601A,124.4242,40.1513,丹东市,临江后街,颗粒物(PM10),72,80,70,37,40,120,120,89,89,15,19,8,9,0.5,0.5
2026-04-02T1400,1602A,124.3935,40.1461,丹东市,元宝山,颗粒物(PM10),70,77,72,39,38,120,120,90,90,16,20,9,10,0.6,0.7
2026-04-02T1400,1603A,124.3634,40.1093,丹东市,民主桥,颗粒物(PM10),69,76,75,36,39,130,130,100,100,16,22,7,9,0.4,0.5
2026-04-02T1400,3541A,109.5726195,19.51688767,儋州市,第一中学子站,,33,25,45,23,29,74,74,58,58,2,6,6,6,0.6,0.6
2026-04-02T1400,3542A,109.5567,19.5187,儋州市,东坡学校子站,,36,36,46,20,27,79,79,63,63,2,6,7,7,0.5,0.8
2026-04-02T1400,2616A,98.5611,24.4273,德宏傣族景颇族自治州,德宏州监测站,细颗粒物(PM2.5),72,NA,53,46,52,112,112,48,48,6,21,4,4,0.6,0.8
2026-04-02T1400,3677A,98.5887,24.4366,德宏傣族景颇族自治州,芒市人民政府综合楼,NA,NA,66,80,NA,49,105,105,54,54,10,14,NA,6,0,0.6
2026-04-02T1400,1901A,104.424,31.1209,德阳市,东山公园,,36,36,34,21,26,102,102,80,80,6,14,3,3,0.5,0.5
2026-04-02T1400,1902A,104.3827,31.1318,德阳市,西小区,,50,50,53,22,31,106,106,74,74,6,24,3,3,0.6,0.6
2026-04-02T1400,1904A,104.3553,31.1091,德阳市,耐火材料厂,,47,47,54,25,37,111,111,73,73,11,23,2,3,0.5,0.5
2026-04-02T1400,4145A,104.4144,31.1495,德阳市,市林业局,,40,40,40,22,28,112,112,77,77,3,25,3,3,0.5,0.5
2026-04-02T1400,1622A,116.3034,37.4675,德州市,儿童乐园,细颗粒物(PM2.5),107,88,134,67,37,131,131,84,84,14,24,15,15,0.7,0.5
2026-04-02T1400,1624A,116.2992,37.4449,德州市,监理站,细颗粒物(PM2.5),100,80,132,60,35,137,137,83,83,19,27,9,10,0.5,0.6
2026-04-02T1400,3066A,116.2722,37.438,德州市,九衢泉纯净水厂,细颗粒物(PM2.5),102,83,124,62,35,129,129,76,76,12,21,9,9,0.6,0.6
2026-04-02T1400,3371A,116.3693,37.44,德州市,开发区人民医院,细颗粒物(PM2.5),106,92,126,66,36,131,131,80,80,17,26,11,12,0.5,0.5
2026-04-02T1400,3511A,116.5687,37.3331,德州市,陵城艺术中心,细颗粒物(PM2.5),109,73,125,69,34,124,124,66,66,16,20,11,7,0.6,0.6
2026-04-02T1400,4292A,116.352738,37.420875,德州市,新河东路,细颗粒物(PM2.5),107,90,115,67,30,122,122,70,70,14,23,NA,12,NA,0.3
2026-04-02T1400,2621A,99.7054,27.8319,迪庆藏族自治州,迪庆州站,,27,12,17,8,11,84,84,86,86,7,9,5,5,0.5,0.6
2026-04-02T1400,3180A,99.7122,27.8129,迪庆藏族自治州,质量技术监督局,NA,NA,NA,19,NA,11,NA,NA,97,NA,NA,8,NA,6,NA,0.5
2026-04-02T1400,4257A,104.6092,35.5962,定西市,将台街,,38,27,49,18,19,119,119,70,70,6,27,11,11,0.5,0.6
2026-04-02T1400,4309A,104.6159,35.5701,定西市,正龙路62号,,36,31,47,8,17,114,114,73,73,6,14,5,7,0.2,0.4
2026-04-02T1400,4071A,114.9883,38.5232,定州市,交通局,颗粒物(PM10),113,153,125,52,31,126,126,73,73,20,31,10,7,0.6,0.5
2026-04-02T1400,4072A,115.0045,38.5136,定州市,第五中学,颗粒物(PM10),110,145,138,43,30,122,122,74,74,14,29,7,6,0.5,0.5
2026-04-02T1400,1390A,113.7943,23.0132,东莞市,东城石井,,33,28,27,15,14,103,103,88,88,13,20,3,4,0.6,0.7
2026-04-02T1400,1391A,113.7384,22.9659,东莞市,南城西平,,33,33,29,16,15,73,73,71,71,28,27,5,4,0.7,0.7
2026-04-02T1400,3319A,113.7283,23.041,东莞市,万江金泰,,29,28,30,18,18,92,92,84,84,17,20,6,7,0.7,0.7
2026-04-02T1400,4129A,113.8666,23.1062,东莞市,裕兴路,,36,36,36,15,16,94,94,75,75,18,20,5,6,0.8,0.8
2026-04-02T1400,4130A,114.0076,22.9739,东莞市,教育路1号,,33,30,34,13,15,104,104,89,89,10,22,5,6,0.7,0.7
2026-04-02T1400,4131A,113.7981,22.8124,东莞市,长怡路1号,,34,28,43,12,20,106,106,36,36,10,30,4,5,0.6,0.8
2026-04-02T1400,1666A,118.6612,37.4313,东营市,市环保局,细颗粒物(PM2.5),52,44,96,36,26,143,143,98,98,11,17,18,14,0.3,0.3
2026-04-02T1400,3036A,118.6903,37.4337,东营市,开发区管委会,细颗粒物(PM2.5),60,51,98,40,26,147,147,101,101,15,20,17,12,0.5,0.6
2026-04-02T1400,3365A,118.5721,37.5654,东营市,垦利区民丰路,NA,NA,58,97,53,27,163,163,104,104,14,20,NA,7,0.5,0.6
2026-04-02T1400,3498A,118.5063,37.8606,东营市,河口城区,细颗粒物(PM2.5),76,63,90,48,18,165,165,121,121,12,14,10,8,0.7,0.5
2026-04-02T1400,3646A,118.4979,37.4623,东营市,胜利站,细颗粒物(PM2.5),60,54,84,40,22,141,141,81,81,8,16,10,10,0.8,0.7
2026-04-02T1400,3734A,118.5753,37.4405,东营市,理想之城,细颗粒物(PM2.5),56,41,96,38,22,163,163,104,104,21,26,11,7,0.8,0.8
2026-04-02T1400,1591A,110.0024,39.8127,鄂尔多斯市,综合楼,NA,NA,48,50,14,21,121,121,94,94,8,23,NA,9,0.2,0.4
2026-04-02T1400,1592A,109.9485,39.8259,鄂尔多斯市,巴音孟克林场办事处,,39,34,47,9,16,124,124,101,101,6,16,6,8,0.3,0.4
2026-04-02T1400,1593A,109.7734,39.5987,鄂尔多斯市,康泽苑,,42,41,42,8,17,133,133,80,80,7,18,8,7,0.3,0.4
2026-04-02T1400,1594A,109.8121,39.5987,鄂尔多斯市,华泰汽车城,,39,39,45,12,17,121,121,68,68,7,32,7,7,0.3,0.3
2026-04-02T1400,1595A,109.9734,39.7884,鄂尔多斯市,奥林花园,,41,41,53,12,17,126,126,84,84,8,37,2,4,0.2,0.4
2026-04-02T1400,2436A,114.894,30.3989,鄂州市,市政府,,46,46,49,21,28,98,98,105,104,21,18,11,10,0.5,0.5
2026-04-02T1400,2437A,114.8986,30.3714,鄂州市,赵家坝,NA,NA,NA,50,NA,30,97,97,102,102,24,13,NA,9,0.7,0.5
2026-04-02T1400,3654A,114.8093,30.4091,鄂州市,精准医疗中心,颗粒物(PM10),55,57,57,21,37,103,103,98,98,20,22,11,14,0.7,1.2
2026-04-02T1400,2454A,109.4978,30.2979,恩施土家族苗族自治州,湖北民院,,32,27,27,22,16,51,51,46,46,15,12,7,7,0.7,0.6
2026-04-02T1400,3549A,109.5061,30.3771,恩施土家族苗族自治州,龙凤新区,,21,21,25,11,13,49,49,27,27,10,9,8,7,0.4,0.3
2026-04-02T1400,2499A,108.3411,21.6159,防城港市,沙万,颗粒物(PM10),77,87,50,45,35,40,40,51,38,36,20,11,7,0.9,0.8
2026-04-02T1400,2500A,108.3515,21.7733,防城港市,防城档案局,细颗粒物(PM2.5),78,75,53,49,36,59,59,38,33,18,16,11,7,1.2,0.8
2026-04-02T1400,2501A,108.3506,21.6414,防城港市,大海花园,颗粒物(PM10),75,85,43,46,38,46,46,52,40,28,18,11,9,1.0,0.8
2026-04-02T1400,1371A,113.1293,23.0065,佛山市,湾梁,,34,34,41,19,30,86,86,46,46,14,38,/,/,/,/
2026-04-02T1400,1372A,113.1082,23.0477,佛山市,华材职中,,32,31,38,22,32,79,79,49,49,23,46,7,8,0.4,0.6
2026-04-02T1400,1373A,113.1439,23.045,佛山市,南海气象局,,30,30,39,20,29,76,76,44,44,25,38,/,/,/,/
2026-04-02T1400,1374A,113.2879,22.8094,佛山市,顺德苏岗,,34,34,43,15,31,93,93,66,66,11,31,/,/,0.6,0.8
2026-04-02T1400,1376A,112.8384,22.8678,佛山市,高明孔堂,,26,21,38,18,24,79,79,60,60,14,26,/,/,/,/
2026-04-02T1400,1377A,112.8835,23.1584,佛山市,三水监测站,,46,41,39,32,30,54,54,20,20,43,57,3,5,0.6,0.7
2026-04-02T1400,1378A,112.8668,23.185,佛山市,三水云东海,颗粒物(PM10),58,61,44,32,24,39,39,14,14,43,35,/,/,/,/
2026-04-02T1400,3625A,113.2568,22.7629,佛山市,容桂街道办,,34,34,44,14,34,82,82,65,65,22,40,/,/,/,/
2026-04-02T1400,1282A,119.2681,26.0506,福州市,师大,,40,21,27,3,9,128,128,121,121,15,15,4,4,0.3,0.4
2026-04-02T1400,1283A,119.2983,26.1028,福州市,五四北路,,42,NA,21,6,9,132,132,118,118,15,13,5,4,0.4,0.5
2026-04-02T1400,1284A,119.2648,26.0769,福州市,杨桥西路,,41,18,19,3,9,131,131,121,121,11,11,4,4,/,/
2026-04-02T1400,3048A,119.5799,26.0937,福州市,九龙,,41,15,16,6,6,131,131,107,107,10,12,5,5,0.3,0.4
2026-04-02T1400,3526A,119.5188,25.9666,福州市,吴航,,41,13,11,8,7,129,129,109,109,9,13,5,5,0.3,0.5
2026-04-02T1400,4104A,119.3106,26.0648,福州市,路通桥巷6号,,39,16,17,8,14,123,123,117,117,10,10,/,/,/,/
2026-04-02T1400,1755A,123.7974,41.8494,抚顺市,望花区,细颗粒物(PM2.5),84,87,107,52,57,133,133,92,92,25,29,11,9,1.1,0.9
2026-04-02T1400,1756A,123.9161,41.8827,抚顺市,顺城区,颗粒物(PM10),57,59,79,35,56,126,126,82,82,18,38,12,11,0.7,0.8
2026-04-02T1400,1757A,124.0437,41.8615,抚顺市,东洲区,NA,NA,68,81,24,42,121,121,76,76,13,19,NA,8,0.6,0.6
2026-04-02T1400,1758A,123.9246,41.8638,抚顺市,新抚区,颗粒物(PM10),68,75,91,36,50,128,128,87,87,18,35,11,10,0.7,0.7
2026-04-02T1400,1759A,124.0972,41.8961,抚顺市,大伙房水库,颗粒物(PM10),62,66,70,23,41,128,128,101,101,14,18,10,8,0.6,0.5
2026-04-02T1400,1760A,123.708,41.8386,抚顺市,沈抚新城,颗粒物(PM10),79,90,109,47,64,128,128,84,84,22,34,16,12,1.1,0.9
2026-04-02T1400,2377A,116.3544,27.9833,抚州市,市站,NA,NA,42,47,11,33,46,46,66,55,NA,15,7,10,0.8,0.8
2026-04-02T1400,2378A,116.3562,27.9631,抚州市,血防站,,41,41,45,9,31,57,57,66,51,20,14,7,11,0.8,0.7
2026-04-02T1400,2379A,116.3561,28.0007,抚州市,采茶剧团,,42,42,47,15,32,45,45,56,55,17,14,12,13,0.8,0.8
2026-04-02T1400,2380A,116.3854,27.9648,抚州市,医学分院,,30,30,43,13,27,68,68,65,59,18,13,7,11,1.0,0.9
2026-04-02T1400,2207A,121.6095,41.9978,阜新市,工业园区,颗粒物(PM10),78,89,72,26,35,112,112,71,71,14,27,13,13,0.5,0.6
2026-04-02T1400,2208A,121.6567,42.0188,阜新市,长青街,颗粒物(PM10),68,74,59,33,33,117,117,78,78,17,30,12,14,0.4,0.7
2026-04-02T1400,2209A,121.6672,42.07,阜新市,农业园区,颗粒物(PM10),87,101,57,32,28,120,120,90,90,16,18,10,19,0.4,0.5
2026-04-02T1400,2211A,121.6343,42.0455,阜新市,玉龙新城,颗粒物(PM10),75,85,63,29,32,115,115,74,74,17,36,14,12,0.5,0.7
2026-04-02T1400,2301A,115.8276,32.8929,阜阳市,市监测站,颗粒物(PM10),52,52,67,24,40,129,129,80,80,10,19,6,6,0.8,0.8
2026-04-02T1400,2303A,115.8551,32.8606,阜阳市,开发区,,45,45,75,24,38,124,124,89,89,11,16,6,6,0.4,0.5
2026-04-02T1400,2875A,115.783962,32.889217,阜阳市,阜阳职业技术学院,颗粒物(PM10),51,51,58,15,24,136,136,107,107,6,9,7,7,0.5,0.5
2026-04-02T1400,3468A,115.79,32.8614,阜阳市,市规划展馆,,50,50,66,32,42,130,130,90,90,6,11,9,8,0.8,0.7
2026-04-02T1400,3469A,115.835101,32.918568,阜阳市,枣园社区,,46,46,65,27,43,127,127,88,88,9,14,6,6,0.5,0.6
2026-04-02T1400,2669A,102.9097,34.9841,甘南藏族自治州,州政府,,35,35,38,9,21,91,91,75,75,4,11,8,6,0.2,0.4
2026-04-02T1400,3380A,102.8915,34.9618,甘南藏族自治州,甘肃民族师范学院,NA,NA,31,45,14,18,113,113,89,89,NA,15,1,2,0.4,0.4
2026-04-02T1400,2570A,101.96,30.048,甘孜藏族自治州,水桥子,NA,NA,9,9,3,3,56,56,36,36,NA,12,6,6,0.3,0.3
2026-04-02T1400,3065A,101.9534,29.9976,甘孜藏族自治州,州环保局,,21,15,11,3,4,66,66,40,40,9,11,5,5,0.4,0.4
2026-04-02T1400,2363A,114.9368,25.8663,赣州市,地委,,32,30,27,22,13,48,48,43,43,22,16,2,3,0.7,0.6
2026-04-02T1400,2364A,114.946,25.8483,赣州市,气象台,,39,39,32,23,16,56,56,52,52,27,23,4,6,0.8,0.7
2026-04-02T1400,2365A,114.932,25.8332,赣州市,市图书馆,,32,23,26,22,16,54,54,52,51,25,19,3,5,0.7,0.5
2026-04-02T1400,2366A,114.8905,25.8472,赣州市,华坚鞋城,,48,35,29,33,17,53,53,48,44,25,22,7,8,0.4,0.3
2026-04-02T1400,3109A,115.0094,25.8614,赣州市,赣县区卫计委,,44,44,24,21,14,46,46,43,43,25,20,1,2,0.7,0.6
2026-04-02T1400,2684A,106.2753,36.0057,固原市,监测站,,36,18,53,9,20,115,115,75,75,6,23,5,6,0.3,0.4
2026-04-02T1400,2685A,106.2384,36.0189,固原市,新区,NA,NA,37,66,9,19,118,118,70,70,5,29,4,8,NA,0.5
2026-04-02T1400,2544A,106.6307,30.4577,广安市,市委,,30,NA,35,21,25,61,61,66,60,8,21,6,6,0.6,0.7
2026-04-02T1400,2545A,106.6266,30.4662,广安市,友谊中学,,23,19,31,16,18,60,60,65,60,10,17,8,8,0.5,0.6
2026-04-02T1400,2547A,106.6386,30.4551,广安市,广电花园,,29,28,45,20,27,56,56,60,56,10,24,5,5,0.6,0.8
2026-04-02T1400,2902A,106.6347,30.4868,广安市,北辰小学,,26,22,36,18,23,59,59,66,61,8,14,8,8,0.7,0.8
2026-04-02T1400,2524A,105.8211,32.4444,广元市,老城,,26,NA,35,18,17,81,81,33,33,12,37,3,4,0.5,0.5
2026-04-02T1400,2526A,105.8629,32.429,广元市,监测站,,43,43,37,20,14,69,69,43,33,16,18,3,3,0.6,0.6
2026-04-02T1400,3617A,105.8047,32.4167,广元市,经开区,,40,40,41,26,24,62,62,22,22,21,31,6,7,0.6,0.6
2026-04-02T1400,1345A,113.2346,23.1423,广州市,广雅中学,,38,38,40,16,23,81,81,44,44,20,54,2,3,0.5,0.7
2026-04-02T1400,1346A,113.2611,23.105,广州市,市五中,,36,36,41,22,26,92,92,54,54,20,50,7,8,/,/
2026-04-02T1400,1348A,113.3477,23.0916,广州市,广东商学院,,32,31,37,22,23,84,84,44,44,19,48,5,6,0.7,0.9
2026-04-02T1400,1349A,113.4332,23.105,广州市,市八十六中,,30,30,32,13,17,92,92,45,45,22,53,6,6,/,/
2026-04-02T1400,1350A,113.3506,22.9488,广州市,番禺中学,,32,32,42,14,23,95,95,73,73,17,33,4,5,0.6,0.8
2026-04-02T1400,1351A,113.2147,23.3918,广州市,花都师范,颗粒物(PM10),63,68,36,37,19,11,11,29,13,74,43,6,7,1.2,1
2026-04-02T1400,1352A,113.2599,23.1329,广州市,市监测站,,40,40,45,13,19,78,78,45,45,20,53,2,3,/,/
2026-04-02T1400,1353A,113.5618,23.3119,广州市,九龙镇镇龙,,45,45,24,26,14,80,80,55,55,28,22,6,6,0.7,0.6
2026-04-02T1400,1354A,113.2764,23.1544,广州市,麓湖,,36,36,31,18,16,81,81,38,38,17,43,4,5,0.8,0.9
2026-04-02T1400,2846A,113.3209,23.1323,广州市,体育西,,36,36,33,16,19,79,79,37,37,23,51,5,6,0.7,0.8
2026-04-02T1400,3298A,113.5718,23.5493,广州市,从化街口,,46,46,29,25,17,77,77,45,45,15,26,7,7,0.7,0.8
2026-04-02T1400,3299A,113.3463,23.369,广州市,白云竹料,颗粒物(PM10),53,53,33,29,20,45,45,33,33,41,30,3,3,0.8,0.8
2026-04-02T1400,3300A,113.2981,23.2365,广州市,白云嘉禾,,39,39,34,20,18,80,80,41,41,29,40,8,9,/,/
2026-04-02T1400,3301A,113.4256,23.1716,广州市,黄埔科学城,,39,39,33,22,20,98,98,48,48,31,37,5,5,0.5,0.6
2026-04-02T1400,3302A,113.3942,23.0485,广州市,番禺大学城,,33,33,42,16,26,94,94,65,65,23,43,2,3,0.6,0.8
2026-04-02T1400,3303A,113.4923,22.8169,广州市,南沙黄阁,,35,35,39,13,22,100,100,82,82,15,36,6,7,/,/
2026-04-02T1400,3304A,113.534,22.7893,广州市,南沙街,,33,33,36,12,21,92,92,78,78,17,27,8,9,0.6,0.7
2026-04-02T1400,3443A,113.2905,23.5541,广州市,花都梯面,,43,43,17,27,12,52,52,39,39,26,23,9,10,/,/
2026-04-02T1400,3445A,113.786,23.7479,广州市,从化良口,,29,29,14,20,9,67,67,66,66,10,14,4,4,/,/
2026-04-02T1400,3446A,113.805,23.2614,广州市,增城荔城,,42,42,22,23,12,94,94,72,72,19,17,5,6,0.6,0.6
2026-04-02T1400,2506A,109.604387,23.066791,贵港市,江南子站,颗粒物(PM10),51,51,52,34,30,36,36,30,24,20,28,10,12,0.8,0.8
2026-04-02T1400,2508A,109.5669,23.1065,贵港市,荷城子站,NA,NA,66,41,31,26,30,30,41,32,35,25,12,10,NA,0.8
2026-04-02T1400,3405A,109.5886,23.1172,贵港市,新世纪学校,颗粒物(PM10),60,63,43,37,27,27,27,42,31,44,30,/,/,0.8,0.7
2026-04-02T1400,4260A,109.5933,23.095,贵港市,中山路155-3号,细颗粒物(PM2.5),72,79,48,46,28,32,32,43,28,30,24,/,/,1.1,0.9
2026-04-02T1400,1439A,106.6863,26.6035,贵阳市,马鞍山,,46,46,23,29,12,84,84,67,64,9,9,5,4,/,/
2026-04-02T1400,1441A,106.6241,26.6266,贵阳市,鉴湖路,颗粒物(PM10),56,58,35,26,11,89,89,73,69,12,12,8,7,0.6,0.4
2026-04-02T1400,1442A,106.7468,26.6344,贵阳市,燕子冲,颗粒物(PM10),51,51,33,31,10,78,78,57,56,11,13,7,6,0.6,0.6
2026-04-02T1400,1443A,106.6556,26.4362,贵阳市,碧云窝,NA,NA,NA,24,NA,11,80,80,72,70,NA,7,8,8,/,/
2026-04-02T1400,1445A,106.6963,26.6063,贵阳市,红边门,"颗粒物(PM10),细颗粒物(PM2.5)",56,58,34,38,16,84,84,66,61,13,18,9,9,/,/
2026-04-02T1400,1446A,106.7162383,26.56964667,贵阳市,新华路,颗粒物(PM10),56,58,37,33,13,85,85,64,63,12,17,11,8,0.9,0.8
2026-04-02T1400,1447A,106.6742,26.542,贵阳市,太慈桥,细颗粒物(PM2.5),60,48,28,40,14,79,79,62,62,10,10,4,4,/,/
2026-04-02T1400,4230A,106.688212,26.56952,贵阳市,花果园大街66号,,42,39,16,29,10,69,69,54,54,8,12,5,4,/,/
2026-04-02T1400,4231A,106.687268,26.516892,贵阳市,漓江路57号,细颗粒物(PM2.5),52,39,21,36,13,85,85,67,66,9,11,9,10,0.9,0.8
2026-04-02T1400,1864A,110.3091,25.2705,桂林市,龙隐路小学,细颗粒物(PM2.5),62,55,42,41,25,54,54,50,46,25,20,9,7,0.8,0.7
2026-04-02T1400,1865A,110.2849361,25.22909545,桂林市,八中,颗粒物(PM10),56,58,49,34,19,34,34,36,30,33,30,11,7,1.0,0.9
2026-04-02T1400,3531A,110.296,25.1254,桂林市,旅游学院,细颗粒物(PM2.5),76,NA,44,48,31,32,32,25,25,26,27,12,7,0.8,0.7
2026-04-02T1400,4222A,110.1835,25.2444,桂林市,环湖路276号,,46,44,48,32,30,53,53,46,38,19,28,14,20,0.8,0.7
2026-04-02T1400,4301A,110.2803,25.2773,桂林市,信义路13号,细颗粒物(PM2.5),94,61,43,57,28,52,52,51,42,19,29,13,10,1.0,0.9
2026-04-02T1400,2674A,100.2262,34.4854,果洛藏族自治州,玛沁县大武镇,,38,18,24,3,10,121,121,100,100,1,2,12,15,0.2,0.3
2026-04-02T1400,1130A,126.5557,45.8109,哈尔滨市,松北商大,细颗粒物(PM2.5),119,125,103,80,83,134,134,109,109,11,22,10,11,0.5,0.6
2026-04-02T1400,1132A,126.6162,45.719,哈尔滨市,南岗学府路,细颗粒物(PM2.5),114,150,154,75,91,133,133,106,106,10,38,7,8,0.6,0.9
2026-04-02T1400,1133A,126.6894,45.7733,哈尔滨市,太平宏伟公园,"颗粒物(PM10),细颗粒物(PM2.5)",113,153,132,74,89,139,139,112,112,17,32,13,13,0.5,0.6
2026-04-02T1400,1134A,126.6361,45.7672,哈尔滨市,道外承德广场,颗粒物(PM10),133,205,184,77,81,122,122,101,101,23,33,10,12,0.5,1
2026-04-02T1400,1136A,126.644,45.7261,哈尔滨市,动力和平路,细颗粒物(PM2.5),110,129,132,71,90,131,131,100,100,14,33,6,7,0.6,0.9
2026-04-02T1400,1137A,126.5933,45.7479,哈尔滨市,道里建国路,细颗粒物(PM2.5),109,136,113,69,78,128,128,107,107,26,38,NA,18,0,0.8
2026-04-02T1400,1138A,126.6127,45.6119,哈尔滨市,平房东轻厂,细颗粒物(PM2.5),120,108,137,82,106,99,99,76,76,80,78,7,10,0.7,1
2026-04-02T1400,1139A,126.5875,45.9827,哈尔滨市,呼兰师专,颗粒物(PM10),102,124,117,53,75,113,113,102,102,16,37,10,12,0.4,0.6
2026-04-02T1400,1140A,126.6299,45.6799,哈尔滨市,省农科院,颗粒物(PM10),161,271,239,91,106,128,128,99,99,14,44,9,11,0.8,1.1
2026-04-02T1400,4282A,126.6769,45.7379,哈尔滨市,华山路1号,细颗粒物(PM2.5),112,132,146,73,90,125,125,102,102,14,30,NA,10,0.8,1
2026-04-02T1400,4283A,126.9717,45.5356,哈尔滨市,解放大街52号,颗粒物(PM10),133,204,197,94,108,146,146,116,116,20,31,12,9,0.7,1
2026-04-02T1400,2688A,93.5124,42.8176,哈密市,地区监测站,颗粒物(PM10),63,68,48,7,20,109,109,70,70,5,28,12,9,0.1,0.3
2026-04-02T1400,2689A,93.5014,42.8312,哈密市,哈密师范学校,颗粒物(PM10),51,51,64,7,18,111,111,66,66,4,27,7,9,0.3,0.2
2026-04-02T1400,2671A,100.9016,36.9464,海北藏族自治州,海晏县西海镇,,38,17,27,7,16,120,120,91,91,1,3,6,7,0.4,0.4
2026-04-02T1400,3867A,102.074,36.5056,海东市,平安区公安局北苑,NA,NA,28,45,11,18,NA,NA,NA,NA,6,10,10,13,0.6,0.5
2026-04-02T1400,4163A,102.0984,36.5119,海东市,滨河路,,38,23,39,15,26,120,120,68,68,12,32,8,13,0.6,0.7
2026-04-02T1400,1410A,110.3189,20.0596,海口市,海南大学,,32,28,36,22,23,86,86,64,64,4,5,6,5,0.4,0.4
2026-04-02T1400,1411A,110.2827,20.0051,海口市,秀英海南医院,,30,30,32,21,23,79,79,53,53,4,9,8,8,0.4,0.4
2026-04-02T1400,1412A,110.3391,19.9979,海口市,海南师范大学,,33,33,38,22,24,90,90,60,60,4,7,6,6,0.4,0.5
2026-04-02T1400,1413A,110.3303,20.0359,海口市,龙华路环保局宿舍,,42,42,41,22,23,89,89,62,62,5,8,/,/,0.6,0.7
2026-04-02T1400,3539A,110.5111,19.9737,海口市,桂林洋子站,,30,26,37,21,20,81,81,59,59,4,6,/,/,/,/
2026-04-02T1400,4134A,110.1952,20.0451,海口市,长滨二路9号,,37,37,33,25,22,78,78,60,60,18,7,/,/,/,/
2026-04-02T1400,2673A,100.6158,36.2985,海南藏族自治州,共和县恰卜恰镇,颗粒物(PM10),65,70,40,13,20,132,132,86,86,1,11,13,13,0.2,0.3
2026-04-02T1400,2676A,97.373,37.376,海西蒙古族藏族自治州,德令哈市,颗粒物(PM10),82,94,28,14,13,141,141,113,113,2,9,15,15,0.3,0.5
2026-04-02T1400,1049A,114.492,36.5712,邯郸市,矿院,细颗粒物(PM2.5),78,67,102,49,61,142,142,83,83,5,19,7,5,0.4,0.5
2026-04-02T1400,1050A,114.4839,36.6136,邯郸市,丛台公园,细颗粒物(PM2.5),112,90,110,73,72,142,142,88,88,11,23,9,8,0.5,0.5
2026-04-02T1400,3458A,114.7893,36.5592,邯郸市,香泉濮院小区,细颗粒物(PM2.5),108,93,126,68,74,128,128,69,69,11,22,4,3,0.5,0.6
2026-04-02T1400,3580A,114.1998,36.4439,邯郸市,峰峰矿区临水派出所,细颗粒物(PM2.5),120,98,94,82,87,165,165,93,93,12,20,10,8,0.8,0.9
2026-04-02T1400,4068A,114.5209,36.7697,邯郸市,建安街268号,颗粒物(PM10),104,129,110,63,69,148,148,71,71,15,30,3,3,0.4,0.5
2026-04-02T1400,4069A,114.5488,36.6177,邯郸市,丛台东路558号,细颗粒物(PM2.5),94,81,105,57,76,139,139,70,70,5,27,4,4,0.5,0.6
2026-04-02T1400,2635A,107.0155,33.0707,汉中市,市监测站,,50,50,46,34,28,33,33,32,21,28,22,6,7,0.7,0.7
2026-04-02T1400,2636A,107.0083,33.114,汉中市,鑫源开发区,,39,38,46,27,26,48,48,27,20,21,27,6,6,0.8,0.7
2026-04-02T1400,2637A,107.0072,33.0323,汉中市,南郑大河坎水厂,,49,49,45,29,24,35,35,32,18,25,21,6,5,0.7,0.5
2026-04-02T1400,1223A,120.2073,30.2111,杭州市,滨江,臭氧1小时(O3_1h),54,44,36,22,18,163,163,74,74,17,42,8,7,0.5,0.6
2026-04-02T1400,1224A,120.0625,30.2737,杭州市,西溪,颗粒物(PM10),64,69,24,28,11,156,156,77,77,16,24,10,8,0.7,0.7
2026-04-02T1400,1226A,120.3417,30.315,杭州市,下沙,颗粒物(PM10),52,52,48,20,17,154,154,84,84,12,52,8,7,0.4,0.6
2026-04-02T1400,1227A,120.1252,30.2465,杭州市,卧龙桥,颗粒物(PM10),53,53,23,24,11,160,160,76,76,13,18,8,7,0.5,0.5
2026-04-02T1400,1228A,120.1902,30.2691,杭州市,浙江农大,臭氧1小时(O3_1h),53,50,38,32,22,162,162,77,77,21,49,7,6,0.4,0.5
2026-04-02T1400,1230A,120.1195,30.3121,杭州市,和睦小学,颗粒物(PM10),60,63,40,36,22,162,162,80,80,13,38,7,6,0.8,0.8
2026-04-02T1400,1231A,120.3076,30.4146,杭州市,临平镇,细颗粒物(PM2.5),96,91,51,58,28,173,173,84,84,17,52,9,6,0.5,0.6
2026-04-02T1400,1232A,120.2753,30.1839,杭州市,城厢镇,,44,38,34,20,18,138,138,76,76,21,42,5,6,0.6,0.7
2026-04-02T1400,1233A,120.0883,30.1808,杭州市,云栖,颗粒物(PM10),68,75,30,31,13,163,163,74,74,23,23,7,6,0.6,0.6
2026-04-02T1400,3557A,119.9463,30.0496,杭州市,镇二中,,45,34,21,17,13,143,143,68,68,15,33,4,4,0.8,0.9
2026-04-02T1400,3558A,119.7184,30.2367,杭州市,市府大楼,,42,22,17,19,15,134,134,77,77,12,18,6,6,0.4,0.5
2026-04-02T1400,3656A,120.1554,30.2863,杭州市,消防大队,颗粒物(PM10),55,56,33,34,20,145,145,79,79,14,32,8,8,0.7,0.9
2026-04-02T1400,1270A,117.1957,31.7845,合肥市,明珠广场,颗粒物(PM10),58,61,73,27,41,154,154,121,121,11,22,4,4,0.7,0.7
2026-04-02T1400,1271A,117.307,31.8765,合肥市,三里街,,48,48,84,17,47,124,124,89,89,20,34,6,6,0.6,0.7
2026-04-02T1400,1272A,117.2587,31.8703,合肥市,琥珀山庄,颗粒物(PM10),56,58,75,23,38,148,148,111,111,17,26,7,7,0.5,0.5
2026-04-02T1400,1275A,117.2593,31.9376,合肥市,庐阳区,颗粒物(PM10),51,51,85,18,42,139,139,110,110,14,31,4,5,0.7,0.8
2026-04-02T1400,1276A,117.345251,31.861615,合肥市,瑶海区,颗粒物(PM10),51,51,90,13,44,132,132,102,102,10,31,6,7,0.7,0.8
2026-04-02T1400,1277A,117.3033,31.7967,合肥市,包河区,颗粒物(PM10),53,53,81,16,39,142,142,103,103,10,40,8,8,0.7,0.8
2026-04-02T1400,1278A,117.278,31.7392,合肥市,滨湖新区,颗粒物(PM10),56,58,81,20,41,149,149,115,115,6,11,5,5,0.6,0.6
2026-04-02T1400,1279A,117.1324,31.8395,合肥市,高新区,颗粒物(PM10),58,61,70,25,34,147,147,122,122,7,18,6,5,0.7,0.7
2026-04-02T1400,3464A,117.3802,31.9148,合肥市,高教基地,,45,39,87,12,44,141,141,111,111,11,25,8,8,0.6,0.7
2026-04-02T1400,4098A,117.2518,31.8404,合肥市,中国科学技术大学,颗粒物(PM10),58,61,76,23,39,156,156,120,120,11,18,8,7,0.7,0.7
2026-04-02T1400,3614A,79.9241,37.0878,和田地区,地区环保局,颗粒物(PM10),142,229,203,44,44,110,110,87,87,2,8,1,2,0.3,0.4
2026-04-02T1400,3615A,79.9132,37.1137,和田地区,市环保局,颗粒物(PM10),106,134,216,32,47,98,98,55,55,13,33,3,2,1.0,1.1
2026-04-02T1400,2517A,108.0496,24.6957,河池市,市环保站,细颗粒物(PM2.5),80,72,37,50,23,60,60,48,48,10,16,7,6,0.8,0.7
2026-04-02T1400,4302A,108.0901,24.6945,河池市,上任中路54号,细颗粒物(PM2.5),64,67,41,42,23,52,52,46,46,12,24,7,8,0.9,0.8
2026-04-02T1400,1697A,114.6962,23.7538,河源市,东埔,,48,48,23,31,15,46,46,47,45,25,19,6,6,0.7,0.5
2026-04-02T1400,1698A,114.6895,23.7232,河源市,老城,,39,36,19,27,13,46,46,46,45,25,17,7,7,0.7,0.6
2026-04-02T1400,3374A,115.5562,35.089,菏泽市,定陶老年大学,颗粒物(PM10),55,56,61,30,38,148,148,112,112,11,16,5,5,0.4,0.4
2026-04-02T1400,4114A,115.4239,35.2593,菏泽市,黄河路600号,颗粒物(PM10),77,87,78,34,38,140,140,104,104,8,13,4,3,0.5,0.4
2026-04-02T1400,4115A,115.5025,35.2727,菏泽市,菏泽市人社局,颗粒物(PM10),58,61,64,37,42,136,136,100,100,10,17,6,6,0.3,0.3
2026-04-02T1400,4184A,115.479691,35.244011,菏泽市,永昌路1号,颗粒物(PM10),64,69,68,30,37,154,154,119,119,11,17,3,3,0.4,0.3
2026-04-02T1400,4193A,115.471542,35.280012,菏泽市,长城路999号,颗粒物(PM10),65,70,66,35,37,153,153,117,117,7,13,20,10,0.4,0.3
2026-04-02T1400,2514A,111.5264,24.4178,贺州市,环保小区,NA,NA,31,35,26,23,38,38,22,18,NA,21,6,5,NA,1.5
2026-04-02T1400,2515A,111.561,24.4074,贺州市,政协大楼,,46,46,34,30,26,56,56,27,27,26,29,8,7,0.7,0.7
2026-04-02T1400,3534A,111.4744,24.455,贺州市,西湾,,49,49,41,29,21,45,45,25,25,24,25,5,7,0.8,0.7
2026-04-02T1400,2385A,114.17,35.9019,鹤壁市,市监测站,细颗粒物(PM2.5),70,69,124,45,95,127,127,95,95,11,21,8,9,0.6,1
2026-04-02T1400,2386A,114.2953,35.7512,鹤壁市,市交警支队,细颗粒物(PM2.5),80,80,115,50,80,118,118,88,88,8,19,12,11,0.8,0.9
2026-04-02T1400,2387A,114.2877,35.7302,鹤壁市,迎宾馆,细颗粒物(PM2.5),107,92,120,67,81,120,120,93,93,8,18,7,13,0.6,0.9
2026-04-02T1400,3474A,114.2616,35.6824,鹤壁市,大新区,细颗粒物(PM2.5),105,NA,92,65,83,120,120,90,90,9,15,8,9,0.6,0.9
2026-04-02T1400,3596A,114.1573,35.9607,鹤壁市,南山宾馆,细颗粒物(PM2.5),96,88,127,58,93,126,126,103,103,6,14,10,11,0.6,1
2026-04-02T1400,2244A,130.2537,47.3416,鹤岗市,哈啤分公司,细颗粒物(PM2.5),173,134,85,131,70,130,130,122,122,23,18,13,10,0.8,0.7
2026-04-02T1400,2245A,130.2683,47.3087,鹤岗市,斯达机电,细颗粒物(PM2.5),169,141,101,128,77,128,128,125,125,17,18,13,12,0.7,0.6
2026-04-02T1400,2246A,130.3114,47.3388,鹤岗市,东山纸板厂,细颗粒物(PM2.5),156,174,159,119,70,131,131,118,118,17,21,11,11,0.6,0.8
2026-04-02T1400,2263A,127.4832,50.2524,黑河市,交通局,,26,20,30,3,12,83,83,68,68,5,8,5,6,0.2,0.3
2026-04-02T1400,2264A,127.5146,50.2339,黑河市,环保局,,26,15,21,7,9,81,81,66,66,8,10,5,7,0.4,0.4
2026-04-02T1400,1074A,115.6839,37.754,衡水市,电机北厂,细颗粒物(PM2.5),110,110,124,70,35,145,145,80,80,20,29,6,6,0.5,0.3
2026-04-02T1400,1075A,115.6303,37.7318,衡水市,市监测站,颗粒物(PM10),101,121,119,48,29,136,136,77,77,19,26,10,10,0.5,0.4
2026-04-02T1400,3188A,115.6684,37.7216,衡水市,市城管局,颗粒物(PM10),101,121,127,58,34,139,139,80,80,16,25,8,10,0.4,0.4
2026-04-02T1400,3459A,115.599,37.5491,衡水市,地表水厂,细颗粒物(PM2.5),105,113,117,65,36,135,135,74,74,17,28,7,5,0.4,0.4
2026-04-02T1400,2457A,112.6209,26.9268,衡阳市,衡阳化工总厂,,33,33,42,12,26,81,81,70,70,7,21,5,4,0.7,0.8
2026-04-02T1400,2458A,112.621,26.8957,衡阳市,珠晖区环保局,,32,32,47,14,28,71,71,54,54,9,34,7,7,0.7,0.8
2026-04-02T1400,2459A,112.628,26.8654,衡阳市,市委党校,,43,43,45,18,30,70,70,57,57,7,21,8,7,0.8,0.9
2026-04-02T1400,2460A,112.6007,26.8977,衡阳市,市监测站,,35,28,53,24,37,72,72,60,60,11,34,7,8,0.7,1
2026-04-02T1400,2461A,112.5658,26.9013,衡阳市,真空机电公司,,26,21,42,12,29,82,82,65,65,2,20,6,7,0.8,1
2026-04-02T1400,3399A,112.6703,26.8817,衡阳市,师范学院,,31,31,44,19,29,71,71,58,58,6,12,5,5,0.9,0.8
2026-04-02T1400,3038A,103.3757,23.3679,红河哈尼族彝族自治州,州图书馆,,48,42,52,33,41,117,117,104,104,4,7,4,4,0.3,0.4
2026-04-02T1400,4154A,103.401,23.3561,红河哈尼族彝族自治州,蒙自市朝阳路,,50,NA,42,35,39,114,114,101,101,5,8,10,10,0.5,0.4
2026-04-02T1400,1090A,111.6506,40.7517,呼和浩特市,呼市一监,颗粒物(PM10),55,56,72,14,47,114,114,72,72,15,26,14,11,0.5,0.6
2026-04-02T1400,1094A,111.7516,40.8369,呼和浩特市,如意水处理厂,颗粒物(PM10),60,63,56,21,26,115,115,72,72,16,37,12,11,0.4,0.4
2026-04-02T1400,1095A,111.727798,40.806187,呼和浩特市,二十九中,颗粒物(PM10),56,58,82,23,36,104,104,59,59,14,34,13,12,0.4,0.5
2026-04-02T1400,1097A,111.717,40.7617,呼和浩特市,化肥厂生活区,NA,NA,NA,65,NA,42,108,108,56,56,19,31,NA,8,0.4,0.5
2026-04-02T1400,3699A,111.6519,40.8389,呼和浩特市,海东办,颗粒物(PM10),62,66,52,33,27,102,102,58,58,18,34,12,7,0.5,0.5
2026-04-02T1400,4275A,111.591512,40.827312,呼和浩特市,成吉思汗西街8号,颗粒物(PM10),74,83,57,34,25,103,103,62,62,22,43,9,7,0.4,0.4
2026-04-02T1400,4276A,111.6597,40.8077,呼和浩特市,公园东路75号,颗粒物(PM10),65,70,69,30,34,98,98,69,69,20,33,15,16,0.4,0.6
2026-04-02T1400,4277A,111.5427,40.7846,呼和浩特市,金海路35号,颗粒物(PM10),65,71,68,40,32,99,99,63,63,25,34,8,7,0.5,0.4
2026-04-02T1400,3061A,119.7511,49.1576,呼伦贝尔市,国华电力东,,28,16,22,10,10,87,87,72,72,5,8,5,5,0.2,0.2
2026-04-02T1400,4279A,119.7569,49.2222,呼伦贝尔市,伊敏大街东7号,,30,30,25,3,10,80,80,64,64,5,10,6,6,0.2,0.4
2026-04-02T1400,1250A,120.075,30.867,湖州市,城西水厂,臭氧1小时(O3_1h),70,50,41,37,29,176,176,96,96,17,45,6,6,0.7,0.7
2026-04-02T1400,2873A,120.083,30.8929,湖州市,仁皇山新区,臭氧1小时(O3_1h),62,50,42,40,31,169,169,94,94,17,40,6,6,0.6,0.7
2026-04-02T1400,2907A,120.1846,30.8592,湖州市,吴兴区站,臭氧1小时(O3_1h),82,56,49,37,33,185,185,96,96,10,37,6,6,0.7,0.8
2026-04-02T1400,3562A,120.4146,30.8538,湖州市,南浔区站,臭氧1小时(O3_1h),55,52,58,35,38,164,164,91,91,12,30,5,5,0.7,0.8
2026-04-02T1400,1607A,120.904878,40.721091,葫芦岛市,龙港区,颗粒物(PM10),51,51,52,16,20,112,112,82,82,12,29,8,11,0.3,0.5
2026-04-02T1400,1608A,120.8382,40.7521,葫芦岛市,化工街,颗粒物(PM10),63,68,71,23,30,101,101,62,62,14,43,12,25,0.3,0.5
2026-04-02T1400,1609A,120.8339,40.7078,葫芦岛市,新区,,46,46,53,15,22,109,109,71,71,12,43,9,9,0.4,0.5
2026-04-02T1400,1610A,120.8697,40.7679,葫芦岛市,东城区,颗粒物(PM10),52,52,67,19,31,111,111,68,68,16,42,9,54,0.5,0.7
2026-04-02T1400,2483A,109.9297,27.5383,怀化市,河西地税局,,30,29,40,21,22,52,52,38,38,12,21,4,4,/,/
2026-04-02T1400,2484A,109.9783,27.5342,怀化市,市四医院,,30,30,41,20,21,61,61,45,45,9,18,7,8,0.4,0.5
2026-04-02T1400,2485A,109.9971,27.5579,怀化市,监测楼,,29,25,38,20,29,64,64,43,43,9,19,2,3,0.2,0.4
2026-04-02T1400,1210A,119.0566,33.5991,淮安市,钵池山,,44,44,87,23,64,135,135,96,96,12,23,8,8,0.5,0.6
2026-04-02T1400,1211A,119.0083,33.578,淮安市,北京南路,,41,41,81,20,71,127,127,90,90,6,24,7,7,0.5,0.7
2026-04-02T1400,1212A,118.9938,33.6083,淮安市,市监测站,,44,29,77,20,68,140,140,109,109,9,21,5,6,0.5,0.8
2026-04-02T1400,1213A,119.135,33.5038,淮安市,楚州区监测站,颗粒物(PM10),65,71,95,38,69,147,147,81,81,8,43,7,6,0.5,0.6
2026-04-02T1400,3426A,118.8757,33.2897,淮安市,新华书店,颗粒物(PM10),54,55,95,28,37,143,143,90,90,8,21,8,7,0.4,0.5
2026-04-02T1400,4092A,119.119691,33.550006,淮安市,枚皋中路89号,,45,29,85,25,57,144,144,88,88,8,25,11,10,0.5,0.7
2026-04-02T1400,4206A,119.028838,33.631911,淮安市,承德北路606号,,42,39,97,16,62,134,134,99,99,3,17,8,8,0.3,0.5
2026-04-02T1400,2282A,116.8005,33.9749,淮北市,监测站,颗粒物(PM10),57,59,67,26,38,142,142,113,113,10,17,7,7,0.3,0.4
2026-04-02T1400,2283A,116.8094,33.9008,淮北市,烈山区政府,颗粒物(PM10),54,55,68,22,41,130,130,106,106,10,18,9,7,0.4,0.5
2026-04-02T1400,4017A,116.7926,33.9534,淮北市,市博物馆,颗粒物(PM10),53,54,58,26,40,132,132,107,107,10,16,4,4,0.5,0.5
2026-04-02T1400,4100A,116.8322,33.9884,淮北市,杜集区第一实验学校,,49,49,71,13,37,126,126,98,98,10,16,5,7,0.3,0.5
2026-04-02T1400,2277A,116.8304,32.7726,淮南市,潘集区政府,颗粒物(PM10),58,61,74,33,46,129,129,96,96,21,20,9,7,0.5,0.5
2026-04-02T1400,2279A,116.8569,32.5949,淮南市,谢家集区政府,,49,49,67,32,51,144,144,99,99,14,22,9,9,0.5,0.6
2026-04-02T1400,2280A,116.8279,32.6333,淮南市,八公山区政府,颗粒物(PM10),59,62,72,32,47,145,145,103,103,9,14,11,10,0.5,0.6
2026-04-02T1400,2894A,117.0561,32.6536,淮南市,经济技术开发区消防队,细颗粒物(PM2.5),64,51,69,42,52,132,132,97,97,10,20,10,8,0.6,0.5
2026-04-02T1400,3329A,117.011,32.5891,淮南市,山南新区,颗粒物(PM10),68,74,82,35,49,148,148,103,103,10,15,10,8,0.6,0.5
2026-04-02T1400,4209A,117.003137,32.644456,淮南市,国庆中路369号,,44,44,71,28,47,135,135,101,101,8,13,12,11,0.5,0.5
2026-04-02T1400,2446A,114.9021,30.474,黄冈市,职工中心,颗粒物(PM10),53,53,48,31,36,104,104,110,110,16,13,10,11,0.6,0.7
2026-04-02T1400,2929A,114.8858,30.4519,黄冈市,红卫路,,49,49,46,28,36,115,115,113,113,14,16,8,9,0.5,0.4
2026-04-02T1400,3398A,114.9134,30.4446,黄冈市,市林业局,颗粒物(PM10),58,61,59,18,37,107,107,108,108,14,19,4,4,0.3,0.2
2026-04-02T1400,2672A,102.02,35.5101,黄南藏族自治州,同仁县隆务镇,,41,23,28,8,14,130,130,98,98,2,4,10,10,0.2,0.3
2026-04-02T1400,2295A,118.2905,29.6965,黄山市,延安路89号,,33,27,34,16,28,103,103,46,46,9,13,5,5,0.4,0.5
2026-04-02T1400,2297A,118.1369,30.2755,黄山市,黄山区政府5号楼,,40,40,37,16,22,108,108,64,64,5,8,3,3,0.4,0.4
2026-04-02T1400,4210A,118.335445,29.720283,黄山市,滨江东路7-2号,颗粒物(PM10),53,54,45,14,19,104,104,54,54,5,9,/,/,/,/
2026-04-02T1400,2423A,115.0547,30.2332,黄石市,沈家营,颗粒物(PM10),56,58,62,22,32,94,94,89,89,12,24,8,10,0.9,0.6
2026-04-02T1400,2426A,114.899,30.211,黄石市,铁山,,45,45,47,25,32,98,98,99,99,13,15,10,12,0.7,0.8
2026-04-02T1400,2427A,115.0259,30.2108,黄石市,团城山,,46,46,54,22,33,93,93,97,96,12,15,6,6,0.6,0.9
2026-04-02T1400,3149A,115.0174,30.1591,黄石市,笔架山北路,颗粒物(PM10),68,74,69,25,32,98,98,101,101,14,11,11,12,0.8,0.9
2026-04-02T1400,4185A,115.078022,30.21118,黄石市,磁湖东路29号,NA,NA,54,64,24,39,102,102,96,96,14,22,4,11,NA,1.2
2026-04-02T1400,1392A,114.4181,23.0528,惠州市,河南岸金山湖子站,,34,20,24,11,14,107,107,95,95,6,13,6,7,0.7,0.7
2026-04-02T1400,1393A,114.4055,23.0824,惠州市,下埔横江三路子站,,35,23,27,12,14,109,109,96,96,7,11,6,6,0.7,0.7
2026-04-02T1400,1395A,114.4645,22.7832,惠州市,惠阳区承修路船湖子站,,33,25,25,11,12,104,104,92,92,8,12,6,6,0.4,0.5
2026-04-02T1400,1396A,114.5316,22.7423,惠州市,大亚湾管委会子站,,31,28,26,10,10,97,97,86,83,9,11,3,4,0.5,0.5
2026-04-02T1400,3314A,114.4334,22.8134,惠州市,惠阳秋长,NA,NA,17,23,10,13,NA,NA,94,94,7,14,/,/,/,/
2026-04-02T1400,3452A,114.6521,22.7755,惠州市,大亚湾霞涌,,33,20,22,14,12,105,105,96,96,8,11,/,/,/,/
2026-04-02T1400,4300A,114.4089,23.1147,惠州市,文华一路1号,,35,21,22,12,13,111,111,87,87,6,13,/,/,/,/
2026-04-02T1400,2240A,130.9618,45.2926,鸡西市,环保局,细颗粒物(PM2.5),212,290,175,162,126,163,163,146,146,18,22,9,9,0.5,0.6
2026-04-02T1400,2243A,130.9294,45.2959,鸡西市,第一中学,细颗粒物(PM2.5),175,199,187,132,134,145,145,142,142,14,20,6,7,0.5,0.6
2026-04-02T1400,3707A,131.0069,45.2988,鸡西市,欧美日汽修厂,细颗粒物(PM2.5),209,264,191,159,97,169,169,125,125,31,33,13,12,1.4,1.3
2026-04-02T1400,2367A,114.9753,27.0803,吉安市,红声器材厂,,39,39,43,21,20,74,74,44,44,20,27,6,7,0.8,0.9
2026-04-02T1400,2369A,114.9903,27.1313,吉安市,市环境监测站,,33,33,34,22,21,64,64,54,54,21,20,7,8,/,/
2026-04-02T1400,2370A,115.009527,27.096792,吉安市,青原区法院,,38,38,39,22,20,63,63,41,41,22,26,7,8,1.0,1
2026-04-02T1400,1772A,126.54,43.8622,吉林市,哈达湾,细颗粒物(PM2.5),74,78,183,47,148,125,125,101,101,11,37,8,12,0.7,1.3
2026-04-02T1400,1773A,126.5843,43.8358,吉林市,东局子,细颗粒物(PM2.5),92,NA,161,56,132,133,133,102,102,13,29,5,6,0.7,1.1
2026-04-02T1400,1774A,126.5051,43.8243,吉林市,电力学院,细颗粒物(PM2.5),66,46,197,43,148,139,139,110,110,15,39,6,10,0.7,1.5
2026-04-02T1400,1775A,126.6133,43.8971,吉林市,江北,"颗粒物(PM10),细颗粒物(PM2.5)",66,72,174,43,105,148,148,116,116,12,27,10,11,0.8,1.2
2026-04-02T1400,1776A,126.5549,43.8304,吉林市,江南公园,细颗粒物(PM2.5),80,63,159,50,133,131,131,98,98,14,33,8,10,0.5,1
2026-04-02T1400,2868A,126.4737,43.953,吉林市,九站,细颗粒物(PM2.5),130,115,231,92,171,159,159,110,110,20,55,8,18,0.8,1.3
2026-04-02T1400,1299A,116.9866,36.6118,济南市,科干所,,46,46,78,32,29,143,143,116,116,9,24,7,8,0.6,0.7
2026-04-02T1400,1300A,116.9379,36.6652,济南市,农科所,颗粒物(PM10),60,63,94,24,30,138,138,97,97,10,27,8,8,0.4,0.5
2026-04-02T1400,1301A,117.1265,36.6736,济南市,开发区,,45,34,91,19,25,144,144,113,113,7,29,5,7,0.6,0.7
2026-04-02T1400,1303A,117.0616,36.6865,济南市,省种子仓库,颗粒物(PM10),55,56,106,24,28,143,143,104,104,8,30,6,7,0.6,0.7
2026-04-02T1400,1304A,116.9495185,36.644937,济南市,机床二厂,颗粒物(PM10),53,54,93,28,29,144,144,110,110,12,28,7,8,0.6,0.6
2026-04-02T1400,1305A,117.0496,36.6629,济南市,市监测站,颗粒物(PM10),55,56,100,25,29,140,140,100,100,10,33,5,6,0.5,0.6
2026-04-02T1400,1306A,116.7674,36.5458,济南市,长清党校,颗粒物(PM10),55,56,98,32,40,149,149,111,111,8,28,5,6,0.5,0.6
2026-04-02T1400,1961A,117.5323,36.6865,济南市,东山小学,NA,NA,NA,101,NA,24,132,132,113,113,NA,29,4,5,NA,0.6
2026-04-02T1400,3059A,117.7181,36.205,济南市,泰兴公司,,48,48,56,20,26,147,147,96,96,8,30,11,10,0.3,0.4
2026-04-02T1400,3064A,117.6861,36.2172,济南市,莱芜战役纪念馆,颗粒物(PM10),51,51,55,21,26,141,141,89,89,10,25,7,6,0.4,0.6
2026-04-02T1400,3494A,117.1673,36.9782,济南市,济阳区政府,颗粒物(PM10),55,56,104,27,30,132,132,76,76,9,24,8,11,0.6,0.7
2026-04-02T1400,3495A,117.1168,36.6299,济南市,锦屏中学,,42,34,81,21,29,132,132,113,113,12,24,6,7,0.4,0.5
2026-04-02T1400,4108A,117.7107,36.2385,济南市,山财大街5号,,47,44,45,27,26,149,149,105,105,11,29,10,9,0.5,0.6
2026-04-02T1400,4109A,116.9744,36.6889,济南市,无影山路12号,,42,41,87,29,29,132,132,103,103,8,27,6,7,0.6,0.8
2026-04-02T1400,1653A,116.6229,35.4288,济宁市,火炬城,颗粒物(PM10),56,58,53,33,37,144,144,100,100,8,16,6,6,0.6,0.7
2026-04-02T1400,3500A,116.5808,35.3703,济宁市,北湖一中,颗粒物(PM10),56,58,48,24,33,147,147,102,102,9,16,5,5,0.5,0.6
2026-04-02T1400,3501A,116.8251,35.5592,济宁市,服务中心,颗粒物(PM10),61,65,70,30,42,142,142,97,97,7,19,2,3,0.5,0.5
2026-04-02T1400,3678A,116.5907,35.4054,济宁市,市第七中学,NA,NA,78,55,22,32,154,154,108,108,NA,15,2,8,0.5,0.6
2026-04-02T1400,4111A,116.6075,35.4566,济宁市,任和路,NA,NA,68,69,30,34,150,150,99,99,10,15,6,7,NA,0.6
2026-04-02T1400,4112A,116.5648,35.3921,济宁市,文体南路1号,颗粒物(PM10),55,57,62,17,28,143,143,102,102,10,15,5,6,0.5,0.5
2026-04-02T1400,4122A,112.6071,35.1015,济源市,市委党校,颗粒物(PM10),102,123,112,61,55,130,130,92,92,14,20,10,10,0.7,0.6
2026-04-02T1400,4123A,112.596,35.0702,济源市,沁园中路1号,细颗粒物(PM2.5),107,96,91,67,61,125,125,102,102,14,16,7,6,0.7,0.6
2026-04-02T1400,2255A,130.2749,46.8028,佳木斯市,佳纺,细颗粒物(PM2.5),155,190,150,118,125,138,138,129,129,13,27,7,9,0.5,0.7
2026-04-02T1400,2257A,130.3258,46.7975,佳木斯市,环保局,细颗粒物(PM2.5),159,196,136,121,127,142,142,135,135,15,26,5,7,0.4,0.5
2026-04-02T1400,4285A,130.363,46.806,佳木斯市,顺和街,细颗粒物(PM2.5),158,192,151,120,145,130,130,138,138,16,25,5,7,0.6,0.7
2026-04-02T1400,4286A,130.3952,46.8268,佳木斯市,长安路196号,细颗粒物(PM2.5),144,180,133,108,121,123,123,124,124,25,31,10,10,0.6,0.7
2026-04-02T1400,1252A,120.7439,30.778,嘉兴市,清河小学,臭氧1小时(O3_1h),63,39,54,20,41,170,170,106,106,16,40,6,7,0.8,1
2026-04-02T1400,1253A,120.7261,30.7477,嘉兴市,嘉兴学院,NA,NA,36,61,23,37,167,167,93,93,11,38,6,6,NA,0.5
2026-04-02T1400,2872A,120.7845,30.7524,嘉兴市,南湖区残联,臭氧1小时(O3_1h),53,34,45,27,38,162,162,103,103,7,29,5,4,0.5,0.6
2026-04-02T1400,3407A,120.6915,30.7741,嘉兴市,秀洲住建,臭氧1小时(O3_1h),63,38,45,21,33,170,170,101,101,6,45,6,6,0.4,0.5
2026-04-02T1400,1945A,98.291,39.7705,嘉峪关市,气象局,颗粒物(PM10),118,166,97,28,24,110,110,100,100,1,11,11,14,0.8,0.9
2026-04-02T1400,2884A,98.2672,39.7978,嘉峪关市,酒钢宾馆,颗粒物(PM10),124,180,110,29,26,108,108,92,92,1,13,13,22,0.5,0.8
2026-04-02T1400,3248A,98.2644,39.7723,嘉峪关市,雄关区,颗粒物(PM10),104,130,93,29,25,105,105,92,92,4,16,8,10,0.5,0.7
2026-04-02T1400,1383A,113.1063,22.6058,江门市,北街,,40,40,44,14,35,92,92,77,75,11,28,/,/,/,/
2026-04-02T1400,1384A,113.073,22.5835,江门市,西区,,32,32,52,15,36,94,94,75,75,11,32,/,/,/,/
2026-04-02T1400,1385A,113.0218,22.531,江门市,圭峰西,,41,41,45,16,33,93,93,77,77,8,31,/,/,/,/
2026-04-02T1400,1386A,113.0826,22.5947,江门市,东湖,,30,30,50,13,36,93,93,78,78,11,25,5,6,0.5,0.7
2026-04-02T1400,3311A,113.1077,22.5647,江门市,江海富民,颗粒物(PM10),58,61,65,16,37,98,98,79,79,12,27,/,/,0.5,0.8
2026-04-02T1400,3449A,113.0496,22.4669,江门市,新会银湖,颗粒物(PM10),59,62,53,16,35,84,84,57,57,12,33,6,7,0.3,0.5
2026-04-02T1400,3335A,113.3137,35.2643,焦作市,马村街道办,细颗粒物(PM2.5),100,86,100,60,78,121,121,94,94,13,17,12,10,0.6,0.6
2026-04-02T1400,3336A,113.2464,35.2374,焦作市,焦作技师学院,细颗粒物(PM2.5),103,83,98,63,71,125,125,101,101,12,16,14,10,1.0,1.1
2026-04-02T1400,3477A,113.1656,35.2536,焦作市,中站许衡医院,细颗粒物(PM2.5),88,56,87,54,54,130,130,110,110,8,11,14,10,0.6,0.6
2026-04-02T1400,3981A,113.2456,35.18,焦作市,原李万街道办,细颗粒物(PM2.5),94,60,119,57,73,114,114,91,91,8,13,10,15,0.5,0.8
2026-04-02T1400,4264A,113.234,35.219,焦作市,新安路1731号,细颗粒物(PM2.5),109,77,112,69,75,130,130,106,106,14,17,13,12,0.7,0.8
2026-04-02T1400,4295A,113.2722,35.2121,焦作市,人民路3066号,细颗粒物(PM2.5),94,93,115,57,78,129,129,101,101,4,13,8,9,0.6,0.8
2026-04-02T1400,1708A,116.3701,23.5345,揭阳市,新兴,,31,27,22,11,11,97,97,89,89,17,14,9,7,0.7,0.7
2026-04-02T1400,1709A,116.3261,23.5442,揭阳市,西马,,33,28,26,12,12,105,105,91,91,13,12,6,6,0.8,0.8
2026-04-02T1400,1710A,116.361,23.5627,揭阳市,东兴,,33,27,21,13,12,104,104,90,90,13,14,4,5,/,/
2026-04-02T1400,1711A,116.4151,23.5295,揭阳市,渔湖,,36,29,30,12,12,115,115,102,102,12,13,4,4,/,/
2026-04-02T1400,3320A,116.4028,23.5699,揭阳市,曲溪,,35,17,23,13,12,111,111,95,95,11,14,9,12,0.5,0.6
2026-04-02T1400,1944A,102.1691,38.5166,金昌市,天庆家园,颗粒物(PM10),78,88,82,21,26,127,127,79,79,3,22,16,26,0.4,0.5
2026-04-02T1400,4022A,102.1648,38.5369,金昌市,金川区人防中心,颗粒物(PM10),78,89,82,20,29,123,123,87,87,4,13,5,24,0.2,0.4
2026-04-02T1400,4239A,102.193042,38.531887,金昌市,长春路96号,细颗粒物(PM2.5),105,86,81,65,40,117,117,74,74,8,18,7,29,NA,0.7
2026-04-02T1400,1262A,119.6478,29.0773,金华市,十五中,,48,36,32,16,16,153,153,69,69,16,24,3,3,0.5,0.6
2026-04-02T1400,1263A,119.6859,29.1032,金华市,监测站,,49,38,29,21,17,154,154,62,62,11,27,4,3,0.5,0.6
2026-04-02T1400,3659A,119.656,29.1132,金华市,气象局,NA,NA,36,32,18,17,146,146,54,54,19,32,NA,3,0.4,0.6
2026-04-02T1400,1767A,121.1114,41.0879,锦州市,南山,颗粒物(PM10),73,81,67,20,40,108,108,70,70,15,32,9,14,0.4,0.7
2026-04-02T1400,1768A,121.060361,40.842794,锦州市,开发区,NA,NA,118,93,22,39,106,106,61,61,NA,40,6,18,0.3,0.7
2026-04-02T1400,1769A,121.1836,41.1118,锦州市,百股街道,颗粒物(PM10),77,87,61,21,38,108,108,74,74,16,32,8,16,0.5,0.7
2026-04-02T1400,1770A,121.1176,41.1224,锦州市,天安街道,颗粒物(PM10),71,79,68,20,41,103,103,65,65,17,33,7,10,0.4,0.7
2026-04-02T1400,1771A,121.1303,41.1385,锦州市,北湖公园,颗粒物(PM10),58,61,60,24,36,109,109,71,71,14,27,5,7,0.4,0.7
2026-04-02T1400,2160A,112.8496,35.5051,晋城市,自来水公司,,49,49,61,20,31,137,137,94,94,8,15,5,5,0.5,0.4
2026-04-02T1400,2162A,112.8509,35.4886,晋城市,市环保局,颗粒物(PM10),54,55,69,31,32,127,127,88,88,4,12,6,6,0.5,0.5
2026-04-02T1400,3620A,112.8258,35.4804,晋城市,泽州一中,细颗粒物(PM2.5),64,62,64,42,38,135,135,95,95,12,14,4,4,0.6,0.7
2026-04-02T1400,4078A,112.8246,35.5152,晋城市,前书院路,颗粒物(PM10),63,67,71,30,30,127,127,79,79,6,16,7,7,0.6,0.8
2026-04-02T1400,4079A,112.8864,35.4773,晋城市,祥云街666号,颗粒物(PM10),64,69,60,32,35,128,128,92,92,8,11,8,7,0.5,0.5
2026-04-02T1400,2174A,112.6992,37.6984,晋中市,榆次区政府,颗粒物(PM10),53,53,70,27,32,133,133,81,81,12,23,10,11,0.5,0.5
2026-04-02T1400,2865A,112.7195,37.683,晋中市,榆次三中,颗粒物(PM10),55,56,76,22,30,140,140,84,84,9,23,11,10,0.6,0.4
2026-04-02T1400,4080A,112.7375,37.7215,晋中市,广安街188号,,50,50,70,17,31,131,131,80,80,12,24,14,11,0.3,0.3
2026-04-02T1400,4200A,112.7478,37.6954,晋中市,迎宾街26号,颗粒物(PM10),56,58,72,29,33,140,140,87,87,13,22,11,10,0.6,0.4
2026-04-02T1400,2439A,112.2012,31.048,荆门市,竹园小学,,44,44,48,28,31,105,105,87,85,12,17,1,1,0.4,0.4
2026-04-02T1400,2440A,112.1968,30.9892,荆门市,掇刀,,40,34,49,28,32,108,108,83,83,9,15,7,9,0.6,0.6
2026-04-02T1400,3012A,112.1849,31.0361,荆门市,西山林语,,38,37,42,26,27,101,101,86,81,12,14,5,5,0.4,0.4
2026-04-02T1400,3547A,112.1631,31.0134,荆门市,龙泉中学南校,,46,46,50,29,25,112,112,87,87,12,16,4,5,0.7,0.8
2026-04-02T1400,4124A,112.2213,31.0654,荆门市,新台西路6号,,40,33,49,28,32,103,103,79,79,4,15,6,9,0.5,0.5
2026-04-02T1400,1844A,112.2493,30.3198,荆州市,市图书馆,NA,NA,36,37,25,29,94,94,86,85,8,18,6,9,NA,0.4
2026-04-02T1400,1845A,112.2009,30.3543,荆州市,市委党校,,25,20,38,12,29,80,80,80,73,28,29,7,8,0.8,0.8
2026-04-02T1400,3194A,112.2749,30.3124,荆州市,管委会,,29,24,39,20,30,83,83,80,80,11,18,6,9,0.6,0.6
2026-04-02T1400,4268A,112.1722,30.3366,荆州市,学苑路85号,,35,NA,39,24,29,99,99,82,82,5,12,4,5,0,0
2026-04-02T1400,2343A,117.2114,29.2931,景德镇市,老干部活动中心,,43,42,44,30,35,82,82,56,56,9,12,6,7,0.7,0.8
2026-04-02T1400,2344A,117.1893,29.2789,景德镇市,兽医站,,45,45,51,27,31,86,86,60,60,10,14,5,4,0.6,0.7
2026-04-02T1400,2346A,117.246,29.2958,景德镇市,陶研所,,32,30,37,22,34,84,84,56,56,19,22,5,5,0.5,0.5
2026-04-02T1400,4289A,117.154766,29.256967,景德镇市,青少年活动中心,,38,31,45,26,35,85,85,57,57,12,20,6,14,/,/
2026-04-02T1400,1803A,115.9873,29.6816,九江市,十里,"颗粒物(PM10),细颗粒物(PM2.5)",56,58,52,38,27,87,87,60,60,31,43,8,7,0.9,0.8
2026-04-02T1400,1804A,115.9583,29.7047,九江市,茅山头,细颗粒物(PM2.5),52,45,46,36,28,99,99,62,62,21,37,3,4,0.6,0.6
2026-04-02T1400,1805A,115.9877,29.7295,九江市,西园,,50,50,48,33,27,102,102,79,74,32,39,6,5,0.7,0.7
2026-04-02T1400,1808A,115.9112,29.6038,九江市,综合工业园,,46,46,40,32,22,68,68,74,73,46,31,10,8,0.6,0.6
2026-04-02T1400,3190A,116.0254,29.6995,九江市,外国语学校,,49,49,40,18,17,91,91,80,80,27,21,6,6,0.8,0.7
2026-04-02T1400,4253A,116.010205,29.659402,九江市,莲花大道8号,,48,46,41,33,22,86,86,71,71,29,23,6,5,0.6,0.6
2026-04-02T1400,4240A,98.495752,39.733935,酒泉市,玉门东路5号,颗粒物(PM10),162,273,168,45,36,94,94,79,79,4,14,8,7,0.3,0.3
2026-04-02T1400,4241A,98.5099,39.7506,酒泉市,北大街108号,颗粒物(PM10),124,180,129,36,33,90,90,71,71,3,17,11,10,0.3,0.4
2026-04-02T1400,2698A,76.0071,39.466,喀什地区,巡警大队,颗粒物(PM10),87,101,150,24,44,102,102,49,49,10,37,4,5,0.2,0.5
2026-04-02T1400,2699A,75.9756,39.4693,喀什地区,吾办,颗粒物(PM10),85,98,166,17,46,101,101,52,52,9,35,7,3,0.4,0.7
2026-04-02T1400,4027A,75.9485,39.4688,喀什地区,老干局,颗粒物(PM10),80,92,168,13,37,103,103,59,59,12,35,4,4,0.5,0.6
2026-04-02T1400,1824A,114.3389,34.778,开封市,肿瘤医院,颗粒物(PM10),53,53,55,34,42,134,134,101,101,10,19,7,8,0.7,0.6
2026-04-02T1400,1826A,114.2884,34.7966,开封市,世纪星幼儿园,,49,44,54,34,37,132,132,99,99,11,20,8,8,0.5,0.5
2026-04-02T1400,3147A,114.3434,34.8101,开封市,龙亭公园,颗粒物(PM10),54,55,55,30,39,139,139,104,104,13,20,11,11,0.8,0.8
2026-04-02T1400,3210A,114.3645,34.7955,开封市,汴京公园,细颗粒物(PM2.5),56,57,55,38,41,122,122,93,93,11,20,7,6,0.7,0.6
2026-04-02T1400,3473A,114.2485,34.8306,开封市,技师学院,颗粒物(PM10),54,55,51,30,35,137,137,96,96,7,14,9,9,0.8,0.6
2026-04-02T1400,3592A,114.4518,34.7503,开封市,祥符区生态环境局,细颗粒物(PM2.5),54,NA,58,37,45,131,131,95,95,19,30,7,7,0.6,0.6
2026-04-02T1400,1951A,84.886,45.6029,克拉玛依市,长征新村,,36,36,26,12,7,89,89,86,68,5,9,6,6,0.5,0.5
2026-04-02T1400,1952A,84.8894,45.5827,克拉玛依市,南林小区,,42,42,31,3,4,93,93,93,71,5,12,4,4,0.2,0.3
2026-04-02T1400,1954A,84.896,44.3328,克拉玛依市,独山子区,,41,41,81,3,27,115,115,108,92,5,14,5,8,0.6,0.7
2026-04-02T1400,1955A,85.6888,46.0909,克拉玛依市,乌尔禾区商贸楼,NA,NA,32,34,NA,15,88,88,56,53,7,9,2,2,0.3,0.4
2026-04-02T1400,3612A,85.1045,45.6895,克拉玛依市,白碱滩区新站,,50,50,39,6,8,102,102,90,66,2,8,6,7,0.1,0.2
2026-04-02T1400,2697A,76.1457,39.7143,克孜勒苏柯尔克孜自治州,市人民政府,NA,NA,85,92,30,30,118,118,91,91,5,13,6,10,NA,0.2
2026-04-02T1400,3665A,76.1654,39.7157,克孜勒苏柯尔克孜自治州,克州文化中心,颗粒物(PM10),65,71,92,27,30,120,120,87,87,3,11,8,10,0.2,0.2
2026-04-02T1400,1450A,102.8203,24.889,昆明市,呈贡新区,,36,30,35,20,30,114,114,104,104,5,8,4,5,0.5,0.6
2026-04-02T1400,1452A,102.7253,25.0904,昆明市,龙泉镇,,31,17,39,14,24,97,97,80,80,5,12,3,5,0.6,0.6
2026-04-02T1400,1453A,102.7267,25.0378,昆明市,东风东路,,33,26,37,19,23,104,104,96,96,10,12,2,3,0.4,0.5
2026-04-02T1400,1454A,102.6744,25.0671,昆明市,金鼎山,,36,36,40,18,25,102,102,90,90,7,11,2,3,0.4,0.4
2026-04-02T1400,1455A,102.6643,25.0401,昆明市,碧鸡广场,,32,25,42,17,26,101,101,86,86,6,14,4,5,0.4,0.5
2026-04-02T1400,3179A,102.7491,25.012,昆明市,官渡区博物馆,,33,33,36,19,22,104,104,96,96,8,10,4,4,0.3,0.4
2026-04-02T1400,3375A,102.8016,24.8336,昆明市,青年创业园,NA,NA,19,36,15,25,108,108,104,104,NA,5,4,4,NA,0.5
2026-04-02T1400,3550A,102.8,24.9787,昆明市,昆明学院,,32,26,39,15,21,102,102,93,93,6,8,4,4,0.5,0.5
2026-04-02T1400,3551A,102.5969,24.6738,昆明市,晋宁区生态环境分局,,33,16,35,16,26,104,104,101,101,4,5,3,2,0.3,0.4
2026-04-02T1400,3552A,102.6673,24.9861,昆明市,云天化总部,,34,26,36,12,21,108,108,100,100,6,8,4,4,0.4,0.4
2026-04-02T1400,1456A,91.132,29.6515,拉萨市,八廓街,,38,32,20,3,7,120,120,114,113,4,6,4,5,0.4,0.4
2026-04-02T1400,1457A,91.1221,29.6748,拉萨市,市环保局,,35,33,20,6,6,110,110,104,103,6,9,4,5,0.3,0.4
2026-04-02T1400,1458A,91.0874,29.6476,拉萨市,区监测站,,35,17,16,6,6,111,111,108,105,7,11,5,5,0.5,0.5
2026-04-02T1400,1459A,91.1774,29.6541,拉萨市,西藏大学,,35,26,19,3,6,109,109,107,106,8,8,4,4,0.3,0.3
2026-04-02T1400,1460A,90.9798,29.6586,拉萨市,区辐射站,,33,24,25,3,8,104,104,91,88,7,13,5,5,0.3,0.4
2026-04-02T1400,1461A,91.0831,29.6292,拉萨市,拉萨火车站,,35,24,32,6,9,109,109,105,103,6,9,4,4,0.2,0.3
2026-04-02T1400,2520A,109.2203,23.7252,来宾市,来宾技工学校,细颗粒物(PM2.5),110,84,50,71,38,39,39,39,33,18,17,6,13,1.0,0.7
2026-04-02T1400,3535A,109.1781,23.7293,来宾市,兴宾区政府,细颗粒物(PM2.5),101,69,48,61,33,48,48,49,45,15,20,8,11,1.0,0.8
2026-04-02T1400,4002A,109.2312,23.7428,来宾市,中南小学,细颗粒物(PM2.5),111,75,49,72,36,44,44,44,29,22,21,9,13,0.9,0.7
2026-04-02T1400,1479A,103.8309,36.0467,兰州市,铁路设计院,颗粒物(PM10),65,70,73,30,32,114,114,62,62,33,56,17,9,0.6,0.7
2026-04-02T1400,3241A,103.7439,36.0841,兰州市,百合公园,,42,42,76,29,32,116,116,52,52,13,47,22,11,0.7,0.8
2026-04-02T1400,3242A,103.9613,35.9985,兰州市,和平,颗粒物(PM10),55,56,47,30,19,113,113,73,73,24,20,15,12,0.6,0.5
2026-04-02T1400,4236A,103.629272,36.093822,兰州市,庄浪东路808号,颗粒物(PM10),65,71,67,28,28,138,138,68,68,6,27,24,14,0.5,0.5
2026-04-02T1400,4237A,103.7251,36.104344,兰州市,安宁西路88号,NA,NA,61,78,12,29,141,141,67,67,13,43,22,14,NA,0.5
2026-04-02T1400,4238A,103.846982,36.067567,兰州市,北滨河东路1号,颗粒物(PM10),54,55,66,33,29,117,117,45,45,31,54,22,12,0.7,0.8
2026-04-02T1400,1067A,116.6712,39.5109,廊坊市,药材公司,细颗粒物(PM2.5),98,106,77,59,28,121,121,68,68,21,29,5,4,0.5,0.5
2026-04-02T1400,1068A,116.7215,39.5592,廊坊市,开发区,颗粒物(PM10),102,124,82,48,25,124,124,64,64,13,25,5,3,0.5,0.4
2026-04-02T1400,1070A,116.7246,39.5273,廊坊市,北华航天学院,细颗粒物(PM2.5),101,101,78,61,23,128,128,70,70,19,30,8,5,0.5,0.4
2026-04-02T1400,2919A,116.7022,39.5454,廊坊市,河北工业大学,NA,NA,NA,77,NA,25,123,123,63,63,21,28,6,4,0.5,0.4
2026-04-02T1400,2536A,103.7629,29.5844,乐山市,牛耳桥,,37,16,40,7,23,116,116,84,84,10,22,6,7,0.3,0.5
2026-04-02T1400,2537A,103.7501,29.6002,乐山市,市第三水厂,,37,16,36,7,25,118,118,87,87,9,23,3,5,0.4,0.5
2026-04-02T1400,2538A,103.7571,29.5664,乐山市,市监测站,NA,NA,18,40,6,22,112,112,83,83,8,18,3,5,NA,0.7
2026-04-02T1400,3361A,103.7313,29.563,乐山市,理工大学,,38,20,38,8,25,119,119,80,80,8,22,8,10,0.4,0.5
2026-04-02T1400,2599A,100.2497,26.8802,丽江市,丽江古城,NA,NA,20,20,6,9,98,98,96,95,NA,7,10,11,0.4,0.5
2026-04-02T1400,2600A,100.2203,26.8906,丽江市,市中心,,31,18,9,6,10,99,99,92,92,8,10,8,6,0.5,0.4
2026-04-02T1400,1267A,119.9141,28.4513,丽水市,监测站大楼,,37,27,21,8,12,118,118,58,58,9,15,4,4,0.4,0.4
2026-04-02T1400,1268A,119.93,28.4589,丽水市,莲都小学,,35,17,23,7,11,111,111,54,54,7,15,/,/,/,/
2026-04-02T1400,1269A,119.8794,28.4232,丽水市,余庄前,,34,15,22,6,12,107,107,48,48,6,13,4,4,0.4,0.5
2026-04-02T1400,1173A,119.1759,34.5885,连云港市,市环境监测站,,48,48,135,31,117,127,127,86,86,13,28,8,10,0.5,0.9
2026-04-02T1400,3000A,119.3577,34.6971,连云港市,德源药业,细颗粒物(PM2.5),52,51,139,36,102,144,144,89,89,17,40,6,8,0.4,0.9
2026-04-02T1400,3007A,119.178,34.8442,连云港市,新城一中,细颗粒物(PM2.5),111,126,156,72,137,131,131,78,78,22,46,9,13,1.0,1.3
2026-04-02T1400,3008A,119.3607,34.7519,连云港市,胡沟管理处,,48,48,156,27,90,138,138,85,82,19,42,11,13,0.8,1.2
2026-04-02T1400,3009A,119.1478,34.5913,连云港市,矿山设计院,NA,NA,58,151,29,115,126,126,44,NA,NA,32,NA,11,0.7,1.2
2026-04-02T1400,3434A,119.2414,34.6539,连云港市,工贸学校,,50,46,103,35,86,139,139,119,119,11,16,10,11,0.4,0.8
2026-04-02T1400,3664A,119.4171,34.734,连云港市,连云街道,细颗粒物(PM2.5),56,56,119,38,85,141,141,76,76,28,44,6,7,0.5,0.9
2026-04-02T1400,2573A,102.2629,27.8981,凉山彝族自治州,西昌市政府,,33,27,26,16,20,105,105,83,83,4,8,8,10,0.3,0.6
2026-04-02T1400,2574A,102.2686,27.885,凉山彝族自治州,凉山州政府,,30,23,24,12,16,94,94,70,70,4,11,4,6,0.3,0.5
2026-04-02T1400,4229A,102.2342,27.8859,凉山彝族自治州,凯乐南路30号,,30,27,32,11,15,96,96,65,65,7,21,6,6,0.5,0.6
2026-04-02T1400,2212A,123.1978,41.2036,辽阳市,宏伟区,颗粒物(PM10),88,102,93,36,53,122,122,92,92,15,20,12,10,0.7,0.8
2026-04-02T1400,2213A,123.1684,41.2497,辽阳市,新华园,颗粒物(PM10),81,93,96,31,59,120,120,76,76,20,32,20,11,1.1,0.8
2026-04-02T1400,2214A,123.2355,41.2663,辽阳市,滨河路,颗粒物(PM10),79,90,88,37,57,116,116,82,82,18,34,14,9,0.9,0.7
2026-04-02T1400,4083A,123.153,41.2874,辽阳市,铁西路150号,颗粒物(PM10),95,112,103,35,62,103,103,69,69,23,38,19,13,1.4,0.9
2026-04-02T1400,2227A,125.1359,42.8845,辽源市,环保局,,42,42,106,22,78,111,111,82,82,7,29,7,8,0.5,0.8
2026-04-02T1400,4085A,125.0998,42.9134,辽源市,安宁大街333号,颗粒物(PM10),58,60,119,22,86,110,110,85,85,7,26,5,8,0.4,0.8
2026-04-02T1400,1625A,115.9789,36.4372,聊城市,区政府,颗粒物(PM10),63,67,90,39,41,153,153,105,105,9,21,8,8,0.8,0.8
2026-04-02T1400,3200A,115.9772,36.4986,聊城市,监控中心,颗粒物(PM10),63,68,89,36,44,154,154,109,109,12,24,10,10,0.6,0.7
2026-04-02T1400,3513A,116.0443,36.436,聊城市,九州社区,细颗粒物(PM2.5),78,84,95,49,47,153,153,107,107,10,24,4,4,0.5,0.6
2026-04-02T1400,4018A,116.0564,36.4609,聊城市,星美广场,颗粒物(PM10),65,70,101,40,48,147,147,101,101,14,31,1,4,0.5,0.6
2026-04-02T1400,4113A,116.0091,36.4495,聊城市,利民路,细颗粒物(PM2.5),74,NA,78,47,45,155,155,108,108,10,22,7,8,0.5,0.6
2026-04-02T1400,2632A,94.3683,29.6373,林芝市,林芝监测站,,32,9,7,3,4,102,102,94,93,2,3,7,6,0.4,0.5
2026-04-02T1400,2633A,94.3616,29.6634,林芝市,林芝人民医院,,36,8,10,3,6,115,115,96,96,2,3,5,5,0.5,0.6
2026-04-02T1400,2603A,100.0779,23.8981,临沧市,市环保局,细颗粒物(PM2.5),54,51,54,37,43,114,114,63,63,3,9,6,5,0.5,0.7
2026-04-02T1400,2604A,100.0894,23.882,临沧市,市气象局,,39,35,53,27,43,115,115,62,62,4,10,6,6,0.2,0.5
2026-04-02T1400,1733A,111.5552,36.0791,临汾市,临钢医院,颗粒物(PM10),55,57,60,24,24,141,141,86,86,11,18,10,12,0.7,0.7
2026-04-02T1400,1734A,111.4984,36.0734,临汾市,技工学校,,45,45,58,26,28,133,133,87,87,7,16,6,7,0.6,0.6
2026-04-02T1400,1736A,111.5017,36.0857,临汾市,市委,颗粒物(PM10),58,60,60,18,21,141,141,92,92,7,16,7,8,0.5,0.6
2026-04-02T1400,3018A,111.5048,36.1015,临汾市,唐尧大酒店,颗粒物(PM10),55,57,71,30,21,136,136,88,88,7,18,7,10,0.5,0.7
2026-04-02T1400,4244A,111.4879,36.053,临汾市,启星学校,,49,49,60,19,23,136,136,90,90,10,20,8,9,0.6,0.6
2026-04-02T1400,4271A,103.2464,35.6123,临夏回族自治州,滨河东路1号,颗粒物(PM10),58,60,118,19,42,127,127,56,56,7,39,11,10,0.3,0.6
2026-04-02T1400,4310A,103.207136,35.599807,临夏回族自治州,新华街21号,颗粒物(PM10),53,54,79,21,42,106,106,60,60,4,19,9,8,0.7,1.1
2026-04-02T1400,1618A,118.3429,35.0532,临沂市,沂河小区,颗粒物(PM10),58,61,136,35,99,139,139,94,94,8,26,12,14,0.4,0.8
2026-04-02T1400,1619A,118.2962,35.0568,临沂市,鲁南制药厂,,48,48,133,28,102,140,140,101,101,9,29,14,17,0.3,0.8
2026-04-02T1400,1620A,118.2793,34.9976,临沂市,新光毛纺厂,,44,44,126,23,106,136,136,96,96,13,34,11,16,0.2,0.7
2026-04-02T1400,1621A,118.3955,35.0889,临沂市,河东保险公司,细颗粒物(PM2.5),58,58,131,39,100,163,163,103,103,5,27,14,15,0.4,0.8
2026-04-02T1400,3370A,118.3563,35.0215,临沂市,十里堡居委,颗粒物(PM10),60,63,128,39,107,154,154,102,102,15,34,13,17,0.5,0.9
2026-04-02T1400,3496A,118.359,35.1067,临沂市,南坊新区,细颗粒物(PM2.5),60,58,122,40,108,149,149,97,97,12,30,14,14,0.5,0.8
2026-04-02T1400,3860A,118.3915,35.0297,临沂市,皇山花园小区,颗粒物(PM10),55,56,132,34,106,152,152,100,100,11,32,11,15,0.6,1
2026-04-02T1400,1870A,109.4854,24.3898,柳州市,柳东小学,细颗粒物(PM2.5),92,NA,38,56,31,44,44,34,34,20,21,4,5,0.9,0.8
2026-04-02T1400,1871A,109.4109,24.3304,柳州市,环保监测站,细颗粒物(PM2.5),92,62,53,56,39,28,28,26,26,35,30,5,11,1.1,1
2026-04-02T1400,1872A,109.3886,24.3408,柳州市,河西水厂,细颗粒物(PM2.5),114,83,87,75,56,38,38,31,31,28,31,3,11,0.8,0.6
2026-04-02T1400,1873A,109.4263,24.2951,柳州市,市四中,细颗粒物(PM2.5),101,96,52,61,35,27,27,33,33,37,32,8,8,0.9,0.8
2026-04-02T1400,1874A,109.396,24.3658,柳州市,市九中,NA,NA,NA,23,NA,13,NA,NA,103,NA,NA,14,NA,12,NA,0.8
2026-04-02T1400,1875A,109.4912,24.3164,柳州市,古亭山,细颗粒物(PM2.5),88,72,37,54,28,33,33,22,22,28,35,6,6,0.9,0.7
2026-04-02T1400,3402A,109.5422,24.3994,柳州市,市二中,细颗粒物(PM2.5),82,68,47,51,36,41,41,25,25,23,30,7,8,0.8,0.7
2026-04-02T1400,2307A,116.5078,31.7369,六安市,监测大楼,,39,35,44,20,34,124,124,93,93,9,12,4,4,0.5,0.5
2026-04-02T1400,2308A,116.4738,31.7642,六安市,皖西学院,,42,41,48,23,31,133,133,102,102,6,9,5,5,0.4,0.4
2026-04-02T1400,2309A,116.4997,31.7904,六安市,朝阳厂,,42,42,47,21,31,128,128,97,97,12,15,6,6,0.4,0.4
2026-04-02T1400,2310A,116.5566,31.7885,六安市,开发区,,44,37,54,23,35,138,138,100,100,10,15,5,6,0.5,0.5
2026-04-02T1400,2577A,104.8293,26.592,六盘水市,黄土坡,,35,30,40,20,27,110,110,77,77,8,11,6,6,0.2,0.3
2026-04-02T1400,2579A,104.8481,26.5898,六盘水市,民中,,34,34,37,19,26,107,107,76,76,8,9,5,4,0.4,0.5
2026-04-02T1400,2580A,104.9541,26.5506,六盘水市,双水,,43,34,39,30,23,103,103,79,79,8,9,5,4,0.4,0.4
2026-04-02T1400,4151A,104.8899,26.5685,六盘水市,钟山大道中段564号,,41,41,44,22,25,107,107,76,76,6,7,8,8,0.7,0.7
2026-04-02T1400,2336A,117.022,25.1031,龙岩市,龙岩市监测站,,38,38,20,22,14,88,88,56,56,11,14,9,10,0.8,0.7
2026-04-02T1400,2337A,117.0257,25.0662,龙岩市,闽西职业技术学院,,39,39,22,24,15,83,83,53,53,12,13,8,7,0.8,0.7
2026-04-02T1400,2338A,117.0195,25.0306,龙岩市,龙岩学院,颗粒物(PM10),52,52,22,28,17,79,79,44,44,18,13,6,4,/,/
2026-04-02T1400,2885A,104.9344,33.3827,陇南市,滨江中学,,37,37,48,16,23,87,87,70,57,8,12,8,8,0.5,0.7
2026-04-02T1400,3247A,104.9551,33.3709,陇南市,市总工会,,47,47,44,12,18,90,90,71,51,9,13,8,7,0.7,0.7
2026-04-02T1400,2488A,111.9984,27.7346,娄底市,市监测站,,26,NA,42,18,26,71,71,62,62,14,25,2,4,0.6,0.6
2026-04-02T1400,2491A,111.9888,27.7035,娄底市,市政府,NA,NA,17,36,8,17,80,80,59,59,10,16,3,3,NA,0.6
2026-04-02T1400,4127A,111.9812,27.7591,娄底市,涟钢职大,,26,21,44,3,27,82,82,63,63,12,25,2,5,0.5,0.5
2026-04-02T1400,4128A,112.0303,27.7457,娄底市,娄底体校,,23,NA,44,16,24,70,70,54,54,4,8,3,3,0.3,0.3
2026-04-02T1400,1894A,105.4427,28.9063,泸州市,小市上码头,,36,22,23,16,17,113,113,75,75,10,17,8,11,0.6,0.8
2026-04-02T1400,1895A,105.4241,28.8573,泸州市,兰田宪桥,NA,NA,19,25,10,14,96,96,58,58,9,16,10,10,NA,0.7
2026-04-02T1400,1896A,105.4378,28.8833,泸州市,市环监站,,35,24,29,13,16,111,111,73,73,17,22,5,6,0.7,0.8
2026-04-02T1400,4272A,105.3689,28.7783,泸州市,纳溪中医医院,,35,30,35,12,27,109,109,64,64,7,18,7,8,0.6,0.7
2026-04-02T1400,2183A,111.1447,37.5212,吕梁市,环保局,NA,NA,55,68,3,15,130,130,72,72,12,26,8,11,NA,0.2
2026-04-02T1400,2185A,111.1285,37.5338,吕梁市,自来水公司,,47,47,80,9,20,129,129,69,69,11,30,7,12,0.4,0.5
2026-04-02T1400,2867A,111.1225,37.5093,吕梁市,马茂庄小学,颗粒物(PM10),57,59,78,6,17,128,128,69,69,11,30,5,12,0.3,0.3
2026-04-02T1400,1812A,112.3934,34.6517,洛阳市,市委党校,细颗粒物(PM2.5),102,73,65,62,45,117,117,81,81,16,22,10,9,0.7,0.7
2026-04-02T1400,1815A,112.494,34.6883,洛阳市,河南林校,细颗粒物(PM2.5),100,71,72,60,49,124,124,86,86,18,28,14,13,0.5,0.7
2026-04-02T1400,1816A,112.3843,34.623,洛阳市,开发区管委会,细颗粒物(PM2.5),102,99,73,62,45,120,120,86,86,14,19,15,13,0.7,0.7
2026-04-02T1400,1817A,112.4263,34.6249,洛阳市,市委新办公区,细颗粒物(PM2.5),110,102,76,70,52,119,119,82,82,15,20,12,10,0.5,0.5
2026-04-02T1400,3340A,112.6005,34.6323,洛阳市,伊滨,细颗粒物(PM2.5),102,79,59,62,43,114,114,67,67,15,20,10,8,0.7,0.6
2026-04-02T1400,3341A,112.495,34.6338,洛阳市,中移产业园,细颗粒物(PM2.5),103,84,75,63,50,115,115,72,72,17,24,14,11,0.8,0.7
2026-04-02T1400,3593A,112.5736,34.8993,洛阳市,吉利监测站,细颗粒物(PM2.5),78,81,77,49,56,118,118,84,84,15,24,13,12,0.8,0.8
2026-04-02T1400,3635A,112.3678,34.6623,洛阳市,河科大西苑校区,细颗粒物(PM2.5),102,75,68,62,47,130,130,84,84,13,22,12,11,0.6,0.5
2026-04-02T1400,3636A,112.4387,34.678,洛阳市,英才小学,细颗粒物(PM2.5),96,102,84,58,50,120,120,82,82,17,24,14,12,0.8,0.8
2026-04-02T1400,4214A,112.460027,34.694929,洛阳市,春都路1号院,细颗粒物(PM2.5),88,78,73,54,49,128,128,94,94,15,21,11,11,0.8,0.7
2026-04-02T1400,2399A,114.051,33.5721,漯河市,三五一五工厂,颗粒物(PM10),52,52,56,34,35,119,119,100,100,12,18,5,5,0.4,0.4
2026-04-02T1400,2400A,114.0055,33.5698,漯河市,漯河大学,,46,46,41,30,38,119,119,106,106,10,15,7,6,0.6,0.5
2026-04-02T1400,2401A,114.0134,33.5826,漯河市,市水利局,,46,46,49,28,31,117,117,103,103,9,13,7,6,0.6,0.5
2026-04-02T1400,2402A,114.0261,33.5697,漯河市,市广电局,颗粒物(PM10),51,51,49,33,34,116,116,98,98,9,14,6,5,0.6,0.5
2026-04-02T1400,3478A,113.9691,33.568,漯河市,市图书馆,颗粒物(PM10),53,54,53,26,33,115,115,95,95,14,17,7,8,0.7,0.6
2026-04-02T1400,4250A,114.089259,33.588274,漯河市,韶山路11号,颗粒物(PM10),52,52,56,31,34,110,110,88,88,12,20,7,7,0.5,0.3
2026-04-02T1400,1798A,118.5084,31.6838,马鞍山市,湖东路四小,,49,47,85,27,56,155,155,116,116,9,37,8,9,0.5,0.8
2026-04-02T1400,1799A,118.5019,31.6449,马鞍山市,开发区,,50,44,87,30,53,160,160,111,111,11,40,6,6,0.5,0.9
2026-04-02T1400,3633A,118.4914,31.681,马鞍山市,雨山,,49,42,70,28,40,156,156,118,118,10,33,9,10,0.6,0.9
2026-04-02T1400,4191A,118.527362,31.722269,马鞍山市,慈湖高新区,,46,40,91,21,54,146,146,116,116,11,32,8,10,0.4,0.7
2026-04-02T1400,1686A,111.0285,21.469,茂名市,电白南海,,34,34,41,14,24,57,57,68,64,6,18,5,8,0.8,1
2026-04-02T1400,1687A,110.9294,21.6533,茂名市,茂石化七小,,41,41,39,20,29,47,47,48,43,8,18,6,14,0.4,0.7
2026-04-02T1400,1688A,110.9108,21.6688,茂名市,健康路,,29,29,34,19,25,52,52,58,53,7,16,4,11,0.6,0.9
2026-04-02T1400,1689A,110.8592,21.6826,茂名市,高岭,,46,46,46,22,27,52,52,64,58,9,19,3,13,/,/
2026-04-02T1400,3450A,111.0101,21.5165,茂名市,电白水东,,25,22,34,17,28,54,54,72,63,5,16,2,8,/,/
2026-04-02T1400,2540A,103.8414,30.0871,眉山市,气象局,,40,37,46,7,14,127,127,80,80,7,17,7,8,0.5,0.6
2026-04-02T1400,3148A,103.829,30.0563,眉山市,区人社局,,38,27,42,12,19,120,120,86,86,13,23,6,11,0.2,0.4
2026-04-02T1400,4148A,103.8836,30.0695,眉山市,眉职院,,38,23,35,7,14,120,120,83,83,10,17,6,6,0.6,0.7
2026-04-02T1400,1690A,116.1248,24.3307,梅州市,梅江月梅,,29,17,21,8,15,90,90,63,63,7,16,/,/,/,/
2026-04-02T1400,1691A,116.0798,24.2719,梅州市,梅县新城,,27,26,23,16,14,86,86,58,58,15,23,9,9,0.7,0.6
2026-04-02T1400,3315A,116.1234,24.2994,梅州市,梅龙,,27,24,20,13,15,84,84,62,62,12,14,6,7,0.9,0.9
2026-04-02T1400,1878A,104.7775,31.4741,绵阳市,富乐山,颗粒物(PM10),54,55,42,19,29,91,91,52,52,11,17,6,6,0.6,0.7
2026-04-02T1400,1880A,104.6698,31.4668,绵阳市,高新区自来水公司,,35,35,67,21,36,95,95,47,47,7,33,9,10,0.5,0.7
2026-04-02T1400,3491A,104.6899,31.5324,绵阳市,西科大附属小学,,33,31,65,23,39,96,96,54,54,7,30,6,7,0.4,0.5
2026-04-02T1400,3492A,104.5647,31.5343,绵阳市,安州区旅游局,颗粒物(PM10),56,58,64,33,42,93,93,58,58,9,20,8,7,0.5,0.5
2026-04-02T1400,4146A,104.7092,31.4972,绵阳市,科技城新区公安局,NA,NA,64,60,18,34,89,89,48,48,7,31,6,9,NA,0.7
2026-04-02T1400,4226A,104.765114,31.453094,绵阳市,绵阳市气象局,,48,48,47,25,29,80,80,48,48,13,22,8,10,0.5,0.6
2026-04-02T1400,1784A,129.61,44.561,牡丹江市,环保大楼,细颗粒物(PM2.5),149,140,118,113,95,156,156,110,110,18,28,6,6,0.6,0.7
2026-04-02T1400,1787A,129.6364,44.6075,牡丹江市,机车工厂,细颗粒物(PM2.5),168,166,133,127,96,155,155,107,107,25,30,10,8,0.8,0.7
2026-04-02T1400,1788A,129.6386,44.5462,牡丹江市,第一中学,细颗粒物(PM2.5),135,NA,91,98,79,145,145,104,104,16,27,7,6,0.6,0.6
2026-04-02T1400,4287A,129.5992,44.5964,牡丹江市,东晓云街98号,细颗粒物(PM2.5),156,146,123,119,92,156,156,113,113,16,17,8,6,0.9,0.8
2026-04-02T1400,2531A,105.0703,29.61,内江市,市监测站,,29,28,31,18,21,90,90,72,72,11,13,7,8,0.5,0.5
2026-04-02T1400,2533A,105.0657,29.5807,内江市,内江二中,,30,30,38,19,19,87,87,74,74,14,15,7,8,0.3,0.3
2026-04-02T1400,2534A,105.0407,29.5828,内江市,内江日报社,,30,28,31,17,19,96,96,76,76,10,14,7,7,0.5,0.4
2026-04-02T1400,4147A,105.0433,29.6105,内江市,玉峰路西段888号,,32,32,28,17,22,98,98,80,80,12,14,11,11,0.3,0.4
2026-04-02T1400,2628A,92.0653,31.4846,那曲市,那曲监测站,,36,29,28,3,22,115,115,67,67,5,15,5,11,0.5,0.7
2026-04-02T1400,4243A,92.0515,31.4787,那曲市,那曲市委宣传部,,38,12,17,3,12,120,120,78,78,2,7,8,9,0.4,0.5
2026-04-02T1400,1291A,115.8887,28.7006,南昌市,省林业公司,细颗粒物(PM2.5),62,51,54,41,36,68,68,56,56,22,42,7,6,0.6,0.6
2026-04-02T1400,1292A,115.813,28.7443,南昌市,林科所,细颗粒物(PM2.5),78,53,41,49,31,67,67,75,74,39,31,9,9,0.8,0.6
2026-04-02T1400,1294A,115.8518,28.687,南昌市,建工学校,细颗粒物(PM2.5),64,61,65,42,35,69,69,54,54,17,44,13,11,1.6,1
2026-04-02T1400,1295A,115.8926,28.6425,南昌市,象湖,细颗粒物(PM2.5),66,46,55,43,38,61,61,52,52,33,51,10,10,1.0,1
2026-04-02T1400,3046A,115.9084,28.6062,南昌市,机电学校,细颗粒物(PM2.5),74,71,69,47,37,60,60,59,59,28,45,5,5,0.7,0.7
2026-04-02T1400,3690A,115.9718,28.7032,南昌市,外国语学校,细颗粒物(PM2.5),66,53,52,43,35,71,71,66,66,23,40,12,10,0.6,0.7
2026-04-02T1400,4106A,115.7923,28.6873,南昌市,工业二路,细颗粒物(PM2.5),70,76,64,45,35,61,61,57,57,40,42,7,6,1.3,0.8
2026-04-02T1400,4192A,115.931587,28.686774,南昌市,南京东路235号,细颗粒物(PM2.5),66,66,71,43,41,69,69,62,62,20,37,9,8,0.7,0.7
2026-04-02T1400,1906A,106.0791,30.8022,南充市,南充市委,,19,14,29,11,16,59,59,61,56,13,23,7,7,0.3,0.5
2026-04-02T1400,1907A,106.1038,30.8215,南充市,南充炼油厂,,19,16,34,10,16,60,60,61,56,8,21,4,4,0.2,0.3
2026-04-02T1400,4227A,106.108336,30.788436,南充市,梨树横街98号,,21,15,31,10,17,65,65,72,67,9,22,5,6,0.2,0.3
2026-04-02T1400,4304A,106.1172,30.843,南充市,清泉寺北路188号,,22,12,30,11,15,69,69,64,64,5,17,6,6,0.3,0.3
2026-04-02T1400,4305A,106.067,30.7616,南充市,同庆路1号,,18,14,31,9,15,57,57,66,61,13,25,6,6,0.4,0.4
2026-04-02T1400,1151A,118.8033,32.1085,南京市,迈皋桥,,49,42,69,15,52,155,155,110,110,16,39,6,7,0.5,0.7
2026-04-02T1400,1152A,118.7487,32.057,南京市,草场门,颗粒物(PM10),55,56,75,24,53,160,160,114,114,18,47,10,9,0.3,0.6
2026-04-02T1400,1154A,118.770105,32.004342,南京市,中华门,臭氧1小时(O3_1h),58,53,81,23,49,166,166,114,114,12,35,3,5,0.6,0.9
2026-04-02T1400,1155A,118.8059,32.0329,南京市,瑞金路,臭氧1小时(O3_1h),60,51,81,25,53,168,168,114,114,2,16,7,6,0.8,1.2
2026-04-02T1400,1156A,118.7946,32.0774,南京市,玄武湖,NA,NA,46,64,20,39,163,163,130,130,NA,20,10,9,0.5,0.8
2026-04-02T1400,1157A,118.6415,32.0964,南京市,浦口,颗粒物(PM10),53,53,64,28,47,160,160,111,111,11,24,6,5,0.4,0.8
2026-04-02T1400,1158A,118.730129,32.000956,南京市,奥体中心,颗粒物(PM10),53,54,88,21,48,139,139,94,94,11,42,9,8,0.4,0.8
2026-04-02T1400,1159A,118.9072,32.1047,南京市,仙林大学城,颗粒物(PM10),58,61,70,22,40,164,164,114,114,10,34,9,8,0.6,0.8
2026-04-02T1400,3422A,118.8443,31.919,南京市,江宁彩虹桥,,50,42,64,15,35,160,160,122,122,2,51,3,4,0.7,1
2026-04-02T1400,3427A,118.8497,32.3599,南京市,六合雄州,NA,NA,NA,59,49,49,142,142,78,78,NA,43,4,4,NA,0.8
2026-04-02T1400,4086A,118.7641,32.0841,南京市,新模范马路66号,臭氧1小时(O3_1h),79,53,82,21,50,183,183,132,132,8,32,3,4,0.4,0.7
2026-04-02T1400,4249A,118.8707617,31.34017673,南京市,汶溪路181号,颗粒物(PM10),73,81,57,10,30,154,154,109,109,10,21,6,6,0.4,0.6
2026-04-02T1400,4312A,119.019,31.6512,南京市,中山西路1号,颗粒物(PM10),53,53,63,20,41,143,143,94,94,14,31,4,4,0.4,0.8
2026-04-02T1400,1401A,108.3098,22.788,南宁市,二十一中,细颗粒物(PM2.5),88,55,33,54,32,39,39,56,39,15,15,3,3,0.7,0.6
2026-04-02T1400,1402A,108.3135,22.8529,南宁市,北湖,细颗粒物(PM2.5),92,73,39,56,34,49,49,57,47,15,16,5,4,0.9,0.9
2026-04-02T1400,1403A,108.3205,22.8222,南宁市,市监测站,细颗粒物(PM2.5),82,56,39,51,29,49,49,66,50,14,14,6,4,0.9,0.7
2026-04-02T1400,1404A,108.3828,22.8038,南宁市,大自然花园,细颗粒物(PM2.5),101,NA,42,61,33,50,50,63,53,14,16,5,6,0.7,0.5
2026-04-02T1400,1406A,108.2397,22.8462,南宁市,区农职院,颗粒物(PM10),53,53,41,35,26,45,45,65,44,17,16,5,6,0.8,0.6
2026-04-02T1400,1407A,108.3285,22.7356,南宁市,英华嘉园,细颗粒物(PM2.5),88,63,37,54,31,44,44,60,42,18,15,8,5,0.8,0.6
2026-04-02T1400,3401A,108.4829,22.762,南宁市,红星社区,细颗粒物(PM2.5),90,56,36,55,32,57,57,65,51,10,14,5,6,0.8,0.7
2026-04-02T1400,4132A,108.2927,23.1477,南宁市,起凤路9号,细颗粒物(PM2.5),76,60,46,48,34,47,47,70,55,15,11,4,5,0.7,0.6
2026-04-02T1400,4221A,108.2177,22.7774,南宁市,乐贤路16号,细颗粒物(PM2.5),56,40,40,38,28,44,44,45,39,14,23,4,6,0.6,0.6
2026-04-02T1400,2332A,118.1682,26.6371,南平市,南平市监测站,,27,15,19,10,12,86,86,61,61,6,14,5,5,0.4,0.7
2026-04-02T1400,2334A,118.1757,26.6276,南平市,南平七中,,27,20,16,9,10,85,85,61,61,9,11,3,3,0.6,0.5
2026-04-02T1400,1168A,120.9056,31.9669,南通市,狼山街道,,49,49,100,24,68,155,155,108,108,18,44,4,5,0.4,0.7
2026-04-02T1400,1170A,120.8635,32.0231,南通市,城中,颗粒物(PM10),53,54,129,24,80,152,152,105,105,10,31,6,6,0.5,0.9
2026-04-02T1400,1171A,120.9376,31.9301,南通市,星湖花园,颗粒物(PM10),55,57,113,37,86,163,163,107,107,12,37,5,6,0.6,0.9
2026-04-02T1400,1172A,120.8053,32.046,南通市,紫琅学院,细颗粒物(PM2.5),100,88,115,60,80,181,181,109,109,40,40,8,7,0.9,1
2026-04-02T1400,3291A,121.0631,32.0644,南通市,通州监测站,,48,48,104,32,74,152,152,111,111,12,17,5,4,0.6,0.9
2026-04-02T1400,3432A,120.9348,31.9874,南通市,环境教育馆,NA,NA,58,108,46,70,159,159,101,101,NA,37,5,6,0.6,0.9
2026-04-02T1400,4091A,120.8692,31.9885,南通市,洪江路,NA,NA,52,120,35,91,128,128,80,80,38,43,NA,6,0.7,1.2
2026-04-02T1400,2404A,112.5338,33.0086,南阳市,瓦房庄,细颗粒物(PM2.5),58,54,49,39,24,119,119,101,101,8,10,6,5,0.7,0.6
2026-04-02T1400,2405A,112.5002,32.9734,南阳市,汉画馆,颗粒物(PM10),53,54,52,25,27,115,115,91,91,11,16,7,6,0.7,0.6
2026-04-02T1400,2406A,112.5778,33.0144,南阳市,气象站,颗粒物(PM10),52,52,53,23,26,125,125,99,99,8,14,6,7,0.6,0.5
2026-04-02T1400,2407A,112.548,32.9687,南阳市,理工学院,颗粒物(PM10),57,59,55,27,30,115,115,95,95,9,16,7,6,0.6,0.5
2026-04-02T1400,4008A,112.5233,32.9921,南阳市,卧龙区政府,,43,43,43,25,27,115,115,96,96,8,13,8,7,0.6,0.6
2026-04-02T1400,1234A,121.8352,29.9111,宁波市,区环保大楼,臭氧1小时(O3_1h),72,48,55,22,32,177,177,100,100,20,53,7,8,0.3,0.5
2026-04-02T1400,1235A,121.5595,29.8208,宁波市,万里学院,NA,NA,29,37,12,28,153,153,89,89,8,39,NA,7,NA,0.6
2026-04-02T1400,1236A,121.713,29.9564,宁波市,龙赛医院,臭氧1小时(O3_1h),57,58,57,31,32,165,165,107,107,37,42,8,7,0.6,0.6
2026-04-02T1400,1240A,121.5855,29.8635,宁波市,太古小学,,48,24,44,13,28,152,152,80,80,10,42,4,4,0.4,0.5
2026-04-02T1400,1241A,121.5239,29.8673,宁波市,市环境监测中心,,46,31,40,11,26,145,145,100,100,12,35,6,6,0.4,0.5
2026-04-02T1400,2871A,121.6156,29.9015,宁波市,万里国际学校,臭氧1小时(O3_1h),74,32,46,20,29,179,179,112,112,20,36,5,6,0.4,0.5
2026-04-02T1400,3710A,121.5593,29.8976,宁波市,白沙活动中心,,50,30,35,17,27,158,158,100,100,15,35,5,5,0.5,0.5
2026-04-02T1400,4095A,121.8962,29.7529,宁波市,中科路88号,臭氧1小时(O3_1h),54,40,45,30,32,163,163,106,106,18,30,7,7,0.4,0.5
2026-04-02T1400,2341A,119.5387,26.6611,宁德市,宁德市监测站,,41,37,20,17,10,131,131,98,98,12,15,7,5,0.6,0.5
2026-04-02T1400,3209A,119.5231,26.6562,宁德市,宁德一中,,40,24,20,22,12,127,127,97,97,12,11,7,6,0.5,0.4
2026-04-02T1400,2618A,98.859,25.8541,怒江傈僳族自治州,州监测站,,22,22,41,12,27,60,60,42,42,1,5,7,7,0.1,0.3
2026-04-02T1400,2619A,98.8607,25.8168,怒江傈僳族自治州,泸水一中,,25,NA,41,17,32,52,52,31,31,10,24,5,5,0.3,0.7
2026-04-02T1400,1888A,101.6891,26.571,攀枝花市,弄弄坪,,30,28,36,16,21,95,95,79,79,13,17,16,14,1.3,1.2
2026-04-02T1400,1889A,101.577,26.5914,攀枝花市,河门口,,33,28,39,19,21,103,103,72,72,6,12,6,10,0.5,0.6
2026-04-02T1400,1891A,101.7365,26.4986,攀枝花市,仁和,,32,22,32,19,21,102,102,81,81,5,8,5,5,0.4,0.5
2026-04-02T1400,2835A,101.7222,26.567,攀枝花市,四十中小,,31,30,28,13,17,97,97,78,78,8,11,6,9,0.8,0.7
2026-04-02T1400,1604A,122.0303,41.1489,盘锦市,开发区,颗粒物(PM10),58,60,62,14,39,110,110,71,71,7,24,7,9,0.2,0.5
2026-04-02T1400,1605A,122.0486,41.0883,盘锦市,兴隆台,,44,44,61,14,38,108,108,70,70,10,36,5,6,0.3,0.6
2026-04-02T1400,1606A,121.8297,41.1026,盘锦市,新生街道,,42,42,49,11,30,108,108,74,74,3,23,7,8,0.2,0.5
2026-04-02T1400,1832A,113.3257,33.7423,平顶山市,新华旅馆,颗粒物(PM10),58,60,66,24,35,128,128,82,82,8,21,5,5,0.4,0.4
2026-04-02T1400,1833A,113.2917,33.737,平顶山市,规划设计院,,47,47,65,22,36,122,122,81,81,6,18,6,6,0.6,0.6
2026-04-02T1400,1834A,113.182,33.7738,平顶山市,平顶山工学院,,44,44,54,25,37,124,124,88,88,9,17,2,2,0.4,0.4
2026-04-02T1400,3594A,112.8736,33.9068,平顶山市,石龙区,颗粒物(PM10),58,61,78,23,42,124,124,69,69,10,27,8,8,0.5,0.6
2026-04-02T1400,4116A,113.284,33.7139,平顶山市,姚电大道23号,NA,NA,48,70,23,39,117,117,77,77,NA,18,6,6,0.4,0.5
2026-04-02T1400,2656A,106.6633,35.5338,平凉市,聚贤嘉苑,,47,47,56,15,18,114,114,66,66,8,22,7,7,0.3,0.3
2026-04-02T1400,2657A,106.7021,35.5307,平凉市,博物馆,NA,NA,NA,59,20,17,109,109,63,63,6,19,9,9,0.3,0.5
2026-04-02T1400,2348A,113.8384,27.6436,萍乡市,中医院,,33,30,38,23,24,63,63,92,64,17,17,4,5,0.9,0.8
2026-04-02T1400,2350A,113.8677,27.6438,萍乡市,市环保局,,38,26,34,26,24,59,59,88,63,12,10,5,8,1.0,0.9
2026-04-02T1400,2351A,113.8663,27.6202,萍乡市,安源区政府,,43,33,39,30,28,41,41,60,43,22,18,6,7,1.2,0.7
2026-04-02T1400,4107A,113.8686,27.6668,萍乡市,联洪村委会,,35,30,42,24,24,56,56,86,62,11,8,2,4,0.4,0.3
2026-04-02T1400,2319A,119.0142,25.4324,莆田市,荔城区仓后路,,42,32,19,12,4,133,133,110,110,14,13,/,/,/,/
2026-04-02T1400,2320A,119.0016,25.4553,莆田市,莆田市监测站,,43,28,14,7,2,137,137,114,114,10,8,3,2,0.5,0.5
2026-04-02T1400,2321A,119.112,25.4561,莆田市,涵江区六中,,43,27,16,8,3,136,136,116,116,11,11,/,/,0.6,0.5
2026-04-02T1400,2322A,119.1014,25.3215,莆田市,秀屿区政府,,43,32,17,9,7,137,137,113,113,7,9,3,3,0.6,0.6
2026-04-02T1400,2392A,115.0312,35.7636,濮阳市,环保局,颗粒物(PM10),51,51,81,30,57,139,139,91,91,10,23,4,8,0.5,0.6
2026-04-02T1400,3021A,115,35.7667,濮阳市,濮水河管理处,颗粒物(PM10),67,73,94,39,57,153,153,96,96,11,18,3,4,0.4,0.5
2026-04-02T1400,4118A,115.0552,35.7816,濮阳市,中原东路68号,颗粒物(PM10),66,72,108,37,59,147,147,93,93,8,19,4,6,0.5,0.6
2026-04-02T1400,4216A,115.0923632,35.76857718,濮阳市,任丘路479号,颗粒物(PM10),63,68,105,38,61,144,144,92,92,8,20,4,8,0.6,0.6
2026-04-02T1400,2601A,100.9801,22.7634,普洱市,市环保局,颗粒物(PM10),81,93,94,47,45,130,130,73,73,8,12,7,7,0.7,0.8
2026-04-02T1400,2602A,100.9763,22.8237,普洱市,普洱第二中学,细颗粒物(PM2.5),94,93,81,57,50,123,123,59,59,5,18,7,10,0.5,0.7
2026-04-02T1400,3345A,131.0413,45.7795,七台河市,中波台,细颗粒物(PM2.5),178,155,219,134,166,167,167,131,131,21,29,9,10,0.6,0.8
2026-04-02T1400,3637A,131.0136,45.7688,七台河市,人民广场,细颗粒物(PM2.5),183,190,240,138,163,158,158,120,120,24,34,14,14,0.8,1.1
2026-04-02T1400,3684A,130.8639,45.8144,七台河市,新建矿广场,细颗粒物(PM2.5),189,156,234,142,170,140,140,117,117,25,30,13,13,0.7,0.9
2026-04-02T1400,1779A,123.9307,47.3641,齐齐哈尔市,安居小区,细颗粒物(PM2.5),72,70,69,46,41,106,106,76,76,8,12,8,9,0.5,0.5
2026-04-02T1400,1780A,123.9497,47.3389,齐齐哈尔市,中心广场,细颗粒物(PM2.5),78,66,38,49,15,98,98,NA,NA,13,11,4,6,0.8,0.6
2026-04-02T1400,1781A,123.9483,47.3229,齐齐哈尔市,农牧车辆厂,"颗粒物(PM10),细颗粒物(PM2.5)",68,75,64,44,33,96,96,72,72,16,13,9,8,0.2,0.3
2026-04-02T1400,1783A,123.9442,47.2994,齐齐哈尔市,市环境监测站,颗粒物(PM10),63,67,63,37,33,96,96,74,74,11,12,4,3,0.5,0.5
2026-04-02T1400,3662A,123.6341,47.2079,齐齐哈尔市,富区青少年活动中心,细颗粒物(PM2.5),98,92,83,59,42,97,97,68,68,8,13,5,5,0.5,0.5
2026-04-02T1400,2591A,107.9765,26.5724,黔东南苗族侗族自治州,市环境监测站,颗粒物(PM10),55,57,35,30,21,61,61,39,32,13,17,5,4,0.7,0.6
2026-04-02T1400,2881A,107.8909,26.531,黔东南苗族侗族自治州,凯里学院,颗粒物(PM10),55,56,36,32,23,66,66,37,36,11,18,3,3,0.8,0.7
2026-04-02T1400,2593A,107.5223,26.2371,黔南布依族苗族自治州,小围寨,,48,48,18,26,10,79,79,83,76,7,5,5,6,0.5,0.4
2026-04-02T1400,3538A,107.5175,26.2977,黔南布依族苗族自治州,沙坝,NA,NA,53,18,28,9,NA,NA,65,63,9,5,4,5,0.8,0.7
2026-04-02T1400,2589A,104.9022,25.0943,黔西南布依族苗族自治州,场坝街,,37,NA,24,17,20,118,118,85,85,6,7,6,6,0.4,0.4
2026-04-02T1400,2590A,104.8812,25.0994,黔西南布依族苗族自治州,坪东大道,NA,NA,NA,28,18,20,120,120,76,76,4,9,1,6,NA,0.6
2026-04-02T1400,2502A,108.6238,21.9667,钦州市,市环保站,颗粒物(PM10),84,97,51,44,27,22,22,41,24,35,23,10,6,0.9,0.7
2026-04-02T1400,2503A,108.655,21.9481,钦州市,沙埠小学,NA,NA,100,52,43,33,21,21,35,24,NA,20,11,7,0.8,0.8
2026-04-02T1400,2504A,108.5989,21.7435,钦州市,港区一小,颗粒物(PM10),75,85,57,36,32,49,49,35,25,26,26,4,4,1.0,0.9
2026-04-02T1400,3404A,108.5959,21.9634,钦州市,北职校,细颗粒物(PM2.5),70,67,45,45,31,36,36,33,27,24,19,9,6,1.0,0.9
2026-04-02T1400,1046A,119.5247,39.9346,秦皇岛市,建设大厦,颗粒物(PM10),58,60,66,13,16,106,106,76,76,9,29,8,8,0.4,0.4
2026-04-02T1400,3132A,119.5979,39.938,秦皇岛市,文明里,颗粒物(PM10),57,59,73,7,16,107,107,67,67,10,31,10,10,0.3,0.4
2026-04-02T1400,4066A,119.7458,39.9952,秦皇岛市,南园路157号,,50,50,56,16,14,99,99,68,68,14,45,8,8,0.3,0.4
2026-04-02T1400,4067A,119.5131,39.8858,秦皇岛市,翠岛大街1号,,50,50,57,13,16,98,98,64,64,16,33,10,11,0.3,0.4
2026-04-02T1400,4198A,119.509013,39.825305,秦皇岛市,北戴河轮滑馆,颗粒物(PM10),59,62,67,14,14,104,104,72,72,14,38,9,9,0.3,0.4
2026-04-02T1400,1310A,120.404,36.0625,青岛市,市南区东部子站,NA,NA,53,64,49,49,114,114,85,85,NA,10,10,10,1.4,1.1
2026-04-02T1400,1311A,120.362344,36.10282,青岛市,四方区子站,细颗粒物(PM2.5),129,119,104,91,86,183,183,113,113,21,33,15,7,1.8,1.2
2026-04-02T1400,1312A,120.294373,36.054183,青岛市,市南区西部子站,细颗粒物(PM2.5),94,NA,64,57,45,107,107,78,78,12,25,3,4,1.6,1.3
2026-04-02T1400,1313A,120.4581,36.0858,青岛市,崂山区子站,,49,44,62,34,46,125,125,93,93,23,27,8,8,1.5,1.1
2026-04-02T1400,1315A,120.3945,36.3083,青岛市,城阳区子站,颗粒物(PM10),70,78,123,44,88,160,160,100,100,13,36,8,7,0.8,1
2026-04-02T1400,3642A,120.3454,36.0735,青岛市,市北区南部,细颗粒物(PM2.5),113,80,72,74,50,160,160,103,103,8,16,9,3,1.8,1.2
2026-04-02T1400,3643A,120.3897,36.18,青岛市,李沧区北部,细颗粒物(PM2.5),88,75,103,54,77,153,153,91,91,14,36,12,9,0.8,1
2026-04-02T1400,4110A,120.5222,36.4089,青岛市,盟旺路653号,颗粒物(PM10),57,59,104,38,74,162,162,100,100,7,23,5,4,0.8,1.1
2026-04-02T1400,4290A,120.196923,35.954556,青岛市,珠江路669号,细颗粒物(PM2.5),104,73,100,64,50,126,126,79,79,18,25,6,5,1.5,1.3
2026-04-02T1400,4291A,120.0424,35.8656,青岛市,黄岛区人民政府广场,细颗粒物(PM2.5),90,66,97,55,53,95,95,78,78,22,23,8,8,1.2,1.4
2026-04-02T1400,1703A,113.0218,23.7086,清远市,凤城街办,,45,45,22,25,12,22,22,50,38,41,24,/,/,/,/
2026-04-02T1400,3025A,113.0479,23.6343,清远市,技师学院,,40,40,24,23,14,27,27,49,31,32,25,5,9,0.7,0.6
2026-04-02T1400,3318A,112.9898,23.7403,清远市,清新太和,,47,47,21,29,12,15,15,40,20,43,21,6,6,0.8,0.7
2026-04-02T1400,3455A,113.076,23.72,清远市,清城东城,,36,36,20,20,11,27,27,57,49,29,19,/,/,/,/
2026-04-02T1400,2661A,107.6325,35.7357,庆阳市,庆阳五中,颗粒物(PM10),54,55,53,22,22,116,116,99,99,12,15,4,3,0.3,0.4
2026-04-02T1400,2662A,107.6361,35.7067,庆阳市,市环保局,颗粒物(PM10),51,51,49,24,19,118,118,102,102,15,15,7,11,0.3,0.5
2026-04-02T1400,1916A,103.7897,25.5036,曲靖市,环境监测站,,39,39,40,7,21,116,116,109,109,4,7,5,5,0.4,0.5
2026-04-02T1400,1917A,103.8013,25.5357,曲靖市,烟厂办公区,,33,29,36,9,20,103,103,93,93,4,6,10,9,0.4,0.5
2026-04-02T1400,3376A,103.7926,25.4651,曲靖市,南苑二区,,32,20,35,3,20,100,100,93,93,8,9,4,4,0.4,0.5
2026-04-02T1400,3377A,103.7442,25.5259,曲靖市,曲靖师范学院,,35,13,35,7,24,111,111,102,102,4,9,3,10,0.5,0.5
2026-04-02T1400,1264A,118.8694,28.94,衢州市,环保大楼,,46,46,35,28,22,130,130,64,64,18,21,/,/,/,/
2026-04-02T1400,1266A,118.8622,28.9809,衢州市,衢州学院,,43,35,33,22,20,137,137,69,69,9,27,4,4,0.5,0.5
2026-04-02T1400,4097A,118.9646,28.9832,衢州市,衢州三中,,50,50,35,31,20,135,135,61,61,20,25,7,7,0.6,0.6
2026-04-02T1400,1611A,118.5818,24.9116,泉州市,涂山街,,34,20,15,10,6,108,108,92,92,12,13,4,4,0.5,0.6
2026-04-02T1400,1612A,118.597,24.8976,泉州市,津头埔,,37,24,16,11,7,116,116,96,96,13,13,3,3,0.5,0.5
2026-04-02T1400,1613A,118.6669,24.9422,泉州市,万安,,34,25,19,12,7,108,108,87,87,10,13,5,4,0.5,0.5
2026-04-02T1400,4105A,118.6355,24.9148,泉州市,霞新路6号,,34,19,11,10,7,108,108,86,86,10,14,/,/,0.5,0.4
2026-04-02T1400,2626A,88.8873,29.2723,日喀则市,日喀则监测站,,31,8,20,3,3,98,98,84,83,3,5,8,9,0.3,0.3
2026-04-02T1400,3726A,88.8775,29.2425,日喀则市,林业技术推广中心,,31,8,16,3,2,97,97,91,90,3,3,4,5,0.3,0.3
2026-04-02T1400,1659A,119.4711,35.421,日照市,监测站,细颗粒物(PM2.5),107,78,125,67,92,160,160,77,77,26,58,16,12,0.9,1.2
2026-04-02T1400,1660A,119.523,35.4216,日照市,市政府广场,细颗粒物(PM2.5),115,92,98,76,76,154,154,74,74,19,36,11,9,0.8,1.3
2026-04-02T1400,1661A,119.5511,35.4113,日照市,港务局,细颗粒物(PM2.5),139,134,84,102,57,135,135,79,79,26,32,8,6,0.9,1.2
2026-04-02T1400,3507A,119.5326,35.4627,日照市,职业技术学院,细颗粒物(PM2.5),127,124,95,89,74,153,153,76,76,22,31,12,9,1.1,1.4
2026-04-02T1400,3604A,119.3267,35.1043,日照市,岚山环保分局,细颗粒物(PM2.5),132,114,161,95,125,167,167,84,84,22,47,15,21,0.9,1.9
2026-04-02T1400,1835A,111.1922,34.7752,三门峡市,市政府,细颗粒物(PM2.5),80,73,53,50,30,93,93,84,83,11,12,11,10,0.5,0.4
2026-04-02T1400,1836A,111.1588,34.794,三门峡市,开发区,NA,NA,NA,53,NA,30,NA,NA,120,NA,NA,17,NA,11,NA,0.4
2026-04-02T1400,3039A,111.1911,34.7829,三门峡市,三门峡市第一小学,细颗粒物(PM2.5),90,83,55,55,31,96,96,90,86,13,12,14,14,0.6,0.5
2026-04-02T1400,3598A,111.1031,34.719,三门峡市,富达温泉假日酒店,细颗粒物(PM2.5),80,75,60,50,30,94,94,84,84,14,15,15,16,0.4,0.3
2026-04-02T1400,2324A,117.621,26.2626,三明市,三钢,,26,24,23,18,18,59,59,39,39,12,19,8,8,0.4,0.6
2026-04-02T1400,2325A,117.6352,26.2714,三明市,三明二中,,26,26,32,17,14,58,58,39,39,12,17,7,6,0.5,0.6
2026-04-02T1400,2326A,117.6028,26.2377,三明市,三元区政府,,36,28,25,25,19,53,53,37,37,16,20,9,7,0.7,0.8
2026-04-02T1400,1877A,109.4962,18.2682,三亚市,河西子站,,32,28,31,22,23,69,69,56,56,1,4,4,4,0.5,0.5
2026-04-02T1400,3540A,109.7348,18.3443,三亚市,君悦子站,,32,NA,32,22,22,66,66,51,51,4,6,4,4,0.5,0.5
2026-04-02T1400,4135A,109.1714,18.3739,三亚市,城东小学站,,35,35,37,23,24,70,70,56,56,3,6,/,/,/,/
2026-04-02T1400,2624A,91.7592,29.234,山南市,山南监测站,NA,NA,30,22,3,4,105,105,102,99,NA,4,8,9,0.3,0.3
2026-04-02T1400,2625A,91.7701,29.2436,山南市,山南人民医院,,34,34,29,3,6,107,107,103,103,1,4,9,9,0.2,0.3
2026-04-02T1400,1674A,116.6795,23.3666,汕头市,金平子站,,38,24,19,13,9,120,120,112,112,14,12,5,5,0.6,0.7
2026-04-02T1400,1675A,116.7248,23.3632,汕头市,龙湖子站,NA,NA,31,21,13,9,NA,NA,102,102,NA,12,6,5,/,/
2026-04-02T1400,1676A,116.7257,23.2774,汕头市,濠江子站,,35,28,20,12,9,111,111,104,104,14,12,8,8,/,/
2026-04-02T1400,1677A,116.7518,23.4712,汕头市,澄海子站,,36,28,22,13,9,113,113,98,98,11,11,7,8,0.6,0.6
2026-04-02T1400,1678A,116.6088,23.2539,汕头市,潮阳子站,,38,24,19,11,10,120,120,107,107,8,6,6,6,0.5,0.6
2026-04-02T1400,3444A,116.4539,23.2684,汕头市,潮南峡山,NA,NA,26,18,16,8,124,124,108,108,12,9,7,6,NA,0.8
2026-04-02T1400,3624A,116.4069,23.2533,汕头市,潮南子站,,35,34,21,16,11,110,110,93,93,11,9,6,7,/,/
2026-04-02T1400,1693A,115.3653,22.7751,汕尾市,市环保局,,35,26,21,13,13,111,111,95,94,9,9,5,5,0.5,0.6
2026-04-02T1400,1695A,115.362,22.7926,汕尾市,新城中学,,35,21,17,12,10,112,112,96,95,9,10,7,6,0.6,0.6
2026-04-02T1400,2645A,109.9155,33.8714,商洛市,监测站,,44,44,41,27,21,113,113,62,62,9,17,7,8,0.6,0.5
2026-04-02T1400,3045A,109.9647,33.8486,商洛市,商州区中学,,36,NA,44,25,21,111,111,59,59,9,20,5,8,0.6,0.5
2026-04-02T1400,2408A,115.6701,34.4283,商丘市,环境监测站,,46,43,58,32,38,138,138,110,110,5,8,3,3,0.5,0.4
2026-04-02T1400,2409A,115.6458,34.4047,商丘市,粮食局,颗粒物(PM10),55,57,51,35,41,135,135,108,108,10,14,4,3,0.5,0.4
2026-04-02T1400,3171A,115.6069,34.4465,商丘市,梁园区档案局,,43,39,48,29,39,136,136,115,115,6,11,4,3,0.4,0.4
2026-04-02T1400,4119A,115.6701,34.3767,商丘市,北海东路185号,,49,45,67,34,38,138,138,105,105,6,11,5,5,0.4,0.4
2026-04-02T1400,4120A,115.6172,34.3704,商丘市,中山大街3号,,45,45,65,29,42,127,127,101,101,9,13,4,4,0.5,0.4
