timepoint,stationcode,longitude,latitude,area,positionname,primarypollutant,aqi,pm10,pm10_24h,pm2_5,pm2_5_24h,o3,o3_24h,o3_8h,o3_8h_24h,no2,no2_24h,so2,so2_24h,co,co_24h
2022-11-08T00:00:00,1001A,116.3621,39.8784,北京市,万寿西宫,,43,43,39,21,25,65,0,59,10,70,39,3,2,0.6,0.4
2022-11-08T00:00:00,1002A,116.2202,40.2915,北京市,定陵(对照点),,16,8,16,3,8,76,49,70,53,3,5,3,2,0.2,0.2
2022-11-08T00:00:00,1003A,116.4174,39.9289,北京市,东四,颗粒物(PM10),53,56,47,21,25,69,7,64,19,41,29,3,2,0.7,0.5
2022-11-08T00:00:00,1004A,116.4072,39.8863,北京市,天坛,,36,36,36,16,24,69,1,64,13,51,30,3,2,0.8,0.4
2022-11-08T00:00:00,1005A,116.462,39.9365,北京市,农展馆,颗粒物(PM10),59,67,48,30,26,70,9,65,19,71,41,3,3,0.5,0.5
2022-11-08T00:00:00,1006A,116.3392,39.9295,北京市,官园,,46,46,44,19,26,68,1,61,10,68,43,3,3,0.7,0.5
2022-11-08T00:00:00,1007A,116.2878,39.9611,北京市,海淀万柳,颗粒物(PM10),53,55,47,17,25,66,0,58,5,60,46,1,2,1.2,0.6
2022-11-08T00:00:00,1008A,116.6636,40.135,北京市,顺义新城,颗粒物(PM10),53,55,67,20,40,73,1,66,18,58,36,2,2,0.5,0.4
2022-11-08T00:00:00,1009A,116.6275,40.3275,北京市,怀柔镇,,19,17,49,10,34,66,14,60,31,37,24,3,3,0.3,0.4
2022-11-08T00:00:00,1010A,116.2296,40.217,北京市,昌平镇,,14,12,24,4,13,63,43,57,34,9,20,1,2,0.2,0.3
2022-11-08T00:00:00,1011A,116.3966,39.9821,北京市,奥体中心,,38,38,42,15,24,63,1,59,13,70,40,3,3,0.8,0.5
2022-11-08T00:00:00,1012A,116.184,39.9136,北京市,古城,,41,41,53,13,29,67,1,60,11,58,43,3,2,0.4,0.5
2022-11-08T00:00:00,1015A,117.1444,39.1661,天津市,勤俭道,颗粒物(PM10),72,93,67,47,42,72,1,65,18,85,47,9,7,0.9,0.7
2022-11-08T00:00:00,1017A,117.237,39.1082,天津市,大直沽八号路,细颗粒物(PM2.5),89,120,66,66,37,73,16,65,21,78,49,9,6,1.1,0.9
2022-11-08T00:00:00,1018A,117.202,39.0927,天津市,前进道,"颗粒物(PM10),细颗粒物(PM2.5)",77,104,61,56,34,73,2,67,22,89,48,10,8,0.8,0.5
2022-11-08T00:00:00,1019A,117.1837,39.2133,天津市,淮河道,颗粒物(PM10),77,104,66,47,39,73,1,66,22,93,49,9,8,0.9,0.6
2022-11-08T00:00:00,1021A,117.307,39.0877,天津市,跃进路,细颗粒物(PM2.5),88,119,72,65,40,73,3,65,15,86,51,10,7,0.9,0.7
2022-11-08T00:00:00,1023A,117.707,39.0343,天津市,第四大街,细颗粒物(PM2.5),143,152,117,109,77,70,54,51,22,49,63,6,8,0.9,0.8
2022-11-08T00:00:00,1024A,117.457,38.8394,天津市,永明路,细颗粒物(PM2.5),87,113,91,64,57,69,3,59,14,72,56,8,8,0.7,0.7
2022-11-08T00:00:00,1026A,117.764,39.1587,天津市,汉北路,细颗粒物(PM2.5),138,155,115,105,73,79,17,70,41,86,47,11,9,0.8,0.7
2022-11-08T00:00:00,1027A,117.157,38.9194,天津市,团泊洼(对照点),,,,,,,,,,,,,,,,
2022-11-08T00:00:00,1029A,114.4422,38.0444,石家庄市,职工医院,细颗粒物(PM2.5),97,113,115,72,92,104,3,84,50,69,42,4,6,0.6,0.7
2022-11-08T00:00:00,1030A,114.6063,38.0266,石家庄市,高新区,细颗粒物(PM2.5),79,74,115,58,92,108,10,88,45,64,41,5,4,0.9,0.9
2022-11-08T00:00:00,1031A,114.4898,38.1328,石家庄市,西北水源,"颗粒物(PM10),细颗粒物(PM2.5)",87,124,121,64,81,101,2,85,50,77,42,6,6,0.8,0.9
2022-11-08T00:00:00,1032A,114.4586,38.0058,石家庄市,西南高教,细颗粒物(PM2.5),95,103,110,71,96,105,3,83,43,73,47,4,5,0.6,0.8
2022-11-08T00:00:00,1033A,114.5331,38.0178,石家庄市,世纪公园,细颗粒物(PM2.5),93,78,108,69,85,98,5,76,42,59,37,4,5,0.8,1
2022-11-08T00:00:00,1034A,114.509,38.0457,石家庄市,人民会堂,细颗粒物(PM2.5),105,91,116,79,105,112,28,91,65,46,37,3,4,0.5,0.8
2022-11-08T00:00:00,1035A,114.3524,37.8911,石家庄市,封龙山(对照点),,,47,86,46,62,106,66,90,84,27,28,,,0.6,0.9
2022-11-08T00:00:00,1037A,118.131,39.6363,唐山市,雷达站,颗粒物(PM10),67,84,102,36,63,89,58,74,58,31,43,5,7,0.6,0.8
2022-11-08T00:00:00,1038A,118.1725,39.6334,唐山市,物资局,颗粒物(PM10),76,102,93,55,59,86,12,68,37,76,57,10,13,1.0,0.9
2022-11-08T00:00:00,1040A,118.1705,39.6506,唐山市,十二中,细颗粒物(PM2.5),74,95,89,54,48,78,10,66,36,73,55,9,9,0.9,0.8
2022-11-08T00:00:00,1041A,118.1869,39.622,唐山市,小山,细颗粒物(PM2.5),83,111,98,61,59,85,3,65,28,79,57,8,11,1.0,0.9
2022-11-08T00:00:00,1042A,119.5134,39.8207,秦皇岛市,北戴河环保局,颗粒物(PM10),57,64,83,22,48,86,0,76,41,78,40,9,12,0.1,0.5
2022-11-08T00:00:00,1043A,119.7493,40.0116,秦皇岛市,第一关,,,51,75,22,46,83,4,73,19,54,60,12,12,0.5,0.7
2022-11-08T00:00:00,1044A,119.5897,39.9499,秦皇岛市,监测站,颗粒物(PM10),60,69,76,30,48,75,0,68,19,58,46,10,13,0.5,0.6
2022-11-08T00:00:00,1046A,119.5251,39.9041,秦皇岛市,建设大厦,颗粒物(PM10),92,133,86,41,49,85,0,78,32,60,49,8,11,0.7,0.8
2022-11-08T00:00:00,1047A,114.5129,36.61763,邯郸市,环保局,,,,,,,,,,,,,,,,
2022-11-08T00:00:00,1048A,114.5302,36.6116,邯郸市,东污水处理厂,细颗粒物(PM2.5),89,113,130,66,99,91,2,82,28,71,57,3,5,0.8,0.8
2022-11-08T00:00:00,1049A,114.4918,36.5713,邯郸市,矿院,细颗粒物(PM2.5),100,118,131,75,110,103,3,87,32,76,51,7,10,0.8,0.9
2022-11-08T00:00:00,1050A,114.484,36.6133,邯郸市,丛台公园,细颗粒物(PM2.5),93,86,130,69,103,96,1,83,30,63,42,5,6,0.7,0.8
2022-11-08T00:00:00,1051A,115.493,38.8632,保定市,游泳馆,细颗粒物(PM2.5),134,131,120,102,100,82,1,70,25,84,58,9,7,1.0,0.8
2022-11-08T00:00:00,1052A,115.5213,38.8959,保定市,华电二区,细颗粒物(PM2.5),160,127,110,122,93,86,6,70,31,91,61,6,7,1.4,1.2
2022-11-08T00:00:00,1053A,115.4713,38.9108,保定市,接待中心,细颗粒物(PM2.5),99,134,133,74,91,91,15,72,29,64,49,6,7,0.7,0.8
2022-11-08T00:00:00,1054A,115.4612,38.8416,保定市,地表水厂,细颗粒物(PM2.5),159,177,134,121,83,71,6,56,19,91,63,8,7,0.6,0.5
2022-11-08T00:00:00,1055A,115.4323,38.8697,保定市,胶片厂,,,,,,,,,,,,,,,,
2022-11-08T00:00:00,1056A,115.5086,38.8639,保定市,监测站,细颗粒物(PM2.5),135,149,135,103,97,86,6,70,25,77,57,9,6,1.6,1
2022-11-08T00:00:00,1057A,114.8883,40.8336,张家口市,人民公园,,18,18,24,2,7,80,54,73,53,7,12,13,15,0.2,0.3
2022-11-08T00:00:00,1059A,114.8687,40.8042,张家口市,五金库,,,,19,,10,74,,64,48,,9,,11,,0.2
2022-11-08T00:00:00,1060A,114.8902,40.762,张家口市,世纪豪园,,27,27,26,1,10,80,52,70,52,6,8,2,3,0.5,0.5
2022-11-08T00:00:00,1061A,114.8916,40.8661,张家口市,北泵房(对照点),,25,22,31,17,15,87,54,75,48,7,12,6,10,0.4,0.5
2022-11-08T00:00:00,1062A,117.9531,40.9081,承德市,铁路,,27,27,64,14,35,73,7,53,17,41,40,7,7,0.5,0.6
2022-11-08T00:00:00,1063A,117.9392,40.9763,承德市,中国银行,,43,43,55,24,37,70,3,62,12,45,38,4,4,0.7,0.7
2022-11-08T00:00:00,1064A,117.9503,40.928,承德市,开发区,,33,33,58,21,38,78,5,60,18,50,43,8,6,0.9,0.8
2022-11-08T00:00:00,1065A,117.8051,40.9655,承德市,文化中心,,47,47,70,21,39,72,3,60,13,49,40,6,4,0.5,0.6
2022-11-08T00:00:00,1066A,117.9268,41.0026,承德市,离宫(对照点),,35,34,44,24,37,70,2,60,27,48,32,8,8,0.4,0.5
2022-11-08T00:00:00,1067A,116.6708,39.5111,廊坊市,药材公司,颗粒物(PM10),52,53,53,22,31,68,2,63,33,68,39,6,6,0.5,0.4
2022-11-08T00:00:00,1068A,116.7214,39.5589,廊坊市,开发区,,30,30,58,18,36,76,2,68,18,54,52,7,7,0.7,0.6
2022-11-08T00:00:00,1070A,116.7244,39.5269,廊坊市,北华航天学院,,48,48,66,10,35,70,5,62,17,61,49,4,4,1.1,0.6
2022-11-08T00:00:00,1071A,116.8842,38.2991,沧州市,沧县城建局,细颗粒物(PM2.5),67,74,73,48,56,77,25,70,38,59,45,8,7,0.8,0.6
2022-11-08T00:00:00,1072A,116.8584,38.3254,沧州市,电视转播站,"颗粒物(PM10),细颗粒物(PM2.5)",55,60,76,39,46,87,36,79,44,39,33,6,6,0.8,0.7
2022-11-08T00:00:00,1073A,116.8709,38.3228,沧州市,市环保局,细颗粒物(PM2.5),63,74,76,45,54,86,32,79,45,53,39,3,5,0.7,0.6
2022-11-08T00:00:00,1074A,115.6838,37.7541,衡水市,电机北厂,,,80,89,36,57,74,4,64,38,,44,8,7,0.3,0.5
2022-11-08T00:00:00,1075A,115.6303,37.7316,衡水市,市监测站,细颗粒物(PM2.5),69,82,100,50,63,65,3,59,24,69,51,4,4,0.7,0.7
2022-11-08T00:00:00,1077A,114.4704,37.0886,邢台市,达活泉,细颗粒物(PM2.5),89,89,120,66,105,99,2,90,33,65,48,4,5,0.7,0.8
2022-11-08T00:00:00,1078A,114.5062,37.0349,邢台市,邢师高专,细颗粒物(PM2.5),83,73,108,61,96,91,4,83,35,53,38,5,7,0.7,0.8
2022-11-08T00:00:00,1079A,114.5237,37.0851,邢台市,路桥公司,细颗粒物(PM2.5),87,83,114,64,98,100,5,90,46,51,39,6,8,1.1,1
2022-11-08T00:00:00,1080A,114.4725,37.0719,邢台市,市环保局,细颗粒物(PM2.5),85,84,123,63,99,98,9,87,41,64,40,6,8,0.6,0.7
2022-11-08T00:00:00,1081A,112.5139,37.8873,太原市,尖草坪,颗粒物(PM10),54,57,78,27,46,97,4,76,21,70,55,6,12,0.5,0.8
2022-11-08T00:00:00,1083A,112.434,38.0108,太原市,上兰(对照点),,,,,,,,,,,,,,,,
2022-11-08T00:00:00,1084A,112.469,37.7124,太原市,晋源,"颗粒物(PM10),细颗粒物(PM2.5)",68,85,79,49,46,100,8,82,22,73,53,5,7,0.7,0.7
2022-11-08T00:00:00,1085A,112.5583,37.7394,太原市,小店,颗粒物(PM10),101,152,107,60,56,94,3,73,18,86,63,8,12,1.3,1.1
2022-11-08T00:00:00,1086A,112.5369,37.8692,太原市,桃园,颗粒物(PM10),57,64,82,28,47,84,2,70,21,74,57,7,12,0.8,1
2022-11-08T00:00:00,1087A,112.57,37.8195,太原市,坞城,颗粒物(PM10),65,80,94,38,56,87,6,73,25,75,56,24,19,1.7,1.5
2022-11-08T00:00:00,1088A,112.549,37.9854,太原市,南寨,颗粒物(PM10),63,76,100,20,47,91,3,73,20,54,45,6,8,0.5,0.7
2022-11-08T00:00:00,1089A,112.4701,37.782,太原市,金胜,,,,,,,,,,,,,,,,
2022-11-08T00:00:00,1090A,111.6507,40.7517,呼和浩特市,呼市一监,,,31,30,15,13,23,2,13,6,,,7,7,0.8,0.7
2022-11-08T00:00:00,1091A,111.6572,40.8033,呼和浩特市,小召,,,,9,15,8,80,3,73,34,63,26,16,12,0.8,0.4
2022-11-08T00:00:00,1094A,111.7516,40.8369,呼和浩特市,如意水处理厂,,33,24,18,9,6,56,3,50,24,66,37,4,4,0.8,0.7
2022-11-08T00:00:00,1095A,111.7276,40.8062,呼和浩特市,二十九中,,31,26,22,13,9,76,8,70,34,61,29,10,12,0.8,0.8
2022-11-08T00:00:00,1096A,111.5512,40.7866,呼和浩特市,工大金川校区,,,,,,,,,,,,,,,,
2022-11-08T00:00:00,1097A,111.717,40.7612,呼和浩特市,化肥厂生活区,,,46,25,21,11,78,7,70,32,,,11,12,0.7,0.6
2022-11-08T00:00:00,1098A,123.6836,41.9339,沈阳市,森林路(对照点),,,,,,,,,,,,,,,,
2022-11-08T00:00:00,1099A,123.505,41.7406,沈阳市,浑南东路,颗粒物(PM10),65,79,55,45,36,67,6,52,16,50,42,14,14,0.9,0.7
2022-11-08T00:00:00,1100A,123.4231,41.6989,沈阳市,新秀街,颗粒物(PM10),57,64,45,28,34,65,5,54,14,57,42,18,14,0.9,0.8
2022-11-08T00:00:00,1102A,123.5903,41.8411,沈阳市,东陵路,颗粒物(PM10),61,72,37,41,33,79,4,55,13,43,31,18,9,0.9,0.6
2022-11-08T00:00:00,1103A,123.4264,41.8467,沈阳市,陵东街,颗粒物(PM10),108,166,59,77,31,83,5,56,17,70,46,11,10,1.9,0.9
2022-11-08T00:00:00,1104A,123.4114,41.7653,沈阳市,文化路,"颗粒物(PM10),细颗粒物(PM2.5)",70,90,45,51,34,66,5,52,17,63,46,14,16,1.5,0.9
2022-11-08T00:00:00,1105A,123.4678,41.7867,沈阳市,小河沿,细颗粒物(PM2.5),97,132,57,72,32,66,8,54,18,59,44,8,8,1.3,0.7
2022-11-08T00:00:00,1106A,123.4017,41.7972,沈阳市,太原街,细颗粒物(PM2.5),60,68,49,43,32,72,4,50,9,71,53,16,11,1.5,0.8
2022-11-08T00:00:00,1108A,123.3783,41.9228,沈阳市,京沈街,颗粒物(PM10),72,94,46,49,34,94,6,63,20,71,35,27,15,1.2,0.6
2022-11-08T00:00:00,1109A,121.612,38.9741,大连市,甘井子,,26,24,70,16,53,94,22,81,39,52,37,20,12,0.7,0.8
2022-11-08T00:00:00,1110A,121.565,38.9511,大连市,周水子,,43,43,88,19,48,90,21,75,36,46,35,8,10,0.6,0.7
2022-11-08T00:00:00,1111A,121.5637,38.8845,大连市,星海三站,,19,19,80,13,64,82,33,71,36,34,34,17,16,0.8,0.9
2022-11-08T00:00:00,1112A,121.6302,38.9117,大连市,青泥洼桥,,38,38,85,16,50,103,8,91,24,74,47,18,12,1.1,1.1
2022-11-08T00:00:00,1113A,121.6251,38.8638,大连市,傅家庄,,50,50,72,19,45,95,15,88,21,56,37,24,10,1.2,1.2
2022-11-08T00:00:00,1114A,121.5213,38.8661,大连市,七贤岭,,20,19,70,14,44,109,43,98,60,28,25,16,13,0.8,0.8
2022-11-08T00:00:00,1115A,121.2529,38.8061,大连市,旅顺,,20,10,47,9,49,105,61,89,66,13,20,7,7,0.5,0.6
2022-11-08T00:00:00,1116A,121.7485,39.1311,大连市,金州,,34,34,81,17,56,88,33,78,42,37,38,13,13,0.7,0.9
2022-11-08T00:00:00,1117A,121.7811,39.0496,大连市,开发区,颗粒物(PM10),54,58,79,27,52,102,33,85,38,54,47,11,11,0.7,0.8
2022-11-08T00:00:00,1118A,121.9762,39.0631,大连市,双D港,,49,42,68,34,50,97,46,84,50,18,24,14,13,0.7,1.1
2022-11-08T00:00:00,1119A,125.3325,43.9166,长春市,食品厂,颗粒物(PM10),53,56,88,28,52,59,4,46,10,61,52,15,11,0.6,0.9
2022-11-08T00:00:00,1120A,125.2863,43.9027,长春市,客车厂,颗粒物(PM10),59,67,84,34,52,59,4,45,8,59,50,15,13,0.7,1
2022-11-08T00:00:00,1121A,125.2841,43.8463,长春市,邮电学院,颗粒物(PM10),52,54,86,23,49,71,4,58,12,64,54,8,12,0.5,0.8
2022-11-08T00:00:00,1122A,125.3716,43.8772,长春市,劳动公园,颗粒物(PM10),57,63,76,33,45,71,10,58,17,49,46,8,16,0.7,1
2022-11-08T00:00:00,1123A,125.3297,43.8805,长春市,园林处,颗粒物(PM10),54,57,76,20,43,69,20,59,17,48,51,8,18,0.5,0.8
2022-11-08T00:00:00,1124A,125.4605,43.79,长春市,净月潭,,36,36,54,18,23,67,32,55,32,18,31,6,6,0.3,0.7
2022-11-08T00:00:00,1125A,125.7194,43.515,长春市,甩湾子(对照点),,,,,,,,,,,,,,,,
2022-11-08T00:00:00,1126A,125.3863,43.8447,长春市,经开区环卫处,颗粒物(PM10),73,95,101,35,48,71,4,55,13,53,47,8,11,0.6,0.9
2022-11-08T00:00:00,1127A,125.245,43.7783,长春市,高新区管委会,细颗粒物(PM2.5),62,66,80,44,53,68,4,56,14,48,43,6,7,0.8,0.9
2022-11-08T00:00:00,1128A,125.1761,43.8325,长春市,岱山公园,颗粒物(PM10),58,66,87,18,47,66,5,52,9,58,50,12,11,0.5,0.8
2022-11-08T00:00:00,1129A,126.5422,45.755,哈尔滨市,岭北(对照点),颗粒物(PM10),53,56,200,35,166,77,17,62,22,41,47,16,21,0.3,0.8
2022-11-08T00:00:00,1130A,126.561,45.8167,哈尔滨市,松北商大,细颗粒物(PM2.5),55,29,185,39,200,63,27,46,18,22,52,8,13,0.6,1.2
2022-11-08T00:00:00,1131A,126.979,45.5419,哈尔滨市,阿城会宁,颗粒物(PM10),52,54,175,21,186,71,14,58,22,34,45,18,24,0.5,1
2022-11-08T00:00:00,1132A,126.599,45.7222,哈尔滨市,南岗学府路,,47,47,202,15,138,93,41,74,42,25,50,19,32,0.6,0.8
2022-11-08T00:00:00,1133A,126.689,45.7733,哈尔滨市,太平宏伟公园,,37,37,151,12,109,95,42,74,46,29,50,6,12,0.2,0.7
2022-11-08T00:00:00,1134A,126.635,45.7667,哈尔滨市,道外承德广场,,46,46,134,14,93,75,34,62,33,32,48,10,15,0.4,0.8
2022-11-08T00:00:00,1135A,126.685,45.7319,哈尔滨市,香坊红旗大街,,44,44,163,22,130,80,19,61,32,44,51,18,34,0.6,1
2022-11-08T00:00:00,1136A,126.6411,45.7258,哈尔滨市,动力和平路,,35,35,159,17,152,83,32,65,34,37,56,14,21,0.7,1.1
2022-11-08T00:00:00,1137A,126.593,45.7478,哈尔滨市,道里建国路,,46,41,158,32,142,75,24,58,26,39,55,15,22,0.1,0.7
2022-11-08T00:00:00,1138A,126.615,45.61,哈尔滨市,平房东轻厂,,28,28,193,14,174,76,28,60,21,36,50,11,15,0.2,0.8
2022-11-08T00:00:00,1139A,126.595,45.9855,哈尔滨市,呼兰师专,细颗粒物(PM2.5),142,176,110,108,84,78,16,64,31,49,41,13,12,1.0,0.9
2022-11-08T00:00:00,1140A,126.6206,45.6842,哈尔滨市,省农科院,细颗粒物(PM2.5),62,41,207,44,171,93,19,79,26,44,56,20,23,0.5,1.4
2022-11-08T00:00:00,1141A,121.4,31.238,上海市,普陀,,27,27,37,14,16,104,46,94,68,41,32,4,6,0.6,0.6
2022-11-08T00:00:00,1142A,121.478,31.2036,上海市,十五厂,,39,33,33,24,19,119,15,109,60,77,44,8,8,0.6,0.6
2022-11-08T00:00:00,1143A,121.467,31.3008,上海市,虹口,,31,31,33,17,15,104,36,92,66,44,32,5,6,0.6,0.6
2022-11-08T00:00:00,1144A,121.412,31.1654,上海市,徐汇上师大,,37,37,39,20,16,112,34,100,57,56,45,7,9,0.8,0.7
2022-11-08T00:00:00,1145A,121.536,31.2659,上海市,杨浦四漂,,41,41,39,22,18,123,9,106,54,81,52,8,7,0.7,0.7
2022-11-08T00:00:00,1146A,120.978,31.0935,上海市,青浦淀山湖(对照点),,,,,,,,,,,,,,,,
2022-11-08T00:00:00,1147A,121.425,31.2261,上海市,静安监测站,,39,39,39,20,18,106,38,97,69,49,35,6,7,0.5,0.5
2022-11-08T00:00:00,1148A,121.703,31.1907,上海市,浦东川沙,,42,42,38,18,16,104,30,95,50,44,29,5,5,0.5,0.5
2022-11-08T00:00:00,1149A,121.533,31.2284,上海市,浦东新区监测站,,41,41,33,21,18,105,28,104,62,43,25,6,6,0.6,0.6
2022-11-08T00:00:00,1150A,121.577,31.2071,上海市,浦东张江,,31,31,27,21,17,112,34,103,66,41,28,4,4,0.6,0.6
2022-11-08T00:00:00,1151A,118.8086,32.1065,南京市,迈皋桥,颗粒物(PM10),77,103,77,46,37,144,3,102,34,125,58,4,6,0.7,0.6
2022-11-08T00:00:00,1152A,118.7538,32.0551,南京市,草场门,颗粒物(PM10),68,85,71,44,37,155,60,115,78,87,61,7,9,0.8,0.9
2022-11-08T00:00:00,1153A,118.7794,32.0745,南京市,山西路,颗粒物(PM10),74,97,77,51,40,183,40,134,75,108,52,6,8,0.6,0.6
2022-11-08T00:00:00,1154A,118.7752,32.0023,南京市,中华门,颗粒物(PM10),73,95,74,51,39,146,86,116,90,57,52,9,11,0.7,0.7
2022-11-08T00:00:00,1155A,118.8109,32.0309,南京市,瑞金路,细颗粒物(PM2.5),70,88,80,51,41,152,88,114,55,49,65,6,8,0.7,0.7
2022-11-08T00:00:00,1156A,118.7997,32.0754,南京市,玄武湖,细颗粒物(PM2.5),89,99,80,66,45,169,23,128,64,113,50,5,8,0.5,0.8
2022-11-08T00:00:00,1157A,118.6414,32.0931,南京市,浦口,颗粒物(PM10),65,80,63,44,33,158,114,136,126,29,31,8,6,0.7,0.5
2022-11-08T00:00:00,1158A,118.7356,31.9996,南京市,奥体中心,细颗粒物(PM2.5),77,85,76,56,43,144,43,121,72,98,61,5,8,1.0,0.8
2022-11-08T00:00:00,1159A,118.9125,32.1028,南京市,仙林大学城,颗粒物(PM10),73,95,71,48,34,179,25,135,72,101,51,7,8,0.9,0.8
2022-11-08T00:00:00,1160A,120.561,31.2472,苏州市,上方山(对照点),,48,48,45,31,26,132,16,116,60,61,33,6,6,0.6,0.5
2022-11-08T00:00:00,1161A,120.628,31.2864,苏州市,南门,,,,,,,,,,,,,,,,
2022-11-08T00:00:00,1162A,120.591,31.3019,苏州市,彩香,颗粒物(PM10),55,60,52,33,29,139,36,115,60,47,41,6,7,0.5,0.6
2022-11-08T00:00:00,1163A,120.596,31.3264,苏州市,轧钢厂,颗粒物(PM10),54,58,53,25,26,147,37,121,59,44,42,6,7,0.7,0.7
2022-11-08T00:00:00,1164A,120.613,31.2703,苏州市,吴中区,颗粒物(PM10),53,56,51,26,26,147,29,119,56,53,46,6,8,0.6,0.7
2022-11-08T00:00:00,1165A,120.543,31.2994,苏州市,苏州新区,"颗粒物(PM10),细颗粒物(PM2.5)",58,66,49,41,30,136,35,120,44,44,44,8,8,0.5,0.7
2022-11-08T00:00:00,1166A,120.669,31.3097,苏州市,苏州工业园区,颗粒物(PM10),51,51,49,23,25,113,35,100,60,40,40,5,7,0.6,0.7
2022-11-08T00:00:00,1167A,120.641,31.3708,苏州市,相城区,,48,48,48,24,27,118,20,96,32,62,58,6,7,0.6,0.6
2022-11-08T00:00:00,1168A,120.9098,31.9663,南通市,狼山街道,,25,25,35,17,15,123,16,98,50,42,31,6,7,0.4,0.4
2022-11-08T00:00:00,1169A,120.86,32.0005,南通市,虹桥,细颗粒物(PM2.5),52,44,44,36,27,129,4,104,52,79,45,6,7,0.5,0.5
2022-11-08T00:00:00,1170A,120.87,32.02,南通市,城中,细颗粒物(PM2.5),53,30,38,37,35,137,26,109,62,49,35,5,6,0.2,0.4
2022-11-08T00:00:00,1171A,120.94,31.93,南通市,星湖花园,,37,37,37,24,22,127,11,99,53,63,35,7,8,0.4,0.4
2022-11-08T00:00:00,1172A,120.81,32.0417,南通市,紫琅学院,,48,48,50,31,25,118,3,93,29,72,49,7,9,0.4,0.5
2022-11-08T00:00:00,1173A,119.176,34.5885,连云港市,市环境监测站,细颗粒物(PM2.5),104,112,88,78,52,148,56,113,90,42,33,7,10,0.9,0.7
2022-11-08T00:00:00,1177A,117.179,34.2761,徐州市,黄河新村,细颗粒物(PM2.5),150,171,135,115,83,140,60,107,75,53,62,16,14,1.5,1.2
2022-11-08T00:00:00,1178A,117.1918,34.2384,徐州市,淮塔,细颗粒物(PM2.5),153,157,156,117,90,157,47,123,68,64,66,9,12,1.2,1.1
2022-11-08T00:00:00,1180A,117.256,34.2153,徐州市,新城区,细颗粒物(PM2.5),156,205,138,119,83,164,10,118,49,130,72,18,14,1.7,1.1
2022-11-08T00:00:00,1181A,117.244,34.2911,徐州市,桃园路,细颗粒物(PM2.5),170,185,175,129,100,152,17,118,51,104,74,7,10,1.6,1.2
2022-11-08T00:00:00,1182A,117.2933,34.2778,徐州市,农科院,细颗粒物(PM2.5),156,205,147,119,77,153,3,104,24,115,78,14,13,1.8,1.1
2022-11-08T00:00:00,1186A,119.389,32.3761,扬州市,邗江监测站,颗粒物(PM10),80,110,74,57,38,162,81,139,108,40,37,14,10,0.9,0.8
2022-11-08T00:00:00,1188A,120.269,31.4867,无锡市,雪浪,颗粒物(PM10),53,56,52,34,29,128,40,110,62,44,31,8,7,0.8,0.7
2022-11-08T00:00:00,1189A,120.275,31.6219,无锡市,黄巷,颗粒物(PM10),108,166,76,70,34,148,7,121,34,102,57,13,10,1.5,0.9
2022-11-08T00:00:00,1190A,120.294,31.56,无锡市,曹张,颗粒物(PM10),78,106,61,51,34,150,2,119,27,110,55,13,12,1.3,0.7
2022-11-08T00:00:00,1191A,120.242,31.5031,无锡市,漆塘,,39,34,43,27,29,149,54,125,79,20,21,9,11,0.8,0.8
2022-11-08T00:00:00,1192A,120.3489,31.5863,无锡市,东亭,颗粒物(PM10),82,114,65,53,33,144,0,114,23,107,56,10,9,1.6,1.2
2022-11-08T00:00:00,1193A,120.354,31.5475,无锡市,旺庄,颗粒物(PM10),85,120,68,56,34,136,0,113,25,118,62,13,12,1.5,1.2
2022-11-08T00:00:00,1194A,120.245,31.5631,无锡市,荣巷,细颗粒物(PM2.5),62,58,51,44,31,147,42,126,76,45,39,8,10,0.8,0.7
2022-11-08T00:00:00,1195A,120.299,31.6817,无锡市,堰桥,颗粒物(PM10),79,107,64,56,32,150,7,120,39,93,54,9,8,1.2,1
2022-11-08T00:00:00,1196A,119.9633,31.762,常州市,市监测站,细颗粒物(PM2.5),110,148,82,83,48,134,32,107,35,79,58,9,9,0.9,0.7
2022-11-08T00:00:00,1200A,119.9468,31.7069,常州市,武进监测站,细颗粒物(PM2.5),93,132,75,69,37,142,6,121,46,113,46,11,10,1.2,0.7
2022-11-08T00:00:00,1201A,119.9255,31.9087,常州市,安家,细颗粒物(PM2.5),105,146,79,79,47,154,44,128,66,60,46,19,9,0.7,0.6
2022-11-08T00:00:00,1203A,119.6707,32.1875,镇江市,新区办事处,细颗粒物(PM2.5),93,106,72,69,44,144,63,109,74,53,55,10,11,1.1,1
2022-11-08T00:00:00,1204A,119.4974,32.1968,镇江市,职教中心,细颗粒物(PM2.5),112,100,64,84,49,144,92,127,104,38,39,18,14,0.9,0.8
2022-11-08T00:00:00,1205A,119.4303,32.1328,镇江市,丹徒区监测站,细颗粒物(PM2.5),88,102,63,65,40,150,116,126,112,27,32,12,9,0.5,0.5
2022-11-08T00:00:00,1206A,119.905,32.4878,泰州市,公园路,细颗粒物(PM2.5),107,119,70,80,45,148,32,131,90,51,37,12,13,0.9,0.9
2022-11-08T00:00:00,1207A,119.9189,32.4625,泰州市,莲花,细颗粒物(PM2.5),89,120,120,66,78,328,45,173,109,60,95,15,20,0.9,1.2
2022-11-08T00:00:00,1209A,119.888,32.4639,泰州市,留学生创业园,细颗粒物(PM2.5),95,120,86,71,46,158,46,136,97,49,40,12,14,0.9,0.9
2022-11-08T00:00:00,1210A,119.036,33.5981,淮安市,钵池山,细颗粒物(PM2.5),134,126,91,102,65,149,40,119,71,52,45,7,11,0.9,0.9
2022-11-08T00:00:00,1211A,119.007,33.575,淮安市,北京南路,细颗粒物(PM2.5),125,114,96,95,60,148,37,118,73,50,45,7,11,0.9,1
2022-11-08T00:00:00,1212A,118.989,33.6067,淮安市,市监测站,细颗粒物(PM2.5),135,124,97,103,75,147,75,114,70,42,54,7,9,0.7,1.1
2022-11-08T00:00:00,1213A,119.135,33.5039,淮安市,楚州区监测站,细颗粒物(PM2.5),107,115,95,80,57,149,59,120,85,37,38,9,12,0.8,0.8
2022-11-08T00:00:00,1214A,119.0186,33.6297,淮安市,淮阴区监测站,细颗粒物(PM2.5),142,145,104,108,72,142,46,126,77,58,47,9,11,0.7,0.8
2022-11-08T00:00:00,1215A,120.118,33.4022,盐城市,盐城电厂,细颗粒物(PM2.5),85,68,55,63,48,156,27,128,59,58,34,7,9,0.6,0.6
2022-11-08T00:00:00,1216A,120.156,33.3942,盐城市,市监测站,细颗粒物(PM2.5),88,89,66,65,42,152,16,124,63,67,29,7,9,0.7,0.6
2022-11-08T00:00:00,1218A,120.2144,33.38,盐城市,开发区管委会,细颗粒物(PM2.5),72,59,61,52,41,157,29,124,58,44,31,9,12,0.5,0.5
2022-11-08T00:00:00,1220A,118.293,33.9528,宿迁市,宿迁学院,颗粒物(PM10),112,173,126,75,60,158,66,124,77,54,58,9,11,0.9,0.9
2022-11-08T00:00:00,1221A,118.2442,33.9592,宿迁市,宿迁中学,颗粒物(PM10),105,160,124,58,48,160,77,136,82,47,45,8,10,0.8,0.9
2022-11-08T00:00:00,1223A,120.2072,30.2111,杭州市,滨江,颗粒物(PM10),71,91,74,36,38,119,10,94,48,91,55,7,7,0.7,0.7
2022-11-08T00:00:00,1224A,120.0633,30.2747,杭州市,西溪,颗粒物(PM10),57,63,53,36,32,115,4,98,29,32,29,8,8,0.6,0.7
2022-11-08T00:00:00,1225A,119.026,29.635,杭州市,千岛湖(对照点),,,,,,,,,,,,,,,,
2022-11-08T00:00:00,1226A,120.3461,30.3153,杭州市,下沙,,,67,65,35,38,114,4,94,44,93,60,12,10,0.8,0.7
2022-11-08T00:00:00,1227A,120.1269,30.2456,杭州市,卧龙桥,细颗粒物(PM2.5),75,75,48,55,47,119,1,91,25,36,26,6,6,0.6,0.6
2022-11-08T00:00:00,1228A,120.1903,30.2692,杭州市,浙江农大,颗粒物(PM10),67,83,64,41,38,118,8,97,42,74,53,8,8,0.9,0.8
2022-11-08T00:00:00,1229A,120.157,30.2897,杭州市,朝晖五区,,,,,,,,,,,,,,,,
2022-11-08T00:00:00,1230A,120.1197,30.3119,杭州市,和睦小学,颗粒物(PM10),75,99,78,52,42,106,3,90,40,99,61,2,2,1.0,0.8
2022-11-08T00:00:00,1231A,120.3019,30.4183,杭州市,临平镇,颗粒物(PM10),59,67,86,25,41,136,46,101,64,36,54,6,8,0.7,0.8
2022-11-08T00:00:00,1232A,120.2697,30.1819,杭州市,城厢镇,细颗粒物(PM2.5),67,82,74,48,42,117,4,97,41,92,57,9,8,0.8,0.7
2022-11-08T00:00:00,1233A,120.0883,30.1808,杭州市,云栖,颗粒物(PM10),66,82,62,46,32,112,16,88,41,46,37,6,6,0.6,0.6
2022-11-08T00:00:00,1234A,121.8358,29.911,宁波市,区环保大楼,,37,26,23,12,13,99,3,75,35,74,36,6,6,0.4,0.5
2022-11-08T00:00:00,1235A,121.56,29.82,宁波市,万里学院,,43,43,36,22,21,114,29,97,60,48,31,6,7,0.5,0.5
2022-11-08T00:00:00,1236A,121.713,29.9572,宁波市,龙赛医院,颗粒物(PM10),52,53,53,25,20,88,22,78,62,62,45,10,13,0.7,0.6
2022-11-08T00:00:00,1239A,121.633,29.7733,宁波市,钱湖水厂,,,,20,,15,108,64,94,70,9,11,6,6,0.3,0.4
2022-11-08T00:00:00,1240A,121.5856,29.8635,宁波市,太古小学,,42,29,33,29,22,109,45,94,66,33,32,9,10,0.5,0.5
2022-11-08T00:00:00,1241A,121.524,29.8674,宁波市,市环境监测中心,,32,32,31,14,15,110,17,91,60,47,29,7,8,0.2,0.2
2022-11-08T00:00:00,1242A,120.634,28.0089,温州市,瓯海,颗粒物(PM10),55,59,52,36,28,101,6,86,48,62,42,7,8,0.6,0.5
2022-11-08T00:00:00,1243A,120.6748,27.9939,温州市,南浦,颗粒物(PM10),55,59,48,27,25,95,5,83,42,70,44,6,6,0.5,0.3
2022-11-08T00:00:00,1244A,120.76,27.9747,温州市,龙湾,颗粒物(PM10),52,53,53,19,21,89,19,78,46,60,49,8,8,0.4,0.4
2022-11-08T00:00:00,1245A,120.6709,28.0167,温州市,市站,颗粒物(PM10),54,57,54,23,21,92,24,78,46,47,42,6,7,0.5,0.4
2022-11-08T00:00:00,1246A,120.598,30.0911,绍兴市,袍江站,,,,,,,,,,,,,,,,
2022-11-08T00:00:00,1247A,120.6053,29.9928,绍兴市,城东开发委,细颗粒物(PM2.5),100,132,53,75,33,109,6,95,47,56,33,9,9,0.8,0.6
2022-11-08T00:00:00,1250A,120.0751,30.8669,湖州市,城西水厂,,,63,56,45,32,133,4,109,51,149,56,9,8,0.6,0.5
2022-11-08T00:00:00,1252A,120.7436,30.778,嘉兴市,清河小学,,32,32,39,16,21,131,25,111,60,53,34,8,8,0.4,0.5
2022-11-08T00:00:00,1253A,120.726,30.7478,嘉兴市,嘉兴学院,,36,36,40,23,27,131,42,108,70,35,29,7,7,0.4,0.4
2022-11-08T00:00:00,1255A,121.273,28.6459,台州市,黄岩环保大楼,,23,23,28,13,17,127,50,102,71,18,18,5,6,0.3,0.3
2022-11-08T00:00:00,1256A,121.419,28.6542,台州市,台州环保大楼,,28,28,33,17,17,111,53,101,79,18,23,7,8,0.4,0.4
2022-11-08T00:00:00,1257A,121.377,28.5773,台州市,路桥田洋王,,46,46,40,24,25,112,24,100,62,44,28,8,7,0.5,0.5
2022-11-08T00:00:00,1258A,122.122,30.0203,舟山市,定海檀枫,,18,16,15,6,7,111,55,93,58,16,20,4,5,0.5,0.5
2022-11-08T00:00:00,1259A,122.3094,29.9558,舟山市,普陀东港,,26,13,13,8,7,103,83,92,78,10,12,5,5,0.4,0.4
2022-11-08T00:00:00,1260A,122.19,29.9944,舟山市,临城新区,,18,13,16,8,8,96,56,89,60,12,17,5,6,0.2,0.3
2022-11-08T00:00:00,1261A,119.649,29.1131,金华市,四中(停运161031),,,,,,,,,,,,,,,,
2022-11-08T00:00:00,1262A,119.647,29.077,金华市,十五中,,50,46,50,35,29,108,47,93,63,43,40,4,6,0.6,0.6
2022-11-08T00:00:00,1263A,119.686,29.1029,金华市,监测站,颗粒物(PM10),55,60,52,35,28,104,25,91,53,52,35,6,7,0.5,0.4
2022-11-08T00:00:00,1264A,118.8692,28.9398,衢州市,环保大楼,,47,47,52,27,33,94,60,74,49,25,34,8,7,0.5,0.6
2022-11-08T00:00:00,1265A,118.8709,28.9666,衢州市,实验学校,,35,35,44,24,30,86,70,74,53,20,37,7,7,0.5,0.5
2022-11-08T00:00:00,1266A,118.8621,28.9808,衢州市,衢州学院,,42,42,49,24,29,91,62,76,51,24,32,8,7,0.5,0.4
2022-11-08T00:00:00,1267A,119.914,28.4514,丽水市,监测站大楼,,40,40,34,23,25,99,64,88,79,20,22,7,7,0.4,0.4
2022-11-08T00:00:00,1268A,119.93,28.4586,丽水市,莲都小学,,34,34,35,17,21,104,66,93,82,21,23,6,6,0.4,0.4
2022-11-08T00:00:00,1269A,119.879,28.4231,丽水市,余庄前,,30,30,28,12,12,104,68,87,60,18,17,6,7,0.3,0.3
2022-11-08T00:00:00,1270A,117.1959,31.7848,合肥市,明珠广场,颗粒物(PM10),80,110,89,51,44,152,30,112,28,100,72,11,10,0.9,0.9
2022-11-08T00:00:00,1271A,117.3072,31.8764,合肥市,三里街,颗粒物(PM10),80,110,95,51,46,158,40,130,45,87,76,11,11,0.6,1.1
2022-11-08T00:00:00,1272A,117.2588,31.8707,合肥市,琥珀山庄,细颗粒物(PM2.5),83,107,88,61,50,158,28,123,38,76,49,9,9,0.8,0.9
2022-11-08T00:00:00,1273A,117.1604,31.9052,合肥市,董铺水库(对照点),颗粒物(PM10),82,114,76,53,36,155,54,140,86,61,39,9,9,0.8,0.7
2022-11-08T00:00:00,1274A,117.25,31.8571,合肥市,长江中路,细颗粒物(PM2.5),77,100,87,56,54,164,62,140,65,53,48,11,10,0.9,1
2022-11-08T00:00:00,1275A,117.266,31.9436,合肥市,庐阳区,颗粒物(PM10),79,107,92,48,44,156,62,135,69,53,55,5,6,0.7,0.7
2022-11-08T00:00:00,1276A,117.336,31.8586,合肥市,瑶海区,颗粒物(PM10),79,107,98,54,50,160,55,129,60,63,64,13,14,1.1,1.1
2022-11-08T00:00:00,1277A,117.3027,31.7964,合肥市,包河区,颗粒物(PM10),100,149,99,68,50,156,6,123,26,131,72,11,11,0.9,0.9
2022-11-08T00:00:00,1278A,117.2776,31.7385,合肥市,滨湖新区,颗粒物(PM10),81,112,89,51,42,151,7,128,52,133,67,11,12,1.0,0.8
2022-11-08T00:00:00,1279A,117.1318,31.8403,合肥市,高新区,细颗粒物(PM2.5),79,102,80,58,41,160,31,137,70,101,54,8,8,0.8,0.7
2022-11-08T00:00:00,1280A,119.3903,26.0543,福州市,鼓山(对照点),,,,,,,,,,,,,,,,
2022-11-08T00:00:00,1282A,119.2681,26.0504,福州市,师大,,34,34,28,12,17,75,46,67,61,19,13,5,5,0.7,0.6
2022-11-08T00:00:00,1283A,119.2984,26.1028,福州市,五四北路,,25,25,24,9,14,80,65,71,67,11,13,4,5,0.8,0.8
2022-11-08T00:00:00,1284A,119.2648,26.0768,福州市,杨桥西路,,28,28,29,12,16,75,62,68,64,14,14,5,4,0.7,0.6
2022-11-08T00:00:00,1285A,119.317,26.0746,福州市,紫阳,,26,26,27,9,16,82,70,78,76,12,13,6,6,0.6,0.5
2022-11-08T00:00:00,1286A,118.1608,24.8169,厦门市,溪东(对照点),,,,,,,,,,,,,,,,
2022-11-08T00:00:00,1287A,118.1514,24.4767,厦门市,洪文,,26,25,27,18,15,77,52,65,52,18,21,3,2,0.3,0.3
2022-11-08T00:00:00,1288A,118.0661,24.4444,厦门市,鼓浪屿,,20,20,23,12,13,81,52,68,57,17,21,4,4,0.2,0.2
2022-11-08T00:00:00,1290A,115.8931,28.6843,南昌市,省外办,颗粒物(PM10),59,67,73,30,36,123,36,103,52,58,44,9,10,0.7,0.8
2022-11-08T00:00:00,1291A,115.8886,28.7003,南昌市,省林业公司,颗粒物(PM10),58,66,76,34,36,120,24,100,51,78,47,9,10,0.7,0.8
2022-11-08T00:00:00,1292A,115.8126,28.7442,南昌市,林科所,,24,24,50,12,29,131,72,114,88,23,31,8,11,0.5,0.6
2022-11-08T00:00:00,1294A,115.8518,28.687,南昌市,建工学校,颗粒物(PM10),51,51,68,28,32,129,82,109,79,30,42,13,15,0.7,0.9
2022-11-08T00:00:00,1295A,115.8921,28.6424,南昌市,象湖,颗粒物(PM10),58,65,68,34,39,133,23,108,58,74,48,8,9,0.7,1
2022-11-08T00:00:00,1296A,115.7423,28.7996,南昌市,武术学校(对照点),,29,25,27,20,23,122,24,106,63,6,10,6,8,0.4,0.3
2022-11-08T00:00:00,1298A,115.9314,28.6842,南昌市,省站,颗粒物(PM10),83,116,92,39,42,118,48,98,49,51,50,10,12,0.7,0.8
2022-11-08T00:00:00,1299A,116.9862,36.6114,济南市,科干所,细颗粒物(PM2.5),132,144,137,100,78,115,40,88,58,51,51,8,9,1.0,0.9
2022-11-08T00:00:00,1300A,116.9376,36.665,济南市,农科所,细颗粒物(PM2.5),117,166,134,88,65,109,2,91,26,94,64,8,9,1.0,0.7
2022-11-08T00:00:00,1301A,117.1265,36.6734,济南市,开发区,细颗粒物(PM2.5),139,183,138,106,76,110,5,83,32,94,75,9,11,1.4,0.8
2022-11-08T00:00:00,1303A,117.0624,36.6868,济南市,省种子仓库,细颗粒物(PM2.5),144,195,144,110,85,114,8,89,36,104,74,7,7,1.1,0.9
2022-11-08T00:00:00,1304A,116.9489,36.6447,济南市,机床二厂,细颗粒物(PM2.5),135,168,140,103,85,118,7,99,37,104,65,9,10,1.5,1.1
2022-11-08T00:00:00,1305A,117.0495,36.663,济南市,市监测站,细颗粒物(PM2.5),113,166,141,85,70,116,4,92,35,99,74,9,11,1.3,0.9
2022-11-08T00:00:00,1306A,116.7675,36.5484,济南市,长清党校,细颗粒物(PM2.5),104,154,137,78,70,124,27,103,61,85,57,8,13,0.9,0.9
2022-11-08T00:00:00,1307A,120.6659,36.2403,青岛市,仰口(对照点),细颗粒物(PM2.5),134,156,81,102,46,142,119,136,126,26,19,8,6,0.5,0.5
2022-11-08T00:00:00,1308A,120.3905,36.1851,青岛市,李沧区子站,,,,,,,,,,,,,,,,
2022-11-08T00:00:00,1309A,120.3471,36.0699,青岛市,市北区子站,,,,,,,,,,,,,,,,
2022-11-08T00:00:00,1310A,120.4134,36.0658,青岛市,市南区东部子站,细颗粒物(PM2.5),168,205,89,127,44,142,42,119,70,58,35,13,11,1.3,0.9
2022-11-08T00:00:00,1311A,120.3664,36.1032,青岛市,四方区子站,细颗粒物(PM2.5),188,237,93,141,51,129,12,105,54,85,45,8,9,1.2,0.8
2022-11-08T00:00:00,1312A,120.2994,36.054,青岛市,市南区西部子站,细颗粒物(PM2.5),165,183,83,125,45,146,50,125,93,48,33,12,11,1.4,0.9
2022-11-08T00:00:00,1313A,120.4581,36.0858,青岛市,崂山区子站,细颗粒物(PM2.5),168,200,95,127,45,141,51,118,78,53,36,10,9,0.9,0.6
2022-11-08T00:00:00,1314A,120.1983,35.9608,青岛市,黄岛区子站,细颗粒物(PM2.5),196,215,95,147,51,140,19,115,40,88,52,11,9,1.5,0.8
2022-11-08T00:00:00,1315A,120.3999,36.3083,青岛市,城阳区子站,细颗粒物(PM2.5),143,216,91,109,41,130,11,111,51,78,46,7,8,1.4,0.8
2022-11-08T00:00:00,1316A,113.69031,34.76122,郑州市,烟厂,细颗粒物(PM2.5),134,89,116,102,116,125,72,114,92,27,33,12,10,0.7,1
2022-11-08T00:00:00,1317A,113.65724,34.77134,郑州市,郑纺机,细颗粒物(PM2.5),138,95,118,105,120,130,69,117,93,30,35,18,16,0.9,1.2
2022-11-08T00:00:00,1318A,113.67526,34.80246,郑州市,银行学校,细颗粒物(PM2.5),132,90,112,100,116,128,72,116,94,33,39,17,14,1.0,1.3
2022-11-08T00:00:00,1319A,113.56746,34.81334,郑州市,供水公司,细颗粒物(PM2.5),124,116,116,94,93,130,70,116,95,28,36,15,12,0.8,1.2
2022-11-08T00:00:00,1320A,113.7329,34.7178,郑州市,经开区管委,细颗粒物(PM2.5),148,107,120,113,106,125,64,114,90,24,28,12,10,0.9,1.1
2022-11-08T00:00:00,1321A,113.73961,34.77172,郑州市,四十七中,"颗粒物(PM10),细颗粒物(PM2.5)",89,127,133,66,80,125,71,114,89,27,37,19,14,0.9,1.2
2022-11-08T00:00:00,1322A,113.60532,34.74838,郑州市,市监测站,颗粒物(PM10),83,116,140,51,70,130,73,116,95,25,32,16,14,0.7,1
2022-11-08T00:00:00,1323A,113.64164,34.7525,郑州市,河医大,细颗粒物(PM2.5),133,104,124,101,108,121,66,109,88,32,38,17,15,0.9,1.3
2022-11-08T00:00:00,1324A,113.51488,34.91089,郑州市,岗李水库(对照点),,,,,,,,,,,,,,,,
2022-11-08T00:00:00,1325A,114.3677,30.5584,武汉市,东湖梨园,颗粒物(PM10),66,82,71,46,42,180,115,149,120,28,50,10,13,0.9,1.2
2022-11-08T00:00:00,1326A,114.2529,30.558,武汉市,汉阳月湖,颗粒物(PM10),68,85,75,39,46,160,66,116,56,57,80,7,12,0.9,1.3
2022-11-08T00:00:00,1327A,114.282,30.6189,武汉市,汉口花桥,颗粒物(PM10),75,100,86,32,47,164,108,138,78,23,73,5,12,0.6,1.4
2022-11-08T00:00:00,1328A,114.3025,30.5332,武汉市,武昌紫阳,颗粒物(PM10),63,76,73,40,48,174,83,128,69,45,72,10,15,1.0,1.6
2022-11-08T00:00:00,1329A,114.3646,30.6217,武汉市,青山钢花,细颗粒物(PM2.5),73,89,93,53,57,159,100,113,56,38,81,10,22,0.8,1.7
2022-11-08T00:00:00,1330A,114.1566,30.4825,武汉市,沌口新区,细颗粒物(PM2.5),77,82,85,56,52,149,78,123,76,68,86,13,22,0.9,1.3
2022-11-08T00:00:00,1331A,114.3014,30.5944,武汉市,汉口江滩,颗粒物(PM10),63,76,78,36,51,179,107,140,88,22,72,8,16,0.7,1.3
2022-11-08T00:00:00,1333A,114.135,30.6319,武汉市,吴家山,颗粒物(PM10),59,68,82,34,47,168,100,128,76,36,74,10,12,0.7,1.2
2022-11-08T00:00:00,1334A,113.8454,30.2917,武汉市,沉湖七壕(对照点),颗粒物(PM10),76,102,60,53,33,154,65,137,103,40,40,10,10,1.0,0.8
2022-11-08T00:00:00,1335A,113.0833,28.2325,长沙市,经开区环保局,细颗粒物(PM2.5),75,66,50,55,32,153,66,131,108,62,33,11,10,0.9,0.7
2022-11-08T00:00:00,1336A,112.8872,28.2189,长沙市,高开区环保局,细颗粒物(PM2.5),65,62,47,47,34,157,28,143,114,91,27,10,11,0.8,0.6
2022-11-08T00:00:00,1337A,113.0792,28.2053,长沙市,马坡岭,细颗粒物(PM2.5),77,71,60,56,36,152,49,123,90,61,34,10,10,0.7,0.6
2022-11-08T00:00:00,1338A,112.9394,28.19,长沙市,湖南师范大学,细颗粒物(PM2.5),60,52,49,43,38,140,82,121,104,18,18,8,8,0.8,0.8
2022-11-08T00:00:00,1339A,113.0178,28.1322,长沙市,雨花区环保局,颗粒物(PM10),65,79,58,46,29,136,72,116,91,46,34,11,11,0.4,0.5
2022-11-08T00:00:00,1340A,112.9792,28.2597,长沙市,伍家岭,细颗粒物(PM2.5),69,78,69,50,34,164,81,124,97,38,43,9,8,0.6,0.6
2022-11-08T00:00:00,1341A,113.0014,28.1944,长沙市,火车新站,颗粒物(PM10),62,74,55,39,30,144,62,120,93,49,32,10,10,0.8,0.7
2022-11-08T00:00:00,1342A,112.9844,28.1178,长沙市,天心区环保局,细颗粒物(PM2.5),63,70,53,45,32,149,84,132,105,38,31,11,15,0.7,0.6
2022-11-08T00:00:00,1343A,112.8908,28.1308,长沙市,湖南中医药大学,颗粒物(PM10),63,76,74,43,34,129,30,103,70,61,43,4,5,0.6,0.5
2022-11-08T00:00:00,1344A,112.9581,28.3611,长沙市,沙坪(对照点),细颗粒物(PM2.5),68,51,35,49,29,132,56,123,102,30,21,2,5,0.7,0.5
2022-11-08T00:00:00,1345A,113.2347,23.1423,广州市,广雅中学,,20,19,28,12,17,40,7,27,10,39,38,3,4,0.7,0.8
2022-11-08T00:00:00,1346A,113.2612,23.105,广州市,市五中,,23,22,22,16,17,40,4,36,19,46,33,5,4,0.9,0.8
2022-11-08T00:00:00,1348A,113.3478,23.0916,广州市,广东商学院,,28,28,20,19,14,30,3,26,13,41,29,6,4,0.8,0.7
2022-11-08T00:00:00,1349A,113.4332,23.1047,广州市,市八十六中,,32,32,22,18,15,42,5,27,9,45,34,7,6,0.9,0.8
2022-11-08T00:00:00,1350A,113.3505,22.9483,广州市,番禺中学,,25,21,18,17,14,55,3,34,16,45,35,5,5,0.9,0.9
2022-11-08T00:00:00,1351A,113.2146,23.3916,广州市,花都师范,,27,27,21,16,14,50,3,44,22,36,22,6,6,0.7,0.7
2022-11-08T00:00:00,1352A,113.2597,23.1331,广州市,市监测站,,23,23,26,12,15,38,3,32,14,38,32,5,5,0.8,0.8
2022-11-08T00:00:00,1353A,113.5618,23.312,广州市,九龙镇镇龙,,21,21,23,14,16,31,8,24,14,23,23,5,5,0.7,0.7
2022-11-08T00:00:00,1354A,113.2765,23.1544,广州市,麓湖,,17,17,21,10,13,38,3,31,10,30,25,2,2,0.6,0.6
2022-11-08T00:00:00,1355A,113.443,23.3035,广州市,帽峰山森林公园(对照点),,28,28,30,17,18,37,26,29,18,11,14,5,5,0.5,0.6
2022-11-08T00:00:00,1356A,114.1063,22.5545,深圳市,通心岭子站,,23,23,18,14,11,28,16,21,15,21,27,3,3,0.5,0.5
2022-11-08T00:00:00,1357A,114.117,22.5625,深圳市,洪湖,,23,23,18,12,10,27,22,22,19,23,31,6,6,0.8,0.8
2022-11-08T00:00:00,1358A,113.987,22.5417,深圳市,华侨城,,19,19,15,13,9,32,15,21,14,21,27,6,6,0.6,0.6
2022-11-08T00:00:00,1359A,113.9181,22.5171,深圳市,南海子站,,23,23,16,13,11,45,6,27,5,39,31,3,3,0.6,0.7
2022-11-08T00:00:00,1360A,114.2458,22.5689,深圳市,盐田,,23,23,12,14,6,49,25,42,29,18,18,5,5,0.7,0.7
2022-11-08T00:00:00,1361A,114.2283,22.7244,深圳市,龙岗,,20,20,17,13,10,28,16,21,18,26,28,4,4,0.6,0.6
2022-11-08T00:00:00,1362A,113.8953,22.5861,深圳市,西乡,,,,,,,,,,,,,,,,
2022-11-08T00:00:00,1363A,114.494,22.5422,深圳市,南澳,,25,25,13,12,6,79,58,55,44,10,12,6,4,0.6,0.6
2022-11-08T00:00:00,1364A,114.41,22.6342,深圳市,葵涌,,20,20,12,14,8,43,17,34,24,12,11,8,8,0.7,0.6
2022-11-08T00:00:00,1365A,114.297,22.5978,深圳市,梅沙,,26,26,13,13,7,47,24,40,30,16,13,7,7,0.5,0.5
2022-11-08T00:00:00,1366A,114.0678,22.738,深圳市,观澜,,34,34,16,20,9,32,1,23,9,35,25,7,7,0.8,0.7
2022-11-08T00:00:00,1367A,113.5814,22.2618,珠海市,吉大,,19,18,13,13,13,47,16,38,25,30,24,5,5,0.6,0.6
2022-11-08T00:00:00,1368A,113.4881,22.2335,珠海市,前山,,23,18,13,6,13,40,3,28,10,46,37,6,5,0.6,0.6
2022-11-08T00:00:00,1369A,113.628,22.4251,珠海市,唐家,,23,17,17,16,13,45,13,34,23,33,25,6,6,0.6,0.6
2022-11-08T00:00:00,1370A,113.299,22.2281,珠海市,斗门,,13,13,14,9,10,37,19,32,24,24,31,6,6,0.5,0.6
2022-11-08T00:00:00,1371A,113.1294,23.0067,佛山市,湾梁,,27,27,29,12,13,72,4,41,18,43,36,8,7,0.8,0.8
2022-11-08T00:00:00,1372A,113.1083,23.0478,佛山市,华材职中,,39,39,29,18,19,39,2,27,14,38,34,6,6,0.6,0.5
2022-11-08T00:00:00,1373A,113.144,23.0453,佛山市,南海气象局,,32,32,29,19,17,73,0,38,11,42,37,5,5,0.5,0.4
2022-11-08T00:00:00,1374A,113.2881,22.8094,佛山市,顺德苏岗,,18,5,8,9,12,45,10,28,16,36,37,5,5,0.8,0.9
2022-11-08T00:00:00,1375A,113.2544,22.7642,佛山市,容桂街道办,,,,,,,,,,,,,,,,
2022-11-08T00:00:00,1376A,112.8383,22.8678,佛山市,高明孔堂,,36,36,37,16,21,56,5,44,20,39,32,6,8,0.8,0.8
2022-11-08T00:00:00,1377A,112.8836,23.1588,佛山市,三水监测站,,39,34,31,27,22,53,3,40,16,49,33,6,7,0.8,0.8
2022-11-08T00:00:00,1378A,112.867,23.185,佛山市,三水云东海,,31,31,27,18,17,60,2,44,14,30,25,5,6,0.6,0.6
2022-11-08T00:00:00,1379A,113.3769,22.5211,中山市,华柏园,,25,16,20,17,18,37,11,27,20,37,41,5,5,0.6,0.7
2022-11-08T00:00:00,1380A,113.3881,22.5497,中山市,张溪,,20,11,20,14,18,33,9,23,18,36,38,5,5,0.6,0.7
2022-11-08T00:00:00,1381A,113.4075,22.5111,中山市,紫马岭,,17,17,19,11,12,45,8,32,21,29,30,6,6,0.5,0.6
2022-11-08T00:00:00,1382A,113.4411,22.4853,中山市,长江旅游区(对照点),,,,17,,14,60,,41,37,,28,,7,,0.6
2022-11-08T00:00:00,1383A,113.1064,22.6058,江门市,北街,,16,11,29,11,16,35,27,27,18,28,41,6,6,0.5,0.7
2022-11-08T00:00:00,1384A,113.0731,22.5835,江门市,西区,,21,21,28,10,16,32,29,25,14,25,41,6,6,0.6,0.8
2022-11-08T00:00:00,1385A,113.0219,22.5311,江门市,圭峰西,,21,21,24,13,18,30,18,24,9,34,42,5,5,0.7,0.8
2022-11-08T00:00:00,1386A,113.0828,22.5947,江门市,东湖,,18,18,28,10,16,30,27,24,14,22,37,6,6,0.6,0.8
2022-11-08T00:00:00,1387A,113.7875,23.0457,东莞市,东城主山,,,,,,,,,,,,,,,,
2022-11-08T00:00:00,1388A,113.7533,23.0202,东莞市,南城元岭,,,,,,,,,,,,,,,,
2022-11-08T00:00:00,1389A,113.7547,23.0494,东莞市,莞城梨川,,32,25,19,22,16,52,15,39,26,35,28,8,7,0.9,0.9
2022-11-08T00:00:00,1390A,113.7944,23.0128,东莞市,东城石井,,32,28,19,22,16,44,2,31,16,38,26,10,9,0.8,0.8
2022-11-08T00:00:00,1391A,113.7383,22.9658,东莞市,南城西平,,27,27,19,15,13,42,3,30,17,43,33,8,7,0.7,0.6
2022-11-08T00:00:00,1392A,114.4183,23.0528,惠州市,河南岸金山湖子站,,26,20,20,18,13,36,23,31,27,18,17,8,6,0.7,0.7
2022-11-08T00:00:00,1393A,114.4053,23.0822,惠州市,下埔横江三路子站,,20,18,14,14,13,42,31,36,32,15,17,6,6,0.5,0.5
2022-11-08T00:00:00,1394A,114.4103,23.1142,惠州市,江北云山西路子站,,19,11,17,13,13,43,34,36,36,7,11,2,4,0.4,0.5
2022-11-08T00:00:00,1395A,114.4645,22.7833,惠州市,惠阳区承修路船湖子站,,30,30,19,20,15,37,12,32,21,22,17,3,3,0.6,0.5
2022-11-08T00:00:00,1396A,114.5317,22.7422,惠州市,大亚湾管委会子站,,22,22,16,10,12,34,15,29,21,18,16,3,3,0.5,0.5
2022-11-08T00:00:00,1397A,112.4267,23.0706,肇庆市,睦岗子站,,38,38,32,20,20,62,9,53,32,47,34,5,7,0.7,0.7
2022-11-08T00:00:00,1398A,112.4645,23.0475,肇庆市,城中子站,,46,46,35,26,22,76,14,63,41,48,30,13,17,0.8,0.8
2022-11-08T00:00:00,1399A,112.5544,23.1522,肇庆市,坑口子站,"颗粒物(PM10),细颗粒物(PM2.5)",52,54,51,36,34,64,13,52,32,42,30,9,10,0.7,0.7
2022-11-08T00:00:00,1400A,112.4753,23.1,肇庆市,七星岩子站(对照点),,34,34,30,18,17,63,19,52,36,29,23,5,5,0.7,0.8
2022-11-08T00:00:00,1401A,108.3103,22.7881,南宁市,二十一中,"颗粒物(PM10),细颗粒物(PM2.5)",64,77,47,46,28,141,14,128,72,78,31,8,8,1.1,0.7
2022-11-08T00:00:00,1402A,108.3141,22.8528,南宁市,北湖,颗粒物(PM10),107,163,67,61,35,134,5,118,62,59,33,13,12,0.8,0.7
2022-11-08T00:00:00,1403A,108.3206,22.8225,南宁市,市监测站,颗粒物(PM10),81,111,57,47,32,129,6,110,64,87,45,13,11,1.0,0.7
2022-11-08T00:00:00,1404A,108.3829,22.8037,南宁市,大自然花园,颗粒物(PM10),59,68,40,37,27,130,18,114,72,71,24,6,7,1.0,0.9
2022-11-08T00:00:00,1405A,108.4394,22.7904,南宁市,仙葫(对照点),颗粒物(PM10),96,141,65,28,27,115,3,109,62,66,28,9,11,0.9,0.8
2022-11-08T00:00:00,1406A,108.2397,22.8467,南宁市,区农职院,细颗粒物(PM2.5),53,45,56,37,36,158,66,140,94,28,35,8,10,0.6,0.6
2022-11-08T00:00:00,1407A,108.3275,22.735,南宁市,英华嘉园,颗粒物(PM10),66,81,45,41,27,127,4,109,49,108,38,8,8,1.1,0.7
2022-11-08T00:00:00,1408A,108.2257,22.7757,南宁市,沙井镇街道办,颗粒物(PM10),82,113,77,52,37,149,9,125,72,84,51,15,10,0.7,0.7
2022-11-08T00:00:00,1409A,110.576,19.9507,海口市,东寨港(对照点),,,4,9,6,6,64,48,59,54,,,6,6,0.3,0.3
2022-11-08T00:00:00,1410A,110.3232,20.0574,海口市,海南大学,,26,7,12,6,8,105,82,96,93,6,7,3,3,0.6,0.6
2022-11-08T00:00:00,1411A,110.283,20.0053,海口市,秀英海南医院,,24,11,15,7,7,96,76,90,87,6,8,4,4,0.5,0.5
2022-11-08T00:00:00,1412A,110.338,19.9969,海口市,海南师范大学,,23,14,15,9,6,94,73,89,84,6,7,4,5,0.5,0.6
2022-11-08T00:00:00,1413A,110.33,20.0356,海口市,龙华路环保局宿舍,,24,7,15,7,6,95,75,88,85,4,6,3,3,0.6,0.7
2022-11-08T00:00:00,1414A,106.3787,29.8279,重庆市,缙云山(对照点),细颗粒物(PM2.5),63,59,69,45,38,109,98,96,95,12,18,5,5,0.6,0.6
2022-11-08T00:00:00,1416A,106.4213,29.8253,重庆市,天生,细颗粒物(PM2.5),93,125,99,69,71,113,4,93,56,56,39,10,14,0.9,0.9
2022-11-08T00:00:00,1417A,106.6263,29.7228,重庆市,两路,细颗粒物(PM2.5),79,79,78,58,51,110,15,92,46,73,55,10,11,1.1,0.9
2022-11-08T00:00:00,1418A,106.2953,29.5983,重庆市,虎溪,细颗粒物(PM2.5),93,86,90,69,72,111,19,91,61,57,42,17,13,1.1,1.1
2022-11-08T00:00:00,1419A,106.5777,29.5102,重庆市,南坪,细颗粒物(PM2.5),109,126,94,82,62,109,7,88,49,97,55,8,8,1.2,1
2022-11-08T00:00:00,1420A,106.6556,29.6277,重庆市,唐家沱,细颗粒物(PM2.5),79,97,94,58,50,32,5,32,10,80,63,9,11,0.7,0.7
2022-11-08T00:00:00,1421A,106.6349,29.4906,重庆市,茶园,细颗粒物(PM2.5),120,143,109,91,65,112,14,86,38,99,75,10,11,0.9,0.8
2022-11-08T00:00:00,1422A,106.3754,29.4572,重庆市,白市驿,,,,121,18,71,133,55,101,81,20,42,12,15,1.2,1
2022-11-08T00:00:00,1425A,106.6205,29.7166,重庆市,空港,细颗粒物(PM2.5),94,113,86,70,60,153,45,118,75,76,44,10,9,1.0,0.9
2022-11-08T00:00:00,1426A,106.4782,29.4875,重庆市,新山村,细颗粒物(PM2.5),105,144,109,79,67,98,5,73,37,99,70,8,10,1.1,0.9
2022-11-08T00:00:00,1427A,106.5616,29.6453,重庆市,礼嘉,细颗粒物(PM2.5),89,101,87,66,56,103,21,83,53,66,64,14,14,0.8,0.7
2022-11-08T00:00:00,1428A,106.4522,29.7091,重庆市,蔡家,细颗粒物(PM2.5),82,86,96,60,60,96,13,74,44,59,53,6,8,0.8,0.9
2022-11-08T00:00:00,1429A,106.5093,29.3917,重庆市,鱼新街,细颗粒物(PM2.5),132,182,120,100,79,101,6,73,29,76,62,16,19,1.6,1.4
2022-11-08T00:00:00,1431A,103.9728,30.7236,成都市,金泉两河,,50,50,64,33,42,59,0,44,17,35,29,2,3,0.8,0.6
2022-11-08T00:00:00,1432A,104.1419,30.6764,成都市,十里店,细颗粒物(PM2.5),57,59,68,40,51,69,2,52,23,57,38,9,5,0.8,0.6
2022-11-08T00:00:00,1433A,104.0594,30.5767,成都市,三瓦窑,细颗粒物(PM2.5),60,61,72,43,49,65,0,50,18,49,36,4,3,0.6,0.5
2022-11-08T00:00:00,1434A,104.1122,30.6306,成都市,沙河铺,细颗粒物(PM2.5),55,49,74,39,50,72,4,53,24,41,33,5,4,0.8,0.7
2022-11-08T00:00:00,1437A,104.0431,30.6556,成都市,君平街,细颗粒物(PM2.5),67,55,65,48,53,65,2,56,26,58,34,6,5,1.0,0.9
2022-11-08T00:00:00,1438A,103.6202,31.0201,成都市,灵岩寺(对照点),,15,14,25,10,17,70,40,58,44,14,13,1,3,0.7,0.8
2022-11-08T00:00:00,1439A,106.6899,26.5998,贵阳市,马鞍山,细颗粒物(PM2.5),55,53,55,39,42,120,14,106,48,36,22,4,5,0.8,0.8
2022-11-08T00:00:00,1440A,106.6971,26.5694,贵阳市,市环保站,颗粒物(PM10),73,95,87,45,46,106,3,90,26,72,54,6,6,0.8,0.7
2022-11-08T00:00:00,1441A,106.6243,26.6266,贵阳市,鉴湖路,颗粒物(PM10),52,53,62,34,37,102,59,86,70,37,22,5,6,1.0,0.5
2022-11-08T00:00:00,1442A,106.7487,26.6343,贵阳市,燕子冲,细颗粒物(PM2.5),64,53,66,46,50,134,31,116,60,33,30,5,5,0.6,0.6
2022-11-08T00:00:00,1443A,106.6555,26.4365,贵阳市,碧云窝,细颗粒物(PM2.5),73,83,75,53,44,118,25,110,68,35,23,5,6,0.6,0.5
2022-11-08T00:00:00,1444A,106.694,26.5161,贵阳市,中院村,细颗粒物(PM2.5),89,105,86,66,55,110,7,97,39,77,49,12,11,1.0,0.7
2022-11-08T00:00:00,1445A,106.7109,26.6027,贵阳市,红边门,细颗粒物(PM2.5),70,75,73,51,50,120,3,100,33,81,55,12,8,1.0,0.9
2022-11-08T00:00:00,1446A,106.7164,26.5699,贵阳市,新华路,颗粒物(PM10),67,83,71,46,46,120,7,106,42,67,47,4,6,0.7,0.6
2022-11-08T00:00:00,1447A,106.674,26.5424,贵阳市,太慈桥,颗粒物(PM10),64,78,68,44,38,111,14,103,50,35,25,5,5,0.6,0.5
2022-11-08T00:00:00,1450A,102.8204,24.8886,昆明市,呈贡新区,,32,32,33,21,22,104,45,95,69,32,27,10,8,0.4,0.5
2022-11-08T00:00:00,1451A,102.6251,24.9608,昆明市,西山森林公园(对照点),,25,24,22,17,15,97,68,89,80,11,8,13,9,0.5,0.6
2022-11-08T00:00:00,1452A,102.7252,25.0902,昆明市,龙泉镇,颗粒物(PM10),62,73,41,27,21,100,5,80,32,44,28,5,5,0.8,0.7
2022-11-08T00:00:00,1453A,102.7266,25.0375,昆明市,东风东路,,41,41,40,20,21,102,48,88,64,23,30,8,7,0.6,0.6
2022-11-08T00:00:00,1454A,102.6742,25.0669,昆明市,金鼎山,,40,40,60,28,37,102,41,88,62,26,24,8,40,0.5,0.6
2022-11-08T00:00:00,1455A,102.6644,25.0401,昆明市,碧鸡广场,颗粒物(PM10),51,51,42,33,24,101,26,84,50,45,34,13,12,0.5,0.7
2022-11-08T00:00:00,1456A,91.1319,29.6514,拉萨市,八廓街,,,14,13,,,106,69,98,80,10,8,8,7,0,0
2022-11-08T00:00:00,1457A,91.1221,29.6747,拉萨市,市环保局,,21,16,13,10,8,104,67,96,82,10,9,2,1,0.5,0.3
2022-11-08T00:00:00,1458A,91.0874,29.6475,拉萨市,区监测站,,25,12,10,4,3,113,78,104,90,10,7,9,8,0.4,0.4
2022-11-08T00:00:00,1459A,91.1774,29.6541,拉萨市,西藏大学,,26,18,15,5,3,106,82,100,91,9,9,11,10,0.3,0.1
2022-11-08T00:00:00,1460A,90.9798,29.6588,拉萨市,区辐射站,,16,14,10,11,7,100,44,91,75,28,11,9,9,0.4,0.3
2022-11-08T00:00:00,1461A,91.0834,29.6292,拉萨市,拉萨火车站,,32,14,11,6,3,106,25,99,83,63,12,11,10,0,0
2022-11-08T00:00:00,1462A,108.882,34.2749,西安市,高压开关厂,细颗粒物(PM2.5),222,240,221,172,157,50,5,26,6,88,86,8,11,1.2,1.2
2022-11-08T00:00:00,1463A,108.993,34.2629,西安市,兴庆小区,细颗粒物(PM2.5),145,207,139,111,79,84,4,34,4,101,73,7,8,1.4,1.1
2022-11-08T00:00:00,1464A,109.06,34.2572,西安市,纺织城,细颗粒物(PM2.5),132,207,155,100,76,82,3,32,5,76,68,9,10,1.4,1.1
2022-11-08T00:00:00,1465A,108.9356,34.2173,西安市,小寨,细颗粒物(PM2.5),169,242,196,128,104,11,3,7,3,95,96,10,11,1.2,1.2
2022-11-08T00:00:00,1466A,108.954,34.2713,西安市,市人民体育场,细颗粒物(PM2.5),201,216,160,151,120,85,4,37,6,88,76,7,8,1.1,1
2022-11-08T00:00:00,1467A,108.8922,34.2322,西安市,高新西区,细颗粒物(PM2.5),189,226,205,142,121,20,7,16,9,96,93,9,9,1.1,1.4
2022-11-08T00:00:00,1468A,108.935,34.3474,西安市,经开区,细颗粒物(PM2.5),183,195,156,138,120,107,2,67,19,96,71,9,12,1.2,1
2022-11-08T00:00:00,1469A,108.906,34.1546,西安市,长安区,细颗粒物(PM2.5),166,204,178,126,105,20,4,15,8,70,72,7,8,1.2,1.1
2022-11-08T00:00:00,1470A,109.2,34.6575,西安市,阎良区,,,,,,,,,,,,,,,,
2022-11-08T00:00:00,1471A,109.2186,34.3731,西安市,临潼区,颗粒物(PM10),139,227,160,105,88,122,6,99,52,95,57,9,11,1.4,1.1
2022-11-08T00:00:00,1472A,108.869,34.378,西安市,草滩(对照点),细颗粒物(PM2.5),147,202,141,112,97,106,21,70,26,78,62,11,12,1.3,1.1
2022-11-08T00:00:00,1473A,108.985,34.1978,西安市,曲江文化产业集团,细颗粒物(PM2.5),203,226,193,153,120,11,2,7,2,95,84,6,7,1.5,1.3
2022-11-08T00:00:00,1474A,109.051,34.3213,西安市,广运潭,细颗粒物(PM2.5),160,204,139,122,87,106,3,59,16,90,61,8,10,1.2,1
2022-11-08T00:00:00,1476A,103.631,36.1031,兰州市,兰炼宾馆,细颗粒物(PM2.5),77,83,73,56,44,159,5,106,44,82,54,13,24,0.8,0.8
2022-11-08T00:00:00,1477A,104.1373,35.9454,兰州市,榆中兰大校区(对照点),,,,,,,,,,,,,,,,
2022-11-08T00:00:00,1478A,103.8412,36.0726,兰州市,生物制品所,"颗粒物(PM10),细颗粒物(PM2.5)",53,56,70,37,39,100,5,71,30,64,51,8,12,1.2,1.2
2022-11-08T00:00:00,1479A,103.831,36.0464,兰州市,铁路设计院,,49,47,63,34,39,104,6,76,31,64,55,12,16,1.0,1.2
2022-11-08T00:00:00,1480A,101.748,36.6428,西宁市,市环境监测站,,,,,,,,,,,,,,,,
2022-11-08T00:00:00,1482A,101.834,36.5819,西宁市,四陆医院,,,,,,,,,,,,,,,,
2022-11-08T00:00:00,1483A,101.524,36.6867,西宁市,第五水厂(对照点),,,,,,,,,,,,,,,,
2022-11-08T00:00:00,1484A,105.9512,38.6016,银川市,贺兰山马莲口(对照点),,37,37,34,25,19,103,103,96,96,16,22,16,22,0.5,0.7
2022-11-08T00:00:00,1488A,106.2328,38.4975,银川市,贺兰山东路,细颗粒物(PM2.5),98,125,69,73,41,108,17,92,60,77,46,25,16,1.3,0.9
2022-11-08T00:00:00,1489A,106.1358,38.5036,银川市,学院路,颗粒物(PM10),85,119,77,47,33,112,39,88,62,55,42,23,18,1.2,1.2
2022-11-08T00:00:00,1490A,87.5801,43.8303,乌鲁木齐市,监测站,细颗粒物(PM2.5),97,115,91,72,61,72,1,56,36,84,52,7,8,1.7,1.4
2022-11-08T00:00:00,1491A,87.6046,43.768,乌鲁木齐市,收费所,细颗粒物(PM2.5),94,90,83,70,64,86,31,73,57,58,42,10,10,0.6,0.7
2022-11-08T00:00:00,1492A,87.4754,43.9469,乌鲁木齐市,新疆农科院农场(对照点),细颗粒物(PM2.5),142,48,36,108,83,49,1,36,18,76,58,8,8,1.7,1.6
2022-11-08T00:00:00,1493A,87.5525,43.8711,乌鲁木齐市,铁路局,细颗粒物(PM2.5),119,135,95,90,66,70,2,53,34,80,46,6,8,1.6,1.4
2022-11-08T00:00:00,1494A,87.6432,43.831,乌鲁木齐市,三十一中学,,,140,124,,,89,24,68,56,64,39,14,14,0.8,0.7
2022-11-08T00:00:00,1496A,87.7216,44.1747,乌鲁木齐市,米东区环保局,细颗粒物(PM2.5),139,191,184,106,117,97,1,74,50,53,38,10,14,0.9,1
2022-11-08T00:00:00,1508A,112.9433,27.8614,湘潭市,板塘,颗粒物(PM10),64,78,57,42,33,149,18,130,80,96,42,2,8,0.4,0.4
2022-11-08T00:00:00,1511A,112.9118,27.8403,湘潭市,市监测站,颗粒物(PM10),77,104,73,48,36,140,15,122,56,80,44,8,13,0.8,0.7
2022-11-08T00:00:00,1512A,112.8937,27.8728,湘潭市,江麓,颗粒物(PM10),72,93,63,38,34,151,19,131,88,88,47,13,12,0.8,0.6
2022-11-08T00:00:00,1513A,112.9227,27.8159,湘潭市,岳塘,细颗粒物(PM2.5),84,103,61,62,35,146,10,125,59,80,40,11,12,1.0,0.6
2022-11-08T00:00:00,1514A,112.9074,27.9119,湘潭市,科大,颗粒物(PM10),67,84,51,46,40,150,16,131,80,86,49,10,10,0.6,0.5
2022-11-08T00:00:00,1515A,113.135,27.8244,株洲市,天台山庄,细颗粒物(PM2.5),53,54,41,37,30,128,60,118,88,32,20,7,9,0.6,0.4
2022-11-08T00:00:00,1518A,113.095,27.8867,株洲市,株冶医院,颗粒物(PM10),58,65,51,32,32,127,45,118,85,58,41,7,11,0.4,0.4
2022-11-08T00:00:00,1519A,113.167,27.8667,株洲市,市四中,细颗粒物(PM2.5),55,48,36,39,32,133,40,124,85,37,23,5,6,0.6,0.5
2022-11-08T00:00:00,1520A,113.143,27.8381,株洲市,火车站,细颗粒物(PM2.5),74,63,50,54,38,126,27,116,72,38,23,8,12,1.0,0.8
2022-11-08T00:00:00,1524A,113.13,27.8528,株洲市,市监测站,细颗粒物(PM2.5),59,53,46,42,35,128,64,122,93,31,24,11,10,0.7,0.7
2022-11-08T00:00:00,1552A,106.805,26.3003,贵阳市,桐木岭(对照点),,,,,,,,,,,,,,,,
2022-11-08T00:00:00,1559A,113.251,27.8336,株洲市,大京风景区(对照点),,32,29,33,22,23,113,34,98,58,4,4,6,7,0.5,0.6
2022-11-08T00:00:00,1562A,113.0048,27.9153,湘潭市,昭山,颗粒物(PM10),63,76,66,37,33,146,0,119,43,90,54,4,7,0.5,0.5
2022-11-08T00:00:00,1564A,112.4876,27.9164,湘潭市,韶山(对照点),细颗粒物(PM2.5),92,56,59,68,32,147,54,124,86,19,21,6,10,0.6,0.9
2022-11-08T00:00:00,1585A,109.8756,40.6532,包头市,市环境监测站,颗粒物(PM10),75,99,36,38,15,64,4,53,14,67,35,20,16,1.1,0.6
2022-11-08T00:00:00,1587A,109.9991,40.5842,包头市,包头八中,颗粒物(PM10),75,100,54,25,19,62,0,51,17,61,45,42,23,1.1,0.8
2022-11-08T00:00:00,1588A,109.8538,40.6821,包头市,青山宾馆,颗粒物(PM10),92,133,41,51,17,62,5,53,14,69,36,23,19,1.6,0.8
2022-11-08T00:00:00,1589A,109.8642,40.6288,包头市,惠龙物流,颗粒物(PM10),66,82,33,31,15,62,3,55,18,68,36,20,15,1.4,0.7
2022-11-08T00:00:00,1590A,110.0377,40.5546,包头市,东河鸿龙湾,颗粒物(PM10),104,157,64,56,22,58,3,48,18,61,41,15,14,0.9,0.7
2022-11-08T00:00:00,1591A,110.0023,39.8129,鄂尔多斯市,综合楼,颗粒物(PM10),67,84,35,26,8,62,13,56,21,70,44,28,17,1.0,0.6
2022-11-08T00:00:00,1592A,109.9486,39.8261,鄂尔多斯市,巴音孟克林场办事处,颗粒物(PM10),70,90,42,31,13,64,14,57,21,75,47,28,16,1.1,0.8
2022-11-08T00:00:00,1593A,109.7736,39.5986,鄂尔多斯市,康泽苑,,29,29,27,7,7,79,14,68,29,26,20,5,6,0.3,0.4
2022-11-08T00:00:00,1594A,109.8119,39.5989,鄂尔多斯市,华泰汽车城,,48,48,30,19,14,80,6,67,22,47,30,6,6,0.6,0.6
2022-11-08T00:00:00,1595A,109.9734,39.7884,鄂尔多斯市,奥林花园,颗粒物(PM10),79,107,56,31,13,59,5,52,13,79,50,20,10,1.1,0.6
2022-11-08T00:00:00,1596A,122.2414,40.6592,营口市,学府南路,,,,,,,,,,,,,,,,
2022-11-08T00:00:00,1597A,122.2703,40.7094,营口市,大庆路,细颗粒物(PM2.5),70,75,86,51,63,85,7,68,17,66,38,15,9,2.5,1.1
2022-11-08T00:00:00,1598A,122.215,40.6511,营口市,镜湖西路,颗粒物(PM10),63,76,85,39,45,74,5,58,26,66,30,16,7,1.6,1.1
2022-11-08T00:00:00,1599A,122.167,40.6655,营口市,西炮台,颗粒物(PM10),62,74,75,42,52,81,7,67,23,74,35,31,13,1.9,1
2022-11-08T00:00:00,1600A,124.3303,40.0625,丹东市,江湾东路,细颗粒物(PM2.5),53,44,48,37,37,84,20,48,20,27,24,12,12,1.2,1.2
2022-11-08T00:00:00,1601A,124.4256,40.1503,丹东市,临江后街,颗粒物(PM10),53,55,43,36,27,93,20,78,26,25,17,8,7,1.1,1
2022-11-08T00:00:00,1602A,124.3933,40.1461,丹东市,元宝山,,40,35,47,28,39,76,26,69,32,25,26,11,11,1.3,1.3
2022-11-08T00:00:00,1603A,124.3633,40.1092,丹东市,民主桥,,35,35,52,22,31,87,25,79,20,28,25,14,11,1.0,1.2
2022-11-08T00:00:00,1604A,122.0303,41.1489,盘锦市,开发区,细颗粒物(PM2.5),110,99,51,83,44,70,8,61,20,68,36,15,9,1.6,1
2022-11-08T00:00:00,1605A,122.0485,41.0883,盘锦市,兴隆台,细颗粒物(PM2.5),78,89,56,57,46,63,7,59,16,62,36,14,13,0.9,0.8
2022-11-08T00:00:00,1606A,121.8297,41.1028,盘锦市,新生街道,,50,46,36,35,32,68,4,60,29,50,28,12,11,0.6,0.6
2022-11-08T00:00:00,1607A,120.9092,40.7136,葫芦岛市,龙港区,,,77,93,,50,72,10,63,29,59,36,27,27,0.7,0.8
2022-11-08T00:00:00,1608A,120.8392,40.7514,葫芦岛市,化工街,细颗粒物(PM2.5),98,137,101,73,58,70,12,63,26,51,48,13,15,1.2,0.9
2022-11-08T00:00:00,1609A,120.8341,40.7073,葫芦岛市,新区,颗粒物(PM10),64,77,79,37,51,70,8,63,20,62,45,27,18,1.3,1.2
2022-11-08T00:00:00,1610A,120.8695,40.7677,葫芦岛市,东城区,颗粒物(PM10),56,62,83,18,55,68,5,59,17,43,42,21,23,0.8,1.1
2022-11-08T00:00:00,1611A,118.5819,24.9117,泉州市,涂山街,,20,19,27,11,13,82,64,72,68,11,12,7,7,0.5,0.5
2022-11-08T00:00:00,1612A,118.5972,24.8978,泉州市,津头埔,,23,12,28,6,13,76,72,65,64,9,16,6,7,0.4,0.5
2022-11-08T00:00:00,1613A,118.6663,24.9424,泉州市,万安,,27,11,26,5,16,87,85,78,76,3,10,6,7,0.5,0.5
2022-11-08T00:00:00,1614A,118.6117,24.9604,泉州市,清源山(对照点),,,,,,,,,,,,,,,,
2022-11-08T00:00:00,1616A,117.6795,36.229,济南市,技术学院,细颗粒物(PM2.5),173,217,162,131,90,138,11,118,70,98,59,14,14,1.4,1.2
2022-11-08T00:00:00,1618A,118.3429,35.0532,临沂市,沂河小区,细颗粒物(PM2.5),233,185,112,183,83,137,84,117,75,41,52,12,15,0.8,0.7
2022-11-08T00:00:00,1619A,118.295,35.0583,临沂市,鲁南制药厂,细颗粒物(PM2.5),179,183,110,135,70,142,90,117,90,39,49,15,19,1.0,0.9
2022-11-08T00:00:00,1620A,118.2794,34.9976,临沂市,新光毛纺厂,细颗粒物(PM2.5),207,195,115,157,74,140,86,114,85,44,55,10,17,1.2,1
2022-11-08T00:00:00,1621A,118.3956,35.0888,临沂市,河东保险公司,细颗粒物(PM2.5),204,180,114,154,81,130,76,107,64,40,52,10,11,1.2,1
2022-11-08T00:00:00,1622A,116.3032,37.4674,德州市,儿童乐园,颗粒物(PM10),56,61,100,27,51,86,8,71,26,78,55,10,14,0.5,0.6
2022-11-08T00:00:00,1624A,116.2991,37.4451,德州市,监理站,,42,42,90,25,62,85,12,75,37,66,43,10,16,0.5,0.6
2022-11-08T00:00:00,1625A,115.9848,36.4372,聊城市,区政府,细颗粒物(PM2.5),97,108,124,72,70,101,15,85,34,68,44,9,13,0.9,0.8
2022-11-08T00:00:00,1628A,118.0062,37.3803,滨州市,市环保局,细颗粒物(PM2.5),152,179,126,116,72,98,31,73,43,40,38,39,21,1.3,1
2022-11-08T00:00:00,1629A,118.0018,37.3617,滨州市,第二水厂,细颗粒物(PM2.5),114,85,90,86,69,104,22,77,43,71,58,40,19,1.1,1
2022-11-08T00:00:00,1630A,117.9776,37.393,滨州市,北中新校,细颗粒物(PM2.5),63,67,100,45,64,101,7,77,35,60,49,10,15,0.9,0.8
2022-11-08T00:00:00,1631A,118.0414,36.8103,淄博市,人民公园,细颗粒物(PM2.5),88,92,139,65,95,124,5,101,39,73,53,11,22,0.8,0.9
2022-11-08T00:00:00,1632A,118.0253,36.8406,淄博市,东风化工厂,,,,,,,,,,,,,,,,
2022-11-08T00:00:00,1633A,117.8525,36.4847,淄博市,双山,细颗粒物(PM2.5),179,184,144,135,99,116,6,107,50,66,40,7,13,1.2,1
2022-11-08T00:00:00,1634A,117.9592,36.6331,淄博市,气象站,细颗粒物(PM2.5),140,195,153,107,84,121,2,104,31,80,63,12,19,1.2,1.1
2022-11-08T00:00:00,1635A,118.3092,36.8194,淄博市,莆田园,细颗粒物(PM2.5),188,290,131,141,86,134,6,107,42,77,60,43,15,5.3,1.2
2022-11-08T00:00:00,1636A,117.8661,36.805,淄博市,三金集团,,,,,,,,,,,,,,,,
2022-11-08T00:00:00,1637A,117.558,34.8438,枣庄市,市中区政府,细颗粒物(PM2.5),144,185,158,110,84,165,59,134,69,66,59,13,21,1.0,1
2022-11-08T00:00:00,1638A,117.2852,34.7837,枣庄市,薛城环保局,细颗粒物(PM2.5),140,154,127,107,76,169,22,135,69,91,57,14,24,1.2,1.1
2022-11-08T00:00:00,1639A,117.5852,34.7745,枣庄市,峄城区政府,细颗粒物(PM2.5),140,175,147,107,81,156,66,119,73,59,54,23,24,1.3,1.2
2022-11-08T00:00:00,1640A,117.7276,34.5578,枣庄市,台儿庄区环保局,细颗粒物(PM2.5),201,215,128,151,82,157,40,131,59,68,50,12,14,1.5,1.2
2022-11-08T00:00:00,1641A,117.4518,35.0992,枣庄市,山亭区环保局,细颗粒物(PM2.5),123,156,98,93,58,166,114,153,127,36,35,15,14,1.3,1.2
2022-11-08T00:00:00,1642A,121.2514,37.5639,烟台市,开发区,细颗粒物(PM2.5),125,117,59,95,47,104,39,88,57,47,36,11,11,1.1,0.7
2022-11-08T00:00:00,1643A,121.3719,37.5433,烟台市,轴承厂,细颗粒物(PM2.5),123,105,98,93,54,115,55,100,62,29,25,34,12,0.9,0.6
2022-11-08T00:00:00,1644A,121.3181,37.5436,烟台市,西郊化工站,细颗粒物(PM2.5),123,132,77,93,49,117,45,96,52,47,41,15,18,1.4,1.1
2022-11-08T00:00:00,1645A,121.4478,37.4822,烟台市,莱山环保局,细颗粒物(PM2.5),125,129,65,95,43,110,25,101,70,66,28,13,11,1.2,0.7
2022-11-08T00:00:00,1646A,121.2611,37.4967,烟台市,福山环保局,,,,,,,,,,,,,,,,
2022-11-08T00:00:00,1648A,119.12,36.7019,潍坊市,仲裁委,,,,,,,,,,,,,,,,
2022-11-08T00:00:00,1650A,119.1437,36.7023,潍坊市,环保局,细颗粒物(PM2.5),139,149,125,106,79,142,19,112,56,62,49,6,10,1.4,1.1
2022-11-08T00:00:00,1652A,119.1936,36.7729,潍坊市,寒亭监测站,,,,,,,,,,,,,,,,
2022-11-08T00:00:00,1653A,116.6251,35.4302,济宁市,火炬城,细颗粒物(PM2.5),149,115,98,114,84,155,48,132,89,44,32,8,11,1.0,0.8
2022-11-08T00:00:00,1655A,116.5491,35.4042,济宁市,电化厂,细颗粒物(PM2.5),149,150,130,114,89,145,49,132,63,43,37,11,14,1.1,1
2022-11-08T00:00:00,1656A,117.1437,36.1937,泰安市,监测站,细颗粒物(PM2.5),89,110,127,66,76,136,61,117,82,26,32,9,11,0.8,0.9
2022-11-08T00:00:00,1657A,117.0885,36.2017,泰安市,人口学校,颗粒物(PM10),76,102,119,52,60,115,41,104,69,45,44,9,11,0.6,0.8
2022-11-08T00:00:00,1658A,117.1089,36.1758,泰安市,电力学校,颗粒物(PM10),104,158,132,72,54,123,47,106,58,49,50,8,10,1.2,1.2
2022-11-08T00:00:00,1659A,119.471,35.4209,日照市,监测站,细颗粒物(PM2.5),165,178,96,125,52,112,76,90,50,41,52,10,10,1.3,1.2
2022-11-08T00:00:00,1660A,119.523,35.4216,日照市,市政府广场,细颗粒物(PM2.5),169,175,91,128,50,132,104,118,110,21,33,12,10,1.3,1
2022-11-08T00:00:00,1661A,119.5587,35.4044,日照市,港务局,细颗粒物(PM2.5),168,183,124,127,52,131,109,114,103,17,39,13,12,1.4,1.2
2022-11-08T00:00:00,1662A,122.1214,37.4236,威海市,华夏技校,细颗粒物(PM2.5),110,112,50,83,41,126,79,114,92,25,18,7,7,0.7,0.3
2022-11-08T00:00:00,1663A,122.0508,37.5236,威海市,山大分校,细颗粒物(PM2.5),104,120,50,78,30,126,63,115,107,34,19,5,5,1.0,0.6
2022-11-08T00:00:00,1664A,122.1067,37.5072,威海市,市监测站,细颗粒物(PM2.5),102,110,52,76,31,114,58,98,60,29,32,5,6,1.1,0.7
2022-11-08T00:00:00,1665A,118.5019,37.4658,东营市,西城阳光环保公司,,,,,,,,,,,,,,,,
2022-11-08T00:00:00,1666A,118.6614,37.4309,东营市,市环保局,细颗粒物(PM2.5),122,119,105,92,68,118,50,90,42,45,52,12,17,1.3,1.2
2022-11-08T00:00:00,1669A,113.5824,24.7733,韶关市,市八中,,25,22,23,17,18,72,43,63,50,9,12,7,9,0.6,0.6
2022-11-08T00:00:00,1670A,113.5556,24.8082,韶关市,碧湖山庄,,,,,,,,,,,,,,,,
2022-11-08T00:00:00,1671A,113.5917,24.7972,韶关市,园林处,,25,18,31,17,22,73,46,64,54,5,7,8,10,0.3,0.3
2022-11-08T00:00:00,1672A,113.6735,24.7791,韶关市,韶关学院,,33,21,26,23,24,71,29,61,43,20,17,7,15,0.5,0.5
2022-11-08T00:00:00,1673A,113.5971,24.6863,韶关市,曲江监测站,,38,31,30,26,23,64,32,49,34,22,19,8,9,0.7,0.7
2022-11-08T00:00:00,1674A,116.6794,23.3667,汕头市,金平子站,,38,33,29,26,20,106,60,100,84,25,21,11,12,0.5,0.5
2022-11-08T00:00:00,1675A,116.7244,23.3633,汕头市,龙湖子站,,44,44,39,23,19,111,60,104,89,24,17,10,11,0.7,0.6
2022-11-08T00:00:00,1676A,116.7258,23.2775,汕头市,濠江子站,,32,26,25,22,19,108,64,101,89,18,16,9,10,0.6,0.7
2022-11-08T00:00:00,1677A,116.7519,23.4714,汕头市,澄海子站,,30,29,30,21,21,112,63,102,87,22,18,5,7,0.7,0.7
2022-11-08T00:00:00,1678A,116.6092,23.2539,汕头市,潮阳子站,,22,22,28,11,13,103,69,99,90,13,14,8,9,0.6,0.6
2022-11-08T00:00:00,1679A,116.4069,23.2533,汕头市,潮南子站,,,,,,,,,,,,,,,,
2022-11-08T00:00:00,1680A,110.3539,21.2706,湛江市,湛江影剧院,,42,26,27,29,21,94,61,88,81,13,14,6,11,0.6,0.6
2022-11-08T00:00:00,1681A,110.3928,21.2228,湛江市,市环境监测站,,49,22,27,34,19,96,51,90,83,19,12,7,9,0.6,0.6
2022-11-08T00:00:00,1682A,110.4019,21.1997,湛江市,环保局宿舍,,38,26,21,26,18,94,59,87,82,11,11,9,10,0.6,0.6
2022-11-08T00:00:00,1683A,110.4111,21.2028,湛江市,霞山游泳场,,38,38,23,26,16,96,54,91,83,15,12,8,9,0.6,0.5
2022-11-08T00:00:00,1684A,110.3316,21.2679,湛江市,麻章区环保局,,43,26,28,30,23,88,59,82,76,12,15,7,11,0.7,0.7
2022-11-08T00:00:00,1685A,110.4558,21.2567,湛江市,坡头区环保局,,50,27,24,35,20,106,54,95,85,13,10,7,9,0.7,0.6
2022-11-08T00:00:00,1686A,111.0286,21.4688,茂名市,电白南海,,32,31,32,22,15,96,42,81,61,16,13,11,9,0.5,0.5
2022-11-08T00:00:00,1687A,110.9294,21.6533,茂名市,茂石化七小,,32,29,24,22,21,85,42,78,58,12,10,12,13,0.6,0.6
2022-11-08T00:00:00,1688A,110.9107,21.6687,茂名市,健康路,,24,24,22,15,12,88,48,82,62,11,8,11,12,0.8,0.7
2022-11-08T00:00:00,1689A,110.8592,21.6828,茂名市,高岭,,35,22,20,24,20,94,54,82,65,14,11,13,15,0.2,0.2
2022-11-08T00:00:00,1690A,116.1231,24.3284,梅州市,梅江月梅,,32,32,27,18,19,32,2,20,5,19,22,4,4,0.6,0.6
2022-11-08T00:00:00,1691A,116.0797,24.2719,梅州市,梅县新城,,30,26,24,21,20,28,4,22,9,24,24,7,8,0.5,0.5
2022-11-08T00:00:00,1692A,116.1248,24.2654,梅州市,环境监控中心,,32,29,33,22,19,42,2,27,6,24,22,7,7,0.6,0.5
2022-11-08T00:00:00,1693A,115.3653,22.775,汕尾市,市环保局,,28,17,23,19,13,92,57,79,77,12,12,7,7,0.8,0.8
2022-11-08T00:00:00,1694A,115.3706,22.7898,汕尾市,市政府,细颗粒物(PM2.5),53,25,21,37,18,92,51,78,72,11,11,6,7,0.6,0.6
2022-11-08T00:00:00,1695A,115.3622,22.7925,汕尾市,新城中学,,26,20,23,18,15,91,55,78,72,8,8,8,8,0.6,0.6
2022-11-08T00:00:00,1696A,114.6778,23.7569,河源市,源西(对照点),,22,19,17,15,14,37,12,30,15,22,18,4,4,0.6,0.7
2022-11-08T00:00:00,1697A,114.6944,23.7586,河源市,东埔,,23,18,18,16,15,34,18,30,18,15,16,5,5,0.7,0.7
2022-11-08T00:00:00,1698A,114.6892,23.7233,河源市,老城,,23,19,22,16,16,35,17,30,22,19,17,4,4,0.8,0.8
2022-11-08T00:00:00,1699A,111.9797,21.8593,阳江市,鸳鸯湖(对照点),细颗粒物(PM2.5),67,47,29,48,32,73,30,62,45,15,14,7,7,0.9,0.8
2022-11-08T00:00:00,1700A,111.9508,21.8536,阳江市,南恩路,,,,,,,,,,,,,,,,
2022-11-08T00:00:00,1701A,111.9491,21.8658,阳江市,马南垌,细颗粒物(PM2.5),58,37,30,41,28,67,8,58,38,56,26,8,7,0.7,0.6
2022-11-08T00:00:00,1702A,113.0426,23.691,清远市,环保大楼(对照点),,28,26,22,19,19,69,32,59,47,10,15,5,6,0.8,0.8
2022-11-08T00:00:00,1703A,113.0208,23.7106,清远市,凤城街办,,36,33,26,25,18,48,18,40,29,19,20,10,10,0.9,0.9
2022-11-08T00:00:00,1705A,116.6367,23.6719,潮州市,西园路(对照点),,29,23,25,20,19,103,34,88,69,8,9,21,11,0.6,0.7
2022-11-08T00:00:00,1706A,116.6447,23.6706,潮州市,档案局,,23,16,25,16,20,99,34,88,68,5,7,10,10,0.6,0.6
2022-11-08T00:00:00,1708A,116.3701,23.5345,揭阳市,新兴,细颗粒物(PM2.5),57,40,41,40,32,118,52,100,76,25,20,17,13,0.7,0.7
2022-11-08T00:00:00,1709A,116.3264,23.5443,揭阳市,西马,,46,41,40,32,27,125,55,110,82,19,16,14,9,0.7,0.7
2022-11-08T00:00:00,1710A,116.3611,23.5626,揭阳市,东兴,,49,46,41,34,28,110,46,94,74,26,20,15,10,0.5,0.6
2022-11-08T00:00:00,1711A,116.4151,23.5294,揭阳市,渔湖,,45,45,40,23,24,110,44,95,72,26,16,14,14,0.6,0.7
2022-11-08T00:00:00,1712A,112.0392,22.9169,云浮市,新市府(对照点),,34,34,26,21,16,59,6,45,20,22,15,5,7,0.8,0.7
2022-11-08T00:00:00,1713A,112.0369,22.9394,云浮市,市监测站,,,,,,,,,,,,,,,,
2022-11-08T00:00:00,1714A,112.0539,22.9539,云浮市,牧羊,,40,40,38,25,20,50,30,39,33,16,20,12,15,0.7,0.7
2022-11-08T00:00:00,1715A,102.575,24.3711,玉溪市,东风水库,,23,23,25,15,17,89,33,80,59,16,14,4,5,0.4,0.7
2022-11-08T00:00:00,1718A,115.4208,35.2464,菏泽市,气象局,细颗粒物(PM2.5),127,156,179,96,114,139,50,113,82,44,42,10,11,0.8,0.9
2022-11-08T00:00:00,1719A,115.4747,35.2375,菏泽市,市政协,细颗粒物(PM2.5),113,122,163,85,117,151,70,123,94,36,45,12,12,0.5,0.7
2022-11-08T00:00:00,1720A,115.455,35.27,菏泽市,菏泽学院,,,,,,,,,,,,,,,,
2022-11-08T00:00:00,1721A,113.3819,40.1097,大同市,果树场(对照点),,,,,,,,,,,,,,,,
2022-11-08T00:00:00,1723A,113.2994,40.0758,大同市,云冈宾馆,,,42,25,,,72,8,68,33,49,23,8,13,1.4,1.4
2022-11-08T00:00:00,1724A,113.3444,40.0917,大同市,大同大学,,,,,6,6,79,44,70,49,13,14,9,15,0.7,0.7
2022-11-08T00:00:00,1725A,113.2661,40.1269,大同市,安家小村,,,,,,,,,,,,,,,,
2022-11-08T00:00:00,1726A,113.2711,40.0844,大同市,教育学院,,,58,35,,79,72,1,64,25,57,24,19,14,0.7,0.6
2022-11-08T00:00:00,1727A,113.1147,36.1547,长治市,清华站,细颗粒物(PM2.5),138,105,79,105,61,133,73,106,91,26,30,16,14,2.5,1
2022-11-08T00:00:00,1728A,113.1031,36.1989,长治市,监测站,细颗粒物(PM2.5),132,99,79,100,62,139,52,103,74,34,39,9,13,1.8,1.4
2022-11-08T00:00:00,1730A,113.0886,36.2125,长治市,审计局,细颗粒物(PM2.5),140,100,70,107,69,152,65,114,87,28,33,6,11,1.2,0.8
2022-11-08T00:00:00,1731A,113.0844,36.1856,长治市,长治八中,细颗粒物(PM2.5),107,129,90,80,55,135,67,99,76,25,36,14,16,2.0,1.2
2022-11-08T00:00:00,1733A,111.5531,36.0783,临汾市,临钢医院,细颗粒物(PM2.5),69,67,97,50,74,116,28,85,42,41,36,2,4,0.7,1
2022-11-08T00:00:00,1734A,111.5028,36.0714,临汾市,技工学校,细颗粒物(PM2.5),92,110,117,68,71,118,21,90,44,54,43,11,13,0.5,0.8
2022-11-08T00:00:00,1735A,111.5169,36.0822,临汾市,工商学校,,,,,,,,,,,,,,,,
2022-11-08T00:00:00,1736A,111.5018,36.0855,临汾市,市委,细颗粒物(PM2.5),80,106,107,59,69,120,18,91,43,59,45,3,7,0.8,1
2022-11-08T00:00:00,1738A,113.5758,37.8572,阳泉市,市中心,颗粒物(PM10),83,115,121,47,69,95,3,81,42,76,53,10,14,1.1,1.2
2022-11-08T00:00:00,1739A,113.4894,37.8731,阳泉市,赛鱼,细颗粒物(PM2.5),85,107,101,63,68,86,2,67,16,63,56,10,14,0.7,0.7
2022-11-08T00:00:00,1740A,113.5819,37.8486,阳泉市,南庄,细颗粒物(PM2.5),87,101,126,64,75,93,7,78,46,73,44,11,15,1.3,1.3
2022-11-08T00:00:00,1741A,113.6292,37.8531,阳泉市,白羊墅,,,,,,,,,,,,,,,,
2022-11-08T00:00:00,1742A,113.5614,37.8703,阳泉市,平坦,颗粒物(PM10),87,123,116,56,64,95,6,84,45,92,64,20,16,1.0,1
2022-11-08T00:00:00,1743A,113.5158,37.8392,阳泉市,大阳泉,细颗粒物(PM2.5),85,82,81,63,60,95,92,88,88,22,34,11,15,0.9,0.9
2022-11-08T00:00:00,1744A,118.9233,42.2816,赤峰市,松山一中,颗粒物(PM10),81,111,68,57,30,69,12,57,20,51,47,22,21,1.5,1.1
2022-11-08T00:00:00,1745A,118.9576,42.2728,赤峰市,哈达街,颗粒物(PM10),57,63,58,35,29,72,18,60,22,39,38,13,12,0.7,0.7
2022-11-08T00:00:00,1746A,118.8788,42.2554,赤峰市,天义路,颗粒物(PM10),64,78,64,35,24,73,11,61,16,47,41,15,16,1.0,0.9
2022-11-08T00:00:00,1748A,123.044,41.1196,鞍山市,深沟寺,,21,21,63,12,44,96,41,64,39,22,34,6,13,0.5,1
2022-11-08T00:00:00,1749A,123.011,41.0931,鞍山市,太阳城,,21,21,65,8,40,90,39,62,44,18,27,9,16,0.4,0.9
2022-11-08T00:00:00,1750A,123.0485,41.1442,鞍山市,太平,,22,22,75,11,47,85,37,56,27,26,40,11,19,0.5,1.1
2022-11-08T00:00:00,1751A,122.9642,41.0971,鞍山市,铁西三道街,颗粒物(PM10),63,75,82,39,47,90,6,60,20,57,44,10,25,1.1,1.8
2022-11-08T00:00:00,1752A,122.9341,41.0833,鞍山市,铁西工业园区,颗粒物(PM10),58,65,100,28,62,89,4,54,16,58,48,13,23,0.9,1.6
2022-11-08T00:00:00,1753A,123.022,41.0821,鞍山市,明达新区,,38,38,65,21,43,93,12,63,30,47,34,10,16,0.5,0.9
2022-11-08T00:00:00,1754A,123.1289,41.0228,鞍山市,千山(对照点),,,,,,,,,,,,,,,,
2022-11-08T00:00:00,1755A,123.7977,41.8491,抚顺市,望花区,细颗粒物(PM2.5),83,96,56,61,42,73,5,62,16,47,32,11,14,1.7,0.8
2022-11-08T00:00:00,1756A,123.9161,41.8822,抚顺市,顺城区,细颗粒物(PM2.5),87,108,57,64,44,62,4,47,10,40,38,10,11,1.4,1.1
2022-11-08T00:00:00,1757A,124.0436,41.8611,抚顺市,东洲区,颗粒物(PM10),53,55,48,31,39,68,6,58,26,39,25,15,14,0.8,0.8
2022-11-08T00:00:00,1758A,123.9247,41.8642,抚顺市,新抚区,颗粒物(PM10),88,126,65,40,40,63,5,47,13,34,33,7,7,0.8,1
2022-11-08T00:00:00,1759A,124.0972,41.8961,抚顺市,大伙房水库,,27,27,41,16,29,65,14,59,30,29,20,4,5,0.4,0.6
2022-11-08T00:00:00,1760A,123.7086,41.8391,抚顺市,沈抚新城,颗粒物(PM10),72,93,51,47,36,74,4,57,16,36,26,10,10,1.4,0.9
2022-11-08T00:00:00,1761A,123.8275,41.3064,本溪市,大峪,,25,25,36,13,37,76,5,51,29,38,24,7,10,0.4,0.9
2022-11-08T00:00:00,1762A,123.7567,41.3325,本溪市,溪湖,颗粒物(PM10),71,92,78,23,47,72,5,62,19,48,44,9,20,0.9,1.1
2022-11-08T00:00:00,1763A,123.7169,41.3094,本溪市,彩屯,,46,46,88,20,52,60,16,50,25,37,41,7,13,0.4,1.1
2022-11-08T00:00:00,1764A,123.7669,41.2864,本溪市,东明,,41,41,51,20,40,78,5,53,19,49,44,10,14,0.7,1
2022-11-08T00:00:00,1765A,123.7992,41.2664,本溪市,新立屯,,19,8,45,8,40,84,20,50,12,37,38,7,10,0.6,1
2022-11-08T00:00:00,1766A,123.8142,41.3472,本溪市,威宁,,40,40,52,22,33,68,5,47,11,37,40,5,7,0.7,0.7
2022-11-08T00:00:00,1767A,121.1115,41.0879,锦州市,南山,细颗粒物(PM2.5),193,128,58,145,62,64,9,59,23,53,34,13,11,,1.8
2022-11-08T00:00:00,1768A,121.0533,40.8434,锦州市,开发区,,,,87,113,67,67,6,59,25,63,41,28,32,1.8,1.3
2022-11-08T00:00:00,1769A,121.1836,41.1119,锦州市,百股街道,细颗粒物(PM2.5),92,91,85,68,71,66,6,59,19,49,37,23,22,1.2,1.2
2022-11-08T00:00:00,1770A,121.1178,41.1222,锦州市,天安街道,细颗粒物(PM2.5),75,68,66,55,57,70,17,62,24,37,39,13,13,1.3,1
2022-11-08T00:00:00,1771A,121.1303,41.1386,锦州市,北湖公园,细颗粒物(PM2.5),77,80,56,56,50,67,13,61,30,52,25,19,15,1.5,1
2022-11-08T00:00:00,1772A,126.54,43.8622,吉林市,哈达湾,,33,33,58,12,39,72,43,63,52,25,29,10,12,0.6,0.7
2022-11-08T00:00:00,1773A,126.5844,43.8358,吉林市,东局子,,29,29,61,13,37,69,41,61,47,25,34,6,8,0.5,0.8
2022-11-08T00:00:00,1774A,126.5052,43.8245,吉林市,电力学院,,35,35,67,20,46,72,27,63,41,26,29,7,10,0.7,0.9
2022-11-08T00:00:00,1775A,126.6133,43.8972,吉林市,江北,,22,22,69,14,46,69,47,61,47,16,31,7,10,0.5,0.8
2022-11-08T00:00:00,1776A,126.555,43.8306,吉林市,江南公园,,34,34,56,19,38,69,30,64,49,32,28,7,8,0.6,0.8
2022-11-08T00:00:00,1778A,126.7061,43.7133,吉林市,丰满(对照点),,,,,,,,,,,,,,,,
2022-11-08T00:00:00,1779A,123.9305,47.3636,齐齐哈尔市,安居小区,,45,45,33,19,16,69,31,64,33,24,21,6,6,0.6,0.5
2022-11-08T00:00:00,1780A,123.9488,47.3386,齐齐哈尔市,中心广场,,45,45,30,17,9,66,28,54,30,29,21,5,4,0.5,0.5
2022-11-08T00:00:00,1781A,123.9483,47.3227,齐齐哈尔市,农牧车辆厂,颗粒物(PM10),53,56,42,14,12,67,17,56,23,33,23,7,6,0.7,0.5
2022-11-08T00:00:00,1783A,123.945,47.2988,齐齐哈尔市,市环境监测站,颗粒物(PM10),57,63,37,32,19,68,27,57,27,29,22,7,5,0.5,0.4
2022-11-08T00:00:00,1784A,129.61,44.561,牡丹江市,环保大楼,细颗粒物(PM2.5),63,57,58,45,33,82,51,65,62,22,29,4,6,0.5,0.6
2022-11-08T00:00:00,1785A,129.6115,44.5782,牡丹江市,文化广场,细颗粒物(PM2.5),54,50,57,38,33,75,50,59,58,21,30,7,8,0.6,0.7
2022-11-08T00:00:00,1786A,129.5904,44.5963,牡丹江市,第一医院,细颗粒物(PM2.5),65,56,56,47,36,79,30,62,55,29,27,8,12,0.8,0.9
2022-11-08T00:00:00,1787A,129.6364,44.6075,牡丹江市,机车工厂,细颗粒物(PM2.5),79,90,73,58,36,88,27,67,60,36,28,4,3,0.7,0.7
2022-11-08T00:00:00,1788A,129.6386,44.5462,牡丹江市,第一中学,,,68,51,48,29,81,22,57,38,,,3,5,0.6,0.6
2022-11-08T00:00:00,1789A,124.81117,46.03138,大庆市,大同区,细颗粒物(PM2.5),67,66,63,48,38,69,36,54,34,22,24,9,7,0.5,0.6
2022-11-08T00:00:00,1790A,125.129,46.533,大庆市,龙凤区,,46,46,44,13,21,57,23,49,21,28,32,5,9,1.0,0.8
2022-11-08T00:00:00,1791A,124.902,46.408,大庆市,红岗区,,31,31,27,13,16,69,42,59,45,15,15,6,4,0.4,0.4
2022-11-08T00:00:00,1792A,125.153,46.586,大庆市,萨尔图区,,40,40,40,25,23,58,40,48,28,21,32,10,8,0.3,0.4
2022-11-08T00:00:00,1793A,124.9042,46.6215,大庆市,让胡路区,,39,39,29,23,21,62,28,51,24,30,24,5,5,0.6,0.6
2022-11-08T00:00:00,1794A,118.3606,31.3519,芜湖市,监测站,细颗粒物(PM2.5),75,76,64,55,41,120,40,82,28,78,65,12,13,0.9,1
2022-11-08T00:00:00,1795A,118.3714,31.4134,芜湖市,科创中心,细颗粒物(PM2.5),80,92,76,59,44,121,23,87,24,88,73,11,10,1.1,0.8
2022-11-08T00:00:00,1796A,118.3673,31.3131,芜湖市,四水厂,细颗粒物(PM2.5),88,81,70,65,42,108,38,85,40,66,56,10,11,0.9,0.8
2022-11-08T00:00:00,1797A,118.4022,31.3839,芜湖市,济民医院(对照点),,,,,,,,,,,,,,,,
2022-11-08T00:00:00,1798A,118.5092,31.6837,马鞍山市,湖东路四小,颗粒物(PM10),61,71,66,38,34,127,33,95,32,80,60,8,13,1.1,1
2022-11-08T00:00:00,1799A,118.5024,31.6449,马鞍山市,开发区,细颗粒物(PM2.5),88,79,84,65,48,113,43,93,42,83,69,11,14,0.9,1
2022-11-08T00:00:00,1800A,118.5228,31.7231,马鞍山市,慈湖,细颗粒物(PM2.5),77,68,72,56,45,129,100,93,72,44,60,14,18,0.8,1
2022-11-08T00:00:00,1801A,118.48,31.6928,马鞍山市,马钢动力厂,,,,,,,,,,,,,,,,
2022-11-08T00:00:00,1802A,118.6245,31.7241,马鞍山市,濮塘(对照点),颗粒物(PM10),61,72,61,37,35,139,108,118,108,24,24,9,11,0.8,0.8
2022-11-08T00:00:00,1803A,115.9872,29.6815,九江市,十里,颗粒物(PM10),59,67,60,39,32,152,6,116,52,76,42,9,9,1.2,0.9
2022-11-08T00:00:00,1804A,115.9584,29.7046,九江市,茅山头,颗粒物(PM10),61,72,49,38,27,139,2,113,54,71,44,8,8,0.8,0.8
2022-11-08T00:00:00,1805A,115.9877,29.7295,九江市,西园,颗粒物(PM10),56,61,61,37,31,121,20,94,48,83,56,14,11,0.7,0.8
2022-11-08T00:00:00,1806A,116.0172,29.6547,九江市,五七二七厂,,40,40,41,25,23,154,59,123,98,34,24,25,10,1.3,0.6
2022-11-08T00:00:00,1808A,115.9114,29.6038,九江市,综合工业园,细颗粒物(PM2.5),52,50,48,36,26,132,7,110,56,70,58,8,8,0.4,0.5
2022-11-08T00:00:00,1809A,116.0721,29.7535,九江市,石化总厂,颗粒物(PM10),56,62,58,27,28,138,44,111,59,64,51,15,13,0.8,0.8
2022-11-08T00:00:00,1810A,115.9773,29.5698,九江市,庐山气象台(对照点),,29,18,21,9,17,131,91,113,105,11,17,1,5,0.5,0.4
2022-11-08T00:00:00,1811A,112.3628,34.6692,洛阳市,中信二小,,,,,,,,,,,,,,,,
2022-11-08T00:00:00,1812A,112.3931,34.6516,洛阳市,市委党校,细颗粒物(PM2.5),118,151,142,89,85,141,81,118,99,21,37,10,12,0.8,0.9
2022-11-08T00:00:00,1814A,112.4657,34.6871,洛阳市,豫西宾馆,细颗粒物(PM2.5),119,119,122,90,87,149,75,124,97,23,38,7,9,0.7,0.9
2022-11-08T00:00:00,1815A,112.494,34.6886,洛阳市,河南林校,细颗粒物(PM2.5),120,139,119,91,85,144,64,115,86,32,40,,,0.6,0.8
2022-11-08T00:00:00,1816A,112.3844,34.623,洛阳市,开发区管委会,细颗粒物(PM2.5),114,131,117,86,84,141,76,121,101,26,33,8,8,0.6,0.6
2022-11-08T00:00:00,1817A,112.4267,34.6258,洛阳市,市委新办公区,,,139,120,,84,130,63,108,85,33,36,8,9,0.9,0.9
2022-11-08T00:00:00,1818A,114.4839,36.0621,安阳市,棉研所(对照点),,,,,,,,,,,,,,,,
2022-11-08T00:00:00,1819A,114.3551,36.1017,安阳市,红庙街,细颗粒物(PM2.5),140,152,133,107,119,104,0,90,41,77,44,14,12,1.5,1
2022-11-08T00:00:00,1820A,114.361,36.0681,安阳市,银杏小区,细颗粒物(PM2.5),128,136,127,97,128,113,5,97,32,77,45,14,12,1.6,1.3
2022-11-08T00:00:00,1824A,114.3389,34.7781,开封市,肿瘤医院,细颗粒物(PM2.5),148,156,178,113,128,125,63,116,91,31,38,7,11,0.8,1
2022-11-08T00:00:00,1826A,114.2885,34.7965,开封市,世纪星幼儿园,细颗粒物(PM2.5),159,128,140,121,137,123,63,110,88,29,33,9,11,0.8,1
2022-11-08T00:00:00,1828A,113.227,35.2125,焦作市,市环保局,细颗粒物(PM2.5),119,117,143,90,102,127,37,101,68,38,36,19,18,1.1,1.4
2022-11-08T00:00:00,1829A,113.2464,35.1764,焦作市,高新区政府（停运20220628）,,,,,,,,,,,,,,,,
2022-11-08T00:00:00,1830A,113.1992,35.2590,焦作市,影视城(对照点),,,,,,,,,,,,,,,,
2022-11-08T00:00:00,1832A,113.3257,33.742,平顶山市,新华旅馆,,,,149,,120,136,,127,127,,33,,11,,0.9
2022-11-08T00:00:00,1833A,113.2919,33.737,平顶山市,规划设计院,细颗粒物(PM2.5),195,208,165,146,108,147,97,125,106,33,43,10,10,1.1,1.1
2022-11-08T00:00:00,1834A,113.182,33.774,平顶山市,平顶山工学院,细颗粒物(PM2.5),199,204,155,149,104,151,101,129,111,23,30,11,10,1.0,0.9
2022-11-08T00:00:00,1835A,111.1922,34.7752,三门峡市,市政府,细颗粒物(PM2.5),118,86,92,89,95,137,106,115,110,17,38,11,11,0.9,0.8
2022-11-08T00:00:00,1836A,111.1587,34.7942,三门峡市,开发区,细颗粒物(PM2.5),130,144,129,99,90,137,111,116,112,16,28,9,10,1.1,1
2022-11-08T00:00:00,1838A,111.143,34.7955,三门峡市,风景区(对照点),,,,,,,,,,,,,,,,
2022-11-08T00:00:00,1839A,111.3009,30.7157,宜昌市,四零三,,,,,,,,,,,,,,,,
2022-11-08T00:00:00,1840A,111.2992,30.6981,宜昌市,白龙岗,细颗粒物(PM2.5),70,73,72,51,50,146,35,122,87,46,33,3,4,1.3,1.1
2022-11-08T00:00:00,1841A,111.3549,30.6465,宜昌市,伍家岗,细颗粒物(PM2.5),83,108,84,61,53,143,6,114,54,75,45,5,6,1.0,0.8
2022-11-08T00:00:00,1842A,111.2628,30.6961,宜昌市,点军区,细颗粒物(PM2.5),107,115,77,80,56,148,27,128,85,31,27,5,6,0.9,0.7
2022-11-08T00:00:00,1843A,111.3275,30.7819,宜昌市,夷陵区,细颗粒物(PM2.5),107,112,78,80,54,147,9,120,55,62,36,9,9,0.9,0.7
2022-11-08T00:00:00,1844A,112.2494,30.3197,荆州市,市图书馆,细颗粒物(PM2.5),102,96,95,76,75,158,88,123,88,44,61,10,9,0.9,1.2
2022-11-08T00:00:00,1845A,112.2008,30.3544,荆州市,市委党校,细颗粒物(PM2.5),77,89,102,56,66,170,93,123,90,38,53,7,8,0.9,1
2022-11-08T00:00:00,1847A,113.1094,29.3578,岳阳市,南湖风景区,细颗粒物(PM2.5),62,64,60,44,41,178,99,151,132,38,29,21,14,0.9,0.7
2022-11-08T00:00:00,1848A,113.1493,29.4251,岳阳市,城陵矶,颗粒物(PM10),63,76,69,42,40,156,85,134,107,49,54,13,13,0.9,0.9
2022-11-08T00:00:00,1849A,113.1497,29.3575,岳阳市,开发区,细颗粒物(PM2.5),63,63,57,45,43,170,78,138,112,50,35,13,11,0.8,0.7
2022-11-08T00:00:00,1850A,113.2621,29.4758,岳阳市,云溪区,颗粒物(PM10),54,58,59,36,37,168,114,147,133,23,27,11,10,0.6,0.8
2022-11-08T00:00:00,1851A,112.9943,29.4402,岳阳市,君山区,细颗粒物(PM2.5),78,69,64,57,47,158,86,142,120,27,36,7,9,0.7,0.6
2022-11-08T00:00:00,1852A,113.2117,29.355,岳阳市,金凤水库(对照点),细颗粒物(PM2.5),54,53,53,38,36,178,92,159,122,28,29,7,8,0.9,0.8
2022-11-08T00:00:00,1854A,111.6975,28.9703,常德市,市二中,细颗粒物(PM2.5),65,70,82,47,54,144,92,128,106,27,33,10,9,0.7,0.7
2022-11-08T00:00:00,1857A,111.7158,29.1456,常德市,白鹤山(对照点),细颗粒物(PM2.5),54,49,63,38,46,154,136,140,134,9,11,9,9,0.6,0.7
2022-11-08T00:00:00,1858A,110.5319,29.1217,张家界市,永定新区,细颗粒物(PM2.5),59,54,52,42,37,133,79,116,99,42,24,5,4,0.6,0.6
2022-11-08T00:00:00,1859A,110.4697,29.1242,张家界市,电业局,细颗粒物(PM2.5),59,59,51,42,35,133,96,116,105,26,23,6,5,0.4,0.3
2022-11-08T00:00:00,1860A,110.5594,29.3547,张家界市,未央路,细颗粒物(PM2.5),59,59,41,42,28,126,56,114,80,12,10,4,4,0.3,0.2
2022-11-08T00:00:00,1861A,110.4417,29.315,张家界市,袁家界(对照点),颗粒物(PM10),51,52,39,18,27,142,132,130,130,17,14,12,11,0.8,0.6
2022-11-08T00:00:00,1862A,110.4144,25.3167,桂林市,电子科大尧山校区(对照点),,49,44,50,34,36,154,123,138,116,8,11,16,13,0.7,0.7
2022-11-08T00:00:00,1863A,110.2819,25.2697,桂林市,监测站,细颗粒物(PM2.5),57,52,72,40,46,154,101,134,87,18,33,11,23,0.7,0.8
2022-11-08T00:00:00,1864A,110.3089,25.2708,桂林市,龙隐路小学,细颗粒物(PM2.5),60,47,59,43,50,138,91,120,92,15,24,34,30,0.8,0.8
2022-11-08T00:00:00,1865A,110.2869,25.2178,桂林市,八中,颗粒物(PM10),52,53,65,35,41,134,91,121,75,21,32,15,13,0.7,0.8
2022-11-08T00:00:00,1866A,109.2262,21.588,北海市,牛尾岭水库(对照点),,39,31,30,27,24,106,24,94,53,12,10,5,6,0.7,0.7
2022-11-08T00:00:00,1867A,109.1436,21.4086,北海市,海滩公园,,29,29,33,17,20,123,74,117,106,11,9,7,10,0.8,0.8
2022-11-08T00:00:00,1868A,109.0981,21.4661,北海市,新市环保局,,42,36,33,29,26,114,68,105,89,22,14,5,8,0.6,0.6
2022-11-08T00:00:00,1869A,109.1778,21.5233,北海市,北海工业园,"颗粒物(PM10),细颗粒物(PM2.5)",55,59,45,39,27,109,9,99,73,54,18,8,12,1.1,0.7
2022-11-08T00:00:00,1870A,109.4856,24.3895,柳州市,柳东小学,,50,48,66,35,46,113,31,97,76,58,23,7,8,0.8,0.7
2022-11-08T00:00:00,1871A,109.4157,24.3277,柳州市,环保监测站,颗粒物(PM10),68,86,68,44,40,154,18,140,71,72,37,5,10,1.2,1.1
2022-11-08T00:00:00,1872A,109.389,24.341,柳州市,河西水厂,细颗粒物(PM2.5),105,149,85,79,53,140,4,125,59,90,40,20,19,1.7,1.3
2022-11-08T00:00:00,1873A,109.4311,24.2921,柳州市,市四中,颗粒物(PM10),67,84,74,39,36,163,18,134,65,72,36,8,10,1.1,1
2022-11-08T00:00:00,1874A,109.4006,24.3631,柳州市,市九中,颗粒物(PM10),95,139,89,51,43,132,22,118,49,56,38,12,14,1.2,1.1
2022-11-08T00:00:00,1875A,109.4958,24.3134,柳州市,古亭山,,,34,43,25,29,143,,127,92,,,9,11,,0.8
2022-11-08T00:00:00,1876A,109.5078,18.2489,三亚市,河东子站,,25,25,15,10,8,109,70,105,91,13,9,2,1,0.5,0.5
2022-11-08T00:00:00,1877A,109.4964,18.2681,三亚市,河西子站,,27,27,15,12,8,102,51,95,79,18,11,1,3,0.4,0.4
2022-11-08T00:00:00,1878A,104.7778,31.4741,绵阳市,富乐山,,46,42,53,32,33,74,4,47,28,38,25,5,4,0.7,0.6
2022-11-08T00:00:00,1879A,104.7563,31.4535,绵阳市,市人大,细颗粒物(PM2.5),74,50,63,54,45,60,1,33,13,48,38,6,4,0.7,0.7
2022-11-08T00:00:00,1880A,104.6697,31.4668,绵阳市,高新区自来水公司,颗粒物(PM10),58,65,62,37,39,63,3,37,16,42,33,8,7,0.8,0.8
2022-11-08T00:00:00,1881A,104.7287,31.5075,绵阳市,三水厂,颗粒物(PM10),69,88,77,47,45,47,2,21,7,37,36,5,5,0.8,0.8
2022-11-08T00:00:00,1882A,104.563,28.793,宜宾市,石马中学(对照点),细颗粒物(PM2.5),78,79,76,57,60,62,13,51,33,35,23,10,6,0.7,0.8
2022-11-08T00:00:00,1883A,104.6201,28.7728,宜宾市,市委,细颗粒物(PM2.5),94,90,83,70,66,53,18,45,29,37,34,8,7,0.8,0.8
2022-11-08T00:00:00,1884A,104.6055,28.793,宜宾市,宜宾四中,细颗粒物(PM2.5),108,95,89,81,75,60,18,48,34,35,25,13,7,0.8,0.8
2022-11-08T00:00:00,1885A,104.639,28.7562,宜宾市,市政府,细颗粒物(PM2.5),98,96,89,73,72,70,20,51,36,37,27,11,8,0.8,0.8
2022-11-08T00:00:00,1886A,104.5742,28.7199,宜宾市,黄金嘴,细颗粒物(PM2.5),89,82,81,66,66,67,6,54,32,47,28,10,9,0.8,0.7
2022-11-08T00:00:00,1888A,101.6891,26.571,攀枝花市,弄弄坪,颗粒物(PM10),59,68,63,36,35,118,5,89,50,59,36,8,12,1.5,1.4
2022-11-08T00:00:00,1889A,101.5769,26.5928,攀枝花市,河门口,,38,38,36,23,22,117,26,92,64,29,24,14,19,1.3,1.3
2022-11-08T00:00:00,1890A,101.7169,26.585,攀枝花市,炳草岗,颗粒物(PM10),58,65,55,21,21,118,5,88,34,62,42,15,21,1.5,1.5
2022-11-08T00:00:00,1891A,101.7369,26.5008,攀枝花市,仁和,,35,35,42,20,26,107,31,87,46,17,20,8,14,0.8,1.2
2022-11-08T00:00:00,1893A,105.4324,28.9634,泸州市,九狮山(对照点),细颗粒物(PM2.5),102,73,67,76,63,78,37,66,51,28,27,7,10,0.6,0.6
2022-11-08T00:00:00,1894A,105.4427,28.9063,泸州市,小市上码头,细颗粒物(PM2.5),133,114,115,101,96,85,44,75,60,21,25,8,13,0.8,0.9
2022-11-08T00:00:00,1895A,105.4241,28.8573,泸州市,兰田宪桥,细颗粒物(PM2.5),122,120,110,92,85,87,45,72,58,17,21,37,31,0.9,0.9
2022-11-08T00:00:00,1896A,105.4379,28.8833,泸州市,市环监站,,,,104,,89,80,,66,58,,21,,9,,0.7
2022-11-08T00:00:00,1897A,104.7547,29.3628,自贡市,大塘山(对照点),,,,,,,,,,,,,,,,
2022-11-08T00:00:00,1900A,104.7692,29.3411,自贡市,春华路,,,,,,,,,,,,,,,,
2022-11-08T00:00:00,1901A,104.4239,31.1208,德阳市,东山公园,颗粒物(PM10),59,67,72,34,37,65,2,46,18,48,41,24,9,0.8,0.8
2022-11-08T00:00:00,1902A,104.3826,31.1317,德阳市,西小区,颗粒物(PM10),59,67,62,33,33,67,3,52,29,44,34,24,9,0.6,0.6
2022-11-08T00:00:00,1903A,104.4053,31.1167,德阳市,市检察院,,,,,,,,,,,,,,,,
2022-11-08T00:00:00,1904A,104.3553,31.1091,德阳市,耐火材料厂,颗粒物(PM10),63,76,73,41,39,67,3,54,31,47,32,7,8,0.7,0.7
2022-11-08T00:00:00,1905A,106.056,30.8064,南充市,西山风景区(对照点),,,,37,,46,58,,39,,,11,,6,,0.7
2022-11-08T00:00:00,1906A,106.0789,30.8023,南充市,南充市委,细颗粒物(PM2.5),60,60,67,43,45,56,7,42,22,27,24,6,6,0.7,0.7
2022-11-08T00:00:00,1907A,106.1031,30.8217,南充市,南充炼油厂,颗粒物(PM10),71,92,73,46,44,60,9,44,30,27,23,10,10,0.7,0.7
2022-11-08T00:00:00,1908A,106.1064,30.7856,南充市,高坪区监测站,细颗粒物(PM2.5),72,68,67,52,50,55,6,41,25,32,27,11,13,0.7,0.7
2022-11-08T00:00:00,1909A,106.0642,30.7636,南充市,嘉陵区环保局,细颗粒物(PM2.5),69,55,61,50,52,56,12,41,26,27,27,10,11,0.7,0.7
2022-11-08T00:00:00,1910A,106.1087,30.8388,南充市,市环境监测站,细颗粒物(PM2.5),59,64,63,42,46,61,10,45,30,23,21,11,12,0.7,0.7
2022-11-08T00:00:00,1911A,106.9222,27.6869,遵义市,丁字口,细颗粒物(PM2.5),64,46,57,46,46,136,53,116,73,49,35,13,12,1.0,1
2022-11-08T00:00:00,1912A,106.9242,27.7019,遵义市,凤凰山,颗粒物(PM10),51,52,54,28,33,138,125,130,127,12,17,5,7,0.6,0.7
2022-11-08T00:00:00,1913A,106.8906,27.6486,遵义市,忠庄,颗粒物(PM10),61,71,73,41,43,135,105,120,109,14,26,2,3,0.6,0.6
2022-11-08T00:00:00,1914A,106.9231,27.6506,遵义市,舟水桥,颗粒物(PM10),62,74,74,41,46,133,34,122,89,42,21,6,6,0.8,0.8
2022-11-08T00:00:00,1915A,106.9178,27.72,遵义市,干田坝,细颗粒物(PM2.5),63,49,59,45,41,131,105,116,102,16,25,7,8,0.5,0.6
2022-11-08T00:00:00,1916A,103.7897,25.5035,曲靖市,环境监测站,细颗粒物(PM2.5),64,63,53,46,35,96,48,89,69,16,17,10,11,0.7,0.7
2022-11-08T00:00:00,1917A,103.8,25.5364,曲靖市,烟厂办公区,颗粒物(PM10),54,58,53,31,30,100,53,94,77,17,19,19,17,1.1,0.9
2022-11-08T00:00:00,1918A,108.7197,34.3956,咸阳市,气象站(对照点),细颗粒物(PM2.5),226,290,178,176,124,78,5,55,12,72,61,10,12,1.6,1.4
2022-11-08T00:00:00,1919A,108.673,34.3155,咸阳市,实验中学,细颗粒物(PM2.5),159,265,209,121,111,88,5,49,12,68,67,6,8,1.6,1.3
2022-11-08T00:00:00,1920A,108.7233,34.3617,咸阳市,师范学院,细颗粒物(PM2.5),204,259,178,154,109,84,6,57,13,68,62,9,10,1.4,1.2
2022-11-08T00:00:00,1922A,109.0656,35.0994,铜川市,党校(对照点),颗粒物(PM10),100,149,87,37,43,116,33,105,40,88,54,15,14,0.6,0.6
2022-11-08T00:00:00,1923A,109.0697,35.0697,铜川市,王益区政府,颗粒物(PM10),67,83,88,35,41,121,11,101,51,83,39,8,8,0.8,0.9
2022-11-08T00:00:00,1924A,108.9344,34.9058,铜川市,新区管委会,颗粒物(PM10),79,108,97,57,51,132,56,111,68,36,35,12,13,0.8,0.8
2022-11-08T00:00:00,1925A,108.9589,34.8731,铜川市,新区兰芝公司,,,,,,,,,,,,,,,,
2022-11-08T00:00:00,1926A,109.4131,36.6275,延安市,枣园(对照点),,46,46,44,22,21,109,4,84,24,49,36,4,5,0.8,0.8
2022-11-08T00:00:00,1927A,109.4761,36.6028,延安市,延大医附院,颗粒物(PM10),52,53,50,25,28,101,3,78,23,54,42,5,7,2.2,1.2
2022-11-08T00:00:00,1928A,109.4824,36.5767,延安市,市监测站,,,,,,,,,,,,,,,,
2022-11-08T00:00:00,1929A,109.5056,36.6106,延安市,百米大道,颗粒物(PM10),70,89,60,41,29,100,4,74,20,70,54,7,10,1.1,0.8
2022-11-08T00:00:00,1930A,107.185,34.3063,宝鸡市,庙沟村(对照点),细颗粒物(PM2.5),89,114,74,66,45,66,18,52,24,38,32,5,6,1.2,0.9
2022-11-08T00:00:00,1931A,107.0708,34.3017,宝鸡市,竹园沟,细颗粒物(PM2.5),108,105,76,81,59,80,19,58,34,23,26,5,6,0.9,0.8
2022-11-08T00:00:00,1932A,107.1906,34.3672,宝鸡市,三陆医院,细颗粒物(PM2.5),247,215,112,197,96,64,6,48,27,55,38,7,8,1.2,0.9
2022-11-08T00:00:00,1933A,107.1431,34.3547,宝鸡市,监测站,细颗粒物(PM2.5),135,113,86,103,72,62,4,36,16,46,41,6,7,0.9,0.8
2022-11-08T00:00:00,1934A,107.1186,34.3739,宝鸡市,技工学校,细颗粒物(PM2.5),193,150,92,145,78,65,18,47,32,43,37,5,8,1.1,0.9
2022-11-08T00:00:00,1935A,107.3906,34.3528,宝鸡市,陈仓区环保局家属楼,细颗粒物(PM2.5),211,207,137,161,104,77,1,62,44,77,48,9,16,1.3,1.2
2022-11-08T00:00:00,1936A,107.2058,34.3497,宝鸡市,文理学院,细颗粒物(PM2.5),144,164,102,110,72,69,3,48,22,65,47,8,9,1.1,0.9
2022-11-08T00:00:00,1937A,107.2386,34.3622,宝鸡市,三迪小学,细颗粒物(PM2.5),195,184,118,146,90,73,5,60,44,70,45,9,9,1.2,0.9
2022-11-08T00:00:00,1938A,109.5293,34.5101,渭南市,农科所(对照点),细颗粒物(PM2.5),201,215,148,151,104,136,5,100,38,70,52,8,12,1.4,1.2
2022-11-08T00:00:00,1939A,109.4974,34.4877,渭南市,日报社,细颗粒物(PM2.5),210,190,142,160,115,137,3,111,46,86,52,13,12,1.2,1
2022-11-08T00:00:00,1940A,109.4636,34.493,渭南市,体育馆,细颗粒物(PM2.5),218,205,191,168,123,147,6,111,41,94,56,10,12,1.3,1.1
2022-11-08T00:00:00,1941A,109.4259,34.5023,渭南市,高新一小,细颗粒物(PM2.5),221,204,167,171,136,131,5,107,49,89,52,8,11,1.3,1.2
2022-11-08T00:00:00,1943A,102.1725,38.5339,金昌市,新川苑,颗粒物(PM10),111,172,135,54,49,115,51,99,67,41,40,16,56,0.7,1.1
2022-11-08T00:00:00,1944A,102.1692,38.5167,金昌市,天庆家园,颗粒物(PM10),88,125,99,47,42,117,50,97,72,45,42,17,43,1.2,1.2
2022-11-08T00:00:00,1945A,98.2908,39.7711,嘉峪关市,气象局,颗粒物(PM10),62,73,63,27,22,106,64,96,68,32,42,4,5,0.3,0.3
2022-11-08T00:00:00,1947A,106.3394,38.817,石嘴山市,沙湖旅游区(对照点),颗粒物(PM10),117,184,81,52,39,110,5,89,41,83,47,18,23,1.3,1.3
2022-11-08T00:00:00,1948A,106.3668,39.0145,石嘴山市,大武口朝阳西街,颗粒物(PM10),56,61,61,35,27,105,35,81,54,57,48,17,17,0.9,1
2022-11-08T00:00:00,1949A,106.7704,39.2282,石嘴山市,惠农南大街,,23,23,45,11,17,95,47,78,40,19,33,9,16,0.3,0.5
2022-11-08T00:00:00,1950A,106.7099,39.1325,石嘴山市,红果子镇惠新街,,35,35,47,14,16,104,38,83,52,26,29,12,15,0.7,0.8
2022-11-08T00:00:00,1951A,84.895,45.6094,克拉玛依市,长征新村,,48,48,43,7,11,72,40,54,48,26,23,6,7,0.3,0.3
2022-11-08T00:00:00,1952A,84.8988,45.5893,克拉玛依市,南林小区,,45,45,44,20,18,71,32,56,47,29,25,1,2,0.6,0.5
2022-11-08T00:00:00,1953A,85.1186,45.6886,克拉玛依市,白碱滩区,,,,,,,,,,,,,,,,
2022-11-08T00:00:00,1954A,84.905,44.3396,克拉玛依市,独山子区,颗粒物(PM10),68,85,71,35,25,93,45,77,68,26,21,6,9,0.6,0.5
2022-11-08T00:00:00,1955A,85.6979,46.098,克拉玛依市,乌尔禾区商贸楼,颗粒物(PM10),58,65,46,31,17,76,37,63,50,30,24,5,5,0.6,0.7
2022-11-08T00:00:00,1956A,86.1472,41.7538,巴音郭楞州,孔雀公园,颗粒物(PM10),82,114,104,42,33,107,2,96,73,76,39,5,6,0.7,0.5
2022-11-08T00:00:00,1957A,86.1972,41.7166,巴音郭楞州,棉纺厂,颗粒物(PM10),116,182,130,57,35,109,25,95,68,50,31,5,6,0.5,0.4
2022-11-08T00:00:00,1958A,86.2357,41.7173,巴音郭楞州,经济开发区,颗粒物(PM10),90,130,94,37,25,109,51,94,73,21,16,7,8,0.4,0.3
2022-11-08T00:00:00,1959A,118.746,36.881,寿光市,监测站,,,,,,,,,,,,,,,,
2022-11-08T00:00:00,1960A,118.780,36.864,寿光市,世纪学校,,,,,,,,,,,,,,,,
2022-11-08T00:00:00,1961A,117.532,36.6868,济南市,东山小学,细颗粒物(PM2.5),104,154,155,78,88,122,3,98,30,79,52,7,8,0.8,0.7
2022-11-08T00:00:00,1962A,117.541,36.710,章丘市,明水开发区,,,,,,,,,,,,,,,,
2022-11-08T00:00:00,1963A,120.610,36.440,即墨市,环保局子站,,,,,,,,,,,,,,,,
2022-11-08T00:00:00,1964A,120.470,36.390,即墨市,开发区子站,,,,,,,,,,,,,,,,
2022-11-08T00:00:00,1965A,120.005,35.878,胶南市,JN子站,,,,,,,,,,,,,,,,
2022-11-08T00:00:00,1966A,120.0405,35.8735,青岛市,黄岛区4号,细颗粒物(PM2.5),175,173,78,132,49,144,79,128,96,59,41,12,11,1.8,1
2022-11-08T00:00:00,1967A,120.008,36.283,胶州市,胶州环保局,,,,,,,,,,,,,,,,
2022-11-08T00:00:00,1968A,120.014,36.253,胶州市,胶州一中,,,,,,,,,,,,,,,,
2022-11-08T00:00:00,1969A,120.537,36.865,莱西市,环保局子站,,,,,,,,,,,,,,,,
2022-11-08T00:00:00,1970A,120.515,36.885,莱西市,人民广场子站,,,,,,,,,,,,,,,,
2022-11-08T00:00:00,1971A,119.952,36.792,平度市,1号,,,,,,,,,,,,,,,,
2022-11-08T00:00:00,1972A,119.976,36.799,平度市,2号,,,,,,,,,,,,,,,,
2022-11-08T00:00:00,1973A,120.747,37.825,蓬莱市,蓬莱环保局,,,,,,,,,,,,,,,,
2022-11-08T00:00:00,1974A,120.773,37.809,蓬莱市,蓬莱博物馆,,,,,,,,,,,,,,,,
2022-11-08T00:00:00,1975A,120.399,37.374,招远市,招远环保局,,,,,,,,,,,,,,,,
2022-11-08T00:00:00,1976A,120.394,37.364,招远市,招远教育局,,,,,,,,,,,,,,,,
2022-11-08T00:00:00,1977A,119.941,37.177,莱州市,莱州环保局,,,,,,,,,,,,,,,,
2022-11-08T00:00:00,1978A,119.959,37.180,莱州市,莱州外经委,,,,,,,,,,,,,,,,
2022-11-08T00:00:00,1979A,122.471,37.154,荣成市,荣成市环保局办公楼,,,,,,,,,,,,,,,,
2022-11-08T00:00:00,1980A,122.410,37.161,荣成市,山东成山轮胎公司,,,,,,,,,,,,,,,,
2022-11-08T00:00:00,1981A,122.038,37.197,文登市,文登市环保局,,,,,,,,,,,,,,,,
2022-11-08T00:00:00,1982A,122.0693,37.2174,威海市,文登开发区,细颗粒物(PM2.5),119,127,66,90,42,122,51,108,71,35,28,6,6,1.1,0.8
2022-11-08T00:00:00,1983A,121.531,36.913,乳山市,乳山市环保局,,,,,,,,,,,,,,,,
2022-11-08T00:00:00,1984A,121.544,36.907,乳山市,乳山市气象局,,,,,,,,,,,,,,,,
2022-11-08T00:00:00,1985A,120.636,31.155,吴江市,吴江市环保局,,,,,,,,,,,,,,,,
2022-11-08T00:00:00,1986A,120.635,31.170,吴江市,教师进修学校,,,,,,,,,,,,,,,,
2022-11-08T00:00:00,1987A,120.658,31.172,吴江市,吴江开发区,,,,,,,,,,,,,,,,
2022-11-08T00:00:00,1988A,120.953,31.388,昆山市,昆山实验小学,,,,,,,,,,,,,,,,
2022-11-08T00:00:00,1989A,120.999,31.381,昆山市,震川中学,,,,,,,,,,,,,,,,
2022-11-08T00:00:00,1990A,120.758,31.670,常熟市,海虞子站,,,,,,,,,,,,,,,,
2022-11-08T00:00:00,1991A,120.721,31.671,常熟市,兴福子站,,,,,,,,,,,,,,,,
2022-11-08T00:00:00,1992A,120.734,31.656,常熟市,菱塘子站,,,,,,,,,,,,,,,,
2022-11-08T00:00:00,1993A,120.526,31.874,张家港市,张家港市监测站,,,,,,,,,,,,,,,,
2022-11-08T00:00:00,1994A,120.550,31.882,张家港市,城北小学,,,,,,,,,,,,,,,,
2022-11-08T00:00:00,1995A,121.115,31.453,太仓市,太仓市监测站,,,,,,,,,,,,,,,,
2022-11-08T00:00:00,1996A,121.140,31.422,太仓市,科教新城实小,,,,,,,,,,,,,,,,
2022-11-08T00:00:00,1997A,119.146,31.955,句容市,消防指挥中心,,,,,,,,,,,,,,,,
2022-11-08T00:00:00,1998A,119.180,31.955,句容市,房家坝,,,,,,,,,,,,,,,,
2022-11-08T00:00:00,1999A,120.268,31.920,江阴市,虹桥邮政,,,,,,,,,,,,,,,,
2022-11-08T00:00:00,2000A,120.237,31.909,江阴市,五星公园,,,,,,,,,,,,,,,,
2022-11-08T00:00:00,2001A,120.302,31.920,江阴市,第二实验小学,,,,,,,,,,,,,,,,
2022-11-08T00:00:00,2002A,119.818,31.354,宜兴市,宜兴市环保局,,,,,,,,,,,,,,,,
2022-11-08T00:00:00,2003A,119.794,31.371,宜兴市,宜园,,,,,,,,,,,,,,,,
2022-11-08T00:00:00,2004A,119.579,31.751,金坛市,金坛市环境监测站,,,,,,,,,,,,,,,,
2022-11-08T00:00:00,2005A,119.579,31.737,金坛市,金坛市自来水公司,,,,,,,,,,,,,,,,
2022-11-08T00:00:00,2006A,119.460,31.400,溧阳市,溧阳市东门子站,,,,,,,,,,,,,,,,
2022-11-08T00:00:00,2007A,119.438,31.317,溧阳市,燕山子站,,,,,,,,,,,,,,,,
2022-11-08T00:00:00,2008A,121.173,31.896,海门市,海门市监测站,,,,,,,,,,,,,,,,
2022-11-08T00:00:00,2009A,121.1518,31.89708,海门市,社会福利院,,,,,,,,,,,,,,,,
2022-11-08T00:00:00,2010A,119.7183,30.2366,临安市,市政府,,,,,,,,,,,,,,,,
2022-11-08T00:00:00,2011A,119.6942,30.2311,临安市,四中,,,,,,,,,,,,,,,,
2022-11-08T00:00:00,2012A,119.954,30.054,富阳市,监测站,,,,,,,,,,,,,,,,
2022-11-08T00:00:00,2013A,119.946,30.049,富阳市,富春二小,,,,,,,,,,,,,,,,
2022-11-08T00:00:00,2014A,120.091,29.305,义乌市,江东,,,,,,,,,,,,,,,,
2022-11-08T00:00:00,2015A,120.040,29.334,义乌市,北苑,,,,,,,,,,,,,,,,
2022-11-08T00:00:00,2016A,120.251,29.719,诸暨市,图书馆,,,,,,,,,,,,,,,,
2022-11-08T00:00:00,2017A,120.209,29.732,诸暨市,富林印务,,,,,,,,,,,,,,,,
2022-11-08T00:00:00,2018A,121.989,39.625,瓦房店市,抱龙山庄,,,,,,,,,,,,,,,,
2022-11-08T00:00:00,2019A,122.011,39.617,瓦房店市,东山公园,,,,,,,,,,,,,,,,
2022-11-08T00:00:00,2031A,113.1817,27.9958,株洲市,云田中学,颗粒物(PM10),52,54,49,33,27,125,56,115,94,36,19,8,9,0.7,0.6
2022-11-08T00:00:00,2054A,114.1099,32.1059,信阳市,平桥分局,细颗粒物(PM2.5),165,171,103,125,63,153,88,135,109,29,31,17,11,1.0,0.9
2022-11-08T00:00:00,2064A,113.9956,32.1271,信阳市,南湾水厂,细颗粒物(PM2.5),170,165,80,129,56,153,76,141,110,34,20,12,9,1.1,0.9
2022-11-08T00:00:00,2065A,114.0775,32.1195,信阳市,市酿酒公司,细颗粒物(PM2.5),153,149,84,117,56,154,79,136,105,28,30,11,8,1.0,0.9
2022-11-08T00:00:00,2066A,114.0609,32.1399,信阳市,审计局,细颗粒物(PM2.5),179,171,87,135,66,156,83,134,102,28,40,11,9,1.0,1
2022-11-08T00:00:00,2067A,114.6613,33.6128,周口市,市环境监测站,细颗粒物(PM2.5),201,223,157,151,112,136,87,126,111,22,30,32,18,1.1,1.1
2022-11-08T00:00:00,2068A,114.6758,33.6347,周口市,周口师范,细颗粒物(PM2.5),224,242,163,174,120,141,74,125,103,37,38,21,15,1.3,1.1
2022-11-08T00:00:00,2069A,114.6546,33.5979,周口市,市运管处,细颗粒物(PM2.5),208,191,168,158,129,130,89,121,104,30,46,30,21,0.8,0.8
2022-11-08T00:00:00,2070A,114.6369,33.6406,周口市,川汇区环保局,细颗粒物(PM2.5),213,229,158,163,122,136,70,117,90,39,42,18,12,1.1,0.9
2022-11-08T00:00:00,2075A,117.6336,24.4674,漳州市,九湖(对照点),,,,,,,,,,,,,,,,
2022-11-08T00:00:00,2160A,112.85,35.5051,晋城市,自来水公司,细颗粒物(PM2.5),119,130,105,90,71,144,52,132,111,41,33,8,12,1.1,1.3
2022-11-08T00:00:00,2161A,112.8318,35.4936,晋城市,白云商贸,细颗粒物(PM2.5),113,142,114,85,65,141,58,130,109,37,31,6,9,1.4,1.4
2022-11-08T00:00:00,2162A,112.8508,35.4887,晋城市,市环保局,细颗粒物(PM2.5),119,131,113,90,72,145,74,132,111,32,37,8,11,1.1,1.3
2022-11-08T00:00:00,2163A,112.8676,35.4897,晋城市,技术学院,细颗粒物(PM2.5),144,139,103,110,81,138,65,125,102,30,37,8,11,0.8,1.1
2022-11-08T00:00:00,2164A,112.8271,35.4828,晋城市,泽州一中,,,,,,,,,,,,,,,,
2022-11-08T00:00:00,2165A,112.8453,35.546,晋城市,白马寺 (对照点),,,,,,,,,,,,,,,,
2022-11-08T00:00:00,2166A,112.4397,39.3522,朔州市,平朔,颗粒物(PM10),78,105,83,54,49,79,17,66,40,33,32,13,20,0.7,0.6
2022-11-08T00:00:00,2167A,112.4575,39.3617,朔州市,朔唯,颗粒物(PM10),86,122,77,44,50,77,4,67,34,44,33,16,31,0.8,0.8
2022-11-08T00:00:00,2168A,112.4258,39.3197,朔州市,区政府,颗粒物(PM10),57,64,84,33,43,85,31,72,40,22,27,6,14,0.7,0.7
2022-11-08T00:00:00,2169A,112.4072,39.3278,朔州市,市环保局,颗粒物(PM10),52,53,81,34,49,82,38,68,36,17,24,9,15,0.6,0.8
2022-11-08T00:00:00,2170A,112.4272,39.3681,朔州市,市二中,颗粒物(PM10),100,150,112,70,56,76,8,64,42,46,39,12,20,1.3,1.2
2022-11-08T00:00:00,2171A,112.7532,37.6945,晋中市,锦纶小区,,,106,101,68,67,105,18,83,44,57,39,10,10,,0.6
2022-11-08T00:00:00,2173A,112.7249,37.7067,晋中市,南都小区,细颗粒物(PM2.5),87,121,122,64,65,100,15,84,43,75,50,15,9,0.6,0.6
2022-11-08T00:00:00,2174A,112.6991,37.6982,晋中市,榆次区政府,细颗粒物(PM2.5),100,127,105,75,68,101,6,77,33,84,50,14,11,0.7,0.8
2022-11-08T00:00:00,2175A,110.9956,35.0147,运城市,运城中学,细颗粒物(PM2.5),105,124,156,79,104,128,115,119,116,14,31,14,16,0.8,1.8
2022-11-08T00:00:00,2176A,111.0233,35.0611,运城市,禹都开发区,,,,,,,,,,,,,,,,
2022-11-08T00:00:00,2178A,110.9686,35.0303,运城市,地区技校,细颗粒物(PM2.5),102,124,173,76,101,128,116,108,106,16,42,14,20,1.1,2.2
2022-11-08T00:00:00,2179A,111.0414,35.1147,运城市,空港新区,细颗粒物(PM2.5),113,159,198,85,120,119,87,96,57,28,51,14,24,1.2,2.4
2022-11-08T00:00:00,2181A,112.7383,38.4519,忻州市,开发区,颗粒物(PM10),61,72,71,41,40,79,4,67,24,54,39,7,10,0.5,0.6
2022-11-08T00:00:00,2182A,112.7003,38.4928,忻州市,会展中心,颗粒物(PM10),71,92,71,45,41,66,16,60,23,57,38,8,9,0.6,0.5
2022-11-08T00:00:00,2183A,111.1406,37.5211,吕梁市,环保局,颗粒物(PM10),68,86,84,29,24,69,1,51,12,62,56,7,14,0.6,0.4
2022-11-08T00:00:00,2185A,111.1297,37.5136,吕梁市,自来水公司,颗粒物(PM10),80,109,91,34,29,64,5,51,18,48,47,8,11,0.5,0.5
2022-11-08T00:00:00,2186A,106.8288,39.6778,乌海市,聚英学校,,,,,,,,,,,,,,,,
2022-11-08T00:00:00,2187A,106.8174,39.6973,乌海市,市林业局,,42,42,77,21,25,74,74,46,45,20,57,22,25,0.5,0.8
2022-11-08T00:00:00,2188A,106.7907,39.6667,乌海市,中海勃湾学校,颗粒物(PM10),64,78,84,44,30,72,16,53,17,58,59,28,43,0.7,0.9
2022-11-08T00:00:00,2191A,122.2532,43.6801,通辽市,艺术职业学校,,38,38,44,9,11,76,54,66,49,17,28,7,7,0.5,0.5
2022-11-08T00:00:00,2192A,119.7594,49.2261,呼伦贝尔市,区环保局,,18,16,20,12,13,66,48,59,49,7,10,5,5,0.3,0.4
2022-11-08T00:00:00,2194A,107.5936,40.916,巴彦淖尔市,秋林养殖基地(对照点),,,,,,,,,,,,,,,,
2022-11-08T00:00:00,2195A,107.4212,40.761,巴彦淖尔市,附二中,颗粒物(PM10),88,126,73,45,20,68,6,58,25,55,30,45,16,0.8,0.5
2022-11-08T00:00:00,2196A,107.37,40.7372,巴彦淖尔市,市环保大楼,颗粒物(PM10),64,77,55,36,23,72,14,60,35,50,26,15,7,0.6,0.5
2022-11-08T00:00:00,2197A,113.1306,40.9923,乌兰察布市,集宁新区,,29,27,24,20,17,74,22,68,36,34,16,9,16,0.3,0.4
2022-11-08T00:00:00,2200A,122.0392,46.0656,兴安盟,胜华新制药厂,细颗粒物(PM2.5),60,65,45,43,25,70,3,64,16,42,26,4,3,0.8,0.3
2022-11-08T00:00:00,2201A,121.9504,46.0741,兴安盟,科右前旗环保局,细颗粒物(PM2.5),62,64,39,44,28,70,5,65,17,40,23,6,5,0.9,0.4
2022-11-08T00:00:00,2202A,116.1042,43.9317,锡林郭勒盟,市环保监测站,,16,10,19,8,5,76,51,66,55,7,8,8,9,0.2,0.2
2022-11-08T00:00:00,2203A,116.0781,43.9311,锡林郭勒盟,市政府,,17,6,21,2,4,75,54,67,56,8,13,9,9,0.1,0.2
2022-11-08T00:00:00,2204A,105.6467,38.8363,阿拉善盟,西城区西花园(对照点),,41,41,45,17,21,121,79,104,85,24,26,10,12,0.4,0.4
2022-11-08T00:00:00,2205A,105.6985,38.8411,阿拉善盟,蒙二幼,,40,40,45,25,34,118,84,106,84,16,21,9,11,0.4,0.5
2022-11-08T00:00:00,2206A,105.724,38.8516,阿拉善盟,环保局新楼,,32,29,31,18,22,116,102,104,96,10,15,8,11,0.3,0.4
2022-11-08T00:00:00,2207A,121.6094,41.998,阜新市,工业园区,颗粒物(PM10),80,110,92,46,56,79,3,64,14,40,38,20,18,0.8,0.9
2022-11-08T00:00:00,2208A,121.6697,42.0279,阜新市,长青街,细颗粒物(PM2.5),92,124,86,68,44,73,8,66,24,50,37,9,9,1.6,1
2022-11-08T00:00:00,2209A,121.6673,42.0705,阜新市,农业园区,细颗粒物(PM2.5),104,79,53,78,34,67,12,63,36,50,19,27,16,0.8,0.6
2022-11-08T00:00:00,2210A,121.6717,42.0224,阜新市,东苑,颗粒物(PM10),100,150,95,66,45,72,9,66,21,44,34,23,21,1.5,1.1
2022-11-08T00:00:00,2211A,121.6506,42.0498,阜新市,玉龙新城,细颗粒物(PM2.5),74,94,73,54,39,79,5,64,12,50,50,9,10,1.2,1.1
2022-11-08T00:00:00,2212A,123.2,41.1953,辽阳市,宏伟区,,31,31,56,14,33,76,34,50,31,22,35,17,18,0.5,0.9
2022-11-08T00:00:00,2213A,123.1683,41.2495,辽阳市,新华园,颗粒物(PM10),60,69,65,39,51,59,5,47,23,57,43,23,26,0.9,0.8
2022-11-08T00:00:00,2214A,123.2354,41.2639,辽阳市,滨河路,颗粒物(PM10),57,63,59,39,51,76,12,50,23,49,41,16,12,0.6,0.8
2022-11-08T00:00:00,2215A,123.149,41.2991,辽阳市,铁西工业园,细颗粒物(PM2.5),110,101,87,83,74,72,3,31,6,52,48,15,17,1.2,1
2022-11-08T00:00:00,2216A,123.8139,42.3022,铁岭市,汇工街西,,32,23,71,22,46,71,6,64,25,47,32,36,29,0.7,0.7
2022-11-08T00:00:00,2217A,123.8649,42.2923,铁岭市,水上乐园,,28,28,57,16,48,69,35,61,37,18,32,6,8,0.2,0.4
2022-11-08T00:00:00,2218A,123.8486,42.2867,铁岭市,银州路东段,细颗粒物(PM2.5),70,56,59,51,40,62,31,54,27,26,36,7,6,0.5,0.7
2022-11-08T00:00:00,2219A,123.7153,42.2217,铁岭市,金沙江路北,,27,27,40,15,32,71,31,61,24,35,33,7,7,0.4,0.6
2022-11-08T00:00:00,2220A,120.4318,41.5881,朝阳市,西梁,细颗粒物(PM2.5),75,92,70,55,38,70,6,70,18,44,35,12,11,1.9,1.2
2022-11-08T00:00:00,2221A,120.4521,41.5646,朝阳市,河畔小区,,39,26,60,27,44,66,12,58,23,34,26,9,11,1.2,1.4
2022-11-08T00:00:00,2222A,120.4176,41.5648,朝阳市,八里堡,颗粒物(PM10),59,67,78,30,47,72,4,63,17,40,35,11,12,1.0,1.1
2022-11-08T00:00:00,2223A,120.3806,41.5969,朝阳市,农业园区,,33,30,56,23,44,71,6,63,23,51,30,4,5,1.0,1
2022-11-08T00:00:00,2225A,124.4002,43.1713,四平市,一商场,,35,35,81,16,43,62,35,50,24,28,39,5,9,0.3,0.9
2022-11-08T00:00:00,2226A,124.388,43.193,四平市,境园,颗粒物(PM10),66,81,86,26,44,67,14,56,11,52,34,9,9,0.2,0.8
2022-11-08T00:00:00,2227A,125.1358,42.8845,辽源市,环保局,细颗粒物(PM2.5),64,62,44,46,36,75,9,66,25,34,26,7,8,1.1,0.8
2022-11-08T00:00:00,2229A,125.9358,41.7173,通化市,光明,,44,44,40,21,20,85,18,68,13,26,34,16,13,0.4,0.6
2022-11-08T00:00:00,2230A,125.9446,41.7325,通化市,铁路,,43,43,35,20,22,86,11,66,15,38,37,19,15,0.6,0.8
2022-11-08T00:00:00,2231A,126.4219,41.9171,白山市,喜丰,颗粒物(PM10),61,72,50,18,21,82,10,67,35,39,32,5,10,0.6,0.7
2022-11-08T00:00:00,2232A,126.4077,41.9419,白山市,环保局,颗粒物(PM10),52,54,58,14,26,72,29,64,49,22,35,9,10,0.8,1
2022-11-08T00:00:00,2233A,124.8006,45.1214,松原市,江南,,37,37,54,18,35,63,28,54,17,24,37,8,11,0.3,0.5
2022-11-08T00:00:00,2234A,124.7965,45.1722,松原市,江北,细颗粒物(PM2.5),59,34,47,42,28,68,39,58,30,14,30,2,4,0.3,0.4
2022-11-08T00:00:00,2235A,122.7911,45.6077,白城市,洮北区环保局,细颗粒物(PM2.5),70,84,50,51,29,82,41,77,39,36,27,8,7,0.4,0.3
2022-11-08T00:00:00,2236A,122.8738,45.5725,白城市,市环保局,颗粒物(PM10),58,65,49,17,16,80,12,74,20,58,31,13,10,0.6,0.5
2022-11-08T00:00:00,2237A,129.47,42.8883,延边朝鲜族自治州,妇幼医院,,40,40,31,16,25,59,35,34,21,31,31,8,12,0.5,0.6
2022-11-08T00:00:00,2238A,129.5055,42.9108,延边朝鲜族自治州,延边医院,,38,38,47,13,42,54,54,25,17,15,39,8,12,0.5,0.9
2022-11-08T00:00:00,2239A,129.3964,42.8881,延边朝鲜族自治州,朝阳川镇医院,,34,34,37,13,27,58,47,37,19,15,27,6,11,0.4,0.6
2022-11-08T00:00:00,2240A,130.9762,45.3001,鸡西市,环保局,细颗粒物(PM2.5),94,90,93,70,54,64,51,50,42,26,36,6,10,0.5,0.9
2022-11-08T00:00:00,2243A,130.9429,45.3039,鸡西市,第一中学,细颗粒物(PM2.5),102,113,78,76,38,78,58,65,54,20,24,7,9,0.6,0.7
2022-11-08T00:00:00,2244A,130.2537,47.3416,鹤岗市,哈啤分公司,细颗粒物(PM2.5),79,76,88,58,39,78,74,52,52,11,27,10,13,0.4,0.5
2022-11-08T00:00:00,2245A,130.2684,47.3086,鹤岗市,斯达机电,细颗粒物(PM2.5),80,84,83,59,41,70,70,50,50,16,34,8,11,0.5,0.6
2022-11-08T00:00:00,2246A,130.3114,47.3388,鹤岗市,东山纸板厂,细颗粒物(PM2.5),107,98,154,80,54,72,60,42,42,22,37,16,17,1.2,1.3
2022-11-08T00:00:00,2247A,130.1097,47.3382,鹤岗市,五号水库(对照点),细颗粒物(PM2.5),82,65,42,60,31,67,58,52,52,14,15,7,8,0.4,0.4
2022-11-08T00:00:00,2248A,131.1511,46.6937,双鸭山市,双合村,细颗粒物(PM2.5),74,38,101,54,64,75,68,54,54,9,30,5,16,0.3,1
2022-11-08T00:00:00,2249A,131.1652,46.6191,双鸭山市,南小市,细颗粒物(PM2.5),99,92,82,74,50,78,56,62,62,14,21,5,9,0.4,0.4
2022-11-08T00:00:00,2250A,131.1524,46.6554,双鸭山市,环保局,细颗粒物(PM2.5),90,108,79,67,53,75,50,60,60,28,36,17,8,1.0,0.6
2022-11-08T00:00:00,2251A,131.12,46.5656,双鸭山市,苗圃(对照点),细颗粒物(PM2.5),117,91,52,88,47,74,50,69,64,14,10,4,4,0.5,0.4
2022-11-08T00:00:00,2252A,128.5159,47.4311,伊春市,环保局,细颗粒物(PM2.5),150,110,91,115,87,76,48,53,48,23,29,5,9,0.7,0.9
2022-11-08T00:00:00,2253A,128.9102,47.7412,伊春市,电力嘉园,细颗粒物(PM2.5),113,105,94,85,65,81,52,73,68,12,22,4,9,0.7,0.9
2022-11-08T00:00:00,2254A,129.5029,48.471,伊春市,汤旺河国家公园(对照点),细颗粒物(PM2.5),52,49,77,36,70,148,47,72,40,4,5,5,6,0,0.2
2022-11-08T00:00:00,2255A,130.2751,46.8028,佳木斯市,佳纺,,47,47,101,32,53,48,46,33,33,17,33,4,6,0.3,0.7
2022-11-08T00:00:00,2256A,130.3995,46.8307,佳木斯市,发电厂,,49,40,68,34,50,57,51,35,35,17,34,2,3,0.5,0.6
2022-11-08T00:00:00,2257A,130.3258,46.7975,佳木斯市,环保局,细颗粒物(PM2.5),69,62,94,50,66,49,47,36,29,21,44,5,9,0.7,1
2022-11-08T00:00:00,2258A,130.3648,46.8032,佳木斯市,十一中,颗粒物(PM10),51,52,93,28,68,52,50,35,35,22,52,2,6,0.5,1
2022-11-08T00:00:00,2259A,130.3794,46.7588,佳木斯市,四丰(对照点),,42,34,63,29,52,68,68,62,62,7,24,1,1,0.2,0.5
2022-11-08T00:00:00,2262A,131.0518,45.8751,七台河市,新一中(对照点),,40,36,62,28,43,97,71,87,78,12,16,10,11,1.3,1.5
2022-11-08T00:00:00,2263A,127.4833,50.2524,黑河市,交通局,,16,15,26,11,13,58,27,39,19,13,24,5,6,0.2,0.3
2022-11-08T00:00:00,2264A,127.5144,50.2341,黑河市,环保局,颗粒物(PM10),57,63,48,26,19,62,8,48,20,32,26,8,10,0.6,0.6
2022-11-08T00:00:00,2265A,127.5291,50.2472,黑河市,大黑河岛(对照点),,,17,21,,25,63,19,50,24,6,7,2,4,0.2,0.2
2022-11-08T00:00:00,2266A,126.9785,46.6365,绥化市,人和东街,细颗粒物(PM2.5),74,63,203,54,179,112,40,85,50,21,33,4,5,1.0,1.3
2022-11-08T00:00:00,2267A,126.964,46.6528,绥化市,党政办公中心,细颗粒物(PM2.5),87,65,198,64,194,132,51,99,62,19,27,5,7,0.9,1.2
2022-11-08T00:00:00,2269A,124.1069,50.4097,大兴安岭地区,科技局,,22,11,14,15,12,72,23,56,23,11,12,3,4,0.2,0.3
2022-11-08T00:00:00,2270A,117.396,32.939,蚌埠市,工人疗养院,细颗粒物(PM2.5),107,108,98,80,56,155,71,128,106,50,45,13,9,0.6,0.6
2022-11-08T00:00:00,2271A,117.3605,32.9427,蚌埠市,百货大楼,细颗粒物(PM2.5),89,109,100,66,56,152,82,124,100,44,53,13,14,0.6,0.6
2022-11-08T00:00:00,2273A,117.4185,32.8911,蚌埠市,蚌埠学院,颗粒物(PM10),78,105,99,46,54,150,26,122,66,98,52,13,13,0.6,0.6
2022-11-08T00:00:00,2274A,117.3533,32.9673,蚌埠市,淮上区政府,细颗粒物(PM2.5),104,134,109,78,59,153,18,127,86,93,52,10,12,0.7,0.6
2022-11-08T00:00:00,2275A,117.3145,32.8977,蚌埠市,高新区,,,,89,162,56,152,18,128,78,113,55,19,18,0.7,0.6
2022-11-08T00:00:00,2277A,116.8305,32.7727,淮南市,潘集区政府,细颗粒物(PM2.5),143,168,121,109,74,162,62,134,93,44,39,14,13,0.6,0.5
2022-11-08T00:00:00,2278A,117.0067,32.6524,淮南市,师范学院,颗粒物(PM10),92,134,121,63,63,173,95,137,84,37,48,61,16,1.9,0.8
2022-11-08T00:00:00,2279A,116.8569,32.5951,淮南市,谢家集区政府,细颗粒物(PM2.5),110,138,106,83,63,151,69,127,85,48,45,17,17,0.6,0.5
2022-11-08T00:00:00,2280A,116.8281,32.633,淮南市,八公山区政府,细颗粒物(PM2.5),114,113,82,86,56,157,75,132,100,35,30,18,15,0.6,0.5
2022-11-08T00:00:00,2281A,116.6325,32.6201,淮南市,焦岗湖风景区管理处(对照点),细颗粒物(PM2.5),124,152,105,94,63,150,48,118,66,17,10,16,15,0.6,0.5
2022-11-08T00:00:00,2282A,116.8004,33.975,淮北市,监测站,细颗粒物(PM2.5),158,174,126,120,80,151,79,117,80,40,43,20,13,0.9,0.9
2022-11-08T00:00:00,2283A,116.8091,33.9007,淮北市,烈山区政府,细颗粒物(PM2.5),152,158,122,116,83,152,32,127,77,67,49,10,10,0.9,0.7
2022-11-08T00:00:00,2284A,116.7856,33.9477,淮北市,职业技术学院,细颗粒物(PM2.5),173,185,148,131,85,149,84,122,91,52,51,18,13,0.9,0.8
2022-11-08T00:00:00,2285A,117.8177,30.9412,铜陵市,市第四中学,颗粒物(PM10),62,74,64,31,34,119,26,102,53,54,51,5,10,0.6,0.9
2022-11-08T00:00:00,2286A,117.8059,30.9273,铜陵市,市公路局,细颗粒物(PM2.5),62,51,63,44,41,123,30,103,56,54,44,13,11,0.6,0.9
2022-11-08T00:00:00,2287A,117.7807,30.9413,铜陵市,市新民污水厂,颗粒物(PM10),63,76,60,35,31,133,2,110,40,84,57,7,10,0.8,0.7
2022-11-08T00:00:00,2288A,117.7439,30.8792,铜陵市,市第九中学,颗粒物(PM10),109,167,90,45,34,114,3,95,48,101,59,8,9,0.8,0.8
2022-11-08T00:00:00,2289A,117.846,30.9413,铜陵市,车站新区,颗粒物(PM10),55,59,48,32,29,127,10,104,54,72,44,5,7,0.5,0.6
2022-11-08T00:00:00,2290A,117.8483,30.97,铜陵市,市职教基地,颗粒物(PM10),83,115,64,56,35,143,4,118,58,49,35,9,9,0.7,0.6
2022-11-08T00:00:00,2291A,117.0809,30.5177,安庆市,环科院,颗粒物(PM10),58,66,56,39,34,135,102,116,97,23,47,10,11,0.6,0.6
2022-11-08T00:00:00,2292A,117.0331,30.5119,安庆市,马山宾馆,颗粒物(PM10),56,62,55,39,31,144,100,120,99,23,40,6,10,0.7,0.7
2022-11-08T00:00:00,2294A,116.9896,30.6145,安庆市,安庆大学,颗粒物(PM10),65,80,61,38,35,171,14,133,84,73,43,6,8,1.0,0.8
2022-11-08T00:00:00,2295A,118.2903,29.6963,黄山市,延安路89号,,25,23,24,17,17,104,23,94,51,17,15,6,6,0.5,0.5
2022-11-08T00:00:00,2296A,118.327,29.7178,黄山市,黄山东路89号,,35,32,28,24,15,94,27,86,43,20,19,5,5,0.3,0.2
2022-11-08T00:00:00,2297A,118.1371,30.2756,黄山市,黄山区政府5号楼,,34,34,41,17,21,101,20,89,42,8,11,5,5,0.4,0.4
2022-11-08T00:00:00,2298A,118.3093,32.3153,滁州市,老年大学,细颗粒物(PM2.5),92,89,81,68,48,166,84,130,84,42,47,9,11,0.5,0.5
2022-11-08T00:00:00,2299A,118.3244,32.2786,滁州市,人大宾馆,颗粒物(PM10),77,103,88,45,39,170,70,130,86,56,52,5,8,0.7,0.6
2022-11-08T00:00:00,2301A,115.8277,32.8929,阜阳市,市监测站,细颗粒物(PM2.5),114,128,98,86,63,138,86,116,90,35,37,9,11,0.7,0.8
2022-11-08T00:00:00,2303A,115.8554,32.8605,阜阳市,开发区,细颗粒物(PM2.5),133,158,123,101,68,144,71,122,77,43,47,8,9,0.7,0.7
2022-11-08T00:00:00,2306A,116.989,33.6306,宿州市,火车站,,,,,,,,,,,,,,,,
2022-11-08T00:00:00,2307A,116.5079,31.737,六安市,监测大楼,细颗粒物(PM2.5),88,106,66,65,38,155,21,136,82,90,42,9,8,0.6,0.5
2022-11-08T00:00:00,2308A,116.4738,31.7643,六安市,皖西学院,颗粒物(PM10),70,89,65,48,32,156,9,136,78,83,36,6,7,0.7,0.6
2022-11-08T00:00:00,2309A,116.4996,31.7905,六安市,朝阳厂,细颗粒物(PM2.5),79,97,59,58,37,152,1,137,75,84,35,4,5,0.8,0.5
2022-11-08T00:00:00,2310A,116.5567,31.7886,六安市,开发区,细颗粒物(PM2.5),133,170,97,101,52,152,31,128,49,79,41,9,9,0.7,0.5
2022-11-08T00:00:00,2311A,115.8072,33.8399,亳州市,污水处理厂,细颗粒物(PM2.5),155,175,112,118,73,144,73,121,90,33,35,14,15,1.0,0.8
