timepoint,stationcode,longitude,latitude,area,positionname,primarypollutant,aqi,pm10,pm10_24h,pm2_5,pm2_5_24h,o3,o3_24h,o3_8h,o3_8h_24h,no2,no2_24h,so2,so2_24h,co,co_24h
2022-11-08T18:00:00,1001A,116.3621,39.8784,北京市,万寿西宫,"颗粒物(PM10),细颗粒物(PM2.5)",64,78,62,46,32,59,38,44,44,46,56,3,3,0.5,0.6
2022-11-08T18:00:00,1002A,116.2202,40.2915,北京市,定陵(对照点),颗粒物(PM10),65,80,34,44,16,68,46,54,54,27,12,3,2,0.5,0.3
2022-11-08T18:00:00,1003A,116.4174,39.9289,北京市,东四,细颗粒物(PM2.5),64,70,67,46,34,61,45,47,47,28,40,1,2,0.4,0.7
2022-11-08T18:00:00,1004A,116.4072,39.8863,北京市,天坛,颗粒物(PM10),56,61,58,39,27,65,35,46,46,35,46,3,3,0.4,0.6
2022-11-08T18:00:00,1005A,116.462,39.9365,北京市,农展馆,颗粒物(PM10),58,66,75,36,33,67,51,46,46,38,58,1,2,0.4,0.6
2022-11-08T18:00:00,1006A,116.3392,39.9295,北京市,官园,细颗粒物(PM2.5),65,70,62,47,31,71,49,54,54,42,54,3,4,0.3,0.5
2022-11-08T18:00:00,1007A,116.2878,39.9611,北京市,海淀万柳,"颗粒物(PM10),细颗粒物(PM2.5)",64,77,66,46,27,56,14,39,39,78,57,1,2,0.5,0.7
2022-11-08T18:00:00,1008A,116.6636,40.135,北京市,顺义新城,细颗粒物(PM2.5),92,110,65,68,30,49,10,36,34,93,54,3,3,0.6,0.5
2022-11-08T18:00:00,1009A,116.6275,40.3275,北京市,怀柔镇,细颗粒物(PM2.5),78,87,36,57,20,59,18,42,42,76,27,1,2,0.7,0.3
2022-11-08T18:00:00,1010A,116.2296,40.217,北京市,昌平镇,颗粒物(PM10),75,99,42,52,19,57,18,39,39,65,32,2,2,0.7,0.4
2022-11-08T18:00:00,1011A,116.3966,39.9821,北京市,奥体中心,颗粒物(PM10),59,68,58,41,27,69,50,48,48,38,52,1,2,0.4,0.5
2022-11-08T18:00:00,1012A,116.184,39.9136,北京市,古城,颗粒物(PM10),64,77,58,41,23,67,44,48,48,48,50,1,2,0.4,0.4
2022-11-08T18:00:00,1015A,117.1444,39.1661,天津市,勤俭道,细颗粒物(PM2.5),113,130,101,85,62,114,102,104,104,46,59,14,12,1.0,1
2022-11-08T18:00:00,1017A,117.237,39.1082,天津市,大直沽八号路,细颗粒物(PM2.5),128,170,111,97,67,114,78,104,104,59,61,11,10,1.3,1.2
2022-11-08T18:00:00,1018A,117.202,39.0927,天津市,前进道,细颗粒物(PM2.5),103,133,100,77,62,116,100,100,100,48,62,14,12,1.1,0.9
2022-11-08T18:00:00,1019A,117.1837,39.2133,天津市,淮河道,细颗粒物(PM2.5),89,115,103,66,58,115,88,105,103,52,66,12,12,0.7,0.8
2022-11-08T18:00:00,1021A,117.307,39.0877,天津市,跃进路,细颗粒物(PM2.5),115,149,111,87,64,126,59,99,99,75,63,12,12,1.3,1
2022-11-08T18:00:00,1023A,117.707,39.0343,天津市,第四大街,细颗粒物(PM2.5),78,91,130,57,85,110,59,86,86,61,64,11,10,0.8,1
2022-11-08T18:00:00,1024A,117.457,38.8394,天津市,永明路,细颗粒物(PM2.5),135,151,122,103,80,134,64,106,105,69,65,14,14,1.0,1
2022-11-08T18:00:00,1026A,117.764,39.1587,天津市,汉北路,细颗粒物(PM2.5),87,99,109,64,71,117,70,89,89,51,62,12,12,0.6,0.8
2022-11-08T18:00:00,1027A,117.157,38.9194,天津市,团泊洼(对照点),,,,,,,,,,,,,,,,
2022-11-08T18:00:00,1029A,114.4422,38.0444,石家庄市,职工医院,,,,96,,65,76,,55,55,,54,,7,,0.7
2022-11-08T18:00:00,1030A,114.6063,38.0266,石家庄市,高新区,细颗粒物(PM2.5),77,59,83,56,67,92,80,73,73,27,45,5,4,0.5,0.8
2022-11-08T18:00:00,1031A,114.4898,38.1328,石家庄市,西北水源,细颗粒物(PM2.5),82,94,109,60,65,85,75,63,63,31,51,7,7,0.7,0.9
2022-11-08T18:00:00,1032A,114.4586,38.0058,石家庄市,西南高教,细颗粒物(PM2.5),94,76,89,70,73,81,68,67,67,39,55,5,6,0.5,0.7
2022-11-08T18:00:00,1033A,114.5331,38.0178,石家庄市,世纪公园,细颗粒物(PM2.5),73,73,80,53,61,77,61,63,63,34,44,5,5,0.7,0.8
2022-11-08T18:00:00,1034A,114.509,38.0457,石家庄市,人民会堂,细颗粒物(PM2.5),85,73,92,63,75,87,74,70,70,35,44,5,5,0.4,0.6
2022-11-08T18:00:00,1035A,114.3524,37.8911,石家庄市,封龙山(对照点),,,100,70,51,50,97,77,84,84,36,31,,,0.8,0.8
2022-11-08T18:00:00,1037A,118.131,39.6363,唐山市,雷达站,细颗粒物(PM2.5),100,107,95,75,60,106,106,91,91,32,44,5,8,0.6,0.9
2022-11-08T18:00:00,1038A,118.1725,39.6334,唐山市,物资局,细颗粒物(PM2.5),107,105,98,80,62,102,82,92,92,58,61,11,14,0.7,1
2022-11-08T18:00:00,1040A,118.1705,39.6506,唐山市,十二中,细颗粒物(PM2.5),109,108,95,82,52,98,92,89,89,42,60,8,11,0.6,1
2022-11-08T18:00:00,1041A,118.1869,39.622,唐山市,小山,细颗粒物(PM2.5),98,114,104,73,61,106,76,92,92,56,60,7,11,0.8,1
2022-11-08T18:00:00,1042A,119.5134,39.8207,秦皇岛市,北戴河环保局,,42,42,55,17,19,85,80,76,76,21,40,5,12,0.1,0.3
2022-11-08T18:00:00,1043A,119.7493,40.0116,秦皇岛市,第一关,颗粒物(PM10),57,63,60,35,25,98,73,89,89,37,50,8,11,0.5,0.6
2022-11-08T18:00:00,1044A,119.5897,39.9499,秦皇岛市,监测站,颗粒物(PM10),53,56,68,28,33,101,76,85,85,23,41,8,16,0.4,0.6
2022-11-08T18:00:00,1046A,119.5251,39.9041,秦皇岛市,建设大厦,颗粒物(PM10),64,78,84,38,34,115,77,98,98,31,44,6,16,0.5,0.8
2022-11-08T18:00:00,1047A,114.5129,36.61763,邯郸市,环保局,,,,,,,,,,,,,,,,
2022-11-08T18:00:00,1048A,114.5302,36.6116,邯郸市,东污水处理厂,细颗粒物(PM2.5),135,107,107,103,74,94,80,69,69,49,55,10,8,0.7,1.4
2022-11-08T18:00:00,1049A,114.4918,36.5713,邯郸市,矿院,细颗粒物(PM2.5),128,110,105,97,77,111,100,84,84,41,58,32,12,0.7,1.4
2022-11-08T18:00:00,1050A,114.484,36.6133,邯郸市,丛台公园,细颗粒物(PM2.5),113,114,110,85,73,107,104,81,81,27,50,16,10,0.4,1.8
2022-11-08T18:00:00,1051A,115.493,38.8632,保定市,游泳馆,细颗粒物(PM2.5),64,55,103,46,77,92,59,75,75,50,60,12,9,0.4,0.8
2022-11-08T18:00:00,1052A,115.5213,38.8959,保定市,华电二区,颗粒物(PM10),54,57,92,37,73,90,66,75,75,51,66,11,8,0.8,1.2
2022-11-08T18:00:00,1053A,115.4713,38.9108,保定市,接待中心,颗粒物(PM10),64,78,107,39,67,91,63,73,73,40,52,10,7,0.4,0.8
2022-11-08T18:00:00,1054A,115.4612,38.8416,保定市,地表水厂,颗粒物(PM10),84,118,118,45,68,82,28,64,64,81,62,12,9,0.4,0.6
2022-11-08T18:00:00,1055A,115.4323,38.8697,保定市,胶片厂,,,,,,,,,,,,,,,,
2022-11-08T18:00:00,1056A,115.5086,38.8639,保定市,监测站,颗粒物(PM10),76,102,116,50,75,94,67,76,76,51,56,9,7,0.8,1.1
2022-11-08T18:00:00,1057A,114.8883,40.8336,张家口市,人民公园,,,112,34,56,12,87,41,72,70,,11,13,15,0.7,0.3
2022-11-08T18:00:00,1059A,114.8687,40.8042,张家口市,五金库,细颗粒物(PM2.5),64,71,28,46,17,78,50,67,67,41,12,14,11,0.5,0.2
2022-11-08T18:00:00,1060A,114.8902,40.762,张家口市,世纪豪园,细颗粒物(PM2.5),94,124,41,70,19,100,27,72,69,65,14,12,5,1.1,0.6
2022-11-08T18:00:00,1061A,114.8916,40.8661,张家口市,北泵房(对照点),颗粒物(PM10),146,241,44,75,18,90,38,76,73,44,15,18,13,1.0,0.5
2022-11-08T18:00:00,1062A,117.9531,40.9081,承德市,铁路,颗粒物(PM10),82,113,44,43,16,51,4,29,28,81,44,13,9,1.2,0.6
2022-11-08T18:00:00,1063A,117.9392,40.9763,承德市,中国银行,颗粒物(PM10),67,83,44,38,19,70,7,41,39,68,39,6,6,1.1,0.6
2022-11-08T18:00:00,1064A,117.9503,40.928,承德市,开发区,,48,42,36,33,19,55,16,39,38,64,42,8,7,1.0,0.7
2022-11-08T18:00:00,1065A,117.8051,40.9655,承德市,文化中心,细颗粒物(PM2.5),89,124,71,66,28,46,7,30,27,69,47,20,13,1.6,1
2022-11-08T18:00:00,1066A,117.9268,41.0026,承德市,离宫(对照点),颗粒物(PM10),62,74,27,38,19,71,32,44,44,42,33,10,10,0.8,0.4
2022-11-08T18:00:00,1067A,116.6708,39.5111,廊坊市,药材公司,细颗粒物(PM2.5),59,65,48,42,26,92,80,66,66,29,50,9,8,0.4,0.5
2022-11-08T18:00:00,1068A,116.7214,39.5589,廊坊市,开发区,颗粒物(PM10),53,56,45,36,27,90,75,68,68,41,53,9,9,0.7,0.7
2022-11-08T18:00:00,1070A,116.7244,39.5269,廊坊市,北华航天学院,颗粒物(PM10),61,71,58,40,26,93,74,69,69,38,52,7,6,0.6,0.8
2022-11-08T18:00:00,1071A,116.8842,38.2991,沧州市,沧县城建局,细颗粒物(PM2.5),85,85,90,63,68,133,99,118,118,33,39,10,15,0.9,0.9
2022-11-08T18:00:00,1072A,116.8584,38.3254,沧州市,电视转播站,细颗粒物(PM2.5),80,90,95,59,64,150,121,134,134,13,24,10,18,0.8,0.9
2022-11-08T18:00:00,1073A,116.8709,38.3228,沧州市,市环保局,细颗粒物(PM2.5),88,99,99,65,69,146,111,130,130,27,28,13,17,0.8,0.8
2022-11-08T18:00:00,1074A,115.6838,37.7541,衡水市,电机北厂,细颗粒物(PM2.5),57,59,58,40,34,94,76,80,80,34,41,10,12,0.5,0.5
2022-11-08T18:00:00,1075A,115.6303,37.7316,衡水市,市监测站,颗粒物(PM10),69,88,68,36,37,88,58,69,69,50,49,7,8,0.7,0.6
2022-11-08T18:00:00,1077A,114.4704,37.0886,邢台市,达活泉,细颗粒物(PM2.5),90,89,77,67,64,88,81,73,73,42,51,8,6,0.6,0.8
2022-11-08T18:00:00,1078A,114.5062,37.0349,邢台市,邢师高专,细颗粒物(PM2.5),89,90,78,66,60,83,75,69,69,37,43,9,7,0.6,0.8
2022-11-08T18:00:00,1079A,114.5237,37.0851,邢台市,路桥公司,细颗粒物(PM2.5),92,86,71,68,60,96,77,73,73,38,40,10,8,0.9,0.9
2022-11-08T18:00:00,1080A,114.4725,37.0719,邢台市,市环保局,细颗粒物(PM2.5),89,92,85,66,63,86,78,72,72,37,46,11,9,0.6,0.7
2022-11-08T18:00:00,1081A,112.5139,37.8873,太原市,尖草坪,细颗粒物(PM2.5),132,167,100,100,54,124,92,88,88,51,61,11,11,1.1,0.8
2022-11-08T18:00:00,1083A,112.434,38.0108,太原市,上兰(对照点),,,,,,,,,,,,,,,,
2022-11-08T18:00:00,1084A,112.469,37.7124,太原市,晋源,细颗粒物(PM2.5),173,208,108,131,64,121,42,86,86,87,62,11,9,1.3,1
2022-11-08T18:00:00,1085A,112.5583,37.7394,太原市,小店,细颗粒物(PM2.5),172,173,133,130,68,119,42,89,83,86,71,12,20,1.3,1.6
2022-11-08T18:00:00,1086A,112.5369,37.8692,太原市,桃园,细颗粒物(PM2.5),142,166,104,108,54,120,83,85,85,55,62,10,10,1.2,1.1
2022-11-08T18:00:00,1087A,112.57,37.8195,太原市,坞城,细颗粒物(PM2.5),150,171,112,115,64,129,78,96,96,51,57,12,16,1.1,1.1
2022-11-08T18:00:00,1088A,112.549,37.9854,太原市,南寨,细颗粒物(PM2.5),132,152,105,100,53,109,32,75,75,94,54,12,11,1.4,0.9
2022-11-08T18:00:00,1089A,112.4701,37.782,太原市,金胜,,,,,,,,,,,,,,,,
2022-11-08T18:00:00,1090A,111.6507,40.7517,呼和浩特市,呼市一监,,,73,40,49,24,20,13,17,17,,,7,8,0.8,0.7
2022-11-08T18:00:00,1091A,111.6572,40.8033,呼和浩特市,小召,颗粒物(PM10),51,51,41,33,19,87,77,74,74,34,42,26,17,0.6,0.6
2022-11-08T18:00:00,1094A,111.7516,40.8369,呼和浩特市,如意水处理厂,,45,45,32,26,16,66,48,53,53,43,49,6,4,0.9,0.8
2022-11-08T18:00:00,1095A,111.7276,40.8062,呼和浩特市,二十九中,颗粒物(PM10),51,51,32,32,19,84,76,73,73,34,40,29,13,0.9,0.9
2022-11-08T18:00:00,1096A,111.5512,40.7866,呼和浩特市,工大金川校区,,,,,,,,,,,,,,,,
2022-11-08T18:00:00,1097A,111.717,40.7612,呼和浩特市,化肥厂生活区,,,61,46,38,25,87,70,73,73,,,30,16,0.7,0.7
2022-11-08T18:00:00,1098A,123.6836,41.9339,沈阳市,森林路(对照点),,,,,,,,,,,,,,,,
2022-11-08T18:00:00,1099A,123.505,41.7406,沈阳市,浑南东路,颗粒物(PM10),55,59,58,29,32,76,54,61,60,41,43,15,19,0.8,0.9
2022-11-08T18:00:00,1100A,123.4231,41.6989,沈阳市,新秀街,颗粒物(PM10),63,76,61,34,29,73,46,58,58,45,44,15,26,0.8,1.1
2022-11-08T18:00:00,1102A,123.5903,41.8411,沈阳市,东陵路,颗粒物(PM10),53,55,58,30,31,73,54,57,57,38,37,16,15,0.8,0.9
2022-11-08T18:00:00,1103A,123.4264,41.8467,沈阳市,陵东街,颗粒物(PM10),53,55,84,26,39,72,58,58,58,38,56,18,13,0.9,1.4
2022-11-08T18:00:00,1104A,123.4114,41.7653,沈阳市,文化路,颗粒物(PM10),60,69,67,37,36,76,61,61,61,33,50,19,35,1.1,1.4
2022-11-08T18:00:00,1105A,123.4678,41.7867,沈阳市,小河沿,颗粒物(PM10),58,66,74,31,34,74,58,58,58,40,48,16,14,0.9,1
2022-11-08T18:00:00,1106A,123.4017,41.7972,沈阳市,太原街,颗粒物(PM10),75,99,70,50,42,70,55,56,56,41,55,24,36,1.0,1.3
2022-11-08T18:00:00,1108A,123.3783,41.9228,沈阳市,京沈街,颗粒物(PM10),58,66,78,29,38,75,58,63,63,35,49,16,27,0.6,1
2022-11-08T18:00:00,1109A,121.612,38.9741,大连市,甘井子,细颗粒物(PM2.5),75,82,39,55,25,80,75,69,69,46,42,7,14,0.6,0.7
2022-11-08T18:00:00,1110A,121.565,38.9511,大连市,周水子,细颗粒物(PM2.5),75,98,53,55,25,81,62,63,63,47,44,9,11,0.8,0.7
2022-11-08T18:00:00,1111A,121.5637,38.8845,大连市,星海三站,,,76,43,62,35,81,80,71,71,29,43,10,20,,0.9
2022-11-08T18:00:00,1112A,121.6302,38.9117,大连市,青泥洼桥,颗粒物(PM10),61,72,52,38,25,100,86,84,84,37,56,10,15,1.0,1
2022-11-08T18:00:00,1113A,121.6251,38.8638,大连市,傅家庄,颗粒物(PM10),51,52,52,29,26,98,98,84,84,19,42,7,19,1.1,1.2
2022-11-08T18:00:00,1114A,121.5213,38.8661,大连市,七贤岭,颗粒物(PM10),69,87,38,46,22,111,88,90,90,34,29,9,12,0.9,0.8
2022-11-08T18:00:00,1115A,121.2529,38.8061,大连市,旅顺,细颗粒物(PM2.5),58,46,22,41,20,110,101,91,91,20,21,5,9,0.6,0.5
2022-11-08T18:00:00,1116A,121.7485,39.1311,大连市,金州,,46,46,40,27,23,83,74,73,73,36,37,9,13,0.6,0.6
2022-11-08T18:00:00,1117A,121.7811,39.0496,大连市,开发区,,41,41,53,21,27,96,81,80,80,39,51,5,10,0.6,0.8
2022-11-08T18:00:00,1118A,121.9762,39.0631,大连市,双D港,,35,34,49,24,35,88,76,76,76,12,18,9,14,0.6,0.9
2022-11-08T18:00:00,1119A,125.3325,43.9166,长春市,食品厂,颗粒物(PM10),57,63,68,33,23,55,9,47,43,73,47,23,13,0.9,0.6
2022-11-08T18:00:00,1120A,125.2863,43.9027,长春市,客车厂,颗粒物(PM10),66,81,69,24,23,56,11,48,43,69,44,22,14,1.0,0.8
2022-11-08T18:00:00,1121A,125.2841,43.8463,长春市,邮电学院,颗粒物(PM10),53,55,53,30,20,63,18,55,51,69,47,33,14,0.8,0.6
2022-11-08T18:00:00,1122A,125.3716,43.8772,长春市,劳动公园,颗粒物(PM10),58,65,58,29,21,65,23,57,54,60,39,21,18,0.9,0.7
2022-11-08T18:00:00,1123A,125.3297,43.8805,长春市,园林处,颗粒物(PM10),53,56,57,28,18,63,28,53,52,58,41,33,16,0.8,0.5
2022-11-08T18:00:00,1124A,125.4605,43.79,长春市,净月潭,,27,27,33,10,10,68,54,61,61,17,19,7,7,0.4,0.3
2022-11-08T18:00:00,1125A,125.7194,43.515,长春市,甩湾子(对照点),,,,,,,,,,,,,,,,
2022-11-08T18:00:00,1126A,125.3863,43.8447,长春市,经开区环卫处,颗粒物(PM10),55,59,66,24,23,64,21,55,52,56,42,10,10,0.8,0.6
2022-11-08T18:00:00,1127A,125.245,43.7783,长春市,高新区管委会,颗粒物(PM10),59,67,54,37,28,64,10,55,49,71,39,9,8,0.8,0.7
2022-11-08T18:00:00,1128A,125.1761,43.8325,长春市,岱山公园,颗粒物(PM10),69,87,59,38,19,63,12,55,47,76,43,16,13,0.8,0.5
2022-11-08T18:00:00,1129A,126.5422,45.755,哈尔滨市,岭北(对照点),颗粒物(PM10),81,112,74,28,34,57,37,44,44,34,31,18,16,0.3,0.3
2022-11-08T18:00:00,1130A,126.561,45.8167,哈尔滨市,松北商大,细颗粒物(PM2.5),75,73,58,55,40,68,30,49,46,41,31,6,8,0.6,0.6
2022-11-08T18:00:00,1131A,126.979,45.5419,哈尔滨市,阿城会宁,颗粒物(PM10),65,79,54,46,23,58,31,48,48,36,26,19,19,0.7,0.5
2022-11-08T18:00:00,1132A,126.599,45.7222,哈尔滨市,南岗学府路,颗粒物(PM10),58,66,56,30,25,66,33,49,49,45,32,15,17,0.5,0.5
2022-11-08T18:00:00,1133A,126.689,45.7733,哈尔滨市,太平宏伟公园,颗粒物(PM10),59,68,59,31,27,64,24,45,45,61,39,11,11,0.7,0.5
2022-11-08T18:00:00,1134A,126.635,45.7667,哈尔滨市,道外承德广场,颗粒物(PM10),74,97,76,32,26,55,28,42,42,47,37,10,11,0.6,0.5
2022-11-08T18:00:00,1135A,126.685,45.7319,哈尔滨市,香坊红旗大街,颗粒物(PM10),64,78,62,40,32,54,12,35,34,69,45,27,38,0.8,0.6
2022-11-08T18:00:00,1136A,126.6411,45.7258,哈尔滨市,动力和平路,"颗粒物(PM10),细颗粒物(PM2.5)",62,73,55,44,26,57,23,40,40,58,41,13,12,0.7,0.7
2022-11-08T18:00:00,1137A,126.593,45.7478,哈尔滨市,道里建国路,颗粒物(PM10),63,75,49,37,34,55,22,40,40,54,40,15,15,0.3,0.3
2022-11-08T18:00:00,1138A,126.615,45.61,哈尔滨市,平房东轻厂,颗粒物(PM10),130,210,55,34,22,63,43,52,52,28,29,12,12,0.2,0.2
2022-11-08T18:00:00,1139A,126.595,45.9855,哈尔滨市,呼兰师专,颗粒物(PM10),61,72,82,36,59,67,39,48,48,44,38,18,16,0.6,0.8
2022-11-08T18:00:00,1140A,126.6206,45.6842,哈尔滨市,省农科院,颗粒物(PM10),82,114,64,47,43,64,19,46,45,60,40,20,16,0.5,0.5
2022-11-08T18:00:00,1141A,121.4,31.238,上海市,普陀,颗粒物(PM10),54,57,35,11,16,95,85,82,82,26,37,4,4,0.6,0.6
2022-11-08T18:00:00,1142A,121.478,31.2036,上海市,十五厂,,36,36,33,16,19,104,86,88,88,35,55,7,8,0.6,0.6
2022-11-08T18:00:00,1143A,121.467,31.3008,上海市,虹口,,27,27,31,15,16,90,72,76,76,33,43,6,6,0.6,0.6
2022-11-08T18:00:00,1144A,121.412,31.1654,上海市,徐汇上师大,,42,42,37,20,17,99,88,86,86,31,50,7,7,0.7,0.7
2022-11-08T18:00:00,1145A,121.536,31.2659,上海市,杨浦四漂,,25,24,40,11,20,95,80,82,82,39,59,7,8,0.6,0.7
2022-11-08T18:00:00,1146A,120.978,31.0935,上海市,青浦淀山湖(对照点),,,,,,,,,,,,,,,,
2022-11-08T18:00:00,1147A,121.425,31.2261,上海市,静安监测站,,30,30,36,15,18,96,86,83,83,27,38,5,6,0.6,0.5
2022-11-08T18:00:00,1148A,121.703,31.1907,上海市,浦东川沙,,33,33,38,10,17,116,88,98,98,23,37,5,6,0.5,0.5
2022-11-08T18:00:00,1149A,121.533,31.2284,上海市,浦东新区监测站,,28,21,32,11,18,93,87,81,81,18,31,5,6,0.6,0.6
2022-11-08T18:00:00,1150A,121.577,31.2071,上海市,浦东张江,,27,27,30,15,19,93,76,82,82,30,38,4,4,0.7,0.6
2022-11-08T18:00:00,1151A,118.8086,32.1065,南京市,迈皋桥,细颗粒物(PM2.5),104,,109,78,59,109,46,80,80,112,94,5,4,1.0,0.7
2022-11-08T18:00:00,1152A,118.7538,32.0551,南京市,草场门,细颗粒物(PM2.5),94,127,95,70,56,107,60,81,81,99,81,6,5,1.2,0.9
2022-11-08T18:00:00,1153A,118.7794,32.0745,南京市,山西路,细颗粒物(PM2.5),104,139,105,78,60,121,68,93,93,90,79,5,5,0.7,0.6
2022-11-08T18:00:00,1154A,118.7752,32.0023,南京市,中华门,颗粒物(PM10),89,127,102,63,54,136,73,99,99,88,70,4,8,0.8,0.7
2022-11-08T18:00:00,1155A,118.8109,32.0309,南京市,瑞金路,细颗粒物(PM2.5),110,112,91,83,57,143,91,98,98,66,66,4,4,0.7,0.7
2022-11-08T18:00:00,1156A,118.7997,32.0754,南京市,玄武湖,细颗粒物(PM2.5),125,126,107,95,71,121,76,90,90,77,74,6,4,0.8,0.5
2022-11-08T18:00:00,1157A,118.6414,32.0931,南京市,浦口,细颗粒物(PM2.5),77,89,73,56,51,138,118,109,109,39,30,6,10,0.7,0.8
2022-11-08T18:00:00,1158A,118.7356,31.9996,南京市,奥体中心,细颗粒物(PM2.5),100,119,99,75,61,130,90,98,98,70,75,5,6,0.8,0.9
2022-11-08T18:00:00,1159A,118.9125,32.1028,南京市,仙林大学城,细颗粒物(PM2.5),100,136,100,75,57,106,87,87,87,83,72,6,6,1.0,0.8
2022-11-08T18:00:00,1160A,120.561,31.2472,苏州市,上方山(对照点),,30,30,44,15,26,105,74,93,93,30,38,5,6,0.4,0.5
2022-11-08T18:00:00,1161A,120.628,31.2864,苏州市,南门,,,,,,,,,,,,,,,,
2022-11-08T18:00:00,1162A,120.591,31.3019,苏州市,彩香,,28,23,45,9,25,108,87,100,100,25,43,6,6,0.5,0.6
2022-11-08T18:00:00,1163A,120.596,31.3264,苏州市,轧钢厂,,28,23,48,7,22,113,89,99,99,26,45,6,7,0.6,0.8
2022-11-08T18:00:00,1164A,120.613,31.2703,苏州市,吴中区,,26,26,44,9,22,111,76,99,99,34,47,6,7,0.6,0.7
2022-11-08T18:00:00,1165A,120.543,31.2994,苏州市,苏州新区,,28,21,48,10,29,105,88,97,97,17,46,6,7,0.4,0.5
2022-11-08T18:00:00,1166A,120.669,31.3097,苏州市,苏州工业园区,,25,22,42,9,21,99,80,86,86,26,42,6,6,0.6,0.7
2022-11-08T18:00:00,1167A,120.641,31.3708,苏州市,相城区,,,,45,,22,90,58,76,76,44,61,5,7,,0.7
2022-11-08T18:00:00,1168A,120.9098,31.9663,南通市,狼山街道,,32,32,36,7,18,120,101,107,106,14,32,7,7,0.3,0.4
2022-11-08T18:00:00,1169A,120.86,32.0005,南通市,虹桥,,32,32,54,15,33,113,96,101,101,23,52,5,7,0.4,0.5
2022-11-08T18:00:00,1170A,120.87,32.02,南通市,城中,,31,31,44,18,33,121,99,104,104,17,41,2,5,0.1,0.3
2022-11-08T18:00:00,1171A,120.94,31.93,南通市,星湖花园,,29,28,37,9,23,115,90,103,103,22,35,6,7,0.4,0.4
2022-11-08T18:00:00,1172A,120.81,32.0417,南通市,紫琅学院,,33,33,57,14,31,120,95,99,99,22,54,6,8,0.3,0.5
2022-11-08T18:00:00,1173A,119.176,34.5885,连云港市,市环境监测站,,44,44,134,19,92,149,95,127,127,24,38,7,10,0.4,0.9
2022-11-08T18:00:00,1177A,117.179,34.2761,徐州市,黄河新村,细颗粒物(PM2.5),133,158,176,101,121,162,97,130,130,76,59,11,17,1.3,1.5
2022-11-08T18:00:00,1178A,117.1918,34.2384,徐州市,淮塔,细颗粒物(PM2.5),125,166,193,95,124,170,131,143,143,53,62,10,14,1.1,1.4
2022-11-08T18:00:00,1180A,117.256,34.2153,徐州市,新城区,细颗粒物(PM2.5),149,159,181,114,126,173,131,142,142,50,72,11,17,1.3,1.4
2022-11-08T18:00:00,1181A,117.244,34.2911,徐州市,桃园路,细颗粒物(PM2.5),144,212,218,110,143,178,87,144,144,89,71,6,12,1.1,1.5
2022-11-08T18:00:00,1182A,117.2933,34.2778,徐州市,农科院,细颗粒物(PM2.5),149,190,195,114,123,158,30,118,116,131,81,,15,1.1,1.4
2022-11-08T18:00:00,1186A,119.389,32.3761,扬州市,邗江监测站,颗粒物(PM10),90,129,93,50,47,159,103,116,116,67,38,14,12,1.4,0.9
2022-11-08T18:00:00,1188A,120.269,31.4867,无锡市,雪浪,,48,48,56,17,29,104,64,82,82,48,44,6,7,0.7,0.8
2022-11-08T18:00:00,1189A,120.275,31.6219,无锡市,黄巷,颗粒物(PM10),60,70,103,12,43,117,17,77,77,87,75,9,14,0.9,1.2
2022-11-08T18:00:00,1190A,120.294,31.56,无锡市,曹张,颗粒物(PM10),53,55,70,19,36,116,50,86,86,53,73,11,12,0.7,1
2022-11-08T18:00:00,1191A,120.242,31.5031,无锡市,漆塘,,,,47,,28,122,58,97,97,29,33,10,10,,0.9
2022-11-08T18:00:00,1192A,120.3489,31.5863,无锡市,东亭,颗粒物(PM10),52,53,68,17,35,110,40,80,80,56,67,10,10,1.0,1.3
2022-11-08T18:00:00,1193A,120.354,31.5475,无锡市,旺庄,,44,44,79,17,40,112,42,83,83,61,76,12,12,1.1,1.3
2022-11-08T18:00:00,1194A,120.245,31.5631,无锡市,荣巷,,46,46,52,22,30,123,58,97,97,59,47,9,9,0.8,0.8
2022-11-08T18:00:00,1195A,120.299,31.6817,无锡市,堰桥,颗粒物(PM10),56,61,77,24,39,126,58,96,96,52,65,9,10,0.8,1
2022-11-08T18:00:00,1196A,119.9633,31.762,常州市,市监测站,细颗粒物(PM2.5),53,48,122,37,71,139,73,107,107,71,86,8,10,0.6,1
2022-11-08T18:00:00,1200A,119.9468,31.7069,常州市,武进监测站,,35,35,107,24,56,149,104,117,117,41,78,8,11,0.5,1
2022-11-08T18:00:00,1201A,119.9255,31.9087,常州市,安家,细颗粒物(PM2.5),52,46,118,36,69,166,78,117,117,60,62,6,11,0.6,0.8
2022-11-08T18:00:00,1203A,119.6707,32.1875,镇江市,新区办事处,颗粒物(PM10),62,73,89,42,58,156,73,113,108,86,58,15,11,1.3,1
2022-11-08T18:00:00,1204A,119.4974,32.1968,镇江市,职教中心,细颗粒物(PM2.5),300,87,85,250,111,136,53,110,91,116,50,17,14,1.4,0.9
2022-11-08T18:00:00,1205A,119.4303,32.1328,镇江市,丹徒区监测站,细颗粒物(PM2.5),98,113,97,73,71,186,84,121,121,79,43,12,9,1.6,0.8
2022-11-08T18:00:00,1206A,119.905,32.4878,泰州市,公园路,细颗粒物(PM2.5),70,85,80,51,53,143,91,112,112,39,34,10,11,1.1,0.9
2022-11-08T18:00:00,1207A,119.9189,32.4625,泰州市,莲花,,,,93,,62,152,109,119,119,52,54,,16,,0.9
2022-11-08T18:00:00,1209A,119.888,32.4639,泰州市,留学生创业园,颗粒物(PM10),65,80,92,45,58,161,113,127,127,42,35,9,13,1.1,0.9
2022-11-08T18:00:00,1210A,119.036,33.5981,淮安市,钵池山,,,,88,48,74,132,119,120,120,24,42,7,8,,0.8
2022-11-08T18:00:00,1211A,119.007,33.575,淮安市,北京南路,,,80,87,56,71,137,103,119,119,,36,7,7,0.8,0.8
2022-11-08T18:00:00,1212A,118.989,33.6067,淮安市,市监测站,颗粒物(PM10),56,61,90,27,68,136,120,122,122,33,43,5,5,0.7,0.8
2022-11-08T18:00:00,1213A,119.135,33.5039,淮安市,楚州区监测站,细颗粒物(PM2.5),62,71,84,44,60,133,101,117,117,30,29,8,8,0.9,0.8
2022-11-08T18:00:00,1214A,119.0186,33.6297,淮安市,淮阴区监测站,细颗粒物(PM2.5),72,70,98,52,76,133,111,117,117,36,40,6,7,0.6,0.6
2022-11-08T18:00:00,1215A,120.118,33.4022,盐城市,盐城电厂,,39,34,51,27,53,125,81,108,108,24,42,6,6,0.5,0.6
2022-11-08T18:00:00,1216A,120.156,33.3942,盐城市,市监测站,,44,44,66,26,49,107,69,94,94,26,39,6,7,0.5,0.6
2022-11-08T18:00:00,1218A,120.2144,33.38,盐城市,开发区管委会,,,,54,,41,114,74,100,100,24,36,5,7,,0.5
2022-11-08T18:00:00,1220A,118.293,33.9528,宿迁市,宿迁学院,"颗粒物(PM10),细颗粒物(PM2.5)",58,66,126,41,65,146,88,120,120,53,52,6,8,0.7,0.9
2022-11-08T18:00:00,1221A,118.2442,33.9592,宿迁市,宿迁中学,颗粒物(PM10),65,80,139,41,56,144,94,124,124,48,45,5,7,0.7,0.9
2022-11-08T18:00:00,1223A,120.2072,30.2111,杭州市,滨江,,33,29,90,14,47,154,103,112,112,33,67,7,8,0.5,0.7
2022-11-08T18:00:00,1224A,120.0633,30.2747,杭州市,西溪,颗粒物(PM10),51,52,69,28,39,153,100,105,105,30,39,9,9,0.4,0.6
2022-11-08T18:00:00,1225A,119.026,29.635,杭州市,千岛湖(对照点),,,,,,,,,,,,,,,,
2022-11-08T18:00:00,1226A,120.3461,30.3153,杭州市,下沙,,25,21,61,12,32,166,80,120,120,33,61,9,11,0.5,0.7
2022-11-08T18:00:00,1227A,120.1269,30.2456,杭州市,卧龙桥,,,,68,16,43,159,117,119,119,27,35,8,7,0.5,0.6
2022-11-08T18:00:00,1228A,120.1903,30.2692,杭州市,浙江农大,,33,29,76,19,44,166,105,123,123,33,60,8,9,0.6,0.8
2022-11-08T18:00:00,1229A,120.157,30.2897,杭州市,朝晖五区,,,,,,,,,,,,,,,,
2022-11-08T18:00:00,1230A,120.1197,30.3119,杭州市,和睦小学,,46,46,94,18,47,147,104,110,110,34,69,2,3,0.6,0.8
2022-11-08T18:00:00,1231A,120.3019,30.4183,杭州市,临平镇,,32,32,77,12,32,155,90,119,119,24,47,7,8,0.5,0.7
2022-11-08T18:00:00,1232A,120.2697,30.1819,杭州市,城厢镇,,42,42,83,14,50,164,102,122,122,36,67,8,8,0.5,0.7
2022-11-08T18:00:00,1233A,120.0883,30.1808,杭州市,云栖,,,,74,,39,156,130,123,123,32,43,8,7,0.5,0.6
2022-11-08T18:00:00,1234A,121.8358,29.911,宁波市,区环保大楼,,28,28,23,14,12,110,70,91,91,44,43,6,6,0.4,0.5
2022-11-08T18:00:00,1235A,121.56,29.82,宁波市,万里学院,,,15,36,8,19,114,108,106,106,,31,6,9,0.3,0.4
2022-11-08T18:00:00,1236A,121.713,29.9572,宁波市,龙赛医院,,31,25,40,13,19,100,97,88,88,32,46,10,13,0.5,0.6
2022-11-08T18:00:00,1239A,121.633,29.7733,宁波市,钱湖水厂,,31,28,22,21,14,114,98,99,99,8,12,6,7,0.3,0.4
2022-11-08T18:00:00,1240A,121.5856,29.8635,宁波市,太古小学,,30,23,30,5,21,111,96,96,96,24,33,9,10,0.5,0.5
2022-11-08T18:00:00,1241A,121.524,29.8674,宁波市,市环境监测中心,,30,19,32,9,16,108,94,90,90,22,34,6,11,0.1,0.2
2022-11-08T18:00:00,1242A,120.634,28.0089,温州市,瓯海,,34,34,51,11,29,127,96,106,106,27,39,7,8,0.5,0.5
2022-11-08T18:00:00,1243A,120.6748,27.9939,温州市,南浦,,31,31,47,12,23,122,93,105,105,27,41,6,6,0.3,0.4
2022-11-08T18:00:00,1244A,120.76,27.9747,温州市,龙湾,,32,32,49,12,19,130,97,107,107,26,44,8,8,0.4,0.4
2022-11-08T18:00:00,1245A,120.6709,28.0167,温州市,市站,颗粒物(PM10),55,60,54,10,21,115,77,96,96,50,42,6,6,0.3,0.4
2022-11-08T18:00:00,1246A,120.598,30.0911,绍兴市,袍江站,,,,,,,,,,,,,,,,
2022-11-08T18:00:00,1247A,120.6053,29.9928,绍兴市,城东开发委,,37,37,77,21,51,131,71,103,103,36,42,10,11,0.6,0.7
2022-11-08T18:00:00,1250A,120.0751,30.8669,湖州市,城西水厂,,31,28,62,9,34,159,97,112,112,35,65,6,7,0.4,0.6
2022-11-08T18:00:00,1252A,120.7436,30.778,嘉兴市,清河小学,,33,22,33,12,17,123,105,112,112,23,38,8,8,0.4,0.5
2022-11-08T18:00:00,1253A,120.726,30.7478,嘉兴市,嘉兴学院,,31,23,35,4,22,119,98,111,111,31,37,8,7,0.3,0.4
2022-11-08T18:00:00,1255A,121.273,28.6459,台州市,黄岩环保大楼,,35,21,25,9,13,122,109,112,112,16,17,5,6,0.3,0.3
2022-11-08T18:00:00,1256A,121.419,28.6542,台州市,台州环保大楼,,35,18,27,10,14,122,109,113,113,14,22,7,8,0.4,0.4
2022-11-08T18:00:00,1257A,121.377,28.5773,台州市,路桥田洋王,,49,49,36,31,20,118,101,110,110,18,28,5,6,0.5,0.5
2022-11-08T18:00:00,1258A,122.122,30.0203,舟山市,定海檀枫,,31,15,16,11,7,118,97,103,103,19,20,5,5,0.3,0.5
2022-11-08T18:00:00,1259A,122.3094,29.9558,舟山市,普陀东港,,29,14,12,6,6,119,92,111,111,19,13,5,5,0.5,0.4
2022-11-08T18:00:00,1260A,122.19,29.9944,舟山市,临城新区,,31,28,15,10,7,117,98,108,108,17,15,5,6,0.4,0.3
2022-11-08T18:00:00,1261A,119.649,29.1131,金华市,四中(停运161031),,,,,,,,,,,,,,,,
2022-11-08T18:00:00,1262A,119.647,29.077,金华市,十五中,颗粒物(PM10),56,62,64,27,39,153,111,132,132,46,46,5,6,0.6,0.6
2022-11-08T18:00:00,1263A,119.686,29.1029,金华市,监测站,,,69,65,32,37,155,,136,136,49,43,4,7,0.5,0.5
2022-11-08T18:00:00,1264A,118.8692,28.9398,衢州市,环保大楼,细颗粒物(PM2.5),63,60,50,45,35,142,115,128,126,32,30,10,9,0.6,0.6
2022-11-08T18:00:00,1265A,118.8709,28.9666,衢州市,实验学校,细颗粒物(PM2.5),62,65,43,44,29,143,123,129,129,31,30,14,9,0.6,0.6
2022-11-08T18:00:00,1266A,118.8621,28.9808,衢州市,衢州学院,颗粒物(PM10),54,58,46,37,31,132,115,120,120,28,28,12,9,0.5,0.5
2022-11-08T18:00:00,1267A,119.914,28.4514,丽水市,监测站大楼,,33,32,33,16,18,112,105,102,102,17,17,7,7,0.5,0.4
2022-11-08T18:00:00,1268A,119.93,28.4586,丽水市,莲都小学,,44,44,37,20,18,114,110,104,104,18,17,6,6,0.5,0.4
2022-11-08T18:00:00,1269A,119.879,28.4231,丽水市,余庄前,,28,28,29,14,14,117,75,102,102,16,17,6,6,0.5,0.4
2022-11-08T18:00:00,1270A,117.1959,31.7848,合肥市,明珠广场,颗粒物(PM10),74,97,109,48,52,184,102,142,142,81,74,12,12,1.0,1
2022-11-08T18:00:00,1271A,117.3072,31.8764,合肥市,三里街,颗粒物(PM10),63,75,100,31,48,167,130,144,144,42,58,9,11,0.7,0.8
2022-11-08T18:00:00,1272A,117.2588,31.8707,合肥市,琥珀山庄,颗粒物(PM10),60,70,101,34,55,168,128,144,144,32,48,10,10,0.7,1
2022-11-08T18:00:00,1273A,117.1604,31.9052,合肥市,董铺水库(对照点),颗粒物(PM10),63,75,100,34,46,171,142,150,150,29,39,10,10,0.8,0.9
2022-11-08T18:00:00,1274A,117.25,31.8571,合肥市,长江中路,细颗粒物(PM2.5),67,73,101,48,65,176,143,150,150,27,44,10,11,1.0,1.1
2022-11-08T18:00:00,1275A,117.266,31.9436,合肥市,庐阳区,颗粒物(PM10),64,78,104,44,54,162,105,137,137,65,53,5,6,0.5,0.7
2022-11-08T18:00:00,1276A,117.336,31.8586,合肥市,瑶海区,颗粒物(PM10),65,80,108,38,60,166,129,144,144,39,55,13,14,1.1,1.2
2022-11-08T18:00:00,1277A,117.3027,31.7964,合肥市,包河区,颗粒物(PM10),75,100,118,48,60,181,74,144,144,96,92,10,13,1.0,1
2022-11-08T18:00:00,1278A,117.2776,31.7385,合肥市,滨湖新区,颗粒物(PM10),62,73,99,36,49,181,150,160,160,31,74,13,13,0.8,0.9
2022-11-08T18:00:00,1279A,117.1318,31.8403,合肥市,高新区,颗粒物(PM10),64,78,94,41,50,170,128,148,148,52,59,7,9,0.8,0.8
2022-11-08T18:00:00,1280A,119.3903,26.0543,福州市,鼓山(对照点),,,,,,,,,,,,,,,,
2022-11-08T18:00:00,1282A,119.2681,26.0504,福州市,师大,,33,14,26,7,12,109,104,102,102,4,12,4,5,0.4,0.6
2022-11-08T18:00:00,1283A,119.2984,26.1028,福州市,五四北路,,31,22,21,9,10,103,99,99,99,7,10,3,4,0.5,0.7
2022-11-08T18:00:00,1284A,119.2648,26.0768,福州市,杨桥西路,,33,10,27,10,12,108,104,102,102,6,13,3,4,0.3,0.6
2022-11-08T18:00:00,1285A,119.317,26.0746,福州市,紫阳,,34,17,24,11,12,108,108,103,103,5,10,4,6,0.3,0.5
2022-11-08T18:00:00,1286A,118.1608,24.8169,厦门市,溪东(对照点),,,,,,,,,,,,,,,,
2022-11-08T18:00:00,1287A,118.1514,24.4767,厦门市,洪文,颗粒物(PM10),53,56,30,20,14,81,71,72,72,37,22,4,3,0.4,0.4
2022-11-08T18:00:00,1288A,118.0661,24.4444,厦门市,鼓浪屿,颗粒物(PM10),51,51,24,17,11,78,73,73,73,30,18,5,4,0.3,0.2
2022-11-08T18:00:00,1290A,115.8931,28.6843,南昌市,省外办,颗粒物(PM10),64,78,68,38,32,128,82,109,109,38,36,6,10,0.7,0.7
2022-11-08T18:00:00,1291A,115.8886,28.7003,南昌市,省林业公司,,44,44,62,27,34,124,98,108,108,28,46,5,10,0.7,0.8
2022-11-08T18:00:00,1292A,115.8126,28.7442,南昌市,林科所,,46,46,36,19,20,132,92,128,122,32,20,8,10,0.5,0.5
2022-11-08T18:00:00,1294A,115.8518,28.687,南昌市,建工学校,细颗粒物(PM2.5),58,55,56,41,31,131,118,118,118,17,28,11,14,0.7,0.8
2022-11-08T18:00:00,1295A,115.8921,28.6424,南昌市,象湖,细颗粒物(PM2.5),62,46,53,44,34,130,108,114,114,27,36,6,9,0.7,0.8
2022-11-08T18:00:00,1296A,115.7423,28.7996,南昌市,武术学校(对照点),,36,36,26,20,21,117,85,103,103,7,8,13,9,0.4,0.4
2022-11-08T18:00:00,1298A,115.9314,28.6842,南昌市,省站,颗粒物(PM10),58,66,76,38,40,117,86,104,104,36,42,7,11,0.7,0.8
2022-11-08T18:00:00,1299A,116.9862,36.6114,济南市,科干所,细颗粒物(PM2.5),132,156,147,100,88,162,147,126,126,23,52,8,8,1.1,1
2022-11-08T18:00:00,1300A,116.9376,36.665,济南市,农科所,细颗粒物(PM2.5),125,164,162,95,81,149,105,103,103,48,70,8,10,0.9,1
2022-11-08T18:00:00,1301A,117.1265,36.6734,济南市,开发区,细颗粒物(PM2.5),145,215,168,111,94,118,32,68,68,124,84,13,12,1.1,1.1
2022-11-08T18:00:00,1303A,117.0624,36.6868,济南市,省种子仓库,细颗粒物(PM2.5),147,202,175,112,104,154,42,83,83,123,84,9,10,1.1,1.1
2022-11-08T18:00:00,1304A,116.9489,36.6447,济南市,机床二厂,细颗粒物(PM2.5),147,190,171,112,101,160,113,122,122,58,67,12,10,1.3,1.3
2022-11-08T18:00:00,1305A,117.0495,36.663,济南市,市监测站,颗粒物(PM10),136,222,162,100,85,166,38,100,100,129,80,13,11,1.4,1.2
2022-11-08T18:00:00,1306A,116.7675,36.5484,济南市,长清党校,细颗粒物(PM2.5),135,176,144,103,81,170,128,136,136,63,65,13,11,1.1,1
2022-11-08T18:00:00,1307A,120.6659,36.2403,青岛市,仰口(对照点),细颗粒物(PM2.5),119,114,134,90,94,136,107,122,103,22,27,4,6,0.5,0.6
2022-11-08T18:00:00,1308A,120.3905,36.1851,青岛市,李沧区子站,,,,,,,,,,,,,,,,
2022-11-08T18:00:00,1309A,120.3471,36.0699,青岛市,市北区子站,,,,,,,,,,,,,,,,
2022-11-08T18:00:00,1310A,120.4134,36.0658,青岛市,市南区东部子站,细颗粒物(PM2.5),100,117,177,75,108,136,108,117,117,27,48,8,10,1.1,1.3
2022-11-08T18:00:00,1311A,120.3664,36.1032,青岛市,四方区子站,细颗粒物(PM2.5),100,122,188,75,125,124,83,79,79,51,64,5,8,1.0,1.2
2022-11-08T18:00:00,1312A,120.2994,36.054,青岛市,市南区西部子站,细颗粒物(PM2.5),85,92,149,63,106,141,136,108,108,20,40,8,10,1.0,1.4
2022-11-08T18:00:00,1313A,120.4581,36.0858,青岛市,崂山区子站,细颗粒物(PM2.5),89,114,179,66,107,144,133,129,129,24,47,7,9,0.6,0.9
2022-11-08T18:00:00,1314A,120.1983,35.9608,青岛市,黄岛区子站,细颗粒物(PM2.5),110,114,190,83,129,141,110,110,110,41,71,6,9,0.9,1.3
2022-11-08T18:00:00,1315A,120.3999,36.3083,青岛市,城阳区子站,颗粒物(PM10),89,127,184,53,90,122,85,79,79,60,63,6,7,0.9,1.2
2022-11-08T18:00:00,1316A,113.69031,34.76122,郑州市,烟厂,细颗粒物(PM2.5),148,93,89,113,93,106,93,82,82,41,33,12,12,0.9,0.7
2022-11-08T18:00:00,1317A,113.65724,34.77134,郑州市,郑纺机,细颗粒物(PM2.5),148,104,91,113,95,106,98,86,86,37,31,17,17,1.0,0.9
2022-11-08T18:00:00,1318A,113.67526,34.80246,郑州市,银行学校,细颗粒物(PM2.5),158,131,88,120,96,107,91,82,82,45,37,16,17,1.3,1.1
2022-11-08T18:00:00,1319A,113.56746,34.81334,郑州市,供水公司,细颗粒物(PM2.5),134,145,97,102,88,103,84,75,75,38,39,12,12,1.0,0.8
2022-11-08T18:00:00,1320A,113.7329,34.7178,郑州市,经开区管委,细颗粒物(PM2.5),135,127,96,103,95,103,84,78,78,34,28,13,12,1.0,0.9
2022-11-08T18:00:00,1321A,113.73961,34.77172,郑州市,四十七中,细颗粒物(PM2.5),117,123,107,88,69,107,81,81,81,49,36,17,17,1.1,0.9
2022-11-08T18:00:00,1322A,113.60532,34.74838,郑州市,市监测站,颗粒物(PM10),89,128,100,50,46,105,92,84,84,40,32,15,14,0.9,0.8
2022-11-08T18:00:00,1323A,113.64164,34.7525,郑州市,河医大,细颗粒物(PM2.5),135,113,92,103,91,100,82,76,76,47,36,16,16,1.1,1
2022-11-08T18:00:00,1324A,113.51488,34.91089,郑州市,岗李水库(对照点),,,,,,,,,,,,,,,,
2022-11-08T18:00:00,1325A,114.3677,30.5584,武汉市,东湖梨园,,45,40,67,24,41,168,141,148,148,25,37,12,10,1.0,1
2022-11-08T18:00:00,1326A,114.2529,30.558,武汉市,汉阳月湖,,49,49,68,22,43,156,112,132,132,51,65,9,9,0.9,1.1
2022-11-08T18:00:00,1327A,114.282,30.6189,武汉市,汉口花桥,,42,42,75,22,41,153,83,128,128,58,40,8,7,0.8,0.8
2022-11-08T18:00:00,1328A,114.3025,30.5332,武汉市,武昌紫阳,,45,45,69,27,42,156,123,140,140,50,59,13,14,1.2,1.4
2022-11-08T18:00:00,1329A,114.3646,30.6217,武汉市,青山钢花,细颗粒物(PM2.5),55,56,80,39,51,149,99,135,135,45,59,15,12,1.0,1.1
2022-11-08T18:00:00,1330A,114.1566,30.4825,武汉市,沌口新区,颗粒物(PM10),56,61,79,31,50,158,109,133,133,57,72,14,16,0.8,1.2
2022-11-08T18:00:00,1331A,114.3014,30.5944,武汉市,汉口江滩,,40,40,62,16,39,156,90,130,125,63,46,9,9,0.7,0.8
2022-11-08T18:00:00,1333A,114.135,30.6319,武汉市,吴家山,,48,48,67,22,41,157,112,138,138,59,49,12,10,1.0,0.8
2022-11-08T18:00:00,1334A,113.8454,30.2917,武汉市,沉湖七壕(对照点),,43,43,64,25,39,156,136,142,142,19,34,10,10,0.7,0.9
2022-11-08T18:00:00,1335A,113.0833,28.2325,长沙市,经开区环保局,颗粒物(PM10),59,67,67,38,48,156,137,138,138,36,47,9,10,0.8,0.8
2022-11-08T18:00:00,1336A,112.8872,28.2189,长沙市,高开区环保局,细颗粒物(PM2.5),59,37,68,42,50,159,146,143,143,16,43,10,10,0.6,0.7
2022-11-08T18:00:00,1337A,113.0792,28.2053,长沙市,马坡岭,"颗粒物(PM10),细颗粒物(PM2.5)",57,64,82,40,54,166,143,143,143,28,50,10,10,0.7,0.7
2022-11-08T18:00:00,1338A,112.9394,28.19,长沙市,湖南师范大学,细颗粒物(PM2.5),63,59,60,45,56,154,134,134,134,13,23,7,7,0.8,0.9
2022-11-08T18:00:00,1339A,113.0178,28.1322,长沙市,雨花区环保局,颗粒物(PM10),53,56,76,24,42,157,130,122,122,30,57,8,10,0.4,0.5
2022-11-08T18:00:00,1340A,112.9792,28.2597,长沙市,伍家岭,颗粒物(PM10),60,69,85,32,49,173,148,146,146,21,45,8,8,0.6,0.7
2022-11-08T18:00:00,1341A,113.0014,28.1944,长沙市,火车新站,颗粒物(PM10),51,52,76,27,43,152,137,134,134,18,45,9,9,0.7,0.8
2022-11-08T18:00:00,1342A,112.9844,28.1178,长沙市,天心区环保局,,47,47,72,31,45,167,134,134,134,32,49,7,9,0.6,0.6
2022-11-08T18:00:00,1343A,112.8908,28.1308,长沙市,湖南中医药大学,颗粒物(PM10),51,52,77,30,48,143,119,125,125,25,37,5,5,0.4,0.6
2022-11-08T18:00:00,1344A,112.9581,28.3611,长沙市,沙坪(对照点),,42,42,58,28,53,151,126,130,130,22,24,5,4,0.7,0.7
2022-11-08T18:00:00,1345A,113.2347,23.1423,广州市,广雅中学,,13,8,24,6,16,35,35,27,27,25,37,3,3,0.6,0.7
2022-11-08T18:00:00,1346A,113.2612,23.105,广州市,市五中,,15,10,18,7,15,50,46,39,39,19,30,4,4,0.7,0.8
2022-11-08T18:00:00,1348A,113.3478,23.0916,广州市,广东商学院,,14,14,17,9,12,50,34,36,36,26,27,4,4,0.6,0.7
2022-11-08T18:00:00,1349A,113.4332,23.1047,广州市,市八十六中,,13,11,21,6,12,38,34,31,31,25,33,6,6,0.6,0.8
2022-11-08T18:00:00,1350A,113.3505,22.9483,广州市,番禺中学,,,,16,,13,36,18,28,28,42,35,5,5,0.9,0.9
2022-11-08T18:00:00,1351A,113.2146,23.3916,广州市,花都师范,,30,30,28,18,17,58,29,46,46,37,24,5,6,0.7,0.6
2022-11-08T18:00:00,1352A,113.2597,23.1331,广州市,市监测站,,12,9,21,6,13,45,38,33,33,21,30,4,5,0.7,0.7
2022-11-08T18:00:00,1353A,113.5618,23.312,广州市,九龙镇镇龙,,14,12,19,9,14,49,44,36,36,10,18,5,5,0.5,0.6
2022-11-08T18:00:00,1354A,113.2765,23.1544,广州市,麓湖,,13,7,18,5,12,40,40,33,33,19,25,2,2,0.4,0.5
2022-11-08T18:00:00,1355A,113.443,23.3035,广州市,帽峰山森林公园(对照点),,,13,28,8,17,53,14,40,38,,12,5,5,,0.5
2022-11-08T18:00:00,1356A,114.1063,22.5545,深圳市,通心岭子站,,17,17,22,9,14,48,28,34,34,18,22,3,3,0.5,0.5
2022-11-08T18:00:00,1357A,114.117,22.5625,深圳市,洪湖,,18,18,24,9,14,49,30,36,36,30,28,6,6,0.8,0.8
2022-11-08T18:00:00,1358A,113.987,22.5417,深圳市,华侨城,,24,24,19,14,13,49,26,33,33,32,23,6,6,0.7,0.6
2022-11-08T18:00:00,1359A,113.9181,22.5171,深圳市,南海子站,,36,36,24,21,15,49,29,36,36,40,32,3,3,0.6,0.6
2022-11-08T18:00:00,1360A,114.2458,22.5689,深圳市,盐田,,11,10,15,5,9,62,35,40,38,13,21,6,5,0.6,0.7
2022-11-08T18:00:00,1361A,114.2283,22.7244,深圳市,龙岗,,17,17,18,9,12,42,28,34,34,32,24,4,4,0.6,0.6
2022-11-08T18:00:00,1362A,113.8953,22.5861,深圳市,西乡,,,,,,,,,,,,,,,,
2022-11-08T18:00:00,1363A,114.494,22.5422,深圳市,南澳,,,8,15,3,7,75,44,62,62,16,11,6,6,,0.6
2022-11-08T18:00:00,1364A,114.41,22.6342,深圳市,葵涌,,12,10,17,6,13,47,36,38,38,11,10,8,8,0.6,0.6
2022-11-08T18:00:00,1365A,114.297,22.5978,深圳市,梅沙,,14,11,19,5,11,65,42,49,49,15,15,7,7,0.5,0.5
2022-11-08T18:00:00,1366A,114.0678,22.738,深圳市,观澜,,25,25,26,14,16,47,11,29,28,41,28,7,7,0.6,0.7
2022-11-08T18:00:00,1367A,113.5814,22.2618,珠海市,吉大,,25,19,16,17,14,57,39,42,42,27,23,5,5,0.5,0.6
2022-11-08T18:00:00,1368A,113.4881,22.2335,珠海市,前山,,23,18,15,11,12,48,24,33,33,46,37,6,5,0.6,0.6
2022-11-08T18:00:00,1369A,113.628,22.4251,珠海市,唐家,,36,32,21,25,17,37,27,31,31,33,27,6,6,0.4,0.6
2022-11-08T18:00:00,1370A,113.299,22.2281,珠海市,斗门,,19,18,13,13,8,35,19,28,28,38,27,8,7,0.6,0.5
2022-11-08T18:00:00,1371A,113.1294,23.0067,佛山市,湾梁,,22,22,21,12,12,32,13,26,25,44,35,7,7,0.7,0.7
2022-11-08T18:00:00,1372A,113.1083,23.0478,佛山市,华材职中,,30,29,24,21,17,24,3,20,17,56,36,6,6,0.5,0.5
2022-11-08T18:00:00,1373A,113.144,23.0453,佛山市,南海气象局,,29,23,25,20,17,27,4,21,19,43,39,5,5,0.7,0.4
2022-11-08T18:00:00,1374A,113.2881,22.8094,佛山市,顺德苏岗,,21,9,7,7,9,30,19,22,22,42,36,5,5,0.8,0.8
2022-11-08T18:00:00,1375A,113.2544,22.7642,佛山市,容桂街道办,,,,,,,,,,,,,,,,
2022-11-08T18:00:00,1376A,112.8383,22.8678,佛山市,高明孔堂,,26,21,33,18,19,41,24,33,33,39,33,7,7,0.7,0.7
2022-11-08T18:00:00,1377A,112.8836,23.1588,佛山市,三水监测站,,32,27,34,22,23,44,30,36,36,34,34,4,6,0.8,0.8
2022-11-08T18:00:00,1378A,112.867,23.185,佛山市,三水云东海,,43,41,29,30,21,51,16,41,39,47,26,4,5,0.5,0.5
2022-11-08T18:00:00,1379A,113.3769,22.5211,中山市,华柏园,,35,22,18,24,17,24,13,20,19,51,38,6,5,0.6,0.6
2022-11-08T18:00:00,1380A,113.3881,22.5497,中山市,张溪,,38,19,16,26,16,26,12,21,20,49,34,6,5,0.6,0.6
2022-11-08T18:00:00,1381A,113.4075,22.5111,中山市,紫马岭,,25,20,17,17,10,30,18,22,22,41,29,6,6,0.6,0.5
2022-11-08T18:00:00,1382A,113.4411,22.4853,中山市,长江旅游区(对照点),,26,22,13,18,14,36,11,25,24,52,30,7,7,0.6,0.6
2022-11-08T18:00:00,1383A,113.1064,22.6058,江门市,北街,,22,14,18,10,11,31,26,25,25,43,35,6,6,0.6,0.6
2022-11-08T18:00:00,1384A,113.0731,22.5835,江门市,西区,,20,12,18,11,12,32,24,24,24,39,34,6,6,0.8,0.7
2022-11-08T18:00:00,1385A,113.0219,22.5311,江门市,圭峰西,,23,18,19,14,13,29,14,24,18,45,36,5,5,0.7,0.7
2022-11-08T18:00:00,1386A,113.0828,22.5947,江门市,东湖,,18,18,22,9,13,31,24,25,25,34,31,6,6,0.7,0.7
2022-11-08T18:00:00,1387A,113.7875,23.0457,东莞市,东城主山,,,,,,,,,,,,,,,,
2022-11-08T18:00:00,1388A,113.7533,23.0202,东莞市,南城元岭,,,,,,,,,,,,,,,,
2022-11-08T18:00:00,1389A,113.7547,23.0494,东莞市,莞城梨川,,22,15,19,12,16,37,18,30,30,44,29,7,7,0.9,0.9
2022-11-08T18:00:00,1390A,113.7944,23.0128,东莞市,东城石井,,20,14,20,12,17,35,10,29,29,40,25,10,10,0.8,0.8
2022-11-08T18:00:00,1391A,113.7383,22.9658,东莞市,南城西平,,22,14,20,7,14,27,14,18,18,43,36,7,7,0.6,0.7
2022-11-08T18:00:00,1392A,114.4183,23.0528,惠州市,河南岸金山湖子站,,,,20,15,16,40,35,34,34,,16,4,6,,0.7
2022-11-08T18:00:00,1393A,114.4053,23.0822,惠州市,下埔横江三路子站,,23,18,19,16,16,48,41,41,41,19,16,6,6,0.5,0.5
2022-11-08T18:00:00,1394A,114.4103,23.1142,惠州市,江北云山西路子站,,25,15,19,17,14,49,43,41,41,12,9,2,3,0.5,0.4
2022-11-08T18:00:00,1395A,114.4645,22.7833,惠州市,惠阳区承修路船湖子站,,22,22,25,15,18,47,28,36,36,24,17,2,3,0.6,0.5
2022-11-08T18:00:00,1396A,114.5317,22.7422,惠州市,大亚湾管委会子站,,18,15,18,12,12,42,31,34,34,18,16,3,3,0.5,0.5
2022-11-08T18:00:00,1397A,112.4267,23.0706,肇庆市,睦岗子站,,26,26,35,18,21,49,37,45,45,39,34,3,6,0.6,0.6
2022-11-08T18:00:00,1398A,112.4645,23.0475,肇庆市,城中子站,,28,27,33,19,20,52,31,45,44,43,27,8,11,0.7,0.7
2022-11-08T18:00:00,1399A,112.5544,23.1522,肇庆市,坑口子站,,49,48,52,34,35,51,35,45,45,39,31,7,10,0.7,0.7
2022-11-08T18:00:00,1400A,112.4753,23.1,肇庆市,七星岩子站(对照点),,26,26,31,16,18,48,36,42,42,26,20,1,5,0.7,0.7
2022-11-08T18:00:00,1401A,108.3103,22.7881,南宁市,二十一中,,40,27,70,18,37,139,125,126,126,12,53,6,9,0.5,0.9
2022-11-08T18:00:00,1402A,108.3141,22.8528,南宁市,北湖,,41,41,74,16,36,132,116,109,109,15,39,7,12,0.5,0.7
2022-11-08T18:00:00,1403A,108.3206,22.8225,南宁市,市监测站,,47,47,68,20,36,131,107,102,102,38,60,8,15,0.5,0.8
2022-11-08T18:00:00,1404A,108.3829,22.8037,南宁市,大自然花园,,34,31,42,20,26,125,108,111,111,14,28,6,8,0.7,0.9
2022-11-08T18:00:00,1405A,108.4394,22.7904,南宁市,仙葫(对照点),,35,30,59,17,27,111,110,102,102,9,37,8,12,0.6,0.8
2022-11-08T18:00:00,1406A,108.2397,22.8467,南宁市,区农职院,,40,27,56,15,33,142,127,111,111,33,36,5,10,0.5,0.6
2022-11-08T18:00:00,1407A,108.3275,22.735,南宁市,英华嘉园,,28,28,61,13,34,119,84,100,100,26,58,7,9,0.6,0.8
2022-11-08T18:00:00,1408A,108.2257,22.7757,南宁市,沙井镇街道办,,37,33,81,16,41,131,118,103,103,21,54,11,12,0.4,0.7
2022-11-08T18:00:00,1409A,110.576,19.9507,海口市,东寨港(对照点),,,13,7,8,6,64,48,42,40,,,5,5,0.4,0.3
2022-11-08T18:00:00,1410A,110.3232,20.0574,海口市,海南大学,,26,12,13,11,9,105,82,78,77,11,9,3,3,0.6,0.6
2022-11-08T18:00:00,1411A,110.283,20.0053,海口市,秀英海南医院,,23,21,16,3,8,96,73,78,68,16,10,4,4,0.6,0.6
2022-11-08T18:00:00,1412A,110.338,19.9969,海口市,海南师范大学,,25,24,18,7,8,94,78,72,69,13,10,5,5,0.7,0.6
2022-11-08T18:00:00,1413A,110.33,20.0356,海口市,龙华路环保局宿舍,,23,20,16,12,10,95,72,74,67,13,8,4,3,0.6,0.7
2022-11-08T18:00:00,1414A,106.3787,29.8279,重庆市,缙云山(对照点),,46,46,67,25,36,108,64,94,63,29,17,2,5,0.5,0.6
2022-11-08T18:00:00,1416A,106.4213,29.8253,重庆市,天生,细颗粒物(PM2.5),64,56,91,46,65,81,79,45,45,20,37,6,12,0.8,0.9
2022-11-08T18:00:00,1417A,106.6263,29.7228,重庆市,两路,,43,42,79,30,51,75,67,58,58,29,54,6,9,0.8,1.1
2022-11-08T18:00:00,1418A,106.2953,29.5983,重庆市,虎溪,颗粒物(PM10),55,60,84,37,69,77,68,37,37,28,41,8,15,1.0,1.2
2022-11-08T18:00:00,1419A,106.5777,29.5102,重庆市,南坪,颗粒物(PM10),59,67,116,41,86,78,72,55,55,31,54,6,12,0.9,1
2022-11-08T18:00:00,1420A,106.6556,29.6277,重庆市,唐家沱,,49,46,79,34,49,34,31,19,19,15,52,8,9,0.5,0.7
2022-11-08T18:00:00,1421A,106.6349,29.4906,重庆市,茶园,颗粒物(PM10),51,52,116,31,75,84,77,55,55,30,67,8,11,0.5,0.8
2022-11-08T18:00:00,1422A,106.3754,29.4572,重庆市,白市驿,细颗粒物(PM2.5),68,64,125,49,71,71,62,44,44,38,41,7,13,0.9,1.2
2022-11-08T18:00:00,1425A,106.6205,29.7166,重庆市,空港,,50,45,88,35,62,110,101,90,90,16,49,5,8,0.6,0.9
2022-11-08T18:00:00,1426A,106.4782,29.4875,重庆市,新山村,颗粒物(PM10),62,73,133,37,90,82,80,50,50,29,67,3,14,0.5,0.9
2022-11-08T18:00:00,1427A,106.5616,29.6453,重庆市,礼嘉,细颗粒物(PM2.5),58,39,88,41,60,84,82,56,56,26,59,10,14,0.4,0.8
2022-11-08T18:00:00,1428A,106.4522,29.7091,重庆市,蔡家,细颗粒物(PM2.5),52,47,84,36,63,83,76,63,63,26,41,5,6,0.7,0.9
2022-11-08T18:00:00,1429A,106.5093,29.3917,重庆市,鱼新街,细颗粒物(PM2.5),58,57,131,41,92,79,77,43,43,17,59,9,18,1.0,1.4
2022-11-08T18:00:00,1431A,103.9728,30.7236,成都市,金泉两河,细颗粒物(PM2.5),94,96,58,70,34,65,22,44,44,59,31,3,3,0.7,0.7
2022-11-08T18:00:00,1432A,104.1419,30.6764,成都市,十里店,细颗粒物(PM2.5),87,83,65,64,43,52,42,34,34,35,45,3,5,0.6,0.7
2022-11-08T18:00:00,1433A,104.0594,30.5767,成都市,三瓦窑,细颗粒物(PM2.5),93,94,66,69,40,56,41,40,40,38,38,2,2,0.5,0.6
2022-11-08T18:00:00,1434A,104.1122,30.6306,成都市,沙河铺,细颗粒物(PM2.5),87,86,66,64,41,50,41,33,33,29,36,4,4,0.7,0.7
2022-11-08T18:00:00,1437A,104.0431,30.6556,成都市,君平街,细颗粒物(PM2.5),107,94,59,80,41,57,37,42,41,47,43,2,4,0.4,0.8
2022-11-08T18:00:00,1438A,103.6202,31.0201,成都市,灵岩寺(对照点),细颗粒物(PM2.5),69,66,24,50,15,81,72,62,62,21,13,4,4,0.6,0.6
2022-11-08T18:00:00,1439A,106.6899,26.5998,贵阳市,马鞍山,,45,34,49,31,37,115,94,108,108,12,24,5,5,0.6,0.8
2022-11-08T18:00:00,1440A,106.6971,26.5694,贵阳市,市环保站,颗粒物(PM10),51,51,78,23,41,107,75,97,97,39,54,5,6,0.4,0.7
2022-11-08T18:00:00,1441A,106.6243,26.6266,贵阳市,鉴湖路,,48,48,61,24,35,118,98,112,111,11,26,4,5,0.7,0.7
2022-11-08T18:00:00,1442A,106.7487,26.6343,贵阳市,燕子冲,,49,41,63,34,48,124,104,114,114,14,30,3,5,0.4,0.6
2022-11-08T18:00:00,1443A,106.6555,26.4365,贵阳市,碧云窝,颗粒物(PM10),53,56,75,17,42,121,105,115,114,9,26,4,5,0.6,0.6
2022-11-08T18:00:00,1444A,106.694,26.5161,贵阳市,中院村,,46,46,81,24,49,106,83,95,95,28,52,8,12,0.4,0.7
2022-11-08T18:00:00,1445A,106.7109,26.6027,贵阳市,红边门,,48,48,66,29,45,119,83,108,107,38,51,4,8,0.5,0.8
2022-11-08T18:00:00,1446A,106.7164,26.5699,贵阳市,新华路,颗粒物(PM10),54,58,65,27,40,118,94,111,111,17,40,3,5,0.4,0.6
2022-11-08T18:00:00,1447A,106.674,26.5424,贵阳市,太慈桥,,46,46,64,17,35,115,98,108,108,13,26,5,5,0.4,0.5
2022-11-08T18:00:00,1450A,102.8204,24.8886,昆明市,呈贡新区,,31,28,29,15,20,104,97,94,94,13,26,6,7,0.4,0.4
2022-11-08T18:00:00,1451A,102.6251,24.9608,昆明市,西山森林公园(对照点),,28,21,22,12,14,96,88,85,85,6,9,8,10,0.5,0.5
2022-11-08T18:00:00,1452A,102.7252,25.0902,昆明市,龙泉镇,,26,26,46,17,23,94,83,85,85,14,32,5,5,0.6,0.7
2022-11-08T18:00:00,1453A,102.7266,25.0375,昆明市,东风东路,,35,27,31,24,20,99,88,83,83,21,22,7,8,0.6,0.7
2022-11-08T18:00:00,1454A,102.6742,25.0669,昆明市,金鼎山,,32,31,38,22,23,101,89,85,85,16,23,5,6,0.5,0.5
2022-11-08T18:00:00,1455A,102.6644,25.0401,昆明市,碧鸡广场,,42,29,36,29,25,99,88,85,85,22,32,10,11,0.5,0.5
2022-11-08T18:00:00,1456A,91.1319,29.6514,拉萨市,八廓街,,,7,15,,,112,112,95,95,7,9,8,8,0,0
2022-11-08T18:00:00,1457A,91.1221,29.6747,拉萨市,市环保局,,35,10,15,1,9,111,111,94,94,5,10,2,1,0.3,0.4
2022-11-08T18:00:00,1458A,91.0874,29.6475,拉萨市,区监测站,,39,8,11,4,4,122,122,102,102,4,8,9,8,0.3,0.4
2022-11-08T18:00:00,1459A,91.1774,29.6541,拉萨市,西藏大学,,35,11,14,3,4,113,112,97,97,7,9,10,10,0.0,0.1
2022-11-08T18:00:00,1460A,90.9798,29.6588,拉萨市,区辐射站,,36,10,12,8,8,114,114,89,89,5,15,8,9,0.4,0.4
2022-11-08T18:00:00,1461A,91.0834,29.6292,拉萨市,拉萨火车站,,35,14,11,2,5,112,112,109,109,6,19,9,10,0,0
2022-11-08T18:00:00,1462A,108.882,34.2749,西安市,高压开关厂,,,,218,,152,49,40,35,35,48,72,3,8,,1.2
2022-11-08T18:00:00,1463A,108.993,34.2629,西安市,兴庆小区,细颗粒物(PM2.5),80,94,158,59,90,39,33,32,32,45,69,5,7,1.1,1.3
2022-11-08T18:00:00,1464A,109.06,34.2572,西安市,纺织城,颗粒物(PM10),93,136,193,68,93,32,6,15,15,78,67,8,9,1.4,1.4
2022-11-08T18:00:00,1465A,108.9356,34.2173,西安市,小寨,细颗粒物(PM2.5),108,153,211,81,112,32,20,24,24,62,77,8,10,1.0,1.2
2022-11-08T18:00:00,1466A,108.954,34.2713,西安市,市人民体育场,细颗粒物(PM2.5),124,126,172,94,128,44,35,32,32,39,68,6,7,1.0,1.1
2022-11-08T18:00:00,1467A,108.8922,34.2322,西安市,高新西区,细颗粒物(PM2.5),112,118,191,84,121,47,47,35,35,44,70,6,9,1.0,1.2
2022-11-08T18:00:00,1468A,108.935,34.3474,西安市,经开区,细颗粒物(PM2.5),102,73,139,76,104,62,60,49,49,38,66,6,9,0.9,1.1
2022-11-08T18:00:00,1469A,108.906,34.1546,西安市,长安区,细颗粒物(PM2.5),152,138,180,116,117,22,6,13,13,78,63,5,6,1.3,1.2
2022-11-08T18:00:00,1470A,109.2,34.6575,西安市,阎良区,,,,,,,,,,,,,,,,
2022-11-08T18:00:00,1471A,109.2186,34.3731,西安市,临潼区,颗粒物(PM10),97,144,174,63,98,74,22,55,52,63,56,6,10,1.1,1.2
2022-11-08T18:00:00,1472A,108.869,34.378,西安市,草滩(对照点),细颗粒物(PM2.5),84,81,141,62,93,65,39,53,51,50,60,8,10,0.9,1.1
2022-11-08T18:00:00,1473A,108.985,34.1978,西安市,曲江文化产业集团,细颗粒物(PM2.5),173,176,215,131,147,30,15,22,22,73,74,5,6,1.4,1.4
2022-11-08T18:00:00,1474A,109.051,34.3213,西安市,广运潭,细颗粒物(PM2.5),98,98,167,73,100,45,37,30,30,39,65,6,8,1.0,1.1
2022-11-08T18:00:00,1476A,103.631,36.1031,兰州市,兰炼宾馆,细颗粒物(PM2.5),79,66,86,58,56,132,89,105,105,34,59,14,32,0.7,0.9
2022-11-08T18:00:00,1477A,104.1373,35.9454,兰州市,榆中兰大校区(对照点),,,,,,,,,,,,,,,,
2022-11-08T18:00:00,1478A,103.8412,36.0726,兰州市,生物制品所,颗粒物(PM10),59,68,56,41,38,100,100,68,68,25,47,15,8,1.1,1.2
2022-11-08T18:00:00,1479A,103.831,36.0464,兰州市,铁路设计院,颗粒物(PM10),60,69,55,35,35,96,80,73,73,45,53,15,12,1.0,1.2
2022-11-08T18:00:00,1480A,101.748,36.6428,西宁市,市环境监测站,,,,,,,,,,,,,,,,
2022-11-08T18:00:00,1482A,101.834,36.5819,西宁市,四陆医院,,,,,,,,,,,,,,,,
2022-11-08T18:00:00,1483A,101.524,36.6867,西宁市,第五水厂(对照点),,,,,,,,,,,,,,,,
2022-11-08T18:00:00,1484A,105.9512,38.6016,银川市,贺兰山马莲口(对照点),颗粒物(PM10),51,52,37,28,22,112,111,104,91,27,21,19,20,0.6,0.6
2022-11-08T18:00:00,1488A,106.2328,38.4975,银川市,贺兰山东路,细颗粒物(PM2.5),75,80,98,55,60,94,76,70,70,52,54,16,26,0.7,1.4
2022-11-08T18:00:00,1489A,106.1358,38.5036,银川市,学院路,颗粒物(PM10),68,85,88,37,39,97,86,75,75,36,45,16,24,1.0,1.4
2022-11-08T18:00:00,1490A,87.5801,43.8303,乌鲁木齐市,监测站,细颗粒物(PM2.5),92,125,114,68,75,77,77,58,58,26,59,12,10,1.3,1.6
2022-11-08T18:00:00,1491A,87.6046,43.768,乌鲁木齐市,收费所,细颗粒物(PM2.5),114,120,78,86,55,83,83,69,69,34,40,17,11,0.8,0.6
2022-11-08T18:00:00,1492A,87.4754,43.9469,乌鲁木齐市,新疆农科院农场(对照点),细颗粒物(PM2.5),78,29,43,57,99,62,57,43,43,27,58,8,8,1.3,1.6
2022-11-08T18:00:00,1493A,87.5525,43.8711,乌鲁木齐市,铁路局,细颗粒物(PM2.5),98,102,129,73,91,76,74,60,60,18,49,12,10,1.2,1.5
2022-11-08T18:00:00,1494A,87.6432,43.831,乌鲁木齐市,三十一中学,颗粒物(PM10),110,170,134,,,80,78,65,65,23,41,16,15,0.7,0.8
2022-11-08T18:00:00,1496A,87.7216,44.1747,乌鲁木齐市,米东区环保局,颗粒物(PM10),87,124,176,60,104,72,70,50,50,16,36,12,13,0.5,1
2022-11-08T18:00:00,1508A,112.9433,27.8614,湘潭市,板塘,,47,47,58,26,33,154,140,139,139,28,51,1,3,0.4,0.4
2022-11-08T18:00:00,1511A,112.9118,27.8403,湘潭市,市监测站,,50,50,81,24,38,147,107,126,126,39,49,9,10,0.7,0.7
2022-11-08T18:00:00,1512A,112.8937,27.8728,湘潭市,江麓,细颗粒物(PM2.5),54,46,78,38,39,121,111,114,114,27,46,13,9,0.5,0.6
2022-11-08T18:00:00,1513A,112.9227,27.8159,湘潭市,岳塘,,41,41,70,25,41,157,120,135,135,27,55,11,10,0.4,0.6
2022-11-08T18:00:00,1514A,112.9074,27.9119,湘潭市,科大,,47,33,62,31,44,160,148,143,143,33,51,6,8,0.5,0.5
2022-11-08T18:00:00,1515A,113.135,27.8244,株洲市,天台山庄,,41,26,40,23,31,138,131,129,129,10,20,4,6,0.3,0.4
2022-11-08T18:00:00,1518A,113.095,27.8867,株洲市,株冶医院,,42,25,46,20,28,141,132,130,130,23,37,7,9,0.5,0.4
2022-11-08T18:00:00,1519A,113.167,27.8667,株洲市,市四中,,44,19,38,27,34,145,140,134,134,21,24,5,6,0.4,0.5
2022-11-08T18:00:00,1520A,113.143,27.8381,株洲市,火车站,,39,34,47,25,37,136,123,126,126,20,22,8,10,0.6,0.8
2022-11-08T18:00:00,1524A,113.13,27.8528,株洲市,市监测站,,43,22,45,20,35,139,136,129,129,14,24,4,10,0.5,0.6
2022-11-08T18:00:00,1552A,106.805,26.3003,贵阳市,桐木岭(对照点),,,,,,,,,,,,,,,,
2022-11-08T18:00:00,1559A,113.251,27.8336,株洲市,大京风景区(对照点),,36,29,35,25,25,125,94,115,115,4,4,8,8,0.6,0.6
2022-11-08T18:00:00,1562A,113.0048,27.9153,湘潭市,昭山,,50,50,65,27,31,147,144,135,135,30,58,5,5,0.4,0.4
2022-11-08T18:00:00,1564A,112.4876,27.9164,湘潭市,韶山(对照点),,46,46,62,15,35,164,146,144,144,20,19,7,8,0.3,0.5
2022-11-08T18:00:00,1585A,109.8756,40.6532,包头市,市环境监测站,颗粒物(PM10),65,80,75,38,33,69,21,46,46,71,56,20,28,0.8,1.1
2022-11-08T18:00:00,1587A,109.9991,40.5842,包头市,包头八中,颗粒物(PM10),85,120,96,59,46,58,18,42,42,69,54,31,35,1.8,1.2
2022-11-08T18:00:00,1588A,109.8538,40.6821,包头市,青山宾馆,细颗粒物(PM2.5),62,70,88,44,43,71,26,46,46,64,56,27,31,0.8,1.2
2022-11-08T18:00:00,1589A,109.8642,40.6288,包头市,惠龙物流,颗粒物(PM10),70,90,83,40,37,74,30,51,51,62,56,17,22,0.8,1.1
2022-11-08T18:00:00,1590A,110.0377,40.5546,包头市,东河鸿龙湾,颗粒物(PM10),78,105,97,31,39,66,12,47,46,64,47,18,17,0.7,0.8
2022-11-08T18:00:00,1591A,110.0023,39.8129,鄂尔多斯市,综合楼,颗粒物(PM10),68,86,72,36,28,84,61,66,66,55,59,24,23,1.0,1
2022-11-08T18:00:00,1592A,109.9486,39.8261,鄂尔多斯市,巴音孟克林场办事处,,,,76,,32,86,61,67,67,,59,19,24,,1.1
2022-11-08T18:00:00,1593A,109.7736,39.5986,鄂尔多斯市,康泽苑,颗粒物(PM10),58,66,57,39,22,101,93,74,74,22,34,13,10,0.7,0.7
2022-11-08T18:00:00,1594A,109.8119,39.5989,鄂尔多斯市,华泰汽车城,细颗粒物(PM2.5),62,61,62,44,28,104,96,75,75,22,44,18,12,0.8,0.8
2022-11-08T18:00:00,1595A,109.9734,39.7884,鄂尔多斯市,奥林花园,颗粒物(PM10),79,107,110,44,41,85,50,62,62,65,67,20,20,1.0,1.1
2022-11-08T18:00:00,1596A,122.2414,40.6592,营口市,学府南路,,,,,,,,,,,,,,,,
2022-11-08T18:00:00,1597A,122.2703,40.7094,营口市,大庆路,,37,37,56,24,35,98,93,86,86,20,46,9,14,0.6,1.2
2022-11-08T18:00:00,1598A,122.215,40.6511,营口市,镜湖西路,,47,47,56,15,22,80,76,73,73,18,38,5,8,0.8,1.2
2022-11-08T18:00:00,1599A,122.167,40.6655,营口市,西炮台,,33,33,46,20,27,49,49,34,34,16,45,9,14,0.3,0.9
2022-11-08T18:00:00,1600A,124.3303,40.0625,丹东市,江湾东路,细颗粒物(PM2.5),75,65,50,55,41,74,62,64,64,25,24,23,14,0.8,1.1
2022-11-08T18:00:00,1601A,124.4256,40.1503,丹东市,临江后街,细颗粒物(PM2.5),58,63,47,41,32,85,73,71,71,14,19,12,10,1.3,1
2022-11-08T18:00:00,1602A,124.3933,40.1461,丹东市,元宝山,细颗粒物(PM2.5),74,69,57,54,47,75,68,55,55,20,31,11,15,0.7,1.3
2022-11-08T18:00:00,1603A,124.3633,40.1092,丹东市,民主桥,细颗粒物(PM2.5),58,57,48,41,32,76,72,65,65,15,28,10,13,0.9,1.1
2022-11-08T18:00:00,1604A,122.0303,41.1489,盘锦市,开发区,,,34,65,15,39,81,55,68,68,,51,8,16,0.8,1.1
2022-11-08T18:00:00,1605A,122.0485,41.0883,盘锦市,兴隆台,,23,23,58,16,37,75,58,65,65,22,47,10,21,0.5,0.9
2022-11-08T18:00:00,1606A,121.8297,41.1028,盘锦市,新生街道,,28,22,43,15,28,95,88,89,89,11,34,10,35,0.4,0.6
2022-11-08T18:00:00,1607A,120.9092,40.7136,葫芦岛市,龙港区,细颗粒物(PM2.5),113,49,61,85,64,103,95,90,90,13,31,16,24,0.5,0.4
2022-11-08T18:00:00,1608A,120.8392,40.7514,葫芦岛市,化工街,颗粒物(PM10),66,81,85,46,40,104,92,87,87,27,47,11,17,0.8,0.9
2022-11-08T18:00:00,1609A,120.8341,40.7073,葫芦岛市,新区,细颗粒物(PM2.5),77,71,71,56,36,103,94,88,88,22,42,17,21,0.5,1
2022-11-08T18:00:00,1610A,120.8695,40.7677,葫芦岛市,东城区,细颗粒物(PM2.5),75,64,77,55,35,89,73,73,73,33,40,18,22,1.0,1
2022-11-08T18:00:00,1611A,118.5819,24.9117,泉州市,涂山街,,,41,25,12,11,100,90,93,93,16,10,8,7,,0.5
2022-11-08T18:00:00,1612A,118.5972,24.8978,泉州市,津头埔,,41,41,27,15,11,95,84,86,86,22,14,6,7,0.5,0.5
2022-11-08T18:00:00,1613A,118.6663,24.9424,泉州市,万安,,31,30,25,18,12,109,98,100,100,15,8,7,7,0.5,0.5
2022-11-08T18:00:00,1614A,118.6117,24.9604,泉州市,清源山(对照点),,,,,,,,,,,,,,,,
2022-11-08T18:00:00,1616A,117.6795,36.229,济南市,技术学院,细颗粒物(PM2.5),144,224,207,110,128,166,125,132,132,58,62,12,14,1.6,1.5
2022-11-08T18:00:00,1618A,118.3429,35.0532,临沂市,沂河小区,,,,188,,162,161,108,128,128,43,52,11,14,1.4,1.2
2022-11-08T18:00:00,1619A,118.295,35.0583,临沂市,鲁南制药厂,细颗粒物(PM2.5),165,190,183,125,126,166,130,136,136,53,47,13,15,1.6,1.4
2022-11-08T18:00:00,1620A,118.2794,34.9976,临沂市,新光毛纺厂,细颗粒物(PM2.5),169,200,183,128,135,164,122,140,140,53,49,7,11,1.4,1.4
2022-11-08T18:00:00,1621A,118.3956,35.0888,临沂市,河东保险公司,细颗粒物(PM2.5),155,180,186,118,147,162,108,131,131,51,54,8,11,1.4,1.6
2022-11-08T18:00:00,1622A,116.3032,37.4674,德州市,儿童乐园,颗粒物(PM10),84,118,82,40,36,107,36,86,84,89,62,12,12,0.7,0.6
2022-11-08T18:00:00,1624A,116.2991,37.4451,德州市,监理站,颗粒物(PM10),70,90,68,43,42,111,60,94,94,63,43,14,12,0.8,0.6
2022-11-08T18:00:00,1625A,115.9848,36.4372,聊城市,区政府,细颗粒物(PM2.5),188,233,156,141,96,151,108,120,120,51,59,14,16,1.3,1.1
2022-11-08T18:00:00,1628A,118.0062,37.3803,滨州市,市环保局,细颗粒物(PM2.5),134,175,150,102,93,140,77,111,111,62,40,18,25,1.3,1.3
2022-11-08T18:00:00,1629A,118.0018,37.3617,滨州市,第二水厂,细颗粒物(PM2.5),118,149,118,89,81,150,111,121,121,56,59,14,22,1.0,1.1
2022-11-08T18:00:00,1630A,117.9776,37.393,滨州市,北中新校,细颗粒物(PM2.5),135,147,103,103,69,129,14,106,101,127,52,15,17,1.7,1
2022-11-08T18:00:00,1631A,118.0414,36.8103,淄博市,人民公园,细颗粒物(PM2.5),133,175,152,101,96,155,23,99,99,126,72,10,12,1.2,1.5
2022-11-08T18:00:00,1632A,118.0253,36.8406,淄博市,东风化工厂,,,,,,,,,,,,,,,,
2022-11-08T18:00:00,1633A,117.8525,36.4847,淄博市,双山,细颗粒物(PM2.5),186,185,160,140,119,163,128,152,152,34,44,13,12,1.3,1.1
2022-11-08T18:00:00,1634A,117.9592,36.6331,淄博市,气象站,细颗粒物(PM2.5),160,207,178,122,103,159,63,118,111,107,75,17,17,1.3,1.2
2022-11-08T18:00:00,1635A,118.3092,36.8194,淄博市,莆田园,细颗粒物(PM2.5),144,149,158,110,96,173,60,100,100,88,61,8,18,1.0,2.6
2022-11-08T18:00:00,1636A,117.8661,36.805,淄博市,三金集团,,,,,,,,,,,,,,,,
2022-11-08T18:00:00,1637A,117.558,34.8438,枣庄市,市中区政府,细颗粒物(PM2.5),188,207,207,141,138,179,135,155,155,52,56,15,15,1.4,1.3
2022-11-08T18:00:00,1638A,117.2852,34.7837,枣庄市,薛城环保局,细颗粒物(PM2.5),175,242,171,132,119,173,97,146,145,92,54,13,15,1.5,1.4
2022-11-08T18:00:00,1639A,117.5852,34.7745,枣庄市,峄城区政府,细颗粒物(PM2.5),185,205,206,139,136,180,158,156,156,36,46,17,17,1.6,1.5
2022-11-08T18:00:00,1640A,117.7276,34.5578,枣庄市,台儿庄区环保局,细颗粒物(PM2.5),180,202,193,136,134,172,143,144,144,40,55,17,15,1.6,1.6
2022-11-08T18:00:00,1641A,117.4518,35.0992,枣庄市,山亭区环保局,细颗粒物(PM2.5),125,151,153,95,97,178,161,165,165,50,37,14,16,1.5,1.4
2022-11-08T18:00:00,1642A,121.2514,37.5639,烟台市,开发区,,,112,103,,82,92,47,67,67,75,52,47,12,1.1,1.1
2022-11-08T18:00:00,1643A,121.3719,37.5433,烟台市,轴承厂,细颗粒物(PM2.5),98,83,99,73,88,114,76,88,88,34,36,8,13,0.9,1
2022-11-08T18:00:00,1644A,121.3181,37.5436,烟台市,西郊化工站,细颗粒物(PM2.5),93,100,109,69,79,110,91,80,80,39,48,14,18,1.2,1.4
2022-11-08T18:00:00,1645A,121.4478,37.4822,烟台市,莱山环保局,细颗粒物(PM2.5),73,73,100,53,72,132,98,107,107,31,34,8,10,0.9,1.1
2022-11-08T18:00:00,1646A,121.2611,37.4967,烟台市,福山环保局,,,,,,,,,,,,,,,,
2022-11-08T18:00:00,1648A,119.12,36.7019,潍坊市,仲裁委,,,,,,,,,,,,,,,,
2022-11-08T18:00:00,1650A,119.1437,36.7023,潍坊市,环保局,细颗粒物(PM2.5),166,180,161,126,110,107,52,77,77,65,58,6,8,1.5,1.5
2022-11-08T18:00:00,1652A,119.1936,36.7729,潍坊市,寒亭监测站,,,,,,,,,,,,,,,,
2022-11-08T18:00:00,1653A,116.6251,35.4302,济宁市,火炬城,细颗粒物(PM2.5),147,147,141,112,125,182,161,157,157,26,38,,11,1.0,1.1
2022-11-08T18:00:00,1655A,116.5491,35.4042,济宁市,电化厂,细颗粒物(PM2.5),147,160,176,112,129,174,155,153,153,31,39,13,13,1.1,1.2
2022-11-08T18:00:00,1656A,117.1437,36.1937,泰安市,监测站,细颗粒物(PM2.5),147,205,131,112,81,155,104,132,128,54,32,12,12,1.2,1
2022-11-08T18:00:00,1657A,117.0885,36.2017,泰安市,人口学校,细颗粒物(PM2.5),115,168,129,87,71,154,121,129,129,42,42,12,13,1.0,0.8
2022-11-08T18:00:00,1658A,117.1089,36.1758,泰安市,电力学校,细颗粒物(PM2.5),135,188,142,103,63,156,124,129,129,46,54,13,11,1.3,1.3
2022-11-08T18:00:00,1659A,119.471,35.4209,日照市,监测站,细颗粒物(PM2.5),158,163,163,120,108,139,42,115,111,75,53,6,10,1.5,1.5
2022-11-08T18:00:00,1660A,119.523,35.4216,日照市,市政府广场,细颗粒物(PM2.5),152,166,162,116,106,136,104,119,118,33,28,6,9,1.2,1.4
2022-11-08T18:00:00,1661A,119.5587,35.4044,日照市,港务局,细颗粒物(PM2.5),155,180,161,118,108,139,106,124,124,28,23,7,11,1.2,1.5
2022-11-08T18:00:00,1662A,122.1214,37.4236,威海市,华夏技校,细颗粒物(PM2.5),83,83,97,61,74,122,85,105,105,50,29,7,7,0.6,0.7
2022-11-08T18:00:00,1663A,122.0508,37.5236,威海市,山大分校,细颗粒物(PM2.5),70,81,102,51,70,126,98,103,103,41,29,5,6,0.8,0.9
2022-11-08T18:00:00,1664A,122.1067,37.5072,威海市,市监测站,细颗粒物(PM2.5),74,78,99,54,65,124,69,101,101,58,36,6,6,0.9,1.1
2022-11-08T18:00:00,1665A,118.5019,37.4658,东营市,西城阳光环保公司,,,,,,,,,,,,,,,,
2022-11-08T18:00:00,1666A,118.6614,37.4309,东营市,市环保局,细颗粒物(PM2.5),201,171,117,151,88,133,58,102,102,64,49,13,17,1.8,1.3
2022-11-08T18:00:00,1669A,113.5824,24.7733,韶关市,市八中,,35,26,25,24,19,91,71,73,73,19,11,10,9,0.6,0.6
2022-11-08T18:00:00,1670A,113.5556,24.8082,韶关市,碧湖山庄,,,,,,,,,,,,,,,,
2022-11-08T18:00:00,1671A,113.5917,24.7972,韶关市,园林处,,,,27,13,16,91,84,75,75,9,7,10,9,0.5,0.3
2022-11-08T18:00:00,1672A,113.6735,24.7791,韶关市,韶关学院,,,,30,,22,80,,57,57,12,17,13,10,,0.5
2022-11-08T18:00:00,1673A,113.5971,24.6863,韶关市,曲江监测站,,29,19,39,20,23,82,77,57,57,14,22,13,12,0.7,0.8
2022-11-08T18:00:00,1674A,116.6794,23.3667,汕头市,金平子站,,40,40,27,26,22,95,58,66,66,35,27,10,10,0.7,0.5
2022-11-08T18:00:00,1675A,116.7244,23.3633,汕头市,龙湖子站,颗粒物(PM10),52,54,36,22,19,101,60,63,63,32,22,10,10,0.8,0.7
2022-11-08T18:00:00,1676A,116.7258,23.2775,汕头市,濠江子站,,26,24,21,18,17,102,72,76,76,19,17,9,8,0.8,0.7
2022-11-08T18:00:00,1677A,116.7519,23.4714,汕头市,澄海子站,,41,41,27,22,21,95,57,71,71,33,23,5,7,0.9,0.8
2022-11-08T18:00:00,1678A,116.6092,23.2539,汕头市,潮阳子站,,28,28,22,14,12,101,65,72,72,21,15,8,8,0.7,0.6
2022-11-08T18:00:00,1679A,116.4069,23.2533,汕头市,潮南子站,,,,,,,,,,,,,,,,
2022-11-08T18:00:00,1680A,110.3539,21.2706,湛江市,湛江影剧院,,40,34,32,28,26,91,79,79,79,18,17,7,10,0.7,0.6
2022-11-08T18:00:00,1681A,110.3928,21.2228,湛江市,市环境监测站,颗粒物(PM10),56,62,33,26,25,91,61,72,72,20,15,6,8,0.7,0.6
2022-11-08T18:00:00,1682A,110.4019,21.1997,湛江市,环保局宿舍,,39,24,28,27,25,89,68,70,70,11,13,6,8,0.6,0.6
2022-11-08T18:00:00,1683A,110.4111,21.2028,湛江市,霞山游泳场,,32,27,30,22,23,96,70,69,69,9,13,7,8,0.5,0.5
2022-11-08T18:00:00,1684A,110.3316,21.2679,湛江市,麻章区环保局,,45,40,36,31,30,87,80,74,74,15,16,7,11,0.7,0.7
2022-11-08T18:00:00,1685A,110.4558,21.2567,湛江市,坡头区环保局,,,,31,32,30,94,69,75,75,,11,6,8,0.7,0.7
2022-11-08T18:00:00,1686A,111.0286,21.4688,茂名市,电白南海,,31,31,40,7,22,61,50,51,51,16,17,13,10,0.6,0.6
2022-11-08T18:00:00,1687A,110.9294,21.6533,茂名市,茂石化七小,,32,24,32,22,27,74,70,66,66,9,11,11,13,0.6,0.6
2022-11-08T18:00:00,1688A,110.9107,21.6687,茂名市,健康路,,24,24,29,15,19,78,72,69,69,8,10,9,14,0.7,0.7
2022-11-08T18:00:00,1689A,110.8592,21.6828,茂名市,高岭,,39,17,27,27,27,76,64,65,65,14,13,11,13,0.2,0.2
2022-11-08T18:00:00,1690A,116.1231,24.3284,梅州市,梅江月梅,,29,29,25,13,17,58,42,42,42,19,18,4,4,0.4,0.6
2022-11-08T18:00:00,1691A,116.0797,24.2719,梅州市,梅县新城,,32,32,25,21,21,62,28,42,42,33,22,8,8,0.6,0.5
2022-11-08T18:00:00,1692A,116.1248,24.2654,梅州市,环境监控中心,,37,37,32,16,23,63,49,50,50,18,20,6,8,0.4,0.5
2022-11-08T18:00:00,1693A,115.3653,22.775,汕尾市,市环保局,,21,21,19,12,12,88,48,58,51,16,11,7,7,0.6,0.8
2022-11-08T18:00:00,1694A,115.3706,22.7898,汕尾市,市政府,,22,10,18,15,18,90,48,60,52,13,10,7,7,0.6,0.6
2022-11-08T18:00:00,1695A,115.3622,22.7925,汕尾市,新城中学,,18,9,21,12,14,88,49,56,52,10,8,8,8,0.6,0.6
2022-11-08T18:00:00,1696A,114.6778,23.7569,河源市,源西(对照点),,31,31,24,21,18,42,17,32,32,34,21,4,4,0.8,0.7
2022-11-08T18:00:00,1697A,114.6944,23.7586,河源市,东埔,,33,33,25,22,19,42,26,35,35,28,19,4,5,0.8,0.7
2022-11-08T18:00:00,1698A,114.6892,23.7233,河源市,老城,,30,30,29,18,18,47,26,36,36,25,18,3,4,0.9,0.8
2022-11-08T18:00:00,1699A,111.9797,21.8593,阳江市,鸳鸯湖(对照点),,19,9,26,13,30,50,28,30,30,17,13,5,7,0.8,0.8
2022-11-08T18:00:00,1700A,111.9508,21.8536,阳江市,南恩路,,,,,,,,,,,,,,,,
2022-11-08T18:00:00,1701A,111.9491,21.8658,阳江市,马南垌,,18,10,26,8,24,44,29,35,35,36,31,6,7,0.8,0.7
2022-11-08T18:00:00,1702A,113.0426,23.691,清远市,环保大楼(对照点),,35,31,23,24,22,84,60,66,66,16,12,4,6,0.8,0.8
2022-11-08T18:00:00,1703A,113.0208,23.7106,清远市,凤城街办,,37,37,26,25,20,60,24,44,43,38,16,10,10,0.9,0.9
2022-11-08T18:00:00,1705A,116.6367,23.6719,潮州市,西园路(对照点),,28,28,22,16,17,88,71,72,72,12,9,6,10,0.7,0.6
2022-11-08T18:00:00,1706A,116.6447,23.6706,潮州市,档案局,,28,28,23,19,17,86,65,70,70,13,7,6,9,0.7,0.6
2022-11-08T18:00:00,1708A,116.3701,23.5345,揭阳市,新兴,颗粒物(PM10),54,57,40,34,32,84,48,71,68,33,26,13,16,0.9,0.7
2022-11-08T18:00:00,1709A,116.3264,23.5443,揭阳市,西马,细颗粒物(PM2.5),59,66,44,42,29,89,52,70,67,26,20,8,11,0.9,1
2022-11-08T18:00:00,1710A,116.3611,23.5626,揭阳市,东兴,,,60,42,30,28,81,,66,66,27,23,10,12,0.9,0.6
2022-11-08T18:00:00,1711A,116.4151,23.5294,揭阳市,渔湖,,49,49,39,22,24,82,48,60,60,28,20,12,17,0.9,0.7
2022-11-08T18:00:00,1712A,112.0392,22.9169,云浮市,新市府(对照点),,22,22,27,15,18,48,24,37,37,32,19,5,7,0.8,0.7
2022-11-08T18:00:00,1713A,112.0369,22.9394,云浮市,市监测站,,,,,,,,,,,,,,,,
2022-11-08T18:00:00,1714A,112.0539,22.9539,云浮市,牧羊,,25,22,35,17,20,39,17,23,22,32,23,10,13,1.1,0.8
2022-11-08T18:00:00,1715A,102.575,24.3711,玉溪市,东风水库,,30,30,22,14,14,91,84,78,78,10,12,5,5,0.6,0.5
2022-11-08T18:00:00,1718A,115.4208,35.2464,菏泽市,气象局,细颗粒物(PM2.5),144,193,177,110,111,170,142,136,136,33,44,13,15,0.8,0.8
2022-11-08T18:00:00,1719A,115.4747,35.2375,菏泽市,市政协,细颗粒物(PM2.5),156,182,155,119,113,178,138,142,141,44,43,8,14,0.7,0.7
2022-11-08T18:00:00,1720A,115.455,35.27,菏泽市,菏泽学院,,,,,,,,,,,,,,,,
2022-11-08T18:00:00,1721A,113.3819,40.1097,大同市,果树场(对照点),,,,,,,,,,,,,,,,
2022-11-08T18:00:00,1723A,113.2994,40.0758,大同市,云冈宾馆,颗粒物(PM10),63,76,58,42,43,86,75,68,68,30,36,16,22,0.9,1.4
2022-11-08T18:00:00,1724A,113.3444,40.0917,大同市,大同大学,,,,,39,21,101,77,78,78,28,20,18,19,0.8,0.8
2022-11-08T18:00:00,1725A,113.2661,40.1269,大同市,安家小村,,,,,,,,,,,,,,,,
2022-11-08T18:00:00,1726A,113.2711,40.0844,大同市,教育学院,,,62,63,,,91,61,69,69,31,37,15,24,0.6,0.7
2022-11-08T18:00:00,1727A,113.1147,36.1547,长治市,清华站,细颗粒物(PM2.5),144,125,110,110,103,94,41,66,44,59,40,10,12,1.2,1.6
2022-11-08T18:00:00,1728A,113.1031,36.1989,长治市,监测站,细颗粒物(PM2.5),132,113,100,100,96,69,39,47,39,61,48,10,10,1.5,1.8
2022-11-08T18:00:00,1730A,113.0886,36.2125,长治市,审计局,细颗粒物(PM2.5),138,111,108,105,108,93,36,59,41,68,42,6,7,1.0,1.1
2022-11-08T18:00:00,1731A,113.0844,36.1856,长治市,长治八中,细颗粒物(PM2.5),122,133,133,92,83,72,48,56,41,53,46,12,14,1.4,1.6
2022-11-08T18:00:00,1733A,111.5531,36.0783,临汾市,临钢医院,细颗粒物(PM2.5),120,120,119,91,73,84,60,46,46,36,52,5,18,1.0,1
2022-11-08T18:00:00,1734A,111.5028,36.0714,临汾市,技工学校,细颗粒物(PM2.5),107,116,126,80,73,88,71,56,56,33,53,12,22,0.7,0.7
2022-11-08T18:00:00,1735A,111.5169,36.0822,临汾市,工商学校,,,,,,,,,,,,,,,,
2022-11-08T18:00:00,1736A,111.5018,36.0855,临汾市,市委,细颗粒物(PM2.5),95,98,124,71,69,88,70,64,64,36,55,6,14,0.8,1
2022-11-08T18:00:00,1738A,113.5758,37.8572,阳泉市,市中心,细颗粒物(PM2.5),87,117,112,64,57,96,58,66,66,54,58,13,13,0.9,1
2022-11-08T18:00:00,1739A,113.4894,37.8731,阳泉市,赛鱼,细颗粒物(PM2.5),100,116,111,75,71,95,60,63,63,52,56,18,13,0.8,0.8
2022-11-08T18:00:00,1740A,113.5819,37.8486,阳泉市,南庄,细颗粒物(PM2.5),104,128,121,78,67,99,57,70,69,53,50,12,11,1.1,1.1
2022-11-08T18:00:00,1741A,113.6292,37.8531,阳泉市,白羊墅,,,,,,,,,,,,,,,,
2022-11-08T18:00:00,1742A,113.5614,37.8703,阳泉市,平坦,细颗粒物(PM2.5),103,136,118,77,69,97,58,63,63,59,66,16,16,1.1,1.1
2022-11-08T18:00:00,1743A,113.5158,37.8392,阳泉市,大阳泉,细颗粒物(PM2.5),107,98,92,80,68,114,75,87,84,50,32,15,14,0.9,1
2022-11-08T18:00:00,1744A,118.9233,42.2816,赤峰市,松山一中,,23,23,63,10,26,79,69,70,70,30,44,16,18,0.6,1.1
2022-11-08T18:00:00,1745A,118.9576,42.2728,赤峰市,哈达街,,26,26,44,11,15,85,72,75,75,14,33,5,12,0.4,0.7
2022-11-08T18:00:00,1746A,118.8788,42.2554,赤峰市,天义路,,25,19,46,12,19,84,80,83,83,16,40,12,15,0.4,0.9
2022-11-08T18:00:00,1748A,123.044,41.1196,鞍山市,深沟寺,颗粒物(PM10),63,75,30,35,16,87,47,77,75,54,25,17,9,1.0,0.6
2022-11-08T18:00:00,1749A,123.011,41.0931,鞍山市,太阳城,颗粒物(PM10),70,89,32,48,15,81,33,71,68,51,21,18,11,1.0,0.5
2022-11-08T18:00:00,1750A,123.0485,41.1442,鞍山市,太平,颗粒物(PM10),67,84,39,40,19,79,41,69,68,61,32,24,13,1.1,0.7
2022-11-08T18:00:00,1751A,122.9642,41.0971,鞍山市,铁西三道街,,,96,54,44,24,81,41,67,66,,45,20,13,,1
2022-11-08T18:00:00,1752A,122.9341,41.0833,鞍山市,铁西工业园区,颗粒物(PM10),61,71,74,32,36,82,54,70,70,41,45,21,14,0.9,1
2022-11-08T18:00:00,1753A,123.022,41.0821,鞍山市,明达新区,颗粒物(PM10),68,86,39,43,20,80,46,69,69,49,33,21,13,0.9,0.7
2022-11-08T18:00:00,1754A,123.1289,41.0228,鞍山市,千山(对照点),,,,,,,,,,,,,,,,
2022-11-08T18:00:00,1755A,123.7977,41.8491,抚顺市,望花区,颗粒物(PM10),70,90,81,42,36,72,56,59,59,38,40,24,16,0.6,0.9
2022-11-08T18:00:00,1756A,123.9161,41.8822,抚顺市,顺城区,颗粒物(PM10),62,73,57,32,36,66,39,51,51,58,39,21,13,0.7,0.9
2022-11-08T18:00:00,1757A,124.0436,41.8611,抚顺市,东洲区,颗粒物(PM10),76,101,48,42,24,72,9,55,51,84,29,30,15,1.7,0.8
2022-11-08T18:00:00,1758A,123.9247,41.8642,抚顺市,新抚区,颗粒物(PM10),69,87,70,37,28,62,37,47,47,51,34,17,10,0.9,0.9
2022-11-08T18:00:00,1759A,124.0972,41.8961,抚顺市,大伙房水库,颗粒物(PM10),61,72,31,31,16,70,37,58,58,43,22,18,7,0.9,0.6
2022-11-08T18:00:00,1760A,123.7086,41.8391,抚顺市,沈抚新城,颗粒物(PM10),66,82,76,35,34,67,41,58,58,45,34,30,17,0.8,1.2
2022-11-08T18:00:00,1761A,123.8275,41.3064,本溪市,大峪,,27,27,32,15,12,68,65,58,58,6,26,9,9,0.3,0.5
2022-11-08T18:00:00,1762A,123.7567,41.3325,本溪市,溪湖,,49,49,71,11,21,76,58,61,61,22,41,11,14,0.3,1.1
2022-11-08T18:00:00,1763A,123.7169,41.3094,本溪市,彩屯,颗粒物(PM10),55,59,70,18,33,77,45,57,57,37,40,25,20,1.2,1.7
2022-11-08T18:00:00,1764A,123.7669,41.2864,本溪市,东明,,28,28,44,13,17,71,59,61,61,26,40,12,12,0.5,0.8
2022-11-08T18:00:00,1765A,123.7992,41.2664,本溪市,新立屯,,24,24,22,9,9,73,64,64,64,16,35,9,9,0.6,0.8
2022-11-08T18:00:00,1766A,123.8142,41.3472,本溪市,威宁,,27,27,42,7,19,65,51,54,54,14,32,7,7,0.4,0.8
2022-11-08T18:00:00,1767A,121.1115,41.0879,锦州市,南山,,,80,87,69,77,87,63,72,72,42,42,18,19,,
2022-11-08T18:00:00,1768A,121.0533,40.8434,锦州市,开发区,颗粒物(PM10),63,76,138,42,62,88,78,74,74,32,44,47,30,1.2,1.3
2022-11-08T18:00:00,1769A,121.1836,41.1119,锦州市,百股街道,颗粒物(PM10),61,71,96,42,58,91,83,78,78,26,38,23,23,1.2,1.4
2022-11-08T18:00:00,1770A,121.1178,41.1222,锦州市,天安街道,细颗粒物(PM2.5),89,70,71,66,47,89,72,77,77,40,40,16,23,1.2,1.3
2022-11-08T18:00:00,1771A,121.1303,41.1386,锦州市,北湖公园,细颗粒物(PM2.5),70,61,61,51,40,90,72,76,76,33,35,17,22,1.2,1.2
2022-11-08T18:00:00,1772A,126.54,43.8622,吉林市,哈达湾,,36,36,28,21,10,75,47,70,68,42,22,16,11,0.7,0.5
2022-11-08T18:00:00,1773A,126.5844,43.8358,吉林市,东局子,,34,34,26,14,10,70,60,65,65,26,25,6,7,0.5,0.5
2022-11-08T18:00:00,1774A,126.5052,43.8245,吉林市,电力学院,细颗粒物(PM2.5),73,93,34,53,19,74,26,66,62,60,25,10,8,0.9,0.6
2022-11-08T18:00:00,1775A,126.6133,43.8972,吉林市,江北,,33,33,23,16,11,68,63,63,63,21,22,8,12,0.5,0.5
2022-11-08T18:00:00,1776A,126.555,43.8306,吉林市,江南公园,,30,30,26,14,13,75,44,69,67,42,21,17,10,0.6,0.5
2022-11-08T18:00:00,1778A,126.7061,43.7133,吉林市,丰满(对照点),,,,,,,,,,,,,,,,
2022-11-08T18:00:00,1779A,123.9305,47.3636,齐齐哈尔市,安居小区,颗粒物(PM10),68,85,57,13,18,44,6,37,35,56,28,10,8,1.3,0.7
2022-11-08T18:00:00,1780A,123.9488,47.3386,齐齐哈尔市,中心广场,颗粒物(PM10),60,70,55,22,19,49,18,31,29,48,34,15,7,0.8,0.7
2022-11-08T18:00:00,1781A,123.9483,47.3227,齐齐哈尔市,农牧车辆厂,颗粒物(PM10),68,85,62,15,20,43,10,30,28,54,36,15,9,1.1,0.8
2022-11-08T18:00:00,1783A,123.945,47.2988,齐齐哈尔市,市环境监测站,颗粒物(PM10),52,54,57,25,28,51,27,40,40,40,30,6,7,0.7,0.5
2022-11-08T18:00:00,1784A,129.61,44.561,牡丹江市,环保大楼,颗粒物(PM10),52,53,47,25,29,82,29,56,50,39,23,5,6,0.5,0.4
2022-11-08T18:00:00,1785A,129.6115,44.5782,牡丹江市,文化广场,颗粒物(PM10),54,57,43,23,29,75,18,49,43,50,25,6,6,0.7,0.5
2022-11-08T18:00:00,1786A,129.5904,44.5963,牡丹江市,第一医院,细颗粒物(PM2.5),110,164,55,83,32,79,6,47,40,62,26,15,11,1.7,0.8
2022-11-08T18:00:00,1787A,129.6364,44.6075,牡丹江市,机车工厂,颗粒物(PM10),84,118,66,45,37,88,15,55,50,52,24,5,2,0.9,0.6
2022-11-08T18:00:00,1788A,129.6386,44.5462,牡丹江市,第一中学,,48,42,46,33,28,81,20,54,49,45,34,5,4,0.7,0.5
2022-11-08T18:00:00,1789A,124.81117,46.03138,大庆市,大同区,颗粒物(PM10),68,85,65,35,36,50,38,45,45,26,23,8,8,0.5,0.6
2022-11-08T18:00:00,1790A,125.129,46.533,大庆市,龙凤区,颗粒物(PM10),51,52,48,15,21,45,11,35,33,47,28,10,7,0.7,0.9
2022-11-08T18:00:00,1791A,124.902,46.408,大庆市,红岗区,颗粒物(PM10),84,118,38,31,21,57,25,44,44,30,18,5,4,0.5,0.4
2022-11-08T18:00:00,1792A,125.153,46.586,大庆市,萨尔图区,颗粒物(PM10),56,62,50,21,26,43,5,38,31,59,34,9,8,0.7,0.5
2022-11-08T18:00:00,1793A,124.9042,46.6215,大庆市,让胡路区,,35,35,30,11,17,51,4,39,36,65,31,6,6,0.8,0.6
2022-11-08T18:00:00,1794A,118.3606,31.3519,芜湖市,监测站,细颗粒物(PM2.5),62,62,77,44,62,160,125,139,139,58,66,11,13,0.8,1
2022-11-08T18:00:00,1795A,118.3714,31.4134,芜湖市,科创中心,颗粒物(PM10),66,82,100,40,63,181,127,157,157,66,67,8,13,0.7,1
2022-11-08T18:00:00,1796A,118.3673,31.3131,芜湖市,四水厂,细颗粒物(PM2.5),64,76,90,46,59,171,143,150,150,42,53,10,12,0.8,0.9
2022-11-08T18:00:00,1797A,118.4022,31.3839,芜湖市,济民医院(对照点),,,,,,,,,,,,,,,,
2022-11-08T18:00:00,1798A,118.5092,31.6837,马鞍山市,湖东路四小,颗粒物(PM10),72,94,81,36,42,185,123,153,153,64,56,8,10,0.9,1
2022-11-08T18:00:00,1799A,118.5024,31.6449,马鞍山市,开发区,颗粒物(PM10),70,89,85,34,64,179,110,148,148,70,58,9,12,0.8,0.9
2022-11-08T18:00:00,1800A,118.5228,31.7231,马鞍山市,慈湖,细颗粒物(PM2.5),63,71,85,45,62,196,165,162,162,40,52,9,14,0.7,0.9
2022-11-08T18:00:00,1801A,118.48,31.6928,马鞍山市,马钢动力厂,,,,,,,,,,,,,,,,
2022-11-08T18:00:00,1802A,118.6245,31.7241,马鞍山市,濮塘(对照点),颗粒物(PM10),62,73,82,43,45,192,164,156,156,19,24,7,8,0.7,0.9
2022-11-08T18:00:00,1803A,115.9872,29.6815,九江市,十里,,,54,69,20,37,160,131,138,138,,47,13,12,0.8,1.1
2022-11-08T18:00:00,1804A,115.9584,29.7046,九江市,茅山头,,50,50,63,29,37,148,132,132,132,23,43,7,11,0.8,0.9
2022-11-08T18:00:00,1805A,115.9877,29.7295,九江市,西园,颗粒物(PM10),89,127,72,26,38,147,120,130,130,30,47,10,13,0.7,0.8
2022-11-08T18:00:00,1806A,116.0172,29.6547,九江市,五七二七厂,,38,38,50,26,29,148,101,128,125,31,24,7,13,0.6,0.7
2022-11-08T18:00:00,1808A,115.9114,29.6038,九江市,综合工业园,,42,42,63,22,38,146,77,116,116,67,56,9,11,0.5,0.6
2022-11-08T18:00:00,1809A,116.0721,29.7535,九江市,石化总厂,,50,50,66,21,32,162,118,136,136,36,46,10,13,0.7,0.9
2022-11-08T18:00:00,1810A,115.9773,29.5698,九江市,庐山气象台(对照点),,38,16,14,24,13,121,121,110,110,18,12,1,5,0.7,0.4
2022-11-08T18:00:00,1811A,112.3628,34.6692,洛阳市,中信二小,,,,,,,,,,,,,,,,
2022-11-08T18:00:00,1812A,112.3931,34.6516,洛阳市,市委党校,细颗粒物(PM2.5),97,136,142,72,83,106,78,78,78,38,28,12,13,0.6,0.7
2022-11-08T18:00:00,1814A,112.4657,34.6871,洛阳市,豫西宾馆,细颗粒物(PM2.5),105,99,119,79,90,107,67,74,74,41,28,10,10,0.6,0.7
2022-11-08T18:00:00,1815A,112.494,34.6886,洛阳市,河南林校,细颗粒物(PM2.5),105,116,124,79,90,94,57,70,70,48,35,,,0.6,0.6
2022-11-08T18:00:00,1816A,112.3844,34.623,洛阳市,开发区管委会,细颗粒物(PM2.5),98,108,126,73,88,112,73,73,68,34,30,9,10,0.6,0.6
2022-11-08T18:00:00,1817A,112.4267,34.6258,洛阳市,市委新办公区,细颗粒物(PM2.5),98,120,135,73,91,92,61,62,62,43,38,9,10,0.8,0.8
2022-11-08T18:00:00,1818A,114.4839,36.0621,安阳市,棉研所(对照点),,,,,,,,,,,,,,,,
2022-11-08T18:00:00,1819A,114.3551,36.1017,安阳市,红庙街,细颗粒物(PM2.5),147,124,132,112,106,114,86,88,88,45,56,14,18,0.8,1.4
2022-11-08T18:00:00,1820A,114.361,36.0681,安阳市,银杏小区,细颗粒物(PM2.5),168,113,126,127,106,122,103,96,96,40,55,16,15,1.1,1.5
2022-11-08T18:00:00,1824A,114.3389,34.7781,开封市,肿瘤医院,细颗粒物(PM2.5),149,171,156,114,108,151,127,110,110,36,35,10,14,0.9,0.9
2022-11-08T18:00:00,1826A,114.2885,34.7965,开封市,世纪星幼儿园,细颗粒物(PM2.5),163,144,118,124,113,119,101,101,101,44,33,12,15,1.0,0.8
2022-11-08T18:00:00,1828A,113.227,35.2125,焦作市,市环保局,颗粒物(PM10),73,96,113,51,79,74,56,57,57,34,32,13,15,0.8,1.2
2022-11-08T18:00:00,1829A,113.2464,35.1764,焦作市,高新区政府（停运20220628）,,,,,,,,,,,,,,,,
2022-11-08T18:00:00,1830A,113.1992,35.2590,焦作市,影视城(对照点),,,,,,,,,,,,,,,,
2022-11-08T18:00:00,1832A,113.3257,33.742,平顶山市,新华旅馆,细颗粒物(PM2.5),150,162,126,115,90,143,116,122,122,34,27,21,19,1.1,0.8
2022-11-08T18:00:00,1833A,113.2919,33.737,平顶山市,规划设计院,细颗粒物(PM2.5),140,164,174,107,116,153,113,126,126,56,40,13,14,1.0,1
2022-11-08T18:00:00,1834A,113.182,33.774,平顶山市,平顶山工学院,细颗粒物(PM2.5),134,161,166,102,113,160,132,128,128,41,28,15,14,0.7,0.8
2022-11-08T18:00:00,1835A,111.1922,34.7752,三门峡市,市政府,细颗粒物(PM2.5),144,119,103,110,107,116,92,102,92,37,26,14,14,0.8,0.8
2022-11-08T18:00:00,1836A,111.1587,34.7942,三门峡市,开发区,细颗粒物(PM2.5),143,159,149,109,105,116,93,103,92,36,25,14,12,1.0,1
2022-11-08T18:00:00,1838A,111.143,34.7955,三门峡市,风景区(对照点),,,,,,,,,,,,,,,,
2022-11-08T18:00:00,1839A,111.3009,30.7157,宜昌市,四零三,,,,,,,,,,,,,,,,
2022-11-08T18:00:00,1840A,111.2992,30.6981,宜昌市,白龙岗,颗粒物(PM10),60,70,76,36,52,154,127,120,120,33,34,5,4,0.6,1.2
2022-11-08T18:00:00,1841A,111.3549,30.6465,宜昌市,伍家岗,,,68,88,36,56,164,,126,126,29,43,6,6,0.7,0.8
2022-11-08T18:00:00,1842A,111.2628,30.6961,宜昌市,点军区,颗粒物(PM10),67,83,82,46,58,151,131,123,123,41,29,8,6,0.6,0.7
2022-11-08T18:00:00,1843A,111.3275,30.7819,宜昌市,夷陵区,颗粒物(PM10),52,54,83,31,55,158,128,134,134,30,37,12,10,0.6,0.7
2022-11-08T18:00:00,1844A,112.2494,30.3197,荆州市,市图书馆,细颗粒物(PM2.5),74,84,96,54,84,173,144,147,147,33,39,8,11,1.0,1
2022-11-08T18:00:00,1845A,112.2008,30.3544,荆州市,市委党校,细颗粒物(PM2.5),73,74,105,53,71,172,133,146,146,46,38,6,8,1.0,1
2022-11-08T18:00:00,1847A,113.1094,29.3578,岳阳市,南湖风景区,,43,38,66,26,43,159,135,138,138,24,35,11,16,0.7,0.9
2022-11-08T18:00:00,1848A,113.1493,29.4251,岳阳市,城陵矶,,43,43,74,18,39,154,100,122,119,66,53,12,12,0.8,0.9
2022-11-08T18:00:00,1849A,113.1497,29.3575,岳阳市,开发区,,,,61,,40,75,,68,,,42,,10,,0.8
2022-11-08T18:00:00,1850A,113.2621,29.4758,岳阳市,云溪区,,50,50,62,28,36,157,135,141,141,27,37,9,11,0.8,0.8
2022-11-08T18:00:00,1851A,112.9943,29.4402,岳阳市,君山区,,42,37,69,28,51,156,132,136,136,27,25,9,9,0.7,0.7
2022-11-08T18:00:00,1852A,113.2117,29.355,岳阳市,金凤水库(对照点),,45,45,55,23,34,161,141,146,146,18,22,10,7,0.8,0.8
2022-11-08T18:00:00,1854A,111.6975,28.9703,常德市,市二中,颗粒物(PM10),61,72,89,41,60,164,142,139,139,23,32,8,10,0.6,0.8
2022-11-08T18:00:00,1857A,111.7158,29.1456,常德市,白鹤山(对照点),颗粒物(PM10),55,59,64,27,44,163,131,144,140,5,10,4,7,0.6,0.7
2022-11-08T18:00:00,1858A,110.5319,29.1217,张家界市,永定新区,颗粒物(PM10),56,61,65,33,46,154,140,137,137,15,29,6,5,0.5,0.6
2022-11-08T18:00:00,1859A,110.4697,29.1242,张家界市,电业局,,50,50,55,29,38,161,130,132,132,23,23,7,6,0.4,0.4
2022-11-08T18:00:00,1860A,110.5594,29.3547,张家界市,未央路,颗粒物(PM10),60,69,59,39,39,146,123,137,137,13,12,6,5,0.3,0.3
2022-11-08T18:00:00,1861A,110.4417,29.315,张家界市,袁家界(对照点),,50,44,54,35,34,173,141,143,143,13,16,11,17,0.6,0.7
2022-11-08T18:00:00,1862A,110.4144,25.3167,桂林市,电子科大尧山校区(对照点),,39,34,40,27,29,137,122,128,128,7,8,7,12,0.6,0.7
2022-11-08T18:00:00,1863A,110.2819,25.2697,桂林市,监测站,,34,29,51,20,34,130,108,117,117,16,22,4,12,0.5,0.7
2022-11-08T18:00:00,1864A,110.3089,25.2708,桂林市,龙隐路小学,,33,27,44,23,37,121,99,110,110,12,14,6,15,0.7,0.8
2022-11-08T18:00:00,1865A,110.2869,25.2178,桂林市,八中,,30,30,50,17,30,123,96,108,108,22,27,5,11,0.6,0.7
2022-11-08T18:00:00,1866A,109.2262,21.588,北海市,牛尾岭水库(对照点),细颗粒物(PM2.5),52,51,38,36,31,123,123,100,100,9,11,22,7,0.8,0.7
2022-11-08T18:00:00,1867A,109.1436,21.4086,北海市,海滩公园,颗粒物(PM10),51,52,41,27,26,154,154,130,130,8,11,11,9,1.0,0.9
2022-11-08T18:00:00,1868A,109.0981,21.4661,北海市,新市环保局,细颗粒物(PM2.5),52,42,40,36,34,137,132,123,123,14,17,9,10,0.7,0.6
2022-11-08T18:00:00,1869A,109.1778,21.5233,北海市,北海工业园,颗粒物(PM10),57,64,61,39,39,135,135,116,116,14,26,11,13,0.8,0.9
2022-11-08T18:00:00,1870A,109.4856,24.3895,柳州市,柳东小学,,37,29,45,21,34,129,118,118,118,9,19,5,12,0.6,0.7
2022-11-08T18:00:00,1871A,109.4157,24.3277,柳州市,环保监测站,,38,29,69,16,41,134,121,125,125,15,44,5,12,0.8,1.1
2022-11-08T18:00:00,1872A,109.389,24.341,柳州市,河西水厂,,38,37,93,22,56,130,121,118,118,15,46,9,19,0.9,1.3
2022-11-08T18:00:00,1873A,109.4311,24.2921,柳州市,市四中,,35,35,77,23,36,126,109,115,115,13,41,8,12,0.7,1
2022-11-08T18:00:00,1874A,109.4006,24.3631,柳州市,市九中,,41,41,94,16,48,126,112,115,115,18,40,9,16,0.7,1.1
2022-11-08T18:00:00,1875A,109.4958,24.3134,柳州市,古亭山,,32,32,42,12,25,134,89,112,112,14,21,8,11,0.7,0.8
2022-11-08T18:00:00,1876A,109.5078,18.2489,三亚市,河东子站,,19,14,15,7,7,103,60,78,78,14,11,1,2,0.5,0.5
2022-11-08T18:00:00,1877A,109.4964,18.2681,三亚市,河西子站,,19,16,15,5,8,89,59,65,65,15,12,2,2,0.4,0.4
2022-11-08T18:00:00,1878A,104.7778,31.4741,绵阳市,富乐山,细颗粒物(PM2.5),59,56,45,42,33,82,66,62,62,10,22,5,5,0.5,0.6
2022-11-08T18:00:00,1879A,104.7563,31.4535,绵阳市,市人大,细颗粒物(PM2.5),84,73,58,62,46,64,49,50,50,29,34,1,4,0.6,0.7
2022-11-08T18:00:00,1880A,104.6697,31.4668,绵阳市,高新区自来水公司,细颗粒物(PM2.5),73,89,71,53,39,79,65,56,56,18,30,9,9,0.7,0.8
2022-11-08T18:00:00,1881A,104.7287,31.5075,绵阳市,三水厂,细颗粒物(PM2.5),70,66,70,51,42,82,62,57,57,18,29,8,5,0.7,0.8
2022-11-08T18:00:00,1882A,104.563,28.793,宜宾市,石马中学(对照点),细颗粒物(PM2.5),82,64,80,60,61,72,59,60,60,23,26,5,7,0.7,0.7
2022-11-08T18:00:00,1883A,104.6201,28.7728,宜宾市,市委,细颗粒物(PM2.5),72,67,87,52,69,70,62,56,56,27,33,8,10,0.8,0.8
2022-11-08T18:00:00,1884A,104.6055,28.793,宜宾市,宜宾四中,细颗粒物(PM2.5),78,75,95,57,77,69,58,49,49,30,29,6,8,0.8,0.8
2022-11-08T18:00:00,1885A,104.639,28.7562,宜宾市,市政府,细颗粒物(PM2.5),70,72,93,51,71,84,65,61,61,26,26,8,10,0.7,0.8
2022-11-08T18:00:00,1886A,104.5742,28.7199,宜宾市,黄金嘴,细颗粒物(PM2.5),75,70,82,55,67,80,79,69,69,22,28,8,10,0.7,0.7
2022-11-08T18:00:00,1888A,101.6891,26.571,攀枝花市,弄弄坪,,39,39,58,22,32,119,102,84,84,26,38,16,15,0.9,1.6
2022-11-08T18:00:00,1889A,101.5769,26.5928,攀枝花市,河门口,,34,24,32,14,19,118,106,85,85,15,21,15,14,0.8,1.2
2022-11-08T18:00:00,1890A,101.7169,26.585,攀枝花市,炳草岗,,47,47,54,13,20,114,90,76,76,34,44,27,18,1.1,1.5
2022-11-08T18:00:00,1891A,101.7369,26.5008,攀枝花市,仁和,,27,22,34,15,22,114,84,88,88,12,18,12,14,0.5,1
2022-11-08T18:00:00,1893A,105.4324,28.9634,泸州市,九狮山(对照点),细颗粒物(PM2.5),80,53,63,59,59,56,43,39,39,18,26,7,11,0.3,0.6
2022-11-08T18:00:00,1894A,105.4427,28.9063,泸州市,小市上码头,细颗粒物(PM2.5),109,94,101,82,89,74,61,54,54,25,24,14,15,0.8,0.8
2022-11-08T18:00:00,1895A,105.4241,28.8573,泸州市,兰田宪桥,细颗粒物(PM2.5),92,89,99,68,71,66,59,47,47,25,20,13,23,0.8,0.8
2022-11-08T18:00:00,1896A,105.4379,28.8833,泸州市,市环监站,细颗粒物(PM2.5),92,85,93,68,77,62,62,53,44,21,20,9,12,0.7,0.7
2022-11-08T18:00:00,1897A,104.7547,29.3628,自贡市,大塘山(对照点),,,,,,,,,,,,,,,,
2022-11-08T18:00:00,1900A,104.7692,29.3411,自贡市,春华路,,,,,,,,,,,,,,,,
2022-11-08T18:00:00,1901A,104.4239,31.1208,德阳市,东山公园,细颗粒物(PM2.5),69,81,74,50,40,64,62,40,40,20,40,5,10,0.8,0.9
2022-11-08T18:00:00,1902A,104.3826,31.1317,德阳市,西小区,颗粒物(PM10),62,73,68,42,33,58,58,42,42,26,36,4,9,0.7,0.7
2022-11-08T18:00:00,1903A,104.4053,31.1167,德阳市,市检察院,,,,,,,,,,,,,,,,
2022-11-08T18:00:00,1904A,104.3553,31.1091,德阳市,耐火材料厂,颗粒物(PM10),74,97,91,45,41,58,58,39,39,24,38,5,9,0.7,0.8
2022-11-08T18:00:00,1905A,106.056,30.8064,南充市,西山风景区(对照点),细颗粒物(PM2.5),83,74,58,61,54,28,28,24,13,14,15,4,6,0.9,0.9
2022-11-08T18:00:00,1906A,106.0789,30.8023,南充市,南充市委,细颗粒物(PM2.5),72,76,67,52,47,34,34,15,15,20,24,7,6,0.8,0.8
2022-11-08T18:00:00,1907A,106.1031,30.8217,南充市,南充炼油厂,细颗粒物(PM2.5),69,65,72,50,47,42,40,16,16,16,22,8,9,0.7,0.7
2022-11-08T18:00:00,1908A,106.1064,30.7856,南充市,高坪区监测站,细颗粒物(PM2.5),82,62,64,60,54,33,33,12,12,19,28,10,10,0.7,0.8
2022-11-08T18:00:00,1909A,106.0642,30.7636,南充市,嘉陵区环保局,细颗粒物(PM2.5),78,74,64,57,57,28,28,13,13,31,28,10,11,0.8,0.8
2022-11-08T18:00:00,1910A,106.1087,30.8388,南充市,市环境监测站,细颗粒物(PM2.5),78,62,65,57,48,38,38,15,15,15,20,9,12,0.7,0.7
2022-11-08T18:00:00,1911A,106.9222,27.6869,遵义市,丁字口,,49,49,51,31,39,130,116,120,120,18,27,9,11,0.6,0.8
2022-11-08T18:00:00,1912A,106.9242,27.7019,遵义市,凤凰山,,41,41,47,24,27,131,124,125,122,12,12,5,6,0.5,0.6
2022-11-08T18:00:00,1913A,106.8906,27.6486,遵义市,忠庄,,49,49,56,30,35,126,100,112,112,25,16,2,2,0.5,0.6
2022-11-08T18:00:00,1914A,106.9231,27.6506,遵义市,舟水桥,,45,45,60,26,36,126,117,119,119,10,22,4,7,0.6,0.7
2022-11-08T18:00:00,1915A,106.9178,27.72,遵义市,干田坝,,46,46,49,24,36,123,110,115,115,17,19,7,9,0.5,0.5
2022-11-08T18:00:00,1916A,103.7897,25.5035,曲靖市,环境监测站,,38,38,40,15,25,104,104,87,87,10,12,4,6,0.4,0.5
2022-11-08T18:00:00,1917A,103.8,25.5364,曲靖市,烟厂办公区,,35,30,40,13,22,109,109,90,90,7,14,5,14,0.4,0.6
2022-11-08T18:00:00,1918A,108.7197,34.3956,咸阳市,气象站(对照点),细颗粒物(PM2.5),105,99,182,79,121,51,45,42,42,40,56,8,11,1.0,1.4
2022-11-08T18:00:00,1919A,108.673,34.3155,咸阳市,实验中学,细颗粒物(PM2.5),115,138,202,87,96,56,45,50,50,41,54,6,7,1.0,1.3
2022-11-08T18:00:00,1920A,108.7233,34.3617,咸阳市,师范学院,,,,189,,111,22,,23,,,58,,9,,1.3
2022-11-08T18:00:00,1922A,109.0656,35.0994,铜川市,党校(对照点),细颗粒物(PM2.5),118,87,97,89,58,102,84,92,88,28,41,13,16,0.9,0.8
2022-11-08T18:00:00,1923A,109.0697,35.0697,铜川市,王益区政府,细颗粒物(PM2.5),82,76,96,60,48,98,72,85,84,18,34,6,9,1.1,1
2022-11-08T18:00:00,1924A,108.9344,34.9058,铜川市,新区管委会,细颗粒物(PM2.5),83,98,117,61,59,97,51,65,65,43,48,10,13,1.0,0.9
2022-11-08T18:00:00,1925A,108.9589,34.8731,铜川市,新区兰芝公司,,,,,,,,,,,,,,,,
2022-11-08T18:00:00,1926A,109.4131,36.6275,延安市,枣园(对照点),细颗粒物(PM2.5),90,81,58,67,34,24,12,17,17,71,51,5,5,1.3,1
2022-11-08T18:00:00,1927A,109.4761,36.6028,延安市,延大医附院,细颗粒物(PM2.5),103,78,64,77,39,23,10,14,14,72,60,8,7,1.1,1.4
2022-11-08T18:00:00,1928A,109.4824,36.5767,延安市,市监测站,,,,,,,,,,,,,,,,
2022-11-08T18:00:00,1929A,109.5056,36.6106,延安市,百米大道,细颗粒物(PM2.5),107,97,73,80,41,23,10,16,16,86,69,12,10,1.2,1
2022-11-08T18:00:00,1930A,107.185,34.3063,宝鸡市,庙沟村(对照点),细颗粒物(PM2.5),97,140,133,72,70,50,50,42,42,27,37,6,6,1.4,1.3
2022-11-08T18:00:00,1931A,107.0708,34.3017,宝鸡市,竹园沟,细颗粒物(PM2.5),140,135,113,107,90,58,35,46,46,35,28,7,6,1.2,1
2022-11-08T18:00:00,1932A,107.1906,34.3672,宝鸡市,三陆医院,细颗粒物(PM2.5),148,159,169,113,136,69,60,59,59,35,45,8,9,1.1,1.1
2022-11-08T18:00:00,1933A,107.1431,34.3547,宝鸡市,监测站,细颗粒物(PM2.5),160,163,135,122,114,58,56,51,51,42,43,8,8,1.2,1
2022-11-08T18:00:00,1934A,107.1186,34.3739,宝鸡市,技工学校,细颗粒物(PM2.5),183,149,140,138,133,60,42,52,52,59,44,8,8,1.3,1.1
2022-11-08T18:00:00,1935A,107.3906,34.3528,宝鸡市,陈仓区环保局家属楼,细颗粒物(PM2.5),169,172,185,128,137,68,21,28,28,76,63,8,10,1.4,1.3
2022-11-08T18:00:00,1936A,107.2058,34.3497,宝鸡市,文理学院,细颗粒物(PM2.5),132,161,153,100,106,69,57,58,58,43,53,10,10,1.2,1.1
2022-11-08T18:00:00,1937A,107.2386,34.3622,宝鸡市,三迪小学,细颗粒物(PM2.5),166,175,175,126,136,68,56,57,57,45,53,9,11,1.1,1.1
2022-11-08T18:00:00,1938A,109.5293,34.5101,渭南市,农科所(对照点),细颗粒物(PM2.5),134,132,162,102,112,94,38,58,56,51,52,7,9,1.3,1.2
2022-11-08T18:00:00,1939A,109.4974,34.4877,渭南市,日报社,细颗粒物(PM2.5),142,141,165,108,133,86,14,54,45,82,61,9,11,1.1,1.1
2022-11-08T18:00:00,1940A,109.4636,34.493,渭南市,体育馆,细颗粒物(PM2.5),168,136,160,127,132,95,67,68,64,41,55,8,11,1.1,1.1
2022-11-08T18:00:00,1941A,109.4259,34.5023,渭南市,高新一小,细颗粒物(PM2.5),155,144,158,118,127,87,47,76,69,40,45,6,10,1.0,1.1
2022-11-08T18:00:00,1943A,102.1725,38.5339,金昌市,新川苑,颗粒物(PM10),62,74,108,20,37,110,104,102,102,19,28,12,16,0.7,0.8
2022-11-08T18:00:00,1944A,102.1692,38.5167,金昌市,天庆家园,颗粒物(PM10),54,57,76,17,31,113,108,106,106,19,27,9,14,0.7,0.9
2022-11-08T18:00:00,1945A,98.2908,39.7711,嘉峪关市,气象局,,,78,72,17,26,91,90,84,84,13,42,,22,0.2,0.3
2022-11-08T18:00:00,1947A,106.3394,38.817,石嘴山市,沙湖旅游区(对照点),细颗粒物(PM2.5),89,81,113,66,55,124,99,86,86,34,54,22,35,0.9,1.8
2022-11-08T18:00:00,1948A,106.3668,39.0145,石嘴山市,大武口朝阳西街,细颗粒物(PM2.5),87,86,70,64,41,113,93,83,83,36,47,13,29,0.8,1.1
2022-11-08T18:00:00,1949A,106.7704,39.2282,石嘴山市,惠农南大街,细颗粒物(PM2.5),92,92,52,68,31,121,88,90,90,49,36,41,17,0.9,0.5
2022-11-08T18:00:00,1950A,106.7099,39.1325,石嘴山市,红果子镇惠新街,细颗粒物(PM2.5),85,102,57,63,27,125,106,96,96,35,29,16,17,0.8,0.6
2022-11-08T18:00:00,1951A,84.895,45.6094,克拉玛依市,长征新村,颗粒物(PM10),53,55,45,14,14,75,57,61,61,18,20,7,7,0.3,0.3
2022-11-08T18:00:00,1952A,84.8988,45.5893,克拉玛依市,南林小区,颗粒物(PM10),54,58,47,19,21,76,65,61,61,18,21,3,2,0.4,0.5
2022-11-08T18:00:00,1953A,85.1186,45.6886,克拉玛依市,白碱滩区,,,,,,,,,,,,,,,,
2022-11-08T18:00:00,1954A,84.905,44.3396,克拉玛依市,独山子区,颗粒物(PM10),63,76,93,38,37,94,90,82,82,11,21,8,8,0.4,0.6
2022-11-08T18:00:00,1955A,85.6979,46.098,克拉玛依市,乌尔禾区商贸楼,颗粒物(PM10),54,57,51,15,20,76,76,55,55,13,22,6,5,0.7,0.6
2022-11-08T18:00:00,1956A,86.1472,41.7538,巴音郭楞州,孔雀公园,颗粒物(PM10),66,82,106,16,33,98,90,73,73,5,35,9,6,0.2,0.4
2022-11-08T18:00:00,1957A,86.1972,41.7166,巴音郭楞州,棉纺厂,颗粒物(PM10),71,92,130,25,33,99,94,77,77,5,29,5,6,0.3,0.4
2022-11-08T18:00:00,1958A,86.2357,41.7173,巴音郭楞州,经济开发区,颗粒物(PM10),60,70,98,14,25,94,94,77,77,5,16,8,8,0.3,0.3
2022-11-08T18:00:00,1959A,118.746,36.881,寿光市,监测站,,,,,,,,,,,,,,,,
2022-11-08T18:00:00,1960A,118.780,36.864,寿光市,世纪学校,,,,,,,,,,,,,,,,
2022-11-08T18:00:00,1961A,117.532,36.6868,济南市,东山小学,细颗粒物(PM2.5),129,193,146,98,80,127,25,93,92,102,67,8,8,1.1,0.8
2022-11-08T18:00:00,1962A,117.541,36.710,章丘市,明水开发区,,,,,,,,,,,,,,,,
2022-11-08T18:00:00,1963A,120.610,36.440,即墨市,环保局子站,,,,,,,,,,,,,,,,
2022-11-08T18:00:00,1964A,120.470,36.390,即墨市,开发区子站,,,,,,,,,,,,,,,,
2022-11-08T18:00:00,1965A,120.005,35.878,胶南市,JN子站,,,,,,,,,,,,,,,,
2022-11-08T18:00:00,1966A,120.0405,35.8735,青岛市,黄岛区4号,细颗粒物(PM2.5),138,129,166,105,127,137,122,110,110,47,65,7,10,1.1,1.5
2022-11-08T18:00:00,1967A,120.008,36.283,胶州市,胶州环保局,,,,,,,,,,,,,,,,
2022-11-08T18:00:00,1968A,120.014,36.253,胶州市,胶州一中,,,,,,,,,,,,,,,,
2022-11-08T18:00:00,1969A,120.537,36.865,莱西市,环保局子站,,,,,,,,,,,,,,,,
2022-11-08T18:00:00,1970A,120.515,36.885,莱西市,人民广场子站,,,,,,,,,,,,,,,,
2022-11-08T18:00:00,1971A,119.952,36.792,平度市,1号,,,,,,,,,,,,,,,,
2022-11-08T18:00:00,1972A,119.976,36.799,平度市,2号,,,,,,,,,,,,,,,,
2022-11-08T18:00:00,1973A,120.747,37.825,蓬莱市,蓬莱环保局,,,,,,,,,,,,,,,,
2022-11-08T18:00:00,1974A,120.773,37.809,蓬莱市,蓬莱博物馆,,,,,,,,,,,,,,,,
2022-11-08T18:00:00,1975A,120.399,37.374,招远市,招远环保局,,,,,,,,,,,,,,,,
2022-11-08T18:00:00,1976A,120.394,37.364,招远市,招远教育局,,,,,,,,,,,,,,,,
2022-11-08T18:00:00,1977A,119.941,37.177,莱州市,莱州环保局,,,,,,,,,,,,,,,,
2022-11-08T18:00:00,1978A,119.959,37.180,莱州市,莱州外经委,,,,,,,,,,,,,,,,
2022-11-08T18:00:00,1979A,122.471,37.154,荣成市,荣成市环保局办公楼,,,,,,,,,,,,,,,,
2022-11-08T18:00:00,1980A,122.410,37.161,荣成市,山东成山轮胎公司,,,,,,,,,,,,,,,,
2022-11-08T18:00:00,1981A,122.038,37.197,文登市,文登市环保局,,,,,,,,,,,,,,,,
2022-11-08T18:00:00,1982A,122.0693,37.2174,威海市,文登开发区,,,,105,,72,128,106,108,108,35,34,5,6,1.0,1.1
2022-11-08T18:00:00,1983A,121.531,36.913,乳山市,乳山市环保局,,,,,,,,,,,,,,,,
2022-11-08T18:00:00,1984A,121.544,36.907,乳山市,乳山市气象局,,,,,,,,,,,,,,,,
2022-11-08T18:00:00,1985A,120.636,31.155,吴江市,吴江市环保局,,,,,,,,,,,,,,,,
2022-11-08T18:00:00,1986A,120.635,31.170,吴江市,教师进修学校,,,,,,,,,,,,,,,,
2022-11-08T18:00:00,1987A,120.658,31.172,吴江市,吴江开发区,,,,,,,,,,,,,,,,
2022-11-08T18:00:00,1988A,120.953,31.388,昆山市,昆山实验小学,,,,,,,,,,,,,,,,
2022-11-08T18:00:00,1989A,120.999,31.381,昆山市,震川中学,,,,,,,,,,,,,,,,
2022-11-08T18:00:00,1990A,120.758,31.670,常熟市,海虞子站,,,,,,,,,,,,,,,,
2022-11-08T18:00:00,1991A,120.721,31.671,常熟市,兴福子站,,,,,,,,,,,,,,,,
2022-11-08T18:00:00,1992A,120.734,31.656,常熟市,菱塘子站,,,,,,,,,,,,,,,,
2022-11-08T18:00:00,1993A,120.526,31.874,张家港市,张家港市监测站,,,,,,,,,,,,,,,,
2022-11-08T18:00:00,1994A,120.550,31.882,张家港市,城北小学,,,,,,,,,,,,,,,,
2022-11-08T18:00:00,1995A,121.115,31.453,太仓市,太仓市监测站,,,,,,,,,,,,,,,,
2022-11-08T18:00:00,1996A,121.140,31.422,太仓市,科教新城实小,,,,,,,,,,,,,,,,
2022-11-08T18:00:00,1997A,119.146,31.955,句容市,消防指挥中心,,,,,,,,,,,,,,,,
2022-11-08T18:00:00,1998A,119.180,31.955,句容市,房家坝,,,,,,,,,,,,,,,,
2022-11-08T18:00:00,1999A,120.268,31.920,江阴市,虹桥邮政,,,,,,,,,,,,,,,,
2022-11-08T18:00:00,2000A,120.237,31.909,江阴市,五星公园,,,,,,,,,,,,,,,,
2022-11-08T18:00:00,2001A,120.302,31.920,江阴市,第二实验小学,,,,,,,,,,,,,,,,
2022-11-08T18:00:00,2002A,119.818,31.354,宜兴市,宜兴市环保局,,,,,,,,,,,,,,,,
2022-11-08T18:00:00,2003A,119.794,31.371,宜兴市,宜园,,,,,,,,,,,,,,,,
2022-11-08T18:00:00,2004A,119.579,31.751,金坛市,金坛市环境监测站,,,,,,,,,,,,,,,,
2022-11-08T18:00:00,2005A,119.579,31.737,金坛市,金坛市自来水公司,,,,,,,,,,,,,,,,
2022-11-08T18:00:00,2006A,119.460,31.400,溧阳市,溧阳市东门子站,,,,,,,,,,,,,,,,
2022-11-08T18:00:00,2007A,119.438,31.317,溧阳市,燕山子站,,,,,,,,,,,,,,,,
2022-11-08T18:00:00,2008A,121.173,31.896,海门市,海门市监测站,,,,,,,,,,,,,,,,
2022-11-08T18:00:00,2009A,121.1518,31.89708,海门市,社会福利院,,,,,,,,,,,,,,,,
2022-11-08T18:00:00,2010A,119.7183,30.2366,临安市,市政府,,,,,,,,,,,,,,,,
2022-11-08T18:00:00,2011A,119.6942,30.2311,临安市,四中,,,,,,,,,,,,,,,,
2022-11-08T18:00:00,2012A,119.954,30.054,富阳市,监测站,,,,,,,,,,,,,,,,
2022-11-08T18:00:00,2013A,119.946,30.049,富阳市,富春二小,,,,,,,,,,,,,,,,
2022-11-08T18:00:00,2014A,120.091,29.305,义乌市,江东,,,,,,,,,,,,,,,,
2022-11-08T18:00:00,2015A,120.040,29.334,义乌市,北苑,,,,,,,,,,,,,,,,
2022-11-08T18:00:00,2016A,120.251,29.719,诸暨市,图书馆,,,,,,,,,,,,,,,,
2022-11-08T18:00:00,2017A,120.209,29.732,诸暨市,富林印务,,,,,,,,,,,,,,,,
2022-11-08T18:00:00,2018A,121.989,39.625,瓦房店市,抱龙山庄,,,,,,,,,,,,,,,,
2022-11-08T18:00:00,2019A,122.011,39.617,瓦房店市,东山公园,,,,,,,,,,,,,,,,
2022-11-08T18:00:00,2031A,113.1817,27.9958,株洲市,云田中学,,43,31,50,23,27,138,136,128,128,14,23,8,9,0.6,0.6
2022-11-08T18:00:00,2054A,114.1099,32.1059,信阳市,平桥分局,细颗粒物(PM2.5),113,132,183,85,132,161,134,131,131,45,35,13,15,1.1,1.1
2022-11-08T18:00:00,2064A,113.9956,32.1271,信阳市,南湾水厂,细颗粒物(PM2.5),104,123,161,78,129,162,153,135,135,32,30,10,12,1.1,1.1
2022-11-08T18:00:00,2065A,114.0775,32.1195,信阳市,市酿酒公司,细颗粒物(PM2.5),100,120,162,75,124,162,131,130,130,34,30,10,11,1.1,1.1
2022-11-08T18:00:00,2066A,114.0609,32.1399,信阳市,审计局,细颗粒物(PM2.5),132,190,170,100,136,173,61,137,127,92,37,10,11,1.1,1.1
2022-11-08T18:00:00,2067A,114.6613,33.6128,周口市,市环境监测站,细颗粒物(PM2.5),99,107,192,74,133,170,134,144,144,30,23,14,26,1.0,1.2
2022-11-08T18:00:00,2068A,114.6758,33.6347,周口市,周口师范,细颗粒物(PM2.5),100,120,197,75,149,176,136,146,146,36,33,9,24,1.1,1.2
2022-11-08T18:00:00,2069A,114.6546,33.5979,周口市,市运管处,细颗粒物(PM2.5),112,119,179,84,145,169,140,142,142,33,30,12,22,0.7,0.8
2022-11-08T18:00:00,2070A,114.6369,33.6406,周口市,川汇区环保局,细颗粒物(PM2.5),103,112,196,77,142,172,137,143,143,32,36,9,21,0.8,1.2
2022-11-08T18:00:00,2075A,117.6336,24.4674,漳州市,九湖(对照点),,,,,,,,,,,,,,,,
2022-11-08T18:00:00,2160A,112.85,35.5051,晋城市,自来水公司,细颗粒物(PM2.5),89,98,133,66,102,136,130,106,106,24,36,9,10,0.6,1.1
2022-11-08T18:00:00,2161A,112.8318,35.4936,晋城市,白云商贸,颗粒物(PM10),84,118,134,61,91,134,134,105,105,23,35,6,7,0.8,1.3
2022-11-08T18:00:00,2162A,112.8508,35.4887,晋城市,市环保局,细颗粒物(PM2.5),94,102,142,70,101,141,134,118,118,22,40,8,8,0.7,1.2
2022-11-08T18:00:00,2163A,112.8676,35.4897,晋城市,技术学院,,,,145,,125,51,,65,,,40,,8,,1.1
2022-11-08T18:00:00,2164A,112.8271,35.4828,晋城市,泽州一中,,,,,,,,,,,,,,,,
2022-11-08T18:00:00,2165A,112.8453,35.546,晋城市,白马寺 (对照点),,,,,,,,,,,,,,,,
2022-11-08T18:00:00,2166A,112.4397,39.3522,朔州市,平朔,细颗粒物(PM2.5),93,92,88,69,51,73,61,60,60,34,35,18,25,0.7,0.7
2022-11-08T18:00:00,2167A,112.4575,39.3617,朔州市,朔唯,细颗粒物(PM2.5),127,124,107,96,57,78,67,62,62,39,39,17,32,0.8,0.8
2022-11-08T18:00:00,2168A,112.4258,39.3197,朔州市,区政府,细颗粒物(PM2.5),124,128,85,94,47,68,45,55,55,51,30,23,18,0.8,0.7
2022-11-08T18:00:00,2169A,112.4072,39.3278,朔州市,市环保局,细颗粒物(PM2.5),102,122,89,76,48,68,19,54,54,78,31,20,20,1.0,0.8
2022-11-08T18:00:00,2170A,112.4272,39.3681,朔州市,市二中,细颗粒物(PM2.5),79,91,109,58,52,75,52,61,61,39,40,19,24,1.0,1.2
2022-11-08T18:00:00,2171A,112.7532,37.6945,晋中市,锦纶小区,细颗粒物(PM2.5),143,181,121,109,80,122,82,85,85,56,51,9,10,1.1,0.7
2022-11-08T18:00:00,2173A,112.7249,37.7067,晋中市,南都小区,细颗粒物(PM2.5),140,169,142,107,82,126,78,94,94,58,56,11,10,1.1,0.8
2022-11-08T18:00:00,2174A,112.6991,37.6982,晋中市,榆次区政府,细颗粒物(PM2.5),135,156,128,103,82,127,68,91,91,64,57,14,12,1.2,0.9
2022-11-08T18:00:00,2175A,110.9956,35.0147,运城市,运城中学,细颗粒物(PM2.5),118,133,126,89,80,122,106,114,106,18,15,12,13,0.6,0.7
2022-11-08T18:00:00,2176A,111.0233,35.0611,运城市,禹都开发区,,,,,,,,,,,,,,,,
2022-11-08T18:00:00,2178A,110.9686,35.0303,运城市,地区技校,细颗粒物(PM2.5),109,138,134,82,74,121,107,115,109,18,18,12,13,0.9,1
2022-11-08T18:00:00,2179A,111.0414,35.1147,运城市,空港新区,细颗粒物(PM2.5),110,131,145,83,86,119,111,115,115,21,32,11,16,0.8,1.1
2022-11-08T18:00:00,2181A,112.7383,38.4519,忻州市,开发区,细颗粒物(PM2.5),102,119,78,76,44,77,59,62,62,60,49,11,11,0.8,0.6
2022-11-08T18:00:00,2182A,112.7003,38.4928,忻州市,会展中心,细颗粒物(PM2.5),110,127,83,83,51,70,37,49,49,65,42,16,13,0.7,0.5
2022-11-08T18:00:00,2183A,111.1406,37.5211,吕梁市,环保局,细颗粒物(PM2.5),89,116,98,66,30,81,29,50,50,70,56,8,10,0.9,0.6
2022-11-08T18:00:00,2185A,111.1297,37.5136,吕梁市,自来水公司,颗粒物(PM10),79,108,106,46,33,85,41,51,51,62,47,11,13,0.9,0.6
2022-11-08T18:00:00,2186A,106.8288,39.6778,乌海市,聚英学校,,,,,,,,,,,,,,,,
2022-11-08T18:00:00,2187A,106.8174,39.6973,乌海市,市林业局,颗粒物(PM10),68,85,77,41,31,74,66,65,44,27,47,12,27,0.6,0.8
2022-11-08T18:00:00,2188A,106.7907,39.6667,乌海市,中海勃湾学校,颗粒物(PM10),75,100,80,36,36,74,74,51,51,26,51,4,25,1.2,0.9
2022-11-08T18:00:00,2191A,122.2532,43.6801,通辽市,艺术职业学校,颗粒物(PM10),68,86,58,18,15,75,31,58,57,60,27,41,12,0.6,0.5
2022-11-08T18:00:00,2192A,119.7594,49.2261,呼伦贝尔市,区环保局,,33,33,22,18,13,54,35,44,44,22,14,4,4,0.5,0.4
2022-11-08T18:00:00,2194A,107.5936,40.916,巴彦淖尔市,秋林养殖基地(对照点),,,,,,,,,,,,,,,,
2022-11-08T18:00:00,2195A,107.4212,40.761,巴彦淖尔市,附二中,颗粒物(PM10),88,126,103,38,29,60,46,48,48,42,37,13,18,0.7,0.6
2022-11-08T18:00:00,2196A,107.37,40.7372,巴彦淖尔市,市环保大楼,颗粒物(PM10),82,113,76,38,30,67,38,52,52,53,35,17,18,0.8,0.6
2022-11-08T18:00:00,2197A,113.1306,40.9923,乌兰察布市,集宁新区,,42,42,40,24,23,82,61,59,59,24,31,14,19,0.4,0.5
2022-11-08T18:00:00,2200A,122.0392,46.0656,兴安盟,胜华新制药厂,,,56,53,29,28,70,22,54,54,,30,10,4,0.6,0.5
2022-11-08T18:00:00,2201A,121.9504,46.0741,兴安盟,科右前旗环保局,,48,48,54,20,35,71,26,57,56,46,34,8,7,0.5,0.6
2022-11-08T18:00:00,2202A,116.1042,43.9317,锡林郭勒盟,市环保监测站,,24,24,19,7,4,79,61,69,69,11,5,10,9,0.4,0.3
2022-11-08T18:00:00,2203A,116.0781,43.9311,锡林郭勒盟,市政府,,34,34,22,9,6,78,59,68,68,14,8,8,9,0.2,0.2
2022-11-08T18:00:00,2204A,105.6467,38.8363,阿拉善盟,西城区西花园(对照点),颗粒物(PM10),59,67,47,35,22,108,96,94,94,23,23,12,10,0.5,0.4
2022-11-08T18:00:00,2205A,105.6985,38.8411,阿拉善盟,蒙二幼,,49,49,42,34,29,110,101,99,99,17,16,11,9,0.4,0.4
2022-11-08T18:00:00,2206A,105.724,38.8516,阿拉善盟,环保局新楼,,32,24,26,22,21,114,101,98,98,18,11,10,8,0.4,0.3
2022-11-08T18:00:00,2207A,121.6094,41.998,阜新市,工业园区,颗粒物(PM10),79,107,111,52,46,97,71,77,77,36,37,23,26,1.1,0.9
2022-11-08T18:00:00,2208A,121.6697,42.0279,阜新市,长青街,颗粒物(PM10),69,87,87,40,44,84,75,74,74,36,42,16,19,1.1,1.1
2022-11-08T18:00:00,2209A,121.6673,42.0705,阜新市,农业园区,细颗粒物(PM2.5),75,89,61,55,41,80,72,71,71,24,29,24,51,1.0,0.6
2022-11-08T18:00:00,2210A,121.6717,42.0224,阜新市,东苑,颗粒物(PM10),72,93,104,46,50,80,60,67,67,42,40,27,35,1.2,1.2
2022-11-08T18:00:00,2211A,121.6506,42.0498,阜新市,玉龙新城,细颗粒物(PM2.5),78,77,87,57,41,82,69,71,71,42,44,21,20,1.2,1.1
2022-11-08T18:00:00,2212A,123.2,41.1953,辽阳市,宏伟区,颗粒物(PM10),66,82,35,22,15,75,40,65,63,46,24,14,11,0.8,0.6
2022-11-08T18:00:00,2213A,123.1683,41.2495,辽阳市,新华园,颗粒物(PM10),64,78,58,39,36,75,26,61,60,73,44,35,21,0.9,0.8
2022-11-08T18:00:00,2214A,123.2354,41.2639,辽阳市,滨河路,细颗粒物(PM2.5),72,84,50,52,33,86,28,70,67,69,37,21,13,1.0,0.6
2022-11-08T18:00:00,2215A,123.149,41.2991,辽阳市,铁西工业园,细颗粒物(PM2.5),132,89,77,100,57,74,20,65,60,70,44,24,18,1.3,1
2022-11-08T18:00:00,2216A,123.8139,42.3022,铁岭市,汇工街西,颗粒物(PM10),67,83,57,33,38,67,30,57,55,60,40,15,37,0.8,0.8
2022-11-08T18:00:00,2217A,123.8649,42.2923,铁岭市,水上乐园,颗粒物(PM10),58,66,53,24,25,70,54,62,62,43,30,16,11,0.7,0.4
2022-11-08T18:00:00,2218A,123.8486,42.2867,铁岭市,银州路东段,,,68,59,35,28,66,47,58,58,47,37,13,10,,0.8
2022-11-08T18:00:00,2219A,123.7153,42.2217,铁岭市,金沙江路北,颗粒物(PM10),55,60,44,29,21,73,53,59,59,40,42,15,13,0.8,0.8
2022-11-08T18:00:00,2220A,120.4318,41.5881,朝阳市,西梁,颗粒物(PM10),53,55,78,34,41,83,41,63,63,56,37,28,16,1.7,1.3
2022-11-08T18:00:00,2221A,120.4521,41.5646,朝阳市,河畔小区,颗粒物(PM10),51,52,61,35,30,80,65,72,72,29,29,9,15,0.7,1.2
2022-11-08T18:00:00,2222A,120.4176,41.5648,朝阳市,八里堡,颗粒物(PM10),95,139,87,40,33,84,49,64,64,48,35,14,17,1.2,1.2
2022-11-08T18:00:00,2223A,120.3806,41.5969,朝阳市,农业园区,颗粒物(PM10),60,69,61,39,29,83,62,74,74,33,36,6,8,0.7,1.1
2022-11-08T18:00:00,2225A,124.4002,43.1713,四平市,一商场,颗粒物(PM10),58,65,44,22,16,66,28,54,52,54,33,12,11,0.7,0.5
2022-11-08T18:00:00,2226A,124.388,43.193,四平市,境园,颗粒物(PM10),56,62,57,17,22,67,39,59,55,45,39,13,14,0.7,0.6
2022-11-08T18:00:00,2227A,125.1358,42.8845,辽源市,环保局,,31,17,38,14,26,84,28,76,70,61,31,8,8,1.1,0.7
2022-11-08T18:00:00,2229A,125.9358,41.7173,通化市,光明,,22,16,40,8,18,72,31,56,56,44,30,14,15,0.7,0.5
2022-11-08T18:00:00,2230A,125.9446,41.7325,通化市,铁路,,30,22,38,3,18,69,14,51,50,59,35,13,21,0.8,0.7
2022-11-08T18:00:00,2231A,126.4219,41.9171,白山市,喜丰,,31,31,50,9,13,72,39,60,58,33,27,8,11,0.8,0.6
2022-11-08T18:00:00,2232A,126.4077,41.9419,白山市,环保局,颗粒物(PM10),64,77,55,40,19,70,8,48,46,58,27,13,11,2.2,0.9
2022-11-08T18:00:00,2233A,124.8006,45.1214,松原市,江南,细颗粒物(PM2.5),58,36,39,41,21,52,10,41,38,60,29,27,11,0.5,0.3
2022-11-08T18:00:00,2234A,124.7965,45.1722,松原市,江北,,48,48,38,15,16,55,47,47,47,22,21,7,5,0.4,0.3
2022-11-08T18:00:00,2235A,122.7911,45.6077,白城市,洮北区环保局,颗粒物(PM10),61,71,54,15,28,79,62,72,72,23,30,7,8,0.3,0.3
2022-11-08T18:00:00,2236A,122.8738,45.5725,白城市,市环保局,,40,40,61,15,19,82,49,72,71,30,36,8,10,0.4,0.5
2022-11-08T18:00:00,2237A,129.47,42.8883,延边朝鲜族自治州,妇幼医院,,22,21,32,10,19,75,29,50,50,43,26,7,13,0.6,0.5
2022-11-08T18:00:00,2238A,129.5055,42.9108,延边朝鲜族自治州,延边医院,细颗粒物(PM2.5),107,78,49,80,28,72,10,55,49,68,32,14,11,1.0,0.7
2022-11-08T18:00:00,2239A,129.3964,42.8881,延边朝鲜族自治州,朝阳川镇医院,细颗粒物(PM2.5),77,76,35,56,18,77,6,58,54,56,21,15,5,0.7,0.5
2022-11-08T18:00:00,2240A,130.9762,45.3001,鸡西市,环保局,,,,90,,67,60,5,52,24,66,32,9,7,1.1,0.6
2022-11-08T18:00:00,2243A,130.9429,45.3039,鸡西市,第一中学,,43,43,71,15,42,74,41,66,64,28,16,9,6,0.5,0.5
2022-11-08T18:00:00,2244A,130.2537,47.3416,鹤岗市,哈啤分公司,颗粒物(PM10),63,76,68,32,48,78,13,68,52,54,18,15,12,0.5,0.4
2022-11-08T18:00:00,2245A,130.2684,47.3086,鹤岗市,斯达机电,颗粒物(PM10),60,69,80,32,53,78,34,65,52,32,25,8,12,0.5,0.5
2022-11-08T18:00:00,2246A,130.3114,47.3388,鹤岗市,东山纸板厂,颗粒物(PM10),88,126,101,45,51,72,5,51,40,57,31,15,15,0.9,0.8
2022-11-08T18:00:00,2247A,130.1097,47.3382,鹤岗市,五号水库(对照点),,41,41,50,28,40,82,44,67,67,21,13,7,7,0.4,0.4
2022-11-08T18:00:00,2248A,131.1511,46.6937,双鸭山市,双合村,,,,79,,65,75,40,69,40,,15,7,7,0.4,0.4
2022-11-08T18:00:00,2249A,131.1652,46.6191,双鸭山市,南小市,颗粒物(PM10),73,95,96,27,66,78,24,62,58,42,17,9,7,0.5,0.4
2022-11-08T18:00:00,2250A,131.1524,46.6554,双鸭山市,环保局,颗粒物(PM10),64,78,89,27,69,75,20,64,59,59,22,10,9,0.7,0.6
2022-11-08T18:00:00,2251A,131.12,46.5656,双鸭山市,苗圃(对照点),,39,39,72,17,69,74,47,63,62,9,12,5,4,0.3,0.4
2022-11-08T18:00:00,2252A,128.5159,47.4311,伊春市,环保局,,44,44,78,25,80,73,28,59,58,41,24,6,7,0.7,0.7
2022-11-08T18:00:00,2253A,128.9102,47.7412,伊春市,电力嘉园,颗粒物(PM10),64,78,85,33,63,81,12,62,58,48,18,6,8,0.6,0.6
2022-11-08T18:00:00,2254A,129.5029,48.471,伊春市,汤旺河国家公园(对照点),细颗粒物(PM2.5),115,102,60,87,53,70,49,64,63,7,4,5,6,0.1,0.2
2022-11-08T18:00:00,2255A,130.2751,46.8028,佳木斯市,佳纺,颗粒物(PM10),61,72,96,34,68,65,17,59,51,44,22,8,5,0.7,0.6
2022-11-08T18:00:00,2256A,130.3995,46.8307,佳木斯市,发电厂,,49,48,77,34,75,65,16,55,50,55,25,5,3,0.6,0.6
2022-11-08T18:00:00,2257A,130.3258,46.7975,佳木斯市,环保局,,45,45,96,20,75,70,43,61,58,31,26,6,6,0.5,0.7
2022-11-08T18:00:00,2258A,130.3648,46.8032,佳木斯市,十一中,颗粒物(PM10),55,60,92,32,75,65,20,59,48,60,32,9,4,0.9,0.7
2022-11-08T18:00:00,2259A,130.3794,46.7588,佳木斯市,四丰(对照点),,30,23,70,21,66,70,53,68,64,29,14,1,1,0.3,0.4
2022-11-08T18:00:00,2262A,131.0518,45.8751,七台河市,新一中(对照点),细颗粒物(PM2.5),55,55,50,39,36,88,32,75,71,45,15,10,10,1.6,1.4
2022-11-08T18:00:00,2263A,127.4833,50.2524,黑河市,交通局,,,,23,,12,59,24,45,44,35,22,10,6,,0.3
2022-11-08T18:00:00,2264A,127.5144,50.2341,黑河市,环保局,,36,36,37,17,18,60,43,49,49,15,22,8,8,0.4,0.5
2022-11-08T18:00:00,2265A,127.5291,50.2472,黑河市,大黑河岛(对照点),细颗粒物(PM2.5),70,22,15,51,40,62,40,51,51,9,5,9,4,0.3,0.2
2022-11-08T18:00:00,2266A,126.9785,46.6365,绥化市,人和东街,细颗粒物(PM2.5),63,67,139,45,123,50,41,44,44,31,34,4,5,1.0,1.2
2022-11-08T18:00:00,2267A,126.964,46.6528,绥化市,党政办公中心,,50,50,133,35,131,70,70,59,59,16,26,5,7,0.8,1.1
2022-11-08T18:00:00,2269A,124.1069,50.4097,大兴安岭地区,科技局,,18,9,14,10,14,60,56,56,56,8,11,3,4,0.2,0.3
2022-11-08T18:00:00,2270A,117.396,32.939,蚌埠市,工人疗养院,细颗粒物(PM2.5),65,56,120,47,77,149,105,125,125,34,41,6,11,0.4,0.5
2022-11-08T18:00:00,2271A,117.3605,32.9427,蚌埠市,百货大楼,颗粒物(PM10),57,63,112,36,79,146,102,122,122,38,47,10,13,0.5,0.6
2022-11-08T18:00:00,2273A,117.4185,32.8911,蚌埠市,蚌埠学院,颗粒物(PM10),59,68,118,29,67,135,84,121,121,59,74,12,20,0.5,0.6
2022-11-08T18:00:00,2274A,117.3533,32.9673,蚌埠市,淮上区政府,颗粒物(PM10),64,78,139,39,84,146,106,124,124,27,45,8,11,0.4,0.5
2022-11-08T18:00:00,2275A,117.3145,32.8977,蚌埠市,高新区,颗粒物(PM10),56,61,139,27,80,141,114,130,130,38,76,9,20,0.5,0.7
2022-11-08T18:00:00,2277A,116.8305,32.7727,淮南市,潘集区政府,细颗粒物(PM2.5),67,80,140,48,91,157,106,137,137,37,36,11,12,0.4,0.5
2022-11-08T18:00:00,2278A,117.0067,32.6524,淮南市,师范学院,颗粒物(PM10),69,88,129,43,66,160,91,139,138,57,44,12,17,0.8,0.9
2022-11-08T18:00:00,2279A,116.8569,32.5951,淮南市,谢家集区政府,颗粒物(PM10),68,86,117,47,70,162,117,144,144,34,40,10,16,0.4,0.5
2022-11-08T18:00:00,2280A,116.8281,32.633,淮南市,八公山区政府,颗粒物(PM10),62,74,102,41,73,169,113,146,146,29,28,10,17,0.5,0.6
2022-11-08T18:00:00,2281A,116.6325,32.6201,淮南市,焦岗湖风景区管理处(对照点),颗粒物(PM10),68,85,128,39,75,171,113,149,149,9,13,15,16,0.5,0.5
2022-11-08T18:00:00,2282A,116.8004,33.975,淮北市,监测站,细颗粒物(PM2.5),109,111,149,82,108,163,96,142,141,56,40,6,13,0.9,0.9
2022-11-08T18:00:00,2283A,116.8091,33.9007,淮北市,烈山区政府,细颗粒物(PM2.5),100,98,138,75,106,161,139,147,147,31,47,6,10,0.7,0.8
2022-11-08T18:00:00,2284A,116.7856,33.9477,淮北市,职业技术学院,细颗粒物(PM2.5),115,130,184,87,109,160,123,145,143,41,49,7,13,0.8,0.9
2022-11-08T18:00:00,2285A,117.8177,30.9412,铜陵市,市第四中学,,,77,90,46,51,164,126,142,142,,50,6,6,0.5,0.5
2022-11-08T18:00:00,2286A,117.8059,30.9273,铜陵市,市公路局,细颗粒物(PM2.5),83,110,80,61,50,151,128,125,125,42,46,7,9,0.7,0.7
2022-11-08T18:00:00,2287A,117.7807,30.9413,铜陵市,市新民污水厂,细颗粒物(PM2.5),69,85,80,50,41,169,119,152,148,72,68,8,7,0.5,0.6
2022-11-08T18:00:00,2288A,117.7439,30.8792,铜陵市,市第九中学,颗粒物(PM10),79,108,115,56,54,147,125,127,127,54,68,12,14,1.5,0.9
2022-11-08T18:00:00,2289A,117.846,30.9413,铜陵市,车站新区,细颗粒物(PM2.5),70,67,67,51,41,162,143,141,141,31,48,6,6,0.4,0.5
2022-11-08T18:00:00,2290A,117.8483,30.97,铜陵市,市职教基地,细颗粒物(PM2.5),67,74,82,48,48,184,142,159,159,34,35,7,9,0.5,0.5
2022-11-08T18:00:00,2291A,117.0809,30.5177,安庆市,环科院,细颗粒物(PM2.5),74,75,76,54,49,176,162,145,145,35,34,12,12,0.8,0.8
2022-11-08T18:00:00,2292A,117.0331,30.5119,安庆市,马山宾馆,颗粒物(PM10),66,81,73,44,45,180,154,149,149,32,32,8,9,0.8,0.9
2022-11-08T18:00:00,2294A,116.9896,30.6145,安庆市,安庆大学,臭氧1小时,65,73,74,43,44,191,172,160,160,19,32,9,8,0.8,0.8
2022-11-08T18:00:00,2295A,118.2903,29.6963,黄山市,延安路89号,,30,16,24,7,14,119,93,106,106,20,15,6,6,0.5,0.5
2022-11-08T18:00:00,2296A,118.327,29.7178,黄山市,黄山东路89号,,24,24,26,14,15,114,67,102,102,33,19,5,5,0.4,0.2
2022-11-08T18:00:00,2297A,118.1371,30.2756,黄山市,黄山区政府5号楼,,38,32,37,3,15,134,121,118,118,14,11,6,5,0.4,0.4
2022-11-08T18:00:00,2298A,118.3093,32.3153,滁州市,老年大学,细颗粒物(PM2.5),95,116,87,71,59,149,119,117,117,52,43,10,8,0.6,0.6
2022-11-08T18:00:00,2299A,118.3244,32.2786,滁州市,人大宾馆,颗粒物(PM10),77,104,102,45,49,148,116,116,116,51,45,6,5,0.8,0.7
2022-11-08T18:00:00,2301A,115.8277,32.8929,阜阳市,市监测站,细颗粒物(PM2.5),82,103,136,60,97,156,120,132,130,38,45,11,13,0.5,0.9
2022-11-08T18:00:00,2303A,115.8554,32.8605,阜阳市,开发区,颗粒物(PM10),82,113,156,58,96,169,126,148,148,42,46,8,10,0.7,0.8
2022-11-08T18:00:00,2306A,116.989,33.6306,宿州市,火车站,,,,,,,,,,,,,,,,
2022-11-08T18:00:00,2307A,116.5079,31.737,六安市,监测大楼,颗粒物(PM10),63,75,93,39,60,170,142,151,151,33,50,8,9,0.6,0.6
2022-11-08T18:00:00,2308A,116.4738,31.7643,六安市,皖西学院,颗粒物(PM10),62,73,90,34,50,175,151,156,156,27,47,8,8,0.6,0.7
2022-11-08T18:00:00,2309A,116.4996,31.7905,六安市,朝阳厂,颗粒物(PM10),77,104,93,51,59,177,151,155,155,34,52,6,6,0.6,0.7
2022-11-08T18:00:00,2310A,116.5567,31.7886,六安市,开发区,颗粒物(PM10),67,83,127,38,71,180,143,155,155,37,51,8,10,0.5,0.6
2022-11-08T18:00:00,2311A,115.8072,33.8399,亳州市,污水处理厂,细颗粒物(PM2.5),73,79,151,53,109,160,128,146,144,19,28,6,13,0.7,0.9
2022-11-08T18:00:00,2312A,115.7789,33.8518,亳州市,三国揽胜宫,"颗粒物(PM10),细颗粒物(PM2.5)",73,96,175,53,102,162,120,144,144,35,30,5,12,0.9,1
