timepoint,stationcode,longitude,latitude,area,positionname,primarypollutant,aqi,pm10,pm10_24h,pm2_5,pm2_5_24h,o3,o3_24h,o3_8h,o3_8h_24h,no2,no2_24h,so2,so2_24h,co,co_24h
2026-01-13T1400,2568A,102.2503,31.8896,阿坝藏族羌族自治州,马师校,,21,6,17,3,15,65,,43,43,8,13,4,4,0.5,0.5
2026-01-13T1400,3994A,102.2174,31.9016,阿坝藏族羌族自治州,马尔康中学西区,,20,,11,6,13,64,,47,47,5,13,5,5,0.4,0.5
2026-01-13T1400,2695A,80.2899,41.1684,阿克苏地区,电视台,细颗粒物(PM2.5),85,115,140,63,90,57,,26,26,32,53,3,3,1.2,2.3
2026-01-13T1400,2696A,80.2592,41.1541,阿克苏地区,艺术中心,细颗粒物(PM2.5),98,110,137,73,96,34,,19,19,47,56,6,6,1.0,1.5
2026-01-13T1400,2205A,105.699,38.8409,阿拉善盟,蒙二幼,,31,31,50,13,21,86,,70,67,7,12,10,9,0.5,0.6
2026-01-13T1400,2206A,105.7198,38.8508,阿拉善盟,环保局新楼,,25,23,50,10,13,79,,85,83,5,5,8,7,0.4,0.6
2026-01-13T1400,2708A,88.1266,47.8515,阿勒泰地区,市站,,36,34,20,25,11,52,,50,47,24,37,5,5,0.7,0.6
2026-01-13T1400,4166A,88.1198,47.7931,阿勒泰地区,阿勒泰路33号,颗粒物(PM10),60,70,22,37,13,53,,59,50,24,27,3,5,0.8,0.6
2026-01-13T1400,2630A,80.1171,32.4999,阿里地区,阿里监测站,,21,6,3,3,3,66,,59,59,6,16,5,8,0.5,0.6
2026-01-13T1400,3192A,80.0906,32.5029,阿里地区,阿里藏医院,,24,,21,12,13,76,,48,48,5,18,11,14,0.6,0.9
2026-01-13T1400,2644A,109.0088,32.6974,安康市,汉滨区检察院,细颗粒物(PM2.5),69,73,66,50,52,71,,27,27,20,25,6,5,0.8,0.8
2026-01-13T1400,4054A,109.0324,32.6913,安康市,市邮政管理局,细颗粒物(PM2.5),64,70,86,46,68,69,,29,29,18,35,7,8,0.7,1
2026-01-13T1400,2291A,117.0806,30.5181,安庆市,环科院,细颗粒物(PM2.5),90,87,81,67,53,89,,36,36,22,38,10,9,0.5,0.4
2026-01-13T1400,2292A,117.0331,30.5118,安庆市,马山宾馆,细颗粒物(PM2.5),87,89,86,64,56,93,,41,41,24,36,10,8,0.6,0.6
2026-01-13T1400,2294A,116.9897,30.6146,安庆市,安庆大学,细颗粒物(PM2.5),78,73,84,57,52,110,,57,57,16,28,10,10,0.6,0.6
2026-01-13T1400,3173A,117.0598,30.5351,安庆市,市人大,细颗粒物(PM2.5),83,83,85,61,55,98,,44,44,23,34,12,15,0.5,0.5
2026-01-13T1400,3123A,105.9408,26.2431,安顺市,凤凰山,细颗粒物(PM2.5),68,64,87,49,74,102,,44,44,14,34,13,57,0.5,1.1
2026-01-13T1400,3124A,105.9443,26.2567,安顺市,金钟山,细颗粒物(PM2.5),69,63,74,50,71,102,,49,49,12,23,15,40,0.5,0.9
2026-01-13T1400,3125A,105.8983,26.248,安顺市,娄家坡,细颗粒物(PM2.5),79,69,77,58,68,98,,62,62,14,20,13,26,0.8,1
2026-01-13T1400,1819A,114.3552,36.1017,安阳市,红庙街,,,114,114,45,37,63,,29,29,25,37,,8,1.2,1.2
2026-01-13T1400,1820A,114.361,36.0681,安阳市,银杏小区,颗粒物(PM10),84,118,105,50,42,61,,31,31,25,29,13,8,0.9,0.7
2026-01-13T1400,3141A,114.3921,36.0879,安阳市,信访局,,,126,112,55,41,68,,32,32,,32,18,12,1.2,1.1
2026-01-13T1400,3669A,114.4706,36.0634,安阳市,左辅环卫站,颗粒物(PM10),93,135,118,67,62,70,,32,32,27,38,20,12,1.3,1
2026-01-13T1400,4117A,114.2918,36.0769,安阳市,钢三路198号,颗粒物(PM10),92,134,115,44,34,55,,33,32,31,28,13,7,0.8,0.5
2026-01-13T1400,1748A,123.0441,41.1201,鞍山市,深沟寺,,,23,38,10,21,64,,57,57,,22,,11,0.6,0.8
2026-01-13T1400,1749A,123.011,41.0931,鞍山市,太阳城,,25,25,38,15,21,65,,57,57,12,23,21,19,1.1,1
2026-01-13T1400,1750A,123.0483,41.1445,鞍山市,太平,,30,30,66,11,25,62,,53,53,7,24,8,13,0.5,0.8
2026-01-13T1400,1751A,122.964,41.0968,鞍山市,铁西三道街,,23,23,44,8,23,67,,55,55,7,26,10,19,0.6,1.3
2026-01-13T1400,1753A,123.0219,41.0822,鞍山市,明达新区,,27,27,35,13,19,58,,52,52,16,22,21,17,0.9,0.7
2026-01-13T1400,4201A,122.944647,41.082639,鞍山市,兴盛南路290号,,28,28,54,9,30,64,,47,47,12,31,11,17,0.4,0.9
2026-01-13T1400,2195A,107.4206,40.7609,巴彦淖尔市,附二中,颗粒物(PM10),85,119,78,31,31,69,,55,55,4,11,3,3,0.4,0.5
2026-01-13T1400,2196A,107.37,40.7372,巴彦淖尔市,市环保大楼,颗粒物(PM10),84,117,82,25,25,79,,63,63,4,11,4,4,0.3,0.4
2026-01-13T1400,1956A,86.1476,41.7529,巴音郭楞蒙古自治州,孔雀公园,细颗粒物(PM2.5),68,83,94,49,64,53,,40,40,27,45,10,9,0.6,1
2026-01-13T1400,1957A,86.1971,41.7166,巴音郭楞蒙古自治州,棉纺厂,颗粒物(PM10),60,69,128,11,57,57,,37,37,18,59,/,/,/,/
2026-01-13T1400,1958A,86.236,41.7172,巴音郭楞蒙古自治州,经济开发区,,49,49,89,30,51,55,,44,44,17,34,24,6,0.6,0.8
2026-01-13T1400,3181A,106.776805,31.852614,巴中市,市五中,细颗粒物(PM2.5),122,123,95,92,71,52,,18,18,41,31,6,5,1.4,1.2
2026-01-13T1400,3183A,106.7419,31.8654,巴中市,圣泉水务公司,细颗粒物(PM2.5),113,102,86,85,66,77,,29,29,26,37,5,5,0.8,0.7
2026-01-13T1400,3616A,106.7617,31.8343,巴中市,市中心医院,细颗粒物(PM2.5),120,122,99,91,78,76,,20,20,26,37,7,7,0.9,1.2
2026-01-13T1400,2235A,122.7909,45.608,白城市,洮北区环保局,,23,23,25,13,16,58,,50,48,5,14,9,8,0.2,0.2
2026-01-13T1400,2236A,122.8741,45.5725,白城市,市环保局,,19,19,22,10,16,60,,51,51,4,9,7,5,0.3,0.3
2026-01-13T1400,2231A,126.4219,41.9172,白山市,喜丰,,20,20,32,6,12,63,,60,60,5,11,14,19,0.4,0.6
2026-01-13T1400,2232A,126.4082,41.9416,白山市,环保局,,20,14,22,8,16,63,,59,58,5,10,10,11,0.6,0.9
2026-01-13T1400,2647A,104.1727,36.5448,白银市,第三小学,颗粒物(PM10),76,101,106,46,48,74,,36,36,35,51,32,24,0.8,1
2026-01-13T1400,2648A,104.1467,36.5482,白银市,动力公司,颗粒物(PM10),76,101,93,46,42,76,,45,45,25,32,34,14,1.0,1
2026-01-13T1400,2512A,106.6102,23.901,百色市,市监测站,细颗粒物(PM2.5),65,57,72,47,56,77,,31,31,12,25,8,11,0.5,0.7
2026-01-13T1400,2513A,106.6524,23.8842,百色市,市中心血站,细颗粒物(PM2.5),69,60,99,50,78,79,,32,32,15,47,8,13,0.8,1
2026-01-13T1400,4133A,106.6273,23.8798,百色市,龙景西路,细颗粒物(PM2.5),64,62,120,46,67,82,,29,29,12,36,8,12,0.6,0.8
2026-01-13T1400,2270A,117.396,32.9389,蚌埠市,工人疗养院,细颗粒物(PM2.5),83,109,119,61,58,103,,66,66,28,36,8,7,0.7,0.7
2026-01-13T1400,2271A,117.3606,32.9428,蚌埠市,百货大楼,细颗粒物(PM2.5),77,99,105,56,56,104,,66,66,25,34,9,8,0.5,0.6
2026-01-13T1400,2273A,117.4183,32.8909,蚌埠市,蚌埠学院,细颗粒物(PM2.5),83,88,115,61,60,107,,59,59,23,36,10,8,0.6,0.5
2026-01-13T1400,2274A,117.3534,32.9672,蚌埠市,淮上区政府,细颗粒物(PM2.5),85,105,114,63,60,108,,72,72,27,36,6,5,0.7,0.7
2026-01-13T1400,2275A,117.3143,32.8977,蚌埠市,高新区,细颗粒物(PM2.5),93,97,118,69,66,98,,56,56,24,40,12,9,0.4,0.4
2026-01-13T1400,3715A,117.3091,32.9314,蚌埠市,蚌埠田家炳中学,细颗粒物(PM2.5),90,97,125,67,67,104,,63,63,27,42,8,12,0.5,0.6
2026-01-13T1400,1585A,109.8761,40.6533,包头市,市环境监测站,颗粒物(PM10),85,119,118,39,31,57,,24,24,45,36,43,14,2.0,1.1
2026-01-13T1400,1587A,109.9992,40.5843,包头市,包头八中,颗粒物(PM10),84,117,133,43,53,63,,24,24,22,46,15,12,0.7,1.1
2026-01-13T1400,1589A,109.8641,40.6288,包头市,惠龙物流,颗粒物(PM10),83,116,118,55,40,59,,26,26,44,40,55,18,2.1,1.2
2026-01-13T1400,1590A,110.0376,40.5546,包头市,东河鸿龙湾,颗粒物(PM10),75,99,136,27,34,65,,26,26,16,49,11,9,0.7,1.1
2026-01-13T1400,3283A,109.9154,40.5684,包头市,滨河大厦,颗粒物(PM10),72,94,129,40,44,55,,26,26,25,42,19,10,0.8,1
2026-01-13T1400,3419A,109.9449,40.6259,包头市,包头市委党校,颗粒物(PM10),72,93,105,40,37,62,,21,21,33,46,25,13,1.2,0.9
2026-01-13T1400,3683A,109.8332,40.6577,包头市,昆区政府,细颗粒物(PM2.5),88,123,113,65,42,47,,24,24,66,41,63,20,3.0,1.3
2026-01-13T1400,1931A,107.0802,34.3129,宝鸡市,竹园沟,,42,42,32,22,24,66,,39,39,23,17,6,6,0.3,0.3
2026-01-13T1400,1933A,107.1429,34.3549,宝鸡市,监测站,颗粒物(PM10),61,72,49,31,31,62,,25,25,22,32,6,4,0.5,0.6
2026-01-13T1400,1934A,107.1172,34.3759,宝鸡市,技工学校,颗粒物(PM10),57,64,53,22,30,61,,33,33,24,27,4,5,0.6,0.6
2026-01-13T1400,1936A,107.2025,34.3518,宝鸡市,文理学院,颗粒物(PM10),53,56,44,35,28,55,,36,36,30,32,4,5,0.5,0.4
2026-01-13T1400,1937A,107.2396,34.3626,宝鸡市,三迪小学,颗粒物(PM10),73,96,55,34,32,64,,27,27,30,45,9,4,0.5,0.6
2026-01-13T1400,4155A,107.1721,34.3558,宝鸡市,滨河北路,颗粒物(PM10),52,53,46,28,23,57,,30,30,27,29,4,5,0.5,0.5
2026-01-13T1400,4308A,107.3898,34.3601,宝鸡市,陈仓区北开路21号,颗粒物(PM10),60,70,73,24,43,76,,53,53,30,45,16,46,0.3,0.5
2026-01-13T1400,1051A,115.4803,38.8568,保定市,游泳馆,颗粒物(PM10),52,53,94,31,54,44,,28,28,41,59,6,8,0.6,0.9
2026-01-13T1400,1052A,115.509,38.8895,保定市,华电二区,颗粒物(PM10),55,60,94,36,60,37,,18,18,38,60,6,5,1.2,1.2
2026-01-13T1400,1053A,115.4588,38.9037,保定市,接待中心,颗粒物(PM10),51,52,95,33,56,47,,25,25,34,58,4,3,0.6,0.7
2026-01-13T1400,1054A,115.4484,38.8344,保定市,地表水厂,颗粒物(PM10),51,52,123,27,60,47,,27,27,37,64,8,5,0.5,0.7
2026-01-13T1400,3581A,115.3136,38.9511,保定市,满城区生态环境分局,颗粒物(PM10),58,66,131,29,78,49,,29,29,39,71,5,6,0.6,1.3
2026-01-13T1400,3582A,115.4709,38.7628,保定市,清苑区第二中学,颗粒物(PM10),74,98,130,31,60,35,,25,25,47,57,11,12,0.7,0.8
2026-01-13T1400,3583A,115.6231,39.0223,保定市,徐水物探局,,,,136,51,68,40,,22,22,37,51,9,7,0.8,0.9
2026-01-13T1400,4004A,115.4199,38.8665,保定市,双鹰农机,颗粒物(PM10),58,65,114,23,52,56,,32,32,33,55,9,7,0.6,0.8
2026-01-13T1400,4034A,115.515,38.8589,保定市,植保所站,细颗粒物(PM2.5),63,63,96,45,62,34,,20,20,44,60,6,4,0.9,0.9
2026-01-13T1400,2594A,99.1589,25.1137,保山市,市环境监测站,,30,20,24,19,19,93,,51,51,12,10,6,4,0.2,0.3
2026-01-13T1400,2595A,99.1616,25.1381,保山市,市环保局,,35,30,27,24,19,95,,52,52,12,8,4,4,0.5,0.5
2026-01-13T1400,1867A,109.1435,21.4085,北海市,海滩公园,"颗粒物(PM10),细颗粒物(PM2.5)",80,109,63,59,38,140,,96,96,30,23,10,9,1.2,0.9
2026-01-13T1400,1868A,109.0983,21.466,北海市,新市环保局,细颗粒物(PM2.5),70,83,62,51,46,159,,99,99,21,22,8,7,0.6,0.6
2026-01-13T1400,1869A,109.1775,21.5232,北海市,北海工业园,细颗粒物(PM2.5),89,94,66,66,46,155,,86,86,18,21,13,10,0.7,0.7
2026-01-13T1400,3400A,109.1844,21.4396,北海市,龙潭自来水厂,细颗粒物(PM2.5),70,69,66,51,46,145,,81,81,11,19,10,8,0.5,0.9
2026-01-13T1400,1001A,116.3611,39.8786,北京市,万寿西宫,颗粒物(PM10),51,51,47,27,21,53,,43,42,28,40,7,2,0.6,0.5
2026-01-13T1400,1003A,116.4174,39.9289,北京市,东四,,44,44,39,20,16,55,,45,45,22,33,7,4,0.2,0.2
2026-01-13T1400,1004A,116.4073,39.8858,北京市,天坛,,49,49,39,23,18,56,,50,46,25,31,6,2,0.5,0.4
2026-01-13T1400,1005A,116.4622,39.9364,北京市,农展馆,,43,43,38,22,12,62,,55,55,14,32,7,4,0.7,0.7
2026-01-13T1400,1006A,116.3399,39.9293,北京市,官园,颗粒物(PM10),51,51,46,26,17,52,,41,41,22,33,8,4,0.6,0.5
2026-01-13T1400,1007A,116.2879,39.9613,北京市,海淀万柳,,,,42,,14,,,38,,,42,,3,,0.6
2026-01-13T1400,1008A,116.6635,40.1349,北京市,顺义新城,,32,32,33,14,13,64,,69,59,16,17,4,3,0.3,0.5
2026-01-13T1400,1009A,116.6275,40.327,北京市,怀柔镇,,21,21,21,12,9,54,,64,58,23,11,4,6,0.2,0.2
2026-01-13T1400,1010A,116.2295,40.217,北京市,昌平镇,,29,29,20,12,9,52,,39,39,24,18,5,4,0.6,0.5
2026-01-13T1400,1011A,116.3968,39.982,北京市,奥体中心,,40,40,32,17,12,62,,45,45,20,34,6,4,0.7,0.6
2026-01-13T1400,3418A,116.8336,40.4095,北京市,密云新城,,29,29,19,12,9,60,,70,66,16,6,4,4,0.3,0.3
2026-01-13T1400,3671A,116.0879,39.9725,北京市,门头沟三家店,,50,50,34,21,10,57,,43,43,22,22,6,3,0.5,0.4
2026-01-13T1400,3672A,116.1507,39.8246,北京市,丰台云岗,颗粒物(PM10),56,61,64,34,29,55,,35,35,28,37,6,2,0.6,0.5
2026-01-13T1400,3674A,115.9578,39.7602,北京市,房山燕山,,48,48,57,25,24,57,,46,46,22,28,7,6,0.5,0.4
2026-01-13T1400,3675A,116.4669,39.7734,北京市,大兴旧宫,,45,45,45,18,17,59,,43,43,18,36,6,3,0.6,0.5
2026-01-13T1400,3694A,115.9859,40.4562,北京市,延庆石河营,,27,27,20,13,6,58,,69,56,17,7,4,3,0.3,0.3
2026-01-13T1400,3695A,116.6151,40.3052,北京市,怀柔新城,,20,20,21,9,8,54,,64,59,25,12,5,4,0.3,0.3
2026-01-13T1400,3696A,116.2542,39.8764,北京市,丰台小屯,颗粒物(PM10),57,64,52,33,21,47,,27,27,29,39,7,4,0.7,0.5
2026-01-13T1400,3697A,116.8399,40.3843,北京市,密云镇,,29,29,21,9,8,59,,69,64,17,10,2,1,0.4,0.4
2026-01-13T1400,4057A,115.9423,40.4431,北京市,延庆百泉,,25,25,21,9,6,48,,58,50,17,6,3,3,0.4,0.4
2026-01-13T1400,4058A,116.6598,39.9164,北京市,通州新华,,38,38,46,15,16,46,,39,39,27,46,4,4,0.4,0.4
2026-01-13T1400,4182A,116.1942,39.9158,北京市,石景山八角,,,,49,,17,,,36,28,,33,,2,,0.3
2026-01-13T1400,4194A,117.078628,40.151726,北京市,平谷新城,,33,33,29,13,11,56,,65,55,17,13,4,3,0.6,0.4
2026-01-13T1400,1761A,123.8274146,41.31234549,本溪市,大峪,,21,21,32,9,16,60,,50,50,6,19,9,10,0.7,0.8
2026-01-13T1400,1763A,123.7169,41.3094,本溪市,彩屯,,21,20,41,9,24,66,,58,58,7,22,7,9,0.4,0.9
2026-01-13T1400,1764A,123.7672166,41.28649327,本溪市,东明,,24,24,31,9,17,61,,56,56,7,16,8,9,0.5,0.8
2026-01-13T1400,1765A,123.799345,41.266614,本溪市,新立屯,,,,29,,16,58,,53,53,7,20,10,12,0.4,0.9
2026-01-13T1400,1766A,123.829144,41.336777,本溪市,威宁,,23,23,36,8,20,63,,44,44,7,27,9,8,0.6,0.7
2026-01-13T1400,2587A,105.287,27.3133,毕节市,八中,,,,94,,73,74,,24,24,19,21,15,11,0.9,1
2026-01-13T1400,2588A,105.3079,27.2987,毕节市,师专,细颗粒物(PM2.5),53,48,103,37,78,91,,28,28,16,36,10,9,0.8,1.1
2026-01-13T1400,4263A,105.3688,27.3598,毕节市,工业大道,细颗粒物(PM2.5),58,58,101,41,75,77,,26,26,28,28,13,11,/,/
2026-01-13T1400,1629A,117.9961,37.3604,滨州市,第二水厂,颗粒物(PM10),51,51,95,22,45,60,,31,31,21,48,11,15,0.5,0.8
2026-01-13T1400,1630A,117.9789,37.3931,滨州市,北中新校,,,,97,22,50,65,,32,32,23,53,7,9,0.4,0.9
2026-01-13T1400,3514A,117.9379,37.3959,滨州市,中海酒店,,46,46,91,24,50,70,,42,42,18,47,9,12,0.7,1
2026-01-13T1400,3515A,117.9381509,37.35547456,滨州市,开发区一中,颗粒物(PM10),56,61,98,22,47,63,,33,33,17,43,13,17,0.4,0.9
2026-01-13T1400,3516A,118.0914,37.6938,滨州市,金海六路,,44,44,98,9,42,84,,55,55,17,51,6,8,0.6,0.9
2026-01-13T1400,4028A,117.9955,37.3752,滨州市,滨州市西街道办事处,,,48,105,22,58,69,,39,39,16,44,10,12,,1.1
2026-01-13T1400,2311A,115.8071,33.8399,亳州市,污水处理厂,颗粒物(PM10),81,111,108,45,52,84,,40,40,24,32,6,4,0.5,0.5
2026-01-13T1400,2312A,115.7789,33.8519,亳州市,三国揽胜宫,颗粒物(PM10),92,134,116,54,62,80,,44,44,31,31,6,4,0.5,0.6
2026-01-13T1400,3332A,115.7631,33.803,亳州市,亳州学院,颗粒物(PM10),78,106,106,52,56,84,,47,47,23,29,4,4,0.4,0.5
2026-01-13T1400,2693A,82.0482,44.8553,博尔塔拉蒙古自治州,市党校,颗粒物(PM10),52,53,85,20,45,54,,54,54,19,29,6,6,0.4,0.5
2026-01-13T1400,2694A,82.0805,44.8966,博尔塔拉蒙古自治州,市环保局,,32,32,98,21,47,52,,32,32,21,37,12,10,0.6,1.2
2026-01-13T1400,1071A,116.8733,38.2922,沧州市,沧县城建局,,38,38,95,16,58,71,,44,44,10,58,2,7,0.2,1
2026-01-13T1400,1072A,116.8462,38.3189,沧州市,电视转播站,,24,24,95,7,52,76,,39,39,12,54,3,6,0.3,0.9
2026-01-13T1400,1073A,116.8588,38.3161,沧州市,市环保局,,,30,95,16,53,71,,37,37,7,48,,8,0.3,0.8
2026-01-13T1400,3324A,116.8011,38.294,沧州市,河北水利电力学院,,24,24,88,3,38,73,,42,42,12,52,2,6,0.2,0.7
2026-01-13T1400,2622A,97.1813,31.1289,昌都市,昌都监测站,,27,27,38,3,17,60,,49,49,10,18,3,3,0.4,0.6
2026-01-13T1400,3719A,97.1707,31.1428,昌都市,昌都会议中心,,19,8,12,3,11,58,,46,45,6,4,2,2,0.4,0.4
2026-01-13T1400,2692A,87.2722,44.0298,昌吉回族自治州,新区政务中心,细颗粒物(PM2.5),128,144,149,97,118,40,,20,20,51,54,12,8,1.7,1.8
2026-01-13T1400,3613A,87.3069,44.0093,昌吉回族自治州,亚心广场,细颗粒物(PM2.5),94,124,164,70,128,38,,20,20,48,53,12,8,1.5,1.7
2026-01-13T1400,4164A,87.2057,43.9289,昌吉回族自治州,财政所,颗粒物(PM10),54,58,98,14,70,68,,54,43,9,29,8,6,0.4,0.9
2026-01-13T1400,1120A,125.2874,43.9024,长春市,客车厂,,35,,41,24,30,51,,43,42,7,20,8,9,0.4,0.5
2026-01-13T1400,1121A,125.2943,43.8508,长春市,邮电学院,,27,27,40,11,28,53,,45,45,6,21,9,11,0.3,0.5
2026-01-13T1400,1122A,125.3648,43.8745,长春市,劳动公园,,,20,44,10,23,48,,47,45,,20,9,10,,0.6
2026-01-13T1400,1123A,125.3233,43.8781,长春市,园林处,,26,26,41,16,26,51,,46,46,5,16,9,10,0.5,0.6
2026-01-13T1400,1124A,125.4604,43.7904,长春市,净月潭,,19,19,34,11,20,51,,46,46,6,16,6,6,0.2,0.4
2026-01-13T1400,1126A,125.38,43.8422,长春市,经开区环卫处,,21,21,39,8,36,52,,43,43,7,23,8,11,0.4,0.5
2026-01-13T1400,1127A,125.234,43.7761,长春市,高新区管委会,,31,31,43,12,27,57,,53,52,4,18,6,6,0.2,0.5
2026-01-13T1400,1128A,125.1695,43.83,长春市,岱山公园,,20,20,45,11,28,53,,46,46,5,20,6,6,0.3,0.5
2026-01-13T1400,4281A,125.334645,43.916281,长春市,北亚泰大街1068号,,25,25,41,11,27,50,,41,41,12,25,9,10,0.5,0.7
2026-01-13T1400,1335A,113.082,28.2421,长沙市,经开区环保局,细颗粒物(PM2.5),98,93,103,73,71,103,,42,42,21,47,9,10,0.7,0.8
2026-01-13T1400,1336A,112.8873,28.2202,长沙市,高开区环保局,细颗粒物(PM2.5),95,94,103,71,79,82,,35,35,20,40,11,14,0.8,1
2026-01-13T1400,1337A,113.0785,28.2012,长沙市,马坡岭,细颗粒物(PM2.5),104,95,111,78,75,98,,38,38,18,43,10,8,0.7,1
2026-01-13T1400,1338A,112.9448,28.1894,长沙市,湖南师范大学,细颗粒物(PM2.5),80,105,106,59,68,108,,41,41,23,55,12,12,1.0,1.1
2026-01-13T1400,1339A,113.0177,28.1322,长沙市,雨花区环保局,,,83,108,42,68,106,,35,35,,53,12,14,0.7,1.1
2026-01-13T1400,1340A,112.9795,28.2593,长沙市,伍家岭,细颗粒物(PM2.5),108,122,127,81,63,80,,27,27,39,52,11,9,0.9,1.1
2026-01-13T1400,1341A,113.002,28.1944,长沙市,火车新站,细颗粒物(PM2.5),89,113,121,66,76,94,,33,33,27,58,14,16,1.0,1.2
2026-01-13T1400,1342A,112.9846,28.1177,长沙市,天心区环保局,细颗粒物(PM2.5),67,69,99,48,66,112,,48,48,14,47,10,14,1.0,1.2
2026-01-13T1400,1343A,112.8906,28.1307,长沙市,湖南中医药大学,,,115,113,,73,102,,34,34,32,52,16,11,1.4,1.1
2026-01-13T1400,1727A,113.1146,36.1547,长治市,清华站,颗粒物(PM10),56,61,105,12,29,84,,34,34,6,33,10,13,0.4,0.7
2026-01-13T1400,1730A,113.0887,36.2126,长治市,审计局,颗粒物(PM10),57,64,101,14,33,78,,26,26,8,30,8,13,0.4,0.8
2026-01-13T1400,1731A,113.0845,36.1856,长治市,长治八中,颗粒物(PM10),62,73,128,30,40,78,,27,27,4,25,10,13,0.4,0.8
2026-01-13T1400,2845A,113.1561,36.1912,长治市,德盛苑,,44,44,88,7,30,85,,59,54,6,18,8,11,0.3,0.7
2026-01-13T1400,3568A,113.0603,36.0464,长治市,向阳小学,颗粒物(PM10),60,69,111,18,28,85,,63,63,9,18,10,13,0.3,0.4
2026-01-13T1400,3569A,112.8788,36.315,长治市,屯留一中,,,56,97,14,28,78,,32,32,4,29,,13,0.4,0.8
2026-01-13T1400,4189A,113.113092,36.199482,长治市,英华南巷50号,颗粒物(PM10),56,61,116,14,35,82,,32,32,5,35,7,13,0.5,0.9
2026-01-13T1400,4190A,113.23666,36.33435,长治市,学府街1号,颗粒物(PM10),75,99,108,26,36,77,,33,33,15,36,9,12,0.5,1
2026-01-13T1400,1854A,111.696,28.9725,常德市,市二中,细颗粒物(PM2.5),57,46,69,40,51,101,,70,70,9,18,5,6,0.7,0.8
2026-01-13T1400,3138A,111.7152,29.0288,常德市,武陵区永安,,,78,86,44,56,98,,68,68,8,18,,6,0.7,0.8
2026-01-13T1400,3139A,111.6891,28.9881,常德市,鼎城区玉霞,细颗粒物(PM2.5),55,50,86,39,63,94,,55,55,12,26,7,8,0.4,0.6
2026-01-13T1400,3140A,111.6651,29.0526,常德市,武陵区长庚,细颗粒物(PM2.5),64,60,83,46,57,94,,69,69,10,18,5,5,0.6,0.7
2026-01-13T1400,1196A,119.9524,31.7586,常州市,市监测站,颗粒物(PM10),78,106,87,50,42,111,,41,41,20,50,8,7,0.7,0.9
2026-01-13T1400,1200A,119.9351,31.703,常州市,武进监测站,颗粒物(PM10),69,88,79,48,43,103,,46,46,24,46,14,12,0.3,0.4
2026-01-13T1400,3002A,119.9701,31.813,常州市,行政中心,颗粒物(PM10),71,91,77,51,39,105,,46,46,25,42,9,10,0.7,0.7
2026-01-13T1400,3003A,120.0434,31.7726,常州市,经开区,颗粒物(PM10),80,109,99,43,40,112,,44,44,19,45,14,14,0.5,0.6
2026-01-13T1400,3010A,119.8919,31.7892,常州市,钟楼,颗粒物(PM10),78,106,82,47,37,105,,50,50,24,43,10,10,0.4,0.6
2026-01-13T1400,3429A,119.8595,31.706,常州市,武进经发区,细颗粒物(PM2.5),105,93,80,79,56,104,,55,55,24,38,7,6,0.6,0.7
2026-01-13T1400,3430A,119.5812,31.7256,常州市,金坛城区,,,,72,69,41,102,,44,44,,28,10,9,,0.8
2026-01-13T1400,4089A,119.9551,31.863,常州市,崇义南街5-H号,细颗粒物(PM2.5),80,95,82,59,49,108,,42,42,30,48,10,9,0.8,0.9
2026-01-13T1400,2220A,120.4318,41.588,朝阳市,西梁,,23,16,38,3,18,73,,47,47,7,21,3,8,0.4,0.6
2026-01-13T1400,2221A,120.452,41.565,朝阳市,河畔小区,,24,14,29,6,12,75,,61,58,8,12,6,8,0.3,0.4
2026-01-13T1400,2222A,120.4176,41.5648,朝阳市,八里堡,,24,9,36,3,15,76,,58,58,6,18,6,8,0.3,0.5
2026-01-13T1400,3026A,116.6179,23.6608,潮州市,市政府,,46,46,82,21,39,121,,76,76,8,29,8,10,0.4,0.5
2026-01-13T1400,4036A,116.646,23.676,潮州市,金山,,45,45,71,18,38,109,,67,67,4,21,4,4,0.3,0.5
2026-01-13T1400,2473A,113.0116,25.8228,郴州市,市职中,细颗粒物(PM2.5),58,48,66,41,51,100,,37,37,8,29,10,9,0.6,0.8
2026-01-13T1400,2475A,113.0381,25.8074,郴州市,市审计局,,50,45,67,35,49,107,,41,41,10,34,6,8,/,/
2026-01-13T1400,2476A,113.0348,25.7757,郴州市,市环保局,颗粒物(PM10),61,72,82,40,56,100,,35,35,12,41,9,8,0.5,0.9
2026-01-13T1400,4252A,113.0138,25.8011,郴州市,好美居路49号,细颗粒物(PM2.5),59,60,68,42,55,108,,38,38,10,35,8,9,/,/
2026-01-13T1400,1431A,103.9727,30.7242,成都市,金泉两河,细颗粒物(PM2.5),189,212,170,142,147,97,,35,35,39,61,6,3,1.2,1.5
2026-01-13T1400,1432A,104.1423,30.6765,成都市,十里店,细颗粒物(PM2.5),129,132,175,98,137,100,,29,29,40,75,5,5,0.9,1.3
2026-01-13T1400,1433A,104.0594,30.5765,成都市,三瓦窑,细颗粒物(PM2.5),190,158,172,143,150,96,,29,29,52,83,5,5,1.2,1.5
2026-01-13T1400,1434A,104.1122,30.6306,成都市,沙河铺,细颗粒物(PM2.5),205,,174,155,160,66,,14,14,68,79,3,3,1.1,1.6
2026-01-13T1400,2880A,104.0219,30.6561,成都市,大石西路,细颗粒物(PM2.5),172,169,184,130,137,99,,26,26,,74,8,6,1.3,1.8
2026-01-13T1400,3136A,104.2724,30.559,成都市,龙泉驿区区政府,细颗粒物(PM2.5),125,105,115,95,99,98,,83,65,29,24,7,6,0.8,0.8
2026-01-13T1400,3357A,104.0028,30.6891,成都市,金博路,细颗粒物(PM2.5),190,170,172,143,143,98,,28,28,43,69,8,6,1.2,1.6
2026-01-13T1400,3359A,104.056,30.5228,成都市,华阳,细颗粒物(PM2.5),140,139,167,107,131,100,,27,27,45,73,4,4,0.9,1.5
2026-01-13T1400,3488A,104.387954,30.746684,成都市,青石路225号,细颗粒物(PM2.5),147,145,150,112,123,97,,30,30,36,65,4,4,1.0,0.9
2026-01-13T1400,3489A,104.0788,30.4054,成都市,科学城,细颗粒物(PM2.5),178,139,141,134,123,103,,28,28,29,42,7,6,0.6,0.7
2026-01-13T1400,4011A,103.8505,30.6946,成都市,光华大道三段,细颗粒物(PM2.5),206,179,182,156,151,109,,35,35,37,55,7,4,0.7,1
2026-01-13T1400,4144A,104.3257,30.6406,成都市,八角井街185号,细颗粒物(PM2.5),183,143,145,138,113,83,,47,33,41,34,5,3,1.0,0.9
2026-01-13T1400,4224A,104.2433276,30.53529463,成都市,鲸龙路1057号,细颗粒物(PM2.5),172,143,132,130,122,68,,23,23,37,55,,6,0.9,0.9
2026-01-13T1400,1062A,117.9531,40.908,承德市,铁路,,21,16,37,3,10,65,,64,48,8,11,6,6,0.3,0.3
2026-01-13T1400,1063A,117.9397,40.9763,承德市,中国银行,,21,8,40,3,11,67,,42,42,4,14,5,4,0.4,0.4
2026-01-13T1400,4073A,117.9462,40.95,承德市,杏林街1号,,23,11,31,3,12,73,,61,48,3,10,7,5,0.4,0.4
2026-01-13T1400,4274A,117.7994,40.9605,承德市,滨河大街98号,,21,,24,3,14,67,,63,53,6,7,8,6,0.5,0.3
2026-01-13T1400,2314A,117.4698,30.6617,池州市,池州学院,细颗粒物(PM2.5),63,73,76,45,45,93,,48,48,22,36,8,29,0.7,1.1
2026-01-13T1400,3237A,117.4918,30.6617,池州市,展览馆,颗粒物(PM10),60,69,68,30,35,95,,42,42,26,32,5,14,0.8,1
2026-01-13T1400,3333A,117.5626,30.695,池州市,第八中学,颗粒物(PM10),59,68,75,39,39,100,,50,50,22,34,6,18,0.6,0.9
2026-01-13T1400,3334A,117.5037,30.6242,池州市,第十二中学,颗粒物(PM10),61,71,67,39,32,98,,39,39,21,38,6,6,0.5,1
2026-01-13T1400,1744A,118.9229,42.2816,赤峰市,松山一中,,37,37,29,3,7,62,,54,42,11,16,4,5,0.5,0.6
2026-01-13T1400,1745A,118.9588,42.2733,赤峰市,哈达街,,22,22,27,8,7,70,,62,52,11,14,4,5,0.6,0.6
2026-01-13T1400,1746A,118.8792,42.2551,赤峰市,天义路,,24,10,20,7,11,74,,60,51,5,12,5,6,0.4,0.5
2026-01-13T1400,3058A,119.2656,42.0356,赤峰市,银河街,,26,25,31,18,11,72,,69,61,6,8,14,13,0.7,0.7
2026-01-13T1400,3286A,118.9359,42.3146,赤峰市,桥北物流园区,,25,,20,17,8,74,,66,58,9,11,6,5,0.4,0.3
2026-01-13T1400,2521A,107.3473,22.4137,崇左市,市环保局江州分局,细颗粒物(PM2.5),70,83,88,51,60,125,,55,55,11,27,10,8,0.7,0.8
2026-01-13T1400,4256A,107.375,22.3736,崇左市,石景林东路7号,细颗粒物(PM2.5),77,72,71,56,61,130,,59,59,14,32,9,8,0.6,0.7
2026-01-13T1400,3207A,118.31131,32.3033,滁州市,市政府原办公楼,,,,88,,52,,,86,29,,36,,7,,0.6
2026-01-13T1400,3331A,118.3268,32.2633,滁州市,图书馆,颗粒物(PM10),63,76,83,38,47,107,,59,59,18,29,11,12,0.5,0.6
2026-01-13T1400,4101A,118.3196,32.3335,滁州市,银山路666号,细颗粒物(PM2.5),87,75,91,64,71,106,,38,38,22,31,27,16,0.4,0.5
2026-01-13T1400,4102A,118.3426,32.2979,滁州市,黄山路555号,细颗粒物(PM2.5),82,88,101,60,69,121,,57,57,24,37,15,13,0.7,0.8
2026-01-13T1400,2606A,101.5379,25.0492,楚雄彝族自治州,市经济开发区,,32,26,36,22,26,68,,26,26,4,24,4,4,0.6,0.7
2026-01-13T1400,4153A,101.5536,25.0343,楚雄彝族自治州,团结路562号,,23,21,39,16,23,64,,24,24,5,22,5,5,0.7,0.7
2026-01-13T1400,2549A,107.5087,31.2186,达州市,市环境监测站,细颗粒物(PM2.5),134,116,139,102,116,79,,25,25,33,45,9,7,0.7,0.9
2026-01-13T1400,2550A,107.4988,31.2132,达州市,凤凰小区,细颗粒物(PM2.5),134,124,152,102,118,75,,24,24,25,42,7,5,0.7,1
2026-01-13T1400,2551A,107.5081,31.1987,达州市,达县机关宾馆,细颗粒物(PM2.5),124,119,155,94,114,86,,27,27,31,49,5,4,0.8,1.1
2026-01-13T1400,2552A,107.4644,31.2124,达州市,市政中心,细颗粒物(PM2.5),138,142,160,105,115,80,,25,25,31,50,9,7,0.7,1
2026-01-13T1400,2614A,100.2168,25.5818,大理白族自治州,大理市环境监测站,,29,24,22,20,20,69,,46,46,9,20,6,6,0.6,0.6
2026-01-13T1400,2615A,100.1542,25.7055,大理白族自治州,大理古城,,26,21,27,6,16,82,,50,50,6,15,7,8,0.5,0.6
2026-01-13T1400,1109A,121.6119,38.974,大连市,甘井子,,33,33,60,12,28,72,,61,61,10,24,8,11,0.3,0.4
2026-01-13T1400,1110A,121.565,38.9509,大连市,周水子,,37,37,58,19,31,65,,54,54,10,26,3,3,0.3,0.6
2026-01-13T1400,1111A,121.5637,38.8849,大连市,星海三站,,34,34,52,20,29,65,,57,57,14,24,9,9,0.4,0.6
2026-01-13T1400,1112A,121.6301,38.9117,大连市,青泥洼桥,,25,25,56,11,29,63,,56,56,9,23,9,10,0.3,0.6
2026-01-13T1400,1113A,121.6248,38.8643,大连市,傅家庄,,29,29,54,11,26,58,,53,53,13,24,10,12,0.2,0.5
2026-01-13T1400,1114A,121.5117,38.8636,大连市,七贤岭,,33,33,56,11,25,61,,53,53,8,20,9,10,0.6,0.8
2026-01-13T1400,1116A,121.7507,39.1339,大连市,金州,,22,18,56,9,32,70,,54,54,9,27,7,12,0.2,0.5
2026-01-13T1400,1117A,121.7811,39.0495,大连市,开发区,,25,25,50,10,26,63,,54,54,8,19,5,5,0.4,0.6
2026-01-13T1400,1118A,121.9762,39.0631,大连市,双D港,,25,13,52,6,23,78,,68,68,7,20,7,10,0.2,0.5
2026-01-13T1400,4082A,121.2548,38.8188,大连市,旅顺,,22,18,50,10,28,68,,61,61,6,14,6,7,0.4,0.5
2026-01-13T1400,1789A,124.8085,46.0381,大庆市,大同区,,23,23,49,11,34,55,,50,50,3,17,6,7,0.4,0.6
2026-01-13T1400,1790A,125.1166,46.5255,大庆市,龙凤区,,26,21,50,18,31,47,,42,42,15,31,9,8,0.5,0.7
2026-01-13T1400,1791A,124.8894,46.4007,大庆市,红岗区,,29,24,42,20,30,49,,44,44,7,18,6,6,0.3,0.5
2026-01-13T1400,1792A,125.1391,46.578,大庆市,萨尔图区,,26,26,58,10,41,46,,40,40,8,24,8,9,0.3,0.6
2026-01-13T1400,1793A,124.9026,46.6217,大庆市,让胡路区,,29,21,48,20,44,60,,55,55,4,17,7,7,0.4,0.6
2026-01-13T1400,3481A,125.127,46.6277,大庆市,萨区政府监测点,,,18,63,14,40,50,,42,42,6,24,10,9,,0.7
2026-01-13T1400,1723A,113.2926,40.0759,大同市,云冈宾馆,颗粒物(PM10),98,146,115,46,28,32,,17,17,43,33,20,10,1.2,0.9
2026-01-13T1400,1724A,113.3437,40.0921,大同市,大同大学,,,122,87,36,30,41,,25,22,,30,15,9,1.1,0.9
2026-01-13T1400,1725A,113.2637,40.129,大同市,安家小村,颗粒物(PM10),103,156,112,62,40,39,,16,16,36,34,25,14,1.1,2.3
2026-01-13T1400,3282A,113.3399,40.0586,大同市,大同市卫生学校,颗粒物(PM10),88,126,95,58,44,30,,18,18,47,35,20,9,0.8,0.7
2026-01-13T1400,3565A,113.1371,40.1122,大同市,云冈站,颗粒物(PM10),76,101,100,29,30,63,,16,16,13,33,6,13,0.5,0.7
2026-01-13T1400,3566A,113.1186,40.2556,大同市,图书馆,颗粒物(PM10),117,183,91,71,41,53,,24,24,21,18,20,14,0.6,0.8
2026-01-13T1400,3567A,113.5931,40.0459,大同市,区一中,颗粒物(PM10),112,173,106,42,38,52,,35,35,31,26,22,10,0.6,0.8
2026-01-13T1400,4199A,113.2798248,40.09972476,大同市,魏都大道141号,,,150,114,44,33,33,,11,,32,39,19,10,,1.6
2026-01-13T1400,2269A,124.1068,50.4091,大兴安岭地区,科技局,,18,16,30,12,20,50,,45,45,1,8,5,6,0.3,0.4
2026-01-13T1400,3663A,124.117,50.4279,大兴安岭地区,红旗社区,,17,6,25,3,22,54,,52,52,4,16,5,7,0.4,0.5
2026-01-13T1400,1600A,124.33,40.0625,丹东市,江湾东路,,20,20,35,12,22,64,,58,58,6,17,6,8,0.3,0.6
2026-01-13T1400,1601A,124.4242,40.1513,丹东市,临江后街,,21,20,31,7,18,65,,60,60,5,14,4,6,0.3,0.5
2026-01-13T1400,1602A,124.3935,40.1461,丹东市,元宝山,,,14,27,8,19,63,,59,59,6,14,8,9,,0.5
2026-01-13T1400,1603A,124.3634,40.1093,丹东市,民主桥,,20,19,33,3,14,63,,58,58,6,15,8,9,0.4,0.6
2026-01-13T1400,3541A,109.5726195,19.51688767,儋州市,第一中学子站,,48,48,51,24,23,96,,70,70,4,6,4,6,0.6,0.6
2026-01-13T1400,3542A,109.5567,19.5187,儋州市,东坡学校子站,,41,41,46,27,23,111,,79,79,5,6,6,6,0.5,0.5
2026-01-13T1400,2616A,98.5611,24.4273,德宏傣族景颇族自治州,德宏州监测站,,50,44,52,35,38,79,,28,28,16,25,9,6,0.6,0.6
2026-01-13T1400,3677A,98.5887,24.4366,德宏傣族景颇族自治州,芒市人民政府综合楼,,,55,49,41,30,76,,29,29,,16,6,4,0.6,0.7
2026-01-13T1400,1901A,104.424,31.1209,德阳市,东山公园,细颗粒物(PM2.5),162,134,138,123,132,105,,82,60,20,30,6,5,1.0,1
2026-01-13T1400,1902A,104.3827,31.1318,德阳市,西小区,细颗粒物(PM2.5),158,151,170,120,134,93,,28,28,28,68,4,4,1.0,1.4
2026-01-13T1400,1904A,104.3553,31.1091,德阳市,耐火材料厂,细颗粒物(PM2.5),160,,193,122,143,87,,29,29,52,67,3,3,1.0,1.2
2026-01-13T1400,4145A,104.4144,31.1495,德阳市,市林业局,细颗粒物(PM2.5),192,,151,144,144,79,,30,30,22,56,4,4,1.2,1.3
2026-01-13T1400,1622A,116.3034,37.4675,德州市,儿童乐园,颗粒物(PM10),62,73,112,27,45,68,,40,40,26,47,15,18,0.8,1
2026-01-13T1400,1624A,116.2992,37.4449,德州市,监理站,颗粒物(PM10),59,68,105,22,42,76,,51,51,29,52,15,18,0.8,1
2026-01-13T1400,3066A,116.2722,37.438,德州市,九衢泉纯净水厂,颗粒物(PM10),62,73,109,29,48,68,,43,43,29,54,18,21,0.8,0.9
2026-01-13T1400,3371A,116.3693,37.44,德州市,开发区人民医院,颗粒物(PM10),59,68,106,27,44,73,,42,42,30,56,17,20,0.7,0.9
2026-01-13T1400,3511A,116.5687,37.3331,德州市,陵城艺术中心,颗粒物(PM10),65,80,130,24,61,67,,32,32,29,55,18,27,0.7,1.1
2026-01-13T1400,4292A,116.352738,37.420875,德州市,新河东路,颗粒物(PM10),64,78,105,27,46,68,,39,39,32,61,18,20,1.1,1.1
2026-01-13T1400,2621A,99.7054,27.8319,迪庆藏族自治州,迪庆州站,,25,17,33,17,20,80,,56,56,8,14,4,5,0.4,0.6
2026-01-13T1400,3180A,99.7122,27.8129,迪庆藏族自治州,质量技术监督局,,,,32,,17,87,,53,53,10,17,4,4,0.4,0.6
2026-01-13T1400,4257A,104.6092,35.5962,定西市,将台街,细颗粒物(PM2.5),52,50,72,36,43,76,,28,28,15,33,14,22,0.5,1
2026-01-13T1400,4309A,104.6159,35.5701,定西市,正龙路62号,颗粒物(PM10),57,64,73,33,43,79,,31,31,11,16,11,19,0.7,1
2026-01-13T1400,1390A,113.7943,23.0132,东莞市,东城石井,臭氧1小时(O3_1h),75,98,109,41,56,180,,84,84,35,75,13,10,0.5,0.7
2026-01-13T1400,1391A,113.7384,22.9659,东莞市,南城西平,臭氧1小时(O3_1h),80,67,106,42,62,184,,77,77,30,82,12,13,0.6,0.8
2026-01-13T1400,3319A,113.7283,23.041,东莞市,万江金泰,颗粒物(PM10),60,69,115,42,64,166,,84,84,28,91,10,9,0.8,1.2
2026-01-13T1400,4129A,113.8666,23.1062,东莞市,裕兴路,"颗粒物(PM10),臭氧1小时(O3_1h)",70,90,115,38,52,176,,77,77,35,82,12,12,0.8,1
2026-01-13T1400,4130A,114.0076,22.9739,东莞市,教育路1号,颗粒物(PM10),61,72,142,39,72,157,,74,74,31,91,8,7,0.6,0.9
2026-01-13T1400,4131A,113.7981,22.8124,东莞市,长怡路1号,颗粒物(PM10),55,60,114,30,60,152,,72,72,25,82,10,10,0.6,0.9
2026-01-13T1400,1666A,118.6612,37.4313,东营市,市环保局,,25,24,95,3,45,78,,42,42,16,54,12,15,0.5,1
2026-01-13T1400,3036A,118.6903,37.4337,东营市,开发区管委会,,,,100,,45,,,50,40,,55,,16,,0.7
2026-01-13T1400,3365A,118.5721,37.5654,东营市,垦利区民丰路,,31,31,97,3,45,75,,40,40,14,49,4,7,0.3,0.8
2026-01-13T1400,3498A,118.5063,37.8606,东营市,河口城区,,41,41,89,12,38,76,,54,54,16,46,6,8,0.6,0.9
2026-01-13T1400,3646A,118.4979,37.4623,东营市,胜利站,,42,42,89,9,46,73,,38,38,19,54,15,17,0.4,1
2026-01-13T1400,3734A,118.5753,37.4405,东营市,理想之城,,34,34,92,9,49,73,,37,37,15,55,9,11,0.6,1.1
2026-01-13T1400,1591A,110.0024,39.8127,鄂尔多斯市,综合楼,颗粒物(PM10),95,139,79,12,23,79,,65,53,5,14,6,6,0.4,0.4
2026-01-13T1400,1592A,109.9485,39.8259,鄂尔多斯市,巴音孟克林场办事处,颗粒物(PM10),80,110,100,17,24,84,,67,67,5,11,7,6,0.2,0.3
2026-01-13T1400,1593A,109.7734,39.5987,鄂尔多斯市,康泽苑,颗粒物(PM10),86,122,94,17,26,87,,46,46,5,14,6,5,0.3,0.4
2026-01-13T1400,1594A,109.8121,39.5987,鄂尔多斯市,华泰汽车城,颗粒物(PM10),82,114,96,9,23,88,,37,37,5,18,4,3,0.3,0.4
2026-01-13T1400,1595A,109.9734,39.7884,鄂尔多斯市,奥林花园,颗粒物(PM10),97,144,104,14,23,74,,47,44,14,21,17,10,0.3,0.3
2026-01-13T1400,2436A,114.894,30.3989,鄂州市,市政府,颗粒物(PM10),62,74,104,35,69,79,,34,34,20,48,7,13,0.9,1
2026-01-13T1400,2437A,114.8986,30.3714,鄂州市,赵家坝,颗粒物(PM10),73,96,102,42,65,99,,44,44,9,28,10,13,0.9,0.9
2026-01-13T1400,3654A,114.8093,30.4091,鄂州市,精准医疗中心,,,,105,,72,,,97,,,51,,14,,0.9
2026-01-13T1400,2454A,109.4978,30.2979,恩施土家族苗族自治州,湖北民院,细颗粒物(PM2.5),84,,66,62,69,93,,38,38,12,20,6,6,0.9,1
2026-01-13T1400,3549A,109.5061,30.3771,恩施土家族苗族自治州,龙凤新区,细颗粒物(PM2.5),84,70,69,62,56,86,,35,35,15,14,7,7,0.4,0.4
2026-01-13T1400,2499A,108.3411,21.6159,防城港市,沙万,细颗粒物(PM2.5),73,67,72,53,36,117,,77,77,12,28,9,11,0.6,0.8
2026-01-13T1400,2500A,108.3515,21.7733,防城港市,防城档案局,细颗粒物(PM2.5),79,77,83,58,48,115,,84,84,11,26,8,7,0.5,0.7
2026-01-13T1400,2501A,108.3506,21.6414,防城港市,大海花园,颗粒物(PM10),59,68,64,37,29,126,,87,87,12,23,8,13,0.9,0.8
2026-01-13T1400,1371A,113.1293,23.0065,佛山市,湾梁,颗粒物(PM10),53,56,104,26,56,117,,47,47,34,85,/,/,/,/
2026-01-13T1400,1372A,113.1082,23.0477,佛山市,华材职中,颗粒物(PM10),57,63,130,37,64,109,,47,47,37,100,10,10,0.5,0.9
2026-01-13T1400,1373A,113.1439,23.045,佛山市,南海气象局,细颗粒物(PM2.5),72,65,103,52,69,118,,44,44,33,94,/,/,/,/
2026-01-13T1400,1374A,113.2879,22.8094,佛山市,顺德苏岗,细颗粒物(PM2.5),67,58,103,48,73,91,,34,34,60,96,/,/,0.8,1.1
2026-01-13T1400,1376A,112.8384,22.8678,佛山市,高明孔堂,细颗粒物(PM2.5),68,68,62,49,44,128,,74,74,30,29,/,/,/,/
2026-01-13T1400,1377A,112.8835,23.1584,佛山市,三水监测站,颗粒物(PM10),53,56,106,34,58,119,,57,57,21,84,8,12,0.7,0.9
2026-01-13T1400,1378A,112.8668,23.185,佛山市,三水云东海,细颗粒物(PM2.5),53,49,88,37,55,130,,60,60,17,66,/,/,/,/
2026-01-13T1400,3625A,113.2568,22.7629,佛山市,容桂街道办,细颗粒物(PM2.5),67,73,137,48,87,97,,38,38,65,108,/,/,/,/
2026-01-13T1400,1282A,119.2681,26.0506,福州市,师大,,36,36,58,24,24,114,,66,66,18,38,5,4,0.5,0.5
2026-01-13T1400,1283A,119.2983,26.1028,福州市,五四北路,,39,27,56,27,27,117,,63,63,14,39,6,5,0.6,0.7
2026-01-13T1400,1284A,119.2648,26.0769,福州市,杨桥西路,,36,28,55,25,24,115,,66,66,10,31,6,5,/,/
2026-01-13T1400,3048A,119.5799,26.0937,福州市,九龙,,45,43,43,31,19,117,,65,65,17,28,8,5,0.9,0.6
2026-01-13T1400,3526A,119.5188,25.9666,福州市,吴航,,49,49,55,27,22,102,,51,51,26,37,8,6,0.6,0.6
2026-01-13T1400,4104A,119.3106,26.0648,福州市,路通桥巷6号,颗粒物(PM10),51,52,64,27,29,111,,64,64,10,31,/,/,/,/
2026-01-13T1400,1755A,123.7974,41.8494,抚顺市,望花区,,24,24,38,9,21,64,,54,54,7,21,2,6,0.5,0.6
2026-01-13T1400,1756A,123.9161,41.8827,抚顺市,顺城区,,20,18,37,7,21,63,,54,54,6,24,7,8,0.5,0.7
2026-01-13T1400,1757A,124.0437,41.8615,抚顺市,东洲区,,28,28,35,10,19,65,,55,55,6,19,8,12,0.6,0.7
2026-01-13T1400,1758A,123.9246,41.8638,抚顺市,新抚区,,21,20,35,9,20,67,,58,58,8,21,7,8,0.5,0.7
2026-01-13T1400,1759A,124.0972,41.8961,抚顺市,大伙房水库,,20,,29,13,13,62,,52,52,4,18,11,11,0.6,0.7
2026-01-13T1400,1760A,123.708,41.8386,抚顺市,沈抚新城,,22,17,34,3,18,68,,58,58,3,19,7,8,0.8,0.8
2026-01-13T1400,2377A,116.3544,27.9833,抚州市,市站,颗粒物(PM10),53,56,99,31,61,115,,46,46,10,35,10,11,0.5,0.7
2026-01-13T1400,2378A,116.3562,27.9631,抚州市,血防站,颗粒物(PM10),53,56,101,34,60,118,,42,42,13,48,9,9,1.3,1.6
2026-01-13T1400,2379A,116.3561,28.0007,抚州市,采茶剧团,颗粒物(PM10),55,60,113,29,64,112,,40,40,4,37,8,8,1.0,1.2
2026-01-13T1400,2380A,116.3854,27.9648,抚州市,医学分院,,,72,107,32,57,106,,6,,7,32,7,7,,1.1
2026-01-13T1400,2207A,121.6095,41.9978,阜新市,工业园区,,29,29,36,7,13,69,,57,57,3,11,7,8,0.3,0.4
2026-01-13T1400,2208A,121.6567,42.0188,阜新市,长青街,,23,17,17,3,9,71,,63,63,3,6,6,6,0.3,0.3
2026-01-13T1400,2209A,121.6672,42.07,阜新市,农业园区,,26,26,20,3,7,64,,60,60,5,7,6,6,0.2,0.3
2026-01-13T1400,2211A,121.6343,42.0455,阜新市,玉龙新城,,22,21,27,3,8,69,,58,58,3,14,4,6,0.3,0.3
2026-01-13T1400,2301A,115.8276,32.8929,阜阳市,市监测站,细颗粒物(PM2.5),90,105,104,67,62,109,,72,67,20,27,8,6,0.6,0.5
2026-01-13T1400,2303A,115.8551,32.8606,阜阳市,开发区,细颗粒物(PM2.5),85,81,106,63,59,111,,65,65,18,30,8,7,0.5,0.5
2026-01-13T1400,2875A,115.783962,32.889217,阜阳市,阜阳职业技术学院,,,86,103,53,57,114,,78,78,,24,11,9,0.7,0.6
2026-01-13T1400,3468A,115.79,32.8614,阜阳市,市规划展馆,细颗粒物(PM2.5),104,109,110,78,70,119,,81,81,17,22,9,8,0.8,0.7
2026-01-13T1400,3469A,115.835101,32.918568,阜阳市,枣园社区,细颗粒物(PM2.5),108,103,105,81,68,111,,77,77,20,25,8,6,0.7,0.6
2026-01-13T1400,2669A,102.9097,34.9841,甘南藏族自治州,州政府,,26,25,57,18,32,71,,26,26,12,37,8,13,0.4,1
2026-01-13T1400,3380A,102.8915,34.9618,甘南藏族自治州,甘肃民族师范学院,,24,24,61,13,15,74,,34,34,9,32,11,17,0.6,0.6
2026-01-13T1400,2570A,101.96,30.048,甘孜藏族自治州,水桥子,,21,21,21,7,8,48,,40,40,24,28,8,6,0.6,0.6
2026-01-13T1400,3065A,101.9534,29.9976,甘孜藏族自治州,州环保局,,28,8,19,3,4,88,,68,67,7,13,6,5,0.4,0.4
2026-01-13T1400,2363A,114.9368,25.8663,赣州市,地委,,50,49,59,35,35,128,,56,56,19,49,11,8,0.7,0.8
2026-01-13T1400,2364A,114.946,25.8483,赣州市,气象台,颗粒物(PM10),52,53,80,32,34,132,,52,52,23,69,6,4,0.4,0.8
2026-01-13T1400,2365A,114.932,25.8332,赣州市,市图书馆,颗粒物(PM10),54,57,74,35,38,108,,40,40,24,61,7,5,0.7,0.9
2026-01-13T1400,2366A,114.8905,25.8472,赣州市,华坚鞋城,颗粒物(PM10),51,52,82,27,43,104,,51,51,16,59,10,12,0.4,0.6
2026-01-13T1400,3109A,115.0094,25.8614,赣州市,赣县区卫计委,细颗粒物(PM2.5),60,62,64,43,48,122,,42,42,24,40,7,7,0.7,0.7
2026-01-13T1400,2684A,106.2753,36.0057,固原市,监测站,,27,25,50,15,28,85,,42,42,7,31,4,7,0.4,1.1
2026-01-13T1400,2685A,106.2384,36.0189,固原市,新区,,28,28,49,13,23,89,,42,42,6,28,2,3,0.2,0.8
2026-01-13T1400,2544A,106.6307,30.4577,广安市,市委,细颗粒物(PM2.5),170,,156,129,147,87,,5,,12,36,10,9,1.0,1.3
2026-01-13T1400,2545A,106.6266,30.4662,广安市,友谊中学,细颗粒物(PM2.5),153,127,145,117,129,86,,31,31,13,29,7,7,1.1,1.2
2026-01-13T1400,2547A,106.6386,30.4551,广安市,广电花园,细颗粒物(PM2.5),155,131,146,118,134,78,,30,30,16,31,9,9,0.8,1
2026-01-13T1400,2902A,106.6347,30.4868,广安市,北辰小学,细颗粒物(PM2.5),160,134,138,122,127,77,,26,26,15,21,2,2,1.2,1.2
2026-01-13T1400,2524A,105.8211,32.4444,广元市,老城,细颗粒物(PM2.5),137,110,97,104,73,48,,13,13,39,55,45,20,1.6,1.2
2026-01-13T1400,2526A,105.8629,32.429,广元市,监测站,细颗粒物(PM2.5),115,109,87,87,65,36,,16,16,45,45,21,7,1.8,1.3
2026-01-13T1400,3617A,105.8047,32.4167,广元市,经开区,细颗粒物(PM2.5),147,139,102,112,73,47,,13,13,39,54,50,20,2.0,1.4
2026-01-13T1400,1345A,113.2346,23.1423,广州市,广雅中学,颗粒物(PM10),57,64,144,37,80,114,,45,45,19,104,8,7,1.1,1.4
2026-01-13T1400,1346A,113.2611,23.105,广州市,市五中,颗粒物(PM10),54,58,116,35,75,136,,57,57,24,109,14,14,/,/
2026-01-13T1400,1348A,113.3477,23.0916,广州市,广东商学院,颗粒物(PM10),52,54,118,33,81,118,,44,44,24,102,12,9,0.5,1
2026-01-13T1400,1349A,113.4332,23.105,广州市,市八十六中,,,31,82,22,58,,,46,46,17,98,10,11,/,/
2026-01-13T1400,1350A,113.3506,22.9488,广州市,番禺中学,颗粒物(PM10),55,60,135,36,79,121,,46,46,31,97,6,6,0.6,1.1
2026-01-13T1400,1351A,113.2147,23.3918,广州市,花都师范,颗粒物(PM10),51,52,101,32,55,128,,58,58,16,87,9,8,0.5,0.9
2026-01-13T1400,1352A,113.2599,23.1329,广州市,市监测站,颗粒物(PM10),60,69,125,37,69,122,,51,51,28,106,8,9,/,/
2026-01-13T1400,1353A,113.5618,23.3119,广州市,九龙镇镇龙,颗粒物(PM10),52,54,101,31,52,117,,44,44,17,73,8,7,0.5,0.6
2026-01-13T1400,1354A,113.2764,23.1544,广州市,麓湖,颗粒物(PM10),52,53,87,33,56,120,,52,52,20,92,14,12,0.5,0.6
2026-01-13T1400,2846A,113.3209,23.1323,广州市,体育西,,49,49,107,28,65,118,,54,54,19,94,11,11,0.5,1
2026-01-13T1400,3298A,113.5718,23.5493,广州市,从化街口,颗粒物(PM10),55,59,84,38,52,127,,48,48,20,65,17,14,0.6,0.8
2026-01-13T1400,3299A,113.3463,23.369,广州市,白云竹料,,44,44,109,25,58,137,,57,57,19,73,9,10,0.5,0.9
2026-01-13T1400,3300A,113.2981,23.2365,广州市,白云嘉禾,颗粒物(PM10),57,64,115,31,57,130,,54,54,29,93,13,11,/,/
2026-01-13T1400,3301A,113.4256,23.1716,广州市,黄埔科学城,,42,42,72,27,42,133,,73,73,17,59,8,9,0.5,0.8
2026-01-13T1400,3302A,113.3942,23.0485,广州市,番禺大学城,颗粒物(PM10),53,56,115,26,64,133,,56,56,20,100,13,13,0.5,0.8
2026-01-13T1400,3303A,113.4923,22.8169,广州市,南沙黄阁,颗粒物(PM10),68,85,118,47,66,160,,62,62,49,99,18,10,/,/
2026-01-13T1400,3304A,113.534,22.7893,广州市,南沙街,臭氧1小时(O3_1h),70,71,102,43,56,176,,64,64,40,74,9,8,0.6,0.6
2026-01-13T1400,3443A,113.2905,23.5541,广州市,花都梯面,颗粒物(PM10),52,53,55,32,29,125,,68,68,11,56,16,8,/,/
2026-01-13T1400,3445A,113.786,23.7479,广州市,从化良口,细颗粒物(PM2.5),54,43,36,38,27,120,,61,61,6,22,10,10,/,/
2026-01-13T1400,3446A,113.805,23.2614,广州市,增城荔城,,39,34,59,23,36,122,,70,70,8,39,8,8,0.4,0.6
2026-01-13T1400,2506A,109.604387,23.066791,贵港市,江南子站,,,70,117,57,85,140,,61,61,16,37,,12,0.8,0.7
2026-01-13T1400,2508A,109.5669,23.1065,贵港市,荷城子站,细颗粒物(PM2.5),67,58,97,48,65,111,,60,60,13,37,10,11,1.0,1
2026-01-13T1400,3405A,109.5886,23.1172,贵港市,新世纪学校,细颗粒物(PM2.5),72,63,87,52,54,124,,89,89,13,19,/,/,0.5,0.5
2026-01-13T1400,4260A,109.5933,23.095,贵港市,中山路155-3号,细颗粒物(PM2.5),79,74,87,58,73,134,,74,74,14,28,/,/,0.6,0.6
2026-01-13T1400,1439A,106.6863,26.6035,贵阳市,马鞍山,细颗粒物(PM2.5),89,83,72,66,60,90,,29,29,28,24,20,8,/,/
2026-01-13T1400,1441A,106.6241,26.6266,贵阳市,鉴湖路,细颗粒物(PM2.5),89,97,84,66,58,96,,38,38,28,36,18,11,0.9,0.9
2026-01-13T1400,1442A,106.7468,26.6344,贵阳市,燕子冲,细颗粒物(PM2.5),92,70,74,68,67,98,,29,29,25,26,17,10,0.8,1
2026-01-13T1400,1443A,106.6556,26.4362,贵阳市,碧云窝,细颗粒物(PM2.5),70,83,86,51,62,123,,43,43,15,24,16,10,/,/
2026-01-13T1400,1445A,106.6963,26.6063,贵阳市,红边门,,,78,84,73,67,79,,24,24,,41,16,27,/,/
2026-01-13T1400,1446A,106.7162383,26.56964667,贵阳市,新华路,细颗粒物(PM2.5),79,73,93,58,65,81,,28,28,28,42,16,17,0.6,1
2026-01-13T1400,1447A,106.6742,26.542,贵阳市,太慈桥,细颗粒物(PM2.5),79,75,65,58,48,76,,34,34,22,27,13,5,/,/
2026-01-13T1400,4230A,106.688212,26.56952,贵阳市,花果园大街66号,细颗粒物(PM2.5),99,,78,74,81,70,,22,22,27,38,12,12,/,/
2026-01-13T1400,4231A,106.687268,26.516892,贵阳市,漓江路57号,细颗粒物(PM2.5),79,68,85,58,64,93,,30,30,20,35,14,18,0.9,1.3
2026-01-13T1400,1864A,110.3091,25.2705,桂林市,龙隐路小学,细颗粒物(PM2.5),73,68,84,53,69,106,,43,43,17,38,11,14,0.7,0.8
2026-01-13T1400,1865A,110.2849361,25.22909545,桂林市,八中,细颗粒物(PM2.5),67,77,93,48,77,106,,45,45,18,39,12,13,0.5,0.7
2026-01-13T1400,3531A,110.296,25.1254,桂林市,旅游学院,细颗粒物(PM2.5),58,58,93,41,71,117,,45,45,14,32,12,8,0.3,0.6
2026-01-13T1400,4222A,110.1835,25.2444,桂林市,环湖路276号,细颗粒物(PM2.5),83,73,103,61,77,91,,28,28,21,44,12,29,0.6,0.8
2026-01-13T1400,4301A,110.2803,25.2773,桂林市,信义路13号,,,,92,,65,104,,38,38,17,50,9,15,,1
2026-01-13T1400,2674A,100.2262,34.4854,果洛藏族自治州,玛沁县大武镇,,29,28,37,3,14,91,,53,53,1,7,11,15,0.1,0.4
2026-01-13T1400,1130A,126.5557,45.8109,哈尔滨市,松北商大,,29,29,72,16,61,42,,33,33,14,38,13,10,0.4,0.8
2026-01-13T1400,1132A,126.6162,45.719,哈尔滨市,南岗学府路,,35,35,59,20,41,49,,41,41,8,23,7,16,0.7,0.8
2026-01-13T1400,1133A,126.6894,45.7733,哈尔滨市,太平宏伟公园,,38,38,72,18,53,50,,40,40,8,31,12,18,0.5,0.8
2026-01-13T1400,1134A,126.6361,45.7672,哈尔滨市,道外承德广场,颗粒物(PM10),52,53,96,19,55,48,,39,39,16,36,8,10,0.5,0.7
2026-01-13T1400,1136A,126.644,45.7261,哈尔滨市,动力和平路,,39,39,76,14,47,48,,39,39,10,26,11,12,0.7,0.9
2026-01-13T1400,1137A,126.5933,45.7479,哈尔滨市,道里建国路,,32,24,63,22,59,45,,38,38,7,29,7,13,0.4,0.7
2026-01-13T1400,1138A,126.6127,45.6119,哈尔滨市,平房东轻厂,,32,26,77,22,59,46,,35,35,13,38,4,9,0.6,1
2026-01-13T1400,1139A,126.5875,45.9827,哈尔滨市,呼兰师专,,24,24,81,14,82,44,,35,35,4,30,6,7,0.5,0.9
2026-01-13T1400,1140A,126.6299,45.6799,哈尔滨市,省农科院,,37,37,76,22,58,47,,37,37,15,35,11,13,0.3,0.7
2026-01-13T1400,4282A,126.6769,45.7379,哈尔滨市,华山路1号,,28,24,61,19,48,46,,36,36,16,33,18,22,0.6,0.8
2026-01-13T1400,4283A,126.9717,45.5356,哈尔滨市,解放大街52号,,32,30,62,22,55,49,,39,39,11,27,8,13,0.6,0.9
2026-01-13T1400,2688A,93.5124,42.8176,哈密市,地区监测站,细颗粒物(PM2.5),124,156,163,94,97,36,,17,17,19,30,2,3,0.6,1.1
2026-01-13T1400,2689A,93.5014,42.8312,哈密市,哈密师范学校,颗粒物(PM10),105,159,161,62,65,30,,16,16,32,42,6,6,1.0,1.3
2026-01-13T1400,2671A,100.9016,36.9464,海北藏族自治州,海晏县西海镇,,23,13,16,8,10,73,,57,57,2,4,6,8,0.4,0.3
2026-01-13T1400,3867A,102.074,36.5056,海东市,平安区公安局北苑,,26,26,32,13,15,54,,25,23,23,22,26,11,1.4,0.9
2026-01-13T1400,4163A,102.0984,36.5119,海东市,滨河路,,,,36,62,20,71,,21,21,26,38,25,8,,0.8
2026-01-13T1400,1410A,110.3189,20.0596,海口市,海南大学,,41,41,59,21,26,118,,91,91,20,19,8,6,0.3,0.3
2026-01-13T1400,1411A,110.2827,20.0051,海口市,秀英海南医院,颗粒物(PM10),54,57,60,19,26,114,,71,71,10,19,10,8,0.4,0.4
2026-01-13T1400,1412A,110.3391,19.9979,海口市,海南师范大学,,49,49,57,23,26,130,,88,88,11,16,7,6,0.4,0.4
2026-01-13T1400,1413A,110.3303,20.0359,海口市,龙华路环保局宿舍,,,46,57,20,26,112,,80,77,,17,/,/,0.8,0.8
2026-01-13T1400,3539A,110.5111,19.9737,海口市,桂林洋子站,,39,38,59,21,29,122,,81,81,8,17,/,/,/,/
2026-01-13T1400,4134A,110.1952,20.0451,海口市,长滨二路9号,,,,62,,31,,,126,,,20,,,,
2026-01-13T1400,2673A,100.6158,36.2985,海南藏族自治州,共和县恰卜恰镇,细颗粒物(PM2.5),54,,35,38,20,77,,39,39,10,25,15,13,0.6,0.6
2026-01-13T1400,2676A,97.373,37.376,海西蒙古族藏族自治州,德令哈市,,44,37,26,24,11,47,,71,64,38,11,18,15,4.4,0.9
2026-01-13T1400,1049A,114.492,36.5712,邯郸市,矿院,细颗粒物(PM2.5),156,126,114,119,85,44,,21,21,66,60,16,12,1.1,1.3
2026-01-13T1400,1050A,114.4839,36.6136,邯郸市,丛台公园,细颗粒物(PM2.5),138,144,116,105,74,45,,22,22,63,59,18,17,1.1,1.4
2026-01-13T1400,3458A,114.7893,36.5592,邯郸市,香泉濮院小区,细颗粒物(PM2.5),149,173,137,114,83,57,,30,30,55,52,17,14,1.3,1.1
2026-01-13T1400,3580A,114.1998,36.4439,邯郸市,峰峰矿区临水派出所,细颗粒物(PM2.5),110,91,80,83,45,64,,55,46,33,24,29,24,1.5,0.9
2026-01-13T1400,4068A,114.5209,36.7697,邯郸市,建安街268号,细颗粒物(PM2.5),125,127,133,95,84,45,,18,18,54,57,19,13,0.9,1.3
2026-01-13T1400,4069A,114.5488,36.6177,邯郸市,丛台东路558号,细颗粒物(PM2.5),145,145,121,111,83,51,,19,19,59,68,21,15,1.1,1.3
2026-01-13T1400,2635A,107.0155,33.0707,汉中市,市监测站,细颗粒物(PM2.5),84,98,122,62,108,73,,26,26,27,46,13,8,0.9,1.6
2026-01-13T1400,2636A,107.0083,33.114,汉中市,鑫源开发区,细颗粒物(PM2.5),84,83,104,62,89,77,,10,,28,43,18,11,1.0,1.2
2026-01-13T1400,2637A,107.0072,33.0323,汉中市,南郑大河坎水厂,细颗粒物(PM2.5),102,106,128,76,99,71,,26,26,31,35,11,7,1.1,1.4
2026-01-13T1400,1223A,120.2073,30.2111,杭州市,滨江,颗粒物(PM10),55,60,64,36,35,102,,52,52,16,38,8,7,0.4,0.5
2026-01-13T1400,1224A,120.0625,30.2737,杭州市,西溪,颗粒物(PM10),54,57,50,37,26,112,,39,39,10,34,10,9,0.7,0.7
2026-01-13T1400,1226A,120.3417,30.315,杭州市,下沙,颗粒物(PM10),55,59,64,34,31,104,,56,56,21,40,10,9,0.6,0.7
2026-01-13T1400,1227A,120.1252,30.2465,杭州市,卧龙桥,颗粒物(PM10),54,57,46,36,24,101,,48,48,20,32,11,10,0.3,0.4
2026-01-13T1400,1228A,120.1902,30.2691,杭州市,浙江农大,,,73,77,35,39,106,,42,42,21,58,7,7,,0.6
2026-01-13T1400,1230A,120.1195,30.3121,杭州市,和睦小学,颗粒物(PM10),58,66,61,35,33,83,,34,34,25,46,8,7,0.7,0.7
2026-01-13T1400,1231A,120.3076,30.4146,杭州市,临平镇,颗粒物(PM10),61,72,68,32,29,96,,38,38,17,49,8,8,0.5,0.5
2026-01-13T1400,1232A,120.2753,30.1839,杭州市,城厢镇,颗粒物(PM10),60,70,79,40,38,95,,50,50,26,51,9,9,0.4,0.5
2026-01-13T1400,1233A,120.0883,30.1808,杭州市,云栖,颗粒物(PM10),59,67,53,33,25,98,,44,44,25,25,6,4,0.5,0.5
2026-01-13T1400,3557A,119.9463,30.0496,杭州市,镇二中,细颗粒物(PM2.5),55,52,65,39,42,87,,37,37,29,47,6,6,0.6,0.9
2026-01-13T1400,3558A,119.7184,30.2367,杭州市,市府大楼,,50,50,73,28,40,101,,57,57,13,28,11,11,0.6,0.8
2026-01-13T1400,3656A,120.1554,30.2863,杭州市,消防大队,颗粒物(PM10),54,58,55,36,31,85,,35,35,20,46,8,7,0.4,0.5
2026-01-13T1400,1270A,117.1957,31.7845,合肥市,明珠广场,细颗粒物(PM2.5),79,102,92,58,49,63,,28,28,47,61,9,8,0.8,0.7
2026-01-13T1400,1271A,117.307,31.8765,合肥市,三里街,细颗粒物(PM2.5),77,95,97,56,51,60,,23,23,46,62,8,7,0.8,0.9
2026-01-13T1400,1272A,117.2587,31.8703,合肥市,琥珀山庄,细颗粒物(PM2.5),90,100,94,67,57,71,,31,31,38,64,10,9,0.9,1.2
2026-01-13T1400,1275A,117.2593,31.9376,合肥市,庐阳区,颗粒物(PM10),78,105,95,53,47,68,,30,30,48,52,6,5,0.8,0.8
2026-01-13T1400,1276A,117.345251,31.861615,合肥市,瑶海区,,,97,92,56,46,82,,37,37,34,67,10,6,,0.7
2026-01-13T1400,1277A,117.3033,31.7967,合肥市,包河区,细颗粒物(PM2.5),79,95,92,58,53,87,,38,38,27,66,11,10,0.9,1
2026-01-13T1400,1278A,117.278,31.7392,合肥市,滨湖新区,细颗粒物(PM2.5),92,95,83,68,53,92,,50,50,26,52,9,7,0.8,0.8
2026-01-13T1400,1279A,117.1324,31.8395,合肥市,高新区,颗粒物(PM10),67,83,80,44,44,76,,39,39,44,48,6,6,0.7,0.6
2026-01-13T1400,3464A,117.3802,31.9148,合肥市,高教基地,细颗粒物(PM2.5),82,90,94,60,57,89,,42,42,30,52,12,9,0.7,0.7
2026-01-13T1400,4098A,117.2518,31.8404,合肥市,中国科学技术大学,细颗粒物(PM2.5),82,95,84,60,49,76,,33,33,36,54,11,9,0.8,0.7
2026-01-13T1400,3614A,79.9241,37.0878,和田地区,地区环保局,颗粒物(PM10),69,88,114,14,39,89,,64,64,8,31,3,9,0.1,0.5
2026-01-13T1400,3615A,79.9132,37.1137,和田地区,市环保局,颗粒物(PM10),66,82,103,25,37,82,,42,42,17,43,5,6,0.2,1.1
2026-01-13T1400,2517A,108.0496,24.6957,河池市,市环保站,细颗粒物(PM2.5),73,80,83,53,67,99,,37,37,13,30,4,5,0.8,0.9
2026-01-13T1400,4302A,108.0901,24.6945,河池市,上任中路54号,颗粒物(PM10),66,81,99,47,80,88,,30,30,14,37,4,6,0.8,1
2026-01-13T1400,1697A,114.6962,23.7538,河源市,东埔,,36,35,52,23,32,113,,58,58,13,45,8,7,0.7,0.8
2026-01-13T1400,1698A,114.6895,23.7232,河源市,老城,,38,38,48,23,27,118,,54,54,10,33,8,7,0.4,0.6
2026-01-13T1400,3374A,115.5562,35.089,菏泽市,定陶老年大学,细颗粒物(PM2.5),125,188,137,95,65,72,,33,33,52,46,13,7,0.7,0.6
2026-01-13T1400,4114A,115.4239,35.2593,菏泽市,黄河路600号,细颗粒物(PM2.5),112,162,139,84,71,16,,6,6,62,63,11,9,0.8,0.9
2026-01-13T1400,4115A,115.5025,35.2727,菏泽市,菏泽市人社局,细颗粒物(PM2.5),143,169,139,109,76,65,,25,25,51,53,18,9,,0.8
2026-01-13T1400,4184A,115.479691,35.244011,菏泽市,永昌路1号,细颗粒物(PM2.5),125,178,143,95,73,64,,25,25,48,55,12,10,0.7,0.7
2026-01-13T1400,4193A,115.471542,35.280012,菏泽市,长城路999号,细颗粒物(PM2.5),147,184,145,112,65,78,,32,32,66,52,13,9,0.9,0.9
2026-01-13T1400,2514A,111.5264,24.4178,贺州市,环保小区,细颗粒物(PM2.5),73,68,74,53,52,117,,52,52,17,34,9,8,0.4,0.5
2026-01-13T1400,2515A,111.561,24.4074,贺州市,政协大楼,细颗粒物(PM2.5),65,62,68,47,48,114,,46,46,23,45,12,11,0.7,0.8
2026-01-13T1400,3534A,111.4744,24.455,贺州市,西湾,细颗粒物(PM2.5),64,75,75,46,44,110,,48,48,13,38,11,9,0.5,0.7
2026-01-13T1400,2385A,114.17,35.9019,鹤壁市,市监测站,颗粒物(PM10),74,97,78,45,29,62,,39,38,34,30,12,7,1.0,0.6
2026-01-13T1400,2386A,114.2953,35.7512,鹤壁市,市交警支队,颗粒物(PM10),73,96,87,34,23,57,,30,26,16,28,6,5,0.6,0.6
2026-01-13T1400,2387A,114.2877,35.7302,鹤壁市,迎宾馆,颗粒物(PM10),78,106,89,32,28,63,,35,27,34,31,7,5,0.6,0.7
2026-01-13T1400,3474A,114.2616,35.6824,鹤壁市,大新区,颗粒物(PM10),86,121,88,47,26,59,,29,29,26,30,9,6,0.6,0.5
2026-01-13T1400,3596A,114.1573,35.9607,鹤壁市,南山宾馆,颗粒物(PM10),77,104,91,38,26,69,,67,56,18,9,14,8,0.9,0.6
2026-01-13T1400,2244A,130.2537,47.3416,鹤岗市,哈啤分公司,,32,23,37,22,38,65,,58,58,4,17,7,7,0.4,0.5
2026-01-13T1400,2245A,130.2683,47.3087,鹤岗市,斯达机电,,,,43,,33,59,,50,50,5,21,7,8,0.4,0.6
2026-01-13T1400,2246A,130.3114,47.3388,鹤岗市,东山纸板厂,,30,27,45,21,41,62,,52,52,5,31,9,14,0.4,0.9
2026-01-13T1400,2263A,127.4832,50.2524,黑河市,交通局,,22,,28,15,23,52,,48,48,4,16,5,7,0.4,0.5
2026-01-13T1400,2264A,127.5146,50.2339,黑河市,环保局,,25,,26,17,25,52,,46,46,7,18,4,7,0.2,0.4
2026-01-13T1400,1074A,115.6839,37.754,衡水市,电机北厂,颗粒物(PM10),62,73,105,22,48,56,,33,33,20,39,10,12,0.5,0.7
2026-01-13T1400,1075A,115.6303,37.7318,衡水市,市监测站,颗粒物(PM10),55,60,92,10,42,56,,38,38,26,39,10,11,0.6,0.8
2026-01-13T1400,3188A,115.6684,37.7216,衡水市,市城管局,颗粒物(PM10),59,67,106,17,46,54,,34,34,27,43,10,12,0.7,0.8
2026-01-13T1400,3459A,115.599,37.5491,衡水市,地表水厂,颗粒物(PM10),54,58,98,31,49,63,,35,35,21,48,11,13,0.5,0.8
2026-01-13T1400,2457A,112.6209,26.9268,衡阳市,衡阳化工总厂,细颗粒物(PM2.5),94,94,145,70,116,92,,26,26,21,48,13,11,0.9,1.5
2026-01-13T1400,2458A,112.621,26.8957,衡阳市,珠晖区环保局,细颗粒物(PM2.5),115,114,150,87,122,85,,28,28,28,55,15,10,1.2,1.9
2026-01-13T1400,2459A,112.628,26.8654,衡阳市,市委党校,细颗粒物(PM2.5),117,121,136,88,116,82,,29,29,34,48,17,14,1.0,1.4
2026-01-13T1400,2460A,112.6007,26.8977,衡阳市,市监测站,细颗粒物(PM2.5),100,112,183,75,114,90,,28,28,18,48,13,12,0.9,1.9
2026-01-13T1400,2461A,112.5658,26.9013,衡阳市,真空机电公司,"颗粒物(PM10),细颗粒物(PM2.5)",79,108,162,58,118,100,,32,32,16,49,11,10,0.9,1.7
2026-01-13T1400,3399A,112.6703,26.8817,衡阳市,师范学院,细颗粒物(PM2.5),83,100,144,61,91,91,,32,32,32,46,10,5,1.0,1.4
2026-01-13T1400,3038A,103.3757,23.3679,红河哈尼族彝族自治州,州图书馆,,,71,65,46,47,114,,85,85,8,12,11,7,,0.6
2026-01-13T1400,4154A,103.401,23.3561,红河哈尼族彝族自治州,蒙自市朝阳路,细颗粒物(PM2.5),78,,50,57,50,118,,85,73,9,10,10,6,0.6,0.6
2026-01-13T1400,1090A,111.6506,40.7517,呼和浩特市,呼市一监,颗粒物(PM10),76,102,100,36,36,56,,28,28,21,36,12,10,0.5,0.6
2026-01-13T1400,1094A,111.7516,40.8369,呼和浩特市,如意水处理厂,颗粒物(PM10),74,98,53,22,19,47,,17,17,25,46,15,11,0.5,0.4
2026-01-13T1400,1095A,111.727798,40.806187,呼和浩特市,二十九中,颗粒物(PM10),85,120,86,39,29,46,,23,23,22,33,14,12,0.5,0.5
2026-01-13T1400,1097A,111.717,40.7617,呼和浩特市,化肥厂生活区,颗粒物(PM10),68,86,94,28,33,54,,24,24,20,38,8,8,0.5,0.8
2026-01-13T1400,3699A,111.6519,40.8389,呼和浩特市,海东办,颗粒物(PM10),87,124,80,39,28,44,,20,20,26,34,14,6,0.6,0.5
2026-01-13T1400,4275A,111.591512,40.827312,呼和浩特市,成吉思汗西街8号,颗粒物(PM10),86,122,83,47,26,39,,19,19,29,40,12,7,0.7,0.7
2026-01-13T1400,4276A,111.6597,40.8077,呼和浩特市,公园东路75号,颗粒物(PM10),84,117,93,38,28,49,,31,31,31,36,10,8,0.5,0.5
2026-01-13T1400,4277A,111.5427,40.7846,呼和浩特市,金海路35号,颗粒物(PM10),80,109,98,42,34,48,,16,16,27,47,14,10,0.4,0.5
2026-01-13T1400,3061A,119.7511,49.1576,呼伦贝尔市,国华电力东,,18,18,28,9,21,54,,47,46,16,18,8,7,0.4,0.4
2026-01-13T1400,4279A,119.7569,49.2222,呼伦贝尔市,伊敏大街东7号,,25,25,27,15,19,50,,48,45,9,10,8,8,0.7,0.6
2026-01-13T1400,1250A,120.075,30.867,湖州市,城西水厂,细颗粒物(PM2.5),88,116,74,65,43,95,,44,44,24,67,9,11,0.5,0.4
2026-01-13T1400,2873A,120.083,30.8929,湖州市,仁皇山新区,细颗粒物(PM2.5),72,88,77,52,42,101,,58,58,36,72,12,14,0.5,0.5
2026-01-13T1400,2907A,120.1846,30.8592,湖州市,吴兴区站,细颗粒物(PM2.5),68,73,67,49,36,112,,58,58,19,49,8,9,0.6,0.6
2026-01-13T1400,3562A,120.4146,30.8538,湖州市,南浔区站,细颗粒物(PM2.5),72,82,67,52,36,104,,53,53,21,46,9,9,0.6,0.6
2026-01-13T1400,1607A,120.904878,40.721091,葫芦岛市,龙港区,,,,48,11,24,70,,57,57,14,30,,29,,0.8
2026-01-13T1400,1608A,120.8382,40.7521,葫芦岛市,化工街,,22,12,38,9,16,69,,54,54,7,24,14,18,0.3,0.5
2026-01-13T1400,1609A,120.8339,40.7078,葫芦岛市,新区,,28,28,39,12,21,66,,49,49,12,27,16,21,0.4,0.9
2026-01-13T1400,1610A,120.8697,40.7679,葫芦岛市,东城区,,32,32,34,10,20,71,,57,57,9,24,11,22,0.3,0.6
2026-01-13T1400,2483A,109.9297,27.5383,怀化市,河西地税局,细颗粒物(PM2.5),92,68,81,68,73,68,,21,21,15,24,3,3,/,/
2026-01-13T1400,2484A,109.9783,27.5342,怀化市,市四医院,细颗粒物(PM2.5),97,81,108,72,83,73,,20,20,12,28,13,11,0.7,0.8
2026-01-13T1400,2485A,109.9971,27.5579,怀化市,监测楼,细颗粒物(PM2.5),100,79,102,75,86,86,,41,41,9,25,6,4,0.0,0.2
2026-01-13T1400,1210A,119.0566,33.5991,淮安市,钵池山,细颗粒物(PM2.5),93,110,111,69,58,74,,31,31,30,39,12,10,1.4,1.1
2026-01-13T1400,1211A,119.0083,33.578,淮安市,北京南路,细颗粒物(PM2.5),95,119,125,71,62,62,,24,24,33,56,12,11,0.7,0.9
2026-01-13T1400,1212A,118.9938,33.6083,淮安市,市监测站,细颗粒物(PM2.5),89,107,112,66,66,64,,28,28,36,46,15,12,0.5,0.7
2026-01-13T1400,1213A,119.135,33.5038,淮安市,楚州区监测站,细颗粒物(PM2.5),84,115,120,62,71,65,,30,30,35,48,14,13,0.9,0.8
2026-01-13T1400,3426A,118.8757,33.2897,淮安市,新华书店,细颗粒物(PM2.5),118,122,110,89,65,83,,37,37,31,34,13,11,1.3,1.2
2026-01-13T1400,4092A,119.119691,33.550006,淮安市,枚皋中路89号,,,131,114,73,71,76,,32,32,,45,14,11,0.8,0.4
2026-01-13T1400,4206A,119.028838,33.631911,淮安市,承德北路606号,细颗粒物(PM2.5),100,129,140,75,68,74,,28,28,33,51,12,11,0.9,0.9
2026-01-13T1400,2282A,116.8005,33.9749,淮北市,监测站,颗粒物(PM10),105,159,124,65,53,78,,34,34,36,50,12,12,0.6,0.8
2026-01-13T1400,2283A,116.8094,33.9008,淮北市,烈山区政府,颗粒物(PM10),92,134,132,67,67,80,,40,40,26,49,17,15,0.5,0.6
2026-01-13T1400,4017A,116.7926,33.9534,淮北市,市博物馆,颗粒物(PM10),107,164,138,71,72,78,,30,30,33,63,8,8,0.9,1
2026-01-13T1400,4100A,116.8322,33.9884,淮北市,杜集区第一实验学校,细颗粒物(PM2.5),120,166,138,91,74,79,,34,34,,45,13,11,0.8,0.8
2026-01-13T1400,2277A,116.8304,32.7726,淮南市,潘集区政府,细颗粒物(PM2.5),73,80,119,53,70,103,,51,51,19,36,9,8,0.6,0.7
2026-01-13T1400,2279A,116.8569,32.5949,淮南市,谢家集区政府,"颗粒物(PM10),细颗粒物(PM2.5)",62,74,93,44,45,89,,56,56,29,30,9,9,0.6,0.6
2026-01-13T1400,2280A,116.8279,32.6333,淮南市,八公山区政府,细颗粒物(PM2.5),68,70,86,49,47,93,,68,68,23,19,5,6,0.6,0.5
2026-01-13T1400,2894A,117.0561,32.6536,淮南市,经济技术开发区消防队,细颗粒物(PM2.5),74,91,120,54,59,84,,40,40,32,46,8,7,0.5,0.6
2026-01-13T1400,3329A,117.011,32.5891,淮南市,山南新区,"颗粒物(PM10),细颗粒物(PM2.5)",55,60,113,39,48,99,,55,55,23,32,4,5,0.5,0.6
2026-01-13T1400,4209A,117.003137,32.644456,淮南市,国庆中路369号,细颗粒物(PM2.5),69,,94,50,71,94,,48,48,20,33,10,11,0.7,0.7
2026-01-13T1400,2446A,114.9021,30.474,黄冈市,职工中心,细颗粒物(PM2.5),82,90,85,60,57,93,,55,55,29,37,14,10,1.0,0.9
2026-01-13T1400,2929A,114.8858,30.4519,黄冈市,红卫路,颗粒物(PM10),61,71,80,41,62,96,,52,52,26,40,14,11,0.7,0.8
2026-01-13T1400,3398A,114.9134,30.4446,黄冈市,市林业局,细颗粒物(PM2.5),74,70,99,54,62,92,,47,47,33,47,14,7,0.8,0.7
2026-01-13T1400,2672A,102.02,35.5101,黄南藏族自治州,同仁县隆务镇,,,,25,35,10,62,,52,52,4,3,,9,0.6,0.4
2026-01-13T1400,2295A,118.2905,29.6965,黄山市,延安路89号,细颗粒物(PM2.5),68,72,60,49,43,95,,36,36,17,22,6,4,0.6,0.6
2026-01-13T1400,2297A,118.1369,30.2755,黄山市,黄山区政府5号楼,,44,44,43,24,30,104,,64,64,7,9,3,3,0.5,0.4
2026-01-13T1400,4210A,118.335445,29.720283,黄山市,滨江东路7-2号,细颗粒物(PM2.5),70,82,71,51,44,91,,39,39,20,25,/,/,/,/
2026-01-13T1400,2423A,115.0547,30.2332,黄石市,沈家营,颗粒物(PM10),95,140,115,56,68,70,,26,26,56,60,19,12,2.2,1.7
2026-01-13T1400,2426A,114.899,30.211,黄石市,铁山,颗粒物(PM10),56,61,85,35,60,106,,52,52,18,46,9,11,0.5,0.6
2026-01-13T1400,2427A,115.0259,30.2108,黄石市,团城山,颗粒物(PM10),84,118,105,58,66,86,,28,28,47,49,12,10,1.2,1
2026-01-13T1400,3149A,115.0174,30.1591,黄石市,笔架山北路,,,,138,,64,,,84,,,44,,12,,1.5
2026-01-13T1400,4185A,115.078022,30.21118,黄石市,磁湖东路29号,细颗粒物(PM2.5),112,138,119,84,79,61,,22,22,60,58,23,14,2.2,1.4
2026-01-13T1400,1392A,114.4181,23.0528,惠州市,河南岸金山湖子站,,44,44,84,27,47,110,,58,58,20,38,6,7,0.6,0.8
2026-01-13T1400,1393A,114.4055,23.0824,惠州市,下埔横江三路子站,,42,42,92,24,50,120,,59,59,10,50,8,11,0.5,0.8
2026-01-13T1400,1395A,114.4645,22.7832,惠州市,惠阳区承修路船湖子站,,49,49,85,26,44,140,,91,91,18,43,9,8,0.3,0.5
2026-01-13T1400,1396A,114.5316,22.7423,惠州市,大亚湾管委会子站,,46,46,80,25,41,139,,81,81,14,52,8,7,0.5,0.6
2026-01-13T1400,3314A,114.4334,22.8134,惠州市,惠阳秋长,,49,48,106,23,51,156,,89,89,15,58,/,/,/,/
2026-01-13T1400,3452A,114.6521,22.7755,惠州市,大亚湾霞涌,颗粒物(PM10),55,60,65,25,29,149,,116,116,16,32,/,/,/,/
2026-01-13T1400,4300A,114.4089,23.1147,惠州市,文华一路1号,,41,41,84,24,46,130,,64,64,12,53,/,/,/,/
2026-01-13T1400,2240A,130.9618,45.2926,鸡西市,环保局,,48,48,63,32,51,56,,44,44,6,26,6,10,0.5,0.8
2026-01-13T1400,2243A,130.9294,45.2959,鸡西市,第一中学,,38,38,55,24,45,60,,44,44,6,27,4,6,0.5,0.6
2026-01-13T1400,3707A,131.0069,45.2988,鸡西市,欧美日汽修厂,颗粒物(PM10),52,53,75,26,64,56,,37,37,6,32,8,21,0.3,0.7
2026-01-13T1400,2367A,114.9753,27.0803,吉安市,红声器材厂,颗粒物(PM10),59,67,88,39,48,126,,49,49,24,50,13,11,0.7,0.9
2026-01-13T1400,2369A,114.9903,27.1313,吉安市,市环境监测站,颗粒物(PM10),54,57,80,34,46,111,,47,47,22,50,15,11,/,/
2026-01-13T1400,2370A,115.009527,27.096792,吉安市,青原区法院,细颗粒物(PM2.5),60,59,83,43,45,112,,42,42,17,52,14,13,0.6,0.7
2026-01-13T1400,1772A,126.54,43.8622,吉林市,哈达湾,,34,34,49,16,23,56,,52,52,8,15,7,12,0.9,0.9
2026-01-13T1400,1773A,126.5843,43.8358,吉林市,东局子,,33,33,38,12,23,50,,46,46,10,17,6,5,0.7,0.8
2026-01-13T1400,1774A,126.5051,43.8243,吉林市,电力学院,,31,31,47,15,28,56,,51,51,7,15,10,11,0.6,0.7
2026-01-13T1400,1775A,126.6133,43.8971,吉林市,江北,,25,25,44,14,25,55,,49,49,10,17,8,8,0.9,0.9
2026-01-13T1400,1776A,126.5549,43.8304,吉林市,江南公园,,28,28,63,18,31,53,,50,50,9,14,7,8,0.5,0.6
2026-01-13T1400,2868A,126.4737,43.953,吉林市,九站,,,,48,23,30,54,,47,47,,20,5,6,,0.7
2026-01-13T1400,1299A,116.9866,36.6118,济南市,科干所,颗粒物(PM10),90,129,102,51,44,41,,22,22,59,53,16,20,1.2,1.1
2026-01-13T1400,1300A,116.9379,36.6652,济南市,农科所,颗粒物(PM10),96,142,125,61,49,40,,17,17,64,69,21,18,1.0,1.1
2026-01-13T1400,1301A,117.1265,36.6736,济南市,开发区,颗粒物(PM10),86,122,98,49,42,49,,28,28,54,57,18,9,1.1,1
2026-01-13T1400,1303A,117.0616,36.6865,济南市,省种子仓库,颗粒物(PM10),97,144,138,56,53,50,,23,23,45,61,21,13,1.0,1.1
2026-01-13T1400,1304A,116.9495185,36.644937,济南市,机床二厂,颗粒物(PM10),100,149,132,73,76,43,,19,19,61,66,21,33,0.8,1
2026-01-13T1400,1305A,117.0496,36.6629,济南市,市监测站,细颗粒物(PM2.5),199,,110,149,49,47,,21,21,46,53,15,10,1.0,1
2026-01-13T1400,1306A,116.7674,36.5458,济南市,长清党校,颗粒物(PM10),68,85,93,42,45,75,,32,32,21,48,12,11,0.9,0.9
2026-01-13T1400,1961A,117.5323,36.6865,济南市,东山小学,颗粒物(PM10),97,144,114,61,44,53,,32,32,48,54,22,14,1.3,1.1
2026-01-13T1400,3059A,117.7181,36.205,济南市,泰兴公司,颗粒物(PM10),75,100,140,53,85,77,,39,39,26,54,12,14,0.9,1.4
2026-01-13T1400,3064A,117.6861,36.2172,济南市,莱芜战役纪念馆,颗粒物(PM10),74,97,142,46,86,74,,37,37,27,55,11,13,0.6,1
2026-01-13T1400,3494A,117.1673,36.9782,济南市,济阳区政府,颗粒物(PM10),75,100,119,34,51,63,,37,37,36,56,21,20,0.9,0.9
2026-01-13T1400,3495A,117.1168,36.6299,济南市,锦屏中学,颗粒物(PM10),89,127,84,49,34,50,,32,32,49,34,13,5,1.0,0.8
2026-01-13T1400,4108A,117.7107,36.2385,济南市,山财大街5号,颗粒物(PM10),74,97,117,40,63,78,,41,41,34,59,17,17,0.7,0.9
2026-01-13T1400,4109A,116.9744,36.6889,济南市,无影山路12号,颗粒物(PM10),90,129,125,62,60,49,,25,25,48,60,20,21,0.9,1
2026-01-13T1400,1653A,116.6229,35.4288,济宁市,火炬城,细颗粒物(PM2.5),122,134,125,92,87,75,,29,29,35,53,10,7,0.8,0.8
2026-01-13T1400,3500A,116.5808,35.3703,济宁市,北湖一中,细颗粒物(PM2.5),130,132,118,99,84,77,,32,32,38,54,20,14,0.9,0.9
2026-01-13T1400,3501A,116.8251,35.5592,济宁市,服务中心,颗粒物(PM10),84,118,139,58,77,76,,26,26,33,65,15,15,0.9,1.1
2026-01-13T1400,3678A,116.5907,35.4054,济宁市,市第七中学,细颗粒物(PM2.5),113,136,133,85,79,81,,37,37,38,62,17,12,1.1,1.1
2026-01-13T1400,4111A,116.6075,35.4566,济宁市,任和路,细颗粒物(PM2.5),110,141,149,83,84,75,,25,25,36,61,14,9,0.9,1
2026-01-13T1400,4112A,116.5648,35.3921,济宁市,文体南路1号,细颗粒物(PM2.5),117,131,141,88,82,78,,32,32,36,60,14,11,0.9,1
2026-01-13T1400,2255A,130.2749,46.8028,佳木斯市,佳纺,细颗粒物(PM2.5),73,61,88,53,69,53,,41,41,11,39,6,12,0.6,0.9
2026-01-13T1400,2257A,130.3258,46.7975,佳木斯市,环保局,细颗粒物(PM2.5),67,54,86,48,74,54,,41,41,17,50,8,13,0.6,0.8
2026-01-13T1400,4285A,130.363,46.806,佳木斯市,顺和街,细颗粒物(PM2.5),70,53,83,51,70,44,,33,33,21,45,12,13,0.7,0.9
2026-01-13T1400,4286A,130.3952,46.8268,佳木斯市,长安路196号,细颗粒物(PM2.5),64,56,80,46,69,51,,39,39,16,41,6,8,0.7,0.8
2026-01-13T1400,1252A,120.7439,30.778,嘉兴市,清河小学,颗粒物(PM10),66,82,75,42,36,99,,46,46,22,52,9,9,0.3,0.4
2026-01-13T1400,1253A,120.7261,30.7477,嘉兴市,嘉兴学院,颗粒物(PM10),67,84,74,46,36,98,,46,46,22,55,10,9,0.5,0.6
2026-01-13T1400,2872A,120.7845,30.7524,嘉兴市,南湖区残联,细颗粒物(PM2.5),70,82,73,51,39,105,,58,58,27,51,8,7,0.5,0.5
2026-01-13T1400,3407A,120.6915,30.7741,嘉兴市,秀洲住建,"颗粒物(PM10),细颗粒物(PM2.5)",67,83,74,48,38,110,,55,55,21,56,9,8,0.5,0.5
2026-01-13T1400,1945A,98.291,39.7705,嘉峪关市,气象局,颗粒物(PM10),133,215,44,14,12,81,,64,64,7,16,9,19,0.3,0.4
2026-01-13T1400,2884A,98.2672,39.7978,嘉峪关市,酒钢宾馆,颗粒物(PM10),173,295,62,14,14,58,,38,38,42,56,18,25,0.4,0.6
2026-01-13T1400,3248A,98.2644,39.7723,嘉峪关市,雄关区,颗粒物(PM10),131,211,36,10,17,79,,62,62,9,21,14,19,0.3,0.5
2026-01-13T1400,1383A,113.1063,22.6058,江门市,北街,细颗粒物(PM2.5),110,118,112,83,70,138,,69,69,87,75,/,/,/,/
2026-01-13T1400,1384A,113.073,22.5835,江门市,西区,细颗粒物(PM2.5),95,112,125,71,67,142,,67,67,71,84,/,/,/,/
2026-01-13T1400,1385A,113.0218,22.531,江门市,圭峰西,细颗粒物(PM2.5),67,70,92,48,63,137,,77,77,35,52,/,/,/,/
2026-01-13T1400,1386A,113.0826,22.5947,江门市,东湖,颗粒物(PM10),88,125,109,59,64,144,,68,68,78,88,16,12,0.8,0.9
2026-01-13T1400,3311A,113.1077,22.5647,江门市,江海富民,颗粒物(PM10),85,119,132,59,62,150,,75,75,84,76,/,/,0.9,0.9
2026-01-13T1400,3449A,113.0496,22.4669,江门市,新会银湖,细颗粒物(PM2.5),92,86,97,68,79,152,,66,66,42,51,14,9,0.6,0.6
2026-01-13T1400,3335A,113.3137,35.2643,焦作市,马村街道办,颗粒物(PM10),80,109,106,52,38,69,,55,45,27,20,16,10,0.8,0.6
2026-01-13T1400,3336A,113.2464,35.2374,焦作市,焦作技师学院,颗粒物(PM10),80,109,106,41,31,68,,44,42,32,27,16,10,0.9,0.6
2026-01-13T1400,3477A,113.1656,35.2536,焦作市,中站许衡医院,颗粒物(PM10),77,104,99,38,33,66,,64,51,32,22,20,9,0.8,0.6
2026-01-13T1400,3981A,113.2456,35.18,焦作市,原李万街道办,颗粒物(PM10),78,106,126,41,34,77,,41,41,19,24,12,10,0.7,0.7
2026-01-13T1400,4264A,113.234,35.219,焦作市,新安路1731号,颗粒物(PM10),91,132,124,51,36,68,,46,46,28,22,14,9,0.6,0.6
2026-01-13T1400,4295A,113.2722,35.2121,焦作市,人民路3066号,颗粒物(PM10),89,128,116,44,31,69,,40,40,28,26,12,8,0.7,0.7
2026-01-13T1400,1708A,116.3701,23.5345,揭阳市,新兴,颗粒物(PM10),57,63,100,28,58,126,,56,56,23,53,10,12,0.5,0.8
2026-01-13T1400,1709A,116.3261,23.5442,揭阳市,西马,,,51,105,22,55,122,,53,53,8,44,6,8,,0.7
2026-01-13T1400,1710A,116.361,23.5627,揭阳市,东兴,颗粒物(PM10),56,61,97,32,44,124,,56,56,13,44,9,11,/,/
2026-01-13T1400,1711A,116.4151,23.5295,揭阳市,渔湖,颗粒物(PM10),70,90,98,50,46,135,,56,56,33,49,9,8,/,/
2026-01-13T1400,3320A,116.4028,23.5699,揭阳市,曲溪,细颗粒物(PM2.5),70,76,95,51,48,128,,60,60,29,44,6,7,0.6,0.8
2026-01-13T1400,1944A,102.1691,38.5166,金昌市,天庆家园,,26,12,90,3,21,81,,57,57,6,20,9,31,0.5,0.8
2026-01-13T1400,4022A,102.1648,38.5369,金昌市,金川区人防中心,,26,10,79,3,24,82,,59,59,5,16,5,23,0.5,0.7
2026-01-13T1400,4239A,102.193042,38.531887,金昌市,长春路96号,,26,12,62,3,18,82,,58,58,3,18,7,23,0.6,0.8
2026-01-13T1400,1262A,119.6478,29.0773,金华市,十五中,细颗粒物(PM2.5),68,80,83,49,45,113,,56,56,26,51,12,6,0.6,0.7
2026-01-13T1400,1263A,119.6859,29.1032,金华市,监测站,颗粒物(PM10),64,78,91,45,49,77,,42,42,28,59,12,6,0.5,0.6
2026-01-13T1400,3659A,119.656,29.1132,金华市,气象局,颗粒物(PM10),63,76,88,41,47,93,,45,45,31,59,8,5,0.7,0.8
2026-01-13T1400,1767A,121.1114,41.0879,锦州市,南山,,25,19,27,6,16,78,,62,60,4,13,7,10,0.5,0.5
2026-01-13T1400,1768A,121.060361,40.842794,锦州市,开发区,,30,30,39,10,22,71,,50,49,4,17,6,12,0.5,0.6
2026-01-13T1400,1769A,121.1836,41.1118,锦州市,百股街道,,25,22,31,3,12,78,,68,68,4,13,7,10,0.5,0.6
2026-01-13T1400,1770A,121.1176,41.1224,锦州市,天安街道,,27,20,30,3,13,85,,71,71,5,13,8,11,0.4,0.6
2026-01-13T1400,1771A,121.1303,41.1385,锦州市,北湖公园,,25,15,31,3,12,77,,69,69,4,8,6,9,0.4,0.7
2026-01-13T1400,2160A,112.8496,35.5051,晋城市,自来水公司,颗粒物(PM10),59,67,121,25,38,65,,25,25,20,33,9,12,1.2,1.5
2026-01-13T1400,2162A,112.8509,35.4886,晋城市,市环保局,颗粒物(PM10),56,61,122,22,32,76,,34,34,19,39,7,8,0.9,1.2
2026-01-13T1400,3620A,112.8258,35.4804,晋城市,泽州一中,颗粒物(PM10),92,134,127,36,35,72,,33,33,25,23,8,6,0.9,0.9
2026-01-13T1400,4078A,112.8246,35.5152,晋城市,前书院路,颗粒物(PM10),74,98,126,18,30,64,,30,28,28,28,10,8,1.2,1
2026-01-13T1400,4079A,112.8864,35.4773,晋城市,祥云街666号,,49,49,118,13,36,74,,32,32,9,16,4,7,0.6,1
2026-01-13T1400,2174A,112.6992,37.6984,晋中市,榆次区政府,颗粒物(PM10),92,134,169,44,53,58,,27,27,34,39,21,18,0.8,0.8
2026-01-13T1400,2865A,112.7195,37.683,晋中市,榆次三中,颗粒物(PM10),96,141,170,46,40,61,,23,23,30,38,23,18,0.9,0.8
2026-01-13T1400,4080A,112.7375,37.7215,晋中市,广安街188号,颗粒物(PM10),81,112,172,42,47,60,,26,26,29,39,22,20,0.6,0.6
2026-01-13T1400,4200A,112.7478,37.6954,晋中市,迎宾街26号,颗粒物(PM10),90,129,169,39,43,64,,28,28,26,32,23,20,1.0,0.8
2026-01-13T1400,2439A,112.2012,31.048,荆门市,竹园小学,细颗粒物(PM2.5),133,164,155,101,109,78,,41,32,38,35,32,7,1.3,1.2
2026-01-13T1400,2440A,112.1968,30.9892,荆门市,掇刀,细颗粒物(PM2.5),119,119,147,90,100,84,,52,36,19,32,8,6,,0.8
2026-01-13T1400,3012A,112.1849,31.0361,荆门市,西山林语,细颗粒物(PM2.5),120,159,141,91,94,85,,54,37,40,31,12,11,0.7,0.7
2026-01-13T1400,3547A,112.1631,31.0134,荆门市,龙泉中学南校,细颗粒物(PM2.5),149,148,151,114,103,92,,53,47,30,26,6,6,0.6,0.7
2026-01-13T1400,4124A,112.2213,31.0654,荆门市,新台西路6号,细颗粒物(PM2.5),178,,142,134,108,75,,34,34,34,32,36,11,0.9,0.9
2026-01-13T1400,1844A,112.2493,30.3198,荆州市,市图书馆,细颗粒物(PM2.5),79,,87,58,81,94,,52,52,12,24,6,7,0.8,0.9
2026-01-13T1400,1845A,112.2009,30.3543,荆州市,市委党校,细颗粒物(PM2.5),79,,96,58,80,78,,44,44,21,29,3,4,0.7,0.9
2026-01-13T1400,3194A,112.2749,30.3124,荆州市,管委会,细颗粒物(PM2.5),77,,91,56,80,86,,48,48,14,24,6,7,0.8,0.9
2026-01-13T1400,4268A,112.1722,30.3366,荆州市,学苑路85号,细颗粒物(PM2.5),68,55,101,49,78,98,,53,53,14,23,13,10,0.8,0.9
2026-01-13T1400,2343A,117.2114,29.2931,景德镇市,老干部活动中心,细颗粒物(PM2.5),67,77,73,48,47,85,,29,29,19,35,16,9,0.8,0.8
2026-01-13T1400,2344A,117.1893,29.2789,景德镇市,兽医站,颗粒物(PM10),54,57,81,34,42,100,,37,37,22,34,16,13,0.7,0.9
2026-01-13T1400,2346A,117.246,29.2958,景德镇市,陶研所,细颗粒物(PM2.5),83,67,72,61,53,85,,28,28,33,41,14,10,0.8,0.9
2026-01-13T1400,4289A,117.154766,29.256967,景德镇市,青少年活动中心,细颗粒物(PM2.5),60,68,85,43,46,80,,28,28,22,41,15,16,/,/
2026-01-13T1400,1803A,115.9873,29.6816,九江市,十里,细颗粒物(PM2.5),68,82,72,49,44,51,,27,27,44,60,9,8,0.8,0.8
2026-01-13T1400,1804A,115.9583,29.7047,九江市,茅山头,细颗粒物(PM2.5),67,80,72,48,38,68,,40,40,43,48,10,7,1.0,0.9
2026-01-13T1400,1805A,115.9877,29.7295,九江市,西园,细颗粒物(PM2.5),70,83,78,51,44,78,,44,44,47,60,10,5,0.8,0.9
2026-01-13T1400,1808A,115.9112,29.6038,九江市,综合工业园,细颗粒物(PM2.5),54,50,76,38,50,93,,49,49,27,46,6,6,0.6,0.7
2026-01-13T1400,3190A,116.0254,29.6995,九江市,外国语学校,"颗粒物(PM10),细颗粒物(PM2.5)",60,69,81,43,49,70,,33,33,35,47,15,14,1.0,1
2026-01-13T1400,4253A,116.010205,29.659402,九江市,莲花大道8号,,,,64,,42,67,,38,38,27,30,8,5,,0.5
2026-01-13T1400,4240A,98.495752,39.733935,酒泉市,玉门东路5号,颗粒物(PM10),496,596,83,43,23,77,,66,61,2,16,10,13,0.2,0.5
2026-01-13T1400,4241A,98.5099,39.7506,酒泉市,北大街108号,颗粒物(PM10),500,808,96,78,30,74,,58,54,7,25,8,12,0.3,0.6
2026-01-13T1400,2698A,76.0071,39.466,喀什地区,巡警大队,颗粒物(PM10),103,155,121,70,66,30,,21,15,80,64,10,9,2.1,2.1
2026-01-13T1400,2699A,75.9756,39.4693,喀什地区,吾办,细颗粒物(PM2.5),113,130,121,85,80,44,,17,14,58,65,14,11,1.7,2.4
2026-01-13T1400,4027A,75.9485,39.4688,喀什地区,老干局,颗粒物(PM10),94,138,144,56,75,57,,30,23,36,54,8,7,1.3,2.3
2026-01-13T1400,1824A,114.3389,34.778,开封市,肿瘤医院,颗粒物(PM10),75,99,114,26,27,78,,38,38,17,34,9,6,0.5,0.6
2026-01-13T1400,1826A,114.2884,34.7966,开封市,世纪星幼儿园,颗粒物(PM10),72,94,107,31,32,76,,36,36,15,35,4,2,0.4,0.5
2026-01-13T1400,3147A,114.3434,34.8101,开封市,龙亭公园,颗粒物(PM10),75,99,112,22,29,78,,36,36,18,35,10,8,0.5,0.6
2026-01-13T1400,3210A,114.3645,34.7955,开封市,汴京公园,颗粒物(PM10),79,108,120,28,31,74,,28,28,21,38,8,6,0.5,0.6
2026-01-13T1400,3473A,114.2485,34.8306,开封市,技师学院,颗粒物(PM10),73,95,101,23,28,74,,42,42,17,35,8,7,0.7,0.7
2026-01-13T1400,3592A,114.4518,34.7503,开封市,祥符区生态环境局,颗粒物(PM10),82,114,142,40,32,75,,35,35,22,42,8,5,0.6,0.6
2026-01-13T1400,1951A,84.886,45.6029,克拉玛依市,长征新村,细颗粒物(PM2.5),190,190,138,143,107,46,,48,43,41,37,8,6,1.1,1
2026-01-13T1400,1952A,84.8894,45.5827,克拉玛依市,南林小区,细颗粒物(PM2.5),149,177,134,114,85,44,,50,44,26,21,5,3,1.4,1.3
2026-01-13T1400,1954A,84.896,44.3328,克拉玛依市,独山子区,颗粒物(PM10),58,65,89,27,56,69,,58,52,26,40,8,5,0.7,0.7
2026-01-13T1400,1955A,85.6888,46.0909,克拉玛依市,乌尔禾区商贸楼,细颗粒物(PM2.5),211,190,173,161,149,56,,54,46,44,41,8,6,1.4,1.3
2026-01-13T1400,3612A,85.1045,45.6895,克拉玛依市,白碱滩区新站,细颗粒物(PM2.5),203,203,158,153,122,47,,49,44,40,34,12,10,1.2,1
2026-01-13T1400,2697A,76.1457,39.7143,克孜勒苏柯尔克孜自治州,市人民政府,,28,28,95,9,36,84,,100,92,7,16,3,2,0,0.2
2026-01-13T1400,3665A,76.1654,39.7157,克孜勒苏柯尔克孜自治州,克州文化中心,,38,38,91,3,31,88,,99,94,3,18,4,5,0.2,0.6
2026-01-13T1400,1450A,102.8203,24.889,昆明市,呈贡新区,,44,44,53,28,34,93,,35,35,14,40,8,5,0.7,0.8
2026-01-13T1400,1452A,102.7253,25.0904,昆明市,龙泉镇,,35,32,44,24,28,90,,28,28,13,33,20,3,0.6,0.7
2026-01-13T1400,1453A,102.7267,25.0378,昆明市,东风东路,,49,49,61,28,33,92,,31,31,14,38,10,6,0.7,0.9
2026-01-13T1400,1454A,102.6744,25.0671,昆明市,金鼎山,,,50,57,23,34,88,,33,33,,41,21,4,0.6,0.8
2026-01-13T1400,1455A,102.6643,25.0401,昆明市,碧鸡广场,,46,46,68,29,35,87,,33,33,14,41,17,5,0.4,0.6
2026-01-13T1400,3179A,102.7491,25.012,昆明市,官渡区博物馆,,47,47,68,30,39,94,,34,34,14,50,6,4,0.3,1
2026-01-13T1400,3375A,102.8016,24.8336,昆明市,青年创业园,,43,36,46,30,31,93,,40,40,7,26,8,4,0.6,0.6
2026-01-13T1400,3550A,102.8,24.9787,昆明市,昆明学院,颗粒物(PM10),53,55,77,32,41,96,,36,36,15,42,7,4,0.4,0.5
2026-01-13T1400,3551A,102.5969,24.6738,昆明市,晋宁区生态环境分局,,35,,60,24,40,69,,24,24,9,34,2,3,0.6,0.7
2026-01-13T1400,3552A,102.6673,24.9861,昆明市,云天化总部,颗粒物(PM10),53,55,52,36,31,94,,33,33,16,39,9,6,0.5,0.5
2026-01-13T1400,1456A,91.132,29.6515,拉萨市,八廓街,,28,17,20,11,13,87,,65,65,7,18,7,7,0.2,0.3
2026-01-13T1400,1457A,91.1221,29.6748,拉萨市,市环保局,,26,21,30,18,18,81,,52,52,15,21,6,8,0.5,0.9
2026-01-13T1400,1458A,91.0874,29.6476,拉萨市,区监测站,,25,10,16,6,9,78,,55,55,9,28,4,4,0.7,0.8
2026-01-13T1400,1459A,91.1774,29.6541,拉萨市,西藏大学,,25,16,18,3,9,78,,57,57,10,18,4,4,0.3,0.4
2026-01-13T1400,1460A,90.9798,29.6586,拉萨市,区辐射站,,24,24,26,11,16,75,,37,37,17,31,4,4,0.4,0.6
2026-01-13T1400,1461A,91.0831,29.6292,拉萨市,拉萨火车站,,22,17,23,11,14,70,,38,38,15,29,3,4,0.6,0.8
2026-01-13T1400,2520A,109.2203,23.7252,来宾市,来宾技工学校,细颗粒物(PM2.5),98,96,100,73,78,117,,58,58,9,23,11,12,0.8,0.9
2026-01-13T1400,3535A,109.1781,23.7293,来宾市,兴宾区政府,细颗粒物(PM2.5),110,107,103,83,75,126,,70,70,15,23,12,10,0.8,0.8
2026-01-13T1400,4002A,109.2312,23.7428,来宾市,中南小学,细颗粒物(PM2.5),100,91,108,75,89,127,,42,42,12,38,10,10,0.8,1
2026-01-13T1400,1479A,103.8309,36.0467,兰州市,铁路设计院,,,,,,,,,,,,,,,,
2026-01-13T1400,3241A,103.7439,36.0841,兰州市,百合公园,颗粒物(PM10),61,71,111,42,63,48,,14,14,45,80,56,31,1.2,2.2
2026-01-13T1400,3242A,103.9613,35.9985,兰州市,和平,细颗粒物(PM2.5),100,99,83,75,54,52,,21,21,42,48,32,19,1.8,1.6
2026-01-13T1400,4236A,103.629272,36.093822,兰州市,庄浪东路808号,细颗粒物(PM2.5),67,80,90,48,50,68,,26,26,38,65,54,26,1.2,1.3
2026-01-13T1400,4237A,103.7251,36.104344,兰州市,安宁西路88号,颗粒物(PM10),60,69,123,38,57,62,,21,21,46,86,65,29,1.1,1.7
2026-01-13T1400,4238A,103.846982,36.067567,兰州市,北滨河东路1号,细颗粒物(PM2.5),65,73,124,47,73,39,,13,13,76,86,44,23,2.2,2.4
2026-01-13T1400,1067A,116.6712,39.5109,廊坊市,药材公司,,20,13,54,11,29,64,,34,32,12,48,5,4,0.6,0.8
2026-01-13T1400,1068A,116.7215,39.5592,廊坊市,开发区,,41,41,48,22,25,57,,48,32,28,46,6,4,0.5,0.5
2026-01-13T1400,1070A,116.7246,39.5273,廊坊市,北华航天学院,,39,39,58,14,29,60,,35,35,19,48,5,4,0.6,0.6
2026-01-13T1400,2919A,116.7022,39.5454,廊坊市,河北工业大学,,35,35,53,15,24,60,,52,40,23,42,6,4,0.5,0.5
2026-01-13T1400,2536A,103.7629,29.5844,乐山市,牛耳桥,细颗粒物(PM2.5),192,150,136,144,119,75,,18,18,30,42,15,9,1.0,1
2026-01-13T1400,2537A,103.7501,29.6002,乐山市,市第三水厂,细颗粒物(PM2.5),195,152,137,146,109,83,,21,21,24,44,14,7,1.0,1.1
2026-01-13T1400,2538A,103.7571,29.5664,乐山市,市监测站,细颗粒物(PM2.5),189,165,144,142,124,66,,16,16,29,38,15,7,1.2,1.2
2026-01-13T1400,3361A,103.7313,29.563,乐山市,理工大学,细颗粒物(PM2.5),209,173,145,159,126,31,,8,8,52,36,9,5,1.2,1
2026-01-13T1400,2599A,100.2497,26.8802,丽江市,丽江古城,,27,27,32,10,14,78,,66,66,8,12,7,8,0.5,0.5
2026-01-13T1400,2600A,100.2203,26.8906,丽江市,市中心,,25,15,22,3,10,79,,54,54,9,15,7,7,0.4,0.5
2026-01-13T1400,1267A,119.9141,28.4513,丽水市,监测站大楼,颗粒物(PM10),55,59,60,27,41,98,,36,36,23,42,6,6,0.4,0.8
2026-01-13T1400,1268A,119.93,28.4589,丽水市,莲都小学,,48,48,69,22,28,102,,42,42,19,47,/,/,/,/
2026-01-13T1400,1269A,119.8794,28.4232,丽水市,余庄前,颗粒物(PM10),51,51,57,28,29,100,,38,38,20,28,7,5,0.3,0.4
2026-01-13T1400,1173A,119.1759,34.5885,连云港市,市环境监测站,颗粒物(PM10),65,80,124,36,76,59,,30,30,23,59,13,19,0.6,0.9
2026-01-13T1400,3000A,119.3577,34.6971,连云港市,德源药业,颗粒物(PM10),74,97,145,41,72,57,,28,28,35,64,9,9,0.8,0.9
2026-01-13T1400,3007A,119.178,34.8442,连云港市,新城一中,颗粒物(PM10),86,122,132,63,93,50,,19,19,39,60,15,17,1.1,1.3
2026-01-13T1400,3008A,119.3607,34.7519,连云港市,胡沟管理处,颗粒物(PM10),75,100,123,44,70,50,,22,22,40,65,11,15,0.9,1
2026-01-13T1400,3009A,119.1478,34.5913,连云港市,矿山设计院,颗粒物(PM10),69,88,132,36,72,61,,29,29,26,60,10,18,0.7,1.1
2026-01-13T1400,3434A,119.2414,34.6539,连云港市,工贸学校,细颗粒物(PM2.5),79,95,123,58,77,56,,31,31,28,40,17,18,1.0,1.1
2026-01-13T1400,3664A,119.4171,34.734,连云港市,连云街道,颗粒物(PM10),74,97,114,50,65,66,,37,37,31,40,8,13,0.9,1
2026-01-13T1400,2573A,102.2629,27.8981,凉山彝族自治州,西昌市政府,细颗粒物(PM2.5),53,53,42,37,31,76,,44,36,19,19,13,9,0.9,0.8
2026-01-13T1400,2574A,102.2686,27.885,凉山彝族自治州,凉山州政府,颗粒物(PM10),53,56,48,32,28,76,,31,31,18,23,14,9,0.7,0.9
2026-01-13T1400,4229A,102.2342,27.8859,凉山彝族自治州,凯乐南路30号,颗粒物(PM10),58,66,69,37,37,67,,26,26,31,42,14,8,0.8,0.7
2026-01-13T1400,2212A,123.1978,41.2036,辽阳市,宏伟区,,34,34,33,13,23,67,,58,58,3,12,6,8,0.4,0.6
2026-01-13T1400,2213A,123.1684,41.2497,辽阳市,新华园,,29,29,37,6,26,66,,54,54,5,21,7,10,0.3,0.4
2026-01-13T1400,2214A,123.2355,41.2663,辽阳市,滨河路,,27,27,40,11,23,57,,49,49,1,17,5,8,0,0.1
2026-01-13T1400,4083A,123.153,41.2874,辽阳市,铁西路150号,,29,29,39,3,25,68,,52,52,3,20,2,6,0.3,0.6
2026-01-13T1400,2227A,125.1359,42.8845,辽源市,环保局,,,,40,,17,64,,60,60,4,8,4,5,0.3,0.5
2026-01-13T1400,4085A,125.0998,42.9134,辽源市,安宁大街333号,,29,29,30,13,11,64,,61,61,4,9,2,2,0.3,0.3
2026-01-13T1400,1625A,115.9789,36.4372,聊城市,区政府,颗粒物(PM10),88,125,121,53,59,65,,30,30,45,58,20,21,0.9,1.1
2026-01-13T1400,3200A,115.9772,36.4986,聊城市,监控中心,颗粒物(PM10),83,116,122,58,67,69,,30,30,43,58,22,21,0.8,0.9
2026-01-13T1400,3513A,116.0443,36.436,聊城市,九州社区,颗粒物(PM10),81,111,128,42,66,83,,38,38,20,41,11,16,0.7,0.9
2026-01-13T1400,4018A,116.0564,36.4609,聊城市,星美广场,颗粒物(PM10),84,117,131,48,62,75,,28,28,25,46,12,15,0.7,1
2026-01-13T1400,4113A,116.0091,36.4495,聊城市,利民路,细颗粒物(PM2.5),94,104,110,70,72,60,,28,28,42,58,19,19,1.0,1.1
2026-01-13T1400,2632A,94.3683,29.6373,林芝市,林芝监测站,,25,6,14,3,8,78,,60,60,4,13,3,3,0.3,0.4
2026-01-13T1400,2633A,94.3616,29.6634,林芝市,林芝人民医院,,20,6,16,3,8,64,,48,48,9,12,3,3,0.4,0.4
2026-01-13T1400,2603A,100.0779,23.8981,临沧市,市环保局,,45,45,37,30,40,77,,34,34,11,13,3,3,0.6,0.5
2026-01-13T1400,2604A,100.0894,23.882,临沧市,市气象局,细颗粒物(PM2.5),53,46,42,37,33,73,,31,31,10,13,6,7,0.4,0.5
2026-01-13T1400,1733A,111.5552,36.0791,临汾市,临钢医院,颗粒物(PM10),104,157,170,52,66,55,,20,20,29,38,9,10,1.0,1.3
2026-01-13T1400,1734A,111.4984,36.0734,临汾市,技工学校,颗粒物(PM10),100,150,166,54,70,50,,18,18,26,44,9,12,1.1,1.3
2026-01-13T1400,1736A,111.5017,36.0857,临汾市,市委,颗粒物(PM10),103,156,173,44,65,56,,21,21,30,52,12,16,1.1,1.5
2026-01-13T1400,3018A,111.5048,36.1015,临汾市,唐尧大酒店,颗粒物(PM10),93,136,165,48,69,58,,20,20,30,51,9,12,1.1,1.5
2026-01-13T1400,4244A,111.4879,36.053,临汾市,启星学校,颗粒物(PM10),99,147,153,31,63,52,,21,21,36,61,13,13,1.2,1.7
2026-01-13T1400,4271A,103.2464,35.6123,临夏回族自治州,滨河东路1号,,,,126,25,56,79,,26,26,13,34,14,8,0.5,1.4
2026-01-13T1400,4310A,103.207136,35.599807,临夏回族自治州,新华街21号,颗粒物(PM10),56,62,122,28,66,78,,20,20,26,40,14,13,0.8,2.1
2026-01-13T1400,1618A,118.3429,35.0532,临沂市,沂河小区,细颗粒物(PM2.5),95,124,175,71,113,59,,19,19,42,76,22,29,1.0,1.4
2026-01-13T1400,1619A,118.2962,35.0568,临沂市,鲁南制药厂,细颗粒物(PM2.5),99,132,185,74,121,65,,20,20,41,80,23,39,1.0,1.8
2026-01-13T1400,1620A,118.2793,34.9976,临沂市,新光毛纺厂,,,,153,,95,63,,23,23,41,71,20,27,0.9,1.4
2026-01-13T1400,1621A,118.3955,35.0889,临沂市,河东保险公司,细颗粒物(PM2.5),84,112,165,62,101,63,,23,23,37,68,24,23,1.1,1.5
2026-01-13T1400,3370A,118.3563,35.0215,临沂市,十里堡居委,颗粒物(PM10),84,117,170,53,95,61,,20,20,46,76,20,34,0.9,1.3
2026-01-13T1400,3496A,118.359,35.1067,临沂市,南坊新区,颗粒物(PM10),89,127,156,61,96,64,,22,22,46,73,24,25,1.1,1.2
2026-01-13T1400,3860A,118.3915,35.0297,临沂市,皇山花园小区,颗粒物(PM10),89,127,171,55,74,63,,26,26,43,78,21,30,1.0,1.4
2026-01-13T1400,1870A,109.4854,24.3898,柳州市,柳东小学,细颗粒物(PM2.5),109,90,126,82,113,111,,61,61,10,23,12,18,0.8,1.1
2026-01-13T1400,1871A,109.4109,24.3304,柳州市,环保监测站,细颗粒物(PM2.5),107,87,152,80,114,103,,40,40,22,50,20,15,1.1,1.6
2026-01-13T1400,1872A,109.3886,24.3408,柳州市,河西水厂,细颗粒物(PM2.5),125,106,175,95,113,108,,43,43,25,51,27,17,1.6,1.3
2026-01-13T1400,1873A,109.4263,24.2951,柳州市,市四中,细颗粒物(PM2.5),87,99,132,64,104,102,,38,38,21,56,18,17,0.7,1.5
2026-01-13T1400,1874A,109.396,24.3658,柳州市,市九中,细颗粒物(PM2.5),133,,158,101,122,101,,43,43,23,52,20,24,1.6,1.5
2026-01-13T1400,1875A,109.4912,24.3164,柳州市,古亭山,细颗粒物(PM2.5),84,96,96,62,75,105,,40,40,14,46,15,14,0.7,0.9
2026-01-13T1400,3402A,109.5422,24.3994,柳州市,市二中,细颗粒物(PM2.5),79,91,106,58,98,114,,46,46,17,38,14,11,0.7,0.9
2026-01-13T1400,2307A,116.5078,31.7369,六安市,监测大楼,,39,39,63,23,42,94,,73,72,21,26,4,5,0.4,0.5
2026-01-13T1400,2308A,116.4738,31.7642,六安市,皖西学院,,47,47,70,31,42,108,,80,80,15,24,5,6,0.4,0.5
2026-01-13T1400,2309A,116.4997,31.7904,六安市,朝阳厂,颗粒物(PM10),68,85,66,27,39,89,,78,72,20,22,6,7,0.4,0.5
2026-01-13T1400,2310A,116.5566,31.7885,六安市,开发区,,47,47,80,27,45,94,,52,52,20,33,5,6,0.4,0.5
2026-01-13T1400,2577A,104.8293,26.592,六盘水市,黄土坡,细颗粒物(PM2.5),59,,77,42,58,92,,34,34,9,29,7,12,0.4,1.1
2026-01-13T1400,2579A,104.8481,26.5898,六盘水市,民中,,,,99,,77,90,,30,30,8,44,4,17,0.3,1.5
2026-01-13T1400,2580A,104.9541,26.5506,六盘水市,双水,细颗粒物(PM2.5),89,75,83,66,62,88,,38,38,15,25,7,7,0.4,0.8
2026-01-13T1400,4151A,104.8899,26.5685,六盘水市,钟山大道中段564号,细颗粒物(PM2.5),60,59,121,43,74,86,,30,30,10,37,8,14,0.6,1.6
2026-01-13T1400,2336A,117.022,25.1031,龙岩市,龙岩市监测站,,41,41,46,26,28,114,,55,55,9,38,11,22,0.4,0.6
2026-01-13T1400,2337A,117.0257,25.0662,龙岩市,闽西职业技术学院,,40,38,51,28,24,116,,57,57,7,30,9,20,0.5,0.5
2026-01-13T1400,2338A,117.0195,25.0306,龙岩市,龙岩学院,细颗粒物(PM2.5),55,50,40,39,26,118,,78,78,10,13,9,8,/,/
2026-01-13T1400,2885A,104.9344,33.3827,陇南市,滨江中学,颗粒物(PM10),59,67,99,31,48,64,,24,24,20,48,6,15,0.7,1.9
2026-01-13T1400,3247A,104.9551,33.3709,陇南市,市总工会,颗粒物(PM10),54,57,73,33,44,65,,24,24,18,34,10,11,0.7,1.1
2026-01-13T1400,2488A,111.9984,27.7346,娄底市,市监测站,细颗粒物(PM2.5),84,98,147,62,110,97,,35,35,13,48,10,14,0.8,1.6
2026-01-13T1400,2491A,111.9888,27.7035,娄底市,市政府,细颗粒物(PM2.5),102,108,136,76,109,90,,33,33,23,30,9,10,0.6,1.2
2026-01-13T1400,4127A,111.9812,27.7591,娄底市,涟钢职大,细颗粒物(PM2.5),73,72,143,53,95,96,,24,24,16,44,10,15,0.6,1.9
2026-01-13T1400,4128A,112.0303,27.7457,娄底市,娄底体校,细颗粒物(PM2.5),83,,114,61,95,79,,25,25,20,27,8,5,0.6,1
2026-01-13T1400,1894A,105.4427,28.9063,泸州市,小市上码头,细颗粒物(PM2.5),138,146,140,105,107,58,,26,26,33,26,11,11,1.4,1.3
2026-01-13T1400,1895A,105.4241,28.8573,泸州市,兰田宪桥,细颗粒物(PM2.5),133,132,140,101,103,66,,23,23,30,29,8,8,1.3,1.3
2026-01-13T1400,1896A,105.4378,28.8833,泸州市,市环监站,,,128,135,,104,67,,28,28,30,30,9,9,1.2,1.2
2026-01-13T1400,4272A,105.3689,28.7783,泸州市,纳溪中医医院,细颗粒物(PM2.5),186,,121,140,110,78,,24,24,22,25,9,8,1.4,1.1
2026-01-13T1400,2183A,111.1447,37.5212,吕梁市,环保局,颗粒物(PM10),84,117,188,30,44,49,,18,18,25,39,8,6,0.6,0.5
2026-01-13T1400,2185A,111.1285,37.5338,吕梁市,自来水公司,颗粒物(PM10),94,137,199,22,48,50,,17,17,22,32,7,11,0.6,0.5
2026-01-13T1400,2867A,111.1225,37.5093,吕梁市,马茂庄小学,颗粒物(PM10),95,139,203,30,44,43,,17,17,31,41,8,9,0.7,0.6
2026-01-13T1400,1812A,112.3934,34.6517,洛阳市,市委党校,颗粒物(PM10),59,68,90,41,56,63,,26,26,29,47,13,13,0.7,1
2026-01-13T1400,1815A,112.494,34.6883,洛阳市,河南林校,颗粒物(PM10),63,76,108,28,45,67,,26,26,25,45,16,16,0.6,0.9
2026-01-13T1400,1816A,112.3843,34.623,洛阳市,开发区管委会,颗粒物(PM10),61,72,84,40,40,69,,30,30,22,31,19,12,0.8,0.8
2026-01-13T1400,1817A,112.4263,34.6249,洛阳市,市委新办公区,颗粒物(PM10),60,69,85,32,45,65,,30,30,24,34,16,11,0.7,0.7
2026-01-13T1400,3340A,112.6005,34.6323,洛阳市,伊滨,细颗粒物(PM2.5),64,70,98,46,49,66,,27,27,21,33,14,8,0.5,0.5
2026-01-13T1400,3341A,112.495,34.6338,洛阳市,中移产业园,颗粒物(PM10),57,64,84,37,41,93,,56,56,30,45,16,12,0.6,0.7
2026-01-13T1400,3593A,112.5736,34.8993,洛阳市,吉利监测站,颗粒物(PM10),85,120,90,58,33,59,,37,34,47,32,15,10,0.8,0.6
2026-01-13T1400,3635A,112.3678,34.6623,洛阳市,河科大西苑校区,颗粒物(PM10),61,71,102,39,43,70,,30,30,26,42,13,16,0.7,1
2026-01-13T1400,3636A,112.4387,34.678,洛阳市,英才小学,颗粒物(PM10),64,78,117,44,56,65,,25,25,28,53,14,22,0.7,1
2026-01-13T1400,4214A,112.460027,34.694929,洛阳市,春都路1号院,细颗粒物(PM2.5),72,87,117,52,40,66,,25,25,24,41,13,14,0.8,1
2026-01-13T1400,2399A,114.051,33.5721,漯河市,三五一五工厂,细颗粒物(PM2.5),115,133,115,87,68,95,,35,35,,40,11,8,0.5,1
2026-01-13T1400,2400A,114.0055,33.5698,漯河市,漯河大学,细颗粒物(PM2.5),85,101,98,63,57,96,,37,37,15,31,11,7,0.8,0.8
2026-01-13T1400,2401A,114.0134,33.5826,漯河市,市水利局,细颗粒物(PM2.5),98,102,100,73,64,77,,30,30,18,29,11,8,0.7,0.7
2026-01-13T1400,2402A,114.0261,33.5697,漯河市,市广电局,细颗粒物(PM2.5),102,105,104,76,68,94,,35,35,19,40,11,9,0.7,0.8
2026-01-13T1400,3478A,113.9691,33.568,漯河市,市图书馆,细颗粒物(PM2.5),99,118,111,74,66,80,,34,34,16,25,10,7,0.7,0.7
2026-01-13T1400,4250A,114.089259,33.588274,漯河市,韶山路11号,细颗粒物(PM2.5),112,139,113,84,63,90,,34,34,23,41,10,8,0.8,0.8
2026-01-13T1400,1798A,118.5084,31.6838,马鞍山市,湖东路四小,,,111,85,,43,86,,44,44,31,39,10,9,0.7,0.6
2026-01-13T1400,1799A,118.5019,31.6449,马鞍山市,开发区,细颗粒物(PM2.5),93,93,88,69,54,88,,37,37,36,52,13,9,0.7,0.7
2026-01-13T1400,3633A,118.4914,31.681,马鞍山市,雨山,细颗粒物(PM2.5),88,97,90,65,53,90,,40,40,32,45,12,12,0.8,0.6
2026-01-13T1400,4191A,118.527362,31.722269,马鞍山市,慈湖高新区,细颗粒物(PM2.5),80,105,97,59,55,84,,44,44,33,47,9,11,0.7,0.7
2026-01-13T1400,1686A,111.0285,21.469,茂名市,电白南海,细颗粒物(PM2.5),79,100,83,58,41,153,,87,87,18,26,28,17,1.1,1
2026-01-13T1400,1687A,110.9294,21.6533,茂名市,茂石化七小,细颗粒物(PM2.5),77,95,93,56,43,164,,93,93,28,28,42,19,0.7,0.8
2026-01-13T1400,1688A,110.9108,21.6688,茂名市,健康路,臭氧1小时(O3_1h),52,48,79,24,41,161,,78,78,16,32,17,20,0.6,0.8
2026-01-13T1400,1689A,110.8592,21.6826,茂名市,高岭,颗粒物(PM10),59,68,101,29,39,149,,63,63,14,30,10,16,/,/
2026-01-13T1400,3450A,111.0101,21.5165,茂名市,电白水东,颗粒物(PM10),63,75,80,41,37,168,,92,92,18,26,16,16,/,/
2026-01-13T1400,2540A,103.8414,30.0871,眉山市,气象局,细颗粒物(PM2.5),188,163,155,141,140,100,,29,29,30,44,15,12,0.9,1
2026-01-13T1400,3148A,103.829,30.0563,眉山市,区人社局,细颗粒物(PM2.5),168,135,156,127,138,92,,25,25,30,52,11,10,1.0,1.2
2026-01-13T1400,4148A,103.8836,30.0695,眉山市,眉职院,细颗粒物(PM2.5),159,164,162,121,122,105,,32,32,19,37,4,2,0.9,1
2026-01-13T1400,1690A,116.1248,24.3307,梅州市,梅江月梅,,43,39,63,30,34,108,,46,46,18,39,/,/,/,/
2026-01-13T1400,1691A,116.0798,24.2719,梅州市,梅县新城,,42,42,63,25,39,106,,51,51,19,44,11,8,0.6,0.7
2026-01-13T1400,3315A,116.1234,24.2994,梅州市,梅龙,,39,39,59,24,34,104,,49,49,15,35,13,10,0.6,0.7
2026-01-13T1400,1878A,104.7775,31.4741,绵阳市,富乐山,细颗粒物(PM2.5),132,122,124,100,102,95,,39,39,18,38,12,11,0.7,0.8
2026-01-13T1400,1880A,104.6698,31.4668,绵阳市,高新区自来水公司,细颗粒物(PM2.5),153,160,153,117,112,66,,20,20,30,53,8,9,,1.2
2026-01-13T1400,3491A,104.6899,31.5324,绵阳市,西科大附属小学,细颗粒物(PM2.5),175,170,148,132,108,76,,25,25,34,54,8,8,0.6,0.8
2026-01-13T1400,3492A,104.5647,31.5343,绵阳市,安州区旅游局,细颗粒物(PM2.5),160,,134,122,112,88,,33,33,30,44,12,12,0.7,0.9
2026-01-13T1400,4146A,104.7092,31.4972,绵阳市,科技城新区公安局,细颗粒物(PM2.5),148,141,136,113,109,94,,28,28,26,51,6,5,0.9,0.9
2026-01-13T1400,4226A,104.765114,31.453094,绵阳市,绵阳市气象局,细颗粒物(PM2.5),132,116,133,100,106,81,,25,25,25,51,7,6,0.8,1
2026-01-13T1400,1784A,129.61,44.561,牡丹江市,环保大楼,,,45,69,24,50,,,28,28,8,39,,7,0.1,0.6
2026-01-13T1400,1787A,129.6364,44.6075,牡丹江市,机车工厂,,37,37,85,21,57,54,,28,28,9,40,3,4,0.3,0.9
2026-01-13T1400,1788A,129.6386,44.5462,牡丹江市,第一中学,,45,32,48,31,45,56,,32,32,5,32,4,6,0.4,0.8
2026-01-13T1400,4287A,129.5992,44.5964,牡丹江市,东晓云街98号,细颗粒物(PM2.5),57,,81,40,73,56,,32,32,7,34,5,8,0.5,1.1
2026-01-13T1400,2531A,105.0703,29.61,内江市,市监测站,细颗粒物(PM2.5),123,,98,93,100,108,,47,47,16,32,7,6,0.9,1
2026-01-13T1400,2533A,105.0657,29.5807,内江市,内江二中,细颗粒物(PM2.5),143,111,118,109,98,90,,29,29,29,44,6,5,1.0,1.2
2026-01-13T1400,2534A,105.0407,29.5828,内江市,内江日报社,细颗粒物(PM2.5),150,,100,115,99,101,,33,33,23,57,3,3,0.7,1
2026-01-13T1400,4147A,105.0433,29.6105,内江市,玉峰路西段888号,细颗粒物(PM2.5),127,96,106,96,106,102,,32,32,21,40,3,2,0.8,1
2026-01-13T1400,2628A,92.0653,31.4846,那曲市,那曲监测站,,38,38,49,24,35,66,,42,42,20,29,9,10,0.8,1.4
2026-01-13T1400,4243A,92.0515,31.4787,那曲市,那曲市委宣传部,,20,15,30,3,19,64,,35,35,14,25,13,11,0.5,1.1
2026-01-13T1400,1291A,115.8887,28.7006,南昌市,省林业公司,细颗粒物(PM2.5),64,66,125,46,62,79,,32,32,31,55,10,16,0.8,1.2
2026-01-13T1400,1292A,115.813,28.7443,南昌市,林科所,,46,46,80,31,47,91,,37,37,21,52,9,12,0.5,0.5
2026-01-13T1400,1294A,115.8518,28.687,南昌市,建工学校,细颗粒物(PM2.5),70,74,116,51,63,77,,32,32,35,58,20,23,0.8,1
2026-01-13T1400,1295A,115.8926,28.6425,南昌市,象湖,细颗粒物(PM2.5),73,80,112,53,73,77,,30,30,34,53,18,17,0.6,0.8
2026-01-13T1400,3046A,115.9084,28.6062,南昌市,机电学校,细颗粒物(PM2.5),79,89,139,58,84,85,,35,35,28,55,17,14,0.7,0.8
2026-01-13T1400,3690A,115.9718,28.7032,南昌市,外国语学校,细颗粒物(PM2.5),94,81,123,70,77,88,,41,41,30,60,22,20,0.7,0.9
2026-01-13T1400,4106A,115.7923,28.6873,南昌市,工业二路,细颗粒物(PM2.5),63,50,77,45,56,90,,31,31,22,59,9,10,0.4,0.5
2026-01-13T1400,4192A,115.931587,28.686774,南昌市,南京东路235号,细颗粒物(PM2.5),88,91,133,65,83,84,,35,35,41,63,14,13,0.9,0.9
2026-01-13T1400,1906A,106.0791,30.8022,南充市,南充市委,细颗粒物(PM2.5),155,128,131,118,114,71,,24,24,20,43,5,4,0.8,1.2
2026-01-13T1400,1907A,106.1038,30.8215,南充市,南充炼油厂,细颗粒物(PM2.5),150,124,143,115,125,77,,27,27,16,35,6,6,0.8,0.9
2026-01-13T1400,4227A,106.108336,30.788436,南充市,梨树横街98号,细颗粒物(PM2.5),122,130,131,92,105,88,,30,30,21,41,6,6,0.7,1
2026-01-13T1400,4304A,106.1172,30.843,南充市,清泉寺北路188号,细颗粒物(PM2.5),130,,112,99,102,91,,33,33,12,27,7,6,0.7,0.7
2026-01-13T1400,4305A,106.067,30.7616,南充市,同庆路1号,细颗粒物(PM2.5),140,112,133,107,111,75,,27,27,20,43,7,7,1.4,1.4
2026-01-13T1400,1151A,118.8033,32.1085,南京市,迈皋桥,颗粒物(PM10),63,76,76,39,41,91,,42,42,10,44,9,9,1.3,1
2026-01-13T1400,1152A,118.7487,32.057,南京市,草场门,颗粒物(PM10),62,73,91,29,42,94,,32,32,30,58,14,14,1.0,0.9
2026-01-13T1400,1154A,118.770105,32.004342,南京市,中华门,颗粒物(PM10),64,78,82,41,44,87,,33,33,37,58,13,10,1.4,1.1
2026-01-13T1400,1155A,118.8059,32.0329,南京市,瑞金路,颗粒物(PM10),64,78,88,41,51,90,,26,26,32,73,4,4,1.4,1.4
2026-01-13T1400,1156A,118.7946,32.0774,南京市,玄武湖,,,,80,37,38,78,,29,29,,35,4,4,,1.1
2026-01-13T1400,1157A,118.6415,32.0964,南京市,浦口,颗粒物(PM10),69,87,94,46,43,77,,39,39,33,36,12,11,0.5,0.5
2026-01-13T1400,1158A,118.730129,32.000956,南京市,奥体中心,颗粒物(PM10),73,96,91,48,47,86,,32,32,37,61,25,15,1.5,1.1
2026-01-13T1400,1159A,118.9072,32.1047,南京市,仙林大学城,颗粒物(PM10),71,92,93,44,44,81,,32,32,34,61,14,14,1.2,1.3
2026-01-13T1400,3422A,118.8443,31.919,南京市,江宁彩虹桥,颗粒物(PM10),69,88,78,34,45,101,,33,33,14,48,5,6,0.5,0.9
2026-01-13T1400,3427A,118.8497,32.3599,南京市,六合雄州,颗粒物(PM10),71,92,104,45,59,102,,38,38,24,41,11,12,0.8,0.9
2026-01-13T1400,4086A,118.7641,32.0841,南京市,新模范马路66号,,,90,93,43,50,81,,30,30,33,58,5,7,,0.9
2026-01-13T1400,4249A,118.8707617,31.34017673,南京市,汶溪路181号,,,,54,,33,111,,71,71,20,29,9,8,,0.6
2026-01-13T1400,4312A,119.019,31.6512,南京市,中山西路1号,细颗粒物(PM2.5),62,56,64,44,43,97,,52,52,24,33,4,5,0.6,0.8
2026-01-13T1400,1401A,108.3098,22.788,南宁市,二十一中,细颗粒物(PM2.5),93,102,81,69,62,113,,50,50,16,47,8,9,0.6,1.1
2026-01-13T1400,1402A,108.3135,22.8529,南宁市,北湖,细颗粒物(PM2.5),78,78,81,57,62,124,,58,58,18,59,14,10,0.8,1
2026-01-13T1400,1403A,108.3205,22.8222,南宁市,市监测站,细颗粒物(PM2.5),75,82,79,55,52,112,,49,49,22,58,16,13,0.9,1
2026-01-13T1400,1404A,108.3828,22.8038,南宁市,大自然花园,细颗粒物(PM2.5),83,79,78,61,52,120,,46,46,20,48,10,9,0.7,0.8
2026-01-13T1400,1406A,108.2397,22.8462,南宁市,区农职院,细颗粒物(PM2.5),74,67,70,54,47,106,,49,49,12,36,11,14,1.0,0.9
2026-01-13T1400,1407A,108.3285,22.7356,南宁市,英华嘉园,细颗粒物(PM2.5),92,100,80,68,62,109,,54,54,21,47,10,8,0.8,0.9
2026-01-13T1400,3401A,108.4829,22.762,南宁市,红星社区,细颗粒物(PM2.5),88,85,64,65,43,99,,38,38,35,40,10,8,0.9,0.8
2026-01-13T1400,4132A,108.2927,23.1477,南宁市,起凤路9号,细颗粒物(PM2.5),92,82,85,68,62,117,,46,46,12,37,5,3,0.7,0.7
2026-01-13T1400,4221A,108.2177,22.7774,南宁市,乐贤路16号,颗粒物(PM10),71,91,74,46,47,108,,48,48,15,39,10,5,0.7,0.7
2026-01-13T1400,2332A,118.1682,26.6371,南平市,南平市监测站,,38,38,49,23,29,108,,44,44,11,32,8,9,0.5,0.6
2026-01-13T1400,2334A,118.1757,26.6276,南平市,南平七中,,45,45,43,23,26,109,,48,48,10,28,9,9,0.6,0.7
2026-01-13T1400,1168A,120.9056,31.9669,南通市,狼山街道,细颗粒物(PM2.5),95,127,97,71,55,72,,29,29,45,65,15,9,1.2,0.9
2026-01-13T1400,1170A,120.8635,32.0231,南通市,城中,颗粒物(PM10),99,147,114,68,53,58,,27,27,77,75,30,14,2.0,1.1
2026-01-13T1400,1171A,120.9376,31.9301,南通市,星湖花园,颗粒物(PM10),88,126,105,64,55,83,,39,39,42,79,11,11,0.7,0.7
2026-01-13T1400,1172A,120.8053,32.046,南通市,紫琅学院,细颗粒物(PM2.5),102,151,106,76,49,40,,24,24,90,71,17,11,1.3,0.8
2026-01-13T1400,3291A,121.0631,32.0644,南通市,通州监测站,细颗粒物(PM2.5),85,114,102,63,54,78,,48,48,64,74,19,11,1.2,1
2026-01-13T1400,3432A,120.9348,31.9874,南通市,环境教育馆,细颗粒物(PM2.5),104,146,97,78,52,58,,31,31,89,68,40,13,3.1,1.2
2026-01-13T1400,4091A,120.8692,31.9885,南通市,洪江路,细颗粒物(PM2.5),108,120,90,81,58,50,,22,22,68,74,21,10,1.8,0.9
2026-01-13T1400,2404A,112.5338,33.0086,南阳市,瓦房庄,细颗粒物(PM2.5),94,100,120,70,87,91,,32,32,13,39,9,7,0.7,1.1
2026-01-13T1400,2405A,112.5002,32.9734,南阳市,汉画馆,细颗粒物(PM2.5),100,106,130,75,88,87,,31,31,18,40,8,7,0.7,0.9
2026-01-13T1400,2406A,112.5778,33.0144,南阳市,气象站,细颗粒物(PM2.5),98,118,132,73,75,91,,38,38,17,40,7,6,0.8,0.9
2026-01-13T1400,2407A,112.548,32.9687,南阳市,理工学院,细颗粒物(PM2.5),78,95,117,57,71,86,,36,36,19,46,7,7,0.7,0.8
2026-01-13T1400,4008A,112.5233,32.9921,南阳市,卧龙区政府,细颗粒物(PM2.5),102,122,143,76,81,88,,34,34,19,45,8,7,0.7,1.1
2026-01-13T1400,1234A,121.8352,29.9111,宁波市,区环保大楼,颗粒物(PM10),67,83,84,36,34,96,,41,41,32,78,10,8,0.4,0.7
2026-01-13T1400,1235A,121.5595,29.8208,宁波市,万里学院,,,70,85,37,43,110,,46,46,,58,6,5,,0.6
2026-01-13T1400,1236A,121.713,29.9564,宁波市,龙赛医院,细颗粒物(PM2.5),73,90,101,53,53,90,,37,37,29,61,5,4,0.6,0.7
2026-01-13T1400,1240A,121.5855,29.8635,宁波市,太古小学,细颗粒物(PM2.5),77,92,81,56,45,104,,47,47,32,54,6,5,0.7,0.8
2026-01-13T1400,1241A,121.5239,29.8673,宁波市,市环境监测中心,颗粒物(PM10),60,70,79,35,42,105,,40,40,20,62,8,8,0.6,0.8
2026-01-13T1400,2871A,121.6156,29.9015,宁波市,万里国际学校,细颗粒物(PM2.5),85,91,75,63,41,96,,35,35,50,59,9,5,0.5,0.7
2026-01-13T1400,3710A,121.5593,29.8976,宁波市,白沙活动中心,细颗粒物(PM2.5),64,76,74,46,42,93,,40,40,37,59,7,5,0.7,0.8
2026-01-13T1400,4095A,121.8962,29.7529,宁波市,中科路88号,细颗粒物(PM2.5),64,74,72,46,38,102,,61,61,37,51,8,6,0.3,0.3
2026-01-13T1400,2341A,119.5387,26.6611,宁德市,宁德市监测站,,48,48,44,19,21,99,,54,54,14,24,8,7,0.4,0.6
2026-01-13T1400,3209A,119.5231,26.6562,宁德市,宁德一中,,45,34,44,31,25,100,,62,62,16,19,7,6,0.3,0.5
2026-01-13T1400,2618A,98.859,25.8541,怒江傈僳族自治州,州监测站,,26,24,28,18,19,72,,46,46,8,11,8,8,0.4,0.4
2026-01-13T1400,2619A,98.8607,25.8168,怒江傈僳族自治州,泸水一中,,35,27,28,24,20,63,,28,28,7,18,6,6,0.5,0.7
2026-01-13T1400,1888A,101.6891,26.571,攀枝花市,弄弄坪,,50,50,48,33,30,94,,37,37,20,22,24,19,1.4,1.4
2026-01-13T1400,1889A,101.577,26.5914,攀枝花市,河门口,细颗粒物(PM2.5),62,70,56,44,38,95,,35,35,24,24,28,14,2.5,1
2026-01-13T1400,1891A,101.7365,26.4986,攀枝花市,仁和,细颗粒物(PM2.5),57,56,46,40,32,101,,41,41,21,22,32,13,1.7,1.1
2026-01-13T1400,2835A,101.7222,26.567,攀枝花市,四十中小,"颗粒物(PM10),细颗粒物(PM2.5)",54,57,54,38,31,81,,24,24,25,41,30,14,2.1,1.5
2026-01-13T1400,1604A,122.0303,41.1489,盘锦市,开发区,,23,17,47,8,25,71,,64,64,5,11,3,5,0.4,0.5
2026-01-13T1400,1605A,122.0486,41.0883,盘锦市,兴隆台,,20,19,38,8,21,63,,59,59,11,20,5,7,0.4,0.5
2026-01-13T1400,1606A,121.8297,41.1026,盘锦市,新生街道,,23,17,32,3,15,72,,61,61,6,23,6,7,0.3,0.5
2026-01-13T1400,1832A,113.3257,33.7423,平顶山市,新华旅馆,颗粒物(PM10),75,99,124,48,66,74,,31,31,31,50,14,9,0.5,0.8
2026-01-13T1400,1833A,113.2917,33.737,平顶山市,规划设计院,颗粒物(PM10),72,94,134,49,67,76,,31,31,21,46,14,9,0.7,1.1
2026-01-13T1400,1834A,113.182,33.7738,平顶山市,平顶山工学院,颗粒物(PM10),66,81,108,44,59,84,,36,36,19,34,14,12,0.4,0.5
2026-01-13T1400,3594A,112.8736,33.9068,平顶山市,石龙区,细颗粒物(PM2.5),93,127,115,69,48,90,,37,37,28,57,21,11,1.1,0.7
2026-01-13T1400,4116A,113.284,33.7139,平顶山市,姚电大道23号,颗粒物(PM10),83,116,143,48,66,82,,34,34,20,38,14,9,0.6,0.8
2026-01-13T1400,2656A,106.6633,35.5338,平凉市,聚贤嘉苑,,48,48,42,21,21,76,,60,60,17,22,12,14,0.8,0.7
2026-01-13T1400,2657A,106.7021,35.5307,平凉市,博物馆,颗粒物(PM10),52,54,48,22,26,72,,53,50,22,24,16,11,0.5,0.6
2026-01-13T1400,2348A,113.8384,27.6436,萍乡市,中医院,细颗粒物(PM2.5),102,124,157,76,95,120,,42,42,43,58,24,13,2.4,2.4
2026-01-13T1400,2350A,113.8677,27.6438,萍乡市,市环保局,细颗粒物(PM2.5),138,136,138,105,103,124,,44,44,39,51,31,19,2.0,1.8
2026-01-13T1400,2351A,113.8663,27.6202,萍乡市,安源区政府,细颗粒物(PM2.5),135,113,138,103,123,96,,34,34,34,41,20,14,1.5,1.6
2026-01-13T1400,4107A,113.8686,27.6668,萍乡市,联洪村委会,细颗粒物(PM2.5),107,103,157,80,110,112,,41,41,31,54,7,6,1.7,1.9
2026-01-13T1400,2319A,119.0142,25.4324,莆田市,荔城区仓后路,颗粒物(PM10),51,51,58,27,27,119,,68,68,15,24,/,/,/,/
2026-01-13T1400,2320A,119.0016,25.4553,莆田市,莆田市监测站,颗粒物(PM10),54,57,42,26,18,121,,78,78,14,14,4,4,0.5,0.5
2026-01-13T1400,2321A,119.112,25.4561,莆田市,涵江区六中,,,46,50,,14,121,,68,68,12,24,/,/,0.6,0.6
2026-01-13T1400,2322A,119.1014,25.3215,莆田市,秀屿区政府,,49,42,67,34,37,127,,69,69,11,27,4,4,0.4,0.6
2026-01-13T1400,2392A,115.0312,35.7636,濮阳市,环保局,细颗粒物(PM2.5),92,120,116,68,57,88,,44,44,38,49,15,11,1.1,1.2
2026-01-13T1400,3021A,115,35.7667,濮阳市,濮水河管理处,颗粒物(PM10),94,138,118,56,46,89,,45,45,37,50,16,9,0.9,1.1
2026-01-13T1400,4118A,115.0552,35.7816,濮阳市,中原东路68号,"颗粒物(PM10),细颗粒物(PM2.5)",100,150,130,75,60,96,,42,42,38,53,16,11,1.3,1.1
2026-01-13T1400,4216A,115.0923632,35.76857718,濮阳市,任丘路479号,细颗粒物(PM2.5),112,148,134,84,72,96,,42,42,44,55,18,12,0.8,1
2026-01-13T1400,2601A,100.9801,22.7634,普洱市,市环保局,,48,48,50,13,16,74,,36,36,4,9,5,5,0.4,0.5
2026-01-13T1400,2602A,100.9763,22.8237,普洱市,普洱第二中学,,44,44,42,19,22,77,,32,32,6,18,5,5,0.3,0.4
2026-01-13T1400,3345A,131.0413,45.7795,七台河市,中波台,颗粒物(PM10),61,72,56,27,45,53,,42,42,12,23,8,9,0.3,0.5
2026-01-13T1400,3637A,131.0136,45.7688,七台河市,人民广场,颗粒物(PM10),63,75,56,28,46,56,,41,41,12,27,7,8,0.5,0.6
2026-01-13T1400,3684A,130.8639,45.8144,七台河市,新建矿广场,,,63,56,33,36,54,,40,40,8,23,,6,0.3,0.5
2026-01-13T1400,1779A,123.9307,47.3641,齐齐哈尔市,安居小区,,24,24,42,15,35,51,,44,44,7,19,9,9,0.5,0.7
2026-01-13T1400,1780A,123.9497,47.3389,齐齐哈尔市,中心广场,,15,11,39,7,28,47,,42,41,7,16,7,6,0.5,0.7
2026-01-13T1400,1781A,123.9483,47.3229,齐齐哈尔市,农牧车辆厂,,19,19,40,12,29,50,,44,44,6,11,6,6,0.3,0.4
2026-01-13T1400,1783A,123.9442,47.2994,齐齐哈尔市,市环境监测站,,,,44,,30,52,,49,47,4,15,6,7,0.5,0.6
2026-01-13T1400,3662A,123.6341,47.2079,齐齐哈尔市,富区青少年活动中心,,23,23,41,9,29,53,,48,48,8,15,5,5,0.5,0.6
2026-01-13T1400,2591A,107.9765,26.5724,黔东南苗族侗族自治州,市环境监测站,细颗粒物(PM2.5),97,79,70,72,59,58,,21,21,21,26,7,3,0.9,0.6
2026-01-13T1400,2881A,107.8909,26.531,黔东南苗族侗族自治州,凯里学院,,,85,63,,49,58,,16,16,17,20,5,5,0.8,0.7
2026-01-13T1400,2593A,107.5223,26.2371,黔南布依族苗族自治州,小围寨,细颗粒物(PM2.5),64,48,43,46,40,90,,24,24,6,12,8,5,0.8,0.8
2026-01-13T1400,3538A,107.5175,26.2977,黔南布依族苗族自治州,沙坝,细颗粒物(PM2.5),73,58,53,53,43,84,,22,22,11,14,8,6,1.0,0.9
2026-01-13T1400,2589A,104.9022,25.0943,黔西南布依族苗族自治州,场坝街,细颗粒物(PM2.5),89,78,99,66,86,85,,24,24,17,23,7,22,0.6,0.8
2026-01-13T1400,2590A,104.8812,25.0994,黔西南布依族苗族自治州,坪东大道,细颗粒物(PM2.5),100,,89,75,84,85,,27,27,18,22,8,11,0.8,0.9
2026-01-13T1400,2502A,108.6238,21.9667,钦州市,市环保站,细颗粒物(PM2.5),67,70,101,48,50,128,,78,78,13,38,7,6,0.5,1.1
2026-01-13T1400,2503A,108.655,21.9481,钦州市,沙埠小学,细颗粒物(PM2.5),79,87,106,58,59,131,,66,66,25,50,10,8,1.4,1.6
2026-01-13T1400,2504A,108.5989,21.7435,钦州市,港区一小,细颗粒物(PM2.5),70,81,80,51,39,122,,77,77,20,37,9,7,0.6,0.7
2026-01-13T1400,3404A,108.5959,21.9634,钦州市,北职校,细颗粒物(PM2.5),77,73,81,56,49,125,,73,73,13,33,12,9,0.8,0.8
2026-01-13T1400,1046A,119.5247,39.9346,秦皇岛市,建设大厦,,,10,57,,34,70,,56,56,3,38,5,13,0.2,0.5
2026-01-13T1400,3132A,119.5979,39.938,秦皇岛市,文明里,,23,,60,9,27,71,,56,56,5,35,9,16,0.2,0.5
2026-01-13T1400,4066A,119.7458,39.9952,秦皇岛市,南园路157号,,24,11,60,6,24,74,,45,42,5,41,6,14,0.2,0.6
2026-01-13T1400,4067A,119.5131,39.8858,秦皇岛市,翠岛大街1号,,22,10,54,3,21,69,,56,55,4,26,10,15,0.3,0.6
2026-01-13T1400,4198A,119.509013,39.825305,秦皇岛市,北戴河轮滑馆,,24,9,62,8,31,75,,65,65,5,34,6,10,0.2,0.6
2026-01-13T1400,1310A,120.404,36.0625,青岛市,市南区东部子站,颗粒物(PM10),76,102,113,46,53,60,,33,33,25,58,14,17,0.9,1.1
2026-01-13T1400,1311A,120.362344,36.10282,青岛市,四方区子站,颗粒物(PM10),74,97,119,46,65,57,,31,31,28,56,9,12,0.9,1.2
2026-01-13T1400,1312A,120.294373,36.054183,青岛市,市南区西部子站,,,88,109,46,62,65,,27,27,,62,14,12,,1.1
2026-01-13T1400,1313A,120.4581,36.0858,青岛市,崂山区子站,颗粒物(PM10),74,97,104,46,48,66,,38,38,21,48,14,18,0.7,0.8
2026-01-13T1400,1315A,120.3945,36.3083,青岛市,城阳区子站,颗粒物(PM10),60,70,121,29,54,79,,39,39,27,60,10,16,0.9,1.5
2026-01-13T1400,3642A,120.3454,36.0735,青岛市,市北区南部,颗粒物(PM10),90,130,122,46,62,53,,24,24,28,60,6,9,0.9,1.1
2026-01-13T1400,3643A,120.3897,36.18,青岛市,李沧区北部,颗粒物(PM10),57,63,117,34,66,70,,32,32,26,58,11,17,0.9,1.3
2026-01-13T1400,4110A,120.5222,36.4089,青岛市,盟旺路653号,颗粒物(PM10),58,66,124,36,67,77,,37,37,22,56,4,14,0.5,1.1
2026-01-13T1400,4290A,120.196923,35.954556,青岛市,珠江路669号,,29,29,103,17,58,74,,32,32,26,62,12,18,0.6,1
2026-01-13T1400,4291A,120.0424,35.8656,青岛市,黄岛区人民政府广场,,48,48,135,17,67,77,,31,31,29,64,10,15,0.7,1.4
2026-01-13T1400,1703A,113.0218,23.7086,清远市,凤城街办,,48,48,64,32,39,126,,62,62,15,48,/,/,/,/
2026-01-13T1400,3025A,113.0479,23.6343,清远市,技师学院,,43,43,88,25,45,120,,50,50,16,71,10,12,0.5,0.7
2026-01-13T1400,3318A,112.9898,23.7403,清远市,清新太和,细颗粒物(PM2.5),59,60,52,42,33,128,,79,72,21,28,8,10,0.5,0.5
2026-01-13T1400,3455A,113.076,23.72,清远市,清城东城,,40,40,56,27,32,123,,63,63,13,35,/,/,/,/
2026-01-13T1400,2661A,107.6325,35.7357,庆阳市,庆阳五中,颗粒物(PM10),74,97,88,26,27,86,,72,60,7,21,4,7,0.3,0.6
2026-01-13T1400,2662A,107.6361,35.7067,庆阳市,市环保局,颗粒物(PM10),73,96,81,21,21,90,,78,72,7,15,6,10,0.4,0.5
2026-01-13T1400,1916A,103.7897,25.5036,曲靖市,环境监测站,,35,27,51,24,31,94,,59,59,8,22,4,4,0.5,0.8
2026-01-13T1400,1917A,103.8013,25.5357,曲靖市,烟厂办公区,颗粒物(PM10),52,53,59,25,34,84,,54,54,9,24,4,5,0.5,0.7
2026-01-13T1400,3376A,103.7926,25.4651,曲靖市,南苑二区,,45,,48,31,35,95,,57,57,4,12,6,4,0.1,0.3
2026-01-13T1400,3377A,103.7442,25.5259,曲靖市,曲靖师范学院,,30,27,47,15,35,95,,50,50,8,30,4,3,0.3,0.6
2026-01-13T1400,1264A,118.8694,28.94,衢州市,环保大楼,颗粒物(PM10),59,67,74,37,37,112,,55,55,16,40,/,/,/,/
2026-01-13T1400,1266A,118.8622,28.9809,衢州市,衢州学院,颗粒物(PM10),61,72,66,32,25,98,,50,50,22,41,13,11,0.7,0.7
2026-01-13T1400,4097A,118.9646,28.9832,衢州市,衢州三中,颗粒物(PM10),57,64,73,36,38,103,,54,54,17,36,9,13,0.7,0.8
2026-01-13T1400,1611A,118.5818,24.9116,泉州市,涂山街,,47,47,69,29,32,116,,66,66,15,30,4,4,0.4,0.5
2026-01-13T1400,1612A,118.597,24.8976,泉州市,津头埔,颗粒物(PM10),54,57,68,33,34,116,,65,65,21,32,6,5,0.6,0.7
2026-01-13T1400,1613A,118.6669,24.9422,泉州市,万安,颗粒物(PM10),60,70,76,39,32,125,,63,63,21,40,4,3,0.7,0.7
2026-01-13T1400,4105A,118.6355,24.9148,泉州市,霞新路6号,颗粒物(PM10),53,56,63,33,28,127,,,,20,42,/,/,0.5,0.5
2026-01-13T1400,2626A,88.8873,29.2723,日喀则市,日喀则监测站,,24,15,39,9,17,75,,35,35,3,20,13,16,0.3,0.6
2026-01-13T1400,3726A,88.8775,29.2425,日喀则市,林业技术推广中心,,25,14,32,11,22,79,,41,41,6,13,8,10,0.3,0.6
2026-01-13T1400,1659A,119.4711,35.421,日照市,监测站,颗粒物(PM10),71,92,128,38,73,63,,30,30,28,59,13,18,0.8,1.4
2026-01-13T1400,1660A,119.523,35.4216,日照市,市政府广场,细颗粒物(PM2.5),83,112,115,61,66,59,,39,39,38,56,16,18,0.7,0.8
2026-01-13T1400,1661A,119.5511,35.4113,日照市,港务局,细颗粒物(PM2.5),104,139,131,78,78,55,,31,31,47,65,15,15,1.1,1.1
2026-01-13T1400,3507A,119.5326,35.4627,日照市,职业技术学院,颗粒物(PM10),80,110,116,44,57,65,,44,44,36,56,14,15,0.9,1
2026-01-13T1400,3604A,119.3267,35.1043,日照市,岚山环保分局,颗粒物(PM10),81,112,139,53,74,55,,37,37,43,61,17,29,1.0,1.6
2026-01-13T1400,1835A,111.1922,34.7752,三门峡市,市政府,细颗粒物(PM2.5),85,94,78,63,49,68,,21,21,35,50,14,16,0.8,0.9
2026-01-13T1400,1836A,111.1588,34.794,三门峡市,开发区,细颗粒物(PM2.5),83,102,101,61,54,57,,26,26,32,40,13,10,0.7,0.8
2026-01-13T1400,3039A,111.1911,34.7829,三门峡市,三门峡市第一小学,细颗粒物(PM2.5),82,105,91,60,52,59,,23,23,36,41,12,10,0.8,0.8
2026-01-13T1400,3598A,111.1031,34.719,三门峡市,富达温泉假日酒店,细颗粒物(PM2.5),87,85,95,64,56,69,,24,24,44,44,18,18,0.7,1
2026-01-13T1400,2324A,117.621,26.2626,三明市,三钢,,44,44,52,28,40,111,,48,48,16,40,13,14,1.4,1.9
2026-01-13T1400,2325A,117.6352,26.2714,三明市,三明二中,,43,43,48,25,35,104,,45,45,11,35,14,15,0.9,1.6
2026-01-13T1400,2326A,117.6028,26.2377,三明市,三元区政府,,46,42,52,32,34,97,,47,47,31,34,31,11,2.9,1.1
2026-01-13T1400,1877A,109.4962,18.2682,三亚市,河西子站,,,19,48,16,22,114,,89,89,11,20,1,5,,0.6
2026-01-13T1400,3540A,109.7348,18.3443,三亚市,君悦子站,颗粒物(PM10),52,54,47,18,20,111,,78,78,6,15,4,5,0.6,0.6
2026-01-13T1400,4135A,109.1714,18.3739,三亚市,城东小学站,,40,40,39,19,32,114,,83,83,8,11,/,/,/,/
2026-01-13T1400,2624A,91.7592,29.234,山南市,山南监测站,,,18,20,,,72,,43,43,6,10,4,4,0.3,0.4
2026-01-13T1400,2625A,91.7701,29.2436,山南市,山南人民医院,,22,13,20,3,11,68,,43,42,7,11,6,2,0.3,0.4
2026-01-13T1400,1674A,116.6795,23.3666,汕头市,金平子站,"颗粒物(PM10),细颗粒物(PM2.5)",82,114,80,60,49,169,,70,70,52,49,17,11,1.5,1.2
2026-01-13T1400,1675A,116.7248,23.3632,汕头市,龙湖子站,颗粒物(PM10),63,75,72,36,33,146,,71,71,30,37,15,13,/,/
2026-01-13T1400,1676A,116.7257,23.2774,汕头市,濠江子站,颗粒物(PM10),61,71,68,40,38,138,,70,70,29,38,13,11,/,/
2026-01-13T1400,1677A,116.7518,23.4712,汕头市,澄海子站,颗粒物(PM10),63,75,73,31,39,143,,84,84,18,30,11,9,0.6,0.7
2026-01-13T1400,1678A,116.6088,23.2539,汕头市,潮阳子站,颗粒物(PM10),60,70,67,31,37,155,,74,74,25,27,13,10,0.8,0.7
2026-01-13T1400,3444A,116.4539,23.2684,汕头市,潮南峡山,,47,47,84,24,46,134,,76,76,14,29,11,10,0.6,0.7
2026-01-13T1400,3624A,116.4069,23.2533,汕头市,潮南子站,颗粒物(PM10),59,68,112,30,52,133,,62,62,18,35,10,9,/,/
2026-01-13T1400,1693A,115.3653,22.7751,汕尾市,市环保局,颗粒物(PM10),64,78,74,33,48,120,,78,78,24,23,8,8,0.7,0.7
2026-01-13T1400,1695A,115.362,22.7926,汕尾市,新城中学,颗粒物(PM10),65,80,69,42,46,135,,79,79,23,26,6,6,0.8,0.8
2026-01-13T1400,2645A,109.9155,33.8714,商洛市,监测站,,49,49,38,24,18,59,,34,34,32,26,17,4,0.6,0.5
2026-01-13T1400,3045A,109.9647,33.8486,商洛市,商州区中学,颗粒物(PM10),61,71,45,18,20,68,,26,26,25,34,27,7,0.6,0.6
2026-01-13T1400,2408A,115.6701,34.4283,商丘市,环境监测站,颗粒物(PM10),83,115,109,49,59,74,,37,37,28,42,10,5,0.6,0.6
2026-01-13T1400,2409A,115.6458,34.4047,商丘市,粮食局,颗粒物(PM10),87,123,120,46,53,66,,33,33,21,34,9,5,0.4,0.4
2026-01-13T1400,3171A,115.6069,34.4465,商丘市,梁园区档案局,颗粒物(PM10),79,107,112,45,51,74,,34,34,19,38,10,7,0.5,0.5
2026-01-13T1400,4119A,115.6701,34.3767,商丘市,北海东路185号,颗粒物(PM10),85,120,121,39,46,69,,34,34,22,43,9,4,0.6,0.5
2026-01-13T1400,4120A,115.6172,34.3704,商丘市,中山大街3号,颗粒物(PM10),80,110,136,36,53,71,,27,27,21,46,10,6,0.3,0.4
2026-01-13T1400,1141A,121.401,31.2382,上海市,普陀,细颗粒物(PM2.5),87,109,97,64,53,74,,32,32,47,70,12,10,0.9,0.8
2026-01-13T1400,1142A,121.4774,31.2043,上海市,十五厂,细颗粒物(PM2.5),89,110,95,66,49,72,,34,34,53,74,14,11,1.0,0.9
2026-01-13T1400,1143A,121.4673,31.3011,上海市,虹口,颗粒物(PM10),83,115,103,59,47,60,,32,32,53,65,12,11,0.8,0.7
2026-01-13T1400,1147A,121.4253,31.226,上海市,静安监测站,细颗粒物(PM2.5),82,110,92,60,46,75,,37,37,53,69,13,10,0.7,0.7
2026-01-13T1400,1148A,121.7029,31.1905,上海市,浦东川沙,细颗粒物(PM2.5),83,113,106,61,48,62,,30,30,58,66,11,10,1.1,0.7
2026-01-13T1400,1149A,121.5339,31.229,上海市,浦东新区监测站,细颗粒物(PM2.5),93,111,97,69,53,62,,34,34,64,64,12,12,1.1,0.9
2026-01-13T1400,1150A,121.5776,31.2038,上海市,浦东张江,颗粒物(PM10),83,116,108,60,50,70,,33,33,59,66,12,12,0.8,0.7
2026-01-13T1400,3265A,121.4242,31.3303,上海市,宝山庙行,颗粒物(PM10),80,110,101,55,46,63,,29,29,52,68,12,10,0.7,0.5
2026-01-13T1400,3266A,121.8789,31.4662,上海市,崇明上实东滩,细颗粒物(PM2.5),84,112,101,62,53,89,,52,52,39,59,9,7,0.9,0.9
2026-01-13T1400,3268A,121.316,31.2839,上海市,嘉定南翔,颗粒物(PM10),76,102,101,55,53,75,,32,32,46,76,10,8,0.7,0.7
2026-01-13T1400,3269A,121.3357,30.7455,上海市,金山新城,细颗粒物(PM2.5),74,71,75,54,47,86,,42,42,42,55,14,15,0.5,0.5
2026-01-13T1400,3270A,121.4996,31.0741,上海市,闵行浦江,细颗粒物(PM2.5),82,101,94,60,48,73,,29,29,52,74,13,10,0.7,0.6
2026-01-13T1400,3271A,121.2886,31.1663,上海市,青浦徐泾,细颗粒物(PM2.5),73,84,93,53,49,90,,37,37,27,73,9,8,0.8,0.9
2026-01-13T1400,3272A,121.2193,31.0382,上海市,松江图书馆,颗粒物(PM10),76,101,100,54,48,94,,35,35,33,76,10,9,0.7,0.7
2026-01-13T1400,3273A,121.3904,31.206,上海市,长宁仙霞,颗粒物(PM10),82,113,95,59,50,72,,29,29,54,76,13,10,0.6,0.7
2026-01-13T1400,3274A,121.7964,31.0507,上海市,浦东惠南,细颗粒物(PM2.5),82,100,96,60,48,80,,38,38,36,64,10,7,0.6,0.6
