timepoint,stationcode,longitude,latitude,area,positionname,primarypollutant,aqi,pm10,pm10_24h,pm2_5,pm2_5_24h,o3,o3_24h,o3_8h,o3_8h_24h,no2,no2_24h,so2,so2_24h,co,co_24h
2026-01-13T0900,2568A,102.2503,31.8896,阿坝藏族羌族自治州,马师校,,26,19,17,18,15,25,,35,34,22,13,4,4,0.6,0.5
2026-01-13T0900,3994A,102.2174,31.9016,阿坝藏族羌族自治州,马尔康中学西区,,,,12,12,15,35,,38,38,,13,5,5,0.5,0.5
2026-01-13T0900,2695A,80.2899,41.1684,阿克苏地区,电视台,细颗粒物(PM2.5),94,120,134,70,86,9,,9,9,56,53,2,3,1.9,2.2
2026-01-13T0900,2696A,80.2592,41.1541,阿克苏地区,艺术中心,细颗粒物(PM2.5),113,124,132,85,93,8,,10,10,45,55,4,6,1.6,1.5
2026-01-13T0900,2205A,105.699,38.8409,阿拉善盟,蒙二幼,细颗粒物(PM2.5),52,39,90,36,26,32,,70,66,43,11,10,9,1.2,0.6
2026-01-13T0900,2206A,105.7198,38.8508,阿拉善盟,环保局新楼,,25,12,85,3,20,78,,81,80,8,5,8,7,0.6,0.6
2026-01-13T0900,2708A,88.1266,47.8515,阿勒泰地区,市站,,19,17,18,3,8,60,,46,46,14,39,3,6,0.5,0.6
2026-01-13T0900,4166A,88.1198,47.7931,阿勒泰地区,阿勒泰路33号,,20,,16,14,8,62,,59,59,14,32,3,8,0.6,0.6
2026-01-13T0900,2630A,80.1171,32.4999,阿里地区,阿里监测站,,19,6,3,3,3,58,,39,39,6,16,6,8,0.4,0.6
2026-01-13T0900,3192A,80.0906,32.5029,阿里地区,阿里藏医院,,22,18,17,15,10,57,,39,38,12,14,15,13,1.3,0.8
2026-01-13T0900,2644A,109.0088,32.6974,安康市,汉滨区检察院,细颗粒物(PM2.5),62,50,69,44,53,7,,18,16,21,25,5,5,0.7,0.8
2026-01-13T0900,4054A,109.0324,32.6913,安康市,市邮政管理局,细颗粒物(PM2.5),79,65,91,58,69,9,,13,13,24,36,8,8,0.9,1
2026-01-13T0900,2291A,117.0806,30.5181,安庆市,环科院,细颗粒物(PM2.5),87,95,76,64,46,11,,8,7,48,39,9,8,0.6,0.4
2026-01-13T0900,2292A,117.0331,30.5118,安庆市,马山宾馆,细颗粒物(PM2.5),88,93,79,65,48,15,,16,15,42,38,8,8,0.6,0.5
2026-01-13T0900,2294A,116.9897,30.6146,安庆市,安庆大学,细颗粒物(PM2.5),92,103,80,68,46,29,,35,32,38,28,9,9,0.6,0.6
2026-01-13T0900,3173A,117.0598,30.5351,安庆市,市人大,细颗粒物(PM2.5),89,95,78,66,47,20,,20,18,43,36,14,14,0.6,0.4
2026-01-13T0900,3123A,105.9408,26.2431,安顺市,凤凰山,细颗粒物(PM2.5),148,132,78,113,66,7,,6,6,48,33,167,54,2.4,1.1
2026-01-13T0900,3124A,105.9443,26.2567,安顺市,金钟山,细颗粒物(PM2.5),129,100,67,98,64,10,,28,25,34,22,94,36,1.9,0.9
2026-01-13T0900,3125A,105.8983,26.248,安顺市,娄家坡,细颗粒物(PM2.5),107,96,70,80,62,42,,50,50,21,20,31,26,1.1,1
2026-01-13T0900,1819A,114.3552,36.1017,安阳市,红庙街,颗粒物(PM10),81,112,106,45,34,16,,16,16,36,35,3,8,1.3,1.3
2026-01-13T0900,1820A,114.361,36.0681,安阳市,银杏小区,颗粒物(PM10),81,112,96,43,39,12,,31,27,40,26,7,7,1.0,0.6
2026-01-13T0900,3141A,114.3921,36.0879,安阳市,信访局,,,112,104,40,38,20,,22,22,,28,6,12,1.1,1.1
2026-01-13T0900,3669A,114.4706,36.0634,安阳市,左辅环卫站,颗粒物(PM10),89,127,111,62,59,19,,17,15,38,36,8,11,0.9,0.9
2026-01-13T0900,4117A,114.2918,36.0769,安阳市,钢三路198号,颗粒物(PM10),80,110,115,28,30,20,,33,30,28,25,7,5,0.7,0.5
2026-01-13T0900,1748A,123.0441,41.1201,鞍山市,深沟寺,,22,22,43,10,23,54,,48,48,12,24,12,11,0.7,0.8
2026-01-13T0900,1749A,123.011,41.0931,鞍山市,太阳城,,29,29,42,18,22,49,,51,51,22,26,33,18,1.9,0.9
2026-01-13T0900,1750A,123.0483,41.1445,鞍山市,太平,,40,40,72,18,28,47,,47,47,19,27,12,14,0.9,0.8
2026-01-13T0900,1751A,122.964,41.0968,鞍山市,铁西三道街,细颗粒物(PM2.5),79,80,53,58,28,35,,48,48,40,30,21,20,1.4,1.3
2026-01-13T0900,1753A,123.0219,41.0822,鞍山市,明达新区,,23,23,40,14,22,43,,49,49,24,23,30,15,1.6,0.6
2026-01-13T0900,4201A,122.944647,41.082639,鞍山市,兴盛南路290号,细颗粒物(PM2.5),114,102,59,86,34,21,,44,42,51,33,17,17,1.6,0.9
2026-01-13T0900,2195A,107.4206,40.7609,巴彦淖尔市,附二中,颗粒物(PM10),51,52,94,27,35,54,,48,48,9,10,2,3,0.5,0.5
2026-01-13T0900,2196A,107.37,40.7372,巴彦淖尔市,市环保大楼,颗粒物(PM10),61,72,96,16,27,58,,50,50,8,11,4,4,0.4,0.5
2026-01-13T0900,1956A,86.1476,41.7529,巴音郭楞蒙古自治州,孔雀公园,细颗粒物(PM2.5),78,81,99,57,66,42,,26,26,33,47,7,8,1.0,1
2026-01-13T0900,1957A,86.1971,41.7166,巴音郭楞蒙古自治州,棉纺厂,细颗粒物(PM2.5),95,121,137,71,62,24,,14,14,51,64,/,/,/,/
2026-01-13T0900,1958A,86.236,41.7172,巴音郭楞蒙古自治州,经济开发区,细颗粒物(PM2.5),72,81,94,52,52,44,,32,32,28,37,5,6,0.8,0.8
2026-01-13T0900,3181A,106.776805,31.852614,巴中市,市五中,细颗粒物(PM2.5),92,93,95,68,72,3,,12,12,25,29,5,5,1.2,1.2
2026-01-13T0900,3183A,106.7419,31.8654,巴中市,圣泉水务公司,细颗粒物(PM2.5),82,79,86,60,66,8,,12,12,30,38,4,5,0.6,0.7
2026-01-13T0900,3616A,106.7617,31.8343,巴中市,市中心医院,细颗粒物(PM2.5),89,83,97,66,77,2,,1,1,25,36,6,7,1.2,1.2
2026-01-13T0900,2235A,122.7909,45.608,白城市,洮北区环保局,,32,32,32,21,22,39,,50,48,21,16,6,7,0.3,0.3
2026-01-13T0900,2236A,122.8741,45.5725,白城市,市环保局,,32,31,28,22,22,44,,51,49,12,11,7,4,0.3,0.3
2026-01-13T0900,2231A,126.4219,41.9172,白山市,喜丰,,22,22,36,11,17,60,,60,60,8,16,16,19,0.5,0.8
2026-01-13T0900,2232A,126.4082,41.9416,白山市,环保局,,19,15,28,8,21,59,,59,58,10,17,9,11,0.7,1
2026-01-13T0900,2647A,104.1727,36.5448,白银市,第三小学,颗粒物(PM10),97,144,93,44,46,6,,28,25,59,48,41,23,1.2,1
2026-01-13T0900,2648A,104.1467,36.5482,白银市,动力公司,颗粒物(PM10),83,116,84,28,41,19,,40,39,31,31,2,15,0.8,1
2026-01-13T0900,2512A,106.6102,23.901,百色市,市监测站,细颗粒物(PM2.5),60,,78,43,59,9,,14,11,24,28,7,14,0.6,0.7
2026-01-13T0900,2513A,106.6524,23.8842,百色市,市中心血站,细颗粒物(PM2.5),70,66,108,51,83,8,,3,3,32,50,7,17,0.8,1.1
2026-01-13T0900,4133A,106.6273,23.8798,百色市,龙景西路,细颗粒物(PM2.5),64,57,130,46,70,7,,8,6,27,39,7,18,0.7,0.9
2026-01-13T0900,2270A,117.396,32.9389,蚌埠市,工人疗养院,细颗粒物(PM2.5),103,143,112,77,51,40,,43,43,48,33,8,7,0.9,0.6
2026-01-13T0900,2271A,117.3606,32.9428,蚌埠市,百货大楼,,,132,101,74,51,,,38,38,50,33,9,8,0.9,0.6
2026-01-13T0900,2273A,117.4183,32.8909,蚌埠市,蚌埠学院,细颗粒物(PM2.5),114,134,113,86,54,35,,32,30,46,34,10,7,0.9,0.5
2026-01-13T0900,2274A,117.3534,32.9672,蚌埠市,淮上区政府,细颗粒物(PM2.5),103,127,111,77,54,52,,46,46,40,35,5,5,0.9,0.7
2026-01-13T0900,2275A,117.3143,32.8977,蚌埠市,高新区,细颗粒物(PM2.5),122,153,117,92,60,22,,16,16,59,40,9,8,0.6,0.4
2026-01-13T0900,3715A,117.3091,32.9314,蚌埠市,蚌埠田家炳中学,细颗粒物(PM2.5),117,159,123,88,60,34,,30,30,50,40,14,12,0.8,0.5
2026-01-13T0900,1585A,109.8761,40.6533,包头市,市环境监测站,颗粒物(PM10),72,94,128,26,30,3,,16,13,50,36,10,11,1.4,1.1
2026-01-13T0900,1587A,109.9992,40.5843,包头市,包头八中,细颗粒物(PM2.5),95,128,152,71,57,5,,6,5,58,46,16,12,2.2,1.1
2026-01-13T0900,1589A,109.8641,40.6288,包头市,惠龙物流,颗粒物(PM10),69,87,139,38,43,4,,9,8,52,42,15,17,1.6,1.3
2026-01-13T0900,1590A,110.0376,40.5546,包头市,东河鸿龙湾,颗粒物(PM10),96,142,157,54,39,7,,6,4,64,48,10,10,1.9,1.1
2026-01-13T0900,3283A,109.9154,40.5684,包头市,滨河大厦,,,80,154,26,48,2,,3,3,55,39,,11,1.6,0.9
2026-01-13T0900,3419A,109.9449,40.6259,包头市,包头市委党校,"颗粒物(PM10),细颗粒物(PM2.5)",72,94,117,52,38,3,,4,4,56,44,10,11,1.6,0.9
2026-01-13T0900,3683A,109.8332,40.6577,包头市,昆区政府,颗粒物(PM10),66,82,127,37,42,6,,23,21,57,41,15,17,1.5,1.3
2026-01-13T0900,1931A,107.0802,34.3129,宝鸡市,竹园沟,,32,32,34,21,26,19,,29,28,20,15,5,5,0.4,0.3
2026-01-13T0900,1933A,107.1429,34.3549,宝鸡市,监测站,颗粒物(PM10),60,69,54,42,36,4,,19,16,41,33,4,4,1.1,0.6
2026-01-13T0900,1934A,107.1172,34.3759,宝鸡市,技工学校,颗粒物(PM10),51,52,59,31,34,11,,23,21,38,25,6,5,1.0,0.6
2026-01-13T0900,1936A,107.2025,34.3518,宝鸡市,文理学院,,41,41,53,22,33,26,,28,28,27,34,8,5,0.4,0.5
2026-01-13T0900,1937A,107.2396,34.3626,宝鸡市,三迪小学,颗粒物(PM10),51,52,64,25,39,4,,12,12,52,47,4,4,0.8,0.6
2026-01-13T0900,4155A,107.1721,34.3558,宝鸡市,滨河北路,,43,43,51,19,28,8,,21,18,40,29,5,5,0.7,0.5
2026-01-13T0900,4308A,107.3898,34.3601,宝鸡市,陈仓区北开路21号,细颗粒物(PM2.5),60,61,82,43,50,37,,43,43,38,46,97,50,1.0,0.6
2026-01-13T0900,1051A,115.4803,38.8568,保定市,游泳馆,颗粒物(PM10),54,58,101,30,55,19,,6,6,54,60,3,9,0.6,0.9
2026-01-13T0900,1052A,115.509,38.8895,保定市,华电二区,细颗粒物(PM2.5),59,64,94,42,60,6,,1,1,54,58,4,5,1.1,1.2
2026-01-13T0900,1053A,115.4588,38.9037,保定市,接待中心,颗粒物(PM10),61,71,99,38,57,12,,3,3,57,59,2,3,0.7,0.7
2026-01-13T0900,1054A,115.4484,38.8344,保定市,地表水厂,颗粒物(PM10),68,85,115,38,57,15,,7,7,64,62,2,4,0.6,0.7
2026-01-13T0900,3581A,115.3136,38.9511,保定市,满城区生态环境分局,颗粒物(PM10),68,85,134,46,83,7,,2,2,71,69,4,6,1.2,1.3
2026-01-13T0900,3582A,115.4709,38.7628,保定市,清苑区第二中学,颗粒物(PM10),77,103,132,43,60,18,,7,7,53,55,8,12,0.7,0.8
2026-01-13T0900,3583A,115.6231,39.0223,保定市,徐水物探局,颗粒物(PM10),75,99,133,54,65,8,,3,3,45,50,5,7,0.9,0.9
2026-01-13T0900,4004A,115.4199,38.8665,保定市,双鹰农机,细颗粒物(PM2.5),69,84,117,50,51,19,,9,9,52,53,6,7,0.6,0.8
2026-01-13T0900,4034A,115.515,38.8589,保定市,植保所站,细颗粒物(PM2.5),64,65,97,46,60,10,,1,1,54,58,3,4,0.8,0.9
2026-01-13T0900,2594A,99.1589,25.1137,保山市,市环境监测站,,40,,24,28,20,32,,45,42,12,9,3,4,0.5,0.3
2026-01-13T0900,2595A,99.1616,25.1381,保山市,市环保局,,23,23,26,14,17,35,,50,47,8,7,4,4,0.4,0.4
2026-01-13T0900,1867A,109.1435,21.4085,北海市,海滩公园,细颗粒物(PM2.5),70,72,57,51,33,60,,72,70,35,21,11,10,0.9,0.9
2026-01-13T0900,1868A,109.0983,21.466,北海市,新市环保局,细颗粒物(PM2.5),77,69,57,56,40,59,,79,75,30,22,7,6,0.7,0.6
2026-01-13T0900,1869A,109.1775,21.5232,北海市,北海工业园,细颗粒物(PM2.5),77,79,59,56,40,49,,60,55,39,20,9,9,0.7,0.6
2026-01-13T0900,3400A,109.1844,21.4396,北海市,龙潭自来水厂,细颗粒物(PM2.5),88,87,61,65,41,38,,38,35,27,18,8,8,1.1,0.9
2026-01-13T0900,1001A,116.3611,39.8786,北京市,万寿西宫,,50,50,56,19,25,17,,43,40,59,45,2,2,0.6,0.6
2026-01-13T0900,1003A,116.4174,39.9289,北京市,东四,,33,33,49,12,22,21,,45,42,48,37,4,5,0.3,0.3
2026-01-13T0900,1004A,116.4073,39.8858,北京市,天坛,,37,37,48,13,22,15,,50,44,40,36,1,3,0.5,0.5
2026-01-13T0900,1005A,116.4622,39.9364,北京市,农展馆,,15,12,49,3,17,46,,47,47,21,36,4,4,0.6,0.7
2026-01-13T0900,1006A,116.3399,39.9293,北京市,官园,颗粒物(PM10),54,57,56,22,24,11,,40,36,58,37,4,5,0.6,0.5
2026-01-13T0900,1007A,116.2879,39.9613,北京市,海淀万柳,,47,47,50,18,18,10,,25,21,64,46,3,3,0.7,0.6
2026-01-13T0900,1008A,116.6635,40.1349,北京市,顺义新城,,19,19,40,7,16,55,,69,67,18,18,3,3,0.5,0.5
2026-01-13T0900,1009A,116.6275,40.327,北京市,怀柔镇,,18,16,28,7,11,57,,64,63,13,13,7,7,0.2,0.2
2026-01-13T0900,1010A,116.2295,40.217,北京市,昌平镇,,20,20,30,13,13,32,,36,31,35,21,5,5,0.6,0.6
2026-01-13T0900,1011A,116.3968,39.982,北京市,奥体中心,,31,31,41,9,17,17,,39,35,51,38,3,4,0.8,0.7
2026-01-13T0900,3418A,116.8336,40.4095,北京市,密云新城,,21,11,25,3,11,67,,70,70,2,8,4,4,0.3,0.3
2026-01-13T0900,3671A,116.0879,39.9725,北京市,门头沟三家店,,36,36,39,12,11,35,,18,14,32,24,3,3,0.4,0.4
2026-01-13T0900,3672A,116.1507,39.8246,北京市,丰台云岗,颗粒物(PM10),54,58,69,30,28,17,,28,22,51,39,2,2,0.5,0.5
2026-01-13T0900,3674A,115.9578,39.7602,北京市,房山燕山,,41,41,63,20,27,28,,33,30,33,29,5,6,0.5,0.4
2026-01-13T0900,3675A,116.4669,39.7734,北京市,大兴旧宫,,20,20,55,7,21,23,,36,33,26,40,2,3,0.4,0.5
2026-01-13T0900,3694A,115.9859,40.4562,北京市,延庆石河营,,17,17,26,7,8,39,,69,65,27,7,3,3,0.5,0.4
2026-01-13T0900,3695A,116.6151,40.3052,北京市,怀柔新城,,19,13,28,7,10,59,,64,64,10,12,5,5,0.3,0.3
2026-01-13T0900,3696A,116.2542,39.8764,北京市,丰台小屯,颗粒物(PM10),57,64,57,28,22,5,,22,16,57,43,4,5,0.7,0.6
2026-01-13T0900,3697A,116.8399,40.3843,北京市,密云镇,,22,11,26,3,10,68,,69,68,5,13,2,1,0.3,0.4
2026-01-13T0900,4057A,115.9423,40.4431,北京市,延庆百泉,,25,25,27,9,9,50,,58,56,11,6,3,3,0.5,0.4
2026-01-13T0900,4058A,116.6598,39.9164,北京市,通州新华,,21,14,57,7,23,30,,30,30,41,52,3,4,0.4,0.5
2026-01-13T0900,4182A,116.1942,39.9158,北京市,石景山八角,,,,54,,18,,,40,32,,34,,2,,0.3
2026-01-13T0900,4194A,117.078628,40.151726,北京市,平谷新城,,24,24,36,10,14,50,,65,63,15,15,3,2,0.4,0.4
2026-01-13T0900,1761A,123.8274146,41.31234549,本溪市,大峪,,24,24,36,13,17,46,,44,44,14,21,12,10,0.8,0.8
2026-01-13T0900,1763A,123.7169,41.3094,本溪市,彩屯,,24,24,46,11,28,55,,53,53,12,28,9,12,0.5,1.6
2026-01-13T0900,1764A,123.7672166,41.28649327,本溪市,东明,,18,,34,10,19,56,,56,56,8,17,10,9,0.7,0.8
2026-01-13T0900,1765A,123.799345,41.266614,本溪市,新立屯,,17,12,32,10,18,53,,53,53,9,21,13,11,0.8,0.9
2026-01-13T0900,1766A,123.829144,41.336777,本溪市,威宁,颗粒物(PM10),51,51,38,25,22,31,,36,34,34,29,8,8,0.8,0.7
2026-01-13T0900,2587A,105.287,27.3133,毕节市,八中,细颗粒物(PM2.5),94,86,86,70,66,12,,17,16,17,19,10,11,1.2,1
2026-01-13T0900,2588A,105.3079,27.2987,毕节市,师专,细颗粒物(PM2.5),114,108,96,86,72,6,,3,3,24,34,8,8,1.3,1
2026-01-13T0900,4263A,105.3688,27.3598,毕节市,工业大道,细颗粒物(PM2.5),117,110,95,88,71,5,,8,7,26,26,9,11,/,/
2026-01-13T0900,1629A,117.9961,37.3604,滨州市,第二水厂,颗粒物(PM10),79,107,101,52,48,13,,10,10,55,49,14,15,1.4,0.9
2026-01-13T0900,1630A,117.9789,37.3931,滨州市,北中新校,颗粒物(PM10),76,102,96,51,51,8,,2,2,59,56,10,9,1.2,1
2026-01-13T0900,3514A,117.9379,37.3959,滨州市,中海酒店,颗粒物(PM10),73,95,100,51,54,18,,11,11,48,49,12,13,1.1,1
2026-01-13T0900,3515A,117.9381509,37.35547456,滨州市,开发区一中,颗粒物(PM10),80,110,104,48,50,18,,12,12,44,42,16,19,1.3,0.9
2026-01-13T0900,3516A,118.0914,37.6938,滨州市,金海六路,颗粒物(PM10),72,93,106,44,46,31,,17,17,49,53,4,9,0.8,1
2026-01-13T0900,4028A,117.9955,37.3752,滨州市,滨州市西街道办事处,"颗粒物(PM10),细颗粒物(PM2.5)",79,107,112,58,60,11,,8,8,48,45,12,13,1.4,1.1
2026-01-13T0900,2311A,115.8071,33.8399,亳州市,污水处理厂,细颗粒物(PM2.5),95,115,106,71,47,15,,32,29,40,28,6,4,0.7,0.4
2026-01-13T0900,2312A,115.7789,33.8519,亳州市,三国揽胜宫,细颗粒物(PM2.5),113,126,111,85,58,23,,38,35,37,27,4,4,0.8,0.5
2026-01-13T0900,3332A,115.7631,33.803,亳州市,亳州学院,细颗粒物(PM2.5),95,110,102,71,51,36,,41,40,29,25,6,4,0.8,0.5
2026-01-13T0900,2693A,82.0482,44.8553,博尔塔拉蒙古自治州,市党校,颗粒物(PM10),51,52,99,7,54,61,,51,51,16,31,2,6,0.3,0.7
2026-01-13T0900,2694A,82.0805,44.8966,博尔塔拉蒙古自治州,市环保局,,44,44,110,19,54,36,,30,30,20,37,8,11,0.8,1.3
2026-01-13T0900,1071A,116.8733,38.2922,沧州市,沧县城建局,,,93,104,49,60,,,8,8,64,60,6,9,0.9,0.8
2026-01-13T0900,1072A,116.8462,38.3189,沧州市,电视转播站,颗粒物(PM10),72,93,104,39,61,7,,1,1,63,57,7,7,1.0,0.9
2026-01-13T0900,1073A,116.8588,38.3161,沧州市,市环保局,颗粒物(PM10),71,91,107,47,60,8,,5,5,54,51,9,9,1.0,0.9
2026-01-13T0900,3324A,116.8011,38.294,沧州市,河北水利电力学院,颗粒物(PM10),53,56,102,22,44,29,,11,11,38,55,6,7,0.7,0.7
2026-01-13T0900,2622A,97.1813,31.1289,昌都市,昌都监测站,,18,18,38,8,16,42,,47,47,9,18,3,3,0.4,0.6
2026-01-13T0900,3719A,97.1707,31.1428,昌都市,昌都会议中心,,12,10,12,7,11,38,,46,45,2,3,3,2,0.4,0.4
2026-01-13T0900,2692A,87.2722,44.0298,昌吉回族自治州,新区政务中心,细颗粒物(PM2.5),172,160,146,130,115,5,,8,7,72,55,7,7,1.9,1.7
2026-01-13T0900,3613A,87.3069,44.0093,昌吉回族自治州,亚心广场,细颗粒物(PM2.5),113,117,164,85,129,19,,8,8,56,53,7,8,1.4,1.6
2026-01-13T0900,4164A,87.2057,43.9289,昌吉回族自治州,财政所,颗粒物(PM10),57,63,95,32,68,44,,54,54,23,27,6,6,0.9,0.9
2026-01-13T0900,1120A,125.2874,43.9024,长春市,客车厂,,39,28,46,27,34,39,,43,41,18,22,8,9,0.5,0.6
2026-01-13T0900,1121A,125.2943,43.8508,长春市,邮电学院,,36,,42,25,31,43,,45,44,15,23,11,12,0.4,0.5
2026-01-13T0900,1122A,125.3648,43.8745,长春市,劳动公园,,35,35,49,20,25,42,,47,45,18,22,10,11,0.7,0.6
2026-01-13T0900,1123A,125.3233,43.8781,长春市,园林处,,36,33,45,25,28,40,,46,44,15,18,10,11,0.6,0.7
2026-01-13T0900,1124A,125.4604,43.7904,长春市,净月潭,,23,23,41,14,21,41,,46,45,13,17,8,7,0.3,0.5
2026-01-13T0900,1126A,125.38,43.8422,长春市,经开区环卫处,,23,23,46,12,42,38,,43,41,20,24,14,11,0.5,0.6
2026-01-13T0900,1127A,125.234,43.7761,长春市,高新区管委会,,42,29,45,29,29,48,,53,52,14,19,8,7,0.5,0.6
2026-01-13T0900,1128A,125.1695,43.83,长春市,岱山公园,,32,22,50,22,31,40,,46,45,19,23,7,7,0.4,0.5
2026-01-13T0900,4281A,125.334645,43.916281,长春市,北亚泰大街1068号,,36,32,46,25,30,31,,41,39,29,28,12,11,0.7,0.7
2026-01-13T0900,1335A,113.082,28.2421,长沙市,经开区环保局,细颗粒物(PM2.5),88,89,100,65,64,21,,9,9,31,48,6,9,0.7,0.7
2026-01-13T0900,1336A,112.8873,28.2202,长沙市,高开区环保局,细颗粒物(PM2.5),119,101,98,90,69,16,,3,3,35,42,18,13,1.0,0.9
2026-01-13T0900,1337A,113.0785,28.2012,长沙市,马坡岭,细颗粒物(PM2.5),98,100,108,73,68,6,,1,1,32,46,7,8,0.7,1
2026-01-13T0900,1338A,112.9448,28.1894,长沙市,湖南师范大学,细颗粒物(PM2.5),97,100,100,72,60,11,,7,7,58,58,11,11,1.0,1
2026-01-13T0900,1339A,113.0177,28.1322,长沙市,雨花区环保局,细颗粒物(PM2.5),99,92,102,74,62,15,,2,2,45,52,15,13,1.0,1
2026-01-13T0900,1340A,112.9795,28.2593,长沙市,伍家岭,细颗粒物(PM2.5),97,120,120,72,54,3,,2,2,39,54,7,8,1.0,1
2026-01-13T0900,1341A,113.002,28.1944,长沙市,火车新站,细颗粒物(PM2.5),92,101,114,68,68,12,,7,7,53,60,14,16,1.0,1.1
2026-01-13T0900,1342A,112.9846,28.1177,长沙市,天心区环保局,细颗粒物(PM2.5),99,96,95,74,60,16,,7,6,51,51,12,13,1.2,1.1
2026-01-13T0900,1343A,112.8906,28.1307,长沙市,湖南中医药大学,细颗粒物(PM2.5),112,118,105,84,63,6,,2,2,44,54,9,10,1.3,1
2026-01-13T0900,1727A,113.1146,36.1547,长治市,清华站,颗粒物(PM10),83,116,95,44,27,6,,7,5,43,30,13,13,1.4,0.7
2026-01-13T0900,1730A,113.0887,36.2126,长治市,审计局,颗粒物(PM10),86,121,92,44,31,5,,18,14,41,27,18,12,1.2,0.7
2026-01-13T0900,1731A,113.0845,36.1856,长治市,长治八中,颗粒物(PM10),101,151,113,37,33,6,,12,9,32,22,14,13,1.1,0.7
2026-01-13T0900,2845A,113.1561,36.1912,长治市,德盛苑,颗粒物(PM10),72,94,79,44,28,27,,59,55,34,16,14,9,1.0,0.6
2026-01-13T0900,3568A,113.0603,36.0464,长治市,向阳小学,颗粒物(PM10),83,116,111,20,28,45,,52,52,21,18,18,13,0.5,0.5
2026-01-13T0900,3569A,112.8788,36.315,长治市,屯留一中,颗粒物(PM10),77,103,93,27,29,8,,4,4,37,27,16,12,1.1,0.8
2026-01-13T0900,4189A,113.113092,36.199482,长治市,英华南巷50号,颗粒物(PM10),103,155,105,70,32,14,,23,20,48,37,14,12,1.7,0.9
2026-01-13T0900,4190A,113.23666,36.33435,长治市,学府街1号,颗粒物(PM10),88,125,97,49,35,8,,5,5,47,34,24,10,2.5,0.9
2026-01-13T0900,1854A,111.696,28.9725,常德市,市二中,细颗粒物(PM2.5),64,61,85,46,60,48,,58,57,21,19,6,7,0.7,0.8
2026-01-13T0900,3138A,111.7152,29.0288,常德市,武陵区永安,细颗粒物(PM2.5),70,72,100,51,61,49,,64,61,20,20,5,6,0.8,0.8
2026-01-13T0900,3139A,111.6891,28.9881,常德市,鼎城区玉霞,细颗粒物(PM2.5),98,,101,73,70,24,,34,34,34,28,8,9,0.7,0.6
2026-01-13T0900,3140A,111.6651,29.0526,常德市,武陵区长庚,细颗粒物(PM2.5),79,79,97,58,63,55,,68,66,17,19,5,6,0.7,0.7
2026-01-13T0900,1196A,119.9524,31.7586,常州市,市监测站,颗粒物(PM10),69,88,82,46,39,8,,19,16,61,50,7,6,2.0,0.9
2026-01-13T0900,1200A,119.9351,31.703,常州市,武进监测站,颗粒物(PM10),67,83,78,47,41,16,,28,23,56,47,14,15,0.9,0.4
2026-01-13T0900,3002A,119.9701,31.813,常州市,行政中心,颗粒物(PM10),67,83,76,46,36,18,,25,21,51,42,10,10,1.1,0.6
2026-01-13T0900,3003A,120.0434,31.7726,常州市,经开区,颗粒物(PM10),78,105,96,44,38,14,,31,26,55,45,13,14,1.0,0.5
2026-01-13T0900,3010A,119.8919,31.7892,常州市,钟楼,颗粒物(PM10),66,81,78,36,35,19,,20,20,50,44,11,11,1.0,0.6
2026-01-13T0900,3429A,119.8595,31.706,常州市,武进经发区,细颗粒物(PM2.5),75,84,79,55,52,23,,37,32,57,40,6,5,1.1,0.6
2026-01-13T0900,3430A,119.5812,31.7256,常州市,金坛城区,"颗粒物(PM10),细颗粒物(PM2.5)",65,80,70,47,38,14,,24,21,42,29,13,10,1.0,0.8
2026-01-13T0900,4089A,119.9551,31.863,常州市,崇义南街5-H号,细颗粒物(PM2.5),98,114,78,73,43,6,,20,16,82,46,8,8,1.4,0.8
2026-01-13T0900,2220A,120.4318,41.588,朝阳市,西梁,细颗粒物(PM2.5),67,68,47,48,22,28,,43,40,41,24,11,9,0.9,0.7
2026-01-13T0900,2221A,120.452,41.565,朝阳市,河畔小区,,49,,38,34,17,35,,61,57,30,14,8,10,0.8,0.6
2026-01-13T0900,2222A,120.4176,41.5648,朝阳市,八里堡,,49,39,44,34,18,41,,57,55,32,21,11,10,0.7,0.6
2026-01-13T0900,3026A,116.6179,23.6608,潮州市,市政府,颗粒物(PM10),66,81,88,38,41,48,,34,34,38,29,10,10,0.8,0.5
2026-01-13T0900,4036A,116.646,23.676,潮州市,金山,颗粒物(PM10),53,56,76,36,40,55,,35,35,17,21,4,4,0.6,0.5
2026-01-13T0900,2473A,113.0116,25.8228,郴州市,市职中,细颗粒物(PM2.5),80,77,64,59,49,0,,0,0,25,28,6,8,0.9,0.8
2026-01-13T0900,2475A,113.0381,25.8074,郴州市,市审计局,细颗粒物(PM2.5),77,73,64,56,47,1,,0,0,34,33,5,7,/,/
2026-01-13T0900,2476A,113.0348,25.7757,郴州市,市环保局,细颗粒物(PM2.5),79,85,78,58,53,2,,0,0,30,40,4,8,0.9,0.8
2026-01-13T0900,4252A,113.0138,25.8011,郴州市,好美居路49号,细颗粒物(PM2.5),74,60,61,54,51,3,,1,1,26,33,4,8,/,/
2026-01-13T0900,1431A,103.9727,30.7242,成都市,金泉两河,细颗粒物(PM2.5),202,181,160,152,145,2,,1,1,58,64,2,2,2.0,1.6
2026-01-13T0900,1432A,104.1423,30.6765,成都市,十里店,细颗粒物(PM2.5),212,204,173,162,136,6,,6,6,82,74,6,4,1.8,1.3
2026-01-13T0900,1433A,104.0594,30.5765,成都市,三瓦窑,细颗粒物(PM2.5),193,158,178,145,156,2,,1,1,81,80,4,5,1.4,1.5
2026-01-13T0900,1434A,104.1122,30.6306,成都市,沙河铺,细颗粒物(PM2.5),217,188,170,167,156,1,,4,4,90,71,3,3,1.7,1.6
2026-01-13T0900,2880A,104.0219,30.6561,成都市,大石西路,细颗粒物(PM2.5),186,196,179,140,136,1,,0,0,,71,6,6,1.9,1.8
2026-01-13T0900,3136A,104.2724,30.559,成都市,龙泉驿区区政府,细颗粒物(PM2.5),119,112,119,90,103,67,,83,79,24,23,6,6,0.9,0.8
2026-01-13T0900,3357A,104.0028,30.6891,成都市,金博路,细颗粒物(PM2.5),198,191,168,148,143,1,,1,1,56,68,5,6,2.0,1.5
2026-01-13T0900,3359A,104.056,30.5228,成都市,华阳,细颗粒物(PM2.5),163,158,173,124,137,2,,2,2,65,69,4,4,1.5,1.5
2026-01-13T0900,3488A,104.387954,30.746684,成都市,青石路225号,细颗粒物(PM2.5),202,171,155,152,128,5,,15,12,62,64,3,4,1.2,0.9
2026-01-13T0900,3489A,104.0788,30.4054,成都市,科学城,细颗粒物(PM2.5),102,98,152,76,132,3,,5,5,30,42,6,6,0.7,0.8
2026-01-13T0900,4011A,103.8505,30.6946,成都市,光华大道三段,细颗粒物(PM2.5),159,176,179,121,148,6,,6,6,52,53,5,3,1.1,1
2026-01-13T0900,4144A,104.3257,30.6406,成都市,八角井街185号,细颗粒物(PM2.5),129,140,151,98,118,17,,47,37,43,32,2,3,1.2,1
2026-01-13T0900,4224A,104.2433276,30.53529463,成都市,鲸龙路1057号,细颗粒物(PM2.5),138,113,137,105,128,7,,13,10,61,53,5,6,1.2,0.9
2026-01-13T0900,1062A,117.9531,40.908,承德市,铁路,,32,32,47,9,12,26,,64,58,34,13,5,8,0.5,0.5
2026-01-13T0900,1063A,117.9397,40.9763,承德市,中国银行,颗粒物(PM10),51,51,47,10,13,18,,34,29,33,16,3,4,0.6,0.5
2026-01-13T0900,4073A,117.9462,40.95,承德市,杏林街1号,,24,24,37,15,16,23,,61,55,27,11,4,6,0.7,0.4
2026-01-13T0900,4274A,117.7994,40.9605,承德市,滨河大街98号,,32,32,39,22,20,26,,63,57,31,11,3,7,0.4,0.4
2026-01-13T0900,2314A,117.4698,30.6617,池州市,池州学院,细颗粒物(PM2.5),62,72,72,44,40,25,,24,24,41,36,25,25,1.5,1.1
2026-01-13T0900,3237A,117.4918,30.6617,池州市,展览馆,"颗粒物(PM10),细颗粒物(PM2.5)",58,66,64,41,32,10,,18,16,37,32,3,12,1.3,1
2026-01-13T0900,3333A,117.5626,30.695,池州市,第八中学,细颗粒物(PM2.5),72,90,71,52,36,24,,25,23,45,34,30,17,1.1,0.9
2026-01-13T0900,3334A,117.5037,30.6242,池州市,第十二中学,颗粒物(PM10),67,83,63,38,28,16,,21,19,53,38,6,6,2.2,0.9
2026-01-13T0900,1744A,118.9229,42.2816,赤峰市,松山一中,,42,42,36,19,9,18,,54,49,54,18,10,5,1.1,0.7
2026-01-13T0900,1745A,118.9588,42.2733,赤峰市,哈达街,,22,22,36,3,9,44,,62,59,25,16,6,7,0.8,0.6
2026-01-13T0900,1746A,118.8792,42.2551,赤峰市,天义路,,30,30,27,13,14,26,,60,56,44,15,6,7,1.0,0.5
2026-01-13T0900,3058A,119.2656,42.0356,赤峰市,银河街,,27,27,42,13,15,50,,69,66,17,9,21,12,0.8,0.7
2026-01-13T0900,3286A,118.9359,42.3146,赤峰市,桥北物流园区,,22,22,29,3,12,55,,66,64,23,13,6,5,0.4,0.4
2026-01-13T0900,2521A,107.3473,22.4137,崇左市,市环保局江州分局,细颗粒物(PM2.5),100,94,84,75,60,14,,23,21,29,29,6,8,0.9,0.8
2026-01-13T0900,4256A,107.375,22.3736,崇左市,石景林东路7号,细颗粒物(PM2.5),100,77,71,75,59,15,,25,24,33,33,7,8,0.7,0.7
2026-01-13T0900,3207A,118.31131,32.3033,滁州市,市政府原办公楼,细颗粒物(PM2.5),90,113,81,67,45,18,,25,18,48,33,6,7,0.6,0.5
2026-01-13T0900,3331A,118.3268,32.2633,滁州市,图书馆,细颗粒物(PM2.5),72,91,81,52,43,36,,40,38,31,30,12,11,0.7,0.5
2026-01-13T0900,4101A,118.3196,32.3335,滁州市,银山路666号,细颗粒物(PM2.5),117,105,85,88,64,2,,17,9,35,28,12,15,0.6,0.4
2026-01-13T0900,4102A,118.3426,32.2979,滁州市,黄山路555号,细颗粒物(PM2.5),119,120,100,90,64,15,,20,14,49,36,12,13,0.9,0.8
2026-01-13T0900,2606A,101.5379,25.0492,楚雄彝族自治州,市经济开发区,,42,36,33,29,24,3,,8,7,21,24,3,4,0.7,0.7
2026-01-13T0900,4153A,101.5536,25.0343,楚雄彝族自治州,团结路562号,,28,28,38,18,24,4,,6,6,22,21,4,6,0.8,0.7
2026-01-13T0900,2549A,107.5087,31.2186,达州市,市环境监测站,细颗粒物(PM2.5),138,117,150,105,123,6,,6,6,32,49,5,7,0.8,0.9
2026-01-13T0900,2550A,107.4988,31.2132,达州市,凤凰小区,细颗粒物(PM2.5),138,136,163,105,124,4,,5,5,29,45,4,5,0.8,1
2026-01-13T0900,2551A,107.5081,31.1987,达州市,达县机关宾馆,细颗粒物(PM2.5),135,146,183,103,128,3,,,,39,60,3,4,1.2,1.2
2026-01-13T0900,2552A,107.4644,31.2124,达州市,市政中心,细颗粒物(PM2.5),147,148,170,112,122,6,,5,5,35,52,6,7,0.9,1.1
2026-01-13T0900,2614A,100.2168,25.5818,大理白族自治州,大理市环境监测站,,27,27,21,18,20,17,,45,40,40,21,7,6,0.7,0.6
2026-01-13T0900,2615A,100.1542,25.7055,大理白族自治州,大理古城,,22,22,25,15,17,24,,48,45,30,14,8,8,0.7,0.5
2026-01-13T0900,1109A,121.6119,38.974,大连市,甘井子,,38,38,64,15,31,56,,56,56,17,25,13,11,0.5,0.4
2026-01-13T0900,1110A,121.565,38.9509,大连市,周水子,,41,41,60,17,33,48,,44,44,20,27,2,3,0.4,0.6
2026-01-13T0900,1111A,121.5637,38.8849,大连市,星海三站,,34,34,54,13,31,50,,50,50,18,24,9,9,0.4,0.6
2026-01-13T0900,1112A,121.6301,38.9117,大连市,青泥洼桥,,30,30,62,14,32,52,,52,52,15,24,10,10,0.4,0.6
2026-01-13T0900,1113A,121.6248,38.8643,大连市,傅家庄,,32,32,58,12,28,51,,49,49,14,24,9,11,0.4,0.5
2026-01-13T0900,1114A,121.5117,38.8636,大连市,七贤岭,,44,44,58,16,27,45,,46,46,19,21,10,10,0.7,0.9
2026-01-13T0900,1116A,121.7507,39.1339,大连市,金州,,39,39,63,25,37,42,,45,45,26,29,17,12,0.5,0.6
2026-01-13T0900,1117A,121.7811,39.0495,大连市,开发区,,35,35,53,18,29,46,,51,50,18,21,5,5,0.5,0.6
2026-01-13T0900,1118A,121.9762,39.0631,大连市,双D港,,26,26,61,16,26,60,,56,56,14,22,11,10,0.4,0.5
2026-01-13T0900,4082A,121.2548,38.8188,大连市,旅顺,,20,,60,14,31,57,,51,51,10,16,6,7,0.4,0.6
2026-01-13T0900,1789A,124.8085,46.0381,大庆市,大同区,,28,28,56,12,42,45,,48,48,10,19,7,8,0.5,0.7
2026-01-13T0900,1790A,125.1166,46.5255,大庆市,龙凤区,,19,19,62,8,39,38,,41,41,21,34,8,8,0.6,0.8
2026-01-13T0900,1791A,124.8894,46.4007,大庆市,红岗区,,30,22,49,21,37,40,,41,41,12,20,6,6,0.4,0.6
2026-01-13T0900,1792A,125.1391,46.578,大庆市,萨尔图区,,25,25,70,13,53,36,,38,38,16,27,12,9,0.4,0.6
2026-01-13T0900,1793A,124.9026,46.6217,大庆市,让胡路区,,38,26,56,26,52,51,,54,54,9,20,7,7,0.5,0.6
2026-01-13T0900,3481A,125.127,46.6277,大庆市,萨区政府监测点,,,32,76,7,52,33,,38,38,15,28,9,9,,0.7
2026-01-13T0900,1723A,113.2926,40.0759,大同市,云冈宾馆,颗粒物(PM10),84,118,114,30,25,6,,12,10,44,29,10,8,1.3,0.8
2026-01-13T0900,1724A,113.3437,40.0921,大同市,大同大学,颗粒物(PM10),80,110,84,28,26,7,,25,22,46,25,7,7,1.3,0.8
2026-01-13T0900,1725A,113.2637,40.129,大同市,安家小村,颗粒物(PM10),101,152,98,53,29,10,,12,12,46,27,17,10,5.1,1.9
2026-01-13T0900,3282A,113.3399,40.0586,大同市,大同市卫生学校,颗粒物(PM10),91,131,96,37,39,5,,17,15,52,30,10,7,1.3,0.6
2026-01-13T0900,3565A,113.1371,40.1122,大同市,云冈站,颗粒物(PM10),89,127,93,31,27,2,,10,8,39,28,11,6,1.1,0.6
2026-01-13T0900,3566A,113.1186,40.2556,大同市,图书馆,颗粒物(PM10),79,108,82,45,28,13,,19,18,25,14,16,7,1.1,0.6
2026-01-13T0900,3567A,113.5931,40.0459,大同市,区一中,颗粒物(PM10),116,182,98,68,35,31,,26,26,29,22,8,7,1.2,0.7
2026-01-13T0900,4199A,113.2798248,40.09972476,大同市,魏都大道141号,颗粒物(PM10),98,146,110,44,30,11,,11,11,45,34,13,8,2.6,1.3
2026-01-13T0900,2269A,124.1068,50.4091,大兴安岭地区,科技局,,22,22,35,13,23,40,,39,39,6,11,5,6,0.3,0.4
2026-01-13T0900,3663A,124.117,50.4279,大兴安岭地区,红旗社区,,16,6,27,3,25,49,,47,47,6,17,5,8,0.4,0.5
2026-01-13T0900,1600A,124.33,40.0625,丹东市,江湾东路,,28,28,39,14,26,56,,56,56,11,19,6,10,0.4,0.7
2026-01-13T0900,1601A,124.4242,40.1513,丹东市,临江后街,,21,21,38,8,24,57,,57,57,9,18,5,9,0.4,0.6
2026-01-13T0900,1602A,124.3935,40.1461,丹东市,元宝山,,19,17,33,10,23,58,,55,55,6,17,8,10,0.4,0.6
2026-01-13T0900,1603A,124.3634,40.1093,丹东市,民主桥,,25,25,37,3,19,55,,56,56,8,20,8,10,0.5,0.7
2026-01-13T0900,3541A,109.5726195,19.51688767,儋州市,第一中学子站,,49,49,48,23,21,43,,64,59,10,5,13,5,0.7,0.6
2026-01-13T0900,3542A,109.5567,19.5187,儋州市,东坡学校子站,,44,44,43,25,21,51,,72,68,6,5,8,5,0.6,0.5
2026-01-13T0900,2616A,98.5611,24.4273,德宏傣族景颇族自治州,德宏州监测站,细颗粒物(PM2.5),67,62,54,48,40,6,,9,8,28,25,6,6,0.8,0.7
2026-01-13T0900,3677A,98.5887,24.4366,德宏傣族景颇族自治州,芒市人民政府综合楼,,42,37,50,29,31,8,,24,21,24,15,4,4,0.9,0.7
2026-01-13T0900,1901A,104.424,31.1209,德阳市,东山公园,细颗粒物(PM2.5),200,151,144,150,138,18,,82,75,56,32,4,5,1.2,1
2026-01-13T0900,1902A,104.3827,31.1318,德阳市,西小区,细颗粒物(PM2.5),173,169,180,131,142,3,,2,2,48,71,5,5,1.7,1.5
2026-01-13T0900,1904A,104.3553,31.1091,德阳市,耐火材料厂,颗粒物(PM10),176,302,195,132,150,5,,4,4,57,67,3,3,1.3,1.3
2026-01-13T0900,4145A,104.4144,31.1495,德阳市,市林业局,细颗粒物(PM2.5),206,177,155,156,147,5,,10,10,55,61,5,4,1.6,1.4
2026-01-13T0900,1622A,116.3034,37.4675,德州市,儿童乐园,颗粒物(PM10),75,100,118,36,48,25,,15,15,48,46,17,18,1.1,1
2026-01-13T0900,1624A,116.2992,37.4449,德州市,监理站,颗粒物(PM10),70,90,110,34,44,38,,30,30,46,52,17,18,1.1,1
2026-01-13T0900,3066A,116.2722,37.438,德州市,九衢泉纯净水厂,颗粒物(PM10),78,105,114,34,51,28,,22,22,51,54,18,21,1.1,0.9
2026-01-13T0900,3371A,116.3693,37.44,德州市,开发区人民医院,颗粒物(PM10),74,97,112,44,46,20,,21,21,59,55,20,20,1.1,0.9
2026-01-13T0900,3511A,116.5687,37.3331,德州市,陵城艺术中心,颗粒物(PM10),89,127,134,58,65,10,,3,3,56,54,26,27,1.3,1.1
2026-01-13T0900,4292A,116.352738,37.420875,德州市,新河东路,颗粒物(PM10),73,95,108,44,49,19,,17,17,57,60,20,19,1.2,1.1
2026-01-13T0900,2621A,99.7054,27.8319,迪庆藏族自治州,迪庆州站,颗粒物(PM10),51,51,33,20,19,33,,43,42,18,13,5,5,0.7,0.6
2026-01-13T0900,3180A,99.7122,27.8129,迪庆藏族自治州,质量技术监督局,,38,38,33,18,19,29,,44,42,30,17,4,4,0.8,0.6
2026-01-13T0900,4257A,104.6092,35.5962,定西市,将台街,细颗粒物(PM2.5),69,74,70,50,43,9,,9,9,28,33,29,20,1.4,1
2026-01-13T0900,4309A,104.6159,35.5701,定西市,正龙路62号,细颗粒物(PM2.5),58,64,75,41,44,10,,16,15,12,17,20,19,0.9,1
2026-01-13T0900,1390A,113.7943,23.0132,东莞市,东城石井,"颗粒物(PM10),细颗粒物(PM2.5)",79,108,97,58,53,22,,18,12,80,72,11,9,0.8,0.7
2026-01-13T0900,1391A,113.7384,22.9659,东莞市,南城西平,细颗粒物(PM2.5),94,111,104,70,60,5,,6,1,108,78,14,12,1.0,0.8
2026-01-13T0900,3319A,113.7283,23.041,东莞市,万江金泰,"颗粒物(PM10),细颗粒物(PM2.5)",63,76,112,45,62,34,,14,14,70,88,10,8,1.0,1.2
2026-01-13T0900,4129A,113.8666,23.1062,东莞市,裕兴路,颗粒物(PM10),75,100,111,48,50,33,,13,13,68,79,12,12,1.0,0.9
2026-01-13T0900,4130A,114.0076,22.9739,东莞市,教育路1号,细颗粒物(PM2.5),122,182,141,92,71,8,,4,4,101,90,8,7,1.1,0.9
2026-01-13T0900,4131A,113.7981,22.8124,东莞市,长怡路1号,细颗粒物(PM2.5),134,173,108,102,55,8,,12,9,133,76,16,9,1.4,0.8
2026-01-13T0900,1666A,118.6612,37.4313,东营市,市环保局,颗粒物(PM10),73,95,102,41,49,15,,8,8,49,56,11,16,1.1,1.1
2026-01-13T0900,3036A,118.6903,37.4337,东营市,开发区管委会,颗粒物(PM10),72,93,105,36,47,18,,9,9,46,56,13,17,0.9,0.7
2026-01-13T0900,3365A,118.5721,37.5654,东营市,垦利区民丰路,颗粒物(PM10),70,90,105,36,49,10,,8,8,54,52,6,8,1.0,0.9
2026-01-13T0900,3498A,118.5063,37.8606,东营市,河口城区,,44,44,99,17,43,35,,26,26,44,47,7,8,0.8,1
2026-01-13T0900,3646A,118.4979,37.4623,东营市,胜利站,颗粒物(PM10),71,91,96,36,51,14,,6,6,54,58,14,18,1.1,1
2026-01-13T0900,3734A,118.5753,37.4405,东营市,理想之城,颗粒物(PM10),78,105,100,53,53,5,,3,3,64,57,11,12,1.4,1.1
2026-01-13T0900,1591A,110.0024,39.8127,鄂尔多斯市,综合楼,颗粒物(PM10),57,63,90,24,27,33,,65,61,35,11,8,5,0.6,0.4
2026-01-13T0900,1592A,109.9485,39.8259,鄂尔多斯市,巴音孟克林场办事处,颗粒物(PM10),53,56,112,22,28,60,,67,66,16,10,7,6,0.4,0.3
2026-01-13T0900,1593A,109.7734,39.5987,鄂尔多斯市,康泽苑,颗粒物(PM10),65,80,121,19,33,21,,45,39,36,12,5,5,0.6,0.3
2026-01-13T0900,1594A,109.8121,39.5987,鄂尔多斯市,华泰汽车城,颗粒物(PM10),65,80,123,14,29,5,,33,27,39,16,3,3,0.6,0.4
2026-01-13T0900,1595A,109.9734,39.7884,鄂尔多斯市,奥林花园,颗粒物(PM10),65,80,120,22,26,26,,47,44,38,18,11,7,0.5,0.4
2026-01-13T0900,2436A,114.894,30.3989,鄂州市,市政府,细颗粒物(PM2.5),103,116,98,77,61,14,,8,8,50,48,15,12,0.9,0.9
2026-01-13T0900,2437A,114.8986,30.3714,鄂州市,赵家坝,细颗粒物(PM2.5),102,119,98,76,60,20,,26,25,35,29,17,12,1.0,0.9
2026-01-13T0900,3654A,114.8093,30.4091,鄂州市,精准医疗中心,细颗粒物(PM2.5),130,129,84,99,56,10,,,,64,38,22,7,1.2,0.6
2026-01-13T0900,2454A,109.4978,30.2979,恩施土家族苗族自治州,湖北民院,细颗粒物(PM2.5),92,,63,68,63,7,,15,15,19,21,6,6,1.1,0.9
2026-01-13T0900,3549A,109.5061,30.3771,恩施土家族苗族自治州,龙凤新区,细颗粒物(PM2.5),70,65,66,51,52,3,,14,12,13,13,7,7,0.5,0.4
2026-01-13T0900,2499A,108.3411,21.6159,防城港市,沙万,细颗粒物(PM2.5),72,85,73,52,32,50,,71,66,33,30,9,12,0.7,0.8
2026-01-13T0900,2500A,108.3515,21.7733,防城港市,防城档案局,细颗粒物(PM2.5),75,83,85,55,46,61,,57,57,29,28,6,8,0.6,0.7
2026-01-13T0900,2501A,108.3506,21.6414,防城港市,大海花园,颗粒物(PM10),60,70,63,39,32,57,,81,76,26,24,11,14,0.9,0.8
2026-01-13T0900,1371A,113.1293,23.0065,佛山市,湾梁,细颗粒物(PM2.5),120,161,105,91,59,8,,2,2,121,88,/,/,/,/
2026-01-13T0900,1372A,113.1082,23.0477,佛山市,华材职中,细颗粒物(PM2.5),119,185,132,90,65,10,,6,6,118,102,14,9,1.1,0.9
2026-01-13T0900,1373A,113.1439,23.045,佛山市,南海气象局,细颗粒物(PM2.5),124,164,104,94,68,5,,1,1,126,94,/,/,/,/
2026-01-13T0900,1374A,113.2879,22.8094,佛山市,顺德苏岗,细颗粒物(PM2.5),113,121,97,85,68,8,,3,2,120,85,/,/,1.2,1
2026-01-13T0900,1376A,112.8384,22.8678,佛山市,高明孔堂,细颗粒物(PM2.5),58,53,68,41,47,45,,63,60,33,34,/,/,/,/
2026-01-13T0900,1377A,112.8835,23.1584,佛山市,三水监测站,细颗粒物(PM2.5),99,129,108,74,60,20,,9,9,90,87,32,12,1.1,0.9
2026-01-13T0900,1378A,112.8668,23.185,佛山市,三水云东海,细颗粒物(PM2.5),125,142,91,95,57,7,,6,6,88,68,/,/,/,/
2026-01-13T0900,3625A,113.2568,22.7629,佛山市,容桂街道办,细颗粒物(PM2.5),119,149,131,90,81,5,,2,2,124,97,/,/,/,/
2026-01-13T0900,1282A,119.2681,26.0506,福州市,师大,颗粒物(PM10),53,56,63,29,23,44,,33,33,30,37,5,4,0.5,0.5
2026-01-13T0900,1283A,119.2983,26.1028,福州市,五四北路,,48,48,60,28,24,38,,29,29,30,38,5,5,0.7,0.7
2026-01-13T0900,1284A,119.2648,26.0769,福州市,杨桥西路,,46,46,60,25,22,42,,33,33,24,30,6,5,/,/
2026-01-13T0900,3048A,119.5799,26.0937,福州市,九龙,颗粒物(PM10),54,57,47,26,16,40,,27,27,37,26,6,5,0.7,0.6
2026-01-13T0900,3526A,119.5188,25.9666,福州市,吴航,颗粒物(PM10),56,61,59,31,21,31,,17,15,37,36,6,6,0.6,0.6
2026-01-13T0900,4104A,119.3106,26.0648,福州市,路通桥巷6号,颗粒物(PM10),51,52,68,33,28,39,,27,27,25,30,/,/,/,/
2026-01-13T0900,1755A,123.7974,41.8494,抚顺市,望花区,,29,29,43,17,24,45,,47,47,18,24,4,8,0.6,0.7
2026-01-13T0900,1756A,123.9161,41.8827,抚顺市,顺城区,,27,27,42,15,23,46,,50,49,16,26,8,9,0.6,0.7
2026-01-13T0900,1757A,124.0437,41.8615,抚顺市,东洲区,,25,23,39,17,20,49,,50,50,16,22,9,13,0.7,0.8
2026-01-13T0900,1758A,123.9246,41.8638,抚顺市,新抚区,,23,21,40,16,22,50,,56,54,18,24,8,8,0.6,0.7
2026-01-13T0900,1759A,124.0972,41.8961,抚顺市,大伙房水库,,35,,35,24,16,42,,43,42,14,20,12,12,0.7,0.7
2026-01-13T0900,1760A,123.708,41.8386,抚顺市,沈抚新城,,16,,41,11,23,44,,52,50,18,23,8,9,0.8,0.9
2026-01-13T0900,2377A,116.3544,27.9833,抚州市,市站,细颗粒物(PM2.5),70,79,102,51,61,8,,4,4,27,35,12,12,0.8,0.7
2026-01-13T0900,2378A,116.3562,27.9631,抚州市,血防站,颗粒物(PM10),74,98,101,53,59,8,,3,3,34,47,12,10,1.2,1.5
2026-01-13T0900,2379A,116.3561,28.0007,抚州市,采茶剧团,细颗粒物(PM2.5),80,86,114,59,63,6,,2,2,32,36,6,9,1.3,1.2
2026-01-13T0900,2380A,116.3854,27.9648,抚州市,医学分院,,,78,106,45,55,,,6,6,21,29,6,8,1.1,1
2026-01-13T0900,2207A,121.6095,41.9978,阜新市,工业园区,,,,45,,21,,,54,53,10,15,7,11,0.5,0.5
2026-01-13T0900,2208A,121.6567,42.0188,阜新市,长青街,,23,23,25,16,15,58,,60,59,9,10,6,9,0.4,0.4
2026-01-13T0900,2209A,121.6672,42.07,阜新市,农业园区,,19,9,28,9,11,58,,56,56,6,9,6,8,0.3,0.3
2026-01-13T0900,2211A,121.6343,42.0455,阜新市,玉龙新城,,18,12,40,10,13,57,,49,49,11,18,5,8,0.3,0.4
2026-01-13T0900,2301A,115.8276,32.8929,阜阳市,市监测站,细颗粒物(PM2.5),113,140,100,85,56,14,,72,64,65,25,6,6,1.0,0.5
2026-01-13T0900,2303A,115.8551,32.8606,阜阳市,开发区,细颗粒物(PM2.5),109,153,103,82,51,35,,60,56,50,28,6,6,0.7,0.5
2026-01-13T0900,2875A,115.783962,32.889217,阜阳市,阜阳职业技术学院,细颗粒物(PM2.5),90,108,104,67,52,46,,65,63,39,23,9,8,0.7,0.5
2026-01-13T0900,3468A,115.79,32.8614,阜阳市,市规划展馆,细颗粒物(PM2.5),110,107,107,83,63,56,,72,69,33,21,8,7,0.8,0.6
2026-01-13T0900,3469A,115.835101,32.918568,阜阳市,枣园社区,细颗粒物(PM2.5),109,128,101,82,61,58,,73,71,37,23,7,6,0.7,0.5
2026-01-13T0900,2669A,102.9097,34.9841,甘南藏族自治州,州政府,颗粒物(PM10),60,70,60,21,32,4,,2,2,39,37,8,11,0.9,1.1
2026-01-13T0900,3380A,102.8915,34.9618,甘南藏族自治州,甘肃民族师范学院,颗粒物(PM10),61,72,61,29,15,14,,12,12,38,31,13,12,0.9,0.6
2026-01-13T0900,2570A,101.96,30.048,甘孜藏族自治州,水桥子,,23,23,19,13,7,17,,40,38,46,26,8,6,0.8,0.5
2026-01-13T0900,3065A,101.9534,29.9976,甘孜藏族自治州,州环保局,,23,23,22,3,4,58,,68,68,15,12,5,5,0.5,0.3
2026-01-13T0900,2363A,114.9368,25.8663,赣州市,地委,,50,50,61,29,36,18,,9,9,32,50,7,8,0.6,0.8
2026-01-13T0900,2364A,114.946,25.8483,赣州市,气象台,颗粒物(PM10),54,57,81,31,33,8,,4,4,46,68,5,4,0.8,0.8
2026-01-13T0900,2365A,114.932,25.8332,赣州市,市图书馆,颗粒物(PM10),55,60,75,31,38,6,,2,2,50,63,5,5,0.9,0.9
2026-01-13T0900,2366A,114.8905,25.8472,赣州市,华坚鞋城,颗粒物(PM10),58,65,83,38,42,19,,16,16,46,59,13,12,0.5,0.6
2026-01-13T0900,3109A,115.0094,25.8614,赣州市,赣县区卫计委,细颗粒物(PM2.5),67,63,65,48,49,6,,8,7,38,37,7,7,0.7,0.7
2026-01-13T0900,2684A,106.2753,36.0057,固原市,监测站,细颗粒物(PM2.5),72,72,46,52,24,15,,21,18,48,27,10,7,2.0,1
2026-01-13T0900,2685A,106.2384,36.0189,固原市,新区,颗粒物(PM10),74,97,44,44,20,6,,19,14,61,24,4,3,2.4,0.6
2026-01-13T0900,2544A,106.6307,30.4577,广安市,市委,细颗粒物(PM2.5),132,114,167,100,159,4,,5,5,27,36,9,9,1.5,1.3
2026-01-13T0900,2545A,106.6266,30.4662,广安市,友谊中学,细颗粒物(PM2.5),128,116,156,97,141,7,,13,12,24,29,7,7,1.4,1.2
2026-01-13T0900,2547A,106.6386,30.4551,广安市,广电花园,细颗粒物(PM2.5),108,99,159,81,148,6,,7,7,21,32,8,9,1.0,1
2026-01-13T0900,2902A,106.6347,30.4868,广安市,北辰小学,细颗粒物(PM2.5),134,118,150,102,139,7,,16,15,21,22,1,6,1.5,1.2
2026-01-13T0900,2524A,105.8211,32.4444,广元市,老城,细颗粒物(PM2.5),99,92,96,74,77,3,,5,5,49,54,14,21,1.2,1.2
2026-01-13T0900,2526A,105.8629,32.429,广元市,监测站,细颗粒物(PM2.5),87,90,94,64,70,4,,15,15,35,47,3,10,1.3,1.3
2026-01-13T0900,3617A,105.8047,32.4167,广元市,经开区,细颗粒物(PM2.5),103,118,100,77,71,1,,1,1,41,52,8,9,1.7,1.3
2026-01-13T0900,1345A,113.2346,23.1423,广州市,广雅中学,细颗粒物(PM2.5),112,151,150,84,83,3,,1,1,108,109,10,6,1.3,1.4
2026-01-13T0900,1346A,113.2611,23.105,广州市,市五中,细颗粒物(PM2.5),94,113,122,70,79,7,,3,3,136,118,19,12,/,/
2026-01-13T0900,1348A,113.3477,23.0916,广州市,广东商学院,细颗粒物(PM2.5),115,123,123,87,83,2,,2,2,117,103,10,8,1.1,0.9
2026-01-13T0900,1349A,113.4332,23.105,广州市,市八十六中,细颗粒物(PM2.5),72,75,87,52,60,8,,2,2,95,102,13,10,/,/
2026-01-13T0900,1350A,113.3506,22.9488,广州市,番禺中学,细颗粒物(PM2.5),138,177,132,105,76,6,,6,6,155,90,10,5,1.3,1
2026-01-13T0900,1351A,113.2147,23.3918,广州市,花都师范,颗粒物(PM10),77,104,109,53,58,8,,3,3,99,93,8,9,1.0,0.9
2026-01-13T0900,1352A,113.2599,23.1329,广州市,市监测站,细颗粒物(PM2.5),112,157,131,84,67,4,,2,2,126,113,8,7,/,/
2026-01-13T0900,1353A,113.5618,23.3119,广州市,九龙镇镇龙,细颗粒物(PM2.5),73,93,99,53,51,12,,2,2,64,72,10,6,0.6,0.6
2026-01-13T0900,1354A,113.2764,23.1544,广州市,麓湖,细颗粒物(PM2.5),87,93,94,64,61,5,,2,2,101,99,12,10,0.8,0.7
2026-01-13T0900,2846A,113.3209,23.1323,广州市,体育西,细颗粒物(PM2.5),88,107,116,65,69,7,,2,2,114,102,17,9,1.0,1
2026-01-13T0900,3298A,113.5718,23.5493,广州市,从化街口,颗粒物(PM10),54,58,81,34,51,31,,5,5,40,63,11,12,0.7,0.7
2026-01-13T0900,3299A,113.3463,23.369,广州市,白云竹料,细颗粒物(PM2.5),72,89,111,52,59,19,,5,5,66,74,30,7,0.8,0.8
2026-01-13T0900,3300A,113.2981,23.2365,广州市,白云嘉禾,颗粒物(PM10),79,107,120,54,60,6,,2,2,91,96,10,8,/,/
2026-01-13T0900,3301A,113.4256,23.1716,广州市,黄埔科学城,颗粒物(PM10),62,73,77,43,44,27,,25,25,68,60,20,8,0.8,0.8
2026-01-13T0900,3302A,113.3942,23.0485,广州市,番禺大学城,,,,107,,62,,,134,,,90,,13,,0.7
2026-01-13T0900,3303A,113.4923,22.8169,广州市,南沙黄阁,细颗粒物(PM2.5),125,158,114,95,64,6,,18,17,155,93,14,9,/,/
2026-01-13T0900,3304A,113.534,22.7893,广州市,南沙街,细颗粒物(PM2.5),112,128,95,84,53,8,,33,22,119,65,7,7,0.9,0.6
2026-01-13T0900,3443A,113.2905,23.5541,广州市,花都梯面,颗粒物(PM10),56,62,59,36,31,17,,4,4,51,59,10,8,/,/
2026-01-13T0900,3445A,113.786,23.7479,广州市,从化良口,,31,31,36,21,26,25,,40,37,31,22,8,10,/,/
2026-01-13T0900,3446A,113.805,23.2614,广州市,增城荔城,,48,46,60,33,36,45,,33,33,33,38,13,8,0.6,0.6
2026-01-13T0900,2506A,109.604387,23.066791,贵港市,江南子站,细颗粒物(PM2.5),212,195,109,162,75,16,,37,34,59,35,18,13,1.0,0.7
2026-01-13T0900,2508A,109.5669,23.1065,贵港市,荷城子站,细颗粒物(PM2.5),147,151,94,112,60,11,,37,37,62,39,10,11,1.4,1
2026-01-13T0900,3405A,109.5886,23.1172,贵港市,新世纪学校,细颗粒物(PM2.5),93,100,84,69,48,55,,84,80,31,22,/,/,0.6,0.5
2026-01-13T0900,4260A,109.5933,23.095,贵港市,中山路155-3号,细颗粒物(PM2.5),176,155,85,133,70,18,,54,51,53,30,/,/,0.9,0.6
2026-01-13T0900,1439A,106.6863,26.6035,贵阳市,马鞍山,细颗粒物(PM2.5),94,80,60,70,51,4,,3,3,26,21,5,6,/,/
2026-01-13T0900,1441A,106.6241,26.6266,贵阳市,鉴湖路,细颗粒物(PM2.5),89,97,69,66,47,6,,8,8,40,31,7,5,1.2,0.8
2026-01-13T0900,1442A,106.7468,26.6344,贵阳市,燕子冲,细颗粒物(PM2.5),98,85,59,73,54,2,,6,3,25,22,8,7,1.5,0.8
2026-01-13T0900,1443A,106.6556,26.4362,贵阳市,碧云窝,细颗粒物(PM2.5),89,100,76,66,56,8,,5,5,20,23,5,9,/,/
2026-01-13T0900,1445A,106.6963,26.6063,贵阳市,红边门,细颗粒物(PM2.5),104,110,69,78,55,2,,5,3,37,36,27,23,/,/
2026-01-13T0900,1446A,106.7162383,26.56964667,贵阳市,新华路,细颗粒物(PM2.5),98,100,78,73,54,4,,2,2,37,38,12,14,1.3,0.9
2026-01-13T0900,1447A,106.6742,26.542,贵阳市,太慈桥,细颗粒物(PM2.5),64,66,55,46,42,14,,23,21,24,26,2,3,/,/
2026-01-13T0900,4230A,106.688212,26.56952,贵阳市,花果园大街66号,细颗粒物(PM2.5),109,97,67,82,72,2,,2,2,39,35,16,9,/,/
2026-01-13T0900,4231A,106.687268,26.516892,贵阳市,漓江路57号,细颗粒物(PM2.5),92,112,71,68,53,0,,0,0,30,34,27,14,1.7,1.2
2026-01-13T0900,1864A,110.3091,25.2705,桂林市,龙隐路小学,细颗粒物(PM2.5),80,,85,59,71,17,,18,18,31,38,16,16,0.7,0.8
2026-01-13T0900,1865A,110.2849361,25.22909545,桂林市,八中,细颗粒物(PM2.5),83,61,93,61,78,12,,14,13,36,41,12,13,0.7,0.7
2026-01-13T0900,3531A,110.296,25.1254,桂林市,旅游学院,细颗粒物(PM2.5),83,97,89,61,68,2,,5,3,18,32,9,7,0.7,0.5
2026-01-13T0900,4222A,110.1835,25.2444,桂林市,环湖路276号,细颗粒物(PM2.5),89,85,103,66,76,3,,2,2,28,45,16,37,0.8,0.8
2026-01-13T0900,4301A,110.2803,25.2773,桂林市,信义路13号,细颗粒物(PM2.5),70,75,94,51,67,11,,4,4,39,50,28,19,0.9,1
2026-01-13T0900,2674A,100.2262,34.4854,果洛藏族自治州,玛沁县大武镇,,30,30,35,3,12,31,,33,32,7,7,22,15,0.5,0.5
2026-01-13T0900,1130A,126.5557,45.8109,哈尔滨市,松北商大,细颗粒物(PM2.5),53,43,76,37,66,22,,24,24,32,41,14,9,0.6,0.8
2026-01-13T0900,1132A,126.6162,45.719,哈尔滨市,南岗学府路,,36,36,60,20,41,39,,22,22,14,26,9,17,0.8,0.9
2026-01-13T0900,1133A,126.6894,45.7733,哈尔滨市,太平宏伟公园,,35,30,74,24,56,36,,24,24,17,35,20,19,0.7,0.9
2026-01-13T0900,1134A,126.6361,45.7672,哈尔滨市,道外承德广场,颗粒物(PM10),54,58,96,26,57,38,,27,27,23,39,10,10,0.5,0.7
2026-01-13T0900,1136A,126.644,45.7261,哈尔滨市,动力和平路,,36,36,75,20,50,35,,28,28,19,29,16,13,0.8,1
2026-01-13T0900,1137A,126.5933,45.7479,哈尔滨市,道里建国路,,40,30,65,28,59,34,,24,24,19,32,10,13,0.5,0.7
2026-01-13T0900,1138A,126.6127,45.6119,哈尔滨市,平房东轻厂,细颗粒物(PM2.5),52,40,77,36,58,29,,18,18,26,39,7,9,0.8,0.9
2026-01-13T0900,1139A,126.5875,45.9827,哈尔滨市,呼兰师专,细颗粒物(PM2.5),88,,91,65,90,30,,22,22,19,35,8,7,0.8,1
2026-01-13T0900,1140A,126.6299,45.6799,哈尔滨市,省农科院,细颗粒物(PM2.5),72,61,75,52,57,29,,27,27,31,37,14,13,0.6,0.7
2026-01-13T0900,4282A,126.6769,45.7379,哈尔滨市,华山路1号,,35,34,61,24,49,32,,25,25,27,34,22,22,0.7,0.9
2026-01-13T0900,4283A,126.9717,45.5356,哈尔滨市,解放大街52号,细颗粒物(PM2.5),83,72,59,61,53,35,,22,22,21,27,10,14,0.9,0.8
2026-01-13T0900,2688A,93.5124,42.8176,哈密市,地区监测站,细颗粒物(PM2.5),124,141,161,94,91,11,,11,11,37,30,2,3,0.8,1.2
2026-01-13T0900,2689A,93.5014,42.8312,哈密市,哈密师范学校,颗粒物(PM10),102,154,158,67,64,21,,8,8,40,42,5,6,1.0,1.3
2026-01-13T0900,2671A,100.9016,36.9464,海北藏族自治州,海晏县西海镇,,18,18,16,10,11,42,,54,52,12,3,8,8,0.5,0.3
2026-01-13T0900,3867A,102.074,36.5056,海东市,平安区公安局北苑,,38,38,34,24,15,15,,25,25,23,20,7,11,1.0,0.8
2026-01-13T0900,4163A,102.0984,36.5119,海东市,滨河路,,40,40,35,19,19,0,,4,4,36,37,7,8,0.9,0.8
2026-01-13T0900,1410A,110.3189,20.0596,海口市,海南大学,颗粒物(PM10),60,70,58,34,26,42,,80,69,50,17,6,6,0.4,0.3
2026-01-13T0900,1411A,110.2827,20.0051,海口市,秀英海南医院,"颗粒物(PM10),细颗粒物(PM2.5)",57,63,57,40,25,31,,68,58,54,17,8,7,0.6,0.4
2026-01-13T0900,1412A,110.3391,19.9979,海口市,海南师范大学,颗粒物(PM10),55,59,56,37,25,38,,81,71,48,16,6,6,0.7,0.4
2026-01-13T0900,1413A,110.3303,20.0359,海口市,龙华路环保局宿舍,颗粒物(PM10),53,56,56,34,25,54,,80,72,37,16,/,/,0.9,0.7
2026-01-13T0900,3539A,110.5111,19.9737,海口市,桂林洋子站,颗粒物(PM10),58,66,62,38,30,28,,62,54,44,18,/,/,/,/
2026-01-13T0900,4134A,110.1952,20.0451,海口市,长滨二路9号,细颗粒物(PM2.5),69,86,56,50,28,21,,60,49,47,16,/,/,/,/
2026-01-13T0900,2673A,100.6158,36.2985,海南藏族自治州,共和县恰卜恰镇,,33,33,31,12,17,18,,31,29,35,23,13,12,0.8,0.6
2026-01-13T0900,2676A,97.373,37.376,海西蒙古族藏族自治州,德令哈市,,29,29,21,13,9,70,,71,71,3,9,12,15,0.4,0.7
2026-01-13T0900,1049A,114.492,36.5712,邯郸市,矿院,细颗粒物(PM2.5),122,117,107,92,77,8,,3,3,61,57,12,12,1.5,1.3
2026-01-13T0900,1050A,114.4839,36.6136,邯郸市,丛台公园,细颗粒物(PM2.5),104,135,105,78,66,9,,8,8,58,57,22,16,1.9,1.4
2026-01-13T0900,3458A,114.7893,36.5592,邯郸市,香泉濮院小区,细颗粒物(PM2.5),144,160,122,110,71,12,,10,10,59,47,15,14,1.3,1.1
2026-01-13T0900,3580A,114.1998,36.4439,邯郸市,峰峰矿区临水派出所,颗粒物(PM10),72,93,67,48,33,41,,55,53,22,18,20,15,0.8,0.7
2026-01-13T0900,4068A,114.5209,36.7697,邯郸市,建安街268号,细颗粒物(PM2.5),105,146,126,79,75,5,,3,3,53,54,13,13,1.4,1.3
2026-01-13T0900,4069A,114.5488,36.6177,邯郸市,丛台东路558号,细颗粒物(PM2.5),144,146,112,110,75,4,,2,2,73,64,19,15,1.6,1.4
2026-01-13T0900,2635A,107.0155,33.0707,汉中市,市监测站,细颗粒物(PM2.5),135,115,125,103,111,4,,6,5,30,46,5,7,1.7,1.6
2026-01-13T0900,2636A,107.0083,33.114,汉中市,鑫源开发区,细颗粒物(PM2.5),102,104,105,76,91,,,10,,41,43,6,7,1.1,1.1
2026-01-13T0900,2637A,107.0072,33.0323,汉中市,南郑大河坎水厂,细颗粒物(PM2.5),139,120,130,106,100,3,,9,7,25,35,6,6,1.7,1.4
2026-01-13T0900,1223A,120.2073,30.2111,杭州市,滨江,颗粒物(PM10),55,59,69,37,36,28,,26,24,45,40,8,7,0.6,0.5
2026-01-13T0900,1224A,120.0625,30.2737,杭州市,西溪,,46,46,52,27,25,3,,0,0,47,33,9,9,0.8,0.7
2026-01-13T0900,1226A,120.3417,30.315,杭州市,下沙,颗粒物(PM10),54,58,68,30,31,27,,29,29,52,41,9,9,0.8,0.7
2026-01-13T0900,1227A,120.1252,30.2465,杭州市,卧龙桥,,,40,50,23,24,25,,19,19,,32,10,10,0.4,0.4
2026-01-13T0900,1228A,120.1902,30.2691,杭州市,浙江农大,颗粒物(PM10),67,83,78,43,38,10,,2,2,64,57,7,7,0.9,0.6
2026-01-13T0900,1230A,120.1195,30.3121,杭州市,和睦小学,颗粒物(PM10),52,54,65,30,34,12,,16,14,48,45,7,6,0.8,0.7
2026-01-13T0900,1231A,120.3076,30.4146,杭州市,临平镇,颗粒物(PM10),56,62,72,28,30,16,,21,18,57,48,8,8,0.7,0.5
2026-01-13T0900,1232A,120.2753,30.1839,杭州市,城厢镇,"颗粒物(PM10),细颗粒物(PM2.5)",58,66,82,41,38,22,,27,25,53,51,9,8,0.6,0.5
2026-01-13T0900,1233A,120.0883,30.1808,杭州市,云栖,,45,45,55,26,24,17,,36,34,34,23,4,4,0.6,0.5
2026-01-13T0900,3557A,119.9463,30.0496,杭州市,镇二中,细颗粒物(PM2.5),59,58,69,42,41,11,,10,9,48,48,8,6,1.1,0.9
2026-01-13T0900,3558A,119.7184,30.2367,杭州市,市府大楼,细颗粒物(PM2.5),57,62,76,40,40,23,,26,26,33,29,12,11,0.8,0.8
2026-01-13T0900,3656A,120.1554,30.2863,杭州市,消防大队,,49,49,60,30,31,18,,13,13,49,45,7,7,0.6,0.5
2026-01-13T0900,1270A,117.1957,31.7845,合肥市,明珠广场,颗粒物(PM10),87,124,84,58,42,11,,9,7,67,59,7,7,1.1,0.7
2026-01-13T0900,1271A,117.307,31.8765,合肥市,三里街,颗粒物(PM10),82,114,91,58,45,8,,3,3,52,62,7,7,1.0,0.8
2026-01-13T0900,1272A,117.2587,31.8703,合肥市,琥珀山庄,细颗粒物(PM2.5),80,100,86,59,50,10,,4,4,52,62,9,8,1.1,1.1
2026-01-13T0900,1275A,117.2593,31.9376,合肥市,庐阳区,颗粒物(PM10),84,117,88,51,41,12,,13,7,62,50,4,5,0.9,0.8
2026-01-13T0900,1276A,117.345251,31.861615,合肥市,瑶海区,颗粒物(PM10),76,102,88,54,41,17,,8,8,49,66,7,6,1.0,0.7
2026-01-13T0900,1277A,117.3033,31.7967,合肥市,包河区,细颗粒物(PM2.5),92,127,84,68,46,4,,3,3,84,64,13,10,1.4,0.9
2026-01-13T0900,1278A,117.278,31.7392,合肥市,滨湖新区,细颗粒物(PM2.5),85,92,75,63,45,30,,13,13,37,52,6,6,0.9,0.7
2026-01-13T0900,1279A,117.1324,31.8395,合肥市,高新区,颗粒物(PM10),67,83,73,45,38,21,,29,26,60,45,6,6,0.7,0.5
2026-01-13T0900,3464A,117.3802,31.9148,合肥市,高教基地,细颗粒物(PM2.5),80,95,87,59,51,19,,9,9,38,51,9,9,0.8,0.7
2026-01-13T0900,4098A,117.2518,31.8404,合肥市,中国科学技术大学,细颗粒物(PM2.5),75,97,78,55,43,10,,4,4,58,55,9,9,0.8,0.7
2026-01-13T0900,3614A,79.9241,37.0878,和田地区,地区环保局,颗粒物(PM10),134,217,108,24,43,57,,51,51,16,32,2,8,0.1,0.6
2026-01-13T0900,3615A,79.9132,37.1137,和田地区,市环保局,颗粒物(PM10),109,168,101,25,41,42,,36,36,36,39,2,5,1.1,1.1
2026-01-13T0900,2517A,108.0496,24.6957,河池市,市环保站,细颗粒物(PM2.5),92,81,82,68,67,9,,9,9,24,32,2,6,1.0,0.9
2026-01-13T0900,4302A,108.0901,24.6945,河池市,上任中路54号,细颗粒物(PM2.5),112,119,96,84,80,4,,3,3,29,39,4,9,1.1,1
2026-01-13T0900,1697A,114.6962,23.7538,河源市,东埔,,45,45,52,26,32,34,,18,18,38,43,9,7,0.8,0.8
2026-01-13T0900,1698A,114.6895,23.7232,河源市,老城,,37,37,46,20,27,16,,28,25,39,32,8,7,0.7,0.6
2026-01-13T0900,3374A,115.5562,35.089,菏泽市,定陶老年大学,颗粒物(PM10),95,139,120,53,55,17,,24,22,50,38,6,6,0.7,0.5
2026-01-13T0900,4114A,115.4239,35.2593,菏泽市,黄河路600号,颗粒物(PM10),101,151,128,72,63,4,,5,4,56,55,7,7,1.1,0.8
2026-01-13T0900,4115A,115.5025,35.2727,菏泽市,菏泽市人社局,细颗粒物(PM2.5),128,168,125,97,63,6,,9,7,54,45,14,8,1.6,0.8
2026-01-13T0900,4184A,115.479691,35.244011,菏泽市,永昌路1号,颗粒物(PM10),92,134,128,58,64,13,,8,8,45,48,8,9,0.9,0.6
2026-01-13T0900,4193A,115.471542,35.280012,菏泽市,长城路999号,颗粒物(PM10),101,151,135,70,54,12,,12,12,53,44,10,7,1.3,0.9
2026-01-13T0900,2514A,111.5264,24.4178,贺州市,环保小区,细颗粒物(PM2.5),67,66,68,48,47,24,,27,23,23,34,7,10,0.6,0.5
2026-01-13T0900,2515A,111.561,24.4074,贺州市,政协大楼,细颗粒物(PM2.5),72,67,62,52,42,5,,4,4,36,43,11,12,1.1,0.8
2026-01-13T0900,3534A,111.4744,24.455,贺州市,西湾,细颗粒物(PM2.5),62,71,70,44,39,8,,9,9,26,40,9,10,0.8,0.7
2026-01-13T0900,2385A,114.17,35.9019,鹤壁市,市监测站,颗粒物(PM10),76,101,70,42,25,19,,39,35,34,28,6,5,0.7,0.5
2026-01-13T0900,2386A,114.2953,35.7512,鹤壁市,市交警支队,颗粒物(PM10),72,94,81,33,21,4,,30,23,50,28,7,5,1.0,0.6
2026-01-13T0900,2387A,114.2877,35.7302,鹤壁市,迎宾馆,颗粒物(PM10),75,100,84,12,27,3,,35,28,45,30,5,5,1.0,0.7
2026-01-13T0900,3474A,114.2616,35.6824,鹤壁市,大新区,颗粒物(PM10),66,82,83,26,24,8,,27,22,37,29,4,5,0.6,0.5
2026-01-13T0900,3596A,114.1573,35.9607,鹤壁市,南山宾馆,颗粒物(PM10),78,105,81,40,24,44,,67,64,11,8,7,7,0.5,0.5
2026-01-13T0900,2244A,130.2537,47.3416,鹤岗市,哈啤分公司,,49,,39,34,41,52,,54,54,14,20,6,9,0.5,0.6
2026-01-13T0900,2245A,130.2683,47.3087,鹤岗市,斯达机电,,46,34,45,32,34,45,,48,48,16,24,7,10,0.7,0.6
2026-01-13T0900,2246A,130.3114,47.3388,鹤岗市,东山纸板厂,,50,,47,35,41,47,,43,43,17,34,16,15,0.6,0.9
2026-01-13T0900,2263A,127.4832,50.2524,黑河市,交通局,,19,19,39,11,29,40,,43,43,16,23,5,8,0.5,0.7
2026-01-13T0900,2264A,127.5146,50.2339,黑河市,环保局,,16,13,33,11,29,41,,42,42,13,22,4,9,0.3,0.5
2026-01-13T0900,1074A,115.6839,37.754,衡水市,电机北厂,颗粒物(PM10),80,110,110,52,50,13,,8,8,44,38,14,12,0.9,0.7
2026-01-13T0900,1075A,115.6303,37.7318,衡水市,市监测站,颗粒物(PM10),74,98,99,41,45,18,,19,19,48,39,13,12,1.0,0.8
2026-01-13T0900,3188A,115.6684,37.7216,衡水市,市城管局,颗粒物(PM10),77,104,114,44,51,14,,12,12,52,43,12,12,1.1,0.8
2026-01-13T0900,3459A,115.599,37.5491,衡水市,地表水厂,颗粒物(PM10),63,75,102,41,52,12,,7,7,47,48,12,14,0.7,0.8
2026-01-13T0900,2457A,112.6209,26.9268,衡阳市,衡阳化工总厂,细颗粒物(PM2.5),148,144,143,113,110,3,,1,1,25,50,10,11,1.3,1.5
2026-01-13T0900,2458A,112.621,26.8957,衡阳市,珠晖区环保局,细颗粒物(PM2.5),159,141,144,121,113,3,,3,3,27,56,8,8,1.8,1.8
2026-01-13T0900,2459A,112.628,26.8654,衡阳市,市委党校,细颗粒物(PM2.5),160,139,131,122,109,6,,3,3,38,50,19,13,1.5,1.4
2026-01-13T0900,2460A,112.6007,26.8977,衡阳市,市监测站,细颗粒物(PM2.5),156,179,176,119,106,4,,1,1,38,49,15,11,1.5,1.8
2026-01-13T0900,2461A,112.5658,26.9013,衡阳市,真空机电公司,细颗粒物(PM2.5),149,136,158,114,116,4,,2,2,34,54,9,10,1.9,1.7
2026-01-13T0900,3399A,112.6703,26.8817,衡阳市,师范学院,细颗粒物(PM2.5),114,135,141,86,87,2,,1,1,28,48,5,4,1.4,1.4
2026-01-13T0900,3038A,103.3757,23.3679,红河哈尼族彝族自治州,州图书馆,,,74,59,54,42,,,84,83,27,11,6,7,0.8,0.6
2026-01-13T0900,4154A,103.401,23.3561,红河哈尼族彝族自治州,蒙自市朝阳路,细颗粒物(PM2.5),72,61,44,52,44,36,,85,77,26,10,5,6,0.8,0.6
2026-01-13T0900,1090A,111.6506,40.7517,呼和浩特市,呼市一监,颗粒物(PM10),71,92,99,38,37,7,,14,14,40,36,7,10,1.1,0.7
2026-01-13T0900,1094A,111.7516,40.8369,呼和浩特市,如意水处理厂,,34,30,53,14,22,1,,7,5,67,47,12,11,0.6,0.4
2026-01-13T0900,1095A,111.727798,40.806187,呼和浩特市,二十九中,颗粒物(PM10),51,52,83,23,29,7,,20,19,56,32,11,13,0.9,0.5
2026-01-13T0900,1097A,111.717,40.7617,呼和浩特市,化肥厂生活区,颗粒物(PM10),59,68,96,32,34,8,,12,12,40,38,5,9,1.1,0.8
2026-01-13T0900,3699A,111.6519,40.8389,呼和浩特市,海东办,颗粒物(PM10),64,78,76,40,29,3,,11,7,52,35,5,5,1.1,0.6
2026-01-13T0900,4275A,111.591512,40.827312,呼和浩特市,成吉思汗西街8号,颗粒物(PM10),62,73,82,35,25,5,,14,11,54,42,8,8,0.8,0.7
2026-01-13T0900,4276A,111.6597,40.8077,呼和浩特市,公园东路75号,颗粒物(PM10),56,61,89,24,29,19,,23,21,55,38,6,8,0.7,0.5
2026-01-13T0900,4277A,111.5427,40.7846,呼和浩特市,金海路35号,颗粒物(PM10),59,68,95,27,34,6,,7,7,50,47,8,11,0.5,0.5
2026-01-13T0900,3061A,119.7511,49.1576,呼伦贝尔市,国华电力东,,50,50,27,31,20,34,,47,46,24,17,6,7,0.5,0.4
2026-01-13T0900,4279A,119.7569,49.2222,呼伦贝尔市,伊敏大街东7号,,38,32,25,26,20,36,,48,46,20,11,8,8,0.8,0.5
2026-01-13T0900,1250A,120.075,30.867,湖州市,城西水厂,颗粒物(PM10),54,58,73,35,40,15,,12,12,62,66,11,12,0.6,0.4
2026-01-13T0900,2873A,120.083,30.8929,湖州市,仁皇山新区,颗粒物(PM10),65,79,78,41,40,7,,20,20,92,75,15,14,0.7,0.6
2026-01-13T0900,2907A,120.1846,30.8592,湖州市,吴兴区站,细颗粒物(PM2.5),67,75,70,48,34,15,,32,30,65,50,14,8,0.8,0.6
2026-01-13T0900,3562A,120.4146,30.8538,湖州市,南浔区站,细颗粒物(PM2.5),69,84,68,50,34,12,,34,33,66,48,12,9,0.8,0.6
2026-01-13T0900,1607A,120.904878,40.721091,葫芦岛市,龙港区,,,33,55,15,30,,,57,56,34,34,19,26,1.0,0.9
2026-01-13T0900,1608A,120.8382,40.7521,葫芦岛市,化工街,,48,48,52,24,20,32,,48,44,38,29,24,22,0.8,0.6
2026-01-13T0900,1609A,120.8339,40.7078,葫芦岛市,新区,,38,26,46,26,26,34,,49,45,37,31,19,20,1.1,1
2026-01-13T0900,1610A,120.8697,40.7679,葫芦岛市,东城区,,21,21,44,13,24,49,,54,52,23,31,29,21,0.5,0.7
2026-01-13T0900,2483A,109.9297,27.5383,怀化市,河西地税局,细颗粒物(PM2.5),75,64,91,55,78,7,,4,4,18,32,2,3,/,/
2026-01-13T0900,2484A,109.9783,27.5342,怀化市,市四医院,细颗粒物(PM2.5),72,73,113,52,83,0,,1,1,19,33,9,11,0.7,0.8
2026-01-13T0900,2485A,109.9971,27.5579,怀化市,监测楼,细颗粒物(PM2.5),102,95,106,76,86,15,,14,14,20,29,2,4,0.1,0.2
2026-01-13T0900,1210A,119.0566,33.5991,淮安市,钵池山,细颗粒物(PM2.5),97,122,100,72,49,10,,25,21,58,35,9,10,1.5,1.1
2026-01-13T0900,1211A,119.0083,33.578,淮安市,北京南路,颗粒物(PM10),111,171,115,82,52,0,,3,0,65,53,12,12,1.4,1
2026-01-13T0900,1212A,118.9938,33.6083,淮安市,市监测站,细颗粒物(PM2.5),117,166,101,88,58,4,,16,13,61,43,11,12,1.4,0.8
2026-01-13T0900,1213A,119.135,33.5038,淮安市,楚州区监测站,细颗粒物(PM2.5),118,161,111,89,65,8,,8,5,53,45,16,12,1.3,0.8
2026-01-13T0900,3426A,118.8757,33.2897,淮安市,新华书店,细颗粒物(PM2.5),98,129,100,73,55,17,,23,20,53,32,13,10,1.4,1.2
2026-01-13T0900,4092A,119.119691,33.550006,淮安市,枚皋中路89号,细颗粒物(PM2.5),127,115,103,96,61,10,,18,13,51,41,13,11,0.5,0.4
2026-01-13T0900,4206A,119.028838,33.631911,淮安市,承德北路606号,颗粒物(PM10),128,205,123,84,57,5,,22,17,62,46,9,11,1.8,0.8
2026-01-13T0900,2282A,116.8005,33.9749,淮北市,监测站,细颗粒物(PM2.5),113,153,114,85,49,9,,20,17,70,44,15,11,1.3,0.8
2026-01-13T0900,2283A,116.8094,33.9008,淮北市,烈山区政府,细颗粒物(PM2.5),105,148,122,79,57,9,,7,5,62,45,17,14,0.7,0.5
2026-01-13T0900,4017A,116.7926,33.9534,淮北市,市博物馆,细颗粒物(PM2.5),107,129,128,80,64,12,,12,11,68,57,10,7,1.0,0.9
2026-01-13T0900,4100A,116.8322,33.9884,淮北市,杜集区第一实验学校,细颗粒物(PM2.5),132,148,128,100,62,2,,16,14,58,40,12,10,1.2,0.8
2026-01-13T0900,2277A,116.8304,32.7726,淮南市,潘集区政府,细颗粒物(PM2.5),124,158,121,94,65,15,,39,35,63,33,11,8,0.9,0.7
2026-01-13T0900,2279A,116.8569,32.5949,淮南市,谢家集区政府,颗粒物(PM10),108,166,97,74,40,30,,55,51,65,28,13,9,,0.6
2026-01-13T0900,2280A,116.8279,32.6333,淮南市,八公山区政府,"颗粒物(PM10),细颗粒物(PM2.5)",74,98,84,54,42,48,,68,63,29,16,8,6,0.6,0.5
2026-01-13T0900,2894A,117.0561,32.6536,淮南市,经济技术开发区消防队,细颗粒物(PM2.5),114,141,118,86,54,15,,17,13,63,41,9,7,0.7,0.6
2026-01-13T0900,3329A,117.011,32.5891,淮南市,山南新区,细颗粒物(PM2.5),97,132,115,72,43,29,,52,48,58,29,6,4,0.7,0.6
2026-01-13T0900,4209A,117.003137,32.644456,淮南市,国庆中路369号,细颗粒物(PM2.5),103,116,93,77,66,21,,46,43,54,30,10,10,0.9,0.7
2026-01-13T0900,2446A,114.9021,30.474,黄冈市,职工中心,细颗粒物(PM2.5),84,91,79,62,51,24,,23,23,39,38,7,10,1.2,0.9
2026-01-13T0900,2929A,114.8858,30.4519,黄冈市,红卫路,细颗粒物(PM2.5),88,79,74,65,56,32,,17,17,30,41,8,10,0.8,0.8
2026-01-13T0900,3398A,114.9134,30.4446,黄冈市,市林业局,细颗粒物(PM2.5),93,94,96,69,55,22,,17,17,44,46,4,8,0.8,0.8
2026-01-13T0900,2672A,102.02,35.5101,黄南藏族自治州,同仁县隆务镇,,24,24,25,3,10,47,,50,49,2,3,9,9,0.3,0.3
2026-01-13T0900,2295A,118.2905,29.6965,黄山市,延安路89号,细颗粒物(PM2.5),62,,58,44,43,8,,10,8,14,22,4,4,0.6,0.6
2026-01-13T0900,2297A,118.1369,30.2755,黄山市,黄山区政府5号楼,,47,47,45,26,30,22,,25,23,10,10,2,3,0.5,0.4
2026-01-13T0900,4210A,118.335445,29.720283,黄山市,滨江东路7-2号,颗粒物(PM10),62,73,71,36,42,6,,6,6,15,27,/,/,/,/
2026-01-13T0900,2423A,115.0547,30.2332,黄石市,沈家营,细颗粒物(PM2.5),107,116,106,80,59,6,,1,1,48,58,18,11,1.6,1.6
2026-01-13T0900,2426A,114.899,30.211,黄石市,铁山,细颗粒物(PM2.5),95,98,96,71,58,24,,21,21,60,45,19,10,1.0,0.5
2026-01-13T0900,2427A,115.0259,30.2108,黄石市,团城山,细颗粒物(PM2.5),109,122,94,82,55,10,,10,8,50,46,13,8,1.1,1
2026-01-13T0900,3149A,115.0174,30.1591,黄石市,笔架山北路,颗粒物(PM10),128,206,132,94,60,10,,10,8,63,41,18,12,2.2,1.5
2026-01-13T0900,4185A,115.078022,30.21118,黄石市,磁湖东路29号,细颗粒物(PM2.5),119,124,107,90,68,7,,1,1,45,56,18,11,1.2,1.3
2026-01-13T0900,1392A,114.4181,23.0528,惠州市,河南岸金山湖子站,细颗粒物(PM2.5),80,97,86,59,48,25,,37,34,48,37,8,7,0.9,0.8
2026-01-13T0900,1393A,114.4055,23.0824,惠州市,下埔横江三路子站,细颗粒物(PM2.5),74,94,93,54,51,21,,36,32,56,51,10,11,0.8,0.8
2026-01-13T0900,1395A,114.4645,22.7832,惠州市,惠阳区承修路船湖子站,颗粒物(PM10),68,85,88,47,45,69,,25,25,37,43,10,7,0.5,0.5
2026-01-13T0900,1396A,114.5316,22.7423,惠州市,大亚湾管委会子站,颗粒物(PM10),79,107,80,57,41,47,,19,19,59,53,6,7,0.8,0.6
2026-01-13T0900,3314A,114.4334,22.8134,惠州市,惠阳秋长,颗粒物(PM10),78,105,107,55,51,62,,22,22,45,58,/,/,/,/
2026-01-13T0900,3452A,114.6521,22.7755,惠州市,大亚湾霞涌,颗粒物(PM10),54,57,65,33,30,93,,63,63,29,31,/,/,/,/
2026-01-13T0900,4300A,114.4089,23.1147,惠州市,文华一路1号,细颗粒物(PM2.5),84,100,87,62,48,20,,21,21,57,55,/,/,/,/
2026-01-13T0900,2240A,130.9618,45.2926,鸡西市,环保局,细颗粒物(PM2.5),65,,61,47,50,37,,33,33,16,28,8,10,0.7,0.8
2026-01-13T0900,2243A,130.9294,45.2959,鸡西市,第一中学,细颗粒物(PM2.5),62,46,54,44,44,35,,31,31,17,28,4,6,0.6,0.7
2026-01-13T0900,3707A,131.0069,45.2988,鸡西市,欧美日汽修厂,细颗粒物(PM2.5),63,52,76,45,65,25,,13,13,29,36,11,22,0.7,0.7
2026-01-13T0900,2367A,114.9753,27.0803,吉安市,红声器材厂,细颗粒物(PM2.5),70,76,88,51,47,5,,1,1,38,51,8,10,1.0,0.9
2026-01-13T0900,2369A,114.9903,27.1313,吉安市,市环境监测站,细颗粒物(PM2.5),67,72,81,48,45,8,,6,4,41,49,8,10,/,/
2026-01-13T0900,2370A,115.009527,27.096792,吉安市,青原区法院,细颗粒物(PM2.5),63,74,82,45,43,3,,7,7,51,50,11,12,1.0,0.7
2026-01-13T0900,1772A,126.54,43.8622,吉林市,哈达湾,,46,46,48,21,23,49,,52,51,12,16,7,12,0.9,0.9
2026-01-13T0900,1773A,126.5843,43.8358,吉林市,东局子,,38,38,36,16,24,45,,45,45,12,17,8,4,0.8,0.8
2026-01-13T0900,1774A,126.5051,43.8243,吉林市,电力学院,,50,50,45,25,28,49,,49,49,10,17,12,11,0.7,0.7
2026-01-13T0900,1775A,126.6133,43.8971,吉林市,江北,,32,32,44,20,24,48,,47,47,13,17,8,8,0.9,0.9
2026-01-13T0900,1776A,126.5549,43.8304,吉林市,江南公园,,35,35,67,21,32,49,,48,48,9,16,8,8,0.5,0.6
2026-01-13T0900,2868A,126.4737,43.953,吉林市,九站,,49,48,48,34,29,43,,44,44,18,22,6,7,0.7,0.7
2026-01-13T0900,1299A,116.9866,36.6118,济南市,科干所,颗粒物(PM10),82,114,91,51,39,11,,12,12,64,45,29,17,1.5,1
2026-01-13T0900,1300A,116.9379,36.6652,济南市,农科所,颗粒物(PM10),88,125,120,49,45,6,,3,3,69,60,21,19,1.2,1
2026-01-13T0900,1301A,117.1265,36.6736,济南市,开发区,颗粒物(PM10),83,115,87,51,39,18,,13,11,58,52,13,8,1.1,0.9
2026-01-13T0900,1303A,117.0616,36.6865,济南市,省种子仓库,颗粒物(PM10),96,141,123,46,47,10,,6,6,59,55,15,11,1.3,1.1
2026-01-13T0900,1304A,116.9495185,36.644937,济南市,机床二厂,颗粒物(PM10),114,178,117,81,71,6,,5,4,70,58,51,30,1.8,0.8
2026-01-13T0900,1305A,117.0496,36.6629,济南市,市监测站,颗粒物(PM10),90,129,98,46,42,9,,5,5,54,47,11,9,1.2,0.9
2026-01-13T0900,1306A,116.7674,36.5458,济南市,长清党校,颗粒物(PM10),67,83,90,34,44,14,,12,12,51,44,8,11,1.0,0.9
2026-01-13T0900,1961A,117.5323,36.6865,济南市,东山小学,颗粒物(PM10),112,173,97,66,36,18,,11,11,61,48,27,9,1.5,1
2026-01-13T0900,3059A,117.7181,36.205,济南市,泰兴公司,细颗粒物(PM2.5),117,153,135,88,83,9,,6,6,59,54,20,13,1.6,1.4
2026-01-13T0900,3064A,117.6861,36.2172,济南市,莱芜战役纪念馆,细颗粒物(PM2.5),152,180,137,116,83,8,,6,5,57,54,14,13,1.2,1
2026-01-13T0900,3494A,117.1673,36.9782,济南市,济阳区政府,颗粒物(PM10),91,132,115,56,49,20,,18,18,62,52,34,18,1.3,0.8
2026-01-13T0900,3495A,117.1168,36.6299,济南市,锦屏中学,,,98,74,46,29,,,31,29,39,29,6,4,1.3,0.8
2026-01-13T0900,4108A,117.7107,36.2385,济南市,山财大街5号,颗粒物(PM10),82,114,117,54,65,14,,6,6,60,59,18,17,0.9,1.1
2026-01-13T0900,4109A,116.9744,36.6889,济南市,无影山路12号,颗粒物(PM10),97,144,114,68,54,14,,10,10,61,54,21,19,1.2,0.9
2026-01-13T0900,1653A,116.6229,35.4288,济宁市,火炬城,细颗粒物(PM2.5),132,146,113,100,78,7,,9,8,55,48,6,7,1.0,0.7
2026-01-13T0900,3500A,116.5808,35.3703,济宁市,北湖一中,细颗粒物(PM2.5),129,136,109,98,76,12,,9,7,61,49,14,12,1.1,0.8
2026-01-13T0900,3501A,116.8251,35.5592,济宁市,服务中心,细颗粒物(PM2.5),112,156,131,84,71,3,,1,1,64,62,14,15,1.3,1
2026-01-13T0900,3678A,116.5907,35.4054,济宁市,市第七中学,细颗粒物(PM2.5),117,141,125,88,72,16,,8,8,59,57,15,10,1.3,1
2026-01-13T0900,4111A,116.6075,35.4566,济宁市,任和路,细颗粒物(PM2.5),125,149,136,95,75,3,,1,0,59,56,8,8,1.0,0.9
2026-01-13T0900,4112A,116.5648,35.3921,济宁市,文体南路1号,细颗粒物(PM2.5),137,158,130,104,72,6,,2,2,62,55,13,9,1.3,0.9
2026-01-13T0900,2255A,130.2749,46.8028,佳木斯市,佳纺,细颗粒物(PM2.5),112,92,100,84,74,30,,19,19,28,44,24,12,0.7,1
2026-01-13T0900,2257A,130.3258,46.7975,佳木斯市,环保局,细颗粒物(PM2.5),67,57,86,48,75,30,,16,16,33,52,11,13,0.7,0.8
2026-01-13T0900,4285A,130.363,46.806,佳木斯市,顺和街,细颗粒物(PM2.5),58,55,87,41,73,29,,18,18,28,47,12,14,0.8,0.9
2026-01-13T0900,4286A,130.3952,46.8268,佳木斯市,长安路196号,细颗粒物(PM2.5),64,60,80,46,71,34,,16,16,25,44,11,9,0.7,0.8
2026-01-13T0900,1252A,120.7439,30.778,嘉兴市,清河小学,颗粒物(PM10),62,74,79,38,35,16,,16,14,63,51,12,8,0.8,0.5
2026-01-13T0900,1253A,120.7261,30.7477,嘉兴市,嘉兴学院,颗粒物(PM10),57,63,77,33,36,23,,7,7,52,54,10,9,0.9,0.6
2026-01-13T0900,2872A,120.7845,30.7524,嘉兴市,南湖区残联,颗粒物(PM10),62,73,77,41,40,31,,24,24,50,50,7,7,0.8,0.6
2026-01-13T0900,3407A,120.6915,30.7741,嘉兴市,秀洲住建,颗粒物(PM10),61,71,79,39,38,18,,11,11,59,58,8,8,0.6,0.5
2026-01-13T0900,1945A,98.291,39.7705,嘉峪关市,气象局,,22,14,40,3,14,69,,64,62,18,16,12,20,0.3,0.4
2026-01-13T0900,2884A,98.2672,39.7978,嘉峪关市,酒钢宾馆,,27,27,52,7,15,42,,38,38,51,58,14,24,0.4,0.7
2026-01-13T0900,3248A,98.2644,39.7723,嘉峪关市,雄关区,,23,19,29,13,17,71,,52,52,16,21,12,19,0.3,0.5
2026-01-13T0900,1383A,113.1063,22.6058,江门市,北街,细颗粒物(PM2.5),83,87,113,61,70,38,,27,26,72,79,/,/,/,/
2026-01-13T0900,1384A,113.073,22.5835,江门市,西区,颗粒物(PM10),96,141,127,60,69,31,,12,12,81,86,/,/,/,/
2026-01-13T0900,1385A,113.0218,22.531,江门市,圭峰西,细颗粒物(PM2.5),105,84,91,79,64,38,,58,55,71,58,/,/,/,/
2026-01-13T0900,1386A,113.0826,22.5947,江门市,东湖,细颗粒物(PM2.5),93,111,111,69,62,19,,10,10,88,91,12,10,1.0,0.8
2026-01-13T0900,3311A,113.1077,22.5647,江门市,江海富民,颗粒物(PM10),102,153,129,72,56,40,,34,32,82,79,/,/,1.2,0.8
2026-01-13T0900,3449A,113.0496,22.4669,江门市,新会银湖,细颗粒物(PM2.5),137,,95,104,78,13,,15,11,67,53,10,8,0.9,0.6
2026-01-13T0900,3335A,113.3137,35.2643,焦作市,马村街道办,颗粒物(PM10),84,117,95,49,33,29,,55,53,35,15,11,8,1.1,0.4
2026-01-13T0900,3336A,113.2464,35.2374,焦作市,焦作技师学院,颗粒物(PM10),92,133,95,53,26,28,,44,44,44,22,18,9,1.2,0.5
2026-01-13T0900,3477A,113.1656,35.2536,焦作市,中站许衡医院,颗粒物(PM10),86,121,94,37,31,31,,64,60,44,18,6,8,0.8,0.5
2026-01-13T0900,3981A,113.2456,35.18,焦作市,原李万街道办,颗粒物(PM10),91,132,115,39,31,17,,21,20,35,22,11,9,1.0,0.6
2026-01-13T0900,4264A,113.234,35.219,焦作市,新安路1731号,颗粒物(PM10),94,138,115,46,32,41,,40,40,26,19,14,8,0.8,0.5
2026-01-13T0900,4295A,113.2722,35.2121,焦作市,人民路3066号,颗粒物(PM10),98,145,110,41,26,25,,27,26,41,22,12,7,1.0,0.6
2026-01-13T0900,1708A,116.3701,23.5345,揭阳市,新兴,细颗粒物(PM2.5),123,140,98,93,57,15,,7,6,67,51,13,12,1.3,0.7
2026-01-13T0900,1709A,116.3261,23.5442,揭阳市,西马,细颗粒物(PM2.5),110,152,103,83,54,11,,8,8,62,40,13,8,1.0,0.7
2026-01-13T0900,1710A,116.361,23.5627,揭阳市,东兴,"颗粒物(PM10),细颗粒物(PM2.5)",88,126,100,65,45,13,,5,5,61,44,12,11,/,/
2026-01-13T0900,1711A,116.4151,23.5295,揭阳市,渔湖,颗粒物(PM10),84,118,90,60,42,7,,4,4,59,44,7,9,/,/
2026-01-13T0900,3320A,116.4028,23.5699,揭阳市,曲溪,颗粒物(PM10),81,112,96,48,47,16,,14,11,57,40,6,9,1.1,0.8
2026-01-13T0900,1944A,102.1691,38.5166,金昌市,天庆家园,颗粒物(PM10),59,68,103,28,26,34,,46,45,38,23,40,38,1.3,0.9
2026-01-13T0900,4022A,102.1648,38.5369,金昌市,金川区人防中心,,34,34,90,21,29,36,,51,50,35,17,35,27,1.2,0.7
2026-01-13T0900,4239A,102.193042,38.531887,金昌市,长春路96号,,38,38,73,11,22,44,,43,42,24,21,20,35,0.9,0.9
2026-01-13T0900,1262A,119.6478,29.0773,金华市,十五中,颗粒物(PM10),63,76,85,36,45,19,,15,15,50,51,5,4,0.9,0.6
2026-01-13T0900,1263A,119.6859,29.1032,金华市,监测站,,,,95,,50,,,16,16,48,60,6,4,0.8,0.6
2026-01-13T0900,3659A,119.656,29.1132,金华市,气象局,细颗粒物(PM2.5),77,85,91,56,46,22,,9,9,43,59,4,4,0.9,0.7
2026-01-13T0900,1767A,121.1114,41.0879,锦州市,南山,,29,29,37,15,22,47,,62,58,27,17,10,12,0.7,0.6
2026-01-13T0900,1768A,121.060361,40.842794,锦州市,开发区,,38,38,53,22,27,30,,50,46,32,24,20,14,0.9,0.7
2026-01-13T0900,1769A,121.1836,41.1118,锦州市,百股街道,,20,16,43,14,19,60,,62,61,19,18,9,12,0.7,0.7
2026-01-13T0900,1770A,121.1176,41.1224,锦州市,天安街道,,29,22,40,20,21,64,,67,65,17,17,10,13,0.7,0.7
2026-01-13T0900,1771A,121.1303,41.1385,锦州市,北湖公园,,,,42,20,20,,,66,65,11,12,8,12,0.8,0.8
2026-01-13T0900,2160A,112.8496,35.5051,晋城市,自来水公司,颗粒物(PM10),103,155,113,40,33,6,,18,16,45,29,16,9,2.5,1.1
2026-01-13T0900,2162A,112.8509,35.4886,晋城市,市环保局,颗粒物(PM10),103,155,119,48,31,11,,9,8,44,35,14,6,2.2,0.9
2026-01-13T0900,3620A,112.8258,35.4804,晋城市,泽州一中,颗粒物(PM10),95,139,115,39,29,11,,27,23,39,19,7,5,1.4,0.6
2026-01-13T0900,4078A,112.8246,35.5152,晋城市,前书院路,颗粒物(PM10),89,128,130,26,26,14,,30,27,41,23,7,6,1.3,0.6
2026-01-13T0900,4079A,112.8864,35.4773,晋城市,祥云街666号,颗粒物(PM10),99,148,115,34,35,11,,30,25,28,13,12,6,2.8,0.7
2026-01-13T0900,2174A,112.6992,37.6984,晋中市,榆次区政府,颗粒物(PM10),123,195,162,59,50,3,,3,2,45,37,18,17,1.2,0.8
2026-01-13T0900,2865A,112.7195,37.683,晋中市,榆次三中,颗粒物(PM10),111,171,165,46,38,3,,2,2,41,36,16,16,1.1,0.7
2026-01-13T0900,4080A,112.7375,37.7215,晋中市,广安街188号,颗粒物(PM10),126,201,164,55,44,4,,2,2,51,36,24,17,1.2,0.5
2026-01-13T0900,4200A,112.7478,37.6954,晋中市,迎宾街26号,颗粒物(PM10),112,173,163,48,41,6,,8,8,38,31,22,18,1.1,0.8
2026-01-13T0900,2439A,112.2012,31.048,荆门市,竹园小学,细颗粒物(PM2.5),163,168,139,124,91,5,,41,30,46,31,1,2,1.8,0.8
2026-01-13T0900,2440A,112.1968,30.9892,荆门市,掇刀,细颗粒物(PM2.5),170,171,140,129,88,6,,52,42,51,30,3,6,1.6,0.8
2026-01-13T0900,3012A,112.1849,31.0361,荆门市,西山林语,细颗粒物(PM2.5),140,143,123,107,76,5,,54,45,39,25,6,6,1.4,0.6
2026-01-13T0900,3547A,112.1631,31.0134,荆门市,龙泉中学南校,细颗粒物(PM2.5),152,162,142,116,89,16,,53,43,38,21,3,6,1.1,0.6
2026-01-13T0900,4124A,112.2213,31.0654,荆门市,新台西路6号,细颗粒物(PM2.5),134,115,134,102,94,16,,34,25,33,32,7,10,0.9,0.8
2026-01-13T0900,1844A,112.2493,30.3198,荆州市,市图书馆,细颗粒物(PM2.5),99,81,96,74,84,32,,39,38,25,24,6,8,1.0,0.9
2026-01-13T0900,1845A,112.2009,30.3543,荆州市,市委党校,细颗粒物(PM2.5),103,83,105,77,82,23,,32,31,35,30,3,5,0.9,0.9
2026-01-13T0900,3194A,112.2749,30.3124,荆州市,管委会,细颗粒物(PM2.5),97,72,100,72,83,26,,34,33,30,25,7,8,1.0,0.9
2026-01-13T0900,4268A,112.1722,30.3366,荆州市,学苑路85号,细颗粒物(PM2.5),93,86,111,69,80,28,,35,34,27,24,9,11,0.9,0.9
2026-01-13T0900,2343A,117.2114,29.2931,景德镇市,老干部活动中心,,,63,70,41,43,8,,2,2,,37,7,8,0.8,0.8
2026-01-13T0900,2344A,117.1893,29.2789,景德镇市,兽医站,颗粒物(PM10),65,79,81,41,38,10,,3,3,24,36,8,13,0.8,0.9
2026-01-13T0900,2346A,117.246,29.2958,景德镇市,陶研所,细颗粒物(PM2.5),68,64,69,49,49,3,,1,1,22,42,3,10,0.9,0.8
2026-01-13T0900,4289A,117.154766,29.256967,景德镇市,青少年活动中心,"颗粒物(PM10),细颗粒物(PM2.5)",57,64,83,40,43,7,,1,1,26,42,4,17,/,/
2026-01-13T0900,1803A,115.9873,29.6816,九江市,十里,细颗粒物(PM2.5),65,69,70,47,40,8,,4,4,68,60,7,8,1.1,0.9
2026-01-13T0900,1804A,115.9583,29.7047,九江市,茅山头,颗粒物(PM10),67,84,69,44,34,32,,6,6,41,48,9,7,1.0,0.9
2026-01-13T0900,1805A,115.9877,29.7295,九江市,西园,细颗粒物(PM2.5),82,93,75,60,39,23,,10,10,59,62,10,5,1.2,0.9
2026-01-13T0900,1808A,115.9112,29.6038,九江市,综合工业园,细颗粒物(PM2.5),80,91,72,59,46,26,,14,14,37,46,5,6,0.6,0.6
2026-01-13T0900,3190A,116.0254,29.6995,九江市,外国语学校,细颗粒物(PM2.5),85,90,77,63,45,10,,12,12,56,48,24,13,1.3,1
2026-01-13T0900,4253A,116.010205,29.659402,九江市,莲花大道8号,细颗粒物(PM2.5),53,49,61,37,39,19,,25,24,32,31,4,5,0.6,0.5
2026-01-13T0900,4240A,98.495752,39.733935,酒泉市,玉门东路5号,,27,27,69,7,27,62,,64,64,10,21,9,13,0.2,0.6
2026-01-13T0900,4241A,98.5099,39.7506,酒泉市,北大街108号,,24,24,70,8,29,53,,58,58,19,29,9,12,0.4,0.7
2026-01-13T0900,2698A,76.0071,39.466,喀什地区,巡警大队,颗粒物(PM10),66,81,120,37,70,2,,21,20,81,60,8,8,3.1,2.1
2026-01-13T0900,2699A,75.9756,39.4693,喀什地区,吾办,颗粒物(PM10),61,71,122,36,88,4,,17,16,88,62,10,11,4.0,2.4
2026-01-13T0900,4027A,75.9485,39.4688,喀什地区,老干局,颗粒物(PM10),60,70,151,34,84,10,,29,29,56,52,5,7,2.7,2.4
2026-01-13T0900,1824A,114.3389,34.778,开封市,肿瘤医院,,,142,111,45,26,,,25,22,59,31,7,5,1.1,0.6
2026-01-13T0900,1826A,114.2884,34.7966,开封市,世纪星幼儿园,颗粒物(PM10),94,138,104,54,30,8,,29,24,66,33,2,2,0.9,0.4
2026-01-13T0900,3147A,114.3434,34.8101,开封市,龙亭公园,颗粒物(PM10),101,152,114,56,26,10,,24,19,64,34,8,8,1.1,0.6
2026-01-13T0900,3210A,114.3645,34.7955,开封市,汴京公园,颗粒物(PM10),105,159,118,51,29,4,,20,15,69,35,6,5,1.0,0.5
2026-01-13T0900,3473A,114.2485,34.8306,开封市,技师学院,颗粒物(PM10),82,113,99,41,26,24,,24,24,47,33,10,7,0.9,0.7
2026-01-13T0900,3592A,114.4518,34.7503,开封市,祥符区生态环境局,颗粒物(PM10),100,150,125,42,30,9,,17,14,66,40,8,5,0.9,0.6
2026-01-13T0900,1951A,84.886,45.6029,克拉玛依市,长征新村,细颗粒物(PM2.5),163,148,127,124,98,43,,48,48,35,36,6,6,1.1,1
2026-01-13T0900,1952A,84.8894,45.5827,克拉玛依市,南林小区,细颗粒物(PM2.5),134,148,123,102,77,45,,50,50,19,21,3,3,1.5,1.3
2026-01-13T0900,1954A,84.896,44.3328,克拉玛依市,独山子区,颗粒物(PM10),51,52,102,26,66,41,,58,54,42,41,5,5,0.6,0.8
2026-01-13T0900,1955A,85.6888,46.0909,克拉玛依市,乌尔禾区商贸楼,细颗粒物(PM2.5),252,224,155,202,136,48,,54,52,47,39,6,6,1.5,1.2
2026-01-13T0900,3612A,85.1045,45.6895,克拉玛依市,白碱滩区新站,细颗粒物(PM2.5),182,188,147,137,112,40,,49,49,37,35,10,9,1.1,1
2026-01-13T0900,2697A,76.1457,39.7143,克孜勒苏柯尔克孜自治州,市人民政府,,32,20,102,3,42,100,,95,95,5,17,3,2,0,0.3
2026-01-13T0900,3665A,76.1654,39.7157,克孜勒苏柯尔克孜自治州,克州文化中心,,32,16,95,3,38,100,,93,93,2,22,3,5,0.2,0.8
2026-01-13T0900,1450A,102.8203,24.889,昆明市,呈贡新区,细颗粒物(PM2.5),74,83,46,54,29,3,,1,1,50,36,4,4,1.3,0.7
2026-01-13T0900,1452A,102.7253,25.0904,昆明市,龙泉镇,颗粒物(PM10),53,56,39,26,24,4,,6,5,31,30,2,2,0.8,0.6
2026-01-13T0900,1453A,102.7267,25.0378,昆明市,东风东路,颗粒物(PM10),60,69,54,35,28,4,,4,4,37,37,4,4,1.0,0.8
2026-01-13T0900,1454A,102.6744,25.0671,昆明市,金鼎山,颗粒物(PM10),54,58,50,34,30,8,,6,6,42,37,2,3,0.9,0.7
2026-01-13T0900,1455A,102.6643,25.0401,昆明市,碧鸡广场,颗粒物(PM10),57,64,59,36,32,4,,5,5,48,38,2,3,0.7,0.5
2026-01-13T0900,3179A,102.7491,25.012,昆明市,官渡区博物馆,细颗粒物(PM2.5),67,74,59,48,33,2,,1,1,49,45,4,4,1.7,0.9
2026-01-13T0900,3375A,102.8016,24.8336,昆明市,青年创业园,颗粒物(PM10),56,62,38,38,26,6,,8,8,28,23,3,4,0.8,0.6
2026-01-13T0900,3550A,102.8,24.9787,昆明市,昆明学院,"颗粒物(PM10),细颗粒物(PM2.5)",72,93,66,52,35,5,,3,3,42,38,3,3,0.8,0.5
2026-01-13T0900,3551A,102.5969,24.6738,昆明市,晋宁区生态环境分局,细颗粒物(PM2.5),64,70,56,46,37,0,,0,0,39,32,2,3,1.1,0.7
2026-01-13T0900,3552A,102.6673,24.9861,昆明市,云天化总部,颗粒物(PM10),60,70,41,39,25,3,,2,2,45,35,6,6,0.6,0.4
2026-01-13T0900,1456A,91.132,29.6515,拉萨市,八廓街,,19,14,19,13,12,53,,58,58,15,19,6,7,0.2,0.3
2026-01-13T0900,1457A,91.1221,29.6748,拉萨市,市环保局,,30,,32,21,16,36,,43,43,18,20,7,8,0.6,0.9
2026-01-13T0900,1458A,91.0874,29.6476,拉萨市,区监测站,,14,12,16,3,9,43,,46,46,27,29,4,4,0.7,0.8
2026-01-13T0900,1459A,91.1774,29.6541,拉萨市,西藏大学,,16,11,16,3,9,49,,52,52,13,18,4,4,0.4,0.4
2026-01-13T0900,1460A,90.9798,29.6586,拉萨市,区辐射站,,29,29,22,14,14,6,,36,32,57,29,5,4,0.9,0.6
2026-01-13T0900,1461A,91.0831,29.6292,拉萨市,拉萨火车站,,24,24,24,11,13,30,,28,28,31,30,3,4,0.8,0.7
2026-01-13T0900,2520A,109.2203,23.7252,来宾市,来宾技工学校,细颗粒物(PM2.5),109,90,99,82,74,35,,28,28,17,25,8,16,1.0,0.9
2026-01-13T0900,3535A,109.1781,23.7293,来宾市,兴宾区政府,细颗粒物(PM2.5),107,101,97,80,69,41,,48,47,15,23,7,10,0.8,0.8
2026-01-13T0900,4002A,109.2312,23.7428,来宾市,中南小学,细颗粒物(PM2.5),135,128,106,103,82,4,,4,2,43,38,12,11,1.3,0.9
2026-01-13T0900,1479A,103.8309,36.0467,兰州市,铁路设计院,,,,,,,,,,,,,,,,
2026-01-13T0900,3241A,103.7439,36.0841,兰州市,百合公园,颗粒物(PM10),67,83,116,47,66,0,,0,0,50,82,46,25,2.3,2.3
2026-01-13T0900,3242A,103.9613,35.9985,兰州市,和平,细颗粒物(PM2.5),65,77,83,47,55,5,,16,12,56,47,27,18,2.6,1.6
2026-01-13T0900,4236A,103.629272,36.093822,兰州市,庄浪东路808号,颗粒物(PM10),76,101,102,50,56,9,,9,9,54,69,34,22,1.8,1.3
2026-01-13T0900,4237A,103.7251,36.104344,兰州市,安宁西路88号,颗粒物(PM10),81,112,127,52,59,2,,1,1,61,88,36,23,1.6,1.7
2026-01-13T0900,4238A,103.846982,36.067567,兰州市,北滨河东路1号,颗粒物(PM10),86,121,129,55,75,3,,2,2,63,89,14,21,2.4,2.3
2026-01-13T0900,1067A,116.6712,39.5109,廊坊市,药材公司,颗粒物(PM10),68,85,61,37,33,5,,34,32,60,50,4,4,2.0,0.7
2026-01-13T0900,1068A,116.7215,39.5592,廊坊市,开发区,,49,49,56,19,29,5,,48,41,63,47,3,5,0.6,0.5
2026-01-13T0900,1070A,116.7246,39.5273,廊坊市,北华航天学院,,29,29,66,13,33,17,,35,33,58,50,2,4,0.9,0.6
2026-01-13T0900,2919A,116.7022,39.5454,廊坊市,河北工业大学,,27,26,63,11,29,16,,52,47,54,44,3,5,0.7,0.5
2026-01-13T0900,2536A,103.7629,29.5844,乐山市,牛耳桥,细颗粒物(PM2.5),123,127,143,93,125,1,,3,3,24,42,8,8,1.0,1
2026-01-13T0900,2537A,103.7501,29.6002,乐山市,市第三水厂,细颗粒物(PM2.5),129,127,145,98,116,1,,1,1,36,46,6,7,1.4,1.1
2026-01-13T0900,2538A,103.7571,29.5664,乐山市,市监测站,细颗粒物(PM2.5),182,170,150,137,130,2,,2,1,36,38,7,7,1.4,1.2
2026-01-13T0900,3361A,103.7313,29.563,乐山市,理工大学,细颗粒物(PM2.5),166,153,152,126,133,2,,3,3,29,35,5,6,1.2,1
2026-01-13T0900,2599A,100.2497,26.8802,丽江市,丽江古城,,28,28,32,10,14,58,,52,52,13,12,8,8,0.6,0.5
2026-01-13T0900,2600A,100.2203,26.8906,丽江市,市中心,,35,35,21,19,9,27,,49,46,37,15,7,7,0.7,0.5
2026-01-13T0900,1267A,119.9141,28.4513,丽水市,监测站大楼,,33,27,64,23,41,9,,2,2,28,41,7,6,0.6,0.8
2026-01-13T0900,1268A,119.93,28.4589,丽水市,莲都小学,颗粒物(PM10),53,56,72,26,28,11,,4,4,34,45,/,/,/,/
2026-01-13T0900,1269A,119.8794,28.4232,丽水市,余庄前,颗粒物(PM10),56,62,57,36,27,6,,4,4,25,27,4,5,0.4,0.3
2026-01-13T0900,1173A,119.1759,34.5885,连云港市,市环境监测站,细颗粒物(PM2.5),113,141,121,85,73,10,,3,3,65,57,19,18,1.3,0.9
2026-01-13T0900,3000A,119.3577,34.6971,连云港市,德源药业,颗粒物(PM10),129,207,141,97,70,4,,2,2,67,62,10,9,1.2,0.9
2026-01-13T0900,3007A,119.178,34.8442,连云港市,新城一中,细颗粒物(PM2.5),173,179,116,131,86,0,,1,0,62,56,21,16,2.5,1.2
2026-01-13T0900,3008A,119.3607,34.7519,连云港市,胡沟管理处,细颗粒物(PM2.5),89,117,116,66,65,6,,6,6,79,60,35,14,1.0,1
2026-01-13T0900,3009A,119.1478,34.5913,连云港市,矿山设计院,细颗粒物(PM2.5),113,156,126,85,68,8,,4,4,74,57,18,17,1.7,1
2026-01-13T0900,3434A,119.2414,34.6539,连云港市,工贸学校,细颗粒物(PM2.5),122,134,120,92,72,19,,20,20,41,37,24,17,1.4,1
2026-01-13T0900,3664A,119.4171,34.734,连云港市,连云街道,细颗粒物(PM2.5),89,115,112,66,60,43,,25,25,31,35,24,11,1.0,0.9
2026-01-13T0900,2573A,102.2629,27.8981,凉山彝族自治州,西昌市政府,细颗粒物(PM2.5),54,41,39,38,28,10,,44,38,39,16,9,8,1.0,0.7
2026-01-13T0900,2574A,102.2686,27.885,凉山彝族自治州,凉山州政府,颗粒物(PM10),57,63,44,29,27,5,,30,25,45,21,8,9,1.2,0.9
2026-01-13T0900,4229A,102.2342,27.8859,凉山彝族自治州,凯乐南路30号,颗粒物(PM10),75,100,65,51,35,3,,2,2,47,40,7,7,1.0,0.6
2026-01-13T0900,2212A,123.1978,41.2036,辽阳市,宏伟区,,26,22,40,18,24,50,,57,56,11,14,8,9,0.6,0.6
2026-01-13T0900,2213A,123.1684,41.2497,辽阳市,新华园,细颗粒物(PM2.5),55,,43,39,29,38,,52,50,29,25,12,11,0.6,0.5
2026-01-13T0900,2214A,123.2355,41.2663,辽阳市,滨河路,,31,31,47,17,24,40,,46,45,14,20,7,10,0.1,0.2
2026-01-13T0900,4083A,123.153,41.2874,辽阳市,铁西路150号,细颗粒物(PM2.5),73,67,49,53,29,34,,47,44,28,24,8,8,0.8,0.7
2026-01-13T0900,2227A,125.1359,42.8845,辽源市,环保局,,42,42,42,21,16,55,,60,59,10,10,8,6,0.6,0.5
2026-01-13T0900,4085A,125.0998,42.9134,辽源市,安宁大街333号,,30,30,36,14,11,57,,60,60,7,10,2,3,0.5,0.3
2026-01-13T0900,1625A,115.9789,36.4372,聊城市,区政府,颗粒物(PM10),91,132,114,63,56,13,,17,14,72,53,22,19,1.4,1.1
2026-01-13T0900,3200A,115.9772,36.4986,聊城市,监控中心,细颗粒物(PM2.5),104,141,113,78,61,13,,13,12,63,52,34,19,1.2,0.9
2026-01-13T0900,3513A,116.0443,36.436,聊城市,九州社区,颗粒物(PM10),102,153,121,72,61,18,,26,22,54,37,18,12,1.0,0.8
2026-01-13T0900,4018A,116.0564,36.4609,聊城市,星美广场,颗粒物(PM10),105,159,121,66,57,10,,18,13,66,40,20,12,1.1,0.8
2026-01-13T0900,4113A,116.0091,36.4495,聊城市,利民路,细颗粒物(PM2.5),94,124,102,70,66,12,,19,14,68,53,22,17,1.3,1
2026-01-13T0900,2632A,94.3683,29.6373,林芝市,林芝监测站,,16,,15,6,8,50,,58,57,9,14,2,3,0.3,0.4
2026-01-13T0900,2633A,94.3616,29.6634,林芝市,林芝人民医院,,18,18,16,12,8,42,,46,45,11,12,3,3,0.4,0.4
2026-01-13T0900,2603A,100.0779,23.8981,临沧市,市环保局,细颗粒物(PM2.5),54,,35,38,42,10,,29,25,18,11,2,3,0.7,0.5
2026-01-13T0900,2604A,100.0894,23.882,临沧市,市气象局,颗粒物(PM10),51,51,39,30,30,9,,28,25,21,12,6,7,0.6,0.5
2026-01-13T0900,1733A,111.5552,36.0791,临汾市,临钢医院,颗粒物(PM10),116,182,160,57,66,7,,4,4,32,38,8,10,1.5,1.3
2026-01-13T0900,1734A,111.4984,36.0734,临汾市,技工学校,颗粒物(PM10),111,171,159,59,70,3,,0,0,35,45,6,14,1.3,1.4
2026-01-13T0900,1736A,111.5017,36.0857,临汾市,市委,颗粒物(PM10),115,180,164,54,67,4,,2,2,42,52,9,18,1.4,1.6
2026-01-13T0900,3018A,111.5048,36.1015,临汾市,唐尧大酒店,颗粒物(PM10),106,162,157,55,69,4,,1,1,43,51,5,13,1.6,1.6
2026-01-13T0900,4244A,111.4879,36.053,临汾市,启星学校,,,144,145,54,65,3,,0,0,49,60,,15,1.7,1.7
2026-01-13T0900,4271A,103.2464,35.6123,临夏回族自治州,滨河东路1号,细颗粒物(PM2.5),85,105,128,63,58,1,,6,5,36,35,8,8,2.3,1.4
2026-01-13T0900,4310A,103.207136,35.599807,临夏回族自治州,新华街21号,细颗粒物(PM2.5),109,151,123,82,71,0,,6,6,39,40,14,13,3.1,2.2
2026-01-13T0900,1618A,118.3429,35.0532,临沂市,沂河小区,细颗粒物(PM2.5),175,175,161,132,100,4,,3,3,67,70,25,27,1.6,1.3
2026-01-13T0900,1619A,118.2962,35.0568,临沂市,鲁南制药厂,细颗粒物(PM2.5),155,158,171,118,108,5,,1,1,65,73,30,38,1.5,1.6
2026-01-13T0900,1620A,118.2793,34.9976,临沂市,新光毛纺厂,细颗粒物(PM2.5),156,171,142,119,84,6,,4,4,78,65,32,25,1.9,1.3
2026-01-13T0900,1621A,118.3955,35.0889,临沂市,河东保险公司,细颗粒物(PM2.5),168,200,150,127,90,6,,6,6,66,62,23,21,2.0,1.3
2026-01-13T0900,3370A,118.3563,35.0215,临沂市,十里堡居委,细颗粒物(PM2.5),149,188,156,114,85,5,,4,4,72,70,34,32,1.6,1.2
2026-01-13T0900,3496A,118.359,35.1067,临沂市,南坊新区,细颗粒物(PM2.5),140,161,145,107,86,6,,3,3,63,68,26,23,1.6,1
2026-01-13T0900,3860A,118.3915,35.0297,临沂市,皇山花园小区,颗粒物(PM10),128,205,154,79,65,10,,8,8,78,72,33,28,1.8,1.3
2026-01-13T0900,1870A,109.4854,24.3898,柳州市,柳东小学,细颗粒物(PM2.5),169,130,117,128,103,31,,45,41,22,26,15,19,1.1,1.1
2026-01-13T0900,1871A,109.4109,24.3304,柳州市,环保监测站,细颗粒物(PM2.5),169,163,140,128,103,8,,8,8,44,49,14,13,1.3,1.4
2026-01-13T0900,1872A,109.3886,24.3408,柳州市,河西水厂,细颗粒物(PM2.5),165,192,162,125,101,4,,3,3,41,52,11,15,1.2,1.2
2026-01-13T0900,1873A,109.4263,24.2951,柳州市,市四中,细颗粒物(PM2.5),172,136,125,130,98,8,,1,1,42,57,18,15,1.3,1.3
2026-01-13T0900,1874A,109.396,24.3658,柳州市,市九中,细颗粒物(PM2.5),203,,150,153,111,11,,11,11,44,52,25,22,1.3,1.4
2026-01-13T0900,1875A,109.4912,24.3164,柳州市,古亭山,细颗粒物(PM2.5),143,,92,109,70,2,,0,0,39,51,13,15,1.1,0.9
2026-01-13T0900,3402A,109.5422,24.3994,柳州市,市二中,细颗粒物(PM2.5),155,,97,118,88,8,,4,4,30,40,9,14,1.0,0.9
2026-01-13T0900,2307A,116.5078,31.7369,六安市,监测大楼,细颗粒物(PM2.5),67,70,63,48,40,60,,73,71,39,27,6,5,0.5,0.5
2026-01-13T0900,2308A,116.4738,31.7642,六安市,皖西学院,颗粒物(PM10),64,77,72,42,38,70,,66,66,32,23,7,6,0.6,0.5
2026-01-13T0900,2309A,116.4997,31.7904,六安市,朝阳厂,细颗粒物(PM2.5),67,75,63,48,36,62,,78,74,36,20,6,7,0.6,0.5
2026-01-13T0900,2310A,116.5566,31.7885,六安市,开发区,颗粒物(PM10),72,94,83,45,43,28,,38,35,47,34,6,6,0.7,0.5
2026-01-13T0900,2577A,104.8293,26.592,六盘水市,黄土坡,细颗粒物(PM2.5),69,67,74,50,54,8,,15,14,27,25,10,11,1.2,1
2026-01-13T0900,2579A,104.8481,26.5898,六盘水市,民中,细颗粒物(PM2.5),132,133,90,100,72,4,,3,3,38,41,15,16,2.3,1.4
2026-01-13T0900,2580A,104.9541,26.5506,六盘水市,双水,颗粒物(PM10),58,66,80,38,59,27,,16,16,23,23,3,6,1.2,0.7
2026-01-13T0900,4151A,104.8899,26.5685,六盘水市,钟山大道中段564号,细颗粒物(PM2.5),80,96,121,59,74,6,,3,3,31,38,4,14,1.5,1.6
2026-01-13T0900,2336A,117.022,25.1031,龙岩市,龙岩市监测站,"颗粒物(PM10),细颗粒物(PM2.5)",60,70,49,43,29,23,,16,16,42,38,15,22,0.9,0.6
2026-01-13T0900,2337A,117.0257,25.0662,龙岩市,闽西职业技术学院,颗粒物(PM10),52,54,55,25,25,21,,28,27,35,30,23,20,0.6,0.5
2026-01-13T0900,2338A,117.0195,25.0306,龙岩市,龙岩学院,,,,39,34,24,41,,49,46,15,15,,9,/,/
2026-01-13T0900,2885A,104.9344,33.3827,陇南市,滨江中学,颗粒物(PM10),56,61,100,30,51,4,,5,5,42,48,12,16,1.1,1.9
2026-01-13T0900,3247A,104.9551,33.3709,陇南市,市总工会,颗粒物(PM10),69,88,73,43,46,4,,22,18,46,34,10,11,1.1,1.1
2026-01-13T0900,2488A,111.9984,27.7346,娄底市,市监测站,细颗粒物(PM2.5),138,124,145,105,108,6,,2,2,40,51,,13,2.2,1.5
2026-01-13T0900,2491A,111.9888,27.7035,娄底市,市政府,细颗粒物(PM2.5),145,,134,111,107,4,,5,4,13,31,7,10,1.1,1.2
2026-01-13T0900,4127A,111.9812,27.7591,娄底市,涟钢职大,一氧化碳(CO),73,92,143,50,90,8,,2,2,32,44,16,11,7.3,1.5
2026-01-13T0900,4128A,112.0303,27.7457,娄底市,娄底体校,细颗粒物(PM2.5),122,109,116,92,90,0,,1,0,15,28,2,4,0.9,0.8
2026-01-13T0900,1894A,105.4427,28.9063,泸州市,小市上码头,细颗粒物(PM2.5),120,122,147,91,110,5,,24,20,34,25,10,11,1.5,1.3
2026-01-13T0900,1895A,105.4241,28.8573,泸州市,兰田宪桥,细颗粒物(PM2.5),117,127,145,88,106,4,,16,13,28,27,7,8,1.4,1.3
2026-01-13T0900,1896A,105.4378,28.8833,泸州市,市环监站,细颗粒物(PM2.5),110,117,140,83,107,8,,21,15,35,28,8,9,1.3,1.2
2026-01-13T0900,4272A,105.3689,28.7783,泸州市,纳溪中医医院,细颗粒物(PM2.5),95,84,128,71,113,2,,4,3,19,25,7,9,1.1,1.1
2026-01-13T0900,2183A,111.1447,37.5212,吕梁市,环保局,颗粒物(PM10),112,174,193,42,43,5,,2,2,38,40,4,5,0.8,0.5
2026-01-13T0900,2185A,111.1285,37.5338,吕梁市,自来水公司,颗粒物(PM10),119,187,194,37,50,4,,1,1,31,31,9,10,0.6,0.5
2026-01-13T0900,2867A,111.1225,37.5093,吕梁市,马茂庄小学,颗粒物(PM10),124,197,198,48,44,4,,1,1,35,40,12,8,0.7,0.5
2026-01-13T0900,1812A,112.3934,34.6517,洛阳市,市委党校,颗粒物(PM10),81,111,91,58,55,8,,5,5,48,42,15,12,1.5,0.9
2026-01-13T0900,1815A,112.494,34.6883,洛阳市,河南林校,颗粒物(PM10),80,109,111,58,40,7,,4,4,44,42,16,15,1.1,0.9
2026-01-13T0900,1816A,112.3843,34.623,洛阳市,开发区管委会,颗粒物(PM10),70,90,89,41,37,11,,10,10,36,28,15,11,1.0,0.7
2026-01-13T0900,1817A,112.4263,34.6249,洛阳市,市委新办公区,细颗粒物(PM2.5),70,66,89,51,43,12,,6,6,32,32,10,10,0.7,0.7
2026-01-13T0900,3340A,112.6005,34.6323,洛阳市,伊滨,细颗粒物(PM2.5),88,116,99,65,47,6,,4,4,34,31,8,8,0.8,0.5
2026-01-13T0900,3341A,112.495,34.6338,洛阳市,中移产业园,,,83,93,52,40,,,1,1,44,43,11,11,0.9,0.6
2026-01-13T0900,3593A,112.5736,34.8993,洛阳市,吉利监测站,颗粒物(PM10),60,70,88,30,29,26,,37,35,30,27,9,8,0.7,0.5
2026-01-13T0900,3635A,112.3678,34.6623,洛阳市,河科大西苑校区,颗粒物(PM10),91,132,103,57,39,5,,2,2,44,37,19,14,1.4,0.9
2026-01-13T0900,3636A,112.4387,34.678,洛阳市,英才小学,颗粒物(PM10),104,158,115,75,50,6,,4,4,57,48,31,20,1.7,0.9
2026-01-13T0900,4214A,112.460027,34.694929,洛阳市,春都路1号院,颗粒物(PM10),90,130,116,44,34,7,,4,4,46,36,19,12,1.2,0.9
2026-01-13T0900,2399A,114.051,33.5721,漯河市,三五一五工厂,细颗粒物(PM2.5),105,146,110,79,58,6,,7,7,51,33,8,8,1.3,1
2026-01-13T0900,2400A,114.0055,33.5698,漯河市,漯河大学,细颗粒物(PM2.5),104,133,93,78,49,9,,29,24,52,27,6,7,1.2,0.7
2026-01-13T0900,2401A,114.0134,33.5826,漯河市,市水利局,细颗粒物(PM2.5),110,136,94,83,54,8,,20,16,52,26,8,8,1.0,0.6
2026-01-13T0900,2402A,114.0261,33.5697,漯河市,市广电局,细颗粒物(PM2.5),109,129,96,82,58,12,,9,8,53,35,7,8,1.0,0.7
2026-01-13T0900,3478A,113.9691,33.568,漯河市,市图书馆,细颗粒物(PM2.5),118,131,103,89,56,14,,34,30,41,22,6,7,0.8,0.6
2026-01-13T0900,4250A,114.089259,33.588274,漯河市,韶山路11号,细颗粒物(PM2.5),104,128,104,78,53,11,,14,14,50,36,8,8,1.0,0.8
2026-01-13T0900,1798A,118.5084,31.6838,马鞍山市,湖东路四小,颗粒物(PM10),70,89,82,49,39,22,,32,28,56,37,19,8,0.9,0.6
2026-01-13T0900,1799A,118.5019,31.6449,马鞍山市,开发区,细颗粒物(PM2.5),90,97,85,67,48,8,,16,12,71,50,14,8,1.4,0.6
2026-01-13T0900,3633A,118.4914,31.681,马鞍山市,雨山,细颗粒物(PM2.5),83,102,85,61,48,14,,25,21,68,43,22,11,0.9,0.6
2026-01-13T0900,4191A,118.527362,31.722269,马鞍山市,慈湖高新区,细颗粒物(PM2.5),77,96,93,56,50,22,,28,26,61,45,14,10,0.8,0.7
2026-01-13T0900,1686A,111.0285,21.469,茂名市,电白南海,颗粒物(PM10),69,88,80,44,36,51,,42,40,25,25,36,12,1.1,0.9
2026-01-13T0900,1687A,110.9294,21.6533,茂名市,茂石化七小,颗粒物(PM10),76,102,86,51,36,57,,47,46,31,26,39,15,1.0,0.6
2026-01-13T0900,1688A,110.9108,21.6688,茂名市,健康路,细颗粒物(PM2.5),79,105,76,58,37,19,,36,31,45,32,33,18,1.2,0.8
2026-01-13T0900,1689A,110.8592,21.6826,茂名市,高岭,颗粒物(PM10),89,127,96,61,34,11,,21,18,38,30,14,16,/,/
2026-01-13T0900,3450A,111.0101,21.5165,茂名市,电白水东,颗粒物(PM10),79,107,73,46,31,46,,46,44,31,23,40,12,/,/
2026-01-13T0900,2540A,103.8414,30.0871,眉山市,气象局,细颗粒物(PM2.5),175,,159,132,143,4,,8,7,36,43,12,16,1.1,1
2026-01-13T0900,3148A,103.829,30.0563,眉山市,区人社局,细颗粒物(PM2.5),168,154,160,127,142,2,,4,4,44,52,10,12,1.4,1.2
2026-01-13T0900,4148A,103.8836,30.0695,眉山市,眉职院,细颗粒物(PM2.5),132,148,167,100,126,2,,2,2,27,38,1,3,1.1,1
2026-01-13T0900,1690A,116.1248,24.3307,梅州市,梅江月梅,颗粒物(PM10),54,57,66,33,34,13,,10,10,38,39,/,/,/,/
2026-01-13T0900,1691A,116.0798,24.2719,梅州市,梅县新城,颗粒物(PM10),51,51,66,32,41,16,,24,22,39,44,9,8,0.8,0.7
2026-01-13T0900,3315A,116.1234,24.2994,梅州市,梅龙,颗粒物(PM10),52,53,64,31,34,27,,18,18,24,36,8,10,0.7,0.7
2026-01-13T0900,1878A,104.7775,31.4741,绵阳市,富乐山,细颗粒物(PM2.5),135,132,125,103,101,6,,10,10,38,41,11,11,0.8,0.8
2026-01-13T0900,1880A,104.6698,31.4668,绵阳市,高新区自来水公司,细颗粒物(PM2.5),144,158,152,110,111,1,,0,0,38,52,10,9,1.8,1.2
2026-01-13T0900,3491A,104.6899,31.5324,绵阳市,西科大附属小学,细颗粒物(PM2.5),112,137,146,84,106,2,,4,4,50,55,8,8,1.0,0.8
2026-01-13T0900,3492A,104.5647,31.5343,绵阳市,安州区旅游局,细颗粒物(PM2.5),138,137,133,105,110,5,,9,8,45,47,11,12,1.3,1
2026-01-13T0900,4146A,104.7092,31.4972,绵阳市,科技城新区公安局,细颗粒物(PM2.5),134,140,131,102,105,2,,5,5,44,51,4,5,1.2,0.9
2026-01-13T0900,4226A,104.765114,31.453094,绵阳市,绵阳市气象局,细颗粒物(PM2.5),147,151,133,112,105,1,,0,0,41,54,8,5,1.2,1.1
2026-01-13T0900,1784A,129.61,44.561,牡丹江市,环保大楼,细颗粒物(PM2.5),78,99,69,57,50,20,,14,14,34,42,8,6,0.8,0.7
2026-01-13T0900,1787A,129.6364,44.6075,牡丹江市,机车工厂,细颗粒物(PM2.5),133,156,90,101,61,7,,3,3,47,46,8,4,1.6,1
2026-01-13T0900,1788A,129.6386,44.5462,牡丹江市,第一中学,细颗粒物(PM2.5),80,,46,59,43,14,,13,13,34,35,6,6,1.2,0.8
2026-01-13T0900,4287A,129.5992,44.5964,牡丹江市,东晓云街98号,细颗粒物(PM2.5),134,119,83,102,74,12,,9,9,40,39,13,8,1.6,1.2
2026-01-13T0900,2531A,105.0703,29.61,内江市,市监测站,细颗粒物(PM2.5),138,135,101,105,101,17,,21,21,32,33,7,6,1.3,1.1
2026-01-13T0900,2533A,105.0657,29.5807,内江市,内江二中,细颗粒物(PM2.5),118,121,120,89,100,2,,2,2,37,43,6,5,1.3,1.1
2026-01-13T0900,2534A,105.0407,29.5828,内江市,内江日报社,细颗粒物(PM2.5),134,110,101,102,100,2,,4,3,44,56,3,3,1.1,1
2026-01-13T0900,4147A,105.0433,29.6105,内江市,玉峰路西段888号,细颗粒物(PM2.5),178,145,109,134,106,3,,6,6,31,42,4,2,1.1,1
2026-01-13T0900,2628A,92.0653,31.4846,那曲市,那曲监测站,,46,43,47,32,33,26,,31,31,30,28,9,8,1.2,1.4
2026-01-13T0900,4243A,92.0515,31.4787,那曲市,那曲市委宣传部,,33,31,29,23,18,18,,22,22,27,24,10,10,1.3,1.1
2026-01-13T0900,1291A,115.8887,28.7006,南昌市,省林业公司,颗粒物(PM10),85,119,124,51,57,2,,2,2,52,58,10,11,1.4,1.3
2026-01-13T0900,1292A,115.813,28.7443,南昌市,林科所,颗粒物(PM10),62,73,84,39,45,7,,13,13,49,56,10,12,0.6,0.5
2026-01-13T0900,1294A,115.8518,28.687,南昌市,建工学校,"颗粒物(PM10),细颗粒物(PM2.5)",79,108,125,58,61,3,,2,2,62,59,18,22,1.2,1
2026-01-13T0900,1295A,115.8926,28.6425,南昌市,象湖,细颗粒物(PM2.5),122,124,107,92,68,3,,1,1,51,56,14,15,1.0,0.8
2026-01-13T0900,3046A,115.9084,28.6062,南昌市,机电学校,细颗粒物(PM2.5),134,156,135,102,77,8,,5,5,51,57,17,11,1.1,0.8
2026-01-13T0900,3690A,115.9718,28.7032,南昌市,外国语学校,细颗粒物(PM2.5),112,131,121,84,67,3,,1,1,50,63,19,19,1.0,0.8
2026-01-13T0900,4106A,115.7923,28.6873,南昌市,工业二路,细颗粒物(PM2.5),60,57,78,43,54,2,,0,0,57,65,6,10,0.7,0.5
2026-01-13T0900,4192A,115.931587,28.686774,南昌市,南京东路235号,细颗粒物(PM2.5),173,159,129,131,76,6,,4,4,63,66,15,12,1.2,0.8
2026-01-13T0900,1906A,106.0791,30.8022,南充市,南充市委,细颗粒物(PM2.5),110,95,135,83,119,5,,2,2,31,43,4,5,1.0,1.2
2026-01-13T0900,1907A,106.1038,30.8215,南充市,南充炼油厂,细颗粒物(PM2.5),150,125,145,115,127,5,,7,6,35,35,5,6,1.0,0.9
2026-01-13T0900,4227A,106.108336,30.788436,南充市,梨树横街98号,细颗粒物(PM2.5),114,111,135,86,108,6,,6,6,33,40,5,6,1.0,0.9
2026-01-13T0900,4304A,106.1172,30.843,南充市,清泉寺北路188号,细颗粒物(PM2.5),103,106,115,77,106,16,,24,21,24,28,6,6,0.7,0.7
2026-01-13T0900,4305A,106.067,30.7616,南充市,同庆路1号,细颗粒物(PM2.5),140,124,134,107,113,2,,1,1,42,41,6,7,1.1,1.7
2026-01-13T0900,1151A,118.8033,32.1085,南京市,迈皋桥,"颗粒物(PM10),细颗粒物(PM2.5)",70,89,71,51,36,20,,20,20,56,41,12,6,1.4,0.8
2026-01-13T0900,1152A,118.7487,32.057,南京市,草场门,颗粒物(PM10),76,102,87,48,38,9,,9,5,72,55,17,11,1.6,0.6
2026-01-13T0900,1154A,118.770105,32.004342,南京市,中华门,颗粒物(PM10),67,83,80,46,42,5,,2,2,63,57,10,9,1.0,1
2026-01-13T0900,1155A,118.8059,32.0329,南京市,瑞金路,细颗粒物(PM2.5),79,95,84,58,45,4,,1,1,75,71,4,4,1.9,1.2
2026-01-13T0900,1156A,118.7946,32.0774,南京市,玄武湖,颗粒物(PM10),65,79,77,42,34,12,,8,6,38,30,4,4,1.5,0.9
2026-01-13T0900,1157A,118.6415,32.0964,南京市,浦口,颗粒物(PM10),74,98,88,51,39,24,,30,28,46,36,14,11,0.6,0.6
2026-01-13T0900,1158A,118.730129,32.000956,南京市,奥体中心,颗粒物(PM10),78,105,86,51,42,8,,5,5,67,57,14,13,1.7,1
2026-01-13T0900,1159A,118.9072,32.1047,南京市,仙林大学城,细颗粒物(PM2.5),85,105,91,63,40,14,,4,4,61,59,22,12,2.0,1.1
2026-01-13T0900,3422A,118.8443,31.919,南京市,江宁彩虹桥,细颗粒物(PM2.5),70,79,72,51,44,6,,6,6,73,46,6,6,1.3,0.9
2026-01-13T0900,3427A,118.8497,32.3599,南京市,六合雄州,细颗粒物(PM2.5),107,121,98,80,52,10,,19,17,55,40,15,15,1.1,1
2026-01-13T0900,4086A,118.7641,32.0841,南京市,新模范马路66号,细颗粒物(PM2.5),93,127,89,69,44,7,,12,8,67,54,6,4,1.9,0.9
2026-01-13T0900,4249A,118.8707617,31.34017673,南京市,汶溪路181号,,43,43,52,28,31,43,,50,50,40,29,10,7,0.8,0.6
2026-01-13T0900,4312A,119.019,31.6512,南京市,中山西路1号,细颗粒物(PM2.5),68,70,62,49,40,18,,32,28,49,32,4,5,1.0,0.8
2026-01-13T0900,1401A,108.3098,22.788,南宁市,二十一中,细颗粒物(PM2.5),97,96,73,72,56,0,,8,7,56,45,12,8,1.2,1.1
2026-01-13T0900,1402A,108.3135,22.8529,南宁市,北湖,细颗粒物(PM2.5),98,91,75,73,58,20,,12,12,55,58,19,8,1.1,0.9
2026-01-13T0900,1403A,108.3205,22.8222,南宁市,市监测站,细颗粒物(PM2.5),88,87,73,65,48,13,,12,12,60,57,32,11,1.0,1
2026-01-13T0900,1404A,108.3828,22.8038,南宁市,大自然花园,细颗粒物(PM2.5),87,101,71,64,48,8,,14,10,57,48,9,8,0.9,0.8
2026-01-13T0900,1406A,108.2397,22.8462,南宁市,区农职院,细颗粒物(PM2.5),89,94,67,66,42,6,,11,8,47,37,22,11,1.1,0.9
2026-01-13T0900,1407A,108.3285,22.7356,南宁市,英华嘉园,细颗粒物(PM2.5),90,80,76,67,57,35,,21,21,34,47,13,6,0.8,0.9
2026-01-13T0900,3401A,108.4829,22.762,南宁市,红星社区,细颗粒物(PM2.5),74,82,59,54,39,4,,21,18,42,36,6,7,1.0,0.8
2026-01-13T0900,4132A,108.2927,23.1477,南宁市,起凤路9号,细颗粒物(PM2.5),95,101,77,71,55,6,,5,2,37,37,2,4,0.7,0.7
2026-01-13T0900,4221A,108.2177,22.7774,南宁市,乐贤路16号,细颗粒物(PM2.5),73,88,73,53,43,10,,23,20,42,41,4,3,0.7,0.6
2026-01-13T0900,2332A,118.1682,26.6371,南平市,南平市监测站,,46,46,50,29,26,9,,3,3,29,30,4,5,0.7,0.5
2026-01-13T0900,2334A,118.1757,26.6276,南平市,南平七中,,45,,47,31,24,11,,8,7,25,26,5,6,0.7,0.6
2026-01-13T0900,1168A,120.9056,31.9669,南通市,狼山街道,细颗粒物(PM2.5),87,113,87,64,47,7,,15,15,62,61,7,5,1.1,0.6
2026-01-13T0900,1170A,120.8635,32.0231,南通市,城中,颗粒物(PM10),90,130,101,66,44,13,,20,18,70,68,13,10,1.2,0.9
2026-01-13T0900,1171A,120.9376,31.9301,南通市,星湖花园,细颗粒物(PM2.5),88,121,97,65,48,12,,10,9,80,74,11,9,1.1,0.5
2026-01-13T0900,1172A,120.8053,32.046,南通市,紫琅学院,颗粒物(PM10),114,177,96,78,42,6,,16,14,82,65,12,9,1.1,0.7
2026-01-13T0900,3291A,121.0631,32.0644,南通市,通州监测站,细颗粒物(PM2.5),94,122,96,70,47,22,,20,20,68,76,11,10,1.4,0.9
2026-01-13T0900,3432A,120.9348,31.9874,南通市,环境教育馆,细颗粒物(PM2.5),89,110,88,66,44,9,,20,20,64,61,11,9,1.1,0.8
2026-01-13T0900,4091A,120.8692,31.9885,南通市,洪江路,细颗粒物(PM2.5),103,120,80,77,48,5,,12,12,77,69,10,7,1.2,0.8
2026-01-13T0900,2404A,112.5338,33.0086,南阳市,瓦房庄,细颗粒物(PM2.5),97,115,111,72,77,6,,3,3,39,36,7,7,1.3,1
2026-01-13T0900,2405A,112.5002,32.9734,南阳市,汉画馆,细颗粒物(PM2.5),125,142,120,95,77,4,,2,2,34,37,6,7,1.1,0.9
2026-01-13T0900,2406A,112.5778,33.0144,南阳市,气象站,颗粒物(PM10),94,138,121,66,65,9,,13,13,40,36,5,6,1.2,0.9
2026-01-13T0900,2407A,112.548,32.9687,南阳市,理工学院,细颗粒物(PM2.5),108,130,109,81,64,9,,10,10,41,44,6,7,1.1,0.8
2026-01-13T0900,4008A,112.5233,32.9921,南阳市,卧龙区政府,,,124,132,68,70,5,,2,2,46,42,6,6,,1.1
2026-01-13T0900,1234A,121.8352,29.9111,宁波市,区环保大楼,颗粒物(PM10),62,73,79,35,30,9,,7,7,74,75,9,7,1.1,0.6
2026-01-13T0900,1235A,121.5595,29.8208,宁波市,万里学院,细颗粒物(PM2.5),79,92,87,58,42,6,,3,2,62,54,8,5,1.0,0.6
2026-01-13T0900,1236A,121.713,29.9564,宁波市,龙赛医院,细颗粒物(PM2.5),84,105,97,62,51,11,,7,7,62,57,8,4,0.8,0.7
2026-01-13T0900,1240A,121.5855,29.8635,宁波市,太古小学,细颗粒物(PM2.5),78,101,81,57,42,5,,2,2,66,51,7,5,1.2,0.8
2026-01-13T0900,1241A,121.5239,29.8673,宁波市,市环境监测中心,细颗粒物(PM2.5),72,89,79,52,40,3,,2,0,74,58,10,8,1.1,0.8
2026-01-13T0900,2871A,121.6156,29.9015,宁波市,万里国际学校,细颗粒物(PM2.5),70,86,72,51,38,8,,2,2,69,53,8,5,1.1,0.7
2026-01-13T0900,3710A,121.5593,29.8976,宁波市,白沙活动中心,细颗粒物(PM2.5),72,80,72,52,38,6,,3,2,70,54,6,5,1.1,0.8
2026-01-13T0900,4095A,121.8962,29.7529,宁波市,中科路88号,颗粒物(PM10),61,72,71,42,36,18,,14,14,59,50,6,6,0.5,0.3
2026-01-13T0900,2341A,119.5387,26.6611,宁德市,宁德市监测站,,32,27,50,22,22,28,,37,36,35,24,7,7,0.7,0.6
2026-01-13T0900,3209A,119.5231,26.6562,宁德市,宁德一中,,33,33,51,19,26,47,,44,44,20,20,6,7,0.6,0.5
2026-01-13T0900,2618A,98.859,25.8541,怒江傈僳族自治州,州监测站,,24,24,27,16,18,39,,43,42,10,10,8,8,0.4,0.4
2026-01-13T0900,2619A,98.8607,25.8168,怒江傈僳族自治州,泸水一中,,30,29,28,21,20,7,,21,19,23,18,6,6,0.7,0.7
2026-01-13T0900,1888A,101.6891,26.571,攀枝花市,弄弄坪,颗粒物(PM10),52,54,47,27,30,13,,34,30,30,21,11,19,1.8,1.3
2026-01-13T0900,1889A,101.577,26.5914,攀枝花市,河门口,细颗粒物(PM2.5),53,54,57,37,38,15,,21,19,24,24,10,16,0.9,1.1
2026-01-13T0900,1891A,101.7365,26.4986,攀枝花市,仁和,,39,39,44,23,30,13,,26,23,25,21,7,9,1.2,0.8
2026-01-13T0900,2835A,101.7222,26.567,攀枝花市,四十中小,颗粒物(PM10),53,55,51,33,29,7,,7,7,37,38,12,12,1.9,1.2
2026-01-13T0900,1604A,122.0303,41.1489,盘锦市,开发区,,,,55,11,28,60,,58,58,9,14,3,6,0.4,0.6
2026-01-13T0900,1605A,122.0486,41.0883,盘锦市,兴隆台,,18,,45,9,23,55,,56,56,16,24,5,8,0.4,0.6
2026-01-13T0900,1606A,121.8297,41.1026,盘锦市,新生街道,,18,,41,8,19,56,,46,46,17,28,6,8,0.4,0.6
2026-01-13T0900,1832A,113.3257,33.7423,平顶山市,新华旅馆,颗粒物(PM10),93,136,120,65,62,8,,3,3,46,47,14,8,1.0,0.8
2026-01-13T0900,1833A,113.2917,33.737,平顶山市,规划设计院,颗粒物(PM10),102,153,131,69,66,7,,4,4,44,45,16,8,1.0,1
2026-01-13T0900,1834A,113.182,33.7738,平顶山市,平顶山工学院,颗粒物(PM10),75,99,111,46,60,22,,13,10,36,34,18,11,0.5,0.5
2026-01-13T0900,3594A,112.8736,33.9068,平顶山市,石龙区,颗粒物(PM10),102,154,106,49,44,6,,8,8,70,51,7,9,0.7,0.6
2026-01-13T0900,4116A,113.284,33.7139,平顶山市,姚电大道23号,颗粒物(PM10),102,154,147,64,67,6,,4,3,44,38,16,8,1.0,0.8
2026-01-13T0900,2656A,106.6633,35.5338,平凉市,聚贤嘉苑,,36,36,40,21,20,44,,54,53,28,21,13,14,0.8,0.7
2026-01-13T0900,2657A,106.7021,35.5307,平凉市,博物馆,颗粒物(PM10),58,66,46,32,25,22,,53,50,45,22,12,11,1.1,0.6
2026-01-13T0900,2348A,113.8384,27.6436,萍乡市,中医院,细颗粒物(PM2.5),102,124,148,76,87,8,,6,6,39,56,7,13,2.0,2.1
2026-01-13T0900,2350A,113.8677,27.6438,萍乡市,市环保局,细颗粒物(PM2.5),129,120,134,98,96,10,,4,4,31,51,14,20,1.6,1.7
2026-01-13T0900,2351A,113.8663,27.6202,萍乡市,安源区政府,细颗粒物(PM2.5),132,123,137,100,116,4,,1,1,28,42,10,15,1.6,1.6
2026-01-13T0900,4107A,113.8686,27.6668,萍乡市,联洪村委会,细颗粒物(PM2.5),144,142,152,110,101,11,,12,11,35,51,5,6,1.8,1.7
2026-01-13T0900,2319A,119.0142,25.4324,莆田市,荔城区仓后路,颗粒物(PM10),63,76,57,36,23,34,,38,37,34,22,/,/,/,/
2026-01-13T0900,2320A,119.0016,25.4553,莆田市,莆田市监测站,,46,46,44,22,16,46,,53,51,17,14,3,4,0.5,0.5
2026-01-13T0900,2321A,119.112,25.4561,莆田市,涵江区六中,,44,44,49,14,13,31,,38,36,35,22,/,/,0.8,0.5
2026-01-13T0900,2322A,119.1014,25.3215,莆田市,秀屿区政府,细颗粒物(PM2.5),67,75,66,48,33,32,,23,23,36,25,6,4,0.7,0.6
2026-01-13T0900,2392A,115.0312,35.7636,濮阳市,环保局,细颗粒物(PM2.5),122,174,105,92,46,11,,13,12,53,46,9,9,1.8,1.1
2026-01-13T0900,3021A,115,35.7667,濮阳市,濮水河管理处,颗粒物(PM10),100,149,107,68,40,8,,10,10,51,48,6,8,1.5,1.1
2026-01-13T0900,4118A,115.0552,35.7816,濮阳市,中原东路68号,颗粒物(PM10),111,172,117,68,50,7,,12,11,64,48,10,9,1.8,1
2026-01-13T0900,4216A,115.0923632,35.76857718,濮阳市,任丘路479号,细颗粒物(PM2.5),124,196,118,94,56,6,,6,6,66,49,14,10,1.8,0.9
2026-01-13T0900,2601A,100.9801,22.7634,普洱市,市环保局,,49,49,48,3,16,8,,21,18,17,9,5,5,0.6,0.5
2026-01-13T0900,2602A,100.9763,22.8237,普洱市,普洱第二中学,,50,50,42,24,21,4,,3,3,18,18,5,5,0.7,0.4
2026-01-13T0900,3345A,131.0413,45.7795,七台河市,中波台,细颗粒物(PM2.5),89,73,62,66,48,32,,26,26,25,25,8,10,0.6,0.5
2026-01-13T0900,3637A,131.0136,45.7688,七台河市,人民广场,细颗粒物(PM2.5),92,84,57,68,47,27,,27,27,36,28,9,9,0.9,0.6
2026-01-13T0900,3684A,130.8639,45.8144,七台河市,新建矿广场,细颗粒物(PM2.5),73,68,64,53,41,37,,27,27,16,27,6,6,0.4,0.5
2026-01-13T0900,1779A,123.9307,47.3641,齐齐哈尔市,安居小区,,32,32,49,12,41,40,,42,41,12,22,7,9,0.7,0.8
2026-01-13T0900,1780A,123.9497,47.3389,齐齐哈尔市,中心广场,,18,18,49,9,36,37,,42,41,12,18,4,6,0.8,0.8
2026-01-13T0900,1781A,123.9483,47.3229,齐齐哈尔市,农牧车辆厂,,27,27,48,16,35,39,,44,43,9,13,5,6,0.4,0.5
2026-01-13T0900,1783A,123.9442,47.2994,齐齐哈尔市,市环境监测站,,26,26,50,17,35,44,,49,48,10,17,6,6,0.6,0.7
2026-01-13T0900,3662A,123.6341,47.2079,齐齐哈尔市,富区青少年活动中心,,29,29,53,19,38,43,,48,47,14,16,6,6,0.6,0.7
2026-01-13T0900,2591A,107.9765,26.5724,黔东南苗族侗族自治州,市环境监测站,细颗粒物(PM2.5),80,65,69,59,56,4,,7,7,21,29,3,2,0.6,0.6
2026-01-13T0900,2881A,107.8909,26.531,黔东南苗族侗族自治州,凯里学院,,46,46,61,32,47,7,,1,1,15,22,4,6,0.7,0.7
2026-01-13T0900,2593A,107.5223,26.2371,黔南布依族苗族自治州,小围寨,,49,46,41,34,36,4,,7,6,12,13,4,6,0.8,0.8
2026-01-13T0900,3538A,107.5175,26.2977,黔南布依族苗族自治州,沙坝,细颗粒物(PM2.5),62,56,50,44,40,5,,6,5,15,15,4,7,1.0,0.9
2026-01-13T0900,2589A,104.9022,25.0943,黔西南布依族苗族自治州,场坝街,细颗粒物(PM2.5),120,121,91,91,78,4,,14,11,25,22,40,17,0.9,0.8
2026-01-13T0900,2590A,104.8812,25.0994,黔西南布依族苗族自治州,坪东大道,细颗粒物(PM2.5),125,,84,95,78,3,,11,9,26,22,7,8,1.2,0.9
2026-01-13T0900,2502A,108.6238,21.9667,钦州市,市环保站,细颗粒物(PM2.5),83,114,97,61,45,51,,42,37,33,40,7,6,0.8,1.1
2026-01-13T0900,2503A,108.655,21.9481,钦州市,沙埠小学,颗粒物(PM10),87,124,102,62,55,16,,35,35,60,50,9,8,2.9,1.6
2026-01-13T0900,2504A,108.5989,21.7435,钦州市,港区一小,颗粒物(PM10),74,98,78,53,36,56,,56,55,43,39,10,8,0.8,0.7
2026-01-13T0900,3404A,108.5959,21.9634,钦州市,北职校,,,88,79,67,45,,,43,42,36,34,9,10,1.1,0.8
2026-01-13T0900,1046A,119.5247,39.9346,秦皇岛市,建设大厦,,28,22,68,19,37,54,,53,53,25,40,4,15,0.3,0.7
2026-01-13T0900,3132A,119.5979,39.938,秦皇岛市,文明里,颗粒物(PM10),51,52,72,18,32,31,,52,52,40,40,12,18,0.4,0.7
2026-01-13T0900,4066A,119.7458,39.9952,秦皇岛市,南园路157号,颗粒物(PM10),52,53,75,11,30,20,,45,45,47,44,13,16,0.7,0.8
2026-01-13T0900,4067A,119.5131,39.8858,秦皇岛市,翠岛大街1号,,30,30,68,9,26,40,,48,48,26,30,10,16,0.4,0.7
2026-01-13T0900,4198A,119.509013,39.825305,秦皇岛市,北戴河轮滑馆,,29,29,77,18,36,54,,46,46,22,39,5,12,0.3,0.8
2026-01-13T0900,1310A,120.404,36.0625,青岛市,市南区东部子站,细颗粒物(PM2.5),100,144,108,75,50,13,,9,7,65,56,21,17,1.5,1.1
2026-01-13T0900,1311A,120.362344,36.10282,青岛市,四方区子站,细颗粒物(PM2.5),125,166,113,95,59,10,,7,5,66,52,17,11,1.9,1.1
2026-01-13T0900,1312A,120.294373,36.054183,青岛市,市南区西部子站,细颗粒物(PM2.5),119,,100,90,52,14,,6,6,58,56,13,10,1.4,1
2026-01-13T0900,1313A,120.4581,36.0858,青岛市,崂山区子站,颗粒物(PM10),81,112,100,53,46,23,,21,19,47,46,20,18,0.9,0.8
2026-01-13T0900,1315A,120.3945,36.3083,青岛市,城阳区子站,颗粒物(PM10),108,166,112,76,47,15,,11,11,68,56,28,14,2.6,1.3
2026-01-13T0900,3642A,120.3454,36.0735,青岛市,市北区南部,细颗粒物(PM2.5),125,150,104,95,54,7,,4,3,66,54,19,8,1.5,1
2026-01-13T0900,3643A,120.3897,36.18,青岛市,李沧区北部,细颗粒物(PM2.5),134,161,110,102,61,12,,12,8,61,55,25,17,1.8,1.2
2026-01-13T0900,4110A,120.5222,36.4089,青岛市,盟旺路653号,细颗粒物(PM2.5),112,144,117,84,59,18,,10,10,56,55,21,13,1.2,1
2026-01-13T0900,4290A,120.196923,35.954556,青岛市,珠江路669号,细颗粒物(PM2.5),132,175,99,100,55,14,,20,18,94,56,27,17,1.5,1
2026-01-13T0900,4291A,120.0424,35.8656,青岛市,黄岛区人民政府广场,细颗粒物(PM2.5),110,166,126,83,61,13,,9,9,64,59,21,14,1.8,1.4
2026-01-13T0900,1703A,113.0218,23.7086,清远市,凤城街办,颗粒物(PM10),52,53,68,33,41,37,,43,40,49,50,/,/,/,/
2026-01-13T0900,3025A,113.0479,23.6343,清远市,技师学院,颗粒物(PM10),65,79,89,36,46,8,,3,3,64,72,16,12,0.7,0.7
2026-01-13T0900,3318A,112.9898,23.7403,清远市,清新太和,颗粒物(PM10),53,55,54,31,34,26,,79,72,57,28,6,11,0.9,0.5
2026-01-13T0900,3455A,113.076,23.72,清远市,清城东城,,42,42,59,25,33,18,,36,32,41,37,/,/,/,/
2026-01-13T0900,2661A,107.6325,35.7357,庆阳市,庆阳五中,颗粒物(PM10),95,139,78,37,24,29,,72,65,43,20,12,6,1.1,0.5
2026-01-13T0900,2662A,107.6361,35.7067,庆阳市,市环保局,颗粒物(PM10),75,100,75,23,19,59,,78,76,15,15,7,11,0.5,0.5
2026-01-13T0900,1916A,103.7897,25.5036,曲靖市,环境监测站,颗粒物(PM10),51,52,54,33,31,51,,32,32,14,23,4,5,0.8,0.8
2026-01-13T0900,1917A,103.8013,25.5357,曲靖市,烟厂办公区,颗粒物(PM10),55,60,62,38,35,50,,23,23,13,26,3,5,0.5,0.7
2026-01-13T0900,3376A,103.7926,25.4651,曲靖市,南苑二区,细颗粒物(PM2.5),53,42,50,37,34,38,,36,35,14,13,4,4,0.3,0.4
2026-01-13T0900,3377A,103.7442,25.5259,曲靖市,曲靖师范学院,细颗粒物(PM2.5),59,58,49,42,36,20,,8,8,26,32,2,3,0.6,0.6
2026-01-13T0900,1264A,118.8694,28.94,衢州市,环保大楼,颗粒物(PM10),66,82,75,46,36,19,,26,23,48,42,/,/,/,/
2026-01-13T0900,1266A,118.8622,28.9809,衢州市,衢州学院,颗粒物(PM10),59,67,66,28,23,14,,24,19,52,42,14,9,0.8,0.7
2026-01-13T0900,4097A,118.9646,28.9832,衢州市,衢州三中,颗粒物(PM10),65,79,75,46,37,16,,37,33,47,37,13,11,1.0,0.9
2026-01-13T0900,1611A,118.5818,24.9116,泉州市,涂山街,颗粒物(PM10),66,81,70,37,30,33,,28,28,38,28,6,4,0.6,0.5
2026-01-13T0900,1612A,118.597,24.8976,泉州市,津头埔,颗粒物(PM10),62,74,69,41,31,35,,31,31,37,30,7,5,0.8,0.6
2026-01-13T0900,1613A,118.6669,24.9422,泉州市,万安,颗粒物(PM10),61,72,74,35,28,30,,23,23,37,36,3,3,0.7,0.6
2026-01-13T0900,4105A,118.6355,24.9148,泉州市,霞新路6号,,,,58,,21,,,,,,36,/,/,,0.4
2026-01-13T0900,2626A,88.8873,29.2723,日喀则市,日喀则监测站,,25,25,41,10,17,16,,23,19,18,22,13,13,0.4,0.6
2026-01-13T0900,3726A,88.8775,29.2425,日喀则市,林业技术推广中心,,27,27,31,18,20,22,,25,25,12,12,8,9,0.6,0.5
2026-01-13T0900,1659A,119.4711,35.421,日照市,监测站,细颗粒物(PM2.5),130,190,126,99,71,5,,2,2,68,58,25,18,2.6,1.4
2026-01-13T0900,1660A,119.523,35.4216,日照市,市政府广场,颗粒物(PM10),75,100,112,54,65,34,,9,9,42,56,21,17,0.7,0.8
2026-01-13T0900,1661A,119.5511,35.4113,日照市,港务局,细颗粒物(PM2.5),90,119,126,67,73,12,,2,2,61,63,17,14,1.1,1
2026-01-13T0900,3507A,119.5326,35.4627,日照市,职业技术学院,颗粒物(PM10),85,119,112,46,55,34,,12,12,47,56,20,14,1.0,1
2026-01-13T0900,3604A,119.3267,35.1043,日照市,岚山环保分局,细颗粒物(PM2.5),85,117,133,63,72,26,,8,8,61,60,35,28,2.0,1.6
2026-01-13T0900,1835A,111.1922,34.7752,三门峡市,市政府,细颗粒物(PM2.5),73,75,77,53,47,5,,3,3,42,49,13,17,1.1,0.8
2026-01-13T0900,1836A,111.1588,34.794,三门峡市,开发区,细颗粒物(PM2.5),72,92,102,52,52,13,,18,17,31,41,6,10,0.7,0.8
2026-01-13T0900,3039A,111.1911,34.7829,三门峡市,三门峡市第一小学,细颗粒物(PM2.5),77,84,92,56,50,13,,13,13,31,43,7,11,0.8,0.8
2026-01-13T0900,3598A,111.1031,34.719,三门峡市,富达温泉假日酒店,细颗粒物(PM2.5),97,131,95,72,54,8,,14,12,52,42,34,16,2.1,1
2026-01-13T0900,2324A,117.621,26.2626,三明市,三钢,细颗粒物(PM2.5),64,47,53,46,38,16,,17,16,36,38,8,10,1.5,1.5
2026-01-13T0900,2325A,117.6352,26.2714,三明市,三明二中,细颗粒物(PM2.5),55,43,47,39,33,12,,14,14,37,32,13,13,1.8,1.2
2026-01-13T0900,2326A,117.6028,26.2377,三明市,三元区政府,,48,44,54,33,33,17,,15,14,31,33,9,9,0.9,1
2026-01-13T0900,1877A,109.4962,18.2682,三亚市,河西子站,,41,41,47,22,21,56,,66,66,23,19,6,6,0.6,0.6
2026-01-13T0900,3540A,109.7348,18.3443,三亚市,君悦子站,,48,48,44,21,20,49,,54,54,20,15,5,5,1.1,0.6
2026-01-13T0900,4135A,109.1714,18.3739,三亚市,城东小学站,,45,38,37,31,34,59,,71,69,9,11,/,/,/,/
2026-01-13T0900,2624A,91.7592,29.234,山南市,山南监测站,,,13,16,,17,26,,43,40,10,9,4,4,0.4,0.4
2026-01-13T0900,2625A,91.7701,29.2436,山南市,山南人民医院,,21,21,17,12,8,24,,43,39,17,10,2,2,0.5,0.4
2026-01-13T0900,1674A,116.6795,23.3666,汕头市,金平子站,细颗粒物(PM2.5),114,119,68,86,38,19,,17,17,76,41,27,8,1.4,1
2026-01-13T0900,1675A,116.7248,23.3632,汕头市,龙湖子站,细颗粒物(PM2.5),77,97,68,56,29,27,,24,23,61,33,21,12,/,/
2026-01-13T0900,1676A,116.7257,23.2774,汕头市,濠江子站,细颗粒物(PM2.5),93,100,62,69,31,24,,24,22,64,33,20,9,/,/
2026-01-13T0900,1677A,116.7518,23.4712,汕头市,澄海子站,细颗粒物(PM2.5),72,80,71,52,36,44,,37,37,41,29,9,9,0.9,0.6
2026-01-13T0900,1678A,116.6088,23.2539,汕头市,潮阳子站,细颗粒物(PM2.5),79,78,60,58,30,25,,37,35,45,24,13,8,1.2,0.6
2026-01-13T0900,3444A,116.4539,23.2684,汕头市,潮南峡山,细颗粒物(PM2.5),99,120,79,74,41,28,,25,24,38,28,10,10,1.0,0.7
2026-01-13T0900,3624A,116.4069,23.2533,汕头市,潮南子站,细颗粒物(PM2.5),117,155,108,88,47,14,,14,13,49,33,13,9,/,/
2026-01-13T0900,1693A,115.3653,22.7751,汕尾市,市环保局,细颗粒物(PM2.5),93,69,75,69,48,48,,52,51,33,24,7,8,0.9,0.7
2026-01-13T0900,1695A,115.362,22.7926,汕尾市,新城中学,细颗粒物(PM2.5),95,73,70,71,47,36,,48,45,52,25,6,6,1.2,0.8
2026-01-13T0900,2645A,109.9155,33.8714,商洛市,监测站,,37,37,40,14,18,24,,22,21,22,25,2,4,0.5,0.5
2026-01-13T0900,3045A,109.9647,33.8486,商洛市,商州区中学,,38,38,50,24,22,8,,4,4,36,33,5,6,0.9,0.6
2026-01-13T0900,2408A,115.6701,34.4283,商丘市,环境监测站,细颗粒物(PM2.5),93,115,106,69,57,15,,14,14,49,38,5,4,0.9,0.6
2026-01-13T0900,2409A,115.6458,34.4047,商丘市,粮食局,细颗粒物(PM2.5),95,118,112,71,51,12,,15,14,45,32,4,4,0.7,0.4
2026-01-13T0900,3171A,115.6069,34.4465,商丘市,梁园区档案局,细颗粒物(PM2.5),95,112,106,71,49,13,,19,18,50,35,7,6,0.8,0.4
2026-01-13T0900,4119A,115.6701,34.3767,商丘市,北海东路185号,颗粒物(PM10),93,136,117,53,44,11,,5,5,44,41,2,3,0.8,0.5
2026-01-13T0900,4120A,115.6172,34.3704,商丘市,中山大街3号,颗粒物(PM10),98,145,133,59,51,8,,4,4,47,43,5,6,0.5,0.3
2026-01-13T0900,1141A,121.401,31.2382,上海市,普陀,颗粒物(PM10),72,94,90,51,46,11,,4,4,76,64,12,9,1.3,0.7
2026-01-13T0900,1142A,121.4774,31.2043,上海市,十五厂,颗粒物(PM10),71,91,90,46,43,21,,16,16,66,68,14,10,1.2,0.8
2026-01-13T0900,1143A,121.4673,31.3011,上海市,虹口,颗粒物(PM10),85,120,97,50,41,9,,6,6,72,61,13,10,1.3,0.7
2026-01-13T0900,1147A,121.4253,31.226,上海市,静安监测站,颗粒物(PM10),70,90,85,44,40,19,,11,11,76,63,13,9,1.1,0.6
2026-01-13T0900,1148A,121.7029,31.1905,上海市,浦东川沙,颗粒物(PM10),80,110,98,51,41,7,,21,21,84,57,10,9,1.1,0.6
2026-01-13T0900,1149A,121.5339,31.229,上海市,浦东新区监测站,细颗粒物(PM2.5),82,106,90,60,45,16,,29,28,75,56,15,10,1.4,0.8
2026-01-13T0900,1150A,121.5776,31.2038,上海市,浦东张江,颗粒物(PM10),81,111,100,47,43,12,,24,24,75,58,12,10,1.1,0.6
2026-01-13T0900,3265A,121.4242,31.3303,上海市,宝山庙行,颗粒物(PM10),78,105,97,50,44,13,,6,6,67,62,12,9,0.7,0.4
2026-01-13T0900,3266A,121.8789,31.4662,上海市,崇明上实东滩,细颗粒物(PM2.5),94,123,91,70,44,26,,10,10,55,57,8,6,1.1,0.7
2026-01-13T0900,3268A,121.316,31.2839,上海市,嘉定南翔,细颗粒物(PM2.5),74,96,94,54,46,7,,5,5,84,72,10,7,1.0,0.6
2026-01-13T0900,3269A,121.3357,30.7455,上海市,金山新城,细颗粒物(PM2.5),62,69,77,44,43,15,,11,11,64,52,14,15,0.6,0.5
