timepoint,stationcode,longitude,latitude,area,positionname,primarypollutant,aqi,pm10,pm10_24h,pm2_5,pm2_5_24h,o3,o3_24h,o3_8h,o3_8h_24h,no2,no2_24h,so2,so2_24h,co,co_24h
2026-01-13T0200,2568A,102.2503,31.8896,阿坝藏族羌族自治州,马师校,,26,21,17,18,15,37,,,,9,13,3,4,0.5,0.5
2026-01-13T0200,3994A,102.2174,31.9016,阿坝藏族羌族自治州,马尔康中学西区,,40,,13,28,14,32,,,,18,13,5,6,0.5,0.5
2026-01-13T0200,2695A,80.2899,41.1684,阿克苏地区,电视台,细颗粒物(PM2.5),213,241,119,163,74,6,,,,86,44,5,3,5.2,1.8
2026-01-13T0200,2696A,80.2592,41.1541,阿克苏地区,艺术中心,细颗粒物(PM2.5),178,199,104,134,72,8,,,,85,42,7,5,2.1,1.1
2026-01-13T0200,2205A,105.699,38.8409,阿拉善盟,蒙二幼,,23,17,219,6,43,72,,,,4,10,9,9,0.5,0.6
2026-01-13T0200,2206A,105.7198,38.8508,阿拉善盟,环保局新楼,,25,22,201,9,40,79,,,,2,6,6,7,0.6,0.6
2026-01-13T0200,2708A,88.1266,47.8515,阿勒泰地区,市站,,26,26,17,8,9,20,,,,52,37,3,6,0.7,0.6
2026-01-13T0200,4166A,88.1198,47.7931,阿勒泰地区,阿勒泰路33号,,24,24,19,16,9,37,,,,41,38,4,9,0.5,0.6
2026-01-13T0200,2630A,80.1171,32.4999,阿里地区,阿里监测站,,14,6,3,3,3,28,,,,28,12,10,7,0.6,0.6
2026-01-13T0200,3192A,80.0906,32.5029,阿里地区,阿里藏医院,,42,42,15,18,7,16,,,,56,10,24,14,1.6,0.7
2026-01-13T0200,2644A,109.0088,32.6974,安康市,汉滨区检察院,细颗粒物(PM2.5),63,57,70,45,52,23,,,,21,27,4,5,0.6,0.7
2026-01-13T0200,4054A,109.0324,32.6913,安康市,市邮政管理局,细颗粒物(PM2.5),92,75,92,68,67,13,,,,33,37,9,8,0.7,1.1
2026-01-13T0200,2291A,117.0806,30.5181,安庆市,环科院,细颗粒物(PM2.5),73,78,70,53,39,15,,,,43,39,8,7,0.4,0.4
2026-01-13T0200,2292A,117.0331,30.5118,安庆市,马山宾馆,细颗粒物(PM2.5),78,83,71,57,40,26,,,,32,41,8,7,0.6,0.5
2026-01-13T0200,2294A,116.9897,30.6146,安庆市,安庆大学,细颗粒物(PM2.5),77,85,73,56,38,43,,,,29,31,8,8,0.6,0.6
2026-01-13T0200,3173A,117.0598,30.5351,安庆市,市人大,细颗粒物(PM2.5),83,86,73,61,39,30,,,,32,39,15,13,0.6,0.4
2026-01-13T0200,3123A,105.9408,26.2431,安顺市,凤凰山,细颗粒物(PM2.5),123,104,61,93,51,14,,,,46,25,79,32,1.4,0.7
2026-01-13T0200,3124A,105.9443,26.2567,安顺市,金钟山,细颗粒物(PM2.5),133,,57,101,51,22,,,,34,19,55,28,1.2,0.7
2026-01-13T0200,3125A,105.8983,26.248,安顺市,娄家坡,细颗粒物(PM2.5),99,82,59,74,51,46,,,,22,19,34,21,1.1,0.9
2026-01-13T0200,1819A,114.3552,36.1017,安阳市,红庙街,颗粒物(PM10),81,111,97,35,34,14,,,,46,34,5,8,1.1,1.2
2026-01-13T0200,1820A,114.361,36.0681,安阳市,银杏小区,颗粒物(PM10),76,102,93,50,40,42,,,,26,27,7,6,0.7,0.6
2026-01-13T0200,3141A,114.3921,36.0879,安阳市,信访局,,,120,93,44,37,22,,,,,28,16,10,1.1,0.9
2026-01-13T0200,3669A,114.4706,36.0634,安阳市,左辅环卫站,细颗粒物(PM2.5),89,119,102,66,57,24,,,,49,33,12,9,0.9,0.8
2026-01-13T0200,4117A,114.2918,36.0769,安阳市,钢三路198号,颗粒物(PM10),77,104,118,35,34,34,,,,23,30,4,5,0.4,0.7
2026-01-13T0200,1748A,123.0441,41.1201,鞍山市,深沟寺,,28,28,43,12,22,50,,,,13,23,15,11,0.8,0.8
2026-01-13T0200,1749A,123.011,41.0931,鞍山市,太阳城,,30,30,42,14,22,58,,,,12,22,12,14,0.6,0.7
2026-01-13T0200,1750A,123.0483,41.1445,鞍山市,太平,,35,35,72,12,28,51,,,,13,24,21,12,0.9,0.8
2026-01-13T0200,1751A,122.964,41.0968,鞍山市,铁西三道街,,32,32,55,16,27,51,,,,18,29,24,19,1.7,1.3
2026-01-13T0200,1753A,123.0219,41.0822,鞍山市,明达新区,,24,24,42,11,23,51,,,,14,21,12,13,0.4,0.5
2026-01-13T0200,4201A,122.944647,41.082639,鞍山市,兴盛南路290号,,36,36,55,13,29,55,,,,15,29,13,16,1.0,0.9
2026-01-13T0200,2195A,107.4206,40.7609,巴彦淖尔市,附二中,颗粒物(PM10),62,74,136,35,43,42,,,,19,8,4,3,0.5,0.5
2026-01-13T0200,2196A,107.37,40.7372,巴彦淖尔市,市环保大楼,颗粒物(PM10),65,80,135,24,34,51,,,,12,10,4,4,0.5,0.5
2026-01-13T0200,1956A,86.1476,41.7529,巴音郭楞蒙古自治州,孔雀公园,颗粒物(PM10),81,111,98,57,60,14,,,,65,46,8,8,1.0,0.9
2026-01-13T0200,1957A,86.1971,41.7166,巴音郭楞蒙古自治州,棉纺厂,颗粒物(PM10),101,151,129,58,56,2,,,,96,61,/,/,/,/
2026-01-13T0200,1958A,86.236,41.7172,巴音郭楞蒙古自治州,经济开发区,"颗粒物(PM10),细颗粒物(PM2.5)",69,87,90,50,47,27,,,,37,32,5,6,0.9,0.8
2026-01-13T0200,3181A,106.776805,31.852614,巴中市,市五中,细颗粒物(PM2.5),110,112,104,83,79,4,,,,40,32,5,5,1.1,1.2
2026-01-13T0200,3183A,106.7419,31.8654,巴中市,圣泉水务公司,细颗粒物(PM2.5),92,98,88,68,69,4,,,,44,38,4,5,0.7,0.7
2026-01-13T0200,3616A,106.7617,31.8343,巴中市,市中心医院,细颗粒物(PM2.5),127,120,105,96,86,0,,,,39,36,6,7,1.3,1.2
2026-01-13T0200,2235A,122.7909,45.608,白城市,洮北区环保局,,20,16,38,14,30,55,,,,10,20,6,7,0.2,0.4
2026-01-13T0200,2236A,122.8741,45.5725,白城市,市环保局,,17,17,32,9,26,53,,,,5,15,4,4,0.2,0.4
2026-01-13T0200,2231A,126.4219,41.9172,白山市,喜丰,,21,21,44,12,24,63,,,,9,26,12,19,0.6,0.8
2026-01-13T0200,2232A,126.4082,41.9416,白山市,环保局,,23,,36,16,27,65,,,,6,22,8,12,0.8,1.1
2026-01-13T0200,2647A,104.1727,36.5448,白银市,第三小学,颗粒物(PM10),71,92,75,39,46,37,,,,44,45,20,26,0.7,1.1
2026-01-13T0200,2648A,104.1467,36.5482,白银市,动力公司,颗粒物(PM10),51,51,69,29,41,46,,,,16,34,6,18,0.8,1.1
2026-01-13T0200,2512A,106.6102,23.901,百色市,市监测站,细颗粒物(PM2.5),68,70,81,49,60,9,,,,39,29,7,15,0.6,0.8
2026-01-13T0200,2513A,106.6524,23.8842,百色市,市中心血站,细颗粒物(PM2.5),113,93,113,85,86,1,,,,59,50,10,18,1.1,1.1
2026-01-13T0200,4133A,106.6273,23.8798,百色市,龙景西路,颗粒物(PM10),95,139,136,56,70,23,,,,28,39,8,18,0.8,0.9
2026-01-13T0200,2270A,117.396,32.9389,蚌埠市,工人疗养院,"颗粒物(PM10),细颗粒物(PM2.5)",80,110,102,59,40,40,,,,38,30,6,8,0.6,0.6
2026-01-13T0200,2271A,117.3606,32.9428,蚌埠市,百货大楼,细颗粒物(PM2.5),84,110,88,62,40,39,,,,35,29,8,9,0.6,0.6
2026-01-13T0200,2273A,117.4183,32.8909,蚌埠市,蚌埠学院,细颗粒物(PM2.5),84,114,95,62,42,45,,,,35,27,8,7,0.5,0.4
2026-01-13T0200,2274A,117.3534,32.9672,蚌埠市,淮上区政府,颗粒物(PM10),85,119,100,59,43,33,,,,53,31,5,5,0.7,0.6
2026-01-13T0200,2275A,117.3143,32.8977,蚌埠市,高新区,细颗粒物(PM2.5),89,110,103,66,48,18,,,,50,33,8,9,0.4,0.4
2026-01-13T0200,3715A,117.3091,32.9314,蚌埠市,蚌埠田家炳中学,细颗粒物(PM2.5),103,133,111,77,49,29,,,,53,36,27,13,0.6,0.5
2026-01-13T0200,1585A,109.8761,40.6533,包头市,市环境监测站,颗粒物(PM10),85,120,134,39,33,21,,,,37,38,17,11,1.2,1.1
2026-01-13T0200,1587A,109.9992,40.5843,包头市,包头八中,颗粒物(PM10),92,133,152,52,54,5,,,,61,44,4,13,1.0,0.9
2026-01-13T0200,1589A,109.8641,40.6288,包头市,惠龙物流,颗粒物(PM10),88,125,142,44,44,12,,,,51,47,20,18,1.3,1.3
2026-01-13T0200,1590A,110.0376,40.5546,包头市,东河鸿龙湾,颗粒物(PM10),102,154,146,19,36,8,,,,67,48,7,12,1.0,1.2
2026-01-13T0200,3283A,109.9154,40.5684,包头市,滨河大厦,颗粒物(PM10),105,159,151,40,50,13,,,,47,39,7,14,0.9,0.9
2026-01-13T0200,3419A,109.9449,40.6259,包头市,包头市委党校,颗粒物(PM10),76,102,120,30,38,2,,,,65,40,9,12,0.8,0.8
2026-01-13T0200,3683A,109.8332,40.6577,包头市,昆区政府,颗粒物(PM10),79,108,137,34,44,30,,,,37,42,20,16,1.2,1.3
2026-01-13T0200,1931A,107.0802,34.3129,宝鸡市,竹园沟,,28,28,39,19,29,32,,,,11,14,5,5,0.3,0.3
2026-01-13T0200,1933A,107.1429,34.3549,宝鸡市,监测站,,43,43,60,23,41,23,,,,22,35,4,4,0.5,0.7
2026-01-13T0200,1934A,107.1172,34.3759,宝鸡市,技工学校,细颗粒物(PM2.5),62,50,67,44,37,23,,,,23,24,3,4,0.7,0.6
2026-01-13T0200,1936A,107.2025,34.3518,宝鸡市,文理学院,,45,40,58,31,39,36,,,,20,36,3,4,0.3,0.5
2026-01-13T0200,1937A,107.2396,34.3626,宝鸡市,三迪小学,细颗粒物(PM2.5),52,43,71,36,46,15,,,,40,45,3,4,0.6,0.6
2026-01-13T0200,4155A,107.1721,34.3558,宝鸡市,滨河北路,,45,45,61,23,33,28,,,,20,29,4,4,0.4,0.5
2026-01-13T0200,4308A,107.3898,34.3601,宝鸡市,陈仓区北开路21号,细颗粒物(PM2.5),63,71,90,45,55,46,,,,44,46,91,50,0.5,0.7
2026-01-13T0200,1051A,115.4803,38.8568,保定市,游泳馆,细颗粒物(PM2.5),93,109,100,69,52,4,,,,70,55,9,11,0.8,0.9
2026-01-13T0200,1052A,115.509,38.8895,保定市,华电二区,细颗粒物(PM2.5),85,106,92,63,55,0,,,,68,55,3,5,1.3,1.1
2026-01-13T0200,1053A,115.4588,38.9037,保定市,接待中心,细颗粒物(PM2.5),87,116,96,64,51,2,,,,64,54,3,3,0.7,0.6
2026-01-13T0200,1054A,115.4484,38.8344,保定市,地表水厂,细颗粒物(PM2.5),104,125,112,78,53,5,,,,72,57,5,4,0.8,0.6
2026-01-13T0200,3581A,115.3136,38.9511,保定市,满城区生态环境分局,细颗粒物(PM2.5),119,136,132,90,81,1,,,,83,65,6,6,1.3,1.2
2026-01-13T0200,3582A,115.4709,38.7628,保定市,清苑区第二中学,细颗粒物(PM2.5),122,175,129,92,55,3,,,,64,50,13,12,1.0,0.7
2026-01-13T0200,3583A,115.6231,39.0223,保定市,徐水物探局,细颗粒物(PM2.5),108,155,133,81,62,2,,,,52,48,7,8,1.0,0.8
2026-01-13T0200,4004A,115.4199,38.8665,保定市,双鹰农机,细颗粒物(PM2.5),112,140,110,84,45,8,,,,64,48,7,7,0.8,0.7
2026-01-13T0200,4034A,115.515,38.8589,保定市,植保所站,细颗粒物(PM2.5),89,117,97,66,58,0,,,,68,55,3,4,1.0,0.9
2026-01-13T0200,2594A,99.1589,25.1137,保山市,市环境监测站,,23,20,25,16,20,51,,,,7,10,3,4,0.2,0.3
2026-01-13T0200,2595A,99.1616,25.1381,保山市,市环保局,,19,17,26,11,17,60,,,,4,6,3,4,0.5,0.5
2026-01-13T0200,1867A,109.1435,21.4085,北海市,海滩公园,细颗粒物(PM2.5),74,85,54,54,29,74,,,,17,19,8,11,1.0,0.8
2026-01-13T0200,1868A,109.0983,21.466,北海市,新市环保局,细颗粒物(PM2.5),70,76,53,51,37,94,,,,17,23,9,8,0.6,0.5
2026-01-13T0200,1869A,109.1775,21.5232,北海市,北海工业园,"颗粒物(PM10),细颗粒物(PM2.5)",64,77,58,46,39,70,,,,21,20,20,16,0.7,0.6
2026-01-13T0200,3400A,109.1844,21.4396,北海市,龙潭自来水厂,细颗粒物(PM2.5),100,87,61,75,44,47,,,,16,17,8,9,1.0,0.9
2026-01-13T0200,1001A,116.3611,39.8786,北京市,万寿西宫,,19,19,66,6,29,48,,,,23,52,1,3,0.3,0.6
2026-01-13T0200,1003A,116.4174,39.9289,北京市,东四,,15,15,62,3,27,48,,,,23,43,3,5,0.1,0.4
2026-01-13T0200,1004A,116.4073,39.8858,北京市,天坛,,17,14,60,6,27,53,,,,21,44,2,3,0.3,0.6
2026-01-13T0200,1005A,116.4622,39.9364,北京市,农展馆,,15,13,64,3,25,48,,,,21,45,3,5,0.4,0.9
2026-01-13T0200,1006A,116.3399,39.9293,北京市,官园,,24,24,65,7,32,38,,,,31,43,3,5,0.3,0.6
2026-01-13T0200,1007A,116.2879,39.9613,北京市,海淀万柳,,21,21,58,3,21,35,,,,36,47,2,3,0.4,0.7
2026-01-13T0200,1008A,116.6635,40.1349,北京市,顺义新城,,23,17,53,3,21,71,,,,5,28,3,3,0.4,0.6
2026-01-13T0200,1009A,116.6275,40.327,北京市,怀柔镇,,21,12,34,3,14,67,,,,5,16,6,7,0.1,0.2
2026-01-13T0200,1010A,116.2295,40.217,北京市,昌平镇,,16,16,38,7,17,46,,,,22,21,4,5,0.5,0.6
2026-01-13T0200,1011A,116.3968,39.982,北京市,奥体中心,,23,15,51,6,21,27,,,,46,43,3,4,0.4,0.8
2026-01-13T0200,3418A,116.8336,40.4095,北京市,密云新城,,23,10,35,6,15,71,,,,2,15,4,4,0.3,0.4
2026-01-13T0200,3671A,116.0879,39.9725,北京市,门头沟三家店,,29,29,42,8,13,4,,,,56,20,3,3,0.4,0.4
2026-01-13T0200,3672A,116.1507,39.8246,北京市,丰台云岗,,24,24,63,7,24,71,,,,6,36,2,2,0.3,0.4
2026-01-13T0200,3674A,115.9578,39.7602,北京市,房山燕山,,40,40,63,15,28,45,,,,19,29,4,6,0.3,0.5
2026-01-13T0200,3675A,116.4669,39.7734,北京市,大兴旧宫,,20,19,72,3,27,31,,,,39,47,2,3,0.3,0.6
2026-01-13T0200,3694A,115.9859,40.4562,北京市,延庆石河营,,22,16,34,3,13,70,,,,4,13,3,3,0.3,0.5
2026-01-13T0200,3695A,116.6151,40.3052,北京市,怀柔新城,,21,10,38,3,15,67,,,,6,15,4,5,0.2,0.4
2026-01-13T0200,3696A,116.2542,39.8764,北京市,丰台小屯,,26,26,62,9,23,39,,,,24,42,5,5,0.3,0.6
2026-01-13T0200,3697A,116.8399,40.3843,北京市,密云镇,,22,10,40,3,15,70,,,,7,23,1,2,0.3,0.5
2026-01-13T0200,4057A,115.9423,40.4431,北京市,延庆百泉,,19,15,36,9,14,60,,,,4,15,3,2,0.4,0.5
2026-01-13T0200,4058A,116.6598,39.9164,北京市,通州新华,,23,13,75,6,33,26,,,,45,58,3,5,0.2,0.6
2026-01-13T0200,4182A,116.1942,39.9158,北京市,石景山八角,,23,23,62,7,21,51,,,,14,37,1,2,0.2,0.4
2026-01-13T0200,4194A,117.078628,40.151726,北京市,平谷新城,,22,9,46,3,19,68,,,,2,20,3,2,0.3,0.5
2026-01-13T0200,1761A,123.8274146,41.31234549,本溪市,大峪,,26,26,37,14,16,45,,,,19,20,10,9,0.7,0.8
2026-01-13T0200,1763A,123.7169,41.3094,本溪市,彩屯,,36,36,46,14,28,53,,,,17,36,9,15,0.5,2.5
2026-01-13T0200,1764A,123.7672166,41.28649327,本溪市,东明,,21,21,40,7,19,62,,,,7,16,6,8,0.7,0.8
2026-01-13T0200,1765A,123.799345,41.266614,本溪市,新立屯,,20,20,35,9,19,58,,,,10,20,11,11,0.8,0.9
2026-01-13T0200,1766A,123.829144,41.336777,本溪市,威宁,,31,31,38,12,20,44,,,,25,23,8,9,0.6,0.7
2026-01-13T0200,2587A,105.287,27.3133,毕节市,八中,细颗粒物(PM2.5),104,98,79,78,62,19,,,,18,18,9,10,1.0,0.9
2026-01-13T0200,2588A,105.3079,27.2987,毕节市,师专,细颗粒物(PM2.5),119,120,81,90,61,4,,,,41,28,8,8,1.2,0.9
2026-01-13T0200,4263A,105.3688,27.3598,毕节市,工业大道,细颗粒物(PM2.5),125,128,82,95,62,10,,,,25,23,11,11,/,/
2026-01-13T0200,1629A,117.9961,37.3604,滨州市,第二水厂,颗粒物(PM10),73,95,99,42,48,25,,,,44,47,14,15,0.8,0.9
2026-01-13T0200,1630A,117.9789,37.3931,滨州市,北中新校,细颗粒物(PM2.5),79,100,93,58,49,1,,,,68,53,8,9,1.0,1
2026-01-13T0200,3514A,117.9379,37.3959,滨州市,中海酒店,细颗粒物(PM2.5),89,107,96,66,52,8,,,,53,46,9,13,1.2,1
2026-01-13T0200,3515A,117.9381509,37.35547456,滨州市,开发区一中,,,100,101,46,51,,,,,33,40,16,20,0.8,0.9
2026-01-13T0200,3516A,118.0914,37.6938,滨州市,金海六路,颗粒物(PM10),89,127,102,61,44,9,,,,66,48,8,9,1.0,1
2026-01-13T0200,4028A,117.9955,37.3752,滨州市,滨州市西街道办事处,细颗粒物(PM2.5),83,102,109,61,58,15,,,,42,42,11,14,1.1,1.1
2026-01-13T0200,2311A,115.8071,33.8399,亳州市,污水处理厂,"颗粒物(PM10),细颗粒物(PM2.5)",72,94,99,52,38,36,,,,21,26,6,4,0.4,0.4
2026-01-13T0200,2312A,115.7789,33.8519,亳州市,三国揽胜宫,细颗粒物(PM2.5),90,108,100,67,47,42,,,,24,26,4,5,0.5,0.5
2026-01-13T0200,3332A,115.7631,33.803,亳州市,亳州学院,"颗粒物(PM10),细颗粒物(PM2.5)",80,109,91,59,41,45,,,,23,26,3,4,0.5,0.4
2026-01-13T0200,2693A,82.0482,44.8553,博尔塔拉蒙古自治州,市党校,颗粒物(PM10),83,116,113,59,65,37,,,,35,35,4,6,0.7,0.8
2026-01-13T0200,2694A,82.0805,44.8966,博尔塔拉蒙古自治州,市环保局,颗粒物(PM10),94,138,116,66,58,14,,,,52,36,7,10,1.6,1.3
2026-01-13T0200,1071A,116.8733,38.2922,沧州市,沧县城建局,细颗粒物(PM2.5),94,125,101,70,53,6,,,,73,53,8,8,0.9,0.8
2026-01-13T0200,1072A,116.8462,38.3189,沧州市,电视转播站,细颗粒物(PM2.5),132,143,97,100,58,0,,,,69,50,6,6,1.2,0.8
2026-01-13T0200,1073A,116.8588,38.3161,沧州市,市环保局,细颗粒物(PM2.5),120,153,101,91,54,2,,,,64,45,9,8,1.1,0.8
2026-01-13T0200,3324A,116.8011,38.294,沧州市,河北水利电力学院,颗粒物(PM10),81,112,102,56,43,1,,,,67,47,5,6,0.9,0.7
2026-01-13T0200,2622A,97.1813,31.1289,昌都市,昌都监测站,,22,22,39,7,16,44,,,,10,18,3,3,0.5,0.6
2026-01-13T0200,3719A,97.1707,31.1428,昌都市,昌都会议中心,,15,10,13,8,11,47,,,,2,3,1,2,0.4,0.3
2026-01-13T0200,2692A,87.2722,44.0298,昌吉回族自治州,新区政务中心,细颗粒物(PM2.5),211,193,148,161,114,5,,,,66,52,8,6,1.9,1.7
2026-01-13T0200,3613A,87.3069,44.0093,昌吉回族自治州,亚心广场,细颗粒物(PM2.5),225,212,170,175,133,16,,,,58,44,7,8,2.1,1.5
2026-01-13T0200,4164A,87.2057,43.9289,昌吉回族自治州,财政所,细颗粒物(PM2.5),83,90,96,61,68,52,,,,24,27,5,5,0.8,0.8
2026-01-13T0200,1120A,125.2874,43.9024,长春市,客车厂,,34,34,47,12,33,55,,,,6,22,7,10,0.3,0.6
2026-01-13T0200,1121A,125.2943,43.8508,长春市,邮电学院,,35,35,40,14,30,50,,,,13,23,10,12,0.3,0.5
2026-01-13T0200,1122A,125.3648,43.8745,长春市,劳动公园,,36,36,46,7,25,55,,,,10,24,9,11,0.4,0.6
2026-01-13T0200,1123A,125.3233,43.8781,长春市,园林处,,36,36,42,17,27,52,,,,8,19,10,11,0.5,0.7
2026-01-13T0200,1124A,125.4604,43.7904,长春市,净月潭,,43,43,41,13,22,51,,,,9,17,6,7,0.2,0.5
2026-01-13T0200,1126A,125.38,43.8422,长春市,经开区环卫处,,38,38,46,10,43,52,,,,12,24,7,8,0.3,0.6
2026-01-13T0200,1127A,125.234,43.7761,长春市,高新区管委会,,35,35,46,8,30,60,,,,6,19,5,7,0.3,0.6
2026-01-13T0200,1128A,125.1695,43.83,长春市,岱山公园,,39,39,50,10,32,53,,,,10,24,5,7,0.3,0.5
2026-01-13T0200,4281A,125.334645,43.916281,长春市,北亚泰大街1068号,,30,30,44,14,29,45,,,,20,28,14,11,0.5,0.7
2026-01-13T0200,1335A,113.082,28.2421,长沙市,经开区环保局,细颗粒物(PM2.5),113,118,90,85,49,3,,,,62,42,8,8,0.9,0.6
2026-01-13T0200,1336A,112.8873,28.2202,长沙市,高开区环保局,细颗粒物(PM2.5),109,100,85,82,48,,,,,57,33,16,11,0.9,0.8
2026-01-13T0200,1337A,113.0785,28.2012,长沙市,马坡岭,细颗粒物(PM2.5),118,148,96,89,51,0,,,,52,41,7,8,1.0,0.9
2026-01-13T0200,1338A,112.9448,28.1894,长沙市,湖南师范大学,细颗粒物(PM2.5),90,95,88,67,46,12,,,,55,47,11,10,0.9,0.8
2026-01-13T0200,1339A,113.0177,28.1322,长沙市,雨花区环保局,细颗粒物(PM2.5),117,138,89,88,46,0,,,,63,43,10,13,1.4,0.8
2026-01-13T0200,1340A,112.9795,28.2593,长沙市,伍家岭,细颗粒物(PM2.5),100,143,107,75,39,1,,,,50,57,6,8,1.1,0.9
2026-01-13T0200,1341A,113.002,28.1944,长沙市,火车新站,细颗粒物(PM2.5),122,155,100,92,55,10,,,,65,52,19,15,1.4,0.9
2026-01-13T0200,1342A,112.9846,28.1177,长沙市,天心区环保局,细颗粒物(PM2.5),100,98,83,75,46,10,,,,62,39,16,12,1.2,0.9
2026-01-13T0200,1343A,112.8906,28.1307,长沙市,湖南中医药大学,细颗粒物(PM2.5),95,119,93,71,49,2,,,,54,53,8,10,1.0,0.8
2026-01-13T0200,1727A,113.1146,36.1547,长治市,清华站,颗粒物(PM10),75,99,80,29,26,11,,,,50,23,14,12,0.8,0.6
2026-01-13T0200,1730A,113.0887,36.2126,长治市,审计局,颗粒物(PM10),77,103,73,31,28,40,,,,26,22,17,10,1.2,0.6
2026-01-13T0200,1731A,113.0845,36.1856,长治市,长治八中,颗粒物(PM10),90,129,94,34,32,29,,,,23,18,18,12,1.0,0.7
2026-01-13T0200,2845A,113.1561,36.1912,长治市,德盛苑,颗粒物(PM10),70,90,66,31,27,56,,,,19,15,12,9,1.3,0.6
2026-01-13T0200,3568A,113.0603,36.0464,长治市,向阳小学,颗粒物(PM10),82,114,100,32,29,46,,,,23,20,17,12,0.5,0.5
2026-01-13T0200,3569A,112.8788,36.315,长治市,屯留一中,颗粒物(PM10),79,107,81,35,27,4,,,,49,21,17,10,0.9,0.7
2026-01-13T0200,4189A,113.113092,36.199482,长治市,英华南巷50号,颗粒物(PM10),87,123,86,34,30,33,,,,33,33,18,10,1.7,0.7
2026-01-13T0200,4190A,113.23666,36.33435,长治市,学府街1号,颗粒物(PM10),76,102,84,34,32,4,,,,53,27,9,9,0.6,0.7
2026-01-13T0200,1854A,111.696,28.9725,常德市,市二中,细颗粒物(PM2.5),63,63,112,45,77,61,,,,12,25,6,6,0.8,0.9
2026-01-13T0200,3138A,111.7152,29.0288,常德市,武陵区永安,"颗粒物(PM10),细颗粒物(PM2.5)",62,74,120,44,70,77,,,,11,23,4,6,0.7,0.8
2026-01-13T0200,3139A,111.6891,28.9881,常德市,鼎城区玉霞,细颗粒物(PM2.5),93,88,124,69,83,29,,,,27,33,8,9,0.7,0.7
2026-01-13T0200,3140A,111.6651,29.0526,常德市,武陵区长庚,细颗粒物(PM2.5),64,66,122,46,77,76,,,,10,23,5,6,0.6,0.8
2026-01-13T0200,1196A,119.9524,31.7586,常州市,市监测站,颗粒物(PM10),62,73,78,37,36,37,,,,36,47,4,6,0.8,0.7
2026-01-13T0200,1200A,119.9351,31.703,常州市,武进监测站,颗粒物(PM10),60,69,76,33,38,46,,,,30,45,9,15,0.3,0.3
2026-01-13T0200,3002A,119.9701,31.813,常州市,行政中心,,,74,72,40,30,,,,,39,41,9,9,0.7,0.6
2026-01-13T0200,3003A,120.0434,31.7726,常州市,经开区,颗粒物(PM10),70,89,91,31,34,50,,,,26,43,12,14,0.5,0.8
2026-01-13T0200,3010A,119.8919,31.7892,常州市,钟楼,颗粒物(PM10),63,76,71,31,30,36,,,,38,41,8,11,0.5,0.5
2026-01-13T0200,3429A,119.8595,31.706,常州市,武进经发区,细颗粒物(PM2.5),67,70,80,48,50,56,,,,25,42,3,5,0.5,0.6
2026-01-13T0200,3430A,119.5812,31.7256,常州市,金坛城区,颗粒物(PM10),61,72,70,43,34,34,,,,28,32,8,10,0.7,0.7
2026-01-13T0200,4089A,119.9551,31.863,常州市,崇义南街5-H号,细颗粒物(PM2.5),65,67,69,47,34,39,,,,40,41,9,7,0.8,0.7
2026-01-13T0200,2220A,120.4318,41.588,朝阳市,西梁,,23,23,54,8,20,50,,,,18,22,12,8,0.6,0.7
2026-01-13T0200,2221A,120.452,41.565,朝阳市,河畔小区,,20,17,48,6,19,64,,,,7,17,10,9,0.3,0.6
2026-01-13T0200,2222A,120.4176,41.5648,朝阳市,八里堡,,19,18,54,7,20,60,,,,12,25,6,11,0.4,0.8
2026-01-13T0200,3026A,116.6179,23.6608,潮州市,市政府,颗粒物(PM10),77,104,87,48,39,20,,,,48,26,12,10,0.6,0.5
2026-01-13T0200,4036A,116.646,23.676,潮州市,金山,颗粒物(PM10),58,66,77,40,40,33,,,,26,20,4,4,0.4,0.4
2026-01-13T0200,2473A,113.0116,25.8228,郴州市,市职中,细颗粒物(PM2.5),69,70,62,50,48,0,,,,39,29,4,8,0.8,0.8
2026-01-13T0200,2475A,113.0381,25.8074,郴州市,市审计局,细颗粒物(PM2.5),74,72,62,54,47,0,,,,46,34,3,7,/,/
2026-01-13T0200,2476A,113.0348,25.7757,郴州市,市环保局,细颗粒物(PM2.5),84,101,78,62,52,1,,,,50,40,3,8,0.9,0.8
2026-01-13T0200,4252A,113.0138,25.8011,郴州市,好美居路49号,细颗粒物(PM2.5),89,76,59,66,50,0,,,,45,34,4,8,/,/
2026-01-13T0200,1431A,103.9727,30.7242,成都市,金泉两河,细颗粒物(PM2.5),193,151,158,145,149,,,,,77,60,2,2,1.8,1.4
2026-01-13T0200,1432A,104.1423,30.6765,成都市,十里店,细颗粒物(PM2.5),189,176,173,142,139,6,,,,110,64,4,4,1.5,1.2
2026-01-13T0200,1433A,104.0594,30.5765,成都市,三瓦窑,细颗粒物(PM2.5),200,182,185,150,163,1,,,,97,73,4,5,1.6,1.5
2026-01-13T0200,1434A,104.1122,30.6306,成都市,沙河铺,细颗粒物(PM2.5),210,168,176,160,160,14,,,,,65,2,3,1.5,1.4
2026-01-13T0200,2880A,104.0219,30.6561,成都市,大石西路,细颗粒物(PM2.5),182,166,183,137,139,1,,,,95,64,6,6,2.3,1.5
2026-01-13T0200,3136A,104.2724,30.559,成都市,龙泉驿区区政府,细颗粒物(PM2.5),113,102,133,85,114,,,,,12,29,6,6,0.7,0.9
2026-01-13T0200,3357A,104.0028,30.6891,成都市,金博路,细颗粒物(PM2.5),195,164,168,146,144,1,,,,94,63,5,5,1.6,1.4
2026-01-13T0200,3359A,104.056,30.5228,成都市,华阳,细颗粒物(PM2.5),195,183,179,146,142,2,,,,88,67,4,4,2.0,1.3
2026-01-13T0200,3488A,104.387954,30.746684,成都市,青石路225号,细颗粒物(PM2.5),150,134,172,115,143,18,,,,63,59,3,5,0.7,0.9
2026-01-13T0200,3489A,104.0788,30.4054,成都市,科学城,细颗粒物(PM2.5),129,126,173,98,148,,,,,50,44,6,6,0.8,0.8
2026-01-13T0200,4011A,103.8505,30.6946,成都市,光华大道三段,细颗粒物(PM2.5),226,210,184,176,156,5,,,,62,50,2,3,1.3,1
2026-01-13T0200,4144A,104.3257,30.6406,成都市,八角井街185号,细颗粒物(PM2.5),138,132,173,105,136,81,,,,21,34,2,3,0.9,1
2026-01-13T0200,4224A,104.2433276,30.53529463,成都市,鲸龙路1057号,细颗粒物(PM2.5),160,133,152,122,142,12,,,,68,48,5,6,0.9,1
2026-01-13T0200,1062A,117.9531,40.908,承德市,铁路,,24,21,55,6,17,74,,,,2,20,3,8,0.2,0.6
2026-01-13T0200,1063A,117.9397,40.9763,承德市,中国银行,,36,36,51,11,16,43,,,,14,17,3,4,0.3,0.6
2026-01-13T0200,4073A,117.9462,40.95,承德市,杏林街1号,,24,,45,10,20,74,,,,1,15,4,6,0.2,0.6
2026-01-13T0200,4274A,117.7994,40.9605,承德市,滨河大街98号,,32,,45,22,22,66,,,,2,16,3,8,0.2,0.5
2026-01-13T0200,2314A,117.4698,30.6617,池州市,池州学院,细颗粒物(PM2.5),78,92,66,57,35,20,,,,53,38,42,13,2.4,1.2
2026-01-13T0200,3237A,117.4918,30.6617,池州市,展览馆,细颗粒物(PM2.5),68,82,63,49,29,29,,,,40,35,42,9,1.4,1.3
2026-01-13T0200,3333A,117.5626,30.695,池州市,第八中学,颗粒物(PM10),66,81,64,46,30,32,,,,38,33,39,8,1.4,1
2026-01-13T0200,3334A,117.5037,30.6242,池州市,第十二中学,颗粒物(PM10),57,63,61,30,27,35,,,,38,37,7,5,0.5,0.9
2026-01-13T0200,1744A,118.9229,42.2816,赤峰市,松山一中,,20,15,44,3,11,61,,,,5,19,3,5,0.5,0.7
2026-01-13T0200,1745A,118.9588,42.2733,赤峰市,哈达街,,21,13,45,3,10,67,,,,5,17,4,7,0.5,0.7
2026-01-13T0200,1746A,118.8792,42.2551,赤峰市,天义路,,22,,32,7,16,68,,,,2,14,5,6,0.4,0.5
2026-01-13T0200,3058A,119.2656,42.0356,赤峰市,银河街,,23,18,53,6,19,73,,,,2,13,8,12,0.5,0.8
2026-01-13T0200,3286A,118.9359,42.3146,赤峰市,桥北物流园区,,23,12,35,3,16,73,,,,5,14,3,5,0.3,0.4
2026-01-13T0200,2521A,107.3473,22.4137,崇左市,市环保局江州分局,细颗粒物(PM2.5),90,84,87,67,62,35,,,,28,30,7,8,0.8,0.8
2026-01-13T0200,4256A,107.375,22.3736,崇左市,石景林东路7号,细颗粒物(PM2.5),87,76,69,64,57,23,,,,40,35,7,8,0.7,0.7
2026-01-13T0200,3207A,118.31131,32.3033,滁州市,市政府原办公楼,细颗粒物(PM2.5),69,83,74,50,37,47,,,,36,30,5,8,0.6,0.6
2026-01-13T0200,3331A,118.3268,32.2633,滁州市,图书馆,细颗粒物(PM2.5),79,89,73,58,35,59,,,,26,33,10,12,0.5,0.6
2026-01-13T0200,4101A,118.3196,32.3335,滁州市,银山路666号,细颗粒物(PM2.5),94,88,77,70,52,47,,,,30,26,15,14,0.4,0.5
2026-01-13T0200,4102A,118.3426,32.2979,滁州市,黄山路555号,细颗粒物(PM2.5),97,106,94,72,53,44,,,,37,33,11,14,0.8,0.8
2026-01-13T0200,2606A,101.5379,25.0492,楚雄彝族自治州,市经济开发区,,45,45,32,30,24,12,,,,28,24,4,4,0.7,0.8
2026-01-13T0200,4153A,101.5536,25.0343,楚雄彝族自治州,团结路562号,,46,46,37,29,25,7,,,,34,19,5,6,0.9,0.6
2026-01-13T0200,2549A,107.5087,31.2186,达州市,市环境监测站,细颗粒物(PM2.5),175,146,159,132,129,5,,,,44,51,5,7,0.8,1.1
2026-01-13T0200,2550A,107.4988,31.2132,达州市,凤凰小区,细颗粒物(PM2.5),170,161,172,129,131,3,,,,41,47,4,6,0.8,1.2
2026-01-13T0200,2551A,107.5081,31.1987,达州市,达县机关宾馆,,,,182,,131,,,37,,,54,,4,,1.2
2026-01-13T0200,2552A,107.4644,31.2124,达州市,市政中心,细颗粒物(PM2.5),170,161,181,129,128,5,,,,50,55,5,7,0.8,1.2
2026-01-13T0200,2614A,100.2168,25.5818,大理白族自治州,大理市环境监测站,,33,,21,23,20,55,,,,13,16,6,6,0.5,0.6
2026-01-13T0200,2615A,100.1542,25.7055,大理白族自治州,大理古城,,21,21,25,3,17,48,,,,11,13,8,8,0.5,0.5
2026-01-13T0200,1109A,121.6119,38.974,大连市,甘井子,,47,47,62,21,31,60,,,,16,26,12,11,0.4,0.2
2026-01-13T0200,1110A,121.565,38.9509,大连市,周水子,颗粒物(PM10),56,62,55,31,32,36,,,,27,29,3,3,0.7,0.6
2026-01-13T0200,1111A,121.5637,38.8849,大连市,星海三站,颗粒物(PM10),53,55,50,27,31,45,,,,22,24,9,9,0.7,0.6
2026-01-13T0200,1112A,121.6301,38.9117,大连市,青泥洼桥,,39,39,63,21,31,53,,,,14,23,10,10,0.4,0.6
2026-01-13T0200,1113A,121.6248,38.8643,大连市,傅家庄,,50,50,58,19,30,47,,,,18,24,10,11,0.7,0.5
2026-01-13T0200,1114A,121.5117,38.8636,大连市,七贤岭,颗粒物(PM10),57,64,53,28,27,42,,,,19,20,10,10,1.0,0.9
2026-01-13T0200,1116A,121.7507,39.1339,大连市,金州,,42,42,61,23,35,50,,,,21,30,13,11,0.5,0.6
2026-01-13T0200,1117A,121.7811,39.0495,大连市,开发区,,48,48,48,18,29,55,,,,12,23,5,5,0.5,0.6
2026-01-13T0200,1118A,121.9762,39.0631,大连市,双D港,,32,32,63,15,25,65,,,,12,21,9,10,0.4,0.5
2026-01-13T0200,4082A,121.2548,38.8188,大连市,旅顺,颗粒物(PM10),54,57,65,34,32,39,,,,16,17,8,7,0.6,0.7
2026-01-13T0200,1789A,124.8085,46.0381,大庆市,大同区,,50,41,64,35,47,50,,,,11,23,7,10,0.6,0.7
2026-01-13T0200,1790A,125.1166,46.5255,大庆市,龙凤区,细颗粒物(PM2.5),82,82,69,60,42,34,,,,30,38,7,8,0.8,0.9
2026-01-13T0200,1791A,124.8894,46.4007,大庆市,红岗区,细颗粒物(PM2.5),62,57,53,44,39,38,,,,15,22,9,6,0.4,0.6
2026-01-13T0200,1792A,125.1391,46.578,大庆市,萨尔图区,细颗粒物(PM2.5),104,87,80,78,59,30,,,,24,30,9,9,0.7,0.7
2026-01-13T0200,1793A,124.9026,46.6217,大庆市,让胡路区,细颗粒物(PM2.5),89,,62,66,56,48,,,,16,24,8,7,0.6,0.7
2026-01-13T0200,3481A,125.127,46.6277,大庆市,萨区政府监测点,细颗粒物(PM2.5),110,115,87,83,60,30,,,,25,32,8,9,0.8,0.7
2026-01-13T0200,1723A,113.2926,40.0759,大同市,云冈宾馆,颗粒物(PM10),101,152,106,29,22,17,,,,41,22,12,7,1.0,0.6
2026-01-13T0200,1724A,113.3437,40.0921,大同市,大同大学,颗粒物(PM10),75,100,80,39,24,29,,,,32,21,13,6,1.1,0.7
2026-01-13T0200,1725A,113.2637,40.129,大同市,安家小村,颗粒物(PM10),83,115,82,31,23,24,,,,40,20,15,7,1.8,0.6
2026-01-13T0200,3282A,113.3399,40.0586,大同市,大同市卫生学校,颗粒物(PM10),76,101,95,51,37,22,,,,41,22,12,5,0.9,0.4
2026-01-13T0200,3565A,113.1371,40.1122,大同市,云冈站,颗粒物(PM10),77,103,87,28,26,19,,,,32,21,5,6,0.7,0.5
2026-01-13T0200,3566A,113.1186,40.2556,大同市,图书馆,颗粒物(PM10),72,93,74,36,27,30,,,,14,13,5,7,0.7,0.5
2026-01-13T0200,3567A,113.5931,40.0459,大同市,区一中,颗粒物(PM10),78,106,89,39,25,23,,,,32,19,7,8,1.1,0.5
2026-01-13T0200,4199A,113.2798248,40.09972476,大同市,魏都大道141号,颗粒物(PM10),83,116,99,46,25,10,,,,54,26,11,6,1.5,0.7
2026-01-13T0200,2269A,124.1068,50.4091,大兴安岭地区,科技局,,32,23,41,22,25,38,,,,6,14,5,7,0.4,0.4
2026-01-13T0200,3663A,124.117,50.4279,大兴安岭地区,红旗社区,,29,22,32,20,29,38,,,,15,18,6,9,0.5,0.5
2026-01-13T0200,1600A,124.33,40.0625,丹东市,江湾东路,,26,26,42,16,30,49,,,,19,20,8,13,0.7,0.9
2026-01-13T0200,1601A,124.4242,40.1513,丹东市,临江后街,,25,25,44,15,28,50,,,,14,23,6,10,0.6,0.8
2026-01-13T0200,1602A,124.3935,40.1461,丹东市,元宝山,,26,26,38,15,27,48,,,,15,18,10,10,0.6,0.7
2026-01-13T0200,1603A,124.3634,40.1093,丹东市,民主桥,,22,22,43,8,24,54,,,,12,26,8,10,0.7,0.8
2026-01-13T0200,3541A,109.5726195,19.51688767,儋州市,第一中学子站,颗粒物(PM10),58,65,45,26,21,80,,,,4,5,4,4,0.6,0.5
2026-01-13T0200,3542A,109.5567,19.5187,儋州市,东坡学校子站,颗粒物(PM10),51,51,41,22,23,87,,,,5,6,6,4,0.5,0.5
2026-01-13T0200,2616A,98.5611,24.4273,德宏傣族景颇族自治州,德宏州监测站,细颗粒物(PM2.5),57,50,56,40,42,26,,,,25,23,6,6,0.6,0.7
2026-01-13T0200,3677A,98.5887,24.4366,德宏傣族景颇族自治州,芒市人民政府综合楼,,45,45,54,25,34,34,,,,10,16,4,4,0.6,0.8
2026-01-13T0200,1901A,104.424,31.1209,德阳市,东山公园,细颗粒物(PM2.5),188,143,147,141,140,94,,,,21,31,5,5,1.0,1.1
2026-01-13T0200,1902A,104.3827,31.1318,德阳市,西小区,细颗粒物(PM2.5),180,176,189,136,149,2,,,,80,68,6,5,1.5,1.6
2026-01-13T0200,1904A,104.3553,31.1091,德阳市,耐火材料厂,细颗粒物(PM2.5),216,190,170,166,153,4,,,,77,62,3,3,1.5,1.2
2026-01-13T0200,4145A,104.4144,31.1495,德阳市,市林业局,细颗粒物(PM2.5),198,155,158,148,150,21,,,,46,61,3,4,1.2,1.4
2026-01-13T0200,1622A,116.3034,37.4675,德州市,儿童乐园,颗粒物(PM10),108,166,113,73,43,4,,,,67,37,33,15,1.2,0.9
2026-01-13T0200,1624A,116.2992,37.4449,德州市,监理站,颗粒物(PM10),96,141,105,70,41,14,,,,70,46,24,16,1.2,0.9
2026-01-13T0200,3066A,116.2722,37.438,德州市,九衢泉纯净水厂,细颗粒物(PM2.5),100,146,109,75,47,4,,,,75,49,24,19,1.2,0.8
2026-01-13T0200,3371A,116.3693,37.44,德州市,开发区人民医院,细颗粒物(PM2.5),107,153,108,80,42,17,,,,74,47,39,16,1.1,0.8
2026-01-13T0200,3511A,116.5687,37.3331,德州市,陵城艺术中心,细颗粒物(PM2.5),122,166,124,92,56,0,,,,62,46,47,22,1.5,0.9
2026-01-13T0200,4292A,116.352738,37.420875,德州市,新河东路,细颗粒物(PM2.5),94,136,104,70,44,5,,,,81,53,28,16,1.1,1
2026-01-13T0200,2621A,99.7054,27.8319,迪庆藏族自治州,迪庆州站,,26,24,33,18,20,46,,,,10,13,6,5,0.6,0.6
2026-01-13T0200,3180A,99.7122,27.8129,迪庆藏族自治州,质量技术监督局,,36,28,32,25,20,45,,,,14,17,4,4,0.6,0.6
2026-01-13T0200,4257A,104.6092,35.5962,定西市,将台街,颗粒物(PM10),64,77,70,45,43,8,,,,40,34,19,19,1.1,0.9
2026-01-13T0200,4309A,104.6159,35.5701,定西市,正龙路62号,细颗粒物(PM2.5),68,69,75,49,45,19,,,,12,17,12,17,1.2,1
2026-01-13T0200,1390A,113.7943,23.0132,东莞市,东城石井,细颗粒物(PM2.5),80,97,83,59,44,37,,,,71,58,7,8,0.7,0.6
2026-01-13T0200,1391A,113.7384,22.9659,东莞市,南城西平,细颗粒物(PM2.5),93,124,93,69,51,0,,,,140,69,14,11,0.9,0.7
2026-01-13T0200,3319A,113.7283,23.041,东莞市,万江金泰,细颗粒物(PM2.5),114,148,106,86,57,9,,,,136,82,7,9,1.3,1.1
2026-01-13T0200,4129A,113.8666,23.1062,东莞市,裕兴路,颗粒物(PM10),98,146,101,70,45,18,,,,91,72,19,13,1.1,0.9
2026-01-13T0200,4130A,114.0076,22.9739,东莞市,教育路1号,细颗粒物(PM2.5),118,177,122,89,60,3,,,,141,80,8,7,1.0,0.8
2026-01-13T0200,4131A,113.7981,22.8124,东莞市,长怡路1号,细颗粒物(PM2.5),107,152,99,80,48,23,,,,96,69,9,9,0.9,0.8
2026-01-13T0200,1666A,118.6612,37.4313,东营市,市环保局,颗粒物(PM10),74,97,93,41,43,13,,,,61,49,14,19,1.0,1.1
2026-01-13T0200,3036A,118.6903,37.4337,东营市,开发区管委会,颗粒物(PM10),84,118,97,56,42,5,,,,74,47,17,19,0.7,0.8
2026-01-13T0200,3365A,118.5721,37.5654,东营市,垦利区民丰路,颗粒物(PM10),75,100,97,46,44,22,,,,45,46,8,9,0.8,0.8
2026-01-13T0200,3498A,118.5063,37.8606,东营市,河口城区,颗粒物(PM10),89,127,99,54,44,7,,,,68,44,10,8,1.0,1
2026-01-13T0200,3646A,118.4979,37.4623,东营市,胜利站,颗粒物(PM10),85,119,84,61,46,6,,,,63,51,18,18,1.1,0.9
2026-01-13T0200,3734A,118.5753,37.4405,东营市,理想之城,颗粒物(PM10),71,92,90,51,48,8,,,,65,50,10,12,1.1,1
2026-01-13T0200,1591A,110.0024,39.8127,鄂尔多斯市,综合楼,,44,44,112,14,33,70,,,,7,9,4,4,0.4,0.4
2026-01-13T0200,1592A,109.9485,39.8259,鄂尔多斯市,巴音孟克林场办事处,颗粒物(PM10),60,70,144,19,35,70,,,,7,8,6,5,0.3,0.3
2026-01-13T0200,1593A,109.7734,39.5987,鄂尔多斯市,康泽苑,颗粒物(PM10),63,75,163,22,41,60,,,,10,8,5,5,0.3,0.3
2026-01-13T0200,1594A,109.8121,39.5987,鄂尔多斯市,华泰汽车城,颗粒物(PM10),68,85,163,22,38,51,,,,12,9,3,3,0.3,0.3
2026-01-13T0200,1595A,109.9734,39.7884,鄂尔多斯市,奥林花园,颗粒物(PM10),60,70,150,17,31,57,,,,14,13,10,5,0.3,0.4
2026-01-13T0200,2436A,114.894,30.3989,鄂州市,市政府,细颗粒物(PM2.5),93,111,77,69,45,11,,,,61,40,9,8,1.0,0.8
2026-01-13T0200,2437A,114.8986,30.3714,鄂州市,赵家坝,细颗粒物(PM2.5),82,97,81,60,44,38,,,,23,25,8,10,0.8,0.9
2026-01-13T0200,3654A,114.8093,30.4091,鄂州市,精准医疗中心,,,,74,,46,,,97,,,38,,9,,0.8
2026-01-13T0200,2454A,109.4978,30.2979,恩施土家族苗族自治州,湖北民院,细颗粒物(PM2.5),130,99,58,99,56,19,,,,23,20,6,6,1.0,0.9
2026-01-13T0200,3549A,109.5061,30.3771,恩施土家族苗族自治州,龙凤新区,细颗粒物(PM2.5),95,90,68,71,55,20,,,,9,14,7,7,0.4,0.4
2026-01-13T0200,2499A,108.3411,21.6159,防城港市,沙万,颗粒物(PM10),56,61,75,28,34,79,,,,16,31,10,13,0.7,0.8
2026-01-13T0200,2500A,108.3515,21.7733,防城港市,防城档案局,颗粒物(PM10),59,68,94,33,50,20,,,,26,32,5,7,0.7,0.8
2026-01-13T0200,2501A,108.3506,21.6414,防城港市,大海花园,颗粒物(PM10),53,55,65,32,34,95,,,,14,26,13,15,0.9,0.9
2026-01-13T0200,1371A,113.1293,23.0065,佛山市,湾梁,细颗粒物(PM2.5),93,107,94,69,56,2,,,,112,82,/,/,/,/
2026-01-13T0200,1372A,113.1082,23.0477,佛山市,华材职中,颗粒物(PM10),104,158,130,77,64,6,,,,147,96,8,9,1.2,0.9
2026-01-13T0200,1373A,113.1439,23.045,佛山市,南海气象局,细颗粒物(PM2.5),108,128,96,81,61,1,,,,150,84,/,/,/,/
2026-01-13T0200,1374A,113.2879,22.8094,佛山市,顺德苏岗,细颗粒物(PM2.5),122,122,81,92,53,2,,,,142,68,/,/,1.3,0.9
2026-01-13T0200,1376A,112.8384,22.8678,佛山市,高明孔堂,细颗粒物(PM2.5),59,54,67,42,45,72,,,,24,42,/,/,/,/
2026-01-13T0200,1377A,112.8835,23.1584,佛山市,三水监测站,细颗粒物(PM2.5),68,78,113,49,64,1,,,,111,84,7,16,0.8,0.9
2026-01-13T0200,1378A,112.8668,23.185,佛山市,三水云东海,颗粒物(PM10),58,65,97,40,62,1,,,,99,68,/,/,/,/
2026-01-13T0200,3625A,113.2568,22.7629,佛山市,容桂街道办,细颗粒物(PM2.5),195,215,110,146,65,2,,,,174,85,/,/,/,/
2026-01-13T0200,1282A,119.2681,26.0506,福州市,师大,颗粒物(PM10),51,52,72,26,21,26,,,,48,34,3,4,0.5,0.5
2026-01-13T0200,1283A,119.2983,26.1028,福州市,五四北路,颗粒物(PM10),54,58,68,27,22,16,,,,53,35,4,5,0.7,0.7
2026-01-13T0200,1284A,119.2648,26.0769,福州市,杨桥西路,颗粒物(PM10),52,53,69,24,21,22,,,,44,27,4,5,/,/
2026-01-13T0200,3048A,119.5799,26.0937,福州市,九龙,,38,38,53,15,14,31,,,,33,19,4,5,0.6,0.6
2026-01-13T0200,3526A,119.5188,25.9666,福州市,吴航,颗粒物(PM10),55,60,67,24,20,32,,,,36,30,5,7,0.6,0.6
2026-01-13T0200,4104A,119.3106,26.0648,福州市,路通桥巷6号,颗粒物(PM10),65,80,70,39,25,9,,,,54,25,/,/,/,/
2026-01-13T0200,1755A,123.7974,41.8494,抚顺市,望花区,,42,42,46,15,25,52,,,,15,25,5,10,0.5,0.7
2026-01-13T0200,1756A,123.9161,41.8827,抚顺市,顺城区,,20,20,44,8,24,56,,,,11,28,7,9,0.5,0.8
2026-01-13T0200,1757A,124.0437,41.8615,抚顺市,东洲区,,30,30,42,17,19,51,,,,15,22,8,16,0.7,0.9
2026-01-13T0200,1758A,123.9246,41.8638,抚顺市,新抚区,,20,19,43,10,24,63,,,,11,25,7,8,0.5,0.8
2026-01-13T0200,1759A,124.0972,41.8961,抚顺市,大伙房水库,,31,31,37,13,15,40,,,,21,17,11,12,0.7,0.7
2026-01-13T0200,1760A,123.708,41.8386,抚顺市,沈抚新城,,28,28,44,7,24,54,,,,13,23,10,9,0.7,0.9
2026-01-13T0200,2377A,116.3544,27.9833,抚州市,市站,细颗粒物(PM2.5),112,129,95,84,54,4,,,,42,34,11,13,0.9,0.6
2026-01-13T0200,2378A,116.3562,27.9631,抚州市,血防站,细颗粒物(PM2.5),107,130,88,80,51,3,,,,58,46,7,11,1.8,1.4
2026-01-13T0200,2379A,116.3561,28.0007,抚州市,采茶剧团,细颗粒物(PM2.5),110,134,106,83,56,1,,,,54,37,9,10,1.3,1.1
2026-01-13T0200,2380A,116.3854,27.9648,抚州市,医学分院,细颗粒物(PM2.5),93,125,99,69,49,5,,,,25,28,4,7,1.0,1
2026-01-13T0200,2207A,121.6095,41.9978,阜新市,工业园区,,21,21,56,6,28,63,,,,4,20,7,15,0.4,0.6
2026-01-13T0200,2208A,121.6567,42.0188,阜新市,长青街,,20,9,36,7,17,62,,,,4,16,7,11,0.3,0.5
2026-01-13T0200,2209A,121.6672,42.07,阜新市,农业园区,,18,13,43,3,18,56,,,,6,15,6,12,0.3,0.4
2026-01-13T0200,2211A,121.6343,42.0455,阜新市,玉龙新城,,19,15,53,3,22,60,,,,5,22,6,12,0.3,0.5
2026-01-13T0200,2301A,115.8276,32.8929,阜阳市,市监测站,细颗粒物(PM2.5),93,111,86,69,44,80,,,,22,23,6,6,0.5,0.4
2026-01-13T0200,2303A,115.8551,32.8606,阜阳市,开发区,细颗粒物(PM2.5),80,103,89,59,40,63,,,,27,26,7,6,0.5,0.4
2026-01-13T0200,2875A,115.783962,32.889217,阜阳市,阜阳职业技术学院,细颗粒物(PM2.5),92,110,93,68,40,63,,,,28,21,8,8,0.6,0.5
2026-01-13T0200,3468A,115.79,32.8614,阜阳市,市规划展馆,细颗粒物(PM2.5),105,116,96,79,49,74,,,,23,20,8,7,0.7,0.6
2026-01-13T0200,3469A,115.835101,32.918568,阜阳市,枣园社区,细颗粒物(PM2.5),108,116,89,81,47,76,,,,24,23,8,5,0.6,0.5
2026-01-13T0200,2669A,102.9097,34.9841,甘南藏族自治州,州政府,颗粒物(PM10),61,72,58,36,32,1,,,,51,37,15,10,1.1,1.1
2026-01-13T0200,3380A,102.8915,34.9618,甘南藏族自治州,甘肃民族师范学院,颗粒物(PM10),70,89,57,16,15,10,,,,43,31,12,12,0.6,0.7
2026-01-13T0200,2570A,101.96,30.048,甘孜藏族自治州,水桥子,,16,16,24,8,8,39,,,,21,26,5,6,0.5,0.5
2026-01-13T0200,3065A,101.9534,29.9976,甘孜藏族自治州,州环保局,,22,8,27,3,7,68,,,,3,15,4,5,0.3,0.4
2026-01-13T0200,2363A,114.9368,25.8663,赣州市,地委,颗粒物(PM10),62,74,61,40,36,9,,,,52,47,7,9,0.6,0.9
2026-01-13T0200,2364A,114.946,25.8483,赣州市,气象台,颗粒物(PM10),69,87,82,38,33,2,,,,83,65,2,5,0.7,0.7
2026-01-13T0200,2365A,114.932,25.8332,赣州市,市图书馆,颗粒物(PM10),65,79,76,43,39,2,,,,70,59,4,6,1.0,0.9
2026-01-13T0200,2366A,114.8905,25.8472,赣州市,华坚鞋城,颗粒物(PM10),76,102,79,52,40,16,,,,77,53,17,14,0.6,0.6
2026-01-13T0200,3109A,115.0094,25.8614,赣州市,赣县区卫计委,细颗粒物(PM2.5),64,,66,46,49,6,,,,47,36,7,7,0.7,0.7
2026-01-13T0200,2684A,106.2753,36.0057,固原市,监测站,颗粒物(PM10),53,55,44,34,15,16,,,,52,17,6,6,1.1,0.6
2026-01-13T0200,2685A,106.2384,36.0189,固原市,新区,颗粒物(PM10),51,51,39,33,11,24,,,,39,11,2,3,0.7,0.3
2026-01-13T0200,2544A,106.6307,30.4577,广安市,市委,细颗粒物(PM2.5),225,178,192,175,186,6,,,,40,37,9,9,1.3,1.4
2026-01-13T0200,2545A,106.6266,30.4662,广安市,友谊中学,细颗粒物(PM2.5),195,167,180,146,165,18,,,,25,32,6,7,1.1,1.2
2026-01-13T0200,2547A,106.6386,30.4551,广安市,广电花园,细颗粒物(PM2.5),199,157,187,149,179,3,,,,34,35,8,9,1.2,1.1
2026-01-13T0200,2902A,106.6347,30.4868,广安市,北辰小学,细颗粒物(PM2.5),176,151,173,133,163,23,,,,17,25,3,11,1.1,1.3
2026-01-13T0200,2524A,105.8211,32.4444,广元市,老城,细颗粒物(PM2.5),88,88,103,65,85,4,,,,59,54,12,21,0.9,1.3
2026-01-13T0200,2526A,105.8629,32.429,广元市,监测站,细颗粒物(PM2.5),82,84,104,60,80,10,,,,48,50,4,11,1.2,1.4
2026-01-13T0200,3617A,105.8047,32.4167,广元市,经开区,细颗粒物(PM2.5),84,95,111,62,81,1,,,,60,51,4,10,1.2,1.4
2026-01-13T0200,1345A,113.2346,23.1423,广州市,广雅中学,细颗粒物(PM2.5),130,182,129,99,68,1,,,,146,98,4,5,1.9,1.3
2026-01-13T0200,1346A,113.2611,23.105,广州市,市五中,细颗粒物(PM2.5),124,143,108,94,69,4,,,,155,106,11,10,/,/
2026-01-13T0200,1348A,113.3477,23.0916,广州市,广东商学院,细颗粒物(PM2.5),133,143,109,101,71,2,,,,137,94,7,8,1.3,0.7
2026-01-13T0200,1349A,113.4332,23.105,广州市,市八十六中,细颗粒物(PM2.5),104,103,83,78,58,2,,,,133,97,9,10,/,/
2026-01-13T0200,1350A,113.3506,22.9488,广州市,番禺中学,细颗粒物(PM2.5),112,147,118,84,66,7,,,,106,85,5,5,1.2,0.9
2026-01-13T0200,1351A,113.2147,23.3918,广州市,花都师范,细颗粒物(PM2.5),92,130,98,68,53,3,,,,156,88,8,9,1.2,0.9
2026-01-13T0200,1352A,113.2599,23.1329,广州市,市监测站,细颗粒物(PM2.5),110,137,110,83,47,2,,,,150,102,3,4,/,/
2026-01-13T0200,1353A,113.5618,23.3119,广州市,九龙镇镇龙,颗粒物(PM10),87,123,89,60,45,2,,,,96,65,6,6,0.7,0.6
2026-01-13T0200,1354A,113.2764,23.1544,广州市,麓湖,细颗粒物(PM2.5),90,96,89,67,56,2,,,,139,95,11,10,0.7,0.7
2026-01-13T0200,2846A,113.3209,23.1323,广州市,体育西,细颗粒物(PM2.5),104,129,104,78,60,1,,,,145,92,9,8,1.4,0.9
2026-01-13T0200,3298A,113.5718,23.5493,广州市,从化街口,细颗粒物(PM2.5),90,110,69,67,44,0,,,,88,57,11,12,1.0,0.7
2026-01-13T0200,3299A,113.3463,23.369,广州市,白云竹料,颗粒物(PM10),91,132,98,62,52,3,,,,98,69,4,6,1.0,0.8
2026-01-13T0200,3300A,113.2981,23.2365,广州市,白云嘉禾,颗粒物(PM10),92,133,108,64,54,2,,,,116,94,8,8,/,/
2026-01-13T0200,3301A,113.4256,23.1716,广州市,黄埔科学城,颗粒物(PM10),61,71,79,42,45,5,,,,82,64,6,7,0.9,0.8
2026-01-13T0200,3302A,113.3942,23.0485,广州市,番禺大学城,细颗粒物(PM2.5),109,149,98,82,57,3,,,,149,91,12,12,1.1,0.7
2026-01-13T0200,3303A,113.4923,22.8169,广州市,南沙黄阁,细颗粒物(PM2.5),83,114,101,61,52,7,,,,145,88,7,8,/,/
2026-01-13T0200,3304A,113.534,22.7893,广州市,南沙街,颗粒物(PM10),69,88,80,49,44,66,,,,71,57,5,6,0.5,0.5
2026-01-13T0200,3443A,113.2905,23.5541,广州市,花都梯面,,43,43,58,23,31,2,,,,77,56,4,8,/,/
2026-01-13T0200,3445A,113.786,23.7479,广州市,从化良口,,32,29,33,22,24,44,,,,38,22,8,9,/,/
2026-01-13T0200,3446A,113.805,23.2614,广州市,增城荔城,颗粒物(PM10),60,70,54,38,31,23,,,,56,35,6,9,0.8,0.6
2026-01-13T0200,2506A,109.604387,23.066791,贵港市,江南子站,细颗粒物(PM2.5),109,114,103,82,59,63,,,,39,40,11,13,0.8,0.8
2026-01-13T0200,2508A,109.5669,23.1065,贵港市,荷城子站,细颗粒物(PM2.5),73,83,77,53,47,88,,,,24,36,10,12,0.9,0.9
2026-01-13T0200,3405A,109.5886,23.1172,贵港市,新世纪学校,细颗粒物(PM2.5),77,100,81,56,46,95,,,,16,30,/,/,0.5,0.5
2026-01-13T0200,4260A,109.5933,23.095,贵港市,中山路155-3号,细颗粒物(PM2.5),79,79,73,58,56,101,,,,20,33,/,/,0.5,0.6
2026-01-13T0200,1439A,106.6863,26.6035,贵阳市,马鞍山,细颗粒物(PM2.5),77,73,51,56,44,5,,,,22,19,4,7,/,/
2026-01-13T0200,1441A,106.6241,26.6266,贵阳市,鉴湖路,细颗粒物(PM2.5),92,95,56,68,39,5,,,,55,23,5,6,1.2,0.7
2026-01-13T0200,1442A,106.7468,26.6344,贵阳市,燕子冲,细颗粒物(PM2.5),79,73,54,58,49,9,,,,34,20,6,8,0.9,0.7
2026-01-13T0200,1443A,106.6556,26.4362,贵阳市,碧云窝,细颗粒物(PM2.5),107,100,64,80,45,6,,,,35,20,5,11,/,/
2026-01-13T0200,1445A,106.6963,26.6063,贵阳市,红边门,细颗粒物(PM2.5),89,78,63,66,48,11,,,,41,34,38,21,/,/
2026-01-13T0200,1446A,106.7162383,26.56964667,贵阳市,新华路,细颗粒物(PM2.5),107,112,66,80,44,2,,,,57,31,25,12,1.2,0.8
2026-01-13T0200,1447A,106.6742,26.542,贵阳市,太慈桥,细颗粒物(PM2.5),77,73,49,56,37,21,,,,28,26,2,4,/,/
2026-01-13T0200,4230A,106.688212,26.56952,贵阳市,花果园大街66号,细颗粒物(PM2.5),125,102,51,95,58,2,,,,53,27,16,7,/,/
2026-01-13T0200,4231A,106.687268,26.516892,贵阳市,漓江路57号,细颗粒物(PM2.5),94,88,57,70,42,0,,,,50,32,15,13,1.4,1.1
2026-01-13T0200,1864A,110.3091,25.2705,桂林市,龙隐路小学,细颗粒物(PM2.5),95,82,88,71,76,19,,,,39,35,22,14,0.8,0.8
2026-01-13T0200,1865A,110.2849361,25.22909545,桂林市,八中,细颗粒物(PM2.5),117,99,95,88,79,16,,,,41,44,12,13,0.7,0.7
2026-01-13T0200,3531A,110.296,25.1254,桂林市,旅游学院,细颗粒物(PM2.5),113,100,84,85,62,3,,,,44,34,6,7,0.7,0.5
2026-01-13T0200,4222A,110.1835,25.2444,桂林市,环湖路276号,细颗粒物(PM2.5),132,122,102,100,75,3,,,,58,50,25,41,0.9,0.8
2026-01-13T0200,4301A,110.2803,25.2773,桂林市,信义路13号,细颗粒物(PM2.5),118,124,91,89,67,0,,,,61,45,11,16,1.3,0.9
2026-01-13T0200,2674A,100.2262,34.4854,果洛藏族自治州,玛沁县大武镇,,40,40,38,16,13,33,,,,9,7,18,15,0.6,0.5
2026-01-13T0200,1130A,126.5557,45.8109,哈尔滨市,松北商大,细颗粒物(PM2.5),102,91,68,76,56,22,,,,31,41,6,8,0.8,0.8
2026-01-13T0200,1132A,126.6162,45.719,哈尔滨市,南岗学府路,细颗粒物(PM2.5),83,80,52,61,34,14,,,,35,26,23,12,1.0,0.8
2026-01-13T0200,1133A,126.6894,45.7733,哈尔滨市,太平宏伟公园,细颗粒物(PM2.5),79,75,69,58,52,18,,,,35,34,29,14,0.8,0.8
2026-01-13T0200,1134A,126.6361,45.7672,哈尔滨市,道外承德广场,细颗粒物(PM2.5),85,103,87,63,51,21,,,,37,38,8,11,0.7,0.7
2026-01-13T0200,1136A,126.644,45.7261,哈尔滨市,动力和平路,细颗粒物(PM2.5),84,88,65,62,45,23,,,,30,28,15,11,1.0,0.9
2026-01-13T0200,1137A,126.5933,45.7479,哈尔滨市,道里建国路,细颗粒物(PM2.5),102,93,60,76,54,16,,,,38,33,17,13,0.8,0.6
2026-01-13T0200,1138A,126.6127,45.6119,哈尔滨市,平房东轻厂,细颗粒物(PM2.5),103,110,69,77,47,4,,,,51,34,7,8,1.2,0.8
2026-01-13T0200,1139A,126.5875,45.9827,哈尔滨市,呼兰师专,细颗粒物(PM2.5),152,118,88,116,85,10,,,,42,37,8,9,1.2,1
2026-01-13T0200,1140A,126.6299,45.6799,哈尔滨市,省农科院,细颗粒物(PM2.5),79,92,68,58,53,19,,,,37,39,14,13,0.6,0.7
2026-01-13T0200,4282A,126.6769,45.7379,哈尔滨市,华山路1号,细颗粒物(PM2.5),73,66,56,53,43,22,,,,31,33,19,22,0.9,0.8
2026-01-13T0200,4283A,126.9717,45.5356,哈尔滨市,解放大街52号,细颗粒物(PM2.5),99,79,49,74,43,12,,,,44,22,16,12,1.0,0.8
2026-01-13T0200,2688A,93.5124,42.8176,哈密市,地区监测站,细颗粒物(PM2.5),132,153,145,100,75,13,,,,38,28,2,3,1.7,1.1
2026-01-13T0200,2689A,93.5014,42.8312,哈密市,哈密师范学校,颗粒物(PM10),108,166,145,63,56,3,,,,56,40,5,6,1.5,1.1
2026-01-13T0200,2671A,100.9016,36.9464,海北藏族自治州,海晏县西海镇,,22,18,16,15,11,54,,,,1,3,9,7,0.3,0.3
2026-01-13T0200,3867A,102.074,36.5056,海东市,平安区公安局北苑,,30,30,41,13,21,31,,,,6,23,9,12,0.7,0.9
2026-01-13T0200,4163A,102.0984,36.5119,海东市,滨河路,,29,29,41,20,22,8,,,,30,39,5,10,0.6,0.8
2026-01-13T0200,1410A,110.3189,20.0596,海口市,海南大学,颗粒物(PM10),52,54,52,24,23,117,,,,12,10,6,6,0.3,0.3
2026-01-13T0200,1411A,110.2827,20.0051,海口市,秀英海南医院,颗粒物(PM10),54,58,52,22,22,107,,,,9,18,7,8,0.4,0.4
2026-01-13T0200,1412A,110.3391,19.9979,海口市,海南师范大学,颗粒物(PM10),52,53,53,23,23,112,,,,10,16,6,6,0.4,0.4
2026-01-13T0200,1413A,110.3303,20.0359,海口市,龙华路环保局宿舍,颗粒物(PM10),60,70,51,24,23,106,,,,12,14,/,/,0.7,0.7
2026-01-13T0200,3539A,110.5111,19.9737,海口市,桂林洋子站,颗粒物(PM10),52,53,57,28,26,88,,,,12,17,/,/,/,/
2026-01-13T0200,4134A,110.1952,20.0451,海口市,长滨二路9号,,50,50,45,25,23,103,,,,10,12,/,/,/,/
2026-01-13T0200,2673A,100.6158,36.2985,海南藏族自治州,共和县恰卜恰镇,,28,28,35,12,18,44,,,,13,25,10,12,0.5,0.6
2026-01-13T0200,2676A,97.373,37.376,海西蒙古族藏族自治州,德令哈市,,22,16,22,9,7,70,,,,1,9,11,15,0.4,0.7
2026-01-13T0200,1049A,114.492,36.5712,邯郸市,矿院,细颗粒物(PM2.5),117,120,90,88,65,3,,,,67,50,7,9,1.2,1.1
2026-01-13T0200,1050A,114.4839,36.6136,邯郸市,丛台公园,细颗粒物(PM2.5),100,108,96,75,61,8,,,,62,50,12,10,1.4,1.1
2026-01-13T0200,3458A,114.7893,36.5592,邯郸市,香泉濮院小区,细颗粒物(PM2.5),117,141,105,88,60,8,,,,60,38,12,11,1.0,0.9
2026-01-13T0200,3580A,114.1998,36.4439,邯郸市,峰峰矿区临水派出所,颗粒物(PM10),61,72,56,24,31,51,,,,19,17,20,13,0.5,0.7
2026-01-13T0200,4068A,114.5209,36.7697,邯郸市,建安街268号,细颗粒物(PM2.5),123,140,111,93,65,3,,,,56,52,13,13,1.6,1.2
2026-01-13T0200,4069A,114.5488,36.6177,邯郸市,丛台东路558号,细颗粒物(PM2.5),115,122,99,87,63,2,,,,80,56,10,12,1.4,1.1
2026-01-13T0200,2635A,107.0155,33.0707,汉中市,市监测站,细颗粒物(PM2.5),156,156,121,119,108,11,,,,39,46,5,7,1.5,1.5
2026-01-13T0200,2636A,107.0083,33.114,汉中市,鑫源开发区,细颗粒物(PM2.5),163,136,103,124,89,9,,,,46,45,5,8,1.3,1.1
2026-01-13T0200,2637A,107.0072,33.0323,汉中市,南郑大河坎水厂,细颗粒物(PM2.5),148,133,131,113,101,12,,,,30,35,6,5,1.4,1.4
2026-01-13T0200,1223A,120.2073,30.2111,杭州市,滨江,颗粒物(PM10),57,63,76,38,37,36,,,,37,42,7,7,0.5,0.5
2026-01-13T0200,1224A,120.0625,30.2737,杭州市,西溪,,48,48,57,24,26,0,,,,33,38,8,9,0.7,0.8
2026-01-13T0200,1226A,120.3417,30.315,杭州市,下沙,颗粒物(PM10),62,73,76,40,32,24,,,,55,47,8,9,0.8,0.7
2026-01-13T0200,1227A,120.1252,30.2465,杭州市,卧龙桥,,38,38,57,18,26,19,,,,33,36,9,10,0.3,0.4
2026-01-13T0200,1228A,120.1902,30.2691,杭州市,浙江农大,颗粒物(PM10),72,94,78,48,37,1,,,,70,54,7,6,0.9,0.6
2026-01-13T0200,1230A,120.1195,30.3121,杭州市,和睦小学,颗粒物(PM10),53,56,71,33,34,26,,,,40,44,7,6,0.7,0.7
2026-01-13T0200,1231A,120.3076,30.4146,杭州市,临平镇,,46,46,80,22,32,40,,,,35,49,7,8,0.4,0.5
2026-01-13T0200,1232A,120.2753,30.1839,杭州市,城厢镇,颗粒物(PM10),63,76,86,36,38,37,,,,40,51,8,8,0.5,0.5
2026-01-13T0200,1233A,120.0883,30.1808,杭州市,云栖,,44,44,61,19,26,40,,,,17,27,3,4,0.4,0.5
2026-01-13T0200,3557A,119.9463,30.0496,杭州市,镇二中,细颗粒物(PM2.5),57,61,69,40,37,21,,,,45,48,5,6,0.9,0.8
2026-01-13T0200,3558A,119.7184,30.2367,杭州市,市府大楼,颗粒物(PM10),54,57,80,33,40,30,,,,22,28,10,11,0.7,0.8
2026-01-13T0200,3656A,120.1554,30.2863,杭州市,消防大队,颗粒物(PM10),53,56,68,34,32,4,,,,70,45,7,7,0.5,0.4
2026-01-13T0200,1270A,117.1957,31.7845,合肥市,明珠广场,颗粒物(PM10),74,97,83,51,38,1,,,,87,50,7,8,0.7,0.7
2026-01-13T0200,1271A,117.307,31.8765,合肥市,三里街,颗粒物(PM10),74,97,85,53,39,1,,,,74,58,7,7,0.9,0.8
2026-01-13T0200,1272A,117.2587,31.8703,合肥市,琥珀山庄,细颗粒物(PM2.5),82,105,83,60,45,4,,,,87,53,9,9,1.4,1
2026-01-13T0200,1275A,117.2593,31.9376,合肥市,庐阳区,颗粒物(PM10),79,107,80,56,33,21,,,,77,39,5,6,0.9,0.8
2026-01-13T0200,1276A,117.345251,31.861615,合肥市,瑶海区,颗粒物(PM10),67,83,85,46,35,1,,,,82,62,5,6,0.7,0.7
2026-01-13T0200,1277A,117.3033,31.7967,合肥市,包河区,细颗粒物(PM2.5),73,85,77,53,40,4,,,,73,50,8,9,0.9,0.8
2026-01-13T0200,1278A,117.278,31.7392,合肥市,滨湖新区,细颗粒物(PM2.5),70,73,74,51,40,3,,,,71,45,6,7,0.7,0.7
2026-01-13T0200,1279A,117.1324,31.8395,合肥市,高新区,细颗粒物(PM2.5),64,75,75,46,35,41,,,,62,38,7,6,0.6,0.5
2026-01-13T0200,3464A,117.3802,31.9148,合肥市,高教基地,细颗粒物(PM2.5),83,102,83,61,45,4,,,,69,46,9,9,0.8,0.7
2026-01-13T0200,4098A,117.2518,31.8404,合肥市,中国科学技术大学,颗粒物(PM10),80,110,76,55,40,1,,,,97,44,10,9,0.9,0.6
2026-01-13T0200,3614A,79.9241,37.0878,和田地区,地区环保局,颗粒物(PM10),85,119,100,52,49,32,,,,50,41,8,8,0.8,0.7
2026-01-13T0200,3615A,79.9132,37.1137,和田地区,市环保局,"颗粒物(PM10),细颗粒物(PM2.5)",87,124,102,64,51,29,,,,51,44,7,6,1.0,1.2
2026-01-13T0200,2517A,108.0496,24.6957,河池市,市环保站,细颗粒物(PM2.5),104,98,77,78,61,8,,,,43,32,3,7,0.9,0.8
2026-01-13T0200,4302A,108.0901,24.6945,河池市,上任中路54号,细颗粒物(PM2.5),114,98,92,86,72,4,,,,45,40,5,9,1.1,1
2026-01-13T0200,1697A,114.6962,23.7538,河源市,东埔,颗粒物(PM10),51,51,50,32,31,10,,,,62,42,5,7,0.7,0.8
2026-01-13T0200,1698A,114.6895,23.7232,河源市,老城,,43,43,46,21,25,32,,,,40,31,6,7,0.5,0.7
2026-01-13T0200,3374A,115.5562,35.089,菏泽市,定陶老年大学,细颗粒物(PM2.5),100,141,102,75,48,32,,,,44,32,6,5,0.5,0.4
2026-01-13T0200,4114A,115.4239,35.2593,菏泽市,黄河路600号,细颗粒物(PM2.5),107,140,114,80,55,6,,,,67,46,6,7,0.8,0.7
2026-01-13T0200,4115A,115.5025,35.2727,菏泽市,菏泽市人社局,细颗粒物(PM2.5),99,146,109,74,52,18,,,,57,36,6,6,0.7,0.6
2026-01-13T0200,4184A,115.479691,35.244011,菏泽市,永昌路1号,细颗粒物(PM2.5),105,150,111,79,56,7,,,,67,38,6,8,0.7,0.5
2026-01-13T0200,4193A,115.471542,35.280012,菏泽市,长城路999号,颗粒物(PM10),96,141,111,70,48,13,,,,68,35,5,6,0.9,0.8
2026-01-13T0200,2514A,111.5264,24.4178,贺州市,环保小区,细颗粒物(PM2.5),83,,62,61,43,42,,,,27,32,8,10,0.5,0.5
2026-01-13T0200,2515A,111.561,24.4074,贺州市,政协大楼,细颗粒物(PM2.5),87,78,57,64,37,3,,,,65,40,11,12,0.8,0.7
2026-01-13T0200,3534A,111.4744,24.455,贺州市,西湾,颗粒物(PM10),72,93,65,51,38,6,,,,58,38,9,9,0.7,0.6
2026-01-13T0200,2385A,114.17,35.9019,鹤壁市,市监测站,颗粒物(PM10),65,80,65,27,27,47,,,,29,26,4,5,0.4,0.5
2026-01-13T0200,2386A,114.2953,35.7512,鹤壁市,市交警支队,颗粒物(PM10),69,87,83,13,28,54,,,,11,28,5,6,0.4,0.6
2026-01-13T0200,2387A,114.2877,35.7302,鹤壁市,迎宾馆,颗粒物(PM10),69,88,90,23,31,56,,,,16,30,4,7,0.5,0.7
2026-01-13T0200,3474A,114.2616,35.6824,鹤壁市,大新区,颗粒物(PM10),67,84,91,18,31,51,,,,14,25,4,6,0.4,0.6
2026-01-13T0200,3596A,114.1573,35.9607,鹤壁市,南山宾馆,颗粒物(PM10),65,79,78,16,26,72,,,,4,10,5,8,0.5,0.6
2026-01-13T0200,2244A,130.2537,47.3416,鹤岗市,哈啤分公司,,23,23,41,14,43,57,,,,5,22,6,9,0.3,0.7
2026-01-13T0200,2245A,130.2683,47.3087,鹤岗市,斯达机电,,38,31,48,26,34,49,,,,10,26,7,10,0.5,0.7
2026-01-13T0200,2246A,130.3114,47.3388,鹤岗市,东山纸板厂,,46,,55,32,49,47,,,,10,38,12,14,0.5,1.5
2026-01-13T0200,2263A,127.4832,50.2524,黑河市,交通局,,32,24,47,22,36,40,,,,16,28,5,8,0.4,0.7
2026-01-13T0200,2264A,127.5146,50.2339,黑河市,环保局,,28,20,45,19,35,39,,,,11,28,5,11,0.2,0.6
2026-01-13T0200,1074A,115.6839,37.754,衡水市,电机北厂,细颗粒物(PM2.5),140,172,104,107,45,0,,,,64,32,27,10,0.9,0.6
2026-01-13T0200,1075A,115.6303,37.7318,衡水市,市监测站,细颗粒物(PM2.5),90,123,94,67,42,9,,,,52,34,12,11,1.1,0.7
2026-01-13T0200,3188A,115.6684,37.7216,衡水市,市城管局,细颗粒物(PM2.5),105,135,107,79,47,3,,,,64,36,16,11,1.0,0.6
2026-01-13T0200,3459A,115.599,37.5491,衡水市,地表水厂,细颗粒物(PM2.5),110,135,97,83,49,5,,,,79,41,23,12,0.9,0.7
2026-01-13T0200,2457A,112.6209,26.9268,衡阳市,衡阳化工总厂,细颗粒物(PM2.5),158,140,129,120,93,1,,,,45,51,10,11,1.5,1.3
2026-01-13T0200,2458A,112.621,26.8957,衡阳市,珠晖区环保局,细颗粒物(PM2.5),190,176,126,143,92,2,,,,48,61,6,8,2.3,1.6
2026-01-13T0200,2459A,112.628,26.8654,衡阳市,市委党校,细颗粒物(PM2.5),190,168,115,143,90,2,,,,44,51,9,12,1.7,1.3
2026-01-13T0200,2460A,112.6007,26.8977,衡阳市,市监测站,细颗粒物(PM2.5),179,211,152,135,88,1,,,,42,48,9,10,2.5,1.7
2026-01-13T0200,2461A,112.5658,26.9013,衡阳市,真空机电公司,细颗粒物(PM2.5),156,147,143,119,97,1,,,,48,57,10,10,1.6,1.6
2026-01-13T0200,3399A,112.6703,26.8817,衡阳市,师范学院,细颗粒物(PM2.5),139,166,124,106,76,0,,,,48,48,3,5,1.4,1.2
2026-01-13T0200,3038A,103.3757,23.3679,红河哈尼族彝族自治州,州图书馆,细颗粒物(PM2.5),78,94,51,57,36,95,,,,13,11,6,7,0.7,0.6
2026-01-13T0200,4154A,103.401,23.3561,红河哈尼族彝族自治州,蒙自市朝阳路,细颗粒物(PM2.5),85,77,37,63,38,104,,,,7,9,5,7,0.7,0.6
2026-01-13T0200,1090A,111.6506,40.7517,呼和浩特市,呼市一监,颗粒物(PM10),93,136,94,53,37,11,,,,52,37,7,9,0.8,0.8
2026-01-13T0200,1094A,111.7516,40.8369,呼和浩特市,如意水处理厂,颗粒物(PM10),78,106,61,39,23,12,,,,53,45,10,13,0.5,0.5
2026-01-13T0200,1095A,111.727798,40.806187,呼和浩特市,二十九中,颗粒物(PM10),91,132,84,48,30,16,,,,44,37,12,14,0.7,0.7
2026-01-13T0200,1097A,111.717,40.7617,呼和浩特市,化肥厂生活区,颗粒物(PM10),96,142,93,52,32,5,,,,57,42,6,9,1.1,0.9
2026-01-13T0200,3699A,111.6519,40.8389,呼和浩特市,海东办,,41,41,74,18,28,19,,,,44,35,3,6,0.4,0.6
2026-01-13T0200,4275A,111.591512,40.827312,呼和浩特市,成吉思汗西街8号,颗粒物(PM10),51,51,80,17,24,2,,,,67,42,7,9,0.6,0.8
2026-01-13T0200,4276A,111.6597,40.8077,呼和浩特市,公园东路75号,颗粒物(PM10),86,122,87,44,30,16,,,,52,42,7,9,0.7,0.6
2026-01-13T0200,4277A,111.5427,40.7846,呼和浩特市,金海路35号,颗粒物(PM10),60,70,85,34,32,3,,,,56,47,9,12,0.6,0.5
2026-01-13T0200,3061A,119.7511,49.1576,呼伦贝尔市,国华电力东,,29,24,27,20,20,49,,,,16,18,7,7,0.3,0.4
2026-01-13T0200,4279A,119.7569,49.2222,呼伦贝尔市,伊敏大街东7号,,26,26,26,15,21,46,,,,9,13,7,8,0.5,0.5
2026-01-13T0200,1250A,120.075,30.867,湖州市,城西水厂,"颗粒物(PM10),细颗粒物(PM2.5)",57,63,79,40,38,10,,,,76,63,12,12,0.3,0.4
2026-01-13T0200,2873A,120.083,30.8929,湖州市,仁皇山新区,颗粒物(PM10),65,79,83,45,42,8,,,,87,77,13,12,0.5,0.5
2026-01-13T0200,2907A,120.1846,30.8592,湖州市,吴兴区站,颗粒物(PM10),54,58,78,30,36,27,,,,54,55,8,8,0.6,0.6
2026-01-13T0200,3562A,120.4146,30.8538,湖州市,南浔区站,,50,50,72,27,34,40,,,,37,52,8,8,0.6,0.6
2026-01-13T0200,1607A,120.904878,40.721091,葫芦岛市,龙港区,,22,,63,7,32,70,,,,9,34,13,21,0.5,0.8
2026-01-13T0200,1608A,120.8382,40.7521,葫芦岛市,化工街,,20,14,60,3,23,62,,,,7,33,12,24,0.3,0.5
2026-01-13T0200,1609A,120.8339,40.7078,葫芦岛市,新区,,18,10,53,10,26,57,,,,11,35,16,19,0.8,1
2026-01-13T0200,1610A,120.8697,40.7679,葫芦岛市,东城区,,19,,54,6,29,58,,,,10,37,21,17,0.6,0.8
2026-01-13T0200,2483A,109.9297,27.5383,怀化市,河西地税局,细颗粒物(PM2.5),103,88,95,77,82,6,,,,21,35,2,3,/,/
2026-01-13T0200,2484A,109.9783,27.5342,怀化市,市四医院,细颗粒物(PM2.5),112,103,115,84,82,3,,,,26,34,9,12,0.7,0.8
2026-01-13T0200,2485A,109.9971,27.5579,怀化市,监测楼,细颗粒物(PM2.5),115,106,108,87,86,20,,,,24,33,2,5,0.2,0.3
2026-01-13T0200,1210A,119.0566,33.5991,淮安市,钵池山,颗粒物(PM10),85,119,85,60,36,43,,,,32,31,10,10,1.0,1
2026-01-13T0200,1211A,119.0083,33.578,淮安市,北京南路,细颗粒物(PM2.5),85,112,95,63,37,2,,,,65,45,8,12,0.7,0.8
2026-01-13T0200,1212A,118.9938,33.6083,淮安市,市监测站,细颗粒物(PM2.5),89,107,81,66,42,35,,,,38,39,11,12,0.4,0.8
2026-01-13T0200,1213A,119.135,33.5038,淮安市,楚州区监测站,细颗粒物(PM2.5),89,117,89,66,50,21,,,,53,39,11,12,0.7,0.7
2026-01-13T0200,3426A,118.8757,33.2897,淮安市,新华书店,细颗粒物(PM2.5),87,113,87,64,45,36,,,,30,31,10,10,1.2,1.2
2026-01-13T0200,4092A,119.119691,33.550006,淮安市,枚皋中路89号,细颗粒物(PM2.5),93,107,86,69,45,42,,,,33,36,10,12,0.3,0.3
2026-01-13T0200,4206A,119.028838,33.631911,淮安市,承德北路606号,颗粒物(PM10),95,139,98,68,39,38,,,,40,40,11,11,0.6,0.7
2026-01-13T0200,2282A,116.8005,33.9749,淮北市,监测站,颗粒物(PM10),78,105,100,49,40,35,,,,41,39,10,11,0.6,0.7
2026-01-13T0200,2283A,116.8094,33.9008,淮北市,烈山区政府,颗粒物(PM10),102,153,110,65,47,10,,,,61,36,14,13,0.5,0.5
2026-01-13T0200,4017A,116.7926,33.9534,淮北市,市博物馆,细颗粒物(PM2.5),93,131,112,69,53,21,,,,58,49,7,6,0.9,0.8
2026-01-13T0200,4100A,116.8322,33.9884,淮北市,杜集区第一实验学校,颗粒物(PM10),93,135,112,60,49,38,,,,34,31,16,9,0.8,0.7
2026-01-13T0200,2277A,116.8304,32.7726,淮南市,潘集区政府,细颗粒物(PM2.5),87,104,108,64,54,62,,,,28,30,8,8,0.7,0.7
2026-01-13T0200,2279A,116.8569,32.5949,淮南市,谢家集区政府,颗粒物(PM10),75,100,90,50,31,52,,,,37,29,10,9,0.6,0.5
2026-01-13T0200,2280A,116.8279,32.6333,淮南市,八公山区政府,细颗粒物(PM2.5),74,94,76,54,33,87,,,,14,18,8,5,0.6,0.5
2026-01-13T0200,2894A,117.0561,32.6536,淮南市,经济技术开发区消防队,细颗粒物(PM2.5),88,120,108,65,43,26,,,,61,34,7,7,0.6,0.6
2026-01-13T0200,3329A,117.011,32.5891,淮南市,山南新区,颗粒物(PM10),87,123,108,63,34,57,,,,31,28,6,4,0.7,0.6
2026-01-13T0200,4209A,117.003137,32.644456,淮南市,国庆中路369号,细颗粒物(PM2.5),100,97,80,75,53,52,,,,30,30,11,10,0.8,0.7
2026-01-13T0200,2446A,114.9021,30.474,黄冈市,职工中心,细颗粒物(PM2.5),87,94,65,64,37,8,,,,75,34,12,11,0.9,0.8
2026-01-13T0200,2929A,114.8858,30.4519,黄冈市,红卫路,细颗粒物(PM2.5),95,92,61,71,40,2,,,,81,37,10,10,0.8,0.7
2026-01-13T0200,3398A,114.9134,30.4446,黄冈市,市林业局,细颗粒物(PM2.5),93,112,84,69,40,4,,,,78,42,6,8,0.7,0.7
2026-01-13T0200,2672A,102.02,35.5101,黄南藏族自治州,同仁县隆务镇,,25,25,29,3,11,51,,,,1,4,8,9,0.3,0.4
2026-01-13T0200,2295A,118.2905,29.6965,黄山市,延安路89号,颗粒物(PM10),51,52,55,33,39,14,,,,18,22,3,4,0.6,0.5
2026-01-13T0200,2297A,118.1369,30.2755,黄山市,黄山区政府5号楼,"颗粒物(PM10),细颗粒物(PM2.5)",55,60,45,39,30,33,,,,8,10,2,3,0.5,0.4
2026-01-13T0200,4210A,118.335445,29.720283,黄山市,滨江东路7-2号,细颗粒物(PM2.5),55,54,67,39,37,11,,,,21,25,/,/,/,/
2026-01-13T0200,2423A,115.0547,30.2332,黄石市,沈家营,细颗粒物(PM2.5),98,130,87,73,45,0,,,,77,54,7,11,1.8,1.6
2026-01-13T0200,2426A,114.899,30.211,黄石市,铁山,细颗粒物(PM2.5),95,82,87,71,46,20,,,,41,37,7,10,0.4,0.5
2026-01-13T0200,2427A,115.0259,30.2108,黄石市,团城山,细颗粒物(PM2.5),84,103,77,62,39,22,,,,58,36,7,7,1.0,0.9
2026-01-13T0200,3149A,115.0174,30.1591,黄石市,笔架山北路,细颗粒物(PM2.5),99,138,104,74,44,19,,,,52,30,10,12,1.5,1.3
2026-01-13T0200,4185A,115.078022,30.21118,黄石市,磁湖东路29号,细颗粒物(PM2.5),93,111,92,69,54,2,,,,65,54,7,13,1.2,1.3
2026-01-13T0200,1392A,114.4181,23.0528,惠州市,河南岸金山湖子站,细颗粒物(PM2.5),80,102,78,59,43,42,,,,47,35,9,8,0.8,0.7
2026-01-13T0200,1393A,114.4055,23.0824,惠州市,下埔横江三路子站,"颗粒物(PM10),细颗粒物(PM2.5)",84,118,86,62,47,65,,,,41,47,24,10,0.7,0.7
2026-01-13T0200,1395A,114.4645,22.7832,惠州市,惠阳区承修路船湖子站,细颗粒物(PM2.5),89,123,85,66,41,6,,,,88,41,6,7,0.7,0.5
2026-01-13T0200,1396A,114.5316,22.7423,惠州市,大亚湾管委会子站,颗粒物(PM10),61,72,75,39,38,27,,,,65,49,6,8,0.6,0.6
2026-01-13T0200,3314A,114.4334,22.8134,惠州市,惠阳秋长,细颗粒物(PM2.5),82,110,100,60,48,18,,,,78,56,/,/,/,/
2026-01-13T0200,3452A,114.6521,22.7755,惠州市,大亚湾霞涌,颗粒物(PM10),55,59,67,25,31,49,,,,36,28,/,/,/,/
2026-01-13T0200,4300A,114.4089,23.1147,惠州市,文华一路1号,细颗粒物(PM2.5),89,124,82,66,44,29,,,,83,51,/,/,/,/
2026-01-13T0200,2240A,130.9618,45.2926,鸡西市,环保局,细颗粒物(PM2.5),94,88,55,70,44,18,,,,32,27,8,10,0.9,0.7
2026-01-13T0200,2243A,130.9294,45.2959,鸡西市,第一中学,细颗粒物(PM2.5),63,56,50,45,40,28,,,,24,23,5,5,0.7,0.7
2026-01-13T0200,3707A,131.0069,45.2988,鸡西市,欧美日汽修厂,细颗粒物(PM2.5),98,,73,73,60,9,,,,44,32,22,22,0.8,0.7
2026-01-13T0200,2367A,114.9753,27.0803,吉安市,红声器材厂,细颗粒物(PM2.5),79,92,84,58,42,2,,,,59,45,8,11,1.1,0.8
2026-01-13T0200,2369A,114.9903,27.1313,吉安市,市环境监测站,"颗粒物(PM10),细颗粒物(PM2.5)",68,85,77,49,41,11,,,,54,44,7,10,/,/
2026-01-13T0200,2370A,115.009527,27.096792,吉安市,青原区法院,颗粒物(PM10),66,81,82,45,42,4,,,,61,47,10,12,0.6,0.7
2026-01-13T0200,1772A,126.54,43.8622,吉林市,哈达湾,,45,45,44,22,23,55,,,,10,16,7,12,0.8,0.9
2026-01-13T0200,1773A,126.5843,43.8358,吉林市,东局子,,34,34,33,19,22,47,,,,13,16,3,4,0.7,0.8
2026-01-13T0200,1774A,126.5051,43.8243,吉林市,电力学院,,36,36,39,23,26,50,,,,11,17,11,11,0.6,0.7
2026-01-13T0200,1775A,126.6133,43.8971,吉林市,江北,,38,38,39,21,22,48,,,,12,16,8,8,0.9,1
2026-01-13T0200,1776A,126.5549,43.8304,吉林市,江南公园,,46,46,63,28,31,50,,,,11,16,7,8,0.5,0.6
2026-01-13T0200,2868A,126.4737,43.953,吉林市,九站,,38,36,44,26,28,44,,,,17,22,6,8,0.6,0.7
2026-01-13T0200,1299A,116.9866,36.6118,济南市,科干所,颗粒物(PM10),64,78,86,37,34,14,,,,54,32,24,14,1.1,0.9
2026-01-13T0200,1300A,116.9379,36.6652,济南市,农科所,颗粒物(PM10),79,107,113,39,41,3,,,,65,52,12,18,0.9,0.9
2026-01-13T0200,1301A,117.1265,36.6736,济南市,开发区,颗粒物(PM10),74,98,81,42,34,10,,,,61,38,5,6,0.9,0.8
2026-01-13T0200,1303A,117.0616,36.6865,济南市,省种子仓库,颗粒物(PM10),93,136,106,58,38,6,,,,70,41,12,9,1.4,0.8
2026-01-13T0200,1304A,116.9495185,36.644937,济南市,机床二厂,颗粒物(PM10),83,115,110,56,54,5,,,,64,44,22,25,0.8,0.6
2026-01-13T0200,1305A,117.0496,36.6629,济南市,市监测站,颗粒物(PM10),77,103,90,44,36,3,,,,60,34,7,7,1.0,0.8
2026-01-13T0200,1306A,116.7674,36.5458,济南市,长清党校,颗粒物(PM10),69,88,87,46,42,11,,,,64,34,11,10,0.9,0.8
2026-01-13T0200,1961A,117.5323,36.6865,济南市,东山小学,颗粒物(PM10),59,68,88,24,29,11,,,,57,34,4,7,0.8,0.9
2026-01-13T0200,3059A,117.7181,36.205,济南市,泰兴公司,细颗粒物(PM2.5),175,173,120,132,67,6,,,,59,53,10,13,1.3,1.3
2026-01-13T0200,3064A,117.6861,36.2172,济南市,莱芜战役纪念馆,细颗粒物(PM2.5),127,144,114,96,64,5,,,,60,45,11,14,1.0,0.8
2026-01-13T0200,3494A,117.1673,36.9782,济南市,济阳区政府,颗粒物(PM10),91,132,108,59,38,17,,,,70,42,24,12,0.9,0.6
2026-01-13T0200,3495A,117.1168,36.6299,济南市,锦屏中学,颗粒物(PM10),52,54,74,17,26,47,,,,18,25,2,4,0.6,0.7
2026-01-13T0200,4108A,117.7107,36.2385,济南市,山财大街5号,细颗粒物(PM2.5),112,129,102,84,51,2,,,,78,48,13,17,1.1,1
2026-01-13T0200,4109A,116.9744,36.6889,济南市,无影山路12号,颗粒物(PM10),84,117,102,56,41,14,,,,62,38,17,14,0.9,0.7
2026-01-13T0200,1653A,116.6229,35.4288,济宁市,火炬城,细颗粒物(PM2.5),128,133,91,97,58,16,,,,62,36,7,6,0.8,0.5
2026-01-13T0200,3500A,116.5808,35.3703,济宁市,北湖一中,细颗粒物(PM2.5),115,124,86,87,56,20,,,,55,38,12,10,0.8,0.6
2026-01-13T0200,3501A,116.8251,35.5592,济宁市,服务中心,细颗粒物(PM2.5),139,159,108,106,54,1,,,,81,52,17,14,1.3,0.9
2026-01-13T0200,3678A,116.5907,35.4054,济宁市,市第七中学,细颗粒物(PM2.5),140,152,105,107,53,6,,,,81,44,14,8,1.4,0.8
2026-01-13T0200,4111A,116.6075,35.4566,济宁市,任和路,细颗粒物(PM2.5),132,168,107,100,51,0,,,,80,43,9,7,1.1,0.7
2026-01-13T0200,4112A,116.5648,35.3921,济宁市,文体南路1号,细颗粒物(PM2.5),110,133,106,83,52,2,,,,73,41,7,7,1.0,0.7
2026-01-13T0200,2255A,130.2749,46.8028,佳木斯市,佳纺,,,104,84,70,60,19,,,,,40,8,11,1.0,0.9
2026-01-13T0200,2257A,130.3258,46.7975,佳木斯市,环保局,细颗粒物(PM2.5),138,111,71,105,62,10,,,,54,48,16,12,0.9,0.8
2026-01-13T0200,4285A,130.363,46.806,佳木斯市,顺和街,细颗粒物(PM2.5),114,114,75,86,64,12,,,,49,45,14,13,0.9,0.9
2026-01-13T0200,4286A,130.3952,46.8268,佳木斯市,长安路196号,细颗粒物(PM2.5),127,112,68,96,61,5,,,,59,43,8,9,1.1,0.8
2026-01-13T0200,1252A,120.7439,30.778,嘉兴市,清河小学,颗粒物(PM10),61,71,80,36,32,23,,,,56,45,8,8,0.3,0.5
2026-01-13T0200,1253A,120.7261,30.7477,嘉兴市,嘉兴学院,颗粒物(PM10),58,66,79,34,34,2,,,,68,47,8,8,0.5,0.6
2026-01-13T0200,2872A,120.7845,30.7524,嘉兴市,南湖区残联,颗粒物(PM10),59,68,78,36,38,22,,,,56,45,8,6,0.4,0.6
2026-01-13T0200,3407A,120.6915,30.7741,嘉兴市,秀洲住建,颗粒物(PM10),61,72,81,38,36,12,,,,70,54,8,9,0.5,0.5
2026-01-13T0200,1945A,98.291,39.7705,嘉峪关市,气象局,,25,12,47,7,15,77,,,,6,16,36,21,0.3,0.5
2026-01-13T0200,2884A,98.2672,39.7978,嘉峪关市,酒钢宾馆,,31,31,83,9,25,37,,,,54,63,27,38,0.4,1
2026-01-13T0200,3248A,98.2644,39.7723,嘉峪关市,雄关区,,22,19,36,13,17,70,,,,11,23,44,22,0.3,0.5
2026-01-13T0200,1383A,113.1063,22.6058,江门市,北街,细颗粒物(PM2.5),123,151,102,93,61,27,,,,96,77,/,/,/,/
2026-01-13T0200,1384A,113.073,22.5835,江门市,西区,细颗粒物(PM2.5),107,156,108,80,59,22,,,,108,83,/,/,/,/
2026-01-13T0200,1385A,113.0218,22.531,江门市,圭峰西,细颗粒物(PM2.5),110,119,76,83,49,76,,,,60,51,/,/,/,/
2026-01-13T0200,1386A,113.0826,22.5947,江门市,东湖,细颗粒物(PM2.5),107,124,96,80,52,3,,,,127,86,8,9,1.2,0.8
2026-01-13T0200,3311A,113.1077,22.5647,江门市,江海富民,颗粒物(PM10),109,168,108,55,40,64,,,,74,75,/,/,0.9,0.8
2026-01-13T0200,3449A,113.0496,22.4669,江门市,新会银湖,细颗粒物(PM2.5),114,97,83,86,64,20,,,,55,51,6,8,0.6,0.6
2026-01-13T0200,3335A,113.3137,35.2643,焦作市,马村街道办,颗粒物(PM10),89,127,89,44,32,49,,,,17,18,11,11,0.6,0.4
2026-01-13T0200,3336A,113.2464,35.2374,焦作市,焦作技师学院,颗粒物(PM10),76,101,91,27,28,40,,,,25,24,9,12,0.7,0.5
2026-01-13T0200,3477A,113.1656,35.2536,焦作市,中站许衡医院,颗粒物(PM10),78,106,94,37,34,64,,,,15,21,8,11,0.6,0.5
2026-01-13T0200,3981A,113.2456,35.18,焦作市,原李万街道办,颗粒物(PM10),95,139,101,41,30,3,,,,55,23,11,10,0.8,0.6
2026-01-13T0200,4264A,113.234,35.219,焦作市,新安路1731号,颗粒物(PM10),88,126,108,36,34,22,,,,33,22,10,9,0.9,0.6
2026-01-13T0200,4295A,113.2722,35.2121,焦作市,人民路3066号,颗粒物(PM10),79,107,100,31,27,22,,,,37,22,6,8,0.8,0.6
2026-01-13T0200,1708A,116.3701,23.5345,揭阳市,新兴,细颗粒物(PM2.5),127,109,87,96,46,11,,,,62,39,8,13,0.8,0.6
2026-01-13T0200,1709A,116.3261,23.5442,揭阳市,西马,细颗粒物(PM2.5),118,153,93,89,45,3,,,,66,31,6,8,1.0,0.6
2026-01-13T0200,1710A,116.361,23.5627,揭阳市,东兴,颗粒物(PM10),73,96,91,40,39,10,,,,62,34,9,13,/,/
2026-01-13T0200,1711A,116.4151,23.5295,揭阳市,渔湖,颗粒物(PM10),85,120,86,50,36,12,,,,61,35,7,11,/,/
2026-01-13T0200,3320A,116.4028,23.5699,揭阳市,曲溪,细颗粒物(PM2.5),77,96,95,56,45,34,,,,41,33,7,10,0.8,0.7
2026-01-13T0200,1944A,102.1691,38.5166,金昌市,天庆家园,,39,39,108,23,26,49,,,,17,23,89,38,1.0,0.9
2026-01-13T0200,4022A,102.1648,38.5369,金昌市,金川区人防中心,,48,48,99,13,38,50,,,,11,18,69,31,0.6,0.8
2026-01-13T0200,4239A,102.193042,38.531887,金昌市,长春路96号,颗粒物(PM10),58,65,82,27,25,39,,,,22,22,75,39,1.1,0.9
2026-01-13T0200,1262A,119.6478,29.0773,金华市,十五中,,,71,98,48,48,1,,,,53,54,4,5,,0.6
2026-01-13T0200,1263A,119.6859,29.1032,金华市,监测站,颗粒物(PM10),72,94,102,51,50,13,,,,61,64,4,4,0.6,0.6
2026-01-13T0200,3659A,119.656,29.1132,金华市,气象局,颗粒物(PM10),70,89,98,49,46,6,,,,61,62,4,4,0.7,0.7
2026-01-13T0200,1767A,121.1114,41.0879,锦州市,南山,,23,9,46,9,25,73,,,,3,20,7,12,0.4,0.6
2026-01-13T0200,1768A,121.060361,40.842794,锦州市,开发区,,21,15,63,10,28,65,,,,3,27,4,14,0.4,0.8
2026-01-13T0200,1769A,121.1836,41.1118,锦州市,百股街道,,21,15,52,3,22,65,,,,8,24,6,12,0.5,0.8
2026-01-13T0200,1770A,121.1176,41.1224,锦州市,天安街道,,,,48,7,22,,,,,5,20,8,14,0.4,0.8
2026-01-13T0200,1771A,121.1303,41.1385,锦州市,北湖公园,,22,17,49,3,23,68,,,,4,17,7,13,0.7,0.9
2026-01-13T0200,2160A,112.8496,35.5051,晋城市,自来水公司,颗粒物(PM10),86,122,97,36,31,38,,,,26,26,10,8,1.4,1
2026-01-13T0200,2162A,112.8509,35.4886,晋城市,市环保局,颗粒物(PM10),92,134,102,36,31,15,,,,48,30,5,5,1.1,0.8
2026-01-13T0200,3620A,112.8258,35.4804,晋城市,泽州一中,颗粒物(PM10),81,112,101,34,27,38,,,,20,16,4,5,0.7,0.5
2026-01-13T0200,4078A,112.8246,35.5152,晋城市,前书院路,颗粒物(PM10),77,104,117,27,23,50,,,,18,23,7,6,0.7,0.6
2026-01-13T0200,4079A,112.8864,35.4773,晋城市,祥云街666号,颗粒物(PM10),89,127,100,48,32,37,,,,20,12,5,5,0.6,0.6
2026-01-13T0200,2174A,112.6992,37.6984,晋中市,榆次区政府,颗粒物(PM10),108,166,139,59,44,2,,,,60,36,16,20,0.9,0.9
2026-01-13T0200,2865A,112.7195,37.683,晋中市,榆次三中,颗粒物(PM10),104,158,147,41,37,0,,,,59,36,17,21,0.7,0.9
2026-01-13T0200,4080A,112.7375,37.7215,晋中市,广安街188号,颗粒物(PM10),121,191,136,56,39,2,,,,56,37,14,18,0.7,0.6
2026-01-13T0200,4200A,112.7478,37.6954,晋中市,迎宾街26号,颗粒物(PM10),100,149,142,39,40,13,,,,40,33,18,22,0.7,0.9
2026-01-13T0200,2439A,112.2012,31.048,荆门市,竹园小学,细颗粒物(PM2.5),156,162,124,119,71,,,,,22,29,3,2,1.1,0.4
2026-01-13T0200,2440A,112.1968,30.9892,荆门市,掇刀,细颗粒物(PM2.5),139,147,124,106,68,73,,,,24,29,5,6,0.7,0.7
2026-01-13T0200,3012A,112.1849,31.0361,荆门市,西山林语,细颗粒物(PM2.5),132,145,112,100,59,79,,,,22,23,6,7,0.6,0.5
2026-01-13T0200,3547A,112.1631,31.0134,荆门市,龙泉中学南校,细颗粒物(PM2.5),149,170,127,114,72,,,,,22,21,5,7,0.6,0.5
2026-01-13T0200,4124A,112.2213,31.0654,荆门市,新台西路6号,细颗粒物(PM2.5),144,146,126,110,80,75,,,,22,29,9,11,0.8,0.7
2026-01-13T0200,1844A,112.2493,30.3198,荆州市,市图书馆,细颗粒物(PM2.5),119,94,104,90,79,52,,,,24,32,,9,1.0,0.9
2026-01-13T0200,1845A,112.2009,30.3543,荆州市,市委党校,细颗粒物(PM2.5),125,111,111,95,75,40,,,,31,35,,5,0.9,0.8
2026-01-13T0200,3194A,112.2749,30.3124,荆州市,管委会,细颗粒物(PM2.5),128,103,108,97,79,47,,,,27,34,7,9,0.9,0.9
2026-01-13T0200,4268A,112.1722,30.3366,荆州市,学苑路85号,细颗粒物(PM2.5),132,114,112,100,74,52,,,,24,29,11,11,1.0,0.9
2026-01-13T0200,2343A,117.2114,29.2931,景德镇市,老干部活动中心,颗粒物(PM10),59,68,64,40,37,0,,,,36,35,8,8,0.7,0.7
2026-01-13T0200,2344A,117.1893,29.2789,景德镇市,兽医站,颗粒物(PM10),69,87,71,45,29,2,,,,40,35,8,13,0.8,0.8
2026-01-13T0200,2346A,117.246,29.2958,景德镇市,陶研所,细颗粒物(PM2.5),70,70,61,51,41,0,,,,33,42,5,9,0.9,0.7
2026-01-13T0200,4289A,117.154766,29.256967,景德镇市,青少年活动中心,颗粒物(PM10),69,88,77,40,35,0,,,,45,41,6,17,/,/
2026-01-13T0200,1803A,115.9873,29.6816,九江市,十里,细颗粒物(PM2.5),75,77,68,55,36,4,,,,63,57,5,9,0.8,0.9
2026-01-13T0200,1804A,115.9583,29.7047,九江市,茅山头,细颗粒物(PM2.5),69,74,65,50,31,2,,,,71,47,8,6,0.9,0.9
2026-01-13T0200,1805A,115.9877,29.7295,九江市,西园,细颗粒物(PM2.5),73,81,68,53,32,8,,,,71,61,4,4,0.9,0.8
2026-01-13T0200,1808A,115.9112,29.6038,九江市,综合工业园,细颗粒物(PM2.5),70,84,65,51,41,13,,,,60,46,5,6,0.6,0.7
2026-01-13T0200,3190A,116.0254,29.6995,九江市,外国语学校,细颗粒物(PM2.5),78,87,70,57,36,11,,,,50,50,11,11,1.0,0.9
2026-01-13T0200,4253A,116.010205,29.659402,九江市,莲花大道8号,细颗粒物(PM2.5),59,53,58,42,36,31,,,,17,30,3,5,0.4,0.5
2026-01-13T0200,4240A,98.495752,39.733935,酒泉市,玉门东路5号,,28,27,76,19,29,53,,,,10,28,11,14,0.4,0.8
2026-01-13T0200,4241A,98.5099,39.7506,酒泉市,北大街108号,,32,,81,22,33,48,,,,18,36,11,12,0.5,0.8
2026-01-13T0200,2698A,76.0071,39.466,喀什地区,巡警大队,细颗粒物(PM2.5),129,149,129,98,80,3,,,,99,54,8,7,3.0,2.1
2026-01-13T0200,2699A,75.9756,39.4693,喀什地区,吾办,细颗粒物(PM2.5),169,167,129,128,98,4,,,,99,59,12,9,5.1,2.4
2026-01-13T0200,4027A,75.9485,39.4688,喀什地区,老干局,细颗粒物(PM2.5),190,209,152,143,88,2,,,,87,49,7,6,4.6,2.5
2026-01-13T0200,1824A,114.3389,34.778,开封市,肿瘤医院,颗粒物(PM10),82,114,104,24,29,30,,,,40,29,5,6,0.6,0.6
2026-01-13T0200,1826A,114.2884,34.7966,开封市,世纪星幼儿园,颗粒物(PM10),81,112,97,30,35,34,,,,40,32,1,3,0.4,0.4
2026-01-13T0200,3147A,114.3434,34.8101,开封市,龙亭公园,颗粒物(PM10),80,110,106,25,30,39,,,,36,33,7,8,0.5,0.6
2026-01-13T0200,3210A,114.3645,34.7955,开封市,汴京公园,颗粒物(PM10),81,112,107,27,32,33,,,,38,32,5,6,0.5,0.5
2026-01-13T0200,3473A,114.2485,34.8306,开封市,技师学院,颗粒物(PM10),78,105,93,30,27,26,,,,48,31,6,7,0.7,0.7
2026-01-13T0200,3592A,114.4518,34.7503,开封市,祥符区生态环境局,颗粒物(PM10),108,166,93,26,34,12,,,,64,35,4,5,0.5,0.5
2026-01-13T0200,1951A,84.886,45.6029,克拉玛依市,长征新村,细颗粒物(PM2.5),134,120,125,102,95,46,,,,30,37,5,5,0.9,1
2026-01-13T0200,1952A,84.8894,45.5827,克拉玛依市,南林小区,细颗粒物(PM2.5),95,112,120,71,72,46,,,,18,21,3,3,1.3,1.3
2026-01-13T0200,1954A,84.896,44.3328,克拉玛依市,独山子区,细颗粒物(PM2.5),80,73,103,59,67,74,,,,30,39,5,5,0.8,0.8
2026-01-13T0200,1955A,85.6888,46.0909,克拉玛依市,乌尔禾区商贸楼,细颗粒物(PM2.5),208,172,133,158,116,59,,,,36,36,6,6,1.4,1.1
2026-01-13T0200,3612A,85.1045,45.6895,克拉玛依市,白碱滩区新站,细颗粒物(PM2.5),156,149,137,119,104,43,,,,36,39,9,9,1.0,1
2026-01-13T0200,2697A,76.1457,39.7143,克孜勒苏柯尔克孜自治州,市人民政府,细颗粒物(PM2.5),80,98,77,59,45,49,,,,22,18,2,2,0.7,0.3
2026-01-13T0200,3665A,76.1654,39.7157,克孜勒苏柯尔克孜自治州,克州文化中心,细颗粒物(PM2.5),72,71,64,52,49,43,,,,29,25,4,5,1.5,0.9
2026-01-13T0200,1450A,102.8203,24.889,昆明市,呈贡新区,颗粒物(PM10),63,75,34,44,21,2,,,,65,24,5,4,0.8,0.6
2026-01-13T0200,1452A,102.7253,25.0904,昆明市,龙泉镇,"颗粒物(PM10),细颗粒物(PM2.5)",55,60,37,39,22,1,,,,44,27,2,3,0.7,0.6
2026-01-13T0200,1453A,102.7267,25.0378,昆明市,东风东路,颗粒物(PM10),65,79,47,42,27,2,,,,54,30,4,5,0.9,0.8
2026-01-13T0200,1454A,102.6744,25.0671,昆明市,金鼎山,颗粒物(PM10),60,69,44,39,26,5,,,,52,30,2,3,0.8,0.7
2026-01-13T0200,1455A,102.6643,25.0401,昆明市,碧鸡广场,颗粒物(PM10),72,93,49,46,28,2,,,,56,32,3,4,0.6,0.5
2026-01-13T0200,3179A,102.7491,25.012,昆明市,官渡区博物馆,颗粒物(PM10),83,115,46,58,26,1,,,,65,37,5,4,1.2,0.8
2026-01-13T0200,3375A,102.8016,24.8336,昆明市,青年创业园,颗粒物(PM10),54,58,30,35,22,10,,,,36,16,4,4,0.6,0.5
2026-01-13T0200,3550A,102.8,24.9787,昆明市,昆明学院,颗粒物(PM10),100,150,46,70,26,2,,,,61,28,4,3,0.7,0.4
2026-01-13T0200,3551A,102.5969,24.6738,昆明市,晋宁区生态环境分局,细颗粒物(PM2.5),73,79,44,53,30,0,,,,54,22,4,2,0.8,0.6
2026-01-13T0200,3552A,102.6673,24.9861,昆明市,云天化总部,颗粒物(PM10),57,63,30,35,20,1,,,,63,26,6,6,0.5,0.4
2026-01-13T0200,1456A,91.132,29.6515,拉萨市,八廓街,,22,22,19,13,12,54,,,,18,19,6,7,0.4,0.3
2026-01-13T0200,1457A,91.1221,29.6748,拉萨市,市环保局,,30,29,32,21,12,24,,,,29,20,8,8,1.3,0.9
2026-01-13T0200,1458A,91.0874,29.6476,拉萨市,区监测站,,25,24,13,17,8,31,,,,46,25,4,4,1.3,0.8
2026-01-13T0200,1459A,91.1774,29.6541,拉萨市,西藏大学,,17,17,15,8,9,47,,,,24,17,5,4,0.3,0.4
2026-01-13T0200,1460A,90.9798,29.6586,拉萨市,区辐射站,,15,13,21,10,14,46,,,,22,24,4,4,0.5,0.6
2026-01-13T0200,1461A,91.0831,29.6292,拉萨市,拉萨火车站,,28,28,20,19,11,20,,,,54,24,4,4,1.1,0.6
2026-01-13T0200,2520A,109.2203,23.7252,来宾市,来宾技工学校,细颗粒物(PM2.5),119,124,98,90,71,25,,,,39,30,11,22,1.2,0.9
2026-01-13T0200,3535A,109.1781,23.7293,来宾市,兴宾区政府,细颗粒物(PM2.5),124,132,88,94,65,56,,,,24,23,12,10,1.0,0.7
2026-01-13T0200,4002A,109.2312,23.7428,来宾市,中南小学,,,,104,,78,,,130,,,37,,11,,0.8
2026-01-13T0200,1479A,103.8309,36.0467,兰州市,铁路设计院,,,,,,,,,,,,,,,,
2026-01-13T0200,3241A,103.7439,36.0841,兰州市,百合公园,颗粒物(PM10),68,86,122,46,71,0,,,,63,84,11,26,2.1,2.3
2026-01-13T0200,3242A,103.9613,35.9985,兰州市,和平,,40,40,88,25,59,31,,,,27,47,6,18,0.8,1.6
2026-01-13T0200,4236A,103.629272,36.093822,兰州市,庄浪东路808号,细颗粒物(PM2.5),62,72,107,44,58,8,,,,67,68,15,25,1.3,1.3
2026-01-13T0200,4237A,103.7251,36.104344,兰州市,安宁西路88号,颗粒物(PM10),82,113,128,52,61,2,,,,76,89,11,24,1.4,1.7
2026-01-13T0200,4238A,103.846982,36.067567,兰州市,北滨河东路1号,细颗粒物(PM2.5),83,98,131,61,76,2,,,,71,91,12,21,1.5,2.3
2026-01-13T0200,1067A,116.6712,39.5109,廊坊市,药材公司,,18,18,72,3,41,56,,,,15,54,2,6,0.4,0.7
2026-01-13T0200,1068A,116.7215,39.5592,廊坊市,开发区,,17,9,70,6,37,53,,,,21,55,2,6,0.2,0.6
2026-01-13T0200,1070A,116.7246,39.5273,廊坊市,北华航天学院,,28,28,82,6,40,48,,,,22,56,2,5,0.3,0.6
2026-01-13T0200,2919A,116.7022,39.5454,廊坊市,河北工业大学,,20,20,80,3,37,54,,,,18,54,2,6,0.3,0.6
2026-01-13T0200,2536A,103.7629,29.5844,乐山市,牛耳桥,细颗粒物(PM2.5),169,151,153,128,139,2,,,,43,44,7,8,0.9,1.1
2026-01-13T0200,2537A,103.7501,29.6002,乐山市,市第三水厂,细颗粒物(PM2.5),137,140,160,104,132,1,,,,46,47,6,7,1.0,1.1
2026-01-13T0200,2538A,103.7571,29.5664,乐山市,市监测站,细颗粒物(PM2.5),152,142,161,116,141,2,,,,45,41,6,7,1.3,1.2
2026-01-13T0200,3361A,103.7313,29.563,乐山市,理工大学,细颗粒物(PM2.5),165,147,165,125,147,8,,,,54,38,5,6,1.1,1
2026-01-13T0200,2599A,100.2497,26.8802,丽江市,丽江古城,,39,39,28,20,12,44,,,,14,12,8,8,0.6,0.5
2026-01-13T0200,2600A,100.2203,26.8906,丽江市,市中心,,26,26,19,6,8,49,,,,12,12,7,7,0.5,0.4
2026-01-13T0200,1267A,119.9141,28.4513,丽水市,监测站大楼,,46,46,67,31,41,0,,,,50,39,5,7,0.5,0.7
2026-01-13T0200,1268A,119.93,28.4589,丽水市,莲都小学,颗粒物(PM10),56,62,75,27,28,8,,,,50,43,/,/,/,/
2026-01-13T0200,1269A,119.8794,28.4232,丽水市,余庄前,,45,45,59,24,28,7,,,,29,28,4,5,0.3,0.3
2026-01-13T0200,1173A,119.1759,34.5885,连云港市,市环境监测站,细颗粒物(PM2.5),125,139,92,95,50,2,,,,73,40,22,15,0.9,0.7
2026-01-13T0200,3000A,119.3577,34.6971,连云港市,德源药业,细颗粒物(PM2.5),122,158,110,92,50,2,,,,81,47,10,8,1.0,0.8
2026-01-13T0200,3007A,119.178,34.8442,连云港市,新城一中,细颗粒物(PM2.5),143,140,82,109,57,1,,,,79,41,15,14,1.2,1
2026-01-13T0200,3008A,119.3607,34.7519,连云港市,胡沟管理处,细颗粒物(PM2.5),107,134,86,80,44,10,,,,72,42,19,7,1.2,0.9
2026-01-13T0200,3009A,119.1478,34.5913,连云港市,矿山设计院,细颗粒物(PM2.5),117,153,97,88,45,3,,,,74,43,21,14,1.1,0.8
2026-01-13T0200,3434A,119.2414,34.6539,连云港市,工贸学校,细颗粒物(PM2.5),115,133,102,87,53,19,,,,48,30,14,15,1.1,0.9
2026-01-13T0200,3664A,119.4171,34.734,连云港市,连云街道,细颗粒物(PM2.5),84,106,102,62,43,29,,,,36,27,13,7,1.3,0.8
2026-01-13T0200,2573A,102.2629,27.8981,凉山彝族自治州,西昌市政府,,33,32,40,23,28,55,,,,8,15,6,8,0.5,0.7
2026-01-13T0200,2574A,102.2686,27.885,凉山彝族自治州,凉山州政府,,37,37,42,25,28,43,,,,14,19,6,9,0.7,0.8
2026-01-13T0200,4229A,102.2342,27.8859,凉山彝族自治州,凯乐南路30号,细颗粒物(PM2.5),69,86,54,50,30,3,,,,56,36,7,7,0.8,0.6
2026-01-13T0200,2212A,123.1978,41.2036,辽阳市,宏伟区,,29,,43,20,23,63,,,,4,13,6,8,0.4,0.6
2026-01-13T0200,2213A,123.1684,41.2497,辽阳市,新华园,,19,12,44,9,27,58,,,,9,23,8,11,0.2,0.5
2026-01-13T0200,2214A,123.2355,41.2663,辽阳市,滨河路,,20,14,48,14,24,51,,,,4,20,8,11,0.0,0.2
2026-01-13T0200,4083A,123.153,41.2874,辽阳市,铁西路150号,,20,20,52,10,24,56,,,,9,23,3,9,0.4,0.6
2026-01-13T0200,2227A,125.1359,42.8845,辽源市,环保局,,31,31,46,11,18,62,,,,5,14,5,7,0.4,0.6
2026-01-13T0200,4085A,125.0998,42.9134,辽源市,安宁大街333号,,32,32,37,3,13,60,,,,6,15,1,10,0.2,0.3
2026-01-13T0200,1625A,115.9789,36.4372,聊城市,区政府,细颗粒物(PM2.5),87,99,103,64,47,28,,,,46,43,14,17,1.0,0.9
2026-01-13T0200,3200A,115.9772,36.4986,聊城市,监控中心,细颗粒物(PM2.5),89,106,102,66,50,26,,,,56,41,16,16,0.8,0.8
2026-01-13T0200,3513A,116.0443,36.436,聊城市,九州社区,细颗粒物(PM2.5),80,107,105,59,49,55,,,,22,26,8,8,0.6,0.7
2026-01-13T0200,4018A,116.0564,36.4609,聊城市,星美广场,颗粒物(PM10),79,108,104,57,45,53,,,,23,25,10,8,0.7,0.7
2026-01-13T0200,4113A,116.0091,36.4495,聊城市,利民路,细颗粒物(PM2.5),79,95,89,58,52,46,,,,41,41,14,14,0.9,0.9
2026-01-13T0200,2632A,94.3683,29.6373,林芝市,林芝监测站,,20,11,16,3,9,61,,,,5,14,2,3,0.3,0.5
2026-01-13T0200,2633A,94.3616,29.6634,林芝市,林芝人民医院,,15,8,16,3,9,45,,,,12,12,3,3,0.3,0.4
2026-01-13T0200,2603A,100.0779,23.8981,临沧市,市环保局,细颗粒物(PM2.5),57,,38,40,42,36,,,,9,12,3,3,0.5,0.5
2026-01-13T0200,2604A,100.0894,23.882,临沧市,市气象局,,43,31,39,30,31,37,,,,8,12,7,7,0.4,0.5
2026-01-13T0200,1733A,111.5552,36.0791,临汾市,临钢医院,颗粒物(PM10),115,180,137,83,61,4,,,,43,37,8,10,1.3,1.1
2026-01-13T0200,1734A,111.4984,36.0734,临汾市,技工学校,颗粒物(PM10),112,173,141,76,68,0,,,,52,46,9,15,1.2,1.3
2026-01-13T0200,1736A,111.5017,36.0857,临汾市,市委,颗粒物(PM10),115,179,141,66,63,1,,,,60,50,14,18,1.4,1.5
2026-01-13T0200,3018A,111.5048,36.1015,临汾市,唐尧大酒店,颗粒物(PM10),109,168,138,73,63,1,,,,58,49,9,13,1.5,1.4
2026-01-13T0200,4244A,111.4879,36.053,临汾市,启星学校,颗粒物(PM10),103,155,131,62,63,0,,,,55,60,7,15,1.7,1.6
2026-01-13T0200,4271A,103.2464,35.6123,临夏回族自治州,滨河东路1号,颗粒物(PM10),111,171,135,73,61,8,,,,35,36,6,7,1.6,1.4
2026-01-13T0200,4310A,103.207136,35.599807,临夏回族自治州,新华街21号,细颗粒物(PM2.5),145,177,118,111,70,2,,,,50,40,14,12,3.5,2.1
2026-01-13T0200,1618A,118.3429,35.0532,临沂市,沂河小区,细颗粒物(PM2.5),166,173,132,126,73,3,,,,80,61,33,26,1.9,1.1
2026-01-13T0200,1619A,118.2962,35.0568,临沂市,鲁南制药厂,细颗粒物(PM2.5),190,210,139,143,78,2,,,,80,65,42,33,2.0,1.1
2026-01-13T0200,1620A,118.2793,34.9976,临沂市,新光毛纺厂,细颗粒物(PM2.5),123,139,113,93,61,,,,,73,55,27,23,1.2,0.9
2026-01-13T0200,1621A,118.3955,35.0889,临沂市,河东保险公司,细颗粒物(PM2.5),127,146,112,96,61,5,,,,68,53,20,23,1.2,1
2026-01-13T0200,3370A,118.3563,35.0215,临沂市,十里堡居委,细颗粒物(PM2.5),119,146,126,90,63,3,,,,77,61,30,29,1.3,0.9
2026-01-13T0200,3496A,118.359,35.1067,临沂市,南坊新区,细颗粒物(PM2.5),128,156,113,97,60,2,,,,82,58,29,22,1.1,0.8
2026-01-13T0200,3860A,118.3915,35.0297,临沂市,皇山花园小区,颗粒物(PM10),102,153,115,58,51,6,,,,83,60,30,27,1.3,1
2026-01-13T0200,1870A,109.4854,24.3898,柳州市,柳东小学,细颗粒物(PM2.5),206,170,90,156,75,52,,,,33,27,25,33,1.3,1
2026-01-13T0200,1871A,109.4109,24.3304,柳州市,环保监测站,细颗粒物(PM2.5),175,172,121,132,83,3,,,,65,51,11,12,1.4,1.3
2026-01-13T0200,1872A,109.3886,24.3408,柳州市,河西水厂,细颗粒物(PM2.5),168,186,148,127,90,4,,,,58,52,9,17,1.0,1.2
2026-01-13T0200,1873A,109.4263,24.2951,柳州市,市四中,细颗粒物(PM2.5),122,140,113,92,86,0,,,,68,59,10,15,1.5,1.2
2026-01-13T0200,1874A,109.396,24.3658,柳州市,市九中,细颗粒物(PM2.5),182,168,128,137,89,13,,,,60,52,18,22,1.3,1.3
2026-01-13T0200,1875A,109.4912,24.3164,柳州市,古亭山,细颗粒物(PM2.5),84,75,78,62,54,0,,,,67,52,13,15,0.9,0.8
2026-01-13T0200,3402A,109.5422,24.3994,柳州市,市二中,细颗粒物(PM2.5),152,120,84,116,72,5,,,,42,43,9,24,1.1,0.8
2026-01-13T0200,2307A,116.5078,31.7369,六安市,监测大楼,细颗粒物(PM2.5),70,65,62,51,36,76,,,,26,30,6,5,0.5,0.5
2026-01-13T0200,2308A,116.4738,31.7642,六安市,皖西学院,细颗粒物(PM2.5),63,63,71,45,35,74,,,,23,25,6,6,0.5,0.5
2026-01-13T0200,2309A,116.4997,31.7904,六安市,朝阳厂,细颗粒物(PM2.5),62,64,64,44,33,84,,,,17,25,6,7,0.5,0.5
2026-01-13T0200,2310A,116.5566,31.7885,六安市,开发区,细颗粒物(PM2.5),69,76,85,50,42,44,,,,27,35,4,6,0.6,0.6
2026-01-13T0200,2577A,104.8293,26.592,六盘水市,黄土坡,细颗粒物(PM2.5),77,72,79,56,59,16,,,,24,25,5,12,1.0,0.9
2026-01-13T0200,2579A,104.8481,26.5898,六盘水市,民中,细颗粒物(PM2.5),113,100,83,85,67,3,,,,46,35,16,14,1.7,1.1
2026-01-13T0200,2580A,104.9541,26.5506,六盘水市,双水,细颗粒物(PM2.5),95,95,77,71,59,17,,,,27,22,6,7,1.0,0.6
2026-01-13T0200,4151A,104.8899,26.5685,六盘水市,钟山大道中段564号,细颗粒物(PM2.5),124,153,111,94,69,2,,,,45,33,14,14,1.7,1.5
2026-01-13T0200,2336A,117.022,25.1031,龙岩市,龙岩市监测站,,42,42,48,26,28,14,,,,48,33,20,20,0.6,0.6
2026-01-13T0200,2337A,117.0257,25.0662,龙岩市,闽西职业技术学院,,48,48,60,24,29,30,,,,39,28,24,18,0.5,0.5
2026-01-13T0200,2338A,117.0195,25.0306,龙岩市,龙岩学院,,31,31,44,20,27,51,,,,16,16,9,9,/,/
2026-01-13T0200,2885A,104.9344,33.3827,陇南市,滨江中学,细颗粒物(PM2.5),69,71,104,50,55,7,,,,44,48,11,15,1.4,1.8
2026-01-13T0200,3247A,104.9551,33.3709,陇南市,市总工会,颗粒物(PM10),55,60,78,38,52,31,,,,25,33,10,11,0.9,1.1
2026-01-13T0200,2488A,111.9984,27.7346,娄底市,市监测站,细颗粒物(PM2.5),168,170,131,127,93,2,,,,51,46,8,13,1.7,1.3
2026-01-13T0200,2491A,111.9888,27.7035,娄底市,市政府,细颗粒物(PM2.5),152,135,130,116,102,6,,,,26,34,7,10,1.1,1.2
2026-01-13T0200,4127A,111.9812,27.7591,娄底市,涟钢职大,细颗粒物(PM2.5),166,168,136,126,82,0,,,,49,44,6,13,1.6,1
2026-01-13T0200,4128A,112.0303,27.7457,娄底市,娄底体校,细颗粒物(PM2.5),137,127,112,104,83,2,,,,26,28,2,4,0.9,0.8
2026-01-13T0200,1894A,105.4427,28.9063,泸州市,小市上码头,细颗粒物(PM2.5),170,166,151,129,113,30,,,,33,26,11,12,1.4,1.3
2026-01-13T0200,1895A,105.4241,28.8573,泸州市,兰田宪桥,细颗粒物(PM2.5),153,157,150,117,111,25,,,,31,25,8,8,1.4,1.3
2026-01-13T0200,1896A,105.4378,28.8833,泸州市,市环监站,细颗粒物(PM2.5),183,171,144,138,112,30,,,,35,27,8,9,1.3,1.2
2026-01-13T0200,4272A,105.3689,28.7783,泸州市,纳溪中医医院,细颗粒物(PM2.5),150,128,142,115,126,2,,,,25,26,8,9,1.1,1.1
2026-01-13T0200,2183A,111.1447,37.5212,吕梁市,环保局,颗粒物(PM10),120,190,168,42,38,2,,,,46,40,3,6,0.3,0.6
2026-01-13T0200,2185A,111.1285,37.5338,吕梁市,自来水公司,颗粒物(PM10),147,243,170,53,47,1,,,,43,32,15,10,0.5,0.5
2026-01-13T0200,2867A,111.1225,37.5093,吕梁市,马茂庄小学,颗粒物(PM10),123,196,175,34,40,0,,,,48,42,6,8,0.4,0.6
2026-01-13T0200,1812A,112.3934,34.6517,洛阳市,市委党校,细颗粒物(PM2.5),82,92,87,60,48,4,,,,56,38,11,11,1.0,0.7
2026-01-13T0200,1815A,112.494,34.6883,洛阳市,河南林校,颗粒物(PM10),81,111,104,49,36,3,,,,64,39,13,12,0.9,0.8
2026-01-13T0200,1816A,112.3843,34.623,洛阳市,开发区管委会,颗粒物(PM10),74,97,89,53,38,14,,,,41,28,12,10,0.9,0.7
2026-01-13T0200,1817A,112.4263,34.6249,洛阳市,市委新办公区,细颗粒物(PM2.5),87,112,90,64,42,6,,,,47,30,14,10,0.8,0.7
2026-01-13T0200,3340A,112.6005,34.6323,洛阳市,伊滨,细颗粒物(PM2.5),82,105,98,60,47,3,,,,47,30,7,8,0.6,0.5
2026-01-13T0200,3341A,112.495,34.6338,洛阳市,中移产业园,细颗粒物(PM2.5),78,101,95,57,39,2,,,,61,42,14,12,0.8,0.6
2026-01-13T0200,3593A,112.5736,34.8993,洛阳市,吉利监测站,颗粒物(PM10),72,93,86,29,31,39,,,,27,30,9,9,0.5,0.6
2026-01-13T0200,3635A,112.3678,34.6623,洛阳市,河科大西苑校区,颗粒物(PM10),75,99,96,50,34,4,,,,46,33,15,11,1.0,0.7
2026-01-13T0200,3636A,112.4387,34.678,洛阳市,英才小学,细颗粒物(PM2.5),94,134,101,70,44,3,,,,66,43,19,14,1.2,0.7
2026-01-13T0200,4214A,112.460027,34.694929,洛阳市,春都路1号院,颗粒物(PM10),86,122,113,44,34,4,,,,59,35,13,11,1.0,0.9
2026-01-13T0200,2399A,114.051,33.5721,漯河市,三五一五工厂,细颗粒物(PM2.5),95,121,102,71,47,1,,,,67,26,8,8,1.1,0.9
2026-01-13T0200,2400A,114.0055,33.5698,漯河市,漯河大学,细颗粒物(PM2.5),73,87,88,53,43,48,,,,24,22,6,7,0.7,0.7
2026-01-13T0200,2401A,114.0134,33.5826,漯河市,市水利局,,,83,87,61,46,,,,,23,21,8,8,0.6,0.6
2026-01-13T0200,2402A,114.0261,33.5697,漯河市,市广电局,,,93,88,69,48,,,,,51,25,7,8,0.8,0.6
2026-01-13T0200,3478A,113.9691,33.568,漯河市,市图书馆,细颗粒物(PM2.5),87,100,95,64,48,50,,,,17,17,8,7,0.6,0.6
2026-01-13T0200,4250A,114.089259,33.588274,漯河市,韶山路11号,细颗粒物(PM2.5),93,110,97,69,45,19,,,,56,28,8,8,0.8,0.7
2026-01-13T0200,1798A,118.5084,31.6838,马鞍山市,湖东路四小,颗粒物(PM10),65,79,79,44,35,50,,,,26,33,6,5,0.6,0.6
2026-01-13T0200,1799A,118.5019,31.6449,马鞍山市,开发区,细颗粒物(PM2.5),75,73,84,55,42,41,,,,36,40,7,6,0.6,0.6
2026-01-13T0200,3633A,118.4914,31.681,马鞍山市,雨山,细颗粒物(PM2.5),69,79,82,50,41,47,,,,33,35,10,8,0.5,0.6
2026-01-13T0200,4191A,118.527362,31.722269,马鞍山市,慈湖高新区,细颗粒物(PM2.5),78,95,93,57,46,42,,,,35,43,7,8,0.7,0.7
2026-01-13T0200,1686A,111.0285,21.469,茂名市,电白南海,颗粒物(PM10),64,78,72,39,30,42,,,,36,23,8,12,1.0,0.8
2026-01-13T0200,1687A,110.9294,21.6533,茂名市,茂石化七小,颗粒物(PM10),84,117,71,51,28,33,,,,48,25,14,11,0.7,0.5
2026-01-13T0200,1688A,110.9108,21.6688,茂名市,健康路,颗粒物(PM10),78,105,65,48,32,33,,,,52,30,20,21,0.8,0.8
2026-01-13T0200,1689A,110.8592,21.6826,茂名市,高岭,颗粒物(PM10),70,90,88,34,30,38,,,,26,29,8,19,/,/
2026-01-13T0200,3450A,111.0101,21.5165,茂名市,电白水东,颗粒物(PM10),69,88,59,39,24,39,,,,45,19,7,9,/,/
2026-01-13T0200,2540A,103.8414,30.0871,眉山市,气象局,细颗粒物(PM2.5),192,160,167,144,148,12,,,,51,44,11,16,0.9,1
2026-01-13T0200,3148A,103.829,30.0563,眉山市,区人社局,细颗粒物(PM2.5),199,159,165,149,146,2,,,,59,53,8,12,1.1,1.2
2026-01-13T0200,4148A,103.8836,30.0695,眉山市,眉职院,细颗粒物(PM2.5),180,175,171,136,130,4,,,,43,38,1,3,1.0,1.1
2026-01-13T0200,1690A,116.1248,24.3307,梅州市,梅江月梅,颗粒物(PM10),70,89,62,34,32,3,,,,70,39,/,/,/,/
2026-01-13T0200,1691A,116.0798,24.2719,梅州市,梅县新城,颗粒物(PM10),53,55,64,35,39,15,,,,51,43,7,8,0.6,0.7
2026-01-13T0200,3315A,116.1234,24.2994,梅州市,梅龙,颗粒物(PM10),56,61,64,38,33,20,,,,44,35,8,9,0.7,0.7
2026-01-13T0200,1878A,104.7775,31.4741,绵阳市,富乐山,细颗粒物(PM2.5),166,144,131,126,106,10,,,,64,41,11,11,1.0,0.8
2026-01-13T0200,1880A,104.6698,31.4668,绵阳市,高新区自来水公司,细颗粒物(PM2.5),178,190,154,134,115,1,,,,64,51,9,9,1.3,1.2
2026-01-13T0200,3491A,104.6899,31.5324,绵阳市,西科大附属小学,细颗粒物(PM2.5),155,162,146,118,112,3,,,,76,50,8,8,0.9,0.8
2026-01-13T0200,3492A,104.5647,31.5343,绵阳市,安州区旅游局,细颗粒物(PM2.5),168,148,134,127,111,5,,,,48,46,12,12,1.0,1.2
2026-01-13T0200,4146A,104.7092,31.4972,绵阳市,科技城新区公安局,细颗粒物(PM2.5),178,156,129,134,105,4,,,,83,44,4,5,1.0,0.9
2026-01-13T0200,4226A,104.765114,31.453094,绵阳市,绵阳市气象局,细颗粒物(PM2.5),143,144,138,109,110,0,,,,69,54,10,3,1.2,1.1
2026-01-13T0200,1784A,129.61,44.561,牡丹江市,环保大楼,细颗粒物(PM2.5),70,67,60,51,43,12,,,,45,38,6,6,0.7,0.6
2026-01-13T0200,1787A,129.6364,44.6075,牡丹江市,机车工厂,细颗粒物(PM2.5),94,106,84,70,52,3,,,,44,46,3,4,1.1,0.9
2026-01-13T0200,1788A,129.6386,44.5462,牡丹江市,第一中学,细颗粒物(PM2.5),54,40,44,38,37,9,,,,33,34,5,6,0.8,0.8
2026-01-13T0200,4287A,129.5992,44.5964,牡丹江市,东晓云街98号,细颗粒物(PM2.5),83,65,76,61,68,12,,,,34,36,8,8,1.0,1.1
2026-01-13T0200,2531A,105.0703,29.61,内江市,市监测站,细颗粒物(PM2.5),132,122,111,100,110,18,,,,39,34,5,6,1.0,1.1
2026-01-13T0200,2533A,105.0657,29.5807,内江市,内江二中,细颗粒物(PM2.5),130,114,128,99,111,3,,,,53,43,4,5,1.1,1.1
2026-01-13T0200,2534A,105.0407,29.5828,内江市,内江日报社,细颗粒物(PM2.5),133,117,109,101,107,2,,,,74,51,3,3,1.1,0.9
2026-01-13T0200,4147A,105.0433,29.6105,内江市,玉峰路西段888号,细颗粒物(PM2.5),147,,114,112,111,14,,,,45,43,1,1,1.0,1
2026-01-13T0200,2628A,92.0653,31.4846,那曲市,那曲监测站,,35,34,49,24,33,27,,,,32,30,6,8,1.5,1.5
2026-01-13T0200,4243A,92.0515,31.4787,那曲市,那曲市委宣传部,,23,23,28,13,18,17,,,,36,22,8,9,1.4,1
2026-01-13T0200,1291A,115.8887,28.7006,南昌市,省林业公司,颗粒物(PM10),111,171,113,73,51,1,,,,67,61,10,10,1.5,1.1
2026-01-13T0200,1292A,115.813,28.7443,南昌市,林科所,,49,44,84,34,42,7,,,,57,59,8,12,0.4,0.5
2026-01-13T0200,1294A,115.8518,28.687,南昌市,建工学校,细颗粒物(PM2.5),97,129,115,72,53,2,,,,74,54,20,21,1.1,0.9
2026-01-13T0200,1295A,115.8926,28.6425,南昌市,象湖,细颗粒物(PM2.5),110,137,93,83,52,0,,,,61,60,13,15,0.9,0.8
2026-01-13T0200,3046A,115.9084,28.6062,南昌市,机电学校,细颗粒物(PM2.5),140,167,122,107,61,6,,,,64,61,9,11,1.0,0.7
2026-01-13T0200,3690A,115.9718,28.7032,南昌市,外国语学校,细颗粒物(PM2.5),110,137,104,83,50,0,,,,64,64,16,19,0.9,0.8
2026-01-13T0200,4106A,115.7923,28.6873,南昌市,工业二路,细颗粒物(PM2.5),83,83,78,61,52,0,,,,66,69,6,10,0.6,0.5
2026-01-13T0200,4192A,115.931587,28.686774,南昌市,南京东路235号,细颗粒物(PM2.5),117,139,111,88,57,4,,,,68,68,8,12,1.1,0.6
2026-01-13T0200,1906A,106.0791,30.8022,南充市,南充市委,细颗粒物(PM2.5),162,148,137,123,123,1,,,,42,43,4,5,1.0,1.2
2026-01-13T0200,1907A,106.1038,30.8215,南充市,南充炼油厂,细颗粒物(PM2.5),192,154,147,144,127,14,,,,36,35,6,6,0.9,1
2026-01-13T0200,4227A,106.108336,30.788436,南充市,梨树横街98号,细颗粒物(PM2.5),159,149,137,121,110,5,,,,54,41,6,7,1.3,0.9
2026-01-13T0200,4304A,106.1172,30.843,南充市,清泉寺北路188号,细颗粒物(PM2.5),148,143,118,113,112,25,,,,30,29,6,6,0.8,0.7
2026-01-13T0200,4305A,106.067,30.7616,南充市,同庆路1号,细颗粒物(PM2.5),153,144,133,117,114,0,,,,47,40,7,7,0.9,1.6
2026-01-13T0200,1151A,118.8033,32.1085,南京市,迈皋桥,细颗粒物(PM2.5),62,70,65,44,30,31,,,,48,34,4,6,0.6,0.8
2026-01-13T0200,1152A,118.7487,32.057,南京市,草场门,颗粒物(PM10),65,80,82,44,32,15,,,,67,46,10,10,0.6,0.4
2026-01-13T0200,1154A,118.770105,32.004342,南京市,中华门,细颗粒物(PM2.5),67,73,74,48,35,0,,,,73,49,7,6,0.7,0.8
2026-01-13T0200,1155A,118.8059,32.0329,南京市,瑞金路,细颗粒物(PM2.5),73,78,80,53,40,0,,,,82,65,4,4,1.2,1
2026-01-13T0200,1156A,118.7946,32.0774,南京市,玄武湖,颗粒物(PM10),61,72,71,38,28,16,,,,26,26,4,4,0.8,0.8
2026-01-13T0200,1157A,118.6415,32.0964,南京市,浦口,颗粒物(PM10),72,93,81,50,33,41,,,,35,37,9,12,0.5,0.6
2026-01-13T0200,1158A,118.730129,32.000956,南京市,奥体中心,颗粒物(PM10),71,92,82,51,36,5,,,,78,50,16,12,0.8,0.8
2026-01-13T0200,1159A,118.9072,32.1047,南京市,仙林大学城,细颗粒物(PM2.5),67,80,85,48,32,2,,,,82,50,8,10,1.0,0.9
2026-01-13T0200,3422A,118.8443,31.919,南京市,江宁彩虹桥,颗粒物(PM10),66,82,70,46,39,5,,,,69,40,11,5,1.6,0.6
2026-01-13T0200,3427A,118.8497,32.3599,南京市,六合雄州,细颗粒物(PM2.5),95,112,88,71,42,30,,,,42,40,11,14,0.8,1
2026-01-13T0200,4086A,118.7641,32.0841,南京市,新模范马路66号,细颗粒物(PM2.5),77,80,84,56,37,32,,,,38,44,3,4,0.8,0.8
2026-01-13T0200,4249A,118.8707617,31.34017673,南京市,汶溪路181号,细颗粒物(PM2.5),57,59,57,40,33,43,,,,36,31,8,8,0.7,0.6
2026-01-13T0200,4312A,119.019,31.6512,南京市,中山西路1号,细颗粒物(PM2.5),75,70,58,55,35,45,,,,31,33,5,4,1.0,0.7
2026-01-13T0200,1401A,108.3098,22.788,南宁市,二十一中,细颗粒物(PM2.5),88,108,69,65,53,3,,,,74,43,8,6,1.2,1
2026-01-13T0200,1402A,108.3135,22.8529,南宁市,北湖,细颗粒物(PM2.5),87,111,74,64,60,4,,,,98,57,19,9,1.1,0.9
2026-01-13T0200,1403A,108.3205,22.8222,南宁市,市监测站,细颗粒物(PM2.5),80,107,69,59,45,20,,,,88,51,16,12,1.1,0.9
2026-01-13T0200,1404A,108.3828,22.8038,南宁市,大自然花园,细颗粒物(PM2.5),68,77,67,49,48,25,,,,65,42,8,8,0.8,0.8
2026-01-13T0200,1406A,108.2397,22.8462,南宁市,区农职院,细颗粒物(PM2.5),55,52,63,39,42,35,,,,37,38,8,13,0.9,0.9
2026-01-13T0200,1407A,108.3285,22.7356,南宁市,英华嘉园,细颗粒物(PM2.5),88,90,74,65,58,5,,,,79,49,8,6,0.9,0.8
2026-01-13T0200,3401A,108.4829,22.762,南宁市,红星社区,颗粒物(PM10),55,59,59,37,41,33,,,,44,41,9,7,0.8,0.8
2026-01-13T0200,4132A,108.2927,23.1477,南宁市,起凤路9号,细颗粒物(PM2.5),97,100,76,72,56,0,,,,57,34,2,4,0.7,0.7
2026-01-13T0200,4221A,108.2177,22.7774,南宁市,乐贤路16号,细颗粒物(PM2.5),68,81,78,49,48,24,,,,47,50,4,4,0.6,0.7
2026-01-13T0200,2332A,118.1682,26.6371,南平市,南平市监测站,,39,39,52,24,26,4,,,,49,24,4,5,0.4,0.5
2026-01-13T0200,2334A,118.1757,26.6276,南平市,南平七中,,32,31,54,22,23,4,,,,46,21,5,6,0.6,0.6
2026-01-13T0200,1168A,120.9056,31.9669,南通市,狼山街道,细颗粒物(PM2.5),64,72,71,46,35,2,,,,71,58,5,5,0.7,0.5
2026-01-13T0200,1170A,120.8635,32.0231,南通市,城中,颗粒物(PM10),79,107,82,52,31,27,,,,54,60,10,7,0.9,0.7
2026-01-13T0200,1171A,120.9376,31.9301,南通市,星湖花园,细颗粒物(PM2.5),82,99,79,60,35,9,,,,92,62,10,8,0.7,0.4
2026-01-13T0200,1172A,120.8053,32.046,南通市,紫琅学院,颗粒物(PM10),74,97,74,49,27,24,,,,56,56,10,6,0.8,0.6
2026-01-13T0200,3291A,121.0631,32.0644,南通市,通州监测站,颗粒物(PM10),73,95,76,46,31,31,,,,57,63,12,8,0.9,0.7
2026-01-13T0200,3432A,120.9348,31.9874,南通市,环境教育馆,颗粒物(PM10),67,83,72,44,32,6,,,,71,57,8,8,1.0,0.7
2026-01-13T0200,4091A,120.8692,31.9885,南通市,洪江路,细颗粒物(PM2.5),73,85,61,53,34,8,,,,72,60,9,5,0.8,0.6
2026-01-13T0200,2404A,112.5338,33.0086,南阳市,瓦房庄,细颗粒物(PM2.5),165,147,98,125,64,,,,,46,32,7,8,1.5,1
2026-01-13T0200,2405A,112.5002,32.9734,南阳市,汉画馆,细颗粒物(PM2.5),152,157,104,116,59,,,,,51,37,6,8,1.2,0.8
2026-01-13T0200,2406A,112.5778,33.0144,南阳市,气象站,细颗粒物(PM2.5),125,165,112,95,54,,,,,58,33,12,7,1.0,0.9
2026-01-13T0200,2407A,112.548,32.9687,南阳市,理工学院,细颗粒物(PM2.5),125,135,100,95,53,,,,,66,41,11,7,0.8,0.8
2026-01-13T0200,4008A,112.5233,32.9921,南阳市,卧龙区政府,细颗粒物(PM2.5),135,176,113,103,56,3,,,,56,37,7,7,1.8,1
2026-01-13T0200,1234A,121.8352,29.9111,宁波市,区环保大楼,颗粒物(PM10),72,94,77,46,26,2,,,,90,64,6,6,0.7,0.6
2026-01-13T0200,1235A,121.5595,29.8208,宁波市,万里学院,颗粒物(PM10),65,80,83,42,36,3,,,,86,48,5,6,0.6,0.6
2026-01-13T0200,1236A,121.713,29.9564,宁波市,龙赛医院,颗粒物(PM10),70,90,96,47,45,9,,,,72,53,4,3,0.7,0.7
2026-01-13T0200,1240A,121.5855,29.8635,宁波市,太古小学,,,69,78,39,36,2,,,,,44,5,5,0.8,0.7
2026-01-13T0200,1241A,121.5239,29.8673,宁波市,市环境监测中心,颗粒物(PM10),66,82,75,45,33,1,,,,82,50,8,8,0.9,0.7
2026-01-13T0200,2871A,121.6156,29.9015,宁波市,万里国际学校,,,93,69,64,34,2,,,,92,46,5,5,,0.6
2026-01-13T0200,3710A,121.5593,29.8976,宁波市,白沙活动中心,细颗粒物(PM2.5),65,78,69,47,32,1,,,,73,47,4,6,0.8,0.7
2026-01-13T0200,4095A,121.8962,29.7529,宁波市,中科路88号,颗粒物(PM10),56,61,67,33,30,13,,,,58,45,4,5,0.2,0.5
2026-01-13T0200,2341A,119.5387,26.6611,宁德市,宁德市监测站,,27,27,59,18,22,51,,,,12,25,6,8,0.4,0.6
2026-01-13T0200,3209A,119.5231,26.6562,宁德市,宁德一中,,30,30,58,16,25,48,,,,12,19,6,7,0.4,0.6
2026-01-13T0200,2618A,98.859,25.8541,怒江傈僳族自治州,州监测站,,26,26,28,16,18,46,,,,10,9,8,8,0.3,0.4
2026-01-13T0200,2619A,98.8607,25.8168,怒江傈僳族自治州,泸水一中,,19,19,28,11,20,23,,,,13,17,6,6,0.6,0.7
2026-01-13T0200,1888A,101.6891,26.571,攀枝花市,弄弄坪,,48,48,58,31,32,44,,,,17,26,12,20,0.8,1.3
2026-01-13T0200,1889A,101.577,26.5914,攀枝花市,河门口,细颗粒物(PM2.5),54,48,57,38,37,37,,,,21,25,12,20,0.9,1.2
2026-01-13T0200,1891A,101.7365,26.4986,攀枝花市,仁和,,36,36,43,21,29,33,,,,15,20,8,9,0.7,0.7
2026-01-13T0200,2835A,101.7222,26.567,攀枝花市,四十中小,颗粒物(PM10),57,63,46,36,26,3,,,,55,35,10,12,1.2,1.1
2026-01-13T0200,1604A,122.0303,41.1489,盘锦市,开发区,,21,21,62,6,30,61,,,,5,15,3,6,0.4,0.7
2026-01-13T0200,1605A,122.0486,41.0883,盘锦市,兴隆台,,19,19,52,11,25,54,,,,12,27,5,8,0.4,0.6
2026-01-13T0200,1606A,121.8297,41.1026,盘锦市,新生街道,,18,12,52,6,22,34,,,,35,27,5,8,0.4,0.6
2026-01-13T0200,1832A,113.3257,33.7423,平顶山市,新华旅馆,,,95,108,59,55,,,,,52,40,6,7,0.6,0.7
2026-01-13T0200,1833A,113.2917,33.737,平顶山市,规划设计院,,,130,115,69,56,,,,,56,39,6,9,1.3,0.9
2026-01-13T0200,1834A,113.182,33.7738,平顶山市,平顶山工学院,,,112,99,68,54,,,,,36,28,10,10,0.5,0.4
2026-01-13T0200,3594A,112.8736,33.9068,平顶山市,石龙区,,,96,106,36,45,,,,,64,46,10,8,0.5,0.6
2026-01-13T0200,4116A,113.284,33.7139,平顶山市,姚电大道23号,细颗粒物(PM2.5),110,158,131,83,59,3,,,,61,33,6,9,1.0,0.7
2026-01-13T0200,2656A,106.6633,35.5338,平凉市,聚贤嘉苑,,44,44,41,26,18,54,,,,20,21,15,13,0.7,0.6
2026-01-13T0200,2657A,106.7021,35.5307,平凉市,博物馆,,46,46,50,27,23,50,,,,20,25,8,12,0.5,0.6
2026-01-13T0200,2348A,113.8384,27.6436,萍乡市,中医院,细颗粒物(PM2.5),142,160,137,108,73,7,,,,50,57,9,17,2.2,2.1
2026-01-13T0200,2350A,113.8677,27.6438,萍乡市,市环保局,细颗粒物(PM2.5),156,154,126,119,81,5,,,,46,54,14,25,1.8,1.6
2026-01-13T0200,2351A,113.8663,27.6202,萍乡市,安源区政府,细颗粒物(PM2.5),166,156,127,126,102,0,,,,37,44,10,17,1.6,1.5
2026-01-13T0200,4107A,113.8686,27.6668,萍乡市,联洪村委会,细颗粒物(PM2.5),204,203,133,154,80,18,,,,49,51,5,6,2.3,1.3
2026-01-13T0200,2319A,119.0142,25.4324,莆田市,荔城区仓后路,颗粒物(PM10),53,55,61,30,19,38,,,,30,19,/,/,/,/
2026-01-13T0200,2320A,119.0016,25.4553,莆田市,莆田市监测站,,38,38,48,15,14,57,,,,11,12,3,4,0.5,0.4
2026-01-13T0200,2321A,119.112,25.4561,莆田市,涵江区六中,颗粒物(PM10),53,56,54,14,14,46,,,,25,17,/,/,0.5,0.5
2026-01-13T0200,2322A,119.1014,25.3215,莆田市,秀屿区政府,颗粒物(PM10),60,70,67,40,25,27,,,,33,19,3,3,0.7,0.5
2026-01-13T0200,2392A,115.0312,35.7636,濮阳市,环保局,颗粒物(PM10),77,104,91,38,36,22,,,,46,40,11,8,1.3,0.9
2026-01-13T0200,3021A,115,35.7667,濮阳市,濮水河管理处,细颗粒物(PM2.5),89,126,95,66,30,9,,,,63,41,6,8,1.3,0.9
2026-01-13T0200,4118A,115.0552,35.7816,濮阳市,中原东路68号,颗粒物(PM10),94,137,106,68,42,8,,,,57,41,8,8,1.2,0.8
2026-01-13T0200,4216A,115.0923632,35.76857718,濮阳市,任丘路479号,细颗粒物(PM2.5),95,125,103,71,46,8,,,,61,40,9,8,1.0,0.7
2026-01-13T0200,2601A,100.9801,22.7634,普洱市,市环保局,,41,41,49,24,18,21,,,,9,9,5,5,0.5,0.5
2026-01-13T0200,2602A,100.9763,22.8237,普洱市,普洱第二中学,,38,36,44,26,21,2,,,,30,16,5,5,0.4,0.4
2026-01-13T0200,3345A,131.0413,45.7795,七台河市,中波台,细颗粒物(PM2.5),78,68,56,57,42,18,,,,37,23,8,8,0.6,0.5
2026-01-13T0200,3637A,131.0136,45.7688,七台河市,人民广场,细颗粒物(PM2.5),78,80,52,57,45,31,,,,30,26,8,8,0.7,0.6
2026-01-13T0200,3684A,130.8639,45.8144,七台河市,新建矿广场,细颗粒物(PM2.5),68,51,55,49,37,24,,,,22,26,4,5,0.5,0.4
2026-01-13T0200,1779A,123.9307,47.3641,齐齐哈尔市,安居小区,,19,,55,13,45,46,,,,9,24,8,9,0.5,0.8
2026-01-13T0200,1780A,123.9497,47.3389,齐齐哈尔市,中心广场,,15,13,56,3,42,45,,,,6,21,6,6,0.5,0.8
2026-01-13T0200,1781A,123.9483,47.3229,齐齐哈尔市,农牧车辆厂,,17,17,56,9,40,48,,,,6,15,5,6,0.3,0.5
2026-01-13T0200,1783A,123.9442,47.2994,齐齐哈尔市,市环境监测站,,17,14,57,7,40,52,,,,5,21,6,6,0.5,0.7
2026-01-13T0200,3662A,123.6341,47.2079,齐齐哈尔市,富区青少年活动中心,,16,13,56,7,41,50,,,,7,17,5,5,0.4,0.7
2026-01-13T0200,2591A,107.9765,26.5724,黔东南苗族侗族自治州,市环境监测站,细颗粒物(PM2.5),83,73,68,61,54,3,,,,33,32,2,2,0.6,0.6
2026-01-13T0200,2881A,107.8909,26.531,黔东南苗族侗族自治州,凯里学院,细颗粒物(PM2.5),72,58,64,52,50,1,,,,20,24,4,6,0.7,0.7
2026-01-13T0200,2593A,107.5223,26.2371,黔南布依族苗族自治州,小围寨,细颗粒物(PM2.5),62,46,39,44,35,8,,,,23,13,5,7,0.9,0.7
2026-01-13T0200,3538A,107.5175,26.2977,黔南布依族苗族自治州,沙坝,细颗粒物(PM2.5),62,56,44,44,37,8,,,,15,16,5,7,0.9,0.9
2026-01-13T0200,2589A,104.9022,25.0943,黔西南布依族苗族自治州,场坝街,细颗粒物(PM2.5),127,107,84,96,72,21,,,,27,18,16,7,0.9,0.7
2026-01-13T0200,2590A,104.8812,25.0994,黔西南布依族苗族自治州,坪东大道,细颗粒物(PM2.5),120,,79,91,70,15,,,,26,20,5,7,0.9,0.8
2026-01-13T0200,2502A,108.6238,21.9667,钦州市,市环保站,颗粒物(PM10),93,136,96,56,47,27,,,,70,41,5,6,0.8,0.8
2026-01-13T0200,2503A,108.655,21.9481,钦州市,沙埠小学,细颗粒物(PM2.5),100,112,104,75,57,26,,,,62,52,11,9,1.8,1.1
2026-01-13T0200,2504A,108.5989,21.7435,钦州市,港区一小,颗粒物(PM10),55,60,78,34,42,60,,,,37,41,5,10,0.6,0.6
2026-01-13T0200,3404A,108.5959,21.9634,钦州市,北职校,颗粒物(PM10),65,80,87,43,52,59,,,,28,37,8,10,0.7,0.7
2026-01-13T0200,1046A,119.5247,39.9346,秦皇岛市,建设大厦,,48,41,78,33,39,37,,,,45,46,8,18,0.4,0.9
2026-01-13T0200,3132A,119.5979,39.938,秦皇岛市,文明里,颗粒物(PM10),63,76,81,34,34,14,,,,51,46,14,20,0.5,0.8
2026-01-13T0200,4066A,119.7458,39.9952,秦皇岛市,南园路157号,,42,42,85,3,34,74,,,,10,47,7,17,0.3,0.9
2026-01-13T0200,4067A,119.5131,39.8858,秦皇岛市,翠岛大街1号,颗粒物(PM10),61,71,75,27,31,7,,,,51,37,14,18,0.8,0.9
2026-01-13T0200,4198A,119.509013,39.825305,秦皇岛市,北戴河轮滑馆,颗粒物(PM10),64,78,84,43,36,20,,,,48,41,9,14,0.7,0.9
2026-01-13T0200,1310A,120.404,36.0625,青岛市,市南区东部子站,颗粒物(PM10),78,105,84,48,33,19,,,,52,38,17,14,1.0,0.9
2026-01-13T0200,1311A,120.362344,36.10282,青岛市,四方区子站,细颗粒物(PM2.5),85,117,89,63,38,7,,,,64,36,13,9,1.1,0.9
2026-01-13T0200,1312A,120.294373,36.054183,青岛市,市南区西部子站,,,,82,51,35,4,,,,72,41,11,8,1.0,0.8
2026-01-13T0200,1313A,120.4581,36.0858,青岛市,崂山区子站,颗粒物(PM10),71,92,78,48,30,38,,,,31,32,18,14,0.7,0.6
2026-01-13T0200,1315A,120.3945,36.3083,青岛市,城阳区子站,颗粒物(PM10),89,127,92,56,34,11,,,,69,45,12,12,1.7,1
2026-01-13T0200,3642A,120.3454,36.0735,青岛市,市北区南部,颗粒物(PM10),80,110,79,56,34,8,,,,58,37,6,5,0.9,0.8
2026-01-13T0200,3643A,120.3897,36.18,青岛市,李沧区北部,细颗粒物(PM2.5),98,114,83,73,41,8,,,,65,40,14,13,1.3,1
2026-01-13T0200,4110A,120.5222,36.4089,青岛市,盟旺路653号,细颗粒物(PM2.5),90,124,88,67,37,22,,,,58,41,15,9,0.9,0.8
2026-01-13T0200,4290A,120.196923,35.954556,青岛市,珠江路669号,颗粒物(PM10),62,73,75,42,38,34,,,,46,36,14,14,0.8,0.8
2026-01-13T0200,4291A,120.0424,35.8656,青岛市,黄岛区人民政府广场,细颗粒物(PM2.5),125,153,102,95,43,10,,,,67,47,14,12,1.7,1.1
2026-01-13T0200,1703A,113.0218,23.7086,清远市,凤城街办,颗粒物(PM10),51,51,64,29,38,60,,,,33,48,/,/,/,/
2026-01-13T0200,3025A,113.0479,23.6343,清远市,技师学院,颗粒物(PM10),84,117,80,61,43,6,,,,95,68,11,14,0.7,0.7
2026-01-13T0200,3318A,112.9898,23.7403,清远市,清新太和,,42,42,52,25,32,80,,,,28,29,9,11,0.5,0.5
2026-01-13T0200,3455A,113.076,23.72,清远市,清城东城,颗粒物(PM10),51,52,57,29,32,53,,,,28,38,/,/,/,/
2026-01-13T0200,2661A,107.6325,35.7357,庆阳市,庆阳五中,,41,41,66,20,24,76,,,,7,19,4,6,0.4,0.5
2026-01-13T0200,2662A,107.6361,35.7067,庆阳市,市环保局,,50,50,63,13,20,82,,,,6,15,5,10,0.4,0.5
2026-01-13T0200,1916A,103.7897,25.5036,曲靖市,环境监测站,"颗粒物(PM10),细颗粒物(PM2.5)",54,57,47,38,26,35,,,,20,22,4,5,0.7,0.8
2026-01-13T0200,1917A,103.8013,25.5357,曲靖市,烟厂办公区,颗粒物(PM10),64,78,49,38,28,9,,,,40,24,6,4,0.9,0.6
2026-01-13T0200,3376A,103.7926,25.4651,曲靖市,南苑二区,颗粒物(PM10),69,87,40,40,27,39,,,,15,13,6,4,0.5,0.5
2026-01-13T0200,3377A,103.7442,25.5259,曲靖市,曲靖师范学院,细颗粒物(PM2.5),60,65,43,43,30,2,,,,66,24,5,3,1.1,0.5
2026-01-13T0200,1264A,118.8694,28.94,衢州市,环保大楼,颗粒物(PM10),60,70,79,36,35,43,,,,29,42,/,/,/,/
2026-01-13T0200,1266A,118.8622,28.9809,衢州市,衢州学院,颗粒物(PM10),56,61,70,22,22,34,,,,42,40,10,8,0.6,0.6
2026-01-13T0200,4097A,118.9646,28.9832,衢州市,衢州三中,颗粒物(PM10),61,71,82,38,36,43,,,,34,41,26,9,1.1,0.8
2026-01-13T0200,1611A,118.5818,24.9116,泉州市,涂山街,颗粒物(PM10),65,79,66,38,24,25,,,,45,21,3,3,0.6,0.4
2026-01-13T0200,1612A,118.597,24.8976,泉州市,津头埔,颗粒物(PM10),65,80,66,42,24,28,,,,44,23,4,4,0.7,0.5
2026-01-13T0200,1613A,118.6669,24.9422,泉州市,万安,颗粒物(PM10),68,85,72,38,21,2,,,,71,29,3,3,0.7,0.5
2026-01-13T0200,4105A,118.6355,24.9148,泉州市,霞新路6号,,,,58,,20,,,101,,,28,,,,0.4
2026-01-13T0200,2626A,88.8873,29.2723,日喀则市,日喀则监测站,,45,44,35,31,13,18,,,,31,19,14,10,0.9,0.5
2026-01-13T0200,3726A,88.8775,29.2425,日喀则市,林业技术推广中心,细颗粒物(PM2.5),67,48,23,48,13,29,,,,22,9,11,9,0.9,0.3
2026-01-13T0200,1659A,119.4711,35.421,日照市,监测站,细颗粒物(PM2.5),117,132,103,88,54,2,,,,71,52,16,16,1.9,1.1
2026-01-13T0200,1660A,119.523,35.4216,日照市,市政府广场,细颗粒物(PM2.5),105,127,92,79,50,3,,,,79,47,18,16,1.0,0.7
2026-01-13T0200,1661A,119.5511,35.4113,日照市,港务局,细颗粒物(PM2.5),123,144,107,93,58,1,,,,84,54,14,14,1.3,0.9
2026-01-13T0200,3507A,119.5326,35.4627,日照市,职业技术学院,细颗粒物(PM2.5),92,122,96,68,45,6,,,,74,49,14,13,1.1,0.9
2026-01-13T0200,3604A,119.3267,35.1043,日照市,岚山环保分局,"颗粒物(PM10),细颗粒物(PM2.5)",109,168,107,82,56,8,,,,80,46,48,21,2.9,1.2
2026-01-13T0200,1835A,111.1922,34.7752,三门峡市,市政府,"颗粒物(PM10),细颗粒物(PM2.5)",55,60,85,39,50,0,,,,56,48,18,16,0.7,0.8
2026-01-13T0200,1836A,111.1588,34.794,三门峡市,开发区,颗粒物(PM10),73,95,105,48,53,23,,,,30,46,7,10,0.6,0.9
2026-01-13T0200,3039A,111.1911,34.7829,三门峡市,三门峡市第一小学,细颗粒物(PM2.5),72,83,99,52,52,26,,,,27,47,7,13,0.7,0.8
2026-01-13T0200,3598A,111.1031,34.719,三门峡市,富达温泉假日酒店,细颗粒物(PM2.5),78,84,94,57,53,21,,,,41,43,12,14,1.0,0.9
2026-01-13T0200,2324A,117.621,26.2626,三明市,三钢,细颗粒物(PM2.5),58,44,49,41,32,18,,,,42,35,9,9,1.7,1.2
2026-01-13T0200,2325A,117.6352,26.2714,三明市,三明二中,细颗粒物(PM2.5),55,49,44,39,30,17,,,,38,28,12,12,1.2,0.9
2026-01-13T0200,2326A,117.6028,26.2377,三明市,三元区政府,,46,42,52,32,31,21,,,,32,31,6,9,0.9,1.1
2026-01-13T0200,1877A,109.4962,18.2682,三亚市,河西子站,颗粒物(PM10),55,59,46,25,22,60,,,,26,18,5,6,0.6,0.6
2026-01-13T0200,3540A,109.7348,18.3443,三亚市,君悦子站,,33,33,46,20,21,48,,,,20,15,5,5,0.6,0.6
2026-01-13T0200,4135A,109.1714,18.3739,三亚市,城东小学站,细颗粒物(PM2.5),53,38,35,37,33,87,,,,10,11,/,/,/,/
2026-01-13T0200,2624A,91.7592,29.234,山南市,山南监测站,,,19,16,,7,48,,,,7,9,4,4,0.4,0.4
2026-01-13T0200,2625A,91.7701,29.2436,山南市,山南人民医院,,16,13,19,6,8,49,,,,9,9,1,3,0.4,0.4
2026-01-13T0200,1674A,116.6795,23.3666,汕头市,金平子站,细颗粒物(PM2.5),69,,61,50,25,34,,,,54,29,7,8,1.0,0.8
2026-01-13T0200,1675A,116.7248,23.3632,汕头市,龙湖子站,颗粒物(PM10),61,72,62,27,21,34,,,,48,23,10,12,/,/
2026-01-13T0200,1676A,116.7257,23.2774,汕头市,濠江子站,颗粒物(PM10),52,53,58,29,23,34,,,,43,22,7,8,/,/
2026-01-13T0200,1677A,116.7518,23.4712,汕头市,澄海子站,细颗粒物(PM2.5),90,90,69,67,29,42,,,,38,23,24,12,0.7,0.6
2026-01-13T0200,1678A,116.6088,23.2539,汕头市,潮阳子站,,48,47,62,33,24,44,,,,26,19,6,8,0.6,0.5
2026-01-13T0200,3444A,116.4539,23.2684,汕头市,潮南峡山,"颗粒物(PM10),细颗粒物(PM2.5)",68,85,72,49,32,24,,,,41,23,8,11,0.9,0.7
2026-01-13T0200,3624A,116.4069,23.2533,汕头市,潮南子站,颗粒物(PM10),94,137,92,60,35,17,,,,40,26,7,9,/,/
2026-01-13T0200,1693A,115.3653,22.7751,汕尾市,市环保局,细颗粒物(PM2.5),117,91,75,88,41,56,,,,25,22,7,8,0.8,0.7
2026-01-13T0200,1695A,115.362,22.7926,汕尾市,新城中学,细颗粒物(PM2.5),89,81,71,66,44,61,,,,19,22,5,6,0.8,0.7
2026-01-13T0200,2645A,109.9155,33.8714,商洛市,监测站,,31,31,51,16,22,25,,,,31,27,4,4,0.5,0.5
2026-01-13T0200,3045A,109.9647,33.8486,商洛市,商州区中学,,32,30,62,22,27,3,,,,48,33,6,6,0.8,0.7
2026-01-13T0200,2408A,115.6701,34.4283,商丘市,环境监测站,细颗粒物(PM2.5),85,112,96,63,49,13,,,,53,31,4,5,0.6,0.5
2026-01-13T0200,2409A,115.6458,34.4047,商丘市,粮食局,颗粒物(PM10),86,121,98,57,43,22,,,,40,25,6,5,0.4,0.4
2026-01-13T0200,3171A,115.6069,34.4465,商丘市,梁园区档案局,颗粒物(PM10),87,124,94,58,41,33,,,,33,29,6,6,0.4,0.4
2026-01-13T0200,4119A,115.6701,34.3767,商丘市,北海东路185号,颗粒物(PM10),99,148,101,59,38,2,,,,59,32,2,3,0.6,0.4
2026-01-13T0200,4120A,115.6172,34.3704,商丘市,中山大街3号,颗粒物(PM10),104,157,117,62,44,3,,,,64,35,8,5,0.4,0.3
2026-01-13T0200,1141A,121.401,31.2382,上海市,普陀,颗粒物(PM10),66,81,82,44,37,2,,,,80,50,9,8,0.7,0.6
2026-01-13T0200,1142A,121.4774,31.2043,上海市,十五厂,颗粒物(PM10),60,69,81,37,35,13,,,,71,61,10,9,0.8,0.7
2026-01-13T0200,1143A,121.4673,31.3011,上海市,虹口,颗粒物(PM10),68,85,86,40,33,4,,,,76,50,11,9,0.6,0.5
2026-01-13T0200,1147A,121.4253,31.226,上海市,静安监测站,颗粒物(PM10),62,74,75,38,33,8,,,,81,51,9,8,0.5,0.4
2026-01-13T0200,1148A,121.7029,31.1905,上海市,浦东川沙,,,76,87,35,33,,,,,67,51,8,8,0.7,0.5
2026-01-13T0200,1149A,121.5339,31.229,上海市,浦东新区监测站,颗粒物(PM10),60,70,78,37,36,33,,,,55,50,12,8,0.7,0.6
2026-01-13T0200,1150A,121.5776,31.2038,上海市,浦东张江,颗粒物(PM10),64,78,87,39,34,19,,,,68,53,10,9,0.6,0.5
2026-01-13T0200,3265A,121.4242,31.3303,上海市,宝山庙行,颗粒物(PM10),70,90,86,45,36,2,,,,80,50,9,8,0.4,0.3
2026-01-13T0200,3266A,121.8789,31.4662,上海市,崇明上实东滩,,,79,74,42,32,,,,,84,44,7,6,1.0,0.4
2026-01-13T0200,3268A,121.316,31.2839,上海市,嘉定南翔,颗粒物(PM10),73,95,82,48,38,5,,,,83,64,7,6,0.7,0.5
2026-01-13T0200,3269A,121.3357,30.7455,上海市,金山新城,细颗粒物(PM2.5),57,58,77,40,39,12,,,,67,41,11,15,0.5,0.5
2026-01-13T0200,3270A,121.4996,31.0741,上海市,闵行浦江,颗粒物(PM10),62,73,82,40,36,2,,,,78,57,8,9,0.5,0.4
2026-01-13T0200,3271A,121.2886,31.1663,上海市,青浦徐泾,颗粒物(PM10),66,82,82,44,38,0,,,,80,61,7,7,0.8,0.8
2026-01-13T0200,3272A,121.2193,31.0382,上海市,松江图书馆,颗粒物(PM10),64,78,89,38,38,2,,,,83,60,7,8,0.6,0.6
2026-01-13T0200,3273A,121.3904,31.206,上海市,长宁仙霞,颗粒物(PM10),65,79,80,45,35,1,,,,79,55,8,8,0.6,0.5
2026-01-13T0200,3274A,121.7964,31.0507,上海市,浦东惠南,,,98,81,50,33,,,,,84,50,6,6,0.6,0.5
2026-01-13T0200,3544A,121.4891,30.925,上海市,奉贤南桥新城,颗粒物(PM10),63,75,82,44,36,8,,,,84,51,9,9,0.7,0.6
2026-01-13T0200,4183A,121.417401,31.16637,上海市,冠生园路458号,颗粒物(PM10),70,90,79,49,37,8,,,,78,56,6,6,0.6,0.6
2026-01-13T0200,4205A,121.541914,31.268301,上海市,宁武路151号,颗粒物(PM10),63,75,88,40,35,22,,,,61,59,10,6,0.7,0.7
2026-01-13T0200,2382A,117.9758,28.4439,上饶市,市监测站,颗粒物(PM10),65,79,73,36,30,32,,,,32,38,29,22,/,/
2026-01-13T0200,2383A,117.9521,28.4637,上饶市,凤凰光学,颗粒物(PM10),73,95,81,43,29,2,,,,53,44,15,18,1.0,0.7
2026-01-13T0200,3685A,117.897,28.4316,上饶市,双创科技城,细颗粒物(PM2.5),74,93,75,54,39,6,,,,68,52,42,20,1.0,0.8
2026-01-13T0200,4211A,118.190438,28.444845,上饶市,裕丰大道,颗粒物(PM10),63,75,75,42,38,12,,,,39,41,21,23,0.8,0.8
2026-01-13T0200,1669A,113.5821,24.7733,韶关市,市八中,细颗粒物(PM2.5),73,94,72,53,41,3,,,,69,48,14,25,1.1,0.9
2026-01-13T0200,1671A,113.5916,24.7973,韶关市,园林处,细颗粒物(PM2.5),77,68,53,56,43,4,,,,65,54,16,18,/,/
2026-01-13T0200,1673A,113.5971,24.6864,韶关市,曲江监测站,颗粒物(PM10),54,58,60,34,40,11,,,,50,39,12,18,0.7,0.7
2026-01-13T0200,2809A,113.6668,24.7756,韶关市,大学路288号,细颗粒物(PM2.5),74,81,62,54,42,31,,,,19,24,36,28,/,/
2026-01-13T0200,3622A,113.5556,24.8082,韶关市,碧湖山庄,颗粒物(PM10),77,104,75,54,41,23,,,,43,32,8,14,0.6,0.6
2026-01-13T0200,2464A,111.5277,27.2442,邵阳市,市化工厂,细颗粒物(PM2.5),196,175,138,147,102,6,,,,39,47,,15,1.7,1.4
2026-01-13T0200,2466A,111.4327,27.2276,邵阳市,市环保局,细颗粒物(PM2.5),163,137,108,124,102,14,,,,34,31,,13,1.6,1.4
2026-01-13T0200,4218A,111.446,27.2472,邵阳市,北塔二期4-26地块,细颗粒物(PM2.5),162,,118,123,114,4,,,,30,33,8,10,1.4,1.4
2026-01-13T0200,4219A,111.4739,27.2282,邵阳市,邵水西路287号,细颗粒物(PM2.5),185,150,123,139,112,2,,,,40,40,10,15,1.4,1.2
2026-01-13T0200,1247A,120.6053,29.9927,绍兴市,城东开发委,细颗粒物(PM2.5),68,82,68,49,33,31,,,,39,31,9,8,0.5,0.5
2026-01-13T0200,2921A,120.5482,30.0003,绍兴市,树下王站,颗粒物(PM10),65,80,74,41,33,31,,,,45,40,8,7,0.5,0.7
2026-01-13T0200,3408A,120.5685,29.936,绍兴市,绍兴中专,颗粒物(PM10),62,74,76,30,27,11,,,,52,34,10,8,0.4,0.4
2026-01-13T0200,3409A,120.4905,30.086,绍兴市,柯桥区政府,细颗粒物(PM2.5),90,101,73,67,41,3,,,,82,43,7,6,1.1,0.6
2026-01-13T0200,3410A,120.8751,30.0249,绍兴市,重华小学,细颗粒物(PM2.5),73,,63,53,47,29,,,,35,33,7,7,0.3,0.5
2026-01-13T0200,3411A,120.837,30.0137,绍兴市,上虞中学,,,,64,,35,,,62,,,50,,10,,0.6
2026-01-13T0200,3560A,120.4715,30.0414,绍兴市,柯桥妇保,颗粒物(PM10),63,75,70,42,32,21,,,,50,34,6,6,0.5,0.5
2026-01-13T0200,3658A,120.6156,30.0762,绍兴市,袍江中学,颗粒物(PM10),66,82,78,47,38,31,,,,51,39,3,4,0.6,0.6
2026-01-13T0200,1356A,114.0948,22.5506,深圳市,通心岭子站,颗粒物(PM10),62,73,79,43,44,32,,,,48,43,6,8,0.7,0.6
2026-01-13T0200,1357A,114.1153,22.5713,深圳市,洪湖,,,98,93,48,45,,,,,108,66,8,9,0.9,0.8
2026-01-13T0200,1358A,113.9823,22.5398,深圳市,华侨城,"颗粒物(PM10),细颗粒物(PM2.5)",63,76,83,45,44,19,,,,83,58,/,/,/,/
2026-01-13T0200,1359A,113.9181,22.517,深圳市,南海子站,"颗粒物(PM10),细颗粒物(PM2.5)",75,100,96,55,48,33,,,,64,72,6,7,1.0,0.9
2026-01-13T0200,1360A,114.2345,22.565,深圳市,盐田,颗粒物(PM10),51,51,67,27,33,94,,,,16,47,7,9,0.6,0.7
2026-01-13T0200,1363A,114.4911,22.5381,深圳市,南澳,,41,41,60,21,29,85,,,,10,16,/,/,/,/
