timepoint,stationcode,longitude,latitude,area,positionname,primarypollutant,aqi,pm10,pm10_24h,pm2_5,pm2_5_24h,o3,o3_24h,o3_8h,o3_8h_24h,no2,no2_24h,so2,so2_24h,co,co_24h
2025-10-12T1500,2566A,102.1879,31.914,阿坝藏族羌族自治州,州农科所,,,,,,,,,,,,,,,,
2025-10-12T1500,2568A,102.2502,31.8896,阿坝藏族羌族自治州,马师校,,23,,16,16,14,62,,33,33,7,9,6,5,0.6,0.6
2025-10-12T1500,3994A,102.2165,31.9024,阿坝藏族羌族自治州,马尔康中学西区,,24,14,17,14,12,76,,45,45,3,6,5,5,0.6,0.7
2025-10-12T1500,2695A,80.292,41.1694,阿克苏地区,电视台,颗粒物(PM10),68,86,84,26,35,105,,64,64,9,22,6,5,0.3,0.5
2025-10-12T1500,2696A,80.2613,41.1551,阿克苏地区,艺术中心,颗粒物(PM10),59,67,81,25,39,98,,58,58,18,31,5,4,0.4,0.6
2025-10-12T1500,2204A,105.6467,38.8363,阿拉善盟,西城区西花园,,,,,,,,,,,,,,,,
2025-10-12T1500,2205A,105.6985,38.8411,阿拉善盟,蒙二幼,,30,23,41,14,32,95,,76,76,5,11,9,9,0.6,0.9
2025-10-12T1500,2206A,105.724,38.8516,阿拉善盟,环保局新楼,,30,19,40,19,40,93,,77,77,8,11,8,8,0.5,0.7
2025-10-12T1500,2708A,88.1264,47.8517,阿勒泰地区,市站,,28,10,16,3,6,87,,75,75,8,10,4,4,0.4,0.4
2025-10-12T1500,2630A,80.1161,32.5,阿里地区,阿里监测站,,29,,3,3,3,91,,61,61,1,18,5,6,0.2,0.3
2025-10-12T1500,3192A,80.0903,32.5028,阿里地区,阿里藏医院,,34,10,13,3,4,107,,77,77,1,6,7,8,0.1,0.2
2025-10-12T1500,2642A,109.0318,32.6537,安康市,香溪洞,,,,,,,,,,,,,,,,
2025-10-12T1500,2644A,109.0072,32.6975,安康市,汉滨区检察院,,10,8,10,3,7,31,,40,29,9,9,5,5,0.8,0.7
2025-10-12T1500,4054A,109.0325,32.6913,安康市,市邮政管理局,,9,6,12,6,8,26,,36,26,14,12,6,6,0.7,0.7
2025-10-12T1500,2291A,117.0809,30.5177,安庆市,环科院,,39,27,32,23,24,122,,57,57,12,14,7,6,1.0,0.8
2025-10-12T1500,2292A,117.0331,30.5119,安庆市,马山宾馆,,46,35,31,32,25,119,,60,60,16,17,6,6,1.0,0.9
2025-10-12T1500,2294A,116.9896,30.6145,安庆市,安庆大学,,35,28,27,14,21,112,,58,58,13,15,5,4,0.8,0.7
2025-10-12T1500,3173A,117.0598,30.5351,安庆市,市人大,,39,36,30,24,24,123,,60,60,12,13,7,6,1.0,0.8
2025-10-12T1500,3122A,105.9606,26.2611,安顺市,伍家关,,24,23,23,15,14,74,,70,69,3,3,7,7,0.4,0.4
2025-10-12T1500,3123A,105.9408,26.2431,安顺市,凤凰山,,30,25,25,21,18,75,,73,70,4,4,5,5,0.6,0.6
2025-10-12T1500,3124A,105.9439,26.2564,安顺市,金钟山,,30,26,21,21,19,83,,78,76,2,3,8,8,0.6,0.6
2025-10-12T1500,3125A,105.8983,26.2481,安顺市,娄家坡,,29,23,20,20,18,71,,68,66,4,4,8,8,0.5,0.5
2025-10-12T1500,1818A,114.4839,36.0621,安阳市,棉研所,,,,,,,,,,,,,,,,
2025-10-12T1500,1819A,114.3551,36.1017,安阳市,红庙街,,25,12,16,7,11,77,,61,61,10,22,2,2,0.3,0.9
2025-10-12T1500,1820A,114.361,36.0681,安阳市,银杏小区,,26,12,15,3,14,82,,66,66,10,20,2,2,0.3,0.8
2025-10-12T1500,3141A,114.3922,36.0878,安阳市,信访局,,28,7,16,3,13,88,,68,68,4,19,1,2,0.4,0.9
2025-10-12T1500,3669A,114.4705,36.0637,安阳市,左辅环卫站,,28,6,19,3,13,88,,68,68,10,19,1,2,0.4,0.9
2025-10-12T1500,3703A,114.2917,36.0949,安阳市,安钢职工学校,,20,8,20,8,13,63,,59,58,17,23,3,3,0.7,1.2
2025-10-12T1500,1748A,123.044,41.1196,鞍山市,深沟寺,颗粒物(PM10),58,66,80,35,51,34,,19,19,42,37,9,8,0.7,0.9
2025-10-12T1500,1749A,123.011,41.0931,鞍山市,太阳城,颗粒物(PM10),53,55,70,35,52,38,,22,21,34,30,10,10,0.7,0.8
2025-10-12T1500,1750A,123.0485,41.1442,鞍山市,太平,颗粒物(PM10),58,66,104,34,61,39,,22,22,41,41,11,12,0.7,1.1
2025-10-12T1500,1751A,122.9642,41.0971,鞍山市,铁西三道街,颗粒物(PM10),60,70,104,39,65,31,,19,19,49,50,27,25,1.8,2
2025-10-12T1500,1753A,123.022,41.0821,鞍山市,明达新区,"颗粒物(PM10),细颗粒物(PM2.5)",55,59,76,39,56,36,,23,22,33,29,13,12,0.9,1
2025-10-12T1500,1754A,123.1289,41.0228,鞍山市,千山,,,,73,,53,,,21,,,24,,5,,0.8
2025-10-12T1500,4201A,122.9446,41.0826,鞍山市,兴盛南路290号,,,70,112,39,70,28,,18,18,58,56,,28,2.2,1.9
2025-10-12T1500,2195A,107.4212,40.761,巴彦淖尔市,附二中,,40,40,50,15,29,96,,52,52,5,26,9,9,0.4,0.7
2025-10-12T1500,2196A,107.37,40.7372,巴彦淖尔市,市环保大楼,,36,33,51,25,30,92,,49,49,6,22,10,9,0.4,0.6
2025-10-12T1500,1956A,86.1472,41.7538,巴音郭楞蒙古自治州,孔雀公园,颗粒物(PM10),77,104,108,20,29,99,,35,35,5,35,7,7,0.1,0.4
2025-10-12T1500,1957A,86.1972,41.7166,巴音郭楞蒙古自治州,棉纺厂,颗粒物(PM10),88,126,128,16,27,105,,57,57,3,21,5,5,0.2,0.3
2025-10-12T1500,1958A,86.2357,41.7173,巴音郭楞蒙古自治州,经济开发区,颗粒物(PM10),82,113,108,18,22,97,,56,56,2,17,6,6,0.3,0.3
2025-10-12T1500,2914A,106.7677,31.8794,巴中市,苏山坪,,,,,,,,,,,,,,,,
2025-10-12T1500,3181A,106.7768,31.8526,巴中市,市五中,,10,9,16,3,6,30,,26,26,3,10,7,7,0.8,0.7
2025-10-12T1500,3183A,106.7418,31.8654,巴中市,圣泉水务公司,,11,10,13,3,4,35,,32,32,3,5,8,7,0.7,0.6
2025-10-12T1500,3616A,106.7616,31.8344,巴中市,市中心医院,,15,,11,10,8,28,,25,25,9,11,9,9,0.7,0.6
2025-10-12T1500,2235A,122.7911,45.6077,白城市,洮北区环保局,,21,20,40,3,9,67,,56,56,7,12,6,7,0.3,0.4
2025-10-12T1500,2236A,122.8738,45.5725,白城市,市环保局,,29,29,24,8,11,68,,57,57,4,8,3,5,0.3,0.3
2025-10-12T1500,2231A,126.4219,41.9171,白山市,喜丰,,50,50,35,7,13,71,,53,53,15,15,8,6,0.4,0.5
2025-10-12T1500,2232A,126.4077,41.9419,白山市,环保局,,25,20,23,8,14,77,,55,55,9,13,7,8,0.5,0.6
2025-10-12T1500,2647A,104.1724,36.5446,白银市,第三小学,,32,28,22,22,15,68,,70,54,9,16,14,20,0.6,0.6
2025-10-12T1500,2648A,104.1465,36.5482,白银市,动力公司,,32,32,21,22,13,73,,73,61,9,14,13,14,1.1,0.5
2025-10-12T1500,2512A,106.6103,23.9011,百色市,市监测站,,42,42,50,28,30,123,,83,83,9,15,11,12,0.6,0.7
2025-10-12T1500,2513A,106.6538,23.8859,百色市,市中心血站,,48,48,52,28,30,114,,77,77,11,19,7,12,0.6,0.7
2025-10-12T1500,3406A,106.6085,23.8798,百色市,祈福高中,颗粒物(PM10),59,67,59,27,32,116,,74,74,12,19,14,13,0.2,0.5
2025-10-12T1500,2270A,117.396,32.939,蚌埠市,工人疗养院,"颗粒物(PM10),细颗粒物(PM2.5)",55,60,76,39,41,58,,34,34,36,28,6,5,0.9,0.8
2025-10-12T1500,2271A,117.3605,32.9427,蚌埠市,百货大楼,细颗粒物(PM2.5),65,55,61,47,44,69,,41,41,36,29,8,7,1.0,0.9
2025-10-12T1500,2273A,117.4185,32.8911,蚌埠市,蚌埠学院,细颗粒物(PM2.5),55,51,63,39,46,79,,33,33,22,29,6,6,0.9,0.7
2025-10-12T1500,2274A,117.3533,32.9673,蚌埠市,淮上区政府,细颗粒物(PM2.5),62,63,67,44,46,90,,46,46,27,30,6,6,0.8,0.7
2025-10-12T1500,2275A,117.3145,32.8977,蚌埠市,高新区,细颗粒物(PM2.5),52,51,61,36,42,53,,38,38,48,31,8,7,1.0,0.8
2025-10-12T1500,3715A,117.3092,32.9314,蚌埠市,蚌埠田家炳中学,颗粒物(PM10),53,56,69,33,36,86,,50,50,28,28,7,6,0.9,0.7
2025-10-12T1500,1585A,109.8756,40.6532,包头市,市环境监测站,,48,48,39,30,15,102,,45,45,24,38,34,15,1.5,1
2025-10-12T1500,1587A,109.9991,40.5842,包头市,包头八中,,44,44,54,28,28,104,,41,41,18,49,17,15,0.8,1.3
2025-10-12T1500,1588A,109.8538,40.6821,包头市,青山宾馆,,42,40,34,29,20,91,,40,40,30,38,38,16,1.7,1.1
2025-10-12T1500,1589A,109.8642,40.6288,包头市,惠龙物流,,45,45,34,18,16,100,,47,47,16,34,26,16,0.9,0.8
2025-10-12T1500,1590A,110.0377,40.5546,包头市,东河鸿龙湾,,36,26,41,22,20,115,,45,45,18,48,24,14,1.3,1
2025-10-12T1500,3283A,109.9154,40.5685,包头市,滨河大厦,,36,19,40,13,18,113,,47,47,10,39,17,12,0.8,0.8
2025-10-12T1500,3419A,109.9447,40.6261,包头市,包头市委党校,,49,49,42,18,16,106,,44,44,14,42,25,14,0.9,0.9
2025-10-12T1500,3683A,109.8331,40.6576,包头市,昆区政府,,48,48,34,26,19,92,,47,47,23,31,36,19,1.2,1
2025-10-12T1500,1930A,107.185,34.3063,宝鸡市,庙沟村,,,,,,,,,,,,,,,,
2025-10-12T1500,1931A,107.0708,34.3017,宝鸡市,竹园沟,,,,6,,3,,,44,,,9,,8,,0.7
2025-10-12T1500,1932A,107.1906,34.3672,宝鸡市,三陆医院,,17,9,10,3,4,52,,31,31,15,25,6,6,0.6,0.7
2025-10-12T1500,1933A,107.1431,34.3547,宝鸡市,监测站,,18,9,7,7,6,55,,38,38,8,14,7,7,0.5,0.6
2025-10-12T1500,1934A,107.1186,34.3739,宝鸡市,技工学校,,18,6,7,3,6,57,,41,41,9,16,5,6,0.6,0.6
2025-10-12T1500,1936A,107.2058,34.3497,宝鸡市,文理学院,,17,8,7,6,6,54,,38,38,12,16,5,5,0.6,0.6
2025-10-12T1500,1937A,107.2386,34.3622,宝鸡市,三迪小学,,17,8,7,3,7,53,,36,36,15,19,5,5,0.7,0.7
2025-10-12T1500,4308A,107.3898,34.3601,宝鸡市,陈仓区北开路21号,,17,,2,3,6,52,,38,36,15,18,6,7,0.6,0.6
2025-10-12T1500,1051A,115.493,38.8632,保定市,游泳馆,,48,48,42,12,22,38,,19,19,22,22,6,4,0.4,0.5
2025-10-12T1500,1052A,115.5213,38.8959,保定市,华电二区,,39,39,31,22,24,33,,14,14,26,26,6,4,0.5,0.6
2025-10-12T1500,1053A,115.4713,38.9108,保定市,接待中心,,42,42,37,17,20,28,,16,16,24,16,5,2,0.5,0.5
2025-10-12T1500,1054A,115.4612,38.8416,保定市,地表水厂,颗粒物(PM10),51,51,41,13,16,36,,20,20,31,29,10,8,0.3,0.5
2025-10-12T1500,3581A,115.31981,38.95208,保定市,满城区生态环境分局,,46,46,36,12,14,44,,24,24,24,26,4,2,0.3,0.3
2025-10-12T1500,3582A,115.47694,38.76408,保定市,清苑区第二中学,颗粒物(PM10),51,52,47,14,20,43,,23,23,25,25,4,3,0.5,0.7
2025-10-12T1500,3583A,115.62909,39.02311,保定市,徐水物探局,,32,32,29,20,23,35,,16,16,24,27,7,4,0.6,0.6
2025-10-12T1500,4004A,115.4202,38.8656,保定市,双鹰农机,,48,48,35,24,23,35,,21,21,27,24,6,4,0.3,0.4
2025-10-12T1500,4034A,115.5150,38.8590,保定市,植保所站,颗粒物(PM10),51,52,49,26,28,35,,18,18,20,20,1,2,0.5,0.6
2025-10-12T1500,2594A,99.1678,25.1081,保山市,市环境监测站,,17,10,15,6,14,54,,42,42,4,6,5,4,0.3,0.4
2025-10-12T1500,2595A,99.1711,25.1328,保山市,市环保局,,19,11,14,7,10,58,,46,46,2,4,6,6,0.5,0.5
2025-10-12T1500,1866A,109.2262,21.588,北海市,牛尾岭水库,,,15,23,12,14,83,,57,57,6,11,4,15,,
2025-10-12T1500,1867A,109.1436,21.4086,北海市,海滩公园,,32,27,29,3,11,100,,75,75,4,6,7,7,0.5,0.5
2025-10-12T1500,1868A,109.0981,21.4661,北海市,新市环保局,,26,18,25,14,17,82,,69,65,5,9,4,4,0.5,0.5
2025-10-12T1500,1869A,109.1778,21.5233,北海市,北海工业园,,26,24,34,17,18,83,,62,62,4,10,4,7,0.3,0.4
2025-10-12T1500,3400A,109.1911,21.4415,北海市,龙潭自来水厂,,29,23,27,12,17,92,,66,66,5,7,8,7,0.5,0.5
2025-10-12T1500,1001A,116.3621,39.8784,北京市,万寿西宫,,31,31,30,11,17,34,,17,17,24,31,5,3,0.7,0.7
2025-10-12T1500,1002A,116.2202,40.2915,北京市,定陵,,,,,,,,,,,,,,,,
2025-10-12T1500,1003A,116.4174,39.9289,北京市,东四,,35,35,32,12,16,39,,19,19,22,29,6,3,0.7,0.7
2025-10-12T1500,1004A,116.4072,39.8863,北京市,天坛,,27,27,23,12,14,23,,11,11,22,18,5,3,0.8,0.8
2025-10-12T1500,1005A,116.462,39.9365,北京市,农展馆,,30,30,27,13,16,31,,15,15,26,26,6,4,0.6,0.7
2025-10-12T1500,1006A,116.3392,39.9295,北京市,官园,,33,33,32,12,16,40,,19,19,22,31,9,5,0.8,0.7
2025-10-12T1500,1007A,116.2878,39.9611,北京市,海淀万柳,,33,33,28,12,13,24,,12,12,28,28,7,4,0.8,0.6
2025-10-12T1500,1008A,116.6636,40.135,北京市,顺义新城,,30,30,31,13,16,20,,14,14,43,28,7,4,0.5,0.5
2025-10-12T1500,1009A,116.6275,40.3275,北京市,怀柔镇,,23,23,20,10,13,29,,15,15,17,17,4,3,0.6,0.6
2025-10-12T1500,1010A,116.2296,40.217,北京市,昌平镇,,30,30,22,13,13,32,,18,18,27,22,6,3,0.9,0.6
2025-10-12T1500,1011A,116.3966,39.9821,北京市,奥体中心,,28,28,28,12,17,30,,12,12,24,30,5,4,0.6,0.6
2025-10-12T1500,3281A,115.9718,40.4529,北京市,延庆夏都,,25,25,26,12,15,42,,26,26,14,16,4,2,0.8,0.6
2025-10-12T1500,3418A,116.8336,40.4095,北京市,密云新城,,25,25,20,12,11,33,,26,26,13,12,5,2,0.6,0.5
2025-10-12T1500,3671A,116.088,39.9726,北京市,门头沟三家店,,41,41,25,17,14,38,,20,20,26,19,7,3,0.9,0.6
2025-10-12T1500,3672A,116.1541,39.8204,北京市,丰台云岗,,40,40,25,18,17,27,,18,18,26,23,7,4,0.9,0.6
2025-10-12T1500,3673A,116.6804,39.9081,北京市,通州东关,,41,41,35,16,19,25,,9,9,27,30,7,5,0.5,0.5
2025-10-12T1500,3674A,115.9577,39.7603,北京市,房山燕山,,45,45,20,19,12,25,,22,22,25,14,3,2,0.8,0.6
2025-10-12T1500,3675A,116.4672,39.7733,北京市,大兴旧宫,,32,32,26,11,13,33,,14,14,24,27,6,4,0.7,0.6
2025-10-12T1500,3694A,115.986,40.4563,北京市,延庆石河营,,24,24,32,12,17,41,,26,26,12,11,4,3,0.8,0.5
2025-10-12T1500,3695A,116.6151,40.3053,北京市,怀柔新城,,21,21,16,12,12,27,,17,17,16,12,6,5,0.5,0.5
2025-10-12T1500,3696A,116.2545,39.8768,北京市,丰台小屯,,36,36,29,15,15,26,,16,16,22,22,5,3,1.0,0.7
2025-10-12T1500,3697A,116.84,40.3844,北京市,密云镇,,25,25,24,9,11,30,,22,22,13,16,6,5,0.6,0.6
2025-10-12T1500,4182A,116.1942,39.9158,北京市,八角北路9号,,49,49,35,16,13,29,,18,18,31,29,7,3,0.8,0.6
2025-10-12T1500,4194A,117.0790,40.1518,北京市,洳河巡河路,,28,28,25,14,14,10,,7,7,21,17,3,2,0.6,0.5
2025-10-12T1500,1761A,123.8275,41.3064,本溪市,大峪,,,47,62,19,36,54,,43,43,18,26,8,8,,1.1
2025-10-12T1500,1762A,123.7567,41.3325,本溪市,溪湖,颗粒物(PM10),51,51,70,24,36,61,,43,43,17,28,7,7,0.7,1.1
2025-10-12T1500,1763A,123.7169,41.3094,本溪市,彩屯,,50,50,68,28,48,43,,25,25,31,34,12,8,1.0,1.3
2025-10-12T1500,1764A,123.7669,41.2864,本溪市,东明,颗粒物(PM10),56,61,63,22,37,54,,36,36,18,30,7,7,0.8,1.1
2025-10-12T1500,1765A,123.7992,41.2664,本溪市,新立屯,颗粒物(PM10),51,52,54,25,36,59,,40,40,12,22,8,8,0.7,1
2025-10-12T1500,1766A,123.8142,41.3472,本溪市,威宁,,44,44,54,28,49,52,,36,36,15,30,6,6,0.6,0.9
2025-10-12T1500,2587A,105.2864,27.3125,毕节市,八中,,28,12,27,10,23,88,,66,66,5,6,10,9,0.4,0.5
2025-10-12T1500,2588A,105.31,27.2944,毕节市,师专,,27,22,31,14,22,86,,63,63,8,12,8,8,0.6,0.5
2025-10-12T1500,4263A,105.3688,27.3598,毕节市,工业大道,,30,21,30,13,20,94,,71,71,7,9,10,10,0.6,0.4
2025-10-12T1500,1629A,118.0018,37.3617,滨州市,第二水厂,,20,,20,7,18,62,,47,47,16,21,4,5,0.0,0.2
2025-10-12T1500,1630A,117.9776,37.393,滨州市,北中新校,,21,7,21,3,15,65,,43,43,15,22,7,7,0.2,0.4
2025-10-12T1500,3514A,117.9378,37.3956,滨州市,中海酒店,,22,9,18,7,17,68,,44,44,12,24,3,4,0.3,0.5
2025-10-12T1500,3515A,117.9378,37.3553,滨州市,开发区一中,,24,7,23,3,19,74,,53,53,14,28,5,6,0.5,0.7
2025-10-12T1500,3516A,118.0917,37.694,滨州市,金海六路,,22,7,18,3,12,70,,55,55,7,27,3,4,0.4,0.6
2025-10-12T1500,4028A,117.9956,37.3753,滨州市,滨州市西街道办事处,,20,6,12,3,21,64,,46,46,16,24,4,5,0.5,0.8
2025-10-12T1500,2311A,115.8072,33.8399,亳州市,污水处理厂,,20,,30,14,30,12,,23,12,20,17,4,6,0.6,0.5
2025-10-12T1500,2312A,115.7789,33.8518,亳州市,三国揽胜宫,,16,15,32,11,24,13,,25,12,13,11,4,4,0.7,0.7
2025-10-12T1500,3332A,115.7633,33.8034,亳州市,亳州学院,,30,22,38,21,30,13,,28,13,18,15,4,4,0.6,0.5
2025-10-12T1500,2693A,82.0485,44.8556,博尔塔拉蒙古自治州,市党校,细颗粒物(PM2.5),64,51,67,46,40,98,,56,56,16,24,10,9,0.4,0.4
2025-10-12T1500,2694A,82.0806,44.8969,博尔塔拉蒙古自治州,市环保局,颗粒物(PM10),59,68,84,29,27,101,,49,49,10,28,7,9,0.3,0.5
2025-10-12T1500,1071A,116.8842,38.2991,沧州市,沧县城建局,,25,25,36,9,26,43,,24,24,21,41,3,4,0.4,0.6
2025-10-12T1500,1072A,116.8584,38.3254,沧州市,电视转播站,,33,33,38,9,21,34,,13,13,25,32,5,3,0.4,0.5
2025-10-12T1500,1073A,116.8709,38.3228,沧州市,市环保局,,38,29,41,26,31,35,,19,19,26,34,4,4,0.4,0.4
2025-10-12T1500,3324A,116.8136,38.3004,沧州市,河北水利电力学院,,23,,24,16,21,37,,16,16,21,40,3,3,0.4,0.5
2025-10-12T1500,2622A,97.1806,31.1273,昌都市,昌都监测站,,32,9,8,3,7,101,,97,97,2,5,2,2,0.1,0.2
2025-10-12T1500,3719A,97.1714,31.1406,昌都市,昌都会议中心,,34,7,8,3,5,107,,105,105,1,2,3,3,0,0
2025-10-12T1500,2690A,88.1236,43.8886,昌吉回族自治州,天山天池,,,,,,,,,,,,,,,,
2025-10-12T1500,2692A,87.2717,44.0297,昌吉回族自治州,新区政务中心,颗粒物(PM10),51,52,53,18,19,106,,50,50,12,34,11,7,0.6,0.8
2025-10-12T1500,3613A,87.3095,44.0142,昌吉回族自治州,亚心广场,颗粒物(PM10),56,61,78,22,25,113,,60,60,12,39,10,9,0.4,0.8
2025-10-12T1500,1120A,125.2863,43.9027,长春市,客车厂,,25,25,46,10,26,53,,47,47,17,30,5,6,0.2,0.4
2025-10-12T1500,1121A,125.2841,43.8463,长春市,邮电学院,,30,30,46,10,23,58,,50,50,12,26,6,6,0.2,0.4
2025-10-12T1500,1122A,125.3716,43.8772,长春市,劳动公园,,41,41,73,11,24,58,,49,49,13,27,8,8,0.2,0.4
2025-10-12T1500,1123A,125.3297,43.8805,长春市,园林处,,30,30,42,11,23,55,,48,48,18,29,2,3,0.2,0.4
2025-10-12T1500,1124A,125.4605,43.79,长春市,净月潭,,27,27,41,7,20,61,,54,54,7,19,5,5,0.2,0.3
2025-10-12T1500,1125A,125.7194,43.515,长春市,甩湾子,,21,19,42,8,32,67,,56,56,9,19,4,4,0.1,0.4
2025-10-12T1500,1126A,125.3863,43.8447,长春市,经开区环卫处,,34,34,47,9,22,54,,46,46,14,28,5,6,0.2,0.4
2025-10-12T1500,1127A,125.245,43.7783,长春市,高新区管委会,,18,,52,12,27,55,,49,49,14,28,5,5,0.2,0.3
2025-10-12T1500,1128A,125.1761,43.8325,长春市,岱山公园,,33,33,50,11,28,48,,42,42,20,35,5,5,0.2,0.4
2025-10-12T1500,4281A,125.3346,43.9164,长春市,北亚泰大街1068号,,27,27,49,10,27,55,,48,48,13,33,8,9,0.1,0.3
2025-10-12T1500,1335A,113.0833,28.2325,长沙市,经开区环保局,细颗粒物(PM2.5),130,111,133,99,104,159,,64,64,14,16,5,5,0.9,0.8
2025-10-12T1500,1336A,112.8872,28.2189,长沙市,高开区环保局,细颗粒物(PM2.5),150,125,160,115,121,128,,46,46,14,16,5,5,0.8,0.7
2025-10-12T1500,1337A,113.0792,28.2053,长沙市,马坡岭,细颗粒物(PM2.5),142,120,131,108,108,178,,82,82,18,18,6,6,0.9,0.9
2025-10-12T1500,1338A,112.9394,28.19,长沙市,湖南师范大学,细颗粒物(PM2.5),132,130,135,100,105,148,,63,63,16,17,5,4,1.1,1
2025-10-12T1500,1339A,113.0178,28.1322,长沙市,雨花区环保局,细颗粒物(PM2.5),149,133,132,114,132,165,,73,73,18,18,7,7,1.1,1
2025-10-12T1500,1340A,112.9792,28.2597,长沙市,伍家岭,细颗粒物(PM2.5),134,108,139,102,112,132,,61,61,16,18,3,3,0.8,0.8
2025-10-12T1500,1341A,113.0014,28.1944,长沙市,火车新站,细颗粒物(PM2.5),144,128,143,110,122,146,,70,70,15,16,8,8,1.1,1
2025-10-12T1500,1342A,112.9844,28.1178,长沙市,天心区环保局,细颗粒物(PM2.5),133,130,149,101,106,176,,75,75,19,19,5,5,0.9,0.8
2025-10-12T1500,1343A,112.8908,28.1308,长沙市,湖南中医药大学,细颗粒物(PM2.5),117,122,143,88,93,171,,66,66,15,17,5,4,1.2,1.1
2025-10-12T1500,1344A,112.9581,28.3611,长沙市,沙坪,,,,,,,,,,,,,,,,
2025-10-12T1500,1727A,113.1147,36.1547,长治市,清华站,,22,6,10,3,7,68,,63,63,9,16,7,8,0.6,0.9
2025-10-12T1500,1730A,113.0886,36.2125,长治市,审计局,,22,6,6,3,10,68,,62,62,12,17,5,6,0.3,0.6
2025-10-12T1500,1731A,113.0844,36.1856,长治市,长治八中,,20,6,12,3,11,64,,61,61,8,12,6,6,0.5,0.8
2025-10-12T1500,2845A,113.1569,36.1911,长治市,德盛苑,,22,6,10,3,6,70,,64,64,8,13,3,4,0.5,0.7
2025-10-12T1500,3568A,113.06,36.0464,长治市,向阳小学,,25,13,21,10,13,77,,68,65,11,18,5,6,0.5,0.8
2025-10-12T1500,3569A,112.8792,36.3144,长治市,屯留一中,,21,8,14,3,11,67,,47,47,14,17,12,12,0.2,0.3
2025-10-12T1500,4189A,113.1131,36.19948,长治市,英华南巷50号,,20,,11,3,8,61,,57,57,12,18,4,5,0.6,0.9
2025-10-12T1500,4190A,113.2367,36.3344,长治市,学府街1号,,22,6,9,3,8,68,,67,66,12,16,6,7,0.6,0.7
2025-10-12T1500,1854A,111.6975,28.9703,常德市,市二中,颗粒物(PM10),51,51,60,29,43,82,,46,46,12,14,6,6,0.7,0.7
2025-10-12T1500,1857A,111.7158,29.1456,常德市,白鹤山,,,,,,,,,,,,,,,,
2025-10-12T1500,3138A,111.7153,29.0289,常德市,武陵区永安,,38,36,60,26,38,80,,47,47,10,13,3,3,0.7,0.7
2025-10-12T1500,3139A,111.6892,28.9881,常德市,鼎城区玉霞,,42,36,64,29,40,84,,44,44,11,14,3,3,0.8,0.8
2025-10-12T1500,3140A,111.6625,29.0531,常德市,武陵区长庚,,40,40,63,28,41,83,,44,44,10,13,3,3,0.6,0.6
2025-10-12T1500,1196A,119.9633,31.762,常州市,市监测站,臭氧1小时,119,70,122,49,59,238,,101,101,17,22,9,9,1.0,1.1
2025-10-12T1500,1200A,119.9468,31.7069,常州市,武进监测站,臭氧1小时,103,58,107,50,54,206,,104,104,27,23,8,8,1.1,1.1
2025-10-12T1500,1201A,119.9255,31.9087,常州市,安家,臭氧1小时,99,145,141,66,59,199,,72,72,25,29,9,9,1.2,1
2025-10-12T1500,3002A,119.9805,31.8174,常州市,行政中心,臭氧1小时,117,109,101,71,65,234,,89,89,28,28,5,3,1.5,1.1
2025-10-12T1500,3003A,120.0522,31.7748,常州市,经开区,臭氧1小时,118,94,125,54,63,235,,94,94,24,23,11,9,1.7,1.5
2025-10-12T1500,3010A,119.9025,31.7964,常州市,钟楼,臭氧1小时,117,75,92,61,59,234,,98,98,18,25,8,7,1.1,1.2
2025-10-12T1500,3429A,119.8598,31.7066,常州市,武进经发区,臭氧1小时,107,78,111,45,53,214,,96,96,24,25,10,9,1.3,1.4
2025-10-12T1500,3430A,119.5826,31.7245,常州市,金坛城区,臭氧1小时,87,66,59,43,47,189,,84,84,12,16,9,8,1.2,1.2
2025-10-12T1500,2220A,120.4318,41.5881,朝阳市,西梁,,21,21,30,10,22,63,,51,51,12,29,4,8,0.4,0.7
2025-10-12T1500,2221A,120.4521,41.5646,朝阳市,河畔小区,,31,31,35,7,14,66,,60,60,12,19,9,9,0.3,0.5
2025-10-12T1500,2222A,120.4176,41.5648,朝阳市,八里堡,,35,35,52,9,21,65,,54,54,15,29,7,10,0.3,0.6
2025-10-12T1500,2223A,120.3806,41.5969,朝阳市,农业园区,,23,23,33,10,17,66,,57,57,12,21,6,6,0.3,0.4
2025-10-12T1500,1705A,116.6367,23.6719,潮州市,西园路,,,,,,,,,,,,,,,,
2025-10-12T1500,3026A,116.6183,23.6608,潮州市,市政府,,36,36,30,11,13,108,,86,86,5,8,6,6,0.9,1
2025-10-12T1500,4036A,116.6461,23.6761,潮州市,金山,,35,31,27,10,13,110,,80,80,2,6,7,6,0.6,0.6
2025-10-12T1500,2472A,113.0073,25.9061,郴州市,马头岭,,,,,,,,,,,,,,,,
2025-10-12T1500,2473A,113.0116,25.8226,郴州市,市职中,,30,19,38,18,30,93,,77,77,4,13,6,7,0.3,0.5
2025-10-12T1500,2475A,113.0383,25.8071,郴州市,市审计局,,31,17,34,14,26,99,,87,87,2,7,8,15,0.5,0.6
2025-10-12T1500,2476A,113.0348,25.7759,郴州市,市环保局,,32,26,36,14,27,101,,85,85,5,12,8,14,0.5,0.5
2025-10-12T1500,4252A,113.0138,25.8011,郴州市,好美居路49号,,33,21,34,13,23,103,,88,88,5,13,6,16,0.4,0.5
2025-10-12T1500,1431A,103.9728,30.7236,成都市,金泉两河,,12,,7,3,2,37,,25,25,14,15,2,2,0.7,0.6
2025-10-12T1500,1432A,104.176,30.6872,成都市,十里店,,,,9,,3,,,47,,,13,,3,,0.5
2025-10-12T1500,1433A,104.079,30.5706,成都市,三瓦窑,,17,10,12,8,6,54,,44,44,12,14,4,4,0.6,0.5
2025-10-12T1500,1434A,104.1114,30.63,成都市,沙河铺,,15,6,19,3,7,47,,35,35,16,18,2,3,0.5,0.5
2025-10-12T1500,1437A,104.0786,30.6531,成都市,君平街,,12,8,15,3,4,36,,31,30,17,14,4,4,0.6,0.6
2025-10-12T1500,1438A,103.613,31.0283,成都市,灵岩寺,,,,,,,,,,,,,,,,
2025-10-12T1500,2880A,104.0239,30.65639,成都市,大石西路,,14,10,13,3,7,42,,32,32,18,17,2,2,0.5,0.5
2025-10-12T1500,3136A,104.2725,30.5589,成都市,龙泉驿区区政府,,16,6,3,3,1,50,,41,41,10,12,6,5,0.5,0.5
2025-10-12T1500,3357A,104.0106,30.6931,成都市,金博路,,16,16,7,3,2,38,,29,29,19,19,6,6,0.6,0.5
2025-10-12T1500,3359A,104.0578,30.5225,成都市,华阳,,15,7,8,7,7,45,,38,38,13,14,4,4,0.5,0.5
2025-10-12T1500,3488A,104.3880,30.7467,成都市,青石路225号,,18,6,12,3,3,55,,42,42,8,13,4,5,0.6,0.7
2025-10-12T1500,3489A,104.0789,30.4072,成都市,科学城,,15,8,6,3,3,46,,40,40,13,12,5,4,0.6,0.5
2025-10-12T1500,4011A,103.8506,30.6947,成都市,光华大道三段,,14,14,13,3,4,41,,25,25,16,17,1,1,0.6,0.6
2025-10-12T1500,4224A,104.2433,30.5353,成都市,鲸龙路1057号,,16,7,10,3,3,49,,39,39,15,18,5,4,0.6,0.6
2025-10-12T1500,1062A,117.9531,40.9081,承德市,铁路,,20,20,37,3,12,48,,27,27,16,22,3,3,0.2,0.5
2025-10-12T1500,1063A,117.9392,40.9763,承德市,中国银行,,15,15,33,3,10,48,,24,24,9,16,2,3,0.2,0.5
2025-10-12T1500,1064A,117.9503,40.928,承德市,开发区,,32,32,44,12,18,49,,26,26,14,22,2,3,0.2,0.5
2025-10-12T1500,1066A,117.9268,41.0026,承德市,离宫,,,,,,,,,,,,,,,,
2025-10-12T1500,4274A,117.7994,40.9605,承德市,滨河大街98号,,18,17,28,6,11,56,,36,36,5,14,1,2,0.2,0.4
2025-10-12T1500,2314A,117.47,30.6618,池州市,池州学院,,42,42,43,27,31,75,,32,32,23,25,6,7,1.0,1
2025-10-12T1500,3237A,117.4918,30.6617,池州市,展览馆,,40,40,43,28,30,70,,30,30,23,24,5,6,1.0,0.9
2025-10-12T1500,3333A,117.5627,30.695,池州市,第八中学,,46,40,39,32,27,65,,29,29,24,20,6,6,1.2,1.1
2025-10-12T1500,3334A,117.5038,30.6243,池州市,第十二中学,,35,30,38,24,26,64,,28,28,23,24,4,4,1.3,1.1
2025-10-12T1500,1744A,118.9233,42.2816,赤峰市,松山一中,,28,28,27,3,5,39,,25,25,25,26,22,14,0.6,0.5
2025-10-12T1500,1745A,118.9576,42.2728,赤峰市,哈达街,,35,35,31,12,7,51,,33,33,21,24,17,17,0.5,0.6
2025-10-12T1500,1746A,118.8788,42.2554,赤峰市,天义路,,22,22,23,3,11,42,,27,27,22,23,14,11,0.3,0.4
2025-10-12T1500,3058A,119.2658,42.0353,赤峰市,银河街,,27,27,37,10,17,53,,46,46,13,15,8,14,0.5,0.4
2025-10-12T1500,3286A,118.9359,42.3147,赤峰市,桥北物流园区,,34,34,26,19,10,29,,30,30,37,24,62,13,1.0,0.5
2025-10-12T1500,2521A,107.3476,22.4136,崇左市,市环保局江州分局,,25,24,35,13,19,77,,64,64,3,13,1,2,0.5,0.7
2025-10-12T1500,4256A,107.3750,22.3736,崇左市,石景林东路7号,,23,,33,15,22,73,,67,67,3,10,6,6,0.5,0.6
2025-10-12T1500,2298A,118.3093,32.3153,滁州市,老年大学,细颗粒物(PM2.5),67,66,51,48,40,28,,13,13,22,20,5,5,0.7,0.6
2025-10-12T1500,2299A,118.3244,32.2786,滁州市,人大宾馆,细颗粒物(PM2.5),67,74,46,48,37,33,,16,16,30,23,5,4,0.8,0.8
2025-10-12T1500,3207A,118.3118,32.3038,滁州市,市政府原办公楼,细颗粒物(PM2.5),80,65,46,59,46,36,,20,20,26,23,6,5,0.7,0.7
2025-10-12T1500,3331A,118.3267,32.2634,滁州市,图书馆,细颗粒物(PM2.5),62,63,45,44,37,30,,16,16,29,22,8,7,0.8,0.8
2025-10-12T1500,2605A,101.5482,25.0441,楚雄彝族自治州,州环境监测站,,15,8,11,3,8,47,,38,38,1,6,6,7,0.5,0.5
2025-10-12T1500,2606A,101.538,25.0492,楚雄彝族自治州,市经济开发区,,16,6,13,3,9,49,,39,39,3,9,6,6,0.6,0.7
2025-10-12T1500,2548A,107.5277,31.2827,达州市,达州职业技术学院,,,,,,,,,,,,,,,,
2025-10-12T1500,2549A,107.5086,31.2186,达州市,市环境监测站,,24,24,38,3,16,31,,13,13,10,27,6,12,0.6,0.6
2025-10-12T1500,2550A,107.4988,31.2132,达州市,凤凰小区,,14,14,37,3,19,32,,14,14,8,25,5,11,0.5,0.5
2025-10-12T1500,2551A,107.5082,31.1986,达州市,达县机关宾馆,,10,9,41,3,11,30,,14,13,9,27,4,11,0.5,0.5
2025-10-12T1500,2552A,107.4644,31.2124,达州市,市政中心,,29,29,42,3,14,26,,16,16,6,21,5,9,0.5,0.5
2025-10-12T1500,2614A,100.1542,25.7054,大理白族自治州,大理市环境监测站,,19,,12,13,9,60,,53,53,6,7,5,5,0.6,0.6
2025-10-12T1500,2615A,100.2171,25.5811,大理白族自治州,大理古城,,20,6,11,3,8,63,,57,57,3,7,6,6,0.6,0.6
2025-10-12T1500,1109A,121.612,38.9741,大连市,甘井子,,,,42,,25,42,,30,30,34,25,10,10,,0.9
2025-10-12T1500,1110A,121.565,38.9511,大连市,周水子,,42,42,39,18,25,43,,41,39,33,29,12,12,0.6,0.7
2025-10-12T1500,1111A,121.5637,38.8845,大连市,星海三站,,39,39,36,18,25,50,,50,45,14,11,10,8,0.4,0.5
2025-10-12T1500,1112A,121.6302,38.9117,大连市,青泥洼桥,,48,48,45,17,28,39,,44,39,35,25,12,12,0.7,0.8
2025-10-12T1500,1113A,121.6251,38.8638,大连市,傅家庄,,39,39,35,16,24,42,,45,39,30,23,14,14,0.7,0.9
2025-10-12T1500,1114A,121.5213,38.8661,大连市,七贤岭,,38,38,34,14,21,52,,52,48,21,18,5,6,0.6,0.8
2025-10-12T1500,1115A,121.2529,38.8061,大连市,旅顺,,29,29,25,16,18,60,,60,56,18,15,6,8,0.2,0.4
2025-10-12T1500,1116A,121.7485,39.1311,大连市,金州,,43,43,45,24,31,38,,42,42,42,29,13,11,0.8,0.8
2025-10-12T1500,1117A,121.7811,39.0496,大连市,开发区,,44,44,36,21,24,40,,54,37,35,24,4,3,0.8,0.8
2025-10-12T1500,1118A,121.9762,39.0631,大连市,双D港,颗粒物(PM10),52,54,47,17,25,47,,58,48,28,20,12,10,1.0,1
2025-10-12T1500,1789A,124.81117,46.03138,大庆市,大同区,,32,32,29,13,11,64,,55,55,6,10,8,9,0.4,0.4
2025-10-12T1500,1790A,125.129,46.533,大庆市,龙凤区,,24,24,44,11,20,58,,48,48,6,19,9,10,0.5,0.6
2025-10-12T1500,1791A,124.902,46.408,大庆市,红岗区,,22,17,31,10,17,68,,53,53,7,14,4,4,0.4,0.5
2025-10-12T1500,1792A,125.153,46.586,大庆市,萨尔图区,,19,19,31,3,12,60,,50,50,9,18,10,10,0.3,0.3
2025-10-12T1500,1793A,124.9042,46.6215,大庆市,让胡路区,,20,17,33,8,20,63,,51,51,3,12,6,6,0.3,0.4
2025-10-12T1500,3481A,125.141,46.634,大庆市,萨区政府监测点,,19,18,28,3,6,60,,51,51,5,11,9,8,0.5,0.6
2025-10-12T1500,1721A,113.3819,40.1097,大同市,果树场,,18,12,33,6,23,56,,33,33,16,26,6,6,0.3,0.6
2025-10-12T1500,1723A,113.2994,40.0758,大同市,云冈宾馆,,37,37,41,17,24,60,,30,30,14,28,6,6,0.6,1.1
2025-10-12T1500,1724A,113.3444,40.0917,大同市,大同大学,,21,20,36,10,21,65,,38,38,15,32,8,9,0.4,0.6
2025-10-12T1500,1725A,113.2661,40.1269,大同市,安家小村,,33,25,43,23,23,65,,36,36,17,24,4,4,0.5,0.9
2025-10-12T1500,1726A,113.2711,40.0844,大同市,教育学院,,29,29,58,15,28,60,,27,27,17,32,9,9,0.5,1.1
2025-10-12T1500,3282A,113.3397,40.0597,大同市,大同市卫生学校,,26,24,39,18,23,56,,28,28,16,33,6,6,0.7,0.9
2025-10-12T1500,3565A,113.1367,40.1122,大同市,云冈站,,26,26,43,13,19,62,,38,38,20,22,6,7,0.5,0.6
2025-10-12T1500,3566A,113.1186,40.2556,大同市,图书馆,,32,32,30,17,16,72,,43,43,16,16,5,5,0.4,0.6
2025-10-12T1500,3567A,113.5931,40.0461,大同市,区一中,,26,6,30,3,23,83,,61,61,9,16,5,4,0.4,0.6
2025-10-12T1500,4199A,113.2798,40.0997,大同市,魏都大道141号,,30,30,51,14,27,64,,31,31,17,35,5,5,0.6,1.2
2025-10-12T1500,2269A,124.1069,50.4097,大兴安岭地区,科技局,,19,14,15,10,13,58,,53,53,2,2,4,4,0.2,0.2
2025-10-12T1500,3663A,124.1164,50.4278,大兴安岭地区,红旗社区,,19,,2,3,3,58,,54,54,2,4,4,4,0.3,0.3
2025-10-12T1500,1600A,124.3303,40.0625,丹东市,江湾东路,,,15,17,9,13,76,,67,67,,18,8,8,0.5,0.8
2025-10-12T1500,1601A,124.4256,40.1503,丹东市,临江后街,,24,18,15,9,9,74,,63,63,13,14,6,7,0.6,0.7
2025-10-12T1500,1602A,124.3933,40.1461,丹东市,元宝山,,19,18,14,12,10,60,,58,58,10,11,7,8,0.6,0.7
2025-10-12T1500,1603A,124.3633,40.1092,丹东市,民主桥,,23,16,17,6,10,73,,65,65,19,18,6,5,0.5,0.6
2025-10-12T1500,3541A,109.5726,19.5167,儋州市,第一中学子站,,13,7,19,6,11,39,,41,34,2,3,3,3,0.3,0.4
2025-10-12T1500,3542A,109.5567,19.5187,儋州市,东坡学校子站,,14,,18,3,9,43,,44,38,3,4,4,4,0.2,0.3
2025-10-12T1500,2616A,98.5842,24.428,德宏傣族景颇族自治州,德宏州监测站,,25,,20,16,12,80,,46,46,9,12,20,10,0.4,0.4
2025-10-12T1500,3677A,98.5881,24.4368,德宏傣族景颇族自治州,芒市人民政府综合楼,,,27,26,9,10,83,,43,43,7,10,16,9,,0.7
2025-10-12T1500,1901A,104.4239,31.1208,德阳市,东山公园,,14,,6,3,6,43,,36,36,7,8,2,2,0.7,0.6
2025-10-12T1500,1902A,104.3826,31.1317,德阳市,西小区,,17,17,12,6,5,44,,36,36,12,10,3,3,0.4,0.4
2025-10-12T1500,1904A,104.3553,31.1091,德阳市,耐火材料厂,,16,16,12,6,6,39,,32,32,16,16,2,1,0.8,0.8
2025-10-12T1500,3639A,104.4019,31.1244,德阳市,市教育局,,15,10,9,3,5,46,,36,36,8,8,3,2,0.6,0.7
2025-10-12T1500,1622A,116.3032,37.4674,德州市,儿童乐园,,28,19,20,19,19,41,,29,29,41,34,9,9,0.7,0.7
2025-10-12T1500,1624A,116.2991,37.4451,德州市,监理站,,19,14,9,12,15,46,,40,40,37,36,12,11,0.6,0.6
2025-10-12T1500,3066A,116.2721,37.4379,德州市,九衢泉纯净水厂,,28,22,13,19,12,37,,29,29,43,40,10,8,0.6,0.5
2025-10-12T1500,3371A,116.3728,37.4403,德州市,开发区人民医院,,20,19,15,12,11,37,,34,34,40,37,10,10,0.7,0.7
2025-10-12T1500,3511A,116.5652,37.3319,德州市,陵城艺术中心,,29,29,19,9,16,56,,50,50,34,31,12,8,0.5,0.6
2025-10-12T1500,4292A,116.3525,37.4209,德州市,新河东路,,20,14,15,14,12,56,,46,46,33,34,8,7,0.7,0.6
2025-10-12T1500,2621A,99.7056,27.8317,迪庆藏族自治州,迪庆州站,,18,,14,11,11,55,,51,47,6,6,7,6,0.5,0.5
2025-10-12T1500,3180A,99.7136,27.8094,迪庆藏族自治州,质量技术监督局,颗粒物(PM10),73,96,22,11,7,51,,58,47,10,7,6,7,0.6,0.6
2025-10-12T1500,4257A,104.6092,35.5962,定西市,将台街,,30,30,26,9,16,95,,75,75,7,10,6,7,0.4,0.4
2025-10-12T1500,4309A,104.6159,35.5701,定西市,正龙路62号,,32,32,32,18,21,96,,78,78,4,7,4,4,0.3,0.4
2025-10-12T1500,1389A,113.7547,23.0494,东莞市,莞城梨川,,17,11,27,7,14,53,,60,60,14,16,6,6,0.6,0.6
2025-10-12T1500,1390A,113.7944,23.0128,东莞市,东城石井,,17,16,18,9,8,53,,57,57,16,17,6,6,0.4,0.4
2025-10-12T1500,1391A,113.7383,22.9658,东莞市,南城西平,,22,22,27,8,13,46,,56,56,20,19,4,5,0.5,0.5
2025-10-12T1500,3319A,113.7338,23.0381,东莞市,万江金泰,,17,14,26,8,13,54,,61,61,11,14,6,7,0.7,0.7
2025-10-12T1500,3626A,113.7533,23.0202,东莞市,南城元岭,,18,13,27,11,14,57,,62,62,12,16,4,5,0.5,0.5
2025-10-12T1500,3627A,113.7875,23.0457,东莞市,东城主山,,,,,,,,,,,,,,,,
2025-10-12T1500,1666A,118.6614,37.4309,东营市,市环保局,,23,6,18,3,13,73,,63,63,12,26,5,6,0.3,0.6
2025-10-12T1500,3036A,118.6904,37.4338,东营市,开发区管委会,,25,7,26,3,20,80,,68,68,9,26,5,6,0.2,0.5
2025-10-12T1500,3365A,118.5719,37.565,东营市,垦利区民丰路,,25,17,25,3,14,79,,57,57,9,27,3,5,0.6,0.5
2025-10-12T1500,3498A,118.5055,37.8612,东营市,河口城区,,22,17,26,3,13,68,,61,61,15,30,7,7,0.4,0.6
2025-10-12T1500,3646A,118.4978,37.4623,东营市,胜利站,,23,10,25,3,13,71,,58,58,19,35,7,8,0.3,0.6
2025-10-12T1500,3734A,118.35,37.26,东营市,理想之城,,20,17,26,3,19,62,,48,48,16,33,2,3,0.2,0.5
2025-10-12T1500,1591A,110.0023,39.8129,鄂尔多斯市,综合楼,,34,34,43,19,24,85,,69,69,24,32,18,23,0.8,0.8
2025-10-12T1500,1592A,109.9486,39.8261,鄂尔多斯市,巴音孟克林场办事处,,32,31,42,14,18,101,,59,59,16,37,10,11,0.5,0.7
2025-10-12T1500,1593A,109.7736,39.5986,鄂尔多斯市,康泽苑,,34,31,33,12,14,106,,70,70,9,23,10,7,0.4,0.5
2025-10-12T1500,1594A,109.8119,39.5989,鄂尔多斯市,华泰汽车城,,,29,37,17,16,91,,63,63,,32,38,9,0.4,0.6
2025-10-12T1500,1595A,109.9734,39.7884,鄂尔多斯市,奥林花园,,36,36,45,24,22,99,,64,64,18,30,16,12,0.8,0.8
2025-10-12T1500,2436A,114.8938,30.3994,鄂州市,市政府,细颗粒物(PM2.5),64,73,36,46,24,81,,45,45,15,19,8,7,1.2,0.8
2025-10-12T1500,2437A,114.8989,30.3714,鄂州市,赵家坝,颗粒物(PM10),63,75,42,34,19,103,,57,57,8,6,13,10,1.4,0.8
2025-10-12T1500,3654A,114.8094,30.4089,鄂州市,精准医疗中心,细颗粒物(PM2.5),63,70,40,45,23,69,,32,32,16,15,8,7,0.9,0.8
2025-10-12T1500,2454A,109.4978,30.2981,恩施土家族苗族自治州,湖北民院,,30,30,44,13,33,88,,59,59,3,6,8,7,0.7,0.8
2025-10-12T1500,2455A,109.4707,30.2798,恩施土家族苗族自治州,州电力总公司,,27,24,39,16,32,84,,54,54,5,12,8,7,0.5,0.6
2025-10-12T1500,3549A,109.5061,30.3772,恩施土家族苗族自治州,龙凤新区,,30,30,38,18,27,73,,43,43,4,8,6,6,0.6,0.6
2025-10-12T1500,2499A,108.3411,21.6158,防城港市,沙万,,37,37,49,19,24,52,,45,45,8,17,7,6,0.4,0.6
2025-10-12T1500,2500A,108.3514,21.7731,防城港市,防城档案局,,22,,68,15,26,56,,55,55,3,14,4,4,0.5,0.7
2025-10-12T1500,2501A,108.3506,21.6414,防城港市,大海花园,,44,44,43,8,25,72,,64,64,4,12,6,8,0.4,0.7
2025-10-12T1500,1371A,113.1294,23.0067,佛山市,湾梁,,17,12,31,8,16,52,,54,54,20,29,6,7,0.5,0.5
2025-10-12T1500,1372A,113.1083,23.0478,佛山市,华材职中,,22,17,31,13,20,68,,63,63,9,19,5,6,0.4,0.5
2025-10-12T1500,1373A,113.144,23.0453,佛山市,南海气象局,,19,,32,12,19,60,,55,55,12,22,6,8,0.6,0.7
2025-10-12T1500,1374A,113.2881,22.8094,佛山市,顺德苏岗,,13,13,31,7,12,24,,36,36,21,23,6,7,0.4,0.4
2025-10-12T1500,1376A,112.8383,22.8678,佛山市,高明孔堂,,28,28,35,17,20,81,,72,72,10,16,3,3,0.4,0.4
2025-10-12T1500,1377A,112.8836,23.1588,佛山市,三水监测站,,29,,52,20,28,83,,71,71,9,35,6,9,0.4,0.6
2025-10-12T1500,1378A,112.867,23.185,佛山市,三水云东海,,32,29,53,13,29,100,,78,78,15,29,4,5,0.7,0.8
2025-10-12T1500,3625A,113.2544,22.7642,佛山市,容桂街道办,,14,7,24,7,15,44,,43,43,18,23,5,6,0.7,0.7
2025-10-12T1500,1280A,119.3903,26.0543,福州市,鼓山,,,,20,,12,,,91,,,6,,1,,0.2
2025-10-12T1500,1282A,119.2681,26.0504,福州市,师大,,41,32,29,12,14,130,,96,96,8,12,6,6,0.4,0.4
2025-10-12T1500,1283A,119.2984,26.1028,福州市,五四北路,,39,,24,13,12,123,,96,96,7,12,4,4,0.3,0.3
2025-10-12T1500,1284A,119.2648,26.0768,福州市,杨桥西路,,42,34,28,20,13,134,,96,96,8,11,4,4,0.3,0.3
2025-10-12T1500,1285A,119.317,26.0746,福州市,紫阳,颗粒物(PM10),52,54,36,16,13,102,,86,86,29,17,7,6,0.4,0.4
2025-10-12T1500,3048A,119.5799,26.0936,福州市,九龙,,36,33,20,25,13,100,,78,78,5,6,6,4,0.4,0.4
2025-10-12T1500,3526A,119.5189,25.9664,福州市,吴航,,30,23,27,13,14,94,,71,71,4,11,5,5,0.4,0.5
2025-10-12T1500,1755A,123.7977,41.8491,抚顺市,望花区,颗粒物(PM10),54,57,63,22,44,58,,33,33,19,36,6,7,0.5,0.9
2025-10-12T1500,1756A,123.9161,41.8822,抚顺市,顺城区,,40,40,59,18,44,60,,44,44,18,29,6,6,0.5,0.8
2025-10-12T1500,1757A,124.0436,41.8611,抚顺市,东洲区,,39,39,51,20,45,65,,41,41,17,32,8,8,0.7,1
2025-10-12T1500,1758A,123.9247,41.8642,抚顺市,新抚区,,46,46,57,19,41,61,,44,44,19,30,9,8,0.6,1
2025-10-12T1500,1759A,124.0972,41.8961,抚顺市,大伙房水库,,42,42,45,18,37,66,,43,43,13,23,8,8,0.5,0.8
2025-10-12T1500,1760A,123.7086,41.8391,抚顺市,沈抚新城,,50,50,63,18,32,58,,34,34,21,33,8,7,0.5,1
2025-10-12T1500,2376A,116.2127,28.0814,抚州市,桐源党溪,,,,,,,,,,,,,,,,
2025-10-12T1500,2377A,116.3544,27.9831,抚州市,市站,,36,29,41,15,21,115,,89,89,2,11,2,7,0.5,0.8
2025-10-12T1500,2378A,116.3565,27.963,抚州市,血防站,,36,28,37,15,21,113,,85,85,2,17,7,8,0.2,0.3
2025-10-12T1500,2379A,116.3564,28.0007,抚州市,采茶剧团,,36,31,46,7,25,114,,87,87,2,12,7,15,0.5,0.6
2025-10-12T1500,2380A,116.385,27.9647,抚州市,医学分院,,37,36,50,14,20,116,,88,88,2,11,4,5,0.7,0.7
2025-10-12T1500,2207A,121.6094,41.998,阜新市,工业园区,,34,34,52,6,16,60,,57,55,14,24,8,10,0.6,0.4
2025-10-12T1500,2208A,121.6697,42.0279,阜新市,长青街,,24,24,29,7,11,55,,53,49,16,18,8,9,0.2,0.3
2025-10-12T1500,2209A,121.6673,42.0705,阜新市,农业园区,,32,32,35,3,6,64,,59,59,8,8,5,5,0.9,0.6
2025-10-12T1500,2210A,121.6717,42.0224,阜新市,东苑,,37,37,58,15,16,50,,54,46,22,26,2,5,0.4,0.6
2025-10-12T1500,2211A,121.6506,42.0498,阜新市,玉龙新城,,40,40,50,6,10,56,,56,56,15,21,8,9,0.6,0.5
2025-10-12T1500,2301A,115.8277,32.8929,阜阳市,市监测站,颗粒物(PM10),56,61,63,36,33,19,,19,17,22,27,4,4,0.7,0.5
2025-10-12T1500,2303A,115.8554,32.8605,阜阳市,开发区,颗粒物(PM10),69,87,64,47,33,18,,20,18,22,22,7,7,0.7,0.6
2025-10-12T1500,2875A,115.784,32.8892,阜阳市,阜阳职业技术学院,,50,50,60,34,29,17,,21,18,21,22,5,5,0.6,0.6
2025-10-12T1500,3468A,115.7901,32.8613,阜阳市,市规划展馆,颗粒物(PM10),67,84,63,36,35,14,,19,16,23,24,4,4,0.6,0.5
2025-10-12T1500,3469A,115.836,32.9183,阜阳市,枣园社区,颗粒物(PM10),54,57,56,34,35,20,,22,20,20,24,6,7,0.6,0.5
2025-10-12T1500,2669A,102.9099,34.9841,甘南藏族自治州,州政府,,15,12,16,7,15,48,,40,40,7,12,4,5,0.4,0.4
2025-10-12T1500,3380A,102.8914,34.9617,甘南藏族自治州,甘肃民族师范学院,,17,6,8,3,6,54,,44,44,8,11,4,5,0.3,0.4
2025-10-12T1500,2570A,101.9603,30.0475,甘孜藏族自治州,水桥子,,23,6,14,3,4,71,,40,40,5,17,8,8,0.3,0.3
2025-10-12T1500,3065A,101.9533,29.9972,甘孜藏族自治州,州环保局,,24,18,17,6,5,76,,54,54,6,13,5,5,0.3,0.3
2025-10-12T1500,3414A,115.8347,28.932,赣江新区,桑海产业园,臭氧1小时,67,48,69,28,50,173,,96,96,9,15,10,8,0.6,0.6
2025-10-12T1500,2362A,114.9017,25.9149,赣州市,通天岩,,30,21,27,12,18,96,,96,96,4,4,18,17,0.9,0.9
2025-10-12T1500,2363A,114.9367,25.8664,赣州市,地委,,29,23,31,14,19,92,,80,80,6,15,6,10,0.7,0.7
2025-10-12T1500,2364A,114.9461,25.8481,赣州市,气象台,,30,24,30,14,16,96,,88,88,4,14,7,11,0.5,0.6
2025-10-12T1500,2365A,114.9322,25.8333,赣州市,市图书馆,,29,18,30,14,19,90,,84,84,5,11,5,7,0.6,0.6
2025-10-12T1500,2366A,114.8905,25.8471,赣州市,华坚鞋城,,28,28,38,8,21,79,,76,76,5,17,5,8,0.6,0.7
2025-10-12T1500,3109A,115.0093,25.8613,赣州市,赣县区卫计委,,29,29,31,16,22,88,,72,72,4,13,7,10,0.5,0.5
2025-10-12T1500,2683A,106.2319,36.1417,固原市,马园,,,,,,,,,,,,,,,,
2025-10-12T1500,2684A,106.2792,36.0022,固原市,监测站,,27,13,12,12,8,85,,73,73,7,7,6,5,0.4,0.5
2025-10-12T1500,2685A,106.2375,36.0211,固原市,新区,,27,12,10,9,8,84,,70,70,5,8,4,4,0.5,0.6
2025-10-12T1500,3522A,106.2177,35.9959,固原市,原州区十五小,,24,14,13,11,11,76,,67,67,14,11,8,8,0.4,0.5
2025-10-12T1500,2543A,106.6308,30.5278,广安市,小平旧居,,,,,,,,,,,,,,,,
2025-10-12T1500,2544A,106.6303,30.4576,广安市,市委,,40,40,30,28,23,21,,26,26,9,11,5,6,0.7,0.6
2025-10-12T1500,2545A,106.6271,30.4663,广安市,友谊中学,,34,34,26,23,17,25,,32,32,10,10,7,9,0.7,0.6
2025-10-12T1500,2547A,106.6388,30.4551,广安市,广电花园,,35,35,23,18,18,22,,26,26,9,11,7,9,0.6,0.5
2025-10-12T1500,2902A,106.6351,30.4865,广安市,北辰小学,,30,30,25,19,17,24,,29,29,8,7,9,11,0.7,0.7
2025-10-12T1500,2523A,105.8945,32.4535,广元市,黑石坡,,,,,,,,,,,,,,,,
2025-10-12T1500,2524A,105.821,32.4444,广元市,老城,,17,15,13,3,1,54,,46,44,9,9,6,6,0.7,0.7
2025-10-12T1500,2526A,105.8628,32.4287,广元市,监测站,,16,13,12,3,9,51,,41,41,6,9,4,5,0.7,0.7
2025-10-12T1500,3617A,105.8047,32.4166,广元市,经开区,,14,6,3,3,1,43,,42,39,17,9,2,2,0.6,0.6
2025-10-12T1500,1345A,113.2347,23.1423,广州市,广雅中学,,16,15,32,9,16,51,,53,53,21,28,4,5,0.3,0.3
2025-10-12T1500,1346A,113.2612,23.105,广州市,市五中,,16,16,30,7,15,46,,64,64,14,28,5,7,0.2,0.3
2025-10-12T1500,1348A,113.3478,23.0916,广州市,广东商学院,,13,12,33,8,18,39,,57,57,19,33,3,5,0.2,0.3
2025-10-12T1500,1349A,113.4332,23.1047,广州市,市八十六中,,16,10,26,6,15,21,,53,53,32,40,7,7,0.7,0.5
2025-10-12T1500,1350A,113.3505,22.9483,广州市,番禺中学,,13,10,27,3,13,41,,48,48,11,21,6,7,0.7,0.8
2025-10-12T1500,1351A,113.2146,23.3916,广州市,花都师范,,21,20,41,10,18,66,,68,68,16,32,4,6,0.6,0.6
2025-10-12T1500,1352A,113.2597,23.1331,广州市,市监测站,,16,15,32,6,15,49,,59,59,12,26,5,6,0.5,0.6
2025-10-12T1500,1353A,113.5618,23.312,广州市,九龙镇镇龙,,12,12,38,7,21,34,,50,50,16,22,5,5,0.4,0.5
2025-10-12T1500,1354A,113.2765,23.1544,广州市,麓湖,,17,17,28,8,14,53,,56,56,22,28,4,6,0.4,0.5
2025-10-12T1500,1355A,113.443,23.3035,广州市,帽峰山森林公园,,,,,,,,,,,,,,,,
2025-10-12T1500,2846A,113.3221,23.1322,广州市,体育西,,19,19,36,8,18,50,,63,63,22,30,4,5,0.5,0.5
2025-10-12T1500,3298A,113.5717,23.5491,广州市,从化街口,,17,12,25,6,15,53,,48,48,7,20,6,6,0.5,0.6
2025-10-12T1500,3299A,113.3472,23.3692,广州市,白云竹料,,20,19,36,7,18,61,,62,62,17,27,4,6,0.4,0.5
2025-10-12T1500,3300A,113.2981,23.237,广州市,白云嘉禾,,21,14,34,3,17,66,,61,61,18,35,4,6,0.5,0.6
2025-10-12T1500,3301A,113.4256,23.1716,广州市,黄埔科学城,,,8,33,3,16,45,,73,69,14,30,2,4,,0.6
2025-10-12T1500,3302A,113.3942,23.0483,广州市,番禺大学城,,28,28,36,3,14,33,,56,56,16,31,5,6,0.5,0.6
2025-10-12T1500,3303A,113.4922,22.8168,广州市,南沙黄阁,,12,,27,3,14,36,,48,48,12,22,6,7,0.4,0.4
2025-10-12T1500,3304A,113.5342,22.7896,广州市,南沙街,,,8,26,3,13,45,,51,51,,17,4,6,0.4,0.4
2025-10-12T1500,3443A,113.2902,23.5544,广州市,花都梯面,,22,22,27,12,16,62,,55,55,12,21,5,6,0.5,0.5
2025-10-12T1500,3445A,113.7858,23.7478,广州市,从化良口,,16,15,19,11,13,49,,47,47,8,14,5,5,0.4,0.4
2025-10-12T1500,3446A,113.8051,23.2614,广州市,增城荔城,,,7,25,,15,40,,54,54,8,14,6,8,0.3,0.4
2025-10-12T1500,2505A,109.568,23.1478,贵港市,德智高中,,,,,,,,,,,,,,,,
2025-10-12T1500,2506A,109.6047,23.0666,贵港市,江南子站,,45,44,79,28,40,144,,94,94,6,22,6,7,0.7,0.8
2025-10-12T1500,2508A,109.5669,23.1065,贵港市,荷城子站,,38,29,48,17,25,120,,87,87,7,18,4,5,0.5,0.7
2025-10-12T1500,3405A,109.5886,23.1172,贵港市,新世纪学校,,44,44,55,24,33,117,,78,78,8,17,2,2,0.7,0.7
2025-10-12T1500,4260A,109.5933,23.0951,贵港市,中山路155-3号,,47,40,60,26,32,150,,103,103,6,15,4,6,0.7,0.9
2025-10-12T1500,1439A,106.6899,26.5998,贵阳市,马鞍山,,24,22,19,14,16,75,,69,69,6,6,5,5,0.3,0.3
2025-10-12T1500,1441A,106.6243,26.6266,贵阳市,鉴湖路,,39,39,32,12,13,66,,62,62,4,5,6,7,0.3,0.4
2025-10-12T1500,1442A,106.7487,26.6343,贵阳市,燕子冲,,26,24,18,17,18,81,,74,74,7,8,4,6,0.3,0.3
2025-10-12T1500,1443A,106.6555,26.4365,贵阳市,碧云窝,,31,31,31,12,11,79,,72,72,4,5,7,7,0.2,0.2
2025-10-12T1500,1445A,106.7109,26.6027,贵阳市,红边门,,31,31,26,12,18,74,,68,68,7,7,5,4,0.2,0.2
2025-10-12T1500,1446A,106.7164,26.5699,贵阳市,新华路,,31,31,28,17,12,74,,68,68,8,10,25,7,0.3,0.3
2025-10-12T1500,1447A,106.674,26.5424,贵阳市,太慈桥,,22,22,23,12,11,67,,61,61,12,13,5,5,0.1,0.1
2025-10-12T1500,1552A,106.805,26.3003,贵阳市,桐木岭,,36,36,36,19,23,81,,76,74,6,6,4,4,0.7,0.8
2025-10-12T1500,4230A,106.6882,26.5695,贵阳市,花果园大街66号,,23,22,17,16,16,71,,64,64,7,7,2,2,0.7,0.7
2025-10-12T1500,4231A,106.6873,26.5169,贵阳市,漓江路57号,,25,19,24,17,14,77,,69,69,4,6,8,8,0.6,0.6
2025-10-12T1500,1862A,110.4144,25.3167,桂林市,电子科大尧山校区,,,,,,,,,,,,,,,,
2025-10-12T1500,1864A,110.3089,25.2708,桂林市,龙隐路小学,,39,25,53,14,38,123,,105,105,8,16,5,9,0.2,0.4
2025-10-12T1500,1865A,110.2869,25.2178,桂林市,八中,,40,30,49,17,32,125,,94,94,6,15,6,9,0.6,0.7
2025-10-12T1500,3531A,110.296,25.1253,桂林市,旅游学院,,40,27,42,22,27,126,,,,5,17,4,6,0.5,0.6
2025-10-12T1500,4222A,110.1835,25.2444,桂林市,环湖路276号,,41,41,50,27,31,114,,79,79,7,31,6,7,0.4,0.4
2025-10-12T1500,4301A,110.2803,25.2773,桂林市,信义路13号,,39,38,48,19,27,123,,98,98,6,13,6,11,0.5,0.7
2025-10-12T1500,2674A,100.2561,34.4714,果洛藏族自治州,玛沁县大武镇,,32,18,21,7,14,101,,83,83,1,2,12,11,0.3,0.3
2025-10-12T1500,1129A,126.5422,45.755,哈尔滨市,岭北,,,,,,,,,,,,,,,,
2025-10-12T1500,1130A,126.561,45.8167,哈尔滨市,松北商大,,20,12,36,3,15,61,,47,47,6,20,4,5,0.4,0.4
2025-10-12T1500,1131A,126.979,45.5419,哈尔滨市,阿城会宁,,18,16,50,3,29,57,,47,47,7,24,7,10,0.3,0.5
2025-10-12T1500,1132A,126.599,45.7222,哈尔滨市,南岗学府路,,26,26,40,3,13,63,,51,51,10,20,8,9,0.5,0.6
2025-10-12T1500,1133A,126.689,45.7733,哈尔滨市,太平宏伟公园,,20,18,38,13,22,61,,48,48,6,18,8,9,0.3,0.4
2025-10-12T1500,1134A,126.635,45.7667,哈尔滨市,道外承德广场,,22,22,45,8,18,58,,48,48,10,17,7,7,0.5,0.5
2025-10-12T1500,1135A,126.685,45.7319,哈尔滨市,香坊红旗大街,,,24,43,6,19,59,,48,48,11,25,,3,0.4,0.5
2025-10-12T1500,1136A,126.6411,45.7258,哈尔滨市,动力和平路,,19,9,34,7,19,59,,50,50,10,19,5,7,0.4,0.5
2025-10-12T1500,1137A,126.593,45.7478,哈尔滨市,道里建国路,,26,26,36,9,20,60,,49,49,8,18,7,10,0.2,0.2
2025-10-12T1500,1138A,126.615,45.61,哈尔滨市,平房东轻厂,,27,27,32,12,17,56,,44,44,12,26,8,9,0.4,0.5
2025-10-12T1500,1139A,126.595,45.9855,哈尔滨市,呼兰师专,,19,19,35,8,23,59,,47,47,5,16,7,8,0.3,0.5
2025-10-12T1500,1140A,126.6206,45.6842,哈尔滨市,省农科院,,30,30,41,9,18,53,,46,46,14,25,1,2,0.5,0.6
2025-10-12T1500,2688A,93.5128,42.8172,哈密市,地区监测站,颗粒物(PM10),103,155,130,50,41,88,,71,71,7,37,20,10,0.3,0.4
2025-10-12T1500,2689A,93.4961,42.8328,哈密市,哈密师范学校,颗粒物(PM10),84,117,118,35,33,91,,68,68,7,37,10,7,0.6,0.8
2025-10-12T1500,2671A,100.9048,36.9639,海北藏族自治州,海晏县西海镇,,32,9,11,7,10,101,,80,80,1,3,14,14,0.3,0.4
2025-10-12T1500,3867A,102.0738,36.5056,海东市,平安区公安北苑,,25,16,23,7,13,78,,64,64,3,14,8,18,0.5,0.7
2025-10-12T1500,1409A,110.576,19.9507,海口市,东寨港,,,,,,,,,,,,,,,,
2025-10-12T1500,1410A,110.3232,20.0574,海口市,海南大学,,16,7,13,3,7,51,,47,47,3,3,4,4,0.2,0.3
2025-10-12T1500,1411A,110.283,20.0053,海口市,秀英海南医院,,,,,,,,,73,,,,,,,
2025-10-12T1500,1412A,110.338,19.9969,海口市,海南师范大学,,16,14,18,6,8,50,,45,44,3,5,5,5,0.4,0.4
2025-10-12T1500,1413A,110.33,20.0356,海口市,龙华路环保局宿舍,,15,12,18,8,9,47,,44,44,4,4,6,6,0.0,0.1
2025-10-12T1500,3539A,110.5111,19.9736,海口市,桂林洋子站,,16,16,19,7,10,36,,38,35,4,8,5,5,0.2,0.2
2025-10-12T1500,2673A,100.6188,36.2866,海南藏族自治州,共和县恰卜恰镇,,35,11,23,9,6,109,,89,89,3,5,14,12,0.4,0.5
2025-10-12T1500,2676A,97.3731,37.3753,海西蒙古族藏族自治州,德令哈市,,34,18,24,11,14,107,,97,97,1,4,19,19,0.3,0.4
2025-10-12T1500,1048A,114.5302,36.6116,邯郸市,东污水处理厂,,25,,15,17,25,64,,64,64,17,30,6,6,0.6,1
2025-10-12T1500,1049A,114.4918,36.5713,邯郸市,矿院,,28,26,17,19,23,74,,71,71,12,25,4,4,0.5,0.8
2025-10-12T1500,1050A,114.484,36.6133,邯郸市,丛台公园,,23,,18,14,16,72,,74,74,20,27,3,3,0.4,0.8
2025-10-12T1500,3458A,114.7895,36.5593,邯郸市,香泉濮院小区,,29,,17,20,16,38,,47,47,17,23,4,4,0.7,0.6
2025-10-12T1500,3579A,114.50634,36.77178,邯郸市,永年区实验高中,,23,20,24,16,18,55,,64,64,18,26,3,3,0.5,1
2025-10-12T1500,3580A,114.20016,36.44293,邯郸市,峰峰矿区临水派出所,,26,14,20,7,10,81,,82,82,11,19,2,3,0.2,0.7
2025-10-12T1500,2634A,106.9893,33.1842,汉中市,汉川机床厂子校,,,,,,,,,,,,,,,,
2025-10-12T1500,2635A,107.0154,33.0706,汉中市,市监测站,,12,7,10,3,3,37,,29,29,7,11,4,4,0.8,0.8
2025-10-12T1500,2636A,107.0089,33.1138,汉中市,鑫源开发区,,11,,6,3,5,35,,28,25,10,16,4,4,0.8,1
2025-10-12T1500,2637A,107.007,33.0323,汉中市,南郑大河坎水厂,,25,25,7,3,3,33,,28,28,8,9,6,6,0.8,0.7
2025-10-12T1500,1223A,120.2072,30.2111,杭州市,滨江,臭氧1小时,132,94,96,64,55,264,,153,153,30,24,8,8,0.9,0.9
2025-10-12T1500,1224A,120.0633,30.2747,杭州市,西溪,臭氧1小时,120,71,77,44,62,239,,143,143,20,23,7,7,0.7,0.8
2025-10-12T1500,1226A,120.3417,30.3150,杭州市,下沙,臭氧1小时,126,82,84,53,55,252,,152,152,14,21,8,8,0.7,0.7
2025-10-12T1500,1227A,120.1269,30.2456,杭州市,卧龙桥,臭氧1小时,131,82,77,59,55,262,,152,152,16,17,8,8,1.0,0.9
2025-10-12T1500,1228A,120.1903,30.2692,杭州市,浙江农大,臭氧1小时,127,121,111,60,65,253,,149,149,22,29,7,7,0.9,0.9
2025-10-12T1500,1230A,120.1197,30.3119,杭州市,和睦小学,臭氧1小时,128,70,87,49,46,255,,145,145,17,21,12,11,1.0,1
2025-10-12T1500,1231A,120.3019,30.4183,杭州市,临平镇,臭氧1小时,129,59,120,50,58,258,,164,164,17,19,7,6,0.8,1
2025-10-12T1500,1232A,120.2753,30.1839,杭州市,城厢镇,臭氧1小时,125,95,81,60,67,250,,158,158,24,24,6,6,0.9,0.9
2025-10-12T1500,1233A,120.0883,30.1808,杭州市,云栖,臭氧1小时,108,64,68,42,55,216,,148,148,19,21,7,6,0.8,0.9
2025-10-12T1500,3557A,119.9464,30.0494,杭州市,镇二中,臭氧1小时,108,58,90,47,59,215,,144,144,16,25,6,6,0.9,0.9
2025-10-12T1500,3558A,119.7183,30.2367,杭州市,市府大楼,臭氧1小时,103,74,81,51,57,206,,150,150,13,14,9,9,0.6,0.5
2025-10-12T1500,3656A,120.1556,30.2864,杭州市,消防大队,臭氧1小时,128,85,87,56,62,256,,144,144,20,21,8,8,1.1,1.1
2025-10-12T1500,1270A,117.1959,31.7848,合肥市,明珠广场,细颗粒物(PM2.5),77,88,41,56,30,19,,10,10,38,24,4,4,0.9,0.7
2025-10-12T1500,1271A,117.3072,31.8764,合肥市,三里街,颗粒物(PM10),67,83,43,41,26,24,,12,12,31,21,4,4,0.9,0.8
2025-10-12T1500,1272A,117.2588,31.8707,合肥市,琥珀山庄,细颗粒物(PM2.5),63,70,44,45,29,28,,15,15,26,21,8,8,0.8,0.6
2025-10-12T1500,1273A,117.1604,31.9052,合肥市,董铺水库,,,,,,,,,,,,,,,,
2025-10-12T1500,1274A,117.25,31.8571,合肥市,长江中路,细颗粒物(PM2.5),80,85,49,59,32,25,,13,13,29,20,4,4,0.9,0.8
2025-10-12T1500,1275A,117.266,31.9436,合肥市,庐阳区,细颗粒物(PM2.5),67,78,46,48,28,29,,16,16,30,23,7,6,1.1,0.9
2025-10-12T1500,1276A,117.3453,31.8616,合肥市,瑶海区,细颗粒物(PM2.5),68,80,49,49,30,34,,17,17,34,26,8,8,0.8,0.6
2025-10-12T1500,1277A,117.3027,31.7964,合肥市,包河区,颗粒物(PM10),60,70,47,41,30,37,,18,18,43,32,9,8,1.0,0.9
2025-10-12T1500,1278A,117.2776,31.7385,合肥市,滨湖新区,细颗粒物(PM2.5),67,70,47,48,35,41,,19,19,40,26,6,5,1.0,0.9
2025-10-12T1500,1279A,117.1318,31.8403,合肥市,高新区,细颗粒物(PM2.5),79,68,44,58,33,36,,18,18,31,21,5,5,1.0,0.8
2025-10-12T1500,3464A,117.3803,31.9147,合肥市,高教基地,颗粒物(PM10),58,66,48,38,23,33,,19,19,25,22,7,6,0.9,0.7
2025-10-12T1500,3614A,79.924,37.0877,和田地区,地区环保局,颗粒物(PM10),70,90,103,21,27,101,,76,76,6,12,4,3,0.2,0.2
2025-10-12T1500,3615A,79.9131,37.113,和田地区,市环保局,颗粒物(PM10),62,73,97,17,26,104,,70,70,10,30,3,3,0.1,0.2
2025-10-12T1500,2516A,108.2011,24.715,河池市,东仁乐园,,,,,,,,,,,,,,,,
2025-10-12T1500,2517A,108.0497,24.6947,河池市,市环保站,,32,32,35,19,20,95,,67,67,6,15,7,7,0.7,0.7
2025-10-12T1500,2518A,108.0983,24.6989,河池市,市疾控中心,,30,24,39,18,24,96,,62,62,7,26,8,9,0.7,0.8
2025-10-12T1500,1696A,114.6778,23.7569,河源市,源西,,,,,,,,,,,,,,,,
2025-10-12T1500,1697A,114.6944,23.7586,河源市,东埔,,18,12,24,11,14,57,,58,58,4,11,5,5,0.5,0.6
2025-10-12T1500,1698A,114.6892,23.7233,河源市,老城,,20,17,29,13,12,64,,66,66,3,8,6,6,0.4,0.5
2025-10-12T1500,1718A,115.4208,35.2464,菏泽市,气象局,,18,10,19,7,14,55,,54,54,9,10,3,5,0.4,0.4
2025-10-12T1500,3374A,115.5564,35.0891,菏泽市,定陶老年大学,,13,7,21,3,12,41,,41,41,17,15,6,6,0.5,0.4
2025-10-12T1500,4184A,115.4797,35.24401,菏泽市,永昌路1号,,17,,14,7,14,53,,53,53,9,8,2,3,0.2,0.1
2025-10-12T1500,4193A,115.4715,35.2800,菏泽市,长城路999号,,15,6,15,3,10,48,,48,48,15,16,6,7,0.4,0.4
2025-10-12T1500,2514A,111.5264,24.4172,贺州市,环保小区,,40,32,44,24,30,126,,102,102,5,14,15,16,0.5,0.7
2025-10-12T1500,2515A,111.5608,24.4078,贺州市,政协大楼,,36,16,40,15,28,114,,94,94,6,14,8,11,0.7,0.8
2025-10-12T1500,3534A,111.4744,24.4553,贺州市,西湾,,43,43,52,16,33,124,,116,116,5,13,11,12,0.5,0.6
2025-10-12T1500,2385A,114.17,35.9019,鹤壁市,市监测站,,19,13,21,13,16,60,,64,64,16,21,4,5,0.6,1.2
2025-10-12T1500,2386A,114.2956,35.7511,鹤壁市,市交警支队,,34,34,35,8,16,65,,56,56,17,30,2,4,0.5,1.2
2025-10-12T1500,2387A,114.2878,35.7306,鹤壁市,迎宾馆,,21,,24,12,20,67,,59,59,12,24,5,5,0.6,1.4
2025-10-12T1500,3474A,114.2617,35.6822,鹤壁市,大新区,,21,12,22,6,17,65,,60,60,11,19,3,4,0.6,1.2
2025-10-12T1500,3596A,114.1572,35.9603,鹤壁市,南山宾馆,,23,,23,16,16,58,,66,66,17,20,2,3,0.8,1.3
2025-10-12T1500,2244A,130.2537,47.3416,鹤岗市,哈啤分公司,,24,13,32,7,16,75,,69,69,1,13,10,12,0.5,0.6
2025-10-12T1500,2245A,130.2684,47.3086,鹤岗市,斯达机电,,24,19,34,16,18,74,,69,69,4,15,11,13,0.4,0.4
2025-10-12T1500,2246A,130.3114,47.3388,鹤岗市,东山纸板厂,,25,,69,13,27,78,,74,74,2,18,11,14,0.0,0.3
2025-10-12T1500,2247A,130.1097,47.3382,鹤岗市,五号水库,,,,,,,,,,,,,,,,
2025-10-12T1500,2263A,127.4833,50.2524,黑河市,交通局,,31,31,15,13,14,54,,56,56,13,8,4,4,0.4,0.4
2025-10-12T1500,2264A,127.5144,50.2341,黑河市,环保局,,27,27,16,7,11,51,,53,53,11,10,11,7,0.3,0.3
2025-10-12T1500,2265A,127.5291,50.2472,黑河市,大黑河岛,,,,,,,,,,,,,,,,
2025-10-12T1500,1074A,115.6838,37.7541,衡水市,电机北厂,细颗粒物(PM2.5),63,,34,45,30,10,,9,8,37,23,7,5,0.8,0.5
2025-10-12T1500,1075A,115.6303,37.7316,衡水市,市监测站,细颗粒物(PM2.5),60,55,37,43,25,10,,11,9,39,22,5,5,0.9,0.5
2025-10-12T1500,3188A,115.6683,37.7217,衡水市,市城管局,细颗粒物(PM2.5),62,45,32,44,30,14,,14,13,37,20,7,7,0.8,0.5
2025-10-12T1500,3459A,115.5989,37.5491,衡水市,地表水厂,,39,34,29,27,20,19,,13,13,32,30,4,4,0.7,0.4
2025-10-12T1500,2456A,112.5003,26.9167,衡阳市,原169医院,,,,,,,,,,,,,,,,
2025-10-12T1500,2457A,112.6194,26.9258,衡阳市,衡阳化工总厂,细颗粒物(PM2.5),67,64,98,48,78,162,,105,105,9,13,7,8,1.0,1
2025-10-12T1500,2458A,112.6211,26.8956,衡阳市,珠晖区环保局,细颗粒物(PM2.5),78,79,86,57,56,179,,113,113,14,17,9,9,1.2,1.2
2025-10-12T1500,2459A,112.6197,26.8733,衡阳市,市委党校,颗粒物(PM10),66,81,88,45,61,165,,107,107,5,10,9,9,0.8,0.8
2025-10-12T1500,2460A,112.6006,26.8919,衡阳市,市监测站,细颗粒物(PM2.5),87,78,79,64,60,165,,106,106,8,12,5,6,1.0,1
2025-10-12T1500,2461A,112.5664,26.9056,衡阳市,真空机电公司,颗粒物(PM10),75,100,75,48,72,172,,112,112,7,10,7,7,1.3,1.2
2025-10-12T1500,3399A,112.6703,26.882,衡阳市,师范学院,细颗粒物(PM2.5),82,87,92,60,62,171,,112,112,9,13,8,8,1.0,1
2025-10-12T1500,2608A,103.3772,23.3993,红河哈尼族彝族自治州,污水处理厂,,22,22,29,10,20,62,,61,61,5,6,10,10,0.2,0.2
2025-10-12T1500,2609A,103.3861,23.35,红河哈尼族彝族自治州,监测站,,24,24,30,9,16,60,,61,61,2,3,11,10,0.3,0.3
2025-10-12T1500,3038A,103.3758,23.368,红河哈尼族彝族自治州,州图书馆,,20,14,24,14,28,63,,64,64,3,4,2,2,0.2,0.3
2025-10-12T1500,1090A,111.6507,40.7517,呼和浩特市,呼市一监,,31,17,38,11,16,98,,57,57,7,31,10,8,0.3,0.5
2025-10-12T1500,1091A,111.6572,40.8033,呼和浩特市,小召,,36,34,35,25,21,82,,55,55,20,37,10,8,0.5,0.5
2025-10-12T1500,1094A,111.7516,40.8369,呼和浩特市,如意水处理厂,,33,33,32,14,13,89,,45,45,9,39,10,9,0.4,0.5
2025-10-12T1500,1095A,111.7276,40.8062,呼和浩特市,二十九中,,30,19,37,12,14,96,,56,56,7,27,9,8,0.4,0.7
2025-10-12T1500,1096A,111.5512,40.7866,呼和浩特市,工大金川校区,颗粒物(PM10),51,52,54,14,18,84,,42,42,17,42,9,6,0.3,0.3
2025-10-12T1500,1097A,111.717,40.7612,呼和浩特市,化肥厂生活区,,30,28,41,12,17,93,,54,54,11,37,7,7,0.3,0.6
2025-10-12T1500,3698A,111.5968,40.8178,呼和浩特市,红旗小学,,39,39,39,17,15,82,,45,45,19,43,13,7,0.3,0.3
2025-10-12T1500,3699A,111.6518,40.8389,呼和浩特市,海东办,,39,39,43,16,14,92,,56,56,14,35,12,7,0.7,0.6
2025-10-12T1500,2192A,119.7594,49.2261,呼伦贝尔市,区环保局,,21,21,24,10,14,67,,52,52,8,12,6,5,0.4,0.3
2025-10-12T1500,3061A,119.7512,49.1577,呼伦贝尔市,国华电力东,,27,27,24,12,12,64,,52,52,6,9,5,6,0.4,0.4
2025-10-12T1500,1250A,120.0751,30.8669,湖州市,城西水厂,臭氧1小时,107,78,128,54,90,214,,125,125,21,31,7,8,0.6,0.8
2025-10-12T1500,2873A,120.0830,30.8929,湖州市,仁皇山新区,臭氧1小时,80,69,129,44,89,184,,117,117,13,22,5,6,0.7,0.9
2025-10-12T1500,2907A,120.1844,30.8596,湖州市,吴兴区站,臭氧1小时,94,60,84,41,64,195,,126,126,13,19,6,7,0.9,1.1
2025-10-12T1500,3562A,120.4148,30.8538,湖州市,南浔区站,臭氧1小时,103,44,85,38,83,205,,139,139,10,16,7,8,0.7,0.9
2025-10-12T1500,1607A,120.9049,40.7211,葫芦岛市,龙港区,颗粒物(PM10),61,72,52,24,20,42,,53,46,35,28,12,10,0.5,0.6
2025-10-12T1500,1608A,120.8392,40.7514,葫芦岛市,化工街,,29,29,53,3,18,50,,49,49,18,31,8,13,0.3,0.5
2025-10-12T1500,1609A,120.8341,40.7073,葫芦岛市,新区,,26,26,37,6,15,54,,54,54,23,31,7,8,0.4,0.6
2025-10-12T1500,1610A,120.8695,40.7677,葫芦岛市,东城区,,29,29,46,6,20,61,,59,59,18,31,8,12,0.4,0.7
2025-10-12T1500,2482A,109.5981,27.5721,怀化市,林科所,,,,,,,,,,,,,,,,
2025-10-12T1500,2483A,109.9453,27.5444,怀化市,河西地税局,,41,41,42,20,31,97,,69,69,4,12,2,3,0.3,0.5
2025-10-12T1500,2484A,109.9781,27.5342,怀化市,市四医院,,45,38,50,31,36,117,,79,79,2,12,7,8,0.1,0.2
2025-10-12T1500,2485A,109.9972,27.5578,怀化市,监测楼,,43,43,50,23,34,109,,76,76,2,8,3,4,0.1,0.2
2025-10-12T1500,2486A,110.0394,27.583,怀化市,市委党校,,45,40,45,31,38,82,,54,54,4,12,7,10,0.3,0.4
2025-10-12T1500,1210A,119.036,33.5981,淮安市,钵池山,,20,,32,14,29,30,,24,24,14,25,5,5,0.9,1.2
2025-10-12T1500,1211A,119.007,33.575,淮安市,北京南路,,20,19,34,14,30,29,,24,24,14,23,7,7,0.9,1.2
2025-10-12T1500,1212A,118.989,33.6067,淮安市,市监测站,,19,19,39,12,31,33,,26,26,15,26,5,5,0.9,1.2
2025-10-12T1500,1213A,119.135,33.5039,淮安市,楚州区监测站,,,29,45,14,32,27,,28,27,,23,8,8,0.7,1
2025-10-12T1500,3426A,118.8755,33.2894,淮安市,新华书店,,12,9,38,8,22,17,,13,13,17,29,7,7,0.7,1
2025-10-12T1500,4206A,119.0288,33.6319,淮安市,承德北路606号,,23,19,44,16,32,29,,24,24,14,26,7,7,0.6,0.9
2025-10-12T1500,2282A,116.8004,33.975,淮北市,监测站,,17,17,30,3,15,3,,9,5,20,23,8,8,1.0,0.9
2025-10-12T1500,2283A,116.8091,33.9007,淮北市,烈山区政府,,12,,23,8,21,7,,12,9,20,23,7,8,1.1,1.1
2025-10-12T1500,3330A,116.8873,33.9836,淮北市,杜集区检察院,,19,,40,13,26,4,,7,5,18,21,2,2,0.8,0.8
2025-10-12T1500,4017A,116.7923,33.9535,淮北市,市博物馆,,16,16,30,8,20,4,,11,7,22,23,8,7,0.9,0.8
2025-10-12T1500,2277A,116.8305,32.7727,淮南市,潘集区政府,,,,57,,36,,,17,,,21,,6,,0.6
2025-10-12T1500,2279A,116.8569,32.5951,淮南市,谢家集区政府,颗粒物(PM10),58,65,53,38,28,97,,49,49,19,24,9,9,0.7,0.6
2025-10-12T1500,2280A,116.8281,32.633,淮南市,八公山区政府,颗粒物(PM10),59,67,63,41,33,98,,50,50,18,20,8,8,0.8,0.6
2025-10-12T1500,2281A,116.6325,32.6201,淮南市,焦岗湖风景区管理处,,,,,,,,,,,,,,,,
2025-10-12T1500,2894A,117.0566,32.6531,淮南市,经济技术开发区消防队,,33,33,49,23,30,99,,50,50,19,25,9,9,0.7,0.5
2025-10-12T1500,3329A,117.0108,32.5893,淮南市,山南新区,颗粒物(PM10),52,54,65,31,29,105,,53,53,23,27,5,5,0.6,0.5
2025-10-12T1500,4209A,117.0031,32.6445,淮南市,国庆中路369号,颗粒物(PM10),55,59,61,38,33,110,,50,50,21,26,9,8,0.8,0.7
2025-10-12T1500,2446A,114.9028,30.4742,黄冈市,职工中心,细颗粒物(PM2.5),68,61,40,49,27,103,,49,49,18,15,7,7,0.8,0.6
2025-10-12T1500,2929A,114.8858,30.4519,黄冈市,红卫路,颗粒物(PM10),58,65,40,40,24,110,,56,56,14,15,5,5,0.9,0.6
2025-10-12T1500,3398A,114.9136,30.4445,黄冈市,市林业局,颗粒物(PM10),62,73,41,42,24,110,,55,55,13,14,5,4,0.8,0.6
2025-10-12T1500,2672A,102.0199,35.5102,黄南藏族自治州,同仁县隆务镇,,25,15,26,3,8,79,,64,64,10,11,11,10,0.3,0.4
2025-10-12T1500,2295A,118.2903,29.6963,黄山市,延安路89号,,48,48,42,3,18,142,,116,116,4,9,7,5,0.5,0.5
2025-10-12T1500,2297A,118.1371,30.2756,黄山市,黄山区政府5号楼,,38,,63,24,46,120,,78,78,4,7,5,5,0.8,1.1
2025-10-12T1500,4210A,118.3354,29.7203,黄山市,滨江东路7-2号,,43,35,43,13,16,136,,110,110,4,10,4,3,0.4,0.6
2025-10-12T1500,2423A,115.0601,30.2313,黄石市,沈家营,颗粒物(PM10),85,119,69,56,33,145,,59,59,15,16,12,12,0.9,0.9
2025-10-12T1500,2426A,114.8988,30.2019,黄石市,铁山,细颗粒物(PM2.5),75,76,58,55,34,128,,62,62,19,21,6,6,0.4,0.4
2025-10-12T1500,2427A,115.0307,30.2092,黄石市,团城山,颗粒物(PM10),74,98,59,46,29,137,,57,57,16,18,14,18,1.2,1.1
2025-10-12T1500,3149A,115.0235,30.1578,黄石市,笔架山北路,细颗粒物(PM2.5),58,52,46,41,29,151,,72,72,7,10,6,8,0.3,0.4
2025-10-12T1500,4185A,115.0780,30.21118,黄石市,磁湖东路29号,"颗粒物(PM10),细颗粒物(PM2.5)",80,109,68,59,36,142,,56,56,19,17,11,12,1.0,1
2025-10-12T1500,1392A,114.4183,23.0528,惠州市,河南岸金山湖子站,,21,12,24,6,10,65,,52,52,5,10,9,9,0.6,0.6
2025-10-12T1500,1393A,114.4053,23.0822,惠州市,下埔横江三路子站,,24,19,30,8,13,74,,59,59,6,8,8,9,0.8,0.8
2025-10-12T1500,1394A,114.4103,23.1142,惠州市,江北云山西路子站,,25,13,25,9,11,80,,63,63,8,12,5,7,0.6,0.6
2025-10-12T1500,1395A,114.4645,22.7833,惠州市,惠阳区承修路船湖子站,,23,14,24,6,11,71,,52,52,7,12,7,8,0.5,0.6
2025-10-12T1500,1396A,114.5317,22.7422,惠州市,大亚湾管委会子站,,20,13,20,7,9,64,,60,60,9,10,11,10,0.5,0.5
2025-10-12T1500,3314A,114.4338,22.8134,惠州市,惠阳秋长,,24,17,21,9,11,75,,60,60,5,9,12,13,0.6,0.6
2025-10-12T1500,3452A,114.6517,22.775,惠州市,大亚湾霞涌,,23,23,18,7,9,65,,61,61,3,7,6,6,0.6,0.7
2025-10-12T1500,2240A,130.9762,45.3001,鸡西市,环保局,,22,20,22,3,11,69,,66,66,7,11,6,7,0.5,0.6
2025-10-12T1500,2243A,130.9429,45.3039,鸡西市,第一中学,,24,24,23,3,9,66,,63,63,6,7,8,7,0.5,0.5
2025-10-12T1500,3707A,131.0207,45.3073,鸡西市,欧美日汽修厂,,24,24,28,9,13,62,,63,63,10,15,7,9,0.5,0.6
2025-10-12T1500,3709A,130.9967,45.3106,鸡西市,市政设施管理处,,,,28,4,10,70,,67,67,8,16,,8,0.7,0.7
2025-10-12T1500,2367A,114.9754,27.0803,吉安市,红声器材厂,,32,25,47,3,24,101,,87,87,2,10,9,11,0.5,0.6
2025-10-12T1500,2368A,114.9658,27.0999,吉安市,市森林工业局,,33,24,48,9,29,105,,92,92,4,15,8,10,0.4,0.5
2025-10-12T1500,2369A,114.99,27.1312,吉安市,市环境监测站,,32,27,45,15,27,100,,89,89,1,8,8,11,0.4,0.6
2025-10-12T1500,2370A,115.0093,27.0968,吉安市,青原区法院,,32,24,46,10,29,102,,88,88,4,14,9,12,0.6,0.8
2025-10-12T1500,1772A,126.54,43.8622,吉林市,哈达湾,,25,25,34,14,18,71,,56,56,8,20,6,8,0.2,0.5
2025-10-12T1500,1773A,126.5844,43.8358,吉林市,东局子,,21,21,30,7,18,65,,54,54,10,15,5,6,0.4,0.5
2025-10-12T1500,1774A,126.5052,43.8245,吉林市,电力学院,,43,,39,30,27,66,,49,49,9,20,6,9,0.6,0.6
2025-10-12T1500,1775A,126.6133,43.8972,吉林市,江北,,24,24,43,8,22,68,,54,54,4,14,4,4,0.2,0.4
2025-10-12T1500,1776A,126.555,43.8306,吉林市,江南公园,,21,21,35,13,16,64,,52,52,10,17,4,6,0.3,0.5
2025-10-12T1500,1778A,126.7061,43.7133,吉林市,丰满,,27,,21,13,18,86,,75,75,9,10,8,8,0.4,0.6
2025-10-12T1500,2868A,126.4739,43.953,吉林市,九站,细颗粒物(PM2.5),60,,46,43,26,64,,50,50,11,27,10,17,0.4,0.5
2025-10-12T1500,1299A,116.9862,36.6114,济南市,科干所,,15,,11,10,12,45,,37,27,26,28,7,7,0.5,0.6
2025-10-12T1500,1300A,116.9376,36.665,济南市,农科所,,15,,14,7,11,48,,31,24,28,28,6,6,0.4,0.6
2025-10-12T1500,1301A,117.1265,36.6734,济南市,开发区,,19,,14,10,15,60,,39,28,22,27,3,3,0.6,0.7
2025-10-12T1500,1303A,117.0624,36.6868,济南市,省种子仓库,,20,9,18,7,14,64,,39,33,21,26,5,5,0.7,0.8
2025-10-12T1500,1304A,116.9489,36.6447,济南市,机床二厂,,16,12,20,7,18,49,,38,28,26,27,6,6,0.6,0.7
2025-10-12T1500,1305A,117.0495,36.663,济南市,市监测站,,18,7,14,3,16,57,,39,27,24,28,2,2,0.8,0.9
2025-10-12T1500,1306A,116.7675,36.5484,济南市,长清党校,,25,,19,17,13,27,,33,26,39,31,5,6,0.8,0.8
2025-10-12T1500,1616A,117.6795,36.229,济南市,技术学院,,14,,3,7,7,36,,29,27,27,24,8,8,0.7,0.7
2025-10-12T1500,1961A,117.532,36.6868,济南市,东山小学,,21,7,17,3,14,67,,39,26,17,25,6,6,0.3,0.6
2025-10-12T1500,3059A,117.7161,36.2049,济南市,泰兴公司,,12,12,9,3,7,38,,28,25,24,22,9,9,0.4,0.5
2025-10-12T1500,3064A,117.6867,36.2171,济南市,莱芜战役纪念馆,,16,,9,11,8,32,,26,24,31,27,7,7,0.6,0.6
2025-10-12T1500,3494A,117.1673,36.9782,济南市,济阳区政府,,23,7,18,3,11,73,,48,48,10,20,9,9,0.2,0.3
2025-10-12T1500,3495A,117.1171,36.63,济南市,锦屏中学,,15,6,7,3,5,46,,40,33,28,26,5,5,1.0,1.1
2025-10-12T1500,3682A,116.9814,36.6819,济南市,济南四建,,17,9,12,7,15,52,,33,23,23,25,4,4,0.6,0.8
2025-10-12T1500,1653A,116.6251,35.4302,济宁市,火炬城,,10,9,23,3,15,13,,10,10,19,17,6,6,0.6,0.6
2025-10-12T1500,1655A,116.5491,35.4042,济宁市,电化厂,,18,18,27,12,20,16,,13,12,28,25,2,3,0.5,0.5
2025-10-12T1500,3500A,116.5814,35.3707,济宁市,北湖一中,,25,22,26,17,18,12,,8,8,23,30,1,8,0.5,0.6
2025-10-12T1500,3501A,116.8249,35.5593,济宁市,服务中心,,13,13,19,3,6,18,,14,14,18,18,5,6,0.7,0.6
2025-10-12T1500,3678A,116.5907,35.4054,济宁市,市第七中学,,11,11,25,3,10,14,,11,11,21,18,7,8,0.6,0.6
2025-10-12T1500,2255A,130.2751,46.8028,佳木斯市,佳纺,,17,14,70,3,27,54,,47,47,5,26,3,5,0.2,0.4
2025-10-12T1500,2256A,130.3995,46.8307,佳木斯市,发电厂,,31,31,53,3,19,62,,55,55,5,27,5,6,0.5,0.6
2025-10-12T1500,2257A,130.3258,46.7975,佳木斯市,环保局,,19,12,55,3,25,58,,50,50,4,28,3,6,0.3,0.5
2025-10-12T1500,2258A,130.3648,46.8032,佳木斯市,十一中,,19,13,58,8,30,58,,52,52,3,25,4,7,0.4,0.6
2025-10-12T1500,2259A,130.3794,46.7588,佳木斯市,四丰,,,,,,,,,,,,,,,,
2025-10-12T1500,1252A,120.7436,30.778,嘉兴市,清河小学,臭氧1小时,99,42,74,23,44,199,,145,145,16,26,7,8,0.7,0.9
2025-10-12T1500,1253A,120.726,30.7478,嘉兴市,嘉兴学院,臭氧1小时,106,38,82,21,51,211,,152,152,13,22,5,6,0.9,0.9
2025-10-12T1500,2872A,120.7846,30.7525,嘉兴市,南湖区残联,臭氧1小时,119,36,79,25,51,237,,176,176,14,21,6,7,1.0,1
2025-10-12T1500,3407A,120.6916,30.7739,嘉兴市,秀洲住建,臭氧1小时,114,44,77,29,49,227,,155,155,9,25,8,8,0.8,1
2025-10-12T1500,1945A,98.2908,39.7711,嘉峪关市,气象局,,39,39,50,7,16,115,,78,78,2,18,4,14,0.2,0.4
2025-10-12T1500,2884A,98.2672,39.7978,嘉峪关市,酒钢宾馆,,44,44,63,14,16,110,,77,77,1,12,12,19,0.5,0.6
2025-10-12T1500,3248A,98.2643,39.7724,嘉峪关市,雄关区,,43,43,48,8,19,109,,76,76,8,20,12,16,0.5,0.3
2025-10-12T1500,1383A,113.1064,22.6058,江门市,北街,,,,32,1,16,54,,52,52,8,18,4,5,0.4,0.5
2025-10-12T1500,1384A,113.0731,22.5835,江门市,西区,,17,,33,9,16,52,,50,50,9,19,4,4,0.5,0.6
2025-10-12T1500,1385A,113.0219,22.5311,江门市,圭峰西,,47,47,29,3,16,55,,58,58,6,14,4,5,0.3,0.5
2025-10-12T1500,1386A,113.0828,22.5947,江门市,东湖,,16,12,28,10,16,50,,49,49,9,19,2,3,0.4,0.6
2025-10-12T1500,3311A,113.1075,22.5647,江门市,江海富民,,26,26,41,17,15,60,,56,56,14,22,6,7,0.5,0.6
2025-10-12T1500,3449A,113.05,22.4667,江门市,新会银湖,,30,30,24,8,15,38,,44,44,10,16,3,3,0.4,0.5
2025-10-12T1500,1830A,113.1992,35.2590,焦作市,影视城,,,,24,,16,,,25,,,15,,9,,0.7
2025-10-12T1500,3335A,113.3137,35.2641,焦作市,马村街道办,,17,16,44,3,23,53,,32,32,10,19,4,5,0.4,0.6
2025-10-12T1500,3336A,113.2465,35.2373,焦作市,焦作技师学院,,18,6,39,3,22,57,,33,33,11,25,7,8,0.5,0.8
2025-10-12T1500,3477A,113.1656,35.2539,焦作市,中站许衡医院,,28,,41,19,31,47,,27,27,15,23,5,5,0.6,0.8
2025-10-12T1500,3981A,113.2449,35.1803,焦作市,原李万街道办,,25,25,50,3,20,54,,29,29,12,23,6,8,0.5,0.8
2025-10-12T1500,4264A,113.2340,35.2190,焦作市,新安路1731号,,24,24,45,3,29,58,,32,32,9,23,4,5,0.6,0.8
2025-10-12T1500,4295A,113.2722,35.2121,焦作市,人民路3066号,,19,18,41,3,16,58,,32,32,9,23,4,5,0.4,0.7
2025-10-12T1500,1708A,116.3701,23.5345,揭阳市,新兴,,30,26,37,20,18,95,,90,90,8,15,5,9,0.6,0.6
2025-10-12T1500,1709A,116.3264,23.5443,揭阳市,西马,,33,33,39,18,17,104,,87,87,5,12,3,6,0.7,0.7
2025-10-12T1500,1710A,116.3611,23.5626,揭阳市,东兴,,33,24,32,16,15,103,,88,88,6,12,6,9,0.5,0.6
2025-10-12T1500,1711A,116.4151,23.5294,揭阳市,渔湖,,32,32,41,10,16,101,,89,89,6,14,5,7,0.8,0.8
2025-10-12T1500,3320A,116.403,23.5699,揭阳市,曲溪,,35,23,34,15,17,110,,93,93,4,11,2,3,0.6,0.7
2025-10-12T1500,1944A,102.1692,38.5167,金昌市,天庆家园,,32,29,29,11,12,101,,70,70,3,13,4,8,0.7,0.8
2025-10-12T1500,4022A,102.1647,38.5371,金昌市,金川区人防中心,,34,34,29,12,12,90,,64,64,3,12,4,8,0.1,0.6
2025-10-12T1500,4239A,102.1930,38.5319,金昌市,长春路96号,,28,26,22,10,11,87,,60,60,2,12,4,10,0.4,0.5
2025-10-12T1500,1262A,119.647,29.077,金华市,十五中,,45,27,55,13,30,143,,130,130,7,28,2,3,0.5,0.7
2025-10-12T1500,1263A,119.686,29.1029,金华市,监测站,,50,31,61,16,33,159,,144,144,8,42,5,6,0.5,0.7
2025-10-12T1500,3659A,119.656,29.1131,金华市,气象局,,43,25,60,17,36,137,,126,126,8,41,4,5,0.4,0.5
2025-10-12T1500,1767A,121.1115,41.0879,锦州市,南山,,38,38,39,8,21,61,,54,54,18,27,7,9,0.6,0.6
2025-10-12T1500,1768A,121.0604,40.8428,锦州市,开发区,,33,33,71,11,25,53,,48,48,22,44,8,21,0.5,0.8
2025-10-12T1500,1769A,121.1836,41.1119,锦州市,百股街道,,49,49,38,9,18,65,,58,58,20,24,12,10,0.7,0.6
2025-10-12T1500,1770A,121.1178,41.1222,锦州市,天安街道,颗粒物(PM10),54,58,47,9,24,65,,56,56,18,30,9,11,0.5,0.7
2025-10-12T1500,1771A,121.1303,41.1386,锦州市,北湖公园,,34,34,40,7,16,64,,56,56,12,21,7,9,0.5,0.6
2025-10-12T1500,2160A,112.85,35.5051,晋城市,自来水公司,,26,26,25,3,10,49,,44,44,17,20,3,4,0.8,1.1
2025-10-12T1500,2161A,112.8318,35.4936,晋城市,白云商贸,,,24,33,,2,50,,46,46,18,22,2,2,0.6,0.9
2025-10-12T1500,2162A,112.8508,35.4887,晋城市,市环保局,,19,19,18,3,8,47,,44,44,16,20,4,4,0.6,0.9
2025-10-12T1500,2163A,112.8676,35.4897,晋城市,技术学院,,14,14,18,3,4,42,,40,40,18,20,4,4,0.9,1.1
2025-10-12T1500,2165A,112.8453,35.546,晋城市,白马寺,,,,,,,,,,,,,,,,
2025-10-12T1500,3620A,112.8271,35.4828,晋城市,泽州一中,,18,11,17,3,4,55,,53,53,12,17,2,2,0.8,1
2025-10-12T1500,2173A,112.7249,37.7067,晋中市,南都小区,,22,18,45,13,29,70,,39,39,15,31,5,6,0.4,0.9
2025-10-12T1500,2174A,112.6991,37.6982,晋中市,榆次区政府,,21,14,42,11,36,67,,37,37,15,27,6,7,0.5,1.2
2025-10-12T1500,2865A,112.7195,37.6828,晋中市,榆次三中,,21,9,41,3,26,65,,37,37,12,27,7,8,0.5,1.1
2025-10-12T1500,4200A,112.7478,37.6954,晋中市,迎宾街26号,,22,17,35,3,22,69,,38,38,14,27,5,5,0.4,0.8
2025-10-12T1500,2439A,112.2014,31.0481,荆门市,竹园小学,,42,42,45,22,24,48,,41,41,18,17,1,1,0.2,0.2
2025-10-12T1500,2440A,112.1969,30.9891,荆门市,掇刀,,42,40,44,29,24,47,,41,41,13,11,1,2,0.4,0.5
2025-10-12T1500,2441A,112.2213,31.0386,荆门市,石化一小,,39,36,45,27,27,40,,32,32,17,15,1,5,0.9,0.9
2025-10-12T1500,3012A,112.1849,31.0362,荆门市,西山林语,,38,38,41,21,20,48,,41,41,13,12,2,3,0.7,0.7
2025-10-12T1500,3547A,112.1632,31.0138,荆门市,龙泉中学南校,,32,27,29,22,17,49,,41,41,14,14,4,4,0.5,0.8
2025-10-12T1500,1844A,112.2494,30.3197,荆州市,市图书馆,颗粒物(PM10),51,52,37,30,19,54,,41,41,17,16,4,6,0.7,0.6
2025-10-12T1500,1845A,112.2008,30.3544,荆州市,市委党校,颗粒物(PM10),53,55,44,28,22,49,,40,40,15,16,7,8,0.6,0.6
2025-10-12T1500,3194A,112.2747,30.3122,荆州市,管委会,细颗粒物(PM2.5),54,54,37,38,23,48,,38,38,16,14,8,8,0.8,0.6
2025-10-12T1500,4268A,112.1722,30.3366,荆州市,学苑路85号,细颗粒物(PM2.5),67,,39,48,32,53,,45,45,14,14,1,1,0.8,0.7
2025-10-12T1500,2342A,117.3102,29.3867,景德镇市,王港中学,,,,,,,,,,,,,,,,
2025-10-12T1500,2343A,117.2117,29.2933,景德镇市,老干部活动中心,,40,37,45,28,32,119,,96,96,2,7,6,5,0.5,0.6
2025-10-12T1500,2344A,117.1894,29.2789,景德镇市,兽医站,,48,48,47,29,30,131,,115,115,5,12,9,8,0.7,0.9
2025-10-12T1500,2346A,117.2461,29.2956,景德镇市,陶研所,细颗粒物(PM2.5),114,,49,86,38,138,,109,109,20,14,12,7,1.1,0.9
2025-10-12T1500,4289A,117.1542,29.2566,景德镇市,青少年活动中心,,42,36,49,29,37,124,,109,109,8,19,12,14,0.4,0.7
2025-10-12T1500,1803A,115.9872,29.6815,九江市,十里,,45,39,61,27,47,141,,64,64,16,18,6,5,1.2,1.2
2025-10-12T1500,1804A,115.9584,29.7046,九江市,茅山头,,44,44,59,24,46,134,,57,57,16,15,4,4,1.1,1
2025-10-12T1500,1805A,115.9877,29.7295,九江市,西园,,44,26,46,25,36,140,,67,67,21,25,5,4,1.1,1
2025-10-12T1500,1808A,115.9114,29.6038,九江市,综合工业园,,49,37,63,34,42,126,,60,60,23,23,7,6,1.1,1.1
2025-10-12T1500,1809A,116.0721,29.7535,九江市,石化总厂,,40,40,55,26,48,118,,59,59,18,22,4,3,1.0,0.9
2025-10-12T1500,1810A,115.9773,29.5698,九江市,庐山气象台,,,,,,,,,,,,,,,,
2025-10-12T1500,3190A,116.0254,29.6994,九江市,外国语学校,,40,29,54,22,44,127,,57,57,21,21,8,7,1.0,0.9
2025-10-12T1500,4253A,116.0102,29.6594,九江市,莲花大道8号,,38,37,62,23,38,120,,56,56,9,10,8,5,1.0,0.9
2025-10-12T1500,4240A,98.4958,39.7339,酒泉市,玉门东路5号,颗粒物(PM10),51,51,54,10,15,106,,72,72,4,12,18,12,0.2,0.3
2025-10-12T1500,4241A,98.5099,39.7506,酒泉市,北大街108号,,48,48,48,10,13,105,,72,72,2,7,20,12,0.3,0.3
2025-10-12T1500,2698A,76.0072,39.4467,喀什地区,巡警大队,颗粒物(PM10),71,91,170,34,55,100,,35,35,12,51,4,6,0.3,0.7
2025-10-12T1500,2699A,75.9755,39.4694,喀什地区,吾办,颗粒物(PM10),67,83,123,26,44,100,,50,50,8,35,6,6,0.3,0.6
2025-10-12T1500,4027A,75.9483,39.4689,喀什地区,老干局,颗粒物(PM10),65,79,112,19,32,101,,50,50,12,35,2,2,0.3,0.5
2025-10-12T1500,1824A,114.3389,34.7781,开封市,肿瘤医院,,18,6,19,3,14,55,,52,52,14,17,5,6,0.7,0.8
2025-10-12T1500,1826A,114.2885,34.7965,开封市,世纪星幼儿园,,18,7,19,3,13,55,,53,53,15,16,5,6,0.7,0.8
2025-10-12T1500,3147A,114.3438,34.8106,开封市,龙亭公园,,16,7,21,3,10,51,,48,48,14,16,7,8,0.9,1
2025-10-12T1500,3210A,114.3644,34.7964,开封市,汴京公园,,16,7,21,3,12,51,,50,50,15,17,7,7,0.5,0.5
2025-10-12T1500,3473A,114.2485,34.8306,开封市,技师学院,,16,7,18,3,13,50,,49,49,17,18,7,8,0.9,0.9
2025-10-12T1500,3592A,114.4644,34.7556,开封市,祥符区生态环境局,,16,6,18,3,13,49,,46,46,14,15,6,5,0.6,0.6
2025-10-12T1500,1951A,84.895,45.6094,克拉玛依市,长征新村,,34,34,38,10,16,75,,56,53,13,22,4,3,0.2,0.4
2025-10-12T1500,1952A,84.8988,45.5893,克拉玛依市,南林小区,,33,33,42,11,14,69,,41,41,12,27,6,6,0.3,0.6
2025-10-12T1500,1954A,84.905,44.3396,克拉玛依市,独山子区,颗粒物(PM10),77,103,101,24,32,93,,69,69,14,21,9,7,0.5,0.5
2025-10-12T1500,1955A,85.6979,46.098,克拉玛依市,乌尔禾区商贸楼,,27,27,28,3,6,83,,42,,9,18,6,5,0.2,0.2
2025-10-12T1500,3612A,85.1045,45.6899,克拉玛依市,白碱滩区新站,,31,31,41,9,10,88,,73,72,8,8,6,6,0.3,0.3
2025-10-12T1500,2697A,76.1454,39.7142,克孜勒苏柯尔克孜自治州,市人民政府,颗粒物(PM10),61,71,69,26,23,106,,83,83,9,15,6,7,0.1,0.2
2025-10-12T1500,3665A,76.1658,39.7157,克孜勒苏柯尔克孜自治州,克州文化中心,颗粒物(PM10),56,61,71,24,23,102,,81,81,7,17,8,9,0.3,0.3
2025-10-12T1500,1450A,102.8204,24.8886,昆明市,呈贡新区,,22,12,16,6,14,70,,54,54,5,15,1,7,0.2,0.3
2025-10-12T1500,1451A,102.6251,24.9608,昆明市,西山森林公园,,,,,,,,,,,,,,,,
2025-10-12T1500,1452A,102.7252,25.0902,昆明市,龙泉镇,,20,6,21,3,10,64,,47,47,6,18,3,3,0.3,0.4
2025-10-12T1500,1453A,102.7266,25.0375,昆明市,东风东路,,24,11,23,10,13,75,,52,52,6,11,5,5,0.4,0.4
2025-10-12T1500,1454A,102.6742,25.0669,昆明市,金鼎山,,20,13,24,3,9,64,,50,50,9,16,2,3,0.3,0.4
2025-10-12T1500,1455A,102.6644,25.0401,昆明市,碧鸡广场,,20,8,25,3,11,64,,47,47,6,19,10,9,0.3,0.4
2025-10-12T1500,3179A,102.7494,25.0119,昆明市,官渡区博物馆,,23,16,20,13,9,73,,51,51,9,16,3,3,0.4,0.5
2025-10-12T1500,3375A,102.8017,24.8336,昆明市,青年创业园,,22,8,21,8,9,69,,52,52,2,14,2,5,0.3,0.4
2025-10-12T1500,3550A,102.7997,24.9786,昆明市,昆明学院,,22,10,18,3,11,70,,51,51,5,10,8,8,0.3,0.4
2025-10-12T1500,3551A,102.5967,24.6736,昆明市,晋宁区生态环境分局,,20,15,19,3,11,64,,48,48,2,10,4,4,0.3,0.4
2025-10-12T1500,3552A,102.6678,24.9856,昆明市,云天化总部,,23,8,18,3,11,71,,52,52,7,15,6,6,0.3,0.5
2025-10-12T1500,1456A,91.1319,29.6514,拉萨市,八廓街,,,6,10,,6,128,,95,95,3,6,5,6,0.1,0.2
2025-10-12T1500,1457A,91.1221,29.6747,拉萨市,市环保局,,41,8,12,6,7,131,,93,93,7,9,8,8,0.3,0.3
2025-10-12T1500,1458A,91.0874,29.6475,拉萨市,区监测站,,40,7,9,3,6,126,,92,82,5,14,4,4,0.2,0.2
2025-10-12T1500,1459A,91.1774,29.6541,拉萨市,西藏大学,,40,7,8,3,6,127,,96,96,6,10,6,7,0.2,0.2
2025-10-12T1500,1460A,90.9798,29.6588,拉萨市,区辐射站,,35,10,14,6,10,110,,76,76,11,19,5,6,0.3,0.3
2025-10-12T1500,1461A,91.0834,29.6292,拉萨市,拉萨火车站,,38,10,14,6,7,121,,88,76,5,13,5,6,0.1,0.2
2025-10-12T1500,2520A,109.2203,23.7256,来宾市,来宾技工学校,,34,28,45,16,24,107,,74,74,3,15,7,10,0.5,0.6
2025-10-12T1500,3535A,109.1781,23.7297,来宾市,兴宾区政府,,34,20,39,14,23,108,,75,75,4,10,7,7,0.6,0.6
2025-10-12T1500,4002A,109.2416,23.7461,来宾市,中南小学,,32,28,42,15,24,100,,71,71,4,16,5,7,0.5,0.6
2025-10-12T1500,1477A,104.1373,35.9454,兰州市,榆中兰大校区,,,,,,,,,,,,,,,,
2025-10-12T1500,1479A,103.831,36.0464,兰州市,铁路设计院,,,,,,,,,,,,,,,,
2025-10-12T1500,3241A,103.7439,36.0842,兰州市,百合公园,,26,26,33,12,18,76,,46,46,16,22,7,6,0.4,0.5
2025-10-12T1500,3242A,103.9611,35.998,兰州市,和平,,24,19,23,9,12,75,,64,64,8,12,3,4,0.4,0.5
2025-10-12T1500,4236A,103.6293,36.0938,兰州市,庄浪东路808号,,30,29,36,18,27,95,,63,63,15,35,11,11,0.3,0.5
2025-10-12T1500,4237A,103.7251,36.1043,兰州市,安宁西路88号,,43,34,36,30,31,86,,68,68,13,22,5,5,0.4,0.5
2025-10-12T1500,4238A,103.8470,36.0676,兰州市,北滨河东路1号,,27,23,26,15,23,86,,47,47,20,27,8,8,0.5,0.6
2025-10-12T1500,3245A,103.6633,36.533,兰州新区,新区管委会,,32,24,21,18,17,100,,71,71,9,14,9,8,0.3,0.5
2025-10-12T1500,3246A,103.6975,36.4789,兰州新区,舟曲中学,,30,15,18,12,14,94,,72,72,10,15,18,15,0.3,0.4
2025-10-12T1500,1067A,116.6708,39.5111,廊坊市,药材公司,,44,44,36,22,18,17,,12,12,38,32,8,7,0.8,0.6
2025-10-12T1500,1068A,116.7214,39.5589,廊坊市,开发区,,,48,30,13,13,16,,8,8,33,27,4,2,,0.5
2025-10-12T1500,1070A,116.7244,39.5269,廊坊市,北华航天学院,颗粒物(PM10),52,54,32,9,17,40,,16,16,21,28,9,7,0.5,0.5
2025-10-12T1500,2919A,116.7022,39.5453,廊坊市,河北工业大学,,44,44,26,16,17,19,,9,9,35,29,4,3,0.6,0.5
2025-10-12T1500,2535A,103.7723,29.5462,乐山市,花湖湾,,,,,,,,,,,,,,,,
2025-10-12T1500,2536A,103.7627,29.5844,乐山市,牛耳桥,,14,6,11,3,6,44,,33,33,11,17,6,7,0.7,0.6
2025-10-12T1500,2537A,103.7508,29.6006,乐山市,市第三水厂,,15,7,14,3,5,45,,34,34,9,16,5,6,0.6,0.6
2025-10-12T1500,2538A,103.7571,29.5664,乐山市,市监测站,,14,7,11,3,7,44,,33,33,7,12,4,6,0.9,0.9
2025-10-12T1500,3361A,103.7311,29.5628,乐山市,理工大学,,14,6,9,3,6,42,,33,33,10,14,5,6,0.8,0.7
2025-10-12T1500,2598A,100.2143,26.8576,丽江市,西南郊,,18,6,9,3,3,57,,54,54,1,3,7,7,0.8,0.8
2025-10-12T1500,2599A,100.2497,26.8802,丽江市,丽江古城,,17,15,16,3,5,52,,51,51,9,11,10,9,0.4,0.5
2025-10-12T1500,2600A,100.2203,26.8906,丽江市,市中心,,19,18,9,9,7,58,,54,54,7,10,9,9,0.5,0.5
2025-10-12T1500,1267A,119.914,28.4514,丽水市,监测站大楼,,29,26,30,13,18,90,,79,79,6,15,4,6,0.3,0.4
2025-10-12T1500,1268A,119.93,28.4586,丽水市,莲都小学,,29,23,32,6,13,92,,81,81,4,16,4,4,0.3,0.4
2025-10-12T1500,1269A,119.879,28.4231,丽水市,余庄前,,29,15,31,9,21,91,,85,85,4,14,5,5,0.3,0.4
2025-10-12T1500,1173A,119.176,34.5885,连云港市,市环境监测站,,12,7,19,3,14,35,,32,32,24,21,6,6,0.7,0.9
2025-10-12T1500,3000A,119.3581,34.6972,连云港市,德源药业,,15,9,15,3,7,29,,32,30,30,22,6,6,0.7,0.8
2025-10-12T1500,3007A,119.178,34.844,连云港市,新城一中,,26,26,33,14,17,10,,29,29,46,31,6,5,2.0,1.3
2025-10-12T1500,3008A,119.3608,34.7519,连云港市,胡沟管理处,,,0,11,,9,66,,51,51,7,14,5,6,0.7,1
2025-10-12T1500,3009A,119.1478,34.5911,连云港市,矿山设计院,,13,7,19,3,16,41,,35,35,17,18,6,6,0.7,1
2025-10-12T1500,3434A,119.2413,34.6539,连云港市,工贸学校,,14,6,18,3,10,42,,38,38,20,19,7,7,0.8,1
2025-10-12T1500,3664A,119.4172,34.7341,连云港市,连云街道,,19,6,16,3,9,58,,42,42,15,23,1,1,0.5,0.7
2025-10-12T1500,2571A,102.3431,27.8099,凉山彝族自治州,青龙寺,,,,,,,,,,,,,,,,
2025-10-12T1500,2572A,102.2721,27.8415,凉山彝族自治州,邛海宾馆,,30,30,20,13,11,71,,52,52,4,8,14,16,0.4,0.5
2025-10-12T1500,2573A,102.2625,27.898,凉山彝族自治州,西昌市政府,,20,16,19,7,12,64,,51,51,7,11,15,18,0.3,0.6
2025-10-12T1500,2574A,102.2685,27.8851,凉山彝族自治州,凉山州政府,,21,19,23,13,14,65,,52,52,4,8,17,17,0.6,0.8
2025-10-12T1500,4229A,102.2342,27.8859,凉山彝族自治州,凯乐南路30号,,23,18,20,9,10,72,,55,55,6,7,13,12,0.6,0.6
2025-10-12T1500,2212A,123.2,41.1953,辽阳市,宏伟区,颗粒物(PM10),54,57,72,34,42,28,,13,13,41,33,11,6,0.8,0.8
2025-10-12T1500,2213A,123.1683,41.2495,辽阳市,新华园,颗粒物(PM10),53,56,81,32,51,40,,22,22,40,39,15,9,0.6,0.8
2025-10-12T1500,2214A,123.2354,41.2639,辽阳市,滨河路,颗粒物(PM10),66,81,93,34,54,37,,18,18,37,34,11,7,0.7,0.8
2025-10-12T1500,2215A,123.149,41.2991,辽阳市,铁西工业园,颗粒物(PM10),53,55,75,26,38,36,,18,18,34,32,8,7,0.7,1
2025-10-12T1500,2227A,125.1358,42.8845,辽源市,环保局,,42,42,76,12,35,65,,52,52,18,25,6,6,0.3,0.7
2025-10-12T1500,3239A,125.0764,42.9078,辽源市,银鹰制药,,32,32,60,13,35,65,,52,52,12,22,6,5,0.4,0.7
2025-10-12T1500,1625A,115.9848,36.4372,聊城市,区政府,,14,,14,3,12,42,,55,48,23,21,8,9,0.6,0.6
2025-10-12T1500,2878A,116.0072,36.4343,聊城市,聊大东校,,16,,15,11,14,45,,61,54,22,18,10,10,0.5,0.5
2025-10-12T1500,3200A,115.9819,36.4978,聊城市,监控中心,,16,6,12,3,10,51,,59,51,25,25,7,8,0.6,0.5
2025-10-12T1500,3513A,116.0445,36.4361,聊城市,九州社区,,13,13,20,6,10,39,,58,49,23,16,4,3,0.5,0.4
2025-10-12T1500,4018A,116.0567,36.4608,聊城市,星美广场,,14,14,19,3,9,31,,48,39,23,16,5,6,0.6,0.5
2025-10-12T1500,2632A,94.3681,29.6376,林芝市,林芝监测站,,28,6,7,3,4,89,,59,59,2,2,5,5,0.2,0.2
2025-10-12T1500,2633A,94.3616,29.6616,林芝市,林芝人民医院,,25,12,9,3,5,79,,53,53,3,3,7,6,0.3,0.3
2025-10-12T1500,2603A,100.0781,23.8982,临沧市,市环保局,,21,21,19,3,9,53,,40,40,4,7,10,7,0.4,0.6
2025-10-12T1500,2604A,100.0894,23.8822,临沧市,市气象局,,19,11,16,10,15,58,,42,42,5,8,6,8,0.4,0.5
2025-10-12T1500,1733A,111.5531,36.0783,临汾市,临钢医院,,32,32,24,16,15,48,,26,26,16,24,9,7,0.9,1.3
2025-10-12T1500,1734A,111.5028,36.0714,临汾市,技工学校,,46,,21,32,23,47,,26,26,19,28,8,7,0.8,1.2
2025-10-12T1500,1736A,111.5018,36.0855,临汾市,市委,,30,29,25,21,16,49,,27,27,20,30,7,6,0.8,1.2
2025-10-12T1500,3018A,111.505,36.1014,临汾市,唐尧大酒店,,32,28,30,22,17,50,,26,26,17,23,5,4,0.9,1.3
2025-10-12T1500,4244A,111.4879,36.0530,临汾市,启星学校,,35,,17,24,23,51,,28,28,18,29,7,6,0.8,1.2
2025-10-12T1500,4271A,103.2464,35.6123,临夏回族自治州,滨河东路1号,,21,19,31,11,18,65,,45,45,8,13,10,10,0.3,0.5
2025-10-12T1500,4310A,103.2093,35.5995,临夏回族自治州,新华街21号,,23,11,23,9,17,73,,56,56,6,12,7,6,0.3,0.5
2025-10-12T1500,1618A,118.3429,35.0532,临沂市,沂河小区,,15,,22,10,13,25,,31,31,25,22,7,7,0.6,0.6
2025-10-12T1500,1619A,118.295,35.0583,临沂市,鲁南制药厂,,13,,14,7,10,25,,34,34,26,20,7,7,1.1,1
2025-10-12T1500,1620A,118.2794,34.9976,临沂市,新光毛纺厂,,15,,13,7,10,25,,31,31,30,25,7,7,0.6,0.6
2025-10-12T1500,1621A,118.3956,35.0888,临沂市,河东保险公司,,17,17,21,3,11,20,,28,28,26,23,6,6,0.6,0.6
2025-10-12T1500,3370A,118.3564,35.0215,临沂市,十里堡居委,,16,6,16,3,6,23,,31,31,32,27,7,7,0.6,0.6
2025-10-12T1500,3496A,118.3604,35.1084,临沂市,南坊新区,,13,9,15,7,10,27,,35,34,26,21,8,8,0.7,0.7
2025-10-12T1500,3860A,118.3920,35.0300,临沂市,皇山花园小区,,15,9,18,6,10,19,,28,28,30,22,9,9,0.9,0.8
2025-10-12T1500,1870A,109.4856,24.3895,柳州市,柳东小学,,36,35,44,24,30,114,,77,77,5,14,5,7,0.5,0.6
2025-10-12T1500,1871A,109.4157,24.3277,柳州市,环保监测站,,42,37,35,29,25,105,,87,87,4,9,7,8,0.5,0.6
2025-10-12T1500,1872A,109.389,24.341,柳州市,河西水厂,,35,24,53,17,28,112,,82,82,5,18,5,5,0.5,0.6
2025-10-12T1500,1873A,109.4311,24.2921,柳州市,市四中,,48,48,49,20,27,104,,73,73,11,24,8,8,0.2,0.3
2025-10-12T1500,1874A,109.4006,24.3631,柳州市,市九中,,47,47,59,25,28,120,,89,89,6,18,4,3,0.4,0.5
2025-10-12T1500,1875A,109.4958,24.3134,柳州市,古亭山,,34,34,43,19,23,108,,74,74,4,27,6,6,0.4,0.5
2025-10-12T1500,3402A,109.5422,24.3996,柳州市,市二中,,39,39,46,19,27,113,,78,78,6,21,8,10,0.6,0.6
2025-10-12T1500,2307A,116.5079,31.737,六安市,监测大楼,,42,30,21,29,26,36,,18,18,16,13,1,2,0.6,0.6
2025-10-12T1500,2308A,116.4738,31.7643,六安市,皖西学院,,50,44,25,35,29,37,,18,18,14,14,3,2,0.5,0.6
2025-10-12T1500,2309A,116.4996,31.7905,六安市,朝阳厂,,46,,23,32,26,39,,17,17,19,19,3,3,0.6,0.6
2025-10-12T1500,2310A,116.5567,31.7886,六安市,开发区,,36,33,41,25,25,44,,19,19,19,14,2,2,0.5,0.6
2025-10-12T1500,2576A,104.8,26.5892,六盘水市,窑上,,29,25,31,15,20,91,,68,68,3,4,4,3,0.4,0.4
2025-10-12T1500,2577A,104.83,26.5917,六盘水市,黄土坡,,29,20,22,9,15,92,,65,65,4,6,4,3,0.4,0.4
2025-10-12T1500,2578A,104.89,26.5939,六盘水市,水钢,,29,25,27,9,14,90,,65,65,4,4,5,4,0.4,0.4
2025-10-12T1500,2579A,104.8475,26.5894,六盘水市,民中,,29,14,20,3,13,91,,64,64,3,6,3,2,0.3,0.3
2025-10-12T1500,2580A,104.9544,26.5506,六盘水市,双水,,29,29,27,12,17,81,,61,61,5,5,4,3,0.3,0.3
2025-10-12T1500,2335A,117.0189,25.1181,龙岩市,龙岩师专,,,,,,,,,,,,,,,,
2025-10-12T1500,2336A,117.0217,25.1033,龙岩市,龙岩市监测站,,28,26,28,6,19,88,,89,89,4,17,5,9,0.3,0.4
2025-10-12T1500,2337A,117.0258,25.0661,龙岩市,闽西职业技术学院,,28,16,35,12,17,89,,80,80,1,15,4,12,0.3,0.4
2025-10-12T1500,2338A,117.0196,25.0306,龙岩市,龙岩学院,,28,20,25,10,16,88,,85,85,3,8,8,8,0.4,0.4
2025-10-12T1500,2665A,105.0822,33.3261,陇南市,汉王镇固水子,,,,,,,,,,,,,,,,
2025-10-12T1500,2885A,104.9339,33.3826,陇南市,滨江中学,,22,22,23,15,13,31,,35,30,22,11,7,6,0.9,0.6
2025-10-12T1500,3247A,104.955,33.371,陇南市,市总工会,,34,34,30,15,10,35,,37,29,23,14,8,8,1.0,0.8
2025-10-12T1500,2487A,111.9589,27.8901,娄底市,电视发射台,,,,,,,,,,,,,,,,
2025-10-12T1500,2488A,111.9975,27.725,娄底市,市监测站,细颗粒物(PM2.5),59,63,77,42,54,138,,78,78,10,15,11,8,0.9,0.9
2025-10-12T1500,2489A,112.0194,27.7314,娄底市,市委党校,细颗粒物(PM2.5),68,49,68,49,59,135,,79,79,14,12,10,7,0.5,0.5
2025-10-12T1500,2490A,111.9561,27.7569,娄底市,涟钢,,49,38,53,34,41,118,,62,62,12,16,8,19,0.5,0.2
2025-10-12T1500,2491A,111.9892,27.7044,娄底市,市政府,细颗粒物(PM2.5),54,49,62,38,49,137,,80,80,7,8,10,8,1.0,1
2025-10-12T1500,1893A,105.4324,28.9634,泸州市,九狮山,,,,,,,,,,,,,,,,
2025-10-12T1500,1894A,105.4427,28.9063,泸州市,小市上码头,,44,44,46,24,27,41,,36,36,16,16,7,7,0.8,0.8
2025-10-12T1500,1895A,105.4241,28.8573,泸州市,兰田宪桥,,39,39,48,17,29,31,,28,28,10,9,6,6,0.6,0.6
2025-10-12T1500,1896A,105.4379,28.8833,泸州市,市环监站,,43,43,43,25,29,38,,38,34,14,14,8,9,0.6,0.6
2025-10-12T1500,4272A,105.3689,28.7783,泸州市,纳溪中医医院,,29,26,44,20,28,43,,36,36,11,12,5,5,0.7,0.7
2025-10-12T1500,2183A,111.1406,37.5211,吕梁市,环保局,,23,8,34,3,20,72,,43,43,9,25,3,3,0.2,0.5
2025-10-12T1500,2185A,111.1297,37.5136,吕梁市,自来水公司,,22,,36,10,21,68,,39,39,7,24,2,2,0.4,0.7
2025-10-12T1500,2867A,111.1283,37.51,吕梁市,马茂庄小学,,22,9,43,3,22,70,,40,40,11,28,2,3,0.3,0.6
2025-10-12T1500,1812A,112.3931,34.6516,洛阳市,市委党校,,15,8,33,8,27,45,,32,32,22,28,6,6,0.6,0.8
2025-10-12T1500,1815A,112.494,34.6886,洛阳市,河南林校,,15,15,40,7,33,45,,32,32,25,31,6,8,0.6,0.8
2025-10-12T1500,1816A,112.3844,34.623,洛阳市,开发区管委会,,17,12,49,7,33,53,,39,39,16,24,4,6,0.7,0.9
2025-10-12T1500,1817A,112.4267,34.6258,洛阳市,市委新办公区,,14,9,43,8,26,44,,30,30,18,26,7,8,0.6,0.8
2025-10-12T1500,3340A,112.6005,34.6326,洛阳市,伊滨,,15,10,33,3,27,48,,32,32,16,28,6,6,0.6,0.7
2025-10-12T1500,3341A,112.4951,34.6332,洛阳市,中移产业园,,14,13,46,3,27,42,,28,28,20,29,6,7,0.6,0.8
2025-10-12T1500,3593A,112.5736,34.8993,洛阳市,吉利监测站,,14,14,35,3,27,42,,28,28,13,22,6,6,0.6,0.8
2025-10-12T1500,3635A,112.3677,34.662,洛阳市,河科大西苑校区,,14,12,45,6,26,43,,32,32,22,29,7,8,0.8,1
2025-10-12T1500,3636A,112.4388,34.6781,洛阳市,英才小学,,16,,49,11,32,41,,33,33,19,26,6,7,0.8,0.9
2025-10-12T1500,4214A,112.4600,34.6949,洛阳市,春都路1号院,,11,7,34,3,24,35,,20,20,18,26,5,6,0.7,0.8
2025-10-12T1500,2399A,114.051,33.5699,漯河市,三五一五工厂,,,,36,9,15,47,,40,40,12,13,5,6,0.5,0.4
2025-10-12T1500,2400A,114.0055,33.5698,漯河市,漯河大学,,16,12,28,7,16,51,,42,42,10,15,5,5,0.4,0.5
2025-10-12T1500,2401A,114.0138,33.5828,漯河市,市水利局,,15,6,23,3,18,48,,40,40,11,15,6,7,0.5,0.7
2025-10-12T1500,2402A,114.0261,33.5698,漯河市,市广电局,,16,7,25,3,17,50,,41,41,11,16,5,6,0.4,0.5
2025-10-12T1500,3478A,113.9749,33.5664,漯河市,市图书馆,,,8,26,,12,47,,38,38,12,16,3,4,0.5,0.6
2025-10-12T1500,4250A,114.0892,33.5882,漯河市,韶山路11号,,14,6,24,3,14,44,,36,36,11,18,5,6,0.4,0.5
2025-10-12T1500,1798A,118.5092,31.6837,马鞍山市,湖东路四小,颗粒物(PM10),73,96,65,49,42,72,,26,26,29,31,5,6,1.2,1.5
2025-10-12T1500,1799A,118.5024,31.6449,马鞍山市,开发区,颗粒物(PM10),69,87,61,37,34,103,,30,30,20,28,6,8,1.2,1.3
2025-10-12T1500,1802A,118.6245,31.7241,马鞍山市,濮塘,,,,,,,,,,,,,,,,
2025-10-12T1500,3633A,118.4918,31.6809,马鞍山市,雨山,颗粒物(PM10),61,72,62,41,38,66,,24,24,31,36,6,16,1.1,1.8
2025-10-12T1500,4191A,118.5274,31.72227,马鞍山市,慈湖高新区,颗粒物(PM10),73,95,74,44,34,82,,26,26,30,31,6,7,1.0,1
2025-10-12T1500,1686A,111.0286,21.4688,茂名市,电白南海,,18,17,29,12,14,52,,47,47,6,10,6,8,0.6,0.7
2025-10-12T1500,1687A,110.9294,21.6533,茂名市,茂石化七小,,17,17,35,7,15,54,,47,47,4,8,7,16,0.3,0.4
2025-10-12T1500,1688A,110.9107,21.6687,茂名市,健康路,,19,7,23,3,13,59,,51,51,5,10,6,9,0.7,0.8
2025-10-12T1500,1689A,110.8592,21.6828,茂名市,高岭,,19,19,39,3,9,55,,43,43,12,15,8,12,0.6,0.7
2025-10-12T1500,3450A,111.01,21.5165,茂名市,电白水东,,18,9,21,7,11,56,,47,47,7,10,6,9,0.4,0.5
2025-10-12T1500,2539A,104.0308,30.0478,眉山市,黑龙滩水库,,,,,,,,,,,,,,,,
2025-10-12T1500,2540A,103.8416,30.0874,眉山市,气象局,,18,18,21,7,3,44,,36,36,14,16,8,8,0.4,0.4
2025-10-12T1500,3137A,103.8578,30.0744,眉山市,市委党校,,13,7,8,3,0,41,,34,34,11,14,8,8,0.4,0.4
2025-10-12T1500,3148A,103.8291,30.0564,眉山市,区人社局,,24,24,22,3,0,44,,38,38,16,14,4,5,0.9,0.8
2025-10-12T1500,1690A,116.1231,24.3284,梅州市,梅江月梅,,23,16,30,16,18,72,,63,63,5,14,10,11,0.8,0.8
2025-10-12T1500,1691A,116.0797,24.2719,梅州市,梅县新城,,22,,28,12,16,69,,69,69,3,9,6,7,0.6,0.6
2025-10-12T1500,1692A,116.1248,24.2654,梅州市,环境监控中心,,21,20,27,10,16,66,,66,66,5,17,4,7,0.5,0.6
2025-10-12T1500,3315A,116.1233,24.2991,梅州市,梅龙,,21,14,24,9,14,66,,61,61,3,10,8,10,0.6,0.7
2025-10-12T1500,1878A,104.7778,31.4741,绵阳市,富乐山,,14,6,5,3,3,42,,40,40,6,5,6,6,0.7,0.7
2025-10-12T1500,1880A,104.6697,31.4668,绵阳市,高新区自来水公司,,13,6,3,3,0,41,,33,33,11,10,8,8,0.6,0.6
2025-10-12T1500,1881A,104.7287,31.5075,绵阳市,三水厂,,14,7,4,3,3,42,,38,38,8,6,6,5,0.8,0.8
2025-10-12T1500,3491A,104.69,31.5322,绵阳市,西科大附属小学,,15,11,5,3,1,45,,38,38,11,12,9,9,0.6,0.7
2025-10-12T1500,3492A,104.5648,31.5343,绵阳市,安州区旅游局,,12,,5,7,4,36,,31,31,9,11,6,6,0.6,0.5
2025-10-12T1500,4226A,104.7651,31.4531,绵阳市,绵阳市气象局,,15,8,4,3,2,46,,39,39,8,5,7,7,0.5,0.5
2025-10-12T1500,1784A,129.61,44.561,牡丹江市,环保大楼,,25,25,29,7,15,70,,60,60,9,21,6,8,0.3,0.3
2025-10-12T1500,1785A,129.6115,44.5782,牡丹江市,文化广场,,27,27,34,9,21,68,,59,59,14,25,6,6,0.2,0.4
2025-10-12T1500,1786A,129.5904,44.5963,牡丹江市,第一医院,,32,23,35,22,27,73,,63,63,8,21,4,5,0.3,0.3
2025-10-12T1500,1787A,129.6364,44.6075,牡丹江市,机车工厂,,25,21,40,17,19,70,,58,58,8,25,5,6,0.2,0.3
2025-10-12T1500,1788A,129.6386,44.5462,牡丹江市,第一中学,,22,18,29,8,18,70,,61,61,7,23,3,4,0.2,0.3
2025-10-12T1500,2531A,105.0703,29.61,内江市,市监测站,,15,10,27,10,14,27,,26,21,7,9,2,2,0.9,0.7
2025-10-12T1500,2532A,105.0717,29.5947,内江市,东兴区政府,,10,9,18,3,8,32,,32,26,9,10,7,6,0.4,0.3
2025-10-12T1500,2533A,105.0653,29.5817,内江市,内江二中,,9,7,19,3,12,26,,29,22,12,12,1,2,0.7,0.6
2025-10-12T1500,2534A,105.0406,29.5822,内江市,内江日报社,,,20,22,3,12,30,,28,23,10,12,,4,0.5,0.5
2025-10-12T1500,2628A,92.0657,31.4846,那曲市,那曲监测站,,34,12,27,3,12,107,,81,81,6,12,4,5,0.3,0.4
2025-10-12T1500,4243A,92.0515,31.4787,那曲市,那曲市委宣传部,,37,6,15,3,6,116,,88,88,1,7,3,3,0.4,0.5
2025-10-12T1500,1290A,115.8931,28.6843,南昌市,省外办,,,,64,,51,186,,120,120,13,18,7,5,1.2,1.3
2025-10-12T1500,1291A,115.8886,28.7003,南昌市,省林业公司,臭氧1小时,72,53,66,34,48,177,,100,100,8,11,4,4,0.7,0.8
2025-10-12T1500,1292A,115.8126,28.7442,南昌市,林科所,臭氧1小时,85,51,52,34,40,188,,108,108,8,17,8,9,0.5,0.6
2025-10-12T1500,1294A,115.8518,28.687,南昌市,建工学校,臭氧1小时,80,59,73,34,49,184,,108,108,12,20,11,10,1.1,1.1
2025-10-12T1500,1295A,115.8921,28.6424,南昌市,象湖,臭氧1小时,84,52,59,34,40,187,,114,114,15,17,10,9,0.8,0.9
2025-10-12T1500,1296A,115.7423,28.7996,南昌市,武术学校,,,,,,,,,,,,,,,,
2025-10-12T1500,3046A,115.9084,28.6062,南昌市,机电学校,臭氧1小时,82,57,70,34,44,185,,124,124,5,12,9,9,0.8,0.9
2025-10-12T1500,3690A,115.9721,28.7031,南昌市,外国语学校,臭氧1小时,97,64,66,36,42,197,,112,112,13,16,12,10,0.9,0.8
2025-10-12T1500,4192A,115.9316,28.68677,南昌市,南京东路235号,臭氧1小时,89,57,71,41,47,191,,107,107,14,18,3,3,1.2,1.2
2025-10-12T1500,1905A,106.056,30.8064,南充市,西山风景区,,,,,,,,,,,,,,,,
2025-10-12T1500,1906A,106.0789,30.8023,南充市,南充市委,,7,6,9,3,5,20,,27,22,10,9,3,4,0.6,0.5
2025-10-12T1500,1907A,106.1031,30.8217,南充市,南充炼油厂,,23,23,23,8,11,24,,30,25,5,6,5,6,0.4,0.3
2025-10-12T1500,4227A,106.1083,30.7884,南充市,梨树横街98号,,8,6,10,3,9,25,,33,27,6,7,4,5,0.5,0.4
2025-10-12T1500,4304A,106.1172,30.843,南充市,清泉寺北路188号,,11,11,12,3,4,26,,34,28,6,7,5,5,0.5,0.4
2025-10-12T1500,4305A,106.067,30.7616,南充市,同庆路1号,,8,6,8,3,5,22,,31,25,10,9,5,6,0.5,0.4
2025-10-12T1500,1151A,118.8086,32.1065,南京市,迈皋桥,,42,42,57,29,39,46,,22,22,39,22,4,4,0.8,1.1
2025-10-12T1500,1152A,118.7538,32.0551,南京市,草场门,颗粒物(PM10),52,53,64,34,40,89,,31,31,24,31,3,4,0.9,1
2025-10-12T1500,1153A,118.7794,32.0745,南京市,山西路,,46,46,68,27,40,97,,31,31,22,36,11,9,1.0,1.1
2025-10-12T1500,1154A,118.7752,32.0023,南京市,中华门,,49,46,70,34,46,98,,32,32,18,25,3,4,0.8,1
2025-10-12T1500,1155A,118.8109,32.0309,南京市,瑞金路,细颗粒物(PM2.5),55,46,69,39,46,112,,39,39,17,30,7,7,0.6,0.8
2025-10-12T1500,1156A,118.7997,32.0754,南京市,玄武湖,,38,36,58,26,43,91,,27,27,14,13,4,4,0.4,0.7
2025-10-12T1500,1157A,118.6414,32.0931,南京市,浦口,,42,42,44,27,31,76,,27,27,30,25,7,6,0.9,0.8
2025-10-12T1500,1158A,118.7356,31.9996,南京市,奥体中心,细颗粒物(PM2.5),55,51,67,39,49,106,,38,38,23,29,6,6,0.6,0.8
2025-10-12T1500,1159A,118.9125,32.1028,南京市,仙林大学城,,41,41,62,24,34,110,,36,36,16,27,10,10,1.0,1.1
2025-10-12T1500,3422A,118.8436,31.9198,南京市,江宁彩虹桥,细颗粒物(PM2.5),64,52,53,46,46,137,,41,41,7,26,4,4,1.0,1.2
2025-10-12T1500,3427A,118.8554,32.3578,南京市,六合雄州,细颗粒物(PM2.5),53,39,52,37,34,91,,33,33,21,20,5,6,1.0,0.8
2025-10-12T1500,4249A,118.8708,31.3402,南京市,汶溪路181号,细颗粒物(PM2.5),65,62,54,47,44,102,,51,51,18,23,7,6,0.9,1.1
2025-10-12T1500,4312A,119.019,31.6512,南京市,中山西路1号,细颗粒物(PM2.5),67,70,70,48,38,121,,52,52,23,36,4,4,1.1,1.1
2025-10-12T1500,1401A,108.3103,22.7881,南宁市,二十一中,,50,50,33,20,22,89,,67,67,10,11,4,5,0.4,0.6
2025-10-12T1500,1402A,108.3141,22.8528,南宁市,北湖,,35,23,37,11,22,111,,89,89,5,13,5,6,0.5,0.7
2025-10-12T1500,1403A,108.3206,22.8225,南宁市,市监测站,,32,24,34,20,21,100,,79,79,5,10,4,5,0.4,0.3
2025-10-12T1500,1404A,108.3829,22.8037,南宁市,大自然花园,,32,28,38,16,23,100,,77,77,4,10,5,5,0.7,0.8
2025-10-12T1500,1405A,108.4394,22.7904,南宁市,仙葫,,,,,,,,,,,,,,,,
2025-10-12T1500,1406A,108.2397,22.8467,南宁市,区农职院,,33,20,40,14,25,103,,71,71,9,20,2,5,0.5,0.6
2025-10-12T1500,1407A,108.3275,22.735,南宁市,英华嘉园,,30,19,40,15,24,96,,68,68,7,20,2,3,0.5,0.6
2025-10-12T1500,3401A,108.4834,22.7618,南宁市,红星社区,,29,19,37,13,23,92,,66,66,5,11,3,4,0.4,0.5
2025-10-12T1500,4221A,108.2177,22.7774,南宁市,乐贤路16号,,32,22,42,16,21,101,,76,76,7,26,5,6,0.3,0.5
2025-10-12T1500,2331A,118.0966,26.6761,南平市,茫荡山,,,,17,,10,,,95,,,,,3,,
2025-10-12T1500,2332A,118.1681,26.6369,南平市,南平市监测站,,30,24,20,18,13,96,,77,77,4,14,2,3,0.5,0.5
2025-10-12T1500,2333A,118.1825,26.6489,南平市,南平铝业有限公司,,32,22,24,16,14,101,,79,79,3,17,3,5,0.5,0.6
2025-10-12T1500,2334A,118.1756,26.6272,南平市,南平七中,,31,27,23,18,12,99,,78,78,3,11,4,4,0.5,0.6
2025-10-12T1500,1168A,120.9098,31.9663,南通市,狼山街道,臭氧1小时,77,56,40,34,26,181,,126,126,26,19,6,6,0.8,0.6
2025-10-12T1500,1169A,120.86,32.0005,南通市,虹桥,臭氧1小时,105,48,42,40,26,209,,135,135,17,17,6,6,0.5,0.6
2025-10-12T1500,1170A,120.87,32.02,南通市,城中,臭氧1小时,92,68,57,30,27,193,,124,124,17,20,5,6,0.6,0.9
2025-10-12T1500,1171A,120.94,31.93,南通市,星湖花园,臭氧1小时,72,50,41,32,30,177,,126,126,12,22,5,6,0.8,0.8
2025-10-12T1500,1172A,120.81,32.0417,南通市,紫琅学院,臭氧1小时,79,64,58,33,29,183,,116,116,30,22,5,5,1.1,1.1
2025-10-12T1500,3291A,121.067,32.062,南通市,通州监测站,臭氧1小时,60,41,34,29,21,168,,124,124,7,9,1,2,0.7,0.6
2025-10-12T1500,3432A,120.9348,31.9883,南通市,环境教育馆,臭氧1小时,77,63,47,32,26,181,,133,133,9,18,4,5,0.5,0.5
2025-10-12T1500,2404A,112.5224,33.0122,南阳市,瓦房庄,,18,18,35,3,18,53,,54,54,11,16,7,8,0.7,0.7
2025-10-12T1500,2405A,112.5003,32.9735,南阳市,汉画馆,,19,19,31,3,16,51,,54,54,14,18,7,8,0.7,0.7
2025-10-12T1500,2406A,112.5573,33.027,南阳市,气象站,,18,11,32,3,15,55,,53,53,14,20,7,9,0.7,0.8
2025-10-12T1500,2407A,112.5481,32.9689,南阳市,理工学院,,18,15,36,7,7,57,,56,56,12,18,9,10,0.7,0.8
2025-10-12T1500,4008A,112.5234,32.9922,南阳市,卧龙区政府,,16,,26,7,17,50,,52,52,15,18,6,8,0.7,0.7
2025-10-12T1500,1234A,121.8358,29.911,宁波市,区环保大楼,臭氧1小时,117,56,46,31,20,234,,149,149,38,24,12,7,0.9,0.7
2025-10-12T1500,1235A,121.56,29.82,宁波市,万里学院,臭氧1小时,106,43,38,26,25,212,,157,157,12,15,7,8,0.6,0.6
2025-10-12T1500,1236A,121.713,29.9572,宁波市,龙赛医院,臭氧1小时,102,90,67,29,20,204,,156,156,16,20,7,7,0.5,0.5
2025-10-12T1500,1239A,121.633,29.7733,宁波市,钱湖水厂,,50,35,34,18,18,159,,126,126,6,9,6,6,0.7,0.6
2025-10-12T1500,1240A,121.5856,29.8635,宁波市,太古小学,臭氧1小时,115,61,46,30,17,229,,157,157,16,13,4,4,0.7,0.6
2025-10-12T1500,1241A,121.524,29.8674,宁波市,市环境监测中心,臭氧1小时,107,49,42,26,19,214,,153,153,14,17,8,9,0.6,0.6
2025-10-12T1500,2871A,121.6147,29.9017,宁波市,万里国际学校,臭氧1小时,123,60,43,44,26,245,,171,171,20,17,7,6,0.7,0.6
2025-10-12T1500,3710A,121.5594,29.8975,宁波市,白沙活动中心,臭氧1小时,121,53,37,36,24,241,,165,165,21,16,7,6,0.6,0.5
2025-10-12T1500,2339A,119.5001,26.6946,宁德市,金涵水库,,,,23,,16,,,47,,,2,,2,,0.6
2025-10-12T1500,2341A,119.5388,26.6612,宁德市,宁德市监测站,,37,31,24,20,16,117,,90,90,6,10,6,5,0.6,0.7
2025-10-12T1500,3209A,119.5231,26.6562,宁德市,宁德一中,颗粒物(PM10),52,54,28,14,17,128,,96,96,5,8,9,7,0.6,0.5
2025-10-12T1500,2618A,98.8601,25.8567,怒江傈僳族自治州,州监测站,,21,21,23,13,12,55,,26,26,6,6,6,6,0.5,0.4
2025-10-12T1500,2619A,98.8546,25.8417,怒江傈僳族自治州,泸水一中,,18,13,17,12,8,46,,16,16,7,9,5,5,0.5,0.5
2025-10-12T1500,1888A,101.6891,26.571,攀枝花市,弄弄坪,,26,26,25,8,9,80,,58,58,8,16,5,6,0.5,0.7
2025-10-12T1500,1889A,101.5769,26.5928,攀枝花市,河门口,,25,11,29,3,14,77,,49,49,5,14,9,14,0.7,0.9
2025-10-12T1500,1890A,101.7169,26.585,攀枝花市,炳草岗,,25,19,31,3,14,80,,52,52,5,24,5,5,0.6,0.7
2025-10-12T1500,1891A,101.7369,26.5008,攀枝花市,仁和,,21,8,18,3,9,65,,50,50,4,11,9,9,0.4,0.6
2025-10-12T1500,2835A,101.7227,26.567,攀枝花市,四十中小,,24,17,21,12,13,76,,52,52,5,17,10,8,0.6,0.8
2025-10-12T1500,1604A,122.0303,41.1489,盘锦市,开发区,,44,44,46,15,23,59,,52,52,14,26,4,4,0.3,0.4
2025-10-12T1500,1605A,122.0485,41.0883,盘锦市,兴隆台,颗粒物(PM10),51,52,46,15,20,56,,51,51,26,30,5,5,0.4,0.3
2025-10-12T1500,1606A,121.8297,41.1028,盘锦市,新生街道,,42,42,31,12,12,54,,50,50,20,29,7,7,0.2,0.3
2025-10-12T1500,1832A,113.3257,33.742,平顶山市,新华旅馆,,18,10,24,10,20,55,,47,47,10,18,5,6,0.4,0.6
2025-10-12T1500,1833A,113.2919,33.737,平顶山市,规划设计院,,17,11,29,10,22,52,,47,47,13,18,4,4,0.6,0.8
2025-10-12T1500,1834A,113.182,33.774,平顶山市,平顶山工学院,,19,6,29,3,19,58,,48,48,12,21,6,6,0.5,0.7
2025-10-12T1500,3204A,113.3025,33.73,平顶山市,规划局,,19,14,30,6,22,59,,52,52,8,16,5,6,0.5,0.7
2025-10-12T1500,3594A,112.8867,33.9116,平顶山市,石龙区,,16,11,42,11,29,41,,34,34,13,19,6,7,1.0,1
2025-10-12T1500,2656A,106.6692,35.5461,平凉市,聚贤嘉苑,,38,38,30,23,19,86,,65,65,5,16,15,17,0.6,0.8
2025-10-12T1500,2657A,106.7021,35.5307,平凉市,博物馆,,38,38,34,22,18,88,,65,65,5,16,9,8,0.6,0.8
2025-10-12T1500,2347A,114.0997,27.5002,萍乡市,武功山,,,,,,,,,,,,,,,,
2025-10-12T1500,2348A,113.8385,27.6434,萍乡市,中医院,细颗粒物(PM2.5),87,95,101,64,68,168,,104,104,18,33,10,12,1.3,1.5
2025-10-12T1500,2349A,113.8493,27.6253,萍乡市,市政府车库,细颗粒物(PM2.5),79,58,69,58,61,149,,106,106,13,19,16,17,0.8,0.9
2025-10-12T1500,2350A,113.8676,27.6435,萍乡市,市环保局,细颗粒物(PM2.5),79,87,81,58,61,174,,121,121,17,23,8,13,0.8,0.9
2025-10-12T1500,2351A,113.866,27.6198,萍乡市,安源区政府,细颗粒物(PM2.5),72,64,76,52,66,145,,114,114,11,17,11,14,0.7,0.8
2025-10-12T1500,2319A,119.0141,25.4325,莆田市,荔城区仓后路,,47,47,30,18,12,128,,102,102,9,9,8,8,0.6,0.6
2025-10-12T1500,2320A,119.0015,25.4553,莆田市,莆田市监测站,颗粒物(PM10),51,52,25,16,14,136,,105,105,9,9,8,7,0.7,0.7
2025-10-12T1500,2321A,119.1119,25.4561,莆田市,涵江区六中,,40,24,25,15,14,126,,103,103,6,9,6,5,0.6,0.6
2025-10-12T1500,2322A,119.1013,25.3215,莆田市,秀屿区政府,,33,26,26,18,17,105,,94,94,4,9,7,7,0.4,0.5
2025-10-12T1500,2323A,118.981,25.4792,莆田市,东圳水库,,,,18,,13,,,82,,,7,,6,,0.4
2025-10-12T1500,2392A,115.0312,35.7636,濮阳市,环保局,,13,6,8,3,11,40,,42,40,17,16,7,7,0.8,0.8
2025-10-12T1500,2394A,115.0574,35.7609,濮阳市,油田运输公司,,15,7,16,3,9,45,,45,44,17,16,7,8,0.9,0.8
2025-10-12T1500,3021A,115,35.7668,濮阳市,濮水河管理处,,13,6,12,3,8,40,,45,41,20,17,7,7,0.4,0.4
2025-10-12T1500,4216A,115.0924,35.7686,濮阳市,任丘路479号,,13,6,17,3,11,39,,43,42,16,14,7,7,0.6,0.4
2025-10-12T1500,2601A,100.98,22.7633,普洱市,市环保局,,27,27,29,12,16,57,,39,39,3,5,8,8,0.4,0.4
2025-10-12T1500,2602A,100.9817,22.8322,普洱市,普洱第二中学,,22,22,29,10,12,53,,35,35,3,10,7,7,0.3,0.4
2025-10-12T1500,2262A,131.0518,45.8751,七台河市,新一中,,,,,,,,,,,,,,,,
2025-10-12T1500,3345A,131.0577,45.7879,七台河市,中波台,,37,37,33,6,10,55,,52,52,14,23,6,7,0.4,0.4
2025-10-12T1500,3637A,131.0176,45.7761,七台河市,人民广场,,39,39,30,10,15,64,,61,61,9,14,6,8,0.4,0.5
2025-10-12T1500,3684A,130.8781,45.8222,七台河市,新建矿广场,,28,22,33,19,17,53,,47,47,5,14,8,11,0.4,0.5
2025-10-12T1500,1779A,123.9305,47.3636,齐齐哈尔市,安居小区,,28,28,26,15,8,58,,54,54,7,9,4,4,0.3,0.3
2025-10-12T1500,1780A,123.9488,47.3386,齐齐哈尔市,中心广场,,20,14,17,3,2,63,,58,58,9,9,2,2,0.2,0.2
2025-10-12T1500,1781A,123.9483,47.3227,齐齐哈尔市,农牧车辆厂,,39,39,29,11,7,60,,54,54,7,8,3,3,0.4,0.4
2025-10-12T1500,1783A,123.945,47.2988,齐齐哈尔市,市环境监测站,,19,14,24,3,7,60,,54,54,8,10,8,6,0.4,0.4
2025-10-12T1500,3662A,123.6333,47.2075,齐齐哈尔市,富区青少年活动中心,,20,9,28,3,7,62,,,,2,7,3,5,0.6,0.7
2025-10-12T1500,2591A,107.9783,26.5747,黔东南苗族侗族自治州,市环境监测站,,27,17,22,12,16,86,,86,82,3,3,3,3,0.4,0.4
2025-10-12T1500,2881A,107.8908,26.5311,黔东南苗族侗族自治州,凯里学院,,27,27,21,12,15,71,,76,71,7,6,3,3,0.4,0.1
2025-10-12T1500,2593A,107.5228,26.2403,黔南布依族苗族自治州,小围寨,,23,9,16,3,10,71,,66,66,2,3,1,3,0.5,0.5
2025-10-12T1500,3538A,107.5175,26.2978,黔南布依族苗族自治州,沙坝,,19,17,20,9,14,60,,56,56,3,4,4,4,0.3,0.4
2025-10-12T1500,2589A,104.9022,25.0925,黔西南布依族苗族自治州,场坝街,,20,12,22,8,11,63,,52,52,4,5,4,4,0.4,0.4
2025-10-12T1500,2590A,104.8811,25.0992,黔西南布依族苗族自治州,坪东大道,,20,14,30,7,20,61,,50,50,5,5,3,3,0.4,0.5
2025-10-12T1500,2502A,108.6236,21.9667,钦州市,市环保站,,37,31,34,12,17,117,,80,80,7,14,4,4,0.5,0.6
2025-10-12T1500,2503A,108.6549,21.9481,钦州市,沙埠小学,,40,35,47,18,23,127,,83,83,4,17,3,3,0.5,0.6
2025-10-12T1500,2504A,108.5989,21.7431,钦州市,港区一小,颗粒物(PM10),56,61,48,19,20,94,,68,68,13,22,5,5,0.8,0.7
2025-10-12T1500,3404A,108.5959,21.9633,钦州市,北职校,,38,28,38,10,16,121,,81,81,4,13,4,5,0.6,0.7
2025-10-12T1500,1043A,119.7493,40.0116,秦皇岛市,第一关,,27,27,39,16,24,34,,46,46,38,37,5,6,0.2,0.3
2025-10-12T1500,1044A,119.5897,39.9499,秦皇岛市,监测站,,,37,44,6,11,41,,48,46,,29,6,6,0.3,0.4
2025-10-12T1500,1046A,119.5251,39.9041,秦皇岛市,建设大厦,,40,40,38,8,14,46,,52,52,20,25,4,4,0.2,0.4
2025-10-12T1500,3132A,119.610547,39.943889,秦皇岛市,文明里,,33,33,38,13,15,43,,42,42,20,31,8,8,0.1,0.3
2025-10-12T1500,4198A,119.5090,39.8253,秦皇岛市,北戴河轮滑馆,,33,33,41,11,16,47,,46,46,17,24,3,3,0.2,0.3
2025-10-12T1500,1307A,120.6659,36.2403,青岛市,仰口,,,,,,,,,,,,,,,,
2025-10-12T1500,1310A,120.4134,36.0658,青岛市,市南区东部子站,,12,7,11,7,7,28,,40,15,24,24,6,6,0.6,0.4
2025-10-12T1500,1311A,120.3664,36.1032,青岛市,四方区子站,,14,9,12,7,8,43,,58,52,23,11,2,2,0.4,0.4
2025-10-12T1500,1312A,120.2994,36.054,青岛市,市南区西部子站,,17,,12,10,8,52,,53,52,16,18,7,7,0.6,0.6
2025-10-12T1500,1313A,120.4581,36.0858,青岛市,崂山区子站,,14,6,7,3,4,38,,54,46,27,15,8,8,0.3,0.4
2025-10-12T1500,1315A,120.3999,36.3083,青岛市,城阳区子站,,18,,11,12,10,50,,66,61,13,8,4,4,0.6,0.5
2025-10-12T1500,3362A,120.5014,36.4034,青岛市,即墨2号,,16,14,10,10,9,50,,61,58,12,12,4,4,0.4,0.4
2025-10-12T1500,3642A,120.3503,36.0736,青岛市,市北区南部,,19,19,13,9,8,32,,45,40,34,22,9,7,0.5,0.5
2025-10-12T1500,3643A,120.3948,36.1805,青岛市,李沧区北部,,20,,12,14,12,50,,60,58,14,13,5,6,0.5,0.5
2025-10-12T1500,4290A,120.1969,35.9546,青岛市,珠江路669号,,18,,13,12,13,36,,42,33,35,24,8,8,0.4,0.4
2025-10-12T1500,4291A,120.0424,35.8656,青岛市,黄岛区人民政府广场,,14,14,14,3,8,37,,37,37,25,17,5,5,0.7,0.8
2025-10-12T1500,1702A,113.0426,23.691,清远市,环保大楼,,,,,,,,,,,,,,,,
2025-10-12T1500,1703A,113.0208,23.7106,清远市,凤城街办,,37,17,37,13,22,118,,85,85,12,21,6,9,0.5,0.7
2025-10-12T1500,3025A,113.0477,23.6344,清远市,技师学院,,35,21,48,10,25,112,,82,82,10,31,5,8,0.4,0.6
2025-10-12T1500,3318A,112.9903,23.7403,清远市,清新太和,,40,23,40,12,24,126,,91,91,13,21,6,7,0.5,0.6
2025-10-12T1500,3455A,113.076,23.7198,清远市,清城东城,,32,19,37,13,21,101,,76,76,6,13,7,8,0.7,0.8
2025-10-12T1500,2661A,107.6325,35.7357,庆阳市,庆阳五中,,22,21,14,15,9,55,,63,51,6,6,8,8,0.5,0.5
2025-10-12T1500,2662A,107.6364,35.7067,庆阳市,市环保局,,23,23,14,14,7,60,,65,59,9,9,3,3,0.4,0.4
2025-10-12T1500,1916A,103.7897,25.5035,曲靖市,环境监测站,,29,13,22,11,12,90,,58,58,5,8,4,4,0.1,0.2
2025-10-12T1500,1917A,103.8,25.5364,曲靖市,烟厂办公区,,28,15,21,12,10,89,,57,57,4,7,4,4,0.3,0.4
2025-10-12T1500,3376A,103.7947,25.462,曲靖市,南苑二区,,27,15,21,6,11,85,,54,54,4,6,3,4,0.3,0.4
2025-10-12T1500,3377A,103.7444,25.5261,曲靖市,曲靖师范学院,,30,,20,10,13,94,,62,62,6,8,2,2,0.4,0.4
2025-10-12T1500,1264A,118.8692,28.9398,衢州市,环保大楼,,48,33,60,19,34,152,,137,137,6,24,5,7,0.5,0.6
2025-10-12T1500,1265A,118.8709,28.9666,衢州市,实验学校,臭氧1小时,62,30,52,18,33,169,,144,144,8,25,4,6,0.6,0.7
2025-10-12T1500,1266A,118.8621,28.9808,衢州市,衢州学院,臭氧1小时,55,37,54,25,35,164,,145,145,8,24,6,7,0.4,0.5
2025-10-12T1500,1611A,118.5819,24.9117,泉州市,涂山街,,47,47,35,25,20,144,,118,118,9,8,6,3,0.7,0.6
2025-10-12T1500,1612A,118.5972,24.8978,泉州市,津头埔,,44,40,32,26,19,138,,117,117,13,11,9,3,0.6,0.5
2025-10-12T1500,1613A,118.6663,24.9424,泉州市,万安,,40,32,31,23,18,125,,102,102,6,12,3,2,0.6,0.6
2025-10-12T1500,1614A,118.6117,24.9604,泉州市,清源山,,,,27,,14,,,94,,,5,,2,,0.6
2025-10-12T1500,3529A,118.6333,24.9264,泉州市,城华南路,,35,32,28,21,16,109,,101,101,12,9,4,3,0.5,0.5
2025-10-12T1500,2626A,88.8876,29.2718,日喀则市,日喀则监测站,,38,6,10,3,2,119,,90,90,2,9,13,13,0.1,0.1
2025-10-12T1500,3726A,88.8781,29.2426,日喀则市,林业技术推广中心,,38,6,11,3,3,120,,90,90,2,3,5,6,0.2,0.2
2025-10-12T1500,1659A,119.471,35.4209,日照市,监测站,,12,,11,3,12,28,,33,32,24,20,6,6,0.6,0.8
2025-10-12T1500,1660A,119.523,35.4216,日照市,市政府广场,,10,7,11,3,10,32,,38,37,18,16,2,2,0.8,0.9
2025-10-12T1500,1661A,119.5587,35.4044,日照市,港务局,,20,,12,14,17,42,,45,44,16,14,4,4,0.7,0.7
2025-10-12T1500,3507A,119.5328,35.4625,日照市,职业技术学院,,13,,13,9,11,38,,41,40,18,16,4,4,0.9,0.9
2025-10-12T1500,3604A,119.3266,35.1044,日照市,岚山环保分局,细颗粒物(PM2.5),54,56,37,38,23,14,,22,21,45,36,35,26,5.0,3.4
2025-10-12T1500,1835A,111.1922,34.7752,三门峡市,市政府,,11,8,15,6,9,33,,41,36,19,22,7,7,0.9,0.7
2025-10-12T1500,1836A,111.1587,34.7942,三门峡市,开发区,,13,,15,6,10,26,,32,28,26,21,5,5,0.7,0.6
2025-10-12T1500,1838A,111.143,34.7955,三门峡市,风景区,,10,7,11,7,9,30,,34,31,14,13,6,6,0.8,0.8
2025-10-12T1500,3039A,111.1911,34.7829,三门峡市,三门峡市第一小学,,11,9,16,3,9,33,,35,32,15,18,5,7,0.9,0.8
2025-10-12T1500,3598A,111.1,34.7167,三门峡市,富达温泉假日酒店,,12,10,15,3,10,36,,31,27,15,24,7,7,1.0,1
2025-10-12T1500,2324A,117.6211,26.2625,三明市,三钢,,43,27,25,11,23,137,,94,94,8,17,6,6,0.9,1.1
2025-10-12T1500,2325A,117.635,26.2714,三明市,三明二中,,40,39,28,17,18,126,,86,86,8,17,4,5,0.5,0.9
2025-10-12T1500,2326A,117.6028,26.2378,三明市,三元区政府,,39,26,28,12,14,124,,97,97,6,22,3,3,0.4,0.7
2025-10-12T1500,2327A,117.7275,26.3108,三明市,洋溪,,,,19,,11,,,65,,,10,,10,,1.2
2025-10-12T1500,1876A,109.5078,18.2489,三亚市,河东子站,,14,,36,6,10,43,,42,42,4,8,3,3,0.6,0.7
2025-10-12T1500,1877A,109.4964,18.2681,三亚市,河西子站,,15,14,16,3,3,48,,46,46,4,9,5,5,0.4,0.4
2025-10-12T1500,3540A,109.7348,18.3443,三亚市,君悦子站,,18,18,16,3,7,47,,45,45,2,6,4,3,0.4,0.4
2025-10-12T1500,2624A,91.7608,29.2313,山南市,山南监测站,,43,7,8,3,4,137,,108,102,2,4,5,5,0.2,0.2
2025-10-12T1500,2625A,91.7706,29.2436,山南市,山南人民医院,,40,6,11,3,7,126,,95,90,1,4,4,5,0.3,0.3
2025-10-12T1500,1674A,116.6794,23.3667,汕头市,金平子站,,35,27,26,10,15,110,,95,95,6,9,3,4,0.5,0.6
2025-10-12T1500,1675A,116.7244,23.3633,汕头市,龙湖子站,,33,25,23,13,12,104,,95,95,4,6,7,8,0.4,0.5
2025-10-12T1500,1676A,116.7258,23.2775,汕头市,濠江子站,,33,24,22,14,11,103,,91,91,3,4,5,6,0.5,0.6
2025-10-12T1500,1677A,116.7519,23.4714,汕头市,澄海子站,,31,28,30,14,17,99,,87,87,4,9,4,6,0.6,0.7
2025-10-12T1500,1678A,116.6092,23.2539,汕头市,潮阳子站,,30,21,22,11,14,93,,85,85,4,6,5,5,0.6,0.6
2025-10-12T1500,3444A,116.454,23.2684,汕头市,潮南峡山,,27,9,30,8,17,84,,79,79,1,6,7,8,0.7,0.8
2025-10-12T1500,3624A,116.4069,23.2533,汕头市,潮南子站,,24,18,36,6,17,75,,74,74,9,9,5,6,0.7,0.6
2025-10-12T1500,1693A,115.3653,22.775,汕尾市,市环保局,,20,15,19,7,13,64,,70,70,2,5,4,4,0.6,0.6
2025-10-12T1500,1694A,115.3706,22.7898,汕尾市,市政府,,20,12,22,3,13,64,,67,67,4,8,6,6,0.5,0.5
2025-10-12T1500,1695A,115.3622,22.7925,汕尾市,新城中学,,24,24,23,3,10,65,,68,68,4,8,6,6,0.6,0.7
2025-10-12T1500,2645A,109.9154,33.8715,商洛市,监测站,,11,6,6,3,2,27,,42,30,11,9,3,3,1.1,0.8
2025-10-12T1500,3045A,109.9643,33.8471,商洛市,商州区中学,,10,6,9,3,2,22,,37,20,13,15,3,3,1.0,0.7
2025-10-12T1500,2408A,115.6702,34.4285,商丘市,环境监测站,,19,,26,13,23,35,,24,22,18,18,2,2,0.4,0.4
2025-10-12T1500,2409A,115.6458,34.4045,商丘市,粮食局,,12,9,22,3,14,36,,25,22,13,14,1,2,0.4,0.5
2025-10-12T1500,2410A,115.6293,34.3948,商丘市,睢阳区环保局,,13,,24,6,22,39,,26,23,14,15,3,3,0.4,0.4
2025-10-12T1500,3171A,115.6071,34.4465,商丘市,梁园区档案局,,18,,22,12,21,35,,26,25,19,19,3,3,0.4,0.5
2025-10-12T1500,1141A,121.4,31.238,上海市,普陀,臭氧1小时,93,50,45,22,23,194,,150,150,23,23,6,6,0.6,0.5
2025-10-12T1500,1142A,121.478,31.2036,上海市,十五厂,臭氧1小时,63,44,46,31,22,170,,153,153,12,17,7,7,0.7,0.7
2025-10-12T1500,1143A,121.467,31.3008,上海市,虹口,,50,40,48,30,22,158,,136,136,16,21,8,8,0.6,0.4
2025-10-12T1500,1147A,121.425,31.2261,上海市,静安监测站,臭氧1小时,84,45,44,34,23,187,,152,152,17,20,5,4,0.7,0.6
2025-10-12T1500,1148A,121.703,31.1907,上海市,浦东川沙,,39,22,47,19,21,124,,121,121,11,23,10,10,0.2,0.3
2025-10-12T1500,1149A,121.533,31.2284,上海市,浦东新区监测站,,45,32,41,22,21,141,,129,129,10,19,6,6,0.6,0.5
2025-10-12T1500,1150A,121.577,31.2071,上海市,浦东张江,,49,30,42,19,17,154,,144,144,17,18,6,6,0.2,0.2
2025-10-12T1500,3265A,121.4316,31.3322,上海市,宝山庙行,颗粒物(PM10),51,51,58,32,23,148,,130,130,26,32,9,7,0.7,0.5
2025-10-12T1500,3266A,121.8791,31.4662,上海市,崇明上实东滩,,36,19,27,10,13,115,,103,103,4,5,5,5,0.2,0.2
2025-10-12T1500,3268A,121.3162,31.2838,上海市,嘉定南翔,臭氧1小时,104,56,48,38,25,208,,144,144,24,35,7,6,0.6,0.4
2025-10-12T1500,3269A,121.3359,30.7456,上海市,金山新城,,48,29,37,26,23,151,,121,121,4,10,6,7,0.5,0.6
2025-10-12T1500,3270A,121.4996,31.0739,上海市,闵行浦江,,50,39,40,20,19,157,,145,145,13,15,5,5,0.9,1.2
2025-10-12T1500,3271A,121.2886,31.1663,上海市,青浦徐泾,臭氧1小时,108,42,43,25,20,216,,167,167,15,16,8,8,0.7,0.7
2025-10-12T1500,3272A,121.2186,31.0378,上海市,松江图书馆,臭氧1小时,110,,35,29,22,220,,162,162,15,19,5,5,0.5,0.5
2025-10-12T1500,3273A,121.3902,31.2059,上海市,长宁仙霞,臭氧1小时,89,53,44,32,20,191,,143,143,16,19,6,6,0.7,0.6
2025-10-12T1500,3274A,121.7965,31.0507,上海市,浦东惠南,,40,23,34,20,22,128,,114,114,10,15,8,7,0.6,0.6
2025-10-12T1500,3544A,121.4891,30.925,上海市,奉贤南桥新城,,50,29,40,22,22,158,,137,137,12,17,5,4,0.8,0.8
2025-10-12T1500,4183A,121.4174,31.16637,上海市,冠生园路458号,臭氧1小时,67,40,40,31,21,173,,141,141,16,20,5,5,0.8,0.7
2025-10-12T1500,4205A,121.5419,31.2683,上海市,宁武路151号,,40,39,52,18,19,125,,125,125,25,33,5,5,0.6,0.6
2025-10-12T1500,2381A,118.005,28.4572,上饶市,百草园,,,,,,,,,,,,,,,,
2025-10-12T1500,2382A,117.9756,28.4436,上饶市,市监测站,,37,25,48,8,27,118,,114,114,10,20,5,21,0.4,0.5
2025-10-12T1500,2383A,117.9519,28.4628,上饶市,凤凰光学,,38,30,49,22,28,119,,112,112,4,24,10,20,0.3,0.4
2025-10-12T1500,3685A,117.897,28.4315,上饶市,双创科技城,,43,27,46,13,30,137,,117,117,9,30,6,16,0.4,0.5
2025-10-12T1500,4211A,118.1904,28.4448,上饶市,裕丰大道,,37,16,47,6,23,118,,100,100,6,18,4,7,0.4,0.5
2025-10-12T1500,1669A,113.5824,24.7733,韶关市,市八中,,28,28,41,15,29,87,,86,86,6,11,10,11,0.4,0.6
2025-10-12T1500,1671A,113.5917,24.7972,韶关市,园林处,,29,13,42,10,37,92,,86,86,7,17,14,12,0.9,0.8
2025-10-12T1500,1673A,113.5971,24.6863,韶关市,曲江监测站,,26,14,41,12,28,83,,79,79,6,17,8,9,0.6,0.8
2025-10-12T1500,2809A,113.6668,24.7756,韶关市,大学路288号,,28,21,47,12,37,87,,90,90,8,17,12,14,0.6,0.8
2025-10-12T1500,3622A,113.5556,24.8082,韶关市,碧湖山庄,,33,22,49,13,31,105,,89,89,8,16,10,8,0.8,0.8
2025-10-12T1500,2462A,111.5239,27.3033,邵阳市,市水土所,,,,,,,,,,,,,,,,
