timepoint,stationcode,longitude,latitude,area,positionname,primarypollutant,aqi,pm10,pm10_24h,pm2_5,pm2_5_24h,o3,o3_24h,o3_8h,o3_8h_24h,no2,no2_24h,so2,so2_24h,co,co_24h
2024-01-11T2000,2566A,102.1879,31.914,阿坝藏族羌族自治州,州农科所,,18,12,13,12,13,28,,45,45,12,20,5,7,0.8,0.9
2024-01-11T2000,2568A,102.2502,31.8896,阿坝藏族羌族自治州,马师校,,26,26,20,16,12,40,,63,59,25,20,3,3,0.6,0.6
2024-01-11T2000,3994A,102.2165,31.9024,阿坝藏族羌族自治州,马尔康中学西区,,30,26,15,21,9,43,,69,68,25,14,5,4,0.7,0.5
2024-01-11T2000,2695A,80.292,41.1694,阿克苏地区,电视台,细颗粒物(PM2.5),117,170,173,88,85,,,78,78,57,57,14,10,1.1,1.7
2024-01-11T2000,2696A,80.2613,41.1551,阿克苏地区,艺术中心,细颗粒物(PM2.5),110,147,177,83,87,62,,76,76,37,31,10,8,0.9,1.7
2024-01-11T2000,2204A,105.6467,38.8363,阿拉善盟,西城区西花园,,39,39,27,21,15,31,,80,72,48,18,12,11,0.9,0.6
2024-01-11T2000,2205A,105.6985,38.8411,阿拉善盟,蒙二幼,颗粒物(PM10),52,53,26,20,10,31,,77,72,50,20,9,7,0.8,0.6
2024-01-11T2000,2206A,105.724,38.8516,阿拉善盟,环保局新楼,,29,10,16,5,8,90,,88,86,7,8,5,5,0.4,0.4
2024-01-11T2000,2708A,88.1264,47.8517,阿勒泰地区,市站,,40,18,11,14,7,3,,53,38,80,36,6,4,0.7,0.5
2024-01-11T2000,2630A,80.1161,32.5,阿里地区,阿里监测站,,24,5,17,2,8,75,,74,74,6,18,6,15,0.5,0.6
2024-01-11T2000,3192A,80.0903,32.5028,阿里地区,阿里藏医院,,27,9,16,4,6,84,,79,79,2,17,6,11,0.5,0.6
2024-01-11T2000,2642A,109.0318,32.6537,安康市,香溪洞,细颗粒物(PM2.5),52,47,79,36,67,94,,83,83,13,16,6,14,0.6,0.7
2024-01-11T2000,2643A,109.0281,32.6939,安康市,安康市监测站,细颗粒物(PM2.5),108,125,112,81,77,12,,59,53,71,38,12,10,1.8,1.1
2024-01-11T2000,2644A,109.0072,32.6975,安康市,汉滨区检察院,细颗粒物(PM2.5),79,84,87,58,64,30,,71,69,54,28,8,9,1.1,0.9
2024-01-11T2000,2291A,117.0809,30.5177,安庆市,环科院,细颗粒物(PM2.5),89,95,151,66,111,12,,72,68,102,49,10,9,0.8,0.9
2024-01-11T2000,2292A,117.0331,30.5119,安庆市,马山宾馆,细颗粒物(PM2.5),87,106,138,64,101,66,,62,62,42,49,8,7,0.6,0.7
2024-01-11T2000,2294A,116.9896,30.6145,安庆市,安庆大学,细颗粒物(PM2.5),74,93,152,54,109,99,,95,95,34,52,12,8,0.8,0.9
2024-01-11T2000,3173A,117.0598,30.5351,安庆市,市人大,细颗粒物(PM2.5),87,107,149,64,109,73,,77,77,42,52,7,5,0.8,1
2024-01-11T2000,3122A,105.9606,26.2611,安顺市,伍家关,,,,,,,,,,,,,,,,
2024-01-11T2000,3123A,105.9408,26.2431,安顺市,凤凰山,细颗粒物(PM2.5),62,51,28,44,25,21,,50,31,18,13,18,14,0.9,0.7
2024-01-11T2000,3124A,105.9439,26.2564,安顺市,金钟山,细颗粒物(PM2.5),69,63,31,50,25,16,,52,31,22,13,13,16,0.9,0.7
2024-01-11T2000,3125A,105.8983,26.2481,安顺市,娄家坡,,,73,34,48,26,,,49,33,22,11,19,15,0.9,0.7
2024-01-11T2000,1818A,114.4839,36.0621,安阳市,棉研所,,,,,,,,,,,,,,,,
2024-01-11T2000,1819A,114.3551,36.1017,安阳市,红庙街,细颗粒物(PM2.5),208,210,161,158,122,29,,54,52,71,60,12,14,1.5,1.5
2024-01-11T2000,1820A,114.361,36.0681,安阳市,银杏小区,细颗粒物(PM2.5),232,220,149,182,138,23,,52,50,78,61,8,8,1.6,1.4
2024-01-11T2000,3141A,114.3922,36.0878,安阳市,信访局,细颗粒物(PM2.5),225,197,165,175,139,27,,52,50,78,61,7,8,1.2,1.1
2024-01-11T2000,3669A,114.4705,36.0637,安阳市,左辅环卫站,细颗粒物(PM2.5),220,218,168,170,134,41,,55,54,56,50,8,8,1.2,1
2024-01-11T2000,3703A,114.2917,36.0949,安阳市,安钢职工学校,细颗粒物(PM2.5),204,204,174,154,123,22,,51,50,82,60,11,11,1.2,1.2
2024-01-11T2000,1748A,123.044,41.1196,鞍山市,深沟寺,,38,38,80,13,47,45,,61,61,27,28,5,14,0.5,1
2024-01-11T2000,1749A,123.011,41.0931,鞍山市,太阳城,,43,43,74,13,43,61,,64,64,18,29,10,19,0.5,1.1
2024-01-11T2000,1750A,123.0485,41.1442,鞍山市,太平,颗粒物(PM10),74,97,80,46,46,22,,60,57,64,31,12,15,1.6,0.9
2024-01-11T2000,1751A,122.9642,41.0971,鞍山市,铁西三道街,颗粒物(PM10),52,54,75,21,47,20,,54,48,52,30,19,16,1.4,1.2
2024-01-11T2000,1752A,122.9341,41.0833,鞍山市,铁西工业园区,细颗粒物(PM2.5),90,92,73,67,47,24,,57,50,57,30,19,18,1.3,1
2024-01-11T2000,1753A,123.022,41.0821,鞍山市,明达新区,,47,47,72,17,42,44,,57,57,29,28,12,15,0.6,1.2
2024-01-11T2000,1754A,123.1289,41.0228,鞍山市,千山,,,,,,,,,,,,,,,,
2024-01-11T2000,2195A,107.4212,40.761,巴彦淖尔市,附二中,颗粒物(PM10),120,189,147,68,63,10,,28,26,62,43,19,17,1.0,1.1
2024-01-11T2000,2196A,107.37,40.7372,巴彦淖尔市,市环保大楼,颗粒物(PM10),101,151,123,75,49,4,,34,29,68,35,11,8,1.7,0.9
2024-01-11T2000,1956A,86.1472,41.7538,巴音郭楞蒙古自治州,孔雀公园,颗粒物(PM10),119,188,162,83,69,37,,43,43,54,71,9,6,1.1,1.2
2024-01-11T2000,1957A,86.1972,41.7166,巴音郭楞蒙古自治州,棉纺厂,颗粒物(PM10),120,190,155,79,56,,,56,56,69,68,,5,1.1,1.1
2024-01-11T2000,1958A,86.2357,41.7173,巴音郭楞蒙古自治州,经济开发区,颗粒物(PM10),103,155,106,66,40,74,,66,66,31,43,4,5,0.9,0.6
2024-01-11T2000,2914A,106.7677,31.8794,巴中市,苏山坪,细颗粒物(PM2.5),67,64,67,48,53,97,,82,82,14,17,3,4,0.6,0.7
2024-01-11T2000,3182A,106.7656,31.8545,巴中市,丽阳花园,细颗粒物(PM2.5),90,92,97,67,77,4,,51,51,73,32,4,4,1.1,1
2024-01-11T2000,3183A,106.7418,31.8654,巴中市,圣泉水务公司,细颗粒物(PM2.5),99,106,87,74,68,3,,54,52,80,36,4,4,1.1,0.9
2024-01-11T2000,3616A,106.7616,31.8344,巴中市,市中心医院,细颗粒物(PM2.5),73,77,89,53,69,9,,56,56,63,26,3,3,1.1,0.9
2024-01-11T2000,2235A,122.7911,45.6077,白城市,洮北区环保局,,42,42,52,28,34,50,,57,54,20,16,7,7,0.6,0.6
2024-01-11T2000,2236A,122.8738,45.5725,白城市,市环保局,细颗粒物(PM2.5),63,71,69,45,37,13,,60,40,52,24,8,7,0.8,0.8
2024-01-11T2000,2231A,126.4219,41.9171,白山市,喜丰,,42,42,74,18,35,66,,59,59,11,27,7,17,0.6,1.1
2024-01-11T2000,2232A,126.4077,41.9419,白山市,环保局,颗粒物(PM10),60,69,86,16,41,68,,64,64,13,31,10,15,0.8,1.2
2024-01-11T2000,2647A,104.1724,36.5446,白银市,第三小学,颗粒物(PM10),87,123,109,57,51,29,,48,47,62,55,19,47,1.3,1.7
2024-01-11T2000,2648A,104.1465,36.5482,白银市,动力公司,细颗粒物(PM2.5),109,137,98,82,59,22,,56,53,86,46,43,36,1.9,1.9
2024-01-11T2000,2512A,106.6103,23.9011,百色市,市监测站,,42,42,41,21,27,20,,24,24,25,23,9,11,1.1,1
2024-01-11T2000,2513A,106.6538,23.8859,百色市,市中心血站,,35,35,33,16,25,16,,21,20,28,26,10,12,1.0,0.9
2024-01-11T2000,3406A,106.6085,23.8798,百色市,祈福高中,,46,46,32,25,27,10,,23,21,36,24,13,10,1.1,1
2024-01-11T2000,2270A,117.396,32.939,蚌埠市,工人疗养院,细颗粒物(PM2.5),93,110,139,69,108,78,,93,93,34,31,8,9,0.7,0.8
2024-01-11T2000,2271A,117.3605,32.9427,蚌埠市,百货大楼,细颗粒物(PM2.5),95,105,143,71,110,81,,91,91,36,35,4,5,0.6,0.8
2024-01-11T2000,2273A,117.4185,32.8911,蚌埠市,蚌埠学院,细颗粒物(PM2.5),102,112,133,76,104,70,,95,92,38,29,7,6,0.7,0.8
2024-01-11T2000,2274A,117.3533,32.9673,蚌埠市,淮上区政府,细颗粒物(PM2.5),95,100,144,71,112,83,,91,91,30,31,6,7,0.6,0.8
2024-01-11T2000,2275A,117.3145,32.8977,蚌埠市,高新区,细颗粒物(PM2.5),104,110,142,78,115,71,,90,88,59,55,6,6,0.7,0.8
2024-01-11T2000,3715A,117.3092,32.9314,蚌埠市,蚌埠田家炳中学,细颗粒物(PM2.5),112,122,159,84,136,61,,82,79,52,48,7,12,0.7,0.9
2024-01-11T2000,1585A,109.8756,40.6532,包头市,市环境监测站,细颗粒物(PM2.5),175,201,147,132,81,5,,18,14,96,73,34,27,2.5,2.2
2024-01-11T2000,1587A,109.9991,40.5842,包头市,包头八中,细颗粒物(PM2.5),195,234,177,146,114,5,,23,21,92,69,40,38,2.9,2.6
2024-01-11T2000,1588A,109.8538,40.6821,包头市,青山宾馆,细颗粒物(PM2.5),277,333,182,227,125,5,,20,15,106,78,37,31,5.3,3.2
2024-01-11T2000,1589A,109.8642,40.6288,包头市,惠龙物流,细颗粒物(PM2.5),190,228,153,143,89,2,,18,15,104,74,54,34,3.6,2.5
2024-01-11T2000,1590A,110.0377,40.5546,包头市,东河鸿龙湾,细颗粒物(PM2.5),175,175,152,132,104,17,,32,30,95,68,32,27,3.6,2.3
2024-01-11T2000,3283A,109.9154,40.5685,包头市,滨河大厦,细颗粒物(PM2.5),192,205,135,144,91,3,,20,18,99,70,32,24,3.3,1.9
2024-01-11T2000,3419A,109.9447,40.6261,包头市,包头市委党校,细颗粒物(PM2.5),158,200,143,120,79,8,,23,20,95,72,25,37,2.4,2.3
2024-01-11T2000,3683A,109.8331,40.6576,包头市,昆区政府,细颗粒物(PM2.5),247,273,176,197,122,4,,16,12,108,83,51,45,4.0,3.1
2024-01-11T2000,1930A,107.185,34.3063,宝鸡市,庙沟村,细颗粒物(PM2.5),98,98,75,73,51,36,,54,49,50,31,10,10,0.9,0.8
2024-01-11T2000,1931A,107.0708,34.3017,宝鸡市,竹园沟,细颗粒物(PM2.5),152,136,98,116,72,15,,33,29,55,52,2,4,1.1,1
2024-01-11T2000,1932A,107.1906,34.3672,宝鸡市,三陆医院,细颗粒物(PM2.5),125,103,112,95,76,6,,44,42,108,57,11,19,1.3,1
2024-01-11T2000,1933A,107.1431,34.3547,宝鸡市,监测站,细颗粒物(PM2.5),185,163,122,139,76,10,,42,40,82,61,5,7,1.3,1
2024-01-11T2000,1934A,107.1186,34.3739,宝鸡市,技工学校,细颗粒物(PM2.5),108,101,108,81,69,31,,49,49,68,54,9,13,1.0,0.9
2024-01-11T2000,1935A,107.3906,34.3528,宝鸡市,陈仓区环保局家属楼,细颗粒物(PM2.5),172,,128,130,84,16,,56,53,102,62,12,29,1.6,1.2
2024-01-11T2000,1936A,107.2058,34.3497,宝鸡市,文理学院,细颗粒物(PM2.5),129,142,128,98,73,4,,54,50,96,59,10,14,1.2,1
2024-01-11T2000,1937A,107.2386,34.3622,宝鸡市,三迪小学,细颗粒物(PM2.5),119,91,118,90,77,12,,40,38,101,63,10,14,1.5,1.1
2024-01-11T2000,1051A,115.493,38.8632,保定市,游泳馆,细颗粒物(PM2.5),165,151,139,125,110,10,,28,22,82,62,5,7,1.4,1.4
2024-01-11T2000,1052A,115.5213,38.8959,保定市,华电二区,细颗粒物(PM2.5),149,132,112,114,103,31,,40,39,65,58,6,7,1.1,1.2
2024-01-11T2000,1053A,115.4713,38.9108,保定市,接待中心,细颗粒物(PM2.5),153,138,133,117,107,25,,30,30,61,66,6,6,0.8,1.3
2024-01-11T2000,1054A,115.4612,38.8416,保定市,地表水厂,细颗粒物(PM2.5),173,146,142,131,111,4,,18,16,93,72,4,5,1.5,1.3
2024-01-11T2000,1056A,115.5086,38.8639,保定市,监测站,细颗粒物(PM2.5),169,148,129,128,104,10,,22,19,82,70,5,7,1.1,1.2
2024-01-11T2000,3581A,115.31981,38.95208,保定市,满城区生态环境分局,细颗粒物(PM2.5),138,180,149,105,95,2,,29,21,102,73,6,6,1.4,1.5
2024-01-11T2000,3582A,115.47694,38.76408,保定市,清苑区第二中学,细颗粒物(PM2.5),176,171,145,133,112,5,,19,16,99,72,7,8,1.5,1.3
2024-01-11T2000,3583A,115.62909,39.02311,保定市,徐水物探局,细颗粒物(PM2.5),149,151,145,114,97,3,,22,,83,58,6,7,1.5,1.4
2024-01-11T2000,4004A,115.4202,38.8656,保定市,双鹰农机,细颗粒物(PM2.5),127,132,126,96,94,13,,38,32,81,69,5,6,1.2,1.3
2024-01-11T2000,2594A,99.1678,25.1081,保山市,市环境监测站,细颗粒物(PM2.5),52,43,26,36,19,65,,86,86,14,11,7,6,0.7,0.6
2024-01-11T2000,2595A,99.1711,25.1328,保山市,市环保局,,34,34,33,21,24,82,,92,92,4,8,5,5,0.4,0.5
2024-01-11T2000,1866A,109.2262,21.588,北海市,牛尾岭水库,,,,,,,,,,,,,,,,
2024-01-11T2000,1867A,109.1436,21.4086,北海市,海滩公园,,42,40,50,29,35,124,,118,118,13,19,7,11,0.6,0.7
2024-01-11T2000,1868A,109.0981,21.4661,北海市,新市环保局,,49,,43,34,34,115,,110,110,18,22,6,11,0.9,0.9
2024-01-11T2000,1869A,109.1778,21.5233,北海市,北海工业园,细颗粒物(PM2.5),85,69,55,63,37,90,,94,94,18,19,6,13,0.7,0.6
2024-01-11T2000,3400A,109.1911,21.4415,北海市,龙潭自来水厂,,45,32,47,31,39,114,,110,110,12,17,8,12,0.7,0.8
2024-01-11T2000,1001A,116.3621,39.8784,北京市,万寿西宫,细颗粒物(PM2.5),129,148,124,98,82,0,,7,5,110,92,3,3,1.1,1.2
2024-01-11T2000,1002A,116.2202,40.2915,北京市,定陵,颗粒物(PM10),51,52,52,22,29,44,,56,55,13,24,1,3,0.4,0.4
2024-01-11T2000,1003A,116.4174,39.9289,北京市,东四,细颗粒物(PM2.5),123,158,126,93,76,3,,16,11,87,74,5,5,1.2,1.2
2024-01-11T2000,1004A,116.4072,39.8863,北京市,天坛,细颗粒物(PM2.5),135,149,115,103,82,5,,13,9,86,78,3,3,1.3,1.3
2024-01-11T2000,1005A,116.462,39.9365,北京市,农展馆,细颗粒物(PM2.5),132,165,125,100,77,7,,21,17,107,79,3,3,1.3,1.2
2024-01-11T2000,1006A,116.3392,39.9295,北京市,官园,细颗粒物(PM2.5),127,151,114,96,69,5,,18,13,90,77,3,3,1.2,1.2
2024-01-11T2000,1007A,116.2878,39.9611,北京市,海淀万柳,细颗粒物(PM2.5),120,160,105,91,59,7,,16,14,99,83,1,3,1.3,1
2024-01-11T2000,1008A,116.6636,40.135,北京市,顺义新城,细颗粒物(PM2.5),132,176,88,100,49,3,,41,34,84,52,3,2,1.1,0.6
2024-01-11T2000,1009A,116.6275,40.3275,北京市,怀柔镇,细颗粒物(PM2.5),123,174,65,93,34,2,,44,38,84,41,3,3,1.2,0.6
2024-01-11T2000,1010A,116.2296,40.217,北京市,昌平镇,颗粒物(PM10),70,90,68,38,32,20,,45,45,51,39,3,2,0.6,0.6
2024-01-11T2000,1011A,116.3966,39.9821,北京市,奥体中心,细颗粒物(PM2.5),115,157,100,87,60,6,,20,16,106,75,2,3,1.3,1.2
2024-01-11T2000,1012A,116.184,39.9136,北京市,古城,细颗粒物(PM2.5),123,161,105,93,56,3,,20,18,91,67,3,3,1.2,1.1
2024-01-11T2000,3281A,115.9718,40.4529,北京市,延庆夏都,,50,50,65,21,40,27,,41,38,36,33,3,3,0.5,0.7
2024-01-11T2000,3417A,117.0709,40.1465,北京市,平谷新城,细颗粒物(PM2.5),205,210,108,155,79,5,,31,23,88,51,1,2,1.9,1.1
2024-01-11T2000,3418A,116.8336,40.4095,北京市,密云新城,颗粒物(PM10),75,99,62,47,32,36,,65,64,36,31,3,2,0.6,0.4
2024-01-11T2000,3671A,116.088,39.9726,北京市,门头沟三家店,,,,,,,,,,,,,,,,
2024-01-11T2000,3672A,116.1541,39.8204,北京市,丰台云岗,细颗粒物(PM2.5),132,156,93,100,55,2,,31,25,95,68,2,3,1.0,0.6
2024-01-11T2000,3673A,116.6804,39.9081,北京市,通州东关,细颗粒物(PM2.5),107,146,114,80,72,0,,19,13,93,78,3,3,1.1,1
2024-01-11T2000,3674A,115.9577,39.7603,北京市,房山燕山,细颗粒物(PM2.5),84,87,77,62,59,14,,41,30,58,55,7,3,0.8,0.8
2024-01-11T2000,3675A,116.4672,39.7733,北京市,大兴旧宫,细颗粒物(PM2.5),138,146,139,105,104,1,,9,7,88,86,3,2,1.1,1.4
2024-01-11T2000,3694A,115.986,40.4563,北京市,延庆石河营,,49,49,64,21,40,21,,41,37,44,36,1,3,0.7,0.9
2024-01-11T2000,3695A,116.6151,40.3053,北京市,怀柔新城,细颗粒物(PM2.5),104,145,57,78,31,6,,49,45,68,33,3,2,0.9,0.4
2024-01-11T2000,3696A,116.2545,39.8768,北京市,丰台小屯,细颗粒物(PM2.5),130,165,118,99,66,1,,12,10,95,81,2,2,1.1,1.1
2024-01-11T2000,3697A,116.84,40.3844,北京市,密云镇,颗粒物(PM10),90,129,66,56,38,4,,46,41,77,46,5,3,0.9,0.6
2024-01-11T2000,1761A,123.8275,41.3064,本溪市,大峪,,33,33,54,11,29,59,,65,65,21,24,9,11,0.5,0.7
2024-01-11T2000,1762A,123.7567,41.3325,本溪市,溪湖,,40,40,64,14,37,50,,70,69,24,28,13,23,1.0,1.3
2024-01-11T2000,1763A,123.7169,41.3094,本溪市,彩屯,细颗粒物(PM2.5),82,111,70,60,45,31,,70,67,52,45,9,24,0.9,1.9
2024-01-11T2000,1764A,123.7669,41.2864,本溪市,东明,颗粒物(PM10),51,51,47,18,31,40,,63,62,40,28,12,16,0.6,0.7
2024-01-11T2000,1765A,123.7992,41.2664,本溪市,新立屯,,48,48,48,22,28,24,,65,62,48,25,8,11,0.4,0.5
2024-01-11T2000,1766A,123.8142,41.3472,本溪市,威宁,颗粒物(PM10),52,53,60,16,31,30,,63,60,42,30,6,9,0.3,0.5
2024-01-11T2000,2587A,105.2864,27.3125,毕节市,八中,细颗粒物(PM2.5),69,60,30,50,24,24,,56,36,22,16,7,7,1.0,0.9
2024-01-11T2000,2588A,105.31,27.2944,毕节市,师专,细颗粒物(PM2.5),57,50,26,40,22,31,,58,40,20,17,9,8,0.9,0.8
2024-01-11T2000,3537A,105.3631,27.3533,毕节市,长征村,细颗粒物(PM2.5),67,54,25,48,22,36,,61,45,11,11,8,7,0.8,0.9
2024-01-11T2000,1629A,118.0018,37.3617,滨州市,第二水厂,细颗粒物(PM2.5),217,256,160,167,103,5,,56,46,96,60,17,16,1.6,1.1
2024-01-11T2000,1630A,117.9776,37.393,滨州市,北中新校,细颗粒物(PM2.5),211,249,163,161,102,2,,58,45,104,59,12,18,1.8,1.1
2024-01-11T2000,3514A,117.9378,37.3956,滨州市,中海酒店,细颗粒物(PM2.5),214,240,156,164,112,13,,70,60,107,54,16,28,2.4,1.2
2024-01-11T2000,3515A,117.9378,37.3553,滨州市,开发区一中,细颗粒物(PM2.5),205,227,149,155,102,9,,62,56,100,59,19,22,1.4,1.1
2024-01-11T2000,3516A,118.0917,37.694,滨州市,金海六路,细颗粒物(PM2.5),218,233,149,168,98,9,,53,42,86,58,13,16,1.4,1.1
2024-01-11T2000,4028A,117.9956,37.3753,滨州市,滨州市西街道办事处,细颗粒物(PM2.5),235,309,158,185,108,4,,52,39,90,57,19,19,2.3,1.4
2024-01-11T2000,2311A,115.8072,33.8399,亳州市,污水处理厂,细颗粒物(PM2.5),99,123,154,74,112,82,,94,94,30,30,8,8,1.0,1.1
2024-01-11T2000,2312A,115.7789,33.8518,亳州市,三国揽胜宫,细颗粒物(PM2.5),109,142,183,82,111,80,,93,93,33,30,8,10,0.8,0.9
2024-01-11T2000,3332A,115.7633,33.8034,亳州市,亳州学院,细颗粒物(PM2.5),112,136,173,84,128,87,,99,99,27,29,8,7,0.8,1.3
2024-01-11T2000,2693A,82.0485,44.8556,博尔塔拉蒙古自治州,市党校,细颗粒物(PM2.5),77,89,69,56,43,10,,42,31,30,25,8,10,1.1,0.8
2024-01-11T2000,2694A,82.0806,44.8969,博尔塔拉蒙古自治州,市环保局,,,87,82,48,46,13,,30,28,42,40,11,12,,1.2
2024-01-11T2000,1071A,116.8842,38.2991,沧州市,沧县城建局,细颗粒物(PM2.5),237,216,137,187,108,10,,41,33,99,55,5,6,2.2,1.4
2024-01-11T2000,1072A,116.8584,38.3254,沧州市,电视转播站,细颗粒物(PM2.5),225,215,137,175,110,5,,40,30,91,49,11,12,1.8,1.1
2024-01-11T2000,1073A,116.8709,38.3228,沧州市,市环保局,细颗粒物(PM2.5),233,215,137,183,111,4,,36,26,84,48,7,7,1.6,1.1
2024-01-11T2000,3324A,116.8136,38.3004,沧州市,河北水利电力学院,细颗粒物(PM2.5),218,205,144,168,107,8,,42,34,81,51,11,12,1.5,0.9
2024-01-11T2000,2622A,97.1806,31.1273,昌都市,昌都监测站,细颗粒物(PM2.5),75,85,35,55,18,10,,53,46,69,28,9,7,2.0,1.1
2024-01-11T2000,3719A,97.1714,31.1406,昌都市,昌都会议中心,,20,16,10,14,8,56,,72,72,16,8,4,4,0.5,0.4
2024-01-11T2000,2690A,88.1236,43.8886,昌吉回族自治州,天山天池,,24,8,5,0,4,74,,83,80,4,4,6,6,0.4,0.4
2024-01-11T2000,2692A,87.2717,44.0297,昌吉回族自治州,新区政务中心,细颗粒物(PM2.5),200,201,204,150,150,,,53,53,61,58,5,5,,1.8
2024-01-11T2000,3613A,87.3095,44.0142,昌吉回族自治州,亚心广场,细颗粒物(PM2.5),221,217,209,171,170,30,,52,52,61,58,4,6,2.3,2
2024-01-11T2000,1119A,125.3325,43.9166,长春市,食品厂,细颗粒物(PM2.5),98,86,65,73,53,21,,43,38,52,37,11,13,0.8,0.8
2024-01-11T2000,1120A,125.2863,43.9027,长春市,客车厂,细颗粒物(PM2.5),104,,61,78,55,36,,50,48,39,32,7,12,0.7,0.8
2024-01-11T2000,1121A,125.2841,43.8463,长春市,邮电学院,细颗粒物(PM2.5),92,84,65,68,52,40,,50,49,33,28,27,15,0.6,0.8
2024-01-11T2000,1122A,125.3716,43.8772,长春市,劳动公园,细颗粒物(PM2.5),65,56,58,47,41,42,,58,56,36,31,17,12,0.4,0.6
2024-01-11T2000,1123A,125.3297,43.8805,长春市,园林处,细颗粒物(PM2.5),94,,56,70,48,28,,52,49,44,30,17,17,0.6,0.8
2024-01-11T2000,1124A,125.4605,43.79,长春市,净月潭,,46,46,48,32,35,37,,57,55,24,17,6,9,0.5,0.7
2024-01-11T2000,1125A,125.7194,43.515,长春市,甩湾子,,,,,,,,,,,,,,,,
2024-01-11T2000,1126A,125.3863,43.8447,长春市,经开区环卫处,细颗粒物(PM2.5),74,54,58,54,42,30,,49,46,41,31,27,13,0.7,0.8
2024-01-11T2000,1127A,125.245,43.7783,长春市,高新区管委会,细颗粒物(PM2.5),83,62,55,61,52,32,,53,49,42,28,8,10,0.6,0.8
2024-01-11T2000,1128A,125.1761,43.8325,长春市,岱山公园,细颗粒物(PM2.5),169,,62,128,63,21,,48,40,56,31,10,7,0.8,0.9
2024-01-11T2000,1335A,113.0833,28.2325,长沙市,经开区环保局,颗粒物(PM10),71,92,109,46,73,63,,95,92,41,50,7,7,0.6,0.8
2024-01-11T2000,1336A,112.8872,28.2189,长沙市,高开区环保局,细颗粒物(PM2.5),72,86,120,52,82,78,,90,90,25,52,6,6,0.8,0.9
2024-01-11T2000,1337A,113.0792,28.2053,长沙市,马坡岭,细颗粒物(PM2.5),67,80,108,48,82,62,,85,83,33,50,8,8,0.5,0.7
2024-01-11T2000,1338A,112.9394,28.19,长沙市,湖南师范大学,细颗粒物(PM2.5),78,96,113,57,80,63,,87,87,34,36,9,7,1.0,1
2024-01-11T2000,1339A,113.0178,28.1322,长沙市,雨花区环保局,细颗粒物(PM2.5),74,89,108,54,79,51,,83,81,47,54,6,7,0.8,1
2024-01-11T2000,1340A,112.9792,28.2597,长沙市,伍家岭,,,105,126,58,80,,,84,84,70,52,9,7,1.7,1.4
2024-01-11T2000,1341A,113.0014,28.1944,长沙市,火车新站,细颗粒物(PM2.5),100,114,113,75,86,61,,81,81,39,51,7,6,0.9,1.1
2024-01-11T2000,1342A,112.9844,28.1178,长沙市,天心区环保局,细颗粒物(PM2.5),77,91,112,56,75,61,,85,85,43,58,8,8,0.3,0.5
2024-01-11T2000,1343A,112.8908,28.1308,长沙市,湖南中医药大学,细颗粒物(PM2.5),79,98,117,58,86,32,,83,79,63,43,6,4,0.9,0.9
2024-01-11T2000,1344A,112.9581,28.3611,长沙市,沙坪,细颗粒物(PM2.5),70,65,74,51,62,51,,90,86,36,24,7,5,1.2,0.8
2024-01-11T2000,1727A,113.1147,36.1547,长治市,清华站,颗粒物(PM10),85,119,92,58,45,10,,51,46,86,45,15,16,1.0,1
2024-01-11T2000,1728A,113.1031,36.1989,长治市,监测站,细颗粒物(PM2.5),100,113,86,75,54,3,,46,43,99,57,16,17,1.8,1.2
2024-01-11T2000,1730A,113.0886,36.2125,长治市,审计局,细颗粒物(PM2.5),107,98,83,80,54,13,,47,45,92,52,22,19,1.5,1.1
2024-01-11T2000,1731A,113.0844,36.1856,长治市,长治八中,颗粒物(PM10),103,156,106,61,42,2,,25,,92,52,23,22,1.6,1.1
2024-01-11T2000,2845A,113.1569,36.1911,长治市,德盛苑,细颗粒物(PM2.5),58,59,68,41,40,71,,67,67,33,31,23,18,0.9,0.9
2024-01-11T2000,3568A,113.06,36.0464,长治市,向阳小学,细颗粒物(PM2.5),98,132,87,73,45,31,,77,64,66,32,24,20,1.1,0.9
2024-01-11T2000,3569A,112.8792,36.3144,长治市,屯留一中,细颗粒物(PM2.5),82,91,95,60,58,47,,64,62,69,60,32,25,1.0,1.2
2024-01-11T2000,3570A,113.235,36.3489,长治市,潞城四中,细颗粒物(PM2.5),119,173,122,90,70,11,,69,62,109,47,34,40,1.9,1.9
2024-01-11T2000,1854A,111.6975,28.9703,常德市,市二中,细颗粒物(PM2.5),108,116,134,81,115,51,,94,92,50,33,10,8,1.0,1
2024-01-11T2000,1857A,111.7158,29.1456,常德市,白鹤山,细颗粒物(PM2.5),92,90,139,68,92,53,,56,56,10,13,4,4,0.7,0.7
2024-01-11T2000,3138A,111.7153,29.0289,常德市,武陵区永安,细颗粒物(PM2.5),109,110,143,82,113,49,,89,84,51,36,10,9,0.9,1.1
2024-01-11T2000,3139A,111.6892,28.9881,常德市,鼎城区玉霞,细颗粒物(PM2.5),119,119,147,90,125,29,,86,83,69,42,11,10,1.2,1.3
2024-01-11T2000,3140A,111.6625,29.0531,常德市,武陵区长庚,细颗粒物(PM2.5),98,110,142,73,109,52,,87,83,45,34,7,6,1.1,1
2024-01-11T2000,1196A,119.9633,31.762,常州市,市监测站,细颗粒物(PM2.5),140,155,131,107,94,34,,76,65,86,65,10,11,0.9,1
2024-01-11T2000,1200A,119.9468,31.7069,常州市,武进监测站,细颗粒物(PM2.5),134,138,123,102,84,52,,76,72,58,58,49,11,0.9,1
2024-01-11T2000,1201A,119.9255,31.9087,常州市,安家,,,,106,,80,,,23,,,65,,12,,1.0
2024-01-11T2000,3002A,119.9805,31.8174,常州市,行政中心,细颗粒物(PM2.5),139,134,107,106,81,34,,72,64,85,56,11,14,0.7,1
2024-01-11T2000,3003A,120.0522,31.7748,常州市,经开区,细颗粒物(PM2.5),142,141,118,108,88,35,,78,68,81,72,8,11,1.1,1.2
2024-01-11T2000,3010A,119.9025,31.7964,常州市,钟楼,细颗粒物(PM2.5),139,128,113,106,90,46,,67,64,64,61,15,13,0.9,1
2024-01-11T2000,3429A,119.8598,31.7066,常州市,武进经发区,细颗粒物(PM2.5),137,133,130,104,97,41,,77,66,84,71,9,11,1.0,1.1
2024-01-11T2000,3430A,119.5826,31.7245,常州市,金坛城区,细颗粒物(PM2.5),158,137,116,120,89,25,,87,78,77,50,13,11,1.0,1
2024-01-11T2000,2220A,120.4318,41.5881,朝阳市,西梁,颗粒物(PM10),51,52,56,19,26,40,,69,63,30,23,14,15,0.8,0.9
2024-01-11T2000,2221A,120.4521,41.5646,朝阳市,河畔小区,,42,42,54,25,27,45,,70,66,25,25,28,13,0.8,1.2
2024-01-11T2000,2222A,120.4176,41.5648,朝阳市,八里堡,颗粒物(PM10),62,74,65,27,27,35,,69,62,34,25,15,14,0.8,1.1
2024-01-11T2000,2223A,120.3806,41.5969,朝阳市,农业园区,,42,42,47,8,29,32,,71,63,39,20,10,11,0.8,0.8
2024-01-11T2000,1705A,116.6367,23.6719,潮州市,西园路,细颗粒物(PM2.5),88,105,62,65,45,117,,129,129,23,20,7,6,0.4,0.4
2024-01-11T2000,1706A,116.6447,23.6706,潮州市,档案局,细颗粒物(PM2.5),84,71,51,62,43,109,,123,123,23,20,8,7,0.6,0.6
2024-01-11T2000,3026A,116.6183,23.6608,潮州市,市政府,细颗粒物(PM2.5),77,78,53,56,38,113,,125,125,20,17,8,7,0.8,0.8
2024-01-11T2000,2472A,113.0073,25.9061,郴州市,马头岭,颗粒物(PM10),73,95,94,49,50,17,,31,26,38,30,9,13,1.1,1.3
2024-01-11T2000,2473A,113.0116,25.8226,郴州市,市职中,细颗粒物(PM2.5),84,83,78,62,63,24,,44,41,30,25,8,11,1.0,1
2024-01-11T2000,2474A,113.0161,25.8001,郴州市,兴隆步行街,细颗粒物(PM2.5),100,106,100,75,80,27,,44,41,37,25,7,11,1.1,1.1
2024-01-11T2000,2475A,113.0383,25.8071,郴州市,市审计局,细颗粒物(PM2.5),80,86,84,59,67,25,,42,40,36,26,10,9,1.0,1.1
2024-01-11T2000,2476A,113.0348,25.7759,郴州市,市环保局,细颗粒物(PM2.5),92,83,94,68,83,25,,52,48,46,27,8,23,1.0,1.1
2024-01-11T2000,1431A,103.9728,30.7236,成都市,金泉两河,细颗粒物(PM2.5),182,156,138,137,106,0,,34,33,76,47,3,1,1.4,1.3
2024-01-11T2000,1432A,104.176,30.6872,成都市,十里店,细颗粒物(PM2.5),152,131,107,116,91,39,,76,76,57,44,3,3,1.1,1
2024-01-11T2000,1433A,104.079,30.5706,成都市,三瓦窑,细颗粒物(PM2.5),170,163,132,129,105,41,,65,65,37,31,3,2,1.3,1.1
2024-01-11T2000,1434A,104.1114,30.63,成都市,沙河铺,细颗粒物(PM2.5),147,145,116,112,93,31,,62,62,58,39,4,4,1.0,1
2024-01-11T2000,1437A,104.0786,30.6531,成都市,君平街,细颗粒物(PM2.5),198,171,135,148,115,25,,56,56,78,58,4,4,1.3,1.2
2024-01-11T2000,1438A,103.613,31.0283,成都市,灵岩寺,细颗粒物(PM2.5),165,216,100,125,90,76,,80,80,24,19,3,2,1.4,1.3
2024-01-11T2000,2880A,104.0239,30.65639,成都市,大石西路,细颗粒物(PM2.5),166,139,119,126,95,20,,49,49,76,57,2,3,1.1,1.2
2024-01-11T2000,3136A,104.2725,30.5589,成都市,龙泉驿区区政府,细颗粒物(PM2.5),98,88,98,73,79,76,,88,88,21,22,1,2,0.9,0.9
2024-01-11T2000,3357A,104.0106,30.6931,成都市,金博路,细颗粒物(PM2.5),162,168,131,123,99,8,,36,35,92,60,3,3,1.3,1.4
2024-01-11T2000,3359A,104.0578,30.5225,成都市,华阳,细颗粒物(PM2.5),134,134,113,102,89,16,,60,60,70,42,1,1,1.5,1.3
2024-01-11T2000,3487A,104.2394,30.5319,成都市,车城东七路,细颗粒物(PM2.5),95,87,113,71,96,46,,84,84,58,40,1,1,1.0,0.9
2024-01-11T2000,3488A,104.3853,30.7453,成都市,青白江技师分院,细颗粒物(PM2.5),107,109,102,80,82,46,,79,79,48,39,4,4,1.0,0.8
2024-01-11T2000,3489A,104.0789,30.4072,成都市,科学城,细颗粒物(PM2.5),113,98,104,85,90,53,,83,83,43,29,4,3,1.0,0.9
2024-01-11T2000,4011A,103.8506,30.6947,成都市,光华大道三段,细颗粒物(PM2.5),195,175,131,146,108,1,,32,29,87,57,1,2,2.3,1.3
2024-01-11T2000,1062A,117.9531,40.9081,承德市,铁路,细颗粒物(PM2.5),82,91,88,60,50,9,,20,17,60,52,16,13,1.3,1.3
2024-01-11T2000,1063A,117.9392,40.9763,承德市,中国银行,颗粒物(PM10),74,98,77,46,41,12,,35,31,50,42,4,6,1.0,1.1
2024-01-11T2000,1064A,117.9503,40.928,承德市,开发区,颗粒物(PM10),71,92,70,39,41,10,,28,24,59,48,12,12,1.1,1.2
2024-01-11T2000,1065A,117.8051,40.9655,承德市,文化中心,颗粒物(PM10),88,126,104,61,46,9,,35,31,63,48,14,12,1.1,1.2
2024-01-11T2000,1066A,117.9268,41.0026,承德市,离宫,,39,28,53,27,40,46,,44,44,14,32,3,5,0.3,0.8
2024-01-11T2000,2314A,117.47,30.6618,池州市,池州学院,细颗粒物(PM2.5),74,78,122,54,96,71,,82,82,32,34,13,8,0.9,0.9
2024-01-11T2000,3237A,117.4918,30.6617,池州市,展览馆,细颗粒物(PM2.5),112,,108,84,66,32,,80,76,65,41,12,8,1.6,1.1
2024-01-11T2000,3333A,117.5627,30.695,池州市,第八中学,细颗粒物(PM2.5),69,75,115,50,88,68,,88,88,43,34,17,7,1.3,1.2
2024-01-11T2000,3334A,117.5038,30.6243,池州市,第十二中学,细颗粒物(PM2.5),70,77,101,51,79,56,,85,85,50,37,5,5,0.5,0.9
2024-01-11T2000,1744A,118.9233,42.2816,赤峰市,松山一中,,22,22,37,13,8,60,,72,70,18,16,4,4,0.5,0.5
2024-01-11T2000,1745A,118.9576,42.2728,赤峰市,哈达街,,,22,43,,30,44,,62,59,29,20,12,9,0.6,0.5
2024-01-11T2000,1746A,118.8788,42.2554,赤峰市,天义路,,,31,38,9,11,41,,65,60,33,23,,8,0.5,0.4
2024-01-11T2000,3058A,119.2658,42.0353,赤峰市,银河街,,44,44,44,21,19,45,,65,60,31,20,21,19,0.5,0.5
2024-01-11T2000,3286A,118.9359,42.3147,赤峰市,桥北物流园区,,29,29,37,19,13,42,,71,65,36,23,13,8,0.9,0.7
2024-01-11T2000,2521A,107.3476,22.4136,崇左市,市环保局江州分局,,25,23,20,17,14,32,,33,32,18,8,6,6,0.9,0.8
2024-01-11T2000,2522A,107.3702,22.3707,崇左市,城南新区,,29,,21,20,14,37,,35,35,19,17,6,6,0.8,0.7
2024-01-11T2000,2298A,118.3093,32.3153,滁州市,老年大学,细颗粒物(PM2.5),119,119,110,90,89,42,,76,74,64,49,10,8,1.1,0.9
2024-01-11T2000,2299A,118.3244,32.2786,滁州市,人大宾馆,细颗粒物(PM2.5),114,139,125,86,101,25,,72,67,96,61,8,8,0.9,0.9
2024-01-11T2000,3207A,118.3118,32.3038,滁州市,市政府原办公楼,细颗粒物(PM2.5),109,109,115,82,89,55,,72,71,54,51,9,7,0.9,0.8
2024-01-11T2000,3331A,118.3267,32.2634,滁州市,图书馆,细颗粒物(PM2.5),104,117,124,78,94,60,,75,75,47,50,11,9,0.9,0.9
2024-01-11T2000,2605A,101.5482,25.0441,楚雄彝族自治州,州环境监测站,,26,22,34,18,27,69,,79,79,9,24,5,7,0.6,0.7
2024-01-11T2000,2606A,101.538,25.0492,楚雄彝族自治州,市经济开发区,,40,40,40,20,25,63,,76,76,16,23,6,7,0.6,0.6
2024-01-11T2000,2548A,107.5277,31.2827,达州市,达州职业技术学院,细颗粒物(PM2.5),112,128,135,84,107,8,,32,32,67,34,9,11,1.7,1.5
2024-01-11T2000,2549A,107.5086,31.2186,达州市,市环境监测站,细颗粒物(PM2.5),147,166,156,112,125,6,,28,28,86,48,10,10,1.9,1.6
2024-01-11T2000,2550A,107.4988,31.2132,达州市,凤凰小区,细颗粒物(PM2.5),153,180,162,117,124,8,,26,26,91,48,10,11,2.6,1.8
2024-01-11T2000,2551A,107.5082,31.1986,达州市,达县机关宾馆,细颗粒物(PM2.5),129,161,152,98,108,4,,26,26,78,54,8,9,1.2,1.3
2024-01-11T2000,2552A,107.4644,31.2124,达州市,市政中心,细颗粒物(PM2.5),132,156,175,100,126,5,,32,32,94,52,10,16,2.0,1.9
2024-01-11T2000,2614A,100.1542,25.7054,大理白族自治州,大理市环境监测站,,31,31,28,21,21,83,,86,86,18,16,6,6,0.6,0.6
2024-01-11T2000,2615A,100.2171,25.5811,大理白族自治州,大理古城,,39,39,26,25,20,49,,86,82,38,17,7,6,0.6,0.8
2024-01-11T2000,1109A,121.612,38.9741,大连市,甘井子,细颗粒物(PM2.5),55,58,99,39,73,41,,48,42,43,36,11,10,0.1,0.7
2024-01-11T2000,1110A,121.565,38.9511,大连市,周水子,细颗粒物(PM2.5),94,91,96,70,74,8,,39,29,75,38,16,15,1.2,1
2024-01-11T2000,1111A,121.5637,38.8845,大连市,星海三站,细颗粒物(PM2.5),80,78,93,59,72,17,,52,41,56,32,17,13,1.0,0.9
2024-01-11T2000,1112A,121.6302,38.9117,大连市,青泥洼桥,细颗粒物(PM2.5),54,56,97,38,72,31,,45,33,56,39,15,15,0.8,1
2024-01-11T2000,1113A,121.6251,38.8638,大连市,傅家庄,,42,34,102,29,64,39,,53,44,39,27,20,15,1.0,1
2024-01-11T2000,1114A,121.5213,38.8661,大连市,七贤岭,细颗粒物(PM2.5),59,58,99,42,66,42,,53,51,37,32,16,51,1.1,1.2
2024-01-11T2000,1115A,121.2529,38.8061,大连市,旅顺,细颗粒物(PM2.5),87,82,99,64,73,43,,50,46,34,29,13,13,1.5,1.3
2024-01-11T2000,1116A,121.7485,39.1311,大连市,金州,,23,23,97,15,69,62,,49,49,16,30,10,11,0.6,1.1
2024-01-11T2000,1117A,121.7811,39.0496,大连市,开发区,,37,37,97,11,69,64,,46,46,17,39,8,13,0.5,0.9
2024-01-11T2000,1118A,121.9762,39.0631,大连市,双D港,,46,46,94,17,65,65,,56,56,15,24,11,11,0.7,1
2024-01-11T2000,1789A,124.81117,46.03138,大庆市,大同区,细颗粒物(PM2.5),60,52,68,43,47,52,,54,54,11,20,9,11,0.5,0.7
2024-01-11T2000,1790A,125.129,46.533,大庆市,龙凤区,,45,45,65,28,42,42,,47,45,24,28,6,6,0.3,1
2024-01-11T2000,1791A,124.902,46.408,大庆市,红岗区,,38,35,57,26,39,57,,57,57,10,21,7,8,0.3,0.5
2024-01-11T2000,1792A,125.153,46.586,大庆市,萨尔图区,,45,36,67,31,49,49,,51,50,23,29,8,9,0.6,0.6
2024-01-11T2000,1793A,124.9042,46.6215,大庆市,让胡路区,,39,39,68,22,38,52,,53,53,10,21,6,6,0.4,0.5
2024-01-11T2000,3481A,125.141,46.634,大庆市,萨区政府监测点,,35,30,75,24,55,45,,48,48,18,28,8,9,0.4,0.5
2024-01-11T2000,1721A,113.3819,40.1097,大同市,果树场,,,,,,,,,,,,,,,,
2024-01-11T2000,1723A,113.2994,40.0758,大同市,云冈宾馆,颗粒物(PM10),93,135,104,56,46,15,,40,37,74,56,21,22,1.5,1.6
2024-01-11T2000,1724A,113.3444,40.0917,大同市,大同大学,颗粒物(PM10),87,124,96,56,43,21,,40,34,69,55,21,20,1.4,1.1
2024-01-11T2000,1725A,113.2661,40.1269,大同市,安家小村,颗粒物(PM10),75,100,91,50,42,12,,51,45,74,45,25,23,1.1,1.1
2024-01-11T2000,1726A,113.2711,40.0844,大同市,教育学院,颗粒物(PM10),99,148,107,63,41,15,,47,42,89,59,20,20,1.9,1.8
2024-01-11T2000,3282A,113.3397,40.0597,大同市,大同市卫生学校,细颗粒物(PM2.5),82,110,79,60,42,18,,38,31,74,59,23,21,1.2,1
2024-01-11T2000,3565A,113.1367,40.1122,大同市,云冈站,颗粒物(PM10),70,89,72,40,33,7,,62,56,66,36,34,25,0.9,0.8
2024-01-11T2000,3566A,113.1186,40.2556,大同市,图书馆,细颗粒物(PM2.5),110,142,94,83,58,15,,48,44,59,34,14,27,1.6,1.1
2024-01-11T2000,3567A,113.5931,40.0461,大同市,区一中,颗粒物(PM10),122,194,111,79,54,13,,48,40,60,47,51,39,1.5,1.4
2024-01-11T2000,3676A,113.2802,40.0995,大同市,第二人民医院,细颗粒物(PM2.5),108,148,111,81,44,8,,49,44,87,53,21,20,1.7,1.8
2024-01-11T2000,2269A,124.1069,50.4097,大兴安岭地区,科技局,,43,31,20,30,20,50,,53,52,9,7,9,7,0.5,0.4
2024-01-11T2000,3663A,124.1164,50.4278,大兴安岭地区,红旗社区,细颗粒物(PM2.5),83,63,23,61,18,15,,56,48,48,16,19,8,0.8,0.4
2024-01-11T2000,1600A,124.3303,40.0625,丹东市,江湾东路,细颗粒物(PM2.5),82,78,79,60,65,46,,54,50,34,32,22,18,1.2,1.3
2024-01-11T2000,1601A,124.4256,40.1503,丹东市,临江后街,细颗粒物(PM2.5),122,122,74,92,53,19,,63,51,74,31,18,20,1.9,1.7
2024-01-11T2000,1602A,124.3933,40.1461,丹东市,元宝山,细颗粒物(PM2.5),65,67,61,47,48,57,,53,53,22,24,20,15,0.9,1.2
2024-01-11T2000,1603A,124.3633,40.1092,丹东市,民主桥,颗粒物(PM10),59,67,70,37,49,49,,52,44,32,30,13,14,0.8,1
2024-01-11T2000,3541A,109.5726,19.5167,儋州市,第一中学子站,,29,29,29,14,18,88,,96,93,4,5,4,6,0.6,0.7
2024-01-11T2000,3542A,109.5567,19.5187,儋州市,东坡学校子站,,36,36,33,15,17,90,,97,94,2,3,5,6,0.6,0.6
2024-01-11T2000,2616A,98.5842,24.428,德宏傣族景颇族自治州,德宏州监测站,细颗粒物(PM2.5),83,86,57,61,43,36,,74,69,42,27,17,24,0.8,0.5
2024-01-11T2000,3677A,98.5881,24.4368,德宏傣族景颇族自治州,芒市人民政府综合楼,,49,49,50,31,35,52,,76,76,26,20,15,15,0.7,0.7
2024-01-11T2000,1901A,104.4239,31.1208,德阳市,东山公园,细颗粒物(PM2.5),98,84,95,73,87,72,,75,75,26,31,1,2,0.7,0.9
2024-01-11T2000,1902A,104.3826,31.1317,德阳市,西小区,细颗粒物(PM2.5),113,98,116,85,107,48,,70,70,40,41,3,2,0.9,1.1
2024-01-11T2000,1904A,104.3553,31.1091,德阳市,耐火材料厂,细颗粒物(PM2.5),128,105,131,97,114,55,,76,76,31,38,2,4,0.7,1
2024-01-11T2000,3639A,104.4019,31.1244,德阳市,市教育局,细颗粒物(PM2.5),113,91,98,85,89,32,,69,69,57,43,3,3,0.9,1
2024-01-11T2000,1622A,116.3032,37.4674,德州市,儿童乐园,细颗粒物(PM2.5),245,261,177,195,130,37,,60,57,62,38,12,11,1.6,1.2
2024-01-11T2000,1624A,116.2991,37.4451,德州市,监理站,细颗粒物(PM2.5),250,277,174,200,132,23,,65,60,91,45,15,14,1.7,1.1
2024-01-11T2000,3066A,116.2721,37.4379,德州市,九衢泉纯净水厂,细颗粒物(PM2.5),233,274,173,183,118,19,,61,53,89,41,14,10,1.9,1.1
2024-01-11T2000,3371A,116.3728,37.4403,德州市,开发区人民医院,细颗粒物(PM2.5),238,276,187,188,128,14,,62,53,97,45,8,7,1.7,1.1
2024-01-11T2000,3372A,116.3572,37.4094,德州市,太阳城中学,细颗粒物(PM2.5),245,241,172,195,129,12,,62,56,88,41,8,9,1.5,1.2
2024-01-11T2000,3511A,116.5652,37.3319,德州市,陵城艺术中心,细颗粒物(PM2.5),279,295,184,229,137,22,,62,57,90,51,18,8,2.2,1.4
2024-01-11T2000,2621A,99.7056,27.8317,迪庆藏族自治州,迪庆州站,,29,29,29,17,19,69,,83,82,18,14,9,8,0.7,0.6
2024-01-11T2000,3180A,99.7136,27.8094,迪庆藏族自治州,质量技术监督局,,40,,27,28,20,72,,81,81,9,13,7,7,0.5,0.7
2024-01-11T2000,2663A,104.6241,35.5734,定西市,东关小学,细颗粒物(PM2.5),190,212,110,143,60,2,,60,55,74,29,84,30,2.5,1.4
2024-01-11T2000,2664A,104.6194,35.5934,定西市,供电公司,细颗粒物(PM2.5),114,149,90,86,54,9,,63,60,76,32,51,20,2.1,1.1
2024-01-11T2000,1389A,113.7547,23.0494,东莞市,莞城梨川,颗粒物(PM10),59,67,39,39,24,68,,112,108,50,27,9,9,1.0,0.8
2024-01-11T2000,1390A,113.7944,23.0128,东莞市,东城石井,,45,45,39,29,25,67,,114,108,30,24,10,12,0.9,0.7
2024-01-11T2000,1391A,113.7383,22.9658,东莞市,南城西平,颗粒物(PM10),62,73,43,40,23,72,,113,111,62,35,13,12,0.9,0.9
2024-01-11T2000,3319A,113.7338,23.0381,东莞市,万江金泰,颗粒物(PM10),61,71,41,39,24,58,,103,100,49,26,8,8,0.9,0.7
2024-01-11T2000,3626A,113.7533,23.0202,东莞市,南城元岭,颗粒物(PM10),58,65,39,34,22,67,,113,111,47,22,10,10,1.0,0.8
2024-01-11T2000,3627A,113.7875,23.0457,东莞市,东城主山,,,61,37,34,23,,,110,110,50,32,9,10,0.8,0.7
2024-01-11T2000,1666A,118.6614,37.4309,东营市,市环保局,细颗粒物(PM2.5),199,215,129,149,86,29,,61,56,89,61,25,22,1.3,1
2024-01-11T2000,3036A,118.6904,37.4338,东营市,开发区管委会,细颗粒物(PM2.5),203,195,130,153,91,48,,66,65,69,64,14,18,1.0,0.8
2024-01-11T2000,3365A,118.5719,37.565,东营市,垦利区民丰路,细颗粒物(PM2.5),195,234,144,146,95,41,,68,60,55,63,12,27,1.3,1.1
2024-01-11T2000,3498A,118.5055,37.8612,东营市,河口城区,细颗粒物(PM2.5),213,234,150,163,97,37,,66,63,64,53,4,19,1.4,1.2
2024-01-11T2000,3646A,118.4978,37.4623,东营市,胜利站,细颗粒物(PM2.5),223,263,150,173,100,13,,57,50,100,68,16,20,1.4,1.1
2024-01-11T2000,3734A,118.35,37.26,东营市,理想之城,细颗粒物(PM2.5),201,241,138,151,82,10,,55,47,120,76,18,18,1.5,1.1
2024-01-11T2000,1591A,110.0023,39.8129,鄂尔多斯市,综合楼,颗粒物(PM10),108,166,89,51,27,8,,67,55,83,45,23,17,1.4,0.9
2024-01-11T2000,1592A,109.9486,39.8261,鄂尔多斯市,巴音孟克林场办事处,颗粒物(PM10),96,141,54,53,22,6,,62,50,73,32,26,16,1.5,0.7
2024-01-11T2000,1593A,109.7736,39.5986,鄂尔多斯市,康泽苑,,32,29,42,22,26,28,,65,62,49,42,8,8,0.8,0.8
2024-01-11T2000,1594A,109.8119,39.5989,鄂尔多斯市,华泰汽车城,,44,44,51,19,25,6,,59,55,74,52,6,6,1.1,0.8
2024-01-11T2000,1595A,109.9734,39.7884,鄂尔多斯市,奥林花园,颗粒物(PM10),123,195,83,51,28,8,,60,51,74,56,13,11,1.6,0.9
2024-01-11T2000,2436A,114.8938,30.3994,鄂州市,市政府,细颗粒物(PM2.5),173,,143,131,132,22,,80,70,94,42,10,11,1.5,1.3
2024-01-11T2000,2437A,114.8989,30.3714,鄂州市,赵家坝,细颗粒物(PM2.5),149,121,128,114,125,61,,83,83,71,49,12,8,1.3,1.1
2024-01-11T2000,3654A,114.8094,30.4089,鄂州市,精准医疗中心,细颗粒物(PM2.5),166,186,175,126,122,68,,101,101,57,49,17,53,1.2,1.6
2024-01-11T2000,2454A,109.4978,30.2981,恩施土家族苗族自治州,湖北民院,细颗粒物(PM2.5),84,91,95,62,77,22,,81,74,92,24,6,10,1.1,1.4
2024-01-11T2000,2455A,109.4707,30.2798,恩施土家族苗族自治州,州电力总公司,颗粒物(PM10),80,109,115,52,66,37,,62,62,49,28,6,6,1.2,1.3
2024-01-11T2000,3549A,109.5061,30.3772,恩施土家族苗族自治州,龙凤新区,颗粒物(PM10),78,105,84,52,73,65,,79,79,29,28,7,6,1.0,1.1
2024-01-11T2000,2499A,108.3411,21.6158,防城港市,沙万,,36,34,30,25,24,27,,33,33,22,18,3,3,0.9,0.8
2024-01-11T2000,2500A,108.3514,21.7731,防城港市,防城档案局,,32,27,44,22,25,21,,30,29,25,27,4,4,1.0,0.9
2024-01-11T2000,2501A,108.3506,21.6414,防城港市,大海花园,,33,33,32,22,21,31,,37,37,21,18,2,4,0.9,0.8
2024-01-11T2000,1371A,113.1294,23.0067,佛山市,湾梁,颗粒物(PM10),64,78,47,30,17,52,,72,70,50,27,10,8,0.6,0.6
2024-01-11T2000,1372A,113.1083,23.0478,佛山市,华材职中,颗粒物(PM10),67,83,52,44,30,45,,68,67,71,40,10,7,0.7,0.6
2024-01-11T2000,1373A,113.144,23.0453,佛山市,南海气象局,,,,43,,22,55,,70,69,60,38,7,6,,0.7
2024-01-11T2000,1374A,113.2881,22.8094,佛山市,顺德苏岗,颗粒物(PM10),64,77,37,34,24,11,,74,67,90,38,8,10,1.0,0.8
2024-01-11T2000,1376A,112.8383,22.8678,佛山市,高明孔堂,颗粒物(PM10),65,79,53,34,26,44,,69,67,38,23,8,9,0.8,0.7
2024-01-11T2000,1377A,112.8836,23.1588,佛山市,三水监测站,颗粒物(PM10),67,83,46,40,28,24,,79,70,81,28,8,8,0.9,0.8
2024-01-11T2000,1378A,112.867,23.185,佛山市,三水云东海,,39,35,41,27,31,51,,74,71,35,29,7,8,0.7,0.7
2024-01-11T2000,3625A,113.2544,22.7642,佛山市,容桂街道办,颗粒物(PM10),70,90,42,36,20,18,,72,68,91,35,6,7,0.8,0.6
2024-01-11T2000,1280A,119.3903,26.0543,福州市,鼓山,,,,,,,,,,,,,,,,
2024-01-11T2000,1282A,119.2681,26.0504,福州市,师大,细颗粒物(PM2.5),113,,68,85,65,104,,109,109,29,22,7,6,0.8,0.7
2024-01-11T2000,1283A,119.2984,26.1028,福州市,五四北路,细颗粒物(PM2.5),124,,63,94,75,99,,106,106,31,26,4,4,0.9,0.8
2024-01-11T2000,1284A,119.2648,26.0768,福州市,杨桥西路,细颗粒物(PM2.5),120,,73,91,71,106,,115,115,26,19,4,5,0.8,0.7
2024-01-11T2000,1285A,119.317,26.0746,福州市,紫阳,细颗粒物(PM2.5),114,,70,86,68,94,,104,104,29,22,6,7,0.9,0.8
2024-01-11T2000,3048A,119.5799,26.0936,福州市,九龙,细颗粒物(PM2.5),95,,62,71,59,103,,118,118,18,20,4,4,0.7,0.7
2024-01-11T2000,3526A,119.5189,25.9664,福州市,吴航,细颗粒物(PM2.5),82,103,89,60,55,124,,119,119,19,19,6,5,1.0,0.9
2024-01-11T2000,1755A,123.7977,41.8491,抚顺市,望花区,颗粒物(PM10),62,74,61,29,33,37,,68,62,40,28,11,16,0.7,1
2024-01-11T2000,1756A,123.9161,41.8822,抚顺市,顺城区,颗粒物(PM10),59,68,72,24,39,14,,75,66,64,37,6,8,0.6,0.8
2024-01-11T2000,1757A,124.0436,41.8611,抚顺市,东洲区,颗粒物(PM10),54,57,61,23,33,47,,73,70,25,23,9,10,0.4,0.7
2024-01-11T2000,1758A,123.9247,41.8642,抚顺市,新抚区,颗粒物(PM10),56,62,79,31,55,28,,74,67,41,35,6,9,0.6,1.1
2024-01-11T2000,1759A,124.0972,41.8961,抚顺市,大伙房水库,颗粒物(PM10),51,52,52,13,31,64,,74,73,9,18,7,9,0.4,0.7
2024-01-11T2000,1760A,123.7086,41.8391,抚顺市,沈抚新城,颗粒物(PM10),62,74,68,14,28,46,,77,70,35,26,7,10,0.5,0.9
2024-01-11T2000,2376A,116.2127,28.0814,抚州市,桐源党溪,细颗粒物(PM2.5),53,50,56,37,36,38,,92,84,24,25,4,6,0.7,0.7
2024-01-11T2000,2377A,116.3544,27.9831,抚州市,市站,颗粒物(PM10),80,110,72,50,38,9,,95,83,110,40,24,8,1.2,0.8
2024-01-11T2000,2378A,116.3565,27.963,抚州市,血防站,颗粒物(PM10),65,79,70,36,37,69,,95,94,44,32,18,12,0.7,0.7
2024-01-11T2000,2379A,116.3564,28.0007,抚州市,采茶剧团,颗粒物(PM10),61,71,64,41,40,18,,87,80,111,33,14,6,0.9,0.8
2024-01-11T2000,2380A,116.385,27.9647,抚州市,医学分院,颗粒物(PM10),66,81,67,40,34,47,,96,91,54,24,10,9,0.8,0.8
2024-01-11T2000,2207A,121.6094,41.998,阜新市,工业园区,颗粒物(PM10),73,95,92,25,30,26,,67,55,47,45,14,18,0.9,1.1
2024-01-11T2000,2208A,121.6697,42.0279,阜新市,长青街,颗粒物(PM10),65,80,75,18,32,58,,68,62,13,36,3,13,0.2,0.9
2024-01-11T2000,2209A,121.6673,42.0705,阜新市,农业园区,颗粒物(PM10),56,61,67,9,28,63,,70,67,13,31,8,21,0.4,0.8
2024-01-11T2000,2210A,121.6717,42.0224,阜新市,东苑,,,,,,,,,,,,,,,,
2024-01-11T2000,2211A,121.6506,42.0498,阜新市,玉龙新城,颗粒物(PM10),66,82,64,42,30,19,,72,57,53,37,9,15,0.6,0.8
2024-01-11T2000,2301A,115.8277,32.8929,阜阳市,市监测站,细颗粒物(PM2.5),109,98,161,82,137,91,,105,105,31,34,8,7,0.6,0.8
2024-01-11T2000,2303A,115.8554,32.8605,阜阳市,开发区,颗粒物(PM10),99,147,191,73,129,77,,109,108,42,38,10,10,0.7,0.8
2024-01-11T2000,2875A,115.784,32.8892,阜阳市,阜阳职业技术学院,细颗粒物(PM2.5),98,105,155,73,124,94,,113,113,24,25,7,6,0.7,0.9
2024-01-11T2000,3468A,115.7901,32.8613,阜阳市,市规划展馆,细颗粒物(PM2.5),94,103,177,70,132,101,,115,115,26,33,7,6,0.8,0.9
2024-01-11T2000,3469A,115.836,32.9183,阜阳市,枣园社区,细颗粒物(PM2.5),92,96,172,68,134,94,,111,111,32,32,6,7,0.7,0.9
2024-01-11T2000,2669A,102.9099,34.9841,甘南藏族自治州,州政府,颗粒物(PM10),65,79,56,28,33,11,,69,65,63,35,26,18,1.1,1
2024-01-11T2000,3380A,102.8914,34.9617,甘南藏族自治州,甘肃民族师范学院,颗粒物(PM10),60,69,56,23,27,7,,68,65,56,36,9,14,0.6,0.8
2024-01-11T2000,2570A,101.9603,30.0475,甘孜藏族自治州,水桥子,,35,35,29,21,17,30,,72,70,44,28,10,9,0.5,0.4
2024-01-11T2000,3065A,101.9533,29.9972,甘孜藏族自治州,州环保局,,33,33,24,11,7,55,,71,71,19,13,9,8,0.5,0.3
2024-01-11T2000,3414A,115.8347,28.932,赣江新区,桑海产业园,细颗粒物(PM2.5),82,112,103,60,59,48,,72,70,73,62,7,6,0.6,0.6
2024-01-11T2000,2362A,114.9017,25.9149,赣州市,通天岩,,,,,,,,,,,,,,,,
2024-01-11T2000,2363A,114.9367,25.8664,赣州市,地委,颗粒物(PM10),73,95,57,36,35,15,,71,65,78,29,5,7,1.5,1.1
2024-01-11T2000,2364A,114.9461,25.8481,赣州市,气象台,颗粒物(PM10),67,83,56,38,36,29,,75,71,71,35,10,11,1.1,0.9
2024-01-11T2000,2365A,114.9322,25.8333,赣州市,市图书馆,颗粒物(PM10),67,84,59,28,31,14,,75,69,88,35,7,8,1.3,1
2024-01-11T2000,2366A,114.8905,25.8471,赣州市,华坚鞋城,颗粒物(PM10),67,83,65,37,35,21,,80,73,68,27,3,5,1.4,1
2024-01-11T2000,3109A,115.0093,25.8613,赣州市,赣县区卫计委,颗粒物(PM10),68,86,52,38,32,25,,72,67,52,33,6,7,1.0,0.9
2024-01-11T2000,2683A,106.2319,36.1417,固原市,马园,细颗粒物(PM2.5),68,68,61,49,28,35,,92,83,56,21,7,5,0.8,0.6
2024-01-11T2000,2684A,106.2792,36.0022,固原市,监测站,细颗粒物(PM2.5),85,85,63,63,38,34,,89,81,39,37,19,10,1.2,1
2024-01-11T2000,2685A,106.2375,36.0211,固原市,新区,颗粒物(PM10),56,62,63,34,31,8,,81,70,65,33,8,7,1.2,0.8
2024-01-11T2000,3522A,106.2177,35.9959,固原市,原州区十五小,,49,49,42,25,21,77,,88,87,17,11,7,6,0.6,0.5
2024-01-11T2000,2543A,106.6308,30.5278,广安市,小平旧居,,,,,,,,,,,,,,,,
2024-01-11T2000,2544A,106.6303,30.4576,广安市,市委,细颗粒物(PM2.5),132,169,120,100,97,8,,52,51,81,29,10,9,2.2,1.1
2024-01-11T2000,2545A,106.6271,30.4663,广安市,友谊中学,细颗粒物(PM2.5),113,106,115,85,97,14,,47,47,64,31,4,8,1.4,1.2
2024-01-11T2000,2547A,106.6388,30.4551,广安市,广电花园,细颗粒物(PM2.5),145,156,109,111,100,5,,46,45,86,32,5,6,2.4,1.2
2024-01-11T2000,2902A,106.6351,30.4865,广安市,北辰小学,细颗粒物(PM2.5),117,110,110,88,100,33,,57,57,56,29,9,9,1.2,1.1
2024-01-11T2000,2523A,105.8945,32.4535,广元市,黑石坡,细颗粒物(PM2.5),129,,71,98,57,81,,67,67,28,31,33,10,1.2,0.9
2024-01-11T2000,2524A,105.821,32.4444,广元市,老城,细颗粒物(PM2.5),109,152,94,82,57,4,,35,34,89,53,9,11,1.4,1.2
2024-01-11T2000,2526A,105.8628,32.4287,广元市,监测站,细颗粒物(PM2.5),69,76,82,50,58,56,,42,42,31,41,3,9,0.6,1
2024-01-11T2000,3617A,105.8047,32.4166,广元市,经开区,细颗粒物(PM2.5),107,107,100,80,64,7,,39,38,84,49,8,15,1.6,1.2
2024-01-11T2000,1345A,113.2347,23.1423,广州市,广雅中学,颗粒物(PM10),63,76,49,37,26,34,,56,53,80,43,8,5,0.9,0.8
2024-01-11T2000,1346A,113.2612,23.105,广州市,市五中,颗粒物(PM10),64,78,46,43,30,26,,67,60,82,31,9,8,0.9,0.8
2024-01-11T2000,1348A,113.3478,23.0916,广州市,广东商学院,颗粒物(PM10),56,61,44,30,24,51,,61,61,53,31,6,5,0.7,0.7
2024-01-11T2000,1349A,113.4332,23.1047,广州市,市八十六中,颗粒物(PM10),59,68,50,34,26,56,,55,55,44,39,5,5,0.9,0.8
2024-01-11T2000,1350A,113.3505,22.9483,广州市,番禺中学,颗粒物(PM10),66,81,47,42,24,30,,68,64,97,47,5,6,0.8,0.7
2024-01-11T2000,1351A,113.2146,23.3916,广州市,花都师范,,,,40,,24,,,86,86,,23,,6,,0.5
2024-01-11T2000,1352A,113.2597,23.1331,广州市,市监测站,颗粒物(PM10),59,67,43,34,30,35,,65,61,80,39,5,4,0.8,0.7
2024-01-11T2000,1353A,113.5618,23.312,广州市,九龙镇镇龙,颗粒物(PM10),55,59,35,31,24,53,,78,75,39,20,6,6,0.7,0.7
2024-01-11T2000,1354A,113.2765,23.1544,广州市,麓湖,,,,39,,27,,,59,,,27,,5,,0.7
2024-01-11T2000,1355A,113.443,23.3035,广州市,帽峰山森林公园,,32,32,32,20,22,84,,93,93,14,13,7,7,0.4,0.5
2024-01-11T2000,2846A,113.3221,23.1322,广州市,体育西,颗粒物(PM10),58,65,41,36,25,53,,73,72,46,20,8,7,0.9,0.8
2024-01-11T2000,3298A,113.5717,23.5491,广州市,从化街口,,,,33,,25,33,,94,87,50,17,9,7,0.9,0.7
2024-01-11T2000,3299A,113.3472,23.3692,广州市,白云竹料,细颗粒物(PM2.5),70,72,41,51,29,61,,91,88,38,22,7,6,0.7,0.6
2024-01-11T2000,3300A,113.2981,23.237,广州市,白云嘉禾,颗粒物(PM10),64,77,51,33,26,21,,69,60,94,51,8,8,0.8,0.8
2024-01-11T2000,3301A,113.4256,23.1716,广州市,黄埔科学城,颗粒物(PM10),51,52,36,30,23,32,,67,64,67,32,4,5,0.8,0.8
2024-01-11T2000,3302A,113.3942,23.0483,广州市,番禺大学城,颗粒物(PM10),57,63,42,31,25,38,,61,59,66,41,9,9,0.8,0.9
2024-01-11T2000,3303A,113.4922,22.8168,广州市,南沙黄阁,细颗粒物(PM2.5),89,114,55,66,28,47,,107,100,84,46,8,10,1.2,0.8
2024-01-11T2000,3304A,113.5342,22.7896,广州市,南沙街,颗粒物(PM10),69,87,50,42,28,74,,113,113,55,39,10,8,1.0,0.8
2024-01-11T2000,3443A,113.2902,23.5544,广州市,花都梯面,,30,28,33,21,28,16,,90,79,59,20,6,8,0.8,0.7
2024-01-11T2000,3445A,113.7858,23.7478,广州市,从化良口,,29,26,25,20,21,57,,84,82,14,13,6,6,0.6,0.6
2024-01-11T2000,3446A,113.8051,23.2614,广州市,增城荔城,"颗粒物(PM10),细颗粒物(PM2.5)",55,60,30,39,22,32,,92,84,42,13,6,8,0.8,0.6
2024-01-11T2000,2505A,109.568,23.1478,贵港市,德智高中,,45,32,28,31,23,34,,56,52,18,16,5,5,1.0,1
2024-01-11T2000,2506A,109.6047,23.0666,贵港市,江南子站,细颗粒物(PM2.5),52,48,38,36,28,37,,62,61,27,24,6,9,1.0,1.1
2024-01-11T2000,2507A,109.6014,23.0948,贵港市,贵城子站,细颗粒物(PM2.5),52,50,34,36,28,22,,59,53,30,19,7,8,1.1,0.9
2024-01-11T2000,2508A,109.5669,23.1065,贵港市,荷城子站,,,,30,44,22,23,,54,49,22,15,,9,1.2,1.1
2024-01-11T2000,3405A,109.5886,23.1172,贵港市,新世纪学校,,42,39,31,29,24,23,,59,54,24,16,5,7,1.0,0.9
2024-01-11T2000,1439A,106.6899,26.5998,贵阳市,马鞍山,,42,41,34,29,27,22,,38,25,23,20,7,7,0.8,0.8
2024-01-11T2000,1440A,106.6971,26.5694,贵阳市,市环保站,细颗粒物(PM2.5),54,51,35,38,33,31,,50,35,29,23,9,7,0.7,0.5
2024-01-11T2000,1441A,106.6243,26.6266,贵阳市,鉴湖路,颗粒物(PM10),51,51,45,19,26,24,,42,21,26,22,5,5,0.8,0.6
2024-01-11T2000,1442A,106.7487,26.6343,贵阳市,燕子冲,细颗粒物(PM2.5),52,48,37,36,33,32,,51,46,19,15,8,10,0.8,0.7
2024-01-11T2000,1443A,106.6555,26.4365,贵阳市,碧云窝,"颗粒物(PM10),细颗粒物(PM2.5)",64,78,49,46,29,11,,44,24,43,23,27,15,1.0,0.7
2024-01-11T2000,1444A,106.694,26.5161,贵阳市,中院村,细颗粒物(PM2.5),55,53,42,39,29,25,,46,29,30,25,13,10,0.8,0.6
2024-01-11T2000,1445A,106.7109,26.6027,贵阳市,红边门,颗粒物(PM10),54,58,40,31,32,30,,44,32,19,21,15,12,0.8,0.7
2024-01-11T2000,1446A,106.7164,26.5699,贵阳市,新华路,细颗粒物(PM2.5),55,46,40,39,32,38,,48,39,20,19,8,8,0.4,0.5
2024-01-11T2000,1447A,106.674,26.5424,贵阳市,太慈桥,细颗粒物(PM2.5),55,56,40,39,28,12,,45,26,42,26,7,7,0.9,0.7
2024-01-11T2000,1552A,106.805,26.3003,贵阳市,桐木岭,,,,,,,,,,,,,,,,
2024-01-11T2000,1862A,110.4144,25.3167,桂林市,电子科大尧山校区,细颗粒物(PM2.5),54,55,48,38,39,28,,64,52,10,10,6,8,0.9,0.9
2024-01-11T2000,1863A,110.2819,25.2697,桂林市,监测站,细颗粒物(PM2.5),92,76,60,68,57,30,,61,51,37,21,7,9,1.6,1.3
2024-01-11T2000,1864A,110.3089,25.2708,桂林市,龙隐路小学,细颗粒物(PM2.5),88,72,54,65,59,30,,60,51,34,21,6,10,1.1,1
2024-01-11T2000,1865A,110.2869,25.2178,桂林市,八中,细颗粒物(PM2.5),99,,55,74,58,30,,54,48,31,23,6,8,1.0,0.8
2024-01-11T2000,3403A,110.1764,25.2381,桂林市,创业大厦,,,,70,,60,14,,70,42,49,21,9,8,0.8,0.7
2024-01-11T2000,3531A,110.296,25.1253,桂林市,旅游学院,细颗粒物(PM2.5),79,70,50,58,50,31,,52,48,28,18,5,6,0.8,0.8
2024-01-11T2000,2674A,100.2561,34.4714,果洛藏族自治州,玛沁县大武镇,,27,27,31,15,14,78,,80,80,11,16,6,14,0.5,0.5
2024-01-11T2000,1129A,126.5422,45.755,哈尔滨市,岭北,细颗粒物(PM2.5),60,45,70,43,52,53,,66,63,24,32,16,21,0.2,0
2024-01-11T2000,1130A,126.561,45.8167,哈尔滨市,松北商大,颗粒物(PM10),55,59,69,36,47,45,,53,51,28,35,28,14,0.6,0.7
2024-01-11T2000,1131A,126.979,45.5419,哈尔滨市,阿城会宁,细颗粒物(PM2.5),79,61,62,58,49,44,,52,50,26,25,14,14,0.7,0.8
2024-01-11T2000,1132A,126.599,45.7222,哈尔滨市,南岗学府路,颗粒物(PM10),63,75,80,34,47,32,,49,47,36,38,23,15,0.7,0.8
2024-01-11T2000,1133A,126.689,45.7733,哈尔滨市,太平宏伟公园,,48,46,63,33,48,51,,54,53,16,32,23,20,0.4,0.7
2024-01-11T2000,1134A,126.635,45.7667,哈尔滨市,道外承德广场,颗粒物(PM10),55,59,70,36,48,42,,51,49,26,36,20,14,1.1,1.1
2024-01-11T2000,1135A,126.685,45.7319,哈尔滨市,香坊红旗大街,细颗粒物(PM2.5),67,61,69,48,56,51,,62,61,29,42,15,15,0.6,0.8
2024-01-11T2000,1136A,126.6411,45.7258,哈尔滨市,动力和平路,细颗粒物(PM2.5),57,56,65,40,50,46,,55,54,27,39,11,13,0.5,0.7
2024-01-11T2000,1137A,126.593,45.7478,哈尔滨市,道里建国路,细颗粒物(PM2.5),68,,67,49,54,41,,50,49,25,34,13,18,0.4,0.7
2024-01-11T2000,1138A,126.615,45.61,哈尔滨市,平房东轻厂,细颗粒物(PM2.5),78,67,71,57,52,40,,55,54,34,36,10,12,0.8,1
2024-01-11T2000,1139A,126.595,45.9855,哈尔滨市,呼兰师专,细颗粒物(PM2.5),53,44,75,37,60,52,,61,58,17,30,7,14,0.6,0.9
2024-01-11T2000,1140A,126.6206,45.6842,哈尔滨市,省农科院,"颗粒物(PM10),细颗粒物(PM2.5)",62,74,79,44,52,51,,60,60,27,45,8,12,0.7,0.8
2024-01-11T2000,2688A,93.5128,42.8172,哈密市,地区监测站,颗粒物(PM10),131,212,196,53,61,45,,62,62,42,48,7,9,0.8,1.4
2024-01-11T2000,2689A,93.4961,42.8328,哈密市,哈密师范学校,颗粒物(PM10),140,229,208,57,67,36,,62,62,55,53,9,14,1.0,2.2
2024-01-11T2000,2671A,100.9048,36.9639,海北藏族自治州,海晏县西海镇,,36,36,23,8,9,67,,88,87,9,6,13,13,0.4,0.3
2024-01-11T2000,3867A,102.0738,36.5056,海东市,平安区公安北苑,颗粒物(PM10),56,62,53,23,27,54,,64,63,16,30,36,33,0.6,0.9
2024-01-11T2000,1409A,110.576,19.9507,海口市,东寨港,,,,,,,,,,,,,,,,
2024-01-11T2000,1410A,110.3232,20.0574,海口市,海南大学,,42,42,35,19,15,104,,110,110,10,17,8,8,0.4,0.4
2024-01-11T2000,1411A,110.283,20.0053,海口市,秀英海南医院,,42,42,34,20,14,101,,106,106,14,9,8,8,0.5,0.5
2024-01-11T2000,1412A,110.338,19.9969,海口市,海南师范大学,,,42,36,21,17,,,106,,9,8,6,6,0.7,0.5
2024-01-11T2000,1413A,110.33,20.0356,海口市,龙华路环保局宿舍,,43,43,32,21,13,103,,107,107,10,8,8,8,0.4,0.4
2024-01-11T2000,3539A,110.5111,19.9736,海口市,桂林洋子站,,36,36,24,18,13,102,,106,106,7,6,11,6,0.4,0.4
2024-01-11T2000,2673A,100.6188,36.2866,海南藏族自治州,共和县恰卜恰镇,,36,36,29,10,19,18,,76,70,57,30,13,11,1.0,0.6
2024-01-11T2000,2676A,97.3731,37.3753,海西蒙古族藏族自治州,德令哈市,,31,31,24,20,12,48,,84,77,27,10,14,13,0.7,0.5
2024-01-11T2000,1048A,114.5302,36.6116,邯郸市,东污水处理厂,细颗粒物(PM2.5),250,225,148,200,130,23,,40,40,,49,2,5,1.2,1.2
2024-01-11T2000,1049A,114.4918,36.5713,邯郸市,矿院,细颗粒物(PM2.5),233,231,157,183,123,26,,38,37,62,53,4,4,1.2,1.1
2024-01-11T2000,1050A,114.484,36.6133,邯郸市,丛台公园,细颗粒物(PM2.5),216,222,158,166,117,38,,48,48,56,55,3,6,1.1,1.3
2024-01-11T2000,3458A,114.7895,36.5593,邯郸市,香泉濮院小区,细颗粒物(PM2.5),235,244,180,185,134,44,,62,62,48,39,7,7,1.1,1
2024-01-11T2000,3579A,114.50634,36.77178,邯郸市,永年区实验高中,细颗粒物(PM2.5),241,254,171,191,126,15,,37,36,81,68,8,17,1.1,1.4
2024-01-11T2000,3580A,114.20016,36.44293,邯郸市,峰峰矿区临水派出所,细颗粒物(PM2.5),237,225,113,187,82,22,,75,44,72,29,114,15,2.2,1.3
2024-01-11T2000,2634A,106.9893,33.1842,汉中市,汉川机床厂子校,细颗粒物(PM2.5),80,64,52,59,45,67,,80,80,12,13,6,5,0.8,0.6
2024-01-11T2000,2635A,107.0154,33.0706,汉中市,市监测站,细颗粒物(PM2.5),134,138,112,102,93,12,,57,54,96,49,19,17,3.4,1.6
2024-01-11T2000,2636A,107.0089,33.1138,汉中市,鑫源开发区,细颗粒物(PM2.5),165,,83,125,79,24,,70,60,64,37,20,22,1.3,1.2
2024-01-11T2000,2637A,107.007,33.0323,汉中市,南郑大河坎水厂,细颗粒物(PM2.5),196,178,121,147,100,13,,63,59,76,38,15,13,2.5,1.5
2024-01-11T2000,1223A,120.2072,30.2111,杭州市,滨江,细颗粒物(PM2.5),119,126,153,90,121,41,,62,60,71,52,11,10,0.9,1
2024-01-11T2000,1224A,120.0633,30.2747,杭州市,西溪,细颗粒物(PM2.5),123,113,111,93,80,26,,69,63,64,56,7,8,0.9,0.9
2024-01-11T2000,1226A,120.3461,30.3153,杭州市,下沙,细颗粒物(PM2.5),113,119,176,85,133,5,,66,55,136,75,9,7,0.8,1
2024-01-11T2000,1227A,120.1269,30.2456,杭州市,卧龙桥,细颗粒物(PM2.5),118,110,137,89,108,11,,55,45,54,36,5,5,0.9,1.1
2024-01-11T2000,1228A,120.1903,30.2692,杭州市,浙江农大,细颗粒物(PM2.5),118,128,162,89,117,30,,58,56,81,55,10,9,1.0,0.9
2024-01-11T2000,1230A,120.1197,30.3119,杭州市,和睦小学,细颗粒物(PM2.5),129,127,146,98,115,24,,53,50,90,57,7,6,0.9,0.9
2024-01-11T2000,1231A,120.3019,30.4183,杭州市,临平镇,细颗粒物(PM2.5),125,128,176,95,136,3,,53,40,108,63,6,6,1.0,1.2
2024-01-11T2000,1232A,120.2697,30.1819,杭州市,城厢镇,细颗粒物(PM2.5),135,127,169,103,140,43,,68,66,78,59,8,7,0.9,1.1
2024-01-11T2000,1233A,120.0883,30.1808,杭州市,云栖,细颗粒物(PM2.5),109,113,148,82,104,29,,54,50,51,48,6,6,0.9,1.1
2024-01-11T2000,3557A,119.9464,30.0494,杭州市,镇二中,细颗粒物(PM2.5),99,83,101,74,96,4,,59,51,94,55,5,5,0.9,1
2024-01-11T2000,3558A,119.7183,30.2367,杭州市,市府大楼,细颗粒物(PM2.5),147,154,130,112,103,17,,73,65,63,40,6,5,1.3,0.9
2024-01-11T2000,3656A,120.1556,30.2864,杭州市,消防大队,细颗粒物(PM2.5),130,129,151,99,118,20,,57,51,97,60,10,9,1.2,1.1
2024-01-11T2000,1270A,117.1959,31.7848,合肥市,明珠广场,细颗粒物(PM2.5),113,136,175,85,127,50,,70,68,59,50,7,6,1.0,1.1
2024-01-11T2000,1271A,117.3072,31.8764,合肥市,三里街,细颗粒物(PM2.5),132,161,184,100,136,18,,68,60,100,64,5,5,1.0,1
2024-01-11T2000,1272A,117.2588,31.8707,合肥市,琥珀山庄,细颗粒物(PM2.5),125,129,167,95,117,39,,87,81,91,63,6,6,1.2,1
2024-01-11T2000,1273A,117.1604,31.9052,合肥市,董铺水库,细颗粒物(PM2.5),119,163,184,90,122,53,,75,74,55,41,4,4,0.9,0.8
2024-01-11T2000,1274A,117.25,31.8571,合肥市,长江中路,细颗粒物(PM2.5),129,124,166,98,135,60,,74,74,54,51,8,7,1.1,1.1
2024-01-11T2000,1275A,117.266,31.9436,合肥市,庐阳区,细颗粒物(PM2.5),134,163,185,102,120,41,,68,64,79,56,8,6,0.8,0.9
2024-01-11T2000,1276A,117.336,31.8586,合肥市,瑶海区,细颗粒物(PM2.5),122,134,175,92,132,25,,76,68,91,56,3,3,0.8,0.9
2024-01-11T2000,1277A,117.3027,31.7964,合肥市,包河区,细颗粒物(PM2.5),117,119,167,88,138,60,,84,80,55,44,5,5,0.8,0.9
2024-01-11T2000,1278A,117.2776,31.7385,合肥市,滨湖新区,细颗粒物(PM2.5),104,119,175,78,91,74,,92,92,37,36,9,7,0.6,0.6
2024-01-11T2000,1279A,117.1318,31.8403,合肥市,高新区,细颗粒物(PM2.5),119,129,165,90,121,55,,74,74,64,58,8,8,1.1,1
2024-01-11T2000,3464A,117.3803,31.9147,合肥市,高教基地,细颗粒物(PM2.5),110,121,167,83,111,65,,93,90,58,57,6,5,0.8,0.8
2024-01-11T2000,3614A,79.924,37.0877,和田地区,地区环保局,颗粒物(PM10),83,115,158,37,63,59,,85,85,38,44,6,17,0.8,1.7
2024-01-11T2000,3615A,79.9131,37.113,和田地区,市环保局,颗粒物(PM10),63,76,141,38,74,72,,81,81,17,64,10,22,2.0,3
2024-01-11T2000,2516A,108.2011,24.715,河池市,东仁乐园,,29,21,26,20,24,29,,37,36,11,12,4,4,0.8,0.8
2024-01-11T2000,2517A,108.0497,24.6947,河池市,市环保站,,,17,30,14,24,40,,38,38,,21,5,6,0.8,0.9
2024-01-11T2000,2518A,108.0983,24.6989,河池市,市疾控中心,,26,26,30,16,27,29,,30,27,22,27,6,6,0.8,0.8
2024-01-11T2000,1696A,114.6778,23.7569,河源市,源西,颗粒物(PM10),62,73,37,31,21,5,,78,65,65,21,5,6,1.0,0.7
2024-01-11T2000,1697A,114.6944,23.7586,河源市,东埔,颗粒物(PM10),67,84,39,42,25,10,,76,66,74,21,7,9,1.3,0.8
2024-01-11T2000,1698A,114.6892,23.7233,河源市,老城,,35,35,37,17,21,54,,83,81,16,14,6,7,0.6,0.7
2024-01-11T2000,1718A,115.4208,35.2464,菏泽市,气象局,细颗粒物(PM2.5),168,189,173,127,128,89,,98,98,42,36,5,4,0.9,0.9
2024-01-11T2000,1719A,115.4747,35.2375,菏泽市,市政协,细颗粒物(PM2.5),169,208,182,128,125,65,,90,89,60,40,7,5,0.9,0.7
2024-01-11T2000,3374A,115.5564,35.0891,菏泽市,定陶老年大学,细颗粒物(PM2.5),188,188,171,141,133,69,,87,87,46,32,6,4,0.8,0.7
2024-01-11T2000,3647A,115.4702,35.2706,菏泽市,菏泽医专,细颗粒物(PM2.5),159,189,165,121,117,69,,91,88,54,49,8,6,1.0,1
2024-01-11T2000,2514A,111.5264,24.4172,贺州市,环保小区,细颗粒物(PM2.5),82,91,65,60,50,29,,46,44,29,20,6,7,1.1,1
2024-01-11T2000,2515A,111.5608,24.4078,贺州市,政协大楼,细颗粒物(PM2.5),70,84,68,51,52,18,,45,43,37,18,7,8,1.0,1
2024-01-11T2000,3534A,111.4744,24.4553,贺州市,西湾,细颗粒物(PM2.5),68,63,59,49,53,41,,48,48,14,14,8,7,1.0,1
2024-01-11T2000,2385A,114.17,35.9019,鹤壁市,市监测站,细颗粒物(PM2.5),186,218,172,140,112,9,,48,42,84,62,9,7,1.4,1.2
2024-01-11T2000,2386A,114.2956,35.7511,鹤壁市,市交警支队,细颗粒物(PM2.5),166,212,176,126,120,7,,45,39,82,60,10,11,1.1,1.2
2024-01-11T2000,2387A,114.2878,35.7306,鹤壁市,迎宾馆,细颗粒物(PM2.5),160,175,154,122,117,8,,48,43,88,63,10,13,1.2,1.2
2024-01-11T2000,3474A,114.2617,35.6822,鹤壁市,大新区,细颗粒物(PM2.5),149,206,157,114,120,4,,47,41,97,69,11,13,1.4,1.3
2024-01-11T2000,3596A,114.1572,35.9603,鹤壁市,南山宾馆,细颗粒物(PM2.5),179,208,147,135,98,25,,66,61,64,45,14,16,1.4,1.1
2024-01-11T2000,2244A,130.2537,47.3416,鹤岗市,哈啤分公司,细颗粒物(PM2.5),59,53,37,42,29,44,,58,47,20,15,18,17,1.0,0.6
2024-01-11T2000,2245A,130.2684,47.3086,鹤岗市,斯达机电,细颗粒物(PM2.5),75,94,51,55,32,25,,60,43,46,23,18,13,0.9,0.5
2024-01-11T2000,2246A,130.3114,47.3388,鹤岗市,东山纸板厂,细颗粒物(PM2.5),63,,35,45,31,22,,60,42,41,23,15,17,0.7,0.5
2024-01-11T2000,2247A,130.1097,47.3382,鹤岗市,五号水库,,37,37,42,25,32,50,,66,60,13,14,12,15,0.6,0.6
2024-01-11T2000,2263A,127.4833,50.2524,黑河市,交通局,,23,20,19,16,18,42,,50,47,11,7,4,4,0.5,0.5
2024-01-11T2000,2264A,127.5144,50.2341,黑河市,环保局,,30,28,24,21,22,44,,46,43,13,12,6,7,0.3,0.3
2024-01-11T2000,2265A,127.5291,50.2472,黑河市,大黑河岛,,29,21,26,20,18,21,,19,16,11,12,2,2,0.6,0.7
2024-01-11T2000,1074A,115.6838,37.7541,衡水市,电机北厂,细颗粒物(PM2.5),240,203,126,190,114,5,,46,41,77,32,6,5,1.4,1
2024-01-11T2000,1075A,115.6303,37.7316,衡水市,市监测站,细颗粒物(PM2.5),223,207,130,173,104,4,,45,40,80,38,8,9,1.6,1
2024-01-11T2000,3188A,115.6683,37.7217,衡水市,市城管局,细颗粒物(PM2.5),243,231,135,193,119,5,,44,38,84,38,7,8,1.6,1
2024-01-11T2000,3459A,115.5989,37.5491,衡水市,地表水厂,细颗粒物(PM2.5),230,203,134,180,116,8,,52,44,90,42,7,6,1.3,0.9
2024-01-11T2000,2456A,112.5003,26.9167,衡阳市,原169医院,颗粒物(PM10),67,83,73,45,47,24,,48,45,46,31,13,19,0.8,1
2024-01-11T2000,2457A,112.6194,26.9258,衡阳市,衡阳化工总厂,细颗粒物(PM2.5),115,100,98,87,89,29,,44,44,46,37,12,14,1.0,1.1
2024-01-11T2000,2458A,112.6211,26.8956,衡阳市,珠晖区环保局,细颗粒物(PM2.5),118,96,95,89,88,44,,46,46,30,43,18,14,1.1,1.2
2024-01-11T2000,2459A,112.6197,26.8733,衡阳市,市委党校,细颗粒物(PM2.5),120,102,91,91,74,44,,56,56,36,31,25,17,1.2,1.1
2024-01-11T2000,2460A,112.6006,26.8919,衡阳市,市监测站,细颗粒物(PM2.5),112,114,112,84,88,37,,51,51,37,38,14,12,1.2,1.3
2024-01-11T2000,2461A,112.5664,26.9056,衡阳市,真空机电公司,细颗粒物(PM2.5),105,92,86,79,83,33,,44,44,42,39,19,15,1.1,1.2
2024-01-11T2000,3399A,112.6703,26.882,衡阳市,师范学院,细颗粒物(PM2.5),115,100,99,87,76,44,,58,58,26,27,20,15,1.2,1.2
2024-01-11T2000,2608A,103.3772,23.3993,红河哈尼族彝族自治州,污水处理厂,,36,32,29,25,24,57,,66,65,9,9,6,6,0.6,0.6
2024-01-11T2000,2609A,103.3861,23.35,红河哈尼族彝族自治州,监测站,,30,30,30,20,20,63,,65,65,8,11,12,9,0.7,0.6
2024-01-11T2000,3038A,103.3758,23.368,红河哈尼族彝族自治州,州图书馆,,33,,21,23,19,56,,63,62,10,9,7,7,0.7,0.6
2024-01-11T2000,1090A,111.6507,40.7517,呼和浩特市,呼市一监,细颗粒物(PM2.5),149,171,114,114,77,5,,38,30,85,59,13,20,1.2,1.1
2024-01-11T2000,1091A,111.6572,40.8033,呼和浩特市,小召,细颗粒物(PM2.5),124,173,114,94,66,7,,27,24,85,66,16,15,1.8,1.3
2024-01-11T2000,1094A,111.7516,40.8369,呼和浩特市,如意水处理厂,细颗粒物(PM2.5),118,162,109,89,68,15,,41,38,90,65,18,15,1.4,1.2
2024-01-11T2000,1095A,111.7276,40.8062,呼和浩特市,二十九中,细颗粒物(PM2.5),102,142,113,76,68,5,,30,27,82,64,18,17,1.2,1
2024-01-11T2000,1096A,111.5512,40.7866,呼和浩特市,工大金川校区,细颗粒物(PM2.5),179,186,115,135,68,5,,26,20,80,65,14,11,1.9,1
2024-01-11T2000,1097A,111.717,40.7612,呼和浩特市,化肥厂生活区,细颗粒物(PM2.5),137,174,118,104,71,10,,35,32,83,64,20,16,1.7,1.2
2024-01-11T2000,3698A,111.5968,40.8178,呼和浩特市,红旗小学,细颗粒物(PM2.5),148,197,123,113,73,9,,25,22,84,68,16,16,1.5,1.1
2024-01-11T2000,3699A,111.6518,40.8389,呼和浩特市,海东办,细颗粒物(PM2.5),107,156,113,80,66,5,,24,21,93,70,19,15,1.1,1
2024-01-11T2000,2192A,119.7594,49.2261,呼伦贝尔市,区环保局,,25,23,21,17,19,63,,60,60,16,14,6,6,0.3,0.3
2024-01-11T2000,3061A,119.7512,49.1577,呼伦贝尔市,国华电力东,,30,30,21,17,16,69,,66,66,8,10,5,5,0.2,0.2
2024-01-11T2000,1250A,120.0751,30.8669,湖州市,城西水厂,细颗粒物(PM2.5),107,116,153,80,114,7,,56,50,106,72,6,5,0.8,0.9
2024-01-11T2000,2873A,120.0875,30.8955,湖州市,仁皇山新区,细颗粒物(PM2.5),105,112,155,79,119,5,,58,50,99,68,7,7,1.0,1
2024-01-11T2000,2907A,120.1844,30.8596,湖州市,吴兴区站,细颗粒物(PM2.5),122,119,145,92,117,11,,62,51,96,59,8,8,0.9,1.1
2024-01-11T2000,3562A,120.4148,30.8538,湖州市,南浔区站,细颗粒物(PM2.5),112,113,153,84,119,32,,70,65,71,59,7,7,0.8,1
2024-01-11T2000,1607A,120.9092,40.7136,葫芦岛市,龙港区,颗粒物(PM10),69,88,102,44,62,16,,60,55,62,50,130,48,0.5,0.9
2024-01-11T2000,1608A,120.8392,40.7514,葫芦岛市,化工街,颗粒物(PM10),65,80,101,31,60,23,,56,50,45,46,22,14,1.3,1.1
2024-01-11T2000,1609A,120.8341,40.7073,葫芦岛市,新区,颗粒物(PM10),61,72,85,43,62,11,,54,50,74,61,20,21,0.8,1.2
2024-01-11T2000,1610A,120.8695,40.7677,葫芦岛市,东城区,细颗粒物(PM2.5),69,80,88,50,65,17,,56,48,61,57,23,17,1.2,1.4
2024-01-11T2000,2482A,109.5981,27.5721,怀化市,林科所,细颗粒物(PM2.5),73,53,55,53,48,51,,85,56,4,4,3,3,0.4,0.6
2024-01-11T2000,2483A,109.9453,27.5444,怀化市,河西地税局,细颗粒物(PM2.5),75,,64,55,65,31,,75,53,31,23,1,2,1.2,1
2024-01-11T2000,2484A,109.9781,27.5342,怀化市,市四医院,细颗粒物(PM2.5),97,78,76,72,68,42,,64,60,23,21,4,9,1.0,1
2024-01-11T2000,2485A,109.9972,27.5578,怀化市,监测楼,细颗粒物(PM2.5),69,77,81,50,61,39,,56,54,24,25,5,8,1.0,0.9
2024-01-11T2000,2486A,110.0394,27.583,怀化市,市委党校,细颗粒物(PM2.5),93,92,83,69,69,17,,75,57,41,20,6,16,1.1,0.9
2024-01-11T2000,1210A,119.036,33.5981,淮安市,钵池山,细颗粒物(PM2.5),142,136,89,108,68,44,,81,80,53,33,12,8,0.9,0.6
2024-01-11T2000,1211A,119.007,33.575,淮安市,北京南路,细颗粒物(PM2.5),137,132,91,104,68,25,,74,70,72,46,9,10,0.9,0.7
2024-01-11T2000,1212A,118.989,33.6067,淮安市,市监测站,细颗粒物(PM2.5),149,156,95,114,72,19,,89,83,88,46,26,14,2.1,1.3
2024-01-11T2000,1213A,119.135,33.5039,淮安市,楚州区监测站,细颗粒物(PM2.5),119,134,80,90,59,54,,79,79,46,45,9,8,0.9,0.7
2024-01-11T2000,1214A,119.0186,33.6297,淮安市,淮阴区监测站,细颗粒物(PM2.5),113,161,108,85,60,34,,80,77,62,41,10,8,1.1,0.9
2024-01-11T2000,3426A,118.8755,33.2894,淮安市,新华书店,细颗粒物(PM2.5),123,122,89,93,67,46,,69,67,48,48,7,7,0.9,0.8
2024-01-11T2000,2282A,116.8004,33.975,淮北市,监测站,细颗粒物(PM2.5),133,159,191,101,132,46,,94,90,76,39,10,7,1.3,1
2024-01-11T2000,2283A,116.8091,33.9007,淮北市,烈山区政府,细颗粒物(PM2.5),147,166,184,112,135,64,,96,96,58,47,8,6,0.8,0.8
2024-01-11T2000,3330A,116.8873,33.9836,淮北市,杜集区检察院,细颗粒物(PM2.5),129,137,175,98,134,74,,105,105,53,46,11,9,1.0,1.1
2024-01-11T2000,4017A,116.7923,33.9535,淮北市,市博物馆,细颗粒物(PM2.5),130,161,188,99,140,55,,96,94,66,41,8,8,1.2,1
2024-01-11T2000,2277A,116.8305,32.7727,淮南市,潘集区政府,细颗粒物(PM2.5),113,130,169,85,128,59,,94,92,47,43,8,6,0.7,0.9
2024-01-11T2000,2278A,117.0067,32.6524,淮南市,师范学院,细颗粒物(PM2.5),107,162,170,80,120,22,,81,68,91,52,11,10,1.2,0.9
2024-01-11T2000,2279A,116.8569,32.5951,淮南市,谢家集区政府,细颗粒物(PM2.5),107,107,162,80,124,74,,85,85,30,57,5,7,0.5,0.7
2024-01-11T2000,2280A,116.8281,32.633,淮南市,八公山区政府,细颗粒物(PM2.5),77,89,150,56,113,87,,98,98,23,35,5,6,0.4,0.7
2024-01-11T2000,2281A,116.6325,32.6201,淮南市,焦岗湖风景区管理处,细颗粒物(PM2.5),77,92,140,56,104,80,,84,84,21,36,3,2,0.4,0.5
2024-01-11T2000,2894A,117.0566,32.6531,淮南市,经济技术开发区消防队,细颗粒物(PM2.5),109,131,162,82,116,39,,87,81,59,45,6,5,0.5,0.7
2024-01-11T2000,3329A,117.0108,32.5893,淮南市,山南新区,细颗粒物(PM2.5),137,129,165,104,133,68,,88,88,45,53,6,5,0.7,0.9
2024-01-11T2000,2446A,114.9028,30.4742,黄冈市,职工中心,细颗粒物(PM2.5),144,165,156,110,116,59,,84,82,53,31,13,13,1.1,1
2024-01-11T2000,2929A,114.8858,30.4519,黄冈市,红卫路,细颗粒物(PM2.5),168,170,154,127,121,56,,84,84,41,31,11,10,1.5,1.3
2024-01-11T2000,3398A,114.9136,30.4445,黄冈市,市林业局,细颗粒物(PM2.5),163,163,144,124,122,51,,88,86,80,45,7,8,1.1,1
2024-01-11T2000,2672A,102.0199,35.5102,黄南藏族自治州,同仁县隆务镇,,43,43,36,23,18,49,,74,70,22,12,29,24,0.9,0.6
2024-01-11T2000,2295A,118.2903,29.6963,黄山市,延安路89号,细颗粒物(PM2.5),74,95,79,54,51,42,,77,76,20,18,5,5,0.4,0.3
2024-01-11T2000,2296A,118.327,29.7178,黄山市,黄山东路89号,颗粒物(PM10),82,114,85,59,59,8,,69,59,60,27,5,5,1.1,0.5
2024-01-11T2000,2297A,118.1371,30.2756,黄山市,黄山区政府5号楼,细颗粒物(PM2.5),83,103,80,61,53,27,,80,75,34,22,4,4,0.8,0.6
2024-01-11T2000,2423A,115.0601,30.2313,黄石市,沈家营,细颗粒物(PM2.5),119,115,146,90,104,62,,93,89,54,44,14,11,0.9,1.3
2024-01-11T2000,2424A,115.0817,30.2006,黄石市,陈家湾,细颗粒物(PM2.5),143,132,143,109,122,46,,70,70,57,43,8,13,1.2,1.3
2024-01-11T2000,2426A,114.8988,30.2019,黄石市,铁山,细颗粒物(PM2.5),143,126,126,109,123,71,,88,87,39,42,20,16,1.1,1
2024-01-11T2000,2427A,115.0307,30.2092,黄石市,团城山,细颗粒物(PM2.5),110,121,143,83,110,87,,90,90,47,48,10,12,0.9,1
2024-01-11T2000,3149A,115.0235,30.1578,黄石市,笔架山北路,细颗粒物(PM2.5),114,109,153,86,130,90,,82,82,31,43,10,14,1.0,1.2
2024-01-11T2000,1392A,114.4183,23.0528,惠州市,河南岸金山湖子站,颗粒物(PM10),66,82,37,40,23,44,,76,72,49,20,5,7,0.9,0.7
2024-01-11T2000,1393A,114.4053,23.0822,惠州市,下埔横江三路子站,颗粒物(PM10),60,69,35,36,22,62,,96,94,43,17,11,12,0.9,0.7
2024-01-11T2000,1394A,114.4103,23.1142,惠州市,江北云山西路子站,颗粒物(PM10),58,65,33,32,23,50,,98,94,57,17,8,9,0.8,0.6
2024-01-11T2000,1395A,114.4645,22.7833,惠州市,惠阳区承修路船湖子站,颗粒物(PM10),62,73,46,40,26,116,,117,117,21,21,7,7,0.8,0.8
2024-01-11T2000,1396A,114.5317,22.7422,惠州市,大亚湾管委会子站,颗粒物(PM10),60,69,45,35,23,132,,128,128,23,22,6,6,1.0,0.9
2024-01-11T2000,3314A,114.4338,22.8134,惠州市,惠阳秋长,细颗粒物(PM2.5),65,73,39,47,24,112,,123,123,24,11,7,8,0.8,0.7
2024-01-11T2000,3452A,114.6517,22.775,惠州市,大亚湾霞涌,细颗粒物(PM2.5),94,,35,70,27,99,,117,117,22,13,10,8,0.8,0.7
2024-01-11T2000,2240A,130.9762,45.3001,鸡西市,环保局,细颗粒物(PM2.5),143,140,120,109,89,21,,8,8,43,55,11,21,1.2,1.5
2024-01-11T2000,2243A,130.9429,45.3039,鸡西市,第一中学,细颗粒物(PM2.5),95,91,87,71,59,15,,23,12,58,52,18,22,0.5,0.6
2024-01-11T2000,3707A,131.0207,45.3073,鸡西市,欧美日汽修厂,细颗粒物(PM2.5),149,152,157,114,112,35,,12,12,28,58,18,35,0.9,2.1
2024-01-11T2000,3709A,130.9967,45.3106,鸡西市,市政设施管理处,细颗粒物(PM2.5),150,165,112,115,89,32,,12,12,38,50,6,9,1.0,1.3
2024-01-11T2000,2367A,114.9754,27.0803,吉安市,红声器材厂,颗粒物(PM10),67,84,73,41,38,47,,89,85,63,37,13,15,1.0,0.8
2024-01-11T2000,2368A,114.9658,27.0999,吉安市,市森林工业局,细颗粒物(PM2.5),77,90,72,56,42,42,,84,79,57,32,14,15,0.7,0.7
2024-01-11T2000,2369A,114.99,27.1312,吉安市,市环境监测站,颗粒物(PM10),69,88,64,49,38,35,,90,85,75,34,10,12,1.1,0.7
2024-01-11T2000,2370A,115.0093,27.0968,吉安市,青原区法院,颗粒物(PM10),67,83,67,43,40,7,,88,78,74,37,14,17,1.0,0.7
2024-01-11T2000,1772A,126.54,43.8622,吉林市,哈达湾,细颗粒物(PM2.5),92,95,50,68,36,52,,64,52,26,18,8,8,0.7,0.7
2024-01-11T2000,1773A,126.5844,43.8358,吉林市,东局子,细颗粒物(PM2.5),68,71,52,49,35,50,,58,48,27,22,5,8,0.7,0.7
2024-01-11T2000,1774A,126.5052,43.8245,吉林市,电力学院,细颗粒物(PM2.5),85,82,51,63,37,49,,62,53,26,16,9,10,0.9,0.7
2024-01-11T2000,1775A,126.6133,43.8972,吉林市,江北,细颗粒物(PM2.5),80,84,59,59,37,54,,56,52,24,24,11,15,0.8,0.8
2024-01-11T2000,1776A,126.555,43.8306,吉林市,江南公园,细颗粒物(PM2.5),72,69,51,52,39,54,,61,50,22,17,8,10,0.6,0.7
2024-01-11T2000,1778A,126.7061,43.7133,吉林市,丰满,,,,,,,,,,,,,,,,
2024-01-11T2000,2868A,126.4739,43.953,吉林市,九站,细颗粒物(PM2.5),93,84,54,69,41,47,,62,52,34,22,4,7,0.9,0.8
2024-01-11T2000,1299A,116.9862,36.6114,济南市,科干所,细颗粒物(PM2.5),182,227,154,137,103,24,,86,68,87,36,12,11,1.3,1
2024-01-11T2000,1300A,116.9376,36.665,济南市,农科所,细颗粒物(PM2.5),209,256,167,159,111,8,,73,62,105,40,13,10,1.3,1
2024-01-11T2000,1301A,117.1265,36.6734,济南市,开发区,细颗粒物(PM2.5),192,208,155,144,94,26,,68,30,81,55,14,12,1.2,1
2024-01-11T2000,1303A,117.0624,36.6868,济南市,省种子仓库,细颗粒物(PM2.5),206,256,164,156,102,16,,68,50,85,37,15,9,1.3,1
2024-01-11T2000,1304A,116.9489,36.6447,济南市,机床二厂,细颗粒物(PM2.5),211,239,162,161,116,12,,78,67,113,53,17,13,1.5,1.1
2024-01-11T2000,1305A,117.0495,36.663,济南市,市监测站,细颗粒物(PM2.5),192,230,150,144,100,19,,72,58,97,43,20,17,1.2,0.8
2024-01-11T2000,1306A,116.7675,36.5484,济南市,长清党校,细颗粒物(PM2.5),226,239,175,176,133,60,,98,92,68,40,9,9,1.1,0.9
2024-01-11T2000,1616A,117.6795,36.229,济南市,技术学院,细颗粒物(PM2.5),289,329,179,239,137,2,,73,60,125,60,17,13,3.1,1.4
2024-01-11T2000,1961A,117.532,36.6868,济南市,东山小学,细颗粒物(PM2.5),206,227,158,156,109,41,,82,68,72,35,22,10,1.2,0.8
2024-01-11T2000,3059A,117.7161,36.2049,济南市,泰兴公司,细颗粒物(PM2.5),260,327,177,210,131,6,,70,60,128,67,14,11,2.6,1.4
2024-01-11T2000,3064A,117.6867,36.2171,济南市,莱芜战役纪念馆,细颗粒物(PM2.5),309,376,186,259,138,4,,66,58,128,59,26,13,2.8,1.4
2024-01-11T2000,3494A,117.1673,36.9782,济南市,济阳区政府,细颗粒物(PM2.5),201,210,162,151,111,69,,73,73,40,41,14,11,1.0,0.7
2024-01-11T2000,3495A,117.1171,36.63,济南市,锦屏中学,细颗粒物(PM2.5),178,186,140,134,97,13,,73,38,82,43,8,11,1.3,0.9
2024-01-11T2000,3682A,116.9814,36.6819,济南市,济南四建,细颗粒物(PM2.5),201,217,142,151,109,12,,75,59,96,38,16,13,1.4,1
2024-01-11T2000,1653A,116.6251,35.4302,济宁市,火炬城,细颗粒物(PM2.5),195,194,163,146,141,69,,84,84,51,38,6,6,1.2,1.2
2024-01-11T2000,1655A,116.5491,35.4042,济宁市,电化厂,细颗粒物(PM2.5),203,210,197,153,150,72,,90,90,47,36,6,7,1.3,1.1
2024-01-11T2000,3500A,116.5814,35.3707,济宁市,北湖一中,细颗粒物(PM2.5),203,197,172,153,156,62,,85,85,48,29,5,6,1.0,1.4
2024-01-11T2000,3501A,116.8249,35.5593,济宁市,服务中心,细颗粒物(PM2.5),208,245,206,158,141,53,,85,84,50,35,6,5,1.2,1.1
2024-01-11T2000,3678A,116.5907,35.4054,济宁市,市第七中学,细颗粒物(PM2.5),225,208,165,175,147,36,,82,78,77,38,8,5,1.4,1.2
2024-01-11T2000,2255A,130.2751,46.8028,佳木斯市,佳纺,,43,37,42,30,35,20,,58,51,54,25,6,10,0.7,0.6
2024-01-11T2000,2256A,130.3995,46.8307,佳木斯市,发电厂,,29,24,34,20,30,65,,68,68,6,13,6,10,0.5,0.6
2024-01-11T2000,2257A,130.3258,46.7975,佳木斯市,环保局,,29,29,41,18,28,32,,55,51,39,22,7,7,0.7,0.6
2024-01-11T2000,2258A,130.3648,46.8032,佳木斯市,十一中,,38,30,35,26,29,46,,58,55,21,15,4,5,0.6,0.6
2024-01-11T2000,2259A,130.3794,46.7588,佳木斯市,四丰,,34,34,40,20,22,40,,48,44,24,26,1,1,0.9,1
2024-01-11T2000,1252A,120.7436,30.778,嘉兴市,清河小学,细颗粒物(PM2.5),129,145,153,98,113,23,,62,53,86,58,7,7,1.0,1.3
2024-01-11T2000,1253A,120.726,30.7478,嘉兴市,嘉兴学院,细颗粒物(PM2.5),122,133,153,92,80,44,,64,57,59,59,8,9,0.9,1
2024-01-11T2000,2872A,120.7846,30.7525,嘉兴市,南湖区残联,细颗粒物(PM2.5),133,144,150,101,110,49,,78,74,69,58,8,7,0.8,1.1
2024-01-11T2000,3407A,120.6916,30.7739,嘉兴市,秀洲住建,细颗粒物(PM2.5),134,148,158,102,119,29,,53,47,89,70,10,10,0.9,1.1
2024-01-11T2000,1945A,98.2908,39.7711,嘉峪关市,气象局,颗粒物(PM10),82,114,50,46,21,45,,60,58,46,38,19,24,0.7,0.6
2024-01-11T2000,2884A,98.2672,39.7978,嘉峪关市,酒钢宾馆,颗粒物(PM10),78,105,58,39,21,53,,63,63,43,36,20,29,0.6,0.7
2024-01-11T2000,3248A,98.2643,39.7724,嘉峪关市,雄关区,颗粒物(PM10),71,91,39,31,15,36,,58,56,52,36,16,17,0.5,0.5
2024-01-11T2000,1383A,113.1064,22.6058,江门市,北街,细颗粒物(PM2.5),63,72,44,45,28,46,,88,87,87,44,8,9,0.8,0.7
2024-01-11T2000,1384A,113.0731,22.5835,江门市,西区,颗粒物(PM10),74,97,51,35,18,41,,87,85,85,38,7,8,1.0,0.7
2024-01-11T2000,1385A,113.0219,22.5311,江门市,圭峰西,细颗粒物(PM2.5),63,52,44,45,29,64,,90,90,58,35,8,8,0.8,0.8
2024-01-11T2000,1386A,113.0828,22.5947,江门市,东湖,颗粒物(PM10),64,78,47,45,14,45,,86,85,72,36,6,8,0.9,0.7
2024-01-11T2000,3311A,113.1075,22.5647,江门市,江海富民,颗粒物(PM10),64,77,50,31,23,40,,88,86,93,51,9,9,0.8,0.7
2024-01-11T2000,3449A,113.05,22.4667,江门市,新会银湖,颗粒物(PM10),69,87,51,49,31,7,,98,92,91,37,8,10,1.1,0.8
2024-01-11T2000,1828A,113.227,35.2125,焦作市,市环保局,细颗粒物(PM2.5),129,182,161,98,106,7,,54,49,93,52,18,22,0.9,1.1
2024-01-11T2000,1830A,113.1992,35.2590,焦作市,影视城,,,,,,,,,,,,,,,,
2024-01-11T2000,3169A,113.2725,35.2067,焦作市,太极体育中心,细颗粒物(PM2.5),145,195,154,111,109,15,,63,59,91,54,21,17,0.9,1.1
2024-01-11T2000,3335A,113.3137,35.2641,焦作市,马村街道办,细颗粒物(PM2.5),222,231,162,172,114,20,,57,52,92,59,20,25,1.9,1.2
2024-01-11T2000,3336A,113.2465,35.2373,焦作市,焦作技师学院,细颗粒物(PM2.5),185,216,163,139,111,7,,57,51,106,60,31,26,3.1,1.7
2024-01-11T2000,3477A,113.1656,35.2539,焦作市,中站许衡医院,细颗粒物(PM2.5),70,78,134,51,73,49,,59,54,48,52,22,26,0.4,1.4
2024-01-11T2000,3981A,113.2449,35.1803,焦作市,原李万街道办,细颗粒物(PM2.5),128,150,145,97,107,14,,60,54,85,52,14,13,0.9,1.1
2024-01-11T2000,1708A,116.3701,23.5345,揭阳市,新兴,细颗粒物(PM2.5),92,87,62,68,52,107,,131,131,34,30,11,17,0.8,0.8
2024-01-11T2000,1709A,116.3264,23.5443,揭阳市,西马,细颗粒物(PM2.5),83,75,64,61,47,109,,135,135,28,24,10,14,0.8,0.8
2024-01-11T2000,1710A,116.3611,23.5626,揭阳市,东兴,细颗粒物(PM2.5),80,90,67,59,43,119,,135,135,25,31,11,18,0.8,0.9
2024-01-11T2000,1711A,116.4151,23.5294,揭阳市,渔湖,细颗粒物(PM2.5),65,73,75,47,39,110,,134,134,21,22,8,13,0.7,0.8
2024-01-11T2000,3320A,116.403,23.5699,揭阳市,曲溪,细颗粒物(PM2.5),75,92,67,55,41,121,,140,140,21,29,2,11,0.6,0.7
2024-01-11T2000,1944A,102.1692,38.5167,金昌市,天庆家园,颗粒物(PM10),62,73,58,26,22,31,,66,64,52,41,20,15,1.2,1
2024-01-11T2000,3170A,102.1864,38.5253,金昌市,市委党校,颗粒物(PM10),63,76,71,30,32,31,,69,61,48,42,10,15,1.0,1.2
2024-01-11T2000,4022A,102.1647,38.5371,金昌市,金川区人防中心,颗粒物(PM10),58,65,42,24,16,29,,76,69,49,18,15,12,1.1,0.9
2024-01-11T2000,1262A,119.647,29.077,金华市,十五中,细颗粒物(PM2.5),118,150,137,89,93,6,,75,62,108,59,3,4,1.8,1
2024-01-11T2000,1263A,119.686,29.1029,金华市,监测站,细颗粒物(PM2.5),102,132,139,76,95,8,,80,69,98,54,5,5,0.9,0.8
2024-01-11T2000,3659A,119.656,29.1131,金华市,气象局,细颗粒物(PM2.5),92,118,141,68,98,4,,78,65,104,55,5,4,1.4,1
2024-01-11T2000,1767A,121.1115,41.0879,锦州市,南山,,35,35,72,9,56,68,,71,71,14,47,13,23,0.2,1.2
2024-01-11T2000,1768A,121.0533,40.8434,锦州市,开发区,颗粒物(PM10),55,60,95,29,61,36,,58,54,38,51,13,38,0.7,1.2
2024-01-11T2000,1769A,121.1836,41.1119,锦州市,百股街道,颗粒物(PM10),51,51,71,19,54,47,,66,64,30,47,14,33,0.6,1.1
2024-01-11T2000,1770A,121.1178,41.1222,锦州市,天安街道,,33,33,73,7,51,70,,72,72,11,43,11,18,0.5,1.2
2024-01-11T2000,1771A,121.1303,41.1386,锦州市,北湖公园,,26,26,62,8,54,65,,70,70,15,45,12,17,0.6,1.1
2024-01-11T2000,2160A,112.85,35.5051,晋城市,自来水公司,颗粒物(PM10),57,63,111,22,68,92,,85,85,23,49,5,10,0.4,1.8
2024-01-11T2000,2161A,112.8318,35.4936,晋城市,白云商贸,颗粒物(PM10),57,64,127,22,64,78,,84,84,35,46,4,9,0.6,1.9
2024-01-11T2000,2162A,112.8508,35.4887,晋城市,市环保局,颗粒物(PM10),71,92,129,31,71,80,,84,84,34,53,5,10,0.6,2
2024-01-11T2000,2163A,112.8676,35.4897,晋城市,技术学院,颗粒物(PM10),60,69,121,22,66,84,,82,82,34,59,5,11,0.6,1.9
2024-01-11T2000,2165A,112.8453,35.546,晋城市,白马寺,,,,,,,,,,,,,,,,
2024-01-11T2000,3620A,112.8271,35.4828,晋城市,泽州一中,颗粒物(PM10),52,53,116,22,62,83,,85,85,30,47,5,10,0.6,2
2024-01-11T2000,2171A,112.7532,37.6945,晋中市,锦纶小区,细颗粒物(PM2.5),125,183,127,95,64,8,,64,56,94,55,27,25,1.4,1.1
2024-01-11T2000,2173A,112.7249,37.7067,晋中市,南都小区,颗粒物(PM10),157,264,136,118,65,3,,62,54,106,60,25,27,2.2,1.4
2024-01-11T2000,2174A,112.6991,37.6982,晋中市,榆次区政府,颗粒物(PM10),236,375,137,179,69,4,,60,53,107,62,39,28,2.5,1.3
2024-01-11T2000,2865A,112.7195,37.6828,晋中市,榆次三中,颗粒物(PM10),142,234,145,100,66,4,,58,50,100,59,26,24,1.8,1.3
2024-01-11T2000,2439A,112.2014,31.0481,荆门市,竹园小学,细颗粒物(PM2.5),169,174,148,128,116,54,,104,101,73,40,9,11,1.4,1.1
2024-01-11T2000,2440A,112.1969,30.9891,荆门市,掇刀,细颗粒物(PM2.5),180,187,154,136,115,35,,107,103,85,40,8,9,1.3,0.9
2024-01-11T2000,2441A,112.2213,31.0386,荆门市,石化一小,细颗粒物(PM2.5),155,163,160,118,113,96,,112,112,38,42,14,16,0.8,0.8
2024-01-11T2000,3012A,112.1849,31.0362,荆门市,西山林语,细颗粒物(PM2.5),152,134,136,116,106,81,,110,109,35,31,12,12,0.8,0.7
2024-01-11T2000,3547A,112.1632,31.0138,荆门市,龙泉中学南校,细颗粒物(PM2.5),150,156,146,115,112,66,,109,108,46,28,11,12,1.1,1
2024-01-11T2000,1844A,112.2494,30.3197,荆州市,市图书馆,细颗粒物(PM2.5),132,106,124,100,132,60,,104,100,55,42,7,8,1.2,1.2
2024-01-11T2000,1845A,112.2008,30.3544,荆州市,市委党校,细颗粒物(PM2.5),127,115,137,96,126,71,,110,107,52,47,8,9,1.0,1.1
2024-01-11T2000,3194A,112.2747,30.3122,荆州市,管委会,细颗粒物(PM2.5),149,117,122,114,124,55,,109,105,65,51,9,8,1.3,1.2
2024-01-11T2000,3548A,112.1655,30.3364,荆州市,学苑路,细颗粒物(PM2.5),137,,123,104,122,75,,106,104,41,40,7,8,1.0,1
2024-01-11T2000,2342A,117.3102,29.3867,景德镇市,王港中学,,,,,,,,,,,,,,,,
2024-01-11T2000,2343A,117.2117,29.2933,景德镇市,老干部活动中心,细颗粒物(PM2.5),75,76,74,55,54,27,,59,55,49,34,6,7,1.0,0.7
2024-01-11T2000,2344A,117.1894,29.2789,景德镇市,兽医站,颗粒物(PM10),63,76,66,43,45,41,,67,65,37,29,8,10,0.7,0.6
2024-01-11T2000,2345A,117.1547,29.2617,景德镇市,台达陶瓷,颗粒物(PM10),81,111,74,58,45,12,,70,61,77,39,15,14,1.1,0.8
2024-01-11T2000,2346A,117.2461,29.2956,景德镇市,陶研所,颗粒物(PM10),52,54,61,32,37,47,,72,71,27,28,8,5,0.7,0.6
2024-01-11T2000,1803A,115.9872,29.6815,九江市,十里,细颗粒物(PM2.5),84,94,108,62,78,23,,77,72,75,44,9,9,1.3,1
2024-01-11T2000,1804A,115.9584,29.7046,九江市,茅山头,细颗粒物(PM2.5),95,116,113,71,85,18,,78,69,87,50,14,13,1.3,1
2024-01-11T2000,1805A,115.9877,29.7295,九江市,西园,细颗粒物(PM2.5),98,104,120,73,96,54,,68,68,67,54,10,11,1.0,1
2024-01-11T2000,1806A,116.0172,29.6547,九江市,五七二七厂,细颗粒物(PM2.5),64,65,107,46,79,71,,76,76,25,29,9,10,0.7,1
2024-01-11T2000,1808A,115.9114,29.6038,九江市,综合工业园,细颗粒物(PM2.5),113,100,98,85,88,44,,82,78,72,53,13,11,1.3,1.1
2024-01-11T2000,1809A,116.0721,29.7535,九江市,石化总厂,颗粒物(PM10),99,148,148,63,92,84,,91,91,34,44,15,13,0.8,1.1
2024-01-11T2000,1810A,115.9773,29.5698,九江市,庐山气象台,,32,23,35,22,24,97,,105,96,3,6,6,6,1.0,0.8
2024-01-11T2000,3190A,116.0254,29.6994,九江市,外国语学校,细颗粒物(PM2.5),88,81,114,65,91,76,,75,75,37,42,11,12,0.7,0.9
2024-01-11T2000,2658A,98.5061,39.7443,酒泉市,仓门街子站,颗粒物(PM10),89,127,59,49,32,40,,65,63,49,32,20,18,1.3,0.8
2024-01-11T2000,2659A,98.4989,39.7256,酒泉市,油田生活基地,颗粒物(PM10),91,132,61,48,28,32,,56,55,55,29,17,15,1.0,0.6
2024-01-11T2000,2698A,76.0072,39.4467,喀什地区,巡警大队,颗粒物(PM10),88,126,231,46,104,91,,75,75,29,70,9,9,0.8,3.2
2024-01-11T2000,2699A,75.9755,39.4694,喀什地区,吾办,颗粒物(PM10),101,151,216,61,120,75,,73,73,45,77,8,7,1.2,2.8
2024-01-11T2000,4027A,75.9483,39.4689,喀什地区,老干局,颗粒物(PM10),103,156,262,56,115,80,,72,72,39,68,11,9,1.1,3.6
2024-01-11T2000,1824A,114.3389,34.7781,开封市,肿瘤医院,细颗粒物(PM2.5),165,172,157,125,122,48,,70,69,36,41,7,6,,1
2024-01-11T2000,1826A,114.2885,34.7965,开封市,世纪星幼儿园,细颗粒物(PM2.5),176,151,145,133,129,54,,72,72,44,47,7,6,1.0,1
2024-01-11T2000,3147A,114.3438,34.8106,开封市,龙亭公园,细颗粒物(PM2.5),180,176,151,136,132,56,,76,76,48,46,6,6,1.0,0.9
2024-01-11T2000,3210A,114.3644,34.7964,开封市,汴京公园,细颗粒物(PM2.5),173,183,157,131,126,54,,76,75,51,45,4,3,0.8,0.7
2024-01-11T2000,3473A,114.2485,34.8306,开封市,技师学院,细颗粒物(PM2.5),189,175,146,142,129,64,,76,76,37,48,3,3,1.3,1.2
2024-01-11T2000,3592A,114.4644,34.7556,开封市,祥符区生态环境局,细颗粒物(PM2.5),168,193,182,127,132,65,,75,75,43,42,6,6,0.7,0.7
2024-01-11T2000,1951A,84.895,45.6094,克拉玛依市,长征新村,细颗粒物(PM2.5),89,,84,66,72,54,,52,52,36,38,10,10,0.9,0.9
2024-01-11T2000,1952A,84.8988,45.5893,克拉玛依市,南林小区,细颗粒物(PM2.5),103,,94,77,72,57,,55,55,27,28,2,2,0.9,0.8
2024-01-11T2000,1954A,84.905,44.3396,克拉玛依市,独山子区,细颗粒物(PM2.5),228,191,116,178,91,13,,56,49,82,51,4,4,1.4,1.2
2024-01-11T2000,1955A,85.6979,46.098,克拉玛依市,乌尔禾区商贸楼,细颗粒物(PM2.5),77,59,61,56,58,59,,61,58,24,23,9,8,0.7,0.8
2024-01-11T2000,3612A,85.1045,45.6899,克拉玛依市,白碱滩区新站,细颗粒物(PM2.5),89,86,99,66,66,58,,58,58,30,29,10,9,0.8,0.8
2024-01-11T2000,2697A,76.1454,39.7142,克孜勒苏柯尔克孜自治州,市人民政府,颗粒物(PM10),88,126,127,63,68,90,,95,95,35,23,7,6,1.4,1.3
2024-01-11T2000,3665A,76.1658,39.7157,克孜勒苏柯尔克孜自治州,克州文化中心,颗粒物(PM10),97,143,134,60,67,83,,92,92,35,29,11,10,1.4,1.1
2024-01-11T2000,1450A,102.8204,24.8886,昆明市,呈贡新区,,24,24,44,12,30,66,,84,80,21,35,4,5,0.4,0.6
2024-01-11T2000,1451A,102.6251,24.9608,昆明市,西山森林公园,,,23,22,,28,86,,96,96,9,9,6,9,0.5,0.5
2024-01-11T2000,1452A,102.7252,25.0902,昆明市,龙泉镇,,42,42,48,21,29,30,,79,77,60,43,8,8,0.8,0.9
2024-01-11T2000,1453A,102.7266,25.0375,昆明市,东风东路,,29,29,44,18,28,64,,82,82,24,36,9,10,0.7,0.8
2024-01-11T2000,1454A,102.6742,25.0669,昆明市,金鼎山,,,29,51,15,42,58,,80,80,,45,9,19,0.6,0.8
2024-01-11T2000,1455A,102.6644,25.0401,昆明市,碧鸡广场,,40,40,51,24,34,52,,78,78,37,41,10,10,0.6,0.6
2024-01-11T2000,3179A,102.7494,25.0119,昆明市,官渡区博物馆,,28,28,49,17,31,66,,85,84,21,34,7,9,0.5,0.9
2024-01-11T2000,3375A,102.8017,24.8336,昆明市,青年创业园,,25,25,34,16,20,79,,88,88,7,27,8,10,0.4,0.6
2024-01-11T2000,3550A,102.7997,24.9786,昆明市,昆明学院,,26,26,62,14,34,69,,81,81,14,33,9,10,0.4,0.8
2024-01-11T2000,3551A,102.5967,24.6736,昆明市,晋宁区生态环境分局,,38,38,52,14,35,72,,85,84,12,24,3,3,0.4,0.7
2024-01-11T2000,3552A,102.6678,24.9856,昆明市,云天化总部,,26,23,46,15,28,83,,94,94,11,34,3,4,0.5,0.8
2024-01-11T2000,1456A,91.1319,29.6514,拉萨市,八廓街,,33,30,24,23,14,64,,87,86,52,29,8,6,0.6,0.5
2024-01-11T2000,1457A,91.1221,29.6747,拉萨市,市环保局,,33,29,26,23,15,68,,84,84,30,24,7,6,0.8,0.7
2024-01-11T2000,1458A,91.0874,29.6475,拉萨市,区监测站,,28,28,21,19,11,67,,85,85,36,19,4,4,0.5,0.5
2024-01-11T2000,1459A,91.1774,29.6541,拉萨市,西藏大学,,25,21,19,17,9,55,,87,85,36,12,5,5,0.6,0.7
2024-01-11T2000,1460A,90.9798,29.6588,拉萨市,区辐射站,细颗粒物(PM2.5),73,78,32,53,21,26,,75,70,90,29,14,6,1.4,0.6
2024-01-11T2000,1461A,91.0834,29.6292,拉萨市,拉萨火车站,,24,16,18,8,10,76,,82,82,20,23,4,4,0.5,0.7
2024-01-11T2000,2520A,109.2203,23.7256,来宾市,来宾技工学校,细颗粒物(PM2.5),58,47,55,41,43,24,,44,34,23,19,5,6,1.4,1.3
2024-01-11T2000,3535A,109.1781,23.7297,来宾市,兴宾区政府,,,42,52,41,42,23,,47,38,,18,,7,1.3,1.2
2024-01-11T2000,4002A,109.2416,23.7461,来宾市,中南小学,细颗粒物(PM2.5),54,53,52,38,44,21,,44,34,24,21,8,8,1.3,1.2
2024-01-11T2000,1476A,103.631,36.1031,兰州市,兰炼宾馆,细颗粒物(PM2.5),123,150,137,93,81,8,,60,57,144,92,20,28,2.3,1.9
2024-01-11T2000,1477A,104.1373,35.9454,兰州市,榆中兰大校区,,,,,,,,,,,,,,,,
2024-01-11T2000,1478A,103.8412,36.0726,兰州市,生物制品所,细颗粒物(PM2.5),120,159,138,91,80,6,,27,26,118,90,20,24,2.1,2.3
2024-01-11T2000,1479A,103.831,36.0464,兰州市,铁路设计院,细颗粒物(PM2.5),142,164,145,108,84,8,,20,19,146,96,32,32,3.3,2.9
2024-01-11T2000,3186A,103.7158,36.1058,兰州市,教育港,细颗粒物(PM2.5),168,222,128,127,77,4,,32,28,156,94,30,28,4.0,2.2
2024-01-11T2000,3241A,103.7439,36.0842,兰州市,百合公园,细颗粒物(PM2.5),155,203,136,118,84,7,,26,23,156,92,33,25,4.1,2.4
2024-01-11T2000,3242A,103.9611,35.998,兰州市,和平,细颗粒物(PM2.5),102,123,120,76,70,34,,49,49,64,70,12,23,0.9,1.7
2024-01-11T2000,3245A,103.6633,36.533,兰州新区,新区管委会,颗粒物(PM10),97,144,92,70,47,1,,48,37,78,38,44,27,1.8,1.2
2024-01-11T2000,3246A,103.6975,36.4789,兰州新区,舟曲中学,颗粒物(PM10),98,146,131,55,55,16,,47,40,79,55,28,27,1.1,1.1
2024-01-11T2000,1067A,116.6708,39.5111,廊坊市,药材公司,细颗粒物(PM2.5),130,197,154,99,92,2,,17,13,108,84,5,4,1.7,1.4
2024-01-11T2000,1068A,116.7214,39.5589,廊坊市,开发区,细颗粒物(PM2.5),132,148,135,100,90,3,,22,17,112,89,4,5,1.3,1.2
2024-01-11T2000,1070A,116.7244,39.5269,廊坊市,北华航天学院,细颗粒物(PM2.5),152,211,139,116,93,4,,25,19,101,78,6,7,2.0,1.2
2024-01-11T2000,2919A,116.7022,39.5453,廊坊市,河北工业大学,细颗粒物(PM2.5),139,152,136,106,84,4,,22,16,97,74,5,6,1.3,1.2
2024-01-11T2000,2535A,103.7723,29.5462,乐山市,花湖湾,细颗粒物(PM2.5),176,249,183,133,122,41,,64,61,41,34,3,3,0.9,1
2024-01-11T2000,2536A,103.7627,29.5844,乐山市,牛耳桥,细颗粒物(PM2.5),155,144,134,118,103,37,,59,59,57,36,5,3,1.0,1
2024-01-11T2000,2537A,103.7508,29.6006,乐山市,市第三水厂,细颗粒物(PM2.5),138,156,135,105,89,34,,58,58,59,36,6,4,1.1,1
2024-01-11T2000,2538A,103.7571,29.5664,乐山市,市监测站,细颗粒物(PM2.5),130,126,128,99,92,47,,63,63,40,32,7,6,1.0,1.1
2024-01-11T2000,3361A,103.7311,29.5628,乐山市,理工大学,细颗粒物(PM2.5),180,174,149,136,110,35,,59,59,47,34,7,7,0.9,1.1
2024-01-11T2000,2598A,100.2143,26.8576,丽江市,西南郊,,,,,,,,,,,,,,,,
2024-01-11T2000,2599A,100.2497,26.8802,丽江市,丽江古城,颗粒物(PM10),51,51,60,31,39,84,,95,95,22,24,8,8,0.6,0.7
2024-01-11T2000,2600A,100.2203,26.8906,丽江市,市中心,,43,43,38,24,30,80,,88,88,17,17,8,7,0.6,0.8
2024-01-11T2000,1267A,119.914,28.4514,丽水市,监测站大楼,颗粒物(PM10),70,89,64,36,48,10,,80,68,76,35,6,10,0.8,0.7
2024-01-11T2000,1268A,119.93,28.4586,丽水市,莲都小学,细颗粒物(PM2.5),79,62,84,58,64,46,,87,78,47,31,4,4,0.5,0.6
2024-01-11T2000,1269A,119.879,28.4231,丽水市,余庄前,,41,41,64,25,48,28,,72,66,28,23,4,5,0.4,0.5
2024-01-11T2000,1173A,119.176,34.5885,连云港市,市环境监测站,细颗粒物(PM2.5),156,156,95,119,71,72,,82,82,50,35,8,7,1.2,0.9
2024-01-11T2000,3000A,119.3581,34.6972,连云港市,德源药业,细颗粒物(PM2.5),163,173,94,124,63,36,,74,71,75,38,13,8,1.1,0.8
2024-01-11T2000,3007A,119.178,34.844,连云港市,新城一中,细颗粒物(PM2.5),186,162,95,140,82,63,,84,84,62,53,13,11,1.3,1
2024-01-11T2000,3008A,119.3608,34.7519,连云港市,胡沟管理处,细颗粒物(PM2.5),138,146,87,105,59,,,74,,50,39,9,8,1.1,0.9
2024-01-11T2000,3009A,119.1478,34.5911,连云港市,矿山设计院,细颗粒物(PM2.5),168,185,100,127,70,32,,77,72,93,35,19,9,1.4,0.9
2024-01-11T2000,3434A,119.2413,34.6539,连云港市,工贸学校,细颗粒物(PM2.5),149,164,107,114,73,98,,97,97,28,29,22,12,1.0,0.8
2024-01-11T2000,3664A,119.4172,34.7341,连云港市,连云街道,细颗粒物(PM2.5),130,138,86,99,58,73,,100,94,37,23,17,6,1.1,0.7
2024-01-11T2000,2571A,102.3431,27.8099,凉山彝族自治州,青龙寺,,41,41,42,10,10,75,,98,98,11,14,7,10,0.8,0.8
2024-01-11T2000,2572A,102.2721,27.8415,凉山彝族自治州,邛海宾馆,细颗粒物(PM2.5),53,54,42,37,26,61,,84,84,32,26,12,14,0.8,0.8
2024-01-11T2000,2573A,102.2625,27.898,凉山彝族自治州,西昌市政府,"颗粒物(PM10),细颗粒物(PM2.5)",54,57,42,38,31,68,,85,85,19,19,12,12,1.0,0.8
2024-01-11T2000,2574A,102.2685,27.8851,凉山彝族自治州,凉山州政府,"颗粒物(PM10),细颗粒物(PM2.5)",58,66,45,41,30,47,,84,83,41,25,10,12,1.0,0.7
2024-01-11T2000,2575A,102.237,27.8914,凉山彝族自治州,长安,颗粒物(PM10),54,58,53,33,32,62,,77,77,31,35,14,16,0.8,0.6
2024-01-11T2000,2212A,123.2,41.1953,辽阳市,宏伟区,,36,36,67,19,38,45,,60,59,22,23,12,15,0.7,1
2024-01-11T2000,2213A,123.1683,41.2495,辽阳市,新华园,,49,49,67,22,42,44,,61,60,31,30,6,9,0.6,0.9
2024-01-11T2000,2214A,123.2354,41.2639,辽阳市,滨河路,,47,47,63,30,49,34,,59,56,33,25,7,13,0.7,1
2024-01-11T2000,2215A,123.149,41.2991,辽阳市,铁西工业园,细颗粒物(PM2.5),87,71,71,64,68,30,,61,56,36,28,13,16,0.8,1.1
2024-01-11T2000,2227A,125.1358,42.8845,辽源市,环保局,,31,31,31,19,19,56,,66,65,17,17,10,10,0.7,0.9
2024-01-11T2000,3239A,125.0764,42.9078,辽源市,银鹰制药,,37,37,39,24,24,40,,67,65,31,17,13,10,0.8,0.7
2024-01-11T2000,1625A,115.9848,36.4372,聊城市,区政府,细颗粒物(PM2.5),221,268,193,171,137,23,,73,68,86,39,4,5,1.6,1.1
2024-01-11T2000,2878A,116.0072,36.4343,聊城市,聊大东校,细颗粒物(PM2.5),229,241,184,179,151,34,,80,76,77,34,6,6,1.5,1
2024-01-11T2000,3200A,115.9819,36.4978,聊城市,监控中心,细颗粒物(PM2.5),257,310,197,207,147,8,,74,62,112,37,11,6,1.5,1.1
2024-01-11T2000,3513A,116.0445,36.4361,聊城市,九州社区,细颗粒物(PM2.5),236,266,174,186,131,14,,82,76,91,30,10,5,1.0,0.8
2024-01-11T2000,4018A,116.0567,36.4608,聊城市,星美广场,细颗粒物(PM2.5),227,282,177,177,128,12,,79,69,99,30,8,7,1.2,0.9
2024-01-11T2000,2632A,94.3681,29.6376,林芝市,林芝监测站,,18,14,13,9,10,44,,72,70,35,16,7,7,0.6,0.6
2024-01-11T2000,2633A,94.3616,29.6616,林芝市,林芝人民医院,,39,37,13,27,8,47,,70,69,34,12,10,8,1.1,0.5
2024-01-11T2000,2603A,100.0781,23.8982,临沧市,市环保局,细颗粒物(PM2.5),53,42,36,37,26,61,,78,78,21,16,7,7,0.6,0.6
2024-01-11T2000,2604A,100.0894,23.8822,临沧市,市气象局,,49,44,42,34,34,54,,78,78,25,16,4,7,0.5,0.4
2024-01-11T2000,1733A,111.5531,36.0783,临汾市,临钢医院,细颗粒物(PM2.5),130,183,130,99,63,22,,54,51,63,42,11,9,1.6,1.2
2024-01-11T2000,1734A,111.5028,36.0714,临汾市,技工学校,细颗粒物(PM2.5),137,174,120,104,65,35,,59,59,64,46,14,13,1.7,1.2
2024-01-11T2000,1736A,111.5018,36.0855,临汾市,市委,细颗粒物(PM2.5),145,186,126,111,66,28,,65,65,80,51,14,12,1.8,1.3
2024-01-11T2000,3018A,111.505,36.1014,临汾市,唐尧大酒店,细颗粒物(PM2.5),130,170,121,99,65,17,,54,53,81,51,14,12,1.7,1.2
2024-01-11T2000,3668A,111.5036,36.0414,临汾市,城南,细颗粒物(PM2.5),140,205,129,107,67,4,,66,60,92,47,20,12,1.7,1.3
2024-01-11T2000,2667A,103.2069,35.5993,临夏回族自治州,环保局,颗粒物(PM10),66,81,79,29,29,7,,52,50,80,53,40,26,2.8,2.8
2024-01-11T2000,2668A,103.2417,35.6057,临夏回族自治州,建设大厦,颗粒物(PM10),62,74,64,36,24,11,,62,58,68,30,22,15,1.8,1.4
2024-01-11T2000,1618A,118.3429,35.0532,临沂市,沂河小区,细颗粒物(PM2.5),223,229,153,173,123,22,,74,69,106,56,18,12,1.5,0.9
2024-01-11T2000,1619A,118.295,35.0583,临沂市,鲁南制药厂,细颗粒物(PM2.5),206,207,155,156,119,48,,80,79,73,50,20,12,1.3,1.1
2024-01-11T2000,1620A,118.2794,34.9976,临沂市,新光毛纺厂,细颗粒物(PM2.5),215,227,157,165,114,33,,72,69,95,57,36,15,1.5,1
2024-01-11T2000,1621A,118.3956,35.0888,临沂市,河东保险公司,细颗粒物(PM2.5),227,244,146,177,113,4,,73,63,118,49,14,10,1.5,1
2024-01-11T2000,3370A,118.3564,35.0215,临沂市,十里堡居委,细颗粒物(PM2.5),228,229,145,178,106,26,,73,69,88,56,18,15,1.4,1
2024-01-11T2000,3496A,118.3604,35.1084,临沂市,南坊新区,细颗粒物(PM2.5),216,229,148,166,114,21,,76,69,108,51,13,11,1.4,1
2024-01-11T2000,3860A,118.3920,35.0300,临沂市,皇山花园小区,细颗粒物(PM2.5),195,205,139,146,94,45,,77,76,90,59,16,15,1.3,0.9
2024-01-11T2000,1870A,109.4856,24.3895,柳州市,柳东小学,,46,42,37,32,34,23,,51,40,15,11,7,6,1.0,0.9
2024-01-11T2000,1871A,109.4157,24.3277,柳州市,环保监测站,细颗粒物(PM2.5),57,59,47,40,40,13,,46,25,33,19,8,7,1.2,1
2024-01-11T2000,1872A,109.389,24.341,柳州市,河西水厂,细颗粒物(PM2.5),58,58,50,41,38,17,,43,23,18,12,8,9,1.3,1.2
2024-01-11T2000,1873A,109.4311,24.2921,柳州市,市四中,,50,50,44,30,38,16,,51,29,33,20,7,6,1.3,1.1
2024-01-11T2000,1874A,109.4006,24.3631,柳州市,市九中,,,59,55,36,41,15,,39,26,,18,5,5,0.9,1
2024-01-11T2000,1875A,109.4958,24.3134,柳州市,古亭山,,39,36,39,27,35,25,,52,43,19,14,8,8,1.1,1
2024-01-11T2000,3402A,109.5422,24.3996,柳州市,市二中,,34,34,40,22,35,30,,58,45,22,14,5,6,0.9,0.9
2024-01-11T2000,2307A,116.5079,31.737,六安市,监测大楼,细颗粒物(PM2.5),105,101,130,79,115,72,,80,80,44,39,5,4,0.7,0.9
2024-01-11T2000,2308A,116.4738,31.7643,六安市,皖西学院,细颗粒物(PM2.5),95,117,139,71,105,59,,82,79,52,37,5,4,0.9,0.9
2024-01-11T2000,2309A,116.4996,31.7905,六安市,朝阳厂,细颗粒物(PM2.5),102,107,138,76,116,68,,76,76,35,31,6,6,1.2,1.1
2024-01-11T2000,2310A,116.5567,31.7886,六安市,开发区,细颗粒物(PM2.5),165,205,179,125,125,51,,78,77,54,43,12,7,0.8,0.8
2024-01-11T2000,2576A,104.8,26.5892,六盘水市,窑上,,,,,,,,,,,,,,,,
2024-01-11T2000,2577A,104.83,26.5917,六盘水市,黄土坡,,45,37,30,31,23,42,,52,52,18,17,6,9,0.9,1
2024-01-11T2000,2578A,104.89,26.5939,六盘水市,水钢,,42,37,26,29,23,48,,58,58,12,13,3,3,0.7,0.7
2024-01-11T2000,2579A,104.8475,26.5894,六盘水市,民中,,45,35,27,31,21,39,,51,50,20,17,7,7,0.9,0.9
2024-01-11T2000,2580A,104.9544,26.5506,六盘水市,双水,,40,31,27,28,16,50,,54,54,12,11,6,6,0.6,0.7
2024-01-11T2000,2335A,117.0189,25.1181,龙岩市,龙岩师专,,,,,,,,,,,,,,,,
2024-01-11T2000,2336A,117.0217,25.1033,龙岩市,龙岩市监测站,,31,31,30,16,16,65,,83,82,19,18,5,10,0.5,0.5
2024-01-11T2000,2337A,117.0258,25.0661,龙岩市,闽西职业技术学院,颗粒物(PM10),56,61,44,24,19,7,,72,64,64,30,11,12,0.6,0.6
2024-01-11T2000,2338A,117.0196,25.0306,龙岩市,龙岩学院,,32,32,29,14,16,53,,67,67,12,19,7,7,0.4,0.5
2024-01-11T2000,2665A,105.0822,33.3261,陇南市,汉王镇固水子,,,,,,,,,,,,,,,,
2024-01-11T2000,2885A,104.9339,33.3826,陇南市,滨江中学,细颗粒物(PM2.5),213,256,106,163,60,8,,40,33,99,55,87,52,7.5,2.5
2024-01-11T2000,3247A,104.955,33.371,陇南市,市总工会,颗粒物(PM10),109,168,78,71,41,4,,56,51,70,36,16,17,1.9,1
2024-01-11T2000,2487A,111.9589,27.8901,娄底市,电视发射台,细颗粒物(PM2.5),109,105,99,82,74,45,,92,85,28,23,6,7,1.6,1.4
2024-01-11T2000,2488A,111.9975,27.725,娄底市,市监测站,细颗粒物(PM2.5),124,111,127,94,108,57,,84,82,28,34,13,9,0.9,1
2024-01-11T2000,2489A,112.0194,27.7314,娄底市,市委党校,细颗粒物(PM2.5),130,111,125,99,102,48,,74,72,34,39,7,5,0.9,0.9
2024-01-11T2000,2490A,111.9561,27.7569,娄底市,涟钢,细颗粒物(PM2.5),134,118,134,102,104,48,,65,65,34,37,12,7,1.1,1.2
2024-01-11T2000,2491A,111.9892,27.7044,娄底市,市政府,细颗粒物(PM2.5),110,113,118,83,92,58,,82,80,30,34,11,8,0.8,0.8
2024-01-11T2000,1893A,105.4324,28.9634,泸州市,九狮山,细颗粒物(PM2.5),188,190,171,141,108,39,,94,86,32,30,5,6,0.8,0.7
2024-01-11T2000,1894A,105.4427,28.9063,泸州市,小市上码头,细颗粒物(PM2.5),182,155,156,137,131,73,,81,81,27,29,5,6,1.0,1.1
2024-01-11T2000,1895A,105.4241,28.8573,泸州市,兰田宪桥,细颗粒物(PM2.5),179,143,154,135,134,57,,76,76,40,26,5,5,1.0,0.9
2024-01-11T2000,1896A,105.4379,28.8833,泸州市,市环监站,细颗粒物(PM2.5),143,124,140,109,121,42,,74,73,50,27,9,10,1.0,0.9
2024-01-11T2000,3490A,105.3617,28.7703,泸州市,纳溪区环保局,细颗粒物(PM2.5),140,118,114,107,110,54,,75,75,43,27,7,5,1.1,1.1
2024-01-11T2000,2183A,111.1406,37.5211,吕梁市,环保局,颗粒物(PM10),102,154,94,48,33,2,,44,40,86,61,7,7,1.0,1.1
2024-01-11T2000,2185A,111.1297,37.5136,吕梁市,自来水公司,颗粒物(PM10),87,123,94,50,40,7,,45,39,76,52,9,9,1.1,0.8
2024-01-11T2000,2867A,111.1283,37.51,吕梁市,马茂庄小学,颗粒物(PM10),117,183,107,56,41,2,,45,40,88,55,7,7,1.1,0.9
2024-01-11T2000,1812A,112.3931,34.6516,洛阳市,市委党校,细颗粒物(PM2.5),84,89,143,62,107,44,,66,66,57,47,19,9,0.9,1.1
2024-01-11T2000,1814A,112.4657,34.6871,洛阳市,豫西宾馆,颗粒物(PM10),97,144,179,66,108,10,,64,61,102,59,14,12,1.3,1.1
2024-01-11T2000,1815A,112.494,34.6886,洛阳市,河南林校,细颗粒物(PM2.5),95,126,151,71,104,14,,63,60,90,52,13,11,1.5,1.2
2024-01-11T2000,1816A,112.3844,34.623,洛阳市,开发区管委会,细颗粒物(PM2.5),87,85,123,64,91,49,,73,73,43,42,4,4,0.7,0.9
2024-01-11T2000,1817A,112.4267,34.6258,洛阳市,市委新办公区,细颗粒物(PM2.5),82,77,124,60,106,52,,74,74,47,40,6,6,0.9,1.1
2024-01-11T2000,3340A,112.6005,34.6326,洛阳市,伊滨,颗粒物(PM10),68,86,174,43,99,43,,66,64,52,48,5,6,0.8,1.1
2024-01-11T2000,3341A,112.4951,34.6332,洛阳市,中移产业园,细颗粒物(PM2.5),59,61,117,42,96,56,,73,73,38,39,12,8,0.8,1
2024-01-11T2000,3593A,112.5736,34.8993,洛阳市,吉利监测站,颗粒物(PM10),129,207,135,74,100,15,,65,53,73,52,6,5,1.0,0.9
2024-01-11T2000,3635A,112.3677,34.662,洛阳市,河科大西苑校区,细颗粒物(PM2.5),83,93,160,61,111,46,,74,74,53,46,19,8,0.7,1
2024-01-11T2000,3636A,112.4388,34.6781,洛阳市,英才小学,"颗粒物(PM10),细颗粒物(PM2.5)",80,110,168,59,114,33,,65,65,66,52,14,10,1.2,1.3
2024-01-11T2000,2399A,114.051,33.5699,漯河市,三五一五工厂,细颗粒物(PM2.5),163,151,175,124,151,81,,99,99,32,48,8,7,0.7,0.7
2024-01-11T2000,2400A,114.0055,33.5698,漯河市,漯河大学,细颗粒物(PM2.5),150,146,160,115,132,81,,100,100,29,42,8,8,0.8,0.8
2024-01-11T2000,2401A,114.0138,33.5828,漯河市,市水利局,细颗粒物(PM2.5),149,149,169,114,133,85,,102,102,22,34,11,9,0.8,0.8
2024-01-11T2000,2402A,114.0261,33.5698,漯河市,市广电局,细颗粒物(PM2.5),156,144,170,119,138,77,,25,,32,43,5,5,0.8,0.9
2024-01-11T2000,3478A,113.9749,33.5664,漯河市,市图书馆,细颗粒物(PM2.5),148,149,168,113,138,81,,94,94,25,29,9,8,0.7,0.7
2024-01-11T2000,3479A,114.0967,33.5906,漯河市,召陵区卫健委,细颗粒物(PM2.5),147,157,192,112,145,86,,99,99,24,39,8,8,0.8,0.9
2024-01-11T2000,1798A,118.5092,31.6837,马鞍山市,湖东路四小,细颗粒物(PM2.5),80,92,132,59,93,65,,76,76,51,58,13,9,1.0,1.2
2024-01-11T2000,1799A,118.5024,31.6449,马鞍山市,开发区,细颗粒物(PM2.5),90,94,122,67,100,43,,73,72,67,56,16,11,1.2,1.3
2024-01-11T2000,1800A,118.5228,31.7231,马鞍山市,慈湖,细颗粒物(PM2.5),93,84,135,69,111,51,,76,73,68,59,10,8,1.0,1.2
2024-01-11T2000,1802A,118.6245,31.7241,马鞍山市,濮塘,细颗粒物(PM2.5),77,97,124,56,77,68,,75,75,36,32,9,6,0.8,0.9
2024-01-11T2000,3633A,118.4918,31.6809,马鞍山市,雨山,细颗粒物(PM2.5),90,110,139,67,102,38,,74,70,71,57,13,9,0.8,1.1
2024-01-11T2000,1686A,111.0286,21.4688,茂名市,电白南海,颗粒物(PM10),53,56,47,29,26,130,,131,131,25,21,9,11,0.5,0.6
2024-01-11T2000,1687A,110.9294,21.6533,茂名市,茂石化七小,颗粒物(PM10),57,63,48,31,29,120,,119,119,13,13,8,9,0.8,0.8
2024-01-11T2000,1688A,110.9107,21.6687,茂名市,健康路,颗粒物(PM10),56,61,39,36,22,117,,116,116,13,12,5,6,0.7,0.8
2024-01-11T2000,1689A,110.8592,21.6828,茂名市,高岭,颗粒物(PM10),52,53,44,31,27,110,,108,108,17,19,8,13,0.7,0.9
2024-01-11T2000,3450A,111.01,21.5165,茂名市,电白水东,颗粒物(PM10),53,56,48,34,28,120,,117,117,16,17,8,8,0.8,0.8
2024-01-11T2000,2539A,104.0308,30.0478,眉山市,黑龙滩水库,细颗粒物(PM2.5),75,78,92,55,64,102,,107,107,9,11,6,5,0.6,0.7
2024-01-11T2000,2540A,103.8416,30.0874,眉山市,气象局,细颗粒物(PM2.5),140,118,103,107,88,43,,76,76,62,37,7,7,1.0,1
2024-01-11T2000,3137A,103.8578,30.0744,眉山市,市委党校,细颗粒物(PM2.5),140,146,107,107,90,26,,72,72,82,38,8,8,1.0,0.9
2024-01-11T2000,3148A,103.8291,30.0564,眉山市,区人社局,细颗粒物(PM2.5),132,,88,100,94,55,,73,73,64,38,9,9,0.8,1
2024-01-11T2000,1690A,116.1231,24.3284,梅州市,梅江月梅,,49,41,30,34,18,46,,68,68,27,27,7,8,0.5,0.4
2024-01-11T2000,1691A,116.0797,24.2719,梅州市,梅县新城,细颗粒物(PM2.5),73,73,34,53,22,8,,71,61,65,30,4,5,0.9,0.7
2024-01-11T2000,1692A,116.1248,24.2654,梅州市,环境监控中心,,39,39,39,27,21,28,,66,62,55,38,8,9,0.6,0.6
2024-01-11T2000,3315A,116.1233,24.2991,梅州市,梅龙,颗粒物(PM10),68,85,34,32,19,14,,68,61,53,24,8,9,0.9,0.6
2024-01-11T2000,1878A,104.7778,31.4741,绵阳市,富乐山,细颗粒物(PM2.5),95,87,86,71,67,55,,68,68,30,32,6,7,0.8,1
2024-01-11T2000,1879A,104.7563,31.4535,绵阳市,市人大,细颗粒物(PM2.5),139,118,127,106,85,6,,54,52,93,45,3,3,1.6,1.1
2024-01-11T2000,1880A,104.6697,31.4668,绵阳市,高新区自来水公司,细颗粒物(PM2.5),98,103,132,73,86,33,,62,62,56,41,7,9,0.9,1.1
2024-01-11T2000,1881A,104.7287,31.5075,绵阳市,三水厂,细颗粒物(PM2.5),119,119,131,90,91,8,,56,55,75,39,7,6,1.5,1.1
2024-01-11T2000,3491A,104.69,31.5322,绵阳市,西科大附属小学,细颗粒物(PM2.5),109,119,121,82,85,11,,45,45,83,48,6,8,1.1,1.1
2024-01-11T2000,3492A,104.5648,31.5343,绵阳市,安州区旅游局,细颗粒物(PM2.5),112,127,123,84,94,36,,56,56,63,39,6,7,1.0,1
2024-01-11T2000,1784A,129.61,44.561,牡丹江市,环保大楼,,50,46,89,35,64,59,,30,30,19,54,12,15,0.5,1.1
2024-01-11T2000,1785A,129.6115,44.5782,牡丹江市,文化广场,细颗粒物(PM2.5),72,56,125,52,84,49,,22,22,21,61,14,18,0.7,1.7
2024-01-11T2000,1786A,129.5904,44.5963,牡丹江市,第一医院,细颗粒物(PM2.5),65,51,128,47,99,54,,22,22,17,64,12,19,0.7,1.7
2024-01-11T2000,1787A,129.6364,44.6075,牡丹江市,机车工厂,细颗粒物(PM2.5),74,62,133,54,80,52,,19,19,19,59,14,14,1.2,1.5
2024-01-11T2000,1788A,129.6386,44.5462,牡丹江市,第一中学,细颗粒物(PM2.5),69,51,98,50,73,56,,21,21,18,58,12,13,0.7,1.4
2024-01-11T2000,2531A,105.0703,29.61,内江市,市监测站,细颗粒物(PM2.5),125,120,94,95,97,51,,76,76,48,31,8,8,0.9,0.8
2024-01-11T2000,2532A,105.0717,29.5947,内江市,东兴区政府,细颗粒物(PM2.5),103,92,92,77,85,61,,82,82,30,21,9,9,0.8,0.7
2024-01-11T2000,2533A,105.0653,29.5817,内江市,内江二中,细颗粒物(PM2.5),107,93,92,80,92,66,,89,89,39,29,8,8,1.0,0.9
2024-01-11T2000,2534A,105.0406,29.5822,内江市,内江日报社,细颗粒物(PM2.5),95,86,96,71,86,50,,78,78,60,38,8,6,0.9,0.9
2024-01-11T2000,2628A,92.0657,31.4846,那曲市,那曲监测站,,22,20,61,10,37,70,,84,84,13,13,8,9,1.0,1.4
2024-01-11T2000,3128A,92.0506,31.4797,那曲市,那曲会议中心,,25,15,40,3,17,79,,82,82,4,16,5,7,0.3,0.8
2024-01-11T2000,1290A,115.8931,28.6843,南昌市,省外办,细颗粒物(PM2.5),132,180,130,100,83,22,,82,76,76,57,6,9,1.7,1
2024-01-11T2000,1291A,115.8886,28.7003,南昌市,省林业公司,"颗粒物(PM10),细颗粒物(PM2.5)",79,107,121,58,74,39,,78,77,67,64,7,10,0.8,0.8
2024-01-11T2000,1292A,115.8126,28.7442,南昌市,林科所,"颗粒物(PM10),细颗粒物(PM2.5)",70,90,87,51,56,4,,85,70,102,51,11,9,1.0,1
2024-01-11T2000,1294A,115.8518,28.687,南昌市,建工学校,颗粒物(PM10),79,108,103,55,61,31,,85,82,92,55,11,10,1.2,0.7
2024-01-11T2000,1295A,115.8921,28.6424,南昌市,象湖,细颗粒物(PM2.5),85,87,103,63,78,5,,75,67,101,63,8,9,1.0,1
2024-01-11T2000,1296A,115.7423,28.7996,南昌市,武术学校,细颗粒物(PM2.5),54,,44,38,26,58,,82,80,17,12,11,8,0.7,0.6
2024-01-11T2000,1298A,115.9314,28.6842,南昌市,省站,细颗粒物(PM2.5),144,144,140,110,84,37,,77,74,56,44,10,11,1.2,0.9
2024-01-11T2000,3046A,115.9084,28.6062,南昌市,机电学校,细颗粒物(PM2.5),134,169,132,102,82,32,,94,90,79,58,11,11,0.7,0.6
2024-01-11T2000,3690A,115.9721,28.7031,南昌市,外国语学校,颗粒物(PM10),92,133,135,63,79,36,,75,74,69,53,9,11,1.0,0.8
2024-01-11T2000,1905A,106.056,30.8064,南充市,西山风景区,细颗粒物(PM2.5),93,,81,69,87,82,,62,62,19,20,3,4,0.8,0.9
2024-01-11T2000,1906A,106.0789,30.8023,南充市,南充市委,细颗粒物(PM2.5),104,117,88,78,69,7,,34,34,80,32,4,5,1.3,0.9
2024-01-11T2000,1907A,106.1031,30.8217,南充市,南充炼油厂,细颗粒物(PM2.5),134,147,107,102,87,3,,38,38,85,28,5,4,0.9,0.7
2024-01-11T2000,1908A,106.1064,30.7856,南充市,高坪区监测站,细颗粒物(PM2.5),156,147,108,119,91,10,,41,41,70,31,6,6,1.8,0.8
2024-01-11T2000,1909A,106.0642,30.7636,南充市,嘉陵区环保局,细颗粒物(PM2.5),122,144,116,92,80,2,,32,32,82,36,3,3,1.5,0.9
2024-01-11T2000,1910A,106.1087,30.8388,南充市,市环境监测站,细颗粒物(PM2.5),103,107,114,77,80,48,,50,50,38,23,6,6,0.6,0.7
2024-01-11T2000,1151A,118.8086,32.1065,南京市,迈皋桥,颗粒物(PM10),79,107,112,53,70,20,,53,49,73,47,5,5,0.9,0.8
2024-01-11T2000,1152A,118.7538,32.0551,南京市,草场门,颗粒物(PM10),75,100,99,51,65,40,,59,55,75,65,7,7,0.9,1
2024-01-11T2000,1153A,118.7794,32.0745,南京市,山西路,细颗粒物(PM2.5),89,111,115,66,77,55,,65,64,55,55,11,10,0.8,0.9
2024-01-11T2000,1154A,118.7752,32.0023,南京市,中华门,颗粒物(PM10),70,90,96,48,63,34,,66,62,80,67,12,12,0.7,0.8
2024-01-11T2000,1155A,118.8109,32.0309,南京市,瑞金路,细颗粒物(PM2.5),98,132,111,73,68,9,,58,53,114,65,5,5,1.7,1.2
2024-01-11T2000,1156A,118.7997,32.0754,南京市,玄武湖,细颗粒物(PM2.5),85,110,112,63,70,22,,58,55,66,46,8,10,0.9,0.9
2024-01-11T2000,1157A,118.6414,32.0931,南京市,浦口,细颗粒物(PM2.5),90,106,124,67,81,42,,68,68,74,59,16,9,0.9,0.9
2024-01-11T2000,1158A,118.7356,31.9996,南京市,奥体中心,细颗粒物(PM2.5),83,112,110,61,69,41,,60,58,86,82,9,9,1.1,1.1
2024-01-11T2000,1159A,118.9125,32.1028,南京市,仙林大学城,细颗粒物(PM2.5),85,110,97,63,69,13,,59,54,92,58,5,5,0.9,0.8
2024-01-11T2000,3422A,118.8436,31.9198,南京市,江宁彩虹桥,细颗粒物(PM2.5),89,113,113,66,71,19,,63,50,88,67,6,7,0.5,0.6
2024-01-11T2000,3423A,119.0138,31.6494,南京市,溧水永阳,细颗粒物(PM2.5),122,114,100,92,91,6,,84,70,96,44,3,4,1.1,0.8
2024-01-11T2000,3424A,118.879,31.3302,南京市,高淳老职中,细颗粒物(PM2.5),90,94,134,67,111,61,,82,81,47,37,4,3,0.6,0.8
2024-01-11T2000,3427A,118.8554,32.3578,南京市,六合雄州,细颗粒物(PM2.5),90,93,108,67,61,22,,60,55,72,55,20,10,1.8,1.3
2024-01-11T2000,1401A,108.3103,22.7881,南宁市,二十一中,,42,29,29,29,24,41,,43,43,27,21,6,6,1.2,1.2
2024-01-11T2000,1402A,108.3141,22.8528,南宁市,北湖,,36,36,30,25,25,43,,40,40,19,21,5,8,1.1,1.1
2024-01-11T2000,1403A,108.3206,22.8225,南宁市,市监测站,,33,26,32,23,26,41,,40,40,34,30,6,7,1.1,1.1
2024-01-11T2000,1404A,108.3829,22.8037,南宁市,大自然花园,,29,25,28,20,23,32,,41,41,26,19,6,7,1.0,1
2024-01-11T2000,1405A,108.4394,22.7904,南宁市,仙葫,,28,25,28,19,22,32,,43,43,20,15,5,5,1.1,1.1
2024-01-11T2000,1406A,108.2397,22.8467,南宁市,区农职院,,48,34,27,33,22,46,,30,30,30,32,8,9,1.1,1
2024-01-11T2000,1407A,108.3275,22.735,南宁市,英华嘉园,,45,37,28,31,25,29,,37,36,33,25,5,5,1.1,1
2024-01-11T2000,1408A,108.2257,22.7757,南宁市,沙井镇街道办,,35,35,33,23,24,22,,24,24,52,41,6,7,1.2,1.2
2024-01-11T2000,3401A,108.4834,22.7618,南宁市,红星社区,,32,23,27,22,23,26,,40,38,23,18,7,8,1.2,1.1
2024-01-11T2000,2331A,118.0966,26.6761,南平市,茫荡山,,,,,,,,,,,,,,,,
2024-01-11T2000,2332A,118.1681,26.6369,南平市,南平市监测站,细颗粒物(PM2.5),80,,28,59,34,38,,64,64,36,33,5,5,0.9,0.7
2024-01-11T2000,2333A,118.1825,26.6489,南平市,南平铝业有限公司,,40,,35,28,22,21,,73,70,55,38,8,9,0.8,0.8
2024-01-11T2000,2334A,118.1756,26.6272,南平市,南平七中,,,,31,,19,,,34,,,26,,7,,0.6
2024-01-11T2000,1168A,120.9098,31.9663,南通市,狼山街道,细颗粒物(PM2.5),92,81,79,68,66,9,,55,44,92,53,10,9,0.7,0.7
2024-01-11T2000,1169A,120.86,32.0005,南通市,虹桥,细颗粒物(PM2.5),113,110,104,85,82,38,,46,45,80,56,9,6,0.9,0.9
2024-01-11T2000,1170A,120.87,32.02,南通市,城中,细颗粒物(PM2.5),104,120,106,78,75,44,,59,55,77,57,11,9,1.2,1
2024-01-11T2000,1171A,120.94,31.93,南通市,星湖花园,细颗粒物(PM2.5),130,137,92,99,66,,,58,58,116,61,7,7,0.9,0.7
2024-01-11T2000,1172A,120.81,32.0417,南通市,紫琅学院,细颗粒物(PM2.5),112,143,109,84,79,12,,46,36,106,70,15,8,0.7,0.7
2024-01-11T2000,3291A,121.067,32.062,南通市,通州监测站,细颗粒物(PM2.5),144,158,99,110,70,11,,60,52,113,58,9,9,1.0,0.9
2024-01-11T2000,3432A,120.9348,31.9883,南通市,环境教育馆,细颗粒物(PM2.5),89,100,85,66,62,14,,57,50,97,57,10,9,0.7,0.8
2024-01-11T2000,2404A,112.5224,33.0122,南阳市,瓦房庄,细颗粒物(PM2.5),188,154,145,141,133,51,,72,72,58,44,7,8,1.2,1.1
2024-01-11T2000,2405A,112.5003,32.9735,南阳市,汉画馆,细颗粒物(PM2.5),192,169,172,144,148,53,,82,81,46,48,6,6,1.0,1.2
2024-01-11T2000,2406A,112.5573,33.027,南阳市,气象站,细颗粒物(PM2.5),185,147,150,139,135,64,,83,83,50,41,6,7,1.0,0.9
2024-01-11T2000,2407A,112.5481,32.9689,南阳市,理工学院,细颗粒物(PM2.5),158,154,154,120,123,74,,86,86,42,49,8,8,0.6,0.6
2024-01-11T2000,4008A,112.5234,32.9922,南阳市,卧龙区政府,细颗粒物(PM2.5),178,170,156,134,131,49,,78,77,61,46,10,10,1.1,1
2024-01-11T2000,1234A,121.8358,29.911,宁波市,区环保大楼,细颗粒物(PM2.5),109,124,142,82,103,59,,54,51,63,60,7,8,0.9,0.8
2024-01-11T2000,1235A,121.56,29.82,宁波市,万里学院,细颗粒物(PM2.5),104,110,153,78,107,70,,69,69,50,50,8,7,0.8,1
2024-01-11T2000,1236A,121.713,29.9572,宁波市,龙赛医院,细颗粒物(PM2.5),108,118,147,81,102,13,,48,37,109,73,5,6,1.0,1
2024-01-11T2000,1239A,121.633,29.7733,宁波市,钱湖水厂,细颗粒物(PM2.5),98,93,138,73,108,96,,84,84,31,42,11,9,0.9,1
2024-01-11T2000,1240A,121.5856,29.8635,宁波市,太古小学,细颗粒物(PM2.5),109,98,132,82,109,49,,63,60,70,50,7,8,0.9,1.3
2024-01-11T2000,1241A,121.524,29.8674,宁波市,市环境监测中心,细颗粒物(PM2.5),100,102,146,75,99,38,,65,60,79,55,7,8,1.0,1
2024-01-11T2000,2871A,121.6147,29.9017,宁波市,万里国际学校,细颗粒物(PM2.5),99,94,137,74,116,64,,69,66,54,51,8,8,0.9,1.1
2024-01-11T2000,3710A,121.5594,29.8975,宁波市,白沙活动中心,细颗粒物(PM2.5),99,119,149,74,101,38,,66,58,76,52,6,7,1.0,1
2024-01-11T2000,2339A,119.5001,26.6946,宁德市,金涵水库,,,,,,,,,,,,,,,,
2024-01-11T2000,2341A,119.5388,26.6612,宁德市,宁德市监测站,细颗粒物(PM2.5),118,,70,89,75,83,,101,101,32,20,6,6,0.8,0.7
2024-01-11T2000,3209A,119.5231,26.6562,宁德市,宁德一中,,,72,76,72,66,,,104,104,18,18,4,5,,0.7
2024-01-11T2000,2618A,98.8601,25.8567,怒江傈僳族自治州,州监测站,,42,42,36,26,23,61,,78,78,22,16,8,8,0.5,0.5
2024-01-11T2000,2619A,98.8546,25.8417,怒江傈僳族自治州,泸水一中,颗粒物(PM10),61,71,42,38,28,22,,68,65,48,23,8,8,1.0,0.5
2024-01-11T2000,1888A,101.6891,26.571,攀枝花市,弄弄坪,细颗粒物(PM2.5),70,82,74,51,45,83,,89,89,46,52,20,35,1.2,2.7
2024-01-11T2000,1889A,101.5769,26.5928,攀枝花市,河门口,颗粒物(PM10),57,64,59,34,33,77,,94,94,28,30,20,13,0.8,1.2
2024-01-11T2000,1890A,101.7169,26.585,攀枝花市,炳草岗,颗粒物(PM10),64,77,72,38,42,46,,82,82,76,58,21,24,1.7,2
2024-01-11T2000,1891A,101.7369,26.5008,攀枝花市,仁和,细颗粒物(PM2.5),72,84,59,52,38,72,,97,97,38,37,15,18,1.1,1.6
2024-01-11T2000,2835A,101.7227,26.567,攀枝花市,四十中小,细颗粒物(PM2.5),90,125,74,67,43,28,,89,89,106,59,17,19,2.8,2.2
2024-01-11T2000,1604A,122.0303,41.1489,盘锦市,开发区,颗粒物(PM10),60,69,60,10,53,59,,67,66,24,43,8,13,0.4,1
2024-01-11T2000,1605A,122.0485,41.0883,盘锦市,兴隆台,,41,41,60,18,47,52,,68,66,31,36,8,11,0.4,0.9
2024-01-11T2000,1606A,121.8297,41.1028,盘锦市,新生街道,,46,46,59,16,48,40,,58,55,32,41,7,9,0.4,1
2024-01-11T2000,1832A,113.3257,33.742,平顶山市,新华旅馆,细颗粒物(PM2.5),179,168,168,135,107,66,,88,87,33,41,8,10,0.9,0.8
2024-01-11T2000,1833A,113.2919,33.737,平顶山市,规划设计院,细颗粒物(PM2.5),188,193,168,141,124,64,,93,91,48,47,10,12,0.9,0.8
2024-01-11T2000,1834A,113.182,33.774,平顶山市,平顶山工学院,细颗粒物(PM2.5),168,171,164,127,112,89,,110,110,26,34,7,9,0.8,0.9
2024-01-11T2000,3204A,113.3025,33.73,平顶山市,规划局,细颗粒物(PM2.5),192,190,168,144,124,59,,84,83,40,38,8,9,1.0,0.9
2024-01-11T2000,3594A,112.8867,33.9116,平顶山市,石龙区,细颗粒物(PM2.5),175,159,158,132,104,83,,98,96,32,59,10,9,0.9,0.8
2024-01-11T2000,2656A,106.6692,35.5461,平凉市,聚贤嘉苑,颗粒物(PM10),78,106,57,44,32,34,,72,68,59,45,12,12,1.0,0.7
2024-01-11T2000,2657A,106.7021,35.5307,平凉市,博物馆,细颗粒物(PM2.5),92,124,90,68,49,41,,70,68,60,49,33,28,1.5,1.3
2024-01-11T2000,2347A,114.0997,27.5002,萍乡市,武功山,细颗粒物(PM2.5),59,,35,42,25,52,,86,81,14,10,6,6,0.6,0.5
2024-01-11T2000,2348A,113.8385,27.6434,萍乡市,中医院,颗粒物(PM10),95,140,94,63,61,4,,78,64,77,36,16,30,1.6,1.2
2024-01-11T2000,2349A,113.8493,27.6253,萍乡市,市政府车库,细颗粒物(PM2.5),152,195,104,116,66,8,,80,69,72,36,18,26,2.3,1.8
2024-01-11T2000,2350A,113.8676,27.6435,萍乡市,市环保局,细颗粒物(PM2.5),102,129,91,76,59,18,,81,71,71,38,19,26,2.2,1.2
2024-01-11T2000,2351A,113.866,27.6198,萍乡市,安源区政府,细颗粒物(PM2.5),125,134,89,95,57,16,,81,72,59,32,20,24,1.8,1.3
2024-01-11T2000,2319A,119.0141,25.4325,莆田市,荔城区仓后路,细颗粒物(PM2.5),109,112,73,82,67,102,,115,115,27,20,8,7,0.9,0.8
2024-01-11T2000,2320A,119.0015,25.4553,莆田市,莆田市监测站,细颗粒物(PM2.5),114,,73,86,70,80,,115,112,31,21,7,8,1.0,0.8
2024-01-11T2000,2321A,119.1119,25.4561,莆田市,涵江区六中,细颗粒物(PM2.5),115,,76,87,67,114,,119,119,29,24,10,9,1.0,0.8
2024-01-11T2000,2322A,119.1013,25.3215,莆田市,秀屿区政府,细颗粒物(PM2.5),100,,66,75,70,110,,116,116,31,24,11,10,0.9,0.9
2024-01-11T2000,2323A,118.981,25.4792,莆田市,东圳水库,,,,,,,,,,,,,,,,
2024-01-11T2000,2392A,115.0312,35.7636,濮阳市,环保局,细颗粒物(PM2.5),175,169,124,132,111,11,,57,51,91,38,7,7,1.3,0.9
2024-01-11T2000,2394A,115.0574,35.7609,濮阳市,油田运输公司,细颗粒物(PM2.5),180,221,152,136,111,19,,60,56,84,38,8,8,1.5,1
2024-01-11T2000,2395A,115.0866,35.7754,濮阳市,油田物探公司,细颗粒物(PM2.5),182,214,158,137,117,9,,56,50,90,43,6,6,1.4,1.1
2024-01-11T2000,3021A,115,35.7668,濮阳市,濮水河管理处,细颗粒物(PM2.5),166,178,135,126,111,24,,60,55,74,40,6,7,1.2,0.9
2024-01-11T2000,2601A,100.98,22.7633,普洱市,市环保局,颗粒物(PM10),51,51,40,33,28,46,,77,74,15,16,4,4,0.5,0.5
2024-01-11T2000,2602A,100.9817,22.8322,普洱市,普洱第二中学,,44,44,36,20,16,42,,84,80,27,21,6,6,0.7,0.7
2024-01-11T2000,2262A,131.0518,45.8751,七台河市,新一中,,48,43,34,33,26,64,,63,63,15,17,11,14,0.8,0.6
2024-01-11T2000,3345A,131.0577,45.7879,七台河市,中波台,细颗粒物(PM2.5),74,64,43,54,34,41,,55,43,40,27,10,11,1.4,0.9
2024-01-11T2000,3637A,131.0176,45.7761,七台河市,人民广场,细颗粒物(PM2.5),58,64,50,41,40,48,,55,42,32,29,13,14,0.7,0.7
2024-01-11T2000,3684A,130.8781,45.8222,七台河市,新建矿广场,细颗粒物(PM2.5),59,,59,42,44,54,,54,54,24,42,12,27,0.7,0.8
2024-01-11T2000,1779A,123.9305,47.3636,齐齐哈尔市,安居小区,,29,27,42,20,28,49,,55,54,15,15,7,8,0.4,0.4
2024-01-11T2000,1780A,123.9488,47.3386,齐齐哈尔市,中心广场,,37,37,48,17,32,48,,50,48,15,17,4,6,0.4,0.6
2024-01-11T2000,1781A,123.9483,47.3227,齐齐哈尔市,农牧车辆厂,,23,17,41,16,27,52,,53,53,11,15,9,10,0.4,0.5
2024-01-11T2000,1783A,123.945,47.2988,齐齐哈尔市,市环境监测站,,29,,44,20,32,54,,56,56,12,15,4,6,0.4,0.5
