timepoint,stationcode,longitude,latitude,area,positionname,primarypollutant,aqi,pm10,pm10_24h,pm2_5,pm2_5_24h,o3,o3_24h,o3_8h,o3_8h_24h,no2,no2_24h,so2,so2_24h,co,co_24h
2026-01-05T0100,2568A,102.2503,31.8896,阿坝藏族羌族自治州,马师校,,27,27,26,16,15,46,,,,8,12,4,4,0.5,0.6
2026-01-05T0100,3994A,102.2174,31.9016,阿坝藏族羌族自治州,马尔康中学西区,,16,11,22,8,11,50,,,,9,9,6,6,0.5,0.5
2026-01-05T0100,2695A,80.2899,41.1684,阿克苏地区,电视台,,45,45,59,29,37,41,,,,30,25,4,4,0.6,0.6
2026-01-05T0100,2696A,80.2592,41.1541,阿克苏地区,艺术中心,,50,36,50,35,38,59,,,,11,18,4,4,0.5,0.6
2026-01-05T0100,2205A,105.699,38.8409,阿拉善盟,蒙二幼,,29,29,34,7,18,72,,,,9,17,9,10,0.4,0.6
2026-01-05T0100,2206A,105.7198,38.8508,阿拉善盟,环保局新楼,,21,9,20,6,15,67,,,,9,11,9,9,0.5,0.6
2026-01-05T0100,2708A,88.1266,47.8515,阿勒泰地区,市站,,24,15,10,3,5,75,,,,11,23,2,2,0.5,0.4
2026-01-05T0100,4166A,88.1198,47.7931,阿勒泰地区,阿勒泰路33号,,27,8,12,3,4,86,,,,6,21,3,7,0.3,0.4
2026-01-05T0100,2630A,80.1171,32.4999,阿里地区,阿里监测站,,25,6,3,3,3,78,,,,20,7,11,9,0.7,0.4
2026-01-05T0100,3192A,80.0906,32.5029,阿里地区,阿里藏医院,,32,12,12,3,6,102,,,,1,6,9,11,0.4,0.5
2026-01-05T0100,2644A,109.0088,32.6974,安康市,汉滨区检察院,细颗粒物(PM2.5),54,44,56,38,50,6,,,,22,25,4,7,0.7,0.8
2026-01-05T0100,4054A,109.0324,32.6913,安康市,市邮政管理局,细颗粒物(PM2.5),65,57,64,47,56,6,,,,21,27,6,6,0.8,0.9
2026-01-05T0100,2291A,117.0806,30.5181,安庆市,环科院,细颗粒物(PM2.5),103,94,83,77,70,36,,,,13,31,5,7,,0.8
2026-01-05T0100,2292A,117.0331,30.5118,安庆市,马山宾馆,细颗粒物(PM2.5),97,100,83,72,67,37,,,,12,29,4,6,0.7,0.8
2026-01-05T0100,2294A,116.9897,30.6146,安庆市,安庆大学,细颗粒物(PM2.5),94,92,82,70,69,30,,,,20,36,4,4,0.7,0.9
2026-01-05T0100,3173A,117.0598,30.5351,安庆市,市人大,细颗粒物(PM2.5),100,83,81,75,68,33,,,,18,32,6,8,0.6,0.7
2026-01-05T0100,3123A,105.9408,26.2431,安顺市,凤凰山,,23,18,13,16,13,35,,,,11,13,10,11,0.9,0.9
2026-01-05T0100,3124A,105.9443,26.2567,安顺市,金钟山,,30,,13,21,15,33,,,,9,9,12,12,0.9,0.8
2026-01-05T0100,3125A,105.8983,26.248,安顺市,娄家坡,,,,19,,16,,,51,,,13,,20,,0.9
2026-01-05T0100,1819A,114.3552,36.1017,安阳市,红庙街,细颗粒物(PM2.5),260,242,155,210,156,15,,,,52,41,7,5,1.7,1.4
2026-01-05T0100,1820A,114.361,36.0681,安阳市,银杏小区,细颗粒物(PM2.5),275,,156,225,167,19,,,,46,38,7,5,1.6,1.3
2026-01-05T0100,3141A,114.3921,36.0879,安阳市,信访局,细颗粒物(PM2.5),272,240,167,222,162,23,,,,49,37,3,3,1.5,1.3
2026-01-05T0100,3669A,114.4706,36.0634,安阳市,左辅环卫站,细颗粒物(PM2.5),272,241,173,222,160,23,,,,40,27,6,4,1.4,1.1
2026-01-05T0100,4117A,114.2918,36.0769,安阳市,钢三路198号,细颗粒物(PM2.5),297,268,216,247,189,2,,,,57,44,8,6,2.2,1.7
2026-01-05T0100,1748A,123.0441,41.1201,鞍山市,深沟寺,"颗粒物(PM10),细颗粒物(PM2.5)",54,58,63,38,44,10,,,,55,38,15,12,2.3,1.6
2026-01-05T0100,1749A,123.011,41.0931,鞍山市,太阳城,细颗粒物(PM2.5),60,64,63,43,44,18,,,,48,39,13,22,1.5,2.2
2026-01-05T0100,1750A,123.0483,41.1445,鞍山市,太平,细颗粒物(PM2.5),84,94,82,62,51,5,,,,49,46,8,14,1.4,1.6
2026-01-05T0100,1751A,122.964,41.0968,鞍山市,铁西三道街,细颗粒物(PM2.5),110,138,109,83,56,14,,,,62,56,16,20,2.0,2.4
2026-01-05T0100,1753A,123.0219,41.0822,鞍山市,明达新区,,46,46,66,32,46,29,,,,21,26,11,20,0.8,2
2026-01-05T0100,4201A,122.944647,41.082639,鞍山市,兴盛南路290号,细颗粒物(PM2.5),108,152,149,81,69,2,,,,62,64,10,19,1.6,2.1
2026-01-05T0100,2195A,107.4206,40.7609,巴彦淖尔市,附二中,,32,32,59,13,34,50,,,,9,23,4,8,0.3,0.5
2026-01-05T0100,2196A,107.37,40.7372,巴彦淖尔市,市环保大楼,,30,30,56,9,26,64,,,,6,25,4,6,0.4,0.6
2026-01-05T0100,1956A,86.1476,41.7529,巴音郭楞蒙古自治州,孔雀公园,颗粒物(PM10),76,101,109,34,33,44,,,,15,34,7,6,0.5,0.5
2026-01-05T0100,1957A,86.1971,41.7166,巴音郭楞蒙古自治州,棉纺厂,颗粒物(PM10),87,124,125,33,24,45,,,,17,30,/,/,/,/
2026-01-05T0100,1958A,86.236,41.7172,巴音郭楞蒙古自治州,经济开发区,颗粒物(PM10),78,106,89,22,20,37,,,,18,21,4,4,0.7,0.6
2026-01-05T0100,3181A,106.776805,31.852614,巴中市,市五中,细颗粒物(PM2.5),67,64,56,48,45,5,,,,20,19,4,5,1.0,1
2026-01-05T0100,3183A,106.7419,31.8654,巴中市,圣泉水务公司,细颗粒物(PM2.5),57,46,48,40,43,10,,,,25,22,5,5,0.6,0.7
2026-01-05T0100,3616A,106.7617,31.8343,巴中市,市中心医院,,,,76,,68,,,36,,,19,,7,,1.0
2026-01-05T0100,2235A,122.7909,45.608,白城市,洮北区环保局,,18,15,33,12,25,57,,,,12,19,4,4,0.3,0.4
2026-01-05T0100,2236A,122.8741,45.5725,白城市,市环保局,,20,,30,8,25,63,,,,6,14,6,6,0.4,0.4
2026-01-05T0100,2231A,126.4219,41.9172,白山市,喜丰,颗粒物(PM10),60,70,78,39,43,14,,,,50,43,8,16,1.6,1.5
2026-01-05T0100,2232A,126.4082,41.9416,白山市,环保局,细颗粒物(PM2.5),73,70,69,53,53,19,,,,32,35,8,12,1.4,1.6
2026-01-05T0100,2647A,104.1727,36.5448,白银市,第三小学,,33,31,49,23,38,63,,,,15,21,3,11,0.6,0.8
2026-01-05T0100,2648A,104.1467,36.5482,白银市,动力公司,,36,,46,25,39,66,,,,10,16,2,10,0.5,0.7
2026-01-05T0100,2512A,106.6102,23.901,百色市,市监测站,,16,16,41,3,29,9,,,,14,22,10,12,0.8,0.9
2026-01-05T0100,2513A,106.6524,23.8842,百色市,市中心血站,,12,12,42,3,40,7,,,,22,29,8,11,0.7,0.9
2026-01-05T0100,4133A,106.6273,23.8798,百色市,龙景西路,,13,,55,9,53,4,,,,13,21,11,13,0.6,0.7
2026-01-05T0100,2270A,117.396,32.9389,蚌埠市,工人疗养院,细颗粒物(PM2.5),89,80,88,66,60,38,,,,24,48,6,7,0.6,0.7
2026-01-05T0100,2271A,117.3606,32.9428,蚌埠市,百货大楼,细颗粒物(PM2.5),78,71,80,57,56,43,,,,23,49,6,6,0.5,0.7
2026-01-05T0100,2273A,117.4183,32.8909,蚌埠市,蚌埠学院,细颗粒物(PM2.5),85,,68,63,55,38,,,,26,43,4,5,0.5,0.6
2026-01-05T0100,2274A,117.3534,32.9672,蚌埠市,淮上区政府,细颗粒物(PM2.5),104,83,86,78,65,32,,,,26,53,3,4,0.6,0.7
2026-01-05T0100,2275A,117.3143,32.8977,蚌埠市,高新区,细颗粒物(PM2.5),84,73,72,62,59,32,,,,26,42,6,8,0.5,0.6
2026-01-05T0100,3715A,117.3091,32.9314,蚌埠市,蚌埠田家炳中学,细颗粒物(PM2.5),99,80,86,74,62,36,,,,30,52,6,8,0.5,0.7
2026-01-05T0100,1585A,109.8761,40.6533,包头市,市环境监测站,,24,24,44,3,10,53,,,,11,14,5,7,0.2,0.2
2026-01-05T0100,1587A,109.9992,40.5843,包头市,包头八中,,29,29,49,9,13,51,,,,13,21,6,4,0.4,0.4
2026-01-05T0100,1589A,109.8641,40.6288,包头市,惠龙物流,,17,16,37,8,10,52,,,,10,14,8,10,0.4,0.4
2026-01-05T0100,1590A,110.0376,40.5546,包头市,东河鸿龙湾,,21,21,39,3,9,38,,,,28,29,11,10,0.5,0.5
2026-01-05T0100,3283A,109.9154,40.5684,包头市,滨河大厦,,18,18,32,3,12,42,,,,14,11,4,5,0.5,0.5
2026-01-05T0100,3419A,109.9449,40.6259,包头市,包头市委党校,,40,40,43,10,14,50,,,,13,16,10,11,0.4,0.4
2026-01-05T0100,3683A,109.8332,40.6577,包头市,昆区政府,,22,22,42,7,13,53,,,,11,17,7,10,0.6,0.6
2026-01-05T0100,1931A,107.0802,34.3129,宝鸡市,竹园沟,,26,,32,18,32,42,,,,11,10,5,6,0.3,0.4
2026-01-05T0100,1933A,107.1429,34.3549,宝鸡市,监测站,,39,27,47,27,44,53,,,,16,22,4,4,0.6,0.7
2026-01-05T0100,1934A,107.1172,34.3759,宝鸡市,技工学校,,48,,49,33,49,48,,,,8,15,3,4,0.6,0.7
2026-01-05T0100,1936A,107.2025,34.3518,宝鸡市,文理学院,细颗粒物(PM2.5),54,44,50,38,47,39,,,,22,24,3,4,0.5,0.5
2026-01-05T0100,1937A,107.2396,34.3626,宝鸡市,三迪小学,细颗粒物(PM2.5),59,,53,42,54,42,,,,18,25,2,4,0.6,0.7
2026-01-05T0100,4155A,107.1721,34.3558,宝鸡市,滨河北路,,43,42,50,30,42,48,,,,19,22,5,6,0.7,0.7
2026-01-05T0100,4308A,107.3898,34.3601,宝鸡市,陈仓区北开路21号,细颗粒物(PM2.5),72,,65,52,61,53,,,,22,23,33,29,0.8,0.7
2026-01-05T0100,1051A,115.4803,38.8568,保定市,游泳馆,细颗粒物(PM2.5),110,94,126,83,101,5,,,,82,76,8,10,1.4,1.4
2026-01-05T0100,1052A,115.509,38.8895,保定市,华电二区,细颗粒物(PM2.5),85,94,110,63,96,1,,,,59,58,4,5,1.5,1.5
2026-01-05T0100,1053A,115.4588,38.9037,保定市,接待中心,细颗粒物(PM2.5),104,109,113,78,86,2,,,,63,60,3,4,1.2,1.1
2026-01-05T0100,1054A,115.4484,38.8344,保定市,地表水厂,细颗粒物(PM2.5),105,124,144,79,101,7,,,,74,72,8,9,1.3,1.3
2026-01-05T0100,3581A,115.3136,38.9511,保定市,满城区生态环境分局,细颗粒物(PM2.5),73,85,136,53,88,1,,,,66,71,6,8,1.2,1.4
2026-01-05T0100,3582A,115.4709,38.7628,保定市,清苑区第二中学,细颗粒物(PM2.5),140,176,188,107,118,4,,,,78,81,18,10,1.1,1.3
2026-01-05T0100,3583A,115.6231,39.0223,保定市,徐水物探局,细颗粒物(PM2.5),120,135,157,91,103,3,,,,84,69,13,11,1.3,1.3
2026-01-05T0100,4004A,115.4199,38.8665,保定市,双鹰农机,细颗粒物(PM2.5),109,136,148,82,86,12,,,,57,60,11,10,1.1,1.1
2026-01-05T0100,4034A,115.515,38.8589,保定市,植保所站,细颗粒物(PM2.5),118,131,134,89,114,0,,,,88,87,3,4,1.6,1.4
2026-01-05T0100,2594A,99.1589,25.1137,保山市,市环境监测站,,30,,20,21,15,45,,,,7,8,4,5,0.4,0.4
2026-01-05T0100,2595A,99.1616,25.1381,保山市,市环保局,,40,,22,28,20,60,,,,3,6,4,4,0.4,0.4
2026-01-05T0100,1867A,109.1435,21.4085,北海市,海滩公园,颗粒物(PM10),59,67,45,29,26,108,,,,15,15,12,10,0.8,0.5
2026-01-05T0100,1868A,109.0983,21.466,北海市,新市环保局,颗粒物(PM10),53,56,45,36,29,101,,,,16,17,5,6,0.7,0.6
2026-01-05T0100,1869A,109.1775,21.5232,北海市,北海工业园,颗粒物(PM10),63,76,57,37,32,82,,,,17,18,7,11,0.7,0.7
2026-01-05T0100,3400A,109.1844,21.4396,北海市,龙潭自来水厂,颗粒物(PM10),55,60,46,32,30,105,,,,12,14,9,9,0.8,0.7
2026-01-05T0100,1001A,116.3611,39.8786,北京市,万寿西宫,细颗粒物(PM2.5),103,129,74,77,41,1,,,,92,59,8,5,1.6,0.8
2026-01-05T0100,1003A,116.4174,39.9289,北京市,东四,细颗粒物(PM2.5),104,115,67,78,40,5,,,,72,48,8,5,2.1,1
2026-01-05T0100,1004A,116.4073,39.8858,北京市,天坛,细颗粒物(PM2.5),98,111,63,73,39,3,,,,66,51,2,3,1.5,0.9
2026-01-05T0100,1005A,116.4622,39.9364,北京市,农展馆,细颗粒物(PM2.5),104,122,72,78,42,4,,,,77,47,7,6,2.0,1
2026-01-05T0100,1006A,116.3399,39.9293,北京市,官园,细颗粒物(PM2.5),90,99,72,67,43,1,,,,77,52,9,7,1.3,0.8
2026-01-05T0100,1007A,116.2879,39.9613,北京市,海淀万柳,颗粒物(PM10),58,66,65,35,35,1,,,,69,57,4,4,1.0,0.8
2026-01-05T0100,1008A,116.6635,40.1349,北京市,顺义新城,颗粒物(PM10),74,97,60,52,31,1,,,,64,42,7,6,1.2,0.8
2026-01-05T0100,1009A,116.6275,40.327,北京市,怀柔镇,,39,39,33,23,19,23,,,,21,26,6,6,0.6,0.6
2026-01-05T0100,1010A,116.2295,40.217,北京市,昌平镇,,30,30,53,17,29,43,,,,20,42,6,5,0.5,0.8
2026-01-05T0100,1011A,116.3968,39.982,北京市,奥体中心,细颗粒物(PM2.5),89,104,59,66,35,0,,,,95,62,8,6,1.8,0.9
2026-01-05T0100,3418A,116.8336,40.4095,北京市,密云新城,,24,24,30,13,16,39,,,,24,21,3,3,0.5,0.5
2026-01-05T0100,3671A,116.0879,39.9725,北京市,门头沟三家店,,49,49,57,22,27,2,,,,40,38,2,3,0.6,0.7
2026-01-05T0100,3672A,116.1507,39.8246,北京市,丰台云岗,颗粒物(PM10),54,58,70,32,36,12,,,,54,53,5,4,0.7,0.7
2026-01-05T0100,3674A,115.9578,39.7602,北京市,房山燕山,颗粒物(PM10),51,51,62,31,35,17,,,,34,38,5,5,0.6,0.6
2026-01-05T0100,3675A,116.4669,39.7734,北京市,大兴旧宫,细颗粒物(PM2.5),83,109,97,61,52,1,,,,60,57,3,5,1.4,1.1
2026-01-05T0100,3694A,115.9859,40.4562,北京市,延庆石河营,颗粒物(PM10),51,51,52,33,31,12,,,,35,32,3,3,0.8,0.9
2026-01-05T0100,3695A,116.6151,40.3052,北京市,怀柔新城,,35,34,30,24,20,26,,,,17,17,4,4,0.4,0.3
2026-01-05T0100,3696A,116.2542,39.8764,北京市,丰台小屯,颗粒物(PM10),77,103,82,42,41,2,,,,71,62,4,5,1.0,1
2026-01-05T0100,3697A,116.8399,40.3843,北京市,密云镇,颗粒物(PM10),54,58,43,29,21,5,,,,46,37,2,2,0.7,0.6
2026-01-05T0100,4057A,115.9423,40.4431,北京市,延庆百泉,颗粒物(PM10),55,59,51,32,33,14,,,,37,30,2,3,0.6,0.7
2026-01-05T0100,4058A,116.6598,39.9164,北京市,通州新华,细颗粒物(PM2.5),105,141,106,79,61,0,,,,86,66,7,7,2.0,1.2
2026-01-05T0100,4182A,116.1942,39.9158,北京市,石景山八角,颗粒物(PM10),57,64,69,30,35,4,,,,53,56,2,3,0.6,0.6
2026-01-05T0100,4194A,117.078628,40.151726,北京市,平谷新城,细颗粒物(PM2.5),90,92,79,67,54,5,,,,45,46,2,3,1.3,1
2026-01-05T0100,1761A,123.8274146,41.31234549,本溪市,大峪,细颗粒物(PM2.5),103,104,108,77,68,3,,,,54,48,7,13,1.5,2.2
2026-01-05T0100,1763A,123.7169,41.3094,本溪市,彩屯,细颗粒物(PM2.5),162,155,144,123,110,3,,,,62,56,6,13,2.1,3.1
2026-01-05T0100,1764A,123.7672166,41.28649327,本溪市,东明,细颗粒物(PM2.5),129,118,104,98,77,3,,,,60,53,8,15,2.1,2.5
2026-01-05T0100,1765A,123.799345,41.266614,本溪市,新立屯,细颗粒物(PM2.5),82,71,66,60,46,2,,,,58,48,10,15,4.4,2.6
2026-01-05T0100,1766A,123.829144,41.336777,本溪市,威宁,细颗粒物(PM2.5),149,169,133,114,84,6,,,,63,53,6,10,2.1,2.1
2026-01-05T0100,2587A,105.287,27.3133,毕节市,八中,,18,15,13,12,10,42,,,,7,10,8,9,0.8,0.8
2026-01-05T0100,2588A,105.3079,27.2987,毕节市,师专,,18,18,15,12,9,44,,,,8,10,7,7,0.9,0.9
2026-01-05T0100,4263A,105.3688,27.3598,毕节市,工业大道,,20,19,15,14,12,42,,,,5,7,9,10,/,/
2026-01-05T0100,1629A,117.9961,37.3604,滨州市,第二水厂,细颗粒物(PM2.5),159,188,191,121,124,2,,,,65,61,14,16,1.5,1.3
2026-01-05T0100,1630A,117.9789,37.3931,滨州市,北中新校,细颗粒物(PM2.5),213,210,186,163,151,0,,,,71,57,8,12,1.3,1.3
2026-01-05T0100,3514A,117.9379,37.3959,滨州市,中海酒店,细颗粒物(PM2.5),252,224,184,202,160,10,,,,67,53,12,13,1.1,1.1
2026-01-05T0100,3515A,117.9381509,37.35547456,滨州市,开发区一中,细颗粒物(PM2.5),225,202,187,175,160,2,,,,61,51,17,19,1.4,1.2
2026-01-05T0100,3516A,118.0914,37.6938,滨州市,金海六路,细颗粒物(PM2.5),163,159,195,124,156,4,,,,70,68,12,20,1.4,1.4
2026-01-05T0100,4028A,117.9955,37.3752,滨州市,滨州市西街道办事处,细颗粒物(PM2.5),211,185,193,161,165,,,,,57,50,12,15,1.5,1.4
2026-01-05T0100,2311A,115.8071,33.8399,亳州市,污水处理厂,细颗粒物(PM2.5),85,65,67,63,56,35,,,,25,31,3,4,0.4,0.5
2026-01-05T0100,2312A,115.7789,33.8519,亳州市,三国揽胜宫,细颗粒物(PM2.5),80,71,73,59,52,26,,,,21,21,2,3,0.5,0.5
2026-01-05T0100,3332A,115.7631,33.803,亳州市,亳州学院,细颗粒物(PM2.5),80,69,61,59,54,27,,,,22,21,2,3,0.4,0.4
2026-01-05T0100,2693A,82.0482,44.8553,博尔塔拉蒙古自治州,市党校,颗粒物(PM10),78,106,112,49,60,21,,,,30,29,2,3,1.1,1.2
2026-01-05T0100,2694A,82.0805,44.8966,博尔塔拉蒙古自治州,市环保局,颗粒物(PM10),109,167,131,81,63,33,,,,42,38,7,9,1.3,1.1
2026-01-05T0100,1071A,116.8733,38.2922,沧州市,沧县城建局,细颗粒物(PM2.5),179,136,191,135,178,5,,,,71,66,6,8,2.0,1.7
2026-01-05T0100,1072A,116.8462,38.3189,沧州市,电视转播站,细颗粒物(PM2.5),170,156,193,129,171,0,,,,69,58,10,8,2.0,1.4
2026-01-05T0100,1073A,116.8588,38.3161,沧州市,市环保局,细颗粒物(PM2.5),160,126,188,122,173,5,,,,63,57,10,8,1.8,1.4
2026-01-05T0100,3324A,116.8011,38.294,沧州市,河北水利电力学院,细颗粒物(PM2.5),132,139,202,100,148,2,,,,73,62,13,12,2.1,1.5
2026-01-05T0100,2622A,97.1813,31.1289,昌都市,昌都监测站,,39,39,36,8,12,63,,,,8,12,1,1,0.4,0.4
2026-01-05T0100,3719A,97.1707,31.1428,昌都市,昌都会议中心,,20,11,12,7,7,64,,,,1,2,3,2,0.4,0.4
2026-01-05T0100,2692A,87.2722,44.0298,昌吉回族自治州,新区政务中心,细颗粒物(PM2.5),199,203,125,149,82,2,,,,60,56,6,7,1.8,1.4
2026-01-05T0100,3613A,87.3069,44.0093,昌吉回族自治州,亚心广场,细颗粒物(PM2.5),168,183,140,127,94,4,,,,57,51,5,7,1.6,1.5
2026-01-05T0100,4164A,87.2057,43.9289,昌吉回族自治州,财政所,细颗粒物(PM2.5),74,77,98,54,66,58,,,,14,24,5,5,0.6,0.7
2026-01-05T0100,1120A,125.2874,43.9024,长春市,客车厂,细颗粒物(PM2.5),72,58,78,52,80,44,,,,20,45,8,14,0.5,0.9
2026-01-05T0100,1121A,125.2943,43.8508,长春市,邮电学院,颗粒物(PM10),69,88,91,48,74,38,,,,23,44,9,14,0.5,1
2026-01-05T0100,1122A,125.3648,43.8745,长春市,劳动公园,颗粒物(PM10),67,83,90,30,63,42,,,,22,44,8,8,0.6,1.2
2026-01-05T0100,1123A,125.3233,43.8781,长春市,园林处,细颗粒物(PM2.5),65,65,74,47,63,39,,,,19,36,10,11,0.5,0.8
2026-01-05T0100,1124A,125.4604,43.7904,长春市,净月潭,细颗粒物(PM2.5),103,102,93,77,72,21,,,,43,33,6,7,1.1,1
2026-01-05T0100,1126A,125.38,43.8422,长春市,经开区环卫处,颗粒物(PM10),69,87,99,34,68,38,,,,29,49,14,9,0.5,1.1
2026-01-05T0100,1127A,125.234,43.7761,长春市,高新区管委会,细颗粒物(PM2.5),74,78,111,54,100,42,,,,21,46,7,8,0.7,1.4
2026-01-05T0100,1128A,125.1695,43.83,长春市,岱山公园,颗粒物(PM10),61,71,93,38,82,39,,,,24,47,8,11,0.5,1.1
2026-01-05T0100,4281A,125.334645,43.916281,长春市,北亚泰大街1068号,细颗粒物(PM2.5),88,,77,65,69,32,,,,28,45,8,16,0.7,0.9
2026-01-05T0100,1335A,113.082,28.2421,长沙市,经开区环保局,细颗粒物(PM2.5),52,36,39,36,35,21,,,,22,24,3,3,0.5,0.5
2026-01-05T0100,1336A,112.8873,28.2202,长沙市,高开区环保局,细颗粒物(PM2.5),60,,42,43,39,25,,,,11,18,4,4,0.8,0.7
2026-01-05T0100,1337A,113.0785,28.2012,长沙市,马坡岭,,49,35,40,34,35,23,,,,23,25,4,4,0.8,0.8
2026-01-05T0100,1338A,112.9448,28.1894,长沙市,湖南师范大学,,48,36,40,33,32,33,,,,20,23,4,4,0.6,0.6
2026-01-05T0100,1339A,113.0177,28.1322,长沙市,雨花区环保局,细颗粒物(PM2.5),54,,35,38,33,30,,,,19,22,6,6,0.6,0.6
2026-01-05T0100,1340A,112.9795,28.2593,长沙市,伍家岭,细颗粒物(PM2.5),53,41,44,37,35,28,,,,16,17,4,4,0.5,0.5
2026-01-05T0100,1341A,113.002,28.1944,长沙市,火车新站,细颗粒物(PM2.5),55,41,57,39,35,31,,,,15,20,7,7,0.5,0.5
2026-01-05T0100,1342A,112.9846,28.1177,长沙市,天心区环保局,,46,35,40,32,35,31,,,,22,27,4,4,0.6,0.6
2026-01-05T0100,1343A,112.8906,28.1307,长沙市,湖南中医药大学,细颗粒物(PM2.5),54,38,41,38,36,25,,,,20,24,5,5,0.7,0.6
2026-01-05T0100,1727A,113.1146,36.1547,长治市,清华站,细颗粒物(PM2.5),92,,69,68,70,40,,,,26,30,12,17,1.2,1.2
2026-01-05T0100,1730A,113.0887,36.2126,长治市,审计局,细颗粒物(PM2.5),117,,63,88,66,37,,,,24,27,9,16,1.3,1
2026-01-05T0100,1731A,113.0845,36.1856,长治市,长治八中,细颗粒物(PM2.5),95,73,73,71,73,38,,,,21,22,9,15,1.4,1.2
2026-01-05T0100,2845A,113.1561,36.1912,长治市,德盛苑,细颗粒物(PM2.5),89,,66,66,70,48,,,,18,26,9,13,1.1,1.1
2026-01-05T0100,3568A,113.0603,36.0464,长治市,向阳小学,细颗粒物(PM2.5),137,110,99,104,86,36,,,,30,32,12,17,1.6,1.4
2026-01-05T0100,3569A,112.8788,36.315,长治市,屯留一中,细颗粒物(PM2.5),147,,75,112,78,37,,,,31,27,2,5,1.3,1.1
2026-01-05T0100,4189A,113.113092,36.199482,长治市,英华南巷50号,细颗粒物(PM2.5),83,,70,61,67,50,,,,17,24,8,13,1.2,1.1
2026-01-05T0100,4190A,113.23666,36.33435,长治市,学府街1号,细颗粒物(PM2.5),83,,68,61,76,50,,,,24,33,11,16,1.1,1.4
2026-01-05T0100,1854A,111.696,28.9725,常德市,市二中,细颗粒物(PM2.5),80,62,53,59,48,1,,,,29,22,4,4,1.0,0.8
2026-01-05T0100,3138A,111.7152,29.0288,常德市,武陵区永安,细颗粒物(PM2.5),64,74,57,46,43,12,,,,30,21,3,3,1.1,0.8
2026-01-05T0100,3139A,111.6891,28.9881,常德市,鼎城区玉霞,细颗粒物(PM2.5),89,81,54,66,48,2,,,,34,25,7,7,1.2,0.9
2026-01-05T0100,3140A,111.6651,29.0526,常德市,武陵区长庚,细颗粒物(PM2.5),74,73,53,54,46,13,,,,27,20,3,3,0.9,0.8
2026-01-05T0100,1196A,119.9524,31.7586,常州市,市监测站,细颗粒物(PM2.5),132,126,113,100,81,0,,,,88,81,4,5,1.2,1.1
2026-01-05T0100,1200A,119.9351,31.703,常州市,武进监测站,细颗粒物(PM2.5),120,114,105,91,80,0,,,,81,79,8,8,0.9,0.9
2026-01-05T0100,3002A,119.9701,31.813,常州市,行政中心,细颗粒物(PM2.5),117,119,100,88,77,0,,,,85,78,6,8,1.1,0.9
2026-01-05T0100,3003A,120.0434,31.7726,常州市,经开区,细颗粒物(PM2.5),135,164,129,103,80,2,,,,77,72,5,9,1.5,1.2
2026-01-05T0100,3010A,119.8919,31.7892,常州市,钟楼,细颗粒物(PM2.5),122,114,105,92,80,,,,,79,72,7,8,1.1,0.9
2026-01-05T0100,3429A,119.8595,31.706,常州市,武进经发区,细颗粒物(PM2.5),125,107,109,95,90,4,,,,62,73,6,9,1.0,1
2026-01-05T0100,3430A,119.5812,31.7256,常州市,金坛城区,细颗粒物(PM2.5),128,107,101,97,86,9,,,,,52,6,8,0.8,0.9
2026-01-05T0100,4089A,119.9551,31.863,常州市,崇义南街5-H号,细颗粒物(PM2.5),123,108,97,93,85,0,,,,89,79,10,7,1.2,0.9
2026-01-05T0100,2220A,120.4318,41.588,朝阳市,西梁,细颗粒物(PM2.5),90,74,115,67,67,6,,,,63,46,15,15,1.4,1.6
2026-01-05T0100,2221A,120.452,41.565,朝阳市,河畔小区,细颗粒物(PM2.5),109,,76,82,57,4,,,,57,39,10,11,1.8,1.4
2026-01-05T0100,2222A,120.4176,41.5648,朝阳市,八里堡,细颗粒物(PM2.5),117,91,86,88,53,4,,,,56,41,11,14,1.6,1.4
2026-01-05T0100,3026A,116.6179,23.6608,潮州市,市政府,颗粒物(PM10),60,69,64,39,33,35,,,,28,23,8,11,0.6,0.5
2026-01-05T0100,4036A,116.646,23.676,潮州市,金山,,49,48,51,34,34,36,,,,16,15,4,5,0.4,0.4
2026-01-05T0100,2473A,113.0116,25.8228,郴州市,市职中,,,24,57,23,51,13,,,,,16,3,4,0.6,0.6
2026-01-05T0100,2475A,113.0381,25.8074,郴州市,市审计局,,32,26,58,22,52,16,,,,16,18,3,3,/,/
2026-01-05T0100,2476A,113.0348,25.7757,郴州市,市环保局,,36,30,66,25,50,22,,,,17,21,2,5,0.6,0.7
2026-01-05T0100,4252A,113.0138,25.8011,郴州市,好美居路49号,,46,,57,32,56,21,,,,12,18,1,4,/,/
2026-01-05T0100,1431A,103.9727,30.7242,成都市,金泉两河,细颗粒物(PM2.5),62,60,42,44,25,6,,,,54,34,2,2,0.8,0.7
2026-01-05T0100,1432A,104.1423,30.6765,成都市,十里店,细颗粒物(PM2.5),68,59,35,49,25,5,,,,59,34,4,3,0.8,0.7
2026-01-05T0100,1433A,104.0594,30.5765,成都市,三瓦窑,细颗粒物(PM2.5),68,61,42,49,31,1,,,,59,35,4,3,0.8,0.7
2026-01-05T0100,1434A,104.1122,30.6306,成都市,沙河铺,细颗粒物(PM2.5),95,,46,71,38,2,,,,64,35,3,4,0.9,0.7
2026-01-05T0100,2880A,104.0219,30.6561,成都市,大石西路,细颗粒物(PM2.5),68,78,46,49,31,6,,,,54,32,5,5,0.8,0.7
2026-01-05T0100,3136A,104.2724,30.559,成都市,龙泉驿区区政府,,42,31,24,29,22,21,,,,11,18,5,6,0.6,0.7
2026-01-05T0100,3357A,104.0028,30.6891,成都市,金博路,细颗粒物(PM2.5),59,49,28,42,23,1,,,,61,33,4,5,1.0,0.8
2026-01-05T0100,3359A,104.056,30.5228,成都市,华阳,细颗粒物(PM2.5),62,51,35,44,30,9,,,,53,31,3,3,0.9,0.6
2026-01-05T0100,3488A,104.387954,30.746684,成都市,青石路225号,细颗粒物(PM2.5),62,48,36,44,29,7,,,,47,25,5,6,0.5,0.6
2026-01-05T0100,3489A,104.0788,30.4054,成都市,科学城,细颗粒物(PM2.5),52,45,38,36,34,18,,,,25,18,6,6,0.8,0.8
2026-01-05T0100,4011A,103.8505,30.6946,成都市,光华大道三段,细颗粒物(PM2.5),67,57,42,48,28,9,,,,46,27,2,3,0.8,0.7
2026-01-05T0100,4144A,104.3257,30.6406,成都市,八角井街185号,颗粒物(PM10),56,61,44,38,29,31,,,,17,23,2,4,0.9,1
2026-01-05T0100,4224A,104.2433276,30.53529463,成都市,鲸龙路1057号,细颗粒物(PM2.5),63,50,35,45,30,3,,,,49,26,5,5,0.5,0.4
2026-01-05T0100,1062A,117.9531,40.908,承德市,铁路,,36,36,66,23,33,29,,,,19,36,4,8,0.6,1
2026-01-05T0100,1063A,117.9397,40.9763,承德市,中国银行,颗粒物(PM10),53,56,70,35,31,6,,,,35,30,2,4,0.7,0.8
2026-01-05T0100,4073A,117.9462,40.95,承德市,杏林街1号,细颗粒物(PM2.5),58,59,62,41,38,2,,,,45,37,4,6,0.9,1
2026-01-05T0100,4274A,117.7994,40.9605,承德市,滨河大街98号,,25,25,53,9,23,48,,,,9,26,2,6,0.3,0.8
2026-01-05T0100,2314A,117.4698,30.6617,池州市,池州学院,细颗粒物(PM2.5),103,83,81,77,73,21,,,,30,32,4,5,0.6,0.8
2026-01-05T0100,3237A,117.4918,30.6617,池州市,展览馆,细颗粒物(PM2.5),97,86,81,72,65,20,,,,31,35,2,3,0.8,1
2026-01-05T0100,3333A,117.5626,30.695,池州市,第八中学,细颗粒物(PM2.5),102,92,86,76,71,22,,,,26,37,3,6,0.8,1
2026-01-05T0100,3334A,117.5037,30.6242,池州市,第十二中学,细颗粒物(PM2.5),99,83,78,74,65,20,,,,36,42,5,4,0.9,1.1
2026-01-05T0100,1744A,118.9229,42.2816,赤峰市,松山一中,细颗粒物(PM2.5),58,61,55,41,32,3,,,,47,36,11,16,1.2,1.3
2026-01-05T0100,1745A,118.9588,42.2733,赤峰市,哈达街,,47,47,45,32,26,18,,,,35,29,14,12,1.0,1
2026-01-05T0100,1746A,118.8792,42.2551,赤峰市,天义路,,46,42,38,32,31,25,,,,30,31,14,13,0.8,0.9
2026-01-05T0100,3058A,119.2656,42.0356,赤峰市,银河街,,42,38,103,29,68,23,,,,32,29,49,23,1.4,2.1
2026-01-05T0100,3286A,118.9359,42.3146,赤峰市,桥北物流园区,,39,39,34,20,24,12,,,,35,30,28,13,0.9,0.8
2026-01-05T0100,2521A,107.3473,22.4137,崇左市,市环保局江州分局,细颗粒物(PM2.5),92,90,74,68,54,26,,,,23,22,8,8,0.7,0.7
2026-01-05T0100,4256A,107.375,22.3736,崇左市,石景林东路7号,细颗粒物(PM2.5),102,,66,76,60,29,,,,22,25,8,8,0.6,0.7
2026-01-05T0100,3207A,118.31131,32.3033,滁州市,市政府原办公楼,细颗粒物(PM2.5),85,73,74,63,60,51,,,,18,38,5,6,0.5,0.7
2026-01-05T0100,3331A,118.3268,32.2633,滁州市,图书馆,细颗粒物(PM2.5),79,61,73,58,61,50,,,,12,36,8,9,0.6,0.8
2026-01-05T0100,4101A,118.3196,32.3335,滁州市,银山路666号,细颗粒物(PM2.5),104,,65,78,77,46,,,,10,31,8,8,0.8,0.9
2026-01-05T0100,4102A,118.3426,32.2979,滁州市,黄山路555号,细颗粒物(PM2.5),97,73,83,72,76,55,,,,18,38,10,11,0.7,0.8
2026-01-05T0100,2606A,101.5379,25.0492,楚雄彝族自治州,市经济开发区,,26,26,18,18,14,25,,,,32,14,4,4,0.7,0.5
2026-01-05T0100,4153A,101.5536,25.0343,楚雄彝族自治州,团结路562号,,18,16,14,9,12,57,,,,5,8,3,2,0.3,0.4
2026-01-05T0100,2549A,107.5087,31.2186,达州市,市环境监测站,细颗粒物(PM2.5),77,70,67,56,50,3,,,,32,34,5,5,0.6,0.5
2026-01-05T0100,2550A,107.4988,31.2132,达州市,凤凰小区,细颗粒物(PM2.5),85,80,72,63,53,4,,,,30,30,4,4,0.6,0.5
2026-01-05T0100,2551A,107.5081,31.1987,达州市,达县机关宾馆,细颗粒物(PM2.5),84,95,77,62,57,2,,,,30,33,4,2,0.7,0.7
2026-01-05T0100,2552A,107.4644,31.2124,达州市,市政中心,细颗粒物(PM2.5),77,91,76,56,47,5,,,,35,31,6,6,0.6,0.4
2026-01-05T0100,2614A,100.2168,25.5818,大理白族自治州,大理市环境监测站,,30,,14,21,15,58,,,,12,8,6,6,0.5,0.5
2026-01-05T0100,2615A,100.1542,25.7055,大理白族自治州,大理古城,,18,,15,12,12,56,,,,13,8,8,8,0.6,0.6
2026-01-05T0100,1109A,121.6119,38.974,大连市,甘井子,,48,46,41,33,29,57,,,,18,29,11,12,0.3,0.3
2026-01-05T0100,1110A,121.565,38.9509,大连市,周水子,细颗粒物(PM2.5),52,47,45,36,31,49,,,,24,40,11,12,0.6,0.6
2026-01-05T0100,1111A,121.5637,38.8849,大连市,星海三站,,49,42,36,34,28,53,,,,21,27,8,11,0.8,0.8
2026-01-05T0100,1112A,121.6301,38.9117,大连市,青泥洼桥,,42,41,43,29,30,50,,,,23,39,11,11,0.5,0.6
2026-01-05T0100,1113A,121.6248,38.8643,大连市,傅家庄,,35,35,34,24,23,51,,,,19,28,9,11,0.3,0.3
2026-01-05T0100,1114A,121.5117,38.8636,大连市,七贤岭,,37,37,34,22,23,62,,,,11,20,8,9,0.5,0.7
2026-01-05T0100,1116A,121.7507,39.1339,大连市,金州,细颗粒物(PM2.5),53,47,39,37,28,54,,,,22,22,11,12,0.6,0.5
2026-01-05T0100,1117A,121.7811,39.0495,大连市,开发区,,45,42,52,31,31,52,,,,16,34,5,7,0.7,0.8
2026-01-05T0100,1118A,121.9762,39.0631,大连市,双D港,,35,35,33,20,22,66,,,,14,16,14,15,0.6,0.6
2026-01-05T0100,4082A,121.2548,38.8188,大连市,旅顺,颗粒物(PM10),52,54,56,33,39,52,,,,13,20,7,11,0.8,0.8
2026-01-05T0100,1789A,124.8085,46.0381,大庆市,大同区,,30,24,36,21,23,54,,,,8,17,6,6,0.3,0.4
2026-01-05T0100,1790A,125.1166,46.5255,大庆市,龙凤区,,30,30,31,17,15,54,,,,17,27,9,10,0.4,0.6
2026-01-05T0100,1791A,124.8894,46.4007,大庆市,红岗区,,26,22,26,18,18,49,,,,13,19,6,6,0.5,0.5
2026-01-05T0100,1792A,125.1391,46.578,大庆市,萨尔图区,,23,19,29,16,15,51,,,,12,22,9,9,0.3,0.4
2026-01-05T0100,1793A,124.9026,46.6217,大庆市,让胡路区,,38,,25,26,23,62,,,,7,12,8,8,0.4,0.4
2026-01-05T0100,3481A,125.127,46.6277,大庆市,萨区政府监测点,,26,26,27,12,11,55,,,,11,22,9,9,0.6,0.7
2026-01-05T0100,1723A,113.2926,40.0759,大同市,云冈宾馆,,30,30,37,12,16,34,,,,23,25,8,10,1.1,1.2
2026-01-05T0100,1724A,113.3437,40.0921,大同市,大同大学,,33,33,37,10,16,44,,,,15,22,10,9,0.9,0.8
2026-01-05T0100,1725A,113.2637,40.129,大同市,安家小村,,29,29,44,11,17,52,,,,11,24,13,12,0.7,0.9
2026-01-05T0100,3282A,113.3399,40.0586,大同市,大同市卫生学校,,32,32,38,12,15,42,,,,18,25,10,8,1.2,1
2026-01-05T0100,3565A,113.1371,40.1122,大同市,云冈站,,41,41,46,3,19,28,,,,26,28,22,12,1.3,0.9
2026-01-05T0100,3566A,113.1186,40.2556,大同市,图书馆,,33,33,59,16,30,39,,,,16,22,12,11,0.4,1.1
2026-01-05T0100,3567A,113.5931,40.0459,大同市,区一中,,26,26,70,8,36,54,,,,9,30,10,18,0.3,1.1
2026-01-05T0100,4199A,113.2798248,40.09972476,大同市,魏都大道141号,,38,38,54,14,20,45,,,,13,26,8,8,0.9,1.1
2026-01-05T0100,2269A,124.1068,50.4091,大兴安岭地区,科技局,,25,,16,17,13,53,,,,2,2,6,5,0.3,0.3
2026-01-05T0100,3663A,124.117,50.4279,大兴安岭地区,红旗社区,,19,,6,6,4,60,,,,1,3,6,5,0.2,0.2
2026-01-05T0100,1600A,124.33,40.0625,丹东市,江湾东路,,37,37,75,25,56,52,,,,19,32,10,20,0.7,1.7
2026-01-05T0100,1601A,124.4242,40.1513,丹东市,临江后街,,34,34,67,19,42,55,,,,14,34,6,14,0.9,1.4
2026-01-05T0100,1602A,124.3935,40.1461,丹东市,元宝山,,39,39,61,26,47,53,,,,19,32,9,14,0.8,1.3
2026-01-05T0100,1603A,124.3634,40.1093,丹东市,民主桥,,47,47,71,24,41,56,,,,16,35,9,13,0.7,1.1
2026-01-05T0100,3541A,109.5726195,19.51688767,儋州市,第一中学子站,,46,46,38,22,20,60,,,,4,4,4,4,0.5,0.5
2026-01-05T0100,3542A,109.5567,19.5187,儋州市,东坡学校子站,,40,40,36,18,18,65,,,,3,4,5,4,0.5,0.5
2026-01-05T0100,2616A,98.5611,24.4273,德宏傣族景颇族自治州,德宏州监测站,,49,41,47,34,37,22,,,,21,21,6,7,0.7,0.7
2026-01-05T0100,3677A,98.5887,24.4366,德宏傣族景颇族自治州,芒市人民政府综合楼,,41,41,46,26,31,20,,,,12,16,8,9,0.8,0.7
2026-01-05T0100,1901A,104.424,31.1209,德阳市,东山公园,,48,35,28,33,24,38,,,,12,18,2,2,0.8,0.8
2026-01-05T0100,1902A,104.3827,31.1318,德阳市,西小区,"颗粒物(PM10),细颗粒物(PM2.5)",60,70,49,43,28,3,,,,52,30,2,2,1.1,0.9
2026-01-05T0100,1904A,104.3553,31.1091,德阳市,耐火材料厂,细颗粒物(PM2.5),58,52,39,41,32,4,,,,54,32,1,1,0.9,0.8
2026-01-05T0100,4145A,104.4144,31.1495,德阳市,市林业局,细颗粒物(PM2.5),59,43,35,42,30,3,,,,44,25,2,2,0.8,0.8
2026-01-05T0100,1622A,116.3034,37.4675,德州市,儿童乐园,细颗粒物(PM2.5),235,229,170,185,132,1,,,,72,53,13,18,1.7,1.5
2026-01-05T0100,1624A,116.2992,37.4449,德州市,监理站,细颗粒物(PM2.5),247,234,170,197,136,11,,,,78,57,18,20,1.5,1.2
2026-01-05T0100,3066A,116.2722,37.438,德州市,九衢泉纯净水厂,细颗粒物(PM2.5),247,234,171,197,139,0,,,,73,55,16,25,1.4,1.1
2026-01-05T0100,3371A,116.3693,37.44,德州市,开发区人民医院,细颗粒物(PM2.5),243,266,175,193,126,11,,,,91,69,16,19,1.4,1.1
2026-01-05T0100,3511A,116.5687,37.3331,德州市,陵城艺术中心,细颗粒物(PM2.5),247,244,172,197,137,2,,,,75,65,17,20,1.7,1.3
2026-01-05T0100,4292A,116.352738,37.420875,德州市,新河东路,细颗粒物(PM2.5),255,246,169,205,140,7,,,,81,68,16,18,1.7,1.4
2026-01-05T0100,2621A,99.7054,27.8319,迪庆藏族自治州,迪庆州站,,26,25,22,18,16,60,,,,8,9,5,5,0.5,0.4
2026-01-05T0100,3180A,99.7122,27.8129,迪庆藏族自治州,质量技术监督局,,33,,21,23,18,65,,,,10,11,4,5,0.6,0.5
2026-01-05T0100,4257A,104.6092,35.5962,定西市,将台街,细颗粒物(PM2.5),65,52,61,47,46,25,,,,41,25,11,10,0.7,0.6
2026-01-05T0100,4309A,104.6159,35.5701,定西市,正龙路62号,细颗粒物(PM2.5),73,67,67,53,52,35,,,,17,12,6,7,1.0,0.7
2026-01-05T0100,1390A,113.7943,23.0132,东莞市,东城石井,细颗粒物(PM2.5),69,83,52,50,32,7,,,,96,42,9,9,1.0,0.8
2026-01-05T0100,1391A,113.7384,22.9659,东莞市,南城西平,颗粒物(PM10),73,95,63,52,36,1,,,,116,61,10,10,0.9,0.7
2026-01-05T0100,3319A,113.7283,23.041,东莞市,万江金泰,细颗粒物(PM2.5),93,121,69,69,38,2,,,,92,48,7,6,1.3,0.9
2026-01-05T0100,4129A,113.8666,23.1062,东莞市,裕兴路,颗粒物(PM10),82,113,69,57,36,11,,,,72,45,11,10,1.0,0.8
2026-01-05T0100,4130A,114.0076,22.9739,东莞市,教育路1号,细颗粒物(PM2.5),102,146,92,76,48,2,,,,106,64,6,7,1.2,1
2026-01-05T0100,4131A,113.7981,22.8124,东莞市,长怡路1号,颗粒物(PM10),76,102,72,52,36,5,,,,97,58,14,10,0.9,0.8
2026-01-05T0100,1666A,118.6612,37.4313,东营市,市环保局,细颗粒物(PM2.5),122,114,174,92,140,22,,,,42,57,8,17,1.1,1.3
2026-01-05T0100,3036A,118.6903,37.4337,东营市,开发区管委会,细颗粒物(PM2.5),104,85,169,78,138,33,,,,34,58,9,20,1.2,1.4
2026-01-05T0100,3365A,118.5721,37.5654,东营市,垦利区民丰路,细颗粒物(PM2.5),98,88,170,73,139,16,,,,46,57,6,10,1.1,1.4
2026-01-05T0100,3498A,118.5063,37.8606,东营市,河口城区,颗粒物(PM10),54,58,182,32,139,36,,,,37,53,6,7,0.8,1.3
2026-01-05T0100,3646A,118.4979,37.4623,东营市,胜利站,细颗粒物(PM2.5),208,223,198,158,155,1,,,,68,63,12,20,1.9,1.7
2026-01-05T0100,3734A,118.5753,37.4405,东营市,理想之城,,,,178,,145,,,49,,,69,,13,,1.4
2026-01-05T0100,1591A,110.0024,39.8127,鄂尔多斯市,综合楼,,24,24,37,7,13,50,,,,19,21,8,10,0.6,0.6
2026-01-05T0100,1592A,109.9485,39.8259,鄂尔多斯市,巴音孟克林场办事处,,27,27,50,12,15,46,,,,20,24,7,11,0.4,0.6
2026-01-05T0100,1593A,109.7734,39.5987,鄂尔多斯市,康泽苑,,20,17,30,9,14,61,,,,9,11,5,6,0.3,0.4
2026-01-05T0100,1594A,109.8121,39.5987,鄂尔多斯市,华泰汽车城,,18,17,34,3,14,56,,,,9,15,2,4,0.3,0.4
2026-01-05T0100,1595A,109.9734,39.7884,鄂尔多斯市,奥林花园,,44,44,52,7,11,46,,,,22,22,5,6,0.7,0.6
2026-01-05T0100,2436A,114.894,30.3989,鄂州市,市政府,细颗粒物(PM2.5),73,,46,53,42,20,,,,20,20,4,5,0.8,0.8
2026-01-05T0100,2437A,114.8986,30.3714,鄂州市,赵家坝,细颗粒物(PM2.5),63,57,40,45,44,19,,,,17,14,6,6,0.4,0.5
2026-01-05T0100,3654A,114.8093,30.4091,鄂州市,精准医疗中心,细颗粒物(PM2.5),69,55,54,50,48,24,,,,15,15,10,4,0.9,1
2026-01-05T0100,2454A,109.4978,30.2979,恩施土家族苗族自治州,湖北民院,细颗粒物(PM2.5),75,,43,55,47,15,,,,12,15,6,6,0.8,0.8
2026-01-05T0100,3549A,109.5061,30.3771,恩施土家族苗族自治州,龙凤新区,细颗粒物(PM2.5),80,68,51,59,45,10,,,,7,11,7,7,0.6,0.6
2026-01-05T0100,2499A,108.3411,21.6159,防城港市,沙万,细颗粒物(PM2.5),118,,106,89,44,46,,,,20,26,7,8,0.7,0.8
2026-01-05T0100,2500A,108.3515,21.7733,防城港市,防城档案局,细颗粒物(PM2.5),115,,75,87,50,34,,,,19,20,6,6,0.8,0.8
2026-01-05T0100,2501A,108.3506,21.6414,防城港市,大海花园,细颗粒物(PM2.5),83,85,62,61,40,47,,,,15,17,8,10,0.9,0.9
2026-01-05T0100,1371A,113.1293,23.0065,佛山市,湾梁,细颗粒物(PM2.5),69,83,81,50,48,2,,,,95,69,/,/,/,/
2026-01-05T0100,1372A,113.1082,23.0477,佛山市,华材职中,颗粒物(PM10),93,136,102,65,52,6,,,,108,73,6,7,1.3,0.8
2026-01-05T0100,1373A,113.1439,23.045,佛山市,南海气象局,细颗粒物(PM2.5),82,88,83,60,51,4,,,,111,69,/,/,/,/
2026-01-05T0100,1374A,113.2879,22.8094,佛山市,顺德苏岗,细颗粒物(PM2.5),62,56,63,44,39,16,,,,69,57,/,/,0.8,0.8
2026-01-05T0100,1376A,112.8384,22.8678,佛山市,高明孔堂,细颗粒物(PM2.5),59,49,68,42,49,61,,,,21,39,/,/,/,/
2026-01-05T0100,1377A,112.8835,23.1584,佛山市,三水监测站,细颗粒物(PM2.5),94,105,104,70,65,4,,,,104,67,6,12,0.8,0.8
2026-01-05T0100,1378A,112.8668,23.185,佛山市,三水云东海,细颗粒物(PM2.5),85,77,89,63,57,0,,,,94,51,/,/,/,/
2026-01-05T0100,3625A,113.2568,22.7629,佛山市,容桂街道办,,,,77,61,46,17,,,,100,57,/,/,/,/
2026-01-05T0100,1282A,119.2681,26.0506,福州市,师大,,38,38,38,20,15,18,,,,48,29,7,8,0.5,0.5
2026-01-05T0100,1283A,119.2983,26.1028,福州市,五四北路,,45,45,45,23,17,16,,,,50,34,4,5,0.6,0.6
2026-01-05T0100,1284A,119.2648,26.0769,福州市,杨桥西路,,48,48,37,23,15,8,,,,51,24,4,5,/,/
2026-01-05T0100,3048A,119.5799,26.0937,福州市,九龙,,28,28,28,14,12,29,,,,36,20,4,5,0.6,0.5
2026-01-05T0100,3526A,119.5188,25.9666,福州市,吴航,,30,30,32,15,15,40,,,,22,28,4,6,0.6,0.7
2026-01-05T0100,4104A,119.3106,26.0648,福州市,路通桥巷6号,颗粒物(PM10),57,63,39,38,20,21,,,,40,22,/,/,/,/
2026-01-05T0100,1755A,123.7974,41.8494,抚顺市,望花区,细颗粒物(PM2.5),229,224,175,179,138,4,,,,73,68,9,14,2.7,2.3
2026-01-05T0100,1756A,123.9161,41.8827,抚顺市,顺城区,细颗粒物(PM2.5),178,170,145,134,110,5,,,,72,66,7,12,2.1,2.1
2026-01-05T0100,1757A,124.0437,41.8615,抚顺市,东洲区,细颗粒物(PM2.5),176,143,129,133,109,4,,,,67,61,29,14,1.9,2
2026-01-05T0100,1758A,123.9246,41.8638,抚顺市,新抚区,细颗粒物(PM2.5),199,178,158,149,124,,,,,67,63,6,10,2.1,2.2
2026-01-05T0100,1759A,124.0972,41.8961,抚顺市,大伙房水库,细颗粒物(PM2.5),183,147,126,138,102,4,,,,72,59,10,16,2.1,2
2026-01-05T0100,1760A,123.708,41.8386,抚顺市,沈抚新城,细颗粒物(PM2.5),208,196,162,158,134,10,,,,72,69,6,12,2.4,2.3
2026-01-05T0100,2377A,116.3544,27.9833,抚州市,市站,,40,40,51,28,39,48,,,,10,16,9,10,0.5,0.5
2026-01-05T0100,2378A,116.3562,27.9631,抚州市,血防站,,43,38,55,30,39,46,,,,11,20,4,7,0.7,0.8
2026-01-05T0100,2379A,116.3561,28.0007,抚州市,采茶剧团,,48,41,52,33,40,41,,,,8,14,4,8,0.8,0.8
2026-01-05T0100,2380A,116.3854,27.9648,抚州市,医学分院,,39,39,56,25,37,50,,,,9,17,10,11,0.6,0.6
2026-01-05T0100,2207A,121.6095,41.9978,阜新市,工业园区,,23,23,74,6,30,59,,,,7,24,8,14,0.3,0.7
2026-01-05T0100,2208A,121.6567,42.0188,阜新市,长青街,,25,25,51,8,30,51,,,,11,24,7,9,0.3,0.6
2026-01-05T0100,2209A,121.6672,42.07,阜新市,农业园区,,18,16,43,7,20,55,,,,9,14,9,13,0.3,0.5
2026-01-05T0100,2211A,121.6343,42.0455,阜新市,玉龙新城,颗粒物(PM10),55,60,68,7,28,45,,,,15,30,7,8,0.3,0.6
2026-01-05T0100,2301A,115.8276,32.8929,阜阳市,市监测站,颗粒物(PM10),56,61,89,38,67,51,,,,12,36,4,5,0.6,0.7
2026-01-05T0100,2303A,115.8551,32.8606,阜阳市,开发区,细颗粒物(PM2.5),69,,80,50,65,55,,,,10,35,4,5,0.4,0.6
2026-01-05T0100,2875A,115.783962,32.889217,阜阳市,阜阳职业技术学院,细颗粒物(PM2.5),54,50,71,38,55,49,,,,12,22,5,6,0.6,0.7
2026-01-05T0100,3468A,115.79,32.8614,阜阳市,市规划展馆,细颗粒物(PM2.5),69,,76,50,62,51,,,,13,23,5,6,0.4,0.5
2026-01-05T0100,3469A,115.835101,32.918568,阜阳市,枣园社区,细颗粒物(PM2.5),65,52,86,47,67,56,,,,12,35,4,6,0.3,0.4
2026-01-05T0100,2669A,102.9097,34.9841,甘南藏族自治州,州政府,,,75,81,47,48,,,,,52,30,3,4,1.1,0.8
2026-01-05T0100,3380A,102.8915,34.9618,甘南藏族自治州,甘肃民族师范学院,颗粒物(PM10),73,95,79,40,47,13,,,,52,34,4,5,0.7,0.6
2026-01-05T0100,2570A,101.96,30.048,甘孜藏族自治州,水桥子,,12,12,8,8,4,37,,,,22,13,5,6,0.6,0.7
2026-01-05T0100,3065A,101.9534,29.9976,甘孜藏族自治州,州环保局,,13,12,13,8,5,40,,,,17,13,5,6,0.5,0.6
2026-01-05T0100,2363A,114.9368,25.8663,赣州市,地委,细颗粒物(PM2.5),55,57,52,39,30,50,,,,13,26,8,8,0.8,0.8
2026-01-05T0100,2364A,114.946,25.8483,赣州市,气象台,颗粒物(PM10),59,68,59,37,26,50,,,,16,38,2,3,0.8,0.8
2026-01-05T0100,2365A,114.932,25.8332,赣州市,市图书馆,细颗粒物(PM2.5),55,50,49,39,32,44,,,,15,34,3,4,0.7,0.8
2026-01-05T0100,2366A,114.8905,25.8472,赣州市,华坚鞋城,,47,47,49,31,29,48,,,,13,29,6,6,0.4,0.5
2026-01-05T0100,3109A,115.0094,25.8614,赣州市,赣县区卫计委,细颗粒物(PM2.5),74,56,48,54,39,41,,,,14,25,8,8,0.5,0.5
2026-01-05T0100,2684A,106.2753,36.0057,固原市,监测站,,46,44,38,32,33,73,,,,16,24,3,4,0.6,0.8
2026-01-05T0100,2685A,106.2384,36.0189,固原市,新区,,46,46,34,30,28,79,,,,10,19,3,3,0.6,0.7
2026-01-05T0100,2544A,106.6307,30.4577,广安市,市委,细颗粒物(PM2.5),72,63,53,52,42,7,,,,25,24,5,5,1.0,0.9
2026-01-05T0100,2545A,106.6266,30.4662,广安市,友谊中学,细颗粒物(PM2.5),68,53,45,49,43,13,,,,12,11,5,6,0.7,0.6
2026-01-05T0100,2547A,106.6386,30.4551,广安市,广电花园,细颗粒物(PM2.5),73,65,49,53,42,2,,,,21,21,8,8,0.8,0.7
2026-01-05T0100,2902A,106.6347,30.4868,广安市,北辰小学,细颗粒物(PM2.5),73,54,49,53,46,15,,,,12,15,18,17,1.0,0.9
2026-01-05T0100,2524A,105.8211,32.4444,广元市,老城,,42,42,44,19,30,6,,,,63,37,4,6,0.6,0.8
2026-01-05T0100,2526A,105.8629,32.429,广元市,监测站,,43,43,43,23,27,24,,,,34,24,4,3,0.8,0.9
2026-01-05T0100,3617A,105.8047,32.4167,广元市,经开区,,40,40,40,25,30,2,,,,56,31,1,3,0.7,0.8
2026-01-05T0100,1345A,113.2346,23.1423,广州市,广雅中学,颗粒物(PM10),80,109,84,58,46,1,,,,110,68,3,3,1.3,0.9
2026-01-05T0100,1346A,113.2611,23.105,广州市,市五中,细颗粒物(PM2.5),84,104,73,62,41,4,,,,125,77,9,9,/,/
2026-01-05T0100,1348A,113.3477,23.0916,广州市,广东商学院,细颗粒物(PM2.5),79,95,67,58,42,1,,,,111,62,6,7,0.9,0.6
2026-01-05T0100,1349A,113.4332,23.105,广州市,市八十六中,细颗粒物(PM2.5),97,105,56,72,38,1,,,,117,65,8,8,/,/
2026-01-05T0100,1350A,113.3506,22.9488,广州市,番禺中学,细颗粒物(PM2.5),119,146,86,90,48,7,,,,80,68,4,6,1.2,0.8
2026-01-05T0100,1351A,113.2147,23.3918,广州市,花都师范,"颗粒物(PM10),细颗粒物(PM2.5)",67,83,73,48,42,21,,,,75,58,5,6,0.8,0.7
2026-01-05T0100,1352A,113.2599,23.1329,广州市,市监测站,二氧化氮(NO2),63,73,73,43,42,2,,,,126,72,2,2,/,/
2026-01-05T0100,1353A,113.5618,23.3119,广州市,九龙镇镇龙,细颗粒物(PM2.5),73,88,60,53,35,2,,,,62,38,5,6,0.6,0.5
2026-01-05T0100,1354A,113.2764,23.1544,广州市,麓湖,二氧化氮(NO2),61,60,54,40,35,2,,,,121,62,8,8,0.5,0.4
2026-01-05T0100,2846A,113.3209,23.1323,广州市,体育西,细颗粒物(PM2.5),68,80,68,49,42,2,,,,119,67,6,7,1.1,0.8
2026-01-05T0100,3298A,113.5718,23.5493,广州市,从化街口,细颗粒物(PM2.5),84,92,59,62,39,0,,,,64,38,8,9,1.1,0.8
2026-01-05T0100,3299A,113.3463,23.369,广州市,白云竹料,细颗粒物(PM2.5),85,113,74,63,44,4,,,,78,47,4,4,0.8,0.6
2026-01-05T0100,3300A,113.2981,23.2365,广州市,白云嘉禾,颗粒物(PM10),55,60,69,31,35,47,,,,56,59,5,5,/,/
2026-01-05T0100,3301A,113.4256,23.1716,广州市,黄埔科学城,颗粒物(PM10),57,64,51,38,30,23,,,,58,39,6,6,0.7,0.6
2026-01-05T0100,3302A,113.3942,23.0485,广州市,番禺大学城,颗粒物(PM10),65,80,65,42,35,2,,,,97,54,9,10,0.7,0.6
2026-01-05T0100,3303A,113.4923,22.8169,广州市,南沙黄阁,颗粒物(PM10),57,64,62,32,31,34,,,,63,52,9,9,/,/
2026-01-05T0100,3304A,113.534,22.7893,广州市,南沙街,细颗粒物(PM2.5),58,58,56,41,30,49,,,,44,37,6,7,0.7,0.6
2026-01-05T0100,3443A,113.2905,23.5541,广州市,花都梯面,,38,38,48,22,27,2,,,,52,36,4,6,/,/
2026-01-05T0100,3445A,113.786,23.7479,广州市,从化良口,,24,24,24,16,18,40,,,,23,14,7,7,/,/
2026-01-05T0100,3446A,113.805,23.2614,广州市,增城荔城,,49,46,35,34,24,44,,,,24,22,6,8,0.6,0.5
2026-01-05T0100,2506A,109.604387,23.066791,贵港市,江南子站,细颗粒物(PM2.5),108,,82,81,64,22,,,,23,29,4,9,0.9,0.9
2026-01-05T0100,2508A,109.5669,23.1065,贵港市,荷城子站,细颗粒物(PM2.5),85,66,76,63,56,18,,,,22,25,3,8,0.7,0.7
2026-01-05T0100,3405A,109.5886,23.1172,贵港市,新世纪学校,细颗粒物(PM2.5),92,80,88,68,59,18,,,,22,29,/,/,0.7,0.6
2026-01-05T0100,4260A,109.5933,23.095,贵港市,中山路155-3号,细颗粒物(PM2.5),94,84,72,70,58,23,,,,24,29,/,/,0.9,0.8
2026-01-05T0100,1439A,106.6863,26.6035,贵阳市,马鞍山,,39,34,21,27,18,20,,,,12,14,4,5,/,/
2026-01-05T0100,1441A,106.6241,26.6266,贵阳市,鉴湖路,,22,22,24,12,11,41,,,,14,16,3,4,0.6,0.6
2026-01-05T0100,1442A,106.7468,26.6344,贵阳市,燕子冲,,45,,26,31,25,22,,,,14,15,7,8,0.8,0.8
2026-01-05T0100,1443A,106.6556,26.4362,贵阳市,碧云窝,细颗粒物(PM2.5),52,44,34,36,19,21,,,,19,19,5,8,/,/
2026-01-05T0100,1445A,106.6963,26.6063,贵阳市,红边门,,42,29,26,29,19,29,,,,12,18,8,9,/,/
2026-01-05T0100,1446A,106.7162383,26.56964667,贵阳市,新华路,,35,31,31,24,19,29,,,,16,17,7,8,0.6,0.6
2026-01-05T0100,1447A,106.6742,26.542,贵阳市,太慈桥,,39,34,23,27,16,29,,,,16,19,3,4,/,/
2026-01-05T0100,4230A,106.688212,26.56952,贵阳市,花果园大街66号,,39,27,17,27,19,29,,,,16,18,2,4,/,/
2026-01-05T0100,4231A,106.687268,26.516892,贵阳市,漓江路57号,,42,36,29,29,20,24,,,,18,21,6,9,0.9,0.8
2026-01-05T0100,1864A,110.3091,25.2705,桂林市,龙隐路小学,,23,20,49,16,52,20,,,,12,19,6,6,0.4,0.5
2026-01-05T0100,1865A,110.2849361,25.22909545,桂林市,八中,,26,24,49,18,51,20,,,,14,24,7,7,0.6,0.7
2026-01-05T0100,3531A,110.296,25.1254,桂林市,旅游学院,,28,22,46,19,40,22,,,,15,19,3,3,0.6,0.6
2026-01-05T0100,4222A,110.1835,25.2444,桂林市,环湖路276号,,28,,53,19,45,19,,,,14,22,6,6,0.6,0.6
2026-01-05T0100,4301A,110.2803,25.2773,桂林市,信义路13号,,18,17,49,12,44,22,,,,13,24,4,4,0.7,0.7
2026-01-05T0100,2674A,100.2262,34.4854,果洛藏族自治州,玛沁县大武镇,,37,37,34,15,10,46,,,,6,3,14,13,0.5,0.4
2026-01-05T0100,1130A,126.5557,45.8109,哈尔滨市,松北商大,颗粒物(PM10),51,51,44,33,30,8,,,,55,31,8,9,0.7,0.6
2026-01-05T0100,1132A,126.6162,45.719,哈尔滨市,南岗学府路,细颗粒物(PM2.5),64,53,49,46,33,24,,,,35,27,12,12,0.9,0.8
2026-01-05T0100,1133A,126.6894,45.7733,哈尔滨市,太平宏伟公园,,43,33,38,30,30,41,,,,25,25,24,26,0.5,0.5
2026-01-05T0100,1134A,126.6361,45.7672,哈尔滨市,道外承德广场,颗粒物(PM10),52,53,52,31,28,38,,,,29,27,16,12,0.7,0.4
2026-01-05T0100,1136A,126.644,45.7261,哈尔滨市,动力和平路,细颗粒物(PM2.5),59,55,45,42,30,18,,,,44,28,22,17,0.8,0.7
2026-01-05T0100,1137A,126.5933,45.7479,哈尔滨市,道里建国路,,50,39,38,35,33,26,,,,31,25,16,16,0.4,0.3
2026-01-05T0100,1138A,126.6127,45.6119,哈尔滨市,平房东轻厂,细颗粒物(PM2.5),62,56,46,44,42,5,,,,67,40,8,8,0.7,0.5
2026-01-05T0100,1139A,126.5875,45.9827,哈尔滨市,呼兰师专,细颗粒物(PM2.5),64,48,46,46,46,18,,,,40,29,8,9,0.8,0.7
2026-01-05T0100,1140A,126.6299,45.6799,哈尔滨市,省农科院,细颗粒物(PM2.5),64,71,68,46,47,9,,,,59,41,14,15,0.9,1.2
2026-01-05T0100,4282A,126.6769,45.7379,哈尔滨市,华山路1号,,39,39,41,27,27,24,,,,40,28,33,29,0.8,0.7
2026-01-05T0100,4283A,126.9717,45.5356,哈尔滨市,解放大街52号,细颗粒物(PM2.5),195,,87,146,69,26,,,,30,34,15,18,0.8,1
2026-01-05T0100,2688A,93.5124,42.8176,哈密市,地区监测站,细颗粒物(PM2.5),79,67,52,58,35,15,,,,37,17,3,4,0.8,0.3
2026-01-05T0100,2689A,93.5014,42.8312,哈密市,哈密师范学校,颗粒物(PM10),66,81,60,37,28,24,,,,37,28,7,9,1.0,0.5
2026-01-05T0100,2671A,100.9016,36.9464,海北藏族自治州,海晏县西海镇,细颗粒物(PM2.5),100,,58,75,48,46,,,,24,15,15,11,1.0,0.8
2026-01-05T0100,3867A,102.074,36.5056,海东市,平安区公安局北苑,细颗粒物(PM2.5),94,82,85,70,74,58,,,,18,19,22,19,0.9,1.1
2026-01-05T0100,4163A,102.0984,36.5119,海东市,滨河路,细颗粒物(PM2.5),90,73,81,67,76,56,,,,33,36,21,18,1.0,1.1
2026-01-05T0100,1410A,110.3189,20.0596,海口市,海南大学,,36,36,40,15,17,97,,,,5,7,6,6,0.2,0.3
2026-01-05T0100,1411A,110.2827,20.0051,海口市,秀英海南医院,,35,35,40,14,17,84,,,,7,8,7,7,0.3,0.3
2026-01-05T0100,1412A,110.3391,19.9979,海口市,海南师范大学,,33,33,41,15,18,89,,,,7,9,5,5,0.4,0.4
2026-01-05T0100,1413A,110.3303,20.0359,海口市,龙华路环保局宿舍,,,,39,,18,,,114,,,9,,,,0.5
2026-01-05T0100,3539A,110.5111,19.9737,海口市,桂林洋子站,,34,34,38,14,18,81,,,,7,8,/,/,/,/
2026-01-05T0100,4134A,110.1952,20.0451,海口市,长滨二路9号,,30,30,35,15,17,92,,,,5,5,/,/,/,/
2026-01-05T0100,2673A,100.6158,36.2985,海南藏族自治州,共和县恰卜恰镇,,33,33,39,16,26,22,,,,27,18,12,11,0.6,0.6
2026-01-05T0100,2676A,97.373,37.376,海西蒙古族藏族自治州,德令哈市,,22,15,20,15,10,64,,,,9,7,12,12,0.5,0.5
2026-01-05T0100,1049A,114.492,36.5712,邯郸市,矿院,细颗粒物(PM2.5),257,,180,207,195,25,,,,47,52,4,3,1.4,1.3
2026-01-05T0100,1050A,114.4839,36.6136,邯郸市,丛台公园,细颗粒物(PM2.5),257,228,204,207,190,21,,,,50,50,6,5,1.5,1.3
2026-01-05T0100,3458A,114.7893,36.5592,邯郸市,香泉濮院小区,细颗粒物(PM2.5),272,230,186,222,180,10,,,,67,46,8,6,1.5,1.3
2026-01-05T0100,3580A,114.1998,36.4439,邯郸市,峰峰矿区临水派出所,细颗粒物(PM2.5),304,,154,254,217,18,,,,56,49,11,12,1.8,1.7
2026-01-05T0100,4068A,114.5209,36.7697,邯郸市,建安街268号,细颗粒物(PM2.5),262,212,204,212,202,10,,,,64,62,9,9,1.7,1.5
2026-01-05T0100,4069A,114.5488,36.6177,邯郸市,丛台东路558号,细颗粒物(PM2.5),278,276,244,228,205,12,,,,62,58,7,7,1.5,1.3
2026-01-05T0100,2635A,107.0155,33.0707,汉中市,市监测站,细颗粒物(PM2.5),87,,58,64,55,26,,,,26,24,4,5,0.9,0.9
2026-01-05T0100,2636A,107.0083,33.114,汉中市,鑫源开发区,细颗粒物(PM2.5),100,84,62,75,61,1,,,,43,27,7,6,1.1,0.8
2026-01-05T0100,2637A,107.0072,33.0323,汉中市,南郑大河坎水厂,细颗粒物(PM2.5),84,85,71,62,58,24,,,,19,19,5,5,1.0,1
2026-01-05T0100,1223A,120.2073,30.2111,杭州市,滨江,细颗粒物(PM2.5),142,126,110,108,86,5,,,,59,62,6,6,0.7,0.8
2026-01-05T0100,1224A,120.0625,30.2737,杭州市,西溪,细颗粒物(PM2.5),127,121,103,96,78,1,,,,69,63,8,9,1.1,1
2026-01-05T0100,1226A,120.3417,30.315,杭州市,下沙,细颗粒物(PM2.5),138,135,120,105,95,8,,,,57,68,8,9,1.0,1.1
2026-01-05T0100,1227A,120.1252,30.2465,杭州市,卧龙桥,细颗粒物(PM2.5),119,125,108,90,84,2,,,,52,46,10,10,1.0,0.9
2026-01-05T0100,1228A,120.1902,30.2691,杭州市,浙江农大,细颗粒物(PM2.5),130,131,127,99,98,6,,,,62,67,4,4,0.7,0.8
2026-01-05T0100,1230A,120.1195,30.3121,杭州市,和睦小学,细颗粒物(PM2.5),135,138,125,103,90,4,,,,60,60,6,6,1.0,1
2026-01-05T0100,1231A,120.3076,30.4146,杭州市,临平镇,细颗粒物(PM2.5),139,128,132,106,96,10,,,,48,64,7,8,0.8,0.8
2026-01-05T0100,1232A,120.2753,30.1839,杭州市,城厢镇,细颗粒物(PM2.5),128,125,106,97,78,4,,,,64,62,9,8,0.7,0.7
2026-01-05T0100,1233A,120.0883,30.1808,杭州市,云栖,细颗粒物(PM2.5),120,116,96,91,79,0,,,,60,46,4,4,1.0,0.9
2026-01-05T0100,3557A,119.9463,30.0496,杭州市,镇二中,细颗粒物(PM2.5),114,90,88,86,84,0,,,,64,55,5,6,0.9,1.1
2026-01-05T0100,3558A,119.7184,30.2367,杭州市,市府大楼,细颗粒物(PM2.5),125,151,117,95,79,0,,,,65,40,10,10,1.1,1.1
2026-01-05T0100,3656A,120.1554,30.2863,杭州市,消防大队,细颗粒物(PM2.5),139,121,109,106,91,3,,,,61,61,6,7,0.4,0.4
2026-01-05T0100,1270A,117.1957,31.7845,合肥市,明珠广场,细颗粒物(PM2.5),104,97,90,78,73,29,,,,30,54,5,6,0.9,1
2026-01-05T0100,1271A,117.307,31.8765,合肥市,三里街,细颗粒物(PM2.5),89,88,76,66,60,37,,,,28,52,5,6,0.8,0.8
2026-01-05T0100,1272A,117.2587,31.8703,合肥市,琥珀山庄,细颗粒物(PM2.5),102,88,83,76,68,35,,,,26,47,8,9,1.0,1.1
2026-01-05T0100,1275A,117.2593,31.9376,合肥市,庐阳区,细颗粒物(PM2.5),85,85,88,63,62,34,,,,35,59,3,3,0.8,0.9
2026-01-05T0100,1276A,117.345251,31.861615,合肥市,瑶海区,细颗粒物(PM2.5),85,78,75,63,59,41,,,,27,54,4,5,0.9,0.9
2026-01-05T0100,1277A,117.3033,31.7967,合肥市,包河区,细颗粒物(PM2.5),98,85,84,73,70,36,,,,34,69,6,7,0.9,1
2026-01-05T0100,1278A,117.278,31.7392,合肥市,滨湖新区,细颗粒物(PM2.5),107,88,85,80,76,42,,,,29,47,4,4,0.9,1
2026-01-05T0100,1279A,117.1324,31.8395,合肥市,高新区,细颗粒物(PM2.5),98,85,81,73,65,28,,,,32,49,4,5,0.8,0.8
2026-01-05T0100,3464A,117.3802,31.9148,合肥市,高教基地,细颗粒物(PM2.5),97,80,71,72,64,37,,,,28,38,7,7,0.8,0.8
2026-01-05T0100,4098A,117.2518,31.8404,合肥市,中国科学技术大学,细颗粒物(PM2.5),87,83,80,64,62,32,,,,31,48,5,6,0.7,0.8
2026-01-05T0100,3614A,79.9241,37.0878,和田地区,地区环保局,,39,39,46,18,27,53,,,,11,13,2,2,0.9,0.8
2026-01-05T0100,3615A,79.9132,37.1137,和田地区,市环保局,颗粒物(PM10),51,52,41,23,21,56,,,,12,20,1,2,0.1,0.4
2026-01-05T0100,2517A,108.0496,24.6957,河池市,市环保站,,18,16,17,12,18,19,,,,11,12,2,2,0.8,0.8
2026-01-05T0100,4302A,108.0901,24.6945,河池市,上任中路54号,,16,16,20,8,16,16,,,,10,14,3,4,0.7,0.7
2026-01-05T0100,1697A,114.6962,23.7538,河源市,东埔,,39,39,38,27,27,9,,,,62,36,6,7,0.8,0.8
2026-01-05T0100,1698A,114.6895,23.7232,河源市,老城,,44,44,36,22,22,13,,,,48,25,6,7,0.8,0.8
2026-01-05T0100,3374A,115.5562,35.089,菏泽市,定陶老年大学,细颗粒物(PM2.5),211,183,113,161,98,14,,,,37,26,4,2,1.1,0.9
2026-01-05T0100,4114A,115.4239,35.2593,菏泽市,黄河路600号,细颗粒物(PM2.5),232,209,124,182,107,11,,,,44,28,2,3,1.5,1.1
2026-01-05T0100,4115A,115.5025,35.2727,菏泽市,菏泽市人社局,细颗粒物(PM2.5),214,191,120,164,101,14,,,,35,24,3,3,1.0,0.8
2026-01-05T0100,4184A,115.479691,35.244011,菏泽市,永昌路1号,细颗粒物(PM2.5),216,199,124,166,106,21,,,,35,26,5,6,0.9,0.7
2026-01-05T0100,4193A,115.471542,35.280012,菏泽市,长城路999号,细颗粒物(PM2.5),213,195,121,163,100,15,,,,38,25,5,4,1.4,1.2
2026-01-05T0100,2514A,111.5264,24.4178,贺州市,环保小区,细颗粒物(PM2.5),78,,61,57,48,31,,,,15,21,7,7,0.7,0.7
2026-01-05T0100,2515A,111.561,24.4074,贺州市,政协大楼,细颗粒物(PM2.5),83,,61,61,47,28,,,,12,24,9,10,0.8,0.7
2026-01-05T0100,3534A,111.4744,24.455,贺州市,西湾,细颗粒物(PM2.5),68,58,64,49,48,31,,,,14,22,6,8,0.9,0.8
2026-01-05T0100,2385A,114.17,35.9019,鹤壁市,市监测站,细颗粒物(PM2.5),263,224,187,213,171,14,,,,43,38,8,5,2.4,1.8
2026-01-05T0100,2386A,114.2953,35.7512,鹤壁市,市交警支队,细颗粒物(PM2.5),253,223,187,203,163,12,,,,47,48,2,5,2.1,1.7
2026-01-05T0100,2387A,114.2877,35.7302,鹤壁市,迎宾馆,细颗粒物(PM2.5),256,208,178,206,163,15,,,,34,38,6,7,2.4,1.8
2026-01-05T0100,3474A,114.2616,35.6824,鹤壁市,大新区,细颗粒物(PM2.5),236,187,162,186,176,18,,,,33,38,6,8,2.2,1.8
2026-01-05T0100,3596A,114.1573,35.9607,鹤壁市,南山宾馆,细颗粒物(PM2.5),265,237,196,215,175,15,,,,48,42,8,8,2.4,1.9
2026-01-05T0100,2244A,130.2537,47.3416,鹤岗市,哈啤分公司,,21,17,20,12,19,66,,,,3,5,5,6,0.2,0.3
2026-01-05T0100,2245A,130.2683,47.3087,鹤岗市,斯达机电,,,,24,,22,,,74,,,6,,5,,0.4
2026-01-05T0100,2246A,130.3114,47.3388,鹤岗市,东山纸板厂,,49,49,28,26,16,16,,,,53,9,9,7,1.2,0.6
2026-01-05T0100,2263A,127.4832,50.2524,黑河市,交通局,,25,,12,17,14,60,,,,1,6,4,4,0.3,0.3
2026-01-05T0100,2264A,127.5146,50.2339,黑河市,环保局,,19,,14,13,13,54,,,,6,9,5,6,0.3,0.3
2026-01-05T0100,1074A,115.6839,37.754,衡水市,电机北厂,细颗粒物(PM2.5),292,294,216,242,181,0,,,,74,57,8,6,1.7,1.2
2026-01-05T0100,1075A,115.6303,37.7318,衡水市,市监测站,细颗粒物(PM2.5),279,267,193,229,170,0,,,,82,55,10,7,1.8,1.2
2026-01-05T0100,3188A,115.6684,37.7216,衡水市,市城管局,细颗粒物(PM2.5),263,270,198,213,163,5,,,,74,56,12,9,1.7,1.3
2026-01-05T0100,3459A,115.599,37.5491,衡水市,地表水厂,细颗粒物(PM2.5),294,,167,244,173,4,,,,69,50,7,6,1.5,1
2026-01-05T0100,2457A,112.6209,26.9268,衡阳市,衡阳化工总厂,,39,39,45,26,47,22,,,,12,16,5,6,1.0,1.1
2026-01-05T0100,2458A,112.621,26.8957,衡阳市,珠晖区环保局,,46,,40,32,49,19,,,,15,21,3,4,0.9,1
2026-01-05T0100,2459A,112.628,26.8654,衡阳市,市委党校,,38,,41,26,47,24,,,,15,19,8,9,0.9,1
2026-01-05T0100,2460A,112.6007,26.8977,衡阳市,市监测站,,48,48,69,23,53,20,,,,14,17,5,6,0.8,0.9
2026-01-05T0100,2461A,112.5658,26.9013,衡阳市,真空机电公司,,28,20,62,19,53,25,,,,14,20,6,6,0.8,1
2026-01-05T0100,3399A,112.6703,26.8817,衡阳市,师范学院,,26,22,51,18,43,24,,,,15,21,2,3,0.8,0.9
2026-01-05T0100,3038A,103.3757,23.3679,红河哈尼族彝族自治州,州图书馆,,16,10,9,3,6,50,,,,5,6,6,6,0.5,0.5
2026-01-05T0100,4154A,103.401,23.3561,红河哈尼族彝族自治州,蒙自市朝阳路,,20,14,12,14,8,37,,,,5,4,9,8,0.4,0.4
2026-01-05T0100,1090A,111.6506,40.7517,呼和浩特市,呼市一监,,24,24,85,9,61,55,,,,14,36,5,7,0.3,1
2026-01-05T0100,1094A,111.7516,40.8369,呼和浩特市,如意水处理厂,,19,17,64,8,39,58,,,,11,37,10,12,0.3,0.9
2026-01-05T0100,1095A,111.727798,40.806187,呼和浩特市,二十九中,,18,18,83,8,48,53,,,,13,41,10,14,0.3,0.9
2026-01-05T0100,1097A,111.717,40.7617,呼和浩特市,化肥厂生活区,,25,25,99,12,63,43,,,,23,50,7,10,0.4,1.2
2026-01-05T0100,3699A,111.6519,40.8389,呼和浩特市,海东办,,17,17,73,8,45,54,,,,13,37,7,8,0.2,0.9
2026-01-05T0100,4275A,111.591512,40.827312,呼和浩特市,成吉思汗西街8号,,22,22,60,7,25,51,,,,10,22,8,6,0.4,0.6
2026-01-05T0100,4276A,111.6597,40.8077,呼和浩特市,公园东路75号,,27,27,83,8,48,46,,,,20,44,8,9,0.2,0.9
2026-01-05T0100,4277A,111.5427,40.7846,呼和浩特市,金海路35号,,19,19,105,7,66,53,,,,15,42,9,13,0,0.8
2026-01-05T0100,3061A,119.7511,49.1576,呼伦贝尔市,国华电力东,,49,35,24,34,20,50,,,,28,22,5,7,0.4,0.4
2026-01-05T0100,4279A,119.7569,49.2222,呼伦贝尔市,伊敏大街东7号,,23,16,21,16,18,60,,,,12,16,6,8,0.5,0.5
2026-01-05T0100,1250A,120.075,30.867,湖州市,城西水厂,细颗粒物(PM2.5),90,109,125,67,93,41,,,,30,65,9,11,0.6,0.7
2026-01-05T0100,2873A,120.083,30.8929,湖州市,仁皇山新区,细颗粒物(PM2.5),128,115,126,97,101,36,,,,46,81,10,12,0.7,0.7
2026-01-05T0100,2907A,120.1846,30.8592,湖州市,吴兴区站,细颗粒物(PM2.5),127,115,122,96,102,23,,,,43,68,7,8,0.9,0.8
2026-01-05T0100,3562A,120.4146,30.8538,湖州市,南浔区站,细颗粒物(PM2.5),120,120,118,91,93,29,,,,38,72,6,7,0.8,0.9
2026-01-05T0100,1607A,120.904878,40.721091,葫芦岛市,龙港区,细颗粒物(PM2.5),60,67,94,43,63,5,,,,60,46,19,37,1.4,1.6
2026-01-05T0100,1608A,120.8382,40.7521,葫芦岛市,化工街,颗粒物(PM10),62,73,92,41,56,6,,,,62,46,21,39,1.0,1.1
2026-01-05T0100,1609A,120.8339,40.7078,葫芦岛市,新区,颗粒物(PM10),60,69,66,38,42,4,,,,72,52,15,19,1.0,1.2
2026-01-05T0100,1610A,120.8697,40.7679,葫芦岛市,东城区,颗粒物(PM10),59,68,77,31,54,9,,,,66,49,18,44,1.1,1.3
2026-01-05T0100,2483A,109.9297,27.5383,怀化市,河西地税局,细颗粒物(PM2.5),57,58,29,40,24,2,,,,16,15,3,3,/,/
2026-01-05T0100,2484A,109.9783,27.5342,怀化市,市四医院,细颗粒物(PM2.5),64,59,35,46,28,0,,,,22,20,9,9,0.9,0.8
2026-01-05T0100,2485A,109.9971,27.5579,怀化市,监测楼,细颗粒物(PM2.5),63,57,31,45,25,0,,,,21,20,2,2,0.5,0.3
2026-01-05T0100,1210A,119.0566,33.5991,淮安市,钵池山,细颗粒物(PM2.5),84,73,75,62,57,40,,,,38,51,9,10,0.5,0.6
2026-01-05T0100,1211A,119.0083,33.578,淮安市,北京南路,细颗粒物(PM2.5),78,66,82,57,61,16,,,,49,57,8,10,0.8,1.1
2026-01-05T0100,1212A,118.9938,33.6083,淮安市,市监测站,细颗粒物(PM2.5),70,61,75,51,60,20,,,,50,55,10,12,0.8,1
2026-01-05T0100,1213A,119.135,33.5038,淮安市,楚州区监测站,细颗粒物(PM2.5),65,51,82,47,67,23,,,,43,59,9,11,0.7,0.8
2026-01-05T0100,3426A,118.8757,33.2897,淮安市,新华书店,细颗粒物(PM2.5),54,42,79,38,70,58,,,,14,45,8,10,0.7,1
2026-01-05T0100,4092A,119.119691,33.550006,淮安市,枚皋中路89号,细颗粒物(PM2.5),87,78,91,64,74,20,,,,53,57,9,10,0.7,0.8
2026-01-05T0100,4206A,119.028838,33.631911,淮安市,承德北路606号,细颗粒物(PM2.5),89,88,95,66,57,14,,,,64,59,22,12,0.9,1
2026-01-05T0100,2282A,116.8005,33.9749,淮北市,监测站,细颗粒物(PM2.5),107,113,108,80,75,24,,,,37,43,8,10,0.6,0.7
2026-01-05T0100,2283A,116.8094,33.9008,淮北市,烈山区政府,细颗粒物(PM2.5),84,80,101,62,80,38,,,,22,38,9,12,0.4,0.6
2026-01-05T0100,4017A,116.7926,33.9534,淮北市,市博物馆,细颗粒物(PM2.5),102,118,111,76,73,15,,,,41,42,9,12,0.6,0.5
2026-01-05T0100,4100A,116.8322,33.9884,淮北市,杜集区第一实验学校,细颗粒物(PM2.5),110,99,106,83,81,30,,,,21,32,7,9,0.6,0.7
2026-01-05T0100,2277A,116.8304,32.7726,淮南市,潘集区政府,细颗粒物(PM2.5),98,85,79,73,66,27,,,,37,35,6,7,0.7,0.7
2026-01-05T0100,2279A,116.8569,32.5949,淮南市,谢家集区政府,细颗粒物(PM2.5),58,62,74,41,51,53,,,,22,36,8,9,0.4,0.5
2026-01-05T0100,2280A,116.8279,32.6333,淮南市,八公山区政府,细颗粒物(PM2.5),73,56,78,53,66,52,,,,16,24,4,5,0.5,0.6
2026-01-05T0100,2894A,117.0561,32.6536,淮南市,经济技术开发区消防队,细颗粒物(PM2.5),95,95,81,71,57,32,,,,30,37,7,6,0.6,0.7
2026-01-05T0100,3329A,117.011,32.5891,淮南市,山南新区,细颗粒物(PM2.5),75,83,76,55,53,24,,,,31,30,2,3,0.6,0.7
2026-01-05T0100,4209A,117.003137,32.644456,淮南市,国庆中路369号,细颗粒物(PM2.5),88,78,72,65,58,19,,,,35,33,5,7,0.6,0.7
2026-01-05T0100,2446A,114.9021,30.474,黄冈市,职工中心,细颗粒物(PM2.5),54,55,50,38,36,30,,,,16,16,13,6,1.5,0.9
2026-01-05T0100,2929A,114.8858,30.4519,黄冈市,红卫路,细颗粒物(PM2.5),54,46,46,38,38,21,,,,22,21,9,6,0.8,0.7
2026-01-05T0100,3398A,114.9134,30.4446,黄冈市,市林业局,细颗粒物(PM2.5),54,46,46,38,40,27,,,,21,19,8,5,1.5,0.9
2026-01-05T0100,2672A,102.02,35.5101,黄南藏族自治州,同仁县隆务镇,"颗粒物(PM10),细颗粒物(PM2.5)",52,53,50,36,40,45,,,,5,6,9,10,0.5,0.5
2026-01-05T0100,2295A,118.2905,29.6965,黄山市,延安路89号,,40,,41,28,36,26,,,,10,18,3,3,0.5,0.6
2026-01-05T0100,2297A,118.1369,30.2755,黄山市,黄山区政府5号楼,细颗粒物(PM2.5),68,,36,49,32,37,,,,15,15,6,6,1.0,0.6
2026-01-05T0100,4210A,118.335445,29.720283,黄山市,滨江东路7-2号,细颗粒物(PM2.5),54,,56,38,52,32,,,,12,22,/,/,/,/
2026-01-05T0100,2423A,115.0547,30.2332,黄石市,沈家营,,49,49,50,33,32,25,,,,11,15,5,5,1.2,1.2
2026-01-05T0100,2426A,114.899,30.211,黄石市,铁山,细颗粒物(PM2.5),74,,48,54,49,12,,,,23,15,5,5,0.8,0.7
2026-01-05T0100,2427A,115.0259,30.2108,黄石市,团城山,细颗粒物(PM2.5),57,50,52,40,40,30,,,,11,17,7,6,0.8,0.8
2026-01-05T0100,3149A,115.0174,30.1591,黄石市,笔架山北路,颗粒物(PM10),56,61,61,37,38,25,,,,15,18,7,7,1.1,1.1
2026-01-05T0100,4185A,115.078022,30.21118,黄石市,磁湖东路29号,细颗粒物(PM2.5),57,57,51,40,44,24,,,,13,17,5,6,0.9,0.9
2026-01-05T0100,1392A,114.4181,23.0528,惠州市,河南岸金山湖子站,颗粒物(PM10),60,69,59,40,35,23,,,,42,34,5,5,0.7,0.7
2026-01-05T0100,1393A,114.4055,23.0824,惠州市,下埔横江三路子站,细颗粒物(PM2.5),78,103,64,57,37,3,,,,68,39,9,8,1.1,0.8
2026-01-05T0100,1395A,114.4645,22.7832,惠州市,惠阳区承修路船湖子站,颗粒物(PM10),85,119,72,55,37,3,,,,81,42,7,8,0.9,0.7
2026-01-05T0100,1396A,114.5316,22.7423,惠州市,大亚湾管委会子站,颗粒物(PM10),51,52,55,28,29,18,,,,62,41,5,6,0.4,0.4
2026-01-05T0100,3314A,114.4334,22.8134,惠州市,惠阳秋长,颗粒物(PM10),63,75,66,42,35,19,,,,68,41,/,/,/,/
2026-01-05T0100,3452A,114.6521,22.7755,惠州市,大亚湾霞涌,,40,40,49,21,26,54,,,,28,19,/,/,/,/
2026-01-05T0100,4300A,114.4089,23.1147,惠州市,文华一路1号,"颗粒物(PM10),细颗粒物(PM2.5)",72,94,62,52,37,0,,,,78,46,/,/,/,/
2026-01-05T0100,2240A,130.9618,45.2926,鸡西市,环保局,,23,23,31,14,17,58,,,,5,7,5,5,0.3,0.3
2026-01-05T0100,2243A,130.9294,45.2959,鸡西市,第一中学,,19,16,26,10,18,60,,,,7,7,3,3,0.4,0.4
2026-01-05T0100,3707A,131.0069,45.2988,鸡西市,欧美日汽修厂,,26,26,41,17,22,61,,,,7,10,6,5,0.4,0.5
2026-01-05T0100,2367A,114.9753,27.0803,吉安市,红声器材厂,,49,48,57,34,39,24,,,,24,27,8,12,1.1,0.8
2026-01-05T0100,2369A,114.9903,27.1313,吉安市,市环境监测站,细颗粒物(PM2.5),54,45,55,38,40,24,,,,17,21,12,16,/,/
2026-01-05T0100,2370A,115.009527,27.096792,吉安市,青原区法院,,50,43,50,35,41,28,,,,16,21,8,13,0.9,0.7
2026-01-05T0100,1772A,126.54,43.8622,吉林市,哈达湾,细颗粒物(PM2.5),72,69,76,52,58,56,,,,23,31,7,10,1.1,1.4
2026-01-05T0100,1773A,126.5843,43.8358,吉林市,东局子,细颗粒物(PM2.5),72,67,76,52,58,49,,,,18,31,4,6,1.2,1.5
2026-01-05T0100,1774A,126.5051,43.8243,吉林市,电力学院,细颗粒物(PM2.5),69,60,102,50,86,46,,,,25,40,11,14,0.8,1.4
2026-01-05T0100,1775A,126.6133,43.8971,吉林市,江北,细颗粒物(PM2.5),80,70,88,59,71,49,,,,19,32,7,8,1.1,1.5
2026-01-05T0100,1776A,126.5549,43.8304,吉林市,江南公园,细颗粒物(PM2.5),78,63,76,57,66,48,,,,20,33,7,9,1.0,1.4
2026-01-05T0100,2868A,126.4737,43.953,吉林市,九站,细颗粒物(PM2.5),88,81,80,65,66,36,,,,31,39,5,9,1.1,1.2
2026-01-05T0100,1299A,116.9866,36.6118,济南市,科干所,细颗粒物(PM2.5),170,178,116,129,80,21,,,,61,44,10,10,1.4,1.1
2026-01-05T0100,1300A,116.9379,36.6652,济南市,农科所,细颗粒物(PM2.5),206,205,131,156,98,3,,,,76,53,7,9,1.4,1.1
2026-01-05T0100,1301A,117.1265,36.6736,济南市,开发区,细颗粒物(PM2.5),223,203,133,173,106,12,,,,58,46,12,7,1.3,1.1
2026-01-05T0100,1303A,117.0616,36.6865,济南市,省种子仓库,细颗粒物(PM2.5),218,212,156,168,109,9,,,,67,61,12,11,1.4,1.1
2026-01-05T0100,1304A,116.9495185,36.644937,济南市,机床二厂,细颗粒物(PM2.5),216,200,135,166,105,3,,,,81,55,10,16,1.3,1.2
2026-01-05T0100,1305A,117.0496,36.6629,济南市,市监测站,细颗粒物(PM2.5),211,198,130,161,98,5,,,,64,47,7,7,1.2,1
2026-01-05T0100,1306A,116.7674,36.5458,济南市,长清党校,细颗粒物(PM2.5),199,203,124,149,95,1,,,,76,41,16,10,1.3,0.9
2026-01-05T0100,1961A,117.5323,36.6865,济南市,东山小学,细颗粒物(PM2.5),196,208,157,147,115,7,,,,79,56,8,9,1.5,1.3
2026-01-05T0100,3059A,117.7181,36.205,济南市,泰兴公司,细颗粒物(PM2.5),233,207,162,183,135,6,,,,76,58,8,10,1.4,1.3
2026-01-05T0100,3064A,117.6861,36.2172,济南市,莱芜战役纪念馆,细颗粒物(PM2.5),225,197,159,175,134,18,,,,60,56,13,13,1.1,1.2
2026-01-05T0100,3494A,117.1673,36.9782,济南市,济阳区政府,细颗粒物(PM2.5),236,232,175,186,134,10,,,,61,56,8,13,1.2,1.1
2026-01-05T0100,3495A,117.1168,36.6299,济南市,锦屏中学,细颗粒物(PM2.5),170,156,108,129,82,18,,,,47,37,4,6,1.1,0.8
2026-01-05T0100,4108A,117.7107,36.2385,济南市,山财大街5号,细颗粒物(PM2.5),207,227,170,157,114,25,,,,51,50,12,11,1.0,1.2
2026-01-05T0100,4109A,116.9744,36.6889,济南市,无影山路12号,细颗粒物(PM2.5),223,215,155,173,116,3,,,,76,61,13,14,1.3,1.2
2026-01-05T0100,1653A,116.6229,35.4288,济宁市,火炬城,细颗粒物(PM2.5),218,179,119,168,120,4,,,,54,37,6,7,1.1,0.8
2026-01-05T0100,3500A,116.5808,35.3703,济宁市,北湖一中,细颗粒物(PM2.5),202,157,116,152,116,0,,,,56,41,5,6,1.0,0.8
2026-01-05T0100,3501A,116.8251,35.5592,济宁市,服务中心,细颗粒物(PM2.5),185,197,149,139,106,1,,,,60,51,12,12,1.0,0.8
2026-01-05T0100,3678A,116.5907,35.4054,济宁市,市第七中学,细颗粒物(PM2.5),185,170,124,139,105,6,,,,58,42,8,9,1.1,0.9
2026-01-05T0100,4111A,116.6075,35.4566,济宁市,任和路,细颗粒物(PM2.5),208,200,146,158,112,1,,,,58,42,6,8,1.2,0.9
2026-01-05T0100,4112A,116.5648,35.3921,济宁市,文体南路1号,细颗粒物(PM2.5),215,182,141,165,114,1,,,,58,41,4,5,1.0,0.8
2026-01-05T0100,2255A,130.2749,46.8028,佳木斯市,佳纺,,18,18,30,12,25,55,,,,11,17,6,9,0.2,0.3
2026-01-05T0100,2257A,130.3258,46.7975,佳木斯市,环保局,,26,20,29,18,24,57,,,,13,16,11,9,0.8,0.8
2026-01-05T0100,4285A,130.363,46.806,佳木斯市,顺和街,,21,21,30,13,20,52,,,,14,19,9,10,0.6,0.7
2026-01-05T0100,4286A,130.3952,46.8268,佳木斯市,长安路196号,,26,23,24,18,22,62,,,,6,8,5,5,0.3,0.4
2026-01-05T0100,1252A,120.7439,30.778,嘉兴市,清河小学,细颗粒物(PM2.5),117,107,113,88,85,4,,,,80,73,6,7,0.7,0.7
2026-01-05T0100,1253A,120.7261,30.7477,嘉兴市,嘉兴学院,细颗粒物(PM2.5),109,114,111,82,80,1,,,,74,65,7,8,1.0,1
2026-01-05T0100,2872A,120.7845,30.7524,嘉兴市,南湖区残联,细颗粒物(PM2.5),114,106,109,86,83,6,,,,72,67,4,5,0.9,0.9
2026-01-05T0100,3407A,120.6915,30.7741,嘉兴市,秀洲住建,细颗粒物(PM2.5),123,110,114,93,90,3,,,,75,71,7,8,0.8,0.8
2026-01-05T0100,1945A,98.291,39.7705,嘉峪关市,气象局,,44,44,39,22,22,38,,,,34,17,12,22,0.6,0.5
2026-01-05T0100,2884A,98.2672,39.7978,嘉峪关市,酒钢宾馆,,41,41,52,24,28,57,,,,12,17,16,33,0.5,0.8
2026-01-05T0100,3248A,98.2644,39.7723,嘉峪关市,雄关区,细颗粒物(PM2.5),65,69,46,47,30,35,,,,36,28,9,23,0.6,0.6
2026-01-05T0100,1383A,113.1063,22.6058,江门市,北街,细颗粒物(PM2.5),84,99,78,62,48,4,,,,98,66,/,/,/,/
2026-01-05T0100,1384A,113.073,22.5835,江门市,西区,颗粒物(PM10),77,103,95,55,52,5,,,,89,72,/,/,/,/
2026-01-05T0100,1385A,113.0218,22.531,江门市,圭峰西,细颗粒物(PM2.5),63,73,66,45,43,48,,,,44,42,/,/,/,/
2026-01-05T0100,1386A,113.0826,22.5947,江门市,东湖,细颗粒物(PM2.5),85,97,82,63,48,2,,,,96,69,7,8,1.0,0.8
2026-01-05T0100,3311A,113.1077,22.5647,江门市,江海富民,颗粒物(PM10),81,112,98,53,42,2,,,,120,73,/,/,1.1,0.7
2026-01-05T0100,3449A,113.0496,22.4669,江门市,新会银湖,细颗粒物(PM2.5),99,79,75,74,56,14,,,,46,46,6,8,0.8,0.7
2026-01-05T0100,3335A,113.3137,35.2643,焦作市,马村街道办,细颗粒物(PM2.5),159,133,115,121,111,16,,,,32,29,7,7,1.5,1.2
2026-01-05T0100,3336A,113.2464,35.2374,焦作市,焦作技师学院,细颗粒物(PM2.5),160,145,126,122,104,15,,,,38,31,8,9,1.4,1.2
2026-01-05T0100,3477A,113.1656,35.2536,焦作市,中站许衡医院,细颗粒物(PM2.5),166,137,113,126,101,16,,,,36,31,11,8,1.7,1.2
2026-01-05T0100,3981A,113.2456,35.18,焦作市,原李万街道办,细颗粒物(PM2.5),160,,108,122,95,2,,,,40,23,4,4,1.3,1
2026-01-05T0100,4264A,113.234,35.219,焦作市,新安路1731号,细颗粒物(PM2.5),169,148,118,128,104,12,,,,28,20,,6,1.3,1
2026-01-05T0100,4295A,113.2722,35.2121,焦作市,人民路3066号,细颗粒物(PM2.5),137,140,124,104,86,7,,,,39,23,5,5,1.1,1
2026-01-05T0100,1708A,116.3701,23.5345,揭阳市,新兴,细颗粒物(PM2.5),88,73,64,65,43,50,,,,41,35,11,11,0.7,0.7
2026-01-05T0100,1709A,116.3261,23.5442,揭阳市,西马,细颗粒物(PM2.5),78,89,68,57,39,39,,,,39,28,14,7,0.9,0.8
2026-01-05T0100,1710A,116.361,23.5627,揭阳市,东兴,细颗粒物(PM2.5),62,67,64,44,36,45,,,,35,32,13,10,/,/
2026-01-05T0100,1711A,116.4151,23.5295,揭阳市,渔湖,颗粒物(PM10),61,72,63,28,32,47,,,,38,35,5,5,/,/
2026-01-05T0100,3320A,116.4028,23.5699,揭阳市,曲溪,颗粒物(PM10),62,73,67,39,36,29,,,,51,32,9,5,0.7,0.6
2026-01-05T0100,1944A,102.1691,38.5166,金昌市,天庆家园,,48,39,39,33,25,62,,,,12,15,1,2,0.8,0.7
2026-01-05T0100,4022A,102.1648,38.5369,金昌市,金川区人防中心,,49,,37,34,25,66,,,,9,12,3,5,0.6,0.6
2026-01-05T0100,4239A,102.193042,38.531887,金昌市,长春路96号,,29,29,38,18,23,70,,,,7,16,4,6,0.6,0.9
2026-01-05T0100,1262A,119.6478,29.0773,金华市,十五中,细颗粒物(PM2.5),122,120,110,92,77,5,,,,52,62,4,5,0.8,0.9
2026-01-05T0100,1263A,119.6859,29.1032,金华市,监测站,细颗粒物(PM2.5),115,120,116,87,82,0,,,,69,82,2,4,0.9,0.9
2026-01-05T0100,3659A,119.656,29.1132,金华市,气象局,细颗粒物(PM2.5),84,105,111,62,74,3,,,,57,66,3,4,0.8,0.8
2026-01-05T0100,1767A,121.1114,41.0879,锦州市,南山,颗粒物(PM10),52,54,76,31,64,30,,,,28,40,13,15,1.1,1.4
2026-01-05T0100,1768A,121.060361,40.842794,锦州市,开发区,细颗粒物(PM2.5),62,69,90,44,64,29,,,,35,44,42,44,1.0,1.2
2026-01-05T0100,1769A,121.1836,41.1118,锦州市,百股街道,,46,46,79,27,64,30,,,,39,42,11,18,1.1,1.4
2026-01-05T0100,1770A,121.1176,41.1224,锦州市,天安街道,,24,20,64,3,47,75,,,,9,34,7,16,0.5,1.3
2026-01-05T0100,1771A,121.1303,41.1385,锦州市,北湖公园,,21,10,67,3,50,66,,,,6,30,7,16,0.5,1.2
2026-01-05T0100,2160A,112.8496,35.5051,晋城市,自来水公司,细颗粒物(PM2.5),117,,102,88,89,39,,,,24,25,6,5,1.2,1.4
2026-01-05T0100,2162A,112.8509,35.4886,晋城市,市环保局,细颗粒物(PM2.5),113,129,109,85,79,41,,,,25,23,6,5,1.3,1.4
2026-01-05T0100,3620A,112.8258,35.4804,晋城市,泽州一中,细颗粒物(PM2.5),113,97,90,85,83,46,,,,22,21,4,4,0.8,0.9
2026-01-05T0100,4078A,112.8246,35.5152,晋城市,前书院路,细颗粒物(PM2.5),98,126,112,73,69,35,,,,26,23,5,5,1.1,1.2
2026-01-05T0100,4079A,112.8864,35.4773,晋城市,祥云街666号,细颗粒物(PM2.5),125,104,98,95,89,42,,,,24,22,6,6,0.9,1.1
2026-01-05T0100,2174A,112.6992,37.6984,晋中市,榆次区政府,细颗粒物(PM2.5),192,166,193,144,151,2,,,,53,60,10,23,1.4,1.9
2026-01-05T0100,2865A,112.7195,37.683,晋中市,榆次三中,细颗粒物(PM2.5),160,166,187,122,128,0,,,,47,57,8,24,1.6,1.9
2026-01-05T0100,4080A,112.7375,37.7215,晋中市,广安街188号,细颗粒物(PM2.5),202,194,219,152,154,2,,,,57,65,8,14,1.7,1.7
2026-01-05T0100,4200A,112.7478,37.6954,晋中市,迎宾街26号,细颗粒物(PM2.5),170,168,181,129,134,1,,,,50,59,9,24,1.7,1.8
2026-01-05T0100,2439A,112.2012,31.048,荆门市,竹园小学,细颗粒物(PM2.5),114,103,106,86,89,18,,,,29,29,2,2,0.6,0.6
2026-01-05T0100,2440A,112.1968,30.9892,荆门市,掇刀,细颗粒物(PM2.5),109,88,95,82,81,29,,,,16,22,4,2,0.7,0.6
2026-01-05T0100,3012A,112.1849,31.0361,荆门市,西山林语,细颗粒物(PM2.5),102,104,90,76,76,29,,,,20,25,4,4,0.8,0.9
2026-01-05T0100,3547A,112.1631,31.0134,荆门市,龙泉中学南校,细颗粒物(PM2.5),100,103,98,75,83,33,,,,8,12,6,6,0.5,0.4
2026-01-05T0100,4124A,112.2213,31.0654,荆门市,新台西路6号,细颗粒物(PM2.5),114,90,100,86,94,20,,,,25,25,7,7,0.8,0.8
2026-01-05T0100,1844A,112.2493,30.3198,荆州市,市图书馆,细颗粒物(PM2.5),102,,60,76,77,,,,,32,21,6,8,1.0,0.9
2026-01-05T0100,1845A,112.2009,30.3543,荆州市,市委党校,细颗粒物(PM2.5),115,,75,87,78,,,,,34,23,3,5,1.2,1
2026-01-05T0100,3194A,112.2749,30.3124,荆州市,管委会,细颗粒物(PM2.5),105,,63,79,76,,,,,39,31,5,7,1.1,0.8
2026-01-05T0100,4268A,112.1722,30.3366,荆州市,学苑路85号,,,73,69,73,71,,,,,23,21,6,6,0.9,0.8
2026-01-05T0100,2343A,117.2114,29.2931,景德镇市,老干部活动中心,细颗粒物(PM2.5),74,,34,54,31,26,,,,13,17,8,8,0.7,0.5
2026-01-05T0100,2344A,117.1893,29.2789,景德镇市,兽医站,颗粒物(PM10),52,54,35,29,25,26,,,,16,20,8,8,1.1,0.9
2026-01-05T0100,2346A,117.246,29.2958,景德镇市,陶研所,细颗粒物(PM2.5),69,,34,50,34,27,,,,14,17,4,4,0.6,0.5
2026-01-05T0100,4289A,117.154766,29.256967,景德镇市,青少年活动中心,细颗粒物(PM2.5),57,43,37,40,31,20,,,,26,27,35,12,/,/
2026-01-05T0100,1803A,115.9873,29.6816,九江市,十里,细颗粒物(PM2.5),64,,58,46,53,35,,,,24,35,3,5,1.0,0.9
2026-01-05T0100,1804A,115.9583,29.7047,九江市,茅山头,,49,42,61,34,50,29,,,,18,25,4,5,1.0,0.9
2026-01-05T0100,1805A,115.9877,29.7295,九江市,西园,细颗粒物(PM2.5),54,48,58,38,42,28,,,,31,34,2,3,1.0,0.8
2026-01-05T0100,1808A,115.9112,29.6038,九江市,综合工业园,细颗粒物(PM2.5),57,61,65,40,60,32,,,,30,44,2,3,0.8,0.8
2026-01-05T0100,3190A,116.0254,29.6995,九江市,外国语学校,细颗粒物(PM2.5),52,47,57,36,47,31,,,,21,31,7,7,0.9,0.8
2026-01-05T0100,4253A,116.010205,29.659402,九江市,莲花大道8号,颗粒物(PM10),53,56,62,35,57,31,,,,13,24,2,3,0.6,0.6
2026-01-05T0100,4240A,98.495752,39.733935,酒泉市,玉门东路5号,细颗粒物(PM2.5),55,53,49,39,28,49,,,,12,14,8,15,0.5,0.6
2026-01-05T0100,4241A,98.5099,39.7506,酒泉市,北大街108号,细颗粒物(PM2.5),59,58,48,42,26,29,,,,30,22,7,14,0.8,0.6
2026-01-05T0100,2698A,76.0071,39.466,喀什地区,巡警大队,细颗粒物(PM2.5),63,52,55,45,40,42,,,,19,16,3,3,1.1,0.7
2026-01-05T0100,2699A,75.9756,39.4693,喀什地区,吾办,细颗粒物(PM2.5),60,59,56,43,45,48,,,,9,13,5,4,0.9,0.8
2026-01-05T0100,4027A,75.9485,39.4688,喀什地区,老干局,细颗粒物(PM2.5),55,55,60,39,40,51,,,,10,13,2,2,1.1,0.9
2026-01-05T0100,1824A,114.3389,34.778,开封市,肿瘤医院,细颗粒物(PM2.5),210,173,107,160,99,28,,,,30,27,5,5,2.3,1.5
2026-01-05T0100,1826A,114.2884,34.7966,开封市,世纪星幼儿园,细颗粒物(PM2.5),228,,102,178,116,28,,,,31,30,3,2,1.6,0.9
2026-01-05T0100,3147A,114.3434,34.8101,开封市,龙亭公园,细颗粒物(PM2.5),258,,107,208,120,24,,,,32,27,4,3,2.5,1.7
2026-01-05T0100,3210A,114.3645,34.7955,开封市,汴京公园,细颗粒物(PM2.5),214,202,119,164,102,22,,,,36,30,4,4,1.8,1
2026-01-05T0100,3473A,114.2485,34.8306,开封市,技师学院,细颗粒物(PM2.5),224,,104,174,113,7,,,,45,31,7,6,2.0,1.3
2026-01-05T0100,3592A,114.4518,34.7503,开封市,祥符区生态环境局,细颗粒物(PM2.5),220,238,118,170,93,25,,,,33,27,8,4,1.8,0.9
2026-01-05T0100,1951A,84.886,45.6029,克拉玛依市,长征新村,细颗粒物(PM2.5),82,79,91,60,65,33,,,,35,35,4,4,1.0,1
2026-01-05T0100,1952A,84.8894,45.5827,克拉玛依市,南林小区,细颗粒物(PM2.5),75,88,90,55,51,19,,,,34,28,3,3,1.1,1.1
2026-01-05T0100,1954A,84.896,44.3328,克拉玛依市,独山子区,细颗粒物(PM2.5),118,124,114,89,68,28,,,,51,45,4,5,1.0,1
2026-01-05T0100,1955A,85.6888,46.0909,克拉玛依市,乌尔禾区商贸楼,细颗粒物(PM2.5),94,102,85,70,63,5,,,,54,35,5,5,1.5,1.2
2026-01-05T0100,3612A,85.1045,45.6895,克拉玛依市,白碱滩区新站,细颗粒物(PM2.5),98,119,122,73,67,11,,,,27,23,6,7,0.8,0.7
2026-01-05T0100,2697A,76.1457,39.7143,克孜勒苏柯尔克孜自治州,市人民政府,颗粒物(PM10),54,57,59,31,38,50,,,,10,12,5,5,0.3,0.4
2026-01-05T0100,3665A,76.1654,39.7157,克孜勒苏柯尔克孜自治州,克州文化中心,细颗粒物(PM2.5),54,44,48,38,38,48,,,,11,9,3,3,0.5,0.6
2026-01-05T0100,1450A,102.8203,24.889,昆明市,呈贡新区,,23,22,22,16,13,62,,,,10,14,5,3,0.2,0.3
2026-01-05T0100,1452A,102.7253,25.0904,昆明市,龙泉镇,颗粒物(PM10),58,66,25,15,12,1,,,,53,21,3,4,0.6,0.5
2026-01-05T0100,1453A,102.7267,25.0378,昆明市,东风东路,,26,24,20,18,15,41,,,,28,17,4,5,0.5,0.5
2026-01-05T0100,1454A,102.6744,25.0671,昆明市,金鼎山,,30,26,31,21,16,58,,,,7,17,4,4,0.4,0.5
2026-01-05T0100,1455A,102.6643,25.0401,昆明市,碧鸡广场,,32,32,24,20,17,52,,,,14,19,4,4,0.5,0.6
2026-01-05T0100,3179A,102.7491,25.012,昆明市,官渡区博物馆,,,,16,,12,,,79,,,13,,3,,0.3
2026-01-05T0100,3375A,102.8016,24.8336,昆明市,青年创业园,,20,19,17,14,12,61,,,,6,6,8,4,0.3,0.3
2026-01-05T0100,3550A,102.8,24.9787,昆明市,昆明学院,,26,26,16,18,11,59,,,,10,8,4,3,0.6,0.5
2026-01-05T0100,3551A,102.5969,24.6738,昆明市,晋宁区生态环境分局,,45,45,23,19,16,40,,,,15,13,3,2,0.5,0.5
2026-01-05T0100,3552A,102.6673,24.9861,昆明市,云天化总部,,23,16,18,10,11,72,,,,6,11,6,5,0.4,0.4
2026-01-05T0100,1456A,91.132,29.6515,拉萨市,八廓街,,25,20,18,10,10,80,,,,4,8,7,7,0.5,0.5
2026-01-05T0100,1457A,91.1221,29.6748,拉萨市,市环保局,,39,39,21,24,15,57,,,,19,16,8,8,0.7,0.6
2026-01-05T0100,1458A,91.0874,29.6476,拉萨市,区监测站,,22,18,13,13,8,69,,,,17,16,4,4,0.8,0.9
2026-01-05T0100,1459A,91.1774,29.6541,拉萨市,西藏大学,,23,22,15,8,7,72,,,,14,11,6,5,0.4,0.3
2026-01-05T0100,1460A,90.9798,29.6586,拉萨市,区辐射站,,26,24,26,18,14,59,,,,19,22,4,4,0.6,0.7
2026-01-05T0100,1461A,91.0831,29.6292,拉萨市,拉萨火车站,,26,22,16,18,9,61,,,,21,19,5,4,0.7,0.5
2026-01-05T0100,2520A,109.2203,23.7252,来宾市,来宾技工学校,,10,,71,3,65,29,,,,5,19,4,9,0.4,0.6
2026-01-05T0100,3535A,109.1781,23.7293,来宾市,兴宾区政府,,11,11,80,7,67,34,,,,4,17,4,8,0.5,0.8
2026-01-05T0100,4002A,109.2312,23.7428,来宾市,中南小学,,15,15,70,3,64,31,,,,6,19,3,7,0.5,0.8
2026-01-05T0100,1479A,103.8309,36.0467,兰州市,铁路设计院,,,,,,,,,,,,,,,,
2026-01-05T0100,3241A,103.7439,36.0841,兰州市,百合公园,,47,47,63,26,46,71,,,,11,31,8,10,0.6,1.1
2026-01-05T0100,3242A,103.9613,35.9985,兰州市,和平,颗粒物(PM10),52,53,65,33,62,70,,,,9,23,3,4,0.5,1
2026-01-05T0100,4236A,103.629272,36.093822,兰州市,庄浪东路808号,,49,41,75,34,55,76,,,,13,38,11,14,0.4,0.9
2026-01-05T0100,4237A,103.7251,36.104344,兰州市,安宁西路88号,颗粒物(PM10),52,53,72,35,45,73,,,,20,31,5,7,0.4,0.7
2026-01-05T0100,4238A,103.846982,36.067567,兰州市,北滨河东路1号,细颗粒物(PM2.5),55,48,65,39,46,77,,,,15,36,8,10,0.5,1
2026-01-05T0100,1067A,116.6712,39.5109,廊坊市,药材公司,细颗粒物(PM2.5),153,165,148,117,108,2,,,,66,73,10,11,2.7,1.8
2026-01-05T0100,1068A,116.7215,39.5592,廊坊市,开发区,细颗粒物(PM2.5),147,163,137,112,94,1,,,,86,77,8,10,2.6,1.7
2026-01-05T0100,1070A,116.7246,39.5273,廊坊市,北华航天学院,细颗粒物(PM2.5),192,182,155,144,108,2,,,,74,74,13,12,3.2,2
2026-01-05T0100,2919A,116.7022,39.5454,廊坊市,河北工业大学,细颗粒物(PM2.5),134,161,155,102,100,2,,,,77,75,17,13,2.3,1.8
2026-01-05T0100,2536A,103.7629,29.5844,乐山市,牛耳桥,细颗粒物(PM2.5),58,45,33,41,29,1,,,,23,27,7,7,0.7,0.7
2026-01-05T0100,2537A,103.7501,29.6002,乐山市,市第三水厂,细颗粒物(PM2.5),65,53,36,47,30,0,,,,31,30,6,6,0.7,0.7
2026-01-05T0100,2538A,103.7571,29.5664,乐山市,市监测站,细颗粒物(PM2.5),54,46,32,38,28,0,,,,28,25,6,6,0.9,0.8
2026-01-05T0100,3361A,103.7313,29.563,乐山市,理工大学,颗粒物(PM10),54,58,42,37,26,1,,,,31,24,4,4,0.8,0.7
2026-01-05T0100,2599A,100.2497,26.8802,丽江市,丽江古城,,24,16,21,8,9,75,,,,8,11,8,7,0.5,0.6
2026-01-05T0100,2600A,100.2203,26.8906,丽江市,市中心,,25,,12,8,10,80,,,,6,10,5,6,0.3,0.3
2026-01-05T0100,1267A,119.9141,28.4513,丽水市,监测站大楼,,49,44,59,34,39,0,,,,46,40,6,7,0.7,0.8
2026-01-05T0100,1268A,119.93,28.4589,丽水市,莲都小学,颗粒物(PM10),71,91,65,36,34,2,,,,58,51,/,/,/,/
2026-01-05T0100,1269A,119.8794,28.4232,丽水市,余庄前,颗粒物(PM10),57,63,55,36,37,0,,,,38,37,5,5,0.5,0.4
2026-01-05T0100,1173A,119.1759,34.5885,连云港市,市环境监测站,细颗粒物(PM2.5),163,153,110,124,92,5,,,,62,50,25,13,1.0,1
2026-01-05T0100,3000A,119.3577,34.6971,连云港市,德源药业,细颗粒物(PM2.5),149,151,118,114,82,2,,,,67,61,8,5,0.6,0.6
2026-01-05T0100,3007A,119.178,34.8442,连云港市,新城一中,细颗粒物(PM2.5),198,168,133,148,116,8,,,,58,52,17,17,1.1,1
2026-01-05T0100,3008A,119.3607,34.7519,连云港市,胡沟管理处,细颗粒物(PM2.5),163,149,94,124,76,5,,,,70,49,25,12,1.2,1.1
2026-01-05T0100,3009A,119.1478,34.5913,连云港市,矿山设计院,细颗粒物(PM2.5),144,153,115,110,85,3,,,,63,45,14,10,1.2,1.1
2026-01-05T0100,3434A,119.2414,34.6539,连云港市,工贸学校,细颗粒物(PM2.5),158,145,99,120,82,18,,,,46,31,16,15,0.9,0.7
2026-01-05T0100,3664A,119.4171,34.734,连云港市,连云街道,细颗粒物(PM2.5),155,151,96,118,74,29,,,,47,37,19,13,1.0,0.8
2026-01-05T0100,2573A,102.2629,27.8981,凉山彝族自治州,西昌市政府,,30,30,30,15,20,48,,,,6,13,4,8,0.6,0.6
2026-01-05T0100,2574A,102.2686,27.885,凉山彝族自治州,凉山州政府,,29,25,33,20,18,45,,,,8,13,6,9,0.7,0.7
2026-01-05T0100,4229A,102.2342,27.8859,凉山彝族自治州,凯乐南路30号,,34,34,43,20,26,34,,,,24,19,8,8,0.6,0.7
2026-01-05T0100,2212A,123.1978,41.2036,辽阳市,宏伟区,细颗粒物(PM2.5),182,157,104,137,90,8,,,,43,34,6,15,2.1,1.6
2026-01-05T0100,2213A,123.1684,41.2497,辽阳市,新华园,细颗粒物(PM2.5),128,155,108,97,84,3,,,,65,49,17,28,2.1,1.6
2026-01-05T0100,2214A,123.2355,41.2663,辽阳市,滨河路,细颗粒物(PM2.5),110,110,103,83,73,7,,,,52,46,6,12,1.1,1.1
2026-01-05T0100,4083A,123.153,41.2874,辽阳市,铁西路150号,细颗粒物(PM2.5),125,142,114,95,80,1,,,,64,49,14,27,2.3,1.8
2026-01-05T0100,2227A,125.1359,42.8845,辽源市,环保局,细颗粒物(PM2.5),107,159,135,80,71,12,,,,50,42,4,6,1.8,1.7
2026-01-05T0100,4085A,125.0998,42.9134,辽源市,安宁大街333号,细颗粒物(PM2.5),80,73,91,59,75,59,,,,20,37,12,8,0.5,1
2026-01-05T0100,1625A,115.9789,36.4372,聊城市,区政府,细颗粒物(PM2.5),190,177,134,143,106,19,,,,54,45,14,13,1.3,1.1
2026-01-05T0100,3200A,115.9772,36.4986,聊城市,监控中心,细颗粒物(PM2.5),221,201,144,171,123,11,,,,58,44,12,12,1.2,0.9
2026-01-05T0100,3513A,116.0443,36.436,聊城市,九州社区,细颗粒物(PM2.5),199,181,139,149,106,28,,,,44,34,7,4,1.0,0.8
2026-01-05T0100,4018A,116.0564,36.4609,聊城市,星美广场,细颗粒物(PM2.5),210,202,155,160,115,14,,,,48,35,8,6,1.2,0.9
2026-01-05T0100,4113A,116.0091,36.4495,聊城市,利民路,细颗粒物(PM2.5),202,198,144,152,113,14,,,,60,42,11,11,0.9,0.8
2026-01-05T0100,2632A,94.3683,29.6373,林芝市,林芝监测站,,24,24,12,15,8,41,,,,18,10,4,4,0.6,0.4
2026-01-05T0100,2633A,94.3616,29.6634,林芝市,林芝人民医院,,18,11,14,8,8,56,,,,6,7,4,6,0.4,0.4
2026-01-05T0100,2603A,100.0779,23.8981,临沧市,市环保局,细颗粒物(PM2.5),60,,26,43,40,29,,,,7,6,5,6,0.5,0.4
2026-01-05T0100,2604A,100.0894,23.882,临沧市,市气象局,,32,32,31,20,24,30,,,,7,10,4,5,0.5,0.5
2026-01-05T0100,1733A,111.5552,36.0791,临汾市,临钢医院,细颗粒物(PM2.5),235,240,272,185,208,6,,,,35,39,4,5,2.6,3.1
2026-01-05T0100,1734A,111.4984,36.0734,临汾市,技工学校,,,,255,,201,,,28,,,42,,6,,3.4
2026-01-05T0100,1736A,111.5017,36.0857,临汾市,市委,细颗粒物(PM2.5),236,280,286,186,208,1,,,,57,49,8,8,2.7,3.2
2026-01-05T0100,3018A,111.5048,36.1015,临汾市,唐尧大酒店,细颗粒物(PM2.5),239,234,249,189,202,2,,,,54,48,2,3,2.8,3.3
2026-01-05T0100,4244A,111.4879,36.053,临汾市,启星学校,细颗粒物(PM2.5),193,219,230,145,172,2,,,,52,52,5,6,2.9,3.2
2026-01-05T0100,4271A,103.2464,35.6123,临夏回族自治州,滨河东路1号,细颗粒物(PM2.5),182,192,124,137,90,7,,,,48,28,4,5,2.2,1.2
2026-01-05T0100,4310A,103.207136,35.599807,临夏回族自治州,新华街21号,细颗粒物(PM2.5),92,102,99,68,77,45,,,,25,25,11,9,0.7,1
2026-01-05T0100,1618A,118.3429,35.0532,临沂市,沂河小区,细颗粒物(PM2.5),246,227,181,196,161,4,,,,82,81,25,22,1.4,1.3
2026-01-05T0100,1619A,118.2962,35.0568,临沂市,鲁南制药厂,细颗粒物(PM2.5),253,273,204,203,164,3,,,,80,84,28,30,1.6,1.4
2026-01-05T0100,1620A,118.2793,34.9976,临沂市,新光毛纺厂,细颗粒物(PM2.5),226,217,185,176,154,4,,,,70,72,23,30,1.4,1.4
2026-01-05T0100,1621A,118.3955,35.0889,临沂市,河东保险公司,细颗粒物(PM2.5),212,215,190,162,144,6,,,,76,74,19,17,1.3,1.4
2026-01-05T0100,3370A,118.3563,35.0215,临沂市,十里堡居委,细颗粒物(PM2.5),195,205,185,146,138,4,,,,80,85,26,28,1.5,1.6
2026-01-05T0100,3496A,118.359,35.1067,临沂市,南坊新区,细颗粒物(PM2.5),225,234,176,175,140,3,,,,89,76,25,19,1.5,1.3
2026-01-05T0100,3860A,118.3915,35.0297,临沂市,皇山花园小区,细颗粒物(PM2.5),185,197,180,139,131,8,,,,79,88,29,28,1.4,1.4
2026-01-05T0100,1870A,109.4854,24.3898,柳州市,柳东小学,,10,10,52,6,49,24,,,,5,13,7,8,0.7,0.8
2026-01-05T0100,1871A,109.4109,24.3304,柳州市,环保监测站,,25,25,49,6,38,17,,,,18,22,10,7,1.1,0.8
2026-01-05T0100,1872A,109.3886,24.3408,柳州市,河西水厂,,16,16,57,11,44,23,,,,12,22,7,13,0.6,0.8
2026-01-05T0100,1873A,109.4263,24.2951,柳州市,市四中,,13,13,42,7,32,21,,,,14,20,11,10,0.9,0.8
2026-01-05T0100,1874A,109.396,24.3658,柳州市,市九中,,13,11,38,9,43,21,,,,14,21,14,11,1.1,0.9
2026-01-05T0100,1875A,109.4912,24.3164,柳州市,古亭山,,8,7,43,3,37,23,,,,5,13,9,10,0.8,0.8
2026-01-05T0100,3402A,109.5422,24.3994,柳州市,市二中,,9,6,48,3,40,26,,,,8,17,8,8,0.6,0.7
2026-01-05T0100,2307A,116.5078,31.7369,六安市,监测大楼,细颗粒物(PM2.5),75,67,62,55,55,43,,,,16,23,2,3,0.6,0.6
2026-01-05T0100,2308A,116.4738,31.7642,六安市,皖西学院,细颗粒物(PM2.5),77,78,75,56,57,43,,,,20,24,4,4,0.5,0.6
2026-01-05T0100,2309A,116.4997,31.7904,六安市,朝阳厂,细颗粒物(PM2.5),74,65,67,54,56,41,,,,23,28,5,5,0.6,0.6
2026-01-05T0100,2310A,116.5566,31.7885,六安市,开发区,细颗粒物(PM2.5),90,86,82,67,63,38,,,,19,32,1,1,0.5,0.6
2026-01-05T0100,2577A,104.8293,26.592,六盘水市,黄土坡,,15,11,14,10,11,29,,,,10,12,9,10,0.8,0.8
2026-01-05T0100,2579A,104.8481,26.5898,六盘水市,民中,,25,20,15,17,9,22,,,,14,13,4,4,0.8,0.7
2026-01-05T0100,2580A,104.9541,26.5506,六盘水市,双水,,14,14,18,3,11,29,,,,9,9,4,4,0.5,0.5
2026-01-05T0100,4151A,104.8899,26.5685,六盘水市,钟山大道中段564号,,15,15,19,9,11,27,,,,10,11,5,5,1.0,0.9
2026-01-05T0100,2336A,117.022,25.1031,龙岩市,龙岩市监测站,,28,25,32,19,20,23,,,,40,27,39,20,0.4,0.5
2026-01-05T0100,2337A,117.0257,25.0662,龙岩市,闽西职业技术学院,,27,27,38,13,20,26,,,,36,24,20,13,0.3,0.4
2026-01-05T0100,2338A,117.0195,25.0306,龙岩市,龙岩学院,,20,20,29,13,20,43,,,,15,14,7,9,/,/
2026-01-05T0100,2885A,104.9344,33.3827,陇南市,滨江中学,颗粒物(PM10),59,68,71,37,42,27,,,,43,22,9,7,1.3,1
2026-01-05T0100,3247A,104.9551,33.3709,陇南市,市总工会,颗粒物(PM10),60,70,72,42,40,31,,,,34,21,2,3,0.8,0.7
2026-01-05T0100,2488A,111.9984,27.7346,娄底市,市监测站,细颗粒物(PM2.5),53,49,45,37,36,2,,,,28,19,7,5,0.9,0.7
2026-01-05T0100,2491A,111.9888,27.7035,娄底市,市政府,,34,34,37,21,37,5,,,,16,13,4,5,0.8,0.6
2026-01-05T0100,4127A,111.9812,27.7591,娄底市,涟钢职大,,26,26,44,14,34,5,,,,16,19,3,4,0.7,0.6
2026-01-05T0100,4128A,112.0303,27.7457,娄底市,娄底体校,,32,26,42,22,35,5,,,,12,14,2,2,0.8,0.7
2026-01-05T0100,1894A,105.4427,28.9063,泸州市,小市上码头,,50,50,46,35,30,0,,,,46,24,8,7,1.4,0.9
2026-01-05T0100,1895A,105.4241,28.8573,泸州市,兰田宪桥,,49,43,45,34,33,7,,,,21,21,8,7,1.1,1
2026-01-05T0100,1896A,105.4378,28.8833,泸州市,市环监站,,47,47,42,32,30,10,,,,31,27,7,7,1.0,0.8
2026-01-05T0100,4272A,105.3689,28.7783,泸州市,纳溪中医医院,,48,41,50,33,40,2,,,,14,16,7,8,0.9,0.9
2026-01-05T0100,2183A,111.1447,37.5212,吕梁市,环保局,颗粒物(PM10),65,80,109,42,48,1,,,,52,50,5,12,0.8,0.9
2026-01-05T0100,2185A,111.1285,37.5338,吕梁市,自来水公司,颗粒物(PM10),103,155,125,48,48,2,,,,50,48,8,14,1.0,1.1
2026-01-05T0100,2867A,111.1225,37.5093,吕梁市,马茂庄小学,颗粒物(PM10),76,101,126,39,46,0,,,,51,52,6,14,0.9,1
2026-01-05T0100,1812A,112.3934,34.6517,洛阳市,市委党校,细颗粒物(PM2.5),72,60,74,52,68,63,,,,22,24,9,9,0.6,0.8
2026-01-05T0100,1815A,112.494,34.6883,洛阳市,河南林校,细颗粒物(PM2.5),87,73,82,64,77,48,,,,27,27,10,12,0.8,0.9
2026-01-05T0100,1816A,112.3843,34.623,洛阳市,开发区管委会,细颗粒物(PM2.5),73,65,80,53,72,48,,,,19,19,7,8,0.6,0.8
2026-01-05T0100,1817A,112.4263,34.6249,洛阳市,市委新办公区,细颗粒物(PM2.5),74,69,83,54,75,58,,,,20,20,8,9,0.6,0.8
2026-01-05T0100,3340A,112.6005,34.6323,洛阳市,伊滨,细颗粒物(PM2.5),79,60,84,58,73,61,,,,23,26,7,8,0.8,0.9
2026-01-05T0100,3341A,112.495,34.6338,洛阳市,中移产业园,细颗粒物(PM2.5),75,60,75,55,76,60,,,,26,31,9,9,0.6,0.8
2026-01-05T0100,3593A,112.5736,34.8993,洛阳市,吉利监测站,细颗粒物(PM2.5),125,95,81,95,87,5,,,,53,30,6,7,1.0,1
2026-01-05T0100,3635A,112.3678,34.6623,洛阳市,河科大西苑校区,细颗粒物(PM2.5),69,59,76,50,66,63,,,,21,25,9,9,0.6,0.7
2026-01-05T0100,3636A,112.4387,34.678,洛阳市,英才小学,细颗粒物(PM2.5),83,66,83,61,79,63,,,,32,34,10,11,0.8,0.9
2026-01-05T0100,4214A,112.460027,34.694929,洛阳市,春都路1号院,细颗粒物(PM2.5),77,81,95,56,65,48,,,,22,22,9,11,0.8,1
2026-01-05T0100,2399A,114.051,33.5721,漯河市,三五一五工厂,细颗粒物(PM2.5),118,106,108,89,86,35,,,,17,18,6,7,1.0,1
2026-01-05T0100,2400A,114.0055,33.5698,漯河市,漯河大学,细颗粒物(PM2.5),107,86,86,80,77,32,,,,28,23,5,6,0.7,0.8
2026-01-05T0100,2401A,114.0134,33.5826,漯河市,市水利局,细颗粒物(PM2.5),110,90,85,83,80,31,,,,24,21,6,7,0.8,0.9
2026-01-05T0100,2402A,114.0261,33.5697,漯河市,市广电局,细颗粒物(PM2.5),117,,84,88,83,37,,,,16,16,6,6,0.8,0.8
2026-01-05T0100,3478A,113.9691,33.568,漯河市,市图书馆,细颗粒物(PM2.5),104,104,98,78,83,33,,,,22,18,7,5,1.0,1
2026-01-05T0100,4250A,114.089259,33.588274,漯河市,韶山路11号,细颗粒物(PM2.5),105,92,103,79,86,22,,,,26,23,6,6,0.7,0.7
2026-01-05T0100,1798A,118.5084,31.6838,马鞍山市,湖东路四小,细颗粒物(PM2.5),102,95,113,76,86,29,,,,34,54,9,8,1.2,1.3
2026-01-05T0100,1799A,118.5019,31.6449,马鞍山市,开发区,细颗粒物(PM2.5),110,108,120,83,105,36,,,,28,54,5,7,0.8,1.1
2026-01-05T0100,3633A,118.4914,31.681,马鞍山市,雨山,细颗粒物(PM2.5),104,95,113,78,90,29,,,,40,56,13,10,1.7,1.2
2026-01-05T0100,4191A,118.527362,31.722269,马鞍山市,慈湖高新区,细颗粒物(PM2.5),110,96,126,83,102,38,,,,29,58,18,8,0.7,1.1
2026-01-05T0100,1686A,111.0285,21.469,茂名市,电白南海,颗粒物(PM10),63,75,62,41,34,59,,,,44,21,16,17,0.7,0.6
2026-01-05T0100,1687A,110.9294,21.6533,茂名市,茂石化七小,颗粒物(PM10),52,53,55,27,26,80,,,,24,21,19,15,0.3,0.3
2026-01-05T0100,1688A,110.9108,21.6688,茂名市,健康路,颗粒物(PM10),52,53,47,29,27,95,,,,23,22,23,17,0.7,0.7
2026-01-05T0100,1689A,110.8592,21.6826,茂名市,高岭,颗粒物(PM10),64,78,71,24,27,65,,,,27,25,19,17,/,/
2026-01-05T0100,3450A,111.0101,21.5165,茂名市,电白水东,颗粒物(PM10),52,53,54,27,27,77,,,,15,14,12,13,/,/
2026-01-05T0100,2540A,103.8414,30.0871,眉山市,气象局,细颗粒物(PM2.5),85,71,44,63,31,4,,,,44,27,8,8,0.9,0.8
2026-01-05T0100,3148A,103.829,30.0563,眉山市,区人社局,细颗粒物(PM2.5),77,67,40,56,27,3,,,,36,25,5,6,0.8,0.8
2026-01-05T0100,4148A,103.8836,30.0695,眉山市,眉职院,细颗粒物(PM2.5),62,56,35,44,22,4,,,,28,18,1,1,0.8,0.8
2026-01-05T0100,1690A,116.1248,24.3307,梅州市,梅江月梅,颗粒物(PM10),53,55,42,29,27,5,,,,50,28,/,/,/,/
2026-01-05T0100,1691A,116.0798,24.2719,梅州市,梅县新城,,42,38,46,29,33,26,,,,35,36,7,8,0.5,0.6
2026-01-05T0100,3315A,116.1234,24.2994,梅州市,梅龙,颗粒物(PM10),52,53,46,31,28,8,,,,41,29,9,10,0.6,0.6
2026-01-05T0100,1878A,104.7775,31.4741,绵阳市,富乐山,细颗粒物(PM2.5),53,50,33,37,27,3,,,,34,21,11,11,1.0,0.9
2026-01-05T0100,1880A,104.6698,31.4668,绵阳市,高新区自来水公司,颗粒物(PM10),78,106,55,56,37,1,,,,41,35,10,9,1.0,0.9
2026-01-05T0100,3491A,104.6899,31.5324,绵阳市,西科大附属小学,细颗粒物(PM2.5),69,76,53,50,41,3,,,,32,26,8,8,1.4,1.2
2026-01-05T0100,3492A,104.5647,31.5343,绵阳市,安州区旅游局,细颗粒物(PM2.5),85,89,47,63,41,3,,,,30,25,15,14,1.0,0.9
2026-01-05T0100,4146A,104.7092,31.4972,绵阳市,科技城新区公安局,细颗粒物(PM2.5),82,74,44,60,36,0,,,,43,29,4,5,1.0,0.8
2026-01-05T0100,4226A,104.765114,31.453094,绵阳市,绵阳市气象局,细颗粒物(PM2.5),69,76,42,50,31,1,,,,39,32,9,9,1.2,1
2026-01-05T0100,1784A,129.61,44.561,牡丹江市,环保大楼,,42,42,49,27,31,49,,,,16,18,10,10,0.8,0.9
2026-01-05T0100,1787A,129.6364,44.6075,牡丹江市,机车工厂,颗粒物(PM10),72,94,67,47,37,13,,,,50,28,9,9,0.6,0.5
2026-01-05T0100,1788A,129.6386,44.5462,牡丹江市,第一中学,,40,,35,28,28,42,,,,18,18,8,6,0.4,0.5
2026-01-05T0100,4287A,129.5992,44.5964,牡丹江市,东晓云街98号,细颗粒物(PM2.5),69,50,49,50,39,37,,,,18,25,4,4,0.8,0.7
2026-01-05T0100,2531A,105.0703,29.61,内江市,市监测站,细颗粒物(PM2.5),53,51,45,37,36,10,,,,28,23,5,4,0.8,0.7
2026-01-05T0100,2533A,105.0657,29.5807,内江市,内江二中,细颗粒物(PM2.5),57,60,47,40,32,1,,,,36,28,4,4,1.0,0.9
2026-01-05T0100,2534A,105.0407,29.5828,内江市,内江日报社,细颗粒物(PM2.5),58,44,36,41,30,7,,,,48,29,2,2,0.7,0.6
2026-01-05T0100,4147A,105.0433,29.6105,内江市,玉峰路西段888号,细颗粒物(PM2.5),59,57,41,42,29,11,,,,26,21,3,3,0.7,0.7
2026-01-05T0100,2628A,92.0653,31.4846,那曲市,那曲监测站,,43,40,49,30,34,39,,,,29,28,10,11,1.6,1.4
2026-01-05T0100,4243A,92.0515,31.4787,那曲市,那曲市委宣传部,,36,36,29,21,19,16,,,,35,21,8,7,1.8,1.2
2026-01-05T0100,1291A,115.8887,28.7006,南昌市,省林业公司,细颗粒物(PM2.5),64,48,44,46,46,21,,,,24,29,3,4,1.3,1.2
2026-01-05T0100,1292A,115.813,28.7443,南昌市,林科所,细颗粒物(PM2.5),58,53,42,41,37,27,,,,20,34,4,5,0.7,0.7
2026-01-05T0100,1294A,115.8518,28.687,南昌市,建工学校,细颗粒物(PM2.5),73,54,57,53,47,18,,,,33,36,11,13,0.7,0.7
2026-01-05T0100,1295A,115.8926,28.6425,南昌市,象湖,细颗粒物(PM2.5),67,,48,48,47,22,,,,24,33,8,9,0.9,0.9
2026-01-05T0100,3046A,115.9084,28.6062,南昌市,机电学校,细颗粒物(PM2.5),67,56,60,48,49,29,,,,19,33,4,4,0.7,0.7
2026-01-05T0100,3690A,115.9718,28.7032,南昌市,外国语学校,细颗粒物(PM2.5),74,54,59,54,52,23,,,,25,34,10,12,0.7,0.6
2026-01-05T0100,4106A,115.7923,28.6873,南昌市,工业二路,细颗粒物(PM2.5),65,54,52,47,44,26,,,,14,26,4,5,0.5,0.5
2026-01-05T0100,4192A,115.931587,28.686774,南昌市,南京东路235号,,,55,51,52,54,,,,,28,37,4,6,0.6,0.4
2026-01-05T0100,1906A,106.0791,30.8022,南充市,南充市委,细颗粒物(PM2.5),75,66,44,55,40,2,,,,26,25,4,4,0.8,0.8
2026-01-05T0100,1907A,106.1038,30.8215,南充市,南充炼油厂,细颗粒物(PM2.5),85,81,57,63,45,1,,,,30,24,5,6,0.7,0.5
2026-01-05T0100,4227A,106.108336,30.788436,南充市,梨树横街98号,细颗粒物(PM2.5),75,68,44,55,37,3,,,,31,24,6,5,0.9,0.8
2026-01-05T0100,4304A,106.1172,30.843,南充市,清泉寺北路188号,细颗粒物(PM2.5),60,49,35,43,37,9,,,,24,19,6,6,0.9,0.9
2026-01-05T0100,4305A,106.067,30.7616,南充市,同庆路1号,细颗粒物(PM2.5),67,65,45,48,36,1,,,,31,24,6,6,0.8,1.4
2026-01-05T0100,1151A,118.8033,32.1085,南京市,迈皋桥,细颗粒物(PM2.5),77,70,88,56,66,47,,,,20,37,3,3,0.8,0.9
2026-01-05T0100,1152A,118.7487,32.057,南京市,草场门,细颗粒物(PM2.5),77,73,91,56,69,38,,,,28,48,6,7,0.4,0.6
2026-01-05T0100,1154A,118.770105,32.004342,南京市,中华门,细颗粒物(PM2.5),73,58,89,53,73,43,,,,20,48,6,5,0.6,0.9
2026-01-05T0100,1155A,118.8059,32.0329,南京市,瑞金路,细颗粒物(PM2.5),77,61,93,56,75,48,,,,31,65,4,4,0.7,0.9
2026-01-05T0100,1156A,118.7946,32.0774,南京市,玄武湖,细颗粒物(PM2.5),72,69,94,52,69,41,,,,23,29,4,4,0.5,0.7
2026-01-05T0100,1157A,118.6415,32.0964,南京市,浦口,细颗粒物(PM2.5),88,84,95,65,68,43,,,,26,44,7,8,0.7,0.9
2026-01-05T0100,1158A,118.730129,32.000956,南京市,奥体中心,细颗粒物(PM2.5),73,84,94,53,75,56,,,,29,59,6,7,0.6,0.8
2026-01-05T0100,1159A,118.9072,32.1047,南京市,仙林大学城,细颗粒物(PM2.5),79,70,90,58,71,31,,,,34,48,7,6,1.3,1
2026-01-05T0100,3422A,118.8443,31.919,南京市,江宁彩虹桥,细颗粒物(PM2.5),92,90,103,68,78,25,,,,26,49,4,4,0.6,0.7
2026-01-05T0100,3427A,118.8497,32.3599,南京市,六合雄州,细颗粒物(PM2.5),73,70,83,53,58,47,,,,16,41,7,9,0.5,0.6
2026-01-05T0100,4086A,118.7641,32.0841,南京市,新模范马路66号,细颗粒物(PM2.5),85,79,105,63,79,35,,,,28,48,4,6,0.9,1.1
2026-01-05T0100,4249A,118.8707617,31.34017673,南京市,汶溪路181号,细颗粒物(PM2.5),129,102,100,98,96,22,,,,51,47,6,7,1.0,0.8
2026-01-05T0100,4312A,119.019,31.6512,南京市,中山西路1号,细颗粒物(PM2.5),124,,81,94,88,10,,,,42,44,4,4,1.2,0.8
2026-01-05T0100,1401A,108.3098,22.788,南宁市,二十一中,细颗粒物(PM2.5),64,48,62,46,57,9,,,,23,27,7,6,0.9,0.9
2026-01-05T0100,1402A,108.3135,22.8529,南宁市,北湖,,40,35,63,28,52,19,,,,22,29,8,7,0.8,0.9
2026-01-05T0100,1403A,108.3205,22.8222,南宁市,市监测站,细颗粒物(PM2.5),58,42,63,41,47,10,,,,20,26,12,9,0.8,0.8
2026-01-05T0100,1404A,108.3828,22.8038,南宁市,大自然花园,细颗粒物(PM2.5),75,72,71,55,54,15,,,,27,29,6,7,0.9,0.9
2026-01-05T0100,1406A,108.2397,22.8462,南宁市,区农职院,,43,42,61,30,50,15,,,,21,29,6,9,0.9,0.9
2026-01-05T0100,1407A,108.3285,22.7356,南宁市,英华嘉园,细颗粒物(PM2.5),84,76,69,62,63,15,,,,25,23,5,5,0.8,0.8
2026-01-05T0100,3401A,108.4829,22.762,南宁市,红星社区,,40,35,66,28,54,23,,,,17,20,6,7,0.8,0.8
2026-01-05T0100,4132A,108.2927,23.1477,南宁市,起凤路9号,,9,7,52,6,47,19,,,,6,13,1,3,0.9,0.9
2026-01-05T0100,4221A,108.2177,22.7774,南宁市,乐贤路16号,,49,47,74,34,49,18,,,,7,23,2,5,0.6,0.7
2026-01-05T0100,2332A,118.1682,26.6371,南平市,南平市监测站,,31,31,27,21,20,3,,,,43,21,3,6,0.5,0.5
2026-01-05T0100,2334A,118.1757,26.6276,南平市,南平七中,,25,23,24,17,17,19,,,,32,19,5,5,0.5,0.5
2026-01-05T0100,1168A,120.9056,31.9669,南通市,狼山街道,细颗粒物(PM2.5),108,85,74,81,63,22,,,,39,52,2,3,1.0,1
2026-01-05T0100,1170A,120.8635,32.0231,南通市,城中,细颗粒物(PM2.5),108,92,82,81,60,10,,,,60,60,4,6,0.8,0.8
2026-01-05T0100,1171A,120.9376,31.9301,南通市,星湖花园,细颗粒物(PM2.5),115,,75,87,60,17,,,,53,52,4,6,1.2,1.1
2026-01-05T0100,1172A,120.8053,32.046,南通市,紫琅学院,细颗粒物(PM2.5),122,102,88,92,65,1,,,,69,63,4,5,1.0,1
2026-01-05T0100,3291A,121.0631,32.0644,南通市,通州监测站,细颗粒物(PM2.5),110,85,67,83,58,6,,,,62,46,3,4,1.0,0.8
2026-01-05T0100,3432A,120.9348,31.9874,南通市,环境教育馆,细颗粒物(PM2.5),98,78,72,73,61,27,,,,46,62,4,5,0.8,0.9
2026-01-05T0100,4091A,120.8692,31.9885,南通市,洪江路,细颗粒物(PM2.5),104,93,83,78,65,17,,,,51,62,3,5,0.6,0.6
2026-01-05T0100,2404A,112.5338,33.0086,南阳市,瓦房庄,细颗粒物(PM2.5),137,113,93,104,90,5,,,,43,20,6,6,1.1,0.9
2026-01-05T0100,2405A,112.5002,32.9734,南阳市,汉画馆,细颗粒物(PM2.5),124,118,96,94,86,0,,,,46,22,6,6,1.3,1
2026-01-05T0100,2406A,112.5778,33.0144,南阳市,气象站,细颗粒物(PM2.5),119,113,99,90,82,22,,,,34,20,5,5,1.0,0.8
2026-01-05T0100,2407A,112.548,32.9687,南阳市,理工学院,细颗粒物(PM2.5),95,91,88,71,71,26,,,,28,23,6,5,1.1,1
2026-01-05T0100,4008A,112.5233,32.9921,南阳市,卧龙区政府,细颗粒物(PM2.5),122,108,99,92,87,17,,,,33,20,6,5,0.9,0.9
2026-01-05T0100,1234A,121.8352,29.9111,宁波市,区环保大楼,细颗粒物(PM2.5),89,94,56,66,34,13,,,,68,49,6,6,0.8,0.8
2026-01-05T0100,1235A,121.5595,29.8208,宁波市,万里学院,细颗粒物(PM2.5),123,136,78,93,53,3,,,,83,52,5,5,0.8,0.6
2026-01-05T0100,1236A,121.713,29.9564,宁波市,龙赛医院,细颗粒物(PM2.5),117,110,81,88,51,5,,,,72,57,4,5,0.7,0.7
2026-01-05T0100,1240A,121.5855,29.8635,宁波市,太古小学,,,119,76,73,40,6,,,,69,49,,3,0.8,0.7
2026-01-05T0100,1241A,121.5239,29.8673,宁波市,市环境监测中心,细颗粒物(PM2.5),148,121,77,113,55,0,,,,82,52,5,7,0.9,0.8
2026-01-05T0100,2871A,121.6156,29.9015,宁波市,万里国际学校,细颗粒物(PM2.5),122,109,73,92,53,,,,,66,56,4,4,0.7,0.6
2026-01-05T0100,3710A,121.5593,29.8976,宁波市,白沙活动中心,细颗粒物(PM2.5),123,102,69,93,52,4,,,,76,58,4,5,0.8,0.8
2026-01-05T0100,4095A,121.8962,29.7529,宁波市,中科路88号,细颗粒物(PM2.5),92,79,40,68,29,23,,,,46,27,4,5,0.8,0.7
2026-01-05T0100,2341A,119.5387,26.6611,宁德市,宁德市监测站,,20,,35,14,18,23,,,,27,25,6,7,0.8,0.6
2026-01-05T0100,3209A,119.5231,26.6562,宁德市,宁德一中,,25,,30,17,23,30,,,,18,20,5,5,0.8,0.7
2026-01-05T0100,2618A,98.859,25.8541,怒江傈僳族自治州,州监测站,,32,32,28,18,20,38,,,,13,10,7,6,0.4,0.4
2026-01-05T0100,2619A,98.8607,25.8168,怒江傈僳族自治州,泸水一中,,32,25,25,22,20,17,,,,20,16,6,6,0.6,0.5
2026-01-05T0100,1888A,101.6891,26.571,攀枝花市,弄弄坪,颗粒物(PM10),53,56,41,30,23,4,,,,57,30,9,15,1.3,1.3
2026-01-05T0100,1889A,101.577,26.5914,攀枝花市,河门口,颗粒物(PM10),52,53,45,25,21,18,,,,30,23,44,26,0.7,0.9
2026-01-05T0100,1891A,101.7365,26.4986,攀枝花市,仁和,,18,18,29,10,17,39,,,,12,17,7,9,0.5,0.6
2026-01-05T0100,2835A,101.7222,26.567,攀枝花市,四十中小,,46,46,32,28,19,19,,,,43,32,12,12,1.2,1
2026-01-05T0100,1604A,122.0303,41.1489,盘锦市,开发区,细颗粒物(PM2.5),108,89,78,81,64,3,,,,50,35,6,8,1.5,1.3
2026-01-05T0100,1605A,122.0486,41.0883,盘锦市,兴隆台,细颗粒物(PM2.5),80,88,69,59,55,4,,,,77,55,6,9,1.0,1.3
2026-01-05T0100,1606A,121.8297,41.1026,盘锦市,新生街道,细颗粒物(PM2.5),54,53,59,38,42,6,,,,63,43,10,8,0.7,0.8
2026-01-05T0100,1832A,113.3257,33.7423,平顶山市,新华旅馆,细颗粒物(PM2.5),125,115,99,95,78,4,,,,53,25,6,6,0.7,0.7
2026-01-05T0100,1833A,113.2917,33.737,平顶山市,规划设计院,细颗粒物(PM2.5),122,103,97,92,75,27,,,,47,28,6,6,0.6,0.8
2026-01-05T0100,1834A,113.182,33.7738,平顶山市,平顶山工学院,细颗粒物(PM2.5),119,108,77,90,68,36,,,,19,16,8,7,0.5,0.5
2026-01-05T0100,3594A,112.8736,33.9068,平顶山市,石龙区,细颗粒物(PM2.5),68,61,71,49,61,75,,,,21,23,6,6,0.8,0.9
2026-01-05T0100,4116A,113.284,33.7139,平顶山市,姚电大道23号,细颗粒物(PM2.5),118,113,98,89,79,34,,,,29,19,9,9,0.7,0.8
2026-01-05T0100,2656A,106.6633,35.5338,平凉市,聚贤嘉苑,,39,39,36,24,26,56,,,,21,20,9,8,0.8,0.7
2026-01-05T0100,2657A,106.7021,35.5307,平凉市,博物馆,,45,42,45,31,34,45,,,,30,20,9,9,1.0,0.9
2026-01-05T0100,2348A,113.8384,27.6436,萍乡市,中医院,,45,32,72,31,48,21,,,,19,26,3,5,1.5,1
2026-01-05T0100,2350A,113.8677,27.6438,萍乡市,市环保局,,46,46,58,19,50,16,,,,26,26,17,15,1.5,0.7
2026-01-05T0100,2351A,113.8663,27.6202,萍乡市,安源区政府,细颗粒物(PM2.5),55,52,75,39,59,9,,,,28,27,14,11,1.1,1
2026-01-05T0100,4107A,113.8686,27.6668,萍乡市,联洪村委会,,35,27,61,24,46,22,,,,24,28,4,6,0.8,0.8
2026-01-05T0100,2319A,119.0142,25.4324,莆田市,荔城区仓后路,,47,47,38,30,16,27,,,,36,20,/,/,/,/
2026-01-05T0100,2320A,119.0016,25.4553,莆田市,莆田市监测站,,26,22,28,18,13,44,,,,12,11,4,4,0.8,0.6
2026-01-05T0100,2321A,119.112,25.4561,莆田市,涵江区六中,,41,41,38,25,17,28,,,,36,25,/,/,0.7,0.6
2026-01-05T0100,2322A,119.1014,25.3215,莆田市,秀屿区政府,,49,49,34,30,17,34,,,,27,16,3,4,1.1,0.7
2026-01-05T0100,2392A,115.0312,35.7636,濮阳市,环保局,细颗粒物(PM2.5),233,,121,183,120,16,,,,43,30,7,7,1.7,1.6
2026-01-05T0100,3021A,115,35.7667,濮阳市,濮水河管理处,细颗粒物(PM2.5),223,216,153,173,119,7,,,,60,39,6,6,1.5,1.2
2026-01-05T0100,4118A,115.0552,35.7816,濮阳市,中原东路68号,细颗粒物(PM2.5),263,274,175,213,136,14,,,,47,33,5,5,1.4,1
2026-01-05T0100,4216A,115.0923632,35.76857718,濮阳市,任丘路479号,细颗粒物(PM2.5),250,212,146,200,135,5,,,,56,40,5,5,1.5,1.1
2026-01-05T0100,2601A,100.9801,22.7634,普洱市,市环保局,,40,40,41,17,23,15,,,,5,11,4,4,0.4,0.5
2026-01-05T0100,2602A,100.9763,22.8237,普洱市,普洱第二中学,,40,40,32,17,19,3,,,,24,14,5,5,0.5,0.5
2026-01-05T0100,3345A,131.0413,45.7795,七台河市,中波台,,32,32,53,22,29,47,,,,19,16,9,8,0.5,0.5
2026-01-05T0100,3637A,131.0136,45.7688,七台河市,人民广场,,33,31,59,23,36,56,,,,15,20,7,9,0.5,0.6
2026-01-05T0100,3684A,130.8639,45.8144,七台河市,新建矿广场,,35,,53,24,30,56,,,,7,12,7,10,0.3,0.4
2026-01-05T0100,1779A,123.9307,47.3641,齐齐哈尔市,安居小区,,20,16,22,14,15,58,,,,8,15,10,7,0.4,0.5
2026-01-05T0100,1780A,123.9497,47.3389,齐齐哈尔市,中心广场,,19,9,11,7,8,59,,,,7,13,8,6,0.3,0.5
2026-01-05T0100,1781A,123.9483,47.3229,齐齐哈尔市,农牧车辆厂,,18,9,20,8,12,57,,,,5,11,3,4,0.2,0.3
2026-01-05T0100,1783A,123.9442,47.2994,齐齐哈尔市,市环境监测站,,20,13,21,6,10,64,,,,4,12,6,6,0.4,0.5
2026-01-05T0100,3662A,123.6341,47.2079,齐齐哈尔市,富区青少年活动中心,,20,19,34,7,13,61,,,,6,13,5,6,0.4,0.5
2026-01-05T0100,2591A,107.9765,26.5724,黔东南苗族侗族自治州,市环境监测站,,38,29,25,26,23,11,,,,16,15,6,6,0.8,0.8
2026-01-05T0100,2881A,107.8909,26.531,黔东南苗族侗族自治州,凯里学院,,28,24,19,19,14,12,,,,14,15,4,4,0.7,0.8
2026-01-05T0100,2593A,107.5223,26.2371,黔南布依族苗族自治州,小围寨,,18,12,14,12,13,15,,,,8,8,6,5,0.8,0.8
2026-01-05T0100,3538A,107.5175,26.2977,黔南布依族苗族自治州,沙坝,,28,24,19,19,17,22,,,,7,11,5,6,0.8,0.9
2026-01-05T0100,2589A,104.9022,25.0943,黔西南布依族苗族自治州,场坝街,,30,,23,21,14,32,,,,10,10,8,5,0.6,0.7
2026-01-05T0100,2590A,104.8812,25.0994,黔西南布依族苗族自治州,坪东大道,,30,30,19,17,12,32,,,,8,9,6,5,0.7,0.7
2026-01-05T0100,2502A,108.6238,21.9667,钦州市,市环保站,细颗粒物(PM2.5),117,119,89,88,66,27,,,,29,26,5,4,1.1,0.9
2026-01-05T0100,2503A,108.655,21.9481,钦州市,沙埠小学,细颗粒物(PM2.5),124,,76,94,63,31,,,,26,26,6,6,0.9,0.7
2026-01-05T0100,2504A,108.5989,21.7435,钦州市,港区一小,细颗粒物(PM2.5),94,103,76,70,45,31,,,,32,37,7,8,0.9,0.7
2026-01-05T0100,3404A,108.5959,21.9634,钦州市,北职校,细颗粒物(PM2.5),122,103,81,92,58,30,,,,22,24,9,8,1.2,1
2026-01-05T0100,1046A,119.5247,39.9346,秦皇岛市,建设大厦,细颗粒物(PM2.5),125,129,85,95,54,6,,,,58,51,11,10,1.5,1
2026-01-05T0100,3132A,119.5979,39.938,秦皇岛市,文明里,颗粒物(PM10),95,140,91,66,38,1,,,,68,54,14,13,1.5,0.7
2026-01-05T0100,4066A,119.7458,39.9952,秦皇岛市,南园路157号,细颗粒物(PM2.5),75,80,89,55,54,4,,,,67,53,14,13,1.5,1.2
2026-01-05T0100,4067A,119.5131,39.8858,秦皇岛市,翠岛大街1号,细颗粒物(PM2.5),93,116,60,69,37,1,,,,68,45,13,13,1.5,0.9
2026-01-05T0100,4198A,119.509013,39.825305,秦皇岛市,北戴河轮滑馆,细颗粒物(PM2.5),73,89,71,53,47,5,,,,68,48,5,6,3.1,1.4
2026-01-05T0100,1310A,120.404,36.0625,青岛市,市南区东部子站,细颗粒物(PM2.5),216,227,160,166,111,7,,,,76,72,14,17,1.5,1.3
2026-01-05T0100,1311A,120.362344,36.10282,青岛市,四方区子站,细颗粒物(PM2.5),233,,131,183,129,6,,,,68,70,8,11,1.7,1.4
2026-01-05T0100,1312A,120.294373,36.054183,青岛市,市南区西部子站,细颗粒物(PM2.5),218,227,164,168,123,6,,,,61,58,7,9,1.6,1.3
2026-01-05T0100,1313A,120.4581,36.0858,青岛市,崂山区子站,细颗粒物(PM2.5),216,215,142,166,101,9,,,,77,60,16,15,1.8,1.3
2026-01-05T0100,1315A,120.3945,36.3083,青岛市,城阳区子站,细颗粒物(PM2.5),192,224,182,144,111,23,,,,50,66,11,15,1.7,1.8
2026-01-05T0100,3642A,120.3454,36.0735,青岛市,市北区南部,细颗粒物(PM2.5),228,202,163,178,122,3,,,,66,67,9,11,1.6,1.3
2026-01-05T0100,3643A,120.3897,36.18,青岛市,李沧区北部,细颗粒物(PM2.5),260,244,176,210,139,5,,,,73,78,14,16,2.1,1.6
2026-01-05T0100,4110A,120.5222,36.4089,青岛市,盟旺路653号,细颗粒物(PM2.5),228,219,171,178,127,8,,,,65,65,6,10,1.5,1.2
2026-01-05T0100,4290A,120.196923,35.954556,青岛市,珠江路669号,细颗粒物(PM2.5),250,232,169,200,129,11,,,,80,98,14,18,1.6,1.2
2026-01-05T0100,4291A,120.0424,35.8656,青岛市,黄岛区人民政府广场,细颗粒物(PM2.5),245,239,169,195,131,23,,,,66,71,12,13,1.7,1.6
2026-01-05T0100,1703A,113.0218,23.7086,清远市,凤城街办,,44,44,48,30,33,61,,,,29,32,/,/,/,/
2026-01-05T0100,3025A,113.0479,23.6343,清远市,技师学院,颗粒物(PM10),61,71,57,42,32,6,,,,74,44,7,9,0.9,0.8
2026-01-05T0100,3318A,112.9898,23.7403,清远市,清新太和,,34,34,42,18,27,85,,,,21,22,5,7,0.5,0.5
2026-01-05T0100,3455A,113.076,23.72,清远市,清城东城,,45,45,45,27,27,36,,,,26,31,/,/,/,/
2026-01-05T0100,2661A,107.6325,35.7357,庆阳市,庆阳五中,,33,31,39,23,33,90,,,,9,13,4,5,0.4,0.5
2026-01-05T0100,2662A,107.6361,35.7067,庆阳市,市环保局,,36,36,44,22,30,90,,,,8,10,1,2,0.4,0.4
2026-01-05T0100,1916A,103.7897,25.5036,曲靖市,环境监测站,,31,31,23,18,11,3,,,,22,12,15,4,1.1,0.7
2026-01-05T0100,1917A,103.8013,25.5357,曲靖市,烟厂办公区,,22,22,22,7,10,5,,,,24,12,5,4,0.7,0.4
2026-01-05T0100,3376A,103.7926,25.4651,曲靖市,南苑二区,,40,40,21,16,11,6,,,,19,7,12,4,1.0,0.5
2026-01-05T0100,3377A,103.7442,25.5259,曲靖市,曲靖师范学院,,28,28,24,19,15,9,,,,15,11,4,3,0.9,0.5
2026-01-05T0100,1264A,118.8694,28.94,衢州市,环保大楼,细颗粒物(PM2.5),94,89,90,70,69,12,,,,43,52,/,/,/,/
2026-01-05T0100,1266A,118.8622,28.9809,衢州市,衢州学院,细颗粒物(PM2.5),73,68,83,53,64,18,,,,36,49,5,5,0.3,0.4
2026-01-05T0100,4097A,118.9646,28.9832,衢州市,衢州三中,细颗粒物(PM2.5),78,74,94,57,70,4,,,,47,46,5,5,0.6,0.6
2026-01-05T0100,1611A,118.5818,24.9116,泉州市,涂山街,颗粒物(PM10),58,66,45,40,25,26,,,,38,22,3,3,0.8,0.5
2026-01-05T0100,1612A,118.597,24.8976,泉州市,津头埔,颗粒物(PM10),58,66,45,40,24,35,,,,36,25,4,5,0.8,0.6
2026-01-05T0100,1613A,118.6669,24.9422,泉州市,万安,细颗粒物(PM2.5),57,57,44,40,21,19,,,,49,27,3,3,0.6,0.5
2026-01-05T0100,4105A,118.6355,24.9148,泉州市,霞新路6号,颗粒物(PM10),54,57,38,34,22,3,,,,58,29,/,/,0.6,0.4
2026-01-05T0100,2626A,88.8873,29.2723,日喀则市,日喀则监测站,,32,32,29,19,13,64,,,,11,14,7,9,0.6,0.6
2026-01-05T0100,3726A,88.8775,29.2425,日喀则市,林业技术推广中心,,31,31,24,18,9,51,,,,10,5,12,11,0.7,0.4
2026-01-05T0100,1659A,119.4711,35.421,日照市,监测站,细颗粒物(PM2.5),198,180,153,148,114,37,,,,49,69,12,17,1.3,1.4
2026-01-05T0100,1660A,119.523,35.4216,日照市,市政府广场,细颗粒物(PM2.5),206,173,128,156,104,24,,,,61,55,14,14,1.1,0.9
2026-01-05T0100,1661A,119.5511,35.4113,日照市,港务局,细颗粒物(PM2.5),201,178,140,151,109,43,,,,44,54,12,12,1.2,0.9
2026-01-05T0100,3507A,119.5326,35.4627,日照市,职业技术学院,细颗粒物(PM2.5),188,190,130,141,93,44,,,,46,51,11,13,1.4,1.2
2026-01-05T0100,3604A,119.3267,35.1043,日照市,岚山环保分局,细颗粒物(PM2.5),225,219,181,175,142,0,,,,84,65,39,41,1.7,1.6
2026-01-05T0100,1835A,111.1922,34.7752,三门峡市,市政府,细颗粒物(PM2.5),88,71,86,65,93,2,,,,53,31,9,7,1.0,0.9
2026-01-05T0100,1836A,111.1588,34.794,三门峡市,开发区,细颗粒物(PM2.5),87,85,110,64,91,26,,,,32,25,5,5,0.8,0.8
2026-01-05T0100,3039A,111.1911,34.7829,三门峡市,三门峡市第一小学,细颗粒物(PM2.5),84,74,89,62,87,13,,,,49,25,7,8,1.0,0.9
2026-01-05T0100,3598A,111.1031,34.719,三门峡市,富达温泉假日酒店,细颗粒物(PM2.5),78,76,88,57,83,12,,,,47,32,11,13,1.6,0.9
2026-01-05T0100,2324A,117.621,26.2626,三明市,三钢,,43,30,36,30,28,18,,,,31,33,6,11,1.6,1.5
2026-01-05T0100,2325A,117.6352,26.2714,三明市,三明二中,,49,47,33,34,23,10,,,,39,28,8,13,1.1,1.2
2026-01-05T0100,2326A,117.6028,26.2377,三明市,三元区政府,,32,28,37,22,25,23,,,,28,31,4,7,0.6,0.9
2026-01-05T0100,1877A,109.4962,18.2682,三亚市,河西子站,,31,31,37,14,16,85,,,,6,7,4,4,0.4,0.5
2026-01-05T0100,3540A,109.7348,18.3443,三亚市,君悦子站,,30,30,43,16,16,68,,,,9,7,5,5,0.5,0.5
2026-01-05T0100,4135A,109.1714,18.3739,三亚市,城东小学站,,50,50,36,23,17,35,,,,18,9,/,/,/,/
2026-01-05T0100,2624A,91.7592,29.234,山南市,山南监测站,,39,39,25,22,12,50,,,,17,9,3,4,0.5,0.3
2026-01-05T0100,2625A,91.7701,29.2436,山南市,山南人民医院,,24,14,18,3,7,74,,,,4,7,2,2,0.3,0.3
2026-01-05T0100,1674A,116.6795,23.3666,汕头市,金平子站,细颗粒物(PM2.5),64,49,48,46,31,70,,,,30,26,5,9,0.8,0.8
2026-01-05T0100,1675A,116.7248,23.3632,汕头市,龙湖子站,,42,38,42,29,23,72,,,,22,20,9,12,/,/
2026-01-05T0100,1676A,116.7257,23.2774,汕头市,濠江子站,,45,36,39,31,27,76,,,,21,19,8,9,/,/
2026-01-05T0100,1677A,116.7518,23.4712,汕头市,澄海子站,细颗粒物(PM2.5),63,,49,45,32,64,,,,27,21,8,9,0.8,0.7
2026-01-05T0100,1678A,116.6088,23.2539,汕头市,潮阳子站,,44,44,46,25,26,68,,,,28,23,6,9,0.7,0.6
2026-01-05T0100,3444A,116.4539,23.2684,汕头市,潮南峡山,,45,45,49,27,30,50,,,,34,20,8,11,0.7,0.6
2026-01-05T0100,3624A,116.4069,23.2533,汕头市,潮南子站,颗粒物(PM10),75,99,66,51,36,31,,,,46,24,6,9,/,/
2026-01-05T0100,1693A,115.3653,22.7751,汕尾市,市环保局,细颗粒物(PM2.5),55,52,39,39,25,90,,,,16,17,8,7,0.6,0.5
2026-01-05T0100,1695A,115.362,22.7926,汕尾市,新城中学,,49,46,42,34,25,96,,,,14,16,5,5,0.4,0.4
2026-01-05T0100,2645A,109.9155,33.8714,商洛市,监测站,细颗粒物(PM2.5),52,47,44,36,38,57,,,,26,20,7,5,0.7,0.5
2026-01-05T0100,3045A,109.9647,33.8486,商洛市,商州区中学,,49,37,46,34,41,76,,,,13,14,6,6,0.6,0.7
2026-01-05T0100,2408A,115.6701,34.4283,商丘市,环境监测站,细颗粒物(PM2.5),189,142,77,142,74,8,,,,42,22,2,2,0.7,0.4
2026-01-05T0100,2409A,115.6458,34.4047,商丘市,粮食局,细颗粒物(PM2.5),172,,73,130,75,10,,,,38,23,4,4,1.2,0.6
2026-01-05T0100,3171A,115.6069,34.4465,商丘市,梁园区档案局,细颗粒物(PM2.5),139,121,69,106,71,0,,,,44,24,4,3,0.8,0.6
2026-01-05T0100,4119A,115.6701,34.3767,商丘市,北海东路185号,细颗粒物(PM2.5),180,146,93,136,75,13,,,,35,27,2,2,0.9,0.5
2026-01-05T0100,4120A,115.6172,34.3704,商丘市,中山大街3号,细颗粒物(PM2.5),142,126,98,108,79,9,,,,41,29,3,3,0.5,0.4
2026-01-05T0100,1141A,121.401,31.2382,上海市,普陀,细颗粒物(PM2.5),92,80,61,68,45,11,,,,62,65,6,7,0.7,0.6
2026-01-05T0100,1142A,121.4774,31.2043,上海市,十五厂,细颗粒物(PM2.5),84,80,60,62,40,21,,,,52,65,7,8,0.7,0.8
2026-01-05T0100,1143A,121.4673,31.3011,上海市,虹口,细颗粒物(PM2.5),82,78,71,60,42,20,,,,42,59,6,11,0.7,0.5
2026-01-05T0100,1147A,121.4253,31.226,上海市,静安监测站,细颗粒物(PM2.5),85,85,60,63,42,17,,,,56,58,6,8,0.6,0.6
2026-01-05T0100,1148A,121.7029,31.1905,上海市,浦东川沙,细颗粒物(PM2.5),87,81,59,64,34,12,,,,54,52,7,8,0.7,0.6
2026-01-05T0100,1149A,121.5339,31.229,上海市,浦东新区监测站,细颗粒物(PM2.5),87,74,55,64,38,15,,,,61,60,6,7,0.7,0.7
2026-01-05T0100,1150A,121.5776,31.2038,上海市,浦东张江,细颗粒物(PM2.5),82,80,57,60,36,11,,,,56,54,6,7,0.8,0.7
2026-01-05T0100,3265A,121.4242,31.3303,上海市,宝山庙行,细颗粒物(PM2.5),87,83,72,64,47,18,,,,48,69,6,7,0.6,0.6
2026-01-05T0100,3266A,121.8789,31.4662,上海市,崇明上实东滩,细颗粒物(PM2.5),79,72,38,58,29,31,,,,24,28,4,5,0.8,0.3
2026-01-05T0100,3268A,121.316,31.2839,上海市,嘉定南翔,细颗粒物(PM2.5),79,77,66,58,47,16,,,,47,66,4,5,0.8,0.7
2026-01-05T0100,3269A,121.3357,30.7455,上海市,金山新城,细颗粒物(PM2.5),89,70,52,66,50,6,,,,70,51,6,9,1.0,0.9
2026-01-05T0100,3270A,121.4996,31.0741,上海市,闵行浦江,细颗粒物(PM2.5),82,78,54,60,38,4,,,,65,57,6,7,0.5,0.5
2026-01-05T0100,3271A,121.2886,31.1663,上海市,青浦徐泾,细颗粒物(PM2.5),87,87,69,64,47,4,,,,60,70,4,6,0.8,0.9
2026-01-05T0100,3272A,121.2193,31.0382,上海市,松江图书馆,颗粒物(PM10),69,88,79,42,36,12,,,,56,69,6,7,0.6,0.6
2026-01-05T0100,3273A,121.3904,31.206,上海市,长宁仙霞,细颗粒物(PM2.5),82,76,57,60,40,9,,,,63,64,5,8,0.6,0.6
2026-01-05T0100,3274A,121.7964,31.0507,上海市,浦东惠南,细颗粒物(PM2.5),82,78,49,60,35,14,,,,49,47,3,6,0.8,0.6
2026-01-05T0100,3544A,121.4891,30.925,上海市,奉贤南桥新城,细颗粒物(PM2.5),83,79,58,61,43,13,,,,65,58,7,9,0.7,0.7
2026-01-05T0100,4183A,121.417401,31.16637,上海市,冠生园路458号,细颗粒物(PM2.5),89,79,60,66,44,20,,,,61,69,5,5,0.5,0.5
2026-01-05T0100,4205A,121.541914,31.268301,上海市,宁武路151号,细颗粒物(PM2.5),93,80,78,69,45,18,,,,50,68,5,6,0.6,0.7
2026-01-05T0100,2382A,117.9758,28.4439,上饶市,市监测站,细颗粒物(PM2.5),62,64,75,44,46,34,,,,26,36,20,13,/,/
2026-01-05T0100,2383A,117.9521,28.4637,上饶市,凤凰光学,颗粒物(PM10),54,58,74,34,42,20,,,,25,36,21,15,0.8,0.8
2026-01-05T0100,3685A,117.897,28.4316,上饶市,双创科技城,细颗粒物(PM2.5),79,,67,58,52,35,,,,32,43,10,11,0.8,0.8
2026-01-05T0100,4211A,118.190438,28.444845,上饶市,裕丰大道,细颗粒物(PM2.5),100,85,90,75,66,20,,,,37,42,49,24,1.0,0.9
2026-01-05T0100,1669A,113.5821,24.7733,韶关市,市八中,细颗粒物(PM2.5),73,74,59,53,40,33,,,,24,32,13,20,0.7,0.7
2026-01-05T0100,1671A,113.5916,24.7973,韶关市,园林处,细颗粒物(PM2.5),78,61,45,57,40,39,,,,22,31,14,21,/,/
2026-01-05T0100,1673A,113.5971,24.6864,韶关市,曲江监测站,,50,50,53,35,37,12,,,,43,30,9,19,0.5,0.7
2026-01-05T0100,2809A,113.6668,24.7756,韶关市,大学路288号,,39,38,48,27,34,24,,,,21,18,11,20,/,/
2026-01-05T0100,3622A,113.5556,24.8082,韶关市,碧湖山庄,细颗粒物(PM2.5),75,77,57,55,37,33,,,,23,21,12,12,0.5,0.5
2026-01-05T0100,2464A,111.5277,27.2442,邵阳市,市化工厂,,45,37,66,31,57,9,,,,19,22,9,11,1.0,1.1
2026-01-05T0100,2466A,111.4327,27.2276,邵阳市,市环保局,,28,20,51,19,56,16,,,,16,20,5,6,1.1,1.1
2026-01-05T0100,4218A,111.446,27.2472,邵阳市,北塔二期4-26地块,,42,,50,29,60,11,,,,20,20,5,5,1.0,1
2026-01-05T0100,4219A,111.4739,27.2282,邵阳市,邵水西路287号,细颗粒物(PM2.5),59,44,57,42,61,12,,,,22,24,12,12,0.8,0.8
2026-01-05T0100,1247A,120.6053,29.9927,绍兴市,城东开发委,细颗粒物(PM2.5),156,130,96,119,81,15,,,,59,54,9,9,0.9,0.9
2026-01-05T0100,2921A,120.5482,30.0003,绍兴市,树下王站,细颗粒物(PM2.5),145,146,106,111,77,9,,,,59,56,7,7,0.9,0.8
2026-01-05T0100,3408A,120.5685,29.936,绍兴市,绍兴中专,细颗粒物(PM2.5),152,141,95,116,73,13,,,,55,49,8,7,0.8,0.7
2026-01-05T0100,3409A,120.4905,30.086,绍兴市,柯桥区政府,细颗粒物(PM2.5),118,136,111,89,83,5,,,,67,65,10,8,0.8,0.8
2026-01-05T0100,3410A,120.8751,30.0249,绍兴市,重华小学,细颗粒物(PM2.5),115,110,78,87,61,30,,,,40,54,7,7,0.6,0.7
2026-01-05T0100,3411A,120.837,30.0137,绍兴市,上虞中学,细颗粒物(PM2.5),125,115,81,95,64,16,,,,53,60,8,9,0.8,0.7
2026-01-05T0100,3560A,120.4715,30.0414,绍兴市,柯桥妇保,细颗粒物(PM2.5),139,124,99,106,80,8,,,,65,54,7,6,1.0,0.9
2026-01-05T0100,3658A,120.6156,30.0762,绍兴市,袍江中学,细颗粒物(PM2.5),143,127,113,109,88,9,,,,63,63,7,7,0.9,0.9
2026-01-05T0100,1356A,114.0948,22.5506,深圳市,通心岭子站,颗粒物(PM10),60,69,58,40,34,17,,,,57,35,6,7,1.0,0.8
2026-01-05T0100,1357A,114.1153,22.5713,深圳市,洪湖,颗粒物(PM10),79,108,74,48,36,1,,,,100,62,8,8,0.8,0.7
2026-01-05T0100,1358A,113.9823,22.5398,深圳市,华侨城,颗粒物(PM10),54,57,53,36,31,47,,,,49,39,/,/,/,/
2026-01-05T0100,1359A,113.9181,22.517,深圳市,南海子站,细颗粒物(PM2.5),77,81,61,56,37,13,,,,96,38,6,6,1.1,0.7
2026-01-05T0100,1360A,114.2345,22.565,深圳市,盐田,,37,37,41,23,22,86,,,,18,22,8,8,0.6,0.6
2026-01-05T0100,1363A,114.4911,22.5381,深圳市,南澳,,30,30,34,18,20,73,,,,9,11,/,/,/,/
2026-01-05T0100,1364A,114.41,22.6346,深圳市,葵涌,,38,38,43,23,26,54,,,,21,21,7,8,0.6,0.6
2026-01-05T0100,1365A,114.2967,22.5978,深圳市,梅沙,,37,37,42,20,21,106,,,,12,16,/,/,/,/
2026-01-05T0100,1366A,114.0563,22.7353,深圳市,观澜,细颗粒物(PM2.5),100,137,85,75,43,0,,,,95,49,7,8,1.0,0.8
2026-01-05T0100,3305A,114.0614,22.556,深圳市,莲花,"颗粒物(PM10),细颗粒物(PM2.5)",63,75,52,45,30,21,,,,70,39,/,/,/,/
2026-01-05T0100,3306A,114.0144,22.6163,深圳市,民治,颗粒物(PM10),60,69,60,36,34,9,,,,104,53,/,/,/,/
2026-01-05T0100,3307A,114.1756,22.6421,深圳市,横岗,颗粒物(PM10),71,92,66,50,37,1,,,,112,47,/,/,/,/
2026-01-05T0100,3447A,114.344,22.7115,深圳市,坪山,颗粒物(PM10),75,99,70,46,37,4,,,,92,48,8,10,0.9,0.8
2026-01-05T0100,3623A,113.8952,22.586,深圳市,西乡,颗粒物(PM10),63,76,52,44,31,29,,,,75,35,6,6,0.9,0.7
2026-01-05T0100,4220A,114.214113,22.713717,深圳市,黄阁路,细颗粒物(PM2.5),75,96,59,55,35,3,,,,88,34,7,7,1.1,0.8
2026-01-05T0100,1099A,123.5058,41.7084,沈阳市,浑南东路,细颗粒物(PM2.5),183,164,143,138,118,4,,,,89,80,14,14,2.1,2
2026-01-05T0100,1100A,123.4238,41.6992,沈阳市,新秀街,细颗粒物(PM2.5),152,139,125,116,97,7,,,,78,68,11,16,1.9,1.9
2026-01-05T0100,1102A,123.5903,41.8412,沈阳市,东陵路,细颗粒物(PM2.5),201,186,134,151,106,9,,,,79,60,6,14,1.9,2
