timepoint,stationcode,longitude,latitude,area,positionname,primarypollutant,aqi,pm10,pm10_24h,pm2_5,pm2_5_24h,o3,o3_24h,o3_8h,o3_8h_24h,no2,no2_24h,so2,so2_24h,co,co_24h
2026-01-05T0600,2568A,102.2503,31.8896,阿坝藏族羌族自治州,马师校,,20,,25,14,17,44,,,,4,12,5,5,0.5,0.6
2026-01-05T0600,3994A,102.2174,31.9016,阿坝藏族羌族自治州,马尔康中学西区,,15,12,20,8,11,47,,,,5,9,6,6,0.4,0.5
2026-01-05T0600,2695A,80.2899,41.1684,阿克苏地区,电视台,,50,44,55,35,35,38,,,,14,22,4,4,0.5,0.5
2026-01-05T0600,2696A,80.2592,41.1541,阿克苏地区,艺术中心,细颗粒物(PM2.5),55,,46,39,36,42,,,,11,15,3,4,0.6,0.6
2026-01-05T0600,2205A,105.699,38.8409,阿拉善盟,蒙二幼,,22,,32,6,17,68,,,,9,16,9,10,0.4,0.5
2026-01-05T0600,2206A,105.7198,38.8508,阿拉善盟,环保局新楼,,20,6,19,3,14,64,,,,8,11,9,9,0.6,0.6
2026-01-05T0600,2708A,88.1266,47.8515,阿勒泰地区,市站,,26,6,8,3,4,83,,,,3,22,2,2,0.4,0.4
2026-01-05T0600,4166A,88.1198,47.7931,阿勒泰地区,阿勒泰路33号,,28,6,11,3,4,88,,,,4,19,2,6,0.3,0.4
2026-01-05T0600,2630A,80.1171,32.4999,阿里地区,阿里监测站,,21,6,3,3,3,67,,,,11,7,9,9,0.5,0.4
2026-01-05T0600,3192A,80.0906,32.5029,阿里地区,阿里藏医院,,28,15,12,11,6,87,,,,3,5,16,11,0.5,0.5
2026-01-05T0600,2644A,109.0088,32.6974,安康市,汉滨区检察院,细颗粒物(PM2.5),75,,54,55,47,6,,,,23,24,4,6,0.8,0.8
2026-01-05T0600,4054A,109.0324,32.6913,安康市,市邮政管理局,细颗粒物(PM2.5),77,67,64,56,55,9,,,,20,26,4,6,0.8,0.9
2026-01-05T0600,2291A,117.0806,30.5181,安庆市,环科院,,,52,81,46,68,40,,,,6,27,4,6,,0.8
2026-01-05T0600,2292A,117.0331,30.5118,安庆市,马山宾馆,细颗粒物(PM2.5),59,50,81,42,66,40,,,,7,25,4,5,0.6,0.7
2026-01-05T0600,2294A,116.9897,30.6146,安庆市,安庆大学,细颗粒物(PM2.5),62,53,82,44,69,49,,,,10,30,4,4,0.6,0.8
2026-01-05T0600,3173A,117.0598,30.5351,安庆市,市人大,细颗粒物(PM2.5),63,54,79,45,67,37,,,,12,28,6,8,0.5,0.6
2026-01-05T0600,3123A,105.9408,26.2431,安顺市,凤凰山,,22,16,15,15,15,38,,,,13,12,10,12,0.9,0.9
2026-01-05T0600,3124A,105.9443,26.2567,安顺市,金钟山,,23,17,14,16,17,38,,,,10,9,11,12,0.8,0.8
2026-01-05T0600,3125A,105.8983,26.248,安顺市,娄家坡,,19,16,19,13,16,41,,,,8,12,14,20,0.8,0.9
2026-01-05T0600,1819A,114.3552,36.1017,安阳市,红庙街,细颗粒物(PM2.5),240,212,174,190,172,10,,,,52,41,8,6,1.8,1.6
2026-01-05T0600,1820A,114.361,36.0681,安阳市,银杏小区,细颗粒物(PM2.5),262,221,178,212,185,10,,,,50,38,8,6,1.7,1.5
2026-01-05T0600,3141A,114.3921,36.0879,安阳市,信访局,细颗粒物(PM2.5),256,228,189,206,180,14,,,,48,38,4,3,1.7,1.4
2026-01-05T0600,3669A,114.4706,36.0634,安阳市,左辅环卫站,细颗粒物(PM2.5),270,242,197,220,181,19,,,,38,32,7,5,1.5,1.3
2026-01-05T0600,4117A,114.2918,36.0769,安阳市,钢三路198号,细颗粒物(PM2.5),280,266,235,230,207,0,,,,42,45,9,7,2.9,2
2026-01-05T0600,1748A,123.0441,41.1201,鞍山市,深沟寺,,43,43,63,28,45,40,,,,29,38,16,14,1.3,1.5
2026-01-05T0600,1749A,123.011,41.0931,鞍山市,太阳城,,42,42,62,25,43,37,,,,38,38,42,22,2.1,1.7
2026-01-05T0600,1750A,123.0483,41.1445,鞍山市,太平,,45,45,86,27,54,30,,,,38,46,22,15,1.2,1.5
2026-01-05T0600,1751A,122.964,41.0968,鞍山市,铁西三道街,细颗粒物(PM2.5),119,141,116,90,62,14,,,,62,57,17,20,2.4,2.2
2026-01-05T0600,1753A,123.0219,41.0822,鞍山市,明达新区,,29,29,61,19,43,51,,,,19,23,22,20,0.8,1.4
2026-01-05T0600,4201A,122.944647,41.082639,鞍山市,兴盛南路290号,细颗粒物(PM2.5),102,131,152,76,71,3,,,,63,64,,17,2.6,1.9
2026-01-05T0600,2195A,107.4206,40.7609,巴彦淖尔市,附二中,,20,20,45,12,27,49,,,,8,16,5,5,0.3,0.4
2026-01-05T0600,2196A,107.37,40.7372,巴彦淖尔市,市环保大楼,,31,31,41,14,19,45,,,,9,15,4,5,0.4,0.5
2026-01-05T0600,1956A,86.1476,41.7529,巴音郭楞蒙古自治州,孔雀公园,颗粒物(PM10),60,69,94,29,32,42,,,,10,28,6,6,0.4,0.4
2026-01-05T0600,1957A,86.1971,41.7166,巴音郭楞蒙古自治州,棉纺厂,颗粒物(PM10),71,92,117,29,25,40,,,,11,27,/,/,/,/
2026-01-05T0600,1958A,86.236,41.7172,巴音郭楞蒙古自治州,经济开发区,颗粒物(PM10),59,68,83,17,21,32,,,,15,21,5,4,0.6,0.6
2026-01-05T0600,3181A,106.776805,31.852614,巴中市,市五中,细颗粒物(PM2.5),53,52,57,37,44,2,,,,17,19,5,5,1.0,1
2026-01-05T0600,3183A,106.7419,31.8654,巴中市,圣泉水务公司,,43,35,46,30,41,21,,,,14,21,4,5,0.5,0.7
2026-01-05T0600,3616A,106.7617,31.8343,巴中市,市中心医院,细颗粒物(PM2.5),88,91,96,65,80,3,,,,19,20,7,7,0.8,1
2026-01-05T0600,2235A,122.7909,45.608,白城市,洮北区环保局,,20,20,29,8,21,55,,,,10,18,4,4,0.2,0.4
2026-01-05T0600,2236A,122.8741,45.5725,白城市,市环保局,,23,,26,16,23,46,,,,16,13,6,6,0.3,0.4
2026-01-05T0600,2231A,126.4219,41.9172,白山市,喜丰,细颗粒物(PM2.5),74,78,77,54,44,10,,,,48,44,14,16,1.5,1.5
2026-01-05T0600,2232A,126.4082,41.9416,白山市,环保局,,,77,69,60,52,8,,,,38,34,,12,1.5,1.5
2026-01-05T0600,2647A,104.1727,36.5448,白银市,第三小学,,38,30,45,26,35,50,,,,14,20,3,11,0.6,0.8
2026-01-05T0600,2648A,104.1467,36.5482,白银市,动力公司,,42,31,43,29,35,51,,,,11,16,1,9,0.6,0.7
2026-01-05T0600,2512A,106.6102,23.901,百色市,市监测站,,12,12,34,3,24,8,,,,11,21,7,11,0.7,0.9
2026-01-05T0600,2513A,106.6524,23.8842,百色市,市中心血站,,12,12,36,6,33,4,,,,23,29,9,10,0.7,0.9
2026-01-05T0600,4133A,106.6273,23.8798,百色市,龙景西路,,7,7,46,3,42,5,,,,8,20,7,11,0.6,0.7
2026-01-05T0600,2270A,117.396,32.9389,蚌埠市,工人疗养院,细颗粒物(PM2.5),95,87,88,71,63,26,,,,24,40,5,7,0.5,0.7
2026-01-05T0600,2271A,117.3606,32.9428,蚌埠市,百货大楼,细颗粒物(PM2.5),88,74,84,65,59,30,,,,20,40,5,6,0.5,0.7
2026-01-05T0600,2273A,117.4183,32.8909,蚌埠市,蚌埠学院,细颗粒物(PM2.5),93,78,69,69,58,36,,,,20,39,4,5,0.5,0.6
2026-01-05T0600,2274A,117.3534,32.9672,蚌埠市,淮上区政府,细颗粒物(PM2.5),93,75,88,69,68,25,,,,24,43,2,4,0.5,0.7
2026-01-05T0600,2275A,117.3143,32.8977,蚌埠市,高新区,细颗粒物(PM2.5),93,,74,69,62,34,,,,21,40,6,8,0.5,0.6
2026-01-05T0600,3715A,117.3091,32.9314,蚌埠市,蚌埠田家炳中学,细颗粒物(PM2.5),88,76,87,65,65,34,,,,21,47,4,8,0.4,0.7
2026-01-05T0600,1585A,109.8761,40.6533,包头市,市环境监测站,,16,12,33,3,7,50,,,,10,13,6,7,0.2,0.2
2026-01-05T0600,1587A,109.9992,40.5843,包头市,包头八中,,,18,38,14,12,19,,,,36,22,,4,0.5,0.3
2026-01-05T0600,1589A,109.8641,40.6288,包头市,惠龙物流,,15,7,26,3,7,48,,,,10,13,9,10,0.4,0.4
2026-01-05T0600,1590A,110.0376,40.5546,包头市,东河鸿龙湾,,,10,31,3,6,31,,,,19,25,,9,0.5,0.4
2026-01-05T0600,3283A,109.9154,40.5684,包头市,滨河大厦,,,17,24,14,10,39,,,,9,11,,4,0.5,0.5
2026-01-05T0600,3419A,109.9449,40.6259,包头市,包头市委党校,,22,22,35,3,12,28,,,,27,16,12,11,0.6,0.4
2026-01-05T0600,3683A,109.8332,40.6577,包头市,昆区政府,,15,15,32,7,10,48,,,,12,15,8,9,0.5,0.5
2026-01-05T0600,1931A,107.0802,34.3129,宝鸡市,竹园沟,,28,20,28,19,28,39,,,,7,10,5,6,0.3,0.4
2026-01-05T0600,1933A,107.1429,34.3549,宝鸡市,监测站,,35,,42,24,39,46,,,,17,22,4,4,0.6,0.7
2026-01-05T0600,1934A,107.1172,34.3759,宝鸡市,技工学校,,39,,42,27,43,49,,,,6,13,2,4,0.6,0.6
2026-01-05T0600,1936A,107.2025,34.3518,宝鸡市,文理学院,,38,29,45,26,41,45,,,,16,24,4,4,0.4,0.5
2026-01-05T0600,1937A,107.2396,34.3626,宝鸡市,三迪小学,,42,,46,29,47,44,,,,18,24,3,4,0.6,0.7
2026-01-05T0600,4155A,107.1721,34.3558,宝鸡市,滨河北路,,32,29,45,22,36,48,,,,17,22,6,6,0.6,0.7
2026-01-05T0600,4308A,107.3898,34.3601,宝鸡市,陈仓区北开路21号,细颗粒物(PM2.5),57,,62,40,59,73,,,,15,24,117,36,0.9,0.8
2026-01-05T0600,1051A,115.4803,38.8568,保定市,游泳馆,细颗粒物(PM2.5),102,99,111,76,86,5,,,,74,75,7,9,1.4,1.4
2026-01-05T0600,1052A,115.509,38.8895,保定市,华电二区,细颗粒物(PM2.5),108,93,97,81,79,,,,,,53,7,5,1.6,1.4
2026-01-05T0600,1053A,115.4588,38.9037,保定市,接待中心,,,,97,,72,,,20,,,57,,4,,1.0
2026-01-05T0600,1054A,115.4484,38.8344,保定市,地表水厂,细颗粒物(PM2.5),114,139,130,86,87,8,,,,68,71,4,9,1.4,1.2
2026-01-05T0600,3581A,115.3136,38.9511,保定市,满城区生态环境分局,"颗粒物(PM10),细颗粒物(PM2.5)",62,73,114,44,69,0,,,,63,68,4,7,1.2,1.2
2026-01-05T0600,3582A,115.4709,38.7628,保定市,清苑区第二中学,细颗粒物(PM2.5),155,184,169,118,102,,,,,77,78,9,9,1.3,1.2
2026-01-05T0600,3583A,115.6231,39.0223,保定市,徐水物探局,细颗粒物(PM2.5),110,124,135,83,88,3,,,,55,66,11,11,1.4,1.2
2026-01-05T0600,4004A,115.4199,38.8665,保定市,双鹰农机,细颗粒物(PM2.5),92,129,130,68,71,10,,,,53,58,11,10,1.2,1
2026-01-05T0600,4034A,115.515,38.8589,保定市,植保所站,细颗粒物(PM2.5),117,115,117,88,96,0,,,,84,83,3,4,1.3,1.3
2026-01-05T0600,2594A,99.1589,25.1137,保山市,市环境监测站,,19,19,21,13,15,30,,,,6,8,6,4,0.5,0.4
2026-01-05T0600,2595A,99.1616,25.1381,保山市,市环保局,,15,15,22,9,20,38,,,,5,6,4,4,0.3,0.4
2026-01-05T0600,1867A,109.1435,21.4085,北海市,海滩公园,细颗粒物(PM2.5),102,100,54,76,34,29,,,,23,16,8,10,0.8,0.6
2026-01-05T0600,1868A,109.0983,21.466,北海市,新市环保局,细颗粒物(PM2.5),100,81,55,75,41,28,,,,22,19,7,6,0.9,0.7
2026-01-05T0600,1869A,109.1775,21.5232,北海市,北海工业园,细颗粒物(PM2.5),102,99,64,76,41,23,,,,20,19,10,11,1.0,0.8
2026-01-05T0600,3400A,109.1844,21.4396,北海市,龙潭自来水厂,细颗粒物(PM2.5),104,87,53,78,36,24,,,,22,15,8,9,1.0,0.7
2026-01-05T0600,1001A,116.3611,39.8786,北京市,万寿西宫,,40,40,74,24,42,13,,,,52,59,4,6,0.6,0.8
2026-01-05T0600,1003A,116.4174,39.9289,北京市,东四,,33,33,68,20,41,9,,,,52,49,3,5,1.0,1.1
2026-01-05T0600,1004A,116.4073,39.8858,北京市,天坛,细颗粒物(PM2.5),67,71,66,48,41,2,,,,61,51,2,3,1.5,1.1
2026-01-05T0600,1005A,116.4622,39.9364,北京市,农展馆,,30,30,71,19,42,10,,,,48,49,5,6,0.7,1.1
2026-01-05T0600,1006A,116.3399,39.9293,北京市,官园,,38,38,68,21,42,9,,,,55,52,6,7,0.7,0.9
2026-01-05T0600,1007A,116.2879,39.9613,北京市,海淀万柳,,33,32,64,17,33,1,,,,65,58,4,4,0.8,0.9
2026-01-05T0600,1008A,116.6635,40.1349,北京市,顺义新城,,18,12,51,3,26,57,,,,11,38,4,6,0.4,0.7
2026-01-05T0600,1009A,116.6275,40.327,北京市,怀柔镇,,18,18,31,11,17,36,,,,10,22,6,6,0.5,0.6
2026-01-05T0600,1010A,116.2295,40.217,北京市,昌平镇,,17,16,47,8,25,54,,,,9,35,5,5,0.4,0.7
2026-01-05T0600,1011A,116.3968,39.982,北京市,奥体中心,,30,26,60,15,36,10,,,,60,63,5,6,0.7,1
2026-01-05T0600,3418A,116.8336,40.4095,北京市,密云新城,,21,6,23,3,12,67,,,,4,16,3,3,0.4,0.5
2026-01-05T0600,3671A,116.0879,39.9725,北京市,门头沟三家店,,26,26,52,10,25,7,,,,37,38,2,3,0.5,0.6
2026-01-05T0600,3672A,116.1507,39.8246,北京市,丰台云岗,,46,46,66,25,34,4,,,,64,54,4,4,0.7,0.7
2026-01-05T0600,3674A,115.9578,39.7602,北京市,房山燕山,,50,50,57,33,32,10,,,,40,36,4,5,0.6,0.6
2026-01-05T0600,3675A,116.4669,39.7734,北京市,大兴旧宫,颗粒物(PM10),70,90,98,50,54,1,,,,85,57,4,5,1.5,1.3
2026-01-05T0600,3694A,115.9859,40.4562,北京市,延庆石河营,,19,19,46,11,27,41,,,,14,29,4,4,0.4,0.8
2026-01-05T0600,3695A,116.6151,40.3052,北京市,怀柔新城,,15,12,26,8,17,45,,,,6,15,4,4,0.2,0.3
2026-01-05T0600,3696A,116.2542,39.8764,北京市,丰台小屯,,32,32,74,16,37,5,,,,59,61,4,5,0.6,0.9
2026-01-05T0600,3697A,116.8399,40.3843,北京市,密云镇,,21,7,35,3,16,66,,,,4,30,1,2,0.3,0.5
2026-01-05T0600,4057A,115.9423,40.4431,北京市,延庆百泉,,22,22,46,10,27,37,,,,13,26,2,3,0.4,0.6
2026-01-05T0600,4058A,116.6598,39.9164,北京市,通州新华,,18,13,97,9,56,32,,,,35,65,3,7,0.4,1.2
2026-01-05T0600,4182A,116.1942,39.9158,北京市,石景山八角,,37,37,63,18,31,3,,,,62,55,4,3,0.4,0.6
2026-01-05T0600,4194A,117.078628,40.151726,北京市,平谷新城,细颗粒物(PM2.5),80,81,81,59,55,4,,,,43,46,2,3,1.4,1.1
2026-01-05T0600,1761A,123.8274146,41.31234549,本溪市,大峪,细颗粒物(PM2.5),110,116,114,83,75,3,,,,51,50,7,13,2.3,2.2
2026-01-05T0600,1763A,123.7169,41.3094,本溪市,彩屯,细颗粒物(PM2.5),200,189,155,150,121,1,,,,58,57,,13,3.5,3
2026-01-05T0600,1764A,123.7672166,41.28649327,本溪市,东明,细颗粒物(PM2.5),133,128,113,101,88,3,,,,53,54,7,15,2.5,2.6
2026-01-05T0600,1765A,123.799345,41.266614,本溪市,新立屯,,40,38,74,28,50,7,,,,42,49,11,16,1.1,2.6
2026-01-05T0600,1766A,123.829144,41.336777,本溪市,威宁,细颗粒物(PM2.5),139,161,144,106,94,6,,,,58,56,7,10,2.3,2.2
2026-01-05T0600,2587A,105.287,27.3133,毕节市,八中,,39,,14,27,13,58,,,,6,9,8,9,0.7,0.8
2026-01-05T0600,2588A,105.3079,27.2987,毕节市,师专,,32,29,18,22,12,65,,,,7,9,7,7,0.8,0.9
2026-01-05T0600,4263A,105.3688,27.3598,毕节市,工业大道,,32,25,18,22,14,53,,,,4,6,9,9,/,/
2026-01-05T0600,1629A,117.9961,37.3604,滨州市,第二水厂,颗粒物(PM10),67,83,178,47,115,12,,,,42,55,9,15,0.9,1.3
2026-01-05T0600,1630A,117.9789,37.3931,滨州市,北中新校,细颗粒物(PM2.5),132,122,181,100,147,0,,,,68,57,6,11,1.0,1.2
2026-01-05T0600,3514A,117.9379,37.3959,滨州市,中海酒店,细颗粒物(PM2.5),195,163,189,146,165,9,,,,59,53,8,13,1.9,1.2
2026-01-05T0600,3515A,117.9381509,37.35547456,滨州市,开发区一中,细颗粒物(PM2.5),110,105,180,83,153,7,,,,47,48,10,19,0.9,1.2
2026-01-05T0600,3516A,118.0914,37.6938,滨州市,金海六路,细颗粒物(PM2.5),70,71,175,51,137,20,,,,38,62,9,18,0.8,1.3
2026-01-05T0600,4028A,117.9955,37.3752,滨州市,滨州市西街道办事处,细颗粒物(PM2.5),119,,179,90,154,4,,,,45,47,8,14,1.1,1.4
2026-01-05T0600,2311A,115.8071,33.8399,亳州市,污水处理厂,细颗粒物(PM2.5),170,149,73,129,61,8,,,,40,29,3,4,1.0,0.5
2026-01-05T0600,2312A,115.7789,33.8519,亳州市,三国揽胜宫,细颗粒物(PM2.5),176,145,79,133,60,6,,,,30,22,4,3,1.0,0.6
2026-01-05T0600,3332A,115.7631,33.803,亳州市,亳州学院,细颗粒物(PM2.5),144,145,66,110,58,9,,,,29,22,2,2,0.9,0.5
2026-01-05T0600,2693A,82.0482,44.8553,博尔塔拉蒙古自治州,市党校,颗粒物(PM10),65,79,113,42,60,41,,,,13,29,2,3,0.9,1.2
2026-01-05T0600,2694A,82.0805,44.8966,博尔塔拉蒙古自治州,市环保局,颗粒物(PM10),80,109,136,51,66,30,,,,29,37,5,8,1.2,1.2
2026-01-05T0600,1071A,116.8733,38.2922,沧州市,沧县城建局,细颗粒物(PM2.5),83,93,172,61,156,4,,,,59,65,4,8,1.2,1.7
2026-01-05T0600,1072A,116.8462,38.3189,沧州市,电视转播站,细颗粒物(PM2.5),110,93,182,83,160,0,,,,61,59,8,9,1.3,1.5
2026-01-05T0600,1073A,116.8588,38.3161,沧州市,市环保局,细颗粒物(PM2.5),117,107,177,88,162,5,,,,58,58,8,9,1.4,1.5
2026-01-05T0600,3324A,116.8011,38.294,沧州市,河北水利电力学院,细颗粒物(PM2.5),90,95,186,67,134,2,,,,63,62,12,12,1.2,1.6
2026-01-05T0600,2622A,97.1813,31.1289,昌都市,昌都监测站,,47,47,37,3,11,66,,,,2,12,1,1,0.3,0.4
2026-01-05T0600,3719A,97.1707,31.1428,昌都市,昌都会议中心,,18,7,12,3,7,56,,,,2,2,2,2,0.4,0.4
2026-01-05T0600,2692A,87.2722,44.0298,昌吉回族自治州,新区政务中心,细颗粒物(PM2.5),102,97,136,76,93,13,,,,51,56,7,7,1.0,1.4
2026-01-05T0600,3613A,87.3069,44.0093,昌吉回族自治州,亚心广场,细颗粒物(PM2.5),140,163,148,107,100,3,,,,56,51,7,7,1.5,1.5
2026-01-05T0600,4164A,87.2057,43.9289,昌吉回族自治州,财政所,细颗粒物(PM2.5),72,69,98,52,66,65,,,,10,23,4,5,0.6,0.7
2026-01-05T0600,1120A,125.2874,43.9024,长春市,客车厂,,32,,64,22,65,27,,,,36,38,10,12,0.4,0.8
2026-01-05T0600,1121A,125.2943,43.8508,长春市,邮电学院,,28,,74,19,61,37,,,,18,35,8,13,0.2,0.7
2026-01-05T0600,1122A,125.3648,43.8745,长春市,劳动公园,,22,22,74,8,48,36,,,,25,37,8,8,0.5,1
2026-01-05T0600,1123A,125.3233,43.8781,长春市,园林处,,36,,62,25,54,39,,,,17,30,10,11,0.3,0.7
2026-01-05T0600,1124A,125.4604,43.7904,长春市,净月潭,,,23,76,23,60,30,,,,22,31,,7,0.4,0.8
2026-01-05T0600,1126A,125.38,43.8422,长春市,经开区环卫处,,20,20,79,14,52,33,,,,32,43,21,11,0.4,0.8
2026-01-05T0600,1127A,125.234,43.7761,长春市,高新区管委会,,20,,90,14,78,40,,,,18,39,6,8,0.6,1.1
2026-01-05T0600,1128A,125.1695,43.83,长春市,岱山公园,,22,18,77,15,69,24,,,,35,39,9,10,0.3,0.8
2026-01-05T0600,4281A,125.334645,43.916281,长春市,北亚泰大街1068号,,20,18,66,14,57,33,,,,26,38,7,14,0.4,0.8
2026-01-05T0600,1335A,113.082,28.2421,长沙市,经开区环保局,,,,37,,33,,,23,,,25,,3,,0.5
2026-01-05T0600,1336A,112.8873,28.2202,长沙市,高开区环保局,,,,39,,35,,,24,,,17,,4,,0.8
2026-01-05T0600,1337A,113.0785,28.2012,长沙市,马坡岭,,,,38,,33,,,28,,,25,,4,,0.9
2026-01-05T0600,1338A,112.9448,28.1894,长沙市,湖南师范大学,,,,39,,31,,,30,,,23,,4,,0.6
2026-01-05T0600,1339A,113.0177,28.1322,长沙市,雨花区环保局,,,,33,,31,,,27,,,21,,6,,0.6
2026-01-05T0600,1340A,112.9795,28.2593,长沙市,伍家岭,,,,41,,34,,,33,,,18,,4,,0.5
2026-01-05T0600,1341A,113.002,28.1944,长沙市,火车新站,细颗粒物(PM2.5),70,56,57,51,36,40,,,,11,19,8,8,0.5,0.5
2026-01-05T0600,1342A,112.9846,28.1177,长沙市,天心区环保局,,,,40,,34,,,28,,,27,,4,,0.6
2026-01-05T0600,1343A,112.8906,28.1307,长沙市,湖南中医药大学,,,,37,,33,,,27,,,23,,5,,0.6
2026-01-05T0600,1727A,113.1146,36.1547,长治市,清华站,细颗粒物(PM2.5),128,,72,97,79,19,,,,34,28,11,15,1.4,1.2
2026-01-05T0600,1730A,113.0887,36.2126,长治市,审计局,细颗粒物(PM2.5),140,,66,107,75,20,,,,30,22,9,13,1.4,1.1
2026-01-05T0600,1731A,113.0845,36.1856,长治市,长治八中,细颗粒物(PM2.5),138,106,76,105,78,16,,,,26,18,8,12,1.5,1.3
2026-01-05T0600,2845A,113.1561,36.1912,长治市,德盛苑,细颗粒物(PM2.5),156,,70,119,79,16,,,,31,22,8,11,1.6,1.2
2026-01-05T0600,3568A,113.0603,36.0464,长治市,向阳小学,细颗粒物(PM2.5),132,118,105,100,94,28,,,,32,32,9,15,1.5,1.4
2026-01-05T0600,3569A,112.8788,36.315,长治市,屯留一中,细颗粒物(PM2.5),139,,88,106,91,24,,,,33,30,2,5,1.3,1.2
2026-01-05T0600,4189A,113.113092,36.199482,长治市,英华南巷50号,细颗粒物(PM2.5),122,106,73,92,73,23,,,,24,19,7,11,1.3,1.2
2026-01-05T0600,4190A,113.23666,36.33435,长治市,学府街1号,细颗粒物(PM2.5),109,95,69,82,77,8,,,,45,29,6,12,3.2,1.6
2026-01-05T0600,1854A,111.696,28.9725,常德市,市二中,细颗粒物(PM2.5),64,51,53,46,49,3,,,,22,22,4,4,0.9,0.8
2026-01-05T0600,3138A,111.7152,29.0288,常德市,武陵区永安,细颗粒物(PM2.5),59,52,56,42,42,15,,,,15,22,3,3,0.9,0.9
2026-01-05T0600,3139A,111.6891,28.9881,常德市,鼎城区玉霞,细颗粒物(PM2.5),67,58,57,48,50,1,,,,23,26,7,7,1.0,1
2026-01-05T0600,3140A,111.6651,29.0526,常德市,武陵区长庚,细颗粒物(PM2.5),68,54,53,49,46,12,,,,16,22,3,3,0.8,0.8
2026-01-05T0600,1196A,119.9524,31.7586,常州市,市监测站,细颗粒物(PM2.5),113,114,117,85,85,32,,,,28,75,3,5,0.7,1
2026-01-05T0600,1200A,119.9351,31.703,常州市,武进监测站,细颗粒物(PM2.5),112,107,110,84,82,28,,,,29,72,8,8,0.6,0.9
2026-01-05T0600,3002A,119.9701,31.813,常州市,行政中心,细颗粒物(PM2.5),110,100,104,83,81,29,,,,26,73,5,8,0.7,0.9
2026-01-05T0600,3003A,120.0434,31.7726,常州市,经开区,细颗粒物(PM2.5),104,131,134,78,82,33,,,,19,68,9,9,0.9,1.2
2026-01-05T0600,3010A,119.8919,31.7892,常州市,钟楼,细颗粒物(PM2.5),114,109,111,86,84,29,,,,26,65,6,7,0.7,0.9
2026-01-05T0600,3429A,119.8595,31.706,常州市,武进经发区,细颗粒物(PM2.5),117,102,112,88,94,30,,,,24,65,7,8,0.8,1
2026-01-05T0600,3430A,119.5812,31.7256,常州市,金坛城区,细颗粒物(PM2.5),110,92,102,83,88,24,,,,,53,6,8,0.9,1
2026-01-05T0600,4089A,119.9551,31.863,常州市,崇义南街5-H号,细颗粒物(PM2.5),125,,98,95,88,26,,,,27,74,5,7,0.7,1
2026-01-05T0600,2220A,120.4318,41.588,朝阳市,西梁,,49,39,96,34,58,9,,,,47,46,8,13,1.2,1.3
2026-01-05T0600,2221A,120.452,41.565,朝阳市,河畔小区,,26,26,65,14,48,35,,,,22,36,6,10,0.7,1.2
2026-01-05T0600,2222A,120.4176,41.5648,朝阳市,八里堡,,30,30,72,19,43,19,,,,36,39,9,13,0.9,1.2
2026-01-05T0600,3026A,116.6179,23.6608,潮州市,市政府,,42,42,64,27,34,27,,,,21,25,8,11,0.4,0.5
2026-01-05T0600,4036A,116.646,23.676,潮州市,金山,,35,25,49,24,32,27,,,,10,15,3,5,0.3,0.4
2026-01-05T0600,2473A,113.0116,25.8228,郴州市,市职中,,,12,50,10,44,,,,,8,14,2,4,0.6,0.6
2026-01-05T0600,2475A,113.0381,25.8074,郴州市,市审计局,,20,14,51,14,44,20,,,,11,16,3,4,/,/
2026-01-05T0600,2476A,113.0348,25.7757,郴州市,市环保局,,16,16,58,9,43,25,,,,12,20,2,4,0.6,0.7
2026-01-05T0600,4252A,113.0138,25.8011,郴州市,好美居路49号,,20,,48,14,49,29,,,,6,15,2,4,/,/
2026-01-05T0600,1431A,103.9727,30.7242,成都市,金泉两河,细颗粒物(PM2.5),73,58,48,53,32,3,,,,48,38,2,2,0.8,0.7
2026-01-05T0600,1432A,104.1423,30.6765,成都市,十里店,细颗粒物(PM2.5),55,51,43,39,30,4,,,,50,39,3,3,0.7,0.7
2026-01-05T0600,1433A,104.0594,30.5765,成都市,三瓦窑,细颗粒物(PM2.5),79,64,48,58,38,2,,,,52,38,3,3,0.8,0.7
2026-01-05T0600,1434A,104.1122,30.6306,成都市,沙河铺,细颗粒物(PM2.5),79,69,53,58,46,1,,,,49,38,3,4,0.7,0.7
2026-01-05T0600,2880A,104.0219,30.6561,成都市,大石西路,细颗粒物(PM2.5),79,76,55,58,37,9,,,,40,35,5,5,0.7,0.7
2026-01-05T0600,3136A,104.2724,30.559,成都市,龙泉驿区区政府,,49,,29,34,26,24,,,,9,16,5,6,0.7,0.7
2026-01-05T0600,3357A,104.0028,30.6891,成都市,金博路,细颗粒物(PM2.5),54,51,35,38,28,0,,,,56,39,5,5,1.1,0.9
2026-01-05T0600,3359A,104.056,30.5228,成都市,华阳,细颗粒物(PM2.5),62,51,40,44,35,3,,,,47,33,3,3,0.8,0.7
2026-01-05T0600,3488A,104.387954,30.746684,成都市,青石路225号,细颗粒物(PM2.5),69,54,41,50,34,5,,,,40,27,5,5,0.5,0.6
2026-01-05T0600,3489A,104.0788,30.4054,成都市,科学城,,50,40,42,35,38,4,,,,27,18,6,6,0.8,0.8
2026-01-05T0600,4011A,103.8505,30.6946,成都市,光华大道三段,细颗粒物(PM2.5),68,59,48,49,34,3,,,,39,30,3,3,0.8,0.7
2026-01-05T0600,4144A,104.3257,30.6406,成都市,八角井街185号,颗粒物(PM10),61,72,50,40,33,14,,,,24,21,1,3,1.0,0.9
2026-01-05T0600,4224A,104.2433276,30.53529463,成都市,鲸龙路1057号,细颗粒物(PM2.5),55,43,40,39,34,8,,,,36,29,5,5,0.4,0.4
2026-01-05T0600,1062A,117.9531,40.908,承德市,铁路,,32,32,58,21,28,31,,,,16,31,3,7,0.5,0.8
2026-01-05T0600,1063A,117.9397,40.9763,承德市,中国银行,,42,42,63,21,28,7,,,,29,30,2,3,0.5,0.7
2026-01-05T0600,4073A,117.9462,40.95,承德市,杏林街1号,,45,44,57,31,34,11,,,,29,36,3,6,0.7,0.8
2026-01-05T0600,4274A,117.7994,40.9605,承德市,滨河大街98号,,14,13,39,3,19,42,,,,15,18,2,5,0.2,0.6
2026-01-05T0600,2314A,117.4698,30.6617,池州市,池州学院,细颗粒物(PM2.5),79,62,77,58,70,41,,,,14,30,3,5,0.5,0.7
2026-01-05T0600,3237A,117.4918,30.6617,池州市,展览馆,细颗粒物(PM2.5),75,64,80,55,64,44,,,,19,33,2,3,0.7,0.9
2026-01-05T0600,3333A,117.5626,30.695,池州市,第八中学,细颗粒物(PM2.5),83,73,84,61,70,42,,,,22,37,3,6,0.7,0.9
2026-01-05T0600,3334A,117.5037,30.6242,池州市,第十二中学,细颗粒物(PM2.5),77,62,77,56,66,44,,,,19,39,4,4,0.8,1
2026-01-05T0600,1744A,118.9229,42.2816,赤峰市,松山一中,,35,35,47,14,25,8,,,,39,35,6,14,0.9,1.1
2026-01-05T0600,1745A,118.9588,42.2733,赤峰市,哈达街,,28,28,39,15,21,25,,,,25,27,12,10,0.9,0.9
2026-01-05T0600,1746A,118.8792,42.2551,赤峰市,天义路,,33,24,29,23,24,25,,,,25,28,12,11,0.8,0.7
2026-01-05T0600,3058A,119.2656,42.0356,赤峰市,银河街,,44,44,86,30,54,4,,,,34,25,21,24,2.6,1.8
2026-01-05T0600,3286A,118.9359,42.3146,赤峰市,桥北物流园区,,,33,31,17,21,11,,,,34,30,,13,0.9,0.8
2026-01-05T0600,2521A,107.3473,22.4137,崇左市,市环保局江州分局,,20,,70,14,53,27,,,,8,20,6,8,0.6,0.7
2026-01-05T0600,4256A,107.375,22.3736,崇左市,石景林东路7号,,23,,64,16,60,31,,,,10,24,7,8,0.5,0.7
2026-01-05T0600,3207A,118.31131,32.3033,滁州市,市政府原办公楼,细颗粒物(PM2.5),87,83,76,64,62,33,,,,25,32,5,6,0.5,0.6
2026-01-05T0600,3331A,118.3268,32.2633,滁州市,图书馆,细颗粒物(PM2.5),92,71,71,68,62,36,,,,19,27,8,9,0.6,0.7
2026-01-05T0600,4101A,118.3196,32.3335,滁州市,银山路666号,细颗粒物(PM2.5),112,,65,84,80,22,,,,23,26,8,8,0.8,0.9
2026-01-05T0600,4102A,118.3426,32.2979,滁州市,黄山路555号,细颗粒物(PM2.5),107,87,83,80,77,33,,,,26,31,10,10,0.7,0.8
2026-01-05T0600,2606A,101.5379,25.0492,楚雄彝族自治州,市经济开发区,,20,16,17,14,14,28,,,,16,14,5,4,0.4,0.5
2026-01-05T0600,4153A,101.5536,25.0343,楚雄彝族自治州,团结路562号,,25,,14,17,10,20,,,,20,7,2,2,0.4,0.4
2026-01-05T0600,2549A,107.5087,31.2186,达州市,市环境监测站,细颗粒物(PM2.5),67,61,69,48,51,2,,,,21,32,5,5,0.5,0.6
2026-01-05T0600,2550A,107.4988,31.2132,达州市,凤凰小区,细颗粒物(PM2.5),64,58,71,46,53,5,,,,16,28,3,4,0.5,0.5
2026-01-05T0600,2551A,107.5081,31.1987,达州市,达县机关宾馆,细颗粒物(PM2.5),73,58,78,53,59,5,,,,18,31,1,2,0.7,0.7
2026-01-05T0600,2552A,107.4644,31.2124,达州市,市政中心,颗粒物(PM10),59,67,78,41,48,6,,,,19,31,6,6,0.4,0.5
2026-01-05T0600,2614A,100.2168,25.5818,大理白族自治州,大理市环境监测站,,23,,14,16,15,63,,,,5,9,6,6,0.5,0.5
2026-01-05T0600,2615A,100.1542,25.7055,大理白族自治州,大理古城,,17,,14,10,12,54,,,,5,9,8,8,0.5,0.6
2026-01-05T0600,1109A,121.6119,38.974,大连市,甘井子,,40,40,43,23,31,51,,,,22,30,15,12,0.1,0.3
2026-01-05T0600,1110A,121.565,38.9509,大连市,周水子,,36,36,44,20,31,49,,,,20,36,12,12,0.4,0.6
2026-01-05T0600,1111A,121.5637,38.8849,大连市,星海三站,,34,34,36,20,28,56,,,,18,26,10,11,0.6,0.7
2026-01-05T0600,1112A,121.6301,38.9117,大连市,青泥洼桥,,,32,44,22,30,45,,,,25,37,,11,0.4,0.6
2026-01-05T0600,1113A,121.6248,38.8643,大连市,傅家庄,,31,31,36,17,25,51,,,,16,27,12,11,0.1,0.3
2026-01-05T0600,1114A,121.5117,38.8636,大连市,七贤岭,,34,34,35,18,23,58,,,,12,18,11,10,0.7,0.7
2026-01-05T0600,1116A,121.7507,39.1339,大连市,金州,,39,39,44,27,33,56,,,,17,23,12,13,0.5,0.5
2026-01-05T0600,1117A,121.7811,39.0495,大连市,开发区,,34,34,47,20,30,54,,,,11,26,6,7,0.5,0.8
2026-01-05T0600,1118A,121.9762,39.0631,大连市,双D港,,45,45,40,28,26,55,,,,16,17,16,16,0.6,0.6
2026-01-05T0600,4082A,121.2548,38.8188,大连市,旅顺,,20,18,52,12,34,64,,,,8,19,8,11,0.5,0.8
2026-01-05T0600,1789A,124.8085,46.0381,大庆市,大同区,,18,18,34,6,20,47,,,,12,16,5,6,0.2,0.4
2026-01-05T0600,1790A,125.1166,46.5255,大庆市,龙凤区,,18,16,29,12,14,40,,,,28,27,12,10,0.5,0.6
2026-01-05T0600,1791A,124.8894,46.4007,大庆市,红岗区,,20,20,24,12,16,48,,,,11,18,6,6,0.5,0.5
2026-01-05T0600,1792A,125.1391,46.578,大庆市,萨尔图区,,17,17,28,7,13,46,,,,13,21,8,9,0.3,0.4
2026-01-05T0600,1793A,124.9026,46.6217,大庆市,让胡路区,,39,,24,27,23,57,,,,7,11,8,8,0.3,0.4
2026-01-05T0600,3481A,125.127,46.6277,大庆市,萨区政府监测点,,23,23,24,7,10,47,,,,14,21,9,9,0.7,0.7
2026-01-05T0600,1723A,113.2926,40.0759,大同市,云冈宾馆,,26,26,25,16,10,32,,,,17,19,14,8,1.5,0.8
2026-01-05T0600,1724A,113.3437,40.0921,大同市,大同大学,,27,27,30,14,12,36,,,,16,16,13,8,1.1,0.7
2026-01-05T0600,1725A,113.2637,40.129,大同市,安家小村,,29,29,32,10,11,26,,,,25,17,18,11,1.9,0.6
2026-01-05T0600,3282A,113.3399,40.0586,大同市,大同市卫生学校,,28,27,31,19,11,38,,,,16,18,15,8,1.6,0.9
2026-01-05T0600,3565A,113.1371,40.1122,大同市,云冈站,,42,42,40,18,14,3,,,,34,25,14,11,0.9,0.8
2026-01-05T0600,3566A,113.1186,40.2556,大同市,图书馆,,21,21,43,11,18,21,,,,11,16,4,10,0.4,0.8
2026-01-05T0600,3567A,113.5931,40.0459,大同市,区一中,细颗粒物(PM2.5),52,39,55,36,29,27,,,,20,22,9,15,0.9,0.8
2026-01-05T0600,4199A,113.2798248,40.09972476,大同市,魏都大道141号,,26,26,39,14,13,28,,,,25,19,12,7,1.3,0.7
2026-01-05T0600,2269A,124.1068,50.4091,大兴安岭地区,科技局,,25,,17,17,14,53,,,,2,2,6,5,0.4,0.3
2026-01-05T0600,3663A,124.117,50.4279,大兴安岭地区,红旗社区,,19,,7,13,6,52,,,,8,4,5,5,0.3,0.2
2026-01-05T0600,1600A,124.33,40.0625,丹东市,江湾东路,,32,32,67,20,48,53,,,,15,29,8,17,0.5,1.3
2026-01-05T0600,1601A,124.4242,40.1513,丹东市,临江后街,,30,30,59,17,36,50,,,,17,29,6,14,0.8,1.3
2026-01-05T0600,1602A,124.3935,40.1461,丹东市,元宝山,,33,33,54,20,40,54,,,,14,28,9,14,0.7,1.1
2026-01-05T0600,1603A,124.3634,40.1093,丹东市,民主桥,,,37,65,14,35,53,,,,14,31,,13,0.5,1
2026-01-05T0600,3541A,109.5726195,19.51688767,儋州市,第一中学子站,,37,37,39,18,20,63,,,,3,4,4,4,0.5,0.5
2026-01-05T0600,3542A,109.5567,19.5187,儋州市,东坡学校子站,,31,31,37,14,17,66,,,,3,3,5,4,0.4,0.4
2026-01-05T0600,2616A,98.5611,24.4273,德宏傣族景颇族自治州,德宏州监测站,,43,35,49,30,39,5,,,,24,22,6,7,0.6,0.7
2026-01-05T0600,3677A,98.5887,24.4366,德宏傣族景颇族自治州,芒市人民政府综合楼,,32,,46,22,31,16,,,,12,15,8,9,0.6,0.7
2026-01-05T0600,1901A,104.424,31.1209,德阳市,东山公园,,50,38,31,35,27,33,,,,12,16,3,2,0.8,0.8
2026-01-05T0600,1902A,104.3827,31.1318,德阳市,西小区,颗粒物(PM10),53,55,52,34,31,18,,,,30,31,2,2,0.9,0.9
2026-01-05T0600,1904A,104.3553,31.1091,德阳市,耐火材料厂,细颗粒物(PM2.5),62,50,43,44,35,2,,,,35,34,1,1,0.9,0.9
2026-01-05T0600,4145A,104.4144,31.1495,德阳市,市林业局,细颗粒物(PM2.5),63,,38,45,35,9,,,,24,25,2,2,0.7,0.8
2026-01-05T0600,1622A,116.3034,37.4675,德州市,儿童乐园,细颗粒物(PM2.5),213,207,186,163,143,1,,,,71,58,14,17,2.3,1.7
2026-01-05T0600,1624A,116.2992,37.4449,德州市,监理站,细颗粒物(PM2.5),163,156,181,124,143,11,,,,71,61,17,19,1.7,1.3
2026-01-05T0600,3066A,116.2722,37.438,德州市,九衢泉纯净水厂,细颗粒物(PM2.5),192,183,181,144,146,0,,,,68,58,15,21,1.8,1.2
2026-01-05T0600,3371A,116.3693,37.44,德州市,开发区人民医院,细颗粒物(PM2.5),168,171,186,127,134,7,,,,86,74,16,18,1.6,1.2
2026-01-05T0600,3511A,116.5687,37.3331,德州市,陵城艺术中心,细颗粒物(PM2.5),199,188,189,149,150,0,,,,77,69,13,19,2.0,1.5
2026-01-05T0600,4292A,116.352738,37.420875,德州市,新河东路,细颗粒物(PM2.5),160,146,175,122,142,4,,,,78,69,14,17,2.0,1.5
2026-01-05T0600,2621A,99.7054,27.8319,迪庆藏族自治州,迪庆州站,,22,17,23,15,17,47,,,,7,9,5,5,0.3,0.4
2026-01-05T0600,3180A,99.7122,27.8129,迪庆藏族自治州,质量技术监督局,,19,15,22,13,17,52,,,,7,11,5,5,0.4,0.5
2026-01-05T0600,4257A,104.6092,35.5962,定西市,将台街,细颗粒物(PM2.5),60,48,57,43,42,27,,,,31,24,9,10,0.7,0.6
2026-01-05T0600,4309A,104.6159,35.5701,定西市,正龙路62号,细颗粒物(PM2.5),54,54,65,38,49,36,,,,9,12,4,7,0.7,0.7
2026-01-05T0600,1390A,113.7943,23.0132,东莞市,东城石井,细颗粒物(PM2.5),59,62,57,42,36,1,,,,67,50,8,9,0.9,0.8
2026-01-05T0600,1391A,113.7384,22.9659,东莞市,南城西平,细颗粒物(PM2.5),74,80,67,54,39,0,,,,83,64,10,10,0.9,0.8
2026-01-05T0600,3319A,113.7283,23.041,东莞市,万江金泰,,48,48,71,29,40,29,,,,44,50,7,6,0.8,0.9
2026-01-05T0600,4129A,113.8666,23.1062,东莞市,裕兴路,颗粒物(PM10),56,61,69,36,35,24,,,,52,45,10,9,0.8,0.8
2026-01-05T0600,4130A,114.0076,22.9739,东莞市,教育路1号,细颗粒物(PM2.5),82,112,99,60,52,2,,,,68,66,6,7,1.0,1
2026-01-05T0600,4131A,113.7981,22.8124,东莞市,长怡路1号,颗粒物(PM10),85,119,80,62,40,5,,,,89,64,14,11,1.0,0.8
2026-01-05T0600,1666A,118.6612,37.4313,东营市,市环保局,细颗粒物(PM2.5),58,48,155,41,123,21,,,,38,47,7,15,0.8,1.2
2026-01-05T0600,3036A,118.6903,37.4337,东营市,开发区管委会,细颗粒物(PM2.5),62,56,149,44,122,24,,,,34,45,8,17,0.9,1.3
2026-01-05T0600,3365A,118.5721,37.5654,东营市,垦利区民丰路,,45,36,144,31,118,31,,,,28,49,5,9,0.8,1.3
2026-01-05T0600,3498A,118.5063,37.8606,东营市,河口城区,,39,39,153,12,116,48,,,,22,45,5,7,0.6,1.1
2026-01-05T0600,3646A,118.4979,37.4623,东营市,胜利站,细颗粒物(PM2.5),79,89,186,58,144,13,,,,48,57,11,19,1.4,1.6
2026-01-05T0600,3734A,118.5753,37.4405,东营市,理想之城,细颗粒物(PM2.5),70,66,162,51,133,11,,,,43,61,4,11,0.9,1.4
2026-01-05T0600,1591A,110.0024,39.8127,鄂尔多斯市,综合楼,,22,22,33,7,11,42,,,,25,21,4,9,0.4,0.6
2026-01-05T0600,1592A,109.9485,39.8259,鄂尔多斯市,巴音孟克林场办事处,,17,17,44,9,12,52,,,,14,22,6,10,0.3,0.5
2026-01-05T0600,1593A,109.7734,39.5987,鄂尔多斯市,康泽苑,,,9,25,9,12,60,,,,6,10,,6,0.3,0.3
2026-01-05T0600,1594A,109.8121,39.5987,鄂尔多斯市,华泰汽车城,,18,12,30,7,11,55,,,,7,14,2,3,0.3,0.4
2026-01-05T0600,1595A,109.9734,39.7884,鄂尔多斯市,奥林花园,,24,24,47,3,9,55,,,,14,21,3,5,0.4,0.6
2026-01-05T0600,2436A,114.894,30.3989,鄂州市,市政府,细颗粒物(PM2.5),77,,50,56,44,12,,,,29,23,5,4,0.8,0.8
2026-01-05T0600,2437A,114.8986,30.3714,鄂州市,赵家坝,细颗粒物(PM2.5),77,62,44,56,48,9,,,,24,16,8,7,0.6,0.6
2026-01-05T0600,3654A,114.8093,30.4091,鄂州市,精准医疗中心,细颗粒物(PM2.5),55,51,55,39,49,6,,,,30,18,4,4,0.9,1
2026-01-05T0600,2454A,109.4978,30.2979,恩施土家族苗族自治州,湖北民院,细颗粒物(PM2.5),72,52,46,52,50,8,,,,11,16,6,6,0.8,0.8
2026-01-05T0600,3549A,109.5061,30.3771,恩施土家族苗族自治州,龙凤新区,细颗粒物(PM2.5),60,46,52,43,47,6,,,,6,11,7,7,0.6,0.6
2026-01-05T0600,2499A,108.3411,21.6159,防城港市,沙万,细颗粒物(PM2.5),100,83,111,75,50,22,,,,20,24,6,8,0.7,0.7
2026-01-05T0600,2500A,108.3515,21.7733,防城港市,防城档案局,细颗粒物(PM2.5),87,78,77,64,54,15,,,,17,20,5,6,0.7,0.8
2026-01-05T0600,2501A,108.3506,21.6414,防城港市,大海花园,细颗粒物(PM2.5),98,80,65,73,46,22,,,,14,16,6,10,0.9,0.9
2026-01-05T0600,1371A,113.1293,23.0065,佛山市,湾梁,,,,83,,48,,,106,,,70,,,,
2026-01-05T0600,1372A,113.1082,23.0477,佛山市,华材职中,,,105,108,64,55,,,,,96,77,7,7,0.9,0.9
2026-01-05T0600,1373A,113.1439,23.045,佛山市,南海气象局,细颗粒物(PM2.5),89,115,88,66,55,0,,,,97,74,/,/,/,/
2026-01-05T0600,1374A,113.2879,22.8094,佛山市,顺德苏岗,细颗粒物(PM2.5),83,90,65,61,40,1,,,,95,59,/,/,1.2,0.8
2026-01-05T0600,1376A,112.8384,22.8678,佛山市,高明孔堂,细颗粒物(PM2.5),80,79,69,59,50,17,,,,48,36,/,/,/,/
2026-01-05T0600,1377A,112.8835,23.1584,佛山市,三水监测站,细颗粒物(PM2.5),90,88,106,67,65,23,,,,56,69,14,11,0.8,0.8
2026-01-05T0600,1378A,112.8668,23.185,佛山市,三水云东海,细颗粒物(PM2.5),93,88,89,69,57,1,,,,70,54,/,/,/,/
2026-01-05T0600,3625A,113.2568,22.7629,佛山市,容桂街道办,,,,76,68,49,2,,,,104,67,/,/,/,/
2026-01-05T0600,1282A,119.2681,26.0506,福州市,师大,,,25,38,15,16,36,,,,27,31,,8,0.4,0.5
2026-01-05T0600,1283A,119.2983,26.1028,福州市,五四北路,,27,27,45,15,18,30,,,,23,35,4,5,0.5,0.6
2026-01-05T0600,1284A,119.2648,26.0769,福州市,杨桥西路,,,27,37,14,16,30,,,,23,26,,5,/,/
2026-01-05T0600,3048A,119.5799,26.0937,福州市,九龙,,39,39,30,19,13,5,,,,55,25,4,5,0.6,0.6
2026-01-05T0600,3526A,119.5188,25.9666,福州市,吴航,,,40,36,21,17,8,,,,47,32,,6,0.6,0.7
2026-01-05T0600,4104A,119.3106,26.0648,福州市,路通桥巷6号,,29,27,42,20,22,28,,,,21,24,/,/,/,/
2026-01-05T0600,1755A,123.7974,41.8494,抚顺市,望花区,细颗粒物(PM2.5),207,234,191,157,150,4,,,,65,70,,15,2.6,2.4
2026-01-05T0600,1756A,123.9161,41.8827,抚顺市,顺城区,细颗粒物(PM2.5),169,213,162,128,119,4,,,,66,68,13,13,1.9,2.1
2026-01-05T0600,1757A,124.0437,41.8615,抚顺市,东洲区,细颗粒物(PM2.5),204,171,144,154,123,4,,,,66,64,12,15,2.4,2.1
2026-01-05T0600,1758A,123.9246,41.8638,抚顺市,新抚区,细颗粒物(PM2.5),169,156,168,128,132,6,,,,57,65,6,10,1.9,2.2
2026-01-05T0600,1759A,124.0972,41.8961,抚顺市,大伙房水库,细颗粒物(PM2.5),129,119,130,98,108,3,,,,60,61,,15,1.9,2
2026-01-05T0600,1760A,123.708,41.8386,抚顺市,沈抚新城,细颗粒物(PM2.5),192,169,171,144,145,10,,,,70,72,6,12,2.7,2.4
2026-01-05T0600,2377A,116.3544,27.9833,抚州市,市站,细颗粒物(PM2.5),59,49,50,42,39,32,,,,14,16,13,10,0.7,0.5
2026-01-05T0600,2378A,116.3562,27.9631,抚州市,血防站,"颗粒物(PM10),细颗粒物(PM2.5)",52,53,55,36,38,28,,,,16,20,5,7,0.8,0.8
2026-01-05T0600,2379A,116.3561,28.0007,抚州市,采茶剧团,细颗粒物(PM2.5),67,52,50,48,40,25,,,,9,13,12,8,0.9,0.8
2026-01-05T0600,2380A,116.3854,27.9648,抚州市,医学分院,细颗粒物(PM2.5),55,49,54,39,37,33,,,,13,17,4,11,0.7,0.6
2026-01-05T0600,2207A,121.6095,41.9978,阜新市,工业园区,,31,31,53,8,21,49,,,,14,19,10,12,0.4,0.5
2026-01-05T0600,2208A,121.6567,42.0188,阜新市,长青街,,,16,32,7,14,51,,,,12,16,,8,0.3,0.4
2026-01-05T0600,2209A,121.6672,42.07,阜新市,农业园区,,19,9,30,7,11,60,,,,8,10,7,9,0.3,0.4
2026-01-05T0600,2211A,121.6343,42.0455,阜新市,玉龙新城,,24,24,52,11,18,42,,,,16,25,8,8,0.4,0.5
2026-01-05T0600,2301A,115.8276,32.8929,阜阳市,市监测站,细颗粒物(PM2.5),70,70,85,51,63,32,,,,17,29,4,5,0.6,0.7
2026-01-05T0600,2303A,115.8551,32.8606,阜阳市,开发区,细颗粒物(PM2.5),68,69,76,49,62,40,,,,13,28,5,5,0.4,0.5
2026-01-05T0600,2875A,115.783962,32.889217,阜阳市,阜阳职业技术学院,颗粒物(PM10),58,65,69,33,52,34,,,,14,19,7,6,0.7,0.7
2026-01-05T0600,3468A,115.79,32.8614,阜阳市,市规划展馆,,,64,74,56,62,,,,,14,21,7,6,0.5,0.5
2026-01-05T0600,3469A,115.835101,32.918568,阜阳市,枣园社区,细颗粒物(PM2.5),75,65,81,55,64,38,,,,17,29,5,6,0.4,0.4
2026-01-05T0600,2669A,102.9097,34.9841,甘南藏族自治州,州政府,"颗粒物(PM10),细颗粒物(PM2.5)",57,63,80,40,46,8,,,,41,34,2,4,0.9,0.8
2026-01-05T0600,3380A,102.8915,34.9618,甘南藏族自治州,甘肃民族师范学院,颗粒物(PM10),66,82,79,42,45,17,,,,42,36,5,6,0.5,0.6
2026-01-05T0600,2570A,101.96,30.048,甘孜藏族自治州,水桥子,,13,6,9,3,4,25,,,,25,16,6,6,0.6,0.7
2026-01-05T0600,3065A,101.9534,29.9976,甘孜藏族自治州,州环保局,,13,13,14,3,5,40,,,,14,13,5,6,0.4,0.5
2026-01-05T0600,2363A,114.9368,25.8663,赣州市,地委,颗粒物(PM10),51,52,54,35,33,31,,,,13,23,6,8,0.9,0.8
2026-01-05T0600,2364A,114.946,25.8483,赣州市,气象台,颗粒物(PM10),55,59,62,31,29,36,,,,14,31,10,3,0.8,0.8
2026-01-05T0600,2365A,114.932,25.8332,赣州市,市图书馆,,49,40,50,34,35,32,,,,15,29,4,4,0.7,0.8
2026-01-05T0600,2366A,114.8905,25.8472,赣州市,华坚鞋城,,49,46,51,34,32,31,,,,15,26,4,6,0.5,0.5
2026-01-05T0600,3109A,115.0094,25.8614,赣州市,赣县区卫计委,,,,51,36,42,32,,,,11,23,,8,0.5,0.5
2026-01-05T0600,2684A,106.2753,36.0057,固原市,监测站,,38,38,33,25,28,70,,,,12,22,4,4,0.5,0.7
2026-01-05T0600,2685A,106.2384,36.0189,固原市,新区,,37,37,30,24,24,72,,,,9,18,2,3,0.6,0.7
2026-01-05T0600,2544A,106.6307,30.4577,广安市,市委,,,52,55,45,43,,,,,19,25,5,5,0.9,0.9
2026-01-05T0600,2545A,106.6266,30.4662,广安市,友谊中学,细颗粒物(PM2.5),58,48,47,41,44,11,,,,5,12,6,6,0.6,0.7
2026-01-05T0600,2547A,106.6386,30.4551,广安市,广电花园,细颗粒物(PM2.5),60,48,51,43,44,1,,,,15,21,8,8,0.7,0.7
2026-01-05T0600,2902A,106.6347,30.4868,广安市,北辰小学,细颗粒物(PM2.5),59,42,50,42,47,14,,,,10,15,18,17,0.9,1
2026-01-05T0600,2524A,105.8211,32.4444,广元市,老城,,37,37,44,20,28,7,,,,49,39,4,6,0.8,0.7
2026-01-05T0600,2526A,105.8629,32.429,广元市,监测站,,38,38,42,22,26,19,,,,30,26,4,3,0.9,0.8
2026-01-05T0600,3617A,105.8047,32.4167,广元市,经开区,,40,40,41,25,29,2,,,,44,35,2,2,0.7,0.8
2026-01-05T0600,1345A,113.2346,23.1423,广州市,广雅中学,"颗粒物(PM10),细颗粒物(PM2.5)",72,93,91,52,50,4,,,,77,72,6,4,0.7,0.9
2026-01-05T0600,1346A,113.2611,23.105,广州市,市五中,细颗粒物(PM2.5),59,66,76,42,44,21,,,,92,82,14,9,/,/
2026-01-05T0600,1348A,113.3477,23.0916,广州市,广东商学院,细颗粒物(PM2.5),68,68,68,49,43,2,,,,96,67,6,7,0.7,0.7
2026-01-05T0600,1349A,113.4332,23.105,广州市,市八十六中,颗粒物(PM10),51,51,56,34,37,1,,,,86,69,8,8,/,/
2026-01-05T0600,1350A,113.3506,22.9488,广州市,番禺中学,细颗粒物(PM2.5),84,98,90,62,52,4,,,,103,70,4,5,1.0,0.8
2026-01-05T0600,1351A,113.2147,23.3918,广州市,花都师范,颗粒物(PM10),57,64,74,38,42,38,,,,41,57,8,7,0.6,0.7
2026-01-05T0600,1352A,113.2599,23.1329,广州市,市监测站,"颗粒物(PM10),细颗粒物(PM2.5)",59,68,72,42,41,9,,,,91,76,4,2,/,/
2026-01-05T0600,1353A,113.5618,23.3119,广州市,九龙镇镇龙,细颗粒物(PM2.5),62,68,64,44,38,28,,,,50,40,10,6,0.5,0.5
2026-01-05T0600,1354A,113.2764,23.1544,广州市,麓湖,细颗粒物(PM2.5),53,51,53,37,34,6,,,,80,68,8,8,0.3,0.4
2026-01-05T0600,2846A,113.3209,23.1323,广州市,体育西,颗粒物(PM10),54,57,70,37,42,36,,,,79,73,8,7,0.6,0.8
2026-01-05T0600,3298A,113.5718,23.5493,广州市,从化街口,细颗粒物(PM2.5),67,68,61,48,42,1,,,,69,41,22,10,0.7,0.8
2026-01-05T0600,3299A,113.3463,23.369,广州市,白云竹料,细颗粒物(PM2.5),60,66,76,43,45,10,,,,56,50,4,4,0.6,0.6
2026-01-05T0600,3300A,113.2981,23.2365,广州市,白云嘉禾,颗粒物(PM10),56,61,70,34,35,9,,,,75,63,6,5,/,/
2026-01-05T0600,3301A,113.4256,23.1716,广州市,黄埔科学城,,49,49,50,33,30,53,,,,27,39,6,6,0.6,0.6
2026-01-05T0600,3302A,113.3942,23.0485,广州市,番禺大学城,"颗粒物(PM10),细颗粒物(PM2.5)",62,74,66,44,35,2,,,,92,60,9,10,0.7,0.6
2026-01-05T0600,3303A,113.4923,22.8169,广州市,南沙黄阁,细颗粒物(PM2.5),84,114,71,62,36,3,,,,93,63,16,11,/,/
2026-01-05T0600,3304A,113.534,22.7893,广州市,南沙街,细颗粒物(PM2.5),88,104,64,65,35,1,,,,92,46,8,7,1.0,0.7
2026-01-05T0600,3443A,113.2905,23.5541,广州市,花都梯面,"颗粒物(PM10),细颗粒物(PM2.5)",54,58,51,38,29,20,,,,45,39,13,7,/,/
2026-01-05T0600,3445A,113.786,23.7479,广州市,从化良口,,24,24,26,15,19,41,,,,12,14,7,7,/,/
2026-01-05T0600,3446A,113.805,23.2614,广州市,增城荔城,,35,30,36,24,26,52,,,,17,22,11,8,0.5,0.5
2026-01-05T0600,2506A,109.604387,23.066791,贵港市,江南子站,,9,9,71,3,58,22,,,,13,25,3,7,0.8,0.9
2026-01-05T0600,2508A,109.5669,23.1065,贵港市,荷城子站,,10,7,68,7,52,23,,,,11,24,3,7,0.6,0.7
2026-01-05T0600,3405A,109.5886,23.1172,贵港市,新世纪学校,,9,9,79,6,55,21,,,,14,26,/,/,0.6,0.6
2026-01-05T0600,4260A,109.5933,23.095,贵港市,中山路155-3号,,23,,67,16,55,24,,,,12,26,/,/,0.8,0.8
2026-01-05T0600,1439A,106.6863,26.6035,贵阳市,马鞍山,,32,24,21,22,19,17,,,,9,13,4,5,/,/
2026-01-05T0600,1441A,106.6241,26.6266,贵阳市,鉴湖路,,22,22,25,12,12,43,,,,12,16,3,4,0.6,0.6
2026-01-05T0600,1442A,106.7468,26.6344,贵阳市,燕子冲,,42,34,29,29,26,24,,,,13,14,6,8,0.9,0.8
2026-01-05T0600,1443A,106.6556,26.4362,贵阳市,碧云窝,,29,29,36,17,20,28,,,,11,18,3,8,/,/
2026-01-05T0600,1445A,106.6963,26.6063,贵阳市,红边门,,25,22,26,17,21,34,,,,8,17,11,10,/,/
2026-01-05T0600,1446A,106.7162383,26.56964667,贵阳市,新华路,,39,39,32,19,21,32,,,,14,16,10,8,0.8,0.7
2026-01-05T0600,1447A,106.6742,26.542,贵阳市,太慈桥,,25,24,24,17,17,39,,,,12,18,3,4,/,/
2026-01-05T0600,4230A,106.688212,26.56952,贵阳市,花果园大街66号,,32,,16,22,19,31,,,,13,17,3,4,/,/
2026-01-05T0600,4231A,106.687268,26.516892,贵阳市,漓江路57号,,25,24,30,17,21,33,,,,14,20,8,9,0.8,0.8
2026-01-05T0600,1864A,110.3091,25.2705,桂林市,龙隐路小学,,13,10,41,9,41,22,,,,10,18,7,6,0.5,0.5
2026-01-05T0600,1865A,110.2849361,25.22909545,桂林市,八中,,20,,42,14,42,20,,,,14,23,9,7,0.8,0.7
2026-01-05T0600,3531A,110.296,25.1254,桂林市,旅游学院,,10,7,39,7,34,23,,,,12,19,5,3,0.7,0.6
2026-01-05T0600,4222A,110.1835,25.2444,桂林市,环湖路276号,,14,14,44,7,36,23,,,,11,21,6,6,0.6,0.6
2026-01-05T0600,4301A,110.2803,25.2773,桂林市,信义路13号,,15,15,41,8,35,23,,,,12,23,7,5,0.8,0.7
2026-01-05T0600,2674A,100.2262,34.4854,果洛藏族自治州,玛沁县大武镇,,18,18,31,6,11,41,,,,2,3,16,13,0.4,0.4
2026-01-05T0600,1130A,126.5557,45.8109,哈尔滨市,松北商大,,28,,40,19,27,41,,,,18,29,6,9,0.4,0.6
2026-01-05T0600,1132A,126.6162,45.719,哈尔滨市,南岗学府路,,27,27,45,8,29,30,,,,25,27,27,14,0.5,0.7
2026-01-05T0600,1133A,126.6894,45.7733,哈尔滨市,太平宏伟公园,,30,30,36,21,28,33,,,,26,24,39,27,0.5,0.5
2026-01-05T0600,1134A,126.6361,45.7672,哈尔滨市,道外承德广场,,37,37,48,19,26,41,,,,21,26,13,13,0.8,0.5
2026-01-05T0600,1136A,126.644,45.7261,哈尔滨市,动力和平路,,28,28,41,16,27,37,,,,21,27,16,18,0.6,0.7
2026-01-05T0600,1137A,126.5933,45.7479,哈尔滨市,道里建国路,,29,22,35,20,30,36,,,,20,24,17,16,0.1,0.4
2026-01-05T0600,1138A,126.6127,45.6119,哈尔滨市,平房东轻厂,,46,42,45,32,40,12,,,,42,41,7,9,0.5,0.5
2026-01-05T0600,1139A,126.5875,45.9827,哈尔滨市,呼兰师专,,39,,42,27,42,21,,,,30,28,6,9,0.6,0.7
2026-01-05T0600,1140A,126.6299,45.6799,哈尔滨市,省农科院,,37,37,62,19,43,35,,,,26,39,19,16,0.5,1.1
2026-01-05T0600,4282A,126.6769,45.7379,哈尔滨市,华山路1号,,23,22,38,16,24,37,,,,22,27,33,29,0.7,0.7
2026-01-05T0600,4283A,126.9717,45.5356,哈尔滨市,解放大街52号,细颗粒物(PM2.5),69,61,73,50,85,12,,,,38,33,16,18,0.9,0.9
2026-01-05T0600,2688A,93.5124,42.8176,哈密市,地区监测站,细颗粒物(PM2.5),58,62,58,41,38,33,,,,16,20,2,4,0.6,0.4
2026-01-05T0600,2689A,93.5014,42.8312,哈密市,哈密师范学校,颗粒物(PM10),60,69,67,41,32,24,,,,32,28,5,9,0.9,0.6
2026-01-05T0600,2671A,100.9016,36.9464,海北藏族自治州,海晏县西海镇,细颗粒物(PM2.5),78,75,54,57,45,61,,,,19,15,15,11,1.0,0.8
2026-01-05T0600,3867A,102.074,36.5056,海东市,平安区公安局北苑,细颗粒物(PM2.5),63,53,82,45,68,47,,,,10,20,13,22,0.7,1.1
2026-01-05T0600,4163A,102.0984,36.5119,海东市,滨河路,细颗粒物(PM2.5),69,64,79,50,72,40,,,,35,36,18,22,0.9,1.1
2026-01-05T0600,1410A,110.3189,20.0596,海口市,海南大学,,29,29,39,13,17,88,,,,7,7,6,6,0.3,0.3
2026-01-05T0600,1411A,110.2827,20.0051,海口市,秀英海南医院,,29,29,39,12,16,80,,,,7,8,7,7,0.2,0.3
2026-01-05T0600,1412A,110.3391,19.9979,海口市,海南师范大学,,29,29,40,13,17,83,,,,9,9,6,5,0.3,0.4
2026-01-05T0600,1413A,110.3303,20.0359,海口市,龙华路环保局宿舍,,,,41,,19,,,114,,,10,,,,0.6
2026-01-05T0600,3539A,110.5111,19.9737,海口市,桂林洋子站,,29,29,38,14,17,73,,,,9,9,/,/,/,/
2026-01-05T0600,4134A,110.1952,20.0451,海口市,长滨二路9号,,28,24,34,12,16,89,,,,4,5,/,/,/,/
2026-01-05T0600,2673A,100.6158,36.2985,海南藏族自治州,共和县恰卜恰镇,,27,27,37,12,22,33,,,,16,19,10,11,0.6,0.6
2026-01-05T0600,2676A,97.373,37.376,海西蒙古族藏族自治州,德令哈市,,24,,20,11,10,74,,,,2,7,11,12,0.4,0.5
2026-01-05T0600,1049A,114.492,36.5712,邯郸市,矿院,细颗粒物(PM2.5),247,197,187,197,200,13,,,,55,51,4,4,1.6,1.3
2026-01-05T0600,1050A,114.4839,36.6136,邯郸市,丛台公园,细颗粒物(PM2.5),230,188,215,180,198,15,,,,49,52,6,6,1.5,1.4
2026-01-05T0600,3458A,114.7893,36.5592,邯郸市,香泉濮院小区,细颗粒物(PM2.5),244,226,207,194,194,11,,,,69,50,10,7,1.7,1.4
2026-01-05T0600,3580A,114.1998,36.4439,邯郸市,峰峰矿区临水派出所,细颗粒物(PM2.5),216,,156,166,220,24,,,,43,48,20,12,2.3,1.8
2026-01-05T0600,4068A,114.5209,36.7697,邯郸市,建安街268号,细颗粒物(PM2.5),218,173,206,168,204,6,,,,63,62,8,8,1.6,1.6
2026-01-05T0600,4069A,114.5488,36.6177,邯郸市,丛台东路558号,细颗粒物(PM2.5),250,266,256,200,212,6,,,,63,60,7,7,1.8,1.4
2026-01-05T0600,2635A,107.0155,33.0707,汉中市,市监测站,细颗粒物(PM2.5),78,64,59,57,53,4,,,,33,24,4,5,1.0,0.8
2026-01-05T0600,2636A,107.0083,33.114,汉中市,鑫源开发区,细颗粒物(PM2.5),74,55,64,54,61,11,,,,32,30,4,7,0.8,0.8
2026-01-05T0600,2637A,107.0072,33.0323,汉中市,南郑大河坎水厂,细颗粒物(PM2.5),75,70,68,55,54,10,,,,15,19,5,5,1.0,1
2026-01-05T0600,1223A,120.2073,30.2111,杭州市,滨江,细颗粒物(PM2.5),104,86,110,78,89,17,,,,30,58,6,6,0.7,0.8
2026-01-05T0600,1224A,120.0625,30.2737,杭州市,西溪,细颗粒物(PM2.5),102,100,108,76,83,6,,,,50,64,8,9,1.0,1
2026-01-05T0600,1226A,120.3417,30.315,杭州市,下沙,细颗粒物(PM2.5),118,108,120,89,97,11,,,,39,62,8,8,1.1,1
2026-01-05T0600,1227A,120.1252,30.2465,杭州市,卧龙桥,细颗粒物(PM2.5),104,104,111,78,85,4,,,,35,47,10,10,0.9,1
2026-01-05T0600,1228A,120.1902,30.2691,杭州市,浙江农大,细颗粒物(PM2.5),107,86,120,80,94,15,,,,34,63,3,4,0.7,0.8
2026-01-05T0600,1230A,120.1195,30.3121,杭州市,和睦小学,细颗粒物(PM2.5),112,103,126,84,91,19,,,,24,55,5,6,0.9,1
2026-01-05T0600,1231A,120.3076,30.4146,杭州市,临平镇,细颗粒物(PM2.5),104,90,129,78,98,27,,,,20,59,7,8,0.8,0.8
2026-01-05T0600,1232A,120.2753,30.1839,杭州市,城厢镇,细颗粒物(PM2.5),100,98,109,75,82,19,,,,35,62,8,8,0.7,0.7
2026-01-05T0600,1233A,120.0883,30.1808,杭州市,云栖,细颗粒物(PM2.5),110,99,100,83,81,0,,,,44,50,3,4,1.0,1
2026-01-05T0600,3557A,119.9463,30.0496,杭州市,镇二中,细颗粒物(PM2.5),113,88,92,85,86,1,,,,56,57,5,6,0.9,1.1
2026-01-05T0600,3558A,119.7184,30.2367,杭州市,市府大楼,细颗粒物(PM2.5),118,136,125,89,83,1,,,,45,46,9,10,1.1,1.1
2026-01-05T0600,3656A,120.1554,30.2863,杭州市,消防大队,细颗粒物(PM2.5),107,96,110,80,91,15,,,,29,56,6,7,0.4,0.4
2026-01-05T0600,1270A,117.1957,31.7845,合肥市,明珠广场,,,73,87,58,71,32,,,,24,48,,5,0.8,1
2026-01-05T0600,1271A,117.307,31.8765,合肥市,三里街,细颗粒物(PM2.5),77,63,75,56,60,38,,,,24,46,5,5,0.7,0.8
2026-01-05T0600,1272A,117.2587,31.8703,合肥市,琥珀山庄,细颗粒物(PM2.5),89,75,83,66,69,36,,,,18,42,8,8,0.9,1
2026-01-05T0600,1275A,117.2593,31.9376,合肥市,庐阳区,细颗粒物(PM2.5),79,73,86,58,61,33,,,,27,48,2,3,0.7,0.9
2026-01-05T0600,1276A,117.345251,31.861615,合肥市,瑶海区,细颗粒物(PM2.5),74,63,74,54,59,47,,,,19,44,5,5,0.8,0.9
2026-01-05T0600,1277A,117.3033,31.7967,合肥市,包河区,细颗粒物(PM2.5),83,66,81,61,69,38,,,,29,58,6,6,0.8,0.9
2026-01-05T0600,1278A,117.278,31.7392,合肥市,滨湖新区,细颗粒物(PM2.5),89,68,84,66,76,48,,,,22,44,4,4,0.8,0.9
2026-01-05T0600,1279A,117.1324,31.8395,合肥市,高新区,细颗粒物(PM2.5),87,83,80,64,64,35,,,,21,43,3,4,0.7,0.8
2026-01-05T0600,3464A,117.3802,31.9148,合肥市,高教基地,细颗粒物(PM2.5),85,73,73,63,66,42,,,,23,32,7,7,0.7,0.8
2026-01-05T0600,4098A,117.2518,31.8404,合肥市,中国科学技术大学,细颗粒物(PM2.5),78,68,80,57,62,42,,,,17,43,5,5,0.6,0.7
2026-01-05T0600,3614A,79.9241,37.0878,和田地区,地区环保局,,31,31,45,12,26,50,,,,6,12,1,2,0.8,0.8
2026-01-05T0600,3615A,79.9132,37.1137,和田地区,市环保局,,35,35,43,8,21,51,,,,16,18,1,2,0.9,0.4
2026-01-05T0600,2517A,108.0496,24.6957,河池市,市环保站,,12,11,14,8,15,17,,,,8,12,2,2,0.8,0.8
2026-01-05T0600,4302A,108.0901,24.6945,河池市,上任中路54号,,13,,16,9,11,12,,,,12,14,3,4,0.7,0.7
2026-01-05T0600,1697A,114.6962,23.7538,河源市,东埔,,35,32,39,24,28,32,,,,26,36,6,7,0.7,0.8
2026-01-05T0600,1698A,114.6895,23.7232,河源市,老城,,26,26,38,17,23,14,,,,29,26,6,7,0.8,0.8
2026-01-05T0600,3374A,115.5562,35.089,菏泽市,定陶老年大学,细颗粒物(PM2.5),233,215,136,183,118,9,,,,39,29,3,3,1.2,1
2026-01-05T0600,4114A,115.4239,35.2593,菏泽市,黄河路600号,细颗粒物(PM2.5),269,246,152,219,133,8,,,,45,33,2,3,1.6,1.3
2026-01-05T0600,4115A,115.5025,35.2727,菏泽市,菏泽市人社局,细颗粒物(PM2.5),262,245,148,212,125,6,,,,44,29,12,4,1.2,0.9
2026-01-05T0600,4184A,115.479691,35.244011,菏泽市,永昌路1号,细颗粒物(PM2.5),265,244,152,215,130,12,,,,42,30,7,6,1.0,0.8
2026-01-05T0600,4193A,115.471542,35.280012,菏泽市,长城路999号,细颗粒物(PM2.5),255,243,149,205,124,9,,,,44,30,8,5,1.6,1.3
2026-01-05T0600,2514A,111.5264,24.4178,贺州市,环保小区,,28,,56,19,46,26,,,,12,19,6,7,0.7,0.7
2026-01-05T0600,2515A,111.561,24.4074,贺州市,政协大楼,,22,22,59,9,46,24,,,,9,19,8,10,0.7,0.7
2026-01-05T0600,3534A,111.4744,24.455,贺州市,西湾,,28,20,60,19,46,27,,,,10,19,6,8,0.8,0.8
2026-01-05T0600,2385A,114.17,35.9019,鹤壁市,市监测站,细颗粒物(PM2.5),225,201,199,175,185,17,,,,39,37,9,6,1.6,2
2026-01-05T0600,2386A,114.2953,35.7512,鹤壁市,市交警支队,细颗粒物(PM2.5),262,266,208,212,183,5,,,,57,48,7,5,1.7,1.9
2026-01-05T0600,2387A,114.2877,35.7302,鹤壁市,迎宾馆,细颗粒物(PM2.5),252,228,195,202,180,8,,,,37,37,10,7,2.1,2
2026-01-05T0600,3474A,114.2616,35.6824,鹤壁市,大新区,细颗粒物(PM2.5),255,228,178,205,186,15,,,,37,36,8,8,2.1,2
2026-01-05T0600,3596A,114.1573,35.9607,鹤壁市,南山宾馆,细颗粒物(PM2.5),221,217,211,171,189,17,,,,45,42,10,8,1.9,2
2026-01-05T0600,2244A,130.2537,47.3416,鹤岗市,哈啤分公司,,25,20,19,17,16,58,,,,5,4,7,6,0.3,0.3
2026-01-05T0600,2245A,130.2683,47.3087,鹤岗市,斯达机电,,,,22,,20,,,74,,,6,,5,,0.4
2026-01-05T0600,2246A,130.3114,47.3388,鹤岗市,东山纸板厂,,22,,30,15,17,64,,,,4,11,8,8,0.5,0.6
2026-01-05T0600,2263A,127.4832,50.2524,黑河市,交通局,,25,,13,17,15,60,,,,3,6,5,4,0.3,0.3
2026-01-05T0600,2264A,127.5146,50.2339,黑河市,环保局,,20,15,14,14,13,56,,,,6,9,6,6,0.3,0.3
2026-01-05T0600,1074A,115.6839,37.754,衡水市,电机北厂,细颗粒物(PM2.5),295,286,238,245,199,0,,,,76,60,4,7,1.9,1.4
2026-01-05T0600,1075A,115.6303,37.7318,衡水市,市监测站,细颗粒物(PM2.5),276,260,214,226,189,1,,,,73,61,7,8,1.9,1.4
2026-01-05T0600,3188A,115.6684,37.7216,衡水市,市城管局,细颗粒物(PM2.5),264,253,215,214,179,1,,,,77,60,10,10,2.0,1.4
2026-01-05T0600,3459A,115.599,37.5491,衡水市,地表水厂,细颗粒物(PM2.5),284,245,185,234,190,5,,,,66,51,5,6,1.7,1.2
2026-01-05T0600,2457A,112.6209,26.9268,衡阳市,衡阳化工总厂,细颗粒物(PM2.5),53,,41,37,43,35,,,,11,15,6,5,1.0,1.1
2026-01-05T0600,2458A,112.621,26.8957,衡阳市,珠晖区环保局,细颗粒物(PM2.5),53,,36,37,46,24,,,,24,20,7,3,0.9,1
2026-01-05T0600,2459A,112.628,26.8654,衡阳市,市委党校,细颗粒物(PM2.5),52,,37,36,43,37,,,,13,18,7,8,0.9,1
2026-01-05T0600,2460A,112.6007,26.8977,衡阳市,市监测站,细颗粒物(PM2.5),54,50,62,38,47,33,,,,10,16,14,6,0.8,0.9
2026-01-05T0600,2461A,112.5658,26.9013,衡阳市,真空机电公司,,45,39,52,31,46,34,,,,12,19,8,6,0.8,0.9
2026-01-05T0600,3399A,112.6703,26.8817,衡阳市,师范学院,,48,35,44,33,38,38,,,,14,20,1,2,0.8,0.9
2026-01-05T0600,3038A,103.3757,23.3679,红河哈尼族彝族自治州,州图书馆,,13,7,10,6,6,41,,,,4,6,6,6,0.5,0.5
2026-01-05T0600,4154A,103.401,23.3561,红河哈尼族彝族自治州,蒙自市朝阳路,,13,13,12,3,8,41,,,,2,4,7,8,0.4,0.4
2026-01-05T0600,1090A,111.6506,40.7517,呼和浩特市,呼市一监,,34,34,68,23,46,10,,,,44,30,2,6,0.6,0.8
2026-01-05T0600,1094A,111.7516,40.8369,呼和浩特市,如意水处理厂,,25,25,47,13,27,23,,,,42,32,9,11,0.6,0.7
2026-01-05T0600,1095A,111.727798,40.806187,呼和浩特市,二十九中,,21,21,65,10,34,35,,,,26,34,10,13,0.5,0.8
2026-01-05T0600,1097A,111.717,40.7617,呼和浩特市,化肥厂生活区,,29,29,81,15,49,32,,,,26,42,4,9,0.6,1
2026-01-05T0600,3699A,111.6519,40.8389,呼和浩特市,海东办,,15,14,53,7,31,46,,,,17,28,5,7,0.3,0.6
2026-01-05T0600,4275A,111.591512,40.827312,呼和浩特市,成吉思汗西街8号,,,12,51,3,26,50,,,,10,22,,7,0.4,0.6
2026-01-05T0600,4276A,111.6597,40.8077,呼和浩特市,公园东路75号,,22,22,63,9,34,43,,,,22,35,8,9,0.2,0.7
2026-01-05T0600,4277A,111.5427,40.7846,呼和浩特市,金海路35号,,,85,91,61,56,0,,,,51,41,,12,0.4,0.6
2026-01-05T0600,3061A,119.7511,49.1576,呼伦贝尔市,国华电力东,,26,20,24,18,20,57,,,,18,22,8,7,0.3,0.4
2026-01-05T0600,4279A,119.7569,49.2222,呼伦贝尔市,伊敏大街东7号,,23,20,21,16,18,54,,,,15,17,6,8,0.5,0.5
2026-01-05T0600,1250A,120.075,30.867,湖州市,城西水厂,细颗粒物(PM2.5),100,118,124,75,89,26,,,,30,57,9,11,1.1,0.7
2026-01-05T0600,2873A,120.083,30.8929,湖州市,仁皇山新区,细颗粒物(PM2.5),119,101,125,90,101,29,,,,39,74,9,12,0.8,0.7
2026-01-05T0600,2907A,120.1846,30.8592,湖州市,吴兴区站,细颗粒物(PM2.5),110,98,120,83,101,31,,,,25,58,5,7,0.9,0.8
2026-01-05T0600,3562A,120.4146,30.8538,湖州市,南浔区站,细颗粒物(PM2.5),102,86,121,76,96,24,,,,30,64,6,7,0.9,0.9
2026-01-05T0600,1607A,120.904878,40.721091,葫芦岛市,龙港区,细颗粒物(PM2.5),52,46,88,36,56,15,,,,41,45,52,38,1.4,1.5
2026-01-05T0600,1608A,120.8382,40.7521,葫芦岛市,化工街,颗粒物(PM10),56,61,86,31,51,6,,,,58,48,37,29,1.1,1.1
2026-01-05T0600,1609A,120.8339,40.7078,葫芦岛市,新区,,36,36,61,21,36,20,,,,42,48,28,20,1.1,1.1
2026-01-05T0600,1610A,120.8697,40.7679,葫芦岛市,东城区,颗粒物(PM10),53,55,72,32,49,4,,,,58,51,24,33,1.5,1.3
2026-01-05T0600,2483A,109.9297,27.5383,怀化市,河西地税局,,,40,35,36,28,10,,,,13,16,,3,/,/
2026-01-05T0600,2484A,109.9783,27.5342,怀化市,市四医院,,,34,40,31,32,4,,,,11,21,,9,0.7,0.8
2026-01-05T0600,2485A,109.9971,27.5579,怀化市,监测楼,,39,33,37,27,29,8,,,,13,21,1,2,0.3,0.4
2026-01-05T0600,1210A,119.0566,33.5991,淮安市,钵池山,细颗粒物(PM2.5),103,92,82,77,63,30,,,,34,50,10,10,0.6,0.6
2026-01-05T0600,1211A,119.0083,33.578,淮安市,北京南路,细颗粒物(PM2.5),99,83,88,74,67,21,,,,35,53,12,11,0.9,1
2026-01-05T0600,1212A,118.9938,33.6083,淮安市,市监测站,细颗粒物(PM2.5),94,75,81,70,65,16,,,,46,56,11,12,0.8,1
2026-01-05T0600,1213A,119.135,33.5038,淮安市,楚州区监测站,细颗粒物(PM2.5),112,100,85,84,72,26,,,,33,50,12,12,0.9,0.8
2026-01-05T0600,3426A,118.8757,33.2897,淮安市,新华书店,细颗粒物(PM2.5),113,99,81,85,72,30,,,,23,40,10,10,0.9,1
2026-01-05T0600,4092A,119.119691,33.550006,淮安市,枚皋中路89号,细颗粒物(PM2.5),123,,95,93,78,34,,,,34,50,12,11,0.9,0.8
2026-01-05T0600,4206A,119.028838,33.631911,淮安市,承德北路606号,细颗粒物(PM2.5),94,95,100,70,63,20,,,,45,60,10,12,0.8,1
2026-01-05T0600,2282A,116.8005,33.9749,淮北市,监测站,细颗粒物(PM2.5),182,170,117,137,86,9,,,,41,43,9,10,1.1,0.7
2026-01-05T0600,2283A,116.8094,33.9008,淮北市,烈山区政府,细颗粒物(PM2.5),190,170,105,143,86,11,,,,29,33,8,12,0.8,0.6
2026-01-05T0600,4017A,116.7926,33.9534,淮北市,市博物馆,细颗粒物(PM2.5),186,174,120,140,82,7,,,,35,41,9,11,1.0,0.6
2026-01-05T0600,4100A,116.8322,33.9884,淮北市,杜集区第一实验学校,细颗粒物(PM2.5),198,176,115,148,89,1,,,,30,32,7,9,1.1,0.7
2026-01-05T0600,2277A,116.8304,32.7726,淮南市,潘集区政府,细颗粒物(PM2.5),93,87,79,69,67,31,,,,24,33,5,6,0.7,0.7
2026-01-05T0600,2279A,116.8569,32.5949,淮南市,谢家集区政府,细颗粒物(PM2.5),77,83,73,56,52,27,,,,29,34,7,8,0.4,0.5
2026-01-05T0600,2280A,116.8279,32.6333,淮南市,八公山区政府,细颗粒物(PM2.5),80,72,79,59,69,46,,,,14,23,3,4,0.5,0.6
2026-01-05T0600,2894A,117.0561,32.6536,淮南市,经济技术开发区消防队,细颗粒物(PM2.5),99,94,81,74,59,28,,,,22,34,5,6,0.6,0.7
2026-01-05T0600,3329A,117.011,32.5891,淮南市,山南新区,细颗粒物(PM2.5),80,78,77,59,54,31,,,,20,30,2,2,0.6,0.7
2026-01-05T0600,4209A,117.003137,32.644456,淮南市,国庆中路369号,细颗粒物(PM2.5),93,96,74,69,61,23,,,,26,32,5,6,0.6,0.7
2026-01-05T0600,2446A,114.9021,30.474,黄冈市,职工中心,细颗粒物(PM2.5),60,59,53,43,38,19,,,,28,18,12,7,1.4,0.9
2026-01-05T0600,2929A,114.8858,30.4519,黄冈市,红卫路,细颗粒物(PM2.5),69,60,49,50,41,15,,,,30,25,6,7,0.8,0.9
2026-01-05T0600,3398A,114.9134,30.4446,黄冈市,市林业局,细颗粒物(PM2.5),75,62,50,55,43,18,,,,30,22,9,6,1.3,1.1
2026-01-05T0600,2672A,102.02,35.5101,黄南藏族自治州,同仁县隆务镇,细颗粒物(PM2.5),59,44,50,42,40,49,,,,2,6,9,10,0.4,0.5
2026-01-05T0600,2295A,118.2905,29.6965,黄山市,延安路89号,,19,19,39,9,34,38,,,,10,16,3,3,0.7,0.6
2026-01-05T0600,2297A,118.1369,30.2755,黄山市,黄山区政府5号楼,细颗粒物(PM2.5),58,51,40,41,33,45,,,,15,15,6,6,0.7,0.7
2026-01-05T0600,4210A,118.335445,29.720283,黄山市,滨江东路7-2号,,50,35,55,35,53,40,,,,13,21,/,/,/,/
2026-01-05T0600,2423A,115.0547,30.2332,黄石市,沈家营,颗粒物(PM10),56,62,51,30,32,12,,,,18,15,5,5,1.2,1.2
2026-01-05T0600,2426A,114.899,30.211,黄石市,铁山,细颗粒物(PM2.5),62,59,50,44,49,0,,,,42,19,5,5,0.6,0.7
2026-01-05T0600,2427A,115.0259,30.2108,黄石市,团城山,细颗粒物(PM2.5),64,67,52,46,41,19,,,,23,18,7,6,0.8,0.8
2026-01-05T0600,3149A,115.0174,30.1591,黄石市,笔架山北路,,,90,63,55,39,,,,,34,19,6,7,1.3,1.1
2026-01-05T0600,4185A,115.078022,30.21118,黄石市,磁湖东路29号,细颗粒物(PM2.5),72,62,53,52,45,13,,,,21,18,5,6,0.8,0.9
2026-01-05T0600,1392A,114.4181,23.0528,惠州市,河南岸金山湖子站,细颗粒物(PM2.5),63,70,62,45,38,5,,,,46,36,4,5,0.8,0.7
2026-01-05T0600,1393A,114.4055,23.0824,惠州市,下埔横江三路子站,颗粒物(PM10),60,70,68,41,38,25,,,,34,42,16,9,0.7,0.8
2026-01-05T0600,1395A,114.4645,22.7832,惠州市,惠阳区承修路船湖子站,颗粒物(PM10),63,76,79,38,39,30,,,,33,45,7,8,0.6,0.7
2026-01-05T0600,1396A,114.5316,22.7423,惠州市,大亚湾管委会子站,颗粒物(PM10),66,81,59,46,32,16,,,,60,49,7,6,0.5,0.4
2026-01-05T0600,3314A,114.4334,22.8134,惠州市,惠阳秋长,细颗粒物(PM2.5),63,66,68,45,37,34,,,,39,44,/,/,/,/
2026-01-05T0600,3452A,114.6521,22.7755,惠州市,大亚湾霞涌,颗粒物(PM10),52,54,50,22,25,60,,,,18,20,/,/,/,/
2026-01-05T0600,4300A,114.4089,23.1147,惠州市,文华一路1号,,,70,64,44,38,,,,,43,46,/,/,/,/
2026-01-05T0600,2240A,130.9618,45.2926,鸡西市,环保局,,26,24,30,18,16,53,,,,6,6,6,5,0.3,0.3
2026-01-05T0600,2243A,130.9294,45.2959,鸡西市,第一中学,,24,24,23,16,16,53,,,,10,7,3,3,0.4,0.4
2026-01-05T0600,3707A,131.0069,45.2988,鸡西市,欧美日汽修厂,,30,27,39,21,19,49,,,,18,10,6,6,0.5,0.4
2026-01-05T0600,2367A,114.9753,27.0803,吉安市,红声器材厂,,39,39,56,25,38,16,,,,24,27,9,11,0.8,0.9
2026-01-05T0600,2369A,114.9903,27.1313,吉安市,市环境监测站,,38,34,54,26,39,17,,,,18,22,14,16,/,/
2026-01-05T0600,2370A,115.009527,27.096792,吉安市,青原区法院,,40,34,47,28,40,16,,,,18,22,10,12,0.7,0.7
2026-01-05T0600,1772A,126.54,43.8622,吉林市,哈达湾,细颗粒物(PM2.5),58,55,71,41,54,49,,,,20,28,9,10,1.0,1.3
2026-01-05T0600,1773A,126.5843,43.8358,吉林市,东局子,细颗粒物(PM2.5),70,65,71,51,55,29,,,,26,29,5,7,1.2,1.4
2026-01-05T0600,1774A,126.5051,43.8243,吉林市,电力学院,,,64,95,52,79,27,,,,32,36,,14,1.0,1.3
2026-01-05T0600,1775A,126.6133,43.8971,吉林市,江北,细颗粒物(PM2.5),62,56,83,44,66,34,,,,22,30,6,8,1.1,1.4
2026-01-05T0600,1776A,126.5549,43.8304,吉林市,江南公园,,,60,69,52,62,32,,,,24,29,,9,1.1,1.2
2026-01-05T0600,2868A,126.4737,43.953,吉林市,九站,细颗粒物(PM2.5),62,47,74,44,60,32,,,,26,34,6,8,0.9,1.1
2026-01-05T0600,1299A,116.9866,36.6118,济南市,科干所,细颗粒物(PM2.5),228,229,144,178,101,5,,,,68,54,9,10,1.6,1.2
2026-01-05T0600,1300A,116.9379,36.6652,济南市,农科所,细颗粒物(PM2.5),236,237,156,186,118,2,,,,63,59,6,9,1.5,1.2
2026-01-05T0600,1301A,117.1265,36.6736,济南市,开发区,细颗粒物(PM2.5),260,244,161,210,130,2,,,,55,53,6,7,1.6,1.2
2026-01-05T0600,1303A,117.0616,36.6865,济南市,省种子仓库,细颗粒物(PM2.5),260,263,176,210,130,6,,,,57,59,8,11,1.4,1.2
2026-01-05T0600,1304A,116.9495185,36.644937,济南市,机床二厂,细颗粒物(PM2.5),260,252,160,210,128,2,,,,64,59,7,15,1.5,1.2
2026-01-05T0600,1305A,117.0496,36.6629,济南市,市监测站,细颗粒物(PM2.5),260,249,160,210,123,3,,,,52,51,6,8,1.3,1.1
2026-01-05T0600,1306A,116.7674,36.5458,济南市,长清党校,细颗粒物(PM2.5),236,239,154,186,118,1,,,,63,50,9,12,1.4,1.1
2026-01-05T0600,1961A,117.5323,36.6865,济南市,东山小学,细颗粒物(PM2.5),231,232,181,181,131,6,,,,63,62,5,10,1.5,1.4
2026-01-05T0600,3059A,117.7181,36.205,济南市,泰兴公司,细颗粒物(PM2.5),284,263,175,234,146,13,,,,69,60,8,11,1.4,1.3
2026-01-05T0600,3064A,117.6861,36.2172,济南市,莱芜战役纪念馆,细颗粒物(PM2.5),287,263,177,237,149,22,,,,55,56,9,14,1.2,1.2
2026-01-05T0600,3494A,117.1673,36.9782,济南市,济阳区政府,细颗粒物(PM2.5),233,242,194,183,150,6,,,,63,54,4,12,1.6,1.2
2026-01-05T0600,3495A,117.1168,36.6299,济南市,锦屏中学,细颗粒物(PM2.5),211,200,131,161,102,3,,,,52,43,4,6,1.3,0.9
2026-01-05T0600,4108A,117.7107,36.2385,济南市,山财大街5号,细颗粒物(PM2.5),278,330,193,228,129,20,,,,54,50,7,12,1.3,1.2
2026-01-05T0600,4109A,116.9744,36.6889,济南市,无影山路12号,细颗粒物(PM2.5),258,246,178,208,137,1,,,,62,64,8,14,1.4,1.2
2026-01-05T0600,1653A,116.6229,35.4288,济宁市,火炬城,细颗粒物(PM2.5),208,159,131,158,130,8,,,,46,39,8,7,1.1,0.8
2026-01-05T0600,3500A,116.5808,35.3703,济宁市,北湖一中,细颗粒物(PM2.5),207,158,130,157,126,8,,,,46,43,8,6,1.1,0.9
2026-01-05T0600,3501A,116.8251,35.5592,济宁市,服务中心,细颗粒物(PM2.5),198,197,159,148,113,2,,,,56,50,14,12,1.1,0.9
2026-01-05T0600,3678A,116.5907,35.4054,济宁市,市第七中学,细颗粒物(PM2.5),192,,133,144,113,8,,,,48,42,13,9,1.1,1
2026-01-05T0600,4111A,116.6075,35.4566,济宁市,任和路,细颗粒物(PM2.5),193,191,159,145,122,0,,,,50,44,7,8,1.1,0.9
2026-01-05T0600,4112A,116.5648,35.3921,济宁市,文体南路1号,细颗粒物(PM2.5),212,184,155,162,125,3,,,,48,44,6,5,1.0,0.8
2026-01-05T0600,2255A,130.2749,46.8028,佳木斯市,佳纺,,20,15,28,14,22,40,,,,21,16,7,9,0.3,0.3
2026-01-05T0600,2257A,130.3258,46.7975,佳木斯市,环保局,,18,16,26,12,22,53,,,,10,16,7,9,0.6,0.8
2026-01-05T0600,4285A,130.363,46.806,佳木斯市,顺和街,,,12,27,6,19,49,,,,10,17,,9,0.6,0.6
2026-01-05T0600,4286A,130.3952,46.8268,佳木斯市,长安路196号,,16,15,22,11,19,46,,,,12,8,6,5,0.4,0.4
2026-01-05T0600,1252A,120.7439,30.778,嘉兴市,清河小学,细颗粒物(PM2.5),123,111,121,93,92,21,,,,36,69,7,7,1.0,0.7
2026-01-05T0600,1253A,120.7261,30.7477,嘉兴市,嘉兴学院,细颗粒物(PM2.5),112,113,119,84,86,23,,,,29,60,8,8,1.1,1
2026-01-05T0600,2872A,120.7845,30.7524,嘉兴市,南湖区残联,细颗粒物(PM2.5),118,106,115,89,90,26,,,,28,61,6,5,1.1,0.9
2026-01-05T0600,3407A,120.6915,30.7741,嘉兴市,秀洲住建,细颗粒物(PM2.5),122,104,122,92,97,25,,,,29,66,8,8,0.9,0.8
2026-01-05T0600,1945A,98.291,39.7705,嘉峪关市,气象局,,41,41,42,24,24,58,,,,14,18,12,19,0.4,0.5
2026-01-05T0600,2884A,98.2672,39.7978,嘉峪关市,酒钢宾馆,,48,48,52,31,28,52,,,,14,18,14,30,0.4,0.8
2026-01-05T0600,3248A,98.2644,39.7723,嘉峪关市,雄关区,,39,37,47,27,31,49,,,,23,29,11,20,0.4,0.6
2026-01-05T0600,1383A,113.1063,22.6058,江门市,北街,细颗粒物(PM2.5),95,86,81,71,50,5,,,,94,69,/,/,/,/
2026-01-05T0600,1384A,113.073,22.5835,江门市,西区,细颗粒物(PM2.5),94,104,95,70,53,6,,,,89,74,/,/,/,/
2026-01-05T0600,1385A,113.0218,22.531,江门市,圭峰西,细颗粒物(PM2.5),72,71,71,52,46,15,,,,48,46,/,/,/,/
2026-01-05T0600,1386A,113.0826,22.5947,江门市,东湖,颗粒物(PM10),86,122,86,62,49,2,,,,97,73,11,8,0.7,0.8
2026-01-05T0600,3311A,113.1077,22.5647,江门市,江海富民,"颗粒物(PM10),细颗粒物(PM2.5)",77,104,100,56,44,6,,,,98,78,/,/,0.6,0.7
2026-01-05T0600,3449A,113.0496,22.4669,江门市,新会银湖,细颗粒物(PM2.5),90,73,78,67,58,0,,,,45,45,6,8,0.9,0.7
2026-01-05T0600,3335A,113.3137,35.2643,焦作市,马村街道办,细颗粒物(PM2.5),162,146,117,123,112,8,,,,27,26,6,6,2.0,1.2
2026-01-05T0600,3336A,113.2464,35.2374,焦作市,焦作技师学院,细颗粒物(PM2.5),149,152,128,114,106,9,,,,31,30,9,9,1.2,1.2
2026-01-05T0600,3477A,113.1656,35.2536,焦作市,中站许衡医院,细颗粒物(PM2.5),135,106,117,103,104,19,,,,21,29,3,7,1.0,1.2
2026-01-05T0600,3981A,113.2456,35.18,焦作市,原李万街道办,细颗粒物(PM2.5),138,124,112,105,98,0,,,,34,24,5,4,1.2,1.1
2026-01-05T0600,4264A,113.234,35.219,焦作市,新安路1731号,细颗粒物(PM2.5),153,151,121,117,106,2,,,,29,19,7,6,1.2,1.1
2026-01-05T0600,4295A,113.2722,35.2121,焦作市,人民路3066号,细颗粒物(PM2.5),122,120,125,92,87,3,,,,33,23,6,5,1.0,1
2026-01-05T0600,1708A,116.3701,23.5345,揭阳市,新兴,细颗粒物(PM2.5),59,54,65,42,43,2,,,,55,38,8,11,0.7,0.7
2026-01-05T0600,1709A,116.3261,23.5442,揭阳市,西马,颗粒物(PM10),54,57,68,36,38,10,,,,39,31,6,7,0.8,0.8
2026-01-05T0600,1710A,116.361,23.5627,揭阳市,东兴,细颗粒物(PM2.5),88,82,66,65,38,2,,,,44,32,9,10,/,/
2026-01-05T0600,1711A,116.4151,23.5295,揭阳市,渔湖,细颗粒物(PM2.5),69,71,66,50,31,0,,,,53,36,4,5,/,/
2026-01-05T0600,3320A,116.4028,23.5699,揭阳市,曲溪,,,74,69,39,36,,,,,48,35,2,5,0.6,0.7
2026-01-05T0600,1944A,102.1691,38.5166,金昌市,天庆家园,细颗粒物(PM2.5),54,48,40,38,27,37,,,,19,16,9,4,1.0,0.7
2026-01-05T0600,4022A,102.1648,38.5369,金昌市,金川区人防中心,细颗粒物(PM2.5),63,52,40,45,29,37,,,,17,14,10,6,0.7,0.6
2026-01-05T0600,4239A,102.193042,38.531887,金昌市,长春路96号,,46,46,40,28,24,48,,,,17,16,10,6,0.8,0.8
2026-01-05T0600,1262A,119.6478,29.0773,金华市,十五中,细颗粒物(PM2.5),108,107,112,81,80,0,,,,61,59,3,5,0.8,0.9
2026-01-05T0600,1263A,119.6859,29.1032,金华市,监测站,,,97,114,73,82,0,,,,70,78,,3,0.9,0.9
2026-01-05T0600,3659A,119.656,29.1132,金华市,气象局,细颗粒物(PM2.5),100,108,113,75,75,3,,,,59,65,4,4,0.9,0.8
2026-01-05T0600,1767A,121.1114,41.0879,锦州市,南山,,37,37,60,20,51,26,,,,30,34,13,15,0.9,1.1
2026-01-05T0600,1768A,121.060361,40.842794,锦州市,开发区,,35,35,74,24,51,25,,,,46,39,17,28,1.1,1.1
2026-01-05T0600,1769A,121.1836,41.1118,锦州市,百股街道,,23,23,68,12,51,39,,,,18,35,10,17,0.9,1.3
2026-01-05T0600,1770A,121.1176,41.1224,锦州市,天安街道,,32,29,51,22,35,34,,,,28,30,16,16,0.8,1.1
2026-01-05T0600,1771A,121.1303,41.1385,锦州市,北湖公园,细颗粒物(PM2.5),64,,53,46,38,28,,,,30,24,10,14,1.0,1
2026-01-05T0600,2160A,112.8496,35.5051,晋城市,自来水公司,细颗粒物(PM2.5),123,105,105,93,93,21,,,,32,26,5,5,1.4,1.4
2026-01-05T0600,2162A,112.8509,35.4886,晋城市,市环保局,细颗粒物(PM2.5),117,103,112,88,84,,,,,30,24,5,5,1.4,1.4
2026-01-05T0600,3620A,112.8258,35.4804,晋城市,泽州一中,细颗粒物(PM2.5),119,110,95,90,88,32,,,,25,22,5,4,1.0,1
2026-01-05T0600,4078A,112.8246,35.5152,晋城市,前书院路,细颗粒物(PM2.5),122,133,117,92,74,26,,,,30,25,4,5,1.1,1.2
2026-01-05T0600,4079A,112.8864,35.4773,晋城市,祥云街666号,细颗粒物(PM2.5),130,113,104,99,96,26,,,,30,24,5,6,1.1,1.1
2026-01-05T0600,2174A,112.6992,37.6984,晋中市,榆次区政府,细颗粒物(PM2.5),163,149,178,124,143,3,,,,48,56,9,18,1.2,1.8
2026-01-05T0600,2865A,112.7195,37.683,晋中市,榆次三中,细颗粒物(PM2.5),125,163,173,95,119,1,,,,40,52,7,17,1.3,1.8
2026-01-05T0600,4080A,112.7375,37.7215,晋中市,广安街188号,细颗粒物(PM2.5),178,182,212,134,153,2,,,,45,60,7,12,1.4,1.7
2026-01-05T0600,4200A,112.7478,37.6954,晋中市,迎宾街26号,细颗粒物(PM2.5),144,139,173,110,130,3,,,,43,55,7,18,1.4,1.8
2026-01-05T0600,2439A,112.2012,31.048,荆门市,竹园小学,细颗粒物(PM2.5),90,86,101,67,85,2,,,,32,27,1,2,1.0,0.6
2026-01-05T0600,2440A,112.1968,30.9892,荆门市,掇刀,细颗粒物(PM2.5),82,69,94,60,80,44,,,,15,21,2,3,0.7,0.7
2026-01-05T0600,3012A,112.1849,31.0361,荆门市,西山林语,细颗粒物(PM2.5),68,60,88,49,73,16,,,,19,23,5,4,1.1,0.9
2026-01-05T0600,3547A,112.1631,31.0134,荆门市,龙泉中学南校,细颗粒物(PM2.5),75,64,96,55,81,51,,,,1,11,7,6,0.5,0.4
2026-01-05T0600,4124A,112.2213,31.0654,荆门市,新台西路6号,细颗粒物(PM2.5),79,83,102,58,91,2,,,,36,28,6,7,0.9,0.8
2026-01-05T0600,1844A,112.2493,30.3198,荆州市,市图书馆,细颗粒物(PM2.5),99,,62,74,76,3,,,,29,25,5,7,1.1,0.9
2026-01-05T0600,1845A,112.2009,30.3543,荆州市,市委党校,细颗粒物(PM2.5),102,83,78,76,80,1,,,,30,26,4,5,1.4,1.1
2026-01-05T0600,3194A,112.2749,30.3124,荆州市,管委会,细颗粒物(PM2.5),97,76,63,72,74,1,,,,34,30,5,6,1.1,0.9
2026-01-05T0600,4268A,112.1722,30.3366,荆州市,学苑路85号,细颗粒物(PM2.5),89,83,72,66,72,6,,,,27,23,9,7,1.0,0.8
2026-01-05T0600,2343A,117.2114,29.2931,景德镇市,老干部活动中心,细颗粒物(PM2.5),67,,36,48,38,27,,,,7,15,7,8,0.6,0.5
2026-01-05T0600,2344A,117.1893,29.2789,景德镇市,兽医站,细颗粒物(PM2.5),53,45,36,37,27,27,,,,11,17,11,8,0.9,0.9
2026-01-05T0600,2346A,117.246,29.2958,景德镇市,陶研所,细颗粒物(PM2.5),64,,37,46,40,31,,,,5,15,4,4,0.5,0.4
2026-01-05T0600,4289A,117.154766,29.256967,景德镇市,青少年活动中心,细颗粒物(PM2.5),59,57,41,42,33,19,,,,18,24,14,15,/,/
2026-01-05T0600,1803A,115.9873,29.6816,九江市,十里,细颗粒物(PM2.5),64,46,58,46,51,32,,,,24,33,4,4,1.1,0.9
2026-01-05T0600,1804A,115.9583,29.7047,九江市,茅山头,细颗粒物(PM2.5),57,56,62,40,49,27,,,,20,23,4,5,1.0,0.9
2026-01-05T0600,1805A,115.9877,29.7295,九江市,西园,,46,46,58,26,42,30,,,,27,33,6,3,0.9,0.9
2026-01-05T0600,1808A,115.9112,29.6038,九江市,综合工业园,,,58,65,53,59,33,,,,27,39,,2,0.8,0.8
2026-01-05T0600,3190A,116.0254,29.6995,九江市,外国语学校,颗粒物(PM10),61,72,63,33,46,34,,,,16,29,6,7,0.9,0.9
2026-01-05T0600,4253A,116.010205,29.659402,九江市,莲花大道8号,细颗粒物(PM2.5),70,61,64,51,57,30,,,,12,24,6,3,0.7,0.6
2026-01-05T0600,4240A,98.495752,39.733935,酒泉市,玉门东路5号,,48,48,53,27,30,47,,,,10,15,8,14,0.4,0.6
2026-01-05T0600,4241A,98.5099,39.7506,酒泉市,北大街108号,,46,46,51,30,30,43,,,,20,23,7,13,0.5,0.6
2026-01-05T0600,2698A,76.0071,39.466,喀什地区,巡警大队,细颗粒物(PM2.5),55,55,55,39,40,46,,,,14,16,3,3,0.9,0.8
2026-01-05T0600,2699A,75.9756,39.4693,喀什地区,吾办,细颗粒物(PM2.5),63,54,56,45,44,47,,,,8,13,4,4,0.8,0.8
2026-01-05T0600,4027A,75.9485,39.4688,喀什地区,老干局,颗粒物(PM10),52,54,60,31,39,47,,,,10,13,1,2,0.9,0.9
2026-01-05T0600,1824A,114.3389,34.778,开封市,肿瘤医院,细颗粒物(PM2.5),221,202,128,171,117,18,,,,38,29,9,5,2.4,1.7
2026-01-05T0600,1826A,114.2884,34.7966,开封市,世纪星幼儿园,细颗粒物(PM2.5),232,,118,182,133,21,,,,34,31,2,2,1.7,1.1
2026-01-05T0600,3147A,114.3434,34.8101,开封市,龙亭公园,细颗粒物(PM2.5),257,,126,207,143,12,,,,40,29,5,4,2.6,1.9
2026-01-05T0600,3210A,114.3645,34.7955,开封市,汴京公园,细颗粒物(PM2.5),225,207,141,175,119,12,,,,41,32,5,4,1.9,1.2
2026-01-05T0600,3473A,114.2485,34.8306,开封市,技师学院,细颗粒物(PM2.5),217,,117,167,126,9,,,,39,33,9,6,2.1,1.5
2026-01-05T0600,3592A,114.4518,34.7503,开封市,祥符区生态环境局,细颗粒物(PM2.5),248,250,145,198,114,18,,,,40,29,6,5,1.9,1.2
2026-01-05T0600,1951A,84.886,45.6029,克拉玛依市,长征新村,细颗粒物(PM2.5),74,80,89,54,63,25,,,,37,36,4,4,1.0,1
2026-01-05T0600,1952A,84.8894,45.5827,克拉玛依市,南林小区,颗粒物(PM10),68,86,90,46,52,5,,,,33,29,3,3,1.1,1.1
2026-01-05T0600,1954A,84.896,44.3328,克拉玛依市,独山子区,细颗粒物(PM2.5),75,77,121,55,74,67,,,,20,46,5,5,0.6,1
2026-01-05T0600,1955A,85.6888,46.0909,克拉玛依市,乌尔禾区商贸楼,细颗粒物(PM2.5),132,117,89,100,67,38,,,,29,37,4,5,1.2,1.2
2026-01-05T0600,3612A,85.1045,45.6895,克拉玛依市,白碱滩区新站,细颗粒物(PM2.5),112,154,126,84,69,4,,,,23,24,6,7,0.8,0.7
2026-01-05T0600,2697A,76.1457,39.7143,克孜勒苏柯尔克孜自治州,市人民政府,颗粒物(PM10),55,59,59,37,38,45,,,,10,12,5,5,0.4,0.4
2026-01-05T0600,3665A,76.1654,39.7157,克孜勒苏柯尔克孜自治州,克州文化中心,颗粒物(PM10),56,61,49,36,37,38,,,,13,9,2,3,0.7,0.6
2026-01-05T0600,1450A,102.8203,24.889,昆明市,呈贡新区,,20,17,22,14,14,47,,,,18,14,6,4,0.3,0.3
2026-01-05T0600,1452A,102.7253,25.0904,昆明市,龙泉镇,,27,27,30,12,12,8,,,,28,26,2,3,0.5,0.5
2026-01-05T0600,1453A,102.7267,25.0378,昆明市,东风东路,,37,37,21,25,16,1,,,,43,19,4,5,0.7,0.5
2026-01-05T0600,1454A,102.6744,25.0671,昆明市,金鼎山,,36,36,31,25,18,13,,,,31,18,3,4,0.6,0.5
2026-01-05T0600,1455A,102.6643,25.0401,昆明市,碧鸡广场,,36,36,26,21,18,22,,,,29,19,3,4,0.6,0.6
2026-01-05T0600,3179A,102.7491,25.012,昆明市,官渡区博物馆,,,,17,,12,,,79,,,13,,3,,0.3
2026-01-05T0600,3375A,102.8016,24.8336,昆明市,青年创业园,,,,18,,13,,,83,,,6,,5,,0.3
2026-01-05T0600,3550A,102.8,24.9787,昆明市,昆明学院,,47,47,21,28,14,5,,,,40,14,2,3,0.6,0.5
2026-01-05T0600,3551A,102.5969,24.6738,昆明市,晋宁区生态环境分局,,20,19,23,14,16,18,,,,25,14,1,2,0.5,0.5
2026-01-05T0600,3552A,102.6673,24.9861,昆明市,云天化总部,,31,31,20,21,13,25,,,,25,14,5,6,0.5,0.5
2026-01-05T0600,1456A,91.132,29.6515,拉萨市,八廓街,,22,10,18,7,10,69,,,,3,8,7,7,0.4,0.5
2026-01-05T0600,1457A,91.1221,29.6748,拉萨市,市环保局,,20,17,23,9,15,63,,,,10,16,6,8,0.4,0.6
2026-01-05T0600,1458A,91.0874,29.6476,拉萨市,区监测站,,21,9,13,7,8,66,,,,10,17,4,4,0.7,0.8
2026-01-05T0600,1459A,91.1774,29.6541,拉萨市,西藏大学,,21,15,17,6,7,65,,,,8,12,5,5,0.3,0.3
2026-01-05T0600,1460A,90.9798,29.6586,拉萨市,区辐射站,,30,30,25,7,14,44,,,,22,21,5,4,0.6,0.6
2026-01-05T0600,1461A,91.0831,29.6292,拉萨市,拉萨火车站,,16,16,19,9,10,49,,,,23,22,5,4,0.7,0.6
2026-01-05T0600,2520A,109.2203,23.7252,来宾市,来宾技工学校,,12,,47,6,33,38,,,,4,14,5,8,0.3,0.6
2026-01-05T0600,3535A,109.1781,23.7293,来宾市,兴宾区政府,,13,6,58,3,47,40,,,,4,13,4,7,0.5,0.7
2026-01-05T0600,4002A,109.2312,23.7428,来宾市,中南小学,,12,6,47,3,40,38,,,,7,15,3,6,0.5,0.8
2026-01-05T0600,1479A,103.8309,36.0467,兰州市,铁路设计院,,,,,,,,,,,,,,,,
2026-01-05T0600,3241A,103.7439,36.0841,兰州市,百合公园,,49,49,59,30,41,64,,,,11,26,8,11,0.6,1
2026-01-05T0600,3242A,103.9613,35.9985,兰州市,和平,,42,36,62,29,58,71,,,,6,21,3,4,0.8,1
2026-01-05T0600,4236A,103.629272,36.093822,兰州市,庄浪东路808号,细颗粒物(PM2.5),52,48,71,36,51,68,,,,14,37,12,14,0.4,0.8
2026-01-05T0600,4237A,103.7251,36.104344,兰州市,安宁西路88号,,49,49,67,34,42,67,,,,16,30,5,8,0.3,0.7
2026-01-05T0600,4238A,103.846982,36.067567,兰州市,北滨河东路1号,细颗粒物(PM2.5),54,47,58,38,44,64,,,,18,30,8,10,0.6,0.9
2026-01-05T0600,1067A,116.6712,39.5109,廊坊市,药材公司,细颗粒物(PM2.5),142,147,146,108,106,2,,,,76,71,10,11,2.5,2.1
2026-01-05T0600,1068A,116.7215,39.5592,廊坊市,开发区,细颗粒物(PM2.5),145,148,144,111,100,0,,,,78,77,9,11,2.4,1.9
2026-01-05T0600,1070A,116.7246,39.5273,廊坊市,北华航天学院,细颗粒物(PM2.5),140,157,160,107,112,2,,,,88,74,14,13,1.9,2.1
2026-01-05T0600,2919A,116.7022,39.5454,廊坊市,河北工业大学,细颗粒物(PM2.5),133,167,159,101,101,2,,,,78,74,13,15,2.2,2
2026-01-05T0600,2536A,103.7629,29.5844,乐山市,牛耳桥,细颗粒物(PM2.5),59,50,38,42,33,3,,,,19,27,7,7,0.6,0.7
2026-01-05T0600,2537A,103.7501,29.6002,乐山市,市第三水厂,细颗粒物(PM2.5),55,50,42,39,35,1,,,,25,32,5,6,0.7,0.7
2026-01-05T0600,2538A,103.7571,29.5664,乐山市,市监测站,细颗粒物(PM2.5),55,47,37,39,32,2,,,,18,26,6,6,0.8,0.8
2026-01-05T0600,3361A,103.7313,29.563,乐山市,理工大学,细颗粒物(PM2.5),54,51,48,38,30,1,,,,18,25,4,4,0.7,0.7
2026-01-05T0600,2599A,100.2497,26.8802,丽江市,丽江古城,,23,14,21,7,8,72,,,,8,11,7,7,0.6,0.6
2026-01-05T0600,2600A,100.2203,26.8906,丽江市,市中心,,24,8,11,7,10,74,,,,7,10,6,6,0.3,0.3
2026-01-05T0600,1267A,119.9141,28.4513,丽水市,监测站大楼,细颗粒物(PM2.5),62,45,58,44,40,21,,,,26,40,5,6,0.7,0.9
2026-01-05T0600,1268A,119.93,28.4589,丽水市,莲都小学,细颗粒物(PM2.5),69,84,69,50,35,25,,,,32,48,/,/,/,/
2026-01-05T0600,1269A,119.8794,28.4232,丽水市,余庄前,,47,47,56,32,36,12,,,,22,37,5,5,0.4,0.4
2026-01-05T0600,1173A,119.1759,34.5885,连云港市,市环境监测站,细颗粒物(PM2.5),218,188,128,168,107,13,,,,57,53,18,16,1.5,1
2026-01-05T0600,3000A,119.3577,34.6971,连云港市,德源药业,细颗粒物(PM2.5),211,195,137,161,98,40,,,,37,60,,6,1.5,0.7
2026-01-05T0600,3007A,119.178,34.8442,连云港市,新城一中,细颗粒物(PM2.5),250,214,150,200,132,8,,,,60,55,22,19,1.5,1
2026-01-05T0600,3008A,119.3607,34.7519,连云港市,胡沟管理处,细颗粒物(PM2.5),213,188,119,163,97,43,,,,32,53,14,14,2.2,1.3
2026-01-05T0600,3009A,119.1478,34.5913,连云港市,矿山设计院,细颗粒物(PM2.5),199,190,133,149,98,4,,,,61,51,13,12,1.5,1.2
2026-01-05T0600,3434A,119.2414,34.6539,连云港市,工贸学校,细颗粒物(PM2.5),231,213,126,181,104,,,,,40,41,20,17,1.6,0.9
2026-01-05T0600,3664A,119.4171,34.734,连云港市,连云街道,细颗粒物(PM2.5),218,208,125,168,97,,,,,51,45,8,15,1.3,1
2026-01-05T0600,2573A,102.2629,27.8981,凉山彝族自治州,西昌市政府,,30,30,32,19,23,38,,,,8,13,5,6,0.7,0.6
2026-01-05T0600,2574A,102.2686,27.885,凉山彝族自治州,凉山州政府,,25,23,34,17,19,32,,,,10,13,7,8,0.7,0.7
2026-01-05T0600,4229A,102.2342,27.8859,凉山彝族自治州,凯乐南路30号,,27,27,43,14,27,17,,,,32,21,7,7,0.6,0.6
2026-01-05T0600,2212A,123.1978,41.2036,辽阳市,宏伟区,细颗粒物(PM2.5),69,55,100,50,83,30,,,,23,33,11,13,0.8,1.4
2026-01-05T0600,2213A,123.1684,41.2497,辽阳市,新华园,,,78,111,44,85,12,,,,48,50,,21,1.3,1.7
2026-01-05T0600,2214A,123.2355,41.2663,辽阳市,滨河路,细颗粒物(PM2.5),99,118,112,74,78,5,,,,58,49,7,11,1.6,1.2
2026-01-05T0600,4083A,123.153,41.2874,辽阳市,铁西路150号,细颗粒物(PM2.5),118,124,122,89,84,2,,,,61,51,17,21,2.3,1.9
2026-01-05T0600,2227A,125.1359,42.8845,辽源市,环保局,颗粒物(PM10),79,108,127,42,66,35,,,,28,40,3,6,1.9,1.5
2026-01-05T0600,4085A,125.0998,42.9134,辽源市,安宁大街333号,,50,50,83,28,65,48,,,,22,33,14,10,0.5,0.8
2026-01-05T0600,1625A,115.9789,36.4372,聊城市,区政府,细颗粒物(PM2.5),245,233,155,195,124,9,,,,64,49,14,13,1.5,1.2
2026-01-05T0600,3200A,115.9772,36.4986,聊城市,监控中心,细颗粒物(PM2.5),240,224,167,190,142,9,,,,59,48,11,12,1.5,1.1
2026-01-05T0600,3513A,116.0443,36.436,聊城市,九州社区,细颗粒物(PM2.5),254,238,159,204,124,19,,,,49,36,5,5,1.3,0.9
2026-01-05T0600,4018A,116.0564,36.4609,聊城市,星美广场,细颗粒物(PM2.5),244,252,177,194,133,11,,,,46,38,5,6,1.4,1
2026-01-05T0600,4113A,116.0091,36.4495,聊城市,利民路,细颗粒物(PM2.5),239,247,166,189,131,5,,,,63,46,11,12,1.3,0.9
2026-01-05T0600,2632A,94.3683,29.6373,林芝市,林芝监测站,,15,9,12,3,8,47,,,,2,10,4,4,0.3,0.4
2026-01-05T0600,2633A,94.3616,29.6634,林芝市,林芝人民医院,,15,12,14,6,8,45,,,,5,8,5,6,0.4,0.4
2026-01-05T0600,2603A,100.0779,23.8981,临沧市,市环保局,,39,,28,27,42,17,,,,5,6,5,6,0.4,0.5
2026-01-05T0600,2604A,100.0894,23.882,临沧市,市气象局,,35,,34,24,26,18,,,,6,10,4,5,0.4,0.5
2026-01-05T0600,1733A,111.5552,36.0791,临汾市,临钢医院,细颗粒物(PM2.5),236,238,265,186,205,7,,,,36,38,4,5,2.3,2.8
2026-01-05T0600,1734A,111.4984,36.0734,临汾市,技工学校,,,,253,,204,,,28,,,39,,5,,3.2
2026-01-05T0600,1736A,111.5017,36.0857,临汾市,市委,细颗粒物(PM2.5),214,241,279,164,204,12,,,,46,48,6,7,2.0,2.9
2026-01-05T0600,3018A,111.5048,36.1015,临汾市,唐尧大酒店,细颗粒物(PM2.5),227,221,245,177,200,0,,,,49,47,2,3,2.6,3.1
2026-01-05T0600,4244A,111.4879,36.053,临汾市,启星学校,细颗粒物(PM2.5),204,227,227,154,169,0,,,,46,49,6,6,2.7,3
2026-01-05T0600,4271A,103.2464,35.6123,临夏回族自治州,滨河东路1号,颗粒物(PM10),56,62,126,26,83,58,,,,10,28,4,5,0.5,1.1
2026-01-05T0600,4310A,103.207136,35.599807,临夏回族自治州,新华街21号,,49,49,92,31,70,57,,,,14,23,11,10,0.4,0.9
2026-01-05T0600,1618A,118.3429,35.0532,临沂市,沂河小区,细颗粒物(PM2.5),273,,196,223,176,20,,,,54,80,16,22,1.4,1.4
2026-01-05T0600,1619A,118.2962,35.0568,临沂市,鲁南制药厂,细颗粒物(PM2.5),259,222,215,209,175,26,,,,47,81,16,29,1.3,1.4
2026-01-05T0600,1620A,118.2793,34.9976,临沂市,新光毛纺厂,细颗粒物(PM2.5),245,202,199,195,166,23,,,,48,72,17,27,1.4,1.5
2026-01-05T0600,1621A,118.3955,35.0889,临沂市,河东保险公司,细颗粒物(PM2.5),230,212,200,180,154,15,,,,50,75,10,18,1.3,1.4
2026-01-05T0600,3370A,118.3563,35.0215,临沂市,十里堡居委,细颗粒物(PM2.5),225,212,195,175,146,26,,,,50,82,14,26,1.6,1.5
2026-01-05T0600,3496A,118.359,35.1067,临沂市,南坊新区,细颗粒物(PM2.5),245,210,193,195,155,19,,,,55,78,15,19,1.6,1.5
2026-01-05T0600,3860A,118.3915,35.0297,临沂市,皇山花园小区,细颗粒物(PM2.5),212,212,193,162,140,20,,,,59,88,16,27,1.6,1.5
2026-01-05T0600,1870A,109.4854,24.3898,柳州市,柳东小学,,12,8,33,6,31,36,,,,4,10,7,8,0.7,0.7
2026-01-05T0600,1871A,109.4109,24.3304,柳州市,环保监测站,,14,14,31,9,23,36,,,,9,20,5,7,0.6,0.9
2026-01-05T0600,1872A,109.3886,24.3408,柳州市,河西水厂,,16,14,40,11,28,24,,,,22,20,11,11,1.3,0.8
2026-01-05T0600,1873A,109.4263,24.2951,柳州市,市四中,,12,,25,8,19,37,,,,7,18,9,10,0.6,0.9
2026-01-05T0600,1874A,109.396,24.3658,柳州市,市九中,,13,12,27,9,27,32,,,,11,19,8,12,0.6,1
2026-01-05T0600,1875A,109.4912,24.3164,柳州市,古亭山,,12,6,27,3,22,36,,,,3,9,9,9,0.7,0.8
2026-01-05T0600,3402A,109.5422,24.3994,柳州市,市二中,,12,7,34,6,28,36,,,,8,15,7,8,0.6,0.7
2026-01-05T0600,2307A,116.5078,31.7369,六安市,监测大楼,,43,43,59,30,51,50,,,,11,21,2,2,0.5,0.6
2026-01-05T0600,2308A,116.4738,31.7642,六安市,皖西学院,细颗粒物(PM2.5),57,61,72,40,53,48,,,,15,23,4,4,0.5,0.5
2026-01-05T0600,2309A,116.4997,31.7904,六安市,朝阳厂,,46,44,64,32,53,40,,,,17,27,7,5,0.6,0.6
2026-01-05T0600,2310A,116.5566,31.7885,六安市,开发区,细颗粒物(PM2.5),64,61,81,46,61,37,,,,18,30,1,1,0.5,0.6
2026-01-05T0600,2577A,104.8293,26.592,六盘水市,黄土坡,,13,12,14,3,11,41,,,,13,12,8,11,0.7,0.8
2026-01-05T0600,2579A,104.8481,26.5898,六盘水市,民中,,14,14,16,9,11,41,,,,7,12,3,4,0.7,0.7
2026-01-05T0600,2580A,104.9541,26.5506,六盘水市,双水,,20,,18,14,12,43,,,,6,9,4,4,0.4,0.5
2026-01-05T0600,4151A,104.8899,26.5685,六盘水市,钟山大道中段564号,,12,10,19,3,11,36,,,,9,11,5,5,0.9,0.9
2026-01-05T0600,2336A,117.022,25.1031,龙岩市,龙岩市监测站,,,43,34,41,22,3,,,,49,30,,18,0.5,0.5
2026-01-05T0600,2337A,117.0257,25.0662,龙岩市,闽西职业技术学院,,,31,36,16,17,20,,,,28,25,,14,0.4,0.4
2026-01-05T0600,2338A,117.0195,25.0306,龙岩市,龙岩学院,,25,23,27,17,18,28,,,,16,14,8,9,/,/
2026-01-05T0600,2885A,104.9344,33.3827,陇南市,滨江中学,颗粒物(PM10),57,64,72,35,41,30,,,,38,28,10,8,0.9,1.1
2026-01-05T0600,3247A,104.9551,33.3709,陇南市,市总工会,颗粒物(PM10),55,59,72,33,40,27,,,,30,25,3,3,0.8,0.8
2026-01-05T0600,2488A,111.9984,27.7346,娄底市,市监测站,细颗粒物(PM2.5),64,59,43,46,34,2,,,,26,20,16,5,1.1,0.9
2026-01-05T0600,2491A,111.9888,27.7035,娄底市,市政府,,50,41,33,35,31,5,,,,16,15,4,5,0.8,0.7
2026-01-05T0600,4127A,111.9812,27.7591,娄底市,涟钢职大,,50,49,42,35,29,4,,,,19,20,3,4,0.8,0.8
2026-01-05T0600,4128A,112.0303,27.7457,娄底市,娄底体校,,46,,37,32,31,10,,,,12,15,2,2,0.7,0.7
2026-01-05T0600,1894A,105.4427,28.9063,泸州市,小市上码头,,41,41,43,22,29,0,,,,28,27,7,7,1.0,1
2026-01-05T0600,1895A,105.4241,28.8573,泸州市,兰田宪桥,,33,31,42,23,30,4,,,,14,20,7,7,1.0,1
2026-01-05T0600,1896A,105.4378,28.8833,泸州市,市环监站,,38,36,40,26,28,5,,,,24,27,7,7,0.9,0.8
2026-01-05T0600,4272A,105.3689,28.7783,泸州市,纳溪中医医院,,30,23,47,21,37,2,,,,10,16,7,7,0.8,0.9
2026-01-05T0600,2183A,111.1447,37.5212,吕梁市,环保局,颗粒物(PM10),63,76,100,42,47,1,,,,44,50,4,10,0.8,0.9
2026-01-05T0600,2185A,111.1285,37.5338,吕梁市,自来水公司,颗粒物(PM10),88,126,120,45,48,2,,,,42,48,9,13,1.0,1.1
2026-01-05T0600,2867A,111.1225,37.5093,吕梁市,马茂庄小学,,,87,114,37,44,,,,,43,51,4,13,0.9,1
2026-01-05T0600,1812A,112.3934,34.6517,洛阳市,市委党校,细颗粒物(PM2.5),64,58,68,46,61,53,,,,23,24,9,9,0.6,0.7
2026-01-05T0600,1815A,112.494,34.6883,洛阳市,河南林校,细颗粒物(PM2.5),85,76,78,63,70,14,,,,48,29,8,12,0.9,0.9
2026-01-05T0600,1816A,112.3843,34.623,洛阳市,开发区管委会,细颗粒物(PM2.5),68,57,72,49,64,52,,,,17,19,9,8,0.6,0.7
2026-01-05T0600,1817A,112.4263,34.6249,洛阳市,市委新办公区,细颗粒物(PM2.5),77,60,76,56,68,56,,,,19,20,10,9,0.6,0.7
2026-01-05T0600,3340A,112.6005,34.6323,洛阳市,伊滨,细颗粒物(PM2.5),73,62,78,53,66,49,,,,24,27,6,8,0.7,0.9
2026-01-05T0600,3341A,112.495,34.6338,洛阳市,中移产业园,细颗粒物(PM2.5),73,56,70,53,69,49,,,,28,31,11,10,0.6,0.7
2026-01-05T0600,3593A,112.5736,34.8993,洛阳市,吉利监测站,细颗粒物(PM2.5),100,79,81,75,86,32,,,,28,33,4,7,0.8,1
2026-01-05T0600,3635A,112.3678,34.6623,洛阳市,河科大西苑校区,细颗粒物(PM2.5),64,59,70,46,59,45,,,,30,27,10,9,0.6,0.7
2026-01-05T0600,3636A,112.4387,34.678,洛阳市,英才小学,细颗粒物(PM2.5),83,77,77,61,72,38,,,,46,36,11,12,0.9,0.9
2026-01-05T0600,4214A,112.460027,34.694929,洛阳市,春都路1号院,细颗粒物(PM2.5),74,87,91,54,60,26,,,,34,24,8,11,1.0,1
2026-01-05T0600,2399A,114.051,33.5721,漯河市,三五一五工厂,细颗粒物(PM2.5),124,134,106,94,84,10,,,,39,19,9,7,1.1,1
2026-01-05T0600,2400A,114.0055,33.5698,漯河市,漯河大学,细颗粒物(PM2.5),117,100,84,88,74,6,,,,44,24,6,6,0.9,0.8
2026-01-05T0600,2401A,114.0134,33.5826,漯河市,市水利局,细颗粒物(PM2.5),113,102,83,85,78,7,,,,42,23,8,7,1.0,0.9
2026-01-05T0600,2402A,114.0261,33.5697,漯河市,市广电局,细颗粒物(PM2.5),128,105,82,97,80,9,,,,36,17,7,7,1.0,0.8
2026-01-05T0600,3478A,113.9691,33.568,漯河市,市图书馆,细颗粒物(PM2.5),117,115,96,88,79,8,,,,38,21,4,5,1.1,1
2026-01-05T0600,4250A,114.089259,33.588274,漯河市,韶山路11号,细颗粒物(PM2.5),109,112,100,82,82,4,,,,37,24,8,7,0.7,0.7
2026-01-05T0600,1798A,118.5084,31.6838,马鞍山市,湖东路四小,细颗粒物(PM2.5),94,93,112,70,87,20,,,,37,51,12,10,1.4,1.5
2026-01-05T0600,1799A,118.5019,31.6449,马鞍山市,开发区,细颗粒物(PM2.5),108,89,116,81,102,25,,,,28,49,5,7,0.8,1.1
2026-01-05T0600,3633A,118.4914,31.681,马鞍山市,雨山,,,98,112,72,89,19,,,,,56,25,12,1.1,1.3
2026-01-05T0600,4191A,118.527362,31.722269,马鞍山市,慈湖高新区,细颗粒物(PM2.5),103,89,122,77,100,24,,,,32,53,12,10,0.7,1.1
2026-01-05T0600,1686A,111.0285,21.469,茂名市,电白南海,颗粒物(PM10),64,78,66,44,35,58,,,,31,23,25,18,0.7,0.6
2026-01-05T0600,1687A,110.9294,21.6533,茂名市,茂石化七小,颗粒物(PM10),63,75,56,36,27,70,,,,25,22,19,16,0.3,0.3
2026-01-05T0600,1688A,110.9108,21.6688,茂名市,健康路,颗粒物(PM10),59,68,48,41,27,47,,,,34,23,33,19,0.8,0.7
2026-01-05T0600,1689A,110.8592,21.6826,茂名市,高岭,颗粒物(PM10),82,114,77,48,29,16,,,,43,28,30,18,/,/
2026-01-05T0600,3450A,111.0101,21.5165,茂名市,电白水东,颗粒物(PM10),63,75,56,39,28,91,,,,14,14,14,14,/,/
2026-01-05T0600,2540A,103.8414,30.0871,眉山市,气象局,细颗粒物(PM2.5),64,55,48,46,36,3,,,,26,28,8,8,0.7,0.8
2026-01-05T0600,3148A,103.829,30.0563,眉山市,区人社局,细颗粒物(PM2.5),64,58,48,46,35,2,,,,25,27,5,6,0.8,0.8
2026-01-05T0600,4148A,103.8836,30.0695,眉山市,眉职院,细颗粒物(PM2.5),55,52,41,39,28,1,,,,18,18,3,1,0.7,0.7
2026-01-05T0600,1690A,116.1248,24.3307,梅州市,梅江月梅,颗粒物(PM10),52,54,46,27,28,2,,,,35,29,/,/,/,/
2026-01-05T0600,1691A,116.0798,24.2719,梅州市,梅县新城,,36,32,48,25,35,16,,,,27,37,6,8,0.4,0.6
2026-01-05T0600,3315A,116.1234,24.2994,梅州市,梅龙,,39,39,49,26,29,9,,,,32,31,9,11,0.5,0.6
2026-01-05T0600,1878A,104.7775,31.4741,绵阳市,富乐山,,49,43,38,34,30,31,,,,11,21,11,11,0.7,0.9
2026-01-05T0600,1880A,104.6698,31.4668,绵阳市,高新区自来水公司,"颗粒物(PM10),细颗粒物(PM2.5)",62,73,65,44,42,0,,,,33,35,8,9,1.0,1
2026-01-05T0600,3491A,104.6899,31.5324,绵阳市,西科大附属小学,颗粒物(PM10),57,64,59,37,44,2,,,,23,26,8,8,1.5,1.3
2026-01-05T0600,3492A,104.5647,31.5343,绵阳市,安州区旅游局,细颗粒物(PM2.5),55,50,56,39,45,9,,,,25,27,12,14,0.9,0.9
2026-01-05T0600,4146A,104.7092,31.4972,绵阳市,科技城新区公安局,细颗粒物(PM2.5),67,64,52,48,41,0,,,,25,30,4,4,1.0,0.9
2026-01-05T0600,4226A,104.765114,31.453094,绵阳市,绵阳市气象局,细颗粒物(PM2.5),59,48,46,42,35,19,,,,20,31,8,9,0.9,1
2026-01-05T0600,1784A,129.61,44.561,牡丹江市,环保大楼,,46,42,48,32,29,41,,,,19,17,13,10,0.8,0.9
2026-01-05T0600,1787A,129.6364,44.6075,牡丹江市,机车工厂,颗粒物(PM10),75,100,63,50,35,14,,,,41,26,4,6,1.1,0.5
2026-01-05T0600,1788A,129.6386,44.5462,牡丹江市,第一中学,细颗粒物(PM2.5),52,,33,36,29,19,,,,27,19,4,5,0.5,0.5
2026-01-05T0600,4287A,129.5992,44.5964,牡丹江市,东晓云街98号,细颗粒物(PM2.5),63,53,47,45,38,27,,,,25,22,7,4,1.0,0.7
2026-01-05T0600,2531A,105.0703,29.61,内江市,市监测站,细颗粒物(PM2.5),53,38,46,37,37,16,,,,18,24,5,5,0.7,0.8
2026-01-05T0600,2533A,105.0657,29.5807,内江市,内江二中,细颗粒物(PM2.5),53,50,47,37,34,1,,,,28,32,4,4,1.0,0.9
2026-01-05T0600,2534A,105.0407,29.5828,内江市,内江日报社,细颗粒物(PM2.5),53,,37,37,32,3,,,,35,34,3,2,0.7,0.7
2026-01-05T0600,4147A,105.0433,29.6105,内江市,玉峰路西段888号,细颗粒物(PM2.5),52,49,44,36,32,12,,,,18,24,3,3,0.7,0.7
2026-01-05T0600,2628A,92.0653,31.4846,那曲市,那曲监测站,,14,8,46,3,31,42,,,,7,26,7,11,0.9,1.3
2026-01-05T0600,4243A,92.0515,31.4787,那曲市,那曲市委宣传部,,20,20,30,10,19,29,,,,15,22,6,7,1.5,1.3
2026-01-05T0600,1291A,115.8887,28.7006,南昌市,省林业公司,,39,,41,27,45,39,,,,9,27,4,4,1.1,1.2
2026-01-05T0600,1292A,115.813,28.7443,南昌市,林科所,,,24,40,17,36,31,,,,21,28,,4,0.6,0.7
2026-01-05T0600,1294A,115.8518,28.687,南昌市,建工学校,,45,37,56,31,45,35,,,,21,34,11,12,0.6,0.7
2026-01-05T0600,1295A,115.8926,28.6425,南昌市,象湖,,39,28,44,27,44,34,,,,15,28,8,8,0.8,0.9
2026-01-05T0600,3046A,115.9084,28.6062,南昌市,机电学校,,42,35,56,29,46,36,,,,16,27,4,4,0.6,0.7
2026-01-05T0600,3690A,115.9718,28.7032,南昌市,外国语学校,细颗粒物(PM2.5),55,,56,39,51,14,,,,44,33,10,11,0.6,0.6
2026-01-05T0600,4106A,115.7923,28.6873,南昌市,工业二路,,36,31,49,25,42,49,,,,4,22,4,4,0.3,0.5
2026-01-05T0600,4192A,115.931587,28.686774,南昌市,南京东路235号,细颗粒物(PM2.5),53,,49,37,52,40,,,,25,33,4,5,0.4,0.5
2026-01-05T0600,1906A,106.0791,30.8022,南充市,南充市委,,42,38,48,29,43,1,,,,16,25,4,4,0.7,0.8
2026-01-05T0600,1907A,106.1038,30.8215,南充市,南充炼油厂,,48,42,59,33,46,5,,,,18,24,5,6,0.5,0.6
2026-01-05T0600,4227A,106.108336,30.788436,南充市,梨树横街98号,,45,45,48,22,38,11,,,,20,25,5,5,0.6,0.8
2026-01-05T0600,4304A,106.1172,30.843,南充市,清泉寺北路188号,,22,20,37,15,36,4,,,,15,19,7,6,0.8,0.9
2026-01-05T0600,4305A,106.067,30.7616,南充市,同庆路1号,细颗粒物(PM2.5),62,47,48,44,39,2,,,,20,25,5,6,0.6,1.4
2026-01-05T0600,1151A,118.8033,32.1085,南京市,迈皋桥,细颗粒物(PM2.5),85,82,88,63,65,29,,,,22,34,4,3,1.1,0.9
2026-01-05T0600,1152A,118.7487,32.057,南京市,草场门,细颗粒物(PM2.5),83,75,88,61,68,24,,,,31,44,7,7,0.5,0.6
2026-01-05T0600,1154A,118.770105,32.004342,南京市,中华门,细颗粒物(PM2.5),85,73,88,63,72,26,,,,23,44,5,5,0.6,0.8
2026-01-05T0600,1155A,118.8059,32.0329,南京市,瑞金路,细颗粒物(PM2.5),89,83,92,66,73,26,,,,41,61,4,4,0.8,0.9
2026-01-05T0600,1156A,118.7946,32.0774,南京市,玄武湖,细颗粒物(PM2.5),90,80,92,67,68,22,,,,24,28,4,4,0.6,0.7
2026-01-05T0600,1157A,118.6415,32.0964,南京市,浦口,细颗粒物(PM2.5),90,88,94,67,68,31,,,,28,41,8,8,0.8,0.9
2026-01-05T0600,1158A,118.730129,32.000956,南京市,奥体中心,细颗粒物(PM2.5),89,76,92,66,74,36,,,,34,56,7,7,0.6,0.8
2026-01-05T0600,1159A,118.9072,32.1047,南京市,仙林大学城,细颗粒物(PM2.5),85,83,89,63,70,20,,,,34,50,6,7,1.0,1.1
2026-01-05T0600,3422A,118.8443,31.919,南京市,江宁彩虹桥,细颗粒物(PM2.5),79,74,99,58,75,24,,,,23,46,4,4,0.5,0.7
2026-01-05T0600,3427A,118.8497,32.3599,南京市,六合雄州,细颗粒物(PM2.5),85,76,83,63,59,20,,,,25,35,6,8,0.7,0.6
2026-01-05T0600,4086A,118.7641,32.0841,南京市,新模范马路66号,细颗粒物(PM2.5),95,92,103,71,78,18,,,,32,45,6,6,1.0,1.1
2026-01-05T0600,4249A,118.8707617,31.34017673,南京市,汶溪路181号,细颗粒物(PM2.5),104,90,99,78,93,39,,,,28,43,6,7,0.8,0.8
2026-01-05T0600,4312A,119.019,31.6512,南京市,中山西路1号,细颗粒物(PM2.5),98,,80,73,87,24,,,,23,42,3,4,0.9,0.9
2026-01-05T0600,1401A,108.3098,22.788,南宁市,二十一中,,26,,54,18,52,12,,,,12,24,4,6,0.8,0.9
2026-01-05T0600,1402A,108.3135,22.8529,南宁市,北湖,,13,12,55,9,44,16,,,,15,28,4,8,0.7,0.8
2026-01-05T0600,1403A,108.3205,22.8222,南宁市,市监测站,,29,,56,20,44,12,,,,8,24,8,9,0.7,0.8
2026-01-05T0600,1404A,108.3828,22.8038,南宁市,大自然花园,,35,,63,24,51,24,,,,13,25,5,7,0.7,0.8
2026-01-05T0600,1406A,108.2397,22.8462,南宁市,区农职院,,13,12,54,9,42,12,,,,14,26,6,8,0.8,0.9
2026-01-05T0600,1407A,108.3285,22.7356,南宁市,英华嘉园,,18,,63,12,54,18,,,,11,21,4,5,0.7,0.8
2026-01-05T0600,3401A,108.4829,22.762,南宁市,红星社区,,13,11,58,9,48,41,,,,7,17,5,7,0.6,0.8
2026-01-05T0600,4132A,108.2927,23.1477,南宁市,起凤路9号,,8,6,43,3,39,15,,,,4,12,1,2,0.8,0.9
2026-01-05T0600,4221A,108.2177,22.7774,南宁市,乐贤路16号,,24,24,65,16,44,16,,,,2,17,3,4,0.5,0.7
2026-01-05T0600,2332A,118.1682,26.6371,南平市,南平市监测站,,28,28,27,19,19,8,,,,30,25,4,5,0.4,0.5
2026-01-05T0600,2334A,118.1757,26.6276,南平市,南平七中,,,28,23,20,17,13,,,,26,21,,5,0.5,0.5
2026-01-05T0600,1168A,120.9056,31.9669,南通市,狼山街道,细颗粒物(PM2.5),129,112,81,98,70,13,,,,44,49,4,4,1.2,1
2026-01-05T0600,1170A,120.8635,32.0231,南通市,城中,细颗粒物(PM2.5),120,114,90,91,67,12,,,,47,60,6,5,0.9,0.8
2026-01-05T0600,1171A,120.9376,31.9301,南通市,星湖花园,细颗粒物(PM2.5),129,116,85,98,70,17,,,,47,52,6,6,1.4,1.2
2026-01-05T0600,1172A,120.8053,32.046,南通市,紫琅学院,细颗粒物(PM2.5),125,122,95,95,72,20,,,,40,61,5,5,1.0,1
2026-01-05T0600,3291A,121.0631,32.0644,南通市,通州监测站,细颗粒物(PM2.5),134,112,74,102,66,4,,,,63,51,3,4,1.2,0.9
2026-01-05T0600,3432A,120.9348,31.9874,南通市,环境教育馆,细颗粒物(PM2.5),128,107,78,97,68,14,,,,55,58,6,5,1.0,0.9
2026-01-05T0600,4091A,120.8692,31.9885,南通市,洪江路,细颗粒物(PM2.5),128,112,87,97,71,13,,,,49,61,4,4,0.7,0.6
2026-01-05T0600,2404A,112.5338,33.0086,南阳市,瓦房庄,细颗粒物(PM2.5),120,104,96,91,92,3,,,,31,25,6,6,1.0,1
2026-01-05T0600,2405A,112.5002,32.9734,南阳市,汉画馆,细颗粒物(PM2.5),99,96,98,74,85,0,,,,27,27,6,6,1.1,1.1
2026-01-05T0600,2406A,112.5778,33.0144,南阳市,气象站,细颗粒物(PM2.5),122,113,103,92,85,14,,,,28,25,5,5,0.9,0.9
2026-01-05T0600,2407A,112.548,32.9687,南阳市,理工学院,细颗粒物(PM2.5),102,97,89,76,70,12,,,,30,27,5,5,1.1,1.1
2026-01-05T0600,4008A,112.5233,32.9921,南阳市,卧龙区政府,细颗粒物(PM2.5),114,113,100,86,87,5,,,,29,24,6,5,1.0,0.9
2026-01-05T0600,1234A,121.8352,29.9111,宁波市,区环保大楼,细颗粒物(PM2.5),103,89,63,77,41,15,,,,53,50,6,6,0.9,0.8
2026-01-05T0600,1235A,121.5595,29.8208,宁波市,万里学院,细颗粒物(PM2.5),119,125,87,90,59,21,,,,39,53,5,5,0.7,0.6
2026-01-05T0600,1236A,121.713,29.9564,宁波市,龙赛医院,细颗粒物(PM2.5),115,100,83,87,57,16,,,,47,57,,5,0.7,0.7
2026-01-05T0600,1240A,121.5855,29.8635,宁波市,太古小学,,,104,80,,44,23,,,,35,48,2,3,0.7,0.7
2026-01-05T0600,1241A,121.5239,29.8673,宁波市,市环境监测中心,细颗粒物(PM2.5),123,99,84,93,63,16,,,,,52,6,7,0.8,0.8
2026-01-05T0600,2871A,121.6156,29.9015,宁波市,万里国际学校,细颗粒物(PM2.5),129,114,81,98,61,15,,,,45,56,3,4,0.7,0.6
2026-01-05T0600,3710A,121.5593,29.8976,宁波市,白沙活动中心,细颗粒物(PM2.5),123,99,75,93,61,19,,,,41,56,4,5,0.7,0.7
2026-01-05T0600,4095A,121.8962,29.7529,宁波市,中科路88号,细颗粒物(PM2.5),102,82,48,76,38,14,,,,46,32,4,5,0.8,0.7
2026-01-05T0600,2341A,119.5387,26.6611,宁德市,宁德市监测站,,,22,34,12,16,17,,,,23,27,,7,0.7,0.7
2026-01-05T0600,3209A,119.5231,26.6562,宁德市,宁德一中,,,17,29,13,22,27,,,,14,21,,5,0.7,0.7
2026-01-05T0600,2618A,98.859,25.8541,怒江傈僳族自治州,州监测站,,20,18,26,14,19,42,,,,6,10,5,6,0.3,0.4
2026-01-05T0600,2619A,98.8607,25.8168,怒江傈僳族自治州,泸水一中,,15,,24,10,19,25,,,,8,16,6,6,0.4,0.5
2026-01-05T0600,1888A,101.6891,26.571,攀枝花市,弄弄坪,,,62,48,27,26,,,,,33,34,8,15,1.2,1.3
2026-01-05T0600,1889A,101.577,26.5914,攀枝花市,河门口,,39,39,47,22,22,13,,,,26,24,13,26,0.8,0.9
2026-01-05T0600,1891A,101.7365,26.4986,攀枝花市,仁和,,22,22,29,13,17,32,,,,14,17,7,9,0.5,0.6
2026-01-05T0600,2835A,101.7222,26.567,攀枝花市,四十中小,,39,39,35,23,21,23,,,,24,34,11,12,0.8,1
2026-01-05T0600,1604A,122.0303,41.1489,盘锦市,开发区,,,20,68,11,51,44,,,,16,32,,7,0.5,1.1
2026-01-05T0600,1605A,122.0486,41.0883,盘锦市,兴隆台,,,12,63,8,48,51,,,,22,47,,8,0.3,1.1
2026-01-05T0600,1606A,121.8297,41.1026,盘锦市,新生街道,,,18,51,7,31,21,,,,44,43,,8,0.4,0.7
2026-01-05T0600,1832A,113.3257,33.7423,平顶山市,新华旅馆,细颗粒物(PM2.5),117,113,99,88,76,27,,,,31,29,7,7,0.7,0.7
2026-01-05T0600,1833A,113.2917,33.737,平顶山市,规划设计院,细颗粒物(PM2.5),100,102,91,75,69,34,,,,42,32,8,7,0.6,0.7
2026-01-05T0600,1834A,113.182,33.7738,平顶山市,平顶山工学院,细颗粒物(PM2.5),83,74,73,61,64,50,,,,19,17,11,8,0.4,0.5
2026-01-05T0600,3594A,112.8736,33.9068,平顶山市,石龙区,细颗粒物(PM2.5),67,64,64,48,54,54,,,,23,23,6,6,0.8,0.8
2026-01-05T0600,4116A,113.284,33.7139,平顶山市,姚电大道23号,细颗粒物(PM2.5),156,150,98,119,78,1,,,,49,25,8,9,0.9,0.8
2026-01-05T0600,2656A,106.6633,35.5338,平凉市,聚贤嘉苑,,38,38,35,21,23,50,,,,19,22,8,8,0.8,0.7
2026-01-05T0600,2657A,106.7021,35.5307,平凉市,博物馆,,39,36,41,27,30,51,,,,19,21,9,10,0.9,0.8
2026-01-05T0600,2348A,113.8384,27.6436,萍乡市,中医院,,,55,70,40,47,24,,,,17,27,,4,1.0,1.1
2026-01-05T0600,2350A,113.8677,27.6438,萍乡市,市环保局,细颗粒物(PM2.5),53,40,53,37,46,20,,,,21,26,16,15,0.9,0.9
2026-01-05T0600,2351A,113.8663,27.6202,萍乡市,安源区政府,"颗粒物(PM10),细颗粒物(PM2.5)",54,57,72,38,57,12,,,,22,27,15,12,0.9,1.1
2026-01-05T0600,4107A,113.8686,27.6668,萍乡市,联洪村委会,,40,38,56,28,44,22,,,,20,28,5,5,0.7,0.8
2026-01-05T0600,2319A,119.0142,25.4324,莆田市,荔城区仓后路,,46,38,44,32,21,23,,,,29,24,/,/,/,/
2026-01-05T0600,2320A,119.0016,25.4553,莆田市,莆田市监测站,,27,27,31,16,15,31,,,,11,12,4,4,0.7,0.7
2026-01-05T0600,2321A,119.112,25.4561,莆田市,涵江区六中,,33,33,41,23,20,16,,,,33,28,/,/,0.6,0.7
2026-01-05T0600,2322A,119.1014,25.3215,莆田市,秀屿区政府,细颗粒物(PM2.5),107,,40,80,25,10,,,,36,21,6,4,1.1,0.8
2026-01-05T0600,2392A,115.0312,35.7636,濮阳市,环保局,细颗粒物(PM2.5),234,198,148,184,142,7,,,,53,36,7,7,1.8,1.6
2026-01-05T0600,3021A,115,35.7667,濮阳市,濮水河管理处,细颗粒物(PM2.5),226,234,180,176,139,7,,,,65,45,6,6,1.5,1.3
2026-01-05T0600,4118A,115.0552,35.7816,濮阳市,中原东路68号,细颗粒物(PM2.5),265,286,210,215,162,5,,,,58,39,5,5,1.5,1.2
2026-01-05T0600,4216A,115.0923632,35.76857718,濮阳市,任丘路479号,细颗粒物(PM2.5),260,224,172,210,159,1,,,,64,45,4,5,1.5,1.2
2026-01-05T0600,2601A,100.9801,22.7634,普洱市,市环保局,,32,30,39,22,22,15,,,,4,9,4,4,0.4,0.5
2026-01-05T0600,2602A,100.9763,22.8237,普洱市,普洱第二中学,,25,25,33,14,17,3,,,,14,14,5,5,0.5,0.5
2026-01-05T0600,3345A,131.0413,45.7795,七台河市,中波台,,35,26,47,24,24,37,,,,21,15,11,8,0.5,0.5
2026-01-05T0600,3637A,131.0136,45.7688,七台河市,人民广场,,,,53,37,31,,,,,18,19,10,9,0.5,0.5
2026-01-05T0600,3684A,130.8639,45.8144,七台河市,新建矿广场,,43,31,46,30,27,38,,,,17,10,9,9,0.4,0.4
2026-01-05T0600,1779A,123.9307,47.3641,齐齐哈尔市,安居小区,,16,15,23,11,15,51,,,,13,15,7,7,0.4,0.5
2026-01-05T0600,1780A,123.9497,47.3389,齐齐哈尔市,中心广场,,17,6,11,3,8,54,,,,10,13,7,6,0.4,0.5
2026-01-05T0600,1781A,123.9483,47.3229,齐齐哈尔市,农牧车辆厂,,17,12,19,6,13,54,,,,6,11,4,4,0.3,0.3
2026-01-05T0600,1783A,123.9442,47.2994,齐齐哈尔市,市环境监测站,,,16,22,8,10,59,,,,7,12,,7,0.4,0.5
2026-01-05T0600,3662A,123.6341,47.2079,齐齐哈尔市,富区青少年活动中心,,17,12,34,7,13,54,,,,9,13,7,7,0.5,0.5
2026-01-05T0600,2591A,107.9765,26.5724,黔东南苗族侗族自治州,市环境监测站,,33,,28,23,26,22,,,,8,16,5,6,0.7,0.8
2026-01-05T0600,2881A,107.8909,26.531,黔东南苗族侗族自治州,凯里学院,,28,22,22,19,17,18,,,,10,16,4,4,0.7,0.8
2026-01-05T0600,2593A,107.5223,26.2371,黔南布依族苗族自治州,小围寨,,18,17,17,12,16,16,,,,5,9,6,5,0.8,0.8
2026-01-05T0600,3538A,107.5175,26.2977,黔南布依族苗族自治州,沙坝,,28,19,23,19,21,15,,,,7,11,5,6,0.8,0.9
2026-01-05T0600,2589A,104.9022,25.0943,黔西南布依族苗族自治州,场坝街,,32,32,24,6,15,27,,,,11,11,8,6,0.6,0.7
2026-01-05T0600,2590A,104.8812,25.0994,黔西南布依族苗族自治州,坪东大道,,30,,20,21,13,30,,,,11,10,10,6,0.7,0.7
2026-01-05T0600,2502A,108.6238,21.9667,钦州市,市环保站,,48,48,85,29,64,26,,,,19,25,2,4,1.5,0.9
2026-01-05T0600,2503A,108.655,21.9481,钦州市,沙埠小学,,43,31,74,30,61,33,,,,16,24,4,6,0.7,0.8
2026-01-05T0600,2504A,108.5989,21.7435,钦州市,港区一小,细颗粒物(PM2.5),55,51,75,39,46,19,,,,26,33,7,8,1.0,0.7
2026-01-05T0600,3404A,108.5959,21.9634,钦州市,北职校,细颗粒物(PM2.5),59,43,78,42,58,26,,,,13,21,7,8,0.8,0.8
2026-01-05T0600,1046A,119.5247,39.9346,秦皇岛市,建设大厦,细颗粒物(PM2.5),69,69,88,50,56,12,,,,50,52,8,10,1.0,1.1
2026-01-05T0600,3132A,119.5979,39.938,秦皇岛市,文明里,颗粒物(PM10),66,81,98,39,39,1,,,,51,54,10,13,0.8,0.8
2026-01-05T0600,4066A,119.7458,39.9952,秦皇岛市,南园路157号,颗粒物(PM10),57,63,87,28,54,3,,,,59,53,10,13,1.3,1.2
2026-01-05T0600,4067A,119.5131,39.8858,秦皇岛市,翠岛大街1号,颗粒物(PM10),58,66,64,39,39,5,,,,53,46,11,13,1.0,0.9
2026-01-05T0600,4198A,119.509013,39.825305,秦皇岛市,北戴河轮滑馆,细颗粒物(PM2.5),69,67,71,50,47,6,,,,56,49,6,6,1.9,1.3
2026-01-05T0600,1310A,120.404,36.0625,青岛市,市南区东部子站,细颗粒物(PM2.5),125,129,174,95,122,20,,,,40,71,10,16,1.1,1.3
2026-01-05T0600,1311A,120.362344,36.10282,青岛市,四方区子站,细颗粒物(PM2.5),160,,142,122,146,7,,,,48,70,5,11,1.3,1.5
2026-01-05T0600,1312A,120.294373,36.054183,青岛市,市南区西部子站,细颗粒物(PM2.5),129,136,180,98,137,15,,,,35,54,4,9,1.3,1.4
2026-01-05T0600,1313A,120.4581,36.0858,青岛市,崂山区子站,细颗粒物(PM2.5),100,105,154,75,110,28,,,,39,63,11,15,1.2,1.4
2026-01-05T0600,1315A,120.3945,36.3083,青岛市,城阳区子站,,,,205,,126,,,56,,,68,,16,,1.9
2026-01-05T0600,3642A,120.3454,36.0735,青岛市,市北区南部,细颗粒物(PM2.5),134,193,184,102,135,14,,,,35,63,5,11,1.2,1.4
2026-01-05T0600,3643A,120.3897,36.18,青岛市,李沧区北部,细颗粒物(PM2.5),199,166,196,149,159,6,,,,46,78,9,15,1.6,1.7
2026-01-05T0600,4110A,120.5222,36.4089,青岛市,盟旺路653号,细颗粒物(PM2.5),83,101,179,61,132,39,,,,27,57,4,8,0.7,1.3
2026-01-05T0600,4290A,120.196923,35.954556,青岛市,珠江路669号,细颗粒物(PM2.5),178,146,183,134,146,,,,,55,89,11,17,1.3,1.3
2026-01-05T0600,4291A,120.0424,35.8656,青岛市,黄岛区人民政府广场,细颗粒物(PM2.5),188,163,182,141,145,24,,,,46,70,9,13,1.5,1.6
2026-01-05T0600,1703A,113.0218,23.7086,清远市,凤城街办,"颗粒物(PM10),细颗粒物(PM2.5)",55,60,52,39,35,13,,,,59,34,/,/,/,/
2026-01-05T0600,3025A,113.0479,23.6343,清远市,技师学院,,,58,58,35,33,,,,,55,46,12,9,0.7,0.8
2026-01-05T0600,3318A,112.9898,23.7403,清远市,清新太和,颗粒物(PM10),54,58,46,37,30,30,,,,44,26,8,8,0.7,0.6
2026-01-05T0600,3455A,113.076,23.72,清远市,清城东城,颗粒物(PM10),51,51,49,33,30,42,,,,25,30,/,/,/,/
2026-01-05T0600,2661A,107.6325,35.7357,庆阳市,庆阳五中,,42,42,35,29,28,76,,,,10,13,4,5,0.5,0.5
2026-01-05T0600,2662A,107.6361,35.7067,庆阳市,市环保局,,50,50,40,27,26,79,,,,7,9,3,2,0.4,0.4
2026-01-05T0600,1916A,103.7897,25.5036,曲靖市,环境监测站,,22,22,24,9,12,9,,,,16,14,10,6,1.0,0.8
2026-01-05T0600,1917A,103.8013,25.5357,曲靖市,烟厂办公区,,22,22,22,15,9,13,,,,16,14,12,5,0.8,0.5
2026-01-05T0600,3376A,103.7926,25.4651,曲靖市,南苑二区,,19,19,23,12,13,11,,,,13,10,6,6,0.9,0.6
2026-01-05T0600,3377A,103.7442,25.5259,曲靖市,曲靖师范学院,,28,28,24,13,15,10,,,,16,12,9,3,0.8,0.5
2026-01-05T0600,1264A,118.8694,28.94,衢州市,环保大楼,细颗粒物(PM2.5),72,66,86,52,65,16,,,,24,46,/,/,/,/
2026-01-05T0600,1266A,118.8622,28.9809,衢州市,衢州学院,,29,24,76,20,58,26,,,,16,41,5,5,0.4,0.4
2026-01-05T0600,4097A,118.9646,28.9832,衢州市,衢州三中,细颗粒物(PM2.5),54,47,87,38,65,21,,,,20,41,6,6,0.6,0.6
2026-01-05T0600,1611A,118.5818,24.9116,泉州市,涂山街,细颗粒物(PM2.5),68,66,54,49,31,13,,,,37,28,4,3,0.8,0.6
2026-01-05T0600,1612A,118.597,24.8976,泉州市,津头埔,,,66,54,49,31,17,,,,36,30,,5,0.7,0.6
2026-01-05T0600,1613A,118.6669,24.9422,泉州市,万安,细颗粒物(PM2.5),58,55,51,41,27,9,,,,39,33,4,3,0.6,0.5
2026-01-05T0600,4105A,118.6355,24.9148,泉州市,霞新路6号,细颗粒物(PM2.5),63,62,46,45,28,10,,,,36,36,/,/,0.6,0.5
2026-01-05T0600,2626A,88.8873,29.2723,日喀则市,日喀则监测站,,28,28,30,14,14,34,,,,12,16,6,9,0.6,0.6
2026-01-05T0600,3726A,88.8775,29.2425,日喀则市,林业技术推广中心,,26,26,24,13,10,39,,,,8,6,11,11,0.6,0.4
2026-01-05T0600,1659A,119.4711,35.421,日照市,监测站,细颗粒物(PM2.5),135,129,161,103,122,37,,,,34,65,10,17,1.0,1.3
2026-01-05T0600,1660A,119.523,35.4216,日照市,市政府广场,细颗粒物(PM2.5),183,158,142,138,116,31,,,,36,53,11,15,0.8,0.9
2026-01-05T0600,1661A,119.5511,35.4113,日照市,港务局,细颗粒物(PM2.5),178,149,153,134,121,39,,,,34,48,10,13,1.0,1
2026-01-05T0600,3507A,119.5326,35.4627,日照市,职业技术学院,细颗粒物(PM2.5),144,161,146,110,103,32,,,,40,49,9,13,1.2,1.2
2026-01-05T0600,3604A,119.3267,35.1043,日照市,岚山环保分局,细颗粒物(PM2.5),228,210,190,178,151,40,,,,39,63,29,38,2.5,1.6
2026-01-05T0600,1835A,111.1922,34.7752,三门峡市,市政府,细颗粒物(PM2.5),77,61,74,56,75,15,,,,48,34,9,8,0.8,0.8
2026-01-05T0600,1836A,111.1588,34.794,三门峡市,开发区,细颗粒物(PM2.5),77,76,94,56,74,14,,,,30,27,4,5,0.8,0.8
2026-01-05T0600,3039A,111.1911,34.7829,三门峡市,三门峡市第一小学,细颗粒物(PM2.5),73,67,78,53,69,9,,,,44,28,5,8,1.0,0.9
2026-01-05T0600,3598A,111.1031,34.719,三门峡市,富达温泉假日酒店,,,76,75,56,68,,,,,30,30,4,12,0.8,0.9
2026-01-05T0600,2324A,117.621,26.2626,三明市,三钢,,,33,36,31,29,18,,,,23,33,,10,2.9,1.7
2026-01-05T0600,2325A,117.6352,26.2714,三明市,三明二中,,,32,33,28,24,13,,,,24,29,,12,1.0,1.2
2026-01-05T0600,2326A,117.6028,26.2377,三明市,三元区政府,,,28,38,25,24,17,,,,22,31,,7,0.7,0.9
2026-01-05T0600,1877A,109.4962,18.2682,三亚市,河西子站,,32,32,37,13,16,82,,,,6,7,4,4,0.4,0.5
2026-01-05T0600,3540A,109.7348,18.3443,三亚市,君悦子站,,32,32,43,16,16,35,,,,13,8,5,5,0.6,0.5
2026-01-05T0600,4135A,109.1714,18.3739,三亚市,城东小学站,,29,26,38,20,18,41,,,,8,10,/,/,/,/
2026-01-05T0600,2624A,91.7592,29.234,山南市,山南监测站,,19,19,28,7,13,46,,,,7,10,3,4,0.3,0.3
2026-01-05T0600,2625A,91.7701,29.2436,山南市,山南人民医院,,16,16,18,6,7,48,,,,5,8,3,2,0.3,0.3
2026-01-05T0600,1674A,116.6795,23.3666,汕头市,金平子站,细颗粒物(PM2.5),73,66,51,53,36,23,,,,46,28,13,10,1.0,0.8
2026-01-05T0600,1675A,116.7248,23.3632,汕头市,龙湖子站,细颗粒物(PM2.5),58,49,45,41,27,33,,,,29,22,12,12,/,/
2026-01-05T0600,1676A,116.7257,23.2774,汕头市,濠江子站,细颗粒物(PM2.5),77,,42,56,32,39,,,,29,22,10,9,/,/
2026-01-05T0600,1677A,116.7518,23.4712,汕头市,澄海子站,细颗粒物(PM2.5),54,45,50,38,36,32,,,,24,22,10,10,0.8,0.8
2026-01-05T0600,1678A,116.6088,23.2539,汕头市,潮阳子站,细颗粒物(PM2.5),65,55,50,47,30,32,,,,34,26,8,9,0.8,0.7
2026-01-05T0600,3444A,116.4539,23.2684,汕头市,潮南峡山,细颗粒物(PM2.5),87,89,57,64,36,28,,,,28,22,9,10,0.9,0.7
2026-01-05T0600,3624A,116.4069,23.2533,汕头市,潮南子站,细颗粒物(PM2.5),108,128,81,81,44,8,,,,47,29,9,9,/,/
2026-01-05T0600,1693A,115.3653,22.7751,汕尾市,市环保局,,48,36,39,33,26,59,,,,15,17,7,7,0.6,0.5
2026-01-05T0600,1695A,115.362,22.7926,汕尾市,新城中学,,40,32,42,28,25,61,,,,12,16,5,5,0.4,0.4
2026-01-05T0600,2645A,109.9155,33.8714,商洛市,监测站,,40,37,46,28,39,53,,,,22,21,5,5,0.5,0.5
2026-01-05T0600,3045A,109.9647,33.8486,商洛市,商州区中学,,46,34,47,32,42,42,,,,27,16,6,6,0.7,0.7
2026-01-05T0600,2408A,115.6701,34.4283,商丘市,环境监测站,细颗粒物(PM2.5),243,222,101,193,95,10,,,,40,27,3,2,1.0,0.5
2026-01-05T0600,2409A,115.6458,34.4047,商丘市,粮食局,细颗粒物(PM2.5),240,205,97,190,95,9,,,,39,27,5,4,1.6,0.8
2026-01-05T0600,3171A,115.6069,34.4465,商丘市,梁园区档案局,细颗粒物(PM2.5),231,184,89,181,90,2,,,,40,29,4,4,1.3,0.7
2026-01-05T0600,4119A,115.6701,34.3767,商丘市,北海东路185号,细颗粒物(PM2.5),246,231,115,196,96,12,,,,36,26,2,2,1.1,0.7
2026-01-05T0600,4120A,115.6172,34.3704,商丘市,中山大街3号,细颗粒物(PM2.5),256,226,118,206,98,10,,,,41,32,4,3,1.0,0.5
2026-01-05T0600,1141A,121.401,31.2382,上海市,普陀,细颗粒物(PM2.5),99,97,68,74,51,1,,,,74,65,6,7,1.2,0.7
2026-01-05T0600,1142A,121.4774,31.2043,上海市,十五厂,细颗粒物(PM2.5),90,89,65,67,44,4,,,,70,61,7,7,1.4,0.8
2026-01-05T0600,1143A,121.4673,31.3011,上海市,虹口,细颗粒物(PM2.5),95,92,73,71,46,0,,,,66,56,6,10,1.2,0.6
2026-01-05T0600,1147A,121.4253,31.226,上海市,静安监测站,细颗粒物(PM2.5),92,98,67,68,48,5,,,,69,56,7,7,1.1,0.6
2026-01-05T0600,1148A,121.7029,31.1905,上海市,浦东川沙,细颗粒物(PM2.5),87,83,63,64,39,4,,,,62,48,8,7,1.0,0.6
2026-01-05T0600,1149A,121.5339,31.229,上海市,浦东新区监测站,,,86,60,72,43,2,,,,76,60,,7,1.4,0.8
2026-01-05T0600,1150A,121.5776,31.2038,上海市,浦东张江,细颗粒物(PM2.5),92,88,61,68,41,4,,,,65,51,6,7,1.3,0.8
2026-01-05T0600,3265A,121.4242,31.3303,上海市,宝山庙行,细颗粒物(PM2.5),103,100,73,77,50,1,,,,70,65,8,7,1.1,0.6
2026-01-05T0600,3266A,121.8789,31.4662,上海市,崇明上实东滩,细颗粒物(PM2.5),95,82,46,71,36,35,,,,22,26,4,5,0.8,0.4
2026-01-05T0600,3268A,121.316,31.2839,上海市,嘉定南翔,细颗粒物(PM2.5),107,94,68,80,49,2,,,,67,61,4,5,1.3,0.7
2026-01-05T0600,3269A,121.3357,30.7455,上海市,金山新城,细颗粒物(PM2.5),104,,60,78,58,29,,,,36,56,6,9,1.0,0.9
2026-01-05T0600,3270A,121.4996,31.0741,上海市,闵行浦江,细颗粒物(PM2.5),84,70,57,62,42,3,,,,67,56,6,7,0.8,0.5
2026-01-05T0600,3271A,121.2886,31.1663,上海市,青浦徐泾,细颗粒物(PM2.5),89,91,73,66,50,0,,,,72,63,4,5,1.1,0.8
2026-01-05T0600,3272A,121.2193,31.0382,上海市,松江图书馆,颗粒物(PM10),69,88,81,46,37,10,,,,60,62,6,7,0.8,0.6
2026-01-05T0600,3273A,121.3904,31.206,上海市,长宁仙霞,细颗粒物(PM2.5),93,86,62,69,45,1,,,,73,63,7,7,0.9,0.7
2026-01-05T0600,3274A,121.7964,31.0507,上海市,浦东惠南,细颗粒物(PM2.5),89,72,56,66,42,13,,,,54,46,4,5,1.1,0.7
2026-01-05T0600,3544A,121.4891,30.925,上海市,奉贤南桥新城,细颗粒物(PM2.5),103,78,62,77,47,5,,,,74,55,7,9,1.0,0.8
2026-01-05T0600,4183A,121.417401,31.16637,上海市,冠生园路458号,细颗粒物(PM2.5),94,85,64,70,48,9,,,,76,64,5,5,0.8,0.5
2026-01-05T0600,4205A,121.541914,31.268301,上海市,宁武路151号,,,86,79,63,49,1,,,,70,65,,6,1.2,0.7
2026-01-05T0600,2382A,117.9758,28.4439,上饶市,市监测站,,35,31,67,24,42,48,,,,15,34,8,12,/,/
2026-01-05T0600,2383A,117.9521,28.4637,上饶市,凤凰光学,,32,32,66,19,38,43,,,,10,33,10,14,0.7,0.8
2026-01-05T0600,3685A,117.897,28.4316,上饶市,双创科技城,,45,,61,31,49,52,,,,17,41,9,11,0.8,0.8
2026-01-05T0600,4211A,118.190438,28.444845,上饶市,裕丰大道,,44,44,81,25,59,40,,,,18,38,18,26,0.7,0.9
2026-01-05T0600,1669A,113.5821,24.7733,韶关市,市八中,,26,20,59,18,42,37,,,,12,27,7,19,0.7,0.7
2026-01-05T0600,1671A,113.5916,24.7973,韶关市,园林处,,26,19,46,18,43,41,,,,12,24,8,21,/,/
2026-01-05T0600,1673A,113.5971,24.6864,韶关市,曲江监测站,,30,26,55,21,40,42,,,,10,26,9,19,0.5,0.7
2026-01-05T0600,2809A,113.6668,24.7756,韶关市,大学路288号,,48,36,52,33,38,38,,,,14,19,9,20,/,/
2026-01-05T0600,3622A,113.5556,24.8082,韶关市,碧湖山庄,,25,20,58,17,40,38,,,,12,19,6,12,0.6,0.5
2026-01-05T0600,2464A,111.5277,27.2442,邵阳市,市化工厂,,36,30,57,25,49,0,,,,22,22,9,11,1.1,1.1
2026-01-05T0600,2466A,111.4327,27.2276,邵阳市,市环保局,,26,18,45,18,48,20,,,,10,21,5,6,0.9,1.1
2026-01-05T0600,4218A,111.446,27.2472,邵阳市,北塔二期4-26地块,,38,,43,26,51,8,,,,12,20,5,5,0.9,1
2026-01-05T0600,4219A,111.4739,27.2282,邵阳市,邵水西路287号,,39,,51,27,54,15,,,,17,24,11,12,0.8,0.8
2026-01-05T0600,1247A,120.6053,29.9927,绍兴市,城东开发委,细颗粒物(PM2.5),158,123,106,120,93,6,,,,60,58,8,9,0.9,0.9
2026-01-05T0600,2921A,120.5482,30.0003,绍兴市,树下王站,细颗粒物(PM2.5),148,141,116,113,87,1,,,,61,58,7,7,0.9,0.8
2026-01-05T0600,3408A,120.5685,29.936,绍兴市,绍兴中专,细颗粒物(PM2.5),145,130,106,111,84,2,,,,49,53,7,7,0.9,0.8
2026-01-05T0600,3409A,120.4905,30.086,绍兴市,柯桥区政府,细颗粒物(PM2.5),100,117,116,75,83,2,,,,64,67,6,8,0.9,0.9
2026-01-05T0600,3410A,120.8751,30.0249,绍兴市,重华小学,细颗粒物(PM2.5),138,120,91,105,73,4,,,,66,58,7,7,0.9,0.8
2026-01-05T0600,3411A,120.837,30.0137,绍兴市,上虞中学,细颗粒物(PM2.5),149,124,94,114,77,0,,,,64,64,8,9,0.9,0.8
2026-01-05T0600,3560A,120.4715,30.0414,绍兴市,柯桥妇保,细颗粒物(PM2.5),132,108,105,100,86,2,,,,59,60,6,6,1.1,1
2026-01-05T0600,3658A,120.6156,30.0762,绍兴市,袍江中学,细颗粒物(PM2.5),142,120,118,108,94,3,,,,63,65,7,7,1.0,0.9
2026-01-05T0600,1356A,114.0948,22.5506,深圳市,通心岭子站,细颗粒物(PM2.5),64,76,62,46,37,0,,,,71,43,6,7,1.0,0.8
2026-01-05T0600,1357A,114.1153,22.5713,深圳市,洪湖,细颗粒物(PM2.5),95,138,85,71,41,1,,,,99,72,9,8,1.2,0.8
2026-01-05T0600,1358A,113.9823,22.5398,深圳市,华侨城,颗粒物(PM10),51,51,55,35,33,7,,,,70,43,/,/,/,/
2026-01-05T0600,1359A,113.9181,22.517,深圳市,南海子站,细颗粒物(PM2.5),73,82,69,53,42,1,,,,97,53,6,6,1.0,0.8
2026-01-05T0600,1360A,114.2345,22.565,深圳市,盐田,,19,19,38,10,21,47,,,,9,22,7,8,0.5,0.6
2026-01-05T0600,1363A,114.4911,22.5381,深圳市,南澳,,24,24,31,13,18,43,,,,8,11,/,/,/,/
2026-01-05T0600,1364A,114.41,22.6346,深圳市,葵涌,细颗粒物(PM2.5),59,61,44,42,26,24,,,,48,24,8,8,0.7,0.6
2026-01-05T0600,1365A,114.2967,22.5978,深圳市,梅沙,,24,19,39,8,20,75,,,,8,15,/,/,/,/
2026-01-05T0600,1366A,114.0563,22.7353,深圳市,观澜,细颗粒物(PM2.5),100,125,97,75,51,0,,,,68,57,8,8,1.0,0.8
2026-01-05T0600,3305A,114.0614,22.556,深圳市,莲花,颗粒物(PM10),58,65,56,40,32,22,,,,55,46,/,/,/,/
2026-01-05T0600,3306A,114.0144,22.6163,深圳市,民治,颗粒物(PM10),71,91,64,51,36,2,,,,92,68,/,/,/,/
2026-01-05T0600,3307A,114.1756,22.6421,深圳市,横岗,细颗粒物(PM2.5),87,108,75,64,42,1,,,,86,60,/,/,/,/
2026-01-05T0600,3447A,114.344,22.7115,深圳市,坪山,颗粒物(PM10),84,118,75,60,39,1,,,,78,55,10,9,1.0,0.8
2026-01-05T0600,3623A,113.8952,22.586,深圳市,西乡,细颗粒物(PM2.5),74,84,58,54,34,4,,,,84,41,6,6,0.9,0.7
2026-01-05T0600,4220A,114.214113,22.713717,深圳市,黄阁路,细颗粒物(PM2.5),67,77,64,48,38,2,,,,69,42,7,7,0.9,0.9
2026-01-05T0600,1099A,123.5058,41.7084,沈阳市,浑南东路,细颗粒物(PM2.5),183,166,150,138,125,5,,,,80,82,,14,2.3,2
2026-01-05T0600,1100A,123.4238,41.6992,沈阳市,新秀街,细颗粒物(PM2.5),160,156,127,122,98,7,,,,67,68,10,16,2.0,1.8
2026-01-05T0600,1102A,123.5903,41.8412,沈阳市,东陵路,细颗粒物(PM2.5),182,164,143,137,117,9,,,,69,63,,12,2.1,1.9
2026-01-05T0600,1103A,123.4267,41.8466,沈阳市,陵东街,,,79,118,54,84,5,,,,62,68,,15,1.1,1.7
2026-01-05T0600,1104A,123.4116,41.7654,沈阳市,文化路,,,57,122,41,90,12,,,,57,65,,19,0.8,1.6
2026-01-05T0600,1105A,123.4673,41.787,沈阳市,小河沿,细颗粒物(PM2.5),188,168,133,141,104,8,,,,62,65,,16,2.3,2
2026-01-05T0600,1106A,123.4019,41.7978,沈阳市,太原街,,35,,102,24,83,16,,,,49,65,12,24,0.5,1.2
2026-01-05T0600,1108A,123.3778,41.9233,沈阳市,京沈街,,29,29,104,19,90,50,,,,18,65,10,18,0.4,1.4
2026-01-05T0600,2897A,123.2429,41.7341,沈阳市,沈辽西路,,39,34,119,27,85,36,,,,33,67,13,18,0.6,1.5
2026-01-05T0600,2900A,123.5951,41.9085,沈阳市,裕农路,,,59,112,36,88,16,,,,53,61,,11,0.7,1.5
2026-01-05T0600,2429A,110.78,32.6494,十堰市,滨河新村,,46,34,45,32,39,21,,,,16,20,/,/,0.9,0.9
2026-01-05T0600,2430A,110.7305,32.6408,十堰市,刘家沟,,50,50,43,32,39,29,,,,13,16,/,/,/,/
2026-01-05T0600,2431A,110.8843,32.5712,十堰市,铁二处,,49,,46,34,44,20,,,,21,23,7,7,0.8,0.9
2026-01-05T0600,3545A,110.8053,32.8401,十堰市,郧阳区金沙路,,50,39,38,35,36,48,,,,10,14,6,5,0.7,0.7
2026-01-05T0600,2709A,86.0391,44.298,石河子市,艾青诗歌馆,细颗粒物(PM2.5),147,141,226,112,183,36,,,,21,51,7,8,1.0,1.8
2026-01-05T0600,3442A,86.047,44.2331,石河子市,南区管委会,细颗粒物(PM2.5),103,92,117,77,88,60,,,,17,33,6,6,1.2,1.4
2026-01-05T0600,4051A,86.0791,44.3018,石河子市,世纪广场,细颗粒物(PM2.5),129,175,262,98,176,28,,,,40,63,8,9,1.1,2
2026-01-05T0600,4167A,86.0126,44.2349,石河子市,城南景苑小区,细颗粒物(PM2.5),92,116,138,68,88,56,,,,14,32,4,4,0.5,0.8
2026-01-05T0600,1030A,114.5919,38.0328,石家庄市,高新区,细颗粒物(PM2.5),123,142,178,93,124,3,,,,65,60,6,7,1.4,1.4
2026-01-05T0600,1032A,114.4556,38.0136,石家庄市,西南高教,细颗粒物(PM2.5),128,118,169,97,135,8,,,,59,54,2,3,1.1,1.2
