timepoint,stationcode,longitude,latitude,area,positionname,primarypollutant,aqi,pm10,pm10_24h,pm2_5,pm2_5_24h,o3,o3_24h,o3_8h,o3_8h_24h,no2,no2_24h,so2,so2_24h,co,co_24h
2024-03-08T2000,2566A,102.1879,31.914,阿坝藏族羌族自治州,州农科所,,,,,8,8,24,,29,29,6,7,8,8,1.5,1.5
2024-03-08T2000,2568A,102.2502,31.8896,阿坝藏族羌族自治州,马师校,,22,14,12,9,11,69,,89,88,11,7,4,4,0.5,0.5
2024-03-08T2000,3994A,102.2165,31.9024,阿坝藏族羌族自治州,马尔康中学西区,,24,19,10,10,7,74,,92,91,6,5,4,4,0.5,0.4
2024-03-08T2000,2695A,80.292,41.1694,阿克苏地区,电视台,颗粒物(PM10),152,253,250,47,63,95,,92,92,10,32,6,7,0.9,1.4
2024-03-08T2000,2696A,80.2613,41.1551,阿克苏地区,艺术中心,颗粒物(PM10),143,236,239,45,63,94,,93,93,12,35,7,9,0.9,1.6
2024-03-08T2000,2204A,105.6467,38.8363,阿拉善盟,西城区西花园,颗粒物(PM10),70,90,62,32,18,79,,100,99,17,13,10,9,0.8,0.7
2024-03-08T2000,2205A,105.6985,38.8411,阿拉善盟,蒙二幼,颗粒物(PM10),70,89,79,35,22,83,,94,93,16,13,8,6,0.6,0.5
2024-03-08T2000,2206A,105.724,38.8516,阿拉善盟,环保局新楼,颗粒物(PM10),64,78,71,22,21,90,,94,94,15,9,8,6,0.6,0.5
2024-03-08T2000,2708A,88.1264,47.8517,阿勒泰地区,市站,,29,22,25,7,9,90,,93,86,19,16,6,7,0.2,0.4
2024-03-08T2000,2630A,80.1161,32.5,阿里地区,阿里监测站,,31,6,12,3,5,98,,98,98,2,9,8,15,0.3,0.4
2024-03-08T2000,3192A,80.0903,32.5028,阿里地区,阿里藏医院,,32,,11,9,5,102,,101,101,2,4,7,10,0.5,0.5
2024-03-08T2000,2642A,109.0318,32.6537,安康市,香溪洞,颗粒物(PM10),63,75,75,27,23,90,,98,98,17,13,8,8,0.6,0.5
2024-03-08T2000,2643A,109.0281,32.6939,安康市,安康市监测站,颗粒物(PM10),75,99,83,34,29,69,,92,92,31,22,9,9,0.7,0.6
2024-03-08T2000,2644A,109.0072,32.6975,安康市,汉滨区检察院,颗粒物(PM10),75,100,70,36,27,70,,93,93,34,18,9,8,0.6,0.5
2024-03-08T2000,2291A,117.0809,30.5177,安庆市,环科院,颗粒物(PM10),67,84,85,36,50,103,,116,116,24,40,6,7,0.7,0.8
2024-03-08T2000,2292A,117.0331,30.5119,安庆市,马山宾馆,颗粒物(PM10),68,85,91,36,53,105,,120,120,27,41,7,9,0.5,0.7
2024-03-08T2000,2294A,116.9896,30.6145,安庆市,安庆大学,颗粒物(PM10),68,85,93,37,52,110,,120,120,20,31,11,9,0.5,0.9
2024-03-08T2000,3173A,117.0598,30.5351,安庆市,市人大,颗粒物(PM10),75,100,96,38,54,96,,116,115,28,38,5,7,0.6,0.8
2024-03-08T2000,3123A,105.9408,26.2431,安顺市,凤凰山,细颗粒物(PM2.5),69,68,62,50,47,77,,84,84,18,14,21,19,0.8,0.7
2024-03-08T2000,3124A,105.9439,26.2564,安顺市,金钟山,细颗粒物(PM2.5),72,74,63,52,48,77,,83,83,18,14,23,17,0.8,0.7
2024-03-08T2000,3125A,105.8983,26.2481,安顺市,娄家坡,细颗粒物(PM2.5),74,76,65,54,48,78,,82,82,14,12,16,15,0.9,0.8
2024-03-08T2000,1819A,114.3551,36.1017,安阳市,红庙街,颗粒物(PM10),56,62,44,23,15,72,,86,85,19,16,3,4,0.4,1
2024-03-08T2000,1820A,114.361,36.0681,安阳市,银杏小区,颗粒物(PM10),53,55,45,23,15,70,,84,83,20,15,7,6,0.7,0.7
2024-03-08T2000,3141A,114.3922,36.0878,安阳市,信访局,细颗粒物(PM2.5),52,52,45,36,14,71,,83,82,15,16,6,5,0.4,0.4
2024-03-08T2000,3669A,114.4705,36.0637,安阳市,左辅环卫站,颗粒物(PM10),53,55,46,36,16,58,,84,81,25,19,6,4,0.4,0.4
2024-03-08T2000,3703A,114.2917,36.0949,安阳市,安钢职工学校,颗粒物(PM10),56,62,56,21,16,66,,84,83,23,20,8,8,0.4,0.4
2024-03-08T2000,1748A,123.044,41.1196,鞍山市,深沟寺,颗粒物(PM10),62,73,68,42,33,66,,93,88,19,17,6,12,0.4,0.5
2024-03-08T2000,1749A,123.011,41.0931,鞍山市,太阳城,颗粒物(PM10),56,62,73,26,30,81,,96,95,12,25,8,29,0.5,1.5
2024-03-08T2000,1750A,123.0485,41.1442,鞍山市,太平,颗粒物(PM10),79,108,87,50,38,59,,92,86,30,20,5,9,0.7,0.7
2024-03-08T2000,1751A,122.9642,41.0971,鞍山市,铁西三道街,颗粒物(PM10),73,95,84,49,37,52,,94,86,44,24,25,18,2.0,0.8
2024-03-08T2000,1752A,122.9341,41.0833,鞍山市,铁西工业园区,细颗粒物(PM2.5),84,95,93,62,48,60,,92,86,37,28,23,12,1.6,0.7
2024-03-08T2000,1753A,123.022,41.0821,鞍山市,明达新区,颗粒物(PM10),58,65,70,30,32,71,,92,90,19,25,9,26,0.5,1.3
2024-03-08T2000,2195A,107.4212,40.761,巴彦淖尔市,附二中,颗粒物(PM10),94,137,55,41,23,46,,87,83,60,18,16,18,0.8,0.4
2024-03-08T2000,2196A,107.37,40.7372,巴彦淖尔市,市环保大楼,颗粒物(PM10),89,127,49,53,22,43,,88,86,54,12,8,4,0.8,0.4
2024-03-08T2000,1956A,86.1472,41.7538,巴音郭楞蒙古自治州,孔雀公园,颗粒物(PM10),184,318,320,74,72,75,,84,84,18,42,5,6,0.5,0.6
2024-03-08T2000,1957A,86.1972,41.7166,巴音郭楞蒙古自治州,棉纺厂,颗粒物(PM10),365,472,422,76,79,82,,85,85,11,28,3,4,0.5,0.5
2024-03-08T2000,1958A,86.2357,41.7173,巴音郭楞蒙古自治州,经济开发区,颗粒物(PM10),223,366,388,76,81,83,,85,85,14,22,5,6,0.3,0.4
2024-03-08T2000,2914A,106.7677,31.8794,巴中市,苏山坪,细颗粒物(PM2.5),55,56,37,39,26,57,,64,53,8,10,4,4,0.5,0.5
2024-03-08T2000,3182A,106.7656,31.8545,巴中市,丽阳花园,细颗粒物(PM2.5),59,60,54,42,33,12,,23,23,42,43,5,5,0.9,0.8
2024-03-08T2000,3183A,106.7418,31.8654,巴中市,圣泉水务公司,细颗粒物(PM2.5),62,59,53,44,32,18,,11,11,38,49,6,5,0.7,0.7
2024-03-08T2000,3616A,106.7616,31.8344,巴中市,市中心医院,细颗粒物(PM2.5),57,58,56,40,36,12,,18,18,42,40,6,5,0.9,0.8
2024-03-08T2000,2235A,122.7911,45.6077,白城市,洮北区环保局,细颗粒物(PM2.5),84,81,32,62,18,60,,86,82,26,12,8,8,0.6,0.3
2024-03-08T2000,2236A,122.8738,45.5725,白城市,市环保局,颗粒物(PM10),68,86,38,32,16,10,,87,72,68,17,8,5,0.6,0.4
2024-03-08T2000,2231A,126.4219,41.9171,白山市,喜丰,,34,34,51,18,20,74,,82,81,14,16,8,14,0.7,0.8
2024-03-08T2000,2232A,126.4077,41.9419,白山市,环保局,,45,45,60,21,22,75,,81,80,5,8,7,10,0.6,0.7
2024-03-08T2000,2647A,104.1724,36.5446,白银市,第三小学,颗粒物(PM10),78,106,154,28,32,89,,99,99,22,24,21,83,0.4,0.9
2024-03-08T2000,2648A,104.1465,36.5482,白银市,动力公司,颗粒物(PM10),73,95,159,40,43,90,,104,103,23,33,17,48,0.5,1
2024-03-08T2000,2512A,106.6103,23.9011,百色市,市监测站,颗粒物(PM10),76,101,74,53,42,85,,86,86,24,24,28,15,0.9,0.8
2024-03-08T2000,2513A,106.6538,23.8859,百色市,市中心血站,细颗粒物(PM2.5),78,86,67,57,49,80,,86,86,24,23,25,13,0.9,0.8
2024-03-08T2000,3406A,106.6085,23.8798,百色市,祈福高中,细颗粒物(PM2.5),77,82,81,56,51,75,,89,88,26,31,16,14,1.0,1
2024-03-08T2000,2270A,117.396,32.939,蚌埠市,工人疗养院,,50,50,104,15,58,81,,98,96,21,27,6,8,0.4,0.7
2024-03-08T2000,2271A,117.3605,32.9427,蚌埠市,百货大楼,颗粒物(PM10),53,56,114,20,64,84,,101,98,20,30,4,6,0.4,0.6
2024-03-08T2000,2273A,117.4185,32.8911,蚌埠市,蚌埠学院,颗粒物(PM10),51,51,107,19,59,83,,101,99,20,26,4,5,0.4,0.6
2024-03-08T2000,2274A,117.3533,32.9673,蚌埠市,淮上区政府,颗粒物(PM10),57,63,117,37,69,66,,102,96,32,27,6,8,0.4,0.6
2024-03-08T2000,2275A,117.3145,32.8977,蚌埠市,高新区,颗粒物(PM10),62,73,108,30,66,58,,102,95,42,43,10,6,0.4,0.6
2024-03-08T2000,3715A,117.3092,32.9314,蚌埠市,蚌埠田家炳中学,颗粒物(PM10),70,89,129,35,67,36,,101,89,65,45,6,9,0.4,0.6
2024-03-08T2000,1585A,109.8756,40.6532,包头市,市环境监测站,,50,50,39,19,15,20,,79,69,71,40,14,14,1.0,0.8
2024-03-08T2000,1587A,109.9991,40.5842,包头市,包头八中,颗粒物(PM10),57,63,54,26,24,32,,78,73,60,40,11,17,0.8,1
2024-03-08T2000,1588A,109.8538,40.6821,包头市,青山宾馆,,48,48,36,29,16,16,,78,70,81,39,15,16,0.8,0.8
2024-03-08T2000,1589A,109.8642,40.6288,包头市,惠龙物流,,47,47,43,22,18,30,,79,72,69,43,15,15,1.1,0.7
2024-03-08T2000,1590A,110.0377,40.5546,包头市,东河鸿龙湾,颗粒物(PM10),60,70,46,23,19,25,,74,67,65,39,12,9,0.8,0.8
2024-03-08T2000,3283A,109.9154,40.5685,包头市,滨河大厦,颗粒物(PM10),53,56,43,25,17,28,,80,74,55,40,12,13,0.6,0.7
2024-03-08T2000,3419A,109.9447,40.6261,包头市,包头市委党校,,47,47,41,19,19,13,,80,72,74,44,14,21,0.6,0.7
2024-03-08T2000,3683A,109.8331,40.6576,包头市,昆区政府,,46,46,32,25,16,36,,76,70,59,31,13,15,0.7,0.7
2024-03-08T2000,1930A,107.185,34.3063,宝鸡市,庙沟村,颗粒物(PM10),73,95,121,49,40,33,,60,57,45,23,10,9,0.9,0.7
2024-03-08T2000,1931A,107.0708,34.3017,宝鸡市,竹园沟,细颗粒物(PM2.5),87,96,118,64,42,54,,76,75,34,28,6,6,0.5,0.3
2024-03-08T2000,1932A,107.1906,34.3672,宝鸡市,三陆医院,颗粒物(PM10),74,98,123,51,50,46,,74,71,56,44,9,15,0.6,0.5
2024-03-08T2000,1933A,107.1431,34.3547,宝鸡市,监测站,颗粒物(PM10),81,111,125,57,43,24,,68,63,66,35,6,5,0.8,0.6
2024-03-08T2000,1934A,107.1186,34.3739,宝鸡市,技工学校,颗粒物(PM10),76,102,130,40,44,50,,74,72,51,32,8,10,0.6,0.5
2024-03-08T2000,1935A,107.3906,34.3528,宝鸡市,陈仓区环保局家属楼,颗粒物(PM10),68,86,126,45,45,53,,82,80,61,48,9,10,0.6,0.6
2024-03-08T2000,1936A,107.2058,34.3497,宝鸡市,文理学院,颗粒物(PM10),76,101,131,50,47,45,,73,69,51,38,8,10,0.6,0.5
2024-03-08T2000,1937A,107.2386,34.3622,宝鸡市,三迪小学,"颗粒物(PM10),细颗粒物(PM2.5)",74,98,141,54,46,40,,74,70,71,46,9,12,0.7,0.6
2024-03-08T2000,1051A,115.493,38.8632,保定市,游泳馆,颗粒物(PM10),65,80,38,30,13,46,,85,80,39,23,4,3,0.3,0.1
2024-03-08T2000,1052A,115.5213,38.8959,保定市,华电二区,,49,49,35,26,15,58,,80,79,25,26,5,3,0.2,0.1
2024-03-08T2000,1053A,115.4713,38.9108,保定市,接待中心,,41,41,39,19,9,62,,82,80,23,16,2,2,0.1,0.1
2024-03-08T2000,1054A,115.4612,38.8416,保定市,地表水厂,颗粒物(PM10),77,103,62,34,13,46,,84,80,45,25,4,3,0.6,0.5
2024-03-08T2000,3581A,115.31981,38.95208,保定市,满城区生态环境分局,颗粒物(PM10),67,83,44,39,12,51,,80,77,32,20,4,3,0.5,0.2
2024-03-08T2000,3582A,115.47694,38.76408,保定市,清苑区第二中学,颗粒物(PM10),100,150,47,39,11,44,,86,81,41,21,8,7,0.4,0.3
2024-03-08T2000,3583A,115.62909,39.02311,保定市,徐水物探局,颗粒物(PM10),59,68,47,17,11,57,,80,78,30,24,3,3,0.5,0.3
2024-03-08T2000,4004A,115.4202,38.8656,保定市,双鹰农机,颗粒物(PM10),63,75,43,25,18,56,,85,82,33,21,5,5,0.5,0.3
2024-03-08T2000,4034A,115.5150,38.8590,保定市,植保所站,颗粒物(PM10),62,74,44,35,19,51,,85,82,33,21,5,3,0,0
2024-03-08T2000,2594A,99.1678,25.1081,保山市,市环境监测站,,38,38,32,14,17,76,,93,89,8,8,6,7,0.2,0.3
2024-03-08T2000,2595A,99.1711,25.1328,保山市,市环保局,,31,31,37,20,20,82,,94,91,3,7,6,7,0.3,0.4
2024-03-08T2000,1867A,109.1436,21.4086,北海市,海滩公园,细颗粒物(PM2.5),110,99,63,83,53,39,,48,48,22,17,11,11,0.8,0.7
2024-03-08T2000,1868A,109.0981,21.4661,北海市,新市环保局,细颗粒物(PM2.5),79,64,58,58,53,43,,55,54,20,17,8,9,0.7,0.7
2024-03-08T2000,1869A,109.1778,21.5233,北海市,北海工业园,细颗粒物(PM2.5),83,70,65,61,56,41,,51,50,16,18,8,10,0.9,0.9
2024-03-08T2000,3400A,109.1911,21.4415,北海市,龙潭自来水厂,细颗粒物(PM2.5),127,97,57,96,53,32,,49,48,20,14,10,10,1.0,0.8
2024-03-08T2000,1001A,116.3621,39.8784,北京市,万寿西宫,,30,30,15,14,6,62,,72,72,26,19,3,2,0.1,0.2
2024-03-08T2000,1002A,116.2202,40.2915,北京市,定陵,,34,34,18,18,8,54,,78,74,11,7,3,2,0.2,0.2
2024-03-08T2000,1003A,116.4174,39.9289,北京市,东四,,36,36,20,14,9,64,,70,70,20,16,2,2,0.1,0.1
2024-03-08T2000,1004A,116.4072,39.8863,北京市,天坛,,27,27,16,11,6,63,,78,77,22,16,1,2,0.2,0.2
2024-03-08T2000,1005A,116.462,39.9365,北京市,农展馆,,31,31,13,12,5,64,,77,76,23,15,3,3,0.2,0.2
2024-03-08T2000,1006A,116.3392,39.9295,北京市,官园,,35,35,19,14,7,75,,84,83,18,12,2,2,0.2,0.2
2024-03-08T2000,1007A,116.2878,39.9611,北京市,海淀万柳,,41,41,22,13,6,63,,80,78,27,21,2,1,0.4,0.3
2024-03-08T2000,1008A,116.6636,40.135,北京市,顺义新城,,28,28,11,14,5,55,,78,75,30,9,2,1,0.3,0.2
2024-03-08T2000,1009A,116.6275,40.3275,北京市,怀柔镇,,32,32,12,19,6,55,,80,75,23,10,2,2,0.4,0.2
2024-03-08T2000,1010A,116.2296,40.217,北京市,昌平镇,,35,35,18,18,7,53,,83,79,27,7,1,2,0.3,0.2
2024-03-08T2000,1011A,116.3966,39.9821,北京市,奥体中心,,33,33,14,12,5,56,,70,69,16,13,1,2,0.3,0.2
2024-03-08T2000,1012A,116.184,39.9136,北京市,古城,,42,42,22,13,6,69,,83,81,21,20,3,3,0.2,0.2
2024-03-08T2000,3281A,115.9718,40.4529,北京市,延庆夏都,,35,35,22,16,9,47,,76,73,23,5,1,2,0.4,0.2
2024-03-08T2000,3417A,117.0709,40.1465,北京市,平谷新城,,33,33,13,13,4,48,,87,80,29,12,3,3,0.3,0.1
2024-03-08T2000,3418A,116.8336,40.4095,北京市,密云新城,,30,30,9,16,5,57,,82,78,14,4,1,2,0.3,0.2
2024-03-08T2000,3672A,116.1541,39.8204,北京市,丰台云岗,,41,41,25,15,7,70,,85,84,14,9,3,3,0.2,0.2
2024-03-08T2000,3673A,116.6804,39.9081,北京市,通州东关,,28,28,13,13,6,69,,86,84,21,11,3,2,0.3,0.2
2024-03-08T2000,3674A,115.9577,39.7603,北京市,房山燕山,,25,25,22,10,7,67,,78,76,7,6,3,3,0.1,0.2
2024-03-08T2000,3675A,116.4672,39.7733,北京市,大兴旧宫,,32,32,15,10,5,62,,75,74,20,19,1,2,0.3,0.2
2024-03-08T2000,3694A,115.986,40.4563,北京市,延庆石河营,,30,30,21,15,9,38,,77,73,31,7,1,2,0.5,0.4
2024-03-08T2000,3695A,116.6151,40.3053,北京市,怀柔新城,,22,19,10,11,6,70,,81,79,9,6,3,3,0.1,0.1
2024-03-08T2000,3696A,116.2545,39.8768,北京市,丰台小屯,,40,40,21,11,6,59,,76,73,22,22,3,3,0.3,0.3
2024-03-08T2000,3697A,116.84,40.3844,北京市,密云镇,,34,34,11,16,6,43,,79,74,29,7,4,3,0.4,0.2
2024-03-08T2000,1761A,123.8275,41.3064,本溪市,大峪,,42,42,46,21,19,69,,78,77,16,21,7,9,0.6,0.6
2024-03-08T2000,1762A,123.7567,41.3325,本溪市,溪湖,,49,49,60,26,22,74,,86,84,11,19,5,7,0.5,0.5
2024-03-08T2000,1763A,123.7169,41.3094,本溪市,彩屯,,49,49,42,29,21,68,,79,76,18,19,6,7,0.6,0.5
2024-03-08T2000,1764A,123.7669,41.2864,本溪市,东明,,45,43,50,31,22,68,,80,79,20,20,8,10,0.6,0.5
2024-03-08T2000,1765A,123.7992,41.2664,本溪市,新立屯,,45,35,47,31,30,74,,85,84,17,26,9,11,0.7,0.7
2024-03-08T2000,1766A,123.8142,41.3472,本溪市,威宁,,43,43,59,26,30,58,,32,,23,42,6,6,0.4,0.5
2024-03-08T2000,2587A,105.2864,27.3125,毕节市,八中,细颗粒物(PM2.5),78,73,32,57,26,43,,68,66,19,11,8,7,0.8,0.7
2024-03-08T2000,2588A,105.31,27.2944,毕节市,师专,细颗粒物(PM2.5),69,66,34,50,26,47,,69,66,22,14,11,7,0.7,0.6
2024-03-08T2000,3537A,105.3631,27.3533,毕节市,长征村,细颗粒物(PM2.5),133,132,59,101,46,49,,79,76,13,10,8,7,0.7,0.5
2024-03-08T2000,1629A,118.0018,37.3617,滨州市,第二水厂,,41,41,30,22,14,60,,86,84,30,21,8,6,0.5,0.4
2024-03-08T2000,1630A,117.9776,37.393,滨州市,北中新校,颗粒物(PM10),67,83,37,17,14,27,,83,76,60,23,8,8,0.7,0.4
2024-03-08T2000,3514A,117.9378,37.3956,滨州市,中海酒店,,39,39,32,19,20,41,,83,77,41,20,8,10,1.0,0.7
2024-03-08T2000,3515A,117.9378,37.3553,滨州市,开发区一中,,44,44,37,14,16,45,,86,82,43,26,11,11,0.5,0.4
2024-03-08T2000,3516A,118.0917,37.694,滨州市,金海六路,颗粒物(PM10),58,66,29,17,8,41,,88,80,50,21,10,8,0.7,0.6
2024-03-08T2000,4028A,117.9956,37.3753,滨州市,滨州市西街道办事处,颗粒物(PM10),53,56,31,31,18,49,,84,80,42,21,12,10,0.7,0.6
2024-03-08T2000,2311A,115.8072,33.8399,亳州市,污水处理厂,颗粒物(PM10),57,64,77,29,27,80,,95,94,19,20,8,9,0.3,0.3
2024-03-08T2000,2312A,115.7789,33.8518,亳州市,三国揽胜宫,颗粒物(PM10),51,51,84,18,27,77,,92,90,25,24,8,9,0.4,0.4
2024-03-08T2000,3332A,115.7633,33.8034,亳州市,亳州学院,颗粒物(PM10),53,55,75,19,25,80,,93,92,18,17,7,8,0.5,0.5
2024-03-08T2000,2693A,82.0485,44.8556,博尔塔拉蒙古自治州,市党校,颗粒物(PM10),52,53,52,29,27,89,,86,86,12,12,7,7,0.4,0.3
2024-03-08T2000,2694A,82.0806,44.8969,博尔塔拉蒙古自治州,市环保局,颗粒物(PM10),55,59,47,20,25,82,,76,76,22,24,12,12,0.7,0.6
2024-03-08T2000,1071A,116.8842,38.2991,沧州市,沧县城建局,颗粒物(PM10),51,51,34,32,15,60,,86,83,38,17,5,5,0.3,0.2
2024-03-08T2000,1072A,116.8584,38.3254,沧州市,电视转播站,,41,41,35,14,8,63,,80,79,28,18,6,6,0.2,0.3
2024-03-08T2000,1073A,116.8709,38.3228,沧州市,市环保局,,45,45,36,24,16,55,,78,76,35,18,5,4,0.6,0.5
2024-03-08T2000,3324A,116.8136,38.3004,沧州市,河北水利电力学院,颗粒物(PM10),51,51,32,21,13,47,,83,78,41,16,9,7,0.3,0.2
2024-03-08T2000,2622A,97.1806,31.1273,昌都市,昌都监测站,,29,,19,20,9,68,,87,87,26,13,10,9,0.8,0.6
2024-03-08T2000,3719A,97.1714,31.1406,昌都市,昌都会议中心,,30,,9,21,13,88,,94,94,5,8,7,7,0.4,0.5
2024-03-08T2000,2690A,88.1236,43.8886,昌吉回族自治州,天山天池,颗粒物(PM10),56,61,35,23,13,109,,112,112,9,6,9,9,0.6,0.5
2024-03-08T2000,2692A,87.2717,44.0297,昌吉回族自治州,新区政务中心,颗粒物(PM10),56,62,92,25,63,89,,102,102,29,39,9,7,0.8,1
2024-03-08T2000,3613A,87.3095,44.0142,昌吉回族自治州,亚心广场,颗粒物(PM10),58,66,96,34,70,104,,104,104,17,33,9,6,0.8,1.2
2024-03-08T2000,1119A,125.3325,43.9166,长春市,食品厂,细颗粒物(PM2.5),62,44,32,44,20,31,,76,66,48,26,8,8,0.7,0.4
2024-03-08T2000,1120A,125.2863,43.9027,长春市,客车厂,细颗粒物(PM2.5),70,52,31,51,22,26,,72,59,54,24,7,7,0.6,0.4
2024-03-08T2000,1121A,125.2841,43.8463,长春市,邮电学院,,40,32,28,28,18,48,,78,70,30,19,14,10,0.5,0.4
2024-03-08T2000,1122A,125.3716,43.8772,长春市,劳动公园,,32,32,26,18,16,60,,84,77,23,16,6,5,0.4,0.4
2024-03-08T2000,1123A,125.3297,43.8805,长春市,园林处,,35,30,24,24,14,47,,78,70,31,19,10,8,0.5,0.4
2024-03-08T2000,1124A,125.4605,43.79,长春市,净月潭,,21,21,24,12,12,63,,80,76,11,11,6,6,0.4,0.4
2024-03-08T2000,1126A,125.3863,43.8447,长春市,经开区环卫处,,25,21,27,17,15,51,,75,67,28,21,11,6,0.3,0.4
2024-03-08T2000,1127A,125.245,43.7783,长春市,高新区管委会,,33,33,33,18,16,34,,81,72,44,27,10,8,0.5,0.4
2024-03-08T2000,1128A,125.1761,43.8325,长春市,岱山公园,,40,40,30,27,20,17,,77,65,60,24,7,4,0.5,0.4
2024-03-08T2000,1335A,113.0833,28.2325,长沙市,经开区环保局,细颗粒物(PM2.5),88,118,77,65,48,72,,109,108,48,29,8,7,0.9,0.7
2024-03-08T2000,1336A,112.8872,28.2189,长沙市,高开区环保局,颗粒物(PM10),82,114,88,58,57,91,,110,110,28,35,7,5,0.8,0.8
2024-03-08T2000,1337A,113.0792,28.2053,长沙市,马坡岭,细颗粒物(PM2.5),84,114,79,62,52,71,,101,101,42,31,9,7,0.8,0.7
2024-03-08T2000,1338A,112.9394,28.19,长沙市,湖南师范大学,细颗粒物(PM2.5),90,112,85,67,58,92,,108,108,25,33,6,4,0.9,0.9
2024-03-08T2000,1339A,113.0178,28.1322,长沙市,雨花区环保局,颗粒物(PM10),84,117,86,56,53,83,,102,102,32,35,6,5,0.7,0.5
2024-03-08T2000,1340A,112.9792,28.2597,长沙市,伍家岭,细颗粒物(PM2.5),90,115,88,67,53,74,,99,99,42,45,7,6,0.8,0.8
2024-03-08T2000,1341A,113.0014,28.1944,长沙市,火车新站,细颗粒物(PM2.5),98,113,83,73,57,87,,49,,31,39,6,4,0.8,0.8
2024-03-08T2000,1342A,112.9844,28.1178,长沙市,天心区环保局,细颗粒物(PM2.5),83,108,82,61,50,88,,108,108,31,32,6,5,0.8,0.7
2024-03-08T2000,1343A,112.8908,28.1308,长沙市,湖南中医药大学,细颗粒物(PM2.5),83,110,89,61,57,83,,106,106,32,36,8,5,0.6,0.6
2024-03-08T2000,1344A,112.9581,28.3611,长沙市,沙坪,细颗粒物(PM2.5),79,77,56,58,48,67,,72,72,23,20,6,5,0.6,0.5
2024-03-08T2000,1727A,113.1147,36.1547,长治市,清华站,,39,39,36,17,11,54,,84,80,30,28,16,13,0.7,0.6
2024-03-08T2000,1728A,113.1031,36.1989,长治市,监测站,,50,50,41,24,14,56,,87,83,32,27,19,17,1.0,0.8
2024-03-08T2000,1730A,113.0886,36.2125,长治市,审计局,,48,48,30,27,11,51,,84,79,37,29,20,19,0.6,0.4
2024-03-08T2000,1731A,113.0844,36.1856,长治市,长治八中,颗粒物(PM10),52,54,39,25,13,52,,82,77,45,40,15,12,0.7,0.4
2024-03-08T2000,2845A,113.1569,36.1911,长治市,德盛苑,,36,36,29,24,12,63,,87,85,24,21,14,14,0.8,0.7
2024-03-08T2000,3568A,113.06,36.0464,长治市,向阳小学,颗粒物(PM10),64,78,53,33,18,67,,92,87,31,28,16,13,0.5,0.5
2024-03-08T2000,3569A,112.8792,36.3144,长治市,屯留一中,颗粒物(PM10),53,56,34,11,10,62,,89,86,24,26,16,11,0.8,0.4
2024-03-08T2000,3570A,113.235,36.3489,长治市,潞城四中,颗粒物(PM10),51,51,40,19,12,45,,92,87,42,25,7,12,0.5,0.5
2024-03-08T2000,1854A,111.6975,28.9703,常德市,市二中,"颗粒物(PM10),细颗粒物(PM2.5)",92,134,96,68,63,93,,109,109,28,29,13,10,0.8,0.9
2024-03-08T2000,1857A,111.7158,29.1456,常德市,白鹤山,颗粒物(PM10),91,131,96,59,58,77,,75,75,9,8,6,5,0.6,0.7
2024-03-08T2000,3138A,111.7153,29.0289,常德市,武陵区永安,颗粒物(PM10),90,130,98,62,64,104,,111,111,23,30,12,10,0.8,0.9
2024-03-08T2000,3139A,111.6892,28.9881,常德市,鼎城区玉霞,颗粒物(PM10),89,127,97,64,60,103,,109,109,23,42,15,11,0.9,0.9
2024-03-08T2000,3140A,111.6625,29.0531,常德市,武陵区长庚,颗粒物(PM10),91,132,108,62,62,102,,110,110,21,37,12,8,0.7,0.9
2024-03-08T2000,1196A,119.9633,31.762,常州市,市监测站,细颗粒物(PM2.5),88,99,124,65,77,87,,121,117,43,27,8,8,0.8,0.9
2024-03-08T2000,1200A,119.9468,31.7069,常州市,武进监测站,细颗粒物(PM2.5),79,83,108,58,71,91,,115,114,41,26,8,7,0.8,0.8
2024-03-08T2000,1201A,119.9255,31.9087,常州市,安家,细颗粒物(PM2.5),99,91,125,74,89,30,,117,107,98,35,10,9,0.9,1
2024-03-08T2000,3002A,119.9805,31.8174,常州市,行政中心,细颗粒物(PM2.5),80,80,108,59,77,73,,116,112,60,32,6,7,0.9,0.9
2024-03-08T2000,3003A,120.0522,31.7748,常州市,经开区,细颗粒物(PM2.5),92,93,122,68,78,74,,116,113,59,31,7,7,0.5,0.6
2024-03-08T2000,3010A,119.9025,31.7964,常州市,钟楼,细颗粒物(PM2.5),89,81,109,66,79,86,,114,112,41,29,9,8,0.7,0.7
2024-03-08T2000,3429A,119.8598,31.7066,常州市,武进经发区,细颗粒物(PM2.5),79,87,105,58,77,41,,120,112,96,28,8,8,0.6,0.7
2024-03-08T2000,3430A,119.5826,31.7245,常州市,金坛城区,细颗粒物(PM2.5),72,80,106,52,71,102,,125,124,27,18,6,8,0.7,0.9
2024-03-08T2000,2220A,120.4318,41.5881,朝阳市,西梁,,37,37,31,16,13,79,,96,91,17,10,8,9,0.5,0.4
2024-03-08T2000,2221A,120.4521,41.5646,朝阳市,河畔小区,,27,20,34,14,13,84,,90,89,6,9,5,6,0.5,0.5
2024-03-08T2000,2222A,120.4176,41.5648,朝阳市,八里堡,,41,41,34,15,11,83,,94,92,12,8,9,9,0.5,0.5
2024-03-08T2000,2223A,120.3806,41.5969,朝阳市,农业园区,,36,30,29,25,14,58,,93,86,29,9,10,7,0.5,0.2
2024-03-08T2000,1705A,116.6367,23.6719,潮州市,西园路,颗粒物(PM10),76,101,51,51,34,126,,135,135,23,16,10,6,0.6,0.5
2024-03-08T2000,3026A,116.6183,23.6608,潮州市,市政府,颗粒物(PM10),66,81,46,41,30,134,,140,140,21,15,7,8,0.8,0.8
2024-03-08T2000,4036A,116.6461,23.6761,潮州市,金山,细颗粒物(PM2.5),67,74,47,48,36,130,,136,136,20,16,10,8,0.8,0.8
2024-03-08T2000,2472A,113.0073,25.9061,郴州市,马头岭,颗粒物(PM10),58,65,61,15,27,62,,86,85,44,30,16,9,0.8,0.9
2024-03-08T2000,2473A,113.0116,25.8226,郴州市,市职中,颗粒物(PM10),52,53,53,32,41,70,,100,97,24,21,16,11,0.8,0.9
2024-03-08T2000,2474A,113.0161,25.8001,郴州市,兴隆步行街,颗粒物(PM10),51,52,65,34,50,84,,100,99,30,29,14,9,0.9,0.9
2024-03-08T2000,2475A,113.0383,25.8071,郴州市,市审计局,,42,42,53,28,41,88,,100,100,23,23,15,8,0.8,1.1
2024-03-08T2000,2476A,113.0348,25.7759,郴州市,市环保局,颗粒物(PM10),51,51,57,23,50,68,,96,91,20,23,9,8,0.8,1
2024-03-08T2000,1431A,103.9728,30.7236,成都市,金泉两河,细颗粒物(PM2.5),97,100,86,72,45,47,,53,53,29,57,3,2,0.6,0.7
2024-03-08T2000,1432A,104.176,30.6872,成都市,十里店,细颗粒物(PM2.5),89,91,98,66,53,69,,68,68,20,49,4,3,0.8,0.8
2024-03-08T2000,1433A,104.079,30.5706,成都市,三瓦窑,细颗粒物(PM2.5),88,104,109,65,50,75,,68,68,23,69,4,4,0.6,0.7
2024-03-08T2000,1434A,104.1114,30.63,成都市,沙河铺,细颗粒物(PM2.5),82,96,94,60,50,70,,65,65,21,51,3,2,0.5,0.7
2024-03-08T2000,1437A,104.0786,30.6531,成都市,君平街,细颗粒物(PM2.5),95,106,114,71,55,70,,70,70,31,66,6,6,0.5,0.6
2024-03-08T2000,1438A,103.613,31.0283,成都市,灵岩寺,细颗粒物(PM2.5),72,92,61,52,32,95,,84,84,24,19,8,11,0.6,0.6
2024-03-08T2000,2880A,104.0239,30.65639,成都市,大石西路,细颗粒物(PM2.5),82,99,110,60,54,71,,68,68,26,65,4,3,0.6,0.9
2024-03-08T2000,3136A,104.2725,30.5589,成都市,龙泉驿区区政府,细颗粒物(PM2.5),98,88,87,73,52,66,,77,77,14,22,4,4,0.7,0.6
2024-03-08T2000,3357A,104.0106,30.6931,成都市,金博路,细颗粒物(PM2.5),83,104,105,61,50,50,,54,54,26,62,5,3,0.8,0.8
2024-03-08T2000,3359A,104.0578,30.5225,成都市,华阳,细颗粒物(PM2.5),73,85,101,53,56,72,,73,73,25,52,4,4,0.6,0.7
2024-03-08T2000,3487A,104.2394,30.5319,成都市,车城东七路,细颗粒物(PM2.5),82,106,98,60,52,70,,80,80,18,27,3,5,0.7,0.6
2024-03-08T2000,3488A,104.3853,30.7453,成都市,青白江技师分院,细颗粒物(PM2.5),102,99,85,76,37,57,,59,59,20,39,3,3,0.7,0.7
2024-03-08T2000,3489A,104.0789,30.4072,成都市,科学城,细颗粒物(PM2.5),85,108,98,63,54,71,,72,72,20,44,5,4,0.7,0.7
2024-03-08T2000,4011A,103.8506,30.6947,成都市,光华大道三段,细颗粒物(PM2.5),107,109,89,80,47,46,,56,56,28,45,3,3,0.8,0.8
2024-03-08T2000,1062A,117.9531,40.9081,承德市,铁路,颗粒物(PM10),52,53,25,33,8,25,,84,71,51,14,11,7,0.7,0.3
2024-03-08T2000,1063A,117.9392,40.9763,承德市,中国银行,,35,35,24,22,7,47,,89,82,27,14,8,8,0.4,0.3
2024-03-08T2000,1064A,117.9503,40.928,承德市,开发区,,31,31,30,20,16,49,,88,82,22,14,6,6,0.4,0.3
2024-03-08T2000,1065A,117.8051,40.9655,承德市,文化中心,颗粒物(PM10),66,81,31,36,12,30,,90,79,41,16,9,5,0.6,0.3
2024-03-08T2000,1066A,117.9268,41.0026,承德市,离宫,,28,28,17,17,13,65,,86,83,10,8,2,2,0.3,0.2
2024-03-08T2000,2314A,117.47,30.6618,池州市,池州学院,颗粒物(PM10),70,89,72,46,50,94,,113,113,34,25,14,8,0.6,0.9
2024-03-08T2000,3237A,117.4918,30.6617,池州市,展览馆,颗粒物(PM10),66,82,70,39,42,100,,121,120,23,23,3,4,0.5,0.9
2024-03-08T2000,3333A,117.5627,30.695,池州市,第八中学,颗粒物(PM10),67,84,67,40,41,98,,115,114,26,24,3,4,0.4,0.6
2024-03-08T2000,3334A,117.5038,30.6243,池州市,第十二中学,颗粒物(PM10),74,98,73,46,44,80,,120,116,38,28,4,4,0.4,0.9
2024-03-08T2000,1744A,118.9233,42.2816,赤峰市,松山一中,颗粒物(PM10),53,56,27,21,9,38,,79,68,49,19,16,11,0.9,0.6
2024-03-08T2000,1745A,118.9576,42.2728,赤峰市,哈达街,,38,38,23,23,11,65,,76,72,22,17,15,11,0.6,0.5
2024-03-08T2000,1746A,118.8788,42.2554,赤峰市,天义路,,37,37,20,9,8,57,,72,67,22,15,8,10,0.5,0.4
2024-03-08T2000,3058A,119.2658,42.0353,赤峰市,银河街,颗粒物(PM10),60,69,32,38,17,50,,78,72,40,14,20,15,1.0,0.5
2024-03-08T2000,3286A,118.9359,42.3147,赤峰市,桥北物流园区,,43,40,18,30,12,32,,84,72,56,18,40,10,0.8,0.5
2024-03-08T2000,2521A,107.3476,22.4136,崇左市,市环保局江州分局,细颗粒物(PM2.5),70,87,92,51,62,67,,87,73,19,19,11,12,0.8,0.9
2024-03-08T2000,2522A,107.3702,22.3707,崇左市,城南新区,细颗粒物(PM2.5),89,82,82,66,67,62,,83,66,24,21,10,11,0.8,0.7
2024-03-08T2000,2298A,118.3093,32.3153,滁州市,老年大学,颗粒物(PM10),64,77,94,42,64,74,,114,106,34,22,7,7,0.4,0.5
2024-03-08T2000,2299A,118.3244,32.2786,滁州市,人大宾馆,颗粒物(PM10),64,77,102,32,60,87,,117,113,31,22,6,5,0.7,0.8
2024-03-08T2000,3207A,118.3118,32.3038,滁州市,市政府原办公楼,颗粒物(PM10),59,68,89,38,57,85,,115,109,35,25,4,4,0.6,0.6
2024-03-08T2000,3331A,118.3267,32.2634,滁州市,图书馆,颗粒物(PM10),57,63,98,34,58,88,,116,111,27,19,6,6,0.7,0.7
2024-03-08T2000,2605A,101.5482,25.0441,楚雄彝族自治州,州环境监测站,,30,25,27,8,17,93,,99,98,4,23,6,9,0.4,0.5
2024-03-08T2000,2606A,101.538,25.0492,楚雄彝族自治州,市经济开发区,,50,50,30,12,17,86,,92,92,7,22,6,7,0.4,0.5
2024-03-08T2000,2548A,107.5277,31.2827,达州市,达州职业技术学院,颗粒物(PM10),65,79,44,34,22,6,,13,13,36,27,10,9,1.1,0.9
2024-03-08T2000,2549A,107.5086,31.2186,达州市,市环境监测站,颗粒物(PM10),64,77,48,39,22,4,,8,7,49,37,8,8,1.1,1
2024-03-08T2000,2550A,107.4988,31.2132,达州市,凤凰小区,颗粒物(PM10),64,78,46,39,26,5,,9,8,49,37,8,7,1.2,1
2024-03-08T2000,2551A,107.5082,31.1986,达州市,达县机关宾馆,颗粒物(PM10),59,68,42,35,24,3,,10,9,54,38,6,5,1.0,0.8
2024-03-08T2000,2552A,107.4644,31.2124,达州市,市政中心,"颗粒物(PM10),细颗粒物(PM2.5)",70,89,54,51,27,5,,10,10,56,41,8,7,1.2,0.9
2024-03-08T2000,2614A,100.1542,25.7054,大理白族自治州,大理市环境监测站,,26,25,30,16,17,81,,99,93,17,11,6,7,0.4,0.4
2024-03-08T2000,2615A,100.2171,25.5811,大理白族自治州,大理古城,,,22,21,11,12,,,100,100,4,7,8,8,0.5,0.6
2024-03-08T2000,1109A,121.612,38.9741,大连市,甘井子,,,,70,13,46,73,,86,84,,19,5,10,0.6,0.6
2024-03-08T2000,1110A,121.565,38.9511,大连市,周水子,,38,38,78,14,50,70,,91,86,22,23,4,8,0.6,1.1
2024-03-08T2000,1111A,121.5637,38.8845,大连市,星海三站,,39,39,58,18,38,74,,91,87,22,27,8,11,0.6,0.9
2024-03-08T2000,1112A,121.6302,38.9117,大连市,青泥洼桥,,41,41,63,20,44,68,,92,86,35,35,13,16,0.7,1
2024-03-08T2000,1113A,121.6251,38.8638,大连市,傅家庄,,38,38,49,15,32,72,,91,86,26,23,14,15,0.7,0.8
2024-03-08T2000,1114A,121.5213,38.8661,大连市,七贤岭,,35,35,48,15,29,74,,84,82,13,12,13,12,0.6,0.8
2024-03-08T2000,1115A,121.2529,38.8061,大连市,旅顺,,28,28,56,17,39,85,,92,91,14,13,13,11,0.6,0.9
2024-03-08T2000,1116A,121.7485,39.1311,大连市,金州,颗粒物(PM10),51,52,52,28,34,81,,95,92,16,18,8,11,0.6,0.7
2024-03-08T2000,1117A,121.7811,39.0496,大连市,开发区,,44,44,62,18,34,77,,88,85,18,23,5,12,0.5,0.7
2024-03-08T2000,1118A,121.9762,39.0631,大连市,双D港,颗粒物(PM10),53,55,53,19,25,79,,96,93,13,15,8,10,0.5,0.7
2024-03-08T2000,1789A,124.81117,46.03138,大庆市,大同区,颗粒物(PM10),57,63,28,35,28,50,,78,74,31,10,7,7,0.6,0.4
2024-03-08T2000,1790A,125.129,46.533,大庆市,龙凤区,,35,35,32,22,19,51,,74,70,31,20,2,4,0.5,0.4
2024-03-08T2000,1791A,124.902,46.408,大庆市,红岗区,,48,41,32,33,23,47,,77,72,32,13,5,5,0.6,0.4
2024-03-08T2000,1792A,125.153,46.586,大庆市,萨尔图区,,27,27,29,11,17,43,,70,63,36,16,7,8,0.6,0.5
2024-03-08T2000,1793A,124.9042,46.6215,大庆市,让胡路区,,23,23,29,16,21,54,,77,74,24,10,6,7,0.4,0.4
2024-03-08T2000,3481A,125.141,46.634,大庆市,萨区政府监测点,,19,8,25,1,21,60,,76,74,18,16,9,8,0.5,0.4
2024-03-08T2000,1723A,113.2994,40.0758,大同市,云冈宾馆,颗粒物(PM10),58,66,43,36,17,50,,72,71,45,25,20,18,0.6,0.7
2024-03-08T2000,1724A,113.3444,40.0917,大同市,大同大学,,45,45,38,20,18,55,,76,74,40,28,22,26,0.3,0.5
2024-03-08T2000,1725A,113.2661,40.1269,大同市,安家小村,颗粒物(PM10),65,79,50,33,19,53,,70,69,33,26,23,23,0.4,1
2024-03-08T2000,1726A,113.2711,40.0844,大同市,教育学院,颗粒物(PM10),58,65,49,34,21,51,,69,68,35,26,21,21,0.6,0.8
2024-03-08T2000,3282A,113.3397,40.0597,大同市,大同市卫生学校,颗粒物(PM10),53,55,44,32,19,39,,74,70,54,27,17,19,0.5,0.6
2024-03-08T2000,3565A,113.1367,40.1122,大同市,云冈站,颗粒物(PM10),56,61,47,22,18,44,,73,70,39,31,14,22,0.4,0.5
2024-03-08T2000,3566A,113.1186,40.2556,大同市,图书馆,颗粒物(PM10),66,82,31,39,18,38,,80,73,37,16,22,15,0.7,0.5
2024-03-08T2000,3567A,113.5931,40.0461,大同市,区一中,颗粒物(PM10),63,76,43,36,20,36,,71,67,46,23,44,16,1.2,0.7
2024-03-08T2000,3676A,113.2802,40.0995,大同市,第二人民医院,颗粒物(PM10),61,71,54,32,20,59,,74,74,39,32,23,21,0.5,0.8
2024-03-08T2000,2269A,124.1069,50.4097,大兴安岭地区,科技局,细颗粒物(PM2.5),118,,17,89,20,60,,75,72,12,4,21,7,0.5,0.4
2024-03-08T2000,3663A,124.1164,50.4278,大兴安岭地区,红旗社区,"颗粒物(PM10),细颗粒物(PM2.5)",57,63,13,40,8,38,,76,69,26,12,13,7,0.6,0.3
2024-03-08T2000,1600A,124.3303,40.0625,丹东市,江湾东路,颗粒物(PM10),58,66,42,36,20,79,,88,84,12,11,9,11,0.5,0.5
2024-03-08T2000,1601A,124.4256,40.1503,丹东市,临江后街,,46,46,41,22,19,76,,86,83,10,14,7,9,0.5,0.6
2024-03-08T2000,1602A,124.3933,40.1461,丹东市,元宝山,,39,39,33,22,19,68,,81,76,12,9,8,9,0.4,0.5
2024-03-08T2000,1603A,124.3633,40.1092,丹东市,民主桥,颗粒物(PM10),56,62,45,28,17,66,,78,73,18,15,8,10,0.7,0.5
2024-03-08T2000,3541A,109.5726,19.5167,儋州市,第一中学子站,,19,5,11,2,6,58,,59,59,6,9,6,6,0.9,1
2024-03-08T2000,3542A,109.5567,19.5187,儋州市,东坡学校子站,,20,5,13,4,9,61,,62,62,8,10,6,6,0.9,1
2024-03-08T2000,2616A,98.5842,24.428,德宏傣族景颇族自治州,德宏州监测站,,44,44,59,25,37,64,,114,112,25,29,20,27,0.2,0.4
2024-03-08T2000,3677A,98.5881,24.4368,德宏傣族景颇族自治州,芒市人民政府综合楼,,46,46,51,17,34,67,,110,107,19,21,12,9,0.2,0.5
2024-03-08T2000,1901A,104.4239,31.1208,德阳市,东山公园,细颗粒物(PM2.5),88,86,83,65,43,54,,71,57,19,22,2,7,0.6,0.6
2024-03-08T2000,1902A,104.3826,31.1317,德阳市,西小区,细颗粒物(PM2.5),102,97,95,76,53,48,,50,50,26,46,3,4,0.8,0.8
2024-03-08T2000,1904A,104.3553,31.1091,德阳市,耐火材料厂,细颗粒物(PM2.5),107,96,104,80,55,44,,52,52,28,45,4,6,0.6,0.6
2024-03-08T2000,3639A,104.4019,31.1244,德阳市,市教育局,细颗粒物(PM2.5),98,86,82,73,49,45,,51,51,24,48,3,5,0.6,0.6
2024-03-08T2000,1622A,116.3032,37.4674,德州市,儿童乐园,颗粒物(PM10),52,53,48,17,13,70,,91,83,22,22,7,7,0.5,0.4
2024-03-08T2000,1624A,116.2991,37.4451,德州市,监理站,颗粒物(PM10),54,58,40,19,7,76,,93,92,34,25,7,7,0.4,0.3
2024-03-08T2000,3066A,116.2721,37.4379,德州市,九衢泉纯净水厂,颗粒物(PM10),71,92,47,34,13,61,,85,84,38,27,8,7,0.6,0.3
2024-03-08T2000,3371A,116.3728,37.4403,德州市,开发区人民医院,颗粒物(PM10),59,68,42,27,9,57,,90,86,45,15,6,7,0.5,0.4
2024-03-08T2000,3372A,116.3572,37.4094,德州市,太阳城中学,颗粒物(PM10),58,66,42,22,12,46,,87,82,54,19,5,6,0.5,0.6
2024-03-08T2000,3511A,116.5652,37.3319,德州市,陵城艺术中心,颗粒物(PM10),52,53,42,17,8,72,,88,86,25,16,6,5,0.6,0.5
2024-03-08T2000,2621A,99.7056,27.8317,迪庆藏族自治州,迪庆州站,,30,29,23,18,16,96,,108,108,10,8,4,4,0.3,0.3
2024-03-08T2000,3180A,99.7136,27.8094,迪庆藏族自治州,质量技术监督局,,29,23,22,13,8,92,,105,103,10,8,5,5,0.6,0.5
2024-03-08T2000,2663A,104.6241,35.5734,定西市,东关小学,颗粒物(PM10),78,105,152,40,41,58,,50,,19,26,15,13,0.5,0.7
2024-03-08T2000,2664A,104.6194,35.5934,定西市,供电公司,,,118,144,43,46,,,100,100,22,33,12,20,0.2,0.6
2024-03-08T2000,1389A,113.7547,23.0494,东莞市,莞城梨川,颗粒物(PM10),60,69,36,36,22,96,,130,129,39,18,10,8,0.7,0.6
2024-03-08T2000,1390A,113.7944,23.0128,东莞市,东城石井,,34,34,33,19,19,92,,133,125,25,17,7,8,0.7,0.7
2024-03-08T2000,1391A,113.7383,22.9658,东莞市,南城西平,颗粒物(PM10),59,68,37,33,21,114,,128,128,40,24,10,9,0.9,0.8
2024-03-08T2000,3319A,113.7338,23.0381,东莞市,万江金泰,颗粒物(PM10),60,69,36,36,22,88,,118,118,36,13,8,8,0.7,0.6
2024-03-08T2000,3626A,113.7533,23.0202,东莞市,南城元岭,,,55,36,25,21,,,124,124,37,13,9,8,0.9,0.8
2024-03-08T2000,3627A,113.7875,23.0457,东莞市,东城主山,,50,50,33,26,21,97,,130,130,31,15,9,8,0.8,0.7
2024-03-08T2000,1666A,118.6614,37.4309,东营市,市环保局,颗粒物(PM10),52,53,43,22,23,87,,97,96,27,24,7,8,0.3,0.4
2024-03-08T2000,3036A,118.6904,37.4338,东营市,开发区管委会,颗粒物(PM10),54,57,44,19,23,82,,91,90,25,24,3,3,0.4,0.5
2024-03-08T2000,3365A,118.5719,37.565,东营市,垦利区民丰路,颗粒物(PM10),58,66,41,19,17,70,,91,88,28,23,10,12,0.6,0.7
2024-03-08T2000,3498A,118.5055,37.8612,东营市,河口城区,,46,46,37,21,20,69,,87,83,22,16,6,5,0.6,0.7
2024-03-08T2000,3646A,118.4978,37.4623,东营市,胜利站,,47,47,46,22,21,63,,91,87,41,27,9,11,0.7,0.7
2024-03-08T2000,3734A,118.35,37.26,东营市,理想之城,颗粒物(PM10),57,63,42,27,22,71,,92,89,26,24,2,5,0.6,0.6
2024-03-08T2000,1591A,110.0023,39.8129,鄂尔多斯市,综合楼,,,70,40,27,11,,,99,99,51,24,16,14,0.7,0.6
2024-03-08T2000,1592A,109.9486,39.8261,鄂尔多斯市,巴音孟克林场办事处,颗粒物(PM10),56,61,38,22,14,76,,90,90,39,27,14,18,0.5,0.4
2024-03-08T2000,1593A,109.7736,39.5986,鄂尔多斯市,康泽苑,颗粒物(PM10),53,56,33,29,12,66,,100,97,50,19,9,7,0.8,0.5
2024-03-08T2000,1594A,109.8119,39.5989,鄂尔多斯市,华泰汽车城,颗粒物(PM10),56,61,35,27,17,45,,99,94,63,26,12,9,0.6,0.5
2024-03-08T2000,1595A,109.9734,39.7884,鄂尔多斯市,奥林花园,颗粒物(PM10),60,70,43,22,13,20,,92,84,96,41,11,8,0.8,0.6
2024-03-08T2000,2436A,114.8938,30.3994,鄂州市,市政府,,,93,89,49,61,,,94,94,45,34,8,10,0.8,1
2024-03-08T2000,2437A,114.8989,30.3714,鄂州市,赵家坝,细颗粒物(PM2.5),74,,98,54,65,51,,112,108,58,33,4,5,1.1,0.6
2024-03-08T2000,3654A,114.8094,30.4089,鄂州市,精准医疗中心,颗粒物(PM10),81,112,98,33,50,73,,111,108,47,32,7,5,0.8,0.9
2024-03-08T2000,2454A,109.4978,30.2981,恩施土家族苗族自治州,湖北民院,颗粒物(PM10),58,66,52,36,28,2,,17,15,47,34,7,7,1.3,1.2
2024-03-08T2000,2455A,109.4707,30.2798,恩施土家族苗族自治州,州电力总公司,细颗粒物(PM2.5),75,77,51,55,40,5,,16,16,44,24,7,7,1.4,1.2
2024-03-08T2000,3549A,109.5061,30.3772,恩施土家族苗族自治州,龙凤新区,细颗粒物(PM2.5),65,67,37,47,27,17,,13,13,32,25,7,7,1.2,1.2
2024-03-08T2000,2499A,108.3411,21.6158,防城港市,沙万,细颗粒物(PM2.5),74,66,71,54,52,58,,62,61,22,26,4,6,0.9,0.8
2024-03-08T2000,2500A,108.3514,21.7731,防城港市,防城档案局,细颗粒物(PM2.5),83,84,80,61,57,40,,62,49,23,26,5,8,1.0,1
2024-03-08T2000,2501A,108.3506,21.6414,防城港市,大海花园,细颗粒物(PM2.5),72,75,73,52,50,56,,61,60,19,22,4,6,1.1,1.1
2024-03-08T2000,1371A,113.1294,23.0067,佛山市,湾梁,颗粒物(PM10),52,53,40,18,17,67,,102,101,42,23,7,8,0.9,0.8
2024-03-08T2000,1372A,113.1083,23.0478,佛山市,华材职中,颗粒物(PM10),65,80,46,26,23,48,,99,96,77,32,4,4,0.7,0.7
2024-03-08T2000,1373A,113.144,23.0453,佛山市,南海气象局,,47,47,38,22,20,82,,101,101,44,26,7,8,0.6,0.5
2024-03-08T2000,1374A,113.2881,22.8094,佛山市,顺德苏岗,颗粒物(PM10),58,66,34,39,22,91,,120,120,43,25,11,9,0.8,0.7
2024-03-08T2000,1376A,112.8383,22.8678,佛山市,高明孔堂,颗粒物(PM10),61,72,49,35,31,86,,112,112,37,28,6,8,0.6,0.7
2024-03-08T2000,1377A,112.8836,23.1588,佛山市,三水监测站,颗粒物(PM10),68,85,48,40,31,69,,105,104,53,25,8,9,0.9,0.8
2024-03-08T2000,1378A,112.867,23.185,佛山市,三水云东海,,42,42,41,25,32,72,,107,105,36,24,5,6,0.7,0.7
2024-03-08T2000,3625A,113.2544,22.7642,佛山市,容桂街道办,颗粒物(PM10),60,70,39,39,23,113,,126,126,45,30,8,7,0.8,0.6
2024-03-08T2000,1282A,119.2681,26.0504,福州市,师大,颗粒物(PM10),63,76,66,29,43,124,,136,136,19,20,4,5,0.6,0.7
2024-03-08T2000,1283A,119.2984,26.1028,福州市,五四北路,颗粒物(PM10),57,64,59,29,46,130,,145,145,19,20,4,5,0.6,0.7
2024-03-08T2000,1284A,119.2648,26.0768,福州市,杨桥西路,颗粒物(PM10),61,72,65,30,40,129,,142,142,16,16,4,5,0.7,0.8
2024-03-08T2000,1285A,119.317,26.0746,福州市,紫阳,颗粒物(PM10),61,71,69,29,46,123,,140,140,17,19,4,5,0.6,0.8
2024-03-08T2000,3048A,119.5799,26.0936,福州市,九龙,颗粒物(PM10),60,70,56,27,38,139,,151,150,12,16,3,4,0.6,0.7
2024-03-08T2000,3526A,119.5189,25.9664,福州市,吴航,颗粒物(PM10),56,61,63,25,35,117,,137,134,16,16,4,5,0.4,0.6
2024-03-08T2000,1755A,123.7977,41.8491,抚顺市,望花区,,38,37,46,26,23,74,,84,82,15,20,9,9,0.5,0.5
2024-03-08T2000,1756A,123.9161,41.8822,抚顺市,顺城区,,45,42,52,31,26,54,,87,79,36,25,5,6,0.6,0.6
2024-03-08T2000,1757A,124.0436,41.8611,抚顺市,东洲区,细颗粒物(PM2.5),62,49,47,44,27,64,,85,80,21,17,8,8,0.5,0.5
2024-03-08T2000,1758A,123.9247,41.8642,抚顺市,新抚区,,39,31,42,27,21,79,,88,86,15,18,5,7,0.4,0.4
2024-03-08T2000,1759A,124.0972,41.8961,抚顺市,大伙房水库,,40,34,48,28,25,68,,86,82,15,15,8,9,0.4,0.4
2024-03-08T2000,1760A,123.7086,41.8391,抚顺市,沈抚新城,,42,34,49,29,21,54,,83,79,28,17,5,6,0.5,0.5
2024-03-08T2000,2376A,116.2127,28.0814,抚州市,桐源党溪,颗粒物(PM10),55,60,71,21,32,84,,103,102,7,13,3,4,0.1,0.4
2024-03-08T2000,2377A,116.3544,27.9831,抚州市,市站,颗粒物(PM10),64,78,75,27,47,105,,113,113,15,21,4,11,0.5,0.6
2024-03-08T2000,2378A,116.3565,27.963,抚州市,血防站,颗粒物(PM10),62,73,74,24,42,116,,125,123,19,25,3,6,0.8,0.7
2024-03-08T2000,2379A,116.3564,28.0007,抚州市,采茶剧团,,,,71,,44,,,108,108,38,27,4,13,0.6,0.9
2024-03-08T2000,2380A,116.385,27.9647,抚州市,医学分院,颗粒物(PM10),64,78,74,24,36,103,,116,116,19,28,12,10,0.3,0.5
2024-03-08T2000,2207A,121.6094,41.998,阜新市,工业园区,,50,,40,35,13,56,,89,82,32,11,24,7,0.8,0.7
2024-03-08T2000,2208A,121.6697,42.0279,阜新市,长青街,细颗粒物(PM2.5),57,47,27,40,15,50,,90,83,25,8,10,5,0.6,0.4
2024-03-08T2000,2209A,121.6673,42.0705,阜新市,农业园区,,24,21,22,9,9,76,,85,81,10,7,5,6,0.4,0.3
2024-03-08T2000,2210A,121.6717,42.0224,阜新市,东苑,颗粒物(PM10),53,56,32,36,10,45,,83,76,40,10,43,9,1.3,0.7
2024-03-08T2000,2211A,121.6506,42.0498,阜新市,玉龙新城,细颗粒物(PM2.5),82,,30,60,12,37,,86,73,41,11,17,7,0.9,0.4
2024-03-08T2000,2301A,115.8277,32.8929,阜阳市,市监测站,颗粒物(PM10),58,66,92,31,48,66,,100,96,41,37,6,7,0.4,0.5
2024-03-08T2000,2303A,115.8554,32.8605,阜阳市,开发区,颗粒物(PM10),83,116,121,32,43,43,,97,92,64,39,5,6,0.9,0.7
2024-03-08T2000,2875A,115.784,32.8892,阜阳市,阜阳职业技术学院,颗粒物(PM10),60,69,96,39,46,68,,101,100,40,35,6,6,0.4,0.5
2024-03-08T2000,3468A,115.7901,32.8613,阜阳市,市规划展馆,,41,41,95,21,40,74,,102,100,34,29,5,7,0.3,0.4
2024-03-08T2000,3469A,115.836,32.9183,阜阳市,枣园社区,颗粒物(PM10),58,65,104,25,38,51,,101,97,49,37,6,12,0.4,0.4
2024-03-08T2000,2669A,102.9099,34.9841,甘南藏族自治州,州政府,颗粒物(PM10),72,94,71,34,32,102,,98,98,8,25,9,22,0.5,0.7
2024-03-08T2000,3380A,102.8914,34.9617,甘南藏族自治州,甘肃民族师范学院,颗粒物(PM10),72,93,85,22,31,105,,99,99,12,32,4,11,0.7,0.6
2024-03-08T2000,2570A,101.9603,30.0475,甘孜藏族自治州,水桥子,,29,29,20,13,11,68,,76,75,14,13,11,11,0.4,0.4
2024-03-08T2000,3065A,101.9533,29.9972,甘孜藏族自治州,州环保局,,25,25,23,9,7,68,,74,74,14,13,8,8,0.4,0.4
2024-03-08T2000,3414A,115.8347,28.932,赣江新区,桑海产业园,颗粒物(PM10),67,83,69,29,33,81,,114,112,15,20,5,5,0.2,0.4
2024-03-08T2000,2363A,114.9367,25.8664,赣州市,地委,颗粒物(PM10),54,58,47,29,30,101,,103,103,4,12,16,15,1.2,1.2
2024-03-08T2000,2364A,114.9461,25.8481,赣州市,气象台,颗粒物(PM10),54,57,45,32,31,99,,109,109,11,15,14,13,0.8,0.8
2024-03-08T2000,2365A,114.9322,25.8333,赣州市,市图书馆,颗粒物(PM10),57,64,49,28,26,97,,102,102,18,20,8,6,0.3,0.4
2024-03-08T2000,2366A,114.8905,25.8471,赣州市,华坚鞋城,颗粒物(PM10),58,66,48,30,30,94,,98,98,15,15,7,7,0.6,1.3
2024-03-08T2000,3109A,115.0093,25.8613,赣州市,赣县区卫计委,颗粒物(PM10),53,55,42,29,26,93,,100,100,12,20,8,8,0.6,0.6
2024-03-08T2000,2683A,106.2319,36.1417,固原市,马园,颗粒物(PM10),70,90,94,25,26,48,,84,76,49,35,5,5,0.5,0.4
2024-03-08T2000,2684A,106.2792,36.0022,固原市,监测站,颗粒物(PM10),64,77,78,32,26,82,,93,93,21,23,7,7,0.4,0.4
2024-03-08T2000,2685A,106.2375,36.0211,固原市,新区,颗粒物(PM10),65,80,82,29,24,80,,93,93,20,19,7,7,0.4,0.3
2024-03-08T2000,3522A,106.2177,35.9959,固原市,原州区十五小,颗粒物(PM10),76,101,94,36,26,80,,96,95,24,17,10,8,0.4,0.3
2024-03-08T2000,2544A,106.6303,30.4576,广安市,市委,细颗粒物(PM2.5),59,59,66,42,50,33,,30,30,19,34,4,5,0.8,1
2024-03-08T2000,2545A,106.6271,30.4663,广安市,友谊中学,细颗粒物(PM2.5),62,48,55,44,48,38,,32,32,22,36,4,5,1.0,1.1
2024-03-08T2000,2547A,106.6388,30.4551,广安市,广电花园,细颗粒物(PM2.5),60,54,58,43,48,37,,30,30,22,36,4,5,1.0,1.1
2024-03-08T2000,2902A,106.6351,30.4865,广安市,北辰小学,细颗粒物(PM2.5),72,,60,52,53,36,,32,32,18,28,6,6,0.9,1
2024-03-08T2000,2523A,105.8945,32.4535,广元市,黑石坡,,40,37,46,28,25,59,,74,60,17,18,5,8,0.6,0.6
2024-03-08T2000,2524A,105.821,32.4444,广元市,老城,,46,46,62,27,28,48,,46,45,21,36,2,5,0.8,0.7
2024-03-08T2000,2526A,105.8628,32.4287,广元市,监测站,,49,49,54,21,27,50,,56,56,23,24,6,8,0.7,0.6
2024-03-08T2000,3617A,105.8047,32.4166,广元市,经开区,,48,47,67,33,38,57,,54,54,17,29,3,10,0.6,0.6
2024-03-08T2000,1345A,113.2347,23.1423,广州市,广雅中学,颗粒物(PM10),57,63,46,33,26,58,,91,90,66,34,6,6,1.1,0.9
2024-03-08T2000,1346A,113.2612,23.105,广州市,市五中,"颗粒物(PM10),细颗粒物(PM2.5)",64,77,42,46,25,56,,104,99,54,22,6,6,1.2,0.8
2024-03-08T2000,1348A,113.3478,23.0916,广州市,广东商学院,细颗粒物(PM2.5),65,70,37,47,23,57,,104,100,60,23,6,6,0.8,0.7
2024-03-08T2000,1349A,113.4332,23.1047,广州市,市八十六中,颗粒物(PM10),56,62,36,30,21,79,,100,98,45,23,6,5,0.7,0.6
2024-03-08T2000,1350A,113.3505,22.9483,广州市,番禺中学,颗粒物(PM10),55,59,39,32,23,84,,110,109,49,29,8,6,0.8,0.7
2024-03-08T2000,1351A,113.2146,23.3916,广州市,花都师范,,48,48,36,28,23,78,,110,107,39,18,8,7,0.7,0.6
2024-03-08T2000,1352A,113.2597,23.1331,广州市,市监测站,颗粒物(PM10),61,71,40,41,25,56,,103,99,85,32,5,5,1.0,0.8
2024-03-08T2000,1353A,113.5618,23.312,广州市,九龙镇镇龙,颗粒物(PM10),65,79,32,44,21,37,,92,85,55,15,6,6,0.9,0.7
2024-03-08T2000,1354A,113.2765,23.1544,广州市,麓湖,,48,48,40,27,24,46,,104,99,58,23,5,6,0.8,0.7
2024-03-08T2000,1355A,113.443,23.3035,广州市,帽峰山森林公园,,30,19,29,17,19,93,,114,114,11,9,7,7,0.4,0.4
2024-03-08T2000,2846A,113.3221,23.1322,广州市,体育西,颗粒物(PM10),56,62,36,32,22,63,,100,96,50,19,8,8,0.9,0.7
2024-03-08T2000,3298A,113.5717,23.5491,广州市,从化街口,细颗粒物(PM2.5),79,93,32,58,22,79,,104,102,36,11,9,6,0.8,0.6
2024-03-08T2000,3299A,113.3472,23.3692,广州市,白云竹料,细颗粒物(PM2.5),69,69,34,50,25,79,,112,110,32,13,7,6,0.8,0.6
2024-03-08T2000,3300A,113.2981,23.237,广州市,白云嘉禾,颗粒物(PM10),61,71,46,37,26,21,,107,96,99,30,7,7,1.1,0.8
2024-03-08T2000,3301A,113.4256,23.1716,广州市,黄埔科学城,,40,40,30,24,21,67,,102,98,37,19,5,5,0.8,0.8
2024-03-08T2000,3302A,113.3942,23.0483,广州市,番禺大学城,颗粒物(PM10),51,52,34,27,21,85,,104,104,44,24,4,2,0.3,0.3
2024-03-08T2000,3303A,113.4922,22.8168,广州市,南沙黄阁,颗粒物(PM10),58,66,46,33,28,80,,128,126,66,34,6,8,1.1,0.9
2024-03-08T2000,3304A,113.5342,22.7896,广州市,南沙街,颗粒物(PM10),60,69,44,33,26,94,,132,132,41,27,4,7,0.8,0.7
2024-03-08T2000,3443A,113.2902,23.5544,广州市,花都梯面,,40,40,32,25,22,62,,112,106,42,15,8,7,0.7,0.6
2024-03-08T2000,3445A,113.7858,23.7478,广州市,从化良口,,34,34,27,23,18,71,,103,98,12,8,4,5,0.7,0.6
2024-03-08T2000,3446A,113.8051,23.2614,广州市,增城荔城,颗粒物(PM10),56,61,30,38,20,82,,104,103,14,8,6,7,0.8,0.9
2024-03-08T2000,2505A,109.568,23.1478,贵港市,德智高中,细颗粒物(PM2.5),58,46,60,41,50,70,,62,62,13,19,6,6,0.9,0.9
2024-03-08T2000,2506A,109.6047,23.0666,贵港市,江南子站,颗粒物(PM10),79,107,83,48,45,53,,68,68,36,23,10,10,1.2,1
2024-03-08T2000,2507A,109.6014,23.0948,贵港市,贵城子站,细颗粒物(PM2.5),84,75,62,62,51,44,,64,64,40,25,12,11,1.1,1
2024-03-08T2000,2508A,109.5669,23.1065,贵港市,荷城子站,细颗粒物(PM2.5),92,95,73,68,51,45,,64,63,32,19,12,12,1.3,1.2
2024-03-08T2000,3405A,109.5886,23.1172,贵港市,新世纪学校,细颗粒物(PM2.5),105,117,77,79,54,46,,67,66,32,20,10,10,1.2,1.1
2024-03-08T2000,1439A,106.6899,26.5998,贵阳市,马鞍山,,48,48,47,29,34,89,,98,98,17,16,10,11,0.7,0.7
2024-03-08T2000,1440A,106.6971,26.5694,贵阳市,市环保站,细颗粒物(PM2.5),54,51,58,38,42,83,,92,89,29,22,9,9,0.6,0.6
2024-03-08T2000,1441A,106.6243,26.6266,贵阳市,鉴湖路,颗粒物(PM10),51,51,59,24,35,88,,102,100,23,17,7,7,0.6,0.6
2024-03-08T2000,1442A,106.7487,26.6343,贵阳市,燕子冲,细颗粒物(PM2.5),52,41,45,36,37,97,,106,106,15,13,9,9,0.7,0.7
2024-03-08T2000,1443A,106.6555,26.4365,贵阳市,碧云窝,颗粒物(PM10),54,58,59,31,35,98,,104,104,17,16,13,13,0.7,0.7
2024-03-08T2000,1444A,106.694,26.5161,贵阳市,中院村,,46,46,49,31,38,93,,96,96,15,17,12,12,0.6,0.6
2024-03-08T2000,1445A,106.7109,26.6027,贵阳市,红边门,颗粒物(PM10),51,51,53,29,39,86,,94,92,25,20,13,12,0.6,0.6
2024-03-08T2000,1446A,106.7164,26.5699,贵阳市,新华路,,48,48,51,31,37,96,,100,100,19,17,7,11,0.6,0.7
2024-03-08T2000,1447A,106.674,26.5424,贵阳市,太慈桥,,46,46,48,31,35,89,,99,99,18,17,11,11,0.6,0.6
2024-03-08T2000,1862A,110.4144,25.3167,桂林市,电子科大尧山校区,细颗粒物(PM2.5),53,51,41,37,29,110,,112,112,13,12,5,6,0.5,0.6
2024-03-08T2000,1863A,110.2819,25.2697,桂林市,监测站,细颗粒物(PM2.5),58,61,50,41,38,78,,100,97,24,15,10,9,0.8,0.7
2024-03-08T2000,1864A,110.3089,25.2708,桂林市,龙隐路小学,细颗粒物(PM2.5),59,64,47,42,35,84,,104,102,18,14,8,6,0.8,0.8
2024-03-08T2000,1865A,110.2869,25.2178,桂林市,八中,细颗粒物(PM2.5),64,66,44,46,40,75,,102,99,26,18,7,6,0.9,0.8
2024-03-08T2000,3403A,110.1764,25.2381,桂林市,创业大厦,,,,46,,34,89,,109,108,19,12,,8,0.8,0.8
2024-03-08T2000,3531A,110.296,25.1253,桂林市,旅游学院,,45,44,36,31,32,91,,105,104,13,12,10,7,0.9,0.9
2024-03-08T2000,2674A,100.2561,34.4714,果洛藏族自治州,玛沁县大武镇,,27,22,35,17,18,86,,95,95,4,4,14,14,0.5,0.4
2024-03-08T2000,1129A,126.5422,45.755,哈尔滨市,岭北,,33,33,22,22,19,56,,99,87,31,14,15,13,0.7,0.4
2024-03-08T2000,1130A,126.561,45.8167,哈尔滨市,松北商大,,25,25,28,17,21,52,,82,73,26,13,6,6,0.5,0.4
2024-03-08T2000,1131A,126.979,45.5419,哈尔滨市,阿城会宁,细颗粒物(PM2.5),68,,44,49,30,50,,78,73,32,19,19,18,0.6,0.6
2024-03-08T2000,1132A,126.599,45.7222,哈尔滨市,南岗学府路,,30,30,36,10,18,50,,78,70,28,15,37,15,0.4,0.5
2024-03-08T2000,1133A,126.689,45.7733,哈尔滨市,太平宏伟公园,,36,,30,25,17,57,,79,73,21,14,11,11,0.6,0.4
2024-03-08T2000,1134A,126.635,45.7667,哈尔滨市,道外承德广场,,32,,28,22,18,69,,80,78,16,14,7,8,0.5,0.4
2024-03-08T2000,1135A,126.685,45.7319,哈尔滨市,香坊红旗大街,,42,,24,29,18,65,,77,74,14,12,19,6,0.6,0.5
2024-03-08T2000,1136A,126.6411,45.7258,哈尔滨市,动力和平路,,23,19,28,16,18,67,,84,80,21,17,4,9,0.4,0.4
2024-03-08T2000,1137A,126.593,45.7478,哈尔滨市,道里建国路,,28,19,31,19,28,50,,74,68,31,18,4,4,0.2,0.3
2024-03-08T2000,1138A,126.615,45.61,哈尔滨市,平房东轻厂,细颗粒物(PM2.5),57,55,32,40,24,5,,73,54,75,26,14,7,0.7,0.4
2024-03-08T2000,1139A,126.595,45.9855,哈尔滨市,呼兰师专,,32,32,30,22,23,52,,74,68,20,12,10,10,0.6,0.5
2024-03-08T2000,1140A,126.6206,45.6842,哈尔滨市,省农科院,,25,22,30,17,23,70,,84,81,14,14,9,12,0.4,0.5
2024-03-08T2000,2688A,93.5128,42.8172,哈密市,地区监测站,颗粒物(PM10),74,97,80,28,27,83,,90,90,20,27,3,8,0.0,0.6
2024-03-08T2000,2689A,93.4961,42.8328,哈密市,哈密师范学校,颗粒物(PM10),84,118,83,28,31,77,,86,86,24,40,4,10,0.5,0.9
2024-03-08T2000,2671A,100.9048,36.9639,海北藏族自治州,海晏县西海镇,颗粒物(PM10),63,75,74,24,23,109,,111,111,12,13,16,15,0.6,0.6
2024-03-08T2000,3867A,102.0738,36.5056,海东市,平安区公安北苑,颗粒物(PM10),85,120,138,31,41,104,,107,107,16,17,10,11,0.5,0.5
2024-03-08T2000,1410A,110.3232,20.0574,海口市,海南大学,,33,33,38,17,25,70,,70,70,18,14,7,7,0.5,0.7
2024-03-08T2000,1411A,110.283,20.0053,海口市,秀英海南医院,,31,31,32,18,22,67,,65,65,12,12,8,8,0.7,0.7
2024-03-08T2000,1412A,110.338,19.9969,海口市,海南师范大学,,30,30,31,21,23,64,,65,65,14,14,7,7,0.7,0.7
2024-03-08T2000,1413A,110.33,20.0356,海口市,龙华路环保局宿舍,,32,32,33,19,23,63,,64,64,15,14,8,8,0.6,0.6
2024-03-08T2000,3539A,110.5111,19.9736,海口市,桂林洋子站,,24,24,29,16,21,71,,67,67,7,12,6,6,0.5,0.6
2024-03-08T2000,2673A,100.6188,36.2866,海南藏族自治州,共和县恰卜恰镇,颗粒物(PM10),54,58,43,6,18,100,,114,114,21,19,14,11,0.6,0.5
2024-03-08T2000,2676A,97.3731,37.3753,海西蒙古族藏族自治州,德令哈市,,33,25,26,21,11,104,,116,116,24,8,13,13,0.7,0.5
2024-03-08T2000,1048A,114.5302,36.6116,邯郸市,东污水处理厂,颗粒物(PM10),54,57,29,24,11,54,,77,75,28,11,4,4,0.4,0.4
2024-03-08T2000,1049A,114.4918,36.5713,邯郸市,矿院,,30,29,30,21,9,60,,73,72,23,17,4,4,0.2,0.2
2024-03-08T2000,1050A,114.484,36.6133,邯郸市,丛台公园,,44,44,27,21,7,72,,80,80,13,13,4,4,0.5,0.4
2024-03-08T2000,3458A,114.7895,36.5593,邯郸市,香泉濮院小区,颗粒物(PM10),57,63,38,23,12,75,,89,88,13,11,6,7,0.3,0.2
2024-03-08T2000,3579A,114.50634,36.77178,邯郸市,永年区实验高中,,43,43,38,18,14,72,,89,88,24,22,4,6,0.4,0.4
2024-03-08T2000,3580A,114.20016,36.44293,邯郸市,峰峰矿区临水派出所,,,,22,,6,69,,88,86,11,10,6,9,0.3,0.4
2024-03-08T2000,2634A,106.9893,33.1842,汉中市,汉川机床厂子校,颗粒物(PM10),81,112,77,52,30,26,,72,61,55,18,8,6,0.7,0.4
2024-03-08T2000,2635A,107.0154,33.0706,汉中市,市监测站,颗粒物(PM10),76,102,92,51,46,44,,70,64,45,36,11,9,0.7,0.7
2024-03-08T2000,2636A,107.0089,33.1138,汉中市,鑫源开发区,细颗粒物(PM2.5),94,118,98,70,46,21,,71,60,65,42,14,12,0.9,0.6
2024-03-08T2000,2637A,107.007,33.0323,汉中市,南郑大河坎水厂,细颗粒物(PM2.5),84,105,89,62,42,28,,65,56,50,27,10,9,0.8,0.6
2024-03-08T2000,1223A,120.2072,30.2111,杭州市,滨江,颗粒物(PM10),62,73,90,42,53,109,,115,115,29,34,4,5,0.5,0.6
2024-03-08T2000,1224A,120.0633,30.2747,杭州市,西溪,颗粒物(PM10),60,69,74,34,36,111,,117,117,25,35,8,8,0.7,0.7
2024-03-08T2000,1226A,120.3461,30.3153,杭州市,下沙,细颗粒物(PM2.5),70,84,102,51,59,81,,108,107,54,49,6,7,0.5,0.7
2024-03-08T2000,1227A,120.1269,30.2456,杭州市,卧龙桥,颗粒物(PM10),58,65,75,40,47,99,,115,114,24,21,5,6,0.5,0.6
2024-03-08T2000,1228A,120.1903,30.2692,杭州市,浙江农大,颗粒物(PM10),60,69,84,40,52,91,,103,102,35,40,7,6,0.6,0.7
2024-03-08T2000,1230A,120.1197,30.3119,杭州市,和睦小学,颗粒物(PM10),59,67,85,41,55,107,,113,113,30,41,6,6,0.5,0.7
2024-03-08T2000,1231A,120.3019,30.4183,杭州市,临平镇,细颗粒物(PM2.5),84,96,105,62,66,90,,114,112,34,30,6,6,0.6,0.7
2024-03-08T2000,1232A,120.2697,30.1819,杭州市,城厢镇,细颗粒物(PM2.5),64,76,90,46,50,105,,114,114,33,42,7,8,0.5,0.8
2024-03-08T2000,1233A,120.0883,30.1808,杭州市,云栖,颗粒物(PM10),53,56,72,32,45,78,,122,114,22,16,7,8,0.5,0.6
2024-03-08T2000,3557A,119.9464,30.0494,杭州市,镇二中,细颗粒物(PM2.5),53,50,55,37,41,101,,113,113,28,38,8,7,0.5,0.7
2024-03-08T2000,3558A,119.7183,30.2367,杭州市,市府大楼,"颗粒物(PM10),细颗粒物(PM2.5)",67,83,69,48,49,105,,117,117,29,27,6,6,0.5,0.7
2024-03-08T2000,3656A,120.1556,30.2864,杭州市,消防大队,"颗粒物(PM10),细颗粒物(PM2.5)",62,73,85,44,56,111,,121,121,32,42,10,9,0.6,0.7
2024-03-08T2000,1270A,117.1959,31.7848,合肥市,明珠广场,颗粒物(PM10),64,78,100,39,48,90,,106,106,32,34,6,6,0.7,0.7
2024-03-08T2000,1271A,117.3072,31.8764,合肥市,三里街,细颗粒物(PM2.5),67,75,103,48,54,100,,106,106,28,37,7,6,0.5,0.6
2024-03-08T2000,1272A,117.2588,31.8707,合肥市,琥珀山庄,颗粒物(PM10),68,85,93,39,38,90,,112,111,37,39,5,5,0.7,0.7
2024-03-08T2000,1273A,117.1604,31.9052,合肥市,董铺水库,颗粒物(PM10),71,92,108,36,43,86,,100,100,25,25,3,3,0.4,0.4
2024-03-08T2000,1274A,117.25,31.8571,合肥市,长江中路,细颗粒物(PM2.5),83,97,97,61,52,99,,108,108,27,29,7,7,0.9,0.7
2024-03-08T2000,1275A,117.266,31.9436,合肥市,庐阳区,颗粒物(PM10),71,92,107,41,47,81,,102,101,37,28,4,3,0.5,0.5
2024-03-08T2000,1276A,117.336,31.8586,合肥市,瑶海区,颗粒物(PM10),71,92,104,45,49,80,,98,97,41,37,8,6,0.5,0.6
2024-03-08T2000,1277A,117.3027,31.7964,合肥市,包河区,颗粒物(PM10),68,85,105,41,47,34,,94,87,88,54,6,6,0.4,0.4
2024-03-08T2000,1278A,117.2776,31.7385,合肥市,滨湖新区,颗粒物(PM10),73,95,108,46,50,90,,100,100,29,37,5,5,0.5,0.5
2024-03-08T2000,1279A,117.1318,31.8403,合肥市,高新区,颗粒物(PM10),68,85,100,40,46,80,,98,98,40,28,5,5,0.7,0.7
2024-03-08T2000,3464A,117.3803,31.9147,合肥市,高教基地,颗粒物(PM10),70,89,91,37,40,73,,112,108,49,32,4,4,0.5,0.5
2024-03-08T2000,3614A,79.924,37.0877,和田地区,地区环保局,颗粒物(PM10),188,325,330,73,77,97,,96,96,10,18,7,9,0.5,0.7
2024-03-08T2000,3615A,79.9131,37.113,和田地区,市环保局,颗粒物(PM10),175,300,304,60,64,85,,93,93,28,21,6,7,0.6,0.8
2024-03-08T2000,2516A,108.2011,24.715,河池市,东仁乐园,细颗粒物(PM2.5),54,54,58,38,44,29,,54,52,14,14,4,4,0.6,0.7
2024-03-08T2000,2517A,108.0497,24.6947,河池市,市环保站,细颗粒物(PM2.5),59,55,56,42,43,89,,98,98,19,25,11,9,0.7,0.7
2024-03-08T2000,2518A,108.0983,24.6989,河池市,市疾控中心,细颗粒物(PM2.5),57,55,66,40,48,90,,97,97,22,34,12,10,0.7,0.8
2024-03-08T2000,1696A,114.6778,23.7569,河源市,源西,细颗粒物(PM2.5),54,49,30,38,19,11,,97,84,71,16,5,5,1.0,0.7
2024-03-08T2000,1697A,114.6944,23.7586,河源市,东埔,,45,42,36,31,23,44,,101,95,41,10,7,7,1.1,0.7
2024-03-08T2000,1698A,114.6892,23.7233,河源市,老城,颗粒物(PM10),51,52,32,27,22,59,,98,92,17,8,5,6,0.7,0.7
2024-03-08T2000,1718A,115.4208,35.2464,菏泽市,气象局,颗粒物(PM10),64,78,72,33,22,91,,103,103,28,24,6,5,0.4,0.4
2024-03-08T2000,1719A,115.4747,35.2375,菏泽市,市政协,颗粒物(PM10),59,68,63,28,24,82,,96,96,31,22,6,6,0.4,0.4
2024-03-08T2000,3374A,115.5564,35.0891,菏泽市,定陶老年大学,颗粒物(PM10),69,88,61,34,17,61,,93,90,42,22,6,6,0.5,0.4
2024-03-08T2000,3647A,115.4702,35.2706,菏泽市,菏泽医专,颗粒物(PM10),59,68,65,22,15,86,,100,100,27,22,6,5,0.4,0.3
2024-03-08T2000,2514A,111.5264,24.4172,贺州市,环保小区,细颗粒物(PM2.5),129,136,60,98,50,59,,95,92,34,16,13,8,1.3,0.9
2024-03-08T2000,2515A,111.5608,24.4078,贺州市,政协大楼,,,93,59,54,41,,,100,100,39,19,7,9,1.0,0.8
2024-03-08T2000,3534A,111.4744,24.4553,贺州市,西湾,细颗粒物(PM2.5),89,94,63,66,47,76,,98,97,24,12,8,8,0.9,0.8
2024-03-08T2000,2385A,114.17,35.9019,鹤壁市,市监测站,颗粒物(PM10),59,68,62,35,23,66,,84,81,22,18,10,8,0.4,0.3
2024-03-08T2000,2386A,114.2956,35.7511,鹤壁市,市交警支队,颗粒物(PM10),57,63,44,31,16,66,,84,81,26,27,6,6,0.4,0.3
2024-03-08T2000,2387A,114.2878,35.7306,鹤壁市,迎宾馆,颗粒物(PM10),52,54,38,31,12,61,,84,81,35,30,6,4,0.5,0.5
2024-03-08T2000,3474A,114.2617,35.6822,鹤壁市,大新区,颗粒物(PM10),55,60,49,29,16,41,,86,79,49,32,8,7,0.3,0.3
2024-03-08T2000,3596A,114.1572,35.9603,鹤壁市,南山宾馆,颗粒物(PM10),53,55,47,35,21,68,,82,80,21,17,13,11,0.4,0.4
2024-03-08T2000,2244A,130.2537,47.3416,鹤岗市,哈啤分公司,,29,29,23,17,15,70,,74,73,6,6,13,13,0.4,0.3
2024-03-08T2000,2245A,130.2684,47.3086,鹤岗市,斯达机电,,30,28,26,21,18,68,,76,72,10,7,9,10,0.4,0.4
2024-03-08T2000,2246A,130.3114,47.3388,鹤岗市,东山纸板厂,,29,25,29,20,16,74,,78,76,3,6,12,14,0.4,0.4
2024-03-08T2000,2247A,130.1097,47.3382,鹤岗市,五号水库,,25,25,22,8,13,74,,86,83,6,6,8,8,0.3,0.4
2024-03-08T2000,2263A,127.4833,50.2524,黑河市,交通局,,32,32,14,22,15,38,,74,66,27,6,6,4,0.6,0.4
2024-03-08T2000,2264A,127.5144,50.2341,黑河市,环保局,,33,33,15,22,15,43,,74,67,27,7,12,4,0.5,0.3
2024-03-08T2000,2265A,127.5291,50.2472,黑河市,大黑河岛,,,22,22,19,13,52,,64,64,,39,6,12,0.7,0.5
2024-03-08T2000,1074A,115.6838,37.7541,衡水市,电机北厂,,28,28,27,11,10,77,,88,88,13,8,1,2,0.3,0.3
2024-03-08T2000,1075A,115.6303,37.7316,衡水市,市监测站,,37,37,37,10,11,70,,83,83,20,15,7,6,0.2,0.2
2024-03-08T2000,3188A,115.6683,37.7217,衡水市,市城管局,,40,40,38,14,11,66,,84,83,22,15,4,3,0.4,0.3
2024-03-08T2000,3459A,115.5989,37.5491,衡水市,地表水厂,,,60,37,21,10,,,91,91,,14,3,3,0.4,0.3
2024-03-08T2000,2456A,112.5003,26.9167,衡阳市,原169医院,颗粒物(PM10),56,62,50,27,30,109,,118,118,19,24,10,8,0.6,0.7
2024-03-08T2000,2457A,112.6194,26.9258,衡阳市,衡阳化工总厂,颗粒物(PM10),63,76,67,33,53,106,,116,116,19,28,8,9,0.7,0.8
2024-03-08T2000,2458A,112.6211,26.8956,衡阳市,珠晖区环保局,颗粒物(PM10),63,76,66,38,53,98,,116,115,30,32,10,7,0.8,1
2024-03-08T2000,2459A,112.6197,26.8733,衡阳市,市委党校,颗粒物(PM10),58,66,71,30,56,118,,125,125,19,31,7,8,0.8,1.2
2024-03-08T2000,2460A,112.6006,26.8919,衡阳市,市监测站,细颗粒物(PM2.5),82,96,79,60,59,111,,124,124,20,31,9,8,0.8,1.1
2024-03-08T2000,2461A,112.5664,26.9056,衡阳市,真空机电公司,颗粒物(PM10),60,70,58,35,50,105,,115,115,26,32,7,8,0.8,1
2024-03-08T2000,3399A,112.6703,26.882,衡阳市,师范学院,细颗粒物(PM2.5),64,76,78,46,58,112,,121,121,18,28,8,8,0.6,1
2024-03-08T2000,2608A,103.3772,23.3993,红河哈尼族彝族自治州,污水处理厂,,50,40,67,35,56,70,,93,77,13,11,5,6,1.0,1
2024-03-08T2000,2609A,103.3861,23.35,红河哈尼族彝族自治州,监测站,细颗粒物(PM2.5),63,47,63,45,56,72,,89,79,14,12,10,8,1.1,1
2024-03-08T2000,3038A,103.3758,23.368,红河哈尼族彝族自治州,州图书馆,,43,31,59,30,50,70,,87,76,12,11,5,5,1.0,1
2024-03-08T2000,1090A,111.6507,40.7517,呼和浩特市,呼市一监,颗粒物(PM10),68,85,42,38,19,59,,90,88,34,27,9,9,0.7,0.5
2024-03-08T2000,1091A,111.6572,40.8033,呼和浩特市,小召,颗粒物(PM10),57,63,34,18,12,67,,84,84,35,30,11,9,0.5,0.5
2024-03-08T2000,1094A,111.7516,40.8369,呼和浩特市,如意水处理厂,颗粒物(PM10),51,52,30,22,14,41,,79,75,51,39,12,10,0.6,0.5
2024-03-08T2000,1095A,111.7276,40.8062,呼和浩特市,二十九中,,39,39,32,19,13,61,,80,79,37,35,14,11,0.6,0.5
2024-03-08T2000,1096A,111.5512,40.7866,呼和浩特市,工大金川校区,颗粒物(PM10),64,78,39,34,14,18,,76,71,75,39,8,7,0.7,0.5
2024-03-08T2000,1097A,111.717,40.7612,呼和浩特市,化肥厂生活区,颗粒物(PM10),55,60,38,20,17,44,,81,78,54,31,8,9,0.5,0.4
2024-03-08T2000,3698A,111.5968,40.8178,呼和浩特市,红旗小学,颗粒物(PM10),58,66,29,20,11,35,,77,74,55,26,8,8,0.4,0.4
2024-03-08T2000,3699A,111.6518,40.8389,呼和浩特市,海东办,颗粒物(PM10),54,58,28,15,10,54,,78,77,44,30,11,10,0.7,0.5
2024-03-08T2000,2192A,119.7594,49.2261,呼伦贝尔市,区环保局,,45,34,32,31,25,83,,90,90,19,28,4,5,0.5,0.5
2024-03-08T2000,3061A,119.7512,49.1577,呼伦贝尔市,国华电力东,,43,38,26,30,24,88,,94,94,11,11,5,4,0.3,0.3
2024-03-08T2000,1250A,120.0751,30.8669,湖州市,城西水厂,细颗粒物(PM2.5),67,73,100,48,69,113,,129,129,31,57,4,6,0.6,0.7
2024-03-08T2000,2873A,120.0875,30.8955,湖州市,仁皇山新区,细颗粒物(PM2.5),65,67,98,47,69,96,,126,124,37,41,6,8,0.6,0.8
2024-03-08T2000,2907A,120.1844,30.8596,湖州市,吴兴区站,细颗粒物(PM2.5),72,76,106,52,62,128,,140,140,24,33,6,7,0.5,0.7
2024-03-08T2000,3562A,120.4148,30.8538,湖州市,南浔区站,细颗粒物(PM2.5),72,74,109,52,75,104,,129,128,31,27,7,8,0.7,0.8
2024-03-08T2000,1607A,120.9092,40.7136,葫芦岛市,龙港区,,33,27,46,23,18,79,,85,84,10,17,13,11,0.3,0.3
2024-03-08T2000,1608A,120.8392,40.7514,葫芦岛市,化工街,颗粒物(PM10),54,58,54,24,17,51,,84,78,33,28,13,11,0.8,0.8
2024-03-08T2000,1609A,120.8341,40.7073,葫芦岛市,新区,,36,36,51,20,20,67,,89,85,28,27,18,12,0.4,0.4
2024-03-08T2000,1610A,120.8695,40.7677,葫芦岛市,东城区,,48,,45,33,19,56,,88,82,39,25,14,11,0.8,0.7
2024-03-08T2000,2482A,109.5981,27.5721,怀化市,林科所,,43,43,40,13,25,113,,109,109,4,4,8,5,0.5,0.7
2024-03-08T2000,2483A,109.9453,27.5444,怀化市,河西地税局,颗粒物(PM10),62,74,63,39,39,87,,94,94,23,21,7,5,0.8,0.8
2024-03-08T2000,2484A,109.9781,27.5342,怀化市,市四医院,颗粒物(PM10),61,71,65,38,40,98,,101,101,21,24,8,9,0.6,0.8
2024-03-08T2000,2485A,109.9972,27.5578,怀化市,监测楼,颗粒物(PM10),62,73,68,38,40,91,,97,97,23,25,10,11,0.7,0.8
2024-03-08T2000,2486A,110.0394,27.583,怀化市,市委党校,颗粒物(PM10),64,77,72,35,44,94,,101,101,18,24,7,10,0.6,0.7
2024-03-08T2000,1210A,119.036,33.5981,淮安市,钵池山,,46,46,101,25,78,72,,94,92,25,23,8,9,0.5,0.8
2024-03-08T2000,1211A,119.007,33.575,淮安市,北京南路,颗粒物(PM10),60,70,104,31,78,63,,100,95,37,28,6,8,0.5,0.8
2024-03-08T2000,1212A,118.989,33.6067,淮安市,市监测站,颗粒物(PM10),60,70,103,36,79,40,,103,92,62,32,7,7,0.6,0.8
2024-03-08T2000,1213A,119.135,33.5039,淮安市,楚州区监测站,颗粒物(PM10),66,81,116,34,87,49,,99,94,46,28,8,8,0.5,0.9
2024-03-08T2000,1214A,119.0186,33.6297,淮安市,淮阴区监测站,颗粒物(PM10),58,66,118,35,82,40,,96,87,62,33,6,6,0.4,0.7
2024-03-08T2000,3426A,118.8755,33.2894,淮安市,新华书店,,44,44,111,14,75,86,,113,109,19,23,5,6,0.5,0.8
2024-03-08T2000,2282A,116.8004,33.975,淮北市,监测站,,35,35,89,13,37,85,,96,96,20,23,5,7,0.5,0.7
2024-03-08T2000,2283A,116.8091,33.9007,淮北市,烈山区政府,颗粒物(PM10),52,53,94,20,46,82,,95,94,21,32,5,6,0.3,0.4
2024-03-08T2000,3330A,116.8873,33.9836,淮北市,杜集区检察院,颗粒物(PM10),55,60,103,32,52,81,,98,97,21,25,7,9,0.4,0.6
2024-03-08T2000,4017A,116.7923,33.9535,淮北市,市博物馆,,46,46,91,14,41,80,,93,92,17,20,6,8,0.5,0.6
2024-03-08T2000,2278A,117.0067,32.6524,淮南市,师范学院,颗粒物(PM10),66,81,134,15,68,74,,101,94,28,41,7,8,0.4,0.7
2024-03-08T2000,2279A,116.8569,32.5951,淮南市,谢家集区政府,颗粒物(PM10),58,66,110,37,65,86,,109,105,20,20,8,8,0.3,0.4
2024-03-08T2000,2280A,116.8281,32.633,淮南市,八公山区政府,颗粒物(PM10),57,64,117,30,61,86,,104,103,18,20,6,7,0.4,0.6
2024-03-08T2000,2281A,116.6325,32.6201,淮南市,焦岗湖风景区管理处,颗粒物(PM10),51,52,91,18,36,46,,93,86,54,46,3,3,0.1,0.2
2024-03-08T2000,2894A,117.0566,32.6531,淮南市,经济技术开发区消防队,颗粒物(PM10),53,55,126,30,66,84,,108,103,18,26,4,6,0.3,0.5
2024-03-08T2000,3329A,117.0108,32.5893,淮南市,山南新区,颗粒物(PM10),59,67,118,16,58,88,,108,106,26,22,4,5,0.4,0.5
2024-03-08T2000,2446A,114.9028,30.4742,黄冈市,职工中心,颗粒物(PM10),71,91,101,37,56,81,,114,112,22,22,9,9,0.4,0.6
2024-03-08T2000,2929A,114.8858,30.4519,黄冈市,红卫路,颗粒物(PM10),73,95,95,46,58,73,,115,111,36,30,7,6,0.5,0.6
2024-03-08T2000,3398A,114.9136,30.4445,黄冈市,市林业局,颗粒物(PM10),68,86,88,34,56,86,,112,111,24,24,7,6,0.3,0.5
2024-03-08T2000,2672A,102.0199,35.5102,黄南藏族自治州,同仁县隆务镇,颗粒物(PM10),78,105,90,37,39,92,,97,97,7,5,14,10,0.4,0.4
2024-03-08T2000,2295A,118.2903,29.6963,黄山市,延安路89号,颗粒物(PM10),80,109,67,57,33,79,,122,118,17,11,6,5,0.6,0.5
2024-03-08T2000,2296A,118.327,29.7178,黄山市,黄山东路89号,颗粒物(PM10),81,111,62,48,34,55,,37,,27,17,6,5,0.7,0.5
2024-03-08T2000,2297A,118.1371,30.2756,黄山市,黄山区政府5号楼,颗粒物(PM10),66,82,59,42,32,76,,118,113,16,14,4,4,0.5,0.6
2024-03-08T2000,2423A,115.0601,30.2313,黄石市,沈家营,颗粒物(PM10),60,69,90,25,46,90,,124,120,28,24,6,9,0.6,0.8
2024-03-08T2000,2424A,115.0817,30.2006,黄石市,陈家湾,颗粒物(PM10),68,86,97,44,70,85,,104,102,20,28,8,10,0.5,0.8
2024-03-08T2000,2426A,114.8988,30.2019,黄石市,铁山,颗粒物(PM10),70,90,90,26,57,58,,117,111,37,31,11,8,0.4,1
2024-03-08T2000,2427A,115.0307,30.2092,黄石市,团城山,颗粒物(PM10),63,75,94,21,52,103,,122,120,17,21,6,13,0.2,0.7
2024-03-08T2000,3149A,115.0235,30.1578,黄石市,笔架山北路,颗粒物(PM10),56,62,82,24,55,110,,128,126,20,26,6,9,0.4,0.7
2024-03-08T2000,1392A,114.4183,23.0528,惠州市,河南岸金山湖子站,颗粒物(PM10),53,56,32,34,21,100,,97,97,20,12,6,6,0.8,0.7
2024-03-08T2000,1393A,114.4053,23.0822,惠州市,下埔横江三路子站,颗粒物(PM10),53,56,30,34,21,106,,113,113,27,12,7,7,0.7,0.6
2024-03-08T2000,1394A,114.4103,23.1142,惠州市,江北云山西路子站,颗粒物(PM10),53,55,29,30,22,86,,105,105,28,10,10,9,0.9,0.7
2024-03-08T2000,1395A,114.4645,22.7833,惠州市,惠阳区承修路船湖子站,,50,50,33,27,21,113,,108,108,18,14,8,8,0.7,0.6
2024-03-08T2000,1396A,114.5317,22.7422,惠州市,大亚湾管委会子站,,50,50,32,29,22,123,,106,106,20,17,9,8,0.8,0.8
2024-03-08T2000,3314A,114.4338,22.8134,惠州市,惠阳秋长,颗粒物(PM10),56,61,32,27,20,122,,118,118,21,14,8,8,0.8,0.7
2024-03-08T2000,3452A,114.6517,22.775,惠州市,大亚湾霞涌,,48,48,28,28,20,125,,108,108,8,9,7,8,0.5,0.6
2024-03-08T2000,2240A,130.9762,45.3001,鸡西市,环保局,,21,21,53,12,28,59,,77,72,20,15,5,7,0.3,0.3
2024-03-08T2000,2243A,130.9429,45.3039,鸡西市,第一中学,,26,19,40,13,27,82,,91,84,9,17,10,10,0.2,0.3
2024-03-08T2000,3707A,131.0207,45.3073,鸡西市,欧美日汽修厂,,23,18,52,16,35,58,,82,72,23,16,4,5,0.6,0.5
2024-03-08T2000,3709A,130.9967,45.3106,鸡西市,市政设施管理处,,29,22,52,20,32,63,,98,85,25,18,3,4,0.5,0.5
2024-03-08T2000,2367A,114.9754,27.0803,吉安市,红声器材厂,,,91,67,38,35,115,,121,121,,21,8,14,0.6,0.7
2024-03-08T2000,2368A,114.9658,27.0999,吉安市,市森林工业局,颗粒物(PM10),61,71,58,37,37,113,,120,120,19,19,11,15,0.3,0.5
2024-03-08T2000,2369A,114.99,27.1312,吉安市,市环境监测站,颗粒物(PM10),62,73,59,32,33,118,,124,124,26,24,8,17,0.4,0.6
2024-03-08T2000,2370A,115.0093,27.0968,吉安市,青原区法院,颗粒物(PM10),65,79,61,28,36,113,,120,120,23,28,15,17,0.7,0.8
2024-03-08T2000,1772A,126.54,43.8622,吉林市,哈达湾,,34,34,30,22,19,75,,86,84,14,11,6,9,0.6,0.6
2024-03-08T2000,1773A,126.5844,43.8358,吉林市,东局子,,43,43,34,26,20,63,,80,77,24,19,6,14,0.7,0.6
2024-03-08T2000,1774A,126.5052,43.8245,吉林市,电力学院,,46,44,29,32,18,72,,88,85,17,11,11,9,0.7,0.6
2024-03-08T2000,1775A,126.6133,43.8972,吉林市,江北,细颗粒物(PM2.5),53,54,37,37,23,63,,88,83,24,14,12,11,1.0,0.6
2024-03-08T2000,1776A,126.555,43.8306,吉林市,江南公园,,33,33,31,20,20,66,,83,80,23,15,8,9,0.6,0.7
2024-03-08T2000,2868A,126.4739,43.953,吉林市,九站,细颗粒物(PM2.5),102,90,38,76,26,44,,84,71,46,26,14,13,0.8,0.5
2024-03-08T2000,1299A,116.9862,36.6114,济南市,科干所,,41,41,40,10,14,53,,86,82,33,21,11,7,0.6,0.5
2024-03-08T2000,1300A,116.9376,36.665,济南市,农科所,,44,44,48,15,21,60,,87,82,24,29,7,7,0.6,0.6
2024-03-08T2000,1301A,117.1265,36.6734,济南市,开发区,,49,49,41,15,15,57,,86,82,33,25,6,6,0.4,0.5
2024-03-08T2000,1303A,117.0624,36.6868,济南市,省种子仓库,颗粒物(PM10),54,58,50,22,18,40,,84,79,55,29,5,6,0.4,0.4
2024-03-08T2000,1304A,116.9489,36.6447,济南市,机床二厂,,46,46,47,15,16,69,,98,93,32,29,5,8,0.5,0.5
2024-03-08T2000,1305A,117.0495,36.663,济南市,市监测站,,46,46,43,15,18,45,,88,83,56,31,9,10,0.6,0.5
2024-03-08T2000,1306A,116.7675,36.5484,济南市,长清党校,,37,37,48,10,18,77,,96,94,20,26,4,5,0.4,0.4
2024-03-08T2000,1616A,117.6795,36.229,济南市,技术学院,,46,46,52,22,31,58,,87,84,41,34,11,8,0.6,0.6
2024-03-08T2000,1961A,117.532,36.6868,济南市,东山小学,颗粒物(PM10),53,56,48,12,21,40,,90,85,41,33,5,6,0.3,0.4
2024-03-08T2000,3059A,117.7161,36.2049,济南市,泰兴公司,颗粒物(PM10),51,51,69,24,47,58,,87,84,33,35,9,9,0.5,0.7
2024-03-08T2000,3064A,117.6867,36.2171,济南市,莱芜战役纪念馆,颗粒物(PM10),53,56,65,27,35,56,,83,80,36,33,10,8,0.6,0.7
2024-03-08T2000,3494A,117.1673,36.9782,济南市,济阳区政府,颗粒物(PM10),56,61,43,29,17,73,,89,88,25,28,7,9,0.5,0.4
2024-03-08T2000,3495A,117.1171,36.63,济南市,锦屏中学,,37,37,36,10,14,62,,88,84,21,18,5,6,0.4,0.4
2024-03-08T2000,3682A,116.9814,36.6819,济南市,济南四建,,44,44,40,17,19,45,,84,78,52,30,10,9,0.5,0.4
2024-03-08T2000,1653A,116.6251,35.4302,济宁市,火炬城,,37,37,52,12,17,65,,81,79,18,19,4,4,0.4,0.4
2024-03-08T2000,1655A,116.5491,35.4042,济宁市,电化厂,,45,45,64,7,18,76,,88,87,16,23,4,5,0.3,0.5
2024-03-08T2000,3500A,116.5814,35.3707,济宁市,北湖一中,,29,29,51,9,19,78,,83,83,16,21,6,6,0.4,0.3
2024-03-08T2000,3501A,116.8249,35.5593,济宁市,服务中心,,39,39,64,18,24,63,,89,86,28,24,5,4,0.5,0.5
2024-03-08T2000,3678A,116.5907,35.4054,济宁市,市第七中学,,41,41,56,14,17,71,,85,84,21,19,3,3,0.5,0.5
2024-03-08T2000,2255A,130.2751,46.8028,佳木斯市,佳纺,,46,40,38,32,26,55,,79,69,32,29,10,6,0.6,0.5
2024-03-08T2000,2256A,130.3995,46.8307,佳木斯市,发电厂,,20,20,31,14,24,52,,88,81,36,17,5,4,0.5,0.4
2024-03-08T2000,2257A,130.3258,46.7975,佳木斯市,环保局,,36,26,35,25,25,54,,79,68,38,28,6,5,0.5,0.5
2024-03-08T2000,2258A,130.3648,46.8032,佳木斯市,十一中,,40,34,32,28,22,52,,80,68,37,24,6,6,0.7,0.5
2024-03-08T2000,2259A,130.3794,46.7588,佳木斯市,四丰,,30,20,32,9,15,95,,95,95,6,14,1,1,0.5,0.4
2024-03-08T2000,1252A,120.7436,30.778,嘉兴市,清河小学,细颗粒物(PM2.5),63,71,104,45,72,76,,107,104,38,30,7,8,0.7,0.9
2024-03-08T2000,1253A,120.726,30.7478,嘉兴市,嘉兴学院,,,71,100,44,64,,,116,,32,29,6,7,0.9,1
2024-03-08T2000,2872A,120.7846,30.7525,嘉兴市,南湖区残联,"颗粒物(PM10),细颗粒物(PM2.5)",63,75,110,45,70,82,,124,120,41,25,6,7,0.6,0.8
2024-03-08T2000,3407A,120.6916,30.7739,嘉兴市,秀洲住建,细颗粒物(PM2.5),65,71,98,47,71,69,,110,107,50,35,7,7,0.6,0.7
2024-03-08T2000,1945A,98.2908,39.7711,嘉峪关市,气象局,颗粒物(PM10),69,88,65,31,22,92,,108,108,14,30,2,4,0.6,0.6
2024-03-08T2000,2884A,98.2672,39.7978,嘉峪关市,酒钢宾馆,颗粒物(PM10),64,78,66,24,20,92,,102,102,18,24,12,10,0.5,0.5
2024-03-08T2000,3248A,98.2643,39.7724,嘉峪关市,雄关区,颗粒物(PM10),58,65,51,28,18,92,,106,106,14,30,7,7,0.4,0.5
2024-03-08T2000,1383A,113.1064,22.6058,江门市,北街,颗粒物(PM10),53,56,42,35,30,98,,126,126,54,41,8,9,0.8,0.7
2024-03-08T2000,1384A,113.0731,22.5835,江门市,西区,颗粒物(PM10),65,80,49,33,27,100,,127,127,63,38,7,8,1.0,0.7
2024-03-08T2000,1385A,113.0219,22.5311,江门市,圭峰西,颗粒物(PM10),52,53,41,30,26,105,,116,116,42,34,7,8,1.0,0.9
2024-03-08T2000,1386A,113.0828,22.5947,江门市,东湖,颗粒物(PM10),58,65,45,36,27,108,,125,125,41,33,8,8,0.8,0.6
2024-03-08T2000,3311A,113.1075,22.5647,江门市,江海富民,颗粒物(PM10),63,75,52,37,28,92,,132,132,62,41,8,8,0.9,0.7
2024-03-08T2000,3449A,113.05,22.4667,江门市,新会银湖,细颗粒物(PM2.5),55,56,44,39,31,77,,131,130,47,38,8,8,0.9,0.8
2024-03-08T2000,1828A,113.227,35.2125,焦作市,市环保局,颗粒物(PM10),54,58,45,34,21,61,,80,79,30,16,7,6,0.4,0.4
2024-03-08T2000,3169A,113.2725,35.2067,焦作市,太极体育中心,,,91,54,29,14,55,,46,,,20,9,6,0.7,0.6
2024-03-08T2000,3335A,113.3137,35.2641,焦作市,马村街道办,颗粒物(PM10),78,106,56,42,16,54,,88,84,38,21,10,12,0.4,0.3
2024-03-08T2000,3336A,113.2465,35.2373,焦作市,焦作技师学院,颗粒物(PM10),62,73,40,41,19,52,,85,82,44,19,9,4,0.7,0.5
2024-03-08T2000,3477A,113.1656,35.2539,焦作市,中站许衡医院,颗粒物(PM10),51,52,44,31,20,59,,82,80,33,17,6,7,0.3,0.3
2024-03-08T2000,3981A,113.2449,35.1803,焦作市,原李万街道办,颗粒物(PM10),70,90,45,24,11,63,,85,83,33,19,5,5,0.7,0.6
2024-03-08T2000,1708A,116.3701,23.5345,揭阳市,新兴,"颗粒物(PM10),细颗粒物(PM2.5)",60,70,52,43,38,118,,128,128,30,21,12,12,0.7,0.8
2024-03-08T2000,1709A,116.3264,23.5443,揭阳市,西马,颗粒物(PM10),66,82,50,40,31,136,,139,139,19,17,12,11,0.7,0.7
2024-03-08T2000,1710A,116.3611,23.5626,揭阳市,东兴,颗粒物(PM10),64,78,55,35,33,132,,134,134,17,18,9,12,0.7,0.8
2024-03-08T2000,1711A,116.4151,23.5294,揭阳市,渔湖,颗粒物(PM10),57,63,50,29,23,126,,142,142,23,19,8,11,0.6,0.8
2024-03-08T2000,3320A,116.403,23.5699,揭阳市,曲溪,颗粒物(PM10),71,91,52,46,32,130,,137,137,19,18,11,8,0.7,0.8
2024-03-08T2000,1944A,102.1692,38.5167,金昌市,天庆家园,颗粒物(PM10),60,69,55,24,11,66,,94,92,42,15,11,6,0.8,0.4
2024-03-08T2000,3170A,102.1864,38.5253,金昌市,市委党校,颗粒物(PM10),66,82,70,24,22,88,,101,99,18,11,233,25,0.6,0.7
2024-03-08T2000,4022A,102.1647,38.5371,金昌市,金川区人防中心,颗粒物(PM10),59,68,60,29,16,76,,96,94,22,11,9,11,0.7,0.5
2024-03-08T2000,1262A,119.647,29.077,金华市,十五中,颗粒物(PM10),63,76,85,32,47,92,,126,123,40,46,4,4,0.5,0.6
2024-03-08T2000,1263A,119.686,29.1029,金华市,监测站,颗粒物(PM10),52,53,76,29,44,80,,116,113,45,47,5,4,0.4,0.6
2024-03-08T2000,3659A,119.656,29.1131,金华市,气象局,颗粒物(PM10),63,76,90,28,48,77,,122,119,52,50,4,4,0.8,0.9
2024-03-08T2000,1767A,121.1115,41.0879,锦州市,南山,,39,39,40,14,9,74,,91,86,18,9,8,14,0.4,0.4
2024-03-08T2000,1768A,121.0533,40.8434,锦州市,开发区,颗粒物(PM10),64,77,71,40,25,24,,86,73,77,46,23,18,0.6,0.7
2024-03-08T2000,1769A,121.1836,41.1119,锦州市,百股街道,,33,33,42,14,13,64,,94,88,24,8,8,10,0.8,0.5
2024-03-08T2000,1770A,121.1178,41.1222,锦州市,天安街道,细颗粒物(PM2.5),72,58,42,52,12,63,,88,80,26,8,8,10,0.8,0.5
2024-03-08T2000,1771A,121.1303,41.1386,锦州市,北湖公园,细颗粒物(PM2.5),99,,33,74,14,60,,88,82,26,7,12,13,0.8,0.4
2024-03-08T2000,2160A,112.85,35.5051,晋城市,自来水公司,,47,47,43,24,13,77,,86,86,28,26,8,11,0.6,0.8
2024-03-08T2000,2161A,112.8318,35.4936,晋城市,白云商贸,,44,44,46,19,9,78,,83,83,30,27,8,9,0.5,0.6
2024-03-08T2000,2162A,112.8508,35.4887,晋城市,市环保局,颗粒物(PM10),53,56,48,14,12,77,,83,83,26,28,7,8,0.5,0.7
2024-03-08T2000,2163A,112.8676,35.4897,晋城市,技术学院,颗粒物(PM10),53,55,45,19,11,64,,83,81,39,31,6,7,0.3,0.4
2024-03-08T2000,3620A,112.8271,35.4828,晋城市,泽州一中,颗粒物(PM10),101,151,44,14,9,76,,82,82,,23,11,10,0.4,0.9
2024-03-08T2000,2171A,112.7532,37.6945,晋中市,锦纶小区,颗粒物(PM10),59,68,41,29,14,62,,89,88,42,22,11,10,0.8,0.7
2024-03-08T2000,2173A,112.7249,37.7067,晋中市,南都小区,颗粒物(PM10),66,81,43,35,20,60,,91,89,46,25,11,11,0.7,0.5
2024-03-08T2000,2174A,112.6991,37.6982,晋中市,榆次区政府,颗粒物(PM10),63,75,36,35,24,70,,93,92,32,25,8,8,0.6,0.6
2024-03-08T2000,2865A,112.7195,37.6828,晋中市,榆次三中,颗粒物(PM10),73,95,44,31,13,65,,91,90,42,24,11,11,0.8,0.6
2024-03-08T2000,2439A,112.2014,31.0481,荆门市,竹园小学,颗粒物(PM10),85,120,132,35,74,93,,114,112,26,25,9,9,0.6,0.9
2024-03-08T2000,2440A,112.1969,30.9891,荆门市,掇刀,颗粒物(PM10),84,117,124,47,78,98,,119,118,27,26,10,10,0.6,0.7
2024-03-08T2000,2441A,112.2213,31.0386,荆门市,石化一小,颗粒物(PM10),81,111,129,46,75,108,,118,118,26,29,16,15,0.6,0.8
2024-03-08T2000,3012A,112.1849,31.0362,荆门市,西山林语,颗粒物(PM10),75,100,114,28,64,97,,116,115,20,21,9,10,0.6,0.7
2024-03-08T2000,3547A,112.1632,31.0138,荆门市,龙泉中学南校,颗粒物(PM10),86,121,126,51,77,95,,116,114,22,21,14,10,0.4,0.6
2024-03-08T2000,1844A,112.2494,30.3197,荆州市,市图书馆,颗粒物(PM10),81,111,95,48,74,86,,110,109,29,28,8,9,0.6,0.8
2024-03-08T2000,1845A,112.2008,30.3544,荆州市,市委党校,颗粒物(PM10),74,97,93,49,72,88,,106,106,31,34,8,8,0.7,0.8
2024-03-08T2000,3194A,112.2747,30.3122,荆州市,管委会,细颗粒物(PM2.5),87,108,93,64,67,91,,116,115,32,34,12,11,0.7,0.9
2024-03-08T2000,3548A,112.1655,30.3364,荆州市,学苑路,,,120,97,69,79,81,,104,104,31,31,,9,,0.8
2024-03-08T2000,2342A,117.3102,29.3867,景德镇市,王港中学,颗粒物(PM10),58,66,40,32,20,63,,125,118,6,2,5,5,0.2,0.2
2024-03-08T2000,2343A,117.2117,29.2933,景德镇市,老干部活动中心,颗粒物(PM10),61,72,58,38,37,68,,108,105,21,18,5,5,0.5,0.5
2024-03-08T2000,2344A,117.1894,29.2789,景德镇市,兽医站,颗粒物(PM10),61,71,63,23,30,68,,117,112,24,22,9,7,0.6,0.6
2024-03-08T2000,2345A,117.1547,29.2617,景德镇市,台达陶瓷,颗粒物(PM10),77,104,67,33,36,24,,110,100,58,26,15,8,0.7,0.6
2024-03-08T2000,2346A,117.2461,29.2956,景德镇市,陶研所,颗粒物(PM10),53,55,47,24,24,64,,108,103,18,18,5,5,0.5,0.6
2024-03-08T2000,1803A,115.9872,29.6815,九江市,十里,颗粒物(PM10),69,88,76,39,45,108,,132,132,24,39,15,11,0.6,0.9
2024-03-08T2000,1804A,115.9584,29.7046,九江市,茅山头,颗粒物(PM10),72,94,67,43,43,80,,116,114,40,41,9,11,0.6,0.8
2024-03-08T2000,1805A,115.9877,29.7295,九江市,西园,颗粒物(PM10),73,96,71,46,49,85,,114,113,36,35,7,8,1.0,1
2024-03-08T2000,1806A,116.0172,29.6547,九江市,五七二七厂,颗粒物(PM10),63,76,87,33,52,96,,111,111,19,20,12,11,0.7,0.9
2024-03-08T2000,1808A,115.9114,29.6038,九江市,综合工业园,颗粒物(PM10),71,92,78,42,62,108,,122,122,24,47,14,13,0.8,0.9
2024-03-08T2000,1809A,116.0721,29.7535,九江市,石化总厂,颗粒物(PM10),75,100,84,38,49,72,,113,112,52,44,5,9,0.6,0.9
2024-03-08T2000,1810A,115.9773,29.5698,九江市,庐山气象台,颗粒物(PM10),65,80,67,39,45,121,,118,118,11,11,7,7,1.2,1.1
2024-03-08T2000,3190A,116.0254,29.6994,九江市,外国语学校,颗粒物(PM10),64,78,75,37,48,86,,118,117,35,36,13,12,0.7,1
2024-03-08T2000,2658A,98.5061,39.7443,酒泉市,仓门街子站,颗粒物(PM10),68,85,80,23,29,70,,91,91,26,28,10,8,0.6,0.5
2024-03-08T2000,2659A,98.4989,39.7256,酒泉市,油田生活基地,颗粒物(PM10),62,73,76,32,31,96,,102,102,9,22,7,8,0.3,0.4
2024-03-08T2000,2698A,76.0072,39.4467,喀什地区,巡警大队,颗粒物(PM10),85,119,215,23,43,101,,88,88,14,28,2,3,0.3,0.7
2024-03-08T2000,2699A,75.9755,39.4694,喀什地区,吾办,颗粒物(PM10),81,112,202,35,59,97,,87,87,19,23,4,4,0.4,0.6
2024-03-08T2000,4027A,75.9483,39.4689,喀什地区,老干局,颗粒物(PM10),82,114,199,25,40,112,,98,98,6,11,1,2,0.4,0.6
2024-03-08T2000,1824A,114.3389,34.7781,开封市,肿瘤医院,颗粒物(PM10),61,71,58,31,21,53,,78,76,38,20,5,5,0.4,0.4
2024-03-08T2000,1826A,114.2885,34.7965,开封市,世纪星幼儿园,颗粒物(PM10),64,77,54,28,20,72,,89,87,30,21,8,6,0.3,0.3
2024-03-08T2000,3147A,114.3438,34.8106,开封市,龙亭公园,颗粒物(PM10),57,63,57,33,15,67,,80,80,26,19,5,5,0.4,0.5
2024-03-08T2000,3210A,114.3644,34.7964,开封市,汴京公园,颗粒物(PM10),60,69,62,31,15,61,,85,83,37,25,2,3,0.2,0.1
2024-03-08T2000,3473A,114.2485,34.8306,开封市,技师学院,,49,49,52,25,15,80,,87,87,16,22,3,4,0.4,0.4
2024-03-08T2000,3592A,114.4644,34.7556,开封市,祥符区生态环境局,颗粒物(PM10),76,101,68,38,19,33,,84,77,64,26,4,5,0.5,0.8
2024-03-08T2000,1951A,84.895,45.6094,克拉玛依市,长征新村,细颗粒物(PM2.5),52,48,63,36,43,101,,91,91,21,34,11,9,0.4,0.6
2024-03-08T2000,1952A,84.8988,45.5893,克拉玛依市,南林小区,,48,43,64,33,46,110,,98,98,18,32,9,7,0.4,0.6
2024-03-08T2000,1954A,84.905,44.3396,克拉玛依市,独山子区,颗粒物(PM10),55,59,38,22,21,122,,111,111,23,19,8,6,0.4,0.5
2024-03-08T2000,1955A,85.6979,46.098,克拉玛依市,乌尔禾区商贸楼,颗粒物(PM10),51,51,54,33,43,105,,101,101,19,24,7,8,0.5,0.7
2024-03-08T2000,3612A,85.1045,45.6899,克拉玛依市,白碱滩区新站,细颗粒物(PM2.5),68,74,74,49,48,115,,97,97,19,29,13,11,0.5,0.7
2024-03-08T2000,2697A,76.1454,39.7142,克孜勒苏柯尔克孜自治州,市人民政府,颗粒物(PM10),85,120,223,43,60,106,,96,96,7,9,6,5,0.3,0.5
2024-03-08T2000,3665A,76.1658,39.7157,克孜勒苏柯尔克孜自治州,克州文化中心,颗粒物(PM10),89,127,231,44,64,97,,92,92,10,7,7,6,0.4,0.4
2024-03-08T2000,1450A,102.8204,24.8886,昆明市,呈贡新区,,43,43,51,13,49,99,,113,110,12,22,5,8,0.5,0.8
2024-03-08T2000,1451A,102.6251,24.9608,昆明市,西山森林公园,,36,31,37,16,25,115,,118,117,6,10,7,9,1.0,1.1
2024-03-08T2000,1452A,102.7252,25.0902,昆明市,龙泉镇,,44,44,49,16,38,90,,113,109,22,22,10,10,0.4,0.5
2024-03-08T2000,1453A,102.7266,25.0375,昆明市,东风东路,,31,23,57,20,40,98,,111,108,18,21,7,9,0.5,0.7
2024-03-08T2000,1454A,102.6742,25.0669,昆明市,金鼎山,,44,44,55,10,39,95,,109,107,20,22,6,4,0.5,0.6
2024-03-08T2000,1455A,102.6644,25.0401,昆明市,碧鸡广场,,30,27,54,18,38,95,,115,112,25,22,9,10,0.6,0.7
2024-03-08T2000,3179A,102.7494,25.0119,昆明市,官渡区博物馆,,30,26,57,17,40,96,,109,105,15,21,9,9,0.5,0.8
2024-03-08T2000,3375A,102.8017,24.8336,昆明市,青年创业园,,36,22,51,14,34,114,,124,121,5,23,9,12,0.5,0.7
2024-03-08T2000,3550A,102.7997,24.9786,昆明市,昆明学院,,31,24,60,14,41,97,,106,103,12,24,8,10,0.4,0.7
2024-03-08T2000,3551A,102.5967,24.6736,昆明市,晋宁区生态环境分局,,43,43,54,22,35,106,,120,117,8,14,6,6,0.5,0.7
2024-03-08T2000,3552A,102.6678,24.9856,昆明市,云天化总部,,36,20,49,12,34,114,,119,117,6,15,8,8,0.4,0.6
2024-03-08T2000,1456A,91.1319,29.6514,拉萨市,八廓街,,31,11,14,9,8,98,,102,102,13,11,8,7,0.4,0.4
2024-03-08T2000,1457A,91.1221,29.6747,拉萨市,市环保局,,31,16,16,7,10,99,,102,102,10,11,7,6,0.5,0.4
2024-03-08T2000,1458A,91.0874,29.6475,拉萨市,区监测站,,32,11,12,6,7,101,,104,102,7,6,5,5,0.2,0.2
2024-03-08T2000,1459A,91.1774,29.6541,拉萨市,西藏大学,,32,11,12,7,7,102,,101,101,4,6,12,8,0.3,0.2
2024-03-08T2000,1460A,90.9798,29.6588,拉萨市,区辐射站,,30,6,17,6,9,94,,101,101,14,13,5,5,0.3,0.3
2024-03-08T2000,1461A,91.0834,29.6292,拉萨市,拉萨火车站,,33,17,16,10,8,103,,106,102,6,4,4,3,0.2,0.2
2024-03-08T2000,2520A,109.2203,23.7256,来宾市,来宾技工学校,细颗粒物(PM2.5),104,98,74,78,50,93,,103,103,24,21,11,10,1.0,0.9
2024-03-08T2000,3535A,109.1781,23.7297,来宾市,兴宾区政府,细颗粒物(PM2.5),114,113,71,86,56,85,,108,108,38,23,12,8,1.1,0.8
2024-03-08T2000,4002A,109.2416,23.7461,来宾市,中南小学,细颗粒物(PM2.5),118,125,74,89,55,74,,104,104,43,25,9,7,1.2,1
2024-03-08T2000,1476A,103.631,36.1031,兰州市,兰炼宾馆,颗粒物(PM10),67,84,173,44,55,102,,112,112,19,41,8,20,0.3,0.6
2024-03-08T2000,1478A,103.8412,36.0726,兰州市,生物制品所,颗粒物(PM10),68,85,177,43,55,98,,98,98,19,47,8,12,0.4,0.8
2024-03-08T2000,1479A,103.831,36.0464,兰州市,铁路设计院,颗粒物(PM10),90,130,166,52,59,55,,93,93,69,52,8,12,0.8,1
2024-03-08T2000,3186A,103.7158,36.1058,兰州市,教育港,颗粒物(PM10),76,101,169,37,47,95,,108,108,28,42,7,15,0.4,0.7
2024-03-08T2000,3241A,103.7439,36.0842,兰州市,百合公园,颗粒物(PM10),61,72,168,30,47,91,,94,94,18,48,5,11,0.2,0.9
2024-03-08T2000,3242A,103.9611,35.998,兰州市,和平,颗粒物(PM10),99,147,178,58,63,63,,97,95,50,32,13,12,0.6,0.6
2024-03-08T2000,3245A,103.6633,36.533,兰州新区,新区管委会,,,51,135,30,48,98,,105,104,10,17,4,13,,0.7
2024-03-08T2000,3246A,103.6975,36.4789,兰州新区,舟曲中学,颗粒物(PM10),78,106,191,25,50,84,,94,94,18,22,23,41,0.4,0.6
2024-03-08T2000,1067A,116.6708,39.5111,廊坊市,药材公司,颗粒物(PM10),56,61,34,27,10,63,,81,79,25,15,3,3,0.5,0.3
2024-03-08T2000,1068A,116.7214,39.5589,廊坊市,开发区,,39,39,22,16,7,53,,75,72,32,14,1,2,0.4,0.2
2024-03-08T2000,1070A,116.7244,39.5269,廊坊市,北华航天学院,,38,38,24,15,4,63,,80,78,26,13,5,3,0.4,0.3
2024-03-08T2000,2919A,116.7022,39.5453,廊坊市,河北工业大学,,,,25,,9,,,80,80,26,11,2,2,0.5,0.3
2024-03-08T2000,2535A,103.7723,29.5462,乐山市,花湖湾,细颗粒物(PM2.5),67,76,90,48,48,83,,80,80,14,21,4,5,0.5,0.5
2024-03-08T2000,2536A,103.7627,29.5844,乐山市,牛耳桥,细颗粒物(PM2.5),69,85,82,50,47,80,,86,86,28,36,6,5,0.6,0.7
2024-03-08T2000,2537A,103.7508,29.6006,乐山市,市第三水厂,颗粒物(PM10),69,88,85,47,46,85,,88,88,25,37,5,4,0.8,0.8
2024-03-08T2000,2538A,103.7571,29.5664,乐山市,市监测站,细颗粒物(PM2.5),70,83,84,51,46,79,,85,85,25,26,5,6,0.6,0.7
2024-03-08T2000,3361A,103.7311,29.5628,乐山市,理工大学,"颗粒物(PM10),细颗粒物(PM2.5)",69,87,81,50,47,86,,90,90,19,28,6,7,0.6,0.6
2024-03-08T2000,2600A,100.2203,26.8906,丽江市,市中心,,28,16,19,7,11,87,,101,99,14,12,4,5,0.5,0.4
2024-03-08T2000,1267A,119.914,28.4514,丽水市,监测站大楼,颗粒物(PM10),66,82,63,39,37,100,,129,127,28,23,4,5,0.6,0.5
2024-03-08T2000,1268A,119.93,28.4586,丽水市,莲都小学,颗粒物(PM10),72,93,67,40,38,98,,135,133,33,27,4,4,0.5,0.5
2024-03-08T2000,1269A,119.879,28.4231,丽水市,余庄前,颗粒物(PM10),57,63,61,28,37,76,,126,121,15,16,4,5,0.4,0.5
2024-03-08T2000,1173A,119.176,34.5885,连云港市,市环境监测站,颗粒物(PM10),58,66,80,36,64,80,,81,81,26,37,7,7,0.8,0.9
2024-03-08T2000,3000A,119.3581,34.6972,连云港市,德源药业,颗粒物(PM10),53,56,81,34,61,75,,80,80,25,35,7,6,0.6,0.8
2024-03-08T2000,3007A,119.178,34.844,连云港市,新城一中,细颗粒物(PM2.5),65,72,99,47,70,93,,91,91,32,37,9,10,0.8,1
2024-03-08T2000,3008A,119.3608,34.7519,连云港市,胡沟管理处,颗粒物(PM10),75,100,76,41,56,42,,80,77,74,31,19,11,0.6,0.9
2024-03-08T2000,3009A,119.1478,34.5911,连云港市,矿山设计院,颗粒物(PM10),62,73,83,36,57,77,,79,79,24,34,4,4,0.6,0.8
2024-03-08T2000,3434A,119.2413,34.6539,连云港市,工贸学校,颗粒物(PM10),51,51,81,31,64,77,,90,90,28,29,10,9,0.6,0.8
2024-03-08T2000,3664A,119.4172,34.7341,连云港市,连云街道,"颗粒物(PM10),细颗粒物(PM2.5)",67,83,86,48,60,99,,90,90,15,26,6,7,0.6,0.9
2024-03-08T2000,2571A,102.3431,27.8099,凉山彝族自治州,青龙寺,,32,22,19,6,5,101,,115,115,3,6,4,5,0.6,1.1
2024-03-08T2000,2572A,102.2721,27.8415,凉山彝族自治州,邛海宾馆,,32,27,20,11,11,102,,112,112,6,10,8,10,0.6,0.9
2024-03-08T2000,2573A,102.2625,27.898,凉山彝族自治州,西昌市政府,,31,30,21,18,15,99,,109,109,8,7,12,9,0.8,0.7
2024-03-08T2000,2574A,102.2685,27.8851,凉山彝族自治州,凉山州政府,,30,27,21,14,12,96,,107,107,9,9,10,6,1.0,0.9
2024-03-08T2000,2575A,102.237,27.8914,凉山彝族自治州,长安,,32,28,23,13,13,102,,113,113,9,11,9,16,0.6,0.8
2024-03-08T2000,2212A,123.2,41.1953,辽阳市,宏伟区,,43,35,60,30,29,60,,83,80,21,14,14,11,0.6,0.5
2024-03-08T2000,2213A,123.1683,41.2495,辽阳市,新华园,细颗粒物(PM2.5),57,44,66,40,34,63,,87,84,22,17,18,16,0.8,0.8
2024-03-08T2000,2214A,123.2354,41.2639,辽阳市,滨河路,细颗粒物(PM2.5),79,64,58,58,31,43,,80,75,34,10,9,8,0.8,0.5
2024-03-08T2000,2215A,123.149,41.2991,辽阳市,铁西工业园,细颗粒物(PM2.5),93,,61,69,28,39,,88,81,42,19,13,12,0.8,0.5
2024-03-08T2000,2227A,125.1358,42.8845,辽源市,环保局,,22,21,32,14,21,70,,81,80,15,17,9,12,0.5,0.7
2024-03-08T2000,3239A,125.0764,42.9078,辽源市,银鹰制药,,22,18,32,15,21,64,,79,78,15,18,6,10,0.5,0.5
2024-03-08T2000,1625A,115.9848,36.4372,聊城市,区政府,,38,38,32,13,7,57,,89,86,35,15,2,3,0.6,0.5
2024-03-08T2000,2878A,116.0072,36.4343,聊城市,聊大东校,,41,41,30,14,12,66,,96,93,37,15,5,5,0.5,0.4
2024-03-08T2000,3200A,115.9819,36.4978,聊城市,监控中心,颗粒物(PM10),51,52,45,12,8,44,,96,89,53,18,4,6,0.5,0.4
2024-03-08T2000,3513A,116.0445,36.4361,聊城市,九州社区,颗粒物(PM10),55,60,47,19,7,60,,92,88,35,15,5,6,0.5,0.5
2024-03-08T2000,4018A,116.0567,36.4608,聊城市,星美广场,颗粒物(PM10),69,87,50,38,10,54,,91,84,43,18,6,6,0.7,0.5
2024-03-08T2000,2632A,94.3681,29.6376,林芝市,林芝监测站,,35,12,10,7,7,109,,112,110,3,3,5,5,0.5,0.5
2024-03-08T2000,2633A,94.3616,29.6616,林芝市,林芝人民医院,,34,14,17,9,10,107,,108,101,6,6,5,5,0.5,0.5
2024-03-08T2000,2603A,100.0781,23.8982,临沧市,市环保局,,42,33,28,29,23,88,,99,98,14,12,6,10,0.4,0.4
2024-03-08T2000,2604A,100.0894,23.8822,临沧市,市气象局,,37,37,33,23,28,92,,98,97,11,13,4,9,0.4,0.4
2024-03-08T2000,1733A,111.5531,36.0783,临汾市,临钢医院,颗粒物(PM10),56,61,41,24,12,68,,93,92,30,24,7,8,0.7,0.6
2024-03-08T2000,1734A,111.5028,36.0714,临汾市,技工学校,颗粒物(PM10),61,72,46,39,16,79,,98,98,31,23,9,7,0.5,0.7
2024-03-08T2000,1736A,111.5018,36.0855,临汾市,市委,颗粒物(PM10),61,71,49,30,10,68,,99,97,38,23,6,5,0.6,0.4
2024-03-08T2000,3018A,111.505,36.1014,临汾市,唐尧大酒店,颗粒物(PM10),56,62,50,24,13,72,,97,95,34,22,8,7,0.5,0.4
2024-03-08T2000,3668A,111.5036,36.0414,临汾市,城南,颗粒物(PM10),54,57,39,33,16,75,,97,96,29,26,8,7,0.5,0.3
2024-03-08T2000,2667A,103.2069,35.5993,临夏回族自治州,环保局,颗粒物(PM10),99,148,172,40,62,86,,99,99,18,28,6,7,0.6,1.1
2024-03-08T2000,2668A,103.2417,35.6057,临夏回族自治州,建设大厦,颗粒物(PM10),103,156,148,47,53,70,,105,103,33,22,4,3,0.7,0.8
2024-03-08T2000,1618A,118.3429,35.0532,临沂市,沂河小区,,46,46,73,24,48,62,,84,81,30,32,6,7,0.7,0.7
2024-03-08T2000,1620A,118.2794,34.9976,临沂市,新光毛纺厂,颗粒物(PM10),63,75,85,27,45,50,,88,84,50,44,6,6,0.8,0.9
2024-03-08T2000,1621A,118.3956,35.0888,临沂市,河东保险公司,,,48,62,23,39,48,,83,79,,31,5,5,0.5,0.7
2024-03-08T2000,3370A,118.3564,35.0215,临沂市,十里堡居委,颗粒物(PM10),52,53,66,22,37,56,,87,84,33,33,4,5,0.6,0.7
2024-03-08T2000,3496A,118.3604,35.1084,临沂市,南坊新区,,44,44,67,19,40,65,,83,82,31,31,8,9,0.5,0.6
2024-03-08T2000,3860A,118.3920,35.0300,临沂市,皇山花园小区,颗粒物(PM10),69,88,65,30,40,45,,86,80,45,26,9,8,0.8,0.8
2024-03-08T2000,1870A,109.4856,24.3895,柳州市,柳东小学,细颗粒物(PM2.5),89,78,44,66,36,78,,97,95,31,18,15,9,0.7,0.6
2024-03-08T2000,1871A,109.4157,24.3277,柳州市,环保监测站,细颗粒物(PM2.5),64,70,45,46,34,73,,97,95,28,14,10,8,1.0,0.8
2024-03-08T2000,1872A,109.389,24.341,柳州市,河西水厂,细颗粒物(PM2.5),74,73,50,54,36,64,,97,94,35,13,11,9,1.0,0.8
2024-03-08T2000,1873A,109.4311,24.2921,柳州市,市四中,颗粒物(PM10),51,52,44,35,26,75,,98,96,31,15,8,7,1.0,0.7
2024-03-08T2000,1874A,109.4006,24.3631,柳州市,市九中,颗粒物(PM10),87,124,52,63,36,67,,90,88,37,17,14,8,0.9,0.6
2024-03-08T2000,1875A,109.4958,24.3134,柳州市,古亭山,,48,46,33,33,24,61,,98,92,24,14,7,7,0.9,0.8
2024-03-08T2000,3402A,109.5422,24.3996,柳州市,市二中,细颗粒物(PM2.5),70,59,38,51,28,78,,98,96,29,16,10,8,1.0,0.8
2024-03-08T2000,2307A,116.5079,31.737,六安市,监测大楼,颗粒物(PM10),66,81,102,43,52,101,,116,116,21,23,5,5,0.5,0.6
2024-03-08T2000,2308A,116.4738,31.7643,六安市,皖西学院,,,78,102,34,49,99,,116,116,,24,4,3,0.5,0.6
2024-03-08T2000,2309A,116.4996,31.7905,六安市,朝阳厂,颗粒物(PM10),65,79,97,43,56,94,,112,112,24,19,5,5,0.5,0.6
2024-03-08T2000,2310A,116.5567,31.7886,六安市,开发区,颗粒物(PM10),79,107,116,44,52,74,,109,107,40,30,4,4,0.5,0.6
2024-03-08T2000,2577A,104.83,26.5917,六盘水市,黄土坡,细颗粒物(PM2.5),74,64,27,54,22,57,,58,58,22,17,7,8,1.1,1
2024-03-08T2000,2578A,104.89,26.5939,六盘水市,水钢,细颗粒物(PM2.5),79,64,29,58,24,70,,69,69,14,12,6,6,1.1,0.9
2024-03-08T2000,2579A,104.8475,26.5894,六盘水市,民中,细颗粒物(PM2.5),73,54,25,53,20,62,,62,62,17,14,6,7,1.0,1
2024-03-08T2000,2580A,104.9544,26.5506,六盘水市,双水,细颗粒物(PM2.5),67,58,30,48,24,77,,78,78,15,13,6,6,0.7,0.7
2024-03-08T2000,2336A,117.0217,25.1033,龙岩市,龙岩市监测站,细颗粒物(PM2.5),62,53,27,44,20,78,,103,102,24,12,10,7,0.7,0.6
2024-03-08T2000,2337A,117.0258,25.0661,龙岩市,闽西职业技术学院,颗粒物(PM10),54,57,24,34,16,53,,105,101,40,10,7,6,0.7,0.6
2024-03-08T2000,2338A,117.0196,25.0306,龙岩市,龙岩学院,,49,49,25,27,15,67,,96,95,13,10,5,6,0.7,0.7
2024-03-08T2000,2885A,104.9339,33.3826,陇南市,滨江中学,颗粒物(PM10),72,94,102,29,30,80,,95,94,12,22,4,9,0.6,0.9
2024-03-08T2000,3247A,104.955,33.371,陇南市,市总工会,颗粒物(PM10),59,68,76,28,26,88,,98,96,11,14,4,6,0.6,0.6
2024-03-08T2000,2487A,111.9589,27.8901,娄底市,电视发射台,颗粒物(PM10),77,103,64,47,40,123,,121,121,15,12,6,5,0.6,0.5
2024-03-08T2000,2488A,111.9975,27.725,娄底市,市监测站,颗粒物(PM10),71,92,82,50,58,121,,126,126,25,32,4,7,0.6,0.9
2024-03-08T2000,2489A,112.0194,27.7314,娄底市,市委党校,颗粒物(PM10),69,87,78,45,57,111,,110,110,17,27,4,5,0.5,0.7
2024-03-08T2000,2490A,111.9561,27.7569,娄底市,涟钢,颗粒物(PM10),84,118,84,61,57,98,,105,105,34,27,10,8,1.3,1
2024-03-08T2000,2491A,111.9892,27.7044,娄底市,市政府,颗粒物(PM10),69,88,78,48,56,108,,112,112,19,22,6,5,0.6,0.7
2024-03-08T2000,1893A,105.4324,28.9634,泸州市,九狮山,细颗粒物(PM2.5),98,100,67,73,40,78,,91,91,23,22,9,6,0.3,0.2
2024-03-08T2000,1894A,105.4427,28.9063,泸州市,小市上码头,细颗粒物(PM2.5),92,95,66,68,49,62,,78,78,26,21,7,12,0.6,0.6
2024-03-08T2000,1895A,105.4241,28.8573,泸州市,兰田宪桥,细颗粒物(PM2.5),104,98,66,78,51,62,,73,73,32,22,6,6,0.7,0.6
2024-03-08T2000,1896A,105.4379,28.8833,泸州市,市环监站,细颗粒物(PM2.5),97,92,64,72,51,50,,74,74,45,26,7,9,0.7,0.5
2024-03-08T2000,3490A,105.3617,28.7703,泸州市,纳溪区环保局,细颗粒物(PM2.5),83,101,70,61,48,39,,54,53,44,30,3,3,0.8,0.7
2024-03-08T2000,2183A,111.1406,37.5211,吕梁市,环保局,颗粒物(PM10),128,206,54,31,13,7,,79,70,75,36,3,2,0.5,0.4
2024-03-08T2000,2185A,111.1297,37.5136,吕梁市,自来水公司,颗粒物(PM10),57,64,51,21,16,60,,78,76,28,30,5,8,0.5,0.4
2024-03-08T2000,2867A,111.1283,37.51,吕梁市,马茂庄小学,颗粒物(PM10),84,118,61,21,15,25,,80,74,59,38,8,3,0.6,0.5
2024-03-08T2000,1812A,112.3931,34.6516,洛阳市,市委党校,颗粒物(PM10),63,76,73,34,30,60,,78,78,42,41,10,12,0.6,0.6
2024-03-08T2000,1814A,112.4657,34.6871,洛阳市,豫西宾馆,颗粒物(PM10),76,102,76,34,27,50,,84,82,49,36,9,11,0.2,0.2
2024-03-08T2000,1815A,112.494,34.6886,洛阳市,河南林校,颗粒物(PM10),63,76,92,43,27,53,,84,80,40,42,7,9,0.3,0.3
2024-03-08T2000,1816A,112.3844,34.623,洛阳市,开发区管委会,颗粒物(PM10),67,83,68,43,27,71,,86,86,27,26,7,8,0.5,0.5
2024-03-08T2000,1817A,112.4267,34.6258,洛阳市,市委新办公区,颗粒物(PM10),67,84,75,34,29,58,,76,76,40,33,7,7,0.4,0.3
2024-03-08T2000,3340A,112.6005,34.6326,洛阳市,伊滨,颗粒物(PM10),66,82,70,35,23,60,,83,82,38,32,8,5,0.4,0.4
2024-03-08T2000,3341A,112.4951,34.6332,洛阳市,中移产业园,颗粒物(PM10),66,81,70,37,24,56,,81,80,38,31,10,8,0.4,0.4
2024-03-08T2000,3593A,112.5736,34.8993,洛阳市,吉利监测站,颗粒物(PM10),56,61,48,24,11,54,,87,84,43,30,9,7,0.5,0.3
2024-03-08T2000,3635A,112.3677,34.662,洛阳市,河科大西苑校区,颗粒物(PM10),67,83,82,31,35,64,,81,81,30,38,5,8,0.3,0.4
2024-03-08T2000,3636A,112.4388,34.6781,洛阳市,英才小学,颗粒物(PM10),61,71,67,28,25,56,,82,81,42,39,6,7,0.4,0.4
2024-03-08T2000,2399A,114.051,33.5699,漯河市,三五一五工厂,颗粒物(PM10),73,95,82,34,26,86,,100,100,29,23,9,10,0.3,0.3
2024-03-08T2000,2400A,114.0055,33.5698,漯河市,漯河大学,颗粒物(PM10),72,94,76,41,28,66,,99,97,47,22,7,7,0.4,0.3
2024-03-08T2000,2401A,114.0138,33.5828,漯河市,市水利局,颗粒物(PM10),71,92,86,31,28,93,,102,102,22,21,6,7,0.3,0.3
2024-03-08T2000,2402A,114.0261,33.5698,漯河市,市广电局,,,81,78,30,26,96,,104,104,17,18,,4,0.5,0.5
2024-03-08T2000,3478A,113.9749,33.5664,漯河市,市图书馆,颗粒物(PM10),65,79,72,29,24,91,,106,106,24,19,6,8,0.4,0.4
2024-03-08T2000,3479A,114.0967,33.5906,漯河市,召陵区卫健委,颗粒物(PM10),66,81,77,25,25,70,,101,99,37,25,4,5,0.4,0.3
2024-03-08T2000,1798A,118.5092,31.6837,马鞍山市,湖东路四小,颗粒物(PM10),63,75,96,33,48,92,,112,111,36,30,7,11,0.6,1
2024-03-08T2000,1799A,118.5024,31.6449,马鞍山市,开发区,颗粒物(PM10),58,66,83,33,56,104,,115,114,24,32,8,7,0.7,0.8
2024-03-08T2000,1800A,118.5228,31.7231,马鞍山市,慈湖,细颗粒物(PM2.5),72,90,98,52,75,41,,112,105,83,44,9,12,1.0,1.2
2024-03-08T2000,1802A,118.6245,31.7241,马鞍山市,濮塘,颗粒物(PM10),54,57,87,32,43,90,,107,107,17,16,4,5,0.5,0.6
2024-03-08T2000,3633A,118.4918,31.6809,马鞍山市,雨山,颗粒物(PM10),59,68,92,31,50,106,,115,115,30,32,16,19,0.3,0.9
2024-03-08T2000,1686A,111.0286,21.4688,茂名市,电白南海,,46,46,55,19,28,104,,,,19,19,8,9,0.6,1
2024-03-08T2000,1687A,110.9294,21.6533,茂名市,茂石化七小,细颗粒物(PM2.5),58,56,43,41,33,79,,76,76,27,19,8,8,0.8,0.8
2024-03-08T2000,1688A,110.9107,21.6687,茂名市,健康路,细颗粒物(PM2.5),58,46,39,41,34,79,,78,78,25,18,10,11,0.8,0.8
2024-03-08T2000,1689A,110.8592,21.6828,茂名市,高岭,颗粒物(PM10),65,80,56,39,45,66,,60,60,32,27,10,19,0.8,0.9
2024-03-08T2000,3450A,111.01,21.5165,茂名市,电白水东,,39,39,36,22,28,98,,83,83,19,16,8,8,0.6,0.8
2024-03-08T2000,2539A,104.0308,30.0478,眉山市,黑龙滩水库,颗粒物(PM10),67,83,70,45,35,81,,90,90,12,9,6,6,0.6,0.4
2024-03-08T2000,2540A,103.8416,30.0874,眉山市,气象局,细颗粒物(PM2.5),85,118,106,63,58,77,,87,87,24,42,10,9,0.7,0.7
2024-03-08T2000,3137A,103.8578,30.0744,眉山市,市委党校,细颗粒物(PM2.5),85,107,107,63,58,74,,83,83,30,41,11,10,0.5,0.5
2024-03-08T2000,3148A,103.8291,30.0564,眉山市,区人社局,细颗粒物(PM2.5),85,82,87,63,63,73,,85,85,36,41,13,13,0.6,0.6
2024-03-08T2000,1690A,116.1231,24.3284,梅州市,梅江月梅,,30,28,23,17,17,95,,101,101,9,11,11,10,0.6,0.6
2024-03-08T2000,1691A,116.0797,24.2719,梅州市,梅县新城,细颗粒物(PM2.5),103,,27,77,21,39,,101,96,56,15,7,6,1.3,0.7
2024-03-08T2000,1692A,116.1248,24.2654,梅州市,环境监控中心,细颗粒物(PM2.5),63,47,26,45,20,38,,94,90,62,20,6,6,0.9,0.7
2024-03-08T2000,3315A,116.1233,24.2991,梅州市,梅龙,,44,44,24,26,19,70,,101,101,30,13,8,8,0.9,0.7
2024-03-08T2000,1878A,104.7778,31.4741,绵阳市,富乐山,细颗粒物(PM2.5),77,74,76,56,45,69,,68,68,12,24,8,9,0.8,0.7
2024-03-08T2000,1879A,104.7563,31.4535,绵阳市,市人大,细颗粒物(PM2.5),78,93,100,57,52,57,,52,52,26,47,6,10,0.8,0.8
2024-03-08T2000,1880A,104.6697,31.4668,绵阳市,高新区自来水公司,细颗粒物(PM2.5),92,96,111,68,61,42,,52,52,40,53,8,10,0.8,0.7
2024-03-08T2000,1881A,104.7287,31.5075,绵阳市,三水厂,细颗粒物(PM2.5),79,78,103,58,54,54,,57,57,27,47,11,11,0.8,0.8
2024-03-08T2000,3491A,104.69,31.5322,绵阳市,西科大附属小学,细颗粒物(PM2.5),83,94,108,61,53,31,,52,52,53,51,7,8,0.9,0.7
2024-03-08T2000,3492A,104.5648,31.5343,绵阳市,安州区旅游局,细颗粒物(PM2.5),77,95,99,56,53,56,,56,56,28,36,10,9,0.8,0.7
2024-03-08T2000,1784A,129.61,44.561,牡丹江市,环保大楼,,42,29,38,29,29,79,,90,86,17,19,6,8,0.4,0.5
2024-03-08T2000,1785A,129.6115,44.5782,牡丹江市,文化广场,细颗粒物(PM2.5),55,39,46,39,36,76,,80,78,12,23,8,11,0.4,0.6
2024-03-08T2000,1786A,129.5904,44.5963,牡丹江市,第一医院,细颗粒物(PM2.5),52,,44,36,39,83,,85,85,7,18,10,12,0.4,0.6
2024-03-08T2000,1787A,129.6364,44.6075,牡丹江市,机车工厂,,31,31,44,19,30,85,,89,88,4,18,8,10,0.3,0.5
2024-03-08T2000,1788A,129.6386,44.5462,牡丹江市,第一中学,,25,21,28,17,25,80,,87,85,12,16,8,9,0.4,0.5
2024-03-08T2000,2531A,105.0703,29.61,内江市,市监测站,细颗粒物(PM2.5),92,103,78,68,62,69,,71,71,20,30,8,9,0.6,0.6
2024-03-08T2000,2532A,105.0717,29.5947,内江市,东兴区政府,细颗粒物(PM2.5),77,65,74,56,51,58,,67,67,26,26,10,10,0.5,0.5
2024-03-08T2000,2533A,105.0653,29.5817,内江市,内江二中,细颗粒物(PM2.5),84,64,71,62,61,68,,74,74,23,27,6,7,0.8,0.8
2024-03-08T2000,2534A,105.0406,29.5822,内江市,内江日报社,细颗粒物(PM2.5),70,81,68,51,51,68,,74,74,23,29,9,9,0.8,0.8
2024-03-08T2000,2628A,92.0657,31.4846,那曲市,那曲监测站,,29,17,33,6,22,92,,92,92,5,10,5,8,0.5,0.8
2024-03-08T2000,3128A,92.0506,31.4797,那曲市,那曲会议中心,,31,18,38,4,15,98,,96,96,2,10,6,7,0.3,0.6
2024-03-08T2000,1290A,115.8931,28.6843,南昌市,省外办,颗粒物(PM10),78,105,92,51,55,86,,107,107,30,35,5,6,0.6,0.9
2024-03-08T2000,1291A,115.8886,28.7003,南昌市,省林业公司,颗粒物(PM10),82,114,84,44,45,81,,112,111,43,40,6,6,0.6,0.7
2024-03-08T2000,1292A,115.8126,28.7442,南昌市,林科所,颗粒物(PM10),70,90,73,39,38,84,,122,119,41,44,8,8,0.6,0.7
2024-03-08T2000,1294A,115.8518,28.687,南昌市,建工学校,颗粒物(PM10),69,88,80,44,39,102,,115,115,26,39,6,5,0.5,0.8
2024-03-08T2000,1295A,115.8921,28.6424,南昌市,象湖,颗粒物(PM10),70,89,83,46,53,96,,124,124,36,41,6,6,0.6,0.8
2024-03-08T2000,1296A,115.7423,28.7996,南昌市,武术学校,,45,45,30,7,29,84,,123,118,9,5,9,7,0.3,0.3
2024-03-08T2000,1298A,115.9314,28.6842,南昌市,省站,颗粒物(PM10),83,115,99,59,58,87,,121,119,33,35,10,9,0.8,0.8
2024-03-08T2000,3046A,115.9084,28.6062,南昌市,机电学校,颗粒物(PM10),89,127,107,46,54,56,,111,106,67,50,9,10,0.6,0.7
2024-03-08T2000,3690A,115.9721,28.7031,南昌市,外国语学校,颗粒物(PM10),69,87,80,41,45,85,,124,121,36,32,4,4,0.6,0.6
2024-03-08T2000,1905A,106.056,30.8064,南充市,西山风景区,细颗粒物(PM2.5),67,66,84,48,66,33,,36,34,14,24,3,12,0.9,0.9
2024-03-08T2000,1906A,106.0789,30.8023,南充市,南充市委,细颗粒物(PM2.5),62,68,84,44,56,28,,35,32,26,32,5,15,0.8,0.8
2024-03-08T2000,1907A,106.1031,30.8217,南充市,南充炼油厂,细颗粒物(PM2.5),84,108,89,62,68,23,,31,30,26,29,4,10,0.6,0.5
2024-03-08T2000,1908A,106.1064,30.7856,南充市,高坪区监测站,细颗粒物(PM2.5),70,68,93,51,67,28,,30,26,23,31,4,17,0.4,0.5
2024-03-08T2000,1909A,106.0642,30.7636,南充市,嘉陵区环保局,细颗粒物(PM2.5),70,67,90,51,63,21,,32,27,29,30,5,20,0.8,0.8
2024-03-08T2000,1910A,106.1087,30.8388,南充市,市环境监测站,细颗粒物(PM2.5),68,68,83,49,60,22,,32,29,22,28,4,9,0.7,0.8
2024-03-08T2000,1151A,118.8086,32.1065,南京市,迈皋桥,颗粒物(PM10),57,64,97,31,54,59,,118,108,36,23,4,8,0.5,0.6
2024-03-08T2000,1152A,118.7538,32.0551,南京市,草场门,颗粒物(PM10),60,70,92,42,60,84,,110,107,36,26,2,3,0.4,0.6
2024-03-08T2000,1153A,118.7794,32.0745,南京市,山西路,颗粒物(PM10),60,70,98,39,58,85,,100,99,28,23,4,6,0.4,0.5
2024-03-08T2000,1154A,118.7752,32.0023,南京市,中华门,颗粒物(PM10),64,78,89,41,50,60,,110,103,64,26,7,7,0.5,0.5
2024-03-08T2000,1155A,118.8109,32.0309,南京市,瑞金路,颗粒物(PM10),65,80,99,36,53,69,,104,99,45,28,5,9,0.4,0.5
2024-03-08T2000,1156A,118.7997,32.0754,南京市,玄武湖,颗粒物(PM10),59,67,96,36,51,73,,110,103,49,42,8,12,0.3,0.5
2024-03-08T2000,1157A,118.6414,32.0931,南京市,浦口,颗粒物(PM10),60,70,99,29,48,96,,108,107,23,20,5,8,0.5,0.6
2024-03-08T2000,1158A,118.7356,31.9996,南京市,奥体中心,颗粒物(PM10),60,70,96,36,48,92,,114,112,28,23,7,9,0.5,0.6
2024-03-08T2000,1159A,118.9125,32.1028,南京市,仙林大学城,颗粒物(PM10),58,66,92,31,54,79,,110,107,38,30,6,7,0.5,0.7
2024-03-08T2000,3422A,118.8436,31.9198,南京市,江宁彩虹桥,颗粒物(PM10),59,67,96,34,46,88,,116,115,30,19,4,4,0.2,0.3
2024-03-08T2000,3423A,119.0138,31.6494,南京市,溧水永阳,细颗粒物(PM2.5),65,73,84,47,61,65,,108,104,38,25,4,4,0.6,0.7
2024-03-08T2000,3424A,118.879,31.3302,南京市,高淳老职中,颗粒物(PM10),64,78,88,40,54,87,,110,109,27,19,6,5,0.4,0.5
2024-03-08T2000,3427A,118.8554,32.3578,南京市,六合雄州,颗粒物(PM10),66,81,98,26,40,78,,112,109,27,20,5,5,0.5,0.6
2024-03-08T2000,1401A,108.3103,22.7881,南宁市,二十一中,细颗粒物(PM2.5),92,83,69,68,54,78,,85,85,25,23,6,9,0.9,0.9
2024-03-08T2000,1402A,108.3141,22.8528,南宁市,北湖,细颗粒物(PM2.5),72,72,71,52,51,75,,79,79,26,27,7,11,1.0,1
2024-03-08T2000,1403A,108.3206,22.8225,南宁市,市监测站,细颗粒物(PM2.5),74,72,68,54,53,71,,76,76,31,30,8,12,1.1,1
2024-03-08T2000,1404A,108.3829,22.8037,南宁市,大自然花园,细颗粒物(PM2.5),82,77,63,60,49,75,,80,80,25,24,6,10,0.9,0.9
2024-03-08T2000,1405A,108.4394,22.7904,南宁市,仙葫,细颗粒物(PM2.5),68,79,65,49,48,80,,84,83,28,23,9,12,0.8,0.8
2024-03-08T2000,1406A,108.2397,22.8467,南宁市,区农职院,细颗粒物(PM2.5),69,72,74,50,52,72,,76,76,32,34,8,13,0.9,1
2024-03-08T2000,1407A,108.3275,22.735,南宁市,英华嘉园,细颗粒物(PM2.5),87,85,61,64,48,68,,76,73,29,24,8,9,0.8,0.8
2024-03-08T2000,1408A,108.2257,22.7757,南宁市,沙井镇街道办,细颗粒物(PM2.5),80,92,74,59,50,58,,69,67,40,37,7,10,1.0,0.9
2024-03-08T2000,3401A,108.4834,22.7618,南宁市,红星社区,细颗粒物(PM2.5),103,91,67,77,54,71,,79,78,24,22,10,11,1.1,1
2024-03-08T2000,2332A,118.1681,26.6369,南平市,南平市监测站,颗粒物(PM10),56,62,32,29,17,56,,101,93,26,18,5,5,0.9,0.7
2024-03-08T2000,2333A,118.1825,26.6489,南平市,南平铝业有限公司,颗粒物(PM10),54,58,36,33,15,48,,97,88,30,18,8,6,0.8,0.8
2024-03-08T2000,2334A,118.1756,26.6272,南平市,南平七中,,42,42,33,24,17,73,,102,94,17,16,4,4,0.6,0.5
2024-03-08T2000,1168A,120.9098,31.9663,南通市,狼山街道,细颗粒物(PM2.5),85,77,78,63,65,91,,114,110,23,29,8,9,0.6,0.7
2024-03-08T2000,1169A,120.86,32.0005,南通市,虹桥,细颗粒物(PM2.5),98,93,84,73,70,84,,102,101,38,38,3,5,0.7,0.8
2024-03-08T2000,1170A,120.87,32.02,南通市,城中,细颗粒物(PM2.5),83,94,92,61,62,81,,104,102,41,36,4,5,0.7,0.8
2024-03-08T2000,1171A,120.94,31.93,南通市,星湖花园,细颗粒物(PM2.5),72,77,73,52,54,43,,98,82,83,46,6,6,0.5,0.6
2024-03-08T2000,1172A,120.81,32.0417,南通市,紫琅学院,细颗粒物(PM2.5),77,83,80,56,59,67,,112,107,52,36,7,8,0.8,0.8
2024-03-08T2000,3291A,121.067,32.062,南通市,通州监测站,细颗粒物(PM2.5),98,105,70,73,53,67,,110,104,43,17,6,7,0.8,0.6
2024-03-08T2000,3432A,120.9348,31.9883,南通市,环境教育馆,细颗粒物(PM2.5),90,90,76,67,62,78,,107,104,40,33,6,7,0.5,0.8
2024-03-08T2000,2404A,112.5224,33.0122,南阳市,瓦房庄,细颗粒物(PM2.5),80,93,94,59,34,91,,110,110,29,20,6,6,0.4,0.3
2024-03-08T2000,2405A,112.5003,32.9735,南阳市,汉画馆,颗粒物(PM10),86,122,105,39,38,62,,104,102,45,21,6,6,0.4,0.4
2024-03-08T2000,2406A,112.5573,33.027,南阳市,气象站,颗粒物(PM10),75,100,98,31,29,108,,113,113,24,26,4,5,0.2,0.4
2024-03-08T2000,2407A,112.5481,32.9689,南阳市,理工学院,颗粒物(PM10),75,99,95,39,32,100,,111,111,26,26,7,7,0.5,0.4
2024-03-08T2000,4008A,112.5234,32.9922,南阳市,卧龙区政府,颗粒物(PM10),84,117,103,31,31,41,,106,101,86,25,7,8,0.7,0.5
2024-03-08T2000,1234A,121.8358,29.911,宁波市,区环保大楼,细颗粒物(PM2.5),85,83,119,63,80,75,,117,112,59,49,8,7,0.8,0.9
2024-03-08T2000,1235A,121.56,29.82,宁波市,万里学院,颗粒物(PM10),67,83,100,47,57,96,,113,112,33,47,7,7,0.7,0.6
2024-03-08T2000,1236A,121.713,29.9572,宁波市,龙赛医院,"颗粒物(PM10),细颗粒物(PM2.5)",69,88,134,50,63,80,,119,115,62,55,6,7,0.7,0.8
2024-03-08T2000,1239A,121.633,29.7733,宁波市,钱湖水厂,细颗粒物(PM2.5),70,73,84,51,56,82,,118,114,41,29,6,6,0.7,0.7
2024-03-08T2000,1240A,121.5856,29.8635,宁波市,太古小学,细颗粒物(PM2.5),78,73,84,57,59,95,,115,113,30,42,7,8,0.6,0.7
2024-03-08T2000,1241A,121.524,29.8674,宁波市,市环境监测中心,细颗粒物(PM2.5),63,74,94,45,49,99,,119,117,35,47,6,7,0.6,0.7
2024-03-08T2000,2871A,121.6147,29.9017,宁波市,万里国际学校,细颗粒物(PM2.5),84,82,98,62,70,92,,120,118,44,53,9,9,0.8,0.9
2024-03-08T2000,3710A,121.5594,29.8975,宁波市,白沙活动中心,颗粒物(PM10),66,81,100,45,51,89,,116,113,38,46,7,8,0.7,0.7
2024-03-08T2000,2341A,119.5388,26.6612,宁德市,宁德市监测站,,50,50,61,35,44,134,,138,138,16,17,7,8,0.5,0.7
2024-03-08T2000,3209A,119.5231,26.6562,宁德市,宁德一中,颗粒物(PM10),84,118,76,34,39,125,,140,140,16,16,6,7,0.6,0.6
2024-03-08T2000,2618A,98.8601,25.8567,怒江傈僳族自治州,州监测站,,29,29,28,10,14,80,,92,92,4,10,6,7,0.3,0.4
2024-03-08T2000,2619A,98.8546,25.8417,怒江傈僳族自治州,泸水一中,,20,12,29,0,18,63,,85,84,14,19,6,6,0.4,0.4
2024-03-08T2000,1888A,101.6891,26.571,攀枝花市,弄弄坪,,44,44,42,19,19,61,,98,94,42,23,72,25,3.6,1.5
2024-03-08T2000,1889A,101.5769,26.5928,攀枝花市,河门口,,31,28,46,9,18,97,,103,103,6,18,6,22,0.3,0.6
2024-03-08T2000,1890A,101.7169,26.585,攀枝花市,炳草岗,,31,31,34,8,14,85,,104,103,19,24,16,17,0.8,0.6
2024-03-08T2000,1891A,101.7369,26.5008,攀枝花市,仁和,,33,29,28,9,13,103,,111,111,9,12,6,10,0.6,0.6
2024-03-08T2000,2835A,101.7227,26.567,攀枝花市,四十中小,,33,26,27,12,13,104,,112,112,9,14,6,10,0.6,0.7
2024-03-08T2000,1604A,122.0303,41.1489,盘锦市,开发区,,48,48,45,27,16,70,,89,84,21,15,5,9,0.4,0.4
2024-03-08T2000,1605A,122.0485,41.0883,盘锦市,兴隆台,细颗粒物(PM2.5),62,48,43,44,25,57,,84,80,29,14,18,8,0.6,0.5
2024-03-08T2000,1606A,121.8297,41.1028,盘锦市,新生街道,,38,,41,26,13,45,,84,72,20,27,6,6,0.5,0.4
2024-03-08T2000,1832A,113.3257,33.742,平顶山市,新华旅馆,颗粒物(PM10),71,92,84,25,26,101,,102,102,18,20,9,9,0.2,0.2
2024-03-08T2000,1833A,113.2919,33.737,平顶山市,规划设计院,颗粒物(PM10),68,86,75,44,28,84,,96,96,25,26,7,7,0.6,0.5
2024-03-08T2000,1834A,113.182,33.774,平顶山市,平顶山工学院,颗粒物(PM10),61,72,74,27,21,93,,100,100,13,17,12,7,0.4,0.4
2024-03-08T2000,3204A,113.3025,33.73,平顶山市,规划局,颗粒物(PM10),81,112,90,42,30,83,,99,99,24,23,9,9,0.2,0.2
2024-03-08T2000,3594A,112.8867,33.9116,平顶山市,石龙区,颗粒物(PM10),76,101,115,35,25,80,,98,97,26,39,12,8,0.3,0.3
2024-03-08T2000,2656A,106.6692,35.5461,平凉市,聚贤嘉苑,颗粒物(PM10),64,77,78,27,21,82,,96,95,19,27,6,7,0.4,0.5
2024-03-08T2000,2657A,106.7021,35.5307,平凉市,博物馆,颗粒物(PM10),72,93,88,34,28,77,,98,96,34,33,9,13,0.4,0.5
2024-03-08T2000,2347A,114.0997,27.5002,萍乡市,武功山,颗粒物(PM10),61,72,38,31,22,85,,113,113,14,10,3,4,0.8,0.6
2024-03-08T2000,2348A,113.8385,27.6434,萍乡市,中医院,颗粒物(PM10),74,98,68,39,39,108,,118,118,20,26,6,6,0.5,0.7
2024-03-08T2000,2349A,113.8493,27.6253,萍乡市,市政府车库,颗粒物(PM10),77,103,62,43,41,106,,114,114,19,20,7,8,0.7,1.1
2024-03-08T2000,2350A,113.8676,27.6435,萍乡市,市环保局,颗粒物(PM10),65,79,65,32,40,97,,108,108,26,24,7,9,0.6,0.7
2024-03-08T2000,2351A,113.866,27.6198,萍乡市,安源区政府,"颗粒物(PM10),细颗粒物(PM2.5)",64,78,63,46,39,104,,112,112,23,19,8,10,1.8,1
2024-03-08T2000,2319A,119.0141,25.4325,莆田市,荔城区仓后路,颗粒物(PM10),56,62,68,26,44,120,,135,134,15,20,5,5,0.8,0.7
2024-03-08T2000,2320A,119.0015,25.4553,莆田市,莆田市监测站,颗粒物(PM10),56,62,64,29,43,122,,138,137,20,20,7,6,0.7,0.7
2024-03-08T2000,2321A,119.1119,25.4561,莆田市,涵江区六中,颗粒物(PM10),61,71,67,23,40,123,,139,137,18,20,7,7,0.8,0.7
2024-03-08T2000,2322A,119.1013,25.3215,莆田市,秀屿区政府,颗粒物(PM10),55,59,60,23,40,103,,130,126,22,24,6,9,0.6,0.8
2024-03-08T2000,2392A,115.0312,35.7636,濮阳市,环保局,,37,37,46,15,10,68,,86,85,28,19,5,5,0.3,0.2
2024-03-08T2000,2394A,115.0574,35.7609,濮阳市,油田运输公司,颗粒物(PM10),52,53,50,14,11,80,,93,92,21,16,9,8,0.3,0.2
2024-03-08T2000,2395A,115.0866,35.7754,濮阳市,油田物探公司,,,,49,26,11,,,91,91,29,20,6,6,0.2,0.2
2024-03-08T2000,3021A,115,35.7668,濮阳市,濮水河管理处,颗粒物(PM10),61,72,49,24,13,31,,85,79,53,20,7,7,0.4,0.2
2024-03-08T2000,2601A,100.98,22.7633,普洱市,市环保局,细颗粒物(PM2.5),68,73,71,49,54,145,,151,151,17,17,10,8,0.6,0.6
2024-03-08T2000,2602A,100.9817,22.8322,普洱市,普洱第二中学,,,,62,74,47,139,,153,153,23,35,4,5,,1
2024-03-08T2000,2262A,131.0518,45.8751,七台河市,新一中,,31,22,27,18,20,97,,108,98,8,11,10,12,0.8,0.8
2024-03-08T2000,3345A,131.0577,45.7879,七台河市,中波台,,40,31,31,28,24,53,,97,85,49,21,12,8,1.0,0.6
2024-03-08T2000,3637A,131.0176,45.7761,七台河市,人民广场,细颗粒物(PM2.5),58,52,42,41,33,48,,97,75,51,26,11,10,1.0,0.8
2024-03-08T2000,3684A,130.8781,45.8222,七台河市,新建矿广场,细颗粒物(PM2.5),58,,35,41,35,78,,98,90,24,26,12,17,0.7,0.7
2024-03-08T2000,1779A,123.9305,47.3636,齐齐哈尔市,安居小区,颗粒物(PM10),57,63,24,32,14,49,,81,73,36,13,6,5,0.9,0.7
2024-03-08T2000,1780A,123.9488,47.3386,齐齐哈尔市,中心广场,,47,47,23,23,17,50,,72,67,28,11,9,5,0.4,0.2
2024-03-08T2000,1781A,123.9483,47.3227,齐齐哈尔市,农牧车辆厂,,36,36,22,20,10,54,,75,68,22,10,10,8,0.5,0.3
2024-03-08T2000,1783A,123.945,47.2988,齐齐哈尔市,市环境监测站,,42,42,24,16,10,59,,77,73,20,9,7,4,0.5,0.4
2024-03-08T2000,3662A,123.6333,47.2075,齐齐哈尔市,富区青少年活动中心,,39,39,31,17,13,67,,77,75,10,10,7,7,0.5,0.5
2024-03-08T2000,2591A,107.9783,26.5747,黔东南苗族侗族自治州,市环境监测站,,45,42,49,31,40,64,,98,77,28,22,7,7,0.8,0.9
2024-03-08T2000,2881A,107.8908,26.5311,黔东南苗族侗族自治州,凯里学院,,46,45,47,32,36,56,,100,89,34,16,5,9,0.9,0.9
2024-03-08T2000,2593A,107.5228,26.2403,黔南布依族苗族自治州,小围寨,,39,31,38,27,31,82,,91,90,8,11,6,6,0.6,0.6
2024-03-08T2000,3538A,107.5175,26.2978,黔南布依族苗族自治州,沙坝,,41,41,45,22,32,82,,113,96,11,11,4,6,0.5,0.6
2024-03-08T2000,2589A,104.9022,25.0925,黔西南布依族苗族自治州,场坝街,,,80,64,58,51,,,70,68,,15,2,2,0.8,0.6
2024-03-08T2000,2590A,104.8811,25.0992,黔西南布依族苗族自治州,坪东大道,细颗粒物(PM2.5),75,72,71,55,55,73,,66,66,14,14,4,3,0.7,0.7
2024-03-08T2000,2502A,108.6236,21.9667,钦州市,市环保站,颗粒物(PM10),87,124,98,63,61,31,,63,54,47,27,8,9,1.2,1.1
2024-03-08T2000,2503A,108.6549,21.9481,钦州市,沙埠小学,细颗粒物(PM2.5),84,115,94,62,61,51,,62,56,27,26,6,8,1.1,1
2024-03-08T2000,2504A,108.5989,21.7431,钦州市,港区一小,颗粒物(PM10),79,108,104,53,55,12,,51,32,62,42,6,8,1.1,1
2024-03-08T2000,3404A,108.5959,21.9633,钦州市,北职校,细颗粒物(PM2.5),97,105,86,72,66,42,,63,57,29,24,12,11,1.6,1.1
2024-03-08T2000,1042A,119.5134,39.8207,秦皇岛市,北戴河环保局,,30,30,49,16,29,73,,82,80,24,37,6,8,0.1,0.5
2024-03-08T2000,1043A,119.7493,40.0116,秦皇岛市,第一关,,42,,49,29,33,79,,86,83,14,43,7,9,0.3,0.4
2024-03-08T2000,1044A,119.5897,39.9499,秦皇岛市,监测站,,38,31,49,26,27,67,,85,80,27,30,8,7,0.3,0.5
2024-03-08T2000,1046A,119.5251,39.9041,秦皇岛市,建设大厦,,32,28,45,22,31,75,,88,84,18,36,2,4,0.2,0.4
2024-03-08T2000,3132A,119.610547,39.943889,秦皇岛市,文明里,颗粒物(PM10),52,53,57,23,25,65,,85,80,35,32,6,6,0.4,0.5
2024-03-08T2000,1307A,120.6659,36.2403,青岛市,仰口,,44,44,92,24,72,88,,84,84,11,22,5,3,0.2,0.4
2024-03-08T2000,1310A,120.4134,36.0658,青岛市,市南区东部子站,颗粒物(PM10),57,63,108,22,77,68,,78,78,31,31,7,8,0.7,0.9
2024-03-08T2000,1311A,120.3664,36.1032,青岛市,四方区子站,颗粒物(PM10),57,63,106,22,87,79,,81,81,29,35,6,5,0.7,0.9
2024-03-08T2000,1312A,120.2994,36.054,青岛市,市南区西部子站,颗粒物(PM10),56,61,96,17,71,81,,82,82,22,37,7,7,0.7,1
2024-03-08T2000,1313A,120.4581,36.0858,青岛市,崂山区子站,颗粒物(PM10),60,70,110,27,76,70,,78,78,31,31,8,6,0.7,0.9
2024-03-08T2000,1314A,120.1983,35.9608,青岛市,黄岛区子站,颗粒物(PM10),60,70,102,22,72,50,,66,65,58,42,10,7,0.8,1.1
2024-03-08T2000,1315A,120.3999,36.3083,青岛市,城阳区子站,颗粒物(PM10),67,83,110,32,63,54,,75,75,44,32,14,8,0.9,1
2024-03-08T2000,1966A,120.0405,35.8735,青岛市,黄岛区4号,颗粒物(PM10),59,68,83,24,59,88,,96,96,26,34,8,8,0.8,1.1
2024-03-08T2000,3362A,120.5014,36.4034,青岛市,即墨2号,,,59,115,17,85,,,72,,29,35,11,6,0.7,1
2024-03-08T2000,3642A,120.3503,36.0736,青岛市,市北区南部,颗粒物(PM10),64,78,111,27,74,67,,74,74,46,43,12,6,0.7,1
2024-03-08T2000,3643A,120.3948,36.1805,青岛市,李沧区北部,颗粒物(PM10),71,92,114,39,92,56,,80,80,56,43,11,8,0.9,1.1
2024-03-08T2000,1702A,113.0426,23.691,清远市,环保大楼,颗粒物(PM10),52,54,33,30,19,74,,95,94,28,11,5,5,1.1,1
2024-03-08T2000,1703A,113.0208,23.7106,清远市,凤城街办,颗粒物(PM10),63,75,42,41,27,50,,109,103,59,17,5,5,1.2,0.7
2024-03-08T2000,3025A,113.0477,23.6344,清远市,技师学院,颗粒物(PM10),55,59,34,34,22,73,,109,107,43,15,8,8,0.7,0.6
2024-03-08T2000,3318A,112.9903,23.7403,清远市,清新太和,,37,37,36,21,25,94,,109,108,17,13,6,6,0.6,0.6
2024-03-08T2000,3455A,113.076,23.7198,清远市,清城东城,,42,41,37,29,25,84,,105,104,17,14,6,6,0.6,0.8
2024-03-08T2000,2661A,107.6325,35.7357,庆阳市,庆阳五中,颗粒物(PM10),68,85,80,30,25,62,,79,76,30,13,15,11,0.5,0.5
2024-03-08T2000,2662A,107.6364,35.7067,庆阳市,市环保局,颗粒物(PM10),67,84,68,32,20,77,,90,88,18,8,6,6,0.3,0.3
2024-03-08T2000,1916A,103.7897,25.5035,曲靖市,环境监测站,颗粒物(PM10),60,70,47,33,28,68,,90,87,18,12,6,4,0.8,0.8
2024-03-08T2000,1917A,103.8,25.5364,曲靖市,烟厂办公区,,49,49,45,34,27,76,,92,92,16,12,4,4,0.8,0.7
2024-03-08T2000,3376A,103.7947,25.462,曲靖市,南苑二区,颗粒物(PM10),54,57,50,32,30,67,,84,84,18,15,12,8,1.0,0.9
2024-03-08T2000,3377A,103.7444,25.5261,曲靖市,曲靖师范学院,颗粒物(PM10),59,67,49,38,37,71,,88,88,18,15,9,7,0.9,0.8
2024-03-08T2000,1264A,118.8692,28.9398,衢州市,环保大楼,颗粒物(PM10),66,81,55,39,31,74,,115,112,36,22,6,6,0.6,0.6
2024-03-08T2000,1265A,118.8709,28.9666,衢州市,实验学校,颗粒物(PM10),59,67,47,35,28,83,,121,117,32,26,9,6,0.8,0.7
2024-03-08T2000,1266A,118.8621,28.9808,衢州市,衢州学院,颗粒物(PM10),62,73,51,32,28,59,,116,110,48,30,6,5,0.5,0.5
2024-03-08T2000,1611A,118.5819,24.9117,泉州市,涂山街,颗粒物(PM10),61,71,65,22,41,120,,148,145,18,21,3,5,0.4,0.6
2024-03-08T2000,1612A,118.5972,24.8978,泉州市,津头埔,颗粒物(PM10),59,67,60,20,38,107,,134,131,24,26,4,6,0.5,0.7
2024-03-08T2000,1613A,118.6663,24.9424,泉州市,万安,颗粒物(PM10),62,74,66,18,36,120,,146,143,18,22,3,4,0.6,0.7
2024-03-08T2000,3529A,118.6333,24.9264,泉州市,城华南路,,47,47,66,19,37,112,,144,140,24,24,4,6,0.5,0.7
