timepoint,stationcode,longitude,latitude,area,positionname,primarypollutant,aqi,pm10,pm10_24h,pm2_5,pm2_5_24h,o3,o3_24h,o3_8h,o3_8h_24h,no2,no2_24h,so2,so2_24h,co,co_24h
2024-03-08T2100,2566A,102.1879,31.914,阿坝藏族羌族自治州,州农科所,,,,,9,9,18,,29,28,14,7,8,8,1.6,1.5
2024-03-08T2100,2568A,102.2502,31.8896,阿坝藏族羌族自治州,马师校,,18,18,12,11,10,54,,89,84,24,8,4,4,0.6,0.5
2024-03-08T2100,3994A,102.2165,31.9024,阿坝藏族羌族自治州,马尔康中学西区,,24,24,10,12,7,61,,92,87,18,6,4,4,0.6,0.5
2024-03-08T2100,2695A,80.292,41.1694,阿克苏地区,电视台,颗粒物(PM10),156,261,250,49,63,86,,95,95,20,32,6,7,1.0,1.4
2024-03-08T2100,2696A,80.2613,41.1551,阿克苏地区,艺术中心,颗粒物(PM10),154,257,239,46,62,82,,95,95,23,35,7,9,1.1,1.6
2024-03-08T2100,2204A,105.6467,38.8363,阿拉善盟,西城区西花园,颗粒物(PM10),69,87,64,33,19,85,,100,98,16,13,11,9,0.8,0.7
2024-03-08T2100,2205A,105.6985,38.8411,阿拉善盟,蒙二幼,颗粒物(PM10),73,95,82,33,23,87,,94,93,14,13,10,6,0.6,0.5
2024-03-08T2100,2206A,105.724,38.8516,阿拉善盟,环保局新楼,颗粒物(PM10),63,76,73,21,22,93,,94,94,12,9,9,6,0.6,0.5
2024-03-08T2100,2708A,88.1264,47.8517,阿勒泰地区,市站,,25,21,26,7,9,78,,93,86,27,16,5,7,0.2,0.4
2024-03-08T2100,2630A,80.1161,32.5,阿里地区,阿里监测站,,31,4,12,1,5,98,,98,98,2,9,8,15,0.3,0.4
2024-03-08T2100,3192A,80.0903,32.5028,阿里地区,阿里藏医院,,32,7,11,3,5,101,,101,101,2,4,8,10,0.4,0.5
2024-03-08T2100,2642A,109.0318,32.6537,安康市,香溪洞,颗粒物(PM10),62,74,74,27,23,88,,98,97,16,14,7,8,0.5,0.5
2024-03-08T2100,2643A,109.0281,32.6939,安康市,安康市监测站,颗粒物(PM10),78,106,83,38,29,50,,92,87,42,22,9,9,0.8,0.6
2024-03-08T2100,2644A,109.0072,32.6975,安康市,汉滨区检察院,颗粒物(PM10),73,95,71,36,27,55,,93,88,37,18,9,8,0.6,0.5
2024-03-08T2100,2291A,117.0809,30.5177,安庆市,环科院,颗粒物(PM10),66,82,85,37,49,100,,116,115,26,40,6,7,0.6,0.8
2024-03-08T2100,2292A,117.0331,30.5119,安庆市,马山宾馆,颗粒物(PM10),67,83,91,38,52,98,,120,118,30,42,6,8,0.5,0.7
2024-03-08T2100,2294A,116.9896,30.6145,安庆市,安庆大学,颗粒物(PM10),66,81,92,34,51,115,,120,119,18,31,9,9,0.5,0.9
2024-03-08T2100,3173A,117.0598,30.5351,安庆市,市人大,颗粒物(PM10),71,92,96,39,52,77,,116,111,40,39,4,6,0.6,0.8
2024-03-08T2100,3123A,105.9408,26.2431,安顺市,凤凰山,细颗粒物(PM2.5),72,69,63,52,47,80,,84,84,17,14,23,19,0.8,0.7
2024-03-08T2100,3124A,105.9439,26.2564,安顺市,金钟山,细颗粒物(PM2.5),72,74,64,52,49,81,,83,82,16,14,20,17,0.7,0.7
2024-03-08T2100,3125A,105.8983,26.2481,安顺市,娄家坡,细颗粒物(PM2.5),73,77,66,53,48,83,,82,82,11,12,14,15,0.8,0.8
2024-03-08T2100,1819A,114.3551,36.1017,安阳市,红庙街,颗粒物(PM10),58,65,45,28,16,63,,86,82,24,16,3,4,0.4,1
2024-03-08T2100,1820A,114.361,36.0681,安阳市,银杏小区,颗粒物(PM10),55,59,46,30,16,57,,84,80,28,15,7,6,0.8,0.7
2024-03-08T2100,3141A,114.3922,36.0878,安阳市,信访局,细颗粒物(PM2.5),62,57,46,44,16,64,,83,79,20,16,6,5,0.4,0.4
2024-03-08T2100,3669A,114.4705,36.0637,安阳市,左辅环卫站,颗粒物(PM10),60,70,46,40,17,53,,84,77,26,20,5,4,0.4,0.4
2024-03-08T2100,3703A,114.2917,36.0949,安阳市,安钢职工学校,颗粒物(PM10),54,57,56,28,17,55,,84,79,31,20,8,8,0.4,0.4
2024-03-08T2100,1748A,123.044,41.1196,鞍山市,深沟寺,细颗粒物(PM2.5),74,93,65,54,30,54,,93,83,30,16,6,12,0.5,0.5
2024-03-08T2100,1749A,123.011,41.0931,鞍山市,太阳城,颗粒物(PM10),63,75,73,39,30,65,,96,90,23,24,10,27,0.6,1.4
2024-03-08T2100,1750A,123.0485,41.1442,鞍山市,太平,颗粒物(PM10),94,138,83,68,35,52,,92,81,35,19,8,8,0.8,0.6
2024-03-08T2100,1751A,122.9642,41.0971,鞍山市,铁西三道街,颗粒物(PM10),65,79,82,39,35,69,,94,83,22,23,7,18,0.5,0.8
2024-03-08T2100,1752A,122.9341,41.0833,鞍山市,铁西工业园区,颗粒物(PM10),63,76,87,39,42,60,,92,82,33,27,16,11,1.1,0.6
2024-03-08T2100,1753A,123.022,41.0821,鞍山市,明达新区,颗粒物(PM10),59,67,70,34,31,61,,92,86,27,24,11,24,0.5,1.2
2024-03-08T2100,2195A,107.4212,40.761,巴彦淖尔市,附二中,颗粒物(PM10),96,142,58,67,24,15,,87,75,90,20,17,18,0.9,0.4
2024-03-08T2100,2196A,107.37,40.7372,巴彦淖尔市,市环保大楼,颗粒物(PM10),103,156,53,58,24,12,,88,77,72,15,7,4,1.1,0.4
2024-03-08T2100,1956A,86.1472,41.7538,巴音郭楞蒙古自治州,孔雀公园,颗粒物(PM10),179,307,319,77,72,47,,84,81,44,43,5,6,0.6,0.6
2024-03-08T2100,1957A,86.1972,41.7166,巴音郭楞蒙古自治州,棉纺厂,,,,417,,79,68,,85,85,,29,3,4,,0.5
2024-03-08T2100,1958A,86.2357,41.7173,巴音郭楞蒙古自治州,经济开发区,颗粒物(PM10),236,375,384,83,80,66,,85,84,28,22,5,6,0.4,0.4
2024-03-08T2100,2914A,106.7677,31.8794,巴中市,苏山坪,,42,40,37,29,26,60,,64,55,7,10,3,4,0.5,0.5
2024-03-08T2100,3182A,106.7656,31.8545,巴中市,丽阳花园,细颗粒物(PM2.5),67,68,54,48,34,12,,23,23,37,42,4,5,0.8,0.8
2024-03-08T2100,3183A,106.7418,31.8654,巴中市,圣泉水务公司,细颗粒物(PM2.5),62,59,52,44,32,15,,12,12,36,48,5,5,0.7,0.7
2024-03-08T2100,3616A,106.7616,31.8344,巴中市,市中心医院,细颗粒物(PM2.5),59,60,56,42,36,11,,18,18,37,39,5,5,0.9,0.8
2024-03-08T2100,2235A,122.7911,45.6077,白城市,洮北区环保局,颗粒物(PM10),59,68,33,35,18,61,,86,79,24,12,8,8,0.5,0.3
2024-03-08T2100,2236A,122.8738,45.5725,白城市,市环保局,颗粒物(PM10),65,79,40,29,16,12,,87,63,64,17,8,5,0.6,0.4
2024-03-08T2100,2231A,126.4219,41.9171,白山市,喜丰,,43,43,51,20,20,71,,82,80,13,16,4,13,0.8,0.8
2024-03-08T2100,2232A,126.4077,41.9419,白山市,环保局,颗粒物(PM10),54,57,60,15,22,64,,81,78,11,8,8,10,0.7,0.7
2024-03-08T2100,2647A,104.1724,36.5446,白银市,第三小学,颗粒物(PM10),86,121,153,29,32,80,,99,98,24,24,38,84,0.7,0.9
2024-03-08T2100,2648A,104.1465,36.5482,白银市,动力公司,颗粒物(PM10),76,102,157,44,43,73,,104,100,32,33,25,48,0.7,1
2024-03-08T2100,2512A,106.6103,23.9011,百色市,市监测站,颗粒物(PM10),75,99,74,50,42,83,,86,86,22,24,24,15,0.9,0.8
2024-03-08T2100,2513A,106.6538,23.8859,百色市,市中心血站,"颗粒物(PM10),细颗粒物(PM2.5)",67,83,66,48,49,77,,86,86,23,22,42,13,1.0,0.8
2024-03-08T2100,3406A,106.6085,23.8798,百色市,祈福高中,颗粒物(PM10),66,81,79,46,51,80,,89,88,19,29,14,14,1.0,1
2024-03-08T2100,2270A,117.396,32.939,蚌埠市,工人疗养院,颗粒物(PM10),53,55,100,23,56,83,,98,94,19,27,6,8,0.4,0.6
2024-03-08T2100,2271A,117.3605,32.9427,蚌埠市,百货大楼,颗粒物(PM10),53,55,110,23,62,81,,101,96,20,29,4,6,0.4,0.6
2024-03-08T2100,2273A,117.4185,32.8911,蚌埠市,蚌埠学院,,46,46,103,20,57,85,,101,96,18,26,5,5,0.3,0.5
2024-03-08T2100,2274A,117.3533,32.9673,蚌埠市,淮上区政府,颗粒物(PM10),53,56,113,30,66,77,,102,93,20,27,6,8,0.4,0.6
2024-03-08T2100,2275A,117.3145,32.8977,蚌埠市,高新区,颗粒物(PM10),60,70,105,32,64,51,,102,88,45,43,9,6,0.4,0.6
2024-03-08T2100,3715A,117.3092,32.9314,蚌埠市,蚌埠田家炳中学,颗粒物(PM10),77,104,126,36,64,35,,101,80,63,45,6,9,0.5,0.6
2024-03-08T2100,1585A,109.8756,40.6532,包头市,市环境监测站,颗粒物(PM10),58,65,41,22,16,11,,79,60,80,42,16,14,1.2,0.9
2024-03-08T2100,1587A,109.9991,40.5842,包头市,包头八中,颗粒物(PM10),62,73,55,31,25,17,,78,64,73,42,20,17,0.9,1
2024-03-08T2100,1588A,109.8538,40.6821,包头市,青山宾馆,"颗粒物(PM10),细颗粒物(PM2.5)",62,74,38,44,17,7,,78,61,88,41,15,16,2.2,0.8
2024-03-08T2100,1589A,109.8642,40.6288,包头市,惠龙物流,颗粒物(PM10),54,58,44,34,18,18,,79,64,74,45,17,15,0.9,0.7
2024-03-08T2100,1590A,110.0377,40.5546,包头市,东河鸿龙湾,颗粒物(PM10),62,74,48,37,20,10,,74,58,80,42,13,9,1.0,0.8
2024-03-08T2100,3283A,109.9154,40.5685,包头市,滨河大厦,颗粒物(PM10),64,78,44,29,17,33,,80,67,48,41,11,13,0.6,0.7
2024-03-08T2100,3419A,109.9447,40.6261,包头市,包头市委党校,颗粒物(PM10),57,64,43,29,19,8,,80,63,81,46,20,21,0.8,0.7
2024-03-08T2100,3683A,109.8331,40.6576,包头市,昆区政府,,47,47,33,25,16,36,,76,64,54,32,13,16,0.7,0.7
2024-03-08T2100,1930A,107.185,34.3063,宝鸡市,庙沟村,颗粒物(PM10),63,75,118,37,40,32,,60,53,40,24,9,9,0.8,0.8
2024-03-08T2100,1931A,107.0708,34.3017,宝鸡市,竹园沟,细颗粒物(PM2.5),77,90,115,56,42,37,,76,71,44,28,6,6,0.4,0.4
2024-03-08T2100,1932A,107.1906,34.3672,宝鸡市,三陆医院,细颗粒物(PM2.5),100,99,119,75,50,22,,74,64,75,45,7,16,0.7,0.6
2024-03-08T2100,1933A,107.1431,34.3547,宝鸡市,监测站,颗粒物(PM10),93,135,123,68,43,20,,68,56,56,35,5,5,0.8,0.6
2024-03-08T2100,1934A,107.1186,34.3739,宝鸡市,技工学校,颗粒物(PM10),81,112,126,48,44,34,,74,66,57,33,9,10,0.7,0.5
2024-03-08T2100,1935A,107.3906,34.3528,宝鸡市,陈仓区环保局家属楼,细颗粒物(PM2.5),142,123,123,108,45,20,,82,72,87,49,9,10,0.8,0.6
2024-03-08T2100,1936A,107.2058,34.3497,宝鸡市,文理学院,细颗粒物(PM2.5),89,113,128,66,46,10,,73,60,76,38,7,10,0.7,0.5
2024-03-08T2100,1937A,107.2386,34.3622,宝鸡市,三迪小学,细颗粒物(PM2.5),92,116,138,68,45,26,,74,65,82,47,9,12,0.7,0.6
2024-03-08T2100,1051A,115.493,38.8632,保定市,游泳馆,颗粒物(PM10),68,86,41,30,14,23,,85,73,60,25,4,3,0.3,0.1
2024-03-08T2100,1052A,115.5213,38.8959,保定市,华电二区,颗粒物(PM10),52,53,35,21,15,38,,80,74,44,28,4,3,0.3,0.1
2024-03-08T2100,1053A,115.4713,38.9108,保定市,接待中心,,47,47,39,14,9,57,,82,78,26,17,2,2,0.1,0.1
2024-03-08T2100,1054A,115.4612,38.8416,保定市,地表水厂,颗粒物(PM10),77,104,64,40,15,25,,84,73,66,28,5,3,0.6,0.5
2024-03-08T2100,3581A,115.31981,38.95208,保定市,满城区生态环境分局,颗粒物(PM10),74,97,47,44,13,25,,80,70,52,22,4,3,0.6,0.3
2024-03-08T2100,3582A,115.47694,38.76408,保定市,清苑区第二中学,颗粒物(PM10),105,160,51,61,13,28,,86,74,56,23,9,7,0.6,0.3
2024-03-08T2100,3583A,115.62909,39.02311,保定市,徐水物探局,颗粒物(PM10),56,61,48,22,12,60,,80,76,25,25,5,3,0.4,0.3
2024-03-08T2100,4004A,115.4202,38.8656,保定市,双鹰农机,颗粒物(PM10),65,79,45,31,18,48,,85,78,38,22,5,5,0.5,0.3
2024-03-08T2100,4034A,115.5150,38.8590,保定市,植保所站,颗粒物(PM10),65,79,45,42,20,37,,85,76,47,23,5,3,0,0
2024-03-08T2100,2594A,99.1678,25.1081,保山市,市环境监测站,,41,41,32,12,16,75,,93,86,8,8,6,7,0.2,0.3
2024-03-08T2100,2595A,99.1711,25.1328,保山市,市环保局,,27,27,37,16,20,81,,94,89,3,7,6,7,0.4,0.4
2024-03-08T2100,1867A,109.1436,21.4086,北海市,海滩公园,细颗粒物(PM2.5),104,93,65,78,54,32,,48,46,22,18,12,11,0.8,0.7
2024-03-08T2100,1868A,109.0981,21.4661,北海市,新市环保局,细颗粒物(PM2.5),94,,58,70,54,38,,55,52,21,17,8,9,0.8,0.7
2024-03-08T2100,1869A,109.1778,21.5233,北海市,北海工业园,细颗粒物(PM2.5),95,,65,71,56,36,,51,49,19,18,9,10,0.9,0.9
2024-03-08T2100,3400A,109.1911,21.4415,北海市,龙潭自来水厂,细颗粒物(PM2.5),123,95,58,93,55,24,,49,45,20,14,11,10,1.0,0.8
2024-03-08T2100,1001A,116.3621,39.8784,北京市,万寿西宫,,34,34,16,15,7,58,,72,70,27,20,3,2,0.2,0.2
2024-03-08T2100,1002A,116.2202,40.2915,北京市,定陵,,29,29,19,15,9,53,,78,71,12,8,3,2,0.2,0.2
2024-03-08T2100,1003A,116.4174,39.9289,北京市,东四,,37,37,22,14,9,58,,70,69,23,17,2,2,0.1,0.1
2024-03-08T2100,1004A,116.4072,39.8863,北京市,天坛,,31,31,17,13,6,59,,78,75,23,16,1,2,0.3,0.2
2024-03-08T2100,1005A,116.462,39.9365,北京市,农展馆,,35,35,14,13,5,59,,77,74,27,16,3,3,0.3,0.2
2024-03-08T2100,1006A,116.3392,39.9295,北京市,官园,,39,39,21,16,8,68,,84,82,21,13,2,2,0.3,0.2
2024-03-08T2100,1007A,116.2878,39.9611,北京市,海淀万柳,,44,44,23,13,7,59,,80,75,30,22,1,1,0.4,0.3
2024-03-08T2100,1008A,116.6636,40.135,北京市,顺义新城,,32,32,12,15,5,33,,78,70,56,11,4,2,0.4,0.2
2024-03-08T2100,1009A,116.6275,40.3275,北京市,怀柔镇,,26,26,12,15,6,57,,80,72,14,10,1,2,0.3,0.2
2024-03-08T2100,1010A,116.2296,40.217,北京市,昌平镇,,39,39,19,21,7,51,,83,75,24,8,1,2,0.5,0.2
2024-03-08T2100,1011A,116.3966,39.9821,北京市,奥体中心,,35,35,15,12,5,56,,70,67,18,13,1,2,0.3,0.2
2024-03-08T2100,1012A,116.184,39.9136,北京市,古城,颗粒物(PM10),51,52,24,17,7,54,,83,77,32,21,3,3,0.3,0.2
2024-03-08T2100,3281A,115.9718,40.4529,北京市,延庆夏都,,31,31,23,14,10,33,,76,68,31,6,3,2,0.4,0.2
2024-03-08T2100,3417A,117.0709,40.1465,北京市,平谷新城,颗粒物(PM10),63,75,15,37,6,27,,87,73,36,14,3,3,0.4,0.1
2024-03-08T2100,3418A,116.8336,40.4095,北京市,密云新城,,33,33,10,16,6,54,,82,75,11,4,3,2,0.3,0.2
2024-03-08T2100,3672A,116.1541,39.8204,北京市,丰台云岗,颗粒物(PM10),53,55,26,20,7,51,,85,79,28,10,3,3,0.2,0.2
2024-03-08T2100,3673A,116.6804,39.9081,北京市,通州东关,,33,33,14,14,6,61,,86,82,26,12,3,2,0.3,0.2
2024-03-08T2100,3674A,115.9577,39.7603,北京市,房山燕山,,26,26,22,12,8,65,,78,74,8,6,3,3,0.1,0.2
2024-03-08T2100,3675A,116.4672,39.7733,北京市,大兴旧宫,,37,37,16,12,6,54,,75,72,24,19,1,2,0.3,0.2
2024-03-08T2100,3694A,115.986,40.4563,北京市,延庆石河营,,31,31,22,16,9,15,,77,65,48,9,1,2,0.4,0.4
2024-03-08T2100,3695A,116.6151,40.3053,北京市,怀柔新城,,22,19,11,10,6,70,,81,77,5,6,3,3,0.1,0.1
2024-03-08T2100,3696A,116.2545,39.8768,北京市,丰台小屯,,42,42,23,12,6,49,,76,70,33,23,3,3,0.3,0.3
2024-03-08T2100,3697A,116.84,40.3844,北京市,密云镇,,50,50,12,24,6,11,,79,66,56,10,3,3,0.5,0.2
2024-03-08T2100,1761A,123.8275,41.3064,本溪市,大峪,,40,40,46,20,19,66,,78,75,18,21,7,9,0.6,0.6
2024-03-08T2100,1762A,123.7567,41.3325,本溪市,溪湖,颗粒物(PM10),51,52,59,28,22,60,,86,81,22,19,4,6,0.5,0.5
2024-03-08T2100,1763A,123.7169,41.3094,本溪市,彩屯,细颗粒物(PM2.5),83,93,43,61,22,48,,79,73,32,19,10,7,0.9,0.5
2024-03-08T2100,1764A,123.7669,41.2864,本溪市,东明,,45,40,50,31,22,64,,80,77,21,20,10,10,0.6,0.5
2024-03-08T2100,1765A,123.7992,41.2664,本溪市,新立屯,,43,33,47,30,30,68,,85,82,18,24,9,11,0.7,0.7
2024-03-08T2100,1766A,123.8142,41.3472,本溪市,威宁,,42,36,57,29,29,41,,32,,36,40,6,6,0.5,0.5
2024-03-08T2100,2587A,105.2864,27.3125,毕节市,八中,细颗粒物(PM2.5),64,57,33,46,28,49,,68,64,12,11,7,7,0.8,0.7
2024-03-08T2100,2588A,105.31,27.2944,毕节市,师专,细颗粒物(PM2.5),67,62,36,48,27,50,,69,64,14,14,7,7,0.7,0.6
2024-03-08T2100,3537A,105.3631,27.3533,毕节市,长征村,细颗粒物(PM2.5),125,121,63,95,49,58,,79,74,13,10,8,7,0.7,0.5
2024-03-08T2100,1629A,118.0018,37.3617,滨州市,第二水厂,,48,48,31,24,14,30,,86,77,58,22,8,6,0.5,0.4
2024-03-08T2100,1630A,117.9776,37.393,滨州市,北中新校,颗粒物(PM10),62,73,38,24,14,24,,83,69,66,24,10,9,0.7,0.4
2024-03-08T2100,3514A,117.9378,37.3956,滨州市,中海酒店,,46,46,31,24,19,42,,83,72,41,20,9,10,0.8,0.7
2024-03-08T2100,3515A,117.9378,37.3553,滨州市,开发区一中,,46,46,36,19,15,42,,86,77,44,26,13,11,0.6,0.4
2024-03-08T2100,3516A,118.0917,37.694,滨州市,金海六路,颗粒物(PM10),57,63,30,34,8,43,,88,74,40,21,10,8,0.7,0.6
2024-03-08T2100,4028A,117.9956,37.3753,滨州市,滨州市西街道办事处,,46,46,31,27,17,31,,84,74,58,22,13,10,0.7,0.6
2024-03-08T2100,2311A,115.8072,33.8399,亳州市,污水处理厂,颗粒物(PM10),62,74,75,38,27,56,,95,90,36,21,8,9,0.3,0.3
2024-03-08T2100,2312A,115.7789,33.8518,亳州市,三国揽胜宫,颗粒物(PM10),57,64,82,35,27,62,,92,87,36,24,11,9,0.5,0.4
2024-03-08T2100,3332A,115.7633,33.8034,亳州市,亳州学院,颗粒物(PM10),55,59,72,27,24,76,,93,91,20,17,8,8,0.5,0.5
2024-03-08T2100,2693A,82.0485,44.8556,博尔塔拉蒙古自治州,市党校,颗粒物(PM10),54,58,52,32,26,62,,86,84,30,12,7,7,0.4,0.3
2024-03-08T2100,2694A,82.0806,44.8969,博尔塔拉蒙古自治州,市环保局,颗粒物(PM10),55,60,47,25,25,63,,76,74,33,24,13,12,0.7,0.6
2024-03-08T2100,1071A,116.8842,38.2991,沧州市,沧县城建局,颗粒物(PM10),53,55,34,35,15,61,,86,80,37,18,5,5,0.3,0.3
2024-03-08T2100,1072A,116.8584,38.3254,沧州市,电视转播站,颗粒物(PM10),51,52,35,17,8,61,,80,77,30,18,5,6,0.3,0.3
2024-03-08T2100,1073A,116.8709,38.3228,沧州市,市环保局,颗粒物(PM10),54,58,36,36,16,44,,78,71,43,19,6,4,0.7,0.5
2024-03-08T2100,3324A,116.8136,38.3004,沧州市,河北水利电力学院,颗粒物(PM10),54,58,32,29,14,39,,83,72,49,18,8,7,0.4,0.2
2024-03-08T2100,2622A,97.1806,31.1273,昌都市,昌都监测站,,35,35,20,19,9,57,,87,84,28,14,9,9,0.8,0.6
2024-03-08T2100,3719A,97.1714,31.1406,昌都市,昌都会议中心,,29,,9,20,14,84,,94,94,6,7,7,7,0.4,0.5
2024-03-08T2100,2690A,88.1236,43.8886,昌吉回族自治州,天山天池,颗粒物(PM10),58,65,38,22,14,99,,112,112,8,6,9,9,0.6,0.5
2024-03-08T2100,2692A,87.2717,44.0297,昌吉回族自治州,新区政务中心,颗粒物(PM10),61,72,91,27,61,76,,102,99,40,39,8,7,0.9,1
2024-03-08T2100,3613A,87.3095,44.0142,昌吉回族自治州,亚心广场,颗粒物(PM10),67,83,95,46,68,76,,104,100,38,33,8,7,1.1,1.2
2024-03-08T2100,1119A,125.3325,43.9166,长春市,食品厂,颗粒物(PM10),64,78,33,45,20,12,,76,58,64,28,8,8,0.8,0.4
2024-03-08T2100,1120A,125.2863,43.9027,长春市,客车厂,细颗粒物(PM2.5),58,58,30,41,22,28,,72,54,51,25,9,7,1.0,0.4
2024-03-08T2100,1121A,125.2841,43.8463,长春市,邮电学院,,43,41,27,30,18,32,,78,64,46,20,12,10,0.5,0.4
2024-03-08T2100,1122A,125.3716,43.8772,长春市,劳动公园,,39,39,25,20,15,58,,84,73,24,17,5,5,0.4,0.4
2024-03-08T2100,1123A,125.3297,43.8805,长春市,园林处,,43,35,23,30,14,38,,78,65,38,19,13,8,0.5,0.4
2024-03-08T2100,1124A,125.4605,43.79,长春市,净月潭,,21,21,23,14,12,54,,80,72,13,11,5,6,0.4,0.4
2024-03-08T2100,1126A,125.3863,43.8447,长春市,经开区环卫处,,30,22,26,21,14,36,,75,62,43,22,14,5,0.4,0.4
2024-03-08T2100,1127A,125.245,43.7783,长春市,高新区管委会,颗粒物(PM10),51,52,33,24,16,15,,81,63,57,28,8,8,0.6,0.4
2024-03-08T2100,1128A,125.1761,43.8325,长春市,岱山公园,,44,44,30,26,20,6,,77,56,69,26,8,5,0.5,0.4
2024-03-08T2100,1335A,113.0833,28.2325,长沙市,经开区环保局,颗粒物(PM10),91,132,79,65,49,71,,109,104,45,30,8,7,0.8,0.7
2024-03-08T2100,1336A,112.8872,28.2189,长沙市,高开区环保局,颗粒物(PM10),87,124,89,61,57,90,,110,108,26,35,6,5,0.8,0.8
2024-03-08T2100,1337A,113.0792,28.2053,长沙市,马坡岭,细颗粒物(PM2.5),88,121,80,65,53,53,,101,97,51,32,8,8,0.7,0.7
2024-03-08T2100,1338A,112.9394,28.19,长沙市,湖南师范大学,细颗粒物(PM2.5),98,117,87,73,58,86,,108,107,26,33,5,4,0.9,0.9
2024-03-08T2100,1339A,113.0178,28.1322,长沙市,雨花区环保局,颗粒物(PM10),88,125,88,58,53,74,,102,100,32,36,6,5,0.7,0.5
2024-03-08T2100,1340A,112.9792,28.2597,长沙市,伍家岭,细颗粒物(PM2.5),92,132,90,68,54,56,,99,97,52,46,7,6,0.8,0.8
2024-03-08T2100,1341A,113.0014,28.1944,长沙市,火车新站,细颗粒物(PM2.5),100,122,85,75,58,75,,49,,35,40,5,4,0.8,0.8
2024-03-08T2100,1342A,112.9844,28.1178,长沙市,天心区环保局,细颗粒物(PM2.5),87,119,84,64,50,80,,108,106,30,33,6,5,0.7,0.7
2024-03-08T2100,1343A,112.8908,28.1308,长沙市,湖南中医药大学,"颗粒物(PM10),细颗粒物(PM2.5)",87,124,91,64,58,76,,106,103,33,37,7,5,0.6,0.6
2024-03-08T2100,1344A,112.9581,28.3611,长沙市,沙坪,细颗粒物(PM2.5),83,80,57,61,48,71,,72,72,22,20,6,5,0.6,0.5
2024-03-08T2100,1727A,113.1147,36.1547,长治市,清华站,,49,49,37,17,12,64,,84,77,22,28,14,13,0.5,0.6
2024-03-08T2100,1728A,113.1031,36.1989,长治市,监测站,,50,50,41,19,15,64,,87,80,24,27,16,16,0.8,0.8
2024-03-08T2100,1730A,113.0886,36.2125,长治市,审计局,颗粒物(PM10),51,51,31,19,12,53,,84,75,34,30,17,19,0.4,0.4
2024-03-08T2100,1731A,113.0844,36.1856,长治市,长治八中,颗粒物(PM10),58,66,41,26,14,60,,82,73,36,40,12,12,0.5,0.4
2024-03-08T2100,2845A,113.1569,36.1911,长治市,德盛苑,,45,45,30,24,13,63,,87,82,23,21,16,14,0.7,0.7
2024-03-08T2100,3568A,113.06,36.0464,长治市,向阳小学,颗粒物(PM10),60,69,54,34,18,70,,92,85,25,29,14,14,0.5,0.5
2024-03-08T2100,3569A,112.8792,36.3144,长治市,屯留一中,颗粒物(PM10),51,51,35,18,10,64,,89,83,21,26,13,11,0.6,0.5
2024-03-08T2100,3570A,113.235,36.3489,长治市,潞城四中,颗粒物(PM10),58,65,41,21,12,7,,92,77,71,28,8,12,0.5,0.5
2024-03-08T2100,1854A,111.6975,28.9703,常德市,市二中,细颗粒物(PM2.5),93,134,98,69,63,97,,109,109,22,29,11,10,0.8,0.9
2024-03-08T2100,1857A,111.7158,29.1456,常德市,白鹤山,颗粒物(PM10),92,134,99,63,58,66,,75,74,10,8,6,5,0.6,0.6
2024-03-08T2100,3138A,111.7153,29.0289,常德市,武陵区永安,颗粒物(PM10),90,130,99,64,64,103,,111,111,20,29,11,10,0.8,0.9
2024-03-08T2100,3139A,111.6892,28.9881,常德市,鼎城区玉霞,"颗粒物(PM10),细颗粒物(PM2.5)",87,124,98,64,60,102,,110,110,21,40,12,11,0.8,0.9
2024-03-08T2100,3140A,111.6625,29.0531,常德市,武陵区长庚,颗粒物(PM10),91,132,109,66,62,95,,111,111,21,35,9,9,0.8,0.9
2024-03-08T2100,1196A,119.9633,31.762,常州市,市监测站,细颗粒物(PM2.5),99,104,122,74,77,58,,121,109,66,27,7,8,0.9,0.9
2024-03-08T2100,1200A,119.9468,31.7069,常州市,武进监测站,细颗粒物(PM2.5),89,86,107,66,71,76,,115,110,49,26,6,7,0.9,0.8
2024-03-08T2100,1201A,119.9255,31.9087,常州市,安家,细颗粒物(PM2.5),105,95,122,79,89,11,,117,94,114,38,10,9,1.0,1
2024-03-08T2100,3002A,119.9805,31.8174,常州市,行政中心,细颗粒物(PM2.5),99,83,107,74,77,54,,116,104,72,33,6,6,0.9,0.9
2024-03-08T2100,3003A,120.0522,31.7748,常州市,经开区,细颗粒物(PM2.5),92,95,120,68,78,39,,116,103,89,33,6,6,0.6,0.6
2024-03-08T2100,3010A,119.9025,31.7964,常州市,钟楼,细颗粒物(PM2.5),83,81,108,61,78,74,,114,107,45,29,8,8,0.7,0.7
2024-03-08T2100,3429A,119.8598,31.7066,常州市,武进经发区,细颗粒物(PM2.5),89,97,105,66,77,30,,120,100,104,30,9,8,0.7,0.7
2024-03-08T2100,3430A,119.5826,31.7245,常州市,金坛城区,细颗粒物(PM2.5),88,94,105,65,70,82,,125,118,42,19,7,8,0.8,0.8
2024-03-08T2100,2220A,120.4318,41.5881,朝阳市,西梁,,30,30,31,17,13,73,,96,88,18,10,9,9,0.5,0.4
2024-03-08T2100,2221A,120.4521,41.5646,朝阳市,河畔小区,,28,28,32,12,12,86,,90,89,4,9,5,6,0.5,0.5
2024-03-08T2100,2222A,120.4176,41.5648,朝阳市,八里堡,,32,32,32,19,11,64,,94,88,27,9,8,9,0.7,0.5
2024-03-08T2100,2223A,120.3806,41.5969,朝阳市,农业园区,,40,40,28,27,14,43,,93,80,43,10,9,7,0.5,0.3
2024-03-08T2100,1705A,116.6367,23.6719,潮州市,西园路,颗粒物(PM10),70,90,52,47,35,126,,140,140,20,16,8,6,0.5,0.5
2024-03-08T2100,3026A,116.6183,23.6608,潮州市,市政府,颗粒物(PM10),62,73,47,41,30,131,,145,145,20,15,8,8,0.8,0.8
2024-03-08T2100,4036A,116.6461,23.6761,潮州市,金山,细颗粒物(PM2.5),60,61,48,43,36,133,,141,141,16,16,8,8,0.7,0.8
2024-03-08T2100,2472A,113.0073,25.9061,郴州市,马头岭,颗粒物(PM10),61,72,61,16,26,79,,86,86,26,29,21,10,0.8,0.9
2024-03-08T2100,2473A,113.0116,25.8226,郴州市,市职中,颗粒物(PM10),54,58,51,36,40,83,,100,95,16,21,14,11,0.7,0.9
2024-03-08T2100,2474A,113.0161,25.8001,郴州市,兴隆步行街,颗粒物(PM10),55,60,63,37,48,88,,100,98,28,29,16,9,0.8,0.9
2024-03-08T2100,2475A,113.0383,25.8071,郴州市,市审计局,,49,49,52,31,40,82,,100,98,23,23,15,9,0.8,1.1
2024-03-08T2100,2476A,113.0348,25.7759,郴州市,市环保局,颗粒物(PM10),51,52,57,31,48,51,,96,85,34,23,8,8,0.8,1
2024-03-08T2100,1431A,103.9728,30.7236,成都市,金泉两河,细颗粒物(PM2.5),92,108,88,68,46,27,,53,53,39,57,3,2,0.7,0.7
2024-03-08T2100,1432A,104.176,30.6872,成都市,十里店,细颗粒物(PM2.5),98,105,99,73,54,48,,72,72,29,49,3,3,1.0,0.8
2024-03-08T2100,1433A,104.079,30.5706,成都市,三瓦窑,细颗粒物(PM2.5),78,92,107,57,50,63,,74,74,27,67,4,4,0.7,0.7
2024-03-08T2100,1434A,104.1114,30.63,成都市,沙河铺,细颗粒物(PM2.5),90,86,93,67,51,57,,70,70,24,50,3,2,0.6,0.7
2024-03-08T2100,1437A,104.0786,30.6531,成都市,君平街,细颗粒物(PM2.5),83,96,113,61,55,62,,74,74,31,65,6,6,0.5,0.6
2024-03-08T2100,1438A,103.613,31.0283,成都市,灵岩寺,细颗粒物(PM2.5),72,89,62,52,33,92,,88,88,24,19,7,11,0.7,0.6
2024-03-08T2100,2880A,104.0239,30.65639,成都市,大石西路,细颗粒物(PM2.5),82,98,109,60,54,60,,72,72,28,63,4,4,0.7,0.8
2024-03-08T2100,3136A,104.2725,30.5589,成都市,龙泉驿区区政府,细颗粒物(PM2.5),107,95,88,80,53,59,,77,75,14,21,3,4,0.7,0.6
2024-03-08T2100,3357A,104.0106,30.6931,成都市,金博路,细颗粒物(PM2.5),79,102,105,58,51,43,,54,54,29,62,5,3,0.8,0.8
2024-03-08T2100,3359A,104.0578,30.5225,成都市,华阳,细颗粒物(PM2.5),79,83,101,58,56,60,,76,76,29,51,3,4,0.6,0.7
2024-03-08T2100,3487A,104.2394,30.5319,成都市,车城东七路,细颗粒物(PM2.5),97,119,100,72,53,57,,80,80,21,27,3,5,0.8,0.7
2024-03-08T2100,3488A,104.3853,30.7453,成都市,青白江技师分院,细颗粒物(PM2.5),99,107,86,74,40,51,,62,62,20,38,3,4,0.7,0.7
2024-03-08T2100,3489A,104.0789,30.4072,成都市,科学城,细颗粒物(PM2.5),95,116,99,71,55,61,,77,77,20,43,4,4,0.7,0.7
2024-03-08T2100,4011A,103.8506,30.6947,成都市,光华大道三段,细颗粒物(PM2.5),98,115,91,73,48,30,,56,55,33,44,3,3,0.8,0.8
2024-03-08T2100,1062A,117.9531,40.9081,承德市,铁路,细颗粒物(PM2.5),55,51,26,39,9,35,,84,64,33,15,12,7,0.7,0.3
2024-03-08T2100,1063A,117.9392,40.9763,承德市,中国银行,,47,47,25,31,8,36,,89,76,34,16,8,8,0.6,0.3
2024-03-08T2100,1064A,117.9503,40.928,承德市,开发区,,38,34,30,26,16,28,,88,75,37,15,8,6,0.6,0.3
2024-03-08T2100,1065A,117.8051,40.9655,承德市,文化中心,颗粒物(PM10),63,76,32,23,12,12,,90,69,56,18,9,5,0.7,0.4
2024-03-08T2100,1066A,117.9268,41.0026,承德市,离宫,,26,,16,18,13,61,,86,80,11,8,2,2,0.3,0.2
2024-03-08T2100,2314A,117.47,30.6618,池州市,池州学院,颗粒物(PM10),70,90,72,47,49,87,,113,111,32,25,6,8,0.6,0.9
2024-03-08T2100,3237A,117.4918,30.6617,池州市,展览馆,颗粒物(PM10),69,88,71,42,41,75,,121,116,29,23,3,4,0.6,0.9
2024-03-08T2100,3333A,117.5627,30.695,池州市,第八中学,颗粒物(PM10),70,90,68,44,41,94,,115,113,23,23,4,4,0.4,0.6
2024-03-08T2100,3334A,117.5038,30.6243,池州市,第十二中学,颗粒物(PM10),73,95,74,45,44,76,,120,111,34,27,4,4,0.4,0.9
2024-03-08T2100,1744A,118.9233,42.2816,赤峰市,松山一中,颗粒物(PM10),55,60,28,25,10,16,,79,59,73,22,16,11,1.3,0.6
2024-03-08T2100,1745A,118.9576,42.2728,赤峰市,哈达街,,38,32,23,26,12,63,,76,70,21,17,15,11,0.7,0.5
2024-03-08T2100,1746A,118.8788,42.2554,赤峰市,天义路,,37,37,21,10,8,31,,72,62,47,16,9,10,0.6,0.5
2024-03-08T2100,3058A,119.2658,42.0353,赤峰市,银河街,颗粒物(PM10),65,80,32,43,18,30,,78,66,49,15,19,15,1.2,0.5
2024-03-08T2100,3286A,118.9359,42.3147,赤峰市,桥北物流园区,细颗粒物(PM2.5),60,60,20,43,13,21,,84,64,75,20,25,11,1.1,0.5
2024-03-08T2100,2521A,107.3476,22.4136,崇左市,市环保局江州分局,细颗粒物(PM2.5),68,68,92,49,62,65,,87,73,20,19,11,12,0.9,0.9
2024-03-08T2100,2522A,107.3702,22.3707,崇左市,城南新区,细颗粒物(PM2.5),78,72,82,57,67,62,,83,66,21,21,9,11,0.8,0.7
2024-03-08T2100,2298A,118.3093,32.3153,滁州市,老年大学,颗粒物(PM10),57,63,92,37,63,59,,114,100,46,23,7,7,0.5,0.5
2024-03-08T2100,2299A,118.3244,32.2786,滁州市,人大宾馆,颗粒物(PM10),62,73,101,30,59,78,,117,108,32,22,6,5,0.7,0.8
2024-03-08T2100,3207A,118.3118,32.3038,滁州市,市政府原办公楼,颗粒物(PM10),59,67,88,40,56,67,,115,103,46,26,4,4,0.7,0.6
2024-03-08T2100,3331A,118.3267,32.2634,滁州市,图书馆,颗粒物(PM10),58,65,97,34,56,78,,116,106,31,20,6,6,0.6,0.7
2024-03-08T2100,2605A,101.5482,25.0441,楚雄彝族自治州,州环境监测站,,28,19,27,8,16,89,,99,97,5,23,6,9,0.4,0.5
2024-03-08T2100,2606A,101.538,25.0492,楚雄彝族自治州,市经济开发区,,43,43,29,9,17,82,,92,90,8,22,5,7,0.4,0.5
2024-03-08T2100,2548A,107.5277,31.2827,达州市,达州职业技术学院,颗粒物(PM10),64,78,45,32,23,6,,13,12,30,27,8,9,1.0,0.9
2024-03-08T2100,2549A,107.5086,31.2186,达州市,市环境监测站,颗粒物(PM10),57,63,48,36,23,4,,8,7,46,37,7,8,1.1,1
2024-03-08T2100,2550A,107.4988,31.2132,达州市,凤凰小区,细颗粒物(PM2.5),62,63,46,44,26,5,,9,8,47,36,7,7,1.2,0.9
2024-03-08T2100,2551A,107.5082,31.1986,达州市,达县机关宾馆,细颗粒物(PM2.5),78,58,43,57,26,3,,10,8,53,39,6,5,1.0,0.8
2024-03-08T2100,2552A,107.4644,31.2124,达州市,市政中心,颗粒物(PM10),63,76,55,41,27,5,,10,9,54,41,8,7,1.2,0.9
2024-03-08T2100,2614A,100.1542,25.7054,大理白族自治州,大理市环境监测站,,29,26,30,20,17,74,,99,89,20,11,6,7,0.4,0.4
2024-03-08T2100,2615A,100.2171,25.5811,大理白族自治州,大理古城,,33,33,22,21,13,90,,100,99,5,7,8,8,0.6,0.6
2024-03-08T2100,1109A,121.612,38.9741,大连市,甘井子,,,,66,,42,,,86,84,28,18,7,9,0.6,0.6
2024-03-08T2100,1110A,121.565,38.9511,大连市,周水子,,43,43,71,18,45,57,,91,82,31,21,6,8,0.7,1
2024-03-08T2100,1111A,121.5637,38.8845,大连市,星海三站,,39,39,54,18,35,66,,91,84,26,26,10,10,0.6,0.8
2024-03-08T2100,1112A,121.6302,38.9117,大连市,青泥洼桥,,40,40,58,17,40,64,,92,82,35,33,19,16,0.7,0.9
2024-03-08T2100,1113A,121.6251,38.8638,大连市,傅家庄,,39,39,46,16,30,64,,91,81,31,22,15,15,0.7,0.8
2024-03-08T2100,1114A,121.5213,38.8661,大连市,七贤岭,,35,35,44,14,26,76,,84,81,9,11,10,12,0.6,0.7
2024-03-08T2100,1115A,121.2529,38.8061,大连市,旅顺,,32,32,53,21,36,72,,92,89,24,13,15,11,0.8,0.9
2024-03-08T2100,1116A,121.7485,39.1311,大连市,金州,颗粒物(PM10),55,59,51,35,33,75,,95,90,15,17,8,10,0.7,0.6
2024-03-08T2100,1117A,121.7811,39.0496,大连市,开发区,,49,49,59,24,32,70,,88,83,24,22,9,12,0.5,0.7
2024-03-08T2100,1118A,121.9762,39.0631,大连市,双D港,,47,47,53,23,24,76,,96,91,13,15,11,10,0.6,0.7
2024-03-08T2100,1789A,124.81117,46.03138,大庆市,大同区,细颗粒物(PM2.5),105,100,31,79,31,30,,78,68,49,11,19,7,1.2,0.4
2024-03-08T2100,1790A,125.129,46.533,大庆市,龙凤区,,42,42,33,15,18,37,,74,65,42,21,3,4,0.6,0.4
2024-03-08T2100,1791A,124.902,46.408,大庆市,红岗区,细颗粒物(PM2.5),52,39,32,36,23,37,,77,67,36,14,4,5,0.6,0.4
2024-03-08T2100,1792A,125.153,46.586,大庆市,萨尔图区,,26,26,29,16,17,45,,70,60,33,17,7,8,0.6,0.5
2024-03-08T2100,1793A,124.9042,46.6215,大庆市,让胡路区,,40,29,28,28,22,53,,77,70,26,10,6,7,0.5,0.4
2024-03-08T2100,3481A,125.141,46.634,大庆市,萨区政府监测点,,19,,24,13,20,48,,76,70,33,17,8,8,0.5,0.4
2024-03-08T2100,1723A,113.2994,40.0758,大同市,云冈宾馆,颗粒物(PM10),66,82,46,37,19,42,,72,67,49,27,20,18,0.7,0.7
2024-03-08T2100,1724A,113.3444,40.0917,大同市,大同大学,颗粒物(PM10),56,61,39,27,18,27,,76,68,62,30,18,27,0.4,0.5
2024-03-08T2100,1725A,113.2661,40.1269,大同市,安家小村,颗粒物(PM10),65,79,52,32,20,51,,70,67,31,26,22,23,0.4,1
2024-03-08T2100,1726A,113.2711,40.0844,大同市,教育学院,细颗粒物(PM2.5),90,82,51,67,23,17,,69,61,65,28,20,21,1.0,0.8
2024-03-08T2100,3282A,113.3397,40.0597,大同市,大同市卫生学校,颗粒物(PM10),58,66,46,39,20,24,,74,64,64,30,16,19,0.6,0.6
2024-03-08T2100,3565A,113.1367,40.1122,大同市,云冈站,颗粒物(PM10),61,71,49,27,19,17,,73,63,51,32,20,23,0.4,0.5
2024-03-08T2100,3566A,113.1186,40.2556,大同市,图书馆,颗粒物(PM10),67,84,34,41,19,29,,80,66,31,17,18,15,0.7,0.5
2024-03-08T2100,3567A,113.5931,40.0461,大同市,区一中,颗粒物(PM10),83,115,47,53,22,23,,71,61,39,24,44,17,1.3,0.7
2024-03-08T2100,3676A,113.2802,40.0995,大同市,第二人民医院,细颗粒物(PM2.5),70,78,56,51,22,32,,74,68,63,34,24,21,0.8,0.9
2024-03-08T2100,2269A,124.1069,50.4097,大兴安岭地区,科技局,颗粒物(PM10),58,65,19,24,20,63,,75,71,9,4,11,7,0.4,0.4
2024-03-08T2100,3663A,124.1164,50.4278,大兴安岭地区,红旗社区,,38,31,14,26,9,46,,76,66,24,13,10,8,0.5,0.3
2024-03-08T2100,1600A,124.3303,40.0625,丹东市,江湾东路,颗粒物(PM10),51,52,42,26,19,77,,88,83,10,11,10,10,0.4,0.5
2024-03-08T2100,1601A,124.4256,40.1503,丹东市,临江后街,,42,42,41,19,18,75,,86,82,10,14,6,8,0.6,0.6
2024-03-08T2100,1602A,124.3933,40.1461,丹东市,元宝山,,36,36,32,19,18,66,,81,74,12,9,7,8,0.4,0.5
2024-03-08T2100,1603A,124.3633,40.1092,丹东市,民主桥,颗粒物(PM10),53,55,45,22,16,66,,78,71,13,15,9,10,0.5,0.5
2024-03-08T2100,3541A,109.5726,19.5167,儋州市,第一中学子站,,18,4,11,2,6,55,,60,60,5,9,6,6,0.9,1
2024-03-08T2100,3542A,109.5567,19.5187,儋州市,东坡学校子站,,19,5,13,4,9,59,,63,63,7,10,6,6,0.9,1
2024-03-08T2100,2616A,98.5842,24.428,德宏傣族景颇族自治州,德宏州监测站,细颗粒物(PM2.5),52,51,58,36,36,52,,114,105,31,29,16,27,0.3,0.4
2024-03-08T2100,3677A,98.5881,24.4368,德宏傣族景颇族自治州,芒市人民政府综合楼,,,53,51,16,33,,,110,107,24,21,8,9,0.5,0.5
2024-03-08T2100,1901A,104.4239,31.1208,德阳市,东山公园,细颗粒物(PM2.5),90,84,83,67,45,45,,71,58,24,22,3,7,0.7,0.6
2024-03-08T2100,1902A,104.3826,31.1317,德阳市,西小区,细颗粒物(PM2.5),100,96,95,75,54,39,,51,51,29,45,3,4,0.8,0.8
2024-03-08T2100,1904A,104.3553,31.1091,德阳市,耐火材料厂,细颗粒物(PM2.5),105,93,104,79,56,37,,53,53,29,44,5,6,0.7,0.6
2024-03-08T2100,3639A,104.4019,31.1244,德阳市,市教育局,细颗粒物(PM2.5),99,85,82,74,50,34,,52,52,32,47,3,5,0.7,0.6
2024-03-08T2100,1622A,116.3032,37.4674,德州市,儿童乐园,颗粒物(PM10),57,63,48,22,13,61,,91,78,27,22,6,7,0.5,0.4
2024-03-08T2100,1624A,116.2991,37.4451,德州市,监理站,颗粒物(PM10),51,51,39,22,8,72,,93,90,36,26,5,7,0.4,0.4
2024-03-08T2100,3066A,116.2721,37.4379,德州市,九衢泉纯净水厂,颗粒物(PM10),78,105,49,34,14,38,,85,79,60,28,11,7,0.6,0.3
2024-03-08T2100,3371A,116.3728,37.4403,德州市,开发区人民医院,颗粒物(PM10),59,68,42,22,10,23,,90,79,71,18,6,7,0.5,0.4
2024-03-08T2100,3372A,116.3572,37.4094,德州市,太阳城中学,颗粒物(PM10),59,68,42,29,12,53,,87,79,41,20,5,6,0.5,0.6
2024-03-08T2100,3511A,116.5652,37.3319,德州市,陵城艺术中心,颗粒物(PM10),65,80,42,39,8,55,,88,83,38,17,8,5,0.8,0.5
2024-03-08T2100,2621A,99.7056,27.8317,迪庆藏族自治州,迪庆州站,,30,30,24,15,16,88,,108,105,13,8,4,4,0.4,0.3
2024-03-08T2100,3180A,99.7136,27.8094,迪庆藏族自治州,质量技术监督局,,28,21,22,13,8,87,,105,101,11,8,5,5,0.5,0.5
2024-03-08T2100,2663A,104.6241,35.5734,定西市,东关小学,颗粒物(PM10),82,113,151,41,41,53,,50,,20,26,16,13,0.5,0.7
2024-03-08T2100,2664A,104.6194,35.5934,定西市,供电公司,,,91,142,45,46,,,101,101,20,33,23,20,0.4,0.6
2024-03-08T2100,1389A,113.7547,23.0494,东莞市,莞城梨川,颗粒物(PM10),56,62,37,30,22,86,,130,126,43,19,10,8,0.7,0.6
2024-03-08T2100,1390A,113.7944,23.0128,东莞市,东城石井,颗粒物(PM10),51,52,33,29,20,94,,133,123,36,18,7,8,0.7,0.7
2024-03-08T2100,1391A,113.7383,22.9658,东莞市,南城西平,颗粒物(PM10),61,71,38,34,21,95,,128,126,43,24,10,9,0.9,0.8
2024-03-08T2100,3319A,113.7338,23.0381,东莞市,万江金泰,颗粒物(PM10),64,78,37,40,23,82,,118,115,48,15,9,8,0.7,0.6
2024-03-08T2100,3626A,113.7533,23.0202,东莞市,南城元岭,,,76,38,35,21,,,124,,56,15,9,8,0.9,0.8
2024-03-08T2100,3627A,113.7875,23.0457,东莞市,东城主山,颗粒物(PM10),57,64,34,33,21,82,,130,126,42,16,10,8,0.9,0.7
2024-03-08T2100,1666A,118.6614,37.4309,东营市,市环保局,颗粒物(PM10),52,53,42,19,21,91,,97,96,20,23,7,8,0.3,0.3
2024-03-08T2100,3036A,118.6904,37.4338,东营市,开发区管委会,,45,45,43,17,20,83,,91,90,22,23,2,3,0.4,0.5
2024-03-08T2100,3365A,118.5719,37.565,东营市,垦利区民丰路,颗粒物(PM10),52,53,39,17,15,76,,91,87,25,22,12,12,0.5,0.7
2024-03-08T2100,3498A,118.5055,37.8612,东营市,河口城区,颗粒物(PM10),57,63,36,29,18,76,,87,82,16,15,7,6,0.6,0.7
2024-03-08T2100,3646A,118.4978,37.4623,东营市,胜利站,颗粒物(PM10),57,63,45,24,18,77,,91,86,28,26,9,10,0.7,0.7
2024-03-08T2100,3734A,118.35,37.26,东营市,理想之城,颗粒物(PM10),53,56,40,22,19,79,,92,87,15,23,2,5,0.5,0.6
2024-03-08T2100,1592A,109.9486,39.8261,鄂尔多斯市,巴音孟克林场办事处,颗粒物(PM10),58,66,40,27,14,66,,90,88,48,28,15,18,0.6,0.4
2024-03-08T2100,1593A,109.7736,39.5986,鄂尔多斯市,康泽苑,细颗粒物(PM2.5),77,95,36,56,14,18,,100,88,86,22,12,7,1.0,0.6
2024-03-08T2100,1594A,109.8119,39.5989,鄂尔多斯市,华泰汽车城,颗粒物(PM10),57,63,36,29,18,17,,99,84,80,28,10,9,0.8,0.5
2024-03-08T2100,1595A,109.9734,39.7884,鄂尔多斯市,奥林花园,颗粒物(PM10),65,80,45,24,14,6,,92,75,103,45,11,8,0.9,0.6
2024-03-08T2100,2436A,114.8938,30.3994,鄂州市,市政府,颗粒物(PM10),77,103,90,46,59,18,,94,83,66,35,8,10,1.0,0.9
2024-03-08T2100,2437A,114.8989,30.3714,鄂州市,赵家坝,颗粒物(PM10),67,83,98,47,64,21,,112,97,82,35,5,5,0.8,0.6
2024-03-08T2100,3654A,114.8094,30.4089,鄂州市,精准医疗中心,颗粒物(PM10),89,127,99,35,48,57,,111,102,56,33,7,5,0.8,0.9
2024-03-08T2100,2454A,109.4978,30.2981,恩施土家族苗族自治州,湖北民院,颗粒物(PM10),59,68,53,37,28,2,,17,13,42,34,7,7,1.3,1.2
2024-03-08T2100,2455A,109.4707,30.2798,恩施土家族苗族自治州,州电力总公司,细颗粒物(PM2.5),72,70,51,52,40,5,,16,14,32,24,8,7,1.3,1.2
2024-03-08T2100,3549A,109.5061,30.3772,恩施土家族苗族自治州,龙凤新区,细颗粒物(PM2.5),64,67,38,46,28,12,,13,12,31,26,6,6,1.2,1.2
2024-03-08T2100,2499A,108.3411,21.6158,防城港市,沙万,细颗粒物(PM2.5),75,63,69,55,51,58,,62,61,17,25,6,6,0.8,0.8
2024-03-08T2100,2500A,108.3514,21.7731,防城港市,防城档案局,细颗粒物(PM2.5),88,84,79,65,57,34,,62,46,24,26,6,8,1.0,1
2024-03-08T2100,2501A,108.3506,21.6414,防城港市,大海花园,细颗粒物(PM2.5),73,71,71,53,49,54,,61,60,17,21,4,6,1.1,1.1
2024-03-08T2100,1371A,113.1294,23.0067,佛山市,湾梁,颗粒物(PM10),56,61,41,21,17,46,,102,96,53,24,7,8,1.0,0.8
2024-03-08T2100,1372A,113.1083,23.0478,佛山市,华材职中,颗粒物(PM10),81,112,48,37,23,28,,99,89,102,34,6,4,0.8,0.7
2024-03-08T2100,1373A,113.144,23.0453,佛山市,南海气象局,颗粒物(PM10),53,55,39,25,21,62,,101,98,56,26,7,8,0.8,0.5
2024-03-08T2100,1374A,113.2881,22.8094,佛山市,顺德苏岗,颗粒物(PM10),60,69,35,41,22,72,,120,117,53,26,10,9,0.9,0.7
2024-03-08T2100,1376A,112.8383,22.8678,佛山市,高明孔堂,颗粒物(PM10),54,58,50,33,31,82,,112,111,32,28,6,8,0.6,0.7
2024-03-08T2100,1377A,112.8836,23.1588,佛山市,三水监测站,颗粒物(PM10),64,78,49,34,31,44,,105,98,62,26,8,9,0.9,0.8
2024-03-08T2100,1378A,112.867,23.185,佛山市,三水云东海,,50,50,42,28,32,43,,107,99,60,25,5,6,0.7,0.7
2024-03-08T2100,3625A,113.2544,22.7642,佛山市,容桂街道办,颗粒物(PM10),71,92,41,46,23,64,,126,120,91,32,8,7,0.8,0.6
2024-03-08T2100,1282A,119.2681,26.0504,福州市,师大,颗粒物(PM10),60,70,66,28,42,118,,136,133,19,19,4,5,0.6,0.7
2024-03-08T2100,1283A,119.2984,26.1028,福州市,五四北路,颗粒物(PM10),57,63,59,28,45,128,,145,144,16,20,4,5,0.5,0.7
2024-03-08T2100,1284A,119.2648,26.0768,福州市,杨桥西路,颗粒物(PM10),61,72,65,26,40,125,,142,140,13,15,4,5,0.6,0.8
2024-03-08T2100,1285A,119.317,26.0746,福州市,紫阳,颗粒物(PM10),64,78,69,29,45,125,,140,138,14,18,4,5,0.6,0.8
2024-03-08T2100,3048A,119.5799,26.0936,福州市,九龙,颗粒物(PM10),61,72,56,32,38,139,,151,149,13,16,3,4,0.6,0.7
2024-03-08T2100,3526A,119.5189,25.9664,福州市,吴航,颗粒物(PM10),59,68,63,29,35,114,,137,132,16,16,4,5,0.5,0.6
2024-03-08T2100,1755A,123.7977,41.8491,抚顺市,望花区,,,35,46,31,23,,,84,82,20,20,9,9,0.5,0.5
2024-03-08T2100,1756A,123.9161,41.8822,抚顺市,顺城区,细颗粒物(PM2.5),64,59,53,46,27,18,,87,71,68,26,6,6,0.7,0.6
2024-03-08T2100,1757A,124.0436,41.8611,抚顺市,东洲区,细颗粒物(PM2.5),62,59,47,44,28,65,,85,77,16,17,8,8,0.5,0.5
2024-03-08T2100,1758A,123.9247,41.8642,抚顺市,新抚区,,50,39,42,35,22,34,,88,79,44,19,5,6,0.6,0.4
2024-03-08T2100,1759A,124.0972,41.8961,抚顺市,大伙房水库,,36,34,48,25,25,71,,86,80,10,14,8,9,0.4,0.4
2024-03-08T2100,1760A,123.7086,41.8391,抚顺市,沈抚新城,细颗粒物(PM2.5),62,45,49,44,22,39,,83,74,40,17,6,6,0.7,0.5
2024-03-08T2100,2376A,116.2127,28.0814,抚州市,桐源党溪,颗粒物(PM10),53,56,71,20,31,71,,103,98,7,13,3,4,0.1,0.3
2024-03-08T2100,2377A,116.3544,27.9831,抚州市,市站,颗粒物(PM10),63,76,74,30,43,97,,113,111,21,21,7,11,0.5,0.6
2024-03-08T2100,2378A,116.3565,27.963,抚州市,血防站,颗粒物(PM10),63,75,73,29,42,114,,125,122,19,25,5,6,0.8,0.7
2024-03-08T2100,2379A,116.3564,28.0007,抚州市,采茶剧团,,,,71,,44,,,108,,29,27,4,13,0.6,0.9
2024-03-08T2100,2380A,116.385,27.9647,抚州市,医学分院,颗粒物(PM10),66,81,75,25,35,99,,116,113,20,28,14,10,0.3,0.5
2024-03-08T2100,2207A,121.6094,41.998,阜新市,工业园区,细颗粒物(PM2.5),139,,39,106,17,20,,89,73,59,13,43,8,1.4,0.7
2024-03-08T2100,2208A,121.6697,42.0279,阜新市,长青街,细颗粒物(PM2.5),83,69,28,61,17,32,,90,76,38,10,23,6,0.8,0.4
2024-03-08T2100,2209A,121.6673,42.0705,阜新市,农业园区,,40,25,21,24,9,59,,85,78,23,8,120,11,0.5,0.3
2024-03-08T2100,2210A,121.6717,42.0224,阜新市,东苑,细颗粒物(PM2.5),67,76,31,48,12,24,,83,69,60,12,42,10,1.5,0.8
2024-03-08T2100,2211A,121.6506,42.0498,阜新市,玉龙新城,细颗粒物(PM2.5),65,72,31,47,13,18,,86,64,60,13,12,7,0.9,0.5
2024-03-08T2100,2301A,115.8277,32.8929,阜阳市,市监测站,颗粒物(PM10),69,87,90,49,47,26,,100,88,71,38,7,7,0.4,0.5
2024-03-08T2100,2303A,115.8554,32.8605,阜阳市,开发区,颗粒物(PM10),80,109,119,39,43,50,,97,86,53,39,5,6,0.8,0.7
2024-03-08T2100,2875A,115.784,32.8892,阜阳市,阜阳职业技术学院,"颗粒物(PM10),细颗粒物(PM2.5)",60,69,93,43,46,58,,101,95,41,34,6,6,0.5,0.5
2024-03-08T2100,3468A,115.7901,32.8613,阜阳市,市规划展馆,颗粒物(PM10),55,59,93,24,39,54,,102,96,43,29,6,7,0.4,0.4
2024-03-08T2100,3469A,115.836,32.9183,阜阳市,枣园社区,颗粒物(PM10),71,92,103,34,39,9,,101,86,80,38,6,12,0.6,0.4
2024-03-08T2100,2669A,102.9099,34.9841,甘南藏族自治州,州政府,颗粒物(PM10),78,105,72,40,33,100,,100,100,8,25,9,22,0.6,0.7
2024-03-08T2100,3380A,102.8914,34.9617,甘南藏族自治州,甘肃民族师范学院,颗粒物(PM10),80,109,86,38,32,102,,101,101,13,32,6,10,0.7,0.6
2024-03-08T2100,2570A,101.9603,30.0475,甘孜藏族自治州,水桥子,,30,30,20,19,12,56,,76,73,22,14,11,11,0.5,0.4
2024-03-08T2100,3065A,101.9533,29.9972,甘孜藏族自治州,州环保局,,22,22,23,12,7,59,,74,72,21,14,8,8,0.4,0.4
2024-03-08T2100,3414A,115.8347,28.932,赣江新区,桑海产业园,颗粒物(PM10),63,75,70,26,33,76,,114,108,15,20,5,5,0.1,0.4
2024-03-08T2100,2363A,114.9367,25.8664,赣州市,地委,颗粒物(PM10),55,60,48,26,30,98,,104,104,14,13,16,15,1.2,1.2
2024-03-08T2100,2364A,114.9461,25.8481,赣州市,气象台,颗粒物(PM10),55,60,46,32,31,88,,109,106,18,16,15,13,0.8,0.8
2024-03-08T2100,2365A,114.9322,25.8333,赣州市,市图书馆,颗粒物(PM10),60,70,50,33,26,98,,102,102,16,20,5,6,0.3,0.3
2024-03-08T2100,2366A,114.8905,25.8471,赣州市,华坚鞋城,颗粒物(PM10),58,66,49,31,30,73,,98,94,29,16,7,7,0.6,1.3
2024-03-08T2100,3109A,115.0093,25.8613,赣州市,赣县区卫计委,颗粒物(PM10),61,72,44,27,26,62,,100,96,32,20,8,8,0.7,0.6
2024-03-08T2100,2683A,106.2319,36.1417,固原市,马园,颗粒物(PM10),67,83,93,31,25,19,,84,68,72,35,5,5,0.5,0.4
2024-03-08T2100,2684A,106.2792,36.0022,固原市,监测站,颗粒物(PM10),63,76,77,35,26,71,,93,90,23,23,7,6,0.5,0.3
2024-03-08T2100,2685A,106.2375,36.0211,固原市,新区,颗粒物(PM10),64,77,80,37,24,58,,93,89,29,18,8,7,0.6,0.3
2024-03-08T2100,3522A,106.2177,35.9959,固原市,原州区十五小,颗粒物(PM10),72,93,92,37,26,77,,96,93,22,17,9,8,0.4,0.3
2024-03-08T2100,2544A,106.6303,30.4576,广安市,市委,细颗粒物(PM2.5),62,53,64,44,49,31,,31,31,17,32,4,5,0.8,0.9
2024-03-08T2100,2545A,106.6271,30.4663,广安市,友谊中学,细颗粒物(PM2.5),62,49,55,44,48,38,,35,35,20,34,4,5,0.9,1
2024-03-08T2100,2547A,106.6388,30.4551,广安市,广电花园,细颗粒物(PM2.5),59,49,57,42,48,34,,32,32,19,33,4,5,1.0,1.1
2024-03-08T2100,2902A,106.6351,30.4865,广安市,北辰小学,细颗粒物(PM2.5),69,,59,50,53,35,,33,33,17,28,5,6,0.9,1
2024-03-08T2100,2523A,105.8945,32.4535,广元市,黑石坡,,48,41,45,33,25,54,,74,61,18,18,6,8,0.5,0.6
2024-03-08T2100,2524A,105.821,32.4444,广元市,老城,颗粒物(PM10),53,55,61,32,28,38,,48,48,26,34,2,5,0.8,0.8
2024-03-08T2100,2526A,105.8628,32.4287,广元市,监测站,颗粒物(PM10),54,57,53,32,27,42,,57,57,26,24,7,8,0.7,0.6
2024-03-08T2100,3617A,105.8047,32.4166,广元市,经开区,细颗粒物(PM2.5),55,55,67,39,38,36,,56,56,31,29,4,10,0.7,0.6
2024-03-08T2100,1345A,113.2347,23.1423,广州市,广雅中学,颗粒物(PM10),67,83,47,43,26,22,,91,83,94,36,6,6,1.2,0.9
2024-03-08T2100,1346A,113.2612,23.105,广州市,市五中,颗粒物(PM10),63,75,43,44,26,38,,104,92,59,23,6,6,1.1,0.8
2024-03-08T2100,1348A,113.3478,23.0916,广州市,广东商学院,颗粒物(PM10),88,126,40,64,25,7,,104,88,109,26,8,6,1.1,0.7
2024-03-08T2100,1349A,113.4332,23.1047,广州市,市八十六中,颗粒物(PM10),64,78,38,37,22,36,,100,90,78,25,6,5,0.8,0.6
2024-03-08T2100,1350A,113.3505,22.9483,广州市,番禺中学,颗粒物(PM10),66,81,41,44,24,60,,110,105,69,30,7,6,1.0,0.7
2024-03-08T2100,1351A,113.2146,23.3916,广州市,花都师范,颗粒物(PM10),51,51,36,30,23,82,,110,104,33,18,8,7,0.7,0.6
2024-03-08T2100,1352A,113.2597,23.1331,广州市,市监测站,颗粒物(PM10),67,84,42,46,26,7,,103,88,131,36,5,5,1.2,0.8
2024-03-08T2100,1353A,113.5618,23.312,广州市,九龙镇镇龙,颗粒物(PM10),62,73,34,43,22,28,,92,77,54,16,6,6,0.9,0.7
2024-03-08T2100,1354A,113.2765,23.1544,广州市,麓湖,,49,49,40,29,24,32,,104,92,61,24,5,6,0.8,0.7
2024-03-08T2100,1355A,113.443,23.3035,广州市,帽峰山森林公园,,31,22,28,17,18,97,,114,113,9,9,7,7,0.4,0.4
2024-03-08T2100,2846A,113.3221,23.1322,广州市,体育西,颗粒物(PM10),66,82,37,44,23,37,,100,89,75,21,8,8,1.1,0.7
2024-03-08T2100,3298A,113.5717,23.5491,广州市,从化街口,细颗粒物(PM2.5),69,79,34,50,23,58,,104,97,42,12,8,6,0.9,0.6
2024-03-08T2100,3299A,113.3472,23.3692,广州市,白云竹料,细颗粒物(PM2.5),65,67,35,47,25,68,,112,105,33,14,7,6,0.8,0.6
2024-03-08T2100,3300A,113.2981,23.237,广州市,白云嘉禾,颗粒物(PM10),64,78,47,38,26,6,,107,85,100,33,7,7,1.1,0.8
2024-03-08T2100,3301A,113.4256,23.1716,广州市,黄埔科学城,,48,48,30,28,21,34,,102,90,61,21,5,5,0.9,0.8
2024-03-08T2100,3302A,113.3942,23.0483,广州市,番禺大学城,颗粒物(PM10),53,55,34,29,21,64,,104,100,56,25,4,2,0.3,0.3
2024-03-08T2100,3303A,113.4922,22.8168,广州市,南沙黄阁,颗粒物(PM10),62,74,47,35,28,66,,128,120,55,34,6,8,1.0,0.9
2024-03-08T2100,3304A,113.5342,22.7896,广州市,南沙街,颗粒物(PM10),58,66,44,31,26,64,,132,125,39,26,4,7,0.8,0.8
2024-03-08T2100,3443A,113.2902,23.5544,广州市,花都梯面,,44,44,32,29,22,23,,112,96,56,17,6,7,0.7,0.6
2024-03-08T2100,3445A,113.7858,23.7478,广州市,从化良口,,28,28,27,18,18,67,,103,93,15,9,4,5,0.6,0.6
2024-03-08T2100,3446A,113.8051,23.2614,广州市,增城荔城,,39,39,30,25,21,46,,104,96,33,9,6,7,0.8,0.9
2024-03-08T2100,2505A,109.568,23.1478,贵港市,德智高中,细颗粒物(PM2.5),67,48,60,48,50,69,,64,64,15,19,8,6,0.9,0.9
2024-03-08T2100,2506A,109.6047,23.0666,贵港市,江南子站,颗粒物(PM10),89,127,84,52,46,30,,68,64,53,25,11,10,1.3,1
2024-03-08T2100,2507A,109.6014,23.0948,贵港市,贵城子站,细颗粒物(PM2.5),98,76,62,73,51,43,,64,63,35,25,11,11,1.1,1
2024-03-08T2100,2508A,109.5669,23.1065,贵港市,荷城子站,细颗粒物(PM2.5),89,75,73,66,51,50,,64,62,24,20,12,12,1.2,1.2
2024-03-08T2100,3405A,109.5886,23.1172,贵港市,新世纪学校,细颗粒物(PM2.5),82,100,77,60,53,38,,67,64,36,20,10,10,1.2,1.1
2024-03-08T2100,1439A,106.6899,26.5998,贵阳市,马鞍山,颗粒物(PM10),52,53,47,34,33,91,,98,97,16,16,10,11,0.7,0.7
2024-03-08T2100,1440A,106.6971,26.5694,贵阳市,市环保站,细颗粒物(PM2.5),58,63,59,41,42,89,,92,87,22,22,9,9,0.6,0.6
2024-03-08T2100,1441A,106.6243,26.6266,贵阳市,鉴湖路,颗粒物(PM10),59,68,59,24,34,86,,102,98,22,17,7,7,0.6,0.6
2024-03-08T2100,1442A,106.7487,26.6343,贵阳市,燕子冲,细颗粒物(PM2.5),52,46,45,36,37,99,,106,104,14,14,8,9,0.7,0.7
2024-03-08T2100,1443A,106.6555,26.4365,贵阳市,碧云窝,颗粒物(PM10),54,58,59,36,35,98,,104,104,15,16,11,13,0.6,0.7
2024-03-08T2100,1444A,106.694,26.5161,贵阳市,中院村,颗粒物(PM10),54,58,49,34,38,92,,96,95,14,17,12,12,0.6,0.6
2024-03-08T2100,1445A,106.7109,26.6027,贵阳市,红边门,颗粒物(PM10),57,63,53,36,39,83,,94,90,25,20,13,12,0.6,0.6
2024-03-08T2100,1446A,106.7164,26.5699,贵阳市,新华路,颗粒物(PM10),60,70,51,34,37,95,,100,99,18,17,6,11,0.6,0.7
2024-03-08T2100,1447A,106.674,26.5424,贵阳市,太慈桥,颗粒物(PM10),51,51,48,31,34,88,,99,98,21,17,11,11,0.6,0.6
2024-03-08T2100,1862A,110.4144,25.3167,桂林市,电子科大尧山校区,细颗粒物(PM2.5),52,52,42,36,29,113,,112,112,12,12,7,6,0.5,0.6
2024-03-08T2100,1863A,110.2819,25.2697,桂林市,监测站,细颗粒物(PM2.5),57,60,50,40,38,88,,100,95,19,16,11,9,0.7,0.7
2024-03-08T2100,1864A,110.3089,25.2708,桂林市,龙隐路小学,颗粒物(PM10),56,62,47,39,35,86,,104,99,17,14,8,6,0.7,0.8
2024-03-08T2100,1865A,110.2869,25.2178,桂林市,八中,细颗粒物(PM2.5),63,49,45,45,40,80,,102,95,23,18,8,6,0.8,0.8
2024-03-08T2100,3403A,110.1764,25.2381,桂林市,创业大厦,,,,46,,34,94,,109,105,18,12,,8,0.8,0.8
2024-03-08T2100,3531A,110.296,25.1253,桂林市,旅游学院,细颗粒物(PM2.5),52,46,37,36,32,92,,105,103,13,12,8,7,0.9,0.9
2024-03-08T2100,2674A,100.2561,34.4714,果洛藏族自治州,玛沁县大武镇,,27,25,35,18,18,84,,95,94,5,4,16,14,0.5,0.4
2024-03-08T2100,1129A,126.5422,45.755,哈尔滨市,岭北,,46,41,23,32,19,49,,99,79,37,15,18,13,0.9,0.5
2024-03-08T2100,1130A,126.561,45.8167,哈尔滨市,松北商大,,29,29,28,17,20,49,,82,69,26,14,6,6,0.5,0.4
2024-03-08T2100,1131A,126.979,45.5419,哈尔滨市,阿城会宁,细颗粒物(PM2.5),82,64,43,60,29,38,,78,68,38,19,13,17,0.7,0.6
2024-03-08T2100,1132A,126.599,45.7222,哈尔滨市,南岗学府路,,33,33,35,13,18,58,,78,68,20,16,13,15,0.4,0.5
2024-03-08T2100,1133A,126.689,45.7733,哈尔滨市,太平宏伟公园,,28,27,29,19,17,55,,79,69,23,15,14,11,0.5,0.4
2024-03-08T2100,1134A,126.635,45.7667,哈尔滨市,道外承德广场,,32,22,27,22,17,67,,80,76,16,14,11,8,0.5,0.4
2024-03-08T2100,1135A,126.685,45.7319,哈尔滨市,香坊红旗大街,,38,,23,26,18,68,,77,72,12,12,9,6,0.6,0.5
2024-03-08T2100,1136A,126.6411,45.7258,哈尔滨市,动力和平路,,23,23,27,15,18,65,,84,78,20,17,3,9,0.4,0.4
2024-03-08T2100,1137A,126.593,45.7478,哈尔滨市,道里建国路,,29,22,31,20,27,38,,74,64,41,19,3,4,0.1,0.3
2024-03-08T2100,1138A,126.615,45.61,哈尔滨市,平房东轻厂,细颗粒物(PM2.5),54,44,32,38,25,6,,73,46,70,28,14,7,0.7,0.4
2024-03-08T2100,1139A,126.595,45.9855,哈尔滨市,呼兰师专,,35,,29,24,23,40,,74,64,34,13,11,10,0.7,0.5
2024-03-08T2100,1140A,126.6206,45.6842,哈尔滨市,省农科院,,32,26,29,22,23,50,,84,77,34,14,12,12,0.6,0.5
2024-03-08T2100,2688A,93.5128,42.8172,哈密市,地区监测站,颗粒物(PM10),75,99,81,26,28,80,,90,90,20,27,4,8,0.0,0.6
2024-03-08T2100,2689A,93.4961,42.8328,哈密市,哈密师范学校,颗粒物(PM10),90,130,85,31,31,68,,86,86,33,40,5,10,0.6,0.9
2024-03-08T2100,2671A,100.9048,36.9639,海北藏族自治州,海晏县西海镇,颗粒物(PM10),60,69,76,28,24,98,,111,111,15,13,18,16,0.6,0.6
2024-03-08T2100,3867A,102.0738,36.5056,海东市,平安区公安北苑,颗粒物(PM10),79,107,133,37,41,90,,107,106,25,17,10,11,0.5,0.5
2024-03-08T2100,1410A,110.3232,20.0574,海口市,海南大学,,28,28,37,16,24,77,,72,72,11,14,7,7,0.6,0.7
2024-03-08T2100,1411A,110.283,20.0053,海口市,秀英海南医院,,28,28,32,17,22,69,,67,67,12,12,8,8,0.7,0.7
2024-03-08T2100,1412A,110.338,19.9969,海口市,海南师范大学,,28,28,31,19,23,68,,67,67,11,14,7,7,0.7,0.7
2024-03-08T2100,1413A,110.33,20.0356,海口市,龙华路环保局宿舍,,30,30,33,18,23,69,,66,66,12,14,8,8,0.6,0.6
2024-03-08T2100,3539A,110.5111,19.9736,海口市,桂林洋子站,,24,24,29,15,21,75,,70,70,6,12,6,6,0.6,0.6
2024-03-08T2100,2673A,100.6188,36.2866,海南藏族自治州,共和县恰卜恰镇,颗粒物(PM10),54,57,44,8,18,82,,114,111,36,19,14,11,0.5,0.5
2024-03-08T2100,2676A,97.3731,37.3753,海西蒙古族藏族自治州,德令哈市,,32,31,26,22,11,87,,116,114,22,8,13,13,0.9,0.5
2024-03-08T2100,1048A,114.5302,36.6116,邯郸市,东污水处理厂,颗粒物(PM10),56,62,30,24,12,47,,77,72,31,12,4,4,0.4,0.4
2024-03-08T2100,1049A,114.4918,36.5713,邯郸市,矿院,颗粒物(PM10),53,56,31,18,9,42,,73,69,36,18,5,4,0.3,0.2
2024-03-08T2100,1050A,114.484,36.6133,邯郸市,丛台公园,,48,48,28,23,8,65,,80,79,17,14,6,5,0.5,0.4
2024-03-08T2100,3458A,114.7895,36.5593,邯郸市,香泉濮院小区,颗粒物(PM10),71,92,39,37,13,58,,89,85,21,11,10,7,0.4,0.2
2024-03-08T2100,3579A,114.50634,36.77178,邯郸市,永年区实验高中,,48,48,38,16,14,69,,89,86,25,22,4,6,0.4,0.4
2024-03-08T2100,3580A,114.20016,36.44293,邯郸市,峰峰矿区临水派出所,颗粒物(PM10),53,56,23,30,7,57,,88,82,17,10,8,9,0.3,0.4
2024-03-08T2100,2634A,106.9893,33.1842,汉中市,汉川机床厂子校,颗粒物(PM10),78,106,78,52,31,34,,72,57,43,19,9,6,0.7,0.5
2024-03-08T2100,2635A,107.0154,33.0706,汉中市,市监测站,细颗粒物(PM2.5),105,132,93,79,47,23,,70,58,64,36,12,9,0.9,0.7
2024-03-08T2100,2636A,107.0089,33.1138,汉中市,鑫源开发区,细颗粒物(PM2.5),115,123,99,87,47,31,,71,54,56,43,14,12,0.9,0.7
2024-03-08T2100,2637A,107.007,33.0323,汉中市,南郑大河坎水厂,细颗粒物(PM2.5),115,123,88,87,43,17,,65,49,59,27,11,9,1.0,0.6
2024-03-08T2100,1223A,120.2072,30.2111,杭州市,滨江,细颗粒物(PM2.5),68,81,88,49,52,98,,115,114,38,32,5,5,0.5,0.6
2024-03-08T2100,1224A,120.0633,30.2747,杭州市,西溪,颗粒物(PM10),59,68,73,36,36,92,,117,114,30,35,8,8,0.7,0.7
2024-03-08T2100,1226A,120.3461,30.3153,杭州市,下沙,细颗粒物(PM2.5),72,88,101,52,58,50,,108,100,85,47,6,7,0.6,0.7
2024-03-08T2100,1227A,120.1269,30.2456,杭州市,卧龙桥,颗粒物(PM10),55,60,74,36,47,69,,115,109,28,21,5,6,0.5,0.6
2024-03-08T2100,1228A,120.1903,30.2692,杭州市,浙江农大,细颗粒物(PM2.5),65,77,83,47,51,88,,103,101,37,38,6,6,0.6,0.7
2024-03-08T2100,1230A,120.1197,30.3119,杭州市,和睦小学,细颗粒物(PM2.5),68,78,83,49,54,94,,113,111,40,40,6,6,0.5,0.7
2024-03-08T2100,1231A,120.3019,30.4183,杭州市,临平镇,细颗粒物(PM2.5),84,97,104,62,65,80,,114,109,42,27,5,6,0.6,0.7
2024-03-08T2100,1232A,120.2697,30.1819,杭州市,城厢镇,细颗粒物(PM2.5),68,80,89,49,49,89,,114,112,44,40,8,8,0.6,0.8
2024-03-08T2100,1233A,120.0883,30.1808,杭州市,云栖,颗粒物(PM10),54,58,71,34,44,51,,122,106,32,16,7,8,0.6,0.6
2024-03-08T2100,3557A,119.9464,30.0494,杭州市,镇二中,细颗粒物(PM2.5),60,52,54,43,40,98,,113,111,28,37,7,7,0.5,0.6
2024-03-08T2100,3558A,119.7183,30.2367,杭州市,市府大楼,细颗粒物(PM2.5),67,80,68,48,48,105,,117,116,27,27,6,6,0.6,0.6
2024-03-08T2100,3656A,120.1556,30.2864,杭州市,消防大队,细颗粒物(PM2.5),69,79,84,50,55,103,,121,120,37,39,10,9,0.6,0.7
2024-03-08T2100,1270A,117.1959,31.7848,合肥市,明珠广场,颗粒物(PM10),69,88,99,48,48,74,,106,103,42,34,6,6,0.8,0.7
2024-03-08T2100,1271A,117.3072,31.8764,合肥市,三里街,细颗粒物(PM2.5),79,97,103,58,54,58,,106,102,63,39,8,6,0.6,0.6
2024-03-08T2100,1272A,117.2588,31.8707,合肥市,琥珀山庄,颗粒物(PM10),73,95,92,46,38,73,,112,107,52,39,6,5,0.7,0.7
2024-03-08T2100,1273A,117.1604,31.9052,合肥市,董铺水库,颗粒物(PM10),69,88,107,39,43,71,,100,98,36,26,3,3,0.4,0.4
2024-03-08T2100,1274A,117.25,31.8571,合肥市,长江中路,细颗粒物(PM2.5),87,114,97,64,52,87,,108,107,34,29,7,7,0.9,0.7
2024-03-08T2100,1275A,117.266,31.9436,合肥市,庐阳区,颗粒物(PM10),81,112,107,46,47,56,,102,97,53,29,4,3,0.5,0.5
2024-03-08T2100,1276A,117.336,31.8586,合肥市,瑶海区,细颗粒物(PM2.5),75,92,103,55,49,72,,98,95,46,37,7,6,0.5,0.6
2024-03-08T2100,1277A,117.3027,31.7964,合肥市,包河区,颗粒物(PM10),84,117,105,58,48,8,,94,76,115,56,6,6,0.4,0.4
2024-03-08T2100,1278A,117.2776,31.7385,合肥市,滨湖新区,颗粒物(PM10),73,95,107,46,50,74,,100,99,35,37,5,5,0.5,0.5
2024-03-08T2100,1279A,117.1318,31.8403,合肥市,高新区,颗粒物(PM10),69,88,99,48,46,79,,98,96,40,28,5,5,0.8,0.7
2024-03-08T2100,3464A,117.3803,31.9147,合肥市,高教基地,颗粒物(PM10),66,82,89,37,39,80,,112,104,34,32,4,4,0.5,0.5
2024-03-08T2100,3614A,79.924,37.0877,和田地区,地区环保局,颗粒物(PM10),210,357,330,80,77,80,,96,96,26,19,8,9,0.7,0.7
2024-03-08T2100,3615A,79.9131,37.113,和田地区,市环保局,颗粒物(PM10),189,328,302,63,64,83,,93,92,22,21,7,7,0.7,0.8
2024-03-08T2100,2516A,108.2011,24.715,河池市,东仁乐园,细颗粒物(PM2.5),59,66,59,42,44,31,,54,49,17,15,4,4,0.7,0.7
2024-03-08T2100,2517A,108.0497,24.6947,河池市,市环保站,细颗粒物(PM2.5),62,49,56,44,43,89,,98,97,17,25,11,9,0.7,0.7
2024-03-08T2100,2518A,108.0983,24.6989,河池市,市疾控中心,细颗粒物(PM2.5),60,66,65,43,48,79,,97,95,26,33,12,10,0.8,0.8
2024-03-08T2100,1696A,114.6778,23.7569,河源市,源西,细颗粒物(PM2.5),83,89,32,61,21,20,,97,74,54,17,5,5,1.0,0.7
2024-03-08T2100,1697A,114.6944,23.7586,河源市,东埔,颗粒物(PM10),59,67,37,38,24,34,,101,87,43,11,7,7,1.1,0.7
2024-03-08T2100,1698A,114.6892,23.7233,河源市,老城,,44,44,33,23,22,46,,98,86,22,9,5,6,0.7,0.7
2024-03-08T2100,1718A,115.4208,35.2464,菏泽市,气象局,颗粒物(PM10),70,89,70,35,22,80,,103,101,32,24,6,5,0.5,0.4
2024-03-08T2100,1719A,115.4747,35.2375,菏泽市,市政协,,,,59,30,23,65,,96,91,36,22,6,6,0.5,0.4
2024-03-08T2100,3374A,115.5564,35.0891,菏泽市,定陶老年大学,颗粒物(PM10),90,129,61,53,18,37,,93,83,53,23,6,6,0.7,0.4
2024-03-08T2100,3647A,115.4702,35.2706,菏泽市,菏泽医专,颗粒物(PM10),67,84,63,25,15,72,,100,97,35,22,7,5,0.4,0.3
2024-03-08T2100,2514A,111.5264,24.4172,贺州市,环保小区,细颗粒物(PM2.5),150,144,63,115,53,45,,95,87,34,16,10,8,1.3,0.9
2024-03-08T2100,2515A,111.5608,24.4078,贺州市,政协大楼,,,,59,,41,50,,100,94,30,19,7,9,1.0,0.8
2024-03-08T2100,3534A,111.4744,24.4553,贺州市,西湾,细颗粒物(PM2.5),95,106,64,71,48,26,,98,90,63,15,9,8,1.0,0.8
2024-03-08T2100,2385A,114.17,35.9019,鹤壁市,市监测站,"颗粒物(PM10),细颗粒物(PM2.5)",58,65,63,41,24,61,,84,78,25,19,10,8,0.4,0.3
2024-03-08T2100,2386A,114.2956,35.7511,鹤壁市,市交警支队,颗粒物(PM10),58,65,45,26,16,54,,84,78,32,27,8,6,0.4,0.3
2024-03-08T2100,2387A,114.2878,35.7306,鹤壁市,迎宾馆,颗粒物(PM10),55,59,38,24,12,51,,84,77,40,30,6,4,0.4,0.5
2024-03-08T2100,3474A,114.2617,35.6822,鹤壁市,大新区,颗粒物(PM10),72,94,51,31,17,36,,86,72,53,33,8,7,0.3,0.3
2024-03-08T2100,3596A,114.1572,35.9603,鹤壁市,南山宾馆,颗粒物(PM10),64,78,49,40,22,50,,82,76,34,18,13,11,0.5,0.4
2024-03-08T2100,2244A,130.2537,47.3416,鹤岗市,哈啤分公司,,25,25,23,16,15,70,,74,72,5,6,13,13,0.4,0.3
2024-03-08T2100,2245A,130.2684,47.3086,鹤岗市,斯达机电,,28,26,25,19,18,70,,76,72,9,7,9,10,0.4,0.4
2024-03-08T2100,2246A,130.3114,47.3388,鹤岗市,东山纸板厂,,29,,28,20,16,74,,78,76,2,6,12,14,0.4,0.4
2024-03-08T2100,2247A,130.1097,47.3382,鹤岗市,五号水库,,22,20,21,9,13,70,,86,82,6,6,8,8,0.3,0.4
2024-03-08T2100,2263A,127.4833,50.2524,黑河市,交通局,,40,32,14,28,16,38,,74,61,27,7,10,4,0.6,0.4
2024-03-08T2100,2264A,127.5144,50.2341,黑河市,环保局,,41,41,16,26,16,27,,74,61,41,9,15,5,0.6,0.3
2024-03-08T2100,2265A,127.5291,50.2472,黑河市,大黑河岛,,,42,23,33,14,48,,64,63,,39,4,12,0.7,0.5
2024-03-08T2100,1074A,115.6838,37.7541,衡水市,电机北厂,颗粒物(PM10),52,53,27,20,10,52,,88,84,31,9,2,2,0.3,0.3
2024-03-08T2100,1075A,115.6303,37.7316,衡水市,市监测站,,44,44,36,13,10,56,,83,80,27,16,6,6,0.2,0.2
2024-03-08T2100,3188A,115.6683,37.7217,衡水市,市城管局,,46,46,37,23,11,26,,84,76,64,17,4,3,0.5,0.3
2024-03-08T2100,3459A,115.5989,37.5491,衡水市,地表水厂,,,,36,,10,2,,91,77,,14,,3,0.4,0.3
2024-03-08T2100,2456A,112.5003,26.9167,衡阳市,原169医院,颗粒物(PM10),53,55,50,27,29,93,,118,115,30,25,9,8,0.6,0.7
2024-03-08T2100,2457A,112.6194,26.9258,衡阳市,衡阳化工总厂,颗粒物(PM10),61,72,67,32,52,110,,116,115,16,27,10,9,0.7,0.8
2024-03-08T2100,2458A,112.6211,26.8956,衡阳市,珠晖区环保局,颗粒物(PM10),67,84,66,38,52,98,,116,113,21,31,9,8,0.8,0.9
2024-03-08T2100,2459A,112.6197,26.8733,衡阳市,市委党校,颗粒物(PM10),57,64,71,30,54,111,,125,124,20,30,7,8,0.8,1.1
2024-03-08T2100,2460A,112.6006,26.8919,衡阳市,市监测站,细颗粒物(PM2.5),80,96,78,59,58,108,,124,123,19,30,9,8,0.8,1
2024-03-08T2100,2461A,112.5664,26.9056,衡阳市,真空机电公司,颗粒物(PM10),60,69,59,35,49,102,,115,114,25,31,8,8,0.8,1
2024-03-08T2100,3399A,112.6703,26.882,衡阳市,师范学院,颗粒物(PM10),63,75,78,33,57,108,,121,120,18,27,8,8,0.6,1
2024-03-08T2100,2608A,103.3772,23.3993,红河哈尼族彝族自治州,污水处理厂,细颗粒物(PM2.5),60,,64,43,54,66,,93,75,13,11,5,5,1.0,1
2024-03-08T2100,2609A,103.3861,23.35,红河哈尼族彝族自治州,监测站,细颗粒物(PM2.5),60,68,62,43,54,70,,89,77,11,12,8,8,1.1,1
2024-03-08T2100,3038A,103.3758,23.368,红河哈尼族彝族自治州,州图书馆,细颗粒物(PM2.5),53,,55,37,48,67,,87,74,11,11,5,5,1.0,1
2024-03-08T2100,1090A,111.6507,40.7517,呼和浩特市,呼市一监,颗粒物(PM10),74,97,44,49,20,14,,90,79,72,29,10,9,1.0,0.6
2024-03-08T2100,1091A,111.6572,40.8033,呼和浩特市,小召,颗粒物(PM10),67,83,36,31,13,41,,84,78,54,31,12,10,0.8,0.5
2024-03-08T2100,1094A,111.7516,40.8369,呼和浩特市,如意水处理厂,颗粒物(PM10),53,55,32,25,14,19,,79,69,70,40,11,10,0.6,0.5
2024-03-08T2100,1095A,111.7276,40.8062,呼和浩特市,二十九中,颗粒物(PM10),57,63,34,33,14,32,,80,74,61,37,12,12,0.8,0.5
2024-03-08T2100,1096A,111.5512,40.7866,呼和浩特市,工大金川校区,颗粒物(PM10),86,122,43,26,14,12,,76,63,73,40,7,7,0.6,0.5
2024-03-08T2100,1097A,111.717,40.7612,呼和浩特市,化肥厂生活区,细颗粒物(PM2.5),105,156,43,79,20,45,,81,74,74,32,19,9,1.6,0.5
2024-03-08T2100,3698A,111.5968,40.8178,呼和浩特市,红旗小学,,46,46,31,18,12,46,,77,71,40,26,7,8,0.4,0.4
2024-03-08T2100,3699A,111.6518,40.8389,呼和浩特市,海东办,颗粒物(PM10),74,97,31,28,11,5,,78,68,84,32,10,11,0.8,0.5
2024-03-08T2100,2192A,119.7594,49.2261,呼伦贝尔市,区环保局,,45,36,32,31,25,80,,90,88,20,28,5,5,0.5,0.5
2024-03-08T2100,3061A,119.7512,49.1577,呼伦贝尔市,国华电力东,,36,33,26,25,24,86,,94,93,11,11,4,4,0.3,0.3
2024-03-08T2100,1250A,120.0751,30.8669,湖州市,城西水厂,细颗粒物(PM2.5),69,77,98,50,68,71,,129,123,73,52,5,6,0.6,0.7
2024-03-08T2100,2873A,120.0875,30.8955,湖州市,仁皇山新区,细颗粒物(PM2.5),68,68,98,49,68,87,,126,120,38,40,6,8,0.6,0.8
2024-03-08T2100,2907A,120.1844,30.8596,湖州市,吴兴区站,细颗粒物(PM2.5),78,82,106,57,63,118,,140,138,27,33,6,7,0.6,0.7
2024-03-08T2100,3562A,120.4148,30.8538,湖州市,南浔区站,细颗粒物(PM2.5),74,77,108,54,74,83,,129,122,37,27,7,8,0.7,0.8
2024-03-08T2100,1607A,120.9092,40.7136,葫芦岛市,龙港区,,28,28,44,16,16,78,,85,84,10,14,13,10,0.2,0.3
2024-03-08T2100,1608A,120.8392,40.7514,葫芦岛市,化工街,颗粒物(PM10),58,66,52,31,16,17,,84,70,81,28,19,10,0.9,0.7
2024-03-08T2100,1609A,120.8341,40.7073,葫芦岛市,新区,,46,41,49,32,18,44,,89,79,48,25,17,12,0.5,0.4
2024-03-08T2100,1610A,120.8695,40.7677,葫芦岛市,东城区,细颗粒物(PM2.5),60,47,43,43,16,20,,88,73,74,24,22,10,0.9,0.7
2024-03-08T2100,2482A,109.5981,27.5721,怀化市,林科所,,48,48,41,18,25,111,,110,110,4,4,8,6,0.6,0.7
2024-03-08T2100,2483A,109.9453,27.5444,怀化市,河西地税局,颗粒物(PM10),64,78,63,43,39,72,,94,91,32,22,8,5,0.9,0.8
2024-03-08T2100,2484A,109.9781,27.5342,怀化市,市四医院,颗粒物(PM10),64,77,65,40,40,93,,101,100,22,24,9,9,0.7,0.8
2024-03-08T2100,2485A,109.9972,27.5578,怀化市,监测楼,颗粒物(PM10),65,80,68,43,40,89,,97,96,25,25,11,11,0.8,0.8
2024-03-08T2100,2486A,110.0394,27.583,怀化市,市委党校,颗粒物(PM10),67,83,72,41,43,91,,101,100,20,23,9,11,0.7,0.7
2024-03-08T2100,1210A,119.036,33.5981,淮安市,钵池山,颗粒物(PM10),54,58,97,28,76,63,,94,88,31,24,10,9,0.5,0.7
2024-03-08T2100,1211A,119.007,33.575,淮安市,北京南路,颗粒物(PM10),73,95,103,34,76,36,,100,86,54,29,8,8,0.6,0.8
2024-03-08T2100,1212A,118.989,33.6067,淮安市,市监测站,颗粒物(PM10),52,53,100,29,76,59,,103,86,40,33,7,7,0.5,0.8
2024-03-08T2100,1213A,119.135,33.5039,淮安市,楚州区监测站,颗粒物(PM10),61,71,113,32,84,40,,99,86,51,29,8,8,0.5,0.8
2024-03-08T2100,1214A,119.0186,33.6297,淮安市,淮阴区监测站,颗粒物(PM10),68,85,115,38,80,33,,96,78,63,34,9,7,0.5,0.7
2024-03-08T2100,3426A,118.8755,33.2894,淮安市,新华书店,,49,49,107,17,71,83,,113,105,20,23,8,7,0.6,0.8
2024-03-08T2100,2282A,116.8004,33.975,淮北市,监测站,,40,40,84,13,35,70,,96,93,29,23,6,7,0.5,0.7
2024-03-08T2100,2283A,116.8091,33.9007,淮北市,烈山区政府,颗粒物(PM10),51,51,89,21,44,78,,95,92,19,32,5,6,0.3,0.4
2024-03-08T2100,3330A,116.8873,33.9836,淮北市,杜集区检察院,颗粒物(PM10),57,63,99,30,51,77,,98,95,21,25,8,9,0.4,0.5
2024-03-08T2100,4017A,116.7923,33.9535,淮北市,市博物馆,,44,44,87,14,39,74,,93,90,20,19,6,8,0.5,0.6
2024-03-08T2100,2278A,117.0067,32.6524,淮南市,师范学院,颗粒物(PM10),66,81,133,23,66,69,,101,89,28,41,8,8,0.4,0.7
2024-03-08T2100,2279A,116.8569,32.5951,淮南市,谢家集区政府,颗粒物(PM10),65,80,109,43,64,75,,109,102,21,20,5,8,0.3,0.4
2024-03-08T2100,2280A,116.8281,32.633,淮南市,八公山区政府,颗粒物(PM10),55,60,114,30,59,76,,104,99,20,20,7,7,0.4,0.5
2024-03-08T2100,2281A,116.6325,32.6201,淮南市,焦岗湖风景区管理处,颗粒物(PM10),51,52,89,20,35,23,,93,78,76,47,3,3,0.1,0.2
2024-03-08T2100,2894A,117.0566,32.6531,淮南市,经济技术开发区消防队,细颗粒物(PM2.5),57,60,123,40,65,70,,108,98,25,25,5,6,0.3,0.5
2024-03-08T2100,3329A,117.0108,32.5893,淮南市,山南新区,颗粒物(PM10),58,65,115,19,56,86,,108,103,22,22,4,5,0.4,0.5
2024-03-08T2100,2446A,114.9028,30.4742,黄冈市,职工中心,颗粒物(PM10),71,92,101,34,55,72,,114,106,26,22,9,9,0.5,0.6
2024-03-08T2100,2929A,114.8858,30.4519,黄冈市,红卫路,颗粒物(PM10),68,85,94,35,56,78,,115,107,34,30,7,7,0.3,0.6
2024-03-08T2100,3398A,114.9136,30.4445,黄冈市,市林业局,颗粒物(PM10),71,91,88,40,54,71,,112,106,38,25,7,6,0.3,0.5
2024-03-08T2100,2672A,102.0199,35.5102,黄南藏族自治州,同仁县隆务镇,颗粒物(PM10),77,103,91,40,40,94,,97,97,6,5,13,10,0.5,0.4
2024-03-08T2100,2295A,118.2903,29.6963,黄山市,延安路89号,颗粒物(PM10),76,102,69,50,34,72,,122,112,14,11,5,5,0.6,0.5
2024-03-08T2100,2296A,118.327,29.7178,黄山市,黄山东路89号,"颗粒物(PM10),细颗粒物(PM2.5)",68,86,62,49,34,49,,89,89,22,16,5,5,0.6,0.5
2024-03-08T2100,2297A,118.1371,30.2756,黄山市,黄山区政府5号楼,细颗粒物(PM2.5),63,71,60,45,32,63,,118,107,16,14,4,4,0.5,0.6
2024-03-08T2100,2423A,115.0601,30.2313,黄石市,沈家营,颗粒物(PM10),63,75,90,42,45,50,,124,111,54,25,12,9,1.0,0.8
2024-03-08T2100,2424A,115.0817,30.2006,黄石市,陈家湾,细颗粒物(PM2.5),77,92,98,56,69,123,,105,105,16,28,11,10,0.6,0.8
2024-03-08T2100,2426A,114.8988,30.2019,黄石市,铁山,颗粒物(PM10),74,97,89,32,55,64,,117,105,44,30,7,8,0.5,1
2024-03-08T2100,2427A,115.0307,30.2092,黄石市,团城山,颗粒物(PM10),65,80,94,39,51,115,,122,120,20,20,9,13,0.4,0.7
2024-03-08T2100,3149A,115.0235,30.1578,黄石市,笔架山北路,颗粒物(PM10),59,68,82,38,54,111,,128,125,24,25,10,9,0.6,0.7
2024-03-08T2100,1392A,114.4183,23.0528,惠州市,河南岸金山湖子站,颗粒物(PM10),51,52,32,31,21,100,,99,99,19,12,6,6,0.8,0.7
2024-03-08T2100,1393A,114.4053,23.0822,惠州市,下埔横江三路子站,颗粒物(PM10),54,57,31,35,21,110,,114,114,23,13,7,7,0.7,0.6
2024-03-08T2100,1394A,114.4103,23.1142,惠州市,江北云山西路子站,细颗粒物(PM2.5),60,59,30,43,22,101,,106,106,21,10,9,9,0.9,0.7
2024-03-08T2100,1395A,114.4645,22.7833,惠州市,惠阳区承修路船湖子站,,50,50,33,26,21,119,,111,111,17,14,8,8,0.7,0.6
2024-03-08T2100,1396A,114.5317,22.7422,惠州市,大亚湾管委会子站,,49,49,33,27,22,123,,109,109,20,17,9,8,0.8,0.8
2024-03-08T2100,3314A,114.4338,22.8134,惠州市,惠阳秋长,颗粒物(PM10),58,66,33,8,19,129,,121,121,21,14,8,8,0.8,0.7
2024-03-08T2100,3452A,114.6517,22.775,惠州市,大亚湾霞涌,颗粒物(PM10),51,52,29,34,20,128,,112,112,9,9,8,8,0.4,0.6
2024-03-08T2100,2240A,130.9762,45.3001,鸡西市,环保局,,22,22,52,13,28,59,,77,69,18,15,5,7,0.3,0.3
2024-03-08T2100,2243A,130.9429,45.3039,鸡西市,第一中学,,24,17,40,16,27,74,,91,81,14,17,9,10,0.2,0.3
2024-03-08T2100,3707A,131.0207,45.3073,鸡西市,欧美日汽修厂,,39,31,51,27,34,39,,82,68,36,16,5,5,0.9,0.5
2024-03-08T2100,3709A,130.9967,45.3106,鸡西市,市政设施管理处,,28,22,50,19,32,36,,98,78,40,19,3,4,0.6,0.5
2024-03-08T2100,2367A,114.9754,27.0803,吉安市,红声器材厂,颗粒物(PM10),71,92,68,37,35,107,,121,120,18,21,8,14,0.6,0.7
2024-03-08T2100,2368A,114.9658,27.0999,吉安市,市森林工业局,颗粒物(PM10),62,74,59,33,36,94,,120,117,32,20,15,15,0.4,0.5
2024-03-08T2100,2369A,114.99,27.1312,吉安市,市环境监测站,颗粒物(PM10),63,76,60,26,33,103,,124,122,35,24,11,17,0.4,0.6
2024-03-08T2100,2370A,115.0093,27.0968,吉安市,青原区法院,颗粒物(PM10),64,78,62,34,36,102,,120,118,26,27,14,17,0.7,0.8
2024-03-08T2100,1772A,126.54,43.8622,吉林市,哈达湾,,49,49,30,31,19,45,,86,79,39,12,9,9,0.8,0.6
2024-03-08T2100,1773A,126.5844,43.8358,吉林市,东局子,,46,46,34,28,20,48,,80,72,34,19,7,14,0.8,0.6
2024-03-08T2100,1774A,126.5052,43.8245,吉林市,电力学院,细颗粒物(PM2.5),103,94,32,77,20,44,,88,79,33,12,12,9,1.4,0.6
2024-03-08T2100,1775A,126.6133,43.8972,吉林市,江北,细颗粒物(PM2.5),68,65,37,49,24,62,,88,80,22,14,10,10,1.1,0.6
2024-03-08T2100,1776A,126.555,43.8306,吉林市,江南公园,,41,41,31,26,20,52,,83,76,32,15,9,9,0.7,0.7
2024-03-08T2100,2868A,126.4739,43.953,吉林市,九站,细颗粒物(PM2.5),79,71,39,58,27,52,,84,67,33,26,11,13,0.7,0.6
2024-03-08T2100,1299A,116.9862,36.6114,济南市,科干所,,44,44,37,12,12,43,,86,77,39,22,14,7,0.7,0.5
2024-03-08T2100,1300A,116.9376,36.665,济南市,农科所,颗粒物(PM10),67,83,47,29,19,29,,87,76,57,28,20,7,1.0,0.6
2024-03-08T2100,1301A,117.1265,36.6734,济南市,开发区,颗粒物(PM10),67,83,41,22,14,13,,86,73,79,26,7,6,0.7,0.4
2024-03-08T2100,1303A,117.0624,36.6868,济南市,省种子仓库,颗粒物(PM10),64,78,48,22,16,12,,84,70,80,29,6,6,0.5,0.3
2024-03-08T2100,1304A,116.9489,36.6447,济南市,机床二厂,颗粒物(PM10),63,76,45,29,14,21,,98,84,71,29,17,8,1.2,0.5
2024-03-08T2100,1305A,117.0495,36.663,济南市,市监测站,颗粒物(PM10),58,66,42,32,17,39,,88,76,54,31,10,10,0.7,0.5
2024-03-08T2100,1306A,116.7675,36.5484,济南市,长清党校,,49,49,46,15,16,51,,96,88,40,26,4,5,0.5,0.4
2024-03-08T2100,1616A,117.6795,36.229,济南市,技术学院,颗粒物(PM10),54,58,51,34,30,36,,87,78,60,35,8,8,0.8,0.6
2024-03-08T2100,1961A,117.532,36.6868,济南市,东山小学,,37,37,46,10,19,36,,90,78,45,33,5,6,0.3,0.4
2024-03-08T2100,3059A,117.7161,36.2049,济南市,泰兴公司,颗粒物(PM10),62,73,68,41,46,8,,87,75,79,36,12,9,0.7,0.7
2024-03-08T2100,3064A,117.6867,36.2171,济南市,莱芜战役纪念馆,颗粒物(PM10),63,75,64,36,34,32,,83,74,55,34,9,8,0.7,0.7
2024-03-08T2100,3494A,117.1673,36.9782,济南市,济阳区政府,颗粒物(PM10),56,61,43,29,16,68,,89,85,27,27,7,9,0.5,0.4
2024-03-08T2100,3495A,117.1171,36.63,济南市,锦屏中学,,29,29,34,10,12,60,,88,80,20,18,5,6,0.4,0.4
2024-03-08T2100,3682A,116.9814,36.6819,济南市,济南四建,颗粒物(PM10),54,58,39,27,18,38,,84,72,53,29,11,9,0.6,0.4
2024-03-08T2100,1653A,116.6251,35.4302,济宁市,火炬城,,46,46,50,17,16,56,,81,75,25,19,4,4,0.4,0.4
2024-03-08T2100,1655A,116.5491,35.4042,济宁市,电化厂,,45,45,61,14,16,73,,88,85,20,23,5,4,0.4,0.4
2024-03-08T2100,3500A,116.5814,35.3707,济宁市,北湖一中,,30,30,48,5,17,73,,83,82,17,20,6,6,0.4,0.3
2024-03-08T2100,3501A,116.8249,35.5593,济宁市,服务中心,颗粒物(PM10),53,55,62,29,23,53,,89,81,34,24,7,4,0.5,0.5
2024-03-08T2100,3678A,116.5907,35.4054,济宁市,市第七中学,,46,46,53,19,16,60,,85,80,29,19,3,3,0.6,0.5
2024-03-08T2100,2255A,130.2751,46.8028,佳木斯市,佳纺,,48,42,37,33,26,44,,79,64,40,27,8,6,0.7,0.5
2024-03-08T2100,2256A,130.3995,46.8307,佳木斯市,发电厂,,29,27,30,20,23,48,,88,76,41,16,3,4,0.6,0.4
2024-03-08T2100,2257A,130.3258,46.7975,佳木斯市,环保局,,39,36,34,27,25,23,,79,61,68,28,8,5,0.6,0.5
2024-03-08T2100,2258A,130.3648,46.8032,佳木斯市,十一中,,48,38,31,33,22,39,,80,62,49,23,9,6,0.7,0.5
2024-03-08T2100,2259A,130.3794,46.7588,佳木斯市,四丰,,30,23,30,10,15,93,,95,94,8,14,1,1,0.7,0.4
2024-03-08T2100,1252A,120.7436,30.778,嘉兴市,清河小学,细颗粒物(PM2.5),64,75,102,46,71,76,,107,101,35,28,7,8,0.7,0.9
2024-03-08T2100,1253A,120.726,30.7478,嘉兴市,嘉兴学院,,,74,99,48,64,,,116,,29,29,6,7,0.9,1
2024-03-08T2100,2872A,120.7846,30.7525,嘉兴市,南湖区残联,细颗粒物(PM2.5),65,77,109,47,69,79,,124,115,41,26,6,7,0.6,0.7
2024-03-08T2100,3407A,120.6916,30.7739,嘉兴市,秀洲住建,细颗粒物(PM2.5),69,78,97,50,70,67,,110,102,47,35,7,7,0.6,0.7
2024-03-08T2100,1945A,98.2908,39.7711,嘉峪关市,气象局,颗粒物(PM10),65,80,65,27,22,73,,108,104,27,29,2,4,0.6,0.6
2024-03-08T2100,2884A,98.2672,39.7978,嘉峪关市,酒钢宾馆,颗粒物(PM10),60,70,65,19,20,90,,102,102,16,24,10,10,0.4,0.5
2024-03-08T2100,3248A,98.2643,39.7724,嘉峪关市,雄关区,颗粒物(PM10),58,65,51,29,19,84,,106,105,18,29,5,7,0.4,0.5
2024-03-08T2100,1383A,113.1064,22.6058,江门市,北街,颗粒物(PM10),52,54,43,32,30,68,,126,123,44,40,7,9,0.8,0.7
2024-03-08T2100,1384A,113.0731,22.5835,江门市,西区,颗粒物(PM10),65,80,50,30,27,74,,127,125,36,37,7,8,0.7,0.7
2024-03-08T2100,1385A,113.0219,22.5311,江门市,圭峰西,,50,50,42,31,26,74,,116,114,39,34,7,8,0.9,0.9
2024-03-08T2100,1386A,113.0828,22.5947,江门市,东湖,颗粒物(PM10),55,59,45,34,27,76,,125,123,32,32,7,8,0.7,0.6
2024-03-08T2100,3311A,113.1075,22.5647,江门市,江海富民,颗粒物(PM10),61,71,52,36,28,74,,132,130,36,40,7,8,0.7,0.7
2024-03-08T2100,3449A,113.05,22.4667,江门市,新会银湖,,42,38,44,29,31,74,,131,128,33,37,7,8,0.8,0.8
2024-03-08T2100,1828A,113.227,35.2125,焦作市,市环保局,颗粒物(PM10),70,89,46,39,20,44,,80,75,38,17,16,6,0.5,0.4
2024-03-08T2100,3169A,113.2725,35.2067,焦作市,太极体育中心,颗粒物(PM10),73,96,55,34,15,51,,46,,34,22,7,6,0.7,0.7
2024-03-08T2100,3335A,113.3137,35.2641,焦作市,马村街道办,颗粒物(PM10),78,105,58,34,17,34,,88,78,52,23,9,12,0.7,0.3
2024-03-08T2100,3336A,113.2465,35.2373,焦作市,焦作技师学院,颗粒物(PM10),71,92,42,39,20,36,,85,76,53,20,7,4,0.8,0.5
2024-03-08T2100,3477A,113.1656,35.2539,焦作市,中站许衡医院,,49,49,43,30,21,63,,82,78,28,17,7,8,0.3,0.3
2024-03-08T2100,3981A,113.2449,35.1803,焦作市,原李万街道办,颗粒物(PM10),64,77,45,31,12,51,,85,80,37,20,12,5,0.7,0.6
2024-03-08T2100,1708A,116.3701,23.5345,揭阳市,新兴,细颗粒物(PM2.5),63,70,52,45,38,115,,130,130,26,21,11,12,0.7,0.8
2024-03-08T2100,1709A,116.3264,23.5443,揭阳市,西马,颗粒物(PM10),62,74,50,41,31,132,,143,143,16,16,10,11,0.6,0.7
2024-03-08T2100,1710A,116.3611,23.5626,揭阳市,东兴,颗粒物(PM10),61,72,55,36,31,131,,138,138,14,17,9,12,0.7,0.8
2024-03-08T2100,1711A,116.4151,23.5294,揭阳市,渔湖,颗粒物(PM10),63,75,51,34,23,128,,142,140,20,19,8,11,0.6,0.8
2024-03-08T2100,3320A,116.403,23.5699,揭阳市,曲溪,颗粒物(PM10),65,79,52,44,32,130,,141,141,17,18,14,9,0.7,0.8
2024-03-08T2100,1944A,102.1692,38.5167,金昌市,天庆家园,颗粒物(PM10),73,95,56,35,11,58,,94,89,36,15,8,6,0.9,0.4
2024-03-08T2100,3170A,102.1864,38.5253,金昌市,市委党校,颗粒物(PM10),98,145,72,53,22,49,,101,93,48,12,174,29,1.0,0.7
2024-03-08T2100,4022A,102.1647,38.5371,金昌市,金川区人防中心,颗粒物(PM10),64,78,59,34,17,68,,96,92,21,11,11,11,0.8,0.6
2024-03-08T2100,1262A,119.647,29.077,金华市,十五中,颗粒物(PM10),64,78,84,33,46,96,,126,120,35,44,5,4,0.4,0.6
2024-03-08T2100,1263A,119.686,29.1029,金华市,监测站,颗粒物(PM10),52,54,75,30,43,79,,116,109,42,47,4,4,0.4,0.6
2024-03-08T2100,3659A,119.656,29.1131,金华市,气象局,颗粒物(PM10),69,87,90,35,47,74,,122,113,52,50,6,4,0.9,0.9
2024-03-08T2100,1767A,121.1115,41.0879,锦州市,南山,颗粒物(PM10),52,53,41,29,10,41,,91,80,48,11,19,14,0.5,0.4
2024-03-08T2100,1768A,121.0533,40.8434,锦州市,开发区,细颗粒物(PM2.5),78,102,69,57,24,12,,86,64,88,45,18,18,0.6,0.7
2024-03-08T2100,1769A,121.1836,41.1119,锦州市,百股街道,细颗粒物(PM2.5),77,56,43,56,15,50,,94,82,28,8,55,12,0.8,0.5
2024-03-08T2100,1770A,121.1178,41.1222,锦州市,天安街道,细颗粒物(PM2.5),62,62,42,44,13,52,,88,76,34,9,14,11,0.8,0.6
2024-03-08T2100,1771A,121.1303,41.1386,锦州市,北湖公园,细颗粒物(PM2.5),60,54,34,43,15,53,,88,77,32,8,22,14,0.7,0.4
2024-03-08T2100,2160A,112.85,35.5051,晋城市,自来水公司,颗粒物(PM10),51,51,44,17,14,76,,86,85,28,27,8,11,0.6,0.8
2024-03-08T2100,2161A,112.8318,35.4936,晋城市,白云商贸,颗粒物(PM10),51,52,46,19,9,71,,83,82,33,28,8,9,0.5,0.6
2024-03-08T2100,2162A,112.8508,35.4887,晋城市,市环保局,颗粒物(PM10),60,69,49,19,12,62,,83,82,38,29,7,8,0.6,0.7
2024-03-08T2100,2163A,112.8676,35.4897,晋城市,技术学院,颗粒物(PM10),54,57,45,19,12,75,,83,81,28,32,6,8,0.3,0.4
2024-03-08T2100,3620A,112.8271,35.4828,晋城市,泽州一中,颗粒物(PM10),102,154,49,22,9,,,83,83,36,24,10,11,0.4,0.9
2024-03-08T2100,2171A,112.7532,37.6945,晋中市,锦纶小区,颗粒物(PM10),69,88,42,36,15,23,,89,80,63,24,16,11,0.8,0.7
2024-03-08T2100,2173A,112.7249,37.7067,晋中市,南都小区,颗粒物(PM10),84,118,46,36,21,11,,91,78,83,28,14,11,0.7,0.6
2024-03-08T2100,2174A,112.6991,37.6982,晋中市,榆次区政府,"颗粒物(PM10),细颗粒物(PM2.5)",112,173,42,84,26,12,,93,83,78,28,14,9,1.1,0.6
2024-03-08T2100,2865A,112.7195,37.6828,晋中市,榆次三中,颗粒物(PM10),95,139,49,46,15,15,,91,82,77,26,14,11,0.9,0.6
2024-03-08T2100,2439A,112.2014,31.0481,荆门市,竹园小学,颗粒物(PM10),87,123,132,34,72,92,,114,111,26,25,9,9,0.6,0.8
2024-03-08T2100,2440A,112.1969,30.9891,荆门市,掇刀,颗粒物(PM10),88,125,124,47,76,100,,119,116,23,26,10,10,0.6,0.7
2024-03-08T2100,2441A,112.2213,31.0386,荆门市,石化一小,颗粒物(PM10),79,108,129,47,74,90,,118,116,33,29,16,15,0.7,0.8
2024-03-08T2100,3012A,112.1849,31.0362,荆门市,西山林语,颗粒物(PM10),72,94,114,29,62,89,,116,112,21,21,8,10,0.6,0.7
2024-03-08T2100,3547A,112.1632,31.0138,荆门市,龙泉中学南校,颗粒物(PM10),84,117,126,48,75,83,,116,111,28,22,12,10,0.4,0.6
2024-03-08T2100,1844A,112.2494,30.3197,荆州市,市图书馆,颗粒物(PM10),78,105,96,53,72,68,,110,104,42,28,8,10,0.6,0.8
2024-03-08T2100,1845A,112.2008,30.3544,荆州市,市委党校,细颗粒物(PM2.5),85,99,93,63,71,75,,106,102,38,34,8,8,0.7,0.8
2024-03-08T2100,3194A,112.2747,30.3122,荆州市,管委会,细颗粒物(PM2.5),89,102,93,66,67,65,,116,110,52,34,11,12,0.8,0.9
2024-03-08T2100,3548A,112.1655,30.3364,荆州市,学苑路,,,,97,,79,,,105,105,,30,7,9,0.6,0.8
2024-03-08T2100,2342A,117.3102,29.3867,景德镇市,王港中学,颗粒物(PM10),54,58,40,33,20,48,,125,108,6,2,5,5,0.2,0.2
2024-03-08T2100,2343A,117.2117,29.2933,景德镇市,老干部活动中心,颗粒物(PM10),65,80,58,42,36,42,,108,96,29,18,4,5,0.5,0.5
2024-03-08T2100,2344A,117.1894,29.2789,景德镇市,兽医站,颗粒物(PM10),63,75,62,36,30,64,,117,106,26,21,6,7,0.6,0.6
2024-03-08T2100,2345A,117.1547,29.2617,景德镇市,台达陶瓷,颗粒物(PM10),79,107,68,44,36,9,,110,87,61,27,10,8,0.8,0.6
2024-03-08T2100,2346A,117.2461,29.2956,景德镇市,陶研所,颗粒物(PM10),58,66,47,40,24,48,,108,95,20,18,7,5,0.5,0.6
2024-03-08T2100,1803A,115.9872,29.6815,九江市,十里,颗粒物(PM10),65,80,76,42,44,87,,132,127,35,39,14,11,0.6,0.9
2024-03-08T2100,1804A,115.9584,29.7046,九江市,茅山头,颗粒物(PM10),75,99,68,50,43,71,,116,108,50,40,10,11,0.6,0.8
2024-03-08T2100,1805A,115.9877,29.7295,九江市,西园,颗粒物(PM10),74,98,72,47,48,85,,114,110,39,35,6,8,0.8,0.9
2024-03-08T2100,1806A,116.0172,29.6547,九江市,五七二七厂,颗粒物(PM10),67,83,88,31,51,100,,111,111,18,20,13,11,0.8,0.9
2024-03-08T2100,1808A,115.9114,29.6038,九江市,综合工业园,颗粒物(PM10),67,83,79,36,61,92,,122,118,43,48,13,13,0.8,0.9
2024-03-08T2100,1809A,116.0721,29.7535,九江市,石化总厂,颗粒物(PM10),76,102,85,38,48,85,,113,110,40,45,6,9,0.6,0.9
2024-03-08T2100,1810A,115.9773,29.5698,九江市,庐山气象台,颗粒物(PM10),65,80,68,43,44,120,,120,120,11,11,6,6,1.2,1.1
2024-03-08T2100,3190A,116.0254,29.6994,九江市,外国语学校,颗粒物(PM10),69,87,76,42,47,76,,118,113,40,36,10,12,0.7,1
2024-03-08T2100,2658A,98.5061,39.7443,酒泉市,仓门街子站,颗粒物(PM10),62,73,79,30,29,68,,91,89,33,28,9,8,0.7,0.5
2024-03-08T2100,2659A,98.4989,39.7256,酒泉市,油田生活基地,颗粒物(PM10),58,66,75,34,31,93,,102,101,11,21,7,8,0.4,0.4
2024-03-08T2100,2698A,76.0072,39.4467,喀什地区,巡警大队,颗粒物(PM10),86,121,208,32,42,94,,93,93,21,27,2,3,0.4,0.7
2024-03-08T2100,2699A,75.9755,39.4694,喀什地区,吾办,颗粒物(PM10),88,126,195,38,58,87,,90,90,30,23,4,4,0.5,0.6
2024-03-08T2100,4027A,75.9483,39.4689,喀什地区,老干局,颗粒物(PM10),81,112,192,25,39,102,,102,102,12,11,2,2,0.5,0.6
2024-03-08T2100,1824A,114.3389,34.7781,开封市,肿瘤医院,"颗粒物(PM10),细颗粒物(PM2.5)",68,86,59,49,22,30,,78,71,60,22,6,5,0.6,0.4
2024-03-08T2100,1826A,114.2885,34.7965,开封市,世纪星幼儿园,,,78,54,31,20,59,,89,84,,20,6,6,0.3,0.3
2024-03-08T2100,3147A,114.3438,34.8106,开封市,龙亭公园,颗粒物(PM10),73,96,58,44,17,42,,80,76,46,20,5,5,0.5,0.5
2024-03-08T2100,3210A,114.3644,34.7964,开封市,汴京公园,颗粒物(PM10),76,102,63,43,17,38,,85,78,54,26,3,3,0.3,0.1
2024-03-08T2100,3473A,114.2485,34.8306,开封市,技师学院,颗粒物(PM10),51,52,51,29,16,66,,87,85,25,21,4,4,0.5,0.4
2024-03-08T2100,3592A,114.4644,34.7556,开封市,祥符区生态环境局,颗粒物(PM10),74,97,69,39,20,27,,84,71,66,28,4,5,0.5,0.8
2024-03-08T2100,1951A,84.895,45.6094,克拉玛依市,长征新村,,46,42,62,32,43,95,,96,96,28,33,11,9,0.4,0.6
2024-03-08T2100,1952A,84.8988,45.5893,克拉玛依市,南林小区,,46,44,64,32,46,99,,103,103,27,32,9,7,0.5,0.6
2024-03-08T2100,1954A,84.905,44.3396,克拉玛依市,独山子区,颗粒物(PM10),53,55,38,22,20,103,,111,110,25,19,6,6,0.4,0.4
2024-03-08T2100,1955A,85.6979,46.098,克拉玛依市,乌尔禾区商贸楼,细颗粒物(PM2.5),67,53,54,48,44,101,,103,103,20,24,7,8,0.5,0.7
2024-03-08T2100,3612A,85.1045,45.6899,克拉玛依市,白碱滩区新站,细颗粒物(PM2.5),88,78,74,65,49,111,,105,105,23,30,12,11,0.5,0.7
2024-03-08T2100,2697A,76.1454,39.7142,克孜勒苏柯尔克孜自治州,市人民政府,颗粒物(PM10),85,120,217,43,59,100,,101,101,10,9,5,5,0.3,0.5
2024-03-08T2100,3665A,76.1658,39.7157,克孜勒苏柯尔克孜自治州,克州文化中心,颗粒物(PM10),88,126,225,42,62,86,,93,93,18,7,6,6,0.4,0.4
2024-03-08T2100,1450A,102.8204,24.8886,昆明市,呈贡新区,,46,46,52,14,49,90,,113,105,18,22,6,8,0.6,0.8
2024-03-08T2100,1451A,102.6251,24.9608,昆明市,西山森林公园,,35,30,38,14,25,109,,118,115,6,10,6,9,0.9,1.1
2024-03-08T2100,1452A,102.7252,25.0902,昆明市,龙泉镇,颗粒物(PM10),52,53,49,13,37,78,,113,101,21,22,9,10,0.3,0.5
2024-03-08T2100,1453A,102.7266,25.0375,昆明市,东风东路,,29,26,57,20,40,83,,111,101,28,22,7,9,0.6,0.7
2024-03-08T2100,1454A,102.6742,25.0669,昆明市,金鼎山,,,37,55,8,39,80,,109,100,,22,6,4,,0.6
2024-03-08T2100,1455A,102.6644,25.0401,昆明市,碧鸡广场,,32,32,54,20,38,72,,115,104,36,22,9,10,0.7,0.7
2024-03-08T2100,3179A,102.7494,25.0119,昆明市,官渡区博物馆,,28,28,57,18,40,83,,109,99,25,22,9,9,0.6,0.8
2024-03-08T2100,3375A,102.8017,24.8336,昆明市,青年创业园,,34,26,51,16,34,107,,124,118,7,23,8,12,0.5,0.7
2024-03-08T2100,3550A,102.7997,24.9786,昆明市,昆明学院,,30,25,60,14,41,93,,106,99,12,24,9,10,0.4,0.7
2024-03-08T2100,3551A,102.5967,24.6736,昆明市,晋宁区生态环境分局,颗粒物(PM10),52,54,55,22,35,96,,120,112,12,14,9,6,0.5,0.7
2024-03-08T2100,3552A,102.6678,24.9856,昆明市,云天化总部,,34,19,48,11,34,108,,119,114,8,15,8,8,0.4,0.6
2024-03-08T2100,1456A,91.1319,29.6514,拉萨市,八廓街,,30,15,13,9,8,96,,102,101,14,10,8,7,0.4,0.4
2024-03-08T2100,1457A,91.1221,29.6747,拉萨市,市环保局,,28,20,15,18,9,89,,102,100,16,11,8,6,0.7,0.4
2024-03-08T2100,1458A,91.0874,29.6475,拉萨市,区监测站,,29,11,12,6,7,92,,104,101,14,6,5,5,0.2,0.2
2024-03-08T2100,1459A,91.1774,29.6541,拉萨市,西藏大学,,31,12,11,7,7,99,,101,101,6,5,12,8,0.3,0.2
2024-03-08T2100,1460A,90.9798,29.6588,拉萨市,区辐射站,,28,17,17,6,9,88,,101,100,17,12,5,5,0.3,0.3
2024-03-08T2100,1461A,91.0834,29.6292,拉萨市,拉萨火车站,,32,12,16,10,8,100,,106,102,7,4,3,3,0.2,0.2
2024-03-08T2100,2520A,109.2203,23.7256,来宾市,来宾技工学校,细颗粒物(PM2.5),139,118,72,106,51,69,,103,100,31,21,14,10,1.1,0.9
2024-03-08T2100,3535A,109.1781,23.7297,来宾市,兴宾区政府,细颗粒物(PM2.5),172,163,75,130,59,73,,108,104,36,23,25,8,1.1,0.8
2024-03-08T2100,4002A,109.2416,23.7461,来宾市,中南小学,细颗粒物(PM2.5),148,149,75,113,55,69,,104,100,41,25,11,7,1.3,1
2024-03-08T2100,1476A,103.631,36.1031,兰州市,兰炼宾馆,颗粒物(PM10),78,105,169,49,55,49,,112,105,67,42,9,20,0.7,0.6
2024-03-08T2100,1478A,103.8412,36.0726,兰州市,生物制品所,颗粒物(PM10),76,102,171,47,54,69,,98,96,35,47,8,12,0.5,0.8
2024-03-08T2100,1479A,103.831,36.0464,兰州市,铁路设计院,细颗粒物(PM2.5),94,136,161,70,59,9,,93,84,120,55,9,12,1.2,1
2024-03-08T2100,3186A,103.7158,36.1058,兰州市,教育港,颗粒物(PM10),66,82,165,40,47,71,,108,106,50,42,9,15,0.5,0.7
2024-03-08T2100,3241A,103.7439,36.0842,兰州市,百合公园,颗粒物(PM10),81,111,165,35,47,47,,94,89,68,50,5,11,0.6,0.9
2024-03-08T2100,3242A,103.9611,35.998,兰州市,和平,颗粒物(PM10),111,172,174,72,63,63,,97,93,41,33,12,12,0.8,0.6
2024-03-08T2100,3245A,103.6633,36.533,兰州新区,新区管委会,颗粒物(PM10),52,53,130,32,48,82,,105,103,21,18,4,12,1.0,0.7
2024-03-08T2100,3246A,103.6975,36.4789,兰州新区,舟曲中学,颗粒物(PM10),83,115,185,29,49,87,,95,95,17,22,29,41,0.5,0.6
2024-03-08T2100,1067A,116.6708,39.5111,廊坊市,药材公司,颗粒物(PM10),61,72,34,24,11,57,,81,76,30,16,2,3,0.5,0.3
2024-03-08T2100,1068A,116.7214,39.5589,廊坊市,开发区,,48,48,22,18,7,53,,75,70,32,15,2,1,0.4,0.2
2024-03-08T2100,1070A,116.7244,39.5269,廊坊市,北华航天学院,颗粒物(PM10),53,56,23,16,5,62,,80,76,26,14,16,3,0.4,0.3
2024-03-08T2100,2919A,116.7022,39.5453,廊坊市,河北工业大学,,,54,24,27,10,54,,80,76,29,12,,1,,0.3
2024-03-08T2100,2535A,103.7723,29.5462,乐山市,花湖湾,细颗粒物(PM2.5),94,119,91,70,49,82,,85,85,14,21,4,5,0.5,0.5
2024-03-08T2100,2536A,103.7627,29.5844,乐山市,牛耳桥,细颗粒物(PM2.5),74,90,82,54,48,62,,87,87,38,36,5,5,0.7,0.7
2024-03-08T2100,2537A,103.7508,29.6006,乐山市,市第三水厂,颗粒物(PM10),71,92,85,50,47,68,,91,91,37,36,4,4,0.9,0.8
2024-03-08T2100,2538A,103.7571,29.5664,乐山市,市监测站,细颗粒物(PM2.5),70,84,83,51,46,75,,88,88,26,26,5,6,0.7,0.7
2024-03-08T2100,3361A,103.7311,29.5628,乐山市,理工大学,细颗粒物(PM2.5),80,97,82,59,48,71,,93,93,27,27,8,7,0.7,0.7
2024-03-08T2100,2600A,100.2203,26.8906,丽江市,市中心,,26,,19,6,11,82,,101,96,17,12,4,5,0.5,0.4
2024-03-08T2100,1267A,119.914,28.4514,丽水市,监测站大楼,颗粒物(PM10),64,78,64,35,36,84,,129,123,31,23,4,5,0.5,0.5
2024-03-08T2100,1268A,119.93,28.4586,丽水市,莲都小学,颗粒物(PM10),57,64,67,26,37,98,,135,129,25,27,4,4,0.4,0.5
2024-03-08T2100,1269A,119.879,28.4231,丽水市,余庄前,颗粒物(PM10),56,62,61,29,37,59,,126,113,17,16,4,5,0.4,0.5
2024-03-08T2100,1173A,119.176,34.5885,连云港市,市环境监测站,颗粒物(PM10),63,75,78,41,61,76,,81,81,29,36,6,7,0.8,0.9
2024-03-08T2100,3000A,119.3581,34.6972,连云港市,德源药业,细颗粒物(PM2.5),58,63,80,41,59,62,,80,79,41,36,8,6,0.6,0.8
2024-03-08T2100,3007A,119.178,34.844,连云港市,新城一中,细颗粒物(PM2.5),69,72,97,50,69,91,,92,92,32,36,9,10,0.8,1
2024-03-08T2100,3008A,119.3608,34.7519,连云港市,胡沟管理处,颗粒物(PM10),84,117,78,46,55,16,,80,70,99,34,19,11,0.6,0.9
2024-03-08T2100,3009A,119.1478,34.5911,连云港市,矿山设计院,颗粒物(PM10),63,75,81,36,55,76,,80,80,25,33,4,4,0.6,0.8
2024-03-08T2100,3434A,119.2413,34.6539,连云港市,工贸学校,颗粒物(PM10),51,52,78,32,62,75,,90,89,25,29,11,9,0.8,0.8
2024-03-08T2100,3664A,119.4172,34.7341,连云港市,连云街道,细颗粒物(PM2.5),64,76,85,46,59,96,,93,93,14,25,11,7,0.6,0.9
2024-03-08T2100,2571A,102.3431,27.8099,凉山彝族自治州,青龙寺,,29,20,19,6,5,91,,115,114,4,6,4,5,0.6,1.1
2024-03-08T2100,2572A,102.2721,27.8415,凉山彝族自治州,邛海宾馆,,27,27,20,12,11,86,,112,111,14,11,17,10,0.8,0.9
2024-03-08T2100,2573A,102.2625,27.898,凉山彝族自治州,西昌市政府,,30,30,21,20,15,87,,109,108,12,8,9,9,0.7,0.7
2024-03-08T2100,2574A,102.2685,27.8851,凉山彝族自治州,凉山州政府,,28,24,21,18,12,89,,107,106,11,9,9,7,0.9,0.9
2024-03-08T2100,2575A,102.237,27.8914,凉山彝族自治州,长安,,33,24,23,23,13,90,,113,112,15,11,8,16,0.6,0.8
2024-03-08T2100,2212A,123.2,41.1953,辽阳市,宏伟区,,42,42,60,28,28,57,,83,76,20,13,13,11,0.5,0.5
2024-03-08T2100,2213A,123.1683,41.2495,辽阳市,新华园,细颗粒物(PM2.5),57,59,66,40,33,55,,87,79,24,16,17,16,0.8,0.7
2024-03-08T2100,2214A,123.2354,41.2639,辽阳市,滨河路,细颗粒物(PM2.5),84,73,60,62,32,52,,80,71,23,11,17,8,0.7,0.5
2024-03-08T2100,2215A,123.149,41.2991,辽阳市,铁西工业园,细颗粒物(PM2.5),113,91,63,85,29,33,,88,74,45,18,15,12,0.8,0.5
2024-03-08T2100,2227A,125.1358,42.8845,辽源市,环保局,,25,25,31,17,21,60,,81,79,17,17,9,12,0.6,0.7
2024-03-08T2100,3239A,125.0764,42.9078,辽源市,银鹰制药,,30,24,32,21,21,50,,79,74,20,18,7,10,0.6,0.5
2024-03-08T2100,1625A,115.9848,36.4372,聊城市,区政府,,30,30,31,16,7,60,,89,82,32,15,3,3,0.6,0.5
2024-03-08T2100,2878A,116.0072,36.4343,聊城市,聊大东校,,39,39,29,14,11,60,,96,89,40,16,6,5,0.5,0.4
2024-03-08T2100,3200A,115.9819,36.4978,聊城市,监控中心,颗粒物(PM10),57,64,44,19,7,41,,96,82,54,19,7,5,0.6,0.4
2024-03-08T2100,3513A,116.0445,36.4361,聊城市,九州社区,颗粒物(PM10),55,59,47,18,7,55,,92,83,32,16,6,6,0.5,0.5
2024-03-08T2100,4018A,116.0567,36.4608,聊城市,星美广场,颗粒物(PM10),62,74,50,31,11,53,,91,80,37,19,7,6,0.7,0.5
2024-03-08T2100,2632A,94.3681,29.6376,林芝市,林芝监测站,,35,9,10,6,6,111,,112,110,3,3,5,5,0.5,0.5
2024-03-08T2100,2633A,94.3616,29.6616,林芝市,林芝人民医院,,33,11,17,8,10,105,,108,101,7,6,5,5,0.5,0.5
2024-03-08T2100,2603A,100.0781,23.8982,临沧市,市环保局,细颗粒物(PM2.5),94,,28,70,24,81,,99,94,17,13,9,10,0.7,0.4
2024-03-08T2100,2604A,100.0894,23.8822,临沧市,市气象局,,42,42,34,28,28,73,,98,92,19,13,4,8,0.5,0.4
2024-03-08T2100,1733A,111.5531,36.0783,临汾市,临钢医院,颗粒物(PM10),74,98,43,41,13,24,,93,84,56,26,6,8,0.8,0.6
2024-03-08T2100,1734A,111.5028,36.0714,临汾市,技工学校,颗粒物(PM10),58,66,48,36,17,68,,98,94,32,24,10,7,0.5,0.7
2024-03-08T2100,1736A,111.5018,36.0855,临汾市,市委,颗粒物(PM10),61,72,50,30,12,60,,99,93,39,24,8,5,0.6,0.4
2024-03-08T2100,3018A,111.505,36.1014,临汾市,唐尧大酒店,颗粒物(PM10),69,87,51,35,14,56,,97,91,38,23,10,7,0.6,0.4
2024-03-08T2100,3668A,111.5036,36.0414,临汾市,城南,颗粒物(PM10),69,88,40,34,17,37,,97,90,48,27,8,7,0.5,0.4
2024-03-08T2100,2667A,103.2069,35.5993,临夏回族自治州,环保局,颗粒物(PM10),116,181,174,61,62,60,,99,94,30,29,10,7,1.0,1.2
2024-03-08T2100,2668A,103.2417,35.6057,临夏回族自治州,建设大厦,颗粒物(PM10),118,186,149,87,54,47,,105,98,42,22,5,4,0.9,0.8
2024-03-08T2100,1618A,118.3429,35.0532,临沂市,沂河小区,,46,46,71,26,47,57,,84,77,33,33,6,7,0.7,0.7
2024-03-08T2100,1619A,118.295,35.0583,临沂市,鲁南制药厂,颗粒物(PM10),64,78,81,25,43,17,,89,78,81,43,9,7,0.7,0.5
2024-03-08T2100,1620A,118.2794,34.9976,临沂市,新光毛纺厂,颗粒物(PM10),84,117,87,34,44,12,,88,75,92,47,9,7,1.0,0.9
2024-03-08T2100,1621A,118.3956,35.0888,临沂市,河东保险公司,,,70,63,30,39,,,83,79,65,32,6,5,0.7,0.7
2024-03-08T2100,3370A,118.3564,35.0215,临沂市,十里堡居委,颗粒物(PM10),63,75,67,29,36,33,,87,77,50,34,5,5,0.8,0.7
2024-03-08T2100,3496A,118.3604,35.1084,临沂市,南坊新区,颗粒物(PM10),52,53,66,24,39,45,,83,77,45,32,8,9,0.7,0.6
2024-03-08T2100,3860A,118.3920,35.0300,临沂市,皇山花园小区,颗粒物(PM10),71,92,67,39,40,26,,86,73,62,28,11,8,0.9,0.8
2024-03-08T2100,1870A,109.4856,24.3895,柳州市,柳东小学,细颗粒物(PM2.5),123,105,45,93,38,65,,97,91,43,19,26,10,0.9,0.6
2024-03-08T2100,1871A,109.4157,24.3277,柳州市,环保监测站,细颗粒物(PM2.5),99,102,47,74,35,58,,97,90,36,15,17,9,1.0,0.8
2024-03-08T2100,1872A,109.389,24.341,柳州市,河西水厂,细颗粒物(PM2.5),110,116,52,83,39,52,,97,88,40,14,15,9,1.2,0.8
2024-03-08T2100,1873A,109.4311,24.2921,柳州市,市四中,"颗粒物(PM10),细颗粒物(PM2.5)",64,78,46,46,27,65,,98,92,36,16,12,7,1.0,0.7
2024-03-08T2100,1874A,109.4006,24.3631,柳州市,市九中,细颗粒物(PM2.5),127,148,56,96,38,52,,90,83,47,18,19,9,1.0,0.6
2024-03-08T2100,1875A,109.4958,24.3134,柳州市,古亭山,细颗粒物(PM2.5),52,46,34,36,25,60,,98,87,19,14,7,7,1.0,0.8
2024-03-08T2100,3402A,109.5422,24.3996,柳州市,市二中,细颗粒物(PM2.5),88,81,40,65,30,65,,98,92,33,17,14,8,1.0,0.8
2024-03-08T2100,2307A,116.5079,31.737,六安市,监测大楼,细颗粒物(PM2.5),74,85,101,54,52,89,,116,113,27,24,6,5,0.6,0.6
2024-03-08T2100,2308A,116.4738,31.7643,六安市,皖西学院,,,96,102,44,48,76,,116,110,42,25,4,4,,0.6
2024-03-08T2100,2309A,116.4996,31.7905,六安市,朝阳厂,颗粒物(PM10),65,80,96,43,55,81,,112,108,31,20,4,5,0.6,0.6
2024-03-08T2100,2310A,116.5567,31.7886,六安市,开发区,颗粒物(PM10),73,96,115,51,52,73,,109,103,28,30,4,4,0.5,0.6
2024-03-08T2100,2577A,104.83,26.5917,六盘水市,黄土坡,细颗粒物(PM2.5),68,,28,49,23,58,,59,59,19,17,7,8,1.1,1
2024-03-08T2100,2578A,104.89,26.5939,六盘水市,水钢,细颗粒物(PM2.5),64,46,30,46,25,67,,70,70,12,12,6,6,1.1,0.9
2024-03-08T2100,2579A,104.8475,26.5894,六盘水市,民中,细颗粒物(PM2.5),62,47,26,44,21,57,,62,62,18,15,6,7,1.2,1
2024-03-08T2100,2580A,104.9544,26.5506,六盘水市,双水,细颗粒物(PM2.5),59,44,31,42,25,79,,79,79,14,13,6,6,0.7,0.7
2024-03-08T2100,2336A,117.0217,25.1033,龙岩市,龙岩市监测站,,48,48,29,33,21,83,,103,100,16,12,12,7,0.6,0.6
2024-03-08T2100,2337A,117.0258,25.0661,龙岩市,闽西职业技术学院,颗粒物(PM10),57,63,26,28,16,52,,105,95,31,11,10,6,0.7,0.6
2024-03-08T2100,2338A,117.0196,25.0306,龙岩市,龙岩学院,,40,36,25,28,15,58,,96,91,12,9,4,6,0.7,0.7
2024-03-08T2100,2885A,104.9339,33.3826,陇南市,滨江中学,颗粒物(PM10),75,99,101,33,30,79,,95,91,10,20,4,8,0.6,0.8
2024-03-08T2100,3247A,104.955,33.371,陇南市,市总工会,颗粒物(PM10),63,75,76,29,26,86,,98,95,11,14,4,6,0.6,0.6
2024-03-08T2100,2487A,111.9589,27.8901,娄底市,电视发射台,"颗粒物(PM10),细颗粒物(PM2.5)",74,97,65,54,40,121,,122,122,15,12,6,5,0.6,0.5
2024-03-08T2100,2488A,111.9975,27.725,娄底市,市监测站,细颗粒物(PM2.5),87,104,83,64,58,115,,126,126,27,32,5,7,0.6,0.9
2024-03-08T2100,2489A,112.0194,27.7314,娄底市,市委党校,细颗粒物(PM2.5),75,96,78,55,57,106,,111,111,18,27,5,5,0.6,0.7
2024-03-08T2100,2490A,111.9561,27.7569,娄底市,涟钢,细颗粒物(PM2.5),89,111,84,66,56,97,,105,104,31,27,10,8,2.4,1.1
2024-03-08T2100,2491A,111.9892,27.7044,娄底市,市政府,细颗粒物(PM2.5),84,104,78,62,56,108,,112,112,19,21,6,5,0.6,0.7
2024-03-08T2100,1893A,105.4324,28.9634,泸州市,九狮山,细颗粒物(PM2.5),104,116,69,78,41,46,,91,87,37,22,7,6,0.5,0.2
2024-03-08T2100,1894A,105.4427,28.9063,泸州市,小市上码头,细颗粒物(PM2.5),105,108,68,79,50,30,,78,73,45,22,6,12,0.8,0.6
2024-03-08T2100,1895A,105.4241,28.8573,泸州市,兰田宪桥,细颗粒物(PM2.5),102,97,67,76,52,54,,73,72,27,22,5,6,0.6,0.6
2024-03-08T2100,1896A,105.4379,28.8833,泸州市,市环监站,细颗粒物(PM2.5),102,96,65,76,52,29,,74,70,52,27,6,9,0.7,0.5
2024-03-08T2100,3490A,105.3617,28.7703,泸州市,纳溪区环保局,细颗粒物(PM2.5),92,84,70,68,49,59,,54,53,26,30,2,3,0.7,0.7
2024-03-08T2100,2183A,111.1406,37.5211,吕梁市,环保局,颗粒物(PM10),109,167,60,21,13,6,,79,61,70,39,3,3,0.5,0.4
2024-03-08T2100,2185A,111.1297,37.5136,吕梁市,自来水公司,颗粒物(PM10),54,58,53,25,16,40,,78,71,40,31,7,8,0.5,0.4
2024-03-08T2100,2867A,111.1283,37.51,吕梁市,马茂庄小学,颗粒物(PM10),85,120,64,18,15,5,,80,64,74,40,2,3,0.7,0.5
2024-03-08T2100,1812A,112.3931,34.6516,洛阳市,市委党校,颗粒物(PM10),64,78,73,39,30,56,,78,77,42,41,11,12,0.6,0.6
2024-03-08T2100,1814A,112.4657,34.6871,洛阳市,豫西宾馆,颗粒物(PM10),71,92,77,35,27,38,,84,78,57,38,8,11,0.2,0.2
2024-03-08T2100,1815A,112.494,34.6886,洛阳市,河南林校,颗粒物(PM10),66,81,92,43,28,42,,84,76,48,42,8,8,0.3,0.3
2024-03-08T2100,1816A,112.3844,34.623,洛阳市,开发区管委会,细颗粒物(PM2.5),75,91,70,55,29,62,,86,84,29,26,8,8,0.6,0.5
2024-03-08T2100,1817A,112.4267,34.6258,洛阳市,市委新办公区,颗粒物(PM10),69,88,76,49,30,54,,76,74,40,34,8,8,0.5,0.4
2024-03-08T2100,3340A,112.6005,34.6326,洛阳市,伊滨,颗粒物(PM10),73,95,71,48,24,54,,83,80,40,33,11,5,0.5,0.4
2024-03-08T2100,3341A,112.4951,34.6332,洛阳市,中移产业园,颗粒物(PM10),68,85,70,44,25,48,,81,77,44,32,10,8,0.4,0.4
2024-03-08T2100,3593A,112.5736,34.8993,洛阳市,吉利监测站,颗粒物(PM10),65,79,50,30,12,42,,87,78,47,31,8,7,0.4,0.3
2024-03-08T2100,3635A,112.3677,34.662,洛阳市,河科大西苑校区,颗粒物(PM10),65,80,82,34,36,54,,81,79,37,38,5,8,0.4,0.4
2024-03-08T2100,3636A,112.4388,34.6781,洛阳市,英才小学,颗粒物(PM10),59,68,67,30,25,43,,82,77,52,40,6,7,0.4,0.4
2024-03-08T2100,2399A,114.051,33.5699,漯河市,三五一五工厂,颗粒物(PM10),75,100,81,37,26,74,,100,98,34,23,9,10,0.3,0.3
2024-03-08T2100,2400A,114.0055,33.5698,漯河市,漯河大学,颗粒物(PM10),76,101,75,46,28,41,,99,91,72,24,8,7,0.5,0.3
2024-03-08T2100,2401A,114.0138,33.5828,漯河市,市水利局,颗粒物(PM10),76,102,85,41,28,78,,102,100,30,21,6,7,0.4,0.3
2024-03-08T2100,2402A,114.0261,33.5698,漯河市,市广电局,,,,76,,26,83,,104,102,,18,,4,0.5,0.5
2024-03-08T2100,3478A,113.9749,33.5664,漯河市,市图书馆,颗粒物(PM10),70,90,72,34,25,73,,106,104,33,19,7,8,0.5,0.4
2024-03-08T2100,3479A,114.0967,33.5906,漯河市,召陵区卫健委,颗粒物(PM10),69,87,76,32,26,70,,101,97,35,26,4,5,0.4,0.3
2024-03-08T2100,1798A,118.5092,31.6837,马鞍山市,湖东路四小,颗粒物(PM10),65,80,95,33,47,81,,112,108,42,30,6,10,0.6,0.9
2024-03-08T2100,1799A,118.5024,31.6449,马鞍山市,开发区,颗粒物(PM10),60,70,83,37,55,74,,115,110,44,33,8,7,0.8,0.8
2024-03-08T2100,1800A,118.5228,31.7231,马鞍山市,慈湖,颗粒物(PM10),76,102,99,53,74,17,,112,94,101,47,9,11,1.0,1.2
2024-03-08T2100,1802A,118.6245,31.7241,马鞍山市,濮塘,颗粒物(PM10),54,58,86,30,42,80,,107,105,17,16,4,5,0.5,0.6
2024-03-08T2100,3633A,118.4918,31.6809,马鞍山市,雨山,颗粒物(PM10),63,75,91,33,49,78,,115,112,43,32,14,18,0.6,0.9
2024-03-08T2100,1686A,111.0286,21.4688,茂名市,电白南海,,46,46,54,27,27,98,,90,90,18,19,7,9,0.6,1
2024-03-08T2100,1687A,110.9294,21.6533,茂名市,茂石化七小,"颗粒物(PM10),细颗粒物(PM2.5)",58,66,43,41,33,83,,78,78,26,20,9,8,0.8,0.8
2024-03-08T2100,1688A,110.9107,21.6687,茂名市,健康路,细颗粒物(PM2.5),58,53,39,41,34,79,,80,80,26,19,10,11,0.8,0.8
2024-03-08T2100,1689A,110.8592,21.6828,茂名市,高岭,颗粒物(PM10),69,88,57,48,45,67,,64,64,30,27,11,18,0.8,0.9
2024-03-08T2100,3450A,111.01,21.5165,茂名市,电白水东,,39,36,36,27,28,97,,87,87,19,17,10,8,0.6,0.8
2024-03-08T2100,2539A,104.0308,30.0478,眉山市,黑龙滩水库,细颗粒物(PM2.5),69,86,70,50,36,63,,90,88,14,9,5,6,0.5,0.4
2024-03-08T2100,2540A,103.8416,30.0874,眉山市,气象局,细颗粒物(PM2.5),89,115,106,66,58,65,,88,88,25,42,10,9,0.6,0.7
2024-03-08T2100,3137A,103.8578,30.0744,眉山市,市委党校,细颗粒物(PM2.5),79,97,106,58,58,66,,84,84,27,40,10,10,0.5,0.5
2024-03-08T2100,3148A,103.8291,30.0564,眉山市,区人社局,细颗粒物(PM2.5),83,86,88,61,64,69,,86,86,28,41,14,13,0.6,0.6
2024-03-08T2100,1690A,116.1231,24.3284,梅州市,梅江月梅,细颗粒物(PM2.5),62,,24,44,18,38,,101,95,49,13,11,10,0.7,0.6
2024-03-08T2100,1691A,116.0797,24.2719,梅州市,梅县新城,细颗粒物(PM2.5),124,,29,94,24,20,,101,87,60,17,7,6,1.2,0.7
2024-03-08T2100,1692A,116.1248,24.2654,梅州市,环境监控中心,细颗粒物(PM2.5),54,53,28,38,21,45,,94,86,46,21,6,6,0.9,0.7
2024-03-08T2100,3315A,116.1233,24.2991,梅州市,梅龙,颗粒物(PM10),54,58,26,37,20,55,,101,96,30,14,12,8,0.9,0.7
2024-03-08T2100,1878A,104.7778,31.4741,绵阳市,富乐山,细颗粒物(PM2.5),74,69,75,54,46,64,,68,68,12,23,8,9,0.8,0.7
2024-03-08T2100,1879A,104.7563,31.4535,绵阳市,市人大,细颗粒物(PM2.5),80,88,100,59,52,48,,52,52,29,45,6,10,0.8,0.8
2024-03-08T2100,1880A,104.6697,31.4668,绵阳市,高新区自来水公司,细颗粒物(PM2.5),88,97,111,65,62,33,,52,51,44,51,8,10,0.8,0.7
2024-03-08T2100,1881A,104.7287,31.5075,绵阳市,三水厂,细颗粒物(PM2.5),83,78,103,61,55,56,,58,58,22,46,11,11,0.8,0.8
2024-03-08T2100,3491A,104.69,31.5322,绵阳市,西科大附属小学,细颗粒物(PM2.5),83,95,107,61,54,8,,52,48,70,52,7,7,0.9,0.8
2024-03-08T2100,3492A,104.5648,31.5343,绵阳市,安州区旅游局,细颗粒物(PM2.5),92,98,98,68,53,46,,57,57,32,36,10,9,0.9,0.8
2024-03-08T2100,1784A,129.61,44.561,牡丹江市,环保大楼,,40,,37,28,28,85,,90,85,11,19,6,8,0.4,0.5
2024-03-08T2100,1785A,129.6115,44.5782,牡丹江市,文化广场,,43,,42,30,35,69,,80,77,19,22,7,10,0.4,0.6
2024-03-08T2100,1786A,129.5904,44.5963,牡丹江市,第一医院,,38,,42,26,38,80,,85,84,8,17,10,11,0.4,0.6
2024-03-08T2100,1787A,129.6364,44.6075,牡丹江市,机车工厂,,36,32,42,25,29,75,,89,86,9,17,9,10,0.3,0.4
2024-03-08T2100,1788A,129.6386,44.5462,牡丹江市,第一中学,,33,32,27,23,25,82,,87,84,8,15,8,9,0.4,0.5
2024-03-08T2100,2531A,105.0703,29.61,内江市,市监测站,细颗粒物(PM2.5),102,77,78,76,63,62,,71,71,21,29,8,9,0.6,0.6
2024-03-08T2100,2532A,105.0717,29.5947,内江市,东兴区政府,细颗粒物(PM2.5),79,100,75,58,52,57,,67,66,24,26,10,10,0.5,0.5
2024-03-08T2100,2533A,105.0653,29.5817,内江市,内江二中,细颗粒物(PM2.5),100,88,73,75,62,62,,74,74,25,28,7,7,0.8,0.8
2024-03-08T2100,2534A,105.0406,29.5822,内江市,内江日报社,细颗粒物(PM2.5),83,84,69,61,52,65,,74,73,23,29,9,9,0.8,0.8
2024-03-08T2100,2628A,92.0657,31.4846,那曲市,那曲监测站,,27,20,33,8,22,86,,92,91,6,9,6,8,0.5,0.8
2024-03-08T2100,3128A,92.0506,31.4797,那曲市,那曲会议中心,,30,16,37,5,15,94,,96,96,5,10,6,7,0.3,0.6
2024-03-08T2100,1290A,115.8931,28.6843,南昌市,省外办,细颗粒物(PM2.5),98,142,95,73,56,18,,107,98,76,36,6,6,1.0,0.9
2024-03-08T2100,1291A,115.8886,28.7003,南昌市,省林业公司,颗粒物(PM10),95,139,87,48,45,31,,112,101,87,42,5,6,0.7,0.7
2024-03-08T2100,1292A,115.8126,28.7442,南昌市,林科所,颗粒物(PM10),67,83,74,39,38,96,,122,116,28,42,8,8,0.6,0.7
2024-03-08T2100,1294A,115.8518,28.687,南昌市,建工学校,颗粒物(PM10),74,97,82,42,39,90,,115,112,36,39,6,5,0.7,0.8
2024-03-08T2100,1295A,115.8921,28.6424,南昌市,象湖,颗粒物(PM10),75,100,83,54,52,66,,124,116,56,41,6,6,0.7,0.8
2024-03-08T2100,1296A,115.7423,28.7996,南昌市,武术学校,,36,36,30,9,28,77,,123,112,9,5,9,7,0.3,0.3
2024-03-08T2100,1298A,115.9314,28.6842,南昌市,省站,细颗粒物(PM2.5),94,133,100,70,58,38,,121,109,70,35,10,9,1.0,0.9
2024-03-08T2100,3046A,115.9084,28.6062,南昌市,机电学校,颗粒物(PM10),105,160,109,53,53,20,,111,94,94,52,12,10,0.6,0.7
2024-03-08T2100,3690A,115.9721,28.7031,南昌市,外国语学校,颗粒物(PM10),73,95,80,46,45,47,,124,112,62,33,4,4,0.7,0.6
2024-03-08T2100,1905A,106.056,30.8064,南充市,西山风景区,细颗粒物(PM2.5),64,66,83,46,66,28,,36,36,14,24,3,12,0.9,0.9
2024-03-08T2100,1906A,106.0789,30.8023,南充市,南充市委,细颗粒物(PM2.5),62,58,84,44,57,23,,35,33,25,32,5,15,0.8,0.8
2024-03-08T2100,1907A,106.1031,30.8217,南充市,南充炼油厂,细颗粒物(PM2.5),75,84,91,55,69,19,,31,31,24,29,4,10,0.6,0.5
2024-03-08T2100,1908A,106.1064,30.7856,南充市,高坪区监测站,"颗粒物(PM10),细颗粒物(PM2.5)",57,64,93,40,67,22,,30,28,25,31,4,17,0.5,0.5
2024-03-08T2100,1909A,106.0642,30.7636,南充市,嘉陵区环保局,细颗粒物(PM2.5),58,53,90,41,63,19,,32,27,24,29,5,20,0.8,0.8
2024-03-08T2100,1910A,106.1087,30.8388,南充市,市环境监测站,细颗粒物(PM2.5),64,60,83,46,61,23,,32,30,16,27,4,9,0.7,0.8
2024-03-08T2100,1151A,118.8086,32.1065,南京市,迈皋桥,颗粒物(PM10),60,69,96,31,53,43,,118,96,53,25,4,8,0.5,0.6
2024-03-08T2100,1152A,118.7538,32.0551,南京市,草场门,细颗粒物(PM2.5),67,80,92,48,60,48,,110,100,68,28,2,3,0.6,0.6
2024-03-08T2100,1153A,118.7794,32.0745,南京市,山西路,颗粒物(PM10),62,73,97,36,57,68,,100,95,35,23,4,6,0.4,0.5
2024-03-08T2100,1154A,118.7752,32.0023,南京市,中华门,颗粒物(PM10),65,80,89,46,50,43,,110,95,89,28,7,7,0.6,0.5
2024-03-08T2100,1155A,118.8109,32.0309,南京市,瑞金路,颗粒物(PM10),65,80,98,41,52,39,,104,90,67,29,5,9,0.5,0.5
2024-03-08T2100,1156A,118.7997,32.0754,南京市,玄武湖,颗粒物(PM10),60,69,96,33,50,51,,110,96,57,43,9,12,0.3,0.5
2024-03-08T2100,1157A,118.6414,32.0931,南京市,浦口,颗粒物(PM10),59,67,98,26,47,91,,108,105,21,20,4,8,0.4,0.6
2024-03-08T2100,1158A,118.7356,31.9996,南京市,奥体中心,颗粒物(PM10),60,70,95,36,48,78,,114,108,38,24,7,9,0.5,0.6
2024-03-08T2100,1159A,118.9125,32.1028,南京市,仙林大学城,颗粒物(PM10),62,73,92,29,54,74,,110,102,38,30,5,7,0.5,0.7
2024-03-08T2100,3422A,118.8436,31.9198,南京市,江宁彩虹桥,颗粒物(PM10),65,79,96,41,46,13,,116,102,110,22,4,4,0.4,0.3
2024-03-08T2100,3423A,119.0138,31.6494,南京市,溧水永阳,细颗粒物(PM2.5),72,83,85,52,60,38,,108,96,62,27,4,4,0.8,0.7
2024-03-08T2100,3424A,118.879,31.3302,南京市,高淳老职中,颗粒物(PM10),66,81,88,46,53,72,,110,105,34,19,6,5,0.5,0.5
2024-03-08T2100,3427A,118.8554,32.3578,南京市,六合雄州,颗粒物(PM10),59,67,99,26,40,63,,112,102,34,20,5,5,0.5,0.6
2024-03-08T2100,1401A,108.3103,22.7881,南宁市,二十一中,细颗粒物(PM2.5),85,77,69,63,54,75,,85,84,24,23,5,9,0.9,0.9
2024-03-08T2100,1402A,108.3141,22.8528,南宁市,北湖,细颗粒物(PM2.5),69,79,70,50,50,77,,80,80,21,27,6,11,1.0,1
2024-03-08T2100,1403A,108.3206,22.8225,南宁市,市监测站,细颗粒物(PM2.5),75,82,68,55,52,70,,76,76,29,30,7,11,1.0,1
2024-03-08T2100,1404A,108.3829,22.8037,南宁市,大自然花园,细颗粒物(PM2.5),89,79,63,66,49,70,,80,78,26,24,6,10,0.9,0.9
2024-03-08T2100,1405A,108.4394,22.7904,南宁市,仙葫,细颗粒物(PM2.5),70,80,65,51,48,72,,84,82,31,24,9,12,0.8,0.8
2024-03-08T2100,1406A,108.2397,22.8467,南宁市,区农职院,细颗粒物(PM2.5),64,67,74,46,52,77,,77,77,26,34,6,13,0.9,0.9
2024-03-08T2100,1407A,108.3275,22.735,南宁市,英华嘉园,细颗粒物(PM2.5),99,85,61,74,48,65,,76,72,30,24,7,9,0.9,0.8
2024-03-08T2100,1408A,108.2257,22.7757,南宁市,沙井镇街道办,细颗粒物(PM2.5),83,84,74,61,50,62,,69,67,36,36,7,10,0.9,0.9
2024-03-08T2100,3401A,108.4834,22.7618,南宁市,红星社区,细颗粒物(PM2.5),98,93,66,73,54,68,,79,76,24,22,9,11,1.0,1
2024-03-08T2100,2332A,118.1681,26.6369,南平市,南平市监测站,颗粒物(PM10),53,56,34,25,18,48,,101,86,27,18,5,5,0.7,0.7
2024-03-08T2100,2333A,118.1825,26.6489,南平市,南平铝业有限公司,颗粒物(PM10),57,64,38,32,16,38,,97,81,31,18,9,6,0.8,0.8
2024-03-08T2100,2334A,118.1756,26.6272,南平市,南平七中,,44,44,34,23,18,63,,102,88,18,16,4,4,0.6,0.5
2024-03-08T2100,1168A,120.9098,31.9663,南通市,狼山街道,细颗粒物(PM2.5),93,85,78,69,65,38,,114,100,62,29,8,8,0.7,0.7
2024-03-08T2100,1169A,120.86,32.0005,南通市,虹桥,细颗粒物(PM2.5),119,113,85,90,71,17,,102,90,107,37,6,4,0.9,0.8
2024-03-08T2100,1170A,120.87,32.02,南通市,城中,细颗粒物(PM2.5),90,103,92,67,62,64,,104,97,49,32,4,4,0.8,0.8
2024-03-08T2100,1171A,120.94,31.93,南通市,星湖花园,细颗粒物(PM2.5),68,75,73,49,53,9,,98,70,100,46,5,6,0.7,0.6
2024-03-08T2100,1172A,120.81,32.0417,南通市,紫琅学院,细颗粒物(PM2.5),87,86,80,64,59,58,,112,100,46,33,6,8,0.8,0.8
2024-03-08T2100,3291A,121.067,32.062,南通市,通州监测站,细颗粒物(PM2.5),100,117,73,75,55,44,,110,96,62,19,6,7,0.8,0.6
2024-03-08T2100,3432A,120.9348,31.9883,南通市,环境教育馆,细颗粒物(PM2.5),103,85,76,77,63,55,,107,97,50,30,6,7,0.5,0.8
2024-03-08T2100,2404A,112.5224,33.0122,南阳市,瓦房庄,颗粒物(PM10),80,110,93,44,33,71,,110,107,43,21,6,6,0.5,0.3
2024-03-08T2100,2405A,112.5003,32.9735,南阳市,汉画馆,颗粒物(PM10),86,122,105,47,37,56,,104,97,39,22,6,6,0.5,0.4
2024-03-08T2100,2406A,112.5573,33.027,南阳市,气象站,颗粒物(PM10),81,111,98,41,29,61,,113,106,57,27,4,5,0.4,0.4
2024-03-08T2100,2407A,112.5481,32.9689,南阳市,理工学院,颗粒物(PM10),88,125,95,55,32,61,,111,106,53,27,8,7,0.7,0.4
2024-03-08T2100,4008A,112.5234,32.9922,南阳市,卧龙区政府,颗粒物(PM10),91,132,104,55,30,37,,106,94,80,27,8,8,0.8,0.5
2024-03-08T2100,1234A,121.8358,29.911,宁波市,区环保大楼,细颗粒物(PM2.5),68,70,118,49,80,90,,117,109,35,46,6,7,0.7,0.9
2024-03-08T2100,1235A,121.56,29.82,宁波市,万里学院,细颗粒物(PM2.5),77,96,101,56,58,86,,113,108,41,44,8,7,0.7,0.6
2024-03-08T2100,1236A,121.713,29.9572,宁波市,龙赛医院,颗粒物(PM10),56,62,134,35,63,84,,119,111,48,53,6,7,0.7,0.8
2024-03-08T2100,1239A,121.633,29.7733,宁波市,钱湖水厂,细颗粒物(PM2.5),79,87,85,58,57,94,,118,112,29,29,6,6,0.8,0.7
2024-03-08T2100,1240A,121.5856,29.8635,宁波市,太古小学,细颗粒物(PM2.5),89,85,85,66,60,88,,115,110,35,40,8,8,0.7,0.7
2024-03-08T2100,1241A,121.524,29.8674,宁波市,市环境监测中心,细颗粒物(PM2.5),72,87,95,52,48,90,,119,114,41,46,7,7,0.7,0.7
2024-03-08T2100,2871A,121.6147,29.9017,宁波市,万里国际学校,细颗粒物(PM2.5),95,92,99,71,71,76,,120,112,56,51,10,9,0.8,0.9
2024-03-08T2100,3710A,121.5594,29.8975,宁波市,白沙活动中心,细颗粒物(PM2.5),77,98,100,56,51,70,,116,107,53,43,7,8,0.8,0.7
2024-03-08T2100,2341A,119.5388,26.6612,宁德市,宁德市监测站,,50,42,61,35,43,130,,138,138,16,17,7,8,0.5,0.7
2024-03-08T2100,3209A,119.5231,26.6562,宁德市,宁德一中,颗粒物(PM10),68,86,77,32,38,130,,140,139,19,16,6,7,0.5,0.6
2024-03-08T2100,2618A,98.8601,25.8567,怒江傈僳族自治州,州监测站,,24,20,28,12,14,76,,92,90,4,10,6,7,0.4,0.4
2024-03-08T2100,2619A,98.8546,25.8417,怒江傈僳族自治州,泸水一中,,20,11,27,0,17,62,,85,81,14,18,6,6,0.5,0.4
2024-03-08T2100,1888A,101.6891,26.571,攀枝花市,弄弄坪,颗粒物(PM10),65,80,44,20,19,58,,98,88,45,24,78,27,5.1,1.6
2024-03-08T2100,1889A,101.5769,26.5928,攀枝花市,河门口,,30,20,46,7,17,96,,103,102,7,18,6,22,0.3,0.6
2024-03-08T2100,1890A,101.7169,26.585,攀枝花市,炳草岗,,38,38,34,8,14,84,,104,100,20,23,17,17,0.9,0.6
2024-03-08T2100,1891A,101.7369,26.5008,攀枝花市,仁和,,33,17,27,6,13,104,,111,110,8,12,6,10,0.5,0.6
2024-03-08T2100,2835A,101.7227,26.567,攀枝花市,四十中小,,33,26,27,11,12,105,,112,111,8,14,5,10,0.6,0.7
2024-03-08T2100,1604A,122.0303,41.1489,盘锦市,开发区,,47,47,44,32,17,60,,89,81,28,15,23,10,0.5,0.4
2024-03-08T2100,1605A,122.0485,41.0883,盘锦市,兴隆台,颗粒物(PM10),56,62,43,25,25,53,,84,76,30,15,14,9,0.7,0.5
2024-03-08T2100,1606A,121.8297,41.1028,盘锦市,新生街道,,43,,41,30,13,46,,84,68,22,26,6,6,0.5,0.4
2024-03-08T2100,1832A,113.3257,33.742,平顶山市,新华旅馆,颗粒物(PM10),81,112,83,33,26,56,,102,98,50,21,8,9,0.2,0.2
2024-03-08T2100,1833A,113.2919,33.737,平顶山市,规划设计院,颗粒物(PM10),70,89,74,50,29,75,,96,95,30,27,6,7,0.7,0.5
2024-03-08T2100,1834A,113.182,33.774,平顶山市,平顶山工学院,颗粒物(PM10),65,79,72,27,21,89,,100,100,16,17,6,7,0.3,0.4
2024-03-08T2100,3204A,113.3025,33.73,平顶山市,规划局,颗粒物(PM10),82,114,89,50,30,81,,99,98,25,23,9,9,0.3,0.2
2024-03-08T2100,3594A,112.8867,33.9116,平顶山市,石龙区,颗粒物(PM10),84,117,114,37,25,77,,98,95,25,39,8,8,0.3,0.3
2024-03-08T2100,2656A,106.6692,35.5461,平凉市,聚贤嘉苑,颗粒物(PM10),62,73,78,23,22,75,,96,93,21,27,6,7,0.4,0.5
2024-03-08T2100,2657A,106.7021,35.5307,平凉市,博物馆,颗粒物(PM10),75,100,87,38,28,60,,98,91,43,32,12,13,0.5,0.5
2024-03-08T2100,2347A,114.0997,27.5002,萍乡市,武功山,颗粒物(PM10),55,60,39,17,22,94,,113,112,12,10,4,4,0.6,0.6
2024-03-08T2100,2348A,113.8385,27.6434,萍乡市,中医院,颗粒物(PM10),73,96,70,41,39,107,,118,117,19,25,4,6,0.4,0.6
2024-03-08T2100,2349A,113.8493,27.6253,萍乡市,市政府车库,颗粒物(PM10),75,99,64,46,41,98,,114,113,20,20,7,8,0.7,1.1
2024-03-08T2100,2350A,113.8676,27.6435,萍乡市,市环保局,颗粒物(PM10),67,84,67,39,40,98,,108,108,21,24,9,9,0.6,0.7
2024-03-08T2100,2351A,113.866,27.6198,萍乡市,安源区政府,颗粒物(PM10),67,83,65,45,39,97,,112,111,29,19,10,10,2.6,1.1
2024-03-08T2100,2319A,119.0141,25.4325,莆田市,荔城区仓后路,颗粒物(PM10),58,66,68,26,43,119,,135,132,15,20,6,5,0.8,0.7
2024-03-08T2100,2320A,119.0015,25.4553,莆田市,莆田市监测站,颗粒物(PM10),63,76,64,34,42,115,,138,134,16,20,7,6,0.7,0.7
2024-03-08T2100,2321A,119.1119,25.4561,莆田市,涵江区六中,颗粒物(PM10),61,71,67,26,39,129,,139,136,15,19,7,7,0.8,0.7
2024-03-08T2100,2322A,119.1013,25.3215,莆田市,秀屿区政府,颗粒物(PM10),58,65,60,27,39,106,,130,122,22,24,6,9,0.7,0.8
2024-03-08T2100,2392A,115.0312,35.7636,濮阳市,环保局,颗粒物(PM10),52,54,45,25,11,69,,86,83,29,19,6,5,0.4,0.2
2024-03-08T2100,2394A,115.0574,35.7609,濮阳市,油田运输公司,颗粒物(PM10),68,85,49,22,11,62,,93,89,34,17,10,8,0.4,0.2
2024-03-08T2100,2395A,115.0866,35.7754,濮阳市,油田物探公司,颗粒物(PM10),65,79,49,32,12,70,,91,89,30,20,8,6,0.3,0.2
2024-03-08T2100,3021A,115,35.7668,濮阳市,濮水河管理处,颗粒物(PM10),62,73,49,20,13,47,,85,74,40,21,7,7,0.4,0.2
2024-03-08T2100,2601A,100.98,22.7633,普洱市,市环保局,细颗粒物(PM2.5),84,81,72,62,54,116,,151,147,14,17,9,8,0.6,0.6
2024-03-08T2100,2602A,100.9817,22.8322,普洱市,普洱第二中学,,,77,62,58,47,,,153,153,46,36,4,5,1.1,1
2024-03-08T2100,2262A,131.0518,45.8751,七台河市,新一中,,29,20,26,17,20,92,,108,97,11,11,9,12,0.8,0.8
2024-03-08T2100,3345A,131.0577,45.7879,七台河市,中波台,,48,38,30,33,24,49,,97,79,52,21,9,8,0.9,0.6
2024-03-08T2100,3637A,131.0176,45.7761,七台河市,人民广场,,39,35,41,27,33,55,,97,71,42,26,8,10,0.9,0.8
2024-03-08T2100,3684A,130.8781,45.8222,七台河市,新建矿广场,细颗粒物(PM2.5),59,,34,42,34,71,,98,87,29,26,13,17,0.6,0.7
2024-03-08T2100,1779A,123.9305,47.3636,齐齐哈尔市,安居小区,,43,43,25,20,14,55,,81,70,29,14,5,5,0.9,0.7
2024-03-08T2100,1780A,123.9488,47.3386,齐齐哈尔市,中心广场,,39,39,24,24,18,46,,72,64,30,11,5,5,0.5,0.2
2024-03-08T2100,1781A,123.9483,47.3227,齐齐哈尔市,农牧车辆厂,,33,29,22,23,11,59,,75,65,16,10,7,7,0.4,0.3
2024-03-08T2100,1783A,123.945,47.2988,齐齐哈尔市,市环境监测站,,22,22,24,14,10,69,,77,72,10,9,3,4,0.4,0.4
2024-03-08T2100,3662A,123.6333,47.2075,齐齐哈尔市,富区青少年活动中心,,33,33,31,16,12,64,,77,74,10,10,7,7,0.6,0.5
2024-03-08T2100,2591A,107.9783,26.5747,黔东南苗族侗族自治州,市环境监测站,,45,42,49,31,40,58,,98,72,32,22,7,7,0.8,0.9
2024-03-08T2100,2881A,107.8908,26.5311,黔东南苗族侗族自治州,凯里学院,,40,40,47,28,36,66,,100,85,21,16,5,9,0.8,0.9
2024-03-08T2100,2593A,107.5228,26.2403,黔南布依族苗族自治州,小围寨,,39,,36,27,30,80,,91,89,8,11,6,6,0.6,0.6
2024-03-08T2100,3538A,107.5175,26.2978,黔南布依族苗族自治州,沙坝,,36,36,44,22,31,75,,113,93,14,11,4,6,0.5,0.6
2024-03-08T2100,2589A,104.9022,25.0925,黔西南布依族苗族自治州,场坝街,,,82,65,70,52,72,,70,70,,15,2,2,0.7,0.6
2024-03-08T2100,2590A,104.8811,25.0992,黔西南布依族苗族自治州,坪东大道,细颗粒物(PM2.5),73,73,71,53,55,78,,69,69,11,14,4,3,0.6,0.7
2024-03-08T2100,2502A,108.6236,21.9667,钦州市,市环保站,细颗粒物(PM2.5),92,107,97,68,60,44,,63,53,29,26,7,9,1.4,1.1
2024-03-08T2100,2503A,108.6549,21.9481,钦州市,沙埠小学,细颗粒物(PM2.5),90,94,92,67,60,42,,62,54,35,26,6,8,1.0,1
2024-03-08T2100,2504A,108.5989,21.7431,钦州市,港区一小,细颗粒物(PM2.5),83,102,102,61,55,19,,51,30,54,42,7,8,1.1,1
2024-03-08T2100,3404A,108.5959,21.9633,钦州市,北职校,细颗粒物(PM2.5),94,87,84,70,65,38,,63,55,26,23,10,11,1.3,1.1
2024-03-08T2100,1042A,119.5134,39.8207,秦皇岛市,北戴河环保局,,26,26,46,16,27,71,,82,79,24,36,6,8,0.2,0.4
2024-03-08T2100,1043A,119.7493,40.0116,秦皇岛市,第一关,,46,39,45,32,28,76,,86,82,16,40,8,8,0.3,0.4
2024-03-08T2100,1044A,119.5897,39.9499,秦皇岛市,监测站,,36,32,43,25,23,67,,85,78,26,27,7,7,0.3,0.4
2024-03-08T2100,1046A,119.5251,39.9041,秦皇岛市,建设大厦,,32,22,40,22,28,74,,88,83,18,33,2,3,0.2,0.3
2024-03-08T2100,3132A,119.610547,39.943889,秦皇岛市,文明里,,48,48,52,19,22,58,,85,77,40,29,6,6,0.4,0.5
2024-03-08T2100,1307A,120.6659,36.2403,青岛市,仰口,,36,36,91,14,71,88,,86,86,10,21,5,3,0.2,0.4
2024-03-08T2100,1310A,120.4134,36.0658,青岛市,市南区东部子站,颗粒物(PM10),62,73,108,29,76,53,,79,79,43,31,9,8,0.7,0.9
2024-03-08T2100,1311A,120.3664,36.1032,青岛市,四方区子站,颗粒物(PM10),62,73,106,34,85,49,,82,82,52,35,7,5,0.8,0.9
2024-03-08T2100,1312A,120.2994,36.054,青岛市,市南区西部子站,颗粒物(PM10),56,61,96,22,70,74,,85,85,24,35,8,7,0.8,1
2024-03-08T2100,1313A,120.4581,36.0858,青岛市,崂山区子站,颗粒物(PM10),62,73,110,29,75,57,,79,79,38,31,8,6,0.7,0.9
2024-03-08T2100,1314A,120.1983,35.9608,青岛市,黄岛区子站,颗粒物(PM10),65,80,102,24,70,34,,66,64,70,43,14,8,0.8,1.1
2024-03-08T2100,1315A,120.3999,36.3083,青岛市,城阳区子站,颗粒物(PM10),59,68,109,27,62,57,,75,75,36,33,11,8,0.9,1
2024-03-08T2100,1966A,120.0405,35.8735,青岛市,黄岛区4号,颗粒物(PM10),53,56,83,19,57,87,,96,96,22,33,8,8,0.8,1.1
2024-03-08T2100,3362A,120.5014,36.4034,青岛市,即墨2号,,,49,114,17,82,,,72,,27,34,8,6,,1
2024-03-08T2100,3642A,120.3503,36.0736,青岛市,市北区南部,颗粒物(PM10),59,68,111,27,72,61,,77,77,48,43,8,6,0.8,1
2024-03-08T2100,3643A,120.3948,36.1805,青岛市,李沧区北部,颗粒物(PM10),67,83,114,41,90,52,,80,80,58,43,11,8,1.0,1.1
2024-03-08T2100,1702A,113.0426,23.691,清远市,环保大楼,颗粒物(PM10),54,58,34,34,20,54,,95,89,34,12,4,5,1.2,1
2024-03-08T2100,1703A,113.0208,23.7106,清远市,凤城街办,颗粒物(PM10),53,56,42,30,27,68,,109,98,35,18,5,5,0.9,0.7
2024-03-08T2100,3025A,113.0477,23.6344,清远市,技师学院,颗粒物(PM10),60,69,35,41,23,64,,109,102,40,16,8,8,0.7,0.6
2024-03-08T2100,3318A,112.9903,23.7403,清远市,清新太和,,36,36,36,21,25,97,,109,107,16,13,7,6,0.6,0.6
2024-03-08T2100,3455A,113.076,23.7198,清远市,清城东城,,40,38,37,28,25,76,,105,100,14,13,5,6,0.6,0.8
2024-03-08T2100,2661A,107.6325,35.7357,庆阳市,庆阳五中,颗粒物(PM10),68,85,81,29,25,66,,79,74,27,14,16,11,0.5,0.5
2024-03-08T2100,2662A,107.6364,35.7067,庆阳市,市环保局,颗粒物(PM10),65,79,70,32,20,82,,90,86,14,7,7,6,0.3,0.3
2024-03-08T2100,1916A,103.7897,25.5035,曲靖市,环境监测站,颗粒物(PM10),57,63,45,33,28,57,,90,84,20,12,9,4,0.9,0.8
2024-03-08T2100,1917A,103.8,25.5364,曲靖市,烟厂办公区,,50,50,44,33,27,68,,92,90,17,12,4,4,0.9,0.7
2024-03-08T2100,3376A,103.7947,25.462,曲靖市,南苑二区,颗粒物(PM10),52,54,48,32,30,58,,84,82,20,15,16,9,1.1,0.9
2024-03-08T2100,3377A,103.7444,25.5261,曲靖市,曲靖师范学院,细颗粒物(PM2.5),58,63,48,41,36,68,,88,86,19,15,10,7,1.0,0.8
2024-03-08T2100,1264A,118.8692,28.9398,衢州市,环保大楼,颗粒物(PM10),68,85,56,42,32,51,,115,104,48,23,6,6,0.7,0.6
