timepoint,stationcode,longitude,latitude,area,positionname,primarypollutant,aqi,pm10,pm10_24h,pm2_5,pm2_5_24h,o3,o3_24h,o3_8h,o3_8h_24h,no2,no2_24h,so2,so2_24h,co,co_24h
2025-06-11T2200,2566A,102.1879,31.914,阿坝藏族羌族自治州,州农科所,,22,22,18,7,8,49,,76,67,11,8,12,12,0.5,0.5
2025-06-11T2200,2568A,102.2502,31.8896,阿坝藏族羌族自治州,马师校,,32,31,18,22,16,31,,89,80,30,9,5,6,0.5,0.5
2025-06-11T2200,3994A,102.2165,31.9024,阿坝藏族羌族自治州,马尔康中学西区,,32,32,18,19,16,48,,92,82,18,5,6,5,0.5,0.5
2025-06-11T2200,2695A,80.292,41.1694,阿克苏地区,电视台,颗粒物(PM10),110,170,110,63,41,86,,118,114,40,26,6,5,0.5,0.4
2025-06-11T2200,2696A,80.2613,41.1551,阿克苏地区,艺术中心,,,,118,,45,,,64,,,34,,4,,0.6
2025-06-11T2200,2204A,105.6467,38.8363,阿拉善盟,西城区西花园,,49,49,33,27,18,141,,144,130,11,11,7,7,0.5,0.5
2025-06-11T2200,2205A,105.6985,38.8411,阿拉善盟,蒙二幼,,47,47,46,18,14,124,,133,132,10,8,11,11,0.3,0.3
2025-06-11T2200,2206A,105.724,38.8516,阿拉善盟,环保局新楼,,46,36,39,11,12,146,,148,148,5,5,10,11,0.2,0.3
2025-06-11T2200,2708A,88.1264,47.8517,阿勒泰地区,市站,,31,25,19,10,4,98,,109,108,2,7,2,2,0.4,0.3
2025-06-11T2200,2630A,80.1161,32.5,阿里地区,阿里监测站,,45,8,12,6,8,144,,156,152,7,16,2,3,0.3,0.3
2025-06-11T2200,3192A,80.0903,32.5028,阿里地区,阿里藏医院,,50,12,18,9,7,157,,169,166,1,5,6,6,0.3,0.3
2025-06-11T2200,2642A,109.0318,32.6537,安康市,香溪洞,,43,32,37,17,17,137,,139,139,5,7,5,5,0.4,0.4
2025-06-11T2200,2644A,109.0072,32.6975,安康市,汉滨区检察院,,49,49,38,14,17,76,,139,133,18,8,29,7,0.6,0.5
2025-06-11T2200,4054A,109.0325,32.6913,安康市,市邮政管理局,颗粒物(PM10),53,56,41,29,21,86,,136,130,17,11,6,7,0.8,0.7
2025-06-11T2200,2291A,117.0809,30.5177,安庆市,环科院,,27,22,24,10,15,85,,99,96,10,10,6,4,0.5,0.6
2025-06-11T2200,2292A,117.0331,30.5119,安庆市,马山宾馆,,24,15,22,10,14,76,,101,95,15,9,8,5,0.5,0.6
2025-06-11T2200,2294A,116.9896,30.6145,安庆市,安庆大学,,31,23,24,13,18,99,,110,108,8,7,4,4,0.5,0.6
2025-06-11T2200,3173A,117.0598,30.5351,安庆市,市人大,,26,20,23,12,15,82,,106,99,16,12,7,4,0.4,0.5
2025-06-11T2200,3122A,105.9606,26.2611,安顺市,伍家关,颗粒物(PM10),54,58,36,24,18,76,,122,111,25,10,4,5,0.5,0.3
2025-06-11T2200,3123A,105.9408,26.2431,安顺市,凤凰山,,,62,33,34,24,,,156,156,15,9,15,10,0.5,0.5
2025-06-11T2200,3124A,105.9439,26.2564,安顺市,金钟山,,44,37,31,27,23,140,,167,162,13,7,6,8,0.3,0.3
2025-06-11T2200,3125A,105.8983,26.2481,安顺市,娄家坡,,41,40,34,27,24,131,,148,146,11,8,7,7,0.5,0.4
2025-06-11T2200,1818A,114.4839,36.0621,安阳市,棉研所,,,,,,,,,,,,,,,,
2025-06-11T2200,1819A,114.3551,36.1017,安阳市,红庙街,臭氧1小时,58,58,71,24,24,166,,208,198,1,9,2,4,0.4,0.5
2025-06-11T2200,1820A,114.361,36.0681,安阳市,银杏小区,颗粒物(PM10),64,77,51,33,34,162,,204,195,2,15,3,6,0.5,0.4
2025-06-11T2200,3141A,114.3922,36.0878,安阳市,信访局,颗粒物(PM10),60,69,72,34,28,164,,208,197,1,13,3,5,0.5,0.7
2025-06-11T2200,3669A,114.4705,36.0637,安阳市,左辅环卫站,颗粒物(PM10),64,77,82,30,21,149,,206,194,11,21,5,8,0.6,0.4
2025-06-11T2200,3703A,114.2917,36.0949,安阳市,安钢职工学校,细颗粒物(PM2.5),53,48,75,37,33,158,,199,189,3,12,4,5,0.5,0.5
2025-06-11T2200,1748A,123.044,41.1196,鞍山市,深沟寺,,29,22,37,10,21,92,,122,106,14,21,7,12,0.6,1.2
2025-06-11T2200,1749A,123.011,41.0931,鞍山市,太阳城,,29,16,35,6,21,90,,122,113,15,19,7,13,0.6,1.3
2025-06-11T2200,1750A,123.0485,41.1442,鞍山市,太平,,30,22,46,9,25,96,,121,106,15,23,9,16,0.6,1.2
2025-06-11T2200,1751A,122.9642,41.0971,鞍山市,铁西三道街,,38,38,46,17,26,79,,130,112,37,31,8,19,0.9,1.4
2025-06-11T2200,1753A,123.022,41.0821,鞍山市,明达新区,,27,19,38,10,22,85,,123,114,18,16,9,16,0.6,1.1
2025-06-11T2200,1754A,123.1289,41.0228,鞍山市,千山,,,,22,,13,,,91,,,12,,5,,0.6
2025-06-11T2200,4201A,122.9446,41.0826,鞍山市,兴盛南路290号,,35,35,49,12,28,89,,132,118,34,30,10,20,0.8,1.4
2025-06-11T2200,2195A,107.4212,40.761,巴彦淖尔市,附二中,颗粒物(PM10),59,67,50,28,20,142,,157,151,15,16,9,10,0.5,0.5
2025-06-11T2200,2196A,107.37,40.7372,巴彦淖尔市,市环保大楼,臭氧1小时,69,58,49,25,17,175,,182,173,22,18,9,9,0.5,0.5
2025-06-11T2200,1956A,86.1472,41.7538,巴音郭楞蒙古自治州,孔雀公园,颗粒物(PM10),72,94,72,32,27,119,,120,120,10,12,8,9,0.2,0.2
2025-06-11T2200,1957A,86.1972,41.7166,巴音郭楞蒙古自治州,棉纺厂,颗粒物(PM10),87,124,95,23,21,113,,126,123,18,16,4,6,0.3,0.2
2025-06-11T2200,1958A,86.2357,41.7173,巴音郭楞蒙古自治州,经济开发区,颗粒物(PM10),74,97,68,26,19,112,,121,119,15,7,10,9,0.2,0.2
2025-06-11T2200,2914A,106.7677,31.8794,巴中市,苏山坪,,42,32,23,23,14,132,,149,145,8,7,5,4,0.4,0.3
2025-06-11T2200,3181A,106.7768,31.8526,巴中市,市五中,,42,42,33,27,16,84,,150,137,15,12,7,7,0.6,0.5
2025-06-11T2200,3183A,106.7418,31.8654,巴中市,圣泉水务公司,颗粒物(PM10),52,53,26,23,15,40,,153,137,60,14,6,5,0.6,0.5
2025-06-11T2200,3616A,106.7616,31.8344,巴中市,市中心医院,,47,47,30,19,19,56,,143,128,34,13,6,6,0.7,0.5
2025-06-11T2200,2235A,122.7911,45.6077,白城市,洮北区环保局,,31,23,19,10,11,98,,95,95,8,11,3,4,0.3,0.3
2025-06-11T2200,2236A,122.8738,45.5725,白城市,市环保局,,30,17,18,8,10,96,,94,94,7,11,7,4,0.3,0.4
2025-06-11T2200,2231A,126.4219,41.9171,白山市,喜丰,颗粒物(PM10),52,54,20,10,9,34,,110,85,38,17,12,7,0.5,0.5
2025-06-11T2200,2232A,126.4077,41.9419,白山市,环保局,,38,38,18,8,5,57,,112,94,14,9,6,6,0.2,0.4
2025-06-11T2200,2647A,104.1724,36.5446,白银市,第三小学,颗粒物(PM10),54,57,41,37,19,48,,147,131,90,19,10,14,1.0,0.5
2025-06-11T2200,2648A,104.1465,36.5482,白银市,动力公司,,40,40,38,19,16,57,,144,131,56,18,14,14,0.4,0.4
2025-06-11T2200,2512A,106.6103,23.9011,百色市,市监测站,,37,37,38,20,20,22,,84,62,10,12,4,5,0.8,0.9
2025-06-11T2200,2513A,106.6538,23.8859,百色市,市中心血站,细颗粒物(PM2.5),59,64,49,42,24,34,,83,65,26,19,3,5,1.0,0.8
2025-06-11T2200,3406A,106.6085,23.8798,百色市,祈福高中,,45,45,42,29,21,23,,75,55,25,15,6,6,0.8,0.6
2025-06-11T2200,2270A,117.396,32.939,蚌埠市,工人疗养院,,41,41,46,19,19,118,,145,133,18,12,6,4,0.3,0.5
2025-06-11T2200,2271A,117.3605,32.9427,蚌埠市,百货大楼,,38,33,41,17,20,121,,137,132,12,14,4,6,0.3,0.6
2025-06-11T2200,2273A,117.4185,32.8911,蚌埠市,蚌埠学院,,37,27,34,19,24,118,,137,131,10,11,3,4,0.3,0.5
2025-06-11T2200,2274A,117.3533,32.9673,蚌埠市,淮上区政府,,37,27,36,20,24,117,,144,135,23,14,8,6,0.3,0.6
2025-06-11T2200,2275A,117.3145,32.8977,蚌埠市,高新区,,37,36,38,18,23,116,,133,127,16,14,5,5,0.3,0.5
2025-06-11T2200,3715A,117.3092,32.9314,蚌埠市,蚌埠田家炳中学,,36,33,42,14,27,115,,137,130,10,13,5,7,0.2,0.4
2025-06-11T2200,1585A,109.8756,40.6532,包头市,市环境监测站,颗粒物(PM10),63,75,50,24,17,56,,168,142,64,29,16,17,0.9,0.8
2025-06-11T2200,1587A,109.9991,40.5842,包头市,包头八中,颗粒物(PM10),68,85,57,43,24,71,,167,147,61,26,26,25,0.9,0.8
2025-06-11T2200,1588A,109.8538,40.6821,包头市,青山宾馆,颗粒物(PM10),56,61,48,31,22,36,,173,135,82,34,15,15,0.8,0.6
2025-06-11T2200,1589A,109.8642,40.6288,包头市,惠龙物流,颗粒物(PM10),62,74,48,26,18,81,,170,152,42,25,18,15,0.6,0.5
2025-06-11T2200,1590A,110.0377,40.5546,包头市,东河鸿龙湾,颗粒物(PM10),68,86,66,21,13,72,,166,147,52,33,21,26,0.7,0.7
2025-06-11T2200,3283A,109.9154,40.5685,包头市,滨河大厦,颗粒物(PM10),62,74,50,21,13,96,,172,157,37,24,20,13,0.5,0.5
2025-06-11T2200,3419A,109.9447,40.6261,包头市,包头市委党校,,,84,47,24,15,,,166,166,81,27,18,21,0.8,0.8
2025-06-11T2200,3683A,109.8331,40.6576,包头市,昆区政府,颗粒物(PM10),60,69,48,29,19,78,,165,148,55,32,15,17,0.8,0.7
2025-06-11T2200,1930A,107.185,34.3063,宝鸡市,庙沟村,,44,25,37,14,18,138,,193,171,12,11,6,6,0.4,0.4
2025-06-11T2200,1931A,107.0708,34.3017,宝鸡市,竹园沟,,38,31,37,26,17,105,,186,162,10,14,5,6,0.3,0.4
2025-06-11T2200,1932A,107.1906,34.3672,宝鸡市,三陆医院,,42,36,54,29,32,90,,178,164,36,34,6,10,0.6,0.4
2025-06-11T2200,1933A,107.1431,34.3547,宝鸡市,监测站,颗粒物(PM10),63,75,52,39,21,73,,178,152,38,20,6,7,0.4,0.3
2025-06-11T2200,1934A,107.1186,34.3739,宝鸡市,技工学校,颗粒物(PM10),51,51,49,23,23,110,,181,165,20,12,9,9,0.6,0.5
2025-06-11T2200,1935A,107.3906,34.3528,宝鸡市,陈仓区环保局家属楼,,43,43,56,19,25,131,,188,175,16,27,5,7,0.4,0.5
2025-06-11T2200,1936A,107.2058,34.3497,宝鸡市,文理学院,颗粒物(PM10),58,65,47,24,23,71,,186,164,36,18,5,7,0.6,0.5
2025-06-11T2200,1937A,107.2386,34.3622,宝鸡市,三迪小学,,,,55,26,26,108,,180,166,30,23,5,10,,0.5
2025-06-11T2200,1051A,115.493,38.8632,保定市,游泳馆,颗粒物(PM10),72,94,65,40,30,147,,228,213,27,20,4,3,0.2,0.1
2025-06-11T2200,1052A,115.5213,38.8959,保定市,华电二区,颗粒物(PM10),78,105,52,34,22,161,,229,218,17,11,2,4,0.2,0.2
2025-06-11T2200,1053A,115.4713,38.9108,保定市,接待中心,颗粒物(PM10),72,93,63,41,33,165,,226,218,18,17,2,3,0.4,0.3
2025-06-11T2200,1054A,115.4612,38.8416,保定市,地表水厂,颗粒物(PM10),102,154,80,38,29,174,,232,224,23,27,4,4,0.4,0.3
2025-06-11T2200,3581A,115.31981,38.95208,保定市,满城区生态环境分局,颗粒物(PM10),91,132,86,41,28,168,,239,226,18,16,5,5,0.4,0.4
2025-06-11T2200,3582A,115.47694,38.76408,保定市,清苑区第二中学,颗粒物(PM10),104,157,94,74,40,140,,234,215,31,20,2,4,0.6,0.5
2025-06-11T2200,3583A,115.62909,39.02311,保定市,徐水物探局,颗粒物(PM10),95,140,96,36,26,169,,228,217,18,23,3,3,0.4,0.3
2025-06-11T2200,4004A,115.4202,38.8656,保定市,双鹰农机,颗粒物(PM10),68,86,69,48,31,163,,227,,41,31,4,5,0.4,0.4
2025-06-11T2200,4034A,115.5150,38.8590,保定市,植保所站,,,115,71,44,32,,,220,220,24,15,7,7,0.4,0.4
2025-06-11T2200,2594A,99.1678,25.1081,保山市,市环境监测站,,45,38,31,31,20,93,,130,121,7,7,8,8,0.5,0.5
2025-06-11T2200,2595A,99.1711,25.1328,保山市,市环保局,,36,36,31,17,17,105,,132,126,4,5,6,6,0.4,0.4
2025-06-11T2200,1866A,109.2262,21.588,北海市,牛尾岭水库,,13,13,16,3,7,38,,85,58,6,9,2,2,0.5,0.6
2025-06-11T2200,1867A,109.1436,21.4086,北海市,海滩公园,,18,17,23,12,9,51,,79,53,8,8,1,2,0.7,0.5
2025-06-11T2200,1868A,109.0981,21.4661,北海市,新市环保局,,,,18,12,12,,,100,71,,10,,3,,0.5
2025-06-11T2200,1869A,109.1778,21.5233,北海市,北海工业园,,24,24,24,10,13,48,,82,56,12,11,3,4,0.5,0.6
2025-06-11T2200,3400A,109.1911,21.4415,北海市,龙潭自来水厂,,18,14,20,12,15,37,,86,54,10,10,3,3,0.5,0.5
2025-06-11T2200,1001A,116.3621,39.8784,北京市,万寿西宫,臭氧1小时,64,72,59,26,24,171,,215,209,22,30,6,4,0.5,0.5
2025-06-11T2200,1002A,116.2202,40.2915,北京市,定陵,,,,,,,,,,,,,,,,
2025-06-11T2200,1003A,116.4174,39.9289,北京市,东四,颗粒物(PM10),61,72,60,25,23,162,,218,211,29,29,6,4,0.5,0.4
2025-06-11T2200,1004A,116.4072,39.8863,北京市,天坛,颗粒物(PM10),56,62,55,27,21,161,,213,205,27,25,4,3,0.4,0.3
2025-06-11T2200,1005A,116.462,39.9365,北京市,农展馆,颗粒物(PM10),61,72,60,24,23,137,,196,188,31,30,8,5,0.4,0.3
2025-06-11T2200,1006A,116.3392,39.9295,北京市,官园,臭氧1小时,65,69,66,30,24,172,,212,208,21,31,5,4,0.5,0.4
2025-06-11T2200,1007A,116.2878,39.9611,北京市,海淀万柳,颗粒物(PM10),58,66,60,21,22,160,,196,193,21,32,4,4,0.6,0.5
2025-06-11T2200,1008A,116.6636,40.135,北京市,顺义新城,颗粒物(PM10),62,74,54,29,22,141,,194,182,23,28,6,4,0.6,0.4
2025-06-11T2200,1009A,116.6275,40.3275,北京市,怀柔镇,颗粒物(PM10),51,52,43,20,21,157,,206,189,20,15,8,3,0.6,0.4
2025-06-11T2200,1010A,116.2296,40.217,北京市,昌平镇,颗粒物(PM10),63,75,46,27,19,153,,212,203,29,17,6,5,0.5,0.3
2025-06-11T2200,1011A,116.3966,39.9821,北京市,奥体中心,颗粒物(PM10),59,67,57,24,22,138,,186,181,30,32,6,5,0.6,0.4
2025-06-11T2200,3281A,115.9718,40.4529,北京市,延庆夏都,臭氧1小时,77,91,51,32,22,181,,210,206,16,20,6,5,0.5,0.4
2025-06-11T2200,3418A,116.8336,40.4095,北京市,密云新城,臭氧1小时,74,55,43,20,18,179,,206,196,16,12,6,4,0.4,0.3
2025-06-11T2200,3671A,116.088,39.9726,北京市,门头沟三家店,颗粒物(PM10),80,110,60,58,21,106,,198,184,32,22,3,4,0.3,0.1
2025-06-11T2200,3672A,116.1541,39.8204,北京市,丰台云岗,颗粒物(PM10),76,101,77,37,23,152,,220,210,29,23,8,7,0.5,0.4
2025-06-11T2200,3673A,116.6804,39.9081,北京市,通州东关,颗粒物(PM10),66,82,67,23,23,161,,205,194,22,33,6,4,0.9,0.5
2025-06-11T2200,3674A,115.9577,39.7603,北京市,房山燕山,臭氧1小时,72,74,56,28,25,177,,201,195,21,14,4,4,0.5,0.4
2025-06-11T2200,3675A,116.4672,39.7733,北京市,大兴旧宫,颗粒物(PM10),59,67,57,25,21,148,,204,196,28,22,4,3,0.5,0.4
2025-06-11T2200,3694A,115.986,40.4563,北京市,延庆石河营,臭氧1小时,79,79,55,31,23,183,,210,206,18,18,3,3,0.4,0.3
2025-06-11T2200,3695A,116.6151,40.3053,北京市,怀柔新城,颗粒物(PM10),52,54,42,22,24,148,,201,184,21,13,6,3,0.4,0.3
2025-06-11T2200,3696A,116.2545,39.8768,北京市,丰台小屯,颗粒物(PM10),60,69,62,25,23,145,,198,190,28,31,4,4,0.5,0.4
2025-06-11T2200,3697A,116.84,40.3844,北京市,密云镇,臭氧1小时,72,66,42,22,19,177,,201,194,14,20,8,6,0.4,0.4
2025-06-11T2200,4182A,116.1942,39.9158,北京市,八角北路9号,颗粒物(PM10),75,99,77,32,25,143,,199,192,28,33,4,3,0.5,0.3
2025-06-11T2200,4194A,117.0790,40.1518,北京市,洳河巡河路,臭氧1小时,69,47,47,18,21,175,,208,196,13,14,6,4,0.5,0.4
2025-06-11T2200,1761A,123.8275,41.3064,本溪市,大峪,,25,25,25,7,11,46,,122,103,29,18,7,10,0.4,1
2025-06-11T2200,1762A,123.7567,41.3325,本溪市,溪湖,,50,50,32,19,15,54,,127,108,32,21,6,11,0.8,1
2025-06-11T2200,1763A,123.7169,41.3094,本溪市,彩屯,,31,31,27,15,17,42,,128,99,46,25,9,13,0.7,1.1
2025-06-11T2200,1764A,123.7669,41.2864,本溪市,东明,,28,28,37,17,16,72,,133,117,27,24,7,12,0.9,1.4
2025-06-11T2200,1765A,123.7992,41.2664,本溪市,新立屯,,21,18,27,7,13,63,,124,94,41,25,6,9,0.7,0.9
2025-06-11T2200,1766A,123.8142,41.3472,本溪市,威宁,,40,40,39,15,15,51,,124,100,28,22,4,7,0.5,0.9
2025-06-11T2200,2587A,105.2864,27.3125,毕节市,八中,,33,33,31,20,22,75,,119,108,15,10,6,6,0.5,0.4
2025-06-11T2200,2588A,105.31,27.2944,毕节市,师专,,46,46,44,23,21,103,,131,126,15,15,5,5,0.5,0.5
2025-06-11T2200,4263A,105.3688,27.3598,毕节市,工业大道,颗粒物(PM10),51,51,38,28,23,76,,134,120,32,21,9,7,0.7,0.6
2025-06-11T2200,1629A,118.0018,37.3617,滨州市,第二水厂,颗粒物(PM10),56,61,51,22,24,95,,191,167,23,20,5,7,0.4,0.5
2025-06-11T2200,1630A,117.9776,37.393,滨州市,北中新校,颗粒物(PM10),57,63,42,19,18,96,,194,170,24,21,12,12,0.3,0.4
2025-06-11T2200,3514A,117.9378,37.3956,滨州市,中海酒店,颗粒物(PM10),57,63,41,22,23,121,,217,194,25,20,11,11,0.7,0.7
2025-06-11T2200,3515A,117.9378,37.3553,滨州市,开发区一中,颗粒物(PM10),63,75,52,17,19,108,,199,175,34,28,10,11,0.6,0.5
2025-06-11T2200,3516A,118.0917,37.694,滨州市,金海六路,颗粒物(PM10),73,95,51,19,14,103,,192,167,26,22,9,13,0.3,0.2
2025-06-11T2200,4028A,117.9956,37.3753,滨州市,滨州市西街道办事处,颗粒物(PM10),58,66,43,12,19,100,,202,175,22,19,7,9,0.4,0.6
2025-06-11T2200,2311A,115.8072,33.8399,亳州市,污水处理厂,,42,37,39,15,21,133,,190,179,8,11,6,4,0.3,0.6
2025-06-11T2200,2312A,115.7789,33.8518,亳州市,三国揽胜宫,,45,25,41,20,28,144,,192,185,13,11,3,3,0.2,0.4
2025-06-11T2200,3332A,115.7633,33.8034,亳州市,亳州学院,,45,31,36,20,27,142,,198,188,11,9,3,2,0.3,0.5
2025-06-11T2200,2693A,82.0485,44.8556,博尔塔拉蒙古自治州,市党校,,,25,24,13,14,,,118,118,13,9,2,3,0.2,0.2
2025-06-11T2200,2694A,82.0806,44.8969,博尔塔拉蒙古自治州,市环保局,,47,47,32,12,12,102,,116,115,6,6,1,2,0.4,0.4
2025-06-11T2200,1071A,116.8842,38.2991,沧州市,沧县城建局,细颗粒物(PM2.5),117,115,59,88,24,140,,199,194,35,27,5,5,0.4,0.4
2025-06-11T2200,1072A,116.8584,38.3254,沧州市,电视转播站,颗粒物(PM10),76,102,62,41,29,152,,198,194,23,23,3,4,0.4,0.3
2025-06-11T2200,1073A,116.8709,38.3228,沧州市,市环保局,颗粒物(PM10),87,124,73,36,29,134,,192,186,30,21,5,4,0.4,0.3
2025-06-11T2200,3324A,116.8136,38.3004,沧州市,河北水利电力学院,颗粒物(PM10),85,119,72,31,26,172,,222,217,28,24,5,4,0.5,0.4
2025-06-11T2200,2622A,97.1806,31.1273,昌都市,昌都监测站,,,,11,,8,,,105,,,5,,4,,0.4
2025-06-11T2200,3719A,97.1714,31.1406,昌都市,昌都会议中心,,,17,16,,13,,,145,144,10,6,4,4,0.3,0.2
2025-06-11T2200,2690A,88.1236,43.8886,昌吉回族自治州,天山天池,,15,12,22,6,8,47,,80,73,5,6,3,3,0.5,0.6
2025-06-11T2200,2692A,87.2717,44.0297,昌吉回族自治州,新区政务中心,,,,40,,12,,,94,94,24,15,10,7,,0.4
2025-06-11T2200,3613A,87.3095,44.0142,昌吉回族自治州,亚心广场,,,,51,,19,,,88,,,17,,10,,0.3
2025-06-11T2200,1119A,125.3325,43.9166,长春市,食品厂,,,,,,,,,,,,,,,,
2025-06-11T2200,1120A,125.2863,43.9027,长春市,客车厂,,44,44,16,23,10,59,,110,78,36,19,5,5,0.5,0.3
2025-06-11T2200,1121A,125.2841,43.8463,长春市,邮电学院,,31,31,11,3,9,47,,112,87,35,10,5,5,0.5,0.3
2025-06-11T2200,1122A,125.3716,43.8772,长春市,劳动公园,细颗粒物(PM2.5),57,,17,40,13,45,,111,90,35,11,6,11,0.7,0.4
2025-06-11T2200,1123A,125.3297,43.8805,长春市,园林处,,41,41,22,19,14,55,,109,94,35,9,6,6,0.5,0.3
2025-06-11T2200,1124A,125.4605,43.79,长春市,净月潭,,18,15,12,9,7,56,,111,87,11,6,5,6,0.3,0.2
2025-06-11T2200,1125A,125.7194,43.515,长春市,甩湾子,,,,11,,,,,,,,6,,2,,0.5
2025-06-11T2200,1126A,125.3863,43.8447,长春市,经开区环卫处,,43,43,21,14,8,31,,111,85,55,12,6,6,0.3,0.2
2025-06-11T2200,1127A,125.245,43.7783,长春市,高新区管委会,,29,29,15,12,8,34,,115,84,38,13,3,4,0.5,0.3
2025-06-11T2200,1128A,125.1761,43.8325,长春市,岱山公园,,37,37,16,12,9,40,,113,80,53,15,4,4,0.2,0.1
2025-06-11T2200,1335A,113.0833,28.2325,长沙市,经开区环保局,,19,19,20,8,10,48,,78,72,16,9,3,3,0.5,0.5
2025-06-11T2200,1336A,112.8872,28.2189,长沙市,高开区环保局,,,31,28,19,14,,,77,77,12,8,3,4,0.8,0.7
2025-06-11T2200,1337A,113.0792,28.2053,长沙市,马坡岭,,21,21,24,12,12,48,,81,76,19,9,4,4,0.6,0.6
2025-06-11T2200,1338A,112.9394,28.19,长沙市,湖南师范大学,,26,26,24,15,15,46,,74,69,12,10,3,3,0.5,0.6
2025-06-11T2200,1339A,113.0178,28.1322,长沙市,雨花区环保局,,23,23,22,8,12,54,,78,77,12,7,4,4,0.6,0.6
2025-06-11T2200,1340A,112.9792,28.2597,长沙市,伍家岭,,21,21,23,6,10,56,,70,66,9,9,2,2,0.6,0.6
2025-06-11T2200,1341A,113.0014,28.1944,长沙市,火车新站,,20,20,23,3,10,56,,76,74,10,8,6,6,0.6,0.6
2025-06-11T2200,1342A,112.9844,28.1178,长沙市,天心区环保局,,22,22,22,11,13,51,,84,82,11,10,2,2,0.5,0.7
2025-06-11T2200,1343A,112.8908,28.1308,长沙市,湖南中医药大学,,35,35,27,24,19,30,,76,67,19,9,3,3,0.7,0.6
2025-06-11T2200,1344A,112.9581,28.3611,长沙市,沙坪,,26,26,29,14,13,37,,64,57,9,8,3,3,0.6,0.6
2025-06-11T2200,1727A,113.1147,36.1547,长治市,清华站,臭氧1小时,88,50,50,22,22,190,,204,204,11,12,5,6,0.6,0.7
2025-06-11T2200,1730A,113.0886,36.2125,长治市,审计局,,,50,55,27,22,197,,209,207,11,14,10,10,,0.6
2025-06-11T2200,1731A,113.0844,36.1856,长治市,长治八中,臭氧1小时,92,55,57,33,27,193,,207,205,8,11,11,11,0.9,0.8
2025-06-11T2200,2845A,113.1569,36.1911,长治市,德盛苑,臭氧1小时,75,54,49,29,24,180,,200,199,12,11,7,7,0.6,0.7
2025-06-11T2200,3568A,113.06,36.0464,长治市,向阳小学,,,81,80,36,29,,,203,203,12,14,6,7,,0.7
2025-06-11T2200,3569A,112.8792,36.3144,长治市,屯留一中,臭氧1小时,64,,41,39,29,171,,201,196,16,18,5,7,0.3,0.5
2025-06-11T2200,4189A,113.1131,36.19948,长治市,英华南巷50号,臭氧1小时,79,48,55,29,24,183,,199,197,6,8,7,8,0.6,0.7
2025-06-11T2200,4190A,113.2367,36.3344,长治市,学府街1号,臭氧1小时,108,88,70,33,27,216,,230,228,11,37,3,4,0.6,0.7
2025-06-11T2200,1854A,111.6975,28.9703,常德市,市二中,,39,,26,27,22,72,,113,99,18,10,5,6,0.8,0.8
2025-06-11T2200,1857A,111.7158,29.1456,常德市,白鹤山,,,,,,,,,,,,,,,,
2025-06-11T2200,3138A,111.7153,29.0289,常德市,武陵区永安,,,,29,,19,,,100,,,5,,4,,0.6
2025-06-11T2200,3139A,111.6892,28.9881,常德市,鼎城区玉霞,,32,32,27,22,18,87,,123,111,8,7,7,6,0.4,0.4
2025-06-11T2200,3140A,111.6625,29.0531,常德市,武陵区长庚,,,31,26,20,17,,,131,131,5,6,3,3,0.6,0.5
2025-06-11T2200,1196A,119.9633,31.762,常州市,市监测站,,20,16,42,10,24,63,,107,90,10,20,7,7,0.4,0.7
2025-06-11T2200,1200A,119.9468,31.7069,常州市,武进监测站,,24,24,43,11,29,50,,100,87,29,31,1,10,0.8,1.1
2025-06-11T2200,1201A,119.9255,31.9087,常州市,安家,,32,32,39,16,22,54,,106,92,22,25,8,9,0.4,0.5
2025-06-11T2200,3002A,119.9805,31.8174,常州市,行政中心,,25,21,49,17,23,51,,114,96,32,32,7,7,0.4,0.5
2025-06-11T2200,3003A,120.0522,31.7748,常州市,经开区,,28,28,37,8,21,65,,112,94,23,33,7,6,0.2,0.4
2025-06-11T2200,3010A,119.9025,31.7964,常州市,钟楼,,19,17,37,13,24,60,,108,93,22,26,7,7,0.5,0.7
2025-06-11T2200,3429A,119.8598,31.7066,常州市,武进经发区,,24,24,52,12,23,46,,99,88,28,34,6,5,1.0,1.1
2025-06-11T2200,3430A,119.5826,31.7245,常州市,金坛城区,,,60,76,17,25,,,120,116,30,33,6,7,0.5,0.7
2025-06-11T2200,2220A,120.4318,41.5881,朝阳市,西梁,细颗粒物(PM2.5),57,54,37,40,16,154,,139,139,18,25,19,13,0.7,0.5
2025-06-11T2200,2221A,120.4521,41.5646,朝阳市,河畔小区,臭氧1小时,68,43,29,36,13,174,,150,150,16,20,16,8,0.7,0.5
2025-06-11T2200,2222A,120.4176,41.5648,朝阳市,八里堡,,50,50,42,23,14,160,,150,150,20,25,22,9,0.7,0.5
2025-06-11T2200,2223A,120.3806,41.5969,朝阳市,农业园区,细颗粒物(PM2.5),55,42,36,39,12,137,,134,134,20,21,26,9,0.7,0.4
2025-06-11T2200,1705A,116.6367,23.6719,潮州市,西园路,,38,38,35,8,15,80,,107,98,8,9,3,4,0.6,0.3
2025-06-11T2200,3026A,116.6183,23.6608,潮州市,市政府,,,,23,,8,,,46,,,6,,3,,0.4
2025-06-11T2200,4036A,116.6461,23.6761,潮州市,金山,,,,22,,13,,,43,,,6,,8,,0.5
2025-06-11T2200,2472A,113.0073,25.9061,郴州市,马头岭,,15,15,25,6,14,32,,59,51,12,9,6,6,0.5,0.4
2025-06-11T2200,2473A,113.0116,25.8226,郴州市,市职中,,14,14,29,7,23,37,,64,49,8,9,1,3,0.7,0.6
2025-06-11T2200,2475A,113.0383,25.8071,郴州市,市审计局,,15,15,32,8,24,38,,56,49,5,7,4,5,1.1,1.2
2025-06-11T2200,2476A,113.0348,25.7759,郴州市,市环保局,,14,14,40,6,30,39,,63,52,9,15,3,10,0.3,0.4
2025-06-11T2200,4252A,113.0138,25.8011,郴州市,好美居路49号,,,13,34,11,22,,,71,64,7,9,5,5,0.7,0.7
2025-06-11T2200,1431A,103.9728,30.7236,成都市,金泉两河,,50,50,45,31,17,105,,246,223,37,20,3,4,0.8,0.7
2025-06-11T2200,1432A,104.176,30.6872,成都市,十里店,臭氧1小时,93,68,45,31,20,194,,217,213,21,19,6,6,0.6,0.5
2025-06-11T2200,1433A,104.079,30.5706,成都市,三瓦窑,颗粒物(PM10),60,69,46,39,22,156,,203,184,39,31,5,6,0.8,0.5
2025-06-11T2200,1434A,104.1114,30.63,成都市,沙河铺,颗粒物(PM10),55,59,46,29,22,152,,182,165,23,20,5,5,0.6,0.5
2025-06-11T2200,1437A,104.0786,30.6531,成都市,君平街,细颗粒物(PM2.5),62,68,47,44,23,122,,162,155,34,27,6,6,0.7,0.6
2025-06-11T2200,1438A,103.613,31.0283,成都市,灵岩寺,,,,,,,,,,,,,,,,
2025-06-11T2200,2880A,104.0239,30.65639,成都市,大石西路,,,66,47,41,23,151,,226,211,,18,6,6,,0.6
2025-06-11T2200,3136A,104.2725,30.5589,成都市,龙泉驿区区政府,,41,41,32,27,19,128,,198,179,19,11,6,6,0.8,0.7
2025-06-11T2200,3357A,104.0106,30.6931,成都市,金博路,颗粒物(PM10),54,57,42,31,19,119,,220,200,48,32,10,10,0.7,0.6
2025-06-11T2200,3359A,104.0578,30.5225,成都市,华阳,细颗粒物(PM2.5),52,51,42,36,25,122,,192,172,33,23,8,8,0.6,0.5
2025-06-11T2200,3488A,104.3853,30.7453,成都市,青白江技师分院,细颗粒物(PM2.5),59,62,43,42,26,136,,226,207,54,22,6,7,0.6,0.5
2025-06-11T2200,3489A,104.0789,30.4072,成都市,科学城,,44,44,39,27,24,113,,197,185,30,18,4,4,0.6,0.5
2025-06-11T2200,4011A,103.8506,30.6947,成都市,光华大道三段,颗粒物(PM10),60,70,54,34,23,128,,255,237,33,18,5,6,0.8,0.7
2025-06-11T2200,4224A,104.2433,30.5353,成都市,鲸龙路1057号,颗粒物(PM10),57,63,38,36,23,29,,199,169,100,22,8,9,0.9,0.6
2025-06-11T2200,1062A,117.9531,40.9081,承德市,铁路,臭氧1小时,83,71,33,22,11,186,,190,190,18,13,4,3,0.4,0.3
2025-06-11T2200,1063A,117.9392,40.9763,承德市,中国银行,臭氧1小时,101,61,36,33,15,201,,189,189,12,16,3,2,0.4,0.3
2025-06-11T2200,1064A,117.9503,40.928,承德市,开发区,臭氧1小时,103,57,40,25,16,205,,197,197,13,17,5,4,0.4,0.3
2025-06-11T2200,1065A,117.8051,40.9655,承德市,文化中心,臭氧1小时,107,65,51,22,14,214,,190,190,12,21,2,2,0.3,0.3
2025-06-11T2200,1066A,117.9268,41.0026,承德市,离宫,臭氧1小时,94,56,31,34,22,195,,192,192,9,12,1,2,0.4,0.3
2025-06-11T2200,2314A,117.47,30.6618,池州市,池州学院,,26,22,22,14,13,83,,93,90,6,7,4,5,0.4,0.4
2025-06-11T2200,3237A,117.4918,30.6617,池州市,展览馆,,27,19,19,12,12,84,,93,91,5,6,4,4,0.5,0.6
2025-06-11T2200,3333A,117.5627,30.695,池州市,第八中学,,27,19,17,11,13,86,,91,89,5,4,4,5,0.6,0.6
2025-06-11T2200,3334A,117.5038,30.6243,池州市,第十二中学,,25,16,19,12,12,78,,91,87,5,6,2,3,0.6,0.7
2025-06-11T2200,1744A,118.9233,42.2816,赤峰市,松山一中,臭氧1小时,53,35,25,16,13,162,,156,156,17,21,9,7,0.5,0.4
2025-06-11T2200,1745A,118.9576,42.2728,赤峰市,哈达街,,47,47,25,18,14,145,,135,135,22,21,13,11,0.6,0.5
2025-06-11T2200,1746A,118.8788,42.2554,赤峰市,天义路,,47,31,16,26,16,150,,145,145,16,15,8,11,0.4,0.3
2025-06-11T2200,3058A,119.2658,42.0353,赤峰市,银河街,,,85,48,40,22,,,117,117,10,15,27,22,0.6,0.7
2025-06-11T2200,3286A,118.9359,42.3147,赤峰市,桥北物流园区,,43,42,29,27,19,135,,134,134,27,25,13,9,0.6,0.6
2025-06-11T2200,2521A,107.3476,22.4136,崇左市,市环保局江州分局,,21,21,34,13,17,51,,70,67,7,13,6,6,0.5,0.6
2025-06-11T2200,4256A,107.3750,22.3736,崇左市,石景林东路7号,,20,15,32,14,18,62,,76,75,6,16,2,2,0.5,0.5
2025-06-11T2200,2298A,118.3093,32.3153,滁州市,老年大学,颗粒物(PM10),60,70,45,40,30,92,,146,131,32,22,9,7,0.6,0.5
2025-06-11T2200,2299A,118.3244,32.2786,滁州市,人大宾馆,细颗粒物(PM2.5),84,65,39,62,35,78,,135,125,29,22,4,5,0.6,0.5
2025-06-11T2200,3207A,118.3118,32.3038,滁州市,市政府原办公楼,细颗粒物(PM2.5),82,,39,60,40,92,,146,128,23,16,7,5,0.7,0.5
2025-06-11T2200,3331A,118.3267,32.2634,滁州市,图书馆,细颗粒物(PM2.5),72,52,34,52,33,61,,136,121,25,17,8,9,0.7,0.6
2025-06-11T2200,2605A,101.5482,25.0441,楚雄彝族自治州,州环境监测站,,48,35,27,33,17,65,,127,118,33,15,11,9,0.5,0.4
2025-06-11T2200,2606A,101.538,25.0492,楚雄彝族自治州,市经济开发区,颗粒物(PM10),62,73,28,42,18,68,,127,117,28,14,8,8,0.7,0.5
2025-06-11T2200,2548A,107.5277,31.2827,达州市,达州职业技术学院,,37,37,47,14,18,79,,133,129,25,18,5,7,0.7,0.7
2025-06-11T2200,2549A,107.5086,31.2186,达州市,市环境监测站,,37,37,44,17,18,68,,122,111,40,33,6,6,0.4,0.6
2025-06-11T2200,2550A,107.4988,31.2132,达州市,凤凰小区,,41,41,39,14,20,75,,138,129,35,22,6,7,0.5,0.7
2025-06-11T2200,2551A,107.5082,31.1986,达州市,达县机关宾馆,,41,41,38,14,10,48,,131,114,52,26,5,6,0.5,0.6
2025-06-11T2200,2552A,107.4644,31.2124,达州市,市政中心,,,56,47,,18,,,133,133,56,27,3,3,0.7,0.7
2025-06-11T2200,2614A,100.1542,25.7054,大理白族自治州,大理市环境监测站,,30,28,25,19,21,94,,127,116,16,13,6,6,0.4,0.5
2025-06-11T2200,2615A,100.2171,25.5811,大理白族自治州,大理古城,,32,24,20,22,12,82,,122,109,20,9,9,9,0.7,0.6
2025-06-11T2200,1109A,121.612,38.9741,大连市,甘井子,细颗粒物(PM2.5),55,55,28,39,13,113,,171,159,32,24,9,6,0.4,0.3
2025-06-11T2200,1110A,121.565,38.9511,大连市,周水子,细颗粒物(PM2.5),64,49,23,46,21,128,,176,167,26,20,10,10,0.4,0.4
2025-06-11T2200,1111A,121.5637,38.8845,大连市,星海三站,细颗粒物(PM2.5),55,49,25,39,19,128,,154,151,13,12,5,6,0.5,0.5
2025-06-11T2200,1112A,121.6302,38.9117,大连市,青泥洼桥,颗粒物(PM10),55,59,22,32,14,131,,170,164,20,17,8,8,0.5,0.5
2025-06-11T2200,1113A,121.6251,38.8638,大连市,傅家庄,,,47,24,34,16,,,185,185,19,15,8,10,0.2,0.2
2025-06-11T2200,1114A,121.5213,38.8661,大连市,七贤岭,细颗粒物(PM2.5),68,60,28,49,22,125,,185,174,25,16,10,9,0.4,0.4
2025-06-11T2200,1115A,121.2529,38.8061,大连市,旅顺,,44,44,22,24,15,92,,154,144,23,19,3,4,0.3,0.3
2025-06-11T2200,1116A,121.7485,39.1311,大连市,金州,颗粒物(PM10),57,63,34,31,17,140,,187,183,27,25,9,10,0.4,0.4
2025-06-11T2200,1117A,121.7811,39.0496,大连市,开发区,,49,41,30,34,19,133,,161,159,25,30,4,6,0.4,0.4
2025-06-11T2200,1118A,121.9762,39.0631,大连市,双D港,,43,,24,30,15,88,,134,128,23,25,8,10,0.4,0.4
2025-06-11T2200,1789A,124.81117,46.03138,大庆市,大同区,,27,27,21,15,12,57,,84,73,14,8,5,5,0.4,0.3
2025-06-11T2200,1790A,125.129,46.533,大庆市,龙凤区,,29,29,25,8,12,47,,95,76,18,14,5,5,0.6,0.6
2025-06-11T2200,1791A,124.902,46.408,大庆市,红岗区,,28,28,19,14,15,66,,91,79,11,5,9,9,0.5,0.4
2025-06-11T2200,1792A,125.153,46.586,大庆市,萨尔图区,,,30,25,13,10,,,85,80,22,16,8,8,0.4,0.3
2025-06-11T2200,1793A,124.9042,46.6215,大庆市,让胡路区,,25,22,20,17,14,63,,84,77,17,7,4,4,0.4,0.4
2025-06-11T2200,3481A,125.141,46.634,大庆市,萨区政府监测点,,34,34,20,9,5,67,,92,84,13,12,6,5,0.4,0.3
2025-06-11T2200,1721A,113.3819,40.1097,大同市,果树场,,,,,,,,,,,,,,,,
2025-06-11T2200,1723A,113.2994,40.0758,大同市,云冈宾馆,臭氧1小时,112,94,50,39,21,223,,186,186,16,23,9,7,0.8,0.7
2025-06-11T2200,1724A,113.3444,40.0917,大同市,大同大学,臭氧1小时,123,103,53,39,22,246,,197,197,12,17,16,13,0.7,0.7
2025-06-11T2200,1725A,113.2661,40.1269,大同市,安家小村,,,106,54,26,16,,,182,180,13,15,,7,0.6,0.4
2025-06-11T2200,1726A,113.2711,40.0844,大同市,教育学院,臭氧1小时,112,105,60,30,24,224,,187,187,15,29,11,9,0.6,0.5
2025-06-11T2200,3282A,113.3397,40.0597,大同市,大同市卫生学校,臭氧1小时,109,108,51,37,23,218,,179,179,17,26,12,10,0.7,0.7
2025-06-11T2200,3565A,113.1367,40.1122,大同市,云冈站,臭氧1小时,98,91,76,34,41,198,,183,183,17,29,10,12,0.3,0.3
2025-06-11T2200,3566A,113.1186,40.2556,大同市,图书馆,臭氧1小时,84,63,57,31,25,187,,179,179,16,14,10,9,0.7,0.6
2025-06-11T2200,3567A,113.5931,40.0461,大同市,区一中,臭氧1小时,123,82,37,34,17,246,,192,192,13,9,20,14,0.6,0.4
2025-06-11T2200,4199A,113.2798,40.0997,大同市,魏都大道141号,臭氧1小时,112,99,69,37,24,224,,189,189,15,29,10,9,0.7,0.6
2025-06-11T2200,2269A,124.1069,50.4097,大兴安岭地区,科技局,颗粒物(PM10),52,53,23,20,12,28,,67,58,15,4,9,8,0.2,0.2
2025-06-11T2200,3663A,124.1164,50.4278,大兴安岭地区,红旗社区,,27,27,12,10,6,18,,71,59,18,6,5,5,0.4,0.3
2025-06-11T2200,1600A,124.3303,40.0625,丹东市,江湾东路,,32,32,34,18,18,48,,127,98,42,25,25,10,0.7,0.7
2025-06-11T2200,1601A,124.4256,40.1503,丹东市,临江后街,颗粒物(PM10),75,100,47,12,8,95,,124,110,19,22,9,8,0.9,0.7
2025-06-11T2200,1602A,124.3933,40.1461,丹东市,元宝山,颗粒物(PM10),58,66,24,18,10,91,,116,107,26,21,12,8,0.9,0.3
2025-06-11T2200,1603A,124.3633,40.1092,丹东市,民主桥,,37,37,29,21,11,70,,126,110,33,21,10,10,1.0,0.8
2025-06-11T2200,3541A,109.5726,19.5167,儋州市,第一中学子站,,16,16,19,3,9,30,,41,37,4,4,5,6,0.5,0.5
2025-06-11T2200,3542A,109.5567,19.5187,儋州市,东坡学校子站,,18,18,20,3,9,28,,40,35,4,4,5,6,0.5,0.5
2025-06-11T2200,2616A,98.5842,24.428,德宏傣族景颇族自治州,德宏州监测站,,49,49,31,31,17,74,,122,112,23,11,13,8,0.8,0.6
2025-06-11T2200,3677A,98.5881,24.4368,德宏傣族景颇族自治州,芒市人民政府综合楼,颗粒物(PM10),54,57,38,23,17,81,,119,112,15,9,9,8,0.6,0.5
2025-06-11T2200,1901A,104.4239,31.1208,德阳市,东山公园,臭氧1小时,72,58,36,33,21,177,,211,210,16,11,7,6,0.8,0.8
2025-06-11T2200,1902A,104.3826,31.1317,德阳市,西小区,颗粒物(PM10),58,65,39,37,22,153,,210,207,30,17,4,5,0.8,0.6
2025-06-11T2200,1904A,104.3553,31.1091,德阳市,耐火材料厂,颗粒物(PM10),70,89,60,43,33,114,,236,217,48,28,8,8,0.8,0.7
2025-06-11T2200,3639A,104.4019,31.1244,德阳市,市教育局,细颗粒物(PM2.5),58,56,36,41,20,154,,221,213,32,16,9,8,0.8,0.7
2025-06-11T2200,1622A,116.3032,37.4674,德州市,儿童乐园,颗粒物(PM10),100,149,104,36,32,183,,240,227,14,19,8,10,0.7,0.6
2025-06-11T2200,1624A,116.2991,37.4451,德州市,监理站,颗粒物(PM10),98,146,95,39,28,174,,235,220,17,21,8,10,0.5,0.5
2025-06-11T2200,3066A,116.2721,37.4379,德州市,九衢泉纯净水厂,颗粒物(PM10),103,156,98,41,31,152,,222,203,24,33,6,8,0.6,0.6
2025-06-11T2200,3371A,116.3728,37.4403,德州市,开发区人民医院,颗粒物(PM10),113,175,110,39,29,137,,223,204,41,30,7,10,0.7,0.7
2025-06-11T2200,3372A,116.3572,37.4094,德州市,太阳城中学,颗粒物(PM10),161,271,122,48,34,144,,231,214,32,40,4,7,0.6,0.5
2025-06-11T2200,3511A,116.5652,37.3319,德州市,陵城艺术中心,颗粒物(PM10),108,166,108,44,30,175,,218,209,16,25,9,9,0.5,0.5
2025-06-11T2200,2621A,99.7056,27.8317,迪庆藏族自治州,迪庆州站,,30,28,20,18,15,96,,120,115,12,7,6,6,0.5,0.4
2025-06-11T2200,3180A,99.7136,27.8094,迪庆藏族自治州,质量技术监督局,,33,17,19,11,10,103,,118,116,9,10,6,6,0.4,0.4
2025-06-11T2200,4257A,104.6092,35.5962,定西市,将台街,颗粒物(PM10),57,63,45,24,16,122,,150,146,10,18,5,5,0.2,0.2
2025-06-11T2200,4309A,104.6159,35.5701,定西市,正龙路62号,,44,44,41,20,18,124,,149,146,6,10,8,8,0.2,0.2
2025-06-11T2200,1389A,113.7547,23.0494,东莞市,莞城梨川,,14,14,25,6,8,28,,75,46,12,10,6,6,0.3,0.3
2025-06-11T2200,1390A,113.7944,23.0128,东莞市,东城石井,,,,17,,5,,,53,,,11,,3,,0.5
2025-06-11T2200,1391A,113.7383,22.9658,东莞市,南城西平,,19,19,18,3,5,27,,72,45,16,17,3,4,0.4,0.4
2025-06-11T2200,3319A,113.7338,23.0381,东莞市,万江金泰,,,,18,,6,,,46,,,10,,4,,0.5
2025-06-11T2200,3626A,113.7533,23.0202,东莞市,南城元岭,,12,12,16,3,6,21,,68,42,18,14,4,5,0.5,0.5
2025-06-11T2200,3627A,113.7875,23.0457,东莞市,东城主山,,15,15,20,3,7,25,,70,40,13,11,6,7,0.5,0.6
2025-06-11T2200,1666A,118.6614,37.4309,东营市,市环保局,,31,31,35,7,11,87,,169,149,21,22,11,8,0.4,0.4
2025-06-11T2200,3036A,118.6904,37.4338,东营市,开发区管委会,,50,50,43,3,12,95,,181,152,18,22,4,8,0.4,0.5
2025-06-11T2200,3365A,118.5719,37.565,东营市,垦利区民丰路,,34,34,36,3,11,94,,180,152,20,22,8,10,0.4,0.6
2025-06-11T2200,3498A,118.5055,37.8612,东营市,河口城区,颗粒物(PM10),52,53,36,3,11,105,,182,157,18,21,8,10,0.7,0.7
2025-06-11T2200,3646A,118.4978,37.4623,东营市,胜利站,,46,46,43,3,11,88,,162,145,21,26,8,10,0.5,0.6
2025-06-11T2200,3734A,118.35,37.26,东营市,理想之城,,34,34,38,9,15,79,,182,151,30,26,7,7,0.5,0.6
2025-06-11T2200,1591A,110.0023,39.8129,鄂尔多斯市,综合楼,颗粒物(PM10),60,70,48,17,15,140,,160,148,12,22,5,11,0.5,0.6
2025-06-11T2200,1592A,109.9486,39.8261,鄂尔多斯市,巴音孟克林场办事处,颗粒物(PM10),81,112,70,19,19,150,,169,155,12,21,6,12,0.4,0.5
2025-06-11T2200,1593A,109.7736,39.5986,鄂尔多斯市,康泽苑,颗粒物(PM10),65,80,63,17,17,159,,172,161,8,21,3,9,0.3,0.4
2025-06-11T2200,1594A,109.8119,39.5989,鄂尔多斯市,华泰汽车城,颗粒物(PM10),56,61,59,19,18,140,,156,145,10,27,4,8,0.3,0.4
2025-06-11T2200,1595A,109.9734,39.7884,鄂尔多斯市,奥林花园,颗粒物(PM10),78,105,64,19,21,143,,159,148,12,22,6,11,0.4,0.5
2025-06-11T2200,2436A,114.8938,30.3994,鄂州市,市政府,颗粒物(PM10),52,54,47,29,18,77,,109,101,17,15,8,9,0.9,0.8
2025-06-11T2200,2437A,114.8989,30.3714,鄂州市,赵家坝,,46,46,31,20,12,64,,100,91,19,16,8,8,1.1,0.9
2025-06-11T2200,3654A,114.8094,30.4089,鄂州市,精准医疗中心,,42,42,30,20,13,54,,91,76,20,14,6,6,1.0,0.9
2025-06-11T2200,2454A,109.4978,30.2981,恩施土家族苗族自治州,湖北民院,,48,48,39,29,23,101,,173,160,12,9,4,5,0.3,0.5
2025-06-11T2200,2455A,109.4707,30.2798,恩施土家族苗族自治州,州电力总公司,,43,31,42,30,23,101,,168,149,11,14,7,7,0.5,0.5
2025-06-11T2200,3549A,109.5061,30.3772,恩施土家族苗族自治州,龙凤新区,,,39,30,,26,72,,172,149,10,6,6,11,0.5,0.5
2025-06-11T2200,2499A,108.3411,21.6158,防城港市,沙万,,20,19,27,14,15,50,,85,65,12,8,2,1,0.7,0.6
2025-06-11T2200,2500A,108.3514,21.7731,防城港市,防城档案局,,,,38,,16,30,,77,61,20,13,,2,0.5,0.6
2025-06-11T2200,2501A,108.3506,21.6414,防城港市,大海花园,,20,16,29,10,14,63,,103,,9,7,3,3,0.7,0.6
2025-06-11T2200,1371A,113.1294,23.0067,佛山市,湾梁,,24,24,20,11,9,3,,69,35,40,25,8,8,0.7,0.7
2025-06-11T2200,1372A,113.1083,23.0478,佛山市,华材职中,,17,14,18,11,8,6,,91,51,33,16,6,6,0.5,0.4
2025-06-11T2200,1373A,113.144,23.0453,佛山市,南海气象局,,,21,21,12,12,,,69,45,36,21,2,3,0.5,0.7
2025-06-11T2200,1374A,113.2881,22.8094,佛山市,顺德苏岗,,16,16,25,3,6,17,,57,33,18,16,6,6,0.7,0.7
2025-06-11T2200,1376A,112.8383,22.8678,佛山市,高明孔堂,,,,28,16,14,,,64,60,16,21,6,8,0.5,0.6
2025-06-11T2200,1377A,112.8836,23.1588,佛山市,三水监测站,,41,41,27,6,12,2,,78,46,67,27,6,3,0.7,0.6
2025-06-11T2200,1378A,112.867,23.185,佛山市,三水云东海,,41,41,38,6,13,1,,83,46,48,21,2,3,0.7,0.5
2025-06-11T2200,3625A,113.2544,22.7642,佛山市,容桂街道办,,9,7,12,3,8,24,,62,38,17,16,5,5,0.6,0.6
2025-06-11T2200,1280A,119.3903,26.0543,福州市,鼓山,,,,14,,7,,,57,,,4,,1,,0.2
2025-06-11T2200,1282A,119.2681,26.0504,福州市,师大,,19,13,25,3,8,58,,86,79,4,9,4,4,0.3,0.3
2025-06-11T2200,1283A,119.2984,26.1028,福州市,五四北路,,18,15,21,3,9,55,,76,71,6,10,4,4,0.6,0.5
2025-06-11T2200,1284A,119.2648,26.0768,福州市,杨桥西路,,18,13,25,3,9,57,,85,78,6,11,3,3,0.4,0.4
2025-06-11T2200,1285A,119.317,26.0746,福州市,紫阳,,18,11,29,3,10,57,,75,71,5,13,6,6,0.3,0.4
2025-06-11T2200,3048A,119.5799,26.0936,福州市,九龙,,18,12,13,3,4,57,,99,92,11,6,4,4,0.2,0.3
2025-06-11T2200,3526A,119.5189,25.9664,福州市,吴航,,18,12,18,6,9,57,,91,87,8,8,4,5,0.5,0.5
2025-06-11T2200,1755A,123.7977,41.8491,抚顺市,望花区,,49,49,32,27,15,67,,130,118,45,31,24,9,0.9,0.6
2025-06-11T2200,1756A,123.9161,41.8822,抚顺市,顺城区,,41,41,32,14,13,23,,124,104,62,28,9,10,0.5,0.6
2025-06-11T2200,1757A,124.0436,41.8611,抚顺市,东洲区,,26,,30,7,15,81,,131,125,18,23,5,9,0.3,0.6
2025-06-11T2200,1758A,123.9247,41.8642,抚顺市,新抚区,,41,41,38,13,14,32,,121,100,49,26,7,11,0.5,0.7
2025-06-11T2200,1759A,124.0972,41.8961,抚顺市,大伙房水库,,19,18,22,9,18,60,,133,118,24,22,8,11,0.3,0.5
2025-06-11T2200,1760A,123.7086,41.8391,抚顺市,沈抚新城,,34,34,27,10,16,89,,126,117,30,32,8,10,0.7,0.7
2025-06-11T2200,2376A,116.2127,28.0814,抚州市,桐源党溪,,24,24,24,9,13,50,,60,58,2,3,3,4,0.9,1
2025-06-11T2200,2377A,116.3544,27.9831,抚州市,市站,,17,14,22,10,12,54,,72,66,4,4,2,1,1.1,1.1
2025-06-11T2200,2378A,116.3565,27.963,抚州市,血防站,,45,45,29,14,13,55,,74,67,3,3,6,3,0.7,0.8
2025-06-11T2200,2379A,116.3564,28.0007,抚州市,采茶剧团,,27,27,22,12,11,52,,66,63,2,2,6,2,0.4,0.5
2025-06-11T2200,2380A,116.385,27.9647,抚州市,医学分院,,19,19,22,6,10,55,,75,68,2,2,4,4,0.8,0.8
2025-06-11T2200,2207A,121.6094,41.998,阜新市,工业园区,,43,33,30,30,17,124,,149,149,20,30,16,10,0.7,0.5
2025-06-11T2200,2208A,121.6697,42.0279,阜新市,长青街,,37,36,26,22,14,116,,141,141,15,24,14,10,0.6,0.8
2025-06-11T2200,2209A,121.6673,42.0705,阜新市,农业园区,,39,38,28,22,7,124,,143,143,17,18,8,7,0.7,0.6
2025-06-11T2200,2210A,121.6717,42.0224,阜新市,东苑,,41,36,38,27,19,130,,151,151,15,25,19,12,0.7,1
2025-06-11T2200,2211A,121.6506,42.0498,阜新市,玉龙新城,,39,35,31,26,13,123,,145,145,15,25,13,9,0.8,0.8
2025-06-11T2200,2301A,115.8277,32.8929,阜阳市,市监测站,,50,50,43,31,25,135,,164,155,19,11,3,3,0.4,0.4
2025-06-11T2200,2303A,115.8554,32.8605,阜阳市,开发区,颗粒物(PM10),54,58,43,27,17,141,,165,159,20,11,5,5,0.3,0.3
2025-06-11T2200,2875A,115.784,32.8892,阜阳市,阜阳职业技术学院,,50,42,28,24,17,158,,171,168,13,9,4,5,0.6,0.5
2025-06-11T2200,3468A,115.7901,32.8613,阜阳市,市规划展馆,颗粒物(PM10),53,56,37,30,22,144,,166,162,16,10,3,3,0.4,0.4
2025-06-11T2200,3469A,115.836,32.9183,阜阳市,枣园社区,,,,43,,23,138,,163,156,17,9,5,4,,0.6
2025-06-11T2200,2669A,102.9099,34.9841,甘南藏族自治州,州政府,,43,,43,30,21,89,,143,137,6,17,4,4,0.3,0.4
2025-06-11T2200,3380A,102.8914,34.9617,甘南藏族自治州,甘肃民族师范学院,,,,59,41,17,4,,132,116,80,19,9,8,0.5,0.4
2025-06-11T2200,2570A,101.9603,30.0475,甘孜藏族自治州,水桥子,,42,42,22,19,10,9,,103,75,76,30,5,5,0.6,0.4
2025-06-11T2200,3065A,101.9533,29.9972,甘孜藏族自治州,州环保局,,,35,22,10,6,,,108,95,20,16,2,2,0.5,0.5
2025-06-11T2200,3414A,115.8347,28.932,赣江新区,桑海产业园,,21,14,18,10,13,67,,89,85,12,11,5,5,0.9,0.7
2025-06-11T2200,2362A,114.9017,25.9149,赣州市,通天岩,,25,25,27,3,6,47,,64,58,4,7,1,2,0.6,0.7
2025-06-11T2200,2363A,114.9367,25.8664,赣州市,地委,,24,24,21,12,14,67,,64,64,7,7,1,2,0.6,0.6
2025-06-11T2200,2364A,114.9461,25.8481,赣州市,气象台,,25,25,25,10,11,63,,60,60,4,5,7,8,0.6,0.6
2025-06-11T2200,2365A,114.9322,25.8333,赣州市,市图书馆,,26,26,20,18,13,65,,65,65,4,3,4,4,0.4,0.5
2025-06-11T2200,2366A,114.8905,25.8471,赣州市,华坚鞋城,,27,27,24,18,13,56,,60,59,5,6,3,3,0.3,0.3
2025-06-11T2200,3109A,115.0093,25.8613,赣州市,赣县区卫计委,,20,18,22,14,13,56,,58,57,5,6,3,3,0.4,0.4
2025-06-11T2200,2683A,106.2319,36.1417,固原市,马园,颗粒物(PM10),63,76,49,14,15,79,,147,132,68,22,6,6,0.3,0.2
2025-06-11T2200,2684A,106.2792,36.0022,固原市,监测站,,,,42,,15,,,135,133,19,9,,5,,0.2
2025-06-11T2200,2685A,106.2375,36.0211,固原市,新区,,42,42,40,21,15,119,,133,130,17,7,6,5,0.3,0.3
2025-06-11T2200,3522A,106.2177,35.9959,固原市,原州区十五小,,44,44,43,23,19,138,,135,134,12,5,10,8,0.3,0.2
2025-06-11T2200,2543A,106.6308,30.5278,广安市,小平旧居,,,,,,,,,,,,,,,,
2025-06-11T2200,2544A,106.6303,30.4576,广安市,市委,,45,45,37,31,28,69,,166,149,39,18,5,5,0.7,0.6
2025-06-11T2200,2545A,106.6271,30.4663,广安市,友谊中学,,,,43,,21,,,111,,,17,,6,,0.9
2025-06-11T2200,2547A,106.6388,30.4551,广安市,广电花园,,49,49,36,26,22,52,,162,142,44,18,8,8,0.8,0.6
2025-06-11T2200,2902A,106.6351,30.4865,广安市,北辰小学,,,57,40,36,22,72,,175,158,42,17,10,8,,0.7
2025-06-11T2200,2523A,105.8945,32.4535,广元市,黑石坡,,48,48,34,28,12,140,,152,150,10,11,5,9,0.4,0.4
2025-06-11T2200,2524A,105.821,32.4444,广元市,老城,颗粒物(PM10),52,54,25,28,12,81,,166,154,54,18,5,14,0.8,0.8
2025-06-11T2200,2526A,105.8628,32.4287,广元市,监测站,,38,33,20,16,12,120,,166,158,18,14,5,8,0.4,0.4
2025-06-11T2200,3617A,105.8047,32.4166,广元市,经开区,,48,48,40,26,21,81,,161,,59,19,4,16,0.5,0.6
2025-06-11T2200,1345A,113.2347,23.1423,广州市,广雅中学,,34,34,23,18,10,3,,81,46,36,19,2,3,0.8,0.7
2025-06-11T2200,1346A,113.2612,23.105,广州市,市五中,,,,18,,7,,,56,,,19,,4,,0.4
2025-06-11T2200,1348A,113.3478,23.0916,广州市,广东商学院,,32,32,22,15,9,10,,82,50,42,25,4,4,0.8,0.7
2025-06-11T2200,1349A,113.4332,23.1047,广州市,市八十六中,,27,27,24,13,10,0,,72,28,29,22,3,4,0.6,0.4
2025-06-11T2200,1350A,113.3505,22.9483,广州市,番禺中学,,,,20,,8,,,53,,,18,,7,,0.4
2025-06-11T2200,1351A,113.2146,23.3916,广州市,花都师范,,33,33,24,13,11,10,,68,43,38,17,3,4,0.8,0.7
2025-06-11T2200,1352A,113.2597,23.1331,广州市,市监测站,,31,31,23,14,8,4,,82,47,45,24,5,5,0.7,0.6
2025-06-11T2200,1353A,113.5618,23.312,广州市,九龙镇镇龙,,17,17,19,9,8,20,,52,36,15,13,6,6,0.4,0.4
2025-06-11T2200,1354A,113.2765,23.1544,广州市,麓湖,,30,30,23,14,9,2,,69,37,32,23,1,2,0.7,0.5
2025-06-11T2200,1355A,113.443,23.3035,广州市,帽峰山森林公园,,12,8,15,8,8,37,,81,60,19,19,8,8,0.5,0.6
2025-06-11T2200,2846A,113.3221,23.1322,广州市,体育西,,33,32,25,23,12,8,,49,31,53,41,4,5,0.6,0.4
2025-06-11T2200,3298A,113.5717,23.5491,广州市,从化街口,,9,9,17,3,8,23,,54,44,13,15,7,8,0.4,0.5
2025-06-11T2200,3299A,113.3472,23.3692,广州市,白云竹料,,,21,17,,10,,,68,56,,12,,4,,0.5
2025-06-11T2200,3300A,113.2981,23.237,广州市,白云嘉禾,,31,31,27,13,10,4,,70,40,29,24,6,6,1.0,0.8
2025-06-11T2200,3301A,113.4256,23.1716,广州市,黄埔科学城,,,,18,,8,,,40,,,15,,4,,0.5
2025-06-11T2200,3302A,113.3942,23.0483,广州市,番禺大学城,,27,27,25,8,9,16,,82,42,29,26,6,6,0.5,0.5
2025-06-11T2200,3303A,113.4922,22.8168,广州市,南沙黄阁,,14,14,19,3,8,29,,60,38,9,11,6,6,0.5,0.5
2025-06-11T2200,3304A,113.5342,22.7896,广州市,南沙街,,14,14,18,3,7,30,,59,37,11,13,3,3,0.5,0.1
2025-06-11T2200,3443A,113.2902,23.5544,广州市,花都梯面,,11,11,16,3,8,23,,59,41,10,12,4,6,0.4,0.5
2025-06-11T2200,3445A,113.7858,23.7478,广州市,从化良口,,18,18,18,7,8,13,,50,41,12,7,6,6,0.7,0.7
2025-06-11T2200,3446A,113.8051,23.2614,广州市,增城荔城,,17,17,14,6,6,22,,53,36,13,9,6,6,0.2,0.2
2025-06-11T2200,2505A,109.568,23.1478,贵港市,德智高中,,,,,,,,,,,,,,,,
2025-06-11T2200,2506A,109.6047,23.0666,贵港市,江南子站,,17,17,17,10,13,43,,84,69,19,9,8,5,0.8,0.6
2025-06-11T2200,2508A,109.5669,23.1065,贵港市,荷城子站,,18,18,20,7,8,48,,68,62,12,11,5,5,0.4,0.4
2025-06-11T2200,3405A,109.5886,23.1172,贵港市,新世纪学校,,16,,18,11,13,50,,72,65,6,9,1,2,0.5,0.6
2025-06-11T2200,4260A,109.5933,23.0951,贵港市,中山路155-3号,,17,10,25,8,11,54,,82,73,9,10,3,3,0.5,0.6
2025-06-11T2200,1439A,106.6899,26.5998,贵阳市,马鞍山,,25,22,29,12,11,80,,126,111,14,10,4,4,0.4,0.3
2025-06-11T2200,1441A,106.6243,26.6266,贵阳市,鉴湖路,,44,44,35,14,13,93,,128,118,20,10,5,6,0.4,0.4
2025-06-11T2200,1442A,106.7487,26.6343,贵阳市,燕子冲,,36,36,32,24,24,97,,142,127,12,12,3,4,0.4,0.3
2025-06-11T2200,1443A,106.6555,26.4365,贵阳市,碧云窝,,39,39,40,17,15,93,,144,134,13,9,4,5,0.4,0.4
2025-06-11T2200,1445A,106.7109,26.6027,贵阳市,红边门,,44,44,33,24,16,94,,144,127,17,10,5,5,0.3,0.2
2025-06-11T2200,1446A,106.7164,26.5699,贵阳市,新华路,颗粒物(PM10),51,51,31,22,16,96,,142,128,21,11,9,12,0.2,0.4
2025-06-11T2200,1447A,106.674,26.5424,贵阳市,太慈桥,,39,39,26,19,15,100,,140,124,24,17,4,4,0.5,0.4
2025-06-11T2200,1552A,106.805,26.3003,贵阳市,桐木岭,细颗粒物(PM2.5),52,48,43,36,26,100,,136,126,5,3,1,1,0.9,0.7
2025-06-11T2200,4230A,106.6882,26.5695,贵阳市,花果园大街66号,,44,44,30,28,21,95,,140,128,24,10,4,4,0.4,0.3
2025-06-11T2200,4231A,106.6873,26.5169,贵阳市,漓江路57号,,36,36,28,24,16,101,,142,128,18,8,2,2,0.4,0.3
2025-06-11T2200,1862A,110.4144,25.3167,桂林市,电子科大尧山校区,,,,,,,,,,,,,,,,
2025-06-11T2200,1864A,110.3089,25.2708,桂林市,龙隐路小学,,28,28,26,18,16,71,,84,79,7,5,8,8,0.7,0.7
2025-06-11T2200,1865A,110.2869,25.2178,桂林市,八中,,31,31,28,18,16,65,,82,76,11,10,5,5,0.7,0.7
2025-06-11T2200,3531A,110.296,25.1253,桂林市,旅游学院,,28,22,21,19,19,68,,79,76,8,8,1,2,0.5,0.4
2025-06-11T2200,4222A,110.1835,25.2444,桂林市,环湖路276号,,25,19,27,17,21,76,,76,76,4,8,6,14,0.5,0.5
2025-06-11T2200,4301A,110.2803,25.2773,桂林市,信义路13号,,29,26,29,20,19,77,,84,81,8,7,1,1,0.6,0.7
2025-06-11T2200,2674A,100.2561,34.4714,果洛藏族自治州,玛沁县大武镇,,36,34,17,25,14,110,,133,127,3,3,18,18,0.4,0.4
2025-06-11T2200,1129A,126.5422,45.755,哈尔滨市,岭北,,25,21,10,17,7,73,,104,98,29,9,12,13,0.8,0.7
2025-06-11T2200,1130A,126.561,45.8167,哈尔滨市,松北商大,,34,34,15,22,6,26,,78,64,44,12,7,7,0.7,0.5
2025-06-11T2200,1131A,126.979,45.5419,哈尔滨市,阿城会宁,,32,32,17,22,10,28,,106,87,45,14,6,8,0.5,0.6
2025-06-11T2200,1132A,126.599,45.7222,哈尔滨市,南岗学府路,颗粒物(PM10),82,114,23,54,8,3,,93,70,84,14,6,5,1.6,0.6
2025-06-11T2200,1133A,126.689,45.7733,哈尔滨市,太平宏伟公园,颗粒物(PM10),53,56,15,36,8,14,,92,76,77,12,5,5,0.8,0.4
2025-06-11T2200,1134A,126.635,45.7667,哈尔滨市,道外承德广场,颗粒物(PM10),58,66,27,23,7,27,,89,77,61,14,6,6,0.6,0.4
2025-06-11T2200,1135A,126.685,45.7319,哈尔滨市,香坊红旗大街,,,90,21,,10,7,,92,70,82,17,8,6,1.1,0.6
2025-06-11T2200,1136A,126.6411,45.7258,哈尔滨市,动力和平路,颗粒物(PM10),53,55,19,28,9,33,,98,81,60,14,8,6,0.7,0.4
2025-06-11T2200,1137A,126.593,45.7478,哈尔滨市,道里建国路,,40,40,22,18,13,14,,98,72,80,15,9,7,1.0,0.5
2025-06-11T2200,1138A,126.615,45.61,哈尔滨市,平房东轻厂,,34,34,16,7,9,45,,95,78,47,18,8,8,0.4,0.3
2025-06-11T2200,1139A,126.595,45.9855,哈尔滨市,呼兰师专,,37,37,13,18,6,50,,86,74,36,11,9,8,0.4,0.3
2025-06-11T2200,1140A,126.6206,45.6842,哈尔滨市,省农科院,颗粒物(PM10),59,67,24,41,12,5,,88,63,84,16,6,5,0.7,0.4
2025-06-11T2200,2688A,93.5128,42.8172,哈密市,地区监测站,颗粒物(PM10),55,59,52,12,18,105,,106,104,9,9,3,3,0.1,0.1
2025-06-11T2200,2689A,93.4961,42.8328,哈密市,哈密师范学校,,,,41,,12,91,,102,100,,12,5,4,0.3,0.1
2025-06-11T2200,2671A,100.9048,36.9639,海北藏族自治州,海晏县西海镇,,31,21,15,12,16,98,,143,130,8,5,6,6,0.4,0.3
2025-06-11T2200,3867A,102.0738,36.5056,海东市,平安区公安北苑,,35,35,58,16,20,105,,155,146,22,8,7,11,0.5,0.5
2025-06-11T2200,1409A,110.576,19.9507,海口市,东寨港,,20,20,21,7,7,41,,45,44,3,4,8,5,0.4,0.5
2025-06-11T2200,1410A,110.3232,20.0574,海口市,海南大学,,23,23,20,8,8,47,,50,49,2,3,2,2,0.3,0.3
2025-06-11T2200,1411A,110.283,20.0053,海口市,秀英海南医院,,24,24,19,8,6,44,,48,47,3,4,4,4,0.2,0.2
2025-06-11T2200,1412A,110.338,19.9969,海口市,海南师范大学,,25,25,19,8,7,46,,48,46,2,3,3,3,0.4,0.4
2025-06-11T2200,1413A,110.33,20.0356,海口市,龙华路环保局宿舍,,27,27,21,9,9,45,,49,47,3,4,4,4,0.2,0.2
2025-06-11T2200,3539A,110.5111,19.9736,海口市,桂林洋子站,,,,16,,7,,,39,,,4,,4,,0.2
2025-06-11T2200,2673A,100.6188,36.2866,海南藏族自治州,共和县恰卜恰镇,颗粒物(PM10),52,53,24,3,10,108,,153,147,19,9,16,15,0.3,0.3
2025-06-11T2200,2676A,97.3731,37.3753,海西蒙古族藏族自治州,德令哈市,,41,29,27,12,12,129,,162,158,4,6,14,11,0.7,0.7
2025-06-11T2200,1048A,114.5302,36.6116,邯郸市,东污水处理厂,颗粒物(PM10),64,78,86,12,18,148,,79,,20,39,2,8,0.5,0.5
2025-06-11T2200,1049A,114.4918,36.5713,邯郸市,矿院,臭氧1小时,55,48,66,19,28,164,,214,204,13,29,18,13,0.5,0.5
2025-06-11T2200,1050A,114.484,36.6133,邯郸市,丛台公园,臭氧1小时,68,70,65,27,26,174,,217,209,12,21,15,14,0.5,0.4
2025-06-11T2200,3458A,114.7895,36.5593,邯郸市,香泉濮院小区,颗粒物(PM10),72,93,91,16,16,153,,201,189,16,18,3,5,0.6,0.5
2025-06-11T2200,3579A,114.50634,36.77178,邯郸市,永年区实验高中,臭氧1小时,69,71,87,43,39,175,,225,213,12,21,2,6,0.4,0.5
2025-06-11T2200,3580A,114.20016,36.44293,邯郸市,峰峰矿区临水派出所,臭氧1小时,72,43,52,8,13,177,,212,204,6,11,6,10,0.4,0.5
2025-06-11T2200,2634A,106.9893,33.1842,汉中市,汉川机床厂子校,,31,31,39,19,17,94,,153,147,16,10,3,3,0.5,0.4
2025-06-11T2200,2635A,107.0154,33.0706,汉中市,市监测站,,46,46,33,21,16,94,,152,142,20,10,6,5,0.7,0.6
2025-06-11T2200,2636A,107.0089,33.1138,汉中市,鑫源开发区,,35,30,33,24,16,80,,150,138,24,13,6,6,0.4,0.4
2025-06-11T2200,2637A,107.007,33.0323,汉中市,南郑大河坎水厂,,43,43,30,21,16,97,,158,150,18,13,5,4,0.4,0.4
2025-06-11T2200,1223A,120.2072,30.2111,杭州市,滨江,,29,29,19,19,12,79,,88,81,33,26,7,6,0.7,0.6
2025-06-11T2200,1224A,120.0633,30.2747,杭州市,西溪,,38,30,16,26,13,51,,79,68,12,11,3,3,0.4,0.4
2025-06-11T2200,1226A,120.3417,30.3150,杭州市,下沙,,30,19,14,11,9,96,,87,81,22,29,6,5,0.3,0.3
2025-06-11T2200,1227A,120.1269,30.2456,杭州市,卧龙桥,,24,23,18,14,11,75,,90,77,13,15,7,6,0.4,0.4
2025-06-11T2200,1228A,120.1903,30.2692,杭州市,浙江农大,,32,25,23,22,17,70,,65,55,25,28,8,8,0.6,0.5
2025-06-11T2200,1230A,120.1197,30.3119,杭州市,和睦小学,,28,28,18,17,11,66,,87,78,20,16,7,6,0.4,0.3
2025-06-11T2200,1231A,120.3019,30.4183,杭州市,临平镇,,29,29,22,13,11,88,,92,84,18,14,5,5,0.5,0.4
2025-06-11T2200,1232A,120.2753,30.1839,杭州市,城厢镇,细颗粒物(PM2.5),54,,19,38,20,74,,83,83,26,23,7,7,0.5,0.5
2025-06-11T2200,1233A,120.0883,30.1808,杭州市,云栖,,28,19,12,19,11,69,,87,83,20,14,6,6,0.5,0.5
2025-06-11T2200,3557A,119.9464,30.0494,杭州市,镇二中,,33,32,15,23,12,79,,88,84,19,16,2,2,0.6,0.5
2025-06-11T2200,3558A,119.7183,30.2367,杭州市,市府大楼,,28,25,25,19,11,76,,90,86,14,14,6,6,0.2,0.3
2025-06-11T2200,3656A,120.1556,30.2864,杭州市,消防大队,,33,25,18,23,15,73,,76,68,25,25,4,4,0.5,0.6
2025-06-11T2200,1270A,117.1959,31.7848,合肥市,明珠广场,细颗粒物(PM2.5),52,51,50,36,34,110,,141,133,20,21,5,6,0.7,0.8
2025-06-11T2200,1271A,117.3072,31.8764,合肥市,三里街,,45,39,46,31,32,102,,122,118,15,18,5,6,0.7,0.9
2025-06-11T2200,1272A,117.2588,31.8707,合肥市,琥珀山庄,,48,39,44,33,35,107,,135,129,19,19,6,6,0.7,0.9
2025-06-11T2200,1273A,117.1604,31.9052,合肥市,董铺水库,细颗粒物(PM2.5),58,63,50,41,40,108,,132,127,14,10,2,2,0.6,0.7
2025-06-11T2200,1274A,117.25,31.8571,合肥市,长江中路,细颗粒物(PM2.5),54,53,56,38,35,103,,138,130,21,17,4,4,0.7,0.8
2025-06-11T2200,1275A,117.266,31.9436,合肥市,庐阳区,,42,41,48,29,33,114,,140,132,16,21,6,7,0.7,0.9
2025-06-11T2200,1276A,117.3453,31.8616,合肥市,瑶海区,细颗粒物(PM2.5),53,48,49,37,33,98,,129,121,23,21,6,7,0.8,1
2025-06-11T2200,1277A,117.3027,31.7964,合肥市,包河区,颗粒物(PM10),57,63,49,36,36,73,,131,121,46,42,4,4,0.7,0.9
2025-06-11T2200,1278A,117.2776,31.7385,合肥市,滨湖新区,细颗粒物(PM2.5),55,51,47,39,39,105,,135,128,18,15,8,8,0.8,0.9
2025-06-11T2200,1279A,117.1318,31.8403,合肥市,高新区,细颗粒物(PM2.5),60,51,48,43,36,106,,139,132,21,21,6,7,0.8,0.9
2025-06-11T2200,3464A,117.3803,31.9147,合肥市,高教基地,颗粒物(PM10),52,53,45,32,25,101,,135,127,17,16,6,6,0.7,0.8
2025-06-11T2200,3614A,79.924,37.0877,和田地区,地区环保局,颗粒物(PM10),151,251,604,74,158,106,,120,119,19,11,2,2,0.8,0.7
2025-06-11T2200,3615A,79.9131,37.113,和田地区,市环保局,颗粒物(PM10),151,251,542,89,178,82,,122,117,30,10,3,2,0.1,0.2
2025-06-11T2200,2516A,108.2011,24.715,河池市,东仁乐园,,,,,,,,,,,,,,,,
2025-06-11T2200,2517A,108.0497,24.6947,河池市,市环保站,,33,33,27,17,14,18,,58,44,13,7,2,3,0.6,0.6
2025-06-11T2200,2518A,108.0983,24.6989,河池市,市疾控中心,,28,28,27,14,16,13,,54,40,19,14,7,7,0.7,0.7
2025-06-11T2200,1696A,114.6778,23.7569,河源市,源西,,22,,15,12,13,33,,58,44,44,16,3,5,0.3,0.3
2025-06-11T2200,1697A,114.6944,23.7586,河源市,东埔,,10,9,11,3,7,32,,56,43,13,13,3,5,0.6,0.5
2025-06-11T2200,1698A,114.6892,23.7233,河源市,老城,,16,16,17,8,8,20,,50,39,14,11,3,5,0.4,0.4
2025-06-11T2200,1718A,115.4208,35.2464,菏泽市,气象局,,,,79,,39,,,203,202,17,13,2,4,0.4,0.5
2025-06-11T2200,3374A,115.5564,35.0891,菏泽市,定陶老年大学,颗粒物(PM10),67,83,76,27,32,164,,192,189,15,12,3,3,0.3,0.4
2025-06-11T2200,4184A,115.4797,35.24401,菏泽市,永昌路1号,颗粒物(PM10),68,86,82,29,30,160,,194,188,17,14,3,3,0.3,0.3
2025-06-11T2200,4193A,115.4715,35.2800,菏泽市,长城路999号,臭氧1小时,72,84,85,33,35,177,,200,198,17,16,3,4,0.5,0.5
2025-06-11T2200,2514A,111.5264,24.4172,贺州市,环保小区,,18,16,18,7,11,57,,63,48,4,8,9,10,0.8,0.9
2025-06-11T2200,2515A,111.5608,24.4078,贺州市,政协大楼,,16,15,17,3,12,49,,63,42,9,9,10,9,0.4,0.5
2025-06-11T2200,3534A,111.4744,24.4553,贺州市,西湾,,16,15,25,3,11,50,,58,44,7,7,7,8,0.5,0.6
2025-06-11T2200,2385A,114.17,35.9019,鹤壁市,市监测站,,,62,73,28,35,,,212,208,14,19,5,10,1.0,1
2025-06-11T2200,2386A,114.2956,35.7511,鹤壁市,市交警支队,颗粒物(PM10),64,78,63,29,25,147,,199,189,18,31,3,5,0.8,0.7
2025-06-11T2200,2387A,114.2878,35.7306,鹤壁市,迎宾馆,细颗粒物(PM2.5),67,64,71,48,32,146,,201,190,17,23,2,5,0.7,0.8
2025-06-11T2200,3474A,114.2617,35.6822,鹤壁市,大新区,颗粒物(PM10),55,60,72,38,36,132,,192,179,18,19,6,7,0.7,0.7
2025-06-11T2200,3596A,114.1572,35.9603,鹤壁市,南山宾馆,臭氧1小时,57,59,88,36,44,165,,203,194,9,18,5,11,0.7,0.5
2025-06-11T2200,2244A,130.2537,47.3416,鹤岗市,哈啤分公司,,,16,14,,25,57,,65,59,9,4,16,15,0.4,0.2
2025-06-11T2200,2245A,130.2684,47.3086,鹤岗市,斯达机电,,24,24,23,12,14,60,,65,65,13,4,13,13,0.4,0.3
2025-06-11T2200,2246A,130.3114,47.3388,鹤岗市,东山纸板厂,颗粒物(PM10),70,89,25,15,9,19,,58,48,35,7,13,13,0.5,0.4
2025-06-11T2200,2247A,130.1097,47.3382,鹤岗市,五号水库,,14,14,12,7,6,31,,72,60,10,7,9,9,0.3,0.3
2025-06-11T2200,2263A,127.4833,50.2524,黑河市,交通局,颗粒物(PM10),67,83,32,26,13,45,,75,69,22,11,8,8,0.4,0.3
2025-06-11T2200,2264A,127.5144,50.2341,黑河市,环保局,颗粒物(PM10),51,51,29,21,12,61,,86,82,17,9,5,5,0.3,0.2
2025-06-11T2200,2265A,127.5291,50.2472,黑河市,大黑河岛,,21,20,17,13,8,66,,62,62,8,7,20,20,0.3,0.3
2025-06-11T2200,1074A,115.6838,37.7541,衡水市,电机北厂,颗粒物(PM10),102,153,93,49,30,169,,220,208,15,19,5,6,0.4,0.4
2025-06-11T2200,1075A,115.6303,37.7316,衡水市,市监测站,颗粒物(PM10),85,119,85,37,25,164,,222,207,17,18,3,4,0.5,0.4
2025-06-11T2200,3188A,115.6683,37.7217,衡水市,市城管局,颗粒物(PM10),96,142,102,54,31,165,,222,208,20,23,3,4,0.4,0.4
2025-06-11T2200,3459A,115.5989,37.5491,衡水市,地表水厂,颗粒物(PM10),110,170,114,36,26,155,,217,200,21,33,4,6,0.4,0.4
2025-06-11T2200,2456A,112.5003,26.9167,衡阳市,原169医院,,20,12,33,11,22,64,,87,73,9,10,3,3,0.7,0.7
2025-06-11T2200,2457A,112.6194,26.9258,衡阳市,衡阳化工总厂,,26,26,45,14,29,58,,81,72,11,11,4,5,0.7,0.7
2025-06-11T2200,2458A,112.6211,26.8956,衡阳市,珠晖区环保局,,21,21,42,14,20,50,,84,73,19,15,5,6,0.8,0.8
2025-06-11T2200,2459A,112.6197,26.8733,衡阳市,市委党校,,22,12,42,11,24,69,,88,80,10,12,4,6,0.8,0.7
2025-06-11T2200,2460A,112.6006,26.8919,衡阳市,市监测站,,,,39,16,25,,,81,77,12,11,6,7,0.7,0.7
2025-06-11T2200,2461A,112.5664,26.9056,衡阳市,真空机电公司,,26,,35,18,30,42,,81,66,16,10,4,5,1.0,0.9
2025-06-11T2200,3399A,112.6703,26.882,衡阳市,师范学院,,32,29,42,22,22,73,,91,82,9,10,7,7,1.0,1
2025-06-11T2200,2608A,103.3772,23.3993,红河哈尼族彝族自治州,污水处理厂,,40,40,48,25,34,82,,125,114,11,12,6,17,0.5,0.6
2025-06-11T2200,2609A,103.3861,23.35,红河哈尼族彝族自治州,监测站,,46,46,56,29,37,65,,117,102,10,11,4,17,0.3,0.4
2025-06-11T2200,3038A,103.3758,23.368,红河哈尼族彝族自治州,州图书馆,,38,36,52,26,37,91,,132,117,10,10,3,18,0.3,0.4
2025-06-11T2200,1090A,111.6507,40.7517,呼和浩特市,呼市一监,,45,27,43,17,18,143,,169,167,11,21,6,7,0.4,0.4
2025-06-11T2200,1091A,111.6572,40.8033,呼和浩特市,小召,,,31,39,13,16,,,186,186,26,34,4,5,0.5,0.5
2025-06-11T2200,1094A,111.7516,40.8369,呼和浩特市,如意水处理厂,,36,35,44,14,17,115,,182,175,28,28,6,7,0.2,0.3
2025-06-11T2200,1095A,111.7276,40.8062,呼和浩特市,二十九中,,,,45,,17,,,175,175,16,24,4,5,0.4,0.6
2025-06-11T2200,1096A,111.5512,40.7866,呼和浩特市,工大金川校区,,,45,45,19,18,,,188,188,25,32,5,7,0.4,0.5
2025-06-11T2200,1097A,111.717,40.7612,呼和浩特市,化肥厂生活区,,47,33,62,10,14,149,,172,171,10,24,6,7,0.4,0.4
2025-06-11T2200,3698A,111.5968,40.8178,呼和浩特市,红旗小学,,45,24,43,17,18,142,,186,183,15,30,3,5,0.3,0.3
2025-06-11T2200,3699A,111.6518,40.8389,呼和浩特市,海东办,,41,24,38,12,15,130,,175,172,16,32,4,6,0.4,0.4
2025-06-11T2200,2192A,119.7594,49.2261,呼伦贝尔市,区环保局,,,,31,24,21,54,,73,64,12,20,5,5,,0.3
2025-06-11T2200,3061A,119.7512,49.1577,呼伦贝尔市,国华电力东,,27,27,30,17,15,67,,89,77,12,11,4,4,0.3,0.3
2025-06-11T2200,1250A,120.0751,30.8669,湖州市,城西水厂,,42,42,46,29,31,70,,76,74,21,25,5,6,0.6,0.6
2025-06-11T2200,2873A,120.0830,30.8929,湖州市,仁皇山新区,,38,36,40,26,26,65,,72,68,21,24,4,4,0.5,0.6
2025-06-11T2200,2907A,120.1844,30.8596,湖州市,吴兴区站,,38,26,25,26,23,59,,75,71,21,19,7,6,0.3,0.3
2025-06-11T2200,3562A,120.4148,30.8538,湖州市,南浔区站,,46,,25,32,27,52,,76,71,23,19,4,5,0.5,0.5
2025-06-11T2200,1607A,120.9049,40.7211,葫芦岛市,龙港区,细颗粒物(PM2.5),59,,59,42,42,156,,171,171,13,30,8,37,0.6,1
2025-06-11T2200,1608A,120.8392,40.7514,葫芦岛市,化工街,,47,39,56,29,29,149,,165,165,18,46,6,21,0.6,0.8
2025-06-11T2200,1609A,120.8341,40.7073,葫芦岛市,新区,细颗粒物(PM2.5),54,,48,38,44,152,,161,161,13,31,6,16,0.7,0.9
2025-06-11T2200,1610A,120.8695,40.7677,葫芦岛市,东城区,,45,,55,30,30,141,,161,161,21,44,6,27,0.7,1
2025-06-11T2200,2482A,109.5981,27.5721,怀化市,林科所,,26,26,34,11,15,34,,72,63,6,7,5,7,0.5,0.4
2025-06-11T2200,2483A,109.9453,27.5444,怀化市,河西地税局,,34,34,35,16,21,33,,68,63,20,11,3,5,0.3,0.3
2025-06-11T2200,2484A,109.9781,27.5342,怀化市,市四医院,颗粒物(PM10),84,118,44,22,25,72,,77,75,8,8,1,8,0.8,0.6
2025-06-11T2200,2485A,109.9972,27.5578,怀化市,监测楼,,22,22,40,15,24,60,,64,62,14,12,4,11,0.2,0.3
2025-06-11T2200,2486A,110.0394,27.583,怀化市,市委党校,,29,22,34,20,26,69,,74,72,2,7,3,10,0.2,0.5
2025-06-11T2200,1210A,119.036,33.5981,淮安市,钵池山,,,36,39,21,31,,,138,128,21,17,7,7,0.4,0.4
2025-06-11T2200,1211A,119.007,33.575,淮安市,北京南路,,34,34,41,12,26,97,,136,121,10,9,8,7,0.7,0.6
2025-06-11T2200,1212A,118.989,33.6067,淮安市,市监测站,,35,27,38,14,21,110,,144,130,10,12,8,8,0.2,0.4
2025-06-11T2200,1213A,119.135,33.5039,淮安市,楚州区监测站,,39,39,47,15,21,75,,128,110,19,10,8,7,0.4,0.5
2025-06-11T2200,3426A,118.8755,33.2894,淮安市,新华书店,,30,30,30,10,14,91,,130,113,12,11,8,8,0.4,0.4
2025-06-11T2200,4206A,119.0288,33.6319,淮安市,承德北路606号,,39,39,52,18,28,96,,141,127,15,13,6,6,0.4,0.5
2025-06-11T2200,2282A,116.8004,33.975,淮北市,监测站,,40,29,47,7,27,125,,182,168,10,8,7,7,0.6,0.6
2025-06-11T2200,2283A,116.8091,33.9007,淮北市,烈山区政府,,39,39,69,14,27,124,,182,167,9,11,7,7,0.7,0.8
2025-06-11T2200,3330A,116.8873,33.9836,淮北市,杜集区检察院,,39,35,60,9,35,122,,178,166,6,6,8,8,0.6,0.8
2025-06-11T2200,4017A,116.7923,33.9535,淮北市,市博物馆,,39,31,46,3,29,124,,173,,12,11,10,8,0.6,0.8
2025-06-11T2200,2277A,116.8305,32.7727,淮南市,潘集区政府,,47,47,41,23,25,125,,131,128,11,12,2,3,0.5,0.6
2025-06-11T2200,2279A,116.8569,32.5951,淮南市,谢家集区政府,,50,50,44,26,23,118,,133,131,18,14,7,7,0.3,0.4
2025-06-11T2200,2280A,116.8281,32.633,淮南市,八公山区政府,,50,50,43,30,24,125,,139,136,13,13,2,5,0.3,0.3
2025-06-11T2200,2281A,116.6325,32.6201,淮南市,焦岗湖风景区管理处,,,,,,,,,,,,,,,,
2025-06-11T2200,2894A,117.0566,32.6531,淮南市,经济技术开发区消防队,,39,36,36,27,37,121,,136,134,19,15,6,6,0.4,0.5
2025-06-11T2200,3329A,117.0108,32.5893,淮南市,山南新区,,46,46,41,30,30,138,,143,143,9,9,7,8,0.4,0.5
2025-06-11T2200,4209A,117.0031,32.6445,淮南市,国庆中路369号,,41,29,36,25,30,129,,140,138,11,9,4,5,0.3,0.4
2025-06-11T2200,2446A,114.9028,30.4742,黄冈市,职工中心,,40,37,29,28,20,83,,115,104,9,4,9,7,0.6,0.5
2025-06-11T2200,2929A,114.8858,30.4519,黄冈市,红卫路,,,36,32,25,17,,,113,108,12,5,6,3,0.6,0.8
2025-06-11T2200,3398A,114.9136,30.4445,黄冈市,市林业局,,40,39,32,28,21,70,,102,92,18,9,8,8,0.7,1.1
2025-06-11T2200,2672A,102.0199,35.5102,黄南藏族自治州,同仁县隆务镇,,32,29,25,8,9,100,,131,126,2,2,5,5,0.2,0.2
2025-06-11T2200,2295A,118.2903,29.6963,黄山市,延安路89号,,,,10,,7,35,,82,64,,4,5,5,0.5,0.4
2025-06-11T2200,2297A,118.1371,30.2756,黄山市,黄山区政府5号楼,,16,10,16,10,10,50,,74,62,3,3,4,3,0.4,0.4
2025-06-11T2200,4210A,118.3354,29.7203,黄山市,滨江东路7-2号,,,,16,,6,,,65,,,3,,4,,0.2
2025-06-11T2200,2423A,115.0601,30.2313,黄石市,沈家营,,45,45,37,16,14,79,,98,88,5,16,6,8,0.7,0.7
2025-06-11T2200,2426A,114.8988,30.2019,黄石市,铁山,,38,31,30,26,15,76,,104,97,28,20,3,3,0.6,0.7
2025-06-11T2200,2427A,115.0307,30.2092,黄石市,团城山,,40,40,33,21,10,102,,113,110,4,8,8,8,0.5,0.5
2025-06-11T2200,3149A,115.0235,30.1578,黄石市,笔架山北路,,43,43,28,16,9,71,,102,91,11,8,4,5,0.7,0.6
2025-06-11T2200,4185A,115.0780,30.21118,黄石市,磁湖东路29号,,46,46,40,23,19,102,,107,105,2,14,7,8,0.5,0.6
2025-06-11T2200,1392A,114.4183,23.0528,惠州市,河南岸金山湖子站,,14,14,17,3,6,36,,40,32,8,9,7,7,0.5,0.4
2025-06-11T2200,1393A,114.4053,23.0822,惠州市,下埔横江三路子站,,29,29,18,11,7,36,,46,37,10,8,5,6,0.3,0.3
2025-06-11T2200,1394A,114.4103,23.1142,惠州市,江北云山西路子站,,20,20,18,9,6,33,,50,38,9,7,8,8,0.3,0.3
2025-06-11T2200,1395A,114.4645,22.7833,惠州市,惠阳区承修路船湖子站,,21,21,20,8,7,56,,37,37,7,9,8,8,0.4,0.4
2025-06-11T2200,1396A,114.5317,22.7422,惠州市,大亚湾管委会子站,,19,19,20,3,4,48,,40,40,18,11,9,9,0.4,0.4
2025-06-11T2200,3314A,114.4338,22.8134,惠州市,惠阳秋长,,20,12,14,6,6,64,,51,51,5,5,5,3,0.6,0.5
2025-06-11T2200,3452A,114.6517,22.775,惠州市,大亚湾霞涌,,20,10,14,3,4,63,,51,51,7,7,9,7,0.6,0.5
2025-06-11T2200,2240A,130.9762,45.3001,鸡西市,环保局,,25,25,15,10,6,40,,79,73,24,13,3,4,0.5,0.4
2025-06-11T2200,2243A,130.9429,45.3039,鸡西市,第一中学,,19,19,15,11,5,45,,72,68,10,8,6,8,0.5,0.4
2025-06-11T2200,3707A,131.0207,45.3073,鸡西市,欧美日汽修厂,,25,25,20,12,6,36,,79,69,25,13,5,6,0.6,0.5
2025-06-11T2200,3709A,130.9967,45.3106,鸡西市,市政设施管理处,,27,27,19,15,9,34,,80,70,29,16,7,8,0.5,0.4
2025-06-11T2200,2367A,114.9754,27.0803,吉安市,红声器材厂,,20,16,21,3,9,63,,80,75,10,7,9,8,0.6,0.7
2025-06-11T2200,2368A,114.9658,27.0999,吉安市,市森林工业局,,23,18,19,12,11,73,,90,86,7,4,11,8,0.5,0.5
2025-06-11T2200,2369A,114.99,27.1312,吉安市,市环境监测站,,,,19,,10,,,69,69,7,9,10,7,,0.5
2025-06-11T2200,2370A,115.0093,27.0968,吉安市,青原区法院,,19,17,22,9,13,60,,80,74,14,10,8,8,0.4,0.5
2025-06-11T2200,1772A,126.54,43.8622,吉林市,哈达湾,,27,27,10,18,9,63,,102,95,20,8,6,6,0.3,0.2
2025-06-11T2200,1773A,126.5844,43.8358,吉林市,东局子,,23,17,40,16,7,54,,95,84,28,12,5,6,0.6,0.5
2025-06-11T2200,1774A,126.5052,43.8245,吉林市,电力学院,细颗粒物(PM2.5),54,44,12,38,10,38,,101,89,29,9,4,4,0.5,0.4
2025-06-11T2200,1775A,126.6133,43.8972,吉林市,江北,,,30,20,18,11,,,95,90,15,10,8,10,0.8,0.6
2025-06-11T2200,1776A,126.555,43.8306,吉林市,江南公园,,19,19,13,9,8,56,,94,85,14,8,5,5,0.4,0.3
2025-06-11T2200,1778A,126.7061,43.7133,吉林市,丰满,,,,,,,,,,,,,,,,
2025-06-11T2200,2868A,126.4739,43.953,吉林市,九站,,29,29,15,15,11,59,,105,98,28,9,6,9,0.3,0.3
2025-06-11T2200,1299A,116.9862,36.6114,济南市,科干所,臭氧1小时,80,46,47,24,23,184,,196,195,11,15,7,6,0.4,0.3
2025-06-11T2200,1300A,116.9376,36.665,济南市,农科所,臭氧1小时,67,54,54,27,23,173,,194,187,15,19,7,8,0.3,0.3
2025-06-11T2200,1301A,117.1265,36.6734,济南市,开发区,臭氧1小时,90,46,48,17,23,192,,201,200,15,20,9,8,0.7,0.7
2025-06-11T2200,1303A,117.0624,36.6868,济南市,省种子仓库,,,,52,,21,,,149,,,22,,6,,0.6
2025-06-11T2200,1304A,116.9489,36.6447,济南市,机床二厂,臭氧1小时,72,59,61,20,21,177,,194,191,13,18,5,6,0.5,0.5
2025-06-11T2200,1305A,117.0495,36.663,济南市,市监测站,臭氧1小时,88,54,52,20,23,190,,198,197,15,20,10,9,0.5,0.6
2025-06-11T2200,1306A,116.7675,36.5484,济南市,长清党校,"颗粒物(PM10),臭氧1小时",59,68,59,32,30,167,,194,190,23,22,6,6,0.7,0.7
2025-06-11T2200,1616A,117.6795,36.229,济南市,技术学院,,,44,44,9,22,96,,184,,,27,14,11,0.9,0.7
2025-06-11T2200,1961A,117.532,36.6868,济南市,东山小学,颗粒物(PM10),53,56,48,12,21,156,,191,186,9,15,8,8,0.3,0.3
2025-06-11T2200,3059A,117.7161,36.2049,济南市,泰兴公司,,32,27,45,12,21,101,,201,180,27,28,8,8,0.7,0.6
2025-06-11T2200,3064A,117.6867,36.2171,济南市,莱芜战役纪念馆,,36,36,48,14,25,108,,199,181,18,22,8,7,1.0,1
2025-06-11T2200,3494A,117.1673,36.9782,济南市,济阳区政府,颗粒物(PM10),94,137,66,27,20,164,,224,208,25,21,6,7,0.3,0.4
2025-06-11T2200,3495A,117.1171,36.63,济南市,锦屏中学,臭氧1小时,89,46,46,20,19,191,,196,196,11,11,11,9,0.7,0.8
2025-06-11T2200,3682A,116.9814,36.6819,济南市,济南四建,臭氧1小时,90,48,51,27,25,192,,212,207,19,20,7,6,0.4,0.4
2025-06-11T2200,1653A,116.6251,35.4302,济宁市,火炬城,颗粒物(PM10),54,58,74,19,40,143,,160,,14,13,5,6,0.5,0.8
2025-06-11T2200,1655A,116.5491,35.4042,济宁市,电化厂,"颗粒物(PM10),臭氧1小时",52,54,67,22,34,161,,179,175,6,7,3,3,0.6,0.7
2025-06-11T2200,3500A,116.5814,35.3707,济宁市,北湖一中,"颗粒物(PM10),臭氧1小时",53,55,68,30,37,162,,185,179,13,11,8,8,0.4,0.5
2025-06-11T2200,3501A,116.8249,35.5593,济宁市,服务中心,颗粒物(PM10),53,56,76,21,33,153,,188,184,19,17,2,3,0.4,0.5
2025-06-11T2200,3678A,116.5907,35.4054,济宁市,市第七中学,,,59,82,17,32,,,175,,11,9,11,11,0.4,0.5
2025-06-11T2200,2255A,130.2751,46.8028,佳木斯市,佳纺,,27,27,13,13,7,55,,65,58,11,8,7,7,0.3,0.2
2025-06-11T2200,2256A,130.3995,46.8307,佳木斯市,发电厂,,,,10,,7,,,62,,,7,,4,,0.3
2025-06-11T2200,2257A,130.3258,46.7975,佳木斯市,环保局,,27,27,12,10,8,61,,65,58,12,10,5,5,0.3,0.3
2025-06-11T2200,2258A,130.3648,46.8032,佳木斯市,十一中,,39,39,12,21,10,32,,63,49,32,8,4,4,0.5,0.3
2025-06-11T2200,2259A,130.3794,46.7588,佳木斯市,四丰,,,14,13,,9,,,,,6,7,1,10,0.5,0.5
2025-06-11T2200,1252A,120.7436,30.778,嘉兴市,清河小学,,29,29,26,15,14,47,,72,62,20,19,7,7,0.7,0.8
2025-06-11T2200,1253A,120.726,30.7478,嘉兴市,嘉兴学院,,39,33,26,27,20,39,,71,59,23,20,5,5,0.7,0.7
2025-06-11T2200,2872A,120.7846,30.7525,嘉兴市,南湖区残联,,,,21,,18,40,,77,64,26,20,5,5,0.5,0.6
2025-06-11T2200,3407A,120.6916,30.7739,嘉兴市,秀洲住建,,29,27,24,20,17,45,,68,60,22,22,5,5,0.7,0.7
2025-06-11T2200,1945A,98.2908,39.7711,嘉峪关市,气象局,颗粒物(PM10),52,53,45,12,13,110,,139,135,25,14,6,13,0.4,0.4
2025-06-11T2200,2884A,98.2672,39.7978,嘉峪关市,酒钢宾馆,,48,48,47,14,14,121,,135,134,13,9,11,25,0.3,0.5
2025-06-11T2200,3248A,98.2643,39.7724,嘉峪关市,雄关区,,41,41,42,16,14,96,,139,134,26,16,8,12,0.2,0.3
2025-06-11T2200,1383A,113.1064,22.6058,江门市,北街,,8,6,18,3,4,24,,57,40,9,9,3,3,0.3,0.3
2025-06-11T2200,1384A,113.0731,22.5835,江门市,西区,,,37,19,13,7,,,61,44,12,13,8,8,0.3,0.4
2025-06-11T2200,1385A,113.0219,22.5311,江门市,圭峰西,,11,11,16,6,7,21,,58,39,14,10,4,4,0.4,0.3
2025-06-11T2200,1386A,113.0828,22.5947,江门市,东湖,,10,10,15,3,7,26,,55,39,14,15,9,9,0.3,0.4
2025-06-11T2200,3311A,113.1075,22.5647,江门市,江海富民,,23,23,23,9,9,25,,56,34,16,17,8,9,0.4,0.4
2025-06-11T2200,3449A,113.05,22.4667,江门市,新会银湖,,10,,23,3,9,9,,53,25,20,16,3,3,0.2,0.3
2025-06-11T2200,1830A,113.1992,35.2590,焦作市,影视城,,,,70,,16,,,,,,8,,12,,0.5
2025-06-11T2200,3169A,113.2725,35.2067,焦作市,太极体育中心,颗粒物(PM10),66,81,69,35,33,154,,218,194,18,15,4,7,0.3,0.2
2025-06-11T2200,3335A,113.3137,35.2641,焦作市,马村街道办,细颗粒物(PM2.5),59,62,81,42,44,156,,219,198,22,19,11,11,0.6,0.6
2025-06-11T2200,3336A,113.2465,35.2373,焦作市,焦作技师学院,颗粒物(PM10),58,65,65,27,22,155,,215,196,13,12,7,8,0.8,0.8
2025-06-11T2200,3477A,113.1656,35.2539,焦作市,中站许衡医院,颗粒物(PM10),54,58,72,35,29,161,,200,188,12,17,5,7,0.6,0.5
2025-06-11T2200,3981A,113.2449,35.1803,焦作市,原李万街道办,臭氧1小时,58,62,67,22,22,166,,222,202,17,17,10,17,0.3,0.4
2025-06-11T2200,4264A,113.2340,35.2190,焦作市,新安路1731号,颗粒物(PM10),64,78,70,28,29,168,,219,202,12,12,4,7,0.3,0.4
2025-06-11T2200,1708A,116.3701,23.5345,揭阳市,新兴,,24,,22,13,11,75,,94,83,6,10,5,10,0.8,0.8
2025-06-11T2200,1709A,116.3264,23.5443,揭阳市,西马,,30,30,25,9,11,72,,98,84,6,9,2,6,0.7,0.6
2025-06-11T2200,1710A,116.3611,23.5626,揭阳市,东兴,,,,30,,8,,,52,,,9,,6,,0.4
2025-06-11T2200,1711A,116.4151,23.5294,揭阳市,渔湖,,23,,25,12,9,72,,92,82,6,11,3,3,0.7,0.7
2025-06-11T2200,3320A,116.403,23.5699,揭阳市,曲溪,,28,23,24,15,11,88,,105,96,6,9,5,8,0.4,0.4
2025-06-11T2200,1944A,102.1692,38.5167,金昌市,天庆家园,,34,29,44,12,17,108,,132,127,5,18,11,32,0.5,0.7
2025-06-11T2200,4022A,102.1647,38.5371,金昌市,金川区人防中心,,47,47,42,16,17,95,,130,123,4,11,7,29,0.4,0.4
2025-06-11T2200,4239A,102.1930,38.5319,金昌市,长春路96号,,41,41,49,13,16,109,,130,125,4,15,22,39,0.6,0.5
2025-06-11T2200,1262A,119.647,29.077,金华市,十五中,,27,27,20,11,8,74,,90,87,20,14,1,16,0.5,0.5
2025-06-11T2200,1263A,119.686,29.1029,金华市,监测站,,27,27,19,18,12,69,,93,87,24,16,2,3,0.4,0.4
2025-06-11T2200,3659A,119.656,29.1131,金华市,气象局,,25,25,15,13,6,64,,88,82,27,17,2,2,0.6,0.6
2025-06-11T2200,1767A,121.1115,41.0879,锦州市,南山,细颗粒物(PM2.5),95,,34,71,39,164,,152,152,15,26,8,14,0.8,0.9
2025-06-11T2200,1768A,121.0604,40.8428,锦州市,开发区,细颗粒物(PM2.5),83,,53,61,52,158,,166,166,27,39,8,18,0.8,1
2025-06-11T2200,1769A,121.1836,41.1119,锦州市,百股街道,,49,,36,34,21,149,,153,153,17,29,9,21,0.7,0.9
2025-06-11T2200,1770A,121.1178,41.1222,锦州市,天安街道,细颗粒物(PM2.5),79,,39,58,29,156,,149,149,25,37,7,15,1.1,1.1
2025-06-11T2200,1771A,121.1303,41.1386,锦州市,北湖公园,细颗粒物(PM2.5),85,,37,63,26,155,,151,151,20,27,9,15,0.8,0.8
2025-06-11T2200,2160A,112.85,35.5051,晋城市,自来水公司,臭氧1小时,89,66,62,29,24,191,,220,216,11,19,1,2,0.2,0.2
2025-06-11T2200,2161A,112.8318,35.4936,晋城市,白云商贸,臭氧1小时,79,55,68,17,17,183,,216,210,16,22,8,9,0.5,0.4
2025-06-11T2200,2162A,112.8508,35.4887,晋城市,市环保局,,,,76,,26,,,209,209,,26,,9,0.2,0.2
2025-06-11T2200,2163A,112.8676,35.4897,晋城市,技术学院,臭氧1小时,85,66,69,22,23,188,,218,214,12,26,8,8,0.7,0.7
2025-06-11T2200,2165A,112.8453,35.546,晋城市,白马寺,臭氧1小时,94,42,44,28,28,195,,219,219,7,8,5,6,0.5,0.5
2025-06-11T2200,3620A,112.8271,35.4828,晋城市,泽州一中,臭氧1小时,82,49,62,22,22,185,,219,213,14,19,5,4,0.6,0.3
2025-06-11T2200,2173A,112.7249,37.7067,晋中市,南都小区,臭氧1小时,102,62,56,37,23,203,,210,208,9,19,6,6,0.7,0.5
2025-06-11T2200,2174A,112.6991,37.6982,晋中市,榆次区政府,臭氧1小时,105,75,57,27,18,210,,213,212,14,19,8,7,0.7,0.5
2025-06-11T2200,2865A,112.7195,37.6828,晋中市,榆次三中,臭氧1小时,102,80,62,34,20,204,,218,215,14,20,8,7,0.7,0.4
2025-06-11T2200,4200A,112.7478,37.6954,晋中市,迎宾街26号,臭氧1小时,101,92,65,31,20,202,,217,215,14,21,8,8,0.7,0.4
2025-06-11T2200,2439A,112.2014,31.0481,荆门市,竹园小学,颗粒物(PM10),51,52,34,33,20,141,,148,147,10,14,6,7,0.3,0.2
2025-06-11T2200,2440A,112.1969,30.9891,荆门市,掇刀,颗粒物(PM10),51,52,31,33,21,137,,151,148,14,11,6,9,0.6,0.6
2025-06-11T2200,2441A,112.2213,31.0386,荆门市,石化一小,,50,50,39,18,19,121,,146,140,23,17,10,13,0.2,0.2
2025-06-11T2200,3012A,112.1849,31.0362,荆门市,西山林语,,,,25,,18,,,149,147,8,6,10,11,0.5,0.4
2025-06-11T2200,3547A,112.1632,31.0138,荆门市,龙泉中学南校,,42,42,26,23,15,125,,149,142,16,13,4,6,0.5,0.5
2025-06-11T2200,1844A,112.2494,30.3197,荆州市,市图书馆,,34,19,21,19,16,107,,147,140,14,14,4,5,0.6,0.6
2025-06-11T2200,1845A,112.2008,30.3544,荆州市,市委党校,,30,24,23,18,14,94,,131,127,24,17,9,8,0.5,0.5
2025-06-11T2200,3194A,112.2747,30.3122,荆州市,管委会,,30,25,24,20,18,96,,137,130,17,16,6,7,0.7,0.7
2025-06-11T2200,4268A,112.1722,30.3366,荆州市,学苑路85号,,38,38,20,21,18,96,,135,129,36,25,4,4,0.3,0.3
2025-06-11T2200,2342A,117.3102,29.3867,景德镇市,王港中学,,,,,,,,,,,,,,,,
2025-06-11T2200,2343A,117.2117,29.2933,景德镇市,老干部活动中心,,10,8,8,3,2,32,,57,51,11,6,4,4,0.5,0.5
2025-06-11T2200,2344A,117.1894,29.2789,景德镇市,兽医站,,22,22,15,3,5,38,,55,52,10,7,5,4,0.4,0.4
2025-06-11T2200,2345A,117.1547,29.2617,景德镇市,台达陶瓷,,15,15,14,9,7,39,,56,54,19,9,34,12,0.5,0.5
2025-06-11T2200,2346A,117.2461,29.2956,景德镇市,陶研所,,12,11,10,3,3,36,,58,51,8,5,1,1,0.3,0.4
2025-06-11T2200,1803A,115.9872,29.6815,九江市,十里,,29,29,23,20,19,88,,84,,11,10,4,3,0.7,0.7
2025-06-11T2200,1804A,115.9584,29.7046,九江市,茅山头,,38,37,27,26,19,85,,100,98,18,13,4,4,0.5,0.2
2025-06-11T2200,1805A,115.9877,29.7295,九江市,西园,,35,24,24,24,16,92,,109,107,26,20,7,5,1.0,1
2025-06-11T2200,1808A,115.9114,29.6038,九江市,综合工业园,,36,34,27,25,16,93,,102,101,14,13,15,8,1.2,0.8
2025-06-11T2200,1809A,116.0721,29.7535,九江市,石化总厂,,32,32,27,22,26,82,,96,93,15,10,5,4,0.8,0.8
2025-06-11T2200,1810A,115.9773,29.5698,九江市,庐山气象台,,24,7,4,3,5,76,,88,84,4,5,21,15,0.9,0.8
2025-06-11T2200,3190A,116.0254,29.6994,九江市,外国语学校,,32,,17,22,14,90,,94,94,10,10,8,7,0.7,0.8
2025-06-11T2200,4253A,116.0102,29.6594,九江市,莲花大道8号,,23,,15,16,13,72,,81,80,7,3,5,4,1.0,0.6
2025-06-11T2200,4240A,98.4958,39.7339,酒泉市,玉门东路5号,颗粒物(PM10),57,63,50,30,22,93,,133,126,18,10,9,12,0.7,0.4
2025-06-11T2200,4241A,98.5099,39.7506,酒泉市,北大街108号,,48,48,45,23,20,110,,150,143,13,13,10,13,0.3,0.3
2025-06-11T2200,2698A,76.0072,39.4467,喀什地区,巡警大队,颗粒物(PM10),77,104,203,3,23,116,,126,124,9,12,7,7,0.3,0.3
2025-06-11T2200,2699A,75.9755,39.4694,喀什地区,吾办,,,,86,15,26,112,,120,,14,14,1,2,0.3,0.3
2025-06-11T2200,4027A,75.9483,39.4689,喀什地区,老干局,,,122,220,9,35,,,114,111,35,10,14,6,,0.2
2025-06-11T2200,1824A,114.3389,34.7781,开封市,肿瘤医院,臭氧1小时,53,48,63,33,25,162,,186,180,11,11,2,2,0.5,0.5
2025-06-11T2200,1826A,114.2885,34.7965,开封市,世纪星幼儿园,臭氧1小时,72,65,75,27,31,177,,199,194,14,16,1,2,0.7,0.6
2025-06-11T2200,3147A,114.3438,34.8106,开封市,龙亭公园,臭氧1小时,59,54,55,29,27,167,,193,188,14,12,5,5,0.4,0.4
2025-06-11T2200,3210A,114.3644,34.7964,开封市,汴京公园,颗粒物(PM10),60,69,68,28,34,167,,190,183,15,14,9,7,0.7,0.6
2025-06-11T2200,3473A,114.2485,34.8306,开封市,技师学院,,,,60,,40,,,156,,,14,,3,,0.9
2025-06-11T2200,3592A,114.4644,34.7556,开封市,祥符区生态环境局,颗粒物(PM10),57,63,60,28,31,158,,194,184,22,20,5,4,0.6,0.6
2025-06-11T2200,1951A,84.895,45.6094,克拉玛依市,长征新村,,,22,31,3,5,,,112,112,3,10,4,4,0.4,0.2
2025-06-11T2200,1952A,84.8988,45.5893,克拉玛依市,南林小区,,36,23,34,10,15,114,,116,116,5,15,10,11,0.1,0.2
2025-06-11T2200,1954A,84.905,44.3396,克拉玛依市,独山子区,,36,36,35,9,13,47,,110,103,48,10,6,6,0.6,0.2
2025-06-11T2200,1955A,85.6979,46.098,克拉玛依市,乌尔禾区商贸楼,,36,36,33,21,8,99,,117,117,8,5,3,3,0.3,0.3
2025-06-11T2200,3612A,85.1045,45.6899,克拉玛依市,白碱滩区新站,,40,38,46,14,25,125,,126,126,1,4,14,14,0.2,0.2
2025-06-11T2200,2697A,76.1454,39.7142,克孜勒苏柯尔克孜自治州,市人民政府,颗粒物(PM10),60,69,96,20,31,139,,139,139,4,4,4,6,0.5,0.5
2025-06-11T2200,3665A,76.1658,39.7157,克孜勒苏柯尔克孜自治州,克州文化中心,,,78,91,62,36,,,137,137,7,4,4,6,0.1,0.2
2025-06-11T2200,1450A,102.8204,24.8886,昆明市,呈贡新区,,40,,31,28,20,113,,149,139,13,23,5,6,0.4,0.4
2025-06-11T2200,1451A,102.6251,24.9608,昆明市,西山森林公园,,,,,,,,,,,,,,,,
2025-06-11T2200,1452A,102.7252,25.0902,昆明市,龙泉镇,,38,38,24,12,13,101,,140,130,18,16,2,2,0.3,0.3
2025-06-11T2200,1453A,102.7266,25.0375,昆明市,东风东路,,,65,40,34,21,101,,147,135,,24,6,7,0.3,0.3
2025-06-11T2200,1454A,102.6742,25.0669,昆明市,金鼎山,,35,32,26,7,12,111,,145,136,18,13,1,2,0.4,0.3
2025-06-11T2200,1455A,102.6644,25.0401,昆明市,碧鸡广场,,47,47,25,28,16,106,,148,137,25,13,6,6,0.5,0.4
2025-06-11T2200,3179A,102.7494,25.0119,昆明市,官渡区博物馆,,39,38,32,27,16,104,,149,138,24,20,7,7,0.3,0.3
2025-06-11T2200,3375A,102.8017,24.8336,昆明市,青年创业园,,39,39,32,23,23,120,,165,154,14,20,7,8,0.2,0.3
2025-06-11T2200,3550A,102.7997,24.9786,昆明市,昆明学院,,50,50,37,26,19,112,,160,147,22,23,7,6,0.3,0.3
2025-06-11T2200,3551A,102.5967,24.6736,昆明市,晋宁区生态环境分局,颗粒物(PM10),53,56,36,34,24,109,,164,152,18,14,3,3,0.4,0.4
2025-06-11T2200,3552A,102.6678,24.9856,昆明市,云天化总部,,41,41,25,24,14,110,,149,140,20,21,4,4,0.3,0.3
2025-06-11T2200,1456A,91.1319,29.6514,拉萨市,八廓街,,31,30,24,13,15,98,,142,133,28,11,7,11,0.4,0.2
2025-06-11T2200,1457A,91.1221,29.6747,拉萨市,市环保局,,32,32,28,16,16,88,,151,137,26,12,6,10,0.5,0.3
2025-06-11T2200,1458A,91.0874,29.6475,拉萨市,区监测站,,28,28,22,16,14,82,,144,133,49,16,6,9,0.5,0.3
2025-06-11T2200,1459A,91.1774,29.6541,拉萨市,西藏大学,,34,28,21,10,11,106,,143,136,20,10,2,7,0.2,0.2
2025-06-11T2200,1460A,90.9798,29.6588,拉萨市,区辐射站,,37,21,25,19,17,118,,135,132,9,17,6,8,0.3,0.3
2025-06-11T2200,1461A,91.0834,29.6292,拉萨市,拉萨火车站,,40,14,19,9,12,125,,142,139,9,12,4,6,0.2,0.2
2025-06-11T2200,2520A,109.2203,23.7256,来宾市,来宾技工学校,,26,26,23,13,12,48,,70,65,12,9,7,6,0.7,0.8
2025-06-11T2200,3535A,109.1781,23.7297,来宾市,兴宾区政府,,22,22,18,13,10,48,,59,57,7,8,4,4,0.8,0.8
2025-06-11T2200,4002A,109.2416,23.7461,来宾市,中南小学,,29,29,24,16,14,44,,70,65,14,10,7,7,0.8,0.7
2025-06-11T2200,1477A,104.1373,35.9454,兰州市,榆中兰大校区,,,,,,,,,,,,,,,,
2025-06-11T2200,1479A,103.831,36.0464,兰州市,铁路设计院,,46,46,54,29,28,96,,141,115,55,46,11,22,0.4,0.9
2025-06-11T2200,3241A,103.7439,36.0842,兰州市,百合公园,颗粒物(PM10),56,62,43,24,16,19,,155,127,102,34,7,5,0.3,0.5
2025-06-11T2200,3242A,103.9611,35.998,兰州市,和平,颗粒物(PM10),82,113,52,33,18,125,,160,152,7,16,7,11,0.4,0.5
2025-06-11T2200,4236A,103.6293,36.0938,兰州市,庄浪东路808号,,43,43,47,30,26,75,,131,105,42,36,10,11,0.5,0.3
2025-06-11T2200,4237A,103.7251,36.1043,兰州市,安宁西路88号,颗粒物(PM10),62,73,55,39,29,60,,172,138,55,22,6,7,0.5,0.4
2025-06-11T2200,4238A,103.8470,36.0676,兰州市,北滨河东路1号,二氧化氮,67,74,51,31,19,3,,153,118,134,49,10,12,0.9,0.8
2025-06-11T2200,3245A,103.6633,36.533,兰州新区,新区管委会,,48,48,41,22,24,87,,161,151,33,12,8,11,0.4,0.3
2025-06-11T2200,3246A,103.6975,36.4789,兰州新区,舟曲中学,,42,41,46,16,19,132,,163,158,19,19,7,12,0.4,0.5
2025-06-11T2200,1067A,116.6708,39.5111,廊坊市,药材公司,臭氧1小时,65,59,64,31,31,172,,191,185,20,24,7,8,0.5,0.4
2025-06-11T2200,1068A,116.7214,39.5589,廊坊市,开发区,颗粒物(PM10),68,85,77,23,27,157,,195,183,25,29,6,5,0.4,0.3
2025-06-11T2200,1070A,116.7244,39.5269,廊坊市,北华航天学院,颗粒物(PM10),91,132,79,59,29,146,,191,179,27,20,10,9,0.6,0.4
2025-06-11T2200,2919A,116.7022,39.5453,廊坊市,河北工业大学,颗粒物(PM10),75,99,74,53,39,158,,198,188,25,20,10,8,0.5,0.4
2025-06-11T2200,2535A,103.7723,29.5462,乐山市,花湖湾,,48,44,42,25,26,153,,221,207,25,22,9,8,0.5,0.7
2025-06-11T2200,2536A,103.7627,29.5844,乐山市,牛耳桥,,,54,41,29,21,92,,191,161,44,27,8,9,,0.3
2025-06-11T2200,2537A,103.7508,29.6006,乐山市,市第三水厂,,,,42,,24,,,119,,,28,,7,,0.5
2025-06-11T2200,2538A,103.7571,29.5664,乐山市,市监测站,,49,49,42,26,23,134,,209,194,25,21,9,10,0.6,0.8
2025-06-11T2200,3361A,103.7311,29.5628,乐山市,理工大学,,46,46,44,25,24,60,,165,132,27,25,8,11,0.6,0.8
2025-06-11T2200,2598A,100.2143,26.8576,丽江市,西南郊,,34,33,25,19,14,106,,125,122,9,8,5,6,0.6,0.7
2025-06-11T2200,2599A,100.2497,26.8802,丽江市,丽江古城,,33,33,29,16,11,89,,100,100,15,12,9,9,0.5,0.4
2025-06-11T2200,2600A,100.2203,26.8906,丽江市,市中心,,28,,20,14,14,87,,113,105,15,12,11,11,0.3,0.3
2025-06-11T2200,1267A,119.914,28.4514,丽水市,监测站大楼,,19,17,11,6,3,60,,76,74,10,10,3,3,0.5,0.5
2025-06-11T2200,1268A,119.93,28.4586,丽水市,莲都小学,,19,14,8,12,24,59,,77,74,14,13,3,3,0.4,0.4
2025-06-11T2200,1269A,119.879,28.4231,丽水市,余庄前,,19,19,12,13,6,13,,68,56,8,10,3,5,0.5,0.5
2025-06-11T2200,1173A,119.176,34.5885,连云港市,市环境监测站,,,83,46,12,16,,,159,129,17,12,6,9,0.4,0.4
2025-06-11T2200,3000A,119.3581,34.6972,连云港市,德源药业,颗粒物(PM10),57,63,40,7,12,81,,130,104,23,14,9,11,0.5,0.8
2025-06-11T2200,3007A,119.178,34.844,连云港市,新城一中,,27,27,42,9,20,77,,137,110,27,24,8,8,0.8,0.9
2025-06-11T2200,3008A,119.3608,34.7519,连云港市,胡沟管理处,,37,27,27,3,14,116,,118,105,12,27,9,13,0.5,0.7
2025-06-11T2200,3009A,119.1478,34.5911,连云港市,矿山设计院,颗粒物(PM10),65,80,44,9,13,85,,156,115,18,14,4,7,0.4,0.5
2025-06-11T2200,3434A,119.2413,34.6539,连云港市,工贸学校,,50,50,33,10,15,94,,149,118,12,11,8,11,0.4,0.6
2025-06-11T2200,3664A,119.4172,34.7341,连云港市,连云街道,,36,36,33,7,14,100,,133,122,11,18,13,15,0.5,0.6
2025-06-11T2200,2571A,102.3431,27.8099,凉山彝族自治州,青龙寺,,34,26,21,7,6,106,,142,132,7,6,6,6,0.6,0.8
2025-06-11T2200,2572A,102.2721,27.8415,凉山彝族自治州,邛海宾馆,,34,29,28,17,15,106,,127,,9,15,6,9,0.4,0.4
2025-06-11T2200,2573A,102.2625,27.898,凉山彝族自治州,西昌市政府,,37,37,24,25,15,91,,140,131,8,9,4,8,0.4,0.3
2025-06-11T2200,2574A,102.2685,27.8851,凉山彝族自治州,凉山州政府,,31,28,24,16,14,98,,132,124,13,14,7,8,0.5,0.5
2025-06-11T2200,4229A,102.2342,27.8859,凉山彝族自治州,凯乐南路30号,,39,39,38,20,13,116,,137,129,10,16,7,9,0.3,0.3
2025-06-11T2200,2212A,123.2,41.1953,辽阳市,宏伟区,,31,6,32,3,12,99,,132,122,13,16,9,15,0.5,0.9
2025-06-11T2200,2213A,123.1683,41.2495,辽阳市,新华园,,40,40,41,15,19,64,,136,119,28,18,9,14,0.5,0.9
2025-06-11T2200,2214A,123.2354,41.2639,辽阳市,滨河路,,40,40,35,11,16,76,,123,104,29,24,10,13,0.3,0.6
2025-06-11T2200,2215A,123.149,41.2991,辽阳市,铁西工业园,颗粒物(PM10),59,68,59,31,24,48,,122,104,40,26,6,13,0.6,1.3
2025-06-11T2200,2227A,125.1358,42.8845,辽源市,环保局,,43,43,20,21,6,10,,117,83,66,14,4,5,0.5,0.4
2025-06-11T2200,3239A,125.0764,42.9078,辽源市,银鹰制药,,32,32,14,14,8,25,,123,85,52,18,5,6,0.4,0.3
2025-06-11T2200,1625A,115.9848,36.4372,聊城市,区政府,臭氧1小时,79,106,89,28,28,183,,207,199,14,17,8,9,0.7,0.7
2025-06-11T2200,2878A,116.0072,36.4343,聊城市,聊大东校,臭氧1小时,83,112,88,25,32,186,,210,203,13,18,9,8,0.3,0.6
2025-06-11T2200,3200A,115.9819,36.4978,聊城市,监控中心,,,,79,,29,,,202,,,20,,10,,0.5
2025-06-11T2200,3513A,116.0445,36.4361,聊城市,九州社区,颗粒物(PM10),79,108,86,40,28,174,,201,194,12,16,5,6,0.5,0.5
2025-06-11T2200,4018A,116.0567,36.4608,聊城市,星美广场,颗粒物(PM10),79,107,91,25,28,178,,206,197,13,22,9,9,0.6,0.6
2025-06-11T2200,2632A,94.3681,29.6376,林芝市,林芝监测站,,30,18,19,15,12,94,,118,115,6,6,3,3,0.3,0.3
2025-06-11T2200,2633A,94.3616,29.6616,林芝市,林芝人民医院,,33,24,24,14,13,103,,125,123,1,3,4,4,0.2,0.2
2025-06-11T2200,2603A,100.0781,23.8982,临沧市,市环保局,,,,,,,,,,,,,,,,
2025-06-11T2200,2604A,100.0894,23.8822,临沧市,市气象局,,42,35,28,29,20,83,,116,108,10,11,10,9,0.5,0.5
2025-06-11T2200,1733A,111.5531,36.0783,临汾市,临钢医院,颗粒物(PM10),71,92,74,25,20,160,,204,188,24,19,6,9,0.5,0.6
2025-06-11T2200,1734A,111.5028,36.0714,临汾市,技工学校,颗粒物(PM10),73,96,71,46,30,170,,214,201,18,15,8,9,0.7,0.7
2025-06-11T2200,1736A,111.5018,36.0855,临汾市,市委,颗粒物(PM10),75,99,81,23,20,178,,219,205,21,18,8,9,0.7,0.8
2025-06-11T2200,3018A,111.505,36.1014,临汾市,唐尧大酒店,颗粒物(PM10),70,90,80,33,26,172,,217,204,15,15,8,9,0.6,0.7
2025-06-11T2200,4244A,111.4879,36.0530,临汾市,启星学校,臭氧1小时,77,91,71,49,32,181,,216,203,15,14,6,7,0.6,0.7
2025-06-11T2200,4271A,103.2464,35.6123,临夏回族自治州,滨河东路1号,颗粒物(PM10),65,79,45,37,28,43,,128,106,50,15,9,8,0.4,0.3
2025-06-11T2200,4310A,103.2093,35.5995,临夏回族自治州,新华街21号,颗粒物(PM10),77,104,50,35,21,31,,141,118,66,20,6,5,0.6,0.4
2025-06-11T2200,1618A,118.3429,35.0532,临沂市,沂河小区,颗粒物(PM10),54,58,55,20,25,95,,180,144,21,20,7,8,0.3,0.3
2025-06-11T2200,1619A,118.295,35.0583,临沂市,鲁南制药厂,颗粒物(PM10),59,68,56,10,20,94,,185,149,29,23,8,11,0.4,0.5
2025-06-11T2200,1620A,118.2794,34.9976,临沂市,新光毛纺厂,颗粒物(PM10),62,73,53,13,22,94,,189,156,23,19,10,11,0.4,0.4
2025-06-11T2200,1621A,118.3956,35.0888,临沂市,河东保险公司,,44,44,55,7,28,99,,172,139,23,25,6,7,0.4,0.5
2025-06-11T2200,3370A,118.3564,35.0215,临沂市,十里堡居委,颗粒物(PM10),54,58,47,12,22,96,,189,152,28,23,9,9,0.4,0.5
2025-06-11T2200,3496A,118.3604,35.1084,临沂市,南坊新区,颗粒物(PM10),53,56,58,17,26,91,,171,134,27,24,9,8,0.3,0.4
2025-06-11T2200,3860A,118.3920,35.0300,临沂市,皇山花园小区,颗粒物(PM10),54,58,57,14,24,94,,183,146,29,26,10,11,0.5,0.6
2025-06-11T2200,1870A,109.4856,24.3895,柳州市,柳东小学,,16,12,18,3,12,50,,64,59,6,6,9,12,0.5,0.5
2025-06-11T2200,1871A,109.4157,24.3277,柳州市,环保监测站,,18,18,26,7,14,50,,54,52,8,10,8,8,0.8,0.8
2025-06-11T2200,1872A,109.389,24.341,柳州市,河西水厂,,30,30,30,14,16,43,,58,52,16,11,19,10,1.2,0.7
2025-06-11T2200,1873A,109.4311,24.2921,柳州市,市四中,,15,,21,10,9,48,,58,56,11,10,9,10,0.6,0.6
2025-06-11T2200,1874A,109.4006,24.3631,柳州市,市九中,,18,18,24,3,8,44,,54,51,13,11,12,13,0.6,0.7
2025-06-11T2200,1875A,109.4958,24.3134,柳州市,古亭山,,15,12,18,3,8,48,,67,61,3,3,8,7,0.5,0.5
2025-06-11T2200,3402A,109.5422,24.3996,柳州市,市二中,,15,10,16,7,10,45,,67,58,9,9,10,10,0.3,0.2
2025-06-11T2200,2307A,116.5079,31.737,六安市,监测大楼,,35,32,33,17,24,109,,129,124,4,6,3,4,0.4,0.5
2025-06-11T2200,2308A,116.4738,31.7643,六安市,皖西学院,,37,33,38,15,22,116,,138,133,7,7,6,7,0.3,0.4
2025-06-11T2200,2309A,116.4996,31.7905,六安市,朝阳厂,,36,36,37,19,23,107,,130,124,13,16,5,6,0.4,0.5
2025-06-11T2200,2310A,116.5567,31.7886,六安市,开发区,,33,24,36,23,21,101,,129,120,5,6,5,6,0.4,0.6
2025-06-11T2200,2576A,104.8,26.5892,六盘水市,窑上,,25,25,40,17,11,69,,127,108,6,5,1,3,0.2,0.4
2025-06-11T2200,2577A,104.83,26.5917,六盘水市,黄土坡,,42,42,32,15,15,72,,135,123,23,14,8,10,0.4,0.3
2025-06-11T2200,2578A,104.89,26.5939,六盘水市,水钢,,48,48,41,30,19,109,,137,130,15,13,8,12,0.4,0.6
2025-06-11T2200,2579A,104.8475,26.5894,六盘水市,民中,颗粒物(PM10),53,55,32,22,13,89,,129,118,34,26,9,11,0.4,0.4
2025-06-11T2200,2580A,104.9544,26.5506,六盘水市,双水,,31,31,27,16,12,96,,136,128,12,21,11,11,0.4,0.4
2025-06-11T2200,2335A,117.0189,25.1181,龙岩市,龙岩师专,,,,,,,,,,,,,,,,
2025-06-11T2200,2336A,117.0217,25.1033,龙岩市,龙岩市监测站,,15,14,20,9,10,45,,78,62,14,11,16,5,0.4,0.4
2025-06-11T2200,2337A,117.0258,25.0661,龙岩市,闽西职业技术学院,,32,32,21,15,13,18,,70,43,24,11,50,15,0.5,0.4
2025-06-11T2200,2338A,117.0196,25.0306,龙岩市,龙岩学院,,12,,21,8,11,21,,78,49,13,8,4,3,0.7,0.5
2025-06-11T2200,2665A,105.0822,33.3261,陇南市,汉王镇固水子,,,,,,,,,,,,,,,,
2025-06-11T2200,2885A,104.9339,33.3826,陇南市,滨江中学,颗粒物(PM10),51,51,41,26,17,125,,122,122,4,4,9,9,0.6,0.5
2025-06-11T2200,3247A,104.955,33.371,陇南市,市总工会,,43,43,35,19,16,129,,122,122,7,5,5,5,0.6,0.5
2025-06-11T2200,2487A,111.9589,27.8901,娄底市,电视发射台,,43,43,41,7,13,16,,56,44,3,4,7,6,0.3,0.3
2025-06-11T2200,2488A,111.9975,27.725,娄底市,市监测站,,35,26,31,24,24,36,,67,60,38,17,30,10,0.6,0.7
2025-06-11T2200,2489A,112.0194,27.7314,娄底市,市委党校,,,15,28,14,24,,,88,83,1,5,13,5,0.3,0.6
2025-06-11T2200,2490A,111.9561,27.7569,娄底市,涟钢,,32,32,26,21,20,25,,58,47,21,12,7,9,0.7,0.7
2025-06-11T2200,2491A,111.9892,27.7044,娄底市,市政府,,36,36,29,16,22,28,,72,59,8,7,4,5,1.1,1
2025-06-11T2200,1893A,105.4324,28.9634,泸州市,九狮山,细颗粒物(PM2.5),55,55,44,39,31,92,,186,165,31,22,5,5,0.6,0.5
2025-06-11T2200,1894A,105.4427,28.9063,泸州市,小市上码头,,41,41,40,22,22,85,,166,144,15,14,13,13,0.6,0.6
2025-06-11T2200,1895A,105.4241,28.8573,泸州市,兰田宪桥,,,46,41,26,24,89,,184,159,24,20,,9,,0.5
2025-06-11T2200,1896A,105.4379,28.8833,泸州市,市环监站,,,32,37,23,25,,,143,,45,19,5,12,0,0.7
2025-06-11T2200,4272A,105.3689,28.7783,泸州市,纳溪中医医院,颗粒物(PM10),52,53,49,26,31,69,,174,143,31,21,6,7,0.9,0.7
2025-06-11T2200,2183A,111.1406,37.5211,吕梁市,环保局,,,,64,,18,,,109,,,23,,5,,0.4
2025-06-11T2200,2185A,111.1297,37.5136,吕梁市,自来水公司,颗粒物(PM10),54,58,84,28,17,145,,182,178,22,23,5,7,0.8,0.4
2025-06-11T2200,2867A,111.1283,37.51,吕梁市,马茂庄小学,颗粒物(PM10),53,56,71,28,18,141,,184,178,38,27,5,7,0.8,0.5
2025-06-11T2200,1812A,112.3931,34.6516,洛阳市,市委党校,颗粒物(PM10),51,52,71,30,38,152,,178,165,10,22,6,11,0.6,0.7
2025-06-11T2200,1815A,112.494,34.6886,洛阳市,河南林校,臭氧1小时,74,61,77,33,36,179,,209,196,16,22,9,11,0.8,0.7
2025-06-11T2200,1816A,112.3844,34.623,洛阳市,开发区管委会,臭氧1小时,67,50,64,29,32,173,,205,189,9,21,6,11,0.5,0.6
2025-06-11T2200,1817A,112.4267,34.6258,洛阳市,市委新办公区,,50,50,75,30,32,160,,186,173,11,21,7,10,0.5,0.6
2025-06-11T2200,3340A,112.6005,34.6326,洛阳市,伊滨,臭氧1小时,74,56,92,28,35,179,,204,191,10,22,6,10,0.6,0.7
2025-06-11T2200,3341A,112.4951,34.6332,洛阳市,中移产业园,臭氧1小时,60,54,81,32,34,168,,197,184,15,22,2,10,0.8,0.7
2025-06-11T2200,3593A,112.5736,34.8993,洛阳市,吉利监测站,颗粒物(PM10),61,72,81,39,36,140,,226,201,25,23,5,10,0.5,0.6
2025-06-11T2200,3635A,112.3677,34.662,洛阳市,河科大西苑校区,臭氧1小时,69,60,77,27,28,175,,206,191,11,25,6,13,0.5,0.6
2025-06-11T2200,3636A,112.4388,34.6781,洛阳市,英才小学,臭氧1小时,64,57,90,27,31,171,,208,189,10,21,7,11,0.7,0.7
2025-06-11T2200,4214A,112.4600,34.6949,洛阳市,春都路1号院,臭氧1小时,93,64,82,26,29,194,,227,213,12,19,7,11,0.6,0.6
2025-06-11T2200,2399A,114.051,33.5699,漯河市,三五一五工厂,,43,34,41,28,23,135,,184,175,15,18,4,5,0.6,0.6
2025-06-11T2200,2400A,114.0055,33.5698,漯河市,漯河大学,颗粒物(PM10),51,51,44,17,16,147,,199,188,15,15,4,4,0.5,0.5
2025-06-11T2200,2401A,114.0138,33.5828,漯河市,市水利局,,45,44,42,22,21,142,,191,185,14,12,5,5,0.6,0.6
2025-06-11T2200,2402A,114.0261,33.5698,漯河市,市广电局,,45,39,38,24,23,141,,191,180,13,14,2,3,0.5,0.5
2025-06-11T2200,3478A,113.9749,33.5664,漯河市,市图书馆,,43,41,42,23,21,135,,187,177,17,17,3,4,0.6,0.6
2025-06-11T2200,4250A,114.0892,33.5882,漯河市,韶山路11号,,42,39,44,24,21,134,,190,178,17,16,5,5,0.5,0.5
2025-06-11T2200,1798A,118.5092,31.6837,马鞍山市,湖东路四小,,43,33,51,30,34,97,,121,113,14,14,7,7,0.6,0.7
2025-06-11T2200,1799A,118.5024,31.6449,马鞍山市,开发区,,43,43,57,23,26,95,,117,111,18,21,6,6,0.7,0.9
2025-06-11T2200,1802A,118.6245,31.7241,马鞍山市,濮塘,,42,38,49,29,30,95,,112,109,6,8,8,8,0.8,0.9
2025-06-11T2200,3633A,118.4918,31.6809,马鞍山市,雨山,,44,44,43,23,28,94,,119,113,17,15,7,6,0.7,0.9
2025-06-11T2200,4191A,118.5274,31.72227,马鞍山市,慈湖高新区,,47,47,67,29,40,91,,118,107,20,18,7,7,0.6,0.7
2025-06-11T2200,1686A,111.0286,21.4688,茂名市,电白南海,,,29,31,14,18,27,,59,,15,12,,7,0.6,0.7
2025-06-11T2200,1687A,110.9294,21.6533,茂名市,茂石化七小,,,,31,,14,,,43,,,13,,10,,0.4
2025-06-11T2200,1688A,110.9107,21.6687,茂名市,健康路,,20,17,25,14,17,30,,66,52,14,13,13,12,0.5,0.5
2025-06-11T2200,1689A,110.8592,21.6828,茂名市,高岭,,31,31,36,9,11,22,,60,42,15,13,24,15,0.5,0.5
2025-06-11T2200,3450A,111.01,21.5165,茂名市,电白水东,,17,17,28,7,12,28,,56,40,15,14,8,8,0.4,0.4
2025-06-11T2200,2539A,104.0308,30.0478,眉山市,黑龙滩水库,颗粒物(PM10),62,73,27,27,18,108,,227,205,32,21,3,2,0.7,0.7
2025-06-11T2200,2540A,103.8416,30.0874,眉山市,气象局,颗粒物(PM10),69,87,54,29,26,94,,243,222,50,36,3,4,0.7,0.5
2025-06-11T2200,3137A,103.8578,30.0744,眉山市,市委党校,颗粒物(PM10),57,63,48,29,20,81,,224,186,73,40,4,5,0.9,0.6
2025-06-11T2200,3148A,103.8291,30.0564,眉山市,区人社局,颗粒物(PM10),58,66,52,24,18,124,,238,212,52,39,10,11,0.8,0.5
2025-06-11T2200,1690A,116.1231,24.3284,梅州市,梅江月梅,,,26,22,16,12,,,59,46,,10,8,6,0.6,0.6
2025-06-11T2200,1691A,116.0797,24.2719,梅州市,梅县新城,,18,18,18,3,6,19,,68,48,11,10,6,7,0.8,0.6
2025-06-11T2200,1692A,116.1248,24.2654,梅州市,环境监控中心,,13,,20,9,10,32,,61,48,16,15,4,4,0.4,0.4
2025-06-11T2200,3315A,116.1233,24.2991,梅州市,梅龙,,19,19,19,7,9,34,,63,49,10,10,7,7,0.4,0.5
2025-06-11T2200,1878A,104.7778,31.4741,绵阳市,富乐山,,50,48,32,34,19,160,,192,185,17,11,8,8,0.6,0.5
2025-06-11T2200,1880A,104.6697,31.4668,绵阳市,高新区自来水公司,颗粒物(PM10),56,62,33,19,13,94,,169,156,52,17,2,2,0.8,0.6
2025-06-11T2200,1881A,104.7287,31.5075,绵阳市,三水厂,"颗粒物(PM10),细颗粒物(PM2.5)",52,53,28,36,20,68,,185,157,66,20,9,9,0.8,0.5
2025-06-11T2200,3491A,104.69,31.5322,绵阳市,西科大附属小学,颗粒物(PM10),56,61,38,32,20,110,,185,169,46,16,9,8,0.6,0.5
2025-06-11T2200,3492A,104.5648,31.5343,绵阳市,安州区旅游局,颗粒物(PM10),54,58,25,34,14,122,,186,176,26,12,14,9,0.4,0.1
2025-06-11T2200,4226A,104.7651,31.4531,绵阳市,绵阳市气象局,颗粒物(PM10),55,59,32,36,18,122,,172,166,40,13,9,9,0.7,0.5
2025-06-11T2200,1784A,129.61,44.561,牡丹江市,环保大楼,,36,32,17,25,14,28,,68,59,16,11,8,10,0.3,0.2
2025-06-11T2200,1785A,129.6115,44.5782,牡丹江市,文化广场,,36,,17,25,14,28,,65,58,23,14,5,5,0.4,0.3
2025-06-11T2200,1786A,129.5904,44.5963,牡丹江市,第一医院,,32,32,13,15,8,15,,69,55,27,11,5,4,0.4,0.3
2025-06-11T2200,1787A,129.6364,44.6075,牡丹江市,机车工厂,,33,33,17,20,7,21,,67,59,15,11,8,7,0.7,0.3
2025-06-11T2200,1788A,129.6386,44.5462,牡丹江市,第一中学,,17,17,15,3,10,22,,65,53,10,9,8,7,0.4,0.3
2025-06-11T2200,2531A,105.0703,29.61,内江市,市监测站,,,,34,37,28,,,178,168,26,16,8,11,0.9,0.8
2025-06-11T2200,2532A,105.0717,29.5947,内江市,东兴区政府,,50,36,29,18,22,157,,189,178,16,16,6,7,0.4,0.4
2025-06-11T2200,2533A,105.0653,29.5817,内江市,内江二中,,48,37,41,33,33,122,,177,166,25,17,7,8,0.6,0.5
2025-06-11T2200,2534A,105.0406,29.5822,内江市,内江日报社,颗粒物(PM10),52,54,35,34,31,135,,180,167,31,19,11,13,0.3,0.3
2025-06-11T2200,2628A,92.0657,31.4846,那曲市,那曲监测站,,,34,35,15,16,,,67,,17,14,6,6,0.4,0.3
2025-06-11T2200,4243A,92.0515,31.4787,那曲市,那曲市委宣传部,,38,29,31,15,15,119,,139,133,10,12,7,6,0.2,0.3
2025-06-11T2200,1290A,115.8931,28.6843,南昌市,省外办,,20,8,18,3,14,61,,80,76,10,13,3,4,0.7,0.2
2025-06-11T2200,1291A,115.8886,28.7003,南昌市,省林业公司,,18,6,13,3,12,56,,73,70,5,11,7,8,0.5,0.6
2025-06-11T2200,1292A,115.8126,28.7442,南昌市,林科所,,16,9,10,9,9,51,,73,70,14,10,4,4,0.4,0.5
2025-06-11T2200,1294A,115.8518,28.687,南昌市,建工学校,,45,,20,31,12,59,,73,71,2,7,6,6,0.4,0.5
2025-06-11T2200,1295A,115.8921,28.6424,南昌市,象湖,,18,6,12,3,9,56,,67,64,8,10,6,6,0.6,0.8
2025-06-11T2200,1296A,115.7423,28.7996,南昌市,武术学校,,33,33,25,12,12,45,,65,62,4,5,6,6,0.4,0.5
2025-06-11T2200,3046A,115.9084,28.6062,南昌市,机电学校,,15,11,20,3,11,48,,63,60,9,9,4,4,0.4,0.4
2025-06-11T2200,3690A,115.9721,28.7031,南昌市,外国语学校,,16,,18,8,10,51,,62,60,6,11,7,8,0.4,0.6
2025-06-11T2200,4192A,115.9316,28.68677,南昌市,南京东路235号,,22,22,24,3,11,52,,66,63,10,11,7,8,0.4,0.6
2025-06-11T2200,1905A,106.056,30.8064,南充市,西山风景区,,,,,,,,,,,,,,,,
2025-06-11T2200,1906A,106.0789,30.8023,南充市,南充市委,,45,42,42,23,24,144,,170,165,22,18,6,6,0.4,0.4
2025-06-11T2200,1907A,106.1031,30.8217,南充市,南充炼油厂,,46,46,40,25,25,128,,154,149,25,13,6,6,0.5,0.5
2025-06-11T2200,4227A,106.1083,30.7884,南充市,梨树横街98号,,45,42,40,19,22,144,,160,159,14,14,5,5,0.3,0.4
2025-06-11T2200,4304A,106.1172,30.843,南充市,清泉寺北路188号,,46,42,38,32,23,146,,159,154,14,11,4,4,0.3,0.2
2025-06-11T2200,4305A,106.067,30.7616,南充市,同庆路1号,,,37,39,22,23,,,159,158,18,16,3,5,0.3,0.3
2025-06-11T2200,1151A,118.8086,32.1065,南京市,迈皋桥,,49,44,38,34,28,85,,120,112,24,24,4,4,0.7,0.5
2025-06-11T2200,1152A,118.7538,32.0551,南京市,草场门,,44,44,42,27,29,109,,132,125,18,19,2,2,0.6,0.6
2025-06-11T2200,1153A,118.7794,32.0745,南京市,山西路,细颗粒物(PM2.5),52,41,45,36,25,111,,144,137,25,29,4,4,0.5,0.4
2025-06-11T2200,1154A,118.7752,32.0023,南京市,中华门,,42,31,37,29,27,96,,123,114,22,29,7,7,0.6,0.6
2025-06-11T2200,1155A,118.8109,32.0309,南京市,瑞金路,,45,41,40,31,29,100,,123,116,15,11,6,6,0.2,0.2
2025-06-11T2200,1156A,118.7997,32.0754,南京市,玄武湖,,44,44,43,24,23,96,,118,111,13,13,4,3,0.5,0.5
2025-06-11T2200,1157A,118.6414,32.0931,南京市,浦口,,40,39,42,28,23,101,,121,117,23,24,3,3,0.8,0.7
2025-06-11T2200,1158A,118.7356,31.9996,南京市,奥体中心,,39,36,42,27,29,102,,126,118,16,19,3,3,0.4,0.5
2025-06-11T2200,1159A,118.9125,32.1028,南京市,仙林大学城,,46,46,46,17,21,96,,126,119,15,16,8,8,0.7,0.7
2025-06-11T2200,3422A,118.8436,31.9198,南京市,江宁彩虹桥,,42,,40,29,28,97,,123,115,20,25,3,3,0.5,0.6
2025-06-11T2200,3427A,118.8554,32.3578,南京市,六合雄州,,45,34,35,31,23,79,,140,125,29,31,7,7,0.6,0.7
2025-06-11T2200,4249A,118.8708,31.3402,南京市,汶溪路181号,,28,28,31,18,25,55,,58,,13,19,2,2,0.6,0.7
2025-06-11T2200,4312A,119.019,31.6512,南京市,中山西路1号,,26,22,37,16,24,83,,111,105,11,17,4,4,0.5,0.7
2025-06-11T2200,1401A,108.3103,22.7881,南宁市,二十一中,,,,42,14,21,52,,72,72,18,22,1,7,0.6,0.7
2025-06-11T2200,1402A,108.3141,22.8528,南宁市,北湖,,23,18,35,16,21,58,,75,75,15,25,3,10,0.5,0.6
2025-06-11T2200,1403A,108.3206,22.8225,南宁市,市监测站,,33,33,35,18,22,44,,58,56,18,22,3,5,0.7,0.6
2025-06-11T2200,1404A,108.3829,22.8037,南宁市,大自然花园,,20,16,31,13,17,63,,77,76,7,17,5,5,0.5,0.6
2025-06-11T2200,1405A,108.4394,22.7904,南宁市,仙葫,,20,13,27,12,18,64,,78,77,6,18,8,8,0.5,0.7
2025-06-11T2200,1406A,108.2397,22.8467,南宁市,区农职院,,16,,30,11,14,46,,69,67,13,13,4,5,0.7,0.8
2025-06-11T2200,1407A,108.3275,22.735,南宁市,英华嘉园,,20,16,36,12,23,62,,84,84,9,21,7,10,0.5,0.6
2025-06-11T2200,3401A,108.4834,22.7618,南宁市,红星社区,,19,16,28,3,13,60,,86,83,7,8,3,3,0.5,0.5
2025-06-11T2200,4221A,108.2177,22.7774,南宁市,乐贤路16号,,21,21,33,14,19,36,,67,65,22,19,6,8,0.6,0.6
2025-06-11T2200,2331A,118.0966,26.6761,南平市,茫荡山,,,,,,,,,,,,,,,,
2025-06-11T2200,2332A,118.1681,26.6369,南平市,南平市监测站,,16,6,16,3,8,49,,72,62,4,8,4,4,0.5,0.5
2025-06-11T2200,2333A,118.1825,26.6489,南平市,南平铝业有限公司,,20,20,17,3,10,42,,71,61,9,9,9,4,0.7,0.6
2025-06-11T2200,2334A,118.1756,26.6272,南平市,南平七中,,17,14,17,8,8,54,,73,65,2,6,4,4,0.4,0.5
2025-06-11T2200,1168A,120.9098,31.9663,南通市,狼山街道,,30,20,13,9,8,93,,108,100,8,7,4,4,0.5,0.6
2025-06-11T2200,1169A,120.86,32.0005,南通市,虹桥,,,17,14,15,11,,,111,102,14,13,2,2,0.3,0.4
2025-06-11T2200,1170A,120.87,32.02,南通市,城中,,31,20,16,14,9,99,,106,98,11,10,4,4,0.6,0.6
2025-06-11T2200,1171A,120.94,31.93,南通市,星湖花园,,,16,11,14,11,,,95,88,14,10,3,2,0.4,0.2
2025-06-11T2200,1172A,120.81,32.0417,南通市,紫琅学院,,28,19,16,6,4,89,,97,89,14,12,5,5,0.4,0.5
2025-06-11T2200,3291A,121.067,32.062,南通市,通州监测站,,35,12,8,9,6,110,,116,110,4,4,5,5,0.4,0.5
2025-06-11T2200,3432A,120.9348,31.9883,南通市,环境教育馆,,32,22,18,10,7,101,,110,103,12,10,3,2,0.2,0.2
2025-06-11T2200,2404A,112.5224,33.0122,南阳市,瓦房庄,,48,48,45,19,14,136,,184,171,11,14,6,7,0.6,0.6
2025-06-11T2200,2405A,112.5003,32.9735,南阳市,汉画馆,,46,46,44,19,18,128,,182,168,16,15,6,6,0.5,0.5
2025-06-11T2200,2406A,112.5573,33.027,南阳市,气象站,,42,40,43,19,20,132,,180,168,9,13,5,5,0.3,0.3
2025-06-11T2200,2407A,112.5481,32.9689,南阳市,理工学院,,41,41,42,24,22,126,,177,164,16,20,5,5,0.4,0.4
2025-06-11T2200,4008A,112.5234,32.9922,南阳市,卧龙区政府,,43,38,34,26,22,135,,186,173,14,17,4,5,0.6,0.5
2025-06-11T2200,1234A,121.8358,29.911,宁波市,区环保大楼,,26,26,17,9,10,54,,86,62,44,38,8,8,0.5,0.4
2025-06-11T2200,1235A,121.56,29.82,宁波市,万里学院,,39,,16,27,13,72,,89,89,24,20,9,9,0.6,0.6
2025-06-11T2200,1236A,121.713,29.9572,宁波市,龙赛医院,,25,18,16,7,8,80,,102,102,25,22,10,8,0.5,0.5
2025-06-11T2200,1239A,121.633,29.7733,宁波市,钱湖水厂,,29,24,18,20,12,40,,82,69,27,21,3,3,0.7,0.6
2025-06-11T2200,1240A,121.5856,29.8635,宁波市,太古小学,,,,16,,9,,,87,,,18,,7,,0.6
2025-06-11T2200,1241A,121.524,29.8674,宁波市,市环境监测中心,,26,25,16,11,10,82,,96,94,22,20,3,11,0.6,0.5
2025-06-11T2200,2871A,121.6147,29.9017,宁波市,万里国际学校,,26,24,14,16,10,81,,96,96,24,20,3,2,0.5,0.5
2025-06-11T2200,3710A,121.5594,29.8975,宁波市,白沙活动中心,,25,17,12,15,9,79,,101,99,23,19,8,9,0.5,0.5
2025-06-11T2200,2339A,119.5001,26.6946,宁德市,金涵水库,,,,,,,,,,,,,,,,
2025-06-11T2200,2341A,119.5388,26.6612,宁德市,宁德市监测站,,25,18,17,8,10,78,,90,87,9,10,4,4,0.3,0.4
2025-06-11T2200,3209A,119.5231,26.6562,宁德市,宁德一中,,24,8,18,7,11,76,,91,89,8,7,4,3,0.3,0.3
2025-06-11T2200,2618A,98.8601,25.8567,怒江傈僳族自治州,州监测站,,41,41,26,24,16,68,,119,113,24,8,8,8,0.4,0.4
2025-06-11T2200,2619A,98.8546,25.8417,怒江傈僳族自治州,泸水一中,,24,24,24,8,14,52,,96,87,22,11,6,6,0.4,0.4
2025-06-11T2200,1888A,101.6891,26.571,攀枝花市,弄弄坪,颗粒物(PM10),53,56,50,19,23,98,,156,143,26,25,14,12,2.0,1
2025-06-11T2200,1889A,101.5769,26.5928,攀枝花市,河门口,,34,34,39,15,21,102,,162,155,19,16,7,10,0.4,0.6
2025-06-11T2200,1890A,101.7169,26.585,攀枝花市,炳草岗,,38,38,55,15,26,92,,151,142,26,29,7,15,0.8,0.9
2025-06-11T2200,1891A,101.7369,26.5008,攀枝花市,仁和,,46,46,39,24,22,75,,145,132,17,13,8,11,0.6,0.7
2025-06-11T2200,2835A,101.7227,26.567,攀枝花市,四十中小,,47,47,51,31,27,68,,156,138,62,27,10,21,1.3,0.9
2025-06-11T2200,1604A,122.0303,41.1489,盘锦市,开发区,细颗粒物(PM2.5),77,,39,56,35,164,,157,157,25,21,11,12,0.8,0.6
2025-06-11T2200,1605A,122.0485,41.0883,盘锦市,兴隆台,细颗粒物(PM2.5),58,44,36,41,33,155,,160,160,32,26,10,12,0.9,0.7
2025-06-11T2200,1606A,121.8297,41.1028,盘锦市,新生街道,细颗粒物(PM2.5),67,,30,48,34,148,,153,147,14,28,8,9,0.7,0.9
2025-06-11T2200,1832A,113.3257,33.742,平顶山市,新华旅馆,,49,49,61,25,25,137,,181,171,12,13,10,6,0.6,0.6
2025-06-11T2200,1833A,113.2919,33.737,平顶山市,规划设计院,颗粒物(PM10),52,54,56,28,28,138,,179,171,13,18,4,5,0.8,0.8
2025-06-11T2200,1834A,113.182,33.774,平顶山市,平顶山工学院,,47,45,52,19,24,149,,191,185,11,12,4,5,0.4,0.4
2025-06-11T2200,3204A,113.3025,33.73,平顶山市,规划局,颗粒物(PM10),52,53,53,20,21,138,,183,175,11,17,4,5,0.6,0.6
2025-06-11T2200,3594A,112.8867,33.9116,平顶山市,石龙区,颗粒物(PM10),56,61,95,25,32,149,,191,185,22,31,5,6,0.6,0.6
2025-06-11T2200,2656A,106.6692,35.5461,平凉市,聚贤嘉苑,颗粒物(PM10),60,70,61,27,24,145,,150,150,16,27,8,8,0.4,0.4
2025-06-11T2200,2657A,106.7021,35.5307,平凉市,博物馆,颗粒物(PM10),68,86,61,23,19,157,,157,157,17,22,10,11,1.1,0.8
2025-06-11T2200,2347A,114.0997,27.5002,萍乡市,武功山,,14,6,5,3,4,43,,58,56,4,5,11,12,0.3,0.5
2025-06-11T2200,2348A,113.8385,27.6434,萍乡市,中医院,,23,,21,16,16,67,,82,80,8,4,20,13,0.8,0.8
2025-06-11T2200,2349A,113.8493,27.6253,萍乡市,市政府车库,,39,21,14,10,16,50,,68,66,17,8,10,9,3.9,1.3
2025-06-11T2200,2350A,113.8676,27.6435,萍乡市,市环保局,,20,16,20,6,12,62,,73,70,6,3,4,8,0.7,0.7
2025-06-11T2200,2351A,113.866,27.6198,萍乡市,安源区政府,,21,21,17,8,9,46,,61,58,17,10,5,5,1.0,1
2025-06-11T2200,2319A,119.0141,25.4325,莆田市,荔城区仓后路,,20,14,27,3,10,62,,90,78,8,9,3,4,0.3,0.5
2025-06-11T2200,2320A,119.0015,25.4553,莆田市,莆田市监测站,,21,16,21,10,9,65,,91,82,8,8,3,3,0.4,0.4
2025-06-11T2200,2321A,119.1119,25.4561,莆田市,涵江区六中,,23,23,25,3,10,62,,86,79,4,8,3,2,0.3,0.4
2025-06-11T2200,2322A,119.1013,25.3215,莆田市,秀屿区政府,,22,14,28,3,9,69,,91,87,8,11,2,4,0.4,0.6
2025-06-11T2200,2323A,118.981,25.4792,莆田市,东圳水库,,,,,,,,,,,,,,,,
2025-06-11T2200,2392A,115.0312,35.7636,濮阳市,环保局,臭氧1小时,62,60,64,32,31,169,,190,186,17,21,6,13,0.8,0.8
2025-06-11T2200,2394A,115.0574,35.7609,濮阳市,油田运输公司,颗粒物(PM10),60,70,73,32,29,157,,192,186,19,23,7,14,0.9,0.9
2025-06-11T2200,3021A,115,35.7668,濮阳市,濮水河管理处,颗粒物(PM10),61,72,59,34,30,162,,184,181,19,21,6,8,0.8,0.7
2025-06-11T2200,4216A,115.0924,35.7686,濮阳市,任丘路479号,颗粒物(PM10),69,87,80,42,34,147,,185,177,15,19,7,11,1.0,0.9
2025-06-11T2200,2601A,100.98,22.7633,普洱市,市环保局,,,,45,63,20,,,109,107,10,9,4,4,0.5,0.7
2025-06-11T2200,2602A,100.9817,22.8322,普洱市,普洱第二中学,,50,50,44,30,17,62,,99,86,13,11,6,6,0.7,0.6
2025-06-11T2200,2262A,131.0518,45.8751,七台河市,新一中,,28,28,11,14,6,63,,96,87,9,8,10,10,0.8,0.8
2025-06-11T2200,3345A,131.0577,45.7879,七台河市,中波台,,18,18,7,3,8,34,,69,61,23,14,6,6,0.4,0.3
2025-06-11T2200,3637A,131.0176,45.7761,七台河市,人民广场,,40,40,16,28,11,26,,71,61,23,12,9,9,0.6,0.5
2025-06-11T2200,3684A,130.8781,45.8222,七台河市,新建矿广场,,,,10,,12,,,50,,,14,,9,,0.4
2025-06-11T2200,1779A,123.9305,47.3636,齐齐哈尔市,安居小区,,22,21,23,3,9,70,,85,80,15,16,5,3,0.4,0.4
2025-06-11T2200,1780A,123.9488,47.3386,齐齐哈尔市,中心广场,,26,18,27,3,8,81,,95,90,13,16,5,6,0.4,0.4
2025-06-11T2200,1781A,123.9483,47.3227,齐齐哈尔市,农牧车辆厂,,31,31,29,3,9,79,,91,88,6,13,5,6,0.1,0.2
2025-06-11T2200,1783A,123.945,47.2988,齐齐哈尔市,市环境监测站,,24,8,20,3,10,76,,97,92,6,11,4,4,0.2,0.3
2025-06-11T2200,3662A,123.6333,47.2075,齐齐哈尔市,富区青少年活动中心,,25,,25,7,19,77,,88,84,6,12,2,3,0.3,0.4
2025-06-11T2200,2591A,107.9783,26.5747,黔东南苗族侗族自治州,市环境监测站,,,32,22,23,14,,,104,102,,5,3,2,0.5,0.5
2025-06-11T2200,2881A,107.8908,26.5311,黔东南苗族侗族自治州,凯里学院,,28,24,16,18,13,88,,108,104,12,6,2,3,0.4,0.4
2025-06-11T2200,2593A,107.5228,26.2403,黔南布依族苗族自治州,小围寨,,25,14,14,9,8,80,,107,100,6,5,3,3,0.4,0.3
2025-06-11T2200,3538A,107.5175,26.2978,黔南布依族苗族自治州,沙坝,,,,21,,9,,,114,,,7,,5,,0.4
2025-06-11T2200,2589A,104.9022,25.0925,黔西南布依族苗族自治州,场坝街,,35,35,26,14,15,108,,144,133,10,14,3,3,0.4,0.3
2025-06-11T2200,2590A,104.8811,25.0992,黔西南布依族苗族自治州,坪东大道,,30,22,24,13,12,95,,125,115,9,15,1,1,0.2,0.2
2025-06-11T2200,2502A,108.6236,21.9667,钦州市,市环保站,,36,36,24,12,10,34,,79,55,18,11,2,2,0.8,0.7
2025-06-11T2200,2503A,108.6549,21.9481,钦州市,沙埠小学,,35,35,32,14,15,43,,88,57,13,14,1,4,0.4,0.8
2025-06-11T2200,2504A,108.5989,21.7431,钦州市,港区一小,,20,16,32,14,14,37,,83,55,19,18,2,3,0.6,0.6
2025-06-11T2200,3404A,108.5959,21.9633,钦州市,北职校,,34,34,25,12,14,26,,75,48,18,10,1,5,0.6,0.5
2025-06-11T2200,1043A,119.7493,40.0116,秦皇岛市,第一关,细颗粒物(PM2.5),55,53,62,39,29,159,,209,204,28,35,6,9,0.3,0.7
2025-06-11T2200,1044A,119.5897,39.9499,秦皇岛市,监测站,臭氧1小时,83,41,61,8,22,186,,217,214,13,31,4,9,0.4,0.7
2025-06-11T2200,1046A,119.5251,39.9041,秦皇岛市,建设大厦,臭氧1小时,67,51,62,24,19,173,,204,199,18,25,4,11,0.3,0.7
2025-06-11T2200,3132A,119.610547,39.943889,秦皇岛市,文明里,臭氧1小时,64,49,72,23,23,171,,211,209,15,25,4,10,0.3,0.6
2025-06-11T2200,4198A,119.5090,39.8253,秦皇岛市,北戴河轮滑馆,,46,35,57,29,24,146,,216,210,12,15,3,8,0.3,0.6
2025-06-11T2200,1307A,120.6659,36.2403,青岛市,仰口,,27,17,13,13,13,85,,115,95,9,9,8,8,0.5,0.5
2025-06-11T2200,1310A,120.4134,36.0658,青岛市,市南区东部子站,,21,,18,9,13,66,,120,105,23,17,9,8,0.3,0.3
2025-06-11T2200,1311A,120.3664,36.1032,青岛市,四方区子站,,31,14,22,7,14,99,,139,122,19,19,6,7,0.3,0.5
2025-06-11T2200,1312A,120.2994,36.054,青岛市,市南区西部子站,,23,12,20,10,15,72,,124,104,39,22,8,8,0.4,0.5
2025-06-11T2200,1313A,120.4581,36.0858,青岛市,崂山区子站,,27,9,14,7,10,84,,122,114,12,10,7,6,0.2,0.3
2025-06-11T2200,1315A,120.3999,36.3083,青岛市,城阳区子站,,30,7,14,7,9,95,,133,111,21,22,5,5,0.3,0.3
2025-06-11T2200,1966A,120.0405,35.8735,青岛市,黄岛区4号,,34,9,24,3,12,106,,138,119,8,20,8,9,0.5,0.7
2025-06-11T2200,3362A,120.5014,36.4034,青岛市,即墨2号,,32,18,20,6,9,100,,108,101,11,13,8,8,0.2,0.2
2025-06-11T2200,3642A,120.3503,36.0736,青岛市,市北区南部,,,,25,,16,,,104,,,17,,9,,0.4
2025-06-11T2200,3643A,120.3948,36.1805,青岛市,李沧区北部,,26,14,18,9,14,83,,117,101,15,16,7,7,0.5,0.5
2025-06-11T2200,4290A,120.1969,35.9546,青岛市,珠江路669号,,,,19,,16,,,110,,,18,,7,,0.4
2025-06-11T2200,1702A,113.0426,23.691,清远市,环保大楼,颗粒物(PM10),52,54,36,3,13,20,,64,46,19,9,5,6,0.4,0.4
2025-06-11T2200,1703A,113.0208,23.7106,清远市,凤城街办,,13,10,14,3,9,19,,62,46,25,13,7,8,0.5,0.5
2025-06-11T2200,3025A,113.0477,23.6344,清远市,技师学院,,11,8,16,3,9,34,,70,52,17,16,6,8,0.4,0.4
2025-06-11T2200,3318A,112.9903,23.7403,清远市,清新太和,,9,9,15,3,7,26,,58,49,6,8,6,6,0.4,0.5
2025-06-11T2200,3455A,113.076,23.7198,清远市,清城东城,,9,9,16,3,8,22,,64,47,9,7,7,7,0.5,0.4
2025-06-11T2200,2661A,107.6325,35.7357,庆阳市,庆阳五中,颗粒物(PM10),51,52,53,24,20,148,,157,153,13,10,4,5,0.4,0.4
2025-06-11T2200,2662A,107.6364,35.7067,庆阳市,市环保局,颗粒物(PM10),51,52,54,19,18,151,,166,158,10,7,6,7,0.5,0.4
2025-06-11T2200,1916A,103.7897,25.5035,曲靖市,环境监测站,,,,30,,14,120,,137,132,10,11,,7,0.4,0.5
2025-06-11T2200,1917A,103.8,25.5364,曲靖市,烟厂办公区,,37,36,30,18,15,117,,134,130,11,9,4,6,0.5,0.6
2025-06-11T2200,3376A,103.7947,25.462,曲靖市,南苑二区,,40,33,30,18,14,126,,142,137,9,10,4,6,0.3,0.4
2025-06-11T2200,3377A,103.7444,25.5261,曲靖市,曲靖师范学院,,41,41,28,18,18,118,,134,130,10,13,6,9,0.4,0.5
2025-06-11T2200,1264A,118.8692,28.9398,衢州市,环保大楼,,24,22,28,8,7,74,,77,75,9,6,4,4,0.3,0.3
2025-06-11T2200,1265A,118.8709,28.9666,衢州市,实验学校,,,13,11,6,6,,,83,81,13,9,3,2,0.3,0.3
2025-06-11T2200,1266A,118.8621,28.9808,衢州市,衢州学院,,22,12,13,6,6,70,,80,78,15,10,5,5,0.3,0.2
2025-06-11T2200,1611A,118.5819,24.9117,泉州市,涂山街,,28,28,26,16,13,70,,111,97,9,6,2,2,0.8,0.7
2025-06-11T2200,1612A,118.5972,24.8978,泉州市,津头埔,,28,28,25,15,13,71,,108,94,11,7,2,2,0.6,0.5
2025-06-11T2200,1613A,118.6663,24.9424,泉州市,万安,,29,29,28,11,12,72,,108,94,7,7,2,2,0.5,0.5
2025-06-11T2200,1614A,118.6117,24.9604,泉州市,清源山,,,,10,,7,,,,,,3,,2,,0.3
2025-06-11T2200,3529A,118.6333,24.9264,泉州市,城华南路,,26,26,23,14,13,67,,101,90,15,9,4,3,0.5,0.5
2025-06-11T2200,2626A,88.8876,29.2718,日喀则市,日喀则监测站,,28,18,31,8,13,89,,138,130,28,15,11,9,0.3,0.3
2025-06-11T2200,3726A,88.8781,29.2426,日喀则市,林业技术推广中心,,30,30,27,12,12,96,,130,125,9,5,4,4,0.3,0.2
2025-06-11T2200,1659A,119.471,35.4209,日照市,监测站,,31,17,34,7,20,97,,137,106,21,48,7,8,0.5,0.6
2025-06-11T2200,1660A,119.523,35.4216,日照市,市政府广场,,32,27,35,3,16,101,,124,110,13,22,5,6,0.5,0.7
2025-06-11T2200,1661A,119.5587,35.4044,日照市,港务局,,33,,27,13,24,103,,129,108,8,12,4,6,0.4,0.5
2025-06-11T2200,3507A,119.5328,35.4625,日照市,职业技术学院,,31,17,27,3,15,98,,135,112,15,16,4,5,0.5,0.6
2025-06-11T2200,3604A,119.3266,35.1044,日照市,岚山环保分局,,27,19,36,6,20,86,,130,102,31,22,7,8,0.5,0.7
2025-06-11T2200,1835A,111.1922,34.7752,三门峡市,市政府,,46,46,69,13,33,135,,184,165,12,13,5,9,0.6,0.6
2025-06-11T2200,1836A,111.1587,34.7942,三门峡市,开发区,颗粒物(PM10),58,65,74,32,34,146,,202,178,23,19,6,10,0.5,0.6
2025-06-11T2200,1838A,111.143,34.7955,三门峡市,风景区,,49,42,64,22,27,156,,207,184,9,10,8,12,0.4,0.5
2025-06-11T2200,3039A,111.1911,34.7829,三门峡市,三门峡市第一小学,,,,69,,34,,,191,178,10,11,8,11,0.6,0.6
2025-06-11T2200,3598A,111.1,34.7167,三门峡市,富达温泉假日酒店,颗粒物(PM10),55,59,75,27,31,119,,190,166,16,14,7,10,0.6,0.7
2025-06-11T2200,2324A,117.6211,26.2625,三明市,三钢,,,,26,,22,,,44,,,11,,4,,0.8
2025-06-11T2200,2325A,117.635,26.2714,三明市,三明二中,,,9,19,7,11,,,70,57,8,5,3,3,0.5,0.6
2025-06-11T2200,2326A,117.6028,26.2378,三明市,三元区政府,,15,10,22,6,13,48,,76,60,6,13,2,5,0.3,0.5
2025-06-11T2200,2327A,117.7275,26.3108,三明市,洋溪,,,,,,,,,,,,,,,,
2025-06-11T2200,1876A,109.5078,18.2489,三亚市,河东子站,,13,6,18,6,10,40,,45,40,2,7,3,3,0.5,0.6
2025-06-11T2200,1877A,109.4964,18.2681,三亚市,河西子站,,11,6,20,3,8,35,,43,38,4,8,2,2,0.4,0.4
2025-06-11T2200,3540A,109.7348,18.3443,三亚市,君悦子站,,12,10,15,3,4,36,,43,35,7,8,2,2,0.4,0.3
2025-06-11T2200,2624A,91.7608,29.2313,山南市,山南监测站,,38,28,29,10,16,121,,137,134,6,8,7,7,0.2,0.2
2025-06-11T2200,2625A,91.7706,29.2436,山南市,山南人民医院,,40,26,30,22,18,126,,138,136,4,6,5,6,0.1,0.2
2025-06-11T2200,1674A,116.6794,23.3667,汕头市,金平子站,,25,16,13,14,8,79,,84,80,4,5,4,4,0.4,0.4
2025-06-11T2200,1675A,116.7244,23.3633,汕头市,龙湖子站,,25,9,17,6,6,77,,79,78,5,7,5,5,0.4,0.3
2025-06-11T2200,1676A,116.7258,23.2775,汕头市,濠江子站,,28,6,23,6,5,88,,85,85,4,6,4,5,0.5,0.5
2025-06-11T2200,1677A,116.7519,23.4714,汕头市,澄海子站,,30,30,24,15,10,75,,89,80,5,8,2,3,0.6,0.5
2025-06-11T2200,1678A,116.6092,23.2539,汕头市,潮阳子站,,27,19,21,12,8,85,,81,77,1,3,4,4,0.3,0.4
2025-06-11T2200,3444A,116.454,23.2684,汕头市,潮南峡山,,23,18,17,10,10,72,,76,72,2,3,4,5,0.5,0.5
2025-06-11T2200,3624A,116.4069,23.2533,汕头市,潮南子站,,20,15,17,9,6,61,,69,65,6,8,4,4,0.5,0.5
2025-06-11T2200,1693A,115.3653,22.775,汕尾市,市环保局,,18,14,13,3,3,55,,56,56,6,6,2,2,0.4,0.5
2025-06-11T2200,1694A,115.3706,22.7898,汕尾市,市政府,,17,,12,3,4,53,,55,55,6,6,4,4,0.4,0.4
2025-06-11T2200,1695A,115.3622,22.7925,汕尾市,新城中学,,17,16,14,6,4,53,,56,56,6,6,3,2,0.4,0.4
2025-06-11T2200,2645A,109.9154,33.8715,商洛市,监测站,,41,41,49,21,24,114,,156,130,16,17,6,8,0.4,0.4
2025-06-11T2200,3045A,109.9643,33.8471,商洛市,商州区中学,,48,48,56,19,23,103,,151,123,26,24,4,6,0.4,0.4
2025-06-11T2200,2408A,115.6702,34.4285,商丘市,环境监测站,臭氧1小时,63,43,58,21,29,170,,194,192,10,8,2,2,0.3,0.5
